city,state,latitude,longitude,temp,humidity,rain,pressure,uv_index,wind_gusts,aqi,pm10,pm2_5,mosquito_risk,arthritis_risk,migraine_risk,frizz_risk,updated_at
Delhi,Delhi,28.6139,77.209,21.8,67,0.0,984.2,6.15,38.2,159,377.2,62.6,3,5,7,0,2026-03-15T22:06:28.099484+05:30
Mumbai,Maharashtra,19.076,72.8777,27.7,83,0.0,1010.9,7.7,19.8,106,65.2,30.2,7,0,4,1,2026-03-15T22:06:28.099523+05:30
Bangalore,Karnataka,12.9716,77.5946,24.2,50,0.0,913.4,9.3,19.1,132,27.2,26.4,0,5,7,0,2026-03-15T22:06:28.099538+05:30
Hyderabad,Telangana,17.385,78.4867,25.1,63,0.0,955.9,8.7,29.2,106,54.0,45.1,7,5,7,1,2026-03-15T22:06:28.099548+05:30
Chennai,Tamil Nadu,13.0827,80.2707,26.7,79,0.0,1010.5,9.05,32.0,45,9.9,7.3,7,0,4,1,2026-03-15T22:06:28.099556+05:30
Kolkata,West Bengal,22.5726,88.3639,25.4,86,0.0,1008.0,7.9,36.4,58,21.7,17.6,7,0,4,1,2026-03-15T22:06:28.099565+05:30
Pune,Maharashtra,18.5204,73.8567,23.8,51,0.0,950.3,8.25,41.8,151,40.7,33.3,0,5,7,0,2026-03-15T22:06:28.099576+05:30
Ahmedabad,Gujarat,23.0225,72.5714,29.0,28,0.0,1002.6,7.5,27.7,69,59.3,29.2,4,5,4,0,2026-03-15T22:06:28.099584+05:30
Jaipur,Rajasthan,26.9124,75.7873,26.9,25,0.0,959.5,6.95,46.4,128,142.5,35.0,4,5,7,0,2026-03-15T22:06:28.099591+05:30
Lucknow,Uttar Pradesh,26.8467,80.9462,21.9,65,0.0,995.9,6.5,49.0,124,35.9,27.0,3,5,7,0,2026-03-15T22:06:28.099599+05:30
Kanpur,Uttar Pradesh,26.4499,80.3319,22.1,60,0.0,993.3,6.6,41.8,158,312.9,51.1,0,5,7,0,2026-03-15T22:06:28.099605+05:30
Chandigarh,Chandigarh,30.7333,76.7794,16.4,93,0.0,971.6,6.0,31.3,80,34.7,22.2,3,10,3,0,2026-03-15T22:06:28.099613+05:30
Srinagar,Jammu and Kashmir,34.0837,74.7973,5.9,93,0.0,838.3,4.95,27.7,93,12.7,12.1,3,10,3,0,2026-03-15T22:06:28.099620+05:30
Jammu,Jammu and Kashmir,32.7266,74.857,15.5,87,0.0,974.9,2.9,49.0,91,46.2,31.7,3,10,3,0,2026-03-15T22:06:28.099627+05:30
Amritsar,Punjab,31.634,74.8723,14.4,97,0.0,983.4,3.5,34.2,116,41.1,27.0,3,10,3,0,2026-03-15T22:06:28.099634+05:30
Ludhiana,Punjab,30.901,75.8573,16.0,93,0.0,981.7,5.15,31.0,122,43.9,32.8,3,10,3,0,2026-03-15T22:06:28.099640+05:30
Jalandhar,Punjab,31.326,75.5762,15.0,95,0.0,982.8,5.05,35.3,116,39.6,25.0,3,10,3,0,2026-03-15T22:06:28.099652+05:30
Dehradun,Uttarakhand,30.6284,78.0322,9.3,83,0.0,828.9,5.25,34.2,56,18.9,9.1,3,10,3,0,2026-03-15T22:06:28.099675+05:30
Shimla,Himachal Pradesh,31.1048,77.1734,7.6,78,0.0,781.5,5.95,56.2,62,16.7,8.4,3,5,3,0,2026-03-15T22:06:28.099683+05:30
Manali,Himachal Pradesh,32.2396,77.1887,9.1,89,0.1,815.6,6.9,38.5,49,1.2,1.1,6,10,7,0,2026-03-15T22:06:28.099690+05:30
Gurgaon,Haryana,28.4595,77.0266,21.3,68,0.0,982.2,6.25,45.4,1000,2704.6,296.2,3,5,7,0,2026-03-15T22:06:28.099697+05:30
Noida,Uttar Pradesh,28.5355,77.391,21.4,69,0.0,985.8,6.15,36.7,1000,2704.6,296.2,3,5,7,0,2026-03-15T22:06:28.099704+05:30
Ghaziabad,Uttar Pradesh,28.6692,77.4538,20.5,71,0.0,984.1,6.15,34.9,154,275.7,47.0,3,5,7,0,2026-03-15T22:06:28.099710+05:30
Faridabad,Haryana,28.4089,77.3178,21.4,68,0.0,985.0,6.2,39.6,1000,2704.6,296.2,3,5,7,0,2026-03-15T22:06:28.099717+05:30
Meerut,Uttar Pradesh,28.9845,77.7064,19.0,78,0.0,983.1,6.0,27.7,154,275.7,47.0,3,5,3,0,2026-03-15T22:06:28.099723+05:30
Agra,Uttar Pradesh,27.1767,78.0081,21.1,68,0.0,988.8,6.6,36.7,750,1546.0,181.1,3,5,7,0,2026-03-15T22:06:28.099732+05:30
Varanasi,Uttar Pradesh,25.3176,82.9739,24.5,60,0.0,999.6,7.35,32.4,148,69.8,54.5,0,5,7,1,2026-03-15T22:06:28.099741+05:30
Prayagraj,Uttar Pradesh,25.4358,81.8463,24.5,60,0.0,997.8,7.25,42.8,124,40.4,31.8,0,5,7,1,2026-03-15T22:06:28.099748+05:30
Gorakhpur,Uttar Pradesh,26.7606,83.3732,22.0,65,0.0,1000.0,7.1,40.3,153,65.9,54.8,3,5,4,0,2026-03-15T22:06:28.099757+05:30
Bareilly,Uttar Pradesh,28.367,79.4304,18.8,92,0.0,989.4,6.35,34.6,146,42.0,30.0,3,10,7,1,2026-03-15T22:06:28.099764+05:30
Aligarh,Uttar Pradesh,27.8974,78.088,19.9,80,0.0,986.9,6.3,40.7,161,810.3,100.6,3,5,7,1,2026-03-15T22:06:28.099770+05:30
Moradabad,Uttar Pradesh,28.8386,78.7733,19.0,81,0.0,985.6,6.2,29.5,152,44.2,27.6,3,10,7,0,2026-03-15T22:06:28.099776+05:30
Saharanpur,Uttar Pradesh,29.9637,77.546,17.7,74,0.0,977.7,5.8,33.1,148,37.3,21.1,3,5,3,0,2026-03-15T22:06:28.099781+05:30
Jhansi,Uttar Pradesh,25.4484,78.5685,24.2,55,0.0,978.1,7.2,31.7,82,40.5,20.4,0,5,7,0,2026-03-15T22:06:31.445890+05:30
Surat,Gujarat,21.1702,72.8311,26.2,88,0.0,1008.4,7.4,25.2,131,51.1,32.1,7,0,4,1,2026-03-15T22:06:31.445920+05:30
Vadodara,Gujarat,22.3072,73.1812,27.8,55,0.0,1005.3,7.5,25.9,89,56.9,33.5,4,5,4,1,2026-03-15T22:06:31.445930+05:30
Rajkot,Gujarat,22.3039,70.8022,26.8,59,0.0,995.5,7.35,31.0,68,56.9,25.8,4,5,7,1,2026-03-15T22:06:31.445939+05:30
Thane,Maharashtra,19.2183,72.9781,26.3,87,0.0,1010.4,7.7,33.8,106,65.2,30.2,7,0,4,1,2026-03-15T22:06:31.445946+05:30
Nagpur,Maharashtra,21.1458,79.0882,27.3,59,0.0,974.4,8.15,22.3,138,36.7,33.4,4,5,7,1,2026-03-15T22:06:31.445953+05:30
Nashik,Maharashtra,19.9975,73.7898,22.4,61,0.0,947.3,7.9,40.7,71,51.6,25.0,3,5,7,0,2026-03-15T22:06:31.445960+05:30
Aurangabad,Maharashtra,19.8762,75.3433,27.1,40,0.0,945.7,8.4,31.0,111,33.3,25.4,4,5,7,0,2026-03-15T22:06:31.445967+05:30
Solapur,Maharashtra,17.6599,75.9064,26.8,49,0.0,957.8,8.65,24.1,138,58.1,52.3,4,5,7,0,2026-03-15T22:06:31.445974+05:30
Kolhapur,Maharashtra,16.705,74.2433,23.8,69,0.0,949.9,8.7,39.6,131,35.4,27.2,3,5,7,1,2026-03-15T22:06:31.445981+05:30
Goa,Goa,15.2993,74.124,28.3,76,0.0,1000.2,8.75,32.0,119,45.8,33.8,7,5,4,1,2026-03-15T22:06:31.445989+05:30
Jodhpur,Rajasthan,26.2389,73.0243,28.0,19,0.0,982.5,7.25,27.4,111,139.2,27.6,4,5,7,0,2026-03-15T22:06:31.445996+05:30
Udaipur,Rajasthan,24.5854,73.7125,24.6,19,0.0,947.1,7.85,38.2,64,38.2,14.5,0,5,7,1,2026-03-15T22:06:31.446003+05:30
Kota,Rajasthan,25.2138,75.8648,25.6,35,0.0,978.0,7.3,35.3,65,52.3,32.2,4,5,7,0,2026-03-15T22:06:31.446010+05:30
Bikaner,Rajasthan,28.0229,73.3119,27.6,24,0.0,982.0,6.9,41.4,58,13.2,7.5,4,5,7,0,2026-03-15T22:06:31.446017+05:30
Ajmer,Rajasthan,26.4499,74.6399,25.5,33,0.0,954.2,7.25,37.4,75,57.0,23.0,4,5,7,0,2026-03-15T22:06:31.446023+05:30
Gwalior,Madhya Pradesh,26.2183,78.1828,24.4,68,0.0,983.4,6.9,45.4,104,112.2,39.3,3,5,7,1,2026-03-15T22:06:31.446030+05:30
Indore,Madhya Pradesh,22.7196,75.8577,24.3,41,0.0,948.7,7.8,35.6,63,40.3,26.2,0,5,7,0,2026-03-15T22:06:31.446036+05:30
Bhopal,Madhya Pradesh,23.2599,77.4126,25.3,42,0.0,954.1,7.7,42.8,64,33.3,20.3,4,5,7,0,2026-03-15T22:06:31.446042+05:30
Jabalpur,Madhya Pradesh,23.1815,79.9864,25.2,49,0.0,961.7,7.8,38.2,91,27.7,21.1,4,5,7,0,2026-03-15T22:06:31.446048+05:30
Ujjain,Madhya Pradesh,23.1765,75.7885,24.5,41,0.0,954.6,7.7,34.6,67,37.4,22.4,0,5,7,0,2026-03-15T22:06:31.446054+05:30
Visakhapatnam,Andhra Pradesh,17.6868,83.2185,25.7,85,0.0,1007.7,8.65,40.0,64,21.1,16.5,7,5,4,1,2026-03-15T22:06:31.446061+05:30
Vijayawada,Andhra Pradesh,16.5062,80.648,25.0,87,0.0,1005.8,8.75,29.2,57,16.1,13.9,7,5,4,1,2026-03-15T22:06:31.446067+05:30
Guntur,Andhra Pradesh,16.3067,80.4365,25.1,87,0.0,1007.0,8.75,30.2,54,14.3,12.2,7,5,4,1,2026-03-15T22:06:31.446074+05:30
Nellore,Andhra Pradesh,14.4426,79.9865,25.7,85,0.0,1008.8,8.95,29.9,52,9.0,7.0,7,0,4,1,2026-03-15T22:06:31.446081+05:30
Kurnool,Andhra Pradesh,15.8281,78.0373,30.2,42,0.0,978.4,8.75,20.2,126,50.1,41.9,0,5,7,0,2026-03-15T22:06:31.446088+05:30
Kakinada,Andhra Pradesh,16.9891,82.2475,24.4,90,0.0,1011.3,8.7,31.7,58,16.5,11.6,3,0,4,1,2026-03-15T22:06:31.446095+05:30
Tirupati,Andhra Pradesh,13.6288,79.4192,25.8,76,0.0,994.7,9.05,29.5,67,14.2,12.9,7,5,7,1,2026-03-15T22:06:31.446101+05:30
Warangal,Telangana,17.9689,79.5941,26.7,66,0.0,980.7,8.55,31.7,81,35.7,31.8,7,5,7,1,2026-03-15T22:06:31.446108+05:30
Nizamabad,Telangana,18.6725,78.0941,27.8,51,0.0,966.4,8.4,33.1,121,87.1,75.9,4,5,7,1,2026-03-15T22:06:31.446114+05:30
Mysore,Karnataka,12.2958,76.6396,23.3,82,0.0,930.1,9.3,32.8,130,43.3,39.5,3,5,7,1,2026-03-15T22:06:31.446120+05:30
Mangalore,Karnataka,12.9141,74.856,29.1,79,0.0,1009.1,8.95,27.7,84,27.1,22.3,7,0,4,1,2026-03-15T22:06:31.446126+05:30
Hubli-Dharwad,Karnataka,15.3647,75.124,23.8,82,0.0,942.8,8.95,43.2,131,36.6,35.3,3,5,7,1,2026-03-15T22:06:31.446133+05:30
Belgaum,Karnataka,15.8497,74.4977,22.8,90,0.0,927.6,9.0,40.0,124,36.0,30.7,3,5,7,1,2026-03-15T22:06:34.802112+05:30
Coimbatore,Tamil Nadu,11.0168,76.9558,25.1,80,0.0,964.0,9.3,36.0,87,32.0,28.9,7,5,7,1,2026-03-15T22:06:34.802142+05:30
Madurai,Tamil Nadu,9.9252,78.1198,27.2,65,0.0,995.9,9.25,23.4,57,9.5,8.7,7,5,7,1,2026-03-15T22:06:34.802151+05:30
Trichy,Tamil Nadu,10.7905,78.7047,26.7,76,0.0,1002.6,9.15,20.2,54,12.5,11.4,7,5,4,1,2026-03-15T22:06:34.802159+05:30
Salem,Tamil Nadu,11.6643,78.146,27.1,56,0.0,979.3,9.2,14.8,97,19.5,18.8,4,5,7,1,2026-03-15T22:06:34.802167+05:30
Tirunelveli,Tamil Nadu,8.7139,77.7567,27.5,78,0.0,1006.1,9.25,38.2,50,10.5,9.4,7,5,4,1,2026-03-15T22:06:34.802174+05:30
Vellore,Tamil Nadu,12.9165,79.1325,25.6,66,0.0,987.5,9.1,31.0,91,20.0,19.2,7,5,7,1,2026-03-15T22:06:34.802181+05:30
Erode,Tamil Nadu,11.341,77.7172,29.3,45,0.0,990.8,9.2,20.5,67,16.0,15.0,4,5,7,1,2026-03-15T22:06:34.802193+05:30
Kochi,Kerala,9.9312,76.2673,28.1,80,0.0,1011.4,9.1,34.2,80,32.0,30.9,7,0,4,1,2026-03-15T22:06:34.802207+05:30
Thiruvananthapuram,Kerala,8.5241,76.9366,28.2,80,0.0,1010.7,9.1,27.0,77,11.6,8.5,7,0,4,1,2026-03-15T22:06:34.802220+05:30
Kozhikode,Kerala,11.2588,75.7804,28.8,80,0.0,1010.1,9.0,32.8,69,23.4,19.6,7,0,4,1,2026-03-15T22:06:34.802234+05:30
Thrissur,Kerala,10.5276,76.2144,27.8,82,0.0,1009.4,9.05,40.0,80,24.3,22.6,7,0,4,1,2026-03-15T22:06:34.802247+05:30
Kannur,Kerala,11.8745,75.3704,27.9,80,0.0,1009.4,8.95,33.5,80,32.1,28.7,7,0,4,1,2026-03-15T22:06:34.802255+05:30
Patna,Bihar,25.5941,85.1376,25.3,73,0.0,1002.5,7.55,27.4,162,69.2,56.3,7,5,4,1,2026-03-15T22:06:34.802261+05:30
Gaya,Bihar,24.7914,85.0002,24.2,78,0.0,995.1,7.65,30.2,144,69.4,51.3,3,5,7,1,2026-03-15T22:06:34.802268+05:30
Muzaffarpur,Bihar,26.1209,85.3647,23.1,84,0.0,1003.1,7.5,38.5,161,81.0,67.1,3,5,4,1,2026-03-15T22:06:34.802275+05:30
Bhagalpur,Bihar,25.2425,87.0117,24.9,84,0.0,1003.0,7.55,32.4,152,72.6,56.5,3,5,4,1,2026-03-15T22:06:34.802281+05:30
Ranchi,Jharkhand,23.3441,85.3096,22.0,76,0.0,938.8,8.3,45.7,164,50.3,46.6,3,5,7,1,2026-03-15T22:06:34.802288+05:30
Jamshedpur,Jharkhand,22.8046,86.2029,24.3,79,0.0,993.0,8.15,37.4,169,57.5,51.6,3,5,7,1,2026-03-15T22:06:34.802294+05:30
Dhanbad,Jharkhand,23.7957,86.4304,24.7,75,0.0,981.4,8.0,31.7,161,84.5,80.8,3,5,7,1,2026-03-15T22:06:34.802300+05:30
Bokaro,Jharkhand,23.6693,86.1511,24.2,79,0.0,985.3,8.0,28.1,153,75.2,71.5,3,5,7,1,2026-03-15T22:06:34.802307+05:30
Bhubaneswar,Odisha,20.2961,85.8245,25.7,85,0.0,1005.8,8.5,42.5,56,17.8,14.7,7,5,4,1,2026-03-15T22:06:34.802314+05:30
Cuttack,Odisha,20.4625,85.8828,25.6,87,0.0,1007.7,8.5,37.4,56,17.8,14.7,7,5,4,1,2026-03-15T22:06:34.802321+05:30
Rourkela,Odisha,22.2604,84.8536,26.1,77,0.0,987.3,8.1,55.4,198,54.0,48.8,7,5,7,1,2026-03-15T22:06:34.802327+05:30
Raipur,Chhattisgarh,21.2514,81.6296,27.1,54,0.0,976.0,8.2,35.6,149,57.9,52.9,4,5,7,1,2026-03-15T22:06:34.802334+05:30
Bhilai,Chhattisgarh,21.1938,81.3509,26.2,58,0.0,976.1,8.2,36.7,137,58.0,53.4,4,5,7,1,2026-03-15T22:06:34.802340+05:30
Guwahati,Assam,26.1158,91.7086,21.6,93,0.0,1005.1,7.4,40.0,72,23.9,20.4,3,5,4,1,2026-03-15T22:06:34.802347+05:30
Agartala,Tripura,23.8315,91.2868,20.7,95,0.1,1010.8,7.75,52.9,53,24.9,23.1,6,0,4,1,2026-03-15T22:06:34.802353+05:30
Shillong,Meghalaya,25.5788,91.8933,12.9,92,0.0,857.2,7.85,81.0,57,7.7,6.8,3,10,7,0,2026-03-15T22:06:34.802360+05:30
Imphal,Manipur,24.817,93.9368,16.4,83,0.1,926.9,8.15,70.2,81,44.7,38.4,6,10,7,0,2026-03-15T22:06:34.802367+05:30
Aizawl,Mizoram,23.7271,92.7176,16.2,90,0.0,897.4,8.1,56.9,82,30.0,24.6,3,10,7,0,2026-03-15T22:06:34.802375+05:30
Kohima,Nagaland,25.6701,94.1077,15.0,76,0.0,856.2,7.8,111.2,67,35.5,28.4,3,5,7,0,2026-03-15T22:06:34.802383+05:30
Gangtok,Sikkim,27.3314,88.6138,12.4,76,0.0,836.5,7.05,20.9,95,61.0,41.9,3,5,7,0,2026-03-15T22:06:34.802391+05:30
Siliguri,West Bengal,26.7271,88.3953,19.0,88,0.0,996.7,7.45,26.3,125,71.7,54.9,3,10,7,1,2026-03-15T22:06:38.149459+05:30
Durgapur,West Bengal,23.5204,87.3119,24.0,87,0.0,997.0,8.05,36.4,164,75.4,70.3,3,5,7,1,2026-03-15T22:06:38.149486+05:30
Asansol,West Bengal,23.6739,86.9524,24.3,85,0.0,995.4,8.05,33.5,179,68.9,64.3,3,5,7,1,2026-03-15T22:06:38.149495+05:30
Pondicherry,Puducherry,11.9139,79.8145,25.0,91,0.0,1011.7,9.0,28.1,35,7.9,5.6,7,0,4,1,2026-03-15T22:06:38.149503+05:30
Port Blair,Andaman and Nicobar Islands,11.6234,92.7265,27.9,81,0.0,1010.4,8.95,21.6,71,14.6,11.9,7,0,4,1,2026-03-15T22:06:38.149510+05:30
Haridwar,Uttarakhand,29.9457,78.1642,19.4,63,0.0,976.9,5.85,34.6,88,31.8,18.5,3,5,3,0,2026-03-15T22:06:38.149517+05:30
Rishikesh,Uttarakhand,30.0869,78.2676,18.5,65,0.0,969.8,5.65,36.7,67,30.2,16.8,3,5,3,0,2026-03-15T22:06:38.149525+05:30
Nainital,Uttarakhand,29.3919,79.4542,14.3,60,0.0,806.0,5.35,58.7,77,29.3,17.4,0,5,3,0,2026-03-15T22:06:38.149531+05:30
Mussoorie,Uttarakhand,30.4599,78.0664,10.9,73,0.0,801.4,5.35,46.8,77,29.0,18.8,3,5,3,0,2026-03-15T22:06:38.149538+05:30
Dharamshala,Himachal Pradesh,32.219,76.3234,12.8,78,0.0,868.2,4.15,40.7,46,3.9,3.0,3,5,3,0,2026-03-15T22:06:38.149544+05:30
Dalhousie,Himachal Pradesh,32.5387,75.971,8.9,82,0.3,800.8,3.65,32.8,74,33.2,25.6,6,10,3,0,2026-03-15T22:06:38.149552+05:30
Patiala,Punjab,30.3398,76.3869,17.1,90,0.0,981.3,5.9,33.1,119,44.6,25.3,3,10,3,0,2026-03-15T22:06:38.149558+05:30
Bhatinda,Punjab,30.211,74.9455,16.5,88,0.0,986.2,6.4,46.8,99,315.7,62.6,3,10,7,0,2026-03-15T22:06:38.149564+05:30
Rohtak,Haryana,28.8955,76.6066,19.6,76,0.0,983.0,6.15,41.0,243,761.8,98.0,3,5,7,0,2026-03-15T22:06:38.149570+05:30
Panipat,Haryana,29.3909,76.9635,19.2,75,0.0,981.9,5.95,47.5,175,410.7,58.2,3,5,3,0,2026-03-15T22:06:38.149576+05:30
Mathura,Uttar Pradesh,27.4924,77.6737,20.9,70,0.0,987.8,6.5,37.1,302,176.5,46.1,3,5,7,0,2026-03-15T22:06:38.149582+05:30
Vrindavan,Uttar Pradesh,27.5823,77.7027,20.4,79,0.0,988.4,6.45,38.2,302,176.5,46.1,3,5,7,1,2026-03-15T22:06:38.149588+05:30
Ayodhya,Uttar Pradesh,26.7922,82.1998,21.5,66,0.0,997.9,6.9,47.2,120,41.2,32.2,3,5,7,0,2026-03-15T22:06:38.149594+05:30
Ratlam,Madhya Pradesh,23.3315,75.0367,26.4,40,0.0,955.3,7.65,38.5,66,31.7,17.3,4,5,7,0,2026-03-15T22:06:38.149601+05:30
Sagar,Madhya Pradesh,23.8388,78.7378,26.4,39,0.0,950.7,7.65,36.7,62,24.6,15.6,4,5,7,0,2026-03-15T22:06:38.149606+05:30
Satna,Madhya Pradesh,24.6005,80.8322,26.1,64,0.0,972.0,7.6,51.1,87,39.5,22.9,7,5,7,1,2026-03-15T22:06:38.149613+05:30
Akola,Maharashtra,20.7002,77.0082,28.2,38,0.0,975.8,8.15,29.2,119,32.4,26.5,4,5,7,0,2026-03-15T22:06:38.149620+05:30
Amravati,Maharashtra,20.9374,77.7796,28.3,45,0.0,968.0,8.1,27.7,120,33.2,28.4,4,5,7,0,2026-03-15T22:06:38.149627+05:30
Latur,Maharashtra,18.4088,76.5604,25.5,44,0.0,940.7,8.55,25.6,138,38.2,33.8,4,5,7,0,2026-03-15T22:06:38.149633+05:30
Nanded,Maharashtra,19.1383,77.3091,29.2,40,0.0,969.4,8.35,19.1,135,55.4,48.5,4,5,7,0,2026-03-15T22:06:38.149639+05:30
Gulbarga,Karnataka,17.3297,76.8343,27.7,49,0.0,960.1,8.6,24.1,155,43.9,38.5,4,5,7,0,2026-03-15T22:06:38.149644+05:30
Bidar,Karnataka,17.9104,77.5199,25.1,58,0.0,937.0,7.65,45.4,139,49.1,41.7,4,5,7,1,2026-03-15T22:06:38.149651+05:30
Hospet,Karnataka,15.2689,76.3909,27.9,57,0.0,957.6,8.9,27.4,154,56.1,49.1,4,5,7,1,2026-03-15T22:06:38.149674+05:30
Tirupur,Tamil Nadu,11.1085,77.3411,27.6,66,0.0,977.5,9.3,28.4,73,27.1,25.0,7,5,7,1,2026-03-15T22:06:38.149681+05:30
Alappuzha,Kerala,9.4981,76.3388,28.0,82,0.0,1011.6,9.05,30.2,84,30.7,28.0,7,0,4,1,2026-03-15T22:06:38.149687+05:30
Munnar,Kerala,10.0889,77.0595,20.2,86,0.0,858.5,9.55,34.9,59,28.5,26.4,3,5,7,1,2026-03-15T22:06:38.149694+05:30
Silchar,Assam,24.8333,92.7789,20.7,91,0.0,1011.3,7.8,42.5,96,43.0,40.6,3,0,4,1,2026-03-15T22:06:38.149701+05:30
Dibrugarh,Assam,27.4728,94.912,18.6,93,0.0,1000.2,4.5,40.0,71,33.9,27.7,3,10,0,1,2026-03-15T22:06:38.149707+05:30
