city,state,latitude,longitude,temp,humidity,rain,pressure,uv_index,wind_gusts,aqi,pm10,pm2_5,mosquito_risk,arthritis_risk,migraine_risk,frizz_risk,updated_at
Delhi,Delhi,28.6139,77.209,20.7,73,0.0,985.7,5.85,34.6,307,414.4,90.1,3,5,3,0,2026-03-05T02:05:53.541402+05:30
Mumbai,Maharashtra,19.076,72.8777,28.8,57,0.0,1009.5,7.4,27.0,150,32.0,30.5,4,0,4,1,2026-03-05T02:05:53.541443+05:30
Bangalore,Karnataka,12.9716,77.5946,20.5,64,0.0,912.5,9.1,29.5,89,23.6,22.6,3,5,7,0,2026-03-05T02:05:53.541459+05:30
Hyderabad,Telangana,17.385,78.4867,21.9,66,0.0,954.7,8.4,25.6,94,46.3,43.5,3,5,7,0,2026-03-05T02:05:53.541470+05:30
Chennai,Tamil Nadu,13.0827,80.2707,23.8,93,0.0,1009.5,8.85,32.0,87,23.6,20.5,3,0,4,1,2026-03-05T02:05:53.541478+05:30
Kolkata,West Bengal,22.5726,88.3639,21.2,66,0.0,1008.2,7.8,10.8,168,131.8,104.1,3,0,4,0,2026-03-05T02:05:53.541487+05:30
Pune,Maharashtra,18.5204,73.8567,21.3,63,0.0,949.6,7.95,29.5,73,30.9,29.8,3,5,7,0,2026-03-05T02:05:53.541500+05:30
Ahmedabad,Gujarat,23.0225,72.5714,23.6,47,0.0,1006.0,7.15,27.4,73,24.8,23.0,0,5,4,0,2026-03-05T02:05:53.541508+05:30
Jaipur,Rajasthan,26.9124,75.7873,23.9,31,0.0,963.0,6.65,37.8,94,115.9,36.1,0,5,7,0,2026-03-05T02:05:53.541515+05:30
Lucknow,Uttar Pradesh,26.8467,80.9462,21.0,76,0.0,996.2,6.4,14.0,161,229.1,102.2,3,5,7,1,2026-03-05T02:05:53.541523+05:30
Kanpur,Uttar Pradesh,26.4499,80.3319,20.2,74,0.0,994.5,6.4,28.4,175,292.4,88.2,3,5,7,0,2026-03-05T02:05:53.541530+05:30
Chandigarh,Chandigarh,30.7333,76.7794,19.4,75,0.0,971.0,5.75,33.8,86,33.2,29.5,3,5,3,0,2026-03-05T02:05:53.541537+05:30
Srinagar,Jammu and Kashmir,34.0837,74.7973,7.9,84,0.0,843.1,6.7,16.2,151,111.5,84.8,3,10,7,0,2026-03-05T02:05:53.541544+05:30
Jammu,Jammu and Kashmir,32.7266,74.857,17.3,77,0.0,975.5,6.4,27.7,108,51.2,45.1,3,5,7,0,2026-03-05T02:05:53.541551+05:30
Amritsar,Punjab,31.634,74.8723,18.3,76,0.0,984.1,6.35,22.3,152,83.6,67.3,3,5,7,0,2026-03-05T02:05:53.541558+05:30
Ludhiana,Punjab,30.901,75.8573,20.9,76,0.0,981.8,6.0,25.9,155,100.1,83.8,3,5,3,1,2026-03-05T02:05:53.541565+05:30
Jalandhar,Punjab,31.326,75.5762,19.5,76,0.0,982.9,6.2,24.5,156,109.0,93.1,3,5,7,0,2026-03-05T02:05:53.541574+05:30
Dehradun,Uttarakhand,30.6284,78.0322,14.2,35,0.0,830.1,6.15,35.6,55,23.2,16.6,0,5,7,1,2026-03-05T02:05:53.541580+05:30
Shimla,Himachal Pradesh,31.1048,77.1734,14.0,44,0.0,785.9,6.2,53.3,64,32.8,22.2,0,5,7,0,2026-03-05T02:05:53.541588+05:30
Manali,Himachal Pradesh,32.2396,77.1887,17.8,26,0.0,823.5,7.4,32.4,51,30.5,16.4,0,5,7,1,2026-03-05T02:05:53.541595+05:30
Gurgaon,Haryana,28.4595,77.0266,17.9,81,0.0,984.2,5.95,33.8,1204,1151.1,159.7,3,10,3,0,2026-03-05T02:05:53.541602+05:30
Noida,Uttar Pradesh,28.5355,77.391,21.0,72,0.0,987.1,5.85,34.6,1204,1151.1,159.7,3,5,3,0,2026-03-05T02:05:53.541609+05:30
Ghaziabad,Uttar Pradesh,28.6692,77.4538,20.6,77,0.0,985.3,5.85,32.0,197,353.0,86.1,3,5,3,1,2026-03-05T02:05:53.541615+05:30
Faridabad,Haryana,28.4089,77.3178,21.1,63,0.0,986.5,5.9,33.1,1204,1151.1,159.7,3,5,3,0,2026-03-05T02:05:53.541622+05:30
Meerut,Uttar Pradesh,28.9845,77.7064,18.6,90,0.0,983.8,5.7,33.5,197,353.0,86.1,3,10,3,1,2026-03-05T02:05:53.541629+05:30
Agra,Uttar Pradesh,27.1767,78.0081,19.2,68,0.0,990.5,6.25,35.3,430,453.6,80.8,3,5,7,0,2026-03-05T02:05:53.541636+05:30
Varanasi,Uttar Pradesh,25.3176,82.9739,19.5,81,0.0,1000.4,7.05,16.2,154,134.1,86.4,3,10,4,1,2026-03-05T02:05:53.541645+05:30
Prayagraj,Uttar Pradesh,25.4358,81.8463,19.8,80,0.0,999.0,6.9,19.8,154,143.9,79.9,3,5,7,1,2026-03-05T02:05:53.541652+05:30
Gorakhpur,Uttar Pradesh,26.7606,83.3732,20.3,74,0.0,999.8,6.75,11.5,167,152.3,125.7,3,5,7,0,2026-03-05T02:05:53.541659+05:30
Bareilly,Uttar Pradesh,28.367,79.4304,19.0,82,0.0,989.2,6.05,11.9,162,97.3,85.0,3,10,7,0,2026-03-05T02:05:53.541669+05:30
Aligarh,Uttar Pradesh,27.8974,78.088,18.5,76,0.0,988.1,5.95,33.1,618,691.0,132.7,3,5,3,0,2026-03-05T02:05:53.541675+05:30
Moradabad,Uttar Pradesh,28.8386,78.7733,18.9,84,0.0,985.9,5.9,16.2,161,363.2,124.8,3,10,3,1,2026-03-05T02:05:53.541681+05:30
Saharanpur,Uttar Pradesh,29.9637,77.546,17.7,85,0.0,977.8,5.5,32.0,153,130.4,84.8,3,10,3,0,2026-03-05T02:05:53.541687+05:30
Jhansi,Uttar Pradesh,25.4484,78.5685,20.5,55,0.0,980.6,6.85,34.6,62,24.4,18.9,0,5,7,0,2026-03-05T02:05:56.769077+05:30
Surat,Gujarat,21.1702,72.8311,25.0,58,0.0,1009.3,7.1,30.2,133,40.0,37.5,4,0,4,1,2026-03-05T02:05:56.769112+05:30
Vadodara,Gujarat,22.3072,73.1812,23.9,46,0.0,1007.8,7.2,23.4,126,29.6,27.2,0,5,4,0,2026-03-05T02:05:56.769124+05:30
Rajkot,Gujarat,22.3039,70.8022,22.6,57,0.0,998.9,7.05,36.7,69,14.6,13.9,0,5,7,0,2026-03-05T02:05:56.769134+05:30
Thane,Maharashtra,19.2183,72.9781,26.5,51,0.0,1009.1,7.4,37.4,150,32.0,30.5,4,0,4,0,2026-03-05T02:05:56.769143+05:30
Nagpur,Maharashtra,21.1458,79.0882,22.2,58,0.0,975.3,7.8,24.5,67,22.1,18.6,0,5,7,0,2026-03-05T02:05:56.769151+05:30
Nashik,Maharashtra,19.9975,73.7898,23.2,56,0.0,947.8,7.6,36.7,71,24.2,22.7,0,5,7,0,2026-03-05T02:05:56.769160+05:30
Aurangabad,Maharashtra,19.8762,75.3433,22.2,57,0.0,945.7,8.1,31.0,77,40.3,39.6,0,5,7,0,2026-03-05T02:05:56.769168+05:30
Solapur,Maharashtra,17.6599,75.9064,23.2,65,0.0,958.0,8.35,19.8,69,24.8,23.5,3,5,7,1,2026-03-05T02:05:56.769177+05:30
Kolhapur,Maharashtra,16.705,74.2433,19.2,91,0.0,948.8,8.5,27.7,153,87.3,86.8,3,10,7,1,2026-03-05T02:05:56.769186+05:30
Goa,Goa,15.2993,74.124,26.7,91,0.0,999.5,8.55,30.2,121,61.5,59.0,7,5,7,1,2026-03-05T02:05:56.769195+05:30
Jodhpur,Rajasthan,26.2389,73.0243,24.7,43,0.0,987.1,6.9,23.0,83,67.3,28.0,0,5,7,0,2026-03-05T02:05:56.769203+05:30
Udaipur,Rajasthan,24.5854,73.7125,18.4,53,0.0,950.1,7.55,22.7,60,30.0,20.4,0,5,7,0,2026-03-05T02:05:56.769211+05:30
Kota,Rajasthan,25.2138,75.8648,18.6,64,0.0,981.9,6.95,25.2,83,47.6,34.5,3,5,7,0,2026-03-05T02:05:56.769219+05:30
Bikaner,Rajasthan,28.0229,73.3119,22.8,45,0.0,985.6,6.6,22.7,67,49.7,19.8,0,5,7,0,2026-03-05T02:05:56.769226+05:30
Ajmer,Rajasthan,26.4499,74.6399,22.7,37,0.0,958.2,6.9,24.1,71,69.4,24.4,0,5,7,0,2026-03-05T02:05:56.769234+05:30
Gwalior,Madhya Pradesh,26.2183,78.1828,22.3,50,0.0,986.0,6.55,32.8,79,33.5,24.2,0,5,7,0,2026-03-05T02:05:56.769242+05:30
Indore,Madhya Pradesh,22.7196,75.8577,19.4,55,0.0,950.6,7.5,25.2,80,39.8,32.8,0,5,7,0,2026-03-05T02:05:56.769249+05:30
Bhopal,Madhya Pradesh,23.2599,77.4126,21.5,35,0.0,956.3,7.35,29.9,67,29.3,25.3,0,5,7,0,2026-03-05T02:05:56.769257+05:30
Jabalpur,Madhya Pradesh,23.1815,79.9864,21.2,48,0.0,963.8,7.5,30.2,67,34.0,25.1,0,5,7,0,2026-03-05T02:05:56.769265+05:30
Ujjain,Madhya Pradesh,23.1765,75.7885,19.7,55,0.0,956.5,7.4,23.4,110,65.7,58.7,0,5,7,0,2026-03-05T02:05:56.769274+05:30
Visakhapatnam,Andhra Pradesh,17.6868,83.2185,24.2,79,0.0,1004.9,8.45,34.6,124,35.7,34.0,3,5,4,1,2026-03-05T02:05:56.769282+05:30
Vijayawada,Andhra Pradesh,16.5062,80.648,24.2,74,0.0,1004.4,8.5,16.2,118,24.7,23.5,3,5,4,1,2026-03-05T02:05:56.769290+05:30
Guntur,Andhra Pradesh,16.3067,80.4365,23.4,88,0.0,1005.6,8.5,20.9,107,23.2,22.4,3,5,4,1,2026-03-05T02:05:56.769318+05:30
Nellore,Andhra Pradesh,14.4426,79.9865,23.9,86,0.0,1007.9,8.7,32.0,91,15.7,14.6,3,5,4,1,2026-03-05T02:05:56.769327+05:30
Kurnool,Andhra Pradesh,15.8281,78.0373,27.1,47,0.0,978.1,8.5,24.5,84,21.0,20.0,4,5,7,0,2026-03-05T02:05:56.769335+05:30
Kakinada,Andhra Pradesh,16.9891,82.2475,22.0,91,0.0,1009.3,8.45,30.6,95,30.5,27.0,3,0,4,1,2026-03-05T02:05:56.769342+05:30
Tirupati,Andhra Pradesh,13.6288,79.4192,22.3,63,0.0,994.0,8.8,31.0,128,50.2,49.4,3,5,7,0,2026-03-05T02:05:56.769349+05:30
Warangal,Telangana,17.9689,79.5941,23.3,61,0.0,979.9,8.25,27.4,111,31.2,29.2,3,5,7,0,2026-03-05T02:05:56.769356+05:30
Nizamabad,Telangana,18.6725,78.0941,20.4,68,0.0,966.1,8.15,23.8,74,24.6,22.1,3,5,7,0,2026-03-05T02:05:56.769363+05:30
Mysore,Karnataka,12.2958,76.6396,20.8,93,0.0,929.5,9.15,24.5,90,26.6,25.7,3,5,7,1,2026-03-05T02:05:56.769372+05:30
Mangalore,Karnataka,12.9141,74.856,28.4,81,0.0,1008.3,8.75,28.8,96,42.3,38.3,7,0,4,1,2026-03-05T02:05:56.769380+05:30
Hubli-Dharwad,Karnataka,15.3647,75.124,22.0,89,0.0,941.8,8.7,21.6,103,27.3,26.5,3,5,7,1,2026-03-05T02:05:56.769387+05:30
Belgaum,Karnataka,15.8497,74.4977,21.2,92,0.0,926.6,8.75,35.3,114,58.4,56.9,3,5,7,1,2026-03-05T02:05:59.994696+05:30
Coimbatore,Tamil Nadu,11.0168,76.9558,21.3,78,0.0,963.3,9.15,35.3,96,48.7,47.5,3,5,7,1,2026-03-05T02:05:59.994725+05:30
Madurai,Tamil Nadu,9.9252,78.1198,24.8,85,0.0,995.2,9.1,30.6,84,29.5,28.7,3,5,7,1,2026-03-05T02:05:59.994735+05:30
Trichy,Tamil Nadu,10.7905,78.7047,22.6,95,0.0,1002.1,9.0,32.4,88,23.6,21.7,3,5,4,1,2026-03-05T02:05:59.994744+05:30
Salem,Tamil Nadu,11.6643,78.146,22.8,72,0.0,979.0,9.05,17.3,97,35.6,34.9,3,5,7,1,2026-03-05T02:05:59.994751+05:30
Tirunelveli,Tamil Nadu,8.7139,77.7567,24.2,85,0.0,1005.3,9.15,45.0,76,25.4,24.3,3,5,4,1,2026-03-05T02:05:59.994758+05:30
Vellore,Tamil Nadu,12.9165,79.1325,21.4,75,0.0,987.0,8.9,29.9,117,47.8,46.9,3,5,7,1,2026-03-05T02:05:59.994765+05:30
Erode,Tamil Nadu,11.341,77.7172,22.8,77,0.0,991.1,9.05,18.7,92,26.7,26.0,3,5,7,1,2026-03-05T02:05:59.994772+05:30
Kochi,Kerala,9.9312,76.2673,27.1,81,0.0,1010.4,8.95,34.9,99,44.0,43.5,7,0,4,1,2026-03-05T02:05:59.994780+05:30
Thiruvananthapuram,Kerala,8.5241,76.9366,27.0,81,0.0,1009.3,9.0,28.8,88,21.2,19.1,7,0,4,1,2026-03-05T02:05:59.994787+05:30
Kozhikode,Kerala,11.2588,75.7804,27.7,81,0.0,1009.5,8.85,30.2,95,39.1,35.0,7,0,4,1,2026-03-05T02:05:59.994793+05:30
Thrissur,Kerala,10.5276,76.2144,25.3,93,0.0,1008.8,8.9,38.2,106,46.1,44.8,7,0,4,1,2026-03-05T02:05:59.994801+05:30
Kannur,Kerala,11.8745,75.3704,27.2,85,0.0,1008.7,8.85,35.6,93,42.0,38.9,7,0,4,1,2026-03-05T02:05:59.994808+05:30
Patna,Bihar,25.5941,85.1376,22.0,69,0.0,1003.3,7.2,14.8,170,156.0,124.3,3,5,4,1,2026-03-05T02:05:59.994816+05:30
Gaya,Bihar,24.7914,85.0002,19.1,73,0.0,996.6,7.3,13.0,154,133.2,83.6,3,5,7,0,2026-03-05T02:05:59.994823+05:30
Muzaffarpur,Bihar,26.1209,85.3647,19.9,76,0.0,1003.3,7.15,15.1,170,162.1,129.9,3,5,4,0,2026-03-05T02:05:59.994830+05:30
Bhagalpur,Bihar,25.2425,87.0117,19.8,73,0.0,1003.9,7.25,11.2,164,137.8,105.9,3,5,4,0,2026-03-05T02:05:59.994837+05:30
Ranchi,Jharkhand,23.3441,85.3096,19.4,50,0.0,939.3,7.95,14.8,100,136.0,48.3,0,5,7,0,2026-03-05T02:05:59.994843+05:30
Jamshedpur,Jharkhand,22.8046,86.2029,23.3,55,0.0,993.1,7.85,9.7,151,141.1,85.9,0,5,7,0,2026-03-05T02:05:59.994850+05:30
Dhanbad,Jharkhand,23.7957,86.4304,20.1,60,0.0,982.1,7.75,14.4,153,109.4,81.7,0,5,7,0,2026-03-05T02:05:59.994857+05:30
Bokaro,Jharkhand,23.6693,86.1511,21.1,51,0.0,986.5,7.75,10.4,154,132.2,87.3,0,5,7,0,2026-03-05T02:05:59.994864+05:30
Bhubaneswar,Odisha,20.2961,85.8245,22.8,96,0.0,1003.6,8.15,31.0,155,77.5,69.4,3,5,4,1,2026-03-05T02:05:59.994871+05:30
Cuttack,Odisha,20.4625,85.8828,22.3,96,0.0,1005.9,8.2,25.9,155,77.5,69.4,3,5,4,1,2026-03-05T02:05:59.994878+05:30
Rourkela,Odisha,22.2604,84.8536,22.4,54,0.0,987.1,7.75,19.8,98,71.2,42.4,0,5,7,0,2026-03-05T02:05:59.994885+05:30
Raipur,Chhattisgarh,21.2514,81.6296,22.6,50,0.0,976.5,7.85,24.8,128,70.8,61.9,0,5,7,0,2026-03-05T02:05:59.994891+05:30
Bhilai,Chhattisgarh,21.1938,81.3509,22.0,51,0.0,976.8,7.85,26.3,113,55.9,47.7,0,5,7,0,2026-03-05T02:05:59.994898+05:30
Guwahati,Assam,26.1158,91.7086,20.8,84,0.0,1003.2,7.15,17.3,143,52.3,48.1,3,5,4,1,2026-03-05T02:05:59.994904+05:30
Agartala,Tripura,23.8315,91.2868,19.3,75,0.0,1007.7,7.55,15.8,162,108.0,86.8,3,5,4,0,2026-03-05T02:05:59.994911+05:30
Shillong,Meghalaya,25.5788,91.8933,10.5,88,0.0,854.9,7.55,15.5,126,42.3,38.1,3,10,7,0,2026-03-05T02:05:59.994918+05:30
Imphal,Manipur,24.817,93.9368,14.3,83,0.0,923.4,7.75,23.8,141,75.7,70.1,3,10,7,0,2026-03-05T02:05:59.994925+05:30
Aizawl,Mizoram,23.7271,92.7176,14.4,73,0.0,891.8,7.75,21.2,163,122.0,109.7,3,5,7,0,2026-03-05T02:05:59.994932+05:30
Kohima,Nagaland,25.6701,94.1077,12.7,73,0.0,854.3,7.6,38.2,151,74.0,66.8,3,5,7,0,2026-03-05T02:05:59.994938+05:30
Gangtok,Sikkim,27.3314,88.6138,11.4,86,0.0,836.6,7.5,22.0,127,50.6,43.5,3,10,7,0,2026-03-05T02:05:59.994945+05:30
Siliguri,West Bengal,26.7271,88.3953,20.3,68,0.0,996.1,7.15,23.4,155,74.0,68.0,3,5,7,0,2026-03-05T02:06:03.223431+05:30
Durgapur,West Bengal,23.5204,87.3119,22.2,54,0.0,997.4,7.7,16.6,150,118.7,90.3,0,5,7,0,2026-03-05T02:06:03.223460+05:30
Asansol,West Bengal,23.6739,86.9524,22.0,57,0.0,995.9,7.7,15.1,129,88.9,66.4,0,5,7,0,2026-03-05T02:06:03.223470+05:30
Pondicherry,Puducherry,11.9139,79.8145,21.8,100,0.0,1010.9,8.85,24.5,79,20.2,16.5,3,0,4,1,2026-03-05T02:06:03.223478+05:30
Port Blair,Andaman and Nicobar Islands,11.6234,92.7265,26.6,80,0.0,1007.2,8.8,22.3,102,38.9,33.4,7,5,4,1,2026-03-05T02:06:03.223485+05:30
Haridwar,Uttarakhand,29.9457,78.1642,18.2,82,0.0,976.5,5.65,21.2,131,80.6,63.8,3,10,3,0,2026-03-05T02:06:03.223493+05:30
Rishikesh,Uttarakhand,30.0869,78.2676,18.0,75,0.0,969.1,5.7,22.0,105,44.7,40.0,3,5,3,0,2026-03-05T02:06:03.223500+05:30
Nainital,Uttarakhand,29.3919,79.4542,15.6,64,0.0,806.1,6.5,53.6,143,77.5,61.7,3,5,7,0,2026-03-05T02:06:03.223507+05:30
Mussoorie,Uttarakhand,30.4599,78.0664,15.7,50,0.0,803.2,6.05,40.7,96,46.4,39.3,0,5,7,0,2026-03-05T02:06:03.223514+05:30
Dharamshala,Himachal Pradesh,32.219,76.3234,21.7,34,0.0,871.9,6.3,25.9,53,22.6,10.6,0,5,7,0,2026-03-05T02:06:03.223521+05:30
Dalhousie,Himachal Pradesh,32.5387,75.971,18.1,28,0.0,806.4,6.5,23.8,81,39.1,33.8,0,5,7,1,2026-03-05T02:06:03.223528+05:30
Patiala,Punjab,30.3398,76.3869,19.5,87,0.0,980.8,5.7,30.2,186,342.7,83.4,3,10,3,1,2026-03-05T02:06:03.223535+05:30
Bhatinda,Punjab,30.211,74.9455,19.8,77,0.0,986.7,6.35,29.2,149,63.3,42.5,3,5,7,0,2026-03-05T02:06:03.223542+05:30
Rohtak,Haryana,28.8955,76.6066,18.7,82,0.0,984.6,5.85,35.3,432,516.0,94.5,3,10,3,0,2026-03-05T02:06:03.223548+05:30
Panipat,Haryana,29.3909,76.9635,18.9,89,0.0,982.9,5.65,33.8,970,1117.6,151.8,3,10,3,1,2026-03-05T02:06:03.223555+05:30
Mathura,Uttar Pradesh,27.4924,77.6737,23.1,48,0.0,989.5,6.15,32.4,496,475.9,85.9,0,5,7,0,2026-03-05T02:06:03.223561+05:30
Vrindavan,Uttar Pradesh,27.5823,77.7027,19.0,69,0.0,989.8,6.1,34.2,496,475.9,85.9,3,5,7,0,2026-03-05T02:06:03.223567+05:30
Ayodhya,Uttar Pradesh,26.7922,82.1998,19.9,79,0.0,998.0,6.55,11.2,169,265.4,135.5,3,5,7,1,2026-03-05T02:06:03.223573+05:30
Ratlam,Madhya Pradesh,23.3315,75.0367,17.3,89,0.0,957.0,7.35,23.0,102,53.4,45.3,3,10,7,0,2026-03-05T02:06:03.223579+05:30
Sagar,Madhya Pradesh,23.8388,78.7378,21.5,44,0.0,952.8,7.3,31.3,59,23.2,19.0,0,5,7,0,2026-03-05T02:06:03.223586+05:30
Satna,Madhya Pradesh,24.6005,80.8322,20.7,54,0.0,973.7,7.3,39.6,71,31.3,23.6,0,5,7,0,2026-03-05T02:06:03.223592+05:30
Akola,Maharashtra,20.7002,77.0082,21.7,56,0.0,977.2,7.8,25.2,76,35.5,32.0,0,5,7,0,2026-03-05T02:06:03.223599+05:30
Amravati,Maharashtra,20.9374,77.7796,22.7,50,0.0,969.1,7.75,17.3,72,40.0,35.9,0,5,7,0,2026-03-05T02:06:03.223606+05:30
Latur,Maharashtra,18.4088,76.5604,23.5,48,0.0,941.1,8.25,31.3,82,51.1,48.1,0,5,7,0,2026-03-05T02:06:03.223612+05:30
Nanded,Maharashtra,19.1383,77.3091,23.5,59,0.0,970.4,8.05,24.1,75,37.1,34.9,0,5,7,0,2026-03-05T02:06:03.223618+05:30
Gulbarga,Karnataka,17.3297,76.8343,25.3,45,0.0,960.1,8.35,19.1,71,22.9,21.3,4,5,7,0,2026-03-05T02:06:03.223625+05:30
Bidar,Karnataka,17.9104,77.5199,22.2,60,0.0,936.6,8.3,23.4,88,44.4,41.0,0,5,7,0,2026-03-05T02:06:03.223631+05:30
Hospet,Karnataka,15.2689,76.3909,25.9,49,0.0,957.0,8.7,17.3,106,32.2,31.0,4,5,7,0,2026-03-05T02:06:03.223637+05:30
Tirupur,Tamil Nadu,11.1085,77.3411,23.6,71,0.0,977.3,9.15,27.0,107,40.0,39.3,3,5,7,1,2026-03-05T02:06:03.223642+05:30
Alappuzha,Kerala,9.4981,76.3388,27.1,80,0.0,1010.4,8.95,34.2,96,43.3,41.9,7,0,4,1,2026-03-05T02:06:03.223649+05:30
Munnar,Kerala,10.0889,77.0595,17.1,75,0.0,856.2,9.45,26.3,78,27.3,26.9,3,5,7,0,2026-03-05T02:06:03.223656+05:30
Silchar,Assam,24.8333,92.7789,20.4,78,0.0,1006.4,7.5,13.0,151,83.8,73.6,3,5,4,1,2026-03-05T02:06:03.223662+05:30
Dibrugarh,Assam,27.4728,94.912,20.7,87,0.0,997.5,7.2,9.7,126,43.7,39.8,3,5,7,1,2026-03-05T02:06:03.223668+05:30
