city,state,latitude,longitude,temp,humidity,rain,pressure,uv_index,wind_gusts,aqi,pm10,pm2_5,no2,co,o3,so2,mosquito_risk,arthritis_risk,migraine_risk,frizz_risk,updated_at
Delhi,Delhi,28.6139,77.209,27.2,88,0.0,976.2,6.95,37.1,102,27.4,27.2,22.2,397.0,63.0,19.0,7,5,7,1,2026-07-23T02:40:57.436427+05:30
Mumbai,Maharashtra,19.076,72.8777,26.3,89,0.5,1003.5,0.85,68.4,57,48.2,19.7,2.6,100.0,46.0,2.3,10,5,0,1,2026-07-23T02:40:57.436473+05:30
Bangalore,Karnataka,12.9716,77.5946,19.9,93,0.0,910.6,9.0,49.7,31,7.5,5.3,10.6,182.0,26.0,4.6,3,10,7,1,2026-07-23T02:40:57.436489+05:30
Hyderabad,Telangana,17.385,78.4867,23.2,88,0.0,950.2,7.8,59.4,37,8.7,5.3,7.7,132.0,33.0,4.4,3,5,7,1,2026-07-23T02:40:57.436498+05:30
Chennai,Tamil Nadu,13.0827,80.2707,27.0,89,0.0,1005.8,8.95,36.4,73,27.0,20.2,17.0,229.0,55.0,8.3,7,5,4,1,2026-07-23T02:40:57.436506+05:30
Kolkata,West Bengal,22.5726,88.3639,24.3,96,0.5,1001.8,1.2,33.8,57,19.6,17.1,9.8,267.0,59.0,6.8,6,5,0,1,2026-07-23T02:40:57.436514+05:30
Pune,Maharashtra,18.5204,73.8567,22.1,88,0.1,942.9,1.45,58.0,37,48.4,20.3,2.7,106.0,65.0,2.4,6,5,3,1,2026-07-23T02:40:57.436520+05:30
Ahmedabad,Gujarat,23.0225,72.5714,26.1,97,0.4,992.8,3.95,43.9,61,18.7,9.7,7.7,126.0,37.0,3.2,10,5,3,1,2026-07-23T02:40:57.436526+05:30
Jaipur,Rajasthan,26.9124,75.7873,25.3,95,0.0,951.5,7.3,30.6,57,40.6,24.9,14.6,255.0,72.0,5.8,7,5,7,1,2026-07-23T02:40:57.436533+05:30
Lucknow,Uttar Pradesh,26.8467,80.9462,26.3,91,0.0,986.8,4.2,50.0,70,11.8,11.8,7.8,302.0,80.0,6.5,7,5,3,1,2026-07-23T02:40:57.436543+05:30
Kanpur,Uttar Pradesh,26.4499,80.3319,26.6,90,0.0,984.4,7.6,47.9,71,13.5,13.5,8.8,286.0,78.0,6.4,7,5,7,1,2026-07-23T02:40:57.436552+05:30
Chandigarh,Chandigarh,30.7333,76.7794,27.5,76,0.0,963.5,7.6,36.7,89,34.3,33.9,33.7,360.0,29.0,6.7,7,5,7,1,2026-07-23T02:40:57.436558+05:30
Srinagar,Jammu and Kashmir,34.0837,74.7973,15.8,100,0.1,838.4,8.75,24.5,64,18.0,17.9,19.2,441.0,40.0,2.6,6,10,7,0,2026-07-23T02:40:57.436565+05:30
Jammu,Jammu and Kashmir,32.7266,74.857,24.3,88,0.1,967.1,7.75,32.4,73,45.9,44.6,60.1,245.0,4.0,5.9,6,5,7,1,2026-07-23T02:40:57.436572+05:30
Amritsar,Punjab,31.634,74.8723,26.1,87,0.0,974.7,5.7,29.5,84,32.5,31.9,21.8,615.0,40.0,5.6,7,5,3,1,2026-07-23T02:40:57.436579+05:30
Ludhiana,Punjab,30.901,75.8573,26.4,96,0.1,973.1,6.15,37.4,103,60.8,59.3,44.2,696.0,19.0,13.0,10,5,7,1,2026-07-23T02:40:57.436586+05:30
Jalandhar,Punjab,31.326,75.5762,26.8,95,0.0,973.9,6.9,32.8,100,33.3,33.1,26.5,798.0,36.0,6.1,7,5,7,1,2026-07-23T02:40:57.436592+05:30
Dehradun,Uttarakhand,30.6284,78.0322,16.4,98,0.0,826.3,7.75,24.1,36,5.3,5.2,10.2,209.0,55.0,0.6,3,10,7,1,2026-07-23T02:40:57.436598+05:30
Shimla,Himachal Pradesh,31.1048,77.1734,15.7,87,0.0,781.8,7.2,23.4,46,10.6,10.4,16.1,334.0,50.0,0.4,3,10,7,0,2026-07-23T02:40:57.436607+05:30
Manali,Himachal Pradesh,32.2396,77.1887,19.1,88,0.1,816.8,6.7,23.8,20,1.3,1.3,18.2,199.0,49.0,0.7,6,10,7,1,2026-07-23T02:40:57.436615+05:30
Gurgaon,Haryana,28.4595,77.0266,27.2,88,0.0,974.5,7.0,39.2,106,21.6,21.5,19.8,414.0,65.0,18.6,7,5,7,1,2026-07-23T02:40:57.436621+05:30
Noida,Uttar Pradesh,28.5355,77.391,27.3,87,0.0,977.8,6.95,37.8,106,21.6,21.5,19.8,329.0,65.0,18.6,7,5,7,1,2026-07-23T02:40:57.436627+05:30
Ghaziabad,Uttar Pradesh,28.6692,77.4538,27.2,87,0.0,976.2,7.55,40.7,88,22.6,22.5,14.9,316.0,64.0,9.7,7,5,7,1,2026-07-23T02:40:57.436633+05:30
Faridabad,Haryana,28.4089,77.3178,27.2,88,0.0,977.0,7.05,41.0,106,21.6,21.5,19.8,363.0,65.0,18.6,7,5,7,1,2026-07-23T02:40:57.436639+05:30
Meerut,Uttar Pradesh,28.9845,77.7064,27.4,84,0.0,975.4,7.5,43.2,88,22.6,22.5,14.9,299.0,64.0,9.7,7,5,7,1,2026-07-23T02:40:57.436645+05:30
Agra,Uttar Pradesh,27.1767,78.0081,27.8,81,0.0,980.1,7.15,39.6,72,17.6,17.6,12.0,279.0,76.0,7.1,7,5,7,1,2026-07-23T02:40:57.436652+05:30
Varanasi,Uttar Pradesh,25.3176,82.9739,25.8,95,0.0,990.8,6.25,35.3,64,14.1,14.1,24.6,432.0,26.0,22.1,7,5,7,1,2026-07-23T02:40:57.436658+05:30
Prayagraj,Uttar Pradesh,25.4358,81.8463,26.1,93,0.0,988.3,7.3,34.2,66,18.4,18.4,14.4,354.0,63.0,13.4,7,5,7,1,2026-07-23T02:40:57.436664+05:30
Gorakhpur,Uttar Pradesh,26.7606,83.3732,26.8,88,0.0,991.8,4.6,47.9,68,15.2,15.2,10.4,300.0,64.0,6.6,7,5,3,1,2026-07-23T02:40:57.436670+05:30
Bareilly,Uttar Pradesh,28.367,79.4304,27.7,80,0.0,980.9,5.4,49.3,75,17.5,17.4,11.6,293.0,63.0,5.3,7,5,3,1,2026-07-23T02:40:57.436678+05:30
Aligarh,Uttar Pradesh,27.8974,78.088,27.2,87,0.0,978.6,7.1,43.6,81,17.1,17.1,13.4,301.0,72.0,11.7,7,5,7,1,2026-07-23T02:40:57.436684+05:30
Moradabad,Uttar Pradesh,28.8386,78.7733,27.9,79,0.0,978.0,7.35,49.0,75,18.9,18.7,11.3,287.0,67.0,6.2,7,5,7,1,2026-07-23T02:40:57.436691+05:30
Saharanpur,Uttar Pradesh,29.9637,77.546,27.6,81,0.0,970.2,7.3,41.0,83,35.0,34.8,24.5,475.0,32.0,7.6,7,5,7,1,2026-07-23T02:40:57.436697+05:30
Jhansi,Uttar Pradesh,25.4484,78.5685,25.6,97,0.0,969.4,7.45,28.4,57,14.8,14.8,10.1,250.0,78.0,5.1,7,5,7,1,2026-07-23T02:41:00.845209+05:30
Surat,Gujarat,21.1702,72.8311,26.2,95,0.2,998.3,1.55,50.8,74,12.9,10.1,16.3,217.0,30.0,25.4,10,5,3,1,2026-07-23T02:41:00.845248+05:30
Vadodara,Gujarat,22.3072,73.1812,25.7,98,0.2,995.4,1.05,42.8,63,21.0,12.3,10.8,171.0,42.0,4.3,10,5,3,1,2026-07-23T02:41:00.845262+05:30
Rajkot,Gujarat,22.3039,70.8022,26.6,86,0.0,985.4,1.7,56.5,61,22.1,11.1,5.0,92.0,38.0,4.7,7,5,3,1,2026-07-23T02:41:00.845272+05:30
Thane,Maharashtra,19.2183,72.9781,25.1,95,0.7,1002.7,0.55,45.0,57,48.2,19.7,2.6,107.0,46.0,2.3,10,5,0,1,2026-07-23T02:41:00.845281+05:30
Nagpur,Maharashtra,21.1458,79.0882,24.2,92,0.1,967.0,5.4,55.1,29,6.8,5.5,10.2,167.0,35.0,10.1,6,5,3,1,2026-07-23T02:41:00.845290+05:30
Nashik,Maharashtra,19.9975,73.7898,22.4,96,0.2,938.2,1.35,63.7,17,0.6,0.6,5.7,104.0,38.0,4.5,6,5,3,1,2026-07-23T02:41:00.845299+05:30
Aurangabad,Maharashtra,19.8762,75.3433,22.4,90,0.0,937.9,3.65,66.6,19,1.4,1.3,3.6,115.0,44.0,2.4,3,5,3,1,2026-07-23T02:41:00.845308+05:30
Solapur,Maharashtra,17.6599,75.9064,24.0,82,0.0,953.7,5.3,64.1,28,31.3,13.4,4.0,113.0,50.0,2.1,3,5,3,1,2026-07-23T02:41:00.845318+05:30
Kolhapur,Maharashtra,16.705,74.2433,22.0,93,0.0,945.0,5.55,54.4,25,14.4,6.9,2.8,111.0,43.0,1.5,3,5,3,1,2026-07-23T02:41:00.845327+05:30
Goa,Goa,15.2993,74.124,23.2,98,0.5,997.4,3.95,43.2,56,21.4,11.1,1.9,223.0,39.0,0.6,6,5,3,1,2026-07-23T02:41:00.845335+05:30
Jodhpur,Rajasthan,26.2389,73.0243,25.7,98,0.0,973.5,8.15,31.3,87,68.9,23.3,7.6,170.0,67.0,1.5,7,5,7,1,2026-07-23T02:41:00.845344+05:30
Udaipur,Rajasthan,24.5854,73.7125,23.7,98,1.0,936.8,8.65,27.7,52,4.7,2.8,4.2,149.0,67.0,1.7,6,5,7,1,2026-07-23T02:41:00.845353+05:30
Kota,Rajasthan,25.2138,75.8648,25.5,96,0.0,969.6,7.8,28.4,50,11.0,10.6,11.8,276.0,74.0,7.7,7,5,7,1,2026-07-23T02:41:00.845362+05:30
Bikaner,Rajasthan,28.0229,73.3119,27.1,93,0.0,973.2,7.15,27.0,61,10.3,10.2,4.7,231.0,97.0,3.3,7,5,7,1,2026-07-23T02:41:00.845370+05:30
Ajmer,Rajasthan,26.4499,74.6399,24.7,96,0.0,946.0,7.35,32.8,54,11.3,10.9,11.6,223.0,74.0,2.7,3,5,7,1,2026-07-23T02:41:00.845379+05:30
Gwalior,Madhya Pradesh,26.2183,78.1828,26.3,92,0.0,975.0,6.15,28.4,56,14.6,14.1,8.7,289.0,89.0,6.8,7,5,7,1,2026-07-23T02:41:00.845387+05:30
Indore,Madhya Pradesh,22.7196,75.8577,23.7,97,0.2,939.4,2.1,52.9,47,11.2,9.8,11.2,215.0,44.0,8.4,6,5,3,1,2026-07-23T02:41:00.845396+05:30
Bhopal,Madhya Pradesh,23.2599,77.4126,23.7,97,0.2,945.0,5.1,33.8,36,7.3,6.8,7.9,168.0,50.0,3.8,6,5,3,1,2026-07-23T02:41:00.845404+05:30
Jabalpur,Madhya Pradesh,23.1815,79.9864,24.0,98,0.1,953.6,1.15,36.7,28,5.2,5.1,7.1,164.0,52.0,4.8,6,5,3,1,2026-07-23T02:41:00.845413+05:30
Ujjain,Madhya Pradesh,23.1765,75.7885,23.1,97,0.4,944.9,2.65,43.9,45,11.4,10.2,9.1,223.0,48.0,8.7,6,5,3,1,2026-07-23T02:41:00.845422+05:30
Visakhapatnam,Andhra Pradesh,17.6868,83.2185,27.3,78,0.0,1000.3,8.1,41.8,64,20.0,15.8,17.0,244.0,43.0,26.8,7,5,4,1,2026-07-23T02:41:00.845431+05:30
Vijayawada,Andhra Pradesh,16.5062,80.648,28.1,71,0.0,1000.2,7.45,38.2,55,16.6,9.7,7.9,185.0,37.0,6.1,7,5,4,1,2026-07-23T02:41:00.845440+05:30
Guntur,Andhra Pradesh,16.3067,80.4365,28.2,70,0.0,1001.6,8.2,43.6,52,14.4,8.9,8.6,149.0,35.0,6.4,7,5,4,1,2026-07-23T02:41:00.845449+05:30
Nellore,Andhra Pradesh,14.4426,79.9865,27.3,74,0.0,1004.3,8.95,38.2,61,16.8,11.4,12.2,177.0,33.0,4.1,7,5,4,1,2026-07-23T02:41:00.845458+05:30
Kurnool,Andhra Pradesh,15.8281,78.0373,25.7,74,0.0,975.3,8.75,48.2,33,4.4,3.3,7.3,116.0,30.0,4.0,7,5,7,1,2026-07-23T02:41:00.845468+05:30
Kakinada,Andhra Pradesh,16.9891,82.2475,28.0,73,0.0,1004.8,8.3,48.2,61,25.4,17.9,5.3,183.0,82.0,4.8,7,5,4,1,2026-07-23T02:41:00.845477+05:30
Tirupati,Andhra Pradesh,13.6288,79.4192,25.5,95,0.0,989.9,8.65,35.3,61,19.4,16.5,24.1,186.0,10.0,2.8,7,5,7,1,2026-07-23T02:41:00.845485+05:30
Warangal,Telangana,17.9689,79.5941,24.1,89,0.0,975.5,7.35,47.5,49,9.4,7.6,10.0,198.0,31.0,3.8,3,5,7,1,2026-07-23T02:41:00.845493+05:30
Nizamabad,Telangana,18.6725,78.0941,22.8,93,0.1,960.5,3.5,62.6,37,28.9,13.0,5.0,134.0,43.0,2.6,6,5,3,1,2026-07-23T02:41:00.845502+05:30
Mysore,Karnataka,12.2958,76.6396,20.4,97,0.0,927.7,8.7,50.4,23,6.8,4.4,6.9,116.0,28.0,2.0,3,5,7,1,2026-07-23T02:41:00.845510+05:30
Mangalore,Karnataka,12.9141,74.856,24.2,97,0.1,1007.1,8.8,44.3,47,13.5,8.0,7.7,205.0,27.0,2.7,6,5,4,1,2026-07-23T02:41:00.845519+05:30
Hubli-Dharwad,Karnataka,15.3647,75.124,21.1,97,0.0,939.0,5.2,55.8,17,2.1,1.3,2.2,103.0,37.0,0.9,3,5,3,1,2026-07-23T02:41:00.845528+05:30
Belgaum,Karnataka,15.8497,74.4977,20.6,98,0.0,923.1,5.9,50.4,18,2.7,1.7,2.4,95.0,37.0,1.1,3,5,3,1,2026-07-23T02:41:04.249564+05:30
Coimbatore,Tamil Nadu,11.0168,76.9558,22.8,94,0.0,961.1,8.95,51.5,32,8.5,6.3,8.5,172.0,23.0,3.0,3,5,7,1,2026-07-23T02:41:04.249598+05:30
Madurai,Tamil Nadu,9.9252,78.1198,28.6,67,0.0,992.5,8.7,29.9,70,17.6,13.3,14.5,128.0,38.0,5.6,7,5,7,1,2026-07-23T02:41:04.249612+05:30
Trichy,Tamil Nadu,10.7905,78.7047,28.4,66,0.0,999.1,8.1,45.4,57,19.6,16.1,18.3,125.0,26.0,5.2,7,5,7,1,2026-07-23T02:41:04.249622+05:30
Salem,Tamil Nadu,11.6643,78.146,25.7,87,0.0,976.9,8.9,27.7,63,19.5,16.5,25.5,469.0,18.0,10.1,7,5,7,1,2026-07-23T02:41:04.249632+05:30
Tirunelveli,Tamil Nadu,8.7139,77.7567,28.4,69,0.0,1002.9,7.9,49.0,41,8.4,7.1,9.2,140.0,28.0,3.0,7,5,4,1,2026-07-23T02:41:04.249641+05:30
Vellore,Tamil Nadu,12.9165,79.1325,26.0,92,0.0,983.5,8.75,39.2,58,9.7,7.9,14.3,194.0,23.0,4.2,7,5,7,1,2026-07-23T02:41:04.249650+05:30
Erode,Tamil Nadu,11.341,77.7172,26.4,75,0.0,988.7,8.8,39.6,52,14.4,12.4,17.8,173.0,21.0,4.6,7,5,7,1,2026-07-23T02:41:04.249660+05:30
Kochi,Kerala,9.9312,76.2673,25.6,94,0.0,1009.1,7.75,27.7,59,19.6,17.9,21.7,218.0,9.0,6.3,7,0,4,1,2026-07-23T02:41:04.249669+05:30
Thiruvananthapuram,Kerala,8.5241,76.9366,24.7,95,0.0,1008.5,7.0,40.3,48,9.6,6.5,4.8,175.0,39.0,2.6,3,0,4,1,2026-07-23T02:41:04.249677+05:30
Kozhikode,Kerala,11.2588,75.7804,25.0,91,0.0,1008.2,8.5,36.0,32,12.2,5.8,2.2,279.0,41.0,1.4,7,0,4,1,2026-07-23T02:41:04.249686+05:30
Thrissur,Kerala,10.5276,76.2144,23.6,99,0.0,1007.5,8.65,32.8,58,18.8,16.8,15.2,294.0,13.0,4.1,3,5,4,1,2026-07-23T02:41:04.249695+05:30
Kannur,Kerala,11.8745,75.3704,23.5,99,0.3,1008.1,8.5,34.2,43,11.6,8.3,13.6,164.0,18.0,2.9,6,0,4,1,2026-07-23T02:41:04.249703+05:30
Patna,Bihar,25.5941,85.1376,25.7,95,0.0,994.9,7.1,36.7,58,19.3,19.3,15.3,255.0,57.0,13.7,7,5,7,1,2026-07-23T02:41:04.249712+05:30
Gaya,Bihar,24.7914,85.0002,25.9,93,0.0,987.8,7.6,23.4,52,11.3,11.1,19.7,314.0,24.0,14.2,7,5,7,1,2026-07-23T02:41:04.249720+05:30
Muzaffarpur,Bihar,26.1209,85.3647,25.4,93,0.0,995.5,6.7,45.0,61,17.5,17.5,12.9,302.0,59.0,9.6,7,5,7,1,2026-07-23T02:41:04.249729+05:30
Bhagalpur,Bihar,25.2425,87.0117,25.8,94,0.0,996.6,7.4,35.6,57,19.6,19.6,15.3,244.0,48.0,13.5,7,5,7,1,2026-07-23T02:41:04.249737+05:30
Ranchi,Jharkhand,23.3441,85.3096,22.3,96,0.0,932.0,5.8,38.9,29,3.1,2.9,7.0,153.0,42.0,7.2,3,5,3,1,2026-07-23T02:41:04.249746+05:30
Jamshedpur,Jharkhand,22.8046,86.2029,24.5,95,0.0,986.0,8.35,35.6,61,18.5,17.6,23.5,217.0,29.0,22.5,3,5,7,1,2026-07-23T02:41:04.249755+05:30
Dhanbad,Jharkhand,23.7957,86.4304,24.8,97,0.0,974.7,6.4,32.0,80,32.1,31.5,44.0,1378.0,11.0,100.3,3,5,7,1,2026-07-23T02:41:04.249763+05:30
Bokaro,Jharkhand,23.6693,86.1511,25.1,92,0.0,978.5,6.85,36.4,73,20.1,19.7,25.7,539.0,26.0,67.6,7,5,7,1,2026-07-23T02:41:04.249771+05:30
Bhubaneswar,Odisha,20.2961,85.8245,26.5,94,0.0,998.4,8.65,41.8,63,18.2,14.4,8.5,239.0,62.0,9.7,7,5,7,1,2026-07-23T02:41:04.249780+05:30
Cuttack,Odisha,20.4625,85.8828,26.3,93,0.2,1000.1,8.45,42.1,63,18.2,14.4,8.5,223.0,62.0,9.7,10,5,4,1,2026-07-23T02:41:04.249788+05:30
Rourkela,Odisha,22.2604,84.8536,24.2,97,0.1,979.8,4.25,47.9,39,8.6,6.6,5.9,188.0,43.0,3.3,6,5,3,1,2026-07-23T02:41:04.249796+05:30
Raipur,Chhattisgarh,21.2514,81.6296,24.7,88,0.0,969.1,2.55,56.9,53,9.1,7.9,13.7,186.0,37.0,21.1,3,5,3,1,2026-07-23T02:41:04.249804+05:30
Bhilai,Chhattisgarh,21.1938,81.3509,24.3,90,0.0,969.5,4.25,58.7,52,8.6,7.5,13.3,290.0,36.0,20.8,3,5,3,1,2026-07-23T02:41:04.249812+05:30
Guwahati,Assam,26.1158,91.7086,25.3,97,0.2,998.7,7.1,22.3,40,8.7,8.5,9.0,204.0,37.0,1.8,10,5,7,1,2026-07-23T02:41:04.249820+05:30
Agartala,Tripura,23.8315,91.2868,24.8,96,0.0,1003.5,7.8,35.3,37,6.3,6.0,8.2,146.0,54.0,1.8,3,5,4,1,2026-07-23T02:41:04.249828+05:30
Shillong,Meghalaya,25.5788,91.8933,19.6,96,0.1,855.5,4.75,25.2,23,1.3,1.2,4.0,192.0,49.0,1.6,6,10,3,1,2026-07-23T02:41:04.249836+05:30
Imphal,Manipur,24.817,93.9368,21.2,98,0.2,921.3,7.25,23.8,47,13.4,13.1,12.4,297.0,19.0,2.2,6,5,7,1,2026-07-23T02:41:04.249844+05:30
Aizawl,Mizoram,23.7271,92.7176,19.1,97,0.0,890.1,8.45,36.0,22,0.9,0.9,1.9,126.0,52.0,0.5,3,10,7,1,2026-07-23T02:41:04.249853+05:30
Kohima,Nagaland,25.6701,94.1077,19.0,99,0.1,853.9,5.9,20.9,26,2.0,1.9,4.7,203.0,34.0,0.5,6,10,3,1,2026-07-23T02:41:04.249862+05:30
Gangtok,Sikkim,27.3314,88.6138,17.4,98,0.1,835.1,7.3,31.3,36,5.0,4.9,5.3,250.0,74.0,1.4,6,10,7,1,2026-07-23T02:41:04.249871+05:30
Siliguri,West Bengal,26.7271,88.3953,24.3,95,0.1,989.3,8.45,30.6,53,10.7,10.3,9.3,178.0,64.0,2.8,6,5,7,1,2026-07-23T02:41:07.631742+05:30
Durgapur,West Bengal,23.5204,87.3119,25.1,97,0.2,990.3,7.55,31.3,71,26.3,25.7,31.2,563.0,28.0,36.1,10,5,7,1,2026-07-23T02:41:07.631774+05:30
Asansol,West Bengal,23.6739,86.9524,25.1,97,0.1,988.7,6.55,29.9,66,22.1,21.7,36.1,303.0,19.0,45.1,10,5,7,1,2026-07-23T02:41:07.631785+05:30
Pondicherry,Puducherry,11.9139,79.8145,28.3,76,0.0,1007.5,8.1,40.3,71,29.5,20.4,15.6,188.0,53.0,13.1,7,5,4,1,2026-07-23T02:41:07.631793+05:30
Port Blair,Andaman and Nicobar Islands,11.6234,92.7265,27.2,84,0.0,1006.9,8.7,38.5,48,13.7,8.0,0.1,89.0,46.0,0.4,7,5,4,1,2026-07-23T02:41:07.631802+05:30
Haridwar,Uttarakhand,29.9457,78.1642,26.2,92,0.0,968.6,7.3,30.6,74,30.3,29.9,24.6,370.0,25.0,4.8,7,5,7,1,2026-07-23T02:41:07.631810+05:30
Rishikesh,Uttarakhand,30.0869,78.2676,24.1,97,0.0,961.4,7.3,24.5,56,14.6,14.3,11.2,369.0,59.0,2.9,3,5,7,1,2026-07-23T02:41:07.631817+05:30
Nainital,Uttarakhand,29.3919,79.4542,15.5,92,0.0,801.9,6.75,42.8,56,11.7,11.6,8.4,234.0,62.0,1.8,3,10,7,0,2026-07-23T02:41:07.631825+05:30
Mussoorie,Uttarakhand,30.4599,78.0664,15.7,99,0.0,799.7,7.0,27.4,59,16.7,16.6,29.8,249.0,26.0,3.3,3,10,7,0,2026-07-23T02:41:07.631832+05:30
Dharamshala,Himachal Pradesh,32.219,76.3234,20.3,92,0.3,865.7,7.6,25.9,33,6.1,5.7,11.8,274.0,67.0,0.8,6,5,7,1,2026-07-23T02:41:07.631840+05:30
Dalhousie,Himachal Pradesh,32.5387,75.971,16.1,99,0.1,801.8,1.4,20.5,63,13.4,12.7,12.6,300.0,79.0,1.9,6,10,3,0,2026-07-23T02:41:07.631847+05:30
Patiala,Punjab,30.3398,76.3869,27.8,83,0.0,972.4,7.5,41.0,95,71.2,47.7,31.6,450.0,33.0,9.3,7,5,7,1,2026-07-23T02:41:07.631855+05:30
Bhatinda,Punjab,30.211,74.9455,27.2,93,0.1,977.4,6.9,28.1,93,51.6,48.9,21.1,441.0,62.0,8.5,10,5,7,1,2026-07-23T02:41:07.631862+05:30
Rohtak,Haryana,28.8955,76.6066,27.3,89,0.0,975.0,6.55,37.8,112,31.0,31.0,27.1,544.0,60.0,22.5,7,5,7,1,2026-07-23T02:41:07.631868+05:30
Panipat,Haryana,29.3909,76.9635,27.9,83,0.0,974.1,7.3,39.2,103,38.9,38.8,23.4,369.0,58.0,14.4,7,5,7,1,2026-07-23T02:41:07.631875+05:30
Mathura,Uttar Pradesh,27.4924,77.6737,27.8,82,0.0,979.3,7.05,37.1,85,18.2,18.1,12.7,311.0,75.0,5.7,7,5,7,1,2026-07-23T02:41:07.631881+05:30
Vrindavan,Uttar Pradesh,27.5823,77.7027,27.8,83,0.0,979.8,7.1,36.4,85,18.2,18.1,12.7,301.0,75.0,5.7,7,5,7,1,2026-07-23T02:41:07.631888+05:30
Ayodhya,Uttar Pradesh,26.7922,82.1998,26.5,90,0.0,989.4,6.85,45.4,69,15.0,15.0,9.3,339.0,71.0,6.8,7,5,7,1,2026-07-23T02:41:07.631894+05:30
Ratlam,Madhya Pradesh,23.3315,75.0367,23.3,99,0.0,945.9,2.65,46.4,45,10.5,9.1,9.7,176.0,44.0,9.6,3,5,3,1,2026-07-23T02:41:07.631901+05:30
Sagar,Madhya Pradesh,23.8388,78.7378,23.6,98,0.2,941.3,2.15,35.6,32,3.8,3.8,5.0,189.0,73.0,1.3,6,5,3,1,2026-07-23T02:41:07.631907+05:30
Satna,Madhya Pradesh,24.6005,80.8322,24.8,98,0.0,963.1,3.95,36.7,56,15.8,15.7,12.3,225.0,56.0,8.2,3,5,3,1,2026-07-23T02:41:07.631914+05:30
Akola,Maharashtra,20.7002,77.0082,24.4,86,0.1,968.1,1.9,61.6,19,3.1,2.8,7.0,127.0,34.0,3.6,6,5,3,1,2026-07-23T02:41:07.631921+05:30
Amravati,Maharashtra,20.9374,77.7796,24.4,86,0.0,960.8,3.55,60.1,20,4.0,3.6,7.3,134.0,34.0,4.2,3,5,3,1,2026-07-23T02:41:07.631928+05:30
Latur,Maharashtra,18.4088,76.5604,23.0,75,0.0,935.4,6.25,60.5,34,46.7,19.9,3.4,117.0,56.0,1.6,3,5,7,1,2026-07-23T02:41:07.631935+05:30
Nanded,Maharashtra,19.1383,77.3091,23.4,83,0.0,964.0,1.85,52.2,39,36.1,17.3,4.6,132.0,52.0,3.2,3,5,3,1,2026-07-23T02:41:07.631942+05:30
Gulbarga,Karnataka,17.3297,76.8343,23.8,78,0.0,955.8,4.25,71.3,29,8.6,4.8,5.7,124.0,38.0,2.7,3,5,3,1,2026-07-23T02:41:07.631948+05:30
Bidar,Karnataka,17.9104,77.5199,21.9,93,0.0,931.6,6.4,67.0,30,15.2,7.0,6.0,120.0,38.0,2.6,3,5,7,1,2026-07-23T02:41:07.631955+05:30
Hospet,Karnataka,15.2689,76.3909,23.3,84,0.0,954.3,6.2,56.2,18,2.3,1.6,3.5,110.0,35.0,1.5,3,5,7,1,2026-07-23T02:41:07.631961+05:30
Tirupur,Tamil Nadu,11.1085,77.3411,24.2,88,0.0,974.9,8.9,52.9,54,17.5,15.3,21.6,149.0,16.0,5.6,3,5,7,1,2026-07-23T02:41:07.631968+05:30
Alappuzha,Kerala,9.4981,76.3388,25.5,96,0.0,1009.2,8.3,29.5,57,15.2,11.8,12.5,138.0,29.0,5.1,7,0,4,1,2026-07-23T02:41:07.631975+05:30
Munnar,Kerala,10.0889,77.0595,15.9,97,0.0,856.1,7.55,36.7,39,7.3,6.3,8.9,92.0,16.0,1.2,3,10,7,0,2026-07-23T02:41:07.631982+05:30
Silchar,Assam,24.8333,92.7789,25.3,96,0.1,1003.0,7.0,32.0,54,11.9,11.0,6.1,205.0,59.0,3.9,10,5,4,1,2026-07-23T02:41:07.631989+05:30
Dibrugarh,Assam,27.4728,94.912,24.5,98,0.0,993.1,8.25,24.5,39,3.7,3.6,5.7,198.0,71.0,1.1,3,5,7,1,2026-07-23T02:41:07.631995+05:30
