city,state,latitude,longitude,temp,humidity,rain,pressure,uv_index,wind_gusts,aqi,pm10,pm2_5,no2,co,o3,so2,mosquito_risk,arthritis_risk,migraine_risk,frizz_risk,updated_at
Delhi,Delhi,28.6139,77.209,37.8,20,0.0,978.1,7.75,41.0,606,871.7,162.1,47.3,800.0,66.0,21.3,0,5,10,0,2026-05-27T22:11:22.709720+05:30
Mumbai,Maharashtra,19.076,72.8777,31.2,65,0.0,1009.5,7.8,39.6,38,21.2,11.6,8.3,183.0,45.0,5.1,3,0,4,1,2026-05-27T22:11:22.709769+05:30
Bangalore,Karnataka,12.9716,77.5946,25.0,71,0.0,913.2,9.2,32.8,77,29.9,25.8,65.7,1394.0,29.0,11.0,7,5,7,1,2026-05-27T22:11:22.709785+05:30
Hyderabad,Telangana,17.385,78.4867,28.0,64,0.0,953.3,8.7,36.7,80,42.7,35.2,41.1,2119.0,55.0,10.9,7,5,7,1,2026-05-27T22:11:22.709795+05:30
Chennai,Tamil Nadu,13.0827,80.2707,30.8,73,0.0,1007.8,9.0,34.6,160,31.1,25.0,8.8,251.0,129.0,6.3,3,5,4,1,2026-05-27T22:11:22.709803+05:30
Kolkata,West Bengal,22.5726,88.3639,26.5,94,0.0,1005.4,8.9,41.0,113,68.0,58.8,18.2,489.0,67.0,10.9,7,5,4,1,2026-05-27T22:11:22.709812+05:30
Pune,Maharashtra,18.5204,73.8567,26.9,76,0.0,949.5,8.2,42.5,74,15.1,12.3,10.1,192.0,79.0,12.8,7,5,7,1,2026-05-27T22:11:22.709819+05:30
Ahmedabad,Gujarat,23.0225,72.5714,32.9,62,0.0,1001.1,8.15,37.4,69,46.6,24.3,12.5,204.0,67.0,5.9,3,5,4,1,2026-05-27T22:11:22.709826+05:30
Jaipur,Rajasthan,26.9124,75.7873,37.2,21,0.0,957.4,8.25,46.8,173,326.0,62.4,7.2,199.0,82.0,4.6,0,5,10,0,2026-05-27T22:11:22.709840+05:30
Lucknow,Uttar Pradesh,26.8467,80.9462,33.7,43,0.0,989.9,8.2,28.8,162,94.1,48.7,18.6,470.0,112.0,14.3,0,5,7,1,2026-05-27T22:11:22.709848+05:30
Kanpur,Uttar Pradesh,26.4499,80.3319,35.7,27,0.0,987.7,8.2,32.4,278,350.2,87.5,24.3,486.0,91.0,13.0,0,5,10,0,2026-05-27T22:11:22.709856+05:30
Chandigarh,Chandigarh,30.7333,76.7794,32.5,25,0.0,964.0,7.75,37.8,140,34.6,26.8,25.4,504.0,90.0,10.5,0,5,7,0,2026-05-27T22:11:22.709863+05:30
Srinagar,Jammu and Kashmir,34.0837,74.7973,17.0,72,0.0,839.9,9.0,19.8,83,35.2,21.2,25.4,1137.0,68.0,3.9,3,5,7,0,2026-05-27T22:11:22.709871+05:30
Jammu,Jammu and Kashmir,32.7266,74.857,32.5,29,0.0,967.9,8.6,59.0,90,55.6,40.7,48.4,481.0,53.0,7.1,0,5,7,0,2026-05-27T22:11:22.709878+05:30
Amritsar,Punjab,31.634,74.8723,33.9,29,0.0,975.3,8.45,33.1,120,45.4,36.3,40.5,630.0,72.0,12.6,0,5,7,0,2026-05-27T22:11:22.709889+05:30
Ludhiana,Punjab,30.901,75.8573,34.0,27,0.0,973.6,8.05,43.2,118,102.7,41.7,22.3,831.0,85.0,8.5,0,5,7,0,2026-05-27T22:11:22.709896+05:30
Jalandhar,Punjab,31.326,75.5762,34.2,25,0.0,974.6,8.2,40.3,127,100.4,40.5,25.1,874.0,94.0,9.5,0,5,7,0,2026-05-27T22:11:22.709902+05:30
Dehradun,Uttarakhand,30.6284,78.0322,18.1,52,0.0,827.9,8.2,32.0,149,35.5,21.5,30.5,264.0,99.0,3.8,0,5,7,0,2026-05-27T22:11:22.709909+05:30
Shimla,Himachal Pradesh,31.1048,77.1734,18.3,36,0.0,784.7,8.3,60.8,126,39.8,18.1,14.6,218.0,110.0,2.8,0,5,7,0,2026-05-27T22:11:22.709917+05:30
Manali,Himachal Pradesh,32.2396,77.1887,13.3,66,0.0,816.7,9.95,51.5,117,46.0,32.1,84.3,268.0,62.0,0.9,3,5,7,0,2026-05-27T22:11:22.709924+05:30
Gurgaon,Haryana,28.4595,77.0266,34.1,27,0.0,976.6,7.85,41.8,955,793.5,159.7,78.4,1187.0,37.0,25.1,0,5,7,0,2026-05-27T22:11:22.709930+05:30
Noida,Uttar Pradesh,28.5355,77.391,35.0,27,0.0,979.2,7.75,32.8,955,793.5,159.7,78.4,963.0,37.0,25.1,0,5,7,0,2026-05-27T22:11:22.709936+05:30
Ghaziabad,Uttar Pradesh,28.6692,77.4538,36.0,22,0.0,977.6,7.75,36.7,372,823.3,154.6,32.5,519.0,82.0,20.9,0,5,10,0,2026-05-27T22:11:22.709943+05:30
Faridabad,Haryana,28.4089,77.3178,38.0,17,0.0,978.8,7.8,42.1,955,793.5,159.7,78.4,812.0,37.0,25.1,0,5,10,0,2026-05-27T22:11:22.709949+05:30
Meerut,Uttar Pradesh,28.9845,77.7064,32.5,43,0.0,976.7,7.65,36.4,372,823.3,154.6,32.5,540.0,82.0,20.9,0,5,7,1,2026-05-27T22:11:22.709955+05:30
Agra,Uttar Pradesh,27.1767,78.0081,36.8,24,0.0,983.0,8.05,37.8,688,787.9,144.4,53.8,566.0,57.0,20.6,0,5,10,0,2026-05-27T22:11:22.709962+05:30
Varanasi,Uttar Pradesh,25.3176,82.9739,32.7,52,0.0,994.6,8.7,38.5,186,71.5,55.5,8.7,408.0,174.0,18.1,0,5,7,1,2026-05-27T22:11:22.709969+05:30
Prayagraj,Uttar Pradesh,25.4358,81.8463,34.8,42,0.0,992.1,8.55,41.4,147,73.8,49.6,11.2,441.0,153.0,14.8,0,5,7,1,2026-05-27T22:11:22.709976+05:30
Gorakhpur,Uttar Pradesh,26.7606,83.3732,29.5,63,0.0,995.4,8.55,42.1,167,41.4,34.3,8.1,383.0,145.0,11.5,7,5,7,1,2026-05-27T22:11:22.709985+05:30
Bareilly,Uttar Pradesh,28.367,79.4304,31.3,47,0.0,982.5,8.0,28.1,162,43.3,38.3,26.7,582.0,97.0,12.9,0,5,7,1,2026-05-27T22:11:22.709991+05:30
Aligarh,Uttar Pradesh,27.8974,78.088,34.3,29,0.0,980.6,7.9,36.7,590,903.4,172.8,41.7,429.0,71.0,14.7,0,5,7,0,2026-05-27T22:11:22.709998+05:30
Moradabad,Uttar Pradesh,28.8386,78.7733,31.5,42,0.0,979.3,7.85,28.8,167,57.5,56.7,35.2,652.0,97.0,18.0,0,5,7,1,2026-05-27T22:11:22.710004+05:30
Saharanpur,Uttar Pradesh,29.9637,77.546,34.0,23,0.0,971.1,7.5,32.8,157,247.7,64.5,24.9,322.0,101.0,13.1,0,5,7,0,2026-05-27T22:11:22.710011+05:30
Jhansi,Uttar Pradesh,25.4484,78.5685,36.2,21,0.0,974.2,8.45,51.5,74,49.0,27.2,10.0,183.0,65.0,4.8,0,5,10,0,2026-05-27T22:11:25.966085+05:30
Surat,Gujarat,21.1702,72.8311,30.0,77,0.0,1006.9,7.7,45.0,77,47.7,25.3,21.6,214.0,34.0,34.2,7,5,4,1,2026-05-27T22:11:25.966118+05:30
Vadodara,Gujarat,22.3072,73.1812,30.9,68,0.0,1003.7,8.05,39.6,73,48.0,28.5,20.4,234.0,52.0,24.2,3,5,4,1,2026-05-27T22:11:25.966128+05:30
Rajkot,Gujarat,22.3039,70.8022,30.9,65,0.0,993.9,7.75,49.0,69,39.5,20.8,5.3,128.0,54.0,5.8,3,5,7,1,2026-05-27T22:11:25.966136+05:30
Thane,Maharashtra,19.2183,72.9781,30.9,66,0.0,1008.9,7.8,38.5,38,21.2,11.6,8.3,183.0,45.0,5.1,3,0,4,1,2026-05-27T22:11:25.966145+05:30
Nagpur,Maharashtra,21.1458,79.0882,37.7,17,0.0,970.8,8.9,46.1,71,32.2,22.8,18.5,239.0,67.0,11.2,0,5,10,0,2026-05-27T22:11:25.966153+05:30
Nashik,Maharashtra,19.9975,73.7898,25.9,78,0.0,946.8,8.1,41.0,35,25.7,13.3,5.8,153.0,53.0,2.0,7,5,7,1,2026-05-27T22:11:25.966162+05:30
Aurangabad,Maharashtra,19.8762,75.3433,32.0,45,0.0,944.9,9.0,43.2,47,27.0,17.2,7.4,212.0,73.0,3.4,0,5,7,1,2026-05-27T22:11:25.966169+05:30
Solapur,Maharashtra,17.6599,75.9064,30.9,49,0.0,957.3,7.65,36.0,48,32.9,27.8,24.7,253.0,56.0,6.2,0,5,7,1,2026-05-27T22:11:25.966178+05:30
Kolhapur,Maharashtra,16.705,74.2433,25.8,84,0.0,949.7,8.3,40.3,42,9.9,7.7,5.7,173.0,56.0,2.4,7,5,7,1,2026-05-27T22:11:25.966186+05:30
Goa,Goa,15.2993,74.124,27.3,96,0.0,1000.0,7.1,32.4,38,14.6,11.4,5.4,495.0,43.0,1.4,7,5,4,1,2026-05-27T22:11:25.966194+05:30
Jodhpur,Rajasthan,26.2389,73.0243,36.3,29,0.0,980.4,8.45,43.9,161,244.9,51.8,8.0,179.0,71.0,2.6,0,5,10,0,2026-05-27T22:11:25.966203+05:30
Udaipur,Rajasthan,24.5854,73.7125,32.8,30,0.0,946.0,8.85,39.6,65,51.8,19.7,4.2,178.0,78.0,2.5,0,5,7,0,2026-05-27T22:11:25.966211+05:30
Kota,Rajasthan,25.2138,75.8648,36.9,24,0.0,976.4,8.4,41.8,73,65.2,30.9,13.3,225.0,64.0,5.4,0,5,10,0,2026-05-27T22:11:25.966219+05:30
Bikaner,Rajasthan,28.0229,73.3119,38.5,20,0.0,976.9,8.4,43.9,129,125.3,47.1,2.1,164.0,92.0,2.9,0,5,10,0,2026-05-27T22:11:25.966228+05:30
Ajmer,Rajasthan,26.4499,74.6399,34.6,27,0.0,953.2,8.4,56.2,71,78.9,27.2,5.4,181.0,82.0,3.8,0,5,7,0,2026-05-27T22:11:25.966236+05:30
Gwalior,Madhya Pradesh,26.2183,78.1828,36.8,22,0.0,979.0,8.25,52.2,85,143.9,46.0,19.3,336.0,72.0,8.3,0,5,10,0,2026-05-27T22:11:25.966245+05:30
Indore,Madhya Pradesh,22.7196,75.8577,34.0,34,0.0,948.0,8.6,46.1,65,43.2,25.0,7.2,275.0,93.0,6.9,0,5,7,0,2026-05-27T22:11:25.966253+05:30
Bhopal,Madhya Pradesh,23.2599,77.4126,35.3,21,0.0,952.1,8.65,39.6,66,36.1,22.4,9.0,212.0,70.0,4.8,0,5,10,0,2026-05-27T22:11:25.966261+05:30
Jabalpur,Madhya Pradesh,23.1815,79.9864,35.6,22,0.0,959.1,8.85,44.6,76,47.6,24.4,13.6,228.0,75.0,5.0,0,5,10,0,2026-05-27T22:11:25.966269+05:30
Ujjain,Madhya Pradesh,23.1765,75.7885,34.1,30,0.0,953.3,8.55,47.9,67,51.9,27.5,4.2,224.0,97.0,6.2,0,5,7,0,2026-05-27T22:11:25.966278+05:30
Visakhapatnam,Andhra Pradesh,17.6868,83.2185,32.5,69,0.0,1001.1,9.0,40.7,174,61.5,48.3,32.9,521.0,89.0,35.0,3,5,4,1,2026-05-27T22:11:25.966286+05:30
Vijayawada,Andhra Pradesh,16.5062,80.648,32.8,55,0.0,1001.1,8.35,43.6,95,53.8,47.0,22.1,580.0,77.0,10.1,0,5,4,1,2026-05-27T22:11:25.966295+05:30
Guntur,Andhra Pradesh,16.3067,80.4365,32.1,58,0.0,1002.4,8.35,43.6,95,47.5,40.5,20.3,470.0,80.0,10.0,0,5,4,1,2026-05-27T22:11:25.966302+05:30
Nellore,Andhra Pradesh,14.4426,79.9865,29.7,64,0.0,1005.8,9.0,46.1,110,34.1,30.9,12.2,280.0,122.0,7.0,7,5,4,1,2026-05-27T22:11:25.966312+05:30
Kurnool,Andhra Pradesh,15.8281,78.0373,28.8,52,0.0,977.6,2.55,46.4,79,24.9,21.2,16.5,308.0,69.0,8.6,4,5,3,1,2026-05-27T22:11:25.966320+05:30
Kakinada,Andhra Pradesh,16.9891,82.2475,33.0,56,0.0,1005.4,9.0,49.0,151,39.1,30.4,7.5,526.0,126.0,5.3,0,5,4,1,2026-05-27T22:11:25.966328+05:30
Tirupati,Andhra Pradesh,13.6288,79.4192,28.5,65,0.0,991.6,8.6,34.2,70,46.0,39.0,46.6,607.0,41.0,8.0,7,5,7,1,2026-05-27T22:11:25.966336+05:30
Warangal,Telangana,17.9689,79.5941,31.3,60,0.0,977.7,9.0,46.1,89,56.1,47.0,29.4,432.0,49.0,8.4,0,5,7,1,2026-05-27T22:11:25.966343+05:30
Nizamabad,Telangana,18.6725,78.0941,32.1,52,0.0,964.0,8.5,41.8,65,37.0,25.9,16.2,374.0,68.0,4.9,0,5,7,1,2026-05-27T22:11:25.966351+05:30
Mysore,Karnataka,12.2958,76.6396,23.9,87,0.0,930.4,7.65,37.1,66,13.1,12.0,12.8,226.0,73.0,2.7,3,5,7,1,2026-05-27T22:11:25.966359+05:30
Mangalore,Karnataka,12.9141,74.856,26.7,90,0.0,1009.3,7.65,27.0,53,14.2,11.8,12.4,296.0,41.0,3.6,7,0,4,1,2026-05-27T22:11:25.966367+05:30
Hubli-Dharwad,Karnataka,15.3647,75.124,24.9,92,0.0,942.6,6.05,34.6,39,7.4,6.3,7.0,179.0,50.0,1.6,3,5,7,1,2026-05-27T22:11:25.966376+05:30
Belgaum,Karnataka,15.8497,74.4977,23.9,95,0.0,927.8,7.5,36.0,35,9.5,7.8,7.9,170.0,43.0,1.9,3,5,7,1,2026-05-27T22:11:29.208713+05:30
Coimbatore,Tamil Nadu,11.0168,76.9558,25.4,85,0.0,963.8,8.6,47.9,42,6.4,5.9,7.7,211.0,65.0,2.9,7,5,7,1,2026-05-27T22:11:29.208747+05:30
Madurai,Tamil Nadu,9.9252,78.1198,30.0,63,0.0,994.2,8.35,35.3,91,35.0,31.2,36.0,603.0,44.0,7.0,7,5,7,1,2026-05-27T22:11:29.208759+05:30
Trichy,Tamil Nadu,10.7905,78.7047,30.8,60,0.0,1000.9,8.35,39.6,57,20.5,17.9,15.3,284.0,63.0,4.6,0,5,4,1,2026-05-27T22:11:29.208769+05:30
Salem,Tamil Nadu,11.6643,78.146,30.2,61,0.0,979.0,8.3,34.6,112,20.7,16.8,15.0,339.0,77.0,6.2,3,5,7,1,2026-05-27T22:11:29.208778+05:30
Tirunelveli,Tamil Nadu,8.7139,77.7567,30.0,62,0.0,1004.9,8.65,26.3,33,9.8,8.0,8.2,190.0,46.0,1.8,7,5,4,1,2026-05-27T22:11:29.208786+05:30
Vellore,Tamil Nadu,12.9165,79.1325,27.0,89,0.0,985.1,8.75,35.3,81,66.4,54.6,35.9,418.0,59.0,12.0,7,5,7,1,2026-05-27T22:11:29.208794+05:30
Erode,Tamil Nadu,11.341,77.7172,28.2,73,0.0,990.3,8.05,38.5,71,11.1,10.0,11.8,231.0,61.0,3.6,7,5,7,1,2026-05-27T22:11:29.208803+05:30
Kochi,Kerala,9.9312,76.2673,26.0,96,0.0,1011.9,7.85,28.4,53,18.6,16.4,24.1,281.0,22.0,6.0,7,0,4,1,2026-05-27T22:11:29.208811+05:30
Thiruvananthapuram,Kerala,8.5241,76.9366,25.5,95,0.0,1011.3,7.65,32.4,28,14.2,7.9,4.0,249.0,53.0,1.4,7,0,4,1,2026-05-27T22:11:29.208819+05:30
Kozhikode,Kerala,11.2588,75.7804,25.5,99,0.0,1010.9,8.2,30.2,30,8.5,5.7,2.4,579.0,62.0,1.0,7,0,4,1,2026-05-27T22:11:29.208827+05:30
Thrissur,Kerala,10.5276,76.2144,24.6,98,0.0,1010.3,8.25,27.4,50,17.9,16.2,18.4,357.0,28.0,5.1,3,0,4,1,2026-05-27T22:11:29.208836+05:30
Kannur,Kerala,11.8745,75.3704,26.5,94,0.0,1009.8,7.95,36.4,50,11.4,9.8,12.6,343.0,42.0,2.8,7,0,4,1,2026-05-27T22:11:29.208844+05:30
Patna,Bihar,25.5941,85.1376,28.5,70,0.0,998.9,8.75,46.8,153,44.9,40.2,11.6,386.0,121.0,18.3,7,5,7,1,2026-05-27T22:11:29.208851+05:30
Gaya,Bihar,24.7914,85.0002,30.5,60,0.0,991.3,8.8,37.8,174,43.5,39.6,9.3,388.0,131.0,17.8,0,5,7,1,2026-05-27T22:11:29.208858+05:30
Muzaffarpur,Bihar,26.1209,85.3647,27.3,73,0.0,999.4,8.75,46.4,126,36.1,31.8,11.8,395.0,111.0,12.6,7,5,7,1,2026-05-27T22:11:29.208865+05:30
Bhagalpur,Bihar,25.2425,87.0117,27.4,78,0.0,1000.6,8.7,41.4,100,33.2,30.0,12.5,328.0,98.0,12.7,7,5,4,1,2026-05-27T22:11:29.208873+05:30
Ranchi,Jharkhand,23.3441,85.3096,25.4,82,0.0,936.3,9.2,34.6,125,61.0,50.5,20.6,365.0,110.0,27.7,7,5,7,1,2026-05-27T22:11:29.208881+05:30
Jamshedpur,Jharkhand,22.8046,86.2029,28.0,89,0.0,989.4,9.05,32.8,176,68.2,54.7,10.7,500.0,136.0,16.1,7,5,7,1,2026-05-27T22:11:29.208889+05:30
Dhanbad,Jharkhand,23.7957,86.4304,26.1,85,0.0,978.9,9.0,45.0,184,87.8,78.9,38.1,685.0,107.0,74.7,7,5,7,1,2026-05-27T22:11:29.208896+05:30
Bokaro,Jharkhand,23.6693,86.1511,26.8,84,0.0,982.7,9.0,38.5,184,97.3,87.5,37.0,597.0,129.0,88.3,7,5,7,1,2026-05-27T22:11:29.208904+05:30
Bhubaneswar,Odisha,20.2961,85.8245,27.5,93,0.0,1000.8,9.05,51.1,113,64.5,52.4,16.1,334.0,85.0,8.5,7,5,4,1,2026-05-27T22:11:29.208911+05:30
Cuttack,Odisha,20.4625,85.8828,27.9,94,0.0,1002.5,9.1,41.8,113,64.5,52.4,16.1,286.0,85.0,8.5,7,5,4,1,2026-05-27T22:11:29.208918+05:30
Rourkela,Odisha,22.2604,84.8536,29.0,79,0.0,982.7,8.95,45.0,151,81.3,53.4,24.6,866.0,89.0,18.5,7,5,7,1,2026-05-27T22:11:29.208926+05:30
Raipur,Chhattisgarh,21.2514,81.6296,36.0,26,0.0,971.8,8.95,42.8,99,60.3,43.0,43.5,594.0,51.0,60.1,0,5,10,0,2026-05-27T22:11:29.208934+05:30
Bhilai,Chhattisgarh,21.1938,81.3509,34.8,28,0.0,972.3,8.95,44.3,93,52.4,36.9,32.6,657.0,62.0,44.1,0,5,7,0,2026-05-27T22:11:29.208941+05:30
Guwahati,Assam,26.1158,91.7086,22.8,96,0.0,1002.6,8.75,25.2,70,50.6,48.3,23.8,665.0,34.0,3.6,3,5,4,1,2026-05-27T22:11:29.208949+05:30
Agartala,Tripura,23.8315,91.2868,23.1,97,0.0,1007.9,8.85,28.4,79,39.9,36.2,21.4,513.0,44.0,2.9,3,5,4,1,2026-05-27T22:11:29.208956+05:30
Shillong,Meghalaya,25.5788,91.8933,15.5,94,0.0,856.4,9.05,36.7,51,21.0,16.5,12.4,352.0,54.0,2.7,3,10,7,0,2026-05-27T22:11:29.208964+05:30
Imphal,Manipur,24.817,93.9368,22.6,92,0.0,923.8,9.25,29.2,84,59.4,47.8,36.8,923.0,29.0,7.1,3,5,7,1,2026-05-27T22:11:29.208972+05:30
Aizawl,Mizoram,23.7271,92.7176,18.0,100,0.0,892.5,9.05,33.8,65,16.1,11.1,5.9,350.0,56.0,1.2,3,10,7,1,2026-05-27T22:11:29.208980+05:30
Kohima,Nagaland,25.6701,94.1077,18.5,89,0.0,856.3,8.7,29.5,69,30.7,21.2,16.7,390.0,41.0,2.2,3,10,7,1,2026-05-27T22:11:29.208987+05:30
Gangtok,Sikkim,27.3314,88.6138,14.7,98,0.0,837.6,9.1,38.5,74,20.5,15.9,11.1,557.0,110.0,3.0,3,10,7,0,2026-05-27T22:11:29.208994+05:30
Siliguri,West Bengal,26.7271,88.3953,23.8,85,0.0,994.3,8.65,30.2,80,45.6,32.9,15.6,602.0,101.0,6.9,3,5,7,1,2026-05-27T22:11:32.452451+05:30
Durgapur,West Bengal,23.5204,87.3119,24.5,95,0.0,994.5,8.85,39.2,158,80.3,68.5,27.5,747.0,89.0,33.3,3,5,7,1,2026-05-27T22:11:32.452484+05:30
Asansol,West Bengal,23.6739,86.9524,24.9,91,0.0,993.0,8.95,41.4,168,75.4,67.5,30.2,668.0,101.0,38.2,3,5,7,1,2026-05-27T22:11:32.452515+05:30
Pondicherry,Puducherry,11.9139,79.8145,29.9,81,0.0,1009.0,8.7,36.7,162,17.8,13.3,7.4,213.0,71.0,4.8,7,0,4,1,2026-05-27T22:11:32.452528+05:30
Port Blair,Andaman and Nicobar Islands,11.6234,92.7265,25.8,92,0.1,1008.8,8.3,40.0,31,8.3,4.7,0.4,124.0,71.0,0.4,10,0,4,1,2026-05-27T22:11:32.452538+05:30
Haridwar,Uttarakhand,29.9457,78.1642,28.5,49,0.0,969.5,7.55,37.4,190,94.5,49.0,23.2,427.0,155.0,17.7,4,5,7,1,2026-05-27T22:11:32.452547+05:30
Rishikesh,Uttarakhand,30.0869,78.2676,25.5,56,0.0,962.1,7.7,35.3,188,42.8,23.9,8.5,462.0,177.0,10.2,4,5,7,0,2026-05-27T22:11:32.452555+05:30
Nainital,Uttarakhand,29.3919,79.4542,15.4,79,0.0,803.3,8.5,32.8,177,33.3,28.4,15.9,478.0,137.0,9.5,3,5,7,0,2026-05-27T22:11:32.452563+05:30
Mussoorie,Uttarakhand,30.4599,78.0664,19.5,40,0.0,802.5,8.1,50.8,184,51.6,29.8,26.1,291.0,130.0,14.2,0,5,7,0,2026-05-27T22:11:32.452572+05:30
Dharamshala,Himachal Pradesh,32.219,76.3234,24.3,30,0.0,867.8,8.45,51.8,111,23.1,15.8,15.4,220.0,68.0,1.4,0,5,7,0,2026-05-27T22:11:32.452579+05:30
Dalhousie,Himachal Pradesh,32.5387,75.971,16.6,53,0.0,803.1,8.7,42.5,134,33.3,23.5,36.6,444.0,64.0,2.5,0,5,7,0,2026-05-27T22:11:32.452588+05:30
Patiala,Punjab,30.3398,76.3869,34.7,23,0.0,973.3,7.65,48.2,487,536.4,102.7,17.2,386.0,87.0,8.7,0,5,7,0,2026-05-27T22:11:32.452596+05:30
Bhatinda,Punjab,30.211,74.9455,35.3,26,0.0,978.3,8.3,33.8,108,45.3,25.8,18.7,612.0,78.0,6.6,0,5,10,0,2026-05-27T22:11:32.452603+05:30
Rohtak,Haryana,28.8955,76.6066,32.8,35,0.0,976.5,7.8,38.2,851,897.8,158.3,64.0,959.0,41.0,14.3,0,5,7,0,2026-05-27T22:11:32.452611+05:30
Panipat,Haryana,29.3909,76.9635,35.3,20,0.0,975.4,7.6,41.0,1512,1438.0,232.8,29.5,340.0,79.0,9.6,0,5,10,0,2026-05-27T22:11:32.452619+05:30
Mathura,Uttar Pradesh,27.4924,77.6737,36.0,24,0.0,982.0,8.0,37.4,624,761.8,140.2,56.6,735.0,50.0,10.7,0,5,10,0,2026-05-27T22:11:32.452626+05:30
Vrindavan,Uttar Pradesh,27.5823,77.7027,35.0,28,0.0,982.4,8.0,36.0,624,761.8,140.2,56.6,686.0,50.0,10.7,0,5,7,0,2026-05-27T22:11:32.452634+05:30
Ayodhya,Uttar Pradesh,26.7922,82.1998,31.0,58,0.0,992.7,8.3,36.4,174,68.7,42.3,11.9,425.0,136.0,12.5,0,5,7,1,2026-05-27T22:11:32.452641+05:30
Ratlam,Madhya Pradesh,23.3315,75.0367,33.2,31,0.0,954.2,8.5,48.2,68,57.2,28.8,3.6,179.0,96.0,6.2,0,5,7,0,2026-05-27T22:11:32.452649+05:30
Sagar,Madhya Pradesh,23.8388,78.7378,34.8,22,0.0,948.3,8.7,43.6,71,50.9,25.3,8.2,184.0,77.0,3.8,0,5,7,0,2026-05-27T22:11:32.452656+05:30
Satna,Madhya Pradesh,24.6005,80.8322,34.3,27,0.0,968.1,8.75,52.2,74,59.4,27.3,8.8,180.0,90.0,4.5,0,5,7,0,2026-05-27T22:11:32.452664+05:30
Akola,Maharashtra,20.7002,77.0082,35.0,24,0.0,974.1,8.85,45.4,57,30.5,18.5,10.7,205.0,77.0,5.7,0,5,7,0,2026-05-27T22:11:32.452672+05:30
Amravati,Maharashtra,20.9374,77.7796,34.5,24,0.0,966.2,8.85,43.6,59,26.4,17.5,13.1,203.0,70.0,5.4,0,5,7,0,2026-05-27T22:11:32.452681+05:30
Latur,Maharashtra,18.4088,76.5604,30.0,47,0.0,940.1,8.75,41.8,59,37.7,31.9,22.6,393.0,67.0,5.2,4,5,7,1,2026-05-27T22:11:32.452689+05:30
Nanded,Maharashtra,19.1383,77.3091,33.3,45,0.0,967.9,8.85,39.6,58,26.5,21.2,18.8,320.0,64.0,6.3,0,5,7,1,2026-05-27T22:11:32.452696+05:30
Gulbarga,Karnataka,17.3297,76.8343,30.4,50,0.0,959.0,4.65,40.7,58,23.3,19.2,26.7,264.0,54.0,5.1,0,5,3,1,2026-05-27T22:11:32.452704+05:30
Bidar,Karnataka,17.9104,77.5199,29.0,52,0.0,935.9,7.7,41.8,74,47.7,37.7,31.5,523.0,60.0,7.3,4,5,7,1,2026-05-27T22:11:32.452711+05:30
Hospet,Karnataka,15.2689,76.3909,25.6,73,0.0,957.0,7.0,38.5,45,11.9,10.8,12.2,212.0,70.0,2.0,7,5,7,1,2026-05-27T22:11:32.452718+05:30
Tirupur,Tamil Nadu,11.1085,77.3411,26.7,78,0.0,977.0,8.8,45.4,53,13.4,12.0,13.1,186.0,61.0,4.5,7,5,7,1,2026-05-27T22:11:32.452725+05:30
Alappuzha,Kerala,9.4981,76.3388,26.0,97,0.0,1011.8,8.0,25.2,39,16.4,13.4,14.2,103.0,40.0,3.1,7,0,4,1,2026-05-27T22:11:32.452732+05:30
Munnar,Kerala,10.0889,77.0595,17.1,99,0.0,858.9,8.4,27.0,38,8.4,8.1,10.2,173.0,48.0,2.2,3,10,7,1,2026-05-27T22:11:32.452739+05:30
Silchar,Assam,24.8333,92.7789,23.9,96,0.0,1006.2,8.9,35.6,96,40.3,29.5,10.7,513.0,72.0,5.8,3,5,4,1,2026-05-27T22:11:32.452747+05:30
Dibrugarh,Assam,27.4728,94.912,26.9,83,0.0,995.4,8.65,23.8,87,68.9,55.2,35.7,609.0,10.0,4.3,7,5,7,1,2026-05-27T22:11:32.452754+05:30
