city,state,latitude,longitude,temp,humidity,rain,pressure,uv_index,wind_gusts,aqi,pm10,pm2_5,mosquito_risk,arthritis_risk,migraine_risk,frizz_risk,updated_at
Delhi,Delhi,28.6139,77.209,25.8,49,0.0,986.0,6.4,28.1,162,253.3,82.2,4,5,7,0,2026-03-25T22:36:42.943089+05:30
Mumbai,Maharashtra,19.076,72.8777,28.9,73,0.0,1009.2,7.95,22.0,82,33.5,23.1,7,0,4,1,2026-03-25T22:36:42.943134+05:30
Bangalore,Karnataka,12.9716,77.5946,25.1,55,0.0,912.6,9.5,31.7,88,29.9,27.5,4,5,7,0,2026-03-25T22:36:42.943150+05:30
Hyderabad,Telangana,17.385,78.4867,24.9,78,0.0,955.0,9.0,19.1,101,62.4,53.3,3,5,7,1,2026-03-25T22:36:42.943160+05:30
Chennai,Tamil Nadu,13.0827,80.2707,26.7,78,0.0,1009.4,9.2,32.8,49,25.8,16.7,7,0,4,1,2026-03-25T22:36:42.943169+05:30
Kolkata,West Bengal,22.5726,88.3639,25.5,90,0.0,1009.3,8.4,25.2,82,36.7,31.0,7,0,4,1,2026-03-25T22:36:42.943178+05:30
Pune,Maharashtra,18.5204,73.8567,26.7,72,0.0,949.6,8.5,27.4,97,36.3,30.4,7,5,7,1,2026-03-25T22:36:42.943191+05:30
Ahmedabad,Gujarat,23.0225,72.5714,28.2,48,0.0,1003.6,7.85,22.3,68,55.6,43.1,4,5,4,1,2026-03-25T22:36:42.943199+05:30
Jaipur,Rajasthan,26.9124,75.7873,25.3,46,0.0,962.5,7.35,27.7,114,95.0,37.4,4,5,7,0,2026-03-25T22:36:42.943207+05:30
Lucknow,Uttar Pradesh,26.8467,80.9462,23.9,53,0.0,996.5,7.1,37.1,118,269.2,65.0,0,5,7,0,2026-03-25T22:36:42.943215+05:30
Kanpur,Uttar Pradesh,26.4499,80.3319,24.5,57,0.0,994.6,7.15,29.2,167,326.9,74.0,0,5,7,0,2026-03-25T22:36:42.943222+05:30
Chandigarh,Chandigarh,30.7333,76.7794,20.1,71,0.0,972.3,6.55,29.9,105,40.6,35.9,3,5,7,0,2026-03-25T22:36:42.943230+05:30
Srinagar,Jammu and Kashmir,34.0837,74.7973,11.5,74,0.0,840.3,7.65,16.9,88,77.1,65.0,3,5,7,0,2026-03-25T22:36:42.943237+05:30
Jammu,Jammu and Kashmir,32.7266,74.857,21.5,79,0.0,977.1,6.9,18.0,88,48.9,40.2,3,5,7,1,2026-03-25T22:36:42.943244+05:30
Amritsar,Punjab,31.634,74.8723,21.9,77,0.0,984.4,6.85,27.7,123,37.0,31.5,3,5,7,1,2026-03-25T22:36:42.943251+05:30
Ludhiana,Punjab,30.901,75.8573,22.6,68,0.0,982.7,6.6,23.8,124,104.5,69.6,3,5,7,1,2026-03-25T22:36:42.943258+05:30
Jalandhar,Punjab,31.326,75.5762,22.1,75,0.0,984.2,6.75,22.0,120,75.2,60.8,3,5,7,1,2026-03-25T22:36:42.943267+05:30
Dehradun,Uttarakhand,30.6284,78.0322,13.3,85,0.0,831.2,7.0,23.8,123,36.0,28.2,3,10,7,0,2026-03-25T22:36:42.943274+05:30
Shimla,Himachal Pradesh,31.1048,77.1734,11.0,83,0.0,784.8,7.05,42.8,111,37.7,27.6,3,10,7,0,2026-03-25T22:36:42.943280+05:30
Manali,Himachal Pradesh,32.2396,77.1887,14.5,73,0.0,820.7,9.05,30.6,139,26.7,15.7,3,5,7,0,2026-03-25T22:36:42.943288+05:30
Gurgaon,Haryana,28.4595,77.0266,23.5,61,0.0,984.5,6.3,24.1,502,250.5,87.3,3,5,7,0,2026-03-25T22:36:42.943294+05:30
Noida,Uttar Pradesh,28.5355,77.391,25.5,49,0.0,987.6,6.35,27.4,502,250.5,87.3,4,5,7,0,2026-03-25T22:36:42.943301+05:30
Ghaziabad,Uttar Pradesh,28.6692,77.4538,23.0,62,0.0,985.7,6.4,28.4,147,273.8,77.3,3,5,7,0,2026-03-25T22:36:42.943308+05:30
Faridabad,Haryana,28.4089,77.3178,23.7,57,0.0,986.8,6.35,25.6,502,250.5,87.3,0,5,7,0,2026-03-25T22:36:42.943314+05:30
Meerut,Uttar Pradesh,28.9845,77.7064,21.2,66,0.0,984.4,6.5,32.0,147,273.8,77.3,3,5,7,0,2026-03-25T22:36:42.943321+05:30
Agra,Uttar Pradesh,27.1767,78.0081,25.9,43,0.0,990.6,7.0,31.7,427,353.9,105.9,4,5,7,0,2026-03-25T22:36:42.943328+05:30
Varanasi,Uttar Pradesh,25.3176,82.9739,23.8,46,0.0,1000.5,7.8,30.6,103,87.8,38.3,0,5,4,0,2026-03-25T22:36:42.943337+05:30
Prayagraj,Uttar Pradesh,25.4358,81.8463,25.7,43,0.0,999.1,7.65,25.2,99,92.9,35.4,4,5,7,0,2026-03-25T22:36:42.943366+05:30
Gorakhpur,Uttar Pradesh,26.7606,83.3732,21.7,49,0.0,999.8,7.5,27.7,97,34.6,30.6,0,5,7,0,2026-03-25T22:36:42.943375+05:30
Bareilly,Uttar Pradesh,28.367,79.4304,22.6,65,0.0,989.7,6.85,28.8,102,204.9,65.4,3,5,7,0,2026-03-25T22:36:42.943382+05:30
Aligarh,Uttar Pradesh,27.8974,78.088,21.9,59,0.0,988.5,6.75,29.9,378,489.9,103.6,0,5,7,0,2026-03-25T22:36:42.943388+05:30
Moradabad,Uttar Pradesh,28.8386,78.7733,21.3,69,0.0,986.6,6.55,29.9,101,100.8,63.3,3,5,7,0,2026-03-25T22:36:42.943395+05:30
Saharanpur,Uttar Pradesh,29.9637,77.546,19.6,66,0.0,978.8,6.3,31.3,123,190.5,62.2,3,5,7,0,2026-03-25T22:36:42.943404+05:30
Jhansi,Uttar Pradesh,25.4484,78.5685,25.1,44,0.0,980.3,7.65,32.4,107,108.7,31.1,4,5,7,0,2026-03-25T22:36:46.162877+05:30
Surat,Gujarat,21.1702,72.8311,26.9,76,0.0,1007.8,7.7,24.1,93,53.8,48.0,7,5,4,1,2026-03-25T22:36:46.162909+05:30
Vadodara,Gujarat,22.3072,73.1812,28.7,53,0.0,1005.4,7.5,18.0,87,60.8,49.9,4,5,4,1,2026-03-25T22:36:46.162919+05:30
Rajkot,Gujarat,22.3039,70.8022,26.1,54,0.0,996.6,7.7,27.0,52,28.6,13.5,4,5,7,1,2026-03-25T22:36:46.162928+05:30
Thane,Maharashtra,19.2183,72.9781,27.7,74,0.0,1008.6,7.95,34.9,82,33.5,23.1,7,0,4,1,2026-03-25T22:36:46.162935+05:30
Nagpur,Maharashtra,21.1458,79.0882,28.2,57,0.0,974.3,8.4,19.8,90,40.4,31.1,4,5,7,1,2026-03-25T22:36:46.162942+05:30
Nashik,Maharashtra,19.9975,73.7898,26.1,55,0.0,946.9,8.15,26.3,75,42.5,31.2,4,5,7,1,2026-03-25T22:36:46.162949+05:30
Aurangabad,Maharashtra,19.8762,75.3433,27.8,42,0.0,945.0,8.7,32.8,57,29.5,23.2,4,5,7,0,2026-03-25T22:36:46.162956+05:30
Solapur,Maharashtra,17.6599,75.9064,27.0,65,0.0,958.0,8.85,19.8,109,43.2,36.8,7,5,7,1,2026-03-25T22:36:46.162964+05:30
Kolhapur,Maharashtra,16.705,74.2433,24.2,82,0.0,949.3,8.95,38.2,131,67.1,62.6,3,5,7,1,2026-03-25T22:36:46.162970+05:30
Goa,Goa,15.2993,74.124,28.2,80,0.0,998.6,8.95,29.9,100,44.0,32.1,7,5,7,1,2026-03-25T22:36:46.162978+05:30
Jodhpur,Rajasthan,26.2389,73.0243,29.5,38,0.0,984.9,7.45,26.6,66,127.6,24.5,4,5,7,0,2026-03-25T22:36:46.162986+05:30
Udaipur,Rajasthan,24.5854,73.7125,24.8,51,0.0,949.0,7.95,25.6,51,17.4,10.0,0,5,7,0,2026-03-25T22:36:46.162993+05:30
Kota,Rajasthan,25.2138,75.8648,25.4,59,0.0,981.1,7.7,17.3,98,47.5,35.6,4,5,7,1,2026-03-25T22:36:46.163000+05:30
Bikaner,Rajasthan,28.0229,73.3119,27.9,34,0.0,983.7,6.65,31.0,49,47.0,15.0,4,5,7,0,2026-03-25T22:36:46.163007+05:30
Ajmer,Rajasthan,26.4499,74.6399,27.8,35,0.0,957.4,7.5,28.8,65,54.4,27.3,4,5,7,0,2026-03-25T22:36:46.163015+05:30
Gwalior,Madhya Pradesh,26.2183,78.1828,25.5,52,0.0,985.9,7.25,29.9,167,86.4,26.8,4,5,7,0,2026-03-25T22:36:46.163022+05:30
Indore,Madhya Pradesh,22.7196,75.8577,25.1,55,0.0,949.6,8.15,23.0,77,52.5,42.5,4,5,7,0,2026-03-25T22:36:46.163029+05:30
Bhopal,Madhya Pradesh,23.2599,77.4126,25.7,49,0.0,955.4,8.05,22.0,62,30.5,21.0,4,5,7,0,2026-03-25T22:36:46.163035+05:30
Jabalpur,Madhya Pradesh,23.1815,79.9864,26.7,44,0.0,963.4,8.2,30.2,62,53.1,28.3,4,5,7,0,2026-03-25T22:36:46.163042+05:30
Ujjain,Madhya Pradesh,23.1765,75.7885,24.9,54,0.0,955.4,8.05,17.6,81,60.1,48.1,0,5,7,0,2026-03-25T22:36:46.163049+05:30
Visakhapatnam,Andhra Pradesh,17.6868,83.2185,26.7,84,0.0,1006.2,8.9,38.5,68,35.0,25.1,7,5,4,1,2026-03-25T22:36:46.163056+05:30
Vijayawada,Andhra Pradesh,16.5062,80.648,26.3,83,0.0,1004.9,9.0,24.5,59,22.6,17.8,7,5,4,1,2026-03-25T22:36:46.163063+05:30
Guntur,Andhra Pradesh,16.3067,80.4365,25.7,88,0.0,1006.1,9.0,24.8,55,21.5,17.6,7,5,4,1,2026-03-25T22:36:46.163070+05:30
Nellore,Andhra Pradesh,14.4426,79.9865,25.9,85,0.0,1008.2,9.1,29.5,52,22.1,14.2,7,0,4,1,2026-03-25T22:36:46.163078+05:30
Kurnool,Andhra Pradesh,15.8281,78.0373,30.3,52,0.0,978.1,8.65,18.7,89,62.2,49.2,0,5,7,1,2026-03-25T22:36:46.163085+05:30
Kakinada,Andhra Pradesh,16.9891,82.2475,25.6,86,0.0,1009.9,8.95,28.4,55,27.0,15.8,7,0,4,1,2026-03-25T22:36:46.163092+05:30
Tirupati,Andhra Pradesh,13.6288,79.4192,26.0,79,0.0,994.0,9.2,28.4,84,24.0,20.3,7,5,7,1,2026-03-25T22:36:46.163099+05:30
Warangal,Telangana,17.9689,79.5941,28.3,67,0.0,980.1,8.7,24.8,82,37.8,32.8,7,5,7,1,2026-03-25T22:36:46.163106+05:30
Nizamabad,Telangana,18.6725,78.0941,28.3,54,0.0,965.8,8.75,35.3,92,64.5,55.6,4,5,7,1,2026-03-25T22:36:46.163112+05:30
Mysore,Karnataka,12.2958,76.6396,26.0,76,0.0,928.9,9.4,32.0,83,30.2,26.7,7,5,7,1,2026-03-25T22:36:46.163119+05:30
Mangalore,Karnataka,12.9141,74.856,29.8,79,0.0,1006.7,9.05,22.7,101,41.6,35.7,7,5,4,1,2026-03-25T22:36:46.163126+05:30
Hubli-Dharwad,Karnataka,15.3647,75.124,23.6,88,0.0,941.8,9.1,38.2,117,59.6,52.7,3,5,7,1,2026-03-25T22:36:46.163133+05:30
Belgaum,Karnataka,15.8497,74.4977,23.0,89,0.0,926.8,9.1,24.8,110,54.0,45.5,3,5,7,1,2026-03-25T22:36:49.385548+05:30
Coimbatore,Tamil Nadu,11.0168,76.9558,26.1,70,0.0,962.7,9.4,34.6,72,21.8,19.1,7,5,7,1,2026-03-25T22:36:49.385580+05:30
Madurai,Tamil Nadu,9.9252,78.1198,26.9,74,0.0,994.5,9.35,25.9,57,15.4,13.9,7,5,7,1,2026-03-25T22:36:49.385590+05:30
Trichy,Tamil Nadu,10.7905,78.7047,26.0,80,0.0,1001.6,9.3,23.0,69,18.7,16.0,7,5,4,1,2026-03-25T22:36:49.385600+05:30
Salem,Tamil Nadu,11.6643,78.146,27.5,70,0.0,978.4,9.35,29.9,111,33.5,30.3,7,5,7,1,2026-03-25T22:36:49.385608+05:30
Tirunelveli,Tamil Nadu,8.7139,77.7567,26.9,72,0.0,1004.5,9.3,38.5,49,14.4,12.7,7,5,4,1,2026-03-25T22:36:49.385616+05:30
Vellore,Tamil Nadu,12.9165,79.1325,25.8,76,0.0,986.8,9.3,31.7,72,28.9,25.6,7,5,7,1,2026-03-25T22:36:49.385623+05:30
Erode,Tamil Nadu,11.341,77.7172,28.6,62,0.0,990.0,9.3,25.6,88,20.3,18.1,7,5,7,1,2026-03-25T22:36:49.385630+05:30
Kochi,Kerala,9.9312,76.2673,29.2,79,0.0,1008.8,9.15,33.1,92,44.2,39.5,7,0,4,1,2026-03-25T22:36:49.385638+05:30
Thiruvananthapuram,Kerala,8.5241,76.9366,29.4,76,0.0,1008.2,9.2,31.3,108,14.8,10.8,7,0,4,1,2026-03-25T22:36:49.385645+05:30
Kozhikode,Kerala,11.2588,75.7804,30.1,78,0.0,1007.6,9.1,27.4,98,39.3,28.3,3,5,4,1,2026-03-25T22:36:49.385651+05:30
Thrissur,Kerala,10.5276,76.2144,28.3,86,0.0,1007.0,9.15,39.2,83,43.7,35.7,7,5,4,1,2026-03-25T22:36:49.385659+05:30
Kannur,Kerala,11.8745,75.3704,29.2,79,0.0,1006.8,9.1,29.5,101,37.7,30.9,7,5,4,1,2026-03-25T22:36:49.385666+05:30
Patna,Bihar,25.5941,85.1376,25.0,54,0.0,1003.3,7.4,30.2,105,113.2,76.1,4,5,4,0,2026-03-25T22:36:49.385673+05:30
Gaya,Bihar,24.7914,85.0002,24.7,48,0.0,997.1,8.05,22.7,105,87.1,49.9,0,5,7,0,2026-03-25T22:36:49.385679+05:30
Muzaffarpur,Bihar,26.1209,85.3647,23.2,61,0.0,1003.3,7.9,24.1,110,122.5,88.5,3,5,4,0,2026-03-25T22:36:49.385686+05:30
Bhagalpur,Bihar,25.2425,87.0117,24.5,58,0.0,1004.5,8.0,24.1,147,87.1,61.2,0,5,4,0,2026-03-25T22:36:49.385693+05:30
Ranchi,Jharkhand,23.3441,85.3096,23.1,48,0.0,940.6,8.4,31.7,82,47.8,27.9,0,5,7,0,2026-03-25T22:36:49.385700+05:30
Jamshedpur,Jharkhand,22.8046,86.2029,26.8,70,0.0,993.8,8.55,20.9,151,76.8,62.2,7,5,7,1,2026-03-25T22:36:49.385707+05:30
Dhanbad,Jharkhand,23.7957,86.4304,26.6,41,0.0,983.1,8.45,26.6,152,103.4,85.9,4,5,7,0,2026-03-25T22:36:49.385714+05:30
Bokaro,Jharkhand,23.6693,86.1511,25.7,49,0.0,987.3,8.45,24.1,145,95.9,76.8,4,5,7,0,2026-03-25T22:36:49.385720+05:30
Bhubaneswar,Odisha,20.2961,85.8245,25.7,92,0.0,1005.7,8.75,28.1,72,39.9,34.1,7,5,4,1,2026-03-25T22:36:49.385727+05:30
Cuttack,Odisha,20.4625,85.8828,25.4,91,0.0,1007.8,8.8,35.3,72,39.9,34.1,7,5,4,1,2026-03-25T22:36:49.385734+05:30
Rourkela,Odisha,22.2604,84.8536,26.3,81,0.0,987.6,8.45,19.8,124,59.4,45.2,7,5,7,1,2026-03-25T22:36:49.385740+05:30
Raipur,Chhattisgarh,21.2514,81.6296,29.0,51,0.0,976.0,8.2,45.4,138,53.0,46.2,4,5,7,1,2026-03-25T22:36:49.385746+05:30
Bhilai,Chhattisgarh,21.1938,81.3509,27.9,56,0.0,976.3,8.2,40.0,117,63.6,56.5,4,5,7,1,2026-03-25T22:36:49.385753+05:30
Guwahati,Assam,26.1158,91.7086,22.7,84,0.0,1006.4,7.85,28.1,113,58.6,48.3,3,5,4,1,2026-03-25T22:36:49.385759+05:30
Agartala,Tripura,23.8315,91.2868,23.1,93,0.0,1010.3,8.15,27.4,149,59.5,54.1,3,0,4,1,2026-03-25T22:36:49.385765+05:30
Shillong,Meghalaya,25.5788,91.8933,9.9,91,0.0,856.8,8.25,67.0,101,53.0,43.8,3,10,7,0,2026-03-25T22:36:49.385772+05:30
Imphal,Manipur,24.817,93.9368,15.6,81,0.0,926.3,8.45,76.0,121,69.8,54.7,3,10,7,0,2026-03-25T22:36:49.385779+05:30
Aizawl,Mizoram,23.7271,92.7176,18.2,69,0.0,895.2,8.25,43.9,115,73.1,51.3,3,5,7,0,2026-03-25T22:36:49.385786+05:30
Kohima,Nagaland,25.6701,94.1077,13.3,90,0.0,856.9,7.8,76.7,99,61.2,47.1,3,10,7,0,2026-03-25T22:36:49.385792+05:30
Gangtok,Sikkim,27.3314,88.6138,12.7,89,0.0,838.9,8.1,18.7,72,45.6,39.1,3,10,7,0,2026-03-25T22:36:49.385799+05:30
Siliguri,West Bengal,26.7271,88.3953,20.2,67,0.0,998.0,7.8,25.2,148,82.7,67.3,3,5,7,0,2026-03-25T22:36:52.609038+05:30
Durgapur,West Bengal,23.5204,87.3119,26.2,77,0.0,998.5,8.4,24.5,151,98.0,85.2,7,5,7,1,2026-03-25T22:36:52.609069+05:30
Asansol,West Bengal,23.6739,86.9524,26.2,74,0.0,997.2,8.4,22.3,129,75.2,61.7,7,5,7,1,2026-03-25T22:36:52.609080+05:30
Pondicherry,Puducherry,11.9139,79.8145,24.8,89,0.0,1010.5,9.15,29.5,39,24.2,15.0,3,0,4,1,2026-03-25T22:36:52.609088+05:30
Port Blair,Andaman and Nicobar Islands,11.6234,92.7265,28.5,75,0.0,1008.3,9.1,21.6,60,16.8,11.8,7,0,4,1,2026-03-25T22:36:52.609097+05:30
Haridwar,Uttarakhand,29.9457,78.1642,19.7,80,0.0,977.5,6.45,25.2,103,104.5,50.8,3,5,7,1,2026-03-25T22:36:52.609105+05:30
Rishikesh,Uttarakhand,30.0869,78.2676,20.2,71,0.0,970.2,6.5,23.4,126,59.0,33.9,3,5,7,0,2026-03-25T22:36:52.609113+05:30
Nainital,Uttarakhand,29.3919,79.4542,16.2,58,0.0,807.3,7.35,27.7,119,36.3,29.9,0,5,7,0,2026-03-25T22:36:52.609120+05:30
Mussoorie,Uttarakhand,30.4599,78.0664,14.7,74,0.0,803.9,6.9,25.2,124,73.1,45.2,3,5,7,0,2026-03-25T22:36:52.609127+05:30
Dharamshala,Himachal Pradesh,32.219,76.3234,17.9,73,0.0,871.6,7.1,18.0,108,31.5,22.5,3,5,7,0,2026-03-25T22:36:52.609135+05:30
Dalhousie,Himachal Pradesh,32.5387,75.971,14.7,83,0.0,805.1,7.35,20.5,94,44.7,38.3,3,10,7,0,2026-03-25T22:36:52.609143+05:30
Patiala,Punjab,30.3398,76.3869,21.3,74,0.0,981.8,6.45,26.6,128,149.9,66.6,3,5,7,1,2026-03-25T22:36:52.609150+05:30
Bhatinda,Punjab,30.211,74.9455,23.0,74,0.0,987.1,6.35,22.3,138,63.1,39.0,3,5,7,1,2026-03-25T22:36:52.609158+05:30
Rohtak,Haryana,28.8955,76.6066,23.5,61,0.0,984.8,6.45,21.2,191,245.9,83.4,3,5,7,0,2026-03-25T22:36:52.609165+05:30
Panipat,Haryana,29.3909,76.9635,21.9,68,0.0,983.5,5.95,28.4,385,512.2,94.5,3,5,3,0,2026-03-25T22:36:52.609172+05:30
Mathura,Uttar Pradesh,27.4924,77.6737,24.7,54,0.0,989.7,6.85,20.9,414,293.4,82.2,0,5,7,0,2026-03-25T22:36:52.609178+05:30
Vrindavan,Uttar Pradesh,27.5823,77.7027,23.8,54,0.0,990.3,6.8,24.8,414,293.4,82.2,0,5,7,0,2026-03-25T22:36:52.609185+05:30
Ayodhya,Uttar Pradesh,26.7922,82.1998,22.1,44,0.0,998.3,7.3,35.3,98,70.8,35.0,0,5,7,0,2026-03-25T22:36:52.609192+05:30
Ratlam,Madhya Pradesh,23.3315,75.0367,26.4,51,0.0,956.4,8.05,24.5,70,39.2,29.9,4,5,7,0,2026-03-25T22:36:52.609200+05:30
Sagar,Madhya Pradesh,23.8388,78.7378,26.9,42,0.0,952.3,8.05,25.6,66,36.9,13.3,4,5,7,0,2026-03-25T22:36:52.609207+05:30
Satna,Madhya Pradesh,24.6005,80.8322,26.7,41,0.0,974.1,7.85,29.9,85,87.1,25.2,4,5,7,0,2026-03-25T22:36:52.609214+05:30
Akola,Maharashtra,20.7002,77.0082,27.9,56,0.0,976.0,8.45,23.8,52,22.5,17.7,4,5,7,1,2026-03-25T22:36:52.609222+05:30
Amravati,Maharashtra,20.9374,77.7796,26.9,47,0.0,968.3,8.45,22.7,56,31.9,25.4,4,5,7,0,2026-03-25T22:36:52.609229+05:30
Latur,Maharashtra,18.4088,76.5604,25.4,69,0.0,940.8,8.8,19.8,93,47.7,37.5,7,5,7,1,2026-03-25T22:36:52.609236+05:30
Nanded,Maharashtra,19.1383,77.3091,29.7,44,0.0,969.2,8.65,22.7,93,47.3,38.0,4,5,7,1,2026-03-25T22:36:52.609243+05:30
Gulbarga,Karnataka,17.3297,76.8343,26.9,71,0.0,960.2,8.85,26.3,123,48.8,41.9,7,5,7,1,2026-03-25T22:36:52.609249+05:30
Bidar,Karnataka,17.9104,77.5199,26.3,66,0.0,936.9,8.85,23.8,89,45.4,40.0,7,5,7,1,2026-03-25T22:36:52.609256+05:30
Hospet,Karnataka,15.2689,76.3909,27.4,75,0.0,956.9,9.05,20.5,127,46.3,41.6,7,5,7,1,2026-03-25T22:36:52.609262+05:30
Tirupur,Tamil Nadu,11.1085,77.3411,29.1,44,0.0,976.2,9.4,32.4,86,22.5,19.6,4,5,7,0,2026-03-25T22:36:52.609269+05:30
Alappuzha,Kerala,9.4981,76.3388,29.1,79,0.0,1009.0,9.15,29.2,85,38.4,30.7,7,0,4,1,2026-03-25T22:36:52.609275+05:30
Munnar,Kerala,10.0889,77.0595,21.3,67,0.0,857.1,9.65,30.6,57,29.9,25.4,3,5,7,0,2026-03-25T22:36:52.609283+05:30
Silchar,Assam,24.8333,92.7789,23.2,82,0.0,1009.2,8.15,36.0,160,110.4,87.8,3,0,4,1,2026-03-25T22:36:52.609289+05:30
Dibrugarh,Assam,27.4728,94.912,20.6,81,0.0,1001.4,6.95,27.4,78,24.3,22.9,3,5,4,1,2026-03-25T22:36:52.609297+05:30
