city,state,latitude,longitude,temp,humidity,rain,pressure,uv_index,wind_gusts,aqi,pm10,pm2_5,mosquito_risk,arthritis_risk,migraine_risk,frizz_risk,updated_at
Delhi,Delhi,28.6139,77.209,34.3,22,0.0,979.1,7.4,48.6,548,841.9,126.2,0,5,7,0,2026-04-26T22:19:54.300402+05:30
Mumbai,Maharashtra,19.076,72.8777,29.1,81,0.0,1007.4,7.6,37.1,93,76.1,34.7,7,5,4,1,2026-04-26T22:19:54.300445+05:30
Bangalore,Karnataka,12.9716,77.5946,27.7,41,0.0,912.4,9.55,36.7,143,26.5,24.0,4,5,7,0,2026-04-26T22:19:54.300461+05:30
Hyderabad,Telangana,17.385,78.4867,34.0,29,0.0,952.7,9.25,33.5,137,74.7,66.8,0,5,7,0,2026-04-26T22:19:54.300472+05:30
Chennai,Tamil Nadu,13.0827,80.2707,29.0,81,0.0,1007.2,9.25,49.7,43,19.7,13.1,7,5,4,1,2026-04-26T22:19:54.300481+05:30
Kolkata,West Bengal,22.5726,88.3639,28.7,80,0.0,1004.0,8.9,40.0,60,21.4,15.8,7,5,4,1,2026-04-26T22:19:54.300494+05:30
Pune,Maharashtra,18.5204,73.8567,29.5,59,0.0,947.5,8.35,38.9,161,34.8,24.8,4,5,7,1,2026-04-26T22:19:54.300501+05:30
Ahmedabad,Gujarat,23.0225,72.5714,37.0,14,0.0,999.5,8.2,38.9,67,45.9,22.7,0,5,10,0,2026-04-26T22:19:54.300509+05:30
Jaipur,Rajasthan,26.9124,75.7873,35.0,19,0.0,957.4,8.05,41.8,149,158.3,40.7,0,5,7,0,2026-04-26T22:19:54.300517+05:30
Lucknow,Uttar Pradesh,26.8467,80.9462,34.8,21,0.0,989.4,7.9,52.6,160,493.6,87.5,0,5,7,0,2026-04-26T22:19:54.300525+05:30
Kanpur,Uttar Pradesh,26.4499,80.3319,35.5,20,0.0,988.0,7.9,54.7,518,787.9,110.4,0,5,10,0,2026-04-26T22:19:54.300533+05:30
Chandigarh,Chandigarh,30.7333,76.7794,29.7,25,0.0,965.0,7.4,45.7,100,23.5,17.1,4,5,7,0,2026-04-26T22:19:54.300540+05:30
Srinagar,Jammu and Kashmir,34.0837,74.7973,12.6,83,0.0,838.5,8.6,16.2,78,39.5,30.0,3,10,7,0,2026-04-26T22:19:54.300548+05:30
Jammu,Jammu and Kashmir,32.7266,74.857,29.5,25,0.0,968.5,8.15,33.8,73,45.8,32.8,4,5,7,0,2026-04-26T22:19:54.300555+05:30
Amritsar,Punjab,31.634,74.8723,30.5,28,0.0,976.6,8.1,36.7,98,29.9,17.7,0,5,7,0,2026-04-26T22:19:54.300562+05:30
Ludhiana,Punjab,30.901,75.8573,30.4,29,0.0,974.8,7.65,41.8,89,61.7,25.6,0,5,7,0,2026-04-26T22:19:54.300571+05:30
Jalandhar,Punjab,31.326,75.5762,31.1,27,0.0,975.5,7.85,37.4,99,53.4,26.0,0,5,7,0,2026-04-26T22:19:54.300577+05:30
Dehradun,Uttarakhand,30.6284,78.0322,15.3,49,0.0,826.2,7.8,49.0,89,23.3,11.7,0,5,7,0,2026-04-26T22:19:54.300584+05:30
Shimla,Himachal Pradesh,31.1048,77.1734,15.5,40,0.0,783.2,7.9,52.9,90,25.8,11.7,0,5,7,0,2026-04-26T22:19:54.300591+05:30
Manali,Himachal Pradesh,32.2396,77.1887,8.9,55,0.0,812.6,9.8,45.0,117,25.1,10.8,0,5,7,0,2026-04-26T22:19:54.300598+05:30
Gurgaon,Haryana,28.4595,77.0266,32.7,23,0.0,977.4,7.55,49.7,1526,1166.0,152.3,0,5,7,0,2026-04-26T22:19:54.300605+05:30
Noida,Uttar Pradesh,28.5355,77.391,34.2,22,0.0,980.3,7.45,43.9,1526,1166.0,152.3,0,5,7,0,2026-04-26T22:19:54.300611+05:30
Ghaziabad,Uttar Pradesh,28.6692,77.4538,35.2,20,0.0,978.6,7.4,47.9,451,776.7,117.8,0,5,10,0,2026-04-26T22:19:54.300618+05:30
Faridabad,Haryana,28.4089,77.3178,34.8,21,0.0,979.7,7.5,53.3,1526,1166.0,152.3,0,5,7,0,2026-04-26T22:19:54.300625+05:30
Meerut,Uttar Pradesh,28.9845,77.7064,31.6,25,0.0,977.4,7.3,50.8,451,776.7,117.8,0,5,7,0,2026-04-26T22:19:54.300633+05:30
Agra,Uttar Pradesh,27.1767,78.0081,33.8,26,0.0,983.9,7.8,50.4,953,901.5,100.1,0,5,7,0,2026-04-26T22:19:54.300642+05:30
Varanasi,Uttar Pradesh,25.3176,82.9739,32.7,45,0.0,993.9,8.5,53.3,143,110.4,54.9,0,5,7,1,2026-04-26T22:19:54.300651+05:30
Prayagraj,Uttar Pradesh,25.4358,81.8463,34.7,22,0.0,991.8,8.4,50.8,136,121.5,44.7,0,5,7,0,2026-04-26T22:19:54.300658+05:30
Gorakhpur,Uttar Pradesh,26.7606,83.3732,27.0,65,0.0,995.0,8.35,40.7,165,73.3,55.4,7,5,7,1,2026-04-26T22:19:54.300665+05:30
Bareilly,Uttar Pradesh,28.367,79.4304,32.2,28,0.0,982.2,7.65,54.7,117,196.0,49.0,0,5,7,0,2026-04-26T22:19:54.300672+05:30
Aligarh,Uttar Pradesh,27.8974,78.088,32.0,27,0.0,981.2,7.6,51.8,1043,1184.6,170.0,0,5,7,0,2026-04-26T22:19:54.300678+05:30
Moradabad,Uttar Pradesh,28.8386,78.7733,32.2,26,0.0,979.2,7.5,55.8,130,254.3,62.9,0,5,7,0,2026-04-26T22:19:54.300685+05:30
Saharanpur,Uttar Pradesh,29.9637,77.546,31.6,22,0.0,971.1,7.1,52.2,86,123.9,31.3,0,5,7,0,2026-04-26T22:19:54.300691+05:30
Jhansi,Uttar Pradesh,25.4484,78.5685,32.8,25,0.0,975.0,8.3,49.0,92,58.2,23.3,0,5,7,0,2026-04-26T22:19:57.564995+05:30
Surat,Gujarat,21.1702,72.8311,30.5,62,0.0,1004.6,7.85,36.0,115,62.6,36.9,3,5,4,1,2026-04-26T22:19:57.565029+05:30
Vadodara,Gujarat,22.3072,73.1812,34.3,28,0.0,1002.0,8.15,41.4,124,47.8,34.9,0,5,4,0,2026-04-26T22:19:57.565041+05:30
Rajkot,Gujarat,22.3039,70.8022,30.4,37,0.0,993.0,7.85,39.2,59,30.3,14.1,0,5,7,0,2026-04-26T22:19:57.565053+05:30
Thane,Maharashtra,19.2183,72.9781,29.6,75,0.0,1006.8,7.6,32.8,93,76.1,34.7,7,5,4,1,2026-04-26T22:19:57.565063+05:30
Nagpur,Maharashtra,21.1458,79.0882,37.8,16,0.0,970.6,8.9,34.6,163,88.7,45.9,0,5,10,0,2026-04-26T22:19:57.565072+05:30
Nashik,Maharashtra,19.9975,73.7898,30.9,29,0.0,945.0,8.1,36.0,135,42.4,29.2,0,5,7,0,2026-04-26T22:19:57.565080+05:30
Aurangabad,Maharashtra,19.8762,75.3433,34.3,17,0.0,943.1,9.05,32.4,101,21.9,16.6,0,5,7,0,2026-04-26T22:19:57.565089+05:30
Solapur,Maharashtra,17.6599,75.9064,35.8,20,0.0,955.4,9.05,25.2,152,55.5,47.6,0,5,10,0,2026-04-26T22:19:57.565098+05:30
Kolhapur,Maharashtra,16.705,74.2433,25.9,82,0.0,947.8,9.0,50.8,133,23.7,17.8,7,5,7,1,2026-04-26T22:19:57.565108+05:30
Goa,Goa,15.2993,74.124,30.1,77,0.0,997.8,8.95,34.9,89,35.3,25.3,3,5,7,1,2026-04-26T22:19:57.565116+05:30
Jodhpur,Rajasthan,26.2389,73.0243,35.6,20,0.0,979.6,8.3,34.2,81,184.4,27.6,0,5,10,0,2026-04-26T22:19:57.565125+05:30
Udaipur,Rajasthan,24.5854,73.7125,33.2,15,0.0,945.7,8.75,47.9,81,20.1,8.6,0,5,7,0,2026-04-26T22:19:57.565132+05:30
Kota,Rajasthan,25.2138,75.8648,33.3,24,0.0,976.1,8.3,46.8,90,67.1,30.2,0,5,7,0,2026-04-26T22:19:57.565138+05:30
Bikaner,Rajasthan,28.0229,73.3119,34.7,22,0.0,978.5,8.15,37.1,71,48.7,17.1,0,5,7,0,2026-04-26T22:19:57.565145+05:30
Ajmer,Rajasthan,26.4499,74.6399,34.2,20,0.0,952.7,8.25,41.4,66,62.4,21.8,0,5,7,0,2026-04-26T22:19:57.565152+05:30
Gwalior,Madhya Pradesh,26.2183,78.1828,34.5,23,0.0,980.0,8.0,45.4,120,76.1,24.1,0,5,7,0,2026-04-26T22:19:57.565159+05:30
Indore,Madhya Pradesh,22.7196,75.8577,33.0,36,0.0,947.2,8.65,37.4,90,50.3,26.5,0,5,7,0,2026-04-26T22:19:57.565166+05:30
Bhopal,Madhya Pradesh,23.2599,77.4126,33.0,25,0.0,952.6,8.65,37.8,97,71.5,33.9,0,5,7,0,2026-04-26T22:19:57.565173+05:30
Jabalpur,Madhya Pradesh,23.1815,79.9864,32.2,24,0.0,959.8,8.7,42.1,66,72.6,29.4,0,5,7,0,2026-04-26T22:19:57.565180+05:30
Ujjain,Madhya Pradesh,23.1765,75.7885,31.6,25,0.0,952.4,8.55,41.4,73,56.3,30.9,0,5,7,0,2026-04-26T22:19:57.565187+05:30
Visakhapatnam,Andhra Pradesh,17.6868,83.2185,28.2,86,0.0,1003.5,8.95,47.5,56,21.4,14.7,7,5,4,1,2026-04-26T22:19:57.565194+05:30
Vijayawada,Andhra Pradesh,16.5062,80.648,28.4,82,0.0,1002.3,8.9,37.4,57,21.4,15.8,7,5,4,1,2026-04-26T22:19:57.565201+05:30
Guntur,Andhra Pradesh,16.3067,80.4365,28.1,86,0.0,1003.5,8.95,40.7,61,20.8,15.9,7,5,4,1,2026-04-26T22:19:57.565208+05:30
Nellore,Andhra Pradesh,14.4426,79.9865,28.7,78,0.0,1005.3,9.1,43.9,59,17.2,12.9,7,5,4,1,2026-04-26T22:19:57.565216+05:30
Kurnool,Andhra Pradesh,15.8281,78.0373,33.8,29,0.0,975.5,9.2,33.8,131,46.6,39.8,0,5,7,0,2026-04-26T22:19:57.565223+05:30
Kakinada,Andhra Pradesh,16.9891,82.2475,28.5,83,0.0,1007.4,8.85,40.3,48,20.8,12.6,7,5,4,1,2026-04-26T22:19:57.565230+05:30
Tirupati,Andhra Pradesh,13.6288,79.4192,29.6,60,0.0,991.2,9.3,40.3,79,19.8,17.3,4,5,7,1,2026-04-26T22:19:57.565237+05:30
Warangal,Telangana,17.9689,79.5941,32.9,32,0.0,977.6,9.0,35.3,120,36.9,32.2,0,5,7,0,2026-04-26T22:19:57.565244+05:30
Nizamabad,Telangana,18.6725,78.0941,32.3,29,0.0,962.7,8.6,31.3,117,44.4,36.9,0,5,7,0,2026-04-26T22:19:57.565251+05:30
Mysore,Karnataka,12.2958,76.6396,25.5,79,0.0,928.2,9.45,40.0,116,38.0,32.9,7,5,7,1,2026-04-26T22:19:57.565257+05:30
Mangalore,Karnataka,12.9141,74.856,30.0,78,0.0,1006.1,9.05,39.2,81,33.4,25.3,7,5,4,1,2026-04-26T22:19:57.565264+05:30
Hubli-Dharwad,Karnataka,15.3647,75.124,26.2,83,0.0,940.7,8.85,45.7,116,35.3,32.0,7,5,7,1,2026-04-26T22:19:57.565271+05:30
Belgaum,Karnataka,15.8497,74.4977,24.2,96,0.0,925.8,8.85,48.2,116,32.4,28.3,3,5,7,1,2026-04-26T22:20:18.850445+05:30
Coimbatore,Tamil Nadu,11.0168,76.9558,28.2,73,0.0,962.1,9.35,39.6,106,37.5,33.5,7,5,7,1,2026-04-26T22:20:18.850480+05:30
Madurai,Tamil Nadu,9.9252,78.1198,30.0,63,0.0,993.8,9.25,37.4,60,9.1,8.9,7,5,7,1,2026-04-26T22:20:18.850490+05:30
Trichy,Tamil Nadu,10.7905,78.7047,29.1,75,0.0,1000.0,9.25,30.6,49,13.9,13.1,7,5,4,1,2026-04-26T22:20:18.850498+05:30
Salem,Tamil Nadu,11.6643,78.146,30.8,50,0.0,977.2,9.35,41.8,96,21.6,20.3,0,5,7,1,2026-04-26T22:20:18.850506+05:30
Tirunelveli,Tamil Nadu,8.7139,77.7567,29.3,69,0.0,1003.8,9.2,37.4,68,10.5,10.0,7,5,4,1,2026-04-26T22:20:18.850513+05:30
Vellore,Tamil Nadu,12.9165,79.1325,28.6,71,0.0,984.5,9.3,34.6,84,31.3,29.0,7,5,7,1,2026-04-26T22:20:18.850520+05:30
Erode,Tamil Nadu,11.341,77.7172,32.7,40,0.0,988.8,9.3,39.2,81,15.0,14.1,0,5,7,1,2026-04-26T22:20:18.850526+05:30
Kochi,Kerala,9.9312,76.2673,29.8,74,0.0,1008.9,9.0,39.2,72,25.0,22.1,7,0,4,1,2026-04-26T22:20:18.850533+05:30
Thiruvananthapuram,Kerala,8.5241,76.9366,27.6,86,0.0,1008.6,8.8,32.4,49,11.5,9.0,7,0,4,1,2026-04-26T22:20:18.850540+05:30
Kozhikode,Kerala,11.2588,75.7804,28.3,88,0.0,1007.6,8.4,38.2,54,18.2,13.4,7,5,4,1,2026-04-26T22:20:18.850546+05:30
Thrissur,Kerala,10.5276,76.2144,28.6,84,0.0,1007.2,9.0,41.0,74,20.9,19.5,7,5,4,1,2026-04-26T22:20:18.850554+05:30
Kannur,Kerala,11.8745,75.3704,29.5,82,0.0,1006.8,9.0,39.6,70,26.0,20.4,7,5,4,1,2026-04-26T22:20:18.850561+05:30
Patna,Bihar,25.5941,85.1376,27.5,65,0.0,998.3,8.65,45.4,188,70.1,60.8,7,5,7,1,2026-04-26T22:20:18.850567+05:30
Gaya,Bihar,24.7914,85.0002,28.0,66,0.0,991.0,8.7,36.7,171,68.0,63.8,7,5,7,1,2026-04-26T22:20:18.850574+05:30
Muzaffarpur,Bihar,26.1209,85.3647,25.8,66,0.0,998.9,8.65,48.6,166,71.9,61.9,7,5,7,1,2026-04-26T22:20:18.850580+05:30
Bhagalpur,Bihar,25.2425,87.0117,26.4,75,0.0,1000.3,8.6,40.3,140,27.0,23.0,7,5,4,1,2026-04-26T22:20:18.850586+05:30
Ranchi,Jharkhand,23.3441,85.3096,26.1,56,0.0,934.9,9.15,44.3,122,124.8,42.0,4,5,7,1,2026-04-26T22:20:18.850592+05:30
Jamshedpur,Jharkhand,22.8046,86.2029,29.2,80,0.0,988.0,8.85,37.8,167,46.7,39.9,7,5,7,1,2026-04-26T22:20:18.850598+05:30
Dhanbad,Jharkhand,23.7957,86.4304,28.1,75,0.0,977.7,8.95,42.5,153,91.3,66.4,7,5,7,1,2026-04-26T22:20:18.850605+05:30
Bokaro,Jharkhand,23.6693,86.1511,28.5,74,0.0,981.4,8.95,41.0,153,96.6,68.9,7,5,7,1,2026-04-26T22:20:18.850611+05:30
Bhubaneswar,Odisha,20.2961,85.8245,27.6,89,0.0,1001.1,9.1,50.4,53,16.6,11.6,7,5,4,1,2026-04-26T22:20:18.850617+05:30
Cuttack,Odisha,20.4625,85.8828,27.8,88,0.0,1002.6,9.1,47.2,53,16.6,11.6,7,5,4,1,2026-04-26T22:20:18.850623+05:30
Rourkela,Odisha,22.2604,84.8536,30.0,67,0.0,982.1,8.65,46.4,201,62.6,41.9,7,5,7,1,2026-04-26T22:20:18.850629+05:30
Raipur,Chhattisgarh,21.2514,81.6296,34.2,22,0.0,972.0,8.95,41.0,159,61.0,56.0,0,5,7,0,2026-04-26T22:20:18.850635+05:30
Bhilai,Chhattisgarh,21.1938,81.3509,33.4,24,0.0,972.4,9.0,44.3,142,50.1,43.9,0,5,7,0,2026-04-26T22:20:18.850642+05:30
Guwahati,Assam,26.1158,91.7086,21.6,95,0.1,1002.9,3.7,40.3,134,65.7,47.6,6,5,0,1,2026-04-26T22:20:18.850648+05:30
Agartala,Tripura,23.8315,91.2868,22.8,96,0.1,1006.6,8.8,32.0,89,19.3,15.0,6,5,4,1,2026-04-26T22:20:18.850655+05:30
Shillong,Meghalaya,25.5788,91.8933,15.6,97,0.1,855.4,4.65,45.4,128,52.2,34.8,6,10,3,0,2026-04-26T22:20:18.850661+05:30
Imphal,Manipur,24.817,93.9368,19.0,97,0.0,922.9,5.7,24.1,152,112.5,74.0,3,10,3,1,2026-04-26T22:20:18.850668+05:30
Aizawl,Mizoram,23.7271,92.7176,16.5,98,0.0,891.7,9.0,34.9,108,36.6,22.8,3,10,7,1,2026-04-26T22:20:18.850674+05:30
Kohima,Nagaland,25.6701,94.1077,16.6,84,0.1,854.5,6.95,32.0,150,72.4,42.4,6,10,7,0,2026-04-26T22:20:18.850680+05:30
Gangtok,Sikkim,27.3314,88.6138,13.7,96,0.1,835.3,6.75,41.0,117,46.6,27.8,6,10,7,0,2026-04-26T22:20:18.850686+05:30
Siliguri,West Bengal,26.7271,88.3953,21.4,86,0.0,993.1,8.4,33.1,122,66.8,45.3,3,5,7,1,2026-04-26T22:20:22.211784+05:30
Durgapur,West Bengal,23.5204,87.3119,27.5,88,0.0,993.3,8.85,35.6,128,30.5,29.3,7,5,7,1,2026-04-26T22:20:22.211814+05:30
Asansol,West Bengal,23.6739,86.9524,27.0,86,0.0,991.7,8.9,38.5,147,39.1,38.1,7,5,7,1,2026-04-26T22:20:22.211824+05:30
Pondicherry,Puducherry,11.9139,79.8145,29.0,81,0.0,1008.6,9.2,41.8,38,17.0,11.4,7,0,4,1,2026-04-26T22:20:22.211832+05:30
Port Blair,Andaman and Nicobar Islands,11.6234,92.7265,28.2,77,0.0,1007.4,9.1,35.3,58,18.9,14.0,7,5,4,1,2026-04-26T22:20:22.211839+05:30
Haridwar,Uttarakhand,29.9457,78.1642,24.3,44,0.0,969.0,7.2,54.0,95,25.2,15.4,0,5,7,0,2026-04-26T22:20:22.211846+05:30
Rishikesh,Uttarakhand,30.0869,78.2676,22.5,45,0.0,961.9,7.3,42.1,101,33.2,14.8,0,5,7,0,2026-04-26T22:20:22.211854+05:30
Nainital,Uttarakhand,29.3919,79.4542,16.4,41,0.0,803.4,8.15,54.4,97,91.0,22.6,0,5,7,0,2026-04-26T22:20:22.211861+05:30
Mussoorie,Uttarakhand,30.4599,78.0664,17.5,38,0.0,800.9,7.7,65.2,102,19.4,14.2,0,5,7,0,2026-04-26T22:20:22.211868+05:30
Dharamshala,Himachal Pradesh,32.219,76.3234,23.0,34,0.0,867.8,8.05,43.2,79,32.8,14.9,0,5,7,0,2026-04-26T22:20:22.211875+05:30
Dalhousie,Himachal Pradesh,32.5387,75.971,13.9,59,0.0,801.4,8.3,41.0,84,39.1,21.7,0,5,7,0,2026-04-26T22:20:22.211882+05:30
Patiala,Punjab,30.3398,76.3869,31.2,26,0.0,974.3,7.3,47.9,379,446.1,65.7,0,5,7,0,2026-04-26T22:20:22.211890+05:30
Bhatinda,Punjab,30.211,74.9455,32.7,23,0.0,979.6,8.0,37.8,88,76.8,28.0,0,5,7,0,2026-04-26T22:20:22.211896+05:30
Rohtak,Haryana,28.8955,76.6066,33.3,21,0.0,977.7,7.45,44.6,696,912.7,128.1,0,5,7,0,2026-04-26T22:20:22.211903+05:30
Panipat,Haryana,29.3909,76.9635,31.8,20,0.0,976.3,7.25,48.6,1455,1713.6,209.5,0,5,7,0,2026-04-26T22:20:22.211910+05:30
Mathura,Uttar Pradesh,27.4924,77.6737,31.9,27,0.0,982.7,7.75,50.8,958,422.8,78.7,0,5,7,0,2026-04-26T22:20:22.211916+05:30
Vrindavan,Uttar Pradesh,27.5823,77.7027,31.7,27,0.0,983.2,7.7,47.9,958,422.8,78.7,0,5,7,0,2026-04-26T22:20:22.211943+05:30
Ayodhya,Uttar Pradesh,26.7922,82.1998,29.6,57,0.0,992.3,8.1,42.8,151,83.8,58.4,4,5,7,1,2026-04-26T22:20:22.211952+05:30
Ratlam,Madhya Pradesh,23.3315,75.0367,33.2,17,0.0,953.3,8.5,39.2,66,53.9,32.8,0,5,7,0,2026-04-26T22:20:22.211958+05:30
Sagar,Madhya Pradesh,23.8388,78.7378,30.9,29,0.0,948.7,8.65,41.4,73,68.9,25.9,0,5,7,0,2026-04-26T22:20:22.211965+05:30
Satna,Madhya Pradesh,24.6005,80.8322,32.7,25,0.0,968.8,8.65,50.0,99,77.3,28.7,0,5,7,0,2026-04-26T22:20:22.211971+05:30
Akola,Maharashtra,20.7002,77.0082,34.2,19,0.0,972.9,8.85,34.2,108,40.2,25.7,0,5,7,0,2026-04-26T22:20:22.211978+05:30
Amravati,Maharashtra,20.9374,77.7796,35.0,18,0.0,965.3,8.85,33.8,126,45.5,29.7,0,5,7,0,2026-04-26T22:20:22.211985+05:30
Latur,Maharashtra,18.4088,76.5604,31.9,22,0.0,938.3,8.95,26.6,133,41.8,33.9,0,5,7,0,2026-04-26T22:20:22.211991+05:30
Nanded,Maharashtra,19.1383,77.3091,33.0,22,0.0,965.8,9.0,29.9,104,29.3,23.7,0,5,7,0,2026-04-26T22:20:22.211997+05:30
Gulbarga,Karnataka,17.3297,76.8343,33.2,28,0.0,957.4,7.9,24.5,166,44.4,40.0,0,5,7,0,2026-04-26T22:20:22.212003+05:30
Bidar,Karnataka,17.9104,77.5199,31.2,34,0.0,934.9,7.95,33.8,146,50.1,45.4,0,5,7,0,2026-04-26T22:20:22.212009+05:30
Hospet,Karnataka,15.2689,76.3909,29.3,55,0.0,955.1,8.65,32.4,175,61.5,54.6,4,5,7,1,2026-04-26T22:20:22.212015+05:30
Tirupur,Tamil Nadu,11.1085,77.3411,30.6,55,0.0,975.3,9.4,29.9,96,21.4,19.3,0,5,7,1,2026-04-26T22:20:22.212022+05:30
Alappuzha,Kerala,9.4981,76.3388,27.0,91,0.0,1009.5,8.55,37.8,61,25.1,21.8,7,0,4,1,2026-04-26T22:20:22.212029+05:30
Munnar,Kerala,10.0889,77.0595,19.8,67,0.0,858.0,9.6,26.6,66,30.7,29.5,3,5,7,0,2026-04-26T22:20:22.212036+05:30
Silchar,Assam,24.8333,92.7789,23.5,94,0.0,1005.6,6.8,27.4,162,102.2,66.8,3,5,4,1,2026-04-26T22:20:22.212042+05:30
Dibrugarh,Assam,27.4728,94.912,21.2,96,0.0,996.6,5.15,20.5,91,66.1,44.2,3,5,3,1,2026-04-26T22:20:22.212048+05:30
