city,state,latitude,longitude,temp,humidity,rain,pressure,uv_index,wind_gusts,aqi,pm10,pm2_5,mosquito_risk,arthritis_risk,migraine_risk,frizz_risk,updated_at
Delhi,Delhi,28.6139,77.209,30.8,28,0.0,980.2,7.3,28.8,185,573.7,107.3,0,5,7,0,2026-04-15T22:38:21.682831+05:30
Mumbai,Maharashtra,19.076,72.8777,29.7,77,0.0,1007.0,8.0,19.1,82,32.9,22.9,7,5,4,1,2026-04-15T22:38:21.682866+05:30
Bangalore,Karnataka,12.9716,77.5946,28.2,39,0.0,911.6,9.6,28.1,109,32.0,27.6,4,5,7,0,2026-04-15T22:38:21.682880+05:30
Hyderabad,Telangana,17.385,78.4867,31.6,42,0.0,951.6,9.2,31.3,95,69.6,62.6,0,5,7,1,2026-04-15T22:38:21.682890+05:30
Chennai,Tamil Nadu,13.0827,80.2707,29.1,84,0.0,1006.5,9.35,32.8,37,12.2,8.9,7,5,4,1,2026-04-15T22:38:21.682898+05:30
Kolkata,West Bengal,22.5726,88.3639,28.2,90,0.0,1004.1,8.85,26.6,86,24.8,19.6,7,5,4,1,2026-04-15T22:38:21.682910+05:30
Pune,Maharashtra,18.5204,73.8567,27.4,39,0.0,947.2,8.6,44.6,146,32.2,25.7,4,5,7,0,2026-04-15T22:38:21.682917+05:30
Ahmedabad,Gujarat,23.0225,72.5714,31.3,44,0.0,999.4,8.15,21.2,84,123.9,54.6,0,5,7,1,2026-04-15T22:38:21.682924+05:30
Jaipur,Rajasthan,26.9124,75.7873,30.4,20,0.0,957.8,7.95,32.4,191,239.3,40.5,0,5,7,0,2026-04-15T22:38:21.682931+05:30
Lucknow,Uttar Pradesh,26.8467,80.9462,27.5,40,0.0,990.6,7.75,25.9,105,160.2,34.3,4,5,7,0,2026-04-15T22:38:21.682938+05:30
Kanpur,Uttar Pradesh,26.4499,80.3319,29.5,37,0.0,988.6,7.8,21.2,152,358.6,51.9,4,5,7,0,2026-04-15T22:38:21.682944+05:30
Chandigarh,Chandigarh,30.7333,76.7794,23.4,47,0.0,966.0,7.25,31.0,128,25.1,22.2,0,5,7,0,2026-04-15T22:38:21.682951+05:30
Srinagar,Jammu and Kashmir,34.0837,74.7973,11.7,60,0.0,837.2,7.75,17.3,76,53.8,44.2,0,5,7,0,2026-04-15T22:38:21.682957+05:30
Jammu,Jammu and Kashmir,32.7266,74.857,22.9,54,0.0,969.8,7.95,35.6,103,38.6,36.1,0,5,7,0,2026-04-15T22:38:21.682964+05:30
Amritsar,Punjab,31.634,74.8723,26.0,51,0.0,978.0,7.65,30.2,95,46.0,38.5,4,5,7,0,2026-04-15T22:38:21.682970+05:30
Ludhiana,Punjab,30.901,75.8573,26.5,45,0.0,976.2,7.35,30.2,95,41.8,38.4,4,5,7,0,2026-04-15T22:38:21.682981+05:30
Jalandhar,Punjab,31.326,75.5762,25.8,46,0.0,977.1,7.5,29.2,111,27.2,23.7,4,5,7,0,2026-04-15T22:38:21.682987+05:30
Dehradun,Uttarakhand,30.6284,78.0322,15.8,66,0.0,828.8,7.65,27.7,140,17.6,15.3,3,5,7,0,2026-04-15T22:38:21.682993+05:30
Shimla,Himachal Pradesh,31.1048,77.1734,13.8,53,0.0,782.8,7.75,49.0,133,21.2,15.6,0,5,7,0,2026-04-15T22:38:21.683000+05:30
Manali,Himachal Pradesh,32.2396,77.1887,16.0,69,0.0,819.7,9.7,32.0,140,22.8,12.9,3,5,7,0,2026-04-15T22:38:21.683006+05:30
Gurgaon,Haryana,28.4595,77.0266,28.2,40,0.0,978.5,7.4,29.5,663,538.3,101.5,4,5,7,0,2026-04-15T22:38:21.683011+05:30
Noida,Uttar Pradesh,28.5355,77.391,30.6,29,0.0,981.7,7.3,27.4,663,538.3,101.5,0,5,7,0,2026-04-15T22:38:21.683017+05:30
Ghaziabad,Uttar Pradesh,28.6692,77.4538,28.1,38,0.0,979.9,7.3,27.7,137,506.6,97.8,4,5,7,0,2026-04-15T22:38:21.683023+05:30
Faridabad,Haryana,28.4089,77.3178,29.8,29,0.0,981.0,7.35,27.4,663,538.3,101.5,4,5,7,0,2026-04-15T22:38:21.683029+05:30
Meerut,Uttar Pradesh,28.9845,77.7064,27.6,35,0.0,978.5,7.2,32.0,137,506.6,97.8,4,5,7,0,2026-04-15T22:38:21.683036+05:30
Agra,Uttar Pradesh,27.1767,78.0081,27.9,31,0.0,984.9,7.65,29.9,326,638.9,115.9,4,5,7,0,2026-04-15T22:38:21.683044+05:30
Varanasi,Uttar Pradesh,25.3176,82.9739,28.7,37,0.0,994.2,8.35,19.4,105,76.6,36.8,4,5,7,0,2026-04-15T22:38:21.683051+05:30
Prayagraj,Uttar Pradesh,25.4358,81.8463,29.3,44,0.0,992.9,8.25,20.5,114,61.0,23.7,4,5,7,0,2026-04-15T22:38:21.683057+05:30
Gorakhpur,Uttar Pradesh,26.7606,83.3732,25.8,49,0.0,994.5,8.2,25.9,95,52.2,26.1,4,5,7,0,2026-04-15T22:38:21.683064+05:30
Bareilly,Uttar Pradesh,28.367,79.4304,26.0,44,0.0,984.0,7.55,31.3,91,39.8,26.1,4,5,7,0,2026-04-15T22:38:21.683070+05:30
Aligarh,Uttar Pradesh,27.8974,78.088,28.2,29,0.0,982.7,7.45,33.8,320,691.0,113.2,4,5,7,0,2026-04-15T22:38:21.683075+05:30
Moradabad,Uttar Pradesh,28.8386,78.7733,25.7,42,0.0,980.9,7.4,31.3,81,116.2,53.6,4,5,7,0,2026-04-15T22:38:21.683081+05:30
Saharanpur,Uttar Pradesh,29.9637,77.546,25.7,46,0.0,972.9,7.0,33.1,117,28.7,26.3,4,5,7,0,2026-04-15T22:38:21.683087+05:30
Jhansi,Uttar Pradesh,25.4484,78.5685,30.2,45,0.0,975.7,8.2,34.2,106,103.1,24.5,0,5,7,1,2026-04-15T22:38:24.894029+05:30
Surat,Gujarat,21.1702,72.8311,28.1,73,0.0,1004.8,7.8,31.0,102,27.2,23.5,7,5,4,1,2026-04-15T22:38:24.894058+05:30
Vadodara,Gujarat,22.3072,73.1812,29.2,53,0.0,1001.7,8.1,28.8,90,62.9,32.9,4,5,4,1,2026-04-15T22:38:24.894068+05:30
Rajkot,Gujarat,22.3039,70.8022,26.9,72,0.0,992.5,7.85,27.7,99,35.0,16.5,7,5,7,1,2026-04-15T22:38:24.894076+05:30
Thane,Maharashtra,19.2183,72.9781,28.0,80,0.0,1006.4,8.0,32.8,82,32.9,22.9,7,5,4,1,2026-04-15T22:38:24.894084+05:30
Nagpur,Maharashtra,21.1458,79.0882,28.6,35,0.0,970.0,8.85,35.6,85,29.4,25.9,4,5,7,0,2026-04-15T22:38:24.894092+05:30
Nashik,Maharashtra,19.9975,73.7898,26.0,51,0.0,944.6,8.3,38.9,60,34.2,20.2,4,5,7,0,2026-04-15T22:38:24.894100+05:30
Aurangabad,Maharashtra,19.8762,75.3433,30.7,39,0.0,942.7,8.95,38.9,81,19.2,10.5,0,5,7,0,2026-04-15T22:38:24.894107+05:30
Solapur,Maharashtra,17.6599,75.9064,32.9,26,0.0,954.5,9.05,28.8,109,45.6,40.6,0,5,7,0,2026-04-15T22:38:24.894115+05:30
Kolhapur,Maharashtra,16.705,74.2433,24.5,82,0.0,946.8,9.0,45.0,100,30.7,21.7,3,5,7,1,2026-04-15T22:38:24.894123+05:30
Goa,Goa,15.2993,74.124,28.9,79,0.0,997.1,9.0,31.3,83,55.3,26.4,7,5,7,1,2026-04-15T22:38:24.894131+05:30
Jodhpur,Rajasthan,26.2389,73.0243,32.0,34,0.0,980.1,8.15,24.5,71,76.4,31.3,0,5,7,0,2026-04-15T22:38:24.894139+05:30
Udaipur,Rajasthan,24.5854,73.7125,29.1,31,0.0,945.0,8.7,26.6,71,90.6,24.9,4,5,7,0,2026-04-15T22:38:24.894147+05:30
Kota,Rajasthan,25.2138,75.8648,31.3,31,0.0,975.8,8.2,23.4,72,68.5,30.9,0,5,7,0,2026-04-15T22:38:24.894154+05:30
Bikaner,Rajasthan,28.0229,73.3119,31.1,34,0.0,978.9,8.0,14.8,90,61.0,18.2,0,5,7,0,2026-04-15T22:38:24.894162+05:30
Ajmer,Rajasthan,26.4499,74.6399,30.5,29,0.0,952.4,8.15,26.6,78,98.3,26.7,0,5,7,0,2026-04-15T22:38:24.894169+05:30
Gwalior,Madhya Pradesh,26.2183,78.1828,30.1,46,0.0,980.8,7.9,31.3,120,271.0,46.1,0,5,7,1,2026-04-15T22:38:24.894177+05:30
Indore,Madhya Pradesh,22.7196,75.8577,27.7,52,0.0,946.3,8.55,32.0,66,66.8,40.6,4,5,7,1,2026-04-15T22:38:24.894184+05:30
Bhopal,Madhya Pradesh,23.2599,77.4126,30.8,37,0.0,951.4,8.55,31.3,66,49.0,24.1,0,5,7,0,2026-04-15T22:38:24.894192+05:30
Jabalpur,Madhya Pradesh,23.1815,79.9864,26.9,47,0.0,958.1,8.7,34.9,64,18.5,11.9,4,5,7,0,2026-04-15T22:38:24.894199+05:30
Ujjain,Madhya Pradesh,23.1765,75.7885,28.4,51,0.0,952.0,8.45,29.5,73,82.7,50.3,4,5,7,1,2026-04-15T22:38:24.894207+05:30
Visakhapatnam,Andhra Pradesh,17.6868,83.2185,28.0,85,0.0,1002.5,9.15,41.4,58,16.2,12.3,7,5,4,1,2026-04-15T22:38:24.894215+05:30
Vijayawada,Andhra Pradesh,16.5062,80.648,28.1,82,0.0,1001.2,9.2,31.7,48,10.7,8.7,7,5,4,1,2026-04-15T22:38:24.894223+05:30
Guntur,Andhra Pradesh,16.3067,80.4365,27.8,89,0.0,1002.6,9.2,31.0,58,11.8,10.0,7,5,4,1,2026-04-15T22:38:24.894230+05:30
Nellore,Andhra Pradesh,14.4426,79.9865,28.4,87,0.0,1004.8,9.3,36.4,49,10.9,8.6,7,5,4,1,2026-04-15T22:38:24.894238+05:30
Kurnool,Andhra Pradesh,15.8281,78.0373,35.3,26,0.0,974.2,9.2,24.5,110,46.9,39.3,0,5,10,0,2026-04-15T22:38:24.894247+05:30
Kakinada,Andhra Pradesh,16.9891,82.2475,28.0,84,0.0,1006.3,9.15,34.6,44,12.4,8.2,7,5,4,1,2026-04-15T22:38:24.894254+05:30
Tirupati,Andhra Pradesh,13.6288,79.4192,30.0,64,0.0,991.1,9.4,32.0,87,23.0,22.2,7,5,7,1,2026-04-15T22:38:24.894262+05:30
Warangal,Telangana,17.9689,79.5941,31.9,47,0.0,976.4,9.1,29.2,101,39.2,35.2,0,5,7,1,2026-04-15T22:38:24.894269+05:30
Nizamabad,Telangana,18.6725,78.0941,32.8,30,0.0,962.6,9.05,26.6,88,48.4,42.0,0,5,7,0,2026-04-15T22:38:24.894276+05:30
Mysore,Karnataka,12.2958,76.6396,25.7,81,0.0,928.6,9.5,45.4,95,34.6,31.4,7,5,7,1,2026-04-15T22:38:24.894284+05:30
Mangalore,Karnataka,12.9141,74.856,29.9,83,0.0,1006.1,9.1,24.1,68,37.4,23.5,7,5,4,1,2026-04-15T22:38:24.894291+05:30
Hubli-Dharwad,Karnataka,15.3647,75.124,25.2,87,0.0,940.1,9.2,47.5,104,27.8,17.4,7,5,7,1,2026-04-15T22:38:24.894299+05:30
Belgaum,Karnataka,15.8497,74.4977,23.3,92,0.0,925.0,9.2,38.5,74,33.8,19.4,3,5,7,1,2026-04-15T22:38:28.111486+05:30
Coimbatore,Tamil Nadu,11.0168,76.9558,27.1,78,0.0,961.8,9.45,48.6,96,35.7,32.0,7,5,7,1,2026-04-15T22:38:28.111515+05:30
Madurai,Tamil Nadu,9.9252,78.1198,29.2,77,0.0,993.1,9.35,40.7,60,16.8,15.5,7,5,7,1,2026-04-15T22:38:28.111525+05:30
Trichy,Tamil Nadu,10.7905,78.7047,29.1,79,0.0,999.2,9.4,22.0,53,18.7,17.8,7,5,7,1,2026-04-15T22:38:28.111533+05:30
Salem,Tamil Nadu,11.6643,78.146,28.7,60,0.0,976.4,9.45,20.9,79,34.8,30.0,4,5,7,1,2026-04-15T22:38:28.111541+05:30
Tirunelveli,Tamil Nadu,8.7139,77.7567,30.0,67,0.0,1002.9,9.3,50.4,64,24.3,19.6,7,5,4,1,2026-04-15T22:38:28.111549+05:30
Vellore,Tamil Nadu,12.9165,79.1325,28.2,74,0.0,984.0,9.45,29.5,89,38.1,36.9,7,5,7,1,2026-04-15T22:38:28.111557+05:30
Erode,Tamil Nadu,11.341,77.7172,31.7,47,0.0,988.0,9.4,25.9,89,17.5,15.5,0,5,7,1,2026-04-15T22:38:28.111564+05:30
Kochi,Kerala,9.9312,76.2673,29.7,81,0.0,1008.6,9.2,32.4,91,50.8,44.8,7,0,4,1,2026-04-15T22:38:28.111572+05:30
Thiruvananthapuram,Kerala,8.5241,76.9366,29.5,81,0.0,1008.1,9.15,34.9,69,25.6,16.7,7,0,4,1,2026-04-15T22:38:28.111579+05:30
Kozhikode,Kerala,11.2588,75.7804,30.1,80,0.0,1007.4,9.1,31.3,69,34.8,21.7,3,5,4,1,2026-04-15T22:38:28.111586+05:30
Thrissur,Kerala,10.5276,76.2144,29.6,82,0.0,1006.6,9.2,36.0,92,45.9,37.6,7,5,4,1,2026-04-15T22:38:28.111594+05:30
Kannur,Kerala,11.8745,75.3704,30.0,78,0.0,1006.8,9.15,31.7,68,29.4,21.0,7,5,4,1,2026-04-15T22:38:28.111601+05:30
Patna,Bihar,25.5941,85.1376,28.4,65,0.0,998.0,8.55,20.2,120,81.3,41.8,7,5,7,1,2026-04-15T22:38:28.111608+05:30
Gaya,Bihar,24.7914,85.0002,26.5,62,0.0,990.8,8.6,18.0,88,66.4,33.6,7,5,7,1,2026-04-15T22:38:28.111615+05:30
Muzaffarpur,Bihar,26.1209,85.3647,26.2,70,0.0,998.3,8.5,24.5,146,76.8,45.4,7,5,7,1,2026-04-15T22:38:28.111622+05:30
Bhagalpur,Bihar,25.2425,87.0117,26.2,84,0.0,999.5,8.5,23.0,138,48.1,42.6,7,5,7,1,2026-04-15T22:38:28.111629+05:30
Ranchi,Jharkhand,23.3441,85.3096,28.7,39,0.0,936.1,9.1,30.2,149,64.7,41.8,4,5,7,0,2026-04-15T22:38:28.111636+05:30
Jamshedpur,Jharkhand,22.8046,86.2029,29.0,72,0.0,988.0,8.95,20.9,142,69.6,47.8,7,5,7,1,2026-04-15T22:38:28.111643+05:30
Dhanbad,Jharkhand,23.7957,86.4304,29.8,58,0.0,977.4,8.9,22.7,151,99.4,74.0,4,5,7,1,2026-04-15T22:38:28.111650+05:30
Bokaro,Jharkhand,23.6693,86.1511,28.6,46,0.0,981.6,8.9,26.6,128,82.7,58.0,4,5,7,0,2026-04-15T22:38:28.111657+05:30
Bhubaneswar,Odisha,20.2961,85.8245,27.3,89,0.0,1001.1,9.1,31.7,67,17.7,13.5,7,5,4,1,2026-04-15T22:38:28.111664+05:30
Cuttack,Odisha,20.4625,85.8828,27.6,87,0.0,1002.8,9.15,25.9,67,17.7,13.5,7,5,4,1,2026-04-15T22:38:28.111671+05:30
Rourkela,Odisha,22.2604,84.8536,30.4,68,0.0,981.9,8.9,34.9,158,65.0,50.1,3,5,7,1,2026-04-15T22:38:28.111677+05:30
Raipur,Chhattisgarh,21.2514,81.6296,31.2,37,0.0,971.1,8.95,39.2,114,38.3,35.2,0,5,7,0,2026-04-15T22:38:28.111684+05:30
Bhilai,Chhattisgarh,21.1938,81.3509,29.2,48,0.0,971.3,8.95,40.7,116,30.3,27.1,4,5,7,1,2026-04-15T22:38:28.111690+05:30
Guwahati,Assam,26.1158,91.7086,23.9,86,0.0,1002.5,8.45,31.7,123,58.1,47.8,3,5,4,1,2026-04-15T22:38:28.111697+05:30
Agartala,Tripura,23.8315,91.2868,23.3,85,0.0,1005.9,8.7,30.2,98,46.2,39.8,3,5,4,1,2026-04-15T22:38:28.111704+05:30
Shillong,Meghalaya,25.5788,91.8933,13.3,93,0.0,855.1,8.6,59.4,93,43.1,29.9,3,10,7,0,2026-04-15T22:38:28.111711+05:30
Imphal,Manipur,24.817,93.9368,18.1,87,0.0,923.8,9.05,69.1,122,60.8,44.4,3,10,7,0,2026-04-15T22:38:28.111718+05:30
Aizawl,Mizoram,23.7271,92.7176,19.3,86,0.0,892.6,8.95,50.4,117,61.2,44.6,3,10,7,1,2026-04-15T22:38:28.111725+05:30
Kohima,Nagaland,25.6701,94.1077,15.2,83,0.0,855.1,8.95,73.8,106,52.3,31.4,3,10,7,0,2026-04-15T22:38:28.111731+05:30
Gangtok,Sikkim,27.3314,88.6138,14.7,97,0.1,837.4,8.1,17.6,127,45.8,34.7,6,10,7,0,2026-04-15T22:38:28.111738+05:30
Siliguri,West Bengal,26.7271,88.3953,21.3,75,0.0,994.3,8.4,27.7,158,110.8,74.3,3,5,7,1,2026-04-15T22:38:31.328749+05:30
Durgapur,West Bengal,23.5204,87.3119,29.0,85,0.0,992.8,8.8,24.1,143,63.8,53.1,7,5,7,1,2026-04-15T22:38:31.328814+05:30
Asansol,West Bengal,23.6739,86.9524,29.6,80,0.0,991.2,8.85,26.3,125,69.2,51.8,7,5,7,1,2026-04-15T22:38:31.328830+05:30
Pondicherry,Puducherry,11.9139,79.8145,27.6,94,0.0,1007.8,9.3,27.4,45,12.2,9.0,7,5,4,1,2026-04-15T22:38:31.328840+05:30
Port Blair,Andaman and Nicobar Islands,11.6234,92.7265,29.6,68,0.0,1007.0,9.2,20.9,68,20.4,14.4,7,5,4,1,2026-04-15T22:38:31.328850+05:30
Haridwar,Uttarakhand,29.9457,78.1642,21.0,75,0.0,971.6,7.05,32.0,133,26.3,24.0,3,5,7,1,2026-04-15T22:38:31.328860+05:30
Rishikesh,Uttarakhand,30.0869,78.2676,21.4,64,0.0,964.8,7.15,29.9,150,20.0,17.3,3,5,7,0,2026-04-15T22:38:31.328869+05:30
Nainital,Uttarakhand,29.3919,79.4542,20.9,36,0.0,805.8,8.05,45.7,126,15.9,13.3,0,5,7,0,2026-04-15T22:38:31.328878+05:30
Mussoorie,Uttarakhand,30.4599,78.0664,17.7,54,0.0,801.8,7.55,39.6,149,27.8,26.8,0,5,7,0,2026-04-15T22:38:31.328887+05:30
Dharamshala,Himachal Pradesh,32.219,76.3234,21.6,45,0.0,868.2,7.8,23.8,124,21.7,15.9,0,5,7,0,2026-04-15T22:38:31.328895+05:30
Dalhousie,Himachal Pradesh,32.5387,75.971,18.6,47,0.0,803.0,8.0,24.1,133,33.5,29.9,0,5,7,0,2026-04-15T22:38:31.328905+05:30
Patiala,Punjab,30.3398,76.3869,24.3,50,0.0,975.4,7.15,30.6,160,80.1,45.5,0,5,7,0,2026-04-15T22:38:31.328920+05:30
Bhatinda,Punjab,30.211,74.9455,28.0,45,0.0,981.0,7.85,36.4,97,32.0,22.0,4,5,7,0,2026-04-15T22:38:31.328929+05:30
Rohtak,Haryana,28.8955,76.6066,27.9,41,0.0,978.9,7.3,34.2,370,594.2,104.5,4,5,7,0,2026-04-15T22:38:31.328937+05:30
Panipat,Haryana,29.3909,76.9635,27.5,35,0.0,977.4,7.15,30.2,741,780.4,124.8,4,5,7,0,2026-04-15T22:38:31.328946+05:30
Mathura,Uttar Pradesh,27.4924,77.6737,28.4,30,0.0,984.0,7.6,25.2,394,655.7,93.4,4,5,7,0,2026-04-15T22:38:31.328955+05:30
Vrindavan,Uttar Pradesh,27.5823,77.7027,28.5,29,0.0,984.4,7.6,29.2,394,655.7,93.4,4,5,7,0,2026-04-15T22:38:31.328963+05:30
Ayodhya,Uttar Pradesh,26.7922,82.1998,26.7,32,0.0,992.3,7.95,31.0,93,89.4,24.2,4,5,7,0,2026-04-15T22:38:31.328972+05:30
Ratlam,Madhya Pradesh,23.3315,75.0367,27.3,56,0.0,952.3,8.4,25.2,66,53.3,27.4,4,5,7,1,2026-04-15T22:38:31.328981+05:30
Sagar,Madhya Pradesh,23.8388,78.7378,30.3,35,0.0,947.7,8.55,28.4,67,33.6,17.3,0,5,7,0,2026-04-15T22:38:31.328989+05:30
Satna,Madhya Pradesh,24.6005,80.8322,31.5,27,0.0,968.6,8.55,36.7,68,50.2,15.7,0,5,7,0,2026-04-15T22:38:31.328997+05:30
Akola,Maharashtra,20.7002,77.0082,29.7,34,0.0,972.3,8.75,37.4,92,28.1,16.3,4,5,7,0,2026-04-15T22:38:31.329006+05:30
Amravati,Maharashtra,20.9374,77.7796,29.8,29,0.0,964.6,8.8,34.9,87,22.5,14.6,4,5,7,0,2026-04-15T22:38:31.329015+05:30
Latur,Maharashtra,18.4088,76.5604,28.1,47,0.0,937.5,9.05,25.2,110,23.7,20.4,4,5,7,0,2026-04-15T22:38:31.329023+05:30
Nanded,Maharashtra,19.1383,77.3091,30.0,47,0.0,965.7,8.95,17.3,91,32.7,28.3,4,5,7,1,2026-04-15T22:38:31.329031+05:30
Gulbarga,Karnataka,17.3297,76.8343,33.7,34,0.0,956.5,9.1,24.1,151,35.3,31.9,0,5,7,0,2026-04-15T22:38:31.329039+05:30
Bidar,Karnataka,17.9104,77.5199,30.8,39,0.0,933.9,9.1,24.1,138,37.6,32.6,0,5,7,0,2026-04-15T22:38:31.329048+05:30
Hospet,Karnataka,15.2689,76.3909,30.5,65,0.0,954.6,9.25,31.7,121,50.3,44.7,3,5,7,1,2026-04-15T22:38:31.329056+05:30
Tirupur,Tamil Nadu,11.1085,77.3411,29.4,70,0.0,974.9,9.45,32.0,109,27.6,24.2,7,5,7,1,2026-04-15T22:38:31.329063+05:30
Alappuzha,Kerala,9.4981,76.3388,29.3,81,0.0,1008.9,9.15,31.3,90,44.4,33.6,7,0,4,1,2026-04-15T22:38:31.329070+05:30
Munnar,Kerala,10.0889,77.0595,22.0,100,0.0,857.5,9.75,34.6,73,38.8,34.9,3,5,7,1,2026-04-15T22:38:31.329077+05:30
Silchar,Assam,24.8333,92.7789,24.3,90,0.0,1005.9,8.7,30.2,128,41.0,29.2,3,5,4,1,2026-04-15T22:38:31.329084+05:30
Dibrugarh,Assam,27.4728,94.912,20.8,90,0.0,997.5,7.95,31.3,126,74.5,55.3,3,5,7,1,2026-04-15T22:38:31.329090+05:30
