city,state,latitude,longitude,temp,humidity,rain,pressure,uv_index,wind_gusts,aqi,pm10,pm2_5,no2,co,o3,so2,mosquito_risk,arthritis_risk,migraine_risk,frizz_risk,updated_at
Delhi,Delhi,28.6139,77.209,36.9,22,0.0,979.1,7.75,32.0,326,424.7,89.4,20.5,562.0,78.0,13.9,0,5,10,0,2026-05-20T09:22:14.141977+05:30
Mumbai,Maharashtra,19.076,72.8777,30.9,65,0.0,1008.1,7.5,40.3,72,26.3,15.7,9.8,216.0,52.0,9.4,3,0,4,1,2026-05-20T09:22:14.142020+05:30
Bangalore,Karnataka,12.9716,77.5946,24.7,77,0.0,912.3,6.95,36.0,38,9.8,8.4,9.4,435.0,56.0,4.7,3,5,7,1,2026-05-20T09:22:14.142035+05:30
Hyderabad,Telangana,17.385,78.4867,33.5,45,0.0,952.1,8.75,34.6,91,38.3,27.1,8.8,384.0,79.0,7.7,0,5,7,1,2026-05-20T09:22:14.142045+05:30
Chennai,Tamil Nadu,13.0827,80.2707,34.4,50,0.0,1004.8,9.05,35.6,64,18.0,16.6,17.1,391.0,68.0,13.5,0,5,4,1,2026-05-20T09:22:14.142053+05:30
Kolkata,West Bengal,22.5726,88.3639,33.2,72,0.0,1001.2,8.95,24.1,74,36.0,24.6,5.4,488.0,90.0,10.6,3,5,4,1,2026-05-20T09:22:14.142062+05:30
Pune,Maharashtra,18.5204,73.8567,29.0,58,0.0,948.2,8.45,40.7,76,43.0,20.5,8.9,170.0,58.0,9.8,4,5,7,1,2026-05-20T09:22:14.142069+05:30
Ahmedabad,Gujarat,23.0225,72.5714,31.5,63,0.0,1000.8,8.15,36.4,62,28.6,11.3,4.5,184.0,49.0,4.4,3,5,4,1,2026-05-20T09:22:14.142076+05:30
Jaipur,Rajasthan,26.9124,75.7873,35.7,26,0.0,957.8,8.3,35.6,115,273.8,50.8,4.1,215.0,74.0,5.0,0,5,10,0,2026-05-20T09:22:14.142088+05:30
Lucknow,Uttar Pradesh,26.8467,80.9462,36.5,47,0.0,989.5,8.25,40.0,152,88.2,56.0,12.7,442.0,129.0,17.8,0,5,10,1,2026-05-20T09:22:14.142096+05:30
Kanpur,Uttar Pradesh,26.4499,80.3319,37.9,42,0.0,987.5,8.25,33.1,170,219.3,68.2,11.6,342.0,129.0,14.2,0,5,10,1,2026-05-20T09:22:14.142103+05:30
Chandigarh,Chandigarh,30.7333,76.7794,36.9,21,0.0,964.8,7.8,26.3,97,187.2,48.3,12.9,987.0,142.0,13.0,0,5,10,0,2026-05-20T09:22:14.142110+05:30
Srinagar,Jammu and Kashmir,34.0837,74.7973,20.1,52,0.0,845.4,9.0,29.9,86,58.1,32.4,10.8,304.0,77.0,4.1,0,5,7,0,2026-05-20T09:22:14.142117+05:30
Jammu,Jammu and Kashmir,32.7266,74.857,36.0,27,0.0,968.5,8.6,36.7,82,41.2,31.0,15.5,375.0,82.0,3.0,0,5,10,0,2026-05-20T09:22:14.142124+05:30
Amritsar,Punjab,31.634,74.8723,34.5,32,0.0,975.9,8.5,27.7,118,74.3,50.4,14.7,684.0,95.0,7.4,0,5,7,0,2026-05-20T09:22:14.142131+05:30
Ludhiana,Punjab,30.901,75.8573,35.0,25,0.0,974.0,8.05,22.3,155,156.5,61.2,16.7,779.0,89.0,13.1,0,5,7,0,2026-05-20T09:22:14.142137+05:30
Jalandhar,Punjab,31.326,75.5762,35.5,24,0.0,974.9,8.25,30.6,141,95.7,55.2,20.3,851.0,94.0,10.0,0,5,10,0,2026-05-20T09:22:14.142144+05:30
Dehradun,Uttarakhand,30.6284,78.0322,26.8,27,0.0,833.0,8.25,43.2,70,34.1,22.8,3.2,260.0,127.0,3.0,4,5,7,0,2026-05-20T09:22:14.142150+05:30
Shimla,Himachal Pradesh,31.1048,77.1734,24.9,18,0.0,788.2,8.3,44.3,74,72.2,26.9,3.1,210.0,138.0,4.0,0,5,7,1,2026-05-20T09:22:14.142161+05:30
Manali,Himachal Pradesh,32.2396,77.1887,23.8,33,0.0,821.4,9.65,38.9,41,4.9,3.2,11.5,222.0,115.0,0.2,0,5,7,0,2026-05-20T09:22:14.142168+05:30
Gurgaon,Haryana,28.4595,77.0266,35.7,26,0.0,977.6,7.85,40.0,874,1072.9,162.5,19.8,450.0,78.0,14.2,0,5,10,0,2026-05-20T09:22:14.142174+05:30
Noida,Uttar Pradesh,28.5355,77.391,36.6,24,0.0,980.4,7.8,31.3,874,1072.9,162.5,19.8,655.0,78.0,14.2,0,5,10,0,2026-05-20T09:22:14.142181+05:30
Ghaziabad,Uttar Pradesh,28.6692,77.4538,36.2,23,0.0,978.7,7.75,25.6,255,367.9,88.0,16.6,397.0,99.0,14.5,0,5,10,0,2026-05-20T09:22:14.142188+05:30
Faridabad,Haryana,28.4089,77.3178,36.7,22,0.0,979.7,7.8,37.4,874,1072.9,162.5,19.8,460.0,78.0,14.2,0,5,10,0,2026-05-20T09:22:14.142194+05:30
Meerut,Uttar Pradesh,28.9845,77.7064,35.0,27,0.0,977.8,7.7,23.4,255,367.9,88.0,16.6,331.0,99.0,14.5,0,5,7,0,2026-05-20T09:22:14.142202+05:30
Agra,Uttar Pradesh,27.1767,78.0081,36.8,23,0.0,984.4,8.1,36.7,548,555.1,92.7,12.8,283.0,86.0,8.5,0,5,10,0,2026-05-20T09:22:14.142208+05:30
Varanasi,Uttar Pradesh,25.3176,82.9739,36.8,45,0.0,993.3,8.75,44.6,152,80.8,60.1,9.9,646.0,145.0,22.9,0,5,10,1,2026-05-20T09:22:14.142215+05:30
Prayagraj,Uttar Pradesh,25.4358,81.8463,37.8,41,0.0,991.6,8.6,37.1,150,88.7,60.8,11.9,420.0,137.0,21.8,0,5,10,1,2026-05-20T09:22:14.142222+05:30
Gorakhpur,Uttar Pradesh,26.7606,83.3732,32.4,65,0.0,994.1,8.65,26.6,156,85.9,66.6,8.0,528.0,125.0,17.6,3,5,7,1,2026-05-20T09:22:14.142230+05:30
Bareilly,Uttar Pradesh,28.367,79.4304,33.6,62,0.0,982.9,8.05,25.2,148,112.5,60.3,8.8,439.0,141.0,15.6,3,5,7,1,2026-05-20T09:22:14.142237+05:30
Aligarh,Uttar Pradesh,27.8974,78.088,35.4,26,0.0,982.1,7.9,27.7,482,616.5,124.3,16.5,294.0,83.0,15.0,0,5,10,0,2026-05-20T09:22:14.142243+05:30
Moradabad,Uttar Pradesh,28.8386,78.7733,33.5,60,0.0,979.8,7.9,28.1,166,272.9,110.4,25.7,450.0,130.0,17.6,0,5,7,1,2026-05-20T09:22:14.142249+05:30
Saharanpur,Uttar Pradesh,29.9637,77.546,34.1,31,0.0,971.9,7.4,19.4,136,247.7,86.4,19.5,586.0,123.0,12.0,0,5,7,0,2026-05-20T09:22:14.142256+05:30
Jhansi,Uttar Pradesh,25.4484,78.5685,38.0,21,0.0,974.5,8.5,45.0,65,10.7,8.1,3.1,180.0,85.0,3.9,0,5,10,0,2026-05-20T09:22:17.473257+05:30
Surat,Gujarat,21.1702,72.8311,32.2,63,0.0,1005.8,7.7,44.6,87,41.9,23.2,22.0,506.0,35.0,60.6,3,5,4,1,2026-05-20T09:22:17.473288+05:30
Vadodara,Gujarat,22.3072,73.1812,33.2,56,0.0,1003.0,8.1,46.1,65,37.1,18.0,7.5,224.0,51.0,10.4,0,5,4,1,2026-05-20T09:22:17.473299+05:30
Rajkot,Gujarat,22.3039,70.8022,31.2,63,0.0,993.1,7.75,41.8,60,23.2,9.2,3.7,131.0,51.0,5.8,3,5,7,1,2026-05-20T09:22:17.473308+05:30
Thane,Maharashtra,19.2183,72.9781,32.5,58,0.0,1007.5,7.8,39.6,72,26.3,15.7,9.8,194.0,52.0,9.4,0,5,4,1,2026-05-20T09:22:17.473317+05:30
Nagpur,Maharashtra,21.1458,79.0882,38.8,15,0.0,970.4,8.9,41.8,115,18.9,14.5,9.5,281.0,108.0,15.3,0,5,10,0,2026-05-20T09:22:17.473325+05:30
Nashik,Maharashtra,19.9975,73.7898,29.6,52,0.0,945.4,8.2,39.2,68,26.2,14.3,4.6,131.0,56.0,3.7,4,5,7,1,2026-05-20T09:22:17.473332+05:30
Aurangabad,Maharashtra,19.8762,75.3433,32.0,35,0.0,943.9,9.05,38.2,72,29.4,16.4,5.5,158.0,65.0,4.4,0,5,7,0,2026-05-20T09:22:17.473340+05:30
Solapur,Maharashtra,17.6599,75.9064,31.5,50,0.0,957.0,9.05,47.9,83,38.8,23.6,5.3,159.0,74.0,5.3,0,5,7,1,2026-05-20T09:22:17.473348+05:30
Kolhapur,Maharashtra,16.705,74.2433,27.5,66,0.0,948.6,8.85,39.2,76,51.2,23.1,6.5,150.0,56.0,3.5,7,5,7,1,2026-05-20T09:22:17.473356+05:30
Goa,Goa,15.2993,74.124,29.5,76,0.0,998.4,7.6,23.8,56,11.4,8.6,2.6,190.0,81.0,1.6,7,5,7,1,2026-05-20T09:22:17.473363+05:30
Jodhpur,Rajasthan,26.2389,73.0243,32.8,50,0.0,980.4,8.45,43.9,126,287.8,61.5,2.4,136.0,60.0,4.0,0,5,7,1,2026-05-20T09:22:17.473370+05:30
Udaipur,Rajasthan,24.5854,73.7125,31.8,42,0.0,945.3,8.85,49.0,55,71.7,23.0,2.0,151.0,71.0,4.4,0,5,7,1,2026-05-20T09:22:17.473378+05:30
Kota,Rajasthan,25.2138,75.8648,37.3,22,0.0,976.9,8.4,32.8,50,37.8,18.0,3.8,191.0,81.0,5.6,0,5,10,0,2026-05-20T09:22:17.473385+05:30
Bikaner,Rajasthan,28.0229,73.3119,36.2,31,0.0,978.0,8.4,36.4,103,362.3,106.6,1.4,171.0,82.0,4.6,0,5,10,1,2026-05-20T09:22:17.473392+05:30
Ajmer,Rajasthan,26.4499,74.6399,32.5,35,0.0,952.9,8.4,44.3,55,97.8,32.1,2.6,159.0,70.0,4.6,0,5,7,0,2026-05-20T09:22:17.473400+05:30
Gwalior,Madhya Pradesh,26.2183,78.1828,37.8,21,0.0,979.9,8.3,43.9,83,21.6,13.5,4.5,201.0,83.0,4.7,0,5,10,0,2026-05-20T09:22:17.473407+05:30
Indore,Madhya Pradesh,22.7196,75.8577,33.2,38,0.0,947.4,7.9,41.4,57,44.1,22.1,6.5,275.0,70.0,13.6,0,5,7,1,2026-05-20T09:22:17.473414+05:30
Bhopal,Madhya Pradesh,23.2599,77.4126,36.5,19,0.0,952.2,8.7,41.4,66,20.8,11.3,3.0,227.0,102.0,6.5,0,5,10,0,2026-05-20T09:22:17.473421+05:30
Jabalpur,Madhya Pradesh,23.1815,79.9864,37.7,25,0.0,958.7,8.85,26.6,82,44.8,28.5,10.0,268.0,109.0,6.8,0,5,10,0,2026-05-20T09:22:17.473428+05:30
Ujjain,Madhya Pradesh,23.1765,75.7885,33.2,40,0.0,952.9,8.2,44.3,55,45.3,21.6,5.5,197.0,64.0,12.8,0,5,7,1,2026-05-20T09:22:17.473436+05:30
Visakhapatnam,Andhra Pradesh,17.6868,83.2185,36.1,52,0.0,999.2,9.05,36.7,77,37.7,33.6,20.6,695.0,108.0,49.6,0,5,10,1,2026-05-20T09:22:17.473444+05:30
Vijayawada,Andhra Pradesh,16.5062,80.648,36.9,43,0.0,999.2,9.1,38.9,93,33.2,29.6,6.7,247.0,128.0,10.8,0,5,10,1,2026-05-20T09:22:17.473451+05:30
Guntur,Andhra Pradesh,16.3067,80.4365,36.8,42,0.0,1000.5,9.05,39.2,94,38.3,33.2,6.8,246.0,119.0,11.7,0,5,7,1,2026-05-20T09:22:17.473458+05:30
Nellore,Andhra Pradesh,14.4426,79.9865,36.2,43,0.0,1003.2,8.35,44.6,70,8.1,7.3,5.3,205.0,84.0,6.8,0,5,7,1,2026-05-20T09:22:17.473466+05:30
Kurnool,Andhra Pradesh,15.8281,78.0373,32.9,54,0.0,976.3,7.15,40.7,69,17.4,11.7,5.4,162.0,77.0,3.6,0,5,7,1,2026-05-20T09:22:17.473475+05:30
Kakinada,Andhra Pradesh,16.9891,82.2475,36.2,52,0.0,1003.4,9.1,39.2,69,28.6,23.1,4.4,339.0,126.0,7.5,0,5,7,1,2026-05-20T09:22:17.473482+05:30
Tirupati,Andhra Pradesh,13.6288,79.4192,35.0,43,0.0,989.3,9.05,33.8,69,8.8,8.2,5.2,193.0,85.0,2.3,0,5,7,1,2026-05-20T09:22:17.473489+05:30
Warangal,Telangana,17.9689,79.5941,35.4,44,0.0,976.4,8.25,26.6,107,45.1,37.1,7.9,264.0,99.0,7.6,0,5,10,1,2026-05-20T09:22:17.473496+05:30
Nizamabad,Telangana,18.6725,78.0941,36.5,29,0.0,963.1,9.05,35.6,106,40.0,32.1,7.7,256.0,103.0,9.2,0,5,10,0,2026-05-20T09:22:17.473503+05:30
Mysore,Karnataka,12.2958,76.6396,27.0,65,0.0,929.4,7.7,43.2,27,5.2,4.3,4.4,179.0,60.0,1.7,7,5,7,1,2026-05-20T09:22:17.473511+05:30
Mangalore,Karnataka,12.9141,74.856,27.0,90,0.1,1007.6,3.4,29.5,33,9.5,7.5,5.8,238.0,52.0,2.2,10,5,0,1,2026-05-20T09:22:17.473518+05:30
Hubli-Dharwad,Karnataka,15.3647,75.124,26.1,80,0.0,941.4,8.4,36.0,27,4.3,3.9,5.2,144.0,67.0,1.3,7,5,7,1,2026-05-20T09:22:17.473526+05:30
Belgaum,Karnataka,15.8497,74.4977,27.0,69,0.0,926.6,8.25,34.9,67,56.6,24.1,5.0,133.0,66.0,2.7,7,5,7,1,2026-05-20T09:22:20.800112+05:30
Coimbatore,Tamil Nadu,11.0168,76.9558,28.8,66,0.0,961.9,7.8,57.6,25,4.3,3.7,3.9,215.0,61.0,2.0,7,5,7,1,2026-05-20T09:22:20.800144+05:30
Madurai,Tamil Nadu,9.9252,78.1198,33.3,50,0.0,992.2,8.7,57.2,75,12.1,11.1,13.2,259.0,63.0,5.7,0,5,7,1,2026-05-20T09:22:20.800156+05:30
Trichy,Tamil Nadu,10.7905,78.7047,31.5,62,0.0,998.8,8.15,43.9,41,7.0,6.1,5.3,167.0,57.0,4.0,3,5,7,1,2026-05-20T09:22:20.800165+05:30
Salem,Tamil Nadu,11.6643,78.146,30.6,58,0.0,977.2,5.95,30.2,47,13.5,11.4,9.5,250.0,64.0,11.9,0,5,3,1,2026-05-20T09:22:20.800173+05:30
Tirunelveli,Tamil Nadu,8.7139,77.7567,32.8,53,0.0,1003.0,8.9,36.7,23,3.6,3.2,3.2,177.0,56.0,1.3,0,5,4,1,2026-05-20T09:22:20.800181+05:30
Vellore,Tamil Nadu,12.9165,79.1325,32.6,49,0.0,983.0,9.1,46.4,54,11.6,9.8,7.2,180.0,65.0,5.1,0,5,7,1,2026-05-20T09:22:20.800188+05:30
Erode,Tamil Nadu,11.341,77.7172,32.2,51,0.0,988.7,7.9,43.2,38,7.4,6.2,5.9,209.0,59.0,3.4,0,5,7,1,2026-05-20T09:22:20.800196+05:30
Kochi,Kerala,9.9312,76.2673,28.1,84,0.1,1009.9,2.15,37.1,50,9.7,8.3,9.1,283.0,49.0,3.9,10,0,0,1,2026-05-20T09:22:20.800204+05:30
Thiruvananthapuram,Kerala,8.5241,76.9366,28.8,79,0.0,1009.2,8.4,41.8,25,6.9,4.3,1.8,131.0,54.0,0.5,7,0,4,1,2026-05-20T09:22:20.800212+05:30
Kozhikode,Kerala,11.2588,75.7804,28.0,84,0.1,1008.9,6.4,29.2,29,5.2,3.4,1.0,225.0,64.0,0.5,10,0,4,1,2026-05-20T09:22:20.800219+05:30
Thrissur,Kerala,10.5276,76.2144,27.0,86,0.1,1008.3,2.3,37.8,42,9.7,8.7,7.8,273.0,51.0,3.4,10,0,0,1,2026-05-20T09:22:20.800228+05:30
Kannur,Kerala,11.8745,75.3704,28.2,82,0.1,1008.1,7.3,30.6,30,6.1,4.6,3.2,234.0,58.0,1.5,10,0,4,1,2026-05-20T09:22:20.800235+05:30
Patna,Bihar,25.5941,85.1376,32.8,67,0.0,996.5,8.85,26.3,153,74.5,64.0,9.7,413.0,112.0,18.9,3,5,7,1,2026-05-20T09:22:20.800242+05:30
Gaya,Bihar,24.7914,85.0002,34.8,54,0.0,989.6,8.9,35.6,154,78.5,67.8,7.8,460.0,128.0,24.2,0,5,7,1,2026-05-20T09:22:20.800249+05:30
Muzaffarpur,Bihar,26.1209,85.3647,31.9,68,0.0,996.8,8.85,28.8,151,71.7,60.1,8.6,413.0,114.0,15.6,3,5,7,1,2026-05-20T09:22:20.800256+05:30
Bhagalpur,Bihar,25.2425,87.0117,32.4,69,0.0,997.5,8.8,25.6,151,77.3,63.8,11.5,438.0,109.0,21.9,3,5,7,1,2026-05-20T09:22:20.800262+05:30
Ranchi,Jharkhand,23.3441,85.3096,33.0,42,0.0,935.4,9.3,48.6,135,125.7,48.1,4.7,354.0,157.0,29.4,0,5,7,1,2026-05-20T09:22:20.800269+05:30
Jamshedpur,Jharkhand,22.8046,86.2029,34.0,65,0.0,986.4,9.1,34.2,119,50.3,43.8,14.3,487.0,120.0,44.8,3,5,7,1,2026-05-20T09:22:20.800275+05:30
Dhanbad,Jharkhand,23.7957,86.4304,34.7,56,0.0,976.0,9.1,40.3,166,81.7,75.2,46.9,737.0,56.0,161.8,0,5,7,1,2026-05-20T09:22:20.800282+05:30
Bokaro,Jharkhand,23.6693,86.1511,33.8,64,0.0,979.7,9.1,45.4,165,104.8,96.6,44.8,559.0,84.0,174.1,3,5,7,1,2026-05-20T09:22:20.800288+05:30
Bhubaneswar,Odisha,20.2961,85.8245,35.8,59,0.0,997.5,9.15,38.9,67,29.8,25.7,5.5,318.0,106.0,11.0,0,5,10,1,2026-05-20T09:22:20.800295+05:30
Cuttack,Odisha,20.4625,85.8828,34.5,69,0.0,999.2,9.15,32.4,67,29.8,25.7,5.5,319.0,106.0,11.0,3,5,7,1,2026-05-20T09:22:20.800302+05:30
Rourkela,Odisha,22.2604,84.8536,34.5,51,0.0,981.1,9.0,33.8,153,125.3,63.1,19.3,523.0,131.0,31.3,0,5,7,1,2026-05-20T09:22:20.800308+05:30
Raipur,Chhattisgarh,21.2514,81.6296,36.8,38,0.0,971.9,8.95,33.8,130,49.2,43.3,24.9,602.0,102.0,58.8,0,5,10,1,2026-05-20T09:22:20.800315+05:30
Bhilai,Chhattisgarh,21.1938,81.3509,36.2,39,0.0,972.1,8.75,34.9,122,48.7,42.6,19.5,845.0,106.0,49.8,0,5,10,1,2026-05-20T09:22:20.800321+05:30
Guwahati,Assam,26.1158,91.7086,30.4,69,0.0,998.8,8.7,22.3,117,77.1,44.9,2.3,341.0,133.0,6.5,3,5,7,1,2026-05-20T09:22:20.800328+05:30
Agartala,Tripura,23.8315,91.2868,30.6,73,0.0,1003.2,8.2,28.1,82,30.3,20.5,5.0,208.0,87.0,3.1,3,5,4,1,2026-05-20T09:22:20.800335+05:30
Shillong,Meghalaya,25.5788,91.8933,25.0,59,0.0,857.2,8.45,20.9,90,62.4,32.9,1.8,260.0,127.0,5.0,4,5,7,1,2026-05-20T09:22:20.800342+05:30
Imphal,Manipur,24.817,93.9368,27.8,66,0.0,921.9,9.25,32.8,101,64.5,31.2,1.5,251.0,123.0,4.9,7,5,7,1,2026-05-20T09:22:20.800349+05:30
Aizawl,Mizoram,23.7271,92.7176,26.4,60,0.0,891.8,9.1,26.6,80,60.1,24.2,1.0,188.0,105.0,3.3,4,5,7,1,2026-05-20T09:22:20.800356+05:30
Kohima,Nagaland,25.6701,94.1077,24.6,66,0.1,855.5,9.1,29.2,99,65.4,32.7,0.9,238.0,118.0,3.5,6,5,7,1,2026-05-20T09:22:20.800362+05:30
Gangtok,Sikkim,27.3314,88.6138,23.3,64,0.1,838.4,9.2,34.9,78,33.1,21.5,1.7,328.0,121.0,2.3,6,5,7,0,2026-05-20T09:22:20.800369+05:30
Siliguri,West Bengal,26.7271,88.3953,30.7,65,0.0,990.3,8.7,20.9,123,55.4,38.6,4.8,404.0,147.0,4.5,3,5,7,1,2026-05-20T09:22:24.137736+05:30
Durgapur,West Bengal,23.5204,87.3119,33.4,69,0.0,990.7,9.0,31.7,155,51.8,44.0,26.2,677.0,63.0,69.9,3,5,7,1,2026-05-20T09:22:24.137769+05:30
Asansol,West Bengal,23.6739,86.9524,33.6,68,0.0,989.2,9.0,25.6,157,52.7,45.1,28.9,655.0,63.0,74.0,3,5,7,1,2026-05-20T09:22:24.137780+05:30
Pondicherry,Puducherry,11.9139,79.8145,31.4,66,0.0,1006.7,8.75,34.9,58,18.7,16.5,14.1,304.0,59.0,11.0,3,5,4,1,2026-05-20T09:22:24.137789+05:30
Port Blair,Andaman and Nicobar Islands,11.6234,92.7265,30.7,74,0.1,1005.5,8.95,48.6,27,9.0,5.6,0.4,132.0,59.0,0.5,6,5,4,1,2026-05-20T09:22:24.137798+05:30
Haridwar,Uttarakhand,29.9457,78.1642,32.3,41,0.0,970.6,7.6,28.8,107,200.7,47.4,6.5,373.0,145.0,7.2,0,5,7,1,2026-05-20T09:22:24.137806+05:30
Rishikesh,Uttarakhand,30.0869,78.2676,32.8,40,0.0,963.4,7.7,24.8,100,179.7,40.4,3.4,343.0,138.0,5.0,0,5,7,1,2026-05-20T09:22:24.137814+05:30
Nainital,Uttarakhand,29.3919,79.4542,25.5,24,0.0,808.7,8.55,60.8,106,233.3,45.2,2.9,196.0,148.0,6.6,4,5,7,0,2026-05-20T09:22:24.137822+05:30
Mussoorie,Uttarakhand,30.4599,78.0664,25.6,20,0.0,806.3,8.1,50.4,94,83.8,37.4,7.4,237.0,155.0,5.2,4,5,7,0,2026-05-20T09:22:24.137830+05:30
Dharamshala,Himachal Pradesh,32.219,76.3234,29.1,25,0.0,869.6,8.5,44.6,60,29.3,11.6,1.8,225.0,116.0,0.6,4,5,7,0,2026-05-20T09:22:24.137837+05:30
Dalhousie,Himachal Pradesh,32.5387,75.971,25.2,26,0.0,807.5,8.75,43.2,76,31.2,16.5,7.8,224.0,117.0,1.1,4,5,7,0,2026-05-20T09:22:24.137845+05:30
Patiala,Punjab,30.3398,76.3869,35.2,24,0.0,973.8,7.7,25.9,538,353.0,87.1,10.1,447.0,82.0,5.9,0,5,10,0,2026-05-20T09:22:24.137852+05:30
Bhatinda,Punjab,30.211,74.9455,36.2,27,0.0,978.9,8.35,29.2,100,72.4,29.6,13.6,498.0,58.0,5.9,0,5,10,0,2026-05-20T09:22:24.137860+05:30
Rohtak,Haryana,28.8955,76.6066,35.5,29,0.0,977.7,7.8,27.7,462,495.5,84.1,10.8,312.0,76.0,4.4,0,5,10,0,2026-05-20T09:22:24.137867+05:30
Panipat,Haryana,29.3909,76.9635,36.5,24,0.0,976.3,7.65,29.5,1029,1218.2,175.1,9.3,485.0,72.0,5.0,0,5,10,0,2026-05-20T09:22:24.137874+05:30
Mathura,Uttar Pradesh,27.4924,77.6737,36.2,23,0.0,983.5,8.05,31.0,522,512.2,93.4,9.6,271.0,75.0,5.1,0,5,10,0,2026-05-20T09:22:24.137881+05:30
Vrindavan,Uttar Pradesh,27.5823,77.7027,35.8,25,0.0,983.9,8.0,24.8,522,512.2,93.4,9.6,254.0,75.0,5.1,0,5,10,0,2026-05-20T09:22:24.137888+05:30
Ayodhya,Uttar Pradesh,26.7922,82.1998,33.5,62,0.0,991.8,8.4,22.3,153,91.0,69.6,7.7,628.0,141.0,19.8,3,5,7,1,2026-05-20T09:22:24.137896+05:30
Ratlam,Madhya Pradesh,23.3315,75.0367,31.6,52,0.0,953.9,8.5,46.1,55,45.2,20.5,5.5,172.0,61.0,12.7,0,5,7,1,2026-05-20T09:22:24.137903+05:30
Sagar,Madhya Pradesh,23.8388,78.7378,37.6,16,0.0,948.6,8.75,38.2,56,7.1,6.0,3.6,165.0,98.0,7.5,0,5,10,0,2026-05-20T09:22:24.137910+05:30
Satna,Madhya Pradesh,24.6005,80.8322,37.8,31,0.0,968.3,8.8,43.2,94,139.2,45.2,7.4,210.0,151.0,18.4,0,5,10,1,2026-05-20T09:22:24.137917+05:30
Akola,Maharashtra,20.7002,77.0082,36.0,29,0.0,973.7,8.9,40.3,73,32.0,20.1,5.2,184.0,112.0,14.5,0,5,10,0,2026-05-20T09:22:24.137925+05:30
Amravati,Maharashtra,20.9374,77.7796,37.3,19,0.0,965.4,8.9,40.7,79,24.6,17.2,5.8,212.0,115.0,13.9,0,5,10,0,2026-05-20T09:22:24.137934+05:30
Latur,Maharashtra,18.4088,76.5604,33.6,36,0.0,939.5,3.05,34.9,88,36.4,23.2,5.1,206.0,102.0,9.6,0,5,3,1,2026-05-20T09:22:24.137941+05:30
Nanded,Maharashtra,19.1383,77.3091,36.6,25,0.0,967.4,9.0,35.3,102,29.9,22.2,6.1,250.0,124.0,10.7,0,5,10,0,2026-05-20T09:22:24.137949+05:30
Gulbarga,Karnataka,17.3297,76.8343,32.3,51,0.0,958.1,8.6,39.6,86,38.9,24.6,6.8,181.0,71.0,5.2,0,5,7,1,2026-05-20T09:22:24.137956+05:30
Bidar,Karnataka,17.9104,77.5199,32.9,45,0.0,935.1,8.6,39.2,92,35.5,25.8,7.3,209.0,98.0,9.1,0,5,7,1,2026-05-20T09:22:24.137963+05:30
Hospet,Karnataka,15.2689,76.3909,27.9,72,0.0,956.4,7.95,40.7,35,6.0,5.7,5.9,144.0,61.0,2.1,7,5,7,1,2026-05-20T09:22:24.137970+05:30
Tirupur,Tamil Nadu,11.1085,77.3411,31.0,58,0.0,975.0,7.55,54.4,43,7.4,6.2,5.6,199.0,61.0,3.6,0,5,7,1,2026-05-20T09:22:24.137977+05:30
Alappuzha,Kerala,9.4981,76.3388,28.9,79,0.1,1009.8,2.6,40.0,36,8.6,6.7,5.1,111.0,61.0,2.0,10,0,0,1,2026-05-20T09:22:24.137984+05:30
Munnar,Kerala,10.0889,77.0595,20.1,87,0.0,858.5,8.6,39.2,23,2.3,2.2,3.8,129.0,55.0,1.9,3,5,7,1,2026-05-20T09:22:24.137992+05:30
Silchar,Assam,24.8333,92.7789,30.2,71,0.0,1002.5,8.9,25.2,150,60.1,33.3,2.5,271.0,110.0,6.6,3,5,4,1,2026-05-20T09:22:24.137999+05:30
Dibrugarh,Assam,27.4728,94.912,30.2,63,0.0,993.1,8.9,18.0,85,25.9,21.4,1.9,321.0,138.0,3.9,3,5,7,1,2026-05-20T09:22:24.138006+05:30
