city,state,latitude,longitude,temp,humidity,rain,pressure,uv_index,wind_gusts,aqi,pm10,pm2_5,mosquito_risk,arthritis_risk,migraine_risk,frizz_risk,updated_at
Delhi,Delhi,28.6139,77.209,17.0,93,0.0,988.1,3.1,20.2,138,84.3,72.6,3,10,3,0,2026-03-20T23:07:49.262204+05:30
Mumbai,Maharashtra,19.076,72.8777,26.9,82,0.0,1010.4,7.8,24.1,82,54.6,22.9,7,0,4,1,2026-03-20T23:07:49.262247+05:30
Bangalore,Karnataka,12.9716,77.5946,23.7,68,0.0,912.9,9.4,17.3,137,34.9,28.5,3,5,7,1,2026-03-20T23:07:49.262262+05:30
Hyderabad,Telangana,17.385,78.4867,24.5,71,0.0,954.7,8.8,22.3,81,66.1,51.9,3,5,7,1,2026-03-20T23:07:49.262272+05:30
Chennai,Tamil Nadu,13.0827,80.2707,27.0,85,0.0,1009.3,9.15,31.0,39,11.2,8.2,7,0,4,1,2026-03-20T23:07:49.262281+05:30
Kolkata,West Bengal,22.5726,88.3639,22.9,87,0.0,1009.8,7.5,36.0,76,25.0,21.9,3,0,4,1,2026-03-20T23:07:49.262290+05:30
Pune,Maharashtra,18.5204,73.8567,23.7,73,0.0,949.8,8.35,36.7,122,43.0,31.9,3,5,7,1,2026-03-20T23:07:49.262302+05:30
Ahmedabad,Gujarat,23.0225,72.5714,22.9,59,0.0,1005.2,7.6,33.1,76,57.9,34.6,0,5,4,0,2026-03-20T23:07:49.262310+05:30
Jaipur,Rajasthan,26.9124,75.7873,18.7,75,0.0,963.8,6.7,25.6,71,84.1,22.7,3,5,7,0,2026-03-20T23:07:49.262317+05:30
Lucknow,Uttar Pradesh,26.8467,80.9462,20.1,87,0.0,998.2,4.95,36.0,110,86.1,63.1,3,5,3,1,2026-03-20T23:07:49.262325+05:30
Kanpur,Uttar Pradesh,26.4499,80.3319,19.8,91,0.0,996.6,2.95,37.8,130,92.0,57.7,3,10,3,1,2026-03-20T23:07:49.262332+05:30
Chandigarh,Chandigarh,30.7333,76.7794,14.5,99,0.0,973.3,1.3,25.2,90,72.4,55.1,3,10,3,0,2026-03-20T23:07:49.262340+05:30
Srinagar,Jammu and Kashmir,34.0837,74.7973,6.8,98,0.0,840.0,4.8,18.4,87,23.7,23.7,3,10,3,0,2026-03-20T23:07:49.262347+05:30
Jammu,Jammu and Kashmir,32.7266,74.857,15.6,91,0.0,977.7,4.95,14.4,92,69.2,55.3,3,10,3,0,2026-03-20T23:07:49.262354+05:30
Amritsar,Punjab,31.634,74.8723,14.7,89,0.0,985.9,5.35,22.7,92,61.9,47.8,3,10,3,0,2026-03-20T23:07:49.262361+05:30
Ludhiana,Punjab,30.901,75.8573,15.8,96,0.0,983.6,3.1,16.9,99,83.1,64.3,3,10,3,0,2026-03-20T23:07:49.262367+05:30
Jalandhar,Punjab,31.326,75.5762,14.9,90,0.0,985.0,4.2,20.9,78,53.1,40.0,3,10,3,0,2026-03-20T23:07:49.262376+05:30
Dehradun,Uttarakhand,30.6284,78.0322,8.1,75,0.0,828.4,0.35,34.6,47,3.5,3.4,3,5,3,0,2026-03-20T23:07:49.262383+05:30
Shimla,Himachal Pradesh,31.1048,77.1734,4.9,86,0.0,780.5,0.5,33.5,48,4.1,4.0,3,10,3,0,2026-03-20T23:07:49.262390+05:30
Manali,Himachal Pradesh,32.2396,77.1887,8.5,75,0.0,814.6,3.15,26.6,46,6.3,6.0,3,5,3,0,2026-03-20T23:07:49.262398+05:30
Gurgaon,Haryana,28.4595,77.0266,15.8,97,0.0,986.4,3.25,17.3,140,99.0,88.5,3,10,3,0,2026-03-20T23:07:49.262405+05:30
Noida,Uttar Pradesh,28.5355,77.391,16.9,94,0.0,989.6,2.6,21.6,140,99.0,88.5,3,10,3,0,2026-03-20T23:07:49.262412+05:30
Ghaziabad,Uttar Pradesh,28.6692,77.4538,16.2,98,0.0,987.7,2.35,19.1,136,75.0,61.7,3,10,3,0,2026-03-20T23:07:49.262418+05:30
Faridabad,Haryana,28.4089,77.3178,16.0,94,0.0,988.8,3.1,19.8,140,99.0,88.5,3,10,3,0,2026-03-20T23:07:49.262424+05:30
Meerut,Uttar Pradesh,28.9845,77.7064,15.2,99,0.0,986.4,1.9,24.8,136,75.0,61.7,3,10,3,0,2026-03-20T23:07:49.262431+05:30
Agra,Uttar Pradesh,27.1767,78.0081,16.8,96,0.0,993.0,5.15,25.2,348,48.0,39.0,3,10,3,1,2026-03-20T23:07:49.262438+05:30
Varanasi,Uttar Pradesh,25.3176,82.9739,22.0,84,0.0,1001.9,7.25,50.0,97,56.6,50.9,3,5,4,1,2026-03-20T23:07:49.262447+05:30
Prayagraj,Uttar Pradesh,25.4358,81.8463,21.1,86,0.1,1001.2,4.75,56.9,90,58.0,42.0,6,5,0,1,2026-03-20T23:07:49.262455+05:30
Gorakhpur,Uttar Pradesh,26.7606,83.3732,19.6,80,0.0,1000.5,7.0,32.4,141,65.7,55.3,3,5,4,1,2026-03-20T23:07:49.262465+05:30
Bareilly,Uttar Pradesh,28.367,79.4304,17.0,99,0.0,991.7,2.85,29.9,90,56.5,42.4,3,10,3,1,2026-03-20T23:07:49.262472+05:30
Aligarh,Uttar Pradesh,27.8974,78.088,16.0,98,0.0,990.6,3.8,23.4,113,52.2,42.3,3,10,3,0,2026-03-20T23:07:49.262478+05:30
Moradabad,Uttar Pradesh,28.8386,78.7733,16.6,98,0.0,988.5,2.3,25.6,100,54.9,42.7,3,10,3,1,2026-03-20T23:07:49.262484+05:30
Saharanpur,Uttar Pradesh,29.9637,77.546,14.1,100,0.0,980.6,0.6,15.8,137,68.0,58.2,3,10,3,0,2026-03-20T23:07:49.262490+05:30
Jhansi,Uttar Pradesh,25.4484,78.5685,18.9,86,0.0,982.7,5.8,30.6,110,68.9,38.8,3,10,3,1,2026-03-20T23:07:52.488258+05:30
Surat,Gujarat,21.1702,72.8311,24.5,86,0.0,1009.1,7.5,24.8,112,54.0,35.2,3,0,4,1,2026-03-20T23:07:52.488290+05:30
Vadodara,Gujarat,22.3072,73.1812,25.0,64,0.0,1007.2,7.6,28.1,83,46.6,28.8,7,5,4,1,2026-03-20T23:07:52.488302+05:30
Rajkot,Gujarat,22.3039,70.8022,23.8,68,0.0,997.0,7.45,30.2,83,88.5,32.2,3,5,7,1,2026-03-20T23:07:52.488311+05:30
Thane,Maharashtra,19.2183,72.9781,25.0,84,0.0,1009.9,7.8,36.4,82,54.6,22.9,7,0,4,1,2026-03-20T23:07:52.488319+05:30
Nagpur,Maharashtra,21.1458,79.0882,22.6,77,0.0,976.1,8.15,37.8,84,38.0,22.8,3,5,7,1,2026-03-20T23:07:52.488328+05:30
Nashik,Maharashtra,19.9975,73.7898,21.7,75,0.0,947.0,8.0,33.8,57,40.3,18.2,3,5,7,1,2026-03-20T23:07:52.488336+05:30
Aurangabad,Maharashtra,19.8762,75.3433,24.8,57,0.0,945.6,8.5,33.5,74,39.8,20.3,0,5,7,0,2026-03-20T23:07:52.488344+05:30
Solapur,Maharashtra,17.6599,75.9064,27.3,42,0.0,957.8,8.65,23.8,91,57.4,43.3,4,5,7,0,2026-03-20T23:07:52.488353+05:30
Kolhapur,Maharashtra,16.705,74.2433,20.3,71,0.0,948.7,8.8,43.2,82,32.6,26.8,3,5,7,0,2026-03-20T23:07:52.488361+05:30
Goa,Goa,15.2993,74.124,27.0,77,0.0,999.5,8.8,35.6,64,53.4,28.1,7,5,7,1,2026-03-20T23:07:52.488370+05:30
Jodhpur,Rajasthan,26.2389,73.0243,23.3,57,0.0,986.7,7.25,19.8,70,63.3,28.6,0,5,7,0,2026-03-20T23:07:52.488378+05:30
Udaipur,Rajasthan,24.5854,73.7125,19.7,58,0.0,949.1,4.7,30.6,58,37.5,15.7,0,5,3,0,2026-03-20T23:07:52.488387+05:30
Kota,Rajasthan,25.2138,75.8648,22.2,60,0.0,982.9,6.4,34.6,61,30.9,18.9,0,5,7,0,2026-03-20T23:07:52.488395+05:30
Bikaner,Rajasthan,28.0229,73.3119,23.0,51,0.0,985.5,6.95,17.6,61,42.0,21.0,0,5,7,0,2026-03-20T23:07:52.488403+05:30
Ajmer,Rajasthan,26.4499,74.6399,21.0,60,0.0,957.9,7.2,27.4,58,37.4,26.1,0,5,7,0,2026-03-20T23:07:52.488410+05:30
Gwalior,Madhya Pradesh,26.2183,78.1828,18.6,92,0.0,988.3,6.3,31.0,121,52.9,31.2,3,10,7,1,2026-03-20T23:07:52.488419+05:30
Indore,Madhya Pradesh,22.7196,75.8577,20.3,69,0.0,950.3,7.85,38.5,69,31.5,20.4,3,5,7,0,2026-03-20T23:07:52.488427+05:30
Bhopal,Madhya Pradesh,23.2599,77.4126,18.6,81,0.0,956.6,7.75,46.1,70,60.5,29.0,3,10,7,0,2026-03-20T23:07:52.488435+05:30
Jabalpur,Madhya Pradesh,23.1815,79.9864,21.5,75,0.0,964.6,4.9,36.0,68,36.9,23.1,3,5,3,1,2026-03-20T23:07:52.488442+05:30
Ujjain,Madhya Pradesh,23.1765,75.7885,20.6,67,0.0,956.1,7.75,39.6,68,29.0,19.6,3,5,7,0,2026-03-20T23:07:52.488451+05:30
Visakhapatnam,Andhra Pradesh,17.6868,83.2185,24.1,87,0.0,1006.8,8.8,39.2,66,32.7,28.2,3,5,4,1,2026-03-20T23:07:52.488458+05:30
Vijayawada,Andhra Pradesh,16.5062,80.648,25.3,82,0.0,1005.1,8.85,19.1,65,16.4,14.7,7,5,4,1,2026-03-20T23:07:52.488466+05:30
Guntur,Andhra Pradesh,16.3067,80.4365,25.1,89,0.0,1006.3,8.85,19.1,61,19.6,17.8,7,5,4,1,2026-03-20T23:07:52.488475+05:30
Nellore,Andhra Pradesh,14.4426,79.9865,26.0,89,0.0,1008.1,9.0,27.0,49,8.2,6.1,7,0,4,1,2026-03-20T23:07:52.488484+05:30
Kurnool,Andhra Pradesh,15.8281,78.0373,28.2,51,0.0,977.4,8.85,19.4,98,44.5,35.0,4,5,7,1,2026-03-20T23:07:52.488492+05:30
Kakinada,Andhra Pradesh,16.9891,82.2475,23.6,95,0.0,1010.5,8.8,27.7,49,12.0,9.3,3,0,4,1,2026-03-20T23:07:52.488517+05:30
Tirupati,Andhra Pradesh,13.6288,79.4192,25.3,86,0.0,994.0,9.1,20.2,58,24.5,22.8,7,5,7,1,2026-03-20T23:07:52.488526+05:30
Warangal,Telangana,17.9689,79.5941,24.0,76,0.0,981.0,8.65,28.4,94,90.8,79.2,3,5,7,1,2026-03-20T23:07:52.488532+05:30
Nizamabad,Telangana,18.6725,78.0941,25.9,54,0.0,966.1,8.55,25.9,90,68.7,53.1,4,5,7,0,2026-03-20T23:07:52.488539+05:30
Mysore,Karnataka,12.2958,76.6396,23.7,75,0.0,929.7,9.35,28.1,95,46.6,40.0,3,5,7,1,2026-03-20T23:07:52.488546+05:30
Mangalore,Karnataka,12.9141,74.856,29.4,77,0.0,1007.8,9.0,27.7,68,25.9,19.2,7,5,4,1,2026-03-20T23:07:52.488552+05:30
Hubli-Dharwad,Karnataka,15.3647,75.124,23.0,67,0.0,941.8,9.0,31.0,97,25.5,21.8,3,5,7,1,2026-03-20T23:07:52.488559+05:30
Belgaum,Karnataka,15.8497,74.4977,20.9,82,0.0,926.4,9.05,41.4,69,36.7,27.4,3,5,7,1,2026-03-20T23:07:55.711075+05:30
Coimbatore,Tamil Nadu,11.0168,76.9558,24.6,76,0.0,963.2,9.35,36.7,64,40.0,36.8,3,5,7,1,2026-03-20T23:07:55.711109+05:30
Madurai,Tamil Nadu,9.9252,78.1198,25.2,85,0.0,995.7,9.3,23.4,70,48.0,42.7,7,5,7,1,2026-03-20T23:07:55.711121+05:30
Trichy,Tamil Nadu,10.7905,78.7047,26.4,85,0.0,1001.6,9.25,23.4,90,23.2,22.5,7,5,4,1,2026-03-20T23:07:55.711131+05:30
Salem,Tamil Nadu,11.6643,78.146,27.3,70,0.0,978.7,9.3,20.9,142,36.4,30.7,7,5,7,1,2026-03-20T23:07:55.711140+05:30
Tirunelveli,Tamil Nadu,8.7139,77.7567,26.0,82,0.0,1005.5,9.25,34.9,66,31.2,27.7,7,5,4,1,2026-03-20T23:07:55.711149+05:30
Vellore,Tamil Nadu,12.9165,79.1325,25.2,80,0.0,986.6,9.2,21.6,61,30.3,28.9,7,5,7,1,2026-03-20T23:07:55.711158+05:30
Erode,Tamil Nadu,11.341,77.7172,28.3,69,0.0,990.4,9.25,27.0,110,24.0,20.6,7,5,7,1,2026-03-20T23:07:55.711166+05:30
Kochi,Kerala,9.9312,76.2673,29.1,72,0.0,1010.2,9.15,38.2,68,48.3,43.5,7,0,4,1,2026-03-20T23:07:55.711173+05:30
Thiruvananthapuram,Kerala,8.5241,76.9366,28.6,80,0.0,1009.7,9.15,30.6,94,22.1,16.8,7,0,4,1,2026-03-20T23:07:55.711180+05:30
Kozhikode,Kerala,11.2588,75.7804,29.2,77,0.0,1009.1,9.05,32.0,57,19.0,13.1,7,0,4,1,2026-03-20T23:07:55.711186+05:30
Thrissur,Kerala,10.5276,76.2144,27.4,81,0.0,1008.4,9.1,39.6,67,38.1,33.6,7,0,4,1,2026-03-20T23:07:55.711193+05:30
Kannur,Kerala,11.8745,75.3704,28.5,80,0.0,1008.4,9.05,40.3,58,26.1,20.4,7,0,4,1,2026-03-20T23:07:55.711200+05:30
Patna,Bihar,25.5941,85.1376,23.3,82,0.0,1003.5,7.65,31.3,155,64.0,58.2,3,5,4,1,2026-03-20T23:07:55.711207+05:30
Gaya,Bihar,24.7914,85.0002,22.2,86,0.0,997.5,7.8,30.6,130,50.4,43.9,3,5,7,1,2026-03-20T23:07:55.711213+05:30
Muzaffarpur,Bihar,26.1209,85.3647,22.0,81,0.0,1003.8,7.65,42.1,157,67.5,61.5,3,5,4,1,2026-03-20T23:07:55.711220+05:30
Bhagalpur,Bihar,25.2425,87.0117,22.2,87,0.0,1007.1,7.7,44.6,154,59.1,55.8,3,5,4,1,2026-03-20T23:07:55.711226+05:30
Ranchi,Jharkhand,23.3441,85.3096,19.5,83,0.0,940.3,7.7,27.4,124,37.3,31.9,3,10,7,1,2026-03-20T23:07:55.711233+05:30
Jamshedpur,Jharkhand,22.8046,86.2029,23.3,81,0.0,995.2,7.9,25.9,122,45.6,40.6,3,5,7,1,2026-03-20T23:07:55.711239+05:30
Dhanbad,Jharkhand,23.7957,86.4304,22.1,79,0.0,984.2,7.6,51.8,155,65.0,59.4,3,5,7,1,2026-03-20T23:07:55.711246+05:30
Bokaro,Jharkhand,23.6693,86.1511,21.6,82,0.0,988.2,7.7,51.8,149,48.1,43.0,3,5,7,1,2026-03-20T23:07:55.711253+05:30
Bhubaneswar,Odisha,20.2961,85.8245,24.9,86,0.0,1006.0,8.55,33.5,63,19.0,16.2,3,5,4,1,2026-03-20T23:07:55.711259+05:30
Cuttack,Odisha,20.4625,85.8828,24.7,86,0.0,1008.0,8.35,34.2,63,19.0,16.2,3,0,4,1,2026-03-20T23:07:55.711265+05:30
Rourkela,Odisha,22.2604,84.8536,22.5,80,0.0,988.6,7.55,37.1,157,57.7,48.7,3,5,7,1,2026-03-20T23:07:55.711272+05:30
Raipur,Chhattisgarh,21.2514,81.6296,22.5,72,0.0,977.4,7.4,45.0,112,47.0,38.4,3,5,7,1,2026-03-20T23:07:55.711278+05:30
Bhilai,Chhattisgarh,21.1938,81.3509,22.2,75,0.0,977.6,6.9,35.3,103,48.5,36.4,3,5,7,1,2026-03-20T23:07:55.711284+05:30
Guwahati,Assam,26.1158,91.7086,22.9,89,0.0,1007.1,7.1,27.4,97,43.8,38.4,3,5,4,1,2026-03-20T23:07:55.711290+05:30
Agartala,Tripura,23.8315,91.2868,21.8,97,0.0,1010.5,6.4,29.2,96,49.9,46.3,3,0,4,1,2026-03-20T23:07:55.711296+05:30
Shillong,Meghalaya,25.5788,91.8933,11.6,75,0.0,857.7,7.5,34.2,80,28.8,25.2,3,5,7,0,2026-03-20T23:07:55.711302+05:30
Imphal,Manipur,24.817,93.9368,16.4,78,0.0,926.8,7.9,44.6,89,50.9,42.8,3,5,7,0,2026-03-20T23:07:55.711309+05:30
Aizawl,Mizoram,23.7271,92.7176,16.0,85,0.0,894.8,7.6,24.8,87,59.8,49.0,3,10,7,0,2026-03-20T23:07:55.711316+05:30
Kohima,Nagaland,25.6701,94.1077,14.3,55,0.0,857.4,7.7,62.3,77,44.1,35.4,0,5,7,0,2026-03-20T23:07:55.711322+05:30
Gangtok,Sikkim,27.3314,88.6138,12.7,93,0.1,839.5,7.9,20.2,93,29.0,21.9,6,10,7,0,2026-03-20T23:07:55.711328+05:30
Siliguri,West Bengal,26.7271,88.3953,18.6,89,0.0,1000.1,7.6,23.0,151,62.4,48.8,3,10,4,1,2026-03-20T23:07:58.939363+05:30
Durgapur,West Bengal,23.5204,87.3119,23.3,81,0.0,999.3,7.0,41.0,152,65.2,61.9,3,5,7,1,2026-03-20T23:07:58.939396+05:30
Asansol,West Bengal,23.6739,86.9524,23.5,80,0.0,997.8,5.4,37.4,150,62.2,58.4,3,5,3,1,2026-03-20T23:07:58.939408+05:30
Pondicherry,Puducherry,11.9139,79.8145,25.7,94,0.0,1010.3,9.1,23.0,62,12.4,9.1,7,0,4,1,2026-03-20T23:07:58.939418+05:30
Port Blair,Andaman and Nicobar Islands,11.6234,92.7265,28.4,77,0.0,1009.3,6.3,11.5,42,15.1,10.9,7,0,4,1,2026-03-20T23:07:58.939427+05:30
Haridwar,Uttarakhand,29.9457,78.1642,16.1,97,0.0,978.9,0.7,27.7,78,26.6,24.3,3,10,3,0,2026-03-20T23:07:58.939436+05:30
Rishikesh,Uttarakhand,30.0869,78.2676,16.6,88,0.2,971.1,0.9,27.7,67,29.3,23.4,6,10,3,0,2026-03-20T23:07:58.939445+05:30
Nainital,Uttarakhand,29.3919,79.4542,11.4,93,0.0,804.7,1.9,67.0,68,23.0,17.7,3,10,3,0,2026-03-20T23:07:58.939454+05:30
Mussoorie,Uttarakhand,30.4599,78.0664,8.9,76,0.0,800.5,0.45,46.8,63,13.5,13.5,3,5,3,0,2026-03-20T23:07:58.939462+05:30
Dharamshala,Himachal Pradesh,32.219,76.3234,11.8,74,0.0,868.9,2.15,27.0,46,14.2,12.1,3,5,3,0,2026-03-20T23:07:58.939470+05:30
Dalhousie,Himachal Pradesh,32.5387,75.971,8.5,90,0.0,801.8,1.7,25.9,58,51.2,39.6,3,10,3,0,2026-03-20T23:07:58.939479+05:30
Patiala,Punjab,30.3398,76.3869,14.3,100,0.0,983.0,2.2,17.6,99,101.3,77.3,3,10,3,0,2026-03-20T23:07:58.939487+05:30
Bhatinda,Punjab,30.211,74.9455,15.5,91,0.0,988.6,5.95,27.7,115,68.0,57.2,3,10,3,0,2026-03-20T23:07:58.939494+05:30
Rohtak,Haryana,28.8955,76.6066,15.4,99,0.0,986.8,3.75,22.3,126,104.1,88.7,3,10,3,0,2026-03-20T23:07:58.939522+05:30
Panipat,Haryana,29.3909,76.9635,14.5,100,0.0,985.2,2.6,15.8,129,101.5,82.2,3,10,3,0,2026-03-20T23:07:58.939532+05:30
Mathura,Uttar Pradesh,27.4924,77.6737,16.1,96,0.0,992.1,5.25,22.0,110,59.0,49.9,3,10,3,0,2026-03-20T23:07:58.939540+05:30
Vrindavan,Uttar Pradesh,27.5823,77.7027,15.9,96,0.0,992.5,5.25,22.3,110,59.0,49.9,3,10,3,0,2026-03-20T23:07:58.939548+05:30
Ayodhya,Uttar Pradesh,26.7922,82.1998,19.5,82,0.0,999.4,6.25,34.9,126,81.5,61.7,3,10,7,1,2026-03-20T23:07:58.939556+05:30
Ratlam,Madhya Pradesh,23.3315,75.0367,22.5,61,0.0,956.8,7.7,41.4,67,26.6,16.5,3,5,7,0,2026-03-20T23:07:58.939564+05:30
Sagar,Madhya Pradesh,23.8388,78.7378,19.0,85,0.0,953.1,7.6,38.9,65,48.3,26.1,3,10,7,1,2026-03-20T23:07:58.939572+05:30
Satna,Madhya Pradesh,24.6005,80.8322,20.4,86,0.0,975.5,4.75,50.4,64,30.2,20.2,3,5,3,1,2026-03-20T23:07:58.939580+05:30
Akola,Maharashtra,20.7002,77.0082,25.3,57,0.0,977.3,8.2,29.5,70,42.7,21.0,4,5,7,1,2026-03-20T23:07:58.939589+05:30
Amravati,Maharashtra,20.9374,77.7796,24.7,52,0.0,969.1,8.15,35.6,71,43.0,21.4,0,5,7,0,2026-03-20T23:07:58.939598+05:30
Latur,Maharashtra,18.4088,76.5604,24.1,45,0.0,940.4,8.6,23.8,88,45.2,39.1,0,5,7,0,2026-03-20T23:07:58.939605+05:30
Nanded,Maharashtra,19.1383,77.3091,26.1,55,0.0,969.7,8.4,23.8,71,36.6,31.5,4,5,7,1,2026-03-20T23:07:58.939613+05:30
Gulbarga,Karnataka,17.3297,76.8343,28.1,39,0.0,959.5,8.7,24.5,107,54.8,38.2,4,5,7,0,2026-03-20T23:07:58.939619+05:30
Bidar,Karnataka,17.9104,77.5199,26.2,48,0.0,936.4,8.65,26.3,90,44.5,35.0,4,5,7,0,2026-03-20T23:07:58.939626+05:30
Hospet,Karnataka,15.2689,76.3909,27.9,53,0.0,956.5,8.95,11.5,124,39.3,32.6,4,5,7,1,2026-03-20T23:07:58.939631+05:30
Tirupur,Tamil Nadu,11.1085,77.3411,27.2,64,0.0,977.0,9.35,28.1,97,39.2,35.4,7,5,7,1,2026-03-20T23:07:58.939637+05:30
Alappuzha,Kerala,9.4981,76.3388,29.0,73,0.0,1010.4,9.1,32.8,67,39.3,32.1,7,0,4,1,2026-03-20T23:07:58.939643+05:30
Munnar,Kerala,10.0889,77.0595,19.8,83,0.0,857.7,9.6,37.4,53,27.9,24.2,3,10,7,1,2026-03-20T23:07:58.939650+05:30
Silchar,Assam,24.8333,92.7789,22.5,87,0.0,1009.5,7.55,19.1,105,54.7,48.1,3,0,4,1,2026-03-20T23:07:58.939657+05:30
Dibrugarh,Assam,27.4728,94.912,22.1,86,0.0,1001.8,7.75,14.0,90,30.6,26.7,3,5,4,1,2026-03-20T23:07:58.939663+05:30
