city,state,latitude,longitude,temp,humidity,rain,pressure,uv_index,wind_gusts,aqi,pm10,pm2_5,mosquito_risk,arthritis_risk,migraine_risk,frizz_risk,updated_at
Delhi,Delhi,28.6139,77.209,35.8,28,0.0,983.8,6.25,19.8,128,177.4,35.5,0,5,10,0,2026-04-17T14:51:46.586261+05:30
Mumbai,Maharashtra,19.076,72.8777,29.6,79,0.0,1007.3,7.05,22.7,90,86.1,44.0,7,5,4,1,2026-04-17T14:51:46.586302+05:30
Bangalore,Karnataka,12.9716,77.5946,36.8,18,0.0,911.3,9.45,36.7,109,26.4,21.4,0,5,10,0,2026-04-17T14:51:46.586316+05:30
Hyderabad,Telangana,17.385,78.4867,41.1,17,0.0,951.8,9.25,30.2,108,29.4,24.4,0,5,10,0,2026-04-17T14:51:46.586324+05:30
Chennai,Tamil Nadu,13.0827,80.2707,35.3,53,0.0,1005.6,9.0,32.0,35,12.7,8.7,0,5,7,1,2026-04-17T14:51:46.586331+05:30
Kolkata,West Bengal,22.5726,88.3639,34.7,54,0.0,1004.7,8.9,26.6,66,24.2,19.4,0,5,4,1,2026-04-17T14:51:46.586339+05:30
Pune,Maharashtra,18.5204,73.8567,40.5,12,0.0,947.8,7.8,45.0,78,14.5,10.3,0,5,10,0,2026-04-17T14:51:46.586348+05:30
Ahmedabad,Gujarat,23.0225,72.5714,39.8,14,0.0,1001.1,7.65,20.5,66,31.2,11.7,0,5,7,0,2026-04-17T14:51:46.586354+05:30
Jaipur,Rajasthan,26.9124,75.7873,39.2,17,0.0,959.5,7.15,28.1,81,141.1,26.5,0,5,10,0,2026-04-17T14:51:46.586361+05:30
Lucknow,Uttar Pradesh,26.8467,80.9462,38.3,20,0.0,993.1,7.25,19.4,123,93.8,25.7,0,5,10,0,2026-04-17T14:51:46.586368+05:30
Kanpur,Uttar Pradesh,26.4499,80.3319,37.8,24,0.0,991.4,7.7,16.9,118,166.2,31.3,0,5,10,0,2026-04-17T14:51:46.586374+05:30
Chandigarh,Chandigarh,30.7333,76.7794,33.3,26,0.0,971.5,7.15,40.3,84,43.3,14.2,0,5,7,0,2026-04-17T14:51:46.586380+05:30
Srinagar,Jammu and Kashmir,34.0837,74.7973,13.1,81,0.0,846.1,6.9,26.3,75,30.2,13.2,3,10,7,0,2026-04-17T14:51:46.586386+05:30
Jammu,Jammu and Kashmir,32.7266,74.857,33.5,29,0.0,976.0,5.5,31.0,56,86.8,23.4,0,5,3,0,2026-04-17T14:51:46.586392+05:30
Amritsar,Punjab,31.634,74.8723,33.9,26,0.0,983.4,7.75,31.0,61,49.7,17.2,0,5,7,0,2026-04-17T14:51:46.586398+05:30
Ludhiana,Punjab,30.901,75.8573,33.3,26,0.0,981.4,7.45,39.6,81,24.6,10.3,0,5,7,0,2026-04-17T14:51:46.586404+05:30
Jalandhar,Punjab,31.326,75.5762,32.7,27,0.0,982.9,6.85,26.6,65,76.8,17.2,0,5,7,0,2026-04-17T14:51:46.586411+05:30
Dehradun,Uttarakhand,30.6284,78.0322,18.0,63,0.1,834.8,6.6,31.0,64,29.8,9.1,6,5,7,0,2026-04-17T14:51:46.586429+05:30
Shimla,Himachal Pradesh,31.1048,77.1734,20.0,43,0.0,790.6,7.1,38.9,58,28.7,10.5,0,5,7,0,2026-04-17T14:51:46.586435+05:30
Manali,Himachal Pradesh,32.2396,77.1887,17.9,65,0.2,825.3,9.55,32.8,79,21.2,7.5,6,5,7,0,2026-04-17T14:51:46.586441+05:30
Gurgaon,Haryana,28.4595,77.0266,35.9,27,0.0,981.9,6.4,21.2,244,401.4,51.6,0,5,10,0,2026-04-17T14:51:46.586447+05:30
Noida,Uttar Pradesh,28.5355,77.391,35.7,28,0.0,985.4,6.3,20.2,244,401.4,51.6,0,5,10,0,2026-04-17T14:51:46.586454+05:30
Ghaziabad,Uttar Pradesh,28.6692,77.4538,35.1,33,0.0,983.8,6.2,13.7,104,159.7,33.3,0,5,10,1,2026-04-17T14:51:46.586460+05:30
Faridabad,Haryana,28.4089,77.3178,35.0,26,0.0,984.6,6.4,32.4,244,401.4,51.6,0,5,7,0,2026-04-17T14:51:46.586466+05:30
Meerut,Uttar Pradesh,28.9845,77.7064,35.9,27,0.0,982.7,5.95,20.5,104,159.7,33.3,0,5,6,0,2026-04-17T14:51:46.586470+05:30
Agra,Uttar Pradesh,27.1767,78.0081,39.3,18,0.0,987.4,6.55,17.6,189,454.5,51.6,0,5,10,0,2026-04-17T14:51:46.586476+05:30
Varanasi,Uttar Pradesh,25.3176,82.9739,40.8,19,0.0,996.0,8.45,23.8,140,59.8,16.8,0,5,10,0,2026-04-17T14:51:46.586484+05:30
Prayagraj,Uttar Pradesh,25.4358,81.8463,41.3,15,0.0,994.6,8.3,24.5,143,69.4,19.2,0,5,10,0,2026-04-17T14:51:46.586489+05:30
Gorakhpur,Uttar Pradesh,26.7606,83.3732,36.8,34,0.0,996.7,7.7,27.0,151,81.0,49.7,0,5,10,1,2026-04-17T14:51:46.586495+05:30
Bareilly,Uttar Pradesh,28.367,79.4304,36.5,28,0.0,987.3,6.85,23.0,103,66.8,17.9,0,5,10,0,2026-04-17T14:51:46.586500+05:30
Aligarh,Uttar Pradesh,27.8974,78.088,37.0,21,0.0,986.1,5.75,34.2,134,336.2,46.9,0,5,6,0,2026-04-17T14:51:46.586506+05:30
Moradabad,Uttar Pradesh,28.8386,78.7733,36.0,27,0.0,984.4,5.5,20.9,98,63.1,24.4,0,5,6,0,2026-04-17T14:51:46.586511+05:30
Saharanpur,Uttar Pradesh,29.9637,77.546,34.5,23,0.0,977.6,6.1,43.2,69,79.2,19.5,0,5,7,0,2026-04-17T14:51:46.586516+05:30
Jhansi,Uttar Pradesh,25.4484,78.5685,42.6,11,0.0,976.5,7.8,23.4,95,105.2,22.5,0,5,10,0,2026-04-17T14:51:49.888618+05:30
Surat,Gujarat,21.1702,72.8311,34.1,47,0.0,1005.9,7.3,22.0,99,92.4,48.9,0,5,4,1,2026-04-17T14:51:49.888650+05:30
Vadodara,Gujarat,22.3072,73.1812,39.6,18,0.0,1003.2,7.8,20.9,76,46.9,18.3,0,5,7,0,2026-04-17T14:51:49.888658+05:30
Rajkot,Gujarat,22.3039,70.8022,38.7,22,0.0,993.7,7.85,29.2,66,74.5,20.4,0,5,10,0,2026-04-17T14:51:49.888664+05:30
Thane,Maharashtra,19.2183,72.9781,33.0,57,0.0,1007.0,7.25,33.5,90,86.1,44.0,0,5,4,1,2026-04-17T14:51:49.888670+05:30
Nagpur,Maharashtra,21.1458,79.0882,40.9,19,0.0,971.4,8.35,20.9,163,41.9,32.7,0,5,10,0,2026-04-17T14:51:49.888677+05:30
Nashik,Maharashtra,19.9975,73.7898,37.5,21,0.0,945.6,7.4,32.4,62,28.8,13.0,0,5,10,0,2026-04-17T14:51:49.888682+05:30
Aurangabad,Maharashtra,19.8762,75.3433,40.5,9,0.0,943.5,7.9,29.9,66,9.0,7.7,0,5,10,0,2026-04-17T14:51:49.888689+05:30
Solapur,Maharashtra,17.6599,75.9064,40.6,20,0.0,955.4,8.55,27.7,104,32.4,26.1,0,5,10,0,2026-04-17T14:51:49.888695+05:30
Kolhapur,Maharashtra,16.705,74.2433,37.5,26,0.0,947.3,8.15,44.6,67,19.1,15.8,0,5,10,0,2026-04-17T14:51:49.888701+05:30
Goa,Goa,15.2993,74.124,31.7,65,0.0,996.5,8.45,30.2,69,32.2,16.5,3,5,7,1,2026-04-17T14:51:49.888707+05:30
Jodhpur,Rajasthan,26.2389,73.0243,39.5,14,0.0,982.2,8.15,30.2,95,88.9,15.5,0,5,10,0,2026-04-17T14:51:49.888713+05:30
Udaipur,Rajasthan,24.5854,73.7125,37.7,17,0.0,947.2,8.05,27.0,58,20.7,7.6,0,5,10,0,2026-04-17T14:51:49.888719+05:30
Kota,Rajasthan,25.2138,75.8648,41.7,17,0.0,977.3,7.1,27.0,77,48.3,19.1,0,5,10,0,2026-04-17T14:51:49.888724+05:30
Bikaner,Rajasthan,28.0229,73.3119,41.0,16,0.0,980.0,8.0,21.2,73,43.4,13.4,0,5,10,0,2026-04-17T14:51:49.888730+05:30
Ajmer,Rajasthan,26.4499,74.6399,37.8,23,0.0,954.7,7.75,30.6,68,51.6,15.5,0,5,10,0,2026-04-17T14:51:49.888735+05:30
Gwalior,Madhya Pradesh,26.2183,78.1828,40.7,14,0.0,982.2,7.1,29.5,89,100.6,21.4,0,5,10,0,2026-04-17T14:51:49.888739+05:30
Indore,Madhya Pradesh,22.7196,75.8577,38.1,20,0.0,948.2,7.8,27.0,105,32.7,17.1,0,5,10,0,2026-04-17T14:51:49.888743+05:30
Bhopal,Madhya Pradesh,23.2599,77.4126,40.5,19,0.0,953.2,7.9,29.2,110,39.1,14.6,0,5,10,0,2026-04-17T14:51:49.888748+05:30
Jabalpur,Madhya Pradesh,23.1815,79.9864,40.4,17,0.0,960.4,8.6,24.5,139,60.1,16.6,0,5,10,0,2026-04-17T14:51:49.888753+05:30
Ujjain,Madhya Pradesh,23.1765,75.7885,38.4,21,0.0,953.9,7.65,26.6,84,34.8,18.5,0,5,10,0,2026-04-17T14:51:49.888758+05:30
Visakhapatnam,Andhra Pradesh,17.6868,83.2185,33.9,57,0.0,1002.0,9.2,38.9,48,19.3,14.3,0,5,4,1,2026-04-17T14:51:49.888763+05:30
Vijayawada,Andhra Pradesh,16.5062,80.648,36.7,48,0.0,1000.8,9.2,23.8,50,24.0,18.3,0,5,7,1,2026-04-17T14:51:49.888768+05:30
Guntur,Andhra Pradesh,16.3067,80.4365,36.8,46,0.0,1002.1,9.2,27.0,54,26.8,21.0,0,5,7,1,2026-04-17T14:51:49.888773+05:30
Nellore,Andhra Pradesh,14.4426,79.9865,37.1,51,0.0,1003.8,9.3,33.1,53,28.7,21.8,0,5,7,1,2026-04-17T14:51:49.888779+05:30
Kurnool,Andhra Pradesh,15.8281,78.0373,42.1,18,0.0,974.2,9.2,25.9,101,31.7,26.9,0,5,10,0,2026-04-17T14:51:49.888784+05:30
Kakinada,Andhra Pradesh,16.9891,82.2475,37.2,47,0.0,1005.6,9.2,30.2,33,13.6,8.6,0,5,7,1,2026-04-17T14:51:49.888789+05:30
Tirupati,Andhra Pradesh,13.6288,79.4192,37.6,36,0.0,989.7,9.25,32.0,71,32.9,26.7,0,5,10,1,2026-04-17T14:51:49.888794+05:30
Warangal,Telangana,17.9689,79.5941,38.8,39,0.0,977.0,9.1,27.7,72,29.8,25.2,0,5,10,1,2026-04-17T14:51:49.888799+05:30
Nizamabad,Telangana,18.6725,78.0941,40.6,20,0.0,963.2,9.05,25.6,103,30.2,24.2,0,5,10,0,2026-04-17T14:51:49.888804+05:30
Mysore,Karnataka,12.2958,76.6396,37.4,17,0.0,927.5,9.35,39.6,108,32.8,26.2,0,5,10,0,2026-04-17T14:51:49.888809+05:30
Mangalore,Karnataka,12.9141,74.856,29.7,84,0.0,1004.4,9.15,25.9,83,42.5,25.1,7,5,4,1,2026-04-17T14:51:49.888814+05:30
Hubli-Dharwad,Karnataka,15.3647,75.124,37.4,21,0.0,940.0,9.15,35.6,75,29.1,23.4,0,5,10,0,2026-04-17T14:51:49.888819+05:30
Belgaum,Karnataka,15.8497,74.4977,36.4,22,0.0,925.7,8.9,41.4,82,26.6,20.8,0,5,10,0,2026-04-17T14:51:53.193295+05:30
Coimbatore,Tamil Nadu,11.0168,76.9558,38.2,24,0.0,959.7,9.1,35.3,102,32.6,25.5,0,5,10,0,2026-04-17T14:51:53.193327+05:30
Madurai,Tamil Nadu,9.9252,78.1198,38.6,31,0.0,990.2,9.35,34.2,80,25.1,19.8,0,5,10,1,2026-04-17T14:51:53.193337+05:30
Trichy,Tamil Nadu,10.7905,78.7047,36.2,42,0.0,997.5,9.25,17.6,73,21.8,18.0,0,5,10,1,2026-04-17T14:51:53.193344+05:30
Salem,Tamil Nadu,11.6643,78.146,37.4,39,0.0,975.1,9.1,22.3,74,27.2,20.7,0,5,10,1,2026-04-17T14:51:53.193350+05:30
Tirunelveli,Tamil Nadu,8.7139,77.7567,39.6,29,0.0,999.8,9.1,46.8,93,26.4,21.2,0,5,10,1,2026-04-17T14:51:53.193356+05:30
Vellore,Tamil Nadu,12.9165,79.1325,36.7,39,0.0,982.7,8.9,27.7,94,33.8,28.3,0,5,10,1,2026-04-17T14:51:53.193362+05:30
Erode,Tamil Nadu,11.341,77.7172,40.0,29,0.0,986.2,9.3,27.4,62,24.7,18.2,0,5,10,1,2026-04-17T14:51:53.193368+05:30
Kochi,Kerala,9.9312,76.2673,30.2,79,0.0,1005.9,8.85,31.7,97,40.9,30.3,3,5,4,1,2026-04-17T14:51:53.193374+05:30
Thiruvananthapuram,Kerala,8.5241,76.9366,29.7,83,0.0,1005.2,8.85,32.8,98,31.8,23.9,7,5,4,1,2026-04-17T14:51:53.193379+05:30
Kozhikode,Kerala,11.2588,75.7804,31.5,71,0.0,1005.5,8.6,33.5,97,52.7,25.7,3,5,4,1,2026-04-17T14:51:53.193384+05:30
Thrissur,Kerala,10.5276,76.2144,34.1,62,0.0,1004.4,8.7,39.2,96,41.7,30.2,3,5,4,1,2026-04-17T14:51:53.193390+05:30
Kannur,Kerala,11.8745,75.3704,32.6,67,0.0,1004.9,8.35,32.8,104,51.3,28.1,3,5,4,1,2026-04-17T14:51:53.193395+05:30
Patna,Bihar,25.5941,85.1376,35.9,44,0.0,999.6,8.05,24.8,153,89.6,55.9,0,5,10,1,2026-04-17T14:51:53.193401+05:30
Gaya,Bihar,24.7914,85.0002,39.0,23,0.0,992.3,8.45,15.5,137,74.5,31.2,0,5,10,0,2026-04-17T14:51:53.193405+05:30
Muzaffarpur,Bihar,26.1209,85.3647,34.9,46,0.0,1000.1,8.3,24.8,154,90.6,59.4,0,5,4,1,2026-04-17T14:51:53.193410+05:30
Bhagalpur,Bihar,25.2425,87.0117,33.5,53,0.0,1000.9,8.55,21.6,153,84.3,60.3,0,5,4,1,2026-04-17T14:51:53.193414+05:30
Ranchi,Jharkhand,23.3441,85.3096,37.5,19,0.0,937.9,9.15,38.5,112,76.4,24.1,0,5,10,0,2026-04-17T14:51:53.193442+05:30
Jamshedpur,Jharkhand,22.8046,86.2029,37.0,43,0.0,989.5,9.0,24.5,84,37.5,28.6,0,5,10,1,2026-04-17T14:51:53.193448+05:30
Dhanbad,Jharkhand,23.7957,86.4304,37.9,26,0.0,978.7,8.9,22.0,152,79.6,56.0,0,5,10,0,2026-04-17T14:51:53.193453+05:30
Bokaro,Jharkhand,23.6693,86.1511,36.6,35,0.0,983.0,8.9,25.9,156,86.6,50.6,0,5,10,1,2026-04-17T14:51:53.193458+05:30
Bhubaneswar,Odisha,20.2961,85.8245,32.6,67,0.0,1001.7,9.1,27.7,44,21.7,17.9,3,5,4,1,2026-04-17T14:51:53.193462+05:30
Cuttack,Odisha,20.4625,85.8828,34.9,56,0.0,1003.4,9.15,26.3,44,21.7,17.9,0,5,4,1,2026-04-17T14:51:53.193467+05:30
Rourkela,Odisha,22.2604,84.8536,40.8,22,0.0,982.9,8.9,46.1,120,61.7,37.3,0,5,10,0,2026-04-17T14:51:53.193472+05:30
Raipur,Chhattisgarh,21.2514,81.6296,41.1,25,0.0,972.9,8.95,42.8,153,63.6,35.4,0,5,10,1,2026-04-17T14:51:53.193477+05:30
Bhilai,Chhattisgarh,21.1938,81.3509,40.8,26,0.0,973.2,8.95,42.1,142,59.0,32.1,0,5,10,1,2026-04-17T14:51:53.193481+05:30
Guwahati,Assam,26.1158,91.7086,32.4,53,0.0,1000.5,8.55,22.3,152,91.7,58.4,0,5,4,1,2026-04-17T14:51:53.193486+05:30
Agartala,Tripura,23.8315,91.2868,31.8,66,0.0,1005.5,8.75,19.4,131,37.7,30.0,3,5,4,1,2026-04-17T14:51:53.193491+05:30
Shillong,Meghalaya,25.5788,91.8933,20.1,64,0.0,857.7,6.65,28.4,124,63.8,45.1,3,5,7,0,2026-04-17T14:51:53.193496+05:30
Imphal,Manipur,24.817,93.9368,25.3,63,0.0,923.8,9.1,37.4,149,86.6,59.1,7,5,7,1,2026-04-17T14:51:53.193501+05:30
Aizawl,Mizoram,23.7271,92.7176,27.0,59,0.0,894.1,9.0,33.1,154,78.2,58.1,4,5,7,1,2026-04-17T14:51:53.193505+05:30
Kohima,Nagaland,25.6701,94.1077,20.6,82,0.0,856.5,8.4,48.2,124,78.2,46.9,3,5,7,1,2026-04-17T14:51:53.193510+05:30
Gangtok,Sikkim,27.3314,88.6138,20.9,68,0.0,840.0,8.85,19.8,125,60.8,37.0,3,5,7,0,2026-04-17T14:51:53.193515+05:30
Siliguri,West Bengal,26.7271,88.3953,27.6,57,0.0,994.6,8.5,18.4,159,93.4,53.2,4,5,7,1,2026-04-17T14:51:56.503996+05:30
Durgapur,West Bengal,23.5204,87.3119,35.8,47,0.0,994.2,8.85,23.8,124,63.1,49.5,0,5,10,1,2026-04-17T14:51:56.504025+05:30
Asansol,West Bengal,23.6739,86.9524,36.7,40,0.0,992.7,8.9,23.4,133,66.6,53.6,0,5,10,1,2026-04-17T14:51:56.504033+05:30
Pondicherry,Puducherry,11.9139,79.8145,36.2,53,0.0,1006.1,8.7,26.3,30,10.1,6.7,0,5,7,1,2026-04-17T14:51:56.504040+05:30
Port Blair,Andaman and Nicobar Islands,11.6234,92.7265,29.3,71,0.0,1006.2,9.2,24.5,45,15.9,11.1,7,5,4,1,2026-04-17T14:51:56.504046+05:30
Haridwar,Uttarakhand,29.9457,78.1642,34.3,26,0.0,976.2,5.8,42.5,62,41.2,13.2,0,5,3,0,2026-04-17T14:51:56.504052+05:30
Rishikesh,Uttarakhand,30.0869,78.2676,33.1,25,0.0,969.1,6.05,31.7,65,33.4,10.4,0,5,7,0,2026-04-17T14:51:56.504058+05:30
Nainital,Uttarakhand,29.3919,79.4542,27.7,31,0.0,811.6,7.5,55.4,100,25.1,11.7,4,5,7,0,2026-04-17T14:51:56.504065+05:30
Mussoorie,Uttarakhand,30.4599,78.0664,20.7,42,0.0,807.9,6.55,52.6,73,33.2,11.2,0,5,7,0,2026-04-17T14:51:56.504072+05:30
Dharamshala,Himachal Pradesh,32.219,76.3234,23.9,53,0.0,873.6,6.9,36.7,48,21.8,6.6,0,5,7,0,2026-04-17T14:51:56.504077+05:30
Dalhousie,Himachal Pradesh,32.5387,75.971,21.6,39,0.0,809.2,6.05,34.2,50,37.4,12.7,0,5,7,0,2026-04-17T14:51:56.504084+05:30
Patiala,Punjab,30.3398,76.3869,35.0,23,0.0,980.2,6.95,46.1,142,581.1,62.9,0,5,7,0,2026-04-17T14:51:56.504090+05:30
Bhatinda,Punjab,30.211,74.9455,36.4,18,0.0,985.4,7.65,43.6,80,201.6,30.6,0,5,10,0,2026-04-17T14:51:56.504095+05:30
Rohtak,Haryana,28.8955,76.6066,35.9,30,0.0,982.3,6.5,25.9,163,179.3,32.4,0,5,10,0,2026-04-17T14:51:56.504100+05:30
Panipat,Haryana,29.3909,76.9635,35.3,31,0.0,981.9,6.45,29.9,286,287.8,41.9,0,5,10,0,2026-04-17T14:51:56.504105+05:30
Mathura,Uttar Pradesh,27.4924,77.6737,38.7,20,0.0,986.6,6.7,32.0,158,293.4,37.4,0,5,10,0,2026-04-17T14:51:56.504110+05:30
Vrindavan,Uttar Pradesh,27.5823,77.7027,38.0,21,0.0,987.3,6.55,32.4,158,293.4,37.4,0,5,10,0,2026-04-17T14:51:56.504115+05:30
Ayodhya,Uttar Pradesh,26.7922,82.1998,38.2,28,0.0,994.6,6.9,27.4,146,62.9,36.9,0,5,10,1,2026-04-17T14:51:56.504119+05:30
Ratlam,Madhya Pradesh,23.3315,75.0367,35.1,32,0.0,955.0,7.3,27.7,75,27.3,14.1,0,5,10,0,2026-04-17T14:51:56.504125+05:30
Sagar,Madhya Pradesh,23.8388,78.7378,39.7,19,0.0,949.8,7.8,22.7,118,75.7,18.9,0,5,10,0,2026-04-17T14:51:56.504130+05:30
Satna,Madhya Pradesh,24.6005,80.8322,41.7,12,0.0,970.6,8.6,16.6,136,91.5,19.8,0,5,10,0,2026-04-17T14:51:56.504135+05:30
Akola,Maharashtra,20.7002,77.0082,42.3,15,0.0,973.4,8.05,24.1,94,21.8,14.1,0,5,10,0,2026-04-17T14:51:56.504141+05:30
Amravati,Maharashtra,20.9374,77.7796,41.0,20,0.0,965.9,8.15,15.1,93,25.0,14.5,0,5,10,0,2026-04-17T14:51:56.504146+05:30
Latur,Maharashtra,18.4088,76.5604,38.2,21,0.0,939.2,8.6,31.7,95,29.0,23.7,0,5,10,0,2026-04-17T14:51:56.504151+05:30
Nanded,Maharashtra,19.1383,77.3091,41.0,19,0.0,967.0,8.85,18.4,90,25.1,20.0,0,5,10,0,2026-04-17T14:51:56.504157+05:30
Gulbarga,Karnataka,17.3297,76.8343,41.4,18,0.0,957.0,8.7,25.6,104,27.7,22.6,0,5,10,0,2026-04-17T14:51:56.504161+05:30
Bidar,Karnataka,17.9104,77.5199,37.4,26,0.0,934.7,8.7,46.8,117,27.2,21.9,0,5,10,0,2026-04-17T14:51:56.504166+05:30
Hospet,Karnataka,15.2689,76.3909,37.2,24,0.0,954.6,9.25,22.7,92,32.0,26.3,0,5,10,0,2026-04-17T14:51:56.504171+05:30
Tirupur,Tamil Nadu,11.1085,77.3411,39.8,24,0.0,972.7,9.0,34.2,79,27.6,20.3,0,5,10,0,2026-04-17T14:51:56.504175+05:30
Alappuzha,Kerala,9.4981,76.3388,30.0,81,0.0,1006.1,8.1,30.2,104,39.7,29.9,7,5,4,1,2026-04-17T14:51:56.504180+05:30
Munnar,Kerala,10.0889,77.0595,29.5,52,0.0,857.8,9.05,34.6,80,23.3,16.6,4,5,7,1,2026-04-17T14:51:56.504185+05:30
Silchar,Assam,24.8333,92.7789,32.3,56,0.0,1004.1,8.75,20.5,156,83.4,56.6,0,5,4,1,2026-04-17T14:51:56.504190+05:30
Dibrugarh,Assam,27.4728,94.912,30.4,53,0.0,994.8,8.65,11.5,147,80.6,45.8,0,5,7,1,2026-04-17T14:51:56.504195+05:30
