city,state,latitude,longitude,temp,humidity,rain,pressure,uv_index,wind_gusts,aqi,pm10,pm2_5,mosquito_risk,arthritis_risk,migraine_risk,frizz_risk,updated_at
Delhi,Delhi,28.6139,77.209,20.2,75,0.0,984.9,5.85,32.4,297,415.4,87.1,3,5,3,0,2026-03-05T04:05:48.098677+05:30
Mumbai,Maharashtra,19.076,72.8777,28.3,59,0.0,1009.1,7.4,27.0,122,38.4,36.2,4,0,4,1,2026-03-05T04:05:48.098731+05:30
Bangalore,Karnataka,12.9716,77.5946,19.1,72,0.0,911.6,9.1,32.8,89,27.9,26.6,3,5,7,0,2026-03-05T04:05:48.098746+05:30
Hyderabad,Telangana,17.385,78.4867,19.0,76,0.0,953.7,8.4,29.5,94,42.7,39.6,3,5,7,0,2026-03-05T04:05:48.098757+05:30
Chennai,Tamil Nadu,13.0827,80.2707,23.0,95,0.0,1008.5,8.85,31.0,100,43.4,38.6,3,0,4,1,2026-03-05T04:05:48.098767+05:30
Kolkata,West Bengal,22.5726,88.3639,20.3,72,0.0,1007.6,7.8,10.8,166,127.1,102.0,3,5,4,0,2026-03-05T04:05:48.098777+05:30
Pune,Maharashtra,18.5204,73.8567,21.3,58,0.0,949.3,7.95,31.0,77,41.7,40.5,0,5,7,0,2026-03-05T04:05:48.098789+05:30
Ahmedabad,Gujarat,23.0225,72.5714,22.3,57,0.0,1005.7,7.15,23.4,75,17.6,16.6,0,5,4,0,2026-03-05T04:05:48.098796+05:30
Jaipur,Rajasthan,26.9124,75.7873,23.1,33,0.0,962.3,6.65,37.1,87,151.3,30.5,0,5,7,0,2026-03-05T04:05:48.098804+05:30
Lucknow,Uttar Pradesh,26.8467,80.9462,19.3,86,0.0,995.4,6.4,13.3,161,254.3,91.5,3,10,7,1,2026-03-05T04:05:48.098813+05:30
Kanpur,Uttar Pradesh,26.4499,80.3319,18.2,88,0.0,993.6,6.4,24.8,173,304.5,77.1,3,10,7,1,2026-03-05T04:05:48.098821+05:30
Chandigarh,Chandigarh,30.7333,76.7794,19.0,77,0.0,970.2,5.75,32.4,87,34.5,29.7,3,5,3,0,2026-03-05T04:05:48.098829+05:30
Srinagar,Jammu and Kashmir,34.0837,74.7973,7.2,83,0.0,842.5,6.7,15.8,151,111.3,72.4,3,10,7,0,2026-03-05T04:05:48.098837+05:30
Jammu,Jammu and Kashmir,32.7266,74.857,15.7,71,0.0,974.4,6.4,28.1,102,46.4,38.9,3,5,7,0,2026-03-05T04:05:48.098844+05:30
Amritsar,Punjab,31.634,74.8723,17.6,81,0.0,983.3,6.35,25.6,153,98.5,78.5,3,10,7,0,2026-03-05T04:05:48.098851+05:30
Ludhiana,Punjab,30.901,75.8573,20.5,76,0.0,981.0,6.0,26.6,155,92.2,77.1,3,5,3,1,2026-03-05T04:05:48.098858+05:30
Jalandhar,Punjab,31.326,75.5762,18.6,80,0.0,982.2,6.2,26.3,156,110.4,93.4,3,5,7,0,2026-03-05T04:05:48.098867+05:30
Dehradun,Uttarakhand,30.6284,78.0322,13.5,37,0.0,828.6,6.15,34.2,60,28.1,21.7,0,5,7,1,2026-03-05T04:05:48.098875+05:30
Shimla,Himachal Pradesh,31.1048,77.1734,13.5,45,0.0,784.9,6.2,52.6,65,36.3,23.4,0,5,7,0,2026-03-05T04:05:48.098882+05:30
Manali,Himachal Pradesh,32.2396,77.1887,18.7,24,0.0,822.7,7.4,34.2,54,34.5,16.2,0,5,7,1,2026-03-05T04:05:48.098889+05:30
Gurgaon,Haryana,28.4595,77.0266,17.4,85,0.0,983.3,5.95,31.3,1214,1382.1,177.9,3,10,3,0,2026-03-05T04:05:48.098897+05:30
Noida,Uttar Pradesh,28.5355,77.391,20.5,74,0.0,986.3,5.85,31.7,1214,1382.1,177.9,3,5,3,0,2026-03-05T04:05:48.098903+05:30
Ghaziabad,Uttar Pradesh,28.6692,77.4538,20.0,80,0.0,984.4,5.85,28.4,194,326.9,78.0,3,5,3,1,2026-03-05T04:05:48.098911+05:30
Faridabad,Haryana,28.4089,77.3178,20.4,67,0.0,985.6,5.9,31.0,1214,1382.1,177.9,3,5,3,0,2026-03-05T04:05:48.098917+05:30
Meerut,Uttar Pradesh,28.9845,77.7064,18.4,92,0.0,982.9,5.7,27.0,194,326.9,78.0,3,10,3,1,2026-03-05T04:05:48.098924+05:30
Agra,Uttar Pradesh,27.1767,78.0081,17.0,77,0.0,989.5,6.25,34.6,429,502.9,83.8,3,5,7,0,2026-03-05T04:05:48.098931+05:30
Varanasi,Uttar Pradesh,25.3176,82.9739,18.6,85,0.0,999.6,7.05,16.2,154,105.0,65.4,3,10,7,0,2026-03-05T04:05:48.098941+05:30
Prayagraj,Uttar Pradesh,25.4358,81.8463,19.0,84,0.0,998.2,6.9,19.4,153,157.9,71.7,3,10,7,1,2026-03-05T04:05:48.098949+05:30
Gorakhpur,Uttar Pradesh,26.7606,83.3732,17.6,88,0.0,999.2,6.75,13.0,170,141.1,119.0,3,10,7,0,2026-03-05T04:05:48.098959+05:30
Bareilly,Uttar Pradesh,28.367,79.4304,17.5,91,0.0,988.4,6.05,13.0,164,127.6,110.1,3,10,7,1,2026-03-05T04:05:48.098968+05:30
Aligarh,Uttar Pradesh,27.8974,78.088,17.7,79,0.0,987.2,5.95,30.6,608,700.4,124.8,3,5,3,0,2026-03-05T04:05:48.098976+05:30
Moradabad,Uttar Pradesh,28.8386,78.7733,16.7,96,0.0,984.9,5.9,14.4,160,310.1,112.2,3,10,3,1,2026-03-05T04:05:48.098983+05:30
Saharanpur,Uttar Pradesh,29.9637,77.546,16.4,93,0.0,976.7,5.5,15.5,153,113.9,78.0,3,10,3,0,2026-03-05T04:05:48.098989+05:30
Jhansi,Uttar Pradesh,25.4484,78.5685,17.8,59,0.0,979.6,6.85,35.3,56,15.8,11.0,0,5,7,0,2026-03-05T04:05:51.496546+05:30
Surat,Gujarat,21.1702,72.8311,23.8,66,0.0,1009.3,7.1,27.4,137,40.2,38.3,3,0,4,1,2026-03-05T04:05:51.496581+05:30
Vadodara,Gujarat,22.3072,73.1812,22.1,56,0.0,1007.5,7.2,23.4,117,30.2,27.9,0,5,4,0,2026-03-05T04:05:51.496593+05:30
Rajkot,Gujarat,22.3039,70.8022,21.4,68,0.0,998.3,7.05,33.8,65,11.8,11.2,3,5,7,0,2026-03-05T04:05:51.496601+05:30
Thane,Maharashtra,19.2183,72.9781,25.2,57,0.0,1008.7,7.4,38.9,122,38.4,36.2,4,0,4,1,2026-03-05T04:05:51.496609+05:30
Nagpur,Maharashtra,21.1458,79.0882,18.6,66,0.0,974.8,7.8,25.9,67,16.0,13.7,3,5,7,0,2026-03-05T04:05:51.496616+05:30
Nashik,Maharashtra,19.9975,73.7898,22.2,56,0.0,947.2,7.6,33.5,73,30.6,27.2,0,5,7,0,2026-03-05T04:05:51.496624+05:30
Aurangabad,Maharashtra,19.8762,75.3433,22.0,49,0.0,945.3,8.1,29.2,74,29.8,28.8,0,5,7,0,2026-03-05T04:05:51.496631+05:30
Solapur,Maharashtra,17.6599,75.9064,21.6,68,0.0,957.5,8.35,18.4,70,31.3,29.1,3,5,7,0,2026-03-05T04:05:51.496638+05:30
Kolhapur,Maharashtra,16.705,74.2433,18.5,88,0.0,947.9,8.5,33.5,154,99.9,99.0,3,10,7,1,2026-03-05T04:05:51.496645+05:30
Goa,Goa,15.2993,74.124,25.8,94,0.0,998.6,8.55,30.2,142,77.1,74.0,7,5,7,1,2026-03-05T04:05:51.496653+05:30
Jodhpur,Rajasthan,26.2389,73.0243,21.7,55,0.0,986.5,6.9,21.2,79,130.9,30.5,0,5,7,0,2026-03-05T04:05:51.496659+05:30
Udaipur,Rajasthan,24.5854,73.7125,17.4,52,0.0,949.5,7.55,22.0,60,24.4,18.0,0,5,7,0,2026-03-05T04:05:51.496666+05:30
Kota,Rajasthan,25.2138,75.8648,17.3,66,0.0,981.4,6.95,25.2,79,32.6,24.2,3,5,7,0,2026-03-05T04:05:51.496673+05:30
Bikaner,Rajasthan,28.0229,73.3119,22.0,49,0.0,985.0,6.6,22.3,63,32.8,14.3,0,5,7,0,2026-03-05T04:05:51.496680+05:30
Ajmer,Rajasthan,26.4499,74.6399,20.7,46,0.0,957.5,6.9,23.4,66,46.2,16.9,0,5,7,0,2026-03-05T04:05:51.496686+05:30
Gwalior,Madhya Pradesh,26.2183,78.1828,21.0,52,0.0,985.1,6.55,32.4,73,20.5,15.6,0,5,7,0,2026-03-05T04:05:51.496693+05:30
Indore,Madhya Pradesh,22.7196,75.8577,17.2,59,0.0,949.9,7.5,23.8,78,37.6,32.0,0,5,7,0,2026-03-05T04:05:51.496699+05:30
Bhopal,Madhya Pradesh,23.2599,77.4126,19.0,40,0.0,955.5,7.35,28.8,63,22.5,19.6,0,5,7,0,2026-03-05T04:05:51.496706+05:30
Jabalpur,Madhya Pradesh,23.1815,79.9864,18.9,54,0.0,963.3,7.5,29.5,61,21.8,19.7,0,5,7,0,2026-03-05T04:05:51.496713+05:30
Ujjain,Madhya Pradesh,23.1765,75.7885,16.3,64,0.0,955.6,7.4,22.7,106,60.1,54.1,3,5,7,0,2026-03-05T04:05:51.496720+05:30
Visakhapatnam,Andhra Pradesh,17.6868,83.2185,23.7,82,0.0,1004.4,8.45,34.9,118,40.7,39.7,3,5,4,1,2026-03-05T04:05:51.496727+05:30
Vijayawada,Andhra Pradesh,16.5062,80.648,23.9,81,0.0,1003.7,8.5,17.6,125,43.9,41.7,3,5,4,1,2026-03-05T04:05:51.496733+05:30
Guntur,Andhra Pradesh,16.3067,80.4365,23.2,87,0.0,1004.9,8.5,20.9,116,42.5,40.6,3,5,4,1,2026-03-05T04:05:51.496741+05:30
Nellore,Andhra Pradesh,14.4426,79.9865,23.4,85,0.0,1006.8,8.7,32.0,105,38.8,36.2,3,5,4,1,2026-03-05T04:05:51.496748+05:30
Kurnool,Andhra Pradesh,15.8281,78.0373,24.8,57,0.0,977.8,8.5,26.3,80,27.0,25.8,0,5,7,0,2026-03-05T04:05:51.496755+05:30
Kakinada,Andhra Pradesh,16.9891,82.2475,22.1,94,0.0,1008.6,8.45,29.2,95,37.4,34.9,3,0,4,1,2026-03-05T04:05:51.496762+05:30
Tirupati,Andhra Pradesh,13.6288,79.4192,19.7,74,0.0,993.1,8.8,31.0,136,67.1,65.0,3,5,7,0,2026-03-05T04:05:51.496768+05:30
Warangal,Telangana,17.9689,79.5941,22.1,65,0.0,979.3,8.25,28.8,107,27.4,25.7,3,5,7,0,2026-03-05T04:05:51.496774+05:30
Nizamabad,Telangana,18.6725,78.0941,19.2,67,0.0,965.5,8.15,24.8,79,35.9,33.4,3,5,7,0,2026-03-05T04:05:51.496781+05:30
Mysore,Karnataka,12.2958,76.6396,20.3,96,0.0,928.6,9.15,25.2,89,34.9,34.1,3,5,7,1,2026-03-05T04:05:51.496788+05:30
Mangalore,Karnataka,12.9141,74.856,28.3,79,0.0,1007.3,8.75,28.1,109,54.6,51.6,7,5,4,1,2026-03-05T04:05:51.496794+05:30
Hubli-Dharwad,Karnataka,15.3647,75.124,20.0,96,0.0,940.7,8.7,23.4,86,26.5,25.3,3,5,7,1,2026-03-05T04:05:51.496801+05:30
Belgaum,Karnataka,15.8497,74.4977,20.6,91,0.0,925.5,8.75,37.8,119,71.9,69.6,3,5,7,1,2026-03-05T04:05:54.855265+05:30
Coimbatore,Tamil Nadu,11.0168,76.9558,20.1,72,0.0,962.5,9.15,34.2,98,49.4,48.4,3,5,7,0,2026-03-05T04:05:54.855296+05:30
Madurai,Tamil Nadu,9.9252,78.1198,24.6,89,0.0,994.3,9.1,33.1,80,34.7,34.1,3,5,7,1,2026-03-05T04:05:54.855307+05:30
Trichy,Tamil Nadu,10.7905,78.7047,22.2,99,0.0,1001.3,9.0,34.2,87,36.4,34.1,3,5,4,1,2026-03-05T04:05:54.855315+05:30
Salem,Tamil Nadu,11.6643,78.146,21.3,81,0.0,978.3,9.05,18.0,94,40.4,39.7,3,5,7,1,2026-03-05T04:05:54.855323+05:30
Tirunelveli,Tamil Nadu,8.7139,77.7567,23.6,89,0.0,1004.5,9.15,48.2,75,32.1,30.7,3,5,4,1,2026-03-05T04:05:54.855330+05:30
Vellore,Tamil Nadu,12.9165,79.1325,19.3,86,0.0,985.9,8.9,32.0,124,61.0,58.9,3,10,7,1,2026-03-05T04:05:54.855338+05:30
Erode,Tamil Nadu,11.341,77.7172,22.4,88,0.0,990.5,9.05,22.7,89,28.3,27.5,3,5,7,1,2026-03-05T04:05:54.855346+05:30
Kochi,Kerala,9.9312,76.2673,26.9,81,0.0,1009.5,8.95,36.4,120,57.9,56.8,7,0,4,1,2026-03-05T04:05:54.855353+05:30
Thiruvananthapuram,Kerala,8.5241,76.9366,27.0,79,0.0,1008.5,9.0,27.0,100,30.2,27.6,7,0,4,1,2026-03-05T04:05:54.855361+05:30
Kozhikode,Kerala,11.2588,75.7804,27.1,82,0.0,1008.8,8.85,29.9,110,51.8,46.8,7,0,4,1,2026-03-05T04:05:54.855368+05:30
Thrissur,Kerala,10.5276,76.2144,24.9,95,0.0,1007.9,8.9,36.7,125,68.5,66.4,3,5,4,1,2026-03-05T04:05:54.855376+05:30
Kannur,Kerala,11.8745,75.3704,26.9,87,0.0,1007.8,8.85,34.9,108,55.5,52.6,7,5,4,1,2026-03-05T04:05:54.855383+05:30
Patna,Bihar,25.5941,85.1376,20.6,79,0.0,1002.7,7.2,12.6,171,135.0,110.1,3,5,4,1,2026-03-05T04:05:54.855390+05:30
Gaya,Bihar,24.7914,85.0002,17.9,79,0.0,995.9,7.3,13.7,152,90.1,62.6,3,5,7,0,2026-03-05T04:05:54.855398+05:30
Muzaffarpur,Bihar,26.1209,85.3647,18.7,83,0.0,1002.6,7.15,14.0,172,162.5,132.7,3,10,4,0,2026-03-05T04:05:54.855405+05:30
Bhagalpur,Bihar,25.2425,87.0117,18.9,79,0.0,1003.3,7.25,11.9,163,135.0,106.4,3,5,4,0,2026-03-05T04:05:54.855412+05:30
Ranchi,Jharkhand,23.3441,85.3096,17.8,56,0.0,938.4,7.95,18.4,100,145.3,48.9,0,5,7,0,2026-03-05T04:05:54.855419+05:30
Jamshedpur,Jharkhand,22.8046,86.2029,19.9,72,0.0,992.6,7.85,9.0,150,117.1,83.8,3,5,7,0,2026-03-05T04:05:54.855426+05:30
Dhanbad,Jharkhand,23.7957,86.4304,18.9,70,0.0,981.5,7.75,14.8,153,112.7,84.5,3,5,7,0,2026-03-05T04:05:54.855433+05:30
Bokaro,Jharkhand,23.6693,86.1511,19.2,62,0.0,985.8,7.75,11.5,154,131.8,91.3,3,5,7,0,2026-03-05T04:05:54.855440+05:30
Bhubaneswar,Odisha,20.2961,85.8245,22.6,98,0.0,1003.4,8.15,32.8,153,76.4,69.6,3,5,4,1,2026-03-05T04:05:54.855447+05:30
Cuttack,Odisha,20.4625,85.8828,22.1,97,0.0,1005.6,8.2,28.1,153,76.4,69.6,3,5,4,1,2026-03-05T04:05:54.855454+05:30
Rourkela,Odisha,22.2604,84.8536,20.4,66,0.0,986.6,7.75,20.5,97,68.0,38.1,3,5,7,0,2026-03-05T04:05:54.855460+05:30
Raipur,Chhattisgarh,21.2514,81.6296,21.7,47,0.0,976.1,7.85,25.9,121,65.2,59.5,0,5,7,0,2026-03-05T04:05:54.855467+05:30
Bhilai,Chhattisgarh,21.1938,81.3509,20.7,51,0.0,976.4,7.85,26.6,106,44.1,39.6,0,5,7,0,2026-03-05T04:05:54.855474+05:30
Guwahati,Assam,26.1158,91.7086,20.2,84,0.0,1003.4,7.15,17.6,149,68.2,62.6,3,5,4,1,2026-03-05T04:05:54.855481+05:30
Agartala,Tripura,23.8315,91.2868,17.1,92,0.0,1007.7,7.55,15.1,159,76.4,60.5,3,10,4,0,2026-03-05T04:05:54.855487+05:30
Shillong,Meghalaya,25.5788,91.8933,11.2,69,0.0,855.0,7.55,16.2,125,45.4,39.6,3,5,7,0,2026-03-05T04:05:54.855494+05:30
Imphal,Manipur,24.817,93.9368,13.3,87,0.0,923.4,7.75,23.0,144,80.8,73.3,3,10,7,0,2026-03-05T04:05:54.855501+05:30
Aizawl,Mizoram,23.7271,92.7176,13.8,74,0.0,891.5,7.75,24.5,160,95.0,86.6,3,5,7,0,2026-03-05T04:05:54.855509+05:30
Kohima,Nagaland,25.6701,94.1077,12.1,75,0.0,854.1,7.6,38.9,151,70.5,63.8,3,5,7,0,2026-03-05T04:05:54.855515+05:30
Gangtok,Sikkim,27.3314,88.6138,10.5,95,0.0,835.9,7.5,23.4,122,38.9,34.0,3,10,7,0,2026-03-05T04:05:54.855522+05:30
Siliguri,West Bengal,26.7271,88.3953,19.8,70,0.0,995.7,7.15,23.4,154,62.6,58.9,3,5,7,0,2026-03-05T04:05:58.560120+05:30
Durgapur,West Bengal,23.5204,87.3119,20.6,65,0.0,996.9,7.7,18.4,151,119.7,92.0,3,5,7,0,2026-03-05T04:05:58.560151+05:30
Asansol,West Bengal,23.6739,86.9524,20.9,64,0.0,995.4,7.7,18.7,128,92.9,68.0,3,5,7,0,2026-03-05T04:05:58.560161+05:30
Pondicherry,Puducherry,11.9139,79.8145,21.7,100,0.0,1010.0,8.85,27.4,83,32.0,27.8,3,0,4,1,2026-03-05T04:05:58.560170+05:30
Port Blair,Andaman and Nicobar Islands,11.6234,92.7265,26.5,76,0.0,1007.1,8.8,24.1,94,25.6,21.5,7,5,4,1,2026-03-05T04:05:58.560178+05:30
Haridwar,Uttarakhand,29.9457,78.1642,17.4,87,0.0,975.5,5.65,23.8,131,71.7,61.0,3,10,3,0,2026-03-05T04:05:58.560186+05:30
Rishikesh,Uttarakhand,30.0869,78.2676,17.4,75,0.0,968.1,5.7,23.4,103,45.6,41.8,3,5,3,0,2026-03-05T04:05:58.560194+05:30
Nainital,Uttarakhand,29.3919,79.4542,14.9,68,0.0,805.0,6.5,55.4,150,80.3,63.1,3,5,7,0,2026-03-05T04:05:58.560201+05:30
Mussoorie,Uttarakhand,30.4599,78.0664,15.4,38,0.0,802.1,6.05,43.6,98,41.0,35.9,0,5,7,0,2026-03-05T04:05:58.560208+05:30
Dharamshala,Himachal Pradesh,32.219,76.3234,21.7,29,0.0,871.0,6.3,26.6,49,25.3,10.0,0,5,7,0,2026-03-05T04:05:58.560216+05:30
Dalhousie,Himachal Pradesh,32.5387,75.971,17.3,25,0.0,805.1,6.5,23.8,82,30.4,25.1,0,5,7,1,2026-03-05T04:05:58.560224+05:30
Patiala,Punjab,30.3398,76.3869,19.3,86,0.0,980.0,5.7,28.1,201,417.2,88.5,3,10,3,1,2026-03-05T04:05:58.560231+05:30
Bhatinda,Punjab,30.211,74.9455,18.8,82,0.0,986.3,6.35,28.1,149,72.4,51.7,3,10,7,0,2026-03-05T04:05:58.560239+05:30
Rohtak,Haryana,28.8955,76.6066,18.2,83,0.0,983.9,5.85,32.0,426,542.0,93.1,3,10,3,0,2026-03-05T04:05:58.560247+05:30
Panipat,Haryana,29.3909,76.9635,19.0,88,0.0,982.1,5.65,30.6,1005,1240.5,162.5,3,10,3,1,2026-03-05T04:05:58.560254+05:30
Mathura,Uttar Pradesh,27.4924,77.6737,20.3,57,0.0,988.5,6.15,32.0,507,607.2,98.5,0,5,7,0,2026-03-05T04:05:58.560261+05:30
Vrindavan,Uttar Pradesh,27.5823,77.7027,17.6,75,0.0,989.0,6.1,33.8,507,607.2,98.5,3,5,7,0,2026-03-05T04:05:58.560268+05:30
Ayodhya,Uttar Pradesh,26.7922,82.1998,18.7,85,0.0,997.3,6.55,11.5,172,233.3,137.4,3,10,7,1,2026-03-05T04:05:58.560275+05:30
Ratlam,Madhya Pradesh,23.3315,75.0367,16.6,85,0.0,956.5,7.35,20.5,100,53.3,46.6,3,10,7,0,2026-03-05T04:05:58.560282+05:30
Sagar,Madhya Pradesh,23.8388,78.7378,17.5,57,0.0,951.6,7.3,31.3,52,15.6,13.6,0,5,7,0,2026-03-05T04:05:58.560289+05:30
Satna,Madhya Pradesh,24.6005,80.8322,18.1,62,0.0,972.9,7.3,40.0,65,20.7,16.5,3,5,7,0,2026-03-05T04:05:58.560296+05:30
Akola,Maharashtra,20.7002,77.0082,20.2,62,0.0,976.9,7.8,24.5,78,31.9,28.4,3,5,7,0,2026-03-05T04:05:58.560304+05:30
Amravati,Maharashtra,20.9374,77.7796,19.3,60,0.0,968.8,7.75,16.9,74,30.4,27.0,0,5,7,0,2026-03-05T04:05:58.560311+05:30
Latur,Maharashtra,18.4088,76.5604,21.8,53,0.0,940.6,8.25,33.5,86,53.7,50.4,0,5,7,0,2026-03-05T04:05:58.560319+05:30
Nanded,Maharashtra,19.1383,77.3091,21.7,63,0.0,970.0,8.05,25.2,83,55.2,52.5,3,5,7,0,2026-03-05T04:05:58.560326+05:30
Gulbarga,Karnataka,17.3297,76.8343,22.9,52,0.0,959.6,8.35,20.9,76,31.2,28.3,0,5,7,0,2026-03-05T04:05:58.560332+05:30
Bidar,Karnataka,17.9104,77.5199,21.6,61,0.0,936.1,8.3,25.2,91,51.3,47.0,3,5,7,0,2026-03-05T04:05:58.560339+05:30
Hospet,Karnataka,15.2689,76.3909,25.1,53,0.0,956.1,8.7,20.9,96,23.9,22.9,4,5,7,0,2026-03-05T04:05:58.560346+05:30
Tirupur,Tamil Nadu,11.1085,77.3411,22.7,71,0.0,976.4,9.15,29.2,103,39.7,39.3,3,5,7,1,2026-03-05T04:05:58.560353+05:30
Alappuzha,Kerala,9.4981,76.3388,26.8,81,0.0,1009.5,8.95,34.2,110,46.1,43.7,7,0,4,1,2026-03-05T04:05:58.560361+05:30
Munnar,Kerala,10.0889,77.0595,15.9,73,0.0,854.9,9.45,26.3,76,26.7,26.4,3,5,7,0,2026-03-05T04:05:58.560369+05:30
Silchar,Assam,24.8333,92.7789,19.2,82,0.0,1006.8,7.5,13.3,151,68.9,60.1,3,10,4,0,2026-03-05T04:05:58.560376+05:30
Dibrugarh,Assam,27.4728,94.912,19.5,92,0.0,998.0,7.2,9.0,130,41.8,37.8,3,10,7,1,2026-03-05T04:05:58.560383+05:30
