city,state,latitude,longitude,temp,humidity,rain,pressure,uv_index,wind_gusts,aqi,pm10,pm2_5,mosquito_risk,arthritis_risk,migraine_risk,frizz_risk,updated_at
Delhi,Delhi,28.6139,77.209,20.2,64,0.0,987.0,5.8,36.7,343,471.2,98.5,3,5,3,0,2026-03-03T23:16:46.721961+05:30
Mumbai,Maharashtra,19.076,72.8777,28.4,62,0.0,1010.9,7.35,25.9,145,43.1,41.8,7,0,4,1,2026-03-03T23:16:46.722000+05:30
Bangalore,Karnataka,12.9716,77.5946,22.8,51,0.0,914.3,9.1,36.0,101,31.4,30.7,0,5,7,0,2026-03-03T23:16:46.722015+05:30
Hyderabad,Telangana,17.385,78.4867,24.8,58,0.0,956.4,8.35,23.4,127,45.1,44.2,0,5,7,0,2026-03-03T23:16:46.722026+05:30
Chennai,Tamil Nadu,13.0827,80.2707,25.3,82,0.0,1011.5,8.8,30.2,107,33.3,29.5,7,0,4,1,2026-03-03T23:16:46.722035+05:30
Kolkata,West Bengal,22.5726,88.3639,23.9,55,0.0,1009.5,7.7,16.2,168,121.5,92.0,0,0,4,0,2026-03-03T23:16:46.722043+05:30
Pune,Maharashtra,18.5204,73.8567,25.8,59,0.0,951.3,7.9,32.8,106,33.5,33.1,4,5,7,1,2026-03-03T23:16:46.722056+05:30
Ahmedabad,Gujarat,23.0225,72.5714,25.8,48,0.0,1006.2,7.15,15.5,94,53.6,44.1,4,5,4,0,2026-03-03T23:16:46.722063+05:30
Jaipur,Rajasthan,26.9124,75.7873,25.4,26,0.0,964.4,6.55,29.9,104,82.4,47.7,4,5,7,0,2026-03-03T23:16:46.722071+05:30
Lucknow,Uttar Pradesh,26.8467,80.9462,21.7,60,0.0,998.0,6.3,35.6,153,301.7,69.8,0,5,7,0,2026-03-03T23:16:46.722078+05:30
Kanpur,Uttar Pradesh,26.4499,80.3319,19.4,75,0.0,996.0,6.3,28.4,184,343.7,68.9,3,5,7,0,2026-03-03T23:16:46.722085+05:30
Chandigarh,Chandigarh,30.7333,76.7794,19.8,62,0.0,972.4,5.7,33.5,115,37.7,36.2,3,5,3,0,2026-03-03T23:16:46.722092+05:30
Srinagar,Jammu and Kashmir,34.0837,74.7973,6.9,73,0.0,841.3,6.6,16.2,138,104.8,93.8,3,5,7,0,2026-03-03T23:16:46.722098+05:30
Jammu,Jammu and Kashmir,32.7266,74.857,18.2,76,0.0,976.2,6.3,20.9,108,73.1,61.2,3,5,7,0,2026-03-03T23:16:46.722105+05:30
Amritsar,Punjab,31.634,74.8723,19.8,58,0.0,984.5,6.25,25.9,93,73.8,62.6,0,5,7,0,2026-03-03T23:16:46.722111+05:30
Ludhiana,Punjab,30.901,75.8573,20.8,61,0.0,982.8,5.9,29.9,140,89.9,74.7,3,5,3,0,2026-03-03T23:16:46.722118+05:30
Jalandhar,Punjab,31.326,75.5762,19.6,65,0.0,983.8,6.05,25.9,138,82.9,72.9,3,5,7,0,2026-03-03T23:16:46.722126+05:30
Dehradun,Uttarakhand,30.6284,78.0322,12.3,88,0.0,830.9,6.05,31.0,89,33.2,30.5,3,10,7,0,2026-03-03T23:16:46.722134+05:30
Shimla,Himachal Pradesh,31.1048,77.1734,11.2,61,0.0,785.1,6.1,44.6,95,38.5,32.0,3,5,7,0,2026-03-03T23:16:46.722140+05:30
Manali,Himachal Pradesh,32.2396,77.1887,16.7,19,0.0,822.4,7.7,34.6,75,20.0,16.4,0,5,7,1,2026-03-03T23:16:46.722147+05:30
Gurgaon,Haryana,28.4595,77.0266,17.6,72,0.0,985.4,5.9,33.8,1197,1065.4,148.5,3,5,3,0,2026-03-03T23:16:46.722156+05:30
Noida,Uttar Pradesh,28.5355,77.391,20.5,62,0.0,988.6,5.8,36.4,1197,1065.4,148.5,3,5,3,0,2026-03-03T23:16:46.722162+05:30
Ghaziabad,Uttar Pradesh,28.6692,77.4538,20.5,65,0.0,986.7,5.75,36.0,258,474.0,102.4,3,5,3,0,2026-03-03T23:16:46.722169+05:30
Faridabad,Haryana,28.4089,77.3178,21.4,50,0.0,987.8,5.85,32.8,1197,1065.4,148.5,0,5,3,0,2026-03-03T23:16:46.722175+05:30
Meerut,Uttar Pradesh,28.9845,77.7064,18.6,74,0.0,985.3,5.65,41.4,258,474.0,102.4,3,5,3,0,2026-03-03T23:16:46.722181+05:30
Agra,Uttar Pradesh,27.1767,78.0081,19.0,59,0.0,992.0,6.15,30.6,455,453.6,77.3,0,5,7,0,2026-03-03T23:16:46.722187+05:30
Varanasi,Uttar Pradesh,25.3176,82.9739,22.0,56,0.0,1002.0,6.95,23.0,120,106.9,80.8,0,5,4,0,2026-03-03T23:16:46.722196+05:30
Prayagraj,Uttar Pradesh,25.4358,81.8463,21.6,61,0.0,1000.6,6.8,23.0,129,115.0,71.5,3,5,4,0,2026-03-03T23:16:46.722203+05:30
Gorakhpur,Uttar Pradesh,26.7606,83.3732,21.4,62,0.0,1001.5,6.65,16.9,151,144.8,113.4,3,5,4,0,2026-03-03T23:16:46.722212+05:30
Bareilly,Uttar Pradesh,28.367,79.4304,18.5,83,0.0,991.0,6.0,28.8,151,463.8,112.9,3,10,3,0,2026-03-03T23:16:46.722219+05:30
Aligarh,Uttar Pradesh,27.8974,78.088,18.5,64,0.0,989.6,5.9,34.9,685,717.1,125.3,3,5,3,0,2026-03-03T23:16:46.722226+05:30
Moradabad,Uttar Pradesh,28.8386,78.7733,19.3,70,0.0,987.6,5.8,28.8,149,326.0,89.2,3,5,3,0,2026-03-03T23:16:46.722232+05:30
Saharanpur,Uttar Pradesh,29.9637,77.546,18.2,74,0.0,979.3,5.45,43.2,139,146.2,65.0,3,5,3,0,2026-03-03T23:16:46.722238+05:30
Jhansi,Uttar Pradesh,25.4484,78.5685,23.0,51,0.0,982.6,6.7,26.6,79,44.4,31.7,0,5,7,0,2026-03-03T23:16:50.063945+05:30
Surat,Gujarat,21.1702,72.8311,26.1,55,0.0,1009.8,7.05,27.0,159,62.4,60.3,4,0,4,1,2026-03-03T23:16:50.063973+05:30
Vadodara,Gujarat,22.3072,73.1812,26.1,54,0.0,1008.1,7.15,13.3,152,72.4,68.7,4,0,4,0,2026-03-03T23:16:50.063982+05:30
Rajkot,Gujarat,22.3039,70.8022,25.5,33,0.0,998.8,7.0,17.6,74,28.6,24.4,4,5,7,0,2026-03-03T23:16:50.063990+05:30
Thane,Maharashtra,19.2183,72.9781,27.6,46,0.0,1010.5,7.35,36.7,145,43.1,41.8,4,0,4,0,2026-03-03T23:16:50.063997+05:30
Nagpur,Maharashtra,21.1458,79.0882,24.5,58,0.0,977.1,7.7,17.6,70,29.2,24.9,0,5,7,0,2026-03-03T23:16:50.064004+05:30
Nashik,Maharashtra,19.9975,73.7898,25.0,44,0.0,949.0,7.55,28.8,111,35.2,34.6,4,5,7,0,2026-03-03T23:16:50.064011+05:30
Aurangabad,Maharashtra,19.8762,75.3433,25.2,45,0.0,947.3,8.05,25.2,104,34.8,33.9,4,5,7,0,2026-03-03T23:16:50.064018+05:30
Solapur,Maharashtra,17.6599,75.9064,25.6,61,0.0,959.6,8.25,18.0,124,26.6,26.1,7,5,7,1,2026-03-03T23:16:50.064025+05:30
Kolhapur,Maharashtra,16.705,74.2433,23.1,80,0.0,950.5,8.4,39.2,146,96.2,95.7,3,5,7,1,2026-03-03T23:16:50.064033+05:30
Goa,Goa,15.2993,74.124,27.2,84,0.0,1000.9,8.45,34.2,78,38.4,33.1,7,5,4,1,2026-03-03T23:16:50.064039+05:30
Jodhpur,Rajasthan,26.2389,73.0243,27.1,39,0.0,987.5,6.85,15.8,71,69.2,34.7,4,5,7,0,2026-03-03T23:16:50.064046+05:30
Udaipur,Rajasthan,24.5854,73.7125,20.5,51,0.0,951.0,7.45,18.4,72,41.4,24.1,0,5,7,0,2026-03-03T23:16:50.064053+05:30
Kota,Rajasthan,25.2138,75.8648,23.9,52,0.0,983.3,6.85,19.4,87,59.8,43.1,0,5,7,0,2026-03-03T23:16:50.064060+05:30
Bikaner,Rajasthan,28.0229,73.3119,24.7,40,0.0,986.3,6.55,21.6,67,42.0,20.3,0,5,7,0,2026-03-03T23:16:50.064066+05:30
Ajmer,Rajasthan,26.4499,74.6399,24.8,24,0.0,958.9,6.8,25.9,74,55.6,35.6,0,5,7,0,2026-03-03T23:16:50.064073+05:30
Gwalior,Madhya Pradesh,26.2183,78.1828,21.6,62,0.0,987.7,6.45,29.5,123,82.9,43.5,3,5,7,0,2026-03-03T23:16:50.064080+05:30
Indore,Madhya Pradesh,22.7196,75.8577,23.0,53,0.0,951.9,7.4,16.9,90,38.0,34.3,0,5,7,0,2026-03-03T23:16:50.064086+05:30
Bhopal,Madhya Pradesh,23.2599,77.4126,23.0,51,0.0,957.8,7.3,22.3,79,45.9,34.9,0,5,7,0,2026-03-03T23:16:50.064093+05:30
Jabalpur,Madhya Pradesh,23.1815,79.9864,23.2,50,0.0,965.5,7.4,17.6,75,44.5,30.6,0,5,7,0,2026-03-03T23:16:50.064100+05:30
Ujjain,Madhya Pradesh,23.1765,75.7885,23.4,52,0.0,957.7,7.3,15.5,109,54.4,50.6,0,5,7,0,2026-03-03T23:16:50.064107+05:30
Visakhapatnam,Andhra Pradesh,17.6868,83.2185,25.0,91,0.0,1007.9,8.35,34.2,131,52.2,46.6,7,5,4,1,2026-03-03T23:16:50.064114+05:30
Vijayawada,Andhra Pradesh,16.5062,80.648,24.8,79,0.0,1006.4,8.4,26.6,139,34.8,32.1,3,5,4,1,2026-03-03T23:16:50.064121+05:30
Guntur,Andhra Pradesh,16.3067,80.4365,24.5,80,0.0,1007.6,8.4,25.9,130,34.2,31.7,3,5,4,1,2026-03-03T23:16:50.064127+05:30
Nellore,Andhra Pradesh,14.4426,79.9865,24.4,87,0.0,1009.9,8.6,29.2,102,29.3,26.7,3,0,4,1,2026-03-03T23:16:50.064134+05:30
Kurnool,Andhra Pradesh,15.8281,78.0373,28.6,44,0.0,980.0,8.45,29.2,112,31.3,31.0,4,5,7,0,2026-03-03T23:16:50.064141+05:30
Kakinada,Andhra Pradesh,16.9891,82.2475,23.9,89,0.0,1011.7,8.35,34.9,122,39.2,32.7,3,0,4,1,2026-03-03T23:16:50.064148+05:30
Tirupati,Andhra Pradesh,13.6288,79.4192,24.4,54,0.0,995.9,8.75,37.1,149,56.1,54.4,0,5,7,0,2026-03-03T23:16:50.064154+05:30
Warangal,Telangana,17.9689,79.5941,28.2,44,0.0,981.7,8.2,14.0,131,45.6,44.8,4,5,7,0,2026-03-03T23:16:50.064161+05:30
Nizamabad,Telangana,18.6725,78.0941,24.3,61,0.0,967.7,8.1,24.5,94,30.7,28.6,3,5,7,1,2026-03-03T23:16:50.064168+05:30
Mysore,Karnataka,12.2958,76.6396,24.0,51,0.0,930.7,9.15,32.8,120,32.0,31.4,0,5,7,0,2026-03-03T23:16:50.064174+05:30
Mangalore,Karnataka,12.9141,74.856,28.5,80,0.0,1009.6,8.7,29.2,65,29.4,23.0,7,0,4,1,2026-03-03T23:16:50.064180+05:30
Hubli-Dharwad,Karnataka,15.3647,75.124,24.5,83,0.0,943.3,8.6,25.6,141,34.5,34.0,3,5,7,1,2026-03-03T23:16:50.064187+05:30
Belgaum,Karnataka,15.8497,74.4977,22.8,86,0.0,928.1,8.65,32.0,140,56.7,55.5,3,5,7,1,2026-03-03T23:16:53.399711+05:30
Coimbatore,Tamil Nadu,11.0168,76.9558,23.2,72,0.0,964.7,9.15,43.6,121,39.5,38.8,3,5,7,1,2026-03-03T23:16:53.399744+05:30
Madurai,Tamil Nadu,9.9252,78.1198,24.4,72,0.0,996.7,9.1,33.8,105,34.7,34.0,3,5,7,1,2026-03-03T23:16:53.399757+05:30
Trichy,Tamil Nadu,10.7905,78.7047,24.3,84,0.0,1003.5,9.0,31.0,100,32.5,31.3,3,5,4,1,2026-03-03T23:16:53.399767+05:30
Salem,Tamil Nadu,11.6643,78.146,26.0,61,0.0,980.3,9.0,40.7,129,46.6,45.5,7,5,7,1,2026-03-03T23:16:53.399776+05:30
Tirunelveli,Tamil Nadu,8.7139,77.7567,24.0,80,0.0,1006.8,9.1,42.1,95,24.8,24.0,3,5,4,1,2026-03-03T23:16:53.399785+05:30
Vellore,Tamil Nadu,12.9165,79.1325,23.3,78,0.0,988.8,8.85,38.5,137,53.2,51.7,3,5,7,1,2026-03-03T23:16:53.399792+05:30
Erode,Tamil Nadu,11.341,77.7172,25.8,58,0.0,992.2,9.05,33.5,117,36.7,36.1,4,5,7,1,2026-03-03T23:16:53.399799+05:30
Kochi,Kerala,9.9312,76.2673,27.1,83,0.0,1011.7,8.95,33.1,102,33.2,32.0,7,0,4,1,2026-03-03T23:16:53.399806+05:30
Thiruvananthapuram,Kerala,8.5241,76.9366,28.2,71,0.0,1010.8,8.95,27.0,132,33.8,31.2,7,0,4,1,2026-03-03T23:16:53.399813+05:30
Kozhikode,Kerala,11.2588,75.7804,28.3,80,0.0,1010.5,8.85,36.4,65,28.8,20.9,7,0,4,1,2026-03-03T23:16:53.399820+05:30
Thrissur,Kerala,10.5276,76.2144,26.4,87,0.0,1009.9,8.9,38.9,103,36.9,34.1,7,0,4,1,2026-03-03T23:16:53.399827+05:30
Kannur,Kerala,11.8745,75.3704,27.8,80,0.0,1009.8,8.8,38.2,64,25.4,19.4,7,0,4,1,2026-03-03T23:16:53.399834+05:30
Patna,Bihar,25.5941,85.1376,22.9,55,0.0,1005.0,7.1,16.9,149,97.6,71.2,0,5,4,0,2026-03-03T23:16:53.399841+05:30
Gaya,Bihar,24.7914,85.0002,19.6,54,0.0,998.4,7.2,23.0,106,107.1,65.7,0,5,7,0,2026-03-03T23:16:53.399847+05:30
Muzaffarpur,Bihar,26.1209,85.3647,21.7,55,0.0,1005.1,7.05,10.4,155,117.1,85.7,0,5,4,0,2026-03-03T23:16:53.399853+05:30
Bhagalpur,Bihar,25.2425,87.0117,20.6,60,0.0,1005.9,7.15,13.0,137,127.1,89.4,0,5,4,0,2026-03-03T23:16:53.399859+05:30
Ranchi,Jharkhand,23.3441,85.3096,18.9,53,0.0,941.2,7.9,40.7,92,63.1,35.0,0,5,7,0,2026-03-03T23:16:53.399865+05:30
Jamshedpur,Jharkhand,22.8046,86.2029,21.9,55,0.0,994.7,7.75,14.4,101,67.3,42.8,0,5,7,0,2026-03-03T23:16:53.399871+05:30
Dhanbad,Jharkhand,23.7957,86.4304,22.4,35,0.0,984.0,7.65,27.7,108,63.3,42.8,0,5,7,0,2026-03-03T23:16:53.399877+05:30
Bokaro,Jharkhand,23.6693,86.1511,21.2,40,0.0,988.4,7.65,32.8,112,68.9,46.3,0,5,7,0,2026-03-03T23:16:53.399883+05:30
Bhubaneswar,Odisha,20.2961,85.8245,24.6,95,0.0,1006.6,8.1,25.2,148,48.2,41.9,3,5,4,1,2026-03-03T23:16:53.399889+05:30
Cuttack,Odisha,20.4625,85.8828,24.4,87,0.0,1008.4,8.1,26.3,148,48.2,41.9,3,0,4,1,2026-03-03T23:16:53.399895+05:30
Rourkela,Odisha,22.2604,84.8536,23.6,49,0.0,988.7,7.7,27.4,88,72.9,47.4,0,5,7,0,2026-03-03T23:16:53.399900+05:30
Raipur,Chhattisgarh,21.2514,81.6296,25.0,40,0.0,978.2,7.8,14.4,129,70.3,60.3,4,5,7,0,2026-03-03T23:16:53.399906+05:30
Bhilai,Chhattisgarh,21.1938,81.3509,24.1,45,0.0,978.7,7.8,13.7,125,68.9,60.5,0,5,7,0,2026-03-03T23:16:53.399912+05:30
Guwahati,Assam,26.1158,91.7086,23.1,68,0.0,1005.6,7.1,22.0,155,97.8,86.1,3,5,4,1,2026-03-03T23:16:53.399917+05:30
Agartala,Tripura,23.8315,91.2868,21.0,79,0.0,1010.0,7.45,15.8,173,106.6,95.9,3,0,4,1,2026-03-03T23:16:53.399924+05:30
Shillong,Meghalaya,25.5788,91.8933,10.6,82,0.0,857.0,7.45,28.4,154,94.5,81.7,3,10,7,0,2026-03-03T23:16:53.399932+05:30
Imphal,Manipur,24.817,93.9368,14.2,78,0.0,925.3,7.65,32.8,157,86.8,78.2,3,5,7,0,2026-03-03T23:16:53.399941+05:30
Aizawl,Mizoram,23.7271,92.7176,15.9,65,0.0,894.0,7.65,32.8,159,76.4,65.0,3,5,7,0,2026-03-03T23:16:53.399947+05:30
Kohima,Nagaland,25.6701,94.1077,12.2,75,0.0,855.9,6.65,45.0,152,88.5,74.3,3,5,7,0,2026-03-03T23:16:53.399953+05:30
Gangtok,Sikkim,27.3314,88.6138,11.0,93,0.0,838.4,7.4,19.4,154,98.3,74.3,3,10,7,0,2026-03-03T23:16:53.399959+05:30
Siliguri,West Bengal,26.7271,88.3953,19.2,67,0.0,998.4,7.1,20.2,164,122.9,88.2,3,5,7,0,2026-03-03T23:16:56.747717+05:30
Durgapur,West Bengal,23.5204,87.3119,24.1,50,0.0,999.4,7.65,26.6,89,60.1,34.7,0,5,7,0,2026-03-03T23:16:56.747754+05:30
Asansol,West Bengal,23.6739,86.9524,23.9,51,0.0,998.0,7.65,22.7,87,52.0,30.5,0,5,7,0,2026-03-03T23:16:56.747766+05:30
Pondicherry,Puducherry,11.9139,79.8145,23.1,90,0.0,1012.4,8.85,28.1,101,28.9,25.3,3,0,4,1,2026-03-03T23:16:56.747776+05:30
Port Blair,Andaman and Nicobar Islands,11.6234,92.7265,27.5,73,0.0,1010.0,8.8,15.5,81,33.6,24.9,7,0,4,1,2026-03-03T23:16:56.747785+05:30
Haridwar,Uttarakhand,29.9457,78.1642,18.4,68,0.0,977.8,5.55,22.3,119,110.6,68.2,3,5,3,0,2026-03-03T23:16:56.747793+05:30
Rishikesh,Uttarakhand,30.0869,78.2676,18.3,73,0.0,970.6,5.6,23.8,145,65.0,49.1,3,5,3,0,2026-03-03T23:16:56.747801+05:30
Nainital,Uttarakhand,29.3919,79.4542,15.3,60,0.0,807.5,6.4,54.7,142,71.5,59.6,0,5,7,0,2026-03-03T23:16:56.747809+05:30
Mussoorie,Uttarakhand,30.4599,78.0664,14.2,76,0.0,803.9,5.95,41.8,137,65.9,50.8,3,5,3,0,2026-03-03T23:16:56.747816+05:30
Dharamshala,Himachal Pradesh,32.219,76.3234,19.6,34,0.0,871.9,6.2,23.4,101,23.5,18.7,0,5,7,0,2026-03-03T23:16:56.747823+05:30
Dalhousie,Himachal Pradesh,32.5387,75.971,15.2,49,0.0,805.4,6.4,19.8,88,55.6,51.1,0,5,7,0,2026-03-03T23:16:56.747832+05:30
Patiala,Punjab,30.3398,76.3869,18.4,73,0.0,982.1,5.6,34.2,255,242.1,74.0,3,5,3,0,2026-03-03T23:16:56.747839+05:30
Bhatinda,Punjab,30.211,74.9455,20.3,72,0.0,987.6,6.25,28.1,138,85.9,63.3,3,5,7,0,2026-03-03T23:16:56.747846+05:30
Rohtak,Haryana,28.8955,76.6066,18.8,71,0.0,985.8,5.8,33.8,473,488.0,94.1,3,5,3,0,2026-03-03T23:16:56.747853+05:30
Panipat,Haryana,29.3909,76.9635,18.2,77,0.0,984.2,5.6,37.4,1076,907.1,138.8,3,5,3,0,2026-03-03T23:16:56.747861+05:30
Mathura,Uttar Pradesh,27.4924,77.6737,24.0,39,0.0,991.1,6.1,29.9,494,470.3,80.6,0,5,7,0,2026-03-03T23:16:56.747869+05:30
Vrindavan,Uttar Pradesh,27.5823,77.7027,19.4,59,0.0,991.4,6.05,32.4,494,470.3,80.6,0,5,7,0,2026-03-03T23:16:56.747876+05:30
Ayodhya,Uttar Pradesh,26.7922,82.1998,20.8,72,0.0,999.6,6.45,25.6,150,119.2,76.1,3,5,7,0,2026-03-03T23:16:56.747884+05:30
Ratlam,Madhya Pradesh,23.3315,75.0367,20.8,76,0.0,958.0,7.25,13.0,93,46.2,41.9,3,5,7,1,2026-03-03T23:16:56.747891+05:30
Sagar,Madhya Pradesh,23.8388,78.7378,24.1,47,0.0,954.3,7.2,25.6,78,43.8,28.9,0,5,7,0,2026-03-03T23:16:56.747898+05:30
Satna,Madhya Pradesh,24.6005,80.8322,22.4,49,0.0,975.6,7.2,30.2,77,40.5,23.7,0,5,7,0,2026-03-03T23:16:56.747906+05:30
Akola,Maharashtra,20.7002,77.0082,25.6,47,0.0,978.4,7.75,19.1,80,36.4,33.6,4,5,7,0,2026-03-03T23:16:56.747914+05:30
Amravati,Maharashtra,20.9374,77.7796,24.9,56,0.0,970.7,7.75,16.6,83,36.4,32.7,0,5,7,0,2026-03-03T23:16:56.747922+05:30
Latur,Maharashtra,18.4088,76.5604,25.0,55,0.0,942.8,8.2,31.0,115,31.5,30.0,4,5,7,0,2026-03-03T23:16:56.747929+05:30
Nanded,Maharashtra,19.1383,77.3091,27.8,46,0.0,971.8,8.0,19.4,89,31.3,29.5,4,5,7,0,2026-03-03T23:16:56.747936+05:30
Gulbarga,Karnataka,17.3297,76.8343,26.9,47,0.0,961.5,8.3,17.3,121,27.5,27.2,4,5,7,0,2026-03-03T23:16:56.747943+05:30
Bidar,Karnataka,17.9104,77.5199,24.8,48,0.0,938.3,8.25,19.8,97,37.1,35.4,0,5,7,0,2026-03-03T23:16:56.747950+05:30
Hospet,Karnataka,15.2689,76.3909,29.1,44,0.0,958.4,8.6,25.6,129,44.5,43.8,4,5,7,0,2026-03-03T23:16:56.747957+05:30
Tirupur,Tamil Nadu,11.1085,77.3411,26.5,48,0.0,978.3,9.15,33.8,127,39.9,39.2,4,5,7,0,2026-03-03T23:16:56.747964+05:30
Alappuzha,Kerala,9.4981,76.3388,27.3,80,0.0,1011.9,8.95,30.6,92,40.4,38.0,7,0,4,1,2026-03-03T23:16:56.747971+05:30
Munnar,Kerala,10.0889,77.0595,19.2,60,0.0,858.0,9.45,20.9,101,40.6,39.6,0,5,7,0,2026-03-03T23:16:56.747979+05:30
Silchar,Assam,24.8333,92.7789,21.8,74,0.0,1008.6,7.4,20.2,161,104.5,89.4,3,0,4,1,2026-03-03T23:16:56.747987+05:30
Dibrugarh,Assam,27.4728,94.912,22.1,82,0.0,999.5,7.1,11.2,141,72.2,59.5,3,5,7,1,2026-03-03T23:16:56.747994+05:30
