city,state,latitude,longitude,temp,humidity,rain,pressure,uv_index,wind_gusts,aqi,pm10,pm2_5,no2,co,o3,so2,mosquito_risk,arthritis_risk,migraine_risk,frizz_risk,updated_at
Delhi,Delhi,28.6139,77.209,33.8,34,0.0,977.8,7.7,25.2,228,229.1,97.1,41.2,771.0,128.0,40.0,0,5,7,0,2026-05-14T20:51:48.227811+05:30
Mumbai,Maharashtra,19.076,72.8777,29.9,77,0.0,1004.3,7.9,45.4,77,23.2,15.7,9.8,263.0,68.0,6.2,7,5,4,1,2026-05-14T20:51:48.227858+05:30
Bangalore,Karnataka,12.9716,77.5946,29.7,38,0.0,909.3,7.95,39.6,92,47.5,32.6,52.9,529.0,44.0,12.4,4,5,7,0,2026-05-14T20:51:48.227876+05:30
Hyderabad,Telangana,17.385,78.4867,33.5,42,0.0,949.6,8.3,22.0,142,75.7,50.3,32.5,494.0,86.0,11.0,0,5,7,1,2026-05-14T20:51:48.227887+05:30
Chennai,Tamil Nadu,13.0827,80.2707,30.5,71,0.0,1003.3,8.4,42.1,28,9.5,6.1,5.7,157.0,41.0,5.8,3,5,4,1,2026-05-14T20:51:48.227902+05:30
Kolkata,West Bengal,22.5726,88.3639,28.6,77,0.0,1002.3,8.95,38.2,53,15.1,12.2,8.0,247.0,33.0,5.7,7,5,4,1,2026-05-14T20:51:48.227913+05:30
Pune,Maharashtra,18.5204,73.8567,29.4,62,0.0,944.5,5.95,45.4,138,28.9,21.7,11.5,255.0,134.0,19.2,7,5,3,1,2026-05-14T20:51:48.227921+05:30
Ahmedabad,Gujarat,23.0225,72.5714,38.7,19,0.0,995.5,8.15,41.4,59,24.1,13.0,6.8,215.0,86.0,3.7,0,5,10,0,2026-05-14T20:51:48.227933+05:30
Jaipur,Rajasthan,26.9124,75.7873,35.0,23,0.0,954.6,8.25,34.2,125,122.9,46.3,34.7,641.0,65.0,12.4,0,5,7,0,2026-05-14T20:51:48.227941+05:30
Lucknow,Uttar Pradesh,26.8467,80.9462,31.8,55,0.0,987.7,8.15,24.8,165,135.0,77.1,31.1,584.0,86.0,18.9,0,5,7,1,2026-05-14T20:51:48.227949+05:30
Kanpur,Uttar Pradesh,26.4499,80.3319,33.6,44,0.0,985.8,8.2,28.4,159,272.9,84.8,18.7,479.0,92.0,14.7,0,5,7,1,2026-05-14T20:51:48.227973+05:30
Chandigarh,Chandigarh,30.7333,76.7794,27.8,43,0.0,964.2,7.65,29.2,144,43.8,36.1,20.6,637.0,112.0,14.3,4,5,7,0,2026-05-14T20:51:48.227982+05:30
Srinagar,Jammu and Kashmir,34.0837,74.7973,15.6,77,0.0,840.9,8.7,39.2,69,21.5,18.3,24.4,886.0,53.0,3.3,3,5,7,0,2026-05-14T20:51:48.227991+05:30
Jammu,Jammu and Kashmir,32.7266,74.857,27.5,48,0.0,967.7,8.4,34.2,98,55.3,36.4,30.8,492.0,76.0,5.9,4,5,7,0,2026-05-14T20:51:48.227999+05:30
Amritsar,Punjab,31.634,74.8723,26.5,66,0.0,975.7,8.3,27.7,139,79.6,53.2,25.4,403.0,98.0,10.6,7,5,7,1,2026-05-14T20:51:48.228006+05:30
Ludhiana,Punjab,30.901,75.8573,29.4,51,0.0,973.7,7.9,27.7,152,49.0,42.5,17.9,994.0,89.0,7.6,4,5,7,1,2026-05-14T20:51:48.228014+05:30
Jalandhar,Punjab,31.326,75.5762,29.0,49,0.0,974.7,8.1,25.9,125,69.4,41.9,18.0,1000.0,88.0,6.1,4,5,7,1,2026-05-14T20:51:48.228021+05:30
Dehradun,Uttarakhand,30.6284,78.0322,15.3,83,0.0,825.8,8.1,40.0,135,45.2,31.5,25.8,323.0,119.0,7.8,3,10,7,0,2026-05-14T20:51:48.228031+05:30
Shimla,Himachal Pradesh,31.1048,77.1734,15.0,52,0.0,782.0,8.15,50.8,112,33.8,20.9,13.7,320.0,122.0,7.2,0,5,7,0,2026-05-14T20:51:48.228038+05:30
Manali,Himachal Pradesh,32.2396,77.1887,10.5,76,0.0,813.6,9.95,43.6,97,17.5,9.7,45.8,245.0,82.0,0.6,3,5,7,0,2026-05-14T20:51:48.228045+05:30
Gurgaon,Haryana,28.4595,77.0266,33.0,33,0.0,976.0,7.8,36.0,697,1300.1,250.5,36.7,1137.0,159.0,45.9,0,5,7,0,2026-05-14T20:51:48.228052+05:30
Noida,Uttar Pradesh,28.5355,77.391,29.6,53,0.0,978.9,7.7,27.7,697,1300.1,250.5,36.7,1517.0,159.0,45.9,4,5,7,1,2026-05-14T20:51:48.228059+05:30
Ghaziabad,Uttar Pradesh,28.6692,77.4538,29.6,51,0.0,977.1,7.7,27.7,209,154.6,82.0,25.2,646.0,110.0,25.1,4,5,7,1,2026-05-14T20:51:48.228067+05:30
Faridabad,Haryana,28.4089,77.3178,32.7,38,0.0,978.4,7.75,36.0,697,1300.1,250.5,36.7,1321.0,159.0,45.9,0,5,7,1,2026-05-14T20:51:48.228074+05:30
Meerut,Uttar Pradesh,28.9845,77.7064,30.9,48,0.0,976.0,7.6,21.6,209,154.6,82.0,25.2,650.0,110.0,25.1,0,5,7,1,2026-05-14T20:51:48.228080+05:30
Agra,Uttar Pradesh,27.1767,78.0081,33.2,42,0.0,981.6,7.8,32.0,291,881.0,150.4,19.1,577.0,101.0,16.5,0,5,7,1,2026-05-14T20:51:48.228087+05:30
Varanasi,Uttar Pradesh,25.3176,82.9739,32.7,49,0.0,991.8,8.7,27.7,174,118.5,74.5,34.3,688.0,99.0,21.8,0,5,7,1,2026-05-14T20:51:48.228095+05:30
Prayagraj,Uttar Pradesh,25.4358,81.8463,34.1,43,0.0,989.8,8.6,27.7,169,108.0,65.7,26.7,613.0,91.0,18.9,0,5,7,1,2026-05-14T20:51:48.228104+05:30
Gorakhpur,Uttar Pradesh,26.7606,83.3732,27.9,71,0.0,991.9,8.6,34.6,147,79.9,62.9,29.1,625.0,78.0,14.6,7,5,7,1,2026-05-14T20:51:48.228112+05:30
Bareilly,Uttar Pradesh,28.367,79.4304,28.5,65,0.0,981.2,8.0,34.9,155,111.1,68.0,27.5,554.0,90.0,15.7,7,5,7,1,2026-05-14T20:51:48.228119+05:30
Aligarh,Uttar Pradesh,27.8974,78.088,30.5,53,0.0,979.8,7.85,48.6,315,488.0,121.5,14.8,756.0,124.0,21.7,0,5,7,1,2026-05-14T20:51:48.228126+05:30
Moradabad,Uttar Pradesh,28.8386,78.7733,29.0,68,0.0,978.1,7.8,53.3,172,141.1,103.4,46.9,785.0,92.0,28.3,7,5,7,1,2026-05-14T20:51:48.228133+05:30
Saharanpur,Uttar Pradesh,29.9637,77.546,28.4,45,0.0,970.4,7.35,28.4,161,94.8,73.8,37.0,726.0,81.0,18.6,4,5,7,0,2026-05-14T20:51:48.228139+05:30
Jhansi,Uttar Pradesh,25.4484,78.5685,34.5,30,0.0,971.8,8.5,28.8,110,81.5,34.6,6.9,319.0,85.0,7.2,0,5,7,0,2026-05-14T20:51:51.464018+05:30
Surat,Gujarat,21.1702,72.8311,30.9,74,0.0,1000.7,7.8,43.2,87,24.9,20.9,31.2,237.0,43.0,48.6,3,5,4,1,2026-05-14T20:51:51.464056+05:30
Vadodara,Gujarat,22.3072,73.1812,34.5,46,0.0,997.9,8.15,39.6,101,39.2,20.2,17.4,250.0,74.0,8.6,0,5,7,1,2026-05-14T20:51:51.464067+05:30
Rajkot,Gujarat,22.3039,70.8022,30.5,57,0.0,990.0,7.8,59.8,52,14.2,10.6,5.9,162.0,68.0,6.2,0,5,7,1,2026-05-14T20:51:51.464076+05:30
Thane,Maharashtra,19.2183,72.9781,30.0,75,0.0,1003.7,7.95,40.3,77,23.2,15.7,9.8,247.0,68.0,6.2,7,5,4,1,2026-05-14T20:51:51.464084+05:30
Nagpur,Maharashtra,21.1458,79.0882,38.3,24,0.0,967.4,8.95,34.9,161,62.9,47.5,40.9,341.0,87.0,29.6,0,5,10,0,2026-05-14T20:51:51.464091+05:30
Nashik,Maharashtra,19.9975,73.7898,29.9,43,0.0,942.1,8.25,41.0,93,19.3,13.0,5.3,213.0,99.0,3.8,4,5,7,0,2026-05-14T20:51:51.464099+05:30
Aurangabad,Maharashtra,19.8762,75.3433,35.5,20,0.0,940.0,9.1,38.5,84,40.3,21.7,6.0,203.0,105.0,5.2,0,5,10,0,2026-05-14T20:51:51.464106+05:30
Solapur,Maharashtra,17.6599,75.9064,31.1,51,0.0,952.3,8.75,32.0,112,72.4,43.8,19.9,274.0,87.0,8.6,0,5,7,1,2026-05-14T20:51:51.464113+05:30
Kolhapur,Maharashtra,16.705,74.2433,27.0,83,0.0,944.4,8.95,38.9,94,29.8,20.9,6.6,221.0,91.0,4.9,7,5,7,1,2026-05-14T20:51:51.464121+05:30
Goa,Goa,15.2993,74.124,30.1,79,0.0,994.1,7.4,34.9,85,27.3,19.0,3.0,202.0,70.0,1.4,3,5,7,1,2026-05-14T20:51:51.464128+05:30
Jodhpur,Rajasthan,26.2389,73.0243,37.3,23,0.0,976.2,8.4,36.7,111,173.7,45.3,14.4,275.0,73.0,5.2,0,5,10,0,2026-05-14T20:51:51.464135+05:30
Udaipur,Rajasthan,24.5854,73.7125,33.4,23,0.0,941.4,8.85,40.0,77,43.0,15.5,4.1,246.0,79.0,2.5,0,5,7,0,2026-05-14T20:51:51.464142+05:30
Kota,Rajasthan,25.2138,75.8648,36.9,19,0.0,972.4,8.4,32.0,121,54.8,34.0,20.3,303.0,81.0,8.4,0,5,10,0,2026-05-14T20:51:51.464150+05:30
Bikaner,Rajasthan,28.0229,73.3119,35.3,29,0.0,975.9,8.35,32.8,86,70.8,27.6,5.2,235.0,75.0,2.6,0,5,10,0,2026-05-14T20:51:51.464157+05:30
Ajmer,Rajasthan,26.4499,74.6399,34.5,22,0.0,949.7,8.4,32.4,82,76.6,33.4,18.2,347.0,66.0,4.9,0,5,7,0,2026-05-14T20:51:51.464164+05:30
Gwalior,Madhya Pradesh,26.2183,78.1828,35.3,26,0.0,976.8,8.25,33.1,140,101.5,40.9,14.0,440.0,68.0,7.1,0,5,10,0,2026-05-14T20:51:51.464171+05:30
Indore,Madhya Pradesh,22.7196,75.8577,35.2,25,0.0,943.6,8.75,41.8,90,39.0,23.0,5.3,271.0,101.0,5.0,0,5,10,0,2026-05-14T20:51:51.464177+05:30
Bhopal,Madhya Pradesh,23.2599,77.4126,36.2,21,0.0,947.9,8.75,36.4,93,63.6,39.6,14.1,782.0,84.0,7.3,0,5,10,0,2026-05-14T20:51:51.464184+05:30
Jabalpur,Madhya Pradesh,23.1815,79.9864,34.8,25,0.0,955.6,8.9,40.3,102,62.9,36.6,24.0,263.0,83.0,9.0,0,5,7,0,2026-05-14T20:51:51.464191+05:30
Ujjain,Madhya Pradesh,23.1765,75.7885,34.9,27,0.0,948.6,8.65,41.4,79,44.9,25.7,3.4,241.0,98.0,4.5,0,5,7,0,2026-05-14T20:51:51.464198+05:30
Visakhapatnam,Andhra Pradesh,17.6868,83.2185,29.6,77,0.0,1000.4,8.8,45.4,69,15.4,12.4,21.3,396.0,29.0,42.7,7,5,4,1,2026-05-14T20:51:51.464206+05:30
Vijayawada,Andhra Pradesh,16.5062,80.648,30.6,70,0.0,998.7,8.2,27.7,58,13.8,9.6,6.8,204.0,42.0,7.1,3,5,7,1,2026-05-14T20:51:51.464212+05:30
Guntur,Andhra Pradesh,16.3067,80.4365,30.7,71,0.0,999.9,8.15,32.0,77,16.2,11.7,6.9,186.0,49.0,6.8,3,5,7,1,2026-05-14T20:51:51.464219+05:30
Nellore,Andhra Pradesh,14.4426,79.9865,29.6,76,0.0,1002.0,9.0,37.1,32,13.2,7.6,3.8,146.0,39.0,2.5,7,5,4,1,2026-05-14T20:51:51.464227+05:30
Kurnool,Andhra Pradesh,15.8281,78.0373,35.2,37,0.0,972.2,9.0,34.9,106,60.5,36.1,12.5,306.0,95.0,6.3,0,5,10,1,2026-05-14T20:51:51.464235+05:30
Kakinada,Andhra Pradesh,16.9891,82.2475,29.7,79,0.0,1003.9,6.7,43.9,29,8.4,5.0,1.5,151.0,52.0,0.9,7,5,4,1,2026-05-14T20:51:51.464242+05:30
Tirupati,Andhra Pradesh,13.6288,79.4192,29.5,67,0.0,987.7,9.1,37.4,58,19.2,13.0,11.5,289.0,37.0,2.4,7,5,7,1,2026-05-14T20:51:51.464249+05:30
Warangal,Telangana,17.9689,79.5941,33.0,51,0.0,974.2,8.3,30.2,113,45.9,34.8,9.2,478.0,110.0,8.5,0,5,7,1,2026-05-14T20:51:51.464255+05:30
Nizamabad,Telangana,18.6725,78.0941,33.5,41,0.0,959.7,9.15,34.2,123,94.3,57.9,24.2,478.0,77.0,8.8,0,5,7,1,2026-05-14T20:51:51.464262+05:30
Mysore,Karnataka,12.2958,76.6396,25.9,71,0.0,925.1,9.25,35.3,89,71.7,42.6,42.5,373.0,68.0,8.7,7,5,7,1,2026-05-14T20:51:51.464269+05:30
Mangalore,Karnataka,12.9141,74.856,25.5,96,0.3,1004.7,8.95,42.1,79,47.6,25.7,10.7,291.0,59.0,3.0,10,5,4,1,2026-05-14T20:51:51.464276+05:30
Hubli-Dharwad,Karnataka,15.3647,75.124,23.8,94,0.1,938.0,8.65,37.4,111,31.9,20.3,8.4,326.0,95.0,2.5,6,5,7,1,2026-05-14T20:51:51.464283+05:30
Belgaum,Karnataka,15.8497,74.4977,25.5,81,0.0,922.7,9.0,35.6,90,27.9,18.7,7.0,213.0,76.0,2.6,7,5,7,1,2026-05-14T20:51:54.703944+05:30
Coimbatore,Tamil Nadu,11.0168,76.9558,24.8,90,0.0,958.1,9.1,40.0,80,24.2,18.9,9.4,300.0,79.0,3.4,3,5,7,1,2026-05-14T20:51:54.704000+05:30
Madurai,Tamil Nadu,9.9252,78.1198,27.0,84,0.0,990.2,7.35,24.8,96,36.8,30.3,19.5,729.0,101.0,8.2,7,5,7,1,2026-05-14T20:51:54.704012+05:30
Trichy,Tamil Nadu,10.7905,78.7047,28.4,86,0.0,996.0,7.7,25.6,87,33.3,31.2,23.4,447.0,74.0,8.7,7,5,7,1,2026-05-14T20:51:54.704021+05:30
Salem,Tamil Nadu,11.6643,78.146,30.4,54,0.0,973.3,9.1,35.3,132,61.7,44.0,35.0,528.0,74.0,12.4,0,5,7,1,2026-05-14T20:51:54.704030+05:30
Tirunelveli,Tamil Nadu,8.7139,77.7567,29.6,75,0.0,1000.1,3.45,17.3,58,9.3,8.1,8.3,268.0,70.0,2.7,7,5,0,1,2026-05-14T20:51:54.704038+05:30
Vellore,Tamil Nadu,12.9165,79.1325,29.6,66,0.0,980.7,8.15,36.4,75,28.7,21.4,16.9,350.0,61.0,11.4,7,5,7,1,2026-05-14T20:51:54.704045+05:30
Erode,Tamil Nadu,11.341,77.7172,30.1,61,0.0,985.3,9.1,28.1,121,67.8,46.7,40.7,293.0,85.0,8.6,3,5,7,1,2026-05-14T20:51:54.704052+05:30
Kochi,Kerala,9.9312,76.2673,26.0,92,0.0,1006.3,8.3,41.8,80,19.2,14.7,17.6,325.0,53.0,6.5,7,5,4,1,2026-05-14T20:51:54.704059+05:30
Thiruvananthapuram,Kerala,8.5241,76.9366,24.9,94,0.0,1006.3,7.5,42.1,56,20.9,11.9,2.1,305.0,92.0,1.0,3,5,4,1,2026-05-14T20:51:54.704066+05:30
Kozhikode,Kerala,11.2588,75.7804,24.7,99,0.0,1005.6,8.25,40.3,75,39.1,18.0,1.9,276.0,95.0,1.4,3,5,4,1,2026-05-14T20:51:54.704073+05:30
Thrissur,Kerala,10.5276,76.2144,23.9,98,0.0,1004.5,8.9,37.8,84,19.6,15.3,13.4,363.0,61.0,4.8,3,5,4,1,2026-05-14T20:51:54.704082+05:30
Kannur,Kerala,11.8745,75.3704,25.4,99,0.0,1005.1,8.95,41.8,90,44.4,28.4,11.0,291.0,78.0,2.6,7,5,4,1,2026-05-14T20:51:54.704089+05:30
Patna,Bihar,25.5941,85.1376,28.2,76,0.0,995.5,8.8,30.2,176,66.6,54.1,20.7,596.0,115.0,21.1,7,5,7,1,2026-05-14T20:51:54.704097+05:30
Gaya,Bihar,24.7914,85.0002,29.5,60,0.0,988.4,8.85,21.2,190,67.5,59.3,13.5,525.0,145.0,21.3,4,5,7,1,2026-05-14T20:51:54.704104+05:30
Muzaffarpur,Bihar,26.1209,85.3647,27.3,76,0.0,995.6,8.85,34.2,144,89.2,71.9,35.3,663.0,84.0,22.3,7,5,7,1,2026-05-14T20:51:54.704111+05:30
Bhagalpur,Bihar,25.2425,87.0117,27.3,79,0.0,996.7,8.75,26.6,157,48.8,37.8,14.2,423.0,114.0,18.1,7,5,7,1,2026-05-14T20:51:54.704118+05:30
Ranchi,Jharkhand,23.3441,85.3096,26.6,57,0.0,933.1,9.3,33.8,114,76.1,47.5,30.1,342.0,86.0,13.9,4,5,7,1,2026-05-14T20:51:54.704124+05:30
Jamshedpur,Jharkhand,22.8046,86.2029,28.9,77,0.0,985.8,9.1,31.0,157,24.4,20.1,10.9,269.0,86.0,16.4,7,5,7,1,2026-05-14T20:51:54.704131+05:30
Dhanbad,Jharkhand,23.7957,86.4304,29.5,64,0.0,975.0,9.05,32.0,189,79.2,70.5,41.2,475.0,113.0,97.1,7,5,7,1,2026-05-14T20:51:54.704138+05:30
Bokaro,Jharkhand,23.6693,86.1511,29.0,67,0.0,978.7,9.1,23.4,152,96.4,72.2,47.5,355.0,89.0,80.7,7,5,7,1,2026-05-14T20:51:54.704145+05:30
Bhubaneswar,Odisha,20.2961,85.8245,28.6,79,0.0,999.6,9.15,44.3,35,8.5,6.8,5.9,170.0,38.0,2.8,7,5,7,1,2026-05-14T20:51:54.704152+05:30
Cuttack,Odisha,20.4625,85.8828,28.8,80,0.0,1001.4,9.2,47.5,35,8.5,6.8,5.9,178.0,38.0,2.8,7,5,4,1,2026-05-14T20:51:54.704159+05:30
Rourkela,Odisha,22.2604,84.8536,31.4,58,0.0,979.6,9.05,55.1,149,72.4,47.0,15.0,434.0,124.0,15.9,0,5,7,1,2026-05-14T20:51:54.704166+05:30
Raipur,Chhattisgarh,21.2514,81.6296,33.7,45,0.0,968.8,9.1,39.2,132,128.5,84.8,55.7,548.0,56.0,46.9,0,5,7,1,2026-05-14T20:51:54.704173+05:30
Bhilai,Chhattisgarh,21.1938,81.3509,34.9,36,0.0,969.4,9.1,37.8,123,115.9,75.0,54.1,889.0,46.0,45.7,0,5,7,1,2026-05-14T20:51:54.704179+05:30
Guwahati,Assam,26.1158,91.7086,22.7,99,0.2,999.1,8.7,29.9,63,16.5,12.9,8.8,315.0,69.0,2.2,6,5,7,1,2026-05-14T20:51:54.704186+05:30
Agartala,Tripura,23.8315,91.2868,24.6,95,0.0,1003.5,8.8,27.7,63,19.4,16.8,15.2,271.0,38.0,3.1,3,5,4,1,2026-05-14T20:51:54.704193+05:30
Shillong,Meghalaya,25.5788,91.8933,17.7,95,0.0,854.3,8.75,29.9,54,15.7,12.8,8.9,312.0,79.0,3.2,3,10,7,1,2026-05-14T20:51:54.704200+05:30
Imphal,Manipur,24.817,93.9368,23.2,80,0.1,921.2,9.25,29.9,87,38.3,32.0,27.4,939.0,47.0,6.2,6,5,7,1,2026-05-14T20:51:54.704207+05:30
Aizawl,Mizoram,23.7271,92.7176,20.4,79,0.0,890.8,8.5,29.2,52,12.5,9.1,6.7,179.0,53.0,1.8,3,5,7,1,2026-05-14T20:51:54.704214+05:30
Kohima,Nagaland,25.6701,94.1077,17.5,93,0.0,852.4,8.65,29.9,61,20.9,17.2,20.3,462.0,42.0,2.5,3,10,7,1,2026-05-14T20:51:54.704221+05:30
Gangtok,Sikkim,27.3314,88.6138,13.8,100,0.2,833.6,9.0,38.5,65,17.3,15.8,14.9,457.0,96.0,2.7,6,10,7,0,2026-05-14T20:51:54.704227+05:30
Siliguri,West Bengal,26.7271,88.3953,24.8,84,0.0,989.6,8.65,26.3,87,36.1,31.4,15.9,754.0,101.0,5.8,3,5,7,1,2026-05-14T20:51:57.943642+05:30
Durgapur,West Bengal,23.5204,87.3119,29.0,72,0.0,990.7,9.0,39.2,204,64.5,56.9,25.0,288.0,107.0,43.5,7,5,7,1,2026-05-14T20:51:57.943677+05:30
Asansol,West Bengal,23.6739,86.9524,29.9,68,0.0,988.9,9.05,34.6,202,62.6,54.8,27.8,672.0,116.0,54.1,7,5,7,1,2026-05-14T20:51:57.943689+05:30
Pondicherry,Puducherry,11.9139,79.8145,29.0,84,0.0,1004.5,8.45,36.0,51,10.4,6.8,3.2,364.0,48.0,1.7,7,5,4,1,2026-05-14T20:51:57.943699+05:30
Port Blair,Andaman and Nicobar Islands,11.6234,92.7265,25.5,98,0.1,1006.4,7.95,36.4,28,3.8,2.4,0.4,116.0,54.0,0.1,10,5,4,1,2026-05-14T20:51:57.943708+05:30
Haridwar,Uttarakhand,29.9457,78.1642,27.8,65,0.0,968.6,7.5,41.4,165,84.1,63.1,25.8,497.0,124.0,17.1,7,5,7,1,2026-05-14T20:51:57.943715+05:30
Rishikesh,Uttarakhand,30.0869,78.2676,26.4,65,0.0,961.4,7.6,37.1,163,51.7,38.6,10.0,531.0,147.0,10.8,7,5,7,1,2026-05-14T20:51:57.943723+05:30
Nainital,Uttarakhand,29.3919,79.4542,14.3,95,0.0,801.6,8.45,41.8,158,69.4,49.1,14.9,425.0,133.0,14.8,3,10,7,0,2026-05-14T20:51:57.943731+05:30
Mussoorie,Uttarakhand,30.4599,78.0664,14.3,78,0.0,798.7,7.95,50.0,170,71.0,48.3,23.5,368.0,145.0,16.7,3,5,7,0,2026-05-14T20:51:57.943738+05:30
Dharamshala,Himachal Pradesh,32.219,76.3234,20.1,49,0.0,866.0,8.35,48.6,85,18.9,13.3,15.0,288.0,70.0,1.4,0,5,7,0,2026-05-14T20:51:57.943745+05:30
Dalhousie,Himachal Pradesh,32.5387,75.971,14.6,53,0.0,800.9,8.55,36.4,116,34.9,25.3,33.7,472.0,104.0,3.3,0,5,7,0,2026-05-14T20:51:57.943753+05:30
Patiala,Punjab,30.3398,76.3869,30.8,36,0.0,973.2,7.6,33.8,154,343.7,73.1,14.3,516.0,97.0,9.5,0,5,7,0,2026-05-14T20:51:57.943761+05:30
Bhatinda,Punjab,30.211,74.9455,32.6,29,0.0,978.7,8.25,33.1,173,138.3,59.6,13.3,315.0,100.0,13.3,0,5,7,0,2026-05-14T20:51:57.943768+05:30
Rohtak,Haryana,28.8955,76.6066,31.0,39,0.0,976.3,7.75,26.3,267,488.0,128.1,29.2,1196.0,153.0,34.8,0,5,7,0,2026-05-14T20:51:57.943775+05:30
Panipat,Haryana,29.3909,76.9635,29.6,54,0.0,975.1,7.55,21.2,232,495.5,120.6,21.9,717.0,118.0,24.0,4,5,7,1,2026-05-14T20:51:57.943782+05:30
Mathura,Uttar Pradesh,27.4924,77.6737,31.0,48,0.0,980.6,7.8,31.7,280,1024.5,176.5,17.4,676.0,113.0,16.1,0,5,7,1,2026-05-14T20:51:57.943788+05:30
Vrindavan,Uttar Pradesh,27.5823,77.7027,30.8,47,0.0,981.1,7.8,34.6,280,1024.5,176.5,17.4,799.0,113.0,16.1,0,5,7,1,2026-05-14T20:51:57.943795+05:30
Ayodhya,Uttar Pradesh,26.7922,82.1998,28.5,71,0.0,989.8,8.35,32.0,151,95.2,61.2,27.7,691.0,89.0,13.9,7,5,7,1,2026-05-14T20:51:57.943801+05:30
Ratlam,Madhya Pradesh,23.3315,75.0367,33.0,33,0.0,949.4,8.6,38.2,79,46.2,26.0,3.6,258.0,92.0,4.6,0,5,7,0,2026-05-14T20:51:57.943808+05:30
Sagar,Madhya Pradesh,23.8388,78.7378,34.0,25,0.0,945.2,8.8,37.1,91,43.4,22.7,10.8,232.0,87.0,3.9,0,5,7,0,2026-05-14T20:51:57.943814+05:30
Satna,Madhya Pradesh,24.6005,80.8322,34.0,26,0.0,965.6,8.8,41.4,99,114.8,41.3,10.4,293.0,93.0,5.4,0,5,7,0,2026-05-14T20:51:57.943821+05:30
Akola,Maharashtra,20.7002,77.0082,38.1,22,0.0,969.1,8.95,42.8,109,48.1,30.5,10.0,236.0,94.0,6.1,0,5,10,0,2026-05-14T20:51:57.943829+05:30
Amravati,Maharashtra,20.9374,77.7796,37.7,23,0.0,961.6,9.0,45.0,110,53.7,36.1,24.2,413.0,79.0,8.9,0,5,10,0,2026-05-14T20:51:57.943836+05:30
Latur,Maharashtra,18.4088,76.5604,33.5,35,0.0,935.8,8.5,34.6,118,65.7,36.4,11.8,447.0,99.0,7.8,0,5,7,0,2026-05-14T20:51:57.943843+05:30
Nanded,Maharashtra,19.1383,77.3091,35.0,34,0.0,963.3,9.1,29.9,115,89.6,52.5,31.4,430.0,80.0,9.9,0,5,7,1,2026-05-14T20:51:57.943849+05:30
Gulbarga,Karnataka,17.3297,76.8343,31.2,53,0.0,954.7,8.55,31.0,132,77.5,49.5,23.1,380.0,98.0,7.7,0,5,7,1,2026-05-14T20:51:57.943856+05:30
Bidar,Karnataka,17.9104,77.5199,30.9,48,0.0,931.6,9.0,26.3,124,89.4,57.7,25.5,487.0,80.0,6.5,0,5,7,1,2026-05-14T20:51:57.943863+05:30
Hospet,Karnataka,15.2689,76.3909,26.5,79,0.0,952.8,9.05,38.9,128,76.6,49.2,36.4,375.0,78.0,11.4,7,5,7,1,2026-05-14T20:51:57.943870+05:30
Tirupur,Tamil Nadu,11.1085,77.3411,26.1,84,0.0,971.4,9.15,45.7,100,49.0,32.7,28.1,275.0,76.0,6.4,7,5,7,1,2026-05-14T20:51:57.943877+05:30
Alappuzha,Kerala,9.4981,76.3388,25.9,96,0.0,1006.4,7.6,36.7,66,25.1,18.2,16.8,231.0,64.0,5.2,7,5,4,1,2026-05-14T20:51:57.943883+05:30
Munnar,Kerala,10.0889,77.0595,18.6,99,0.0,854.6,9.2,26.3,65,13.9,11.9,9.3,216.0,67.0,2.4,3,10,7,1,2026-05-14T20:51:57.943891+05:30
Silchar,Assam,24.8333,92.7789,25.6,91,0.0,1002.2,8.9,38.9,100,51.7,42.7,18.9,279.0,66.0,9.0,7,5,4,1,2026-05-14T20:51:57.943897+05:30
Dibrugarh,Assam,27.4728,94.912,25.0,82,0.0,992.7,7.75,24.5,79,52.0,48.5,29.4,424.0,38.0,4.4,7,5,7,1,2026-05-14T20:51:57.943903+05:30
