city,state,latitude,longitude,temp,humidity,rain,pressure,uv_index,wind_gusts,aqi,pm10,pm2_5,mosquito_risk,arthritis_risk,migraine_risk,frizz_risk,updated_at
Delhi,Delhi,28.6139,77.209,24.7,43,0.0,980.6,7.3,33.8,491,542.0,100.8,0,5,7,0,2026-04-21T04:22:29.047684+05:30
Mumbai,Maharashtra,19.076,72.8777,28.4,81,0.0,1006.4,8.0,20.5,79,54.7,24.3,7,5,4,1,2026-04-21T04:22:29.047721+05:30
Bangalore,Karnataka,12.9716,77.5946,23.7,70,0.0,909.9,9.6,26.3,81,23.6,22.3,3,5,7,1,2026-04-21T04:22:29.047736+05:30
Hyderabad,Telangana,17.385,78.4867,26.0,65,0.0,951.3,9.3,32.8,112,23.7,22.0,7,5,7,1,2026-04-21T04:22:29.047746+05:30
Chennai,Tamil Nadu,13.0827,80.2707,28.3,86,0.0,1005.4,9.3,34.6,38,10.3,7.0,7,5,4,1,2026-04-21T04:22:29.047754+05:30
Kolkata,West Bengal,22.5726,88.3639,27.4,91,0.0,1002.0,8.95,31.3,83,22.8,18.7,7,5,4,1,2026-04-21T04:22:29.047767+05:30
Pune,Maharashtra,18.5204,73.8567,24.4,75,0.0,946.4,8.5,37.8,111,47.4,41.3,3,5,7,1,2026-04-21T04:22:29.047775+05:30
Ahmedabad,Gujarat,23.0225,72.5714,26.4,56,0.0,1000.8,8.2,26.6,53,15.5,10.0,4,5,4,1,2026-04-21T04:22:29.047781+05:30
Jaipur,Rajasthan,26.9124,75.7873,29.6,32,0.0,958.3,7.95,27.0,145,191.9,31.1,4,5,7,0,2026-04-21T04:22:29.047789+05:30
Lucknow,Uttar Pradesh,26.8467,80.9462,25.8,53,0.0,989.6,7.9,43.2,116,110.8,38.1,4,5,7,0,2026-04-21T04:22:29.047796+05:30
Kanpur,Uttar Pradesh,26.4499,80.3319,24.4,60,0.0,988.0,7.9,32.4,195,389.3,70.8,0,5,7,1,2026-04-21T04:22:29.047803+05:30
Chandigarh,Chandigarh,30.7333,76.7794,22.1,47,0.0,966.1,7.25,30.6,57,20.8,14.7,0,5,7,0,2026-04-21T04:22:29.047810+05:30
Srinagar,Jammu and Kashmir,34.0837,74.7973,7.8,76,0.0,838.7,8.45,16.2,87,51.8,34.0,3,5,7,0,2026-04-21T04:22:29.047818+05:30
Jammu,Jammu and Kashmir,32.7266,74.857,20.5,57,0.0,970.2,8.0,29.9,61,21.5,16.1,0,5,7,0,2026-04-21T04:22:29.047824+05:30
Amritsar,Punjab,31.634,74.8723,22.1,62,0.0,978.6,7.95,29.5,71,32.2,21.1,3,5,7,0,2026-04-21T04:22:29.047831+05:30
Ludhiana,Punjab,30.901,75.8573,23.4,48,0.0,976.6,7.55,31.3,65,35.6,26.3,0,5,7,0,2026-04-21T04:22:29.047839+05:30
Jalandhar,Punjab,31.326,75.5762,22.4,58,0.0,977.7,7.7,31.3,72,43.3,31.0,0,5,7,0,2026-04-21T04:22:29.047845+05:30
Dehradun,Uttarakhand,30.6284,78.0322,15.6,42,0.0,828.4,7.7,42.8,44,14.9,12.0,0,5,7,0,2026-04-21T04:22:29.047851+05:30
Shimla,Himachal Pradesh,31.1048,77.1734,14.4,42,0.0,783.1,7.75,48.6,50,33.2,14.9,0,5,7,0,2026-04-21T04:22:29.047858+05:30
Manali,Himachal Pradesh,32.2396,77.1887,15.4,35,0.0,819.1,9.2,31.7,50,23.4,11.1,0,5,7,0,2026-04-21T04:22:29.047865+05:30
Gurgaon,Haryana,28.4595,77.0266,21.8,53,0.0,978.9,7.4,32.4,1376,1277.8,168.6,0,5,7,0,2026-04-21T04:22:29.047871+05:30
Noida,Uttar Pradesh,28.5355,77.391,24.6,43,0.0,982.0,7.35,33.5,1376,1277.8,168.6,0,5,7,0,2026-04-21T04:22:29.047877+05:30
Ghaziabad,Uttar Pradesh,28.6692,77.4538,23.8,46,0.0,980.1,7.3,33.8,318,429.3,88.5,0,5,7,0,2026-04-21T04:22:29.047882+05:30
Faridabad,Haryana,28.4089,77.3178,24.4,40,0.0,981.2,7.35,32.0,1376,1277.8,168.6,0,5,7,0,2026-04-21T04:22:29.047889+05:30
Meerut,Uttar Pradesh,28.9845,77.7064,22.1,49,0.0,978.6,7.2,37.1,318,429.3,88.5,0,5,7,0,2026-04-21T04:22:29.047895+05:30
Agra,Uttar Pradesh,27.1767,78.0081,25.4,48,0.0,985.0,7.7,26.6,1018,1128.8,160.7,4,5,7,0,2026-04-21T04:22:29.047905+05:30
Varanasi,Uttar Pradesh,25.3176,82.9739,25.9,49,0.0,993.1,8.55,40.7,88,60.5,29.7,4,5,7,0,2026-04-21T04:22:29.047912+05:30
Prayagraj,Uttar Pradesh,25.4358,81.8463,27.6,49,0.0,992.0,8.4,34.2,86,114.6,38.9,4,5,7,0,2026-04-21T04:22:29.047919+05:30
Gorakhpur,Uttar Pradesh,26.7606,83.3732,23.9,76,0.0,992.6,8.35,43.9,114,31.3,19.1,3,5,7,1,2026-04-21T04:22:29.047926+05:30
Bareilly,Uttar Pradesh,28.367,79.4304,22.5,53,0.0,983.2,7.6,41.8,75,148.5,42.7,0,5,7,0,2026-04-21T04:22:29.047932+05:30
Aligarh,Uttar Pradesh,27.8974,78.088,23.4,51,0.0,982.8,7.5,34.9,743,1020.7,144.8,0,5,7,0,2026-04-21T04:22:29.047938+05:30
Moradabad,Uttar Pradesh,28.8386,78.7733,22.3,49,0.0,980.2,7.4,40.0,89,191.4,57.6,0,5,7,0,2026-04-21T04:22:29.047944+05:30
Saharanpur,Uttar Pradesh,29.9637,77.546,21.9,52,0.0,972.7,7.0,31.0,74,47.0,25.6,0,5,7,0,2026-04-21T04:22:29.047952+05:30
Jhansi,Uttar Pradesh,25.4484,78.5685,27.4,37,0.0,974.8,8.25,32.8,62,98.3,18.8,4,5,7,0,2026-04-21T04:22:32.388551+05:30
Surat,Gujarat,21.1702,72.8311,26.5,92,0.0,1005.0,7.85,29.2,96,44.2,33.8,7,5,4,1,2026-04-21T04:22:32.388583+05:30
Vadodara,Gujarat,22.3072,73.1812,27.8,64,0.0,1002.9,8.15,26.3,89,42.8,34.0,7,5,4,1,2026-04-21T04:22:32.388593+05:30
Rajkot,Gujarat,22.3039,70.8022,23.6,87,0.0,993.7,7.85,24.5,51,40.6,15.3,3,5,7,1,2026-04-21T04:22:32.388601+05:30
Thane,Maharashtra,19.2183,72.9781,26.0,92,0.0,1005.9,8.0,33.1,79,54.7,24.3,7,5,4,1,2026-04-21T04:22:32.388608+05:30
Nagpur,Maharashtra,21.1458,79.0882,27.6,59,0.0,970.7,8.45,23.8,86,36.8,33.6,4,5,7,1,2026-04-21T04:22:32.388614+05:30
Nashik,Maharashtra,19.9975,73.7898,24.6,55,0.0,944.0,8.3,34.9,74,36.2,24.3,0,5,7,0,2026-04-21T04:22:32.388620+05:30
Aurangabad,Maharashtra,19.8762,75.3433,28.1,40,0.0,942.8,9.0,24.8,88,36.8,29.0,4,5,7,0,2026-04-21T04:22:32.388627+05:30
Solapur,Maharashtra,17.6599,75.9064,26.7,65,0.0,955.2,9.0,20.9,107,42.3,38.6,7,5,7,1,2026-04-21T04:22:32.388633+05:30
Kolhapur,Maharashtra,16.705,74.2433,22.6,87,0.0,945.4,9.05,43.6,112,42.8,38.9,3,5,7,1,2026-04-21T04:22:32.388640+05:30
Goa,Goa,15.2993,74.124,28.1,88,0.0,995.1,9.05,25.2,84,39.5,28.1,7,5,7,1,2026-04-21T04:22:32.388646+05:30
Jodhpur,Rajasthan,26.2389,73.0243,28.6,39,0.0,981.1,7.7,36.7,105,170.0,27.5,4,5,7,0,2026-04-21T04:22:32.388652+05:30
Udaipur,Rajasthan,24.5854,73.7125,25.1,31,0.0,945.7,8.7,38.2,44,32.0,11.6,4,5,7,0,2026-04-21T04:22:32.388658+05:30
Kota,Rajasthan,25.2138,75.8648,26.3,33,0.0,976.6,8.2,27.0,41,12.7,9.2,4,5,7,0,2026-04-21T04:22:32.388664+05:30
Bikaner,Rajasthan,28.0229,73.3119,29.2,34,0.0,979.8,7.6,22.7,54,29.9,15.3,4,5,7,0,2026-04-21T04:22:32.388670+05:30
Ajmer,Rajasthan,26.4499,74.6399,25.8,41,0.0,953.0,8.15,45.4,62,41.3,13.8,4,5,7,0,2026-04-21T04:22:32.388676+05:30
Gwalior,Madhya Pradesh,26.2183,78.1828,27.7,43,0.0,980.7,7.95,27.4,135,855.0,103.1,4,5,7,0,2026-04-21T04:22:32.388682+05:30
Indore,Madhya Pradesh,22.7196,75.8577,25.1,51,0.0,946.8,8.6,39.6,61,22.4,16.5,4,5,7,0,2026-04-21T04:22:32.388688+05:30
Bhopal,Madhya Pradesh,23.2599,77.4126,25.8,45,0.0,952.1,8.6,31.3,61,17.2,13.7,4,5,7,0,2026-04-21T04:22:32.388693+05:30
Jabalpur,Madhya Pradesh,23.1815,79.9864,26.2,59,0.0,958.8,8.8,28.4,71,39.1,35.4,4,5,7,1,2026-04-21T04:22:32.388699+05:30
Ujjain,Madhya Pradesh,23.1765,75.7885,25.9,48,0.0,952.6,8.55,41.4,57,24.6,17.2,4,5,7,0,2026-04-21T04:22:32.388705+05:30
Visakhapatnam,Andhra Pradesh,17.6868,83.2185,27.0,88,0.0,1001.6,9.2,41.8,55,17.9,13.9,7,5,4,1,2026-04-21T04:22:32.388710+05:30
Vijayawada,Andhra Pradesh,16.5062,80.648,27.5,88,0.0,1000.8,9.25,28.1,56,12.8,9.7,7,5,4,1,2026-04-21T04:22:32.388716+05:30
Guntur,Andhra Pradesh,16.3067,80.4365,27.4,88,0.0,1002.0,9.25,27.0,58,12.6,9.5,7,5,4,1,2026-04-21T04:22:32.388722+05:30
Nellore,Andhra Pradesh,14.4426,79.9865,26.9,88,0.0,1003.7,9.3,35.6,49,10.2,7.9,7,5,4,1,2026-04-21T04:22:32.388729+05:30
Kurnool,Andhra Pradesh,15.8281,78.0373,28.2,68,0.0,974.5,9.25,50.0,93,14.7,14.0,7,5,7,1,2026-04-21T04:22:32.388736+05:30
Kakinada,Andhra Pradesh,16.9891,82.2475,26.7,92,0.0,1006.0,9.2,29.2,45,16.4,10.7,7,5,4,1,2026-04-21T04:22:32.388741+05:30
Tirupati,Andhra Pradesh,13.6288,79.4192,25.1,87,0.0,990.5,9.35,32.0,60,9.8,8.0,7,5,7,1,2026-04-21T04:22:32.388747+05:30
Warangal,Telangana,17.9689,79.5941,28.2,78,0.0,976.6,8.85,24.8,105,19.0,18.6,7,5,7,1,2026-04-21T04:22:32.388753+05:30
Nizamabad,Telangana,18.6725,78.0941,28.2,58,0.0,962.7,9.1,25.9,111,60.5,56.2,4,5,7,1,2026-04-21T04:22:32.388759+05:30
Mysore,Karnataka,12.2958,76.6396,23.0,91,0.0,926.7,9.5,37.8,86,34.0,31.3,3,5,7,1,2026-04-21T04:22:32.388765+05:30
Mangalore,Karnataka,12.9141,74.856,27.8,86,0.0,1004.6,9.15,24.5,83,43.9,31.5,7,5,4,1,2026-04-21T04:22:32.388771+05:30
Hubli-Dharwad,Karnataka,15.3647,75.124,24.5,88,0.0,939.1,9.25,28.8,103,28.1,24.9,3,5,7,1,2026-04-21T04:22:32.388777+05:30
Belgaum,Karnataka,15.8497,74.4977,22.9,91,0.0,923.8,9.3,36.4,94,38.0,30.9,3,5,7,1,2026-04-21T04:22:35.734573+05:30
Coimbatore,Tamil Nadu,11.0168,76.9558,24.4,90,0.0,960.1,9.25,53.6,91,34.9,29.7,3,5,7,1,2026-04-21T04:22:35.734608+05:30
Madurai,Tamil Nadu,9.9252,78.1198,26.7,89,0.0,991.2,8.85,40.0,62,20.2,18.3,7,5,7,1,2026-04-21T04:22:35.734622+05:30
Trichy,Tamil Nadu,10.7905,78.7047,26.6,90,0.0,998.1,8.95,27.0,59,13.0,11.6,7,5,7,1,2026-04-21T04:22:35.734631+05:30
Salem,Tamil Nadu,11.6643,78.146,26.9,79,0.0,975.6,9.4,18.7,65,16.9,16.1,7,5,7,1,2026-04-21T04:22:35.734640+05:30
Tirunelveli,Tamil Nadu,8.7139,77.7567,26.1,84,0.0,1001.3,8.7,45.0,61,22.4,20.3,7,5,4,1,2026-04-21T04:22:35.734648+05:30
Vellore,Tamil Nadu,12.9165,79.1325,25.0,81,0.0,983.1,9.4,28.4,67,14.8,12.8,7,5,7,1,2026-04-21T04:22:35.734655+05:30
Erode,Tamil Nadu,11.341,77.7172,28.5,80,0.0,987.3,9.2,24.8,65,10.3,9.9,7,5,7,1,2026-04-21T04:22:35.734662+05:30
Kochi,Kerala,9.9312,76.2673,27.9,84,0.0,1006.8,8.65,31.3,66,29.5,24.9,7,5,4,1,2026-04-21T04:22:35.734668+05:30
Thiruvananthapuram,Kerala,8.5241,76.9366,27.9,85,0.0,1005.8,8.4,28.8,58,19.1,14.6,7,5,4,1,2026-04-21T04:22:35.734674+05:30
Kozhikode,Kerala,11.2588,75.7804,27.6,83,0.0,1006.1,9.05,29.9,68,34.7,21.7,7,5,4,1,2026-04-21T04:22:35.734680+05:30
Thrissur,Kerala,10.5276,76.2144,27.0,90,0.0,1005.2,9.05,36.7,69,27.9,24.2,7,5,4,1,2026-04-21T04:22:35.734687+05:30
Kannur,Kerala,11.8745,75.3704,28.8,80,0.0,1005.2,9.1,31.7,75,38.1,25.7,7,5,4,1,2026-04-21T04:22:35.734693+05:30
Patna,Bihar,25.5941,85.1376,27.6,82,0.0,995.0,8.7,33.1,119,85.2,39.5,7,5,7,1,2026-04-21T04:22:35.734700+05:30
Gaya,Bihar,24.7914,85.0002,27.9,48,0.0,988.9,8.75,30.2,94,55.3,32.8,4,5,7,0,2026-04-21T04:22:35.734707+05:30
Muzaffarpur,Bihar,26.1209,85.3647,26.6,87,0.0,995.1,8.65,30.6,131,97.1,46.3,7,5,7,1,2026-04-21T04:22:35.734713+05:30
Bhagalpur,Bihar,25.2425,87.0117,27.4,88,0.0,995.4,8.7,25.2,148,68.0,57.3,7,5,7,1,2026-04-21T04:22:35.734719+05:30
Ranchi,Jharkhand,23.3441,85.3096,24.9,67,0.0,934.5,9.25,35.6,82,49.7,28.1,3,5,7,1,2026-04-21T04:22:35.734725+05:30
Jamshedpur,Jharkhand,22.8046,86.2029,28.2,78,0.0,986.8,9.05,21.6,136,58.7,53.9,7,5,7,1,2026-04-21T04:22:35.734731+05:30
Dhanbad,Jharkhand,23.7957,86.4304,29.1,69,0.0,975.3,8.85,29.2,148,92.2,69.8,7,5,7,1,2026-04-21T04:22:35.734737+05:30
Bokaro,Jharkhand,23.6693,86.1511,28.0,59,0.0,979.5,8.9,33.1,123,82.9,58.2,4,5,7,1,2026-04-21T04:22:35.734744+05:30
Bhubaneswar,Odisha,20.2961,85.8245,26.9,94,0.0,999.2,9.15,30.2,71,16.6,14.3,7,5,7,1,2026-04-21T04:22:35.734753+05:30
Cuttack,Odisha,20.4625,85.8828,26.9,94,0.0,1001.0,9.2,31.3,71,16.6,14.3,7,5,4,1,2026-04-21T04:22:35.734762+05:30
Rourkela,Odisha,22.2604,84.8536,27.0,82,0.0,981.4,8.95,27.7,122,57.5,48.8,7,5,7,1,2026-04-21T04:22:35.734768+05:30
Raipur,Chhattisgarh,21.2514,81.6296,28.8,46,0.0,971.6,9.0,35.3,98,44.1,40.3,4,5,7,1,2026-04-21T04:22:35.734774+05:30
Bhilai,Chhattisgarh,21.1938,81.3509,27.6,54,0.0,971.8,9.0,33.5,93,41.0,36.9,4,5,7,1,2026-04-21T04:22:35.734779+05:30
Guwahati,Assam,26.1158,91.7086,23.3,92,0.0,998.6,8.45,49.3,82,23.1,19.0,3,5,7,1,2026-04-21T04:22:35.734785+05:30
Agartala,Tripura,23.8315,91.2868,27.1,90,0.0,1003.5,8.8,40.7,87,28.2,22.9,7,5,4,1,2026-04-21T04:22:35.734790+05:30
Shillong,Meghalaya,25.5788,91.8933,16.8,92,0.0,854.1,9.05,73.4,60,2.9,2.4,3,10,7,0,2026-04-21T04:22:35.734797+05:30
Imphal,Manipur,24.817,93.9368,19.3,89,0.0,921.7,9.2,82.4,130,96.2,86.1,3,10,7,1,2026-04-21T04:22:35.734803+05:30
Aizawl,Mizoram,23.7271,92.7176,20.7,82,0.0,891.5,9.05,58.7,105,43.9,34.0,3,5,7,1,2026-04-21T04:22:35.734808+05:30
Kohima,Nagaland,25.6701,94.1077,18.1,81,0.0,853.0,9.15,108.0,85,35.0,28.9,3,10,7,0,2026-04-21T04:22:35.734814+05:30
Gangtok,Sikkim,27.3314,88.6138,15.5,70,0.0,833.7,9.0,17.3,64,23.7,18.3,3,5,7,0,2026-04-21T04:22:35.734820+05:30
Siliguri,West Bengal,26.7271,88.3953,22.8,80,0.0,989.5,8.15,31.3,113,56.0,47.1,3,5,7,1,2026-04-21T04:22:39.074675+05:30
Durgapur,West Bengal,23.5204,87.3119,27.7,88,0.0,990.4,8.95,38.2,151,67.1,61.9,7,5,7,1,2026-04-21T04:22:39.074711+05:30
Asansol,West Bengal,23.6739,86.9524,28.3,84,0.0,989.0,9.0,30.6,142,82.4,66.8,7,5,7,1,2026-04-21T04:22:39.074724+05:30
Pondicherry,Puducherry,11.9139,79.8145,27.5,93,0.0,1006.7,9.2,32.8,31,8.7,5.7,7,5,4,1,2026-04-21T04:22:39.074735+05:30
Port Blair,Andaman and Nicobar Islands,11.6234,92.7265,29.6,73,0.0,1005.6,8.8,14.0,63,19.6,15.9,7,5,4,1,2026-04-21T04:22:39.074746+05:30
Haridwar,Uttarakhand,29.9457,78.1642,20.9,56,0.0,971.3,7.1,35.3,60,29.0,25.7,0,5,7,0,2026-04-21T04:22:39.074756+05:30
Rishikesh,Uttarakhand,30.0869,78.2676,20.9,52,0.0,964.3,7.2,35.3,53,25.3,19.2,0,5,7,0,2026-04-21T04:22:39.074766+05:30
Nainital,Uttarakhand,29.3919,79.4542,21.4,27,0.0,805.2,8.05,65.2,68,25.7,16.2,0,5,7,0,2026-04-21T04:22:39.074775+05:30
Mussoorie,Uttarakhand,30.4599,78.0664,18.1,36,0.0,801.5,7.6,41.8,56,24.0,20.7,0,5,7,0,2026-04-21T04:22:39.074784+05:30
Dharamshala,Himachal Pradesh,32.219,76.3234,21.9,29,0.0,867.8,7.85,31.7,42,18.5,7.9,0,5,7,0,2026-04-21T04:22:39.074793+05:30
Dalhousie,Himachal Pradesh,32.5387,75.971,18.2,29,0.0,802.5,8.1,30.6,52,20.0,14.6,0,5,7,1,2026-04-21T04:22:39.074803+05:30
Patiala,Punjab,30.3398,76.3869,22.1,49,0.0,975.8,7.2,26.6,366,441.4,65.7,0,5,7,0,2026-04-21T04:22:39.074812+05:30
Bhatinda,Punjab,30.211,74.9455,24.9,49,0.0,981.7,7.85,32.4,72,39.8,30.7,0,5,7,0,2026-04-21T04:22:39.074822+05:30
Rohtak,Haryana,28.8955,76.6066,21.3,55,0.0,979.3,7.35,37.1,707,694.8,108.0,0,5,7,0,2026-04-21T04:22:39.074830+05:30
Panipat,Haryana,29.3909,76.9635,22.4,44,0.0,977.8,7.15,33.8,1201,1352.3,170.9,0,5,7,0,2026-04-21T04:22:39.074838+05:30
Mathura,Uttar Pradesh,27.4924,77.6737,26.5,41,0.0,984.1,7.6,27.7,1126,1303.9,183.9,4,5,7,0,2026-04-21T04:22:39.074847+05:30
Vrindavan,Uttar Pradesh,27.5823,77.7027,24.4,46,0.0,984.5,7.6,31.7,1126,1303.9,183.9,0,5,7,0,2026-04-21T04:22:39.074856+05:30
Ayodhya,Uttar Pradesh,26.7922,82.1998,25.5,52,0.0,990.9,8.1,47.2,103,50.5,24.9,4,5,7,0,2026-04-21T04:22:39.074864+05:30
Ratlam,Madhya Pradesh,23.3315,75.0367,26.7,52,0.0,953.5,8.45,33.8,65,26.3,17.2,4,5,7,0,2026-04-21T04:22:39.074872+05:30
Sagar,Madhya Pradesh,23.8388,78.7378,26.4,38,0.0,948.2,8.65,30.6,55,12.4,11.1,4,5,7,0,2026-04-21T04:22:39.074880+05:30
Satna,Madhya Pradesh,24.6005,80.8322,26.8,46,0.0,968.1,8.65,35.3,67,17.1,11.8,4,5,7,0,2026-04-21T04:22:39.074888+05:30
Akola,Maharashtra,20.7002,77.0082,28.2,56,0.0,973.2,8.85,27.7,87,50.4,45.8,4,5,7,1,2026-04-21T04:22:39.074897+05:30
Amravati,Maharashtra,20.9374,77.7796,26.7,62,0.0,965.2,8.85,41.0,81,47.3,43.1,7,5,7,1,2026-04-21T04:22:39.074906+05:30
Latur,Maharashtra,18.4088,76.5604,24.5,65,0.0,937.8,9.1,37.8,104,51.3,43.1,3,5,7,1,2026-04-21T04:22:39.074916+05:30
Nanded,Maharashtra,19.1383,77.3091,27.0,61,0.0,966.5,9.0,26.3,105,40.4,37.1,7,5,7,1,2026-04-21T04:22:39.074924+05:30
Gulbarga,Karnataka,17.3297,76.8343,26.9,61,0.0,957.2,8.2,27.4,110,44.5,39.7,7,5,7,1,2026-04-21T04:22:39.074933+05:30
Bidar,Karnataka,17.9104,77.5199,26.6,59,0.0,933.8,8.45,31.7,114,49.9,45.5,4,5,7,1,2026-04-21T04:22:39.074941+05:30
Hospet,Karnataka,15.2689,76.3909,26.5,87,0.0,954.5,9.3,38.2,127,39.6,36.4,7,5,7,1,2026-04-21T04:22:39.074948+05:30
Tirupur,Tamil Nadu,11.1085,77.3411,27.2,82,0.0,973.6,9.2,34.6,78,24.4,21.8,7,5,7,1,2026-04-21T04:22:39.074954+05:30
Alappuzha,Kerala,9.4981,76.3388,27.2,84,0.0,1007.0,7.7,28.4,65,31.7,26.1,7,5,4,1,2026-04-21T04:22:39.074961+05:30
Munnar,Kerala,10.0889,77.0595,20.9,90,0.0,854.9,9.25,33.8,68,29.0,27.2,3,5,7,1,2026-04-21T04:22:39.074968+05:30
Silchar,Assam,24.8333,92.7789,23.3,94,0.0,1004.0,8.65,43.6,133,85.7,68.5,3,5,4,1,2026-04-21T04:22:39.074975+05:30
Dibrugarh,Assam,27.4728,94.912,23.4,93,0.0,992.6,7.0,31.0,75,23.1,20.1,3,5,7,1,2026-04-21T04:22:39.074981+05:30
