city,state,latitude,longitude,temp,humidity,rain,pressure,uv_index,wind_gusts,aqi,pm10,pm2_5,mosquito_risk,arthritis_risk,migraine_risk,frizz_risk,updated_at
Delhi,Delhi,28.6139,77.209,27.8,44,0.0,980.4,6.05,21.6,138,168.1,52.3,4,5,7,0,2026-03-28T20:04:59.464883+05:30
Mumbai,Maharashtra,19.076,72.8777,26.7,85,0.0,1007.8,8.0,24.5,97,59.8,16.0,7,5,4,1,2026-03-28T20:04:59.464933+05:30
Bangalore,Karnataka,12.9716,77.5946,26.6,61,0.0,910.5,9.5,42.5,178,65.2,57.3,7,5,7,1,2026-03-28T20:04:59.464948+05:30
Hyderabad,Telangana,17.385,78.4867,32.9,33,0.0,950.7,9.0,24.8,134,44.6,39.7,0,5,7,0,2026-03-28T20:04:59.464958+05:30
Chennai,Tamil Nadu,13.0827,80.2707,27.5,80,0.0,1006.2,9.25,34.6,68,22.5,15.9,7,5,4,1,2026-03-28T20:04:59.464966+05:30
Kolkata,West Bengal,22.5726,88.3639,24.5,88,0.0,1005.9,8.4,31.7,187,58.1,51.8,3,5,4,1,2026-03-28T20:04:59.464974+05:30
Pune,Maharashtra,18.5204,73.8567,28.2,30,0.0,947.6,8.5,49.0,117,17.3,15.9,4,5,7,0,2026-03-28T20:04:59.464983+05:30
Ahmedabad,Gujarat,23.0225,72.5714,31.9,43,0.0,999.3,7.95,34.2,40,23.0,9.5,0,5,7,1,2026-03-28T20:04:59.464991+05:30
Jaipur,Rajasthan,26.9124,75.7873,30.4,32,0.0,956.7,7.45,32.4,90,114.6,23.5,0,5,7,0,2026-03-28T20:04:59.464997+05:30
Lucknow,Uttar Pradesh,26.8467,80.9462,27.9,47,0.0,990.7,7.15,28.1,132,159.7,41.2,4,5,7,0,2026-03-28T20:04:59.465004+05:30
Kanpur,Uttar Pradesh,26.4499,80.3319,27.2,57,0.0,988.8,6.95,25.2,197,297.1,54.6,4,5,7,1,2026-03-28T20:04:59.465010+05:30
Chandigarh,Chandigarh,30.7333,76.7794,23.6,69,0.0,966.1,5.4,23.4,127,28.8,25.9,3,5,3,1,2026-03-28T20:04:59.465016+05:30
Srinagar,Jammu and Kashmir,34.0837,74.7973,14.9,80,0.1,838.2,6.0,16.2,118,46.9,31.8,6,5,3,0,2026-03-28T20:04:59.465022+05:30
Jammu,Jammu and Kashmir,32.7266,74.857,25.7,55,0.0,970.0,7.05,16.6,127,36.6,35.0,4,5,7,0,2026-03-28T20:04:59.465030+05:30
Amritsar,Punjab,31.634,74.8723,25.4,62,0.0,978.2,7.0,14.0,132,27.2,21.8,7,5,7,1,2026-03-28T20:04:59.465036+05:30
Ludhiana,Punjab,30.901,75.8573,26.1,56,0.0,976.1,6.05,13.7,103,60.3,46.6,4,5,7,1,2026-03-28T20:04:59.465041+05:30
Jalandhar,Punjab,31.326,75.5762,24.7,64,0.0,977.3,6.25,11.5,103,49.2,34.5,3,5,7,1,2026-03-28T20:04:59.465049+05:30
Dehradun,Uttarakhand,30.6284,78.0322,15.6,81,0.0,827.4,5.85,22.3,107,29.1,23.3,3,10,3,0,2026-03-28T20:04:59.465054+05:30
Shimla,Himachal Pradesh,31.1048,77.1734,13.6,84,0.0,781.8,6.15,33.1,118,27.5,23.3,3,10,7,0,2026-03-28T20:04:59.465060+05:30
Manali,Himachal Pradesh,32.2396,77.1887,16.5,84,0.0,817.3,8.45,29.9,134,26.1,10.6,3,10,7,0,2026-03-28T20:04:59.465066+05:30
Gurgaon,Haryana,28.4595,77.0266,26.1,53,0.0,978.7,6.2,17.3,412,354.8,68.9,4,5,7,0,2026-03-28T20:04:59.465072+05:30
Noida,Uttar Pradesh,28.5355,77.391,27.4,47,0.0,981.9,6.05,21.6,412,354.8,68.9,4,5,7,0,2026-03-28T20:04:59.465078+05:30
Ghaziabad,Uttar Pradesh,28.6692,77.4538,26.4,52,0.0,979.9,5.95,20.5,152,122.0,46.3,4,5,3,0,2026-03-28T20:04:59.465083+05:30
Faridabad,Haryana,28.4089,77.3178,26.3,50,0.0,981.1,6.15,19.8,412,354.8,68.9,4,5,7,0,2026-03-28T20:04:59.465089+05:30
Meerut,Uttar Pradesh,28.9845,77.7064,24.8,60,0.0,978.8,5.9,23.0,152,122.0,46.3,0,5,3,1,2026-03-28T20:04:59.465094+05:30
Agra,Uttar Pradesh,27.1767,78.0081,27.2,44,0.0,984.7,6.45,25.6,455,486.2,70.3,4,5,7,0,2026-03-28T20:04:59.465099+05:30
Varanasi,Uttar Pradesh,25.3176,82.9739,26.0,54,0.0,995.2,7.8,37.4,112,81.0,39.0,4,5,7,0,2026-03-28T20:04:59.465108+05:30
Prayagraj,Uttar Pradesh,25.4358,81.8463,27.3,50,0.0,993.5,7.7,30.2,108,105.5,38.3,4,5,7,0,2026-03-28T20:04:59.465115+05:30
Gorakhpur,Uttar Pradesh,26.7606,83.3732,25.4,63,0.0,994.9,6.1,28.1,107,50.5,28.9,7,5,7,1,2026-03-28T20:04:59.465120+05:30
Bareilly,Uttar Pradesh,28.367,79.4304,24.8,65,0.0,984.2,6.3,24.5,105,34.0,27.3,3,5,7,1,2026-03-28T20:04:59.465127+05:30
Aligarh,Uttar Pradesh,27.8974,78.088,24.9,59,0.0,982.9,6.2,23.8,271,468.5,79.6,0,5,7,1,2026-03-28T20:04:59.465132+05:30
Moradabad,Uttar Pradesh,28.8386,78.7733,24.4,64,0.0,981.0,6.1,23.0,113,52.7,40.3,3,5,7,1,2026-03-28T20:04:59.465138+05:30
Saharanpur,Uttar Pradesh,29.9637,77.546,23.7,64,0.0,973.0,5.15,24.8,135,71.7,43.2,3,5,3,1,2026-03-28T20:04:59.465143+05:30
Jhansi,Uttar Pradesh,25.4484,78.5685,28.7,37,0.0,975.0,7.05,31.3,91,33.5,14.7,4,5,7,0,2026-03-28T20:05:02.719356+05:30
Surat,Gujarat,21.1702,72.8311,26.9,81,0.0,1005.0,7.75,30.6,84,53.2,22.5,7,5,4,1,2026-03-28T20:05:02.719383+05:30
Vadodara,Gujarat,22.3072,73.1812,30.9,44,0.0,1001.9,7.95,32.8,60,41.7,20.1,0,5,4,1,2026-03-28T20:05:02.719393+05:30
Rajkot,Gujarat,22.3039,70.8022,28.6,60,0.0,992.8,7.8,43.2,41,15.4,8.2,4,5,7,1,2026-03-28T20:05:02.719401+05:30
Thane,Maharashtra,19.2183,72.9781,26.1,85,0.0,1007.2,8.0,37.8,97,59.8,16.0,7,5,4,1,2026-03-28T20:05:02.719409+05:30
Nagpur,Maharashtra,21.1458,79.0882,31.0,27,0.0,969.5,8.5,31.3,82,24.7,18.0,0,5,7,0,2026-03-28T20:05:02.719416+05:30
Nashik,Maharashtra,19.9975,73.7898,25.8,48,0.0,944.4,8.2,43.6,55,21.9,9.3,4,5,7,0,2026-03-28T20:05:02.719424+05:30
Aurangabad,Maharashtra,19.8762,75.3433,30.7,23,0.0,942.1,8.7,43.6,87,15.7,8.8,0,5,7,0,2026-03-28T20:05:02.719431+05:30
Solapur,Maharashtra,17.6599,75.9064,32.9,24,0.0,954.6,8.85,31.7,95,22.0,17.7,0,5,7,0,2026-03-28T20:05:02.719438+05:30
Kolhapur,Maharashtra,16.705,74.2433,25.9,61,0.0,947.4,8.95,43.6,125,29.5,27.2,7,5,7,1,2026-03-28T20:05:02.719445+05:30
Goa,Goa,15.2993,74.124,28.6,74,0.0,997.2,8.95,28.4,96,41.0,34.9,7,5,7,1,2026-03-28T20:05:02.719453+05:30
Jodhpur,Rajasthan,26.2389,73.0243,30.0,38,0.0,979.6,7.8,31.0,72,217.0,27.9,4,5,7,0,2026-03-28T20:05:02.719460+05:30
Udaipur,Rajasthan,24.5854,73.7125,27.2,45,0.0,944.5,8.35,33.5,41,26.0,7.9,4,5,7,0,2026-03-28T20:05:02.719467+05:30
Kota,Rajasthan,25.2138,75.8648,32.2,29,0.0,974.8,7.7,24.5,64,86.4,24.6,0,5,7,0,2026-03-28T20:05:02.719473+05:30
Bikaner,Rajasthan,28.0229,73.3119,32.0,31,0.0,977.6,7.5,20.9,50,39.1,13.0,0,5,7,0,2026-03-28T20:05:02.719480+05:30
Ajmer,Rajasthan,26.4499,74.6399,28.0,40,0.0,951.5,7.75,30.6,57,32.8,12.1,4,5,7,0,2026-03-28T20:05:02.719487+05:30
Gwalior,Madhya Pradesh,26.2183,78.1828,28.3,42,0.0,980.3,6.75,36.4,142,97.6,25.9,4,5,7,0,2026-03-28T20:05:02.719493+05:30
Indore,Madhya Pradesh,22.7196,75.8577,27.7,39,0.0,946.0,8.2,37.1,59,17.2,11.6,4,5,7,0,2026-03-28T20:05:02.719500+05:30
Bhopal,Madhya Pradesh,23.2599,77.4126,29.9,35,0.0,950.7,8.15,31.3,55,17.8,10.5,4,5,7,0,2026-03-28T20:05:02.719506+05:30
Jabalpur,Madhya Pradesh,23.1815,79.9864,28.6,45,0.0,958.2,8.25,29.9,70,34.5,17.8,4,5,7,0,2026-03-28T20:05:02.719513+05:30
Ujjain,Madhya Pradesh,23.1765,75.7885,27.7,43,0.0,951.7,8.15,34.2,49,17.1,10.8,4,5,7,0,2026-03-28T20:05:02.719520+05:30
Visakhapatnam,Andhra Pradesh,17.6868,83.2185,27.5,80,0.0,1001.9,9.0,41.8,94,32.1,21.6,7,5,4,1,2026-03-28T20:05:02.719527+05:30
Vijayawada,Andhra Pradesh,16.5062,80.648,29.5,59,0.0,1000.3,9.05,30.6,84,40.4,34.2,4,5,4,1,2026-03-28T20:05:02.719534+05:30
Guntur,Andhra Pradesh,16.3067,80.4365,28.2,71,0.0,1001.7,9.05,33.1,97,45.8,39.6,7,5,4,1,2026-03-28T20:05:02.719541+05:30
Nellore,Andhra Pradesh,14.4426,79.9865,27.8,78,0.0,1004.3,9.2,34.6,138,26.4,20.7,7,5,4,1,2026-03-28T20:05:02.719549+05:30
Kurnool,Andhra Pradesh,15.8281,78.0373,34.1,29,0.0,974.0,9.05,33.5,167,54.8,46.6,0,5,7,0,2026-03-28T20:05:02.719557+05:30
Kakinada,Andhra Pradesh,16.9891,82.2475,27.8,77,0.0,1005.4,9.0,35.3,73,28.2,16.9,7,5,4,1,2026-03-28T20:05:02.719563+05:30
Tirupati,Andhra Pradesh,13.6288,79.4192,30.2,53,0.0,990.2,9.25,27.4,116,48.9,42.4,0,5,7,1,2026-03-28T20:05:02.719570+05:30
Warangal,Telangana,17.9689,79.5941,32.9,34,0.0,975.7,8.85,25.6,122,54.0,50.5,0,5,7,0,2026-03-28T20:05:02.719576+05:30
Nizamabad,Telangana,18.6725,78.0941,32.1,33,0.0,961.7,8.8,26.3,91,22.6,20.1,0,5,7,0,2026-03-28T20:05:02.719583+05:30
Mysore,Karnataka,12.2958,76.6396,25.9,74,0.0,927.9,9.45,45.7,169,41.7,37.0,7,5,7,1,2026-03-28T20:05:02.719590+05:30
Mangalore,Karnataka,12.9141,74.856,29.4,82,0.0,1005.9,9.1,23.8,94,35.4,28.1,7,5,4,1,2026-03-28T20:05:02.719596+05:30
Hubli-Dharwad,Karnataka,15.3647,75.124,27.0,73,0.0,940.2,8.3,44.3,149,39.6,35.0,7,5,7,1,2026-03-28T20:05:02.719604+05:30
Belgaum,Karnataka,15.8497,74.4977,25.0,79,0.0,925.1,8.95,36.4,122,38.5,34.1,7,5,7,1,2026-03-28T20:05:05.971502+05:30
Coimbatore,Tamil Nadu,11.0168,76.9558,26.5,76,0.0,960.7,9.45,54.4,112,32.9,30.4,7,5,7,1,2026-03-28T20:05:05.971531+05:30
Madurai,Tamil Nadu,9.9252,78.1198,29.3,61,0.0,992.1,9.4,38.5,129,25.9,22.4,7,5,7,1,2026-03-28T20:05:05.971541+05:30
Trichy,Tamil Nadu,10.7905,78.7047,29.7,65,0.0,998.0,9.35,25.9,93,19.0,17.2,7,5,7,1,2026-03-28T20:05:05.971549+05:30
Salem,Tamil Nadu,11.6643,78.146,32.5,39,0.0,975.2,9.4,30.6,165,48.1,39.7,0,5,7,1,2026-03-28T20:05:05.971558+05:30
Tirunelveli,Tamil Nadu,8.7139,77.7567,29.8,63,0.0,1002.0,9.35,47.5,108,24.9,22.4,7,5,4,1,2026-03-28T20:05:05.971566+05:30
Vellore,Tamil Nadu,12.9165,79.1325,29.7,55,0.0,983.2,9.35,31.0,138,54.2,48.8,4,5,7,1,2026-03-28T20:05:05.971574+05:30
Erode,Tamil Nadu,11.341,77.7172,32.9,46,0.0,986.5,9.35,26.3,155,39.6,33.4,0,5,7,1,2026-03-28T20:05:05.971581+05:30
Kochi,Kerala,9.9312,76.2673,29.3,77,0.0,1007.8,8.45,31.7,93,36.8,32.9,7,5,4,1,2026-03-28T20:05:05.971588+05:30
Thiruvananthapuram,Kerala,8.5241,76.9366,28.9,80,0.0,1007.5,9.15,39.6,65,25.2,19.7,7,5,4,1,2026-03-28T20:05:05.971596+05:30
Kozhikode,Kerala,11.2588,75.7804,29.4,80,0.0,1007.0,9.1,31.0,79,30.2,23.6,7,5,4,1,2026-03-28T20:05:05.971603+05:30
Thrissur,Kerala,10.5276,76.2144,28.9,79,0.0,1006.1,9.15,36.4,90,32.9,29.6,7,5,4,1,2026-03-28T20:05:05.971610+05:30
Kannur,Kerala,11.8745,75.3704,29.4,77,0.0,1006.4,9.05,31.0,89,36.4,29.7,7,5,4,1,2026-03-28T20:05:05.971617+05:30
Patna,Bihar,25.5941,85.1376,26.1,67,0.0,998.6,7.9,29.5,90,63.1,36.8,7,5,7,1,2026-03-28T20:05:05.971624+05:30
Gaya,Bihar,24.7914,85.0002,24.7,71,0.0,992.0,7.9,24.1,92,54.8,29.3,3,5,7,1,2026-03-28T20:05:05.971631+05:30
Muzaffarpur,Bihar,26.1209,85.3647,24.9,69,0.0,998.8,7.85,20.5,108,69.6,43.9,3,5,7,1,2026-03-28T20:05:05.971638+05:30
Bhagalpur,Bihar,25.2425,87.0117,23.6,82,0.0,1000.4,7.75,25.2,113,62.4,38.6,3,5,4,1,2026-03-28T20:05:05.971645+05:30
Ranchi,Jharkhand,23.3441,85.3096,24.2,72,0.0,935.7,8.7,31.7,110,40.0,26.7,3,5,7,1,2026-03-28T20:05:05.971651+05:30
Jamshedpur,Jharkhand,22.8046,86.2029,29.0,60,0.0,988.3,8.5,32.4,176,59.0,49.9,4,5,7,1,2026-03-28T20:05:05.971658+05:30
Dhanbad,Jharkhand,23.7957,86.4304,27.4,58,0.0,978.2,8.4,30.2,152,95.0,80.6,4,5,7,1,2026-03-28T20:05:05.971665+05:30
Bokaro,Jharkhand,23.6693,86.1511,26.2,68,0.0,982.1,8.45,31.0,143,85.2,65.0,7,5,7,1,2026-03-28T20:05:05.971672+05:30
Bhubaneswar,Odisha,20.2961,85.8245,26.9,82,0.0,1000.4,8.8,31.7,139,36.8,30.6,7,5,4,1,2026-03-28T20:05:05.971679+05:30
Cuttack,Odisha,20.4625,85.8828,27.7,79,0.0,1002.1,8.8,30.6,139,36.8,30.6,7,5,4,1,2026-03-28T20:05:05.971686+05:30
Rourkela,Odisha,22.2604,84.8536,29.3,59,0.0,981.8,8.4,43.9,155,41.8,32.6,4,5,7,1,2026-03-28T20:05:05.971693+05:30
Raipur,Chhattisgarh,21.2514,81.6296,31.9,31,0.0,971.0,8.55,34.6,94,34.9,28.4,0,5,7,0,2026-03-28T20:05:05.971700+05:30
Bhilai,Chhattisgarh,21.1938,81.3509,30.8,34,0.0,971.3,8.55,33.8,76,27.6,22.3,0,5,7,0,2026-03-28T20:05:05.971706+05:30
Guwahati,Assam,26.1158,91.7086,21.4,90,0.0,1002.1,4.0,28.1,141,31.1,29.3,3,5,0,1,2026-03-28T20:05:05.971713+05:30
Agartala,Tripura,23.8315,91.2868,21.8,92,0.0,1006.2,6.4,38.5,140,70.1,62.9,3,5,4,1,2026-03-28T20:05:05.971720+05:30
Shillong,Meghalaya,25.5788,91.8933,10.9,94,0.0,852.9,3.7,43.9,89,17.6,15.1,3,10,3,0,2026-03-28T20:05:05.971726+05:30
Imphal,Manipur,24.817,93.9368,15.5,92,0.0,921.5,7.7,52.6,149,68.9,59.8,3,10,7,0,2026-03-28T20:05:05.971733+05:30
Aizawl,Mizoram,23.7271,92.7176,15.6,94,0.0,890.7,7.35,38.2,117,57.6,45.8,3,10,7,0,2026-03-28T20:05:05.971758+05:30
Kohima,Nagaland,25.6701,94.1077,13.7,72,0.0,852.1,4.95,71.3,113,45.2,36.9,3,5,3,0,2026-03-28T20:05:05.971765+05:30
Gangtok,Sikkim,27.3314,88.6138,12.6,94,0.0,834.5,6.7,17.3,83,16.5,14.5,3,10,7,0,2026-03-28T20:05:05.971772+05:30
Siliguri,West Bengal,26.7271,88.3953,17.9,92,0.0,994.3,7.5,26.3,150,44.9,36.9,3,10,7,1,2026-03-28T20:05:09.236549+05:30
Durgapur,West Bengal,23.5204,87.3119,24.7,74,0.0,994.0,8.35,28.4,155,78.2,67.8,3,5,7,1,2026-03-28T20:05:09.236577+05:30
Asansol,West Bengal,23.6739,86.9524,25.8,70,0.0,992.3,8.35,31.7,158,79.4,71.5,7,5,7,1,2026-03-28T20:05:09.236588+05:30
Pondicherry,Puducherry,11.9139,79.8145,26.6,88,0.0,1007.1,9.25,32.4,73,19.3,13.8,7,5,4,1,2026-03-28T20:05:09.236596+05:30
Port Blair,Andaman and Nicobar Islands,11.6234,92.7265,28.3,79,0.0,1006.2,9.15,27.0,69,24.4,19.0,7,5,4,1,2026-03-28T20:05:09.236604+05:30
Haridwar,Uttarakhand,29.9457,78.1642,25.5,63,0.0,971.8,5.7,27.0,120,34.3,29.8,7,5,3,1,2026-03-28T20:05:09.236612+05:30
Rishikesh,Uttarakhand,30.0869,78.2676,24.7,63,0.0,964.6,5.8,24.8,104,24.6,21.1,3,5,3,1,2026-03-28T20:05:09.236619+05:30
Nainital,Uttarakhand,29.3919,79.4542,17.9,68,0.0,803.7,4.8,25.9,110,29.3,24.2,3,5,3,0,2026-03-28T20:05:09.236627+05:30
Mussoorie,Uttarakhand,30.4599,78.0664,16.1,78,0.0,800.0,5.65,25.9,121,35.6,31.2,3,5,3,0,2026-03-28T20:05:09.236634+05:30
Dharamshala,Himachal Pradesh,32.219,76.3234,18.9,79,0.0,866.3,6.9,16.6,109,22.6,16.4,3,5,7,0,2026-03-28T20:05:09.236641+05:30
Dalhousie,Himachal Pradesh,32.5387,75.971,16.5,72,0.0,801.0,6.45,17.3,124,28.5,24.6,3,5,7,0,2026-03-28T20:05:09.236649+05:30
Patiala,Punjab,30.3398,76.3869,24.2,62,0.0,975.5,5.95,17.3,101,92.9,41.4,3,5,3,1,2026-03-28T20:05:09.236656+05:30
Bhatinda,Punjab,30.211,74.9455,26.1,50,0.0,980.4,6.95,17.3,79,42.3,25.4,4,5,7,0,2026-03-28T20:05:09.236664+05:30
Rohtak,Haryana,28.8955,76.6066,25.8,57,0.0,979.0,6.25,14.8,140,159.7,52.0,4,5,7,1,2026-03-28T20:05:09.236671+05:30
Panipat,Haryana,29.3909,76.9635,25.0,59,0.0,977.6,5.65,19.4,235,238.4,64.3,4,5,3,1,2026-03-28T20:05:09.236678+05:30
Mathura,Uttar Pradesh,27.4924,77.6737,25.9,55,0.0,983.7,6.5,20.9,283,386.5,64.3,4,5,7,1,2026-03-28T20:05:09.236685+05:30
Vrindavan,Uttar Pradesh,27.5823,77.7027,25.6,56,0.0,984.3,6.5,22.7,283,386.5,64.3,4,5,7,1,2026-03-28T20:05:09.236692+05:30
Ayodhya,Uttar Pradesh,26.7922,82.1998,26.1,60,0.0,992.7,6.85,31.7,98,68.7,31.0,4,5,7,1,2026-03-28T20:05:09.236698+05:30
Ratlam,Madhya Pradesh,23.3315,75.0367,27.6,54,0.0,952.4,8.1,37.1,49,17.7,9.6,4,5,7,1,2026-03-28T20:05:09.236705+05:30
Sagar,Madhya Pradesh,23.8388,78.7378,29.6,36,0.0,947.4,8.15,32.4,61,49.6,14.7,4,5,7,0,2026-03-28T20:05:09.236712+05:30
Satna,Madhya Pradesh,24.6005,80.8322,29.2,32,0.0,968.3,8.1,23.8,101,41.0,15.5,4,5,7,0,2026-03-28T20:05:09.236719+05:30
Akola,Maharashtra,20.7002,77.0082,30.3,36,0.0,972.3,8.5,37.1,67,18.7,13.0,0,5,7,0,2026-03-28T20:05:09.236727+05:30
Amravati,Maharashtra,20.9374,77.7796,30.0,38,0.0,964.3,8.45,33.5,68,16.6,11.1,4,5,7,0,2026-03-28T20:05:09.236734+05:30
Latur,Maharashtra,18.4088,76.5604,30.7,29,0.0,937.5,8.8,32.4,78,23.8,21.0,0,5,7,0,2026-03-28T20:05:09.236770+05:30
Nanded,Maharashtra,19.1383,77.3091,31.8,27,0.0,965.4,8.7,28.8,82,16.3,14.8,0,5,7,0,2026-03-28T20:05:09.236777+05:30
Gulbarga,Karnataka,17.3297,76.8343,33.3,23,0.0,956.2,8.85,31.7,112,28.1,22.2,0,5,7,0,2026-03-28T20:05:09.236784+05:30
Bidar,Karnataka,17.9104,77.5199,32.2,26,0.0,933.3,8.85,28.8,113,21.5,19.4,0,5,7,0,2026-03-28T20:05:09.236791+05:30
Hospet,Karnataka,15.2689,76.3909,30.5,46,0.0,954.9,9.1,45.0,147,59.5,50.2,0,5,7,1,2026-03-28T20:05:09.236798+05:30
Tirupur,Tamil Nadu,11.1085,77.3411,29.2,66,0.0,973.6,9.45,43.2,149,43.8,37.8,7,5,7,1,2026-03-28T20:05:09.236805+05:30
Alappuzha,Kerala,9.4981,76.3388,29.1,80,0.0,1008.0,9.1,31.3,86,35.5,29.3,7,0,4,1,2026-03-28T20:05:09.236812+05:30
Munnar,Kerala,10.0889,77.0595,21.7,92,0.0,856.5,9.7,40.7,79,39.6,35.3,3,5,7,1,2026-03-28T20:05:09.236820+05:30
Silchar,Assam,24.8333,92.7789,21.8,88,0.0,1005.1,4.85,30.2,153,87.8,76.4,3,5,0,1,2026-03-28T20:05:09.236826+05:30
Dibrugarh,Assam,27.4728,94.912,19.5,88,0.0,996.9,4.5,31.0,113,41.6,33.1,3,10,3,1,2026-03-28T20:05:09.236833+05:30
