city,state,latitude,longitude,temp,humidity,rain,pressure,uv_index,wind_gusts,aqi,pm10,pm2_5,no2,co,o3,so2,mosquito_risk,arthritis_risk,migraine_risk,frizz_risk,updated_at
Delhi,Delhi,28.6139,77.209,32.6,47,0.0,979.2,7.75,25.9,313,339.0,95.2,5.5,513.0,223.0,23.1,0,5,7,1,2026-06-13T16:46:23.776210+05:30
Mumbai,Maharashtra,19.076,72.8777,32.1,62,0.0,1006.8,7.45,46.4,77,40.0,20.1,5.2,155.0,65.0,3.8,3,5,4,1,2026-06-13T16:46:23.776255+05:30
Bangalore,Karnataka,12.9716,77.5946,28.8,54,0.0,910.7,8.7,38.9,43,23.6,13.7,14.5,367.0,80.0,3.3,4,5,7,1,2026-06-13T16:46:23.776271+05:30
Hyderabad,Telangana,17.385,78.4867,33.1,47,0.0,950.0,5.85,38.2,84,61.5,29.8,2.6,225.0,122.0,4.0,0,5,3,1,2026-06-13T16:46:23.776282+05:30
Chennai,Tamil Nadu,13.0827,80.2707,31.7,67,0.1,1003.4,5.65,37.8,58,28.3,20.1,5.9,294.0,141.0,7.6,6,5,0,1,2026-06-13T16:46:23.776291+05:30
Kolkata,West Bengal,22.5726,88.3639,29.7,81,0.0,1000.6,8.9,33.8,125,36.2,30.2,7.7,537.0,113.0,7.4,7,5,4,1,2026-06-13T16:46:23.776298+05:30
Pune,Maharashtra,18.5204,73.8567,31.3,49,0.1,946.6,8.15,52.6,66,35.6,15.5,2.6,140.0,85.0,3.5,3,5,7,1,2026-06-13T16:46:23.776305+05:30
Ahmedabad,Gujarat,23.0225,72.5714,40.6,29,0.0,995.6,8.05,45.7,72,74.7,25.8,1.9,134.0,94.0,2.7,0,5,10,1,2026-06-13T16:46:23.776316+05:30
Jaipur,Rajasthan,26.9124,75.7873,34.0,41,0.0,955.4,8.2,24.5,116,133.6,38.6,1.0,187.0,131.0,4.5,0,5,7,1,2026-06-13T16:46:23.776329+05:30
Lucknow,Uttar Pradesh,26.8467,80.9462,31.5,63,0.0,988.3,8.25,32.4,146,85.2,56.9,1.4,295.0,168.0,7.5,3,5,7,1,2026-06-13T16:46:23.776336+05:30
Kanpur,Uttar Pradesh,26.4499,80.3319,34.2,53,0.0,986.2,8.3,52.2,155,130.4,57.7,1.7,239.0,177.0,9.5,0,5,7,1,2026-06-13T16:46:23.776342+05:30
Chandigarh,Chandigarh,30.7333,76.7794,30.6,53,0.0,966.0,7.75,49.7,122,106.9,37.1,1.0,275.0,164.0,6.6,0,5,7,1,2026-06-13T16:46:23.776348+05:30
Srinagar,Jammu and Kashmir,34.0837,74.7973,18.8,80,0.1,841.7,6.8,24.1,87,16.1,8.4,0.8,226.0,139.0,1.7,6,5,7,0,2026-06-13T16:46:23.776355+05:30
Jammu,Jammu and Kashmir,32.7266,74.857,31.1,42,0.0,970.9,7.95,45.0,99,64.5,22.2,0.2,252.0,147.0,1.2,0,5,7,1,2026-06-13T16:46:23.776361+05:30
Amritsar,Punjab,31.634,74.8723,29.5,58,0.0,978.3,8.45,51.5,132,166.2,38.4,1.0,227.0,140.0,2.9,4,5,7,1,2026-06-13T16:46:23.776367+05:30
Ludhiana,Punjab,30.901,75.8573,29.1,64,0.0,976.0,8.05,42.5,153,122.5,44.0,0.7,225.0,147.0,7.9,7,5,7,1,2026-06-13T16:46:23.776374+05:30
Jalandhar,Punjab,31.326,75.5762,28.2,60,0.0,977.4,8.2,49.7,119,124.8,37.8,0.2,209.0,144.0,3.7,4,5,7,1,2026-06-13T16:46:23.776380+05:30
Dehradun,Uttarakhand,30.6284,78.0322,22.0,56,0.0,830.9,7.7,30.6,85,41.2,15.1,1.0,180.0,134.0,1.7,0,5,7,0,2026-06-13T16:46:23.776386+05:30
Shimla,Himachal Pradesh,31.1048,77.1734,18.2,57,0.0,785.1,7.35,27.7,92,61.9,25.8,0.8,285.0,152.0,3.6,0,5,7,0,2026-06-13T16:46:23.776397+05:30
Manali,Himachal Pradesh,32.2396,77.1887,15.3,93,0.2,818.7,4.85,37.1,119,15.9,9.2,5.2,145.0,142.0,0.5,6,10,3,0,2026-06-13T16:46:23.776404+05:30
Gurgaon,Haryana,28.4595,77.0266,33.7,43,0.0,977.5,7.85,27.7,1234,584.9,129.0,5.1,385.0,238.0,25.3,0,5,7,1,2026-06-13T16:46:23.776410+05:30
Noida,Uttar Pradesh,28.5355,77.391,33.4,48,0.0,980.6,7.8,23.4,1234,584.9,129.0,5.1,414.0,238.0,25.3,0,5,7,1,2026-06-13T16:46:23.776416+05:30
Ghaziabad,Uttar Pradesh,28.6692,77.4538,32.3,56,0.0,978.8,7.8,25.6,156,270.1,79.6,3.0,283.0,190.0,16.9,0,5,7,1,2026-06-13T16:46:23.776422+05:30
Faridabad,Haryana,28.4089,77.3178,33.0,46,0.0,979.9,7.8,25.9,1234,584.9,129.0,5.1,352.0,238.0,25.3,0,5,7,1,2026-06-13T16:46:23.776429+05:30
Meerut,Uttar Pradesh,28.9845,77.7064,28.0,81,0.0,978.0,7.7,37.8,156,270.1,79.6,3.0,256.0,190.0,16.9,7,5,7,1,2026-06-13T16:46:23.776435+05:30
Agra,Uttar Pradesh,27.1767,78.0081,34.4,46,0.0,982.9,8.1,25.2,692,614.7,108.0,1.8,224.0,170.0,7.8,0,5,7,1,2026-06-13T16:46:23.776441+05:30
Varanasi,Uttar Pradesh,25.3176,82.9739,35.3,46,0.0,991.3,7.75,38.5,165,85.4,56.9,2.1,316.0,181.0,10.7,0,5,10,1,2026-06-13T16:46:23.776448+05:30
Prayagraj,Uttar Pradesh,25.4358,81.8463,34.9,50,0.0,989.9,8.75,46.8,161,88.0,60.1,1.6,319.0,196.0,11.8,0,5,7,1,2026-06-13T16:46:23.776454+05:30
Gorakhpur,Uttar Pradesh,26.7606,83.3732,31.8,62,0.0,991.2,8.7,38.2,148,68.0,43.7,2.2,317.0,177.0,7.0,3,5,7,1,2026-06-13T16:46:23.776463+05:30
Bareilly,Uttar Pradesh,28.367,79.4304,32.5,58,0.0,982.3,8.05,21.2,146,197.0,63.8,2.1,254.0,167.0,9.2,0,5,7,1,2026-06-13T16:46:23.776469+05:30
Aligarh,Uttar Pradesh,27.8974,78.088,33.9,46,0.0,981.2,7.95,24.8,412,436.8,93.4,1.5,259.0,167.0,11.1,0,5,7,1,2026-06-13T16:46:23.776476+05:30
Moradabad,Uttar Pradesh,28.8386,78.7733,32.6,50,0.1,979.9,7.95,30.2,147,154.1,53.3,3.7,275.0,179.0,13.9,3,5,7,1,2026-06-13T16:46:23.776482+05:30
Saharanpur,Uttar Pradesh,29.9637,77.546,30.3,60,0.0,972.8,7.55,29.2,151,135.0,45.2,0.5,282.0,176.0,8.3,0,5,7,1,2026-06-13T16:46:23.776487+05:30
Jhansi,Uttar Pradesh,25.4484,78.5685,36.9,37,0.0,972.5,8.5,29.9,138,123.9,49.6,1.9,151.0,136.0,9.7,0,5,10,1,2026-06-13T16:46:26.999128+05:30
Surat,Gujarat,21.1702,72.8311,33.2,59,0.0,1003.4,7.6,56.5,75,48.1,23.8,8.6,173.0,52.0,23.3,0,5,4,1,2026-06-13T16:46:26.999162+05:30
Vadodara,Gujarat,22.3072,73.1812,36.6,43,0.0,999.0,8.0,50.8,70,66.1,24.3,2.0,142.0,98.0,3.2,0,5,10,1,2026-06-13T16:46:26.999173+05:30
Rajkot,Gujarat,22.3039,70.8022,38.5,34,0.0,989.4,7.55,51.5,67,55.3,22.2,1.4,106.0,85.0,4.2,0,5,10,1,2026-06-13T16:46:26.999181+05:30
Thane,Maharashtra,19.2183,72.9781,33.4,55,0.0,1005.8,6.65,42.5,77,40.0,20.1,5.2,140.0,65.0,3.8,0,5,4,1,2026-06-13T16:46:26.999189+05:30
Nagpur,Maharashtra,21.1458,79.0882,37.2,33,0.0,968.0,8.9,37.1,107,64.0,30.6,4.2,139.0,129.0,15.4,0,5,10,1,2026-06-13T16:46:26.999197+05:30
Nashik,Maharashtra,19.9975,73.7898,32.0,46,0.0,943.6,8.05,51.1,71,52.0,20.8,1.3,137.0,75.0,1.2,0,5,7,1,2026-06-13T16:46:26.999204+05:30
Aurangabad,Maharashtra,19.8762,75.3433,35.4,31,0.0,941.2,8.95,51.1,80,65.0,22.0,1.3,120.0,109.0,3.1,0,5,10,0,2026-06-13T16:46:26.999212+05:30
Solapur,Maharashtra,17.6599,75.9064,37.0,28,0.0,953.8,8.0,44.6,63,61.9,20.8,1.3,120.0,108.0,1.8,0,5,10,0,2026-06-13T16:46:26.999220+05:30
Kolhapur,Maharashtra,16.705,74.2433,28.6,65,0.0,947.2,5.95,50.4,54,23.0,12.0,2.3,125.0,77.0,1.6,7,5,3,1,2026-06-13T16:46:26.999228+05:30
Goa,Goa,15.2993,74.124,29.9,72,0.0,997.4,5.65,29.2,67,27.5,12.3,0.8,119.0,60.0,1.0,7,5,3,1,2026-06-13T16:46:26.999236+05:30
Jodhpur,Rajasthan,26.2389,73.0243,38.3,33,0.0,977.2,8.4,41.8,140,326.9,57.2,0.6,107.0,93.0,1.7,0,5,10,1,2026-06-13T16:46:26.999243+05:30
Udaipur,Rajasthan,24.5854,73.7125,35.2,36,0.0,942.5,8.85,38.5,73,71.7,24.3,0.6,113.0,92.0,2.2,0,5,10,1,2026-06-13T16:46:26.999250+05:30
Kota,Rajasthan,25.2138,75.8648,36.7,40,0.0,973.0,8.35,50.0,91,87.8,32.8,1.6,146.0,111.0,4.8,0,5,10,1,2026-06-13T16:46:26.999257+05:30
Bikaner,Rajasthan,28.0229,73.3119,39.1,28,0.0,975.8,8.45,49.7,143,318.5,81.0,0.2,128.0,99.0,2.5,0,5,10,1,2026-06-13T16:46:26.999264+05:30
Ajmer,Rajasthan,26.4499,74.6399,34.7,39,0.1,950.1,8.35,49.7,92,168.1,41.4,0.6,121.0,106.0,2.2,3,5,7,1,2026-06-13T16:46:26.999270+05:30
Gwalior,Madhya Pradesh,26.2183,78.1828,34.7,47,0.1,977.9,8.3,20.9,159,141.6,53.2,0.5,179.0,134.0,5.1,3,5,7,1,2026-06-13T16:46:26.999277+05:30
Indore,Madhya Pradesh,22.7196,75.8577,37.1,27,0.0,944.0,8.65,45.7,79,89.6,28.3,1.5,158.0,107.0,3.5,0,5,10,0,2026-06-13T16:46:26.999283+05:30
Bhopal,Madhya Pradesh,23.2599,77.4126,35.3,38,0.0,948.9,8.7,37.1,98,102.9,32.4,0.3,340.0,105.0,3.4,0,5,10,1,2026-06-13T16:46:26.999290+05:30
Jabalpur,Madhya Pradesh,23.1815,79.9864,34.1,49,0.0,956.5,8.85,47.2,101,102.4,38.5,0.7,154.0,119.0,3.2,0,5,7,1,2026-06-13T16:46:26.999295+05:30
Ujjain,Madhya Pradesh,23.1765,75.7885,36.8,31,0.0,949.3,8.6,43.6,77,87.5,27.9,0.8,132.0,102.0,2.9,0,5,10,1,2026-06-13T16:46:26.999302+05:30
Visakhapatnam,Andhra Pradesh,17.6868,83.2185,33.9,59,0.0,998.0,9.05,44.3,112,37.4,28.4,13.2,305.0,138.0,34.3,0,5,7,1,2026-06-13T16:46:26.999308+05:30
Vijayawada,Andhra Pradesh,16.5062,80.648,35.3,49,0.0,997.7,4.65,33.5,79,50.3,32.4,6.1,168.0,116.0,6.5,0,5,6,1,2026-06-13T16:46:26.999315+05:30
Guntur,Andhra Pradesh,16.3067,80.4365,35.3,46,0.0,999.0,2.55,33.1,81,55.2,32.8,5.1,170.0,111.0,5.3,0,5,6,1,2026-06-13T16:46:26.999321+05:30
Nellore,Andhra Pradesh,14.4426,79.9865,35.6,44,0.0,1001.3,7.7,40.3,55,36.9,21.7,4.3,139.0,118.0,7.4,0,5,7,1,2026-06-13T16:46:26.999329+05:30
Kurnool,Andhra Pradesh,15.8281,78.0373,34.8,44,0.0,973.3,2.85,33.8,73,53.1,24.3,0.8,139.0,112.0,5.5,0,5,3,1,2026-06-13T16:46:26.999336+05:30
Kakinada,Andhra Pradesh,16.9891,82.2475,34.6,51,0.0,1002.1,8.9,37.8,79,29.5,21.1,4.0,240.0,127.0,4.1,0,5,4,1,2026-06-13T16:46:26.999343+05:30
Tirupati,Andhra Pradesh,13.6288,79.4192,32.3,53,0.0,987.2,8.35,27.4,52,30.9,17.5,4.8,144.0,101.0,2.8,0,5,7,1,2026-06-13T16:46:26.999349+05:30
Warangal,Telangana,17.9689,79.5941,33.4,54,0.0,974.6,4.3,34.9,100,62.9,33.5,2.5,156.0,120.0,5.0,0,5,3,1,2026-06-13T16:46:26.999355+05:30
Nizamabad,Telangana,18.6725,78.0941,35.9,37,0.0,960.7,4.15,39.6,89,63.6,29.3,0.8,139.0,123.0,4.5,0,5,6,1,2026-06-13T16:46:26.999361+05:30
Mysore,Karnataka,12.2958,76.6396,24.9,77,0.1,927.6,7.6,38.5,32,15.1,9.1,6.2,164.0,78.0,1.6,6,5,7,1,2026-06-13T16:46:26.999367+05:30
Mangalore,Karnataka,12.9141,74.856,28.3,77,0.0,1006.9,8.5,31.7,47,20.1,9.2,1.0,99.0,66.0,1.5,7,5,4,1,2026-06-13T16:46:26.999373+05:30
Hubli-Dharwad,Karnataka,15.3647,75.124,28.2,70,0.1,939.7,7.5,46.4,44,21.8,10.4,2.2,128.0,70.0,1.1,10,5,7,1,2026-06-13T16:46:26.999380+05:30
Belgaum,Karnataka,15.8497,74.4977,28.1,64,0.0,925.1,8.25,48.6,47,22.8,10.7,1.9,113.0,65.0,1.2,7,5,7,1,2026-06-13T16:46:30.223895+05:30
Coimbatore,Tamil Nadu,11.0168,76.9558,28.4,69,0.1,960.7,8.9,46.4,33,15.9,8.4,2.9,171.0,77.0,1.4,10,5,7,1,2026-06-13T16:46:30.223930+05:30
Madurai,Tamil Nadu,9.9252,78.1198,30.4,65,0.1,991.2,8.3,41.0,58,18.9,9.5,2.1,182.0,91.0,1.4,6,5,7,1,2026-06-13T16:46:30.223941+05:30
Trichy,Tamil Nadu,10.7905,78.7047,35.7,40,0.2,996.6,8.25,55.4,51,11.2,6.7,1.8,131.0,93.0,1.5,3,5,10,1,2026-06-13T16:46:30.223950+05:30
Salem,Tamil Nadu,11.6643,78.146,32.2,51,0.0,975.2,7.35,32.8,56,18.2,10.9,4.8,151.0,93.0,6.9,0,5,7,1,2026-06-13T16:46:30.223958+05:30
Tirunelveli,Tamil Nadu,8.7139,77.7567,33.8,45,0.0,1001.8,7.85,41.4,32,19.5,9.7,1.9,111.0,75.0,1.0,0,5,4,1,2026-06-13T16:46:30.223966+05:30
Vellore,Tamil Nadu,12.9165,79.1325,28.5,84,0.3,981.5,8.8,40.7,51,23.2,14.7,2.8,165.0,113.0,2.4,10,5,7,1,2026-06-13T16:46:30.223973+05:30
Erode,Tamil Nadu,11.341,77.7172,32.7,49,0.1,987.0,8.05,39.6,53,14.6,8.3,3.7,158.0,90.0,1.1,3,5,7,1,2026-06-13T16:46:30.223981+05:30
Kochi,Kerala,9.9312,76.2673,28.2,79,0.0,1009.3,7.5,33.5,64,32.9,15.0,2.7,136.0,69.0,1.9,7,0,4,1,2026-06-13T16:46:30.223989+05:30
Thiruvananthapuram,Kerala,8.5241,76.9366,27.0,83,0.1,1009.0,6.7,40.7,30,12.9,6.4,1.6,107.0,68.0,0.7,10,0,4,1,2026-06-13T16:46:30.223995+05:30
Kozhikode,Kerala,11.2588,75.7804,25.9,91,0.0,1008.7,8.3,31.3,33,20.2,8.4,0.8,111.0,72.0,0.8,7,0,4,1,2026-06-13T16:46:30.224002+05:30
Thrissur,Kerala,10.5276,76.2144,27.4,82,0.0,1007.7,7.25,33.1,65,35.4,15.1,1.6,127.0,68.0,1.2,7,5,4,1,2026-06-13T16:46:30.224010+05:30
Kannur,Kerala,11.8745,75.3704,25.8,86,0.0,1007.8,8.55,34.2,41,17.6,8.2,0.7,105.0,72.0,1.1,7,5,4,1,2026-06-13T16:46:30.224017+05:30
Patna,Bihar,25.5941,85.1376,29.7,78,0.0,994.4,8.9,41.8,188,87.3,64.7,5.6,373.0,191.0,15.2,7,5,7,1,2026-06-13T16:46:30.224023+05:30
Gaya,Bihar,24.7914,85.0002,28.4,86,0.0,988.4,8.95,63.4,188,86.4,63.6,3.8,250.0,182.0,12.9,7,5,7,1,2026-06-13T16:46:30.224029+05:30
Muzaffarpur,Bihar,26.1209,85.3647,33.9,56,0.0,993.9,8.85,23.0,188,82.4,63.3,4.5,373.0,195.0,17.0,0,5,7,1,2026-06-13T16:46:30.224036+05:30
Bhagalpur,Bihar,25.2425,87.0117,33.6,59,0.0,994.5,7.9,40.0,188,89.2,67.5,6.0,358.0,218.0,25.9,0,5,7,1,2026-06-13T16:46:30.224042+05:30
Ranchi,Jharkhand,23.3441,85.3096,28.7,63,0.0,933.8,9.3,27.0,149,76.8,53.7,4.4,270.0,135.0,9.2,7,5,7,1,2026-06-13T16:46:30.224048+05:30
Jamshedpur,Jharkhand,22.8046,86.2029,28.0,87,0.1,986.1,8.95,41.4,175,76.8,60.8,6.1,348.0,159.0,14.9,10,5,7,1,2026-06-13T16:46:30.224055+05:30
Dhanbad,Jharkhand,23.7957,86.4304,30.5,70,0.0,974.5,9.0,32.4,170,101.0,83.4,20.7,232.0,189.0,64.9,3,5,7,1,2026-06-13T16:46:30.224061+05:30
Bokaro,Jharkhand,23.6693,86.1511,31.1,65,0.0,978.3,9.0,29.5,168,86.1,65.2,17.1,302.0,155.0,53.5,3,5,7,1,2026-06-13T16:46:30.224067+05:30
Bhubaneswar,Odisha,20.2961,85.8245,32.9,64,0.0,997.3,8.8,34.6,128,46.7,36.0,5.7,324.0,147.0,7.6,3,5,7,1,2026-06-13T16:46:30.224074+05:30
Cuttack,Odisha,20.4625,85.8828,32.8,66,0.0,999.1,8.9,32.0,128,46.7,36.0,5.7,314.0,147.0,7.6,3,5,7,1,2026-06-13T16:46:30.224080+05:30
Rourkela,Odisha,22.2604,84.8536,26.7,98,0.2,980.3,9.0,43.6,152,66.6,49.5,4.2,330.0,163.0,11.1,10,5,7,1,2026-06-13T16:46:30.224086+05:30
Raipur,Chhattisgarh,21.2514,81.6296,34.6,41,0.0,969.7,9.0,49.0,125,100.4,45.2,5.6,222.0,145.0,21.5,0,5,7,1,2026-06-13T16:46:30.224093+05:30
Bhilai,Chhattisgarh,21.1938,81.3509,34.9,41,0.0,969.8,8.95,42.5,116,103.1,42.8,6.5,549.0,132.0,18.9,0,5,7,1,2026-06-13T16:46:30.224099+05:30
Guwahati,Assam,26.1158,91.7086,28.6,82,0.0,995.2,8.8,30.6,83,31.7,23.5,3.9,268.0,101.0,1.6,7,5,7,1,2026-06-13T16:46:30.224105+05:30
Agartala,Tripura,23.8315,91.2868,27.5,91,0.0,1001.1,8.85,33.8,87,29.7,20.5,8.1,253.0,107.0,3.2,7,5,4,1,2026-06-13T16:46:30.224112+05:30
Shillong,Meghalaya,25.5788,91.8933,21.2,97,0.0,853.8,6.75,19.1,67,15.1,12.7,5.1,250.0,107.0,1.6,3,5,7,1,2026-06-13T16:46:30.224118+05:30
Imphal,Manipur,24.817,93.9368,25.6,76,0.1,918.7,7.9,27.0,39,5.3,4.7,4.7,203.0,84.0,1.7,10,5,7,1,2026-06-13T16:46:30.224124+05:30
Aizawl,Mizoram,23.7271,92.7176,21.4,90,0.0,889.0,8.2,27.4,43,20.4,11.7,2.2,182.0,84.0,1.0,3,5,7,1,2026-06-13T16:46:30.224131+05:30
Kohima,Nagaland,25.6701,94.1077,21.3,94,0.1,851.8,2.8,20.5,33,4.7,4.2,3.9,209.0,72.0,0.7,6,5,3,1,2026-06-13T16:46:30.224137+05:30
Gangtok,Sikkim,27.3314,88.6138,20.9,91,0.1,834.8,9.1,37.8,89,28.0,19.1,2.6,279.0,133.0,1.1,6,5,7,1,2026-06-13T16:46:30.224143+05:30
Siliguri,West Bengal,26.7271,88.3953,29.8,77,0.0,986.8,8.65,20.2,150,58.2,39.2,5.9,493.0,148.0,5.1,7,5,7,1,2026-06-13T16:46:33.472332+05:30
Durgapur,West Bengal,23.5204,87.3119,30.4,82,0.0,989.4,8.85,25.9,161,75.4,66.8,24.4,735.0,169.0,52.8,3,5,7,1,2026-06-13T16:46:33.472367+05:30
Asansol,West Bengal,23.6739,86.9524,30.4,77,0.0,988.1,8.85,40.7,162,96.6,83.6,23.5,422.0,185.0,51.0,3,5,7,1,2026-06-13T16:46:33.472378+05:30
Pondicherry,Puducherry,11.9139,79.8145,31.3,72,0.0,1005.1,8.15,41.0,53,20.4,16.1,7.6,245.0,138.0,6.2,3,5,4,1,2026-06-13T16:46:33.472388+05:30
Port Blair,Andaman and Nicobar Islands,11.6234,92.7265,27.2,83,0.2,1007.2,8.8,43.6,21,6.5,3.9,0.5,97.0,44.0,0.4,10,5,4,1,2026-06-13T16:46:33.472396+05:30
Haridwar,Uttarakhand,29.9457,78.1642,31.1,56,0.0,971.1,7.6,29.5,140,92.2,34.9,0.9,254.0,177.0,5.4,0,5,7,1,2026-06-13T16:46:33.472404+05:30
Rishikesh,Uttarakhand,30.0869,78.2676,30.2,52,0.0,963.9,7.7,20.5,109,57.4,24.3,0.8,213.0,166.0,3.9,0,5,7,1,2026-06-13T16:46:33.472412+05:30
Nainital,Uttarakhand,29.3919,79.4542,16.9,92,0.1,804.2,8.55,22.7,101,101.5,38.2,1.5,233.0,157.0,6.4,6,10,7,0,2026-06-13T16:46:33.472420+05:30
Mussoorie,Uttarakhand,30.4599,78.0664,18.6,64,0.0,803.0,7.95,25.9,117,49.0,22.1,1.0,174.0,169.0,4.4,3,5,7,0,2026-06-13T16:46:33.472428+05:30
Dharamshala,Himachal Pradesh,32.219,76.3234,19.5,94,0.1,867.4,7.85,31.0,73,29.2,9.3,1.6,190.0,124.0,0.5,6,10,7,1,2026-06-13T16:46:33.472435+05:30
Dalhousie,Himachal Pradesh,32.5387,75.971,15.3,97,0.1,803.2,7.95,26.3,88,45.6,16.3,3.7,348.0,128.0,0.7,6,10,7,0,2026-06-13T16:46:33.472442+05:30
Patiala,Punjab,30.3398,76.3869,31.0,58,0.0,975.1,7.7,42.8,536,133.6,44.0,1.2,223.0,149.0,6.2,0,5,7,1,2026-06-13T16:46:33.472450+05:30
Bhatinda,Punjab,30.211,74.9455,33.2,48,0.0,980.0,8.3,30.6,940,244.9,72.4,2.5,211.0,160.0,14.0,0,5,7,1,2026-06-13T16:46:33.472456+05:30
Rohtak,Haryana,28.8955,76.6066,34.2,39,0.0,977.8,7.8,26.6,824,448.9,104.8,0.9,243.0,202.0,12.1,0,5,7,1,2026-06-13T16:46:33.472463+05:30
Panipat,Haryana,29.3909,76.9635,31.4,61,0.0,977.0,7.65,33.1,1335,491.7,107.8,3.0,228.0,179.0,22.9,3,5,7,1,2026-06-13T16:46:33.472470+05:30
Mathura,Uttar Pradesh,27.4924,77.6737,34.3,43,0.0,982.2,8.05,25.9,682,484.3,96.4,0.5,210.0,163.0,7.2,0,5,7,1,2026-06-13T16:46:33.472477+05:30
Vrindavan,Uttar Pradesh,27.5823,77.7027,34.5,44,0.0,982.7,8.0,25.2,682,484.3,96.4,0.5,226.0,163.0,7.2,0,5,7,1,2026-06-13T16:46:33.472484+05:30
Ayodhya,Uttar Pradesh,26.7922,82.1998,32.5,59,0.0,989.6,8.4,42.5,149,72.9,49.2,2.9,304.0,162.0,7.5,0,5,7,1,2026-06-13T16:46:33.472490+05:30
Ratlam,Madhya Pradesh,23.3315,75.0367,35.5,37,0.0,950.6,8.5,42.5,75,80.8,27.4,0.6,124.0,103.0,3.0,0,5,10,1,2026-06-13T16:46:33.472497+05:30
Sagar,Madhya Pradesh,23.8388,78.7378,25.7,86,0.3,945.7,8.15,53.6,91,52.9,25.2,0.7,162.0,118.0,3.0,10,5,7,1,2026-06-13T16:46:33.472504+05:30
Satna,Madhya Pradesh,24.6005,80.8322,36.2,35,0.0,965.7,8.8,35.3,109,89.2,42.7,0.4,155.0,135.0,4.7,0,5,10,1,2026-06-13T16:46:33.472511+05:30
Akola,Maharashtra,20.7002,77.0082,38.9,28,0.0,969.9,8.85,42.8,81,70.1,25.7,1.7,119.0,112.0,5.5,0,5,10,1,2026-06-13T16:46:33.472518+05:30
Amravati,Maharashtra,20.9374,77.7796,37.9,33,0.0,962.3,8.85,40.7,86,71.0,26.5,1.9,121.0,112.0,6.0,0,5,10,1,2026-06-13T16:46:33.472526+05:30
Latur,Maharashtra,18.4088,76.5604,35.5,31,0.0,936.8,8.85,35.6,73,66.4,23.2,0.6,123.0,105.0,2.2,0,5,10,0,2026-06-13T16:46:33.472532+05:30
Nanded,Maharashtra,19.1383,77.3091,37.4,34,0.0,964.2,8.0,36.4,88,67.5,27.5,0.7,126.0,117.0,3.5,0,5,10,1,2026-06-13T16:46:33.472539+05:30
Gulbarga,Karnataka,17.3297,76.8343,34.4,38,0.0,955.4,5.8,37.8,65,51.2,19.6,0.9,135.0,109.0,1.9,0,5,3,1,2026-06-13T16:46:33.472545+05:30
Bidar,Karnataka,17.9104,77.5199,33.7,42,0.0,932.6,7.2,37.4,80,63.8,27.7,0.8,127.0,118.0,3.5,0,5,7,1,2026-06-13T16:46:33.472552+05:30
Hospet,Karnataka,15.2689,76.3909,30.3,57,0.0,954.0,6.35,42.8,46,32.6,14.1,3.2,138.0,81.0,1.6,0,5,7,1,2026-06-13T16:46:33.472558+05:30
Tirupur,Tamil Nadu,11.1085,77.3411,31.7,53,0.0,973.6,8.8,51.5,54,16.9,9.4,3.0,160.0,88.0,1.7,0,5,7,1,2026-06-13T16:46:33.472565+05:30
Alappuzha,Kerala,9.4981,76.3388,28.7,74,0.0,1009.3,7.35,35.3,53,25.0,11.7,2.6,94.0,71.0,1.4,7,0,4,1,2026-06-13T16:46:33.472587+05:30
Munnar,Kerala,10.0889,77.0595,17.8,95,0.0,856.7,7.2,39.2,41,13.2,7.4,3.7,108.0,66.0,1.0,3,10,7,1,2026-06-13T16:46:33.472593+05:30
Silchar,Assam,24.8333,92.7789,28.6,82,0.2,999.7,8.6,24.8,68,16.5,12.6,3.4,218.0,102.0,2.9,10,5,7,1,2026-06-13T16:46:33.472600+05:30
Dibrugarh,Assam,27.4728,94.912,28.2,91,0.1,988.8,7.3,25.6,82,13.9,12.6,3.0,255.0,102.0,1.1,10,5,7,1,2026-06-13T16:46:33.472606+05:30
