city,state,latitude,longitude,temp,humidity,rain,pressure,uv_index,wind_gusts,aqi,pm10,pm2_5,no2,co,o3,so2,mosquito_risk,arthritis_risk,migraine_risk,frizz_risk,updated_at
Delhi,Delhi,28.6139,77.209,37.3,20,0.0,980.0,7.8,37.8,539,670.6,138.3,29.7,449.0,73.0,17.9,0,5,10,0,2026-05-22T21:19:48.562006+05:30
Mumbai,Maharashtra,19.076,72.8777,30.5,74,0.0,1009.8,7.15,37.8,62,23.8,16.5,14.3,221.0,51.0,10.6,3,0,4,1,2026-05-22T21:19:48.562041+05:30
Bangalore,Karnataka,12.9716,77.5946,21.0,92,0.3,914.4,7.45,36.4,45,16.9,15.7,39.5,419.0,45.0,8.6,6,5,7,1,2026-05-22T21:19:48.562056+05:30
Hyderabad,Telangana,17.385,78.4867,32.3,51,0.0,953.4,7.45,49.3,106,57.3,45.6,31.2,421.0,72.0,11.3,0,5,7,1,2026-05-22T21:19:48.562066+05:30
Chennai,Tamil Nadu,13.0827,80.2707,32.0,69,0.0,1006.8,9.05,41.8,113,26.4,21.0,9.5,258.0,125.0,7.2,3,5,4,1,2026-05-22T21:19:48.562074+05:30
Kolkata,West Bengal,22.5726,88.3639,29.9,87,0.0,1003.1,8.95,36.4,109,33.4,27.2,9.2,401.0,65.0,7.7,7,5,4,1,2026-05-22T21:19:48.562082+05:30
Pune,Maharashtra,18.5204,73.8567,26.7,79,0.0,950.1,8.45,41.0,51,10.3,9.7,16.7,218.0,57.0,8.0,7,5,7,1,2026-05-22T21:19:48.562089+05:30
Ahmedabad,Gujarat,23.0225,72.5714,33.7,54,0.0,1001.0,8.15,36.4,74,37.5,23.6,16.2,184.0,62.0,5.6,0,5,4,1,2026-05-22T21:19:48.562095+05:30
Jaipur,Rajasthan,26.9124,75.7873,34.9,22,0.0,958.0,8.25,42.1,156,241.2,57.4,11.8,279.0,69.0,5.4,0,5,7,0,2026-05-22T21:19:48.562125+05:30
Lucknow,Uttar Pradesh,26.8467,80.9462,36.3,41,0.0,988.8,8.25,32.4,162,290.6,81.5,25.1,236.0,75.0,12.2,0,5,10,1,2026-05-22T21:19:48.562135+05:30
Kanpur,Uttar Pradesh,26.4499,80.3319,37.0,26,0.0,987.2,8.25,38.2,289,445.2,95.5,25.6,457.0,66.0,10.7,0,5,10,0,2026-05-22T21:19:48.562142+05:30
Chandigarh,Chandigarh,30.7333,76.7794,30.8,33,0.0,966.5,7.75,68.8,92,61.7,31.2,14.5,439.0,96.0,11.7,0,5,7,0,2026-05-22T21:19:48.562149+05:30
Srinagar,Jammu and Kashmir,34.0837,74.7973,14.1,91,0.0,844.4,8.95,35.3,62,27.9,17.2,22.3,731.0,52.0,1.7,3,10,7,0,2026-05-22T21:19:48.562156+05:30
Jammu,Jammu and Kashmir,32.7266,74.857,30.5,34,0.0,970.9,8.55,41.8,77,98.7,47.0,28.7,625.0,69.0,4.6,0,5,7,0,2026-05-22T21:19:48.562162+05:30
Amritsar,Punjab,31.634,74.8723,33.0,38,0.0,978.5,8.45,56.2,84,102.4,52.0,33.3,647.0,66.0,9.1,0,5,7,1,2026-05-22T21:19:48.562168+05:30
Ludhiana,Punjab,30.901,75.8573,31.9,37,0.0,976.4,8.05,45.7,87,72.9,37.4,15.5,385.0,81.0,5.1,0,5,7,0,2026-05-22T21:19:48.562174+05:30
Jalandhar,Punjab,31.326,75.5762,31.9,41,0.0,977.3,8.2,47.5,91,86.4,39.1,15.5,510.0,79.0,4.3,0,5,7,1,2026-05-22T21:19:48.562180+05:30
Dehradun,Uttarakhand,30.6284,78.0322,17.4,61,0.0,828.9,8.2,38.9,86,84.3,29.7,29.4,176.0,80.0,2.6,3,5,7,0,2026-05-22T21:19:48.562186+05:30
Shimla,Himachal Pradesh,31.1048,77.1734,15.9,49,0.0,784.6,7.6,36.7,78,69.4,25.3,19.1,253.0,83.0,3.3,0,5,7,0,2026-05-22T21:19:48.562195+05:30
Manali,Himachal Pradesh,32.2396,77.1887,15.5,78,0.2,819.1,8.05,51.8,78,7.7,4.6,42.4,278.0,79.0,0.5,6,5,7,0,2026-05-22T21:19:48.562202+05:30
Gurgaon,Haryana,28.4595,77.0266,34.2,28,0.0,978.4,7.85,35.3,1500,1046.8,202.6,39.7,517.0,64.0,19.0,0,5,7,0,2026-05-22T21:19:48.562208+05:30
Noida,Uttar Pradesh,28.5355,77.391,35.8,26,0.0,981.2,7.8,30.2,1500,1046.8,202.6,39.7,625.0,64.0,19.0,0,5,10,0,2026-05-22T21:19:48.562214+05:30
Ghaziabad,Uttar Pradesh,28.6692,77.4538,33.0,36,0.0,979.6,7.8,38.5,411,371.6,98.3,21.7,372.0,92.0,18.2,0,5,7,0,2026-05-22T21:19:48.562223+05:30
Faridabad,Haryana,28.4089,77.3178,37.2,20,0.0,980.6,7.85,36.7,1500,1046.8,202.6,39.7,565.0,64.0,19.0,0,5,10,0,2026-05-22T21:19:48.562234+05:30
Meerut,Uttar Pradesh,28.9845,77.7064,33.7,32,0.0,978.2,7.7,33.5,411,371.6,98.3,21.7,342.0,92.0,18.2,0,5,7,0,2026-05-22T21:19:48.562240+05:30
Agra,Uttar Pradesh,27.1767,78.0081,36.1,22,0.0,983.9,8.1,41.4,912,577.4,123.4,27.9,242.0,53.0,10.4,0,5,10,0,2026-05-22T21:19:48.562246+05:30
Varanasi,Uttar Pradesh,25.3176,82.9739,35.8,40,0.0,993.1,8.75,32.0,154,174.6,71.9,29.6,827.0,80.0,16.6,0,5,10,1,2026-05-22T21:19:48.562252+05:30
Prayagraj,Uttar Pradesh,25.4358,81.8463,36.2,26,0.0,991.5,8.65,38.9,146,118.7,49.1,17.5,401.0,83.0,10.8,0,5,10,0,2026-05-22T21:19:48.562259+05:30
Gorakhpur,Uttar Pradesh,26.7606,83.3732,31.1,73,0.0,993.3,8.6,31.3,168,123.4,77.5,24.6,437.0,97.0,15.9,3,5,7,1,2026-05-22T21:19:48.562267+05:30
Bareilly,Uttar Pradesh,28.367,79.4304,32.7,45,0.0,982.3,8.05,29.9,169,146.2,71.5,20.0,351.0,110.0,16.0,0,5,7,1,2026-05-22T21:19:48.562274+05:30
Aligarh,Uttar Pradesh,27.8974,78.088,34.2,28,0.0,981.7,7.95,37.8,810,881.0,172.3,22.4,348.0,91.0,12.6,0,5,7,0,2026-05-22T21:19:48.562279+05:30
Moradabad,Uttar Pradesh,28.8386,78.7733,33.5,33,0.0,979.4,7.9,32.4,186,170.4,87.1,22.3,432.0,91.0,12.3,0,5,7,0,2026-05-22T21:19:48.562285+05:30
Saharanpur,Uttar Pradesh,29.9637,77.546,33.3,26,0.0,972.7,7.5,42.1,165,147.1,61.5,28.9,328.0,81.0,12.2,0,5,7,0,2026-05-22T21:19:48.562291+05:30
Jhansi,Uttar Pradesh,25.4484,78.5685,34.1,23,0.0,975.1,8.5,42.1,65,70.5,29.9,5.0,162.0,73.0,3.0,0,5,7,0,2026-05-22T21:19:51.882366+05:30
Surat,Gujarat,21.1702,72.8311,30.4,75,0.0,1007.2,7.75,42.1,72,29.2,22.4,26.3,230.0,29.0,42.6,3,5,4,1,2026-05-22T21:19:51.882397+05:30
Vadodara,Gujarat,22.3072,73.1812,32.2,56,0.0,1003.8,8.15,41.4,79,33.6,23.0,15.2,227.0,69.0,18.4,0,5,4,1,2026-05-22T21:19:51.882407+05:30
Rajkot,Gujarat,22.3039,70.8022,33.3,52,0.0,994.0,7.8,45.7,75,36.9,21.9,4.5,143.0,85.0,6.5,0,5,7,1,2026-05-22T21:19:51.882416+05:30
Thane,Maharashtra,19.2183,72.9781,30.0,78,0.0,1009.2,7.15,32.8,62,23.8,16.5,14.3,278.0,51.0,10.6,7,0,4,1,2026-05-22T21:19:51.882424+05:30
Nagpur,Maharashtra,21.1458,79.0882,39.3,16,0.0,970.8,8.75,42.8,103,25.6,19.8,9.4,225.0,105.0,10.7,0,5,10,0,2026-05-22T21:19:51.882431+05:30
Nashik,Maharashtra,19.9975,73.7898,26.9,78,0.0,947.2,8.15,41.0,51,18.0,12.2,4.1,202.0,66.0,1.5,7,5,7,1,2026-05-22T21:19:51.882439+05:30
Aurangabad,Maharashtra,19.8762,75.3433,30.9,51,0.0,945.7,3.15,38.5,71,27.2,19.2,4.7,196.0,98.0,4.4,0,5,3,1,2026-05-22T21:19:51.882447+05:30
Solapur,Maharashtra,17.6599,75.9064,30.1,57,0.0,958.8,8.95,37.8,85,41.6,30.4,7.1,207.0,104.0,5.1,0,5,7,1,2026-05-22T21:19:51.882454+05:30
Kolhapur,Maharashtra,16.705,74.2433,24.9,91,0.0,949.8,7.95,40.0,42,10.9,8.9,6.7,186.0,61.0,2.5,3,5,7,1,2026-05-22T21:19:51.882462+05:30
Goa,Goa,15.2993,74.124,27.4,88,0.0,1000.6,6.55,32.8,34,13.4,11.0,6.0,336.0,48.0,1.1,7,5,4,1,2026-05-22T21:19:51.882470+05:30
Jodhpur,Rajasthan,26.2389,73.0243,35.7,25,0.0,981.0,8.45,34.9,154,290.6,65.7,12.6,258.0,67.0,4.3,0,5,10,0,2026-05-22T21:19:51.882477+05:30
Udaipur,Rajasthan,24.5854,73.7125,32.8,23,0.0,946.4,8.9,40.3,65,69.6,27.6,3.3,161.0,83.0,2.2,0,5,7,0,2026-05-22T21:19:51.882485+05:30
Kota,Rajasthan,25.2138,75.8648,36.0,15,0.0,976.7,8.4,40.3,65,65.2,30.6,11.9,192.0,69.0,3.9,0,5,10,0,2026-05-22T21:19:51.882492+05:30
Bikaner,Rajasthan,28.0229,73.3119,36.2,21,0.0,979.1,8.4,25.9,165,102.9,41.4,3.6,166.0,74.0,2.3,0,5,10,0,2026-05-22T21:19:51.882499+05:30
Ajmer,Rajasthan,26.4499,74.6399,32.8,22,0.0,953.8,8.4,44.3,80,119.0,41.6,5.8,161.0,82.0,3.6,0,5,7,0,2026-05-22T21:19:51.882507+05:30
Gwalior,Madhya Pradesh,26.2183,78.1828,36.1,19,0.0,979.9,8.3,44.6,86,88.0,36.2,5.4,162.0,78.0,3.4,0,5,10,0,2026-05-22T21:19:51.882514+05:30
Indore,Madhya Pradesh,22.7196,75.8577,34.8,25,0.0,948.2,8.7,42.5,68,32.1,22.2,4.8,241.0,95.0,4.2,0,5,7,0,2026-05-22T21:19:51.882521+05:30
Bhopal,Madhya Pradesh,23.2599,77.4126,36.0,19,0.0,952.3,8.7,40.7,69,24.0,17.8,7.3,383.0,81.0,4.2,0,5,10,0,2026-05-22T21:19:51.882529+05:30
Jabalpur,Madhya Pradesh,23.1815,79.9864,34.6,18,0.0,959.3,8.9,40.0,67,33.2,16.5,9.7,167.0,80.0,3.2,0,5,7,0,2026-05-22T21:19:51.882536+05:30
Ujjain,Madhya Pradesh,23.1765,75.7885,34.7,25,0.0,953.5,8.65,40.0,66,35.6,23.3,3.0,201.0,95.0,3.9,0,5,7,0,2026-05-22T21:19:51.882544+05:30
Visakhapatnam,Andhra Pradesh,17.6868,83.2185,32.8,70,0.0,1000.3,9.0,45.0,149,65.7,55.4,41.3,543.0,102.0,60.3,3,5,4,1,2026-05-22T21:19:51.882551+05:30
Vijayawada,Andhra Pradesh,16.5062,80.648,36.5,41,0.0,1000.3,9.1,52.9,108,43.0,38.6,14.8,324.0,93.0,8.3,0,5,7,1,2026-05-22T21:19:51.882558+05:30
Guntur,Andhra Pradesh,16.3067,80.4365,35.7,41,0.0,1001.3,9.1,52.2,116,38.9,34.5,12.2,280.0,103.0,8.6,0,5,7,1,2026-05-22T21:19:51.882565+05:30
Nellore,Andhra Pradesh,14.4426,79.9865,33.4,47,0.0,1004.5,8.2,50.0,86,50.4,38.3,7.6,335.0,106.0,7.2,0,5,4,1,2026-05-22T21:19:51.882573+05:30
Kurnool,Andhra Pradesh,15.8281,78.0373,32.2,50,0.0,977.3,9.0,46.8,98,32.8,26.4,9.8,278.0,102.0,7.6,0,5,7,1,2026-05-22T21:19:51.882581+05:30
Kakinada,Andhra Pradesh,16.9891,82.2475,33.1,60,0.0,1004.4,9.05,42.5,148,41.6,31.9,8.3,408.0,116.0,5.2,0,5,4,1,2026-05-22T21:19:51.882588+05:30
Tirupati,Andhra Pradesh,13.6288,79.4192,31.0,55,0.0,991.0,7.75,32.0,66,25.6,21.2,13.2,314.0,82.0,4.6,0,5,7,1,2026-05-22T21:19:51.882594+05:30
Warangal,Telangana,17.9689,79.5941,34.6,34,0.0,976.2,9.1,45.4,139,48.2,42.6,16.5,355.0,100.0,11.2,0,5,7,1,2026-05-22T21:19:51.882601+05:30
Nizamabad,Telangana,18.6725,78.0941,35.1,32,0.0,964.0,9.05,41.8,99,44.1,34.6,12.7,237.0,89.0,6.6,0,5,10,0,2026-05-22T21:19:51.882608+05:30
Mysore,Karnataka,12.2958,76.6396,23.7,85,0.0,931.7,8.65,46.8,40,8.5,7.4,11.4,179.0,58.0,2.5,3,5,7,1,2026-05-22T21:19:51.882615+05:30
Mangalore,Karnataka,12.9141,74.856,25.1,98,0.0,1010.3,8.1,30.6,36,13.2,11.2,12.6,371.0,39.0,3.1,7,0,4,1,2026-05-22T21:19:51.882623+05:30
Hubli-Dharwad,Karnataka,15.3647,75.124,24.3,91,0.0,943.3,8.25,34.9,33,5.7,5.1,8.0,183.0,52.0,1.3,3,5,7,1,2026-05-22T21:19:51.882630+05:30
Belgaum,Karnataka,15.8497,74.4977,23.0,95,0.0,927.9,8.6,38.5,35,10.1,8.7,11.0,165.0,48.0,2.4,3,5,7,1,2026-05-22T21:19:55.172543+05:30
Coimbatore,Tamil Nadu,11.0168,76.9558,24.9,88,0.0,964.2,8.25,52.9,37,7.0,6.3,7.1,196.0,56.0,2.6,3,5,7,1,2026-05-22T21:19:55.172573+05:30
Madurai,Tamil Nadu,9.9252,78.1198,30.6,57,0.0,993.8,8.85,52.2,60,13.6,10.3,12.8,159.0,59.0,4.1,0,5,7,1,2026-05-22T21:19:55.172584+05:30
Trichy,Tamil Nadu,10.7905,78.7047,29.9,61,0.0,1000.5,8.9,54.4,44,9.8,8.6,11.5,157.0,65.0,3.9,7,5,4,1,2026-05-22T21:19:55.172593+05:30
Salem,Tamil Nadu,11.6643,78.146,28.3,65,0.0,979.9,8.85,37.4,75,21.4,13.9,12.1,173.0,74.0,5.6,7,5,7,1,2026-05-22T21:19:55.172601+05:30
Tirunelveli,Tamil Nadu,8.7139,77.7567,29.7,62,0.0,1004.0,8.3,50.4,34,6.4,5.3,4.9,155.0,54.0,1.4,7,5,4,1,2026-05-22T21:19:55.172609+05:30
Vellore,Tamil Nadu,12.9165,79.1325,29.9,58,0.0,985.0,8.4,46.8,71,29.6,22.1,10.7,254.0,79.0,3.3,4,5,7,1,2026-05-22T21:19:55.172617+05:30
Erode,Tamil Nadu,11.341,77.7172,28.8,67,0.0,991.3,8.75,46.1,45,10.6,8.8,12.0,195.0,56.0,2.9,7,5,7,1,2026-05-22T21:19:55.172624+05:30
Kochi,Kerala,9.9312,76.2673,25.6,96,0.0,1012.4,8.15,35.3,47,24.0,22.0,31.1,226.0,18.0,7.3,7,0,4,1,2026-05-22T21:19:55.172632+05:30
Thiruvananthapuram,Kerala,8.5241,76.9366,25.4,94,0.0,1011.4,7.95,45.4,31,11.5,7.1,1.7,219.0,63.0,0.6,7,0,4,1,2026-05-22T21:19:55.172640+05:30
Kozhikode,Kerala,11.2588,75.7804,25.3,100,0.0,1011.8,7.6,31.7,29,7.4,5.0,1.8,305.0,63.0,0.6,7,0,4,1,2026-05-22T21:19:55.172647+05:30
Thrissur,Kerala,10.5276,76.2144,24.6,97,0.0,1010.9,8.05,37.4,46,17.1,15.6,16.2,372.0,34.0,4.5,3,0,4,1,2026-05-22T21:19:55.172655+05:30
Kannur,Kerala,11.8745,75.3704,25.5,96,0.0,1010.9,7.9,32.4,32,12.4,10.4,15.3,319.0,35.0,2.6,7,0,4,1,2026-05-22T21:19:55.172662+05:30
Patna,Bihar,25.5941,85.1376,30.9,79,0.0,996.7,8.85,28.8,201,74.3,64.5,15.2,488.0,146.0,22.1,3,5,7,1,2026-05-22T21:19:55.172669+05:30
Gaya,Bihar,24.7914,85.0002,32.2,60,0.0,989.8,8.9,27.4,155,151.8,82.7,28.4,560.0,106.0,22.0,0,5,7,1,2026-05-22T21:19:55.172677+05:30
Muzaffarpur,Bihar,26.1209,85.3647,28.6,82,0.0,997.0,8.85,33.5,180,79.6,68.0,19.6,474.0,122.0,21.2,7,5,7,1,2026-05-22T21:19:55.172683+05:30
Bhagalpur,Bihar,25.2425,87.0117,30.2,81,0.0,998.0,8.8,37.1,178,50.3,44.4,12.1,426.0,131.0,16.8,3,5,7,1,2026-05-22T21:19:55.172691+05:30
Ranchi,Jharkhand,23.3441,85.3096,28.0,40,0.0,934.9,9.3,27.7,151,111.1,38.9,14.9,311.0,81.0,6.0,4,5,7,0,2026-05-22T21:19:55.172698+05:30
Jamshedpur,Jharkhand,22.8046,86.2029,31.9,70,0.0,987.3,9.1,34.6,180,81.3,65.9,16.6,877.0,121.0,33.1,3,5,7,1,2026-05-22T21:19:55.172705+05:30
Dhanbad,Jharkhand,23.7957,86.4304,30.9,76,0.0,977.1,9.05,36.7,162,119.2,99.2,63.1,608.0,67.0,116.9,3,5,7,1,2026-05-22T21:19:55.172712+05:30
Bokaro,Jharkhand,23.6693,86.1511,31.1,76,0.0,980.8,9.1,27.4,160,118.3,70.3,39.3,1597.0,74.0,85.0,3,5,7,1,2026-05-22T21:19:55.172719+05:30
Bhubaneswar,Odisha,20.2961,85.8245,30.7,85,0.0,998.9,9.15,42.5,105,45.3,36.4,9.9,363.0,91.0,6.8,3,5,7,1,2026-05-22T21:19:55.172725+05:30
Cuttack,Odisha,20.4625,85.8828,30.9,84,0.0,1000.8,9.2,35.3,105,45.3,36.4,9.9,444.0,91.0,6.8,3,5,4,1,2026-05-22T21:19:55.172732+05:30
Rourkela,Odisha,22.2604,84.8536,31.4,68,0.0,981.6,9.0,35.3,164,90.3,65.9,24.2,402.0,91.0,11.8,3,5,7,1,2026-05-22T21:19:55.172740+05:30
Raipur,Chhattisgarh,21.2514,81.6296,35.3,27,0.0,971.9,9.0,41.4,145,62.4,56.5,56.8,470.0,42.0,45.4,0,5,10,0,2026-05-22T21:19:55.172747+05:30
Bhilai,Chhattisgarh,21.1938,81.3509,35.0,26,0.0,972.1,8.7,37.8,95,35.2,31.5,35.9,435.0,68.0,42.1,0,5,7,0,2026-05-22T21:19:55.172753+05:30
Guwahati,Assam,26.1158,91.7086,25.5,99,0.1,999.9,8.8,27.4,84,28.5,26.1,13.5,431.0,46.0,2.3,10,5,7,1,2026-05-22T21:19:55.172760+05:30
Agartala,Tripura,23.8315,91.2868,27.5,88,0.0,1004.7,8.85,31.3,84,39.0,32.0,14.0,254.0,61.0,2.8,7,5,4,1,2026-05-22T21:19:55.172767+05:30
Shillong,Meghalaya,25.5788,91.8933,20.1,92,0.0,856.9,7.25,29.2,65,16.9,13.9,9.3,356.0,68.0,2.7,3,5,7,1,2026-05-22T21:19:55.172774+05:30
Imphal,Manipur,24.817,93.9368,23.9,94,0.0,922.6,9.3,30.6,85,16.9,13.9,9.6,539.0,65.0,3.0,3,5,7,1,2026-05-22T21:19:55.172781+05:30
Aizawl,Mizoram,23.7271,92.7176,19.4,98,0.0,891.9,8.35,31.0,65,17.2,12.1,6.1,240.0,63.0,1.5,3,10,7,1,2026-05-22T21:19:55.172789+05:30
Kohima,Nagaland,25.6701,94.1077,18.6,96,0.0,854.3,9.2,27.0,78,26.5,21.5,10.3,390.0,56.0,2.0,3,10,7,1,2026-05-22T21:19:55.172795+05:30
Gangtok,Sikkim,27.3314,88.6138,17.3,91,0.3,837.0,9.15,32.0,79,12.1,9.8,10.2,472.0,107.0,2.2,6,10,7,0,2026-05-22T21:19:55.172802+05:30
Siliguri,West Bengal,26.7271,88.3953,26.2,93,0.0,991.1,8.7,21.2,103,42.8,31.5,14.5,872.0,111.0,5.1,7,5,7,1,2026-05-22T21:19:58.462436+05:30
Durgapur,West Bengal,23.5204,87.3119,30.4,90,0.0,991.9,9.0,36.4,156,82.2,69.2,26.6,517.0,88.0,36.9,3,5,7,1,2026-05-22T21:19:58.462464+05:30
Asansol,West Bengal,23.6739,86.9524,30.1,90,0.0,990.3,9.05,31.3,156,73.6,61.9,27.8,477.0,78.0,41.3,3,5,7,1,2026-05-22T21:19:58.462475+05:30
Pondicherry,Puducherry,11.9139,79.8145,30.3,78,0.0,1008.1,8.95,43.9,132,21.2,15.3,7.5,207.0,86.0,3.5,3,0,4,1,2026-05-22T21:19:58.462483+05:30
Port Blair,Andaman and Nicobar Islands,11.6234,92.7265,26.4,91,0.1,1008.4,1.35,35.6,28,3.6,2.3,0.4,113.0,63.0,0.2,10,0,0,1,2026-05-22T21:19:58.462491+05:30
Haridwar,Uttarakhand,29.9457,78.1642,29.6,43,0.0,970.3,7.55,34.6,154,123.4,55.2,24.6,427.0,92.0,10.4,4,5,7,0,2026-05-22T21:19:58.462502+05:30
Rishikesh,Uttarakhand,30.0869,78.2676,28.8,40,0.0,963.2,7.7,38.2,136,137.8,42.7,10.8,372.0,108.0,6.0,4,5,7,0,2026-05-22T21:19:58.462513+05:30
Nainital,Uttarakhand,29.3919,79.4542,17.7,61,0.0,805.2,8.5,46.1,158,187.2,68.0,9.2,346.0,126.0,8.3,3,5,7,0,2026-05-22T21:19:58.462527+05:30
Mussoorie,Uttarakhand,30.4599,78.0664,17.2,53,0.0,802.4,8.1,52.6,113,124.8,37.5,15.4,274.0,100.0,6.4,0,5,7,0,2026-05-22T21:19:58.462534+05:30
Dharamshala,Himachal Pradesh,32.219,76.3234,21.8,49,0.0,869.0,8.25,40.0,52,35.7,15.4,12.2,236.0,60.0,1.3,0,5,7,0,2026-05-22T21:19:58.462542+05:30
Dalhousie,Himachal Pradesh,32.5387,75.971,14.5,67,0.0,803.5,8.45,45.0,68,59.8,24.9,27.2,268.0,73.0,2.3,3,5,7,0,2026-05-22T21:19:58.462550+05:30
Patiala,Punjab,30.3398,76.3869,33.2,30,0.0,975.8,7.65,52.9,606,907.1,137.8,8.4,271.0,93.0,6.0,0,5,7,0,2026-05-22T21:19:58.462557+05:30
Bhatinda,Punjab,30.211,74.9455,34.2,31,0.0,981.2,8.3,40.0,94,64.5,34.3,15.0,277.0,80.0,6.4,0,5,7,0,2026-05-22T21:19:58.462564+05:30
Rohtak,Haryana,28.8955,76.6066,34.5,25,0.0,978.9,7.8,35.6,781,814.0,163.0,28.2,395.0,63.0,9.2,0,5,7,0,2026-05-22T21:19:58.462571+05:30
Panipat,Haryana,29.3909,76.9635,34.1,27,0.0,977.7,7.65,36.4,1644,1855.2,270.1,13.9,269.0,84.0,7.3,0,5,7,0,2026-05-22T21:19:58.462578+05:30
Mathura,Uttar Pradesh,27.4924,77.6737,36.0,23,0.0,982.9,8.05,37.8,751,968.6,170.4,21.1,254.0,78.0,6.7,0,5,10,0,2026-05-22T21:19:58.462586+05:30
Vrindavan,Uttar Pradesh,27.5823,77.7027,35.5,25,0.0,983.3,8.0,39.2,751,968.6,170.4,21.1,265.0,78.0,6.7,0,5,10,0,2026-05-22T21:19:58.462593+05:30
Ayodhya,Uttar Pradesh,26.7922,82.1998,32.6,65,0.0,991.0,8.4,29.5,154,109.0,60.3,14.8,520.0,116.0,12.6,3,5,7,1,2026-05-22T21:19:58.462600+05:30
Ratlam,Madhya Pradesh,23.3315,75.0367,33.6,27,0.0,954.3,8.6,37.8,68,38.4,24.5,2.7,183.0,94.0,4.2,0,5,7,0,2026-05-22T21:19:58.462608+05:30
Sagar,Madhya Pradesh,23.8388,78.7378,34.7,19,0.0,948.7,8.75,39.6,61,34.1,18.0,8.7,171.0,75.0,3.3,0,5,7,0,2026-05-22T21:19:58.462615+05:30
Satna,Madhya Pradesh,24.6005,80.8322,34.2,20,0.0,968.3,8.8,40.7,64,53.0,20.8,15.1,168.0,75.0,3.1,0,5,7,0,2026-05-22T21:19:58.462622+05:30
Akola,Maharashtra,20.7002,77.0082,37.6,25,0.0,973.9,8.9,49.7,81,32.8,24.1,11.4,176.0,87.0,7.2,0,5,10,0,2026-05-22T21:19:58.462630+05:30
Amravati,Maharashtra,20.9374,77.7796,38.0,20,0.0,966.0,8.85,45.4,82,31.8,24.0,11.2,196.0,89.0,7.6,0,5,10,0,2026-05-22T21:19:58.462638+05:30
Latur,Maharashtra,18.4088,76.5604,26.8,75,0.1,940.8,9.0,45.0,87,37.8,32.1,10.1,245.0,91.0,4.8,10,5,7,1,2026-05-22T21:19:58.462645+05:30
Nanded,Maharashtra,19.1383,77.3091,34.8,37,0.0,967.9,8.95,45.4,98,52.6,36.1,10.8,231.0,97.0,7.2,0,5,7,1,2026-05-22T21:19:58.462652+05:30
Gulbarga,Karnataka,17.3297,76.8343,31.1,53,0.0,960.0,8.95,46.4,91,37.1,29.0,10.1,272.0,102.0,5.2,0,5,7,1,2026-05-22T21:19:58.462659+05:30
Bidar,Karnataka,17.9104,77.5199,29.1,61,0.0,935.8,9.0,46.1,105,58.4,44.4,19.4,239.0,91.0,8.1,7,5,7,1,2026-05-22T21:19:58.462667+05:30
Hospet,Karnataka,15.2689,76.3909,28.0,69,0.0,958.1,9.05,41.0,43,9.7,8.8,10.0,166.0,65.0,1.8,7,5,7,1,2026-05-22T21:19:58.462674+05:30
Tirupur,Tamil Nadu,11.1085,77.3411,26.3,81,0.0,977.5,8.35,57.6,43,12.4,10.3,13.5,184.0,52.0,3.6,7,5,7,1,2026-05-22T21:19:58.462681+05:30
Alappuzha,Kerala,9.4981,76.3388,26.2,96,0.1,1012.3,7.95,31.7,35,15.4,12.0,11.5,100.0,51.0,2.6,10,0,4,1,2026-05-22T21:19:58.462688+05:30
Munnar,Kerala,10.0889,77.0595,17.6,99,0.0,859.1,5.1,32.0,34,6.4,5.7,6.6,124.0,58.0,2.0,3,10,3,1,2026-05-22T21:19:58.462695+05:30
Silchar,Assam,24.8333,92.7789,25.5,96,0.2,1004.5,8.95,26.6,85,32.1,23.0,7.1,336.0,79.0,4.2,10,5,4,1,2026-05-22T21:19:58.462703+05:30
Dibrugarh,Assam,27.4728,94.912,25.7,96,0.3,994.3,8.95,27.4,87,51.5,45.8,20.2,334.0,48.0,3.5,10,5,7,1,2026-05-22T21:19:58.462710+05:30
