city,state,latitude,longitude,temp,humidity,rain,pressure,uv_index,wind_gusts,aqi,pm10,pm2_5,mosquito_risk,arthritis_risk,migraine_risk,frizz_risk,updated_at
Delhi,Delhi,28.6139,77.209,23.8,58,0.0,981.7,5.95,19.1,133,165.3,62.6,0,5,3,0,2026-03-28T02:12:13.524607+05:30
Mumbai,Maharashtra,19.076,72.8777,28.2,81,0.0,1007.7,8.0,23.4,102,29.9,20.0,7,5,4,1,2026-03-28T02:12:13.524653+05:30
Bangalore,Karnataka,12.9716,77.5946,23.3,61,0.0,911.4,9.55,39.2,74,37.4,31.1,3,5,7,0,2026-03-28T02:12:13.524668+05:30
Hyderabad,Telangana,17.385,78.4867,24.9,65,0.0,952.3,9.0,24.1,92,41.2,36.1,3,5,7,1,2026-03-28T02:12:13.524678+05:30
Chennai,Tamil Nadu,13.0827,80.2707,25.0,92,0.0,1006.8,9.3,34.9,67,26.5,17.0,7,5,4,1,2026-03-28T02:12:13.524687+05:30
Kolkata,West Bengal,22.5726,88.3639,25.9,90,0.0,1004.0,8.4,39.2,100,34.5,30.9,7,5,4,1,2026-03-28T02:12:13.524695+05:30
Pune,Maharashtra,18.5204,73.8567,24.2,61,0.0,947.7,8.55,42.1,104,42.8,36.3,3,5,7,1,2026-03-28T02:12:13.524706+05:30
Ahmedabad,Gujarat,23.0225,72.5714,25.5,65,0.0,1001.6,7.95,29.9,62,19.8,14.8,7,5,4,1,2026-03-28T02:12:13.524714+05:30
Jaipur,Rajasthan,26.9124,75.7873,25.1,45,0.0,958.5,7.2,33.8,115,73.3,30.6,4,5,7,0,2026-03-28T02:12:13.524722+05:30
Lucknow,Uttar Pradesh,26.8467,80.9462,22.2,71,0.0,992.7,6.85,31.3,97,158.8,48.8,3,5,7,1,2026-03-28T02:12:13.524730+05:30
Kanpur,Uttar Pradesh,26.4499,80.3319,21.7,77,0.0,990.8,6.85,29.2,136,241.2,65.2,3,5,7,1,2026-03-28T02:12:13.524737+05:30
Chandigarh,Chandigarh,30.7333,76.7794,20.2,72,0.0,967.0,5.45,19.8,80,48.0,40.2,3,5,3,0,2026-03-28T02:12:13.524745+05:30
Srinagar,Jammu and Kashmir,34.0837,74.7973,7.3,83,0.0,834.7,6.15,17.3,99,54.4,45.4,3,10,7,0,2026-03-28T02:12:13.524772+05:30
Jammu,Jammu and Kashmir,32.7266,74.857,19.8,87,0.0,970.7,6.0,14.8,83,38.6,34.3,3,10,3,1,2026-03-28T02:12:13.524782+05:30
Amritsar,Punjab,31.634,74.8723,20.0,70,0.0,978.9,5.55,13.7,91,68.0,59.6,3,5,3,0,2026-03-28T02:12:13.524789+05:30
Ludhiana,Punjab,30.901,75.8573,20.6,70,0.0,977.2,6.25,17.3,92,96.6,56.0,3,5,7,0,2026-03-28T02:12:13.524797+05:30
Jalandhar,Punjab,31.326,75.5762,20.6,69,0.0,978.3,5.4,10.4,93,85.9,60.8,3,5,3,0,2026-03-28T02:12:13.524811+05:30
Dehradun,Uttarakhand,30.6284,78.0322,11.5,88,0.0,826.1,5.8,23.4,55,28.2,19.2,3,10,3,0,2026-03-28T02:12:13.524818+05:30
Shimla,Himachal Pradesh,31.1048,77.1734,9.9,82,0.0,779.9,5.65,30.6,63,42.6,33.6,3,10,3,0,2026-03-28T02:12:13.524825+05:30
Manali,Himachal Pradesh,32.2396,77.1887,14.1,64,0.0,814.5,8.45,26.6,76,28.3,13.0,3,5,7,0,2026-03-28T02:12:13.524833+05:30
Gurgaon,Haryana,28.4595,77.0266,22.1,66,0.0,980.1,6.7,16.9,649,285.0,78.9,3,5,7,0,2026-03-28T02:12:13.524842+05:30
Noida,Uttar Pradesh,28.5355,77.391,22.5,71,0.0,983.3,6.1,18.7,649,285.0,78.9,3,5,7,1,2026-03-28T02:12:13.524848+05:30
Ghaziabad,Uttar Pradesh,28.6692,77.4538,22.3,67,0.0,981.3,5.8,17.6,125,150.4,55.5,3,5,3,0,2026-03-28T02:12:13.524855+05:30
Faridabad,Haryana,28.4089,77.3178,21.7,73,0.0,982.5,6.05,18.4,649,285.0,78.9,3,5,7,1,2026-03-28T02:12:13.524862+05:30
Meerut,Uttar Pradesh,28.9845,77.7064,20.9,71,0.0,980.1,5.4,20.2,125,150.4,55.5,3,5,3,0,2026-03-28T02:12:13.524869+05:30
Agra,Uttar Pradesh,27.1767,78.0081,21.3,80,0.0,986.8,7.05,24.1,691,421.0,83.8,3,5,7,1,2026-03-28T02:12:13.524875+05:30
Varanasi,Uttar Pradesh,25.3176,82.9739,20.9,80,0.0,997.3,7.8,31.7,88,48.5,38.8,3,5,7,1,2026-03-28T02:12:13.524884+05:30
Prayagraj,Uttar Pradesh,25.4358,81.8463,20.0,84,0.0,995.2,7.7,33.1,86,43.7,27.9,3,5,7,1,2026-03-28T02:12:13.524891+05:30
Gorakhpur,Uttar Pradesh,26.7606,83.3732,19.7,79,0.0,996.5,7.5,29.2,94,60.3,39.8,3,5,7,0,2026-03-28T02:12:13.524898+05:30
Bareilly,Uttar Pradesh,28.367,79.4304,19.9,84,0.0,985.7,6.85,27.4,76,34.6,28.5,3,10,7,1,2026-03-28T02:12:13.524904+05:30
Aligarh,Uttar Pradesh,27.8974,78.088,21.1,80,0.0,984.2,6.65,20.9,269,295.2,81.0,3,5,7,1,2026-03-28T02:12:13.524910+05:30
Moradabad,Uttar Pradesh,28.8386,78.7733,20.0,82,0.0,982.4,6.15,24.8,81,50.1,38.4,3,5,7,1,2026-03-28T02:12:13.524916+05:30
Saharanpur,Uttar Pradesh,29.9637,77.546,19.5,77,0.0,974.2,5.4,22.0,93,69.6,60.5,3,5,3,0,2026-03-28T02:12:13.524925+05:30
Jhansi,Uttar Pradesh,25.4484,78.5685,20.7,72,0.0,977.0,7.7,26.6,84,116.9,35.5,3,5,7,0,2026-03-28T02:12:16.749652+05:30
Surat,Gujarat,21.1702,72.8311,26.7,85,0.0,1005.7,7.75,26.6,105,36.1,31.9,7,5,4,1,2026-03-28T02:12:16.749682+05:30
Vadodara,Gujarat,22.3072,73.1812,26.6,58,0.0,1003.6,7.95,31.0,72,53.9,38.9,4,5,4,1,2026-03-28T02:12:16.749692+05:30
Rajkot,Gujarat,22.3039,70.8022,23.8,89,0.0,994.7,7.8,40.3,52,14.1,9.2,3,5,7,1,2026-03-28T02:12:16.749699+05:30
Thane,Maharashtra,19.2183,72.9781,26.7,83,0.0,1007.1,8.0,36.7,102,29.9,20.0,7,5,4,1,2026-03-28T02:12:16.749707+05:30
Nagpur,Maharashtra,21.1458,79.0882,24.7,34,0.0,970.8,8.5,27.4,86,28.2,24.7,0,5,7,0,2026-03-28T02:12:16.749714+05:30
Nashik,Maharashtra,19.9975,73.7898,24.6,46,0.0,944.8,8.25,40.0,66,37.5,29.2,0,5,7,0,2026-03-28T02:12:16.749721+05:30
Aurangabad,Maharashtra,19.8762,75.3433,26.1,32,0.0,943.2,8.75,33.8,63,21.1,16.9,4,5,7,0,2026-03-28T02:12:16.749728+05:30
Solapur,Maharashtra,17.6599,75.9064,27.7,53,0.0,956.3,8.85,27.4,104,45.6,40.4,4,5,7,1,2026-03-28T02:12:16.749735+05:30
Kolhapur,Maharashtra,16.705,74.2433,23.8,94,0.0,947.3,8.95,46.4,152,56.3,52.9,3,5,7,1,2026-03-28T02:12:16.749743+05:30
Goa,Goa,15.2993,74.124,28.8,87,0.0,997.1,8.95,33.1,92,45.3,38.1,7,5,7,1,2026-03-28T02:12:16.749770+05:30
Jodhpur,Rajasthan,26.2389,73.0243,25.8,46,0.0,981.9,7.65,31.0,71,66.4,21.4,4,5,7,0,2026-03-28T02:12:16.749779+05:30
Udaipur,Rajasthan,24.5854,73.7125,23.1,56,0.0,945.7,8.4,32.0,53,64.0,20.7,0,5,7,0,2026-03-28T02:12:16.749786+05:30
Kota,Rajasthan,25.2138,75.8648,25.6,45,0.0,977.4,7.75,21.6,64,27.7,17.9,4,5,7,0,2026-03-28T02:12:16.749793+05:30
Bikaner,Rajasthan,28.0229,73.3119,24.0,50,0.0,980.3,6.8,25.6,60,38.3,13.9,0,5,7,0,2026-03-28T02:12:16.749800+05:30
Ajmer,Rajasthan,26.4499,74.6399,24.8,47,0.0,953.3,7.65,31.0,58,24.7,15.1,0,5,7,0,2026-03-28T02:12:16.749806+05:30
Gwalior,Madhya Pradesh,26.2183,78.1828,23.4,64,0.0,982.2,7.4,34.2,130,407.9,81.0,3,5,7,1,2026-03-28T02:12:16.749813+05:30
Indore,Madhya Pradesh,22.7196,75.8577,23.1,60,0.0,946.8,8.25,33.5,42,23.3,14.3,0,5,7,0,2026-03-28T02:12:16.749820+05:30
Bhopal,Madhya Pradesh,23.2599,77.4126,24.2,50,0.0,952.1,8.15,29.2,46,35.5,17.2,0,5,7,0,2026-03-28T02:12:16.749827+05:30
Jabalpur,Madhya Pradesh,23.1815,79.9864,24.0,58,0.0,958.8,8.25,27.0,54,36.9,18.7,0,5,7,0,2026-03-28T02:12:16.749833+05:30
Ujjain,Madhya Pradesh,23.1765,75.7885,23.8,59,0.0,952.6,8.15,30.6,45,24.0,15.1,0,5,7,0,2026-03-28T02:12:16.749841+05:30
Visakhapatnam,Andhra Pradesh,17.6868,83.2185,26.1,91,0.0,1002.7,9.0,49.3,78,31.7,24.5,7,5,4,1,2026-03-28T02:12:16.749848+05:30
Vijayawada,Andhra Pradesh,16.5062,80.648,25.3,93,0.0,1002.2,9.05,29.2,74,22.8,17.3,7,5,4,1,2026-03-28T02:12:16.749855+05:30
Guntur,Andhra Pradesh,16.3067,80.4365,25.3,93,0.0,1003.2,9.05,32.4,70,22.0,17.1,7,5,4,1,2026-03-28T02:12:16.749861+05:30
Nellore,Andhra Pradesh,14.4426,79.9865,25.0,91,0.0,1004.9,9.2,27.4,66,21.1,15.5,7,5,4,1,2026-03-28T02:12:16.749869+05:30
Kurnool,Andhra Pradesh,15.8281,78.0373,28.7,50,0.0,977.0,9.05,19.8,74,37.6,32.1,4,5,7,1,2026-03-28T02:12:16.749876+05:30
Kakinada,Andhra Pradesh,16.9891,82.2475,24.1,97,0.0,1006.8,9.0,32.8,67,28.8,18.2,3,5,4,1,2026-03-28T02:12:16.749883+05:30
Tirupati,Andhra Pradesh,13.6288,79.4192,24.2,89,0.0,991.2,9.3,22.0,94,38.0,33.3,3,5,7,1,2026-03-28T02:12:16.749889+05:30
Warangal,Telangana,17.9689,79.5941,26.9,65,0.0,977.1,8.9,44.6,82,32.2,28.5,7,5,7,1,2026-03-28T02:12:16.749895+05:30
Nizamabad,Telangana,18.6725,78.0941,26.8,57,0.0,963.8,8.8,24.5,95,43.5,36.4,4,5,7,1,2026-03-28T02:12:16.749901+05:30
Mysore,Karnataka,12.2958,76.6396,23.5,87,0.0,928.3,9.45,37.4,80,38.0,35.4,3,5,7,1,2026-03-28T02:12:16.749907+05:30
Mangalore,Karnataka,12.9141,74.856,28.6,83,0.0,1006.5,9.1,23.8,97,44.6,37.8,7,5,4,1,2026-03-28T02:12:16.749913+05:30
Hubli-Dharwad,Karnataka,15.3647,75.124,23.7,92,0.0,940.3,6.5,33.5,79,29.7,27.3,3,5,7,1,2026-03-28T02:12:16.749920+05:30
Belgaum,Karnataka,15.8497,74.4977,22.2,94,0.0,924.9,9.1,38.5,106,45.9,41.8,3,5,7,1,2026-03-28T02:12:19.972474+05:30
Coimbatore,Tamil Nadu,11.0168,76.9558,24.5,85,0.0,961.5,9.45,49.3,81,35.9,33.8,3,5,7,1,2026-03-28T02:12:19.972503+05:30
Madurai,Tamil Nadu,9.9252,78.1198,25.7,86,0.0,992.8,9.4,33.8,82,36.0,31.4,7,5,7,1,2026-03-28T02:12:19.972514+05:30
Trichy,Tamil Nadu,10.7905,78.7047,24.2,90,0.0,999.6,9.35,23.4,91,31.8,27.4,3,5,7,1,2026-03-28T02:12:19.972522+05:30
Salem,Tamil Nadu,11.6643,78.146,25.0,82,0.0,977.1,9.4,28.8,98,51.7,44.8,7,5,7,1,2026-03-28T02:12:19.972530+05:30
Tirunelveli,Tamil Nadu,8.7139,77.7567,26.5,80,0.0,1002.7,9.35,45.4,61,25.7,22.6,7,5,4,1,2026-03-28T02:12:19.972537+05:30
Vellore,Tamil Nadu,12.9165,79.1325,23.8,90,0.0,984.3,9.35,26.3,97,56.0,49.1,3,5,7,1,2026-03-28T02:12:19.972544+05:30
Erode,Tamil Nadu,11.341,77.7172,26.5,70,0.0,988.8,9.35,14.8,87,38.3,31.5,7,5,7,1,2026-03-28T02:12:19.972551+05:30
Kochi,Kerala,9.9312,76.2673,28.3,81,0.0,1008.6,9.15,31.3,81,33.5,31.3,7,0,4,1,2026-03-28T02:12:19.972558+05:30
Thiruvananthapuram,Kerala,8.5241,76.9366,27.8,85,0.0,1007.7,9.15,41.4,66,25.0,19.3,7,5,4,1,2026-03-28T02:12:19.972565+05:30
Kozhikode,Kerala,11.2588,75.7804,27.7,84,0.0,1008.1,9.1,28.1,87,30.7,23.8,7,0,4,1,2026-03-28T02:12:19.972571+05:30
Thrissur,Kerala,10.5276,76.2144,27.4,86,0.0,1007.0,9.15,36.7,94,35.6,32.0,7,5,4,1,2026-03-28T02:12:19.972578+05:30
Kannur,Kerala,11.8745,75.3704,27.4,85,0.0,1007.3,9.1,29.5,97,35.2,29.2,7,5,4,1,2026-03-28T02:12:19.972585+05:30
Patna,Bihar,25.5941,85.1376,23.1,71,0.0,999.7,7.9,24.1,126,36.4,26.2,3,5,7,1,2026-03-28T02:12:19.972593+05:30
Gaya,Bihar,24.7914,85.0002,21.6,78,0.0,994.2,8.05,22.3,67,41.2,27.6,3,5,7,1,2026-03-28T02:12:19.972599+05:30
Muzaffarpur,Bihar,26.1209,85.3647,21.1,93,0.0,999.6,7.85,29.2,152,42.3,32.7,3,5,7,1,2026-03-28T02:12:19.972605+05:30
Bhagalpur,Bihar,25.2425,87.0117,21.7,91,0.0,1000.0,7.6,29.9,119,47.1,24.8,3,5,4,1,2026-03-28T02:12:19.972612+05:30
Ranchi,Jharkhand,23.3441,85.3096,19.4,79,0.0,936.8,8.65,35.6,69,35.5,29.3,3,5,7,0,2026-03-28T02:12:19.972618+05:30
Jamshedpur,Jharkhand,22.8046,86.2029,24.9,68,0.0,989.9,8.5,39.2,122,51.9,38.5,3,5,7,1,2026-03-28T02:12:19.972625+05:30
Dhanbad,Jharkhand,23.7957,86.4304,23.9,66,0.0,978.9,8.4,32.4,117,78.0,60.5,3,5,7,1,2026-03-28T02:12:19.972632+05:30
Bokaro,Jharkhand,23.6693,86.1511,22.7,69,0.0,983.7,8.45,29.9,113,79.9,63.1,3,5,7,1,2026-03-28T02:12:19.972638+05:30
Bhubaneswar,Odisha,20.2961,85.8245,25.2,95,0.0,1000.8,8.8,31.3,96,36.3,32.1,7,5,4,1,2026-03-28T02:12:19.972646+05:30
Cuttack,Odisha,20.4625,85.8828,25.6,81,0.0,1003.0,8.8,37.1,96,36.3,32.1,7,5,4,1,2026-03-28T02:12:19.972653+05:30
Rourkela,Odisha,22.2604,84.8536,23.3,84,0.0,984.1,8.45,39.2,106,33.5,30.6,3,5,7,1,2026-03-28T02:12:19.972659+05:30
Raipur,Chhattisgarh,21.2514,81.6296,25.1,63,0.0,971.6,8.55,36.0,118,32.0,29.8,7,5,7,1,2026-03-28T02:12:19.972665+05:30
Bhilai,Chhattisgarh,21.1938,81.3509,25.2,65,0.0,971.8,8.55,37.8,105,28.9,26.3,7,5,7,1,2026-03-28T02:12:19.972672+05:30
Guwahati,Assam,26.1158,91.7086,22.9,87,0.1,1000.7,4.15,29.5,156,84.8,70.1,6,5,0,1,2026-03-28T02:12:19.972678+05:30
Agartala,Tripura,23.8315,91.2868,23.5,95,0.0,1003.8,7.3,34.6,155,70.5,64.0,3,5,4,1,2026-03-28T02:12:19.972685+05:30
Shillong,Meghalaya,25.5788,91.8933,12.8,86,0.0,853.7,2.55,56.2,120,43.4,36.2,3,10,3,0,2026-03-28T02:12:19.972692+05:30
Imphal,Manipur,24.817,93.9368,15.4,81,0.0,921.0,7.6,56.9,133,88.2,72.2,3,10,7,0,2026-03-28T02:12:19.972698+05:30
Aizawl,Mizoram,23.7271,92.7176,17.4,68,0.0,889.6,7.55,55.4,107,59.1,47.4,3,5,7,0,2026-03-28T02:12:19.972705+05:30
Kohima,Nagaland,25.6701,94.1077,14.2,70,0.0,852.2,7.1,70.9,99,52.9,41.9,3,5,7,0,2026-03-28T02:12:19.972711+05:30
Gangtok,Sikkim,27.3314,88.6138,12.4,90,0.0,833.8,7.55,17.6,110,48.8,37.0,3,10,7,0,2026-03-28T02:12:19.972718+05:30
Siliguri,West Bengal,26.7271,88.3953,18.3,85,0.0,992.9,7.5,25.2,158,65.0,47.8,3,10,7,0,2026-03-28T02:12:23.198963+05:30
Durgapur,West Bengal,23.5204,87.3119,25.9,60,0.0,993.3,8.35,28.8,134,42.0,25.8,4,5,7,1,2026-03-28T02:12:23.198993+05:30
Asansol,West Bengal,23.6739,86.9524,24.9,70,0.0,992.1,8.35,31.3,94,43.3,27.0,3,5,7,1,2026-03-28T02:12:23.199004+05:30
Pondicherry,Puducherry,11.9139,79.8145,23.3,94,0.0,1008.0,9.25,29.2,67,25.8,16.4,3,0,4,1,2026-03-28T02:12:23.199011+05:30
Port Blair,Andaman and Nicobar Islands,11.6234,92.7265,28.2,79,0.0,1005.1,9.2,19.4,69,29.2,22.1,7,5,4,1,2026-03-28T02:12:23.199019+05:30
Haridwar,Uttarakhand,29.9457,78.1642,18.7,84,0.0,972.8,5.25,25.6,87,47.5,41.8,3,10,3,0,2026-03-28T02:12:23.199027+05:30
Rishikesh,Uttarakhand,30.0869,78.2676,18.6,77,0.0,965.5,5.1,28.4,65,43.2,30.4,3,5,3,0,2026-03-28T02:12:23.199034+05:30
Nainital,Uttarakhand,29.3919,79.4542,14.9,59,0.0,802.6,5.2,30.2,59,24.3,18.6,0,5,3,0,2026-03-28T02:12:23.199042+05:30
Mussoorie,Uttarakhand,30.4599,78.0664,13.1,77,0.0,798.9,4.9,25.6,73,47.8,37.1,3,5,3,0,2026-03-28T02:12:23.199049+05:30
Dharamshala,Himachal Pradesh,32.219,76.3234,17.2,68,0.0,866.1,6.25,22.0,44,23.2,12.8,3,5,7,0,2026-03-28T02:12:23.199055+05:30
Dalhousie,Himachal Pradesh,32.5387,75.971,13.5,75,0.0,799.8,6.1,18.7,73,43.0,34.5,3,5,7,0,2026-03-28T02:12:23.199063+05:30
Patiala,Punjab,30.3398,76.3869,18.9,79,0.0,976.7,5.4,13.7,93,76.8,56.9,3,5,3,0,2026-03-28T02:12:23.199069+05:30
Bhatinda,Punjab,30.211,74.9455,20.3,71,0.0,982.0,6.6,17.3,87,38.3,32.1,3,5,7,0,2026-03-28T02:12:23.199075+05:30
Rohtak,Haryana,28.8955,76.6066,20.9,73,0.0,980.3,6.1,15.1,132,149.9,60.3,3,5,7,0,2026-03-28T02:12:23.199082+05:30
Panipat,Haryana,29.3909,76.9635,20.3,71,0.0,978.9,5.6,18.0,147,68.9,50.3,3,5,3,0,2026-03-28T02:12:23.199088+05:30
Mathura,Uttar Pradesh,27.4924,77.6737,21.0,80,0.0,985.7,7.0,20.9,670,446.1,97.1,3,5,7,1,2026-03-28T02:12:23.199095+05:30
Vrindavan,Uttar Pradesh,27.5823,77.7027,21.5,77,0.0,986.1,6.95,21.2,670,446.1,97.1,3,5,7,1,2026-03-28T02:12:23.199102+05:30
Ayodhya,Uttar Pradesh,26.7922,82.1998,20.3,83,0.0,994.3,7.3,30.2,84,82.2,36.1,3,5,7,1,2026-03-28T02:12:23.199109+05:30
Ratlam,Madhya Pradesh,23.3315,75.0367,24.6,60,0.0,953.5,8.1,32.4,39,25.1,14.2,0,5,7,1,2026-03-28T02:12:23.199115+05:30
Sagar,Madhya Pradesh,23.8388,78.7378,23.8,51,0.0,948.4,8.15,28.1,52,31.1,15.8,0,5,7,0,2026-03-28T02:12:23.199121+05:30
Satna,Madhya Pradesh,24.6005,80.8322,21.1,68,0.0,970.4,8.1,25.6,67,59.5,24.6,3,5,7,0,2026-03-28T02:12:23.199128+05:30
Akola,Maharashtra,20.7002,77.0082,24.3,51,0.0,973.6,8.5,30.6,56,14.6,11.7,0,5,7,0,2026-03-28T02:12:23.199134+05:30
Amravati,Maharashtra,20.9374,77.7796,23.9,43,0.0,965.5,8.5,29.9,56,15.0,11.9,0,5,7,0,2026-03-28T02:12:23.199141+05:30
Latur,Maharashtra,18.4088,76.5604,25.8,42,0.0,938.9,8.85,30.2,93,50.3,38.1,4,5,7,0,2026-03-28T02:12:23.199148+05:30
Nanded,Maharashtra,19.1383,77.3091,27.6,47,0.0,967.7,8.7,23.8,84,37.8,32.2,4,5,7,0,2026-03-28T02:12:23.199154+05:30
Gulbarga,Karnataka,17.3297,76.8343,28.7,43,0.0,957.9,8.9,22.0,96,38.9,33.8,4,5,7,0,2026-03-28T02:12:23.199160+05:30
Bidar,Karnataka,17.9104,77.5199,27.0,51,0.0,935.0,8.9,22.7,89,45.1,38.4,4,5,7,0,2026-03-28T02:12:23.199166+05:30
Hospet,Karnataka,15.2689,76.3909,27.3,72,0.0,955.5,9.15,38.5,84,33.3,28.9,7,5,7,1,2026-03-28T02:12:23.199172+05:30
Tirupur,Tamil Nadu,11.1085,77.3411,26.0,83,0.0,974.9,9.45,36.4,95,43.1,39.1,7,5,7,1,2026-03-28T02:12:23.199178+05:30
Alappuzha,Kerala,9.4981,76.3388,28.1,84,0.0,1008.7,9.15,31.7,82,38.2,33.3,7,0,4,1,2026-03-28T02:12:23.199185+05:30
Munnar,Kerala,10.0889,77.0595,19.7,98,0.0,856.1,9.7,42.5,76,35.3,31.5,3,10,7,1,2026-03-28T02:12:23.199192+05:30
Silchar,Assam,24.8333,92.7789,22.7,80,0.0,1002.8,5.55,38.9,156,95.5,80.8,3,5,0,1,2026-03-28T02:12:23.199198+05:30
Dibrugarh,Assam,27.4728,94.912,22.5,78,0.0,995.7,6.8,26.6,123,43.1,34.9,3,5,7,1,2026-03-28T02:12:23.199204+05:30
