city,state,latitude,longitude,temp,humidity,rain,pressure,uv_index,wind_gusts,aqi,pm10,pm2_5,no2,co,o3,so2,mosquito_risk,arthritis_risk,migraine_risk,frizz_risk,updated_at
Delhi,Delhi,28.6139,77.209,25.9,97,0.4,972.7,1.25,35.3,109,35.3,34.9,30.1,407.0,54.0,14.3,10,5,3,1,2026-07-09T01:52:23.886785+05:30
Mumbai,Maharashtra,19.076,72.8777,27.9,87,0.0,1003.7,7.1,52.2,61,31.7,14.3,4.1,123.0,38.0,3.3,7,5,4,1,2026-07-09T01:52:23.886825+05:30
Bangalore,Karnataka,12.9716,77.5946,20.9,89,0.0,910.4,7.9,50.4,21,4.0,3.1,7.1,162.0,35.0,3.1,3,5,7,1,2026-07-09T01:52:23.886840+05:30
Hyderabad,Telangana,17.385,78.4867,24.5,85,0.0,949.1,7.7,44.6,27,7.2,5.5,7.7,180.0,36.0,4.4,3,5,7,1,2026-07-09T01:52:23.886849+05:30
Chennai,Tamil Nadu,13.0827,80.2707,31.4,54,0.0,1003.9,7.6,44.6,65,13.9,10.5,14.3,254.0,40.0,7.1,0,5,4,1,2026-07-09T01:52:23.886857+05:30
Kolkata,West Bengal,22.5726,88.3639,28.1,90,0.1,1000.0,0.95,33.1,68,21.5,15.9,5.4,146.0,64.0,5.5,10,5,0,1,2026-07-09T01:52:23.886865+05:30
Pune,Maharashtra,18.5204,73.8567,23.8,90,0.0,943.5,7.05,51.8,17,2.5,1.9,6.3,110.0,33.0,4.7,3,5,7,1,2026-07-09T01:52:23.886872+05:30
Ahmedabad,Gujarat,23.0225,72.5714,28.7,82,0.0,994.4,8.0,38.9,76,39.3,21.8,7.6,174.0,45.0,5.3,7,5,7,1,2026-07-09T01:52:23.886879+05:30
Jaipur,Rajasthan,26.9124,75.7873,26.6,85,0.0,950.0,7.05,43.9,102,91.0,40.7,23.8,311.0,50.0,8.8,7,5,7,1,2026-07-09T01:52:23.886886+05:30
Lucknow,Uttar Pradesh,26.8467,80.9462,26.4,97,0.1,984.2,7.45,31.7,68,13.1,13.1,12.0,265.0,69.0,6.4,10,5,7,1,2026-07-09T01:52:23.886896+05:30
Kanpur,Uttar Pradesh,26.4499,80.3319,27.3,91,0.0,981.7,7.1,28.8,57,11.0,10.8,11.7,298.0,70.0,3.8,7,5,7,1,2026-07-09T01:52:23.886903+05:30
Chandigarh,Chandigarh,30.7333,76.7794,26.7,94,0.0,960.0,1.05,22.3,117,62.6,62.2,63.3,452.0,11.0,13.8,7,5,3,1,2026-07-09T01:52:23.886909+05:30
Srinagar,Jammu and Kashmir,34.0837,74.7973,20.7,86,0.0,835.9,9.05,22.0,80,37.6,34.2,28.9,840.0,35.0,3.1,3,5,7,1,2026-07-09T01:52:23.886916+05:30
Jammu,Jammu and Kashmir,32.7266,74.857,25.7,93,0.0,963.8,8.65,26.3,151,79.4,70.1,21.8,618.0,89.0,7.1,7,5,7,1,2026-07-09T01:52:23.886923+05:30
Amritsar,Punjab,31.634,74.8723,27.4,90,0.0,971.5,8.5,25.9,161,64.0,56.2,21.5,659.0,69.0,7.4,7,5,7,1,2026-07-09T01:52:23.886929+05:30
Ludhiana,Punjab,30.901,75.8573,28.2,93,0.0,969.4,2.9,28.8,141,77.1,67.8,54.0,648.0,9.0,16.1,7,5,3,1,2026-07-09T01:52:23.886935+05:30
Jalandhar,Punjab,31.326,75.5762,27.9,91,0.0,970.4,2.15,29.2,147,54.1,54.1,42.5,773.0,28.0,14.7,7,5,3,1,2026-07-09T01:52:23.886941+05:30
Dehradun,Uttarakhand,30.6284,78.0322,19.0,97,0.2,824.8,2.8,19.8,59,19.9,19.8,36.0,297.0,37.0,0.7,6,10,3,1,2026-07-09T01:52:23.886947+05:30
Shimla,Himachal Pradesh,31.1048,77.1734,16.3,96,0.0,778.8,1.55,15.5,57,9.0,8.6,19.4,453.0,61.0,1.1,3,10,3,0,2026-07-09T01:52:23.886954+05:30
Manali,Himachal Pradesh,32.2396,77.1887,19.9,79,0.4,814.2,7.55,29.5,30,4.2,4.2,56.3,391.0,43.0,0.1,6,5,7,1,2026-07-09T01:52:23.886962+05:30
Gurgaon,Haryana,28.4595,77.0266,25.8,98,0.6,971.1,0.55,38.5,114,30.9,30.6,33.6,438.0,57.0,15.7,10,5,3,1,2026-07-09T01:52:23.886969+05:30
Noida,Uttar Pradesh,28.5355,77.391,26.1,95,0.9,973.9,2.85,44.3,114,30.9,30.6,33.6,397.0,57.0,15.7,10,5,3,1,2026-07-09T01:52:23.886976+05:30
Ghaziabad,Uttar Pradesh,28.6692,77.4538,26.3,93,1.5,972.3,3.2,46.8,95,20.7,20.5,13.1,297.0,74.0,4.9,10,5,3,1,2026-07-09T01:52:23.886985+05:30
Faridabad,Haryana,28.4089,77.3178,25.8,97,1.0,973.1,2.7,43.6,114,30.9,30.6,33.6,400.0,57.0,15.7,10,5,3,1,2026-07-09T01:52:23.886992+05:30
Meerut,Uttar Pradesh,28.9845,77.7064,26.0,95,0.6,971.8,1.95,40.7,95,20.7,20.5,13.1,291.0,74.0,4.9,10,5,3,1,2026-07-09T01:52:23.886998+05:30
Agra,Uttar Pradesh,27.1767,78.0081,26.3,97,0.4,975.8,7.5,66.2,73,19.8,19.5,14.6,270.0,71.0,5.7,10,5,7,1,2026-07-09T01:52:23.887006+05:30
Varanasi,Uttar Pradesh,25.3176,82.9739,28.0,86,0.0,989.3,8.05,36.4,61,20.9,20.5,33.3,444.0,31.0,29.7,7,5,7,1,2026-07-09T01:52:23.887012+05:30
Prayagraj,Uttar Pradesh,25.4358,81.8463,27.9,86,0.0,987.0,6.5,30.6,58,18.9,18.7,19.3,266.0,49.0,10.4,7,5,7,1,2026-07-09T01:52:23.887019+05:30
Gorakhpur,Uttar Pradesh,26.7606,83.3732,26.0,98,0.2,990.3,7.05,29.9,73,15.4,15.4,10.4,243.0,81.0,5.1,10,5,7,1,2026-07-09T01:52:23.887025+05:30
Bareilly,Uttar Pradesh,28.367,79.4304,26.1,96,0.1,977.1,5.8,56.9,67,16.5,16.4,8.4,253.0,91.0,5.1,10,5,3,1,2026-07-09T01:52:23.887033+05:30
Aligarh,Uttar Pradesh,27.8974,78.088,25.8,98,0.5,973.7,7.3,33.8,74,16.5,16.5,14.2,272.0,74.0,7.4,10,5,7,1,2026-07-09T01:52:23.887039+05:30
Moradabad,Uttar Pradesh,28.8386,78.7733,25.7,95,0.2,974.0,5.15,56.5,72,16.8,16.5,8.3,248.0,92.0,4.9,10,5,3,1,2026-07-09T01:52:23.887045+05:30
Saharanpur,Uttar Pradesh,29.9637,77.546,26.6,96,0.3,967.3,0.6,27.4,108,32.5,31.5,41.1,448.0,31.0,9.8,10,5,3,1,2026-07-09T01:52:23.887051+05:30
Jhansi,Uttar Pradesh,25.4484,78.5685,27.1,88,0.0,967.6,5.65,53.3,45,14.7,12.3,6.7,222.0,86.0,5.5,7,5,3,1,2026-07-09T01:52:27.359102+05:30
Surat,Gujarat,21.1702,72.8311,28.6,84,0.0,1000.1,7.45,56.9,75,30.0,18.3,16.8,252.0,30.0,28.5,7,5,4,1,2026-07-09T01:52:27.359134+05:30
Vadodara,Gujarat,22.3072,73.1812,29.0,79,0.0,996.9,5.35,46.1,75,37.7,21.7,10.1,138.0,36.0,6.6,7,5,3,1,2026-07-09T01:52:27.359144+05:30
Rajkot,Gujarat,22.3039,70.8022,26.9,86,0.0,987.0,7.45,48.6,68,27.9,13.5,4.4,102.0,41.0,4.3,7,5,7,1,2026-07-09T01:52:27.359153+05:30
Thane,Maharashtra,19.2183,72.9781,26.7,95,0.0,1003.0,6.85,43.6,61,31.7,14.3,4.1,136.0,38.0,3.3,7,5,4,1,2026-07-09T01:52:27.359161+05:30
Nagpur,Maharashtra,21.1458,79.0882,26.1,84,0.0,966.9,7.2,49.3,34,11.6,10.3,14.1,212.0,51.0,12.9,7,5,7,1,2026-07-09T01:52:27.359169+05:30
Nashik,Maharashtra,19.9975,73.7898,23.4,97,0.0,939.7,7.4,56.9,31,8.4,5.1,7.0,110.0,30.0,3.3,3,5,7,1,2026-07-09T01:52:27.359177+05:30
Aurangabad,Maharashtra,19.8762,75.3433,23.8,89,0.0,938.6,7.75,52.9,28,17.6,8.0,8.1,174.0,34.0,9.0,3,5,7,1,2026-07-09T01:52:27.359184+05:30
Solapur,Maharashtra,17.6599,75.9064,24.9,85,0.0,953.3,5.75,45.4,20,3.4,3.1,6.3,129.0,32.0,2.6,3,5,3,1,2026-07-09T01:52:27.359192+05:30
Kolhapur,Maharashtra,16.705,74.2433,22.3,96,0.0,944.6,6.9,55.8,19,3.1,2.4,3.7,112.0,38.0,1.8,3,5,7,1,2026-07-09T01:52:27.359200+05:30
Goa,Goa,15.2993,74.124,23.8,98,0.1,996.9,6.5,36.4,53,29.6,17.9,3.7,322.0,41.0,1.0,6,5,7,1,2026-07-09T01:52:27.359207+05:30
Jodhpur,Rajasthan,26.2389,73.0243,29.2,77,0.2,973.8,8.25,49.3,151,267.3,67.3,3.9,196.0,72.0,2.6,10,5,7,1,2026-07-09T01:52:27.359214+05:30
Udaipur,Rajasthan,24.5854,73.7125,26.1,88,0.0,938.0,8.65,43.9,76,44.0,25.8,7.5,170.0,64.0,5.8,7,5,7,1,2026-07-09T01:52:27.359222+05:30
Kota,Rajasthan,25.2138,75.8648,28.6,81,0.1,969.2,7.8,41.0,74,47.3,28.8,13.2,192.0,53.0,3.6,10,5,7,1,2026-07-09T01:52:27.359229+05:30
Bikaner,Rajasthan,28.0229,73.3119,30.7,64,0.0,971.6,8.2,37.8,153,228.6,74.0,2.8,140.0,72.0,3.6,3,5,7,1,2026-07-09T01:52:27.359236+05:30
Ajmer,Rajasthan,26.4499,74.6399,24.8,90,0.1,945.6,8.2,51.5,124,56.5,30.9,11.2,163.0,56.0,3.2,6,5,7,1,2026-07-09T01:52:27.359243+05:30
Gwalior,Madhya Pradesh,26.2183,78.1828,26.6,94,0.1,972.2,4.8,51.1,58,18.3,18.0,10.7,274.0,80.0,5.6,10,5,3,1,2026-07-09T01:52:27.359251+05:30
Indore,Madhya Pradesh,22.7196,75.8577,23.7,94,0.1,940.8,7.0,48.6,60,32.8,20.7,12.1,237.0,43.0,14.8,6,5,7,1,2026-07-09T01:52:27.359258+05:30
Bhopal,Madhya Pradesh,23.2599,77.4126,24.8,87,0.0,945.8,1.25,42.1,59,32.2,19.7,8.2,219.0,59.0,4.4,3,5,3,1,2026-07-09T01:52:27.359266+05:30
Jabalpur,Madhya Pradesh,23.1815,79.9864,24.3,98,0.1,953.8,8.15,41.0,41,7.9,7.3,6.3,222.0,70.0,3.1,6,5,7,1,2026-07-09T01:52:27.359273+05:30
Ujjain,Madhya Pradesh,23.1765,75.7885,24.6,91,0.0,946.1,7.0,47.2,61,29.2,18.9,11.2,229.0,43.0,13.9,3,5,7,1,2026-07-09T01:52:27.359281+05:30
Visakhapatnam,Andhra Pradesh,17.6868,83.2185,27.9,82,0.0,999.7,7.1,46.1,75,34.9,24.3,11.2,248.0,86.0,22.2,7,5,7,1,2026-07-09T01:52:27.359289+05:30
Vijayawada,Andhra Pradesh,16.5062,80.648,29.7,74,0.0,997.6,6.1,40.7,53,15.8,12.3,7.9,159.0,60.0,4.0,7,5,7,1,2026-07-09T01:52:27.359296+05:30
Guntur,Andhra Pradesh,16.3067,80.4365,31.8,53,0.0,999.0,6.4,43.6,52,13.5,10.5,9.9,153.0,47.0,4.3,0,5,7,1,2026-07-09T01:52:27.359303+05:30
Nellore,Andhra Pradesh,14.4426,79.9865,31.5,53,0.0,1002.3,7.5,48.2,38,11.9,7.3,5.6,176.0,39.0,3.5,0,5,4,1,2026-07-09T01:52:27.359310+05:30
Kurnool,Andhra Pradesh,15.8281,78.0373,27.2,70,0.0,974.1,4.6,49.7,24,7.0,4.9,6.2,116.0,33.0,2.5,7,5,3,1,2026-07-09T01:52:27.359319+05:30
Kakinada,Andhra Pradesh,16.9891,82.2475,28.9,77,0.0,1002.8,8.25,47.5,65,34.9,22.9,2.8,165.0,95.0,3.7,7,5,4,1,2026-07-09T01:52:27.359325+05:30
Tirupati,Andhra Pradesh,13.6288,79.4192,29.8,59,0.0,988.3,7.05,43.2,38,13.9,8.8,9.4,101.0,34.0,2.3,4,5,7,1,2026-07-09T01:52:27.359332+05:30
Warangal,Telangana,17.9689,79.5941,27.5,72,0.0,973.9,8.45,33.5,36,10.1,8.0,8.5,201.0,48.0,3.3,7,5,7,1,2026-07-09T01:52:27.359339+05:30
Nizamabad,Telangana,18.6725,78.0941,25.2,91,0.0,960.1,5.4,44.3,27,10.4,8.0,9.8,214.0,44.0,6.1,7,5,3,1,2026-07-09T01:52:27.359347+05:30
Mysore,Karnataka,12.2958,76.6396,21.5,90,0.0,927.8,7.6,45.0,19,6.8,4.5,4.2,103.0,37.0,1.5,3,5,7,1,2026-07-09T01:52:27.359354+05:30
Mangalore,Karnataka,12.9141,74.856,24.2,97,0.9,1007.0,7.5,34.9,56,19.4,13.5,11.1,232.0,22.0,2.7,6,5,4,1,2026-07-09T01:52:27.359360+05:30
Hubli-Dharwad,Karnataka,15.3647,75.124,22.0,95,0.0,938.4,7.35,55.8,18,2.3,1.6,3.3,101.0,38.0,1.2,3,5,7,1,2026-07-09T01:52:27.359367+05:30
Belgaum,Karnataka,15.8497,74.4977,21.3,98,0.0,922.7,5.8,57.6,17,2.1,1.7,3.7,103.0,37.0,1.3,3,5,3,1,2026-07-09T01:52:30.771282+05:30
Coimbatore,Tamil Nadu,11.0168,76.9558,22.1,97,0.0,960.6,8.8,51.8,26,10.8,8.0,8.5,193.0,25.0,2.8,3,5,7,1,2026-07-09T01:52:30.771311+05:30
Madurai,Tamil Nadu,9.9252,78.1198,28.6,61,0.0,991.9,8.4,45.4,61,16.4,14.3,23.5,129.0,6.0,4.8,7,5,7,1,2026-07-09T01:52:30.771321+05:30
Trichy,Tamil Nadu,10.7905,78.7047,28.8,63,0.0,998.3,5.7,54.0,43,15.1,9.2,4.4,107.0,38.0,2.5,7,5,3,1,2026-07-09T01:52:30.771329+05:30
Salem,Tamil Nadu,11.6643,78.146,25.1,85,0.0,976.4,8.4,32.8,56,18.8,13.4,14.8,179.0,26.0,6.0,7,5,7,1,2026-07-09T01:52:30.771337+05:30
Tirunelveli,Tamil Nadu,8.7139,77.7567,29.0,61,0.0,1002.5,8.4,51.1,40,14.7,9.6,6.1,145.0,32.0,2.1,7,5,4,1,2026-07-09T01:52:30.771345+05:30
Vellore,Tamil Nadu,12.9165,79.1325,29.3,55,0.0,982.2,7.8,44.3,38,11.8,8.1,8.2,129.0,36.0,3.3,4,5,7,1,2026-07-09T01:52:30.771352+05:30
Erode,Tamil Nadu,11.341,77.7172,25.0,80,0.0,988.4,8.65,49.0,49,20.2,15.8,16.4,176.0,23.0,4.2,7,5,7,1,2026-07-09T01:52:30.771359+05:30
Kochi,Kerala,9.9312,76.2673,24.6,98,0.0,1009.5,8.55,34.2,56,18.2,14.0,14.5,237.0,19.0,4.4,3,0,4,1,2026-07-09T01:52:30.771366+05:30
Thiruvananthapuram,Kerala,8.5241,76.9366,23.9,96,0.0,1009.0,7.85,45.4,46,16.5,10.3,5.7,198.0,36.0,2.5,3,0,4,1,2026-07-09T01:52:30.771373+05:30
Kozhikode,Kerala,11.2588,75.7804,23.8,96,0.0,1008.6,8.1,37.4,46,21.1,13.4,3.1,287.0,40.0,1.4,3,0,4,1,2026-07-09T01:52:30.771380+05:30
Thrissur,Kerala,10.5276,76.2144,23.4,99,0.1,1007.9,8.55,38.5,57,11.1,9.3,16.3,830.0,12.0,4.0,6,5,4,1,2026-07-09T01:52:30.771387+05:30
Kannur,Kerala,11.8745,75.3704,24.6,93,0.3,1007.9,8.25,34.6,51,21.9,15.8,16.4,226.0,17.0,3.1,6,5,4,1,2026-07-09T01:52:30.771394+05:30
Patna,Bihar,25.5941,85.1376,28.0,90,0.0,992.9,8.2,24.5,80,28.5,27.9,22.3,233.0,43.0,11.8,7,5,7,1,2026-07-09T01:52:30.771401+05:30
Gaya,Bihar,24.7914,85.0002,28.7,78,0.0,986.1,8.25,30.2,61,20.3,19.2,15.2,389.0,51.0,12.7,7,5,7,1,2026-07-09T01:52:30.771408+05:30
Muzaffarpur,Bihar,26.1209,85.3647,27.6,93,0.1,993.3,8.7,28.4,80,22.9,22.6,17.4,291.0,57.0,7.3,10,5,7,1,2026-07-09T01:52:30.771414+05:30
Bhagalpur,Bihar,25.2425,87.0117,27.5,94,0.1,993.9,5.8,24.5,93,33.1,31.3,18.0,437.0,55.0,14.4,10,5,3,1,2026-07-09T01:52:30.771420+05:30
Ranchi,Jharkhand,23.3441,85.3096,24.9,84,0.0,931.5,8.4,39.6,53,15.8,13.6,11.6,215.0,55.0,15.6,3,5,7,1,2026-07-09T01:52:30.771427+05:30
Jamshedpur,Jharkhand,22.8046,86.2029,27.6,87,0.0,984.5,6.6,36.4,77,33.9,30.0,24.0,464.0,47.0,28.4,7,5,7,1,2026-07-09T01:52:30.771434+05:30
Dhanbad,Jharkhand,23.7957,86.4304,26.9,95,0.0,973.1,7.85,37.8,117,54.4,50.9,51.2,1212.0,20.0,106.2,7,5,7,1,2026-07-09T01:52:30.771440+05:30
Bokaro,Jharkhand,23.6693,86.1511,27.4,89,0.0,976.9,8.45,34.2,94,48.4,44.0,42.4,2856.0,25.0,87.1,7,5,7,1,2026-07-09T01:52:30.771447+05:30
Bhubaneswar,Odisha,20.2961,85.8245,28.1,79,0.0,996.7,4.55,51.5,67,19.8,14.6,4.8,133.0,67.0,4.1,7,5,3,1,2026-07-09T01:52:30.771454+05:30
Cuttack,Odisha,20.4625,85.8828,28.3,79,0.0,998.5,4.95,43.6,67,19.8,14.6,4.8,141.0,67.0,4.1,7,5,3,1,2026-07-09T01:52:30.771460+05:30
Rourkela,Odisha,22.2604,84.8536,27.3,90,0.0,978.7,7.65,40.0,59,22.1,18.9,14.3,222.0,46.0,12.7,7,5,7,1,2026-07-09T01:52:30.771467+05:30
Raipur,Chhattisgarh,21.2514,81.6296,26.8,83,0.0,967.9,7.05,45.7,51,10.5,10.4,18.1,321.0,62.0,32.1,7,5,7,1,2026-07-09T01:52:30.771473+05:30
Bhilai,Chhattisgarh,21.1938,81.3509,26.4,86,0.1,968.5,8.5,47.5,50,10.4,10.3,16.0,441.0,63.0,28.8,10,5,7,1,2026-07-09T01:52:30.771480+05:30
Guwahati,Assam,26.1158,91.7086,26.1,99,0.0,995.8,7.9,17.3,49,9.9,9.7,8.1,214.0,50.0,2.8,7,5,7,1,2026-07-09T01:52:30.771486+05:30
Agartala,Tripura,23.8315,91.2868,24.5,99,0.3,1001.2,0.95,42.8,49,5.6,5.2,8.1,140.0,53.0,1.3,6,5,0,1,2026-07-09T01:52:30.771493+05:30
Shillong,Meghalaya,25.5788,91.8933,20.1,98,0.0,853.3,2.85,33.1,26,1.0,0.9,5.8,182.0,52.0,3.0,3,5,3,1,2026-07-09T01:52:30.771499+05:30
Imphal,Manipur,24.817,93.9368,22.5,99,0.1,919.1,1.9,32.4,23,5.9,5.6,7.2,257.0,39.0,1.7,6,5,3,1,2026-07-09T01:52:30.771506+05:30
Aizawl,Mizoram,23.7271,92.7176,20.0,97,0.9,888.3,3.0,46.1,24,0.8,0.7,2.0,114.0,53.0,0.5,6,5,3,1,2026-07-09T01:52:30.771512+05:30
Kohima,Nagaland,25.6701,94.1077,21.0,95,0.2,852.2,2.15,22.7,21,1.7,1.7,3.6,274.0,49.0,1.0,6,5,3,1,2026-07-09T01:52:30.771519+05:30
Gangtok,Sikkim,27.3314,88.6138,19.7,90,1.6,834.0,7.4,25.9,42,3.3,3.3,4.5,252.0,92.0,1.8,6,10,7,1,2026-07-09T01:52:30.771526+05:30
Siliguri,West Bengal,26.7271,88.3953,25.5,98,0.3,986.7,7.9,25.6,59,18.4,18.3,10.0,347.0,87.0,4.7,10,5,7,1,2026-07-09T01:52:34.188741+05:30
Durgapur,West Bengal,23.5204,87.3119,27.7,95,0.0,988.2,5.85,36.4,101,35.7,32.5,25.2,317.0,42.0,33.7,7,5,3,1,2026-07-09T01:52:34.188774+05:30
Asansol,West Bengal,23.6739,86.9524,27.5,94,0.0,986.7,7.35,36.7,97,31.3,28.8,24.8,396.0,41.0,33.3,7,5,7,1,2026-07-09T01:52:34.188786+05:30
Pondicherry,Puducherry,11.9139,79.8145,29.1,70,0.0,1006.1,7.3,45.7,73,21.7,16.3,17.3,268.0,42.0,7.3,7,5,4,1,2026-07-09T01:52:34.188794+05:30
Port Blair,Andaman and Nicobar Islands,11.6234,92.7265,27.6,80,0.0,1006.9,8.65,41.8,59,21.4,12.8,0.1,88.0,57.0,0.4,7,5,4,1,2026-07-09T01:52:34.188802+05:30
Haridwar,Uttarakhand,29.9457,78.1642,26.2,97,0.5,965.5,6.1,22.0,81,27.5,26.8,35.2,325.0,33.0,7.5,10,5,7,1,2026-07-09T01:52:34.188810+05:30
Rishikesh,Uttarakhand,30.0869,78.2676,25.9,94,0.6,958.4,7.1,14.0,52,10.3,10.1,10.5,302.0,81.0,3.3,10,5,7,1,2026-07-09T01:52:34.188817+05:30
Nainital,Uttarakhand,29.3919,79.4542,17.1,98,0.3,800.0,7.85,52.2,49,9.5,9.0,6.0,205.0,88.0,2.0,6,10,7,1,2026-07-09T01:52:34.188824+05:30
Mussoorie,Uttarakhand,30.4599,78.0664,17.0,100,0.2,797.5,3.6,33.1,58,16.9,16.8,27.7,313.0,58.0,7.3,6,10,3,1,2026-07-09T01:52:34.188832+05:30
Dharamshala,Himachal Pradesh,32.219,76.3234,22.0,92,0.1,862.9,7.2,36.4,35,5.9,5.7,14.1,614.0,44.0,0.7,6,5,7,1,2026-07-09T01:52:34.188839+05:30
Dalhousie,Himachal Pradesh,32.5387,75.971,17.4,93,0.0,798.7,7.6,29.9,96,56.5,54.1,41.1,708.0,57.0,4.4,3,10,7,1,2026-07-09T01:52:34.188847+05:30
Patiala,Punjab,30.3398,76.3869,27.5,92,0.0,969.0,1.05,23.4,131,70.8,69.8,45.9,843.0,18.0,11.8,7,5,3,1,2026-07-09T01:52:34.188855+05:30
Bhatinda,Punjab,30.211,74.9455,29.4,82,0.0,973.9,7.55,43.6,506,260.8,72.9,21.4,461.0,55.0,10.0,7,5,7,1,2026-07-09T01:52:34.188862+05:30
Rohtak,Haryana,28.8955,76.6066,26.2,95,0.5,972.2,0.45,33.8,119,44.1,43.9,36.6,410.0,38.0,13.2,10,5,3,1,2026-07-09T01:52:34.188869+05:30
Panipat,Haryana,29.3909,76.9635,26.1,96,0.5,971.6,0.3,28.1,110,47.7,47.4,33.8,537.0,34.0,12.1,10,5,3,1,2026-07-09T01:52:34.188876+05:30
Mathura,Uttar Pradesh,27.4924,77.6737,26.4,97,0.2,974.2,7.8,42.8,78,17.7,17.6,15.6,291.0,72.0,4.7,10,5,7,1,2026-07-09T01:52:34.188883+05:30
Vrindavan,Uttar Pradesh,27.5823,77.7027,26.4,97,0.4,974.7,7.8,40.3,78,17.7,17.6,15.6,283.0,72.0,4.7,10,5,7,1,2026-07-09T01:52:34.188890+05:30
Ayodhya,Uttar Pradesh,26.7922,82.1998,26.0,98,0.2,987.3,6.45,32.0,75,19.7,19.7,11.9,274.0,78.0,5.4,10,5,7,1,2026-07-09T01:52:34.188897+05:30
Ratlam,Madhya Pradesh,23.3315,75.0367,24.5,98,0.0,947.5,8.2,49.7,61,28.1,18.4,12.6,203.0,40.0,15.3,3,5,7,1,2026-07-09T01:52:34.188904+05:30
Sagar,Madhya Pradesh,23.8388,78.7378,24.4,97,0.0,941.7,4.0,51.1,46,6.8,5.5,5.3,202.0,72.0,2.8,3,5,3,1,2026-07-09T01:52:34.188911+05:30
Satna,Madhya Pradesh,24.6005,80.8322,26.5,86,0.0,962.6,7.8,47.9,45,10.7,10.3,6.3,244.0,83.0,4.0,7,5,7,1,2026-07-09T01:52:34.188919+05:30
Akola,Maharashtra,20.7002,77.0082,26.4,82,0.0,969.2,5.5,52.6,32,15.0,10.9,11.6,185.0,43.0,8.9,7,5,3,1,2026-07-09T01:52:34.188926+05:30
Amravati,Maharashtra,20.9374,77.7796,25.6,85,0.0,961.4,6.45,49.7,31,11.0,9.6,13.1,176.0,46.0,10.0,7,5,7,1,2026-07-09T01:52:34.188934+05:30
Latur,Maharashtra,18.4088,76.5604,23.5,90,0.0,935.1,5.7,45.7,26,10.4,6.0,7.0,127.0,37.0,4.2,3,5,3,1,2026-07-09T01:52:34.188942+05:30
Nanded,Maharashtra,19.1383,77.3091,25.7,88,0.0,963.6,4.6,42.8,26,10.8,7.8,11.0,170.0,38.0,6.4,7,5,3,1,2026-07-09T01:52:34.188949+05:30
Gulbarga,Karnataka,17.3297,76.8343,24.8,86,0.0,954.8,6.05,51.1,21,3.8,3.1,6.7,129.0,32.0,3.0,3,5,7,1,2026-07-09T01:52:34.188956+05:30
Bidar,Karnataka,17.9104,77.5199,23.3,94,0.2,931.2,4.5,45.4,27,7.6,5.0,7.3,166.0,38.0,3.2,6,5,3,1,2026-07-09T01:52:34.188963+05:30
Hospet,Karnataka,15.2689,76.3909,24.0,85,0.0,953.5,7.95,52.9,19,3.6,2.5,4.1,104.0,37.0,1.6,3,5,7,1,2026-07-09T01:52:34.188971+05:30
Tirupur,Tamil Nadu,11.1085,77.3411,23.1,90,0.0,974.3,8.75,61.2,51,21.2,17.8,21.8,155.0,14.0,5.6,3,5,7,1,2026-07-09T01:52:34.188977+05:30
Alappuzha,Kerala,9.4981,76.3388,24.8,98,0.0,1009.6,8.55,36.7,53,18.3,11.6,10.0,162.0,30.0,4.3,3,0,4,1,2026-07-09T01:52:34.188984+05:30
Munnar,Kerala,10.0889,77.0595,16.5,100,0.1,856.5,8.55,38.9,25,10.0,7.1,6.5,82.0,21.0,1.0,6,10,7,1,2026-07-09T01:52:34.188992+05:30
Silchar,Assam,24.8333,92.7789,25.7,98,0.1,1000.4,2.0,27.7,27,5.5,5.0,5.6,210.0,49.0,2.1,10,5,0,1,2026-07-09T01:52:34.188999+05:30
Dibrugarh,Assam,27.4728,94.912,25.5,99,0.0,990.4,6.25,32.8,46,10.3,9.9,13.6,205.0,40.0,1.3,7,5,7,1,2026-07-09T01:52:34.189006+05:30
