city,state,latitude,longitude,temp,humidity,rain,pressure,uv_index,wind_gusts,aqi,pm10,pm2_5,no2,co,o3,so2,mosquito_risk,arthritis_risk,migraine_risk,frizz_risk,updated_at
Delhi,Delhi,28.6139,77.209,38.2,17,0.0,977.1,7.7,43.6,602,558.8,120.1,49.9,526.0,63.0,24.2,0,5,10,0,2026-05-24T20:36:20.673137+05:30
Mumbai,Maharashtra,19.076,72.8777,30.7,72,0.0,1009.2,6.75,42.8,39,16.1,11.1,6.9,215.0,44.0,5.3,3,0,4,1,2026-05-24T20:36:20.673177+05:30
Bangalore,Karnataka,12.9716,77.5946,21.9,96,0.1,913.8,4.75,34.6,53,28.5,26.0,34.4,439.0,48.0,10.2,6,5,3,1,2026-05-24T20:36:20.673192+05:30
Hyderabad,Telangana,17.385,78.4867,33.7,33,0.0,952.6,9.2,47.5,70,29.5,24.6,18.8,316.0,70.0,8.2,0,5,7,0,2026-05-24T20:36:20.673202+05:30
Chennai,Tamil Nadu,13.0827,80.2707,30.8,71,0.0,1005.9,8.6,55.8,135,30.3,25.2,11.2,377.0,126.0,9.2,3,5,4,1,2026-05-24T20:36:20.673211+05:30
Kolkata,West Bengal,22.5726,88.3639,29.5,89,0.0,1003.4,8.95,38.2,91,38.3,32.5,6.5,301.0,97.0,7.2,7,5,4,1,2026-05-24T20:36:20.673219+05:30
Pune,Maharashtra,18.5204,73.8567,26.8,77,0.0,949.3,8.1,52.2,41,12.8,9.9,7.7,205.0,65.0,9.6,7,5,7,1,2026-05-24T20:36:20.673226+05:30
Ahmedabad,Gujarat,23.0225,72.5714,38.2,31,0.0,999.9,8.15,37.1,53,12.3,9.5,4.1,161.0,61.0,2.7,0,5,10,1,2026-05-24T20:36:20.673233+05:30
Jaipur,Rajasthan,26.9124,75.7873,37.5,18,0.0,957.5,8.25,50.0,205,348.3,74.3,4.9,169.0,87.0,4.0,0,5,10,0,2026-05-24T20:36:20.673245+05:30
Lucknow,Uttar Pradesh,26.8467,80.9462,36.8,26,0.0,988.6,8.2,49.0,192,448.9,99.2,13.2,309.0,102.0,10.8,0,5,10,0,2026-05-24T20:36:20.673252+05:30
Kanpur,Uttar Pradesh,26.4499,80.3319,37.7,22,0.0,986.9,8.2,43.2,490,601.6,110.8,14.4,228.0,92.0,10.1,0,5,10,0,2026-05-24T20:36:20.673259+05:30
Chandigarh,Chandigarh,30.7333,76.7794,31.9,29,0.0,963.3,7.75,51.5,98,71.2,37.5,21.7,442.0,89.0,10.8,0,5,7,0,2026-05-24T20:36:20.673267+05:30
Srinagar,Jammu and Kashmir,34.0837,74.7973,18.5,65,0.0,842.3,8.7,25.2,78,18.5,12.4,10.5,385.0,82.0,2.4,3,5,7,0,2026-05-24T20:36:20.673274+05:30
Jammu,Jammu and Kashmir,32.7266,74.857,32.3,28,0.0,968.3,8.55,35.3,85,63.8,36.4,23.6,409.0,74.0,6.2,0,5,7,0,2026-05-24T20:36:20.673280+05:30
Amritsar,Punjab,31.634,74.8723,32.8,31,0.0,975.7,8.4,49.3,91,73.1,44.7,25.2,396.0,69.0,7.0,0,5,7,0,2026-05-24T20:36:20.673287+05:30
Ludhiana,Punjab,30.901,75.8573,33.7,32,0.0,973.3,8.0,40.7,90,59.5,39.3,18.8,312.0,80.0,8.0,0,5,7,0,2026-05-24T20:36:20.673296+05:30
Jalandhar,Punjab,31.326,75.5762,34.3,24,0.0,974.4,8.2,54.7,92,91.7,50.9,29.0,312.0,75.0,7.7,0,5,7,0,2026-05-24T20:36:20.673306+05:30
Dehradun,Uttarakhand,30.6284,78.0322,21.2,42,0.0,829.8,8.2,44.3,61,85.2,24.3,18.8,176.0,80.0,1.8,0,5,7,0,2026-05-24T20:36:20.673315+05:30
Shimla,Himachal Pradesh,31.1048,77.1734,17.5,37,0.0,784.1,8.25,65.5,68,97.6,27.1,12.6,229.0,89.0,3.2,0,5,7,0,2026-05-24T20:36:20.673326+05:30
Manali,Himachal Pradesh,32.2396,77.1887,13.9,72,0.0,818.2,9.65,45.0,96,13.0,5.7,17.7,214.0,108.0,0.3,3,5,7,0,2026-05-24T20:36:20.673333+05:30
Gurgaon,Haryana,28.4595,77.0266,35.7,24,0.0,975.5,7.8,42.5,1168,791.6,168.1,49.5,465.0,44.0,19.6,0,5,10,0,2026-05-24T20:36:20.673339+05:30
Noida,Uttar Pradesh,28.5355,77.391,35.8,23,0.0,978.6,7.75,40.7,1168,791.6,168.1,49.5,568.0,44.0,19.6,0,5,10,0,2026-05-24T20:36:20.673346+05:30
Ghaziabad,Uttar Pradesh,28.6692,77.4538,35.0,26,0.0,976.7,7.7,45.7,450,588.6,118.0,33.1,380.0,89.0,22.6,0,5,7,0,2026-05-24T20:36:20.673352+05:30
Faridabad,Haryana,28.4089,77.3178,37.1,21,0.0,978.1,7.8,46.4,1168,791.6,168.1,49.5,313.0,44.0,19.6,0,5,10,0,2026-05-24T20:36:20.673359+05:30
Meerut,Uttar Pradesh,28.9845,77.7064,34.5,30,0.0,975.9,7.65,51.1,450,588.6,118.0,33.1,319.0,89.0,22.6,0,5,7,0,2026-05-24T20:36:20.673365+05:30
Agra,Uttar Pradesh,27.1767,78.0081,37.5,22,0.0,982.8,8.05,46.1,706,538.3,113.4,33.3,235.0,53.0,15.2,0,5,10,0,2026-05-24T20:36:20.673371+05:30
Varanasi,Uttar Pradesh,25.3176,82.9739,38.3,18,0.0,992.7,8.75,49.3,153,91.3,42.7,15.2,262.0,90.0,11.3,0,5,10,0,2026-05-24T20:36:20.673378+05:30
Prayagraj,Uttar Pradesh,25.4358,81.8463,36.1,24,0.0,991.3,8.6,45.0,154,123.9,46.1,13.5,247.0,91.0,10.2,0,5,10,0,2026-05-24T20:36:20.673384+05:30
Gorakhpur,Uttar Pradesh,26.7606,83.3732,32.5,44,0.0,992.3,8.6,35.3,152,71.7,52.0,17.3,362.0,97.0,11.0,0,5,7,1,2026-05-24T20:36:20.673393+05:30
Bareilly,Uttar Pradesh,28.367,79.4304,35.2,24,0.0,981.4,8.05,43.6,148,158.8,57.4,16.2,269.0,103.0,11.9,0,5,10,0,2026-05-24T20:36:20.673400+05:30
Aligarh,Uttar Pradesh,27.8974,78.088,35.6,39,0.0,980.3,7.9,50.8,797,1017.0,180.7,29.8,402.0,67.0,12.7,0,5,10,1,2026-05-24T20:36:20.673407+05:30
Moradabad,Uttar Pradesh,28.8386,78.7733,35.0,23,0.0,978.4,7.85,51.1,150,264.5,78.9,22.1,422.0,81.0,10.7,0,5,7,0,2026-05-24T20:36:20.673413+05:30
Saharanpur,Uttar Pradesh,29.9637,77.546,34.7,23,0.0,970.3,7.4,56.5,99,175.6,52.7,20.1,354.0,91.0,12.8,0,5,7,0,2026-05-24T20:36:20.673419+05:30
Jhansi,Uttar Pradesh,25.4484,78.5685,37.7,19,0.0,974.6,8.45,45.7,92,51.1,28.8,5.1,202.0,72.0,3.5,0,5,10,0,2026-05-24T20:36:23.941630+05:30
Surat,Gujarat,21.1702,72.8311,30.9,75,0.0,1005.8,7.65,45.0,55,19.4,15.7,20.1,205.0,31.0,33.5,3,5,4,1,2026-05-24T20:36:23.941662+05:30
Vadodara,Gujarat,22.3072,73.1812,33.7,56,0.0,1002.6,8.1,43.6,48,17.4,13.9,11.6,154.0,58.0,13.9,0,5,4,1,2026-05-24T20:36:23.941675+05:30
Rajkot,Gujarat,22.3039,70.8022,31.5,64,0.0,993.5,7.7,49.0,55,19.6,14.0,4.6,141.0,59.0,5.9,3,5,7,1,2026-05-24T20:36:23.941685+05:30
Thane,Maharashtra,19.2183,72.9781,30.6,72,0.0,1008.6,7.1,40.3,39,16.1,11.1,6.9,191.0,44.0,5.3,3,0,4,1,2026-05-24T20:36:23.941695+05:30
Nagpur,Maharashtra,21.1458,79.0882,39.5,17,0.0,970.5,8.9,47.2,87,38.8,22.9,8.1,226.0,100.0,10.1,0,5,10,0,2026-05-24T20:36:23.941706+05:30
Nashik,Maharashtra,19.9975,73.7898,27.5,76,0.0,946.6,8.1,42.5,30,9.3,6.7,3.0,160.0,47.0,0.9,7,5,7,1,2026-05-24T20:36:23.941716+05:30
Aurangabad,Maharashtra,19.8762,75.3433,34.0,31,0.0,944.1,8.95,43.2,47,13.4,8.6,3.4,141.0,71.0,2.2,0,5,7,0,2026-05-24T20:36:23.941724+05:30
Solapur,Maharashtra,17.6599,75.9064,31.5,50,0.0,957.1,9.0,41.0,60,19.5,15.1,7.1,173.0,78.0,3.7,0,5,7,1,2026-05-24T20:36:23.941731+05:30
Kolhapur,Maharashtra,16.705,74.2433,26.2,79,0.0,948.8,8.75,39.2,39,12.1,9.6,5.2,201.0,52.0,2.4,7,5,7,1,2026-05-24T20:36:23.941738+05:30
Goa,Goa,15.2993,74.124,28.1,85,0.0,999.1,5.75,28.8,46,18.0,13.3,4.1,212.0,46.0,1.4,7,5,3,1,2026-05-24T20:36:23.941746+05:30
Jodhpur,Rajasthan,26.2389,73.0243,36.8,23,0.0,979.9,8.45,54.7,203,356.7,73.3,3.3,141.0,80.0,2.1,0,5,10,0,2026-05-24T20:36:23.941753+05:30
Udaipur,Rajasthan,24.5854,73.7125,33.6,32,0.0,945.7,8.8,54.0,71,18.2,10.7,2.2,150.0,70.0,1.7,0,5,7,0,2026-05-24T20:36:23.941761+05:30
Kota,Rajasthan,25.2138,75.8648,38.0,20,0.0,976.0,8.4,42.8,90,78.0,34.5,7.3,220.0,73.0,4.6,0,5,10,0,2026-05-24T20:36:23.941791+05:30
Bikaner,Rajasthan,28.0229,73.3119,39.0,15,0.0,976.6,8.45,59.8,159,342.7,121.5,1.0,132.0,93.0,1.8,0,5,10,0,2026-05-24T20:36:23.941800+05:30
Ajmer,Rajasthan,26.4499,74.6399,34.4,26,0.0,952.9,8.4,62.6,100,93.6,32.7,2.7,150.0,87.0,2.4,0,5,7,0,2026-05-24T20:36:23.941808+05:30
Gwalior,Madhya Pradesh,26.2183,78.1828,38.7,18,0.0,979.3,8.25,46.1,103,63.6,30.4,4.5,168.0,79.0,3.6,0,5,10,0,2026-05-24T20:36:23.941816+05:30
Indore,Madhya Pradesh,22.7196,75.8577,35.2,28,0.0,947.8,8.7,44.6,67,46.2,24.4,3.9,204.0,98.0,5.2,0,5,10,0,2026-05-24T20:36:23.941823+05:30
Bhopal,Madhya Pradesh,23.2599,77.4126,36.0,20,0.0,951.9,8.7,45.7,80,79.2,32.7,6.3,262.0,82.0,4.2,0,5,10,0,2026-05-24T20:36:23.941830+05:30
Jabalpur,Madhya Pradesh,23.1815,79.9864,35.8,19,0.0,959.1,8.85,38.9,87,74.0,31.9,7.4,173.0,86.0,3.9,0,5,10,0,2026-05-24T20:36:23.941837+05:30
Ujjain,Madhya Pradesh,23.1765,75.7885,35.3,28,0.0,953.3,8.6,45.4,66,43.2,22.7,2.6,217.0,95.0,4.6,0,5,10,0,2026-05-24T20:36:23.941845+05:30
Visakhapatnam,Andhra Pradesh,17.6868,83.2185,32.0,75,0.0,1000.4,8.9,32.8,159,50.9,44.0,31.9,435.0,110.0,51.8,3,5,4,1,2026-05-24T20:36:23.941852+05:30
Vijayawada,Andhra Pradesh,16.5062,80.648,36.4,39,0.0,998.7,9.1,49.3,102,47.8,40.7,16.4,354.0,79.0,8.7,0,5,10,1,2026-05-24T20:36:23.941859+05:30
Guntur,Andhra Pradesh,16.3067,80.4365,36.1,38,0.0,1000.1,9.15,49.0,94,46.3,38.8,17.6,265.0,72.0,8.2,0,5,7,1,2026-05-24T20:36:23.941867+05:30
Nellore,Andhra Pradesh,14.4426,79.9865,33.5,50,0.0,1003.9,9.05,45.0,110,27.6,23.4,5.2,238.0,116.0,5.3,0,5,4,1,2026-05-24T20:36:23.941879+05:30
Kurnool,Andhra Pradesh,15.8281,78.0373,28.2,82,0.0,976.7,9.0,47.2,78,24.2,20.4,9.9,180.0,85.0,7.1,7,5,7,1,2026-05-24T20:36:23.941888+05:30
Kakinada,Andhra Pradesh,16.9891,82.2475,33.2,70,0.0,1003.1,8.8,36.4,137,33.4,26.2,3.6,678.0,128.0,3.1,3,5,4,1,2026-05-24T20:36:23.941895+05:30
Tirupati,Andhra Pradesh,13.6288,79.4192,30.5,65,0.0,990.5,9.1,42.5,117,34.3,31.7,10.1,464.0,94.0,4.7,3,5,7,1,2026-05-24T20:36:23.941902+05:30
Warangal,Telangana,17.9689,79.5941,35.5,29,0.0,976.1,9.0,49.3,94,48.7,34.2,11.9,356.0,84.0,6.8,0,5,10,0,2026-05-24T20:36:23.941909+05:30
Nizamabad,Telangana,18.6725,78.0941,35.3,27,0.0,963.3,9.1,45.4,75,43.9,26.3,11.1,251.0,74.0,4.3,0,5,10,0,2026-05-24T20:36:23.941916+05:30
Mysore,Karnataka,12.2958,76.6396,23.0,95,0.0,930.7,9.0,37.8,39,17.5,15.8,20.2,271.0,49.0,4.2,3,5,7,1,2026-05-24T20:36:23.941924+05:30
Mangalore,Karnataka,12.9141,74.856,27.2,88,0.0,1008.6,7.7,36.7,53,14.3,10.8,7.4,276.0,43.0,3.0,7,0,4,1,2026-05-24T20:36:23.941931+05:30
Hubli-Dharwad,Karnataka,15.3647,75.124,26.2,75,0.0,941.8,8.95,35.6,35,10.4,8.6,6.4,170.0,51.0,1.7,7,5,7,1,2026-05-24T20:36:23.941938+05:30
Belgaum,Karnataka,15.8497,74.4977,25.8,75,0.0,926.9,9.1,39.6,33,12.1,10.2,7.7,166.0,43.0,2.0,7,5,7,1,2026-05-24T20:36:27.190797+05:30
Coimbatore,Tamil Nadu,11.0168,76.9558,25.0,89,0.0,964.4,8.5,49.7,35,8.8,7.7,7.3,186.0,51.0,3.0,7,5,7,1,2026-05-24T20:36:27.190836+05:30
Madurai,Tamil Nadu,9.9252,78.1198,30.9,60,0.0,994.0,8.85,63.7,58,22.5,18.9,19.1,342.0,55.0,4.8,0,5,7,1,2026-05-24T20:36:27.190848+05:30
Trichy,Tamil Nadu,10.7905,78.7047,26.9,80,0.1,1000.7,8.3,52.6,51,18.5,16.2,11.7,207.0,66.0,4.4,10,5,4,1,2026-05-24T20:36:27.190857+05:30
Salem,Tamil Nadu,11.6643,78.146,25.5,93,0.1,979.7,8.9,33.5,64,27.1,22.6,17.8,239.0,61.0,8.0,10,5,7,1,2026-05-24T20:36:27.190865+05:30
Tirunelveli,Tamil Nadu,8.7139,77.7567,30.2,59,0.0,1004.0,8.8,39.2,34,7.3,6.3,4.7,165.0,59.0,1.8,0,5,4,1,2026-05-24T20:36:27.190872+05:30
Vellore,Tamil Nadu,12.9165,79.1325,29.2,62,0.0,984.7,9.1,47.2,65,27.6,25.1,6.4,251.0,98.0,3.4,7,5,7,1,2026-05-24T20:36:27.190879+05:30
Erode,Tamil Nadu,11.341,77.7172,26.2,94,0.4,991.3,8.95,52.6,48,15.9,13.7,14.4,347.0,58.0,3.5,10,5,7,1,2026-05-24T20:36:27.190886+05:30
Kochi,Kerala,9.9312,76.2673,25.6,98,0.0,1011.5,8.5,39.2,51,24.3,22.0,25.0,334.0,19.0,7.5,7,0,4,1,2026-05-24T20:36:27.190893+05:30
Thiruvananthapuram,Kerala,8.5241,76.9366,24.8,97,0.0,1011.0,8.4,46.4,31,10.6,6.6,3.0,183.0,55.0,1.2,3,0,4,1,2026-05-24T20:36:27.190900+05:30
Kozhikode,Kerala,11.2588,75.7804,25.9,98,0.0,1010.3,8.05,42.1,31,10.9,6.9,1.7,339.0,60.0,1.0,7,0,4,1,2026-05-24T20:36:27.190907+05:30
Thrissur,Kerala,10.5276,76.2144,25.5,99,0.0,1009.8,8.15,36.4,53,23.6,21.5,16.7,414.0,30.0,5.1,7,0,4,1,2026-05-24T20:36:27.190914+05:30
Kannur,Kerala,11.8745,75.3704,26.5,98,0.0,1009.4,6.6,40.7,48,14.3,10.9,9.4,342.0,40.0,2.5,7,0,4,1,2026-05-24T20:36:27.190921+05:30
Patna,Bihar,25.5941,85.1376,32.0,71,0.0,996.1,8.8,30.2,169,101.3,65.2,16.9,464.0,132.0,19.1,3,5,7,1,2026-05-24T20:36:27.190928+05:30
Gaya,Bihar,24.7914,85.0002,33.3,40,0.0,989.4,8.85,31.7,158,273.8,98.3,38.3,468.0,74.0,19.6,0,5,7,1,2026-05-24T20:36:27.190934+05:30
Muzaffarpur,Bihar,26.1209,85.3647,30.5,70,0.0,996.3,8.8,29.9,181,95.9,69.8,18.3,450.0,129.0,19.9,3,5,7,1,2026-05-24T20:36:27.190941+05:30
Bhagalpur,Bihar,25.2425,87.0117,31.5,75,0.0,997.2,8.8,24.1,167,54.2,49.9,10.5,411.0,126.0,13.7,3,5,7,1,2026-05-24T20:36:27.190948+05:30
Ranchi,Jharkhand,23.3441,85.3096,28.5,53,0.0,935.2,9.25,22.7,130,185.8,66.4,23.3,330.0,81.0,9.4,4,5,7,1,2026-05-24T20:36:27.190954+05:30
Jamshedpur,Jharkhand,22.8046,86.2029,31.4,58,0.0,987.3,9.1,38.5,169,58.0,43.8,11.8,883.0,120.0,23.2,0,5,7,1,2026-05-24T20:36:27.190961+05:30
Dhanbad,Jharkhand,23.7957,86.4304,32.5,50,0.0,976.7,9.0,30.2,158,123.4,78.5,44.6,1246.0,93.0,90.0,0,5,7,1,2026-05-24T20:36:27.190967+05:30
Bokaro,Jharkhand,23.6693,86.1511,32.7,45,0.0,980.0,9.05,26.6,159,247.7,91.7,44.2,854.0,75.0,67.2,0,5,7,1,2026-05-24T20:36:27.190974+05:30
Bhubaneswar,Odisha,20.2961,85.8245,30.2,85,0.0,1000.1,9.1,41.8,81,31.9,25.8,5.3,271.0,84.0,4.4,3,5,4,1,2026-05-24T20:36:27.190980+05:30
Cuttack,Odisha,20.4625,85.8828,30.2,85,0.0,1001.9,9.2,39.2,81,31.9,25.8,5.3,275.0,84.0,4.4,3,5,4,1,2026-05-24T20:36:27.190987+05:30
Rourkela,Odisha,22.2604,84.8536,33.1,47,0.0,981.1,8.95,42.5,145,162.5,72.6,21.7,720.0,94.0,16.4,0,5,7,1,2026-05-24T20:36:27.190994+05:30
Raipur,Chhattisgarh,21.2514,81.6296,38.1,25,0.0,971.3,8.95,37.4,121,94.1,62.4,43.5,323.0,43.0,45.0,0,5,10,0,2026-05-24T20:36:27.191000+05:30
Bhilai,Chhattisgarh,21.1938,81.3509,35.1,33,0.0,971.5,8.95,29.5,110,67.8,46.4,32.4,472.0,63.0,39.7,0,5,10,1,2026-05-24T20:36:27.191007+05:30
Guwahati,Assam,26.1158,91.7086,23.5,98,0.5,1000.3,8.75,27.7,58,25.6,22.1,10.2,446.0,60.0,3.8,6,5,4,1,2026-05-24T20:36:27.191014+05:30
Agartala,Tripura,23.8315,91.2868,26.8,91,0.0,1005.5,7.15,37.8,68,27.4,20.9,11.2,191.0,50.0,2.3,7,5,4,1,2026-05-24T20:36:27.191021+05:30
Shillong,Meghalaya,25.5788,91.8933,19.6,94,0.0,856.7,9.15,49.0,49,11.8,8.6,5.2,205.0,86.0,2.8,3,10,7,1,2026-05-24T20:36:27.191029+05:30
Imphal,Manipur,24.817,93.9368,22.6,91,0.0,922.8,9.05,36.7,77,32.5,22.8,11.0,266.0,45.0,3.2,3,5,7,1,2026-05-24T20:36:27.191036+05:30
Aizawl,Mizoram,23.7271,92.7176,20.1,93,0.0,892.3,8.65,38.9,61,16.1,9.3,3.2,179.0,69.0,1.3,3,5,7,1,2026-05-24T20:36:27.191042+05:30
Kohima,Nagaland,25.6701,94.1077,18.0,85,0.0,854.0,9.3,34.2,57,34.8,18.9,8.1,364.0,48.0,1.8,3,10,7,0,2026-05-24T20:36:27.191049+05:30
Gangtok,Sikkim,27.3314,88.6138,16.6,80,0.1,836.7,8.8,38.2,97,54.8,28.5,7.7,411.0,119.0,3.7,6,5,7,0,2026-05-24T20:36:27.191055+05:30
Siliguri,West Bengal,26.7271,88.3953,26.0,82,0.0,990.7,8.7,24.1,119,66.6,41.2,10.5,491.0,127.0,8.3,7,5,7,1,2026-05-24T20:36:30.452943+05:30
Durgapur,West Bengal,23.5204,87.3119,29.1,83,0.0,991.7,8.9,32.8,200,52.6,47.3,17.5,418.0,99.0,31.3,7,5,7,1,2026-05-24T20:36:30.452973+05:30
Asansol,West Bengal,23.6739,86.9524,29.7,80,0.0,990.4,8.9,32.8,184,54.5,49.4,18.1,743.0,116.0,36.4,7,5,7,1,2026-05-24T20:36:30.452983+05:30
Pondicherry,Puducherry,11.9139,79.8145,30.1,65,0.0,1008.2,8.75,36.7,119,31.4,25.6,15.7,321.0,112.0,18.4,3,0,4,1,2026-05-24T20:36:30.452991+05:30
Port Blair,Andaman and Nicobar Islands,11.6234,92.7265,26.2,94,0.1,1009.3,8.9,36.7,28,10.0,5.5,0.3,117.0,59.0,0.3,10,0,4,1,2026-05-24T20:36:30.452999+05:30
Haridwar,Uttarakhand,29.9457,78.1642,31.9,29,0.0,969.0,7.55,64.1,111,79.2,33.1,12.3,281.0,104.0,11.6,0,5,7,0,2026-05-24T20:36:30.453007+05:30
Rishikesh,Uttarakhand,30.0869,78.2676,29.3,35,0.0,962.0,7.65,52.2,115,58.4,26.0,6.9,269.0,121.0,8.5,4,5,7,0,2026-05-24T20:36:30.453016+05:30
Nainital,Uttarakhand,29.3919,79.4542,18.8,44,0.0,804.7,8.5,51.5,143,179.3,43.7,7.2,202.0,120.0,7.0,0,5,7,0,2026-05-24T20:36:30.453023+05:30
Mussoorie,Uttarakhand,30.4599,78.0664,19.1,39,0.0,802.5,8.05,63.0,90,50.5,26.3,11.3,207.0,115.0,8.9,0,5,7,0,2026-05-24T20:36:30.453030+05:30
Dharamshala,Himachal Pradesh,32.219,76.3234,22.0,41,0.0,867.2,8.4,43.9,62,29.6,14.1,11.1,220.0,57.0,1.4,0,5,7,0,2026-05-24T20:36:30.453037+05:30
Dalhousie,Himachal Pradesh,32.5387,75.971,18.9,38,0.0,804.2,8.65,36.0,78,64.3,27.0,23.3,388.0,79.0,3.3,0,5,7,0,2026-05-24T20:36:30.453044+05:30
Patiala,Punjab,30.3398,76.3869,34.6,24,0.0,972.7,7.65,50.8,423,263.6,58.3,15.6,272.0,79.0,7.6,0,5,7,0,2026-05-24T20:36:30.453052+05:30
Bhatinda,Punjab,30.211,74.9455,35.2,26,0.0,977.9,8.3,28.1,129,100.8,53.7,19.4,340.0,77.0,10.1,0,5,10,0,2026-05-24T20:36:30.453059+05:30
Rohtak,Haryana,28.8955,76.6066,35.0,24,0.0,975.5,7.75,38.9,757,510.4,116.9,48.4,623.0,40.0,12.0,0,5,7,0,2026-05-24T20:36:30.453065+05:30
Panipat,Haryana,29.3909,76.9635,34.2,27,0.0,974.7,7.6,44.6,1540,1013.3,179.7,37.9,490.0,57.0,12.5,0,5,7,0,2026-05-24T20:36:30.453072+05:30
Mathura,Uttar Pradesh,27.4924,77.6737,36.3,24,0.0,981.7,8.0,45.7,628,510.4,107.1,36.7,401.0,47.0,8.6,0,5,10,0,2026-05-24T20:36:30.453078+05:30
Vrindavan,Uttar Pradesh,27.5823,77.7027,35.3,25,0.0,982.0,8.0,45.0,628,510.4,107.1,36.7,494.0,47.0,8.6,0,5,10,0,2026-05-24T20:36:30.453085+05:30
Ayodhya,Uttar Pradesh,26.7922,82.1998,32.7,47,0.0,990.2,8.35,33.1,156,155.1,62.6,19.6,446.0,94.0,11.7,0,5,7,1,2026-05-24T20:36:30.453091+05:30
Ratlam,Madhya Pradesh,23.3315,75.0367,34.2,34,0.0,954.1,8.55,49.7,63,38.9,21.7,2.4,172.0,94.0,4.7,0,5,7,1,2026-05-24T20:36:30.453098+05:30
Sagar,Madhya Pradesh,23.8388,78.7378,35.0,20,0.0,948.3,8.75,45.7,86,78.7,32.5,9.3,190.0,80.0,3.9,0,5,7,0,2026-05-24T20:36:30.453104+05:30
Satna,Madhya Pradesh,24.6005,80.8322,35.2,26,0.0,968.1,8.8,47.2,108,50.4,25.3,8.9,229.0,87.0,3.6,0,5,10,0,2026-05-24T20:36:30.453111+05:30
Akola,Maharashtra,20.7002,77.0082,37.3,26,0.0,973.5,8.85,51.5,60,36.1,21.0,9.2,153.0,82.0,5.5,0,5,10,0,2026-05-24T20:36:30.453118+05:30
Amravati,Maharashtra,20.9374,77.7796,37.7,21,0.0,965.4,8.85,47.5,61,38.3,21.9,11.2,197.0,77.0,6.3,0,5,10,0,2026-05-24T20:36:30.453126+05:30
Latur,Maharashtra,18.4088,76.5604,31.4,38,0.0,939.1,9.05,38.9,66,24.6,16.8,8.3,321.0,90.0,3.7,0,5,7,0,2026-05-24T20:36:30.453132+05:30
Nanded,Maharashtra,19.1383,77.3091,35.5,27,0.0,967.1,9.0,38.9,58,34.6,21.2,10.7,233.0,77.0,3.6,0,5,10,0,2026-05-24T20:36:30.453139+05:30
Gulbarga,Karnataka,17.3297,76.8343,31.5,46,0.0,957.8,8.2,45.4,64,26.7,20.5,11.0,209.0,72.0,3.8,0,5,7,1,2026-05-24T20:36:30.453145+05:30
Bidar,Karnataka,17.9104,77.5199,31.5,42,0.0,935.0,9.1,46.4,72,32.0,23.9,18.9,203.0,73.0,5.7,0,5,7,1,2026-05-24T20:36:30.453151+05:30
Hospet,Karnataka,15.2689,76.3909,28.4,63,0.0,956.3,8.95,40.0,40,15.8,13.6,6.6,253.0,70.0,1.9,7,5,7,1,2026-05-24T20:36:30.453158+05:30
Tirupur,Tamil Nadu,11.1085,77.3411,27.1,78,0.0,977.8,8.9,52.2,49,16.2,13.9,14.2,169.0,52.0,4.4,7,5,7,1,2026-05-24T20:36:30.453164+05:30
Alappuzha,Kerala,9.4981,76.3388,25.9,95,0.1,1011.6,8.45,37.4,42,15.6,12.4,11.1,101.0,43.0,3.3,10,0,4,1,2026-05-24T20:36:30.453171+05:30
Munnar,Kerala,10.0889,77.0595,17.2,100,0.0,858.6,8.65,31.3,28,7.3,6.9,7.2,146.0,42.0,1.4,3,10,7,1,2026-05-24T20:36:30.453177+05:30
Silchar,Assam,24.8333,92.7789,26.5,97,0.1,1004.7,8.95,31.0,63,32.1,21.4,7.3,316.0,67.0,4.9,10,5,4,1,2026-05-24T20:36:30.453184+05:30
Dibrugarh,Assam,27.4728,94.912,24.1,87,0.0,994.3,8.45,37.1,62,25.6,19.6,11.9,235.0,59.0,2.1,3,5,7,1,2026-05-24T20:36:30.453190+05:30
