city,state,latitude,longitude,temp,humidity,rain,pressure,uv_index,wind_gusts,aqi,pm10,pm2_5,mosquito_risk,arthritis_risk,migraine_risk,frizz_risk,updated_at
Delhi,Delhi,28.6139,77.209,30.8,44,0.0,988.9,6.0,24.8,168,177.0,73.3,0,5,3,1,2026-03-08T11:15:53.612993+05:30
Mumbai,Maharashtra,19.076,72.8777,27.6,78,0.0,1011.1,7.5,25.9,102,52.7,51.3,7,0,4,1,2026-03-08T11:15:53.613028+05:30
Bangalore,Karnataka,12.9716,77.5946,29.7,39,0.0,915.2,9.25,27.4,109,42.5,34.9,4,5,7,0,2026-03-08T11:15:53.613043+05:30
Hyderabad,Telangana,17.385,78.4867,33.8,25,0.0,957.1,8.55,25.6,101,45.8,34.6,0,5,7,0,2026-03-08T11:15:53.613052+05:30
Chennai,Tamil Nadu,13.0827,80.2707,31.5,55,0.0,1011.1,8.95,32.4,80,39.7,26.7,0,0,4,1,2026-03-08T11:15:53.613060+05:30
Kolkata,West Bengal,22.5726,88.3639,29.1,65,0.0,1011.7,7.25,15.8,152,61.5,50.6,7,0,4,1,2026-03-08T11:15:53.613068+05:30
Pune,Maharashtra,18.5204,73.8567,34.6,26,0.0,952.4,8.05,29.5,110,19.8,19.2,0,5,7,0,2026-03-08T11:15:53.613080+05:30
Ahmedabad,Gujarat,23.0225,72.5714,31.8,43,0.0,1007.6,7.35,16.6,103,26.5,21.6,0,5,4,1,2026-03-08T11:15:53.613088+05:30
Jaipur,Rajasthan,26.9124,75.7873,34.1,22,0.0,966.3,6.8,23.0,84,36.9,19.4,0,5,7,0,2026-03-08T11:15:53.613095+05:30
Lucknow,Uttar Pradesh,26.8467,80.9462,30.6,52,0.0,999.4,6.5,21.6,180,120.6,86.4,0,5,7,1,2026-03-08T11:15:53.613102+05:30
Kanpur,Uttar Pradesh,26.4499,80.3319,30.1,58,0.0,997.8,6.5,16.9,175,135.0,82.0,0,5,7,1,2026-03-08T11:15:53.613108+05:30
Chandigarh,Chandigarh,30.7333,76.7794,29.2,55,0.0,974.4,5.9,30.2,156,75.0,55.2,4,5,3,1,2026-03-08T11:15:53.613115+05:30
Srinagar,Jammu and Kashmir,34.0837,74.7973,17.4,50,0.0,850.4,6.8,16.2,134,50.3,32.1,0,5,7,0,2026-03-08T11:15:53.613122+05:30
Jammu,Jammu and Kashmir,32.7266,74.857,29.1,48,0.0,978.6,6.4,29.5,134,41.3,32.1,4,5,7,1,2026-03-08T11:15:53.613129+05:30
Amritsar,Punjab,31.634,74.8723,28.9,61,0.0,987.1,6.4,23.4,164,88.5,71.2,7,5,7,1,2026-03-08T11:15:53.613136+05:30
Ludhiana,Punjab,30.901,75.8573,29.9,53,0.0,984.7,6.15,27.7,173,107.6,90.8,4,5,7,1,2026-03-08T11:15:53.613143+05:30
Jalandhar,Punjab,31.326,75.5762,29.2,57,0.0,985.8,6.3,26.3,171,102.7,86.6,4,5,7,1,2026-03-08T11:15:53.613151+05:30
Dehradun,Uttarakhand,30.6284,78.0322,23.1,37,0.0,836.7,6.3,37.8,106,29.8,15.9,0,5,7,0,2026-03-08T11:15:53.613158+05:30
Shimla,Himachal Pradesh,31.1048,77.1734,21.9,34,0.0,792.4,6.35,51.8,125,40.0,17.0,0,5,7,0,2026-03-08T11:15:53.613165+05:30
Manali,Himachal Pradesh,32.2396,77.1887,23.5,22,0.0,828.0,8.05,30.6,51,13.6,6.5,0,5,7,0,2026-03-08T11:15:53.613171+05:30
Gurgaon,Haryana,28.4595,77.0266,30.2,49,0.0,987.5,6.1,19.8,180,349.2,94.3,0,5,7,1,2026-03-08T11:15:53.613177+05:30
Noida,Uttar Pradesh,28.5355,77.391,31.1,44,0.0,990.5,6.0,24.8,180,349.2,94.3,0,5,3,1,2026-03-08T11:15:53.613183+05:30
Ghaziabad,Uttar Pradesh,28.6692,77.4538,29.8,53,0.0,988.6,6.0,24.5,169,142.5,72.6,4,5,3,1,2026-03-08T11:15:53.613189+05:30
Faridabad,Haryana,28.4089,77.3178,30.1,51,0.0,989.8,6.05,21.6,180,349.2,94.3,0,5,7,1,2026-03-08T11:15:53.613196+05:30
Meerut,Uttar Pradesh,28.9845,77.7064,29.8,55,0.0,987.3,5.85,29.2,169,142.5,72.6,4,5,3,1,2026-03-08T11:15:53.613202+05:30
Agra,Uttar Pradesh,27.1767,78.0081,32.0,46,0.0,993.7,6.4,20.5,158,213.3,67.5,0,5,7,1,2026-03-08T11:15:53.613208+05:30
Varanasi,Uttar Pradesh,25.3176,82.9739,30.4,58,0.0,1003.3,7.2,11.5,173,95.5,84.5,0,5,4,1,2026-03-08T11:15:53.613216+05:30
Prayagraj,Uttar Pradesh,25.4358,81.8463,29.5,60,0.0,1001.8,7.05,14.8,179,112.5,99.0,4,5,4,1,2026-03-08T11:15:53.613225+05:30
Gorakhpur,Uttar Pradesh,26.7606,83.3732,30.0,57,0.0,1003.3,6.9,16.2,173,91.3,83.1,4,5,4,1,2026-03-08T11:15:53.613231+05:30
Bareilly,Uttar Pradesh,28.367,79.4304,28.8,67,0.0,992.7,6.2,19.8,173,141.6,81.7,7,5,7,1,2026-03-08T11:15:53.613237+05:30
Aligarh,Uttar Pradesh,27.8974,78.088,30.7,54,0.0,991.4,6.1,23.4,171,184.9,98.7,0,5,7,1,2026-03-08T11:15:53.613243+05:30
Moradabad,Uttar Pradesh,28.8386,78.7733,28.5,67,0.0,989.6,6.05,23.8,182,143.9,97.6,7,5,7,1,2026-03-08T11:15:53.613249+05:30
Saharanpur,Uttar Pradesh,29.9637,77.546,28.0,68,0.0,981.2,5.65,36.7,173,116.9,81.5,7,5,3,1,2026-03-08T11:15:53.613254+05:30
Jhansi,Uttar Pradesh,25.4484,78.5685,32.1,38,0.0,984.0,7.0,26.3,111,83.4,36.6,0,5,7,0,2026-03-08T11:15:56.885849+05:30
Surat,Gujarat,21.1702,72.8311,31.8,43,0.0,1010.7,7.25,24.5,153,55.8,53.9,0,0,4,1,2026-03-08T11:15:56.885875+05:30
Vadodara,Gujarat,22.3072,73.1812,33.7,34,0.0,1009.3,7.35,16.6,114,21.8,19.4,0,0,4,0,2026-03-08T11:15:56.885884+05:30
Rajkot,Gujarat,22.3039,70.8022,29.6,52,0.0,999.8,7.15,20.9,74,57.5,24.0,4,5,7,1,2026-03-08T11:15:56.885891+05:30
Thane,Maharashtra,19.2183,72.9781,32.5,47,0.0,1010.7,7.5,33.1,102,52.7,51.3,0,0,4,1,2026-03-08T11:15:56.885898+05:30
Nagpur,Maharashtra,21.1458,79.0882,33.9,29,0.0,978.1,7.9,27.0,73,68.0,42.1,0,5,7,0,2026-03-08T11:15:56.885905+05:30
Nashik,Maharashtra,19.9975,73.7898,33.5,26,0.0,950.0,7.7,28.4,87,12.5,12.2,0,5,7,0,2026-03-08T11:15:56.885912+05:30
Aurangabad,Maharashtra,19.8762,75.3433,34.4,22,0.0,948.4,8.2,32.0,78,21.3,15.1,0,5,7,0,2026-03-08T11:15:56.885918+05:30
Solapur,Maharashtra,17.6599,75.9064,32.6,33,0.0,960.9,8.45,19.4,66,30.2,22.5,0,5,7,0,2026-03-08T11:15:56.885925+05:30
Kolhapur,Maharashtra,16.705,74.2433,32.5,28,0.0,951.3,8.6,34.6,126,41.3,38.5,0,5,7,0,2026-03-08T11:15:56.885931+05:30
Goa,Goa,15.2993,74.124,30.7,64,0.0,1000.2,8.65,36.0,137,45.3,42.7,3,5,4,1,2026-03-08T11:15:56.885938+05:30
Jodhpur,Rajasthan,26.2389,73.0243,32.6,34,0.0,989.2,7.05,17.6,64,35.5,14.6,0,5,7,0,2026-03-08T11:15:56.885944+05:30
Udaipur,Rajasthan,24.5854,73.7125,33.1,24,0.0,952.8,7.7,17.6,37,8.6,7.0,0,5,7,0,2026-03-08T11:15:56.885950+05:30
Kota,Rajasthan,25.2138,75.8648,32.5,30,0.0,985.1,7.1,9.4,91,23.5,21.8,0,5,7,0,2026-03-08T11:15:56.885956+05:30
Bikaner,Rajasthan,28.0229,73.3119,31.5,39,0.0,987.8,6.75,18.0,56,62.9,20.8,0,5,7,0,2026-03-08T11:15:56.885963+05:30
Ajmer,Rajasthan,26.4499,74.6399,32.8,24,0.0,961.0,7.05,20.5,69,42.5,15.2,0,5,7,0,2026-03-08T11:15:56.885969+05:30
Gwalior,Madhya Pradesh,26.2183,78.1828,31.8,41,0.0,989.2,6.7,23.8,105,93.4,36.2,0,5,7,1,2026-03-08T11:15:56.885975+05:30
Indore,Madhya Pradesh,22.7196,75.8577,32.9,27,0.0,953.8,7.65,20.2,76,27.1,23.7,0,5,7,0,2026-03-08T11:15:56.885981+05:30
Bhopal,Madhya Pradesh,23.2599,77.4126,33.1,29,0.0,959.5,7.5,21.2,67,60.5,26.7,0,5,7,0,2026-03-08T11:15:56.885987+05:30
Jabalpur,Madhya Pradesh,23.1815,79.9864,30.7,44,0.0,967.1,7.6,25.2,115,85.7,53.1,0,5,7,1,2026-03-08T11:15:56.885993+05:30
Ujjain,Madhya Pradesh,23.1765,75.7885,31.8,34,0.0,959.7,7.55,15.8,98,27.3,26.7,0,5,7,0,2026-03-08T11:15:56.885999+05:30
Visakhapatnam,Andhra Pradesh,17.6868,83.2185,30.1,63,0.0,1008.0,8.2,37.4,103,40.0,32.5,3,0,4,1,2026-03-08T11:15:56.886006+05:30
Vijayawada,Andhra Pradesh,16.5062,80.648,31.0,59,0.0,1006.7,8.6,29.5,104,36.9,28.2,0,5,4,1,2026-03-08T11:15:56.886012+05:30
Guntur,Andhra Pradesh,16.3067,80.4365,31.4,57,0.0,1007.8,8.6,28.8,102,36.1,28.1,0,5,4,1,2026-03-08T11:15:56.886018+05:30
Nellore,Andhra Pradesh,14.4426,79.9865,32.0,53,0.0,1009.4,8.8,32.8,93,39.8,30.3,0,0,4,1,2026-03-08T11:15:56.886025+05:30
Kurnool,Andhra Pradesh,15.8281,78.0373,34.5,31,0.0,980.4,8.6,25.6,92,53.0,43.9,0,5,7,0,2026-03-08T11:15:56.886032+05:30
Kakinada,Andhra Pradesh,16.9891,82.2475,31.5,54,0.0,1011.7,8.55,34.6,85,33.3,23.6,0,0,4,1,2026-03-08T11:15:56.886038+05:30
Tirupati,Andhra Pradesh,13.6288,79.4192,32.6,40,0.0,995.2,8.95,33.1,123,41.9,31.2,0,5,7,1,2026-03-08T11:15:56.886044+05:30
Warangal,Telangana,17.9689,79.5941,30.1,61,0.0,982.9,8.35,27.7,112,53.0,47.1,3,5,7,1,2026-03-08T11:15:56.886050+05:30
Nizamabad,Telangana,18.6725,78.0941,33.7,29,0.0,968.9,8.25,33.8,88,40.6,26.7,0,5,7,0,2026-03-08T11:15:56.886056+05:30
Mysore,Karnataka,12.2958,76.6396,30.0,49,0.0,931.7,9.25,33.5,131,43.8,39.1,4,5,7,1,2026-03-08T11:15:56.886064+05:30
Mangalore,Karnataka,12.9141,74.856,28.4,80,0.0,1009.0,8.85,24.8,117,43.9,41.2,7,0,4,1,2026-03-08T11:15:56.886071+05:30
Hubli-Dharwad,Karnataka,15.3647,75.124,33.6,25,0.0,944.1,8.8,25.6,98,37.7,31.0,0,5,7,0,2026-03-08T11:15:56.886077+05:30
Belgaum,Karnataka,15.8497,74.4977,33.4,22,0.0,929.2,8.85,33.8,108,29.8,24.4,0,5,7,0,2026-03-08T11:16:00.157901+05:30
Coimbatore,Tamil Nadu,11.0168,76.9558,31.4,47,0.0,965.1,9.2,38.5,130,43.7,38.3,0,5,7,1,2026-03-08T11:16:00.157927+05:30
Madurai,Tamil Nadu,9.9252,78.1198,32.0,47,0.0,996.6,9.15,32.0,99,44.8,36.7,0,5,7,1,2026-03-08T11:16:00.157936+05:30
Trichy,Tamil Nadu,10.7905,78.7047,31.8,53,0.0,1003.5,9.05,27.4,97,39.1,29.9,0,5,4,1,2026-03-08T11:16:00.157944+05:30
Salem,Tamil Nadu,11.6643,78.146,31.9,52,0.0,980.6,9.1,21.2,106,49.2,41.4,0,5,7,1,2026-03-08T11:16:00.157950+05:30
Tirunelveli,Tamil Nadu,8.7139,77.7567,34.1,40,0.0,1006.3,9.15,36.0,104,44.6,36.7,0,5,4,1,2026-03-08T11:16:00.157957+05:30
Vellore,Tamil Nadu,12.9165,79.1325,31.8,46,0.0,988.3,9.0,37.8,141,48.0,36.3,0,5,7,1,2026-03-08T11:16:00.157963+05:30
Erode,Tamil Nadu,11.341,77.7172,32.5,50,0.0,992.3,9.1,20.9,90,40.9,34.1,0,5,7,1,2026-03-08T11:16:00.157969+05:30
Kochi,Kerala,9.9312,76.2673,28.0,82,0.0,1011.0,8.9,35.6,138,47.8,45.4,7,0,4,1,2026-03-08T11:16:00.157976+05:30
Thiruvananthapuram,Kerala,8.5241,76.9366,27.8,80,0.0,1010.4,9.05,27.7,85,33.8,32.2,7,0,4,1,2026-03-08T11:16:00.157982+05:30
Kozhikode,Kerala,11.2588,75.7804,30.1,72,0.0,1010.1,8.95,28.1,99,28.5,27.1,3,0,4,1,2026-03-08T11:16:00.157989+05:30
Thrissur,Kerala,10.5276,76.2144,33.3,54,0.0,1009.0,9.0,37.8,131,41.4,38.9,0,0,4,1,2026-03-08T11:16:00.157995+05:30
Kannur,Kerala,11.8745,75.3704,31.5,62,0.0,1009.5,8.9,28.8,119,36.6,34.0,3,0,4,1,2026-03-08T11:16:00.158002+05:30
Patna,Bihar,25.5941,85.1376,30.5,54,0.0,1006.4,7.35,18.0,170,116.2,103.8,0,5,4,1,2026-03-08T11:16:00.158008+05:30
Gaya,Bihar,24.7914,85.0002,29.9,64,0.0,999.4,7.45,18.7,158,88.9,75.4,7,5,7,1,2026-03-08T11:16:00.158014+05:30
Muzaffarpur,Bihar,26.1209,85.3647,29.8,57,0.0,1006.6,7.3,19.1,173,121.5,109.4,4,5,4,1,2026-03-08T11:16:00.158020+05:30
Bhagalpur,Bihar,25.2425,87.0117,29.8,58,0.0,1007.4,7.35,15.8,161,92.0,73.3,4,5,4,1,2026-03-08T11:16:00.158026+05:30
Ranchi,Jharkhand,23.3441,85.3096,29.6,46,0.0,943.0,8.1,23.0,159,101.7,72.9,4,5,7,1,2026-03-08T11:16:00.158032+05:30
Jamshedpur,Jharkhand,22.8046,86.2029,29.9,63,0.0,996.0,8.0,23.8,154,100.8,80.6,7,5,7,1,2026-03-08T11:16:00.158039+05:30
Dhanbad,Jharkhand,23.7957,86.4304,30.6,46,0.0,985.4,7.85,22.7,166,110.1,90.8,0,5,7,1,2026-03-08T11:16:00.158045+05:30
Bokaro,Jharkhand,23.6693,86.1511,30.4,50,0.0,989.2,7.85,20.5,169,113.4,91.7,0,5,7,1,2026-03-08T11:16:00.158051+05:30
Bhubaneswar,Odisha,20.2961,85.8245,31.1,58,0.0,1007.3,8.2,33.1,133,51.0,38.0,0,5,4,1,2026-03-08T11:16:00.158057+05:30
Cuttack,Odisha,20.4625,85.8828,32.4,52,0.0,1009.0,8.3,28.4,133,51.0,38.0,0,0,4,1,2026-03-08T11:16:00.158064+05:30
Rourkela,Odisha,22.2604,84.8536,32.2,50,0.0,989.8,7.9,28.4,164,109.7,83.4,0,5,7,1,2026-03-08T11:16:00.158069+05:30
Raipur,Chhattisgarh,21.2514,81.6296,32.8,36,0.0,979.2,8.0,23.4,153,89.2,73.8,0,5,7,0,2026-03-08T11:16:00.158076+05:30
Bhilai,Chhattisgarh,21.1938,81.3509,33.2,36,0.0,979.7,8.0,23.4,150,92.2,74.0,0,5,7,1,2026-03-08T11:16:00.158082+05:30
Guwahati,Assam,26.1158,91.7086,30.8,49,0.0,1007.1,7.3,22.3,153,76.4,54.1,0,5,4,1,2026-03-08T11:16:00.158088+05:30
Agartala,Tripura,23.8315,91.2868,29.1,64,0.0,1012.1,7.6,18.7,153,69.6,54.5,7,0,4,1,2026-03-08T11:16:00.158094+05:30
Shillong,Meghalaya,25.5788,91.8933,19.0,42,0.0,861.6,7.35,26.6,125,54.8,40.9,0,5,7,0,2026-03-08T11:16:00.158100+05:30
Imphal,Manipur,24.817,93.9368,24.3,53,0.0,928.3,7.9,35.6,160,70.3,60.3,0,5,7,0,2026-03-08T11:16:00.158106+05:30
Aizawl,Mizoram,23.7271,92.7176,24.6,51,0.0,898.0,7.85,31.3,156,66.6,55.3,0,5,7,0,2026-03-08T11:16:00.158112+05:30
Kohima,Nagaland,25.6701,94.1077,19.7,59,0.0,860.4,7.0,49.3,159,84.1,72.9,0,5,7,0,2026-03-08T11:16:00.158119+05:30
Gangtok,Sikkim,27.3314,88.6138,17.0,76,0.0,843.1,5.1,15.1,158,66.4,54.0,3,5,3,0,2026-03-08T11:16:00.158125+05:30
Siliguri,West Bengal,26.7271,88.3953,24.9,55,0.0,1000.4,7.3,16.6,158,75.7,56.1,0,5,4,0,2026-03-08T11:16:03.432096+05:30
Durgapur,West Bengal,23.5204,87.3119,31.4,46,0.0,1000.7,7.85,20.9,160,89.9,77.8,0,5,4,1,2026-03-08T11:16:03.432123+05:30
Asansol,West Bengal,23.6739,86.9524,31.4,45,0.0,999.2,7.85,19.8,158,88.9,74.3,0,5,7,1,2026-03-08T11:16:03.432132+05:30
Pondicherry,Puducherry,11.9139,79.8145,31.8,56,0.0,1012.1,8.95,32.0,77,35.6,24.2,0,0,4,1,2026-03-08T11:16:03.432139+05:30
Port Blair,Andaman and Nicobar Islands,11.6234,92.7265,28.0,71,0.0,1010.1,8.9,27.0,91,38.5,27.5,7,0,4,1,2026-03-08T11:16:03.432146+05:30
Haridwar,Uttarakhand,29.9457,78.1642,28.9,64,0.0,979.8,5.8,28.4,161,101.3,71.7,7,5,3,1,2026-03-08T11:16:03.432153+05:30
Rishikesh,Uttarakhand,30.0869,78.2676,29.1,58,0.0,972.4,5.85,24.8,159,94.3,66.8,4,5,3,1,2026-03-08T11:16:03.432160+05:30
Nainital,Uttarakhand,29.3919,79.4542,21.3,71,0.0,811.9,6.65,67.3,157,85.9,60.1,3,5,7,0,2026-03-08T11:16:03.432167+05:30
Mussoorie,Uttarakhand,30.4599,78.0664,21.7,60,0.0,809.1,6.2,47.5,158,75.7,50.8,0,5,7,0,2026-03-08T11:16:03.432173+05:30
Dharamshala,Himachal Pradesh,32.219,76.3234,26.0,33,0.0,875.8,6.4,27.4,60,32.0,10.4,4,5,7,0,2026-03-08T11:16:03.432180+05:30
Dalhousie,Himachal Pradesh,32.5387,75.971,26.1,21,0.0,812.0,6.65,26.3,106,43.1,19.4,4,5,7,0,2026-03-08T11:16:03.432187+05:30
Patiala,Punjab,30.3398,76.3869,29.9,55,0.0,984.0,5.65,29.2,167,98.3,79.2,4,5,3,1,2026-03-08T11:16:03.432193+05:30
Bhatinda,Punjab,30.211,74.9455,30.1,55,0.0,989.9,6.5,17.3,152,92.0,49.9,0,5,7,1,2026-03-08T11:16:03.432200+05:30
Rohtak,Haryana,28.8955,76.6066,30.1,50,0.0,987.9,6.05,20.9,171,186.3,70.1,0,5,7,1,2026-03-08T11:16:03.432207+05:30
Panipat,Haryana,29.3909,76.9635,29.9,55,0.0,986.4,5.8,28.1,170,137.4,67.3,4,5,3,1,2026-03-08T11:16:03.432214+05:30
Mathura,Uttar Pradesh,27.4924,77.6737,31.6,46,0.0,992.8,6.3,22.3,158,134.6,57.5,0,5,7,1,2026-03-08T11:16:03.432220+05:30
Vrindavan,Uttar Pradesh,27.5823,77.7027,31.1,50,0.0,993.2,6.25,23.0,158,134.6,57.5,0,5,7,1,2026-03-08T11:16:03.432227+05:30
Ayodhya,Uttar Pradesh,26.7922,82.1998,30.4,52,0.0,1001.3,6.65,10.4,182,104.5,90.6,0,5,4,1,2026-03-08T11:16:03.432233+05:30
Ratlam,Madhya Pradesh,23.3315,75.0367,32.0,35,0.0,960.3,7.5,19.1,91,21.1,20.5,0,5,7,0,2026-03-08T11:16:03.432240+05:30
Sagar,Madhya Pradesh,23.8388,78.7378,32.0,33,0.0,956.1,7.45,21.6,79,69.6,32.0,0,5,7,0,2026-03-08T11:16:03.432247+05:30
Satna,Madhya Pradesh,24.6005,80.8322,31.5,37,0.0,977.1,7.4,27.4,160,95.9,64.3,0,5,7,0,2026-03-08T11:16:03.432253+05:30
Akola,Maharashtra,20.7002,77.0082,34.6,27,0.0,979.9,7.95,15.5,78,35.9,19.4,0,5,7,0,2026-03-08T11:16:03.432261+05:30
Amravati,Maharashtra,20.9374,77.7796,35.2,25,0.0,972.1,7.9,21.6,80,40.9,21.4,0,5,10,0,2026-03-08T11:16:03.432268+05:30
Latur,Maharashtra,18.4088,76.5604,33.7,24,0.0,943.9,8.4,23.8,82,26.7,20.5,0,5,7,0,2026-03-08T11:16:03.432275+05:30
Nanded,Maharashtra,19.1383,77.3091,35.5,26,0.0,972.7,8.15,25.2,88,36.6,24.9,0,5,10,0,2026-03-08T11:16:03.432282+05:30
Gulbarga,Karnataka,17.3297,76.8343,35.0,22,0.0,962.5,8.5,28.8,73,47.0,37.3,0,5,7,0,2026-03-08T11:16:03.432288+05:30
Bidar,Karnataka,17.9104,77.5199,33.9,24,0.0,939.7,8.4,29.2,87,33.3,23.7,0,5,7,0,2026-03-08T11:16:03.432295+05:30
Hospet,Karnataka,15.2689,76.3909,31.4,42,0.0,959.2,8.75,24.5,88,41.2,35.0,0,5,7,1,2026-03-08T11:16:03.432302+05:30
Tirupur,Tamil Nadu,11.1085,77.3411,32.2,48,0.0,978.6,9.2,30.2,118,42.0,36.2,0,5,7,1,2026-03-08T11:16:03.432309+05:30
Alappuzha,Kerala,9.4981,76.3388,28.2,81,0.0,1011.1,8.95,29.2,123,48.4,46.3,7,0,4,1,2026-03-08T11:16:03.432315+05:30
Munnar,Kerala,10.0889,77.0595,28.4,41,0.0,861.1,9.5,24.5,103,40.7,30.9,4,5,7,0,2026-03-08T11:16:03.432322+05:30
Silchar,Assam,24.8333,92.7789,30.2,61,0.0,1010.3,7.6,20.9,163,77.5,62.6,3,0,4,1,2026-03-08T11:16:03.432329+05:30
Dibrugarh,Assam,27.4728,94.912,27.0,63,0.0,1001.2,6.3,20.5,162,92.4,76.6,7,5,4,1,2026-03-08T11:16:03.432336+05:30
