city,state,latitude,longitude,temp,humidity,rain,pressure,uv_index,wind_gusts,aqi,pm10,pm2_5,mosquito_risk,arthritis_risk,migraine_risk,frizz_risk,updated_at
Delhi,Delhi,28.6139,77.209,29.9,29,0.0,980.7,7.45,48.6,600,542.0,108.3,4,5,7,0,2026-04-26T03:09:47.106168+05:30
Mumbai,Maharashtra,19.076,72.8777,28.8,49,0.0,1006.1,7.7,38.9,81,49.6,25.9,4,5,4,1,2026-04-26T03:09:47.106222+05:30
Bangalore,Karnataka,12.9716,77.5946,24.8,60,0.0,910.9,9.5,36.7,77,32.7,29.0,0,5,7,1,2026-04-26T03:09:47.106239+05:30
Hyderabad,Telangana,17.385,78.4867,28.1,56,0.0,951.8,8.85,28.8,118,28.9,24.8,4,5,7,1,2026-04-26T03:09:47.106250+05:30
Chennai,Tamil Nadu,13.0827,80.2707,27.4,91,0.0,1005.9,9.25,52.2,34,14.3,9.3,7,5,4,1,2026-04-26T03:09:47.106260+05:30
Kolkata,West Bengal,22.5726,88.3639,27.5,90,0.0,1004.7,8.6,47.2,74,24.2,19.2,7,5,4,1,2026-04-26T03:09:47.106274+05:30
Pune,Maharashtra,18.5204,73.8567,28.5,22,0.0,946.3,8.6,37.4,106,36.1,29.5,4,5,7,0,2026-04-26T03:09:47.106282+05:30
Ahmedabad,Gujarat,23.0225,72.5714,30.8,28,0.0,1000.1,8.2,34.9,62,35.5,15.6,0,5,4,0,2026-04-26T03:09:47.106290+05:30
Jaipur,Rajasthan,26.9124,75.7873,31.2,25,0.0,958.2,8.05,42.8,139,272.9,53.2,0,5,7,0,2026-04-26T03:09:47.106300+05:30
Lucknow,Uttar Pradesh,26.8467,80.9462,29.6,35,0.0,990.4,7.9,48.6,122,191.4,48.1,4,5,7,0,2026-04-26T03:09:47.106308+05:30
Kanpur,Uttar Pradesh,26.4499,80.3319,30.5,27,0.0,988.2,7.9,47.2,193,612.8,87.8,0,5,7,0,2026-04-26T03:09:47.106316+05:30
Chandigarh,Chandigarh,30.7333,76.7794,26.5,32,0.0,965.5,7.4,46.1,64,44.7,22.7,4,5,7,0,2026-04-26T03:09:47.106325+05:30
Srinagar,Jammu and Kashmir,34.0837,74.7973,8.8,99,0.0,842.2,8.6,14.8,80,55.8,39.1,3,10,7,0,2026-04-26T03:09:47.106333+05:30
Jammu,Jammu and Kashmir,32.7266,74.857,22.4,47,0.0,970.4,8.15,36.4,75,32.7,23.7,0,5,7,0,2026-04-26T03:09:47.106341+05:30
Amritsar,Punjab,31.634,74.8723,26.5,41,0.0,978.6,8.1,33.5,102,120.1,50.1,4,5,7,0,2026-04-26T03:09:47.106348+05:30
Ludhiana,Punjab,30.901,75.8573,26.0,44,0.0,976.4,7.65,39.2,87,78.2,37.6,4,5,7,0,2026-04-26T03:09:47.106358+05:30
Jalandhar,Punjab,31.326,75.5762,25.4,48,0.0,977.3,7.85,32.4,97,103.1,47.4,4,5,7,0,2026-04-26T03:09:47.106365+05:30
Dehradun,Uttarakhand,30.6284,78.0322,11.0,71,0.0,825.4,7.8,49.3,49,23.8,11.6,3,5,7,0,2026-04-26T03:09:47.106372+05:30
Shimla,Himachal Pradesh,31.1048,77.1734,13.9,42,0.0,783.0,7.9,46.4,58,62.9,20.0,0,5,7,0,2026-04-26T03:09:47.106380+05:30
Manali,Himachal Pradesh,32.2396,77.1887,9.2,61,0.0,815.0,9.3,42.5,46,3.7,2.6,3,5,7,0,2026-04-26T03:09:47.106388+05:30
Gurgaon,Haryana,28.4595,77.0266,26.5,37,0.0,979.1,7.55,46.8,1449,1110.1,162.1,4,5,7,0,2026-04-26T03:09:47.106395+05:30
Noida,Uttar Pradesh,28.5355,77.391,29.0,32,0.0,981.8,7.45,41.4,1449,1110.1,162.1,4,5,7,0,2026-04-26T03:09:47.106401+05:30
Ghaziabad,Uttar Pradesh,28.6692,77.4538,28.8,33,0.0,980.0,7.45,47.2,422,510.4,104.3,4,5,7,0,2026-04-26T03:09:47.106407+05:30
Faridabad,Haryana,28.4089,77.3178,30.8,27,0.0,981.3,7.5,51.5,1449,1110.1,162.1,0,5,7,0,2026-04-26T03:09:47.106414+05:30
Meerut,Uttar Pradesh,28.9845,77.7064,28.3,34,0.0,978.5,7.35,40.7,422,510.4,104.3,4,5,7,0,2026-04-26T03:09:47.106421+05:30
Agra,Uttar Pradesh,27.1767,78.0081,29.4,31,0.0,985.2,7.8,47.2,812,1192.1,186.7,4,5,7,0,2026-04-26T03:09:47.106429+05:30
Varanasi,Uttar Pradesh,25.3176,82.9739,29.0,51,0.0,993.8,8.5,46.1,139,116.9,63.6,4,5,7,1,2026-04-26T03:09:47.106436+05:30
Prayagraj,Uttar Pradesh,25.4358,81.8463,27.9,36,0.0,992.2,8.4,41.0,118,81.3,51.2,4,5,7,0,2026-04-26T03:09:47.106444+05:30
Gorakhpur,Uttar Pradesh,26.7606,83.3732,26.5,65,0.0,995.0,8.35,35.6,151,84.8,59.0,7,5,7,1,2026-04-26T03:09:47.106451+05:30
Bareilly,Uttar Pradesh,28.367,79.4304,27.0,39,0.0,983.3,7.7,46.8,100,246.8,61.2,4,5,7,0,2026-04-26T03:09:47.106458+05:30
Aligarh,Uttar Pradesh,27.8974,78.088,28.8,30,0.0,982.8,7.6,51.5,699,976.0,157.4,4,5,7,0,2026-04-26T03:09:47.106464+05:30
Moradabad,Uttar Pradesh,28.8386,78.7733,28.4,32,0.0,980.1,7.5,49.3,152,271.0,73.8,4,5,7,0,2026-04-26T03:09:47.106470+05:30
Saharanpur,Uttar Pradesh,29.9637,77.546,27.8,31,0.0,972.3,7.1,51.8,105,123.9,41.7,4,5,7,0,2026-04-26T03:09:47.106476+05:30
Jhansi,Uttar Pradesh,25.4484,78.5685,29.6,28,0.0,975.2,8.3,43.6,79,344.6,68.5,4,5,7,0,2026-04-26T03:09:50.434692+05:30
Surat,Gujarat,21.1702,72.8311,28.4,64,0.0,1004.1,7.85,32.0,106,37.0,23.5,7,5,4,1,2026-04-26T03:09:50.434727+05:30
Vadodara,Gujarat,22.3072,73.1812,30.2,35,0.0,1001.8,8.15,37.1,82,29.9,23.1,0,5,4,0,2026-04-26T03:09:50.434738+05:30
Rajkot,Gujarat,22.3039,70.8022,24.6,81,0.0,993.1,7.9,37.8,59,62.9,17.2,3,5,7,1,2026-04-26T03:09:50.434746+05:30
Thane,Maharashtra,19.2183,72.9781,27.1,65,0.0,1005.4,7.8,34.2,81,49.6,25.9,7,5,4,1,2026-04-26T03:09:50.434753+05:30
Nagpur,Maharashtra,21.1458,79.0882,32.4,22,0.0,970.7,8.9,31.7,92,39.8,34.0,0,5,7,0,2026-04-26T03:09:50.434760+05:30
Nashik,Maharashtra,19.9975,73.7898,27.4,22,0.0,943.8,8.3,34.9,78,51.7,33.9,4,5,7,0,2026-04-26T03:09:50.434767+05:30
Aurangabad,Maharashtra,19.8762,75.3433,30.4,23,0.0,942.6,9.05,30.2,82,48.2,37.1,0,5,7,0,2026-04-26T03:09:50.434774+05:30
Solapur,Maharashtra,17.6599,75.9064,29.5,33,0.0,955.1,8.85,24.8,115,46.0,41.3,4,5,7,0,2026-04-26T03:09:50.434780+05:30
Kolhapur,Maharashtra,16.705,74.2433,25.3,80,0.0,946.1,8.5,46.4,145,58.9,55.4,7,5,7,1,2026-04-26T03:09:50.434787+05:30
Goa,Goa,15.2993,74.124,27.5,95,0.0,995.9,9.0,40.3,77,47.5,38.1,7,5,7,1,2026-04-26T03:09:50.434793+05:30
Jodhpur,Rajasthan,26.2389,73.0243,30.5,30,0.0,981.1,8.3,36.4,92,165.8,31.7,0,5,7,0,2026-04-26T03:09:50.434799+05:30
Udaipur,Rajasthan,24.5854,73.7125,30.0,24,0.0,945.3,8.8,41.4,65,40.9,16.5,4,5,7,0,2026-04-26T03:09:50.434806+05:30
Kota,Rajasthan,25.2138,75.8648,28.8,31,0.0,976.8,8.3,30.6,80,121.1,42.5,4,5,7,0,2026-04-26T03:09:50.434812+05:30
Bikaner,Rajasthan,28.0229,73.3119,29.0,44,0.0,979.8,8.15,35.3,78,79.6,27.4,4,5,7,0,2026-04-26T03:09:50.434818+05:30
Ajmer,Rajasthan,26.4499,74.6399,30.4,26,0.0,953.0,8.25,44.3,82,111.3,30.4,0,5,7,0,2026-04-26T03:09:50.434823+05:30
Gwalior,Madhya Pradesh,26.2183,78.1828,31.6,25,0.0,980.6,8.05,46.1,113,778.6,134.6,0,5,7,0,2026-04-26T03:09:50.434829+05:30
Indore,Madhya Pradesh,22.7196,75.8577,30.0,22,0.0,947.1,8.6,34.9,67,38.1,25.5,4,5,7,0,2026-04-26T03:09:50.434853+05:30
Bhopal,Madhya Pradesh,23.2599,77.4126,29.1,22,0.0,951.6,8.65,32.8,63,41.4,29.9,4,5,7,0,2026-04-26T03:09:50.434860+05:30
Jabalpur,Madhya Pradesh,23.1815,79.9864,27.5,30,0.0,958.9,8.6,36.0,56,21.2,16.3,4,5,7,0,2026-04-26T03:09:50.434866+05:30
Ujjain,Madhya Pradesh,23.1765,75.7885,29.5,24,0.0,952.5,8.55,29.2,72,31.4,21.5,4,5,7,0,2026-04-26T03:09:50.434872+05:30
Visakhapatnam,Andhra Pradesh,17.6868,83.2185,26.2,93,0.0,1002.0,9.1,48.6,56,17.3,13.6,7,5,4,1,2026-04-26T03:09:50.434878+05:30
Vijayawada,Andhra Pradesh,16.5062,80.648,26.6,97,0.0,1001.1,9.2,38.9,52,16.9,13.5,7,5,4,1,2026-04-26T03:09:50.434884+05:30
Guntur,Andhra Pradesh,16.3067,80.4365,26.5,98,0.0,1002.3,9.2,41.0,53,16.3,12.6,7,5,4,1,2026-04-26T03:09:50.434890+05:30
Nellore,Andhra Pradesh,14.4426,79.9865,25.8,94,0.0,1004.4,8.85,46.4,43,11.3,8.7,7,5,4,1,2026-04-26T03:09:50.434896+05:30
Kurnool,Andhra Pradesh,15.8281,78.0373,29.6,56,0.0,975.7,9.2,30.2,83,22.4,19.6,4,5,7,1,2026-04-26T03:09:50.434903+05:30
Kakinada,Andhra Pradesh,16.9891,82.2475,26.6,95,0.0,1006.1,9.15,45.4,40,17.1,11.2,7,5,4,1,2026-04-26T03:09:50.434909+05:30
Tirupati,Andhra Pradesh,13.6288,79.4192,26.3,75,0.0,990.1,9.3,35.6,59,19.7,17.5,7,5,7,1,2026-04-26T03:09:50.434915+05:30
Warangal,Telangana,17.9689,79.5941,27.8,63,0.0,976.8,8.9,34.2,91,22.1,19.5,7,5,7,1,2026-04-26T03:09:50.434921+05:30
Nizamabad,Telangana,18.6725,78.0941,30.0,36,0.0,962.7,9.1,36.0,123,46.9,43.8,4,5,7,0,2026-04-26T03:09:50.434927+05:30
Mysore,Karnataka,12.2958,76.6396,23.1,83,0.0,927.0,9.45,38.2,86,32.2,29.2,3,5,7,1,2026-04-26T03:09:50.434933+05:30
Mangalore,Karnataka,12.9141,74.856,28.4,89,0.0,1005.2,9.1,39.2,63,27.5,20.0,7,5,4,1,2026-04-26T03:09:50.434939+05:30
Hubli-Dharwad,Karnataka,15.3647,75.124,25.3,84,0.0,939.5,9.2,53.3,104,23.6,21.1,7,5,7,1,2026-04-26T03:09:50.434945+05:30
Belgaum,Karnataka,15.8497,74.4977,24.7,78,0.0,923.9,9.2,46.1,115,38.0,32.9,3,5,7,1,2026-04-26T03:09:53.753514+05:30
Coimbatore,Tamil Nadu,11.0168,76.9558,27.0,67,0.0,960.7,9.35,39.6,76,36.8,34.0,7,5,7,1,2026-04-26T03:09:53.753549+05:30
Madurai,Tamil Nadu,9.9252,78.1198,28.0,61,0.0,992.3,9.25,43.9,57,15.5,15.1,7,5,7,1,2026-04-26T03:09:53.753561+05:30
Trichy,Tamil Nadu,10.7905,78.7047,25.9,90,0.0,999.0,9.3,29.2,55,17.7,15.3,7,5,7,1,2026-04-26T03:09:53.753570+05:30
Salem,Tamil Nadu,11.6643,78.146,26.5,71,0.0,976.3,9.3,37.8,65,27.5,25.1,7,5,7,1,2026-04-26T03:09:53.753578+05:30
Tirunelveli,Tamil Nadu,8.7139,77.7567,26.6,79,0.0,1002.2,9.2,37.1,60,22.9,21.8,7,5,4,1,2026-04-26T03:09:53.753585+05:30
Vellore,Tamil Nadu,12.9165,79.1325,25.4,81,0.0,983.3,9.35,37.1,78,34.9,32.9,7,5,7,1,2026-04-26T03:09:53.753593+05:30
Erode,Tamil Nadu,11.341,77.7172,27.5,66,0.0,988.3,9.3,39.2,56,16.2,14.8,7,5,7,1,2026-04-26T03:09:53.753600+05:30
Kochi,Kerala,9.9312,76.2673,27.9,86,0.0,1007.3,9.0,37.4,78,26.5,25.5,7,5,4,1,2026-04-26T03:09:53.753607+05:30
Thiruvananthapuram,Kerala,8.5241,76.9366,24.8,92,0.0,1006.7,9.0,32.0,55,16.2,12.5,3,5,4,1,2026-04-26T03:09:53.753615+05:30
Kozhikode,Kerala,11.2588,75.7804,27.0,91,0.0,1006.6,8.25,34.2,59,21.5,16.3,7,5,4,1,2026-04-26T03:09:53.753621+05:30
Thrissur,Kerala,10.5276,76.2144,26.6,94,0.0,1005.8,8.05,36.7,72,27.8,26.6,7,5,4,1,2026-04-26T03:09:53.753628+05:30
Kannur,Kerala,11.8745,75.3704,27.8,84,0.0,1005.7,8.95,35.3,63,22.7,19.6,7,5,4,1,2026-04-26T03:09:53.753635+05:30
Patna,Bihar,25.5941,85.1376,26.9,75,0.0,997.4,8.6,54.7,152,68.2,57.3,7,5,7,1,2026-04-26T03:09:53.753641+05:30
Gaya,Bihar,24.7914,85.0002,26.7,68,0.0,990.2,8.7,41.4,119,49.6,44.9,7,5,7,1,2026-04-26T03:09:53.753648+05:30
Muzaffarpur,Bihar,26.1209,85.3647,26.0,75,0.0,997.9,8.65,53.6,154,73.3,60.3,7,5,7,1,2026-04-26T03:09:53.753654+05:30
Bhagalpur,Bihar,25.2425,87.0117,27.2,78,0.0,998.3,8.6,47.5,151,54.0,46.4,7,5,7,1,2026-04-26T03:09:53.753661+05:30
Ranchi,Jharkhand,23.3441,85.3096,25.8,32,0.0,935.3,9.15,39.2,105,45.5,41.6,4,5,7,0,2026-04-26T03:09:53.753667+05:30
Jamshedpur,Jharkhand,22.8046,86.2029,28.4,66,0.0,988.4,8.8,45.7,126,50.2,44.7,7,5,7,1,2026-04-26T03:09:53.753673+05:30
Dhanbad,Jharkhand,23.7957,86.4304,26.5,95,0.0,977.2,8.95,33.8,153,59.4,56.5,7,5,7,1,2026-04-26T03:09:53.753680+05:30
Bokaro,Jharkhand,23.6693,86.1511,25.5,99,0.0,980.8,8.95,47.5,152,67.5,64.3,7,5,7,1,2026-04-26T03:09:53.753686+05:30
Bhubaneswar,Odisha,20.2961,85.8245,26.1,97,0.0,1000.3,8.95,49.3,59,12.5,9.4,7,5,4,1,2026-04-26T03:09:53.753692+05:30
Cuttack,Odisha,20.4625,85.8828,26.0,96,0.0,1002.2,8.95,45.4,59,12.5,9.4,7,5,4,1,2026-04-26T03:09:53.753699+05:30
Rourkela,Odisha,22.2604,84.8536,27.6,76,0.0,982.8,8.9,40.0,124,50.1,43.3,7,5,7,1,2026-04-26T03:09:53.753705+05:30
Raipur,Chhattisgarh,21.2514,81.6296,28.9,29,0.0,972.4,8.95,41.8,107,45.9,42.1,4,5,7,0,2026-04-26T03:09:53.753711+05:30
Bhilai,Chhattisgarh,21.1938,81.3509,28.4,34,0.0,973.0,8.95,43.2,104,44.4,39.3,4,5,7,0,2026-04-26T03:09:53.753717+05:30
Guwahati,Assam,26.1158,91.7086,22.0,93,0.0,1001.3,3.1,37.1,157,72.4,54.8,3,5,0,1,2026-04-26T03:09:53.753722+05:30
Agartala,Tripura,23.8315,91.2868,25.8,94,0.0,1006.1,8.8,43.2,140,22.6,21.2,7,5,4,1,2026-04-26T03:09:53.753728+05:30
Shillong,Meghalaya,25.5788,91.8933,16.5,79,0.0,855.4,3.7,44.3,139,85.0,44.5,3,5,3,0,2026-04-26T03:09:53.753735+05:30
Imphal,Manipur,24.817,93.9368,18.2,76,0.0,922.0,7.75,33.5,155,135.0,95.0,3,5,7,0,2026-04-26T03:09:53.753740+05:30
Aizawl,Mizoram,23.7271,92.7176,17.9,82,0.0,891.2,9.0,45.7,112,66.8,36.7,3,10,7,0,2026-04-26T03:09:53.753747+05:30
Kohima,Nagaland,25.6701,94.1077,14.8,75,0.0,852.8,6.9,35.6,157,111.5,84.3,3,5,7,0,2026-04-26T03:09:53.753753+05:30
Gangtok,Sikkim,27.3314,88.6138,13.5,75,0.0,835.0,8.65,42.1,80,22.2,16.2,3,5,7,0,2026-04-26T03:09:53.753759+05:30
Siliguri,West Bengal,26.7271,88.3953,21.0,99,0.0,992.8,8.4,38.9,147,54.7,45.9,3,5,7,1,2026-04-26T03:09:57.071001+05:30
Durgapur,West Bengal,23.5204,87.3119,26.9,92,0.0,992.5,8.9,36.7,126,38.0,35.3,7,5,7,1,2026-04-26T03:09:57.071036+05:30
Asansol,West Bengal,23.6739,86.9524,26.5,95,0.0,991.0,8.95,32.0,130,37.6,35.6,7,5,7,1,2026-04-26T03:09:57.071048+05:30
Pondicherry,Puducherry,11.9139,79.8145,27.9,87,0.0,1007.3,9.2,41.0,30,13.5,8.1,7,5,4,1,2026-04-26T03:09:57.071056+05:30
Port Blair,Andaman and Nicobar Islands,11.6234,92.7265,26.7,87,0.0,1006.3,9.15,35.3,49,23.6,16.6,7,5,4,1,2026-04-26T03:09:57.071065+05:30
Haridwar,Uttarakhand,29.9457,78.1642,20.7,61,0.0,969.9,7.2,41.0,76,50.1,35.2,3,5,7,0,2026-04-26T03:09:57.071073+05:30
Rishikesh,Uttarakhand,30.0869,78.2676,18.7,67,0.0,962.6,7.3,33.1,73,44.9,28.9,3,5,7,0,2026-04-26T03:09:57.071080+05:30
Nainital,Uttarakhand,29.3919,79.4542,16.3,45,0.0,803.9,8.15,53.3,74,61.2,28.2,0,5,7,0,2026-04-26T03:09:57.071088+05:30
Mussoorie,Uttarakhand,30.4599,78.0664,17.6,37,0.0,802.3,7.7,55.8,67,37.0,25.4,0,5,7,0,2026-04-26T03:09:57.071094+05:30
Dharamshala,Himachal Pradesh,32.219,76.3234,21.6,34,0.0,868.4,8.05,44.3,50,22.8,8.9,0,5,7,0,2026-04-26T03:09:57.071102+05:30
Dalhousie,Himachal Pradesh,32.5387,75.971,10.9,64,0.0,800.7,8.3,40.0,66,38.3,21.9,3,5,7,0,2026-04-26T03:09:57.071109+05:30
Patiala,Punjab,30.3398,76.3869,27.9,36,0.0,975.5,7.3,46.4,578,417.2,67.5,4,5,7,0,2026-04-26T03:09:57.071117+05:30
Bhatinda,Punjab,30.211,74.9455,28.4,31,0.0,981.4,8.0,40.7,97,116.9,44.8,4,5,7,0,2026-04-26T03:09:57.071123+05:30
Rohtak,Haryana,28.8955,76.6066,26.6,36,0.0,979.5,7.45,45.7,866,491.7,97.3,4,5,7,0,2026-04-26T03:09:57.071130+05:30
Panipat,Haryana,29.3909,76.9635,28.8,32,0.0,977.7,7.25,50.4,1567,914.6,134.1,4,5,7,0,2026-04-26T03:09:57.071139+05:30
Mathura,Uttar Pradesh,27.4924,77.6737,28.8,32,0.0,984.2,7.75,43.2,902,1143.7,183.0,4,5,7,0,2026-04-26T03:09:57.071145+05:30
Vrindavan,Uttar Pradesh,27.5823,77.7027,28.3,33,0.0,984.6,7.7,42.8,902,1143.7,183.0,4,5,7,0,2026-04-26T03:09:57.071152+05:30
Ayodhya,Uttar Pradesh,26.7922,82.1998,27.0,61,0.0,992.6,8.1,50.0,144,88.7,60.1,7,5,7,1,2026-04-26T03:09:57.071157+05:30
Ratlam,Madhya Pradesh,23.3315,75.0367,28.8,24,0.0,953.2,8.5,33.8,68,25.1,15.8,4,5,7,0,2026-04-26T03:09:57.071164+05:30
Sagar,Madhya Pradesh,23.8388,78.7378,28.2,26,0.0,948.2,8.65,34.9,58,102.0,29.3,4,5,7,0,2026-04-26T03:09:57.071170+05:30
Satna,Madhya Pradesh,24.6005,80.8322,28.0,32,0.0,968.2,8.65,44.6,81,179.3,38.3,4,5,7,0,2026-04-26T03:09:57.071176+05:30
Akola,Maharashtra,20.7002,77.0082,29.5,29,0.0,972.5,8.85,33.1,71,33.6,25.7,4,5,7,0,2026-04-26T03:09:57.071183+05:30
Amravati,Maharashtra,20.9374,77.7796,30.9,29,0.0,964.9,8.85,37.4,74,32.4,25.0,0,5,7,0,2026-04-26T03:09:57.071189+05:30
Latur,Maharashtra,18.4088,76.5604,28.7,36,0.0,938.1,9.0,29.2,104,47.6,43.3,4,5,7,0,2026-04-26T03:09:57.071196+05:30
Nanded,Maharashtra,19.1383,77.3091,27.9,39,0.0,966.6,9.05,28.4,99,51.5,45.9,4,5,7,0,2026-04-26T03:09:57.071202+05:30
Gulbarga,Karnataka,17.3297,76.8343,29.1,40,0.0,956.9,9.0,24.5,121,47.7,42.1,4,5,7,0,2026-04-26T03:09:57.071208+05:30
Bidar,Karnataka,17.9104,77.5199,27.7,39,0.0,933.5,8.1,34.9,124,46.7,43.2,4,5,7,0,2026-04-26T03:09:57.071214+05:30
Hospet,Karnataka,15.2689,76.3909,28.6,33,0.0,954.3,9.05,33.5,104,36.2,32.5,4,5,7,0,2026-04-26T03:09:57.071220+05:30
Tirupur,Tamil Nadu,11.1085,77.3411,27.9,58,0.0,974.2,9.4,33.8,61,25.1,22.1,4,5,7,1,2026-04-26T03:09:57.071226+05:30
Alappuzha,Kerala,9.4981,76.3388,26.5,94,0.0,1007.4,8.5,36.0,75,23.8,21.1,7,5,4,1,2026-04-26T03:09:57.071232+05:30
Munnar,Kerala,10.0889,77.0595,15.7,86,0.0,854.4,9.6,28.4,62,26.3,25.1,3,10,7,0,2026-04-26T03:09:57.071239+05:30
Silchar,Assam,24.8333,92.7789,22.5,97,0.0,1004.1,8.6,32.4,159,101.0,80.8,3,5,4,1,2026-04-26T03:09:57.071245+05:30
Dibrugarh,Assam,27.4728,94.912,21.1,95,0.1,996.4,8.7,27.7,84,29.8,19.0,6,5,7,1,2026-04-26T03:09:57.071251+05:30
