city,state,latitude,longitude,temp,humidity,rain,pressure,uv_index,wind_gusts,aqi,pm10,pm2_5,mosquito_risk,arthritis_risk,migraine_risk,frizz_risk,updated_at
Delhi,Delhi,28.6139,77.209,31.0,24,0.0,982.7,5.8,24.5,418,231.4,35.3,0,5,3,0,2026-03-14T16:02:45.011792+05:30
Mumbai,Maharashtra,19.076,72.8777,28.2,76,0.0,1008.2,7.7,18.4,184,49.6,38.5,7,0,4,1,2026-03-14T16:02:45.011832+05:30
Bangalore,Karnataka,12.9716,77.5946,32.1,25,0.0,912.0,9.3,32.8,103,39.7,30.9,0,5,7,0,2026-03-14T16:02:45.011847+05:30
Hyderabad,Telangana,17.385,78.4867,36.0,20,0.0,952.8,8.7,30.2,103,45.6,30.3,0,5,10,0,2026-03-14T16:02:45.011858+05:30
Chennai,Tamil Nadu,13.0827,80.2707,32.0,51,0.0,1008.2,9.05,32.0,58,17.5,13.4,0,0,4,1,2026-03-14T16:02:45.011866+05:30
Kolkata,West Bengal,22.5726,88.3639,30.5,63,0.0,1006.1,8.1,33.8,80,32.2,23.6,3,5,4,1,2026-03-14T16:02:45.011875+05:30
Pune,Maharashtra,18.5204,73.8567,37.0,16,0.0,947.9,8.25,47.5,111,35.7,30.3,0,5,10,0,2026-03-14T16:02:45.011887+05:30
Ahmedabad,Gujarat,23.0225,72.5714,37.1,20,0.0,1000.7,7.5,24.8,79,49.2,18.8,0,5,7,0,2026-03-14T16:02:45.011895+05:30
Jaipur,Rajasthan,26.9124,75.7873,33.2,19,0.0,959.2,6.95,28.8,139,129.9,29.9,0,5,7,0,2026-03-14T16:02:45.011903+05:30
Lucknow,Uttar Pradesh,26.8467,80.9462,33.8,21,0.0,992.8,6.7,24.5,170,136.4,38.8,0,5,7,0,2026-03-14T16:02:45.011910+05:30
Kanpur,Uttar Pradesh,26.4499,80.3319,33.4,26,0.0,991.0,6.65,17.3,371,258.9,47.5,0,5,7,0,2026-03-14T16:02:45.011917+05:30
Chandigarh,Chandigarh,30.7333,76.7794,27.3,38,0.0,968.7,5.25,20.2,71,20.3,14.3,4,5,3,0,2026-03-14T16:02:45.011924+05:30
Srinagar,Jammu and Kashmir,34.0837,74.7973,16.6,45,0.0,841.6,5.6,19.1,91,29.2,11.1,0,5,3,0,2026-03-14T16:02:45.011931+05:30
Jammu,Jammu and Kashmir,32.7266,74.857,29.4,34,0.0,972.1,6.45,19.1,79,21.6,11.2,4,5,7,0,2026-03-14T16:02:45.011938+05:30
Amritsar,Punjab,31.634,74.8723,27.0,50,0.0,980.3,4.85,17.6,73,10.9,8.2,4,5,3,0,2026-03-14T16:02:45.011946+05:30
Ludhiana,Punjab,30.901,75.8573,28.1,32,0.0,978.8,5.25,20.2,85,21.8,14.6,4,5,3,0,2026-03-14T16:02:45.011953+05:30
Jalandhar,Punjab,31.326,75.5762,28.1,30,0.0,979.7,6.35,23.0,91,32.5,13.0,4,5,7,0,2026-03-14T16:02:45.011962+05:30
Dehradun,Uttarakhand,30.6284,78.0322,19.9,48,0.0,830.6,4.2,21.6,53,22.9,9.1,0,5,3,0,2026-03-14T16:02:45.011969+05:30
Shimla,Himachal Pradesh,31.1048,77.1734,17.0,52,0.0,784.9,5.75,22.3,57,19.8,9.2,0,5,3,0,2026-03-14T16:02:45.011976+05:30
Manali,Himachal Pradesh,32.2396,77.1887,17.1,32,0.0,820.1,7.5,29.2,59,38.3,8.6,0,5,7,0,2026-03-14T16:02:45.011982+05:30
Gurgaon,Haryana,28.4595,77.0266,31.2,25,0.0,981.1,5.9,19.4,1228,827.0,86.6,0,5,3,0,2026-03-14T16:02:45.011991+05:30
Noida,Uttar Pradesh,28.5355,77.391,31.2,23,0.0,984.3,5.8,23.8,1228,827.0,86.6,0,5,3,0,2026-03-14T16:02:45.011997+05:30
Ghaziabad,Uttar Pradesh,28.6692,77.4538,30.8,27,0.0,982.4,5.9,23.8,286,163.9,29.0,0,5,3,0,2026-03-14T16:02:45.012003+05:30
Faridabad,Haryana,28.4089,77.3178,30.1,27,0.0,983.5,5.6,22.7,1228,827.0,86.6,0,5,3,0,2026-03-14T16:02:45.012010+05:30
Meerut,Uttar Pradesh,28.9845,77.7064,30.4,28,0.0,981.2,5.8,27.4,286,163.9,29.0,0,5,3,0,2026-03-14T16:02:45.012016+05:30
Agra,Uttar Pradesh,27.1767,78.0081,34.7,17,0.0,987.0,6.3,15.5,717,399.5,56.9,0,5,7,0,2026-03-14T16:02:45.012022+05:30
Varanasi,Uttar Pradesh,25.3176,82.9739,34.8,31,0.0,996.7,7.05,27.7,135,85.9,29.8,0,5,7,0,2026-03-14T16:02:45.012031+05:30
Prayagraj,Uttar Pradesh,25.4358,81.8463,34.4,36,0.0,995.0,7.1,15.5,151,114.8,35.0,0,5,7,1,2026-03-14T16:02:45.012037+05:30
Gorakhpur,Uttar Pradesh,26.7606,83.3732,31.1,35,0.0,996.5,6.7,24.8,136,156.5,48.9,0,5,7,0,2026-03-14T16:02:45.012043+05:30
Bareilly,Uttar Pradesh,28.367,79.4304,29.0,45,0.0,986.4,6.4,19.4,144,33.9,24.2,4,5,7,0,2026-03-14T16:02:45.012050+05:30
Aligarh,Uttar Pradesh,27.8974,78.088,32.1,22,0.0,985.4,6.3,26.6,698,575.6,83.6,0,5,7,0,2026-03-14T16:02:45.012059+05:30
Moradabad,Uttar Pradesh,28.8386,78.7733,29.8,34,0.0,983.1,5.8,23.0,145,39.6,23.0,4,5,3,0,2026-03-14T16:02:45.012065+05:30
Saharanpur,Uttar Pradesh,29.9637,77.546,29.5,34,0.0,975.1,4.8,23.8,137,67.1,25.0,4,5,3,0,2026-03-14T16:02:45.012071+05:30
Jhansi,Uttar Pradesh,25.4484,78.5685,36.1,21,0.0,976.3,7.2,20.2,133,137.8,38.0,0,5,10,0,2026-03-14T16:02:48.360586+05:30
Surat,Gujarat,21.1702,72.8311,31.1,38,0.0,1006.7,7.35,23.4,140,95.2,50.3,0,5,4,0,2026-03-14T16:02:48.360616+05:30
Vadodara,Gujarat,22.3072,73.1812,37.3,16,0.0,1003.2,7.5,28.1,99,63.1,24.4,0,5,7,0,2026-03-14T16:02:48.360626+05:30
Rajkot,Gujarat,22.3039,70.8022,36.5,22,0.0,993.7,7.35,34.9,92,76.4,23.7,0,5,10,0,2026-03-14T16:02:48.360669+05:30
Thane,Maharashtra,19.2183,72.9781,32.1,46,0.0,1007.9,7.65,31.7,184,49.6,38.5,0,5,4,1,2026-03-14T16:02:48.360678+05:30
Nagpur,Maharashtra,21.1458,79.0882,37.2,15,0.0,972.0,8.1,19.8,151,36.4,31.2,0,5,10,0,2026-03-14T16:02:48.360686+05:30
Nashik,Maharashtra,19.9975,73.7898,33.6,20,0.0,946.0,7.9,39.2,91,26.8,23.3,0,5,7,0,2026-03-14T16:02:48.360693+05:30
Aurangabad,Maharashtra,19.8762,75.3433,35.3,19,0.0,944.0,8.4,32.8,112,30.7,24.2,0,5,10,0,2026-03-14T16:02:48.360699+05:30
Solapur,Maharashtra,17.6599,75.9064,36.1,22,0.0,956.3,8.6,18.7,132,43.3,34.7,0,5,10,0,2026-03-14T16:02:48.360706+05:30
Kolhapur,Maharashtra,16.705,74.2433,30.3,57,0.0,948.3,8.7,44.6,152,42.7,37.5,0,5,7,1,2026-03-14T16:02:48.360712+05:30
Goa,Goa,15.2993,74.124,31.2,63,0.0,997.8,8.75,32.4,133,39.6,35.0,3,5,7,1,2026-03-14T16:02:48.360719+05:30
Jodhpur,Rajasthan,26.2389,73.0243,36.3,15,0.0,980.9,7.1,37.4,84,124.8,28.5,0,5,10,0,2026-03-14T16:02:48.360726+05:30
Udaipur,Rajasthan,24.5854,73.7125,33.8,18,0.0,945.9,7.85,37.1,67,42.5,14.5,0,5,7,0,2026-03-14T16:02:48.360732+05:30
Kota,Rajasthan,25.2138,75.8648,36.5,18,0.0,976.9,7.25,13.7,68,36.4,18.7,0,5,10,0,2026-03-14T16:02:48.360738+05:30
Bikaner,Rajasthan,28.0229,73.3119,34.3,19,0.0,980.0,6.7,21.6,58,74.7,20.0,0,5,7,0,2026-03-14T16:02:48.360744+05:30
Ajmer,Rajasthan,26.4499,74.6399,34.2,17,0.0,953.2,7.1,41.4,84,68.7,22.5,0,5,7,0,2026-03-14T16:02:48.360751+05:30
Gwalior,Madhya Pradesh,26.2183,78.1828,32.8,35,0.0,982.4,6.7,22.0,224,99.9,29.1,0,5,7,0,2026-03-14T16:02:48.360758+05:30
Indore,Madhya Pradesh,22.7196,75.8577,35.9,15,0.0,947.3,7.8,38.2,92,23.3,18.3,0,5,10,0,2026-03-14T16:02:48.360764+05:30
Bhopal,Madhya Pradesh,23.2599,77.4126,35.9,17,0.0,952.9,7.65,35.3,93,23.6,18.1,0,5,10,0,2026-03-14T16:02:48.360771+05:30
Jabalpur,Madhya Pradesh,23.1815,79.9864,36.0,16,0.0,960.9,7.8,27.0,92,14.1,13.0,0,5,10,0,2026-03-14T16:02:48.360778+05:30
Ujjain,Madhya Pradesh,23.1765,75.7885,35.0,16,0.0,953.1,7.7,41.8,83,22.6,16.2,0,5,7,0,2026-03-14T16:02:48.360785+05:30
Visakhapatnam,Andhra Pradesh,17.6868,83.2185,29.5,65,0.0,1004.9,8.65,41.0,64,19.6,14.7,7,5,4,1,2026-03-14T16:02:48.360791+05:30
Vijayawada,Andhra Pradesh,16.5062,80.648,33.3,49,0.0,1002.9,8.75,31.3,64,21.0,15.1,0,5,4,1,2026-03-14T16:02:48.360798+05:30
Guntur,Andhra Pradesh,16.3067,80.4365,32.6,51,0.0,1004.4,8.75,33.8,63,26.2,19.0,0,5,4,1,2026-03-14T16:02:48.360805+05:30
Nellore,Andhra Pradesh,14.4426,79.9865,33.1,47,0.0,1006.4,8.9,33.1,62,33.3,24.1,0,5,4,1,2026-03-14T16:02:48.360812+05:30
Kurnool,Andhra Pradesh,15.8281,78.0373,37.6,19,0.0,975.8,8.75,23.4,98,44.7,31.0,0,5,10,0,2026-03-14T16:02:48.360819+05:30
Kakinada,Andhra Pradesh,16.9891,82.2475,32.0,54,0.0,1008.1,8.7,34.6,58,17.1,11.8,0,0,4,1,2026-03-14T16:02:48.360826+05:30
Tirupati,Andhra Pradesh,13.6288,79.4192,33.9,32,0.0,991.7,9.0,32.4,74,32.4,24.4,0,5,7,0,2026-03-14T16:02:48.360832+05:30
Warangal,Telangana,17.9689,79.5941,34.2,37,0.0,978.5,8.5,27.7,96,47.7,34.8,0,5,7,1,2026-03-14T16:02:48.360839+05:30
Nizamabad,Telangana,18.6725,78.0941,36.4,22,0.0,964.0,8.45,30.2,120,49.8,36.2,0,5,10,0,2026-03-14T16:02:48.360844+05:30
Mysore,Karnataka,12.2958,76.6396,33.4,20,0.0,928.4,9.3,32.8,101,37.8,30.2,0,5,7,0,2026-03-14T16:02:48.360851+05:30
Mangalore,Karnataka,12.9141,74.856,29.1,81,0.0,1006.0,8.95,24.8,104,31.9,26.9,7,5,4,1,2026-03-14T16:02:48.360857+05:30
Hubli-Dharwad,Karnataka,15.3647,75.124,34.4,28,0.0,940.3,8.95,46.4,110,40.3,32.9,0,5,7,0,2026-03-14T16:02:48.360864+05:30
Belgaum,Karnataka,15.8497,74.4977,27.8,65,0.0,926.1,8.95,44.3,161,47.5,41.7,7,5,7,1,2026-03-14T16:02:51.711384+05:30
Coimbatore,Tamil Nadu,11.0168,76.9558,34.8,19,0.0,961.0,9.3,37.1,72,22.7,17.6,0,5,7,0,2026-03-14T16:02:51.711413+05:30
Madurai,Tamil Nadu,9.9252,78.1198,35.8,31,0.0,991.7,9.25,28.8,62,7.5,6.1,0,5,10,1,2026-03-14T16:02:51.711423+05:30
Trichy,Tamil Nadu,10.7905,78.7047,35.2,34,0.0,998.9,9.2,27.0,67,11.4,9.2,0,5,10,1,2026-03-14T16:02:51.711430+05:30
Salem,Tamil Nadu,11.6643,78.146,35.2,23,0.0,976.8,9.2,23.8,97,25.3,20.8,0,5,10,0,2026-03-14T16:02:51.711438+05:30
Tirunelveli,Tamil Nadu,8.7139,77.7567,34.1,44,0.0,1002.4,9.25,36.4,50,6.7,5.5,0,5,4,1,2026-03-14T16:02:51.711445+05:30
Vellore,Tamil Nadu,12.9165,79.1325,34.1,27,0.0,984.7,9.1,32.8,100,34.0,28.8,0,5,7,0,2026-03-14T16:02:51.711451+05:30
Erode,Tamil Nadu,11.341,77.7172,35.9,29,0.0,988.1,9.2,24.8,65,17.7,13.9,0,5,10,0,2026-03-14T16:02:51.711458+05:30
Kochi,Kerala,9.9312,76.2673,28.6,79,0.0,1007.5,9.1,31.3,105,18.8,17.5,7,5,4,1,2026-03-14T16:02:51.711466+05:30
Thiruvananthapuram,Kerala,8.5241,76.9366,28.6,77,0.0,1007.2,9.1,26.3,70,14.6,12.5,7,5,4,1,2026-03-14T16:02:51.711472+05:30
Kozhikode,Kerala,11.2588,75.7804,29.8,75,0.0,1006.9,9.0,24.8,76,26.3,23.2,7,5,4,1,2026-03-14T16:02:51.711478+05:30
Thrissur,Kerala,10.5276,76.2144,31.6,66,0.0,1005.8,9.05,36.0,100,22.8,20.3,3,5,4,1,2026-03-14T16:02:51.711485+05:30
Kannur,Kerala,11.8745,75.3704,30.2,73,0.0,1006.5,9.0,29.2,94,28.1,24.2,3,5,4,1,2026-03-14T16:02:51.711492+05:30
Patna,Bihar,25.5941,85.1376,33.0,39,0.0,999.7,7.5,20.2,143,92.9,35.5,0,5,7,1,2026-03-14T16:02:51.711498+05:30
Gaya,Bihar,24.7914,85.0002,33.7,33,0.0,993.3,7.6,21.2,124,79.6,27.8,0,5,7,0,2026-03-14T16:02:51.711505+05:30
Muzaffarpur,Bihar,26.1209,85.3647,32.4,37,0.0,999.6,7.45,24.5,160,79.4,37.3,0,5,7,0,2026-03-14T16:02:51.711512+05:30
Bhagalpur,Bihar,25.2425,87.0117,32.9,36,0.0,1000.4,7.5,20.5,160,136.0,50.4,0,5,4,0,2026-03-14T16:02:51.711518+05:30
Ranchi,Jharkhand,23.3441,85.3096,33.5,18,0.0,938.0,8.25,24.5,111,28.1,12.9,0,5,7,0,2026-03-14T16:02:51.711562+05:30
Jamshedpur,Jharkhand,22.8046,86.2029,36.8,20,0.0,989.8,8.1,29.2,147,58.6,32.7,0,5,10,0,2026-03-14T16:02:51.711569+05:30
Dhanbad,Jharkhand,23.7957,86.4304,36.4,18,0.0,979.1,8.0,19.8,155,60.1,29.2,0,5,10,0,2026-03-14T16:02:51.711575+05:30
Bokaro,Jharkhand,23.6693,86.1511,36.5,14,0.0,983.1,8.0,20.2,151,43.5,21.1,0,5,10,0,2026-03-14T16:02:51.711582+05:30
Bhubaneswar,Odisha,20.2961,85.8245,30.2,63,0.0,1003.3,8.45,38.9,69,28.0,20.6,3,5,4,1,2026-03-14T16:02:51.711588+05:30
Cuttack,Odisha,20.4625,85.8828,32.7,53,0.0,1004.6,8.45,34.2,69,28.0,20.6,0,5,4,1,2026-03-14T16:02:51.711594+05:30
Rourkela,Odisha,22.2604,84.8536,38.3,15,0.0,983.7,8.05,25.2,152,28.1,23.7,0,5,10,0,2026-03-14T16:02:51.711600+05:30
Raipur,Chhattisgarh,21.2514,81.6296,37.4,23,0.0,973.5,8.2,34.2,144,30.6,26.2,0,5,10,0,2026-03-14T16:02:51.711606+05:30
Bhilai,Chhattisgarh,21.1938,81.3509,38.1,21,0.0,973.7,8.2,27.7,128,30.5,25.8,0,5,10,0,2026-03-14T16:02:51.711612+05:30
Guwahati,Assam,26.1158,91.7086,23.9,82,0.0,1002.6,7.4,32.0,77,39.0,24.7,3,5,4,1,2026-03-14T16:02:51.711618+05:30
Agartala,Tripura,23.8315,91.2868,29.0,62,0.0,1007.0,7.8,48.6,79,36.3,28.3,7,5,4,1,2026-03-14T16:02:51.711624+05:30
Shillong,Meghalaya,25.5788,91.8933,16.2,75,0.0,856.1,7.85,73.8,50,26.1,17.8,3,5,7,0,2026-03-14T16:02:51.711645+05:30
Imphal,Manipur,24.817,93.9368,18.8,79,0.0,924.2,7.1,82.8,144,52.3,39.3,3,5,7,0,2026-03-14T16:02:51.711652+05:30
Aizawl,Mizoram,23.7271,92.7176,20.4,73,0.0,894.6,8.0,63.4,114,52.2,39.0,3,5,7,0,2026-03-14T16:02:51.711658+05:30
Kohima,Nagaland,25.6701,94.1077,16.4,74,0.0,855.0,6.9,100.8,108,55.9,37.7,3,5,7,0,2026-03-14T16:02:51.711664+05:30
Gangtok,Sikkim,27.3314,88.6138,15.4,82,0.0,837.1,7.55,20.2,88,27.9,19.2,3,10,7,0,2026-03-14T16:02:51.711670+05:30
Siliguri,West Bengal,26.7271,88.3953,22.7,78,0.0,994.3,7.4,31.7,128,77.5,48.4,3,5,7,1,2026-03-14T16:02:55.065501+05:30
Durgapur,West Bengal,23.5204,87.3119,33.6,35,0.0,994.6,7.95,23.4,152,71.0,39.2,0,5,7,0,2026-03-14T16:02:55.065541+05:30
Asansol,West Bengal,23.6739,86.9524,35.2,32,0.0,992.8,7.95,21.2,140,67.1,34.3,0,5,10,1,2026-03-14T16:02:55.065551+05:30
Pondicherry,Puducherry,11.9139,79.8145,32.7,54,0.0,1008.7,9.05,29.9,55,15.5,11.6,0,0,4,1,2026-03-14T16:02:55.065559+05:30
Port Blair,Andaman and Nicobar Islands,11.6234,92.7265,28.1,76,0.0,1008.2,8.95,23.0,82,12.0,9.4,7,0,4,1,2026-03-14T16:02:55.065567+05:30
Haridwar,Uttarakhand,29.9457,78.1642,29.5,38,0.0,973.7,4.95,21.2,106,30.4,18.5,4,5,3,0,2026-03-14T16:02:55.065575+05:30
Rishikesh,Uttarakhand,30.0869,78.2676,28.8,44,0.0,966.5,4.5,20.9,71,27.5,14.0,4,5,3,0,2026-03-14T16:02:55.065583+05:30
Nainital,Uttarakhand,29.3919,79.4542,21.1,54,0.0,806.9,6.3,34.9,85,41.4,25.0,0,5,7,0,2026-03-14T16:02:55.065590+05:30
Mussoorie,Uttarakhand,30.4599,78.0664,20.7,46,0.0,803.6,4.5,25.2,77,28.4,13.9,0,5,3,0,2026-03-14T16:02:55.065598+05:30
Dharamshala,Himachal Pradesh,32.219,76.3234,23.3,26,0.0,869.2,5.65,17.6,49,24.0,7.9,0,5,3,0,2026-03-14T16:02:55.065604+05:30
Dalhousie,Himachal Pradesh,32.5387,75.971,21.1,26,0.0,804.6,6.2,18.7,66,21.9,9.9,0,5,7,0,2026-03-14T16:02:55.065611+05:30
Patiala,Punjab,30.3398,76.3869,28.8,23,0.0,978.1,5.65,27.0,290,267.3,34.9,4,5,3,0,2026-03-14T16:02:55.065618+05:30
Bhatinda,Punjab,30.211,74.9455,30.6,30,0.0,983.5,5.9,22.0,87,19.6,15.3,0,5,3,0,2026-03-14T16:02:55.065624+05:30
Rohtak,Haryana,28.8955,76.6066,31.3,26,0.0,981.4,6.0,22.0,514,319.4,39.6,0,5,3,0,2026-03-14T16:02:55.065648+05:30
Panipat,Haryana,29.3909,76.9635,30.7,28,0.0,980.1,5.75,23.0,948,525.3,57.7,0,5,3,0,2026-03-14T16:02:55.065655+05:30
Mathura,Uttar Pradesh,27.4924,77.6737,32.5,21,0.0,986.5,5.85,29.2,695,484.3,64.3,0,5,3,0,2026-03-14T16:02:55.065661+05:30
Vrindavan,Uttar Pradesh,27.5823,77.7027,31.8,23,0.0,987.1,5.95,35.3,695,484.3,64.3,0,5,3,0,2026-03-14T16:02:55.065668+05:30
Ayodhya,Uttar Pradesh,26.7922,82.1998,32.8,33,0.0,994.5,6.85,21.6,153,131.3,44.6,0,5,7,0,2026-03-14T16:02:55.065674+05:30
Ratlam,Madhya Pradesh,23.3315,75.0367,35.2,17,0.0,954.2,7.65,39.6,77,21.8,14.5,0,5,10,0,2026-03-14T16:02:55.065681+05:30
Sagar,Madhya Pradesh,23.8388,78.7378,35.0,19,0.0,949.6,7.65,34.2,89,17.9,15.5,0,5,7,0,2026-03-14T16:02:55.065687+05:30
Satna,Madhya Pradesh,24.6005,80.8322,37.0,13,0.0,970.3,7.6,26.3,87,60.3,20.3,0,5,10,0,2026-03-14T16:02:55.065694+05:30
Akola,Maharashtra,20.7002,77.0082,38.4,15,0.0,974.0,8.1,17.3,106,25.0,21.6,0,5,10,0,2026-03-14T16:02:55.065700+05:30
Amravati,Maharashtra,20.9374,77.7796,38.3,13,0.0,966.4,8.1,22.3,103,23.6,20.8,0,5,10,0,2026-03-14T16:02:55.065708+05:30
Latur,Maharashtra,18.4088,76.5604,34.1,24,0.0,939.7,8.5,26.6,115,41.4,33.1,0,5,7,0,2026-03-14T16:02:55.065715+05:30
Nanded,Maharashtra,19.1383,77.3091,37.9,18,0.0,967.4,8.3,31.0,126,47.7,37.8,0,5,10,0,2026-03-14T16:02:55.065720+05:30
Gulbarga,Karnataka,17.3297,76.8343,37.1,18,0.0,957.8,8.6,38.9,115,44.0,34.6,0,5,10,0,2026-03-14T16:02:55.065726+05:30
Bidar,Karnataka,17.9104,77.5199,34.7,23,0.0,935.5,8.55,37.1,120,44.1,32.4,0,5,7,0,2026-03-14T16:02:55.065732+05:30
Hospet,Karnataka,15.2689,76.3909,34.5,30,0.0,955.3,8.9,28.1,111,44.4,35.3,0,5,7,0,2026-03-14T16:02:55.065738+05:30
Tirupur,Tamil Nadu,11.1085,77.3411,36.1,18,0.0,974.3,9.3,30.2,69,19.7,15.4,0,5,10,0,2026-03-14T16:02:55.065744+05:30
Alappuzha,Kerala,9.4981,76.3388,28.7,76,0.0,1007.7,9.1,28.4,96,17.5,15.9,7,5,4,1,2026-03-14T16:02:55.065751+05:30
Munnar,Kerala,10.0889,77.0595,28.1,47,0.0,858.2,9.6,28.8,57,10.5,8.8,4,5,7,0,2026-03-14T16:02:55.065758+05:30
Silchar,Assam,24.8333,92.7789,21.9,86,0.0,1008.1,7.4,39.6,113,42.3,30.6,3,0,4,1,2026-03-14T16:02:55.065765+05:30
Dibrugarh,Assam,27.4728,94.912,20.8,86,0.0,997.6,4.6,22.0,93,37.7,32.7,3,5,3,1,2026-03-14T16:02:55.065771+05:30
