city,state,latitude,longitude,temp,humidity,rain,pressure,uv_index,wind_gusts,aqi,pm10,pm2_5,no2,co,o3,so2,mosquito_risk,arthritis_risk,migraine_risk,frizz_risk,updated_at
Delhi,Delhi,28.6139,77.209,28.1,46,0.0,976.6,7.6,40.0,200,408.9,92.4,27.5,509.0,80.0,23.5,4,5,7,0,2026-05-03T02:16:59.050651+05:30
Mumbai,Maharashtra,19.076,72.8777,28.6,79,0.0,1006.3,7.9,39.2,73,44.1,17.0,7.7,180.0,69.0,14.8,7,5,4,1,2026-05-03T02:16:59.050712+05:30
Bangalore,Karnataka,12.9716,77.5946,22.4,90,0.0,909.7,9.1,36.4,75,22.1,17.3,11.5,239.0,65.0,6.6,3,5,7,1,2026-05-03T02:16:59.050730+05:30
Hyderabad,Telangana,17.385,78.4867,30.8,31,0.0,948.8,9.3,29.5,76,39.1,23.2,21.4,587.0,81.0,10.7,0,5,7,0,2026-05-03T02:16:59.050741+05:30
Chennai,Tamil Nadu,13.0827,80.2707,29.8,72,0.0,1003.8,9.25,55.8,53,15.8,12.5,9.9,249.0,67.0,8.4,7,5,4,1,2026-05-03T02:16:59.050757+05:30
Kolkata,West Bengal,22.5726,88.3639,24.1,95,0.0,1002.2,8.95,34.2,65,18.5,16.0,10.0,276.0,63.0,5.4,3,5,4,1,2026-05-03T02:16:59.050768+05:30
Pune,Maharashtra,18.5204,73.8567,22.8,87,0.0,945.8,8.5,47.2,61,33.1,15.2,10.7,205.0,50.0,10.5,3,5,7,1,2026-05-03T02:16:59.050777+05:30
Ahmedabad,Gujarat,23.0225,72.5714,29.6,43,0.0,996.9,8.15,45.0,65,35.4,16.0,4.3,225.0,77.0,5.3,4,5,7,0,2026-05-03T02:16:59.050789+05:30
Jaipur,Rajasthan,26.9124,75.7873,30.9,27,0.0,953.1,8.15,39.2,115,188.1,42.3,20.8,207.0,50.0,6.2,0,5,7,0,2026-05-03T02:16:59.050797+05:30
Lucknow,Uttar Pradesh,26.8467,80.9462,25.5,62,0.0,989.0,8.1,43.6,94,67.1,34.9,9.8,357.0,104.0,9.4,7,5,7,1,2026-05-03T02:16:59.050806+05:30
Kanpur,Uttar Pradesh,26.4499,80.3319,26.2,64,0.0,986.6,7.9,41.0,151,343.7,58.2,7.9,344.0,105.0,8.6,7,5,7,1,2026-05-03T02:16:59.050814+05:30
Chandigarh,Chandigarh,30.7333,76.7794,23.8,51,0.0,962.6,6.7,52.9,88,36.4,30.7,31.8,396.0,37.0,9.2,0,5,7,0,2026-05-03T02:16:59.050824+05:30
Srinagar,Jammu and Kashmir,34.0837,74.7973,9.7,95,0.0,836.2,8.75,49.7,71,48.3,43.8,32.2,699.0,21.0,2.7,3,10,7,0,2026-05-03T02:16:59.050834+05:30
Jammu,Jammu and Kashmir,32.7266,74.857,21.1,56,0.0,965.1,8.35,35.3,61,21.2,19.0,18.4,244.0,47.0,2.7,0,5,7,0,2026-05-03T02:16:59.050842+05:30
Amritsar,Punjab,31.634,74.8723,26.0,42,0.0,973.3,8.25,57.6,121,33.3,26.3,9.3,501.0,100.0,6.8,4,5,7,0,2026-05-03T02:16:59.050850+05:30
Ludhiana,Punjab,30.901,75.8573,25.6,50,0.0,971.6,7.75,52.2,130,34.2,31.3,17.0,639.0,65.0,7.6,4,5,7,0,2026-05-03T02:16:59.050858+05:30
Jalandhar,Punjab,31.326,75.5762,24.7,48,0.0,972.4,7.95,53.6,105,30.3,26.4,10.8,548.0,83.0,6.6,0,5,7,0,2026-05-03T02:16:59.050865+05:30
Dehradun,Uttarakhand,30.6284,78.0322,10.4,98,0.0,823.0,7.2,36.4,64,19.7,17.5,25.5,274.0,35.0,0.8,3,10,7,0,2026-05-03T02:16:59.050877+05:30
Shimla,Himachal Pradesh,31.1048,77.1734,8.3,76,0.0,775.7,6.15,44.6,68,27.0,21.3,22.0,272.0,64.0,3.8,3,5,7,0,2026-05-03T02:16:59.050885+05:30
Manali,Himachal Pradesh,32.2396,77.1887,6.9,76,0.0,809.4,9.4,41.4,75,6.1,4.9,26.4,239.0,115.0,0.1,3,5,7,0,2026-05-03T02:16:59.050893+05:30
Gurgaon,Haryana,28.4595,77.0266,27.2,49,0.0,974.9,7.7,46.1,750,776.7,131.8,22.5,482.0,82.0,18.3,4,5,7,0,2026-05-03T02:16:59.050900+05:30
Noida,Uttar Pradesh,28.5355,77.391,26.0,54,0.0,978.2,7.6,34.6,750,776.7,131.8,22.5,479.0,82.0,18.3,4,5,7,1,2026-05-03T02:16:59.050908+05:30
Ghaziabad,Uttar Pradesh,28.6692,77.4538,26.5,52,0.0,976.4,7.6,41.8,160,236.6,62.9,10.3,422.0,97.0,12.0,4,5,7,0,2026-05-03T02:16:59.050915+05:30
Faridabad,Haryana,28.4089,77.3178,27.4,49,0.0,977.4,7.65,41.8,750,776.7,131.8,22.5,467.0,82.0,18.3,4,5,7,0,2026-05-03T02:16:59.050922+05:30
Meerut,Uttar Pradesh,28.9845,77.7064,25.0,58,0.0,975.6,7.5,45.4,160,236.6,62.9,10.3,468.0,97.0,12.0,4,5,7,1,2026-05-03T02:16:59.050928+05:30
Agra,Uttar Pradesh,27.1767,78.0081,27.4,48,0.0,981.8,7.8,45.0,643,627.7,91.0,11.3,377.0,90.0,12.4,4,5,7,0,2026-05-03T02:16:59.050935+05:30
Varanasi,Uttar Pradesh,25.3176,82.9739,26.5,68,0.0,993.3,8.55,33.1,112,59.6,43.4,10.9,446.0,120.0,16.9,7,5,7,1,2026-05-03T02:16:59.050943+05:30
Prayagraj,Uttar Pradesh,25.4358,81.8463,26.0,69,0.0,991.3,8.5,29.2,110,58.9,41.7,11.6,375.0,114.0,13.8,7,5,7,1,2026-05-03T02:16:59.050953+05:30
Gorakhpur,Uttar Pradesh,26.7606,83.3732,22.0,83,0.0,994.3,8.45,45.4,98,41.8,26.9,5.4,344.0,122.0,3.5,3,5,7,1,2026-05-03T02:16:59.050961+05:30
Bareilly,Uttar Pradesh,28.367,79.4304,24.4,69,0.0,982.2,7.9,43.2,124,97.1,39.7,6.3,343.0,118.0,5.8,3,5,7,1,2026-05-03T02:16:59.050968+05:30
Aligarh,Uttar Pradesh,27.8974,78.088,26.9,50,0.0,979.3,7.75,49.0,403,562.5,91.0,8.1,395.0,98.0,11.4,4,5,7,0,2026-05-03T02:16:59.050975+05:30
Moradabad,Uttar Pradesh,28.8386,78.7733,24.3,69,0.0,978.8,7.6,47.5,128,78.9,43.3,8.9,342.0,113.0,9.3,3,5,7,1,2026-05-03T02:16:59.050982+05:30
Saharanpur,Uttar Pradesh,29.9637,77.546,22.7,70,0.0,969.9,6.6,50.4,133,79.6,49.4,18.9,371.0,76.0,10.7,3,5,7,1,2026-05-03T02:16:59.050988+05:30
Jhansi,Uttar Pradesh,25.4484,78.5685,26.5,54,0.0,971.6,8.4,56.5,79,116.2,38.1,4.7,302.0,88.0,6.5,4,5,7,1,2026-05-03T02:17:02.450207+05:30
Surat,Gujarat,21.1702,72.8311,28.3,85,0.0,1003.1,7.7,54.7,65,30.7,17.5,17.0,233.0,57.0,28.7,7,5,4,1,2026-05-03T02:17:02.450261+05:30
Vadodara,Gujarat,22.3072,73.1812,28.1,83,0.0,999.6,8.05,49.7,58,21.2,13.3,11.3,229.0,54.0,14.0,7,5,7,1,2026-05-03T02:17:02.450275+05:30
Rajkot,Gujarat,22.3039,70.8022,27.0,68,0.0,989.4,7.7,50.8,57,34.6,14.2,3.9,160.0,67.0,4.6,7,5,7,1,2026-05-03T02:17:02.450286+05:30
Thane,Maharashtra,19.2183,72.9781,28.4,79,0.0,1005.6,7.9,39.2,73,44.1,17.0,7.7,213.0,69.0,14.8,7,5,4,1,2026-05-03T02:17:02.450297+05:30
Nagpur,Maharashtra,21.1458,79.0882,29.1,49,0.0,968.8,8.9,43.6,74,66.8,39.5,23.8,385.0,38.0,11.4,4,5,7,1,2026-05-03T02:17:02.450308+05:30
Nashik,Maharashtra,19.9975,73.7898,23.0,92,0.0,942.8,8.2,48.6,65,34.5,17.5,12.9,208.0,51.0,14.6,3,5,7,1,2026-05-03T02:17:02.450319+05:30
Aurangabad,Maharashtra,19.8762,75.3433,25.9,61,0.0,941.3,9.05,47.9,59,27.7,15.4,9.7,181.0,70.0,13.7,7,5,7,1,2026-05-03T02:17:02.450330+05:30
Solapur,Maharashtra,17.6599,75.9064,28.6,49,0.0,954.2,9.1,38.5,56,22.8,13.0,5.6,186.0,78.0,4.6,4,5,7,1,2026-05-03T02:17:02.450340+05:30
Kolhapur,Maharashtra,16.705,74.2433,22.6,95,0.0,945.9,8.95,47.9,66,41.2,16.9,7.1,171.0,51.0,2.1,3,5,7,1,2026-05-03T02:17:02.450350+05:30
Goa,Goa,15.2993,74.124,27.4,86,0.0,996.4,8.9,37.4,72,79.4,25.0,7.7,273.0,56.0,2.1,7,5,7,1,2026-05-03T02:17:02.450362+05:30
Jodhpur,Rajasthan,26.2389,73.0243,30.5,29,0.0,974.9,8.3,54.4,124,121.5,25.6,4.7,168.0,81.0,3.3,0,5,7,0,2026-05-03T02:17:02.450372+05:30
Udaipur,Rajasthan,24.5854,73.7125,26.4,54,0.0,940.6,8.8,37.1,67,42.6,18.9,3.4,167.0,80.0,3.5,4,5,7,1,2026-05-03T02:17:02.450383+05:30
Kota,Rajasthan,25.2138,75.8648,30.9,31,0.0,971.9,8.35,35.3,67,79.6,25.5,3.5,227.0,100.0,6.8,0,5,7,0,2026-05-03T02:17:02.450395+05:30
Bikaner,Rajasthan,28.0229,73.3119,30.4,32,0.0,972.9,8.25,47.9,74,122.5,32.6,3.7,197.0,77.0,4.5,0,5,7,0,2026-05-03T02:17:02.450403+05:30
Ajmer,Rajasthan,26.4499,74.6399,28.0,37,0.0,947.8,8.3,41.0,69,59.4,19.9,3.8,277.0,86.0,3.7,4,5,7,0,2026-05-03T02:17:02.450410+05:30
Gwalior,Madhya Pradesh,26.2183,78.1828,27.5,49,0.0,976.8,8.2,43.6,94,185.3,46.8,4.7,311.0,99.0,6.6,4,5,7,0,2026-05-03T02:17:02.450417+05:30
Indore,Madhya Pradesh,22.7196,75.8577,27.8,55,0.0,943.8,8.7,44.6,60,29.9,16.5,4.0,192.0,90.0,10.0,4,5,7,1,2026-05-03T02:17:02.450424+05:30
Bhopal,Madhya Pradesh,23.2599,77.4126,27.0,48,0.0,948.5,8.7,33.8,66,49.4,24.7,7.1,213.0,61.0,4.4,4,5,7,0,2026-05-03T02:17:02.450431+05:30
Jabalpur,Madhya Pradesh,23.1815,79.9864,24.0,73,0.0,956.6,8.85,29.5,71,61.5,26.5,14.4,235.0,54.0,4.1,3,5,7,1,2026-05-03T02:17:02.450438+05:30
Ujjain,Madhya Pradesh,23.1765,75.7885,27.5,57,0.0,949.2,8.6,41.8,59,23.3,14.3,3.7,180.0,85.0,9.7,4,5,7,1,2026-05-03T02:17:02.450445+05:30
Visakhapatnam,Andhra Pradesh,17.6868,83.2185,28.0,95,0.0,1000.4,9.1,54.0,59,20.4,15.4,15.7,269.0,60.0,3.1,7,5,4,1,2026-05-03T02:17:02.450466+05:30
Vijayawada,Andhra Pradesh,16.5062,80.648,28.9,88,0.0,998.6,8.85,39.6,86,17.3,14.2,4.1,197.0,101.0,4.9,7,5,7,1,2026-05-03T02:17:02.450473+05:30
Guntur,Andhra Pradesh,16.3067,80.4365,29.2,85,0.0,999.5,9.2,34.9,73,17.5,14.9,4.7,194.0,106.0,6.0,7,5,7,1,2026-05-03T02:17:02.450480+05:30
Nellore,Andhra Pradesh,14.4426,79.9865,29.6,72,0.0,1001.5,9.25,47.2,69,22.9,21.5,9.5,250.0,104.0,11.3,7,5,4,1,2026-05-03T02:17:02.450487+05:30
Kurnool,Andhra Pradesh,15.8281,78.0373,29.9,53,0.0,973.7,9.2,35.6,61,33.1,21.2,11.8,240.0,62.0,4.8,4,5,7,1,2026-05-03T02:17:02.450495+05:30
Kakinada,Andhra Pradesh,16.9891,82.2475,28.4,95,0.0,1004.2,9.0,36.0,51,18.0,12.0,2.2,188.0,70.0,1.3,7,5,4,1,2026-05-03T02:17:02.450505+05:30
Tirupati,Andhra Pradesh,13.6288,79.4192,28.8,65,0.0,987.8,9.3,39.6,80,30.2,28.5,10.4,316.0,106.0,12.5,7,5,7,1,2026-05-03T02:17:02.450512+05:30
Warangal,Telangana,17.9689,79.5941,28.6,65,0.0,974.1,9.2,41.8,85,35.7,26.3,11.0,336.0,84.0,9.8,7,5,7,1,2026-05-03T02:17:02.450518+05:30
Nizamabad,Telangana,18.6725,78.0941,29.8,27,0.0,960.6,9.15,30.6,71,76.4,39.2,22.9,362.0,47.0,5.1,4,5,7,0,2026-05-03T02:17:02.450524+05:30
Mysore,Karnataka,12.2958,76.6396,23.0,92,0.0,926.6,8.9,41.8,68,23.6,18.6,9.9,174.0,56.0,2.2,3,5,7,1,2026-05-03T02:17:02.450531+05:30
Mangalore,Karnataka,12.9141,74.856,27.6,86,0.0,1005.5,9.0,42.8,63,41.4,19.4,10.3,279.0,45.0,2.8,7,5,4,1,2026-05-03T02:17:02.450538+05:30
Hubli-Dharwad,Karnataka,15.3647,75.124,22.4,97,0.0,938.8,9.15,47.5,61,42.0,15.1,5.3,177.0,53.0,1.5,3,5,7,1,2026-05-03T02:17:02.450545+05:30
Belgaum,Karnataka,15.8497,74.4977,21.4,95,0.0,923.2,9.15,45.7,63,43.1,18.6,9.1,157.0,41.0,0.7,3,5,7,1,2026-05-03T02:17:05.824705+05:30
Coimbatore,Tamil Nadu,11.0168,76.9558,25.3,90,0.0,959.9,9.25,52.6,66,26.1,20.9,7.0,214.0,67.0,2.6,7,5,7,1,2026-05-03T02:17:05.824741+05:30
Madurai,Tamil Nadu,9.9252,78.1198,28.1,72,0.0,990.8,9.2,37.8,72,33.9,31.0,29.2,360.0,34.0,7.6,7,5,7,1,2026-05-03T02:17:05.824754+05:30
Trichy,Tamil Nadu,10.7905,78.7047,29.0,61,0.0,997.2,9.2,45.0,66,30.9,27.6,14.9,400.0,76.0,6.2,7,5,7,1,2026-05-03T02:17:05.824764+05:30
Salem,Tamil Nadu,11.6643,78.146,28.3,68,0.0,975.3,9.1,43.2,83,32.1,28.3,16.2,266.0,79.0,6.1,7,5,7,1,2026-05-03T02:17:05.824772+05:30
Tirunelveli,Tamil Nadu,8.7139,77.7567,28.7,68,0.0,1001.2,9.15,37.1,61,22.3,20.4,9.3,289.0,47.0,1.9,7,5,4,1,2026-05-03T02:17:05.824780+05:30
Vellore,Tamil Nadu,12.9165,79.1325,29.1,55,0.0,981.5,8.55,42.1,90,29.1,26.3,8.1,309.0,104.0,7.1,4,5,7,1,2026-05-03T02:17:05.824788+05:30
Erode,Tamil Nadu,11.341,77.7172,27.2,80,0.0,986.9,8.95,49.0,71,25.0,21.9,19.8,235.0,49.0,3.9,7,5,7,1,2026-05-03T02:17:05.824796+05:30
Kochi,Kerala,9.9312,76.2673,26.4,95,0.0,1007.2,9.0,34.9,73,39.2,36.9,35.0,435.0,10.0,6.6,7,5,4,1,2026-05-03T02:17:05.824804+05:30
Thiruvananthapuram,Kerala,8.5241,76.9366,25.1,92,0.0,1006.8,8.95,37.4,53,20.0,14.5,5.3,371.0,72.0,2.9,7,5,4,1,2026-05-03T02:17:05.824811+05:30
Kozhikode,Kerala,11.2588,75.7804,25.8,96,0.0,1006.3,8.7,41.0,56,32.4,18.6,2.8,924.0,71.0,1.0,7,5,4,1,2026-05-03T02:17:05.824818+05:30
Thrissur,Kerala,10.5276,76.2144,25.8,92,0.0,1005.7,8.8,35.3,67,42.3,36.6,27.7,383.0,21.0,4.6,7,5,4,1,2026-05-03T02:17:05.824826+05:30
Kannur,Kerala,11.8745,75.3704,27.1,88,0.0,1005.6,9.0,44.3,68,28.9,16.3,11.6,378.0,39.0,1.9,7,5,4,1,2026-05-03T02:17:05.824833+05:30
Patna,Bihar,25.5941,85.1376,23.1,80,0.0,997.1,8.7,36.7,114,51.5,43.8,10.0,336.0,111.0,11.9,3,5,7,1,2026-05-03T02:17:05.824841+05:30
Gaya,Bihar,24.7914,85.0002,24.2,75,0.0,989.5,8.8,31.0,123,58.3,49.7,8.9,388.0,137.0,20.9,3,5,7,1,2026-05-03T02:17:05.824848+05:30
Muzaffarpur,Bihar,26.1209,85.3647,22.4,82,0.0,997.6,8.7,41.4,106,37.5,31.8,9.2,348.0,107.0,9.2,3,5,7,1,2026-05-03T02:17:05.824854+05:30
Bhagalpur,Bihar,25.2425,87.0117,22.1,94,0.0,998.7,7.85,34.6,118,58.6,49.9,11.6,456.0,89.0,7.5,3,5,7,1,2026-05-03T02:17:05.824861+05:30
Ranchi,Jharkhand,23.3441,85.3096,23.3,60,0.0,932.8,9.25,39.6,107,71.2,51.0,15.0,278.0,94.0,29.0,0,5,7,0,2026-05-03T02:17:05.824867+05:30
Jamshedpur,Jharkhand,22.8046,86.2029,24.0,88,0.0,986.1,9.05,36.7,128,53.4,41.7,14.2,386.0,90.0,12.8,3,5,7,1,2026-05-03T02:17:05.824873+05:30
Dhanbad,Jharkhand,23.7957,86.4304,22.9,96,0.0,975.9,9.0,26.6,157,73.1,68.7,44.2,467.0,65.0,68.3,3,5,7,1,2026-05-03T02:17:05.824880+05:30
Bokaro,Jharkhand,23.6693,86.1511,22.9,94,0.0,979.5,9.0,26.6,156,100.6,93.4,47.9,464.0,65.0,86.9,3,5,7,1,2026-05-03T02:17:05.824887+05:30
Bhubaneswar,Odisha,20.2961,85.8245,27.8,90,0.0,999.1,9.1,46.1,54,16.4,13.7,6.0,195.0,68.0,4.5,7,5,7,1,2026-05-03T02:17:05.824894+05:30
Cuttack,Odisha,20.4625,85.8828,27.8,92,0.0,1000.7,9.15,39.2,54,16.4,13.7,6.0,231.0,68.0,4.5,7,5,4,1,2026-05-03T02:17:05.824901+05:30
Rourkela,Odisha,22.2604,84.8536,26.4,67,0.0,980.1,9.0,29.9,111,70.1,47.1,23.5,368.0,60.0,33.9,7,5,7,1,2026-05-03T02:17:05.824908+05:30
Raipur,Chhattisgarh,21.2514,81.6296,30.2,41,0.0,970.2,8.6,36.7,100,93.6,51.3,45.7,387.0,47.0,9.2,0,5,7,0,2026-05-03T02:17:05.824915+05:30
Bhilai,Chhattisgarh,21.1938,81.3509,28.8,47,0.0,970.4,9.0,39.2,101,102.4,56.0,44.7,583.0,44.0,8.7,4,5,7,1,2026-05-03T02:17:05.824922+05:30
Guwahati,Assam,26.1158,91.7086,20.2,98,0.0,1000.0,7.1,27.0,68,34.0,31.4,14.5,319.0,49.0,4.0,3,5,4,1,2026-05-03T02:17:05.824929+05:30
Agartala,Tripura,23.8315,91.2868,20.9,98,0.0,1003.8,8.8,44.3,39,8.9,7.1,12.7,195.0,49.0,1.6,3,5,4,1,2026-05-03T02:17:05.824935+05:30
Shillong,Meghalaya,25.5788,91.8933,14.9,93,0.2,852.6,8.9,29.2,42,3.7,1.9,5.4,230.0,77.0,0.7,6,10,7,0,2026-05-03T02:17:05.824941+05:30
Imphal,Manipur,24.817,93.9368,17.3,96,0.0,920.2,8.8,32.4,52,27.5,24.6,16.9,478.0,39.0,2.8,3,10,7,1,2026-05-03T02:17:05.824948+05:30
Aizawl,Mizoram,23.7271,92.7176,13.9,98,0.0,887.5,8.55,46.1,28,17.8,8.4,2.6,175.0,70.0,0.5,3,10,7,0,2026-05-03T02:17:05.824955+05:30
Kohima,Nagaland,25.6701,94.1077,14.6,91,0.1,851.2,8.55,24.5,35,11.5,7.0,6.5,294.0,58.0,0.7,6,10,7,0,2026-05-03T02:17:05.824963+05:30
Gangtok,Sikkim,27.3314,88.6138,11.6,94,0.0,832.6,8.75,39.2,53,19.4,18.6,21.5,524.0,58.0,1.7,3,10,7,0,2026-05-03T02:17:05.824969+05:30
Siliguri,West Bengal,26.7271,88.3953,20.1,88,0.0,991.5,6.1,23.8,61,25.4,24.3,15.5,404.0,91.0,4.5,3,5,7,1,2026-05-03T02:17:09.143155+05:30
Durgapur,West Bengal,23.5204,87.3119,23.0,96,0.0,991.2,8.95,30.2,151,46.7,42.8,28.7,444.0,58.0,29.5,3,5,7,1,2026-05-03T02:17:09.143192+05:30
Asansol,West Bengal,23.6739,86.9524,23.0,98,0.0,989.7,9.0,29.2,153,54.7,50.4,31.5,446.0,66.0,47.2,3,5,7,1,2026-05-03T02:17:09.143205+05:30
Pondicherry,Puducherry,11.9139,79.8145,28.8,85,0.0,1005.4,8.45,50.4,51,14.7,12.5,9.4,255.0,74.0,8.3,7,5,4,1,2026-05-03T02:17:09.143214+05:30
Port Blair,Andaman and Nicobar Islands,11.6234,92.7265,27.5,80,0.0,1006.2,9.05,28.4,37,10.9,7.9,0.3,148.0,57.0,0.3,7,5,4,1,2026-05-03T02:17:09.143223+05:30
Haridwar,Uttarakhand,29.9457,78.1642,20.4,80,0.0,968.4,6.85,40.7,111,55.1,39.1,13.3,311.0,74.0,5.1,3,5,7,1,2026-05-03T02:17:09.143232+05:30
Rishikesh,Uttarakhand,30.0869,78.2676,18.1,85,0.0,961.2,7.3,29.5,102,54.1,37.1,9.4,326.0,85.0,3.1,3,10,7,0,2026-05-03T02:17:09.143240+05:30
Nainital,Uttarakhand,29.3919,79.4542,12.0,78,0.0,800.2,8.35,41.0,95,61.9,33.5,10.4,280.0,91.0,4.1,3,5,7,0,2026-05-03T02:17:09.143247+05:30
Mussoorie,Uttarakhand,30.4599,78.0664,13.2,68,0.0,797.7,6.95,43.9,104,51.9,38.1,36.1,287.0,29.0,8.0,3,5,7,0,2026-05-03T02:17:09.143255+05:30
Dharamshala,Himachal Pradesh,32.219,76.3234,20.9,35,0.0,863.5,8.15,59.0,47,11.1,9.2,10.0,196.0,53.0,0.1,0,5,7,0,2026-05-03T02:17:09.143262+05:30
Dalhousie,Himachal Pradesh,32.5387,75.971,8.4,74,0.0,794.7,8.5,46.4,56,22.8,21.0,41.3,361.0,12.0,1.3,3,5,7,0,2026-05-03T02:17:09.143270+05:30
Patiala,Punjab,30.3398,76.3869,25.0,56,0.0,971.6,7.35,54.0,237,74.3,51.7,22.9,451.0,66.0,18.8,4,5,7,0,2026-05-03T02:17:09.143277+05:30
Bhatinda,Punjab,30.211,74.9455,27.6,42,0.0,975.7,8.15,52.2,129,136.0,33.8,5.8,367.0,112.0,4.9,4,5,7,0,2026-05-03T02:17:09.143284+05:30
Rohtak,Haryana,28.8955,76.6066,26.6,51,0.0,974.8,7.65,51.1,361,558.8,112.9,29.1,656.0,72.0,25.7,4,5,7,0,2026-05-03T02:17:09.143291+05:30
Panipat,Haryana,29.3909,76.9635,24.9,57,0.0,973.8,7.45,48.2,463,538.3,112.5,29.5,503.0,55.0,19.1,0,5,7,0,2026-05-03T02:17:09.143297+05:30
Mathura,Uttar Pradesh,27.4924,77.6737,25.3,54,0.0,980.5,7.85,40.0,633,564.4,91.0,9.4,364.0,93.0,10.5,4,5,7,0,2026-05-03T02:17:09.143304+05:30
Vrindavan,Uttar Pradesh,27.5823,77.7027,26.0,53,0.0,981.0,7.85,37.8,633,564.4,91.0,9.4,365.0,93.0,10.5,4,5,7,0,2026-05-03T02:17:09.143310+05:30
Ayodhya,Uttar Pradesh,26.7922,82.1998,24.2,73,0.0,991.8,8.25,36.4,87,46.2,31.4,7.2,362.0,121.0,5.6,3,5,7,1,2026-05-03T02:17:09.143317+05:30
Ratlam,Madhya Pradesh,23.3315,75.0367,26.0,72,0.0,950.2,8.5,46.1,57,21.6,12.5,4.5,181.0,78.0,11.0,7,5,7,1,2026-05-03T02:17:09.143323+05:30
Sagar,Madhya Pradesh,23.8388,78.7378,23.9,64,0.0,944.7,8.7,36.7,63,50.8,20.7,5.8,177.0,73.0,3.1,3,5,7,1,2026-05-03T02:17:09.143329+05:30
Satna,Madhya Pradesh,24.6005,80.8322,23.8,65,0.0,966.3,8.75,43.6,66,48.2,25.4,33.3,316.0,31.0,5.5,3,5,7,1,2026-05-03T02:17:09.143336+05:30
Akola,Maharashtra,20.7002,77.0082,30.9,36,0.0,970.9,8.9,44.3,59,36.3,16.2,6.1,192.0,80.0,16.8,0,5,7,0,2026-05-03T02:17:09.143343+05:30
Amravati,Maharashtra,20.9374,77.7796,27.8,52,0.0,962.9,8.9,41.4,59,33.6,15.2,6.6,298.0,83.0,17.3,4,5,7,1,2026-05-03T02:17:09.143351+05:30
Latur,Maharashtra,18.4088,76.5604,29.0,39,0.0,936.7,9.1,37.8,58,28.5,17.2,7.8,204.0,84.0,6.9,4,5,7,0,2026-05-03T02:17:09.143358+05:30
Nanded,Maharashtra,19.1383,77.3091,30.3,27,0.0,964.3,9.0,28.1,62,29.2,18.4,12.1,329.0,53.0,4.6,0,5,7,0,2026-05-03T02:17:09.143365+05:30
Gulbarga,Karnataka,17.3297,76.8343,30.1,38,0.0,955.1,9.1,46.4,59,21.9,13.7,9.0,210.0,70.0,4.4,0,5,7,0,2026-05-03T02:17:09.143371+05:30
Bidar,Karnataka,17.9104,77.5199,28.5,31,0.0,931.6,9.15,37.8,70,53.9,34.3,31.3,267.0,42.0,5.5,4,5,7,0,2026-05-03T02:17:09.143377+05:30
Hospet,Karnataka,15.2689,76.3909,25.1,82,0.0,954.0,9.2,49.0,59,31.1,14.1,5.2,176.0,56.0,1.8,7,5,7,1,2026-05-03T02:17:09.143384+05:30
Tirupur,Tamil Nadu,11.1085,77.3411,25.6,90,0.0,973.2,9.35,53.3,73,32.2,27.3,21.5,215.0,50.0,5.4,7,5,7,1,2026-05-03T02:17:09.143390+05:30
Alappuzha,Kerala,9.4981,76.3388,26.0,96,0.0,1007.3,9.0,34.2,72,34.7,26.8,18.5,266.0,48.0,4.6,7,5,4,1,2026-05-03T02:17:09.143397+05:30
Munnar,Kerala,10.0889,77.0595,17.2,87,0.0,854.9,9.35,25.6,56,16.5,15.6,11.1,212.0,31.0,1.0,3,10,7,0,2026-05-03T02:17:09.143404+05:30
Silchar,Assam,24.8333,92.7789,20.5,94,0.0,1002.6,8.7,26.3,51,20.4,14.8,7.7,229.0,69.0,3.4,3,5,4,1,2026-05-03T02:17:09.143410+05:30
Dibrugarh,Assam,27.4728,94.912,20.9,95,0.1,994.2,7.8,22.7,58,20.0,17.3,12.8,370.0,47.0,1.4,6,5,7,1,2026-05-03T02:17:09.143416+05:30
