city,state,latitude,longitude,temp,humidity,rain,pressure,uv_index,wind_gusts,aqi,pm10,pm2_5,no2,co,o3,so2,mosquito_risk,arthritis_risk,migraine_risk,frizz_risk,updated_at
Delhi,Delhi,28.6139,77.209,33.3,51,0.0,976.8,7.5,33.5,167,314.8,118.3,73.2,923.0,10.0,23.9,0,5,7,1,2026-06-28T00:54:39.113114+05:30
Mumbai,Maharashtra,19.076,72.8777,28.0,87,0.0,1005.2,7.7,39.2,60,32.1,16.9,12.2,618.0,40.0,7.4,7,5,4,1,2026-06-28T00:54:39.113154+05:30
Bangalore,Karnataka,12.9716,77.5946,21.3,96,0.0,910.5,8.3,46.8,39,9.9,8.6,19.4,289.0,35.0,5.5,3,5,7,1,2026-06-28T00:54:39.113168+05:30
Hyderabad,Telangana,17.385,78.4867,24.3,94,0.1,950.4,8.5,36.7,79,25.8,21.1,23.7,325.0,53.0,6.3,6,5,7,1,2026-06-28T00:54:39.113177+05:30
Chennai,Tamil Nadu,13.0827,80.2707,25.0,96,0.4,1005.9,8.6,44.6,73,25.6,18.4,9.9,222.0,82.0,5.7,10,5,4,1,2026-06-28T00:54:39.113187+05:30
Kolkata,West Bengal,22.5726,88.3639,27.7,90,0.0,1001.7,9.0,38.2,72,26.7,23.6,9.7,332.0,72.0,6.3,7,5,4,1,2026-06-28T00:54:39.113195+05:30
Pune,Maharashtra,18.5204,73.8567,24.0,90,0.0,944.9,7.1,41.8,45,16.2,12.4,16.2,206.0,35.0,10.9,3,5,7,1,2026-06-28T00:54:39.113202+05:30
Ahmedabad,Gujarat,23.0225,72.5714,32.0,58,0.0,997.6,8.05,39.6,72,36.2,19.8,9.7,172.0,59.0,4.6,0,5,7,1,2026-06-28T00:54:39.113209+05:30
Jaipur,Rajasthan,26.9124,75.7873,31.0,55,0.0,954.9,8.2,38.5,129,195.6,55.5,12.9,457.0,51.0,5.5,0,5,7,1,2026-06-28T00:54:39.113215+05:30
Lucknow,Uttar Pradesh,26.8467,80.9462,31.7,64,0.0,987.5,8.3,29.2,131,120.6,62.4,30.3,316.0,64.0,12.1,3,5,7,1,2026-06-28T00:54:39.113222+05:30
Kanpur,Uttar Pradesh,26.4499,80.3319,34.4,50,0.0,985.7,8.3,43.6,127,98.3,47.7,25.4,387.0,55.0,8.1,0,5,7,1,2026-06-28T00:54:39.113240+05:30
Chandigarh,Chandigarh,30.7333,76.7794,29.0,73,0.0,962.9,7.8,28.8,154,123.4,99.2,53.8,1255.0,46.0,14.2,7,5,7,1,2026-06-28T00:54:39.113247+05:30
Srinagar,Jammu and Kashmir,34.0837,74.7973,19.7,71,0.0,837.3,9.1,33.8,78,35.4,33.2,28.7,788.0,22.0,0.3,3,5,7,0,2026-06-28T00:54:39.113253+05:30
Jammu,Jammu and Kashmir,32.7266,74.857,30.2,63,0.0,966.3,8.65,31.0,135,73.3,63.3,65.5,674.0,3.0,5.6,3,5,7,1,2026-06-28T00:54:39.113260+05:30
Amritsar,Punjab,31.634,74.8723,30.4,73,0.0,974.0,8.5,48.2,165,108.7,92.9,55.2,810.0,35.0,9.7,3,5,7,1,2026-06-28T00:54:39.113266+05:30
Ludhiana,Punjab,30.901,75.8573,32.7,58,0.0,972.3,8.0,43.6,158,121.5,78.5,33.2,1481.0,63.0,11.5,0,5,7,1,2026-06-28T00:54:39.113272+05:30
Jalandhar,Punjab,31.326,75.5762,31.7,64,0.0,973.2,8.25,43.6,162,111.1,82.7,45.7,954.0,46.0,8.8,3,5,7,1,2026-06-28T00:54:39.113277+05:30
Dehradun,Uttarakhand,30.6284,78.0322,17.3,99,0.0,827.6,6.45,31.7,72,45.8,31.5,32.4,211.0,36.0,1.2,3,10,7,1,2026-06-28T00:54:39.113283+05:30
Shimla,Himachal Pradesh,31.1048,77.1734,14.3,95,0.0,781.1,7.6,35.6,103,72.9,60.1,29.0,425.0,41.0,0.2,3,10,7,0,2026-06-28T00:54:39.113289+05:30
Manali,Himachal Pradesh,32.2396,77.1887,17.9,68,0.0,817.1,9.15,34.9,45,6.0,5.6,85.4,274.0,7.0,0.0,3,5,7,0,2026-06-28T00:54:39.113298+05:30
Gurgaon,Haryana,28.4595,77.0266,32.2,56,0.0,975.2,7.5,36.7,198,158.3,74.7,57.9,1269.0,14.0,15.4,0,5,7,1,2026-06-28T00:54:39.113304+05:30
Noida,Uttar Pradesh,28.5355,77.391,30.7,75,0.0,978.0,7.2,24.1,198,158.3,74.7,57.9,1625.0,14.0,15.4,3,5,7,1,2026-06-28T00:54:39.113309+05:30
Ghaziabad,Uttar Pradesh,28.6692,77.4538,30.2,70,0.0,976.3,7.75,29.9,168,312.0,118.3,57.9,681.0,41.0,25.8,3,5,7,1,2026-06-28T00:54:39.113315+05:30
Faridabad,Haryana,28.4089,77.3178,32.2,57,0.0,977.4,7.2,29.9,198,158.3,74.7,57.9,1318.0,14.0,15.4,0,5,7,1,2026-06-28T00:54:39.113322+05:30
Meerut,Uttar Pradesh,28.9845,77.7064,32.4,61,0.0,975.4,5.95,25.9,168,312.0,118.3,57.9,615.0,41.0,25.8,3,5,3,1,2026-06-28T00:54:39.113329+05:30
Agra,Uttar Pradesh,27.1767,78.0081,33.2,51,0.0,981.8,7.25,37.8,140,134.1,57.3,39.7,280.0,34.0,9.3,0,5,7,1,2026-06-28T00:54:39.113335+05:30
Varanasi,Uttar Pradesh,25.3176,82.9739,31.4,66,0.1,992.2,8.4,33.5,124,46.1,41.4,20.0,741.0,78.0,10.4,6,5,7,1,2026-06-28T00:54:39.113342+05:30
Prayagraj,Uttar Pradesh,25.4358,81.8463,33.6,56,0.0,990.0,8.7,36.0,107,62.9,44.9,21.0,194.0,68.0,8.1,0,5,7,1,2026-06-28T00:54:39.113348+05:30
Gorakhpur,Uttar Pradesh,26.7606,83.3732,27.9,82,0.0,991.8,7.75,34.2,158,88.7,81.5,43.6,828.0,40.0,13.5,7,5,7,1,2026-06-28T00:54:39.113354+05:30
Bareilly,Uttar Pradesh,28.367,79.4304,32.4,53,0.0,980.7,8.1,23.4,158,139.7,74.7,30.4,597.0,79.0,15.5,0,5,7,1,2026-06-28T00:54:39.113360+05:30
Aligarh,Uttar Pradesh,27.8974,78.088,32.1,64,0.0,979.4,5.5,29.9,165,238.0,78.0,32.3,706.0,45.0,6.8,3,5,3,1,2026-06-28T00:54:39.113366+05:30
Moradabad,Uttar Pradesh,28.8386,78.7733,32.8,55,0.0,977.7,7.75,29.2,163,182.5,106.9,51.6,784.0,47.0,18.7,0,5,7,1,2026-06-28T00:54:39.113370+05:30
Saharanpur,Uttar Pradesh,29.9637,77.546,31.2,63,0.0,969.9,6.9,22.3,165,262.6,112.2,50.0,531.0,38.0,15.2,3,5,7,1,2026-06-28T00:54:39.113376+05:30
Jhansi,Uttar Pradesh,25.4484,78.5685,31.4,56,0.0,972.9,7.3,38.9,88,35.3,21.7,5.4,157.0,76.0,2.4,0,5,7,1,2026-06-28T00:54:42.454623+05:30
Surat,Gujarat,21.1702,72.8311,29.7,78,0.0,1003.0,7.6,41.8,83,42.3,23.1,17.5,212.0,35.0,28.8,7,5,4,1,2026-06-28T00:54:42.454654+05:30
Vadodara,Gujarat,22.3072,73.1812,30.6,69,0.0,1000.1,8.0,45.0,77,32.7,20.8,18.0,166.0,32.0,18.6,3,5,4,1,2026-06-28T00:54:42.454662+05:30
Rajkot,Gujarat,22.3039,70.8022,29.1,69,0.0,990.6,7.55,40.0,66,28.4,13.8,7.1,109.0,44.0,7.1,7,5,7,1,2026-06-28T00:54:42.454669+05:30
Thane,Maharashtra,19.2183,72.9781,27.4,89,0.0,1004.6,7.7,33.1,60,32.1,16.9,12.2,534.0,40.0,7.4,7,5,4,1,2026-06-28T00:54:42.454675+05:30
Nagpur,Maharashtra,21.1458,79.0882,26.7,93,0.0,969.5,8.85,35.6,93,29.9,26.7,16.9,406.0,62.0,10.7,7,5,7,1,2026-06-28T00:54:42.454681+05:30
Nashik,Maharashtra,19.9975,73.7898,24.3,92,0.0,942.4,7.55,36.4,55,21.8,13.9,8.9,151.0,45.0,5.3,3,5,7,1,2026-06-28T00:54:42.454687+05:30
Aurangabad,Maharashtra,19.8762,75.3433,25.7,84,0.0,940.9,7.65,33.5,68,20.0,14.2,10.6,213.0,50.0,4.1,7,5,7,1,2026-06-28T00:54:42.454692+05:30
Solapur,Maharashtra,17.6599,75.9064,25.5,91,0.0,954.7,7.65,31.3,50,12.9,10.1,11.2,190.0,39.0,2.4,7,5,7,1,2026-06-28T00:54:42.454698+05:30
Kolhapur,Maharashtra,16.705,74.2433,23.3,93,0.0,945.2,6.75,40.3,33,8.9,7.5,8.8,154.0,35.0,2.8,3,5,7,1,2026-06-28T00:54:42.454704+05:30
Goa,Goa,15.2993,74.124,25.0,99,0.0,996.3,3.3,32.4,45,16.4,12.6,5.3,276.0,45.0,1.3,7,5,3,1,2026-06-28T00:54:42.454710+05:30
Jodhpur,Rajasthan,26.2389,73.0243,31.6,58,0.0,977.6,8.45,38.5,106,116.9,33.2,8.2,153.0,53.0,2.5,0,5,7,1,2026-06-28T00:54:42.454716+05:30
Udaipur,Rajasthan,24.5854,73.7125,26.2,86,0.0,942.2,8.7,32.4,70,48.5,26.0,16.1,228.0,28.0,2.0,7,5,7,1,2026-06-28T00:54:42.454721+05:30
Kota,Rajasthan,25.2138,75.8648,28.6,77,0.0,974.0,6.25,30.2,81,32.6,22.6,8.6,214.0,62.0,4.4,7,5,7,1,2026-06-28T00:54:42.454726+05:30
Bikaner,Rajasthan,28.0229,73.3119,34.5,42,0.0,975.2,8.45,32.4,93,152.3,51.2,2.3,138.0,64.0,2.6,0,5,7,1,2026-06-28T00:54:42.454732+05:30
Ajmer,Rajasthan,26.4499,74.6399,28.6,66,0.0,950.1,8.35,42.1,86,85.7,35.6,9.3,149.0,57.0,4.6,7,5,7,1,2026-06-28T00:54:42.454737+05:30
Gwalior,Madhya Pradesh,26.2183,78.1828,30.7,63,0.0,977.9,7.5,40.3,89,46.3,27.8,16.2,151.0,43.0,3.5,3,5,7,1,2026-06-28T00:54:42.454743+05:30
Indore,Madhya Pradesh,22.7196,75.8577,25.4,93,0.0,944.0,3.25,40.0,85,34.5,25.3,12.9,457.0,56.0,4.9,7,5,3,1,2026-06-28T00:54:42.454749+05:30
Bhopal,Madhya Pradesh,23.2599,77.4126,26.0,90,0.0,949.7,3.3,23.0,88,33.3,26.4,9.0,330.0,64.0,3.7,7,5,3,1,2026-06-28T00:54:42.454754+05:30
Jabalpur,Madhya Pradesh,23.1815,79.9864,27.2,90,0.0,957.6,8.8,30.6,64,19.8,18.6,10.4,258.0,71.0,3.0,7,5,7,1,2026-06-28T00:54:42.454758+05:30
Ujjain,Madhya Pradesh,23.1765,75.7885,25.6,91,0.0,949.7,7.0,33.8,84,37.1,26.7,8.3,336.0,59.0,3.4,7,5,7,1,2026-06-28T00:54:42.454764+05:30
Visakhapatnam,Andhra Pradesh,17.6868,83.2185,27.4,93,0.0,999.2,8.4,36.7,86,35.2,27.1,23.4,378.0,77.0,35.0,7,5,7,1,2026-06-28T00:54:42.454769+05:30
Vijayawada,Andhra Pradesh,16.5062,80.648,28.9,77,0.0,998.8,7.95,45.0,85,31.9,25.1,9.7,323.0,75.0,4.0,7,5,7,1,2026-06-28T00:54:42.454774+05:30
Guntur,Andhra Pradesh,16.3067,80.4365,28.3,79,0.0,1000.5,7.75,40.3,86,31.3,24.7,13.3,461.0,67.0,4.6,7,5,4,1,2026-06-28T00:54:42.454780+05:30
Nellore,Andhra Pradesh,14.4426,79.9865,26.0,93,0.1,1004.2,8.1,36.4,63,22.7,17.2,7.9,130.0,84.0,6.1,10,5,4,1,2026-06-28T00:54:42.454785+05:30
Kurnool,Andhra Pradesh,15.8281,78.0373,25.2,95,0.1,974.8,7.6,37.1,60,12.0,8.8,7.4,173.0,64.0,1.2,10,5,7,1,2026-06-28T00:54:42.454791+05:30
Kakinada,Andhra Pradesh,16.9891,82.2475,27.0,98,0.0,1003.3,5.85,33.8,71,34.5,24.0,4.6,536.0,105.0,4.1,7,5,0,1,2026-06-28T00:54:42.454797+05:30
Tirupati,Andhra Pradesh,13.6288,79.4192,25.0,96,0.3,989.7,7.6,42.5,58,24.7,18.2,16.0,135.0,51.0,3.7,10,5,7,1,2026-06-28T00:54:42.454802+05:30
Warangal,Telangana,17.9689,79.5941,27.0,88,0.0,975.0,6.6,33.8,90,37.6,29.5,14.1,349.0,50.0,3.5,7,5,7,1,2026-06-28T00:54:42.454808+05:30
Nizamabad,Telangana,18.6725,78.0941,26.1,87,0.0,961.7,4.3,33.5,101,43.7,34.0,17.0,256.0,48.0,4.2,7,5,3,1,2026-06-28T00:54:42.454813+05:30
Mysore,Karnataka,12.2958,76.6396,21.5,95,0.0,927.6,7.45,48.6,30,4.9,4.5,9.8,157.0,37.0,2.2,3,5,7,1,2026-06-28T00:54:42.454818+05:30
Mangalore,Karnataka,12.9141,74.856,25.3,96,0.2,1006.7,1.2,42.8,40,14.1,9.5,6.2,202.0,38.0,1.9,10,5,0,1,2026-06-28T00:54:42.454823+05:30
Hubli-Dharwad,Karnataka,15.3647,75.124,22.6,96,0.0,938.9,6.3,44.3,21,2.8,2.3,5.3,120.0,41.0,1.2,3,5,7,1,2026-06-28T00:54:42.454828+05:30
Belgaum,Karnataka,15.8497,74.4977,22.2,94,0.0,923.4,7.45,40.3,21,3.9,3.0,4.9,117.0,43.0,1.6,3,5,7,1,2026-06-28T00:54:45.788945+05:30
Coimbatore,Tamil Nadu,11.0168,76.9558,23.3,95,0.0,961.1,8.7,50.0,33,5.2,4.1,7.3,161.0,36.0,2.6,3,5,7,1,2026-06-28T00:54:45.788975+05:30
Madurai,Tamil Nadu,9.9252,78.1198,29.4,61,0.0,991.7,8.25,50.8,67,22.8,18.0,28.5,140.0,23.0,5.7,7,5,7,1,2026-06-28T00:54:45.788984+05:30
Trichy,Tamil Nadu,10.7905,78.7047,28.3,70,0.0,998.6,8.25,51.5,52,19.9,15.6,14.2,252.0,46.0,4.4,7,5,7,1,2026-06-28T00:54:45.788991+05:30
Salem,Tamil Nadu,11.6643,78.146,24.6,95,0.0,976.6,8.8,31.7,59,17.1,13.3,18.0,373.0,42.0,5.4,3,5,7,1,2026-06-28T00:54:45.788998+05:30
Tirunelveli,Tamil Nadu,8.7139,77.7567,28.7,66,0.0,1002.2,8.55,46.8,38,7.8,6.2,7.7,155.0,38.0,2.1,7,5,4,1,2026-06-28T00:54:45.789004+05:30
Vellore,Tamil Nadu,12.9165,79.1325,24.3,96,0.0,983.1,8.8,37.4,61,15.1,10.2,9.1,172.0,59.0,3.5,3,5,7,1,2026-06-28T00:54:45.789011+05:30
Erode,Tamil Nadu,11.341,77.7172,26.2,87,0.0,988.6,8.6,41.8,52,8.7,7.2,12.3,158.0,35.0,2.9,7,5,7,1,2026-06-28T00:54:45.789017+05:30
Kochi,Kerala,9.9312,76.2673,24.6,98,0.1,1009.4,8.55,43.2,54,13.6,10.0,11.7,174.0,29.0,3.1,6,0,4,1,2026-06-28T00:54:45.789023+05:30
Thiruvananthapuram,Kerala,8.5241,76.9366,24.0,98,0.0,1008.7,7.5,52.9,38,11.3,5.9,2.7,175.0,49.0,1.0,3,0,4,1,2026-06-28T00:54:45.789028+05:30
Kozhikode,Kerala,11.2588,75.7804,24.4,99,0.1,1008.4,8.55,41.4,27,10.1,5.0,1.4,175.0,52.0,0.8,6,0,4,1,2026-06-28T00:54:45.789033+05:30
Thrissur,Kerala,10.5276,76.2144,23.6,99,0.0,1007.7,8.55,41.4,55,18.7,16.4,14.7,199.0,23.0,3.6,3,5,4,1,2026-06-28T00:54:45.789038+05:30
Kannur,Kerala,11.8745,75.3704,24.5,99,0.0,1007.4,8.6,40.3,35,12.6,7.9,9.0,142.0,32.0,1.8,3,5,4,1,2026-06-28T00:54:45.789043+05:30
Patna,Bihar,25.5941,85.1376,28.8,91,0.0,995.2,8.45,28.4,153,74.0,67.8,23.5,391.0,79.0,14.4,7,5,7,1,2026-06-28T00:54:45.789049+05:30
Gaya,Bihar,24.7914,85.0002,29.2,86,0.0,989.0,8.65,27.7,133,55.6,53.4,17.5,382.0,88.0,13.0,7,5,7,1,2026-06-28T00:54:45.789054+05:30
Muzaffarpur,Bihar,26.1209,85.3647,28.0,89,0.1,995.7,8.85,27.4,154,78.0,70.8,22.1,474.0,85.0,12.2,10,5,7,1,2026-06-28T00:54:45.789059+05:30
Bhagalpur,Bihar,25.2425,87.0117,29.3,82,0.2,996.6,7.75,32.8,128,53.1,51.1,14.2,357.0,98.0,21.6,10,5,7,1,2026-06-28T00:54:45.789065+05:30
Ranchi,Jharkhand,23.3441,85.3096,25.0,85,0.0,933.9,9.0,28.8,128,48.8,47.3,15.7,305.0,81.0,12.9,7,5,7,1,2026-06-28T00:54:45.789070+05:30
Jamshedpur,Jharkhand,22.8046,86.2029,28.1,88,0.0,986.7,5.55,27.7,132,48.5,46.3,22.7,602.0,57.0,25.0,7,5,3,1,2026-06-28T00:54:45.789076+05:30
Dhanbad,Jharkhand,23.7957,86.4304,28.7,83,0.0,975.7,9.1,35.3,159,70.8,68.7,45.7,1701.0,51.0,117.3,7,5,7,1,2026-06-28T00:54:45.789081+05:30
Bokaro,Jharkhand,23.6693,86.1511,29.2,77,0.0,979.3,9.1,36.7,161,79.6,77.1,38.1,1255.0,69.0,103.8,7,5,7,1,2026-06-28T00:54:45.789089+05:30
Bhubaneswar,Odisha,20.2961,85.8245,27.8,94,0.0,998.4,8.75,39.2,78,28.5,25.8,7.5,236.0,109.0,8.2,7,5,7,1,2026-06-28T00:54:45.789094+05:30
Cuttack,Odisha,20.4625,85.8828,28.1,93,0.0,1000.2,8.65,33.5,78,28.5,25.8,7.5,240.0,109.0,8.2,7,5,4,1,2026-06-28T00:54:45.789099+05:30
Rourkela,Odisha,22.2604,84.8536,28.9,76,0.0,980.9,9.0,44.3,102,33.8,31.4,12.4,301.0,95.0,27.4,7,5,7,1,2026-06-28T00:54:45.789104+05:30
Raipur,Chhattisgarh,21.2514,81.6296,28.6,81,0.0,970.4,8.95,26.3,111,38.8,37.1,31.6,422.0,56.0,54.2,7,5,7,1,2026-06-28T00:54:45.789110+05:30
Bhilai,Chhattisgarh,21.1938,81.3509,28.7,80,0.0,971.0,8.95,35.6,105,36.8,35.5,24.3,550.0,72.0,43.2,7,5,7,1,2026-06-28T00:54:45.789115+05:30
Guwahati,Assam,26.1158,91.7086,26.7,87,0.0,997.1,7.8,34.9,77,25.1,23.5,7.7,373.0,74.0,3.1,7,5,7,1,2026-06-28T00:54:45.789121+05:30
Agartala,Tripura,23.8315,91.2868,27.3,87,0.0,1003.3,8.05,38.2,57,13.0,11.7,8.8,170.0,42.0,2.0,7,5,4,1,2026-06-28T00:54:45.789127+05:30
Shillong,Meghalaya,25.5788,91.8933,20.6,91,0.1,854.8,8.0,37.8,49,5.5,5.1,5.7,166.0,69.0,1.7,6,5,7,1,2026-06-28T00:54:45.789132+05:30
Imphal,Manipur,24.817,93.9368,23.5,95,0.0,920.2,9.25,32.0,58,21.1,20.1,16.4,336.0,26.0,2.4,3,5,7,1,2026-06-28T00:54:45.789137+05:30
Aizawl,Mizoram,23.7271,92.7176,20.4,93,0.0,890.3,8.2,35.6,35,4.1,3.7,3.0,130.0,45.0,0.8,3,5,7,1,2026-06-28T00:54:45.789141+05:30
Kohima,Nagaland,25.6701,94.1077,19.1,97,0.0,851.7,7.4,25.6,46,13.8,12.3,8.3,307.0,39.0,1.1,3,10,7,1,2026-06-28T00:54:45.789148+05:30
Gangtok,Sikkim,27.3314,88.6138,18.9,95,1.6,835.4,6.7,31.0,62,12.1,11.7,15.0,394.0,88.0,2.5,6,10,7,1,2026-06-28T00:54:45.789155+05:30
Siliguri,West Bengal,26.7271,88.3953,25.4,98,0.1,989.6,8.8,19.8,86,20.1,17.7,8.4,445.0,114.0,3.9,10,5,7,1,2026-06-28T00:54:49.137648+05:30
Durgapur,West Bengal,23.5204,87.3119,27.9,89,0.0,990.7,9.05,28.8,136,38.2,36.6,23.0,519.0,60.0,30.4,7,5,7,1,2026-06-28T00:54:49.137678+05:30
Asansol,West Bengal,23.6739,86.9524,28.5,85,0.0,989.2,8.85,37.4,137,41.4,39.3,23.3,420.0,58.0,31.3,7,5,7,1,2026-06-28T00:54:49.137688+05:30
Pondicherry,Puducherry,11.9139,79.8145,26.4,85,0.0,1007.0,8.4,41.4,68,18.2,13.5,10.5,264.0,67.0,8.2,7,5,4,1,2026-06-28T00:54:49.137695+05:30
Port Blair,Andaman and Nicobar Islands,11.6234,92.7265,25.7,96,0.0,1006.5,2.25,41.8,19,5.4,3.2,0.3,87.0,43.0,0.2,7,5,0,1,2026-06-28T00:54:49.137701+05:30
Haridwar,Uttarakhand,29.9457,78.1642,29.9,69,0.0,968.3,7.05,27.7,148,115.9,82.0,39.6,433.0,55.0,15.2,7,5,7,1,2026-06-28T00:54:49.137707+05:30
Rishikesh,Uttarakhand,30.0869,78.2676,27.3,77,0.0,961.2,6.55,31.3,100,81.0,48.7,19.9,371.0,83.0,7.6,7,5,7,1,2026-06-28T00:54:49.137713+05:30
Nainital,Uttarakhand,29.3919,79.4542,16.4,90,0.0,803.4,6.75,28.4,104,84.1,44.6,18.8,354.0,83.0,7.1,3,10,7,0,2026-06-28T00:54:49.137719+05:30
Mussoorie,Uttarakhand,30.4599,78.0664,17.5,85,0.0,801.3,5.7,40.7,114,88.5,60.1,39.9,348.0,62.0,11.2,3,10,3,0,2026-06-28T00:54:49.137726+05:30
Dharamshala,Himachal Pradesh,32.219,76.3234,22.7,73,0.1,866.6,7.9,31.0,56,10.6,9.9,14.6,277.0,64.0,0.1,6,5,7,1,2026-06-28T00:54:49.137731+05:30
Dalhousie,Himachal Pradesh,32.5387,75.971,15.7,97,0.1,801.7,7.1,33.1,108,50.9,38.2,25.4,476.0,61.0,1.6,6,10,7,0,2026-06-28T00:54:49.137738+05:30
Patiala,Punjab,30.3398,76.3869,32.3,59,0.0,971.9,7.65,33.5,165,293.4,119.7,45.9,767.0,40.0,10.6,0,5,7,1,2026-06-28T00:54:49.137743+05:30
Bhatinda,Punjab,30.211,74.9455,32.4,64,0.0,976.9,8.05,27.0,154,99.9,78.2,61.9,576.0,29.0,11.6,3,5,7,1,2026-06-28T00:54:49.137749+05:30
Rohtak,Haryana,28.8955,76.6066,31.6,64,0.0,975.2,7.1,28.8,183,306.4,111.3,82.6,857.0,0.0,15.0,3,5,7,1,2026-06-28T00:54:49.137755+05:30
Panipat,Haryana,29.3909,76.9635,30.8,67,0.0,974.0,6.8,28.8,503,540.2,143.9,67.1,775.0,17.0,12.4,3,5,7,1,2026-06-28T00:54:49.137761+05:30
Mathura,Uttar Pradesh,27.4924,77.6737,32.2,57,0.0,980.6,7.4,31.0,152,342.7,73.8,39.1,450.0,33.0,5.2,0,5,7,1,2026-06-28T00:54:49.137767+05:30
Vrindavan,Uttar Pradesh,27.5823,77.7027,31.5,62,0.0,980.9,7.4,28.4,152,342.7,73.8,39.1,521.0,33.0,5.2,3,5,7,1,2026-06-28T00:54:49.137773+05:30
Ayodhya,Uttar Pradesh,26.7922,82.1998,29.6,79,0.1,989.7,8.0,23.4,146,118.7,85.4,47.7,1013.0,41.0,13.1,10,5,7,1,2026-06-28T00:54:49.137779+05:30
Ratlam,Madhya Pradesh,23.3315,75.0367,25.6,88,0.0,950.5,8.1,32.0,81,38.4,26.4,7.3,292.0,61.0,3.2,7,5,7,1,2026-06-28T00:54:49.137784+05:30
Sagar,Madhya Pradesh,23.8388,78.7378,27.2,80,0.0,946.2,8.1,24.1,65,30.6,23.6,9.5,230.0,69.0,3.1,7,5,7,1,2026-06-28T00:54:49.137789+05:30
Satna,Madhya Pradesh,24.6005,80.8322,29.5,72,0.0,966.7,6.35,25.9,76,29.3,20.8,7.4,194.0,86.0,3.3,7,5,7,1,2026-06-28T00:54:49.137795+05:30
Akola,Maharashtra,20.7002,77.0082,27.1,90,0.0,971.4,5.8,34.2,81,23.8,17.9,8.8,192.0,72.0,4.1,7,5,3,1,2026-06-28T00:54:49.137801+05:30
Amravati,Maharashtra,20.9374,77.7796,26.7,88,0.0,963.6,8.45,36.0,79,21.6,16.9,9.9,242.0,68.0,4.4,7,5,7,1,2026-06-28T00:54:49.137807+05:30
Latur,Maharashtra,18.4088,76.5604,24.5,91,0.0,936.9,6.9,28.8,82,31.4,20.8,11.6,183.0,52.0,2.3,3,5,7,1,2026-06-28T00:54:49.137814+05:30
Nanded,Maharashtra,19.1383,77.3091,25.8,88,0.0,965.5,8.2,29.2,94,27.0,19.3,7.8,195.0,66.0,2.0,7,5,7,1,2026-06-28T00:54:49.137819+05:30
Gulbarga,Karnataka,17.3297,76.8343,24.8,94,0.0,956.3,8.6,40.0,52,13.6,10.5,12.5,177.0,47.0,3.0,3,5,7,1,2026-06-28T00:54:49.137824+05:30
Bidar,Karnataka,17.9104,77.5199,23.6,97,0.1,932.6,8.35,37.1,86,31.5,23.9,17.5,171.0,53.0,3.7,6,5,7,1,2026-06-28T00:54:49.137829+05:30
Hospet,Karnataka,15.2689,76.3909,24.2,87,0.0,954.0,7.85,46.4,28,4.8,4.1,7.9,159.0,36.0,1.5,3,5,7,1,2026-06-28T00:54:49.137834+05:30
Tirupur,Tamil Nadu,11.1085,77.3411,24.7,90,0.0,974.6,8.9,55.1,54,9.7,8.2,14.9,142.0,31.0,3.8,3,5,7,1,2026-06-28T00:54:49.137839+05:30
Alappuzha,Kerala,9.4981,76.3388,24.6,97,0.1,1009.6,8.5,44.6,49,11.3,6.2,7.1,88.0,40.0,1.9,6,0,4,1,2026-06-28T00:54:49.137844+05:30
Munnar,Kerala,10.0889,77.0595,16.6,99,0.0,856.2,7.95,41.0,27,3.5,3.1,7.9,104.0,32.0,1.6,3,10,7,1,2026-06-28T00:54:49.137850+05:30
Silchar,Assam,24.8333,92.7789,25.9,97,0.1,1002.4,8.5,32.4,72,18.6,16.5,7.2,204.0,64.0,3.3,10,5,4,1,2026-06-28T00:54:49.137855+05:30
Dibrugarh,Assam,27.4728,94.912,25.0,99,0.1,990.9,7.45,41.0,63,14.6,13.2,5.7,256.0,88.0,1.5,10,5,7,1,2026-06-28T00:54:49.137860+05:30
