city,state,latitude,longitude,temp,humidity,rain,pressure,uv_index,wind_gusts,aqi,pm10,pm2_5,mosquito_risk,arthritis_risk,migraine_risk,frizz_risk,updated_at
Delhi,Delhi,28.6139,77.209,27.3,35,0.0,984.6,7.25,31.3,355,555.1,89.6,4,5,7,0,2026-04-13T21:46:29.129886+05:30
Mumbai,Maharashtra,19.076,72.8777,28.4,86,0.0,1009.8,8.0,20.9,113,69.8,36.6,7,0,4,1,2026-04-13T21:46:29.129926+05:30
Bangalore,Karnataka,12.9716,77.5946,28.4,44,0.0,913.5,9.6,30.6,124,29.0,23.6,4,5,7,0,2026-04-13T21:46:29.129942+05:30
Hyderabad,Telangana,17.385,78.4867,32.5,41,0.0,953.7,9.25,32.0,114,63.6,52.3,0,5,7,1,2026-04-13T21:46:29.129952+05:30
Chennai,Tamil Nadu,13.0827,80.2707,28.5,80,0.0,1009.1,9.3,35.6,42,13.4,8.2,7,0,4,1,2026-04-13T21:46:29.129961+05:30
Kolkata,West Bengal,22.5726,88.3639,27.8,87,0.0,1006.9,8.85,28.1,74,29.5,23.2,7,5,4,1,2026-04-13T21:46:29.129969+05:30
Pune,Maharashtra,18.5204,73.8567,27.2,70,0.0,950.1,8.6,40.3,108,32.6,23.1,7,5,7,1,2026-04-13T21:46:29.129981+05:30
Ahmedabad,Gujarat,23.0225,72.5714,32.9,29,0.0,1002.3,8.1,29.5,108,79.4,53.0,0,5,4,0,2026-04-13T21:46:29.129989+05:30
Jaipur,Rajasthan,26.9124,75.7873,30.3,30,0.0,961.1,7.9,25.6,146,147.1,43.3,0,5,7,0,2026-04-13T21:46:29.129997+05:30
Lucknow,Uttar Pradesh,26.8467,80.9462,27.0,47,0.0,994.8,7.75,41.0,108,326.9,57.2,4,5,7,0,2026-04-13T21:46:29.130004+05:30
Kanpur,Uttar Pradesh,26.4499,80.3319,25.6,52,0.0,993.0,7.75,31.0,324,399.5,63.8,4,5,7,0,2026-04-13T21:46:29.130011+05:30
Chandigarh,Chandigarh,30.7333,76.7794,23.7,54,0.0,970.7,7.2,27.0,133,20.8,17.5,0,5,7,0,2026-04-13T21:46:29.130019+05:30
Srinagar,Jammu and Kashmir,34.0837,74.7973,11.8,73,0.0,841.0,8.1,15.1,104,54.9,44.6,3,5,7,0,2026-04-13T21:46:29.130026+05:30
Jammu,Jammu and Kashmir,32.7266,74.857,23.4,57,0.0,974.9,7.4,29.5,116,43.5,35.5,0,5,7,0,2026-04-13T21:46:29.130033+05:30
Amritsar,Punjab,31.634,74.8723,23.9,56,0.0,983.1,7.8,20.9,137,31.1,27.1,0,5,7,0,2026-04-13T21:46:29.130039+05:30
Ludhiana,Punjab,30.901,75.8573,25.5,45,0.0,981.1,7.45,24.8,123,25.7,23.3,4,5,7,0,2026-04-13T21:46:29.130046+05:30
Jalandhar,Punjab,31.326,75.5762,24.3,51,0.0,982.2,7.6,23.0,135,33.9,25.3,0,5,7,0,2026-04-13T21:46:29.130074+05:30
Dehradun,Uttarakhand,30.6284,78.0322,15.4,71,0.0,831.1,7.5,29.2,131,16.4,14.7,3,5,7,0,2026-04-13T21:46:29.130083+05:30
Shimla,Himachal Pradesh,31.1048,77.1734,13.4,69,0.0,785.6,7.7,35.6,117,20.4,13.0,3,5,7,0,2026-04-13T21:46:29.130090+05:30
Manali,Himachal Pradesh,32.2396,77.1887,15.1,73,0.0,821.4,9.8,31.0,146,17.2,10.7,3,5,7,0,2026-04-13T21:46:29.130097+05:30
Gurgaon,Haryana,28.4595,77.0266,24.8,42,0.0,982.9,7.35,25.9,1016,858.7,120.1,0,5,7,0,2026-04-13T21:46:29.130104+05:30
Noida,Uttar Pradesh,28.5355,77.391,27.0,36,0.0,986.0,7.3,31.7,1016,858.7,120.1,4,5,7,0,2026-04-13T21:46:29.130111+05:30
Ghaziabad,Uttar Pradesh,28.6692,77.4538,26.3,38,0.0,984.2,7.25,31.3,194,545.8,87.3,4,5,7,0,2026-04-13T21:46:29.130117+05:30
Faridabad,Haryana,28.4089,77.3178,27.1,32,0.0,985.3,7.3,29.2,1016,858.7,120.1,4,5,7,0,2026-04-13T21:46:29.130124+05:30
Meerut,Uttar Pradesh,28.9845,77.7064,24.2,45,0.0,982.8,7.15,33.1,194,545.8,87.3,0,5,7,0,2026-04-13T21:46:29.130132+05:30
Agra,Uttar Pradesh,27.1767,78.0081,26.8,47,0.0,989.2,7.65,24.8,826,458.2,84.3,4,5,7,0,2026-04-13T21:46:29.130139+05:30
Varanasi,Uttar Pradesh,25.3176,82.9739,26.7,39,0.0,998.7,8.35,35.3,116,55.9,26.8,4,5,7,0,2026-04-13T21:46:29.130151+05:30
Prayagraj,Uttar Pradesh,25.4358,81.8463,27.3,39,0.0,997.4,8.25,35.3,106,84.5,30.3,4,5,7,0,2026-04-13T21:46:29.130158+05:30
Gorakhpur,Uttar Pradesh,26.7606,83.3732,25.2,28,0.0,997.9,8.15,24.1,118,28.9,18.1,4,5,7,0,2026-04-13T21:46:29.130165+05:30
Bareilly,Uttar Pradesh,28.367,79.4304,24.2,48,0.0,987.8,7.5,36.0,133,67.8,27.6,0,5,7,0,2026-04-13T21:46:29.130172+05:30
Aligarh,Uttar Pradesh,27.8974,78.088,25.1,40,0.0,986.8,7.45,32.0,647,961.1,136.4,4,5,7,0,2026-04-13T21:46:29.130178+05:30
Moradabad,Uttar Pradesh,28.8386,78.7733,23.9,50,0.0,984.8,7.35,33.1,120,180.2,51.3,0,5,7,0,2026-04-13T21:46:29.130184+05:30
Saharanpur,Uttar Pradesh,29.9637,77.546,23.7,53,0.0,977.0,6.95,27.0,133,47.7,22.9,0,5,7,0,2026-04-13T21:46:29.130190+05:30
Jhansi,Uttar Pradesh,25.4484,78.5685,28.9,30,0.0,979.7,8.15,26.6,171,108.5,28.7,4,5,7,0,2026-04-13T21:46:32.485355+05:30
Surat,Gujarat,21.1702,72.8311,28.3,89,0.0,1007.4,7.75,26.6,126,51.5,35.6,7,5,4,1,2026-04-13T21:46:32.485386+05:30
Vadodara,Gujarat,22.3072,73.1812,30.5,58,0.0,1004.7,8.05,24.5,151,75.2,53.9,0,5,4,1,2026-04-13T21:46:32.485396+05:30
Rajkot,Gujarat,22.3039,70.8022,28.8,43,0.0,995.8,7.8,35.6,88,31.5,15.0,4,5,7,0,2026-04-13T21:46:32.485404+05:30
Thane,Maharashtra,19.2183,72.9781,27.8,86,0.0,1009.3,8.0,34.2,113,69.8,36.6,7,0,4,1,2026-04-13T21:46:32.485412+05:30
Nagpur,Maharashtra,21.1458,79.0882,32.9,40,0.0,972.8,8.85,25.2,173,47.0,31.0,0,5,7,1,2026-04-13T21:46:32.485419+05:30
Nashik,Maharashtra,19.9975,73.7898,27.4,66,0.0,947.3,8.25,35.3,87,35.2,24.1,7,5,7,1,2026-04-13T21:46:32.485427+05:30
Aurangabad,Maharashtra,19.8762,75.3433,31.9,33,0.0,945.1,8.95,34.6,77,32.7,22.8,0,5,7,0,2026-04-13T21:46:32.485434+05:30
Solapur,Maharashtra,17.6599,75.9064,33.9,28,0.0,956.9,9.05,30.2,126,46.4,36.8,0,5,7,0,2026-04-13T21:46:32.485442+05:30
Kolhapur,Maharashtra,16.705,74.2433,24.6,80,0.0,949.1,9.05,43.2,85,31.9,22.4,3,5,7,1,2026-04-13T21:46:32.485449+05:30
Goa,Goa,15.2993,74.124,28.3,79,0.0,999.5,9.05,29.9,89,60.5,28.1,7,5,7,1,2026-04-13T21:46:32.485456+05:30
Jodhpur,Rajasthan,26.2389,73.0243,30.4,31,0.0,983.3,8.15,26.6,103,166.2,34.6,0,5,7,0,2026-04-13T21:46:32.485462+05:30
Udaipur,Rajasthan,24.5854,73.7125,27.7,32,0.0,948.4,8.7,29.9,109,34.0,14.4,4,5,7,0,2026-04-13T21:46:32.485469+05:30
Kota,Rajasthan,25.2138,75.8648,30.1,40,0.0,979.8,8.15,17.3,132,86.6,27.5,0,5,7,0,2026-04-13T21:46:32.485476+05:30
Bikaner,Rajasthan,28.0229,73.3119,32.5,24,0.0,982.1,7.95,19.4,101,31.7,13.0,0,5,7,0,2026-04-13T21:46:32.485482+05:30
Ajmer,Rajasthan,26.4499,74.6399,27.2,33,0.0,955.9,8.1,29.9,98,61.9,25.7,4,5,7,0,2026-04-13T21:46:32.485489+05:30
Gwalior,Madhya Pradesh,26.2183,78.1828,28.0,45,0.0,984.9,7.9,31.7,293,107.3,33.4,4,5,7,0,2026-04-13T21:46:32.485496+05:30
Indore,Madhya Pradesh,22.7196,75.8577,26.8,43,0.0,949.5,8.55,32.0,131,53.7,35.9,4,5,7,0,2026-04-13T21:46:32.485502+05:30
Bhopal,Madhya Pradesh,23.2599,77.4126,31.2,36,0.0,954.8,8.5,25.2,118,65.2,30.5,0,5,7,0,2026-04-13T21:46:32.485508+05:30
Jabalpur,Madhya Pradesh,23.1815,79.9864,28.9,43,0.0,962.3,8.65,27.4,110,108.5,33.1,4,5,7,0,2026-04-13T21:46:32.485515+05:30
Ujjain,Madhya Pradesh,23.1765,75.7885,27.6,39,0.0,955.2,8.45,31.0,127,71.2,54.5,4,5,7,0,2026-04-13T21:46:32.485521+05:30
Visakhapatnam,Andhra Pradesh,17.6868,83.2185,28.3,84,0.0,1005.1,9.15,40.0,69,25.0,15.3,7,5,4,1,2026-04-13T21:46:32.485529+05:30
Vijayawada,Andhra Pradesh,16.5062,80.648,28.2,78,0.0,1003.7,9.2,27.7,61,20.0,14.2,7,5,4,1,2026-04-13T21:46:32.485536+05:30
Guntur,Andhra Pradesh,16.3067,80.4365,27.9,85,0.0,1005.1,9.25,32.0,64,22.4,16.4,7,5,4,1,2026-04-13T21:46:32.485542+05:30
Nellore,Andhra Pradesh,14.4426,79.9865,28.0,82,0.0,1007.2,9.3,35.6,61,14.8,10.2,7,5,4,1,2026-04-13T21:46:32.485549+05:30
Kurnool,Andhra Pradesh,15.8281,78.0373,34.7,39,0.0,976.5,9.2,26.6,125,60.3,45.9,0,5,7,1,2026-04-13T21:46:32.485556+05:30
Kakinada,Andhra Pradesh,16.9891,82.2475,28.1,83,0.0,1008.9,9.2,32.8,56,21.4,10.5,7,0,4,1,2026-04-13T21:46:32.485563+05:30
Tirupati,Andhra Pradesh,13.6288,79.4192,29.2,70,0.0,993.7,9.4,31.0,90,25.0,21.6,7,5,7,1,2026-04-13T21:46:32.485570+05:30
Warangal,Telangana,17.9689,79.5941,31.8,49,0.0,978.5,9.1,33.8,105,40.7,34.8,0,5,7,1,2026-04-13T21:46:32.485576+05:30
Nizamabad,Telangana,18.6725,78.0941,32.7,43,0.0,964.8,9.05,32.0,117,46.7,36.8,0,5,7,1,2026-04-13T21:46:32.485582+05:30
Mysore,Karnataka,12.2958,76.6396,26.6,73,0.0,930.2,9.5,45.4,112,44.8,35.7,7,5,7,1,2026-04-13T21:46:32.485588+05:30
Mangalore,Karnataka,12.9141,74.856,29.8,81,0.0,1008.0,9.15,24.8,97,47.5,31.9,7,0,4,1,2026-04-13T21:46:32.485594+05:30
Hubli-Dharwad,Karnataka,15.3647,75.124,25.7,79,0.0,941.9,9.25,35.6,126,30.9,26.1,7,5,7,1,2026-04-13T21:46:32.485601+05:30
Belgaum,Karnataka,15.8497,74.4977,24.1,82,0.0,926.6,9.3,40.0,86,36.7,23.1,3,5,7,1,2026-04-13T21:46:35.842211+05:30
Coimbatore,Tamil Nadu,11.0168,76.9558,27.2,77,0.0,963.6,9.45,35.3,99,46.8,37.4,7,5,7,1,2026-04-13T21:46:35.842245+05:30
Madurai,Tamil Nadu,9.9252,78.1198,29.4,75,0.0,995.3,9.35,36.7,77,19.7,17.9,7,5,7,1,2026-04-13T21:46:35.842258+05:30
Trichy,Tamil Nadu,10.7905,78.7047,29.4,73,0.0,1001.6,9.35,27.7,67,18.2,16.9,7,5,4,1,2026-04-13T21:46:35.842267+05:30
Salem,Tamil Nadu,11.6643,78.146,30.9,51,0.0,978.5,9.45,20.9,103,25.8,22.1,0,5,7,1,2026-04-13T21:46:35.842276+05:30
Tirunelveli,Tamil Nadu,8.7139,77.7567,29.2,73,0.0,1005.0,9.25,46.8,92,29.3,24.2,7,5,4,1,2026-04-13T21:46:35.842284+05:30
Vellore,Tamil Nadu,12.9165,79.1325,29.2,62,0.0,986.5,9.45,30.2,94,33.9,30.4,7,5,7,1,2026-04-13T21:46:35.842292+05:30
Erode,Tamil Nadu,11.341,77.7172,32.1,44,0.0,989.9,9.4,29.2,91,18.2,15.1,0,5,7,1,2026-04-13T21:46:35.842301+05:30
Kochi,Kerala,9.9312,76.2673,29.8,81,0.0,1010.2,9.1,32.8,93,47.7,40.2,7,0,4,1,2026-04-13T21:46:35.842309+05:30
Thiruvananthapuram,Kerala,8.5241,76.9366,29.1,81,0.0,1009.8,8.9,27.4,81,44.4,25.4,7,0,4,1,2026-04-13T21:46:35.842318+05:30
Kozhikode,Kerala,11.2588,75.7804,30.0,81,0.0,1009.1,9.15,32.0,93,47.8,26.0,7,0,4,1,2026-04-13T21:46:35.842325+05:30
Thrissur,Kerala,10.5276,76.2144,29.6,82,0.0,1008.4,9.1,39.6,91,44.4,32.2,7,0,4,1,2026-04-13T21:46:35.842334+05:30
Kannur,Kerala,11.8745,75.3704,29.6,80,0.0,1008.5,9.15,33.1,109,45.5,29.2,7,0,4,1,2026-04-13T21:46:35.842342+05:30
Patna,Bihar,25.5941,85.1376,27.8,40,0.0,1001.0,8.45,31.3,111,88.0,38.3,4,5,4,0,2026-04-13T21:46:35.842350+05:30
Gaya,Bihar,24.7914,85.0002,28.3,39,0.0,994.9,8.55,23.8,124,87.5,35.3,4,5,7,0,2026-04-13T21:46:35.842357+05:30
Muzaffarpur,Bihar,26.1209,85.3647,26.0,64,0.0,1001.2,8.45,22.3,106,108.0,58.6,7,5,4,1,2026-04-13T21:46:35.842364+05:30
Bhagalpur,Bihar,25.2425,87.0117,27.2,67,0.0,1001.9,8.5,14.4,136,128.1,59.0,7,5,4,1,2026-04-13T21:46:35.842370+05:30
Ranchi,Jharkhand,23.3441,85.3096,26.3,39,0.0,939.4,9.1,20.5,124,94.1,30.3,4,5,7,0,2026-04-13T21:46:35.842376+05:30
Jamshedpur,Jharkhand,22.8046,86.2029,29.3,61,0.0,991.0,8.95,16.9,180,80.8,58.7,7,5,7,1,2026-04-13T21:46:35.842382+05:30
Dhanbad,Jharkhand,23.7957,86.4304,28.9,42,0.0,980.4,8.9,21.2,157,156.9,104.5,4,5,7,0,2026-04-13T21:46:35.842388+05:30
Bokaro,Jharkhand,23.6693,86.1511,28.7,47,0.0,984.9,8.9,21.2,154,142.5,84.3,4,5,7,1,2026-04-13T21:46:35.842394+05:30
Bhubaneswar,Odisha,20.2961,85.8245,27.5,87,0.0,1003.9,9.05,32.0,64,23.5,16.8,7,5,4,1,2026-04-13T21:46:35.842400+05:30
Cuttack,Odisha,20.4625,85.8828,27.7,85,0.0,1005.6,9.1,29.2,64,23.5,16.8,7,5,4,1,2026-04-13T21:46:35.842406+05:30
Rourkela,Odisha,22.2604,84.8536,29.0,67,0.0,985.0,8.85,24.8,201,61.9,51.7,7,5,7,1,2026-04-13T21:46:35.842412+05:30
Raipur,Chhattisgarh,21.2514,81.6296,31.8,32,0.0,974.1,8.9,34.2,156,81.5,70.1,0,5,7,0,2026-04-13T21:46:35.842418+05:30
Bhilai,Chhattisgarh,21.1938,81.3509,30.1,40,0.0,974.3,8.9,32.8,135,47.0,37.7,0,5,7,0,2026-04-13T21:46:35.842424+05:30
Guwahati,Assam,26.1158,91.7086,24.3,82,0.0,1004.2,8.4,39.6,148,61.5,48.0,3,5,4,1,2026-04-13T21:46:35.842430+05:30
Agartala,Tripura,23.8315,91.2868,25.1,88,0.0,1007.7,8.65,24.8,85,42.1,35.3,7,5,4,1,2026-04-13T21:46:35.842437+05:30
Shillong,Meghalaya,25.5788,91.8933,14.4,92,0.0,857.5,8.8,75.2,111,39.0,28.7,3,10,7,0,2026-04-13T21:46:35.842443+05:30
Imphal,Manipur,24.817,93.9368,19.0,82,0.0,925.5,9.0,66.6,122,69.8,48.8,3,10,7,0,2026-04-13T21:46:35.842450+05:30
Aizawl,Mizoram,23.7271,92.7176,19.9,76,0.0,894.3,8.9,46.8,106,65.0,38.2,3,5,7,0,2026-04-13T21:46:35.842456+05:30
Kohima,Nagaland,25.6701,94.1077,16.3,71,0.0,856.9,8.95,106.6,97,63.1,34.2,3,5,7,0,2026-04-13T21:46:35.842463+05:30
Gangtok,Sikkim,27.3314,88.6138,14.7,83,0.0,838.7,8.65,15.1,124,88.5,47.6,3,10,7,0,2026-04-13T21:46:35.842470+05:30
Siliguri,West Bengal,26.7271,88.3953,21.3,72,0.0,996.2,8.35,26.3,151,114.1,63.1,3,5,7,0,2026-04-13T21:46:39.201023+05:30
Durgapur,West Bengal,23.5204,87.3119,29.7,66,0.0,995.5,8.8,19.4,207,95.9,83.4,7,5,7,1,2026-04-13T21:46:39.201099+05:30
Asansol,West Bengal,23.6739,86.9524,30.7,53,0.0,994.0,8.85,16.6,153,113.2,76.6,0,5,7,1,2026-04-13T21:46:39.201116+05:30
Pondicherry,Puducherry,11.9139,79.8145,26.8,90,0.0,1010.4,9.25,31.7,34,10.7,6.4,7,0,4,1,2026-04-13T21:46:39.201124+05:30
Port Blair,Andaman and Nicobar Islands,11.6234,92.7265,29.2,77,0.0,1009.0,9.2,12.2,62,28.3,16.6,7,0,4,1,2026-04-13T21:46:39.201132+05:30
Haridwar,Uttarakhand,29.9457,78.1642,22.8,62,0.0,975.6,7.05,26.6,135,39.5,22.5,3,5,7,0,2026-04-13T21:46:39.201140+05:30
Rishikesh,Uttarakhand,30.0869,78.2676,21.2,68,0.0,968.6,7.05,29.2,142,18.3,14.5,3,5,7,0,2026-04-13T21:46:39.201147+05:30
Nainital,Uttarakhand,29.3919,79.4542,19.3,31,0.0,807.7,7.9,34.6,141,30.5,15.7,0,5,7,0,2026-04-13T21:46:39.201154+05:30
Mussoorie,Uttarakhand,30.4599,78.0664,16.4,57,0.0,803.8,7.5,33.1,143,24.5,21.9,0,5,7,0,2026-04-13T21:46:39.201161+05:30
Dharamshala,Himachal Pradesh,32.219,76.3234,19.6,59,0.0,871.1,7.75,21.2,115,25.3,15.7,0,5,7,0,2026-04-13T21:46:39.201169+05:30
Dalhousie,Himachal Pradesh,32.5387,75.971,16.6,59,0.0,805.2,7.45,21.2,124,38.6,29.0,0,5,7,0,2026-04-13T21:46:39.201176+05:30
Patiala,Punjab,30.3398,76.3869,24.8,45,0.0,980.2,7.1,26.3,284,360.4,53.6,0,5,7,0,2026-04-13T21:46:39.201183+05:30
Bhatinda,Punjab,30.211,74.9455,26.9,36,0.0,985.5,7.75,23.4,123,27.2,18.3,4,5,7,0,2026-04-13T21:46:39.201190+05:30
Rohtak,Haryana,28.8955,76.6066,25.5,37,0.0,983.3,7.25,30.6,535,467.5,76.8,4,5,7,0,2026-04-13T21:46:39.201197+05:30
Panipat,Haryana,29.3909,76.9635,24.1,41,0.0,982.0,7.1,30.6,996,720.8,107.1,0,5,7,0,2026-04-13T21:46:39.201203+05:30
Mathura,Uttar Pradesh,27.4924,77.6737,27.7,36,0.0,988.2,7.6,25.9,755,1020.7,124.3,4,5,7,0,2026-04-13T21:46:39.201209+05:30
Vrindavan,Uttar Pradesh,27.5823,77.7027,26.1,42,0.0,988.5,7.55,27.7,755,1020.7,124.3,4,5,7,0,2026-04-13T21:46:39.201215+05:30
Ayodhya,Uttar Pradesh,26.7922,82.1998,26.5,36,0.0,996.4,7.95,36.0,110,138.8,29.7,4,5,7,0,2026-04-13T21:46:39.201221+05:30
Ratlam,Madhya Pradesh,23.3315,75.0367,28.0,47,0.0,955.9,8.35,30.2,110,43.5,34.2,4,5,7,0,2026-04-13T21:46:39.201228+05:30
Sagar,Madhya Pradesh,23.8388,78.7378,29.7,40,0.0,951.4,8.5,25.6,109,128.1,28.3,4,5,7,0,2026-04-13T21:46:39.201234+05:30
Satna,Madhya Pradesh,24.6005,80.8322,29.0,38,0.0,972.9,8.55,25.2,130,105.5,23.7,4,5,7,0,2026-04-13T21:46:39.201241+05:30
Akola,Maharashtra,20.7002,77.0082,30.6,45,0.0,975.1,8.75,31.7,116,26.2,19.7,0,5,7,1,2026-04-13T21:46:39.201248+05:30
Amravati,Maharashtra,20.9374,77.7796,29.0,45,0.0,967.1,8.8,24.5,127,27.8,19.9,4,5,7,0,2026-04-13T21:46:39.201255+05:30
Latur,Maharashtra,18.4088,76.5604,30.5,49,0.0,940.6,9.05,33.1,146,36.6,29.2,0,5,7,1,2026-04-13T21:46:39.201261+05:30
Nanded,Maharashtra,19.1383,77.3091,30.3,53,0.0,968.2,8.9,18.0,123,40.9,31.5,0,5,7,1,2026-04-13T21:46:39.201268+05:30
Gulbarga,Karnataka,17.3297,76.8343,34.4,42,0.0,958.8,9.1,18.0,157,51.0,42.4,0,5,7,1,2026-04-13T21:46:39.201275+05:30
Bidar,Karnataka,17.9104,77.5199,31.7,42,0.0,936.2,9.15,27.7,151,59.8,49.8,0,5,7,1,2026-04-13T21:46:39.201281+05:30
Hospet,Karnataka,15.2689,76.3909,33.3,47,0.0,956.3,9.3,35.6,142,63.1,50.6,0,5,7,1,2026-04-13T21:46:39.201287+05:30
Tirupur,Tamil Nadu,11.1085,77.3411,30.3,63,0.0,976.9,9.45,29.5,108,33.2,26.4,3,5,7,1,2026-04-13T21:46:39.201294+05:30
Alappuzha,Kerala,9.4981,76.3388,29.3,81,0.0,1010.6,9.05,28.1,90,47.1,32.6,7,0,4,1,2026-04-13T21:46:39.201301+05:30
Munnar,Kerala,10.0889,77.0595,22.6,93,0.0,858.9,9.7,32.4,85,40.4,34.3,3,5,7,1,2026-04-13T21:46:39.201308+05:30
Silchar,Assam,24.8333,92.7789,24.6,81,0.0,1007.0,8.65,37.4,147,59.5,43.9,3,5,4,1,2026-04-13T21:46:39.201315+05:30
Dibrugarh,Assam,27.4728,94.912,21.7,83,0.0,999.6,7.15,24.5,119,56.1,37.5,3,5,7,1,2026-04-13T21:46:39.201322+05:30
