city,state,latitude,longitude,temp,humidity,rain,pressure,uv_index,wind_gusts,aqi,pm10,pm2_5,no2,co,o3,so2,mosquito_risk,arthritis_risk,migraine_risk,frizz_risk,updated_at
Delhi,Delhi,28.6139,77.209,34.9,42,0.0,976.3,7.55,30.2,165,256.1,66.1,9.7,344.0,143.0,13.9,0,5,7,1,2026-06-05T18:11:46.991627+05:30
Mumbai,Maharashtra,19.076,72.8777,31.8,68,0.0,1003.1,7.55,42.5,70,42.4,20.3,7.3,182.0,66.0,5.4,3,5,4,1,2026-06-05T18:11:46.991662+05:30
Bangalore,Karnataka,12.9716,77.5946,24.4,75,0.0,908.9,8.9,51.8,32,6.9,5.4,13.0,490.0,58.0,3.0,3,5,7,1,2026-06-05T18:11:46.991677+05:30
Hyderabad,Telangana,17.385,78.4867,32.3,45,0.0,948.0,7.65,37.8,68,46.4,27.9,7.3,347.0,114.0,4.5,0,5,7,1,2026-06-05T18:11:46.991686+05:30
Chennai,Tamil Nadu,13.0827,80.2707,33.0,55,0.1,1001.8,8.55,48.6,78,24.8,18.3,6.8,391.0,127.0,6.5,3,5,4,1,2026-06-05T18:11:46.991716+05:30
Kolkata,West Bengal,22.5726,88.3639,32.0,74,0.0,997.7,8.65,32.8,131,50.2,45.9,10.5,687.0,131.0,13.1,3,5,7,1,2026-06-05T18:11:46.991725+05:30
Pune,Maharashtra,18.5204,73.8567,28.5,69,0.1,943.7,8.25,50.4,46,20.1,10.7,4.0,158.0,89.0,3.7,10,5,7,1,2026-06-05T18:11:46.991732+05:30
Ahmedabad,Gujarat,23.0225,72.5714,38.5,39,0.0,993.7,8.1,39.2,80,79.9,30.6,2.7,156.0,90.0,2.9,0,5,10,1,2026-06-05T18:11:46.991740+05:30
Jaipur,Rajasthan,26.9124,75.7873,35.5,34,0.0,953.4,8.2,34.9,98,149.5,42.5,1.9,162.0,105.0,3.1,0,5,10,1,2026-06-05T18:11:46.991751+05:30
Lucknow,Uttar Pradesh,26.8467,80.9462,36.0,38,0.0,985.1,8.35,31.0,156,139.7,58.3,4.9,289.0,169.0,9.9,0,5,10,1,2026-06-05T18:11:46.991758+05:30
Kanpur,Uttar Pradesh,26.4499,80.3319,32.0,44,0.0,984.0,8.35,27.0,155,320.4,80.1,4.3,199.0,156.0,8.9,0,5,7,1,2026-06-05T18:11:46.991765+05:30
Chandigarh,Chandigarh,30.7333,76.7794,32.9,42,0.0,962.9,7.7,25.2,173,112.9,39.6,4.5,465.0,172.0,10.9,0,5,7,1,2026-06-05T18:11:46.991772+05:30
Srinagar,Jammu and Kashmir,34.0837,74.7973,18.3,73,0.0,840.6,9.0,31.3,83,17.6,13.0,5.3,337.0,119.0,2.3,3,5,7,0,2026-06-05T18:11:46.991778+05:30
Jammu,Jammu and Kashmir,32.7266,74.857,33.8,33,0.0,966.8,8.55,30.2,130,53.1,25.7,3.1,273.0,147.0,3.3,0,5,7,0,2026-06-05T18:11:46.991785+05:30
Amritsar,Punjab,31.634,74.8723,35.0,33,0.0,974.4,8.45,28.1,152,59.5,33.1,2.9,310.0,166.0,5.2,0,5,7,1,2026-06-05T18:11:46.991791+05:30
Ludhiana,Punjab,30.901,75.8573,34.9,29,0.0,972.2,8.0,37.8,166,85.2,36.9,3.2,341.0,163.0,6.4,0,5,7,0,2026-06-05T18:11:46.991797+05:30
Jalandhar,Punjab,31.326,75.5762,35.1,28,0.0,973.2,8.2,27.7,166,70.3,33.6,2.9,375.0,163.0,5.2,0,5,10,0,2026-06-05T18:11:46.991803+05:30
Dehradun,Uttarakhand,30.6284,78.0322,21.7,55,0.0,827.9,4.45,25.6,115,57.3,27.6,3.3,203.0,152.0,3.0,0,5,3,0,2026-06-05T18:11:46.991810+05:30
Shimla,Himachal Pradesh,31.1048,77.1734,17.3,61,0.0,782.6,6.55,32.4,149,85.2,35.7,2.5,243.0,177.0,8.6,3,5,7,0,2026-06-05T18:11:46.991820+05:30
Manali,Himachal Pradesh,32.2396,77.1887,19.9,72,0.6,816.8,7.45,39.6,117,10.9,7.2,9.6,157.0,147.0,0.5,6,5,7,0,2026-06-05T18:11:46.991827+05:30
Gurgaon,Haryana,28.4595,77.0266,33.9,41,0.0,975.0,7.8,29.9,691,183.9,54.7,9.8,260.0,162.0,15.0,0,5,7,1,2026-06-05T18:11:46.991833+05:30
Noida,Uttar Pradesh,28.5355,77.391,33.3,51,0.0,977.7,7.35,23.0,691,183.9,54.7,9.8,493.0,162.0,15.0,0,5,7,1,2026-06-05T18:11:46.991840+05:30
Ghaziabad,Uttar Pradesh,28.6692,77.4538,32.1,57,0.0,976.2,6.9,25.2,161,266.4,75.0,6.2,359.0,163.0,16.7,0,5,7,1,2026-06-05T18:11:46.991852+05:30
Faridabad,Haryana,28.4089,77.3178,34.8,43,0.0,977.0,7.0,27.7,691,183.9,54.7,9.8,282.0,162.0,15.0,0,5,7,1,2026-06-05T18:11:46.991858+05:30
Meerut,Uttar Pradesh,28.9845,77.7064,31.3,59,0.0,975.1,7.3,31.7,161,266.4,75.0,6.2,277.0,163.0,16.7,0,5,7,1,2026-06-05T18:11:46.991864+05:30
Agra,Uttar Pradesh,27.1767,78.0081,33.6,44,0.0,981.0,7.75,31.3,145,346.5,61.7,4.0,166.0,134.0,6.1,0,5,7,1,2026-06-05T18:11:46.991870+05:30
Varanasi,Uttar Pradesh,25.3176,82.9739,38.0,32,0.0,988.3,8.8,24.8,146,72.2,36.4,5.5,310.0,146.0,7.3,0,5,10,1,2026-06-05T18:11:46.991877+05:30
Prayagraj,Uttar Pradesh,25.4358,81.8463,37.9,31,0.0,986.8,8.35,31.3,165,96.9,46.9,5.8,222.0,150.0,9.0,0,5,10,1,2026-06-05T18:11:46.991883+05:30
Gorakhpur,Uttar Pradesh,26.7606,83.3732,34.6,44,0.0,988.3,8.7,23.8,168,91.5,53.9,8.3,314.0,147.0,8.3,0,5,7,1,2026-06-05T18:11:46.991891+05:30
Bareilly,Uttar Pradesh,28.367,79.4304,31.8,59,0.0,979.5,4.7,34.6,135,61.0,38.9,3.7,303.0,156.0,5.0,0,5,3,1,2026-06-05T18:11:46.991898+05:30
Aligarh,Uttar Pradesh,27.8974,78.088,32.7,50,0.0,978.6,7.4,25.9,275,403.3,98.0,5.2,195.0,183.0,19.8,0,5,7,1,2026-06-05T18:11:46.991904+05:30
Moradabad,Uttar Pradesh,28.8386,78.7733,31.9,50,0.0,976.8,5.65,34.6,166,78.0,48.8,7.5,296.0,199.0,20.1,0,5,3,1,2026-06-05T18:11:46.991910+05:30
Saharanpur,Uttar Pradesh,29.9637,77.546,30.5,57,0.0,969.6,6.95,35.6,155,230.5,62.6,5.2,295.0,163.0,12.2,0,5,7,1,2026-06-05T18:11:46.991916+05:30
Jhansi,Uttar Pradesh,25.4484,78.5685,34.0,39,0.0,970.9,8.5,34.6,70,69.6,24.2,2.1,143.0,100.0,4.7,0,5,7,1,2026-06-05T18:11:50.249388+05:30
Surat,Gujarat,21.1702,72.8311,32.2,69,0.0,1000.2,7.55,49.0,89,48.4,27.1,13.6,213.0,44.0,33.7,3,5,4,1,2026-06-05T18:11:50.249414+05:30
Vadodara,Gujarat,22.3072,73.1812,36.1,46,0.0,996.6,8.0,42.5,83,62.9,29.4,3.0,151.0,94.0,4.2,0,5,10,1,2026-06-05T18:11:50.249424+05:30
Rajkot,Gujarat,22.3039,70.8022,38.0,42,0.0,986.7,7.55,42.1,80,73.1,27.8,1.6,111.0,87.0,3.7,0,5,10,1,2026-06-05T18:11:50.249432+05:30
Thane,Maharashtra,19.2183,72.9781,33.1,60,0.0,1002.2,7.35,41.8,70,42.4,20.3,7.3,163.0,66.0,5.4,0,5,4,1,2026-06-05T18:11:50.249440+05:30
Nagpur,Maharashtra,21.1458,79.0882,35.6,35,0.0,965.8,8.9,43.6,88,65.2,30.3,6.0,165.0,110.0,13.9,0,5,10,1,2026-06-05T18:11:50.249447+05:30
Nashik,Maharashtra,19.9975,73.7898,31.1,54,0.0,940.6,8.0,45.4,59,33.8,16.5,1.6,126.0,74.0,1.0,0,5,7,1,2026-06-05T18:11:50.249453+05:30
Aurangabad,Maharashtra,19.8762,75.3433,35.9,27,0.0,938.2,8.95,39.2,70,41.9,20.0,1.7,145.0,121.0,4.2,0,5,10,0,2026-06-05T18:11:50.249461+05:30
Solapur,Maharashtra,17.6599,75.9064,34.5,42,0.0,951.3,8.95,32.0,54,41.6,19.6,2.1,147.0,121.0,3.2,0,5,7,1,2026-06-05T18:11:50.249468+05:30
Kolhapur,Maharashtra,16.705,74.2433,26.6,80,0.1,944.2,8.3,50.8,40,10.5,6.7,4.5,162.0,76.0,1.5,10,5,7,1,2026-06-05T18:11:50.249475+05:30
Goa,Goa,15.2993,74.124,26.1,87,0.0,994.8,7.15,28.1,29,7.1,4.0,1.7,183.0,57.0,0.6,7,5,7,1,2026-06-05T18:11:50.249482+05:30
Jodhpur,Rajasthan,26.2389,73.0243,38.1,29,0.0,975.4,8.45,38.2,150,249.6,51.8,1.3,126.0,93.0,1.8,0,5,10,1,2026-06-05T18:11:50.249489+05:30
Udaipur,Rajasthan,24.5854,73.7125,33.4,42,0.0,940.7,8.85,41.0,79,69.6,28.7,1.0,131.0,93.0,2.9,0,5,7,1,2026-06-05T18:11:50.249496+05:30
Kota,Rajasthan,25.2138,75.8648,35.9,32,0.0,971.6,8.2,33.8,91,86.1,31.1,1.5,180.0,116.0,3.8,0,5,10,1,2026-06-05T18:11:50.249503+05:30
Bikaner,Rajasthan,28.0229,73.3119,38.6,30,0.0,973.7,8.45,42.8,153,163.4,48.4,0.6,130.0,100.0,3.0,0,5,10,1,2026-06-05T18:11:50.249509+05:30
Ajmer,Rajasthan,26.4499,74.6399,33.7,43,0.0,948.5,8.35,47.9,85,115.5,36.4,1.2,136.0,97.0,2.2,0,5,7,1,2026-06-05T18:11:50.249515+05:30
Gwalior,Madhya Pradesh,26.2183,78.1828,31.9,48,0.0,976.7,8.35,44.6,78,67.3,23.5,1.2,138.0,108.0,1.9,0,5,7,1,2026-06-05T18:11:50.249521+05:30
Indore,Madhya Pradesh,22.7196,75.8577,33.5,40,0.0,942.0,8.65,45.7,94,66.4,28.5,1.9,183.0,99.0,3.3,0,5,7,1,2026-06-05T18:11:50.249527+05:30
Bhopal,Madhya Pradesh,23.2599,77.4126,34.1,41,0.1,947.1,8.7,43.9,91,90.6,40.0,2.4,181.0,94.0,3.1,3,5,7,1,2026-06-05T18:11:50.249534+05:30
Jabalpur,Madhya Pradesh,23.1815,79.9864,31.5,52,0.0,954.4,8.9,33.5,87,74.7,24.2,1.4,170.0,101.0,1.7,0,5,7,1,2026-06-05T18:11:50.249540+05:30
Ujjain,Madhya Pradesh,23.1765,75.7885,32.0,44,0.0,947.4,8.6,45.0,90,61.0,27.9,1.0,146.0,98.0,3.2,0,5,7,1,2026-06-05T18:11:50.249547+05:30
Visakhapatnam,Andhra Pradesh,17.6868,83.2185,35.6,51,0.0,995.7,8.7,42.1,140,36.4,31.4,20.3,372.0,132.0,41.5,0,5,10,1,2026-06-05T18:11:50.249553+05:30
Vijayawada,Andhra Pradesh,16.5062,80.648,33.9,51,0.0,995.6,8.95,55.1,72,16.1,12.7,4.4,220.0,113.0,4.2,0,5,7,1,2026-06-05T18:11:50.249559+05:30
Guntur,Andhra Pradesh,16.3067,80.4365,33.7,52,0.0,996.7,9.0,51.8,59,15.4,10.9,2.5,210.0,116.0,3.2,0,5,7,1,2026-06-05T18:11:50.249566+05:30
Nellore,Andhra Pradesh,14.4426,79.9865,32.6,54,0.0,1000.1,8.55,42.8,49,17.2,13.0,5.7,159.0,104.0,4.4,0,5,4,1,2026-06-05T18:11:50.249573+05:30
Kurnool,Andhra Pradesh,15.8281,78.0373,30.3,63,0.0,971.9,9.0,41.0,43,15.3,10.2,1.9,151.0,113.0,5.0,3,5,7,1,2026-06-05T18:11:50.249579+05:30
Kakinada,Andhra Pradesh,16.9891,82.2475,34.5,56,0.0,999.6,9.05,46.4,122,26.8,22.2,3.3,273.0,140.0,4.3,0,5,7,1,2026-06-05T18:11:50.249586+05:30
Tirupati,Andhra Pradesh,13.6288,79.4192,31.0,54,0.0,986.1,8.5,42.8,53,13.9,9.3,9.4,186.0,58.0,1.3,0,5,7,1,2026-06-05T18:11:50.249592+05:30
Warangal,Telangana,17.9689,79.5941,34.8,44,0.0,972.0,7.6,31.3,84,69.6,36.7,2.7,208.0,129.0,6.3,0,5,7,1,2026-06-05T18:11:50.249598+05:30
Nizamabad,Telangana,18.6725,78.0941,33.9,43,0.0,958.9,8.7,34.9,86,65.0,31.7,1.8,172.0,119.0,3.8,0,5,7,1,2026-06-05T18:11:50.249604+05:30
Mysore,Karnataka,12.2958,76.6396,23.5,84,0.0,926.3,8.3,59.4,30,2.5,2.1,4.3,129.0,56.0,1.2,3,5,7,1,2026-06-05T18:11:50.249610+05:30
Mangalore,Karnataka,12.9141,74.856,25.5,96,0.0,1004.8,2.1,33.5,27,8.4,5.2,4.7,153.0,46.0,1.3,7,5,0,1,2026-06-05T18:11:50.249616+05:30
Hubli-Dharwad,Karnataka,15.3647,75.124,26.0,75,0.0,937.5,8.4,50.0,32,2.9,2.1,3.9,137.0,58.0,0.6,7,5,7,1,2026-06-05T18:11:50.249622+05:30
Belgaum,Karnataka,15.8497,74.4977,23.2,87,0.0,922.3,8.85,38.2,34,5.8,4.1,3.5,151.0,67.0,1.6,3,5,7,1,2026-06-05T18:11:53.495858+05:30
Coimbatore,Tamil Nadu,11.0168,76.9558,25.3,81,0.0,959.0,6.45,61.2,25,2.4,2.0,4.0,171.0,46.0,1.4,7,5,7,1,2026-06-05T18:11:53.495890+05:30
Madurai,Tamil Nadu,9.9252,78.1198,31.8,46,0.0,989.6,8.25,62.6,36,5.6,3.3,3.6,135.0,61.0,1.4,0,5,7,1,2026-06-05T18:11:53.495902+05:30
Trichy,Tamil Nadu,10.7905,78.7047,33.4,46,0.0,995.7,8.35,55.8,35,6.4,4.1,4.0,132.0,62.0,1.7,0,5,7,1,2026-06-05T18:11:53.495911+05:30
Salem,Tamil Nadu,11.6643,78.146,30.8,61,0.0,973.9,7.85,39.2,40,6.8,5.6,9.2,209.0,67.0,3.8,3,5,7,1,2026-06-05T18:11:53.495920+05:30
Tirunelveli,Tamil Nadu,8.7139,77.7567,32.3,52,0.0,1000.8,8.5,45.4,23,4.1,3.4,6.1,114.0,40.0,1.0,0,5,4,1,2026-06-05T18:11:53.495929+05:30
Vellore,Tamil Nadu,12.9165,79.1325,31.3,53,0.0,979.6,8.5,69.1,40,6.2,5.5,7.2,181.0,65.0,1.9,0,5,7,1,2026-06-05T18:11:53.495937+05:30
Erode,Tamil Nadu,11.341,77.7172,30.6,54,0.0,985.7,8.6,54.7,32,4.4,3.4,4.9,189.0,57.0,1.6,0,5,7,1,2026-06-05T18:11:53.495945+05:30
Kochi,Kerala,9.9312,76.2673,27.5,86,0.1,1007.6,3.6,35.3,38,14.9,10.6,13.9,169.0,27.0,2.7,10,5,0,1,2026-06-05T18:11:53.495953+05:30
Thiruvananthapuram,Kerala,8.5241,76.9366,26.0,90,0.0,1007.4,4.7,58.7,25,14.4,7.2,2.0,129.0,48.0,0.5,7,5,0,1,2026-06-05T18:11:53.495962+05:30
Kozhikode,Kerala,11.2588,75.7804,25.1,99,0.2,1006.8,8.45,24.5,24,10.0,4.6,1.2,150.0,52.0,0.4,10,5,4,1,2026-06-05T18:11:53.495970+05:30
Thrissur,Kerala,10.5276,76.2144,25.6,100,0.0,1006.0,7.35,32.4,34,10.7,7.4,7.3,186.0,36.0,1.6,7,5,4,1,2026-06-05T18:11:53.495979+05:30
Kannur,Kerala,11.8745,75.3704,25.5,99,0.3,1005.7,5.7,41.0,26,9.7,5.3,5.0,139.0,45.0,0.8,10,5,0,1,2026-06-05T18:11:53.495987+05:30
Patna,Bihar,25.5941,85.1376,34.7,60,0.0,991.5,8.9,37.4,195,109.0,80.8,14.9,325.0,151.0,9.6,0,5,7,1,2026-06-05T18:11:53.495995+05:30
Gaya,Bihar,24.7914,85.0002,34.9,51,0.0,985.2,8.95,59.0,163,72.6,55.1,9.3,302.0,130.0,8.0,0,5,7,1,2026-06-05T18:11:53.496002+05:30
Muzaffarpur,Bihar,26.1209,85.3647,34.1,63,0.0,991.7,8.85,28.4,202,120.6,91.7,15.8,372.0,158.0,12.0,3,5,7,1,2026-06-05T18:11:53.496011+05:30
Bhagalpur,Bihar,25.2425,87.0117,34.0,65,0.0,992.7,8.85,36.4,213,96.2,79.9,8.7,408.0,197.0,21.5,3,5,7,1,2026-06-05T18:11:53.496019+05:30
Ranchi,Jharkhand,23.3441,85.3096,24.8,85,0.0,931.3,9.2,35.3,124,47.3,35.2,5.3,261.0,134.0,6.4,3,5,7,1,2026-06-05T18:11:53.496027+05:30
Jamshedpur,Jharkhand,22.8046,86.2029,28.4,83,0.0,983.4,8.95,34.2,188,62.2,50.4,8.8,311.0,159.0,16.7,7,5,7,1,2026-06-05T18:11:53.496035+05:30
Dhanbad,Jharkhand,23.7957,86.4304,32.2,63,0.1,972.6,9.05,38.9,187,80.1,65.7,30.8,489.0,142.0,76.4,6,5,7,1,2026-06-05T18:11:53.496044+05:30
Bokaro,Jharkhand,23.6693,86.1511,30.8,75,0.1,976.3,9.1,30.6,162,64.7,49.9,23.1,265.0,147.0,70.7,6,5,7,1,2026-06-05T18:11:53.496051+05:30
Bhubaneswar,Odisha,20.2961,85.8245,33.0,66,0.0,994.3,9.05,27.0,166,50.8,44.2,14.5,545.0,146.0,10.6,3,5,7,1,2026-06-05T18:11:53.496059+05:30
Cuttack,Odisha,20.4625,85.8828,33.2,72,0.0,996.1,9.1,30.2,166,50.8,44.2,14.5,434.0,146.0,10.6,3,5,7,1,2026-06-05T18:11:53.496067+05:30
Rourkela,Odisha,22.2604,84.8536,33.6,64,0.6,977.4,9.0,29.2,172,70.3,49.8,6.6,351.0,172.0,12.4,6,5,7,1,2026-06-05T18:11:53.496075+05:30
Raipur,Chhattisgarh,21.2514,81.6296,37.8,26,0.0,967.0,9.0,35.3,114,52.0,32.7,9.8,191.0,135.0,27.9,0,5,10,0,2026-06-05T18:11:53.496083+05:30
Bhilai,Chhattisgarh,21.1938,81.3509,36.4,30,0.0,967.5,9.0,34.9,104,51.0,29.8,9.8,450.0,116.0,22.8,0,5,10,0,2026-06-05T18:11:53.496091+05:30
Guwahati,Assam,26.1158,91.7086,27.8,90,0.0,994.8,8.8,28.1,113,35.2,31.7,4.3,448.0,125.0,3.1,7,5,7,1,2026-06-05T18:11:53.496098+05:30
Agartala,Tripura,23.8315,91.2868,30.0,81,0.0,998.6,8.9,36.0,112,34.2,28.8,15.4,324.0,111.0,3.8,7,5,7,1,2026-06-05T18:11:53.496105+05:30
Shillong,Meghalaya,25.5788,91.8933,20.8,92,0.0,853.0,8.45,23.4,103,22.7,20.4,4.7,319.0,120.0,2.6,3,5,7,1,2026-06-05T18:11:53.496111+05:30
Imphal,Manipur,24.817,93.9368,27.3,69,0.0,917.6,8.75,27.4,120,40.7,34.9,5.9,332.0,105.0,3.0,7,5,7,1,2026-06-05T18:11:53.496117+05:30
Aizawl,Mizoram,23.7271,92.7176,23.6,81,0.0,887.6,9.1,26.3,104,47.3,38.8,5.9,233.0,89.0,3.2,3,5,7,1,2026-06-05T18:11:53.496123+05:30
Kohima,Nagaland,25.6701,94.1077,20.7,94,0.0,851.3,8.95,28.8,86,23.6,21.0,4.3,303.0,109.0,1.9,3,5,7,1,2026-06-05T18:11:53.496130+05:30
Gangtok,Sikkim,27.3314,88.6138,18.6,94,0.1,833.2,9.2,37.1,112,19.4,16.8,5.4,318.0,135.0,3.5,6,10,7,1,2026-06-05T18:11:53.496136+05:30
Siliguri,West Bengal,26.7271,88.3953,26.5,92,0.1,986.1,8.8,23.4,143,66.4,58.3,10.0,663.0,138.0,6.7,10,5,7,1,2026-06-05T18:11:56.735366+05:30
Durgapur,West Bengal,23.5204,87.3119,32.0,73,0.1,987.1,8.95,32.4,210,85.9,79.9,21.4,552.0,186.0,46.7,6,5,7,1,2026-06-05T18:11:56.735390+05:30
Asansol,West Bengal,23.6739,86.9524,31.7,71,0.2,985.8,9.0,32.0,210,89.9,79.9,27.7,429.0,170.0,46.3,6,5,7,1,2026-06-05T18:11:56.735401+05:30
Pondicherry,Puducherry,11.9139,79.8145,34.2,51,0.0,1003.1,8.4,49.3,73,20.6,15.9,8.3,273.0,114.0,7.6,0,5,4,1,2026-06-05T18:11:56.735408+05:30
Port Blair,Andaman and Nicobar Islands,11.6234,92.7265,24.9,98,0.3,1004.9,1.85,47.2,28,8.4,5.3,0.6,117.0,56.0,0.4,6,5,0,1,2026-06-05T18:11:56.735415+05:30
Haridwar,Uttarakhand,29.9457,78.1642,30.2,60,0.0,967.7,6.75,33.1,158,125.7,48.4,3.2,262.0,178.0,7.3,0,5,7,1,2026-06-05T18:11:56.735422+05:30
Rishikesh,Uttarakhand,30.0869,78.2676,28.7,68,0.0,960.7,6.85,33.1,141,106.2,43.0,2.0,233.0,172.0,5.2,7,5,7,1,2026-06-05T18:11:56.735429+05:30
Nainital,Uttarakhand,29.3919,79.4542,18.2,74,0.0,802.6,5.05,27.0,94,43.4,26.3,2.9,217.0,145.0,3.4,3,5,3,0,2026-06-05T18:11:56.735436+05:30
Mussoorie,Uttarakhand,30.4599,78.0664,18.3,61,0.0,800.2,4.55,26.3,142,92.0,36.6,4.0,219.0,175.0,7.0,3,5,3,0,2026-06-05T18:11:56.735443+05:30
Dharamshala,Himachal Pradesh,32.219,76.3234,23.8,48,0.0,866.2,8.45,38.2,115,27.3,15.4,1.1,229.0,148.0,1.2,0,5,7,0,2026-06-05T18:11:56.735449+05:30
Dalhousie,Himachal Pradesh,32.5387,75.971,19.5,70,0.0,802.9,7.0,38.2,137,34.7,18.4,2.7,223.0,157.0,2.0,3,5,7,0,2026-06-05T18:11:56.735457+05:30
Patiala,Punjab,30.3398,76.3869,34.8,38,0.0,971.8,7.7,29.2,161,240.3,55.8,2.5,243.0,158.0,6.8,0,5,7,1,2026-06-05T18:11:56.735464+05:30
Bhatinda,Punjab,30.211,74.9455,35.9,30,0.0,976.8,8.3,22.7,166,131.8,46.4,3.7,259.0,170.0,13.6,0,5,10,0,2026-06-05T18:11:56.735470+05:30
Rohtak,Haryana,28.8955,76.6066,34.9,38,0.0,975.0,7.7,23.0,265,245.9,51.8,3.9,231.0,125.0,3.6,0,5,7,1,2026-06-05T18:11:56.735477+05:30
Panipat,Haryana,29.3909,76.9635,32.5,53,0.0,974.0,7.55,29.9,468,456.3,82.0,5.1,309.0,138.0,12.3,0,5,7,1,2026-06-05T18:11:56.735483+05:30
Mathura,Uttar Pradesh,27.4924,77.6737,33.4,48,0.0,979.9,7.65,29.2,340,356.7,70.5,4.2,184.0,132.0,5.7,0,5,7,1,2026-06-05T18:11:56.735489+05:30
Vrindavan,Uttar Pradesh,27.5823,77.7027,33.6,46,0.0,980.3,7.8,28.1,340,356.7,70.5,4.2,184.0,132.0,5.7,0,5,7,1,2026-06-05T18:11:56.735496+05:30
Ayodhya,Uttar Pradesh,26.7922,82.1998,34.6,52,0.0,986.4,8.45,29.5,160,92.2,48.4,5.1,337.0,140.0,5.3,0,5,7,1,2026-06-05T18:11:56.735502+05:30
Ratlam,Madhya Pradesh,23.3315,75.0367,33.2,45,0.0,948.5,8.45,41.4,87,59.6,28.6,0.8,134.0,100.0,3.4,0,5,7,1,2026-06-05T18:11:56.735508+05:30
Sagar,Madhya Pradesh,23.8388,78.7378,32.9,34,0.0,943.8,8.65,39.6,80,105.2,36.6,1.6,145.0,97.0,1.9,0,5,7,0,2026-06-05T18:11:56.735514+05:30
Satna,Madhya Pradesh,24.6005,80.8322,35.8,36,0.0,963.5,8.85,37.8,101,94.3,38.4,1.7,156.0,122.0,3.8,0,5,10,1,2026-06-05T18:11:56.735520+05:30
Akola,Maharashtra,20.7002,77.0082,36.7,32,0.0,967.7,8.8,45.7,87,55.6,24.7,2.1,135.0,105.0,4.9,0,5,10,1,2026-06-05T18:11:56.735527+05:30
Amravati,Maharashtra,20.9374,77.7796,37.0,32,0.0,960.3,8.85,51.1,92,58.4,26.5,2.6,146.0,102.0,5.4,0,5,10,1,2026-06-05T18:11:56.735534+05:30
Latur,Maharashtra,18.4088,76.5604,33.5,48,0.0,934.5,8.95,35.3,66,52.6,22.0,1.5,156.0,110.0,3.3,0,5,7,1,2026-06-05T18:11:56.735540+05:30
Nanded,Maharashtra,19.1383,77.3091,36.9,33,0.0,961.9,8.95,31.0,90,56.0,25.9,1.7,158.0,116.0,3.1,0,5,10,1,2026-06-05T18:11:56.735547+05:30
Gulbarga,Karnataka,17.3297,76.8343,32.8,48,0.0,953.2,7.25,45.0,55,36.1,19.0,3.4,277.0,115.0,2.9,0,5,7,1,2026-06-05T18:11:56.735552+05:30
Bidar,Karnataka,17.9104,77.5199,32.1,52,0.0,930.5,7.3,43.9,71,66.4,33.3,3.2,301.0,124.0,5.1,0,5,7,1,2026-06-05T18:11:56.735558+05:30
Hospet,Karnataka,15.2689,76.3909,26.2,76,0.0,952.1,8.05,45.7,35,5.9,4.1,4.1,172.0,70.0,1.3,7,5,7,1,2026-06-05T18:11:56.735564+05:30
Tirupur,Tamil Nadu,11.1085,77.3411,26.9,71,0.0,971.9,8.55,64.1,32,4.3,3.5,5.0,145.0,57.0,2.1,7,5,7,1,2026-06-05T18:11:56.735571+05:30
Alappuzha,Kerala,9.4981,76.3388,27.1,90,0.0,1007.7,7.25,38.5,31,13.5,8.4,7.6,92.0,37.0,1.3,7,5,4,1,2026-06-05T18:11:56.735577+05:30
Munnar,Kerala,10.0889,77.0595,17.3,93,0.0,855.0,6.4,48.2,22,2.3,1.9,4.6,116.0,41.0,1.2,3,10,7,1,2026-06-05T18:11:56.735583+05:30
Silchar,Assam,24.8333,92.7789,31.1,75,0.0,997.3,8.7,31.0,114,36.9,29.3,3.9,380.0,119.0,5.5,3,5,7,1,2026-06-05T18:11:56.735589+05:30
Dibrugarh,Assam,27.4728,94.912,28.8,75,0.0,988.7,8.95,19.4,113,25.4,22.5,7.2,340.0,107.0,2.8,7,5,7,1,2026-06-05T18:11:56.735596+05:30
