city,state,latitude,longitude,temp,humidity,rain,pressure,uv_index,wind_gusts,aqi,pm10,pm2_5,no2,co,o3,so2,mosquito_risk,arthritis_risk,migraine_risk,frizz_risk,updated_at
Delhi,Delhi,28.6139,77.209,28.7,80,0.0,978.5,6.7,37.8,80,30.9,29.9,15.6,547.0,98.0,19.8,7,5,7,1,2026-07-22T09:48:01.094134+05:30
Mumbai,Maharashtra,19.076,72.8777,26.4,91,0.3,1006.0,1.45,56.2,60,38.0,15.7,7.9,262.0,45.0,4.9,10,5,0,1,2026-07-22T09:48:01.094187+05:30
Bangalore,Karnataka,12.9716,77.5946,24.2,71,0.0,913.3,7.65,54.4,46,6.7,5.2,9.5,400.0,33.0,4.7,3,5,7,1,2026-07-22T09:48:01.094203+05:30
Hyderabad,Telangana,17.385,78.4867,24.5,86,0.0,951.7,4.75,55.8,48,8.5,5.7,5.5,285.0,40.0,4.5,3,5,3,1,2026-07-22T09:48:01.094215+05:30
Chennai,Tamil Nadu,13.0827,80.2707,31.1,58,0.0,1007.5,8.8,42.1,80,32.0,24.8,17.4,427.0,66.0,17.0,0,5,4,1,2026-07-22T09:48:01.094224+05:30
Kolkata,West Bengal,22.5726,88.3639,25.6,96,0.3,1003.2,4.1,29.5,60,14.9,14.4,8.1,319.0,91.0,8.7,10,5,0,1,2026-07-22T09:48:01.094232+05:30
Pune,Maharashtra,18.5204,73.8567,22.3,95,0.2,945.2,1.6,56.2,21,3.3,3.0,6.7,174.0,37.0,3.5,6,5,3,1,2026-07-22T09:48:01.094241+05:30
Ahmedabad,Gujarat,23.0225,72.5714,29.1,75,0.0,996.3,2.45,32.4,61,23.1,11.8,10.1,260.0,36.0,5.3,7,5,3,1,2026-07-22T09:48:01.094249+05:30
Jaipur,Rajasthan,26.9124,75.7873,28.0,81,0.0,954.3,7.3,31.3,60,23.1,17.3,8.0,263.0,95.0,7.4,7,5,7,1,2026-07-22T09:48:01.094256+05:30
Lucknow,Uttar Pradesh,26.8467,80.9462,29.9,72,0.1,989.2,6.1,47.5,84,20.6,20.4,4.9,299.0,102.0,8.6,10,5,7,1,2026-07-22T09:48:01.094268+05:30
Kanpur,Uttar Pradesh,26.4499,80.3319,29.9,75,0.0,987.1,6.55,45.4,78,19.2,19.0,4.9,281.0,103.0,8.5,7,5,7,1,2026-07-22T09:48:01.094276+05:30
Chandigarh,Chandigarh,30.7333,76.7794,28.2,78,0.0,965.8,7.55,41.4,83,18.9,18.5,8.1,350.0,100.0,7.3,7,5,7,1,2026-07-22T09:48:01.094285+05:30
Srinagar,Jammu and Kashmir,34.0837,74.7973,19.5,92,0.1,840.4,8.95,19.1,62,12.5,12.1,21.9,557.0,43.0,3.5,6,10,7,1,2026-07-22T09:48:01.094294+05:30
Jammu,Jammu and Kashmir,32.7266,74.857,25.7,88,0.3,970.4,5.9,24.8,65,14.9,14.4,17.8,313.0,67.0,2.4,10,5,3,1,2026-07-22T09:48:01.094302+05:30
Amritsar,Punjab,31.634,74.8723,27.2,88,0.0,977.6,7.25,39.2,80,23.3,23.3,10.3,428.0,84.0,8.2,7,5,7,1,2026-07-22T09:48:01.094312+05:30
Ludhiana,Punjab,30.901,75.8573,26.7,90,0.0,975.3,7.0,36.4,91,27.3,27.0,12.2,404.0,71.0,10.2,7,5,7,1,2026-07-22T09:48:01.094319+05:30
Jalandhar,Punjab,31.326,75.5762,27.0,89,0.0,976.6,7.15,32.8,91,27.8,27.5,12.4,369.0,83.0,10.6,7,5,7,1,2026-07-22T09:48:01.094326+05:30
Dehradun,Uttarakhand,30.6284,78.0322,22.5,73,0.0,831.1,4.75,23.8,40,2.8,2.8,3.9,221.0,93.0,0.8,3,5,3,1,2026-07-22T09:48:01.094334+05:30
Shimla,Himachal Pradesh,31.1048,77.1734,17.3,87,0.0,784.3,4.65,21.6,42,5.5,5.2,4.4,263.0,99.0,1.1,3,10,3,0,2026-07-22T09:48:01.094342+05:30
Manali,Himachal Pradesh,32.2396,77.1887,20.2,98,0.3,818.7,4.25,24.1,21,4.0,3.5,7.8,253.0,70.0,0.9,6,5,3,1,2026-07-22T09:48:01.094351+05:30
Gurgaon,Haryana,28.4595,77.0266,28.5,80,0.1,976.7,6.55,40.3,77,27.9,27.0,13.5,479.0,98.0,15.6,10,5,7,1,2026-07-22T09:48:01.094359+05:30
Noida,Uttar Pradesh,28.5355,77.391,29.0,80,0.0,980.0,6.7,37.4,77,27.9,27.0,13.5,402.0,98.0,15.6,7,5,7,1,2026-07-22T09:48:01.094366+05:30
Ghaziabad,Uttar Pradesh,28.6692,77.4538,28.9,81,0.1,978.5,6.6,37.4,75,30.3,29.3,7.0,326.0,105.0,10.7,10,5,7,1,2026-07-22T09:48:01.094373+05:30
Faridabad,Haryana,28.4089,77.3178,28.6,81,0.0,979.2,6.5,41.4,77,27.9,27.0,13.5,394.0,98.0,15.6,7,5,7,1,2026-07-22T09:48:01.094380+05:30
Meerut,Uttar Pradesh,28.9845,77.7064,28.6,80,0.0,977.7,6.85,43.2,75,30.3,29.3,7.0,325.0,105.0,10.7,7,5,7,1,2026-07-22T09:48:01.094386+05:30
Agra,Uttar Pradesh,27.1767,78.0081,29.1,79,0.1,982.8,6.9,36.4,69,22.4,21.8,5.9,324.0,110.0,10.0,10,5,7,1,2026-07-22T09:48:01.094393+05:30
Varanasi,Uttar Pradesh,25.3176,82.9739,30.1,74,0.0,992.7,7.9,45.4,74,8.8,8.8,5.9,374.0,82.0,14.6,3,5,7,1,2026-07-22T09:48:01.094401+05:30
Prayagraj,Uttar Pradesh,25.4358,81.8463,29.6,75,0.0,990.8,7.75,41.0,78,11.6,11.6,5.1,400.0,93.0,10.7,7,5,7,1,2026-07-22T09:48:01.094408+05:30
Gorakhpur,Uttar Pradesh,26.7606,83.3732,30.6,69,0.0,993.8,7.0,50.8,80,17.2,16.9,4.4,299.0,98.0,7.5,3,5,7,1,2026-07-22T09:48:01.094416+05:30
Bareilly,Uttar Pradesh,28.367,79.4304,29.5,77,0.0,983.4,7.0,40.7,71,22.9,22.2,3.7,287.0,106.0,6.8,7,5,7,1,2026-07-22T09:48:01.094425+05:30
Aligarh,Uttar Pradesh,27.8974,78.088,29.3,76,0.1,981.2,7.0,40.7,75,29.1,28.3,6.2,315.0,109.0,10.8,10,5,7,1,2026-07-22T09:48:01.094432+05:30
Moradabad,Uttar Pradesh,28.8386,78.7733,29.6,74,0.1,980.3,7.25,44.6,69,23.9,23.0,4.2,293.0,110.0,8.0,10,5,7,1,2026-07-22T09:48:01.094439+05:30
Saharanpur,Uttar Pradesh,29.9637,77.546,29.0,78,0.0,972.7,7.3,41.0,73,20.4,19.8,3.8,307.0,111.0,5.5,7,5,7,1,2026-07-22T09:48:01.094467+05:30
Jhansi,Uttar Pradesh,25.4484,78.5685,28.8,78,0.0,972.1,7.6,33.5,64,11.2,10.1,4.8,195.0,95.0,9.8,7,5,7,1,2026-07-22T09:48:04.422186+05:30
Surat,Gujarat,21.1702,72.8311,26.3,95,0.2,1001.8,0.85,42.5,68,30.3,22.5,24.3,431.0,16.0,51.8,10,5,0,1,2026-07-22T09:48:04.422220+05:30
Vadodara,Gujarat,22.3072,73.1812,27.8,84,0.0,998.6,1.5,36.0,59,17.3,10.9,11.9,225.0,30.0,5.6,7,5,3,1,2026-07-22T09:48:04.422231+05:30
Rajkot,Gujarat,22.3039,70.8022,29.4,72,0.0,988.5,3.95,46.8,57,29.1,12.6,3.8,109.0,47.0,4.2,7,5,3,1,2026-07-22T09:48:04.422240+05:30
Thane,Maharashtra,19.2183,72.9781,25.7,94,0.4,1005.3,1.0,42.8,60,38.0,15.7,7.9,258.0,45.0,4.9,10,5,0,1,2026-07-22T09:48:04.422249+05:30
Nagpur,Maharashtra,21.1458,79.0882,24.9,93,0.1,968.2,1.0,49.0,39,5.3,5.1,11.1,189.0,29.0,10.4,6,5,3,1,2026-07-22T09:48:04.422258+05:30
Nashik,Maharashtra,19.9975,73.7898,24.0,93,0.0,941.1,1.95,64.1,19,3.0,1.9,4.8,138.0,41.0,1.5,3,5,3,1,2026-07-22T09:48:04.422266+05:30
Aurangabad,Maharashtra,19.8762,75.3433,23.1,95,0.5,939.9,1.3,58.7,26,2.8,2.6,7.4,167.0,33.0,4.2,6,5,3,1,2026-07-22T09:48:04.422274+05:30
Solapur,Maharashtra,17.6599,75.9064,25.5,80,0.0,955.8,3.9,61.2,28,5.6,4.1,4.5,114.0,35.0,2.1,7,5,3,1,2026-07-22T09:48:04.422281+05:30
Kolhapur,Maharashtra,16.705,74.2433,22.6,91,0.0,947.4,7.35,58.7,26,10.2,6.8,4.9,151.0,34.0,1.9,3,5,7,1,2026-07-22T09:48:04.422289+05:30
Goa,Goa,15.2993,74.124,25.5,94,0.1,999.5,6.85,38.2,55,21.8,10.8,2.3,240.0,43.0,1.1,10,5,7,1,2026-07-22T09:48:04.422297+05:30
Jodhpur,Rajasthan,26.2389,73.0243,30.8,67,0.0,976.7,4.75,28.4,76,164.4,39.1,6.5,147.0,53.0,3.0,3,5,3,1,2026-07-22T09:48:04.422305+05:30
Udaipur,Rajasthan,24.5854,73.7125,24.6,94,0.3,940.3,2.25,31.0,54,8.4,5.3,5.3,177.0,50.0,2.8,6,5,3,1,2026-07-22T09:48:04.422313+05:30
Kota,Rajasthan,25.2138,75.8648,28.7,76,0.0,972.6,7.95,25.2,51,12.0,9.2,7.6,212.0,84.0,11.6,7,5,7,1,2026-07-22T09:48:04.422320+05:30
Bikaner,Rajasthan,28.0229,73.3119,31.2,66,0.0,975.9,7.45,29.9,72,63.3,19.4,1.9,167.0,89.0,2.9,3,5,7,1,2026-07-22T09:48:04.422328+05:30
Ajmer,Rajasthan,26.4499,74.6399,26.5,81,0.1,949.2,7.3,26.6,61,17.2,9.4,5.2,179.0,89.0,2.5,10,5,7,1,2026-07-22T09:48:04.422335+05:30
Gwalior,Madhya Pradesh,26.2183,78.1828,28.8,79,0.0,977.7,6.6,34.2,63,13.2,12.7,3.6,218.0,100.0,7.0,7,5,7,1,2026-07-22T09:48:04.422343+05:30
Indore,Madhya Pradesh,22.7196,75.8577,25.5,87,0.1,942.0,6.1,38.5,52,10.9,8.6,10.8,296.0,36.0,7.0,10,5,7,1,2026-07-22T09:48:04.422352+05:30
Bhopal,Madhya Pradesh,23.2599,77.4126,25.9,86,0.1,947.2,8.15,30.2,46,6.1,5.5,5.8,321.0,55.0,5.1,10,5,7,1,2026-07-22T09:48:04.422360+05:30
Jabalpur,Madhya Pradesh,23.1815,79.9864,24.5,94,0.0,955.2,6.65,24.5,40,3.6,3.4,3.5,196.0,69.0,3.5,3,5,7,1,2026-07-22T09:48:04.422369+05:30
Ujjain,Madhya Pradesh,23.1765,75.7885,25.8,88,0.1,947.3,6.05,31.7,52,11.7,8.6,7.2,227.0,42.0,5.5,10,5,7,1,2026-07-22T09:48:04.422377+05:30
Visakhapatnam,Andhra Pradesh,17.6868,83.2185,26.9,80,0.1,1002.2,7.45,52.9,61,21.0,16.4,15.5,358.0,48.0,34.3,10,5,4,1,2026-07-22T09:48:04.422384+05:30
Vijayawada,Andhra Pradesh,16.5062,80.648,29.5,66,0.0,1002.1,7.45,45.7,65,15.3,9.7,5.1,170.0,55.0,6.1,7,5,4,1,2026-07-22T09:48:04.422392+05:30
Guntur,Andhra Pradesh,16.3067,80.4365,31.0,56,0.0,1003.3,5.7,47.5,62,13.8,8.4,4.7,148.0,51.0,5.5,0,5,0,1,2026-07-22T09:48:04.422400+05:30
Nellore,Andhra Pradesh,14.4426,79.9865,32.6,49,0.0,1006.1,8.2,38.5,68,25.6,15.8,7.4,118.0,53.0,6.7,0,5,4,1,2026-07-22T09:48:04.422409+05:30
Kurnool,Andhra Pradesh,15.8281,78.0373,29.2,64,0.0,977.2,3.4,56.5,44,7.0,4.4,2.4,111.0,47.0,3.3,7,5,3,1,2026-07-22T09:48:04.422417+05:30
Kakinada,Andhra Pradesh,16.9891,82.2475,30.9,60,0.0,1006.5,8.85,58.0,60,22.6,14.2,7.0,257.0,60.0,7.5,0,5,4,1,2026-07-22T09:48:04.422425+05:30
Tirupati,Andhra Pradesh,13.6288,79.4192,30.1,57,0.0,991.6,8.85,45.4,77,20.9,14.0,9.7,164.0,62.0,4.4,0,5,7,1,2026-07-22T09:48:04.422432+05:30
Warangal,Telangana,17.9689,79.5941,26.1,86,0.0,977.3,2.45,55.8,51,10.9,7.4,4.7,187.0,43.0,3.7,7,5,3,1,2026-07-22T09:48:04.422440+05:30
Nizamabad,Telangana,18.6725,78.0941,25.1,86,0.0,962.1,2.35,47.9,43,6.7,5.4,4.9,158.0,35.0,2.3,7,5,3,1,2026-07-22T09:48:04.422472+05:30
Mysore,Karnataka,12.2958,76.6396,25.9,68,0.1,930.6,8.25,52.9,35,4.1,2.8,4.0,136.0,39.0,1.9,10,5,7,1,2026-07-22T09:48:04.422483+05:30
Mangalore,Karnataka,12.9141,74.856,25.3,93,0.3,1009.8,8.05,32.0,53,12.3,7.2,3.6,139.0,41.0,2.1,10,0,4,1,2026-07-22T09:48:04.422491+05:30
Hubli-Dharwad,Karnataka,15.3647,75.124,23.7,85,0.0,941.4,2.2,61.6,19,3.2,2.1,4.2,117.0,37.0,1.2,3,5,3,1,2026-07-22T09:48:04.422499+05:30
Belgaum,Karnataka,15.8497,74.4977,22.9,85,0.0,925.9,7.2,60.8,18,5.4,3.3,3.3,120.0,40.0,1.7,3,5,7,1,2026-07-22T09:48:07.726813+05:30
Coimbatore,Tamil Nadu,11.0168,76.9558,28.9,63,0.0,963.8,8.35,53.3,45,5.9,4.2,2.9,190.0,49.0,2.6,7,5,7,1,2026-07-22T09:48:07.726851+05:30
Madurai,Tamil Nadu,9.9252,78.1198,33.4,43,0.0,994.2,7.8,43.9,68,27.9,18.6,11.2,161.0,74.0,7.4,0,5,7,1,2026-07-22T09:48:07.726863+05:30
Trichy,Tamil Nadu,10.7905,78.7047,32.6,51,0.0,1000.7,8.6,48.2,57,14.2,9.1,3.6,139.0,51.0,3.8,0,5,4,1,2026-07-22T09:48:07.726873+05:30
Salem,Tamil Nadu,11.6643,78.146,28.6,70,0.0,979.2,8.65,29.9,67,24.4,17.0,10.0,249.0,66.0,14.0,7,5,7,1,2026-07-22T09:48:07.726883+05:30
Tirunelveli,Tamil Nadu,8.7139,77.7567,34.5,44,0.0,1004.4,8.6,51.5,48,7.7,5.0,2.8,129.0,50.0,1.9,0,5,4,1,2026-07-22T09:48:07.726892+05:30
Vellore,Tamil Nadu,12.9165,79.1325,31.2,53,0.0,985.3,8.9,45.4,80,13.4,9.3,5.1,173.0,60.0,4.8,0,5,7,1,2026-07-22T09:48:07.726901+05:30
Erode,Tamil Nadu,11.341,77.7172,31.3,52,0.0,990.8,8.5,43.2,57,12.5,8.9,6.2,206.0,52.0,4.0,0,5,7,1,2026-07-22T09:48:07.726909+05:30
Kochi,Kerala,9.9312,76.2673,28.0,83,0.0,1011.5,8.2,33.1,62,15.8,10.9,7.8,201.0,53.0,6.0,7,0,4,1,2026-07-22T09:48:07.726918+05:30
Thiruvananthapuram,Kerala,8.5241,76.9366,28.6,76,0.0,1010.6,8.0,40.7,53,12.0,7.5,3.3,202.0,49.0,2.2,7,0,4,1,2026-07-22T09:48:07.726926+05:30
Kozhikode,Kerala,11.2588,75.7804,25.0,95,0.1,1011.5,8.05,37.4,39,10.4,5.8,1.5,154.0,46.0,1.8,10,0,4,1,2026-07-22T09:48:07.726935+05:30
Thrissur,Kerala,10.5276,76.2144,28.0,83,0.0,1009.9,7.85,35.6,59,11.8,8.6,5.8,185.0,47.0,3.2,7,0,4,1,2026-07-22T09:48:07.726944+05:30
Kannur,Kerala,11.8745,75.3704,26.0,89,0.0,1010.3,7.65,33.1,48,11.2,7.1,5.6,179.0,37.0,2.3,7,0,4,1,2026-07-22T09:48:07.726951+05:30
Patna,Bihar,25.5941,85.1376,30.0,74,0.0,996.9,7.45,49.0,68,14.2,14.1,6.6,224.0,83.0,12.0,7,5,7,1,2026-07-22T09:48:07.726959+05:30
Gaya,Bihar,24.7914,85.0002,29.9,73,0.0,989.7,8.3,42.8,54,7.7,7.7,5.0,335.0,75.0,11.6,7,5,7,1,2026-07-22T09:48:07.726968+05:30
Muzaffarpur,Bihar,26.1209,85.3647,30.0,74,0.1,997.2,7.9,54.7,73,16.1,16.0,5.6,275.0,91.0,8.8,10,5,7,1,2026-07-22T09:48:07.726977+05:30
Bhagalpur,Bihar,25.2425,87.0117,30.0,75,0.0,998.2,7.95,47.2,62,11.0,10.9,10.3,221.0,53.0,8.7,7,5,7,1,2026-07-22T09:48:07.726984+05:30
Ranchi,Jharkhand,23.3441,85.3096,23.6,93,0.2,933.6,4.8,43.6,50,4.1,4.1,11.6,239.0,61.0,16.6,6,5,3,1,2026-07-22T09:48:07.726992+05:30
Jamshedpur,Jharkhand,22.8046,86.2029,26.3,88,0.0,987.2,6.95,30.6,56,10.8,10.5,14.7,456.0,62.0,20.6,7,5,7,1,2026-07-22T09:48:07.727000+05:30
Dhanbad,Jharkhand,23.7957,86.4304,27.0,83,0.1,976.5,7.1,38.9,79,16.2,15.8,22.4,405.0,51.0,59.6,10,5,7,1,2026-07-22T09:48:07.727008+05:30
Bokaro,Jharkhand,23.6693,86.1511,27.3,83,0.0,980.1,4.65,34.6,82,17.2,16.9,27.3,1894.0,48.0,73.1,7,5,3,1,2026-07-22T09:48:07.727017+05:30
Bhubaneswar,Odisha,20.2961,85.8245,26.7,94,0.1,999.9,7.05,42.5,61,9.8,8.6,8.5,254.0,53.0,4.0,10,5,7,1,2026-07-22T09:48:07.727024+05:30
Cuttack,Odisha,20.4625,85.8828,26.8,89,0.2,1001.6,5.25,39.2,61,9.8,8.6,8.5,248.0,53.0,4.0,10,5,0,1,2026-07-22T09:48:07.727031+05:30
Rourkela,Odisha,22.2604,84.8536,26.0,93,0.0,980.9,2.0,30.6,58,4.8,4.6,8.4,294.0,40.0,3.6,7,5,3,1,2026-07-22T09:48:07.727040+05:30
Raipur,Chhattisgarh,21.2514,81.6296,25.6,91,0.1,970.1,0.85,46.8,61,13.9,12.8,19.4,321.0,24.0,36.7,10,5,3,1,2026-07-22T09:48:07.727048+05:30
Bhilai,Chhattisgarh,21.1938,81.3509,24.8,91,0.0,970.5,0.7,51.1,57,11.8,11.1,17.7,493.0,25.0,32.9,3,5,3,1,2026-07-22T09:48:07.727055+05:30
Guwahati,Assam,26.1158,91.7086,28.1,83,0.1,1001.1,8.1,21.6,51,8.0,7.7,2.0,206.0,79.0,1.9,10,5,4,1,2026-07-22T09:48:07.727063+05:30
Agartala,Tripura,23.8315,91.2868,29.2,79,0.1,1005.0,8.4,38.2,40,5.2,4.7,3.5,138.0,64.0,1.5,10,5,4,1,2026-07-22T09:48:07.727071+05:30
Shillong,Meghalaya,25.5788,91.8933,20.3,98,0.4,857.8,8.5,23.4,34,3.0,2.7,2.1,145.0,65.0,1.3,6,5,7,1,2026-07-22T09:48:07.727079+05:30
Imphal,Manipur,24.817,93.9368,26.8,80,0.0,923.7,8.15,26.3,51,4.5,4.4,2.1,203.0,76.0,1.5,7,5,7,1,2026-07-22T09:48:07.727086+05:30
Aizawl,Mizoram,23.7271,92.7176,25.2,70,0.0,893.3,8.85,32.0,23,5.9,4.1,0.9,119.0,71.0,0.7,7,5,7,1,2026-07-22T09:48:07.727094+05:30
Kohima,Nagaland,25.6701,94.1077,22.1,85,0.2,856.4,8.65,20.9,32,4.3,3.9,1.0,150.0,76.0,0.6,6,5,7,1,2026-07-22T09:48:07.727102+05:30
Gangtok,Sikkim,27.3314,88.6138,20.3,85,0.0,838.9,7.75,29.2,36,6.0,5.9,1.5,190.0,79.0,0.9,3,5,7,1,2026-07-22T09:48:07.727109+05:30
Siliguri,West Bengal,26.7271,88.3953,30.3,73,0.0,992.0,8.7,37.4,60,7.3,7.0,2.1,286.0,94.0,2.3,3,5,7,1,2026-07-22T09:48:11.011058+05:30
Durgapur,West Bengal,23.5204,87.3119,27.8,80,0.1,991.8,7.6,35.3,72,12.4,12.3,16.8,279.0,52.0,31.5,10,5,7,1,2026-07-22T09:48:11.011093+05:30
Asansol,West Bengal,23.6739,86.9524,26.8,86,0.1,990.3,6.35,34.9,67,13.0,12.9,18.6,290.0,51.0,37.8,10,5,7,1,2026-07-22T09:48:11.011106+05:30
Pondicherry,Puducherry,11.9139,79.8145,31.8,57,0.0,1009.0,8.0,40.7,71,21.2,15.9,9.7,231.0,58.0,10.6,0,0,4,1,2026-07-22T09:48:11.011115+05:30
Port Blair,Andaman and Nicobar Islands,11.6234,92.7265,30.3,73,0.0,1009.7,8.5,41.8,45,12.0,7.0,0.4,95.0,55.0,0.6,3,0,4,1,2026-07-22T09:48:11.011125+05:30
Haridwar,Uttarakhand,29.9457,78.1642,29.8,73,0.0,971.2,7.3,34.2,67,16.2,15.5,1.7,236.0,111.0,4.5,7,5,7,1,2026-07-22T09:48:11.011134+05:30
Rishikesh,Uttarakhand,30.0869,78.2676,28.3,78,0.0,964.0,7.2,23.4,53,9.3,9.0,1.4,243.0,106.0,2.4,7,5,7,1,2026-07-22T09:48:11.011142+05:30
Nainital,Uttarakhand,29.3919,79.4542,22.0,61,0.1,806.6,7.25,49.3,50,12.0,11.4,1.0,157.0,94.0,1.4,6,5,7,0,2026-07-22T09:48:11.011152+05:30
Mussoorie,Uttarakhand,30.4599,78.0664,19.8,83,0.0,803.3,6.65,29.2,49,4.4,4.3,3.7,226.0,88.0,1.5,3,10,7,1,2026-07-22T09:48:11.011161+05:30
Dharamshala,Himachal Pradesh,32.219,76.3234,21.0,94,0.6,868.1,4.6,22.0,36,5.3,5.2,3.2,348.0,99.0,1.0,6,5,3,1,2026-07-22T09:48:11.011170+05:30
Dalhousie,Himachal Pradesh,32.5387,75.971,17.6,93,0.2,804.1,1.0,23.8,63,21.9,20.8,13.6,330.0,100.0,3.6,6,10,3,1,2026-07-22T09:48:11.011178+05:30
Patiala,Punjab,30.3398,76.3869,27.8,87,0.0,974.7,7.15,37.4,84,25.4,24.8,10.3,318.0,80.0,9.5,7,5,7,1,2026-07-22T09:48:11.011186+05:30
Bhatinda,Punjab,30.211,74.9455,27.0,93,0.0,979.2,6.5,34.2,85,19.9,19.8,9.8,404.0,87.0,10.8,7,5,7,1,2026-07-22T09:48:11.011194+05:30
Rohtak,Haryana,28.8955,76.6066,29.5,77,0.0,977.5,5.5,37.8,80,27.1,26.3,14.3,424.0,100.0,19.6,7,5,3,1,2026-07-22T09:48:11.011201+05:30
Panipat,Haryana,29.3909,76.9635,28.6,81,0.0,976.6,7.4,36.7,78,27.8,27.1,9.6,327.0,98.0,14.3,7,5,7,1,2026-07-22T09:48:11.011209+05:30
Mathura,Uttar Pradesh,27.4924,77.6737,29.4,79,0.0,982.0,6.95,37.8,65,23.7,22.9,6.2,321.0,105.0,8.6,7,5,7,1,2026-07-22T09:48:11.011217+05:30
Vrindavan,Uttar Pradesh,27.5823,77.7027,29.5,78,0.0,982.4,6.45,37.8,65,23.7,22.9,6.2,327.0,105.0,8.6,7,5,7,1,2026-07-22T09:48:11.011225+05:30
Ayodhya,Uttar Pradesh,26.7922,82.1998,30.3,71,0.0,991.4,7.75,47.2,84,19.1,18.9,4.4,325.0,101.0,8.1,3,5,7,1,2026-07-22T09:48:11.011232+05:30
Ratlam,Madhya Pradesh,23.3315,75.0367,24.6,94,0.1,948.6,0.2,35.6,52,12.7,8.3,6.8,135.0,41.0,5.3,6,5,3,1,2026-07-22T09:48:11.011240+05:30
Sagar,Madhya Pradesh,23.8388,78.7378,26.5,84,0.1,943.5,8.25,27.0,38,4.6,4.2,2.4,179.0,84.0,2.2,10,5,7,1,2026-07-22T09:48:11.011248+05:30
Satna,Madhya Pradesh,24.6005,80.8322,28.5,77,0.0,965.6,8.2,33.8,61,8.0,7.9,5.9,212.0,75.0,18.7,7,5,7,1,2026-07-22T09:48:11.011256+05:30
Akola,Maharashtra,20.7002,77.0082,25.8,90,0.0,970.2,2.6,45.4,26,3.0,2.8,8.9,159.0,28.0,3.4,7,5,3,1,2026-07-22T09:48:11.011264+05:30
Amravati,Maharashtra,20.9374,77.7796,25.3,91,0.1,962.3,1.45,53.6,26,2.8,2.7,8.7,147.0,28.0,3.4,10,5,3,1,2026-07-22T09:48:11.011272+05:30
Latur,Maharashtra,18.4088,76.5604,25.3,79,0.0,937.5,1.6,58.0,31,3.8,3.2,3.5,136.0,36.0,1.4,7,5,3,1,2026-07-22T09:48:11.011280+05:30
Nanded,Maharashtra,19.1383,77.3091,24.6,92,0.4,965.3,1.8,44.6,41,4.0,3.7,5.7,157.0,36.0,2.7,6,5,3,1,2026-07-22T09:48:11.011287+05:30
Gulbarga,Karnataka,17.3297,76.8343,26.2,73,0.1,957.7,2.6,61.6,36,7.0,4.2,4.4,122.0,39.0,2.6,10,5,3,1,2026-07-22T09:48:11.011295+05:30
Bidar,Karnataka,17.9104,77.5199,24.3,81,0.0,933.5,3.25,57.6,35,6.5,4.7,5.1,138.0,37.0,2.2,3,5,3,1,2026-07-22T09:48:11.011303+05:30
Hospet,Karnataka,15.2689,76.3909,27.1,70,0.0,956.4,8.4,62.3,25,3.0,2.0,2.3,110.0,43.0,1.6,7,5,7,1,2026-07-22T09:48:11.011310+05:30
Tirupur,Tamil Nadu,11.1085,77.3411,30.4,57,0.0,977.1,8.6,55.1,60,12.6,9.1,6.3,171.0,54.0,4.6,0,5,7,1,2026-07-22T09:48:11.011317+05:30
Alappuzha,Kerala,9.4981,76.3388,28.1,82,0.0,1011.5,7.8,35.3,58,16.1,10.2,6.0,132.0,53.0,4.9,7,0,4,1,2026-07-22T09:48:11.011325+05:30
Munnar,Kerala,10.0889,77.0595,20.8,73,0.0,859.8,8.8,34.9,45,9.5,5.5,1.9,98.0,54.0,1.9,3,5,7,0,2026-07-22T09:48:11.011333+05:30
Silchar,Assam,24.8333,92.7789,29.5,76,0.0,1004.6,8.6,26.3,54,8.9,8.1,1.6,160.0,84.0,2.8,7,5,4,1,2026-07-22T09:48:11.011340+05:30
Dibrugarh,Assam,27.4728,94.912,30.1,74,0.0,995.0,6.45,22.0,62,7.1,6.7,1.3,188.0,117.0,1.2,3,5,7,1,2026-07-22T09:48:11.011347+05:30
