city,state,latitude,longitude,temp,humidity,rain,pressure,uv_index,wind_gusts,aqi,pm10,pm2_5,no2,co,o3,so2,mosquito_risk,arthritis_risk,migraine_risk,frizz_risk,updated_at
Delhi,Delhi,28.6139,77.209,28.7,89,0.1,978.4,5.95,29.5,158,126.7,67.5,61.4,1368.0,27.0,35.5,10,5,3,1,2026-07-20T21:22:54.667715+05:30
Mumbai,Maharashtra,19.076,72.8777,25.5,94,0.1,1007.1,7.8,49.3,56,28.1,14.1,9.3,214.0,46.0,6.1,10,5,4,1,2026-07-20T21:22:54.667750+05:30
Bangalore,Karnataka,12.9716,77.5946,22.4,79,0.0,912.8,8.65,49.7,40,13.9,9.4,17.2,535.0,42.0,4.8,3,5,7,1,2026-07-20T21:22:54.667766+05:30
Hyderabad,Telangana,17.385,78.4867,23.0,94,0.4,952.7,8.6,43.6,39,13.2,9.2,8.7,294.0,61.0,4.5,6,5,7,1,2026-07-20T21:22:54.667775+05:30
Chennai,Tamil Nadu,13.0827,80.2707,25.8,95,0.2,1008.0,7.95,51.1,77,24.3,17.9,18.9,315.0,75.0,8.9,10,0,4,1,2026-07-20T21:22:54.667783+05:30
Kolkata,West Bengal,22.5726,88.3639,26.6,96,0.1,1003.7,8.35,30.6,77,23.8,21.2,12.1,510.0,52.0,8.8,10,5,4,1,2026-07-20T21:22:54.667812+05:30
Pune,Maharashtra,18.5204,73.8567,23.1,91,0.0,946.8,5.75,52.2,24,5.5,4.2,8.9,187.0,36.0,5.0,3,5,3,1,2026-07-20T21:22:54.667821+05:30
Ahmedabad,Gujarat,23.0225,72.5714,27.8,87,0.0,997.6,6.35,41.4,63,37.6,22.1,17.9,233.0,48.0,7.0,7,5,7,1,2026-07-20T21:22:54.667828+05:30
Jaipur,Rajasthan,26.9124,75.7873,29.1,75,0.0,955.6,6.05,31.3,127,82.2,31.7,24.4,214.0,50.0,8.5,7,5,7,1,2026-07-20T21:22:54.667835+05:30
Lucknow,Uttar Pradesh,26.8467,80.9462,26.6,95,0.0,990.2,7.55,16.2,86,28.9,26.8,24.8,733.0,52.0,9.0,7,5,7,1,2026-07-20T21:22:54.667846+05:30
Kanpur,Uttar Pradesh,26.4499,80.3319,27.0,94,0.0,988.4,6.15,18.0,81,30.2,27.5,28.9,735.0,42.0,9.3,7,5,7,1,2026-07-20T21:22:54.667853+05:30
Chandigarh,Chandigarh,30.7333,76.7794,26.6,81,0.0,964.8,4.95,31.0,151,52.9,37.8,25.7,543.0,76.0,9.1,7,5,3,1,2026-07-20T21:22:54.667860+05:30
Srinagar,Jammu and Kashmir,34.0837,74.7973,22.4,94,0.0,839.4,8.7,24.5,71,15.4,13.7,16.0,780.0,84.0,3.1,3,5,7,1,2026-07-20T21:22:54.667867+05:30
Jammu,Jammu and Kashmir,32.7266,74.857,27.2,95,0.3,967.6,8.4,24.5,105,72.2,40.9,33.3,474.0,50.0,5.1,10,5,7,1,2026-07-20T21:22:54.667873+05:30
Amritsar,Punjab,31.634,74.8723,29.3,86,0.0,975.5,8.15,32.4,168,104.1,61.9,18.8,458.0,76.0,6.1,7,5,7,1,2026-07-20T21:22:54.667879+05:30
Ludhiana,Punjab,30.901,75.8573,27.9,92,0.0,973.9,5.85,28.4,168,132.2,58.1,18.0,601.0,80.0,6.1,7,5,3,1,2026-07-20T21:22:54.667885+05:30
Jalandhar,Punjab,31.326,75.5762,27.8,90,0.0,974.9,7.2,31.0,168,141.6,75.4,29.7,567.0,72.0,7.7,7,5,7,1,2026-07-20T21:22:54.667891+05:30
Dehradun,Uttarakhand,30.6284,78.0322,18.3,98,0.0,828.9,5.15,16.6,56,17.9,9.6,13.1,240.0,82.0,2.1,3,10,3,1,2026-07-20T21:22:54.667898+05:30
Shimla,Himachal Pradesh,31.1048,77.1734,16.6,97,0.1,783.2,7.2,31.7,81,33.5,17.2,13.1,600.0,83.0,3.7,6,10,7,1,2026-07-20T21:22:54.667904+05:30
Manali,Himachal Pradesh,32.2396,77.1887,20.6,93,0.3,818.2,8.45,28.1,44,5.1,5.1,37.2,247.0,25.0,0.0,6,5,7,1,2026-07-20T21:22:54.667912+05:30
Gurgaon,Haryana,28.4595,77.0266,27.8,92,0.0,976.9,7.15,32.0,159,70.3,39.7,40.5,986.0,35.0,15.5,7,5,7,1,2026-07-20T21:22:54.667919+05:30
Noida,Uttar Pradesh,28.5355,77.391,28.4,89,0.0,979.8,6.5,31.0,159,70.3,39.7,40.5,1114.0,35.0,15.5,7,5,7,1,2026-07-20T21:22:54.667927+05:30
Ghaziabad,Uttar Pradesh,28.6692,77.4538,28.8,86,0.0,978.2,6.3,31.3,151,125.3,69.2,36.3,678.0,52.0,23.2,7,5,7,1,2026-07-20T21:22:54.667933+05:30
Faridabad,Haryana,28.4089,77.3178,28.2,90,0.1,979.1,5.65,31.3,159,70.3,39.7,40.5,980.0,35.0,15.5,10,5,3,1,2026-07-20T21:22:54.667939+05:30
Meerut,Uttar Pradesh,28.9845,77.7064,27.8,89,0.0,977.2,6.6,30.6,151,125.3,69.2,36.3,424.0,52.0,23.2,7,5,7,1,2026-07-20T21:22:54.667945+05:30
Agra,Uttar Pradesh,27.1767,78.0081,26.1,92,0.1,983.6,2.05,30.2,79,60.8,37.3,34.1,400.0,35.0,9.1,10,5,3,1,2026-07-20T21:22:54.667951+05:30
Varanasi,Uttar Pradesh,25.3176,82.9739,25.5,99,0.6,994.5,4.25,20.9,95,25.8,25.4,18.5,1098.0,80.0,8.2,10,5,3,1,2026-07-20T21:22:54.667957+05:30
Prayagraj,Uttar Pradesh,25.4358,81.8463,26.6,94,0.3,992.9,6.7,23.8,96,27.6,24.4,15.6,384.0,84.0,6.8,10,5,7,1,2026-07-20T21:22:54.667964+05:30
Gorakhpur,Uttar Pradesh,26.7606,83.3732,26.7,94,0.1,994.8,8.15,27.7,80,19.9,19.7,15.6,442.0,83.0,9.0,10,5,7,1,2026-07-20T21:22:54.667970+05:30
Bareilly,Uttar Pradesh,28.367,79.4304,26.7,93,0.0,983.1,1.25,37.1,77,18.9,17.9,18.0,369.0,60.0,8.0,7,5,3,1,2026-07-20T21:22:54.667978+05:30
Aligarh,Uttar Pradesh,27.8974,78.088,26.1,97,0.1,981.5,2.25,28.8,105,106.2,53.4,28.6,365.0,44.0,11.2,10,5,3,1,2026-07-20T21:22:54.667984+05:30
Moradabad,Uttar Pradesh,28.8386,78.7733,26.6,94,0.0,979.8,5.85,38.9,86,16.9,15.8,12.2,413.0,77.0,7.8,7,5,3,1,2026-07-20T21:22:54.667990+05:30
Saharanpur,Uttar Pradesh,29.9637,77.546,26.9,89,0.0,972.1,5.1,33.8,91,28.6,23.4,17.3,499.0,58.0,6.2,7,5,3,1,2026-07-20T21:22:54.667996+05:30
Jhansi,Uttar Pradesh,25.4484,78.5685,27.4,91,0.1,974.5,2.35,21.6,70,19.4,17.0,14.0,382.0,54.0,6.7,10,5,3,1,2026-07-20T21:22:58.064207+05:30
Surat,Gujarat,21.1702,72.8311,28.0,82,0.0,1003.1,6.85,50.0,63,23.5,17.0,22.2,294.0,31.0,33.6,7,5,4,1,2026-07-20T21:22:58.064238+05:30
Vadodara,Gujarat,22.3072,73.1812,27.4,91,0.0,1000.2,6.45,34.6,57,19.0,14.7,23.1,223.0,31.0,18.6,7,5,4,1,2026-07-20T21:22:58.064248+05:30
Rajkot,Gujarat,22.3039,70.8022,28.5,73,0.0,989.4,6.55,45.4,57,29.1,16.0,5.0,121.0,48.0,4.7,7,5,7,1,2026-07-20T21:22:58.064257+05:30
Thane,Maharashtra,19.2183,72.9781,24.7,98,0.4,1006.8,7.45,33.1,56,28.1,14.1,9.3,243.0,46.0,6.1,6,5,4,1,2026-07-20T21:22:58.064264+05:30
Nagpur,Maharashtra,21.1458,79.0882,25.0,96,0.3,970.6,5.4,30.6,66,16.3,13.6,16.9,261.0,48.0,13.1,10,5,3,1,2026-07-20T21:22:58.064272+05:30
Nashik,Maharashtra,19.9975,73.7898,22.7,96,0.1,943.2,6.35,50.0,24,6.3,4.4,9.2,146.0,39.0,3.8,6,5,7,1,2026-07-20T21:22:58.064279+05:30
Aurangabad,Maharashtra,19.8762,75.3433,24.8,81,0.0,942.3,7.9,52.6,30,6.5,5.5,8.3,155.0,51.0,7.7,3,5,7,1,2026-07-20T21:22:58.064286+05:30
Solapur,Maharashtra,17.6599,75.9064,24.6,86,0.0,957.1,7.6,44.6,26,8.2,5.7,5.8,154.0,42.0,2.5,3,5,7,1,2026-07-20T21:22:58.064293+05:30
Kolhapur,Maharashtra,16.705,74.2433,22.9,93,0.0,948.1,7.8,52.6,23,7.4,5.4,7.0,145.0,37.0,2.4,3,5,7,1,2026-07-20T21:22:58.064301+05:30
Goa,Goa,15.2993,74.124,23.5,97,0.0,999.9,4.1,33.1,56,25.8,15.9,5.8,320.0,41.0,1.5,3,5,3,1,2026-07-20T21:22:58.064308+05:30
Jodhpur,Rajasthan,26.2389,73.0243,32.5,54,0.0,977.3,7.75,35.6,79,85.4,21.7,7.7,136.0,64.0,2.2,0,5,7,1,2026-07-20T21:22:58.064315+05:30
Udaipur,Rajasthan,24.5854,73.7125,25.6,94,0.0,942.1,6.05,32.4,64,22.6,14.7,5.6,218.0,85.0,8.0,7,5,7,1,2026-07-20T21:22:58.064322+05:30
Kota,Rajasthan,25.2138,75.8648,30.1,71,0.0,974.4,1.35,27.0,70,39.1,27.6,16.9,297.0,64.0,8.5,3,5,3,1,2026-07-20T21:22:58.064330+05:30
Bikaner,Rajasthan,28.0229,73.3119,35.5,42,0.0,975.2,8.35,35.3,93,62.9,21.3,2.1,118.0,72.0,2.0,0,5,10,1,2026-07-20T21:22:58.064337+05:30
Ajmer,Rajasthan,26.4499,74.6399,28.5,71,0.0,950.4,7.45,37.4,63,20.4,15.4,12.8,188.0,66.0,5.2,7,5,7,1,2026-07-20T21:22:58.064345+05:30
Gwalior,Madhya Pradesh,26.2183,78.1828,26.1,98,0.2,979.4,1.4,29.5,71,28.1,22.3,15.3,299.0,55.0,4.9,10,5,3,1,2026-07-20T21:22:58.064353+05:30
Indore,Madhya Pradesh,22.7196,75.8577,24.5,94,0.1,944.7,5.4,31.7,58,13.4,12.1,13.5,379.0,50.0,4.4,6,5,3,1,2026-07-20T21:22:58.064360+05:30
Bhopal,Madhya Pradesh,23.2599,77.4126,25.0,93,0.0,950.5,6.2,30.6,65,21.9,18.3,12.8,368.0,53.0,4.1,7,5,7,1,2026-07-20T21:22:58.064367+05:30
Jabalpur,Madhya Pradesh,23.1815,79.9864,25.0,98,0.1,958.3,1.95,28.8,73,17.5,15.8,12.8,259.0,49.0,3.8,10,5,3,1,2026-07-20T21:22:58.064374+05:30
Ujjain,Madhya Pradesh,23.1765,75.7885,24.7,96,0.0,950.4,5.15,29.5,59,15.3,12.9,8.3,306.0,58.0,3.1,3,5,3,1,2026-07-20T21:22:58.064382+05:30
Visakhapatnam,Andhra Pradesh,17.6868,83.2185,28.0,85,0.0,1000.9,8.35,41.8,76,23.5,20.5,27.4,356.0,54.0,37.3,7,5,4,1,2026-07-20T21:22:58.064389+05:30
Vijayawada,Andhra Pradesh,16.5062,80.648,27.9,85,0.0,1001.1,6.65,43.2,58,21.8,18.1,13.9,213.0,47.0,5.7,7,5,4,1,2026-07-20T21:22:58.064396+05:30
Guntur,Andhra Pradesh,16.3067,80.4365,28.6,75,0.0,1002.4,6.5,43.9,55,21.0,15.7,10.9,222.0,51.0,5.6,7,5,4,1,2026-07-20T21:22:58.064404+05:30
Nellore,Andhra Pradesh,14.4426,79.9865,26.0,88,0.1,1006.6,5.95,41.0,66,35.3,24.0,11.5,165.0,78.0,5.8,10,5,0,1,2026-07-20T21:22:58.064412+05:30
Kurnool,Andhra Pradesh,15.8281,78.0373,25.1,91,0.0,977.8,8.15,49.3,43,15.0,8.6,5.5,183.0,53.0,2.2,7,5,7,1,2026-07-20T21:22:58.064421+05:30
Kakinada,Andhra Pradesh,16.9891,82.2475,28.1,87,0.0,1005.2,7.95,50.0,67,20.5,15.5,6.3,284.0,75.0,4.2,7,5,4,1,2026-07-20T21:22:58.064428+05:30
Tirupati,Andhra Pradesh,13.6288,79.4192,25.8,93,0.1,992.2,8.3,40.7,65,26.3,19.6,25.5,199.0,27.0,3.4,10,5,7,1,2026-07-20T21:22:58.064436+05:30
Warangal,Telangana,17.9689,79.5941,25.5,93,0.2,977.6,5.15,41.8,53,13.1,11.5,10.1,216.0,45.0,3.2,10,5,3,1,2026-07-20T21:22:58.064443+05:30
Nizamabad,Telangana,18.6725,78.0941,23.7,97,0.1,963.9,6.5,44.3,41,13.4,8.9,6.2,187.0,54.0,2.9,6,5,7,1,2026-07-20T21:22:58.064450+05:30
Mysore,Karnataka,12.2958,76.6396,22.4,86,0.0,930.1,7.8,53.3,30,8.5,5.8,8.1,155.0,48.0,2.2,3,5,7,1,2026-07-20T21:22:58.064457+05:30
Mangalore,Karnataka,12.9141,74.856,25.0,94,0.1,1009.8,8.55,31.0,51,19.3,13.2,12.8,209.0,30.0,3.9,10,0,4,1,2026-07-20T21:22:58.064464+05:30
Hubli-Dharwad,Karnataka,15.3647,75.124,21.7,96,0.0,941.9,8.05,51.8,22,4.5,3.4,7.3,138.0,38.0,1.5,3,5,7,1,2026-07-20T21:22:58.064472+05:30
Belgaum,Karnataka,15.8497,74.4977,20.8,94,0.0,926.2,4.85,56.9,19,4.8,3.5,6.1,124.0,38.0,1.9,3,5,3,1,2026-07-20T21:23:01.587876+05:30
Coimbatore,Tamil Nadu,11.0168,76.9558,23.6,91,0.0,963.2,8.3,52.2,32,10.0,7.7,8.5,209.0,41.0,3.3,3,5,7,1,2026-07-20T21:23:01.587903+05:30
Madurai,Tamil Nadu,9.9252,78.1198,30.4,51,0.0,993.6,7.65,34.6,60,19.7,12.1,12.7,162.0,55.0,4.3,0,5,7,1,2026-07-20T21:23:01.587914+05:30
Trichy,Tamil Nadu,10.7905,78.7047,30.2,54,0.0,1000.4,8.1,56.2,46,14.5,11.0,10.7,174.0,57.0,4.3,0,5,4,1,2026-07-20T21:23:01.587922+05:30
Salem,Tamil Nadu,11.6643,78.146,28.0,68,0.0,978.7,8.4,37.4,58,17.8,12.6,15.4,543.0,46.0,7.0,7,5,7,1,2026-07-20T21:23:01.587930+05:30
Tirunelveli,Tamil Nadu,8.7139,77.7567,29.7,60,0.0,1004.7,8.6,43.9,31,8.2,6.1,5.7,164.0,45.0,2.1,4,5,4,1,2026-07-20T21:23:01.587937+05:30
Vellore,Tamil Nadu,12.9165,79.1325,26.6,89,0.0,985.4,8.15,43.9,68,25.0,19.9,22.9,334.0,32.0,5.0,7,5,7,1,2026-07-20T21:23:01.587945+05:30
Erode,Tamil Nadu,11.341,77.7172,27.6,71,0.0,990.3,7.95,43.2,49,13.9,11.1,16.9,210.0,37.0,3.6,7,5,7,1,2026-07-20T21:23:01.587952+05:30
Kochi,Kerala,9.9312,76.2673,26.4,87,0.0,1011.6,7.8,27.4,51,24.3,20.8,30.1,258.0,9.0,7.5,7,0,4,1,2026-07-20T21:23:01.587960+05:30
Thiruvananthapuram,Kerala,8.5241,76.9366,25.6,90,0.0,1010.8,7.7,41.8,43,12.5,8.1,5.8,143.0,42.0,1.9,7,0,4,1,2026-07-20T21:23:01.587968+05:30
Kozhikode,Kerala,11.2588,75.7804,25.7,88,0.0,1010.6,7.8,21.6,32,11.9,6.3,2.1,224.0,49.0,1.4,7,0,4,1,2026-07-20T21:23:01.587975+05:30
Thrissur,Kerala,10.5276,76.2144,24.5,99,0.0,1010.0,7.85,23.4,49,19.4,16.4,16.4,636.0,21.0,4.5,3,0,4,1,2026-07-20T21:23:01.587983+05:30
Kannur,Kerala,11.8745,75.3704,25.1,94,0.1,1010.0,8.75,29.2,39,15.7,11.6,16.4,287.0,22.0,3.1,10,0,4,1,2026-07-20T21:23:01.587991+05:30
Patna,Bihar,25.5941,85.1376,25.8,95,0.2,998.3,3.85,32.4,82,24.4,24.3,18.6,420.0,80.0,11.9,10,5,3,1,2026-07-20T21:23:01.587998+05:30
Gaya,Bihar,24.7914,85.0002,25.3,96,0.2,991.3,1.6,26.6,77,23.8,23.3,13.6,346.0,77.0,10.4,10,5,3,1,2026-07-20T21:23:01.588005+05:30
Muzaffarpur,Bihar,26.1209,85.3647,27.3,88,0.0,998.2,7.95,37.1,71,26.0,26.0,19.5,412.0,78.0,11.8,7,5,7,1,2026-07-20T21:23:01.588013+05:30
Bhagalpur,Bihar,25.2425,87.0117,26.5,96,0.2,999.5,5.7,26.3,71,26.3,25.1,15.5,286.0,80.0,11.3,10,5,3,1,2026-07-20T21:23:01.588020+05:30
Ranchi,Jharkhand,23.3441,85.3096,22.8,98,0.0,934.9,4.4,24.1,76,41.2,35.9,9.6,258.0,98.0,10.7,3,5,3,1,2026-07-20T21:23:01.588027+05:30
Jamshedpur,Jharkhand,22.8046,86.2029,25.5,97,0.0,988.3,7.55,24.5,97,36.0,32.1,14.6,549.0,60.0,14.5,7,5,7,1,2026-07-20T21:23:01.588034+05:30
Dhanbad,Jharkhand,23.7957,86.4304,25.6,98,0.1,977.5,7.4,23.0,147,66.4,63.3,57.1,414.0,31.0,127.3,10,5,7,1,2026-07-20T21:23:01.588041+05:30
Bokaro,Jharkhand,23.6693,86.1511,25.8,96,0.0,981.2,7.15,24.5,148,73.6,71.2,55.2,1511.0,41.0,134.6,7,5,7,1,2026-07-20T21:23:01.588049+05:30
Bhubaneswar,Odisha,20.2961,85.8245,26.1,98,0.0,999.7,8.05,28.8,93,29.7,27.2,15.9,774.0,63.0,6.2,7,5,7,1,2026-07-20T21:23:01.588056+05:30
Cuttack,Odisha,20.4625,85.8828,26.8,95,0.1,1001.7,8.45,25.9,93,29.7,27.2,15.9,381.0,63.0,6.2,10,5,4,1,2026-07-20T21:23:01.588063+05:30
Rourkela,Odisha,22.2604,84.8536,25.7,96,0.1,982.0,5.8,25.6,103,58.7,48.9,19.2,563.0,84.0,23.3,10,5,3,1,2026-07-20T21:23:01.588070+05:30
Raipur,Chhattisgarh,21.2514,81.6296,25.7,96,0.1,971.5,7.35,32.0,89,53.8,49.1,62.5,589.0,24.0,76.7,10,5,7,1,2026-07-20T21:23:01.588077+05:30
Bhilai,Chhattisgarh,21.1938,81.3509,25.8,96,0.0,971.7,7.4,36.4,83,48.0,43.2,50.0,687.0,38.0,61.4,7,5,7,1,2026-07-20T21:23:01.588084+05:30
Guwahati,Assam,26.1158,91.7086,26.2,95,0.0,1001.0,5.6,20.2,43,22.0,21.7,18.0,402.0,28.0,4.1,7,5,0,1,2026-07-20T21:23:01.588091+05:30
Agartala,Tripura,23.8315,91.2868,25.2,98,0.0,1005.6,4.8,28.1,51,13.4,12.5,11.6,202.0,42.0,2.3,7,5,0,1,2026-07-20T21:23:01.588099+05:30
Shillong,Meghalaya,25.5788,91.8933,18.7,97,0.0,857.1,4.15,24.1,23,2.5,2.4,9.0,244.0,38.0,2.3,3,10,3,1,2026-07-20T21:23:01.588106+05:30
Imphal,Manipur,24.817,93.9368,21.9,93,0.0,923.4,2.2,19.8,43,19.4,19.2,26.9,296.0,18.0,4.7,3,5,3,1,2026-07-20T21:23:01.588113+05:30
Aizawl,Mizoram,23.7271,92.7176,20.8,93,0.1,892.3,1.05,19.1,32,2.9,2.8,7.9,180.0,27.0,0.6,6,5,3,1,2026-07-20T21:23:01.588120+05:30
Kohima,Nagaland,25.6701,94.1077,20.0,98,0.0,856.5,6.2,19.1,27,7.2,7.1,12.3,288.0,32.0,1.4,3,5,7,1,2026-07-20T21:23:01.588128+05:30
Gangtok,Sikkim,27.3314,88.6138,18.0,100,0.0,838.4,7.25,25.2,36,9.9,9.8,13.2,379.0,58.0,0.8,3,10,7,1,2026-07-20T21:23:01.588135+05:30
Siliguri,West Bengal,26.7271,88.3953,24.6,97,0.4,993.1,3.3,28.8,42,20.8,20.4,14.7,409.0,68.0,4.2,6,5,3,1,2026-07-20T21:23:05.009844+05:30
Durgapur,West Bengal,23.5204,87.3119,26.4,96,0.0,992.8,8.7,23.8,104,55.9,52.5,33.9,360.0,58.0,35.3,7,5,7,1,2026-07-20T21:23:05.009880+05:30
Asansol,West Bengal,23.6739,86.9524,26.2,97,0.0,991.3,7.95,23.8,101,52.4,48.9,43.6,855.0,43.0,45.9,7,5,7,1,2026-07-20T21:23:05.009896+05:30
Pondicherry,Puducherry,11.9139,79.8145,27.9,87,0.0,1008.6,7.95,40.0,70,29.7,22.6,18.2,400.0,76.0,6.6,7,0,4,1,2026-07-20T21:23:05.009907+05:30
Port Blair,Andaman and Nicobar Islands,11.6234,92.7265,27.2,79,0.0,1009.7,7.1,41.0,56,31.0,15.3,0.3,95.0,46.0,0.5,7,0,4,1,2026-07-20T21:23:05.009917+05:30
Haridwar,Uttarakhand,29.9457,78.1642,26.5,96,0.0,970.6,5.15,36.4,82,24.3,19.2,13.0,459.0,63.0,5.1,7,5,3,1,2026-07-20T21:23:05.009926+05:30
Rishikesh,Uttarakhand,30.0869,78.2676,25.6,96,0.0,963.3,5.25,20.2,65,14.6,9.8,6.6,428.0,92.0,3.4,7,5,3,1,2026-07-20T21:23:05.009934+05:30
Nainital,Uttarakhand,29.3919,79.4542,17.4,94,0.0,804.3,1.0,30.6,50,7.7,6.7,8.6,367.0,80.0,1.5,3,10,3,1,2026-07-20T21:23:05.009941+05:30
Mussoorie,Uttarakhand,30.4599,78.0664,17.1,99,0.0,801.7,4.85,23.8,65,15.3,10.5,14.9,366.0,77.0,6.0,3,10,3,1,2026-07-20T21:23:05.009948+05:30
Dharamshala,Himachal Pradesh,32.219,76.3234,21.3,98,0.2,866.7,6.7,26.6,43,3.0,2.8,14.8,388.0,50.0,0.7,6,5,7,1,2026-07-20T21:23:05.009955+05:30
Dalhousie,Himachal Pradesh,32.5387,75.971,18.2,98,0.1,802.5,4.45,23.8,88,68.0,31.1,24.1,690.0,80.0,2.9,6,10,3,1,2026-07-20T21:23:05.009963+05:30
Patiala,Punjab,30.3398,76.3869,27.3,89,0.0,973.8,4.15,32.0,159,90.6,50.4,18.8,455.0,78.0,8.3,7,5,3,1,2026-07-20T21:23:05.009971+05:30
Bhatinda,Punjab,30.211,74.9455,30.0,82,0.0,978.1,6.0,38.9,382,193.2,89.6,15.2,358.0,109.0,10.5,7,5,3,1,2026-07-20T21:23:05.009979+05:30
Rohtak,Haryana,28.8955,76.6066,29.2,87,0.0,977.1,5.25,25.9,321,603.5,102.0,26.7,507.0,54.0,7.6,7,5,3,1,2026-07-20T21:23:05.009986+05:30
Panipat,Haryana,29.3909,76.9635,27.5,93,0.0,976.1,5.2,35.6,289,713.4,133.2,25.3,501.0,56.0,12.2,7,5,3,1,2026-07-20T21:23:05.009993+05:30
Mathura,Uttar Pradesh,27.4924,77.6737,27.7,84,0.0,982.3,2.3,28.8,105,51.7,29.7,32.3,406.0,38.0,5.1,7,5,3,1,2026-07-20T21:23:05.010000+05:30
Vrindavan,Uttar Pradesh,27.5823,77.7027,27.9,84,0.0,982.7,2.7,27.7,105,51.7,29.7,32.3,415.0,38.0,5.1,7,5,3,1,2026-07-20T21:23:05.010007+05:30
Ayodhya,Uttar Pradesh,26.7922,82.1998,26.4,95,0.1,992.5,7.5,21.6,78,20.5,20.4,14.2,462.0,85.0,5.5,10,5,7,1,2026-07-20T21:23:05.010015+05:30
Ratlam,Madhya Pradesh,23.3315,75.0367,24.2,97,0.1,951.1,5.1,29.9,57,13.0,10.9,6.5,188.0,65.0,3.1,6,5,3,1,2026-07-20T21:23:05.010022+05:30
Sagar,Madhya Pradesh,23.8388,78.7378,24.9,96,0.0,946.9,7.15,32.0,62,16.2,14.5,11.3,270.0,56.0,3.1,3,5,7,1,2026-07-20T21:23:05.010029+05:30
Satna,Madhya Pradesh,24.6005,80.8322,25.6,99,0.1,968.3,1.9,28.1,81,20.2,16.2,12.0,306.0,60.0,2.8,10,5,3,1,2026-07-20T21:23:05.010036+05:30
Akola,Maharashtra,20.7002,77.0082,25.5,95,0.2,973.3,8.15,43.2,40,8.0,6.9,9.5,184.0,52.0,5.0,10,5,7,1,2026-07-20T21:23:05.010044+05:30
Amravati,Maharashtra,20.9374,77.7796,24.6,96,0.2,965.2,8.5,42.5,45,8.3,7.3,10.9,178.0,50.0,6.0,6,5,7,1,2026-07-20T21:23:05.010052+05:30
Latur,Maharashtra,18.4088,76.5604,23.6,93,0.3,939.2,1.95,45.4,29,9.4,6.7,5.2,156.0,47.0,1.7,6,5,3,1,2026-07-20T21:23:05.010059+05:30
Nanded,Maharashtra,19.1383,77.3091,24.7,94,0.2,967.7,2.5,40.7,41,14.6,9.9,7.1,180.0,53.0,2.9,6,5,3,1,2026-07-20T21:23:05.010066+05:30
Gulbarga,Karnataka,17.3297,76.8343,24.2,92,0.1,958.7,6.6,48.2,30,10.8,6.9,8.3,183.0,42.0,3.0,6,5,7,1,2026-07-20T21:23:05.010073+05:30
Bidar,Karnataka,17.9104,77.5199,22.7,96,0.1,934.9,6.9,43.6,31,7.8,5.9,9.0,159.0,45.0,1.9,6,5,7,1,2026-07-20T21:23:05.010079+05:30
Hospet,Karnataka,15.2689,76.3909,24.0,86,0.0,957.3,8.15,52.6,26,5.1,3.7,5.8,124.0,42.0,1.7,3,5,7,1,2026-07-20T21:23:05.010086+05:30
Tirupur,Tamil Nadu,11.1085,77.3411,25.3,82,0.0,976.6,8.65,55.4,52,16.8,13.7,20.9,183.0,33.0,4.9,7,5,7,1,2026-07-20T21:23:05.010093+05:30
Alappuzha,Kerala,9.4981,76.3388,26.2,89,0.0,1011.6,8.5,27.0,50,17.6,12.5,13.2,91.0,34.0,3.7,7,0,4,1,2026-07-20T21:23:05.010100+05:30
Munnar,Kerala,10.0889,77.0595,16.4,90,0.0,858.2,8.45,41.8,25,8.8,7.0,9.9,114.0,31.0,2.2,3,10,7,0,2026-07-20T21:23:05.010108+05:30
Silchar,Assam,24.8333,92.7789,25.6,94,0.0,1005.0,1.95,23.0,58,14.1,13.9,9.8,333.0,38.0,4.1,7,5,0,1,2026-07-20T21:23:05.010115+05:30
Dibrugarh,Assam,27.4728,94.912,27.2,84,0.0,995.0,8.05,24.5,74,17.5,16.7,13.2,314.0,46.0,2.0,7,5,7,1,2026-07-20T21:23:05.010122+05:30
