city,state,latitude,longitude,temp,humidity,rain,pressure,uv_index,wind_gusts,aqi,pm10,pm2_5,no2,co,o3,so2,mosquito_risk,arthritis_risk,migraine_risk,frizz_risk,updated_at
Delhi,Delhi,28.6139,77.209,40.0,21,0.0,979.9,7.7,49.0,546,355.8,71.2,3.7,310.0,168.0,14.7,0,5,10,0,2026-05-17T12:17:24.089855+05:30
Mumbai,Maharashtra,19.076,72.8777,33.5,61,0.0,1006.3,7.45,45.0,60,37.1,19.4,3.9,182.0,109.0,7.8,3,5,4,1,2026-05-17T12:17:24.089908+05:30
Bangalore,Karnataka,12.9716,77.5946,33.2,31,0.0,910.9,9.45,36.7,119,40.3,22.1,3.1,297.0,147.0,7.9,0,5,7,0,2026-05-17T12:17:24.089925+05:30
Hyderabad,Telangana,17.385,78.4867,37.2,33,0.1,951.6,9.3,25.9,82,41.8,20.4,1.6,276.0,127.0,4.4,3,5,10,1,2026-05-17T12:17:24.089936+05:30
Chennai,Tamil Nadu,13.0827,80.2707,35.2,49,0.0,1003.8,9.15,40.7,53,29.6,20.1,2.8,256.0,132.0,9.9,0,5,7,1,2026-05-17T12:17:24.089945+05:30
Kolkata,West Bengal,22.5726,88.3639,36.2,57,0.0,1001.9,8.95,37.4,61,34.6,21.4,2.2,266.0,126.0,8.5,0,5,7,1,2026-05-17T12:17:24.089954+05:30
Pune,Maharashtra,18.5204,73.8567,37.0,28,0.0,947.1,8.5,38.9,67,39.6,21.2,2.6,193.0,156.0,14.2,0,5,10,0,2026-05-17T12:17:24.089962+05:30
Ahmedabad,Gujarat,23.0225,72.5714,40.5,23,0.0,999.6,8.15,30.2,61,66.6,23.5,1.5,158.0,105.0,5.1,0,5,10,0,2026-05-17T12:17:24.089969+05:30
Jaipur,Rajasthan,26.9124,75.7873,40.2,15,0.0,958.8,8.25,38.5,136,193.2,38.8,1.2,208.0,141.0,6.8,0,5,10,0,2026-05-17T12:17:24.089983+05:30
Lucknow,Uttar Pradesh,26.8467,80.9462,40.2,21,0.0,989.4,8.2,46.4,152,129.9,41.3,1.7,253.0,173.0,10.9,0,5,10,0,2026-05-17T12:17:24.089992+05:30
Kanpur,Uttar Pradesh,26.4499,80.3319,41.3,17,0.0,988.0,8.2,47.2,156,340.9,59.4,1.4,231.0,161.0,8.4,0,5,10,0,2026-05-17T12:17:24.090000+05:30
Chandigarh,Chandigarh,30.7333,76.7794,36.6,23,0.0,965.6,7.7,45.4,75,24.8,14.0,1.8,237.0,163.0,8.9,0,5,10,0,2026-05-17T12:17:24.090008+05:30
Srinagar,Jammu and Kashmir,34.0837,74.7973,23.8,44,0.0,844.1,8.9,16.2,80,19.4,12.5,1.4,314.0,136.0,2.9,0,5,7,0,2026-05-17T12:17:24.090016+05:30
Jammu,Jammu and Kashmir,32.7266,74.857,36.7,24,0.0,969.4,8.5,39.6,63,21.5,11.7,1.5,213.0,152.0,3.0,0,5,10,0,2026-05-17T12:17:24.090025+05:30
Amritsar,Punjab,31.634,74.8723,38.1,23,0.0,977.4,8.4,34.2,102,42.4,18.9,1.8,318.0,160.0,7.9,0,5,10,0,2026-05-17T12:17:24.090033+05:30
Ludhiana,Punjab,30.901,75.8573,37.8,22,0.0,975.7,8.0,37.1,90,35.9,16.9,1.3,298.0,154.0,4.4,0,5,10,0,2026-05-17T12:17:24.090041+05:30
Jalandhar,Punjab,31.326,75.5762,37.1,28,0.0,976.6,8.15,34.9,107,56.6,21.9,1.4,343.0,158.0,4.8,0,5,10,0,2026-05-17T12:17:24.090048+05:30
Dehradun,Uttarakhand,30.6284,78.0322,26.2,37,0.0,831.5,8.15,45.0,59,30.9,11.6,0.6,163.0,130.0,0.6,4,5,7,0,2026-05-17T12:17:24.090055+05:30
Shimla,Himachal Pradesh,31.1048,77.1734,24.1,23,0.0,787.6,8.25,52.2,64,17.9,8.7,0.6,163.0,141.0,1.5,0,5,7,0,2026-05-17T12:17:24.090067+05:30
Manali,Himachal Pradesh,32.2396,77.1887,24.1,30,0.0,818.9,9.85,37.8,81,12.8,6.3,1.7,169.0,146.0,0.4,0,5,7,0,2026-05-17T12:17:24.090075+05:30
Gurgaon,Haryana,28.4595,77.0266,39.5,22,0.0,978.7,7.8,47.5,846,1106.4,148.5,3.6,295.0,171.0,13.8,0,5,10,0,2026-05-17T12:17:24.090082+05:30
Noida,Uttar Pradesh,28.5355,77.391,39.2,24,0.0,981.1,7.75,38.9,846,1106.4,148.5,3.6,337.0,171.0,13.8,0,5,10,0,2026-05-17T12:17:24.090088+05:30
Ghaziabad,Uttar Pradesh,28.6692,77.4538,38.7,24,0.0,979.4,7.7,44.3,395,269.2,63.1,3.6,308.0,182.0,17.9,0,5,10,0,2026-05-17T12:17:24.090094+05:30
Faridabad,Haryana,28.4089,77.3178,39.7,21,0.0,980.5,7.75,49.7,846,1106.4,148.5,3.6,318.0,171.0,13.8,0,5,10,0,2026-05-17T12:17:24.090103+05:30
Meerut,Uttar Pradesh,28.9845,77.7064,37.9,25,0.0,978.4,7.65,47.5,395,269.2,63.1,3.6,277.0,182.0,17.9,0,5,10,0,2026-05-17T12:17:24.090110+05:30
Agra,Uttar Pradesh,27.1767,78.0081,40.0,20,0.0,985.0,8.05,41.8,706,532.7,98.7,2.5,280.0,186.0,17.5,0,5,10,0,2026-05-17T12:17:24.090116+05:30
Varanasi,Uttar Pradesh,25.3176,82.9739,42.0,16,0.0,992.8,8.7,51.1,153,191.9,48.4,1.8,291.0,169.0,12.6,0,5,10,0,2026-05-17T12:17:24.090123+05:30
Prayagraj,Uttar Pradesh,25.4358,81.8463,42.0,16,0.0,991.7,8.6,42.1,153,332.5,64.7,1.9,246.0,171.0,13.7,0,5,10,0,2026-05-17T12:17:24.090130+05:30
Gorakhpur,Uttar Pradesh,26.7606,83.3732,37.6,30,0.0,992.2,8.6,43.2,149,101.5,51.6,2.3,412.0,204.0,14.2,0,5,10,1,2026-05-17T12:17:24.090139+05:30
Bareilly,Uttar Pradesh,28.367,79.4304,36.8,29,0.0,982.9,8.0,41.4,121,51.2,31.2,2.3,283.0,182.0,12.6,0,5,10,0,2026-05-17T12:17:24.090161+05:30
Aligarh,Uttar Pradesh,27.8974,78.088,38.6,25,0.0,982.5,7.9,45.0,570,573.7,97.1,3.2,308.0,185.0,19.7,0,5,10,0,2026-05-17T12:17:24.090168+05:30
Moradabad,Uttar Pradesh,28.8386,78.7733,37.5,26,0.0,980.0,7.85,47.5,150,68.2,36.6,2.7,308.0,180.0,12.3,0,5,10,0,2026-05-17T12:17:24.090175+05:30
Saharanpur,Uttar Pradesh,29.9637,77.546,36.2,26,0.0,972.1,7.35,49.7,99,49.2,20.8,2.6,237.0,170.0,11.8,0,5,10,0,2026-05-17T12:17:24.090182+05:30
Jhansi,Uttar Pradesh,25.4484,78.5685,41.3,16,0.0,975.5,8.45,33.5,114,439.6,69.6,1.4,210.0,149.0,11.3,0,5,10,0,2026-05-17T12:17:27.336122+05:30
Surat,Gujarat,21.1702,72.8311,40.4,26,0.0,1003.8,7.75,38.5,87,81.3,42.7,24.0,145.0,108.0,66.0,0,5,7,1,2026-05-17T12:17:27.336177+05:30
Vadodara,Gujarat,22.3072,73.1812,41.0,22,0.0,1001.4,8.1,31.3,72,59.8,24.0,2.3,175.0,123.0,9.7,0,5,7,0,2026-05-17T12:17:27.336188+05:30
Rajkot,Gujarat,22.3039,70.8022,38.8,25,0.0,992.9,7.15,41.4,53,59.8,20.5,1.3,126.0,102.0,4.6,0,5,10,0,2026-05-17T12:17:27.336197+05:30
Thane,Maharashtra,19.2183,72.9781,37.5,44,0.0,1005.0,7.55,38.9,60,37.1,19.4,3.9,169.0,109.0,7.8,0,5,7,1,2026-05-17T12:17:27.336205+05:30
Nagpur,Maharashtra,21.1458,79.0882,41.5,20,0.0,970.7,8.95,34.2,111,38.1,28.2,8.5,235.0,149.0,34.3,0,5,10,0,2026-05-17T12:17:27.336212+05:30
Nashik,Maharashtra,19.9975,73.7898,37.3,26,0.0,944.8,8.2,42.1,62,36.1,15.1,1.1,140.0,110.0,3.9,0,5,10,0,2026-05-17T12:17:27.336219+05:30
Aurangabad,Maharashtra,19.8762,75.3433,39.2,17,0.0,943.2,9.05,41.0,57,29.3,14.6,1.3,166.0,141.0,8.4,0,5,10,0,2026-05-17T12:17:27.336226+05:30
Solapur,Maharashtra,17.6599,75.9064,40.6,19,0.0,954.8,9.1,34.2,81,35.7,27.0,2.1,200.0,174.0,9.9,0,5,10,0,2026-05-17T12:17:27.336234+05:30
Kolhapur,Maharashtra,16.705,74.2433,36.5,36,0.0,946.4,8.95,45.4,60,28.3,18.2,1.7,191.0,140.0,7.5,0,5,10,1,2026-05-17T12:17:27.336241+05:30
Goa,Goa,15.2993,74.124,35.2,53,0.0,995.2,8.9,42.8,56,30.3,14.3,0.7,150.0,78.0,1.7,0,5,10,1,2026-05-17T12:17:27.336249+05:30
Jodhpur,Rajasthan,26.2389,73.0243,41.2,18,0.0,981.2,8.4,29.2,88,81.5,18.8,0.7,144.0,116.0,4.6,0,5,10,0,2026-05-17T12:17:27.336257+05:30
Udaipur,Rajasthan,24.5854,73.7125,38.3,20,0.0,946.0,8.85,28.1,50,74.0,17.5,0.5,141.0,113.0,3.5,0,5,10,0,2026-05-17T12:17:27.336264+05:30
Kota,Rajasthan,25.2138,75.8648,42.2,15,0.0,976.6,8.4,37.1,96,408.9,69.8,2.6,220.0,151.0,15.2,0,5,10,0,2026-05-17T12:17:27.336271+05:30
Bikaner,Rajasthan,28.0229,73.3119,41.7,16,0.0,979.7,8.4,37.1,88,154.1,29.9,0.3,135.0,106.0,2.0,0,5,10,0,2026-05-17T12:17:27.336278+05:30
Ajmer,Rajasthan,26.4499,74.6399,39.0,17,0.0,954.1,8.4,36.4,88,110.1,27.2,0.6,147.0,133.0,4.8,0,5,10,0,2026-05-17T12:17:27.336285+05:30
Gwalior,Madhya Pradesh,26.2183,78.1828,41.2,16,0.0,980.6,8.25,42.1,269,403.3,69.8,0.9,207.0,150.0,10.3,0,5,10,0,2026-05-17T12:17:27.336293+05:30
Indore,Madhya Pradesh,22.7196,75.8577,39.9,14,0.0,946.7,8.7,42.1,47,32.2,12.6,0.9,172.0,122.0,3.6,0,5,10,0,2026-05-17T12:17:27.336300+05:30
Bhopal,Madhya Pradesh,23.2599,77.4126,40.9,15,0.0,951.9,8.7,41.4,53,33.2,15.3,0.9,166.0,131.0,6.1,0,5,10,0,2026-05-17T12:17:27.336307+05:30
Jabalpur,Madhya Pradesh,23.1815,79.9864,41.3,15,0.0,959.2,8.9,38.5,99,37.1,21.2,1.4,227.0,146.0,6.2,0,5,10,0,2026-05-17T12:17:27.336314+05:30
Ujjain,Madhya Pradesh,23.1765,75.7885,40.3,16,0.0,952.1,8.65,40.0,50,51.6,17.3,0.8,162.0,124.0,5.0,0,5,10,0,2026-05-17T12:17:27.336321+05:30
Visakhapatnam,Andhra Pradesh,17.6868,83.2185,34.8,56,0.0,1001.2,8.6,46.1,57,26.8,18.0,7.3,269.0,98.0,28.2,0,5,4,1,2026-05-17T12:17:27.336329+05:30
Vijayawada,Andhra Pradesh,16.5062,80.648,37.7,43,0.0,999.9,9.2,37.1,49,14.7,10.2,1.4,189.0,104.0,5.7,0,5,10,1,2026-05-17T12:17:27.336335+05:30
Guntur,Andhra Pradesh,16.3067,80.4365,37.8,42,0.0,1001.1,9.2,31.7,49,14.2,9.3,1.0,178.0,101.0,3.0,0,5,7,1,2026-05-17T12:17:27.336343+05:30
Nellore,Andhra Pradesh,14.4426,79.9865,37.5,43,0.0,1002.3,9.1,38.5,46,25.0,21.4,2.2,212.0,144.0,14.2,0,5,7,1,2026-05-17T12:17:27.336351+05:30
Kurnool,Andhra Pradesh,15.8281,78.0373,38.5,33,0.0,974.3,9.2,34.2,74,34.1,14.9,0.9,168.0,105.0,3.2,0,5,10,1,2026-05-17T12:17:27.336359+05:30
Kakinada,Andhra Pradesh,16.9891,82.2475,37.6,43,0.0,1004.6,8.7,41.4,37,17.8,12.0,0.6,184.0,93.0,1.8,0,5,7,1,2026-05-17T12:17:27.336366+05:30
Tirupati,Andhra Pradesh,13.6288,79.4192,35.2,48,0.0,988.1,9.25,32.0,61,21.5,18.0,1.6,264.0,131.0,11.3,0,5,10,1,2026-05-17T12:17:27.336373+05:30
Warangal,Telangana,17.9689,79.5941,36.7,41,0.0,976.7,8.8,31.0,76,31.8,15.7,1.5,183.0,112.0,5.0,0,5,10,1,2026-05-17T12:17:27.336380+05:30
Nizamabad,Telangana,18.6725,78.0941,39.3,26,0.0,962.5,9.15,32.0,83,44.6,31.1,1.6,249.0,153.0,10.5,0,5,10,1,2026-05-17T12:17:27.336386+05:30
Mysore,Karnataka,12.2958,76.6396,31.2,50,0.0,927.0,8.9,48.2,90,37.7,22.8,2.1,269.0,146.0,4.8,0,5,7,1,2026-05-17T12:17:27.336393+05:30
Mangalore,Karnataka,12.9141,74.856,29.0,80,0.1,1004.8,8.7,39.6,67,22.8,13.6,1.5,130.0,74.0,1.8,10,5,4,1,2026-05-17T12:17:27.336400+05:30
Hubli-Dharwad,Karnataka,15.3647,75.124,36.0,38,0.0,939.4,9.15,48.6,57,27.8,18.9,1.5,189.0,140.0,5.2,0,5,10,1,2026-05-17T12:17:27.336407+05:30
Belgaum,Karnataka,15.8497,74.4977,34.6,39,0.0,925.1,9.15,44.6,57,26.5,16.8,1.5,184.0,126.0,6.1,0,5,7,1,2026-05-17T12:17:30.570040+05:30
Coimbatore,Tamil Nadu,11.0168,76.9558,32.5,45,0.0,959.8,8.7,44.3,69,42.7,23.6,1.5,255.0,135.0,4.9,0,5,7,1,2026-05-17T12:17:30.570078+05:30
Madurai,Tamil Nadu,9.9252,78.1198,34.0,52,0.1,990.2,8.75,31.3,98,40.0,21.2,1.9,267.0,139.0,3.9,3,5,7,1,2026-05-17T12:17:30.570090+05:30
Trichy,Tamil Nadu,10.7905,78.7047,33.4,56,0.1,996.7,8.35,20.9,87,50.6,26.9,1.7,257.0,131.0,4.1,3,5,7,1,2026-05-17T12:17:30.570099+05:30
Salem,Tamil Nadu,11.6643,78.146,33.6,53,0.0,974.9,8.55,27.7,107,49.4,31.2,3.5,299.0,170.0,16.1,0,5,7,1,2026-05-17T12:17:30.570107+05:30
Tirunelveli,Tamil Nadu,8.7139,77.7567,36.9,40,0.0,1000.2,8.95,35.6,53,13.2,7.9,0.9,241.0,100.0,1.4,0,5,7,1,2026-05-17T12:17:30.570115+05:30
Vellore,Tamil Nadu,12.9165,79.1325,34.3,51,0.0,981.5,9.2,27.7,92,24.9,20.7,2.3,269.0,130.0,16.8,0,5,7,1,2026-05-17T12:17:30.570124+05:30
Erode,Tamil Nadu,11.341,77.7172,34.0,52,0.0,986.2,8.55,46.8,88,37.7,22.3,2.4,316.0,158.0,4.2,0,5,7,1,2026-05-17T12:17:30.570134+05:30
Kochi,Kerala,9.9312,76.2673,29.0,78,0.0,1007.2,8.65,33.1,55,12.5,8.9,2.5,151.0,100.0,3.7,7,5,4,1,2026-05-17T12:17:30.570159+05:30
Thiruvananthapuram,Kerala,8.5241,76.9366,29.1,78,0.0,1007.0,8.3,36.0,47,15.1,9.4,0.9,159.0,93.0,0.7,7,5,4,1,2026-05-17T12:17:30.570166+05:30
Kozhikode,Kerala,11.2588,75.7804,28.2,84,0.1,1005.9,8.9,42.1,52,15.9,10.1,0.9,166.0,82.0,1.5,10,5,4,1,2026-05-17T12:17:30.570173+05:30
Thrissur,Kerala,10.5276,76.2144,29.1,78,0.1,1005.2,8.9,36.7,60,11.9,8.5,2.4,168.0,92.0,3.2,10,5,4,1,2026-05-17T12:17:30.570180+05:30
Kannur,Kerala,11.8745,75.3704,30.9,70,0.0,1004.3,8.95,45.0,57,20.8,13.5,1.8,164.0,81.0,1.9,3,5,4,1,2026-05-17T12:17:30.570187+05:30
Patna,Bihar,25.5941,85.1376,37.7,35,0.0,995.5,8.8,35.6,151,121.5,58.0,3.0,407.0,216.0,14.9,0,5,10,1,2026-05-17T12:17:30.570193+05:30
Gaya,Bihar,24.7914,85.0002,39.5,23,0.0,989.3,8.85,44.3,150,138.8,41.6,1.0,239.0,154.0,7.7,0,5,10,0,2026-05-17T12:17:30.570200+05:30
Muzaffarpur,Bihar,26.1209,85.3647,35.5,52,0.0,995.5,8.8,28.8,150,93.6,61.2,3.0,446.0,211.0,15.9,0,5,10,1,2026-05-17T12:17:30.570206+05:30
Bhagalpur,Bihar,25.2425,87.0117,35.5,53,0.0,996.5,8.8,35.3,153,79.4,55.9,4.3,518.0,214.0,24.7,0,5,10,1,2026-05-17T12:17:30.570212+05:30
Ranchi,Jharkhand,23.3441,85.3096,35.4,33,0.0,936.3,9.3,37.8,113,82.9,49.2,1.2,219.0,167.0,15.7,0,5,10,1,2026-05-17T12:17:30.570219+05:30
Jamshedpur,Jharkhand,22.8046,86.2029,38.6,34,0.0,987.0,9.1,36.0,104,73.6,50.6,2.8,269.0,195.0,22.6,0,5,10,1,2026-05-17T12:17:30.570225+05:30
Dhanbad,Jharkhand,23.7957,86.4304,38.0,28,0.0,976.5,9.05,42.1,152,110.1,54.9,6.2,243.0,189.0,39.9,0,5,10,1,2026-05-17T12:17:30.570231+05:30
Bokaro,Jharkhand,23.6693,86.1511,37.7,31,0.0,980.2,9.05,39.6,152,101.0,50.6,5.7,233.0,179.0,34.9,0,5,10,1,2026-05-17T12:17:30.570238+05:30
Bhubaneswar,Odisha,20.2961,85.8245,38.1,44,0.0,999.3,8.95,43.9,46,30.5,18.0,1.5,225.0,113.0,7.8,0,5,10,1,2026-05-17T12:17:30.570245+05:30
Cuttack,Odisha,20.4625,85.8828,38.0,44,0.0,1000.9,9.0,41.8,46,30.5,18.0,1.5,226.0,113.0,7.8,0,5,7,1,2026-05-17T12:17:30.570251+05:30
Rourkela,Odisha,22.2604,84.8536,38.0,37,0.0,982.2,9.05,35.3,118,72.4,50.9,2.2,282.0,186.0,14.3,0,5,10,1,2026-05-17T12:17:30.570258+05:30
Raipur,Chhattisgarh,21.2514,81.6296,40.0,28,0.0,972.3,9.05,33.1,143,53.8,39.8,7.0,450.0,161.0,35.0,0,5,10,1,2026-05-17T12:17:30.570264+05:30
Bhilai,Chhattisgarh,21.1938,81.3509,39.0,30,0.0,972.7,9.0,34.9,139,44.9,32.5,6.5,584.0,148.0,30.0,0,5,10,1,2026-05-17T12:17:30.570270+05:30
Guwahati,Assam,26.1158,91.7086,24.7,95,0.6,999.0,8.75,32.0,85,17.8,14.5,1.4,299.0,121.0,3.5,6,5,7,1,2026-05-17T12:17:30.570277+05:30
Agartala,Tripura,23.8315,91.2868,33.5,61,0.0,1002.5,8.9,38.2,68,40.4,21.4,3.8,170.0,98.0,4.7,3,5,4,1,2026-05-17T12:17:30.570284+05:30
Shillong,Meghalaya,25.5788,91.8933,24.6,61,0.1,856.4,9.15,45.0,60,7.7,5.8,1.7,254.0,97.0,3.4,6,5,7,1,2026-05-17T12:17:30.570290+05:30
Imphal,Manipur,24.817,93.9368,28.2,62,0.0,921.9,9.0,35.3,69,31.2,17.4,0.5,195.0,107.0,3.7,7,5,7,1,2026-05-17T12:17:30.570296+05:30
Aizawl,Mizoram,23.7271,92.7176,28.0,52,0.0,892.3,9.05,35.6,49,31.4,16.6,0.4,176.0,95.0,2.8,4,5,7,1,2026-05-17T12:17:30.570302+05:30
Kohima,Nagaland,25.6701,94.1077,22.8,81,0.0,854.5,8.7,29.5,65,20.0,12.8,0.7,208.0,108.0,2.6,3,5,7,1,2026-05-17T12:17:30.570308+05:30
Gangtok,Sikkim,27.3314,88.6138,24.9,49,0.0,837.4,9.15,34.9,54,23.1,18.0,0.7,271.0,138.0,2.1,0,5,7,0,2026-05-17T12:17:30.570314+05:30
Siliguri,West Bengal,26.7271,88.3953,28.2,69,0.0,989.5,8.7,27.0,86,37.4,28.2,1.5,350.0,147.0,4.6,7,5,7,1,2026-05-17T12:17:33.813701+05:30
Durgapur,West Bengal,23.5204,87.3119,39.2,38,0.0,990.5,8.95,44.6,147,102.9,67.8,10.1,523.0,225.0,59.4,0,5,10,1,2026-05-17T12:17:33.813739+05:30
Asansol,West Bengal,23.6739,86.9524,36.8,37,0.0,989.4,9.0,38.2,142,109.2,60.8,7.8,422.0,205.0,46.3,0,5,10,1,2026-05-17T12:17:33.813750+05:30
Pondicherry,Puducherry,11.9139,79.8145,31.8,68,0.1,1005.3,9.05,38.2,66,40.7,28.2,4.8,253.0,140.0,19.1,6,5,4,1,2026-05-17T12:17:33.813758+05:30
Port Blair,Andaman and Nicobar Islands,11.6234,92.7265,26.9,93,0.2,1006.8,1.25,42.5,31,9.7,5.9,0.3,106.0,60.0,0.2,10,5,0,1,2026-05-17T12:17:33.813767+05:30
Haridwar,Uttarakhand,29.9457,78.1642,35.0,33,0.0,970.4,7.5,38.9,86,27.2,17.8,1.9,222.0,172.0,8.5,0,5,7,1,2026-05-17T12:17:33.813775+05:30
Rishikesh,Uttarakhand,30.0869,78.2676,34.8,32,0.0,963.1,7.65,34.9,75,32.9,14.6,0.9,180.0,152.0,4.0,0,5,7,0,2026-05-17T12:17:33.813783+05:30
Nainital,Uttarakhand,29.3919,79.4542,24.6,36,0.0,807.3,8.5,39.6,70,35.2,18.3,1.4,193.0,163.0,7.8,0,5,7,0,2026-05-17T12:17:33.813790+05:30
Mussoorie,Uttarakhand,30.4599,78.0664,24.4,34,0.0,805.0,8.05,51.8,78,33.2,15.7,1.2,159.0,157.0,4.8,0,5,7,0,2026-05-17T12:17:33.813798+05:30
Dharamshala,Himachal Pradesh,32.219,76.3234,26.9,38,0.0,869.6,8.4,44.6,50,17.2,7.7,0.5,184.0,135.0,0.7,4,5,7,0,2026-05-17T12:17:33.813805+05:30
Dalhousie,Himachal Pradesh,32.5387,75.971,24.3,34,0.0,807.0,8.65,39.2,69,28.1,13.8,1.2,170.0,151.0,1.7,0,5,7,0,2026-05-17T12:17:33.813812+05:30
Patiala,Punjab,30.3398,76.3869,38.3,21,0.0,975.1,7.6,45.4,487,599.8,71.7,1.5,285.0,158.0,7.3,0,5,10,0,2026-05-17T12:17:33.813819+05:30
Bhatinda,Punjab,30.211,74.9455,39.4,24,0.0,980.7,8.25,37.8,89,70.8,26.4,2.7,315.0,156.0,15.1,0,5,10,0,2026-05-17T12:17:33.813827+05:30
Rohtak,Haryana,28.8955,76.6066,39.0,24,0.0,978.8,7.75,47.2,679,558.8,83.1,1.5,299.0,150.0,7.1,0,5,10,0,2026-05-17T12:17:33.813833+05:30
Panipat,Haryana,29.3909,76.9635,38.4,24,0.0,977.1,7.6,51.8,1443,1523.6,172.8,2.4,298.0,153.0,12.1,0,5,10,0,2026-05-17T12:17:33.813841+05:30
Mathura,Uttar Pradesh,27.4924,77.6737,39.3,23,0.0,984.0,8.0,44.6,725,517.8,85.7,1.6,270.0,161.0,10.7,0,5,10,0,2026-05-17T12:17:33.813848+05:30
Vrindavan,Uttar Pradesh,27.5823,77.7027,39.1,24,0.0,984.4,7.95,42.5,725,517.8,85.7,1.6,274.0,161.0,10.7,0,5,10,0,2026-05-17T12:17:33.813856+05:30
Ayodhya,Uttar Pradesh,26.7922,82.1998,39.0,24,0.0,990.5,8.35,43.2,151,169.5,54.5,2.2,270.0,190.0,16.1,0,5,10,0,2026-05-17T12:17:33.813863+05:30
Ratlam,Madhya Pradesh,23.3315,75.0367,39.4,20,0.0,953.3,8.55,37.4,52,54.1,17.7,0.8,160.0,119.0,4.4,0,5,10,0,2026-05-17T12:17:33.813870+05:30
Sagar,Madhya Pradesh,23.8388,78.7378,40.5,14,0.0,948.7,8.75,40.0,74,68.7,25.1,0.7,167.0,136.0,4.7,0,5,10,0,2026-05-17T12:17:33.813877+05:30
Satna,Madhya Pradesh,24.6005,80.8322,40.5,18,0.0,968.8,8.75,45.0,105,116.4,39.8,1.1,189.0,156.0,9.5,0,5,10,0,2026-05-17T12:17:33.813884+05:30
Akola,Maharashtra,20.7002,77.0082,41.2,18,0.0,972.8,8.95,34.9,51,20.8,12.3,1.6,159.0,146.0,7.5,0,5,10,0,2026-05-17T12:17:33.813892+05:30
Amravati,Maharashtra,20.9374,77.7796,40.9,18,0.0,965.2,8.95,28.1,54,19.9,12.5,2.3,155.0,143.0,9.6,0,5,10,0,2026-05-17T12:17:33.813900+05:30
Latur,Maharashtra,18.4088,76.5604,39.2,20,0.0,938.4,9.1,34.9,74,19.6,14.0,1.7,167.0,149.0,10.1,0,5,10,0,2026-05-17T12:17:33.813908+05:30
Nanded,Maharashtra,19.1383,77.3091,41.0,19,0.0,966.1,9.0,33.8,71,18.7,12.4,1.4,173.0,148.0,5.1,0,5,10,0,2026-05-17T12:17:33.813915+05:30
Gulbarga,Karnataka,17.3297,76.8343,39.5,25,0.0,956.4,9.1,34.2,85,49.0,32.8,1.9,244.0,162.0,8.5,0,5,10,0,2026-05-17T12:17:33.813923+05:30
Bidar,Karnataka,17.9104,77.5199,38.0,25,0.0,934.4,9.15,33.8,79,45.4,29.7,1.6,228.0,151.0,10.9,0,5,10,0,2026-05-17T12:17:33.813930+05:30
Hospet,Karnataka,15.2689,76.3909,33.7,52,0.0,954.0,9.2,37.4,90,38.0,24.6,2.6,213.0,140.0,12.6,0,5,7,1,2026-05-17T12:17:33.813937+05:30
Tirupur,Tamil Nadu,11.1085,77.3411,35.1,41,0.0,972.7,8.9,46.8,92,48.8,28.6,2.5,254.0,163.0,6.1,0,5,10,1,2026-05-17T12:17:33.813943+05:30
Alappuzha,Kerala,9.4981,76.3388,28.9,75,0.0,1007.5,8.65,32.4,54,14.3,9.2,2.0,167.0,102.0,2.6,7,5,4,1,2026-05-17T12:17:33.813950+05:30
Munnar,Kerala,10.0889,77.0595,20.5,95,0.0,856.2,7.8,25.9,58,21.5,11.1,0.8,189.0,104.0,1.8,3,5,7,1,2026-05-17T12:17:33.813957+05:30
Silchar,Assam,24.8333,92.7789,29.6,75,0.3,1002.6,8.9,31.3,65,21.6,11.4,0.9,186.0,95.0,3.0,10,5,4,1,2026-05-17T12:17:33.813964+05:30
Dibrugarh,Assam,27.4728,94.912,24.5,89,0.2,993.9,5.05,28.1,73,33.3,21.5,1.1,222.0,115.0,2.0,6,5,3,1,2026-05-17T12:17:33.813970+05:30
