city,state,latitude,longitude,temp,humidity,rain,pressure,uv_index,wind_gusts,aqi,pm10,pm2_5,no2,co,o3,so2,mosquito_risk,arthritis_risk,migraine_risk,frizz_risk,updated_at
Delhi,Delhi,28.6139,77.209,31.2,73,0.0,975.3,6.3,34.2,90,19.6,19.5,6.9,291.0,152.0,18.9,3,5,7,1,2026-07-24T13:03:11.251533+05:30
Mumbai,Maharashtra,19.076,72.8777,27.8,83,0.2,1004.0,7.55,64.8,61,35.5,15.9,4.9,139.0,59.0,6.6,10,5,4,1,2026-07-24T13:03:11.251574+05:30
Bangalore,Karnataka,12.9716,77.5946,29.5,48,0.0,911.6,8.7,61.2,46,57.3,21.8,2.2,201.0,82.0,2.3,4,5,7,1,2026-07-24T13:03:11.251589+05:30
Hyderabad,Telangana,17.385,78.4867,29.5,57,0.0,950.2,5.55,63.7,66,16.1,8.3,1.5,161.0,73.0,2.9,4,5,3,1,2026-07-24T13:03:11.251599+05:30
Chennai,Tamil Nadu,13.0827,80.2707,33.6,54,0.0,1004.7,8.1,35.3,72,36.0,24.7,6.6,203.0,129.0,11.1,0,5,4,1,2026-07-24T13:03:11.251607+05:30
Kolkata,West Bengal,22.5726,88.3639,28.6,80,0.1,998.8,4.75,28.4,70,23.4,19.6,5.1,249.0,96.0,8.9,10,5,3,1,2026-07-24T13:03:11.251615+05:30
Pune,Maharashtra,18.5204,73.8567,26.1,78,0.1,943.8,6.2,65.2,19,7.4,4.0,1.8,122.0,50.0,2.4,10,5,7,1,2026-07-24T13:03:11.251622+05:30
Ahmedabad,Gujarat,23.0225,72.5714,27.4,85,0.1,993.2,1.8,42.5,51,7.7,6.4,9.2,192.0,66.0,3.5,10,5,3,1,2026-07-24T13:03:11.251628+05:30
Jaipur,Rajasthan,26.9124,75.7873,31.1,67,0.0,951.3,7.25,27.0,73,11.6,11.2,2.7,238.0,102.0,6.8,3,5,7,1,2026-07-24T13:03:11.251635+05:30
Lucknow,Uttar Pradesh,26.8467,80.9462,31.9,71,0.0,986.7,7.55,24.5,74,12.7,12.1,2.3,189.0,99.0,5.6,3,5,7,1,2026-07-24T13:03:11.251645+05:30
Kanpur,Uttar Pradesh,26.4499,80.3319,32.2,66,0.0,984.8,7.2,27.0,65,12.3,11.4,1.5,150.0,111.0,5.5,3,5,7,1,2026-07-24T13:03:11.251652+05:30
Chandigarh,Chandigarh,30.7333,76.7794,32.3,61,0.0,962.8,7.6,26.6,85,21.5,21.4,2.4,276.0,172.0,8.3,3,5,7,1,2026-07-24T13:03:11.251658+05:30
Srinagar,Jammu and Kashmir,34.0837,74.7973,19.1,93,0.1,840.2,5.35,17.6,73,13.3,13.2,9.5,357.0,67.0,3.0,6,10,3,1,2026-07-24T13:03:11.251665+05:30
Jammu,Jammu and Kashmir,32.7266,74.857,31.5,63,0.0,967.5,8.25,31.7,100,16.4,16.0,3.5,267.0,112.0,2.3,3,5,7,1,2026-07-24T13:03:11.251674+05:30
Amritsar,Punjab,31.634,74.8723,31.1,71,0.0,974.7,8.35,29.5,100,27.9,27.5,1.9,354.0,151.0,7.5,3,5,7,1,2026-07-24T13:03:11.251680+05:30
Ludhiana,Punjab,30.901,75.8573,32.9,60,0.0,972.1,7.85,31.3,107,28.3,28.2,1.9,304.0,178.0,9.2,0,5,7,1,2026-07-24T13:03:11.251689+05:30
Jalandhar,Punjab,31.326,75.5762,32.5,67,0.0,973.5,8.05,23.0,118,27.8,27.4,1.5,319.0,180.0,10.3,3,5,7,1,2026-07-24T13:03:11.251695+05:30
Dehradun,Uttarakhand,30.6284,78.0322,22.0,82,0.1,828.2,7.8,26.6,53,7.0,6.8,1.2,157.0,111.0,1.3,6,5,7,1,2026-07-24T13:03:11.251701+05:30
Shimla,Himachal Pradesh,31.1048,77.1734,17.6,94,0.2,782.3,6.85,22.0,47,8.1,7.9,1.4,177.0,111.0,2.7,6,10,7,1,2026-07-24T13:03:11.251707+05:30
Manali,Himachal Pradesh,32.2396,77.1887,26.0,68,0.1,818.2,9.4,29.5,25,2.7,2.5,0.7,164.0,98.0,0.8,10,5,7,1,2026-07-24T13:03:11.251716+05:30
Gurgaon,Haryana,28.4595,77.0266,31.7,70,0.0,973.6,6.75,38.9,100,12.6,12.6,5.9,299.0,122.0,11.8,3,5,7,1,2026-07-24T13:03:11.251722+05:30
Noida,Uttar Pradesh,28.5355,77.391,31.7,73,0.0,976.9,6.75,36.7,100,12.6,12.6,5.9,247.0,122.0,11.8,3,5,7,1,2026-07-24T13:03:11.251728+05:30
Ghaziabad,Uttar Pradesh,28.6692,77.4538,31.4,74,0.0,975.2,6.95,39.2,82,16.1,16.1,2.8,250.0,136.0,10.4,3,5,7,1,2026-07-24T13:03:11.251734+05:30
Faridabad,Haryana,28.4089,77.3178,31.4,72,0.0,976.1,6.85,38.9,100,12.6,12.6,5.9,238.0,122.0,11.8,3,5,7,1,2026-07-24T13:03:11.251739+05:30
Meerut,Uttar Pradesh,28.9845,77.7064,31.2,73,0.0,974.3,6.25,44.3,82,16.1,16.1,2.8,248.0,136.0,10.4,3,5,7,1,2026-07-24T13:03:11.251745+05:30
Agra,Uttar Pradesh,27.1767,78.0081,33.0,62,0.1,979.6,6.7,27.7,86,12.7,12.0,2.0,197.0,117.0,4.9,6,5,7,1,2026-07-24T13:03:11.251751+05:30
Varanasi,Uttar Pradesh,25.3176,82.9739,32.1,68,0.0,990.9,7.5,21.2,78,15.6,14.0,1.6,274.0,116.0,7.6,3,5,7,1,2026-07-24T13:03:11.251758+05:30
Prayagraj,Uttar Pradesh,25.4358,81.8463,32.3,67,0.0,989.2,8.5,19.8,66,15.6,14.2,2.8,158.0,104.0,8.1,3,5,7,1,2026-07-24T13:03:11.251764+05:30
Gorakhpur,Uttar Pradesh,26.7606,83.3732,31.5,71,0.0,990.6,6.9,27.4,82,15.7,15.6,2.5,310.0,125.0,5.9,3,5,7,1,2026-07-24T13:03:11.251770+05:30
Bareilly,Uttar Pradesh,28.367,79.4304,31.2,75,0.0,980.0,6.95,38.9,79,17.6,17.6,2.3,226.0,139.0,10.2,3,5,7,1,2026-07-24T13:03:11.251798+05:30
Aligarh,Uttar Pradesh,27.8974,78.088,31.9,71,0.0,978.0,5.4,31.7,86,8.9,8.7,3.5,186.0,100.0,7.2,3,5,3,1,2026-07-24T13:03:11.251808+05:30
Moradabad,Uttar Pradesh,28.8386,78.7733,31.8,71,0.0,976.8,7.1,44.6,75,20.2,20.2,2.4,282.0,146.0,9.9,3,5,7,1,2026-07-24T13:03:11.251815+05:30
Saharanpur,Uttar Pradesh,29.9637,77.546,31.8,67,0.1,969.1,7.25,43.9,78,20.3,20.3,1.7,261.0,149.0,5.1,6,5,7,1,2026-07-24T13:03:11.251821+05:30
Jhansi,Uttar Pradesh,25.4484,78.5685,33.1,56,0.0,970.4,7.3,32.4,61,5.5,5.2,1.8,126.0,90.0,7.2,0,5,7,1,2026-07-24T13:03:14.718642+05:30
Surat,Gujarat,21.1702,72.8311,30.2,74,0.0,999.2,5.95,55.4,60,31.2,17.3,13.8,278.0,34.0,32.7,3,5,3,1,2026-07-24T13:03:14.718673+05:30
Vadodara,Gujarat,22.3072,73.1812,30.1,67,0.1,995.7,2.7,50.4,43,8.7,5.9,6.9,149.0,37.0,2.9,6,5,3,1,2026-07-24T13:03:14.718684+05:30
Rajkot,Gujarat,22.3039,70.8022,26.5,95,0.3,985.7,1.25,49.0,52,12.5,6.8,6.3,137.0,42.0,4.4,10,5,3,1,2026-07-24T13:03:14.718692+05:30
Thane,Maharashtra,19.2183,72.9781,26.6,87,0.2,1003.2,7.6,52.9,61,35.5,15.9,4.9,135.0,59.0,6.6,10,5,4,1,2026-07-24T13:03:14.718700+05:30
Nagpur,Maharashtra,21.1458,79.0882,30.7,64,0.0,967.8,8.2,47.5,58,12.9,8.2,5.1,124.0,70.0,17.4,3,5,7,1,2026-07-24T13:03:14.718708+05:30
Nashik,Maharashtra,19.9975,73.7898,26.0,81,0.1,939.9,7.05,59.8,20,14.7,6.3,2.1,115.0,50.0,2.5,10,5,7,1,2026-07-24T13:03:14.718715+05:30
Aurangabad,Maharashtra,19.8762,75.3433,26.1,80,0.1,938.8,7.25,62.3,21,13.9,6.4,1.1,106.0,71.0,3.9,10,5,7,1,2026-07-24T13:03:14.718723+05:30
Solapur,Maharashtra,17.6599,75.9064,31.5,52,0.1,954.0,5.95,64.8,55,18.8,7.7,0.8,100.0,62.0,1.2,3,5,3,1,2026-07-24T13:03:14.718730+05:30
Kolhapur,Maharashtra,16.705,74.2433,25.4,82,0.2,945.7,8.7,67.0,50,12.6,7.2,1.1,119.0,52.0,1.2,10,5,7,1,2026-07-24T13:03:14.718738+05:30
Goa,Goa,15.2993,74.124,27.7,84,0.1,998.0,8.85,41.4,92,27.5,12.9,0.8,129.0,46.0,0.9,10,5,7,1,2026-07-24T13:03:14.718746+05:30
Jodhpur,Rajasthan,26.2389,73.0243,32.7,65,0.0,973.0,7.35,26.3,63,20.8,18.7,1.7,273.0,138.0,3.7,3,5,7,1,2026-07-24T13:03:14.718753+05:30
Udaipur,Rajasthan,24.5854,73.7125,29.9,67,0.1,936.6,7.2,32.0,57,3.6,3.5,3.0,216.0,78.0,3.4,10,5,7,1,2026-07-24T13:03:14.718760+05:30
Kota,Rajasthan,25.2138,75.8648,32.1,59,0.0,969.6,7.05,38.5,66,5.7,5.7,2.7,203.0,79.0,6.9,0,5,7,1,2026-07-24T13:03:14.718768+05:30
Bikaner,Rajasthan,28.0229,73.3119,34.4,55,0.0,972.7,7.95,27.0,78,26.3,25.3,1.3,263.0,149.0,5.2,0,5,7,1,2026-07-24T13:03:14.718776+05:30
Ajmer,Rajasthan,26.4499,74.6399,30.8,66,0.0,945.8,7.8,25.2,67,11.2,10.9,2.2,237.0,103.0,5.1,3,5,7,1,2026-07-24T13:03:14.718805+05:30
Gwalior,Madhya Pradesh,26.2183,78.1828,32.4,62,0.0,975.1,7.35,28.1,70,6.9,6.3,1.0,148.0,94.0,3.5,3,5,7,1,2026-07-24T13:03:14.718814+05:30
Indore,Madhya Pradesh,22.7196,75.8577,28.9,62,0.0,940.9,6.35,51.1,27,15.8,7.3,3.6,194.0,49.0,4.9,7,5,7,1,2026-07-24T13:03:14.718821+05:30
Bhopal,Madhya Pradesh,23.2599,77.4126,29.5,70,0.0,946.9,7.55,42.5,34,3.0,2.3,1.8,147.0,55.0,3.5,7,5,7,1,2026-07-24T13:03:14.718828+05:30
Jabalpur,Madhya Pradesh,23.1815,79.9864,30.5,60,0.0,955.6,7.7,30.6,53,8.0,5.3,2.0,116.0,66.0,4.9,0,5,7,1,2026-07-24T13:03:14.718836+05:30
Ujjain,Madhya Pradesh,23.1765,75.7885,25.1,86,0.5,946.3,4.95,58.3,29,18.3,7.1,2.6,132.0,54.0,5.1,10,5,3,1,2026-07-24T13:03:14.718844+05:30
Visakhapatnam,Andhra Pradesh,17.6868,83.2185,33.5,55,0.0,998.4,9.05,43.6,74,51.0,28.7,5.4,270.0,124.0,20.7,0,5,7,1,2026-07-24T13:03:14.718852+05:30
Vijayawada,Andhra Pradesh,16.5062,80.648,33.5,54,0.0,999.4,8.8,42.1,72,45.8,22.9,1.6,120.0,78.0,5.1,0,5,7,1,2026-07-24T13:03:14.718859+05:30
Guntur,Andhra Pradesh,16.3067,80.4365,34.6,48,0.0,1000.6,8.35,47.5,73,38.1,19.4,1.3,116.0,75.0,4.2,0,5,4,1,2026-07-24T13:03:14.718867+05:30
Nellore,Andhra Pradesh,14.4426,79.9865,36.1,42,0.0,1003.0,8.4,42.8,69,47.8,20.8,1.9,106.0,103.0,4.8,0,5,7,1,2026-07-24T13:03:14.718875+05:30
Kurnool,Andhra Pradesh,15.8281,78.0373,31.1,56,0.0,974.9,7.6,51.1,67,33.9,14.7,0.8,104.0,69.0,1.6,0,5,7,1,2026-07-24T13:03:14.718883+05:30
Kakinada,Andhra Pradesh,16.9891,82.2475,35.1,48,0.0,1003.0,8.95,57.2,67,54.2,27.8,1.6,153.0,112.0,5.0,0,5,7,1,2026-07-24T13:03:14.718890+05:30
Tirupati,Andhra Pradesh,13.6288,79.4192,35.1,41,0.0,988.7,7.9,33.5,66,39.8,15.3,0.6,110.0,90.0,1.4,0,5,10,1,2026-07-24T13:03:14.718898+05:30
Warangal,Telangana,17.9689,79.5941,31.4,56,0.0,975.5,6.0,46.1,73,16.6,8.2,0.9,121.0,73.0,2.1,0,5,3,1,2026-07-24T13:03:14.718905+05:30
Nizamabad,Telangana,18.6725,78.0941,31.4,55,0.0,961.1,7.85,52.6,61,14.2,6.9,0.9,107.0,69.0,2.5,0,5,7,1,2026-07-24T13:03:14.718912+05:30
Mysore,Karnataka,12.2958,76.6396,30.6,49,0.0,928.6,8.5,45.7,42,88.0,31.4,1.3,114.0,82.0,1.3,0,5,7,1,2026-07-24T13:03:14.718919+05:30
Mangalore,Karnataka,12.9141,74.856,28.2,80,0.0,1007.5,8.7,41.0,54,59.6,20.4,0.9,108.0,66.0,1.7,7,5,4,1,2026-07-24T13:03:14.718926+05:30
Hubli-Dharwad,Karnataka,15.3647,75.124,27.5,66,0.0,940.1,8.85,64.8,64,12.8,6.1,1.1,101.0,52.0,0.9,7,5,7,1,2026-07-24T13:03:14.718934+05:30
Belgaum,Karnataka,15.8497,74.4977,24.8,79,0.1,924.5,9.05,63.4,57,8.1,5.4,1.1,112.0,47.0,1.2,6,5,7,1,2026-07-24T13:03:18.043471+05:30
Coimbatore,Tamil Nadu,11.0168,76.9558,32.9,47,0.0,961.0,8.9,48.6,39,20.5,8.8,0.9,135.0,72.0,1.8,0,5,7,1,2026-07-24T13:03:18.043507+05:30
Madurai,Tamil Nadu,9.9252,78.1198,38.4,29,0.0,990.8,8.85,28.4,65,21.6,11.2,1.3,150.0,108.0,2.5,0,5,10,1,2026-07-24T13:03:18.043521+05:30
Trichy,Tamil Nadu,10.7905,78.7047,37.5,36,0.0,997.2,8.75,44.3,52,12.3,6.8,1.1,110.0,73.0,1.9,0,5,10,1,2026-07-24T13:03:18.043531+05:30
Salem,Tamil Nadu,11.6643,78.146,33.4,51,0.1,976.0,8.3,29.9,63,18.6,11.5,1.8,175.0,105.0,6.8,3,5,7,1,2026-07-24T13:03:18.043541+05:30
Tirunelveli,Tamil Nadu,8.7139,77.7567,37.9,32,0.0,1001.0,8.75,46.4,40,9.4,5.2,0.9,114.0,66.0,1.1,0,5,7,1,2026-07-24T13:03:18.043551+05:30
Vellore,Tamil Nadu,12.9165,79.1325,35.7,39,0.0,982.1,7.4,40.3,76,16.9,9.4,1.3,125.0,94.0,2.6,0,5,10,1,2026-07-24T13:03:18.043560+05:30
Erode,Tamil Nadu,11.341,77.7172,36.9,36,0.0,987.1,8.45,38.9,53,14.9,9.4,1.5,147.0,92.0,2.2,0,5,10,1,2026-07-24T13:03:18.043569+05:30
Kochi,Kerala,9.9312,76.2673,29.2,77,0.0,1009.0,8.5,29.5,56,10.8,7.9,1.5,138.0,83.0,3.5,7,0,4,1,2026-07-24T13:03:18.043578+05:30
Thiruvananthapuram,Kerala,8.5241,76.9366,30.4,66,0.0,1007.9,8.55,42.8,50,14.6,10.8,1.9,121.0,92.0,2.7,3,5,4,1,2026-07-24T13:03:18.043586+05:30
Kozhikode,Kerala,11.2588,75.7804,30.6,69,0.0,1007.9,8.5,34.6,37,12.9,7.1,0.6,126.0,64.0,1.7,3,5,4,1,2026-07-24T13:03:18.043594+05:30
Thrissur,Kerala,10.5276,76.2144,30.7,68,0.0,1007.2,8.55,36.4,53,10.3,7.3,1.0,120.0,74.0,2.2,3,5,4,1,2026-07-24T13:03:18.043604+05:30
Kannur,Kerala,11.8745,75.3704,29.7,73,0.0,1007.5,8.65,35.6,45,57.3,18.5,0.7,112.0,67.0,1.6,7,5,4,1,2026-07-24T13:03:18.043612+05:30
Patna,Bihar,25.5941,85.1376,31.9,69,0.0,993.6,5.7,19.1,85,15.5,15.5,3.8,276.0,128.0,11.1,3,5,3,1,2026-07-24T13:03:18.043621+05:30
Gaya,Bihar,24.7914,85.0002,31.2,70,0.0,987.1,8.15,24.5,82,13.2,12.8,4.3,171.0,102.0,12.3,3,5,7,1,2026-07-24T13:03:18.043629+05:30
Muzaffarpur,Bihar,26.1209,85.3647,31.7,71,0.0,993.7,6.65,25.2,87,16.1,15.9,3.4,279.0,129.0,8.6,3,5,7,1,2026-07-24T13:03:18.043635+05:30
Bhagalpur,Bihar,25.2425,87.0117,32.5,65,0.0,993.7,6.35,30.2,73,19.7,19.4,4.3,269.0,136.0,22.9,3,5,7,1,2026-07-24T13:03:18.043642+05:30
Ranchi,Jharkhand,23.3441,85.3096,26.6,80,0.1,932.0,6.65,31.7,57,11.6,9.7,2.6,159.0,82.0,8.9,10,5,7,1,2026-07-24T13:03:18.043649+05:30
Jamshedpur,Jharkhand,22.8046,86.2029,27.6,88,0.3,984.3,6.3,31.7,65,21.8,18.9,2.7,184.0,118.0,15.6,10,5,7,1,2026-07-24T13:03:18.043656+05:30
Dhanbad,Jharkhand,23.7957,86.4304,28.1,86,0.1,973.1,6.75,27.0,84,27.0,26.0,10.6,157.0,122.0,38.9,10,5,7,1,2026-07-24T13:03:18.043664+05:30
Bokaro,Jharkhand,23.6693,86.1511,27.6,87,0.4,977.2,8.5,27.0,72,22.8,21.5,12.2,173.0,107.0,45.1,10,5,7,1,2026-07-24T13:03:18.043671+05:30
Bhubaneswar,Odisha,20.2961,85.8245,32.4,65,0.0,996.3,8.75,37.4,71,46.6,26.1,3.1,183.0,108.0,7.0,3,5,7,1,2026-07-24T13:03:18.043678+05:30
Cuttack,Odisha,20.4625,85.8828,32.2,64,0.0,998.1,8.7,41.4,71,46.6,26.1,3.1,200.0,108.0,7.0,3,5,7,1,2026-07-24T13:03:18.043684+05:30
Rourkela,Odisha,22.2604,84.8536,30.8,67,0.0,979.0,7.8,42.8,66,38.3,26.5,4.7,161.0,103.0,19.3,3,5,7,1,2026-07-24T13:03:18.043691+05:30
Raipur,Chhattisgarh,21.2514,81.6296,30.5,64,0.0,969.5,7.65,44.3,74,16.4,14.4,8.0,257.0,71.0,29.3,3,5,7,1,2026-07-24T13:03:18.043697+05:30
Bhilai,Chhattisgarh,21.1938,81.3509,30.1,66,0.0,969.9,7.55,49.3,72,13.3,11.7,7.4,338.0,70.0,26.4,3,5,7,1,2026-07-24T13:03:18.043704+05:30
Guwahati,Assam,26.1158,91.7086,31.8,73,0.0,994.5,8.35,19.8,53,7.7,7.3,1.0,214.0,105.0,2.3,3,5,7,1,2026-07-24T13:03:18.043711+05:30
Agartala,Tripura,23.8315,91.2868,30.5,70,0.1,999.4,6.5,37.8,47,8.3,6.3,2.4,141.0,83.0,0.9,6,5,7,1,2026-07-24T13:03:18.043718+05:30
Shillong,Meghalaya,25.5788,91.8933,26.2,64,0.0,854.6,6.25,28.8,31,4.2,3.7,0.8,149.0,82.0,1.5,7,5,7,1,2026-07-24T13:03:18.043724+05:30
Imphal,Manipur,24.817,93.9368,28.0,69,0.0,918.3,9.05,20.2,39,4.0,3.4,1.1,157.0,81.0,1.1,7,5,7,1,2026-07-24T13:03:18.043731+05:30
Aizawl,Mizoram,23.7271,92.7176,24.9,70,0.1,888.4,8.7,34.9,26,2.3,1.7,0.5,117.0,68.0,0.6,6,5,7,1,2026-07-24T13:03:18.043737+05:30
Kohima,Nagaland,25.6701,94.1077,23.4,85,0.1,852.3,8.65,22.7,28,3.4,2.8,0.6,133.0,79.0,0.8,6,5,7,1,2026-07-24T13:03:18.043744+05:30
Gangtok,Sikkim,27.3314,88.6138,22.7,72,0.0,836.0,7.5,34.6,37,4.5,4.4,1.1,157.0,98.0,1.2,3,5,7,1,2026-07-24T13:03:18.043751+05:30
Siliguri,West Bengal,26.7271,88.3953,30.1,75,0.0,986.9,7.65,28.8,62,10.4,9.7,1.3,214.0,111.0,2.8,3,5,7,1,2026-07-24T13:03:21.817728+05:30
Durgapur,West Bengal,23.5204,87.3119,31.6,70,0.0,987.3,7.15,24.8,89,28.6,28.1,14.9,382.0,104.0,51.0,3,5,7,1,2026-07-24T13:03:21.817761+05:30
Asansol,West Bengal,23.6739,86.9524,29.1,80,0.2,986.2,8.3,29.5,80,31.1,30.4,13.2,233.0,112.0,46.2,10,5,7,1,2026-07-24T13:03:21.817772+05:30
Pondicherry,Puducherry,11.9139,79.8145,35.0,46,0.1,1005.9,7.9,41.4,65,28.1,20.1,3.4,165.0,118.0,7.8,3,5,4,1,2026-07-24T13:03:21.817802+05:30
Port Blair,Andaman and Nicobar Islands,11.6234,92.7265,31.2,63,0.0,1005.7,8.55,44.3,40,15.5,9.3,0.2,92.0,47.0,0.5,3,5,4,1,2026-07-24T13:03:21.817812+05:30
Haridwar,Uttarakhand,29.9457,78.1642,32.5,63,0.0,967.6,6.3,36.7,75,17.9,17.8,1.4,216.0,142.0,5.0,3,5,7,1,2026-07-24T13:03:21.817821+05:30
Rishikesh,Uttarakhand,30.0869,78.2676,30.5,75,0.0,960.6,6.0,26.3,58,14.0,13.8,1.1,201.0,132.0,3.6,3,5,3,1,2026-07-24T13:03:21.817828+05:30
Nainital,Uttarakhand,29.3919,79.4542,22.6,69,0.0,804.6,8.0,42.1,55,11.5,11.4,0.9,166.0,116.0,2.0,3,5,7,1,2026-07-24T13:03:21.817836+05:30
Mussoorie,Uttarakhand,30.4599,78.0664,20.2,82,0.1,801.2,6.1,31.7,65,12.7,12.5,1.5,172.0,134.0,3.6,6,5,7,1,2026-07-24T13:03:21.817843+05:30
Dharamshala,Himachal Pradesh,32.219,76.3234,24.8,77,0.0,866.6,6.55,32.4,42,9.7,9.2,0.9,216.0,105.0,0.8,3,5,7,1,2026-07-24T13:03:21.817851+05:30
Dalhousie,Himachal Pradesh,32.5387,75.971,21.6,82,0.1,803.7,8.55,28.8,86,19.0,18.0,1.1,208.0,148.0,1.4,6,5,7,1,2026-07-24T13:03:21.817860+05:30
Patiala,Punjab,30.3398,76.3869,32.7,64,0.0,971.3,7.2,36.4,82,26.3,26.1,2.0,272.0,171.0,9.3,3,5,7,1,2026-07-24T13:03:21.817867+05:30
Bhatinda,Punjab,30.211,74.9455,32.3,67,0.1,976.4,7.35,32.0,118,36.1,36.0,3.9,283.0,187.0,18.3,6,5,7,1,2026-07-24T13:03:21.817874+05:30
Rohtak,Haryana,28.8955,76.6066,30.0,77,0.1,974.0,6.2,34.6,92,19.8,19.7,4.6,286.0,163.0,16.1,10,5,7,1,2026-07-24T13:03:21.817881+05:30
Panipat,Haryana,29.3909,76.9635,32.0,72,0.0,973.0,6.15,42.8,85,23.5,23.5,3.9,290.0,166.0,16.2,3,5,7,1,2026-07-24T13:03:21.817888+05:30
Mathura,Uttar Pradesh,27.4924,77.6737,32.0,69,0.1,978.9,6.5,28.4,84,11.1,10.6,2.9,179.0,103.0,3.9,6,5,7,1,2026-07-24T13:03:21.817896+05:30
Vrindavan,Uttar Pradesh,27.5823,77.7027,32.4,67,0.0,979.3,6.5,28.4,84,11.1,10.6,2.9,183.0,103.0,3.9,3,5,7,1,2026-07-24T13:03:21.817903+05:30
Ayodhya,Uttar Pradesh,26.7922,82.1998,31.4,74,0.0,988.6,7.1,22.7,88,13.9,13.7,2.7,225.0,104.0,6.9,3,5,7,1,2026-07-24T13:03:21.817910+05:30
Ratlam,Madhya Pradesh,23.3315,75.0367,24.2,92,0.1,946.7,7.4,54.0,24,15.7,6.1,2.2,123.0,56.0,5.0,6,5,7,1,2026-07-24T13:03:21.817917+05:30
Sagar,Madhya Pradesh,23.8388,78.7378,29.2,66,0.1,943.8,7.5,36.0,34,5.2,3.2,1.5,112.0,61.0,3.8,10,5,7,1,2026-07-24T13:03:21.817924+05:30
Satna,Madhya Pradesh,24.6005,80.8322,31.7,59,0.1,964.9,7.25,29.5,48,8.4,7.1,1.1,122.0,87.0,4.2,3,5,7,1,2026-07-24T13:03:21.817931+05:30
Akola,Maharashtra,20.7002,77.0082,31.2,64,0.0,969.2,8.55,54.4,40,24.8,9.3,1.5,111.0,70.0,4.5,3,5,7,1,2026-07-24T13:03:21.817939+05:30
Amravati,Maharashtra,20.9374,77.7796,28.5,75,0.1,962.1,8.45,49.7,46,24.6,9.6,1.6,114.0,71.0,5.2,10,5,7,1,2026-07-24T13:03:21.817947+05:30
Latur,Maharashtra,18.4088,76.5604,30.3,57,0.0,936.3,5.95,58.7,51,12.0,5.3,0.7,104.0,58.0,1.0,0,5,3,1,2026-07-24T13:03:21.817954+05:30
Nanded,Maharashtra,19.1383,77.3091,31.4,57,0.0,964.1,7.85,52.6,54,18.7,7.4,0.9,108.0,67.0,2.5,0,5,7,1,2026-07-24T13:03:21.817961+05:30
Gulbarga,Karnataka,17.3297,76.8343,31.4,53,0.1,955.9,5.55,62.6,61,21.4,8.7,1.0,104.0,68.0,1.7,3,5,3,1,2026-07-24T13:03:21.817968+05:30
Bidar,Karnataka,17.9104,77.5199,30.1,57,0.0,932.7,6.9,61.2,60,14.9,6.8,1.0,108.0,69.0,1.4,0,5,7,1,2026-07-24T13:03:21.817975+05:30
Hospet,Karnataka,15.2689,76.3909,28.6,62,0.0,954.8,8.95,59.0,61,22.7,10.5,0.9,104.0,62.0,1.3,7,5,7,1,2026-07-24T13:03:21.817982+05:30
Tirupur,Tamil Nadu,11.1085,77.3411,34.9,43,0.0,973.8,8.75,52.6,56,15.0,9.3,1.4,165.0,93.0,2.5,0,5,7,1,2026-07-24T13:03:21.817988+05:30
Alappuzha,Kerala,9.4981,76.3388,29.2,74,0.0,1009.1,8.65,30.6,56,15.2,11.2,2.4,103.0,91.0,4.4,7,0,4,1,2026-07-24T13:03:21.817995+05:30
Munnar,Kerala,10.0889,77.0595,20.6,81,0.1,857.8,9.05,36.4,36,6.7,3.9,0.6,97.0,54.0,0.8,6,5,7,1,2026-07-24T13:03:21.818002+05:30
Silchar,Assam,24.8333,92.7789,32.7,62,0.0,998.1,8.4,23.4,53,7.0,6.1,0.9,164.0,89.0,2.8,3,5,7,1,2026-07-24T13:03:21.818009+05:30
Dibrugarh,Assam,27.4728,94.912,32.7,67,0.0,987.6,8.4,24.1,55,7.2,6.8,1.0,157.0,104.0,1.4,3,5,7,1,2026-07-24T13:03:21.818016+05:30
