city,state,latitude,longitude,temp,humidity,rain,pressure,uv_index,wind_gusts,aqi,pm10,pm2_5,mosquito_risk,arthritis_risk,migraine_risk,frizz_risk,updated_at
Delhi,Delhi,28.6139,77.209,20.7,67,0.0,984.0,5.75,29.2,391,627.7,111.8,3,5,3,0,2026-03-14T00:18:57.078439+05:30
Mumbai,Maharashtra,19.076,72.8777,29.1,68,0.0,1008.2,7.65,23.8,167,36.1,26.6,7,0,4,1,2026-03-14T00:18:57.078474+05:30
Bangalore,Karnataka,12.9716,77.5946,22.6,63,0.0,912.3,9.3,28.8,96,40.2,36.6,3,5,7,0,2026-03-14T00:18:57.078489+05:30
Hyderabad,Telangana,17.385,78.4867,24.4,57,0.0,954.1,8.65,19.1,117,34.7,28.9,0,5,7,0,2026-03-14T00:18:57.078498+05:30
Chennai,Tamil Nadu,13.0827,80.2707,26.0,85,0.0,1008.9,9.05,32.4,60,20.4,16.2,7,0,4,1,2026-03-14T00:18:57.078507+05:30
Kolkata,West Bengal,22.5726,88.3639,25.6,89,0.0,1006.4,8.0,29.2,112,24.6,20.8,7,5,4,1,2026-03-14T00:18:57.078515+05:30
Pune,Maharashtra,18.5204,73.8567,23.8,64,0.0,948.6,8.2,36.0,149,54.2,52.7,3,5,7,1,2026-03-14T00:18:57.078527+05:30
Ahmedabad,Gujarat,23.0225,72.5714,26.3,45,0.0,1002.5,7.45,22.3,110,58.2,42.8,4,5,4,0,2026-03-14T00:18:57.078534+05:30
Jaipur,Rajasthan,26.9124,75.7873,24.1,34,0.0,960.6,6.95,23.8,120,274.7,54.2,0,5,7,0,2026-03-14T00:18:57.078541+05:30
Lucknow,Uttar Pradesh,26.8467,80.9462,23.4,65,0.0,993.6,6.05,28.4,158,279.4,70.5,3,5,7,1,2026-03-14T00:18:57.078548+05:30
Kanpur,Uttar Pradesh,26.4499,80.3319,22.7,74,0.0,992.0,6.35,18.7,216,482.4,89.9,3,5,7,1,2026-03-14T00:18:57.078556+05:30
Chandigarh,Chandigarh,30.7333,76.7794,18.6,75,0.0,969.3,5.35,29.5,76,29.0,26.7,3,5,3,0,2026-03-14T00:18:57.078564+05:30
Srinagar,Jammu and Kashmir,34.0837,74.7973,6.8,79,0.0,839.6,6.75,15.1,81,73.3,58.1,3,5,7,0,2026-03-14T00:18:57.078571+05:30
Jammu,Jammu and Kashmir,32.7266,74.857,18.4,65,0.0,973.7,6.45,24.8,69,43.3,39.3,3,5,7,0,2026-03-14T00:18:57.078578+05:30
Amritsar,Punjab,31.634,74.8723,18.9,66,0.0,982.3,5.85,25.6,85,38.8,31.7,3,5,3,0,2026-03-14T00:18:57.078584+05:30
Ludhiana,Punjab,30.901,75.8573,19.2,67,0.0,980.2,5.7,27.7,97,34.5,30.0,3,5,3,0,2026-03-14T00:18:57.078591+05:30
Jalandhar,Punjab,31.326,75.5762,19.0,64,0.0,981.3,5.7,25.6,95,48.5,34.3,3,5,3,0,2026-03-14T00:18:57.078599+05:30
Dehradun,Uttarakhand,30.6284,78.0322,13.4,67,0.0,829.0,5.7,28.8,49,42.4,25.1,3,5,3,0,2026-03-14T00:18:57.078605+05:30
Shimla,Himachal Pradesh,31.1048,77.1734,10.8,66,0.0,782.5,5.15,39.2,52,34.1,24.4,3,5,3,0,2026-03-14T00:18:57.078611+05:30
Manali,Himachal Pradesh,32.2396,77.1887,12.4,30,0.0,819.0,8.05,38.5,49,29.9,13.8,0,5,7,1,2026-03-14T00:18:57.078618+05:30
Gurgaon,Haryana,28.4595,77.0266,18.1,77,0.0,982.4,6.15,28.1,1241,1471.5,193.7,3,5,7,0,2026-03-14T00:18:57.078625+05:30
Noida,Uttar Pradesh,28.5355,77.391,20.7,68,0.0,985.5,5.95,28.8,1241,1471.5,193.7,3,5,3,0,2026-03-14T00:18:57.078632+05:30
Ghaziabad,Uttar Pradesh,28.6692,77.4538,19.8,72,0.0,983.6,5.75,27.7,196,543.9,100.1,3,5,3,0,2026-03-14T00:18:57.078640+05:30
Faridabad,Haryana,28.4089,77.3178,19.3,69,0.0,984.7,6.2,27.7,1241,1471.5,193.7,3,5,7,0,2026-03-14T00:18:57.078647+05:30
Meerut,Uttar Pradesh,28.9845,77.7064,18.3,77,0.0,982.1,4.85,27.7,196,543.9,100.1,3,5,3,0,2026-03-14T00:18:57.078669+05:30
Agra,Uttar Pradesh,27.1767,78.0081,21.2,53,0.0,988.6,6.25,24.8,598,1236.8,159.7,0,5,7,0,2026-03-14T00:18:57.078677+05:30
Varanasi,Uttar Pradesh,25.3176,82.9739,21.4,70,0.0,997.5,7.35,25.2,131,149.9,64.5,3,5,7,0,2026-03-14T00:18:57.078687+05:30
Prayagraj,Uttar Pradesh,25.4358,81.8463,23.2,62,0.0,996.2,7.1,21.6,150,137.8,58.8,3,5,7,0,2026-03-14T00:18:57.078695+05:30
Gorakhpur,Uttar Pradesh,26.7606,83.3732,21.7,67,0.0,996.6,7.05,28.4,178,61.5,42.5,3,5,7,0,2026-03-14T00:18:57.078702+05:30
Bareilly,Uttar Pradesh,28.367,79.4304,19.5,72,0.0,986.9,6.35,26.6,138,107.8,43.0,3,5,7,0,2026-03-14T00:18:57.078708+05:30
Aligarh,Uttar Pradesh,27.8974,78.088,17.5,69,0.0,986.2,5.9,28.8,610,1087.8,163.4,3,5,3,0,2026-03-14T00:18:57.078714+05:30
Moradabad,Uttar Pradesh,28.8386,78.7733,19.4,69,0.0,983.9,5.75,27.4,140,218.4,61.7,3,5,3,0,2026-03-14T00:18:57.078720+05:30
Saharanpur,Uttar Pradesh,29.9637,77.546,18.4,77,0.0,976.2,4.95,27.4,128,104.3,49.0,3,5,3,0,2026-03-14T00:18:57.078726+05:30
Jhansi,Uttar Pradesh,25.4484,78.5685,23.6,61,0.0,978.3,6.75,20.9,74,93.1,41.6,3,5,7,0,2026-03-14T00:19:00.414792+05:30
Surat,Gujarat,21.1702,72.8311,25.9,73,0.0,1006.6,7.35,23.8,145,50.2,42.5,7,5,4,1,2026-03-14T00:19:00.414824+05:30
Vadodara,Gujarat,22.3072,73.1812,26.5,48,0.0,1004.4,7.5,23.8,114,67.1,58.1,4,5,4,0,2026-03-14T00:19:00.414834+05:30
Rajkot,Gujarat,22.3039,70.8022,24.6,45,0.0,995.5,7.3,29.5,84,95.7,31.1,0,5,7,0,2026-03-14T00:19:00.414842+05:30
Thane,Maharashtra,19.2183,72.9781,27.4,63,0.0,1007.6,7.65,38.2,167,36.1,26.6,7,5,4,1,2026-03-14T00:19:00.414849+05:30
Nagpur,Maharashtra,21.1458,79.0882,26.2,50,0.0,973.1,8.05,19.4,88,59.3,55.5,4,5,7,0,2026-03-14T00:19:00.414855+05:30
Nashik,Maharashtra,19.9975,73.7898,24.4,50,0.0,945.8,7.85,34.9,125,34.1,31.1,0,5,7,0,2026-03-14T00:19:00.414862+05:30
Aurangabad,Maharashtra,19.8762,75.3433,25.1,44,0.0,943.7,8.35,29.5,109,39.8,38.1,4,5,7,0,2026-03-14T00:19:00.414868+05:30
Solapur,Maharashtra,17.6599,75.9064,25.6,56,0.0,956.7,8.6,24.1,110,44.6,40.6,4,5,7,1,2026-03-14T00:19:00.414874+05:30
Kolhapur,Maharashtra,16.705,74.2433,22.1,95,0.0,948.1,8.7,47.9,150,57.5,56.3,3,5,7,1,2026-03-14T00:19:00.414881+05:30
Goa,Goa,15.2993,74.124,27.7,84,0.0,998.8,8.7,31.3,132,59.3,54.5,7,5,7,1,2026-03-14T00:19:00.414887+05:30
Jodhpur,Rajasthan,26.2389,73.0243,27.5,39,0.0,983.0,6.8,18.7,89,136.0,35.4,4,5,7,0,2026-03-14T00:19:00.414894+05:30
Udaipur,Rajasthan,24.5854,73.7125,22.9,32,0.0,947.1,7.8,30.2,79,42.6,21.2,0,5,7,0,2026-03-14T00:19:00.414899+05:30
Kota,Rajasthan,25.2138,75.8648,23.3,53,0.0,978.3,7.1,17.6,65,44.5,22.7,0,5,7,0,2026-03-14T00:19:00.414905+05:30
Bikaner,Rajasthan,28.0229,73.3119,25.3,34,0.0,982.6,6.75,24.8,75,19.0,15.3,4,5,7,0,2026-03-14T00:19:00.414911+05:30
Ajmer,Rajasthan,26.4499,74.6399,23.4,32,0.0,955.0,7.05,22.0,78,61.2,28.9,0,5,7,0,2026-03-14T00:19:00.414917+05:30
Gwalior,Madhya Pradesh,26.2183,78.1828,25.0,67,0.0,983.9,6.8,21.2,106,245.9,60.1,7,5,7,1,2026-03-14T00:19:00.414923+05:30
Indore,Madhya Pradesh,22.7196,75.8577,21.7,44,0.0,948.1,7.75,32.4,62,51.5,47.6,0,5,7,0,2026-03-14T00:19:00.414928+05:30
Bhopal,Madhya Pradesh,23.2599,77.4126,22.9,32,0.0,953.7,7.55,31.0,70,26.4,25.7,0,5,7,0,2026-03-14T00:19:00.414934+05:30
Jabalpur,Madhya Pradesh,23.1815,79.9864,23.9,49,0.0,961.1,7.75,20.2,80,26.4,25.8,0,5,7,0,2026-03-14T00:19:00.414940+05:30
Ujjain,Madhya Pradesh,23.1765,75.7885,21.8,46,0.0,953.8,7.65,26.3,62,40.4,37.1,0,5,7,0,2026-03-14T00:19:00.414946+05:30
Visakhapatnam,Andhra Pradesh,17.6868,83.2185,25.7,86,0.0,1005.4,8.65,40.3,81,19.9,16.6,7,5,4,1,2026-03-14T00:19:00.414952+05:30
Vijayawada,Andhra Pradesh,16.5062,80.648,24.8,91,0.0,1004.3,8.75,31.3,84,15.4,13.3,3,5,4,1,2026-03-14T00:19:00.414958+05:30
Guntur,Andhra Pradesh,16.3067,80.4365,25.0,92,0.0,1005.4,8.75,33.8,79,14.2,12.2,7,5,4,1,2026-03-14T00:19:00.414964+05:30
Nellore,Andhra Pradesh,14.4426,79.9865,25.1,94,0.0,1007.6,8.9,30.2,70,14.9,12.1,7,5,4,1,2026-03-14T00:19:00.414970+05:30
Kurnool,Andhra Pradesh,15.8281,78.0373,28.1,44,0.0,977.2,8.7,23.8,116,34.5,30.9,4,5,7,0,2026-03-14T00:19:00.414977+05:30
Kakinada,Andhra Pradesh,16.9891,82.2475,24.7,91,0.0,1009.4,8.65,34.6,70,16.8,12.6,3,0,4,1,2026-03-14T00:19:00.414982+05:30
Tirupati,Andhra Pradesh,13.6288,79.4192,24.4,83,0.0,993.7,9.05,33.5,89,28.8,26.0,3,5,7,1,2026-03-14T00:19:00.414988+05:30
Warangal,Telangana,17.9689,79.5941,24.7,81,0.0,979.1,8.5,28.8,118,32.2,29.6,3,5,7,1,2026-03-14T00:19:00.414997+05:30
Nizamabad,Telangana,18.6725,78.0941,27.2,43,0.0,964.7,8.4,19.1,121,69.6,60.5,4,5,7,0,2026-03-14T00:19:00.415005+05:30
Mysore,Karnataka,12.2958,76.6396,22.4,89,0.0,929.0,9.3,29.9,91,42.1,37.7,3,5,7,1,2026-03-14T00:19:00.415011+05:30
Mangalore,Karnataka,12.9141,74.856,28.9,81,0.0,1007.5,8.95,23.0,115,50.4,43.4,7,5,4,1,2026-03-14T00:19:00.415017+05:30
Hubli-Dharwad,Karnataka,15.3647,75.124,23.7,84,0.0,941.3,8.9,29.2,106,41.6,39.1,3,5,7,1,2026-03-14T00:19:00.415023+05:30
Belgaum,Karnataka,15.8497,74.4977,22.8,92,0.0,926.1,8.95,41.0,118,51.6,48.9,3,5,7,1,2026-03-14T00:19:03.764062+05:30
Coimbatore,Tamil Nadu,11.0168,76.9558,23.3,86,0.0,962.9,9.3,42.8,86,37.5,33.1,3,5,7,1,2026-03-14T00:19:03.764090+05:30
Madurai,Tamil Nadu,9.9252,78.1198,25.4,76,0.0,994.7,9.25,26.6,77,26.8,24.9,7,5,7,1,2026-03-14T00:19:03.764100+05:30
Trichy,Tamil Nadu,10.7905,78.7047,24.5,89,0.0,1001.3,9.15,23.0,80,23.1,21.4,3,5,4,1,2026-03-14T00:19:03.764108+05:30
Salem,Tamil Nadu,11.6643,78.146,24.6,82,0.0,978.3,9.2,24.8,109,46.4,41.9,3,5,7,1,2026-03-14T00:19:03.764115+05:30
Tirunelveli,Tamil Nadu,8.7139,77.7567,24.6,84,0.0,1004.9,9.2,29.9,61,21.2,19.3,3,5,4,1,2026-03-14T00:19:03.764122+05:30
Vellore,Tamil Nadu,12.9165,79.1325,23.4,86,0.0,986.5,9.1,33.1,103,43.8,41.4,3,5,7,1,2026-03-14T00:19:03.764128+05:30
Erode,Tamil Nadu,11.341,77.7172,25.9,74,0.0,990.3,9.15,23.8,85,23.1,20.8,7,5,7,1,2026-03-14T00:19:03.764134+05:30
Kochi,Kerala,9.9312,76.2673,27.4,83,0.0,1010.0,9.1,33.8,82,30.3,29.3,7,0,4,1,2026-03-14T00:19:03.764141+05:30
Thiruvananthapuram,Kerala,8.5241,76.9366,27.7,82,0.0,1009.1,9.1,24.1,79,20.4,15.7,7,0,4,1,2026-03-14T00:19:03.764147+05:30
Kozhikode,Kerala,11.2588,75.7804,27.4,84,0.0,1009.2,9.0,29.9,91,32.2,28.2,7,0,4,1,2026-03-14T00:19:03.764153+05:30
Thrissur,Kerala,10.5276,76.2144,26.3,88,0.0,1008.3,9.05,37.1,99,26.1,24.7,7,0,4,1,2026-03-14T00:19:03.764159+05:30
Kannur,Kerala,11.8745,75.3704,28.0,84,0.0,1008.1,9.0,28.1,104,41.0,36.9,7,0,4,1,2026-03-14T00:19:03.764166+05:30
Patna,Bihar,25.5941,85.1376,24.7,65,0.0,999.8,7.5,23.0,172,145.3,61.7,3,5,7,1,2026-03-14T00:19:03.764172+05:30
Gaya,Bihar,24.7914,85.0002,25.7,48,0.0,994.0,7.6,19.4,148,178.8,64.3,4,5,7,0,2026-03-14T00:19:03.764178+05:30
Muzaffarpur,Bihar,26.1209,85.3647,22.8,87,0.0,999.7,7.45,24.8,174,175.1,109.4,3,5,7,1,2026-03-14T00:19:03.764184+05:30
Bhagalpur,Bihar,25.2425,87.0117,24.2,85,0.0,1000.8,7.5,26.6,164,131.3,87.3,3,5,4,1,2026-03-14T00:19:03.764190+05:30
Ranchi,Jharkhand,23.3441,85.3096,22.1,41,0.0,938.0,8.2,26.3,73,52.3,26.4,0,5,7,0,2026-03-14T00:19:03.764196+05:30
Jamshedpur,Jharkhand,22.8046,86.2029,26.3,58,0.0,991.2,8.05,16.6,149,75.2,58.3,4,5,7,1,2026-03-14T00:19:03.764202+05:30
Dhanbad,Jharkhand,23.7957,86.4304,24.0,53,0.0,979.8,7.95,26.3,162,121.5,60.8,0,5,7,0,2026-03-14T00:19:03.764208+05:30
Bokaro,Jharkhand,23.6693,86.1511,23.6,49,0.0,984.3,7.95,26.6,148,111.8,60.8,0,5,7,0,2026-03-14T00:19:03.764214+05:30
Bhubaneswar,Odisha,20.2961,85.8245,25.7,85,0.0,1003.5,8.4,33.5,92,20.8,18.0,7,5,4,1,2026-03-14T00:19:03.764220+05:30
Cuttack,Odisha,20.4625,85.8828,25.7,86,0.0,1005.3,8.4,28.1,92,20.8,18.0,7,5,4,1,2026-03-14T00:19:03.764226+05:30
Rourkela,Odisha,22.2604,84.8536,23.1,64,0.0,984.7,8.0,19.4,91,64.7,44.7,3,5,7,0,2026-03-14T00:19:03.764232+05:30
Raipur,Chhattisgarh,21.2514,81.6296,25.9,41,0.0,974.1,8.15,18.0,129,48.7,43.2,4,5,7,0,2026-03-14T00:19:03.764238+05:30
Bhilai,Chhattisgarh,21.1938,81.3509,23.0,43,0.0,974.4,8.15,14.8,123,53.9,48.0,0,5,7,0,2026-03-14T00:19:03.764243+05:30
Guwahati,Assam,26.1158,91.7086,21.9,95,0.0,1002.1,6.6,29.9,133,29.7,23.2,3,5,4,1,2026-03-14T00:19:03.764249+05:30
Agartala,Tripura,23.8315,91.2868,21.6,94,0.0,1007.2,7.6,32.8,107,20.6,18.3,3,5,4,1,2026-03-14T00:19:03.764255+05:30
Shillong,Meghalaya,25.5788,91.8933,13.3,89,0.0,854.8,7.0,54.7,98,20.7,14.0,3,10,7,0,2026-03-14T00:19:03.764261+05:30
Imphal,Manipur,24.817,93.9368,16.0,94,0.0,923.9,7.3,61.2,156,61.9,55.8,3,10,7,0,2026-03-14T00:19:03.764267+05:30
Aizawl,Mizoram,23.7271,92.7176,17.7,85,0.0,893.4,7.15,76.0,138,33.8,29.9,3,10,7,0,2026-03-14T00:19:03.764273+05:30
Kohima,Nagaland,25.6701,94.1077,14.2,85,0.0,853.8,6.25,82.8,121,19.8,17.9,3,10,7,0,2026-03-14T00:19:03.764279+05:30
Gangtok,Sikkim,27.3314,88.6138,13.3,93,0.0,834.8,5.15,15.8,88,22.1,21.1,3,10,3,0,2026-03-14T00:19:03.764285+05:30
Siliguri,West Bengal,26.7271,88.3953,18.7,92,0.0,994.2,7.3,29.5,139,56.1,48.1,3,10,7,1,2026-03-14T00:19:07.103699+05:30
Durgapur,West Bengal,23.5204,87.3119,25.0,83,0.0,995.0,7.95,26.3,159,115.7,82.2,7,5,7,1,2026-03-14T00:19:07.103733+05:30
Asansol,West Bengal,23.6739,86.9524,26.0,55,0.0,993.6,7.95,23.4,157,106.9,53.7,4,5,7,1,2026-03-14T00:19:07.103743+05:30
Pondicherry,Puducherry,11.9139,79.8145,24.4,90,0.0,1010.1,9.0,27.7,57,19.2,14.8,3,0,4,1,2026-03-14T00:19:07.103750+05:30
Port Blair,Andaman and Nicobar Islands,11.6234,92.7265,27.7,81,0.0,1008.3,8.95,21.6,66,12.6,9.7,7,0,4,1,2026-03-14T00:19:07.103758+05:30
Haridwar,Uttarakhand,29.9457,78.1642,18.0,84,0.0,974.6,5.6,29.5,85,72.2,50.3,3,10,3,0,2026-03-14T00:19:07.103765+05:30
Rishikesh,Uttarakhand,30.0869,78.2676,18.9,70,0.0,967.2,5.8,30.2,62,46.0,31.2,3,5,3,0,2026-03-14T00:19:07.103773+05:30
Nainital,Uttarakhand,29.3919,79.4542,17.8,32,0.0,805.2,6.55,44.3,80,39.2,27.8,0,5,7,0,2026-03-14T00:19:07.103780+05:30
Mussoorie,Uttarakhand,30.4599,78.0664,15.6,53,0.0,802.0,5.75,30.6,70,58.7,47.4,0,5,3,0,2026-03-14T00:19:07.103787+05:30
Dharamshala,Himachal Pradesh,32.219,76.3234,18.7,31,0.0,869.2,6.0,24.8,50,24.9,16.4,0,5,3,0,2026-03-14T00:19:07.103793+05:30
Dalhousie,Himachal Pradesh,32.5387,75.971,15.0,31,0.0,803.0,6.4,31.0,65,43.0,36.1,0,5,7,1,2026-03-14T00:19:07.103801+05:30
Patiala,Punjab,30.3398,76.3869,18.1,80,0.0,979.3,5.2,27.0,377,424.7,62.2,3,5,3,0,2026-03-14T00:19:07.103809+05:30
Bhatinda,Punjab,30.211,74.9455,20.3,71,0.0,985.5,6.25,27.7,107,48.3,41.7,3,5,7,0,2026-03-14T00:19:07.103816+05:30
Rohtak,Haryana,28.8955,76.6066,18.3,78,0.0,983.0,5.3,26.6,556,676.1,113.9,3,5,3,0,2026-03-14T00:19:07.103823+05:30
Panipat,Haryana,29.3909,76.9635,17.7,80,0.0,981.3,4.9,24.8,1033,1113.9,147.6,3,5,3,0,2026-03-14T00:19:07.103829+05:30
Mathura,Uttar Pradesh,27.4924,77.6737,20.0,58,0.0,987.8,5.65,25.6,725,1438.0,190.9,0,5,3,0,2026-03-14T00:19:07.103835+05:30
Vrindavan,Uttar Pradesh,27.5823,77.7027,18.8,63,0.0,988.1,5.75,28.8,725,1438.0,190.9,3,5,3,0,2026-03-14T00:19:07.103841+05:30
Ayodhya,Uttar Pradesh,26.7922,82.1998,21.8,67,0.0,994.9,6.35,30.2,155,112.9,49.4,3,5,7,0,2026-03-14T00:19:07.103847+05:30
Ratlam,Madhya Pradesh,23.3315,75.0367,25.9,38,0.0,954.8,7.6,30.6,90,25.1,22.6,4,5,7,0,2026-03-14T00:19:07.103854+05:30
Sagar,Madhya Pradesh,23.8388,78.7378,24.0,35,0.0,950.4,7.6,29.2,77,15.3,14.9,0,5,7,0,2026-03-14T00:19:07.103860+05:30
Satna,Madhya Pradesh,24.6005,80.8322,23.9,35,0.0,971.6,7.2,29.9,66,42.6,19.4,0,5,7,0,2026-03-14T00:19:07.103866+05:30
Akola,Maharashtra,20.7002,77.0082,28.1,37,0.0,974.5,8.05,24.8,99,52.0,48.3,4,5,7,0,2026-03-14T00:19:07.103873+05:30
Amravati,Maharashtra,20.9374,77.7796,25.3,47,0.0,966.8,8.0,15.1,105,51.7,46.6,4,5,7,0,2026-03-14T00:19:07.103879+05:30
Latur,Maharashtra,18.4088,76.5604,25.6,48,0.0,939.6,8.5,21.2,120,45.5,40.6,4,5,7,0,2026-03-14T00:19:07.103886+05:30
Nanded,Maharashtra,19.1383,77.3091,28.3,40,0.0,968.3,8.25,21.6,121,60.1,52.5,4,5,7,0,2026-03-14T00:19:07.103892+05:30
Gulbarga,Karnataka,17.3297,76.8343,28.0,45,0.0,958.9,8.6,32.0,122,44.4,37.7,4,5,7,0,2026-03-14T00:19:07.103898+05:30
Bidar,Karnataka,17.9104,77.5199,25.4,47,0.0,935.8,8.55,26.6,111,46.9,39.8,4,5,7,0,2026-03-14T00:19:07.103903+05:30
Hospet,Karnataka,15.2689,76.3909,28.6,50,0.0,956.3,8.9,24.1,123,51.8,43.5,4,5,7,1,2026-03-14T00:19:07.103909+05:30
Tirupur,Tamil Nadu,11.1085,77.3411,26.3,64,0.0,976.7,9.3,30.6,94,28.2,24.8,7,5,7,1,2026-03-14T00:19:07.103915+05:30
Alappuzha,Kerala,9.4981,76.3388,27.0,85,0.0,1010.2,9.1,28.1,82,28.1,25.4,7,0,4,1,2026-03-14T00:19:07.103922+05:30
Munnar,Kerala,10.0889,77.0595,20.1,84,0.0,857.0,9.55,24.5,72,31.4,29.0,3,5,7,1,2026-03-14T00:19:07.103928+05:30
Silchar,Assam,24.8333,92.7789,20.9,95,0.0,1007.7,7.75,42.8,157,48.9,42.0,3,5,4,1,2026-03-14T00:19:07.103935+05:30
Dibrugarh,Assam,27.4728,94.912,20.5,87,0.0,996.4,5.5,25.2,136,39.9,35.7,3,5,3,1,2026-03-14T00:19:07.103941+05:30
