city,state,latitude,longitude,temp,humidity,rain,pressure,uv_index,wind_gusts,aqi,pm10,pm2_5,no2,co,o3,so2,mosquito_risk,arthritis_risk,migraine_risk,frizz_risk,updated_at
Delhi,Delhi,28.6139,77.209,33.5,59,0.0,976.7,6.1,33.1,636,618.4,153.2,37.7,1186.0,57.0,16.1,0,5,7,1,2026-07-17T20:45:43.827362+05:30
Mumbai,Maharashtra,19.076,72.8777,27.4,81,0.0,1007.3,7.65,41.4,68,32.7,16.8,14.6,335.0,41.0,10.3,7,5,4,1,2026-07-17T20:45:43.827394+05:30
Bangalore,Karnataka,12.9716,77.5946,22.4,83,0.0,912.5,3.75,49.7,47,14.6,10.4,23.2,405.0,33.0,5.3,3,5,3,1,2026-07-17T20:45:43.827404+05:30
Hyderabad,Telangana,17.385,78.4867,25.0,93,0.1,952.1,6.4,35.3,68,29.5,18.0,16.1,589.0,50.0,6.8,10,5,7,1,2026-07-17T20:45:43.827411+05:30
Chennai,Tamil Nadu,13.0827,80.2707,29.2,67,0.0,1007.0,7.85,42.1,78,30.0,19.7,16.4,306.0,73.0,10.6,7,5,4,1,2026-07-17T20:45:43.827416+05:30
Kolkata,West Bengal,22.5726,88.3639,28.1,85,0.0,1000.9,7.45,31.3,69,26.4,19.6,6.8,304.0,88.0,6.2,7,5,4,1,2026-07-17T20:45:43.827422+05:30
Pune,Maharashtra,18.5204,73.8567,23.5,87,0.0,947.1,6.95,48.2,41,17.5,10.9,12.9,189.0,37.0,7.7,3,5,7,1,2026-07-17T20:45:43.827428+05:30
Ahmedabad,Gujarat,23.0225,72.5714,30.8,66,0.0,998.0,7.9,42.5,70,38.4,21.5,14.1,194.0,55.0,5.6,3,5,7,1,2026-07-17T20:45:43.827432+05:30
Jaipur,Rajasthan,26.9124,75.7873,33.3,50,0.0,955.4,8.05,40.0,316,248.7,60.8,18.9,257.0,59.0,6.4,0,5,7,1,2026-07-17T20:45:43.827436+05:30
Lucknow,Uttar Pradesh,26.8467,80.9462,28.8,91,0.0,988.2,7.55,28.4,162,227.7,98.7,26.4,700.0,84.0,14.1,7,5,7,1,2026-07-17T20:45:43.827442+05:30
Kanpur,Uttar Pradesh,26.4499,80.3319,30.6,80,0.0,986.7,8.1,25.6,169,187.7,81.7,26.3,519.0,65.0,10.2,3,5,7,1,2026-07-17T20:45:43.827446+05:30
Chandigarh,Chandigarh,30.7333,76.7794,30.4,70,0.0,962.1,7.35,34.9,183,67.5,54.8,23.8,763.0,126.0,14.4,3,5,7,1,2026-07-17T20:45:43.827451+05:30
Srinagar,Jammu and Kashmir,34.0837,74.7973,28.6,55,0.0,837.2,9.05,18.4,110,34.2,29.2,35.1,622.0,83.0,5.1,4,5,7,1,2026-07-17T20:45:43.827455+05:30
Jammu,Jammu and Kashmir,32.7266,74.857,30.1,79,0.0,965.1,7.7,34.6,156,78.0,54.1,25.1,449.0,84.0,6.6,3,5,7,1,2026-07-17T20:45:43.827460+05:30
Amritsar,Punjab,31.634,74.8723,31.8,68,0.0,973.0,8.4,20.9,170,123.4,82.2,49.5,433.0,63.0,11.5,3,5,7,1,2026-07-17T20:45:43.827463+05:30
Ludhiana,Punjab,30.901,75.8573,32.8,63,0.0,971.4,7.2,34.6,180,95.9,74.0,39.3,797.0,68.0,8.5,3,5,7,1,2026-07-17T20:45:43.827467+05:30
Jalandhar,Punjab,31.326,75.5762,31.2,79,0.0,972.3,8.15,24.1,183,115.7,85.9,49.9,1405.0,58.0,8.6,3,5,7,1,2026-07-17T20:45:43.827471+05:30
Dehradun,Uttarakhand,30.6284,78.0322,19.7,98,0.0,827.7,6.8,27.0,133,50.9,43.7,15.9,353.0,111.0,6.7,3,10,7,1,2026-07-17T20:45:43.827475+05:30
Shimla,Himachal Pradesh,31.1048,77.1734,17.2,95,0.0,782.3,6.85,41.8,126,46.9,35.6,15.7,375.0,107.0,6.7,3,10,7,1,2026-07-17T20:45:43.827479+05:30
Manali,Himachal Pradesh,32.2396,77.1887,20.3,95,0.0,817.0,7.05,33.1,96,18.9,14.9,34.1,259.0,66.0,1.3,3,5,7,1,2026-07-17T20:45:43.827484+05:30
Gurgaon,Haryana,28.4595,77.0266,33.0,55,0.0,975.2,5.85,39.2,504,588.6,150.4,42.5,723.0,46.0,13.2,0,5,3,1,2026-07-17T20:45:43.827489+05:30
Noida,Uttar Pradesh,28.5355,77.391,33.3,59,0.0,978.1,7.7,26.3,504,588.6,150.4,42.5,1127.0,46.0,13.2,0,5,7,1,2026-07-17T20:45:43.827493+05:30
Ghaziabad,Uttar Pradesh,28.6692,77.4538,32.0,71,0.0,976.3,7.7,29.2,521,558.8,149.9,34.5,622.0,62.0,18.0,3,5,7,1,2026-07-17T20:45:43.827497+05:30
Faridabad,Haryana,28.4089,77.3178,33.4,58,0.0,977.5,6.0,33.8,504,588.6,150.4,42.5,634.0,46.0,13.2,0,5,3,1,2026-07-17T20:45:43.827500+05:30
Meerut,Uttar Pradesh,28.9845,77.7064,31.6,76,0.0,975.0,7.0,33.1,521,558.8,149.9,34.5,627.0,62.0,18.0,3,5,7,1,2026-07-17T20:45:43.827504+05:30
Agra,Uttar Pradesh,27.1767,78.0081,33.1,62,0.0,982.2,6.8,36.7,155,173.7,72.6,27.2,381.0,56.0,9.0,3,5,7,1,2026-07-17T20:45:43.827508+05:30
Varanasi,Uttar Pradesh,25.3176,82.9739,28.2,99,0.1,992.8,5.65,28.8,142,48.3,39.7,14.3,619.0,101.0,8.6,10,5,3,1,2026-07-17T20:45:43.827512+05:30
Prayagraj,Uttar Pradesh,25.4358,81.8463,29.1,90,0.1,991.4,7.8,28.1,157,89.9,65.7,23.1,326.0,66.0,11.7,10,5,7,1,2026-07-17T20:45:43.827516+05:30
Gorakhpur,Uttar Pradesh,26.7606,83.3732,28.5,96,0.0,992.2,6.8,22.0,114,46.6,46.1,25.8,606.0,65.0,8.5,7,5,7,1,2026-07-17T20:45:43.827520+05:30
Bareilly,Uttar Pradesh,28.367,79.4304,27.7,96,0.0,981.4,7.2,34.2,165,129.0,76.4,19.6,480.0,99.0,11.0,7,5,7,1,2026-07-17T20:45:43.827525+05:30
Aligarh,Uttar Pradesh,27.8974,78.088,31.5,69,0.0,979.4,7.6,26.6,348,463.8,138.8,28.7,377.0,49.0,7.9,3,5,7,1,2026-07-17T20:45:43.827528+05:30
Moradabad,Uttar Pradesh,28.8386,78.7733,31.2,79,0.0,977.6,7.6,32.8,185,190.9,112.0,31.4,655.0,89.0,15.7,3,5,7,1,2026-07-17T20:45:43.827532+05:30
Saharanpur,Uttar Pradesh,29.9637,77.546,30.9,69,0.0,968.9,6.8,37.8,169,239.3,92.9,25.8,380.0,98.0,14.3,3,5,7,1,2026-07-17T20:45:43.827536+05:30
Jhansi,Uttar Pradesh,25.4484,78.5685,29.4,78,0.0,973.6,7.45,33.5,94,70.3,36.6,9.8,203.0,64.0,3.6,7,5,7,1,2026-07-17T20:45:47.133054+05:30
Surat,Gujarat,21.1702,72.8311,28.6,82,0.0,1004.0,7.7,43.9,74,26.7,19.3,23.8,265.0,28.0,35.8,7,5,4,1,2026-07-17T20:45:47.133073+05:30
Vadodara,Gujarat,22.3072,73.1812,29.2,78,0.0,1001.0,5.55,44.6,70,25.8,19.4,20.8,218.0,48.0,20.9,7,5,0,1,2026-07-17T20:45:47.133078+05:30
Rajkot,Gujarat,22.3039,70.8022,29.2,69,0.0,990.6,7.65,41.8,62,26.6,15.2,6.3,147.0,49.0,5.7,7,5,7,1,2026-07-17T20:45:47.133082+05:30
Thane,Maharashtra,19.2183,72.9781,26.3,96,0.0,1006.5,7.05,34.6,68,32.7,16.8,14.6,406.0,41.0,10.3,7,5,4,1,2026-07-17T20:45:47.133086+05:30
Nagpur,Maharashtra,21.1458,79.0882,25.8,89,0.3,971.4,1.7,23.8,92,33.2,23.6,20.1,401.0,39.0,13.5,10,5,3,1,2026-07-17T20:45:47.133123+05:30
Nashik,Maharashtra,19.9975,73.7898,23.5,92,0.0,944.0,7.95,42.8,46,11.3,7.0,9.1,161.0,52.0,7.1,3,5,7,1,2026-07-17T20:45:47.133131+05:30
Aurangabad,Maharashtra,19.8762,75.3433,24.8,85,0.0,942.6,7.95,45.4,57,12.0,9.2,8.9,182.0,54.0,6.4,3,5,7,1,2026-07-17T20:45:47.133136+05:30
Solapur,Maharashtra,17.6599,75.9064,23.2,96,0.3,957.0,6.0,45.0,53,22.2,11.5,5.3,152.0,54.0,2.6,6,5,3,1,2026-07-17T20:45:47.133143+05:30
Kolhapur,Maharashtra,16.705,74.2433,22.8,91,0.0,948.0,8.3,46.4,38,9.0,6.7,7.9,164.0,40.0,2.7,3,5,7,1,2026-07-17T20:45:47.133147+05:30
Goa,Goa,15.2993,74.124,23.9,98,0.1,999.4,7.6,28.8,61,30.6,15.8,4.9,266.0,47.0,1.6,6,5,7,1,2026-07-17T20:45:47.133151+05:30
Jodhpur,Rajasthan,26.2389,73.0243,33.5,45,0.0,977.6,8.4,43.6,124,266.4,56.0,6.2,150.0,61.0,2.0,0,5,7,1,2026-07-17T20:45:47.133155+05:30
Udaipur,Rajasthan,24.5854,73.7125,28.1,65,0.0,942.8,8.6,34.2,74,41.1,20.8,4.8,152.0,75.0,3.5,7,5,7,1,2026-07-17T20:45:47.133159+05:30
Kota,Rajasthan,25.2138,75.8648,33.3,50,0.0,974.3,7.35,32.4,87,42.7,25.7,12.2,207.0,71.0,6.5,0,5,7,1,2026-07-17T20:45:47.133163+05:30
Bikaner,Rajasthan,28.0229,73.3119,35.8,38,0.0,975.2,8.4,39.2,121,118.7,41.6,2.2,130.0,73.0,2.9,0,5,10,1,2026-07-17T20:45:47.133167+05:30
Ajmer,Rajasthan,26.4499,74.6399,30.2,58,0.0,950.3,8.25,45.7,79,37.8,22.2,10.9,161.0,60.0,3.6,0,5,7,1,2026-07-17T20:45:47.133171+05:30
Gwalior,Madhya Pradesh,26.2183,78.1828,31.2,71,0.0,978.3,6.85,44.6,108,105.9,47.8,12.0,207.0,60.0,4.1,3,5,7,1,2026-07-17T20:45:47.133175+05:30
Indore,Madhya Pradesh,22.7196,75.8577,28.7,65,0.0,945.4,8.55,39.2,74,38.2,25.3,12.7,331.0,68.0,6.9,7,5,7,1,2026-07-17T20:45:47.133179+05:30
Bhopal,Madhya Pradesh,23.2599,77.4126,28.9,71,0.0,950.5,8.4,33.5,84,34.5,22.1,8.8,277.0,69.0,5.0,7,5,7,1,2026-07-17T20:45:47.133183+05:30
Jabalpur,Madhya Pradesh,23.1815,79.9864,25.8,97,0.3,958.2,3.6,38.9,81,37.7,28.6,8.5,280.0,74.0,6.2,10,5,3,1,2026-07-17T20:45:47.133186+05:30
Ujjain,Madhya Pradesh,23.1765,75.7885,28.3,70,0.0,950.6,8.1,38.9,74,38.0,24.7,7.5,472.0,74.0,5.1,7,5,7,1,2026-07-17T20:45:47.133190+05:30
Visakhapatnam,Andhra Pradesh,17.6868,83.2185,29.3,75,0.0,999.7,7.6,43.2,89,38.4,29.7,24.8,315.0,70.0,39.3,7,5,7,1,2026-07-17T20:45:47.133194+05:30
Vijayawada,Andhra Pradesh,16.5062,80.648,28.7,78,0.0,1001.0,2.6,40.7,87,39.8,28.9,12.4,293.0,64.0,9.2,7,5,0,1,2026-07-17T20:45:47.133197+05:30
Guntur,Andhra Pradesh,16.3067,80.4365,29.4,73,0.0,1002.4,3.65,43.9,82,40.4,27.7,11.7,293.0,65.0,9.0,7,5,0,1,2026-07-17T20:45:47.133201+05:30
Nellore,Andhra Pradesh,14.4426,79.9865,26.6,93,0.2,1005.8,5.0,45.4,60,11.3,7.2,6.3,142.0,56.0,2.8,10,5,0,1,2026-07-17T20:45:47.133206+05:30
Kurnool,Andhra Pradesh,15.8281,78.0373,24.1,92,0.2,977.2,5.55,41.4,61,18.7,10.6,7.6,151.0,61.0,3.4,6,5,3,1,2026-07-17T20:45:47.133210+05:30
Kakinada,Andhra Pradesh,16.9891,82.2475,29.5,74,0.0,1004.6,7.75,49.3,83,45.3,31.2,7.7,247.0,96.0,7.5,7,5,4,1,2026-07-17T20:45:47.133214+05:30
Tirupati,Andhra Pradesh,13.6288,79.4192,24.8,95,0.1,991.6,6.0,40.3,77,18.5,16.1,28.7,186.0,22.0,3.4,6,5,3,1,2026-07-17T20:45:47.133218+05:30
Warangal,Telangana,17.9689,79.5941,26.2,91,0.0,977.4,5.95,38.2,89,31.4,24.0,12.3,312.0,49.0,6.6,7,5,3,1,2026-07-17T20:45:47.133221+05:30
Nizamabad,Telangana,18.6725,78.0941,26.1,86,0.0,963.6,1.6,31.7,79,39.5,26.2,13.4,245.0,54.0,7.3,7,5,3,1,2026-07-17T20:45:47.133225+05:30
Mysore,Karnataka,12.2958,76.6396,22.0,88,0.0,929.8,2.95,42.1,31,11.8,7.6,11.0,171.0,42.0,2.3,3,5,3,1,2026-07-17T20:45:47.133228+05:30
Mangalore,Karnataka,12.9141,74.856,24.0,98,0.0,1009.2,1.25,28.4,55,28.3,14.4,7.4,296.0,45.0,2.9,3,0,0,1,2026-07-17T20:45:47.133232+05:30
Hubli-Dharwad,Karnataka,15.3647,75.124,21.8,96,0.0,941.3,8.65,46.1,26,6.2,4.0,5.1,150.0,45.0,1.4,3,5,7,1,2026-07-17T20:45:47.133236+05:30
Belgaum,Karnataka,15.8497,74.4977,21.1,96,0.0,925.9,8.9,49.0,26,6.0,4.4,6.8,129.0,40.0,2.1,3,5,7,1,2026-07-17T20:45:50.452362+05:30
Coimbatore,Tamil Nadu,11.0168,76.9558,23.4,92,0.0,962.7,8.45,49.3,47,13.9,9.5,10.2,247.0,40.0,3.6,3,5,7,1,2026-07-17T20:45:50.452383+05:30
Madurai,Tamil Nadu,9.9252,78.1198,30.1,52,0.0,993.5,8.65,47.5,74,25.8,15.0,13.7,206.0,56.0,4.1,0,5,7,1,2026-07-17T20:45:50.452389+05:30
Trichy,Tamil Nadu,10.7905,78.7047,30.5,50,0.0,1000.3,8.75,62.6,58,15.7,11.5,12.7,146.0,50.0,4.2,0,5,4,1,2026-07-17T20:45:50.452393+05:30
Salem,Tamil Nadu,11.6643,78.146,26.8,84,0.0,978.1,7.25,42.1,69,25.1,19.3,25.2,330.0,39.0,8.9,7,5,7,1,2026-07-17T20:45:50.452398+05:30
Tirunelveli,Tamil Nadu,8.7139,77.7567,29.8,57,0.0,1004.6,8.25,46.4,51,11.6,8.2,6.5,133.0,52.0,1.8,4,5,4,1,2026-07-17T20:45:50.452402+05:30
Vellore,Tamil Nadu,12.9165,79.1325,29.5,58,0.0,984.6,8.15,46.4,63,7.5,6.6,10.7,226.0,51.0,3.8,4,5,7,1,2026-07-17T20:45:50.452406+05:30
Erode,Tamil Nadu,11.341,77.7172,26.7,75,0.0,990.0,8.8,42.8,57,17.5,12.6,17.0,233.0,42.0,3.8,7,5,7,1,2026-07-17T20:45:50.452409+05:30
Kochi,Kerala,9.9312,76.2673,26.6,85,0.0,1011.4,7.2,29.9,59,22.6,16.7,22.2,207.0,25.0,5.8,7,0,4,1,2026-07-17T20:45:50.452413+05:30
Thiruvananthapuram,Kerala,8.5241,76.9366,26.0,87,0.0,1010.8,8.35,46.1,60,18.8,10.7,4.3,150.0,54.0,1.5,7,0,4,1,2026-07-17T20:45:50.452417+05:30
Kozhikode,Kerala,11.2588,75.7804,25.0,93,0.0,1010.6,1.8,28.4,53,22.1,10.3,1.6,393.0,58.0,1.2,7,0,0,1,2026-07-17T20:45:50.452420+05:30
Thrissur,Kerala,10.5276,76.2144,24.7,96,0.0,1009.9,4.7,27.7,54,24.2,17.5,15.0,349.0,32.0,4.0,3,0,0,1,2026-07-17T20:45:50.452425+05:30
Kannur,Kerala,11.8745,75.3704,24.3,94,0.1,1010.3,2.05,33.5,52,23.1,14.1,15.3,387.0,29.0,2.8,6,0,0,1,2026-07-17T20:45:50.452429+05:30
Patna,Bihar,25.5941,85.1376,29.4,88,0.0,995.2,8.4,27.4,100,31.0,30.5,18.6,368.0,77.0,7.8,7,5,7,1,2026-07-17T20:45:50.452433+05:30
Gaya,Bihar,24.7914,85.0002,27.7,96,0.0,988.5,7.4,28.1,102,20.8,20.6,10.2,423.0,87.0,5.3,7,5,7,1,2026-07-17T20:45:50.452436+05:30
Muzaffarpur,Bihar,26.1209,85.3647,27.7,93,0.1,995.4,7.4,30.6,95,28.1,27.6,17.9,362.0,71.0,6.3,10,5,7,1,2026-07-17T20:45:50.452440+05:30
Bhagalpur,Bihar,25.2425,87.0117,29.6,82,0.0,995.7,7.7,30.6,71,26.0,25.6,19.1,273.0,62.0,9.7,7,5,7,1,2026-07-17T20:45:50.452443+05:30
Ranchi,Jharkhand,23.3441,85.3096,23.9,96,0.0,932.8,8.85,27.4,72,26.0,25.2,16.5,265.0,64.0,6.2,3,5,7,1,2026-07-17T20:45:50.452447+05:30
Jamshedpur,Jharkhand,22.8046,86.2029,27.1,95,0.1,985.5,8.85,23.4,94,36.0,35.5,20.3,390.0,81.0,24.5,10,5,7,1,2026-07-17T20:45:50.452451+05:30
Dhanbad,Jharkhand,23.7957,86.4304,27.2,94,0.0,974.5,7.15,20.2,100,63.6,63.3,65.3,321.0,39.0,126.5,7,5,7,1,2026-07-17T20:45:50.452454+05:30
Bokaro,Jharkhand,23.6693,86.1511,27.5,95,0.0,978.2,6.85,22.0,97,43.8,43.5,43.0,373.0,54.0,95.3,7,5,7,1,2026-07-17T20:45:50.452458+05:30
Bhubaneswar,Odisha,20.2961,85.8245,26.9,92,0.0,997.9,6.6,35.6,73,16.4,14.1,7.9,339.0,90.0,4.7,7,5,7,1,2026-07-17T20:45:50.452461+05:30
Cuttack,Odisha,20.4625,85.8828,27.0,91,0.0,999.6,6.55,34.2,73,16.4,14.1,7.9,369.0,90.0,4.7,7,5,7,1,2026-07-17T20:45:50.452465+05:30
Rourkela,Odisha,22.2604,84.8536,26.2,98,0.1,980.2,6.85,28.4,73,21.5,19.3,12.1,450.0,76.0,2.7,10,5,7,1,2026-07-17T20:45:50.452468+05:30
Raipur,Chhattisgarh,21.2514,81.6296,26.1,81,0.0,971.7,2.8,36.7,97,38.4,27.1,27.1,224.0,58.0,40.5,7,5,3,1,2026-07-17T20:45:50.452472+05:30
Bhilai,Chhattisgarh,21.1938,81.3509,24.9,85,0.1,972.2,4.65,34.2,91,35.7,25.5,21.8,574.0,60.0,33.0,6,5,3,1,2026-07-17T20:45:50.452476+05:30
Guwahati,Assam,26.1158,91.7086,26.8,96,0.1,998.3,7.35,24.5,55,13.9,12.8,9.0,413.0,53.0,2.2,10,5,7,1,2026-07-17T20:45:50.452479+05:30
Agartala,Tripura,23.8315,91.2868,27.1,86,0.0,1003.9,7.55,53.3,57,17.8,14.4,6.5,165.0,66.0,2.4,7,5,4,1,2026-07-17T20:45:50.452483+05:30
Shillong,Meghalaya,25.5788,91.8933,20.4,97,0.1,855.8,4.65,44.6,38,3.2,2.9,7.0,205.0,59.0,1.9,6,5,3,1,2026-07-17T20:45:50.452487+05:30
Imphal,Manipur,24.817,93.9368,23.4,95,0.0,922.5,4.55,12.6,62,28.9,23.1,18.5,767.0,40.0,4.1,3,5,3,1,2026-07-17T20:45:50.452491+05:30
Aizawl,Mizoram,23.7271,92.7176,20.7,87,0.0,891.9,6.45,42.5,59,11.7,7.8,2.4,133.0,59.0,1.2,3,5,7,1,2026-07-17T20:45:50.452495+05:30
Kohima,Nagaland,25.6701,94.1077,21.2,87,0.0,854.8,2.85,19.4,52,16.0,11.6,7.2,386.0,54.0,1.6,3,5,3,1,2026-07-17T20:45:50.452499+05:30
Gangtok,Sikkim,27.3314,88.6138,19.6,99,0.2,836.9,6.15,33.1,47,5.3,4.4,5.1,237.0,98.0,1.8,6,10,7,1,2026-07-17T20:45:50.452503+05:30
Siliguri,West Bengal,26.7271,88.3953,26.4,95,0.0,989.7,7.9,29.2,68,24.9,20.0,8.5,392.0,98.0,3.8,7,5,7,1,2026-07-17T20:45:53.775263+05:30
Durgapur,West Bengal,23.5204,87.3119,27.6,93,0.0,989.5,8.1,30.2,85,40.6,40.5,37.4,736.0,60.0,46.9,7,5,7,1,2026-07-17T20:45:53.775287+05:30
Asansol,West Bengal,23.6739,86.9524,27.8,93,0.0,988.1,8.05,28.4,82,40.7,40.6,42.7,837.0,57.0,53.8,7,5,7,1,2026-07-17T20:45:53.775292+05:30
Pondicherry,Puducherry,11.9139,79.8145,28.3,78,0.0,1008.2,8.7,38.5,79,33.8,22.2,15.9,260.0,76.0,14.1,7,0,4,1,2026-07-17T20:45:53.775297+05:30
Port Blair,Andaman and Nicobar Islands,11.6234,92.7265,27.0,85,0.0,1009.0,7.0,37.8,43,12.3,6.4,0.3,99.0,42.0,0.5,7,0,4,1,2026-07-17T20:45:53.775302+05:30
Haridwar,Uttarakhand,29.9457,78.1642,29.6,87,0.1,967.8,7.2,25.2,174,98.5,78.2,27.5,466.0,107.0,16.1,10,5,7,1,2026-07-17T20:45:53.775307+05:30
Rishikesh,Uttarakhand,30.0869,78.2676,28.7,81,0.1,960.8,7.35,27.0,169,68.9,54.4,6.8,400.0,162.0,12.2,10,5,7,1,2026-07-17T20:45:53.775311+05:30
Nainital,Uttarakhand,29.3919,79.4542,18.4,99,0.1,803.6,6.15,28.8,144,93.8,59.3,12.0,412.0,123.0,11.0,6,10,7,1,2026-07-17T20:45:53.775316+05:30
Mussoorie,Uttarakhand,30.4599,78.0664,18.3,98,0.0,800.9,6.65,40.3,159,65.7,59.1,23.5,471.0,98.0,11.4,3,10,7,1,2026-07-17T20:45:53.775321+05:30
Dharamshala,Himachal Pradesh,32.219,76.3234,22.8,99,0.1,865.4,7.75,31.0,104,11.3,9.6,13.0,423.0,90.0,1.3,6,5,7,1,2026-07-17T20:45:53.775325+05:30
Dalhousie,Himachal Pradesh,32.5387,75.971,19.6,99,0.1,802.5,7.8,24.1,135,69.8,46.3,20.9,560.0,120.0,4.5,6,10,7,1,2026-07-17T20:45:53.775329+05:30
Patiala,Punjab,30.3398,76.3869,31.4,64,0.0,971.1,7.35,34.9,193,397.7,113.2,29.2,501.0,76.0,8.7,3,5,7,1,2026-07-17T20:45:53.775333+05:30
Bhatinda,Punjab,30.211,74.9455,36.0,40,0.0,976.3,8.25,33.8,174,180.7,90.3,48.1,291.0,51.0,8.7,0,5,10,1,2026-07-17T20:45:53.775337+05:30
Rohtak,Haryana,28.8955,76.6066,32.3,72,0.0,975.1,6.55,33.8,793,523.4,140.2,48.9,1026.0,37.0,8.7,3,5,7,1,2026-07-17T20:45:53.775341+05:30
Panipat,Haryana,29.3909,76.9635,31.7,76,0.0,973.6,7.5,32.4,1134,1113.9,215.1,37.4,600.0,49.0,8.3,3,5,7,1,2026-07-17T20:45:53.775345+05:30
Mathura,Uttar Pradesh,27.4924,77.6737,32.3,64,0.0,981.0,7.25,32.0,626,456.3,104.8,35.7,406.0,38.0,6.1,3,5,7,1,2026-07-17T20:45:53.775350+05:30
Vrindavan,Uttar Pradesh,27.5823,77.7027,32.2,65,0.0,981.3,7.05,31.7,626,456.3,104.8,35.7,352.0,38.0,6.1,3,5,7,1,2026-07-17T20:45:53.775353+05:30
Ayodhya,Uttar Pradesh,26.7922,82.1998,28.3,92,0.1,990.5,7.75,26.3,121,63.3,54.2,23.1,570.0,75.0,7.8,10,5,7,1,2026-07-17T20:45:53.775357+05:30
Ratlam,Madhya Pradesh,23.3315,75.0367,28.1,71,0.0,951.5,8.45,33.8,72,36.1,22.8,5.6,176.0,82.0,5.3,7,5,7,1,2026-07-17T20:45:53.775361+05:30
Sagar,Madhya Pradesh,23.8388,78.7378,26.1,94,0.0,947.0,7.0,39.2,88,46.2,28.7,6.9,229.0,79.0,5.8,7,5,7,1,2026-07-17T20:45:53.775364+05:30
Satna,Madhya Pradesh,24.6005,80.8322,26.5,90,0.0,967.2,8.05,37.4,115,61.7,34.7,7.9,218.0,85.0,4.2,7,5,7,1,2026-07-17T20:45:53.775368+05:30
Akola,Maharashtra,20.7002,77.0082,29.4,66,0.0,973.4,8.55,42.1,67,27.9,17.1,9.4,174.0,62.0,6.9,7,5,7,1,2026-07-17T20:45:53.775373+05:30
Amravati,Maharashtra,20.9374,77.7796,28.6,66,0.0,965.7,7.9,39.6,70,31.2,19.3,10.8,233.0,60.0,7.6,7,5,7,1,2026-07-17T20:45:53.775378+05:30
Latur,Maharashtra,18.4088,76.5604,23.1,94,0.1,938.9,7.35,35.3,58,26.2,15.3,5.5,206.0,60.0,2.7,6,5,7,1,2026-07-17T20:45:53.775382+05:30
Nanded,Maharashtra,19.1383,77.3091,25.4,91,0.1,967.9,8.3,33.8,73,29.5,18.6,9.4,284.0,61.0,4.4,10,5,7,1,2026-07-17T20:45:53.775387+05:30
Gulbarga,Karnataka,17.3297,76.8343,24.5,88,0.1,958.3,6.95,40.0,55,13.9,9.8,13.6,176.0,42.0,2.8,6,5,7,1,2026-07-17T20:45:53.775390+05:30
Bidar,Karnataka,17.9104,77.5199,23.8,95,0.1,934.3,7.5,31.0,72,39.6,22.7,17.7,214.0,37.0,3.5,6,5,7,1,2026-07-17T20:45:53.775394+05:30
Hospet,Karnataka,15.2689,76.3909,23.6,87,0.0,956.3,6.3,45.4,33,11.8,7.3,5.8,162.0,48.0,1.8,3,5,7,1,2026-07-17T20:45:53.775398+05:30
Tirupur,Tamil Nadu,11.1085,77.3411,25.2,80,0.0,976.1,8.65,54.0,59,19.4,14.5,18.7,216.0,41.0,5.3,7,5,7,1,2026-07-17T20:45:53.775402+05:30
Alappuzha,Kerala,9.4981,76.3388,26.7,84,0.0,1011.4,8.45,37.8,60,26.1,16.6,14.5,91.0,43.0,3.8,7,0,4,1,2026-07-17T20:45:53.775405+05:30
Munnar,Kerala,10.0889,77.0595,15.2,96,0.0,857.5,8.6,34.9,36,8.2,6.4,10.2,125.0,36.0,1.9,3,10,7,0,2026-07-17T20:45:53.775410+05:30
Silchar,Assam,24.8333,92.7789,27.5,93,0.1,1003.6,8.7,28.8,70,25.6,19.6,7.2,305.0,73.0,4.6,10,5,4,1,2026-07-17T20:45:53.775414+05:30
Dibrugarh,Assam,27.4728,94.912,26.5,97,0.0,992.8,4.75,36.0,53,20.5,17.9,10.2,201.0,56.0,2.4,7,5,3,1,2026-07-17T20:45:53.775418+05:30
