city,state,latitude,longitude,temp,humidity,rain,pressure,uv_index,wind_gusts,aqi,pm10,pm2_5,mosquito_risk,arthritis_risk,migraine_risk,frizz_risk,updated_at
Delhi,Delhi,28.6139,77.209,29.7,31,0.0,984.8,5.7,29.9,156,193.2,45.1,4,5,3,0,2026-03-01T14:06:07.273888+05:30
Mumbai,Maharashtra,19.076,72.8777,26.4,67,0.0,1009.0,7.25,23.8,74,55.2,30.9,7,0,4,1,2026-03-01T14:06:07.273929+05:30
Bangalore,Karnataka,12.9716,77.5946,30.2,36,0.0,911.4,9.05,29.2,151,46.4,45.2,0,5,7,0,2026-03-01T14:06:07.273944+05:30
Hyderabad,Telangana,17.385,78.4867,32.6,33,0.0,953.0,8.3,27.4,126,38.9,38.2,0,5,7,0,2026-03-01T14:06:07.273954+05:30
Chennai,Tamil Nadu,13.0827,80.2707,32.8,41,0.0,1007.2,8.75,33.8,148,48.8,45.1,0,5,4,1,2026-03-01T14:06:07.273963+05:30
Kolkata,West Bengal,22.5726,88.3639,31.5,54,0.0,1005.0,7.6,25.2,89,43.9,41.6,0,5,4,1,2026-03-01T14:06:07.273971+05:30
Pune,Maharashtra,18.5204,73.8567,34.7,23,0.0,948.1,7.85,33.8,81,21.4,20.1,0,5,7,0,2026-03-01T14:06:07.273983+05:30
Ahmedabad,Gujarat,23.0225,72.5714,33.3,30,0.0,1003.3,7.05,21.2,99,36.7,17.9,0,5,4,0,2026-03-01T14:06:07.273990+05:30
Jaipur,Rajasthan,26.9124,75.7873,32.4,19,0.0,961.5,6.45,28.4,90,68.5,20.7,0,5,7,0,2026-03-01T14:06:07.273997+05:30
Lucknow,Uttar Pradesh,26.8467,80.9462,31.6,18,0.0,994.2,6.2,39.2,132,58.7,25.8,0,5,7,0,2026-03-01T14:06:07.274004+05:30
Kanpur,Uttar Pradesh,26.4499,80.3319,31.2,25,0.0,992.9,6.2,31.0,152,161.6,34.0,0,5,7,0,2026-03-01T14:06:07.274010+05:30
Chandigarh,Chandigarh,30.7333,76.7794,27.8,36,0.0,970.3,5.6,32.4,90,36.2,22.9,4,5,3,0,2026-03-01T14:06:07.274018+05:30
Srinagar,Jammu and Kashmir,34.0837,74.7973,17.3,21,0.0,842.7,6.4,14.8,151,36.9,24.0,0,5,7,1,2026-03-01T14:06:07.274025+05:30
Jammu,Jammu and Kashmir,32.7266,74.857,27.1,36,0.0,974.3,6.15,25.2,99,40.4,23.6,4,5,7,0,2026-03-01T14:06:07.274032+05:30
Amritsar,Punjab,31.634,74.8723,27.5,34,0.0,983.1,6.1,22.0,133,55.8,32.6,4,5,7,0,2026-03-01T14:06:07.274039+05:30
Ludhiana,Punjab,30.901,75.8573,28.1,36,0.0,980.7,5.8,27.4,153,61.9,39.1,4,5,3,0,2026-03-01T14:06:07.274045+05:30
Jalandhar,Punjab,31.326,75.5762,27.8,34,0.0,981.9,5.95,24.5,155,62.2,33.6,4,5,3,0,2026-03-01T14:06:07.274054+05:30
Dehradun,Uttarakhand,30.6284,78.0322,18.7,39,0.0,830.3,5.95,35.6,66,29.2,14.9,0,5,3,0,2026-03-01T14:06:07.274075+05:30
Shimla,Himachal Pradesh,31.1048,77.1734,16.6,35,0.0,785.2,6.0,51.8,72,26.0,14.5,0,5,3,0,2026-03-01T14:06:07.274083+05:30
Manali,Himachal Pradesh,32.2396,77.1887,20.0,12,0.0,819.3,7.6,34.9,51,14.5,7.6,0,5,7,1,2026-03-01T14:06:07.274090+05:30
Gurgaon,Haryana,28.4595,77.0266,29.9,31,0.0,983.4,5.8,28.1,334,650.1,85.0,4,5,3,0,2026-03-01T14:06:07.274099+05:30
Noida,Uttar Pradesh,28.5355,77.391,30.2,28,0.0,986.3,5.75,29.5,334,650.1,85.0,0,5,3,0,2026-03-01T14:06:07.274105+05:30
Ghaziabad,Uttar Pradesh,28.6692,77.4538,29.2,33,0.0,984.4,5.7,28.1,152,155.1,41.1,4,5,3,0,2026-03-01T14:06:07.274112+05:30
Faridabad,Haryana,28.4089,77.3178,29.6,31,0.0,985.7,5.75,26.3,334,650.1,85.0,4,5,3,0,2026-03-01T14:06:07.274118+05:30
Meerut,Uttar Pradesh,28.9845,77.7064,29.1,35,0.0,982.9,5.6,33.1,152,155.1,41.1,4,5,3,0,2026-03-01T14:06:07.274124+05:30
Agra,Uttar Pradesh,27.1767,78.0081,31.4,25,0.0,989.7,6.05,22.3,162,250.5,53.0,0,5,7,0,2026-03-01T14:06:07.274130+05:30
Varanasi,Uttar Pradesh,25.3176,82.9739,31.3,38,0.0,997.9,6.85,30.6,142,53.9,29.9,0,5,7,0,2026-03-01T14:06:07.274139+05:30
Prayagraj,Uttar Pradesh,25.4358,81.8463,31.0,37,0.0,996.7,6.75,27.0,140,83.4,37.4,0,5,7,0,2026-03-01T14:06:07.274146+05:30
Gorakhpur,Uttar Pradesh,26.7606,83.3732,30.0,36,0.0,997.1,6.55,33.1,119,44.7,25.3,4,5,7,0,2026-03-01T14:06:07.274153+05:30
Bareilly,Uttar Pradesh,28.367,79.4304,29.2,33,0.0,987.7,5.9,34.2,124,51.9,34.7,4,5,3,0,2026-03-01T14:06:07.274159+05:30
Aligarh,Uttar Pradesh,27.8974,78.088,30.4,27,0.0,987.2,5.8,28.4,162,364.1,65.0,0,5,3,0,2026-03-01T14:06:07.274168+05:30
Moradabad,Uttar Pradesh,28.8386,78.7733,29.0,36,0.0,984.6,5.7,33.5,129,62.2,38.3,4,5,3,0,2026-03-01T14:06:07.274174+05:30
Saharanpur,Uttar Pradesh,29.9637,77.546,28.3,34,0.0,976.7,5.35,41.0,139,55.5,29.9,4,5,3,0,2026-03-01T14:06:07.274180+05:30
Jhansi,Uttar Pradesh,25.4484,78.5685,32.0,31,0.0,979.4,6.65,24.5,68,92.7,31.7,0,5,7,0,2026-03-01T14:06:10.800157+05:30
Surat,Gujarat,21.1702,72.8311,31.5,40,0.0,1007.6,6.95,27.0,101,61.2,46.9,0,5,4,1,2026-03-01T14:06:10.800184+05:30
Vadodara,Gujarat,22.3072,73.1812,33.9,30,0.0,1005.2,7.05,13.0,116,41.8,31.7,0,5,4,0,2026-03-01T14:06:10.800194+05:30
Rajkot,Gujarat,22.3039,70.8022,32.0,32,0.0,995.6,6.9,23.4,64,47.1,20.1,0,5,7,0,2026-03-01T14:06:10.800201+05:30
Thane,Maharashtra,19.2183,72.9781,29.5,51,0.0,1008.4,7.25,36.0,74,55.2,30.9,4,0,4,1,2026-03-01T14:06:10.800209+05:30
Nagpur,Maharashtra,21.1458,79.0882,33.8,28,0.0,973.0,7.65,28.8,125,16.6,15.9,0,5,7,0,2026-03-01T14:06:10.800216+05:30
Nashik,Maharashtra,19.9975,73.7898,31.5,27,0.0,945.8,7.45,25.6,82,25.3,22.9,0,5,7,0,2026-03-01T14:06:10.800223+05:30
Aurangabad,Maharashtra,19.8762,75.3433,33.3,24,0.0,944.3,8.0,25.6,65,22.7,20.8,0,5,7,0,2026-03-01T14:06:10.800230+05:30
Solapur,Maharashtra,17.6599,75.9064,32.8,35,0.0,956.9,8.25,19.8,79,28.8,28.3,0,5,7,0,2026-03-01T14:06:10.800237+05:30
Kolhapur,Maharashtra,16.705,74.2433,32.8,30,0.0,947.5,8.35,38.9,65,17.3,16.6,0,5,7,0,2026-03-01T14:06:10.800244+05:30
Goa,Goa,15.2993,74.124,30.1,51,0.0,997.8,8.4,35.3,55,18.8,14.4,0,5,7,1,2026-03-01T14:06:10.800250+05:30
Jodhpur,Rajasthan,26.2389,73.0243,33.0,28,0.0,984.7,6.75,18.4,69,61.7,19.0,0,5,7,0,2026-03-01T14:06:10.800257+05:30
Udaipur,Rajasthan,24.5854,73.7125,30.2,29,0.0,948.0,7.35,25.2,58,24.4,13.7,0,5,7,0,2026-03-01T14:06:10.800264+05:30
Kota,Rajasthan,25.2138,75.8648,32.0,36,0.0,980.5,6.8,19.8,76,32.5,17.6,0,5,7,0,2026-03-01T14:06:10.800271+05:30
Bikaner,Rajasthan,28.0229,73.3119,32.0,24,0.0,983.7,6.45,16.2,64,51.1,21.0,0,5,7,0,2026-03-01T14:06:10.800277+05:30
Ajmer,Rajasthan,26.4499,74.6399,31.5,23,0.0,956.3,6.7,17.6,76,39.0,15.4,0,5,7,0,2026-03-01T14:06:10.800284+05:30
Gwalior,Madhya Pradesh,26.2183,78.1828,30.2,41,0.0,985.1,6.35,25.9,102,78.5,24.7,0,5,7,0,2026-03-01T14:06:10.800290+05:30
Indore,Madhya Pradesh,22.7196,75.8577,30.5,32,0.0,949.1,7.35,22.3,72,23.9,16.7,0,5,7,0,2026-03-01T14:06:10.800297+05:30
Bhopal,Madhya Pradesh,23.2599,77.4126,29.9,35,0.0,954.9,7.2,24.1,67,21.1,17.3,4,5,7,0,2026-03-01T14:06:10.800303+05:30
Jabalpur,Madhya Pradesh,23.1815,79.9864,31.8,32,0.0,962.0,7.3,32.8,96,11.8,11.0,0,5,7,0,2026-03-01T14:06:10.800310+05:30
Ujjain,Madhya Pradesh,23.1765,75.7885,30.8,32,0.0,954.9,7.25,20.5,81,25.1,16.6,0,5,7,0,2026-03-01T14:06:10.800316+05:30
Visakhapatnam,Andhra Pradesh,17.6868,83.2185,32.3,42,0.0,1003.0,8.3,39.2,150,58.8,55.5,0,5,4,1,2026-03-01T14:06:10.800323+05:30
Vijayawada,Andhra Pradesh,16.5062,80.648,32.9,51,0.0,1002.0,8.4,25.6,151,45.1,43.0,0,5,4,1,2026-03-01T14:06:10.800329+05:30
Guntur,Andhra Pradesh,16.3067,80.4365,33.4,43,0.0,1003.1,8.4,27.4,145,43.2,41.7,0,5,4,1,2026-03-01T14:06:10.800336+05:30
Nellore,Andhra Pradesh,14.4426,79.9865,35.3,32,0.0,1005.0,8.6,32.0,143,41.7,40.2,0,5,7,1,2026-03-01T14:06:10.800343+05:30
Kurnool,Andhra Pradesh,15.8281,78.0373,35.6,29,0.0,975.7,8.4,22.0,116,36.2,35.4,0,5,10,0,2026-03-01T14:06:10.800351+05:30
Kakinada,Andhra Pradesh,16.9891,82.2475,35.7,35,0.0,1006.3,8.3,34.2,151,54.7,50.2,0,5,7,1,2026-03-01T14:06:10.800357+05:30
Tirupati,Andhra Pradesh,13.6288,79.4192,33.7,32,0.0,990.9,8.7,30.6,152,36.7,35.3,0,5,7,0,2026-03-01T14:06:10.800364+05:30
Warangal,Telangana,17.9689,79.5941,32.7,44,0.0,978.6,8.1,27.7,134,46.4,45.5,0,5,7,1,2026-03-01T14:06:10.800370+05:30
Nizamabad,Telangana,18.6725,78.0941,33.5,32,0.0,964.9,8.0,20.9,123,29.5,28.9,0,5,7,0,2026-03-01T14:06:10.800377+05:30
Mysore,Karnataka,12.2958,76.6396,31.3,36,0.0,927.8,9.05,37.1,118,51.6,50.2,0,5,7,0,2026-03-01T14:06:10.800384+05:30
Mangalore,Karnataka,12.9141,74.856,27.7,76,0.0,1006.1,8.65,33.5,48,15.3,11.1,7,5,4,1,2026-03-01T14:06:10.800391+05:30
Hubli-Dharwad,Karnataka,15.3647,75.124,33.3,23,0.0,940.3,8.55,36.4,58,29.4,28.5,0,5,7,0,2026-03-01T14:06:10.800398+05:30
Belgaum,Karnataka,15.8497,74.4977,33.1,24,0.0,925.5,8.6,38.2,57,19.6,18.9,0,5,7,0,2026-03-01T14:06:14.047537+05:30
Coimbatore,Tamil Nadu,11.0168,76.9558,32.8,36,0.0,960.9,9.05,36.4,145,48.0,46.7,0,5,7,0,2026-03-01T14:06:14.047565+05:30
Madurai,Tamil Nadu,9.9252,78.1198,33.7,37,0.0,992.1,9.0,27.7,151,38.1,36.3,0,5,7,1,2026-03-01T14:06:14.047576+05:30
Trichy,Tamil Nadu,10.7905,78.7047,34.8,33,0.0,998.7,8.9,26.6,150,34.8,32.7,0,5,7,1,2026-03-01T14:06:14.047584+05:30
Salem,Tamil Nadu,11.6643,78.146,35.6,27,0.0,975.9,8.95,25.6,150,40.4,39.0,0,5,10,0,2026-03-01T14:06:14.047592+05:30
Tirunelveli,Tamil Nadu,8.7139,77.7567,34.8,35,0.0,1002.2,9.05,43.9,140,40.4,38.9,0,5,4,1,2026-03-01T14:06:14.047601+05:30
Vellore,Tamil Nadu,12.9165,79.1325,34.1,29,0.0,983.7,8.8,38.5,155,37.8,36.4,0,5,7,0,2026-03-01T14:06:14.047609+05:30
Erode,Tamil Nadu,11.341,77.7172,35.6,29,0.0,987.6,8.95,26.6,139,40.7,39.2,0,5,10,0,2026-03-01T14:06:14.047617+05:30
Kochi,Kerala,9.9312,76.2673,28.4,74,0.0,1007.6,8.9,33.8,107,46.2,44.6,7,5,4,1,2026-03-01T14:06:14.047626+05:30
Thiruvananthapuram,Kerala,8.5241,76.9366,28.3,76,0.0,1007.0,8.95,23.8,88,31.4,29.9,7,5,4,1,2026-03-01T14:06:14.047634+05:30
Kozhikode,Kerala,11.2588,75.7804,29.7,66,0.0,1006.9,8.75,31.3,66,20.5,17.6,7,5,4,1,2026-03-01T14:06:14.047642+05:30
Thrissur,Kerala,10.5276,76.2144,32.1,57,0.0,1005.8,8.85,39.6,109,41.3,39.8,0,5,4,1,2026-03-01T14:06:14.047650+05:30
Kannur,Kerala,11.8745,75.3704,30.4,62,0.0,1006.4,8.75,38.2,50,14.0,10.9,3,5,4,1,2026-03-01T14:06:14.047658+05:30
Patna,Bihar,25.5941,85.1376,31.1,35,0.0,1000.4,7.0,30.2,118,88.0,42.4,0,5,4,0,2026-03-01T14:06:14.047666+05:30
Gaya,Bihar,24.7914,85.0002,30.6,37,0.0,994.0,7.1,21.2,103,53.4,33.3,0,5,7,0,2026-03-01T14:06:14.047673+05:30
Muzaffarpur,Bihar,26.1209,85.3647,31.2,36,0.0,1000.0,6.95,34.2,123,91.3,43.9,0,5,4,0,2026-03-01T14:06:14.047681+05:30
Bhagalpur,Bihar,25.2425,87.0117,30.2,41,0.0,1000.9,7.05,25.2,103,68.7,42.3,0,5,4,0,2026-03-01T14:06:14.047689+05:30
Ranchi,Jharkhand,23.3441,85.3096,29.1,29,0.0,937.8,7.75,27.7,87,31.8,29.6,4,5,7,0,2026-03-01T14:06:14.047697+05:30
Jamshedpur,Jharkhand,22.8046,86.2029,32.2,26,0.0,990.5,7.7,10.8,131,44.7,37.4,0,5,7,0,2026-03-01T14:06:14.047704+05:30
Dhanbad,Jharkhand,23.7957,86.4304,33.3,21,0.0,979.4,7.55,31.0,151,39.8,34.0,0,5,7,0,2026-03-01T14:06:14.047712+05:30
Bokaro,Jharkhand,23.6693,86.1511,32.7,22,0.0,983.4,7.55,30.6,151,37.6,33.6,0,5,7,0,2026-03-01T14:06:14.047720+05:30
Bhubaneswar,Odisha,20.2961,85.8245,34.0,30,0.0,1001.8,8.05,28.1,104,39.5,38.1,0,5,4,0,2026-03-01T14:06:14.047727+05:30
Cuttack,Odisha,20.4625,85.8828,35.5,29,0.0,1003.2,8.05,29.9,104,39.5,38.1,0,5,7,0,2026-03-01T14:06:14.047734+05:30
Rourkela,Odisha,22.2604,84.8536,33.3,26,0.0,984.9,7.6,22.3,122,44.2,43.2,0,5,7,0,2026-03-01T14:06:14.047742+05:30
Raipur,Chhattisgarh,21.2514,81.6296,34.4,33,0.0,974.2,7.75,27.4,158,42.0,41.4,0,5,7,0,2026-03-01T14:06:14.047749+05:30
Bhilai,Chhattisgarh,21.1938,81.3509,34.4,35,0.0,974.7,7.75,26.6,159,34.6,34.0,0,5,7,1,2026-03-01T14:06:14.047756+05:30
Guwahati,Assam,26.1158,91.7086,25.8,64,0.0,1001.2,7.0,32.0,162,80.1,61.5,7,5,4,1,2026-03-01T14:06:14.047764+05:30
Agartala,Tripura,23.8315,91.2868,30.7,48,0.0,1005.1,7.35,29.5,127,39.6,27.9,0,5,4,1,2026-03-01T14:06:14.047771+05:30
Shillong,Meghalaya,25.5788,91.8933,16.1,49,0.0,854.3,6.8,56.9,152,60.5,40.7,0,5,7,0,2026-03-01T14:06:14.047778+05:30
Imphal,Manipur,24.817,93.9368,21.0,44,0.0,921.9,7.55,54.0,151,55.1,36.7,0,5,7,0,2026-03-01T14:06:14.047786+05:30
Aizawl,Mizoram,23.7271,92.7176,23.6,38,0.0,892.7,7.55,40.0,123,52.9,33.9,0,5,7,0,2026-03-01T14:06:14.047794+05:30
Kohima,Nagaland,25.6701,94.1077,16.8,59,0.0,853.6,7.4,76.0,152,60.8,42.1,0,5,7,0,2026-03-01T14:06:14.047801+05:30
Gangtok,Sikkim,27.3314,88.6138,13.0,85,0.1,834.8,5.3,12.2,137,55.1,36.8,6,10,3,0,2026-03-01T14:06:14.047809+05:30
Siliguri,West Bengal,26.7271,88.3953,23.4,57,0.0,992.8,7.0,31.7,171,107.8,71.7,0,5,7,0,2026-03-01T14:06:17.293881+05:30
Durgapur,West Bengal,23.5204,87.3119,34.6,19,0.0,994.1,7.55,28.8,124,41.2,33.1,0,5,7,0,2026-03-01T14:06:17.293913+05:30
Asansol,West Bengal,23.6739,86.9524,34.0,22,0.0,993.0,7.55,28.1,109,39.7,32.7,0,5,7,0,2026-03-01T14:06:17.293925+05:30
Pondicherry,Puducherry,11.9139,79.8145,33.3,46,0.0,1007.8,8.8,29.2,143,48.7,44.9,0,5,4,1,2026-03-01T14:06:17.293935+05:30
Port Blair,Andaman and Nicobar Islands,11.6234,92.7265,27.5,68,0.0,1005.1,8.7,26.3,101,21.0,18.3,7,5,4,1,2026-03-01T14:06:17.293945+05:30
Haridwar,Uttarakhand,29.9457,78.1642,27.9,39,0.0,975.0,5.4,40.3,107,42.4,27.5,4,5,3,0,2026-03-01T14:06:17.293954+05:30
Rishikesh,Uttarakhand,30.0869,78.2676,27.5,35,0.0,967.5,5.5,37.1,89,39.6,21.8,4,5,3,0,2026-03-01T14:06:17.293963+05:30
Nainital,Uttarakhand,29.3919,79.4542,20.3,49,0.0,806.5,6.3,43.9,85,41.7,25.4,0,5,7,0,2026-03-01T14:06:17.293971+05:30
Mussoorie,Uttarakhand,30.4599,78.0664,19.0,38,0.0,803.3,5.85,41.8,89,39.9,24.6,0,5,3,0,2026-03-01T14:06:17.293980+05:30
Dharamshala,Himachal Pradesh,32.219,76.3234,22.0,40,0.0,869.9,6.05,27.7,58,25.0,13.0,0,5,7,0,2026-03-01T14:06:17.293988+05:30
Dalhousie,Himachal Pradesh,32.5387,75.971,21.2,28,0.0,805.6,6.25,28.8,90,41.0,23.8,0,5,7,0,2026-03-01T14:06:17.293997+05:30
Patiala,Punjab,30.3398,76.3869,28.2,39,0.0,980.0,5.5,29.9,154,246.8,55.8,4,5,3,0,2026-03-01T14:06:17.294006+05:30
Bhatinda,Punjab,30.211,74.9455,29.3,37,0.0,985.9,6.2,21.2,150,74.7,43.1,4,5,7,0,2026-03-01T14:06:17.294014+05:30
Rohtak,Haryana,28.8955,76.6066,29.6,34,0.0,983.8,5.7,29.2,158,236.1,48.0,4,5,3,0,2026-03-01T14:06:17.294022+05:30
Panipat,Haryana,29.3909,76.9635,29.0,33,0.0,982.2,5.5,29.9,365,560.7,73.3,4,5,3,0,2026-03-01T14:06:17.294030+05:30
Mathura,Uttar Pradesh,27.4924,77.6737,31.2,25,0.0,988.7,5.95,23.0,161,258.9,48.2,0,5,3,0,2026-03-01T14:06:17.294038+05:30
Vrindavan,Uttar Pradesh,27.5823,77.7027,30.7,27,0.0,989.1,5.95,25.6,161,258.9,48.2,0,5,3,0,2026-03-01T14:06:17.294047+05:30
Ayodhya,Uttar Pradesh,26.7922,82.1998,30.8,28,0.0,995.7,6.35,36.4,120,44.0,27.4,0,5,7,0,2026-03-01T14:06:17.294055+05:30
Ratlam,Madhya Pradesh,23.3315,75.0367,30.6,35,0.0,955.9,7.2,27.7,75,24.2,15.8,0,5,7,0,2026-03-01T14:06:17.294087+05:30
Sagar,Madhya Pradesh,23.8388,78.7378,30.3,31,0.0,951.3,7.15,19.1,53,17.9,14.0,0,5,7,0,2026-03-01T14:06:17.294096+05:30
Satna,Madhya Pradesh,24.6005,80.8322,31.6,27,0.0,972.0,7.1,28.4,103,29.3,19.2,0,5,7,0,2026-03-01T14:06:17.294104+05:30
Akola,Maharashtra,20.7002,77.0082,35.0,25,0.0,975.4,7.7,28.4,70,17.6,16.2,0,5,7,0,2026-03-01T14:06:17.294113+05:30
Amravati,Maharashtra,20.9374,77.7796,35.1,22,0.0,967.5,7.65,27.4,74,15.0,13.6,0,5,10,0,2026-03-01T14:06:17.294122+05:30
Latur,Maharashtra,18.4088,76.5604,31.7,30,0.0,940.0,8.15,25.6,77,25.4,24.8,0,5,7,0,2026-03-01T14:06:17.294131+05:30
Nanded,Maharashtra,19.1383,77.3091,34.5,28,0.0,968.6,7.9,15.5,78,18.1,17.3,0,5,7,0,2026-03-01T14:06:17.294140+05:30
Gulbarga,Karnataka,17.3297,76.8343,33.7,30,0.0,958.1,8.25,14.8,97,36.9,36.2,0,5,7,0,2026-03-01T14:06:17.294149+05:30
Bidar,Karnataka,17.9104,77.5199,31.7,36,0.0,935.5,8.2,19.1,111,30.4,29.8,0,5,7,0,2026-03-01T14:06:17.294158+05:30
Hospet,Karnataka,15.2689,76.3909,33.2,32,0.0,955.2,8.55,24.5,94,37.4,36.6,0,5,7,0,2026-03-01T14:06:17.294166+05:30
Tirupur,Tamil Nadu,11.1085,77.3411,34.3,33,0.0,974.1,9.1,20.5,152,47.0,45.6,0,5,7,0,2026-03-01T14:06:17.294175+05:30
Alappuzha,Kerala,9.4981,76.3388,28.3,77,0.0,1007.7,8.9,31.3,92,38.3,36.9,7,5,4,1,2026-03-01T14:06:17.294185+05:30
Munnar,Kerala,10.0889,77.0595,28.7,39,0.0,857.9,9.4,27.0,130,38.3,37.0,4,5,7,0,2026-03-01T14:06:17.294194+05:30
Silchar,Assam,24.8333,92.7789,29.7,42,0.0,1004.0,7.3,20.5,157,63.3,40.7,4,5,4,0,2026-03-01T14:06:17.294203+05:30
Dibrugarh,Assam,27.4728,94.912,21.3,73,0.0,996.5,7.0,13.7,160,85.4,71.7,3,5,7,1,2026-03-01T14:06:17.294211+05:30
