city,state,latitude,longitude,temp,humidity,rain,pressure,uv_index,wind_gusts,aqi,pm10,pm2_5,no2,co,o3,so2,mosquito_risk,arthritis_risk,migraine_risk,frizz_risk,updated_at
Delhi,Delhi,28.6139,77.209,25.1,92,0.1,980.5,7.8,41.8,195,240.3,76.4,46.2,550.0,70.0,32.2,10,5,7,1,2026-06-12T21:51:13.143460+05:30
Mumbai,Maharashtra,19.076,72.8777,31.1,67,0.0,1008.4,7.7,46.4,82,46.8,22.4,7.7,163.0,47.0,5.8,3,0,4,1,2026-06-12T21:51:13.143499+05:30
Bangalore,Karnataka,12.9716,77.5946,21.8,91,0.0,913.5,3.6,36.4,44,12.7,10.9,24.2,844.0,41.0,6.0,3,5,3,1,2026-06-12T21:51:13.143515+05:30
Hyderabad,Telangana,17.385,78.4867,29.8,58,0.0,952.7,9.0,33.8,75,54.4,38.1,37.6,535.0,40.0,9.9,4,5,7,1,2026-06-12T21:51:13.143525+05:30
Chennai,Tamil Nadu,13.0827,80.2707,28.7,78,0.0,1008.3,7.9,37.1,84,23.3,18.0,19.0,287.0,76.0,10.9,7,0,4,1,2026-06-12T21:51:13.143533+05:30
Kolkata,West Bengal,22.5726,88.3639,29.0,87,0.0,1005.7,7.75,24.5,165,43.3,35.4,10.3,1000.0,83.0,8.4,7,5,4,1,2026-06-12T21:51:13.143546+05:30
Pune,Maharashtra,18.5204,73.8567,26.0,81,0.0,948.9,8.3,46.4,65,45.8,20.8,6.6,154.0,49.0,5.2,7,5,7,1,2026-06-12T21:51:13.143553+05:30
Ahmedabad,Gujarat,23.0225,72.5714,32.8,66,0.0,998.4,8.05,46.8,72,54.1,24.3,6.6,182.0,76.0,5.0,3,5,7,1,2026-06-12T21:51:13.143560+05:30
Jaipur,Rajasthan,26.9124,75.7873,26.3,82,0.1,958.0,8.25,64.1,156,88.0,47.0,11.2,284.0,105.0,7.4,10,5,7,1,2026-06-12T21:51:13.143569+05:30
Lucknow,Uttar Pradesh,26.8467,80.9462,28.9,75,0.0,992.1,8.35,41.0,132,92.4,71.9,45.2,728.0,65.0,20.2,7,5,7,1,2026-06-12T21:51:13.143576+05:30
Kanpur,Uttar Pradesh,26.4499,80.3319,31.5,62,0.0,990.0,8.35,53.3,148,96.2,66.4,36.0,403.0,73.0,16.5,3,5,7,1,2026-06-12T21:51:13.143583+05:30
Chandigarh,Chandigarh,30.7333,76.7794,26.7,70,0.0,967.8,7.8,54.4,102,87.8,45.5,38.1,1062.0,63.0,10.3,7,5,7,1,2026-06-12T21:51:13.143589+05:30
Srinagar,Jammu and Kashmir,34.0837,74.7973,17.7,83,0.0,842.2,9.0,39.2,107,36.6,30.2,26.9,1060.0,76.0,2.8,3,10,7,0,2026-06-12T21:51:13.143597+05:30
Jammu,Jammu and Kashmir,32.7266,74.857,28.4,56,0.0,971.6,8.55,43.2,112,91.3,51.8,44.2,677.0,70.0,7.0,4,5,7,1,2026-06-12T21:51:13.143616+05:30
Amritsar,Punjab,31.634,74.8723,28.7,66,0.0,979.3,8.45,51.5,220,418.2,122.9,32.4,818.0,63.0,7.8,7,5,7,1,2026-06-12T21:51:13.143623+05:30
Ludhiana,Punjab,30.901,75.8573,29.2,61,0.0,977.4,8.0,54.7,569,523.4,118.0,21.6,538.0,72.0,9.1,7,5,7,1,2026-06-12T21:51:13.143629+05:30
Jalandhar,Punjab,31.326,75.5762,28.7,58,0.0,978.3,8.25,54.4,282,486.2,119.2,30.8,855.0,62.0,8.8,4,5,7,1,2026-06-12T21:51:13.143636+05:30
Dehradun,Uttarakhand,30.6284,78.0322,15.5,95,0.0,829.6,6.65,36.4,76,44.7,21.5,25.2,206.0,69.0,1.2,3,10,7,0,2026-06-12T21:51:13.143643+05:30
Shimla,Himachal Pradesh,31.1048,77.1734,13.5,83,0.0,784.0,7.45,33.5,114,63.6,45.8,33.6,343.0,96.0,5.3,3,10,7,0,2026-06-12T21:51:13.143651+05:30
Manali,Himachal Pradesh,32.2396,77.1887,15.8,89,0.0,818.7,5.95,41.8,114,6.7,6.0,50.0,355.0,88.0,0.2,3,10,3,0,2026-06-12T21:51:13.143657+05:30
Gurgaon,Haryana,28.4595,77.0266,25.0,93,0.1,978.9,7.3,52.2,1246,631.4,130.9,48.1,475.0,69.0,25.9,10,5,7,1,2026-06-12T21:51:13.143664+05:30
Noida,Uttar Pradesh,28.5355,77.391,26.4,86,0.2,982.8,7.85,40.7,1246,631.4,130.9,48.1,488.0,69.0,25.9,10,5,7,1,2026-06-12T21:51:13.143671+05:30
Ghaziabad,Uttar Pradesh,28.6692,77.4538,28.1,75,0.1,981.2,7.8,42.1,113,139.2,53.3,27.4,333.0,72.0,11.5,10,5,7,1,2026-06-12T21:51:13.143677+05:30
Faridabad,Haryana,28.4089,77.3178,25.6,93,0.3,981.9,7.85,48.6,1246,631.4,130.9,48.1,472.0,69.0,25.9,10,5,7,1,2026-06-12T21:51:13.143684+05:30
Meerut,Uttar Pradesh,28.9845,77.7064,27.3,82,0.0,980.2,7.75,49.0,113,139.2,53.3,27.4,322.0,72.0,11.5,7,5,7,1,2026-06-12T21:51:13.143690+05:30
Agra,Uttar Pradesh,27.1767,78.0081,29.7,63,0.0,985.9,8.15,46.4,840,763.7,123.4,22.7,298.0,91.0,12.2,7,5,7,1,2026-06-12T21:51:13.143696+05:30
Varanasi,Uttar Pradesh,25.3176,82.9739,31.4,68,0.0,995.5,8.75,36.7,157,89.4,78.7,22.3,722.0,104.0,20.2,3,5,7,1,2026-06-12T21:51:13.143703+05:30
Prayagraj,Uttar Pradesh,25.4358,81.8463,31.7,58,0.0,993.9,8.4,33.5,162,94.8,81.7,28.5,523.0,94.0,20.0,0,5,7,1,2026-06-12T21:51:13.143710+05:30
Gorakhpur,Uttar Pradesh,26.7606,83.3732,28.7,71,0.0,995.9,8.65,36.7,131,54.8,44.5,20.1,435.0,91.0,12.1,7,5,7,1,2026-06-12T21:51:13.143718+05:30
Bareilly,Uttar Pradesh,28.367,79.4304,26.7,87,0.0,985.8,7.5,43.6,97,116.9,66.6,52.6,617.0,44.0,12.7,7,5,7,1,2026-06-12T21:51:13.143725+05:30
Aligarh,Uttar Pradesh,27.8974,78.088,28.9,67,0.0,984.6,8.0,49.7,170,294.3,76.4,29.6,383.0,84.0,14.5,7,5,7,1,2026-06-12T21:51:13.143731+05:30
Moradabad,Uttar Pradesh,28.8386,78.7733,27.2,85,0.0,982.6,7.95,42.8,105,100.4,67.3,53.8,587.0,41.0,17.6,7,5,7,1,2026-06-12T21:51:13.143738+05:30
Saharanpur,Uttar Pradesh,29.9637,77.546,26.9,79,0.0,974.6,7.45,49.7,128,110.8,62.6,38.1,621.0,57.0,11.7,7,5,7,1,2026-06-12T21:51:13.143744+05:30
Jhansi,Uttar Pradesh,25.4484,78.5685,29.6,65,0.0,975.6,8.55,53.3,106,75.0,44.6,9.6,220.0,96.0,8.8,7,5,7,1,2026-06-12T21:51:16.485361+05:30
Surat,Gujarat,21.1702,72.8311,30.6,74,0.0,1005.1,7.6,58.7,83,38.9,21.9,14.0,184.0,39.0,23.5,3,5,4,1,2026-06-12T21:51:16.485393+05:30
Vadodara,Gujarat,22.3072,73.1812,30.8,73,0.0,1001.3,8.0,54.0,78,33.9,21.2,15.1,168.0,38.0,18.3,3,5,4,1,2026-06-12T21:51:16.485407+05:30
Rajkot,Gujarat,22.3039,70.8022,30.8,64,0.0,991.6,7.55,51.5,62,43.0,19.3,4.4,111.0,56.0,4.9,3,5,7,1,2026-06-12T21:51:16.485415+05:30
Thane,Maharashtra,19.2183,72.9781,31.2,65,0.0,1007.7,7.7,41.8,82,46.8,22.4,7.7,168.0,47.0,5.8,3,5,4,1,2026-06-12T21:51:16.485422+05:30
Nagpur,Maharashtra,21.1458,79.0882,30.1,57,0.0,971.4,8.9,46.8,100,66.1,36.8,17.2,275.0,82.0,16.5,0,5,7,1,2026-06-12T21:51:16.485429+05:30
Nashik,Maharashtra,19.9975,73.7898,26.5,74,0.0,945.4,8.05,50.4,70,33.9,19.0,6.2,135.0,49.0,3.9,7,5,7,1,2026-06-12T21:51:16.485436+05:30
Aurangabad,Maharashtra,19.8762,75.3433,30.8,50,0.0,943.7,8.95,49.3,76,51.6,26.9,5.3,140.0,88.0,7.0,0,5,7,1,2026-06-12T21:51:16.485444+05:30
Solapur,Maharashtra,17.6599,75.9064,30.9,58,0.0,957.4,8.85,53.6,64,42.0,21.5,5.2,135.0,71.0,2.4,0,5,7,1,2026-06-12T21:51:16.485451+05:30
Kolhapur,Maharashtra,16.705,74.2433,24.9,87,0.0,949.2,8.45,48.6,57,24.3,14.3,7.4,161.0,43.0,3.2,3,5,7,1,2026-06-12T21:51:16.485458+05:30
Goa,Goa,15.2993,74.124,27.6,84,0.0,999.8,7.1,32.0,67,38.1,17.6,3.9,293.0,47.0,1.3,7,5,7,1,2026-06-12T21:51:16.485465+05:30
Jodhpur,Rajasthan,26.2389,73.0243,35.9,42,0.0,977.4,8.45,49.7,145,257.0,59.1,8.0,198.0,66.0,3.0,0,5,10,1,2026-06-12T21:51:16.485472+05:30
Udaipur,Rajasthan,24.5854,73.7125,32.3,49,0.0,943.4,8.8,48.6,77,65.2,25.7,4.9,138.0,78.0,3.7,0,5,7,1,2026-06-12T21:51:16.485479+05:30
Kota,Rajasthan,25.2138,75.8648,28.4,66,0.0,976.0,8.4,56.2,93,72.4,38.2,6.6,246.0,86.0,5.6,7,5,7,1,2026-06-12T21:51:16.485486+05:30
Bikaner,Rajasthan,28.0229,73.3119,30.7,54,0.0,977.8,8.45,60.8,152,110.1,45.8,6.3,171.0,78.0,4.9,0,5,7,1,2026-06-12T21:51:16.485493+05:30
Ajmer,Rajasthan,26.4499,74.6399,28.7,67,0.0,951.7,8.35,51.8,92,71.7,38.9,10.3,199.0,80.0,4.9,7,5,7,1,2026-06-12T21:51:16.485499+05:30
Gwalior,Madhya Pradesh,26.2183,78.1828,30.1,62,0.0,981.4,8.3,39.2,134,115.7,53.4,12.1,268.0,93.0,8.1,3,5,7,1,2026-06-12T21:51:16.485507+05:30
Indore,Madhya Pradesh,22.7196,75.8577,32.3,48,0.0,946.3,8.65,42.8,87,58.8,32.4,5.3,234.0,103.0,7.9,0,5,7,1,2026-06-12T21:51:16.485514+05:30
Bhopal,Madhya Pradesh,23.2599,77.4126,26.9,68,0.0,951.0,8.7,50.8,88,54.4,31.5,11.3,408.0,61.0,3.9,7,5,7,1,2026-06-12T21:51:16.485520+05:30
Jabalpur,Madhya Pradesh,23.1815,79.9864,30.2,69,0.0,960.3,8.9,45.7,91,54.4,32.4,10.9,237.0,75.0,4.9,3,5,7,1,2026-06-12T21:51:16.485527+05:30
Ujjain,Madhya Pradesh,23.1765,75.7885,32.6,48,0.0,951.7,8.6,40.7,86,51.2,29.9,3.5,185.0,99.0,6.8,0,5,7,1,2026-06-12T21:51:16.485534+05:30
Visakhapatnam,Andhra Pradesh,17.6868,83.2185,30.7,85,0.0,1002.7,9.0,41.0,96,48.1,37.5,28.4,416.0,85.0,37.6,3,5,4,1,2026-06-12T21:51:16.485542+05:30
Vijayawada,Andhra Pradesh,16.5062,80.648,31.4,61,0.0,1001.7,8.2,35.6,86,48.9,39.3,17.3,356.0,70.0,7.8,3,5,4,1,2026-06-12T21:51:16.485548+05:30
Guntur,Andhra Pradesh,16.3067,80.4365,31.1,63,0.0,1002.9,8.25,33.8,87,46.7,37.0,18.6,293.0,69.0,6.7,3,5,4,1,2026-06-12T21:51:16.485556+05:30
Nellore,Andhra Pradesh,14.4426,79.9865,31.7,60,0.0,1005.6,8.5,34.2,83,22.5,15.5,6.2,212.0,100.0,4.2,0,5,4,1,2026-06-12T21:51:16.485563+05:30
Kurnool,Andhra Pradesh,15.8281,78.0373,31.4,51,0.0,976.7,8.5,51.5,72,61.0,39.0,18.8,401.0,76.0,9.1,0,5,7,1,2026-06-12T21:51:16.485571+05:30
Kakinada,Andhra Pradesh,16.9891,82.2475,31.1,70,0.0,1006.2,8.85,39.2,84,38.8,28.1,4.7,422.0,113.0,4.4,3,5,4,1,2026-06-12T21:51:16.485578+05:30
Tirupati,Andhra Pradesh,13.6288,79.4192,28.4,71,0.0,992.1,6.4,30.2,66,19.0,16.6,15.4,241.0,54.0,1.8,7,5,7,1,2026-06-12T21:51:16.485585+05:30
Warangal,Telangana,17.9689,79.5941,30.7,63,0.0,977.1,9.0,36.0,104,76.4,57.0,31.5,411.0,43.0,8.6,3,5,7,1,2026-06-12T21:51:16.485592+05:30
Nizamabad,Telangana,18.6725,78.0941,32.5,44,0.0,963.4,8.85,37.1,89,94.8,62.6,27.6,270.0,62.0,8.5,0,5,7,1,2026-06-12T21:51:16.485599+05:30
Mysore,Karnataka,12.2958,76.6396,22.9,82,0.0,931.1,8.85,46.4,33,6.3,5.7,14.0,182.0,40.0,2.6,3,5,7,1,2026-06-12T21:51:16.485605+05:30
Mangalore,Karnataka,12.9141,74.856,24.9,94,0.1,1010.1,8.7,35.3,42,24.5,18.8,17.1,396.0,33.0,4.3,6,0,4,1,2026-06-12T21:51:16.485613+05:30
Hubli-Dharwad,Karnataka,15.3647,75.124,24.6,87,0.0,942.7,7.4,46.1,31,12.6,7.2,5.1,149.0,47.0,1.4,3,5,7,1,2026-06-12T21:51:16.485619+05:30
Belgaum,Karnataka,15.8497,74.4977,23.1,92,0.0,927.4,8.65,45.4,54,18.5,9.8,6.2,135.0,43.0,1.9,3,5,7,1,2026-06-12T21:51:19.843839+05:30
Coimbatore,Tamil Nadu,11.0168,76.9558,24.3,85,0.0,964.5,6.55,47.5,33,5.7,4.7,9.6,198.0,43.0,3.2,3,5,7,1,2026-06-12T21:51:19.843868+05:30
Madurai,Tamil Nadu,9.9252,78.1198,30.2,47,0.0,995.6,7.05,58.7,44,16.5,12.0,19.7,190.0,41.0,5.1,0,5,7,1,2026-06-12T21:51:19.843884+05:30
Trichy,Tamil Nadu,10.7905,78.7047,30.9,47,0.0,1002.4,6.1,58.0,37,16.7,10.8,9.4,194.0,54.0,3.5,0,5,4,1,2026-06-12T21:51:19.843895+05:30
Salem,Tamil Nadu,11.6643,78.146,24.9,92,0.0,980.1,8.1,37.4,57,21.7,17.1,22.0,365.0,45.0,8.7,3,5,7,1,2026-06-12T21:51:19.843903+05:30
Tirunelveli,Tamil Nadu,8.7139,77.7567,29.2,62,0.0,1006.7,7.35,35.3,28,5.5,4.7,8.7,186.0,40.0,1.8,7,5,4,1,2026-06-12T21:51:19.843910+05:30
Vellore,Tamil Nadu,12.9165,79.1325,26.2,87,0.0,985.9,6.5,36.7,68,18.9,14.6,11.9,245.0,63.0,4.2,7,5,7,1,2026-06-12T21:51:19.843917+05:30
Erode,Tamil Nadu,11.341,77.7172,27.5,67,0.0,991.7,8.6,43.6,48,13.8,10.7,16.0,224.0,43.0,4.2,7,5,7,1,2026-06-12T21:51:19.843925+05:30
Kochi,Kerala,9.9312,76.2673,27.0,84,0.1,1012.7,2.6,29.5,49,23.3,21.7,30.6,186.0,12.0,6.7,10,0,0,1,2026-06-12T21:51:19.843932+05:30
Thiruvananthapuram,Kerala,8.5241,76.9366,24.3,98,0.4,1012.9,6.45,37.1,28,14.0,6.5,1.8,130.0,58.0,0.6,6,0,4,1,2026-06-12T21:51:19.843939+05:30
Kozhikode,Kerala,11.2588,75.7804,25.4,97,0.0,1011.6,4.85,33.8,30,17.6,7.6,2.1,487.0,62.0,1.0,7,0,0,1,2026-06-12T21:51:19.843946+05:30
Thrissur,Kerala,10.5276,76.2144,25.4,89,0.0,1010.9,3.95,24.8,54,23.7,22.2,24.8,327.0,16.0,5.9,7,0,0,1,2026-06-12T21:51:19.843955+05:30
Kannur,Kerala,11.8745,75.3704,25.5,91,0.0,1010.9,3.75,33.5,35,23.2,16.7,19.1,423.0,31.0,3.4,7,0,0,1,2026-06-12T21:51:19.843962+05:30
Patna,Bihar,25.5941,85.1376,28.4,80,0.0,999.2,8.85,34.2,155,101.5,85.0,27.8,459.0,92.0,22.3,7,5,7,1,2026-06-12T21:51:19.843968+05:30
Gaya,Bihar,24.7914,85.0002,29.8,68,0.0,992.4,8.9,24.5,155,114.1,99.7,32.6,580.0,80.0,21.4,7,5,7,1,2026-06-12T21:51:19.843975+05:30
Muzaffarpur,Bihar,26.1209,85.3647,27.9,83,0.0,999.3,8.85,36.0,152,100.4,80.1,25.2,435.0,95.0,19.9,7,5,7,1,2026-06-12T21:51:19.843982+05:30
Bhagalpur,Bihar,25.2425,87.0117,29.5,80,0.0,1000.4,8.65,27.4,162,110.1,80.3,23.7,388.0,92.0,17.0,7,5,4,1,2026-06-12T21:51:19.843988+05:30
Ranchi,Jharkhand,23.3441,85.3096,25.5,77,0.0,937.2,9.25,34.6,151,63.3,51.3,13.5,310.0,87.0,5.2,7,5,7,1,2026-06-12T21:51:19.843995+05:30
Jamshedpur,Jharkhand,22.8046,86.2029,26.6,93,0.0,990.3,9.1,42.1,166,86.1,72.6,17.9,546.0,106.0,23.2,7,5,7,1,2026-06-12T21:51:19.844002+05:30
Dhanbad,Jharkhand,23.7957,86.4304,26.9,84,0.0,979.3,9.05,40.3,178,116.6,103.6,57.0,713.0,69.0,138.1,7,5,7,1,2026-06-12T21:51:19.844009+05:30
Bokaro,Jharkhand,23.6693,86.1511,26.9,89,0.0,983.0,9.1,32.8,186,101.0,87.8,41.9,909.0,88.0,100.2,7,5,7,1,2026-06-12T21:51:19.844016+05:30
Bhubaneswar,Odisha,20.2961,85.8245,26.1,95,0.0,1002.4,8.65,38.9,136,75.7,63.3,25.1,911.0,68.0,10.5,7,5,4,1,2026-06-12T21:51:19.844022+05:30
Cuttack,Odisha,20.4625,85.8828,26.6,95,0.0,1004.2,8.7,43.6,136,75.7,63.3,25.1,518.0,68.0,10.5,7,5,4,1,2026-06-12T21:51:19.844029+05:30
Rourkela,Odisha,22.2604,84.8536,28.5,81,0.0,984.3,9.0,27.7,159,69.2,56.7,15.5,626.0,116.0,26.5,7,5,7,1,2026-06-12T21:51:19.844036+05:30
Raipur,Chhattisgarh,21.2514,81.6296,29.4,61,0.0,973.0,8.95,32.8,121,62.4,50.1,38.1,261.0,60.0,51.1,7,5,7,1,2026-06-12T21:51:19.844043+05:30
Bhilai,Chhattisgarh,21.1938,81.3509,29.6,61,0.0,973.7,8.95,36.0,119,70.1,55.4,40.5,262.0,60.0,51.3,7,5,7,1,2026-06-12T21:51:19.844049+05:30
Guwahati,Assam,26.1158,91.7086,25.5,97,0.1,1001.8,8.6,20.5,87,36.8,34.1,15.7,573.0,40.0,2.7,10,5,4,1,2026-06-12T21:51:19.844056+05:30
Agartala,Tripura,23.8315,91.2868,26.2,97,0.0,1006.6,7.55,30.2,120,28.8,27.1,11.0,225.0,69.0,2.7,7,5,4,1,2026-06-12T21:51:19.844063+05:30
Shillong,Meghalaya,25.5788,91.8933,19.6,96,0.1,858.1,8.45,20.2,75,28.3,22.3,10.4,356.0,61.0,1.5,6,10,7,1,2026-06-12T21:51:19.844070+05:30
Imphal,Manipur,24.817,93.9368,22.7,96,0.1,923.9,8.7,19.8,53,15.9,15.7,17.0,394.0,35.0,3.0,6,5,7,1,2026-06-12T21:51:19.844076+05:30
Aizawl,Mizoram,23.7271,92.7176,20.1,97,0.0,893.1,4.2,21.2,69,8.6,8.3,8.6,212.0,37.0,0.6,3,5,3,1,2026-06-12T21:51:19.844083+05:30
Kohima,Nagaland,25.6701,94.1077,19.9,99,0.0,856.3,3.55,18.0,61,11.1,10.0,8.8,276.0,51.0,1.1,3,10,3,1,2026-06-12T21:51:19.844090+05:30
Gangtok,Sikkim,27.3314,88.6138,17.1,93,0.2,839.0,9.25,32.4,62,14.7,12.3,16.9,395.0,87.0,2.2,6,10,7,0,2026-06-12T21:51:19.844097+05:30
Siliguri,West Bengal,26.7271,88.3953,24.9,95,0.0,993.3,8.7,28.8,99,37.0,28.2,17.7,542.0,81.0,3.5,3,5,7,1,2026-06-12T21:51:23.196879+05:30
Durgapur,West Bengal,23.5204,87.3119,27.0,89,0.0,994.3,9.0,33.8,174,120.1,104.3,37.7,599.0,78.0,49.5,7,5,7,1,2026-06-12T21:51:23.196911+05:30
Asansol,West Bengal,23.6739,86.9524,26.5,94,0.0,992.8,9.0,36.7,171,94.3,81.5,36.3,789.0,74.0,49.9,7,5,7,1,2026-06-12T21:51:23.196923+05:30
Pondicherry,Puducherry,11.9139,79.8145,25.2,94,0.2,1011.1,8.2,34.9,62,19.1,15.1,16.9,304.0,71.0,11.4,10,0,4,1,2026-06-12T21:51:23.196933+05:30
Port Blair,Andaman and Nicobar Islands,11.6234,92.7265,24.9,96,0.0,1011.9,8.0,40.7,25,5.6,3.3,0.4,94.0,42.0,0.3,3,0,4,1,2026-06-12T21:51:23.196941+05:30
Haridwar,Uttarakhand,29.9457,78.1642,25.5,91,0.0,973.1,7.55,49.0,117,96.4,53.1,26.7,395.0,85.0,9.8,7,5,7,1,2026-06-12T21:51:23.196949+05:30
Rishikesh,Uttarakhand,30.0869,78.2676,24.9,84,0.0,965.9,7.75,43.6,92,73.1,35.6,16.2,400.0,92.0,4.8,3,5,7,1,2026-06-12T21:51:23.196957+05:30
Nainital,Uttarakhand,29.3919,79.4542,14.3,97,0.0,804.6,8.3,27.0,79,71.0,34.6,19.9,339.0,70.0,4.4,3,10,7,0,2026-06-12T21:51:23.196966+05:30
Mussoorie,Uttarakhand,30.4599,78.0664,13.0,98,0.0,801.4,7.95,54.7,88,68.5,33.1,20.3,292.0,90.0,5.7,3,10,7,0,2026-06-12T21:51:23.196974+05:30
Dharamshala,Himachal Pradesh,32.219,76.3234,19.2,73,0.0,868.7,8.5,43.6,99,18.3,12.6,14.9,395.0,75.0,1.3,3,5,7,0,2026-06-12T21:51:23.196981+05:30
Dalhousie,Himachal Pradesh,32.5387,75.971,13.7,89,0.0,803.4,8.35,29.9,129,63.8,38.0,33.3,674.0,98.0,4.3,3,10,7,0,2026-06-12T21:51:23.196990+05:30
Patiala,Punjab,30.3398,76.3869,28.3,67,0.0,976.9,7.7,61.6,1771,1158.6,173.7,11.1,397.0,93.0,9.1,7,5,7,1,2026-06-12T21:51:23.196997+05:30
Bhatinda,Punjab,30.211,74.9455,27.8,74,0.0,982.0,8.3,69.1,1466,1397.0,296.2,13.3,270.0,90.0,8.4,7,5,7,1,2026-06-12T21:51:23.197004+05:30
Rohtak,Haryana,28.8955,76.6066,26.5,79,0.0,979.5,7.25,49.3,1089,754.4,150.4,35.2,337.0,93.0,28.9,7,5,7,1,2026-06-12T21:51:23.197011+05:30
Panipat,Haryana,29.3909,76.9635,28.2,73,0.0,978.6,7.7,47.5,1515,1218.2,187.2,20.7,351.0,99.0,16.0,7,5,7,1,2026-06-12T21:51:23.197019+05:30
Mathura,Uttar Pradesh,27.4924,77.6737,29.5,63,0.0,985.4,8.1,45.4,955,429.3,88.2,26.7,345.0,88.0,9.7,7,5,7,1,2026-06-12T21:51:23.197026+05:30
Vrindavan,Uttar Pradesh,27.5823,77.7027,29.9,62,0.0,985.9,8.05,46.4,955,429.3,88.2,26.7,325.0,88.0,9.7,7,5,7,1,2026-06-12T21:51:23.197034+05:30
Ayodhya,Uttar Pradesh,26.7922,82.1998,29.5,67,0.0,993.9,8.4,32.8,123,67.3,49.7,30.9,637.0,73.0,11.4,7,5,7,1,2026-06-12T21:51:23.197041+05:30
Ratlam,Madhya Pradesh,23.3315,75.0367,31.9,52,0.0,952.4,8.55,50.0,84,44.2,27.0,2.9,148.0,98.0,7.1,0,5,7,1,2026-06-12T21:51:23.197049+05:30
Sagar,Madhya Pradesh,23.8388,78.7378,27.8,73,0.0,948.3,8.75,46.1,88,55.2,31.9,5.0,286.0,87.0,3.2,7,5,7,1,2026-06-12T21:51:23.197056+05:30
Satna,Madhya Pradesh,24.6005,80.8322,26.5,85,0.0,970.0,8.8,36.7,106,62.2,41.7,11.3,231.0,81.0,5.1,7,5,7,1,2026-06-12T21:51:23.197063+05:30
Akola,Maharashtra,20.7002,77.0082,35.8,34,0.0,972.4,8.8,40.0,81,68.2,32.9,11.8,159.0,84.0,8.3,0,5,10,1,2026-06-12T21:51:23.197071+05:30
Amravati,Maharashtra,20.9374,77.7796,35.4,33,0.0,965.1,8.85,41.8,83,67.5,33.8,16.0,273.0,75.0,8.3,0,5,10,1,2026-06-12T21:51:23.197080+05:30
Latur,Maharashtra,18.4088,76.5604,30.8,43,0.0,939.5,8.9,34.2,70,48.2,25.9,5.3,212.0,88.0,2.8,0,5,7,1,2026-06-12T21:51:23.197088+05:30
Nanded,Maharashtra,19.1383,77.3091,34.7,36,0.0,966.8,8.85,38.5,90,86.1,46.4,22.5,406.0,57.0,5.7,0,5,7,1,2026-06-12T21:51:23.197094+05:30
Gulbarga,Karnataka,17.3297,76.8343,30.4,52,0.0,958.6,8.5,42.5,66,43.7,27.9,27.2,466.0,53.0,4.3,0,5,7,1,2026-06-12T21:51:23.197102+05:30
Bidar,Karnataka,17.9104,77.5199,29.7,51,0.0,935.0,9.0,39.2,72,42.5,27.6,21.1,208.0,61.0,3.6,4,5,7,1,2026-06-12T21:51:23.197109+05:30
Hospet,Karnataka,15.2689,76.3909,26.9,77,0.0,957.2,8.9,41.4,42,12.8,8.4,6.0,140.0,51.0,1.7,7,5,7,1,2026-06-12T21:51:23.197116+05:30
Tirupur,Tamil Nadu,11.1085,77.3411,25.3,80,0.0,977.9,8.6,50.8,52,15.2,12.0,17.5,187.0,42.0,5.6,7,5,7,1,2026-06-12T21:51:23.197123+05:30
Alappuzha,Kerala,9.4981,76.3388,25.1,94,0.1,1013.4,4.15,36.4,30,15.0,10.4,12.1,93.0,44.0,2.8,10,0,0,1,2026-06-12T21:51:23.197130+05:30
Munnar,Kerala,10.0889,77.0595,16.6,84,0.0,859.1,7.25,38.2,29,6.0,4.6,7.3,138.0,44.0,1.9,3,10,7,0,2026-06-12T21:51:23.197138+05:30
Silchar,Assam,24.8333,92.7789,25.7,95,0.2,1005.9,8.8,20.2,138,26.3,23.5,6.2,387.0,77.0,2.8,10,5,4,1,2026-06-12T21:51:23.197146+05:30
Dibrugarh,Assam,27.4728,94.912,26.9,84,0.0,994.7,8.25,24.1,88,32.6,31.4,24.5,348.0,26.0,2.9,7,5,7,1,2026-06-12T21:51:23.197153+05:30
