city,state,latitude,longitude,temp,humidity,rain,pressure,uv_index,wind_gusts,aqi,pm10,pm2_5,mosquito_risk,arthritis_risk,migraine_risk,frizz_risk,updated_at
Delhi,Delhi,28.6139,77.209,39.8,16,0.0,981.2,7.25,50.4,403,627.7,77.1,0,5,10,0,2026-04-25T16:24:20.107879+05:30
Mumbai,Maharashtra,19.076,72.8777,37.0,33,0.0,1004.2,8.0,44.6,92,43.2,30.6,0,5,7,1,2026-04-25T16:24:20.107919+05:30
Bangalore,Karnataka,12.9716,77.5946,34.5,24,0.0,911.5,9.5,37.1,97,34.1,26.8,0,5,7,0,2026-04-25T16:24:20.107934+05:30
Hyderabad,Telangana,17.385,78.4867,37.7,20,0.0,952.1,9.3,31.7,148,47.8,39.9,0,5,10,0,2026-04-25T16:24:20.107944+05:30
Chennai,Tamil Nadu,13.0827,80.2707,32.7,60,0.0,1005.3,9.3,51.1,31,13.3,8.9,0,5,4,1,2026-04-25T16:24:20.107953+05:30
Kolkata,West Bengal,22.5726,88.3639,34.0,58,0.0,1002.8,8.45,43.9,78,28.3,21.5,0,5,4,1,2026-04-25T16:24:20.107966+05:30
Pune,Maharashtra,18.5204,73.8567,39.2,12,0.0,946.1,8.45,37.8,136,33.4,26.8,0,5,10,0,2026-04-25T16:24:20.107973+05:30
Ahmedabad,Gujarat,23.0225,72.5714,43.0,11,0.0,998.5,8.2,24.1,64,47.4,15.3,0,5,10,0,2026-04-25T16:24:20.107981+05:30
Jaipur,Rajasthan,26.9124,75.7873,40.2,14,0.0,959.0,8.05,31.0,123,179.7,31.0,0,5,10,0,2026-04-25T16:24:20.107988+05:30
Lucknow,Uttar Pradesh,26.8467,80.9462,42.6,11,0.0,988.9,7.9,43.6,148,193.7,36.9,0,5,10,0,2026-04-25T16:24:20.107995+05:30
Kanpur,Uttar Pradesh,26.4499,80.3319,43.0,11,0.0,987.1,7.95,45.4,154,413.5,50.4,0,5,10,0,2026-04-25T16:24:20.108003+05:30
Chandigarh,Chandigarh,30.7333,76.7794,34.7,28,0.0,968.3,7.25,58.3,79,49.6,16.8,0,5,7,0,2026-04-25T16:24:20.108010+05:30
Srinagar,Jammu and Kashmir,34.0837,74.7973,19.7,61,0.0,845.9,8.6,36.7,73,42.7,14.7,3,5,7,0,2026-04-25T16:24:20.108018+05:30
Jammu,Jammu and Kashmir,32.7266,74.857,35.8,21,0.0,972.8,8.2,27.7,76,118.3,26.2,0,5,10,0,2026-04-25T16:24:20.108025+05:30
Amritsar,Punjab,31.634,74.8723,38.0,19,0.0,980.3,8.1,33.5,82,139.2,32.6,0,5,10,0,2026-04-25T16:24:20.108031+05:30
Ludhiana,Punjab,30.901,75.8573,36.5,21,0.0,978.5,7.7,48.6,80,95.9,24.4,0,5,10,0,2026-04-25T16:24:20.108039+05:30
Jalandhar,Punjab,31.326,75.5762,36.7,20,0.0,979.5,7.85,38.5,87,121.5,25.5,0,5,10,0,2026-04-25T16:24:20.108045+05:30
Dehradun,Uttarakhand,30.6284,78.0322,25.7,31,0.0,833.2,7.85,52.9,72,38.2,11.5,4,5,7,0,2026-04-25T16:24:20.108052+05:30
Shimla,Himachal Pradesh,31.1048,77.1734,20.8,32,0.0,788.3,7.45,55.8,64,46.1,12.8,0,5,7,0,2026-04-25T16:24:20.108059+05:30
Manali,Himachal Pradesh,32.2396,77.1887,18.3,53,0.0,821.1,9.85,43.9,107,37.5,9.5,0,5,7,0,2026-04-25T16:24:20.108066+05:30
Gurgaon,Haryana,28.4595,77.0266,39.2,16,0.0,979.8,7.45,51.1,968,1557.2,152.7,0,5,10,0,2026-04-25T16:24:20.108073+05:30
Noida,Uttar Pradesh,28.5355,77.391,39.8,16,0.0,982.2,7.3,43.9,968,1557.2,152.7,0,5,10,0,2026-04-25T16:24:20.108079+05:30
Ghaziabad,Uttar Pradesh,28.6692,77.4538,40.0,16,0.0,980.5,7.25,50.8,190,462.9,62.4,0,5,10,0,2026-04-25T16:24:20.108085+05:30
Faridabad,Haryana,28.4089,77.3178,39.9,15,0.0,981.6,7.35,52.6,968,1557.2,152.7,0,5,10,0,2026-04-25T16:24:20.108091+05:30
Meerut,Uttar Pradesh,28.9845,77.7064,37.9,19,0.0,979.2,7.35,55.4,190,462.9,62.4,0,5,10,0,2026-04-25T16:24:20.108097+05:30
Agra,Uttar Pradesh,27.1767,78.0081,42.2,12,0.0,984.5,7.8,45.0,276,862.4,90.8,0,5,10,0,2026-04-25T16:24:20.108105+05:30
Varanasi,Uttar Pradesh,25.3176,82.9739,43.1,11,0.0,992.5,8.5,41.0,139,154.1,33.9,0,5,10,0,2026-04-25T16:24:20.108112+05:30
Prayagraj,Uttar Pradesh,25.4358,81.8463,42.5,12,0.0,991.2,8.4,29.5,135,165.3,32.4,0,5,10,0,2026-04-25T16:24:20.108119+05:30
Gorakhpur,Uttar Pradesh,26.7606,83.3732,36.7,33,0.0,993.8,8.35,41.4,178,173.7,43.8,0,5,10,1,2026-04-25T16:24:20.108125+05:30
Bareilly,Uttar Pradesh,28.367,79.4304,40.2,15,0.0,983.1,7.7,48.2,163,58.1,22.4,0,5,10,0,2026-04-25T16:24:20.108133+05:30
Aligarh,Uttar Pradesh,27.8974,78.088,41.5,13,0.0,982.4,7.6,47.9,313,765.5,88.7,0,5,10,0,2026-04-25T16:24:20.108139+05:30
Moradabad,Uttar Pradesh,28.8386,78.7733,38.9,20,0.0,980.8,7.5,49.3,179,63.6,27.2,0,5,10,0,2026-04-25T16:24:20.108145+05:30
Saharanpur,Uttar Pradesh,29.9637,77.546,36.2,22,0.0,973.8,7.1,53.6,134,150.4,32.1,0,5,10,0,2026-04-25T16:24:20.108151+05:30
Jhansi,Uttar Pradesh,25.4484,78.5685,42.8,11,0.0,974.5,8.3,29.5,83,139.2,28.2,0,5,10,0,2026-04-25T16:24:23.386057+05:30
Surat,Gujarat,21.1702,72.8311,42.1,10,0.0,1003.1,7.85,36.7,106,75.7,45.5,0,5,7,0,2026-04-25T16:24:23.386087+05:30
Vadodara,Gujarat,22.3072,73.1812,43.5,11,0.0,1000.4,8.15,25.2,85,53.0,19.3,0,5,7,0,2026-04-25T16:24:23.386097+05:30
Rajkot,Gujarat,22.3039,70.8022,41.3,14,0.0,991.8,7.9,33.1,50,59.8,18.1,0,5,10,0,2026-04-25T16:24:23.386105+05:30
Thane,Maharashtra,19.2183,72.9781,42.0,17,0.0,1002.9,8.0,47.5,92,43.2,30.6,0,5,7,0,2026-04-25T16:24:23.386112+05:30
Nagpur,Maharashtra,21.1458,79.0882,43.0,9,0.0,969.8,8.9,29.9,160,34.0,24.7,0,5,10,0,2026-04-25T16:24:23.386119+05:30
Nashik,Maharashtra,19.9975,73.7898,39.2,13,0.0,943.6,8.25,31.7,104,31.7,19.2,0,5,10,0,2026-04-25T16:24:23.386125+05:30
Aurangabad,Maharashtra,19.8762,75.3433,39.8,13,0.0,942.5,8.75,29.5,126,35.6,24.9,0,5,10,0,2026-04-25T16:24:23.386133+05:30
Solapur,Maharashtra,17.6599,75.9064,39.2,17,0.0,954.7,8.65,24.8,149,44.2,37.1,0,5,10,0,2026-04-25T16:24:23.386140+05:30
Kolhapur,Maharashtra,16.705,74.2433,37.7,19,0.0,945.9,9.05,34.2,150,51.0,41.2,0,5,10,0,2026-04-25T16:24:23.386147+05:30
Goa,Goa,15.2993,74.124,36.6,52,0.0,994.6,8.95,32.0,77,27.1,19.9,0,5,10,1,2026-04-25T16:24:23.386153+05:30
Jodhpur,Rajasthan,26.2389,73.0243,42.5,12,0.0,980.5,8.3,27.4,84,123.4,24.0,0,5,10,0,2026-04-25T16:24:23.386160+05:30
Udaipur,Rajasthan,24.5854,73.7125,39.0,14,0.0,945.7,8.8,42.5,59,81.5,19.0,0,5,10,0,2026-04-25T16:24:23.386166+05:30
Kota,Rajasthan,25.2138,75.8648,42.2,12,0.0,975.9,8.3,32.8,92,62.2,18.5,0,5,10,0,2026-04-25T16:24:23.386173+05:30
Bikaner,Rajasthan,28.0229,73.3119,42.3,12,0.0,979.7,8.15,33.8,71,118.3,25.0,0,5,10,0,2026-04-25T16:24:23.386180+05:30
Ajmer,Rajasthan,26.4499,74.6399,39.8,13,0.0,953.8,8.25,33.5,80,118.0,25.0,0,5,10,0,2026-04-25T16:24:23.386186+05:30
Gwalior,Madhya Pradesh,26.2183,78.1828,42.2,11,0.0,980.0,8.05,39.6,87,125.3,28.3,0,5,10,0,2026-04-25T16:24:23.386193+05:30
Indore,Madhya Pradesh,22.7196,75.8577,41.8,10,0.0,946.0,8.65,32.4,65,36.6,11.7,0,5,10,0,2026-04-25T16:24:23.386199+05:30
Bhopal,Madhya Pradesh,23.2599,77.4126,41.7,9,0.0,951.2,8.65,30.6,95,27.5,10.7,0,5,10,0,2026-04-25T16:24:23.386205+05:30
Jabalpur,Madhya Pradesh,23.1815,79.9864,41.3,10,0.0,958.8,8.75,32.0,106,28.2,10.6,0,5,10,0,2026-04-25T16:24:23.386212+05:30
Ujjain,Madhya Pradesh,23.1765,75.7885,41.2,11,0.0,951.6,8.55,29.2,57,49.8,14.6,0,5,10,0,2026-04-25T16:24:23.386218+05:30
Visakhapatnam,Andhra Pradesh,17.6868,83.2185,32.4,65,0.0,1001.7,8.7,44.3,59,18.6,13.3,3,5,4,1,2026-04-25T16:24:23.386225+05:30
Vijayawada,Andhra Pradesh,16.5062,80.648,38.1,31,0.0,1000.2,8.65,34.2,53,21.1,14.9,0,5,7,1,2026-04-25T16:24:23.386232+05:30
Guntur,Andhra Pradesh,16.3067,80.4365,36.3,39,0.0,1001.7,8.7,40.0,55,25.4,18.3,0,5,7,1,2026-04-25T16:24:23.386238+05:30
Nellore,Andhra Pradesh,14.4426,79.9865,34.8,50,0.0,1003.2,9.2,42.1,42,22.4,16.2,0,5,4,1,2026-04-25T16:24:23.386245+05:30
Kurnool,Andhra Pradesh,15.8281,78.0373,41.2,15,0.0,973.8,8.9,32.8,94,37.6,29.5,0,5,10,0,2026-04-25T16:24:23.386252+05:30
Kakinada,Andhra Pradesh,16.9891,82.2475,37.0,41,0.0,1004.8,8.45,39.6,40,13.8,8.4,0,5,7,1,2026-04-25T16:24:23.386259+05:30
Tirupati,Andhra Pradesh,13.6288,79.4192,38.8,23,0.0,988.2,9.35,37.4,57,27.0,20.9,0,5,10,0,2026-04-25T16:24:23.386265+05:30
Warangal,Telangana,17.9689,79.5941,38.8,24,0.0,976.8,8.9,28.1,105,43.5,36.1,0,5,10,0,2026-04-25T16:24:23.386272+05:30
Nizamabad,Telangana,18.6725,78.0941,40.0,15,0.0,962.7,9.05,27.7,140,41.6,33.6,0,5,10,0,2026-04-25T16:24:23.386278+05:30
Mysore,Karnataka,12.2958,76.6396,36.0,19,0.0,926.8,8.85,44.6,99,27.6,21.7,0,5,10,0,2026-04-25T16:24:23.386285+05:30
Mangalore,Karnataka,12.9141,74.856,32.3,68,0.0,1003.6,9.1,41.4,76,22.5,17.5,3,5,4,1,2026-04-25T16:24:23.386291+05:30
Hubli-Dharwad,Karnataka,15.3647,75.124,36.7,21,0.0,939.6,9.1,37.8,139,43.2,35.2,0,5,10,0,2026-04-25T16:24:23.386298+05:30
Belgaum,Karnataka,15.8497,74.4977,36.0,20,0.0,924.8,9.15,37.1,143,53.8,43.3,0,5,10,0,2026-04-25T16:24:26.661000+05:30
Coimbatore,Tamil Nadu,11.0168,76.9558,37.3,22,0.0,959.5,8.9,46.4,75,21.3,17.2,0,5,10,0,2026-04-25T16:24:26.661033+05:30
Madurai,Tamil Nadu,9.9252,78.1198,39.2,23,0.0,989.4,9.1,39.6,53,16.0,13.5,0,5,10,0,2026-04-25T16:24:26.661045+05:30
Trichy,Tamil Nadu,10.7905,78.7047,37.3,33,0.0,996.6,9.3,33.1,50,19.4,14.8,0,5,10,1,2026-04-25T16:24:26.661055+05:30
Salem,Tamil Nadu,11.6643,78.146,38.1,23,0.0,974.6,9.0,42.1,59,25.0,19.6,0,5,10,0,2026-04-25T16:24:26.661065+05:30
Tirunelveli,Tamil Nadu,8.7139,77.7567,36.5,32,0.0,1000.3,9.2,40.7,64,12.3,11.1,0,5,7,1,2026-04-25T16:24:26.661073+05:30
Vellore,Tamil Nadu,12.9165,79.1325,38.2,24,0.0,981.9,9.25,36.0,78,28.1,22.8,0,5,10,0,2026-04-25T16:24:26.661082+05:30
Erode,Tamil Nadu,11.341,77.7172,39.2,21,0.0,985.7,9.25,46.1,49,19.0,15.3,0,5,10,0,2026-04-25T16:24:26.661090+05:30
Kochi,Kerala,9.9312,76.2673,32.2,64,0.0,1005.0,8.05,39.2,102,23.0,21.2,3,5,4,1,2026-04-25T16:24:26.661099+05:30
Thiruvananthapuram,Kerala,8.5241,76.9366,29.9,71,0.0,1005.4,8.2,33.1,68,16.6,13.7,7,5,4,1,2026-04-25T16:24:26.661107+05:30
Kozhikode,Kerala,11.2588,75.7804,31.3,73,0.0,1004.4,8.55,37.1,86,17.8,14.1,3,5,4,1,2026-04-25T16:24:26.661114+05:30
Thrissur,Kerala,10.5276,76.2144,33.1,58,0.0,1003.3,8.15,44.3,82,18.5,16.4,0,5,4,1,2026-04-25T16:24:26.661122+05:30
Kannur,Kerala,11.8745,75.3704,32.5,68,0.0,1004.1,8.55,40.7,72,21.5,16.6,3,5,4,1,2026-04-25T16:24:26.661130+05:30
Patna,Bihar,25.5941,85.1376,34.5,51,0.0,997.1,8.65,60.1,177,143.4,42.0,0,5,7,1,2026-04-25T16:24:26.661138+05:30
Gaya,Bihar,24.7914,85.0002,41.3,12,0.0,989.6,8.7,48.2,166,96.2,25.8,0,5,10,0,2026-04-25T16:24:26.661145+05:30
Muzaffarpur,Bihar,26.1209,85.3647,32.7,56,0.0,997.9,8.65,34.6,176,150.9,52.0,0,5,7,1,2026-04-25T16:24:26.661153+05:30
Bhagalpur,Bihar,25.2425,87.0117,27.5,74,0.0,999.4,8.6,52.9,175,130.4,53.1,7,5,7,1,2026-04-25T16:24:26.661160+05:30
Ranchi,Jharkhand,23.3441,85.3096,36.4,17,0.0,936.1,9.2,28.8,181,46.8,23.6,0,5,10,0,2026-04-25T16:24:26.661168+05:30
Jamshedpur,Jharkhand,22.8046,86.2029,41.8,11,0.0,986.6,8.9,35.3,181,66.8,39.6,0,5,10,0,2026-04-25T16:24:26.661175+05:30
Dhanbad,Jharkhand,23.7957,86.4304,41.3,12,0.0,975.8,8.95,42.1,157,82.0,52.7,0,5,10,0,2026-04-25T16:24:26.661183+05:30
Bokaro,Jharkhand,23.6693,86.1511,41.5,12,0.0,979.5,9.0,34.6,190,61.7,32.4,0,5,10,0,2026-04-25T16:24:26.661191+05:30
Bhubaneswar,Odisha,20.2961,85.8245,31.8,70,0.0,1000.7,9.1,41.0,66,26.4,20.6,3,5,4,1,2026-04-25T16:24:26.661199+05:30
Cuttack,Odisha,20.4625,85.8828,32.7,66,0.0,1002.3,9.15,37.8,66,26.4,20.6,3,5,4,1,2026-04-25T16:24:26.661208+05:30
Rourkela,Odisha,22.2604,84.8536,41.7,12,0.0,981.0,8.6,45.0,202,34.5,28.1,0,5,10,0,2026-04-25T16:24:26.661215+05:30
Raipur,Chhattisgarh,21.2514,81.6296,41.8,10,0.0,971.5,9.0,31.0,202,28.6,18.2,0,5,10,0,2026-04-25T16:24:26.661222+05:30
Bhilai,Chhattisgarh,21.1938,81.3509,42.0,11,0.0,971.7,9.0,35.6,168,27.5,16.7,0,5,10,0,2026-04-25T16:24:26.661228+05:30
Guwahati,Assam,26.1158,91.7086,30.4,70,0.0,999.5,8.55,42.1,160,102.0,64.0,3,5,7,1,2026-04-25T16:24:26.661235+05:30
Agartala,Tripura,23.8315,91.2868,37.2,31,0.0,1002.5,8.75,35.6,153,71.0,38.8,0,5,7,1,2026-04-25T16:24:26.661241+05:30
Shillong,Meghalaya,25.5788,91.8933,23.5,57,0.1,858.2,8.2,27.0,150,95.9,50.3,3,5,7,0,2026-04-25T16:24:26.661248+05:30
Imphal,Manipur,24.817,93.9368,30.2,39,0.0,922.3,9.1,34.2,155,71.0,34.0,0,5,7,0,2026-04-25T16:24:26.661254+05:30
Aizawl,Mizoram,23.7271,92.7176,30.9,25,0.0,892.8,8.95,37.8,122,86.8,30.7,0,5,7,0,2026-04-25T16:24:26.661260+05:30
Kohima,Nagaland,25.6701,94.1077,21.5,78,0.0,856.2,8.8,38.2,157,101.0,57.9,3,5,7,1,2026-04-25T16:24:26.661266+05:30
Gangtok,Sikkim,27.3314,88.6138,17.8,77,0.0,837.9,8.8,41.4,125,48.0,28.6,3,5,7,0,2026-04-25T16:24:26.661272+05:30
Siliguri,West Bengal,26.7271,88.3953,30.1,60,0.0,991.4,8.45,29.2,152,81.5,51.2,0,5,7,1,2026-04-25T16:24:29.942781+05:30
Durgapur,West Bengal,23.5204,87.3119,37.3,40,0.0,991.5,8.9,38.2,141,80.6,54.0,0,5,10,1,2026-04-25T16:24:29.942809+05:30
Asansol,West Bengal,23.6739,86.9524,37.5,39,0.0,989.5,8.95,38.9,143,79.2,56.2,0,5,10,1,2026-04-25T16:24:29.942818+05:30
Pondicherry,Puducherry,11.9139,79.8145,31.6,66,0.0,1006.5,9.15,44.6,29,10.6,6.9,3,5,4,1,2026-04-25T16:24:29.942826+05:30
Port Blair,Andaman and Nicobar Islands,11.6234,92.7265,31.2,63,0.0,1005.4,9.15,32.4,39,17.8,11.4,3,5,4,1,2026-04-25T16:24:29.942833+05:30
Haridwar,Uttarakhand,29.9457,78.1642,35.8,29,0.0,971.7,7.2,32.8,111,64.0,19.7,0,5,10,0,2026-04-25T16:24:29.942840+05:30
Rishikesh,Uttarakhand,30.0869,78.2676,34.8,34,0.0,964.7,7.35,37.4,102,46.0,16.1,0,5,7,1,2026-04-25T16:24:29.942847+05:30
Nainital,Uttarakhand,29.3919,79.4542,23.3,34,0.0,808.3,8.15,43.6,146,49.6,23.4,0,5,7,0,2026-04-25T16:24:29.942854+05:30
Mussoorie,Uttarakhand,30.4599,78.0664,22.4,37,0.0,806.1,7.75,58.7,108,47.3,16.9,0,5,7,0,2026-04-25T16:24:29.942861+05:30
Dharamshala,Himachal Pradesh,32.219,76.3234,24.3,37,0.0,872.2,7.55,59.0,62,43.2,10.9,0,5,7,0,2026-04-25T16:24:29.942867+05:30
Dalhousie,Himachal Pradesh,32.5387,75.971,20.1,47,0.0,808.6,8.1,45.7,56,72.2,17.6,0,5,7,0,2026-04-25T16:24:29.942875+05:30
Patiala,Punjab,30.3398,76.3869,37.0,20,0.0,977.5,7.35,56.2,528,1009.6,97.3,0,5,10,0,2026-04-25T16:24:29.942882+05:30
Bhatinda,Punjab,30.211,74.9455,38.5,17,0.0,983.1,8.0,46.1,86,118.3,30.7,0,5,10,0,2026-04-25T16:24:29.942889+05:30
Rohtak,Haryana,28.8955,76.6066,39.2,17,0.0,980.3,7.45,54.4,633,998.4,101.3,0,5,10,0,2026-04-25T16:24:29.942895+05:30
Panipat,Haryana,29.3909,76.9635,40.2,14,0.0,978.2,7.15,51.1,1182,2488.5,224.9,0,5,10,0,2026-04-25T16:24:29.942901+05:30
Mathura,Uttar Pradesh,27.4924,77.6737,40.8,13,0.0,984.2,7.65,45.0,321,961.1,100.4,0,5,10,0,2026-04-25T16:24:29.942908+05:30
Vrindavan,Uttar Pradesh,27.5823,77.7027,40.7,14,0.0,984.6,7.55,45.0,321,961.1,100.4,0,5,10,0,2026-04-25T16:24:29.942914+05:30
Ayodhya,Uttar Pradesh,26.7922,82.1998,39.5,20,0.0,990.8,8.1,38.5,176,180.2,37.1,0,5,10,0,2026-04-25T16:24:29.942920+05:30
Ratlam,Madhya Pradesh,23.3315,75.0367,40.9,12,0.0,952.7,8.45,25.9,56,51.5,14.9,0,5,10,0,2026-04-25T16:24:29.942927+05:30
Sagar,Madhya Pradesh,23.8388,78.7378,40.5,12,0.0,948.1,8.65,29.9,99,52.2,14.1,0,5,10,0,2026-04-25T16:24:29.942933+05:30
Satna,Madhya Pradesh,24.6005,80.8322,41.5,11,0.0,968.0,8.7,43.9,122,116.9,27.6,0,5,10,0,2026-04-25T16:24:29.942939+05:30
Akola,Maharashtra,20.7002,77.0082,42.0,12,0.0,972.0,8.7,23.8,98,29.5,17.1,0,5,10,0,2026-04-25T16:24:29.942946+05:30
Amravati,Maharashtra,20.9374,77.7796,41.7,11,0.0,964.5,8.5,27.7,101,27.1,16.4,0,5,10,0,2026-04-25T16:24:29.942953+05:30
Latur,Maharashtra,18.4088,76.5604,38.5,14,0.0,938.6,8.8,32.8,142,38.2,31.3,0,5,10,0,2026-04-25T16:24:29.942959+05:30
Nanded,Maharashtra,19.1383,77.3091,41.0,13,0.0,966.0,8.6,28.1,124,33.1,23.3,0,5,10,0,2026-04-25T16:24:29.942966+05:30
Gulbarga,Karnataka,17.3297,76.8343,40.0,16,0.0,956.6,9.15,26.6,153,50.2,42.0,0,5,10,0,2026-04-25T16:24:29.942973+05:30
Bidar,Karnataka,17.9104,77.5199,38.0,19,0.0,934.6,8.9,27.0,141,46.3,38.5,0,5,10,0,2026-04-25T16:24:29.942979+05:30
Hospet,Karnataka,15.2689,76.3909,38.7,19,0.0,953.5,9.3,27.4,138,42.3,34.7,0,5,10,0,2026-04-25T16:24:29.942986+05:30
Tirupur,Tamil Nadu,11.1085,77.3411,39.0,22,0.0,972.1,9.4,42.1,54,18.1,14.6,0,5,10,0,2026-04-25T16:24:29.942991+05:30
Alappuzha,Kerala,9.4981,76.3388,31.0,74,0.0,1005.4,8.05,36.7,113,22.5,20.1,3,5,4,1,2026-04-25T16:24:29.942997+05:30
Munnar,Kerala,10.0889,77.0595,25.2,44,0.0,857.4,9.15,31.7,61,11.4,10.0,4,5,7,0,2026-04-25T16:24:29.943004+05:30
Silchar,Assam,24.8333,92.7789,32.8,62,0.0,1001.7,8.75,21.6,160,113.4,50.6,3,5,4,1,2026-04-25T16:24:29.943011+05:30
Dibrugarh,Assam,27.4728,94.912,27.9,70,0.0,995.0,8.6,31.7,102,63.3,33.1,7,5,7,1,2026-04-25T16:24:29.943017+05:30
