city,state,latitude,longitude,temp,humidity,rain,pressure,uv_index,wind_gusts,aqi,pm10,pm2_5,mosquito_risk,arthritis_risk,migraine_risk,frizz_risk,updated_at
Delhi,Delhi,28.6139,77.209,25.9,63,0.0,988.3,6.5,25.2,157,268.2,84.5,7,5,7,1,2026-03-24T10:26:41.005671+05:30
Mumbai,Maharashtra,19.076,72.8777,29.6,61,0.0,1010.3,7.8,27.0,102,66.8,45.4,7,0,4,1,2026-03-24T10:26:41.005714+05:30
Bangalore,Karnataka,12.9716,77.5946,27.9,51,0.0,915.0,9.5,35.6,79,29.6,23.6,4,5,7,1,2026-03-24T10:26:41.005730+05:30
Hyderabad,Telangana,17.385,78.4867,31.8,44,0.0,956.6,8.95,21.6,84,25.9,18.5,0,5,7,1,2026-03-24T10:26:41.005739+05:30
Chennai,Tamil Nadu,13.0827,80.2707,31.5,56,0.0,1010.9,9.2,33.5,35,15.4,8.9,0,0,4,1,2026-03-24T10:26:41.005748+05:30
Kolkata,West Bengal,22.5726,88.3639,28.7,68,0.0,1010.9,8.3,22.0,151,49.6,39.1,7,0,4,1,2026-03-24T10:26:41.005757+05:30
Pune,Maharashtra,18.5204,73.8567,32.5,35,0.0,951.4,8.5,26.3,92,44.9,22.1,0,5,7,0,2026-03-24T10:26:41.005768+05:30
Ahmedabad,Gujarat,23.0225,72.5714,30.0,48,0.0,1006.2,7.35,15.1,77,17.8,14.2,4,5,4,1,2026-03-24T10:26:41.005776+05:30
Jaipur,Rajasthan,26.9124,75.7873,26.7,54,0.0,964.7,7.25,18.7,140,146.7,44.5,4,5,7,1,2026-03-24T10:26:41.005784+05:30
Lucknow,Uttar Pradesh,26.8467,80.9462,27.5,54,0.0,998.5,7.05,28.8,131,68.7,34.0,4,5,7,1,2026-03-24T10:26:41.005791+05:30
Kanpur,Uttar Pradesh,26.4499,80.3319,26.5,60,0.0,996.9,7.05,25.6,150,125.3,37.4,4,5,7,1,2026-03-24T10:26:41.005798+05:30
Chandigarh,Chandigarh,30.7333,76.7794,24.5,56,0.0,973.8,6.5,33.8,105,36.2,29.5,0,5,7,0,2026-03-24T10:26:41.005806+05:30
Srinagar,Jammu and Kashmir,34.0837,74.7973,11.5,71,0.0,845.2,7.55,15.8,73,23.6,19.9,3,5,7,0,2026-03-24T10:26:41.005813+05:30
Jammu,Jammu and Kashmir,32.7266,74.857,25.0,48,0.0,978.0,7.15,30.6,74,17.9,15.8,4,5,7,0,2026-03-24T10:26:41.005820+05:30
Amritsar,Punjab,31.634,74.8723,24.4,67,0.0,986.5,7.15,24.8,129,63.6,53.7,3,5,7,1,2026-03-24T10:26:41.005827+05:30
Ludhiana,Punjab,30.901,75.8573,25.1,61,0.0,984.2,6.75,33.1,156,73.1,63.8,7,5,7,1,2026-03-24T10:26:41.005848+05:30
Jalandhar,Punjab,31.326,75.5762,24.6,66,0.0,985.3,6.95,28.8,148,63.1,54.5,3,5,7,1,2026-03-24T10:26:41.005860+05:30
Dehradun,Uttarakhand,30.6284,78.0322,15.5,59,0.0,832.1,6.9,31.3,49,4.1,2.5,0,5,7,0,2026-03-24T10:26:41.005867+05:30
Shimla,Himachal Pradesh,31.1048,77.1734,14.5,60,0.0,786.8,7.0,48.2,59,14.6,7.0,0,5,7,0,2026-03-24T10:26:41.005874+05:30
Manali,Himachal Pradesh,32.2396,77.1887,16.4,22,0.0,820.5,9.15,28.4,90,5.2,3.3,0,5,7,1,2026-03-24T10:26:41.005881+05:30
Gurgaon,Haryana,28.4595,77.0266,26.1,66,0.0,986.7,6.65,22.3,219,248.7,71.9,7,5,7,1,2026-03-24T10:26:41.005887+05:30
Noida,Uttar Pradesh,28.5355,77.391,26.1,65,0.0,989.8,6.5,23.8,219,248.7,71.9,7,5,7,1,2026-03-24T10:26:41.005893+05:30
Ghaziabad,Uttar Pradesh,28.6692,77.4538,25.4,70,0.0,987.9,6.35,25.2,153,247.7,80.6,7,5,7,1,2026-03-24T10:26:41.005900+05:30
Faridabad,Haryana,28.4089,77.3178,26.1,66,0.0,989.1,6.6,22.3,219,248.7,71.9,7,5,7,1,2026-03-24T10:26:41.005907+05:30
Meerut,Uttar Pradesh,28.9845,77.7064,25.2,74,0.0,986.6,6.3,27.0,153,247.7,80.6,7,5,7,1,2026-03-24T10:26:41.005913+05:30
Agra,Uttar Pradesh,27.1767,78.0081,28.3,48,0.0,993.2,6.55,22.7,156,214.2,59.1,4,5,7,1,2026-03-24T10:26:41.005919+05:30
Varanasi,Uttar Pradesh,25.3176,82.9739,28.5,49,0.0,1002.7,7.75,27.7,142,103.1,50.5,4,5,4,1,2026-03-24T10:26:41.005928+05:30
Prayagraj,Uttar Pradesh,25.4358,81.8463,26.8,56,0.0,1001.2,7.6,22.0,118,80.8,32.0,4,5,4,1,2026-03-24T10:26:41.005935+05:30
Gorakhpur,Uttar Pradesh,26.7606,83.3732,27.2,56,0.0,1001.9,7.45,31.7,153,74.7,47.5,4,5,4,1,2026-03-24T10:26:41.005941+05:30
Bareilly,Uttar Pradesh,28.367,79.4304,25.4,72,0.0,991.8,6.8,26.6,114,86.6,53.3,7,5,7,1,2026-03-24T10:26:41.005948+05:30
Aligarh,Uttar Pradesh,27.8974,78.088,26.0,67,0.0,991.0,6.55,23.8,156,234.7,61.0,7,5,7,1,2026-03-24T10:26:41.005958+05:30
Moradabad,Uttar Pradesh,28.8386,78.7733,25.2,72,0.0,988.7,6.6,27.7,139,116.4,61.5,7,5,7,1,2026-03-24T10:26:41.005965+05:30
Saharanpur,Uttar Pradesh,29.9637,77.546,24.4,69,0.0,980.7,6.25,33.5,160,100.1,92.4,3,5,7,1,2026-03-24T10:26:41.005971+05:30
Jhansi,Uttar Pradesh,25.4484,78.5685,27.9,46,0.0,982.9,7.3,26.6,125,253.3,56.5,4,5,7,0,2026-03-24T10:26:44.266546+05:30
Surat,Gujarat,21.1702,72.8311,29.3,49,0.0,1010.1,7.15,26.6,139,69.2,58.7,4,0,4,1,2026-03-24T10:26:44.266576+05:30
Vadodara,Gujarat,22.3072,73.1812,31.2,45,0.0,1008.1,7.85,19.4,91,34.6,28.2,0,0,4,1,2026-03-24T10:26:44.266586+05:30
Rajkot,Gujarat,22.3039,70.8022,27.2,68,0.0,998.3,7.1,20.2,49,16.1,7.8,7,5,7,1,2026-03-24T10:26:44.266594+05:30
Thane,Maharashtra,19.2183,72.9781,33.4,36,0.0,1009.9,7.85,40.3,102,66.8,45.4,0,0,4,1,2026-03-24T10:26:44.266600+05:30
Nagpur,Maharashtra,21.1458,79.0882,31.5,36,0.0,976.7,8.45,22.7,88,45.8,34.6,0,5,7,0,2026-03-24T10:26:44.266608+05:30
Nashik,Maharashtra,19.9975,73.7898,29.0,42,0.0,948.8,8.0,33.8,68,48.8,22.9,4,5,7,0,2026-03-24T10:26:44.266615+05:30
Aurangabad,Maharashtra,19.8762,75.3433,31.6,34,0.0,947.5,8.6,24.8,56,40.5,18.3,0,5,7,0,2026-03-24T10:26:44.266622+05:30
Solapur,Maharashtra,17.6599,75.9064,32.2,36,0.0,960.1,8.8,20.2,91,37.4,30.3,0,5,7,0,2026-03-24T10:26:44.266629+05:30
Kolhapur,Maharashtra,16.705,74.2433,29.8,44,0.0,950.9,8.95,44.6,113,54.2,44.2,4,5,7,1,2026-03-24T10:26:44.266635+05:30
Goa,Goa,15.2993,74.124,31.3,64,0.0,1000.3,8.9,29.9,98,44.2,32.5,3,5,4,1,2026-03-24T10:26:44.266642+05:30
Jodhpur,Rajasthan,26.2389,73.0243,31.1,33,0.0,987.5,7.55,16.2,72,44.6,20.0,0,5,7,0,2026-03-24T10:26:44.266649+05:30
Udaipur,Rajasthan,24.5854,73.7125,29.4,34,0.0,950.7,7.6,18.7,57,80.6,18.2,4,5,7,0,2026-03-24T10:26:44.266656+05:30
Kota,Rajasthan,25.2138,75.8648,30.5,44,0.0,983.4,7.65,14.4,110,96.6,38.3,0,5,7,1,2026-03-24T10:26:44.266663+05:30
Bikaner,Rajasthan,28.0229,73.3119,30.3,35,0.0,986.5,7.2,16.9,64,67.8,24.2,0,5,7,0,2026-03-24T10:26:44.266670+05:30
Ajmer,Rajasthan,26.4499,74.6399,27.9,47,0.0,959.1,7.55,17.3,101,114.1,35.2,4,5,7,0,2026-03-24T10:26:44.266677+05:30
Gwalior,Madhya Pradesh,26.2183,78.1828,28.5,47,0.0,988.2,7.3,26.6,127,196.0,49.4,4,5,7,1,2026-03-24T10:26:44.266683+05:30
Indore,Madhya Pradesh,22.7196,75.8577,28.8,43,0.0,951.9,8.15,22.7,59,41.4,21.5,4,5,7,0,2026-03-24T10:26:44.266689+05:30
Bhopal,Madhya Pradesh,23.2599,77.4126,31.0,37,0.0,957.5,8.05,28.1,69,67.8,28.1,0,5,7,0,2026-03-24T10:26:44.266695+05:30
Jabalpur,Madhya Pradesh,23.1815,79.9864,31.2,37,0.0,965.0,8.15,28.1,75,44.5,24.7,0,5,7,0,2026-03-24T10:26:44.266701+05:30
Ujjain,Madhya Pradesh,23.1765,75.7885,28.3,49,0.0,957.7,8.05,18.4,61,45.5,24.2,4,5,7,1,2026-03-24T10:26:44.266708+05:30
Visakhapatnam,Andhra Pradesh,17.6868,83.2185,30.7,59,0.0,1007.8,8.95,34.6,88,37.8,30.3,0,5,4,1,2026-03-24T10:26:44.266714+05:30
Vijayawada,Andhra Pradesh,16.5062,80.648,29.9,68,0.0,1006.5,9.0,25.9,63,21.8,14.1,7,5,4,1,2026-03-24T10:26:44.266720+05:30
Guntur,Andhra Pradesh,16.3067,80.4365,30.4,65,0.0,1007.6,9.0,29.5,60,21.0,13.4,3,5,4,1,2026-03-24T10:26:44.266727+05:30
Nellore,Andhra Pradesh,14.4426,79.9865,31.4,59,0.0,1009.4,9.1,29.9,41,18.6,11.7,0,0,4,1,2026-03-24T10:26:44.266734+05:30
Kurnool,Andhra Pradesh,15.8281,78.0373,33.1,43,0.0,980.1,9.0,23.0,61,15.1,11.3,0,5,7,1,2026-03-24T10:26:44.266741+05:30
Kakinada,Andhra Pradesh,16.9891,82.2475,31.6,57,0.0,1011.4,8.95,27.4,51,21.4,12.8,0,0,4,1,2026-03-24T10:26:44.266747+05:30
Tirupati,Andhra Pradesh,13.6288,79.4192,29.5,61,0.0,995.5,9.25,29.9,62,19.0,13.7,7,5,7,1,2026-03-24T10:26:44.266753+05:30
Warangal,Telangana,17.9689,79.5941,30.4,61,0.0,982.3,8.8,28.8,93,20.5,15.8,3,5,7,1,2026-03-24T10:26:44.266760+05:30
Nizamabad,Telangana,18.6725,78.0941,33.6,38,0.0,968.0,8.75,41.0,95,41.4,35.4,0,5,7,1,2026-03-24T10:26:44.266767+05:30
Mysore,Karnataka,12.2958,76.6396,28.5,56,0.0,931.5,9.4,39.2,93,36.2,30.0,4,5,7,1,2026-03-24T10:26:44.266773+05:30
Mangalore,Karnataka,12.9141,74.856,28.5,80,0.0,1009.3,9.1,25.6,77,46.8,33.3,7,0,4,1,2026-03-24T10:26:44.266779+05:30
Hubli-Dharwad,Karnataka,15.3647,75.124,28.1,65,0.0,943.8,9.1,30.2,96,37.4,28.5,7,5,7,1,2026-03-24T10:26:44.266786+05:30
Belgaum,Karnataka,15.8497,74.4977,30.6,36,0.0,928.7,9.05,40.3,96,35.2,22.2,0,5,7,0,2026-03-24T10:26:47.528329+05:30
Coimbatore,Tamil Nadu,11.0168,76.9558,29.3,59,0.0,965.2,9.4,33.1,65,13.4,11.1,4,5,7,1,2026-03-24T10:26:47.528362+05:30
Madurai,Tamil Nadu,9.9252,78.1198,30.1,58,0.0,996.5,9.35,29.5,57,12.7,9.3,0,5,7,1,2026-03-24T10:26:47.528374+05:30
Trichy,Tamil Nadu,10.7905,78.7047,29.4,64,0.0,1003.5,9.3,23.4,55,13.9,10.7,7,5,4,1,2026-03-24T10:26:47.528383+05:30
Salem,Tamil Nadu,11.6643,78.146,29.9,58,0.0,981.0,9.35,27.7,75,27.2,23.8,4,5,7,1,2026-03-24T10:26:47.528392+05:30
Tirunelveli,Tamil Nadu,8.7139,77.7567,31.5,54,0.0,1006.4,9.35,37.8,54,8.1,5.7,0,5,4,1,2026-03-24T10:26:47.528401+05:30
Vellore,Tamil Nadu,12.9165,79.1325,29.5,57,0.0,988.4,9.3,33.1,69,16.3,10.8,4,5,7,1,2026-03-24T10:26:47.528409+05:30
Erode,Tamil Nadu,11.341,77.7172,29.9,62,0.0,992.7,9.35,20.9,56,14.4,10.6,7,5,7,1,2026-03-24T10:26:47.528418+05:30
Kochi,Kerala,9.9312,76.2673,28.1,82,0.0,1011.2,9.15,38.5,89,43.5,31.2,7,0,4,1,2026-03-24T10:26:47.528426+05:30
Thiruvananthapuram,Kerala,8.5241,76.9366,28.7,79,0.0,1010.2,9.2,31.3,62,27.8,20.2,7,0,4,1,2026-03-24T10:26:47.528435+05:30
Kozhikode,Kerala,11.2588,75.7804,29.6,71,0.0,1010.6,9.05,30.6,72,41.2,28.0,7,0,4,1,2026-03-24T10:26:47.528443+05:30
Thrissur,Kerala,10.5276,76.2144,31.9,60,0.0,1009.5,9.15,42.1,89,41.2,28.1,0,0,4,1,2026-03-24T10:26:47.528451+05:30
Kannur,Kerala,11.8745,75.3704,31.1,61,0.0,1009.8,9.1,29.9,70,41.7,29.0,3,0,4,1,2026-03-24T10:26:47.528460+05:30
Patna,Bihar,25.5941,85.1376,28.9,49,0.0,1005.0,7.9,33.1,156,129.9,74.3,4,5,4,1,2026-03-24T10:26:47.528468+05:30
Gaya,Bihar,24.7914,85.0002,28.3,54,0.0,998.8,7.85,24.8,109,138.8,44.8,4,5,7,1,2026-03-24T10:26:47.528475+05:30
Muzaffarpur,Bihar,26.1209,85.3647,27.9,62,0.0,1005.0,7.85,35.6,157,113.2,85.0,7,5,4,1,2026-03-24T10:26:47.528483+05:30
Bhagalpur,Bihar,25.2425,87.0117,27.8,63,0.0,1005.8,7.85,27.0,138,63.8,57.4,7,5,4,1,2026-03-24T10:26:47.528490+05:30
Ranchi,Jharkhand,23.3441,85.3096,26.4,48,0.0,942.1,8.6,32.8,67,57.0,24.6,4,5,7,0,2026-03-24T10:26:47.528497+05:30
Jamshedpur,Jharkhand,22.8046,86.2029,29.0,62,0.0,995.5,8.45,20.5,128,58.9,49.2,7,5,7,1,2026-03-24T10:26:47.528505+05:30
Dhanbad,Jharkhand,23.7957,86.4304,28.8,49,0.0,984.5,8.35,29.9,162,95.2,86.6,4,5,7,1,2026-03-24T10:26:47.528513+05:30
Bokaro,Jharkhand,23.6693,86.1511,28.8,50,0.0,988.5,8.35,25.9,153,84.1,63.6,4,5,7,1,2026-03-24T10:26:47.528520+05:30
Bhubaneswar,Odisha,20.2961,85.8245,30.7,63,0.0,1007.0,8.7,30.6,92,33.3,22.9,3,5,4,1,2026-03-24T10:26:47.528528+05:30
Cuttack,Odisha,20.4625,85.8828,30.8,62,0.0,1008.9,8.75,27.0,92,33.3,22.9,3,0,4,1,2026-03-24T10:26:47.528536+05:30
Rourkela,Odisha,22.2604,84.8536,30.3,46,0.0,989.6,8.4,25.6,86,55.9,40.0,0,5,7,1,2026-03-24T10:26:47.528543+05:30
Raipur,Chhattisgarh,21.2514,81.6296,31.8,32,0.0,978.6,8.45,26.6,106,53.7,43.2,0,5,7,0,2026-03-24T10:26:47.528550+05:30
Bhilai,Chhattisgarh,21.1938,81.3509,31.5,36,0.0,979.0,8.5,25.2,116,60.8,51.2,0,5,7,0,2026-03-24T10:26:47.528558+05:30
Guwahati,Assam,26.1158,91.7086,25.8,71,0.0,1006.7,7.7,27.4,92,31.3,28.9,7,5,4,1,2026-03-24T10:26:47.528565+05:30
Agartala,Tripura,23.8315,91.2868,27.7,62,0.0,1011.2,8.05,15.1,156,61.9,54.4,7,0,4,1,2026-03-24T10:26:47.528573+05:30
Shillong,Meghalaya,25.5788,91.8933,16.9,50,0.0,859.0,7.8,38.5,79,20.4,18.9,0,5,7,0,2026-03-24T10:26:47.528580+05:30
Imphal,Manipur,24.817,93.9368,20.1,60,0.0,926.6,7.8,39.2,87,28.4,23.2,0,5,7,0,2026-03-24T10:26:47.528588+05:30
Aizawl,Mizoram,23.7271,92.7176,21.9,49,0.0,896.7,8.35,32.4,95,45.2,37.0,0,5,7,0,2026-03-24T10:26:47.528596+05:30
Kohima,Nagaland,25.6701,94.1077,16.6,66,0.0,857.4,7.55,56.2,70,18.3,15.3,3,5,7,0,2026-03-24T10:26:47.528604+05:30
Gangtok,Sikkim,27.3314,88.6138,13.2,87,0.1,838.6,2.05,16.6,82,16.8,15.2,6,10,3,0,2026-03-24T10:26:47.528613+05:30
Siliguri,West Bengal,26.7271,88.3953,19.3,91,0.0,998.9,4.65,35.6,103,57.4,48.7,3,10,3,1,2026-03-24T10:26:50.787955+05:30
Durgapur,West Bengal,23.5204,87.3119,28.8,66,0.0,999.8,8.05,24.5,156,75.7,65.7,7,5,7,1,2026-03-24T10:26:50.787989+05:30
Asansol,West Bengal,23.6739,86.9524,29.1,61,0.0,998.4,7.75,24.8,153,77.1,68.5,7,5,7,1,2026-03-24T10:26:50.787999+05:30
Pondicherry,Puducherry,11.9139,79.8145,30.5,65,0.0,1012.1,9.2,29.9,29,11.8,7.9,3,0,4,1,2026-03-24T10:26:50.788007+05:30
Port Blair,Andaman and Nicobar Islands,11.6234,92.7265,28.3,66,0.0,1009.0,9.15,24.8,49,21.5,13.4,7,0,4,1,2026-03-24T10:26:50.788015+05:30
Haridwar,Uttarakhand,29.9457,78.1642,25.1,61,0.0,979.0,6.4,33.1,113,25.2,22.8,7,5,7,1,2026-03-24T10:26:50.788022+05:30
Rishikesh,Uttarakhand,30.0869,78.2676,24.4,58,0.0,971.4,6.45,29.2,88,21.1,18.0,0,5,7,0,2026-03-24T10:26:50.788029+05:30
Nainital,Uttarakhand,29.3919,79.4542,17.7,68,0.0,808.4,7.3,46.1,96,38.2,25.4,3,5,7,0,2026-03-24T10:26:50.788036+05:30
Mussoorie,Uttarakhand,30.4599,78.0664,16.0,67,0.0,804.7,6.8,40.7,80,21.1,15.3,3,5,7,0,2026-03-24T10:26:50.788042+05:30
Dharamshala,Himachal Pradesh,32.219,76.3234,19.1,54,0.0,872.0,7.05,25.2,63,17.4,5.6,0,5,7,0,2026-03-24T10:26:50.788049+05:30
Dalhousie,Himachal Pradesh,32.5387,75.971,17.3,43,0.0,806.4,7.3,25.6,73,21.4,9.2,0,5,7,0,2026-03-24T10:26:50.788057+05:30
Patiala,Punjab,30.3398,76.3869,25.4,61,0.0,983.5,6.4,29.9,157,86.8,72.2,7,5,7,1,2026-03-24T10:26:50.788063+05:30
Bhatinda,Punjab,30.211,74.9455,26.6,60,0.0,989.2,7.1,23.0,136,125.7,54.1,4,5,7,1,2026-03-24T10:26:50.788069+05:30
Rohtak,Haryana,28.8955,76.6066,26.2,67,0.0,987.2,6.55,23.4,155,251.5,77.1,7,5,7,1,2026-03-24T10:26:50.788076+05:30
Panipat,Haryana,29.3909,76.9635,25.8,65,0.0,985.6,6.35,27.7,152,185.8,65.4,7,5,7,1,2026-03-24T10:26:50.788082+05:30
Mathura,Uttar Pradesh,27.4924,77.6737,26.9,59,0.0,992.3,6.4,21.6,150,172.8,56.0,4,5,7,1,2026-03-24T10:26:50.788088+05:30
Vrindavan,Uttar Pradesh,27.5823,77.7027,26.5,62,0.0,992.6,6.45,23.8,150,172.8,56.0,7,5,7,1,2026-03-24T10:26:50.788094+05:30
Ayodhya,Uttar Pradesh,26.7922,82.1998,28.1,52,0.0,1000.1,7.25,33.1,135,51.5,35.3,4,5,4,1,2026-03-24T10:26:50.788100+05:30
Ratlam,Madhya Pradesh,23.3315,75.0367,29.3,45,0.0,958.5,8.0,20.2,55,42.3,19.4,4,5,7,1,2026-03-24T10:26:50.788106+05:30
Sagar,Madhya Pradesh,23.8388,78.7378,30.2,38,0.0,954.2,8.05,25.6,69,80.6,28.7,0,5,7,0,2026-03-24T10:26:50.788113+05:30
Satna,Madhya Pradesh,24.6005,80.8322,27.8,48,0.0,975.8,7.6,29.2,80,102.2,35.5,4,5,7,0,2026-03-24T10:26:50.788119+05:30
Akola,Maharashtra,20.7002,77.0082,32.0,37,0.0,978.7,8.4,22.3,76,30.4,17.5,0,5,7,0,2026-03-24T10:26:50.788126+05:30
Amravati,Maharashtra,20.9374,77.7796,32.0,34,0.0,970.8,8.4,23.8,86,29.0,20.7,0,5,7,0,2026-03-24T10:26:50.788133+05:30
Latur,Maharashtra,18.4088,76.5604,30.2,38,0.0,943.1,8.75,19.8,96,45.8,33.4,0,5,7,0,2026-03-24T10:26:50.788139+05:30
Nanded,Maharashtra,19.1383,77.3091,32.4,40,0.0,972.1,8.6,21.6,103,40.9,34.0,0,5,7,1,2026-03-24T10:26:50.788146+05:30
Gulbarga,Karnataka,17.3297,76.8343,32.8,40,0.0,961.8,8.8,39.6,85,20.5,17.1,0,5,7,1,2026-03-24T10:26:50.788152+05:30
Bidar,Karnataka,17.9104,77.5199,31.5,41,0.0,938.8,8.85,36.7,93,28.4,22.2,0,5,7,1,2026-03-24T10:26:50.788158+05:30
Hospet,Karnataka,15.2689,76.3909,28.5,67,0.0,958.9,9.05,24.8,102,29.2,25.6,7,5,7,1,2026-03-24T10:26:50.788164+05:30
Tirupur,Tamil Nadu,11.1085,77.3411,30.0,58,0.0,978.9,9.4,27.7,64,14.6,11.6,4,5,7,1,2026-03-24T10:26:50.788170+05:30
Alappuzha,Kerala,9.4981,76.3388,28.3,78,0.0,1011.3,9.15,34.6,82,40.7,29.3,7,0,4,1,2026-03-24T10:26:50.788176+05:30
Munnar,Kerala,10.0889,77.0595,28.1,47,0.0,861.2,9.65,29.9,65,15.3,10.8,4,5,7,0,2026-03-24T10:26:50.788182+05:30
Silchar,Assam,24.8333,92.7789,26.7,64,0.0,1010.1,8.1,22.7,122,38.6,33.3,7,0,4,1,2026-03-24T10:26:50.788189+05:30
Dibrugarh,Assam,27.4728,94.912,21.3,86,0.0,1000.9,6.95,14.4,75,19.1,17.5,3,5,4,1,2026-03-24T10:26:50.788195+05:30
