city,state,latitude,longitude,temp,humidity,rain,pressure,uv_index,wind_gusts,aqi,pm10,pm2_5,no2,co,o3,so2,mosquito_risk,arthritis_risk,migraine_risk,frizz_risk,updated_at
Delhi,Delhi,28.6139,77.209,27.5,93,0.0,976.7,7.0,36.7,85,26.3,26.2,40.6,841.0,48.0,19.0,7,5,7,1,2026-07-24T22:18:11.442555+05:30
Mumbai,Maharashtra,19.076,72.8777,28.0,78,0.2,1003.7,7.55,64.8,60,34.8,15.4,7.0,168.0,40.0,4.6,10,5,4,1,2026-07-24T22:18:11.442598+05:30
Bangalore,Karnataka,12.9716,77.5946,22.3,82,0.0,911.9,8.9,51.8,55,22.5,14.5,21.2,351.0,33.0,5.2,3,5,7,1,2026-07-24T22:18:11.442614+05:30
Hyderabad,Telangana,17.385,78.4867,26.2,69,0.0,950.7,8.65,65.5,62,16.9,11.0,8.7,250.0,53.0,4.2,7,5,7,1,2026-07-24T22:18:11.442623+05:30
Chennai,Tamil Nadu,13.0827,80.2707,29.4,76,0.0,1006.2,7.95,35.3,72,35.2,21.8,22.5,513.0,69.0,11.3,7,5,4,1,2026-07-24T22:18:11.442631+05:30
Kolkata,West Bengal,22.5726,88.3639,25.6,97,0.1,1001.1,6.3,28.4,72,28.5,26.4,11.6,476.0,78.0,8.9,10,5,4,1,2026-07-24T22:18:11.442639+05:30
Pune,Maharashtra,18.5204,73.8567,23.0,89,0.0,943.8,5.0,62.6,21,5.3,3.5,6.4,139.0,33.0,3.7,3,5,3,1,2026-07-24T22:18:11.442646+05:30
Ahmedabad,Gujarat,23.0225,72.5714,25.5,95,0.2,992.3,1.45,45.0,40,20.5,11.0,12.0,211.0,43.0,4.7,10,5,3,1,2026-07-24T22:18:11.442656+05:30
Jaipur,Rajasthan,26.9124,75.7873,27.5,74,0.0,952.5,7.2,33.5,66,14.8,14.7,22.2,492.0,58.0,8.8,7,5,7,1,2026-07-24T22:18:11.442663+05:30
Lucknow,Uttar Pradesh,26.8467,80.9462,27.1,94,0.0,989.1,8.0,25.9,66,30.9,30.6,21.6,501.0,55.0,11.3,7,5,7,1,2026-07-24T22:18:11.442693+05:30
Kanpur,Uttar Pradesh,26.4499,80.3319,28.3,85,0.0,986.7,7.55,28.1,56,22.1,21.8,14.9,266.0,71.0,8.4,7,5,7,1,2026-07-24T22:18:11.442720+05:30
Chandigarh,Chandigarh,30.7333,76.7794,28.1,79,0.0,963.5,7.4,31.7,111,36.1,36.1,31.4,639.0,69.0,9.4,7,5,7,1,2026-07-24T22:18:11.442729+05:30
Srinagar,Jammu and Kashmir,34.0837,74.7973,18.7,90,0.0,838.8,6.1,14.8,76,32.7,32.4,32.1,1310.0,33.0,4.1,3,10,7,1,2026-07-24T22:18:11.442736+05:30
Jammu,Jammu and Kashmir,32.7266,74.857,27.7,75,0.0,967.1,8.35,31.7,93,46.2,45.9,58.5,846.0,35.0,8.1,7,5,7,1,2026-07-24T22:18:11.442742+05:30
Amritsar,Punjab,31.634,74.8723,28.3,89,0.0,974.6,8.35,29.5,95,49.0,49.0,36.5,772.0,57.0,8.1,7,5,7,1,2026-07-24T22:18:11.442748+05:30
Ludhiana,Punjab,30.901,75.8573,28.7,84,0.0,972.7,7.85,32.4,110,33.6,33.6,21.2,594.0,84.0,9.6,7,5,7,1,2026-07-24T22:18:11.442755+05:30
Jalandhar,Punjab,31.326,75.5762,28.5,86,0.0,973.8,8.05,22.7,117,53.0,53.0,32.7,1421.0,70.0,9.8,7,5,7,1,2026-07-24T22:18:11.442761+05:30
Dehradun,Uttarakhand,30.6284,78.0322,18.1,100,0.1,828.0,7.55,27.0,54,7.0,7.0,16.1,209.0,76.0,1.4,6,10,7,1,2026-07-24T22:18:11.442770+05:30
Shimla,Himachal Pradesh,31.1048,77.1734,15.5,99,0.0,782.0,6.15,24.1,53,13.2,13.1,24.5,492.0,65.0,1.7,3,10,7,0,2026-07-24T22:18:11.442776+05:30
Manali,Himachal Pradesh,32.2396,77.1887,19.9,93,0.2,818.1,9.4,29.2,39,7.1,7.0,40.5,192.0,33.0,0.1,6,10,7,1,2026-07-24T22:18:11.442784+05:30
Gurgaon,Haryana,28.4595,77.0266,26.9,93,0.0,974.8,6.75,40.0,83,23.8,23.7,37.2,631.0,54.0,14.9,7,5,7,1,2026-07-24T22:18:11.442790+05:30
Noida,Uttar Pradesh,28.5355,77.391,27.7,92,0.0,978.3,6.1,37.8,83,23.8,23.7,37.2,722.0,54.0,14.9,7,5,7,1,2026-07-24T22:18:11.442796+05:30
Ghaziabad,Uttar Pradesh,28.6692,77.4538,27.8,88,0.0,976.7,5.3,40.7,78,20.1,20.0,15.0,360.0,70.0,6.6,7,5,3,1,2026-07-24T22:18:11.442802+05:30
Faridabad,Haryana,28.4089,77.3178,27.7,93,0.0,977.5,5.55,38.9,83,23.8,23.7,37.2,670.0,54.0,14.9,7,5,3,1,2026-07-24T22:18:11.442808+05:30
Meerut,Uttar Pradesh,28.9845,77.7064,27.5,90,0.0,976.1,6.25,46.8,78,20.1,20.0,15.0,350.0,70.0,6.6,7,5,7,1,2026-07-24T22:18:11.442815+05:30
Agra,Uttar Pradesh,27.1767,78.0081,29.3,75,0.0,981.3,6.7,32.0,74,22.9,22.1,29.0,349.0,41.0,9.7,7,5,7,1,2026-07-24T22:18:11.442821+05:30
Varanasi,Uttar Pradesh,25.3176,82.9739,28.4,91,0.0,993.3,7.5,21.2,80,26.7,26.2,18.9,632.0,68.0,11.5,7,5,7,1,2026-07-24T22:18:11.442827+05:30
Prayagraj,Uttar Pradesh,25.4358,81.8463,29.3,82,0.0,991.1,8.45,19.4,69,38.5,38.1,30.3,526.0,52.0,14.3,7,5,7,1,2026-07-24T22:18:11.442834+05:30
Gorakhpur,Uttar Pradesh,26.7606,83.3732,26.6,95,0.0,993.5,6.9,27.4,98,37.1,37.1,28.0,479.0,43.0,8.8,7,5,7,1,2026-07-24T22:18:11.442840+05:30
Bareilly,Uttar Pradesh,28.367,79.4304,26.6,95,0.0,982.3,6.8,40.7,79,27.9,27.9,13.0,355.0,75.0,5.9,7,5,7,1,2026-07-24T22:18:11.442848+05:30
Aligarh,Uttar Pradesh,27.8974,78.088,29.1,77,0.0,979.5,5.4,35.6,80,22.2,21.1,17.0,277.0,63.0,8.8,7,5,3,1,2026-07-24T22:18:11.442854+05:30
Moradabad,Uttar Pradesh,28.8386,78.7733,26.9,89,0.0,979.1,7.1,47.2,77,24.2,24.2,11.6,353.0,88.0,8.4,7,5,7,1,2026-07-24T22:18:11.442860+05:30
Saharanpur,Uttar Pradesh,29.9637,77.546,27.9,86,0.0,970.8,7.25,49.0,82,31.1,31.1,16.3,431.0,83.0,9.1,7,5,7,1,2026-07-24T22:18:11.442866+05:30
Jhansi,Uttar Pradesh,25.4484,78.5685,28.3,76,0.0,972.3,7.0,38.2,52,11.6,10.4,15.4,199.0,42.0,4.7,7,5,7,1,2026-07-24T22:18:14.759347+05:30
Surat,Gujarat,21.1702,72.8311,26.3,92,0.1,999.5,5.75,55.8,66,28.2,17.2,21.5,288.0,30.0,31.8,10,5,3,1,2026-07-24T22:18:14.759379+05:30
Vadodara,Gujarat,22.3072,73.1812,26.3,88,0.0,996.2,2.0,50.4,35,9.6,7.7,13.7,224.0,33.0,5.4,7,5,3,1,2026-07-24T22:18:14.759391+05:30
Rajkot,Gujarat,22.3039,70.8022,25.4,96,0.9,985.7,0.9,54.7,39,28.6,13.5,6.5,118.0,44.0,4.7,10,5,3,1,2026-07-24T22:18:14.759401+05:30
Thane,Maharashtra,19.2183,72.9781,24.9,93,0.1,1003.3,7.65,54.0,60,34.8,15.4,7.0,217.0,40.0,4.6,6,5,4,1,2026-07-24T22:18:14.759410+05:30
Nagpur,Maharashtra,21.1458,79.0882,25.4,90,0.0,969.3,8.5,42.8,52,18.7,14.2,16.1,261.0,42.0,9.1,7,5,7,1,2026-07-24T22:18:14.759418+05:30
Nashik,Maharashtra,19.9975,73.7898,22.3,96,0.1,940.0,6.65,61.2,27,9.2,5.0,7.6,127.0,37.0,4.3,6,5,7,1,2026-07-24T22:18:14.759426+05:30
Aurangabad,Maharashtra,19.8762,75.3433,24.2,84,0.0,939.5,6.55,60.5,31,7.1,4.9,6.5,157.0,40.0,6.3,3,5,7,1,2026-07-24T22:18:14.759434+05:30
Solapur,Maharashtra,17.6599,75.9064,25.5,75,0.0,955.1,5.95,64.4,32,9.7,6.5,4.0,119.0,39.0,1.9,7,5,3,1,2026-07-24T22:18:14.759442+05:30
Kolhapur,Maharashtra,16.705,74.2433,22.4,94,0.0,945.7,8.9,67.0,28,9.3,6.4,4.6,129.0,33.0,1.8,3,5,7,1,2026-07-24T22:18:14.759450+05:30
Goa,Goa,15.2993,74.124,23.6,97,0.2,998.4,8.65,38.2,74,18.9,11.1,3.3,245.0,35.0,1.0,6,5,7,1,2026-07-24T22:18:14.759458+05:30
Jodhpur,Rajasthan,26.2389,73.0243,27.7,89,0.0,973.6,7.3,28.1,87,19.2,18.3,12.6,396.0,88.0,2.2,7,5,7,1,2026-07-24T22:18:14.759466+05:30
Udaipur,Rajasthan,24.5854,73.7125,24.3,92,0.0,938.0,7.2,29.9,50,7.0,6.9,9.0,256.0,59.0,3.6,3,5,7,1,2026-07-24T22:18:14.759473+05:30
Kota,Rajasthan,25.2138,75.8648,28.5,72,0.0,971.4,7.5,44.3,53,7.3,7.1,7.7,187.0,71.0,4.9,7,5,7,1,2026-07-24T22:18:14.759481+05:30
Bikaner,Rajasthan,28.0229,73.3119,28.2,90,0.0,973.7,8.0,30.2,100,24.1,23.2,6.8,346.0,109.0,5.5,7,5,7,1,2026-07-24T22:18:14.759489+05:30
Ajmer,Rajasthan,26.4499,74.6399,26.4,86,0.0,946.4,8.1,33.1,69,11.6,11.5,13.8,419.0,67.0,3.5,7,5,7,1,2026-07-24T22:18:14.759496+05:30
Gwalior,Madhya Pradesh,26.2183,78.1828,28.4,75,0.0,977.3,7.2,32.8,57,10.9,10.6,17.3,218.0,43.0,5.2,7,5,7,1,2026-07-24T22:18:14.759504+05:30
Indore,Madhya Pradesh,22.7196,75.8577,24.4,86,0.0,942.1,6.35,52.6,44,29.9,17.2,10.3,285.0,56.0,7.6,3,5,7,1,2026-07-24T22:18:14.759512+05:30
Bhopal,Madhya Pradesh,23.2599,77.4126,25.3,88,0.0,948.2,8.1,43.6,35,9.2,7.5,6.6,331.0,58.0,3.9,7,5,7,1,2026-07-24T22:18:14.759520+05:30
Jabalpur,Madhya Pradesh,23.1815,79.9864,26.3,86,0.0,957.0,7.75,30.6,51,12.0,10.1,8.4,180.0,50.0,4.0,7,5,7,1,2026-07-24T22:18:14.759527+05:30
Ujjain,Madhya Pradesh,23.1765,75.7885,25.1,84,0.0,947.5,4.95,58.3,39,23.6,14.3,6.9,275.0,59.0,6.1,7,5,3,1,2026-07-24T22:18:14.759536+05:30
Visakhapatnam,Andhra Pradesh,17.6868,83.2185,28.8,71,0.0,1000.2,8.6,43.2,76,25.1,19.3,18.6,285.0,56.0,31.7,7,5,4,1,2026-07-24T22:18:14.759545+05:30
Vijayawada,Andhra Pradesh,16.5062,80.648,29.9,64,0.0,1000.0,8.8,46.4,73,46.4,34.6,21.4,321.0,35.0,7.9,7,5,4,1,2026-07-24T22:18:14.759552+05:30
Guntur,Andhra Pradesh,16.3067,80.4365,30.9,56,0.0,1001.4,9.0,47.5,72,46.2,34.6,26.7,323.0,23.0,8.0,0,5,4,1,2026-07-24T22:18:14.759560+05:30
Nellore,Andhra Pradesh,14.4426,79.9865,31.4,55,0.0,1004.3,8.5,43.9,72,35.7,18.4,6.0,172.0,47.0,1.5,0,5,4,1,2026-07-24T22:18:14.759569+05:30
Kurnool,Andhra Pradesh,15.8281,78.0373,28.2,61,0.0,975.7,6.85,51.1,61,9.1,6.2,5.2,142.0,48.0,1.8,7,5,7,1,2026-07-24T22:18:14.759577+05:30
Kakinada,Andhra Pradesh,16.9891,82.2475,29.3,73,0.0,1004.5,9.0,63.0,71,27.8,18.5,8.6,280.0,64.0,5.4,7,5,4,1,2026-07-24T22:18:14.759585+05:30
Tirupati,Andhra Pradesh,13.6288,79.4192,29.1,66,0.0,990.6,8.0,33.5,71,44.4,26.1,21.4,259.0,27.0,2.7,7,5,7,1,2026-07-24T22:18:14.759593+05:30
Warangal,Telangana,17.9689,79.5941,27.9,68,0.0,975.8,8.7,51.1,67,29.9,22.0,14.7,293.0,43.0,4.7,7,5,7,1,2026-07-24T22:18:14.759600+05:30
Nizamabad,Telangana,18.6725,78.0941,27.2,67,0.0,961.5,7.45,52.9,49,17.8,11.6,8.2,187.0,39.0,3.7,7,5,7,1,2026-07-24T22:18:14.759608+05:30
Mysore,Karnataka,12.2958,76.6396,22.5,87,0.0,929.3,8.6,45.0,55,23.8,13.3,9.5,180.0,45.0,2.2,3,5,7,1,2026-07-24T22:18:14.759615+05:30
Mangalore,Karnataka,12.9141,74.856,24.4,98,0.0,1008.1,8.7,40.3,56,25.6,14.6,8.9,308.0,30.0,2.5,3,0,4,1,2026-07-24T22:18:14.759623+05:30
Hubli-Dharwad,Karnataka,15.3647,75.124,22.3,92,0.0,940.0,8.7,63.7,47,3.3,2.5,5.6,122.0,31.0,1.2,3,5,7,1,2026-07-24T22:18:14.759630+05:30
Belgaum,Karnataka,15.8497,74.4977,20.7,97,0.0,924.2,9.0,63.0,36,7.2,4.8,4.1,111.0,33.0,1.5,3,5,7,1,2026-07-24T22:18:18.092070+05:30
Coimbatore,Tamil Nadu,11.0168,76.9558,24.5,88,0.0,962.3,8.95,47.9,44,28.0,15.6,10.8,211.0,37.0,3.7,3,5,7,1,2026-07-24T22:18:18.092102+05:30
Madurai,Tamil Nadu,9.9252,78.1198,29.7,66,0.0,993.1,8.85,28.8,64,28.8,21.9,31.9,208.0,42.0,7.1,7,5,7,1,2026-07-24T22:18:18.092113+05:30
Trichy,Tamil Nadu,10.7905,78.7047,29.0,73,0.1,1000.3,8.75,44.3,50,28.2,21.9,27.5,294.0,30.0,6.2,10,5,4,1,2026-07-24T22:18:18.092122+05:30
Salem,Tamil Nadu,11.6643,78.146,28.3,69,0.0,977.8,8.35,35.3,60,30.3,22.4,28.2,308.0,41.0,10.8,7,5,7,1,2026-07-24T22:18:18.092131+05:30
Tirunelveli,Tamil Nadu,8.7139,77.7567,30.0,59,0.0,1003.1,8.75,46.1,38,10.9,7.9,6.0,142.0,47.0,2.4,4,5,4,1,2026-07-24T22:18:18.092139+05:30
Vellore,Tamil Nadu,12.9165,79.1325,27.1,83,0.0,984.0,7.4,37.8,74,44.9,29.4,26.1,430.0,33.0,5.3,7,5,7,1,2026-07-24T22:18:18.092147+05:30
Erode,Tamil Nadu,11.341,77.7172,26.7,79,0.0,989.7,8.5,41.0,52,28.3,19.0,22.0,196.0,37.0,4.4,7,5,7,1,2026-07-24T22:18:18.092154+05:30
Kochi,Kerala,9.9312,76.2673,25.6,93,0.1,1010.9,8.55,33.5,56,22.2,18.3,23.9,178.0,14.0,6.1,10,0,4,1,2026-07-24T22:18:18.092162+05:30
Thiruvananthapuram,Kerala,8.5241,76.9366,26.1,88,0.1,1009.9,8.55,41.4,51,14.6,9.8,6.9,124.0,42.0,2.2,10,0,4,1,2026-07-24T22:18:18.092170+05:30
Kozhikode,Kerala,11.2588,75.7804,25.6,93,0.0,1009.6,8.65,37.1,38,15.0,8.0,2.5,385.0,46.0,1.2,7,0,4,1,2026-07-24T22:18:18.092177+05:30
Thrissur,Kerala,10.5276,76.2144,25.7,94,0.0,1009.1,8.65,34.6,52,18.7,14.3,15.4,327.0,24.0,4.6,7,0,4,1,2026-07-24T22:18:18.092186+05:30
Kannur,Kerala,11.8745,75.3704,24.9,96,0.0,1009.2,8.7,35.3,51,19.4,11.1,14.8,363.0,22.0,2.6,3,0,4,1,2026-07-24T22:18:18.092193+05:30
Patna,Bihar,25.5941,85.1376,27.1,96,0.0,996.7,5.7,21.6,99,46.8,46.6,24.9,558.0,66.0,13.4,7,5,3,1,2026-07-24T22:18:18.092200+05:30
Gaya,Bihar,24.7914,85.0002,26.9,95,0.0,990.1,8.15,24.5,100,41.7,41.6,18.4,423.0,90.0,11.9,7,5,7,1,2026-07-24T22:18:18.092207+05:30
Muzaffarpur,Bihar,26.1209,85.3647,26.4,95,0.1,997.0,6.65,26.3,97,48.8,48.5,27.6,447.0,56.0,11.7,10,5,7,1,2026-07-24T22:18:18.092215+05:30
Bhagalpur,Bihar,25.2425,87.0117,27.0,95,0.1,997.2,6.35,25.6,83,27.2,27.1,16.4,303.0,66.0,8.8,10,5,7,1,2026-07-24T22:18:18.092222+05:30
Ranchi,Jharkhand,23.3441,85.3096,23.2,97,0.0,933.8,6.45,31.7,59,16.9,16.7,14.6,425.0,51.0,5.6,3,5,7,1,2026-07-24T22:18:18.092229+05:30
Jamshedpur,Jharkhand,22.8046,86.2029,25.6,96,0.2,986.7,7.15,32.0,70,19.2,18.5,15.2,427.0,56.0,15.6,10,5,7,1,2026-07-24T22:18:18.092236+05:30
Dhanbad,Jharkhand,23.7957,86.4304,25.4,96,0.0,975.6,6.6,29.2,92,53.9,53.1,40.8,285.0,49.0,110.5,7,5,7,1,2026-07-24T22:18:18.092243+05:30
Bokaro,Jharkhand,23.6693,86.1511,25.5,98,0.1,979.5,8.25,39.6,86,56.8,56.0,40.7,391.0,54.0,117.7,10,5,7,1,2026-07-24T22:18:18.092250+05:30
Bhubaneswar,Odisha,20.2961,85.8245,26.3,97,0.0,998.3,8.75,37.4,71,31.5,27.2,14.2,373.0,67.0,6.5,7,5,7,1,2026-07-24T22:18:18.092257+05:30
Cuttack,Odisha,20.4625,85.8828,26.6,96,0.0,1000.1,8.5,41.0,71,31.5,27.2,14.2,394.0,67.0,6.5,7,5,4,1,2026-07-24T22:18:18.092264+05:30
Rourkela,Odisha,22.2604,84.8536,26.8,86,0.0,981.0,8.15,38.5,72,33.8,32.0,16.7,1176.0,73.0,13.4,7,5,7,1,2026-07-24T22:18:18.092271+05:30
Raipur,Chhattisgarh,21.2514,81.6296,27.1,80,0.0,970.8,7.1,44.3,73,26.3,22.1,29.4,561.0,41.0,46.1,7,5,7,1,2026-07-24T22:18:18.092278+05:30
Bhilai,Chhattisgarh,21.1938,81.3509,26.8,82,0.0,971.2,7.95,49.3,69,25.8,21.0,24.3,665.0,47.0,38.4,7,5,7,1,2026-07-24T22:18:18.092284+05:30
Guwahati,Assam,26.1158,91.7086,27.1,93,0.0,998.5,8.35,19.8,52,21.2,20.9,11.9,331.0,31.0,2.2,7,5,7,1,2026-07-24T22:18:18.092291+05:30
Agartala,Tripura,23.8315,91.2868,25.9,91,0.0,1003.1,7.35,35.6,50,9.9,9.4,9.8,187.0,47.0,2.5,7,5,4,1,2026-07-24T22:18:18.092298+05:30
Shillong,Meghalaya,25.5788,91.8933,20.4,91,0.0,856.4,5.85,31.0,30,8.6,8.4,8.5,317.0,48.0,2.6,3,5,3,1,2026-07-24T22:18:18.092304+05:30
Imphal,Manipur,24.817,93.9368,22.7,96,0.1,921.5,9.05,20.2,42,19.3,18.6,24.4,492.0,24.0,3.8,6,5,7,1,2026-07-24T22:18:18.092311+05:30
Aizawl,Mizoram,23.7271,92.7176,20.1,89,0.0,890.6,8.5,34.6,23,5.8,5.0,6.7,130.0,28.0,0.7,3,5,7,1,2026-07-24T22:18:18.092318+05:30
Kohima,Nagaland,25.6701,94.1077,19.7,97,0.0,853.7,8.65,20.9,26,10.9,10.7,17.7,314.0,28.0,1.6,3,10,7,1,2026-07-24T22:18:18.092325+05:30
Gangtok,Sikkim,27.3314,88.6138,18.6,97,0.0,837.5,7.5,32.4,43,6.0,5.8,5.0,238.0,91.0,1.7,3,10,7,1,2026-07-24T22:18:18.092332+05:30
Siliguri,West Bengal,26.7271,88.3953,27.0,92,0.0,990.5,7.65,27.7,65,20.5,19.8,12.8,538.0,79.0,5.1,7,5,7,1,2026-07-24T22:18:21.434251+05:30
Durgapur,West Bengal,23.5204,87.3119,26.1,99,0.0,990.4,7.9,27.4,116,59.4,59.1,35.0,1448.0,66.0,39.1,7,5,7,1,2026-07-24T22:18:21.434283+05:30
Asansol,West Bengal,23.6739,86.9524,25.8,98,0.1,989.2,8.05,25.9,90,42.7,42.5,33.2,545.0,65.0,33.3,10,5,7,1,2026-07-24T22:18:21.434294+05:30
Pondicherry,Puducherry,11.9139,79.8145,28.8,85,0.0,1008.2,8.2,41.4,82,27.6,19.8,7.5,281.0,103.0,5.9,7,0,4,1,2026-07-24T22:18:21.434304+05:30
Port Blair,Andaman and Nicobar Islands,11.6234,92.7265,27.5,80,0.0,1007.4,8.75,44.6,42,16.9,10.0,0.3,95.0,43.0,0.4,7,5,4,1,2026-07-24T22:18:21.434313+05:30
Haridwar,Uttarakhand,29.9457,78.1642,28.0,80,0.0,969.5,6.3,39.2,79,25.9,25.9,10.9,321.0,87.0,7.3,7,5,7,1,2026-07-24T22:18:21.434322+05:30
Rishikesh,Uttarakhand,30.0869,78.2676,26.8,94,0.1,962.3,6.0,25.9,63,17.8,17.8,7.8,382.0,90.0,4.1,10,5,3,1,2026-07-24T22:18:21.434331+05:30
Nainital,Uttarakhand,29.3919,79.4542,17.2,97,0.1,803.9,7.6,45.0,59,18.1,18.1,10.6,368.0,67.0,2.8,6,10,7,1,2026-07-24T22:18:21.434339+05:30
Mussoorie,Uttarakhand,30.4599,78.0664,16.7,100,0.1,800.9,6.1,33.5,70,13.2,13.1,16.6,360.0,84.0,4.9,6,10,7,1,2026-07-24T22:18:21.434347+05:30
Dharamshala,Himachal Pradesh,32.219,76.3234,22.3,87,0.0,866.5,6.9,32.0,46,2.7,2.7,11.3,447.0,62.0,0.9,3,5,7,1,2026-07-24T22:18:21.434355+05:30
Dalhousie,Himachal Pradesh,32.5387,75.971,18.0,94,0.1,802.7,8.6,30.2,72,22.5,22.2,26.2,629.0,82.0,3.2,6,10,7,1,2026-07-24T22:18:21.434364+05:30
Patiala,Punjab,30.3398,76.3869,28.2,86,0.0,972.3,7.3,38.9,85,29.7,29.7,16.9,445.0,83.0,8.3,7,5,7,1,2026-07-24T22:18:21.434371+05:30
Bhatinda,Punjab,30.211,74.9455,28.3,86,0.0,977.0,7.95,36.0,105,36.9,36.9,20.8,471.0,72.0,5.7,7,5,7,1,2026-07-24T22:18:21.434379+05:30
Rohtak,Haryana,28.8955,76.6066,26.8,95,0.0,975.2,4.5,34.6,94,22.5,22.4,30.7,536.0,69.0,17.1,7,5,3,1,2026-07-24T22:18:21.434386+05:30
Panipat,Haryana,29.3909,76.9635,27.0,87,0.0,974.5,5.6,45.4,89,21.4,21.3,17.3,409.0,80.0,9.9,7,5,3,1,2026-07-24T22:18:21.434394+05:30
Mathura,Uttar Pradesh,27.4924,77.6737,29.6,73,0.0,980.1,6.5,33.1,77,23.1,22.2,29.1,528.0,47.0,6.2,7,5,7,1,2026-07-24T22:18:21.434401+05:30
Vrindavan,Uttar Pradesh,27.5823,77.7027,29.7,73,0.0,980.6,6.5,32.4,77,23.1,22.2,29.1,440.0,47.0,6.2,7,5,7,1,2026-07-24T22:18:21.434408+05:30
Ayodhya,Uttar Pradesh,26.7922,82.1998,27.5,96,0.0,991.6,7.1,22.7,93,40.5,40.5,17.2,457.0,74.0,8.2,7,5,7,1,2026-07-24T22:18:21.434416+05:30
Ratlam,Madhya Pradesh,23.3315,75.0367,23.8,94,0.1,948.0,4.75,54.0,34,19.4,12.2,6.2,166.0,58.0,6.7,6,5,3,1,2026-07-24T22:18:21.434423+05:30
Sagar,Madhya Pradesh,23.8388,78.7378,26.0,84,0.0,945.1,7.55,36.0,35,8.5,6.5,5.4,164.0,58.0,2.8,7,5,7,1,2026-07-24T22:18:21.434430+05:30
Satna,Madhya Pradesh,24.6005,80.8322,27.8,84,0.0,966.5,7.25,29.9,48,10.0,9.7,16.9,348.0,36.0,3.8,7,5,7,1,2026-07-24T22:18:21.434437+05:30
Akola,Maharashtra,20.7002,77.0082,26.6,85,0.0,970.7,7.55,47.5,33,13.9,9.9,10.6,272.0,48.0,4.5,7,5,7,1,2026-07-24T22:18:21.434445+05:30
Amravati,Maharashtra,20.9374,77.7796,26.0,89,0.0,963.0,7.5,51.1,34,14.6,10.2,11.8,283.0,46.0,4.8,7,5,7,1,2026-07-24T22:18:21.434453+05:30
Latur,Maharashtra,18.4088,76.5604,25.0,77,0.0,936.7,6.3,63.7,28,9.3,6.0,3.4,135.0,41.0,1.5,7,5,7,1,2026-07-24T22:18:21.434461+05:30
Nanded,Maharashtra,19.1383,77.3091,26.8,73,0.0,965.3,7.05,52.9,36,11.2,7.9,7.6,166.0,41.0,3.5,7,5,7,1,2026-07-24T22:18:21.434468+05:30
Gulbarga,Karnataka,17.3297,76.8343,26.0,70,0.0,956.7,6.7,58.3,51,10.4,6.7,5.3,131.0,41.0,2.2,7,5,7,1,2026-07-24T22:18:21.434475+05:30
Bidar,Karnataka,17.9104,77.5199,25.7,70,0.0,932.9,4.25,60.1,51,12.5,7.8,6.7,134.0,44.0,2.0,7,5,3,1,2026-07-24T22:18:21.434483+05:30
Hospet,Karnataka,15.2689,76.3909,24.3,80,0.0,955.2,8.95,59.0,51,5.5,3.8,5.2,119.0,35.0,1.7,3,5,7,1,2026-07-24T22:18:21.434490+05:30
Tirupur,Tamil Nadu,11.1085,77.3411,24.9,89,0.1,975.7,8.9,46.1,55,28.5,20.2,26.1,181.0,29.0,5.6,6,5,7,1,2026-07-24T22:18:21.434496+05:30
Alappuzha,Kerala,9.4981,76.3388,26.1,95,0.1,1010.8,8.65,31.7,55,17.2,12.3,13.1,88.0,33.0,4.1,10,0,4,1,2026-07-24T22:18:21.434503+05:30
Munnar,Kerala,10.0889,77.0595,16.7,94,0.0,857.3,9.05,36.0,32,12.7,9.1,10.7,121.0,31.0,2.3,3,10,7,0,2026-07-24T22:18:21.434511+05:30
Silchar,Assam,24.8333,92.7789,26.7,96,0.2,1002.8,8.75,20.9,55,25.3,23.6,9.0,306.0,67.0,7.1,10,5,4,1,2026-07-24T22:18:21.434518+05:30
Dibrugarh,Assam,27.4728,94.912,27.9,91,0.1,992.3,8.4,21.2,55,19.5,18.7,14.6,239.0,53.0,2.8,10,5,7,1,2026-07-24T22:18:21.434525+05:30
