city,state,latitude,longitude,temp,humidity,rain,pressure,uv_index,wind_gusts,aqi,pm10,pm2_5,no2,co,o3,so2,mosquito_risk,arthritis_risk,migraine_risk,frizz_risk,updated_at
Delhi,Delhi,28.6139,77.209,25.5,73,0.0,982.0,7.7,22.7,150,76.8,60.3,39.9,662.0,46.0,26.9,7,5,7,1,2026-06-02T03:42:11.993566+05:30
Mumbai,Maharashtra,19.076,72.8777,29.6,77,0.0,1008.1,7.7,40.3,51,30.0,12.6,6.6,171.0,44.0,5.0,7,0,4,1,2026-06-02T03:42:11.993631+05:30
Bangalore,Karnataka,12.9716,77.5946,22.9,78,0.1,911.3,7.45,29.5,66,23.1,19.8,24.7,379.0,48.0,7.7,6,5,7,1,2026-06-02T03:42:11.993649+05:30
Hyderabad,Telangana,17.385,78.4867,29.0,49,0.0,951.6,8.95,29.9,86,68.2,55.6,57.8,533.0,29.0,18.2,4,5,7,1,2026-06-02T03:42:11.993661+05:30
Chennai,Tamil Nadu,13.0827,80.2707,28.6,84,0.0,1005.6,7.2,41.0,74,19.3,15.8,16.5,285.0,48.0,16.7,7,5,4,1,2026-06-02T03:42:11.993671+05:30
Kolkata,West Bengal,22.5726,88.3639,28.1,88,0.0,1004.7,8.9,33.8,131,66.8,58.7,18.9,393.0,51.0,8.0,7,5,4,1,2026-06-02T03:42:11.993681+05:30
Pune,Maharashtra,18.5204,73.8567,24.9,86,0.0,947.8,8.3,46.1,51,17.3,9.3,9.1,146.0,40.0,9.1,3,5,7,1,2026-06-02T03:42:11.993689+05:30
Ahmedabad,Gujarat,23.0225,72.5714,26.3,92,0.0,1000.2,8.05,28.8,72,31.1,17.9,7.9,168.0,40.0,4.9,7,5,4,1,2026-06-02T03:42:11.993699+05:30
Jaipur,Rajasthan,26.9124,75.7873,25.5,80,0.0,958.0,8.2,31.0,115,125.7,45.8,14.0,259.0,45.0,6.6,7,5,7,1,2026-06-02T03:42:11.993714+05:30
Lucknow,Uttar Pradesh,26.8467,80.9462,25.0,74,0.0,992.7,8.25,50.4,98,62.4,49.0,39.6,558.0,31.0,12.6,7,5,7,1,2026-06-02T03:42:11.993724+05:30
Kanpur,Uttar Pradesh,26.4499,80.3319,27.7,66,0.0,990.4,8.25,49.0,98,58.2,42.6,32.4,383.0,35.0,8.5,7,5,7,1,2026-06-02T03:42:11.993732+05:30
Chandigarh,Chandigarh,30.7333,76.7794,23.8,78,0.0,968.4,7.85,23.4,87,55.9,46.2,46.6,1124.0,14.0,6.1,3,5,7,1,2026-06-02T03:42:11.993740+05:30
Srinagar,Jammu and Kashmir,34.0837,74.7973,13.9,86,0.0,839.9,9.0,26.6,114,47.0,39.0,22.3,387.0,15.0,0.1,3,10,7,0,2026-06-02T03:42:11.993749+05:30
Jammu,Jammu and Kashmir,32.7266,74.857,26.1,55,0.0,972.3,8.3,27.4,134,83.6,62.2,37.2,395.0,15.0,3.1,4,5,7,1,2026-06-02T03:42:11.993757+05:30
Amritsar,Punjab,31.634,74.8723,26.3,56,0.0,980.1,8.45,22.7,113,64.0,46.2,17.1,720.0,61.0,5.3,4,5,7,1,2026-06-02T03:42:11.993765+05:30
Ludhiana,Punjab,30.901,75.8573,26.2,56,0.0,978.3,8.05,22.3,140,317.6,82.2,16.3,497.0,70.0,10.9,4,5,7,1,2026-06-02T03:42:11.993773+05:30
Jalandhar,Punjab,31.326,75.5762,26.2,56,0.0,979.4,8.25,27.0,130,123.9,77.1,55.7,472.0,12.0,10.2,4,5,7,1,2026-06-02T03:42:11.993781+05:30
Dehradun,Uttarakhand,30.6284,78.0322,15.0,84,0.0,829.6,8.1,31.0,34,14.1,10.2,24.1,236.0,16.0,0.1,3,10,7,0,2026-06-02T03:42:11.993789+05:30
Shimla,Himachal Pradesh,31.1048,77.1734,11.2,78,0.0,782.4,8.35,29.9,54,27.3,23.1,21.1,352.0,37.0,1.0,3,5,7,0,2026-06-02T03:42:11.993799+05:30
Manali,Himachal Pradesh,32.2396,77.1887,11.9,68,0.0,817.3,9.1,34.9,33,4.4,2.7,15.4,223.0,84.0,0.0,3,5,7,0,2026-06-02T03:42:11.993806+05:30
Gurgaon,Haryana,28.4595,77.0266,25.9,68,0.0,980.2,7.85,26.6,241,147.1,63.1,36.5,916.0,42.0,21.4,7,5,7,1,2026-06-02T03:42:11.993817+05:30
Noida,Uttar Pradesh,28.5355,77.391,25.3,72,0.0,983.6,7.2,23.0,241,147.1,63.1,36.5,607.0,42.0,21.4,7,5,7,1,2026-06-02T03:42:11.993825+05:30
Ghaziabad,Uttar Pradesh,28.6692,77.4538,25.0,74,0.0,981.9,7.2,24.5,116,69.4,59.3,31.4,603.0,48.0,13.8,7,5,7,1,2026-06-02T03:42:11.993832+05:30
Faridabad,Haryana,28.4089,77.3178,25.4,72,0.0,982.8,7.25,23.0,241,147.1,63.1,36.5,723.0,42.0,21.4,7,5,7,1,2026-06-02T03:42:11.993840+05:30
Meerut,Uttar Pradesh,28.9845,77.7064,24.4,81,0.0,981.0,7.15,26.6,116,69.4,59.3,31.4,506.0,48.0,13.8,3,5,7,1,2026-06-02T03:42:11.993848+05:30
Agra,Uttar Pradesh,27.1767,78.0081,24.5,88,0.0,986.4,7.7,26.6,137,109.0,44.9,19.6,620.0,52.0,8.0,3,5,7,1,2026-06-02T03:42:11.993855+05:30
Varanasi,Uttar Pradesh,25.3176,82.9739,28.0,72,0.0,996.4,8.35,23.4,147,79.4,72.2,41.3,1379.0,43.0,17.2,7,5,7,1,2026-06-02T03:42:11.993865+05:30
Prayagraj,Uttar Pradesh,25.4358,81.8463,28.0,66,0.0,994.8,8.65,23.8,133,85.9,78.9,49.6,614.0,33.0,14.2,7,5,7,1,2026-06-02T03:42:11.993874+05:30
Gorakhpur,Uttar Pradesh,26.7606,83.3732,26.6,72,0.0,996.1,8.6,23.4,153,88.7,75.4,53.4,520.0,16.0,10.4,7,5,7,1,2026-06-02T03:42:11.993883+05:30
Bareilly,Uttar Pradesh,28.367,79.4304,25.0,79,0.0,985.9,8.0,19.8,106,54.0,45.2,35.5,492.0,42.0,4.6,7,5,7,1,2026-06-02T03:42:11.993890+05:30
Aligarh,Uttar Pradesh,27.8974,78.088,25.5,80,0.1,984.6,7.55,23.8,114,88.0,55.2,32.0,498.0,32.0,8.3,10,5,7,1,2026-06-02T03:42:11.993897+05:30
Moradabad,Uttar Pradesh,28.8386,78.7733,24.6,83,0.0,983.0,7.85,25.2,142,102.0,88.2,58.1,513.0,14.0,12.7,3,5,7,1,2026-06-02T03:42:11.993904+05:30
Saharanpur,Uttar Pradesh,29.9637,77.546,24.5,71,0.0,975.4,7.55,21.6,132,103.6,84.8,70.6,658.0,8.0,15.6,3,5,7,1,2026-06-02T03:42:11.993911+05:30
Jhansi,Uttar Pradesh,25.4484,78.5685,28.2,58,0.0,976.6,8.45,22.0,93,37.8,29.6,8.4,158.0,73.0,5.0,4,5,7,1,2026-06-02T03:42:15.229634+05:30
Surat,Gujarat,21.1702,72.8311,25.2,99,0.7,1005.3,7.6,43.6,70,25.9,15.4,17.5,281.0,31.0,29.6,10,5,4,1,2026-06-02T03:42:15.229671+05:30
Vadodara,Gujarat,22.3072,73.1812,26.3,90,0.0,1002.6,8.0,41.8,69,20.9,13.6,13.2,123.0,32.0,15.5,7,5,4,1,2026-06-02T03:42:15.229681+05:30
Rajkot,Gujarat,22.3039,70.8022,28.7,74,0.0,992.0,7.5,44.3,59,31.1,15.9,4.1,106.0,42.0,4.4,7,5,7,1,2026-06-02T03:42:15.229690+05:30
Thane,Maharashtra,19.2183,72.9781,29.0,81,0.0,1007.6,7.7,35.6,51,30.0,12.6,6.6,157.0,44.0,5.0,7,5,4,1,2026-06-02T03:42:15.229698+05:30
Nagpur,Maharashtra,21.1458,79.0882,30.2,48,0.0,971.3,8.85,36.0,79,33.1,19.8,13.0,238.0,60.0,9.1,0,5,7,1,2026-06-02T03:42:15.229706+05:30
Nashik,Maharashtra,19.9975,73.7898,24.8,87,0.0,945.8,8.0,40.7,47,22.1,10.4,6.0,120.0,40.0,3.9,3,5,7,1,2026-06-02T03:42:15.229714+05:30
Aurangabad,Maharashtra,19.8762,75.3433,25.9,70,0.0,943.7,8.95,44.3,55,16.9,10.8,7.8,170.0,43.0,5.8,7,5,7,1,2026-06-02T03:42:15.229721+05:30
Solapur,Maharashtra,17.6599,75.9064,28.8,66,0.0,956.5,8.9,43.2,59,25.5,17.9,10.7,164.0,70.0,5.8,7,5,7,1,2026-06-02T03:42:15.229729+05:30
Kolhapur,Maharashtra,16.705,74.2433,24.4,89,0.0,947.5,8.75,49.3,43,12.2,8.5,9.8,149.0,33.0,3.3,3,5,7,1,2026-06-02T03:42:15.229737+05:30
Goa,Goa,15.2993,74.124,26.4,95,0.0,997.4,6.5,28.8,51,22.9,18.9,12.3,434.0,36.0,3.3,7,5,7,1,2026-06-02T03:42:15.229744+05:30
Jodhpur,Rajasthan,26.2389,73.0243,28.6,63,0.0,980.9,8.4,41.4,97,69.6,35.0,19.0,222.0,20.0,4.4,7,5,7,1,2026-06-02T03:42:15.229752+05:30
Udaipur,Rajasthan,24.5854,73.7125,24.5,76,0.0,944.6,8.8,37.8,68,45.8,22.2,6.5,186.0,56.0,5.7,3,5,7,1,2026-06-02T03:42:15.229760+05:30
Kota,Rajasthan,25.2138,75.8648,26.0,81,0.0,977.3,8.35,54.4,87,71.9,34.7,9.0,189.0,53.0,4.2,7,5,7,1,2026-06-02T03:42:15.229767+05:30
Bikaner,Rajasthan,28.0229,73.3119,27.5,71,0.0,979.9,8.45,32.8,125,129.5,47.6,5.8,143.0,41.0,3.4,7,5,7,1,2026-06-02T03:42:15.229775+05:30
Ajmer,Rajasthan,26.4499,74.6399,25.6,73,0.0,952.7,8.35,52.9,85,114.3,36.9,9.3,193.0,39.0,2.5,7,5,7,1,2026-06-02T03:42:15.229782+05:30
Gwalior,Madhya Pradesh,26.2183,78.1828,26.5,75,0.0,982.0,7.7,21.2,103,47.0,31.1,11.5,283.0,53.0,4.3,7,5,7,1,2026-06-02T03:42:15.229789+05:30
Indore,Madhya Pradesh,22.7196,75.8577,24.8,77,0.0,946.7,8.6,37.8,84,57.4,41.7,20.3,388.0,38.0,9.8,3,5,7,1,2026-06-02T03:42:15.229796+05:30
Bhopal,Madhya Pradesh,23.2599,77.4126,27.1,57,0.0,952.2,8.65,28.4,69,42.5,24.7,7.1,236.0,65.0,3.9,4,5,7,1,2026-06-02T03:42:15.229804+05:30
Jabalpur,Madhya Pradesh,23.1815,79.9864,29.0,50,0.0,960.3,8.85,26.3,85,46.0,32.2,18.4,237.0,58.0,6.4,4,5,7,1,2026-06-02T03:42:15.229811+05:30
Ujjain,Madhya Pradesh,23.1765,75.7885,24.8,77,0.0,952.5,8.6,46.8,78,47.3,33.5,9.7,412.0,51.0,8.0,3,5,7,1,2026-06-02T03:42:15.229819+05:30
Visakhapatnam,Andhra Pradesh,17.6868,83.2185,28.3,91,0.0,1001.5,8.5,38.5,96,43.1,34.5,31.3,391.0,80.0,41.8,7,5,4,1,2026-06-02T03:42:15.229827+05:30
Vijayawada,Andhra Pradesh,16.5062,80.648,29.6,78,0.0,1000.4,9.0,28.8,94,32.4,27.3,7.9,215.0,104.0,6.0,7,5,4,1,2026-06-02T03:42:15.229834+05:30
Guntur,Andhra Pradesh,16.3067,80.4365,29.3,82,0.0,1001.5,9.05,31.0,99,32.5,27.9,8.8,176.0,101.0,6.6,7,5,4,1,2026-06-02T03:42:15.229841+05:30
Nellore,Andhra Pradesh,14.4426,79.9865,29.1,67,0.0,1003.7,9.0,32.0,82,26.8,23.1,8.8,307.0,86.0,7.7,7,5,4,1,2026-06-02T03:42:15.229848+05:30
Kurnool,Andhra Pradesh,15.8281,78.0373,29.4,50,0.0,975.5,8.9,43.6,78,26.7,18.9,11.2,181.0,66.0,6.7,4,5,7,1,2026-06-02T03:42:15.229856+05:30
Kakinada,Andhra Pradesh,16.9891,82.2475,27.6,91,0.0,1005.3,9.05,32.4,78,39.6,27.6,4.2,436.0,119.0,4.0,7,5,4,1,2026-06-02T03:42:15.229863+05:30
Tirupati,Andhra Pradesh,13.6288,79.4192,28.0,69,0.0,990.1,9.0,26.6,70,28.6,25.1,16.0,184.0,56.0,5.6,7,5,7,1,2026-06-02T03:42:15.229870+05:30
Warangal,Telangana,17.9689,79.5941,29.2,57,0.0,976.5,8.7,33.1,128,81.3,59.4,34.7,488.0,54.0,11.4,4,5,7,1,2026-06-02T03:42:15.229877+05:30
Nizamabad,Telangana,18.6725,78.0941,27.8,60,0.0,962.9,8.9,50.0,74,36.1,22.6,8.0,162.0,79.0,4.5,4,5,7,1,2026-06-02T03:42:15.229883+05:30
Mysore,Karnataka,12.2958,76.6396,22.3,96,0.0,927.8,9.1,40.7,47,14.8,14.5,16.2,260.0,40.0,2.8,3,5,7,1,2026-06-02T03:42:15.229890+05:30
Mangalore,Karnataka,12.9141,74.856,24.8,98,0.2,1007.4,3.4,28.4,52,27.1,24.9,21.5,404.0,24.0,5.5,6,5,0,1,2026-06-02T03:42:15.229896+05:30
Hubli-Dharwad,Karnataka,15.3647,75.124,24.2,92,0.0,940.6,8.8,35.3,39,8.3,5.7,5.7,156.0,39.0,1.7,3,5,7,1,2026-06-02T03:42:15.229903+05:30
Belgaum,Karnataka,15.8497,74.4977,22.2,97,0.0,925.0,7.45,46.4,45,15.1,11.7,10.0,154.0,31.0,0.6,3,5,7,1,2026-06-02T03:42:18.461697+05:30
Coimbatore,Tamil Nadu,11.0168,76.9558,25.6,82,0.0,961.0,9.0,48.2,33,9.4,8.6,8.7,176.0,51.0,3.4,7,5,7,1,2026-06-02T03:42:18.461734+05:30
Madurai,Tamil Nadu,9.9252,78.1198,28.2,81,0.0,992.1,8.85,56.5,78,57.2,46.4,50.6,301.0,0.0,11.2,7,5,7,1,2026-06-02T03:42:18.461746+05:30
Trichy,Tamil Nadu,10.7905,78.7047,27.7,81,0.0,999.1,8.9,40.3,56,20.5,17.7,20.3,195.0,38.0,5.2,7,5,7,1,2026-06-02T03:42:18.461754+05:30
Salem,Tamil Nadu,11.6643,78.146,27.6,72,0.0,976.8,8.95,36.0,65,23.2,20.8,21.3,212.0,47.0,8.4,7,5,7,1,2026-06-02T03:42:18.461763+05:30
Tirunelveli,Tamil Nadu,8.7139,77.7567,28.8,70,0.0,1002.7,8.65,31.3,33,13.6,11.5,11.0,149.0,32.0,2.5,7,5,4,1,2026-06-02T03:42:18.461771+05:30
Vellore,Tamil Nadu,12.9165,79.1325,26.1,84,0.0,983.5,9.0,27.0,73,32.8,28.9,20.8,230.0,34.0,5.1,7,5,7,1,2026-06-02T03:42:18.461779+05:30
Erode,Tamil Nadu,11.341,77.7172,27.0,77,0.0,988.4,8.95,46.1,47,13.6,12.8,20.1,299.0,35.0,5.1,7,5,7,1,2026-06-02T03:42:18.461787+05:30
Kochi,Kerala,9.9312,76.2673,26.0,96,0.0,1008.4,8.2,27.7,51,16.2,15.1,15.9,281.0,16.0,4.3,7,0,4,1,2026-06-02T03:42:18.461794+05:30
Thiruvananthapuram,Kerala,8.5241,76.9366,25.5,96,0.1,1008.4,8.35,37.8,29,7.4,4.1,1.2,302.0,40.0,0.4,10,0,4,1,2026-06-02T03:42:18.461801+05:30
Kozhikode,Kerala,11.2588,75.7804,25.6,97,0.1,1007.9,6.6,27.7,33,10.2,7.6,4.2,422.0,68.0,2.9,10,5,4,1,2026-06-02T03:42:18.461808+05:30
Thrissur,Kerala,10.5276,76.2144,25.0,96,0.0,1006.9,8.35,28.1,46,15.9,15.1,16.7,274.0,12.0,4.0,7,5,4,1,2026-06-02T03:42:18.461817+05:30
Kannur,Kerala,11.8745,75.3704,25.1,99,0.1,1007.5,6.15,28.1,42,22.9,21.4,22.4,309.0,21.0,3.6,10,5,4,1,2026-06-02T03:42:18.461824+05:30
Patna,Bihar,25.5941,85.1376,28.9,70,0.0,999.3,8.85,19.1,158,93.8,86.6,44.2,693.0,25.0,16.5,7,5,7,1,2026-06-02T03:42:18.461831+05:30
Gaya,Bihar,24.7914,85.0002,26.5,78,0.0,992.7,8.9,20.9,152,75.7,68.5,31.1,437.0,51.0,9.7,7,5,7,1,2026-06-02T03:42:18.461838+05:30
Muzaffarpur,Bihar,26.1209,85.3647,27.0,78,0.0,999.3,8.85,20.9,160,93.1,84.8,42.0,960.0,28.0,14.4,7,5,7,1,2026-06-02T03:42:18.461844+05:30
Bhagalpur,Bihar,25.2425,87.0117,27.7,85,0.0,999.9,8.85,17.6,157,112.5,103.6,40.2,595.0,30.0,18.7,7,5,7,1,2026-06-02T03:42:18.461851+05:30
Ranchi,Jharkhand,23.3441,85.3096,23.5,76,0.0,936.8,9.25,24.1,132,94.3,77.3,38.4,643.0,45.0,9.7,3,5,7,1,2026-06-02T03:42:18.461858+05:30
Jamshedpur,Jharkhand,22.8046,86.2029,26.4,89,0.0,990.0,9.05,34.6,154,90.1,82.0,42.7,733.0,29.0,18.3,7,5,7,1,2026-06-02T03:42:18.461865+05:30
Dhanbad,Jharkhand,23.7957,86.4304,26.2,85,0.0,978.9,9.05,23.0,173,152.3,145.3,67.5,519.0,12.0,270.8,7,5,7,1,2026-06-02T03:42:18.461872+05:30
Bokaro,Jharkhand,23.6693,86.1511,26.0,86,0.0,982.9,9.05,22.3,176,178.8,165.8,72.1,764.0,6.0,227.2,7,5,7,1,2026-06-02T03:42:18.461878+05:30
Bhubaneswar,Odisha,20.2961,85.8245,27.9,99,0.0,1001.0,9.05,23.8,112,43.8,40.9,9.7,273.0,105.0,7.9,7,5,4,1,2026-06-02T03:42:18.461885+05:30
Cuttack,Odisha,20.4625,85.8828,28.4,97,0.0,1002.8,9.1,34.6,112,43.8,40.9,9.7,293.0,105.0,7.9,7,5,4,1,2026-06-02T03:42:18.461892+05:30
Rourkela,Odisha,22.2604,84.8536,27.2,78,0.0,983.9,9.0,28.4,155,119.2,105.2,57.1,424.0,10.0,21.2,7,5,7,1,2026-06-02T03:42:18.461899+05:30
Raipur,Chhattisgarh,21.2514,81.6296,29.8,54,0.0,973.0,8.95,30.2,142,65.0,51.7,34.0,525.0,50.0,29.7,4,5,7,1,2026-06-02T03:42:18.461906+05:30
Bhilai,Chhattisgarh,21.1938,81.3509,28.1,68,0.0,973.2,8.95,27.0,151,79.2,61.0,51.3,513.0,32.0,54.0,7,5,7,1,2026-06-02T03:42:18.461913+05:30
Guwahati,Assam,26.1158,91.7086,27.0,76,0.0,1000.1,8.8,30.6,96,53.6,48.7,18.5,370.0,22.0,2.8,7,5,4,1,2026-06-02T03:42:18.461918+05:30
Agartala,Tripura,23.8315,91.2868,26.4,91,0.0,1005.6,8.85,19.8,120,43.8,39.3,18.6,262.0,40.0,3.2,7,5,4,1,2026-06-02T03:42:18.461925+05:30
Shillong,Meghalaya,25.5788,91.8933,17.4,97,0.0,856.4,7.15,22.7,57,21.4,17.4,6.8,307.0,59.0,2.3,3,10,7,1,2026-06-02T03:42:18.461932+05:30
Imphal,Manipur,24.817,93.9368,21.9,100,0.0,922.7,9.25,29.5,51,8.8,8.6,8.9,524.0,47.0,1.8,3,5,7,1,2026-06-02T03:42:18.461938+05:30
Aizawl,Mizoram,23.7271,92.7176,19.1,96,0.1,892.1,8.45,20.5,50,10.6,7.9,4.7,223.0,50.0,1.8,6,10,7,1,2026-06-02T03:42:18.461945+05:30
Kohima,Nagaland,25.6701,94.1077,19.4,94,0.0,855.4,8.25,31.7,27,4.8,4.1,3.0,198.0,74.0,1.1,3,10,7,1,2026-06-02T03:42:18.461952+05:30
Gangtok,Sikkim,27.3314,88.6138,14.3,82,0.0,836.4,8.9,39.6,61,21.7,18.2,14.5,304.0,23.0,0.6,3,10,7,0,2026-06-02T03:42:18.461958+05:30
Siliguri,West Bengal,26.7271,88.3953,26.0,80,0.0,991.7,8.6,29.2,114,52.5,50.2,34.1,888.0,10.0,1.9,7,5,7,1,2026-06-02T03:42:21.726141+05:30
Durgapur,West Bengal,23.5204,87.3119,27.0,90,0.0,994.0,8.95,23.4,159,81.5,76.8,44.7,1015.0,28.0,52.0,7,5,7,1,2026-06-02T03:42:21.726179+05:30
Asansol,West Bengal,23.6739,86.9524,26.9,84,0.0,992.7,9.0,27.0,157,77.1,71.9,43.7,1685.0,28.0,51.9,7,5,7,1,2026-06-02T03:42:21.726191+05:30
Pondicherry,Puducherry,11.9139,79.8145,28.2,82,0.0,1007.3,8.85,42.1,67,13.4,10.2,12.9,206.0,40.0,10.4,7,5,4,1,2026-06-02T03:42:21.726200+05:30
Port Blair,Andaman and Nicobar Islands,11.6234,92.7265,24.9,98,0.1,1006.4,8.45,34.6,30,11.9,6.3,0.2,108.0,65.0,0.4,6,5,4,1,2026-06-02T03:42:21.726208+05:30
Haridwar,Uttarakhand,29.9457,78.1642,22.9,77,0.0,973.6,7.45,24.8,93,58.1,45.5,33.8,314.0,56.0,8.0,3,5,7,1,2026-06-02T03:42:21.726217+05:30
Rishikesh,Uttarakhand,30.0869,78.2676,21.1,80,0.0,966.3,7.55,28.1,63,38.2,27.6,25.9,408.0,58.0,3.4,3,5,7,1,2026-06-02T03:42:21.726225+05:30
Nainital,Uttarakhand,29.3919,79.4542,11.5,86,0.0,803.6,6.55,30.2,63,28.2,22.9,20.4,267.0,49.0,1.5,3,10,7,0,2026-06-02T03:42:21.726233+05:30
Mussoorie,Uttarakhand,30.4599,78.0664,14.5,77,0.0,802.4,8.05,33.1,59,28.5,26.0,46.1,254.0,15.0,4.9,3,5,7,0,2026-06-02T03:42:21.726241+05:30
Dharamshala,Himachal Pradesh,32.219,76.3234,19.9,60,0.0,869.5,8.55,37.4,38,9.8,7.1,9.9,211.0,47.0,0.0,0,5,7,0,2026-06-02T03:42:21.726249+05:30
Dalhousie,Himachal Pradesh,32.5387,75.971,10.6,92,0.0,802.2,8.75,31.3,65,30.9,23.9,24.1,285.0,47.0,1.2,3,10,7,0,2026-06-02T03:42:21.726257+05:30
Patiala,Punjab,30.3398,76.3869,24.9,69,0.0,977.7,7.7,19.8,171,222.1,68.0,12.1,601.0,73.0,9.1,3,5,7,1,2026-06-02T03:42:21.726264+05:30
Bhatinda,Punjab,30.211,74.9455,27.2,48,0.0,982.9,8.3,26.3,192,432.1,101.7,18.2,328.0,63.0,7.0,4,5,7,0,2026-06-02T03:42:21.726271+05:30
Rohtak,Haryana,28.8955,76.6066,25.9,67,0.0,980.7,7.8,25.2,186,114.1,64.0,35.9,508.0,46.0,27.0,7,5,7,1,2026-06-02T03:42:21.726278+05:30
Panipat,Haryana,29.3909,76.9635,25.0,76,0.0,979.9,7.65,26.6,492,124.8,62.4,26.4,535.0,52.0,11.1,7,5,7,1,2026-06-02T03:42:21.726285+05:30
Mathura,Uttar Pradesh,27.4924,77.6737,26.0,79,0.0,985.3,8.0,27.0,141,107.6,50.2,25.8,437.0,43.0,7.6,7,5,7,1,2026-06-02T03:42:21.726292+05:30
Vrindavan,Uttar Pradesh,27.5823,77.7027,25.7,81,0.0,985.9,8.0,26.3,141,107.6,50.2,25.8,414.0,43.0,7.6,7,5,7,1,2026-06-02T03:42:21.726299+05:30
Ayodhya,Uttar Pradesh,26.7922,82.1998,25.8,75,0.0,994.5,8.4,43.2,126,102.9,81.5,80.3,547.0,0.0,14.7,7,5,7,1,2026-06-02T03:42:21.726306+05:30
Ratlam,Madhya Pradesh,23.3315,75.0367,24.1,80,0.0,953.7,8.15,33.1,74,38.8,24.1,6.7,175.0,57.0,10.3,3,5,7,1,2026-06-02T03:42:21.726314+05:30
Sagar,Madhya Pradesh,23.8388,78.7378,26.1,57,0.0,948.8,8.75,26.6,75,52.9,28.9,24.1,184.0,31.0,3.2,4,5,7,1,2026-06-02T03:42:21.726321+05:30
Satna,Madhya Pradesh,24.6005,80.8322,26.6,71,0.0,970.1,8.8,49.3,92,35.7,30.9,19.0,340.0,58.0,6.3,7,5,7,1,2026-06-02T03:42:21.726327+05:30
Akola,Maharashtra,20.7002,77.0082,27.4,69,0.0,973.8,8.8,40.0,69,39.0,22.2,14.8,177.0,48.0,4.3,7,5,7,1,2026-06-02T03:42:21.726336+05:30
Amravati,Maharashtra,20.9374,77.7796,27.8,55,0.0,966.0,8.75,30.6,70,37.3,21.9,13.6,228.0,54.0,3.9,4,5,7,1,2026-06-02T03:42:21.726344+05:30
Latur,Maharashtra,18.4088,76.5604,27.0,63,0.0,938.7,8.95,72.0,63,36.3,19.7,10.2,171.0,71.0,2.8,7,5,7,1,2026-06-02T03:42:21.726351+05:30
Nanded,Maharashtra,19.1383,77.3091,29.0,60,0.0,967.1,8.9,49.3,68,30.4,18.8,11.3,175.0,67.0,3.6,4,5,7,1,2026-06-02T03:42:21.726359+05:30
Gulbarga,Karnataka,17.3297,76.8343,28.5,61,0.0,957.7,8.9,42.1,62,28.1,16.5,6.3,186.0,82.0,4.4,7,5,7,1,2026-06-02T03:42:21.726365+05:30
Bidar,Karnataka,17.9104,77.5199,28.3,53,0.0,934.5,8.65,38.9,74,34.7,21.6,12.2,119.0,73.0,3.9,4,5,7,1,2026-06-02T03:42:21.726373+05:30
Hospet,Karnataka,15.2689,76.3909,25.5,85,0.0,955.4,8.7,43.6,53,8.1,5.9,5.8,180.0,46.0,1.6,7,5,7,1,2026-06-02T03:42:21.726380+05:30
Tirupur,Tamil Nadu,11.1085,77.3411,26.1,82,0.0,974.3,9.05,53.3,48,17.5,16.4,23.0,151.0,38.0,6.0,7,5,7,1,2026-06-02T03:42:21.726387+05:30
Alappuzha,Kerala,9.4981,76.3388,26.0,98,0.0,1008.7,8.55,33.8,40,13.1,11.2,10.6,275.0,37.0,3.7,7,0,4,1,2026-06-02T03:42:21.726394+05:30
Munnar,Kerala,10.0889,77.0595,18.0,100,0.0,856.3,9.1,27.4,43,8.2,8.0,8.8,214.0,24.0,1.0,3,10,7,1,2026-06-02T03:42:21.726401+05:30
Silchar,Assam,24.8333,92.7789,25.1,100,0.0,1005.0,8.75,20.2,77,24.4,20.7,7.1,334.0,96.0,4.1,7,5,4,1,2026-06-02T03:42:21.726408+05:30
Dibrugarh,Assam,27.4728,94.912,24.5,98,0.1,995.1,8.7,23.0,67,16.7,16.1,13.7,229.0,37.0,1.2,6,5,7,1,2026-06-02T03:42:21.726414+05:30
