city,state,latitude,longitude,temp,humidity,rain,pressure,uv_index,wind_gusts,aqi,pm10,pm2_5,no2,co,o3,so2,mosquito_risk,arthritis_risk,migraine_risk,frizz_risk,updated_at
Delhi,Delhi,28.6139,77.209,28.3,50,0.0,984.4,7.55,38.2,262,271.9,60.5,24.8,518.0,120.0,20.7,4,5,7,1,2026-05-08T20:57:18.878265+05:30
Mumbai,Maharashtra,19.076,72.8777,29.5,85,0.0,1006.6,7.85,48.2,92,46.1,20.8,12.2,298.0,81.0,9.7,7,5,4,1,2026-05-08T20:57:18.878315+05:30
Bangalore,Karnataka,12.9716,77.5946,25.0,69,0.0,911.7,9.45,45.4,49,14.2,13.6,21.9,374.0,62.0,8.7,7,5,7,1,2026-05-08T20:57:18.878330+05:30
Hyderabad,Telangana,17.385,78.4867,28.8,55,0.0,954.4,9.25,39.2,81,19.6,17.1,11.0,399.0,97.0,6.6,4,5,7,1,2026-05-08T20:57:18.878340+05:30
Chennai,Tamil Nadu,13.0827,80.2707,28.5,76,0.0,1007.6,8.05,44.3,21,5.2,3.9,7.3,138.0,36.0,3.3,7,5,4,1,2026-05-08T20:57:18.878352+05:30
Kolkata,West Bengal,22.5726,88.3639,24.6,90,0.0,1009.0,8.9,29.2,141,85.4,82.4,30.9,590.0,115.0,21.3,3,0,4,1,2026-05-08T20:57:18.878361+05:30
Pune,Maharashtra,18.5204,73.8567,29.9,49,0.0,947.5,8.45,40.7,126,61.2,36.3,16.3,421.0,111.0,10.2,4,5,7,1,2026-05-08T20:57:18.878369+05:30
Ahmedabad,Gujarat,23.0225,72.5714,38.8,14,0.0,1000.0,8.1,27.7,94,63.6,38.9,42.5,471.0,73.0,14.6,0,5,7,0,2026-05-08T20:57:18.878379+05:30
Jaipur,Rajasthan,26.9124,75.7873,30.9,32,0.0,959.3,8.1,36.4,163,312.0,55.2,11.4,308.0,111.0,5.7,0,5,7,0,2026-05-08T20:57:18.878386+05:30
Lucknow,Uttar Pradesh,26.8467,80.9462,26.8,58,0.0,995.5,8.05,27.0,154,56.2,33.8,12.8,451.0,114.0,10.9,4,5,7,1,2026-05-08T20:57:18.878393+05:30
Kanpur,Uttar Pradesh,26.4499,80.3319,28.5,50,0.0,992.8,8.05,27.7,165,421.9,62.6,9.1,354.0,127.0,8.9,4,5,7,1,2026-05-08T20:57:18.878399+05:30
Chandigarh,Chandigarh,30.7333,76.7794,25.3,54,0.0,970.5,7.55,37.8,151,75.4,39.8,32.5,1269.0,82.0,7.5,4,5,7,0,2026-05-08T20:57:18.878405+05:30
Srinagar,Jammu and Kashmir,34.0837,74.7973,17.4,65,0.0,840.3,8.8,28.1,89,65.7,32.0,33.7,1289.0,65.0,6.5,3,5,7,0,2026-05-08T20:57:18.878412+05:30
Jammu,Jammu and Kashmir,32.7266,74.857,26.8,55,0.0,973.9,8.35,34.9,158,107.3,47.3,27.2,639.0,113.0,8.7,4,5,7,1,2026-05-08T20:57:18.878419+05:30
Amritsar,Punjab,31.634,74.8723,28.1,50,0.0,981.8,8.2,31.3,156,169.5,50.8,4.0,564.0,153.0,10.3,4,5,7,1,2026-05-08T20:57:18.878425+05:30
Ludhiana,Punjab,30.901,75.8573,27.4,53,0.0,979.7,7.8,30.6,172,86.1,45.2,12.9,510.0,125.0,19.7,4,5,7,1,2026-05-08T20:57:18.878431+05:30
Jalandhar,Punjab,31.326,75.5762,26.2,53,0.0,980.8,8.0,31.7,163,152.7,53.7,10.1,477.0,144.0,22.4,4,5,7,0,2026-05-08T20:57:18.878437+05:30
Dehradun,Uttarakhand,30.6284,78.0322,12.5,88,0.0,829.8,5.65,22.7,106,30.0,14.1,25.4,242.0,100.0,1.1,3,10,3,0,2026-05-08T20:57:18.878445+05:30
Shimla,Himachal Pradesh,31.1048,77.1734,11.3,79,0.0,784.2,7.3,24.5,115,28.2,14.9,16.6,376.0,94.0,0.7,3,5,7,0,2026-05-08T20:57:18.878452+05:30
Manali,Himachal Pradesh,32.2396,77.1887,11.0,87,0.0,817.2,9.9,33.1,138,32.2,10.1,27.1,369.0,127.0,0.9,3,10,7,0,2026-05-08T20:57:18.878458+05:30
Gurgaon,Haryana,28.4595,77.0266,27.5,51,0.0,982.5,7.65,40.3,1781,1639.1,193.2,24.8,608.0,126.0,21.9,4,5,7,1,2026-05-08T20:57:18.878464+05:30
Noida,Uttar Pradesh,28.5355,77.391,26.2,58,0.0,985.6,7.6,36.7,1781,1639.1,193.2,24.8,611.0,126.0,21.9,4,5,7,1,2026-05-08T20:57:18.878470+05:30
Ghaziabad,Uttar Pradesh,28.6692,77.4538,26.1,60,0.0,983.9,7.55,40.0,162,198.4,51.1,10.1,445.0,132.0,12.5,4,5,7,1,2026-05-08T20:57:18.878476+05:30
Faridabad,Haryana,28.4089,77.3178,27.1,55,0.0,984.9,7.6,38.9,1781,1639.1,193.2,24.8,613.0,126.0,21.9,4,5,7,1,2026-05-08T20:57:18.878482+05:30
Meerut,Uttar Pradesh,28.9845,77.7064,25.2,63,0.0,983.0,7.5,40.7,162,198.4,51.1,10.1,668.0,132.0,12.5,7,5,7,1,2026-05-08T20:57:18.878488+05:30
Agra,Uttar Pradesh,27.1767,78.0081,27.7,50,0.0,987.8,7.9,33.5,1115,1929.7,208.2,7.5,402.0,138.0,11.8,4,5,7,1,2026-05-08T20:57:18.878493+05:30
Varanasi,Uttar Pradesh,25.3176,82.9739,27.6,56,0.0,999.7,8.55,32.8,182,63.3,45.8,19.6,525.0,122.0,18.2,4,5,7,1,2026-05-08T20:57:18.878499+05:30
Prayagraj,Uttar Pradesh,25.4358,81.8463,29.1,47,0.0,997.4,8.45,33.5,178,64.3,44.5,20.8,768.0,110.0,14.1,4,5,7,1,2026-05-08T20:57:18.878507+05:30
Gorakhpur,Uttar Pradesh,26.7606,83.3732,25.7,62,0.0,1000.1,8.4,29.5,164,42.1,31.4,10.8,450.0,129.0,8.0,7,5,4,1,2026-05-08T20:57:18.878513+05:30
Bareilly,Uttar Pradesh,28.367,79.4304,25.6,58,0.0,988.2,7.85,34.9,153,68.7,39.6,20.6,405.0,89.0,8.7,4,5,7,1,2026-05-08T20:57:18.878519+05:30
Aligarh,Uttar Pradesh,27.8974,78.088,27.0,55,0.0,986.0,7.7,38.9,685,875.4,108.3,7.7,385.0,140.0,12.7,4,5,7,1,2026-05-08T20:57:18.878525+05:30
Moradabad,Uttar Pradesh,28.8386,78.7733,25.5,68,0.0,985.2,7.65,37.1,161,80.8,43.8,19.3,547.0,105.0,10.2,7,5,7,1,2026-05-08T20:57:18.878532+05:30
Saharanpur,Uttar Pradesh,29.9637,77.546,24.1,67,0.0,977.5,7.25,36.4,133,85.0,44.0,24.9,696.0,93.0,11.7,3,5,7,1,2026-05-08T20:57:18.878538+05:30
Jhansi,Uttar Pradesh,25.4484,78.5685,28.5,43,0.0,977.7,8.35,27.7,114,53.6,22.8,8.6,304.0,87.0,10.6,4,5,7,0,2026-05-08T20:57:22.194086+05:30
Surat,Gujarat,21.1702,72.8311,30.2,72,0.0,1004.9,7.7,33.5,107,61.5,37.4,58.6,864.0,45.0,66.7,3,5,4,1,2026-05-08T20:57:22.194118+05:30
Vadodara,Gujarat,22.3072,73.1812,36.0,17,0.0,1002.2,8.05,27.0,132,70.8,39.0,37.1,353.0,83.0,11.1,0,5,7,0,2026-05-08T20:57:22.194128+05:30
Rajkot,Gujarat,22.3039,70.8022,30.2,64,0.0,993.3,7.7,46.8,102,25.8,13.0,5.9,172.0,96.0,7.1,3,5,7,1,2026-05-08T20:57:22.194136+05:30
Thane,Maharashtra,19.2183,72.9781,30.1,73,0.0,1006.1,7.85,45.4,92,46.1,20.8,12.2,249.0,81.0,9.7,3,5,4,1,2026-05-08T20:57:22.194144+05:30
Nagpur,Maharashtra,21.1458,79.0882,34.3,23,0.0,973.5,8.9,32.0,191,55.9,41.7,21.1,433.0,128.0,27.3,0,5,7,0,2026-05-08T20:57:22.194152+05:30
Nashik,Maharashtra,19.9975,73.7898,29.9,49,0.0,944.9,8.15,40.3,105,33.9,18.3,6.6,213.0,114.0,7.0,4,5,7,1,2026-05-08T20:57:22.194159+05:30
Aurangabad,Maharashtra,19.8762,75.3433,32.6,23,0.0,943.7,9.05,34.9,142,63.6,36.3,16.9,299.0,114.0,11.3,0,5,7,0,2026-05-08T20:57:22.194167+05:30
Solapur,Maharashtra,17.6599,75.9064,33.0,31,0.0,956.2,9.05,32.4,116,34.1,25.7,9.4,425.0,110.0,4.4,0,5,7,0,2026-05-08T20:57:22.194174+05:30
Kolhapur,Maharashtra,16.705,74.2433,28.8,60,0.0,947.2,8.9,38.9,149,76.6,58.4,23.3,423.0,94.0,8.1,4,5,7,1,2026-05-08T20:57:22.194181+05:30
Goa,Goa,15.2993,74.124,30.8,72,0.0,995.9,8.8,41.4,109,65.2,36.6,7.7,244.0,95.0,4.2,3,5,7,1,2026-05-08T20:57:22.194189+05:30
Jodhpur,Rajasthan,26.2389,73.0243,36.2,16,0.0,981.1,8.3,40.0,117,156.5,27.8,13.5,248.0,81.0,3.7,0,5,10,0,2026-05-08T20:57:22.194196+05:30
Udaipur,Rajasthan,24.5854,73.7125,30.2,24,0.0,945.9,8.75,33.8,93,23.2,9.7,2.6,256.0,108.0,2.1,0,5,7,0,2026-05-08T20:57:22.194203+05:30
Kota,Rajasthan,25.2138,75.8648,30.9,32,0.0,977.6,8.35,42.8,94,95.9,30.2,14.6,357.0,81.0,4.7,0,5,7,0,2026-05-08T20:57:22.194211+05:30
Bikaner,Rajasthan,28.0229,73.3119,34.5,22,0.0,980.9,8.2,32.8,137,74.3,29.6,2.6,307.0,142.0,7.3,0,5,7,0,2026-05-08T20:57:22.194218+05:30
Ajmer,Rajasthan,26.4499,74.6399,30.5,26,0.0,953.5,8.25,55.4,84,50.2,22.1,10.8,252.0,91.0,5.1,0,5,7,0,2026-05-08T20:57:22.194225+05:30
Gwalior,Madhya Pradesh,26.2183,78.1828,26.2,65,0.0,982.7,8.15,34.6,118,90.1,28.9,7.0,369.0,109.0,7.9,7,5,7,1,2026-05-08T20:57:22.194232+05:30
Indore,Madhya Pradesh,22.7196,75.8577,33.7,16,0.0,947.8,8.65,31.0,124,57.2,31.7,19.6,496.0,95.0,7.6,0,5,7,0,2026-05-08T20:57:22.194239+05:30
Bhopal,Madhya Pradesh,23.2599,77.4126,33.3,19,0.0,953.4,8.65,38.9,123,47.5,28.3,12.1,561.0,95.0,5.9,0,5,7,0,2026-05-08T20:57:22.194246+05:30
Jabalpur,Madhya Pradesh,23.1815,79.9864,29.9,33,0.0,961.6,8.75,35.6,129,51.8,25.3,18.6,244.0,101.0,6.0,4,5,7,0,2026-05-08T20:57:22.194253+05:30
Ujjain,Madhya Pradesh,23.1765,75.7885,33.1,18,0.0,953.0,8.55,27.4,103,60.5,38.9,17.3,320.0,79.0,6.5,0,5,7,0,2026-05-08T20:57:22.194261+05:30
Visakhapatnam,Andhra Pradesh,17.6868,83.2185,27.6,78,0.0,1005.2,9.15,37.4,59,17.5,15.4,19.4,478.0,26.0,9.0,7,5,4,1,2026-05-08T20:57:22.194268+05:30
Vijayawada,Andhra Pradesh,16.5062,80.648,28.9,72,0.0,1003.6,9.2,43.9,38,10.9,9.6,8.5,159.0,39.0,6.3,7,5,4,1,2026-05-08T20:57:22.194275+05:30
Guntur,Andhra Pradesh,16.3067,80.4365,28.9,73,0.0,1004.9,9.2,45.4,42,11.8,10.3,8.6,164.0,51.0,7.0,7,5,4,1,2026-05-08T20:57:22.194282+05:30
Nellore,Andhra Pradesh,14.4426,79.9865,28.4,77,0.0,1006.6,8.95,40.0,25,4.7,3.3,2.9,157.0,38.0,2.0,7,5,4,1,2026-05-08T20:57:22.194290+05:30
Kurnool,Andhra Pradesh,15.8281,78.0373,32.0,44,0.0,976.8,9.15,43.9,49,13.9,11.6,4.5,183.0,89.0,1.6,0,5,7,1,2026-05-08T20:57:22.194298+05:30
Kakinada,Andhra Pradesh,16.9891,82.2475,27.0,88,0.0,1008.8,9.1,47.9,23,6.8,4.5,1.4,283.0,47.0,0.5,7,0,4,1,2026-05-08T20:57:22.194305+05:30
Tirupati,Andhra Pradesh,13.6288,79.4192,27.5,75,0.0,991.9,8.4,44.6,25,5.8,5.3,8.6,147.0,30.0,1.9,7,5,7,1,2026-05-08T20:57:22.194312+05:30
Warangal,Telangana,17.9689,79.5941,28.7,62,0.0,980.0,9.15,35.3,89,23.7,20.7,8.5,280.0,100.0,5.9,7,5,7,1,2026-05-08T20:57:22.194319+05:30
Nizamabad,Telangana,18.6725,78.0941,31.0,41,0.0,964.8,9.1,31.0,118,36.2,29.5,13.1,380.0,108.0,8.7,0,5,7,1,2026-05-08T20:57:22.194326+05:30
Mysore,Karnataka,12.2958,76.6396,24.8,78,0.0,928.0,8.9,38.5,72,20.4,18.0,21.3,306.0,74.0,6.9,3,5,7,1,2026-05-08T20:57:22.194334+05:30
Mangalore,Karnataka,12.9141,74.856,29.6,82,0.0,1004.8,9.0,41.4,92,51.1,31.5,4.7,291.0,112.0,3.3,7,5,4,1,2026-05-08T20:57:22.194341+05:30
Hubli-Dharwad,Karnataka,15.3647,75.124,30.9,32,0.0,940.0,9.05,37.4,95,33.4,27.1,26.4,229.0,82.0,5.1,0,5,7,0,2026-05-08T20:57:22.194349+05:30
Belgaum,Karnataka,15.8497,74.4977,25.5,70,0.0,924.7,9.15,36.0,121,56.2,43.8,16.6,321.0,93.0,5.7,7,5,7,1,2026-05-08T20:57:25.515051+05:30
Coimbatore,Tamil Nadu,11.0168,76.9558,24.4,91,0.1,961.7,9.05,44.3,64,19.2,18.6,14.3,365.0,76.0,6.8,6,5,7,1,2026-05-08T20:57:25.515083+05:30
Madurai,Tamil Nadu,9.9252,78.1198,28.2,79,0.0,992.4,8.1,35.3,51,34.8,34.7,56.1,401.0,21.0,16.6,7,5,7,1,2026-05-08T20:57:25.515093+05:30
Trichy,Tamil Nadu,10.7905,78.7047,29.4,71,0.0,999.3,8.55,39.6,44,11.6,11.3,20.9,212.0,27.0,14.6,7,5,7,1,2026-05-08T20:57:25.515102+05:30
Salem,Tamil Nadu,11.6643,78.146,28.1,73,0.0,976.8,7.6,34.6,57,9.6,9.4,12.4,348.0,60.0,9.3,7,5,7,1,2026-05-08T20:57:25.515111+05:30
Tirunelveli,Tamil Nadu,8.7139,77.7567,26.3,93,0.1,1003.1,8.7,36.0,49,10.1,9.9,10.2,268.0,66.0,3.8,10,5,4,1,2026-05-08T20:57:25.515119+05:30
Vellore,Tamil Nadu,12.9165,79.1325,28.2,69,0.0,985.0,7.05,54.0,43,13.9,13.5,15.2,215.0,52.0,10.1,7,5,7,1,2026-05-08T20:57:25.515127+05:30
Erode,Tamil Nadu,11.341,77.7172,26.7,85,0.0,988.4,8.2,35.6,66,17.2,16.8,20.1,445.0,59.0,7.6,7,5,7,1,2026-05-08T20:57:25.515135+05:30
Kochi,Kerala,9.9312,76.2673,28.1,92,0.0,1007.0,4.45,25.2,108,29.2,28.2,19.9,360.0,70.0,5.3,7,5,0,1,2026-05-08T20:57:25.515143+05:30
Thiruvananthapuram,Kerala,8.5241,76.9366,25.4,95,0.0,1007.3,8.3,24.1,117,12.0,10.8,5.4,687.0,111.0,2.8,7,5,4,1,2026-05-08T20:57:25.515151+05:30
Kozhikode,Kerala,11.2588,75.7804,27.9,90,0.0,1006.5,9.0,31.7,72,35.5,21.2,2.9,445.0,101.0,1.6,7,5,4,1,2026-05-08T20:57:25.515157+05:30
Thrissur,Kerala,10.5276,76.2144,27.1,97,0.0,1005.5,8.95,27.4,83,35.5,33.3,20.3,629.0,61.0,4.7,7,5,4,1,2026-05-08T20:57:25.515164+05:30
Kannur,Kerala,11.8745,75.3704,28.4,90,0.0,1005.3,8.85,40.0,78,44.8,30.2,9.6,623.0,90.0,2.7,7,5,4,1,2026-05-08T20:57:25.515170+05:30
Patna,Bihar,25.5941,85.1376,25.7,73,0.0,1003.2,8.65,29.9,178,68.0,54.0,16.8,499.0,134.0,16.9,7,5,4,1,2026-05-08T20:57:25.515176+05:30
Gaya,Bihar,24.7914,85.0002,26.6,60,0.0,996.1,8.75,33.8,186,70.5,55.5,16.2,411.0,120.0,16.8,4,5,7,1,2026-05-08T20:57:25.515182+05:30
Muzaffarpur,Bihar,26.1209,85.3647,25.3,69,0.0,1003.5,8.65,28.8,184,68.5,58.0,19.0,480.0,123.0,15.8,7,5,4,1,2026-05-08T20:57:25.515187+05:30
Bhagalpur,Bihar,25.2425,87.0117,26.0,69,0.0,1004.1,8.6,31.0,206,60.5,51.3,13.1,670.0,139.0,12.8,7,5,4,1,2026-05-08T20:57:25.515193+05:30
Ranchi,Jharkhand,23.3441,85.3096,22.6,78,0.0,939.8,9.2,50.4,167,50.9,42.6,16.0,384.0,130.0,16.4,3,5,7,1,2026-05-08T20:57:25.515199+05:30
Jamshedpur,Jharkhand,22.8046,86.2029,23.8,76,0.0,994.0,9.0,49.7,157,45.3,36.8,16.1,582.0,113.0,19.4,3,5,7,1,2026-05-08T20:57:25.515206+05:30
Dhanbad,Jharkhand,23.7957,86.4304,24.0,86,0.0,982.6,8.95,32.4,180,68.9,64.0,41.6,694.0,114.0,64.7,3,5,7,1,2026-05-08T20:57:25.515211+05:30
Bokaro,Jharkhand,23.6693,86.1511,23.8,84,0.0,986.4,8.95,44.3,158,70.8,63.8,38.0,801.0,123.0,64.9,3,5,7,1,2026-05-08T20:57:25.515218+05:30
Bhubaneswar,Odisha,20.2961,85.8245,26.5,89,0.0,1005.0,9.1,36.0,42,13.1,11.3,9.3,231.0,46.0,3.8,7,5,4,1,2026-05-08T20:57:25.515224+05:30
Cuttack,Odisha,20.4625,85.8828,25.8,86,0.0,1007.1,9.15,36.0,42,13.1,11.3,9.3,251.0,46.0,3.8,7,5,4,1,2026-05-08T20:57:25.515230+05:30
Rourkela,Odisha,22.2604,84.8536,24.1,87,0.0,987.2,8.85,34.6,168,55.6,47.4,22.5,471.0,113.0,34.6,3,5,7,1,2026-05-08T20:57:25.515237+05:30
Raipur,Chhattisgarh,21.2514,81.6296,31.8,33,0.0,975.4,8.95,33.5,200,80.6,67.3,49.1,564.0,95.0,17.4,0,5,7,0,2026-05-08T20:57:25.515243+05:30
Bhilai,Chhattisgarh,21.1938,81.3509,31.2,35,0.0,975.5,8.95,32.0,168,70.8,56.0,45.7,456.0,86.0,12.4,0,5,7,0,2026-05-08T20:57:25.515249+05:30
Guwahati,Assam,26.1158,91.7086,23.4,81,0.0,1004.9,8.65,23.8,107,50.5,44.0,15.1,455.0,48.0,2.7,3,5,4,1,2026-05-08T20:57:25.515255+05:30
Agartala,Tripura,23.8315,91.2868,25.7,84,0.0,1008.9,8.85,28.1,176,95.0,87.8,44.9,768.0,90.0,7.2,7,0,4,1,2026-05-08T20:57:25.515261+05:30
Shillong,Meghalaya,25.5788,91.8933,15.9,94,0.0,859.6,8.0,25.6,99,36.4,31.7,19.0,434.0,56.0,2.6,3,10,7,0,2026-05-08T20:57:25.515267+05:30
Imphal,Manipur,24.817,93.9368,19.2,81,0.0,924.6,9.2,31.7,102,47.6,41.0,26.8,798.0,69.0,7.0,3,10,7,0,2026-05-08T20:57:25.515273+05:30
Aizawl,Mizoram,23.7271,92.7176,18.9,76,0.0,894.5,8.5,25.2,81,39.1,32.0,12.8,349.0,71.0,2.2,3,5,7,0,2026-05-08T20:57:25.515279+05:30
Kohima,Nagaland,25.6701,94.1077,15.1,92,0.0,856.8,9.15,31.7,82,37.5,28.7,12.8,419.0,93.0,2.4,3,10,7,0,2026-05-08T20:57:25.515285+05:30
Gangtok,Sikkim,27.3314,88.6138,11.5,93,0.0,838.0,8.95,36.4,82,36.6,28.4,20.6,477.0,91.0,2.1,3,10,7,0,2026-05-08T20:57:25.515291+05:30
Siliguri,West Bengal,26.7271,88.3953,24.3,68,0.0,996.3,8.55,25.2,117,63.6,53.3,30.4,872.0,86.0,6.6,3,5,7,1,2026-05-08T20:57:28.849213+05:30
Durgapur,West Bengal,23.5204,87.3119,23.5,92,0.0,997.8,8.9,25.6,159,74.0,69.6,37.0,888.0,109.0,58.5,3,5,7,1,2026-05-08T20:57:28.849242+05:30
Asansol,West Bengal,23.6739,86.9524,22.7,96,0.0,996.4,8.95,30.2,160,69.8,65.4,36.5,591.0,113.0,59.6,3,5,7,1,2026-05-08T20:57:28.849252+05:30
Pondicherry,Puducherry,11.9139,79.8145,28.5,78,0.0,1008.2,7.4,46.8,22,4.1,2.9,2.7,202.0,40.0,0.3,7,0,4,1,2026-05-08T20:57:28.849260+05:30
Port Blair,Andaman and Nicobar Islands,11.6234,92.7265,26.9,87,0.0,1008.2,9.1,36.4,30,4.2,3.1,0.5,176.0,60.0,0.1,7,0,4,1,2026-05-08T20:57:28.849267+05:30
Haridwar,Uttarakhand,29.9457,78.1642,22.5,73,0.0,975.5,7.4,32.8,144,62.2,37.6,23.3,475.0,82.0,7.4,3,5,7,1,2026-05-08T20:57:28.849274+05:30
Rishikesh,Uttarakhand,30.0869,78.2676,20.9,75,0.0,968.2,7.45,22.0,143,45.1,21.9,11.4,470.0,102.0,2.2,3,5,7,1,2026-05-08T20:57:28.849280+05:30
Nainital,Uttarakhand,29.3919,79.4542,11.3,84,0.0,804.9,8.2,31.7,124,51.0,27.2,14.6,357.0,116.0,4.9,3,10,7,0,2026-05-08T20:57:28.849287+05:30
Mussoorie,Uttarakhand,30.4599,78.0664,10.4,94,0.0,801.4,6.3,28.8,138,59.6,33.6,30.5,333.0,102.0,11.1,3,10,7,0,2026-05-08T20:57:28.849293+05:30
Dharamshala,Himachal Pradesh,32.219,76.3234,18.5,66,0.0,870.3,8.2,33.8,103,49.5,25.1,12.3,317.0,101.0,2.0,3,5,7,0,2026-05-08T20:57:28.849299+05:30
Dalhousie,Himachal Pradesh,32.5387,75.971,11.8,91,0.0,804.1,8.45,37.8,152,88.7,42.3,22.2,525.0,125.0,6.1,3,10,7,0,2026-05-08T20:57:28.849306+05:30
Patiala,Punjab,30.3398,76.3869,26.0,57,0.0,979.5,7.5,38.5,550,189.5,47.5,10.8,379.0,122.0,9.5,4,5,7,1,2026-05-08T20:57:28.849312+05:30
Bhatinda,Punjab,30.211,74.9455,29.9,38,0.0,984.2,8.1,35.3,741,558.8,101.5,7.8,569.0,141.0,12.2,4,5,7,0,2026-05-08T20:57:28.849318+05:30
Rohtak,Haryana,28.8955,76.6066,26.6,54,0.0,982.8,7.6,37.8,720,599.8,89.2,19.5,385.0,132.0,22.2,4,5,7,1,2026-05-08T20:57:28.849324+05:30
Panipat,Haryana,29.3909,76.9635,25.5,63,0.0,981.9,7.45,40.3,1254,474.0,81.0,16.5,594.0,113.0,12.6,7,5,7,1,2026-05-08T20:57:28.849330+05:30
Mathura,Uttar Pradesh,27.4924,77.6737,28.1,46,0.0,986.9,7.85,36.4,1177,1609.3,175.1,9.0,372.0,133.0,10.8,4,5,7,0,2026-05-08T20:57:28.849336+05:30
Vrindavan,Uttar Pradesh,27.5823,77.7027,28.5,45,0.0,987.4,7.85,37.8,1177,1609.3,175.1,9.0,386.0,133.0,10.8,4,5,7,0,2026-05-08T20:57:28.849342+05:30
Ayodhya,Uttar Pradesh,26.7922,82.1998,25.9,55,0.0,997.8,8.2,28.8,143,57.2,32.5,15.3,336.0,105.0,7.5,4,5,7,1,2026-05-08T20:57:28.849347+05:30
Ratlam,Madhya Pradesh,23.3315,75.0367,30.2,22,0.0,953.5,8.5,27.4,108,53.2,31.9,9.1,217.0,99.0,6.1,0,5,7,0,2026-05-08T20:57:28.849353+05:30
Sagar,Madhya Pradesh,23.8388,78.7378,29.6,31,0.0,950.5,8.65,38.5,111,52.0,21.0,9.0,213.0,98.0,4.2,4,5,7,0,2026-05-08T20:57:28.849359+05:30
Satna,Madhya Pradesh,24.6005,80.8322,27.8,47,0.0,971.7,8.7,30.2,138,39.9,24.0,8.5,508.0,134.0,8.8,4,5,7,0,2026-05-08T20:57:28.849365+05:30
Akola,Maharashtra,20.7002,77.0082,33.1,29,0.0,974.4,8.85,26.3,150,37.8,26.6,12.2,367.0,122.0,7.4,0,5,7,0,2026-05-08T20:57:28.849371+05:30
Amravati,Maharashtra,20.9374,77.7796,32.1,30,0.0,967.3,8.85,27.0,158,41.2,28.6,15.0,313.0,121.0,6.1,0,5,7,0,2026-05-08T20:57:28.849378+05:30
Latur,Maharashtra,18.4088,76.5604,31.6,32,0.0,940.0,9.05,27.4,128,37.3,28.0,10.3,263.0,111.0,7.0,0,5,7,0,2026-05-08T20:57:28.849384+05:30
Nanded,Maharashtra,19.1383,77.3091,32.5,31,0.0,968.4,8.95,25.9,122,42.6,31.7,14.9,300.0,100.0,5.6,0,5,7,0,2026-05-08T20:57:28.849390+05:30
Gulbarga,Karnataka,17.3297,76.8343,32.2,38,0.0,958.4,9.05,32.8,101,23.6,19.2,10.0,253.0,113.0,5.2,0,5,7,0,2026-05-08T20:57:28.849395+05:30
Bidar,Karnataka,17.9104,77.5199,29.4,44,0.0,935.8,9.1,28.1,106,25.0,21.0,11.2,281.0,99.0,4.0,4,5,7,0,2026-05-08T20:57:28.849401+05:30
Hospet,Karnataka,15.2689,76.3909,30.4,41,0.0,955.0,9.2,36.4,85,16.7,14.1,12.6,310.0,92.0,7.9,0,5,7,0,2026-05-08T20:57:28.849407+05:30
Tirupur,Tamil Nadu,11.1085,77.3411,26.1,91,0.1,974.5,8.8,34.2,91,22.2,21.7,17.1,284.0,85.0,7.9,10,5,7,1,2026-05-08T20:57:28.849412+05:30
Alappuzha,Kerala,9.4981,76.3388,28.1,88,0.1,1007.4,8.65,31.0,147,26.1,24.6,14.9,221.0,101.0,6.4,10,5,4,1,2026-05-08T20:57:28.849418+05:30
Munnar,Kerala,10.0889,77.0595,18.5,97,0.0,856.1,9.5,23.0,40,15.1,14.9,8.6,367.0,60.0,2.6,3,10,7,1,2026-05-08T20:57:28.849424+05:30
Silchar,Assam,24.8333,92.7789,24.9,78,0.0,1007.5,6.75,22.7,125,75.0,65.9,21.4,581.0,85.0,12.9,3,5,4,1,2026-05-08T20:57:28.849429+05:30
Dibrugarh,Assam,27.4728,94.912,25.5,76,0.0,998.5,8.8,50.0,68,47.8,42.8,24.8,819.0,65.0,5.2,7,5,7,1,2026-05-08T20:57:28.849435+05:30
