city,state,latitude,longitude,temp,humidity,rain,pressure,uv_index,wind_gusts,aqi,pm10,pm2_5,mosquito_risk,arthritis_risk,migraine_risk,frizz_risk,updated_at
Delhi,Delhi,28.6139,77.209,34.6,22,0.0,978.8,7.3,28.8,181,573.7,70.1,0,5,7,0,2026-04-15T19:14:30.383057+05:30
Mumbai,Maharashtra,19.076,72.8777,29.9,68,0.0,1005.8,8.0,19.1,130,34.9,21.9,7,5,4,1,2026-04-15T19:14:30.383106+05:30
Bangalore,Karnataka,12.9716,77.5946,33.0,25,0.0,910.3,9.6,28.1,162,34.7,29.1,0,5,7,0,2026-04-15T19:14:30.383123+05:30
Hyderabad,Telangana,17.385,78.4867,36.5,24,0.0,950.1,9.2,31.3,159,39.9,33.1,0,5,10,0,2026-04-15T19:14:30.383133+05:30
Chennai,Tamil Nadu,13.0827,80.2707,29.9,78,0.0,1005.1,9.35,32.8,40,11.1,8.1,7,5,4,1,2026-04-15T19:14:30.383143+05:30
Kolkata,West Bengal,22.5726,88.3639,29.7,78,0.0,1003.2,8.85,27.7,88,35.9,30.9,7,5,4,1,2026-04-15T19:14:30.383153+05:30
Pune,Maharashtra,18.5204,73.8567,32.6,22,0.0,946.6,8.6,44.6,138,22.5,15.9,0,5,7,0,2026-04-15T19:14:30.383164+05:30
Ahmedabad,Gujarat,23.0225,72.5714,37.3,26,0.0,997.4,8.15,21.2,103,109.2,30.4,0,5,10,0,2026-04-15T19:14:30.383172+05:30
Jaipur,Rajasthan,26.9124,75.7873,35.5,13,0.0,956.3,7.95,32.4,178,231.9,34.9,0,5,10,0,2026-04-15T19:14:30.383179+05:30
Lucknow,Uttar Pradesh,26.8467,80.9462,33.1,27,0.0,988.8,7.75,25.9,152,102.4,25.0,0,5,7,0,2026-04-15T19:14:30.383188+05:30
Kanpur,Uttar Pradesh,26.4499,80.3319,32.5,41,0.0,987.2,7.8,21.2,167,373.5,48.0,0,5,7,1,2026-04-15T19:14:30.383196+05:30
Chandigarh,Chandigarh,30.7333,76.7794,29.5,28,0.0,964.8,7.25,31.0,169,12.8,10.6,4,5,7,0,2026-04-15T19:14:30.383204+05:30
Srinagar,Jammu and Kashmir,34.0837,74.7973,19.6,37,0.0,839.3,7.75,17.3,130,30.9,18.7,0,5,7,0,2026-04-15T19:14:30.383211+05:30
Jammu,Jammu and Kashmir,32.7266,74.857,29.8,37,0.0,968.9,7.95,35.6,159,22.5,17.7,4,5,7,0,2026-04-15T19:14:30.383218+05:30
Amritsar,Punjab,31.634,74.8723,29.6,43,0.0,977.0,7.65,30.2,153,16.8,9.4,4,5,7,0,2026-04-15T19:14:30.383225+05:30
Ludhiana,Punjab,30.901,75.8573,32.0,26,0.0,974.9,7.35,30.2,149,32.2,15.7,0,5,7,0,2026-04-15T19:14:30.383231+05:30
Jalandhar,Punjab,31.326,75.5762,30.1,35,0.0,976.2,7.5,29.2,154,31.3,12.9,0,5,7,0,2026-04-15T19:14:30.383240+05:30
Dehradun,Uttarakhand,30.6284,78.0322,19.4,44,0.0,828.6,7.65,27.7,149,10.0,8.3,0,5,7,0,2026-04-15T19:14:30.383247+05:30
Shimla,Himachal Pradesh,31.1048,77.1734,17.4,40,0.0,783.9,7.75,49.0,151,11.9,7.2,0,5,7,0,2026-04-15T19:14:30.383253+05:30
Manali,Himachal Pradesh,32.2396,77.1887,19.0,62,0.0,820.6,9.7,32.0,162,17.3,8.1,3,5,7,0,2026-04-15T19:14:30.383261+05:30
Gurgaon,Haryana,28.4595,77.0266,33.5,28,0.0,977.2,7.4,29.5,665,1117.6,121.5,0,5,7,0,2026-04-15T19:14:30.383268+05:30
Noida,Uttar Pradesh,28.5355,77.391,34.3,23,0.0,980.3,7.3,27.4,665,1117.6,121.5,0,5,7,0,2026-04-15T19:14:30.383275+05:30
Ghaziabad,Uttar Pradesh,28.6692,77.4538,33.1,26,0.0,978.5,7.3,27.7,152,408.9,57.2,0,5,7,0,2026-04-15T19:14:30.383281+05:30
Faridabad,Haryana,28.4089,77.3178,34.0,24,0.0,979.6,7.35,27.4,665,1117.6,121.5,0,5,7,0,2026-04-15T19:14:30.383288+05:30
Meerut,Uttar Pradesh,28.9845,77.7064,31.3,27,0.0,977.3,7.2,32.0,152,408.9,57.2,0,5,7,0,2026-04-15T19:14:30.383294+05:30
Agra,Uttar Pradesh,27.1767,78.0081,32.8,22,0.0,983.7,7.65,29.9,329,577.4,74.0,0,5,7,0,2026-04-15T19:14:30.383301+05:30
Varanasi,Uttar Pradesh,25.3176,82.9739,34.2,27,0.0,992.5,8.35,19.4,153,42.1,21.4,0,5,7,0,2026-04-15T19:14:30.383315+05:30
Prayagraj,Uttar Pradesh,25.4358,81.8463,33.4,29,0.0,990.9,8.25,20.5,162,47.5,17.9,0,5,7,0,2026-04-15T19:14:30.383325+05:30
Gorakhpur,Uttar Pradesh,26.7606,83.3732,32.8,24,0.0,992.2,8.2,25.9,157,74.7,21.1,0,5,7,0,2026-04-15T19:14:30.383331+05:30
Bareilly,Uttar Pradesh,28.367,79.4304,31.2,27,0.0,982.4,7.55,31.3,151,12.2,11.1,0,5,7,0,2026-04-15T19:14:30.383338+05:30
Aligarh,Uttar Pradesh,27.8974,78.088,32.6,22,0.0,981.6,7.45,33.8,218,691.0,84.3,0,5,7,0,2026-04-15T19:14:30.383345+05:30
Moradabad,Uttar Pradesh,28.8386,78.7733,30.8,25,0.0,979.4,7.4,31.3,152,71.0,22.8,0,5,7,0,2026-04-15T19:14:30.383353+05:30
Saharanpur,Uttar Pradesh,29.9637,77.546,29.7,32,0.0,971.5,7.0,33.1,172,60.3,19.2,4,5,7,0,2026-04-15T19:14:30.383360+05:30
Jhansi,Uttar Pradesh,25.4484,78.5685,35.0,23,0.0,973.5,8.2,34.2,151,44.9,15.8,0,5,7,0,2026-04-15T19:14:33.603393+05:30
Surat,Gujarat,21.1702,72.8311,29.2,72,0.0,1003.5,7.8,31.0,103,57.6,31.9,7,5,4,1,2026-04-15T19:14:33.603427+05:30
Vadodara,Gujarat,22.3072,73.1812,35.7,25,0.0,999.9,8.1,28.8,125,91.7,35.2,0,5,10,0,2026-04-15T19:14:33.603438+05:30
Rajkot,Gujarat,22.3039,70.8022,32.9,39,0.0,990.8,7.85,31.3,110,47.5,17.5,0,5,7,1,2026-04-15T19:14:33.603446+05:30
Thane,Maharashtra,19.2183,72.9781,29.6,65,0.0,1005.3,8.0,32.8,130,34.9,21.9,7,5,4,1,2026-04-15T19:14:33.603454+05:30
Nagpur,Maharashtra,21.1458,79.0882,32.9,28,0.0,968.5,8.85,35.6,129,10.9,8.8,0,5,7,0,2026-04-15T19:14:33.603462+05:30
Nashik,Maharashtra,19.9975,73.7898,31.1,30,0.0,943.8,8.3,38.9,74,25.0,9.6,0,5,7,0,2026-04-15T19:14:33.603469+05:30
Aurangabad,Maharashtra,19.8762,75.3433,35.6,14,0.0,941.2,8.95,38.9,102,9.7,5.4,0,5,10,0,2026-04-15T19:14:33.603476+05:30
Solapur,Maharashtra,17.6599,75.9064,37.2,17,0.0,953.7,9.05,28.8,162,24.2,18.3,0,5,10,0,2026-04-15T19:14:33.603484+05:30
Kolhapur,Maharashtra,16.705,74.2433,28.4,58,0.0,945.8,9.0,45.0,131,28.2,19.6,4,5,7,1,2026-04-15T19:14:33.603508+05:30
Goa,Goa,15.2993,74.124,29.5,74,0.0,996.1,9.0,31.3,85,52.7,18.6,7,5,7,1,2026-04-15T19:14:33.603515+05:30
Jodhpur,Rajasthan,26.2389,73.0243,35.3,22,0.0,978.8,8.15,24.5,95,57.9,14.6,0,5,10,0,2026-04-15T19:14:33.603523+05:30
Udaipur,Rajasthan,24.5854,73.7125,33.6,20,0.0,943.8,8.7,26.6,76,85.7,20.3,0,5,7,0,2026-04-15T19:14:33.603530+05:30
Kota,Rajasthan,25.2138,75.8648,36.3,20,0.0,974.3,8.2,23.4,107,39.8,14.9,0,5,10,0,2026-04-15T19:14:33.603537+05:30
Bikaner,Rajasthan,28.0229,73.3119,36.8,16,0.0,978.0,8.0,14.8,126,63.6,13.3,0,5,10,0,2026-04-15T19:14:33.603545+05:30
Ajmer,Rajasthan,26.4499,74.6399,34.4,19,0.0,951.3,8.15,26.6,122,83.6,18.4,0,5,7,0,2026-04-15T19:14:33.603552+05:30
Gwalior,Madhya Pradesh,26.2183,78.1828,34.0,33,0.0,979.3,7.9,31.3,153,111.1,25.5,0,5,7,0,2026-04-15T19:14:33.603559+05:30
Indore,Madhya Pradesh,22.7196,75.8577,32.6,28,0.0,945.1,8.55,32.0,99,48.0,20.3,0,5,7,0,2026-04-15T19:14:33.603565+05:30
Bhopal,Madhya Pradesh,23.2599,77.4126,35.1,22,0.0,950.0,8.55,31.3,86,39.1,16.4,0,5,10,0,2026-04-15T19:14:33.603572+05:30
Jabalpur,Madhya Pradesh,23.1815,79.9864,31.9,23,0.0,957.2,8.7,34.9,93,13.7,8.6,0,5,7,0,2026-04-15T19:14:33.603578+05:30
Ujjain,Madhya Pradesh,23.1765,75.7885,33.0,34,0.0,950.8,8.45,29.5,89,64.5,25.7,0,5,7,0,2026-04-15T19:14:33.603585+05:30
Visakhapatnam,Andhra Pradesh,17.6868,83.2185,28.7,78,0.0,1001.5,9.15,41.4,62,15.8,12.0,7,5,4,1,2026-04-15T19:14:33.603592+05:30
Vijayawada,Andhra Pradesh,16.5062,80.648,32.9,46,0.0,999.4,9.2,31.7,53,20.8,18.6,0,5,7,1,2026-04-15T19:14:33.603599+05:30
Guntur,Andhra Pradesh,16.3067,80.4365,31.1,58,0.0,1000.8,9.2,31.0,86,25.7,23.1,0,5,4,1,2026-04-15T19:14:33.603605+05:30
Nellore,Andhra Pradesh,14.4426,79.9865,30.1,72,0.0,1003.1,9.3,36.4,87,17.9,14.3,3,5,4,1,2026-04-15T19:14:33.603613+05:30
Kurnool,Andhra Pradesh,15.8281,78.0373,38.5,24,0.0,972.9,9.2,24.5,163,38.5,30.2,0,5,10,0,2026-04-15T19:14:33.603620+05:30
Kakinada,Andhra Pradesh,16.9891,82.2475,30.4,66,0.0,1005.3,9.15,34.6,48,12.0,7.9,3,5,4,1,2026-04-15T19:14:33.603627+05:30
Tirupati,Andhra Pradesh,13.6288,79.4192,34.0,38,0.0,989.1,9.4,32.0,106,25.8,23.1,0,5,7,1,2026-04-15T19:14:33.603634+05:30
Warangal,Telangana,17.9689,79.5941,35.8,39,0.0,975.1,9.1,29.2,134,43.7,37.1,0,5,10,1,2026-04-15T19:14:33.603641+05:30
Nizamabad,Telangana,18.6725,78.0941,35.7,22,0.0,961.4,9.05,26.6,120,26.4,20.4,0,5,10,0,2026-04-15T19:14:33.603647+05:30
Mysore,Karnataka,12.2958,76.6396,31.6,42,0.0,926.8,9.5,46.4,145,36.3,29.5,0,5,7,1,2026-04-15T19:14:33.603654+05:30
Mangalore,Karnataka,12.9141,74.856,30.3,78,0.0,1004.7,9.1,24.1,66,31.0,19.0,3,5,4,1,2026-04-15T19:14:33.603661+05:30
Hubli-Dharwad,Karnataka,15.3647,75.124,28.6,69,0.0,939.0,9.2,47.5,146,33.8,26.3,7,5,7,1,2026-04-15T19:14:33.603668+05:30
Belgaum,Karnataka,15.8497,74.4977,26.4,76,0.0,924.0,9.2,39.6,133,33.1,17.2,7,5,7,1,2026-04-15T19:14:36.826830+05:30
Coimbatore,Tamil Nadu,11.0168,76.9558,28.7,73,0.0,959.7,9.45,52.2,146,30.4,24.6,7,5,7,1,2026-04-15T19:14:36.826865+05:30
Madurai,Tamil Nadu,9.9252,78.1198,33.5,48,0.0,990.3,9.35,40.7,101,15.4,12.5,0,5,7,1,2026-04-15T19:14:36.826875+05:30
Trichy,Tamil Nadu,10.7905,78.7047,33.5,50,0.0,996.7,9.4,22.0,69,16.8,14.9,0,5,7,1,2026-04-15T19:14:36.826884+05:30
Salem,Tamil Nadu,11.6643,78.146,35.4,32,0.0,974.6,9.45,19.1,112,29.6,22.9,0,5,10,1,2026-04-15T19:14:36.826893+05:30
Tirunelveli,Tamil Nadu,8.7139,77.7567,32.6,54,0.0,1000.4,9.3,50.4,82,21.0,17.4,0,5,4,1,2026-04-15T19:14:36.826901+05:30
Vellore,Tamil Nadu,12.9165,79.1325,33.1,41,0.0,982.2,9.45,29.5,104,27.2,24.8,0,5,7,1,2026-04-15T19:14:36.826908+05:30
Erode,Tamil Nadu,11.341,77.7172,36.5,24,0.0,985.6,9.4,25.9,133,23.1,17.9,0,5,10,0,2026-04-15T19:14:36.826915+05:30
Kochi,Kerala,9.9312,76.2673,30.2,79,0.0,1006.5,9.2,32.4,93,30.5,22.7,3,5,4,1,2026-04-15T19:14:36.826922+05:30
Thiruvananthapuram,Kerala,8.5241,76.9366,29.6,80,0.0,1006.3,9.15,34.9,70,27.9,17.8,7,5,4,1,2026-04-15T19:14:36.826929+05:30
Kozhikode,Kerala,11.2588,75.7804,30.6,78,0.0,1005.8,9.1,31.3,71,32.2,19.4,3,5,4,1,2026-04-15T19:14:36.826935+05:30
Thrissur,Kerala,10.5276,76.2144,30.3,77,0.0,1005.1,9.2,36.0,94,27.2,20.6,3,5,4,1,2026-04-15T19:14:36.826942+05:30
Kannur,Kerala,11.8745,75.3704,30.6,74,0.0,1005.3,9.15,31.7,68,32.4,21.0,3,5,4,1,2026-04-15T19:14:36.826950+05:30
Patna,Bihar,25.5941,85.1376,34.5,34,0.0,995.6,8.55,19.8,187,89.2,35.2,0,5,7,1,2026-04-15T19:14:36.826957+05:30
Gaya,Bihar,24.7914,85.0002,33.8,38,0.0,989.3,8.6,18.0,148,50.9,21.6,0,5,7,1,2026-04-15T19:14:36.826963+05:30
Muzaffarpur,Bihar,26.1209,85.3647,30.3,54,0.0,995.8,8.5,21.2,195,109.7,44.8,0,5,7,1,2026-04-15T19:14:36.826969+05:30
Bhagalpur,Bihar,25.2425,87.0117,29.9,68,0.0,997.3,8.5,16.2,187,74.0,32.5,7,5,7,1,2026-04-15T19:14:36.826975+05:30
Ranchi,Jharkhand,23.3441,85.3096,30.1,34,0.0,935.3,9.1,30.2,181,63.1,35.9,0,5,7,0,2026-04-15T19:14:36.826981+05:30
Jamshedpur,Jharkhand,22.8046,86.2029,32.4,44,0.0,986.5,8.95,20.9,200,69.8,40.4,0,5,7,1,2026-04-15T19:14:36.826987+05:30
Dhanbad,Jharkhand,23.7957,86.4304,34.3,25,0.0,976.0,8.9,22.7,169,83.6,54.8,0,5,7,0,2026-04-15T19:14:36.826993+05:30
Bokaro,Jharkhand,23.6693,86.1511,32.0,38,0.0,980.1,8.9,26.6,166,71.2,45.3,0,5,7,0,2026-04-15T19:14:36.827000+05:30
Bhubaneswar,Odisha,20.2961,85.8245,28.7,78,0.0,1000.1,9.1,31.7,70,21.2,17.1,7,5,4,1,2026-04-15T19:14:36.827006+05:30
Cuttack,Odisha,20.4625,85.8828,30.3,72,0.0,1001.9,9.15,25.9,70,21.2,17.1,3,5,4,1,2026-04-15T19:14:36.827012+05:30
Rourkela,Odisha,22.2604,84.8536,33.9,40,0.0,980.9,8.9,34.9,208,78.0,52.2,0,5,7,1,2026-04-15T19:14:36.827018+05:30
Raipur,Chhattisgarh,21.2514,81.6296,35.6,22,0.0,969.8,8.95,39.2,176,32.1,27.1,0,5,10,0,2026-04-15T19:14:36.827024+05:30
Bhilai,Chhattisgarh,21.1938,81.3509,33.9,29,0.0,970.1,8.95,40.7,162,26.5,22.6,0,5,7,0,2026-04-15T19:14:36.827030+05:30
Guwahati,Assam,26.1158,91.7086,24.8,82,0.0,1001.2,8.45,31.7,131,53.2,39.3,3,5,4,1,2026-04-15T19:14:36.827036+05:30
Agartala,Tripura,23.8315,91.2868,28.0,78,0.0,1003.9,8.7,24.5,98,65.0,46.3,7,5,4,1,2026-04-15T19:14:36.827041+05:30
Shillong,Meghalaya,25.5788,91.8933,15.3,85,0.0,855.0,8.6,59.4,101,49.4,33.1,3,10,7,0,2026-04-15T19:14:36.827048+05:30
Imphal,Manipur,24.817,93.9368,19.4,82,0.0,922.6,9.05,69.1,127,66.1,42.7,3,10,7,1,2026-04-15T19:14:36.827055+05:30
Aizawl,Mizoram,23.7271,92.7176,21.4,83,0.0,891.7,8.95,50.4,120,75.7,46.0,3,5,7,1,2026-04-15T19:14:36.827061+05:30
Kohima,Nagaland,25.6701,94.1077,15.7,93,0.0,854.3,8.95,73.8,111,53.7,33.3,3,10,7,0,2026-04-15T19:14:36.827067+05:30
Gangtok,Sikkim,27.3314,88.6138,16.0,91,0.0,836.1,8.1,17.6,138,58.4,39.3,3,10,7,0,2026-04-15T19:14:36.827073+05:30
Siliguri,West Bengal,26.7271,88.3953,21.9,84,0.0,992.4,8.4,27.7,158,102.9,68.2,3,5,7,1,2026-04-15T19:14:40.049243+05:30
Durgapur,West Bengal,23.5204,87.3119,33.0,45,0.0,991.0,8.8,25.9,191,67.1,47.0,0,5,7,1,2026-04-15T19:14:40.049278+05:30
Asansol,West Bengal,23.6739,86.9524,33.6,34,0.0,989.5,8.85,27.7,182,65.4,39.9,0,5,7,0,2026-04-15T19:14:40.049289+05:30
Pondicherry,Puducherry,11.9139,79.8145,29.7,73,0.0,1005.9,9.3,27.4,71,11.8,8.8,7,5,4,1,2026-04-15T19:14:40.049298+05:30
Port Blair,Andaman and Nicobar Islands,11.6234,92.7265,29.6,69,0.0,1006.4,9.2,20.9,71,21.9,15.5,7,5,4,1,2026-04-15T19:14:40.049306+05:30
Haridwar,Uttarakhand,29.9457,78.1642,28.9,36,0.0,970.3,7.05,32.0,165,19.6,13.9,4,5,7,0,2026-04-15T19:14:40.049313+05:30
Rishikesh,Uttarakhand,30.0869,78.2676,27.8,51,0.0,963.5,7.15,29.9,158,10.4,9.6,4,5,7,1,2026-04-15T19:14:40.049321+05:30
Nainital,Uttarakhand,29.3919,79.4542,22.8,30,0.0,805.6,8.05,45.7,152,10.0,8.8,0,5,7,0,2026-04-15T19:14:40.049329+05:30
Mussoorie,Uttarakhand,30.4599,78.0664,20.4,45,0.0,801.6,7.55,39.6,163,12.9,12.2,0,5,7,0,2026-04-15T19:14:40.049337+05:30
Dharamshala,Himachal Pradesh,32.219,76.3234,23.7,47,0.0,867.8,7.8,23.8,142,15.3,10.8,0,5,7,0,2026-04-15T19:14:40.049344+05:30
Dalhousie,Himachal Pradesh,32.5387,75.971,21.8,43,0.0,803.5,8.0,24.1,166,17.2,13.3,0,5,7,0,2026-04-15T19:14:40.049351+05:30
Patiala,Punjab,30.3398,76.3869,31.6,25,0.0,974.2,7.15,30.6,167,333.4,40.3,0,5,7,0,2026-04-15T19:14:40.049359+05:30
Bhatinda,Punjab,30.211,74.9455,33.3,27,0.0,979.7,7.85,36.4,146,34.3,11.1,0,5,7,0,2026-04-15T19:14:40.049365+05:30
Rohtak,Haryana,28.8955,76.6066,33.1,24,0.0,977.6,7.3,34.2,354,618.4,74.3,0,5,7,0,2026-04-15T19:14:40.049372+05:30
Panipat,Haryana,29.3909,76.9635,31.2,27,0.0,976.2,7.15,30.2,757,1009.6,110.1,0,5,7,0,2026-04-15T19:14:40.049379+05:30
Mathura,Uttar Pradesh,27.4924,77.6737,32.1,21,0.0,982.8,7.6,25.2,320,665.0,77.5,0,5,7,0,2026-04-15T19:14:40.049386+05:30
Vrindavan,Uttar Pradesh,27.5823,77.7027,32.5,23,0.0,983.1,7.6,29.2,320,665.0,77.5,0,5,7,0,2026-04-15T19:14:40.049393+05:30
Ayodhya,Uttar Pradesh,26.7922,82.1998,33.2,21,0.0,990.5,7.95,31.0,138,69.2,20.7,0,5,7,0,2026-04-15T19:14:40.049399+05:30
Ratlam,Madhya Pradesh,23.3315,75.0367,29.9,55,0.0,951.5,8.4,25.2,86,59.5,19.7,4,5,7,1,2026-04-15T19:14:40.049406+05:30
Sagar,Madhya Pradesh,23.8388,78.7378,34.4,26,0.0,946.4,8.55,28.4,82,29.3,13.8,0,5,7,0,2026-04-15T19:14:40.049412+05:30
Satna,Madhya Pradesh,24.6005,80.8322,36.2,17,0.0,966.4,8.55,30.6,138,13.3,8.8,0,5,10,0,2026-04-15T19:14:40.049419+05:30
Akola,Maharashtra,20.7002,77.0082,35.7,16,0.0,971.0,8.75,37.4,109,13.9,10.3,0,5,10,0,2026-04-15T19:14:40.049426+05:30
Amravati,Maharashtra,20.9374,77.7796,33.5,20,0.0,963.2,8.8,34.9,108,13.1,9.9,0,5,7,0,2026-04-15T19:14:40.049434+05:30
Latur,Maharashtra,18.4088,76.5604,33.2,32,0.0,937.2,9.05,25.2,139,24.0,18.6,0,5,7,0,2026-04-15T19:14:40.049440+05:30
Nanded,Maharashtra,19.1383,77.3091,34.5,35,0.0,965.2,8.95,17.3,129,17.3,13.8,0,5,7,1,2026-04-15T19:14:40.049447+05:30
Gulbarga,Karnataka,17.3297,76.8343,38.0,19,0.0,955.1,9.1,24.1,184,33.9,27.5,0,5,10,0,2026-04-15T19:14:40.049453+05:30
Bidar,Karnataka,17.9104,77.5199,35.5,22,0.0,932.9,9.1,24.1,181,40.0,33.1,0,5,10,0,2026-04-15T19:14:40.049459+05:30
Hospet,Karnataka,15.2689,76.3909,35.3,39,0.0,953.0,9.25,28.4,153,34.7,27.3,0,5,10,1,2026-04-15T19:14:40.049465+05:30
Tirupur,Tamil Nadu,11.1085,77.3411,36.2,21,0.0,972.4,9.45,36.7,151,28.1,21.3,0,5,10,0,2026-04-15T19:14:40.049471+05:30
Alappuzha,Kerala,9.4981,76.3388,30.1,79,0.0,1006.6,9.15,31.3,92,34.2,23.6,3,5,4,1,2026-04-15T19:14:40.049477+05:30
Munnar,Kerala,10.0889,77.0595,23.8,86,0.0,856.6,9.75,34.6,94,26.1,21.0,3,5,7,1,2026-04-15T19:14:40.049484+05:30
Silchar,Assam,24.8333,92.7789,26.9,76,0.0,1003.4,8.7,29.9,142,68.9,51.8,7,5,4,1,2026-04-15T19:14:40.049507+05:30
Dibrugarh,Assam,27.4728,94.912,21.6,83,0.0,996.7,7.95,31.3,114,106.4,65.4,3,5,7,1,2026-04-15T19:14:40.049515+05:30
