city,state,latitude,longitude,temp,humidity,rain,pressure,uv_index,wind_gusts,aqi,pm10,pm2_5,mosquito_risk,arthritis_risk,migraine_risk,frizz_risk,updated_at
Delhi,Delhi,28.6139,77.209,24.7,63,0.0,981.9,6.3,36.7,200,285.0,73.6,3,5,7,1,2026-03-30T01:04:32.120692+05:30
Mumbai,Maharashtra,19.076,72.8777,27.4,85,0.0,1007.8,8.0,22.7,56,27.0,12.6,7,5,4,1,2026-03-30T01:04:32.120749+05:30
Bangalore,Karnataka,12.9716,77.5946,23.5,72,0.0,910.8,9.45,32.0,131,79.9,71.0,3,5,7,1,2026-03-30T01:04:32.120765+05:30
Hyderabad,Telangana,17.385,78.4867,26.8,62,0.0,951.4,8.3,28.1,86,46.0,41.9,7,5,7,1,2026-03-30T01:04:32.120775+05:30
Chennai,Tamil Nadu,13.0827,80.2707,27.1,89,0.0,1006.1,9.3,30.2,54,16.6,12.0,7,5,4,1,2026-03-30T01:04:32.120784+05:30
Kolkata,West Bengal,22.5726,88.3639,25.3,92,0.0,1005.7,8.5,27.4,115,39.8,35.0,7,5,4,1,2026-03-30T01:04:32.120794+05:30
Pune,Maharashtra,18.5204,73.8567,23.4,92,0.0,947.2,8.55,38.5,69,29.6,22.1,3,5,7,1,2026-03-30T01:04:32.120807+05:30
Ahmedabad,Gujarat,23.0225,72.5714,27.6,64,0.0,1001.7,8.0,24.8,48,31.3,13.5,7,5,4,1,2026-03-30T01:04:32.120815+05:30
Jaipur,Rajasthan,26.9124,75.7873,25.5,36,0.0,958.7,5.2,39.2,100,173.7,28.6,4,5,3,0,2026-03-30T01:04:32.120823+05:30
Lucknow,Uttar Pradesh,26.8467,80.9462,24.2,64,0.0,992.6,7.3,20.5,106,74.0,35.0,3,5,7,1,2026-03-30T01:04:32.120831+05:30
Kanpur,Uttar Pradesh,26.4499,80.3319,23.8,65,0.0,990.5,7.3,17.6,103,90.6,32.6,3,5,7,1,2026-03-30T01:04:32.120838+05:30
Chandigarh,Chandigarh,30.7333,76.7794,21.6,78,0.0,967.9,5.85,21.2,94,57.7,33.4,3,5,3,1,2026-03-30T01:04:32.120846+05:30
Srinagar,Jammu and Kashmir,34.0837,74.7973,10.6,83,0.0,839.8,6.25,25.9,74,44.9,42.3,3,10,7,0,2026-03-30T01:04:32.120853+05:30
Jammu,Jammu and Kashmir,32.7266,74.857,20.2,77,0.0,971.7,5.45,44.6,89,44.4,34.8,3,5,3,1,2026-03-30T01:04:32.120860+05:30
Amritsar,Punjab,31.634,74.8723,21.0,78,0.0,980.5,5.05,41.8,79,58.1,28.5,3,5,3,1,2026-03-30T01:04:32.120887+05:30
Ludhiana,Punjab,30.901,75.8573,22.1,83,0.0,978.3,5.5,42.5,108,94.8,49.0,3,5,3,1,2026-03-30T01:04:32.120896+05:30
Jalandhar,Punjab,31.326,75.5762,21.3,75,0.0,979.2,4.9,42.5,90,63.1,28.5,3,5,3,1,2026-03-30T01:04:32.120906+05:30
Dehradun,Uttarakhand,30.6284,78.0322,14.2,70,0.0,829.4,6.95,25.2,61,24.6,12.2,3,5,7,0,2026-03-30T01:04:32.120914+05:30
Shimla,Himachal Pradesh,31.1048,77.1734,12.8,64,0.0,783.1,6.45,24.5,73,19.5,12.1,3,5,7,0,2026-03-30T01:04:32.120922+05:30
Manali,Himachal Pradesh,32.2396,77.1887,13.9,59,0.0,818.8,8.15,33.8,39,2.4,2.4,0,5,7,0,2026-03-30T01:04:32.120930+05:30
Gurgaon,Haryana,28.4595,77.0266,23.9,69,0.0,980.0,6.05,35.6,582,305.5,69.8,3,5,7,1,2026-03-30T01:04:32.120937+05:30
Noida,Uttar Pradesh,28.5355,77.391,24.4,67,0.0,983.4,6.2,36.0,582,305.5,69.8,3,5,7,1,2026-03-30T01:04:32.120944+05:30
Ghaziabad,Uttar Pradesh,28.6692,77.4538,23.8,66,0.0,981.6,5.15,36.7,156,175.6,63.3,3,5,3,1,2026-03-30T01:04:32.120951+05:30
Faridabad,Haryana,28.4089,77.3178,24.6,66,0.0,982.7,6.0,36.0,582,305.5,69.8,3,5,3,1,2026-03-30T01:04:32.120960+05:30
Meerut,Uttar Pradesh,28.9845,77.7064,22.9,69,0.0,980.3,6.2,30.6,156,175.6,63.3,3,5,7,1,2026-03-30T01:04:32.120967+05:30
Agra,Uttar Pradesh,27.1767,78.0081,25.7,63,0.0,986.3,6.45,47.9,258,678.0,89.6,7,5,7,1,2026-03-30T01:04:32.120974+05:30
Varanasi,Uttar Pradesh,25.3176,82.9739,22.6,65,0.0,996.3,7.95,19.1,88,70.3,45.5,3,5,7,0,2026-03-30T01:04:32.120983+05:30
Prayagraj,Uttar Pradesh,25.4358,81.8463,23.6,66,0.0,994.6,7.85,34.9,99,62.2,38.6,3,5,7,1,2026-03-30T01:04:32.120991+05:30
Gorakhpur,Uttar Pradesh,26.7606,83.3732,22.0,76,0.0,996.8,7.7,27.7,132,71.2,51.6,3,5,7,1,2026-03-30T01:04:32.120998+05:30
Bareilly,Uttar Pradesh,28.367,79.4304,22.9,76,0.0,986.1,6.55,21.6,99,53.3,41.3,3,5,7,1,2026-03-30T01:04:32.121005+05:30
Aligarh,Uttar Pradesh,27.8974,78.088,23.7,67,0.0,984.1,6.3,37.4,176,248.7,63.1,3,5,7,1,2026-03-30T01:04:32.121012+05:30
Moradabad,Uttar Pradesh,28.8386,78.7733,24.5,63,0.0,982.9,6.8,22.3,151,116.6,93.8,3,5,7,1,2026-03-30T01:04:32.121018+05:30
Saharanpur,Uttar Pradesh,29.9637,77.546,21.6,82,0.0,974.5,6.4,20.5,99,56.0,39.6,3,5,7,1,2026-03-30T01:04:32.121024+05:30
Jhansi,Uttar Pradesh,25.4484,78.5685,26.1,53,0.0,976.1,7.15,33.8,69,32.4,21.5,4,5,7,0,2026-03-30T01:04:35.470556+05:30
Surat,Gujarat,21.1702,72.8311,26.6,90,0.0,1006.1,7.8,24.8,75,36.1,26.1,7,5,4,1,2026-03-30T01:04:35.470587+05:30
Vadodara,Gujarat,22.3072,73.1812,27.3,83,0.0,1003.8,8.0,26.3,62,38.8,25.2,7,5,4,1,2026-03-30T01:04:35.470597+05:30
Rajkot,Gujarat,22.3039,70.8022,25.4,82,0.0,994.2,7.75,31.7,54,44.5,15.0,7,5,7,1,2026-03-30T01:04:35.470605+05:30
Thane,Maharashtra,19.2183,72.9781,26.4,87,0.0,1007.3,8.0,35.6,56,27.0,12.6,7,5,4,1,2026-03-30T01:04:35.470613+05:30
Nagpur,Maharashtra,21.1458,79.0882,27.6,52,0.0,971.2,8.55,25.9,66,49.8,32.2,4,5,7,1,2026-03-30T01:04:35.470621+05:30
Nashik,Maharashtra,19.9975,73.7898,22.6,75,0.0,944.6,8.25,28.1,44,21.0,13.4,3,5,7,1,2026-03-30T01:04:35.470628+05:30
Aurangabad,Maharashtra,19.8762,75.3433,27.0,47,0.0,942.9,8.75,42.8,42,21.4,16.5,4,5,7,0,2026-03-30T01:04:35.470635+05:30
Solapur,Maharashtra,17.6599,75.9064,27.5,44,0.0,955.0,8.9,27.4,55,29.1,23.9,4,5,7,0,2026-03-30T01:04:35.470642+05:30
Kolhapur,Maharashtra,16.705,74.2433,20.9,96,0.0,946.1,7.75,42.1,69,22.8,20.1,3,5,7,1,2026-03-30T01:04:35.470649+05:30
Goa,Goa,15.2993,74.124,26.9,81,0.0,996.0,8.9,31.3,69,22.0,15.5,7,5,7,1,2026-03-30T01:04:35.470657+05:30
Jodhpur,Rajasthan,26.2389,73.0243,26.4,60,0.0,981.6,7.8,41.4,125,190.5,31.0,4,5,7,1,2026-03-30T01:04:35.470664+05:30
Udaipur,Rajasthan,24.5854,73.7125,24.1,61,0.0,946.2,8.1,30.2,42,33.3,13.6,3,5,7,1,2026-03-30T01:04:35.470671+05:30
Kota,Rajasthan,25.2138,75.8648,26.5,38,0.0,977.5,6.9,27.4,40,10.4,7.5,4,5,7,0,2026-03-30T01:04:35.470677+05:30
Bikaner,Rajasthan,28.0229,73.3119,26.2,27,0.0,979.3,5.15,43.6,112,182.1,41.1,4,5,3,0,2026-03-30T01:04:35.470684+05:30
Ajmer,Rajasthan,26.4499,74.6399,24.0,60,0.0,953.5,7.25,32.0,47,50.4,14.3,0,5,7,0,2026-03-30T01:04:35.470690+05:30
Gwalior,Madhya Pradesh,26.2183,78.1828,26.3,60,0.0,981.5,6.4,37.1,77,49.8,25.8,4,5,7,1,2026-03-30T01:04:35.470696+05:30
Indore,Madhya Pradesh,22.7196,75.8577,23.8,68,0.0,947.3,7.75,22.7,50,32.6,17.8,3,5,7,1,2026-03-30T01:04:35.470703+05:30
Bhopal,Madhya Pradesh,23.2599,77.4126,25.5,50,0.0,952.7,8.2,31.0,38,20.7,11.4,4,5,7,0,2026-03-30T01:04:35.470709+05:30
Jabalpur,Madhya Pradesh,23.1815,79.9864,25.1,66,0.0,959.5,8.35,25.9,58,28.8,20.4,7,5,7,1,2026-03-30T01:04:35.470715+05:30
Ujjain,Madhya Pradesh,23.1765,75.7885,24.0,69,0.0,952.9,7.75,25.2,50,32.6,17.6,3,5,7,1,2026-03-30T01:04:35.470722+05:30
Visakhapatnam,Andhra Pradesh,17.6868,83.2185,27.1,87,0.0,1002.4,9.0,38.5,66,22.5,16.6,7,5,4,1,2026-03-30T01:04:35.470729+05:30
Vijayawada,Andhra Pradesh,16.5062,80.648,26.7,92,0.0,1001.1,9.1,29.5,81,19.1,16.2,7,5,4,1,2026-03-30T01:04:35.470735+05:30
Guntur,Andhra Pradesh,16.3067,80.4365,26.9,92,0.0,1002.2,9.1,31.3,90,21.2,18.5,7,5,4,1,2026-03-30T01:04:35.470742+05:30
Nellore,Andhra Pradesh,14.4426,79.9865,26.5,90,0.0,1004.3,9.25,31.7,67,14.2,11.1,7,5,4,1,2026-03-30T01:04:35.470749+05:30
Kurnool,Andhra Pradesh,15.8281,78.0373,29.6,50,0.0,974.5,8.35,25.2,99,54.0,49.0,4,5,7,1,2026-03-30T01:04:35.470757+05:30
Kakinada,Andhra Pradesh,16.9891,82.2475,25.8,95,0.0,1006.3,9.05,28.8,54,18.0,11.4,7,5,4,1,2026-03-30T01:04:35.470763+05:30
Tirupati,Andhra Pradesh,13.6288,79.4192,26.3,88,0.0,990.9,9.35,29.5,97,26.7,25.5,7,5,7,1,2026-03-30T01:04:35.470769+05:30
Warangal,Telangana,17.9689,79.5941,27.9,72,0.0,976.5,8.9,32.4,101,43.8,41.7,7,5,7,1,2026-03-30T01:04:35.470775+05:30
Nizamabad,Telangana,18.6725,78.0941,27.6,52,0.0,962.3,8.85,43.6,72,43.3,39.1,4,5,7,1,2026-03-30T01:04:35.470782+05:30
Mysore,Karnataka,12.2958,76.6396,23.7,87,0.0,927.5,8.9,22.0,124,53.8,48.8,3,5,7,1,2026-03-30T01:04:35.470788+05:30
Mangalore,Karnataka,12.9141,74.856,29.3,81,0.0,1004.5,9.05,24.1,80,32.6,19.7,7,5,4,1,2026-03-30T01:04:35.470794+05:30
Hubli-Dharwad,Karnataka,15.3647,75.124,24.3,75,0.0,938.7,9.15,30.2,80,29.0,19.7,3,5,7,1,2026-03-30T01:04:35.470801+05:30
Belgaum,Karnataka,15.8497,74.4977,21.8,83,0.0,923.5,9.2,30.2,64,22.9,18.6,3,5,7,1,2026-03-30T01:04:38.834306+05:30
Coimbatore,Tamil Nadu,11.0168,76.9558,25.1,83,0.0,960.7,9.45,27.7,96,60.1,54.7,7,5,7,1,2026-03-30T01:04:38.834338+05:30
Madurai,Tamil Nadu,9.9252,78.1198,26.5,82,0.0,992.0,9.4,34.9,80,27.4,26.0,7,5,7,1,2026-03-30T01:04:38.834348+05:30
Trichy,Tamil Nadu,10.7905,78.7047,26.2,93,0.0,998.9,9.35,22.0,71,20.3,18.7,7,5,7,1,2026-03-30T01:04:38.834356+05:30
Salem,Tamil Nadu,11.6643,78.146,28.0,72,0.0,976.4,9.4,19.8,80,29.8,28.1,7,5,7,1,2026-03-30T01:04:38.834364+05:30
Tirunelveli,Tamil Nadu,8.7139,77.7567,26.6,78,0.0,1001.9,9.4,50.8,71,33.4,31.5,7,5,4,1,2026-03-30T01:04:38.834372+05:30
Vellore,Tamil Nadu,12.9165,79.1325,26.4,87,0.0,983.7,8.6,30.2,107,34.5,32.9,7,5,7,1,2026-03-30T01:04:38.834379+05:30
Erode,Tamil Nadu,11.341,77.7172,28.2,74,0.0,988.0,9.4,19.8,93,18.2,17.1,7,5,7,1,2026-03-30T01:04:38.834386+05:30
Kochi,Kerala,9.9312,76.2673,28.4,82,0.0,1007.0,9.2,28.8,89,46.6,44.6,7,5,4,1,2026-03-30T01:04:38.834393+05:30
Thiruvananthapuram,Kerala,8.5241,76.9366,28.4,84,0.0,1006.4,9.25,30.6,75,29.3,23.7,7,5,4,1,2026-03-30T01:04:38.834401+05:30
Kozhikode,Kerala,11.2588,75.7804,28.4,83,0.0,1005.9,6.6,25.6,117,30.6,26.3,7,5,4,1,2026-03-30T01:04:38.834408+05:30
Thrissur,Kerala,10.5276,76.2144,27.8,87,0.0,1005.2,9.15,28.1,88,50.3,45.8,7,5,4,1,2026-03-30T01:04:38.834415+05:30
Kannur,Kerala,11.8745,75.3704,28.9,81,0.0,1005.2,7.9,23.0,84,23.6,20.9,7,5,4,1,2026-03-30T01:04:38.834422+05:30
Patna,Bihar,25.5941,85.1376,23.2,87,0.0,1000.4,8.1,31.7,138,73.6,65.9,3,5,4,1,2026-03-30T01:04:38.834429+05:30
Gaya,Bihar,24.7914,85.0002,23.2,84,0.0,993.3,8.2,21.2,106,58.8,48.5,3,5,7,1,2026-03-30T01:04:38.834436+05:30
Muzaffarpur,Bihar,26.1209,85.3647,21.7,88,0.0,1000.9,8.1,33.8,148,80.1,71.0,3,5,4,1,2026-03-30T01:04:38.834442+05:30
Bhagalpur,Bihar,25.2425,87.0117,22.0,96,0.0,1002.1,8.1,20.9,145,69.8,60.8,3,5,4,1,2026-03-30T01:04:38.834449+05:30
Ranchi,Jharkhand,23.3441,85.3096,22.8,83,0.0,936.9,8.7,35.3,104,36.4,19.8,3,5,7,1,2026-03-30T01:04:38.834456+05:30
Jamshedpur,Jharkhand,22.8046,86.2029,26.4,88,0.0,989.9,8.6,30.6,140,73.3,61.0,7,5,7,1,2026-03-30T01:04:38.834463+05:30
Dhanbad,Jharkhand,23.7957,86.4304,25.3,78,0.0,979.7,8.55,36.7,159,102.9,95.5,7,5,7,1,2026-03-30T01:04:38.834470+05:30
Bokaro,Jharkhand,23.6693,86.1511,24.8,84,0.0,983.7,8.55,27.7,157,87.1,75.2,3,5,7,1,2026-03-30T01:04:38.834478+05:30
Bhubaneswar,Odisha,20.2961,85.8245,26.8,86,0.0,1001.4,8.8,41.0,75,20.5,16.3,7,5,4,1,2026-03-30T01:04:38.834485+05:30
Cuttack,Odisha,20.4625,85.8828,26.8,87,0.0,1003.3,8.85,38.5,75,20.5,16.3,7,5,4,1,2026-03-30T01:04:38.834492+05:30
Rourkela,Odisha,22.2604,84.8536,28.4,69,0.0,983.5,8.5,27.4,122,53.1,43.0,7,5,7,1,2026-03-30T01:04:38.834499+05:30
Raipur,Chhattisgarh,21.2514,81.6296,28.1,40,0.0,971.9,8.6,26.3,105,47.7,44.9,4,5,7,0,2026-03-30T01:04:38.834505+05:30
Bhilai,Chhattisgarh,21.1938,81.3509,26.9,45,0.0,972.2,8.65,29.2,83,29.9,26.1,4,5,7,0,2026-03-30T01:04:38.834511+05:30
Guwahati,Assam,26.1158,91.7086,21.1,94,0.0,1003.2,7.55,20.9,117,60.3,50.1,3,5,4,1,2026-03-30T01:04:38.834518+05:30
Agartala,Tripura,23.8315,91.2868,22.4,93,0.0,1006.6,8.25,28.8,134,38.9,34.5,3,5,4,1,2026-03-30T01:04:38.834524+05:30
Shillong,Meghalaya,25.5788,91.8933,10.9,93,0.0,853.9,6.6,38.2,85,55.6,44.0,3,10,7,0,2026-03-30T01:04:38.834532+05:30
Imphal,Manipur,24.817,93.9368,16.0,89,0.0,922.8,7.95,58.3,136,90.3,73.6,3,10,7,0,2026-03-30T01:04:38.834539+05:30
Aizawl,Mizoram,23.7271,92.7176,16.2,95,0.0,891.7,8.45,52.2,153,56.1,49.0,3,10,7,0,2026-03-30T01:04:38.834545+05:30
Kohima,Nagaland,25.6701,94.1077,12.6,82,0.0,853.3,8.5,71.6,108,65.4,49.9,3,10,7,0,2026-03-30T01:04:38.834551+05:30
Gangtok,Sikkim,27.3314,88.6138,12.5,86,0.0,835.3,8.25,20.2,72,44.0,37.1,3,10,7,0,2026-03-30T01:04:38.834558+05:30
Siliguri,West Bengal,26.7271,88.3953,17.9,86,0.0,995.3,7.7,16.6,133,90.3,69.4,3,10,7,0,2026-03-30T01:04:42.183639+05:30
Durgapur,West Bengal,23.5204,87.3119,24.5,88,0.0,995.1,8.5,24.5,159,89.4,83.4,3,5,7,1,2026-03-30T01:04:42.183672+05:30
Asansol,West Bengal,23.6739,86.9524,25.0,83,0.0,993.7,8.5,25.6,156,89.6,84.3,7,5,7,1,2026-03-30T01:04:42.183684+05:30
Pondicherry,Puducherry,11.9139,79.8145,25.9,96,0.0,1007.5,9.25,28.1,51,15.0,10.7,7,5,4,1,2026-03-30T01:04:42.183694+05:30
Port Blair,Andaman and Nicobar Islands,11.6234,92.7265,28.3,77,0.0,1005.8,9.2,16.6,72,27.8,21.9,7,5,4,1,2026-03-30T01:04:42.183702+05:30
Haridwar,Uttarakhand,29.9457,78.1642,22.5,72,0.0,973.6,6.0,22.7,85,43.4,33.8,3,5,3,1,2026-03-30T01:04:42.183711+05:30
Rishikesh,Uttarakhand,30.0869,78.2676,21.8,69,0.0,966.7,5.9,20.9,70,54.7,25.4,3,5,3,0,2026-03-30T01:04:42.183719+05:30
Nainital,Uttarakhand,29.3919,79.4542,18.5,54,0.0,805.7,7.4,46.1,77,50.9,31.3,0,5,7,0,2026-03-30T01:04:42.183727+05:30
Mussoorie,Uttarakhand,30.4599,78.0664,16.5,59,0.0,802.3,6.95,35.3,84,46.3,29.7,0,5,7,0,2026-03-30T01:04:42.183735+05:30
Dharamshala,Himachal Pradesh,32.219,76.3234,19.6,46,0.0,868.2,5.2,40.3,44,12.9,11.5,0,5,3,0,2026-03-30T01:04:42.183742+05:30
Dalhousie,Himachal Pradesh,32.5387,75.971,15.7,55,0.0,802.2,6.05,46.4,82,48.4,30.0,0,5,7,0,2026-03-30T01:04:42.183750+05:30
Patiala,Punjab,30.3398,76.3869,21.7,78,0.0,977.5,5.65,24.1,195,290.6,50.4,3,5,3,1,2026-03-30T01:04:42.183758+05:30
Bhatinda,Punjab,30.211,74.9455,22.7,78,0.0,982.4,3.5,40.3,177,474.0,97.8,3,5,3,1,2026-03-30T01:04:42.183766+05:30
Rohtak,Haryana,28.8955,76.6066,22.5,74,0.0,980.4,6.8,23.0,287,435.9,89.6,3,5,7,1,2026-03-30T01:04:42.183773+05:30
Panipat,Haryana,29.3909,76.9635,22.2,75,0.0,979.1,6.4,24.5,436,285.0,72.6,3,5,7,1,2026-03-30T01:04:42.183781+05:30
Mathura,Uttar Pradesh,27.4924,77.6737,24.1,69,0.0,985.5,6.3,36.7,243,466.6,75.7,3,5,7,1,2026-03-30T01:04:42.183788+05:30
Vrindavan,Uttar Pradesh,27.5823,77.7027,24.1,70,0.0,986.1,6.3,36.7,243,466.6,75.7,3,5,7,1,2026-03-30T01:04:42.183795+05:30
Ayodhya,Uttar Pradesh,26.7922,82.1998,21.7,66,0.0,994.4,7.5,25.6,137,94.3,55.5,3,5,7,0,2026-03-30T01:04:42.183803+05:30
Ratlam,Madhya Pradesh,23.3315,75.0367,25.3,66,0.0,953.8,7.6,28.8,49,33.6,16.8,7,5,7,1,2026-03-30T01:04:42.183811+05:30
Sagar,Madhya Pradesh,23.8388,78.7378,27.2,51,0.0,948.6,8.2,40.0,38,21.1,11.4,4,5,7,1,2026-03-30T01:04:42.183818+05:30
Satna,Madhya Pradesh,24.6005,80.8322,25.7,49,0.0,970.0,8.2,41.4,62,38.4,17.4,4,5,7,0,2026-03-30T01:04:42.183826+05:30
Akola,Maharashtra,20.7002,77.0082,27.2,57,0.0,973.8,8.55,31.3,53,15.2,10.6,4,5,7,1,2026-03-30T01:04:42.183834+05:30
Amravati,Maharashtra,20.9374,77.7796,26.8,54,0.0,965.5,8.55,19.4,52,17.2,11.5,4,5,7,1,2026-03-30T01:04:42.183842+05:30
Latur,Maharashtra,18.4088,76.5604,25.7,49,0.0,937.7,8.4,36.7,51,31.5,19.3,4,5,7,0,2026-03-30T01:04:42.183850+05:30
Nanded,Maharashtra,19.1383,77.3091,27.0,52,0.0,966.3,7.2,52.9,56,33.3,22.2,4,5,7,1,2026-03-30T01:04:42.183858+05:30
Gulbarga,Karnataka,17.3297,76.8343,29.2,44,0.0,956.4,8.9,30.2,57,23.6,22.1,4,5,7,0,2026-03-30T01:04:42.183865+05:30
Bidar,Karnataka,17.9104,77.5199,27.5,51,0.0,933.4,8.1,29.5,68,32.4,29.1,4,5,7,1,2026-03-30T01:04:42.183893+05:30
Hospet,Karnataka,15.2689,76.3909,28.0,61,0.0,953.6,8.25,31.3,76,30.9,27.5,7,5,7,1,2026-03-30T01:04:42.183903+05:30
Tirupur,Tamil Nadu,11.1085,77.3411,26.8,81,0.0,974.2,9.5,19.1,112,45.6,42.3,7,5,7,1,2026-03-30T01:04:42.183910+05:30
Alappuzha,Kerala,9.4981,76.3388,28.2,85,0.0,1007.2,9.2,25.6,88,48.1,43.2,7,5,4,1,2026-03-30T01:04:42.183917+05:30
Munnar,Kerala,10.0889,77.0595,20.6,87,0.0,855.4,7.65,28.1,88,44.1,41.9,3,5,7,1,2026-03-30T01:04:42.183925+05:30
Silchar,Assam,24.8333,92.7789,21.5,88,0.0,1006.0,8.35,29.2,151,97.1,73.6,3,5,4,1,2026-03-30T01:04:42.183933+05:30
Dibrugarh,Assam,27.4728,94.912,20.2,90,0.0,997.9,6.75,11.2,71,26.5,23.9,3,5,7,1,2026-03-30T01:04:42.183941+05:30
