city,state,latitude,longitude,temp,humidity,rain,pressure,uv_index,wind_gusts,aqi,pm10,pm2_5,no2,co,o3,so2,mosquito_risk,arthritis_risk,migraine_risk,frizz_risk,updated_at
Delhi,Delhi,28.6139,77.209,37.3,34,0.0,977.5,7.8,35.3,349,341.8,85.4,11.2,279.0,136.0,11.2,0,5,10,1,2026-06-19T17:38:57.126174+05:30
Mumbai,Maharashtra,19.076,72.8777,31.8,58,0.0,1006.6,7.7,43.2,58,25.2,14.2,6.6,159.0,60.0,6.0,0,5,4,1,2026-06-19T17:38:57.126212+05:30
Bangalore,Karnataka,12.9716,77.5946,24.7,74,0.2,910.7,6.65,29.2,56,18.8,15.5,22.9,1047.0,92.0,6.7,6,5,7,1,2026-06-19T17:38:57.126227+05:30
Hyderabad,Telangana,17.385,78.4867,33.9,38,0.0,950.9,8.8,37.4,74,25.8,17.6,7.6,296.0,115.0,6.2,0,5,7,1,2026-06-19T17:38:57.126236+05:30
Chennai,Tamil Nadu,13.0827,80.2707,30.9,73,0.1,1004.0,7.6,36.4,110,34.8,26.3,7.4,314.0,158.0,10.5,6,5,4,1,2026-06-19T17:38:57.126244+05:30
Kolkata,West Bengal,22.5726,88.3639,29.6,84,0.0,1001.4,9.0,27.4,108,45.4,41.2,14.7,438.0,104.0,12.3,7,5,4,1,2026-06-19T17:38:57.126252+05:30
Pune,Maharashtra,18.5204,73.8567,31.2,43,0.0,946.7,8.25,47.2,50,14.6,9.2,2.8,131.0,84.0,3.2,0,5,7,1,2026-06-19T17:38:57.126258+05:30
Ahmedabad,Gujarat,23.0225,72.5714,34.4,48,0.0,998.2,6.65,41.8,68,50.3,18.9,3.2,153.0,80.0,2.8,0,5,7,1,2026-06-19T17:38:57.126264+05:30
Jaipur,Rajasthan,26.9124,75.7873,35.0,37,0.0,956.0,8.2,27.4,120,211.4,51.3,3.0,157.0,91.0,2.5,0,5,7,1,2026-06-19T17:38:57.126270+05:30
Lucknow,Uttar Pradesh,26.8467,80.9462,39.0,33,0.0,986.5,8.35,36.0,157,221.7,54.8,3.0,193.0,116.0,3.8,0,5,10,1,2026-06-19T17:38:57.126280+05:30
Kanpur,Uttar Pradesh,26.4499,80.3319,39.6,28,0.0,985.1,8.3,37.8,156,190.9,49.6,3.1,168.0,112.0,3.8,0,5,10,1,2026-06-19T17:38:57.126287+05:30
Chandigarh,Chandigarh,30.7333,76.7794,33.6,45,0.0,964.3,7.8,24.8,175,49.6,37.6,4.6,427.0,176.0,10.2,0,5,7,1,2026-06-19T17:38:57.126294+05:30
Srinagar,Jammu and Kashmir,34.0837,74.7973,23.2,55,0.0,842.8,7.7,32.8,98,13.7,11.4,7.1,301.0,115.0,1.8,0,5,7,0,2026-06-19T17:38:57.126300+05:30
Jammu,Jammu and Kashmir,32.7266,74.857,34.7,33,0.0,968.7,8.6,60.8,131,33.4,21.0,3.3,261.0,151.0,2.8,0,5,7,0,2026-06-19T17:38:57.126308+05:30
Amritsar,Punjab,31.634,74.8723,33.9,48,0.0,976.1,8.4,26.3,154,65.9,41.4,5.1,472.0,181.0,9.3,0,5,7,1,2026-06-19T17:38:57.126315+05:30
Ludhiana,Punjab,30.901,75.8573,35.1,41,0.0,973.8,8.05,25.9,162,85.9,44.2,3.6,264.0,158.0,5.6,0,5,10,1,2026-06-19T17:38:57.126321+05:30
Jalandhar,Punjab,31.326,75.5762,34.8,41,0.0,974.9,8.25,28.1,158,84.8,43.0,3.5,315.0,160.0,5.7,0,5,7,1,2026-06-19T17:38:57.126327+05:30
Dehradun,Uttarakhand,30.6284,78.0322,20.1,84,0.0,829.7,7.7,33.5,117,32.4,24.2,3.4,263.0,149.0,2.2,3,5,7,1,2026-06-19T17:38:57.126334+05:30
Shimla,Himachal Pradesh,31.1048,77.1734,18.9,70,0.1,784.7,7.75,28.1,123,44.1,29.4,2.3,245.0,168.0,7.8,6,5,7,0,2026-06-19T17:38:57.126343+05:30
Manali,Himachal Pradesh,32.2396,77.1887,21.8,63,0.0,819.3,9.45,34.2,95,9.5,7.4,20.3,156.0,129.0,0.7,3,5,7,0,2026-06-19T17:38:57.126351+05:30
Gurgaon,Haryana,28.4595,77.0266,36.5,37,0.0,976.1,7.9,32.0,478,327.8,79.2,9.3,239.0,139.0,9.5,0,5,10,1,2026-06-19T17:38:57.126358+05:30
Noida,Uttar Pradesh,28.5355,77.391,36.5,39,0.0,978.6,7.85,29.2,478,327.8,79.2,9.3,345.0,139.0,9.5,0,5,10,1,2026-06-19T17:38:57.126364+05:30
Ghaziabad,Uttar Pradesh,28.6692,77.4538,35.5,47,0.1,976.9,7.8,24.5,203,338.1,101.3,10.6,241.0,167.0,17.9,3,5,10,1,2026-06-19T17:38:57.126370+05:30
Faridabad,Haryana,28.4089,77.3178,36.9,36,0.0,978.2,7.9,34.2,478,327.8,79.2,9.3,236.0,139.0,9.5,0,5,10,1,2026-06-19T17:38:57.126376+05:30
Meerut,Uttar Pradesh,28.9845,77.7064,35.1,45,0.0,976.0,7.75,28.4,203,338.1,101.3,10.6,205.0,167.0,17.9,0,5,10,1,2026-06-19T17:38:57.126382+05:30
Agra,Uttar Pradesh,27.1767,78.0081,37.5,34,0.0,982.2,8.15,34.2,433,96.2,31.7,3.8,153.0,108.0,2.7,0,5,10,1,2026-06-19T17:38:57.126388+05:30
Varanasi,Uttar Pradesh,25.3176,82.9739,39.1,29,0.0,990.6,8.8,34.2,105,95.9,39.9,3.2,242.0,133.0,6.3,0,5,10,1,2026-06-19T17:38:57.126394+05:30
Prayagraj,Uttar Pradesh,25.4358,81.8463,39.8,27,0.0,989.1,8.7,36.4,112,102.9,41.7,2.7,175.0,117.0,4.6,0,5,10,1,2026-06-19T17:38:57.126401+05:30
Gorakhpur,Uttar Pradesh,26.7606,83.3732,36.7,44,0.0,989.9,8.7,29.5,168,89.6,49.2,6.2,287.0,148.0,10.1,0,5,10,1,2026-06-19T17:38:57.126407+05:30
Bareilly,Uttar Pradesh,28.367,79.4304,36.0,39,0.0,980.6,8.15,31.0,151,183.9,65.9,3.4,270.0,160.0,9.5,0,5,10,1,2026-06-19T17:38:57.126415+05:30
Aligarh,Uttar Pradesh,27.8974,78.088,36.6,38,0.0,979.9,8.0,33.1,298,609.1,102.0,5.4,173.0,131.0,8.1,0,5,10,1,2026-06-19T17:38:57.126421+05:30
Moradabad,Uttar Pradesh,28.8386,78.7733,35.9,43,0.0,977.8,7.95,31.7,167,174.2,75.4,5.5,312.0,186.0,13.7,0,5,10,1,2026-06-19T17:38:57.126427+05:30
Saharanpur,Uttar Pradesh,29.9637,77.546,33.9,51,0.0,970.5,7.55,27.4,179,256.1,73.3,6.7,316.0,166.0,11.8,0,5,7,1,2026-06-19T17:38:57.126433+05:30
Jhansi,Uttar Pradesh,25.4484,78.5685,37.4,35,0.0,972.9,8.5,36.0,75,41.7,19.5,1.9,134.0,96.0,3.3,0,5,10,1,2026-06-19T17:39:00.358343+05:30
Surat,Gujarat,21.1702,72.8311,31.7,64,0.0,1004.3,7.6,45.4,68,27.0,17.1,12.2,269.0,43.0,30.4,3,5,4,1,2026-06-19T17:39:00.358369+05:30
Vadodara,Gujarat,22.3072,73.1812,34.3,44,0.0,1000.9,7.85,42.8,62,31.5,16.4,4.1,149.0,88.0,5.1,0,5,4,1,2026-06-19T17:39:00.358379+05:30
Rajkot,Gujarat,22.3039,70.8022,36.1,35,0.0,990.3,7.5,44.3,62,57.4,19.7,1.4,106.0,76.0,2.6,0,5,10,1,2026-06-19T17:39:00.358387+05:30
Thane,Maharashtra,19.2183,72.9781,33.0,51,0.0,1005.8,7.7,40.0,58,25.2,14.2,6.6,152.0,60.0,6.0,0,5,4,1,2026-06-19T17:39:00.358394+05:30
Nagpur,Maharashtra,21.1458,79.0882,37.0,29,0.0,970.0,8.85,39.2,85,24.4,15.1,5.4,147.0,117.0,12.3,0,5,10,1,2026-06-19T17:39:00.358401+05:30
Nashik,Maharashtra,19.9975,73.7898,31.5,41,0.0,943.9,8.05,42.1,50,16.4,10.2,1.6,117.0,85.0,1.8,0,5,7,1,2026-06-19T17:39:00.358408+05:30
Aurangabad,Maharashtra,19.8762,75.3433,35.3,24,0.0,941.7,8.95,42.8,47,20.1,12.3,1.7,130.0,121.0,4.3,0,5,10,0,2026-06-19T17:39:00.358414+05:30
Solapur,Maharashtra,17.6599,75.9064,35.3,31,0.0,954.7,8.3,41.8,50,19.4,11.6,1.8,130.0,113.0,1.9,0,5,10,0,2026-06-19T17:39:00.358421+05:30
Kolhapur,Maharashtra,16.705,74.2433,28.6,59,0.1,946.7,8.0,43.6,51,16.4,9.9,3.0,121.0,81.0,1.5,7,5,7,1,2026-06-19T17:39:00.358428+05:30
Goa,Goa,15.2993,74.124,31.3,60,0.0,996.3,8.4,28.1,60,20.7,10.5,1.0,110.0,54.0,1.3,0,5,7,1,2026-06-19T17:39:00.358435+05:30
Jodhpur,Rajasthan,26.2389,73.0243,36.5,38,0.0,978.3,8.4,36.7,96,188.1,38.0,1.2,115.0,83.0,1.4,0,5,10,1,2026-06-19T17:39:00.358441+05:30
Udaipur,Rajasthan,24.5854,73.7125,30.5,55,0.0,944.0,7.9,41.8,61,63.1,25.6,1.3,133.0,85.0,2.0,0,5,7,1,2026-06-19T17:39:00.358447+05:30
Kota,Rajasthan,25.2138,75.8648,32.1,57,0.0,975.3,8.35,44.3,64,60.1,26.6,3.1,149.0,91.0,4.5,0,5,7,1,2026-06-19T17:39:00.358453+05:30
Bikaner,Rajasthan,28.0229,73.3119,36.1,42,0.0,976.7,8.45,55.1,105,147.1,41.7,0.7,115.0,86.0,2.4,0,5,10,1,2026-06-19T17:39:00.358459+05:30
Ajmer,Rajasthan,26.4499,74.6399,32.6,49,0.0,951.2,8.35,33.5,79,117.3,39.3,1.9,139.0,85.0,1.9,0,5,7,1,2026-06-19T17:39:00.358465+05:30
Gwalior,Madhya Pradesh,26.2183,78.1828,37.4,32,0.0,978.1,8.3,37.1,95,65.7,23.9,1.2,142.0,93.0,1.5,0,5,10,1,2026-06-19T17:39:00.358471+05:30
Indore,Madhya Pradesh,22.7196,75.8577,31.8,39,0.0,946.1,8.6,47.9,62,16.5,9.9,2.4,206.0,89.0,1.7,0,5,7,1,2026-06-19T17:39:00.358477+05:30
Bhopal,Madhya Pradesh,23.2599,77.4126,30.0,62,0.1,950.9,8.7,49.7,64,31.1,16.5,1.5,203.0,102.0,3.5,10,5,7,1,2026-06-19T17:39:00.358484+05:30
Jabalpur,Madhya Pradesh,23.1815,79.9864,35.0,39,0.0,957.9,8.0,31.7,64,26.3,15.0,1.7,157.0,109.0,2.7,0,5,7,1,2026-06-19T17:39:00.358490+05:30
Ujjain,Madhya Pradesh,23.1765,75.7885,31.2,48,0.0,951.7,8.55,46.4,61,25.2,13.2,1.2,154.0,85.0,1.9,0,5,7,1,2026-06-19T17:39:00.358496+05:30
Visakhapatnam,Andhra Pradesh,17.6868,83.2185,30.8,84,0.1,999.4,8.85,30.6,142,39.0,34.8,20.4,421.0,162.0,47.3,6,5,7,1,2026-06-19T17:39:00.358503+05:30
Vijayawada,Andhra Pradesh,16.5062,80.648,35.8,46,0.0,998.1,8.75,27.4,79,27.8,23.7,7.5,249.0,126.0,6.6,0,5,10,1,2026-06-19T17:39:00.358509+05:30
Guntur,Andhra Pradesh,16.3067,80.4365,35.5,45,0.0,999.4,8.9,30.2,77,26.3,21.7,5.7,237.0,133.0,5.8,0,5,10,1,2026-06-19T17:39:00.358516+05:30
Nellore,Andhra Pradesh,14.4426,79.9865,35.1,47,0.0,1002.1,6.9,35.3,90,30.9,22.9,4.9,184.0,131.0,6.5,0,5,7,1,2026-06-19T17:39:00.358523+05:30
Kurnool,Andhra Pradesh,15.8281,78.0373,33.5,43,0.0,974.1,8.0,38.2,64,24.0,16.9,4.1,149.0,117.0,10.8,0,5,7,1,2026-06-19T17:39:00.358530+05:30
Kakinada,Andhra Pradesh,16.9891,82.2475,34.6,55,0.0,1002.7,5.55,37.4,136,22.5,18.3,3.9,273.0,146.0,4.2,0,5,0,1,2026-06-19T17:39:00.358536+05:30
Tirupati,Andhra Pradesh,13.6288,79.4192,32.5,56,0.0,987.9,5.4,27.7,69,24.3,17.1,13.6,211.0,85.0,3.7,0,5,3,1,2026-06-19T17:39:00.358543+05:30
Warangal,Telangana,17.9689,79.5941,35.6,37,0.0,975.3,8.15,36.7,102,31.1,22.2,6.4,169.0,120.0,8.3,0,5,10,1,2026-06-19T17:39:00.358549+05:30
Nizamabad,Telangana,18.6725,78.0941,35.6,33,0.0,962.0,8.95,31.3,71,25.8,14.0,1.8,157.0,110.0,2.4,0,5,10,1,2026-06-19T17:39:00.358555+05:30
Mysore,Karnataka,12.2958,76.6396,24.8,80,0.1,927.5,6.9,23.4,54,13.0,9.1,10.7,214.0,79.0,2.1,6,5,7,1,2026-06-19T17:39:00.358562+05:30
Mangalore,Karnataka,12.9141,74.856,28.6,78,0.0,1005.7,6.95,28.4,62,24.9,11.9,3.9,115.0,63.0,2.5,7,5,4,1,2026-06-19T17:39:00.358569+05:30
Hubli-Dharwad,Karnataka,15.3647,75.124,28.4,60,0.1,939.7,8.9,44.6,50,21.8,11.3,3.2,129.0,83.0,1.2,7,5,7,1,2026-06-19T17:39:00.358575+05:30
Belgaum,Karnataka,15.8497,74.4977,26.4,69,0.1,924.8,8.9,34.6,52,18.9,11.0,3.3,118.0,70.0,1.8,10,5,7,1,2026-06-19T17:39:03.595272+05:30
Coimbatore,Tamil Nadu,11.0168,76.9558,27.1,75,0.0,960.8,8.35,30.2,39,9.6,6.7,6.2,202.0,70.0,2.3,7,5,7,1,2026-06-19T17:39:03.595304+05:30
Madurai,Tamil Nadu,9.9252,78.1198,27.0,89,0.3,992.5,8.1,32.8,74,18.2,12.1,7.6,276.0,113.0,2.8,10,5,7,1,2026-06-19T17:39:03.595315+05:30
Trichy,Tamil Nadu,10.7905,78.7047,31.4,61,0.0,997.6,8.15,40.0,55,19.0,12.2,4.5,214.0,114.0,2.5,3,5,7,1,2026-06-19T17:39:03.595324+05:30
Salem,Tamil Nadu,11.6643,78.146,31.2,57,0.0,975.5,8.0,27.4,101,17.3,14.3,8.9,271.0,131.0,9.9,0,5,7,1,2026-06-19T17:39:03.595331+05:30
Tirunelveli,Tamil Nadu,8.7139,77.7567,29.9,68,0.3,1002.1,8.1,36.4,48,14.5,9.3,3.5,202.0,91.0,1.4,10,5,4,1,2026-06-19T17:39:03.595339+05:30
Vellore,Tamil Nadu,12.9165,79.1325,33.3,54,0.0,981.4,8.05,35.3,72,23.2,15.9,5.9,277.0,118.0,3.3,0,5,7,1,2026-06-19T17:39:03.595346+05:30
Erode,Tamil Nadu,11.341,77.7172,30.5,62,0.0,987.3,7.25,21.6,55,13.2,10.1,7.8,231.0,102.0,2.6,3,5,7,1,2026-06-19T17:39:03.595353+05:30
Kochi,Kerala,9.9312,76.2673,28.3,77,0.0,1008.1,7.9,24.8,56,21.3,12.4,7.4,139.0,67.0,4.2,7,0,4,1,2026-06-19T17:39:03.595361+05:30
Thiruvananthapuram,Kerala,8.5241,76.9366,27.6,80,0.0,1007.8,7.4,34.6,58,32.9,16.6,2.6,121.0,84.0,1.8,7,5,4,1,2026-06-19T17:39:03.595368+05:30
Kozhikode,Kerala,11.2588,75.7804,28.4,77,0.0,1007.1,8.25,25.6,50,25.8,12.8,1.8,154.0,75.0,2.0,7,5,4,1,2026-06-19T17:39:03.595375+05:30
Thrissur,Kerala,10.5276,76.2144,28.5,76,0.0,1006.2,6.3,22.3,56,22.9,12.9,4.4,133.0,68.0,2.6,7,5,4,1,2026-06-19T17:39:03.595382+05:30
Kannur,Kerala,11.8745,75.3704,28.5,78,0.0,1006.2,7.75,26.6,62,23.5,12.1,4.1,118.0,69.0,2.1,7,5,4,1,2026-06-19T17:39:03.595388+05:30
Patna,Bihar,25.5941,85.1376,37.4,38,0.0,993.5,8.65,31.0,164,119.2,54.9,12.5,278.0,125.0,9.0,0,5,10,1,2026-06-19T17:39:03.595396+05:30
Gaya,Bihar,24.7914,85.0002,37.3,38,0.0,987.5,8.45,33.1,150,101.3,47.1,8.6,237.0,123.0,7.7,0,5,10,1,2026-06-19T17:39:03.595403+05:30
Muzaffarpur,Bihar,26.1209,85.3647,33.9,67,0.0,993.4,8.65,29.9,176,110.1,57.2,14.6,370.0,130.0,9.8,3,5,7,1,2026-06-19T17:39:03.595410+05:30
Bhagalpur,Bihar,25.2425,87.0117,35.8,49,0.0,994.2,8.45,34.6,205,78.5,59.8,8.7,254.0,185.0,21.8,0,5,10,1,2026-06-19T17:39:03.595416+05:30
Ranchi,Jharkhand,23.3441,85.3096,25.7,93,0.1,934.3,8.0,40.3,151,41.4,38.5,4.3,200.0,161.0,8.8,10,5,7,1,2026-06-19T17:39:03.595424+05:30
Jamshedpur,Jharkhand,22.8046,86.2029,27.2,94,0.4,986.9,8.85,34.6,157,56.8,50.2,9.9,308.0,165.0,27.8,10,5,7,1,2026-06-19T17:39:03.595431+05:30
Dhanbad,Jharkhand,23.7957,86.4304,29.9,73,0.0,975.8,7.85,41.4,167,74.0,65.9,23.4,979.0,169.0,64.2,7,5,7,1,2026-06-19T17:39:03.595438+05:30
Bokaro,Jharkhand,23.6693,86.1511,30.0,71,0.0,979.4,7.5,48.6,162,64.3,56.9,16.8,273.0,165.0,48.3,7,5,7,1,2026-06-19T17:39:03.595445+05:30
Bhubaneswar,Odisha,20.2961,85.8245,29.6,84,0.0,998.7,8.15,43.2,111,32.2,27.3,6.7,337.0,146.0,8.0,7,5,7,1,2026-06-19T17:39:03.595452+05:30
Cuttack,Odisha,20.4625,85.8828,29.2,86,0.1,1000.5,7.2,41.8,111,32.2,27.3,6.7,323.0,146.0,8.0,10,5,4,1,2026-06-19T17:39:03.595459+05:30
Rourkela,Odisha,22.2604,84.8536,30.5,76,0.0,981.2,9.0,39.2,153,42.3,38.2,6.5,338.0,159.0,13.0,3,5,7,1,2026-06-19T17:39:03.595465+05:30
Raipur,Chhattisgarh,21.2514,81.6296,30.8,60,0.1,971.0,7.55,51.1,100,35.0,24.4,10.2,162.0,123.0,25.5,3,5,7,1,2026-06-19T17:39:03.595472+05:30
Bhilai,Chhattisgarh,21.1938,81.3509,32.5,50,0.0,971.6,8.5,33.5,97,32.8,22.6,10.4,191.0,121.0,22.2,0,5,7,1,2026-06-19T17:39:03.595478+05:30
Guwahati,Assam,26.1158,91.7086,28.6,87,0.1,995.7,8.7,38.9,94,53.1,40.9,5.2,332.0,101.0,4.1,10,5,7,1,2026-06-19T17:39:03.595485+05:30
Agartala,Tripura,23.8315,91.2868,30.1,75,0.0,1001.7,8.0,30.2,91,38.6,32.9,10.8,209.0,96.0,5.3,3,5,4,1,2026-06-19T17:39:03.595491+05:30
Shillong,Meghalaya,25.5788,91.8933,22.1,86,0.1,854.5,7.9,28.1,57,20.2,16.4,6.9,253.0,90.0,2.6,6,5,7,1,2026-06-19T17:39:03.595497+05:30
Imphal,Manipur,24.817,93.9368,25.4,80,0.0,919.7,8.15,36.0,64,13.0,10.1,4.8,255.0,75.0,1.9,7,5,7,1,2026-06-19T17:39:03.595504+05:30
Aizawl,Mizoram,23.7271,92.7176,21.6,87,0.0,890.1,8.55,32.0,55,17.0,12.7,4.7,175.0,71.0,1.2,3,5,7,1,2026-06-19T17:39:03.595511+05:30
Kohima,Nagaland,25.6701,94.1077,20.8,98,0.0,852.6,7.85,22.0,53,10.2,8.4,4.7,231.0,70.0,1.4,3,5,7,1,2026-06-19T17:39:03.595517+05:30
Gangtok,Sikkim,27.3314,88.6138,20.2,95,0.1,834.7,8.45,33.5,80,8.2,7.3,8.7,339.0,112.0,4.0,6,5,7,1,2026-06-19T17:39:03.595524+05:30
Siliguri,West Bengal,26.7271,88.3953,28.8,79,0.0,987.1,6.45,20.5,106,58.7,48.8,16.0,634.0,108.0,7.8,7,5,7,1,2026-06-19T17:39:06.837656+05:30
Durgapur,West Bengal,23.5204,87.3119,30.1,80,0.0,990.4,8.85,33.8,166,86.8,78.9,34.2,649.0,135.0,66.5,3,5,7,1,2026-06-19T17:39:06.837687+05:30
Asansol,West Bengal,23.6739,86.9524,31.3,69,0.0,989.1,8.9,41.0,164,80.1,72.6,27.6,336.0,156.0,57.9,3,5,7,1,2026-06-19T17:39:06.837739+05:30
Pondicherry,Puducherry,11.9139,79.8145,30.3,81,0.0,1005.6,7.4,49.0,129,39.1,30.2,15.2,253.0,152.0,7.9,3,5,4,1,2026-06-19T17:39:06.837751+05:30
Port Blair,Andaman and Nicobar Islands,11.6234,92.7265,27.9,81,0.0,1006.7,8.75,33.1,27,10.3,4.9,0.5,112.0,46.0,0.4,7,5,4,1,2026-06-19T17:39:06.837761+05:30
Haridwar,Uttarakhand,29.9457,78.1642,34.4,47,0.0,968.8,7.65,25.9,170,115.5,54.1,3.5,323.0,177.0,10.5,0,5,7,1,2026-06-19T17:39:06.837769+05:30
Rishikesh,Uttarakhand,30.0869,78.2676,33.2,54,0.0,961.9,7.75,25.2,148,63.1,44.0,1.8,281.0,179.0,8.4,0,5,7,1,2026-06-19T17:39:06.837777+05:30
Nainital,Uttarakhand,29.3919,79.4542,21.1,70,0.1,805.4,8.6,31.7,159,53.0,38.2,2.7,268.0,158.0,6.1,6,5,7,0,2026-06-19T17:39:06.837789+05:30
Mussoorie,Uttarakhand,30.4599,78.0664,20.9,67,0.0,803.2,7.6,37.1,154,52.6,41.2,3.2,266.0,174.0,6.8,3,5,7,0,2026-06-19T17:39:06.837797+05:30
Dharamshala,Himachal Pradesh,32.219,76.3234,24.7,57,0.0,868.0,8.2,34.2,93,28.6,16.6,1.4,252.0,138.0,1.0,0,5,7,0,2026-06-19T17:39:06.837805+05:30
Dalhousie,Himachal Pradesh,32.5387,75.971,18.9,95,0.0,804.4,7.95,27.4,131,38.8,24.3,2.8,248.0,161.0,2.0,3,10,7,1,2026-06-19T17:39:06.837814+05:30
Patiala,Punjab,30.3398,76.3869,34.8,43,0.0,973.3,7.7,31.3,167,748.8,117.3,3.6,217.0,156.0,7.7,0,5,7,1,2026-06-19T17:39:06.837822+05:30
Bhatinda,Punjab,30.211,74.9455,35.8,40,0.0,978.8,8.3,27.0,144,102.4,37.3,3.7,196.0,131.0,8.6,0,5,10,1,2026-06-19T17:39:06.837830+05:30
Rohtak,Haryana,28.8955,76.6066,35.7,42,0.0,976.3,7.8,30.2,523,592.3,95.0,4.8,221.0,133.0,4.4,0,5,10,1,2026-06-19T17:39:06.837838+05:30
Panipat,Haryana,29.3909,76.9635,35.7,42,0.0,974.9,7.65,27.7,883,1691.3,216.5,6.6,220.0,141.0,10.7,0,5,10,1,2026-06-19T17:39:06.837846+05:30
Mathura,Uttar Pradesh,27.4924,77.6737,36.4,39,0.0,981.2,8.1,26.6,189,525.3,75.9,4.1,180.0,114.0,3.6,0,5,10,1,2026-06-19T17:39:06.837853+05:30
Vrindavan,Uttar Pradesh,27.5823,77.7027,36.4,40,0.0,981.5,8.1,26.6,189,525.3,75.9,4.1,175.0,114.0,3.6,0,5,10,1,2026-06-19T17:39:06.837861+05:30
Ayodhya,Uttar Pradesh,26.7922,82.1998,37.1,41,0.0,988.0,8.45,34.2,158,99.2,41.4,4.3,260.0,130.0,6.0,0,5,10,1,2026-06-19T17:39:06.837868+05:30
Ratlam,Madhya Pradesh,23.3315,75.0367,29.6,53,0.0,952.8,6.6,47.9,59,32.2,15.4,1.0,157.0,86.0,1.8,4,5,7,1,2026-06-19T17:39:06.837875+05:30
Sagar,Madhya Pradesh,23.8388,78.7378,34.7,39,0.0,946.7,8.75,34.2,58,31.9,15.8,1.0,141.0,106.0,2.5,0,5,7,1,2026-06-19T17:39:06.837883+05:30
Satna,Madhya Pradesh,24.6005,80.8322,37.1,34,0.0,966.4,8.8,36.0,78,55.8,25.7,1.2,145.0,112.0,3.2,0,5,10,1,2026-06-19T17:39:06.837890+05:30
Akola,Maharashtra,20.7002,77.0082,37.1,30,0.0,971.9,8.8,44.6,56,23.8,12.3,2.3,127.0,110.0,5.0,0,5,10,1,2026-06-19T17:39:06.837899+05:30
Amravati,Maharashtra,20.9374,77.7796,36.1,34,0.0,964.3,8.8,39.2,57,23.7,12.6,2.7,127.0,111.0,5.7,0,5,10,1,2026-06-19T17:39:06.837908+05:30
Latur,Maharashtra,18.4088,76.5604,34.5,32,0.0,937.8,8.8,27.0,60,18.1,11.2,1.6,130.0,107.0,2.3,0,5,7,0,2026-06-19T17:39:06.837916+05:30
Nanded,Maharashtra,19.1383,77.3091,36.3,31,0.0,965.8,8.85,35.3,58,21.2,12.6,1.9,142.0,111.0,2.4,0,5,10,1,2026-06-19T17:39:06.837923+05:30
Gulbarga,Karnataka,17.3297,76.8343,34.6,30,0.0,956.3,8.1,36.7,53,20.4,13.0,3.0,145.0,119.0,3.4,0,5,7,0,2026-06-19T17:39:06.837930+05:30
Bidar,Karnataka,17.9104,77.5199,33.3,38,0.0,933.5,8.45,32.8,66,24.9,15.3,3.5,161.0,119.0,4.5,0,5,7,1,2026-06-19T17:39:06.837938+05:30
Hospet,Karnataka,15.2689,76.3909,31.2,49,0.0,953.6,5.8,37.4,51,23.4,12.7,3.0,184.0,99.0,2.4,0,5,3,1,2026-06-19T17:39:06.837945+05:30
Tirupur,Tamil Nadu,11.1085,77.3411,29.7,64,0.0,974.0,8.4,33.1,50,12.6,9.3,6.7,257.0,97.0,3.3,7,5,7,1,2026-06-19T17:39:06.837952+05:30
Alappuzha,Kerala,9.4981,76.3388,28.5,77,0.0,1008.3,7.5,28.4,55,25.0,14.1,7.2,103.0,76.0,4.3,7,0,4,1,2026-06-19T17:39:06.837960+05:30
Munnar,Kerala,10.0889,77.0595,18.3,100,0.0,856.7,5.65,25.9,28,6.1,5.3,8.6,144.0,47.0,1.2,3,10,3,1,2026-06-19T17:39:06.837968+05:30
Silchar,Assam,24.8333,92.7789,28.3,89,0.0,1000.8,8.2,31.0,87,25.7,20.7,6.4,277.0,80.0,3.3,7,5,4,1,2026-06-19T17:39:06.837975+05:30
Dibrugarh,Assam,27.4728,94.912,27.3,94,0.0,989.7,8.9,28.4,82,26.3,23.1,7.7,299.0,97.0,2.4,7,5,7,1,2026-06-19T17:39:06.837983+05:30
