city,state,latitude,longitude,temp,humidity,rain,pressure,uv_index,wind_gusts,aqi,pm10,pm2_5,mosquito_risk,arthritis_risk,migraine_risk,frizz_risk,updated_at
Delhi,Delhi,28.6139,77.209,27.2,43,0.0,977.5,7.45,40.7,135,269.2,59.8,4,5,7,0,2026-04-30T03:31:33.379217+05:30
Mumbai,Maharashtra,19.076,72.8777,27.2,90,0.0,1006.0,8.05,40.3,76,48.3,23.6,7,5,4,1,2026-04-30T03:31:33.379258+05:30
Bangalore,Karnataka,12.9716,77.5946,24.1,67,0.0,910.9,9.55,36.7,103,38.9,35.6,3,5,7,1,2026-04-30T03:31:33.379273+05:30
Hyderabad,Telangana,17.385,78.4867,29.6,39,0.0,950.1,9.25,32.8,119,51.6,44.0,4,5,7,0,2026-04-30T03:31:33.379304+05:30
Chennai,Tamil Nadu,13.0827,80.2707,29.4,83,0.0,1005.8,9.2,54.4,55,13.0,9.9,7,5,4,1,2026-04-30T03:31:33.379315+05:30
Kolkata,West Bengal,22.5726,88.3639,27.1,95,0.0,1003.0,6.25,48.6,63,21.5,16.9,7,5,4,1,2026-04-30T03:31:33.379324+05:30
Pune,Maharashtra,18.5204,73.8567,24.0,67,0.0,945.9,8.6,50.0,63,35.0,17.5,3,5,7,1,2026-04-30T03:31:33.379336+05:30
Ahmedabad,Gujarat,23.0225,72.5714,29.2,55,0.0,997.6,8.2,42.1,54,33.1,13.5,4,5,7,1,2026-04-30T03:31:33.379344+05:30
Jaipur,Rajasthan,26.9124,75.7873,27.2,27,0.0,954.1,8.1,42.5,175,315.7,54.8,4,5,7,0,2026-04-30T03:31:33.379352+05:30
Lucknow,Uttar Pradesh,26.8467,80.9462,25.4,76,0.0,990.0,7.75,37.1,137,49.6,38.2,7,5,7,1,2026-04-30T03:31:33.379360+05:30
Kanpur,Uttar Pradesh,26.4499,80.3319,27.4,58,0.0,986.9,7.45,44.6,153,197.4,50.8,4,5,7,1,2026-04-30T03:31:33.379367+05:30
Chandigarh,Chandigarh,30.7333,76.7794,20.5,70,0.0,962.6,6.85,49.0,64,25.0,16.2,3,5,7,0,2026-04-30T03:31:33.379374+05:30
Srinagar,Jammu and Kashmir,34.0837,74.7973,8.4,100,0.0,836.6,7.75,36.0,94,46.3,42.8,3,10,7,0,2026-04-30T03:31:33.379382+05:30
Jammu,Jammu and Kashmir,32.7266,74.857,18.1,68,0.0,966.6,7.9,25.6,67,16.8,9.7,3,5,7,0,2026-04-30T03:31:33.379389+05:30
Amritsar,Punjab,31.634,74.8723,21.0,77,0.0,975.1,7.85,46.4,91,45.9,37.1,3,5,7,1,2026-04-30T03:31:33.379396+05:30
Ludhiana,Punjab,30.901,75.8573,23.2,64,0.0,972.8,7.05,38.2,98,82.0,52.3,3,5,7,1,2026-04-30T03:31:33.379403+05:30
Jalandhar,Punjab,31.326,75.5762,21.6,77,0.0,973.8,7.9,41.8,96,49.4,43.3,3,5,7,1,2026-04-30T03:31:33.379411+05:30
Dehradun,Uttarakhand,30.6284,78.0322,10.5,94,0.0,823.2,7.4,38.2,49,9.2,8.7,3,10,7,0,2026-04-30T03:31:33.379419+05:30
Shimla,Himachal Pradesh,31.1048,77.1734,8.1,75,0.0,776.0,7.95,34.9,52,12.8,9.2,3,5,7,0,2026-04-30T03:31:33.379426+05:30
Manali,Himachal Pradesh,32.2396,77.1887,9.1,78,0.1,810.8,8.9,38.5,52,2.6,2.0,6,5,7,0,2026-04-30T03:31:33.379432+05:30
Gurgaon,Haryana,28.4595,77.0266,25.4,49,0.0,975.6,7.6,39.2,781,666.8,107.6,4,5,7,0,2026-04-30T03:31:33.379439+05:30
Noida,Uttar Pradesh,28.5355,77.391,24.1,56,0.0,978.8,7.5,39.6,781,666.8,107.6,0,5,7,0,2026-04-30T03:31:33.379445+05:30
Ghaziabad,Uttar Pradesh,28.6692,77.4538,23.4,62,0.0,977.0,7.4,50.8,127,164.8,40.6,3,5,7,0,2026-04-30T03:31:33.379451+05:30
Faridabad,Haryana,28.4089,77.3178,26.5,45,0.0,978.3,7.5,41.8,781,666.8,107.6,4,5,7,0,2026-04-30T03:31:33.379458+05:30
Meerut,Uttar Pradesh,28.9845,77.7064,23.8,59,0.0,976.0,7.3,50.4,127,164.8,40.6,0,5,7,0,2026-04-30T03:31:33.379467+05:30
Agra,Uttar Pradesh,27.1767,78.0081,27.5,42,0.0,982.8,7.8,47.9,990,1158.6,143.9,4,5,7,0,2026-04-30T03:31:33.379473+05:30
Varanasi,Uttar Pradesh,25.3176,82.9739,27.2,53,0.0,992.9,8.5,37.4,105,41.9,33.5,4,5,7,1,2026-04-30T03:31:33.379482+05:30
Prayagraj,Uttar Pradesh,25.4358,81.8463,27.0,54,0.0,990.8,8.2,48.6,111,40.0,32.2,4,5,7,1,2026-04-30T03:31:33.379490+05:30
Gorakhpur,Uttar Pradesh,26.7606,83.3732,22.5,89,0.0,994.9,8.25,47.5,107,34.7,27.0,3,5,7,1,2026-04-30T03:31:33.379496+05:30
Bareilly,Uttar Pradesh,28.367,79.4304,24.9,63,0.0,982.4,7.7,47.2,99,71.7,42.8,3,5,7,1,2026-04-30T03:31:33.379503+05:30
Aligarh,Uttar Pradesh,27.8974,78.088,26.1,47,0.0,979.9,7.6,69.1,493,484.3,77.3,4,5,7,0,2026-04-30T03:31:33.379513+05:30
Moradabad,Uttar Pradesh,28.8386,78.7733,24.0,60,0.0,978.3,7.55,38.9,116,110.6,52.0,0,5,7,0,2026-04-30T03:31:33.379519+05:30
Saharanpur,Uttar Pradesh,29.9637,77.546,22.2,64,0.0,969.7,6.55,46.1,87,67.3,37.5,3,5,7,0,2026-04-30T03:31:33.379526+05:30
Jhansi,Uttar Pradesh,25.4484,78.5685,28.2,34,0.0,972.3,8.3,50.4,67,114.8,40.0,4,5,7,0,2026-04-30T03:31:36.631172+05:30
Surat,Gujarat,21.1702,72.8311,27.8,85,0.0,1003.5,7.85,48.6,68,30.6,17.1,7,5,4,1,2026-04-30T03:31:36.631206+05:30
Vadodara,Gujarat,22.3072,73.1812,27.4,82,0.0,1000.4,8.15,43.9,59,24.7,13.2,7,5,4,1,2026-04-30T03:31:36.631218+05:30
Rajkot,Gujarat,22.3039,70.8022,25.5,91,0.0,990.2,7.9,49.7,51,29.8,10.4,7,5,7,1,2026-04-30T03:31:36.631228+05:30
Thane,Maharashtra,19.2183,72.9781,27.0,90,0.0,1005.4,8.05,38.2,76,48.3,23.6,7,5,4,1,2026-04-30T03:31:36.631237+05:30
Nagpur,Maharashtra,21.1458,79.0882,30.7,23,0.0,968.9,8.9,52.9,58,16.5,11.5,0,5,7,0,2026-04-30T03:31:36.631245+05:30
Nashik,Maharashtra,19.9975,73.7898,23.0,73,0.0,942.7,8.3,54.4,58,48.7,17.9,3,5,7,1,2026-04-30T03:31:36.631254+05:30
Aurangabad,Maharashtra,19.8762,75.3433,25.9,47,0.0,941.4,9.05,53.3,50,38.4,13.3,4,5,7,0,2026-04-30T03:31:36.631262+05:30
Solapur,Maharashtra,17.6599,75.9064,28.6,41,0.0,955.1,9.05,36.7,72,21.5,17.9,4,5,7,0,2026-04-30T03:31:36.631271+05:30
Kolhapur,Maharashtra,16.705,74.2433,23.1,89,0.0,946.2,9.0,46.8,68,27.6,18.0,3,5,7,1,2026-04-30T03:31:36.631280+05:30
Goa,Goa,15.2993,74.124,27.8,96,0.0,996.5,8.95,35.3,69,47.6,25.4,7,5,7,1,2026-04-30T03:31:36.631346+05:30
Jodhpur,Rajasthan,26.2389,73.0243,29.8,31,0.0,976.4,8.3,46.8,130,159.7,32.5,4,5,7,0,2026-04-30T03:31:36.631360+05:30
Udaipur,Rajasthan,24.5854,73.7125,26.8,32,0.0,941.8,8.8,46.1,54,26.9,11.4,4,5,7,0,2026-04-30T03:31:36.631369+05:30
Kota,Rajasthan,25.2138,75.8648,30.2,30,0.0,973.2,8.3,46.4,63,41.1,20.3,0,5,7,0,2026-04-30T03:31:36.631379+05:30
Bikaner,Rajasthan,28.0229,73.3119,27.2,39,0.0,975.1,8.2,38.5,81,94.5,28.6,4,5,7,0,2026-04-30T03:31:36.631388+05:30
Ajmer,Rajasthan,26.4499,74.6399,29.2,29,0.0,948.0,8.25,61.2,82,119.0,26.5,4,5,7,0,2026-04-30T03:31:36.631399+05:30
Gwalior,Madhya Pradesh,26.2183,78.1828,28.2,38,0.0,977.7,8.05,48.6,172,210.5,52.7,4,5,7,0,2026-04-30T03:31:36.631409+05:30
Indore,Madhya Pradesh,22.7196,75.8577,27.1,41,0.0,944.6,8.6,45.4,48,24.8,13.0,4,5,7,0,2026-04-30T03:31:36.631415+05:30
Bhopal,Madhya Pradesh,23.2599,77.4126,29.1,24,0.0,949.6,8.65,61.6,49,22.6,14.1,4,5,7,0,2026-04-30T03:31:36.631421+05:30
Jabalpur,Madhya Pradesh,23.1815,79.9864,28.4,24,0.0,957.1,8.5,51.5,38,19.5,11.4,4,5,7,0,2026-04-30T03:31:36.631428+05:30
Ujjain,Madhya Pradesh,23.1765,75.7885,27.0,43,0.0,949.8,8.55,50.4,51,23.1,12.5,4,5,7,0,2026-04-30T03:31:36.631434+05:30
Visakhapatnam,Andhra Pradesh,17.6868,83.2185,27.7,92,0.0,1001.4,9.15,48.2,58,19.2,15.7,7,5,4,1,2026-04-30T03:31:36.631441+05:30
Vijayawada,Andhra Pradesh,16.5062,80.648,28.6,89,0.0,1000.0,9.2,41.8,70,16.5,13.8,7,5,4,1,2026-04-30T03:31:36.631447+05:30
Guntur,Andhra Pradesh,16.3067,80.4365,28.6,89,0.0,1001.1,9.2,40.7,75,14.6,12.5,7,5,4,1,2026-04-30T03:31:36.631454+05:30
Nellore,Andhra Pradesh,14.4426,79.9865,29.1,80,0.0,1003.6,9.25,44.6,61,9.9,9.3,7,5,4,1,2026-04-30T03:31:36.631460+05:30
Kurnool,Andhra Pradesh,15.8281,78.0373,31.8,36,0.0,974.1,9.2,54.7,116,43.1,36.7,0,5,7,0,2026-04-30T03:31:36.631467+05:30
Kakinada,Andhra Pradesh,16.9891,82.2475,28.2,91,0.0,1005.5,9.15,46.4,52,17.8,13.2,7,5,4,1,2026-04-30T03:31:36.631473+05:30
Tirupati,Andhra Pradesh,13.6288,79.4192,28.6,77,0.0,989.8,9.3,33.5,61,10.3,9.8,7,5,7,1,2026-04-30T03:31:36.631479+05:30
Warangal,Telangana,17.9689,79.5941,27.9,75,0.0,975.4,9.15,36.7,108,25.3,23.9,7,5,7,1,2026-04-30T03:31:36.631485+05:30
Nizamabad,Telangana,18.6725,78.0941,29.0,34,0.0,961.5,9.1,42.8,88,42.8,37.4,4,5,7,0,2026-04-30T03:31:36.631491+05:30
Mysore,Karnataka,12.2958,76.6396,23.0,91,0.0,927.5,9.45,60.8,94,34.1,26.0,3,5,7,1,2026-04-30T03:31:36.631497+05:30
Mangalore,Karnataka,12.9141,74.856,28.5,84,0.0,1005.4,8.9,34.9,77,53.7,31.8,7,5,4,1,2026-04-30T03:31:36.631503+05:30
Hubli-Dharwad,Karnataka,15.3647,75.124,24.5,93,0.0,939.7,9.2,48.6,73,25.4,15.9,3,5,7,1,2026-04-30T03:31:36.631509+05:30
Belgaum,Karnataka,15.8497,74.4977,23.8,92,0.0,924.6,9.2,47.2,67,37.3,18.8,3,5,7,1,2026-04-30T03:31:39.941917+05:30
Coimbatore,Tamil Nadu,11.0168,76.9558,25.4,87,0.0,960.4,9.35,58.7,75,24.6,19.6,7,5,7,1,2026-04-30T03:31:39.941944+05:30
Madurai,Tamil Nadu,9.9252,78.1198,28.8,72,0.0,991.5,9.25,55.1,63,21.7,21.1,7,5,7,1,2026-04-30T03:31:39.941954+05:30
Trichy,Tamil Nadu,10.7905,78.7047,28.4,82,0.0,998.3,9.25,47.2,50,9.1,8.8,7,5,7,1,2026-04-30T03:31:39.941961+05:30
Salem,Tamil Nadu,11.6643,78.146,28.7,69,0.0,976.2,9.35,40.0,60,8.9,8.7,7,5,7,1,2026-04-30T03:31:39.941969+05:30
Tirunelveli,Tamil Nadu,8.7139,77.7567,26.8,84,0.0,1001.6,9.15,55.4,51,15.7,14.7,7,5,4,1,2026-04-30T03:31:39.941975+05:30
Vellore,Tamil Nadu,12.9165,79.1325,28.0,78,0.0,983.4,9.35,40.3,65,14.0,13.5,7,5,7,1,2026-04-30T03:31:39.941982+05:30
Erode,Tamil Nadu,11.341,77.7172,28.0,77,0.0,987.8,9.3,49.7,80,32.6,28.8,7,5,7,1,2026-04-30T03:31:39.941989+05:30
Kochi,Kerala,9.9312,76.2673,25.5,90,0.0,1007.7,8.8,37.4,77,26.7,23.5,7,5,4,1,2026-04-30T03:31:39.941995+05:30
Thiruvananthapuram,Kerala,8.5241,76.9366,24.1,98,0.0,1006.7,8.75,41.4,43,9.9,7.2,3,5,4,1,2026-04-30T03:31:39.942001+05:30
Kozhikode,Kerala,11.2588,75.7804,25.6,96,0.0,1007.3,8.95,36.4,68,37.6,18.7,7,5,4,1,2026-04-30T03:31:39.942008+05:30
Thrissur,Kerala,10.5276,76.2144,25.1,94,0.0,1006.3,8.45,36.7,80,28.2,25.4,7,5,4,1,2026-04-30T03:31:39.942015+05:30
Kannur,Kerala,11.8745,75.3704,27.4,89,0.0,1006.0,9.0,33.1,75,44.0,26.8,7,5,4,1,2026-04-30T03:31:39.942021+05:30
Patna,Bihar,25.5941,85.1376,24.4,87,0.0,996.9,8.55,47.5,80,29.2,22.4,3,5,7,1,2026-04-30T03:31:39.942028+05:30
Gaya,Bihar,24.7914,85.0002,26.0,76,0.0,988.9,5.6,40.7,101,31.8,29.7,7,5,3,1,2026-04-30T03:31:39.942034+05:30
Muzaffarpur,Bihar,26.1209,85.3647,22.7,94,0.0,997.9,8.45,51.5,78,27.5,21.9,3,5,7,1,2026-04-30T03:31:39.942040+05:30
Bhagalpur,Bihar,25.2425,87.0117,23.7,87,0.0,998.9,7.4,43.9,57,15.6,14.1,3,5,7,1,2026-04-30T03:31:39.942046+05:30
Ranchi,Jharkhand,23.3441,85.3096,21.9,89,0.0,933.3,9.1,37.1,91,58.1,54.1,3,5,7,1,2026-04-30T03:31:39.942053+05:30
Jamshedpur,Jharkhand,22.8046,86.2029,23.6,96,0.0,987.5,8.95,48.2,120,42.5,41.7,3,5,7,1,2026-04-30T03:31:39.942059+05:30
Dhanbad,Jharkhand,23.7957,86.4304,24.0,90,0.0,976.6,8.4,43.6,155,57.4,56.5,3,5,7,1,2026-04-30T03:31:39.942065+05:30
Bokaro,Jharkhand,23.6693,86.1511,23.5,94,0.0,980.3,7.25,32.0,151,76.1,74.7,3,5,7,1,2026-04-30T03:31:39.942071+05:30
Bhubaneswar,Odisha,20.2961,85.8245,27.5,87,0.0,998.6,9.0,46.1,54,12.3,9.7,7,5,7,1,2026-04-30T03:31:39.942077+05:30
Cuttack,Odisha,20.4625,85.8828,27.5,87,0.0,1000.6,9.15,42.5,54,12.3,9.7,7,5,4,1,2026-04-30T03:31:39.942084+05:30
Rourkela,Odisha,22.2604,84.8536,25.9,73,0.0,980.6,8.9,56.5,113,47.4,44.1,7,5,7,1,2026-04-30T03:31:39.942090+05:30
Raipur,Chhattisgarh,21.2514,81.6296,30.6,32,0.0,970.3,8.95,50.0,97,37.0,34.5,0,5,7,0,2026-04-30T03:31:39.942096+05:30
Bhilai,Chhattisgarh,21.1938,81.3509,30.2,36,0.0,970.7,8.95,50.8,90,30.2,27.3,0,5,7,0,2026-04-30T03:31:39.942102+05:30
Guwahati,Assam,26.1158,91.7086,20.9,98,0.1,1002.9,7.7,36.7,64,23.4,17.8,6,5,4,1,2026-04-30T03:31:39.942108+05:30
Agartala,Tripura,23.8315,91.2868,20.9,94,0.0,1006.1,5.3,62.3,83,10.2,8.4,3,5,0,1,2026-04-30T03:31:39.942114+05:30
Shillong,Meghalaya,25.5788,91.8933,14.3,90,0.0,855.3,5.5,49.3,32,10.9,5.1,3,10,3,0,2026-04-30T03:31:39.942121+05:30
Imphal,Manipur,24.817,93.9368,14.7,96,0.0,923.2,9.0,25.6,80,25.4,24.7,3,10,7,0,2026-04-30T03:31:39.942126+05:30
Aizawl,Mizoram,23.7271,92.7176,13.3,100,0.0,890.5,5.6,38.5,80,15.4,11.3,3,10,3,0,2026-04-30T03:31:39.942132+05:30
Kohima,Nagaland,25.6701,94.1077,13.1,97,0.0,852.9,7.75,31.7,53,11.6,6.4,3,10,7,0,2026-04-30T03:31:39.942138+05:30
Gangtok,Sikkim,27.3314,88.6138,11.5,89,0.3,834.2,7.35,36.4,47,3.4,3.0,6,10,7,0,2026-04-30T03:31:39.942143+05:30
Siliguri,West Bengal,26.7271,88.3953,20.5,96,2.5,993.5,6.0,33.1,51,16.1,11.5,6,5,3,1,2026-04-30T03:31:43.228971+05:30
Durgapur,West Bengal,23.5204,87.3119,24.5,92,0.0,992.2,8.6,35.6,124,30.3,29.2,3,5,7,1,2026-04-30T03:31:43.229002+05:30
Asansol,West Bengal,23.6739,86.9524,24.2,90,0.0,990.7,8.0,31.0,144,34.3,33.4,3,5,7,1,2026-04-30T03:31:43.229012+05:30
Pondicherry,Puducherry,11.9139,79.8145,28.8,83,0.0,1007.4,9.25,52.2,48,9.0,7.0,7,5,4,1,2026-04-30T03:31:43.229021+05:30
Port Blair,Andaman and Nicobar Islands,11.6234,92.7265,25.8,87,0.0,1006.9,9.05,26.6,33,9.9,7.5,7,5,4,1,2026-04-30T03:31:43.229029+05:30
Haridwar,Uttarakhand,29.9457,78.1642,20.2,69,0.0,967.8,7.25,40.0,82,54.1,32.2,3,5,7,0,2026-04-30T03:31:43.229037+05:30
Rishikesh,Uttarakhand,30.0869,78.2676,18.0,78,0.0,960.5,7.35,28.1,81,73.8,31.8,3,5,7,0,2026-04-30T03:31:43.229045+05:30
Nainital,Uttarakhand,29.3919,79.4542,12.9,65,0.0,800.4,8.1,39.6,97,74.0,35.9,3,5,7,0,2026-04-30T03:31:43.229052+05:30
Mussoorie,Uttarakhand,30.4599,78.0664,11.5,68,0.0,796.3,7.7,46.4,65,33.5,19.8,3,5,7,0,2026-04-30T03:31:43.229059+05:30
Dharamshala,Himachal Pradesh,32.219,76.3234,19.0,46,0.0,864.0,7.5,46.4,36,3.8,1.9,0,5,7,0,2026-04-30T03:31:43.229066+05:30
Dalhousie,Himachal Pradesh,32.5387,75.971,8.0,88,0.0,795.5,8.3,30.6,56,14.8,10.0,3,10,7,0,2026-04-30T03:31:43.229074+05:30
Patiala,Punjab,30.3398,76.3869,22.7,77,0.0,972.4,6.1,31.7,163,218.4,50.4,3,5,7,1,2026-04-30T03:31:43.229082+05:30
Bhatinda,Punjab,30.211,74.9455,24.4,59,0.0,978.0,8.05,45.4,110,422.8,97.8,0,5,7,0,2026-04-30T03:31:43.229088+05:30
Rohtak,Haryana,28.8955,76.6066,24.3,53,0.0,976.1,7.5,38.9,185,330.6,72.4,0,5,7,0,2026-04-30T03:31:43.229095+05:30
Panipat,Haryana,29.3909,76.9635,24.0,62,0.0,974.6,7.35,40.3,415,198.8,52.7,3,5,7,1,2026-04-30T03:31:43.229102+05:30
Mathura,Uttar Pradesh,27.4924,77.6737,26.4,45,0.0,981.7,7.75,50.0,870,998.4,130.9,4,5,7,0,2026-04-30T03:31:43.229109+05:30
Vrindavan,Uttar Pradesh,27.5823,77.7027,26.4,44,0.0,982.0,7.7,45.7,870,998.4,130.9,4,5,7,0,2026-04-30T03:31:43.229115+05:30
Ayodhya,Uttar Pradesh,26.7922,82.1998,23.4,85,0.0,992.7,8.05,38.5,126,47.0,35.7,3,5,7,1,2026-04-30T03:31:43.229122+05:30
Ratlam,Madhya Pradesh,23.3315,75.0367,25.8,55,0.0,950.9,8.5,46.8,50,23.1,12.4,4,5,7,1,2026-04-30T03:31:43.229128+05:30
Sagar,Madhya Pradesh,23.8388,78.7378,27.8,28,0.0,945.5,8.65,44.3,42,65.4,23.3,4,5,7,0,2026-04-30T03:31:43.229134+05:30
Satna,Madhya Pradesh,24.6005,80.8322,26.2,47,0.0,966.2,8.3,57.2,68,59.8,39.9,4,5,7,0,2026-04-30T03:31:43.229141+05:30
Akola,Maharashtra,20.7002,77.0082,29.5,29,0.0,971.4,8.9,45.4,52,23.0,13.9,4,5,7,0,2026-04-30T03:31:43.229147+05:30
Amravati,Maharashtra,20.9374,77.7796,29.3,26,0.0,963.5,8.85,49.7,53,22.5,14.4,4,5,7,0,2026-04-30T03:31:43.229155+05:30
Latur,Maharashtra,18.4088,76.5604,27.9,29,0.0,937.3,9.1,40.7,69,22.9,18.2,4,5,7,0,2026-04-30T03:31:43.229161+05:30
Nanded,Maharashtra,19.1383,77.3091,29.6,25,0.0,965.3,9.0,34.2,67,18.3,13.9,4,5,7,0,2026-04-30T03:31:43.229167+05:30
Gulbarga,Karnataka,17.3297,76.8343,29.1,42,0.0,955.8,9.1,43.6,84,16.5,13.4,4,5,7,0,2026-04-30T03:31:43.229173+05:30
Bidar,Karnataka,17.9104,77.5199,28.7,40,0.0,932.9,9.1,37.8,94,45.3,38.4,4,5,7,0,2026-04-30T03:31:43.229180+05:30
Hospet,Karnataka,15.2689,76.3909,25.9,87,0.0,954.4,9.25,74.5,84,25.6,19.7,7,5,7,1,2026-04-30T03:31:43.229188+05:30
Tirupur,Tamil Nadu,11.1085,77.3411,26.4,85,0.0,973.8,9.4,67.3,86,31.8,27.6,7,5,7,1,2026-04-30T03:31:43.229207+05:30
Alappuzha,Kerala,9.4981,76.3388,24.8,95,0.0,1007.8,8.65,34.2,66,21.5,18.1,3,5,4,1,2026-04-30T03:31:43.229221+05:30
Munnar,Kerala,10.0889,77.0595,18.0,96,0.0,855.5,8.85,26.3,75,29.7,28.1,3,10,7,1,2026-04-30T03:31:43.229236+05:30
Silchar,Assam,24.8333,92.7789,19.8,98,0.0,1006.6,3.1,31.3,93,29.5,23.9,3,10,0,1,2026-04-30T03:31:43.229243+05:30
Dibrugarh,Assam,27.4728,94.912,21.2,98,0.2,996.2,7.8,32.0,86,10.5,9.2,6,5,7,1,2026-04-30T03:31:43.229250+05:30
