city,state,latitude,longitude,temp,humidity,rain,pressure,uv_index,wind_gusts,aqi,pm10,pm2_5,no2,co,o3,so2,mosquito_risk,arthritis_risk,migraine_risk,frizz_risk,updated_at
Delhi,Delhi,28.6139,77.209,29.0,84,0.0,976.7,6.7,29.9,198,291.5,95.2,34.1,244.0,39.0,27.3,7,5,7,1,2026-07-20T04:25:37.183164+05:30
Mumbai,Maharashtra,19.076,72.8777,25.3,93,0.3,1005.8,7.7,45.0,58,21.2,9.5,5.6,116.0,44.0,5.0,10,5,4,1,2026-07-20T04:25:37.183200+05:30
Bangalore,Karnataka,12.9716,77.5946,20.9,91,0.0,911.0,8.5,51.1,50,5.4,4.0,6.2,139.0,35.0,3.5,3,5,7,1,2026-07-20T04:25:37.183215+05:30
Hyderabad,Telangana,17.385,78.4867,23.2,90,0.0,950.2,5.05,49.0,40,4.5,3.5,6.0,132.0,34.0,3.4,3,5,3,1,2026-07-20T04:25:37.183224+05:30
Chennai,Tamil Nadu,13.0827,80.2707,27.5,86,0.0,1005.3,7.75,37.1,75,27.1,18.7,11.8,243.0,55.0,9.5,7,5,4,1,2026-07-20T04:25:37.183233+05:30
Kolkata,West Bengal,22.5726,88.3639,26.9,92,0.0,1001.6,3.5,29.9,67,36.2,26.3,7.3,219.0,76.0,5.2,7,5,0,1,2026-07-20T04:25:37.183240+05:30
Pune,Maharashtra,18.5204,73.8567,23.0,88,0.0,945.0,8.05,47.2,22,1.8,1.6,5.6,115.0,34.0,5.4,3,5,7,1,2026-07-20T04:25:37.183247+05:30
Ahmedabad,Gujarat,23.0225,72.5714,26.7,93,0.1,997.2,6.1,34.6,65,23.4,13.9,9.6,144.0,33.0,4.2,10,5,7,1,2026-07-20T04:25:37.183254+05:30
Jaipur,Rajasthan,26.9124,75.7873,29.7,65,0.0,954.5,5.35,29.5,128,343.7,61.9,10.6,162.0,50.0,5.7,7,5,3,1,2026-07-20T04:25:37.183260+05:30
Lucknow,Uttar Pradesh,26.8467,80.9462,25.7,96,0.1,988.0,6.15,26.6,142,58.1,43.5,23.2,262.0,49.0,9.3,10,5,7,1,2026-07-20T04:25:37.183271+05:30
Kanpur,Uttar Pradesh,26.4499,80.3319,26.6,97,0.3,986.3,5.45,32.4,133,46.7,31.2,17.2,299.0,51.0,2.7,10,5,3,1,2026-07-20T04:25:37.183279+05:30
Chandigarh,Chandigarh,30.7333,76.7794,26.9,90,0.0,963.1,1.6,29.9,163,116.6,61.2,15.7,259.0,68.0,14.2,7,5,3,1,2026-07-20T04:25:37.183286+05:30
Srinagar,Jammu and Kashmir,34.0837,74.7973,20.6,99,0.0,838.3,8.7,20.9,73,32.9,29.9,22.2,386.0,27.0,1.8,3,5,7,1,2026-07-20T04:25:37.183293+05:30
Jammu,Jammu and Kashmir,32.7266,74.857,26.9,96,0.1,966.5,6.85,22.3,139,59.3,31.9,15.4,276.0,60.0,3.5,10,5,7,1,2026-07-20T04:25:37.183300+05:30
Amritsar,Punjab,31.634,74.8723,29.3,86,0.0,973.7,6.85,36.7,174,145.3,82.2,17.4,554.0,53.0,8.7,7,5,7,1,2026-07-20T04:25:37.183305+05:30
Ludhiana,Punjab,30.901,75.8573,28.6,89,0.0,972.0,7.0,35.3,189,497.3,142.5,16.7,405.0,73.0,16.5,7,5,7,1,2026-07-20T04:25:37.183311+05:30
Jalandhar,Punjab,31.326,75.5762,28.8,87,0.0,973.1,7.9,36.0,176,350.2,133.6,23.3,433.0,52.0,19.1,7,5,7,1,2026-07-20T04:25:37.183318+05:30
Dehradun,Uttarakhand,30.6284,78.0322,18.6,99,0.0,827.2,2.65,19.4,54,28.8,12.2,7.9,248.0,65.0,1.0,3,10,3,1,2026-07-20T04:25:37.183324+05:30
Shimla,Himachal Pradesh,31.1048,77.1734,16.8,95,0.1,781.9,2.75,26.6,82,39.9,16.5,10.7,214.0,64.0,4.4,6,10,3,0,2026-07-20T04:25:37.183330+05:30
Manali,Himachal Pradesh,32.2396,77.1887,20.1,98,0.0,816.5,7.8,31.0,44,7.2,6.8,20.2,206.0,25.0,0.0,3,5,7,1,2026-07-20T04:25:37.183339+05:30
Gurgaon,Haryana,28.4595,77.0266,29.1,81,0.0,975.0,6.75,25.2,327,665.0,141.1,17.1,257.0,59.0,10.8,7,5,7,1,2026-07-20T04:25:37.183345+05:30
Noida,Uttar Pradesh,28.5355,77.391,27.9,90,0.0,978.3,6.95,35.6,327,665.0,141.1,17.1,270.0,59.0,10.8,7,5,7,1,2026-07-20T04:25:37.183351+05:30
Ghaziabad,Uttar Pradesh,28.6692,77.4538,27.9,92,0.0,976.6,7.4,32.0,178,136.9,62.9,23.5,353.0,39.0,9.3,7,5,7,1,2026-07-20T04:25:37.183359+05:30
Faridabad,Haryana,28.4089,77.3178,28.4,87,0.0,977.6,6.85,36.7,327,665.0,141.1,17.1,263.0,59.0,10.8,7,5,7,1,2026-07-20T04:25:37.183365+05:30
Meerut,Uttar Pradesh,28.9845,77.7064,26.2,97,0.1,975.8,5.25,30.6,178,136.9,62.9,23.5,391.0,39.0,9.3,10,5,3,1,2026-07-20T04:25:37.183371+05:30
Agra,Uttar Pradesh,27.1767,78.0081,28.3,87,0.0,981.7,4.35,30.2,122,23.7,17.8,9.2,183.0,68.0,3.8,7,5,3,1,2026-07-20T04:25:37.183377+05:30
Varanasi,Uttar Pradesh,25.3176,82.9739,25.7,97,0.1,993.1,6.9,25.9,109,61.0,58.9,37.2,502.0,27.0,17.0,10,5,7,1,2026-07-20T04:25:37.183384+05:30
Prayagraj,Uttar Pradesh,25.4358,81.8463,27.2,91,0.1,991.1,7.6,29.9,121,54.5,52.0,40.3,223.0,15.0,11.9,10,5,7,1,2026-07-20T04:25:37.183391+05:30
Gorakhpur,Uttar Pradesh,26.7606,83.3732,25.3,98,0.1,993.0,7.65,24.1,73,24.7,24.6,11.5,388.0,76.0,6.8,10,5,7,1,2026-07-20T04:25:37.183397+05:30
Bareilly,Uttar Pradesh,28.367,79.4304,25.5,96,0.0,981.9,7.05,27.4,124,35.2,27.0,15.6,269.0,68.0,7.6,7,5,7,1,2026-07-20T04:25:37.183405+05:30
Aligarh,Uttar Pradesh,27.8974,78.088,27.7,94,0.0,979.6,5.85,21.6,164,64.7,37.3,17.4,219.0,52.0,7.0,7,5,3,1,2026-07-20T04:25:37.183412+05:30
Moradabad,Uttar Pradesh,28.8386,78.7733,25.9,97,0.0,978.7,5.3,24.8,151,36.0,21.4,8.5,272.0,91.0,5.9,7,5,3,1,2026-07-20T04:25:37.183417+05:30
Saharanpur,Uttar Pradesh,29.9637,77.546,25.2,96,0.5,970.4,5.3,27.0,162,108.5,58.7,12.4,246.0,77.0,13.8,10,5,3,1,2026-07-20T04:25:37.183423+05:30
Jhansi,Uttar Pradesh,25.4484,78.5685,27.1,95,0.0,972.7,1.55,29.5,87,26.4,18.9,9.5,187.0,60.0,4.0,7,5,3,1,2026-07-20T04:25:40.431242+05:30
Surat,Gujarat,21.1702,72.8311,25.5,95,0.2,1002.2,7.3,49.3,67,19.4,13.4,19.2,246.0,26.0,27.2,10,5,4,1,2026-07-20T04:25:40.431277+05:30
Vadodara,Gujarat,22.3072,73.1812,26.0,95,0.0,999.9,7.65,45.0,64,17.7,12.3,15.7,130.0,26.0,14.6,7,5,7,1,2026-07-20T04:25:40.431288+05:30
Rajkot,Gujarat,22.3039,70.8022,26.1,89,0.0,988.8,6.8,51.1,60,16.8,8.4,5.4,102.0,37.0,4.1,7,5,7,1,2026-07-20T04:25:40.431296+05:30
Thane,Maharashtra,19.2183,72.9781,24.5,98,0.1,1005.1,7.35,42.8,58,21.2,9.5,5.6,140.0,44.0,5.0,6,5,4,1,2026-07-20T04:25:40.431304+05:30
Nagpur,Maharashtra,21.1458,79.0882,25.8,88,0.0,969.3,6.95,34.6,66,30.5,21.5,17.4,187.0,28.0,9.1,7,5,7,1,2026-07-20T04:25:40.431312+05:30
Nashik,Maharashtra,19.9975,73.7898,22.2,96,0.0,941.6,7.95,51.8,23,3.4,2.4,9.6,126.0,30.0,10.9,3,5,7,1,2026-07-20T04:25:40.431319+05:30
Aurangabad,Maharashtra,19.8762,75.3433,22.9,91,0.0,940.6,7.2,48.2,32,5.4,3.6,8.9,141.0,30.0,8.3,3,5,7,1,2026-07-20T04:25:40.431326+05:30
Solapur,Maharashtra,17.6599,75.9064,23.9,88,0.0,954.8,5.45,53.3,36,4.2,3.6,6.8,133.0,28.0,2.2,3,5,3,1,2026-07-20T04:25:40.431333+05:30
Kolhapur,Maharashtra,16.705,74.2433,22.2,92,0.0,946.1,7.05,53.6,28,2.2,2.1,3.7,106.0,36.0,1.9,3,5,7,1,2026-07-20T04:25:40.431340+05:30
Goa,Goa,15.2993,74.124,23.6,98,0.1,997.7,7.75,36.0,60,23.0,13.1,3.7,199.0,39.0,1.3,6,5,7,1,2026-07-20T04:25:40.431348+05:30
Jodhpur,Rajasthan,26.2389,73.0243,29.9,62,0.0,976.9,7.8,40.0,92,59.0,18.9,7.2,119.0,49.0,2.9,7,5,7,1,2026-07-20T04:25:40.431355+05:30
Udaipur,Rajasthan,24.5854,73.7125,24.8,87,0.0,941.5,7.2,29.5,65,24.4,15.0,10.3,136.0,46.0,14.5,3,5,7,1,2026-07-20T04:25:40.431363+05:30
Kota,Rajasthan,25.2138,75.8648,27.5,83,0.1,973.7,2.25,21.6,76,28.2,19.6,9.8,194.0,60.0,6.5,10,5,3,1,2026-07-20T04:25:40.431370+05:30
Bikaner,Rajasthan,28.0229,73.3119,31.7,50,0.0,975.1,7.7,39.6,113,108.7,32.7,2.1,110.0,59.0,1.3,0,5,7,1,2026-07-20T04:25:40.431377+05:30
Ajmer,Rajasthan,26.4499,74.6399,28.6,62,0.0,949.4,7.25,37.4,69,24.8,16.5,9.5,138.0,47.0,4.9,7,5,7,1,2026-07-20T04:25:40.431384+05:30
Gwalior,Madhya Pradesh,26.2183,78.1828,26.8,95,0.3,977.5,0.5,24.1,82,23.3,16.0,7.5,164.0,64.0,5.3,10,5,3,1,2026-07-20T04:25:40.431391+05:30
Indore,Madhya Pradesh,22.7196,75.8577,24.4,89,0.0,943.8,6.0,37.1,61,18.5,14.1,8.9,185.0,50.0,7.9,3,5,3,1,2026-07-20T04:25:40.431398+05:30
Bhopal,Madhya Pradesh,23.2599,77.4126,24.4,94,0.4,949.4,4.75,29.2,71,24.1,18.9,11.4,186.0,44.0,3.3,6,5,3,1,2026-07-20T04:25:40.431405+05:30
Jabalpur,Madhya Pradesh,23.1815,79.9864,24.9,93,0.0,957.0,4.7,25.9,85,32.6,23.4,6.7,251.0,73.0,2.8,3,5,3,1,2026-07-20T04:25:40.431412+05:30
Ujjain,Madhya Pradesh,23.1765,75.7885,24.6,90,0.0,949.4,4.25,34.2,62,17.0,13.2,8.3,207.0,51.0,9.0,3,5,3,1,2026-07-20T04:25:40.431420+05:30
Visakhapatnam,Andhra Pradesh,17.6868,83.2185,25.5,96,0.0,999.0,8.0,38.2,81,22.9,18.9,18.9,290.0,42.0,28.0,7,5,7,1,2026-07-20T04:25:40.431427+05:30
Vijayawada,Andhra Pradesh,16.5062,80.648,28.1,71,0.0,999.2,6.5,41.4,61,20.9,14.7,8.3,187.0,44.0,3.6,7,5,7,1,2026-07-20T04:25:40.431434+05:30
Guntur,Andhra Pradesh,16.3067,80.4365,28.0,70,0.0,1000.6,7.1,51.8,56,19.8,13.2,7.5,183.0,44.0,4.3,7,5,4,1,2026-07-20T04:25:40.431441+05:30
Nellore,Andhra Pradesh,14.4426,79.9865,27.7,73,0.0,1003.8,8.1,34.9,62,25.4,14.9,7.8,183.0,42.0,6.4,7,5,4,1,2026-07-20T04:25:40.431449+05:30
Kurnool,Andhra Pradesh,15.8281,78.0373,24.9,88,0.0,975.1,7.1,70.2,42,5.0,4.0,7.8,135.0,31.0,1.8,3,5,7,1,2026-07-20T04:25:40.431457+05:30
Kakinada,Andhra Pradesh,16.9891,82.2475,27.3,82,0.0,1003.5,8.55,46.8,64,26.3,20.0,8.0,144.0,61.0,5.0,7,5,4,1,2026-07-20T04:25:40.431464+05:30
Tirupati,Andhra Pradesh,13.6288,79.4192,26.7,76,0.0,989.4,3.6,34.9,61,27.1,16.6,18.3,138.0,19.0,3.1,7,5,3,1,2026-07-20T04:25:40.431471+05:30
Warangal,Telangana,17.9689,79.5941,25.1,87,0.0,975.2,4.85,40.7,57,12.9,9.7,7.5,135.0,41.0,2.7,7,5,3,1,2026-07-20T04:25:40.431478+05:30
Nizamabad,Telangana,18.6725,78.0941,23.5,92,0.0,961.6,4.15,45.4,52,7.0,5.6,7.8,142.0,35.0,5.4,3,5,3,1,2026-07-20T04:25:40.431485+05:30
Mysore,Karnataka,12.2958,76.6396,21.1,91,0.0,928.2,8.85,49.3,36,3.1,2.5,4.7,113.0,32.0,1.8,3,5,7,1,2026-07-20T04:25:40.431491+05:30
Mangalore,Karnataka,12.9141,74.856,23.1,99,0.2,1008.1,8.6,39.6,55,22.4,10.5,4.7,119.0,31.0,1.7,6,0,4,1,2026-07-20T04:25:40.431499+05:30
Hubli-Dharwad,Karnataka,15.3647,75.124,22.1,94,0.0,939.7,5.85,57.6,25,1.1,0.8,2.6,99.0,37.0,1.0,3,5,3,1,2026-07-20T04:25:40.431505+05:30
Belgaum,Karnataka,15.8497,74.4977,20.7,98,0.0,924.0,7.95,54.0,24,1.9,1.5,3.1,110.0,37.0,1.6,3,5,7,1,2026-07-20T04:25:43.673598+05:30
Coimbatore,Tamil Nadu,11.0168,76.9558,22.6,95,0.0,961.5,8.75,51.5,41,7.3,5.3,6.3,136.0,27.0,2.8,3,5,7,1,2026-07-20T04:25:43.673627+05:30
Madurai,Tamil Nadu,9.9252,78.1198,27.5,67,0.0,992.5,5.65,37.4,67,25.8,21.3,28.0,131.0,8.0,5.9,7,5,3,1,2026-07-20T04:25:43.673638+05:30
Trichy,Tamil Nadu,10.7905,78.7047,27.4,71,0.0,999.2,6.85,51.5,53,9.7,6.4,5.6,108.0,31.0,2.8,7,5,7,1,2026-07-20T04:25:43.673647+05:30
Salem,Tamil Nadu,11.6643,78.146,24.5,95,0.0,977.2,7.7,31.7,59,18.2,13.9,16.7,364.0,23.0,7.4,3,5,7,1,2026-07-20T04:25:43.673655+05:30
Tirunelveli,Tamil Nadu,8.7139,77.7567,27.7,71,0.0,1003.2,7.8,44.3,34,7.2,5.4,5.5,130.0,31.0,2.1,7,5,4,1,2026-07-20T04:25:43.673663+05:30
Vellore,Tamil Nadu,12.9165,79.1325,28.1,62,0.0,983.1,8.05,43.9,73,37.4,27.5,26.0,161.0,12.0,4.9,7,5,7,1,2026-07-20T04:25:43.673671+05:30
Erode,Tamil Nadu,11.341,77.7172,24.9,84,0.0,989.1,8.05,33.8,53,13.8,10.6,12.3,132.0,26.0,3.8,3,5,7,1,2026-07-20T04:25:43.673678+05:30
Kochi,Kerala,9.9312,76.2673,23.9,97,0.1,1010.5,8.35,35.3,53,13.2,8.3,7.4,153.0,26.0,2.8,6,0,4,1,2026-07-20T04:25:43.673686+05:30
Thiruvananthapuram,Kerala,8.5241,76.9366,23.6,99,0.0,1009.6,7.1,45.0,48,13.3,7.3,3.0,114.0,43.0,1.9,3,0,4,1,2026-07-20T04:25:43.673692+05:30
Kozhikode,Kerala,11.2588,75.7804,23.5,98,0.1,1009.5,8.3,32.4,38,14.7,6.0,1.3,106.0,47.0,1.0,6,0,4,1,2026-07-20T04:25:43.673699+05:30
Thrissur,Kerala,10.5276,76.2144,24.1,99,0.1,1008.8,8.25,37.4,53,11.5,7.1,4.3,155.0,33.0,1.9,6,0,4,1,2026-07-20T04:25:43.673707+05:30
Kannur,Kerala,11.8745,75.3704,23.4,98,0.4,1008.7,8.75,28.8,47,12.4,5.4,4.1,136.0,35.0,1.3,6,0,4,1,2026-07-20T04:25:43.673714+05:30
Patna,Bihar,25.5941,85.1376,26.0,98,0.1,995.9,8.35,23.4,80,37.6,37.1,12.5,342.0,79.0,11.4,10,5,7,1,2026-07-20T04:25:43.673721+05:30
Gaya,Bihar,24.7914,85.0002,25.8,98,0.1,989.1,3.4,21.6,74,43.2,42.7,16.2,431.0,58.0,10.4,10,5,3,1,2026-07-20T04:25:43.673728+05:30
Muzaffarpur,Bihar,26.1209,85.3647,25.8,97,0.2,996.5,7.15,27.7,71,21.0,20.8,9.8,390.0,84.0,7.8,10,5,7,1,2026-07-20T04:25:43.673734+05:30
Bhagalpur,Bihar,25.2425,87.0117,26.6,97,0.1,997.3,1.55,33.8,80,26.3,25.4,12.2,296.0,67.0,11.2,10,5,3,1,2026-07-20T04:25:43.673741+05:30
Ranchi,Jharkhand,23.3441,85.3096,23.0,98,0.0,933.1,4.1,26.3,70,23.6,20.1,6.3,276.0,85.0,5.4,3,5,3,1,2026-07-20T04:25:43.673749+05:30
Jamshedpur,Jharkhand,22.8046,86.2029,25.5,98,0.1,986.1,3.65,24.1,89,37.0,33.2,18.0,415.0,52.0,19.6,10,5,3,1,2026-07-20T04:25:43.673756+05:30
Dhanbad,Jharkhand,23.7957,86.4304,25.1,100,0.0,975.2,3.25,27.4,140,60.3,56.3,40.5,557.0,34.0,105.1,7,5,3,1,2026-07-20T04:25:43.673763+05:30
Bokaro,Jharkhand,23.6693,86.1511,25.4,97,0.0,979.2,3.15,23.8,138,66.1,63.6,43.3,3866.0,32.0,106.6,7,5,3,1,2026-07-20T04:25:43.673770+05:30
Bhubaneswar,Odisha,20.2961,85.8245,26.5,99,0.0,997.5,8.5,27.7,85,37.3,32.7,10.2,300.0,87.0,6.7,7,5,7,1,2026-07-20T04:25:43.673777+05:30
Cuttack,Odisha,20.4625,85.8828,27.1,97,0.0,999.4,8.6,22.0,85,37.3,32.7,10.2,306.0,87.0,6.7,7,5,7,1,2026-07-20T04:25:43.673784+05:30
Rourkela,Odisha,22.2604,84.8536,25.4,98,0.0,980.5,8.05,28.8,79,28.8,21.4,6.4,264.0,99.0,3.8,7,5,7,1,2026-07-20T04:25:43.673791+05:30
Raipur,Chhattisgarh,21.2514,81.6296,25.7,93,0.0,969.9,7.3,31.7,92,26.1,22.8,19.4,512.0,58.0,28.8,7,5,7,1,2026-07-20T04:25:43.673798+05:30
Bhilai,Chhattisgarh,21.1938,81.3509,25.4,94,0.0,970.4,7.9,32.4,85,25.5,23.5,18.6,601.0,54.0,27.5,7,5,7,1,2026-07-20T04:25:43.673805+05:30
Guwahati,Assam,26.1158,91.7086,24.4,98,0.1,999.2,1.7,22.0,55,7.1,6.7,9.7,186.0,32.0,1.3,6,5,3,1,2026-07-20T04:25:43.673812+05:30
Agartala,Tripura,23.8315,91.2868,24.8,98,0.1,1003.5,7.6,35.6,50,9.8,8.4,9.5,153.0,31.0,2.6,6,5,4,1,2026-07-20T04:25:43.673819+05:30
Shillong,Meghalaya,25.5788,91.8933,19.1,98,0.2,855.2,1.8,19.1,22,0.7,0.7,4.4,178.0,38.0,1.2,6,10,3,1,2026-07-20T04:25:43.673826+05:30
Imphal,Manipur,24.817,93.9368,21.5,98,0.0,921.3,1.1,26.3,43,6.8,6.5,6.4,257.0,31.0,0.9,3,5,3,1,2026-07-20T04:25:43.673832+05:30
Aizawl,Mizoram,23.7271,92.7176,18.7,97,0.0,889.9,0.65,20.2,46,10.2,6.9,2.9,118.0,33.0,0.4,3,10,3,1,2026-07-20T04:25:43.673838+05:30
Kohima,Nagaland,25.6701,94.1077,19.6,97,0.8,853.9,2.15,21.2,19,2.6,2.6,4.6,172.0,34.0,0.4,6,10,3,1,2026-07-20T04:25:43.673846+05:30
Gangtok,Sikkim,27.3314,88.6138,18.3,97,0.3,836.2,3.8,28.8,39,3.5,3.4,3.3,198.0,84.0,0.7,6,10,3,1,2026-07-20T04:25:43.673852+05:30
Siliguri,West Bengal,26.7271,88.3953,24.6,99,0.1,990.3,2.5,24.1,51,7.1,6.9,5.4,215.0,82.0,1.1,6,5,3,1,2026-07-20T04:25:46.924588+05:30
Durgapur,West Bengal,23.5204,87.3119,25.5,97,0.1,990.7,5.5,30.2,106,38.3,32.5,20.2,302.0,60.0,27.9,10,5,3,1,2026-07-20T04:25:46.924616+05:30
Asansol,West Bengal,23.6739,86.9524,25.3,98,0.0,989.2,1.6,24.8,104,34.3,29.9,20.9,382.0,59.0,29.3,7,5,3,1,2026-07-20T04:25:46.924626+05:30
Pondicherry,Puducherry,11.9139,79.8145,27.4,75,0.0,1007.2,8.0,38.5,70,16.1,11.2,11.0,188.0,51.0,10.0,7,5,4,1,2026-07-20T04:25:46.924634+05:30
Port Blair,Andaman and Nicobar Islands,11.6234,92.7265,26.7,83,0.0,1007.1,8.35,44.3,53,14.0,7.9,0.1,81.0,44.0,0.4,7,5,4,1,2026-07-20T04:25:46.924642+05:30
Haridwar,Uttarakhand,29.9457,78.1642,24.9,98,0.0,969.1,2.2,25.2,155,77.3,45.5,8.4,231.0,90.0,13.8,3,5,3,1,2026-07-20T04:25:46.924648+05:30
Rishikesh,Uttarakhand,30.0869,78.2676,24.9,98,0.0,961.9,0.6,17.3,131,23.6,12.2,5.0,208.0,111.0,13.2,3,5,3,1,2026-07-20T04:25:46.924655+05:30
Nainital,Uttarakhand,29.3919,79.4542,17.3,99,0.9,803.1,6.4,34.6,62,12.5,9.7,4.0,229.0,105.0,1.8,6,10,7,1,2026-07-20T04:25:46.924662+05:30
Mussoorie,Uttarakhand,30.4599,78.0664,17.1,100,0.1,800.0,0.8,28.4,97,46.7,22.1,6.7,250.0,109.0,9.5,6,10,3,1,2026-07-20T04:25:46.924668+05:30
Dharamshala,Himachal Pradesh,32.219,76.3234,21.5,99,1.1,864.9,5.95,27.7,44,18.3,7.8,8.6,250.0,54.0,0.8,6,5,3,1,2026-07-20T04:25:46.924675+05:30
Dalhousie,Himachal Pradesh,32.5387,75.971,18.5,98,1.0,801.5,3.05,25.6,92,60.1,24.2,6.3,253.0,89.0,1.9,6,10,3,1,2026-07-20T04:25:46.924682+05:30
Patiala,Punjab,30.3398,76.3869,27.9,93,0.0,971.8,5.05,35.6,250,367.9,101.7,15.9,385.0,75.0,15.5,7,5,3,1,2026-07-20T04:25:46.924688+05:30
Bhatinda,Punjab,30.211,74.9455,31.6,68,0.0,976.3,5.9,34.2,186,976.0,254.3,20.1,264.0,48.0,8.0,3,5,3,1,2026-07-20T04:25:46.924694+05:30
Rohtak,Haryana,28.8955,76.6066,29.4,79,0.0,975.0,4.55,23.4,559,558.8,131.3,21.0,384.0,50.0,11.5,7,5,3,1,2026-07-20T04:25:46.924700+05:30
Panipat,Haryana,29.3909,76.9635,27.1,93,0.0,974.3,6.8,32.8,666,455.4,122.9,27.8,502.0,36.0,18.0,7,5,7,1,2026-07-20T04:25:46.924706+05:30
Mathura,Uttar Pradesh,27.4924,77.6737,28.6,82,0.0,980.7,1.1,25.6,185,192.3,43.0,10.2,176.0,68.0,3.3,7,5,3,1,2026-07-20T04:25:46.924713+05:30
Vrindavan,Uttar Pradesh,27.5823,77.7027,28.6,82,0.0,981.2,1.8,28.8,185,192.3,43.0,10.2,176.0,68.0,3.3,7,5,3,1,2026-07-20T04:25:46.924719+05:30
Ayodhya,Uttar Pradesh,26.7922,82.1998,25.4,98,0.1,990.6,7.75,23.4,86,30.9,30.9,15.4,357.0,75.0,6.8,10,5,7,1,2026-07-20T04:25:46.924725+05:30
Ratlam,Madhya Pradesh,23.3315,75.0367,24.9,90,0.0,950.3,5.25,35.3,62,12.8,9.6,8.2,162.0,45.0,10.9,3,5,3,1,2026-07-20T04:25:46.924732+05:30
Sagar,Madhya Pradesh,23.8388,78.7378,24.4,90,0.0,945.5,5.95,29.5,78,26.8,20.8,7.1,228.0,60.0,2.4,3,5,3,1,2026-07-20T04:25:46.924738+05:30
Satna,Madhya Pradesh,24.6005,80.8322,25.7,98,0.0,966.2,1.75,29.9,95,65.4,37.0,16.2,221.0,36.0,5.7,7,5,3,1,2026-07-20T04:25:46.924744+05:30
Akola,Maharashtra,20.7002,77.0082,25.8,85,0.0,971.7,8.3,42.5,50,7.8,6.2,9.1,128.0,33.0,6.7,7,5,7,1,2026-07-20T04:25:46.924751+05:30
Amravati,Maharashtra,20.9374,77.7796,24.6,93,0.1,963.7,7.65,41.8,51,7.9,6.2,9.3,139.0,37.0,8.0,6,5,7,1,2026-07-20T04:25:46.924758+05:30
Latur,Maharashtra,18.4088,76.5604,22.7,94,0.2,936.6,1.0,50.8,34,3.8,3.2,5.9,117.0,31.0,2.4,6,5,3,1,2026-07-20T04:25:46.924765+05:30
Nanded,Maharashtra,19.1383,77.3091,23.8,95,0.0,965.5,2.2,41.8,51,5.6,4.4,6.1,143.0,33.0,3.0,3,5,3,1,2026-07-20T04:25:46.924771+05:30
Gulbarga,Karnataka,17.3297,76.8343,23.3,94,0.0,956.3,5.3,54.4,33,4.3,3.2,6.5,114.0,30.0,2.5,3,5,3,1,2026-07-20T04:25:46.924777+05:30
Bidar,Karnataka,17.9104,77.5199,22.1,97,0.0,932.4,2.4,48.6,48,4.5,3.5,5.9,123.0,32.0,1.9,3,5,3,1,2026-07-20T04:25:46.924783+05:30
Hospet,Karnataka,15.2689,76.3909,23.4,87,0.0,954.9,6.8,54.7,34,1.7,1.4,3.9,106.0,35.0,1.4,3,5,7,1,2026-07-20T04:25:46.924789+05:30
Tirupur,Tamil Nadu,11.1085,77.3411,23.3,92,0.0,975.2,7.35,51.8,56,15.9,12.5,15.3,121.0,21.0,4.8,3,5,7,1,2026-07-20T04:25:46.924795+05:30
Alappuzha,Kerala,9.4981,76.3388,24.6,96,0.1,1010.5,8.4,37.8,52,15.5,8.5,4.8,90.0,39.0,2.3,6,0,4,1,2026-07-20T04:25:46.924801+05:30
Munnar,Kerala,10.0889,77.0595,16.1,100,0.0,856.5,8.0,41.0,27,4.8,3.3,3.2,92.0,29.0,1.2,3,10,7,0,2026-07-20T04:25:46.924807+05:30
Silchar,Assam,24.8333,92.7789,25.1,96,0.2,1003.2,1.15,21.2,62,17.9,14.2,6.9,205.0,47.0,3.5,10,5,0,1,2026-07-20T04:25:46.924814+05:30
Dibrugarh,Assam,27.4728,94.912,24.0,99,0.0,993.6,8.35,27.0,68,39.9,38.1,36.9,208.0,7.0,3.1,3,5,7,1,2026-07-20T04:25:46.924820+05:30
