city,state,latitude,longitude,temp,humidity,rain,pressure,uv_index,wind_gusts,aqi,pm10,pm2_5,no2,co,o3,so2,mosquito_risk,arthritis_risk,migraine_risk,frizz_risk,updated_at
Delhi,Delhi,28.6139,77.209,33.6,35,0.0,981.4,7.6,32.0,211,219.3,63.1,16.2,491.0,194.0,24.5,0,5,7,0,2026-05-10T18:55:01.378205+05:30
Mumbai,Maharashtra,19.076,72.8777,32.7,53,0.0,1003.1,7.9,46.8,164,49.0,29.0,21.5,351.0,117.0,12.6,0,5,4,1,2026-05-10T18:55:01.378257+05:30
Bangalore,Karnataka,12.9716,77.5946,29.1,38,0.0,909.9,9.5,43.9,84,29.3,20.6,23.9,330.0,97.0,6.6,4,5,7,0,2026-05-10T18:55:01.378274+05:30
Hyderabad,Telangana,17.385,78.4867,34.0,31,0.0,951.4,9.25,38.9,112,51.1,24.2,8.2,329.0,135.0,6.5,0,5,7,0,2026-05-10T18:55:01.378286+05:30
Chennai,Tamil Nadu,13.0827,80.2707,29.4,71,0.0,1005.1,9.0,40.0,24,5.7,3.9,4.6,164.0,45.0,4.1,7,5,4,1,2026-05-10T18:55:01.378296+05:30
Kolkata,West Bengal,22.5726,88.3639,26.6,84,0.0,1007.1,8.5,19.1,203,54.9,48.7,14.6,924.0,123.0,17.0,7,5,4,1,2026-05-10T18:55:01.378305+05:30
Pune,Maharashtra,18.5204,73.8567,37.1,15,0.0,944.4,8.5,36.4,126,24.2,11.9,6.5,249.0,134.0,5.2,0,5,10,0,2026-05-10T18:55:01.378314+05:30
Ahmedabad,Gujarat,23.0225,72.5714,42.1,13,0.0,997.0,8.1,34.2,86,67.5,18.6,11.8,246.0,111.0,5.1,0,5,10,0,2026-05-10T18:55:01.378328+05:30
Jaipur,Rajasthan,26.9124,75.7873,36.0,23,0.0,957.7,8.15,28.4,173,198.8,47.3,11.8,340.0,144.0,8.6,0,5,10,0,2026-05-10T18:55:01.378337+05:30
Lucknow,Uttar Pradesh,26.8467,80.9462,32.5,35,0.0,992.4,8.05,35.3,184,57.9,39.3,8.3,375.0,154.0,10.2,0,5,7,0,2026-05-10T18:55:01.378346+05:30
Kanpur,Uttar Pradesh,26.4499,80.3319,33.4,34,0.0,990.3,8.1,33.8,197,119.7,41.4,6.6,341.0,166.0,9.9,0,5,7,0,2026-05-10T18:55:01.378354+05:30
Chandigarh,Chandigarh,30.7333,76.7794,31.4,44,0.0,967.5,7.7,39.2,189,150.9,54.7,11.1,517.0,176.0,10.4,0,5,7,1,2026-05-10T18:55:01.378362+05:30
Srinagar,Jammu and Kashmir,34.0837,74.7973,21.9,59,0.0,841.1,8.25,18.0,138,75.9,32.2,14.6,741.0,132.0,6.2,0,5,7,0,2026-05-10T18:55:01.378370+05:30
Jammu,Jammu and Kashmir,32.7266,74.857,32.5,39,0.0,971.6,8.2,33.8,176,224.9,69.2,11.5,414.0,155.0,12.0,0,5,7,1,2026-05-10T18:55:01.378378+05:30
Amritsar,Punjab,31.634,74.8723,34.3,38,0.0,978.9,8.35,29.9,186,299.0,81.0,4.3,462.0,176.0,13.7,0,5,7,1,2026-05-10T18:55:01.378385+05:30
Ludhiana,Punjab,30.901,75.8573,33.9,36,0.0,976.8,7.95,34.9,186,304.5,77.8,7.5,446.0,165.0,9.2,0,5,7,1,2026-05-10T18:55:01.378392+05:30
Jalandhar,Punjab,31.326,75.5762,32.3,44,0.0,978.0,8.15,33.5,176,310.1,77.3,8.9,440.0,159.0,10.3,0,5,7,1,2026-05-10T18:55:01.378398+05:30
Dehradun,Uttarakhand,30.6284,78.0322,17.8,78,0.0,830.8,8.05,26.6,147,74.7,39.8,5.7,300.0,157.0,3.6,3,5,7,0,2026-05-10T18:55:01.378410+05:30
Shimla,Himachal Pradesh,31.1048,77.1734,16.3,70,0.0,785.5,8.05,39.2,174,126.7,62.4,6.8,313.0,178.0,12.9,3,5,7,0,2026-05-10T18:55:01.378418+05:30
Manali,Himachal Pradesh,32.2396,77.1887,15.4,87,0.0,818.2,9.75,46.8,168,49.9,21.6,15.6,307.0,172.0,1.9,3,10,7,0,2026-05-10T18:55:01.378425+05:30
Gurgaon,Haryana,28.4595,77.0266,33.9,33,0.0,979.5,7.7,32.0,690,536.4,92.4,16.1,493.0,189.0,21.4,0,5,7,0,2026-05-10T18:55:01.378432+05:30
Noida,Uttar Pradesh,28.5355,77.391,31.2,48,0.0,982.7,7.65,31.3,690,536.4,92.4,16.1,483.0,189.0,21.4,0,5,7,1,2026-05-10T18:55:01.378439+05:30
Ghaziabad,Uttar Pradesh,28.6692,77.4538,31.1,43,0.0,981.3,7.6,34.2,179,140.2,50.5,8.0,338.0,163.0,9.1,0,5,7,1,2026-05-10T18:55:01.378446+05:30
Faridabad,Haryana,28.4089,77.3178,32.7,37,0.0,982.0,7.65,33.8,690,536.4,92.4,16.1,482.0,189.0,21.4,0,5,7,0,2026-05-10T18:55:01.378453+05:30
Meerut,Uttar Pradesh,28.9845,77.7064,29.0,53,0.0,980.2,7.55,34.6,179,140.2,50.5,8.0,387.0,163.0,9.1,4,5,7,1,2026-05-10T18:55:01.378460+05:30
Agra,Uttar Pradesh,27.1767,78.0081,33.0,40,0.0,986.0,7.95,24.1,555,360.4,70.1,8.9,423.0,158.0,12.8,0,5,7,1,2026-05-10T18:55:01.378467+05:30
Varanasi,Uttar Pradesh,25.3176,82.9739,31.3,39,0.0,996.1,8.55,29.9,204,56.7,38.5,8.2,361.0,172.0,12.8,0,5,7,0,2026-05-10T18:55:01.378474+05:30
Prayagraj,Uttar Pradesh,25.4358,81.8463,33.2,32,0.0,993.9,8.45,32.8,202,55.9,36.7,8.8,471.0,158.0,10.4,0,5,7,0,2026-05-10T18:55:01.378483+05:30
Gorakhpur,Uttar Pradesh,26.7606,83.3732,28.8,54,0.0,997.0,8.4,33.8,155,38.2,29.2,8.5,374.0,139.0,6.4,4,5,7,1,2026-05-10T18:55:01.378491+05:30
Bareilly,Uttar Pradesh,28.367,79.4304,29.8,54,0.0,986.0,7.9,29.5,176,112.9,47.0,10.3,389.0,147.0,7.8,4,5,7,1,2026-05-10T18:55:01.378498+05:30
Aligarh,Uttar Pradesh,27.8974,78.088,31.9,40,0.0,984.0,7.75,31.7,264,263.6,61.2,8.3,341.0,162.0,13.9,0,5,7,1,2026-05-10T18:55:01.378505+05:30
Moradabad,Uttar Pradesh,28.8386,78.7733,30.0,55,0.0,983.0,7.75,32.4,191,65.4,47.6,13.9,418.0,157.0,17.0,4,5,7,1,2026-05-10T18:55:01.378512+05:30
Saharanpur,Uttar Pradesh,29.9637,77.546,28.2,64,0.0,974.6,7.35,31.7,168,98.7,54.4,13.8,435.0,144.0,11.5,7,5,7,1,2026-05-10T18:55:01.378519+05:30
Jhansi,Uttar Pradesh,25.4484,78.5685,33.3,36,0.0,975.8,8.4,27.0,187,118.7,39.5,3.6,323.0,158.0,14.3,0,5,7,1,2026-05-10T18:55:04.623141+05:30
Surat,Gujarat,21.1702,72.8311,40.2,15,0.0,1001.5,7.75,34.9,91,65.0,51.9,54.0,334.0,84.0,96.6,0,5,7,0,2026-05-10T18:55:04.623194+05:30
Vadodara,Gujarat,22.3072,73.1812,41.2,15,0.0,998.8,8.1,29.5,130,45.1,20.7,13.1,277.0,143.0,11.1,0,5,10,0,2026-05-10T18:55:04.623206+05:30
Rajkot,Gujarat,22.3039,70.8022,37.2,18,0.0,991.1,7.7,38.9,73,45.4,14.3,3.1,160.0,114.0,6.2,0,5,10,0,2026-05-10T18:55:04.623215+05:30
Thane,Maharashtra,19.2183,72.9781,34.7,42,0.0,1002.1,7.9,45.4,164,49.0,29.0,21.5,230.0,117.0,12.6,0,5,4,1,2026-05-10T18:55:04.623222+05:30
Nagpur,Maharashtra,21.1458,79.0882,36.9,19,0.0,969.3,8.9,29.2,182,71.5,36.7,13.9,260.0,157.0,22.1,0,5,10,0,2026-05-10T18:55:04.623230+05:30
Nashik,Maharashtra,19.9975,73.7898,36.0,17,0.0,942.4,8.2,45.7,123,30.7,19.6,3.5,209.0,161.0,12.2,0,5,10,0,2026-05-10T18:55:04.623238+05:30
Aurangabad,Maharashtra,19.8762,75.3433,36.7,15,0.0,940.9,9.05,45.0,115,31.0,12.6,3.8,224.0,133.0,4.0,0,5,10,0,2026-05-10T18:55:04.623245+05:30
Solapur,Maharashtra,17.6599,75.9064,38.5,14,0.0,952.9,9.05,38.5,134,30.6,15.8,4.6,258.0,143.0,8.2,0,5,10,0,2026-05-10T18:55:04.623252+05:30
Kolhapur,Maharashtra,16.705,74.2433,34.2,29,0.0,944.4,8.95,44.3,155,57.4,39.8,12.2,233.0,141.0,7.2,0,5,7,0,2026-05-10T18:55:04.623260+05:30
Goa,Goa,15.2993,74.124,32.0,62,0.0,994.4,6.85,48.6,105,39.2,23.5,3.3,238.0,113.0,3.8,3,5,7,1,2026-05-10T18:55:04.623267+05:30
Jodhpur,Rajasthan,26.2389,73.0243,41.1,11,0.0,978.7,8.4,35.3,104,48.3,12.6,7.6,187.0,120.0,3.2,0,5,10,0,2026-05-10T18:55:04.623274+05:30
Udaipur,Rajasthan,24.5854,73.7125,36.3,15,0.0,943.9,8.8,38.5,89,24.8,8.4,2.4,180.0,121.0,2.4,0,5,10,0,2026-05-10T18:55:04.623282+05:30
Kota,Rajasthan,25.2138,75.8648,37.0,23,0.0,975.6,8.35,35.6,160,88.7,32.4,5.3,289.0,144.0,9.4,0,5,10,0,2026-05-10T18:55:04.623289+05:30
Bikaner,Rajasthan,28.0229,73.3119,40.5,17,0.0,977.4,8.3,32.0,144,77.1,20.3,2.6,298.0,133.0,10.1,0,5,10,0,2026-05-10T18:55:04.623296+05:30
Ajmer,Rajasthan,26.4499,74.6399,37.3,19,0.0,952.1,8.3,32.4,144,85.2,27.0,5.2,321.0,134.0,6.5,0,5,10,0,2026-05-10T18:55:04.623304+05:30
Gwalior,Madhya Pradesh,26.2183,78.1828,33.7,34,0.0,981.0,8.15,24.1,169,139.2,41.6,3.6,348.0,154.0,7.8,0,5,7,0,2026-05-10T18:55:04.623311+05:30
Indore,Madhya Pradesh,22.7196,75.8577,37.5,12,0.0,944.9,8.65,47.5,134,53.0,20.7,4.7,254.0,142.0,5.4,0,5,10,0,2026-05-10T18:55:04.623318+05:30
Bhopal,Madhya Pradesh,23.2599,77.4126,36.2,12,0.0,950.8,8.65,46.1,126,74.7,25.0,2.4,268.0,135.0,3.6,0,5,10,0,2026-05-10T18:55:04.623325+05:30
Jabalpur,Madhya Pradesh,23.1815,79.9864,34.5,25,0.0,958.5,8.8,32.8,150,82.9,28.6,6.2,249.0,140.0,5.0,0,5,7,0,2026-05-10T18:55:04.623332+05:30
Ujjain,Madhya Pradesh,23.1765,75.7885,37.2,13,0.0,950.7,8.6,40.7,132,48.2,20.8,4.6,225.0,137.0,5.8,0,5,10,0,2026-05-10T18:55:04.623340+05:30
Visakhapatnam,Andhra Pradesh,17.6868,83.2185,29.4,70,0.0,1003.2,9.1,36.4,68,14.7,12.3,22.7,425.0,36.0,13.8,7,5,4,1,2026-05-10T18:55:04.623347+05:30
Vijayawada,Andhra Pradesh,16.5062,80.648,31.0,62,0.0,1001.1,9.1,37.8,48,8.9,6.7,4.4,156.0,67.0,6.3,3,5,4,1,2026-05-10T18:55:04.623354+05:30
Guntur,Andhra Pradesh,16.3067,80.4365,31.1,63,0.0,1002.1,8.9,45.4,55,16.5,10.8,4.0,156.0,88.0,6.2,3,5,4,1,2026-05-10T18:55:04.623362+05:30
Nellore,Andhra Pradesh,14.4426,79.9865,29.7,67,0.0,1004.0,9.15,39.2,29,5.9,4.1,2.2,139.0,48.0,1.8,7,5,4,1,2026-05-10T18:55:04.623371+05:30
Kurnool,Andhra Pradesh,15.8281,78.0373,34.0,34,0.0,974.0,9.1,49.7,65,44.7,19.4,3.0,215.0,120.0,2.8,0,5,7,0,2026-05-10T18:55:04.623379+05:30
Kakinada,Andhra Pradesh,16.9891,82.2475,29.2,74,0.0,1006.3,9.05,37.8,31,7.5,5.1,1.1,159.0,59.0,0.5,7,5,4,1,2026-05-10T18:55:04.623386+05:30
Tirupati,Andhra Pradesh,13.6288,79.4192,29.5,60,0.0,989.1,9.25,42.8,58,6.2,4.7,3.9,151.0,51.0,1.1,4,5,7,1,2026-05-10T18:55:04.623393+05:30
Warangal,Telangana,17.9689,79.5941,34.2,36,0.0,976.0,9.15,40.0,92,59.0,27.7,5.1,313.0,133.0,7.0,0,5,7,1,2026-05-10T18:55:04.623400+05:30
Nizamabad,Telangana,18.6725,78.0941,33.5,35,0.0,961.6,9.1,29.9,125,48.7,26.7,10.0,238.0,132.0,5.2,0,5,7,1,2026-05-10T18:55:04.623407+05:30
Mysore,Karnataka,12.2958,76.6396,29.5,41,0.0,925.6,9.3,34.6,103,29.0,19.6,16.2,285.0,121.0,5.2,4,5,7,0,2026-05-10T18:55:04.623413+05:30
Mangalore,Karnataka,12.9141,74.856,29.6,84,0.0,1003.3,8.85,37.1,78,23.7,17.0,4.4,247.0,105.0,2.8,7,5,4,1,2026-05-10T18:55:04.623420+05:30
Hubli-Dharwad,Karnataka,15.3647,75.124,33.8,26,0.0,938.1,8.1,40.0,120,43.4,21.5,6.6,223.0,137.0,3.9,0,5,7,0,2026-05-10T18:55:04.623427+05:30
Belgaum,Karnataka,15.8497,74.4977,27.4,64,0.0,923.3,8.35,41.8,159,48.7,30.6,12.4,235.0,132.0,6.0,7,5,7,1,2026-05-10T18:55:07.856987+05:30
Coimbatore,Tamil Nadu,11.0168,76.9558,27.4,78,0.0,959.0,9.1,30.6,85,24.7,18.9,14.1,324.0,110.0,6.4,7,5,7,1,2026-05-10T18:55:07.857020+05:30
Madurai,Tamil Nadu,9.9252,78.1198,28.4,74,0.0,990.7,5.15,29.5,56,18.4,17.7,8.9,498.0,97.0,5.3,7,5,3,1,2026-05-10T18:55:07.857031+05:30
Trichy,Tamil Nadu,10.7905,78.7047,26.4,86,0.0,998.0,2.45,37.1,49,14.2,13.8,10.5,326.0,79.0,12.8,7,5,3,1,2026-05-10T18:55:07.857040+05:30
Salem,Tamil Nadu,11.6643,78.146,29.0,63,0.0,975.3,8.95,24.5,64,19.4,15.1,7.1,253.0,112.0,8.1,7,5,7,1,2026-05-10T18:55:07.857048+05:30
Tirunelveli,Tamil Nadu,8.7139,77.7567,27.2,91,0.1,1000.8,4.3,26.6,55,13.7,13.2,7.3,215.0,85.0,4.3,10,5,0,1,2026-05-10T18:55:07.857056+05:30
Vellore,Tamil Nadu,12.9165,79.1325,29.3,63,0.0,982.3,9.25,36.0,67,12.4,11.1,6.9,185.0,88.0,7.0,7,5,7,1,2026-05-10T18:55:07.857064+05:30
Erode,Tamil Nadu,11.341,77.7172,29.0,71,0.0,986.6,8.65,29.2,80,22.2,17.9,8.9,249.0,115.0,5.7,7,5,7,1,2026-05-10T18:55:07.857071+05:30
Kochi,Kerala,9.9312,76.2673,28.2,85,0.0,1005.5,8.75,25.9,107,18.9,16.8,11.7,364.0,93.0,3.8,7,5,4,1,2026-05-10T18:55:07.857078+05:30
Thiruvananthapuram,Kerala,8.5241,76.9366,26.2,93,0.0,1005.1,5.4,21.2,79,8.1,6.0,3.4,367.0,106.0,1.2,7,5,0,1,2026-05-10T18:55:07.857086+05:30
Kozhikode,Kerala,11.2588,75.7804,28.7,85,0.0,1004.8,8.7,33.5,72,14.3,8.5,1.0,288.0,105.0,0.6,7,5,4,1,2026-05-10T18:55:07.857093+05:30
Thrissur,Kerala,10.5276,76.2144,28.5,80,0.0,1003.8,9.0,30.2,71,14.2,13.2,9.7,397.0,90.0,2.7,7,5,4,1,2026-05-10T18:55:07.857101+05:30
Kannur,Kerala,11.8745,75.3704,29.2,79,0.0,1004.3,8.1,39.6,89,20.8,13.6,6.2,285.0,104.0,2.0,7,5,4,1,2026-05-10T18:55:07.857108+05:30
Patna,Bihar,25.5941,85.1376,27.9,65,0.0,1000.4,8.65,29.5,198,61.5,47.7,11.3,415.0,161.0,13.3,7,5,4,1,2026-05-10T18:55:07.857115+05:30
Gaya,Bihar,24.7914,85.0002,28.8,48,0.0,993.3,8.7,21.6,199,61.7,44.9,6.2,323.0,175.0,14.3,4,5,7,1,2026-05-10T18:55:07.857122+05:30
Muzaffarpur,Bihar,26.1209,85.3647,27.4,61,0.0,1000.8,8.65,34.2,177,60.8,48.1,13.5,425.0,142.0,11.1,7,5,4,1,2026-05-10T18:55:07.857128+05:30
Bhagalpur,Bihar,25.2425,87.0117,27.7,60,0.0,1002.0,8.6,24.5,194,55.6,45.2,9.7,345.0,155.0,8.5,4,5,4,1,2026-05-10T18:55:07.857134+05:30
Ranchi,Jharkhand,23.3441,85.3096,23.1,67,0.0,938.0,9.15,38.2,163,69.6,39.3,5.3,284.0,160.0,9.1,3,5,7,1,2026-05-10T18:55:07.857141+05:30
Jamshedpur,Jharkhand,22.8046,86.2029,27.0,72,0.0,991.8,8.95,49.3,188,53.9,43.8,8.4,254.0,167.0,18.4,7,5,7,1,2026-05-10T18:55:07.857148+05:30
Dhanbad,Jharkhand,23.7957,86.4304,27.0,66,0.0,980.8,8.9,30.2,219,92.4,76.4,33.6,394.0,185.0,72.2,7,5,7,1,2026-05-10T18:55:07.857154+05:30
Bokaro,Jharkhand,23.6693,86.1511,26.7,67,0.0,984.5,8.9,50.4,212,89.4,66.4,31.1,1936.0,186.0,70.6,7,5,7,1,2026-05-10T18:55:07.857162+05:30
Bhubaneswar,Odisha,20.2961,85.8245,26.4,79,0.0,1003.5,9.05,35.6,60,19.0,13.3,10.2,213.0,76.0,5.9,7,5,4,1,2026-05-10T18:55:07.857193+05:30
Cuttack,Odisha,20.4625,85.8828,26.1,85,0.0,1005.1,9.1,47.2,60,19.0,13.3,10.2,232.0,76.0,5.9,7,5,4,1,2026-05-10T18:55:07.857201+05:30
Rourkela,Odisha,22.2604,84.8536,29.9,49,0.0,984.3,8.9,25.9,171,82.9,50.6,8.2,580.0,165.0,33.0,4,5,7,1,2026-05-10T18:55:07.857208+05:30
Raipur,Chhattisgarh,21.2514,81.6296,34.4,31,0.0,972.3,8.9,27.0,206,76.6,43.8,15.8,337.0,192.0,8.2,0,5,7,0,2026-05-10T18:55:07.857214+05:30
Bhilai,Chhattisgarh,21.1938,81.3509,34.6,30,0.0,972.5,8.95,23.8,189,74.5,41.4,21.7,401.0,165.0,7.5,0,5,7,0,2026-05-10T18:55:07.857221+05:30
Guwahati,Assam,26.1158,91.7086,24.4,81,0.0,1002.8,8.65,27.7,91,57.5,43.1,11.3,338.0,87.0,3.1,3,5,4,1,2026-05-10T18:55:07.857228+05:30
Agartala,Tripura,23.8315,91.2868,24.9,92,0.0,1007.7,8.25,40.3,194,49.2,43.9,12.6,504.0,141.0,6.1,3,5,4,1,2026-05-10T18:55:07.857234+05:30
Shillong,Meghalaya,25.5788,91.8933,16.4,87,0.0,857.5,8.45,24.5,115,47.5,33.6,7.7,397.0,120.0,4.1,3,10,7,0,2026-05-10T18:55:07.857241+05:30
Imphal,Manipur,24.817,93.9368,21.7,80,0.0,925.1,7.85,23.4,96,42.8,34.6,27.4,580.0,47.0,4.4,3,5,7,1,2026-05-10T18:55:07.857248+05:30
Aizawl,Mizoram,23.7271,92.7176,18.1,87,0.1,893.6,6.35,14.8,109,47.5,39.8,5.9,337.0,86.0,3.4,6,10,7,0,2026-05-10T18:55:07.857255+05:30
Kohima,Nagaland,25.6701,94.1077,18.8,83,0.0,856.9,8.35,26.3,71,32.9,23.5,9.9,355.0,76.0,2.0,3,10,7,0,2026-05-10T18:55:07.857262+05:30
Gangtok,Sikkim,27.3314,88.6138,14.3,84,0.1,838.5,7.7,32.4,81,19.2,13.0,8.9,309.0,105.0,1.3,6,10,7,0,2026-05-10T18:55:07.857268+05:30
Siliguri,West Bengal,26.7271,88.3953,25.0,75,0.0,994.3,8.05,26.6,114,44.6,27.2,11.8,1237.0,126.0,3.9,7,5,7,1,2026-05-10T18:55:11.094006+05:30
Durgapur,West Bengal,23.5204,87.3119,26.5,77,0.0,996.1,8.9,23.4,213,112.5,97.8,40.7,388.0,178.0,87.6,7,5,7,1,2026-05-10T18:55:11.094039+05:30
Asansol,West Bengal,23.6739,86.9524,27.0,69,0.0,994.5,8.9,29.2,213,94.3,81.3,38.2,831.0,174.0,85.2,7,5,7,1,2026-05-10T18:55:11.094050+05:30
Pondicherry,Puducherry,11.9139,79.8145,28.0,84,0.0,1006.1,8.85,41.8,29,5.4,3.6,2.3,241.0,50.0,0.2,7,5,4,1,2026-05-10T18:55:11.094059+05:30
Port Blair,Andaman and Nicobar Islands,11.6234,92.7265,28.0,81,0.0,1006.2,8.1,27.0,27,3.2,2.2,0.5,172.0,54.0,0.1,7,5,4,1,2026-05-10T18:55:11.094068+05:30
Haridwar,Uttarakhand,29.9457,78.1642,27.8,60,0.0,973.1,7.5,26.3,164,95.9,50.4,8.9,363.0,155.0,6.9,4,5,7,1,2026-05-10T18:55:11.094076+05:30
Rishikesh,Uttarakhand,30.0869,78.2676,27.0,66,0.0,965.9,7.55,25.2,160,71.0,39.5,3.8,349.0,165.0,4.5,7,5,7,1,2026-05-10T18:55:11.094084+05:30
Nainital,Uttarakhand,29.3919,79.4542,15.4,82,0.0,805.7,7.4,28.8,154,51.1,33.9,5.9,290.0,162.0,5.1,3,10,7,0,2026-05-10T18:55:11.094091+05:30
Mussoorie,Uttarakhand,30.4599,78.0664,16.2,80,0.0,803.5,7.95,37.8,158,77.3,40.9,7.0,341.0,162.0,7.6,3,5,7,0,2026-05-10T18:55:11.094099+05:30
Dharamshala,Himachal Pradesh,32.219,76.3234,21.7,68,0.0,869.7,7.7,35.6,146,134.1,50.5,5.0,348.0,148.0,5.0,3,5,7,0,2026-05-10T18:55:11.094106+05:30
Dalhousie,Himachal Pradesh,32.5387,75.971,17.7,79,0.0,805.8,7.95,37.1,167,202.1,61.0,12.2,413.0,154.0,7.7,3,5,7,0,2026-05-10T18:55:11.094114+05:30
Patiala,Punjab,30.3398,76.3869,31.9,56,0.0,976.3,7.55,34.9,375,278.5,70.8,5.8,348.0,167.0,8.9,0,5,7,1,2026-05-10T18:55:11.094122+05:30
Bhatinda,Punjab,30.211,74.9455,36.3,27,0.0,981.0,8.25,30.2,401,568.1,99.7,6.1,392.0,183.0,17.4,0,5,10,0,2026-05-10T18:55:11.094129+05:30
Rohtak,Haryana,28.8955,76.6066,32.8,38,0.0,979.7,7.65,30.6,350,368.8,81.7,11.9,422.0,215.0,22.9,0,5,7,1,2026-05-10T18:55:11.094136+05:30
Panipat,Haryana,29.3909,76.9635,30.6,48,0.0,978.9,7.5,32.8,624,499.2,87.3,8.3,371.0,195.0,18.5,0,5,7,1,2026-05-10T18:55:11.094143+05:30
Mathura,Uttar Pradesh,27.4924,77.6737,31.9,44,0.0,985.0,7.9,27.4,487,316.6,63.6,10.0,362.0,157.0,9.2,0,5,7,1,2026-05-10T18:55:11.094150+05:30
Vrindavan,Uttar Pradesh,27.5823,77.7027,32.3,39,0.0,985.5,7.9,27.7,487,316.6,63.6,10.0,356.0,157.0,9.2,0,5,7,1,2026-05-10T18:55:11.094157+05:30
Ayodhya,Uttar Pradesh,26.7922,82.1998,29.6,48,0.0,994.4,8.2,37.1,168,45.3,34.8,13.1,346.0,134.0,7.8,4,5,7,1,2026-05-10T18:55:11.094184+05:30
Ratlam,Madhya Pradesh,23.3315,75.0367,36.8,16,0.0,951.3,8.5,38.2,131,43.7,17.0,2.1,201.0,148.0,6.1,0,5,10,0,2026-05-10T18:55:11.094193+05:30
Sagar,Madhya Pradesh,23.8388,78.7378,33.0,32,0.0,948.2,8.65,37.1,133,81.0,25.7,1.7,254.0,149.0,4.7,0,5,7,0,2026-05-10T18:55:11.094200+05:30
Satna,Madhya Pradesh,24.6005,80.8322,33.3,30,0.0,969.0,8.65,37.1,187,47.1,28.3,3.0,285.0,191.0,8.6,0,5,7,0,2026-05-10T18:55:11.094208+05:30
Akola,Maharashtra,20.7002,77.0082,37.9,16,0.0,970.5,8.85,42.1,155,44.6,20.0,12.0,197.0,133.0,9.2,0,5,10,0,2026-05-10T18:55:11.094215+05:30
Amravati,Maharashtra,20.9374,77.7796,36.8,16,0.0,963.4,8.85,40.3,160,47.3,21.4,12.3,201.0,136.0,6.0,0,5,10,0,2026-05-10T18:55:11.094223+05:30
Latur,Maharashtra,18.4088,76.5604,35.9,16,0.0,936.5,9.05,41.0,142,27.8,15.5,8.0,242.0,144.0,9.8,0,5,10,0,2026-05-10T18:55:11.094231+05:30
Nanded,Maharashtra,19.1383,77.3091,36.2,19,0.0,964.4,9.0,36.7,157,43.7,22.9,8.9,260.0,137.0,6.0,0,5,10,0,2026-05-10T18:55:11.094238+05:30
Gulbarga,Karnataka,17.3297,76.8343,35.2,25,0.0,955.4,9.1,31.7,123,37.1,19.5,6.7,236.0,144.0,6.4,0,5,10,0,2026-05-10T18:55:11.094245+05:30
Bidar,Karnataka,17.9104,77.5199,32.5,31,0.0,933.1,9.1,32.4,116,36.1,20.3,8.2,231.0,139.0,4.5,0,5,7,0,2026-05-10T18:55:11.094252+05:30
Hospet,Karnataka,15.2689,76.3909,32.6,42,0.0,952.8,8.85,35.3,102,45.4,23.1,8.6,265.0,133.0,7.7,0,5,7,1,2026-05-10T18:55:11.094258+05:30
Tirupur,Tamil Nadu,11.1085,77.3411,29.1,65,0.0,972.4,9.15,24.8,98,24.9,22.0,16.5,265.0,122.0,8.4,7,5,7,1,2026-05-10T18:55:11.094265+05:30
Alappuzha,Kerala,9.4981,76.3388,27.8,86,0.0,1005.6,7.8,23.8,91,14.5,12.4,11.3,231.0,84.0,3.4,7,5,4,1,2026-05-10T18:55:11.094273+05:30
Munnar,Kerala,10.0889,77.0595,19.0,96,0.0,854.7,9.2,23.4,44,14.4,13.4,8.0,246.0,82.0,2.9,3,10,7,1,2026-05-10T18:55:11.094280+05:30
Silchar,Assam,24.8333,92.7789,27.7,74,0.0,1006.0,7.95,19.1,150,76.6,65.2,14.6,586.0,108.0,11.8,7,5,4,1,2026-05-10T18:55:11.094287+05:30
Dibrugarh,Assam,27.4728,94.912,26.0,77,0.0,996.6,8.8,38.2,117,32.5,27.1,11.1,386.0,94.0,2.8,7,5,7,1,2026-05-10T18:55:11.094294+05:30
