city,state,latitude,longitude,temp,humidity,rain,pressure,uv_index,wind_gusts,aqi,pm10,pm2_5,mosquito_risk,arthritis_risk,migraine_risk,frizz_risk,updated_at
Delhi,Delhi,28.6139,77.209,18.5,82,0.0,988.4,6.45,30.6,159,183.0,65.0,3,10,7,0,2026-03-22T02:01:10.365710+05:30
Mumbai,Maharashtra,19.076,72.8777,28.1,54,0.0,1009.5,7.9,27.0,78,30.9,27.8,4,0,4,1,2026-03-22T02:01:10.365745+05:30
Bangalore,Karnataka,12.9716,77.5946,22.6,81,0.0,911.9,9.45,30.6,90,34.7,32.5,3,5,7,1,2026-03-22T02:01:10.365760+05:30
Hyderabad,Telangana,17.385,78.4867,23.8,82,0.0,953.8,8.9,24.1,88,28.0,21.8,3,5,7,1,2026-03-22T02:01:10.365770+05:30
Chennai,Tamil Nadu,13.0827,80.2707,26.9,82,0.0,1008.4,9.2,32.8,39,14.5,9.8,7,0,4,1,2026-03-22T02:01:10.365779+05:30
Kolkata,West Bengal,22.5726,88.3639,20.5,90,0.0,1009.5,8.25,20.9,69,46.6,44.5,3,0,4,1,2026-03-22T02:01:10.365787+05:30
Pune,Maharashtra,18.5204,73.8567,22.2,75,0.0,949.0,8.45,28.4,86,43.1,37.6,3,5,7,1,2026-03-22T02:01:10.365798+05:30
Ahmedabad,Gujarat,23.0225,72.5714,22.9,51,0.0,1005.2,7.8,22.0,67,42.7,32.1,0,5,4,0,2026-03-22T02:01:10.365806+05:30
Jaipur,Rajasthan,26.9124,75.7873,19.1,74,0.0,964.1,7.25,27.7,77,76.8,34.7,3,5,7,0,2026-03-22T02:01:10.365814+05:30
Lucknow,Uttar Pradesh,26.8467,80.9462,19.3,84,0.0,998.3,6.9,25.2,104,74.3,58.0,3,10,7,1,2026-03-22T02:01:10.365822+05:30
Kanpur,Uttar Pradesh,26.4499,80.3319,19.1,74,0.0,996.4,7.0,28.4,119,218.4,55.1,3,5,7,0,2026-03-22T02:01:10.365828+05:30
Chandigarh,Chandigarh,30.7333,76.7794,14.4,94,0.0,973.3,6.35,35.3,81,38.1,35.5,3,10,7,0,2026-03-22T02:01:10.365835+05:30
Srinagar,Jammu and Kashmir,34.0837,74.7973,4.9,88,0.0,840.2,7.45,13.7,82,39.0,36.0,3,10,7,0,2026-03-22T02:01:10.365842+05:30
Jammu,Jammu and Kashmir,32.7266,74.857,15.0,93,0.0,977.6,6.5,23.0,103,55.6,50.2,3,10,7,0,2026-03-22T02:01:10.365849+05:30
Amritsar,Punjab,31.634,74.8723,15.3,87,0.0,986.4,6.75,22.3,131,105.5,95.5,3,10,7,0,2026-03-22T02:01:10.365856+05:30
Ludhiana,Punjab,30.901,75.8573,15.7,87,0.0,984.1,6.45,28.4,151,51.2,44.6,3,10,7,0,2026-03-22T02:01:10.365862+05:30
Jalandhar,Punjab,31.326,75.5762,15.7,87,0.0,985.4,6.75,24.8,131,63.1,54.9,3,10,7,0,2026-03-22T02:01:10.365887+05:30
Dehradun,Uttarakhand,30.6284,78.0322,8.7,91,0.0,829.0,6.4,24.8,47,24.7,20.4,3,10,7,0,2026-03-22T02:01:10.365895+05:30
Shimla,Himachal Pradesh,31.1048,77.1734,6.5,87,0.0,782.0,6.65,41.0,56,37.5,28.8,3,10,7,0,2026-03-22T02:01:10.365902+05:30
Manali,Himachal Pradesh,32.2396,77.1887,9.3,38,0.0,816.9,8.8,30.2,48,20.6,17.5,0,5,7,1,2026-03-22T02:01:10.365908+05:30
Gurgaon,Haryana,28.4595,77.0266,17.2,88,0.0,986.7,6.55,27.7,171,177.9,86.1,3,10,7,0,2026-03-22T02:01:10.365915+05:30
Noida,Uttar Pradesh,28.5355,77.391,18.4,83,0.0,989.9,6.45,29.5,171,177.9,86.1,3,10,7,0,2026-03-22T02:01:10.365922+05:30
Ghaziabad,Uttar Pradesh,28.6692,77.4538,17.1,87,0.0,988.0,6.45,29.5,156,153.7,63.1,3,10,7,0,2026-03-22T02:01:10.365928+05:30
Faridabad,Haryana,28.4089,77.3178,17.7,84,0.0,989.1,6.5,28.1,171,177.9,86.1,3,10,7,0,2026-03-22T02:01:10.365934+05:30
Meerut,Uttar Pradesh,28.9845,77.7064,15.7,90,0.0,986.5,6.35,31.7,156,153.7,63.1,3,10,7,0,2026-03-22T02:01:10.365941+05:30
Agra,Uttar Pradesh,27.1767,78.0081,18.1,77,0.0,992.8,6.7,31.0,239,445.2,114.3,3,5,7,0,2026-03-22T02:01:10.365947+05:30
Varanasi,Uttar Pradesh,25.3176,82.9739,18.0,92,0.0,1002.2,7.6,27.4,112,92.7,79.9,3,10,4,1,2026-03-22T02:01:10.365956+05:30
Prayagraj,Uttar Pradesh,25.4358,81.8463,18.8,86,0.0,1000.6,7.5,24.1,104,83.4,73.1,3,10,4,1,2026-03-22T02:01:10.365963+05:30
Gorakhpur,Uttar Pradesh,26.7606,83.3732,15.7,100,0.0,1002.1,7.3,11.5,119,60.3,57.2,3,10,4,0,2026-03-22T02:01:10.365971+05:30
Bareilly,Uttar Pradesh,28.367,79.4304,16.5,94,0.0,991.7,6.65,27.7,119,54.5,52.9,3,10,7,0,2026-03-22T02:01:10.365978+05:30
Aligarh,Uttar Pradesh,27.8974,78.088,16.6,87,0.0,990.6,6.55,30.6,164,189.5,92.2,3,10,7,0,2026-03-22T02:01:10.365984+05:30
Moradabad,Uttar Pradesh,28.8386,78.7733,16.1,85,0.0,988.7,6.5,30.2,140,78.2,56.8,3,10,7,0,2026-03-22T02:01:10.365990+05:30
Saharanpur,Uttar Pradesh,29.9637,77.546,14.6,94,0.0,980.6,6.15,38.2,146,102.4,67.5,3,10,7,0,2026-03-22T02:01:10.365996+05:30
Jhansi,Uttar Pradesh,25.4484,78.5685,19.5,63,0.0,982.1,7.45,29.5,79,127.6,38.0,3,5,7,0,2026-03-22T02:01:13.603022+05:30
Surat,Gujarat,21.1702,72.8311,24.9,63,0.0,1008.9,7.65,24.8,109,37.8,31.7,3,0,4,1,2026-03-22T02:01:13.603051+05:30
Vadodara,Gujarat,22.3072,73.1812,24.5,47,0.0,1006.8,7.8,19.1,61,33.6,28.0,0,5,4,0,2026-03-22T02:01:13.603063+05:30
Rajkot,Gujarat,22.3039,70.8022,23.3,74,0.0,997.9,7.6,29.5,59,46.7,24.1,3,5,7,1,2026-03-22T02:01:13.603072+05:30
Thane,Maharashtra,19.2183,72.9781,25.8,49,0.0,1009.0,7.9,41.0,78,30.9,27.8,4,0,4,0,2026-03-22T02:01:13.603080+05:30
Nagpur,Maharashtra,21.1458,79.0882,23.1,42,0.0,975.7,8.2,23.4,61,17.1,13.5,0,5,7,0,2026-03-22T02:01:13.603088+05:30
Nashik,Maharashtra,19.9975,73.7898,22.7,44,0.0,946.8,8.05,29.9,61,26.0,22.0,0,5,7,0,2026-03-22T02:01:13.603096+05:30
Aurangabad,Maharashtra,19.8762,75.3433,22.9,39,0.0,944.9,8.6,27.0,60,24.6,18.3,0,5,7,0,2026-03-22T02:01:13.603102+05:30
Solapur,Maharashtra,17.6599,75.9064,25.3,50,0.0,957.2,8.75,26.6,65,24.9,18.3,4,5,7,0,2026-03-22T02:01:13.603108+05:30
Kolhapur,Maharashtra,16.705,74.2433,18.3,68,0.0,947.5,8.9,33.8,88,53.2,36.9,3,5,7,0,2026-03-22T02:01:13.603115+05:30
Goa,Goa,15.2993,74.124,24.0,95,0.0,997.9,8.85,32.0,79,65.0,42.1,3,5,7,1,2026-03-22T02:01:13.603121+05:30
Jodhpur,Rajasthan,26.2389,73.0243,21.4,64,0.0,987.4,7.55,27.4,62,36.7,13.9,3,5,7,0,2026-03-22T02:01:13.603127+05:30
Udaipur,Rajasthan,24.5854,73.7125,21.2,50,0.0,949.6,8.2,23.8,51,29.2,15.9,0,5,7,0,2026-03-22T02:01:13.603132+05:30
Kota,Rajasthan,25.2138,75.8648,21.1,63,0.0,983.1,7.6,17.3,74,34.7,22.2,3,5,7,0,2026-03-22T02:01:13.603138+05:30
Bikaner,Rajasthan,28.0229,73.3119,20.7,69,0.0,986.5,7.1,15.5,52,34.5,13.5,3,5,7,0,2026-03-22T02:01:13.603144+05:30
Ajmer,Rajasthan,26.4499,74.6399,20.2,68,0.0,958.5,7.5,24.5,67,65.4,29.2,3,5,7,0,2026-03-22T02:01:13.603150+05:30
Gwalior,Madhya Pradesh,26.2183,78.1828,21.1,63,0.0,988.0,6.95,33.8,94,312.0,63.8,3,5,7,0,2026-03-22T02:01:13.603156+05:30
Indore,Madhya Pradesh,22.7196,75.8577,20.2,56,0.0,950.1,8.05,20.5,59,25.1,18.7,0,5,7,0,2026-03-22T02:01:13.603161+05:30
Bhopal,Madhya Pradesh,23.2599,77.4126,20.1,56,0.0,956.2,7.9,22.7,62,22.6,17.3,0,5,7,0,2026-03-22T02:01:13.603167+05:30
Jabalpur,Madhya Pradesh,23.1815,79.9864,19.8,60,0.0,964.6,8.05,29.2,63,22.0,15.9,0,5,7,0,2026-03-22T02:01:13.603173+05:30
Ujjain,Madhya Pradesh,23.1765,75.7885,20.4,60,0.0,956.2,8.0,14.4,64,27.0,21.6,0,5,7,0,2026-03-22T02:01:13.603179+05:30
Visakhapatnam,Andhra Pradesh,17.6868,83.2185,24.1,91,0.0,1005.4,8.85,34.6,70,17.8,15.1,3,5,4,1,2026-03-22T02:01:13.603184+05:30
Vijayawada,Andhra Pradesh,16.5062,80.648,25.2,91,0.0,1004.4,8.25,22.0,62,15.9,13.7,7,5,4,1,2026-03-22T02:01:13.603190+05:30
Guntur,Andhra Pradesh,16.3067,80.4365,25.1,94,0.0,1005.5,8.25,18.4,59,15.4,13.2,7,5,4,1,2026-03-22T02:01:13.603196+05:30
Nellore,Andhra Pradesh,14.4426,79.9865,26.2,85,0.0,1007.2,9.1,32.0,46,12.0,8.2,7,5,4,1,2026-03-22T02:01:13.603202+05:30
Kurnool,Andhra Pradesh,15.8281,78.0373,26.4,72,0.0,977.5,8.95,24.5,76,22.2,18.7,7,5,7,1,2026-03-22T02:01:13.603209+05:30
Kakinada,Andhra Pradesh,16.9891,82.2475,22.7,97,0.0,1009.2,8.9,33.1,37,12.4,9.1,3,0,4,1,2026-03-22T02:01:13.603215+05:30
Tirupati,Andhra Pradesh,13.6288,79.4192,24.2,88,0.0,993.2,9.2,31.7,75,23.3,20.1,3,5,7,1,2026-03-22T02:01:13.603221+05:30
Warangal,Telangana,17.9689,79.5941,24.3,82,0.0,979.7,8.75,21.6,92,33.5,28.0,3,5,7,1,2026-03-22T02:01:13.603226+05:30
Nizamabad,Telangana,18.6725,78.0941,25.3,67,0.0,965.7,8.65,22.0,81,32.9,22.7,7,5,7,1,2026-03-22T02:01:13.603232+05:30
Mysore,Karnataka,12.2958,76.6396,23.0,84,0.0,928.4,9.4,29.5,87,50.9,44.9,3,5,7,1,2026-03-22T02:01:13.603239+05:30
Mangalore,Karnataka,12.9141,74.856,29.4,77,0.0,1006.8,9.1,24.8,67,35.3,22.9,7,5,4,1,2026-03-22T02:01:13.603245+05:30
Hubli-Dharwad,Karnataka,15.3647,75.124,21.8,63,0.0,940.7,9.05,28.8,61,24.4,19.0,3,5,7,0,2026-03-22T02:01:13.603251+05:30
Belgaum,Karnataka,15.8497,74.4977,22.1,58,0.0,925.5,9.1,34.6,70,58.4,31.5,0,5,7,0,2026-03-22T02:01:16.822386+05:30
Coimbatore,Tamil Nadu,11.0168,76.9558,23.6,82,0.0,962.7,9.4,33.5,75,34.0,28.3,3,5,7,1,2026-03-22T02:01:16.822412+05:30
Madurai,Tamil Nadu,9.9252,78.1198,24.9,80,0.0,994.1,9.35,28.4,68,22.2,20.1,3,5,7,1,2026-03-22T02:01:16.822421+05:30
Trichy,Tamil Nadu,10.7905,78.7047,25.6,92,0.0,1000.9,9.3,23.8,56,25.3,21.7,7,5,4,1,2026-03-22T02:01:16.822429+05:30
Salem,Tamil Nadu,11.6643,78.146,25.5,83,0.0,978.7,9.35,27.0,77,31.4,27.9,7,5,7,1,2026-03-22T02:01:16.822436+05:30
Tirunelveli,Tamil Nadu,8.7139,77.7567,25.1,82,0.0,1004.0,9.3,27.7,88,36.6,34.5,7,5,4,1,2026-03-22T02:01:16.822443+05:30
Vellore,Tamil Nadu,12.9165,79.1325,24.0,87,0.0,985.7,9.3,36.0,93,25.7,23.2,3,5,7,1,2026-03-22T02:01:16.822449+05:30
Erode,Tamil Nadu,11.341,77.7172,25.0,82,0.0,990.8,9.3,24.5,56,12.9,10.9,7,5,7,1,2026-03-22T02:01:16.822456+05:30
Kochi,Kerala,9.9312,76.2673,27.5,82,0.0,1009.3,9.15,34.2,78,28.5,26.1,7,0,4,1,2026-03-22T02:01:16.822462+05:30
Thiruvananthapuram,Kerala,8.5241,76.9366,27.3,80,0.0,1008.1,9.1,24.8,83,21.4,18.0,7,0,4,1,2026-03-22T02:01:16.822469+05:30
Kozhikode,Kerala,11.2588,75.7804,29.3,77,0.0,1007.8,9.1,27.0,62,27.1,18.7,7,5,4,1,2026-03-22T02:01:16.822475+05:30
Thrissur,Kerala,10.5276,76.2144,27.0,81,0.0,1007.5,9.15,36.0,78,40.5,38.2,7,5,4,1,2026-03-22T02:01:16.822482+05:30
Kannur,Kerala,11.8745,75.3704,28.3,81,0.0,1007.1,9.1,27.0,65,28.1,19.7,7,5,4,1,2026-03-22T02:01:16.822489+05:30
Patna,Bihar,25.5941,85.1376,18.7,96,0.0,1005.3,7.55,20.2,143,73.6,69.6,3,10,4,1,2026-03-22T02:01:16.822495+05:30
Gaya,Bihar,24.7914,85.0002,18.0,95,0.0,998.2,7.75,21.6,109,47.8,43.9,3,10,7,1,2026-03-22T02:01:16.822502+05:30
Muzaffarpur,Bihar,26.1209,85.3647,17.0,99,0.0,1005.3,7.65,16.6,149,73.8,70.5,3,10,4,1,2026-03-22T02:01:16.822508+05:30
Bhagalpur,Bihar,25.2425,87.0117,18.8,97,0.0,1005.5,7.2,16.9,109,46.0,43.4,3,10,4,1,2026-03-22T02:01:16.822514+05:30
Ranchi,Jharkhand,23.3441,85.3096,15.9,95,0.0,939.3,8.45,28.1,92,43.0,40.6,3,10,7,0,2026-03-22T02:01:16.822520+05:30
Jamshedpur,Jharkhand,22.8046,86.2029,20.9,83,0.0,994.2,8.35,20.5,118,70.1,67.8,3,5,7,1,2026-03-22T02:01:16.822527+05:30
Dhanbad,Jharkhand,23.7957,86.4304,19.0,84,0.0,983.1,7.7,23.0,144,77.1,73.1,3,10,7,1,2026-03-22T02:01:16.822534+05:30
Bokaro,Jharkhand,23.6693,86.1511,18.1,93,0.0,987.3,8.2,20.9,146,74.7,71.5,3,10,7,1,2026-03-22T02:01:16.822540+05:30
Bhubaneswar,Odisha,20.2961,85.8245,23.3,92,0.0,1004.9,8.6,31.3,107,56.2,52.5,3,5,4,1,2026-03-22T02:01:16.822546+05:30
Cuttack,Odisha,20.4625,85.8828,23.5,87,0.0,1007.0,8.35,25.2,107,56.2,52.5,3,5,4,1,2026-03-22T02:01:16.822552+05:30
Rourkela,Odisha,22.2604,84.8536,21.7,73,0.0,988.3,8.25,18.7,104,29.7,27.6,3,5,7,1,2026-03-22T02:01:16.822558+05:30
Raipur,Chhattisgarh,21.2514,81.6296,20.8,55,0.0,977.0,8.4,19.1,111,25.0,22.2,0,5,7,0,2026-03-22T02:01:16.822564+05:30
Bhilai,Chhattisgarh,21.1938,81.3509,20.2,53,0.0,977.4,8.4,15.5,95,23.9,20.5,0,5,7,0,2026-03-22T02:01:16.822570+05:30
Guwahati,Assam,26.1158,91.7086,19.8,89,0.1,1004.2,7.6,16.6,84,16.5,13.4,6,10,4,1,2026-03-22T02:01:16.822576+05:30
Agartala,Tripura,23.8315,91.2868,19.8,87,0.0,1008.4,8.0,22.7,103,39.3,32.8,3,5,4,1,2026-03-22T02:01:16.822582+05:30
Shillong,Meghalaya,25.5788,91.8933,10.1,99,0.1,854.0,7.95,29.2,69,36.0,23.7,6,10,7,0,2026-03-22T02:01:16.822588+05:30
Imphal,Manipur,24.817,93.9368,15.6,92,0.2,922.5,8.1,49.3,88,32.1,26.6,6,10,7,0,2026-03-22T02:01:16.822594+05:30
Aizawl,Mizoram,23.7271,92.7176,15.0,95,0.0,891.8,7.3,41.8,110,50.9,41.6,3,10,7,0,2026-03-22T02:01:16.822600+05:30
Kohima,Nagaland,25.6701,94.1077,12.2,100,0.2,853.2,7.05,50.4,67,12.5,8.7,6,10,7,0,2026-03-22T02:01:16.822606+05:30
Gangtok,Sikkim,27.3314,88.6138,8.4,86,0.0,834.0,7.6,20.5,66,29.6,24.9,3,10,7,0,2026-03-22T02:01:16.822613+05:30
Siliguri,West Bengal,26.7271,88.3953,15.6,64,0.0,996.7,6.95,18.4,111,75.9,62.2,3,5,7,0,2026-03-22T02:01:20.054413+05:30
Durgapur,West Bengal,23.5204,87.3119,20.6,83,0.0,998.6,8.2,23.0,115,61.7,58.3,3,5,7,1,2026-03-22T02:01:20.054439+05:30
Asansol,West Bengal,23.6739,86.9524,20.4,83,0.0,997.2,7.9,23.4,117,55.1,50.9,3,5,7,1,2026-03-22T02:01:20.054448+05:30
Pondicherry,Puducherry,11.9139,79.8145,25.1,95,0.0,1009.5,9.15,29.5,33,14.7,9.7,7,0,4,1,2026-03-22T02:01:20.054456+05:30
Port Blair,Andaman and Nicobar Islands,11.6234,92.7265,27.6,83,0.0,1007.0,9.1,18.4,45,14.0,10.9,7,5,4,1,2026-03-22T02:01:20.054464+05:30
Haridwar,Uttarakhand,29.9457,78.1642,15.4,93,0.0,978.9,6.25,25.9,85,63.8,54.4,3,10,7,0,2026-03-22T02:01:20.054471+05:30
Rishikesh,Uttarakhand,30.0869,78.2676,16.0,81,0.0,971.3,6.35,26.6,56,27.7,24.9,3,10,7,0,2026-03-22T02:01:20.054477+05:30
Nainital,Uttarakhand,29.3919,79.4542,11.6,84,0.0,805.4,7.15,35.3,56,27.5,25.7,3,10,7,0,2026-03-22T02:01:20.054483+05:30
Mussoorie,Uttarakhand,30.4599,78.0664,10.3,75,0.0,801.7,6.5,26.3,61,40.9,36.8,3,5,7,0,2026-03-22T02:01:20.054489+05:30
Dharamshala,Himachal Pradesh,32.219,76.3234,14.1,48,0.0,869.9,6.1,22.7,63,12.0,8.1,0,5,7,0,2026-03-22T02:01:20.054496+05:30
Dalhousie,Himachal Pradesh,32.5387,75.971,9.4,58,0.0,802.4,6.95,20.2,78,37.1,32.9,0,5,7,0,2026-03-22T02:01:20.054503+05:30
Patiala,Punjab,30.3398,76.3869,14.5,94,0.0,983.2,6.2,31.7,152,168.1,49.2,3,10,7,0,2026-03-22T02:01:20.054509+05:30
Bhatinda,Punjab,30.211,74.9455,16.6,87,0.0,989.0,6.95,21.6,136,92.0,75.9,3,10,7,0,2026-03-22T02:01:20.054515+05:30
Rohtak,Haryana,28.8955,76.6066,16.7,89,0.0,987.0,6.45,27.7,164,159.3,66.1,3,10,7,0,2026-03-22T02:01:20.054521+05:30
Panipat,Haryana,29.3909,76.9635,15.3,92,0.0,985.5,6.25,30.2,163,134.6,55.2,3,10,7,0,2026-03-22T02:01:20.054527+05:30
Mathura,Uttar Pradesh,27.4924,77.6737,17.2,84,0.0,992.1,5.95,26.3,169,330.6,103.1,3,10,3,0,2026-03-22T02:01:20.054533+05:30
Vrindavan,Uttar Pradesh,27.5823,77.7027,17.3,84,0.0,992.6,5.95,28.4,169,330.6,103.1,3,10,3,0,2026-03-22T02:01:20.054539+05:30
Ayodhya,Uttar Pradesh,26.7922,82.1998,17.3,97,0.0,1000.1,7.1,20.9,91,60.3,52.2,3,10,4,1,2026-03-22T02:01:20.054545+05:30
Ratlam,Madhya Pradesh,23.3315,75.0367,20.7,65,0.0,956.8,7.85,18.4,60,32.2,26.2,3,5,7,0,2026-03-22T02:01:20.054551+05:30
Sagar,Madhya Pradesh,23.8388,78.7378,19.6,53,0.0,953.0,7.95,31.3,69,24.2,16.8,0,5,7,0,2026-03-22T02:01:20.054557+05:30
Satna,Madhya Pradesh,24.6005,80.8322,19.4,63,0.0,975.1,7.9,34.6,68,92.7,25.2,3,5,7,0,2026-03-22T02:01:20.054564+05:30
Akola,Maharashtra,20.7002,77.0082,22.4,48,0.0,976.9,8.3,24.5,60,22.4,17.2,0,5,7,0,2026-03-22T02:01:20.054571+05:30
Amravati,Maharashtra,20.9374,77.7796,22.0,42,0.0,969.2,8.1,24.1,56,18.0,13.0,0,5,7,0,2026-03-22T02:01:20.054578+05:30
Latur,Maharashtra,18.4088,76.5604,23.3,49,0.0,940.4,8.7,28.8,64,43.7,23.8,0,5,7,0,2026-03-22T02:01:20.054584+05:30
Nanded,Maharashtra,19.1383,77.3091,24.2,45,0.0,969.5,8.55,27.0,69,29.2,22.6,0,5,7,0,2026-03-22T02:01:20.054590+05:30
Gulbarga,Karnataka,17.3297,76.8343,26.5,43,0.0,959.1,8.75,26.6,67,27.1,22.1,4,5,7,0,2026-03-22T02:01:20.054596+05:30
Bidar,Karnataka,17.9104,77.5199,24.0,68,0.0,936.0,8.8,29.2,74,38.4,26.4,3,5,7,1,2026-03-22T02:01:20.054603+05:30
Hospet,Karnataka,15.2689,76.3909,25.4,58,0.0,956.1,9.0,19.4,85,37.1,31.7,4,5,7,1,2026-03-22T02:01:20.054609+05:30
Tirupur,Tamil Nadu,11.1085,77.3411,24.8,77,0.0,976.7,9.4,30.2,71,20.5,16.4,3,5,7,1,2026-03-22T02:01:20.054615+05:30
Alappuzha,Kerala,9.4981,76.3388,26.8,83,0.0,1009.4,9.1,34.9,73,22.6,18.5,7,0,4,1,2026-03-22T02:01:20.054621+05:30
Munnar,Kerala,10.0889,77.0595,19.6,90,0.0,856.4,8.7,26.3,68,23.9,21.7,3,10,7,1,2026-03-22T02:01:20.054628+05:30
Silchar,Assam,24.8333,92.7789,20.4,93,0.1,1007.2,7.95,20.5,103,41.8,35.0,6,5,4,1,2026-03-22T02:01:20.054634+05:30
Dibrugarh,Assam,27.4728,94.912,20.2,92,0.0,997.9,1.25,25.2,89,28.1,22.5,3,5,3,1,2026-03-22T02:01:20.054640+05:30
