city,state,latitude,longitude,temp,humidity,rain,pressure,uv_index,wind_gusts,aqi,pm10,pm2_5,no2,co,o3,so2,mosquito_risk,arthritis_risk,migraine_risk,frizz_risk,updated_at
Delhi,Delhi,28.6139,77.209,29.2,82,0.0,978.0,7.7,21.2,158,66.4,41.3,36.4,1715.0,99.0,31.8,7,5,7,1,2026-07-02T22:21:24.709044+05:30
Mumbai,Maharashtra,19.076,72.8777,25.4,94,0.3,1006.7,1.45,45.4,40,23.8,12.3,9.5,257.0,50.0,6.6,10,5,0,1,2026-07-02T22:21:24.709096+05:30
Bangalore,Karnataka,12.9716,77.5946,22.8,79,0.0,912.4,4.5,61.6,25,6.0,4.9,14.3,290.0,37.0,4.0,3,5,3,1,2026-07-02T22:21:24.709113+05:30
Hyderabad,Telangana,17.385,78.4867,26.6,69,0.0,951.3,5.45,50.4,29,7.6,6.5,9.3,290.0,49.0,4.3,7,5,3,1,2026-07-02T22:21:24.709123+05:30
Chennai,Tamil Nadu,13.0827,80.2707,28.0,84,0.0,1007.0,6.4,45.0,45,14.0,11.8,17.6,563.0,55.0,8.7,7,5,4,1,2026-07-02T22:21:24.709131+05:30
Kolkata,West Bengal,22.5726,88.3639,27.4,95,0.0,1000.4,7.9,37.8,62,27.8,26.6,16.9,578.0,51.0,10.4,7,5,4,1,2026-07-02T22:21:24.709140+05:30
Pune,Maharashtra,18.5204,73.8567,22.3,95,0.1,945.8,1.25,45.4,20,3.7,3.2,11.4,185.0,40.0,6.1,6,5,3,1,2026-07-02T22:21:24.709148+05:30
Ahmedabad,Gujarat,23.0225,72.5714,29.7,76,0.0,997.7,6.75,43.9,56,18.6,13.7,17.9,235.0,42.0,6.5,7,5,7,1,2026-07-02T22:21:24.709156+05:30
Jaipur,Rajasthan,26.9124,75.7873,27.0,91,0.1,955.7,8.15,23.4,128,136.4,57.5,31.1,378.0,41.0,10.5,10,5,7,1,2026-07-02T22:21:24.709164+05:30
Lucknow,Uttar Pradesh,26.8467,80.9462,29.5,85,0.0,988.9,7.0,26.3,110,41.9,41.7,28.7,575.0,70.0,13.1,7,5,7,1,2026-07-02T22:21:24.709175+05:30
Kanpur,Uttar Pradesh,26.4499,80.3319,29.7,83,0.1,986.9,6.65,19.4,115,36.7,35.0,24.4,554.0,82.0,10.5,10,5,7,1,2026-07-02T22:21:24.709183+05:30
Chandigarh,Chandigarh,30.7333,76.7794,28.1,81,0.0,964.8,5.5,40.7,125,79.9,67.1,62.2,740.0,60.0,13.2,7,5,3,1,2026-07-02T22:21:24.709190+05:30
Srinagar,Jammu and Kashmir,34.0837,74.7973,21.8,80,0.0,839.3,9.05,21.2,92,29.1,25.6,28.2,1228.0,54.0,3.7,3,5,7,1,2026-07-02T22:21:24.709197+05:30
Jammu,Jammu and Kashmir,32.7266,74.857,28.7,80,0.0,967.4,8.55,26.6,116,116.6,66.8,57.4,502.0,52.0,8.4,7,5,7,1,2026-07-02T22:21:24.709204+05:30
Amritsar,Punjab,31.634,74.8723,29.1,84,0.0,975.5,8.45,28.8,172,173.7,98.7,34.6,732.0,56.0,7.4,7,5,7,1,2026-07-02T22:21:24.709214+05:30
Ludhiana,Punjab,30.901,75.8573,28.9,88,0.0,973.9,4.3,28.8,151,128.5,86.4,43.7,801.0,61.0,13.1,7,5,3,1,2026-07-02T22:21:24.709220+05:30
Jalandhar,Punjab,31.326,75.5762,28.9,82,0.0,974.8,6.1,31.3,158,156.0,99.2,49.2,632.0,52.0,11.0,7,5,7,1,2026-07-02T22:21:24.709227+05:30
Dehradun,Uttarakhand,30.6284,78.0322,19.1,98,0.0,829.6,5.7,25.2,85,10.1,9.5,21.4,261.0,95.0,2.1,3,10,3,1,2026-07-02T22:21:24.709234+05:30
Shimla,Himachal Pradesh,31.1048,77.1734,15.5,97,0.0,782.6,6.15,25.2,90,25.7,17.8,22.4,513.0,81.0,0.7,3,10,7,0,2026-07-02T22:21:24.709244+05:30
Manali,Himachal Pradesh,32.2396,77.1887,20.7,85,0.0,818.5,9.0,42.5,64,27.5,27.3,121.3,335.0,17.0,0.0,3,5,7,1,2026-07-02T22:21:24.709252+05:30
Gurgaon,Haryana,28.4595,77.0266,28.7,83,0.0,976.4,7.8,24.8,203,93.4,59.1,41.5,1667.0,107.0,30.6,7,5,7,1,2026-07-02T22:21:24.709259+05:30
Noida,Uttar Pradesh,28.5355,77.391,29.3,80,0.0,979.5,7.65,21.2,203,93.4,59.1,41.5,868.0,107.0,30.6,7,5,7,1,2026-07-02T22:21:24.709266+05:30
Ghaziabad,Uttar Pradesh,28.6692,77.4538,29.0,83,0.0,977.8,7.35,20.5,119,36.8,34.3,26.8,420.0,71.0,11.6,7,5,7,1,2026-07-02T22:21:24.709272+05:30
Faridabad,Haryana,28.4089,77.3178,29.2,81,0.0,978.7,7.7,25.6,203,93.4,59.1,41.5,1539.0,107.0,30.6,7,5,7,1,2026-07-02T22:21:24.709279+05:30
Meerut,Uttar Pradesh,28.9845,77.7064,27.5,91,0.0,977.0,7.55,26.3,119,36.8,34.3,26.8,482.0,71.0,11.6,7,5,7,1,2026-07-02T22:21:24.709285+05:30
Agra,Uttar Pradesh,27.1767,78.0081,29.5,77,0.0,982.6,7.4,33.1,99,65.4,40.9,27.4,622.0,72.0,12.8,7,5,7,1,2026-07-02T22:21:24.709292+05:30
Varanasi,Uttar Pradesh,25.3176,82.9739,29.2,83,0.1,992.5,5.5,29.2,97,50.9,50.9,21.3,681.0,76.0,11.9,10,5,3,1,2026-07-02T22:21:24.709299+05:30
Prayagraj,Uttar Pradesh,25.4358,81.8463,29.3,87,0.0,990.9,6.95,23.4,97,38.1,38.0,16.7,441.0,81.0,7.7,7,5,7,1,2026-07-02T22:21:24.709306+05:30
Gorakhpur,Uttar Pradesh,26.7606,83.3732,29.8,82,0.0,992.6,8.15,32.8,118,32.1,32.0,17.5,404.0,78.0,8.1,7,5,7,1,2026-07-02T22:21:24.709312+05:30
Bareilly,Uttar Pradesh,28.367,79.4304,28.8,88,0.0,982.6,7.3,32.8,102,56.7,55.9,34.5,640.0,63.0,16.0,7,5,7,1,2026-07-02T22:21:24.709321+05:30
Aligarh,Uttar Pradesh,27.8974,78.088,29.5,75,0.0,980.3,7.2,29.5,136,63.3,45.1,26.5,515.0,80.0,14.7,7,5,7,1,2026-07-02T22:21:24.709327+05:30
Moradabad,Uttar Pradesh,28.8386,78.7733,28.9,85,0.0,979.4,6.75,36.0,103,74.7,70.8,41.1,553.0,59.0,17.2,7,5,7,1,2026-07-02T22:21:24.709334+05:30
Saharanpur,Uttar Pradesh,29.9637,77.546,28.1,88,0.0,971.8,7.25,36.0,113,54.5,49.5,33.9,621.0,80.0,11.6,7,5,7,1,2026-07-02T22:21:24.709340+05:30
Jhansi,Uttar Pradesh,25.4484,78.5685,28.9,80,0.0,972.9,7.7,35.3,97,53.2,31.3,13.2,299.0,70.0,4.4,7,5,7,1,2026-07-02T22:21:28.133205+05:30
Surat,Gujarat,21.1702,72.8311,25.4,99,0.3,1003.0,0.5,29.5,59,21.3,18.0,31.8,454.0,22.0,41.5,10,5,0,1,2026-07-02T22:21:28.133243+05:30
Vadodara,Gujarat,22.3072,73.1812,28.1,86,0.0,1000.3,7.45,37.8,47,14.7,11.9,17.7,200.0,38.0,5.2,7,5,4,1,2026-07-02T22:21:28.133254+05:30
Rajkot,Gujarat,22.3039,70.8022,27.4,90,0.0,990.2,5.7,47.2,54,18.1,10.6,6.9,149.0,48.0,5.2,7,5,3,1,2026-07-02T22:21:28.133263+05:30
Thane,Maharashtra,19.2183,72.9781,24.7,99,0.4,1006.0,1.1,35.6,40,23.8,12.3,9.5,348.0,50.0,6.6,6,5,0,1,2026-07-02T22:21:28.133271+05:30
Nagpur,Maharashtra,21.1458,79.0882,26.0,89,0.0,969.3,1.4,34.2,61,8.4,7.9,12.3,227.0,61.0,11.8,7,5,3,1,2026-07-02T22:21:28.133279+05:30
Nashik,Maharashtra,19.9975,73.7898,22.4,96,0.1,942.6,2.05,54.4,20,2.7,2.3,10.1,157.0,40.0,4.2,6,5,3,1,2026-07-02T22:21:28.133286+05:30
Aurangabad,Maharashtra,19.8762,75.3433,23.8,91,0.1,941.5,5.85,52.2,26,3.2,3.0,9.6,148.0,42.0,7.4,6,5,3,1,2026-07-02T22:21:28.133294+05:30
Solapur,Maharashtra,17.6599,75.9064,25.1,83,0.0,956.0,6.05,54.4,27,4.7,4.0,6.2,143.0,43.0,2.5,7,5,7,1,2026-07-02T22:21:28.133302+05:30
Kolhapur,Maharashtra,16.705,74.2433,22.4,92,0.0,947.1,1.85,46.4,21,5.3,4.4,7.1,155.0,42.0,2.3,3,5,3,1,2026-07-02T22:21:28.133309+05:30
Goa,Goa,15.2993,74.124,24.0,99,0.3,998.8,4.85,33.5,40,21.6,12.7,4.9,297.0,46.0,1.1,6,5,3,1,2026-07-02T22:21:28.133316+05:30
Jodhpur,Rajasthan,26.2389,73.0243,34.6,47,0.0,977.3,8.4,46.1,122,140.2,43.8,15.8,183.0,48.0,2.9,0,5,7,1,2026-07-02T22:21:28.133324+05:30
Udaipur,Rajasthan,24.5854,73.7125,24.7,89,0.0,942.6,7.7,31.3,62,9.9,7.6,8.0,272.0,66.0,2.9,3,5,7,1,2026-07-02T22:21:28.133331+05:30
Kota,Rajasthan,25.2138,75.8648,29.6,78,0.0,974.2,7.3,35.6,73,31.9,24.3,14.5,387.0,73.0,9.4,7,5,7,1,2026-07-02T22:21:28.133338+05:30
Bikaner,Rajasthan,28.0229,73.3119,32.3,54,0.0,975.7,8.45,33.5,154,159.3,57.6,4.5,159.0,61.0,2.2,0,5,7,1,2026-07-02T22:21:28.133345+05:30
Ajmer,Rajasthan,26.4499,74.6399,29.3,70,0.0,950.3,8.05,50.0,93,75.7,39.9,18.5,222.0,44.0,3.3,7,5,7,1,2026-07-02T22:21:28.133352+05:30
Gwalior,Madhya Pradesh,26.2183,78.1828,30.2,74,0.0,978.1,8.15,43.2,101,121.1,52.4,17.2,488.0,84.0,6.5,3,5,7,1,2026-07-02T22:21:28.133358+05:30
Indore,Madhya Pradesh,22.7196,75.8577,24.3,96,0.1,944.0,3.7,42.8,59,15.7,14.5,12.1,390.0,60.0,3.9,6,5,3,1,2026-07-02T22:21:28.133365+05:30
Bhopal,Madhya Pradesh,23.2599,77.4126,24.8,97,0.1,949.3,7.3,37.4,70,23.6,17.2,7.7,508.0,78.0,2.7,6,5,7,1,2026-07-02T22:21:28.133372+05:30
Jabalpur,Madhya Pradesh,23.1815,79.9864,25.1,97,0.0,956.7,3.7,25.6,68,42.7,31.5,19.3,293.0,54.0,5.3,7,5,3,1,2026-07-02T22:21:28.133379+05:30
Ujjain,Madhya Pradesh,23.1765,75.7885,24.6,96,0.0,949.8,7.2,32.0,56,18.4,16.7,8.1,320.0,65.0,2.7,3,5,7,1,2026-07-02T22:21:28.133386+05:30
Visakhapatnam,Andhra Pradesh,17.6868,83.2185,26.4,90,0.1,998.4,2.5,38.9,51,14.5,13.3,24.5,328.0,44.0,39.6,10,5,3,1,2026-07-02T22:21:28.133393+05:30
Vijayawada,Andhra Pradesh,16.5062,80.648,27.9,77,0.1,1000.6,7.0,58.3,41,21.4,18.2,13.7,246.0,46.0,6.3,10,5,4,1,2026-07-02T22:21:28.133399+05:30
Guntur,Andhra Pradesh,16.3067,80.4365,28.0,77,0.0,1001.8,7.4,56.5,35,21.0,17.5,12.9,196.0,49.0,6.1,7,5,4,1,2026-07-02T22:21:28.133406+05:30
Nellore,Andhra Pradesh,14.4426,79.9865,27.0,92,0.1,1005.4,7.9,47.5,37,15.5,12.2,6.6,227.0,68.0,4.4,10,5,4,1,2026-07-02T22:21:28.133414+05:30
Kurnool,Andhra Pradesh,15.8281,78.0373,27.1,73,0.0,976.2,7.1,63.7,31,6.1,4.8,7.7,151.0,48.0,3.0,7,5,7,1,2026-07-02T22:21:28.133421+05:30
Kakinada,Andhra Pradesh,16.9891,82.2475,28.8,73,0.0,1003.9,7.85,64.4,41,15.6,11.1,6.9,201.0,63.0,4.6,7,5,4,1,2026-07-02T22:21:28.133428+05:30
Tirupati,Andhra Pradesh,13.6288,79.4192,30.7,58,0.0,990.7,7.55,49.0,27,8.6,8.0,14.9,171.0,36.0,2.6,0,5,7,1,2026-07-02T22:21:28.133435+05:30
Warangal,Telangana,17.9689,79.5941,25.9,92,0.0,976.4,3.55,52.2,29,14.1,12.2,10.4,309.0,45.0,3.7,7,5,3,1,2026-07-02T22:21:28.133441+05:30
Nizamabad,Telangana,18.6725,78.0941,24.5,95,0.1,962.5,1.1,45.7,29,10.7,8.6,9.8,211.0,41.0,5.9,6,5,3,1,2026-07-02T22:21:28.133448+05:30
Mysore,Karnataka,12.2958,76.6396,22.0,89,0.0,929.7,7.25,60.5,24,4.8,4.0,9.9,149.0,38.0,2.1,3,5,7,1,2026-07-02T22:21:28.133456+05:30
Mangalore,Karnataka,12.9141,74.856,25.2,94,0.2,1009.0,4.65,43.2,26,22.2,12.2,6.9,188.0,39.0,1.9,10,0,0,1,2026-07-02T22:21:28.133462+05:30
Hubli-Dharwad,Karnataka,15.3647,75.124,22.3,96,0.0,940.6,7.65,54.7,22,1.9,1.8,7.0,144.0,42.0,1.2,3,5,7,1,2026-07-02T22:21:28.133469+05:30
Belgaum,Karnataka,15.8497,74.4977,21.3,98,0.0,925.1,7.45,50.8,22,5.7,3.5,5.0,121.0,44.0,1.6,3,5,7,1,2026-07-02T22:21:31.386202+05:30
Coimbatore,Tamil Nadu,11.0168,76.9558,23.4,93,0.0,962.8,8.35,61.2,25,6.0,5.3,9.4,209.0,35.0,3.2,3,5,7,1,2026-07-02T22:21:31.386239+05:30
Madurai,Tamil Nadu,9.9252,78.1198,30.2,56,0.0,993.5,8.65,56.5,41,7.6,6.2,8.9,152.0,45.0,3.5,0,5,7,1,2026-07-02T22:21:31.386250+05:30
Trichy,Tamil Nadu,10.7905,78.7047,29.7,60,0.0,1000.1,8.75,63.7,31,5.1,3.8,5.3,129.0,46.0,2.4,4,5,4,1,2026-07-02T22:21:31.386259+05:30
Salem,Tamil Nadu,11.6643,78.146,27.2,77,0.0,978.3,8.2,34.9,36,8.8,7.6,12.3,381.0,45.0,6.1,7,5,7,1,2026-07-02T22:21:31.386267+05:30
Tirunelveli,Tamil Nadu,8.7139,77.7567,29.2,62,0.0,1004.6,8.65,51.5,28,5.8,4.7,6.8,142.0,38.0,1.9,7,5,4,1,2026-07-02T22:21:31.386274+05:30
Vellore,Tamil Nadu,12.9165,79.1325,30.0,56,0.0,984.2,7.65,45.0,31,5.4,4.9,9.0,139.0,49.0,3.4,4,5,7,1,2026-07-02T22:21:31.386281+05:30
Erode,Tamil Nadu,11.341,77.7172,26.9,74,0.0,990.1,8.65,52.6,32,10.4,9.3,15.8,203.0,33.0,3.5,7,5,7,1,2026-07-02T22:21:31.386288+05:30
Kochi,Kerala,9.9312,76.2673,25.0,95,0.3,1012.2,8.45,43.2,51,15.2,13.1,21.5,153.0,18.0,5.1,10,0,4,1,2026-07-02T22:21:31.386295+05:30
Thiruvananthapuram,Kerala,8.5241,76.9366,25.1,92,0.1,1011.5,8.45,46.8,44,12.0,7.0,3.7,139.0,40.0,1.3,10,0,4,1,2026-07-02T22:21:31.386302+05:30
Kozhikode,Kerala,11.2588,75.7804,24.2,99,0.1,1011.0,8.1,35.3,26,12.2,6.1,1.6,202.0,53.0,0.9,6,0,4,1,2026-07-02T22:21:31.386308+05:30
Thrissur,Kerala,10.5276,76.2144,23.8,100,0.2,1010.5,8.55,34.2,46,16.2,14.3,14.5,243.0,26.0,3.9,6,0,4,1,2026-07-02T22:21:31.386315+05:30
Kannur,Kerala,11.8745,75.3704,24.8,97,0.1,1009.8,8.6,36.7,22,15.6,9.3,13.5,210.0,31.0,2.3,6,0,4,1,2026-07-02T22:21:31.386322+05:30
Patna,Bihar,25.5941,85.1376,28.1,92,0.1,996.2,5.8,34.6,101,34.1,34.0,19.9,474.0,82.0,15.1,10,5,3,1,2026-07-02T22:21:31.386330+05:30
Gaya,Bihar,24.7914,85.0002,27.3,94,0.0,989.3,6.45,27.0,87,29.3,29.1,13.2,380.0,86.0,9.9,7,5,7,1,2026-07-02T22:21:31.386337+05:30
Muzaffarpur,Bihar,26.1209,85.3647,29.0,86,0.0,996.6,6.55,35.6,96,35.3,35.3,21.9,451.0,68.0,12.1,7,5,7,1,2026-07-02T22:21:31.386344+05:30
Bhagalpur,Bihar,25.2425,87.0117,28.5,88,0.0,997.5,6.0,35.3,89,27.9,27.5,14.1,331.0,78.0,9.0,7,5,3,1,2026-07-02T22:21:31.386351+05:30
Ranchi,Jharkhand,23.3441,85.3096,23.6,97,0.0,933.2,6.8,37.4,87,25.3,25.2,15.9,292.0,69.0,18.0,3,5,7,1,2026-07-02T22:21:31.386358+05:30
Jamshedpur,Jharkhand,22.8046,86.2029,26.6,93,0.0,985.4,7.1,32.8,91,19.6,19.4,13.6,386.0,60.0,10.1,7,5,7,1,2026-07-02T22:21:31.386365+05:30
Dhanbad,Jharkhand,23.7957,86.4304,27.4,91,0.0,975.1,7.8,36.7,121,40.3,39.9,43.4,362.0,61.0,82.1,7,5,7,1,2026-07-02T22:21:31.386372+05:30
Bokaro,Jharkhand,23.6693,86.1511,27.3,91,0.0,978.8,7.0,37.8,120,38.1,37.7,39.1,431.0,70.0,85.4,7,5,7,1,2026-07-02T22:21:31.386379+05:30
Bhubaneswar,Odisha,20.2961,85.8245,26.1,98,0.1,996.0,8.75,23.4,71,22.8,22.1,13.9,494.0,75.0,5.2,10,5,7,1,2026-07-02T22:21:31.386386+05:30
Cuttack,Odisha,20.4625,85.8828,26.9,95,0.0,997.9,8.45,24.8,71,22.8,22.1,13.9,519.0,75.0,5.2,7,5,7,1,2026-07-02T22:21:31.386392+05:30
Rourkela,Odisha,22.2604,84.8536,25.8,95,0.1,979.2,5.75,34.6,120,43.8,43.5,17.9,392.0,102.0,28.6,10,5,3,1,2026-07-02T22:21:31.386400+05:30
Raipur,Chhattisgarh,21.2514,81.6296,25.1,97,0.1,970.1,5.0,35.6,82,23.4,22.7,32.2,283.0,49.0,48.8,10,5,3,1,2026-07-02T22:21:31.386406+05:30
Bhilai,Chhattisgarh,21.1938,81.3509,25.3,97,0.2,970.4,4.7,38.5,72,20.7,20.1,23.2,685.0,57.0,34.5,10,5,3,1,2026-07-02T22:21:31.386413+05:30
Guwahati,Assam,26.1158,91.7086,28.5,94,0.0,997.5,7.8,22.7,41,10.2,10.2,9.7,272.0,42.0,1.5,7,5,7,1,2026-07-02T22:21:31.386420+05:30
Agartala,Tripura,23.8315,91.2868,27.3,90,0.0,1002.4,8.05,28.4,54,14.0,13.5,10.9,220.0,54.0,3.0,7,5,4,1,2026-07-02T22:21:31.386426+05:30
Shillong,Meghalaya,25.5788,91.8933,19.8,94,0.0,855.4,8.55,26.6,35,8.5,8.5,10.7,415.0,50.0,2.3,3,10,7,1,2026-07-02T22:21:31.386433+05:30
Imphal,Manipur,24.817,93.9368,24.6,92,0.0,921.3,9.0,25.9,45,17.8,17.5,16.1,869.0,30.0,3.0,3,5,7,1,2026-07-02T22:21:31.386440+05:30
Aizawl,Mizoram,23.7271,92.7176,21.5,98,0.0,890.0,8.9,16.6,39,9.6,9.4,12.9,244.0,27.0,1.0,3,5,7,1,2026-07-02T22:21:31.386447+05:30
Kohima,Nagaland,25.6701,94.1077,20.7,93,0.0,853.5,8.85,25.9,30,4.1,4.1,9.9,371.0,29.0,0.8,3,5,7,1,2026-07-02T22:21:31.386454+05:30
Gangtok,Sikkim,27.3314,88.6138,19.4,97,0.1,838.0,8.35,30.6,44,12.9,12.6,15.9,280.0,76.0,1.6,6,10,7,1,2026-07-02T22:21:31.386461+05:30
Siliguri,West Bengal,26.7271,88.3953,28.0,90,0.0,989.6,8.3,27.7,75,24.9,24.8,16.2,645.0,85.0,4.8,7,5,7,1,2026-07-02T22:21:34.654975+05:30
Durgapur,West Bengal,23.5204,87.3119,27.4,93,0.0,989.9,7.3,36.7,117,30.3,30.0,25.5,533.0,74.0,25.0,7,5,7,1,2026-07-02T22:21:34.655014+05:30
Asansol,West Bengal,23.6739,86.9524,28.0,90,0.0,988.7,7.0,38.2,105,35.0,34.8,33.1,493.0,69.0,35.2,7,5,7,1,2026-07-02T22:21:34.655025+05:30
Pondicherry,Puducherry,11.9139,79.8145,31.2,56,0.0,1007.8,8.4,26.6,59,18.3,15.5,18.9,419.0,65.0,14.6,0,5,4,1,2026-07-02T22:21:34.655034+05:30
Port Blair,Andaman and Nicobar Islands,11.6234,92.7265,25.9,97,0.0,1007.1,3.1,47.2,40,16.9,8.7,0.4,93.0,61.0,0.5,7,5,0,1,2026-07-02T22:21:34.655042+05:30
Haridwar,Uttarakhand,29.9457,78.1642,27.6,94,0.0,970.3,5.3,23.4,87,48.4,43.7,22.1,435.0,97.0,9.8,7,5,3,1,2026-07-02T22:21:34.655050+05:30
Rishikesh,Uttarakhand,30.0869,78.2676,26.7,92,0.0,963.1,3.95,29.2,75,36.1,32.5,14.2,358.0,102.0,6.0,7,5,3,1,2026-07-02T22:21:34.655057+05:30
Nainital,Uttarakhand,29.3919,79.4542,17.6,95,0.0,804.6,7.45,21.2,76,39.8,38.0,17.5,444.0,69.0,3.3,3,10,7,1,2026-07-02T22:21:34.655064+05:30
Mussoorie,Uttarakhand,30.4599,78.0664,17.5,98,0.0,802.1,5.35,26.6,79,28.0,25.2,24.7,437.0,85.0,7.9,3,10,3,1,2026-07-02T22:21:34.655072+05:30
Dharamshala,Himachal Pradesh,32.219,76.3234,22.5,92,0.0,867.2,4.75,33.1,52,10.5,9.3,18.6,455.0,48.0,0.5,3,5,3,1,2026-07-02T22:21:34.655079+05:30
Dalhousie,Himachal Pradesh,32.5387,75.971,17.3,96,0.0,802.5,3.85,24.1,119,50.8,30.6,38.3,763.0,67.0,2.9,3,10,3,1,2026-07-02T22:21:34.655087+05:30
Patiala,Punjab,30.3398,76.3869,28.9,83,0.0,973.7,7.55,34.6,136,58.8,48.5,27.7,494.0,80.0,9.9,7,5,7,1,2026-07-02T22:21:34.655094+05:30
Bhatinda,Punjab,30.211,74.9455,30.8,72,0.0,978.3,8.3,46.4,328,295.2,104.1,28.6,401.0,70.0,11.2,3,5,7,1,2026-07-02T22:21:34.655102+05:30
Rohtak,Haryana,28.8955,76.6066,29.1,78,0.0,976.8,7.65,31.3,162,294.3,67.3,39.6,660.0,90.0,22.3,7,5,7,1,2026-07-02T22:21:34.655109+05:30
Panipat,Haryana,29.3909,76.9635,28.8,82,0.0,975.8,7.2,24.8,166,806.5,117.8,22.5,668.0,94.0,11.7,7,5,7,1,2026-07-02T22:21:34.655116+05:30
Mathura,Uttar Pradesh,27.4924,77.6737,29.6,77,0.0,981.6,7.95,37.4,120,106.2,59.1,41.6,658.0,68.0,11.1,7,5,7,1,2026-07-02T22:21:34.655123+05:30
Vrindavan,Uttar Pradesh,27.5823,77.7027,29.7,73,0.0,982.1,7.9,35.6,120,106.2,59.1,41.6,540.0,68.0,11.1,7,5,7,1,2026-07-02T22:21:34.655131+05:30
Ayodhya,Uttar Pradesh,26.7922,82.1998,29.9,83,0.0,990.8,6.9,25.9,117,33.6,33.6,18.1,425.0,71.0,6.6,7,5,7,1,2026-07-02T22:21:34.655138+05:30
Ratlam,Madhya Pradesh,23.3315,75.0367,24.2,95,0.0,950.8,7.15,41.0,52,13.5,12.8,6.2,190.0,69.0,3.1,3,5,7,1,2026-07-02T22:21:34.655145+05:30
Sagar,Madhya Pradesh,23.8388,78.7378,24.4,97,0.0,945.2,1.45,34.6,72,34.9,24.9,9.4,213.0,73.0,4.5,3,5,3,1,2026-07-02T22:21:34.655152+05:30
Satna,Madhya Pradesh,24.6005,80.8322,26.1,98,0.0,966.5,8.0,21.2,78,27.5,25.1,12.9,273.0,84.0,5.7,7,5,7,1,2026-07-02T22:21:34.655160+05:30
Akola,Maharashtra,20.7002,77.0082,25.9,94,0.1,972.1,6.45,38.5,32,8.7,8.1,11.3,199.0,46.0,4.2,10,5,7,1,2026-07-02T22:21:34.655170+05:30
Amravati,Maharashtra,20.9374,77.7796,24.9,95,0.1,963.9,3.7,42.1,32,8.9,8.2,11.7,199.0,47.0,4.2,6,5,3,1,2026-07-02T22:21:34.655178+05:30
Latur,Maharashtra,18.4088,76.5604,24.0,90,0.1,937.9,1.15,51.1,27,6.1,4.8,5.0,153.0,48.0,2.2,6,5,3,1,2026-07-02T22:21:34.655186+05:30
Nanded,Maharashtra,19.1383,77.3091,24.6,89,0.2,966.1,2.2,46.4,26,11.1,8.2,8.5,202.0,41.0,4.1,6,5,3,1,2026-07-02T22:21:34.655193+05:30
Gulbarga,Karnataka,17.3297,76.8343,26.5,72,0.0,957.5,4.55,55.8,28,5.3,4.0,7.8,158.0,42.0,3.0,7,5,3,1,2026-07-02T22:21:34.655199+05:30
Bidar,Karnataka,17.9104,77.5199,23.7,90,0.1,933.5,2.1,50.0,26,7.5,6.0,9.5,162.0,44.0,2.3,6,5,3,1,2026-07-02T22:21:34.655206+05:30
Hospet,Karnataka,15.2689,76.3909,23.4,92,0.0,956.0,6.95,57.6,24,3.1,2.8,8.1,141.0,40.0,1.6,3,5,7,1,2026-07-02T22:21:34.655212+05:30
Tirupur,Tamil Nadu,11.1085,77.3411,24.4,88,0.0,976.2,8.7,61.2,32,12.6,11.6,19.3,182.0,30.0,5.0,3,5,7,1,2026-07-02T22:21:34.655220+05:30
Alappuzha,Kerala,9.4981,76.3388,25.1,94,0.3,1012.1,8.35,46.4,46,14.4,10.8,11.9,86.0,32.0,2.9,10,0,4,1,2026-07-02T22:21:34.655227+05:30
Munnar,Kerala,10.0889,77.0595,16.9,100,0.1,858.3,8.25,43.2,25,5.0,4.3,7.4,93.0,38.0,1.9,6,10,7,1,2026-07-02T22:21:34.655234+05:30
Silchar,Assam,24.8333,92.7789,26.7,95,0.0,1001.9,8.7,25.6,75,25.8,25.2,11.3,234.0,60.0,6.4,7,5,4,1,2026-07-02T22:21:34.655241+05:30
Dibrugarh,Assam,27.4728,94.912,27.4,95,0.0,991.3,8.85,21.6,49,20.3,19.8,21.0,468.0,42.0,3.4,7,5,7,1,2026-07-02T22:21:34.655247+05:30
