city,state,latitude,longitude,temp,humidity,rain,pressure,uv_index,wind_gusts,aqi,pm10,pm2_5,no2,co,o3,so2,mosquito_risk,arthritis_risk,migraine_risk,frizz_risk,updated_at
Delhi,Delhi,28.6139,77.209,31.7,47,0.0,978.3,7.8,52.9,185,472.2,129.5,46.1,312.0,41.0,22.2,0,5,7,1,2026-06-19T03:42:16.642818+05:30
Mumbai,Maharashtra,19.076,72.8777,29.7,65,0.0,1007.2,7.7,45.0,63,26.2,13.9,6.9,117.0,43.0,7.1,7,5,4,1,2026-06-19T03:42:16.642853+05:30
Bangalore,Karnataka,12.9716,77.5946,21.0,93,0.0,910.6,7.9,33.8,52,14.8,10.4,13.6,320.0,52.0,5.0,3,5,7,1,2026-06-19T03:42:16.642869+05:30
Hyderabad,Telangana,17.385,78.4867,28.4,56,0.1,951.3,8.4,36.0,78,30.3,22.1,12.3,241.0,72.0,5.6,7,5,7,1,2026-06-19T03:42:16.642878+05:30
Chennai,Tamil Nadu,13.0827,80.2707,26.8,85,0.0,1005.0,8.4,32.4,76,17.8,14.1,13.6,314.0,62.0,8.5,7,5,4,1,2026-06-19T03:42:16.642887+05:30
Kolkata,West Bengal,22.5726,88.3639,28.6,94,0.0,1002.1,9.0,35.3,127,45.5,39.1,9.8,330.0,94.0,8.7,7,5,4,1,2026-06-19T03:42:16.642914+05:30
Pune,Maharashtra,18.5204,73.8567,23.3,84,0.0,947.2,8.35,42.8,54,24.1,15.0,9.1,134.0,35.0,7.5,3,5,7,1,2026-06-19T03:42:16.642924+05:30
Ahmedabad,Gujarat,23.0225,72.5714,26.6,90,0.0,999.4,7.9,44.6,63,23.2,13.2,6.4,149.0,40.0,4.3,7,5,7,1,2026-06-19T03:42:16.642931+05:30
Jaipur,Rajasthan,26.9124,75.7873,28.0,63,0.0,956.0,8.25,31.0,119,73.3,29.5,10.1,188.0,43.0,4.9,7,5,7,1,2026-06-19T03:42:16.642937+05:30
Lucknow,Uttar Pradesh,26.8467,80.9462,30.8,59,0.0,988.0,8.35,34.6,157,261.7,89.2,48.4,469.0,27.0,13.6,0,5,7,1,2026-06-19T03:42:16.642947+05:30
Kanpur,Uttar Pradesh,26.4499,80.3319,32.8,44,0.0,986.5,8.3,36.0,157,250.5,83.4,49.3,285.0,19.0,12.3,0,5,7,1,2026-06-19T03:42:16.642955+05:30
Chandigarh,Chandigarh,30.7333,76.7794,25.0,79,0.0,963.4,7.8,42.8,131,64.3,57.0,43.0,487.0,16.0,4.6,7,5,7,1,2026-06-19T03:42:16.642961+05:30
Srinagar,Jammu and Kashmir,34.0837,74.7973,14.5,98,0.0,839.5,8.55,30.2,75,26.1,25.6,23.4,632.0,12.0,0.0,3,10,7,0,2026-06-19T03:42:16.642970+05:30
Jammu,Jammu and Kashmir,32.7266,74.857,26.4,61,0.0,967.5,8.45,58.3,85,51.6,46.1,51.4,427.0,15.0,4.6,7,5,7,1,2026-06-19T03:42:16.642977+05:30
Amritsar,Punjab,31.634,74.8723,27.5,68,0.0,975.6,8.5,60.5,148,46.3,36.4,13.4,419.0,73.0,5.7,7,5,7,1,2026-06-19T03:42:16.642982+05:30
Ludhiana,Punjab,30.901,75.8573,27.9,65,0.0,973.7,8.05,79.2,148,63.8,60.3,33.1,742.0,44.0,9.1,7,5,7,1,2026-06-19T03:42:16.642988+05:30
Jalandhar,Punjab,31.326,75.5762,27.9,74,0.0,974.6,8.25,74.2,150,85.4,68.0,34.8,586.0,45.0,10.9,7,5,7,1,2026-06-19T03:42:16.642994+05:30
Dehradun,Uttarakhand,30.6284,78.0322,15.3,97,0.0,826.8,7.7,34.2,65,20.4,15.1,20.3,230.0,29.0,0.0,3,10,7,0,2026-06-19T03:42:16.643000+05:30
Shimla,Himachal Pradesh,31.1048,77.1734,13.7,79,0.0,781.1,7.75,40.0,83,46.9,25.7,10.7,271.0,73.0,0.0,3,5,7,0,2026-06-19T03:42:16.643006+05:30
Manali,Himachal Pradesh,32.2396,77.1887,11.5,88,0.0,813.4,9.2,39.6,37,2.1,2.1,15.7,176.0,100.0,0.0,3,10,7,0,2026-06-19T03:42:16.643014+05:30
Gurgaon,Haryana,28.4595,77.0266,29.2,57,0.0,976.7,7.9,48.6,239,455.4,122.0,65.4,290.0,23.0,31.4,4,5,7,1,2026-06-19T03:42:16.643020+05:30
Noida,Uttar Pradesh,28.5355,77.391,30.5,56,0.0,979.6,7.85,33.8,239,455.4,122.0,65.4,379.0,23.0,31.4,0,5,7,1,2026-06-19T03:42:16.643026+05:30
Ghaziabad,Uttar Pradesh,28.6692,77.4538,29.7,59,0.0,977.7,7.8,40.3,172,421.0,127.6,51.1,434.0,30.0,19.4,4,5,7,1,2026-06-19T03:42:16.643032+05:30
Faridabad,Haryana,28.4089,77.3178,30.9,49,0.0,978.9,7.85,34.6,239,455.4,122.0,65.4,334.0,23.0,31.4,0,5,7,1,2026-06-19T03:42:16.643040+05:30
Meerut,Uttar Pradesh,28.9845,77.7064,29.2,56,0.0,976.4,7.7,28.8,172,421.0,127.6,51.1,684.0,30.0,19.4,4,5,7,1,2026-06-19T03:42:16.643046+05:30
Agra,Uttar Pradesh,27.1767,78.0081,31.3,46,0.0,983.2,8.15,29.9,221,1285.2,163.0,19.9,217.0,39.0,5.9,0,5,7,1,2026-06-19T03:42:16.643051+05:30
Varanasi,Uttar Pradesh,25.3176,82.9739,32.1,53,0.0,992.5,8.8,38.5,117,29.4,23.4,14.7,495.0,62.0,7.0,0,5,7,1,2026-06-19T03:42:16.643058+05:30
Prayagraj,Uttar Pradesh,25.4358,81.8463,32.1,52,0.0,990.9,8.75,34.6,105,42.7,28.2,16.5,159.0,54.0,6.5,0,5,7,1,2026-06-19T03:42:16.643064+05:30
Gorakhpur,Uttar Pradesh,26.7606,83.3732,29.3,66,0.0,992.2,8.7,25.2,151,78.9,49.6,24.4,448.0,49.0,9.6,7,5,7,1,2026-06-19T03:42:16.643070+05:30
Bareilly,Uttar Pradesh,28.367,79.4304,28.0,69,0.0,981.8,8.15,30.6,156,129.0,88.5,51.8,504.0,24.0,14.6,7,5,7,1,2026-06-19T03:42:16.643077+05:30
Aligarh,Uttar Pradesh,27.8974,78.088,29.4,56,0.0,980.8,8.0,29.2,204,346.5,143.4,90.0,437.0,0.0,23.6,4,5,7,1,2026-06-19T03:42:16.643083+05:30
Moradabad,Uttar Pradesh,28.8386,78.7733,29.7,58,0.0,978.5,7.95,33.5,164,185.3,115.3,66.8,577.0,4.0,16.3,4,5,7,1,2026-06-19T03:42:16.643089+05:30
Saharanpur,Uttar Pradesh,29.9637,77.546,26.8,73,0.0,970.7,7.4,42.5,156,97.1,76.1,51.6,566.0,1.0,9.4,7,5,7,1,2026-06-19T03:42:16.643095+05:30
Jhansi,Uttar Pradesh,25.4484,78.5685,30.8,50,0.0,973.8,8.5,33.8,82,32.2,20.5,8.9,160.0,61.0,13.3,0,5,7,1,2026-06-19T03:42:19.980211+05:30
Surat,Gujarat,21.1702,72.8311,28.5,78,0.0,1004.9,7.6,46.4,71,28.4,18.3,25.3,267.0,22.0,41.2,7,5,4,1,2026-06-19T03:42:19.980239+05:30
Vadodara,Gujarat,22.3072,73.1812,26.8,86,0.2,1002.1,7.9,41.8,63,21.8,14.6,13.6,119.0,30.0,8.7,10,5,4,1,2026-06-19T03:42:19.980253+05:30
Rajkot,Gujarat,22.3039,70.8022,27.9,75,0.0,991.7,7.55,44.3,56,22.5,11.6,5.7,103.0,36.0,4.5,7,5,7,1,2026-06-19T03:42:19.980264+05:30
Thane,Maharashtra,19.2183,72.9781,29.2,68,0.0,1006.6,7.7,40.3,63,26.2,13.9,6.9,133.0,43.0,7.1,7,5,4,1,2026-06-19T03:42:19.980273+05:30
Nagpur,Maharashtra,21.1458,79.0882,30.1,63,0.0,970.2,8.65,40.0,85,45.8,30.6,21.9,401.0,36.0,11.2,3,5,7,1,2026-06-19T03:42:19.980281+05:30
Nashik,Maharashtra,19.9975,73.7898,23.7,88,0.0,944.4,8.0,43.2,53,21.4,13.6,11.1,129.0,33.0,10.4,3,5,7,1,2026-06-19T03:42:19.980290+05:30
Aurangabad,Maharashtra,19.8762,75.3433,25.6,68,0.0,943.0,8.5,41.4,54,22.5,14.3,8.3,121.0,41.0,7.4,7,5,7,1,2026-06-19T03:42:19.980299+05:30
Solapur,Maharashtra,17.6599,75.9064,27.6,53,0.0,956.4,8.55,42.8,57,22.5,15.7,5.7,124.0,51.0,4.0,4,5,7,1,2026-06-19T03:42:19.980308+05:30
Kolhapur,Maharashtra,16.705,74.2433,23.2,88,0.0,947.5,8.55,53.3,55,22.6,13.6,6.4,121.0,37.0,2.9,3,5,7,1,2026-06-19T03:42:19.980316+05:30
Goa,Goa,15.2993,74.124,25.6,97,0.0,998.0,8.7,30.2,62,44.9,22.9,6.1,382.0,43.0,2.3,7,5,7,1,2026-06-19T03:42:19.980325+05:30
Jodhpur,Rajasthan,26.2389,73.0243,30.7,54,0.0,978.8,8.45,39.2,108,88.0,28.6,6.7,130.0,45.0,2.4,0,5,7,1,2026-06-19T03:42:19.980333+05:30
Udaipur,Rajasthan,24.5854,73.7125,25.7,73,0.0,943.6,8.8,36.7,64,34.7,20.4,9.9,122.0,47.0,10.6,7,5,7,1,2026-06-19T03:42:19.980341+05:30
Kota,Rajasthan,25.2138,75.8648,30.5,55,0.0,975.4,8.35,33.1,74,31.5,19.6,6.8,179.0,60.0,4.9,0,5,7,1,2026-06-19T03:42:19.980348+05:30
Bikaner,Rajasthan,28.0229,73.3119,31.1,51,0.0,977.0,8.5,58.0,125,185.3,48.1,3.7,129.0,51.0,3.1,0,5,7,1,2026-06-19T03:42:19.980356+05:30
Ajmer,Rajasthan,26.4499,74.6399,27.9,64,0.0,951.1,8.35,42.1,82,25.0,14.6,6.1,148.0,55.0,3.8,7,5,7,1,2026-06-19T03:42:19.980364+05:30
Gwalior,Madhya Pradesh,26.2183,78.1828,31.7,48,0.0,978.9,8.3,33.8,96,32.5,22.2,7.4,142.0,60.0,8.5,0,5,7,1,2026-06-19T03:42:19.980372+05:30
Indore,Madhya Pradesh,22.7196,75.8577,26.4,64,0.0,946.3,8.6,42.8,67,29.7,20.3,8.1,185.0,57.0,10.2,7,5,7,1,2026-06-19T03:42:19.980380+05:30
Bhopal,Madhya Pradesh,23.2599,77.4126,26.7,67,0.0,951.1,8.7,30.2,72,24.1,17.6,6.6,213.0,60.0,3.6,7,5,7,1,2026-06-19T03:42:19.980387+05:30
Jabalpur,Madhya Pradesh,23.1815,79.9864,27.5,74,0.0,958.1,5.05,30.2,71,33.5,26.7,14.4,308.0,56.0,3.7,7,5,3,1,2026-06-19T03:42:19.980395+05:30
Ujjain,Madhya Pradesh,23.1765,75.7885,26.6,66,0.0,951.8,8.35,41.0,66,29.5,19.1,6.8,168.0,55.0,9.7,7,5,7,1,2026-06-19T03:42:19.980404+05:30
Visakhapatnam,Andhra Pradesh,17.6868,83.2185,28.2,93,0.0,1000.0,4.0,42.1,108,38.4,28.2,22.7,361.0,83.0,39.3,7,5,0,1,2026-06-19T03:42:19.980412+05:30
Vijayawada,Andhra Pradesh,16.5062,80.648,29.8,83,0.0,999.4,7.75,25.2,92,28.5,22.8,5.7,158.0,100.0,6.0,7,5,7,1,2026-06-19T03:42:19.980420+05:30
Guntur,Andhra Pradesh,16.3067,80.4365,29.3,76,0.0,1000.7,6.2,25.9,94,30.3,25.1,8.2,173.0,92.0,6.5,7,5,4,1,2026-06-19T03:42:19.980428+05:30
Nellore,Andhra Pradesh,14.4426,79.9865,28.5,75,0.0,1003.1,8.3,29.5,72,25.0,20.4,11.7,158.0,63.0,7.1,7,5,4,1,2026-06-19T03:42:19.980437+05:30
Kurnool,Andhra Pradesh,15.8281,78.0373,27.8,67,0.0,975.2,1.55,37.8,67,24.7,18.3,9.0,182.0,75.0,5.7,7,5,3,1,2026-06-19T03:42:19.980446+05:30
Kakinada,Andhra Pradesh,16.9891,82.2475,25.8,96,0.2,1005.0,8.0,40.7,87,29.8,18.8,2.8,320.0,107.0,2.7,10,5,4,1,2026-06-19T03:42:19.980455+05:30
Tirupati,Andhra Pradesh,13.6288,79.4192,25.7,83,0.0,989.3,8.8,34.2,70,19.0,16.1,14.4,207.0,45.0,2.9,7,5,7,1,2026-06-19T03:42:19.980463+05:30
Warangal,Telangana,17.9689,79.5941,29.7,56,0.0,975.8,8.85,33.1,103,34.6,29.6,9.8,351.0,79.0,5.1,4,5,7,1,2026-06-19T03:42:19.980470+05:30
Nizamabad,Telangana,18.6725,78.0941,29.8,50,0.0,961.9,8.95,31.0,85,50.2,37.0,23.7,281.0,36.0,4.8,4,5,7,1,2026-06-19T03:42:19.980478+05:30
Mysore,Karnataka,12.2958,76.6396,21.5,97,0.0,927.7,6.2,42.5,52,22.2,16.9,18.3,199.0,32.0,3.2,3,5,7,1,2026-06-19T03:42:19.980487+05:30
Mangalore,Karnataka,12.9141,74.856,25.1,96,0.0,1007.2,8.45,31.7,68,34.6,20.0,10.0,322.0,29.0,3.2,7,5,4,1,2026-06-19T03:42:19.980495+05:30
Hubli-Dharwad,Karnataka,15.3647,75.124,23.5,87,0.0,940.6,8.25,42.8,52,19.0,11.0,4.6,132.0,39.0,2.0,3,5,7,1,2026-06-19T03:42:19.980503+05:30
Belgaum,Karnataka,15.8497,74.4977,21.4,95,0.0,925.0,8.95,42.5,56,27.7,16.8,6.5,112.0,34.0,0.9,3,5,7,1,2026-06-19T03:42:23.318705+05:30
Coimbatore,Tamil Nadu,11.0168,76.9558,23.2,99,0.1,961.0,3.65,32.8,42,9.6,8.0,12.6,226.0,31.0,3.8,6,5,3,1,2026-06-19T03:42:23.318734+05:30
Madurai,Tamil Nadu,9.9252,78.1198,26.4,81,0.0,992.2,4.6,28.8,61,28.6,23.5,31.2,309.0,13.0,5.7,7,5,3,1,2026-06-19T03:42:23.318748+05:30
Trichy,Tamil Nadu,10.7905,78.7047,26.1,86,0.0,998.8,6.8,37.4,53,15.2,12.7,13.2,178.0,51.0,4.8,7,5,7,1,2026-06-19T03:42:23.318760+05:30
Salem,Tamil Nadu,11.6643,78.146,24.5,93,0.0,976.8,4.9,27.4,54,23.3,19.3,19.3,267.0,46.0,8.5,3,5,3,1,2026-06-19T03:42:23.318769+05:30
Tirunelveli,Tamil Nadu,8.7139,77.7567,27.8,69,0.0,1002.6,7.05,32.8,51,15.5,11.4,8.7,334.0,35.0,3.3,7,5,4,1,2026-06-19T03:42:23.318778+05:30
Vellore,Tamil Nadu,12.9165,79.1325,25.5,97,0.0,982.8,8.2,33.5,58,19.0,15.8,20.4,246.0,27.0,5.2,7,5,7,1,2026-06-19T03:42:23.318786+05:30
Erode,Tamil Nadu,11.341,77.7172,24.6,94,0.0,988.6,4.65,36.0,53,20.5,17.3,21.8,221.0,28.0,5.2,3,5,3,1,2026-06-19T03:42:23.318793+05:30
Kochi,Kerala,9.9312,76.2673,25.7,96,0.0,1008.7,4.75,26.3,69,23.8,20.1,21.2,305.0,12.0,5.5,7,0,0,1,2026-06-19T03:42:23.318799+05:30
Thiruvananthapuram,Kerala,8.5241,76.9366,24.5,97,0.0,1008.3,7.85,38.5,53,25.7,13.0,4.9,321.0,46.0,2.6,3,0,4,1,2026-06-19T03:42:23.318805+05:30
Kozhikode,Kerala,11.2588,75.7804,25.0,96,0.0,1008.1,8.3,34.2,52,29.8,13.1,1.7,534.0,55.0,1.2,7,0,4,1,2026-06-19T03:42:23.318811+05:30
Thrissur,Kerala,10.5276,76.2144,24.6,99,0.2,1007.2,7.75,29.2,74,25.2,20.9,18.5,346.0,14.0,4.5,6,5,4,1,2026-06-19T03:42:23.318818+05:30
Kannur,Kerala,11.8745,75.3704,25.3,96,0.0,1007.6,8.45,36.0,66,34.7,20.8,20.9,402.0,23.0,3.7,7,5,4,1,2026-06-19T03:42:23.318824+05:30
Patna,Bihar,25.5941,85.1376,28.3,82,0.0,996.1,8.75,24.5,157,75.4,54.1,29.7,328.0,47.0,9.9,7,5,7,1,2026-06-19T03:42:23.318830+05:30
Gaya,Bihar,24.7914,85.0002,29.7,65,0.0,989.5,8.65,23.4,154,53.3,42.7,13.7,235.0,79.0,17.3,7,5,7,1,2026-06-19T03:42:23.318836+05:30
Muzaffarpur,Bihar,26.1209,85.3647,27.9,84,0.0,996.4,8.9,30.2,157,80.8,62.6,32.6,602.0,43.0,10.1,7,5,7,1,2026-06-19T03:42:23.318842+05:30
Bhagalpur,Bihar,25.2425,87.0117,26.9,90,0.0,997.4,8.7,31.3,154,95.9,85.2,17.5,620.0,72.0,21.4,7,5,7,1,2026-06-19T03:42:23.318848+05:30
Ranchi,Jharkhand,23.3441,85.3096,25.3,78,0.0,934.3,8.0,32.4,150,73.1,61.0,10.8,289.0,102.0,9.9,7,5,7,1,2026-06-19T03:42:23.318854+05:30
Jamshedpur,Jharkhand,22.8046,86.2029,28.4,77,0.0,987.2,7.85,34.9,156,91.3,76.4,27.1,511.0,63.0,31.5,7,5,7,1,2026-06-19T03:42:23.318860+05:30
Dhanbad,Jharkhand,23.7957,86.4304,27.9,75,0.0,976.2,8.65,42.1,171,109.2,92.9,59.0,388.0,41.0,140.8,7,5,7,1,2026-06-19T03:42:23.318865+05:30
Bokaro,Jharkhand,23.6693,86.1511,28.5,73,0.0,979.8,5.4,36.4,167,99.0,84.1,44.4,303.0,49.0,97.7,7,5,3,1,2026-06-19T03:42:23.318871+05:30
Bhubaneswar,Odisha,20.2961,85.8245,29.4,89,0.0,998.9,9.05,40.7,119,33.3,28.6,7.7,299.0,107.0,9.6,7,5,7,1,2026-06-19T03:42:23.318877+05:30
Cuttack,Odisha,20.4625,85.8828,29.6,89,0.0,1000.6,9.15,35.6,119,33.3,28.6,7.7,332.0,107.0,9.6,7,5,4,1,2026-06-19T03:42:23.318883+05:30
Rourkela,Odisha,22.2604,84.8536,28.6,84,0.0,981.3,9.05,48.2,149,74.0,59.5,12.2,426.0,80.0,5.5,7,5,7,1,2026-06-19T03:42:23.318889+05:30
Raipur,Chhattisgarh,21.2514,81.6296,29.6,65,0.0,971.0,7.55,40.3,115,55.6,48.7,65.3,948.0,15.0,80.0,7,5,7,1,2026-06-19T03:42:23.318895+05:30
Bhilai,Chhattisgarh,21.1938,81.3509,28.3,72,0.0,971.4,8.7,46.8,105,48.0,41.8,48.3,1015.0,29.0,61.9,7,5,7,1,2026-06-19T03:42:23.318950+05:30
Guwahati,Assam,26.1158,91.7086,25.3,99,0.0,998.8,8.65,33.8,80,20.1,18.5,7.8,317.0,65.0,2.5,7,5,7,1,2026-06-19T03:42:23.318962+05:30
Agartala,Tripura,23.8315,91.2868,26.1,87,0.0,1003.7,8.4,31.0,78,28.8,21.1,6.8,175.0,84.0,2.3,7,5,4,1,2026-06-19T03:42:23.318970+05:30
Shillong,Meghalaya,25.5788,91.8933,18.8,92,0.0,855.1,8.45,23.8,62,5.5,4.6,4.2,275.0,84.0,3.5,3,10,7,1,2026-06-19T03:42:23.318977+05:30
Imphal,Manipur,24.817,93.9368,22.8,90,0.0,921.2,8.15,27.7,68,20.9,19.4,9.4,406.0,34.0,2.3,3,5,7,1,2026-06-19T03:42:23.318983+05:30
Aizawl,Mizoram,23.7271,92.7176,18.9,98,0.0,890.2,8.9,30.6,45,8.5,7.2,3.2,181.0,45.0,0.6,3,10,7,1,2026-06-19T03:42:23.318989+05:30
Kohima,Nagaland,25.6701,94.1077,19.1,95,0.0,853.5,8.4,24.5,63,8.6,7.8,4.9,231.0,44.0,0.9,3,10,7,1,2026-06-19T03:42:23.318996+05:30
Gangtok,Sikkim,27.3314,88.6138,18.1,94,0.3,835.7,9.0,33.8,70,12.5,11.4,10.2,471.0,96.0,3.9,6,10,7,1,2026-06-19T03:42:23.319003+05:30
Siliguri,West Bengal,26.7271,88.3953,24.1,98,0.2,990.6,8.0,23.0,77,32.2,27.1,10.1,372.0,107.0,4.5,6,5,7,1,2026-06-19T03:42:26.660309+05:30
Durgapur,West Bengal,23.5204,87.3119,27.0,85,0.0,991.3,9.05,36.7,171,107.1,95.2,50.2,897.0,33.0,74.3,7,5,7,1,2026-06-19T03:42:26.660336+05:30
Asansol,West Bengal,23.6739,86.9524,26.8,88,0.0,989.9,9.05,38.5,169,99.2,85.0,49.7,410.0,37.0,81.6,7,5,7,1,2026-06-19T03:42:26.660346+05:30
Pondicherry,Puducherry,11.9139,79.8145,26.4,87,0.0,1007.0,7.4,53.3,65,18.3,15.4,11.5,344.0,80.0,12.3,7,5,4,1,2026-06-19T03:42:26.660354+05:30
Port Blair,Andaman and Nicobar Islands,11.6234,92.7265,25.3,96,0.0,1007.0,8.5,34.6,20,7.1,3.7,0.2,91.0,46.0,0.3,7,5,4,1,2026-06-19T03:42:26.660361+05:30
Haridwar,Uttarakhand,29.9457,78.1642,25.9,82,0.0,969.0,7.65,23.8,123,60.1,49.4,33.8,297.0,17.0,5.5,7,5,7,1,2026-06-19T03:42:26.660367+05:30
Rishikesh,Uttarakhand,30.0869,78.2676,23.4,82,0.0,961.5,7.75,25.9,103,61.9,37.6,18.0,340.0,69.0,4.7,3,5,7,1,2026-06-19T03:42:26.660374+05:30
Nainital,Uttarakhand,29.3919,79.4542,15.7,88,0.0,803.0,6.9,29.9,106,52.2,33.1,21.8,318.0,57.0,2.7,3,10,7,0,2026-06-19T03:42:26.660381+05:30
Mussoorie,Uttarakhand,30.4599,78.0664,14.7,87,0.0,799.8,7.6,42.8,97,35.4,29.2,26.4,256.0,26.0,2.7,3,10,7,0,2026-06-19T03:42:26.660388+05:30
Dharamshala,Himachal Pradesh,32.219,76.3234,21.8,68,0.0,866.5,8.55,44.3,50,8.8,7.5,9.1,256.0,65.0,0.1,3,5,7,0,2026-06-19T03:42:26.660394+05:30
Dalhousie,Himachal Pradesh,32.5387,75.971,12.2,92,0.0,799.8,8.8,38.5,70,26.5,22.5,29.2,322.0,21.0,0.3,3,10,7,0,2026-06-19T03:42:26.660401+05:30
Patiala,Punjab,30.3398,76.3869,28.6,66,0.0,973.2,7.7,68.8,156,109.7,64.7,25.3,696.0,50.0,8.4,7,5,7,1,2026-06-19T03:42:26.660408+05:30
Bhatinda,Punjab,30.211,74.9455,30.1,61,0.0,978.6,8.3,73.8,133,60.3,48.0,31.8,454.0,44.0,8.7,3,5,7,1,2026-06-19T03:42:26.660414+05:30
Rohtak,Haryana,28.8955,76.6066,28.5,60,0.0,976.8,7.8,59.0,205,459.1,122.9,49.0,293.0,38.0,12.5,4,5,7,1,2026-06-19T03:42:26.660420+05:30
Panipat,Haryana,29.3909,76.9635,28.3,62,0.0,975.4,7.65,49.7,475,311.1,103.8,31.7,694.0,54.0,9.0,7,5,7,1,2026-06-19T03:42:26.660426+05:30
Mathura,Uttar Pradesh,27.4924,77.6737,29.0,60,0.0,982.0,8.1,27.7,173,651.9,102.7,39.7,278.0,16.0,5.6,4,5,7,1,2026-06-19T03:42:26.660432+05:30
Vrindavan,Uttar Pradesh,27.5823,77.7027,28.9,59,0.0,982.4,8.1,27.0,173,651.9,102.7,39.7,324.0,16.0,5.6,4,5,7,1,2026-06-19T03:42:26.660439+05:30
Ayodhya,Uttar Pradesh,26.7922,82.1998,29.1,74,0.0,989.9,8.45,29.9,154,129.0,69.8,37.2,537.0,26.0,9.9,7,5,7,1,2026-06-19T03:42:26.660445+05:30
Ratlam,Madhya Pradesh,23.3315,75.0367,26.1,74,0.0,952.7,8.15,38.9,66,28.2,17.6,7.9,146.0,46.0,11.5,7,5,7,1,2026-06-19T03:42:26.660451+05:30
Sagar,Madhya Pradesh,23.8388,78.7378,27.3,66,0.0,947.2,8.75,30.6,67,25.5,18.1,7.6,192.0,61.0,2.7,7,5,7,1,2026-06-19T03:42:26.660457+05:30
Satna,Madhya Pradesh,24.6005,80.8322,30.2,56,0.0,967.3,8.35,37.8,81,33.1,24.4,14.3,187.0,44.0,3.5,0,5,7,1,2026-06-19T03:42:26.660464+05:30
Akola,Maharashtra,20.7002,77.0082,30.2,47,0.0,973.4,8.8,42.5,64,26.3,17.6,8.5,122.0,68.0,9.9,0,5,7,1,2026-06-19T03:42:26.660471+05:30
Amravati,Maharashtra,20.9374,77.7796,29.2,51,0.0,965.1,8.7,39.6,67,27.8,19.0,9.7,192.0,65.0,8.1,4,5,7,1,2026-06-19T03:42:26.660478+05:30
Latur,Maharashtra,18.4088,76.5604,27.8,52,0.0,938.6,8.85,29.5,67,24.9,18.7,5.2,164.0,84.0,7.6,4,5,7,1,2026-06-19T03:42:26.660484+05:30
Nanded,Maharashtra,19.1383,77.3091,31.4,38,0.0,966.6,8.85,35.6,68,29.7,21.9,14.5,152.0,52.0,5.4,0,5,7,0,2026-06-19T03:42:26.660491+05:30
Gulbarga,Karnataka,17.3297,76.8343,28.7,50,0.0,957.2,8.85,39.6,67,22.5,17.4,13.1,134.0,44.0,4.2,4,5,7,1,2026-06-19T03:42:26.660497+05:30
Bidar,Karnataka,17.9104,77.5199,27.8,53,0.0,933.2,8.55,32.4,74,38.4,26.7,18.2,167.0,53.0,4.8,4,5,7,1,2026-06-19T03:42:26.660503+05:30
Hospet,Karnataka,15.2689,76.3909,25.0,84,0.0,955.4,8.95,36.7,52,19.2,11.2,4.7,139.0,44.0,2.0,7,5,7,1,2026-06-19T03:42:26.660509+05:30
Tirupur,Tamil Nadu,11.1085,77.3411,24.0,94,0.0,974.5,5.05,32.8,54,19.7,17.2,23.5,170.0,19.0,5.2,3,5,3,1,2026-06-19T03:42:26.660515+05:30
Alappuzha,Kerala,9.4981,76.3388,25.7,96,0.0,1008.8,6.85,32.0,61,25.2,15.1,13.0,231.0,35.0,4.0,7,0,4,1,2026-06-19T03:42:26.660521+05:30
Munnar,Kerala,10.0889,77.0595,16.2,99,0.1,855.4,3.85,23.4,26,5.2,4.0,8.9,116.0,24.0,1.5,6,10,3,1,2026-06-19T03:42:26.660527+05:30
Silchar,Assam,24.8333,92.7789,25.4,97,0.0,1003.1,8.85,31.3,79,25.7,20.5,8.0,275.0,65.0,3.7,7,5,4,1,2026-06-19T03:42:26.660533+05:30
Dibrugarh,Assam,27.4728,94.912,24.7,99,0.0,992.7,8.65,22.0,62,16.9,14.5,6.3,304.0,95.0,1.5,3,5,7,1,2026-06-19T03:42:26.660539+05:30
