city,state,latitude,longitude,temp,humidity,rain,pressure,uv_index,wind_gusts,aqi,pm10,pm2_5,mosquito_risk,arthritis_risk,migraine_risk,frizz_risk,updated_at
Delhi,Delhi,28.6139,77.209,29.2,40,0.0,983.9,7.15,31.0,598,424.7,71.0,4,5,7,0,2026-04-11T18:35:06.721417+05:30
Mumbai,Maharashtra,19.076,72.8777,29.0,71,0.0,1008.2,7.95,23.4,187,37.3,30.6,7,0,4,1,2026-04-11T18:35:06.721460+05:30
Bangalore,Karnataka,12.9716,77.5946,33.0,29,0.0,912.1,9.65,27.4,128,36.0,27.3,0,5,7,0,2026-04-11T18:35:06.721475+05:30
Hyderabad,Telangana,17.385,78.4867,36.9,24,0.0,952.8,9.2,18.7,172,42.6,32.0,0,5,10,0,2026-04-11T18:35:06.721485+05:30
Chennai,Tamil Nadu,13.0827,80.2707,30.2,76,0.0,1007.2,9.05,35.6,56,18.7,13.3,3,5,4,1,2026-04-11T18:35:06.721494+05:30
Kolkata,West Bengal,22.5726,88.3639,28.5,70,0.0,1006.2,8.75,18.0,144,71.5,57.7,7,5,4,1,2026-04-11T18:35:06.721502+05:30
Pune,Maharashtra,18.5204,73.8567,33.1,46,0.0,948.7,8.55,38.9,160,43.0,32.0,0,5,7,1,2026-04-11T18:35:06.721514+05:30
Ahmedabad,Gujarat,23.0225,72.5714,37.9,18,0.0,1001.5,8.05,22.3,159,35.4,20.8,0,5,7,0,2026-04-11T18:35:06.721522+05:30
Jaipur,Rajasthan,26.9124,75.7873,33.2,18,0.0,960.1,7.85,40.7,127,276.6,39.3,0,5,7,0,2026-04-11T18:35:06.721529+05:30
Lucknow,Uttar Pradesh,26.8467,80.9462,32.5,26,0.0,993.5,7.65,42.1,282,299.9,52.4,0,5,7,0,2026-04-11T18:35:06.721537+05:30
Kanpur,Uttar Pradesh,26.4499,80.3319,30.3,40,0.0,992.3,7.65,36.4,631,571.8,79.2,0,5,7,0,2026-04-11T18:35:06.721564+05:30
Chandigarh,Chandigarh,30.7333,76.7794,26.8,43,0.0,970.2,7.15,29.9,124,88.9,27.3,4,5,7,0,2026-04-11T18:35:06.721573+05:30
Srinagar,Jammu and Kashmir,34.0837,74.7973,13.3,59,0.0,841.7,7.4,14.0,107,36.0,15.0,0,5,7,0,2026-04-11T18:35:06.721580+05:30
Jammu,Jammu and Kashmir,32.7266,74.857,26.2,43,0.0,974.9,6.8,16.6,103,59.0,21.6,4,5,7,0,2026-04-11T18:35:06.721587+05:30
Amritsar,Punjab,31.634,74.8723,26.4,44,0.0,983.0,7.7,18.7,111,101.7,33.1,4,5,7,0,2026-04-11T18:35:06.721594+05:30
Ludhiana,Punjab,30.901,75.8573,28.3,34,0.0,980.6,7.35,28.8,116,76.4,27.4,4,5,7,0,2026-04-11T18:35:06.721601+05:30
Jalandhar,Punjab,31.326,75.5762,27.3,38,0.0,982.0,7.5,23.4,113,110.1,31.1,4,5,7,0,2026-04-11T18:35:06.721611+05:30
Dehradun,Uttarakhand,30.6284,78.0322,17.2,51,0.0,830.4,7.55,42.5,112,77.3,16.2,0,5,7,0,2026-04-11T18:35:06.721618+05:30
Shimla,Himachal Pradesh,31.1048,77.1734,14.0,60,0.0,785.0,7.5,46.4,107,80.1,19.2,0,5,7,0,2026-04-11T18:35:06.721625+05:30
Manali,Himachal Pradesh,32.2396,77.1887,14.3,70,0.0,819.2,8.5,29.5,150,36.8,9.3,3,5,7,0,2026-04-11T18:35:06.721632+05:30
Gurgaon,Haryana,28.4595,77.0266,28.5,53,0.0,982.2,7.3,26.3,1582,689.2,93.8,4,5,7,1,2026-04-11T18:35:06.721638+05:30
Noida,Uttar Pradesh,28.5355,77.391,29.0,41,0.0,985.3,7.2,31.3,1582,689.2,93.8,4,5,7,0,2026-04-11T18:35:06.721646+05:30
Ghaziabad,Uttar Pradesh,28.6692,77.4538,28.5,46,0.0,983.4,7.15,29.9,468,384.6,69.2,4,5,7,0,2026-04-11T18:35:06.721652+05:30
Faridabad,Haryana,28.4089,77.3178,28.8,39,0.0,984.6,7.25,31.0,1582,689.2,93.8,4,5,7,0,2026-04-11T18:35:06.721659+05:30
Meerut,Uttar Pradesh,28.9845,77.7064,28.2,45,0.0,982.0,7.05,34.2,468,384.6,69.2,4,5,7,0,2026-04-11T18:35:06.721665+05:30
Agra,Uttar Pradesh,27.1767,78.0081,31.4,35,0.0,988.1,7.55,28.8,976,353.0,60.8,0,5,7,0,2026-04-11T18:35:06.721672+05:30
Varanasi,Uttar Pradesh,25.3176,82.9739,32.0,31,0.0,997.4,8.25,37.8,133,77.8,32.4,0,5,7,0,2026-04-11T18:35:06.721682+05:30
Prayagraj,Uttar Pradesh,25.4358,81.8463,32.0,27,0.0,996.8,8.15,39.2,136,135.0,38.4,0,5,7,0,2026-04-11T18:35:06.721689+05:30
Gorakhpur,Uttar Pradesh,26.7606,83.3732,31.9,23,0.0,996.3,8.1,29.2,147,56.7,25.3,0,5,7,0,2026-04-11T18:35:06.721698+05:30
Bareilly,Uttar Pradesh,28.367,79.4304,29.0,37,0.0,987.2,7.45,46.4,117,60.8,23.2,4,5,7,0,2026-04-11T18:35:06.721704+05:30
Aligarh,Uttar Pradesh,27.8974,78.088,29.8,34,0.0,986.3,7.35,37.1,1043,745.1,101.0,4,5,7,0,2026-04-11T18:35:06.721711+05:30
Moradabad,Uttar Pradesh,28.8386,78.7733,28.3,42,0.0,984.1,7.3,41.4,105,131.8,36.9,4,5,7,0,2026-04-11T18:35:06.721718+05:30
Saharanpur,Uttar Pradesh,29.9637,77.546,28.0,39,0.0,976.5,6.85,35.3,110,91.3,29.9,4,5,7,0,2026-04-11T18:35:06.721726+05:30
Jhansi,Uttar Pradesh,25.4484,78.5685,33.7,23,0.0,978.5,8.1,25.6,122,27.6,10.3,0,5,7,0,2026-04-11T18:35:09.982482+05:30
Surat,Gujarat,21.1702,72.8311,34.3,29,0.0,1006.3,7.8,27.7,154,55.6,51.2,0,5,4,0,2026-04-11T18:35:09.982512+05:30
Vadodara,Gujarat,22.3072,73.1812,36.7,22,0.0,1003.6,8.05,18.4,178,33.3,26.1,0,5,7,0,2026-04-11T18:35:09.982522+05:30
Rajkot,Gujarat,22.3039,70.8022,36.6,22,0.0,994.5,7.75,31.3,125,55.1,22.5,0,5,10,0,2026-04-11T18:35:09.982530+05:30
Thane,Maharashtra,19.2183,72.9781,30.2,57,0.0,1007.7,7.95,37.1,187,37.3,30.6,0,5,4,1,2026-04-11T18:35:09.982537+05:30
Nagpur,Maharashtra,21.1458,79.0882,32.1,40,0.0,973.1,8.75,22.7,159,20.1,14.2,0,5,7,1,2026-04-11T18:35:09.982582+05:30
Nashik,Maharashtra,19.9975,73.7898,32.8,32,0.0,946.3,8.25,36.7,178,35.5,28.9,0,5,7,0,2026-04-11T18:35:09.982592+05:30
Aurangabad,Maharashtra,19.8762,75.3433,35.5,23,0.0,944.3,8.9,33.1,145,25.3,15.6,0,5,10,0,2026-04-11T18:35:09.982599+05:30
Solapur,Maharashtra,17.6599,75.9064,38.1,20,0.0,956.2,9.0,18.7,164,34.3,20.9,0,5,10,0,2026-04-11T18:35:09.982607+05:30
Kolhapur,Maharashtra,16.705,74.2433,29.8,53,0.0,947.9,8.5,42.5,156,37.6,29.2,4,5,7,1,2026-04-11T18:35:09.982614+05:30
Goa,Goa,15.2993,74.124,28.9,78,0.0,998.0,9.05,34.9,108,72.4,30.4,7,5,7,1,2026-04-11T18:35:09.982622+05:30
Jodhpur,Rajasthan,26.2389,73.0243,34.8,24,0.0,982.7,8.05,33.1,111,226.8,40.6,0,5,7,0,2026-04-11T18:35:09.982628+05:30
Udaipur,Rajasthan,24.5854,73.7125,32.6,23,0.0,947.6,8.6,36.4,123,24.6,12.3,0,5,7,0,2026-04-11T18:35:09.982635+05:30
Kota,Rajasthan,25.2138,75.8648,33.6,31,0.0,978.7,8.1,21.6,137,23.9,14.1,0,5,7,0,2026-04-11T18:35:09.982641+05:30
Bikaner,Rajasthan,28.0229,73.3119,33.6,23,0.0,982.4,7.9,32.8,129,101.0,24.7,0,5,7,0,2026-04-11T18:35:09.982648+05:30
Ajmer,Rajasthan,26.4499,74.6399,31.4,27,0.0,955.3,8.0,40.3,119,46.6,16.5,0,5,7,0,2026-04-11T18:35:09.982656+05:30
Gwalior,Madhya Pradesh,26.2183,78.1828,32.4,31,0.0,984.0,7.8,30.6,131,23.5,11.9,0,5,7,0,2026-04-11T18:35:09.982664+05:30
Indore,Madhya Pradesh,22.7196,75.8577,32.0,26,0.0,949.3,8.5,21.6,154,31.7,20.8,0,5,7,0,2026-04-11T18:35:09.982670+05:30
Bhopal,Madhya Pradesh,23.2599,77.4126,33.8,18,0.0,954.7,8.5,24.5,127,26.0,10.8,0,5,7,0,2026-04-11T18:35:09.982676+05:30
Jabalpur,Madhya Pradesh,23.1815,79.9864,32.6,23,0.0,962.5,8.6,18.4,133,54.9,23.1,0,5,7,0,2026-04-11T18:35:09.982683+05:30
Ujjain,Madhya Pradesh,23.1765,75.7885,32.8,24,0.0,954.9,8.4,20.5,139,33.3,22.9,0,5,7,0,2026-04-11T18:35:09.982689+05:30
Visakhapatnam,Andhra Pradesh,17.6868,83.2185,29.1,79,0.0,1004.1,9.15,39.6,79,27.6,21.5,7,5,4,1,2026-04-11T18:35:09.982696+05:30
Vijayawada,Andhra Pradesh,16.5062,80.648,35.3,44,0.0,1001.4,9.2,25.6,91,36.6,30.9,0,5,7,1,2026-04-11T18:35:09.982702+05:30
Guntur,Andhra Pradesh,16.3067,80.4365,32.3,50,0.0,1003.1,9.25,33.5,110,39.5,32.2,0,5,4,1,2026-04-11T18:35:09.982709+05:30
Nellore,Andhra Pradesh,14.4426,79.9865,30.4,66,0.0,1005.6,9.3,40.7,82,19.9,14.7,3,5,4,1,2026-04-11T18:35:09.982717+05:30
Kurnool,Andhra Pradesh,15.8281,78.0373,38.4,29,0.0,975.2,9.2,27.0,132,30.4,22.5,0,5,10,1,2026-04-11T18:35:09.982724+05:30
Kakinada,Andhra Pradesh,16.9891,82.2475,31.1,63,0.0,1006.9,9.2,33.8,61,22.4,15.0,3,5,4,1,2026-04-11T18:35:09.982730+05:30
Tirupati,Andhra Pradesh,13.6288,79.4192,34.6,36,0.0,990.7,9.4,32.0,89,31.0,24.9,0,5,7,1,2026-04-11T18:35:09.982736+05:30
Warangal,Telangana,17.9689,79.5941,35.8,35,0.0,977.8,9.05,25.2,156,38.5,29.3,0,5,10,1,2026-04-11T18:35:09.982742+05:30
Nizamabad,Telangana,18.6725,78.0941,35.0,34,0.0,964.6,9.0,24.8,175,40.4,27.6,0,5,7,1,2026-04-11T18:35:09.982748+05:30
Mysore,Karnataka,12.2958,76.6396,32.9,36,0.0,928.1,9.35,38.9,127,38.6,28.1,0,5,7,0,2026-04-11T18:35:09.982755+05:30
Mangalore,Karnataka,12.9141,74.856,29.7,79,0.0,1006.6,8.6,25.9,87,71.0,29.3,7,5,4,1,2026-04-11T18:35:09.982761+05:30
Hubli-Dharwad,Karnataka,15.3647,75.124,29.9,61,0.0,940.6,9.25,42.5,173,41.4,28.6,7,5,7,1,2026-04-11T18:35:09.982768+05:30
Belgaum,Karnataka,15.8497,74.4977,28.1,67,0.0,926.0,9.3,43.9,169,42.0,28.2,7,5,7,1,2026-04-11T18:35:13.232457+05:30
Coimbatore,Tamil Nadu,11.0168,76.9558,31.2,59,0.0,961.3,8.2,46.1,120,32.4,24.3,0,5,7,1,2026-04-11T18:35:13.232489+05:30
Madurai,Tamil Nadu,9.9252,78.1198,35.9,35,0.0,991.7,8.45,40.0,100,24.9,20.4,0,5,10,1,2026-04-11T18:35:13.232500+05:30
Trichy,Tamil Nadu,10.7905,78.7047,34.7,44,0.0,998.6,9.4,27.7,90,23.9,19.8,0,5,7,1,2026-04-11T18:35:13.232509+05:30
Salem,Tamil Nadu,11.6643,78.146,35.6,32,0.0,976.1,9.1,21.6,115,28.8,21.9,0,5,10,1,2026-04-11T18:35:13.232516+05:30
Tirunelveli,Tamil Nadu,8.7139,77.7567,32.6,54,0.0,1002.5,9.25,46.1,106,23.7,20.0,0,5,4,1,2026-04-11T18:35:13.232523+05:30
Vellore,Tamil Nadu,12.9165,79.1325,34.0,34,0.0,983.9,9.45,35.3,96,32.8,27.8,0,5,7,0,2026-04-11T18:35:13.232530+05:30
Erode,Tamil Nadu,11.341,77.7172,36.7,33,0.0,987.3,8.95,31.0,122,28.1,21.4,0,5,10,1,2026-04-11T18:35:13.232538+05:30
Kochi,Kerala,9.9312,76.2673,29.6,82,0.0,1008.1,8.8,29.9,75,33.4,19.4,7,0,4,1,2026-04-11T18:35:13.232568+05:30
Thiruvananthapuram,Kerala,8.5241,76.9366,29.2,81,0.0,1008.2,7.6,36.4,77,31.2,17.3,7,0,4,1,2026-04-11T18:35:13.232578+05:30
Kozhikode,Kerala,11.2588,75.7804,30.1,79,0.0,1007.3,8.75,28.8,61,36.9,14.5,3,5,4,1,2026-04-11T18:35:13.232586+05:30
Thrissur,Kerala,10.5276,76.2144,30.0,77,0.0,1006.5,8.8,31.7,67,29.4,16.9,7,5,4,1,2026-04-11T18:35:13.232593+05:30
Kannur,Kerala,11.8745,75.3704,30.0,77,0.0,1007.0,8.65,31.3,65,68.9,28.3,7,5,4,1,2026-04-11T18:35:13.232601+05:30
Patna,Bihar,25.5941,85.1376,32.4,32,0.0,999.1,8.45,28.4,150,102.2,44.8,0,5,7,0,2026-04-11T18:35:13.232608+05:30
Gaya,Bihar,24.7914,85.0002,30.3,29,0.0,993.4,8.5,33.5,132,85.2,33.8,0,5,7,0,2026-04-11T18:35:13.232614+05:30
Muzaffarpur,Bihar,26.1209,85.3647,30.5,35,0.0,999.1,8.4,16.2,146,109.9,49.0,0,5,7,0,2026-04-11T18:35:13.232620+05:30
Bhagalpur,Bihar,25.2425,87.0117,27.9,55,0.0,1000.8,8.45,20.5,167,298.0,66.1,4,5,4,1,2026-04-11T18:35:13.232626+05:30
Ranchi,Jharkhand,23.3441,85.3096,29.2,21,0.0,939.0,9.05,31.7,125,86.6,26.5,4,5,7,0,2026-04-11T18:35:13.232633+05:30
Jamshedpur,Jharkhand,22.8046,86.2029,29.3,45,0.0,991.0,8.85,14.8,163,153.2,37.1,4,5,7,1,2026-04-11T18:35:13.232639+05:30
Dhanbad,Jharkhand,23.7957,86.4304,31.3,27,0.0,979.9,8.8,24.5,147,160.7,54.8,0,5,7,0,2026-04-11T18:35:13.232646+05:30
Bokaro,Jharkhand,23.6693,86.1511,29.4,30,0.0,984.1,8.8,25.6,136,136.4,47.3,4,5,7,0,2026-04-11T18:35:13.232652+05:30
Bhubaneswar,Odisha,20.2961,85.8245,29.9,74,0.0,1002.8,9.0,26.3,171,59.0,49.6,7,5,4,1,2026-04-11T18:35:13.232658+05:30
Cuttack,Odisha,20.4625,85.8828,32.4,54,0.0,1004.3,9.05,20.2,171,59.0,49.6,0,5,4,1,2026-04-11T18:35:13.232665+05:30
Rourkela,Odisha,22.2604,84.8536,30.8,40,0.0,985.5,8.75,16.2,151,153.2,40.5,0,5,7,0,2026-04-11T18:35:13.232671+05:30
Raipur,Chhattisgarh,21.2514,81.6296,34.9,23,0.0,974.6,8.85,21.6,159,57.4,31.9,0,5,7,0,2026-04-11T18:35:13.232677+05:30
Bhilai,Chhattisgarh,21.1938,81.3509,34.0,28,0.0,974.9,8.85,19.8,148,52.4,29.9,0,5,7,0,2026-04-11T18:35:13.232683+05:30
Guwahati,Assam,26.1158,91.7086,26.4,67,0.0,1001.9,8.35,20.2,140,51.9,37.7,7,5,4,1,2026-04-11T18:35:13.232690+05:30
Agartala,Tripura,23.8315,91.2868,27.1,69,0.0,1006.1,8.6,21.6,183,46.1,37.7,7,5,4,1,2026-04-11T18:35:13.232696+05:30
Shillong,Meghalaya,25.5788,91.8933,13.4,78,0.0,855.2,8.75,52.2,157,53.1,37.1,3,5,7,0,2026-04-11T18:35:13.232703+05:30
Imphal,Manipur,24.817,93.9368,17.4,71,0.0,923.1,8.95,52.2,137,39.9,25.1,3,5,7,0,2026-04-11T18:35:13.232709+05:30
Aizawl,Mizoram,23.7271,92.7176,19.4,69,0.0,892.8,8.8,41.8,133,48.7,32.8,3,5,7,0,2026-04-11T18:35:13.232715+05:30
Kohima,Nagaland,25.6701,94.1077,13.8,87,0.0,854.0,7.6,65.9,130,39.0,26.7,3,10,7,0,2026-04-11T18:35:13.232722+05:30
Gangtok,Sikkim,27.3314,88.6138,13.5,88,0.0,836.4,8.55,18.4,115,36.2,31.4,3,10,7,0,2026-04-11T18:35:13.232728+05:30
Siliguri,West Bengal,26.7271,88.3953,21.8,70,0.0,994.4,8.2,18.0,137,52.0,36.1,3,5,7,1,2026-04-11T18:35:16.485242+05:30
Durgapur,West Bengal,23.5204,87.3119,28.1,48,0.0,995.1,8.75,20.9,167,239.3,71.0,4,5,7,1,2026-04-11T18:35:16.485273+05:30
Asansol,West Bengal,23.6739,86.9524,29.3,42,0.0,993.6,8.75,22.7,159,197.9,56.9,4,5,7,0,2026-04-11T18:35:16.485284+05:30
Pondicherry,Puducherry,11.9139,79.8145,30.2,75,0.0,1008.1,9.35,34.9,60,18.3,12.6,3,0,4,1,2026-04-11T18:35:16.485292+05:30
Port Blair,Andaman and Nicobar Islands,11.6234,92.7265,29.1,77,0.0,1007.9,9.25,26.3,30,8.9,5.8,7,5,4,1,2026-04-11T18:35:16.485300+05:30
Haridwar,Uttarakhand,29.9457,78.1642,27.4,41,0.0,975.0,7.0,42.1,106,57.6,21.8,4,5,7,0,2026-04-11T18:35:16.485307+05:30
Rishikesh,Uttarakhand,30.0869,78.2676,26.3,42,0.0,967.8,6.9,42.1,102,60.3,17.6,4,5,7,0,2026-04-11T18:35:16.485314+05:30
Nainital,Uttarakhand,29.3919,79.4542,20.5,40,0.0,807.2,7.85,69.8,99,63.8,19.6,0,5,7,0,2026-04-11T18:35:16.485321+05:30
Mussoorie,Uttarakhand,30.4599,78.0664,17.4,49,0.0,803.2,7.45,59.8,103,95.7,21.8,0,5,7,0,2026-04-11T18:35:16.485328+05:30
Dharamshala,Himachal Pradesh,32.219,76.3234,18.7,69,0.0,870.1,7.5,30.6,129,41.1,10.6,3,5,7,0,2026-04-11T18:35:16.485335+05:30
Dalhousie,Himachal Pradesh,32.5387,75.971,15.7,66,0.0,804.0,6.7,23.4,109,65.2,19.0,3,5,7,0,2026-04-11T18:35:16.485342+05:30
Patiala,Punjab,30.3398,76.3869,28.6,34,0.0,979.6,6.95,30.6,508,225.8,40.6,4,5,7,0,2026-04-11T18:35:16.485349+05:30
Bhatinda,Punjab,30.211,74.9455,28.9,35,0.0,985.2,7.7,30.2,137,180.7,40.4,4,5,7,0,2026-04-11T18:35:16.485355+05:30
Rohtak,Haryana,28.8955,76.6066,28.8,40,0.0,982.5,7.1,25.9,817,370.7,61.7,4,5,7,0,2026-04-11T18:35:16.485362+05:30
Panipat,Haryana,29.3909,76.9635,28.8,38,0.0,981.1,6.95,29.5,1647,802.8,103.6,4,5,7,0,2026-04-11T18:35:16.485368+05:30
Mathura,Uttar Pradesh,27.4924,77.6737,31.1,36,0.0,987.2,7.5,27.7,1026,366.0,62.9,0,5,7,0,2026-04-11T18:35:16.485374+05:30
Vrindavan,Uttar Pradesh,27.5823,77.7027,30.3,38,0.0,987.7,7.45,32.0,1026,366.0,62.9,0,5,7,0,2026-04-11T18:35:16.485381+05:30
Ayodhya,Uttar Pradesh,26.7922,82.1998,32.5,23,0.0,994.8,7.85,43.6,149,140.2,35.4,0,5,7,0,2026-04-11T18:35:16.485387+05:30
Ratlam,Madhya Pradesh,23.3315,75.0367,31.2,42,0.0,955.7,8.35,19.8,132,18.3,10.6,0,5,7,1,2026-04-11T18:35:16.485393+05:30
Sagar,Madhya Pradesh,23.8388,78.7378,32.7,24,0.0,951.4,8.5,27.4,115,42.3,12.4,0,5,7,0,2026-04-11T18:35:16.485399+05:30
Satna,Madhya Pradesh,24.6005,80.8322,32.8,22,0.0,972.5,8.5,28.1,127,55.2,18.7,0,5,7,0,2026-04-11T18:35:16.485406+05:30
Akola,Maharashtra,20.7002,77.0082,36.3,18,0.0,974.8,8.75,29.5,170,27.2,18.9,0,5,10,0,2026-04-11T18:35:16.485413+05:30
Amravati,Maharashtra,20.9374,77.7796,34.7,31,0.0,967.0,8.75,23.4,171,27.9,19.2,0,5,7,0,2026-04-11T18:35:16.485421+05:30
Latur,Maharashtra,18.4088,76.5604,33.9,33,0.0,940.0,9.0,20.9,162,31.0,23.6,0,5,7,0,2026-04-11T18:35:16.485427+05:30
Nanded,Maharashtra,19.1383,77.3091,34.7,34,0.0,968.3,8.9,17.3,159,31.7,19.5,0,5,7,1,2026-04-11T18:35:16.485434+05:30
Gulbarga,Karnataka,17.3297,76.8343,37.9,21,0.0,957.9,9.05,19.8,161,39.3,27.1,0,5,10,0,2026-04-11T18:35:16.485440+05:30
Bidar,Karnataka,17.9104,77.5199,35.2,27,0.0,935.8,9.05,25.2,162,27.6,20.5,0,5,10,0,2026-04-11T18:35:16.485446+05:30
Hospet,Karnataka,15.2689,76.3909,36.7,30,0.0,954.9,9.25,27.7,178,41.8,33.8,0,5,10,1,2026-04-11T18:35:16.485452+05:30
Tirupur,Tamil Nadu,11.1085,77.3411,36.4,27,0.0,974.1,8.95,32.4,134,32.1,24.1,0,5,10,0,2026-04-11T18:35:16.485458+05:30
Alappuzha,Kerala,9.4981,76.3388,29.7,81,0.0,1008.2,8.9,30.6,92,39.6,21.0,7,0,4,1,2026-04-11T18:35:16.485464+05:30
Munnar,Kerala,10.0889,77.0595,24.7,83,0.0,858.0,9.65,38.5,80,27.6,21.9,3,5,7,1,2026-04-11T18:35:16.485471+05:30
Silchar,Assam,24.8333,92.7789,27.3,62,0.0,1005.0,8.6,24.5,152,68.9,51.5,7,5,4,1,2026-04-11T18:35:16.485477+05:30
Dibrugarh,Assam,27.4728,94.912,24.4,70,0.0,996.5,8.4,25.2,102,47.0,39.2,3,5,7,1,2026-04-11T18:35:16.485484+05:30
