city,state,latitude,longitude,temp,humidity,rain,pressure,uv_index,wind_gusts,aqi,pm10,pm2_5,no2,co,o3,so2,mosquito_risk,arthritis_risk,migraine_risk,frizz_risk,updated_at
Delhi,Delhi,28.6139,77.209,32.2,65,0.0,977.3,7.7,26.3,180,746.9,186.3,61.3,1410.0,49.0,24.1,3,5,7,1,2026-07-15T20:22:58.451200+05:30
Mumbai,Maharashtra,19.076,72.8777,26.6,85,0.0,1007.5,7.75,48.2,69,43.2,19.0,13.6,266.0,49.0,10.9,7,5,4,1,2026-07-15T20:22:58.451261+05:30
Bangalore,Karnataka,12.9716,77.5946,26.5,52,0.0,912.1,9.15,42.1,61,16.1,13.5,27.1,389.0,58.0,5.8,4,5,7,0,2026-07-15T20:22:58.451278+05:30
Hyderabad,Telangana,17.385,78.4867,28.3,58,0.0,952.1,8.95,46.1,76,33.8,18.7,7.0,307.0,76.0,3.7,4,5,7,1,2026-07-15T20:22:58.451290+05:30
Chennai,Tamil Nadu,13.0827,80.2707,31.7,69,0.0,1004.8,8.75,37.8,149,42.6,29.0,9.9,253.0,151.0,7.4,3,5,4,1,2026-07-15T20:22:58.451301+05:30
Kolkata,West Bengal,22.5726,88.3639,28.5,84,0.0,999.4,7.3,38.2,115,26.1,25.1,19.2,448.0,69.0,12.6,7,5,7,1,2026-07-15T20:22:58.451312+05:30
Pune,Maharashtra,18.5204,73.8567,23.7,84,0.0,947.2,8.1,49.7,53,14.8,8.8,10.6,189.0,42.0,5.8,3,5,7,1,2026-07-15T20:22:58.451321+05:30
Ahmedabad,Gujarat,23.0225,72.5714,29.4,71,0.1,998.8,7.0,45.4,66,54.7,26.7,9.2,200.0,64.0,6.2,10,5,7,1,2026-07-15T20:22:58.451330+05:30
Jaipur,Rajasthan,26.9124,75.7873,31.8,55,0.0,955.6,7.85,38.2,345,283.1,70.3,17.6,269.0,64.0,6.0,0,5,7,1,2026-07-15T20:22:58.451354+05:30
Lucknow,Uttar Pradesh,26.8467,80.9462,30.8,82,0.0,988.0,7.05,24.1,164,114.3,61.7,15.2,667.0,91.0,7.6,3,5,7,1,2026-07-15T20:22:58.451367+05:30
Kanpur,Uttar Pradesh,26.4499,80.3319,31.4,72,0.0,986.6,7.6,36.7,157,131.3,66.6,15.1,261.0,85.0,7.3,3,5,7,1,2026-07-15T20:22:58.451375+05:30
Chandigarh,Chandigarh,30.7333,76.7794,29.7,74,0.0,963.0,7.7,32.4,207,85.4,67.3,20.9,1065.0,153.0,15.4,7,5,7,1,2026-07-15T20:22:58.451384+05:30
Srinagar,Jammu and Kashmir,34.0837,74.7973,25.6,57,0.0,838.6,8.8,20.2,130,31.8,20.1,22.7,840.0,104.0,3.8,4,5,7,1,2026-07-15T20:22:58.451394+05:30
Jammu,Jammu and Kashmir,32.7266,74.857,28.5,73,0.0,966.8,8.55,16.9,168,73.3,54.6,36.4,694.0,127.0,7.6,7,5,7,1,2026-07-15T20:22:58.451402+05:30
Amritsar,Punjab,31.634,74.8723,30.5,79,0.0,974.7,8.35,22.0,190,130.4,78.0,33.2,583.0,107.0,10.7,3,5,7,1,2026-07-15T20:22:58.451410+05:30
Ludhiana,Punjab,30.901,75.8573,31.1,74,0.0,972.6,7.9,27.0,188,102.2,72.2,24.0,651.0,90.0,7.0,3,5,7,1,2026-07-15T20:22:58.451418+05:30
Jalandhar,Punjab,31.326,75.5762,30.5,76,0.0,973.7,8.15,23.4,193,122.0,78.9,28.9,918.0,93.0,6.7,3,5,7,1,2026-07-15T20:22:58.451425+05:30
Dehradun,Uttarakhand,30.6284,78.0322,19.8,100,0.0,828.2,7.75,26.6,136,52.7,36.3,13.3,340.0,138.0,5.5,3,10,7,1,2026-07-15T20:22:58.451433+05:30
Shimla,Himachal Pradesh,31.1048,77.1734,16.4,94,0.0,782.3,8.2,39.6,152,61.5,42.1,10.2,363.0,162.0,11.0,3,10,7,0,2026-07-15T20:22:58.451441+05:30
Manali,Himachal Pradesh,32.2396,77.1887,19.8,91,0.0,817.4,9.5,31.3,119,20.3,11.8,31.7,192.0,104.0,1.2,3,10,7,1,2026-07-15T20:22:58.451450+05:30
Gurgaon,Haryana,28.4595,77.0266,31.3,68,0.0,975.7,7.75,29.9,213,633.3,169.0,49.9,1192.0,49.0,15.7,3,5,7,1,2026-07-15T20:22:58.451458+05:30
Noida,Uttar Pradesh,28.5355,77.391,31.6,68,0.0,978.7,7.7,29.9,213,633.3,169.0,49.9,1275.0,49.0,15.7,3,5,7,1,2026-07-15T20:22:58.451465+05:30
Ghaziabad,Uttar Pradesh,28.6692,77.4538,31.3,78,0.0,976.9,7.65,32.0,172,590.5,167.6,47.9,583.0,73.0,22.3,3,5,7,1,2026-07-15T20:22:58.451473+05:30
Faridabad,Haryana,28.4089,77.3178,32.1,64,0.0,978.0,7.7,28.4,213,633.3,169.0,49.9,812.0,49.0,15.7,3,5,7,1,2026-07-15T20:22:58.451484+05:30
Meerut,Uttar Pradesh,28.9845,77.7064,30.9,72,0.0,975.7,7.6,38.2,172,590.5,167.6,47.9,516.0,73.0,22.3,3,5,7,1,2026-07-15T20:22:58.451492+05:30
Agra,Uttar Pradesh,27.1767,78.0081,31.0,67,0.0,982.7,6.85,34.2,152,112.0,54.6,17.5,545.0,67.0,6.5,3,5,7,1,2026-07-15T20:22:58.451498+05:30
Varanasi,Uttar Pradesh,25.3176,82.9739,31.5,78,0.0,992.3,8.55,28.1,180,110.1,62.2,13.3,1076.0,104.0,9.0,3,5,7,1,2026-07-15T20:22:58.451505+05:30
Prayagraj,Uttar Pradesh,25.4358,81.8463,31.6,76,0.0,990.7,8.55,26.6,171,114.1,64.7,22.1,328.0,79.0,12.5,3,5,7,1,2026-07-15T20:22:58.451513+05:30
Gorakhpur,Uttar Pradesh,26.7606,83.3732,28.8,91,0.0,992.1,8.45,23.0,158,88.0,48.8,13.8,437.0,94.0,6.2,7,5,7,1,2026-07-15T20:22:58.451520+05:30
Bareilly,Uttar Pradesh,28.367,79.4304,30.8,77,0.0,981.1,8.0,22.7,162,108.7,75.7,25.4,456.0,96.0,12.9,3,5,7,1,2026-07-15T20:22:58.451530+05:30
Aligarh,Uttar Pradesh,27.8974,78.088,30.8,72,0.0,980.0,7.7,34.6,160,497.3,127.6,17.6,369.0,84.0,6.9,3,5,7,1,2026-07-15T20:22:58.451538+05:30
Moradabad,Uttar Pradesh,28.8386,78.7733,31.1,78,0.0,977.8,7.8,28.1,167,163.0,104.8,39.3,632.0,104.0,18.1,3,5,7,1,2026-07-15T20:22:58.451545+05:30
Saharanpur,Uttar Pradesh,29.9637,77.546,30.7,74,0.0,969.6,7.35,32.8,186,251.5,102.0,23.5,585.0,124.0,14.6,3,5,7,1,2026-07-15T20:22:58.451553+05:30
Jhansi,Uttar Pradesh,25.4484,78.5685,30.4,69,0.0,973.8,7.5,42.5,121,85.2,40.6,10.6,350.0,66.0,3.8,3,5,7,1,2026-07-15T20:23:01.745261+05:30
Surat,Gujarat,21.1702,72.8311,28.4,80,0.0,1004.2,7.7,43.2,69,28.2,18.6,20.8,214.0,31.0,35.8,7,5,4,1,2026-07-15T20:23:01.745299+05:30
Vadodara,Gujarat,22.3072,73.1812,28.9,78,0.0,1001.4,7.0,42.8,65,25.6,18.0,16.7,193.0,52.0,19.6,7,5,4,1,2026-07-15T20:23:01.745310+05:30
Rajkot,Gujarat,22.3039,70.8022,30.3,58,0.0,990.5,4.7,45.7,56,27.0,17.2,6.5,118.0,49.0,4.3,0,5,3,1,2026-07-15T20:23:01.745320+05:30
Thane,Maharashtra,19.2183,72.9781,25.7,88,0.0,1006.9,7.4,35.6,69,43.2,19.0,13.6,294.0,49.0,10.9,7,5,4,1,2026-07-15T20:23:01.745329+05:30
Nagpur,Maharashtra,21.1458,79.0882,29.3,70,0.0,970.2,7.5,40.0,92,64.7,35.3,23.1,328.0,52.0,17.7,7,5,7,1,2026-07-15T20:23:01.745352+05:30
Nashik,Maharashtra,19.9975,73.7898,23.3,88,0.0,944.0,7.5,46.8,52,18.5,9.9,9.1,155.0,57.0,7.8,3,5,7,1,2026-07-15T20:23:01.745360+05:30
Aurangabad,Maharashtra,19.8762,75.3433,25.9,73,0.0,942.7,8.85,44.3,57,18.4,11.8,5.9,167.0,79.0,6.4,7,5,7,1,2026-07-15T20:23:01.745367+05:30
Solapur,Maharashtra,17.6599,75.9064,28.0,60,0.0,956.6,8.85,52.2,60,22.8,13.8,6.8,216.0,61.0,2.5,4,5,7,1,2026-07-15T20:23:01.745375+05:30
Kolhapur,Maharashtra,16.705,74.2433,22.4,90,0.0,948.2,7.7,46.1,54,12.7,8.3,7.1,181.0,47.0,2.6,3,5,7,1,2026-07-15T20:23:01.745382+05:30
Goa,Goa,15.2993,74.124,26.5,84,0.0,999.0,7.25,34.6,75,35.5,17.4,3.2,269.0,51.0,1.5,7,5,7,1,2026-07-15T20:23:01.745390+05:30
Jodhpur,Rajasthan,26.2389,73.0243,32.9,46,0.0,978.2,8.2,38.2,147,190.5,36.9,5.6,143.0,65.0,1.9,0,5,7,1,2026-07-15T20:23:01.745397+05:30
Udaipur,Rajasthan,24.5854,73.7125,27.3,68,0.0,943.2,8.8,37.1,69,38.9,18.1,4.6,150.0,72.0,2.8,7,5,7,1,2026-07-15T20:23:01.745405+05:30
Kota,Rajasthan,25.2138,75.8648,31.3,59,0.0,974.5,8.25,34.9,92,70.1,32.7,12.2,297.0,73.0,5.8,0,5,7,1,2026-07-15T20:23:01.745412+05:30
Bikaner,Rajasthan,28.0229,73.3119,35.0,39,0.0,976.0,8.4,36.7,159,122.0,39.6,2.5,132.0,76.0,2.5,0,5,7,1,2026-07-15T20:23:01.745420+05:30
Ajmer,Rajasthan,26.4499,74.6399,29.3,60,0.0,950.7,8.3,46.1,95,49.5,23.2,8.4,170.0,69.0,3.2,4,5,7,1,2026-07-15T20:23:01.745426+05:30
Gwalior,Madhya Pradesh,26.2183,78.1828,29.8,73,0.0,978.6,8.15,39.2,144,108.5,43.5,8.0,187.0,70.0,3.1,7,5,7,1,2026-07-15T20:23:01.745434+05:30
Indore,Madhya Pradesh,22.7196,75.8577,28.2,64,0.0,945.4,8.55,38.9,67,39.6,23.3,11.3,301.0,71.0,5.4,7,5,7,1,2026-07-15T20:23:01.745440+05:30
Bhopal,Madhya Pradesh,23.2599,77.4126,27.9,73,0.0,950.6,5.35,43.6,85,53.0,26.9,9.5,496.0,64.0,4.0,7,5,3,1,2026-07-15T20:23:01.745447+05:30
Jabalpur,Madhya Pradesh,23.1815,79.9864,27.7,75,0.0,958.2,8.65,33.1,111,94.5,45.6,7.0,221.0,76.0,5.0,7,5,7,1,2026-07-15T20:23:01.745454+05:30
Ujjain,Madhya Pradesh,23.1765,75.7885,27.9,67,0.0,950.8,8.5,36.7,68,42.3,23.6,6.3,251.0,76.0,3.9,7,5,7,1,2026-07-15T20:23:01.745461+05:30
Visakhapatnam,Andhra Pradesh,17.6868,83.2185,30.6,69,0.0,998.7,8.65,36.7,123,42.4,32.2,25.0,421.0,73.0,46.1,3,5,7,1,2026-07-15T20:23:01.745468+05:30
Vijayawada,Andhra Pradesh,16.5062,80.648,32.5,47,0.0,999.3,8.55,48.2,90,39.6,28.6,10.5,273.0,83.0,6.4,0,5,7,1,2026-07-15T20:23:01.745475+05:30
Guntur,Andhra Pradesh,16.3067,80.4365,33.1,42,0.0,1000.6,8.8,49.0,86,45.6,30.2,11.3,330.0,78.0,6.0,0,5,4,1,2026-07-15T20:23:01.745482+05:30
Nellore,Andhra Pradesh,14.4426,79.9865,32.4,43,0.0,1003.0,8.55,51.1,79,27.5,19.0,7.4,334.0,103.0,4.6,0,5,4,1,2026-07-15T20:23:01.745490+05:30
Kurnool,Andhra Pradesh,15.8281,78.0373,26.0,76,0.1,976.8,8.9,64.4,68,54.6,25.3,6.1,128.0,84.0,8.5,10,5,7,1,2026-07-15T20:23:01.745497+05:30
Kakinada,Andhra Pradesh,16.9891,82.2475,31.3,60,0.0,1003.5,6.15,52.6,99,32.6,24.3,7.0,303.0,109.0,7.3,0,5,4,1,2026-07-15T20:23:01.745504+05:30
Tirupati,Andhra Pradesh,13.6288,79.4192,31.5,44,0.0,989.1,8.85,40.0,82,45.3,36.9,46.3,521.0,52.0,5.7,0,5,7,1,2026-07-15T20:23:01.745511+05:30
Warangal,Telangana,17.9689,79.5941,29.8,57,0.0,976.4,8.7,45.4,90,46.8,30.5,12.6,222.0,56.0,4.7,4,5,7,1,2026-07-15T20:23:01.745517+05:30
Nizamabad,Telangana,18.6725,78.0941,27.7,65,0.0,963.2,8.9,40.0,82,32.2,18.9,6.2,213.0,78.0,4.4,7,5,7,1,2026-07-15T20:23:01.745524+05:30
Mysore,Karnataka,12.2958,76.6396,23.7,77,0.0,929.2,9.0,41.0,58,14.1,10.3,8.3,179.0,74.0,2.3,3,5,7,1,2026-07-15T20:23:01.745530+05:30
Mangalore,Karnataka,12.9141,74.856,27.1,81,0.0,1008.3,8.75,35.6,68,42.6,22.5,7.8,234.0,44.0,2.7,7,0,4,1,2026-07-15T20:23:01.745537+05:30
Hubli-Dharwad,Karnataka,15.3647,75.124,23.9,79,0.0,941.7,8.1,48.2,54,26.3,14.4,4.9,140.0,50.0,1.3,3,5,7,1,2026-07-15T20:23:01.745544+05:30
Belgaum,Karnataka,15.8497,74.4977,21.4,91,0.0,926.2,8.55,47.2,53,12.4,6.8,5.4,142.0,46.0,1.8,3,5,7,1,2026-07-15T20:23:05.047154+05:30
Coimbatore,Tamil Nadu,11.0168,76.9558,26.2,77,0.0,961.8,8.6,50.8,59,16.3,12.5,7.9,181.0,61.0,3.2,7,5,7,1,2026-07-15T20:23:05.047192+05:30
Madurai,Tamil Nadu,9.9252,78.1198,31.3,56,0.0,992.6,7.75,36.0,86,50.9,25.3,8.8,189.0,97.0,4.6,0,5,7,1,2026-07-15T20:23:05.047203+05:30
Trichy,Tamil Nadu,10.7905,78.7047,31.7,55,0.0,998.9,8.3,47.2,71,41.3,27.3,12.4,171.0,74.0,4.2,0,5,7,1,2026-07-15T20:23:05.047212+05:30
Salem,Tamil Nadu,11.6643,78.146,29.3,59,0.0,976.7,8.7,24.5,77,33.4,20.8,15.2,322.0,75.0,5.7,4,5,7,1,2026-07-15T20:23:05.047221+05:30
Tirunelveli,Tamil Nadu,8.7139,77.7567,31.4,54,0.0,1002.5,8.0,45.4,57,20.1,13.6,5.0,146.0,68.0,2.1,0,5,4,1,2026-07-15T20:23:05.047229+05:30
Vellore,Tamil Nadu,12.9165,79.1325,32.3,36,0.0,982.7,8.95,43.2,91,44.5,33.8,29.9,431.0,60.0,6.0,0,5,7,0,2026-07-15T20:23:05.047237+05:30
Erode,Tamil Nadu,11.341,77.7172,29.2,61,0.0,988.3,8.45,43.9,66,25.9,17.1,13.5,192.0,70.0,3.2,7,5,7,1,2026-07-15T20:23:05.047245+05:30
Kochi,Kerala,9.9312,76.2673,27.2,88,0.0,1010.4,8.4,37.8,65,24.2,16.7,14.1,153.0,38.0,4.0,7,0,4,1,2026-07-15T20:23:05.047254+05:30
Thiruvananthapuram,Kerala,8.5241,76.9366,26.6,84,0.0,1009.8,8.0,48.2,60,26.5,14.7,4.9,123.0,51.0,1.4,7,0,4,1,2026-07-15T20:23:05.047262+05:30
Kozhikode,Kerala,11.2588,75.7804,27.0,83,0.0,1009.3,8.2,37.4,61,40.2,18.5,1.4,130.0,58.0,1.2,7,0,4,1,2026-07-15T20:23:05.047269+05:30
Thrissur,Kerala,10.5276,76.2144,26.3,88,0.0,1008.7,8.3,35.6,62,22.8,15.5,9.9,195.0,42.0,3.1,7,0,4,1,2026-07-15T20:23:05.047277+05:30
Kannur,Kerala,11.8745,75.3704,27.3,81,0.0,1008.6,7.25,39.2,64,40.7,21.5,9.5,176.0,43.0,2.2,7,0,4,1,2026-07-15T20:23:05.047284+05:30
Patna,Bihar,25.5941,85.1376,28.2,96,0.2,995.7,8.25,34.2,164,72.4,54.2,16.0,609.0,105.0,10.2,10,5,7,1,2026-07-15T20:23:05.047292+05:30
Gaya,Bihar,24.7914,85.0002,28.1,94,0.1,989.4,8.5,26.6,163,87.1,53.3,11.2,539.0,102.0,6.8,10,5,7,1,2026-07-15T20:23:05.047299+05:30
Muzaffarpur,Bihar,26.1209,85.3647,27.7,96,0.1,995.8,7.35,22.0,159,49.7,44.1,19.1,784.0,90.0,10.2,10,5,7,1,2026-07-15T20:23:05.047306+05:30
Bhagalpur,Bihar,25.2425,87.0117,29.3,87,0.0,996.4,7.95,21.6,122,42.6,41.2,24.7,432.0,76.0,14.8,7,5,7,1,2026-07-15T20:23:05.047313+05:30
Ranchi,Jharkhand,23.3441,85.3096,24.4,94,0.1,933.2,8.5,32.4,159,79.4,42.7,10.0,291.0,97.0,7.5,6,5,7,1,2026-07-15T20:23:05.047321+05:30
Jamshedpur,Jharkhand,22.8046,86.2029,26.5,95,0.2,985.9,7.75,31.7,166,45.6,40.4,18.8,412.0,98.0,37.7,10,5,7,1,2026-07-15T20:23:05.047329+05:30
Dhanbad,Jharkhand,23.7957,86.4304,27.3,93,0.0,974.9,8.6,29.9,187,57.4,54.0,38.2,289.0,84.0,87.0,7,5,7,1,2026-07-15T20:23:05.047351+05:30
Bokaro,Jharkhand,23.6693,86.1511,27.1,95,0.0,978.9,8.35,28.8,190,85.7,63.1,36.9,391.0,79.0,88.8,7,5,7,1,2026-07-15T20:23:05.047359+05:30
Bhubaneswar,Odisha,20.2961,85.8245,26.2,96,0.1,996.1,5.9,37.8,142,57.0,39.9,17.1,381.0,75.0,14.9,10,5,3,1,2026-07-15T20:23:05.047366+05:30
Cuttack,Odisha,20.4625,85.8828,26.7,95,0.4,997.7,6.95,37.1,142,57.0,39.9,17.1,272.0,75.0,14.9,10,5,7,1,2026-07-15T20:23:05.047373+05:30
Rourkela,Odisha,22.2604,84.8536,25.9,97,0.0,980.0,7.8,40.0,159,89.2,49.8,10.7,575.0,84.0,6.2,7,5,7,1,2026-07-15T20:23:05.047380+05:30
Raipur,Chhattisgarh,21.2514,81.6296,29.1,71,0.0,971.0,8.0,30.2,140,77.8,48.9,35.7,255.0,61.0,63.1,7,5,7,1,2026-07-15T20:23:05.047387+05:30
Bhilai,Chhattisgarh,21.1938,81.3509,28.8,72,0.0,971.5,8.35,31.0,123,67.3,42.0,25.4,457.0,73.0,45.8,7,5,7,1,2026-07-15T20:23:05.047394+05:30
Guwahati,Assam,26.1158,91.7086,27.0,97,0.0,997.2,7.85,23.4,40,13.0,13.0,11.2,324.0,44.0,2.2,7,5,7,1,2026-07-15T20:23:05.047401+05:30
Agartala,Tripura,23.8315,91.2868,28.2,86,0.0,1001.9,8.7,31.7,74,20.4,16.6,11.1,216.0,56.0,2.5,7,5,4,1,2026-07-15T20:23:05.047408+05:30
Shillong,Meghalaya,25.5788,91.8933,20.6,94,0.0,855.3,7.1,27.4,38,6.2,5.8,6.7,280.0,72.0,2.2,3,5,7,1,2026-07-15T20:23:05.047415+05:30
Imphal,Manipur,24.817,93.9368,24.7,96,0.0,920.7,8.65,24.1,55,10.1,9.3,10.0,486.0,48.0,2.1,3,5,7,1,2026-07-15T20:23:05.047422+05:30
Aizawl,Mizoram,23.7271,92.7176,21.4,98,0.0,889.5,9.0,30.6,41,5.4,5.0,7.6,229.0,40.0,0.8,3,5,7,1,2026-07-15T20:23:05.047429+05:30
Kohima,Nagaland,25.6701,94.1077,21.2,97,0.0,853.7,7.25,26.6,50,10.8,10.1,8.1,299.0,52.0,1.2,3,5,7,1,2026-07-15T20:23:05.047435+05:30
Gangtok,Sikkim,27.3314,88.6138,19.1,93,0.2,836.3,8.55,33.1,47,6.3,6.1,5.8,325.0,106.0,1.4,6,10,7,1,2026-07-15T20:23:05.047443+05:30
Siliguri,West Bengal,26.7271,88.3953,26.9,98,0.0,988.6,6.95,23.4,78,33.2,32.0,12.6,782.0,105.0,4.0,7,5,7,1,2026-07-15T20:23:08.379697+05:30
Durgapur,West Bengal,23.5204,87.3119,28.5,87,0.0,989.3,9.0,31.0,152,42.4,41.4,30.8,428.0,69.0,37.6,7,5,7,1,2026-07-15T20:23:08.379738+05:30
Asansol,West Bengal,23.6739,86.9524,27.9,89,0.0,988.3,8.15,26.3,155,42.5,41.7,30.3,471.0,75.0,34.4,7,5,7,1,2026-07-15T20:23:08.379750+05:30
Pondicherry,Puducherry,11.9139,79.8145,30.1,82,0.0,1006.0,8.15,43.9,152,43.5,29.7,14.8,204.0,116.0,7.0,3,5,4,1,2026-07-15T20:23:08.379760+05:30
Port Blair,Andaman and Nicobar Islands,11.6234,92.7265,24.9,95,0.1,1008.9,8.35,55.4,48,31.3,12.3,0.4,98.0,49.0,0.4,6,0,4,1,2026-07-15T20:23:08.379768+05:30
Haridwar,Uttarakhand,29.9457,78.1642,29.1,86,0.0,968.0,7.45,25.2,188,128.5,83.6,17.3,462.0,162.0,16.5,7,5,7,1,2026-07-15T20:23:08.379776+05:30
Rishikesh,Uttarakhand,30.0869,78.2676,28.0,92,0.0,961.0,7.55,23.8,165,104.3,69.8,5.5,439.0,186.0,13.2,7,5,7,1,2026-07-15T20:23:08.379784+05:30
Nainital,Uttarakhand,29.3919,79.4542,18.0,99,0.0,804.0,7.55,27.0,159,88.2,54.7,12.2,357.0,133.0,11.4,3,10,7,1,2026-07-15T20:23:08.379793+05:30
Mussoorie,Uttarakhand,30.4599,78.0664,18.2,100,0.0,801.1,7.85,33.1,173,89.4,70.5,22.2,381.0,147.0,13.4,3,10,7,1,2026-07-15T20:23:08.379801+05:30
Dharamshala,Himachal Pradesh,32.219,76.3234,22.2,94,0.0,866.1,8.4,36.0,117,46.7,32.4,8.7,422.0,119.0,2.5,3,5,7,1,2026-07-15T20:23:08.379809+05:30
Dalhousie,Himachal Pradesh,32.5387,75.971,17.6,99,0.0,802.2,8.4,30.6,157,64.5,46.9,20.6,590.0,152.0,4.5,3,10,7,1,2026-07-15T20:23:08.379817+05:30
Patiala,Punjab,30.3398,76.3869,30.8,75,0.0,972.2,7.6,29.2,192,436.8,122.5,21.6,609.0,92.0,7.9,3,5,7,1,2026-07-15T20:23:08.379825+05:30
Bhatinda,Punjab,30.211,74.9455,34.3,51,0.0,977.6,8.2,25.9,173,196.5,84.8,25.0,309.0,74.0,7.0,0,5,7,1,2026-07-15T20:23:08.379832+05:30
Rohtak,Haryana,28.8955,76.6066,32.3,65,0.0,975.8,7.65,33.1,381,841.9,179.7,45.2,778.0,53.0,8.2,3,5,7,1,2026-07-15T20:23:08.379839+05:30
Panipat,Haryana,29.3909,76.9635,30.9,78,0.0,974.3,7.5,28.1,693,1367.2,252.4,29.2,542.0,64.0,9.0,3,5,7,1,2026-07-15T20:23:08.379847+05:30
Mathura,Uttar Pradesh,27.4924,77.6737,30.8,69,0.0,981.6,7.65,38.2,237,864.3,150.4,19.2,453.0,77.0,4.8,3,5,7,1,2026-07-15T20:23:08.379855+05:30
Vrindavan,Uttar Pradesh,27.5823,77.7027,31.0,69,0.0,981.9,7.65,31.0,237,864.3,150.4,19.2,367.0,77.0,4.8,3,5,7,1,2026-07-15T20:23:08.379862+05:30
Ayodhya,Uttar Pradesh,26.7922,82.1998,30.0,89,0.0,990.1,7.05,25.2,182,131.8,76.8,18.6,537.0,89.0,8.0,7,5,7,1,2026-07-15T20:23:08.379870+05:30
Ratlam,Madhya Pradesh,23.3315,75.0367,28.0,64,0.0,951.8,7.3,36.4,66,43.0,22.6,4.3,154.0,84.0,4.0,7,5,7,1,2026-07-15T20:23:08.379877+05:30
Sagar,Madhya Pradesh,23.8388,78.7378,28.0,70,0.0,946.8,6.65,40.0,99,71.0,35.5,7.7,162.0,66.0,3.3,7,5,7,1,2026-07-15T20:23:08.379885+05:30
Satna,Madhya Pradesh,24.6005,80.8322,30.0,66,0.0,967.2,8.7,31.3,127,85.7,44.7,6.9,202.0,82.0,3.5,7,5,7,1,2026-07-15T20:23:08.379892+05:30
Akola,Maharashtra,20.7002,77.0082,29.9,62,0.0,972.7,7.95,42.8,68,37.1,19.5,7.2,151.0,82.0,6.8,7,5,7,1,2026-07-15T20:23:08.379900+05:30
Amravati,Maharashtra,20.9374,77.7796,28.9,68,0.0,964.7,7.4,41.4,69,35.5,19.0,8.3,165.0,78.0,7.4,7,5,7,1,2026-07-15T20:23:08.379909+05:30
Latur,Maharashtra,18.4088,76.5604,23.7,91,0.1,938.8,8.9,42.8,61,20.7,11.6,4.5,161.0,68.0,1.7,6,5,7,1,2026-07-15T20:23:08.379918+05:30
Nanded,Maharashtra,19.1383,77.3091,26.7,75,0.0,967.0,8.85,42.1,74,33.9,18.6,5.4,186.0,74.0,3.3,7,5,7,1,2026-07-15T20:23:08.379925+05:30
Gulbarga,Karnataka,17.3297,76.8343,27.1,66,0.0,958.1,8.75,62.6,63,22.8,12.9,7.8,176.0,62.0,2.6,7,5,7,1,2026-07-15T20:23:08.379932+05:30
Bidar,Karnataka,17.9104,77.5199,24.9,79,0.0,934.3,9.0,44.6,74,22.9,13.8,6.5,186.0,68.0,2.3,3,5,7,1,2026-07-15T20:23:08.379938+05:30
Hospet,Karnataka,15.2689,76.3909,25.6,73,0.1,955.9,8.5,43.9,56,18.6,11.8,5.9,130.0,60.0,1.7,10,5,7,1,2026-07-15T20:23:08.379946+05:30
Tirupur,Tamil Nadu,11.1085,77.3411,27.3,73,0.0,975.0,8.8,52.6,67,29.0,19.0,15.9,166.0,65.0,4.4,7,5,7,1,2026-07-15T20:23:08.379953+05:30
Alappuzha,Kerala,9.4981,76.3388,27.6,85,0.0,1010.5,8.25,39.2,64,25.9,15.3,8.5,92.0,50.0,2.8,7,0,4,1,2026-07-15T20:23:08.379960+05:30
Munnar,Kerala,10.0889,77.0595,17.6,97,0.0,857.4,8.4,36.4,55,20.2,14.4,8.5,130.0,52.0,2.1,3,10,7,1,2026-07-15T20:23:08.379968+05:30
Silchar,Assam,24.8333,92.7789,27.7,97,0.1,1000.9,8.85,25.2,61,17.1,16.2,6.1,368.0,73.0,3.0,10,5,4,1,2026-07-15T20:23:08.379975+05:30
Dibrugarh,Assam,27.4728,94.912,27.9,95,0.1,991.1,7.3,22.0,55,22.2,21.8,10.9,256.0,62.0,2.0,10,5,7,1,2026-07-15T20:23:08.379982+05:30
