city,state,latitude,longitude,temp,humidity,rain,pressure,uv_index,wind_gusts,aqi,pm10,pm2_5,no2,co,o3,so2,mosquito_risk,arthritis_risk,migraine_risk,frizz_risk,updated_at
Delhi,Delhi,28.6139,77.209,26.3,79,0.0,979.6,7.8,23.0,261,327.8,115.3,97.3,1650.0,0.0,41.8,7,5,7,1,2026-06-17T03:44:38.917653+05:30
Mumbai,Maharashtra,19.076,72.8777,29.0,76,0.0,1007.6,7.65,45.4,58,39.2,15.6,4.6,143.0,46.0,3.2,7,5,4,1,2026-06-17T03:44:38.917694+05:30
Bangalore,Karnataka,12.9716,77.5946,21.4,85,0.0,910.5,9.15,45.4,82,31.5,23.3,38.7,318.0,18.0,7.3,3,5,7,1,2026-06-17T03:44:38.917709+05:30
Hyderabad,Telangana,17.385,78.4867,26.9,60,0.0,950.7,8.85,32.4,100,58.1,35.4,29.4,868.0,36.0,8.7,4,5,7,1,2026-06-17T03:44:38.917719+05:30
Chennai,Tamil Nadu,13.0827,80.2707,29.3,77,0.0,1004.3,8.9,35.3,95,44.2,30.2,13.4,214.0,73.0,10.2,7,5,4,1,2026-06-17T03:44:38.917727+05:30
Kolkata,West Bengal,22.5726,88.3639,28.3,87,0.0,1002.6,9.0,35.3,109,49.9,40.4,12.2,379.0,60.0,6.1,7,5,4,1,2026-06-17T03:44:38.917735+05:30
Pune,Maharashtra,18.5204,73.8567,24.1,87,0.0,947.6,8.3,46.8,52,16.8,9.3,7.3,126.0,38.0,7.4,3,5,7,1,2026-06-17T03:44:38.917742+05:30
Ahmedabad,Gujarat,23.0225,72.5714,30.1,66,0.0,999.5,8.05,43.9,65,26.7,13.3,4.1,108.0,45.0,3.8,3,5,7,1,2026-06-17T03:44:38.917749+05:30
Jaipur,Rajasthan,26.9124,75.7873,26.6,67,0.0,956.4,8.2,41.8,106,84.1,35.5,18.1,279.0,38.0,7.1,7,5,7,1,2026-06-17T03:44:38.917760+05:30
Lucknow,Uttar Pradesh,26.8467,80.9462,29.7,70,0.0,990.1,8.35,29.5,163,160.2,79.2,34.5,709.0,34.0,14.9,7,5,7,1,2026-06-17T03:44:38.917767+05:30
Kanpur,Uttar Pradesh,26.4499,80.3319,31.5,48,0.0,988.6,6.1,30.6,182,307.3,94.5,48.9,570.0,20.0,12.9,0,5,7,1,2026-06-17T03:44:38.917774+05:30
Chandigarh,Chandigarh,30.7333,76.7794,23.7,92,0.0,965.0,7.1,21.2,129,54.9,49.7,46.2,644.0,9.0,4.0,3,5,7,1,2026-06-17T03:44:38.917781+05:30
Srinagar,Jammu and Kashmir,34.0837,74.7973,14.5,100,0.0,839.7,8.65,25.6,88,40.0,36.3,26.5,497.0,7.0,0.0,3,10,7,0,2026-06-17T03:44:38.917788+05:30
Jammu,Jammu and Kashmir,32.7266,74.857,24.3,81,0.0,969.4,8.65,22.7,102,69.8,65.0,57.7,384.0,25.0,7.5,3,5,7,1,2026-06-17T03:44:38.917794+05:30
Amritsar,Punjab,31.634,74.8723,24.7,90,0.0,977.6,8.5,18.4,124,92.0,71.5,49.4,736.0,24.0,7.7,3,5,7,1,2026-06-17T03:44:38.917801+05:30
Ludhiana,Punjab,30.901,75.8573,26.2,88,0.0,975.3,8.05,15.5,158,87.8,70.5,39.2,668.0,33.0,9.8,7,5,7,1,2026-06-17T03:44:38.917809+05:30
Jalandhar,Punjab,31.326,75.5762,25.5,87,0.0,976.5,8.25,18.0,143,114.6,72.2,45.3,880.0,21.0,7.4,7,5,7,1,2026-06-17T03:44:38.917815+05:30
Dehradun,Uttarakhand,30.6284,78.0322,14.0,100,0.0,827.2,6.55,34.2,51,26.6,17.8,28.8,239.0,11.0,0.1,3,10,7,0,2026-06-17T03:44:38.917822+05:30
Shimla,Himachal Pradesh,31.1048,77.1734,11.0,93,0.0,780.2,7.4,31.3,63,27.7,23.0,16.1,231.0,53.0,0.0,3,10,7,0,2026-06-17T03:44:38.917830+05:30
Manali,Himachal Pradesh,32.2396,77.1887,14.4,80,0.0,816.1,9.3,40.3,45,10.1,6.4,25.9,232.0,104.0,0.0,3,5,7,0,2026-06-17T03:44:38.917837+05:30
Gurgaon,Haryana,28.4595,77.0266,26.3,77,0.0,978.0,7.9,18.7,487,276.6,104.1,74.1,1244.0,0.0,24.9,7,5,7,1,2026-06-17T03:44:38.917843+05:30
Noida,Uttar Pradesh,28.5355,77.391,26.2,80,0.0,981.1,7.85,18.0,487,276.6,104.1,74.1,1750.0,0.0,24.9,7,5,7,1,2026-06-17T03:44:38.917850+05:30
Ghaziabad,Uttar Pradesh,28.6692,77.4538,25.6,85,0.0,979.4,5.65,18.4,270,311.1,132.2,88.6,660.0,0.0,27.1,7,5,3,1,2026-06-17T03:44:38.917856+05:30
Faridabad,Haryana,28.4089,77.3178,26.7,76,0.0,980.4,7.85,21.2,487,276.6,104.1,74.1,1464.0,0.0,24.9,7,5,7,1,2026-06-17T03:44:38.917863+05:30
Meerut,Uttar Pradesh,28.9845,77.7064,25.8,85,0.0,978.3,6.45,22.0,270,311.1,132.2,88.6,827.0,0.0,27.1,7,5,7,1,2026-06-17T03:44:38.917869+05:30
Agra,Uttar Pradesh,27.1767,78.0081,29.8,54,0.0,984.7,8.15,28.1,632,407.0,94.5,51.1,523.0,5.0,12.4,4,5,7,1,2026-06-17T03:44:38.917875+05:30
Varanasi,Uttar Pradesh,25.3176,82.9739,31.5,55,0.0,994.0,8.8,33.1,152,103.6,68.0,46.3,526.0,20.0,15.3,0,5,7,1,2026-06-17T03:44:38.917882+05:30
Prayagraj,Uttar Pradesh,25.4358,81.8463,31.6,51,0.0,992.8,8.7,27.0,153,134.1,76.6,55.6,563.0,13.0,14.3,0,5,7,1,2026-06-17T03:44:38.917889+05:30
Gorakhpur,Uttar Pradesh,26.7606,83.3732,27.8,85,0.0,993.6,8.7,35.3,165,186.7,113.9,56.9,794.0,11.0,16.4,7,5,7,1,2026-06-17T03:44:38.917897+05:30
Bareilly,Uttar Pradesh,28.367,79.4304,24.9,86,0.0,983.6,7.65,24.1,159,186.7,95.2,57.6,753.0,21.0,14.7,3,5,7,1,2026-06-17T03:44:38.917903+05:30
Aligarh,Uttar Pradesh,27.8974,78.088,26.4,73,0.0,982.2,7.45,23.4,367,206.3,75.9,65.3,576.0,2.0,12.5,7,5,7,1,2026-06-17T03:44:38.917909+05:30
Moradabad,Uttar Pradesh,28.8386,78.7733,25.5,82,0.0,980.6,7.45,26.3,171,237.5,132.2,82.0,963.0,4.0,21.7,7,5,7,1,2026-06-17T03:44:38.917915+05:30
Saharanpur,Uttar Pradesh,29.9637,77.546,25.2,81,0.0,972.5,7.0,20.5,169,244.0,126.2,64.7,738.0,0.0,13.8,7,5,7,1,2026-06-17T03:44:38.917921+05:30
Jhansi,Uttar Pradesh,25.4484,78.5685,29.5,56,0.0,975.3,7.75,35.3,89,30.5,19.4,4.8,191.0,78.0,1.5,4,5,7,1,2026-06-17T03:44:42.316080+05:30
Surat,Gujarat,21.1702,72.8311,29.1,83,0.0,1005.2,7.55,51.1,63,25.0,14.9,17.1,328.0,32.0,29.7,7,5,4,1,2026-06-17T03:44:42.316112+05:30
Vadodara,Gujarat,22.3072,73.1812,30.2,66,0.0,1002.3,8.0,52.2,62,18.6,11.2,7.6,122.0,37.0,6.0,3,5,4,1,2026-06-17T03:44:42.316123+05:30
Rajkot,Gujarat,22.3039,70.8022,28.0,83,0.0,992.2,7.55,46.1,54,22.2,10.0,4.5,97.0,41.0,4.3,7,5,7,1,2026-06-17T03:44:42.316132+05:30
Thane,Maharashtra,19.2183,72.9781,28.5,77,0.0,1007.0,7.65,41.0,58,39.2,15.6,4.6,159.0,46.0,3.2,7,5,4,1,2026-06-17T03:44:42.316141+05:30
Nagpur,Maharashtra,21.1458,79.0882,28.9,60,0.0,970.9,8.75,58.7,104,54.9,36.1,17.7,332.0,38.0,6.9,4,5,7,1,2026-06-17T03:44:42.316149+05:30
Nashik,Maharashtra,19.9975,73.7898,24.1,88,0.0,944.7,8.0,49.0,51,18.4,9.1,5.1,113.0,38.0,1.7,3,5,7,1,2026-06-17T03:44:42.316156+05:30
Aurangabad,Maharashtra,19.8762,75.3433,25.5,74,0.0,943.3,8.95,50.8,55,15.2,8.4,5.7,126.0,42.0,4.1,7,5,7,1,2026-06-17T03:44:42.316164+05:30
Solapur,Maharashtra,17.6599,75.9064,27.4,65,0.0,956.3,8.1,50.0,60,20.8,13.9,6.9,150.0,53.0,5.6,7,5,7,1,2026-06-17T03:44:42.316172+05:30
Kolhapur,Maharashtra,16.705,74.2433,23.9,89,0.0,947.6,8.15,51.1,51,17.9,10.6,6.5,125.0,37.0,2.9,3,5,7,1,2026-06-17T03:44:42.316179+05:30
Goa,Goa,15.2993,74.124,26.0,96,0.0,997.9,7.3,29.2,53,31.3,16.4,5.0,342.0,41.0,2.0,7,5,7,1,2026-06-17T03:44:42.316187+05:30
Jodhpur,Rajasthan,26.2389,73.0243,31.4,49,0.0,979.3,8.4,36.0,122,94.1,30.0,5.9,139.0,47.0,2.1,0,5,7,1,2026-06-17T03:44:42.316194+05:30
Udaipur,Rajasthan,24.5854,73.7125,27.0,68,0.0,943.7,8.8,33.5,66,42.0,21.6,5.7,118.0,54.0,3.0,7,5,7,1,2026-06-17T03:44:42.316202+05:30
Kota,Rajasthan,25.2138,75.8648,30.4,55,0.0,975.5,8.35,33.1,86,41.2,26.0,7.8,140.0,52.0,4.2,0,5,7,1,2026-06-17T03:44:42.316209+05:30
Bikaner,Rajasthan,28.0229,73.3119,28.0,63,0.0,978.2,8.45,58.3,140,109.0,35.0,4.4,184.0,47.0,1.9,7,5,7,1,2026-06-17T03:44:42.316216+05:30
Ajmer,Rajasthan,26.4499,74.6399,28.2,68,0.0,951.2,8.35,40.7,84,63.3,32.9,16.0,149.0,32.0,3.8,7,5,7,1,2026-06-17T03:44:42.316223+05:30
Gwalior,Madhya Pradesh,26.2183,78.1828,29.6,60,0.0,980.9,8.3,29.2,143,70.1,33.4,9.1,162.0,54.0,3.3,4,5,7,1,2026-06-17T03:44:42.316231+05:30
Indore,Madhya Pradesh,22.7196,75.8577,26.7,69,0.0,946.5,8.6,52.6,78,37.7,22.6,7.3,166.0,57.0,9.1,7,5,7,1,2026-06-17T03:44:42.316238+05:30
Bhopal,Madhya Pradesh,23.2599,77.4126,25.9,78,0.0,951.3,8.25,33.1,93,49.5,27.2,9.1,231.0,63.0,2.9,7,5,7,1,2026-06-17T03:44:42.316245+05:30
Jabalpur,Madhya Pradesh,23.1815,79.9864,27.5,82,0.0,959.3,8.85,51.8,88,63.3,38.2,14.6,227.0,50.0,3.1,7,5,7,1,2026-06-17T03:44:42.316253+05:30
Ujjain,Madhya Pradesh,23.1765,75.7885,27.2,68,0.0,952.0,8.55,45.7,74,27.6,17.4,6.9,172.0,52.0,10.2,7,5,7,1,2026-06-17T03:44:42.316261+05:30
Visakhapatnam,Andhra Pradesh,17.6868,83.2185,29.2,92,0.0,999.9,8.75,41.4,152,81.7,55.2,43.3,820.0,65.0,46.6,7,5,7,1,2026-06-17T03:44:42.316268+05:30
Vijayawada,Andhra Pradesh,16.5062,80.648,29.8,79,0.0,998.7,8.85,27.0,157,63.6,51.9,19.1,1017.0,49.0,5.6,7,5,7,1,2026-06-17T03:44:42.316275+05:30
Guntur,Andhra Pradesh,16.3067,80.4365,29.6,66,0.0,999.9,8.7,28.4,155,50.1,40.0,19.8,427.0,41.0,4.9,7,5,7,1,2026-06-17T03:44:42.316283+05:30
Nellore,Andhra Pradesh,14.4426,79.9865,29.6,65,0.0,1002.5,8.55,34.9,88,52.5,37.1,14.4,370.0,53.0,5.7,7,5,4,1,2026-06-17T03:44:42.316291+05:30
Kurnool,Andhra Pradesh,15.8281,78.0373,27.9,59,0.0,975.1,6.55,36.0,76,28.2,21.1,16.0,179.0,46.0,4.9,4,5,7,1,2026-06-17T03:44:42.316299+05:30
Kakinada,Andhra Pradesh,16.9891,82.2475,29.5,80,0.0,1003.5,8.8,31.3,121,63.1,35.5,3.5,711.0,116.0,4.0,7,5,4,1,2026-06-17T03:44:42.316306+05:30
Tirupati,Andhra Pradesh,13.6288,79.4192,27.0,71,0.0,988.6,7.75,37.4,98,61.7,46.7,44.8,223.0,3.0,4.9,7,5,7,1,2026-06-17T03:44:42.316313+05:30
Warangal,Telangana,17.9689,79.5941,27.5,77,0.0,975.4,8.95,33.8,154,79.9,55.2,32.0,431.0,17.0,4.9,7,5,7,1,2026-06-17T03:44:42.316320+05:30
Nizamabad,Telangana,18.6725,78.0941,27.4,58,0.0,962.6,8.95,34.6,92,76.8,42.6,18.7,435.0,39.0,4.2,4,5,7,1,2026-06-17T03:44:42.316328+05:30
Mysore,Karnataka,12.2958,76.6396,22.5,94,0.0,927.7,8.85,37.1,65,22.8,16.4,12.0,130.0,39.0,2.7,3,5,7,1,2026-06-17T03:44:42.316335+05:30
Mangalore,Karnataka,12.9141,74.856,25.7,95,0.1,1007.0,8.45,41.0,57,23.9,14.0,7.6,125.0,30.0,2.4,10,5,4,1,2026-06-17T03:44:42.316343+05:30
Hubli-Dharwad,Karnataka,15.3647,75.124,22.2,97,0.0,940.3,7.65,45.4,45,16.5,8.7,4.6,140.0,38.0,2.0,3,5,7,1,2026-06-17T03:44:42.316350+05:30
Belgaum,Karnataka,15.8497,74.4977,21.8,97,0.0,925.2,8.7,42.5,45,22.2,13.9,6.3,129.0,34.0,0.9,3,5,7,1,2026-06-17T03:44:45.698133+05:30
Coimbatore,Tamil Nadu,11.0168,76.9558,23.9,93,0.0,961.1,8.5,41.4,61,14.8,8.7,6.3,184.0,51.0,2.9,3,5,7,1,2026-06-17T03:44:45.698166+05:30
Madurai,Tamil Nadu,9.9252,78.1198,29.3,65,0.0,991.6,8.5,29.2,81,47.3,33.9,29.2,151.0,16.0,6.5,7,5,7,1,2026-06-17T03:44:45.698177+05:30
Trichy,Tamil Nadu,10.7905,78.7047,29.6,68,0.0,998.5,6.9,42.8,78,35.2,23.9,16.2,203.0,42.0,5.3,7,5,7,1,2026-06-17T03:44:45.698186+05:30
Salem,Tamil Nadu,11.6643,78.146,25.3,83,0.0,976.6,8.15,34.2,85,38.3,25.7,16.5,205.0,43.0,6.9,7,5,7,1,2026-06-17T03:44:45.698194+05:30
Tirunelveli,Tamil Nadu,8.7139,77.7567,29.0,65,0.0,1001.8,8.5,34.2,52,21.5,13.2,7.9,133.0,34.0,2.7,7,5,4,1,2026-06-17T03:44:45.698206+05:30
Vellore,Tamil Nadu,12.9165,79.1325,25.9,84,0.1,982.2,8.95,33.1,107,79.6,62.2,53.4,349.0,5.0,9.4,10,5,7,1,2026-06-17T03:44:45.698215+05:30
Erode,Tamil Nadu,11.341,77.7172,26.8,83,0.0,988.4,8.3,43.6,75,25.6,17.8,13.2,212.0,41.0,4.0,7,5,7,1,2026-06-17T03:44:45.698223+05:30
Kochi,Kerala,9.9312,76.2673,24.8,96,0.0,1009.4,8.1,35.6,57,21.5,14.2,13.6,216.0,29.0,4.1,3,0,4,1,2026-06-17T03:44:45.698232+05:30
Thiruvananthapuram,Kerala,8.5241,76.9366,24.4,97,0.0,1008.6,7.9,40.0,51,29.4,13.4,3.5,142.0,48.0,1.7,3,0,4,1,2026-06-17T03:44:45.698240+05:30
Kozhikode,Kerala,11.2588,75.7804,24.0,100,0.2,1008.4,8.45,37.1,54,30.3,12.7,1.6,155.0,55.0,1.1,6,0,4,1,2026-06-17T03:44:45.698248+05:30
Thrissur,Kerala,10.5276,76.2144,23.7,97,0.0,1008.2,7.9,35.3,56,12.5,8.1,10.3,201.0,30.0,3.1,3,0,4,1,2026-06-17T03:44:45.698256+05:30
Kannur,Kerala,11.8745,75.3704,26.8,88,0.0,1007.1,8.6,39.6,54,22.7,12.6,7.1,140.0,32.0,2.3,7,5,4,1,2026-06-17T03:44:45.698263+05:30
Patna,Bihar,25.5941,85.1376,29.7,74,0.0,996.6,8.85,27.4,158,87.3,71.9,20.4,590.0,63.0,16.9,7,5,7,1,2026-06-17T03:44:45.698270+05:30
Gaya,Bihar,24.7914,85.0002,29.3,63,0.0,990.0,8.95,33.1,155,115.0,69.6,24.8,548.0,49.0,14.1,7,5,7,1,2026-06-17T03:44:45.698277+05:30
Muzaffarpur,Bihar,26.1209,85.3647,28.5,82,0.0,996.8,8.85,37.1,159,85.4,72.2,21.7,813.0,59.0,16.0,7,5,7,1,2026-06-17T03:44:45.698284+05:30
Bhagalpur,Bihar,25.2425,87.0117,28.7,79,0.0,997.6,8.85,24.1,156,73.6,65.4,13.7,511.0,85.0,23.5,7,5,7,1,2026-06-17T03:44:45.698291+05:30
Ranchi,Jharkhand,23.3441,85.3096,24.5,72,0.0,934.7,9.0,28.1,152,96.4,75.4,17.1,368.0,83.0,22.9,3,5,7,1,2026-06-17T03:44:45.698297+05:30
Jamshedpur,Jharkhand,22.8046,86.2029,28.1,75,0.0,987.6,9.1,26.3,157,96.9,84.3,39.1,351.0,25.0,24.4,7,5,7,1,2026-06-17T03:44:45.698304+05:30
Dhanbad,Jharkhand,23.7957,86.4304,28.4,77,0.0,976.6,9.1,40.3,163,94.8,86.8,56.8,814.0,24.0,180.6,7,5,7,1,2026-06-17T03:44:45.698311+05:30
Bokaro,Jharkhand,23.6693,86.1511,26.6,86,0.0,980.3,9.1,37.4,165,128.5,112.2,55.0,1690.0,28.0,178.9,7,5,7,1,2026-06-17T03:44:45.698318+05:30
Bhubaneswar,Odisha,20.2961,85.8245,28.5,94,0.0,999.0,9.05,43.6,110,40.6,31.7,9.2,275.0,78.0,5.1,7,5,7,1,2026-06-17T03:44:45.698325+05:30
Cuttack,Odisha,20.4625,85.8828,28.6,94,0.0,1000.8,9.15,30.2,110,40.6,31.7,9.2,341.0,78.0,5.1,7,5,4,1,2026-06-17T03:44:45.698332+05:30
Rourkela,Odisha,22.2604,84.8536,28.1,78,0.0,981.8,8.7,34.2,153,102.9,85.2,16.2,404.0,96.0,23.3,7,5,7,1,2026-06-17T03:44:45.698339+05:30
Raipur,Chhattisgarh,21.2514,81.6296,29.9,51,0.0,971.6,8.9,28.4,152,100.6,76.4,46.5,481.0,34.0,41.7,4,5,7,1,2026-06-17T03:44:45.698346+05:30
Bhilai,Chhattisgarh,21.1938,81.3509,27.4,67,0.0,972.2,8.9,32.4,151,102.0,77.3,61.3,1337.0,16.0,66.5,7,5,7,1,2026-06-17T03:44:45.698353+05:30
Guwahati,Assam,26.1158,91.7086,25.7,90,0.0,999.1,8.55,30.6,102,46.4,42.8,8.2,374.0,62.0,3.5,7,5,7,1,2026-06-17T03:44:45.698360+05:30
Agartala,Tripura,23.8315,91.2868,25.5,99,0.0,1004.0,8.05,28.1,84,20.9,18.7,12.9,268.0,50.0,3.0,7,5,4,1,2026-06-17T03:44:45.698367+05:30
Shillong,Meghalaya,25.5788,91.8933,19.4,90,0.0,855.6,6.9,20.2,82,30.3,25.1,4.6,272.0,77.0,2.5,3,10,7,1,2026-06-17T03:44:45.698374+05:30
Imphal,Manipur,24.817,93.9368,22.6,97,0.1,921.6,8.6,28.1,65,19.8,17.8,6.2,298.0,59.0,2.9,6,5,7,1,2026-06-17T03:44:45.698380+05:30
Aizawl,Mizoram,23.7271,92.7176,19.2,98,0.0,890.8,8.75,22.7,43,4.7,4.4,2.7,167.0,45.0,0.3,3,10,7,1,2026-06-17T03:44:45.698387+05:30
Kohima,Nagaland,25.6701,94.1077,19.3,97,0.0,854.0,7.4,22.3,57,16.6,13.5,4.3,226.0,66.0,1.6,3,10,7,1,2026-06-17T03:44:45.698394+05:30
Gangtok,Sikkim,27.3314,88.6138,16.4,89,0.0,835.2,8.45,38.5,56,17.3,15.7,18.8,563.0,51.0,1.6,3,10,7,0,2026-06-17T03:44:45.698401+05:30
Siliguri,West Bengal,26.7271,88.3953,24.8,96,0.0,990.6,8.8,23.0,117,61.2,53.8,16.2,495.0,89.0,5.8,3,5,7,1,2026-06-17T03:44:49.091781+05:30
Durgapur,West Bengal,23.5204,87.3119,27.7,91,0.0,991.6,8.85,34.6,164,62.4,57.4,32.2,605.0,33.0,38.0,7,5,7,1,2026-06-17T03:44:49.091814+05:30
Asansol,West Bengal,23.6739,86.9524,27.7,91,0.0,990.1,9.05,39.6,160,57.0,52.4,30.0,502.0,40.0,36.9,7,5,7,1,2026-06-17T03:44:49.091825+05:30
Pondicherry,Puducherry,11.9139,79.8145,28.6,81,0.0,1006.3,8.15,53.3,89,30.2,19.8,10.3,188.0,66.0,9.4,7,5,4,1,2026-06-17T03:44:49.091833+05:30
Port Blair,Andaman and Nicobar Islands,11.6234,92.7265,25.2,96,0.1,1007.7,8.75,40.7,27,8.5,5.0,0.2,90.0,44.0,0.3,10,5,4,1,2026-06-17T03:44:49.091842+05:30
Haridwar,Uttarakhand,29.9457,78.1642,24.3,88,0.0,970.7,7.0,23.8,153,164.4,77.5,30.4,348.0,59.0,10.1,3,5,7,1,2026-06-17T03:44:49.091850+05:30
Rishikesh,Uttarakhand,30.0869,78.2676,22.4,98,0.0,963.4,6.55,25.6,113,147.6,57.2,8.3,337.0,117.0,7.4,3,5,7,1,2026-06-17T03:44:49.091857+05:30
Nainital,Uttarakhand,29.3919,79.4542,14.0,93,0.0,803.1,5.75,29.5,99,78.0,44.7,29.9,324.0,38.0,4.7,3,10,3,0,2026-06-17T03:44:49.091865+05:30
Mussoorie,Uttarakhand,30.4599,78.0664,16.0,76,0.0,801.5,6.4,39.6,87,62.4,41.8,41.9,216.0,20.0,5.7,3,5,7,0,2026-06-17T03:44:49.091872+05:30
Dharamshala,Himachal Pradesh,32.219,76.3234,20.8,66,0.0,867.3,8.55,37.4,52,17.5,13.9,19.2,199.0,14.0,0.0,3,5,7,0,2026-06-17T03:44:49.091880+05:30
Dalhousie,Himachal Pradesh,32.5387,75.971,13.4,93,0.0,801.2,8.65,27.7,75,35.3,32.0,31.8,255.0,39.0,2.4,3,10,7,0,2026-06-17T03:44:49.091888+05:30
Patiala,Punjab,30.3398,76.3869,26.2,85,0.0,974.9,6.4,23.4,281,191.9,88.2,29.2,480.0,40.0,11.1,7,5,7,1,2026-06-17T03:44:49.091896+05:30
Bhatinda,Punjab,30.211,74.9455,27.2,79,0.0,980.5,8.35,23.0,134,115.3,57.5,44.1,370.0,15.0,6.2,7,5,7,1,2026-06-17T03:44:49.091904+05:30
Rohtak,Haryana,28.8955,76.6066,26.3,77,0.0,978.3,7.8,28.1,372,570.0,137.8,57.4,709.0,5.0,7.6,7,5,7,1,2026-06-17T03:44:49.091911+05:30
Panipat,Haryana,29.3909,76.9635,26.4,79,0.0,977.3,7.65,20.2,608,704.1,177.0,33.8,761.0,18.0,5.1,7,5,7,1,2026-06-17T03:44:49.091919+05:30
Mathura,Uttar Pradesh,27.4924,77.6737,26.7,73,0.0,983.5,8.1,23.0,243,216.5,60.3,48.5,592.0,4.0,6.4,7,5,7,1,2026-06-17T03:44:49.091926+05:30
Vrindavan,Uttar Pradesh,27.5823,77.7027,27.1,70,0.0,984.0,8.1,25.2,243,216.5,60.3,48.5,559.0,4.0,6.4,7,5,7,1,2026-06-17T03:44:49.091933+05:30
Ayodhya,Uttar Pradesh,26.7922,82.1998,27.3,83,0.0,991.9,8.45,30.6,159,154.1,97.3,69.8,518.0,0.0,14.0,7,5,7,1,2026-06-17T03:44:49.091941+05:30
Ratlam,Madhya Pradesh,23.3315,75.0367,26.6,75,0.0,953.1,8.5,43.9,71,23.6,14.0,8.1,173.0,42.0,12.6,7,5,7,1,2026-06-17T03:44:49.091949+05:30
Sagar,Madhya Pradesh,23.8388,78.7378,26.8,64,0.0,947.7,8.15,35.3,84,49.7,31.5,8.5,186.0,66.0,2.4,7,5,7,1,2026-06-17T03:44:49.091956+05:30
Satna,Madhya Pradesh,24.6005,80.8322,29.6,57,0.0,968.7,8.8,27.7,133,50.9,27.7,6.7,195.0,78.0,3.4,4,5,7,1,2026-06-17T03:44:49.091965+05:30
Akola,Maharashtra,20.7002,77.0082,30.5,53,0.0,973.4,8.8,51.8,78,34.0,21.1,13.4,125.0,46.0,8.3,0,5,7,1,2026-06-17T03:44:49.091973+05:30
Amravati,Maharashtra,20.9374,77.7796,24.0,78,0.3,965.3,8.8,49.3,80,44.0,27.2,18.5,278.0,31.0,4.9,6,5,7,1,2026-06-17T03:44:49.091982+05:30
Latur,Maharashtra,18.4088,76.5604,26.9,59,0.0,938.8,8.5,34.6,73,28.1,19.0,4.5,150.0,89.0,8.0,4,5,7,1,2026-06-17T03:44:49.091990+05:30
Nanded,Maharashtra,19.1383,77.3091,28.9,47,0.0,967.0,8.85,38.9,79,49.5,31.0,16.0,325.0,38.0,3.8,4,5,7,1,2026-06-17T03:44:49.091997+05:30
Gulbarga,Karnataka,17.3297,76.8343,27.1,61,0.0,957.4,8.1,37.4,69,19.4,14.0,5.3,166.0,60.0,4.7,7,5,7,1,2026-06-17T03:44:49.092005+05:30
Bidar,Karnataka,17.9104,77.5199,26.1,45,0.0,933.6,8.95,33.5,88,74.0,50.1,44.5,232.0,19.0,6.5,4,5,7,0,2026-06-17T03:44:49.092013+05:30
Hospet,Karnataka,15.2689,76.3909,24.4,89,0.0,955.2,8.6,44.3,58,13.8,8.6,6.2,147.0,40.0,2.1,3,5,7,1,2026-06-17T03:44:49.092020+05:30
Tirupur,Tamil Nadu,11.1085,77.3411,24.8,88,0.0,974.5,7.15,43.6,75,28.0,19.0,15.2,158.0,40.0,4.4,3,5,7,1,2026-06-17T03:44:49.092028+05:30
Alappuzha,Kerala,9.4981,76.3388,25.1,93,0.3,1009.5,5.8,33.5,57,37.6,17.5,8.0,115.0,44.0,3.8,10,0,0,1,2026-06-17T03:44:49.092035+05:30
Munnar,Kerala,10.0889,77.0595,17.5,100,0.0,856.3,8.15,28.8,47,6.2,4.5,4.8,149.0,36.0,1.4,3,10,7,1,2026-06-17T03:44:49.092070+05:30
Silchar,Assam,24.8333,92.7789,24.6,98,0.1,1003.4,8.9,24.8,99,39.8,33.1,8.3,236.0,82.0,5.3,6,5,4,1,2026-06-17T03:44:49.092079+05:30
Dibrugarh,Assam,27.4728,94.912,24.6,99,0.3,993.4,7.25,25.6,78,23.6,22.1,8.8,269.0,72.0,1.7,6,5,7,1,2026-06-17T03:44:49.092086+05:30
