city,state,latitude,longitude,temp,humidity,rain,pressure,uv_index,wind_gusts,aqi,pm10,pm2_5,no2,co,o3,so2,mosquito_risk,arthritis_risk,migraine_risk,frizz_risk,updated_at
Delhi,Delhi,28.6139,77.209,32.0,66,0.0,977.2,6.2,33.8,417,789.8,211.9,77.9,638.0,0.0,27.8,3,5,7,1,2026-07-17T00:45:14.010833+05:30
Mumbai,Maharashtra,19.076,72.8777,26.3,90,0.1,1007.2,7.65,40.0,69,22.9,11.7,10.1,209.0,39.0,8.4,10,5,4,1,2026-07-17T00:45:14.010872+05:30
Bangalore,Karnataka,12.9716,77.5946,22.2,79,0.0,912.3,8.45,50.8,66,18.0,11.4,13.0,214.0,40.0,4.8,3,5,7,1,2026-07-17T00:45:14.010887+05:30
Hyderabad,Telangana,17.385,78.4867,27.7,63,0.0,952.0,1.7,42.5,65,36.2,21.0,19.6,265.0,44.0,7.2,7,5,3,1,2026-07-17T00:45:14.010897+05:30
Chennai,Tamil Nadu,13.0827,80.2707,29.8,79,0.0,1005.4,8.3,41.8,79,31.7,21.9,9.5,189.0,80.0,7.7,7,5,4,1,2026-07-17T00:45:14.010905+05:30
Kolkata,West Bengal,22.5726,88.3639,27.5,88,0.0,998.3,7.2,37.8,62,26.9,21.5,9.0,464.0,84.0,7.2,7,5,7,1,2026-07-17T00:45:14.010912+05:30
Pune,Maharashtra,18.5204,73.8567,23.6,88,0.0,946.9,7.6,48.2,48,9.5,6.9,12.4,165.0,29.0,8.5,3,5,7,1,2026-07-17T00:45:14.010919+05:30
Ahmedabad,Gujarat,23.0225,72.5714,29.1,73,0.0,999.2,5.9,37.4,80,31.9,20.3,13.0,231.0,40.0,6.0,7,5,3,1,2026-07-17T00:45:14.010925+05:30
Jaipur,Rajasthan,26.9124,75.7873,30.7,54,0.0,955.8,8.05,40.0,242,584.9,107.1,13.1,261.0,51.0,5.2,0,5,7,1,2026-07-17T00:45:14.010932+05:30
Lucknow,Uttar Pradesh,26.8467,80.9462,29.4,89,0.0,988.1,6.65,28.4,160,81.0,59.1,18.9,496.0,73.0,10.3,7,5,7,1,2026-07-17T00:45:14.010942+05:30
Kanpur,Uttar Pradesh,26.4499,80.3319,29.8,85,0.0,986.2,8.05,20.2,164,91.5,56.0,17.1,407.0,72.0,7.0,7,5,7,1,2026-07-17T00:45:14.010949+05:30
Chandigarh,Chandigarh,30.7333,76.7794,28.2,81,0.0,963.2,6.85,34.6,154,76.4,67.5,36.4,1118.0,73.0,15.5,7,5,7,1,2026-07-17T00:45:14.010956+05:30
Srinagar,Jammu and Kashmir,34.0837,74.7973,22.4,78,0.0,837.7,9.05,23.4,93,51.7,48.2,41.5,985.0,17.0,3.1,3,5,7,1,2026-07-17T00:45:14.010963+05:30
Jammu,Jammu and Kashmir,32.7266,74.857,28.8,80,0.1,966.8,8.6,23.8,151,69.4,61.2,46.8,600.0,41.0,7.4,10,5,7,1,2026-07-17T00:45:14.010969+05:30
Amritsar,Punjab,31.634,74.8723,29.8,78,0.0,974.5,8.3,22.3,171,158.3,135.0,99.6,713.0,7.0,18.1,7,5,7,1,2026-07-17T00:45:14.010975+05:30
Ludhiana,Punjab,30.901,75.8573,30.1,82,0.0,972.9,7.95,30.6,171,137.8,102.2,55.7,1570.0,33.0,10.7,3,5,7,1,2026-07-17T00:45:14.010982+05:30
Jalandhar,Punjab,31.326,75.5762,29.2,85,0.0,973.7,8.25,24.8,180,167.2,138.8,91.7,1579.0,3.0,13.2,7,5,7,1,2026-07-17T00:45:14.010988+05:30
Dehradun,Uttarakhand,30.6284,78.0322,18.3,100,0.0,827.6,6.6,27.0,91,58.4,45.5,28.2,337.0,89.0,6.8,3,10,7,1,2026-07-17T00:45:14.010994+05:30
Shimla,Himachal Pradesh,31.1048,77.1734,15.2,97,0.0,781.7,6.65,39.6,100,55.5,41.9,18.0,408.0,81.0,5.9,3,10,7,0,2026-07-17T00:45:14.011001+05:30
Manali,Himachal Pradesh,32.2396,77.1887,19.0,93,0.0,816.9,5.25,32.8,42,23.8,18.4,42.8,349.0,42.0,0.1,3,10,3,1,2026-07-17T00:45:14.011009+05:30
Gurgaon,Haryana,28.4595,77.0266,31.2,65,0.0,975.7,6.15,35.6,392,692.9,166.7,42.3,424.0,25.0,14.7,3,5,7,1,2026-07-17T00:45:14.011015+05:30
Noida,Uttar Pradesh,28.5355,77.391,29.8,84,0.0,978.4,6.35,25.9,392,692.9,166.7,42.3,637.0,25.0,14.7,7,5,7,1,2026-07-17T00:45:14.011025+05:30
Ghaziabad,Uttar Pradesh,28.6692,77.4538,30.3,68,0.0,976.7,5.8,30.2,293,717.1,204.4,79.4,1394.0,1.0,29.6,3,5,3,1,2026-07-17T00:45:14.011032+05:30
Faridabad,Haryana,28.4089,77.3178,31.9,68,0.0,977.9,6.35,33.5,392,692.9,166.7,42.3,477.0,25.0,14.7,3,5,7,1,2026-07-17T00:45:14.011038+05:30
Meerut,Uttar Pradesh,28.9845,77.7064,30.1,81,0.0,975.6,7.6,29.9,293,717.1,204.4,79.4,1422.0,1.0,29.6,3,5,7,1,2026-07-17T00:45:14.011044+05:30
Agra,Uttar Pradesh,27.1767,78.0081,32.3,56,0.0,982.1,6.8,34.9,150,94.5,44.9,18.0,255.0,55.0,6.3,0,5,7,1,2026-07-17T00:45:14.011051+05:30
Varanasi,Uttar Pradesh,25.3176,82.9739,28.3,94,0.0,992.1,5.2,18.0,177,60.1,38.3,9.5,719.0,110.0,6.2,7,5,3,1,2026-07-17T00:45:14.011058+05:30
Prayagraj,Uttar Pradesh,25.4358,81.8463,29.3,92,0.0,990.6,7.9,29.9,166,82.2,55.2,17.0,423.0,77.0,8.8,7,5,7,1,2026-07-17T00:45:14.011065+05:30
Gorakhpur,Uttar Pradesh,26.7606,83.3732,27.0,98,0.1,992.4,7.2,28.4,123,15.2,15.0,16.3,793.0,77.0,4.3,10,5,7,1,2026-07-17T00:45:14.011071+05:30
Bareilly,Uttar Pradesh,28.367,79.4304,29.2,90,0.0,981.3,6.8,28.8,174,92.9,68.7,17.7,517.0,77.0,11.3,7,5,7,1,2026-07-17T00:45:14.011079+05:30
Aligarh,Uttar Pradesh,27.8974,78.088,30.6,69,0.0,979.8,7.35,27.4,241,327.8,98.0,24.8,351.0,43.0,6.4,3,5,7,1,2026-07-17T00:45:14.011085+05:30
Moradabad,Uttar Pradesh,28.8386,78.7733,29.9,81,0.0,978.1,7.15,31.0,189,294.3,147.6,56.4,971.0,20.0,17.3,7,5,7,1,2026-07-17T00:45:14.011091+05:30
Saharanpur,Uttar Pradesh,29.9637,77.546,29.1,79,0.0,969.9,7.3,32.8,167,251.5,112.7,37.8,673.0,63.0,15.4,7,5,7,1,2026-07-17T00:45:14.011097+05:30
Jhansi,Uttar Pradesh,25.4484,78.5685,29.8,70,0.0,973.2,7.25,42.8,89,46.4,25.7,9.7,167.0,62.0,4.6,7,5,7,1,2026-07-17T00:45:17.383989+05:30
Surat,Gujarat,21.1702,72.8311,27.4,88,0.1,1004.5,7.7,48.2,74,22.7,16.8,25.8,305.0,20.0,39.3,10,5,4,1,2026-07-17T00:45:17.384019+05:30
Vadodara,Gujarat,22.3072,73.1812,28.5,83,0.0,1001.7,5.5,40.0,70,21.2,15.6,22.6,157.0,23.0,22.3,7,5,0,1,2026-07-17T00:45:17.384029+05:30
Rajkot,Gujarat,22.3039,70.8022,27.3,83,0.0,991.5,6.4,44.3,64,16.4,10.3,8.8,117.0,30.0,4.6,7,5,7,1,2026-07-17T00:45:17.384037+05:30
Thane,Maharashtra,19.2183,72.9781,25.2,97,0.1,1006.7,7.0,37.4,69,22.9,11.7,10.1,204.0,39.0,8.4,10,5,4,1,2026-07-17T00:45:17.384044+05:30
Nagpur,Maharashtra,21.1458,79.0882,29.5,66,0.0,970.1,0.85,35.6,83,36.1,23.2,13.9,243.0,49.0,9.9,7,5,3,1,2026-07-17T00:45:17.384051+05:30
Nashik,Maharashtra,19.9975,73.7898,23.4,92,0.0,943.9,7.4,47.5,56,14.1,9.2,13.0,165.0,34.0,15.0,3,5,7,1,2026-07-17T00:45:17.384059+05:30
Aurangabad,Maharashtra,19.8762,75.3433,24.0,86,0.0,942.7,8.15,51.8,58,16.5,11.5,9.6,186.0,60.0,12.9,3,5,7,1,2026-07-17T00:45:17.384066+05:30
Solapur,Maharashtra,17.6599,75.9064,27.1,68,0.0,956.6,6.7,42.8,52,12.6,8.6,7.0,192.0,41.0,2.7,7,5,7,1,2026-07-17T00:45:17.384074+05:30
Kolhapur,Maharashtra,16.705,74.2433,22.9,91,0.0,947.6,7.6,49.7,50,8.6,5.8,6.3,132.0,38.0,2.8,3,5,7,1,2026-07-17T00:45:17.384081+05:30
Goa,Goa,15.2993,74.124,24.6,98,0.1,999.0,7.1,34.6,68,27.9,14.6,3.4,350.0,46.0,1.3,6,5,7,1,2026-07-17T00:45:17.384088+05:30
Jodhpur,Rajasthan,26.2389,73.0243,31.1,55,0.0,979.1,8.4,42.1,141,144.4,38.8,8.0,132.0,51.0,2.3,0,5,7,1,2026-07-17T00:45:17.384095+05:30
Udaipur,Rajasthan,24.5854,73.7125,26.0,72,0.0,943.7,8.65,39.2,83,40.4,22.9,9.6,149.0,60.0,7.8,7,5,7,1,2026-07-17T00:45:17.384102+05:30
Kota,Rajasthan,25.2138,75.8648,31.2,55,0.0,974.8,8.2,33.1,83,47.0,27.9,9.3,177.0,66.0,6.5,0,5,7,1,2026-07-17T00:45:17.384108+05:30
Bikaner,Rajasthan,28.0229,73.3119,33.3,44,0.0,976.7,8.45,37.8,140,196.0,64.5,2.6,120.0,66.0,3.7,0,5,7,1,2026-07-17T00:45:17.384115+05:30
Ajmer,Rajasthan,26.4499,74.6399,28.8,58,0.0,951.2,8.15,45.4,89,60.3,28.6,10.4,142.0,52.0,4.8,4,5,7,1,2026-07-17T00:45:17.384121+05:30
Gwalior,Madhya Pradesh,26.2183,78.1828,30.2,67,0.0,978.0,5.95,41.8,104,57.6,28.3,10.7,143.0,56.0,3.0,3,5,3,1,2026-07-17T00:45:17.384128+05:30
Indore,Madhya Pradesh,22.7196,75.8577,26.4,75,0.0,945.7,8.55,43.6,71,29.1,22.2,9.9,235.0,72.0,9.1,7,5,7,1,2026-07-17T00:45:17.384135+05:30
Bhopal,Madhya Pradesh,23.2599,77.4126,28.2,64,0.0,950.4,7.65,36.0,79,36.3,25.7,9.7,292.0,61.0,5.2,7,5,7,1,2026-07-17T00:45:17.384142+05:30
Jabalpur,Madhya Pradesh,23.1815,79.9864,26.0,95,0.0,957.6,6.05,34.9,93,41.2,24.0,9.9,291.0,61.0,4.0,7,5,7,1,2026-07-17T00:45:17.384149+05:30
Ujjain,Madhya Pradesh,23.1765,75.7885,26.5,75,0.0,951.3,8.45,38.5,73,28.9,21.8,7.5,248.0,75.0,8.4,7,5,7,1,2026-07-17T00:45:17.384156+05:30
Visakhapatnam,Andhra Pradesh,17.6868,83.2185,29.2,70,0.0,999.4,8.35,52.2,87,31.5,22.9,21.1,291.0,64.0,38.6,7,5,7,1,2026-07-17T00:45:17.384163+05:30
Vijayawada,Andhra Pradesh,16.5062,80.648,28.6,80,0.0,1000.3,3.2,42.8,72,29.6,21.0,10.9,265.0,57.0,4.6,7,5,0,1,2026-07-17T00:45:17.384170+05:30
Guntur,Andhra Pradesh,16.3067,80.4365,28.7,71,0.0,1001.5,3.5,42.8,70,31.8,23.5,15.3,245.0,47.0,5.1,7,5,0,1,2026-07-17T00:45:17.384177+05:30
Nellore,Andhra Pradesh,14.4426,79.9865,30.0,63,0.0,1004.4,6.8,49.3,71,45.2,27.7,11.9,228.0,56.0,6.8,7,5,4,1,2026-07-17T00:45:17.384184+05:30
Kurnool,Andhra Pradesh,15.8281,78.0373,27.8,65,0.0,976.6,8.3,47.2,63,28.6,16.0,6.9,171.0,59.0,2.0,7,5,7,1,2026-07-17T00:45:17.384191+05:30
Kakinada,Andhra Pradesh,16.9891,82.2475,27.9,78,0.0,1004.4,8.7,46.8,77,35.9,24.6,8.8,435.0,80.0,7.5,7,5,4,1,2026-07-17T00:45:17.384220+05:30
Tirupati,Andhra Pradesh,13.6288,79.4192,29.3,58,0.0,990.0,8.35,37.8,81,54.4,42.7,41.3,196.0,16.0,5.4,4,5,7,1,2026-07-17T00:45:17.384228+05:30
Warangal,Telangana,17.9689,79.5941,27.7,80,0.0,976.5,7.0,37.8,66,30.7,21.2,12.5,260.0,49.0,5.3,7,5,7,1,2026-07-17T00:45:17.384234+05:30
Nizamabad,Telangana,18.6725,78.0941,27.1,68,0.0,963.1,3.2,40.0,64,33.2,20.1,10.7,176.0,52.0,6.7,7,5,3,1,2026-07-17T00:45:17.384241+05:30
Mysore,Karnataka,12.2958,76.6396,21.2,90,0.0,929.2,3.75,46.4,61,12.6,8.0,8.6,130.0,38.0,2.5,3,5,3,1,2026-07-17T00:45:17.384247+05:30
Mangalore,Karnataka,12.9141,74.856,24.3,97,0.2,1009.1,0.95,37.8,68,30.9,17.7,12.7,157.0,30.0,3.7,6,0,0,1,2026-07-17T00:45:17.384254+05:30
Hubli-Dharwad,Karnataka,15.3647,75.124,22.4,92,0.0,941.1,8.1,52.6,51,4.8,2.6,3.0,121.0,44.0,1.2,3,5,7,1,2026-07-17T00:45:17.384261+05:30
Belgaum,Karnataka,15.8497,74.4977,21.4,94,0.0,925.5,8.7,50.8,45,7.4,4.2,3.9,120.0,43.0,2.3,3,5,7,1,2026-07-17T00:45:20.763282+05:30
Coimbatore,Tamil Nadu,11.0168,76.9558,24.0,86,0.0,962.3,8.75,51.5,59,20.5,12.7,9.6,201.0,31.0,3.7,3,5,7,1,2026-07-17T00:45:20.763316+05:30
Madurai,Tamil Nadu,9.9252,78.1198,29.1,60,0.0,993.1,8.55,43.6,82,30.2,24.7,34.4,147.0,18.0,7.6,4,5,7,1,2026-07-17T00:45:20.763326+05:30
Trichy,Tamil Nadu,10.7905,78.7047,29.2,59,0.0,999.9,8.8,56.9,67,27.8,20.5,18.0,138.0,33.0,5.3,4,5,7,1,2026-07-17T00:45:20.763334+05:30
Salem,Tamil Nadu,11.6643,78.146,25.8,76,0.0,977.7,8.9,31.7,76,32.2,22.8,23.8,278.0,32.0,7.0,7,5,7,1,2026-07-17T00:45:20.763343+05:30
Tirunelveli,Tamil Nadu,8.7139,77.7567,28.4,66,0.0,1003.9,7.85,50.0,59,22.6,13.1,7.7,153.0,40.0,2.7,7,5,4,1,2026-07-17T00:45:20.763351+05:30
Vellore,Tamil Nadu,12.9165,79.1325,30.1,45,0.0,983.5,8.1,41.8,79,25.8,18.7,14.9,132.0,49.0,5.1,0,5,7,1,2026-07-17T00:45:20.763358+05:30
Erode,Tamil Nadu,11.341,77.7172,27.0,70,0.0,989.4,8.85,34.2,65,25.9,17.3,17.3,184.0,32.0,4.5,7,5,7,1,2026-07-17T00:45:20.763366+05:30
Kochi,Kerala,9.9312,76.2673,27.0,86,0.0,1010.6,8.0,37.8,75,27.2,17.6,16.2,138.0,24.0,4.7,7,0,4,1,2026-07-17T00:45:20.763373+05:30
Thiruvananthapuram,Kerala,8.5241,76.9366,25.2,92,0.0,1010.5,8.1,47.9,67,30.0,14.4,5.3,184.0,46.0,2.0,7,0,4,1,2026-07-17T00:45:20.763380+05:30
Kozhikode,Kerala,11.2588,75.7804,25.5,91,0.1,1009.9,7.9,37.8,61,21.4,9.8,2.3,262.0,51.0,1.4,10,0,4,1,2026-07-17T00:45:20.763386+05:30
Thrissur,Kerala,10.5276,76.2144,26.3,85,0.0,1008.9,7.7,38.2,70,25.4,16.6,9.9,347.0,33.0,3.5,7,0,4,1,2026-07-17T00:45:20.763394+05:30
Kannur,Kerala,11.8745,75.3704,24.7,96,0.2,1009.5,2.2,31.7,65,18.9,11.7,12.5,260.0,28.0,2.7,6,0,0,1,2026-07-17T00:45:20.763401+05:30
Patna,Bihar,25.5941,85.1376,27.6,93,0.0,995.2,8.25,30.6,107,43.1,42.1,20.7,447.0,64.0,9.4,7,5,7,1,2026-07-17T00:45:20.763408+05:30
Gaya,Bihar,24.7914,85.0002,26.8,98,0.2,988.3,8.7,27.4,96,32.5,31.5,13.9,326.0,67.0,5.2,10,5,7,1,2026-07-17T00:45:20.763414+05:30
Muzaffarpur,Bihar,26.1209,85.3647,27.4,93,0.1,995.5,7.2,38.2,100,45.9,45.1,24.4,853.0,55.0,10.0,10,5,7,1,2026-07-17T00:45:20.763421+05:30
Bhagalpur,Bihar,25.2425,87.0117,28.8,82,0.0,995.7,7.55,33.1,82,24.7,23.2,12.0,269.0,74.0,5.1,7,5,7,1,2026-07-17T00:45:20.763428+05:30
Ranchi,Jharkhand,23.3441,85.3096,23.9,97,0.1,932.5,7.75,29.9,65,14.7,14.2,10.2,246.0,82.0,7.4,6,5,7,1,2026-07-17T00:45:20.763435+05:30
Jamshedpur,Jharkhand,22.8046,86.2029,26.0,99,0.0,984.4,8.35,23.4,87,47.4,46.1,44.6,226.0,37.0,64.8,7,5,7,1,2026-07-17T00:45:20.763442+05:30
Dhanbad,Jharkhand,23.7957,86.4304,27.3,87,0.0,973.8,7.85,25.6,98,41.6,40.3,42.6,229.0,44.0,101.0,7,5,7,1,2026-07-17T00:45:20.763449+05:30
Bokaro,Jharkhand,23.6693,86.1511,26.0,95,0.0,977.7,7.35,19.4,95,41.7,39.9,38.3,236.0,51.0,98.5,7,5,7,1,2026-07-17T00:45:20.763456+05:30
Bhubaneswar,Odisha,20.2961,85.8245,25.0,97,0.0,996.7,7.0,40.0,71,22.3,16.9,10.3,265.0,70.0,7.7,7,5,7,1,2026-07-17T00:45:20.763463+05:30
Cuttack,Odisha,20.4625,85.8828,25.6,96,0.1,998.4,7.85,37.4,71,22.3,16.9,10.3,301.0,70.0,7.7,10,5,7,1,2026-07-17T00:45:20.763470+05:30
Rourkela,Odisha,22.2604,84.8536,25.0,98,0.1,979.6,5.85,32.8,71,26.6,20.1,10.4,290.0,67.0,1.9,10,5,3,1,2026-07-17T00:45:20.763476+05:30
Raipur,Chhattisgarh,21.2514,81.6296,24.7,97,0.3,971.1,1.95,38.9,130,49.7,38.0,32.5,448.0,50.0,55.7,6,5,3,1,2026-07-17T00:45:20.763483+05:30
Bhilai,Chhattisgarh,21.1938,81.3509,25.0,97,0.2,971.5,1.75,41.0,114,47.4,33.8,24.3,633.0,55.0,40.7,10,5,3,1,2026-07-17T00:45:20.763489+05:30
Guwahati,Assam,26.1158,91.7086,27.6,90,0.0,996.9,7.8,21.6,57,8.3,7.3,12.0,299.0,28.0,1.4,7,5,7,1,2026-07-17T00:45:20.763496+05:30
Agartala,Tripura,23.8315,91.2868,26.8,85,0.0,1002.6,8.25,51.8,61,25.6,18.5,7.0,167.0,70.0,3.0,7,5,4,1,2026-07-17T00:45:20.763502+05:30
Shillong,Meghalaya,25.5788,91.8933,20.9,93,0.1,855.2,8.4,41.4,36,2.5,2.0,5.3,141.0,66.0,1.6,6,5,7,1,2026-07-17T00:45:20.763509+05:30
Imphal,Manipur,24.817,93.9368,22.7,98,0.3,920.7,7.6,32.8,56,14.5,11.5,6.9,425.0,49.0,2.0,6,5,7,1,2026-07-17T00:45:20.763516+05:30
Aizawl,Mizoram,23.7271,92.7176,19.7,90,0.0,890.2,7.7,52.2,52,19.4,11.0,2.4,140.0,63.0,1.6,3,10,7,1,2026-07-17T00:45:20.763523+05:30
Kohima,Nagaland,25.6701,94.1077,19.9,91,0.0,853.1,4.55,23.8,43,7.1,5.3,4.5,216.0,54.0,1.1,3,10,3,1,2026-07-17T00:45:20.763529+05:30
Gangtok,Sikkim,27.3314,88.6138,18.7,97,0.1,836.2,7.5,31.3,43,7.1,6.1,3.6,386.0,91.0,1.8,6,10,7,1,2026-07-17T00:45:20.763536+05:30
Siliguri,West Bengal,26.7271,88.3953,27.5,80,0.0,988.9,6.65,29.5,60,20.7,18.1,11.1,324.0,87.0,4.9,7,5,7,1,2026-07-17T00:45:24.167071+05:30
Durgapur,West Bengal,23.5204,87.3119,26.8,95,0.1,988.2,8.55,32.0,81,33.6,32.2,34.1,264.0,39.0,32.6,10,5,7,1,2026-07-17T00:45:24.167106+05:30
Asansol,West Bengal,23.6739,86.9524,27.1,91,0.0,986.9,8.3,35.3,81,29.5,28.6,34.2,221.0,42.0,32.5,7,5,7,1,2026-07-17T00:45:24.167118+05:30
Pondicherry,Puducherry,11.9139,79.8145,28.8,74,0.0,1007.6,8.65,41.0,77,21.9,15.1,9.4,224.0,60.0,7.5,7,5,4,1,2026-07-17T00:45:24.167128+05:30
Port Blair,Andaman and Nicobar Islands,11.6234,92.7265,27.3,86,0.0,1007.6,7.8,39.2,47,14.9,7.7,0.2,87.0,44.0,0.4,7,5,4,1,2026-07-17T00:45:24.167137+05:30
Haridwar,Uttarakhand,29.9457,78.1642,29.2,80,0.0,968.4,7.5,27.4,134,125.7,94.5,38.4,456.0,66.0,17.6,7,5,7,1,2026-07-17T00:45:24.167145+05:30
Rishikesh,Uttarakhand,30.0869,78.2676,28.0,78,0.0,961.3,7.4,25.9,128,85.7,63.8,12.6,410.0,128.0,12.6,7,5,7,1,2026-07-17T00:45:24.167154+05:30
Nainital,Uttarakhand,29.3919,79.4542,17.6,99,0.1,803.7,6.35,28.4,127,62.6,40.9,9.2,310.0,108.0,7.5,6,10,7,1,2026-07-17T00:45:24.167162+05:30
Mussoorie,Uttarakhand,30.4599,78.0664,17.2,100,0.0,800.8,6.65,39.2,108,68.0,60.8,23.7,427.0,103.0,14.3,3,10,7,1,2026-07-17T00:45:24.167171+05:30
Dharamshala,Himachal Pradesh,32.219,76.3234,22.9,83,0.0,866.7,7.9,23.4,70,33.9,28.5,19.1,341.0,33.0,0.8,3,5,7,1,2026-07-17T00:45:24.167179+05:30
Dalhousie,Himachal Pradesh,32.5387,75.971,16.9,98,0.0,802.3,7.55,24.1,114,59.8,50.8,41.5,676.0,69.0,4.6,3,10,7,1,2026-07-17T00:45:24.167187+05:30
Patiala,Punjab,30.3398,76.3869,29.0,81,0.0,972.4,6.8,29.9,184,353.9,147.1,58.4,1119.0,20.0,10.7,7,5,7,1,2026-07-17T00:45:24.167221+05:30
Bhatinda,Punjab,30.211,74.9455,32.8,61,0.0,977.8,8.15,29.2,173,151.3,78.9,35.7,646.0,32.0,4.8,3,5,7,1,2026-07-17T00:45:24.167232+05:30
Rohtak,Haryana,28.8955,76.6066,29.9,79,0.0,976.0,6.55,30.6,619,741.3,187.7,65.2,397.0,0.0,10.4,7,5,7,1,2026-07-17T00:45:24.167241+05:30
Panipat,Haryana,29.3909,76.9635,29.4,78,0.0,974.5,6.8,29.9,1175,927.6,222.1,58.2,1154.0,15.0,11.0,7,5,7,1,2026-07-17T00:45:24.167249+05:30
Mathura,Uttar Pradesh,27.4924,77.6737,31.2,63,0.0,981.0,7.1,29.5,431,968.6,147.1,21.6,272.0,50.0,5.3,3,5,7,1,2026-07-17T00:45:24.167257+05:30
Vrindavan,Uttar Pradesh,27.5823,77.7027,31.3,63,0.0,981.5,7.2,29.2,431,968.6,147.1,21.6,297.0,50.0,5.3,3,5,7,1,2026-07-17T00:45:24.167265+05:30
Ayodhya,Uttar Pradesh,26.7922,82.1998,28.0,94,0.0,990.2,7.8,24.8,169,69.2,56.3,17.3,759.0,76.0,6.8,7,5,7,1,2026-07-17T00:45:24.167273+05:30
Ratlam,Madhya Pradesh,23.3315,75.0367,26.0,79,0.0,952.4,8.45,38.2,73,24.7,19.3,7.4,201.0,75.0,10.6,7,5,7,1,2026-07-17T00:45:24.167281+05:30
Sagar,Madhya Pradesh,23.8388,78.7378,24.7,92,0.1,946.4,6.8,36.7,82,36.8,23.5,9.4,219.0,62.0,4.5,6,5,7,1,2026-07-17T00:45:24.167289+05:30
Satna,Madhya Pradesh,24.6005,80.8322,28.0,82,0.0,966.6,7.15,36.0,129,47.5,31.2,12.5,182.0,54.0,3.2,7,5,7,1,2026-07-17T00:45:24.167297+05:30
Akola,Maharashtra,20.7002,77.0082,29.8,60,0.0,972.9,8.65,41.4,62,21.1,13.9,9.0,178.0,60.0,9.5,4,5,7,1,2026-07-17T00:45:24.167305+05:30
Amravati,Maharashtra,20.9374,77.7796,29.3,63,0.0,964.8,7.4,45.0,64,22.5,14.6,9.1,152.0,64.0,9.9,7,5,7,1,2026-07-17T00:45:24.167314+05:30
Latur,Maharashtra,18.4088,76.5604,24.4,85,0.0,938.5,8.25,38.9,56,19.2,12.5,6.3,165.0,52.0,3.2,3,5,7,1,2026-07-17T00:45:24.167322+05:30
Nanded,Maharashtra,19.1383,77.3091,27.5,72,0.0,967.1,3.1,37.1,63,32.1,18.4,6.6,185.0,59.0,3.6,7,5,3,1,2026-07-17T00:45:24.167330+05:30
Gulbarga,Karnataka,17.3297,76.8343,24.8,86,0.1,957.9,7.7,45.7,53,13.2,8.9,7.9,146.0,46.0,3.2,6,5,7,1,2026-07-17T00:45:24.167338+05:30
Bidar,Karnataka,17.9104,77.5199,25.2,75,0.0,934.2,1.8,38.2,61,28.5,15.8,8.4,148.0,54.0,2.4,7,5,3,1,2026-07-17T00:45:24.167346+05:30
Hospet,Karnataka,15.2689,76.3909,24.4,82,0.0,956.3,8.6,51.8,54,8.9,5.3,5.3,125.0,40.0,1.7,3,5,7,1,2026-07-17T00:45:24.167354+05:30
Tirupur,Tamil Nadu,11.1085,77.3411,25.1,81,0.0,975.8,8.85,42.5,68,28.9,20.0,21.7,168.0,26.0,5.7,7,5,7,1,2026-07-17T00:45:24.167362+05:30
Alappuzha,Kerala,9.4981,76.3388,27.3,84,0.0,1010.8,8.55,40.0,70,29.6,16.6,10.9,89.0,39.0,3.7,7,0,4,1,2026-07-17T00:45:24.167368+05:30
Munnar,Kerala,10.0889,77.0595,15.2,87,0.0,856.6,8.85,41.4,55,17.2,11.5,10.5,123.0,27.0,2.5,3,10,7,0,2026-07-17T00:45:24.167375+05:30
Silchar,Assam,24.8333,92.7789,25.9,98,0.1,1002.3,8.75,33.5,60,21.4,14.8,7.1,256.0,59.0,3.5,10,5,4,1,2026-07-17T00:45:24.167381+05:30
Dibrugarh,Assam,27.4728,94.912,26.3,96,0.2,991.0,6.8,33.5,48,7.7,7.5,7.6,207.0,66.0,1.2,10,5,7,1,2026-07-17T00:45:24.167387+05:30
