city,state,latitude,longitude,temp,humidity,rain,pressure,uv_index,wind_gusts,aqi,pm10,pm2_5,no2,co,o3,so2,mosquito_risk,arthritis_risk,migraine_risk,frizz_risk,updated_at
Delhi,Delhi,28.6139,77.209,26.2,82,0.1,981.4,7.8,43.9,657,132.2,42.6,15.8,623.0,111.0,15.2,10,5,7,1,2026-06-12T09:45:26.991728+05:30
Mumbai,Maharashtra,19.076,72.8777,31.6,69,0.0,1007.8,7.7,48.2,82,64.7,27.4,5.4,169.0,67.0,5.3,3,5,4,1,2026-06-12T09:45:26.991768+05:30
Bangalore,Karnataka,12.9716,77.5946,25.8,65,0.0,913.8,9.1,46.1,56,17.6,10.4,9.3,374.0,50.0,4.5,7,5,7,1,2026-06-12T09:45:26.991783+05:30
Hyderabad,Telangana,17.385,78.4867,30.7,59,0.0,953.4,9.1,36.4,75,39.1,20.4,4.3,274.0,69.0,4.7,0,5,7,1,2026-06-12T09:45:26.991792+05:30
Chennai,Tamil Nadu,13.0827,80.2707,30.8,67,0.0,1007.2,7.0,40.0,68,34.2,24.1,14.7,350.0,83.0,17.1,3,5,4,1,2026-06-12T09:45:26.991800+05:30
Kolkata,West Bengal,22.5726,88.3639,30.6,71,0.0,1005.8,8.6,23.8,162,60.1,41.1,3.9,425.0,135.0,9.4,3,5,4,1,2026-06-12T09:45:26.991808+05:30
Pune,Maharashtra,18.5204,73.8567,31.0,53,0.0,948.3,8.3,47.2,64,41.4,17.8,3.6,152.0,70.0,4.9,0,5,7,1,2026-06-12T09:45:26.991814+05:30
Ahmedabad,Gujarat,23.0225,72.5714,34.0,52,0.0,998.8,8.05,48.6,72,43.3,17.7,3.0,135.0,66.0,4.3,0,5,7,1,2026-06-12T09:45:26.991821+05:30
Jaipur,Rajasthan,26.9124,75.7873,31.0,60,0.0,956.2,8.25,68.0,150,191.9,47.5,4.2,208.0,95.0,8.6,0,5,7,1,2026-06-12T09:45:26.991832+05:30
Lucknow,Uttar Pradesh,26.8467,80.9462,28.5,74,0.0,992.3,8.35,43.6,103,62.2,35.6,5.7,332.0,150.0,13.4,7,5,7,1,2026-06-12T09:45:26.991839+05:30
Kanpur,Uttar Pradesh,26.4499,80.3319,32.0,55,0.0,989.4,8.35,51.5,150,320.4,59.8,6.2,329.0,146.0,12.3,0,5,7,1,2026-06-12T09:45:26.991845+05:30
Chandigarh,Chandigarh,30.7333,76.7794,28.3,63,0.0,968.0,7.8,53.6,137,80.1,39.9,7.7,274.0,123.0,8.8,7,5,7,1,2026-06-12T09:45:26.991854+05:30
Srinagar,Jammu and Kashmir,34.0837,74.7973,20.2,60,0.0,842.7,9.0,23.0,78,30.7,24.7,5.7,410.0,124.0,3.7,0,5,7,0,2026-06-12T09:45:26.991860+05:30
Jammu,Jammu and Kashmir,32.7266,74.857,30.8,38,0.0,971.8,8.55,42.5,105,52.4,36.1,8.3,238.0,139.0,5.7,0,5,7,0,2026-06-12T09:45:26.991867+05:30
Amritsar,Punjab,31.634,74.8723,28.0,54,0.0,980.2,8.4,52.6,293,359.5,102.4,3.8,297.0,129.0,7.7,4,5,7,1,2026-06-12T09:45:26.991873+05:30
Ludhiana,Punjab,30.901,75.8573,29.7,58,0.0,977.1,8.0,45.7,632,114.8,47.3,5.7,296.0,116.0,7.1,4,5,7,1,2026-06-12T09:45:26.991879+05:30
Jalandhar,Punjab,31.326,75.5762,29.3,57,0.2,979.1,7.95,49.3,431,138.8,56.8,5.5,289.0,123.0,8.4,7,5,7,1,2026-06-12T09:45:26.991885+05:30
Dehradun,Uttarakhand,30.6284,78.0322,21.5,58,0.0,832.3,4.2,36.4,78,100.4,28.8,0.3,196.0,151.0,2.9,0,5,3,0,2026-06-12T09:45:26.991891+05:30
Shimla,Himachal Pradesh,31.1048,77.1734,18.0,60,0.1,785.8,8.1,33.5,92,65.9,26.3,2.9,211.0,150.0,3.5,3,5,7,0,2026-06-12T09:45:26.991900+05:30
Manali,Himachal Pradesh,32.2396,77.1887,19.7,67,0.1,820.3,7.15,41.8,58,9.9,5.8,8.9,184.0,127.0,0.3,6,5,7,0,2026-06-12T09:45:26.991906+05:30
Gurgaon,Haryana,28.4595,77.0266,26.5,83,0.0,979.3,7.9,52.2,1727,936.9,155.5,12.2,529.0,122.0,11.7,7,5,7,1,2026-06-12T09:45:26.991913+05:30
Noida,Uttar Pradesh,28.5355,77.391,25.3,91,0.1,983.0,7.85,42.5,1727,936.9,155.5,12.2,407.0,122.0,11.7,10,5,7,1,2026-06-12T09:45:26.991940+05:30
Ghaziabad,Uttar Pradesh,28.6692,77.4538,26.7,79,0.1,981.7,7.8,48.2,354,47.6,27.1,7.7,293.0,108.0,6.0,10,5,7,1,2026-06-12T09:45:26.991950+05:30
Faridabad,Haryana,28.4089,77.3178,24.9,92,0.1,981.9,7.85,48.6,1727,936.9,155.5,12.2,403.0,122.0,11.7,6,5,7,1,2026-06-12T09:45:26.991957+05:30
Meerut,Uttar Pradesh,28.9845,77.7064,26.1,82,0.0,980.7,7.75,51.8,354,47.6,27.1,7.7,310.0,108.0,6.0,7,5,7,1,2026-06-12T09:45:26.991963+05:30
Agra,Uttar Pradesh,27.1767,78.0081,30.7,62,0.0,985.4,8.15,39.6,1124,2309.7,253.3,5.2,329.0,141.0,8.1,3,5,7,1,2026-06-12T09:45:26.991970+05:30
Varanasi,Uttar Pradesh,25.3176,82.9739,33.0,55,0.0,996.9,8.8,32.8,134,69.2,58.1,10.2,510.0,132.0,20.3,0,5,7,1,2026-06-12T09:45:26.991976+05:30
Prayagraj,Uttar Pradesh,25.4358,81.8463,33.2,52,0.0,995.3,7.25,31.0,126,59.5,45.9,10.6,427.0,126.0,17.3,0,5,7,1,2026-06-12T09:45:26.991983+05:30
Gorakhpur,Uttar Pradesh,26.7606,83.3732,31.1,65,0.0,997.4,8.7,32.0,88,68.2,40.9,3.7,376.0,158.0,11.7,3,5,7,1,2026-06-12T09:45:26.991992+05:30
Bareilly,Uttar Pradesh,28.367,79.4304,28.7,69,0.0,986.6,8.15,43.6,145,47.5,19.7,6.1,332.0,133.0,11.3,7,5,7,1,2026-06-12T09:45:26.991998+05:30
Aligarh,Uttar Pradesh,27.8974,78.088,30.5,61,0.0,984.6,8.0,43.6,771,62.6,31.3,6.1,312.0,121.0,6.5,3,5,7,1,2026-06-12T09:45:26.992005+05:30
Moradabad,Uttar Pradesh,28.8386,78.7733,25.0,91,0.1,984.6,7.75,42.5,145,39.7,20.6,7.0,307.0,128.0,10.5,10,5,7,1,2026-06-12T09:45:26.992011+05:30
Saharanpur,Uttar Pradesh,29.9637,77.546,26.0,78,0.0,975.9,3.2,50.4,152,100.4,40.2,5.2,244.0,123.0,5.9,7,5,3,1,2026-06-12T09:45:26.992018+05:30
Jhansi,Uttar Pradesh,25.4484,78.5685,34.6,47,0.0,975.5,8.55,29.2,97,40.0,31.1,3.9,182.0,139.0,10.3,0,5,7,1,2026-06-12T09:45:30.239100+05:30
Surat,Gujarat,21.1702,72.8311,33.4,60,0.0,1004.7,7.6,58.3,88,62.2,28.7,9.3,218.0,59.0,25.0,0,5,4,1,2026-06-12T09:45:30.239132+05:30
Vadodara,Gujarat,22.3072,73.1812,34.0,53,0.0,1001.5,8.05,57.2,84,58.7,23.7,3.1,137.0,68.0,4.4,0,5,4,1,2026-06-12T09:45:30.239142+05:30
Rajkot,Gujarat,22.3039,70.8022,33.3,56,0.0,991.2,7.6,52.2,65,45.3,16.5,1.8,104.0,65.0,3.2,0,5,7,1,2026-06-12T09:45:30.239151+05:30
Thane,Maharashtra,19.2183,72.9781,32.8,62,0.0,1006.9,7.7,42.8,82,64.7,27.4,5.4,158.0,67.0,5.3,3,5,4,1,2026-06-12T09:45:30.239160+05:30
Nagpur,Maharashtra,21.1458,79.0882,37.6,34,0.0,971.3,8.9,40.0,92,72.2,37.4,10.8,273.0,117.0,24.4,0,5,10,1,2026-06-12T09:45:30.239168+05:30
Nashik,Maharashtra,19.9975,73.7898,29.7,64,0.0,945.2,8.05,51.8,67,45.2,20.5,4.8,119.0,60.0,5.0,7,5,7,1,2026-06-12T09:45:30.239176+05:30
Aurangabad,Maharashtra,19.8762,75.3433,31.3,52,0.0,944.1,8.95,43.6,71,46.1,19.6,3.8,149.0,71.0,9.2,0,5,7,1,2026-06-12T09:45:30.239183+05:30
Solapur,Maharashtra,17.6599,75.9064,31.1,54,0.0,957.6,8.9,43.2,63,38.6,16.5,2.0,125.0,69.0,2.3,0,5,7,1,2026-06-12T09:45:30.239191+05:30
Kolhapur,Maharashtra,16.705,74.2433,30.0,59,0.0,948.9,8.45,49.0,58,46.9,18.8,2.9,156.0,67.0,2.2,4,5,7,1,2026-06-12T09:45:30.239198+05:30
Goa,Goa,15.2993,74.124,29.6,78,0.1,999.5,7.15,33.5,68,33.1,13.8,1.2,149.0,61.0,1.3,10,5,7,1,2026-06-12T09:45:30.239206+05:30
Jodhpur,Rajasthan,26.2389,73.0243,32.4,56,0.0,978.0,8.45,49.3,150,260.8,50.4,1.9,114.0,72.0,2.8,0,5,7,1,2026-06-12T09:45:30.239214+05:30
Udaipur,Rajasthan,24.5854,73.7125,30.8,56,0.0,943.4,8.85,45.4,81,66.6,23.9,2.4,121.0,68.0,5.8,0,5,7,1,2026-06-12T09:45:30.239221+05:30
Kota,Rajasthan,25.2138,75.8648,34.6,53,0.0,975.6,8.4,71.6,92,50.2,27.9,4.0,171.0,68.0,12.4,0,5,7,1,2026-06-12T09:45:30.239228+05:30
Bikaner,Rajasthan,28.0229,73.3119,35.9,44,0.0,975.5,8.45,49.7,156,218.9,75.7,1.2,126.0,82.0,4.4,0,5,10,1,2026-06-12T09:45:30.239236+05:30
Ajmer,Rajasthan,26.4499,74.6399,32.8,53,0.0,951.1,8.35,63.4,85,91.5,32.6,3.3,140.0,88.0,7.2,0,5,7,1,2026-06-12T09:45:30.239244+05:30
Gwalior,Madhya Pradesh,26.2183,78.1828,34.0,48,0.0,980.6,8.3,59.8,121,41.6,31.5,3.2,187.0,136.0,7.8,0,5,7,1,2026-06-12T09:45:30.239251+05:30
Indore,Madhya Pradesh,22.7196,75.8577,30.7,58,0.0,947.0,8.65,45.0,84,53.6,26.3,3.1,163.0,67.0,3.2,0,5,7,1,2026-06-12T09:45:30.239258+05:30
Bhopal,Madhya Pradesh,23.2599,77.4126,33.8,51,0.0,952.3,8.7,37.4,81,61.7,31.5,2.1,169.0,92.0,7.2,0,5,7,1,2026-06-12T09:45:30.239267+05:30
Jabalpur,Madhya Pradesh,23.1815,79.9864,34.8,41,0.0,960.3,8.9,66.2,75,53.2,31.4,2.3,181.0,104.0,4.7,0,5,7,1,2026-06-12T09:45:30.239274+05:30
Ujjain,Madhya Pradesh,23.1765,75.7885,31.0,59,0.0,952.5,8.6,45.4,86,59.4,26.6,2.3,149.0,68.0,5.4,0,5,7,1,2026-06-12T09:45:30.239282+05:30
Visakhapatnam,Andhra Pradesh,17.6868,83.2185,31.2,69,0.0,1003.1,9.0,39.6,132,42.8,31.2,12.6,372.0,108.0,37.2,3,5,4,1,2026-06-12T09:45:30.239290+05:30
Vijayawada,Andhra Pradesh,16.5062,80.648,29.4,85,0.0,1001.9,8.05,40.7,88,44.5,29.7,4.9,193.0,103.0,7.7,7,5,4,1,2026-06-12T09:45:30.239298+05:30
Guntur,Andhra Pradesh,16.3067,80.4365,30.9,71,0.0,1003.2,5.35,35.3,90,41.4,28.3,5.1,183.0,99.0,7.3,3,5,0,1,2026-06-12T09:45:30.239306+05:30
Nellore,Andhra Pradesh,14.4426,79.9865,33.6,53,0.0,1005.3,8.2,38.9,74,25.3,15.0,4.1,130.0,77.0,5.9,0,5,4,1,2026-06-12T09:45:30.239314+05:30
Kurnool,Andhra Pradesh,15.8281,78.0373,31.8,57,0.0,977.9,8.5,48.2,69,31.9,16.5,3.0,131.0,65.0,4.4,0,5,7,1,2026-06-12T09:45:30.239322+05:30
Kakinada,Andhra Pradesh,16.9891,82.2475,29.7,81,0.0,1006.6,8.45,32.4,83,41.2,25.8,3.1,261.0,107.0,6.2,7,5,4,1,2026-06-12T09:45:30.239330+05:30
Tirupati,Andhra Pradesh,13.6288,79.4192,31.4,54,0.0,991.0,8.3,30.2,71,25.2,14.7,5.1,138.0,75.0,2.8,0,5,7,1,2026-06-12T09:45:30.239337+05:30
Warangal,Telangana,17.9689,79.5941,34.0,50,0.0,978.2,9.0,37.4,94,39.0,26.7,5.3,231.0,88.0,6.4,0,5,7,1,2026-06-12T09:45:30.239344+05:30
Nizamabad,Telangana,18.6725,78.0941,33.7,44,0.0,964.7,8.95,42.1,83,58.4,26.8,3.2,153.0,80.0,8.3,0,5,7,1,2026-06-12T09:45:30.239351+05:30
Mysore,Karnataka,12.2958,76.6396,26.8,67,0.0,931.1,8.65,42.5,41,9.3,5.4,3.4,133.0,61.0,1.9,7,5,7,1,2026-06-12T09:45:30.239358+05:30
Mangalore,Karnataka,12.9141,74.856,27.5,84,0.0,1009.7,8.7,37.4,49,15.7,8.2,4.5,152.0,52.0,2.2,7,0,4,1,2026-06-12T09:45:30.239365+05:30
Hubli-Dharwad,Karnataka,15.3647,75.124,27.5,70,0.0,942.6,8.35,46.4,44,7.5,3.8,2.9,123.0,57.0,1.2,7,5,7,1,2026-06-12T09:45:30.239372+05:30
Belgaum,Karnataka,15.8497,74.4977,27.1,69,0.0,927.4,8.3,49.3,59,37.6,15.0,2.4,115.0,63.0,1.9,7,5,7,1,2026-06-12T09:45:33.487438+05:30
Coimbatore,Tamil Nadu,11.0168,76.9558,26.5,70,0.0,964.1,8.05,51.8,38,11.5,6.6,5.7,170.0,55.0,2.4,7,5,7,1,2026-06-12T09:45:33.487469+05:30
Madurai,Tamil Nadu,9.9252,78.1198,33.0,42,0.0,994.7,7.45,58.7,48,16.1,9.4,5.0,170.0,77.0,4.2,0,5,7,1,2026-06-12T09:45:33.487480+05:30
Trichy,Tamil Nadu,10.7905,78.7047,33.5,43,0.0,1000.9,6.8,51.5,43,19.8,11.1,3.1,144.0,77.0,2.9,0,5,4,1,2026-06-12T09:45:33.487497+05:30
Salem,Tamil Nadu,11.6643,78.146,31.2,53,0.0,979.1,8.4,44.6,62,26.0,15.6,9.4,233.0,69.0,10.6,0,5,7,1,2026-06-12T09:45:33.487513+05:30
Tirunelveli,Tamil Nadu,8.7139,77.7567,32.6,52,0.0,1005.8,8.25,40.7,19,3.1,2.5,3.3,141.0,56.0,1.3,0,5,4,1,2026-06-12T09:45:33.487524+05:30
Vellore,Tamil Nadu,12.9165,79.1325,30.5,58,0.0,984.9,7.9,33.5,77,26.4,15.1,7.1,160.0,64.0,5.1,0,5,7,1,2026-06-12T09:45:33.487532+05:30
Erode,Tamil Nadu,11.341,77.7172,31.8,49,0.0,990.8,8.15,50.4,53,13.8,9.1,9.2,212.0,56.0,3.7,0,5,7,1,2026-06-12T09:45:33.487540+05:30
Kochi,Kerala,9.9312,76.2673,25.9,90,0.2,1012.5,6.5,31.3,47,9.5,5.8,7.9,154.0,49.0,2.7,10,0,4,1,2026-06-12T09:45:33.487548+05:30
Thiruvananthapuram,Kerala,8.5241,76.9366,24.9,93,0.2,1012.6,7.65,37.1,25,10.7,5.1,1.7,139.0,53.0,0.6,6,0,4,1,2026-06-12T09:45:33.487555+05:30
Kozhikode,Kerala,11.2588,75.7804,25.6,97,0.2,1011.8,6.05,24.5,30,11.6,5.0,1.1,224.0,61.0,0.6,10,0,4,1,2026-06-12T09:45:33.487561+05:30
Thrissur,Kerala,10.5276,76.2144,25.3,91,0.1,1010.9,6.8,24.5,53,9.2,6.3,6.7,264.0,49.0,2.5,10,0,4,1,2026-06-12T09:45:33.487569+05:30
Kannur,Kerala,11.8745,75.3704,24.7,99,0.2,1010.7,6.9,31.0,38,13.4,6.2,3.5,148.0,54.0,1.6,6,0,4,1,2026-06-12T09:45:33.487576+05:30
Patna,Bihar,25.5941,85.1376,30.9,64,0.0,1000.5,8.85,35.3,128,83.6,59.4,6.0,370.0,151.0,17.8,3,5,4,1,2026-06-12T09:45:33.487582+05:30
Gaya,Bihar,24.7914,85.0002,32.3,56,0.0,993.5,8.9,28.4,152,90.8,71.7,5.6,505.0,167.0,28.8,0,5,7,1,2026-06-12T09:45:33.487590+05:30
Muzaffarpur,Bihar,26.1209,85.3647,30.5,66,0.0,1000.9,8.85,38.9,97,58.6,38.3,5.3,327.0,146.0,11.8,3,5,4,1,2026-06-12T09:45:33.487597+05:30
Bhagalpur,Bihar,25.2425,87.0117,30.9,65,0.0,1002.0,8.8,26.6,155,83.6,62.9,8.1,312.0,137.0,17.2,3,5,4,1,2026-06-12T09:45:33.487604+05:30
Ranchi,Jharkhand,23.3441,85.3096,29.0,64,0.0,938.2,9.0,38.9,144,81.3,61.0,3.4,276.0,181.0,26.7,7,5,7,1,2026-06-12T09:45:33.487611+05:30
Jamshedpur,Jharkhand,22.8046,86.2029,29.7,68,0.0,991.2,9.1,44.6,161,76.4,58.3,10.9,422.0,152.0,34.2,7,5,7,1,2026-06-12T09:45:33.487618+05:30
Dhanbad,Jharkhand,23.7957,86.4304,29.5,65,0.0,980.6,9.1,27.0,172,99.2,75.7,26.0,456.0,137.0,66.6,7,5,7,1,2026-06-12T09:45:33.487626+05:30
Bokaro,Jharkhand,23.6693,86.1511,29.7,64,0.0,984.3,9.1,28.4,172,100.6,77.1,31.9,922.0,134.0,77.6,7,5,7,1,2026-06-12T09:45:33.487633+05:30
Bhubaneswar,Odisha,20.2961,85.8245,32.8,69,0.0,1001.5,9.05,42.1,136,42.0,33.8,7.7,255.0,127.0,6.9,3,5,4,1,2026-06-12T09:45:33.487640+05:30
Cuttack,Odisha,20.4625,85.8828,32.7,70,0.0,1003.3,9.15,51.8,136,42.0,33.8,7.7,250.0,127.0,6.9,3,5,4,1,2026-06-12T09:45:33.487647+05:30
Rourkela,Odisha,22.2604,84.8536,31.8,63,0.0,984.6,9.05,36.7,161,88.9,67.3,11.2,346.0,155.0,43.1,3,5,7,1,2026-06-12T09:45:33.487654+05:30
Raipur,Chhattisgarh,21.2514,81.6296,33.5,49,0.0,973.8,8.95,42.1,125,60.1,41.6,14.4,340.0,135.0,38.6,0,5,7,1,2026-06-12T09:45:33.487661+05:30
Bhilai,Chhattisgarh,21.1938,81.3509,34.1,48,0.0,974.0,8.95,43.6,122,59.5,41.0,16.8,563.0,124.0,43.3,0,5,7,1,2026-06-12T09:45:33.487668+05:30
Guwahati,Assam,26.1158,91.7086,29.5,78,0.0,1002.1,8.65,25.6,80,45.5,32.2,1.6,305.0,129.0,3.2,7,5,4,1,2026-06-12T09:45:33.487675+05:30
Agartala,Tripura,23.8315,91.2868,26.1,96,0.1,1006.6,8.7,30.2,100,32.7,24.4,6.3,222.0,153.0,5.3,10,5,4,1,2026-06-12T09:45:33.487682+05:30
Shillong,Meghalaya,25.5788,91.8933,24.5,60,0.0,859.8,8.85,22.0,67,60.1,28.0,0.8,213.0,127.0,2.9,0,5,7,1,2026-06-12T09:45:33.487689+05:30
Imphal,Manipur,24.817,93.9368,23.1,89,1.1,924.2,6.75,21.2,66,6.2,5.5,2.1,269.0,81.0,1.3,6,5,7,1,2026-06-12T09:45:33.487696+05:30
Aizawl,Mizoram,23.7271,92.7176,20.4,96,0.5,892.8,2.8,24.1,75,27.2,18.7,1.8,173.0,88.0,1.1,6,5,3,1,2026-06-12T09:45:33.487703+05:30
Kohima,Nagaland,25.6701,94.1077,20.8,100,0.1,857.0,5.55,19.8,69,13.4,9.2,0.6,238.0,101.0,1.0,6,5,3,1,2026-06-12T09:45:33.487710+05:30
Gangtok,Sikkim,27.3314,88.6138,18.3,97,0.0,839.9,9.25,28.1,66,20.7,12.1,2.5,260.0,124.0,1.8,3,10,7,1,2026-06-12T09:45:33.487717+05:30
Siliguri,West Bengal,26.7271,88.3953,27.5,77,0.0,994.8,8.7,29.9,105,42.3,26.0,2.0,376.0,149.0,3.6,7,5,7,1,2026-06-12T09:45:36.745526+05:30
Durgapur,West Bengal,23.5204,87.3119,29.4,72,0.0,995.5,9.0,17.6,167,94.3,76.8,18.2,287.0,141.0,46.7,7,5,7,1,2026-06-12T09:45:36.745560+05:30
Asansol,West Bengal,23.6739,86.9524,29.8,61,0.0,994.3,9.05,22.0,166,92.9,71.9,19.4,554.0,136.0,49.3,7,5,7,1,2026-06-12T09:45:36.745571+05:30
Pondicherry,Puducherry,11.9139,79.8145,32.6,54,0.0,1008.7,7.7,33.5,60,29.4,19.3,8.8,273.0,83.0,10.4,0,0,4,1,2026-06-12T09:45:36.745579+05:30
Port Blair,Andaman and Nicobar Islands,11.6234,92.7265,29.6,78,0.0,1010.1,6.45,50.0,28,14.1,7.4,0.4,93.0,50.0,0.4,7,0,4,1,2026-06-12T09:45:36.745588+05:30
Haridwar,Uttarakhand,29.9457,78.1642,27.8,65,0.0,974.7,4.45,49.0,152,107.8,40.3,3.5,227.0,131.0,5.7,7,5,3,1,2026-06-12T09:45:36.745596+05:30
Rishikesh,Uttarakhand,30.0869,78.2676,28.5,63,0.0,967.2,4.55,43.6,129,122.5,37.8,2.3,214.0,134.0,4.5,7,5,3,1,2026-06-12T09:45:36.745603+05:30
Nainital,Uttarakhand,29.3919,79.4542,16.5,83,0.4,806.7,7.1,27.0,109,88.0,26.8,1.3,193.0,138.0,2.7,6,10,7,0,2026-06-12T09:45:36.745612+05:30
Mussoorie,Uttarakhand,30.4599,78.0664,19.3,54,0.0,804.8,3.15,54.7,129,117.1,38.6,2.8,224.0,141.0,5.6,0,5,3,0,2026-06-12T09:45:36.745620+05:30
Dharamshala,Himachal Pradesh,32.219,76.3234,19.6,86,0.4,869.3,8.5,43.9,56,23.5,14.7,1.4,273.0,134.0,1.7,6,10,7,1,2026-06-12T09:45:36.745628+05:30
Dalhousie,Himachal Pradesh,32.5387,75.971,15.9,95,0.5,805.2,8.65,33.8,95,39.2,26.9,4.2,310.0,153.0,4.8,6,10,7,0,2026-06-12T09:45:36.745637+05:30
Patiala,Punjab,30.3398,76.3869,28.2,66,0.0,976.9,7.1,56.2,1639,85.0,36.6,5.0,258.0,115.0,6.1,7,5,7,1,2026-06-12T09:45:36.745644+05:30
Bhatinda,Punjab,30.211,74.9455,31.3,54,0.0,980.1,8.3,53.3,801,1877.5,383.7,6.2,263.0,124.0,12.6,0,5,7,1,2026-06-12T09:45:36.745652+05:30
Rohtak,Haryana,28.8955,76.6066,28.6,69,0.0,979.6,6.7,51.8,1404,366.9,83.4,13.0,261.0,123.0,15.7,7,5,7,1,2026-06-12T09:45:36.745659+05:30
Panipat,Haryana,29.3909,76.9635,27.2,73,0.0,979.6,5.9,53.3,1572,87.5,34.5,9.4,306.0,116.0,12.4,7,5,3,1,2026-06-12T09:45:36.745666+05:30
Mathura,Uttar Pradesh,27.4924,77.6737,30.8,61,0.0,984.7,8.1,40.3,1416,2145.8,250.5,5.3,271.0,136.0,6.7,3,5,7,1,2026-06-12T09:45:36.745674+05:30
Vrindavan,Uttar Pradesh,27.5823,77.7027,30.8,62,0.0,985.4,8.1,41.8,1416,2145.8,250.5,5.3,277.0,136.0,6.7,3,5,7,1,2026-06-12T09:45:36.745681+05:30
Ayodhya,Uttar Pradesh,26.7922,82.1998,31.2,60,0.0,995.2,8.45,32.0,96,70.3,42.6,4.5,447.0,152.0,12.2,0,5,7,1,2026-06-12T09:45:36.745688+05:30
Ratlam,Madhya Pradesh,23.3315,75.0367,31.7,57,0.0,952.9,8.55,52.9,85,67.5,26.8,2.2,125.0,71.0,6.7,0,5,7,1,2026-06-12T09:45:36.745695+05:30
Sagar,Madhya Pradesh,23.8388,78.7378,35.1,42,0.0,948.8,8.8,46.1,76,60.1,30.4,2.8,168.0,99.0,4.2,0,5,10,1,2026-06-12T09:45:36.745702+05:30
Satna,Madhya Pradesh,24.6005,80.8322,30.1,59,0.0,970.2,8.85,54.0,97,53.3,40.9,4.1,230.0,156.0,14.2,0,5,7,1,2026-06-12T09:45:36.745709+05:30
Akola,Maharashtra,20.7002,77.0082,34.9,45,0.0,974.1,8.8,40.7,72,51.0,23.9,4.2,127.0,72.0,9.3,0,5,7,1,2026-06-12T09:45:36.745717+05:30
Amravati,Maharashtra,20.9374,77.7796,34.6,47,0.0,966.3,8.85,43.6,75,54.1,25.4,4.6,141.0,73.0,10.6,0,5,7,1,2026-06-12T09:45:36.745725+05:30
Latur,Maharashtra,18.4088,76.5604,30.8,53,0.0,940.2,8.9,35.3,68,48.3,20.0,2.1,143.0,67.0,3.2,0,5,7,1,2026-06-12T09:45:36.745732+05:30
Nanded,Maharashtra,19.1383,77.3091,33.8,44,0.0,968.4,8.85,38.5,85,55.3,24.3,2.9,151.0,73.0,5.3,0,5,7,1,2026-06-12T09:45:36.745738+05:30
Gulbarga,Karnataka,17.3297,76.8343,30.6,58,0.0,959.4,8.8,39.6,64,37.7,16.4,2.7,141.0,66.0,2.9,0,5,7,1,2026-06-12T09:45:36.745745+05:30
Bidar,Karnataka,17.9104,77.5199,30.3,56,0.0,936.3,8.95,39.2,70,49.2,23.0,3.0,139.0,71.0,2.8,0,5,7,1,2026-06-12T09:45:36.745752+05:30
Hospet,Karnataka,15.2689,76.3909,28.5,66,0.0,957.4,8.95,50.0,52,10.5,5.4,2.4,120.0,61.0,1.9,7,5,7,1,2026-06-12T09:45:36.745759+05:30
Tirupur,Tamil Nadu,11.1085,77.3411,30.3,52,0.0,977.3,8.35,58.7,56,16.0,10.4,10.3,164.0,53.0,4.3,0,5,7,1,2026-06-12T09:45:36.745765+05:30
Alappuzha,Kerala,9.4981,76.3388,25.7,93,0.1,1013.1,4.2,35.3,35,12.9,6.7,3.9,95.0,62.0,1.8,10,0,0,1,2026-06-12T09:45:36.745772+05:30
Munnar,Kerala,10.0889,77.0595,20.0,80,0.0,859.9,7.2,38.5,26,4.8,3.2,3.7,111.0,58.0,1.6,3,5,7,1,2026-06-12T09:45:36.745780+05:30
Silchar,Assam,24.8333,92.7789,28.3,86,0.0,1005.3,3.45,24.1,129,49.2,35.9,1.4,224.0,142.0,5.4,7,5,0,1,2026-06-12T09:45:36.745787+05:30
Dibrugarh,Assam,27.4728,94.912,26.8,78,0.0,996.4,8.4,25.6,90,21.4,16.2,0.3,194.0,114.0,0.9,7,5,7,1,2026-06-12T09:45:36.745794+05:30
