city,state,latitude,longitude,temp,humidity,rain,pressure,uv_index,wind_gusts,aqi,pm10,pm2_5,mosquito_risk,arthritis_risk,migraine_risk,frizz_risk,updated_at
Delhi,Delhi,28.6139,77.209,29.4,43,0.0,986.0,6.3,27.4,158,261.7,55.5,4,5,7,0,2026-03-24T13:25:21.005564+05:30
Mumbai,Maharashtra,19.076,72.8777,29.3,69,0.0,1008.0,7.9,27.4,108,86.8,69.4,7,0,4,1,2026-03-24T13:25:21.005604+05:30
Bangalore,Karnataka,12.9716,77.5946,31.6,34,0.0,913.0,9.5,24.1,80,30.3,21.9,0,5,7,0,2026-03-24T13:25:21.005619+05:30
Hyderabad,Telangana,17.385,78.4867,34.1,32,0.0,954.4,8.95,37.1,83,35.6,24.4,0,5,7,0,2026-03-24T13:25:21.005629+05:30
Chennai,Tamil Nadu,13.0827,80.2707,32.8,52,0.0,1008.7,9.2,33.5,35,15.1,9.3,0,0,4,1,2026-03-24T13:25:21.005637+05:30
Kolkata,West Bengal,22.5726,88.3639,30.8,57,0.0,1007.5,8.3,21.6,151,50.9,38.8,0,5,4,1,2026-03-24T13:25:21.005645+05:30
Pune,Maharashtra,18.5204,73.8567,36.3,22,0.0,949.1,8.3,30.6,94,28.9,16.6,0,5,10,0,2026-03-24T13:25:21.005657+05:30
Ahmedabad,Gujarat,23.0225,72.5714,34.9,31,0.0,1003.4,7.2,17.6,74,20.2,9.2,0,5,4,0,2026-03-24T13:25:21.005666+05:30
Jaipur,Rajasthan,26.9124,75.7873,30.7,33,0.0,962.4,6.55,19.8,132,116.2,24.9,0,5,7,0,2026-03-24T13:25:21.005673+05:30
Lucknow,Uttar Pradesh,26.8467,80.9462,31.3,38,0.0,995.7,7.05,32.8,118,76.6,27.4,0,5,7,0,2026-03-24T13:25:21.005681+05:30
Kanpur,Uttar Pradesh,26.4499,80.3319,30.1,44,0.0,994.3,7.1,28.1,138,119.7,28.3,0,5,7,1,2026-03-24T13:25:21.005688+05:30
Chandigarh,Chandigarh,30.7333,76.7794,28.0,40,0.0,972.0,6.5,34.6,104,34.0,24.7,4,5,7,0,2026-03-24T13:25:21.005696+05:30
Srinagar,Jammu and Kashmir,34.0837,74.7973,15.7,47,0.0,844.4,7.6,16.2,72,15.4,10.2,0,5,7,0,2026-03-24T13:25:21.005703+05:30
Jammu,Jammu and Kashmir,32.7266,74.857,28.5,41,0.0,976.2,7.15,30.6,73,14.4,9.7,4,5,7,0,2026-03-24T13:25:21.005710+05:30
Amritsar,Punjab,31.634,74.8723,28.9,43,0.0,984.3,7.15,25.2,131,61.2,35.2,4,5,7,0,2026-03-24T13:25:21.005716+05:30
Ludhiana,Punjab,30.901,75.8573,28.7,41,0.0,982.2,6.75,29.9,156,46.8,30.3,4,5,7,0,2026-03-24T13:25:21.005723+05:30
Jalandhar,Punjab,31.326,75.5762,28.2,44,0.0,983.3,6.95,28.1,146,54.2,28.5,4,5,7,0,2026-03-24T13:25:21.005732+05:30
Dehradun,Uttarakhand,30.6284,78.0322,16.9,64,0.0,831.5,6.9,34.9,45,12.3,6.3,3,5,7,0,2026-03-24T13:25:21.005738+05:30
Shimla,Himachal Pradesh,31.1048,77.1734,15.8,52,0.0,786.3,7.0,53.3,58,17.6,9.8,0,5,7,0,2026-03-24T13:25:21.005745+05:30
Manali,Himachal Pradesh,32.2396,77.1887,18.6,35,0.0,820.4,9.15,29.5,90,8.6,4.4,0,5,7,0,2026-03-24T13:25:21.005752+05:30
Gurgaon,Haryana,28.4595,77.0266,29.8,42,0.0,984.4,6.5,25.2,276,711.5,89.2,4,5,7,0,2026-03-24T13:25:21.005759+05:30
Noida,Uttar Pradesh,28.5355,77.391,29.7,43,0.0,987.5,6.35,26.6,276,711.5,89.2,4,5,7,0,2026-03-24T13:25:21.005765+05:30
Ghaziabad,Uttar Pradesh,28.6692,77.4538,29.1,47,0.0,985.7,6.2,27.4,155,244.9,56.5,4,5,7,1,2026-03-24T13:25:21.005772+05:30
Faridabad,Haryana,28.4089,77.3178,29.6,43,0.0,986.8,6.3,25.6,276,711.5,89.2,4,5,7,0,2026-03-24T13:25:21.005778+05:30
Meerut,Uttar Pradesh,28.9845,77.7064,29.0,45,0.0,984.4,6.4,30.6,155,244.9,56.5,4,5,7,0,2026-03-24T13:25:21.005784+05:30
Agra,Uttar Pradesh,27.1767,78.0081,32.8,33,0.0,990.5,6.6,28.8,155,353.0,53.8,0,5,7,0,2026-03-24T13:25:21.005793+05:30
Varanasi,Uttar Pradesh,25.3176,82.9739,33.0,35,0.0,999.1,7.75,27.7,142,108.0,37.6,0,5,7,0,2026-03-24T13:25:21.005805+05:30
Prayagraj,Uttar Pradesh,25.4358,81.8463,31.9,39,0.0,997.9,7.6,23.0,113,102.2,34.3,0,5,7,1,2026-03-24T13:25:21.005812+05:30
Gorakhpur,Uttar Pradesh,26.7606,83.3732,31.3,39,0.0,998.5,7.45,34.6,151,44.1,21.9,0,5,7,0,2026-03-24T13:25:21.005818+05:30
Bareilly,Uttar Pradesh,28.367,79.4304,28.9,49,0.0,989.5,6.75,31.0,113,107.3,34.6,4,5,7,1,2026-03-24T13:25:21.005825+05:30
Aligarh,Uttar Pradesh,27.8974,78.088,30.1,46,0.0,988.5,6.7,28.1,157,385.6,62.4,0,5,7,1,2026-03-24T13:25:21.005831+05:30
Moradabad,Uttar Pradesh,28.8386,78.7733,28.7,47,0.0,986.4,6.6,32.4,142,120.6,37.5,4,5,7,1,2026-03-24T13:25:21.005838+05:30
Saharanpur,Uttar Pradesh,29.9637,77.546,28.8,40,0.0,978.5,6.25,38.2,161,60.3,41.8,4,5,7,0,2026-03-24T13:25:21.005844+05:30
Jhansi,Uttar Pradesh,25.4484,78.5685,33.2,30,0.0,980.2,7.25,27.4,133,110.1,29.5,0,5,7,0,2026-03-24T13:25:24.338064+05:30
Surat,Gujarat,21.1702,72.8311,34.2,37,0.0,1007.4,7.35,24.8,145,58.4,49.1,0,5,4,1,2026-03-24T13:25:24.338094+05:30
Vadodara,Gujarat,22.3072,73.1812,35.8,30,0.0,1005.2,7.85,23.4,90,17.5,12.3,0,5,7,0,2026-03-24T13:25:24.338104+05:30
Rajkot,Gujarat,22.3039,70.8022,33.2,40,0.0,996.2,7.15,24.5,41,19.8,7.5,0,5,7,1,2026-03-24T13:25:24.338113+05:30
Thane,Maharashtra,19.2183,72.9781,37.6,24,0.0,1007.3,7.75,41.4,108,86.8,69.4,0,5,7,0,2026-03-24T13:25:24.338120+05:30
Nagpur,Maharashtra,21.1458,79.0882,35.7,25,0.0,974.0,8.45,26.6,94,45.5,35.6,0,5,10,0,2026-03-24T13:25:24.338128+05:30
Nashik,Maharashtra,19.9975,73.7898,33.4,29,0.0,947.0,8.1,36.0,71,35.4,15.8,0,5,7,0,2026-03-24T13:25:24.338135+05:30
Aurangabad,Maharashtra,19.8762,75.3433,35.1,23,0.0,945.3,8.6,29.5,58,29.7,13.9,0,5,10,0,2026-03-24T13:25:24.338142+05:30
Solapur,Maharashtra,17.6599,75.9064,37.2,23,0.0,957.5,8.8,23.8,92,43.2,31.2,0,5,10,0,2026-03-24T13:25:24.338150+05:30
Kolhapur,Maharashtra,16.705,74.2433,33.7,31,0.0,948.8,8.95,48.6,115,34.6,25.4,0,5,7,0,2026-03-24T13:25:24.338157+05:30
Goa,Goa,15.2993,74.124,32.3,62,0.0,998.6,8.9,29.9,102,40.9,29.9,3,5,7,1,2026-03-24T13:25:24.338164+05:30
Jodhpur,Rajasthan,26.2389,73.0243,34.9,19,0.0,985.0,7.65,18.0,68,34.0,10.8,0,5,7,0,2026-03-24T13:25:24.338171+05:30
Udaipur,Rajasthan,24.5854,73.7125,32.7,24,0.0,948.7,7.45,20.5,56,57.6,14.4,0,5,7,0,2026-03-24T13:25:24.338178+05:30
Kota,Rajasthan,25.2138,75.8648,34.9,25,0.0,980.6,7.65,14.0,115,69.6,24.0,0,5,7,0,2026-03-24T13:25:24.338185+05:30
Bikaner,Rajasthan,28.0229,73.3119,34.0,18,0.0,984.4,7.05,15.8,64,41.3,16.0,0,5,7,0,2026-03-24T13:25:24.338191+05:30
Ajmer,Rajasthan,26.4499,74.6399,31.2,32,0.0,957.1,7.55,15.5,102,44.6,14.5,0,5,7,0,2026-03-24T13:25:24.338198+05:30
Gwalior,Madhya Pradesh,26.2183,78.1828,32.5,32,0.0,986.0,7.25,28.4,127,109.7,28.5,0,5,7,0,2026-03-24T13:25:24.338205+05:30
Indore,Madhya Pradesh,22.7196,75.8577,33.3,26,0.0,949.9,8.15,23.0,61,36.6,15.3,0,5,7,0,2026-03-24T13:25:24.338212+05:30
Bhopal,Madhya Pradesh,23.2599,77.4126,34.9,24,0.0,955.2,8.05,31.0,72,49.9,18.9,0,5,7,0,2026-03-24T13:25:24.338218+05:30
Jabalpur,Madhya Pradesh,23.1815,79.9864,34.0,29,0.0,962.5,8.15,29.9,78,50.4,21.8,0,5,7,0,2026-03-24T13:25:24.338225+05:30
Ujjain,Madhya Pradesh,23.1765,75.7885,33.0,31,0.0,955.6,8.05,19.1,63,41.7,18.6,0,5,7,0,2026-03-24T13:25:24.338233+05:30
Visakhapatnam,Andhra Pradesh,17.6868,83.2185,31.8,56,0.0,1005.5,8.9,36.0,86,31.1,22.5,0,5,4,1,2026-03-24T13:25:24.338240+05:30
Vijayawada,Andhra Pradesh,16.5062,80.648,33.7,50,0.0,1003.8,9.0,25.9,63,25.8,17.5,0,5,4,1,2026-03-24T13:25:24.338246+05:30
Guntur,Andhra Pradesh,16.3067,80.4365,33.5,50,0.0,1005.1,9.0,31.7,60,24.2,15.9,0,5,4,1,2026-03-24T13:25:24.338253+05:30
Nellore,Andhra Pradesh,14.4426,79.9865,34.8,46,0.0,1006.7,9.1,31.3,41,23.2,15.1,0,5,4,1,2026-03-24T13:25:24.338260+05:30
Kurnool,Andhra Pradesh,15.8281,78.0373,35.2,34,0.0,977.8,9.0,30.6,61,30.5,21.0,0,5,10,1,2026-03-24T13:25:24.338268+05:30
Kakinada,Andhra Pradesh,16.9891,82.2475,33.7,49,0.0,1009.1,8.95,30.2,51,21.1,11.8,0,0,4,1,2026-03-24T13:25:24.338291+05:30
Tirupati,Andhra Pradesh,13.6288,79.4192,33.2,45,0.0,992.6,9.25,31.3,63,25.6,18.4,0,5,7,1,2026-03-24T13:25:24.338298+05:30
Warangal,Telangana,17.9689,79.5941,35.3,39,0.0,979.7,8.8,28.1,91,29.9,22.8,0,5,10,1,2026-03-24T13:25:24.338305+05:30
Nizamabad,Telangana,18.6725,78.0941,36.1,27,0.0,965.5,8.75,26.3,93,46.9,33.9,0,5,10,0,2026-03-24T13:25:24.338312+05:30
Mysore,Karnataka,12.2958,76.6396,33.6,33,0.0,929.4,9.45,39.2,92,33.5,24.2,0,5,7,0,2026-03-24T13:25:24.338319+05:30
Mangalore,Karnataka,12.9141,74.856,28.4,84,0.0,1007.1,9.1,24.8,81,49.4,34.8,7,5,4,1,2026-03-24T13:25:24.338326+05:30
Hubli-Dharwad,Karnataka,15.3647,75.124,32.3,45,0.0,941.7,9.1,39.6,95,42.4,31.3,0,5,7,1,2026-03-24T13:25:24.338333+05:30
Belgaum,Karnataka,15.8497,74.4977,33.5,28,0.0,926.8,9.15,41.8,95,36.2,23.7,0,5,7,0,2026-03-24T13:25:27.671169+05:30
Coimbatore,Tamil Nadu,11.0168,76.9558,34.7,31,0.0,962.6,9.4,32.8,64,19.3,13.8,0,5,7,0,2026-03-24T13:25:27.671198+05:30
Madurai,Tamil Nadu,9.9252,78.1198,35.2,38,0.0,993.4,9.35,30.2,56,11.7,7.5,0,5,10,1,2026-03-24T13:25:27.671208+05:30
Trichy,Tamil Nadu,10.7905,78.7047,33.4,49,0.0,1000.5,9.3,23.4,55,14.6,11.9,0,5,4,1,2026-03-24T13:25:27.671216+05:30
Salem,Tamil Nadu,11.6643,78.146,34.8,38,0.0,978.0,9.35,25.2,78,38.6,31.3,0,5,7,1,2026-03-24T13:25:27.671224+05:30
Tirunelveli,Tamil Nadu,8.7139,77.7567,36.3,37,0.0,1003.2,9.35,37.8,53,8.1,5.3,0,5,7,1,2026-03-24T13:25:27.671231+05:30
Vellore,Tamil Nadu,12.9165,79.1325,34.1,41,0.0,985.6,9.3,35.6,68,19.8,12.3,0,5,7,1,2026-03-24T13:25:27.671238+05:30
Erode,Tamil Nadu,11.341,77.7172,35.0,40,0.0,989.5,9.3,21.6,57,23.6,16.8,0,5,7,1,2026-03-24T13:25:27.671245+05:30
Kochi,Kerala,9.9312,76.2673,28.7,79,0.0,1008.7,9.15,37.1,91,40.9,28.1,7,0,4,1,2026-03-24T13:25:27.671252+05:30
Thiruvananthapuram,Kerala,8.5241,76.9366,29.1,76,0.0,1007.6,9.2,30.2,63,25.4,18.6,7,5,4,1,2026-03-24T13:25:27.671259+05:30
Kozhikode,Kerala,11.2588,75.7804,30.2,70,0.0,1008.2,9.05,31.0,73,36.9,25.4,3,0,4,1,2026-03-24T13:25:27.671266+05:30
Thrissur,Kerala,10.5276,76.2144,33.5,56,0.0,1007.1,9.15,41.4,92,31.5,22.6,0,5,4,1,2026-03-24T13:25:27.671307+05:30
Kannur,Kerala,11.8745,75.3704,31.9,63,0.0,1007.7,9.05,28.4,73,44.7,31.1,3,5,4,1,2026-03-24T13:25:27.671323+05:30
Patna,Bihar,25.5941,85.1376,32.0,36,0.0,1001.6,7.9,34.2,158,105.7,38.8,0,5,4,0,2026-03-24T13:25:27.671331+05:30
Gaya,Bihar,24.7914,85.0002,32.0,39,0.0,995.3,7.95,22.3,114,116.4,34.0,0,5,7,1,2026-03-24T13:25:27.671339+05:30
Muzaffarpur,Bihar,26.1209,85.3647,31.2,41,0.0,1001.4,7.85,35.6,159,96.2,42.7,0,5,4,1,2026-03-24T13:25:27.671345+05:30
Bhagalpur,Bihar,25.2425,87.0117,30.6,45,0.0,1002.3,7.85,36.7,145,82.2,38.0,0,5,4,1,2026-03-24T13:25:27.671352+05:30
Ranchi,Jharkhand,23.3441,85.3096,28.7,39,0.0,940.0,8.6,36.7,69,50.3,21.9,4,5,7,0,2026-03-24T13:25:27.671359+05:30
Jamshedpur,Jharkhand,22.8046,86.2029,33.0,37,0.0,992.2,8.4,32.0,130,53.1,32.4,0,5,7,1,2026-03-24T13:25:27.671365+05:30
Dhanbad,Jharkhand,23.7957,86.4304,32.3,33,0.0,981.3,8.35,23.8,164,76.4,41.8,0,5,7,0,2026-03-24T13:25:27.671372+05:30
Bokaro,Jharkhand,23.6693,86.1511,31.6,37,0.0,985.4,8.25,24.8,154,65.9,32.9,0,5,7,0,2026-03-24T13:25:27.671380+05:30
Bhubaneswar,Odisha,20.2961,85.8245,33.8,45,0.0,1003.8,8.7,32.8,87,40.5,27.1,0,5,4,1,2026-03-24T13:25:27.671386+05:30
Cuttack,Odisha,20.4625,85.8828,34.7,42,0.0,1005.3,8.75,29.2,87,40.5,27.1,0,5,4,1,2026-03-24T13:25:27.671393+05:30
Rourkela,Odisha,22.2604,84.8536,33.2,37,0.0,986.5,8.4,25.9,91,58.4,42.4,0,5,7,1,2026-03-24T13:25:27.671400+05:30
Raipur,Chhattisgarh,21.2514,81.6296,36.3,24,0.0,975.4,8.5,28.1,111,51.1,39.9,0,5,10,0,2026-03-24T13:25:27.671406+05:30
Bhilai,Chhattisgarh,21.1938,81.3509,36.6,24,0.0,975.8,8.5,32.8,120,46.4,35.2,0,5,10,0,2026-03-24T13:25:27.671412+05:30
Guwahati,Assam,26.1158,91.7086,26.6,68,0.0,1002.9,7.75,28.4,93,32.6,29.3,7,5,4,1,2026-03-24T13:25:27.671419+05:30
Agartala,Tripura,23.8315,91.2868,29.2,53,0.0,1007.5,8.1,15.5,158,65.0,56.0,4,5,4,1,2026-03-24T13:25:27.671425+05:30
Shillong,Meghalaya,25.5788,91.8933,15.4,65,0.0,856.0,7.0,37.8,80,20.5,18.3,3,5,7,0,2026-03-24T13:25:27.671432+05:30
Imphal,Manipur,24.817,93.9368,22.0,54,0.0,923.4,7.85,40.3,89,33.1,25.7,0,5,7,0,2026-03-24T13:25:27.671438+05:30
Aizawl,Mizoram,23.7271,92.7176,23.5,42,0.0,894.0,8.35,29.9,99,42.5,33.6,0,5,7,0,2026-03-24T13:25:27.671445+05:30
Kohima,Nagaland,25.6701,94.1077,16.1,82,0.0,854.5,8.05,54.0,69,24.4,19.3,3,10,7,0,2026-03-24T13:25:27.671452+05:30
Gangtok,Sikkim,27.3314,88.6138,14.7,82,0.0,836.1,4.2,16.2,91,17.5,13.8,3,10,3,0,2026-03-24T13:25:27.671459+05:30
Siliguri,West Bengal,26.7271,88.3953,20.7,87,0.0,995.2,4.3,35.3,110,63.1,47.6,3,5,3,1,2026-03-24T13:25:31.002896+05:30
Durgapur,West Bengal,23.5204,87.3119,31.9,45,0.0,996.4,8.05,24.1,157,75.9,50.8,0,5,7,1,2026-03-24T13:25:31.002926+05:30
Asansol,West Bengal,23.6739,86.9524,32.0,42,0.0,994.9,8.05,24.8,154,77.8,46.4,0,5,7,1,2026-03-24T13:25:31.002937+05:30
Pondicherry,Puducherry,11.9139,79.8145,33.3,52,0.0,1009.2,9.2,30.2,32,11.1,7.1,0,0,4,1,2026-03-24T13:25:31.002945+05:30
Port Blair,Andaman and Nicobar Islands,11.6234,92.7265,28.0,75,0.0,1006.6,9.15,22.7,64,29.2,18.3,7,5,4,1,2026-03-24T13:25:31.002952+05:30
Haridwar,Uttarakhand,29.9457,78.1642,28.4,46,0.0,977.0,6.4,34.9,111,49.4,33.2,4,5,7,0,2026-03-24T13:25:31.002960+05:30
Rishikesh,Uttarakhand,30.0869,78.2676,26.9,50,0.0,969.5,6.45,32.4,88,35.4,21.7,4,5,7,0,2026-03-24T13:25:31.002968+05:30
Nainital,Uttarakhand,29.3919,79.4542,18.7,64,0.0,807.6,7.3,55.4,99,41.1,24.0,3,5,7,0,2026-03-24T13:25:31.002975+05:30
Mussoorie,Uttarakhand,30.4599,78.0664,17.9,59,0.0,804.5,6.8,40.0,80,36.8,23.1,0,5,7,0,2026-03-24T13:25:31.002982+05:30
Dharamshala,Himachal Pradesh,32.219,76.3234,20.6,56,0.0,871.3,7.05,27.0,70,18.1,7.5,0,5,7,0,2026-03-24T13:25:31.002989+05:30
Dalhousie,Himachal Pradesh,32.5387,75.971,19.1,50,0.0,806.2,7.3,23.8,72,22.6,12.4,0,5,7,0,2026-03-24T13:25:31.002996+05:30
Patiala,Punjab,30.3398,76.3869,28.7,41,0.0,981.4,6.4,33.1,158,329.7,56.6,4,5,7,0,2026-03-24T13:25:31.003003+05:30
Bhatinda,Punjab,30.211,74.9455,30.6,37,0.0,986.9,7.0,22.7,135,78.7,36.0,0,5,7,0,2026-03-24T13:25:31.003010+05:30
Rohtak,Haryana,28.8955,76.6066,30.0,40,0.0,984.8,6.25,24.8,157,324.1,53.9,4,5,7,0,2026-03-24T13:25:31.003018+05:30
Panipat,Haryana,29.3909,76.9635,29.5,40,0.0,983.5,5.95,29.5,153,560.7,71.7,4,5,3,0,2026-03-24T13:25:31.003025+05:30
Mathura,Uttar Pradesh,27.4924,77.6737,31.2,42,0.0,989.7,6.45,25.6,150,326.0,51.6,0,5,7,1,2026-03-24T13:25:31.003031+05:30
Vrindavan,Uttar Pradesh,27.5823,77.7027,30.7,44,0.0,990.2,6.45,28.1,150,326.0,51.6,0,5,7,1,2026-03-24T13:25:31.003038+05:30
Ayodhya,Uttar Pradesh,26.7922,82.1998,32.2,36,0.0,996.9,7.2,35.6,122,39.1,25.6,0,5,7,0,2026-03-24T13:25:31.003045+05:30
Ratlam,Madhya Pradesh,23.3315,75.0367,33.1,31,0.0,956.2,8.05,22.3,57,35.2,15.1,0,5,7,0,2026-03-24T13:25:31.003052+05:30
Sagar,Madhya Pradesh,23.8388,78.7378,33.5,28,0.0,951.9,8.05,26.3,74,64.0,22.8,0,5,7,0,2026-03-24T13:25:31.003058+05:30
Satna,Madhya Pradesh,24.6005,80.8322,32.8,32,0.0,973.0,7.5,29.9,85,80.6,27.1,0,5,7,0,2026-03-24T13:25:31.003065+05:30
Akola,Maharashtra,20.7002,77.0082,36.4,26,0.0,976.1,8.45,27.7,77,35.5,14.3,0,5,10,0,2026-03-24T13:25:31.003073+05:30
Amravati,Maharashtra,20.9374,77.7796,36.3,22,0.0,968.3,8.45,29.2,86,35.0,14.9,0,5,10,0,2026-03-24T13:25:31.003080+05:30
Latur,Maharashtra,18.4088,76.5604,34.3,27,0.0,940.8,8.75,19.8,95,47.6,33.8,0,5,7,0,2026-03-24T13:25:31.003086+05:30
Nanded,Maharashtra,19.1383,77.3091,37.1,24,0.0,969.3,8.6,22.7,100,36.1,23.6,0,5,10,0,2026-03-24T13:25:31.003093+05:30
Gulbarga,Karnataka,17.3297,76.8343,36.5,28,0.0,959.2,8.8,30.6,84,35.2,25.3,0,5,10,0,2026-03-24T13:25:31.003099+05:30
Bidar,Karnataka,17.9104,77.5199,34.1,31,0.0,936.7,8.85,34.2,91,39.3,27.9,0,5,7,0,2026-03-24T13:25:31.003105+05:30
Hospet,Karnataka,15.2689,76.3909,32.9,45,0.0,956.8,9.05,23.0,96,33.1,25.6,0,5,7,1,2026-03-24T13:25:31.003111+05:30
Tirupur,Tamil Nadu,11.1085,77.3411,35.4,35,0.0,975.9,9.4,28.1,64,25.0,18.3,0,5,10,1,2026-03-24T13:25:31.003118+05:30
Alappuzha,Kerala,9.4981,76.3388,28.8,77,0.0,1008.7,9.15,31.7,84,44.1,31.1,7,0,4,1,2026-03-24T13:25:31.003125+05:30
Munnar,Kerala,10.0889,77.0595,31.4,33,0.0,860.0,9.65,28.8,65,17.8,11.6,0,5,7,0,2026-03-24T13:25:31.003132+05:30
Silchar,Assam,24.8333,92.7789,28.7,53,0.0,1005.9,8.05,19.8,124,38.6,33.3,4,5,4,1,2026-03-24T13:25:31.003138+05:30
Dibrugarh,Assam,27.4728,94.912,22.2,83,0.0,997.3,7.2,15.5,77,17.6,14.6,3,5,7,1,2026-03-24T13:25:31.003145+05:30
