city,state,latitude,longitude,temp,humidity,rain,pressure,uv_index,wind_gusts,aqi,pm10,pm2_5,mosquito_risk,arthritis_risk,migraine_risk,frizz_risk,updated_at
Delhi,Delhi,28.6139,77.209,24.9,55,0.0,979.6,7.3,30.2,452,426.5,98.7,0,5,7,0,2026-04-22T05:07:54.928719+05:30
Mumbai,Maharashtra,19.076,72.8777,29.1,79,0.0,1006.4,8.0,32.4,95,61.0,33.5,7,5,4,1,2026-04-22T05:07:54.928765+05:30
Bangalore,Karnataka,12.9716,77.5946,22.6,61,0.0,910.1,9.6,28.8,67,27.5,25.4,3,5,7,0,2026-04-22T05:07:54.928782+05:30
Hyderabad,Telangana,17.385,78.4867,26.5,68,0.0,952.0,9.2,20.2,107,56.1,50.6,7,5,7,1,2026-04-22T05:07:54.928793+05:30
Chennai,Tamil Nadu,13.0827,80.2707,28.2,85,0.0,1005.6,9.25,32.4,43,8.9,6.3,7,5,4,1,2026-04-22T05:07:54.928803+05:30
Kolkata,West Bengal,22.5726,88.3639,27.7,92,0.0,1002.0,8.95,27.4,85,25.4,22.4,7,5,4,1,2026-04-22T05:07:54.928816+05:30
Pune,Maharashtra,18.5204,73.8567,24.8,82,0.0,946.9,8.6,41.4,94,46.8,41.3,3,5,7,1,2026-04-22T05:07:54.928823+05:30
Ahmedabad,Gujarat,23.0225,72.5714,24.5,41,0.0,1001.4,8.2,24.8,41,8.1,6.3,0,5,4,0,2026-04-22T05:07:54.928832+05:30
Jaipur,Rajasthan,26.9124,75.7873,27.5,24,0.0,958.4,8.0,34.9,132,236.1,31.8,4,5,7,0,2026-04-22T05:07:54.928840+05:30
Lucknow,Uttar Pradesh,26.8467,80.9462,26.3,50,0.0,989.4,7.85,44.6,177,454.5,85.4,4,5,7,0,2026-04-22T05:07:54.928849+05:30
Kanpur,Uttar Pradesh,26.4499,80.3319,25.0,57,0.0,988.0,7.9,36.4,413,418.2,74.7,4,5,7,0,2026-04-22T05:07:54.928856+05:30
Chandigarh,Chandigarh,30.7333,76.7794,21.6,50,0.0,964.7,7.35,31.3,57,18.1,13.8,0,5,7,0,2026-04-22T05:07:54.928870+05:30
Srinagar,Jammu and Kashmir,34.0837,74.7973,8.5,82,0.0,837.9,8.5,16.2,72,39.1,25.0,3,10,7,0,2026-04-22T05:07:54.928878+05:30
Jammu,Jammu and Kashmir,32.7266,74.857,21.6,65,0.0,968.9,8.1,28.8,69,28.2,24.3,3,5,7,0,2026-04-22T05:07:54.928885+05:30
Amritsar,Punjab,31.634,74.8723,22.7,61,0.0,977.2,8.05,28.8,77,60.5,52.2,3,5,7,0,2026-04-22T05:07:54.928891+05:30
Ludhiana,Punjab,30.901,75.8573,24.1,46,0.0,975.2,7.6,29.9,80,41.2,36.4,0,5,7,0,2026-04-22T05:07:54.928900+05:30
Jalandhar,Punjab,31.326,75.5762,22.7,53,0.0,976.1,7.8,31.0,81,46.6,36.7,0,5,7,0,2026-04-22T05:07:54.928907+05:30
Dehradun,Uttarakhand,30.6284,78.0322,15.5,51,0.0,827.3,7.75,31.0,46,12.2,10.2,0,5,7,0,2026-04-22T05:07:54.928913+05:30
Shimla,Himachal Pradesh,31.1048,77.1734,12.9,50,0.0,781.0,7.85,51.1,46,18.4,12.2,0,5,7,0,2026-04-22T05:07:54.928920+05:30
Manali,Himachal Pradesh,32.2396,77.1887,18.8,22,0.0,819.2,9.3,30.6,47,26.5,9.1,0,5,7,1,2026-04-22T05:07:54.928927+05:30
Gurgaon,Haryana,28.4595,77.0266,22.8,63,0.0,978.1,7.45,27.7,1091,676.1,119.0,3,5,7,0,2026-04-22T05:07:54.928934+05:30
Noida,Uttar Pradesh,28.5355,77.391,25.0,54,0.0,981.0,7.35,31.7,1091,676.1,119.0,4,5,7,0,2026-04-22T05:07:54.928941+05:30
Ghaziabad,Uttar Pradesh,28.6692,77.4538,24.2,59,0.0,979.2,7.35,31.3,332,443.3,97.1,0,5,7,0,2026-04-22T05:07:54.928947+05:30
Faridabad,Haryana,28.4089,77.3178,25.6,47,0.0,980.4,7.4,32.8,1091,676.1,119.0,4,5,7,0,2026-04-22T05:07:54.928953+05:30
Meerut,Uttar Pradesh,28.9845,77.7064,22.6,57,0.0,977.6,7.25,36.0,332,443.3,97.1,0,5,7,0,2026-04-22T05:07:54.928959+05:30
Agra,Uttar Pradesh,27.1767,78.0081,24.6,55,0.0,984.6,7.75,36.4,658,812.1,117.8,0,5,7,0,2026-04-22T05:07:54.928967+05:30
Varanasi,Uttar Pradesh,25.3176,82.9739,27.1,40,0.0,993.7,8.55,42.5,104,179.7,44.6,4,5,7,0,2026-04-22T05:07:54.928974+05:30
Prayagraj,Uttar Pradesh,25.4358,81.8463,27.6,46,0.0,992.2,8.4,38.5,114,325.0,65.4,4,5,7,0,2026-04-22T05:07:54.928980+05:30
Gorakhpur,Uttar Pradesh,26.7606,83.3732,25.2,40,0.0,992.3,8.25,41.0,82,204.0,51.3,4,5,7,0,2026-04-22T05:07:54.928987+05:30
Bareilly,Uttar Pradesh,28.367,79.4304,22.2,53,0.0,982.6,7.6,38.5,91,176.0,51.1,0,5,7,0,2026-04-22T05:07:54.928995+05:30
Aligarh,Uttar Pradesh,27.8974,78.088,23.5,56,0.0,982.0,7.5,36.0,724,599.8,108.3,0,5,7,0,2026-04-22T05:07:54.929001+05:30
Moradabad,Uttar Pradesh,28.8386,78.7733,21.8,55,0.0,979.6,7.45,36.4,110,160.7,54.7,0,5,7,0,2026-04-22T05:07:54.929007+05:30
Saharanpur,Uttar Pradesh,29.9637,77.546,20.0,67,0.0,971.6,6.95,32.8,82,48.2,40.3,3,5,7,0,2026-04-22T05:07:54.929013+05:30
Jhansi,Uttar Pradesh,25.4484,78.5685,29.1,33,0.0,975.5,8.3,30.2,120,23.6,10.3,4,5,7,0,2026-04-22T05:07:58.143439+05:30
Surat,Gujarat,21.1702,72.8311,27.3,71,0.0,1005.1,7.9,21.2,112,34.5,27.4,7,5,4,1,2026-04-22T05:07:58.143474+05:30
Vadodara,Gujarat,22.3072,73.1812,26.4,40,0.0,1003.4,8.15,24.8,92,39.9,35.4,4,5,4,0,2026-04-22T05:07:58.143484+05:30
Rajkot,Gujarat,22.3039,70.8022,22.9,76,0.0,993.6,7.85,29.9,54,33.4,13.8,3,5,7,1,2026-04-22T05:07:58.143492+05:30
Thane,Maharashtra,19.2183,72.9781,26.4,84,0.0,1005.9,8.05,43.6,95,61.0,33.5,7,5,4,1,2026-04-22T05:07:58.143500+05:30
Nagpur,Maharashtra,21.1458,79.0882,28.8,42,0.0,971.0,8.95,30.6,86,36.1,32.2,4,5,7,0,2026-04-22T05:07:58.143508+05:30
Nashik,Maharashtra,19.9975,73.7898,25.4,51,0.0,944.2,8.3,37.1,82,59.1,41.4,4,5,7,0,2026-04-22T05:07:58.143515+05:30
Aurangabad,Maharashtra,19.8762,75.3433,27.9,42,0.0,943.1,9.05,34.6,81,41.6,34.3,4,5,7,0,2026-04-22T05:07:58.143522+05:30
Solapur,Maharashtra,17.6599,75.9064,26.3,71,0.0,955.8,9.1,28.1,106,54.5,49.0,7,5,7,1,2026-04-22T05:07:58.143529+05:30
Kolhapur,Maharashtra,16.705,74.2433,22.6,92,0.0,946.1,9.05,43.9,99,43.4,35.9,3,5,7,1,2026-04-22T05:07:58.143537+05:30
Goa,Goa,15.2993,74.124,27.2,90,0.0,996.3,9.0,29.5,73,40.9,28.2,7,5,7,1,2026-04-22T05:07:58.143544+05:30
Jodhpur,Rajasthan,26.2389,73.0243,25.8,32,0.0,981.5,8.2,29.2,111,131.3,20.5,4,5,7,0,2026-04-22T05:07:58.143551+05:30
Udaipur,Rajasthan,24.5854,73.7125,23.8,35,0.0,945.7,8.75,42.5,42,8.1,6.4,0,5,7,0,2026-04-22T05:07:58.143557+05:30
Kota,Rajasthan,25.2138,75.8648,26.5,26,0.0,977.3,8.25,29.5,57,7.0,6.7,4,5,7,0,2026-04-22T05:07:58.143564+05:30
Bikaner,Rajasthan,28.0229,73.3119,29.3,31,0.0,979.4,8.05,30.2,53,123.9,29.5,4,5,7,0,2026-04-22T05:07:58.143571+05:30
Ajmer,Rajasthan,26.4499,74.6399,24.0,32,0.0,953.3,8.2,34.9,56,5.4,3.0,0,5,7,0,2026-04-22T05:07:58.143578+05:30
Gwalior,Madhya Pradesh,26.2183,78.1828,27.8,46,0.0,980.6,8.0,39.6,152,31.7,12.5,4,5,7,0,2026-04-22T05:07:58.143584+05:30
Indore,Madhya Pradesh,22.7196,75.8577,24.6,46,0.0,947.1,8.65,35.6,57,13.5,11.5,0,5,7,0,2026-04-22T05:07:58.143591+05:30
Bhopal,Madhya Pradesh,23.2599,77.4126,25.9,38,0.0,952.6,8.65,36.7,54,12.6,12.3,4,5,7,0,2026-04-22T05:07:58.143597+05:30
Jabalpur,Madhya Pradesh,23.1815,79.9864,25.8,52,0.0,959.5,8.8,32.0,65,32.1,21.3,4,5,7,0,2026-04-22T05:07:58.143604+05:30
Ujjain,Madhya Pradesh,23.1765,75.7885,26.0,38,0.0,953.1,8.55,36.4,56,16.5,14.6,4,5,7,0,2026-04-22T05:07:58.143611+05:30
Visakhapatnam,Andhra Pradesh,17.6868,83.2185,27.2,89,0.0,1001.5,9.2,40.0,60,18.9,15.5,7,5,4,1,2026-04-22T05:07:58.143618+05:30
Vijayawada,Andhra Pradesh,16.5062,80.648,27.1,89,0.0,1000.9,9.25,27.4,60,13.2,10.2,7,5,4,1,2026-04-22T05:07:58.143624+05:30
Guntur,Andhra Pradesh,16.3067,80.4365,26.9,91,0.0,1002.0,9.25,31.0,64,12.3,9.4,7,5,4,1,2026-04-22T05:07:58.143630+05:30
Nellore,Andhra Pradesh,14.4426,79.9865,27.2,89,0.0,1004.1,9.3,34.2,52,10.1,8.6,7,5,4,1,2026-04-22T05:07:58.143637+05:30
Kurnool,Andhra Pradesh,15.8281,78.0373,28.6,62,0.0,974.8,9.25,21.2,100,41.7,38.2,7,5,7,1,2026-04-22T05:07:58.143644+05:30
Kakinada,Andhra Pradesh,16.9891,82.2475,27.1,91,0.0,1005.8,9.2,29.2,45,14.4,9.7,7,5,4,1,2026-04-22T05:07:58.143651+05:30
Tirupati,Andhra Pradesh,13.6288,79.4192,24.5,88,0.0,990.5,9.35,32.4,61,15.6,14.5,3,5,7,1,2026-04-22T05:07:58.143657+05:30
Warangal,Telangana,17.9689,79.5941,27.7,60,0.0,976.6,9.2,33.1,95,26.2,24.6,4,5,7,1,2026-04-22T05:07:58.143663+05:30
Nizamabad,Telangana,18.6725,78.0941,28.2,55,0.0,963.5,8.95,33.5,106,45.5,42.7,4,5,7,1,2026-04-22T05:07:58.143669+05:30
Mysore,Karnataka,12.2958,76.6396,23.0,88,0.0,927.0,9.45,37.8,82,32.4,30.4,3,5,7,1,2026-04-22T05:07:58.143675+05:30
Mangalore,Karnataka,12.9141,74.856,28.0,85,0.0,1004.9,9.1,25.9,79,33.6,30.0,7,5,4,1,2026-04-22T05:07:58.143681+05:30
Hubli-Dharwad,Karnataka,15.3647,75.124,23.1,92,0.0,939.9,9.2,38.2,94,43.9,39.5,3,5,7,1,2026-04-22T05:07:58.143688+05:30
Belgaum,Karnataka,15.8497,74.4977,21.8,99,0.0,924.2,9.25,33.1,90,28.7,22.6,3,5,7,1,2026-04-22T05:08:01.360568+05:30
Coimbatore,Tamil Nadu,11.0168,76.9558,24.1,92,0.0,960.1,9.4,36.4,80,30.9,27.4,3,5,7,1,2026-04-22T05:08:01.360601+05:30
Madurai,Tamil Nadu,9.9252,78.1198,26.1,88,0.0,991.1,9.3,37.4,60,23.5,22.2,7,5,7,1,2026-04-22T05:08:01.360612+05:30
Trichy,Tamil Nadu,10.7905,78.7047,27.1,87,0.0,998.0,9.3,19.1,54,27.4,26.3,7,5,7,1,2026-04-22T05:08:01.360620+05:30
Salem,Tamil Nadu,11.6643,78.146,27.0,80,0.0,975.7,9.25,25.6,59,18.8,18.2,7,5,7,1,2026-04-22T05:08:01.360628+05:30
Tirunelveli,Tamil Nadu,8.7139,77.7567,26.7,81,0.0,1001.1,9.25,45.7,65,25.5,23.3,7,5,4,1,2026-04-22T05:08:01.360636+05:30
Vellore,Tamil Nadu,12.9165,79.1325,24.9,83,0.0,983.4,9.35,28.8,67,31.8,30.4,3,5,7,1,2026-04-22T05:08:01.360643+05:30
Erode,Tamil Nadu,11.341,77.7172,28.5,79,0.0,987.3,9.2,24.5,52,11.5,11.1,7,5,7,1,2026-04-22T05:08:01.360650+05:30
Kochi,Kerala,9.9312,76.2673,28.2,85,0.0,1006.5,9.0,28.4,74,27.3,25.3,7,5,4,1,2026-04-22T05:08:01.360657+05:30
Thiruvananthapuram,Kerala,8.5241,76.9366,28.1,84,0.0,1005.7,8.9,29.5,54,15.0,12.5,7,5,4,1,2026-04-22T05:08:01.360664+05:30
Kozhikode,Kerala,11.2588,75.7804,28.5,85,0.0,1006.0,9.05,29.5,68,24.4,18.9,7,5,4,1,2026-04-22T05:08:01.360671+05:30
Thrissur,Kerala,10.5276,76.2144,26.9,88,0.0,1005.0,9.05,35.6,73,28.6,25.6,7,5,4,1,2026-04-22T05:08:01.360678+05:30
Kannur,Kerala,11.8745,75.3704,28.1,89,0.0,1005.2,9.1,32.8,76,30.7,27.2,7,5,4,1,2026-04-22T05:08:01.360685+05:30
Patna,Bihar,25.5941,85.1376,27.1,46,0.0,995.5,8.65,41.4,89,174.6,37.8,4,5,7,0,2026-04-22T05:08:01.360692+05:30
Gaya,Bihar,24.7914,85.0002,28.3,45,0.0,989.5,8.75,40.3,92,64.0,27.1,4,5,7,0,2026-04-22T05:08:01.360698+05:30
Muzaffarpur,Bihar,26.1209,85.3647,25.7,48,0.0,995.3,8.65,15.8,85,173.7,38.9,4,5,7,0,2026-04-22T05:08:01.360703+05:30
Bhagalpur,Bihar,25.2425,87.0117,27.2,53,0.0,996.2,8.7,22.0,93,48.4,19.1,4,5,7,1,2026-04-22T05:08:01.360709+05:30
Ranchi,Jharkhand,23.3441,85.3096,26.9,34,0.0,935.4,9.25,41.4,74,97.1,32.1,4,5,7,0,2026-04-22T05:08:01.360715+05:30
Jamshedpur,Jharkhand,22.8046,86.2029,28.4,62,0.0,987.2,9.05,25.6,108,73.1,44.4,7,5,7,1,2026-04-22T05:08:01.360721+05:30
Dhanbad,Jharkhand,23.7957,86.4304,28.4,54,0.0,976.0,9.0,38.5,140,138.8,61.0,4,5,7,1,2026-04-22T05:08:01.360727+05:30
Bokaro,Jharkhand,23.6693,86.1511,26.2,48,0.0,980.3,9.05,40.7,122,122.5,56.0,4,5,7,0,2026-04-22T05:08:01.360733+05:30
Bhubaneswar,Odisha,20.2961,85.8245,26.6,96,0.0,998.9,9.15,31.7,85,24.7,21.5,7,5,7,1,2026-04-22T05:08:01.360739+05:30
Cuttack,Odisha,20.4625,85.8828,27.2,93,0.0,1000.8,9.2,43.2,85,24.7,21.5,7,5,4,1,2026-04-22T05:08:01.360744+05:30
Rourkela,Odisha,22.2604,84.8536,28.4,73,0.0,981.6,9.0,40.7,103,49.8,40.9,7,5,7,1,2026-04-22T05:08:01.360750+05:30
Raipur,Chhattisgarh,21.2514,81.6296,29.4,54,0.0,972.3,9.05,33.5,123,58.7,55.6,4,5,7,1,2026-04-22T05:08:01.360756+05:30
Bhilai,Chhattisgarh,21.1938,81.3509,29.0,56,0.0,972.6,9.05,30.2,110,57.4,53.7,4,5,7,1,2026-04-22T05:08:01.360762+05:30
Guwahati,Assam,26.1158,91.7086,22.7,87,0.0,998.8,8.6,36.7,109,50.2,39.2,3,5,7,1,2026-04-22T05:08:01.360768+05:30
Agartala,Tripura,23.8315,91.2868,27.1,91,0.0,1003.4,8.75,36.0,81,23.9,20.0,7,5,4,1,2026-04-22T05:08:01.360774+05:30
Shillong,Meghalaya,25.5788,91.8933,16.7,91,0.0,854.2,9.05,70.6,69,10.5,8.3,3,10,7,0,2026-04-22T05:08:01.360780+05:30
Imphal,Manipur,24.817,93.9368,19.5,89,0.0,921.6,9.2,77.0,150,77.3,69.2,3,10,7,1,2026-04-22T05:08:01.360786+05:30
Aizawl,Mizoram,23.7271,92.7176,20.4,89,0.0,891.4,9.05,56.2,104,40.5,33.8,3,5,7,1,2026-04-22T05:08:01.360792+05:30
Kohima,Nagaland,25.6701,94.1077,18.4,71,0.0,853.2,9.15,105.5,107,56.5,45.4,3,5,7,0,2026-04-22T05:08:01.360798+05:30
Gangtok,Sikkim,27.3314,88.6138,15.8,67,0.0,834.7,8.9,20.2,68,11.6,9.7,3,5,7,0,2026-04-22T05:08:01.360804+05:30
Siliguri,West Bengal,26.7271,88.3953,22.8,58,0.0,989.7,8.55,23.0,145,46.1,39.7,0,5,7,0,2026-04-22T05:08:04.575077+05:30
Durgapur,West Bengal,23.5204,87.3119,27.6,94,0.0,991.0,8.95,28.4,150,106.2,89.2,7,5,7,1,2026-04-22T05:08:04.575111+05:30
Asansol,West Bengal,23.6739,86.9524,28.2,90,0.0,989.5,9.0,28.1,130,109.9,57.2,7,5,7,1,2026-04-22T05:08:04.575121+05:30
Pondicherry,Puducherry,11.9139,79.8145,27.5,93,0.0,1006.9,9.25,30.6,44,8.2,5.7,7,5,4,1,2026-04-22T05:08:04.575129+05:30
Port Blair,Andaman and Nicobar Islands,11.6234,92.7265,29.3,76,0.0,1005.6,9.1,18.4,51,11.3,8.9,7,5,4,1,2026-04-22T05:08:04.575136+05:30
Haridwar,Uttarakhand,29.9457,78.1642,20.1,68,0.0,970.4,7.15,34.6,67,24.9,24.7,3,5,7,0,2026-04-22T05:08:04.575144+05:30
Rishikesh,Uttarakhand,30.0869,78.2676,21.2,60,0.0,963.4,7.25,33.8,55,18.9,18.7,0,5,7,0,2026-04-22T05:08:04.575151+05:30
Nainital,Uttarakhand,29.3919,79.4542,21.2,37,0.0,804.6,8.05,38.5,59,19.3,15.3,0,5,7,0,2026-04-22T05:08:04.575158+05:30
Mussoorie,Uttarakhand,30.4599,78.0664,18.3,44,0.0,800.7,7.65,38.5,60,18.7,18.2,0,5,7,0,2026-04-22T05:08:04.575165+05:30
Dharamshala,Himachal Pradesh,32.219,76.3234,22.6,31,0.0,866.8,7.95,29.2,42,17.4,6.7,0,5,7,0,2026-04-22T05:08:04.575172+05:30
Dalhousie,Himachal Pradesh,32.5387,75.971,18.9,33,0.0,801.7,8.25,25.2,56,17.6,13.6,0,5,7,0,2026-04-22T05:08:04.575180+05:30
Patiala,Punjab,30.3398,76.3869,21.7,54,0.0,974.4,7.25,23.0,288,197.0,48.3,0,5,7,0,2026-04-22T05:08:04.575188+05:30
Bhatinda,Punjab,30.211,74.9455,24.8,45,0.0,980.5,7.95,32.4,72,37.8,30.7,0,5,7,0,2026-04-22T05:08:04.575194+05:30
Rohtak,Haryana,28.8955,76.6066,21.9,63,0.0,978.3,7.4,31.7,623,484.3,95.5,3,5,7,0,2026-04-22T05:08:04.575201+05:30
Panipat,Haryana,29.3909,76.9635,21.5,58,0.0,976.8,7.2,31.0,1041,668.7,108.0,0,5,7,0,2026-04-22T05:08:04.575208+05:30
Mathura,Uttar Pradesh,27.4924,77.6737,24.4,53,0.0,983.5,7.7,34.9,713,843.8,118.3,0,5,7,0,2026-04-22T05:08:04.575214+05:30
Vrindavan,Uttar Pradesh,27.5823,77.7027,24.9,48,0.0,983.9,7.65,35.3,713,843.8,118.3,0,5,7,0,2026-04-22T05:08:04.575220+05:30
Ayodhya,Uttar Pradesh,26.7922,82.1998,24.8,49,0.0,990.8,8.05,46.1,104,352.0,73.8,0,5,7,0,2026-04-22T05:08:04.575225+05:30
Ratlam,Madhya Pradesh,23.3315,75.0367,27.1,33,0.0,953.8,8.45,31.0,55,17.9,15.1,4,5,7,0,2026-04-22T05:08:04.575232+05:30
Sagar,Madhya Pradesh,23.8388,78.7378,26.7,37,0.0,948.8,8.7,37.8,55,42.0,19.2,4,5,7,0,2026-04-22T05:08:04.575238+05:30
Satna,Madhya Pradesh,24.6005,80.8322,28.9,38,0.0,968.3,8.7,43.6,88,64.0,24.0,4,5,7,0,2026-04-22T05:08:04.575244+05:30
Akola,Maharashtra,20.7002,77.0082,28.4,50,0.0,973.5,8.85,32.0,84,28.8,25.2,4,5,7,1,2026-04-22T05:08:04.575251+05:30
Amravati,Maharashtra,20.9374,77.7796,27.7,50,0.0,965.2,8.9,22.0,88,31.3,28.1,4,5,7,1,2026-04-22T05:08:04.575257+05:30
Latur,Maharashtra,18.4088,76.5604,25.3,63,0.0,938.6,9.1,33.1,110,45.9,41.4,7,5,7,1,2026-04-22T05:08:04.575263+05:30
Nanded,Maharashtra,19.1383,77.3091,27.3,62,0.0,967.1,9.0,24.8,100,39.8,37.8,7,5,7,1,2026-04-22T05:08:04.575269+05:30
Gulbarga,Karnataka,17.3297,76.8343,26.4,70,0.0,957.8,9.15,33.5,100,43.7,40.4,7,5,7,1,2026-04-22T05:08:04.575292+05:30
Bidar,Karnataka,17.9104,77.5199,26.8,56,0.0,934.8,8.35,46.8,106,43.4,40.0,4,5,7,1,2026-04-22T05:08:04.575298+05:30
Hospet,Karnataka,15.2689,76.3909,25.6,76,0.0,954.4,9.25,25.9,101,53.8,48.9,7,5,7,1,2026-04-22T05:08:04.575305+05:30
Tirupur,Tamil Nadu,11.1085,77.3411,26.5,84,0.0,973.7,9.4,29.5,66,20.8,18.8,7,5,7,1,2026-04-22T05:08:04.575311+05:30
Alappuzha,Kerala,9.4981,76.3388,28.0,80,0.0,1006.6,8.75,25.2,67,25.1,21.5,7,5,4,1,2026-04-22T05:08:04.575317+05:30
Munnar,Kerala,10.0889,77.0595,20.3,87,0.0,854.7,9.65,34.9,75,30.0,28.5,3,5,7,1,2026-04-22T05:08:04.575324+05:30
Silchar,Assam,24.8333,92.7789,23.0,93,0.0,1003.9,8.8,44.6,151,81.7,70.3,3,5,4,1,2026-04-22T05:08:04.575330+05:30
Dibrugarh,Assam,27.4728,94.912,23.1,91,0.0,993.0,8.45,21.6,60,14.5,11.0,3,5,7,1,2026-04-22T05:08:04.575336+05:30
