city,state,latitude,longitude,temp,humidity,rain,pressure,uv_index,wind_gusts,aqi,pm10,pm2_5,mosquito_risk,arthritis_risk,migraine_risk,frizz_risk,updated_at
Delhi,Delhi,28.6139,77.209,19.8,95,0.0,984.7,5.95,14.8,165,235.2,103.6,3,10,3,1,2026-03-07T04:02:35.897764+05:30
Mumbai,Maharashtra,19.076,72.8777,26.6,76,0.0,1008.0,7.5,25.9,106,28.8,24.5,7,0,4,1,2026-03-07T04:02:35.897804+05:30
Bangalore,Karnataka,12.9716,77.5946,19.8,74,0.0,909.8,9.2,26.3,105,46.1,43.8,3,5,7,0,2026-03-07T04:02:35.897819+05:30
Hyderabad,Telangana,17.385,78.4867,20.2,64,0.0,951.8,8.5,28.1,101,65.7,54.2,3,5,7,0,2026-03-07T04:02:35.897829+05:30
Chennai,Tamil Nadu,13.0827,80.2707,24.4,93,0.0,1006.3,8.9,35.6,85,41.7,34.6,3,5,4,1,2026-03-07T04:02:35.897837+05:30
Kolkata,West Bengal,22.5726,88.3639,22.4,96,0.0,1008.1,7.85,19.1,152,60.3,50.6,3,0,4,1,2026-03-07T04:02:35.897845+05:30
Pune,Maharashtra,18.5204,73.8567,19.4,69,0.0,947.3,8.05,24.8,97,62.6,61.5,3,5,7,0,2026-03-07T04:02:35.897857+05:30
Ahmedabad,Gujarat,23.0225,72.5714,20.6,63,0.0,1003.4,7.3,14.8,90,64.5,61.0,3,5,4,0,2026-03-07T04:02:35.897865+05:30
Jaipur,Rajasthan,26.9124,75.7873,21.9,43,0.0,960.8,6.75,19.1,85,79.9,35.5,0,5,7,0,2026-03-07T04:02:35.897872+05:30
Lucknow,Uttar Pradesh,26.8467,80.9462,21.7,77,0.0,995.4,6.45,16.6,163,112.9,82.2,3,5,7,1,2026-03-07T04:02:35.897879+05:30
Kanpur,Uttar Pradesh,26.4499,80.3319,20.8,83,0.0,993.4,6.5,13.7,165,106.6,72.9,3,5,7,1,2026-03-07T04:02:35.897886+05:30
Chandigarh,Chandigarh,30.7333,76.7794,20.3,83,0.0,970.6,5.9,19.8,152,87.5,76.1,3,5,3,1,2026-03-07T04:02:35.897893+05:30
Srinagar,Jammu and Kashmir,34.0837,74.7973,9.1,73,0.0,841.8,5.6,17.3,121,61.9,46.3,3,5,3,0,2026-03-07T04:02:35.897900+05:30
Jammu,Jammu and Kashmir,32.7266,74.857,19.4,79,0.0,974.3,5.55,10.8,132,44.9,40.9,3,5,3,0,2026-03-07T04:02:35.897921+05:30
Amritsar,Punjab,31.634,74.8723,18.8,84,0.0,982.2,6.2,19.1,157,73.3,68.9,3,10,7,0,2026-03-07T04:02:35.897930+05:30
Ludhiana,Punjab,30.901,75.8573,19.4,93,0.0,980.5,6.1,19.4,165,186.3,118.5,3,10,7,1,2026-03-07T04:02:35.897937+05:30
Jalandhar,Punjab,31.326,75.5762,19.3,92,0.0,981.6,5.9,19.8,163,136.4,108.3,3,10,3,1,2026-03-07T04:02:35.897946+05:30
Dehradun,Uttarakhand,30.6284,78.0322,13.3,100,0.0,830.4,6.2,27.4,108,39.8,30.7,3,10,7,0,2026-03-07T04:02:35.897953+05:30
Shimla,Himachal Pradesh,31.1048,77.1734,11.6,88,0.0,784.1,6.3,37.4,105,78.7,59.8,3,10,7,0,2026-03-07T04:02:35.897960+05:30
Manali,Himachal Pradesh,32.2396,77.1887,17.1,27,0.0,822.2,7.15,38.2,57,32.7,22.4,0,5,7,1,2026-03-07T04:02:35.897966+05:30
Gurgaon,Haryana,28.4595,77.0266,18.6,91,0.0,982.8,6.05,10.1,278,265.4,109.7,3,10,7,1,2026-03-07T04:02:35.897972+05:30
Noida,Uttar Pradesh,28.5355,77.391,19.6,95,0.0,986.3,5.95,13.3,278,265.4,109.7,3,10,3,1,2026-03-07T04:02:35.897979+05:30
Ghaziabad,Uttar Pradesh,28.6692,77.4538,19.6,95,0.0,984.4,5.95,13.7,168,149.9,113.6,3,10,3,1,2026-03-07T04:02:35.897985+05:30
Faridabad,Haryana,28.4089,77.3178,17.8,97,0.0,985.4,6.0,12.2,278,265.4,109.7,3,10,3,1,2026-03-07T04:02:35.897992+05:30
Meerut,Uttar Pradesh,28.9845,77.7064,20.0,95,0.0,983.4,5.8,15.8,168,149.9,113.6,3,5,3,1,2026-03-07T04:02:35.897998+05:30
Agra,Uttar Pradesh,27.1767,78.0081,18.3,88,0.0,989.3,6.3,10.8,185,235.2,100.6,3,10,7,1,2026-03-07T04:02:35.898005+05:30
Varanasi,Uttar Pradesh,25.3176,82.9739,20.5,88,0.0,999.1,7.15,19.1,169,154.1,134.1,3,5,7,1,2026-03-07T04:02:35.898014+05:30
Prayagraj,Uttar Pradesh,25.4358,81.8463,20.4,85,0.0,997.6,7.0,13.7,169,138.8,115.3,3,5,7,1,2026-03-07T04:02:35.898023+05:30
Gorakhpur,Uttar Pradesh,26.7606,83.3732,19.8,88,0.0,999.0,6.85,11.9,169,126.7,110.6,3,10,7,1,2026-03-07T04:02:35.898030+05:30
Bareilly,Uttar Pradesh,28.367,79.4304,19.7,88,0.0,989.0,6.15,9.4,164,91.3,79.2,3,10,7,1,2026-03-07T04:02:35.898036+05:30
Aligarh,Uttar Pradesh,27.8974,78.088,19.0,95,0.0,987.3,6.05,11.9,179,211.4,131.8,3,10,7,1,2026-03-07T04:02:35.898042+05:30
Moradabad,Uttar Pradesh,28.8386,78.7733,19.6,88,0.0,985.8,5.95,13.0,167,112.9,89.6,3,10,3,1,2026-03-07T04:02:35.898048+05:30
Saharanpur,Uttar Pradesh,29.9637,77.546,19.9,93,0.0,977.9,5.6,18.0,169,104.1,93.4,3,10,3,1,2026-03-07T04:02:35.898056+05:30
Jhansi,Uttar Pradesh,25.4484,78.5685,18.6,64,0.0,979.1,6.95,24.1,78,121.1,39.6,3,5,7,0,2026-03-07T04:02:39.151955+05:30
Surat,Gujarat,21.1702,72.8311,23.4,85,0.0,1007.2,7.2,24.1,133,60.8,58.8,3,5,4,1,2026-03-07T04:02:39.151990+05:30
Vadodara,Gujarat,22.3072,73.1812,22.5,70,0.0,1005.2,7.3,17.3,118,83.4,82.7,3,5,4,1,2026-03-07T04:02:39.152003+05:30
Rajkot,Gujarat,22.3039,70.8022,20.0,96,0.0,995.8,7.15,17.6,58,54.5,20.5,3,5,7,1,2026-03-07T04:02:39.152012+05:30
Thane,Maharashtra,19.2183,72.9781,23.9,77,0.0,1007.6,7.5,34.2,106,28.8,24.5,3,5,4,1,2026-03-07T04:02:39.152020+05:30
Nagpur,Maharashtra,21.1458,79.0882,18.9,59,0.0,972.6,7.85,20.2,64,30.7,18.7,0,5,7,0,2026-03-07T04:02:39.152028+05:30
Nashik,Maharashtra,19.9975,73.7898,21.3,55,0.0,945.1,7.65,25.6,91,53.0,51.5,0,5,7,0,2026-03-07T04:02:39.152036+05:30
Aurangabad,Maharashtra,19.8762,75.3433,21.5,47,0.0,943.3,8.2,20.9,72,35.4,32.8,0,5,7,0,2026-03-07T04:02:39.152044+05:30
Solapur,Maharashtra,17.6599,75.9064,21.5,61,0.0,955.5,8.4,20.5,66,29.0,25.4,3,5,7,0,2026-03-07T04:02:39.152053+05:30
Kolhapur,Maharashtra,16.705,74.2433,17.5,58,0.0,946.1,8.55,27.0,144,85.2,84.1,0,5,7,0,2026-03-07T04:02:39.152061+05:30
Goa,Goa,15.2993,74.124,25.0,91,0.0,997.0,8.6,30.6,156,71.9,68.2,7,5,7,1,2026-03-07T04:02:39.152069+05:30
Jodhpur,Rajasthan,26.2389,73.0243,20.0,61,0.0,984.3,7.0,19.8,63,74.5,21.7,3,5,7,0,2026-03-07T04:02:39.152077+05:30
Udaipur,Rajasthan,24.5854,73.7125,17.4,69,0.0,947.2,7.65,20.9,48,17.3,14.4,3,5,7,0,2026-03-07T04:02:39.152084+05:30
Kota,Rajasthan,25.2138,75.8648,18.7,59,0.0,979.5,7.05,18.0,66,52.2,30.9,0,5,7,0,2026-03-07T04:02:39.152092+05:30
Bikaner,Rajasthan,28.0229,73.3119,21.2,43,0.0,982.6,6.75,20.5,54,37.8,15.5,0,5,7,0,2026-03-07T04:02:39.152100+05:30
Ajmer,Rajasthan,26.4499,74.6399,20.3,47,0.0,955.3,7.0,19.1,55,27.0,20.5,0,5,7,0,2026-03-07T04:02:39.152108+05:30
Gwalior,Madhya Pradesh,26.2183,78.1828,19.4,72,0.0,984.5,6.65,19.1,103,177.0,52.6,3,5,7,0,2026-03-07T04:02:39.152115+05:30
Indore,Madhya Pradesh,22.7196,75.8577,17.4,68,0.0,947.9,7.6,16.2,71,41.9,38.8,3,5,7,0,2026-03-07T04:02:39.152123+05:30
Bhopal,Madhya Pradesh,23.2599,77.4126,19.6,49,0.0,953.4,7.45,19.1,73,28.8,22.9,0,5,7,0,2026-03-07T04:02:39.152130+05:30
Jabalpur,Madhya Pradesh,23.1815,79.9864,19.6,57,0.0,961.6,7.55,26.6,70,72.4,29.7,0,5,7,0,2026-03-07T04:02:39.152138+05:30
Ujjain,Madhya Pradesh,23.1765,75.7885,18.6,63,0.0,954.0,7.5,14.0,80,46.4,45.1,3,5,7,0,2026-03-07T04:02:39.152146+05:30
Visakhapatnam,Andhra Pradesh,17.6868,83.2185,25.4,93,0.0,1003.9,8.0,37.8,135,61.7,56.1,7,5,4,1,2026-03-07T04:02:39.152154+05:30
Vijayawada,Andhra Pradesh,16.5062,80.648,23.9,92,0.0,1001.5,8.55,26.3,127,68.2,65.2,3,5,4,1,2026-03-07T04:02:39.152162+05:30
Guntur,Andhra Pradesh,16.3067,80.4365,23.8,89,0.0,1002.6,8.6,30.2,119,65.4,60.5,3,5,4,1,2026-03-07T04:02:39.152169+05:30
Nellore,Andhra Pradesh,14.4426,79.9865,23.7,88,0.0,1004.3,8.75,34.6,93,43.5,41.4,3,5,4,1,2026-03-07T04:02:39.152178+05:30
Kurnool,Andhra Pradesh,15.8281,78.0373,23.6,49,0.0,975.3,8.55,27.0,70,32.0,25.0,0,5,7,0,2026-03-07T04:02:39.152186+05:30
Kakinada,Andhra Pradesh,16.9891,82.2475,24.4,97,0.0,1007.1,8.5,32.0,103,50.2,43.9,3,5,4,1,2026-03-07T04:02:39.152194+05:30
Tirupati,Andhra Pradesh,13.6288,79.4192,20.2,92,0.0,990.7,8.9,30.2,120,73.8,71.9,3,5,7,1,2026-03-07T04:02:39.152201+05:30
Warangal,Telangana,17.9689,79.5941,23.4,50,0.0,977.1,8.3,21.2,82,35.0,28.3,0,5,7,0,2026-03-07T04:02:39.152208+05:30
Nizamabad,Telangana,18.6725,78.0941,20.7,58,0.0,963.5,8.2,25.2,96,58.7,49.2,0,5,7,0,2026-03-07T04:02:39.152216+05:30
Mysore,Karnataka,12.2958,76.6396,21.6,93,0.0,927.1,9.2,38.5,131,45.4,44.7,3,5,7,1,2026-03-07T04:02:39.152224+05:30
Mangalore,Karnataka,12.9141,74.856,28.5,80,0.0,1005.6,8.85,25.6,145,71.9,65.9,7,5,4,1,2026-03-07T04:02:39.152231+05:30
Hubli-Dharwad,Karnataka,15.3647,75.124,19.1,92,0.0,939.0,8.8,23.4,95,73.1,71.2,3,10,7,1,2026-03-07T04:02:39.152239+05:30
Belgaum,Karnataka,15.8497,74.4977,20.7,63,0.0,923.9,8.8,39.6,108,63.1,60.3,3,5,7,0,2026-03-07T04:02:42.429264+05:30
Coimbatore,Tamil Nadu,11.0168,76.9558,22.7,93,0.0,960.5,9.2,39.6,114,38.1,36.7,3,5,7,1,2026-03-07T04:02:42.429297+05:30
Madurai,Tamil Nadu,9.9252,78.1198,24.2,89,0.0,991.9,9.15,25.2,91,39.9,36.2,3,5,7,1,2026-03-07T04:02:42.429309+05:30
Trichy,Tamil Nadu,10.7905,78.7047,24.0,85,0.0,998.9,9.05,26.6,88,31.2,27.8,3,5,7,1,2026-03-07T04:02:42.429318+05:30
Salem,Tamil Nadu,11.6643,78.146,24.8,79,0.0,976.4,9.1,22.7,104,39.6,37.6,3,5,7,1,2026-03-07T04:02:42.429328+05:30
Tirunelveli,Tamil Nadu,8.7139,77.7567,24.2,81,0.0,1002.0,9.15,48.2,100,41.9,40.7,3,5,4,1,2026-03-07T04:02:42.429335+05:30
Vellore,Tamil Nadu,12.9165,79.1325,20.9,88,0.0,983.6,9.0,35.6,132,75.2,72.9,3,5,7,1,2026-03-07T04:02:42.429342+05:30
Erode,Tamil Nadu,11.341,77.7172,25.1,86,0.0,988.1,9.1,20.9,102,50.4,49.4,7,5,7,1,2026-03-07T04:02:42.429350+05:30
Kochi,Kerala,9.9312,76.2673,27.1,84,0.0,1007.7,8.65,28.4,140,44.1,42.5,7,5,4,1,2026-03-07T04:02:42.429357+05:30
Thiruvananthapuram,Kerala,8.5241,76.9366,26.9,85,0.0,1007.0,9.05,33.1,92,42.6,38.9,7,5,4,1,2026-03-07T04:02:42.429363+05:30
Kozhikode,Kerala,11.2588,75.7804,27.9,81,0.0,1006.6,8.9,27.7,128,56.0,51.9,7,5,4,1,2026-03-07T04:02:42.429370+05:30
Thrissur,Kerala,10.5276,76.2144,26.0,91,0.0,1006.0,8.95,31.0,134,50.8,48.7,7,5,4,1,2026-03-07T04:02:42.429377+05:30
Kannur,Kerala,11.8745,75.3704,27.6,84,0.0,1005.9,8.9,31.0,133,64.5,60.5,7,5,4,1,2026-03-07T04:02:42.429384+05:30
Patna,Bihar,25.5941,85.1376,23.5,76,0.0,1002.1,7.3,21.6,162,86.4,79.2,3,5,4,1,2026-03-07T04:02:42.429391+05:30
Gaya,Bihar,24.7914,85.0002,21.2,84,0.0,995.0,7.4,25.2,156,63.3,57.9,3,5,7,1,2026-03-07T04:02:42.429397+05:30
Muzaffarpur,Bihar,26.1209,85.3647,21.9,79,0.0,1002.2,7.25,19.4,167,119.2,109.4,3,5,4,1,2026-03-07T04:02:42.429403+05:30
Bhagalpur,Bihar,25.2425,87.0117,21.8,80,0.0,1003.1,7.3,19.1,163,111.8,95.7,3,5,4,1,2026-03-07T04:02:42.429409+05:30
Ranchi,Jharkhand,23.3441,85.3096,19.8,86,0.0,938.4,8.0,27.7,153,71.9,54.4,3,10,7,1,2026-03-07T04:02:42.429416+05:30
Jamshedpur,Jharkhand,22.8046,86.2029,23.5,87,0.0,992.7,7.9,29.9,148,64.3,46.0,3,5,7,1,2026-03-07T04:02:42.429422+05:30
Dhanbad,Jharkhand,23.7957,86.4304,23.8,73,0.0,981.5,7.8,23.8,168,100.6,85.0,3,5,7,1,2026-03-07T04:02:42.429429+05:30
Bokaro,Jharkhand,23.6693,86.1511,22.6,78,0.0,985.7,7.8,21.6,170,112.5,96.4,3,5,7,1,2026-03-07T04:02:42.429435+05:30
Bhubaneswar,Odisha,20.2961,85.8245,25.0,92,0.0,1004.1,8.25,31.7,146,65.2,59.3,7,5,4,1,2026-03-07T04:02:42.429441+05:30
Cuttack,Odisha,20.4625,85.8828,25.0,92,0.0,1006.1,8.25,31.7,146,65.2,59.3,7,5,4,1,2026-03-07T04:02:42.429448+05:30
Rourkela,Odisha,22.2604,84.8536,23.5,82,0.0,986.1,7.85,19.4,155,77.3,66.1,3,5,7,1,2026-03-07T04:02:42.429455+05:30
Raipur,Chhattisgarh,21.2514,81.6296,22.4,50,0.0,974.6,7.95,20.5,116,97.8,59.4,0,5,7,0,2026-03-07T04:02:42.429461+05:30
Bhilai,Chhattisgarh,21.1938,81.3509,21.5,53,0.0,974.8,7.95,16.9,95,66.8,40.3,0,5,7,0,2026-03-07T04:02:42.429467+05:30
Guwahati,Assam,26.1158,91.7086,21.0,84,0.0,1003.9,7.25,18.4,152,52.2,48.1,3,5,4,1,2026-03-07T04:02:42.429473+05:30
Agartala,Tripura,23.8315,91.2868,21.2,82,0.0,1008.7,7.6,19.4,156,64.3,57.4,3,0,4,1,2026-03-07T04:02:42.429479+05:30
Shillong,Meghalaya,25.5788,91.8933,11.3,65,0.0,856.1,7.65,42.1,108,32.7,28.1,3,5,7,0,2026-03-07T04:02:42.429486+05:30
Imphal,Manipur,24.817,93.9368,17.2,66,0.0,925.2,7.85,37.1,155,98.7,95.0,3,5,7,0,2026-03-07T04:02:42.429492+05:30
Aizawl,Mizoram,23.7271,92.7176,18.0,62,0.0,894.3,7.8,30.6,177,155.1,146.2,3,5,7,0,2026-03-07T04:02:42.429498+05:30
Kohima,Nagaland,25.6701,94.1077,14.5,70,0.0,856.2,7.7,53.3,160,91.3,87.1,3,5,7,0,2026-03-07T04:02:42.429504+05:30
Gangtok,Sikkim,27.3314,88.6138,14.2,87,0.0,838.6,7.4,16.2,134,93.8,82.7,3,10,7,0,2026-03-07T04:02:42.429511+05:30
Siliguri,West Bengal,26.7271,88.3953,21.4,68,0.0,996.5,7.25,16.9,151,64.3,60.3,3,5,7,0,2026-03-07T04:02:45.683631+05:30
Durgapur,West Bengal,23.5204,87.3119,22.8,88,0.0,997.3,7.75,23.4,162,90.1,75.9,3,5,7,1,2026-03-07T04:02:45.683660+05:30
Asansol,West Bengal,23.6739,86.9524,23.5,83,0.0,995.9,7.75,21.2,162,87.1,72.4,3,5,7,1,2026-03-07T04:02:45.683670+05:30
Pondicherry,Puducherry,11.9139,79.8145,22.9,93,0.0,1007.7,8.95,32.0,82,38.8,31.4,3,5,4,1,2026-03-07T04:02:45.683677+05:30
Port Blair,Andaman and Nicobar Islands,11.6234,92.7265,26.8,74,0.0,1008.4,8.9,15.8,77,54.0,32.6,7,0,4,1,2026-03-07T04:02:45.683685+05:30
Haridwar,Uttarakhand,29.9457,78.1642,20.9,87,0.0,976.6,5.75,20.5,159,97.8,81.5,3,5,3,1,2026-03-07T04:02:45.683692+05:30
Rishikesh,Uttarakhand,30.0869,78.2676,20.3,84,0.0,969.3,5.8,23.8,156,112.2,81.7,3,5,3,1,2026-03-07T04:02:45.683700+05:30
Nainital,Uttarakhand,29.3919,79.4542,16.0,71,0.0,806.4,6.6,53.3,159,93.1,73.6,3,5,7,0,2026-03-07T04:02:45.683707+05:30
Mussoorie,Uttarakhand,30.4599,78.0664,14.6,90,0.0,803.1,6.1,38.2,156,105.9,81.0,3,10,7,0,2026-03-07T04:02:45.683715+05:30
Dharamshala,Himachal Pradesh,32.219,76.3234,21.0,32,0.0,871.0,6.4,20.9,57,14.9,9.1,0,5,7,0,2026-03-07T04:02:45.683722+05:30
Dalhousie,Himachal Pradesh,32.5387,75.971,17.5,35,0.0,805.2,6.35,19.4,102,38.8,32.1,0,5,7,0,2026-03-07T04:02:45.683730+05:30
Patiala,Punjab,30.3398,76.3869,19.1,95,0.0,980.0,5.75,16.9,166,180.7,100.8,3,10,3,1,2026-03-07T04:02:45.683736+05:30
Bhatinda,Punjab,30.211,74.9455,18.1,76,0.0,984.8,6.45,20.9,141,127.6,53.8,3,5,7,0,2026-03-07T04:02:45.683743+05:30
Rohtak,Haryana,28.8955,76.6066,18.0,96,0.0,983.1,5.95,12.2,170,370.7,111.5,3,10,3,1,2026-03-07T04:02:45.683749+05:30
Panipat,Haryana,29.3909,76.9635,19.3,95,0.0,982.0,5.75,15.1,323,372.5,120.6,3,10,3,1,2026-03-07T04:02:45.683756+05:30
Mathura,Uttar Pradesh,27.4924,77.6737,16.1,93,0.0,988.4,6.2,13.0,173,312.0,121.5,3,10,7,0,2026-03-07T04:02:45.683762+05:30
Vrindavan,Uttar Pradesh,27.5823,77.7027,17.3,94,0.0,989.1,6.2,11.9,173,312.0,121.5,3,10,7,1,2026-03-07T04:02:45.683769+05:30
Ayodhya,Uttar Pradesh,26.7922,82.1998,20.5,84,0.0,997.0,6.65,18.7,170,152.7,128.5,3,5,7,1,2026-03-07T04:02:45.683775+05:30
Ratlam,Madhya Pradesh,23.3315,75.0367,20.7,58,0.0,954.9,7.45,11.5,72,24.3,23.3,0,5,7,0,2026-03-07T04:02:45.683781+05:30
Sagar,Madhya Pradesh,23.8388,78.7378,18.4,64,0.0,950.1,7.4,22.7,60,56.9,25.5,3,5,7,0,2026-03-07T04:02:45.683788+05:30
Satna,Madhya Pradesh,24.6005,80.8322,19.0,88,0.0,972.2,7.4,21.6,133,111.1,71.9,3,10,7,1,2026-03-07T04:02:45.683795+05:30
Akola,Maharashtra,20.7002,77.0082,20.9,67,0.0,974.8,7.9,18.7,77,32.2,28.8,3,5,7,0,2026-03-07T04:02:45.683802+05:30
Amravati,Maharashtra,20.9374,77.7796,19.8,65,0.0,966.7,7.85,14.8,77,40.2,34.1,3,5,7,0,2026-03-07T04:02:45.683809+05:30
Latur,Maharashtra,18.4088,76.5604,22.7,41,0.0,938.6,8.35,28.4,74,39.1,32.7,0,5,7,0,2026-03-07T04:02:45.683816+05:30
Nanded,Maharashtra,19.1383,77.3091,22.7,48,0.0,967.9,8.1,20.9,91,55.6,49.1,0,5,7,0,2026-03-07T04:02:45.683822+05:30
Gulbarga,Karnataka,17.3297,76.8343,23.9,48,0.0,957.4,8.45,22.7,68,32.5,25.5,0,5,7,0,2026-03-07T04:02:45.683828+05:30
Bidar,Karnataka,17.9104,77.5199,22.8,44,0.0,934.1,8.35,22.7,77,38.1,27.2,0,5,7,0,2026-03-07T04:02:45.683834+05:30
Hospet,Karnataka,15.2689,76.3909,22.7,90,0.0,954.5,8.75,18.7,89,28.6,28.1,3,5,7,1,2026-03-07T04:02:45.683840+05:30
Tirupur,Tamil Nadu,11.1085,77.3411,24.3,90,0.0,974.1,9.2,25.2,127,47.4,46.1,3,5,7,1,2026-03-07T04:02:45.683846+05:30
Alappuzha,Kerala,9.4981,76.3388,26.9,84,0.0,1007.8,8.9,25.6,116,48.4,45.1,7,5,4,1,2026-03-07T04:02:45.683852+05:30
Munnar,Kerala,10.0889,77.0595,18.0,83,0.0,854.2,9.5,28.4,105,34.5,32.7,3,10,7,0,2026-03-07T04:02:45.683859+05:30
Silchar,Assam,24.8333,92.7789,23.3,78,0.0,1007.7,7.6,21.2,165,94.8,90.1,3,5,4,1,2026-03-07T04:02:45.683865+05:30
Dibrugarh,Assam,27.4728,94.912,22.6,77,0.0,998.3,7.2,17.3,112,48.2,44.8,3,5,7,1,2026-03-07T04:02:45.683872+05:30
