city,state,latitude,longitude,temp,humidity,rain,pressure,uv_index,wind_gusts,aqi,pm10,pm2_5,no2,co,o3,so2,mosquito_risk,arthritis_risk,migraine_risk,frizz_risk,updated_at
Delhi,Delhi,28.6139,77.209,25.9,54,0.0,977.3,7.6,31.7,265,352.0,72.6,15.3,466.0,107.0,19.5,4,5,7,0,2026-05-02T04:23:18.727638+05:30
Mumbai,Maharashtra,19.076,72.8777,27.5,82,0.0,1006.0,7.9,41.4,68,69.6,22.2,11.7,233.0,59.0,19.6,7,5,4,1,2026-05-02T04:23:18.727677+05:30
Bangalore,Karnataka,12.9716,77.5946,21.6,87,0.0,909.4,9.5,40.0,91,30.9,26.8,17.8,393.0,66.0,10.1,3,5,7,1,2026-05-02T04:23:18.727693+05:30
Hyderabad,Telangana,17.385,78.4867,28.6,33,0.0,950.3,9.25,33.1,78,45.4,30.0,36.7,233.0,34.0,11.4,4,5,7,0,2026-05-02T04:23:18.727704+05:30
Chennai,Tamil Nadu,13.0827,80.2707,29.4,79,0.0,1004.5,9.25,56.9,57,13.5,11.1,10.5,248.0,62.0,8.8,7,5,4,1,2026-05-02T04:23:18.727713+05:30
Kolkata,West Bengal,22.5726,88.3639,24.8,90,0.0,1001.9,8.9,46.1,65,23.3,18.0,10.4,230.0,83.0,7.1,3,5,4,1,2026-05-02T04:23:18.727722+05:30
Pune,Maharashtra,18.5204,73.8567,22.3,79,0.0,945.3,8.5,47.5,55,43.5,16.4,13.1,190.0,44.0,11.4,3,5,7,1,2026-05-02T04:23:18.727730+05:30
Ahmedabad,Gujarat,23.0225,72.5714,28.6,68,0.0,997.7,8.1,50.4,53,31.0,13.2,4.7,244.0,56.0,6.1,7,5,7,1,2026-05-02T04:23:18.727742+05:30
Jaipur,Rajasthan,26.9124,75.7873,25.8,50,0.0,953.9,8.15,42.8,135,202.1,45.3,17.8,358.0,50.0,6.6,4,5,7,0,2026-05-02T04:23:18.727751+05:30
Lucknow,Uttar Pradesh,26.8467,80.9462,23.2,74,0.0,989.8,8.1,30.6,94,42.8,28.9,8.3,353.0,98.0,6.7,3,5,7,1,2026-05-02T04:23:18.727762+05:30
Kanpur,Uttar Pradesh,26.4499,80.3319,24.8,67,0.0,987.4,8.1,61.9,124,287.8,51.6,7.7,355.0,95.0,8.3,3,5,7,1,2026-05-02T04:23:18.727771+05:30
Chandigarh,Chandigarh,30.7333,76.7794,22.2,60,0.0,963.1,7.6,43.2,95,48.9,31.7,25.7,339.0,37.0,9.4,0,5,7,0,2026-05-02T04:23:18.727779+05:30
Srinagar,Jammu and Kashmir,34.0837,74.7973,8.1,100,0.0,836.0,8.8,29.9,76,41.8,36.8,22.7,475.0,26.0,1.3,3,10,7,0,2026-05-02T04:23:18.727787+05:30
Jammu,Jammu and Kashmir,32.7266,74.857,19.1,70,0.0,966.0,8.4,31.3,61,20.9,19.8,27.5,253.0,21.0,2.0,3,5,7,0,2026-05-02T04:23:18.727795+05:30
Amritsar,Punjab,31.634,74.8723,23.2,60,0.0,974.3,8.25,45.0,132,38.2,29.1,8.9,548.0,75.0,5.7,0,5,7,0,2026-05-02T04:23:18.727802+05:30
Ludhiana,Punjab,30.901,75.8573,23.6,61,0.0,972.6,7.85,33.1,157,180.2,70.1,22.5,840.0,49.0,15.5,3,5,7,0,2026-05-02T04:23:18.727808+05:30
Jalandhar,Punjab,31.326,75.5762,22.2,65,0.0,973.3,7.95,32.4,154,78.0,49.0,22.2,564.0,54.0,9.3,3,5,7,0,2026-05-02T04:23:18.727815+05:30
Dehradun,Uttarakhand,30.6284,78.0322,9.6,95,0.0,822.6,8.0,46.1,69,19.5,15.3,19.6,285.0,41.0,0.5,3,10,7,0,2026-05-02T04:23:18.727824+05:30
Shimla,Himachal Pradesh,31.1048,77.1734,8.1,83,0.0,776.1,8.1,49.3,71,32.8,22.9,20.7,253.0,58.0,3.9,3,10,7,0,2026-05-02T04:23:18.727831+05:30
Manali,Himachal Pradesh,32.2396,77.1887,5.8,66,0.0,808.0,9.6,37.8,45,10.3,8.8,29.6,237.0,93.0,0.0,3,5,7,0,2026-05-02T04:23:18.727839+05:30
Gurgaon,Haryana,28.4595,77.0266,24.8,58,0.0,975.5,7.7,30.6,1167,922.0,129.5,11.0,433.0,104.0,14.4,0,5,7,0,2026-05-02T04:23:18.727846+05:30
Noida,Uttar Pradesh,28.5355,77.391,23.3,66,0.0,978.7,7.65,35.3,1167,922.0,129.5,11.0,429.0,104.0,14.4,3,5,7,1,2026-05-02T04:23:18.727854+05:30
Ghaziabad,Uttar Pradesh,28.6692,77.4538,23.7,64,0.0,977.1,7.6,39.6,165,206.8,54.5,8.7,390.0,106.0,16.6,3,5,7,1,2026-05-02T04:23:18.727860+05:30
Faridabad,Haryana,28.4089,77.3178,24.8,59,0.0,978.1,7.65,25.2,1167,922.0,129.5,11.0,426.0,104.0,14.4,0,5,7,1,2026-05-02T04:23:18.727867+05:30
Meerut,Uttar Pradesh,28.9845,77.7064,23.0,71,0.0,976.3,7.5,34.2,165,206.8,54.5,8.7,390.0,106.0,16.6,3,5,7,1,2026-05-02T04:23:18.727873+05:30
Agra,Uttar Pradesh,27.1767,78.0081,26.0,60,0.0,982.5,7.95,38.2,744,853.1,116.4,7.0,362.0,100.0,10.2,4,5,7,1,2026-05-02T04:23:18.727880+05:30
Varanasi,Uttar Pradesh,25.3176,82.9739,23.1,81,0.0,994.1,8.6,29.2,96,54.1,42.8,13.1,446.0,87.0,13.9,3,5,7,1,2026-05-02T04:23:18.727887+05:30
Prayagraj,Uttar Pradesh,25.4358,81.8463,24.0,73,0.0,991.9,8.5,28.8,97,52.9,41.2,12.6,452.0,90.0,11.0,3,5,7,1,2026-05-02T04:23:18.727896+05:30
Gorakhpur,Uttar Pradesh,26.7606,83.3732,21.0,96,0.0,994.5,8.45,28.4,76,27.0,24.7,11.1,500.0,78.0,6.7,3,5,7,1,2026-05-02T04:23:18.727903+05:30
Bareilly,Uttar Pradesh,28.367,79.4304,22.4,77,0.0,982.6,7.9,32.8,100,85.9,37.0,7.6,334.0,86.0,4.9,3,5,7,1,2026-05-02T04:23:18.727909+05:30
Aligarh,Uttar Pradesh,27.8974,78.088,24.2,66,0.0,980.3,7.75,40.3,593,497.3,78.7,7.7,353.0,101.0,12.7,3,5,7,1,2026-05-02T04:23:18.727916+05:30
Moradabad,Uttar Pradesh,28.8386,78.7733,22.5,77,0.0,979.3,7.7,39.6,116,82.2,42.3,9.8,326.0,96.0,10.4,3,5,7,1,2026-05-02T04:23:18.727922+05:30
Saharanpur,Uttar Pradesh,29.9637,77.546,21.9,78,0.0,970.7,7.3,34.6,118,82.4,48.1,15.3,389.0,63.0,8.8,3,5,7,1,2026-05-02T04:23:18.727928+05:30
Jhansi,Uttar Pradesh,25.4484,78.5685,24.9,62,0.0,972.4,8.4,41.0,72,64.0,27.4,6.0,278.0,64.0,4.6,3,5,7,1,2026-05-02T04:23:21.967927+05:30
Surat,Gujarat,21.1702,72.8311,28.0,84,0.0,1003.2,7.7,54.0,63,36.4,18.4,17.7,252.0,54.0,30.3,7,5,4,1,2026-05-02T04:23:21.967958+05:30
Vadodara,Gujarat,22.3072,73.1812,27.5,86,0.0,1000.3,8.05,49.7,54,22.6,12.5,8.8,187.0,55.0,11.0,7,5,4,1,2026-05-02T04:23:21.967968+05:30
Rajkot,Gujarat,22.3039,70.8022,26.1,86,0.0,989.4,7.75,56.9,49,22.1,10.3,3.2,151.0,63.0,3.9,7,5,7,1,2026-05-02T04:23:21.967976+05:30
Thane,Maharashtra,19.2183,72.9781,26.9,85,0.0,1005.4,7.95,38.9,68,69.6,22.2,11.7,245.0,59.0,19.6,7,5,4,1,2026-05-02T04:23:21.967984+05:30
Nagpur,Maharashtra,21.1458,79.0882,29.6,32,0.0,968.6,8.9,41.8,80,24.7,16.6,10.4,229.0,68.0,11.3,4,5,7,0,2026-05-02T04:23:21.967991+05:30
Nashik,Maharashtra,19.9975,73.7898,22.4,92,0.0,942.5,8.25,47.9,61,49.9,20.4,12.5,203.0,46.0,11.4,3,5,7,1,2026-05-02T04:23:21.967999+05:30
Aurangabad,Maharashtra,19.8762,75.3433,24.6,66,0.0,941.5,9.05,44.3,54,36.2,15.3,11.3,187.0,52.0,12.0,3,5,7,1,2026-05-02T04:23:21.968006+05:30
Solapur,Maharashtra,17.6599,75.9064,26.4,51,0.0,954.9,9.05,42.1,51,26.5,11.8,6.8,173.0,55.0,3.8,4,5,7,0,2026-05-02T04:23:21.968013+05:30
Kolhapur,Maharashtra,16.705,74.2433,21.6,82,0.0,945.3,8.95,49.3,60,41.1,19.0,12.5,176.0,38.0,2.2,3,5,7,1,2026-05-02T04:23:21.968020+05:30
Goa,Goa,15.2993,74.124,24.7,97,0.0,996.3,8.9,40.3,64,48.4,28.9,14.1,284.0,53.0,3.1,3,5,7,1,2026-05-02T04:23:21.968027+05:30
Jodhpur,Rajasthan,26.2389,73.0243,29.8,44,0.0,975.8,8.35,40.7,128,146.2,24.4,3.3,174.0,69.0,2.8,4,5,7,1,2026-05-02T04:23:21.968035+05:30
Udaipur,Rajasthan,24.5854,73.7125,25.6,61,0.0,941.2,8.8,40.7,53,21.2,13.4,6.1,184.0,63.0,8.8,7,5,7,1,2026-05-02T04:23:21.968041+05:30
Kota,Rajasthan,25.2138,75.8648,29.8,44,0.0,972.5,8.35,40.3,63,28.6,12.0,2.0,215.0,92.0,5.2,4,5,7,1,2026-05-02T04:23:21.968049+05:30
Bikaner,Rajasthan,28.0229,73.3119,28.2,29,0.0,973.7,8.3,34.6,72,54.4,17.2,2.6,205.0,94.0,4.1,4,5,7,0,2026-05-02T04:23:21.968056+05:30
Ajmer,Rajasthan,26.4499,74.6399,29.0,35,0.0,948.6,8.3,47.2,62,52.9,15.7,2.9,184.0,74.0,3.4,4,5,7,0,2026-05-02T04:23:21.968063+05:30
Gwalior,Madhya Pradesh,26.2183,78.1828,25.5,56,0.0,977.6,8.15,44.6,84,143.0,41.3,4.9,275.0,95.0,5.7,4,5,7,0,2026-05-02T04:23:21.968069+05:30
Indore,Madhya Pradesh,22.7196,75.8577,25.9,70,0.0,944.0,7.95,49.3,57,18.3,10.8,4.1,169.0,79.0,11.2,7,5,7,1,2026-05-02T04:23:21.968076+05:30
Bhopal,Madhya Pradesh,23.2599,77.4126,28.4,45,0.0,949.0,8.7,64.4,71,26.5,16.6,4.6,193.0,73.0,5.2,4,5,7,0,2026-05-02T04:23:21.968083+05:30
Jabalpur,Madhya Pradesh,23.1815,79.9864,26.1,45,0.0,956.0,8.85,50.0,80,74.5,27.4,17.4,204.0,50.0,4.3,4,5,7,0,2026-05-02T04:23:21.968089+05:30
Ujjain,Madhya Pradesh,23.1765,75.7885,25.9,71,0.0,949.5,8.55,47.5,56,19.2,10.8,4.2,169.0,71.0,10.6,7,5,7,1,2026-05-02T04:23:21.968097+05:30
Visakhapatnam,Andhra Pradesh,17.6868,83.2185,26.6,87,0.0,1001.2,9.1,51.8,60,21.1,16.3,17.3,306.0,60.0,2.8,7,5,4,1,2026-05-02T04:23:21.968104+05:30
Vijayawada,Andhra Pradesh,16.5062,80.648,28.0,90,0.0,999.0,9.2,36.7,69,16.5,13.4,5.2,200.0,92.0,6.9,7,5,7,1,2026-05-02T04:23:21.968111+05:30
Guntur,Andhra Pradesh,16.3067,80.4365,29.0,87,0.0,1000.0,9.2,40.0,70,16.6,14.8,6.5,219.0,101.0,9.1,7,5,4,1,2026-05-02T04:23:21.968119+05:30
Nellore,Andhra Pradesh,14.4426,79.9865,29.8,68,0.0,1002.1,9.2,49.0,89,26.3,24.6,8.0,270.0,110.0,12.4,7,5,4,1,2026-05-02T04:23:21.968126+05:30
Kurnool,Andhra Pradesh,15.8281,78.0373,29.1,45,0.0,974.1,9.2,32.0,61,17.2,11.6,10.8,202.0,53.0,2.7,4,5,7,0,2026-05-02T04:23:21.968134+05:30
Kakinada,Andhra Pradesh,16.9891,82.2475,27.9,98,0.0,1004.8,9.15,45.0,51,16.0,10.8,2.6,218.0,63.0,1.6,7,5,4,1,2026-05-02T04:23:21.968141+05:30
Tirupati,Andhra Pradesh,13.6288,79.4192,28.2,66,0.0,988.5,9.25,47.9,94,35.7,33.5,17.1,353.0,70.0,10.8,7,5,7,1,2026-05-02T04:23:21.968148+05:30
Warangal,Telangana,17.9689,79.5941,26.2,81,0.0,975.0,9.15,40.0,82,37.1,32.7,22.8,365.0,48.0,7.3,7,5,7,1,2026-05-02T04:23:21.968155+05:30
Nizamabad,Telangana,18.6725,78.0941,28.6,36,0.0,961.4,9.1,32.0,68,25.3,18.9,14.1,219.0,58.0,5.8,4,5,7,0,2026-05-02T04:23:21.968161+05:30
Mysore,Karnataka,12.2958,76.6396,21.9,94,0.0,926.5,9.4,43.9,79,30.5,26.9,13.4,255.0,53.0,2.1,3,5,7,1,2026-05-02T04:23:21.968168+05:30
Mangalore,Karnataka,12.9141,74.856,27.6,87,0.0,1005.0,9.05,43.2,69,33.4,26.1,17.0,365.0,32.0,3.3,7,5,4,1,2026-05-02T04:23:21.968175+05:30
Hubli-Dharwad,Karnataka,15.3647,75.124,21.5,98,0.0,938.7,9.2,48.6,55,22.5,16.5,6.6,190.0,55.0,1.4,3,5,7,1,2026-05-02T04:23:21.968182+05:30
Belgaum,Karnataka,15.8497,74.4977,20.2,89,0.0,922.7,9.2,44.6,56,36.2,18.8,11.3,160.0,44.0,0.6,3,5,7,1,2026-05-02T04:23:25.212863+05:30
Coimbatore,Tamil Nadu,11.0168,76.9558,25.5,87,0.0,959.7,9.0,53.3,67,23.9,20.6,8.3,249.0,60.0,3.5,7,5,7,1,2026-05-02T04:23:25.212891+05:30
Madurai,Tamil Nadu,9.9252,78.1198,28.5,84,0.0,990.8,8.95,52.2,71,28.2,26.3,35.7,416.0,6.0,6.0,7,5,7,1,2026-05-02T04:23:25.212901+05:30
Trichy,Tamil Nadu,10.7905,78.7047,28.6,81,0.0,997.5,9.1,45.7,68,18.7,17.8,19.8,321.0,43.0,5.5,7,5,7,1,2026-05-02T04:23:25.212910+05:30
Salem,Tamil Nadu,11.6643,78.146,28.1,65,0.0,975.6,9.3,58.3,95,29.2,27.2,21.3,370.0,53.0,8.0,7,5,7,1,2026-05-02T04:23:25.212917+05:30
Tirunelveli,Tamil Nadu,8.7139,77.7567,27.8,74,0.0,1000.9,8.95,36.4,50,22.8,21.3,9.5,382.0,48.0,1.9,7,5,4,1,2026-05-02T04:23:25.212924+05:30
Vellore,Tamil Nadu,12.9165,79.1325,27.8,75,0.0,981.9,9.3,39.2,100,31.3,28.8,10.4,321.0,78.0,8.6,7,5,7,1,2026-05-02T04:23:25.212931+05:30
Erode,Tamil Nadu,11.341,77.7172,27.5,77,0.0,987.1,9.25,51.8,75,24.6,22.4,19.1,278.0,43.0,4.1,7,5,7,1,2026-05-02T04:23:25.212937+05:30
Kochi,Kerala,9.9312,76.2673,26.5,94,0.0,1007.3,8.8,31.7,68,32.9,30.3,25.2,429.0,18.0,4.7,7,5,4,1,2026-05-02T04:23:25.212944+05:30
Thiruvananthapuram,Kerala,8.5241,76.9366,25.6,97,0.0,1006.4,7.35,35.3,40,18.6,13.3,5.3,400.0,72.0,2.9,7,5,4,1,2026-05-02T04:23:25.212950+05:30
Kozhikode,Kerala,11.2588,75.7804,25.9,95,0.0,1006.6,8.35,44.6,66,30.2,19.0,3.6,776.0,75.0,1.5,7,5,4,1,2026-05-02T04:23:25.212957+05:30
Thrissur,Kerala,10.5276,76.2144,25.8,98,0.0,1005.7,8.15,35.3,72,32.1,26.2,17.7,356.0,33.0,3.6,7,5,4,1,2026-05-02T04:23:25.212964+05:30
Kannur,Kerala,11.8745,75.3704,27.0,90,0.0,1005.5,9.05,48.6,75,40.5,32.7,25.6,754.0,24.0,2.2,7,5,4,1,2026-05-02T04:23:25.212971+05:30
Patna,Bihar,25.5941,85.1376,20.7,95,0.0,997.8,8.7,26.6,94,42.4,36.1,15.2,394.0,65.0,9.7,3,5,7,1,2026-05-02T04:23:25.212977+05:30
Gaya,Bihar,24.7914,85.0002,21.4,90,0.0,990.5,8.8,27.7,92,49.9,34.7,14.1,376.0,85.0,10.4,3,5,7,1,2026-05-02T04:23:25.212984+05:30
Muzaffarpur,Bihar,26.1209,85.3647,20.1,98,0.0,998.0,8.7,28.1,84,40.7,36.8,13.3,408.0,63.0,8.8,3,5,7,1,2026-05-02T04:23:25.212989+05:30
Bhagalpur,Bihar,25.2425,87.0117,21.0,89,0.0,998.3,8.65,30.2,89,50.2,43.2,12.2,266.0,77.0,10.9,3,5,7,1,2026-05-02T04:23:25.212996+05:30
Ranchi,Jharkhand,23.3441,85.3096,21.0,66,0.0,933.0,9.2,44.3,95,98.3,48.0,39.4,263.0,52.0,15.0,3,5,7,0,2026-05-02T04:23:25.213003+05:30
Jamshedpur,Jharkhand,22.8046,86.2029,22.5,91,0.0,986.5,9.05,61.6,97,43.1,37.3,28.7,597.0,44.0,24.9,3,5,7,1,2026-05-02T04:23:25.213009+05:30
Dhanbad,Jharkhand,23.7957,86.4304,21.5,90,0.0,975.8,9.0,29.9,141,65.2,58.0,40.1,1022.0,61.0,52.9,3,5,7,1,2026-05-02T04:23:25.213016+05:30
Bokaro,Jharkhand,23.6693,86.1511,20.7,100,0.0,979.6,8.8,36.4,133,74.7,68.0,46.9,3498.0,44.0,69.4,3,5,7,1,2026-05-02T04:23:25.213022+05:30
Bhubaneswar,Odisha,20.2961,85.8245,24.6,96,0.0,999.0,9.1,46.1,56,11.7,9.4,5.1,205.0,50.0,3.3,3,5,7,1,2026-05-02T04:23:25.213028+05:30
Cuttack,Odisha,20.4625,85.8828,25.0,95,0.0,1000.8,9.15,51.8,56,11.7,9.4,5.1,212.0,50.0,3.3,7,5,4,1,2026-05-02T04:23:25.213034+05:30
Rourkela,Odisha,22.2604,84.8536,22.0,81,0.0,980.9,8.6,47.5,114,99.2,47.6,25.6,354.0,74.0,48.8,3,5,7,1,2026-05-02T04:23:25.213040+05:30
Raipur,Chhattisgarh,21.2514,81.6296,27.8,38,0.0,969.5,9.0,50.0,126,85.9,49.9,41.6,401.0,43.0,7.0,4,5,7,0,2026-05-02T04:23:25.213047+05:30
Bhilai,Chhattisgarh,21.1938,81.3509,27.5,42,0.0,969.9,9.0,48.2,118,92.2,51.8,47.9,451.0,33.0,7.3,4,5,7,0,2026-05-02T04:23:25.213053+05:30
Guwahati,Assam,26.1158,91.7086,19.9,99,0.0,1000.7,7.0,18.0,62,15.5,14.6,8.4,440.0,53.0,1.5,3,10,4,1,2026-05-02T04:23:25.213059+05:30
Agartala,Tripura,23.8315,91.2868,21.4,96,0.0,1004.4,8.55,36.7,60,6.0,5.0,7.8,182.0,58.0,1.5,3,5,4,1,2026-05-02T04:23:25.213066+05:30
Shillong,Meghalaya,25.5788,91.8933,13.2,94,0.0,852.0,6.8,34.9,48,7.2,6.8,4.7,258.0,81.0,0.9,3,10,7,0,2026-05-02T04:23:25.213073+05:30
Imphal,Manipur,24.817,93.9368,16.3,100,0.0,920.8,6.3,33.1,70,21.5,20.5,9.9,367.0,47.0,1.8,3,10,7,1,2026-05-02T04:23:25.213079+05:30
Aizawl,Mizoram,23.7271,92.7176,14.8,97,0.0,889.2,8.95,38.9,33,4.4,3.1,2.8,187.0,57.0,0.3,3,10,7,0,2026-05-02T04:23:25.213086+05:30
Kohima,Nagaland,25.6701,94.1077,14.4,93,0.0,851.4,6.65,29.5,53,9.9,8.5,5.6,262.0,61.0,0.7,3,10,7,0,2026-05-02T04:23:25.213092+05:30
Gangtok,Sikkim,27.3314,88.6138,11.0,93,0.0,832.2,3.9,31.0,51,19.9,14.1,6.3,438.0,99.0,0.6,3,10,3,0,2026-05-02T04:23:25.213099+05:30
Siliguri,West Bengal,26.7271,88.3953,19.5,98,0.4,991.2,6.05,24.1,71,14.0,11.0,8.2,292.0,93.0,1.7,6,10,7,1,2026-05-02T04:23:28.467780+05:30
Durgapur,West Bengal,23.5204,87.3119,22.5,94,0.0,991.3,8.9,31.0,129,53.7,46.9,24.1,534.0,78.0,30.3,3,5,7,1,2026-05-02T04:23:28.467810+05:30
Asansol,West Bengal,23.6739,86.9524,22.0,96,0.0,989.9,8.95,29.5,123,51.5,44.5,24.0,815.0,83.0,35.2,3,5,7,1,2026-05-02T04:23:28.467819+05:30
Pondicherry,Puducherry,11.9139,79.8145,28.6,85,0.0,1005.7,9.15,53.3,54,8.1,6.8,8.8,293.0,63.0,7.0,7,5,4,1,2026-05-02T04:23:28.467828+05:30
Port Blair,Andaman and Nicobar Islands,11.6234,92.7265,24.5,92,0.0,1005.9,9.0,31.3,28,10.9,7.6,0.4,209.0,60.0,0.2,3,5,4,1,2026-05-02T04:23:28.467835+05:30
Haridwar,Uttarakhand,29.9457,78.1642,19.4,85,0.0,969.3,7.4,30.6,116,74.7,45.8,14.7,279.0,57.0,5.9,3,10,7,1,2026-05-02T04:23:28.467842+05:30
Rishikesh,Uttarakhand,30.0869,78.2676,17.5,92,0.0,961.6,7.5,24.8,108,76.6,39.6,7.4,304.0,85.0,3.5,3,10,7,1,2026-05-02T04:23:28.467850+05:30
Nainital,Uttarakhand,29.3919,79.4542,10.5,95,0.0,799.1,7.85,42.1,95,78.7,32.8,16.8,270.0,59.0,3.2,3,10,7,0,2026-05-02T04:23:28.467857+05:30
Mussoorie,Uttarakhand,30.4599,78.0664,11.3,86,0.0,796.7,7.9,52.9,112,67.8,37.1,19.9,279.0,58.0,6.6,3,10,7,0,2026-05-02T04:23:28.467864+05:30
Dharamshala,Himachal Pradesh,32.219,76.3234,19.4,50,0.0,863.7,8.25,48.2,43,7.3,5.2,9.5,222.0,49.0,0.2,0,5,7,0,2026-05-02T04:23:28.467872+05:30
Dalhousie,Himachal Pradesh,32.5387,75.971,7.6,87,0.0,795.1,8.5,42.5,59,19.6,16.4,27.3,299.0,24.0,1.0,3,10,7,0,2026-05-02T04:23:28.467879+05:30
Patiala,Punjab,30.3398,76.3869,23.2,70,0.0,972.5,7.5,35.6,431,605.4,94.1,9.4,478.0,91.0,14.8,3,5,7,1,2026-05-02T04:23:28.467886+05:30
Bhatinda,Punjab,30.211,74.9455,25.1,45,0.0,977.2,8.15,43.6,185,131.8,64.5,18.6,337.0,52.0,9.3,4,5,7,0,2026-05-02T04:23:28.467893+05:30
Rohtak,Haryana,28.8955,76.6066,24.6,59,0.0,975.8,7.65,28.1,516,631.4,111.5,15.1,593.0,104.0,22.2,0,5,7,0,2026-05-02T04:23:28.467900+05:30
Panipat,Haryana,29.3909,76.9635,22.9,70,0.0,974.8,7.45,29.2,840,782.3,115.0,14.3,395.0,90.0,17.2,3,5,7,1,2026-05-02T04:23:28.467907+05:30
Mathura,Uttar Pradesh,27.4924,77.6737,25.2,62,0.0,981.3,7.9,29.2,706,920.1,123.4,6.4,353.0,105.0,9.8,7,5,7,1,2026-05-02T04:23:28.467913+05:30
Vrindavan,Uttar Pradesh,27.5823,77.7027,25.2,61,0.0,981.8,7.85,28.8,706,920.1,123.4,6.4,351.0,105.0,9.8,7,5,7,1,2026-05-02T04:23:28.467920+05:30
Ayodhya,Uttar Pradesh,26.7922,82.1998,22.0,86,0.0,992.1,8.25,27.4,85,27.4,22.4,10.2,373.0,86.0,6.1,3,5,7,1,2026-05-02T04:23:28.467926+05:30
Ratlam,Madhya Pradesh,23.3315,75.0367,24.9,84,0.0,950.6,8.55,49.7,54,21.2,11.1,4.8,160.0,62.0,10.5,3,5,7,1,2026-05-02T04:23:28.467933+05:30
Sagar,Madhya Pradesh,23.8388,78.7378,24.5,38,0.0,944.1,8.7,45.0,64,27.9,18.6,18.7,207.0,45.0,4.8,0,5,7,0,2026-05-02T04:23:28.467939+05:30
Satna,Madhya Pradesh,24.6005,80.8322,23.5,63,0.0,965.8,8.75,60.1,74,47.3,25.0,11.0,315.0,103.0,9.3,3,5,7,1,2026-05-02T04:23:28.467945+05:30
Akola,Maharashtra,20.7002,77.0082,29.1,45,0.0,971.6,8.85,45.0,54,18.5,10.7,5.8,184.0,70.0,15.5,4,5,7,0,2026-05-02T04:23:28.467952+05:30
Amravati,Maharashtra,20.9374,77.7796,29.2,47,0.0,963.7,8.9,41.0,54,20.8,12.2,6.4,194.0,76.0,18.1,4,5,7,1,2026-05-02T04:23:28.467959+05:30
Latur,Maharashtra,18.4088,76.5604,26.4,46,0.0,937.2,9.05,43.6,58,25.4,12.7,6.3,189.0,71.0,4.0,4,5,7,0,2026-05-02T04:23:28.467966+05:30
Nanded,Maharashtra,19.1383,77.3091,29.4,43,0.0,965.5,9.0,36.0,59,20.4,13.4,7.7,177.0,69.0,6.8,4,5,7,0,2026-05-02T04:23:28.467973+05:30
Gulbarga,Karnataka,17.3297,76.8343,27.7,46,0.0,956.0,9.1,42.1,54,20.9,11.0,5.4,171.0,66.0,3.6,4,5,7,0,2026-05-02T04:23:28.467979+05:30
Bidar,Karnataka,17.9104,77.5199,27.3,40,0.0,933.0,9.15,30.2,66,30.2,22.4,23.1,182.0,43.0,5.6,4,5,7,0,2026-05-02T04:23:28.467985+05:30
Hospet,Karnataka,15.2689,76.3909,24.4,84,0.0,953.9,9.25,46.8,54,20.7,13.9,7.4,183.0,56.0,2.4,3,5,7,1,2026-05-02T04:23:28.467992+05:30
Tirupur,Tamil Nadu,11.1085,77.3411,26.4,85,0.0,973.1,9.25,61.6,76,27.0,24.3,20.3,202.0,40.0,5.1,7,5,7,1,2026-05-02T04:23:28.467998+05:30
Alappuzha,Kerala,9.4981,76.3388,27.0,92,0.0,1007.2,8.95,38.2,61,32.7,25.1,14.6,343.0,52.0,5.3,7,5,4,1,2026-05-02T04:23:28.468005+05:30
Munnar,Kerala,10.0889,77.0595,17.2,89,0.0,854.8,8.8,27.4,47,17.9,16.2,12.5,278.0,25.0,0.9,3,10,7,0,2026-05-02T04:23:28.468012+05:30
Silchar,Assam,24.8333,92.7789,20.2,98,0.0,1004.8,8.55,26.6,81,17.4,15.3,8.0,243.0,53.0,3.1,3,5,4,1,2026-05-02T04:23:28.468018+05:30
Dibrugarh,Assam,27.4728,94.912,19.9,98,0.3,994.3,8.3,20.9,61,22.2,18.2,17.4,340.0,23.0,1.3,6,10,7,1,2026-05-02T04:23:28.468025+05:30
