city,state,latitude,longitude,temp,humidity,rain,pressure,uv_index,wind_gusts,aqi,pm10,pm2_5,mosquito_risk,arthritis_risk,migraine_risk,frizz_risk,updated_at
Delhi,Delhi,28.6139,77.209,19.7,79,0.0,987.1,6.0,24.5,169,232.8,129.5,3,5,3,0,2026-03-08T07:58:11.266036+05:30
Mumbai,Maharashtra,19.076,72.8777,26.7,78,0.0,1010.2,7.5,25.2,99,40.9,38.0,7,0,4,1,2026-03-08T07:58:11.266078+05:30
Bangalore,Karnataka,12.9716,77.5946,20.5,83,0.0,913.1,9.25,29.9,109,68.7,63.3,3,5,7,1,2026-03-08T07:58:11.266093+05:30
Hyderabad,Telangana,17.385,78.4867,21.6,63,0.0,955.2,8.55,26.3,99,71.9,59.8,3,5,7,0,2026-03-08T07:58:11.266103+05:30
Chennai,Tamil Nadu,13.0827,80.2707,26.1,80,0.0,1010.6,8.95,32.8,82,37.3,27.6,7,0,4,1,2026-03-08T07:58:11.266111+05:30
Kolkata,West Bengal,22.5726,88.3639,24.5,92,0.0,1011.7,7.9,14.8,152,70.5,62.6,3,0,4,1,2026-03-08T07:58:11.266121+05:30
Pune,Maharashtra,18.5204,73.8567,21.7,57,0.0,950.2,8.05,29.9,107,82.7,81.0,0,5,7,0,2026-03-08T07:58:11.266133+05:30
Ahmedabad,Gujarat,23.0225,72.5714,20.3,75,0.0,1005.7,7.35,16.2,103,38.6,33.9,3,5,4,0,2026-03-08T07:58:11.266140+05:30
Jaipur,Rajasthan,26.9124,75.7873,22.0,57,0.0,963.9,6.8,24.8,82,61.2,40.5,0,5,7,0,2026-03-08T07:58:11.266148+05:30
Lucknow,Uttar Pradesh,26.8467,80.9462,21.7,89,0.0,998.3,6.5,22.0,177,199.8,168.1,3,5,7,1,2026-03-08T07:58:11.266156+05:30
Kanpur,Uttar Pradesh,26.4499,80.3319,20.1,96,0.0,996.8,6.5,18.0,172,183.5,143.0,3,5,7,1,2026-03-08T07:58:11.266164+05:30
Chandigarh,Chandigarh,30.7333,76.7794,19.5,83,0.0,972.2,5.9,31.3,156,66.8,58.7,3,10,3,1,2026-03-08T07:58:11.266172+05:30
Srinagar,Jammu and Kashmir,34.0837,74.7973,5.5,81,0.0,844.5,6.85,16.2,134,57.6,49.4,3,10,7,0,2026-03-08T07:58:11.266180+05:30
Jammu,Jammu and Kashmir,32.7266,74.857,17.5,70,0.0,976.6,6.35,31.7,136,36.3,33.1,3,5,7,0,2026-03-08T07:58:11.266187+05:30
Amritsar,Punjab,31.634,74.8723,19.8,91,0.0,985.0,6.1,23.8,162,137.4,121.1,3,10,7,1,2026-03-08T07:58:11.266193+05:30
Ludhiana,Punjab,30.901,75.8573,20.2,82,0.0,982.7,6.05,29.2,173,142.0,118.0,3,5,7,1,2026-03-08T07:58:11.266200+05:30
Jalandhar,Punjab,31.326,75.5762,19.4,88,0.0,984.0,6.3,27.4,170,150.4,126.7,3,10,7,1,2026-03-08T07:58:11.266208+05:30
Dehradun,Uttarakhand,30.6284,78.0322,14.3,55,0.0,832.1,6.3,37.1,104,15.4,12.8,0,5,7,0,2026-03-08T07:58:11.266215+05:30
Shimla,Himachal Pradesh,31.1048,77.1734,12.5,61,0.0,786.2,6.35,50.4,125,48.3,40.3,3,5,7,0,2026-03-08T07:58:11.266222+05:30
Manali,Himachal Pradesh,32.2396,77.1887,16.2,27,0.0,823.9,7.55,30.6,50,6.6,3.9,0,5,7,1,2026-03-08T07:58:11.266230+05:30
Gurgaon,Haryana,28.4595,77.0266,18.8,76,0.0,985.4,6.1,21.2,176,224.4,117.3,3,5,7,0,2026-03-08T07:58:11.266237+05:30
Noida,Uttar Pradesh,28.5355,77.391,18.7,86,0.0,988.6,6.0,24.1,176,224.4,117.3,3,10,3,1,2026-03-08T07:58:11.266245+05:30
Ghaziabad,Uttar Pradesh,28.6692,77.4538,18.9,89,0.0,986.8,6.0,23.8,169,197.4,114.3,3,10,3,1,2026-03-08T07:58:11.266252+05:30
Faridabad,Haryana,28.4089,77.3178,18.9,78,0.0,987.9,6.05,21.2,176,224.4,117.3,3,5,7,0,2026-03-08T07:58:11.266259+05:30
Meerut,Uttar Pradesh,28.9845,77.7064,18.6,97,0.0,985.5,5.85,28.8,169,197.4,114.3,3,10,3,1,2026-03-08T07:58:11.266265+05:30
Agra,Uttar Pradesh,27.1767,78.0081,17.9,97,0.0,992.4,6.35,16.9,161,168.1,82.0,3,10,7,1,2026-03-08T07:58:11.266272+05:30
Varanasi,Uttar Pradesh,25.3176,82.9739,21.5,95,0.0,1002.4,7.2,11.9,174,129.0,120.1,3,5,4,1,2026-03-08T07:58:11.266281+05:30
Prayagraj,Uttar Pradesh,25.4358,81.8463,21.6,88,0.0,1001.0,7.05,13.7,178,179.7,167.2,3,5,4,1,2026-03-08T07:58:11.266288+05:30
Gorakhpur,Uttar Pradesh,26.7606,83.3732,21.8,90,0.0,1002.0,6.9,18.7,174,120.6,114.1,3,5,4,1,2026-03-08T07:58:11.266295+05:30
Bareilly,Uttar Pradesh,28.367,79.4304,19.8,99,0.0,991.4,6.2,20.2,171,163.9,128.1,3,10,7,1,2026-03-08T07:58:11.266305+05:30
Aligarh,Uttar Pradesh,27.8974,78.088,18.8,95,0.0,990.0,6.1,23.0,171,223.1,124.8,3,10,7,1,2026-03-08T07:58:11.266312+05:30
Moradabad,Uttar Pradesh,28.8386,78.7733,19.2,100,0.0,988.0,6.05,24.1,179,192.3,171.4,3,10,7,1,2026-03-08T07:58:11.266319+05:30
Saharanpur,Uttar Pradesh,29.9637,77.546,18.8,99,0.0,979.5,5.65,36.4,172,130.9,115.3,3,10,3,1,2026-03-08T07:58:11.266325+05:30
Jhansi,Uttar Pradesh,25.4484,78.5685,19.7,75,0.0,982.7,7.0,25.9,114,69.8,40.9,3,5,7,0,2026-03-08T07:58:14.541276+05:30
Surat,Gujarat,21.1702,72.8311,23.4,67,0.0,1009.4,7.25,23.4,153,61.9,60.3,3,0,4,1,2026-03-08T07:58:14.541308+05:30
Vadodara,Gujarat,22.3072,73.1812,21.0,69,0.0,1007.7,7.35,16.6,127,41.7,39.6,3,5,4,0,2026-03-08T07:58:14.541319+05:30
Rajkot,Gujarat,22.3039,70.8022,20.0,90,0.0,997.9,7.15,18.7,74,92.7,29.0,3,5,7,1,2026-03-08T07:58:14.541329+05:30
Thane,Maharashtra,19.2183,72.9781,23.1,84,0.0,1009.7,7.5,32.8,99,40.9,38.0,3,0,4,1,2026-03-08T07:58:14.541337+05:30
Nagpur,Maharashtra,21.1458,79.0882,22.0,55,0.0,976.5,7.9,26.3,69,43.7,29.9,0,5,7,0,2026-03-08T07:58:14.541346+05:30
Nashik,Maharashtra,19.9975,73.7898,22.2,58,0.0,947.6,7.7,29.2,93,36.3,36.0,0,5,7,0,2026-03-08T07:58:14.541354+05:30
Aurangabad,Maharashtra,19.8762,75.3433,22.0,54,0.0,946.1,8.2,31.7,78,34.9,34.2,0,5,7,0,2026-03-08T07:58:14.541362+05:30
Solapur,Maharashtra,17.6599,75.9064,20.4,72,0.0,958.9,8.45,19.1,65,36.7,31.7,3,5,7,0,2026-03-08T07:58:14.541370+05:30
Kolhapur,Maharashtra,16.705,74.2433,21.2,56,0.0,949.0,8.6,33.1,131,79.9,78.9,0,5,7,0,2026-03-08T07:58:14.541378+05:30
Goa,Goa,15.2993,74.124,23.3,90,0.0,999.0,8.65,36.4,137,69.4,67.5,3,5,7,1,2026-03-08T07:58:14.541386+05:30
Jodhpur,Rajasthan,26.2389,73.0243,22.5,58,0.0,987.3,7.05,16.9,63,64.3,21.5,0,5,7,0,2026-03-08T07:58:14.541395+05:30
Udaipur,Rajasthan,24.5854,73.7125,17.7,61,0.0,950.2,7.7,19.4,38,13.9,11.4,3,5,7,0,2026-03-08T07:58:14.541403+05:30
Kota,Rajasthan,25.2138,75.8648,18.4,73,0.0,983.2,7.1,9.0,89,48.8,47.1,3,5,7,0,2026-03-08T07:58:14.541411+05:30
Bikaner,Rajasthan,28.0229,73.3119,21.6,64,0.0,985.9,6.75,17.6,53,106.6,24.6,3,5,7,0,2026-03-08T07:58:14.541419+05:30
Ajmer,Rajasthan,26.4499,74.6399,21.0,41,0.0,958.4,7.05,17.6,69,29.8,28.3,0,5,7,0,2026-03-08T07:58:14.541427+05:30
Gwalior,Madhya Pradesh,26.2183,78.1828,20.6,74,0.0,988.0,6.7,23.8,108,101.5,40.3,3,5,7,0,2026-03-08T07:58:14.541434+05:30
Indore,Madhya Pradesh,22.7196,75.8577,18.2,65,0.0,951.0,7.65,20.9,76,40.0,39.2,3,5,7,0,2026-03-08T07:58:14.541442+05:30
Bhopal,Madhya Pradesh,23.2599,77.4126,20.2,60,0.0,957.2,7.5,21.6,66,53.8,25.4,0,5,7,0,2026-03-08T07:58:14.541450+05:30
Jabalpur,Madhya Pradesh,23.1815,79.9864,19.5,86,0.0,965.6,7.6,25.6,106,86.8,71.0,3,10,7,1,2026-03-08T07:58:14.541459+05:30
Ujjain,Madhya Pradesh,23.1765,75.7885,19.1,65,0.0,957.2,7.55,17.6,92,64.7,63.6,3,5,7,0,2026-03-08T07:58:14.541466+05:30
Visakhapatnam,Andhra Pradesh,17.6868,83.2185,26.3,82,0.0,1007.9,8.5,37.4,109,44.1,38.4,7,5,4,1,2026-03-08T07:58:14.541473+05:30
Vijayawada,Andhra Pradesh,16.5062,80.648,25.8,86,0.0,1006.4,8.6,28.8,112,45.5,39.7,7,5,4,1,2026-03-08T07:58:14.541479+05:30
Guntur,Andhra Pradesh,16.3067,80.4365,25.6,89,0.0,1007.4,8.6,28.8,113,38.6,33.1,7,5,4,1,2026-03-08T07:58:14.541485+05:30
Nellore,Andhra Pradesh,14.4426,79.9865,24.9,88,0.0,1009.3,8.8,31.3,98,32.9,28.0,3,0,4,1,2026-03-08T07:58:14.541492+05:30
Kurnool,Andhra Pradesh,15.8281,78.0373,24.5,67,0.0,979.3,8.6,28.1,87,58.0,50.3,3,5,7,1,2026-03-08T07:58:14.541500+05:30
Kakinada,Andhra Pradesh,16.9891,82.2475,26.1,85,0.0,1011.6,8.55,32.0,87,38.2,30.0,7,0,4,1,2026-03-08T07:58:14.541506+05:30
Tirupati,Andhra Pradesh,13.6288,79.4192,22.2,91,0.0,994.9,8.95,29.2,129,57.0,51.1,3,5,7,1,2026-03-08T07:58:14.541512+05:30
Warangal,Telangana,17.9689,79.5941,23.2,90,0.0,981.9,8.4,27.7,112,48.9,45.5,3,5,7,1,2026-03-08T07:58:14.541519+05:30
Nizamabad,Telangana,18.6725,78.0941,22.5,61,0.0,967.1,8.25,33.5,93,44.9,33.4,3,5,7,0,2026-03-08T07:58:14.541525+05:30
Mysore,Karnataka,12.2958,76.6396,21.5,94,0.0,930.0,9.25,31.7,123,68.9,68.0,3,5,7,1,2026-03-08T07:58:14.541531+05:30
Mangalore,Karnataka,12.9141,74.856,27.5,85,0.0,1008.0,8.85,25.2,124,45.8,42.8,7,0,4,1,2026-03-08T07:58:14.541537+05:30
Hubli-Dharwad,Karnataka,15.3647,75.124,20.0,88,0.0,941.8,8.8,23.4,106,56.3,55.3,3,5,7,1,2026-03-08T07:58:14.541543+05:30
Belgaum,Karnataka,15.8497,74.4977,21.2,62,0.0,926.4,8.85,35.6,109,62.4,60.1,3,5,7,0,2026-03-08T07:58:17.830219+05:30
Coimbatore,Tamil Nadu,11.0168,76.9558,24.4,78,0.0,964.2,9.2,39.6,124,64.7,62.9,3,5,7,1,2026-03-08T07:58:17.830248+05:30
Madurai,Tamil Nadu,9.9252,78.1198,24.4,91,0.0,996.1,9.15,29.9,98,54.1,49.1,3,5,7,1,2026-03-08T07:58:17.830258+05:30
Trichy,Tamil Nadu,10.7905,78.7047,25.5,91,0.0,1003.2,9.05,27.7,97,48.5,44.1,7,5,4,1,2026-03-08T07:58:17.830267+05:30
Salem,Tamil Nadu,11.6643,78.146,24.8,85,0.0,980.2,9.1,21.2,105,61.9,58.2,3,5,7,1,2026-03-08T07:58:17.830274+05:30
Tirunelveli,Tamil Nadu,8.7139,77.7567,24.6,83,0.0,1005.9,9.15,37.4,102,52.0,50.9,3,5,4,1,2026-03-08T07:58:17.830281+05:30
Vellore,Tamil Nadu,12.9165,79.1325,22.1,93,0.0,987.8,9.05,35.6,142,89.9,85.0,3,5,7,1,2026-03-08T07:58:17.830288+05:30
Erode,Tamil Nadu,11.341,77.7172,25.5,86,0.0,992.1,9.1,21.2,94,34.3,31.2,7,5,7,1,2026-03-08T07:58:17.830296+05:30
Kochi,Kerala,9.9312,76.2673,27.4,86,0.0,1009.9,8.95,33.8,134,66.4,65.4,7,0,4,1,2026-03-08T07:58:17.830302+05:30
Thiruvananthapuram,Kerala,8.5241,76.9366,27.3,82,0.0,1009.4,9.05,27.0,88,34.2,32.9,7,0,4,1,2026-03-08T07:58:17.830309+05:30
Kozhikode,Kerala,11.2588,75.7804,27.4,88,0.0,1009.4,8.8,28.8,106,32.6,30.9,7,0,4,1,2026-03-08T07:58:17.830316+05:30
Thrissur,Kerala,10.5276,76.2144,25.9,92,0.0,1008.6,9.0,35.6,128,73.3,72.2,7,0,4,1,2026-03-08T07:58:17.830324+05:30
Kannur,Kerala,11.8745,75.3704,27.5,83,0.0,1008.4,8.9,28.8,124,46.2,44.2,7,0,4,1,2026-03-08T07:58:17.830331+05:30
Patna,Bihar,25.5941,85.1376,24.4,77,0.0,1005.4,7.35,17.6,167,142.5,132.7,3,5,4,1,2026-03-08T07:58:17.830338+05:30
Gaya,Bihar,24.7914,85.0002,24.4,77,0.0,998.5,7.45,18.4,157,91.7,85.4,3,5,7,1,2026-03-08T07:58:17.830345+05:30
Muzaffarpur,Bihar,26.1209,85.3647,23.7,79,0.0,1005.7,7.3,15.8,172,149.9,142.5,3,5,4,1,2026-03-08T07:58:17.830351+05:30
Bhagalpur,Bihar,25.2425,87.0117,24.1,80,0.0,1006.7,7.35,15.1,162,96.9,85.7,3,5,4,1,2026-03-08T07:58:17.830357+05:30
Ranchi,Jharkhand,23.3441,85.3096,22.1,83,0.0,941.7,8.1,23.0,158,98.0,81.3,3,5,7,1,2026-03-08T07:58:17.830364+05:30
Jamshedpur,Jharkhand,22.8046,86.2029,24.7,89,0.0,995.8,8.0,19.8,153,84.3,75.7,3,5,7,1,2026-03-08T07:58:17.830371+05:30
Dhanbad,Jharkhand,23.7957,86.4304,24.7,79,0.0,984.5,7.5,20.5,165,115.3,109.9,3,5,7,1,2026-03-08T07:58:17.830377+05:30
Bokaro,Jharkhand,23.6693,86.1511,24.6,81,0.0,988.7,7.85,17.6,168,136.4,128.1,3,5,7,1,2026-03-08T07:58:17.830385+05:30
Bhubaneswar,Odisha,20.2961,85.8245,26.4,82,0.0,1007.4,8.3,32.8,139,41.1,34.6,7,5,4,1,2026-03-08T07:58:17.830391+05:30
Cuttack,Odisha,20.4625,85.8828,26.6,83,0.0,1009.3,8.3,27.7,139,41.1,34.6,7,0,4,1,2026-03-08T07:58:17.830398+05:30
Rourkela,Odisha,22.2604,84.8536,25.2,82,0.0,989.5,7.9,26.3,163,98.7,83.1,7,5,7,1,2026-03-08T07:58:17.830404+05:30
Raipur,Chhattisgarh,21.2514,81.6296,23.8,58,0.0,978.0,8.0,22.3,153,92.0,74.7,0,5,7,0,2026-03-08T07:58:17.830411+05:30
Bhilai,Chhattisgarh,21.1938,81.3509,23.4,61,0.0,978.3,8.0,22.0,150,90.3,68.7,3,5,7,0,2026-03-08T07:58:17.830418+05:30
Guwahati,Assam,26.1158,91.7086,24.7,74,0.0,1007.3,7.3,22.3,152,65.4,55.8,3,5,4,1,2026-03-08T07:58:17.830425+05:30
Agartala,Tripura,23.8315,91.2868,23.9,87,0.0,1012.5,7.7,22.0,152,70.8,62.9,3,0,4,1,2026-03-08T07:58:17.830431+05:30
Shillong,Meghalaya,25.5788,91.8933,16.6,58,0.0,861.1,7.65,26.6,123,56.3,44.1,0,5,7,0,2026-03-08T07:58:17.830438+05:30
Imphal,Manipur,24.817,93.9368,21.3,70,0.0,928.4,7.9,40.0,160,104.5,96.2,3,5,7,0,2026-03-08T07:58:17.830444+05:30
Aizawl,Mizoram,23.7271,92.7176,20.0,73,0.0,897.4,7.85,29.5,159,80.1,72.2,3,5,7,0,2026-03-08T07:58:17.830451+05:30
Kohima,Nagaland,25.6701,94.1077,17.4,72,0.0,860.0,7.0,45.0,158,97.3,89.6,3,5,7,0,2026-03-08T07:58:17.830457+05:30
Gangtok,Sikkim,27.3314,88.6138,14.4,86,0.0,841.3,5.65,16.9,157,90.1,77.1,3,10,3,0,2026-03-08T07:58:17.830464+05:30
Siliguri,West Bengal,26.7271,88.3953,23.1,61,0.0,999.6,7.3,17.6,157,98.3,88.9,3,5,7,0,2026-03-08T07:58:21.104905+05:30
Durgapur,West Bengal,23.5204,87.3119,24.9,85,0.0,1000.4,7.85,22.0,159,92.0,85.2,3,5,4,1,2026-03-08T07:58:21.104943+05:30
Asansol,West Bengal,23.6739,86.9524,25.0,84,0.0,998.7,7.85,19.1,158,85.2,79.6,7,5,7,1,2026-03-08T07:58:21.104953+05:30
Pondicherry,Puducherry,11.9139,79.8145,25.4,91,0.0,1012.0,8.95,32.4,77,39.8,30.4,7,0,4,1,2026-03-08T07:58:21.104960+05:30
Port Blair,Andaman and Nicobar Islands,11.6234,92.7265,26.7,76,0.0,1011.0,8.9,24.1,93,39.5,26.8,7,0,4,1,2026-03-08T07:58:21.104989+05:30
Haridwar,Uttarakhand,29.9457,78.1642,21.2,86,0.0,978.3,5.8,27.7,162,75.7,67.8,3,5,3,1,2026-03-08T07:58:21.104997+05:30
Rishikesh,Uttarakhand,30.0869,78.2676,21.2,76,0.0,971.1,5.85,24.5,159,89.9,74.7,3,5,3,1,2026-03-08T07:58:21.105005+05:30
Nainital,Uttarakhand,29.3919,79.4542,17.4,76,0.0,808.8,6.65,62.6,157,86.8,76.8,3,5,7,0,2026-03-08T07:58:21.105012+05:30
Mussoorie,Uttarakhand,30.4599,78.0664,16.7,51,0.0,805.3,6.2,46.1,159,53.6,48.1,0,5,7,0,2026-03-08T07:58:21.105019+05:30
Dharamshala,Himachal Pradesh,32.219,76.3234,21.3,29,0.0,872.8,6.4,28.1,59,12.9,7.1,0,5,7,0,2026-03-08T07:58:21.105025+05:30
Dalhousie,Himachal Pradesh,32.5387,75.971,18.2,26,0.0,807.3,6.65,25.6,107,31.3,27.2,0,5,7,1,2026-03-08T07:58:21.105033+05:30
Patiala,Punjab,30.3398,76.3869,18.8,88,0.0,981.9,5.75,29.9,167,130.9,100.4,3,10,3,1,2026-03-08T07:58:21.105040+05:30
Bhatinda,Punjab,30.211,74.9455,19.1,87,0.0,987.9,6.5,18.4,150,169.5,85.2,3,10,7,1,2026-03-08T07:58:21.105047+05:30
Rohtak,Haryana,28.8955,76.6066,17.3,88,0.0,985.8,6.0,22.7,171,271.0,140.2,3,10,3,0,2026-03-08T07:58:21.105054+05:30
Panipat,Haryana,29.3909,76.9635,17.8,98,0.0,984.4,5.8,28.4,171,219.8,132.2,3,10,3,1,2026-03-08T07:58:21.105061+05:30
Mathura,Uttar Pradesh,27.4924,77.6737,16.5,97,0.0,991.3,6.3,21.2,161,156.5,79.4,3,10,7,0,2026-03-08T07:58:21.105068+05:30
Vrindavan,Uttar Pradesh,27.5823,77.7027,17.5,98,0.0,991.7,6.25,22.0,161,156.5,79.4,3,10,7,1,2026-03-08T07:58:21.105074+05:30
Ayodhya,Uttar Pradesh,26.7922,82.1998,21.1,92,0.0,1000.2,6.7,13.7,180,183.0,168.1,3,5,4,1,2026-03-08T07:58:21.105081+05:30
Ratlam,Madhya Pradesh,23.3315,75.0367,16.7,87,0.0,957.4,7.5,11.9,84,60.5,59.6,3,10,7,0,2026-03-08T07:58:21.105088+05:30
Sagar,Madhya Pradesh,23.8388,78.7378,19.0,72,0.0,954.0,7.45,22.7,73,83.6,48.3,3,5,7,0,2026-03-08T07:58:21.105095+05:30
Satna,Madhya Pradesh,24.6005,80.8322,20.1,84,0.0,975.9,7.4,24.8,159,128.5,101.7,3,5,7,1,2026-03-08T07:58:21.105101+05:30
Akola,Maharashtra,20.7002,77.0082,21.6,66,0.0,978.2,7.95,15.8,79,37.0,29.1,3,5,7,0,2026-03-08T07:58:21.105108+05:30
Amravati,Maharashtra,20.9374,77.7796,19.8,69,0.0,970.2,7.9,22.3,82,37.7,26.5,3,5,7,0,2026-03-08T07:58:21.105116+05:30
Latur,Maharashtra,18.4088,76.5604,22.3,52,0.0,941.6,8.4,24.5,80,46.3,41.2,0,5,7,0,2026-03-08T07:58:21.105122+05:30
Nanded,Maharashtra,19.1383,77.3091,21.3,67,0.0,971.0,8.15,26.3,88,44.6,40.5,3,5,7,0,2026-03-08T07:58:21.105129+05:30
Gulbarga,Karnataka,17.3297,76.8343,24.7,50,0.0,960.7,8.5,26.3,71,43.1,36.2,0,5,7,0,2026-03-08T07:58:21.105135+05:30
Bidar,Karnataka,17.9104,77.5199,23.2,55,0.0,937.2,8.4,29.9,88,53.1,42.4,0,5,7,0,2026-03-08T07:58:21.105142+05:30
Hospet,Karnataka,15.2689,76.3909,22.5,80,0.0,957.9,8.8,23.4,88,43.1,37.6,3,5,7,1,2026-03-08T07:58:21.105148+05:30
Tirupur,Tamil Nadu,11.1085,77.3411,24.6,83,0.0,978.0,9.2,29.9,119,52.4,50.1,3,5,7,1,2026-03-08T07:58:21.105154+05:30
Alappuzha,Kerala,9.4981,76.3388,26.9,85,0.0,1010.1,9.0,29.2,123,53.1,51.7,7,0,4,1,2026-03-08T07:58:21.105160+05:30
Munnar,Kerala,10.0889,77.0595,19.7,72,0.0,857.2,9.5,25.2,98,47.6,42.1,3,5,7,0,2026-03-08T07:58:21.105167+05:30
Silchar,Assam,24.8333,92.7789,24.9,76,0.0,1011.0,7.6,23.4,162,111.5,100.1,3,0,4,1,2026-03-08T07:58:21.105174+05:30
Dibrugarh,Assam,27.4728,94.912,23.0,79,0.0,1001.6,6.7,25.9,160,73.3,65.4,3,5,4,1,2026-03-08T07:58:21.105181+05:30
