city,state,latitude,longitude,temp,humidity,rain,pressure,uv_index,wind_gusts,aqi,pm10,pm2_5,no2,co,o3,so2,mosquito_risk,arthritis_risk,migraine_risk,frizz_risk,updated_at
Delhi,Delhi,28.6139,77.209,32.4,42,0.0,978.8,7.75,30.6,551,855.0,176.0,33.9,292.0,55.0,18.3,0,5,7,1,2026-06-21T23:12:02.599383+05:30
Mumbai,Maharashtra,19.076,72.8777,29.9,68,0.0,1007.1,7.7,37.8,50,14.7,9.6,7.8,145.0,36.0,5.9,7,5,4,1,2026-06-21T23:12:02.599424+05:30
Bangalore,Karnataka,12.9716,77.5946,21.1,97,0.0,912.9,7.55,32.0,51,10.8,10.3,19.6,389.0,34.0,6.4,3,5,7,1,2026-06-21T23:12:02.599439+05:30
Hyderabad,Telangana,17.385,78.4867,28.6,64,0.0,953.3,9.0,31.3,67,28.3,23.9,21.3,475.0,47.0,6.5,7,5,7,1,2026-06-21T23:12:02.599449+05:30
Chennai,Tamil Nadu,13.0827,80.2707,28.5,86,0.0,1007.7,7.15,32.8,77,25.0,18.7,14.9,192.0,84.0,10.6,7,5,4,1,2026-06-21T23:12:02.599457+05:30
Kolkata,West Bengal,22.5726,88.3639,29.0,90,0.0,1003.1,6.5,28.4,104,37.4,33.5,9.5,394.0,113.0,10.1,7,5,4,1,2026-06-21T23:12:02.599465+05:30
Pune,Maharashtra,18.5204,73.8567,25.4,80,0.0,947.6,8.25,51.5,43,15.1,11.9,10.9,134.0,48.0,9.6,7,5,7,1,2026-06-21T23:12:02.599471+05:30
Ahmedabad,Gujarat,23.0225,72.5714,31.8,67,0.0,999.4,8.05,37.1,73,37.3,21.0,10.2,153.0,50.0,6.3,3,5,7,1,2026-06-21T23:12:02.599477+05:30
Jaipur,Rajasthan,26.9124,75.7873,27.6,64,0.0,956.7,7.45,41.8,119,186.3,54.8,14.1,300.0,45.0,6.1,7,5,7,1,2026-06-21T23:12:02.599483+05:30
Lucknow,Uttar Pradesh,26.8467,80.9462,34.3,41,0.0,989.1,8.2,39.2,272,315.7,83.6,11.4,194.0,77.0,6.3,0,5,7,1,2026-06-21T23:12:02.599494+05:30
Kanpur,Uttar Pradesh,26.4499,80.3319,34.5,39,0.0,987.6,8.3,44.6,384,371.6,78.2,11.2,158.0,66.0,5.4,0,5,7,1,2026-06-21T23:12:02.599501+05:30
Chandigarh,Chandigarh,30.7333,76.7794,29.9,45,0.0,963.5,7.8,39.6,101,34.1,30.9,21.7,498.0,80.0,10.3,4,5,7,1,2026-06-21T23:12:02.599508+05:30
Srinagar,Jammu and Kashmir,34.0837,74.7973,17.6,84,0.0,840.0,8.95,27.4,73,40.0,38.0,26.1,798.0,34.0,2.0,3,10,7,0,2026-06-21T23:12:02.599514+05:30
Jammu,Jammu and Kashmir,32.7266,74.857,29.9,39,0.0,967.1,8.6,36.7,74,35.0,30.9,34.9,518.0,49.0,5.4,4,5,7,0,2026-06-21T23:12:02.599521+05:30
Amritsar,Punjab,31.634,74.8723,28.7,67,0.0,975.3,8.45,25.2,119,70.1,48.8,26.1,474.0,71.0,11.2,7,5,7,1,2026-06-21T23:12:02.599527+05:30
Ludhiana,Punjab,30.901,75.8573,31.7,49,0.0,973.4,8.05,39.2,140,147.6,62.4,18.1,698.0,73.0,6.2,0,5,7,1,2026-06-21T23:12:02.599536+05:30
Jalandhar,Punjab,31.326,75.5762,31.1,53,0.0,974.3,8.2,33.1,140,117.8,58.1,24.2,710.0,69.0,7.5,0,5,7,1,2026-06-21T23:12:02.599542+05:30
Dehradun,Uttarakhand,30.6284,78.0322,17.1,85,0.0,827.2,8.25,32.0,90,27.6,21.0,19.8,280.0,70.0,1.5,3,10,7,0,2026-06-21T23:12:02.599548+05:30
Shimla,Himachal Pradesh,31.1048,77.1734,16.0,63,0.0,782.5,8.35,45.0,85,24.2,17.8,14.1,284.0,100.0,5.1,3,5,7,0,2026-06-21T23:12:02.599554+05:30
Manali,Himachal Pradesh,32.2396,77.1887,15.7,74,0.0,816.1,9.75,37.1,82,10.9,9.2,52.8,250.0,64.0,0.1,3,5,7,0,2026-06-21T23:12:02.599562+05:30
Gurgaon,Haryana,28.4595,77.0266,30.3,46,0.0,977.4,7.85,29.5,1230,733.9,143.4,36.8,299.0,37.0,13.8,0,5,7,1,2026-06-21T23:12:02.599568+05:30
Noida,Uttar Pradesh,28.5355,77.391,31.4,49,0.0,979.9,7.8,25.2,1230,733.9,143.4,36.8,440.0,37.0,13.8,0,5,7,1,2026-06-21T23:12:02.599575+05:30
Ghaziabad,Uttar Pradesh,28.6692,77.4538,31.1,51,0.0,978.0,7.8,27.7,457,752.5,162.1,35.4,374.0,60.0,20.2,0,5,7,1,2026-06-21T23:12:02.599580+05:30
Faridabad,Haryana,28.4089,77.3178,32.0,43,0.0,979.4,7.85,30.6,1230,733.9,143.4,36.8,299.0,37.0,13.8,0,5,7,1,2026-06-21T23:12:02.599586+05:30
Meerut,Uttar Pradesh,28.9845,77.7064,30.5,54,0.0,976.5,7.7,34.6,457,752.5,162.1,35.4,350.0,60.0,20.2,0,5,7,1,2026-06-21T23:12:02.599592+05:30
Agra,Uttar Pradesh,27.1767,78.0081,31.5,49,0.0,983.9,8.15,37.8,841,115.5,54.2,30.3,220.0,36.0,9.6,0,5,7,1,2026-06-21T23:12:02.599598+05:30
Varanasi,Uttar Pradesh,25.3176,82.9739,34.0,50,0.0,993.1,8.75,40.3,110,62.2,37.0,12.6,218.0,63.0,7.2,0,5,7,1,2026-06-21T23:12:02.599605+05:30
Prayagraj,Uttar Pradesh,25.4358,81.8463,35.1,42,0.0,991.6,8.7,41.0,121,52.4,32.8,11.9,195.0,62.0,7.0,0,5,10,1,2026-06-21T23:12:02.599611+05:30
Gorakhpur,Uttar Pradesh,26.7606,83.3732,32.1,55,0.0,992.4,8.65,37.1,160,166.2,89.9,30.0,359.0,61.0,14.6,0,5,7,1,2026-06-21T23:12:02.599618+05:30
Bareilly,Uttar Pradesh,28.367,79.4304,31.2,52,0.0,981.9,8.1,40.0,164,257.0,94.8,13.7,366.0,112.0,13.0,0,5,7,1,2026-06-21T23:12:02.599625+05:30
Aligarh,Uttar Pradesh,27.8974,78.088,30.6,51,0.0,981.2,8.0,37.1,805,493.6,92.9,18.1,315.0,58.0,6.3,0,5,7,1,2026-06-21T23:12:02.599631+05:30
Moradabad,Uttar Pradesh,28.8386,78.7733,30.4,58,0.0,978.6,7.95,39.2,172,327.8,111.1,23.1,380.0,79.0,13.3,0,5,7,1,2026-06-21T23:12:02.599637+05:30
Saharanpur,Uttar Pradesh,29.9637,77.546,29.9,48,0.0,970.4,7.45,36.4,165,448.9,109.9,16.0,343.0,89.0,10.2,4,5,7,1,2026-06-21T23:12:02.599643+05:30
Jhansi,Uttar Pradesh,25.4484,78.5685,31.0,55,0.0,975.0,8.3,42.1,98,73.6,35.9,7.0,145.0,53.0,2.1,0,5,7,1,2026-06-21T23:12:05.929544+05:30
Surat,Gujarat,21.1702,72.8311,29.8,76,0.0,1005.1,7.6,42.8,59,23.6,16.1,17.2,191.0,32.0,28.0,7,5,4,1,2026-06-21T23:12:05.929578+05:30
Vadodara,Gujarat,22.3072,73.1812,30.0,74,0.0,1002.0,8.0,43.9,55,18.2,13.2,14.3,181.0,32.0,15.1,7,5,4,1,2026-06-21T23:12:05.929589+05:30
Rajkot,Gujarat,22.3039,70.8022,29.5,68,0.0,992.0,7.5,40.3,69,44.6,19.3,4.0,102.0,47.0,3.6,7,5,7,1,2026-06-21T23:12:05.929598+05:30
Thane,Maharashtra,19.2183,72.9781,30.0,65,0.0,1006.6,7.7,37.4,50,14.7,9.6,7.8,145.0,36.0,5.9,7,5,4,1,2026-06-21T23:12:05.929606+05:30
Nagpur,Maharashtra,21.1458,79.0882,29.0,70,0.0,972.1,8.85,40.7,66,39.6,24.3,12.5,246.0,68.0,13.8,7,5,7,1,2026-06-21T23:12:05.929614+05:30
Nashik,Maharashtra,19.9975,73.7898,26.1,73,0.0,944.7,7.95,39.2,32,12.9,8.8,3.9,125.0,50.0,2.0,7,5,7,1,2026-06-21T23:12:05.929621+05:30
Aurangabad,Maharashtra,19.8762,75.3433,29.9,52,0.0,943.3,8.95,47.9,38,16.8,14.1,11.8,150.0,54.0,6.7,4,5,7,1,2026-06-21T23:12:05.929629+05:30
Solapur,Maharashtra,17.6599,75.9064,28.4,66,0.0,957.0,8.9,39.2,46,6.3,5.7,4.6,124.0,61.0,2.0,7,5,7,1,2026-06-21T23:12:05.929637+05:30
Kolhapur,Maharashtra,16.705,74.2433,25.0,86,0.0,947.8,8.05,40.3,34,9.4,8.8,7.6,181.0,39.0,3.0,7,5,7,1,2026-06-21T23:12:05.929645+05:30
Goa,Goa,15.2993,74.124,25.5,96,0.0,998.4,7.65,36.0,25,6.0,4.3,2.2,255.0,45.0,0.9,7,5,7,1,2026-06-21T23:12:05.929652+05:30
Jodhpur,Rajasthan,26.2389,73.0243,32.9,44,0.0,979.1,8.35,43.2,149,204.9,48.4,6.7,160.0,52.0,2.1,0,5,7,1,2026-06-21T23:12:05.929659+05:30
Udaipur,Rajasthan,24.5854,73.7125,28.6,53,0.0,944.2,8.8,41.4,72,51.2,23.5,5.4,128.0,62.0,2.6,4,5,7,1,2026-06-21T23:12:05.929667+05:30
Kota,Rajasthan,25.2138,75.8648,29.7,67,0.0,975.9,8.35,42.8,89,63.1,34.9,10.0,289.0,52.0,4.8,7,5,7,1,2026-06-21T23:12:05.929675+05:30
Bikaner,Rajasthan,28.0229,73.3119,29.9,51,0.0,976.6,8.45,37.8,154,181.6,51.9,3.6,153.0,62.0,2.3,4,5,7,1,2026-06-21T23:12:05.929682+05:30
Ajmer,Rajasthan,26.4499,74.6399,26.5,73,0.1,952.1,8.25,48.2,93,72.9,32.4,8.5,158.0,48.0,3.8,10,5,7,1,2026-06-21T23:12:05.929689+05:30
Gwalior,Madhya Pradesh,26.2183,78.1828,31.3,48,0.0,980.0,8.15,46.4,101,71.7,33.6,7.1,130.0,56.0,2.9,0,5,7,1,2026-06-21T23:12:05.929696+05:30
Indore,Madhya Pradesh,22.7196,75.8577,28.8,59,0.0,946.8,8.5,37.1,77,42.4,30.3,13.1,217.0,52.0,6.8,4,5,7,1,2026-06-21T23:12:05.929703+05:30
Bhopal,Madhya Pradesh,23.2599,77.4126,27.5,81,0.0,951.9,8.0,37.4,85,55.5,34.5,11.9,343.0,51.0,4.7,7,5,7,1,2026-06-21T23:12:05.929710+05:30
Jabalpur,Madhya Pradesh,23.1815,79.9864,30.5,57,0.0,959.6,8.3,37.4,76,34.9,25.1,13.5,245.0,54.0,4.6,0,5,7,1,2026-06-21T23:12:05.929717+05:30
Ujjain,Madhya Pradesh,23.1765,75.7885,29.8,51,0.0,952.3,7.8,40.3,73,38.6,26.5,6.3,212.0,64.0,5.2,4,5,7,1,2026-06-21T23:12:05.929725+05:30
Visakhapatnam,Andhra Pradesh,17.6868,83.2185,28.5,89,0.0,1002.0,4.75,39.2,73,26.3,23.8,20.6,248.0,72.0,32.1,7,5,0,1,2026-06-21T23:12:05.929732+05:30
Vijayawada,Andhra Pradesh,16.5062,80.648,28.3,73,0.0,1002.1,6.8,40.3,80,39.2,37.0,19.9,272.0,46.0,6.9,7,5,4,1,2026-06-21T23:12:05.929739+05:30
Guntur,Andhra Pradesh,16.3067,80.4365,28.5,75,0.0,1003.6,5.55,22.0,80,33.5,32.4,20.4,242.0,44.0,6.3,7,5,0,1,2026-06-21T23:12:05.929747+05:30
Nellore,Andhra Pradesh,14.4426,79.9865,29.0,80,0.0,1006.3,4.55,32.8,90,27.3,22.7,6.4,221.0,112.0,7.4,7,5,0,1,2026-06-21T23:12:05.929754+05:30
Kurnool,Andhra Pradesh,15.8281,78.0373,26.2,82,0.0,977.8,8.05,45.0,57,23.8,18.7,7.4,187.0,76.0,4.8,7,5,7,1,2026-06-21T23:12:05.929762+05:30
Kakinada,Andhra Pradesh,16.9891,82.2475,28.4,81,0.0,1006.3,2.85,42.8,71,31.7,25.8,6.1,290.0,107.0,6.6,7,5,0,1,2026-06-21T23:12:05.929769+05:30
Tirupati,Andhra Pradesh,13.6288,79.4192,27.0,84,0.0,992.1,7.9,22.3,75,26.8,23.2,14.0,230.0,69.0,3.2,7,5,7,1,2026-06-21T23:12:05.929777+05:30
Warangal,Telangana,17.9689,79.5941,28.4,64,0.0,978.3,7.8,34.2,74,37.5,32.9,15.6,266.0,51.0,5.8,7,5,7,1,2026-06-21T23:12:05.929784+05:30
Nizamabad,Telangana,18.6725,78.0941,29.6,66,0.0,964.1,8.7,36.0,64,28.4,25.7,12.7,192.0,65.0,4.5,7,5,7,1,2026-06-21T23:12:05.929791+05:30
Mysore,Karnataka,12.2958,76.6396,21.7,96,0.0,929.8,8.4,43.6,28,5.6,5.4,8.2,185.0,39.0,2.4,3,5,7,1,2026-06-21T23:12:05.929798+05:30
Mangalore,Karnataka,12.9141,74.856,25.3,97,0.0,1008.8,7.85,34.2,25,10.4,8.1,5.6,215.0,39.0,2.3,7,0,4,1,2026-06-21T23:12:05.929805+05:30
Hubli-Dharwad,Karnataka,15.3647,75.124,23.5,89,0.0,941.5,7.55,43.9,23,3.7,3.1,4.9,122.0,37.0,1.3,3,5,7,1,2026-06-21T23:12:05.929812+05:30
Belgaum,Karnataka,15.8497,74.4977,22.3,93,0.0,925.9,8.85,37.4,29,6.6,5.9,5.6,116.0,38.0,1.9,3,5,7,1,2026-06-21T23:12:09.252714+05:30
Coimbatore,Tamil Nadu,11.0168,76.9558,23.6,92,0.0,963.5,8.2,45.4,25,4.8,4.4,6.4,163.0,42.0,3.1,3,5,7,1,2026-06-21T23:12:09.252745+05:30
Madurai,Tamil Nadu,9.9252,78.1198,27.9,84,0.0,994.2,8.15,35.6,71,27.6,24.5,33.6,322.0,20.0,7.5,7,5,7,1,2026-06-21T23:12:09.252756+05:30
Trichy,Tamil Nadu,10.7905,78.7047,25.9,91,0.2,1001.5,8.25,29.2,58,18.2,15.3,12.0,262.0,62.0,3.7,10,5,4,1,2026-06-21T23:12:09.252765+05:30
Salem,Tamil Nadu,11.6643,78.146,25.2,96,0.0,978.8,7.85,22.3,63,17.6,16.1,15.6,274.0,50.0,5.8,7,5,7,1,2026-06-21T23:12:09.252774+05:30
Tirunelveli,Tamil Nadu,8.7139,77.7567,28.2,71,0.0,1004.8,8.55,30.6,29,7.7,6.5,5.7,201.0,39.0,1.6,7,5,4,1,2026-06-21T23:12:09.252781+05:30
Vellore,Tamil Nadu,12.9165,79.1325,25.7,86,0.0,985.7,6.05,28.1,84,27.9,23.8,16.8,312.0,65.0,5.2,7,5,7,1,2026-06-21T23:12:09.252788+05:30
Erode,Tamil Nadu,11.341,77.7172,26.4,79,0.0,990.8,8.7,45.4,44,10.9,10.0,11.5,172.0,42.0,3.6,7,5,7,1,2026-06-21T23:12:09.252796+05:30
Kochi,Kerala,9.9312,76.2673,24.9,97,0.0,1011.6,8.3,29.5,45,12.4,11.1,12.8,144.0,25.0,4.7,3,0,4,1,2026-06-21T23:12:09.252804+05:30
Thiruvananthapuram,Kerala,8.5241,76.9366,24.1,98,0.0,1011.4,8.0,31.7,27,7.5,4.8,2.5,184.0,52.0,1.1,3,0,4,1,2026-06-21T23:12:09.252811+05:30
Kozhikode,Kerala,11.2588,75.7804,24.7,98,0.0,1010.9,8.15,27.0,26,6.5,4.0,0.9,337.0,54.0,0.6,3,0,4,1,2026-06-21T23:12:09.252818+05:30
Thrissur,Kerala,10.5276,76.2144,24.4,99,0.1,1010.0,7.95,32.0,43,14.1,13.3,11.7,306.0,26.0,3.9,6,0,4,1,2026-06-21T23:12:09.252825+05:30
Kannur,Kerala,11.8745,75.3704,25.4,96,0.1,1009.7,8.35,30.6,21,8.9,7.0,6.5,221.0,37.0,2.0,10,0,4,1,2026-06-21T23:12:09.252832+05:30
Patna,Bihar,25.5941,85.1376,30.7,71,0.0,995.9,8.6,31.7,156,113.2,70.3,23.4,302.0,66.0,12.9,3,5,7,1,2026-06-21T23:12:09.252839+05:30
Gaya,Bihar,24.7914,85.0002,31.1,62,0.0,989.7,8.6,37.4,134,89.4,44.1,11.3,238.0,81.0,12.8,3,5,7,1,2026-06-21T23:12:09.252846+05:30
Muzaffarpur,Bihar,26.1209,85.3647,27.5,85,0.0,996.8,8.45,39.6,159,88.0,64.5,18.9,355.0,91.0,14.0,7,5,7,1,2026-06-21T23:12:09.252854+05:30
Bhagalpur,Bihar,25.2425,87.0117,28.7,88,0.0,997.5,8.4,28.8,127,67.1,49.1,13.2,230.0,110.0,18.6,7,5,7,1,2026-06-21T23:12:09.252861+05:30
Ranchi,Jharkhand,23.3441,85.3096,25.9,84,0.0,935.8,6.9,31.0,109,41.9,39.8,8.8,282.0,129.0,11.5,7,5,7,1,2026-06-21T23:12:09.252869+05:30
Jamshedpur,Jharkhand,22.8046,86.2029,29.4,74,0.0,988.0,8.6,27.0,127,53.9,50.5,21.4,735.0,87.0,21.3,7,5,7,1,2026-06-21T23:12:09.252876+05:30
Dhanbad,Jharkhand,23.7957,86.4304,29.2,86,0.0,976.7,5.9,33.8,143,64.3,62.2,40.0,176.0,84.0,101.0,7,5,3,1,2026-06-21T23:12:09.252883+05:30
Bokaro,Jharkhand,23.6693,86.1511,29.0,90,0.0,980.6,6.05,36.7,116,51.8,49.8,25.9,189.0,103.0,69.4,7,5,7,1,2026-06-21T23:12:09.252890+05:30
Bhubaneswar,Odisha,20.2961,85.8245,28.1,97,0.0,1000.2,8.4,32.4,99,35.4,33.4,12.2,271.0,89.0,7.1,7,5,4,1,2026-06-21T23:12:09.252897+05:30
Cuttack,Odisha,20.4625,85.8828,28.2,95,0.0,1002.0,8.5,22.7,99,35.4,33.4,12.2,289.0,89.0,7.1,7,5,4,1,2026-06-21T23:12:09.252904+05:30
Rourkela,Odisha,22.2604,84.8536,27.1,84,0.0,982.4,8.7,53.6,153,43.3,39.7,13.1,561.0,101.0,9.8,7,5,7,1,2026-06-21T23:12:09.252911+05:30
Raipur,Chhattisgarh,21.2514,81.6296,31.7,51,0.0,972.9,8.85,44.6,82,44.2,35.0,27.6,281.0,57.0,40.8,0,5,7,1,2026-06-21T23:12:09.252918+05:30
Bhilai,Chhattisgarh,21.1938,81.3509,30.9,55,0.0,973.4,8.9,49.3,77,44.9,34.9,27.6,677.0,51.0,35.3,0,5,7,1,2026-06-21T23:12:09.252924+05:30
Guwahati,Assam,26.1158,91.7086,24.7,99,0.2,999.7,7.95,25.6,77,18.7,17.3,11.0,347.0,52.0,3.2,6,5,7,1,2026-06-21T23:12:09.252931+05:30
Agartala,Tripura,23.8315,91.2868,26.6,91,0.0,1004.3,8.45,40.0,61,14.4,13.6,8.5,214.0,67.0,2.1,7,5,4,1,2026-06-21T23:12:09.252938+05:30
Shillong,Meghalaya,25.5788,91.8933,19.9,96,0.0,856.0,6.35,37.8,39,2.1,1.9,5.9,212.0,70.0,1.8,3,10,7,1,2026-06-21T23:12:09.252945+05:30
Imphal,Manipur,24.817,93.9368,23.3,93,0.1,922.3,8.8,27.4,65,20.0,17.9,7.9,537.0,51.0,2.4,6,5,7,1,2026-06-21T23:12:09.252952+05:30
Aizawl,Mizoram,23.7271,92.7176,19.8,96,0.0,891.3,9.0,32.0,31,4.6,4.3,2.8,164.0,50.0,0.5,3,10,7,1,2026-06-21T23:12:09.252958+05:30
Kohima,Nagaland,25.6701,94.1077,19.2,94,0.0,853.9,7.95,24.1,46,12.7,10.5,5.3,306.0,60.0,1.2,3,10,7,1,2026-06-21T23:12:09.252965+05:30
Gangtok,Sikkim,27.3314,88.6138,18.4,95,0.1,836.1,8.25,29.2,76,4.1,3.6,4.3,369.0,127.0,4.4,6,10,7,1,2026-06-21T23:12:09.252971+05:30
Siliguri,West Bengal,26.7271,88.3953,24.3,98,0.1,990.7,7.75,29.2,70,19.2,15.0,9.2,478.0,91.0,4.1,6,5,7,1,2026-06-21T23:12:12.584065+05:30
Durgapur,West Bengal,23.5204,87.3119,28.5,93,0.0,991.7,8.75,34.2,154,65.7,64.0,24.6,1056.0,92.0,42.8,7,5,7,1,2026-06-21T23:12:12.584097+05:30
Asansol,West Bengal,23.6739,86.9524,28.8,85,0.0,990.2,8.05,40.7,149,61.2,59.6,30.7,609.0,80.0,54.9,7,5,7,1,2026-06-21T23:12:12.584109+05:30
Pondicherry,Puducherry,11.9139,79.8145,28.9,84,0.0,1009.2,8.05,37.1,62,16.4,13.2,11.0,211.0,75.0,11.7,7,0,4,1,2026-06-21T23:12:12.584118+05:30
Port Blair,Andaman and Nicobar Islands,11.6234,92.7265,26.2,92,0.0,1009.9,7.95,33.8,52,9.7,5.3,0.2,88.0,45.0,0.3,7,0,4,1,2026-06-21T23:12:12.584126+05:30
Haridwar,Uttarakhand,29.9457,78.1642,28.7,67,0.0,968.7,7.6,29.9,134,144.8,55.9,21.8,492.0,82.0,12.3,7,5,7,1,2026-06-21T23:12:12.584134+05:30
Rishikesh,Uttarakhand,30.0869,78.2676,25.0,80,0.0,961.3,7.7,23.0,139,57.4,30.4,12.9,387.0,119.0,9.3,7,5,7,1,2026-06-21T23:12:12.584142+05:30
Nainital,Uttarakhand,29.3919,79.4542,16.1,88,0.0,803.0,8.6,31.0,119,96.2,46.0,13.1,358.0,105.0,7.8,3,10,7,0,2026-06-21T23:12:12.584150+05:30
Mussoorie,Uttarakhand,30.4599,78.0664,16.5,74,0.0,800.5,8.15,42.8,126,35.7,31.0,24.1,378.0,88.0,9.3,3,5,7,0,2026-06-21T23:12:12.584158+05:30
Dharamshala,Himachal Pradesh,32.219,76.3234,22.2,54,0.0,866.4,8.5,42.5,49,15.9,14.0,14.4,314.0,45.0,0.8,0,5,7,0,2026-06-21T23:12:12.584165+05:30
Dalhousie,Himachal Pradesh,32.5387,75.971,15.3,77,0.0,801.3,8.75,38.5,89,29.0,24.7,28.3,374.0,82.0,3.2,3,5,7,0,2026-06-21T23:12:12.584173+05:30
Patiala,Punjab,30.3398,76.3869,30.9,48,0.0,973.0,7.7,41.4,437,871.7,164.8,13.6,337.0,77.0,7.3,0,5,7,1,2026-06-21T23:12:12.584181+05:30
Bhatinda,Punjab,30.211,74.9455,30.9,54,0.0,978.5,8.3,40.0,149,69.2,43.5,28.5,331.0,46.0,5.4,0,5,7,1,2026-06-21T23:12:12.584188+05:30
Rohtak,Haryana,28.8955,76.6066,29.9,50,0.0,977.3,7.75,32.4,662,938.8,184.9,41.3,239.0,40.0,10.2,4,5,7,1,2026-06-21T23:12:12.584196+05:30
Panipat,Haryana,29.3909,76.9635,30.1,54,0.0,975.7,7.65,33.8,1818,2108.5,339.0,17.3,376.0,82.0,8.8,0,5,7,1,2026-06-21T23:12:12.584202+05:30
Mathura,Uttar Pradesh,27.4924,77.6737,30.6,51,0.0,982.9,8.05,39.2,775,277.5,60.5,26.5,239.0,42.0,5.4,0,5,7,1,2026-06-21T23:12:12.584209+05:30
Vrindavan,Uttar Pradesh,27.5823,77.7027,30.4,53,0.0,983.3,8.05,34.6,775,277.5,60.5,26.5,207.0,42.0,5.4,0,5,7,1,2026-06-21T23:12:12.584215+05:30
Ayodhya,Uttar Pradesh,26.7922,82.1998,32.8,57,0.0,990.4,8.45,36.7,163,197.9,80.1,17.2,218.0,59.0,7.3,0,5,7,1,2026-06-21T23:12:12.584222+05:30
Ratlam,Madhya Pradesh,23.3315,75.0367,28.9,60,0.0,953.1,8.45,40.7,67,33.9,22.9,4.5,143.0,71.0,4.8,4,5,7,1,2026-06-21T23:12:12.584229+05:30
Sagar,Madhya Pradesh,23.8388,78.7378,27.6,69,0.0,948.5,6.75,41.0,80,47.0,30.4,11.7,168.0,52.0,2.8,7,5,7,1,2026-06-21T23:12:12.584236+05:30
Satna,Madhya Pradesh,24.6005,80.8322,31.8,52,0.0,968.5,8.3,38.2,88,41.3,27.0,7.2,160.0,72.0,3.7,0,5,7,1,2026-06-21T23:12:12.584242+05:30
Akola,Maharashtra,20.7002,77.0082,34.0,39,0.0,973.2,8.8,42.8,56,33.6,26.3,25.1,137.0,42.0,7.0,0,5,7,1,2026-06-21T23:12:12.584249+05:30
Amravati,Maharashtra,20.9374,77.7796,31.1,55,0.0,966.0,8.35,42.5,58,35.0,26.7,24.6,176.0,40.0,6.8,0,5,7,1,2026-06-21T23:12:12.584257+05:30
Latur,Maharashtra,18.4088,76.5604,31.0,45,0.0,939.4,6.85,28.1,63,12.5,10.2,5.6,242.0,65.0,1.9,0,5,7,1,2026-06-21T23:12:12.584264+05:30
Nanded,Maharashtra,19.1383,77.3091,29.6,65,0.0,967.8,8.0,35.3,60,29.4,24.0,9.1,229.0,80.0,7.4,7,5,7,1,2026-06-21T23:12:12.584271+05:30
Gulbarga,Karnataka,17.3297,76.8343,28.6,61,0.0,958.8,8.35,33.5,52,10.2,8.3,8.3,198.0,63.0,2.5,7,5,7,1,2026-06-21T23:12:12.584277+05:30
Bidar,Karnataka,17.9104,77.5199,28.2,64,0.0,935.3,8.8,30.2,67,34.6,29.1,22.4,219.0,49.0,3.7,7,5,7,1,2026-06-21T23:12:12.584284+05:30
Hospet,Karnataka,15.2689,76.3909,25.2,85,0.0,956.8,8.5,44.6,31,4.9,4.3,6.2,146.0,46.0,1.6,7,5,7,1,2026-06-21T23:12:12.584312+05:30
Tirupur,Tamil Nadu,11.1085,77.3411,24.4,88,0.0,976.9,8.45,47.5,45,11.4,10.5,13.0,152.0,38.0,4.6,3,5,7,1,2026-06-21T23:12:12.584320+05:30
Alappuzha,Kerala,9.4981,76.3388,25.8,91,0.1,1011.8,8.1,33.8,33,11.0,8.7,7.2,86.0,39.0,2.6,10,0,4,1,2026-06-21T23:12:12.584327+05:30
Munnar,Kerala,10.0889,77.0595,17.2,99,0.0,858.1,8.25,32.4,34,5.1,4.8,7.4,104.0,35.0,2.3,3,10,7,1,2026-06-21T23:12:12.584335+05:30
Silchar,Assam,24.8333,92.7789,25.1,100,0.0,1004.1,8.85,30.6,67,22.3,18.3,5.7,307.0,82.0,3.1,7,5,4,1,2026-06-21T23:12:12.584342+05:30
Dibrugarh,Assam,27.4728,94.912,24.8,96,0.0,993.4,3.45,35.3,68,22.9,21.2,10.1,230.0,71.0,1.9,3,5,3,1,2026-06-21T23:12:12.584348+05:30
