city,state,latitude,longitude,temp,humidity,rain,pressure,uv_index,wind_gusts,aqi,pm10,pm2_5,no2,co,o3,so2,mosquito_risk,arthritis_risk,migraine_risk,frizz_risk,updated_at
Delhi,Delhi,28.6139,77.209,38.2,32,0.0,976.6,7.8,42.5,545,491.7,87.8,6.7,285.0,137.0,10.2,0,5,10,1,2026-06-20T17:28:11.493092+05:30
Mumbai,Maharashtra,19.076,72.8777,31.7,60,0.0,1006.4,7.75,41.8,52,22.4,13.1,5.6,156.0,71.0,5.1,0,5,4,1,2026-06-20T17:28:11.493136+05:30
Bangalore,Karnataka,12.9716,77.5946,25.9,68,0.1,911.1,8.0,24.8,61,25.4,18.2,33.8,716.0,72.0,4.8,10,5,7,1,2026-06-20T17:28:11.493151+05:30
Hyderabad,Telangana,17.385,78.4867,35.3,36,0.0,950.4,8.4,39.6,69,29.6,21.4,4.5,278.0,131.0,6.3,0,5,10,1,2026-06-20T17:28:11.493161+05:30
Chennai,Tamil Nadu,13.0827,80.2707,32.6,61,0.0,1004.1,7.85,30.6,119,37.7,30.6,7.8,339.0,171.0,11.3,3,5,4,1,2026-06-20T17:28:11.493170+05:30
Kolkata,West Bengal,22.5726,88.3639,30.6,78,0.0,1000.4,8.45,36.4,163,46.2,42.8,8.0,382.0,136.0,9.0,3,5,4,1,2026-06-20T17:28:11.493177+05:30
Pune,Maharashtra,18.5204,73.8567,31.0,47,0.1,946.2,7.55,45.4,41,14.8,9.3,2.7,133.0,93.0,3.6,3,5,7,1,2026-06-20T17:28:11.493184+05:30
Ahmedabad,Gujarat,23.0225,72.5714,36.0,42,0.1,997.9,8.05,40.3,74,60.8,21.1,1.6,145.0,87.0,2.9,3,5,10,1,2026-06-20T17:28:11.493191+05:30
Jaipur,Rajasthan,26.9124,75.7873,34.2,42,0.0,956.0,8.2,48.6,140,210.0,48.2,0.8,140.0,94.0,2.2,0,5,7,1,2026-06-20T17:28:11.493197+05:30
Lucknow,Uttar Pradesh,26.8467,80.9462,38.2,33,0.0,986.2,8.35,42.8,171,411.6,86.4,1.9,188.0,141.0,6.8,0,5,10,1,2026-06-20T17:28:11.493208+05:30
Kanpur,Uttar Pradesh,26.4499,80.3319,39.0,30,0.0,984.8,8.3,42.5,238,328.8,67.3,1.9,151.0,133.0,6.0,0,5,10,1,2026-06-20T17:28:11.493215+05:30
Chandigarh,Chandigarh,30.7333,76.7794,35.6,36,0.0,962.9,7.8,36.4,154,35.6,26.4,2.5,332.0,163.0,6.4,0,5,10,1,2026-06-20T17:28:11.493221+05:30
Srinagar,Jammu and Kashmir,34.0837,74.7973,22.4,63,0.0,842.3,9.05,23.0,71,18.1,11.4,2.0,259.0,128.0,1.9,3,5,7,0,2026-06-20T17:28:11.493230+05:30
Jammu,Jammu and Kashmir,32.7266,74.857,36.7,26,0.0,967.6,8.6,36.7,107,27.9,17.2,0.1,232.0,147.0,1.8,0,5,10,0,2026-06-20T17:28:11.493237+05:30
Amritsar,Punjab,31.634,74.8723,34.3,45,0.0,975.3,8.45,25.9,158,45.4,31.4,3.3,328.0,173.0,7.2,0,5,7,1,2026-06-20T17:28:11.493243+05:30
Ludhiana,Punjab,30.901,75.8573,36.6,32,0.0,973.2,8.0,38.9,134,97.6,37.3,1.9,278.0,161.0,3.2,0,5,10,1,2026-06-20T17:28:11.493249+05:30
Jalandhar,Punjab,31.326,75.5762,35.8,35,0.0,974.3,8.25,35.3,146,74.3,33.1,2.4,285.0,169.0,4.2,0,5,10,1,2026-06-20T17:28:11.493255+05:30
Dehradun,Uttarakhand,30.6284,78.0322,23.7,66,0.0,829.6,8.25,28.4,120,36.3,27.3,0.5,268.0,158.0,3.0,3,5,7,1,2026-06-20T17:28:11.493262+05:30
Shimla,Himachal Pradesh,31.1048,77.1734,21.6,46,0.0,785.0,8.25,34.9,115,33.1,21.9,0.6,206.0,144.0,3.8,0,5,7,0,2026-06-20T17:28:11.493268+05:30
Manali,Himachal Pradesh,32.2396,77.1887,23.5,44,0.0,819.2,9.5,40.0,130,17.2,13.3,10.5,134.0,171.0,0.7,0,5,7,0,2026-06-20T17:28:11.493276+05:30
Gurgaon,Haryana,28.4595,77.0266,37.6,33,0.0,975.4,7.9,41.0,792,1300.1,167.6,6.3,237.0,135.0,8.7,0,5,10,1,2026-06-20T17:28:11.493284+05:30
Noida,Uttar Pradesh,28.5355,77.391,37.6,35,0.0,977.7,7.85,36.4,792,1300.1,167.6,6.3,301.0,135.0,8.7,0,5,10,1,2026-06-20T17:28:11.493290+05:30
Ghaziabad,Uttar Pradesh,28.6692,77.4538,36.7,40,0.0,976.1,7.8,40.7,424,480.6,91.3,6.0,226.0,150.0,12.4,0,5,10,1,2026-06-20T17:28:11.493296+05:30
Faridabad,Haryana,28.4089,77.3178,38.0,32,0.0,977.3,7.85,42.1,792,1300.1,167.6,6.3,242.0,135.0,8.7,0,5,10,1,2026-06-20T17:28:11.493302+05:30
Meerut,Uttar Pradesh,28.9845,77.7064,35.9,42,0.0,975.2,7.75,41.0,424,480.6,91.3,6.0,214.0,150.0,12.4,0,5,10,1,2026-06-20T17:28:11.493308+05:30
Agra,Uttar Pradesh,27.1767,78.0081,37.4,35,0.0,981.8,8.15,40.7,596,745.1,100.6,1.8,158.0,127.0,4.6,0,5,10,1,2026-06-20T17:28:11.493315+05:30
Varanasi,Uttar Pradesh,25.3176,82.9739,39.4,32,0.0,989.7,8.8,34.9,105,154.6,50.5,1.5,182.0,136.0,5.2,0,5,10,1,2026-06-20T17:28:11.493321+05:30
Prayagraj,Uttar Pradesh,25.4358,81.8463,39.6,32,0.0,988.5,8.7,34.9,121,175.1,51.3,1.8,153.0,125.0,5.0,0,5,10,1,2026-06-20T17:28:11.493328+05:30
Gorakhpur,Uttar Pradesh,26.7606,83.3732,35.4,52,0.0,989.4,8.65,36.7,173,191.4,75.9,3.0,287.0,168.0,9.6,0,5,10,1,2026-06-20T17:28:11.493334+05:30
Bareilly,Uttar Pradesh,28.367,79.4304,36.3,41,0.0,979.6,8.15,36.7,162,44.5,33.2,2.2,218.0,159.0,6.5,0,5,10,1,2026-06-20T17:28:11.493345+05:30
Aligarh,Uttar Pradesh,27.8974,78.088,36.8,37,0.0,979.1,8.0,44.6,492,720.8,109.2,4.4,179.0,159.0,10.8,0,5,10,1,2026-06-20T17:28:11.493352+05:30
Moradabad,Uttar Pradesh,28.8386,78.7733,35.8,43,0.0,976.9,7.95,44.6,173,173.7,54.7,2.8,261.0,156.0,7.0,0,5,10,1,2026-06-20T17:28:11.493358+05:30
Saharanpur,Uttar Pradesh,29.9637,77.546,34.7,44,0.0,969.3,7.55,37.1,161,304.5,66.6,4.5,295.0,160.0,9.8,0,5,7,1,2026-06-20T17:28:11.493364+05:30
Jhansi,Uttar Pradesh,25.4484,78.5685,34.9,42,0.0,973.2,8.4,47.5,75,102.2,35.3,1.4,125.0,97.0,3.2,0,5,7,1,2026-06-20T17:28:14.747303+05:30
Surat,Gujarat,21.1702,72.8311,32.1,62,0.0,1003.9,7.6,44.6,64,22.0,15.1,10.9,238.0,45.0,30.8,3,5,4,1,2026-06-20T17:28:14.747338+05:30
Vadodara,Gujarat,22.3072,73.1812,35.5,42,0.0,1000.3,7.35,43.6,63,37.3,17.5,2.0,139.0,91.0,2.9,0,5,7,1,2026-06-20T17:28:14.747348+05:30
Rajkot,Gujarat,22.3039,70.8022,35.2,41,0.0,990.5,7.55,51.5,65,58.9,21.0,1.2,105.0,84.0,2.8,0,5,10,1,2026-06-20T17:28:14.747358+05:30
Thane,Maharashtra,19.2183,72.9781,33.0,53,0.0,1005.5,7.7,41.4,52,22.4,13.1,5.6,149.0,71.0,5.1,0,5,4,1,2026-06-20T17:28:14.747366+05:30
Nagpur,Maharashtra,21.1458,79.0882,38.0,24,0.0,969.1,8.9,45.0,66,24.6,15.9,4.2,146.0,121.0,12.0,0,5,10,0,2026-06-20T17:28:14.747375+05:30
Nashik,Maharashtra,19.9975,73.7898,30.1,52,0.1,943.6,8.05,40.3,41,12.3,7.3,1.3,113.0,76.0,1.2,3,5,7,1,2026-06-20T17:28:14.747383+05:30
Aurangabad,Maharashtra,19.8762,75.3433,33.0,34,0.0,941.9,9.0,37.8,44,15.9,10.2,1.3,129.0,110.0,3.4,0,5,7,0,2026-06-20T17:28:14.747392+05:30
Solapur,Maharashtra,17.6599,75.9064,35.8,34,0.0,954.5,8.4,36.0,53,20.7,12.7,1.3,124.0,117.0,2.0,0,5,10,1,2026-06-20T17:28:14.747407+05:30
Kolhapur,Maharashtra,16.705,74.2433,30.4,49,0.1,946.5,8.45,45.7,48,18.5,10.9,2.1,119.0,90.0,1.5,3,5,7,1,2026-06-20T17:28:14.747415+05:30
Goa,Goa,15.2993,74.124,30.7,63,0.0,996.8,8.05,29.2,59,23.7,11.3,0.8,90.0,56.0,1.1,3,5,7,1,2026-06-20T17:28:14.747423+05:30
Jodhpur,Rajasthan,26.2389,73.0243,37.2,34,0.0,978.1,8.4,40.0,106,189.1,41.8,0.6,111.0,81.0,1.5,0,5,10,1,2026-06-20T17:28:14.747431+05:30
Udaipur,Rajasthan,24.5854,73.7125,32.3,47,0.0,943.4,8.8,36.0,78,57.5,21.0,0.6,112.0,83.0,2.1,0,5,7,1,2026-06-20T17:28:14.747438+05:30
Kota,Rajasthan,25.2138,75.8648,31.4,60,0.0,975.2,8.35,39.2,88,85.9,32.9,1.0,114.0,104.0,4.2,0,5,7,1,2026-06-20T17:28:14.747446+05:30
Bikaner,Rajasthan,28.0229,73.3119,37.4,36,0.0,976.6,8.45,47.9,111,126.2,38.5,0.2,126.0,81.0,1.3,0,5,10,1,2026-06-20T17:28:14.747454+05:30
Ajmer,Rajasthan,26.4499,74.6399,33.2,45,0.0,950.9,8.35,45.0,84,73.8,27.8,0.6,120.0,92.0,2.2,0,5,7,1,2026-06-20T17:28:14.747462+05:30
Gwalior,Madhya Pradesh,26.2183,78.1828,35.7,40,0.0,978.0,7.7,54.4,84,124.8,40.7,0.6,134.0,107.0,2.6,0,5,10,1,2026-06-20T17:28:14.747470+05:30
Indore,Madhya Pradesh,22.7196,75.8577,30.9,56,0.0,945.5,7.9,39.6,71,32.2,17.6,3.4,190.0,89.0,2.3,0,5,7,1,2026-06-20T17:28:14.747477+05:30
Bhopal,Madhya Pradesh,23.2599,77.4126,32.0,49,0.0,950.6,8.65,33.5,71,34.1,20.1,2.0,178.0,92.0,2.2,0,5,7,1,2026-06-20T17:28:14.747485+05:30
Jabalpur,Madhya Pradesh,23.1815,79.9864,35.1,38,0.0,957.3,8.35,31.0,70,48.4,24.5,0.9,155.0,114.0,3.8,0,5,10,1,2026-06-20T17:28:14.747493+05:30
Ujjain,Madhya Pradesh,23.1765,75.7885,32.1,48,0.1,951.0,8.55,41.8,72,42.4,21.3,0.7,153.0,94.0,2.5,3,5,7,1,2026-06-20T17:28:14.747501+05:30
Visakhapatnam,Andhra Pradesh,17.6868,83.2185,28.5,89,0.1,1000.9,8.65,38.9,130,51.2,45.2,19.7,368.0,170.0,51.7,10,5,4,1,2026-06-20T17:28:14.747509+05:30
Vijayawada,Andhra Pradesh,16.5062,80.648,34.3,55,0.0,998.1,8.55,28.1,83,29.5,23.6,5.0,216.0,130.0,5.9,0,5,7,1,2026-06-20T17:28:14.747517+05:30
Guntur,Andhra Pradesh,16.3067,80.4365,34.9,50,0.0,999.3,8.0,29.9,80,30.2,23.2,5.3,214.0,128.0,5.3,0,5,7,1,2026-06-20T17:28:14.747524+05:30
Nellore,Andhra Pradesh,14.4426,79.9865,35.1,47,0.0,1002.2,7.7,30.2,75,32.8,23.7,6.7,201.0,119.0,6.7,0,5,7,1,2026-06-20T17:28:14.747533+05:30
Kurnool,Andhra Pradesh,15.8281,78.0373,35.7,39,0.0,973.4,5.35,31.7,66,27.3,18.6,1.1,126.0,131.0,9.5,0,5,6,1,2026-06-20T17:28:14.747541+05:30
Kakinada,Andhra Pradesh,16.9891,82.2475,35.7,47,0.0,1002.6,7.1,37.4,123,25.8,20.8,3.1,263.0,147.0,4.4,0,5,7,1,2026-06-20T17:28:14.747549+05:30
Tirupati,Andhra Pradesh,13.6288,79.4192,30.1,71,0.1,988.8,7.95,34.6,69,24.7,17.3,9.2,229.0,109.0,4.4,6,5,7,1,2026-06-20T17:28:14.747557+05:30
Warangal,Telangana,17.9689,79.5941,36.4,36,0.0,974.9,6.6,32.0,120,31.4,22.4,1.4,172.0,139.0,6.6,0,5,10,1,2026-06-20T17:28:14.747565+05:30
Nizamabad,Telangana,18.6725,78.0941,35.1,40,0.0,961.7,8.95,33.8,73,23.7,15.4,1.1,124.0,111.0,3.6,0,5,10,1,2026-06-20T17:28:14.747572+05:30
Mysore,Karnataka,12.2958,76.6396,28.7,52,0.0,927.6,8.25,36.7,57,32.1,14.8,4.9,195.0,87.0,1.7,4,5,7,1,2026-06-20T17:28:14.747580+05:30
Mangalore,Karnataka,12.9141,74.856,28.8,77,0.1,1006.1,7.8,34.9,78,14.3,8.4,1.5,104.0,53.0,1.3,10,5,4,1,2026-06-20T17:28:14.747587+05:30
Hubli-Dharwad,Karnataka,15.3647,75.124,30.3,48,0.0,939.9,8.15,44.3,45,29.4,11.8,2.0,119.0,77.0,0.9,0,5,7,1,2026-06-20T17:28:14.747595+05:30
Belgaum,Karnataka,15.8497,74.4977,27.2,61,0.1,925.0,8.9,38.9,50,23.1,11.9,2.1,117.0,76.0,1.9,10,5,7,1,2026-06-20T17:28:17.997187+05:30
Coimbatore,Tamil Nadu,11.0168,76.9558,30.8,53,0.0,960.6,8.25,42.1,56,35.2,17.6,2.6,175.0,95.0,2.4,0,5,7,1,2026-06-20T17:28:17.997221+05:30
Madurai,Tamil Nadu,9.9252,78.1198,34.5,43,0.0,991.0,8.65,32.0,61,31.1,17.0,3.8,232.0,117.0,2.1,0,5,7,1,2026-06-20T17:28:17.997233+05:30
Trichy,Tamil Nadu,10.7905,78.7047,32.4,61,0.0,997.3,8.4,33.5,57,27.4,16.2,2.6,197.0,118.0,2.2,3,5,7,1,2026-06-20T17:28:17.997243+05:30
Salem,Tamil Nadu,11.6643,78.146,31.0,60,0.0,975.8,8.2,22.0,70,24.0,15.5,3.7,238.0,132.0,7.9,0,5,7,1,2026-06-20T17:28:17.997253+05:30
Tirunelveli,Tamil Nadu,8.7139,77.7567,35.2,40,0.0,1000.3,8.6,25.9,61,25.4,13.4,2.0,138.0,81.0,1.3,0,5,7,1,2026-06-20T17:28:17.997262+05:30
Vellore,Tamil Nadu,12.9165,79.1325,31.0,61,0.0,982.4,7.8,32.0,71,22.0,16.6,5.0,187.0,115.0,2.4,3,5,7,1,2026-06-20T17:28:17.997271+05:30
Erode,Tamil Nadu,11.341,77.7172,33.0,49,0.0,987.0,8.25,27.0,65,33.2,18.2,3.6,191.0,120.0,2.5,0,5,7,1,2026-06-20T17:28:17.997280+05:30
Kochi,Kerala,9.9312,76.2673,28.7,80,0.0,1008.3,8.5,33.8,108,29.5,17.3,3.3,110.0,84.0,3.4,7,0,4,1,2026-06-20T17:28:17.997289+05:30
Thiruvananthapuram,Kerala,8.5241,76.9366,28.4,78,0.0,1007.7,8.25,32.8,60,17.9,10.8,2.6,85.0,68.0,1.1,7,5,4,1,2026-06-20T17:28:17.997298+05:30
Kozhikode,Kerala,11.2588,75.7804,28.8,78,0.0,1007.6,8.0,31.7,56,12.0,6.6,0.5,105.0,55.0,0.7,7,5,4,1,2026-06-20T17:28:17.997306+05:30
Thrissur,Kerala,10.5276,76.2144,28.9,74,0.0,1006.7,8.4,31.7,116,28.2,15.5,1.6,91.0,78.0,2.0,7,5,4,1,2026-06-20T17:28:17.997315+05:30
Kannur,Kerala,11.8745,75.3704,28.7,79,0.1,1006.6,7.8,30.2,74,18.1,9.6,1.3,88.0,58.0,1.2,10,5,4,1,2026-06-20T17:28:17.997323+05:30
Patna,Bihar,25.5941,85.1376,36.9,44,0.0,992.7,8.85,29.2,170,111.8,53.0,8.5,297.0,153.0,8.7,0,5,10,1,2026-06-20T17:28:17.997332+05:30
Gaya,Bihar,24.7914,85.0002,37.0,42,0.0,986.6,8.8,29.2,99,118.7,46.0,6.1,214.0,127.0,6.8,0,5,10,1,2026-06-20T17:28:17.997340+05:30
Muzaffarpur,Bihar,26.1209,85.3647,34.6,64,0.0,992.7,8.85,29.9,185,123.9,68.7,10.5,360.0,172.0,12.5,3,5,7,1,2026-06-20T17:28:17.997349+05:30
Bhagalpur,Bihar,25.2425,87.0117,35.1,58,0.0,993.6,8.8,26.6,156,104.3,51.2,4.7,233.0,159.0,10.4,0,5,10,1,2026-06-20T17:28:17.997357+05:30
Ranchi,Jharkhand,23.3441,85.3096,27.3,81,0.0,933.9,9.2,29.5,110,55.2,29.6,4.3,182.0,119.0,4.2,7,5,7,1,2026-06-20T17:28:17.997366+05:30
Jamshedpur,Jharkhand,22.8046,86.2029,32.7,64,0.0,985.2,8.6,32.8,151,72.4,48.0,4.9,224.0,170.0,16.1,3,5,7,1,2026-06-20T17:28:17.997374+05:30
Dhanbad,Jharkhand,23.7957,86.4304,32.8,64,0.0,974.1,8.9,25.9,160,93.8,62.9,16.2,181.0,180.0,55.5,3,5,7,1,2026-06-20T17:28:17.997383+05:30
Bokaro,Jharkhand,23.6693,86.1511,32.6,68,0.1,977.8,9.05,26.6,152,86.4,49.9,13.9,254.0,160.0,45.9,6,5,7,1,2026-06-20T17:28:17.997391+05:30
Bhubaneswar,Odisha,20.2961,85.8245,29.2,85,0.0,997.9,8.85,33.5,114,40.0,35.0,7.0,377.0,137.0,8.2,7,5,7,1,2026-06-20T17:28:17.997400+05:30
Cuttack,Odisha,20.4625,85.8828,29.1,91,0.1,999.6,9.15,40.7,114,40.0,35.0,7.0,367.0,137.0,8.2,10,5,7,1,2026-06-20T17:28:17.997408+05:30
Rourkela,Odisha,22.2604,84.8536,32.9,63,0.0,980.0,8.8,29.9,139,43.5,30.5,3.2,222.0,145.0,7.8,3,5,7,1,2026-06-20T17:28:17.997416+05:30
Raipur,Chhattisgarh,21.2514,81.6296,37.2,29,0.0,969.8,8.65,32.8,105,26.7,20.1,6.5,118.0,139.0,19.6,0,5,10,1,2026-06-20T17:28:17.997425+05:30
Bhilai,Chhattisgarh,21.1938,81.3509,37.2,28,0.0,970.5,8.95,38.2,105,25.6,18.2,6.6,179.0,128.0,17.0,0,5,10,0,2026-06-20T17:28:17.997433+05:30
Guwahati,Assam,26.1158,91.7086,27.8,93,0.3,995.3,8.7,29.5,145,41.7,35.2,4.5,315.0,104.0,2.4,10,5,7,1,2026-06-20T17:28:17.997442+05:30
Agartala,Tripura,23.8315,91.2868,30.0,76,0.0,1001.0,8.65,37.8,94,22.4,19.2,8.1,183.0,102.0,2.7,7,5,4,1,2026-06-20T17:28:17.997450+05:30
Shillong,Meghalaya,25.5788,91.8933,22.8,78,0.0,854.5,6.25,29.9,78,22.0,17.2,6.3,237.0,98.0,2.6,3,5,7,1,2026-06-20T17:28:17.997459+05:30
Imphal,Manipur,24.817,93.9368,26.3,75,0.0,919.3,9.25,34.6,74,17.9,13.0,2.2,202.0,96.0,2.2,7,5,7,1,2026-06-20T17:28:17.997467+05:30
Aizawl,Mizoram,23.7271,92.7176,22.9,79,0.0,889.5,8.55,35.6,58,15.4,12.2,2.4,152.0,83.0,1.2,3,5,7,1,2026-06-20T17:28:17.997475+05:30
Kohima,Nagaland,25.6701,94.1077,21.0,99,0.1,852.4,9.0,27.7,56,8.6,5.6,2.3,185.0,84.0,1.4,6,5,7,1,2026-06-20T17:28:17.997484+05:30
Gangtok,Sikkim,27.3314,88.6138,20.1,94,0.2,834.1,8.0,31.0,110,10.0,8.9,5.1,316.0,132.0,4.9,6,5,7,1,2026-06-20T17:28:17.997492+05:30
Siliguri,West Bengal,26.7271,88.3953,27.9,87,0.2,986.6,8.65,23.8,155,49.8,42.4,11.2,566.0,117.0,9.0,10,5,7,1,2026-06-20T17:28:21.250323+05:30
Durgapur,West Bengal,23.5204,87.3119,30.3,84,0.0,988.9,8.9,33.8,173,113.4,85.4,18.6,588.0,207.0,58.0,3,5,7,1,2026-06-20T17:28:21.250357+05:30
Asansol,West Bengal,23.6739,86.9524,31.8,74,0.0,987.5,8.95,34.6,161,103.1,74.3,16.6,526.0,195.0,49.4,3,5,7,1,2026-06-20T17:28:21.250369+05:30
Pondicherry,Puducherry,11.9139,79.8145,30.8,74,0.0,1005.9,7.95,33.8,105,41.1,31.2,11.1,247.0,149.0,6.8,3,5,4,1,2026-06-20T17:28:21.250379+05:30
Port Blair,Andaman and Nicobar Islands,11.6234,92.7265,28.3,81,0.0,1006.7,8.75,35.3,33,35.7,15.8,0.5,113.0,47.0,0.5,7,5,4,1,2026-06-20T17:28:21.250389+05:30
Haridwar,Uttarakhand,29.9457,78.1642,35.1,42,0.0,967.5,7.65,29.9,160,116.4,41.8,1.9,303.0,171.0,8.4,0,5,10,1,2026-06-20T17:28:21.250399+05:30
Rishikesh,Uttarakhand,30.0869,78.2676,34.0,47,0.0,960.4,7.75,26.6,146,48.4,33.5,0.9,277.0,169.0,7.1,0,5,7,1,2026-06-20T17:28:21.250409+05:30
Nainital,Uttarakhand,29.3919,79.4542,22.7,59,0.0,805.1,6.75,28.8,149,52.0,34.1,1.1,269.0,157.0,5.8,0,5,7,0,2026-06-20T17:28:21.250418+05:30
Mussoorie,Uttarakhand,30.4599,78.0664,22.6,58,0.0,802.8,8.15,41.8,151,41.6,33.2,1.3,253.0,167.0,5.8,0,5,7,0,2026-06-20T17:28:21.250427+05:30
Dharamshala,Himachal Pradesh,32.219,76.3234,25.3,54,0.0,867.4,8.45,41.8,93,22.1,12.6,0.1,219.0,141.0,0.7,4,5,7,0,2026-06-20T17:28:21.250436+05:30
Dalhousie,Himachal Pradesh,32.5387,75.971,21.7,57,0.0,804.8,8.75,27.0,100,24.7,15.2,0.7,205.0,148.0,1.1,0,5,7,0,2026-06-20T17:28:21.250446+05:30
Patiala,Punjab,30.3398,76.3869,36.3,34,0.0,972.4,7.7,36.4,346,873.6,114.6,2.3,277.0,158.0,5.6,0,5,10,1,2026-06-20T17:28:21.250455+05:30
Bhatinda,Punjab,30.211,74.9455,36.4,38,0.0,978.5,8.35,27.4,139,77.5,34.9,2.1,230.0,158.0,9.0,0,5,10,1,2026-06-20T17:28:21.250463+05:30
Rohtak,Haryana,28.8955,76.6066,36.2,40,0.0,975.7,7.8,34.2,565,704.1,98.3,3.3,221.0,130.0,5.8,0,5,10,1,2026-06-20T17:28:21.250472+05:30
Panipat,Haryana,29.3909,76.9635,36.0,41,0.0,974.2,7.65,34.2,1415,2488.5,276.6,4.2,200.0,133.0,9.1,0,5,10,1,2026-06-20T17:28:21.250480+05:30
Mathura,Uttar Pradesh,27.4924,77.6737,36.4,40,0.0,980.7,8.1,36.7,319,267.3,57.4,3.3,178.0,116.0,3.9,0,5,10,1,2026-06-20T17:28:21.250489+05:30
Vrindavan,Uttar Pradesh,27.5823,77.7027,36.2,42,0.0,981.0,8.05,36.7,319,267.3,57.4,3.3,188.0,116.0,3.9,0,5,10,1,2026-06-20T17:28:21.250498+05:30
Ayodhya,Uttar Pradesh,26.7922,82.1998,37.5,41,0.0,987.1,8.4,34.2,158,313.9,88.5,2.8,217.0,139.0,8.4,0,5,10,1,2026-06-20T17:28:21.250507+05:30
Ratlam,Madhya Pradesh,23.3315,75.0367,32.7,48,0.0,951.9,8.45,39.6,72,47.5,22.6,0.6,119.0,94.0,2.6,0,5,7,1,2026-06-20T17:28:21.250516+05:30
Sagar,Madhya Pradesh,23.8388,78.7378,32.4,47,0.0,947.0,8.75,38.9,70,58.0,26.1,1.0,132.0,101.0,1.7,0,5,7,1,2026-06-20T17:28:21.250525+05:30
Satna,Madhya Pradesh,24.6005,80.8322,36.6,35,0.0,966.0,8.8,34.6,64,56.1,21.9,0.6,137.0,110.0,2.1,0,5,10,1,2026-06-20T17:28:21.250533+05:30
Akola,Maharashtra,20.7002,77.0082,37.5,31,0.0,971.5,8.8,41.8,52,23.9,13.9,1.5,119.0,108.0,4.9,0,5,10,1,2026-06-20T17:28:21.250542+05:30
Amravati,Maharashtra,20.9374,77.7796,36.3,29,0.0,964.0,8.8,41.8,54,24.1,14.3,1.8,112.0,111.0,5.7,0,5,10,0,2026-06-20T17:28:21.250552+05:30
Latur,Maharashtra,18.4088,76.5604,34.4,35,0.0,937.5,8.95,34.6,56,21.7,14.2,0.8,127.0,110.0,2.7,0,5,7,1,2026-06-20T17:28:21.250561+05:30
Nanded,Maharashtra,19.1383,77.3091,37.7,29,0.0,965.0,8.9,33.1,63,18.6,12.2,0.9,135.0,108.0,1.9,0,5,10,1,2026-06-20T17:28:21.250569+05:30
Gulbarga,Karnataka,17.3297,76.8343,35.6,33,0.0,956.1,8.5,38.2,57,22.1,14.5,1.9,132.0,124.0,3.6,0,5,10,1,2026-06-20T17:28:21.250578+05:30
Bidar,Karnataka,17.9104,77.5199,30.5,55,0.0,933.3,8.5,33.1,71,27.8,19.1,3.0,152.0,117.0,3.8,0,5,7,1,2026-06-20T17:28:21.250586+05:30
Hospet,Karnataka,15.2689,76.3909,31.9,45,0.0,953.9,8.3,40.7,52,27.4,13.6,2.8,161.0,99.0,2.1,0,5,7,1,2026-06-20T17:28:21.250594+05:30
Tirupur,Tamil Nadu,11.1085,77.3411,31.1,54,0.1,973.6,8.3,40.7,66,34.7,18.9,3.1,173.0,116.0,3.1,3,5,7,1,2026-06-20T17:28:21.250603+05:30
Alappuzha,Kerala,9.4981,76.3388,28.6,80,0.0,1008.3,8.5,32.8,79,22.8,13.5,3.4,94.0,71.0,2.4,7,0,4,1,2026-06-20T17:28:21.250611+05:30
Munnar,Kerala,10.0889,77.0595,18.6,91,0.1,857.1,8.95,28.8,51,43.3,18.6,1.1,131.0,92.0,1.9,6,10,7,1,2026-06-20T17:28:21.250620+05:30
Silchar,Assam,24.8333,92.7789,27.6,92,0.1,1000.3,8.4,34.2,91,28.6,23.3,3.5,220.0,112.0,3.9,10,5,4,1,2026-06-20T17:28:21.250629+05:30
Dibrugarh,Assam,27.4728,94.912,27.7,95,0.1,989.5,8.45,27.7,81,56.3,38.1,5.6,265.0,109.0,3.4,10,5,7,1,2026-06-20T17:28:21.250658+05:30
