city,state,latitude,longitude,temp,humidity,rain,pressure,uv_index,wind_gusts,aqi,pm10,pm2_5,mosquito_risk,arthritis_risk,migraine_risk,frizz_risk,updated_at
Delhi,Delhi,28.6139,77.209,38.5,16,0.0,979.0,7.25,31.7,338,493.6,53.3,0,5,10,0,2026-04-20T16:21:39.558851+05:30
Mumbai,Maharashtra,19.076,72.8777,28.6,82,0.0,1005.4,8.05,22.3,99,37.5,23.2,7,5,4,1,2026-04-20T16:21:39.558896+05:30
Bangalore,Karnataka,12.9716,77.5946,34.8,25,0.0,909.3,9.55,22.0,147,29.0,23.9,0,5,7,0,2026-04-20T16:21:39.558912+05:30
Hyderabad,Telangana,17.385,78.4867,38.2,23,0.0,950.1,9.3,47.2,154,49.4,40.2,0,5,10,0,2026-04-20T16:21:39.558923+05:30
Chennai,Tamil Nadu,13.0827,80.2707,33.6,56,0.0,1004.1,9.25,35.6,36,14.4,10.4,0,5,4,1,2026-04-20T16:21:39.558932+05:30
Kolkata,West Bengal,22.5726,88.3639,31.7,76,0.0,1001.0,8.9,32.4,115,38.8,31.9,3,5,4,1,2026-04-20T16:21:39.558945+05:30
Pune,Maharashtra,18.5204,73.8567,36.2,32,0.0,946.3,8.55,43.9,126,41.0,34.6,0,5,10,1,2026-04-20T16:21:39.558953+05:30
Ahmedabad,Gujarat,23.0225,72.5714,39.7,22,0.0,998.8,8.15,24.8,64,32.6,11.5,0,5,10,0,2026-04-20T16:21:39.558961+05:30
Jaipur,Rajasthan,26.9124,75.7873,39.3,13,0.0,956.4,7.95,30.6,143,183.0,23.9,0,5,10,0,2026-04-20T16:21:39.558969+05:30
Lucknow,Uttar Pradesh,26.8467,80.9462,40.9,12,0.0,987.7,7.9,38.5,129,179.3,27.8,0,5,10,0,2026-04-20T16:21:39.558976+05:30
Kanpur,Uttar Pradesh,26.4499,80.3319,39.8,16,0.0,986.5,7.9,32.8,184,418.2,46.4,0,5,10,0,2026-04-20T16:21:39.558984+05:30
Chandigarh,Chandigarh,30.7333,76.7794,37.6,14,0.0,965.6,7.25,32.8,102,35.5,12.8,0,5,10,0,2026-04-20T16:21:39.558992+05:30
Srinagar,Jammu and Kashmir,34.0837,74.7973,20.0,51,0.0,843.5,8.25,26.6,97,27.4,9.9,0,5,7,0,2026-04-20T16:21:39.558999+05:30
Jammu,Jammu and Kashmir,32.7266,74.857,36.7,15,0.0,970.2,7.9,27.4,63,27.7,9.3,0,5,10,0,2026-04-20T16:21:39.559007+05:30
Amritsar,Punjab,31.634,74.8723,36.3,18,0.0,978.2,7.9,31.0,81,27.2,10.0,0,5,10,0,2026-04-20T16:21:39.559014+05:30
Ludhiana,Punjab,30.901,75.8573,38.3,13,0.0,975.4,7.5,32.8,80,54.7,13.9,0,5,10,0,2026-04-20T16:21:39.559023+05:30
Jalandhar,Punjab,31.326,75.5762,37.6,13,0.0,976.8,7.65,31.3,81,55.5,13.3,0,5,10,0,2026-04-20T16:21:39.559030+05:30
Dehradun,Uttarakhand,30.6284,78.0322,25.3,32,0.0,831.5,7.7,42.8,89,23.8,8.1,4,5,7,0,2026-04-20T16:21:39.559037+05:30
Shimla,Himachal Pradesh,31.1048,77.1734,24.1,23,0.0,787.6,7.75,46.8,87,28.5,11.1,0,5,7,0,2026-04-20T16:21:39.559044+05:30
Manali,Himachal Pradesh,32.2396,77.1887,23.1,31,0.0,822.4,9.85,29.2,96,18.6,6.1,0,5,7,0,2026-04-20T16:21:39.559050+05:30
Gurgaon,Haryana,28.4595,77.0266,39.0,15,0.0,977.6,7.4,30.6,1053,1743.4,156.9,0,5,10,0,2026-04-20T16:21:39.559057+05:30
Noida,Uttar Pradesh,28.5355,77.391,38.9,15,0.0,980.4,7.3,31.3,1053,1743.4,156.9,0,5,10,0,2026-04-20T16:21:39.559064+05:30
Ghaziabad,Uttar Pradesh,28.6692,77.4538,38.6,16,0.0,978.6,7.3,31.0,168,346.5,44.9,0,5,10,0,2026-04-20T16:21:39.559070+05:30
Faridabad,Haryana,28.4089,77.3178,39.1,15,0.0,979.7,7.35,32.8,1053,1743.4,156.9,0,5,10,0,2026-04-20T16:21:39.559079+05:30
Meerut,Uttar Pradesh,28.9845,77.7064,38.8,14,0.0,977.3,7.2,34.2,168,346.5,44.9,0,5,10,0,2026-04-20T16:21:39.559085+05:30
Agra,Uttar Pradesh,27.1767,78.0081,40.2,14,0.0,983.2,7.7,26.3,659,691.0,72.9,0,5,10,0,2026-04-20T16:21:39.559094+05:30
Varanasi,Uttar Pradesh,25.3176,82.9739,41.7,14,0.0,991.1,8.4,31.7,128,27.2,11.0,0,5,10,0,2026-04-20T16:21:39.559103+05:30
Prayagraj,Uttar Pradesh,25.4358,81.8463,41.0,16,0.0,989.9,7.8,25.9,118,34.7,11.4,0,5,10,0,2026-04-20T16:21:39.559111+05:30
Gorakhpur,Uttar Pradesh,26.7606,83.3732,40.8,19,0.0,990.4,8.35,36.0,155,136.0,28.8,0,5,10,0,2026-04-20T16:21:39.559117+05:30
Bareilly,Uttar Pradesh,28.367,79.4304,39.9,14,0.0,981.6,7.55,34.6,118,56.7,14.8,0,5,10,0,2026-04-20T16:21:39.559123+05:30
Aligarh,Uttar Pradesh,27.8974,78.088,40.2,14,0.0,980.8,7.45,34.9,513,709.7,77.5,0,5,10,0,2026-04-20T16:21:39.559129+05:30
Moradabad,Uttar Pradesh,28.8386,78.7733,39.2,14,0.0,978.9,7.4,38.9,108,61.0,17.6,0,5,10,0,2026-04-20T16:21:39.559135+05:30
Saharanpur,Uttar Pradesh,29.9637,77.546,37.5,15,0.0,971.9,6.95,29.5,96,130.9,23.7,0,5,10,0,2026-04-20T16:21:39.559141+05:30
Jhansi,Uttar Pradesh,25.4484,78.5685,42.3,9,0.0,972.6,8.05,32.4,101,73.1,18.6,0,5,10,0,2026-04-20T16:21:42.862841+05:30
Surat,Gujarat,21.1702,72.8311,32.5,48,0.0,1004.3,7.85,24.5,99,36.2,30.3,0,5,4,1,2026-04-20T16:21:42.862877+05:30
Vadodara,Gujarat,22.3072,73.1812,39.8,19,0.0,1001.1,8.1,27.7,86,21.1,13.4,0,5,7,0,2026-04-20T16:21:42.862888+05:30
Rajkot,Gujarat,22.3039,70.8022,37.8,24,0.0,991.9,7.85,31.3,59,23.9,10.7,0,5,10,0,2026-04-20T16:21:42.862896+05:30
Thane,Maharashtra,19.2183,72.9781,31.2,67,0.0,1005.1,8.05,33.8,99,37.5,23.2,3,5,4,1,2026-04-20T16:21:42.862903+05:30
Nagpur,Maharashtra,21.1458,79.0882,39.7,17,0.0,969.1,8.6,37.4,108,27.9,23.8,0,5,10,0,2026-04-20T16:21:42.862911+05:30
Nashik,Maharashtra,19.9975,73.7898,35.9,27,0.0,943.7,8.3,34.9,117,24.2,17.3,0,5,10,0,2026-04-20T16:21:42.862917+05:30
Aurangabad,Maharashtra,19.8762,75.3433,38.0,18,0.0,941.7,8.85,23.8,114,32.1,26.6,0,5,10,0,2026-04-20T16:21:42.862924+05:30
Solapur,Maharashtra,17.6599,75.9064,38.0,23,0.0,953.9,8.75,20.2,134,38.2,30.7,0,5,10,0,2026-04-20T16:21:42.862931+05:30
Kolhapur,Maharashtra,16.705,74.2433,32.2,52,0.0,945.8,9.05,39.2,120,40.7,35.2,0,5,7,1,2026-04-20T16:21:42.862938+05:30
Goa,Goa,15.2993,74.124,31.8,65,0.0,994.8,9.0,30.2,86,37.1,26.6,3,5,7,1,2026-04-20T16:21:42.862945+05:30
Jodhpur,Rajasthan,26.2389,73.0243,39.1,17,0.0,980.2,8.15,27.0,95,219.8,27.8,0,5,10,0,2026-04-20T16:21:42.862952+05:30
Udaipur,Rajasthan,24.5854,73.7125,36.5,16,0.0,945.2,8.7,31.3,57,18.3,6.9,0,5,10,0,2026-04-20T16:21:42.862959+05:30
Kota,Rajasthan,25.2138,75.8648,41.0,11,0.0,974.6,8.25,28.8,72,49.5,10.3,0,5,10,0,2026-04-20T16:21:42.862966+05:30
Bikaner,Rajasthan,28.0229,73.3119,38.8,17,0.0,979.0,8.0,35.3,96,54.5,13.2,0,5,10,0,2026-04-20T16:21:42.862973+05:30
Ajmer,Rajasthan,26.4499,74.6399,37.7,14,0.0,952.4,8.1,26.3,87,85.7,14.1,0,5,10,0,2026-04-20T16:21:42.862979+05:30
Gwalior,Madhya Pradesh,26.2183,78.1828,39.5,14,0.0,979.0,8.0,38.2,107,140.6,27.2,0,5,10,0,2026-04-20T16:21:42.862985+05:30
Indore,Madhya Pradesh,22.7196,75.8577,37.5,16,0.0,946.1,8.6,37.8,100,19.7,13.9,0,5,10,0,2026-04-20T16:21:42.862992+05:30
Bhopal,Madhya Pradesh,23.2599,77.4126,39.6,14,0.0,950.6,7.1,34.9,97,18.2,15.1,0,5,10,0,2026-04-20T16:21:42.862998+05:30
Jabalpur,Madhya Pradesh,23.1815,79.9864,38.2,21,0.0,958.1,8.45,35.6,94,16.8,13.7,0,5,10,0,2026-04-20T16:21:42.863004+05:30
Ujjain,Madhya Pradesh,23.1765,75.7885,37.4,17,0.0,951.8,8.55,36.0,85,17.3,12.0,0,5,10,0,2026-04-20T16:21:42.863011+05:30
Visakhapatnam,Andhra Pradesh,17.6868,83.2185,32.1,65,0.0,1000.5,9.2,41.8,53,19.7,15.1,3,5,4,1,2026-04-20T16:21:42.863017+05:30
Vijayawada,Andhra Pradesh,16.5062,80.648,37.3,43,0.0,998.4,9.2,27.0,54,25.2,21.2,0,5,10,1,2026-04-20T16:21:42.863023+05:30
Guntur,Andhra Pradesh,16.3067,80.4365,35.9,51,0.0,999.9,9.25,30.2,57,28.6,24.0,0,5,10,1,2026-04-20T16:21:42.863029+05:30
Nellore,Andhra Pradesh,14.4426,79.9865,35.1,54,0.0,1001.8,9.25,38.9,50,25.0,20.1,0,5,7,1,2026-04-20T16:21:42.863036+05:30
Kurnool,Andhra Pradesh,15.8281,78.0373,40.0,24,0.0,972.6,9.2,43.2,128,47.6,37.5,0,5,10,0,2026-04-20T16:21:42.863044+05:30
Kakinada,Andhra Pradesh,16.9891,82.2475,36.1,47,0.0,1003.4,9.2,33.1,38,18.0,12.2,0,5,7,1,2026-04-20T16:21:42.863050+05:30
Tirupati,Andhra Pradesh,13.6288,79.4192,37.4,31,0.0,987.4,9.3,32.4,64,23.6,20.1,0,5,10,1,2026-04-20T16:21:42.863056+05:30
Warangal,Telangana,17.9689,79.5941,39.6,25,0.0,974.7,9.15,27.7,140,49.8,43.2,0,5,10,0,2026-04-20T16:21:42.863063+05:30
Nizamabad,Telangana,18.6725,78.0941,38.8,24,0.0,961.3,9.15,33.8,113,40.3,33.5,0,5,10,0,2026-04-20T16:21:42.863069+05:30
Mysore,Karnataka,12.2958,76.6396,35.2,28,0.0,925.4,9.45,40.7,133,29.3,24.1,0,5,10,0,2026-04-20T16:21:42.863076+05:30
Mangalore,Karnataka,12.9141,74.856,30.2,82,0.0,1003.1,9.1,23.8,80,34.5,22.5,3,5,4,1,2026-04-20T16:21:42.863082+05:30
Hubli-Dharwad,Karnataka,15.3647,75.124,30.0,60,0.0,938.9,9.25,33.8,142,49.4,38.5,4,5,7,1,2026-04-20T16:21:42.863089+05:30
Belgaum,Karnataka,15.8497,74.4977,31.3,51,0.0,924.0,9.25,30.2,159,42.0,35.4,0,5,7,1,2026-04-20T16:21:46.163572+05:30
Coimbatore,Tamil Nadu,11.0168,76.9558,36.4,28,0.0,957.9,9.4,47.2,124,28.8,25.6,0,5,10,0,2026-04-20T16:21:46.163607+05:30
Madurai,Tamil Nadu,9.9252,78.1198,36.4,37,0.0,988.8,9.3,45.0,88,16.1,13.2,0,5,10,1,2026-04-20T16:21:46.163658+05:30
Trichy,Tamil Nadu,10.7905,78.7047,38.1,30,0.0,995.1,9.3,29.2,64,15.4,12.7,0,5,10,1,2026-04-20T16:21:46.163667+05:30
Salem,Tamil Nadu,11.6643,78.146,38.1,28,0.0,973.0,9.35,21.2,90,19.6,16.2,0,5,10,1,2026-04-20T16:21:46.163675+05:30
Tirunelveli,Tamil Nadu,8.7139,77.7567,35.3,45,0.0,999.2,9.2,56.2,70,17.3,14.4,0,5,10,1,2026-04-20T16:21:46.163683+05:30
Vellore,Tamil Nadu,12.9165,79.1325,36.7,32,0.0,980.7,9.35,34.2,74,20.1,16.9,0,5,10,1,2026-04-20T16:21:46.163690+05:30
Erode,Tamil Nadu,11.341,77.7172,39.3,27,0.0,984.1,9.35,31.7,109,18.8,15.6,0,5,10,1,2026-04-20T16:21:46.163697+05:30
Kochi,Kerala,9.9312,76.2673,29.7,82,0.0,1004.6,9.05,31.3,62,20.3,16.1,7,5,4,1,2026-04-20T16:21:46.163704+05:30
Thiruvananthapuram,Kerala,8.5241,76.9366,29.5,80,0.0,1004.5,8.9,31.7,61,19.2,13.8,7,5,4,1,2026-04-20T16:21:46.163712+05:30
Kozhikode,Kerala,11.2588,75.7804,31.1,74,0.0,1004.2,9.1,30.6,63,32.6,20.8,3,5,4,1,2026-04-20T16:21:46.163718+05:30
Thrissur,Kerala,10.5276,76.2144,32.9,64,0.0,1003.0,9.05,36.4,65,22.1,17.2,3,5,4,1,2026-04-20T16:21:46.163726+05:30
Kannur,Kerala,11.8745,75.3704,31.7,67,0.0,1003.9,9.1,31.3,73,30.9,20.2,3,5,4,1,2026-04-20T16:21:46.163734+05:30
Patna,Bihar,25.5941,85.1376,39.3,29,0.0,993.5,8.15,28.8,175,90.6,25.6,0,5,10,1,2026-04-20T16:21:46.163740+05:30
Gaya,Bihar,24.7914,85.0002,41.2,14,0.0,987.5,8.6,34.2,157,83.6,24.2,0,5,10,0,2026-04-20T16:21:46.163747+05:30
Muzaffarpur,Bihar,26.1209,85.3647,37.8,36,0.0,993.7,8.3,27.4,163,86.8,31.3,0,5,10,1,2026-04-20T16:21:46.163754+05:30
Bhagalpur,Bihar,25.2425,87.0117,36.4,45,0.0,994.5,8.65,19.1,169,95.2,43.7,0,5,10,1,2026-04-20T16:21:46.163761+05:30
Ranchi,Jharkhand,23.3441,85.3096,33.8,36,0.0,934.7,9.25,35.3,144,49.1,13.5,0,5,7,1,2026-04-20T16:21:46.163767+05:30
Jamshedpur,Jharkhand,22.8046,86.2029,35.0,46,0.0,986.6,9.05,42.8,189,67.1,26.3,0,5,7,1,2026-04-20T16:21:46.163774+05:30
Dhanbad,Jharkhand,23.7957,86.4304,40.6,16,0.0,973.7,9.0,29.5,155,63.1,19.6,0,5,10,0,2026-04-20T16:21:46.163781+05:30
Bokaro,Jharkhand,23.6693,86.1511,37.6,29,0.0,978.1,9.0,36.7,149,58.6,18.5,0,5,10,1,2026-04-20T16:21:46.163787+05:30
Bhubaneswar,Odisha,20.2961,85.8245,32.3,68,0.0,998.5,9.1,34.9,94,32.5,26.3,3,5,7,1,2026-04-20T16:21:46.163795+05:30
Cuttack,Odisha,20.4625,85.8828,35.5,55,0.0,999.9,9.15,32.4,94,32.5,26.3,0,5,10,1,2026-04-20T16:21:46.163801+05:30
Rourkela,Odisha,22.2604,84.8536,36.6,40,0.0,980.8,8.95,52.2,189,52.4,25.8,0,5,10,1,2026-04-20T16:21:46.163808+05:30
Raipur,Chhattisgarh,21.2514,81.6296,41.0,17,0.0,969.8,8.65,40.3,140,35.5,19.8,0,5,10,0,2026-04-20T16:21:46.163815+05:30
Bhilai,Chhattisgarh,21.1938,81.3509,40.5,19,0.0,970.3,8.25,38.2,130,26.0,19.3,0,5,10,0,2026-04-20T16:21:46.163821+05:30
Guwahati,Assam,26.1158,91.7086,29.5,76,0.0,996.1,8.5,36.4,93,21.2,14.6,7,5,7,1,2026-04-20T16:21:46.163827+05:30
Agartala,Tripura,23.8315,91.2868,33.1,60,0.0,1001.4,8.6,33.1,105,48.4,40.2,0,5,4,1,2026-04-20T16:21:46.163834+05:30
Shillong,Meghalaya,25.5788,91.8933,20.2,72,0.0,854.5,7.2,72.0,66,25.8,18.5,3,5,7,0,2026-04-20T16:21:46.163841+05:30
Imphal,Manipur,24.817,93.9368,22.5,78,0.0,920.4,9.15,68.4,106,46.8,32.7,3,5,7,1,2026-04-20T16:21:46.163847+05:30
Aizawl,Mizoram,23.7271,92.7176,24.9,72,0.0,891.4,8.95,69.8,132,53.6,43.3,3,5,7,1,2026-04-20T16:21:46.163853+05:30
Kohima,Nagaland,25.6701,94.1077,20.3,76,0.0,853.0,7.75,102.6,82,35.7,22.5,3,5,7,0,2026-04-20T16:21:46.163859+05:30
Gangtok,Sikkim,27.3314,88.6138,20.7,76,0.0,836.0,8.8,19.1,95,14.8,11.4,3,5,7,1,2026-04-20T16:21:46.163866+05:30
Siliguri,West Bengal,26.7271,88.3953,27.6,69,0.0,988.8,8.45,23.0,106,34.2,27.5,7,5,7,1,2026-04-20T16:21:49.471656+05:30
Durgapur,West Bengal,23.5204,87.3119,29.5,69,0.0,990.1,8.9,44.3,200,78.2,25.9,7,5,7,1,2026-04-20T16:21:49.471692+05:30
Asansol,West Bengal,23.6739,86.9524,30.8,62,0.0,988.4,8.95,48.2,165,68.7,23.0,3,5,7,1,2026-04-20T16:21:49.471703+05:30
Pondicherry,Puducherry,11.9139,79.8145,34.8,55,0.0,1004.6,9.25,33.1,32,11.7,8.1,0,5,4,1,2026-04-20T16:21:49.471711+05:30
Port Blair,Andaman and Nicobar Islands,11.6234,92.7265,29.9,72,0.0,1005.5,9.05,17.3,64,20.4,16.6,7,5,4,1,2026-04-20T16:21:49.471719+05:30
Haridwar,Uttarakhand,29.9457,78.1642,37.5,15,0.0,970.5,7.05,33.8,83,58.9,15.7,0,5,10,0,2026-04-20T16:21:49.471727+05:30
Rishikesh,Uttarakhand,30.0869,78.2676,35.7,18,0.0,963.7,7.2,36.7,76,38.4,11.4,0,5,10,0,2026-04-20T16:21:49.471734+05:30
Nainital,Uttarakhand,29.3919,79.4542,28.8,15,0.0,808.1,8.05,60.1,108,49.1,13.0,4,5,7,1,2026-04-20T16:21:49.471742+05:30
Mussoorie,Uttarakhand,30.4599,78.0664,26.0,28,0.0,804.7,7.55,46.4,80,31.1,9.9,4,5,7,0,2026-04-20T16:21:49.471750+05:30
Dharamshala,Himachal Pradesh,32.219,76.3234,29.1,23,0.0,869.6,7.8,31.7,79,28.3,8.2,4,5,7,0,2026-04-20T16:21:49.471757+05:30
Dalhousie,Himachal Pradesh,32.5387,75.971,27.7,17,0.0,806.2,8.05,31.0,73,33.9,10.0,4,5,7,0,2026-04-20T16:21:49.471765+05:30
Patiala,Punjab,30.3398,76.3869,38.3,12,0.0,974.7,7.15,28.4,349,488.0,46.9,0,5,10,0,2026-04-20T16:21:49.471772+05:30
Bhatinda,Punjab,30.211,74.9455,39.1,12,0.0,980.4,7.8,31.3,96,41.3,11.9,0,5,10,0,2026-04-20T16:21:49.471778+05:30
Rohtak,Haryana,28.8955,76.6066,38.6,14,0.0,978.1,7.3,32.0,635,771.1,70.5,0,5,10,0,2026-04-20T16:21:49.471784+05:30
Panipat,Haryana,29.3909,76.9635,38.7,15,0.0,976.6,7.1,26.6,1138,1311.3,111.1,0,5,10,0,2026-04-20T16:21:49.471791+05:30
Mathura,Uttar Pradesh,27.4924,77.6737,39.9,14,0.0,982.4,7.6,26.6,715,692.9,68.0,0,5,10,0,2026-04-20T16:21:49.471797+05:30
Vrindavan,Uttar Pradesh,27.5823,77.7027,40.3,14,0.0,982.6,7.55,26.3,715,692.9,68.0,0,5,10,0,2026-04-20T16:21:49.471804+05:30
Ayodhya,Uttar Pradesh,26.7922,82.1998,41.5,12,0.0,988.9,8.1,37.1,141,165.8,30.7,0,5,10,0,2026-04-20T16:21:49.471810+05:30
Ratlam,Madhya Pradesh,23.3315,75.0367,35.0,26,0.0,952.9,8.45,29.9,92,16.6,11.4,0,5,7,0,2026-04-20T16:21:49.471816+05:30
Sagar,Madhya Pradesh,23.8388,78.7378,39.5,14,0.0,946.9,8.35,36.0,95,13.4,11.1,0,5,10,0,2026-04-20T16:21:49.471823+05:30
Satna,Madhya Pradesh,24.6005,80.8322,39.0,18,0.0,967.3,7.75,41.8,108,12.3,9.0,0,5,10,0,2026-04-20T16:21:49.471829+05:30
Akola,Maharashtra,20.7002,77.0082,40.3,18,0.0,971.4,8.9,29.5,118,24.5,20.7,0,5,10,0,2026-04-20T16:21:49.471836+05:30
Amravati,Maharashtra,20.9374,77.7796,39.4,19,0.0,963.7,8.85,27.0,114,19.8,16.9,0,5,10,0,2026-04-20T16:21:49.471843+05:30
Latur,Maharashtra,18.4088,76.5604,35.4,26,0.0,937.6,8.9,24.5,124,40.5,32.2,0,5,10,0,2026-04-20T16:21:49.471850+05:30
Nanded,Maharashtra,19.1383,77.3091,39.2,23,0.0,965.2,8.85,21.2,121,38.6,30.6,0,5,10,0,2026-04-20T16:21:49.471857+05:30
Gulbarga,Karnataka,17.3297,76.8343,38.4,22,0.0,955.3,9.1,39.2,144,44.2,34.1,0,5,10,0,2026-04-20T16:21:49.471863+05:30
Bidar,Karnataka,17.9104,77.5199,36.6,25,0.0,933.3,8.65,42.5,122,44.5,33.3,0,5,10,0,2026-04-20T16:21:49.471869+05:30
Hospet,Karnataka,15.2689,76.3909,37.1,28,0.0,952.3,9.25,22.7,153,54.1,42.3,0,5,10,0,2026-04-20T16:21:49.471875+05:30
Tirupur,Tamil Nadu,11.1085,77.3411,38.5,25,0.0,970.8,9.4,29.2,130,21.2,17.8,0,5,10,0,2026-04-20T16:21:49.471881+05:30
Alappuzha,Kerala,9.4981,76.3388,29.6,82,0.0,1004.8,8.6,29.2,65,23.3,17.1,7,5,4,1,2026-04-20T16:21:49.471887+05:30
Munnar,Kerala,10.0889,77.0595,29.6,52,0.0,856.6,9.65,32.0,76,13.6,10.6,4,5,7,1,2026-04-20T16:21:49.471894+05:30
Silchar,Assam,24.8333,92.7789,29.6,72,0.0,1001.0,8.1,42.5,114,43.1,33.1,7,5,4,1,2026-04-20T16:21:49.471901+05:30
Dibrugarh,Assam,27.4728,94.912,27.4,76,0.0,991.1,8.75,16.6,115,20.5,15.9,7,5,7,1,2026-04-20T16:21:49.471907+05:30
