city,state,latitude,longitude,temp,humidity,rain,pressure,uv_index,wind_gusts,aqi,pm10,pm2_5,no2,co,o3,so2,mosquito_risk,arthritis_risk,migraine_risk,frizz_risk,updated_at
Delhi,Delhi,28.6139,77.209,30.2,74,0.0,976.3,6.2,33.8,562,1113.9,271.0,90.0,280.0,0.0,48.4,3,5,7,1,2026-07-17T04:28:39.544896+05:30
Mumbai,Maharashtra,19.076,72.8777,25.8,93,0.2,1006.2,7.65,40.0,71,33.2,15.3,7.2,139.0,40.0,6.2,10,5,4,1,2026-07-17T04:28:39.544942+05:30
Bangalore,Karnataka,12.9716,77.5946,21.4,84,0.0,911.1,8.45,50.8,66,9.5,6.1,8.3,153.0,37.0,4.3,3,5,7,1,2026-07-17T04:28:39.544958+05:30
Hyderabad,Telangana,17.385,78.4867,25.6,72,0.1,950.9,1.7,42.5,68,27.4,17.2,9.1,167.0,45.0,5.3,10,5,3,1,2026-07-17T04:28:39.544968+05:30
Chennai,Tamil Nadu,13.0827,80.2707,29.6,61,0.0,1004.7,8.3,41.8,79,27.1,20.7,14.7,255.0,55.0,10.3,7,5,4,1,2026-07-17T04:28:39.544976+05:30
Kolkata,West Bengal,22.5726,88.3639,27.0,92,0.0,997.7,7.2,37.8,60,17.2,15.3,10.1,398.0,74.0,8.5,7,5,7,1,2026-07-17T04:28:39.544984+05:30
Pune,Maharashtra,18.5204,73.8567,23.5,88,0.0,945.7,7.6,48.2,49,6.5,4.3,7.5,137.0,33.0,6.8,3,5,7,1,2026-07-17T04:28:39.544990+05:30
Ahmedabad,Gujarat,23.0225,72.5714,28.3,78,0.0,998.3,5.9,37.4,78,30.9,18.3,11.4,170.0,31.0,4.3,7,5,3,1,2026-07-17T04:28:39.544997+05:30
Jaipur,Rajasthan,26.9124,75.7873,29.6,56,0.0,954.7,8.05,40.0,270,573.7,103.1,9.3,176.0,53.0,4.5,4,5,7,1,2026-07-17T04:28:39.545004+05:30
Lucknow,Uttar Pradesh,26.8467,80.9462,28.6,91,0.0,987.3,6.65,28.4,162,61.5,50.9,13.4,459.0,74.0,9.2,7,5,7,1,2026-07-17T04:28:39.545015+05:30
Kanpur,Uttar Pradesh,26.4499,80.3319,29.0,87,0.0,985.3,8.05,20.2,172,118.3,72.4,31.5,239.0,47.0,10.2,7,5,7,1,2026-07-17T04:28:39.545021+05:30
Chandigarh,Chandigarh,30.7333,76.7794,27.0,83,0.0,961.9,6.85,34.6,153,79.9,74.3,42.1,860.0,22.0,9.1,7,5,7,1,2026-07-17T04:28:39.545028+05:30
Srinagar,Jammu and Kashmir,34.0837,74.7973,20.5,87,0.0,837.1,9.05,23.4,96,58.2,53.3,36.3,531.0,12.0,2.6,3,5,7,1,2026-07-17T04:28:39.545034+05:30
Jammu,Jammu and Kashmir,32.7266,74.857,26.8,94,0.3,966.1,8.6,23.8,151,74.3,65.7,40.9,364.0,22.0,4.2,10,5,7,1,2026-07-17T04:28:39.545040+05:30
Amritsar,Punjab,31.634,74.8723,28.9,82,0.0,973.7,8.3,22.3,171,125.7,110.4,57.4,762.0,13.0,8.0,7,5,7,1,2026-07-17T04:28:39.545046+05:30
Ludhiana,Punjab,30.901,75.8573,28.7,92,0.0,971.9,7.95,30.6,173,195.6,148.5,87.3,1628.0,0.0,13.8,7,5,7,1,2026-07-17T04:28:39.545052+05:30
Jalandhar,Punjab,31.326,75.5762,27.5,93,0.0,972.8,8.25,24.8,181,193.2,175.1,97.0,1376.0,2.0,15.2,7,5,7,1,2026-07-17T04:28:39.545059+05:30
Dehradun,Uttarakhand,30.6284,78.0322,18.0,100,0.0,826.2,6.6,27.0,84,44.8,40.7,23.8,339.0,42.0,1.8,3,10,7,1,2026-07-17T04:28:39.545065+05:30
Shimla,Himachal Pradesh,31.1048,77.1734,14.0,97,0.0,779.7,6.65,39.6,100,59.8,52.0,22.6,347.0,34.0,0.1,3,10,7,0,2026-07-17T04:28:39.545072+05:30
Manali,Himachal Pradesh,32.2396,77.1887,20.0,75,0.0,816.4,5.25,32.8,47,11.8,9.3,40.2,311.0,10.0,0.0,3,5,3,0,2026-07-17T04:28:39.545081+05:30
Gurgaon,Haryana,28.4595,77.0266,30.4,59,0.0,974.8,6.15,35.6,436,486.2,139.7,59.7,225.0,7.0,28.9,0,5,7,1,2026-07-17T04:28:39.545090+05:30
Noida,Uttar Pradesh,28.5355,77.391,29.6,82,0.0,977.5,6.35,25.9,436,486.2,139.7,59.7,318.0,7.0,28.9,7,5,7,1,2026-07-17T04:28:39.545096+05:30
Ghaziabad,Uttar Pradesh,28.6692,77.4538,28.8,82,0.0,975.7,5.8,30.2,413,972.3,264.5,92.9,567.0,3.0,37.3,7,5,3,1,2026-07-17T04:28:39.545102+05:30
Faridabad,Haryana,28.4089,77.3178,30.3,67,0.0,976.9,6.35,33.5,436,486.2,139.7,59.7,228.0,7.0,28.9,3,5,7,1,2026-07-17T04:28:39.545108+05:30
Meerut,Uttar Pradesh,28.9845,77.7064,29.2,81,0.0,974.5,7.6,29.9,413,972.3,264.5,92.9,1260.0,3.0,37.3,7,5,7,1,2026-07-17T04:28:39.545114+05:30
Agra,Uttar Pradesh,27.1767,78.0081,31.0,58,0.0,981.3,6.8,34.9,152,69.6,36.9,19.3,196.0,42.0,5.7,0,5,7,1,2026-07-17T04:28:39.545121+05:30
Varanasi,Uttar Pradesh,25.3176,82.9739,26.8,97,0.0,991.3,5.2,18.0,176,61.2,50.1,13.4,587.0,76.0,10.1,7,5,3,1,2026-07-17T04:28:39.545128+05:30
Prayagraj,Uttar Pradesh,25.4358,81.8463,26.5,95,0.6,990.4,7.9,29.9,167,80.1,62.9,17.0,259.0,66.0,9.3,10,5,7,1,2026-07-17T04:28:39.545135+05:30
Gorakhpur,Uttar Pradesh,26.7606,83.3732,26.6,98,0.0,991.5,7.2,28.4,107,10.9,10.5,9.2,676.0,89.0,3.1,7,5,7,1,2026-07-17T04:28:39.545141+05:30
Bareilly,Uttar Pradesh,28.367,79.4304,27.6,95,0.0,980.3,6.8,28.8,174,78.7,61.5,11.3,448.0,83.0,6.8,7,5,7,1,2026-07-17T04:28:39.545149+05:30
Aligarh,Uttar Pradesh,27.8974,78.088,29.7,69,0.0,978.5,7.35,27.4,189,304.5,90.1,28.7,261.0,28.0,5.7,7,5,7,1,2026-07-17T04:28:39.545155+05:30
Moradabad,Uttar Pradesh,28.8386,78.7733,27.7,94,0.0,977.1,7.15,31.0,190,142.5,111.5,51.6,448.0,31.0,16.1,7,5,7,1,2026-07-17T04:28:39.545161+05:30
Saharanpur,Uttar Pradesh,29.9637,77.546,27.3,89,0.0,968.7,7.3,32.8,166,141.6,111.3,68.4,751.0,14.0,18.5,7,5,7,1,2026-07-17T04:28:39.545169+05:30
Jhansi,Uttar Pradesh,25.4484,78.5685,29.7,64,0.0,971.9,7.25,42.8,90,51.1,27.9,10.6,179.0,56.0,5.7,7,5,7,1,2026-07-17T04:28:42.838051+05:30
Surat,Gujarat,21.1702,72.8311,25.9,96,0.1,1003.5,7.7,48.2,78,31.1,21.4,25.9,300.0,18.0,39.4,10,5,4,1,2026-07-17T04:28:42.838087+05:30
Vadodara,Gujarat,22.3072,73.1812,27.7,85,0.0,1000.9,5.5,40.0,72,25.7,16.8,13.9,132.0,28.0,9.6,7,5,0,1,2026-07-17T04:28:42.838098+05:30
Rajkot,Gujarat,22.3039,70.8022,26.2,89,0.0,990.3,6.4,44.3,65,22.9,12.3,7.2,100.0,30.0,3.9,7,5,7,1,2026-07-17T04:28:42.838107+05:30
Thane,Maharashtra,19.2183,72.9781,24.9,99,0.1,1005.7,7.0,37.4,71,33.2,15.3,7.2,148.0,40.0,6.2,6,5,4,1,2026-07-17T04:28:42.838115+05:30
Nagpur,Maharashtra,21.1458,79.0882,28.3,67,0.0,969.0,0.85,35.6,88,51.7,31.4,19.5,205.0,32.0,9.1,7,5,3,1,2026-07-17T04:28:42.838123+05:30
Nashik,Maharashtra,19.9975,73.7898,23.0,95,0.0,942.6,7.4,47.5,56,16.4,9.1,11.2,131.0,28.0,11.6,3,5,7,1,2026-07-17T04:28:42.838130+05:30
Aurangabad,Maharashtra,19.8762,75.3433,23.2,91,0.0,941.7,8.15,51.8,62,13.6,8.5,9.4,169.0,35.0,10.5,3,5,7,1,2026-07-17T04:28:42.838137+05:30
Solapur,Maharashtra,17.6599,75.9064,26.1,71,0.0,955.5,6.7,42.8,55,14.0,8.9,6.9,145.0,34.0,2.7,7,5,7,1,2026-07-17T04:28:42.838145+05:30
Kolhapur,Maharashtra,16.705,74.2433,22.7,90,0.0,946.3,7.6,49.7,50,5.7,4.0,4.4,112.0,36.0,2.5,3,5,7,1,2026-07-17T04:28:42.838151+05:30
Goa,Goa,15.2993,74.124,23.7,98,0.1,997.9,7.1,34.6,68,33.1,15.7,3.2,312.0,44.0,1.1,6,5,7,1,2026-07-17T04:28:42.838158+05:30
Jodhpur,Rajasthan,26.2389,73.0243,29.7,62,0.0,978.1,8.4,42.1,137,151.8,40.9,5.8,126.0,52.0,2.0,7,5,7,1,2026-07-17T04:28:42.838165+05:30
Udaipur,Rajasthan,24.5854,73.7125,24.5,83,0.0,942.5,8.65,39.2,84,39.2,22.9,11.1,154.0,45.0,9.0,3,5,7,1,2026-07-17T04:28:42.838172+05:30
Kota,Rajasthan,25.2138,75.8648,29.5,61,0.0,974.2,8.2,33.1,87,46.4,28.6,7.9,177.0,70.0,7.7,7,5,7,1,2026-07-17T04:28:42.838179+05:30
Bikaner,Rajasthan,28.0229,73.3119,31.3,50,0.0,976.2,8.45,37.8,139,169.0,57.3,2.9,115.0,57.0,4.1,0,5,7,1,2026-07-17T04:28:42.838185+05:30
Ajmer,Rajasthan,26.4499,74.6399,27.4,65,0.0,950.1,8.15,45.4,89,34.9,20.8,8.2,132.0,55.0,4.2,7,5,7,1,2026-07-17T04:28:42.838192+05:30
Gwalior,Madhya Pradesh,26.2183,78.1828,29.5,67,0.0,977.0,5.95,41.8,102,55.3,27.4,12.1,140.0,48.0,2.8,7,5,3,1,2026-07-17T04:28:42.838199+05:30
Indore,Madhya Pradesh,22.7196,75.8577,24.5,87,0.0,944.8,8.55,43.6,74,26.5,20.2,9.2,174.0,64.0,13.3,3,5,7,1,2026-07-17T04:28:42.838206+05:30
Bhopal,Madhya Pradesh,23.2599,77.4126,26.8,72,0.0,949.6,7.65,36.0,83,43.3,28.4,7.6,273.0,65.0,5.0,7,5,7,1,2026-07-17T04:28:42.838213+05:30
Jabalpur,Madhya Pradesh,23.1815,79.9864,25.1,94,0.0,956.5,6.05,34.9,90,43.1,23.2,8.3,276.0,65.0,3.1,7,5,7,1,2026-07-17T04:28:42.838220+05:30
Ujjain,Madhya Pradesh,23.1765,75.7885,24.6,87,0.0,950.4,8.45,38.5,76,27.4,20.5,9.3,222.0,59.0,13.5,3,5,7,1,2026-07-17T04:28:42.838227+05:30
Visakhapatnam,Andhra Pradesh,17.6868,83.2185,28.3,77,0.0,998.5,8.35,52.2,97,32.9,23.6,21.9,260.0,46.0,36.1,7,5,7,1,2026-07-17T04:28:42.838234+05:30
Vijayawada,Andhra Pradesh,16.5062,80.648,28.5,70,0.0,999.5,3.2,42.8,75,42.1,30.7,14.7,192.0,42.0,5.3,7,5,3,1,2026-07-17T04:28:42.838241+05:30
Guntur,Andhra Pradesh,16.3067,80.4365,28.3,69,0.0,1001.0,3.5,42.8,73,39.8,27.0,13.7,174.0,46.0,5.0,7,5,0,1,2026-07-17T04:28:42.838247+05:30
Nellore,Andhra Pradesh,14.4426,79.9865,29.8,60,0.0,1003.7,6.8,49.3,73,30.4,19.5,11.1,125.0,48.0,7.4,4,5,4,1,2026-07-17T04:28:42.838255+05:30
Kurnool,Andhra Pradesh,15.8281,78.0373,25.0,91,0.1,975.3,8.3,47.2,65,17.4,10.6,8.8,130.0,40.0,3.6,10,5,7,1,2026-07-17T04:28:42.838263+05:30
Kakinada,Andhra Pradesh,16.9891,82.2475,27.5,78,0.0,1003.8,8.7,46.8,76,35.0,21.0,7.6,241.0,71.0,6.3,7,5,4,1,2026-07-17T04:28:42.838269+05:30
Tirupati,Andhra Pradesh,13.6288,79.4192,29.4,50,0.0,989.1,8.35,37.8,82,32.0,21.2,18.0,193.0,33.0,2.7,4,5,7,1,2026-07-17T04:28:42.838276+05:30
Warangal,Telangana,17.9689,79.5941,27.4,74,0.0,975.6,7.0,37.8,78,52.2,31.3,15.1,201.0,34.0,5.2,7,5,7,1,2026-07-17T04:28:42.838283+05:30
Nizamabad,Telangana,18.6725,78.0941,26.6,71,0.0,962.2,3.2,40.0,71,64.3,32.9,9.7,163.0,46.0,7.3,7,5,3,1,2026-07-17T04:28:42.838289+05:30
Mysore,Karnataka,12.2958,76.6396,21.0,91,0.0,928.2,3.75,46.4,58,8.2,4.8,5.3,100.0,39.0,2.0,3,5,3,1,2026-07-17T04:28:42.838295+05:30
Mangalore,Karnataka,12.9141,74.856,23.6,99,0.1,1007.9,0.95,37.8,62,19.9,10.1,5.7,127.0,36.0,2.1,6,5,0,1,2026-07-17T04:28:42.838301+05:30
Hubli-Dharwad,Karnataka,15.3647,75.124,22.1,93,0.0,939.9,8.1,52.6,47,4.3,2.3,2.2,100.0,43.0,1.2,3,5,7,1,2026-07-17T04:28:42.838307+05:30
Belgaum,Karnataka,15.8497,74.4977,20.8,98,0.0,924.1,8.7,50.8,47,3.9,2.5,3.8,124.0,38.0,2.1,3,5,7,1,2026-07-17T04:28:46.135777+05:30
Coimbatore,Tamil Nadu,11.0168,76.9558,23.3,88,0.0,961.4,8.75,51.5,58,17.8,9.3,5.5,172.0,37.0,2.9,3,5,7,1,2026-07-17T04:28:46.135812+05:30
Madurai,Tamil Nadu,9.9252,78.1198,27.3,65,0.0,992.7,8.55,43.6,80,30.0,25.3,37.7,134.0,0.0,6.1,7,5,7,1,2026-07-17T04:28:46.135841+05:30
Trichy,Tamil Nadu,10.7905,78.7047,27.7,65,0.0,999.1,8.8,56.9,67,22.2,14.2,11.3,111.0,32.0,4.1,7,5,7,1,2026-07-17T04:28:46.135850+05:30
Salem,Tamil Nadu,11.6643,78.146,24.7,83,0.0,977.0,8.9,31.7,76,29.9,21.4,22.7,127.0,23.0,6.6,3,5,7,1,2026-07-17T04:28:46.135858+05:30
Tirunelveli,Tamil Nadu,8.7139,77.7567,27.1,71,0.0,1003.2,7.85,50.0,59,15.4,9.8,8.3,141.0,30.0,3.0,7,5,4,1,2026-07-17T04:28:46.135865+05:30
Vellore,Tamil Nadu,12.9165,79.1325,28.4,57,0.0,983.0,8.1,41.8,80,21.1,15.2,13.2,159.0,43.0,5.1,4,5,7,1,2026-07-17T04:28:46.135872+05:30
Erode,Tamil Nadu,11.341,77.7172,25.9,74,0.0,988.7,8.85,34.2,64,20.0,13.7,13.5,159.0,31.0,3.9,7,5,7,1,2026-07-17T04:28:46.135879+05:30
Kochi,Kerala,9.9312,76.2673,25.8,93,0.0,1009.8,8.0,37.8,70,20.2,11.8,9.1,97.0,28.0,3.7,7,0,4,1,2026-07-17T04:28:46.135886+05:30
Thiruvananthapuram,Kerala,8.5241,76.9366,24.5,94,0.0,1009.5,8.1,47.9,66,31.1,14.3,3.6,124.0,47.0,1.5,3,0,4,1,2026-07-17T04:28:46.135893+05:30
Kozhikode,Kerala,11.2588,75.7804,23.4,98,0.0,1009.6,7.9,37.8,60,25.6,11.5,2.2,130.0,49.0,1.5,3,0,4,1,2026-07-17T04:28:46.135899+05:30
Thrissur,Kerala,10.5276,76.2144,24.1,96,0.1,1008.6,7.7,38.2,65,23.1,13.2,6.9,142.0,29.0,2.9,6,0,4,1,2026-07-17T04:28:46.135906+05:30
Kannur,Kerala,11.8745,75.3704,24.0,99,0.2,1008.7,2.2,31.7,63,19.8,10.3,7.2,195.0,32.0,1.8,6,0,0,1,2026-07-17T04:28:46.135913+05:30
Patna,Bihar,25.5941,85.1376,27.7,93,0.0,994.4,8.25,30.6,99,44.2,40.3,23.9,358.0,37.0,11.8,7,5,7,1,2026-07-17T04:28:46.135919+05:30
Gaya,Bihar,24.7914,85.0002,26.5,97,0.0,987.8,8.7,27.4,96,60.5,58.3,31.5,363.0,30.0,10.3,7,5,7,1,2026-07-17T04:28:46.135925+05:30
Muzaffarpur,Bihar,26.1209,85.3647,27.4,91,0.0,994.6,7.2,38.2,94,42.7,39.7,20.5,526.0,46.0,10.2,7,5,7,1,2026-07-17T04:28:46.135932+05:30
Bhagalpur,Bihar,25.2425,87.0117,27.6,88,0.0,994.8,7.55,33.1,78,20.6,19.1,13.7,259.0,59.0,8.7,7,5,7,1,2026-07-17T04:28:46.135938+05:30
Ranchi,Jharkhand,23.3441,85.3096,23.3,98,0.0,931.5,7.75,29.9,67,32.6,30.5,17.7,255.0,43.0,13.8,3,5,7,1,2026-07-17T04:28:46.135944+05:30
Jamshedpur,Jharkhand,22.8046,86.2029,25.8,97,0.0,983.7,8.35,23.4,80,43.2,39.7,41.2,217.0,24.0,54.9,7,5,7,1,2026-07-17T04:28:46.135951+05:30
Dhanbad,Jharkhand,23.7957,86.4304,26.1,92,0.0,972.8,7.85,25.6,94,41.4,38.8,33.7,200.0,35.0,91.3,7,5,7,1,2026-07-17T04:28:46.135957+05:30
Bokaro,Jharkhand,23.6693,86.1511,26.4,90,0.1,976.8,7.35,19.4,92,46.9,42.3,32.7,219.0,39.0,88.9,10,5,7,1,2026-07-17T04:28:46.135964+05:30
Bhubaneswar,Odisha,20.2961,85.8245,25.1,98,0.5,996.5,7.0,40.0,72,45.4,33.1,18.5,247.0,42.0,5.5,10,5,7,1,2026-07-17T04:28:46.135970+05:30
Cuttack,Odisha,20.4625,85.8828,25.3,97,0.2,998.0,7.85,37.4,72,45.4,33.1,18.5,261.0,42.0,5.5,10,5,7,1,2026-07-17T04:28:46.135977+05:30
Rourkela,Odisha,22.2604,84.8536,24.7,98,0.1,978.6,5.85,32.8,75,32.7,25.8,10.9,256.0,60.0,1.6,6,5,3,1,2026-07-17T04:28:46.135983+05:30
Raipur,Chhattisgarh,21.2514,81.6296,24.7,97,0.2,969.7,1.95,38.9,123,49.5,37.6,28.9,436.0,47.0,48.2,6,5,3,1,2026-07-17T04:28:46.135990+05:30
Bhilai,Chhattisgarh,21.1938,81.3509,24.5,99,0.2,970.4,1.75,41.0,112,50.2,36.0,21.3,669.0,52.0,35.3,6,5,3,1,2026-07-17T04:28:46.135996+05:30
Guwahati,Assam,26.1158,91.7086,25.7,99,0.3,996.7,7.8,21.6,58,12.8,11.1,9.0,260.0,34.0,1.6,10,5,7,1,2026-07-17T04:28:46.136002+05:30
Agartala,Tripura,23.8315,91.2868,25.8,89,0.0,1002.0,8.25,51.8,63,11.2,9.2,6.5,159.0,64.0,3.1,7,5,4,1,2026-07-17T04:28:46.136008+05:30
Shillong,Meghalaya,25.5788,91.8933,20.2,98,0.0,854.1,8.4,41.4,43,4.2,2.6,3.8,158.0,62.0,2.2,3,5,7,1,2026-07-17T04:28:46.136014+05:30
Imphal,Manipur,24.817,93.9368,22.6,97,0.1,920.2,7.6,32.8,56,14.8,12.0,6.0,504.0,43.0,2.1,6,5,7,1,2026-07-17T04:28:46.136020+05:30
Aizawl,Mizoram,23.7271,92.7176,19.5,92,0.1,889.1,7.7,52.2,56,29.6,16.5,2.5,143.0,58.0,2.1,6,10,7,1,2026-07-17T04:28:46.136026+05:30
Kohima,Nagaland,25.6701,94.1077,19.8,92,0.3,852.6,4.55,23.8,40,6.7,4.5,2.7,218.0,51.0,0.7,6,10,3,1,2026-07-17T04:28:46.136033+05:30
Gangtok,Sikkim,27.3314,88.6138,18.0,98,0.0,834.4,7.5,31.3,44,10.8,8.9,3.4,372.0,92.0,1.8,3,10,7,1,2026-07-17T04:28:46.136039+05:30
Siliguri,West Bengal,26.7271,88.3953,26.6,87,0.0,987.8,6.65,29.5,62,26.8,21.7,6.8,207.0,92.0,3.6,7,5,7,1,2026-07-17T04:28:49.443512+05:30
Durgapur,West Bengal,23.5204,87.3119,26.2,96,0.0,987.5,8.55,32.0,80,27.0,24.9,27.1,279.0,49.0,31.8,7,5,7,1,2026-07-17T04:28:49.443549+05:30
Asansol,West Bengal,23.6739,86.9524,26.2,97,0.0,986.1,8.3,35.3,79,26.3,24.3,28.1,232.0,40.0,32.0,7,5,7,1,2026-07-17T04:28:49.443560+05:30
Pondicherry,Puducherry,11.9139,79.8145,27.8,75,0.0,1007.0,8.65,41.0,77,18.9,13.0,8.0,206.0,54.0,6.5,7,5,4,1,2026-07-17T04:28:49.443568+05:30
Port Blair,Andaman and Nicobar Islands,11.6234,92.7265,26.8,87,0.0,1007.7,7.8,39.2,48,14.3,7.3,0.1,88.0,44.0,0.4,7,5,4,1,2026-07-17T04:28:49.443575+05:30
Haridwar,Uttarakhand,29.9457,78.1642,27.7,85,0.0,967.5,7.5,27.4,145,111.8,95.0,43.7,436.0,35.0,14.3,7,5,7,1,2026-07-17T04:28:49.443583+05:30
Rishikesh,Uttarakhand,30.0869,78.2676,25.5,91,0.0,960.1,7.4,25.9,110,62.2,54.6,10.0,380.0,117.0,10.3,7,5,7,1,2026-07-17T04:28:49.443591+05:30
Nainital,Uttarakhand,29.3919,79.4542,17.1,98,0.0,802.1,6.35,28.4,127,69.8,47.1,7.4,295.0,113.0,6.3,3,10,7,1,2026-07-17T04:28:49.443598+05:30
Mussoorie,Uttarakhand,30.4599,78.0664,17.2,100,0.0,799.6,6.65,39.2,111,58.0,55.9,21.4,358.0,77.0,9.9,3,10,7,1,2026-07-17T04:28:49.443605+05:30
Dharamshala,Himachal Pradesh,32.219,76.3234,21.5,77,0.0,864.8,7.9,23.4,78,35.6,31.9,18.2,292.0,15.0,0.2,3,5,7,1,2026-07-17T04:28:49.443612+05:30
Dalhousie,Himachal Pradesh,32.5387,75.971,16.1,97,0.0,800.3,7.55,24.1,121,67.8,56.3,23.6,600.0,77.0,3.7,3,10,7,0,2026-07-17T04:28:49.443620+05:30
Patiala,Punjab,30.3398,76.3869,28.1,88,0.0,971.3,6.8,29.9,184,336.2,177.9,90.9,1201.0,0.0,15.3,7,5,7,1,2026-07-17T04:28:49.443627+05:30
Bhatinda,Punjab,30.211,74.9455,31.4,66,0.0,976.7,8.15,29.2,175,238.4,137.8,80.1,650.0,0.0,9.8,3,5,7,1,2026-07-17T04:28:49.443633+05:30
Rohtak,Haryana,28.8955,76.6066,29.9,78,0.0,974.9,6.55,30.6,749,1002.1,248.7,77.7,281.0,0.0,22.4,7,5,7,1,2026-07-17T04:28:49.443640+05:30
Panipat,Haryana,29.3909,76.9635,28.7,81,0.0,973.5,6.8,29.9,1126,868.0,227.7,63.1,1026.0,8.0,11.8,7,5,7,1,2026-07-17T04:28:49.443646+05:30
Mathura,Uttar Pradesh,27.4924,77.6737,30.1,60,0.0,980.2,7.1,29.5,435,596.0,103.1,22.5,234.0,37.0,5.1,0,5,7,1,2026-07-17T04:28:49.443653+05:30
Vrindavan,Uttar Pradesh,27.5823,77.7027,30.1,62,0.0,980.5,7.2,29.2,435,596.0,103.1,22.5,228.0,37.0,5.1,3,5,7,1,2026-07-17T04:28:49.443659+05:30
Ayodhya,Uttar Pradesh,26.7922,82.1998,27.2,94,0.0,989.6,7.8,24.8,161,35.0,34.7,16.2,506.0,66.0,6.4,7,5,7,1,2026-07-17T04:28:49.443665+05:30
Ratlam,Madhya Pradesh,23.3315,75.0367,24.6,90,0.0,951.4,8.45,38.2,75,25.9,18.7,10.6,201.0,50.0,15.9,3,5,7,1,2026-07-17T04:28:49.443672+05:30
Sagar,Madhya Pradesh,23.8388,78.7378,24.8,93,0.0,945.2,6.8,36.7,83,48.5,30.3,9.7,253.0,58.0,4.8,3,5,7,1,2026-07-17T04:28:49.443678+05:30
Satna,Madhya Pradesh,24.6005,80.8322,27.1,84,0.0,965.6,7.15,36.0,141,73.6,38.0,12.1,193.0,58.0,3.8,7,5,7,1,2026-07-17T04:28:49.443684+05:30
Akola,Maharashtra,20.7002,77.0082,27.9,71,0.0,972.3,8.65,41.4,67,24.7,16.1,8.9,142.0,45.0,9.5,7,5,7,1,2026-07-17T04:28:49.443692+05:30
Amravati,Maharashtra,20.9374,77.7796,28.2,65,0.0,964.2,7.4,45.0,68,25.0,16.4,9.1,146.0,51.0,10.3,7,5,7,1,2026-07-17T04:28:49.443699+05:30
Latur,Maharashtra,18.4088,76.5604,24.2,84,0.0,937.6,8.25,38.9,61,14.1,9.5,7.0,148.0,37.0,3.8,3,5,7,1,2026-07-17T04:28:49.443707+05:30
Nanded,Maharashtra,19.1383,77.3091,26.8,74,0.0,966.1,3.1,37.1,70,32.0,21.4,6.5,164.0,60.0,5.3,7,5,3,1,2026-07-17T04:28:49.443713+05:30
Gulbarga,Karnataka,17.3297,76.8343,25.0,82,0.0,957.0,7.7,45.7,56,12.6,7.8,7.0,128.0,37.0,3.2,7,5,7,1,2026-07-17T04:28:49.443720+05:30
Bidar,Karnataka,17.9104,77.5199,24.5,81,0.0,933.2,1.8,38.2,69,40.0,23.5,6.3,140.0,52.0,2.8,3,5,3,1,2026-07-17T04:28:49.443726+05:30
Hospet,Karnataka,15.2689,76.3909,24.1,82,0.0,955.1,8.6,51.8,52,6.5,3.7,4.1,104.0,39.0,1.7,3,5,7,1,2026-07-17T04:28:49.443732+05:30
Tirupur,Tamil Nadu,11.1085,77.3411,24.4,83,0.0,975.2,8.85,42.5,66,23.5,16.1,16.6,142.0,26.0,4.7,3,5,7,1,2026-07-17T04:28:49.443738+05:30
Alappuzha,Kerala,9.4981,76.3388,26.6,86,0.0,1009.9,8.55,40.0,68,28.6,14.2,6.9,86.0,37.0,3.4,7,0,4,1,2026-07-17T04:28:49.443744+05:30
Munnar,Kerala,10.0889,77.0595,14.6,94,0.0,855.7,8.85,41.4,55,8.7,5.8,7.8,98.0,24.0,2.3,3,10,7,0,2026-07-17T04:28:49.443751+05:30
Silchar,Assam,24.8333,92.7789,26.1,96,0.0,1001.5,8.75,33.5,64,28.3,19.4,9.0,304.0,54.0,4.5,7,5,4,1,2026-07-17T04:28:49.443757+05:30
Dibrugarh,Assam,27.4728,94.912,25.7,97,0.3,990.7,6.8,33.5,50,7.2,6.7,6.9,171.0,65.0,1.1,10,5,7,1,2026-07-17T04:28:49.443763+05:30
