city,state,latitude,longitude,temp,humidity,rain,pressure,uv_index,wind_gusts,aqi,pm10,pm2_5,no2,co,o3,so2,mosquito_risk,arthritis_risk,migraine_risk,frizz_risk,updated_at
Delhi,Delhi,28.6139,77.209,26.6,93,0.1,978.2,6.1,34.6,152,56.7,38.3,35.2,561.0,48.0,24.7,10,5,7,1,2026-07-21T01:52:37.989324+05:30
Mumbai,Maharashtra,19.076,72.8777,25.5,93,0.2,1006.2,7.35,53.3,57,34.0,15.9,6.4,173.0,48.0,5.3,10,5,4,1,2026-07-21T01:52:37.989363+05:30
Bangalore,Karnataka,12.9716,77.5946,20.2,92,0.0,911.6,8.6,46.1,35,6.5,5.1,11.3,186.0,33.0,4.2,3,5,7,1,2026-07-21T01:52:37.989379+05:30
Hyderabad,Telangana,17.385,78.4867,23.3,91,0.0,951.3,6.1,47.2,35,8.7,6.1,7.1,174.0,38.0,4.1,3,5,7,1,2026-07-21T01:52:37.989389+05:30
Chennai,Tamil Nadu,13.0827,80.2707,27.5,75,0.0,1006.4,8.3,37.1,77,28.5,21.4,19.8,427.0,65.0,10.7,7,5,4,1,2026-07-21T01:52:37.989398+05:30
Kolkata,West Bengal,22.5726,88.3639,26.5,96,0.1,1001.5,1.4,27.7,74,15.0,13.0,9.5,290.0,50.0,5.6,10,5,0,1,2026-07-21T01:52:37.989411+05:30
Pune,Maharashtra,18.5204,73.8567,23.0,90,0.0,945.8,6.25,54.7,20,2.2,2.0,7.1,130.0,34.0,5.0,3,5,7,1,2026-07-21T01:52:37.989419+05:30
Ahmedabad,Gujarat,23.0225,72.5714,27.5,87,0.0,997.0,5.75,32.0,62,20.8,13.7,13.0,223.0,34.0,4.9,7,5,3,1,2026-07-21T01:52:37.989426+05:30
Jaipur,Rajasthan,26.9124,75.7873,25.2,98,0.5,955.2,4.15,25.9,126,46.3,22.3,14.7,202.0,57.0,6.2,10,5,3,1,2026-07-21T01:52:37.989432+05:30
Lucknow,Uttar Pradesh,26.8467,80.9462,26.2,93,0.1,989.3,5.75,39.2,77,22.5,20.9,13.6,368.0,71.0,6.8,10,5,3,1,2026-07-21T01:52:37.989441+05:30
Kanpur,Uttar Pradesh,26.4499,80.3319,25.9,98,0.1,987.2,6.9,26.3,72,21.9,19.0,14.1,414.0,62.0,4.6,10,5,7,1,2026-07-21T01:52:37.989447+05:30
Chandigarh,Chandigarh,30.7333,76.7794,25.5,93,0.0,964.1,1.35,30.6,118,36.8,23.0,18.8,317.0,59.0,5.8,7,5,3,1,2026-07-21T01:52:37.989454+05:30
Srinagar,Jammu and Kashmir,34.0837,74.7973,20.6,99,0.1,839.1,7.95,18.4,63,19.3,17.6,15.4,280.0,64.0,2.3,6,5,7,1,2026-07-21T01:52:37.989462+05:30
Jammu,Jammu and Kashmir,32.7266,74.857,25.6,95,0.1,968.1,4.75,34.6,97,71.0,40.5,27.0,310.0,52.0,4.1,10,5,3,1,2026-07-21T01:52:37.989468+05:30
Amritsar,Punjab,31.634,74.8723,27.5,95,0.0,975.1,5.2,41.4,163,91.3,51.6,12.8,461.0,83.0,5.7,7,5,3,1,2026-07-21T01:52:37.989474+05:30
Ludhiana,Punjab,30.901,75.8573,26.8,91,0.0,973.2,5.25,42.8,156,43.4,33.4,17.9,450.0,61.0,9.7,7,5,3,1,2026-07-21T01:52:37.989480+05:30
Jalandhar,Punjab,31.326,75.5762,26.7,90,0.0,974.2,7.95,39.2,161,45.1,32.5,15.1,439.0,74.0,9.4,7,5,7,1,2026-07-21T01:52:37.989486+05:30
Dehradun,Uttarakhand,30.6284,78.0322,17.9,99,0.0,828.0,1.05,22.7,55,10.6,7.1,11.6,229.0,79.0,1.0,3,10,3,1,2026-07-21T01:52:37.989493+05:30
Shimla,Himachal Pradesh,31.1048,77.1734,15.5,99,0.0,781.7,1.7,20.2,69,10.4,5.6,9.9,360.0,79.0,1.7,3,10,3,0,2026-07-21T01:52:37.989499+05:30
Manali,Himachal Pradesh,32.2396,77.1887,19.6,90,0.0,816.6,6.4,23.8,26,6.5,6.4,20.7,244.0,43.0,0.0,3,10,7,1,2026-07-21T01:52:37.989508+05:30
Gurgaon,Haryana,28.4595,77.0266,25.6,96,0.2,976.7,6.35,39.6,145,57.9,35.0,31.6,500.0,35.0,13.6,10,5,7,1,2026-07-21T01:52:37.989514+05:30
Noida,Uttar Pradesh,28.5355,77.391,26.0,97,0.3,979.6,7.2,39.2,145,57.9,35.0,31.6,342.0,35.0,13.6,10,5,7,1,2026-07-21T01:52:37.989526+05:30
Ghaziabad,Uttar Pradesh,28.6692,77.4538,25.9,98,0.2,977.8,6.55,43.2,139,28.5,23.8,11.0,357.0,77.0,6.8,10,5,7,1,2026-07-21T01:52:37.989533+05:30
Faridabad,Haryana,28.4089,77.3178,26.2,95,0.4,978.9,7.25,42.5,145,57.9,35.0,31.6,313.0,35.0,13.6,10,5,7,1,2026-07-21T01:52:37.989539+05:30
Meerut,Uttar Pradesh,28.9845,77.7064,26.1,97,0.0,976.8,6.65,42.8,139,28.5,23.8,11.0,340.0,77.0,6.8,7,5,7,1,2026-07-21T01:52:37.989545+05:30
Agra,Uttar Pradesh,27.1767,78.0081,25.9,97,0.3,982.9,7.3,22.0,80,33.4,22.9,16.1,258.0,63.0,4.9,10,5,7,1,2026-07-21T01:52:37.989551+05:30
Varanasi,Uttar Pradesh,25.3176,82.9739,25.3,98,0.2,993.4,1.75,38.2,85,21.8,21.4,16.9,609.0,74.0,10.0,10,5,3,1,2026-07-21T01:52:37.989558+05:30
Prayagraj,Uttar Pradesh,25.4358,81.8463,26.3,93,0.1,991.6,2.45,30.6,87,24.9,23.5,15.1,265.0,78.0,6.3,10,5,3,1,2026-07-21T01:52:37.989564+05:30
Gorakhpur,Uttar Pradesh,26.7606,83.3732,24.6,98,0.0,994.2,4.85,43.2,63,17.6,17.6,11.8,361.0,78.0,6.9,3,5,3,1,2026-07-21T01:52:37.989570+05:30
Bareilly,Uttar Pradesh,28.367,79.4304,25.8,95,0.0,982.8,7.15,47.2,68,18.5,18.2,13.0,413.0,68.0,7.0,7,5,7,1,2026-07-21T01:52:37.989579+05:30
Aligarh,Uttar Pradesh,27.8974,78.088,25.6,96,0.3,980.3,6.8,32.8,105,55.2,34.2,20.6,247.0,56.0,8.2,10,5,7,1,2026-07-21T01:52:37.989585+05:30
Moradabad,Uttar Pradesh,28.8386,78.7733,25.6,95,0.0,979.5,5.15,48.6,71,16.5,16.1,12.7,411.0,69.0,7.4,7,5,3,1,2026-07-21T01:52:37.989591+05:30
Saharanpur,Uttar Pradesh,29.9637,77.546,26.1,95,0.1,971.6,1.6,44.6,80,23.4,18.4,11.1,361.0,78.0,6.5,10,5,3,1,2026-07-21T01:52:37.989597+05:30
Jhansi,Uttar Pradesh,25.4484,78.5685,25.7,95,0.0,973.5,7.9,27.7,62,16.7,13.9,10.8,231.0,62.0,5.0,7,5,7,1,2026-07-21T01:52:41.374322+05:30
Surat,Gujarat,21.1702,72.8311,25.9,95,0.1,1002.7,4.4,51.8,64,26.2,17.2,21.0,260.0,28.0,30.7,10,5,0,1,2026-07-21T01:52:41.374354+05:30
Vadodara,Gujarat,22.3072,73.1812,25.9,94,0.0,999.7,5.65,40.3,56,16.9,12.4,14.7,190.0,29.0,12.2,7,5,3,1,2026-07-21T01:52:41.374366+05:30
Rajkot,Gujarat,22.3039,70.8022,26.3,87,0.0,989.2,5.2,42.8,57,17.6,10.0,5.7,107.0,40.0,4.5,7,5,3,1,2026-07-21T01:52:41.374377+05:30
Thane,Maharashtra,19.2183,72.9781,24.3,97,0.1,1005.6,6.5,44.3,57,34.0,15.9,6.4,181.0,48.0,5.3,6,5,4,1,2026-07-21T01:52:41.374386+05:30
Nagpur,Maharashtra,21.1458,79.0882,24.6,96,0.0,969.7,0.55,37.4,62,6.8,6.1,11.4,201.0,49.0,8.8,3,5,3,1,2026-07-21T01:52:41.374394+05:30
Nashik,Maharashtra,19.9975,73.7898,22.7,96,0.0,942.0,3.25,52.9,20,3.4,2.6,9.7,132.0,33.0,7.2,3,5,3,1,2026-07-21T01:52:41.374402+05:30
Aurangabad,Maharashtra,19.8762,75.3433,22.9,97,0.0,940.9,5.6,57.6,27,4.0,3.2,8.0,152.0,36.0,8.1,3,5,3,1,2026-07-21T01:52:41.374412+05:30
Solapur,Maharashtra,17.6599,75.9064,24.6,84,0.0,955.8,5.05,53.6,24,4.6,3.7,6.0,136.0,34.0,2.5,3,5,3,1,2026-07-21T01:52:41.374420+05:30
Kolhapur,Maharashtra,16.705,74.2433,22.0,96,0.0,946.8,7.65,57.6,24,7.7,5.0,3.8,115.0,38.0,2.0,3,5,7,1,2026-07-21T01:52:41.374429+05:30
Goa,Goa,15.2993,74.124,23.8,97,0.0,998.3,7.6,35.3,56,23.7,15.4,4.3,350.0,37.0,1.2,3,5,7,1,2026-07-21T01:52:41.374438+05:30
Jodhpur,Rajasthan,26.2389,73.0243,30.2,65,0.0,977.0,8.05,34.9,79,92.7,21.5,4.8,125.0,61.0,2.4,3,5,7,1,2026-07-21T01:52:41.374447+05:30
Udaipur,Rajasthan,24.5854,73.7125,24.3,95,0.0,941.5,4.15,31.3,62,17.2,10.9,8.5,138.0,54.0,9.3,3,5,3,1,2026-07-21T01:52:41.374456+05:30
Kota,Rajasthan,25.2138,75.8648,27.7,91,0.1,973.6,0.85,27.7,70,20.7,17.1,12.8,190.0,53.0,7.5,10,5,3,1,2026-07-21T01:52:41.374465+05:30
Bikaner,Rajasthan,28.0229,73.3119,32.9,51,0.0,974.7,8.4,32.4,88,91.3,27.5,2.3,112.0,60.0,2.8,0,5,7,1,2026-07-21T01:52:41.374474+05:30
Ajmer,Rajasthan,26.4499,74.6399,28.0,75,0.0,949.4,3.6,37.8,62,17.2,13.2,7.5,169.0,68.0,5.9,7,5,3,1,2026-07-21T01:52:41.374482+05:30
Gwalior,Madhya Pradesh,26.2183,78.1828,25.0,87,0.2,978.7,7.3,20.2,70,21.6,16.8,13.2,162.0,49.0,4.9,10,5,7,1,2026-07-21T01:52:41.374490+05:30
Indore,Madhya Pradesh,22.7196,75.8577,24.1,95,0.0,943.7,1.55,37.8,55,10.4,8.7,10.6,208.0,44.0,7.8,3,5,3,1,2026-07-21T01:52:41.374498+05:30
Bhopal,Madhya Pradesh,23.2599,77.4126,24.2,94,0.0,949.1,2.65,28.4,61,11.5,10.2,7.8,228.0,50.0,2.3,3,5,3,1,2026-07-21T01:52:41.374506+05:30
Jabalpur,Madhya Pradesh,23.1815,79.9864,24.3,95,0.1,956.9,1.95,22.0,67,18.0,15.7,9.7,255.0,52.0,3.6,6,5,3,1,2026-07-21T01:52:41.374514+05:30
Ujjain,Madhya Pradesh,23.1765,75.7885,24.0,96,0.0,949.2,1.0,31.7,55,9.8,8.1,9.2,235.0,45.0,8.4,3,5,3,1,2026-07-21T01:52:41.374522+05:30
Visakhapatnam,Andhra Pradesh,17.6868,83.2185,26.7,94,0.0,999.6,6.5,35.6,76,16.4,14.8,20.6,266.0,41.0,30.3,7,5,7,1,2026-07-21T01:52:41.374531+05:30
Vijayawada,Andhra Pradesh,16.5062,80.648,26.5,85,0.0,1000.8,7.35,47.5,59,22.6,17.5,13.7,147.0,38.0,4.1,7,5,4,1,2026-07-21T01:52:41.374540+05:30
Guntur,Andhra Pradesh,16.3067,80.4365,27.9,71,0.0,1002.1,7.9,47.2,56,23.1,17.5,14.1,150.0,36.0,5.3,7,5,4,1,2026-07-21T01:52:41.374550+05:30
Nellore,Andhra Pradesh,14.4426,79.9865,27.7,75,0.0,1004.7,7.2,41.0,63,14.5,8.7,7.5,146.0,42.0,3.7,7,5,4,1,2026-07-21T01:52:41.374561+05:30
Kurnool,Andhra Pradesh,15.8281,78.0373,25.0,86,0.0,976.1,8.55,50.8,40,9.2,5.8,6.8,137.0,38.0,2.2,7,5,7,1,2026-07-21T01:52:41.374570+05:30
Kakinada,Andhra Pradesh,16.9891,82.2475,27.9,84,0.0,1004.3,7.95,54.4,65,22.5,16.3,7.3,224.0,64.0,4.6,7,5,4,1,2026-07-21T01:52:41.374578+05:30
Tirupati,Andhra Pradesh,13.6288,79.4192,25.8,80,0.0,990.5,8.45,33.5,66,26.3,19.7,24.2,225.0,16.0,2.9,7,5,7,1,2026-07-21T01:52:41.374587+05:30
Warangal,Telangana,17.9689,79.5941,24.5,94,0.2,976.6,2.35,35.3,42,7.9,6.1,7.5,144.0,41.0,2.6,6,5,3,1,2026-07-21T01:52:41.374595+05:30
Nizamabad,Telangana,18.6725,78.0941,23.4,97,0.0,962.5,4.65,46.8,36,7.7,6.2,7.6,152.0,37.0,4.2,3,5,3,1,2026-07-21T01:52:41.374603+05:30
Mysore,Karnataka,12.2958,76.6396,21.0,94,0.0,929.0,8.15,43.6,24,6.5,5.0,8.5,127.0,32.0,2.4,3,5,7,1,2026-07-21T01:52:41.374611+05:30
Mangalore,Karnataka,12.9141,74.856,23.6,98,0.0,1008.5,8.5,35.3,52,14.6,10.1,10.6,203.0,26.0,3.9,3,0,4,1,2026-07-21T01:52:41.374619+05:30
Hubli-Dharwad,Karnataka,15.3647,75.124,21.2,98,0.0,940.1,8.2,55.4,18,6.7,3.8,3.1,111.0,40.0,1.1,3,5,7,1,2026-07-21T01:52:41.374626+05:30
Belgaum,Karnataka,15.8497,74.4977,21.0,97,0.0,924.8,8.0,53.3,18,4.9,3.3,3.5,123.0,39.0,2.0,3,5,7,1,2026-07-21T01:52:44.761158+05:30
Coimbatore,Tamil Nadu,11.0168,76.9558,23.0,95,0.0,962.4,8.85,47.9,33,9.7,7.9,10.3,159.0,25.0,3.6,3,5,7,1,2026-07-21T01:52:44.761191+05:30
Madurai,Tamil Nadu,9.9252,78.1198,29.1,57,0.0,993.3,8.35,31.7,60,26.7,22.0,34.3,149.0,9.0,7.3,4,5,7,1,2026-07-21T01:52:44.761203+05:30
Trichy,Tamil Nadu,10.7905,78.7047,28.0,65,0.0,1000.0,8.75,45.7,44,9.1,6.4,8.4,123.0,35.0,3.7,7,5,4,1,2026-07-21T01:52:44.761212+05:30
Salem,Tamil Nadu,11.6643,78.146,24.9,84,0.0,977.8,8.1,30.2,57,14.3,10.9,15.0,438.0,30.0,6.8,3,5,7,1,2026-07-21T01:52:44.761221+05:30
Tirunelveli,Tamil Nadu,8.7139,77.7567,28.3,66,0.0,1004.3,8.25,40.3,30,7.9,6.2,7.5,156.0,31.0,2.7,7,5,4,1,2026-07-21T01:52:44.761229+05:30
Vellore,Tamil Nadu,12.9165,79.1325,26.7,72,0.0,984.1,8.65,38.2,66,36.4,30.4,32.9,333.0,10.0,6.0,7,5,7,1,2026-07-21T01:52:44.761237+05:30
Erode,Tamil Nadu,11.341,77.7172,26.1,77,0.0,989.6,8.2,37.4,51,17.3,14.8,18.2,159.0,24.0,5.2,7,5,7,1,2026-07-21T01:52:44.761245+05:30
Kochi,Kerala,9.9312,76.2673,26.0,93,0.0,1010.5,8.5,28.8,53,19.8,17.5,21.2,224.0,9.0,5.9,7,0,4,1,2026-07-21T01:52:44.761253+05:30
Thiruvananthapuram,Kerala,8.5241,76.9366,25.0,93,0.0,1010.0,7.9,38.5,44,13.3,8.8,6.5,152.0,37.0,2.9,7,0,4,1,2026-07-21T01:52:44.761260+05:30
Kozhikode,Kerala,11.2588,75.7804,24.1,96,0.2,1010.0,8.35,33.8,32,10.2,6.4,3.1,205.0,45.0,1.9,6,0,4,1,2026-07-21T01:52:44.761268+05:30
Thrissur,Kerala,10.5276,76.2144,24.9,94,0.0,1009.1,8.6,33.1,50,28.2,25.2,20.5,302.0,11.0,5.8,3,0,4,1,2026-07-21T01:52:44.761276+05:30
Kannur,Kerala,11.8745,75.3704,24.5,96,0.0,1009.3,8.2,31.3,42,13.7,11.0,14.5,253.0,16.0,3.1,3,0,4,1,2026-07-21T01:52:44.761284+05:30
Patna,Bihar,25.5941,85.1376,24.5,98,0.7,997.8,8.65,39.2,79,30.9,30.6,17.7,306.0,66.0,11.8,6,5,7,1,2026-07-21T01:52:44.761291+05:30
Gaya,Bihar,24.7914,85.0002,25.6,99,0.1,989.9,7.7,34.6,77,42.4,41.9,20.3,615.0,50.0,17.1,10,5,7,1,2026-07-21T01:52:44.761299+05:30
Muzaffarpur,Bihar,26.1209,85.3647,26.3,91,0.0,997.9,7.3,42.8,69,27.0,26.8,15.3,308.0,73.0,10.2,7,5,7,1,2026-07-21T01:52:44.761307+05:30
Bhagalpur,Bihar,25.2425,87.0117,26.7,89,0.0,998.6,3.9,38.2,70,29.9,28.8,17.2,281.0,53.0,11.1,7,5,3,1,2026-07-21T01:52:44.761314+05:30
Ranchi,Jharkhand,23.3441,85.3096,22.9,98,0.2,933.4,7.1,28.4,82,36.1,32.5,7.0,313.0,105.0,15.2,6,5,7,1,2026-07-21T01:52:44.761323+05:30
Jamshedpur,Jharkhand,22.8046,86.2029,25.7,97,0.1,986.3,5.4,22.0,97,26.5,23.9,15.1,414.0,45.0,13.2,10,5,3,1,2026-07-21T01:52:44.761330+05:30
Dhanbad,Jharkhand,23.7957,86.4304,25.2,98,0.1,976.0,6.3,35.6,150,50.3,48.1,46.9,258.0,25.0,89.9,10,5,7,1,2026-07-21T01:52:44.761338+05:30
Bokaro,Jharkhand,23.6693,86.1511,25.4,98,0.2,979.7,6.85,33.1,151,61.0,58.4,58.2,1179.0,15.0,107.1,10,5,7,1,2026-07-21T01:52:44.761346+05:30
Bhubaneswar,Odisha,20.2961,85.8245,26.3,95,0.1,997.5,3.45,27.7,89,27.9,25.1,10.4,399.0,75.0,6.0,10,5,3,1,2026-07-21T01:52:44.761353+05:30
Cuttack,Odisha,20.4625,85.8828,27.3,96,0.2,999.2,3.6,30.2,89,27.9,25.1,10.4,371.0,75.0,6.0,10,5,3,1,2026-07-21T01:52:44.761361+05:30
Rourkela,Odisha,22.2604,84.8536,25.5,94,0.4,980.7,1.5,21.6,109,22.3,19.8,7.9,245.0,83.0,9.6,10,5,3,1,2026-07-21T01:52:44.761369+05:30
Raipur,Chhattisgarh,21.2514,81.6296,25.3,97,0.2,970.5,1.45,32.4,90,19.2,18.1,23.3,413.0,53.0,33.9,10,5,3,1,2026-07-21T01:52:44.761377+05:30
Bhilai,Chhattisgarh,21.1938,81.3509,25.2,96,0.0,971.1,0.7,38.2,83,17.9,16.8,18.2,502.0,56.0,28.1,7,5,3,1,2026-07-21T01:52:44.761384+05:30
Guwahati,Assam,26.1158,91.7086,24.7,99,0.0,1000.4,7.6,28.4,50,11.1,10.7,8.9,218.0,44.0,1.9,3,5,4,1,2026-07-21T01:52:44.761392+05:30
Agartala,Tripura,23.8315,91.2868,25.1,98,0.0,1004.5,7.55,27.4,52,9.7,8.9,11.4,203.0,41.0,2.8,7,5,4,1,2026-07-21T01:52:44.761400+05:30
Shillong,Meghalaya,25.5788,91.8933,19.0,94,0.1,856.4,3.65,19.8,19,1.3,1.3,5.7,242.0,49.0,1.9,6,10,3,1,2026-07-21T01:52:44.761408+05:30
Imphal,Manipur,24.817,93.9368,22.1,91,0.0,922.2,8.05,24.1,50,12.5,12.2,15.9,270.0,35.0,2.3,3,5,7,1,2026-07-21T01:52:44.761417+05:30
Aizawl,Mizoram,23.7271,92.7176,19.5,99,0.1,891.1,6.75,30.2,24,2.3,2.2,6.6,133.0,19.0,0.4,6,10,7,1,2026-07-21T01:52:44.761424+05:30
Kohima,Nagaland,25.6701,94.1077,18.7,97,0.0,854.4,8.75,23.0,18,3.2,3.1,6.2,300.0,35.0,0.7,3,10,7,1,2026-07-21T01:52:44.761432+05:30
Gangtok,Sikkim,27.3314,88.6138,18.0,99,0.1,837.1,8.35,25.2,30,4.2,4.2,6.6,294.0,64.0,0.7,6,10,7,1,2026-07-21T01:52:44.761440+05:30
Siliguri,West Bengal,26.7271,88.3953,24.8,94,0.1,991.8,6.15,36.0,44,9.5,9.3,10.6,196.0,67.0,2.8,6,5,7,1,2026-07-21T01:52:48.160570+05:30
Durgapur,West Bengal,23.5204,87.3119,26.0,96,0.2,991.0,4.5,31.7,109,32.1,30.4,26.2,310.0,38.0,28.2,10,5,3,1,2026-07-21T01:52:48.160606+05:30
Asansol,West Bengal,23.6739,86.9524,25.7,97,0.1,989.7,5.7,36.7,108,37.4,35.6,31.4,370.0,36.0,38.1,10,5,3,1,2026-07-21T01:52:48.160620+05:30
Pondicherry,Puducherry,11.9139,79.8145,28.1,80,0.0,1008.1,7.65,37.1,73,30.0,22.9,19.9,309.0,51.0,12.4,7,0,4,1,2026-07-21T01:52:48.160632+05:30
Port Blair,Andaman and Nicobar Islands,11.6234,92.7265,27.2,80,0.0,1007.4,8.1,44.3,58,18.8,9.8,0.1,87.0,51.0,0.4,7,5,4,1,2026-07-21T01:52:48.160643+05:30
Haridwar,Uttarakhand,29.9457,78.1642,25.6,98,0.2,969.9,5.2,31.0,72,15.8,15.4,10.0,381.0,77.0,6.0,10,5,3,1,2026-07-21T01:52:48.160654+05:30
Rishikesh,Uttarakhand,30.0869,78.2676,25.4,94,0.0,962.7,5.3,25.6,58,12.5,10.8,5.9,307.0,95.0,4.2,7,5,3,1,2026-07-21T01:52:48.160663+05:30
Nainital,Uttarakhand,29.3919,79.4542,16.8,98,0.1,803.8,4.45,42.5,43,7.5,7.0,6.8,271.0,81.0,1.3,6,10,3,1,2026-07-21T01:52:48.160690+05:30
Mussoorie,Uttarakhand,30.4599,78.0664,16.4,100,0.0,800.8,2.9,27.0,58,11.7,10.0,10.0,298.0,84.0,3.4,3,10,3,1,2026-07-21T01:52:48.160700+05:30
Dharamshala,Himachal Pradesh,32.219,76.3234,21.2,94,0.0,865.9,2.0,25.6,29,5.3,4.1,9.9,302.0,55.0,0.7,3,5,3,1,2026-07-21T01:52:48.160708+05:30
Dalhousie,Himachal Pradesh,32.5387,75.971,17.8,98,0.2,802.2,2.4,30.2,85,43.0,22.0,13.9,510.0,81.0,2.2,6,10,3,1,2026-07-21T01:52:48.160717+05:30
Patiala,Punjab,30.3398,76.3869,26.6,94,0.0,973.2,4.25,37.4,139,42.4,25.6,15.3,411.0,66.0,10.5,7,5,3,1,2026-07-21T01:52:48.160725+05:30
Bhatinda,Punjab,30.211,74.9455,29.2,82,0.0,977.3,8.2,37.4,372,240.3,89.9,19.8,357.0,61.0,7.4,7,5,7,1,2026-07-21T01:52:48.160732+05:30
Rohtak,Haryana,28.8955,76.6066,26.8,96,0.2,976.8,4.9,27.7,331,199.3,58.2,37.7,551.0,36.0,21.8,10,5,3,1,2026-07-21T01:52:48.160740+05:30
Panipat,Haryana,29.3909,76.9635,26.4,97,0.1,975.7,3.4,36.4,355,207.7,61.0,28.0,418.0,52.0,20.1,10,5,3,1,2026-07-21T01:52:48.160747+05:30
Mathura,Uttar Pradesh,27.4924,77.6737,26.6,93,0.1,981.9,7.4,27.4,89,56.7,25.9,17.5,306.0,61.0,3.5,10,5,7,1,2026-07-21T01:52:48.160755+05:30
Vrindavan,Uttar Pradesh,27.5823,77.7027,26.7,93,0.1,982.3,7.75,28.1,89,56.7,25.9,17.5,275.0,61.0,3.5,10,5,7,1,2026-07-21T01:52:48.160762+05:30
Ayodhya,Uttar Pradesh,26.7922,82.1998,25.2,99,0.2,991.7,6.65,43.9,67,20.2,20.0,13.5,346.0,78.0,6.2,10,5,7,1,2026-07-21T01:52:48.160770+05:30
Ratlam,Madhya Pradesh,23.3315,75.0367,24.0,98,0.0,950.1,2.25,36.0,52,10.9,8.3,9.6,202.0,41.0,9.9,3,5,3,1,2026-07-21T01:52:48.160778+05:30
Sagar,Madhya Pradesh,23.8388,78.7378,23.8,96,0.1,945.5,2.45,29.2,58,17.3,15.4,10.3,194.0,51.0,3.5,6,5,3,1,2026-07-21T01:52:48.160785+05:30
Satna,Madhya Pradesh,24.6005,80.8322,25.2,95,0.3,966.6,3.75,24.5,73,15.8,13.1,14.4,287.0,45.0,4.6,10,5,3,1,2026-07-21T01:52:48.160792+05:30
Akola,Maharashtra,20.7002,77.0082,25.2,95,0.1,971.9,1.7,49.3,37,7.1,6.1,8.9,175.0,40.0,6.0,10,5,3,1,2026-07-21T01:52:48.160801+05:30
Amravati,Maharashtra,20.9374,77.7796,24.2,97,0.2,964.1,1.0,50.8,40,7.1,5.8,8.7,144.0,43.0,6.1,6,5,3,1,2026-07-21T01:52:48.160811+05:30
Latur,Maharashtra,18.4088,76.5604,23.0,95,0.1,937.8,6.45,49.3,29,4.5,3.8,5.8,147.0,35.0,2.5,6,5,7,1,2026-07-21T01:52:48.160819+05:30
Nanded,Maharashtra,19.1383,77.3091,23.9,94,0.0,966.2,3.35,45.4,37,5.9,4.7,6.5,144.0,38.0,3.1,3,5,3,1,2026-07-21T01:52:48.160826+05:30
Gulbarga,Karnataka,17.3297,76.8343,23.8,91,0.0,957.3,4.05,52.9,26,5.8,3.9,6.1,141.0,35.0,2.8,3,5,3,1,2026-07-21T01:52:48.160833+05:30
Bidar,Karnataka,17.9104,77.5199,22.7,96,0.0,933.4,4.5,50.4,27,5.8,4.7,7.2,137.0,34.0,2.5,3,5,3,1,2026-07-21T01:52:48.160840+05:30
Hospet,Karnataka,15.2689,76.3909,23.1,88,0.0,955.5,8.15,52.9,20,5.8,3.8,4.7,117.0,38.0,1.8,3,5,7,1,2026-07-21T01:52:48.160848+05:30
Tirupur,Tamil Nadu,11.1085,77.3411,24.3,88,0.0,975.8,8.75,54.4,54,22.0,19.3,23.3,145.0,17.0,6.6,3,5,7,1,2026-07-21T01:52:48.160855+05:30
Alappuzha,Kerala,9.4981,76.3388,26.4,91,0.0,1010.7,8.35,31.0,51,15.7,11.6,13.3,89.0,29.0,4.8,7,0,4,1,2026-07-21T01:52:48.160862+05:30
Munnar,Kerala,10.0889,77.0595,15.9,89,0.0,857.1,9.05,34.6,26,9.5,7.4,9.4,97.0,19.0,1.7,3,10,7,0,2026-07-21T01:52:48.160870+05:30
Silchar,Assam,24.8333,92.7789,24.9,94,0.1,1003.8,8.3,28.1,55,8.8,8.4,6.9,204.0,45.0,2.2,6,5,4,1,2026-07-21T01:52:48.160877+05:30
Dibrugarh,Assam,27.4728,94.912,26.4,90,0.0,993.8,8.6,23.0,63,9.2,8.3,10.2,202.0,45.0,1.0,7,5,7,1,2026-07-21T01:52:48.160885+05:30
