city,state,latitude,longitude,temp,humidity,rain,pressure,uv_index,wind_gusts,aqi,pm10,pm2_5,mosquito_risk,arthritis_risk,migraine_risk,frizz_risk,updated_at
Delhi,Delhi,28.6139,77.209,19.6,87,0.0,987.8,6.55,26.3,155,217.0,105.9,3,10,7,1,2026-03-24T07:56:37.800567+05:30
Mumbai,Maharashtra,19.076,72.8777,27.3,80,0.0,1009.8,7.95,27.0,100,60.1,39.0,7,0,4,1,2026-03-24T07:56:37.800616+05:30
Bangalore,Karnataka,12.9716,77.5946,22.4,82,0.0,913.6,9.5,38.9,79,42.5,38.5,3,5,7,1,2026-03-24T07:56:37.800630+05:30
Hyderabad,Telangana,17.385,78.4867,24.6,74,0.0,955.4,8.95,20.2,84,29.6,23.5,3,5,7,1,2026-03-24T07:56:37.800639+05:30
Chennai,Tamil Nadu,13.0827,80.2707,26.6,80,0.0,1010.5,9.25,33.5,35,16.6,11.2,7,0,4,1,2026-03-24T07:56:37.800647+05:30
Kolkata,West Bengal,22.5726,88.3639,24.7,89,0.0,1011.0,8.3,20.9,151,77.3,71.0,3,0,4,1,2026-03-24T07:56:37.800654+05:30
Pune,Maharashtra,18.5204,73.8567,22.9,63,0.0,949.7,8.5,28.1,90,74.3,59.4,3,5,7,0,2026-03-24T07:56:37.800663+05:30
Ahmedabad,Gujarat,23.0225,72.5714,22.9,72,0.0,1004.7,7.75,15.5,76,25.1,22.4,3,5,4,1,2026-03-24T07:56:37.800670+05:30
Jaipur,Rajasthan,26.9124,75.7873,21.0,77,0.0,963.7,7.25,14.8,136,138.3,50.5,3,5,7,1,2026-03-24T07:56:37.800676+05:30
Lucknow,Uttar Pradesh,26.8467,80.9462,20.5,76,0.0,998.2,7.1,29.2,138,94.3,45.9,3,5,7,1,2026-03-24T07:56:37.800682+05:30
Kanpur,Uttar Pradesh,26.4499,80.3319,19.7,87,0.0,996.4,7.0,26.3,152,118.3,49.9,3,10,7,1,2026-03-24T07:56:37.800688+05:30
Chandigarh,Chandigarh,30.7333,76.7794,17.0,80,0.0,972.8,6.5,34.9,107,33.8,31.0,3,5,7,0,2026-03-24T07:56:37.800694+05:30
Srinagar,Jammu and Kashmir,34.0837,74.7973,7.6,92,0.0,843.5,7.55,15.1,73,35.9,32.9,3,10,7,0,2026-03-24T07:56:37.800700+05:30
Jammu,Jammu and Kashmir,32.7266,74.857,16.8,78,0.0,976.7,7.2,32.4,75,18.7,18.0,3,5,7,0,2026-03-24T07:56:37.800706+05:30
Amritsar,Punjab,31.634,74.8723,16.8,90,0.0,985.6,7.15,27.0,126,79.2,70.1,3,10,7,0,2026-03-24T07:56:37.800713+05:30
Ludhiana,Punjab,30.901,75.8573,17.1,83,0.0,983.4,6.65,31.0,155,93.8,83.4,3,10,7,0,2026-03-24T07:56:37.800718+05:30
Jalandhar,Punjab,31.326,75.5762,16.8,88,0.0,984.5,6.95,30.6,147,82.9,74.5,3,10,7,0,2026-03-24T07:56:37.800725+05:30
Dehradun,Uttarakhand,30.6284,78.0322,9.9,73,0.0,829.4,6.95,34.2,51,3.7,3.7,3,5,7,0,2026-03-24T07:56:37.800730+05:30
Shimla,Himachal Pradesh,31.1048,77.1734,8.8,80,0.0,783.1,7.0,50.4,61,12.7,12.0,3,5,7,0,2026-03-24T07:56:37.800736+05:30
Manali,Himachal Pradesh,32.2396,77.1887,11.4,38,0.0,818.4,9.15,27.7,92,2.4,1.6,0,5,7,1,2026-03-24T07:56:37.800742+05:30
Gurgaon,Haryana,28.4595,77.0266,18.7,91,0.0,986.1,6.65,24.5,204,267.3,103.1,3,10,7,1,2026-03-24T07:56:37.800760+05:30
Noida,Uttar Pradesh,28.5355,77.391,19.3,90,0.0,989.4,6.55,25.2,204,267.3,103.1,3,10,7,1,2026-03-24T07:56:37.800767+05:30
Ghaziabad,Uttar Pradesh,28.6692,77.4538,18.3,92,0.0,987.6,6.25,25.2,152,217.9,112.2,3,10,7,1,2026-03-24T07:56:37.800773+05:30
Faridabad,Haryana,28.4089,77.3178,18.3,93,0.0,988.6,6.6,23.0,204,267.3,103.1,3,10,7,1,2026-03-24T07:56:37.800779+05:30
Meerut,Uttar Pradesh,28.9845,77.7064,17.4,96,0.0,986.2,6.45,27.4,152,217.9,112.2,3,10,7,1,2026-03-24T07:56:37.800784+05:30
Agra,Uttar Pradesh,27.1767,78.0081,18.8,90,0.0,993.0,6.45,23.0,158,167.6,69.2,3,10,7,1,2026-03-24T07:56:37.800790+05:30
Varanasi,Uttar Pradesh,25.3176,82.9739,21.6,75,0.0,1002.8,7.7,24.1,136,110.4,65.7,3,5,4,1,2026-03-24T07:56:37.800797+05:30
Prayagraj,Uttar Pradesh,25.4358,81.8463,21.9,74,0.0,1001.3,7.6,21.2,121,66.4,45.3,3,5,4,1,2026-03-24T07:56:37.800803+05:30
Gorakhpur,Uttar Pradesh,26.7606,83.3732,20.1,89,0.0,1002.2,7.45,31.7,153,94.3,73.8,3,5,4,1,2026-03-24T07:56:37.800809+05:30
Bareilly,Uttar Pradesh,28.367,79.4304,18.7,94,0.0,991.5,6.8,27.0,114,77.3,62.6,3,10,7,1,2026-03-24T07:56:37.800816+05:30
Aligarh,Uttar Pradesh,27.8974,78.088,18.4,94,0.0,990.5,6.7,21.6,155,167.2,87.5,3,10,7,1,2026-03-24T07:56:37.800822+05:30
Moradabad,Uttar Pradesh,28.8386,78.7733,17.9,93,0.0,988.3,6.6,28.4,135,116.6,87.3,3,10,7,1,2026-03-24T07:56:37.800828+05:30
Saharanpur,Uttar Pradesh,29.9637,77.546,16.7,96,0.0,979.9,6.25,36.4,157,150.9,147.1,3,10,7,1,2026-03-24T07:56:37.800833+05:30
Jhansi,Uttar Pradesh,25.4484,78.5685,19.7,78,0.0,982.5,7.55,26.6,117,222.1,58.1,3,5,7,0,2026-03-24T07:56:41.115096+05:30
Surat,Gujarat,21.1702,72.8311,24.4,66,0.0,1009.0,7.05,20.5,135,70.8,60.1,3,0,4,1,2026-03-24T07:56:41.115129+05:30
Vadodara,Gujarat,22.3072,73.1812,23.4,65,0.0,1006.9,7.7,20.9,89,54.2,45.3,3,5,4,1,2026-03-24T07:56:41.115140+05:30
Rajkot,Gujarat,22.3039,70.8022,22.5,95,0.0,997.1,7.3,21.2,52,9.6,6.6,3,5,7,1,2026-03-24T07:56:41.115149+05:30
Thane,Maharashtra,19.2183,72.9781,26.1,70,0.0,1009.3,7.75,41.8,100,60.1,39.0,7,0,4,1,2026-03-24T07:56:41.115159+05:30
Nagpur,Maharashtra,21.1458,79.0882,24.1,59,0.0,975.9,8.45,21.2,85,57.7,44.9,0,5,7,0,2026-03-24T07:56:41.115168+05:30
Nashik,Maharashtra,19.9975,73.7898,23.5,62,0.0,947.2,8.05,31.3,67,61.7,33.6,3,5,7,0,2026-03-24T07:56:41.115176+05:30
Aurangabad,Maharashtra,19.8762,75.3433,24.2,57,0.0,945.9,8.55,23.8,57,46.9,25.6,0,5,7,0,2026-03-24T07:56:41.115185+05:30
Solapur,Maharashtra,17.6599,75.9064,23.2,66,0.0,958.8,8.8,20.9,92,38.0,33.9,3,5,7,1,2026-03-24T07:56:41.115194+05:30
Kolhapur,Maharashtra,16.705,74.2433,20.2,85,0.0,949.0,8.95,43.9,107,74.5,67.1,3,5,7,1,2026-03-24T07:56:41.115203+05:30
Goa,Goa,15.2993,74.124,27.5,84,0.0,999.5,8.9,30.6,95,58.0,47.8,7,5,7,1,2026-03-24T07:56:41.115211+05:30
Jodhpur,Rajasthan,26.2389,73.0243,24.2,53,0.0,985.8,7.1,15.1,73,52.5,27.0,0,5,7,0,2026-03-24T07:56:41.115218+05:30
Udaipur,Rajasthan,24.5854,73.7125,19.4,69,0.0,948.9,8.1,23.8,57,51.1,18.2,3,5,7,0,2026-03-24T07:56:41.115225+05:30
Kota,Rajasthan,25.2138,75.8648,20.1,85,0.0,982.4,7.65,15.1,105,98.3,49.5,3,5,7,1,2026-03-24T07:56:41.115231+05:30
Bikaner,Rajasthan,28.0229,73.3119,23.4,56,0.0,985.3,7.15,19.1,65,57.0,21.6,0,5,7,0,2026-03-24T07:56:41.115238+05:30
Ajmer,Rajasthan,26.4499,74.6399,22.1,70,0.0,957.7,7.6,23.8,95,155.5,49.8,3,5,7,1,2026-03-24T07:56:41.115245+05:30
Gwalior,Madhya Pradesh,26.2183,78.1828,20.6,83,0.0,987.9,7.2,27.0,122,196.0,52.9,3,5,7,1,2026-03-24T07:56:41.115251+05:30
Indore,Madhya Pradesh,22.7196,75.8577,21.3,64,0.0,950.0,8.1,24.8,60,30.2,23.0,3,5,7,0,2026-03-24T07:56:41.115257+05:30
Bhopal,Madhya Pradesh,23.2599,77.4126,22.4,62,0.0,956.4,8.05,30.6,65,65.9,36.7,3,5,7,0,2026-03-24T07:56:41.115264+05:30
Jabalpur,Madhya Pradesh,23.1815,79.9864,22.6,62,0.0,964.5,8.15,25.9,73,45.9,34.5,3,5,7,0,2026-03-24T07:56:41.115270+05:30
Ujjain,Madhya Pradesh,23.1765,75.7885,21.1,66,0.0,956.0,8.0,16.2,62,36.9,29.2,3,5,7,0,2026-03-24T07:56:41.115278+05:30
Visakhapatnam,Andhra Pradesh,17.6868,83.2185,25.8,86,0.0,1007.7,8.95,36.7,90,55.4,51.2,7,5,4,1,2026-03-24T07:56:41.115284+05:30
Vijayawada,Andhra Pradesh,16.5062,80.648,25.6,86,0.0,1006.3,9.0,23.8,63,32.5,27.6,7,5,4,1,2026-03-24T07:56:41.115291+05:30
Guntur,Andhra Pradesh,16.3067,80.4365,25.6,88,0.0,1007.3,9.0,29.2,61,24.7,19.3,7,5,4,1,2026-03-24T07:56:41.115297+05:30
Nellore,Andhra Pradesh,14.4426,79.9865,26.2,81,0.0,1009.2,9.15,31.0,42,14.3,9.2,7,0,4,1,2026-03-24T07:56:41.115304+05:30
Kurnool,Andhra Pradesh,15.8281,78.0373,26.8,68,0.0,979.5,9.0,22.3,62,12.6,9.1,7,5,7,1,2026-03-24T07:56:41.115312+05:30
Kakinada,Andhra Pradesh,16.9891,82.2475,26.1,85,0.0,1011.5,8.95,28.8,51,25.4,18.5,7,0,4,1,2026-03-24T07:56:41.115318+05:30
Tirupati,Andhra Pradesh,13.6288,79.4192,24.3,84,0.0,995.1,9.25,27.7,63,24.7,21.5,3,5,7,1,2026-03-24T07:56:41.115324+05:30
Warangal,Telangana,17.9689,79.5941,24.1,86,0.0,981.7,8.8,27.7,99,20.6,18.2,3,5,7,1,2026-03-24T07:56:41.115331+05:30
Nizamabad,Telangana,18.6725,78.0941,26.0,66,0.0,967.0,8.75,30.6,100,40.2,36.7,7,5,7,1,2026-03-24T07:56:41.115337+05:30
Mysore,Karnataka,12.2958,76.6396,22.4,85,0.0,930.5,9.45,45.7,94,63.1,57.4,3,5,7,1,2026-03-24T07:56:41.115343+05:30
Mangalore,Karnataka,12.9141,74.856,28.2,79,0.0,1008.9,9.1,22.0,76,44.2,37.1,7,0,4,1,2026-03-24T07:56:41.115350+05:30
Hubli-Dharwad,Karnataka,15.3647,75.124,22.8,89,0.0,942.4,9.0,43.2,96,39.8,33.9,3,5,7,1,2026-03-24T07:56:41.115357+05:30
Belgaum,Karnataka,15.8497,74.4977,22.0,90,0.0,926.8,9.05,42.5,93,59.3,48.4,3,5,7,1,2026-03-24T07:56:44.432277+05:30
Coimbatore,Tamil Nadu,11.0168,76.9558,24.0,86,0.0,964.6,9.4,31.7,68,23.9,22.4,3,5,7,1,2026-03-24T07:56:44.432310+05:30
Madurai,Tamil Nadu,9.9252,78.1198,25.6,79,0.0,996.3,9.35,27.7,56,40.3,39.2,7,5,7,1,2026-03-24T07:56:44.432321+05:30
Trichy,Tamil Nadu,10.7905,78.7047,24.9,89,0.0,1003.2,9.3,23.0,55,21.4,19.0,3,5,4,1,2026-03-24T07:56:44.432331+05:30
Salem,Tamil Nadu,11.6643,78.146,24.3,88,0.0,980.5,9.35,24.5,74,39.8,37.6,3,5,7,1,2026-03-24T07:56:44.432340+05:30
Tirunelveli,Tamil Nadu,8.7139,77.7567,26.2,78,0.0,1006.2,9.35,38.5,55,19.6,17.7,7,5,4,1,2026-03-24T07:56:44.432349+05:30
Vellore,Tamil Nadu,12.9165,79.1325,23.5,86,0.0,988.0,9.3,32.8,71,21.9,18.0,3,5,7,1,2026-03-24T07:56:44.432357+05:30
Erode,Tamil Nadu,11.341,77.7172,24.9,86,0.0,992.5,9.35,19.8,56,19.2,17.2,3,5,7,1,2026-03-24T07:56:44.432366+05:30
Kochi,Kerala,9.9312,76.2673,27.4,83,0.0,1010.9,9.15,35.6,87,47.0,39.8,7,0,4,1,2026-03-24T07:56:44.432374+05:30
Thiruvananthapuram,Kerala,8.5241,76.9366,27.6,83,0.0,1009.9,9.2,32.0,62,27.9,19.8,7,0,4,1,2026-03-24T07:56:44.432382+05:30
Kozhikode,Kerala,11.2588,75.7804,27.2,85,0.0,1010.2,9.1,28.4,70,41.3,29.4,7,0,4,1,2026-03-24T07:56:44.432391+05:30
Thrissur,Kerala,10.5276,76.2144,26.3,81,0.0,1009.5,9.15,39.6,86,53.4,43.9,7,0,4,1,2026-03-24T07:56:44.432400+05:30
Kannur,Kerala,11.8745,75.3704,28.0,79,0.0,1009.3,9.1,28.4,69,35.4,30.6,7,0,4,1,2026-03-24T07:56:44.432408+05:30
Patna,Bihar,25.5941,85.1376,22.6,78,0.0,1005.1,7.9,35.3,154,120.1,95.9,3,5,4,1,2026-03-24T07:56:44.432416+05:30
Gaya,Bihar,24.7914,85.0002,22.5,74,0.0,998.8,7.95,20.9,107,86.8,43.5,3,5,7,1,2026-03-24T07:56:44.432422+05:30
Muzaffarpur,Bihar,26.1209,85.3647,22.0,80,0.0,1005.3,7.85,30.6,156,113.4,102.2,3,5,4,1,2026-03-24T07:56:44.432428+05:30
Bhagalpur,Bihar,25.2425,87.0117,23.1,74,0.0,1005.7,7.85,28.4,135,68.2,65.2,3,5,4,1,2026-03-24T07:56:44.432435+05:30
Ranchi,Jharkhand,23.3441,85.3096,21.6,62,0.0,941.2,8.3,32.0,66,65.7,34.2,3,5,7,0,2026-03-24T07:56:44.432442+05:30
Jamshedpur,Jharkhand,22.8046,86.2029,24.2,75,0.0,995.3,8.45,27.0,130,73.1,66.4,3,5,7,1,2026-03-24T07:56:44.432448+05:30
Dhanbad,Jharkhand,23.7957,86.4304,22.7,68,0.0,983.9,8.35,28.8,161,115.0,107.8,3,5,7,1,2026-03-24T07:56:44.432455+05:30
Bokaro,Jharkhand,23.6693,86.1511,22.8,73,0.0,988.1,8.35,24.5,153,91.5,75.7,3,5,7,1,2026-03-24T07:56:44.432462+05:30
Bhubaneswar,Odisha,20.2961,85.8245,26.2,84,0.0,1006.9,8.75,31.3,100,31.8,24.4,7,5,4,1,2026-03-24T07:56:44.432468+05:30
Cuttack,Odisha,20.4625,85.8828,26.2,85,0.0,1009.0,8.75,26.6,100,31.8,24.4,7,0,4,1,2026-03-24T07:56:44.432475+05:30
Rourkela,Odisha,22.2604,84.8536,23.1,72,0.0,989.2,8.0,21.2,88,47.0,35.5,3,5,7,1,2026-03-24T07:56:44.432481+05:30
Raipur,Chhattisgarh,21.2514,81.6296,23.9,55,0.0,977.8,8.5,20.5,107,70.8,62.4,0,5,7,0,2026-03-24T07:56:44.432488+05:30
Bhilai,Chhattisgarh,21.1938,81.3509,23.8,62,0.0,978.0,8.5,17.6,117,75.2,67.3,3,5,7,1,2026-03-24T07:56:44.432494+05:30
Guwahati,Assam,26.1158,91.7086,22.5,76,0.0,1006.3,7.75,29.2,91,35.6,33.2,3,5,4,1,2026-03-24T07:56:44.432500+05:30
Agartala,Tripura,23.8315,91.2868,23.6,77,0.0,1010.7,8.05,15.5,157,62.4,60.1,3,0,4,1,2026-03-24T07:56:44.432507+05:30
Shillong,Meghalaya,25.5788,91.8933,12.7,70,0.0,857.2,6.05,40.3,77,28.9,27.1,3,5,7,0,2026-03-24T07:56:44.432514+05:30
Imphal,Manipur,24.817,93.9368,17.3,75,0.0,926.3,8.2,43.2,85,33.4,29.7,3,5,7,0,2026-03-24T07:56:44.432520+05:30
Aizawl,Mizoram,23.7271,92.7176,18.3,67,0.0,895.7,8.35,31.7,92,38.1,33.5,3,5,7,0,2026-03-24T07:56:44.432526+05:30
Kohima,Nagaland,25.6701,94.1077,14.5,67,0.0,856.7,7.9,55.4,70,18.4,16.1,3,5,7,0,2026-03-24T07:56:44.432533+05:30
Gangtok,Sikkim,27.3314,88.6138,11.5,92,0.0,837.5,2.3,18.0,78,21.6,19.4,3,10,3,0,2026-03-24T07:56:44.432540+05:30
Siliguri,West Bengal,26.7271,88.3953,17.7,85,0.0,998.7,6.4,37.8,101,58.0,50.4,3,10,7,0,2026-03-24T07:56:47.761685+05:30
Durgapur,West Bengal,23.5204,87.3119,23.4,87,0.0,999.7,8.0,21.2,157,96.6,91.3,3,5,7,1,2026-03-24T07:56:47.761718+05:30
Asansol,West Bengal,23.6739,86.9524,23.8,78,0.0,998.0,8.0,23.4,152,92.4,87.3,3,5,7,1,2026-03-24T07:56:47.761729+05:30
Pondicherry,Puducherry,11.9139,79.8145,25.8,89,0.0,1011.8,9.2,30.2,29,13.0,9.7,7,0,4,1,2026-03-24T07:56:47.761739+05:30
Port Blair,Andaman and Nicobar Islands,11.6234,92.7265,27.3,78,0.0,1009.3,9.15,25.6,45,17.1,10.6,7,0,4,1,2026-03-24T07:56:47.761793+05:30
Haridwar,Uttarakhand,29.9457,78.1642,18.0,85,0.0,978.3,6.4,32.0,114,37.5,36.7,3,10,7,0,2026-03-24T07:56:47.761806+05:30
Rishikesh,Uttarakhand,30.0869,78.2676,18.5,76,0.0,970.8,6.45,30.6,87,30.3,29.9,3,5,7,0,2026-03-24T07:56:47.761815+05:30
Nainital,Uttarakhand,29.3919,79.4542,14.1,74,0.0,806.2,7.3,49.0,94,48.7,43.4,3,5,7,0,2026-03-24T07:56:47.761823+05:30
Mussoorie,Uttarakhand,30.4599,78.0664,12.1,73,0.0,802.3,6.8,45.0,82,16.9,16.1,3,5,7,0,2026-03-24T07:56:47.761832+05:30
Dharamshala,Himachal Pradesh,32.219,76.3234,15.8,51,0.0,869.8,7.05,28.4,62,6.1,3.5,0,5,7,0,2026-03-24T07:56:47.761842+05:30
Dalhousie,Himachal Pradesh,32.5387,75.971,11.8,53,0.0,803.0,7.35,25.2,75,10.9,8.9,0,5,7,0,2026-03-24T07:56:47.761851+05:30
Patiala,Punjab,30.3398,76.3869,16.8,93,0.0,982.7,6.4,33.1,155,127.1,105.9,3,10,7,0,2026-03-24T07:56:47.761860+05:30
Bhatinda,Punjab,30.211,74.9455,18.9,86,0.0,988.4,6.7,26.3,136,129.0,61.7,3,10,7,1,2026-03-24T07:56:47.761869+05:30
Rohtak,Haryana,28.8955,76.6066,18.7,93,0.0,986.4,6.05,25.2,154,232.8,99.2,3,10,7,1,2026-03-24T07:56:47.761877+05:30
Panipat,Haryana,29.3909,76.9635,17.2,97,0.0,985.0,6.35,27.4,151,175.6,82.4,3,10,7,1,2026-03-24T07:56:47.761886+05:30
Mathura,Uttar Pradesh,27.4924,77.6737,18.2,95,0.0,991.9,6.6,21.2,152,148.1,67.5,3,10,7,1,2026-03-24T07:56:47.761894+05:30
Vrindavan,Uttar Pradesh,27.5823,77.7027,18.0,97,0.0,992.4,6.6,21.6,152,148.1,67.5,3,10,7,1,2026-03-24T07:56:47.761902+05:30
Ayodhya,Uttar Pradesh,26.7922,82.1998,20.8,76,0.0,1000.1,7.25,33.5,141,60.8,40.0,3,5,4,1,2026-03-24T07:56:47.761910+05:30
Ratlam,Madhya Pradesh,23.3315,75.0367,20.4,75,0.0,956.5,8.0,18.7,55,29.7,22.9,3,5,7,0,2026-03-24T07:56:47.761918+05:30
Sagar,Madhya Pradesh,23.8388,78.7378,22.7,62,0.0,953.2,8.0,28.1,66,60.1,31.2,3,5,7,0,2026-03-24T07:56:47.761926+05:30
Satna,Madhya Pradesh,24.6005,80.8322,21.8,71,0.0,975.4,7.65,26.3,76,82.4,43.2,3,5,7,1,2026-03-24T07:56:47.761934+05:30
Akola,Maharashtra,20.7002,77.0082,23.7,67,0.0,977.3,8.4,21.6,76,27.5,22.7,3,5,7,1,2026-03-24T07:56:47.761943+05:30
Amravati,Maharashtra,20.9374,77.7796,23.8,64,0.0,969.4,8.4,23.8,83,40.4,37.4,3,5,7,1,2026-03-24T07:56:47.761950+05:30
Latur,Maharashtra,18.4088,76.5604,23.2,59,0.0,941.6,8.75,19.4,95,55.4,42.8,0,5,7,0,2026-03-24T07:56:47.761957+05:30
Nanded,Maharashtra,19.1383,77.3091,25.0,63,0.0,970.8,8.6,20.9,104,45.4,39.8,7,5,7,1,2026-03-24T07:56:47.761964+05:30
Gulbarga,Karnataka,17.3297,76.8343,26.1,60,0.0,960.9,8.85,37.4,86,24.5,21.7,4,5,7,1,2026-03-24T07:56:47.761970+05:30
Bidar,Karnataka,17.9104,77.5199,25.7,58,0.0,937.5,8.85,34.9,95,33.1,29.2,4,5,7,1,2026-03-24T07:56:47.761976+05:30
Hospet,Karnataka,15.2689,76.3909,24.5,83,0.0,957.9,9.05,26.3,104,52.0,47.5,3,5,7,1,2026-03-24T07:56:47.761984+05:30
Tirupur,Tamil Nadu,11.1085,77.3411,24.5,81,0.0,978.6,9.45,26.3,64,23.7,22.2,3,5,7,1,2026-03-24T07:56:47.761990+05:30
Alappuzha,Kerala,9.4981,76.3388,27.1,84,0.0,1011.0,9.15,32.0,81,42.4,32.0,7,0,4,1,2026-03-24T07:56:47.761996+05:30
Munnar,Kerala,10.0889,77.0595,20.7,71,0.0,858.2,9.7,30.6,65,31.0,28.9,3,5,7,0,2026-03-24T07:56:47.762003+05:30
Silchar,Assam,24.8333,92.7789,22.3,76,0.0,1009.8,8.0,20.5,120,43.2,41.2,3,0,4,1,2026-03-24T07:56:47.762010+05:30
Dibrugarh,Assam,27.4728,94.912,20.3,90,0.0,1001.0,7.35,12.2,72,26.6,26.0,3,5,4,1,2026-03-24T07:56:47.762016+05:30
