city,state,latitude,longitude,temp,humidity,rain,pressure,uv_index,wind_gusts,aqi,pm10,pm2_5,mosquito_risk,arthritis_risk,migraine_risk,frizz_risk,updated_at
Delhi,Delhi,28.6139,77.209,21.9,65,0.0,988.6,5.85,23.8,161,144.8,68.9,3,5,3,0,2026-03-21T20:59:52.320278+05:30
Mumbai,Maharashtra,19.076,72.8777,27.9,64,0.0,1010.4,7.9,28.8,110,33.1,25.1,7,0,4,1,2026-03-21T20:59:52.320316+05:30
Bangalore,Karnataka,12.9716,77.5946,26.5,52,0.0,913.0,9.4,21.2,158,39.3,35.4,4,5,7,0,2026-03-21T20:59:52.320331+05:30
Hyderabad,Telangana,17.385,78.4867,27.2,57,0.0,955.3,8.85,31.0,153,37.7,31.0,4,5,7,1,2026-03-21T20:59:52.320341+05:30
Chennai,Tamil Nadu,13.0827,80.2707,27.8,79,0.0,1009.5,9.1,35.6,37,13.9,9.3,7,0,4,1,2026-03-21T20:59:52.320350+05:30
Kolkata,West Bengal,22.5726,88.3639,22.1,86,0.0,1011.2,7.5,19.8,62,34.9,33.2,3,0,4,1,2026-03-21T20:59:52.320359+05:30
Pune,Maharashtra,18.5204,73.8567,26.1,57,0.0,950.2,8.4,28.8,97,32.0,21.7,4,5,7,1,2026-03-21T20:59:52.320371+05:30
Ahmedabad,Gujarat,23.0225,72.5714,28.2,32,0.0,1005.5,7.6,15.1,121,36.6,27.3,4,5,4,0,2026-03-21T20:59:52.320379+05:30
Jaipur,Rajasthan,26.9124,75.7873,22.4,64,0.0,965.4,6.75,36.4,87,112.2,31.7,3,5,7,0,2026-03-21T20:59:52.320388+05:30
Lucknow,Uttar Pradesh,26.8467,80.9462,21.7,75,0.0,999.8,6.25,24.5,106,56.5,36.2,3,5,7,1,2026-03-21T20:59:52.320396+05:30
Kanpur,Uttar Pradesh,26.4499,80.3319,20.7,73,0.0,997.9,6.7,25.6,114,238.4,50.6,3,5,7,0,2026-03-21T20:59:52.320403+05:30
Chandigarh,Chandigarh,30.7333,76.7794,18.1,79,0.0,973.9,6.35,28.4,88,38.4,34.2,3,5,7,0,2026-03-21T20:59:52.320411+05:30
Srinagar,Jammu and Kashmir,34.0837,74.7973,11.0,58,0.0,842.6,6.7,14.0,133,65.0,58.7,0,5,7,0,2026-03-21T20:59:52.320417+05:30
Jammu,Jammu and Kashmir,32.7266,74.857,20.7,66,0.0,978.4,6.45,16.9,95,61.5,48.7,3,5,7,0,2026-03-21T20:59:52.320424+05:30
Amritsar,Punjab,31.634,74.8723,19.7,70,0.0,987.0,6.1,15.8,108,78.5,68.2,3,5,7,0,2026-03-21T20:59:52.320431+05:30
Ludhiana,Punjab,30.901,75.8573,19.2,71,0.0,984.8,6.0,23.0,154,52.6,45.4,3,5,3,0,2026-03-21T20:59:52.320437+05:30
Jalandhar,Punjab,31.326,75.5762,19.2,72,0.0,986.0,6.3,20.5,138,54.8,45.2,3,5,7,0,2026-03-21T20:59:52.320445+05:30
Dehradun,Uttarakhand,30.6284,78.0322,11.4,87,0.0,830.9,6.7,22.7,90,23.5,19.4,3,10,7,0,2026-03-21T20:59:52.320452+05:30
Shimla,Himachal Pradesh,31.1048,77.1734,8.6,88,0.0,783.9,6.6,33.5,83,33.8,26.8,3,10,7,0,2026-03-21T20:59:52.320459+05:30
Manali,Himachal Pradesh,32.2396,77.1887,11.8,48,0.0,818.7,8.65,22.0,113,15.7,11.4,0,5,7,0,2026-03-21T20:59:52.320466+05:30
Gurgaon,Haryana,28.4595,77.0266,20.2,75,0.0,987.0,6.1,20.5,172,215.6,84.1,3,5,7,0,2026-03-21T20:59:52.320473+05:30
Noida,Uttar Pradesh,28.5355,77.391,21.8,65,0.0,990.0,6.15,22.7,172,215.6,84.1,3,5,7,0,2026-03-21T20:59:52.320479+05:30
Ghaziabad,Uttar Pradesh,28.6692,77.4538,20.6,70,0.0,988.2,5.85,21.6,158,105.0,57.0,3,5,3,0,2026-03-21T20:59:52.320485+05:30
Faridabad,Haryana,28.4089,77.3178,20.6,70,0.0,989.4,6.4,20.9,172,215.6,84.1,3,5,7,0,2026-03-21T20:59:52.320491+05:30
Meerut,Uttar Pradesh,28.9845,77.7064,19.4,75,0.0,987.0,6.15,22.0,158,105.0,57.0,3,5,7,0,2026-03-21T20:59:52.320498+05:30
Agra,Uttar Pradesh,27.1767,78.0081,21.9,59,0.0,993.6,6.8,28.1,180,455.4,88.0,0,5,7,0,2026-03-21T20:59:52.320504+05:30
Varanasi,Uttar Pradesh,25.3176,82.9739,20.5,79,0.0,1003.9,5.1,26.3,99,69.6,53.9,3,5,0,1,2026-03-21T20:59:52.320513+05:30
Prayagraj,Uttar Pradesh,25.4358,81.8463,21.3,77,0.0,1002.4,7.35,25.2,99,53.2,42.6,3,5,4,1,2026-03-21T20:59:52.320520+05:30
Gorakhpur,Uttar Pradesh,26.7606,83.3732,18.2,94,0.0,1003.6,5.7,17.3,112,48.7,45.5,3,10,0,1,2026-03-21T20:59:52.320527+05:30
Bareilly,Uttar Pradesh,28.367,79.4304,19.4,83,0.0,992.6,6.6,18.0,132,28.3,26.1,3,10,7,1,2026-03-21T20:59:52.320536+05:30
Aligarh,Uttar Pradesh,27.8974,78.088,19.9,72,0.0,991.1,6.5,20.2,162,272.9,75.7,3,5,7,0,2026-03-21T20:59:52.320545+05:30
Moradabad,Uttar Pradesh,28.8386,78.7733,21.3,70,0.0,989.2,6.45,18.4,144,54.6,49.4,3,5,7,0,2026-03-21T20:59:52.320551+05:30
Saharanpur,Uttar Pradesh,29.9637,77.546,19.0,72,0.0,980.9,6.1,27.0,150,99.9,50.8,3,5,7,0,2026-03-21T20:59:52.320557+05:30
Jhansi,Uttar Pradesh,25.4484,78.5685,23.4,49,0.0,983.5,7.4,24.5,87,42.1,23.6,0,5,7,0,2026-03-21T20:59:55.599395+05:30
Surat,Gujarat,21.1702,72.8311,26.2,53,0.0,1009.4,7.55,28.1,110,44.4,39.8,4,0,4,0,2026-03-21T20:59:55.599425+05:30
Vadodara,Gujarat,22.3072,73.1812,27.9,44,0.0,1007.4,7.55,15.5,97,26.7,21.8,4,5,4,0,2026-03-21T20:59:55.599437+05:30
Rajkot,Gujarat,22.3039,70.8022,27.5,46,0.0,997.7,7.05,20.5,84,34.0,18.4,4,5,7,0,2026-03-21T20:59:55.599446+05:30
Thane,Maharashtra,19.2183,72.9781,27.1,56,0.0,1009.8,7.85,42.8,110,33.1,25.1,4,0,4,1,2026-03-21T20:59:55.599454+05:30
Nagpur,Maharashtra,21.1458,79.0882,27.3,32,0.0,976.4,8.3,24.8,82,23.6,18.1,4,5,7,0,2026-03-21T20:59:55.599462+05:30
Nashik,Maharashtra,19.9975,73.7898,25.5,30,0.0,947.7,8.05,22.7,90,24.6,21.4,4,5,7,0,2026-03-21T20:59:55.599469+05:30
Aurangabad,Maharashtra,19.8762,75.3433,27.2,28,0.0,946.4,8.6,24.5,99,18.8,15.1,4,5,7,0,2026-03-21T20:59:55.599477+05:30
Solapur,Maharashtra,17.6599,75.9064,29.0,36,0.0,958.4,8.75,27.7,112,39.9,25.1,4,5,7,0,2026-03-21T20:59:55.599485+05:30
Kolhapur,Maharashtra,16.705,74.2433,23.1,47,0.0,949.2,8.85,28.8,79,58.1,45.5,0,5,7,0,2026-03-21T20:59:55.599493+05:30
Goa,Goa,15.2993,74.124,27.5,77,0.0,999.4,8.85,35.3,113,58.2,31.2,7,5,7,1,2026-03-21T20:59:55.599501+05:30
Jodhpur,Rajasthan,26.2389,73.0243,26.2,45,0.0,987.5,6.6,24.1,79,51.1,16.3,4,5,7,0,2026-03-21T20:59:55.599508+05:30
Udaipur,Rajasthan,24.5854,73.7125,24.4,44,0.0,950.4,7.1,11.9,81,26.5,12.0,0,5,7,0,2026-03-21T20:59:55.599516+05:30
Kota,Rajasthan,25.2138,75.8648,23.8,43,0.0,983.4,7.5,22.0,92,33.5,21.6,0,5,7,0,2026-03-21T20:59:55.599523+05:30
Bikaner,Rajasthan,28.0229,73.3119,24.4,51,0.0,987.6,6.25,28.4,59,28.4,11.2,0,5,7,0,2026-03-21T20:59:55.599531+05:30
Ajmer,Rajasthan,26.4499,74.6399,23.1,51,0.0,959.4,7.4,25.2,86,42.0,18.9,0,5,7,0,2026-03-21T20:59:55.599538+05:30
Gwalior,Madhya Pradesh,26.2183,78.1828,24.3,55,0.0,988.8,7.1,25.6,105,150.9,40.7,0,5,7,0,2026-03-21T20:59:55.599546+05:30
Indore,Madhya Pradesh,22.7196,75.8577,22.9,46,0.0,951.2,7.95,22.7,77,24.1,18.1,0,5,7,0,2026-03-21T20:59:55.599554+05:30
Bhopal,Madhya Pradesh,23.2599,77.4126,22.5,42,0.0,957.7,7.9,23.8,78,20.9,14.7,0,5,7,0,2026-03-21T20:59:55.599562+05:30
Jabalpur,Madhya Pradesh,23.1815,79.9864,22.7,52,0.0,966.1,8.0,31.3,71,21.0,14.3,0,5,7,0,2026-03-21T20:59:55.599569+05:30
Ujjain,Madhya Pradesh,23.1765,75.7885,23.9,45,0.0,957.3,7.75,19.4,73,34.9,26.6,0,5,7,0,2026-03-21T20:59:55.599577+05:30
Visakhapatnam,Andhra Pradesh,17.6868,83.2185,25.5,85,0.0,1006.9,8.8,35.3,74,17.2,14.2,7,5,4,1,2026-03-21T20:59:55.599585+05:30
Vijayawada,Andhra Pradesh,16.5062,80.648,27.7,74,0.0,1005.1,8.85,24.8,61,30.7,26.6,7,5,4,1,2026-03-21T20:59:55.599593+05:30
Guntur,Andhra Pradesh,16.3067,80.4365,26.6,84,0.0,1006.3,8.85,23.8,56,35.7,30.3,7,5,4,1,2026-03-21T20:59:55.599601+05:30
Nellore,Andhra Pradesh,14.4426,79.9865,27.2,82,0.0,1008.4,9.0,35.3,49,13.2,9.2,7,0,4,1,2026-03-21T20:59:55.599609+05:30
Kurnool,Andhra Pradesh,15.8281,78.0373,31.3,35,0.0,977.6,8.9,19.4,146,41.3,33.2,0,5,7,0,2026-03-21T20:59:55.599618+05:30
Kakinada,Andhra Pradesh,16.9891,82.2475,25.6,84,0.0,1010.3,8.85,26.6,39,10.9,7.7,7,0,4,1,2026-03-21T20:59:55.599625+05:30
Tirupati,Andhra Pradesh,13.6288,79.4192,27.8,70,0.0,993.8,8.85,26.3,93,32.1,27.7,7,5,7,1,2026-03-21T20:59:55.599633+05:30
Warangal,Telangana,17.9689,79.5941,26.1,72,0.0,981.2,8.65,28.4,108,63.3,54.1,7,5,7,1,2026-03-21T20:59:55.599641+05:30
Nizamabad,Telangana,18.6725,78.0941,28.2,44,0.0,966.6,8.6,34.9,88,53.6,36.3,4,5,7,0,2026-03-21T20:59:55.599648+05:30
Mysore,Karnataka,12.2958,76.6396,25.6,66,0.0,929.8,9.4,44.3,155,43.4,34.2,7,5,7,1,2026-03-21T20:59:55.599656+05:30
Mangalore,Karnataka,12.9141,74.856,29.5,74,0.0,1008.0,9.05,29.2,67,32.5,17.4,7,0,4,1,2026-03-21T20:59:55.599664+05:30
Hubli-Dharwad,Karnataka,15.3647,75.124,26.1,45,0.0,941.9,9.05,28.8,123,32.2,26.8,4,5,7,0,2026-03-21T20:59:55.599672+05:30
Belgaum,Karnataka,15.8497,74.4977,24.0,55,0.0,927.0,9.1,36.4,118,30.7,23.1,0,5,7,0,2026-03-21T20:59:58.881172+05:30
Coimbatore,Tamil Nadu,11.0168,76.9558,26.1,72,0.0,963.0,9.35,47.2,138,28.8,23.1,7,5,7,1,2026-03-21T20:59:58.881201+05:30
Madurai,Tamil Nadu,9.9252,78.1198,29.2,67,0.0,994.7,9.3,38.9,90,12.5,10.4,7,5,7,1,2026-03-21T20:59:58.881210+05:30
Trichy,Tamil Nadu,10.7905,78.7047,28.4,74,0.0,1001.3,9.25,29.5,77,15.4,13.7,7,5,4,1,2026-03-21T20:59:58.881218+05:30
Salem,Tamil Nadu,11.6643,78.146,29.5,55,0.0,978.2,9.3,26.6,135,34.8,30.5,4,5,7,1,2026-03-21T20:59:58.881225+05:30
Tirunelveli,Tamil Nadu,8.7139,77.7567,28.2,71,0.0,1004.8,9.3,42.8,110,17.5,15.7,7,5,4,1,2026-03-21T20:59:58.881232+05:30
Vellore,Tamil Nadu,12.9165,79.1325,27.8,68,0.0,986.5,9.2,37.1,101,17.2,15.5,7,5,7,1,2026-03-21T20:59:58.881238+05:30
Erode,Tamil Nadu,11.341,77.7172,30.7,54,0.0,989.6,9.3,24.5,114,19.5,16.5,0,5,7,1,2026-03-21T20:59:58.881245+05:30
Kochi,Kerala,9.9312,76.2673,29.0,72,0.0,1010.3,9.15,33.8,90,30.0,25.8,7,0,4,1,2026-03-21T20:59:58.881252+05:30
Thiruvananthapuram,Kerala,8.5241,76.9366,28.0,80,0.0,1009.8,8.55,24.8,105,22.3,16.9,7,0,4,1,2026-03-21T20:59:58.881259+05:30
Kozhikode,Kerala,11.2588,75.7804,29.2,78,0.0,1009.2,9.05,31.3,65,22.8,15.1,7,0,4,1,2026-03-21T20:59:58.881266+05:30
Thrissur,Kerala,10.5276,76.2144,28.5,73,0.0,1008.4,9.15,38.9,79,21.6,18.6,7,0,4,1,2026-03-21T20:59:58.881274+05:30
Kannur,Kerala,11.8745,75.3704,28.9,77,0.0,1008.6,9.1,34.9,78,26.5,16.2,7,0,4,1,2026-03-21T20:59:58.881280+05:30
Patna,Bihar,25.5941,85.1376,20.5,86,0.0,1006.9,7.2,24.5,140,63.8,60.3,3,5,4,1,2026-03-21T20:59:58.881287+05:30
Gaya,Bihar,24.7914,85.0002,20.1,86,0.0,999.9,7.65,24.8,111,49.7,45.6,3,5,7,1,2026-03-21T20:59:58.881293+05:30
Muzaffarpur,Bihar,26.1209,85.3647,18.4,94,0.0,1007.0,5.2,23.8,143,66.1,63.6,3,10,0,1,2026-03-21T20:59:58.881299+05:30
Bhagalpur,Bihar,25.2425,87.0117,20.3,90,0.0,1007.4,5.85,24.5,118,37.7,34.8,3,5,0,1,2026-03-21T20:59:58.881306+05:30
Ranchi,Jharkhand,23.3441,85.3096,19.2,74,0.0,941.2,8.35,32.0,103,29.7,27.9,3,5,7,0,2026-03-21T20:59:58.881313+05:30
Jamshedpur,Jharkhand,22.8046,86.2029,22.6,68,0.0,996.0,7.75,29.9,119,40.4,38.4,3,5,7,1,2026-03-21T20:59:58.881319+05:30
Dhanbad,Jharkhand,23.7957,86.4304,21.1,74,0.0,985.1,7.6,27.0,148,54.5,51.3,3,5,7,1,2026-03-21T20:59:58.881326+05:30
Bokaro,Jharkhand,23.6693,86.1511,20.6,80,0.0,989.2,5.8,37.4,143,54.0,51.8,3,5,3,1,2026-03-21T20:59:58.881332+05:30
Bhubaneswar,Odisha,20.2961,85.8245,24.8,80,0.0,1006.2,8.55,28.1,148,42.5,38.5,3,5,4,1,2026-03-21T20:59:58.881339+05:30
Cuttack,Odisha,20.4625,85.8828,25.8,74,0.0,1008.0,8.6,25.9,148,42.5,38.5,7,0,4,1,2026-03-21T20:59:58.881346+05:30
Rourkela,Odisha,22.2604,84.8536,26.4,50,0.0,988.4,8.15,29.9,138,43.1,36.6,4,5,7,0,2026-03-21T20:59:58.881352+05:30
Raipur,Chhattisgarh,21.2514,81.6296,26.3,29,0.0,977.9,8.35,31.7,117,62.4,51.9,4,5,7,0,2026-03-21T20:59:58.881358+05:30
Bhilai,Chhattisgarh,21.1938,81.3509,25.0,33,0.0,978.3,8.35,33.8,108,25.4,22.0,4,5,7,0,2026-03-21T20:59:58.881364+05:30
Guwahati,Assam,26.1158,91.7086,22.3,92,0.0,1007.2,2.65,18.7,87,38.0,33.5,3,5,0,1,2026-03-21T20:59:58.881370+05:30
Agartala,Tripura,23.8315,91.2868,22.2,80,0.0,1010.6,5.1,18.4,113,37.8,31.4,3,0,0,1,2026-03-21T20:59:58.881377+05:30
Shillong,Meghalaya,25.5788,91.8933,11.8,90,0.1,857.4,5.05,23.8,70,38.2,26.2,6,10,3,0,2026-03-21T20:59:58.881384+05:30
Imphal,Manipur,24.817,93.9368,16.8,86,0.0,925.4,7.45,35.3,89,36.7,30.5,3,10,7,0,2026-03-21T20:59:58.881390+05:30
Aizawl,Mizoram,23.7271,92.7176,16.4,87,0.0,894.4,5.35,34.6,112,56.6,44.1,3,10,3,0,2026-03-21T20:59:58.881397+05:30
Kohima,Nagaland,25.6701,94.1077,13.8,94,0.3,856.7,7.0,57.2,73,29.2,21.2,6,10,7,0,2026-03-21T20:59:58.881403+05:30
Gangtok,Sikkim,27.3314,88.6138,9.6,92,0.0,837.2,1.95,16.6,101,33.9,27.5,3,10,3,0,2026-03-21T20:59:58.881409+05:30
Siliguri,West Bengal,26.7271,88.3953,16.9,66,0.0,998.9,0.45,29.2,97,63.8,49.2,3,5,3,0,2026-03-21T21:00:20.737371+05:30
Durgapur,West Bengal,23.5204,87.3119,22.5,74,0.0,1000.7,7.8,19.1,122,42.8,39.8,3,5,4,1,2026-03-21T21:00:20.737401+05:30
Asansol,West Bengal,23.6739,86.9524,22.1,74,0.0,999.2,6.55,21.2,128,43.8,40.3,3,5,7,1,2026-03-21T21:00:20.737411+05:30
Pondicherry,Puducherry,11.9139,79.8145,26.2,89,0.0,1010.8,9.15,30.6,32,13.5,8.6,7,0,4,1,2026-03-21T21:00:20.737420+05:30
Port Blair,Andaman and Nicobar Islands,11.6234,92.7265,28.6,77,0.0,1009.3,9.1,14.8,49,13.3,10.1,7,0,4,1,2026-03-21T21:00:20.737427+05:30
Haridwar,Uttarakhand,29.9457,78.1642,19.3,75,0.0,979.4,6.2,21.6,102,51.2,41.0,3,5,7,0,2026-03-21T21:00:20.737435+05:30
Rishikesh,Uttarakhand,30.0869,78.2676,18.8,77,0.0,971.9,6.25,20.9,95,27.2,23.9,3,5,7,0,2026-03-21T21:00:20.737443+05:30
Nainital,Uttarakhand,29.3919,79.4542,12.4,88,0.0,806.8,6.9,34.2,64,21.5,19.0,3,10,7,0,2026-03-21T21:00:20.737450+05:30
Mussoorie,Uttarakhand,30.4599,78.0664,11.6,79,0.0,803.2,6.6,26.3,99,39.0,35.3,3,5,7,0,2026-03-21T21:00:20.737457+05:30
Dharamshala,Himachal Pradesh,32.219,76.3234,14.8,72,0.0,871.0,6.6,17.6,88,28.9,20.8,3,5,7,0,2026-03-21T21:00:20.737464+05:30
Dalhousie,Himachal Pradesh,32.5387,75.971,11.4,79,0.0,804.1,6.25,17.3,73,48.3,39.2,3,5,7,0,2026-03-21T21:00:20.737477+05:30
Patiala,Punjab,30.3398,76.3869,17.9,76,0.0,984.0,5.85,23.8,153,188.1,49.6,3,5,3,0,2026-03-21T21:00:20.737485+05:30
Bhatinda,Punjab,30.211,74.9455,20.1,74,0.0,990.3,5.55,18.0,132,93.6,71.2,3,5,3,0,2026-03-21T21:00:20.737493+05:30
Rohtak,Haryana,28.8955,76.6066,19.8,76,0.0,987.8,5.9,22.7,165,141.6,71.5,3,5,3,0,2026-03-21T21:00:20.737499+05:30
Panipat,Haryana,29.3909,76.9635,18.6,79,0.0,986.2,6.0,24.8,165,221.2,66.8,3,5,3,0,2026-03-21T21:00:20.737505+05:30
Mathura,Uttar Pradesh,27.4924,77.6737,22.0,63,0.0,992.9,6.7,23.8,160,378.1,88.0,3,5,7,0,2026-03-21T21:00:20.737512+05:30
Vrindavan,Uttar Pradesh,27.5823,77.7027,20.1,73,0.0,993.2,6.65,21.6,160,378.1,88.0,3,5,7,0,2026-03-21T21:00:20.737518+05:30
Ayodhya,Uttar Pradesh,26.7922,82.1998,20.5,81,0.0,1001.9,6.95,22.0,92,57.0,47.8,3,5,4,1,2026-03-21T21:00:20.737525+05:30
Ratlam,Madhya Pradesh,23.3315,75.0367,23.9,52,0.0,957.9,7.55,21.2,76,30.2,21.1,0,5,7,0,2026-03-21T21:00:20.737532+05:30
Sagar,Madhya Pradesh,23.8388,78.7378,22.6,44,0.0,954.9,7.9,28.4,88,18.5,12.6,0,5,7,0,2026-03-21T21:00:20.737538+05:30
Satna,Madhya Pradesh,24.6005,80.8322,21.3,67,0.0,976.8,7.8,32.8,74,27.8,13.8,3,5,7,0,2026-03-21T21:00:20.737544+05:30
Akola,Maharashtra,20.7002,77.0082,25.9,33,0.0,978.2,8.25,23.0,96,34.8,28.5,4,5,7,0,2026-03-21T21:00:20.737551+05:30
Amravati,Maharashtra,20.9374,77.7796,26.5,36,0.0,970.3,8.3,25.2,92,29.7,23.5,4,5,7,0,2026-03-21T21:00:20.737558+05:30
Latur,Maharashtra,18.4088,76.5604,26.3,40,0.0,941.6,8.65,34.2,107,30.7,20.2,4,5,7,0,2026-03-21T21:00:20.737564+05:30
Nanded,Maharashtra,19.1383,77.3091,28.8,34,0.0,970.6,8.5,28.1,79,53.3,33.1,4,5,7,0,2026-03-21T21:00:20.737570+05:30
Gulbarga,Karnataka,17.3297,76.8343,29.8,31,0.0,960.2,8.75,42.1,137,38.6,28.9,4,5,7,0,2026-03-21T21:00:20.737577+05:30
Bidar,Karnataka,17.9104,77.5199,28.4,37,0.0,937.3,8.75,40.3,93,28.3,20.1,4,5,7,0,2026-03-21T21:00:20.737584+05:30
Hospet,Karnataka,15.2689,76.3909,29.4,51,0.0,957.0,9.0,19.4,170,28.3,23.7,4,5,7,1,2026-03-21T21:00:20.737591+05:30
Tirupur,Tamil Nadu,11.1085,77.3411,28.9,62,0.0,976.8,9.4,33.5,131,24.9,19.3,7,5,7,1,2026-03-21T21:00:20.737597+05:30
Alappuzha,Kerala,9.4981,76.3388,28.9,74,0.0,1010.5,9.1,29.2,77,24.2,19.2,7,0,4,1,2026-03-21T21:00:20.737604+05:30
Munnar,Kerala,10.0889,77.0595,20.4,91,0.0,858.0,9.65,30.6,91,30.9,26.6,3,5,7,1,2026-03-21T21:00:20.737611+05:30
Silchar,Assam,24.8333,92.7789,22.8,78,0.0,1009.0,6.8,22.3,100,52.4,43.8,3,0,4,1,2026-03-21T21:00:20.737618+05:30
Dibrugarh,Assam,27.4728,94.912,23.3,83,0.0,999.3,7.6,20.5,90,57.5,48.3,3,5,7,1,2026-03-21T21:00:20.737625+05:30
