city,state,latitude,longitude,temp,humidity,rain,pressure,uv_index,wind_gusts,aqi,pm10,pm2_5,no2,co,o3,so2,mosquito_risk,arthritis_risk,migraine_risk,frizz_risk,updated_at
Delhi,Delhi,28.6139,77.209,36.2,25,0.0,981.5,7.55,34.2,168,265.4,52.9,5.8,430.0,226.0,21.9,0,5,10,0,2026-05-09T16:29:27.874310+05:30
Mumbai,Maharashtra,19.076,72.8777,35.0,43,0.0,1003.9,7.85,47.9,106,49.2,25.6,9.4,283.0,141.0,8.5,0,5,4,1,2026-05-09T16:29:27.874356+05:30
Bangalore,Karnataka,12.9716,77.5946,31.4,38,0.1,908.9,9.5,44.3,48,14.3,12.5,7.7,294.0,84.0,3.6,3,5,7,0,2026-05-09T16:29:27.874378+05:30
Hyderabad,Telangana,17.385,78.4867,35.8,23,0.0,951.0,9.1,33.8,54,18.0,12.1,2.2,275.0,155.0,3.9,0,5,10,0,2026-05-09T16:29:27.874389+05:30
Chennai,Tamil Nadu,13.0827,80.2707,28.2,79,0.0,1004.9,8.2,39.6,25,5.6,3.9,3.0,136.0,51.0,4.1,7,5,4,1,2026-05-09T16:29:27.874398+05:30
Kolkata,West Bengal,22.5726,88.3639,28.7,75,0.0,1004.9,8.9,22.0,201,48.8,40.4,4.9,571.0,201.0,14.5,7,5,4,1,2026-05-09T16:29:27.874407+05:30
Pune,Maharashtra,18.5204,73.8567,37.4,19,0.0,945.5,8.5,35.6,118,49.9,27.9,1.6,229.0,171.0,5.2,0,5,10,0,2026-05-09T16:29:27.874414+05:30
Ahmedabad,Gujarat,23.0225,72.5714,43.0,11,0.0,997.9,8.1,33.8,68,31.4,11.6,1.2,176.0,135.0,2.4,0,5,10,0,2026-05-09T16:29:27.874425+05:30
Jaipur,Rajasthan,26.9124,75.7873,37.5,20,0.0,957.8,8.15,28.8,167,156.9,33.9,0.8,240.0,176.0,6.2,0,5,10,0,2026-05-09T16:29:27.874433+05:30
Lucknow,Uttar Pradesh,26.8467,80.9462,32.2,40,0.0,992.4,7.95,36.4,145,62.4,33.6,2.0,302.0,181.0,8.8,0,5,7,1,2026-05-09T16:29:27.874441+05:30
Kanpur,Uttar Pradesh,26.4499,80.3319,32.6,36,0.0,990.4,8.05,38.5,189,178.3,43.5,2.2,293.0,182.0,9.3,0,5,7,0,2026-05-09T16:29:27.874448+05:30
Chandigarh,Chandigarh,30.7333,76.7794,35.0,27,0.0,967.9,7.6,31.7,168,129.5,33.8,1.4,277.0,199.0,7.7,0,5,7,0,2026-05-09T16:29:27.874458+05:30
Srinagar,Jammu and Kashmir,34.0837,74.7973,27.6,30,0.0,843.5,8.9,18.0,98,35.4,8.7,1.3,294.0,155.0,1.0,4,5,7,0,2026-05-09T16:29:27.874467+05:30
Jammu,Jammu and Kashmir,32.7266,74.857,34.6,28,0.0,971.9,8.4,29.9,164,129.9,43.4,0.8,299.0,187.0,7.0,0,5,7,0,2026-05-09T16:29:27.874475+05:30
Amritsar,Punjab,31.634,74.8723,37.0,27,0.0,979.3,8.3,24.8,156,326.0,67.1,1.2,294.0,202.0,11.3,0,5,10,0,2026-05-09T16:29:27.874482+05:30
Ludhiana,Punjab,30.901,75.8573,36.1,27,0.0,977.6,7.9,32.4,155,334.3,56.5,1.2,294.0,184.0,3.7,0,5,10,0,2026-05-09T16:29:27.874490+05:30
Jalandhar,Punjab,31.326,75.5762,35.2,31,0.0,978.7,8.05,25.9,153,275.7,54.0,0.7,311.0,186.0,7.4,0,5,10,0,2026-05-09T16:29:27.874497+05:30
Dehradun,Uttarakhand,30.6284,78.0322,20.0,63,0.0,832.1,8.0,28.1,116,43.7,16.8,0.9,225.0,161.0,2.7,3,5,7,0,2026-05-09T16:29:27.874507+05:30
Shimla,Himachal Pradesh,31.1048,77.1734,19.1,52,0.0,787.1,8.05,34.2,135,69.2,23.6,1.0,235.0,181.0,7.6,0,5,7,0,2026-05-09T16:29:27.874515+05:30
Manali,Himachal Pradesh,32.2396,77.1887,19.2,59,0.0,819.4,10.15,39.2,119,34.8,7.0,0.5,172.0,167.0,0.2,0,5,7,0,2026-05-09T16:29:27.874522+05:30
Gurgaon,Haryana,28.4595,77.0266,35.2,28,0.0,980.0,7.65,27.4,1026,760.0,92.4,4.8,385.0,213.0,17.5,0,5,10,0,2026-05-09T16:29:27.874529+05:30
Noida,Uttar Pradesh,28.5355,77.391,34.3,34,0.0,983.1,7.6,29.5,1026,760.0,92.4,4.8,357.0,213.0,17.5,0,5,7,0,2026-05-09T16:29:27.874536+05:30
Ghaziabad,Uttar Pradesh,28.6692,77.4538,34.1,32,0.0,981.7,7.55,27.4,139,187.7,37.5,2.6,285.0,185.0,7.9,0,5,7,0,2026-05-09T16:29:27.874558+05:30
Faridabad,Haryana,28.4089,77.3178,35.0,28,0.0,982.2,7.6,37.1,1026,760.0,92.4,4.8,335.0,213.0,17.5,0,5,7,0,2026-05-09T16:29:27.874565+05:30
Meerut,Uttar Pradesh,28.9845,77.7064,32.2,42,0.0,981.1,7.45,27.7,139,187.7,37.5,2.6,286.0,185.0,7.9,0,5,7,1,2026-05-09T16:29:27.874572+05:30
Agra,Uttar Pradesh,27.1767,78.0081,33.8,33,0.0,985.9,7.9,28.8,895,687.3,83.4,2.0,279.0,179.0,8.6,0,5,7,0,2026-05-09T16:29:27.874579+05:30
Varanasi,Uttar Pradesh,25.3176,82.9739,30.1,51,0.0,996.5,8.35,36.4,184,69.6,42.0,3.2,371.0,211.0,17.3,0,5,7,1,2026-05-09T16:29:27.874586+05:30
Prayagraj,Uttar Pradesh,25.4358,81.8463,30.6,47,0.0,994.4,8.3,46.4,175,66.8,41.8,2.9,401.0,210.0,13.7,0,5,7,1,2026-05-09T16:29:27.874596+05:30
Gorakhpur,Uttar Pradesh,26.7606,83.3732,30.5,45,0.0,997.1,8.4,37.4,153,65.0,39.6,1.7,359.0,190.0,7.8,0,5,7,1,2026-05-09T16:29:27.874602+05:30
Bareilly,Uttar Pradesh,28.367,79.4304,32.0,41,0.0,986.0,7.55,33.5,144,137.4,33.1,1.3,266.0,177.0,7.9,0,5,7,1,2026-05-09T16:29:27.874609+05:30
Aligarh,Uttar Pradesh,27.8974,78.088,33.0,38,0.0,984.4,7.7,29.2,484,459.1,63.3,2.1,287.0,183.0,10.9,0,5,7,1,2026-05-09T16:29:27.874616+05:30
Moradabad,Uttar Pradesh,28.8386,78.7733,31.8,42,0.0,983.4,7.65,32.8,154,115.5,34.9,2.3,282.0,193.0,13.1,0,5,7,1,2026-05-09T16:29:27.874623+05:30
Saharanpur,Uttar Pradesh,29.9637,77.546,31.9,39,0.0,975.4,7.3,31.0,154,55.2,23.6,1.7,274.0,180.0,8.1,0,5,7,1,2026-05-09T16:29:27.874629+05:30
Jhansi,Uttar Pradesh,25.4484,78.5685,33.9,33,0.0,975.7,8.3,52.2,152,104.5,30.0,1.3,253.0,180.0,14.0,0,5,7,0,2026-05-09T16:29:31.107379+05:30
Surat,Gujarat,21.1702,72.8311,41.4,13,0.0,1002.5,7.7,34.9,104,69.2,46.0,52.4,159.0,89.0,103.3,0,5,7,0,2026-05-09T16:29:31.107411+05:30
Vadodara,Gujarat,22.3072,73.1812,42.9,11,0.0,999.7,8.05,31.0,82,34.8,15.6,1.4,182.0,169.0,8.6,0,5,10,0,2026-05-09T16:29:31.107422+05:30
Rajkot,Gujarat,22.3039,70.8022,40.4,17,0.0,991.4,7.7,45.4,54,41.3,14.0,1.0,144.0,139.0,5.3,0,5,10,0,2026-05-09T16:29:31.107431+05:30
Thane,Maharashtra,19.2183,72.9781,38.0,33,0.0,1002.8,7.85,43.2,106,49.2,25.6,9.4,238.0,141.0,8.5,0,5,7,1,2026-05-09T16:29:31.107438+05:30
Nagpur,Maharashtra,21.1458,79.0882,37.8,21,0.0,970.6,8.9,47.9,145,49.0,21.3,4.7,220.0,178.0,17.5,0,5,10,0,2026-05-09T16:29:31.107445+05:30
Nashik,Maharashtra,19.9975,73.7898,37.7,15,0.0,942.8,8.15,51.5,93,45.2,18.2,1.3,191.0,151.0,5.2,0,5,10,0,2026-05-09T16:29:31.107452+05:30
Aurangabad,Maharashtra,19.8762,75.3433,38.3,12,0.0,941.2,9.05,31.0,131,35.2,15.6,1.1,202.0,159.0,5.2,0,5,10,0,2026-05-09T16:29:31.107458+05:30
Solapur,Maharashtra,17.6599,75.9064,38.6,21,0.0,953.8,9.05,31.3,91,32.9,20.6,1.3,207.0,167.0,4.6,0,5,10,0,2026-05-09T16:29:31.107464+05:30
Kolhapur,Maharashtra,16.705,74.2433,37.3,22,0.0,944.5,8.85,37.8,129,29.8,20.2,2.0,216.0,157.0,3.5,0,5,10,0,2026-05-09T16:29:31.107470+05:30
Goa,Goa,15.2993,74.124,36.2,44,0.0,992.9,8.65,51.1,84,39.7,21.4,1.4,228.0,126.0,3.2,0,5,10,1,2026-05-09T16:29:31.107477+05:30
Jodhpur,Rajasthan,26.2389,73.0243,41.7,14,0.0,979.9,8.35,41.4,99,118.3,24.9,0.2,149.0,150.0,3.6,0,5,10,0,2026-05-09T16:29:31.107483+05:30
Udaipur,Rajasthan,24.5854,73.7125,37.8,15,0.0,945.1,8.8,44.3,54,46.3,10.4,0.4,146.0,127.0,2.8,0,5,10,0,2026-05-09T16:29:31.107489+05:30
Kota,Rajasthan,25.2138,75.8648,39.1,18,0.0,975.4,8.35,45.4,96,62.6,20.5,1.1,229.0,164.0,4.8,0,5,10,0,2026-05-09T16:29:31.107495+05:30
Bikaner,Rajasthan,28.0229,73.3119,40.8,13,0.0,979.4,8.3,25.9,127,189.5,44.2,0.3,246.0,170.0,9.2,0,5,10,0,2026-05-09T16:29:31.107502+05:30
Ajmer,Rajasthan,26.4499,74.6399,38.0,15,0.0,952.8,8.3,47.2,107,91.0,26.4,0.6,236.0,166.0,3.9,0,5,10,0,2026-05-09T16:29:31.107508+05:30
Gwalior,Madhya Pradesh,26.2183,78.1828,35.7,25,0.0,980.6,8.1,28.8,142,216.1,46.1,0.8,265.0,176.0,7.6,0,5,10,0,2026-05-09T16:29:31.107514+05:30
Indore,Madhya Pradesh,22.7196,75.8577,40.0,9,0.0,945.3,8.65,50.4,87,48.7,10.4,1.1,182.0,136.0,2.1,0,5,10,0,2026-05-09T16:29:31.107520+05:30
Bhopal,Madhya Pradesh,23.2599,77.4126,38.2,12,0.0,951.1,8.65,45.4,109,53.0,11.4,0.6,171.0,138.0,2.9,0,5,10,0,2026-05-09T16:29:31.107526+05:30
Jabalpur,Madhya Pradesh,23.1815,79.9864,36.7,19,0.0,958.4,8.8,38.2,147,40.9,16.3,2.7,179.0,157.0,5.6,0,5,10,0,2026-05-09T16:29:31.107533+05:30
Ujjain,Madhya Pradesh,23.1765,75.7885,39.2,11,0.0,951.2,8.55,48.6,75,44.8,10.0,0.7,152.0,132.0,2.4,0,5,10,0,2026-05-09T16:29:31.107556+05:30
Visakhapatnam,Andhra Pradesh,17.6868,83.2185,31.3,61,0.0,1001.7,9.15,35.3,76,16.6,13.4,17.4,527.0,53.0,19.3,3,5,4,1,2026-05-09T16:29:31.107563+05:30
Vijayawada,Andhra Pradesh,16.5062,80.648,35.1,44,0.0,999.4,9.2,38.9,45,10.5,8.2,1.8,143.0,89.0,4.6,0,5,10,1,2026-05-09T16:29:31.107569+05:30
Guntur,Andhra Pradesh,16.3067,80.4365,35.2,40,0.0,1000.6,9.2,33.1,44,12.0,9.5,1.6,155.0,105.0,4.0,0,5,7,1,2026-05-09T16:29:31.107576+05:30
Nellore,Andhra Pradesh,14.4426,79.9865,32.3,59,0.0,1002.7,9.2,40.0,28,6.1,4.2,1.2,121.0,57.0,1.6,0,5,4,1,2026-05-09T16:29:31.107582+05:30
Kurnool,Andhra Pradesh,15.8281,78.0373,38.7,22,0.0,972.8,9.15,38.5,37,11.8,7.5,0.7,167.0,120.0,1.0,0,5,10,0,2026-05-09T16:29:31.107590+05:30
Kakinada,Andhra Pradesh,16.9891,82.2475,30.8,66,0.0,1005.3,9.15,36.4,27,6.0,4.0,0.7,139.0,52.0,0.5,3,5,4,1,2026-05-09T16:29:31.107596+05:30
Tirupati,Andhra Pradesh,13.6288,79.4192,30.4,60,0.0,988.5,7.35,39.2,26,4.5,3.4,1.7,132.0,58.0,0.6,0,5,7,1,2026-05-09T16:29:31.107603+05:30
Warangal,Telangana,17.9689,79.5941,36.5,29,0.0,976.0,9.15,32.4,52,22.8,14.7,1.2,229.0,152.0,5.2,0,5,10,0,2026-05-09T16:29:31.107609+05:30
Nizamabad,Telangana,18.6725,78.0941,36.3,25,0.0,962.4,9.15,35.6,93,33.6,18.6,0.5,214.0,165.0,3.2,0,5,10,0,2026-05-09T16:29:31.107615+05:30
Mysore,Karnataka,12.2958,76.6396,31.5,42,0.0,925.0,9.4,38.9,58,14.9,12.8,3.3,189.0,103.0,3.1,0,5,7,1,2026-05-09T16:29:31.107621+05:30
Mangalore,Karnataka,12.9141,74.856,30.5,74,0.0,1002.2,7.9,38.2,78,25.3,15.0,1.1,172.0,114.0,1.4,3,5,4,1,2026-05-09T16:29:31.107628+05:30
Hubli-Dharwad,Karnataka,15.3647,75.124,37.3,19,0.0,937.5,9.2,43.6,56,15.1,10.3,1.4,180.0,157.0,2.6,0,5,10,0,2026-05-09T16:29:31.107634+05:30
Belgaum,Karnataka,15.8497,74.4977,36.3,20,0.0,923.1,9.15,41.4,78,27.1,17.6,1.5,198.0,164.0,3.4,0,5,10,0,2026-05-09T16:29:34.338896+05:30
Coimbatore,Tamil Nadu,11.0168,76.9558,28.2,70,0.0,958.4,7.75,24.8,64,17.7,15.8,3.7,201.0,116.0,4.9,7,5,7,1,2026-05-09T16:29:34.338931+05:30
Madurai,Tamil Nadu,9.9252,78.1198,28.0,80,0.0,989.5,5.5,40.3,67,11.1,10.9,4.6,254.0,92.0,8.0,7,5,3,1,2026-05-09T16:29:34.338942+05:30
Trichy,Tamil Nadu,10.7905,78.7047,28.1,80,0.1,996.2,3.2,33.8,38,9.6,9.5,9.6,182.0,79.0,21.2,10,5,3,1,2026-05-09T16:29:34.338951+05:30
Salem,Tamil Nadu,11.6643,78.146,27.7,76,0.1,973.9,8.25,31.7,49,8.5,8.1,5.6,168.0,87.0,8.4,10,5,7,1,2026-05-09T16:29:34.338958+05:30
Tirunelveli,Tamil Nadu,8.7139,77.7567,27.7,84,0.2,999.7,4.35,25.2,57,12.8,12.1,4.1,186.0,92.0,4.2,10,5,3,1,2026-05-09T16:29:34.338965+05:30
Vellore,Tamil Nadu,12.9165,79.1325,27.5,76,0.1,981.8,6.85,48.2,44,9.7,9.5,4.2,156.0,78.0,5.6,10,5,7,1,2026-05-09T16:29:34.338972+05:30
Erode,Tamil Nadu,11.341,77.7172,29.5,67,0.0,985.4,8.1,36.4,61,14.2,13.6,5.6,193.0,100.0,5.8,7,5,7,1,2026-05-09T16:29:34.338979+05:30
Kochi,Kerala,9.9312,76.2673,28.5,81,0.0,1004.7,8.1,32.0,86,22.1,20.4,6.0,273.0,124.0,2.4,7,5,4,1,2026-05-09T16:29:34.338986+05:30
Thiruvananthapuram,Kerala,8.5241,76.9366,28.0,80,0.0,1004.0,4.85,28.4,50,11.0,8.1,1.6,208.0,123.0,1.1,7,5,0,1,2026-05-09T16:29:34.338993+05:30
Kozhikode,Kerala,11.2588,75.7804,29.1,80,0.1,1004.1,8.3,37.4,63,10.5,6.7,0.5,267.0,114.0,0.6,10,5,4,1,2026-05-09T16:29:34.338999+05:30
Thrissur,Kerala,10.5276,76.2144,28.8,80,0.0,1003.1,8.15,34.6,75,21.5,20.3,3.1,299.0,123.0,2.3,7,5,4,1,2026-05-09T16:29:34.339007+05:30
Kannur,Kerala,11.8745,75.3704,29.9,74,0.1,1003.2,8.65,39.2,70,15.9,11.4,0.9,210.0,117.0,1.0,10,5,4,1,2026-05-09T16:29:34.339014+05:30
Patna,Bihar,25.5941,85.1376,29.9,58,0.0,999.8,8.4,32.0,182,65.9,49.6,4.7,380.0,214.0,18.4,4,5,7,1,2026-05-09T16:29:34.339021+05:30
Gaya,Bihar,24.7914,85.0002,30.1,54,0.0,993.0,8.5,33.5,180,70.3,41.2,2.9,351.0,206.0,17.9,0,5,7,1,2026-05-09T16:29:34.339028+05:30
Muzaffarpur,Bihar,26.1209,85.3647,29.4,57,0.0,1000.2,8.65,34.9,172,65.9,50.9,4.8,343.0,202.0,16.1,4,5,4,1,2026-05-09T16:29:34.339034+05:30
Bhagalpur,Bihar,25.2425,87.0117,30.1,58,0.0,1000.1,8.7,30.6,187,70.1,52.0,5.2,351.0,217.0,13.5,0,5,4,1,2026-05-09T16:29:34.339040+05:30
Ranchi,Jharkhand,23.3441,85.3096,22.0,82,0.5,937.1,9.2,29.2,159,69.2,34.0,1.5,229.0,166.0,8.3,6,5,7,1,2026-05-09T16:29:34.339047+05:30
Jamshedpur,Jharkhand,22.8046,86.2029,28.0,66,0.0,990.2,8.85,31.7,150,54.7,37.5,3.3,482.0,207.0,20.3,7,5,7,1,2026-05-09T16:29:34.339054+05:30
Dhanbad,Jharkhand,23.7957,86.4304,25.0,75,0.0,979.2,8.95,35.6,149,78.2,60.5,14.8,457.0,224.0,53.2,7,5,7,1,2026-05-09T16:29:34.339060+05:30
Bokaro,Jharkhand,23.6693,86.1511,26.9,68,0.0,983.3,8.95,38.2,154,106.2,69.2,12.5,937.0,228.0,47.9,7,5,7,1,2026-05-09T16:29:34.339067+05:30
Bhubaneswar,Odisha,20.2961,85.8245,31.8,53,0.0,1001.2,9.1,31.7,49,19.9,10.9,2.1,201.0,109.0,3.7,0,5,4,1,2026-05-09T16:29:34.339074+05:30
Cuttack,Odisha,20.4625,85.8828,31.0,63,0.0,1003.1,9.15,43.2,49,19.9,10.9,2.1,210.0,109.0,3.7,3,5,4,1,2026-05-09T16:29:34.339080+05:30
Rourkela,Odisha,22.2604,84.8536,33.4,42,0.0,983.3,8.9,49.3,176,61.9,30.5,2.1,255.0,191.0,23.4,0,5,7,1,2026-05-09T16:29:34.339087+05:30
Raipur,Chhattisgarh,21.2514,81.6296,37.5,20,0.0,971.9,8.95,60.5,167,34.5,18.2,6.0,308.0,193.0,4.2,0,5,10,0,2026-05-09T16:29:34.339093+05:30
Bhilai,Chhattisgarh,21.1938,81.3509,37.2,21,0.0,972.4,8.95,42.8,137,31.3,16.1,6.3,372.0,174.0,3.6,0,5,10,0,2026-05-09T16:29:34.339099+05:30
Guwahati,Assam,26.1158,91.7086,27.7,72,0.0,1000.6,8.65,25.2,109,35.5,25.1,2.1,324.0,136.0,1.8,7,5,4,1,2026-05-09T16:29:34.339105+05:30
Agartala,Tripura,23.8315,91.2868,31.2,57,0.0,1004.0,8.8,20.2,192,61.0,46.4,7.2,362.0,208.0,5.4,0,5,4,1,2026-05-09T16:29:34.339111+05:30
Shillong,Meghalaya,25.5788,91.8933,20.7,66,0.0,857.5,8.4,24.5,111,42.3,26.9,2.1,268.0,145.0,2.7,3,5,7,0,2026-05-09T16:29:34.339117+05:30
Imphal,Manipur,24.817,93.9368,27.9,52,0.0,922.3,9.2,28.1,116,34.5,18.9,2.7,275.0,128.0,2.1,4,5,7,1,2026-05-09T16:29:34.339124+05:30
Aizawl,Mizoram,23.7271,92.7176,26.2,44,0.0,892.1,9.0,24.8,125,51.2,26.0,1.8,236.0,142.0,4.6,4,5,7,0,2026-05-09T16:29:34.339130+05:30
Kohima,Nagaland,25.6701,94.1077,20.3,79,0.0,855.8,9.15,28.8,99,30.0,18.2,1.7,277.0,134.0,1.3,3,5,7,1,2026-05-09T16:29:34.339136+05:30
Gangtok,Sikkim,27.3314,88.6138,17.6,64,0.0,838.1,8.95,35.3,92,25.8,13.8,2.1,223.0,133.0,1.3,3,5,7,0,2026-05-09T16:29:34.339142+05:30
Siliguri,West Bengal,26.7271,88.3953,28.7,57,0.0,992.9,8.55,26.3,118,38.9,23.5,2.7,522.0,151.0,2.1,4,5,7,1,2026-05-09T16:29:37.578446+05:30
Durgapur,West Bengal,23.5204,87.3119,30.5,64,0.0,993.7,8.9,42.8,144,52.9,44.1,12.5,376.0,182.0,40.0,3,5,7,1,2026-05-09T16:29:37.578479+05:30
Asansol,West Bengal,23.6739,86.9524,30.9,59,0.0,992.3,8.95,47.2,130,55.4,44.7,12.7,489.0,181.0,42.5,0,5,7,1,2026-05-09T16:29:37.578490+05:30
Pondicherry,Puducherry,11.9139,79.8145,27.1,85,0.1,1005.7,3.25,38.2,27,4.4,3.1,2.2,132.0,53.0,0.6,10,5,0,1,2026-05-09T16:29:37.578499+05:30
Port Blair,Andaman and Nicobar Islands,11.6234,92.7265,26.7,85,0.0,1004.5,8.1,43.6,27,3.0,2.1,0.5,151.0,57.0,0.1,7,5,4,1,2026-05-09T16:29:37.578507+05:30
Haridwar,Uttarakhand,29.9457,78.1642,31.4,41,0.0,973.6,7.4,28.1,158,61.0,26.2,0.9,262.0,180.0,7.2,0,5,7,1,2026-05-09T16:29:37.578514+05:30
Rishikesh,Uttarakhand,30.0869,78.2676,30.3,44,0.0,966.3,7.5,26.6,160,59.6,25.1,0.9,240.0,179.0,6.9,0,5,7,1,2026-05-09T16:29:37.578522+05:30
Nainital,Uttarakhand,29.3919,79.4542,17.2,70,0.1,806.7,7.95,30.2,130,39.5,19.3,0.6,244.0,162.0,3.4,6,5,7,0,2026-05-09T16:29:37.578529+05:30
Mussoorie,Uttarakhand,30.4599,78.0664,18.5,64,0.0,804.7,7.85,40.0,145,55.3,24.3,1.3,241.0,177.0,6.7,3,5,7,0,2026-05-09T16:29:37.578536+05:30
Dharamshala,Himachal Pradesh,32.219,76.3234,23.8,57,0.0,870.5,8.25,37.4,133,63.8,29.8,0.4,265.0,171.0,4.1,0,5,7,0,2026-05-09T16:29:37.578580+05:30
Dalhousie,Himachal Pradesh,32.5387,75.971,21.1,51,0.0,807.4,8.55,34.6,158,91.7,39.7,0.9,246.0,187.0,6.6,0,5,7,0,2026-05-09T16:29:37.578587+05:30
Patiala,Punjab,30.3398,76.3869,34.7,28,0.0,977.3,7.5,29.2,252,351.1,56.0,2.0,252.0,191.0,7.7,0,5,7,0,2026-05-09T16:29:37.578595+05:30
Bhatinda,Punjab,30.211,74.9455,37.5,24,0.0,982.1,8.2,25.6,513,451.7,84.5,1.9,273.0,214.0,19.9,0,5,10,0,2026-05-09T16:29:37.578601+05:30
Rohtak,Haryana,28.8955,76.6066,35.5,27,0.0,980.4,7.6,27.0,380,364.1,64.5,3.1,317.0,233.0,17.7,0,5,10,0,2026-05-09T16:29:37.578608+05:30
Panipat,Haryana,29.3909,76.9635,34.3,31,0.0,979.7,7.45,31.0,603,540.2,72.2,3.6,273.0,218.0,19.8,0,5,7,0,2026-05-09T16:29:37.578616+05:30
Mathura,Uttar Pradesh,27.4924,77.6737,34.4,33,0.0,985.2,7.85,27.0,783,657.5,78.9,1.8,293.0,179.0,7.5,0,5,7,0,2026-05-09T16:29:37.578622+05:30
Vrindavan,Uttar Pradesh,27.5823,77.7027,34.6,31,0.0,985.6,7.8,27.4,783,657.5,78.9,1.8,287.0,179.0,7.5,0,5,7,0,2026-05-09T16:29:37.578630+05:30
Ayodhya,Uttar Pradesh,26.7922,82.1998,30.2,48,0.0,994.6,8.15,38.9,126,64.0,32.9,1.3,325.0,176.0,7.0,0,5,7,1,2026-05-09T16:29:37.578637+05:30
Ratlam,Madhya Pradesh,23.3315,75.0367,38.6,13,0.0,952.8,8.5,40.7,77,37.7,9.1,0.5,148.0,132.0,2.0,0,5,10,0,2026-05-09T16:29:37.578644+05:30
Sagar,Madhya Pradesh,23.8388,78.7378,38.2,14,0.0,947.0,8.6,44.6,126,51.2,14.9,0.7,166.0,150.0,6.1,0,5,10,0,2026-05-09T16:29:37.578651+05:30
Satna,Madhya Pradesh,24.6005,80.8322,35.8,22,0.0,968.6,8.65,38.5,157,58.0,22.7,1.5,202.0,186.0,7.5,0,5,10,0,2026-05-09T16:29:37.578657+05:30
Akola,Maharashtra,20.7002,77.0082,39.8,12,0.0,971.7,8.85,38.2,117,65.4,20.2,1.0,198.0,169.0,11.3,0,5,10,0,2026-05-09T16:29:37.578665+05:30
Amravati,Maharashtra,20.9374,77.7796,39.2,17,0.0,964.3,8.85,34.6,112,64.7,20.0,1.1,207.0,168.0,6.6,0,5,10,0,2026-05-09T16:29:37.578672+05:30
Latur,Maharashtra,18.4088,76.5604,37.0,21,0.0,937.8,9.05,46.8,100,45.6,27.2,1.1,205.0,170.0,11.2,0,5,10,0,2026-05-09T16:29:37.578679+05:30
Nanded,Maharashtra,19.1383,77.3091,38.2,18,0.0,965.8,9.0,31.3,108,49.1,25.0,1.3,218.0,166.0,5.3,0,5,10,0,2026-05-09T16:29:37.578686+05:30
Gulbarga,Karnataka,17.3297,76.8343,38.2,21,0.0,955.6,8.8,34.6,69,20.8,13.2,1.7,208.0,161.0,3.1,0,5,10,0,2026-05-09T16:29:37.578692+05:30
Bidar,Karnataka,17.9104,77.5199,35.6,26,0.0,933.7,8.85,34.6,79,24.7,15.0,1.1,204.0,160.0,2.8,0,5,10,0,2026-05-09T16:29:37.578698+05:30
Hospet,Karnataka,15.2689,76.3909,36.5,23,0.0,952.0,9.2,36.0,43,13.8,9.9,2.4,193.0,153.0,5.5,0,5,10,0,2026-05-09T16:29:37.578705+05:30
Tirupur,Tamil Nadu,11.1085,77.3411,29.7,68,0.0,971.3,8.05,29.9,77,19.1,17.8,4.1,203.0,132.0,7.1,7,5,7,1,2026-05-09T16:29:37.578711+05:30
Alappuzha,Kerala,9.4981,76.3388,28.6,79,0.0,1004.9,8.15,31.0,94,16.4,14.8,4.7,184.0,143.0,3.3,7,5,4,1,2026-05-09T16:29:37.578717+05:30
Munnar,Kerala,10.0889,77.0595,19.8,91,0.1,854.3,4.95,24.1,52,12.1,11.1,3.4,173.0,81.0,1.6,6,10,3,1,2026-05-09T16:29:37.578725+05:30
Silchar,Assam,24.8333,92.7789,32.0,57,0.0,1002.2,8.7,16.9,134,57.2,29.9,2.8,311.0,155.0,6.5,0,5,4,1,2026-05-09T16:29:37.578731+05:30
Dibrugarh,Assam,27.4728,94.912,30.6,59,0.0,994.0,8.7,19.4,118,29.6,20.7,3.7,275.0,146.0,1.8,0,5,7,1,2026-05-09T16:29:37.578737+05:30
