city,state,latitude,longitude,temp,humidity,rain,pressure,uv_index,wind_gusts,aqi,pm10,pm2_5,mosquito_risk,arthritis_risk,migraine_risk,frizz_risk,updated_at
Delhi,Delhi,28.6139,77.209,33.6,34,0.0,980.8,6.65,19.8,194,342.7,66.6,0,5,7,0,2026-04-18T20:12:27.539309+05:30
Mumbai,Maharashtra,19.076,72.8777,30.5,68,0.0,1007.1,7.75,22.7,121,43.1,28.5,3,5,4,1,2026-04-18T20:12:27.539356+05:30
Bangalore,Karnataka,12.9716,77.5946,30.0,34,0.0,911.6,9.0,35.3,140,26.0,23.6,4,5,7,0,2026-04-18T20:12:27.539372+05:30
Hyderabad,Telangana,17.385,78.4867,31.1,43,0.0,953.6,9.25,38.5,151,49.7,43.0,0,5,7,1,2026-04-18T20:12:27.539382+05:30
Chennai,Tamil Nadu,13.0827,80.2707,29.2,77,0.0,1006.6,8.55,32.0,41,11.3,6.9,7,5,4,1,2026-04-18T20:12:27.539390+05:30
Kolkata,West Bengal,22.5726,88.3639,28.7,83,0.0,1004.7,8.85,24.1,76,29.1,24.0,7,5,4,1,2026-04-18T20:12:27.539400+05:30
Pune,Maharashtra,18.5204,73.8567,32.1,44,0.0,948.1,8.45,45.0,162,56.6,48.2,0,5,7,1,2026-04-18T20:12:27.539408+05:30
Ahmedabad,Gujarat,23.0225,72.5714,34.9,19,0.0,1000.4,8.15,27.7,63,37.5,22.2,0,5,4,0,2026-04-18T20:12:27.539415+05:30
Jaipur,Rajasthan,26.9124,75.7873,34.8,18,0.0,958.3,7.95,28.1,222,169.5,33.9,0,5,7,0,2026-04-18T20:12:27.539421+05:30
Lucknow,Uttar Pradesh,26.8467,80.9462,33.0,38,0.0,990.3,7.85,32.0,123,174.2,43.8,0,5,7,1,2026-04-18T20:12:27.539427+05:30
Kanpur,Uttar Pradesh,26.4499,80.3319,30.9,51,0.0,988.9,7.85,27.0,130,321.3,56.2,0,5,7,1,2026-04-18T20:12:27.539433+05:30
Chandigarh,Chandigarh,30.7333,76.7794,26.9,46,0.0,967.4,7.1,29.2,103,47.3,24.5,4,5,7,0,2026-04-18T20:12:27.539439+05:30
Srinagar,Jammu and Kashmir,34.0837,74.7973,13.3,83,0.0,844.3,5.85,30.6,81,34.6,19.0,3,10,3,0,2026-04-18T20:12:27.539445+05:30
Jammu,Jammu and Kashmir,32.7266,74.857,26.6,45,0.0,972.9,7.0,42.5,84,81.0,33.8,4,5,7,0,2026-04-18T20:12:27.539451+05:30
Amritsar,Punjab,31.634,74.8723,27.7,42,0.0,980.4,7.9,43.2,95,54.7,27.9,4,5,7,0,2026-04-18T20:12:27.539457+05:30
Ludhiana,Punjab,30.901,75.8573,30.9,34,0.0,977.8,7.45,32.4,112,63.3,34.5,0,5,7,0,2026-04-18T20:12:27.539464+05:30
Jalandhar,Punjab,31.326,75.5762,29.4,38,0.0,979.2,7.65,42.1,106,80.1,34.2,4,5,7,0,2026-04-18T20:12:27.539469+05:30
Dehradun,Uttarakhand,30.6284,78.0322,19.0,48,0.0,830.7,7.55,46.1,79,30.9,11.8,0,5,7,0,2026-04-18T20:12:27.539475+05:30
Shimla,Himachal Pradesh,31.1048,77.1734,17.8,49,0.0,786.5,7.7,47.9,94,48.8,19.9,0,5,7,0,2026-04-18T20:12:27.539481+05:30
Manali,Himachal Pradesh,32.2396,77.1887,17.4,36,0.0,823.1,8.9,25.2,99,32.4,9.9,0,5,7,0,2026-04-18T20:12:27.539486+05:30
Gurgaon,Haryana,28.4595,77.0266,30.7,48,0.0,978.9,6.9,15.8,487,769.3,104.1,0,5,7,1,2026-04-18T20:12:27.539492+05:30
Noida,Uttar Pradesh,28.5355,77.391,33.3,37,0.0,982.2,6.95,22.0,487,769.3,104.1,0,5,7,1,2026-04-18T20:12:27.539498+05:30
Ghaziabad,Uttar Pradesh,28.6692,77.4538,32.2,41,0.0,980.4,6.65,19.4,172,201.6,58.3,0,5,7,1,2026-04-18T20:12:27.539503+05:30
Faridabad,Haryana,28.4089,77.3178,32.0,39,0.0,981.4,7.25,25.2,487,769.3,104.1,0,5,7,1,2026-04-18T20:12:27.539509+05:30
Meerut,Uttar Pradesh,28.9845,77.7064,30.4,44,0.0,979.2,6.75,20.9,172,201.6,58.3,0,5,7,1,2026-04-18T20:12:27.539514+05:30
Agra,Uttar Pradesh,27.1767,78.0081,32.3,45,0.0,985.2,7.7,16.9,592,284.1,60.5,0,5,7,1,2026-04-18T20:12:27.539522+05:30
Varanasi,Uttar Pradesh,25.3176,82.9739,32.8,35,0.0,994.2,8.25,25.6,157,80.6,40.9,0,5,7,0,2026-04-18T20:12:27.539529+05:30
Prayagraj,Uttar Pradesh,25.4358,81.8463,34.1,37,0.0,992.8,7.85,28.8,152,78.7,34.6,0,5,7,1,2026-04-18T20:12:27.539535+05:30
Gorakhpur,Uttar Pradesh,26.7606,83.3732,31.8,52,0.0,993.9,8.1,28.4,154,40.6,21.4,0,5,7,1,2026-04-18T20:12:27.539540+05:30
Bareilly,Uttar Pradesh,28.367,79.4304,30.3,41,0.0,984.0,7.6,31.0,140,73.8,31.2,0,5,7,0,2026-04-18T20:12:27.539546+05:30
Aligarh,Uttar Pradesh,27.8974,78.088,32.1,34,0.0,983.0,7.35,25.6,260,326.0,66.8,0,5,7,0,2026-04-18T20:12:27.539552+05:30
Moradabad,Uttar Pradesh,28.8386,78.7733,29.9,43,0.0,981.3,7.4,28.8,145,113.6,44.1,4,5,7,0,2026-04-18T20:12:27.539557+05:30
Saharanpur,Uttar Pradesh,29.9637,77.546,28.4,52,0.0,973.8,7.0,23.4,119,107.6,38.8,4,5,7,1,2026-04-18T20:12:27.539562+05:30
Jhansi,Uttar Pradesh,25.4484,78.5685,32.7,31,0.0,975.5,7.85,27.0,146,76.1,28.8,0,5,7,0,2026-04-18T20:12:30.858942+05:30
Surat,Gujarat,21.1702,72.8311,29.5,68,0.0,1005.4,7.8,27.0,112,62.6,52.0,7,5,4,1,2026-04-18T20:12:30.858972+05:30
Vadodara,Gujarat,22.3072,73.1812,34.5,36,0.0,1002.1,8.15,19.4,124,44.8,31.7,0,5,4,1,2026-04-18T20:12:30.858982+05:30
Rajkot,Gujarat,22.3039,70.8022,32.6,20,0.0,993.6,7.8,28.1,85,28.6,13.8,0,5,7,0,2026-04-18T20:12:30.858990+05:30
Thane,Maharashtra,19.2183,72.9781,29.4,67,0.0,1006.5,7.85,33.5,121,43.1,28.5,7,5,4,1,2026-04-18T20:12:30.858997+05:30
Nagpur,Maharashtra,21.1458,79.0882,33.1,36,0.0,970.7,7.6,21.6,168,31.9,28.9,0,5,7,0,2026-04-18T20:12:30.859004+05:30
Nashik,Maharashtra,19.9975,73.7898,30.6,39,0.0,945.6,8.05,29.9,126,30.9,24.6,0,5,7,0,2026-04-18T20:12:30.859012+05:30
Aurangabad,Maharashtra,19.8762,75.3433,33.0,19,0.0,943.8,7.5,36.7,116,18.7,15.2,0,5,7,0,2026-04-18T20:12:30.859019+05:30
Solapur,Maharashtra,17.6599,75.9064,31.9,42,0.0,955.9,7.95,19.8,173,41.6,36.9,0,5,7,1,2026-04-18T20:12:30.859026+05:30
Kolhapur,Maharashtra,16.705,74.2433,27.8,75,0.0,947.8,8.65,44.6,174,39.0,29.5,7,5,7,1,2026-04-18T20:12:30.859033+05:30
Goa,Goa,15.2993,74.124,29.3,76,0.0,996.8,9.0,31.3,75,55.3,24.8,7,5,7,1,2026-04-18T20:12:30.859040+05:30
Jodhpur,Rajasthan,26.2389,73.0243,33.3,22,0.0,981.3,8.15,28.1,99,153.7,22.2,0,5,7,0,2026-04-18T20:12:30.859047+05:30
Udaipur,Rajasthan,24.5854,73.7125,32.4,25,0.0,946.4,8.75,29.5,90,29.7,11.2,0,5,7,0,2026-04-18T20:12:30.859055+05:30
Kota,Rajasthan,25.2138,75.8648,35.3,22,0.0,976.2,8.25,23.0,172,76.1,33.1,0,5,10,0,2026-04-18T20:12:30.859062+05:30
Bikaner,Rajasthan,28.0229,73.3119,35.6,21,0.0,979.7,7.8,29.9,92,41.0,14.8,0,5,10,0,2026-04-18T20:12:30.859070+05:30
Ajmer,Rajasthan,26.4499,74.6399,31.4,26,0.0,953.6,8.15,32.0,84,59.6,18.0,0,5,7,0,2026-04-18T20:12:30.859076+05:30
Gwalior,Madhya Pradesh,26.2183,78.1828,34.2,37,0.0,981.3,7.95,28.4,127,104.8,31.4,0,5,7,1,2026-04-18T20:12:30.859083+05:30
Indore,Madhya Pradesh,22.7196,75.8577,30.5,31,0.0,947.2,8.15,25.6,98,20.2,18.5,0,5,7,0,2026-04-18T20:12:30.859090+05:30
Bhopal,Madhya Pradesh,23.2599,77.4126,34.1,20,0.0,952.2,7.7,24.5,126,23.7,20.3,0,5,7,0,2026-04-18T20:12:30.859097+05:30
Jabalpur,Madhya Pradesh,23.1815,79.9864,31.9,40,0.0,959.4,7.45,24.5,142,24.1,20.6,0,5,7,1,2026-04-18T20:12:30.859104+05:30
Ujjain,Madhya Pradesh,23.1765,75.7885,31.2,31,0.0,952.8,8.5,24.1,86,28.9,26.5,0,5,7,0,2026-04-18T20:12:30.859111+05:30
Visakhapatnam,Andhra Pradesh,17.6868,83.2185,28.3,84,0.0,1003.4,9.15,34.2,61,23.7,16.7,7,5,4,1,2026-04-18T20:12:30.859118+05:30
Vijayawada,Andhra Pradesh,16.5062,80.648,30.4,65,0.0,1001.9,8.8,26.3,57,22.5,17.9,3,5,4,1,2026-04-18T20:12:30.859125+05:30
Guntur,Andhra Pradesh,16.3067,80.4365,29.4,77,0.0,1003.3,8.9,29.5,62,26.3,21.2,7,5,4,1,2026-04-18T20:12:30.859132+05:30
Nellore,Andhra Pradesh,14.4426,79.9865,29.6,69,0.0,1004.7,8.7,32.8,74,13.3,9.7,7,5,4,1,2026-04-18T20:12:30.859140+05:30
Kurnool,Andhra Pradesh,15.8281,78.0373,36.2,30,0.0,974.8,9.2,33.8,144,42.6,36.2,0,5,10,0,2026-04-18T20:12:30.859148+05:30
Kakinada,Andhra Pradesh,16.9891,82.2475,29.3,76,0.0,1007.0,9.1,29.9,52,18.6,11.3,7,5,4,1,2026-04-18T20:12:30.859154+05:30
Tirupati,Andhra Pradesh,13.6288,79.4192,31.3,54,0.0,991.1,9.0,32.0,93,18.7,16.8,0,5,7,1,2026-04-18T20:12:30.859160+05:30
Warangal,Telangana,17.9689,79.5941,34.4,43,0.0,977.1,8.8,26.6,127,41.8,36.7,0,5,7,1,2026-04-18T20:12:30.859167+05:30
Nizamabad,Telangana,18.6725,78.0941,33.5,36,0.0,963.9,8.85,37.8,161,48.3,39.9,0,5,7,1,2026-04-18T20:12:30.859174+05:30
Mysore,Karnataka,12.2958,76.6396,30.0,36,0.0,927.9,9.0,40.3,137,25.3,22.8,4,5,7,0,2026-04-18T20:12:30.859180+05:30
Mangalore,Karnataka,12.9141,74.856,30.6,75,0.0,1005.9,9.1,23.0,63,31.0,17.0,3,5,4,1,2026-04-18T20:12:30.859187+05:30
Hubli-Dharwad,Karnataka,15.3647,75.124,28.9,71,0.0,940.1,9.2,39.2,128,29.3,24.1,7,5,7,1,2026-04-18T20:12:30.859194+05:30
Belgaum,Karnataka,15.8497,74.4977,26.6,84,0.0,925.4,8.85,34.2,152,38.9,26.7,7,5,7,1,2026-04-18T20:12:34.184621+05:30
Coimbatore,Tamil Nadu,11.0168,76.9558,27.9,78,0.0,961.3,9.25,31.3,140,34.6,29.2,7,5,7,1,2026-04-18T20:12:34.184649+05:30
Madurai,Tamil Nadu,9.9252,78.1198,31.4,63,0.0,992.4,9.35,34.2,107,20.4,17.8,3,5,7,1,2026-04-18T20:12:34.184658+05:30
Trichy,Tamil Nadu,10.7905,78.7047,31.4,64,0.0,998.8,9.35,18.4,75,12.8,11.9,3,5,7,1,2026-04-18T20:12:34.184666+05:30
Salem,Tamil Nadu,11.6643,78.146,31.7,49,0.0,976.3,9.25,19.8,113,21.4,17.1,0,5,7,1,2026-04-18T20:12:34.184675+05:30
Tirunelveli,Tamil Nadu,8.7139,77.7567,30.7,62,0.0,1002.3,9.25,50.4,119,22.1,20.0,3,5,4,1,2026-04-18T20:12:34.184683+05:30
Vellore,Tamil Nadu,12.9165,79.1325,29.5,61,0.0,984.1,8.9,25.6,99,25.3,23.5,7,5,7,1,2026-04-18T20:12:34.184691+05:30
Erode,Tamil Nadu,11.341,77.7172,34.2,36,0.0,987.5,9.35,24.8,102,21.5,17.2,0,5,7,1,2026-04-18T20:12:34.184698+05:30
Kochi,Kerala,9.9312,76.2673,29.9,81,0.0,1007.8,9.15,31.3,81,28.9,21.3,7,5,4,1,2026-04-18T20:12:34.184706+05:30
Thiruvananthapuram,Kerala,8.5241,76.9366,29.1,82,0.0,1007.6,9.1,27.0,78,30.5,19.3,7,5,4,1,2026-04-18T20:12:34.184714+05:30
Kozhikode,Kerala,11.2588,75.7804,30.5,79,0.0,1006.9,9.05,33.1,70,23.7,15.8,3,5,4,1,2026-04-18T20:12:34.184721+05:30
Thrissur,Kerala,10.5276,76.2144,30.2,77,0.0,1006.1,8.65,36.4,77,24.3,18.9,3,5,4,1,2026-04-18T20:12:34.184758+05:30
Kannur,Kerala,11.8745,75.3704,30.2,74,0.0,1006.3,8.6,34.6,69,27.8,18.9,3,5,4,1,2026-04-18T20:12:34.184766+05:30
Patna,Bihar,25.5941,85.1376,32.5,60,0.0,997.6,8.6,24.5,176,63.6,38.9,0,5,7,1,2026-04-18T20:12:34.184773+05:30
Gaya,Bihar,24.7914,85.0002,33.9,36,0.0,991.1,8.65,28.4,163,66.4,32.0,0,5,7,1,2026-04-18T20:12:34.184780+05:30
Muzaffarpur,Bihar,26.1209,85.3647,29.8,73,0.0,998.0,8.6,31.0,180,74.7,56.7,7,5,7,1,2026-04-18T20:12:34.184787+05:30
Bhagalpur,Bihar,25.2425,87.0117,28.4,86,0.0,999.6,8.25,24.8,175,53.1,47.8,7,5,7,1,2026-04-18T20:12:34.184795+05:30
Ranchi,Jharkhand,23.3441,85.3096,32.2,24,0.0,937.3,9.15,42.1,136,51.5,23.3,0,5,7,0,2026-04-18T20:12:34.184802+05:30
Jamshedpur,Jharkhand,22.8046,86.2029,32.4,63,0.0,988.6,8.9,37.1,189,59.3,41.6,3,5,7,1,2026-04-18T20:12:34.184810+05:30
Dhanbad,Jharkhand,23.7957,86.4304,33.0,50,0.0,978.3,8.95,26.6,203,103.6,73.6,0,5,7,1,2026-04-18T20:12:34.184817+05:30
Bokaro,Jharkhand,23.6693,86.1511,32.3,52,0.0,982.1,8.95,40.0,185,87.3,55.9,0,5,7,1,2026-04-18T20:12:34.184824+05:30
Bhubaneswar,Odisha,20.2961,85.8245,27.6,87,0.0,1001.6,8.65,29.9,58,21.4,17.1,7,5,4,1,2026-04-18T20:12:34.184831+05:30
Cuttack,Odisha,20.4625,85.8828,28.7,81,0.0,1003.2,8.9,29.2,58,21.4,17.1,7,5,4,1,2026-04-18T20:12:34.184839+05:30
Rourkela,Odisha,22.2604,84.8536,34.3,44,0.0,982.4,8.65,28.1,158,77.5,39.7,0,5,7,1,2026-04-18T20:12:34.184846+05:30
Raipur,Chhattisgarh,21.2514,81.6296,33.3,43,0.0,973.6,8.85,31.3,215,88.7,62.4,0,5,7,1,2026-04-18T20:12:34.184854+05:30
Bhilai,Chhattisgarh,21.1938,81.3509,32.9,45,0.0,973.7,8.5,36.4,216,92.0,61.7,0,5,7,1,2026-04-18T20:12:34.184860+05:30
Guwahati,Assam,26.1158,91.7086,25.5,89,0.0,1002.3,8.5,22.7,134,68.7,61.0,7,5,4,1,2026-04-18T20:12:34.184867+05:30
Agartala,Tripura,23.8315,91.2868,28.2,80,0.0,1005.7,8.7,16.9,135,65.4,58.4,7,5,4,1,2026-04-18T20:12:34.184874+05:30
Shillong,Meghalaya,25.5788,91.8933,15.5,92,0.0,857.1,6.85,34.2,125,60.8,51.3,3,10,7,0,2026-04-18T20:12:34.184881+05:30
Imphal,Manipur,24.817,93.9368,20.8,69,0.0,924.2,9.1,46.4,154,65.2,51.7,3,5,7,0,2026-04-18T20:12:34.184887+05:30
Aizawl,Mizoram,23.7271,92.7176,22.5,73,0.0,893.6,8.95,34.6,121,66.8,49.4,3,5,7,1,2026-04-18T20:12:34.184893+05:30
Kohima,Nagaland,25.6701,94.1077,16.6,97,0.0,855.9,9.0,48.6,137,48.0,37.3,3,10,7,1,2026-04-18T20:12:34.184898+05:30
Gangtok,Sikkim,27.3314,88.6138,17.2,94,0.0,838.2,8.85,19.1,117,53.2,40.6,3,10,7,1,2026-04-18T20:12:34.184904+05:30
Siliguri,West Bengal,26.7271,88.3953,22.3,92,0.0,994.3,8.05,20.9,159,85.7,65.0,3,5,7,1,2026-04-18T20:12:37.518861+05:30
Durgapur,West Bengal,23.5204,87.3119,27.8,79,0.0,993.7,8.85,37.1,175,55.4,50.9,7,5,7,1,2026-04-18T20:12:37.518890+05:30
Asansol,West Bengal,23.6739,86.9524,29.0,72,0.0,992.2,8.9,30.6,192,78.7,62.4,7,5,7,1,2026-04-18T20:12:37.518899+05:30
Pondicherry,Puducherry,11.9139,79.8145,28.2,80,0.0,1007.9,9.25,27.0,35,9.8,5.7,7,5,4,1,2026-04-18T20:12:37.518907+05:30
Port Blair,Andaman and Nicobar Islands,11.6234,92.7265,29.6,74,0.0,1007.4,9.2,16.6,53,20.8,15.9,7,5,4,1,2026-04-18T20:12:37.518916+05:30
Haridwar,Uttarakhand,29.9457,78.1642,28.4,52,0.0,972.6,6.6,34.6,104,50.6,23.7,4,5,7,1,2026-04-18T20:12:37.518923+05:30
Rishikesh,Uttarakhand,30.0869,78.2676,26.5,60,0.0,965.7,6.85,38.2,91,43.3,16.1,4,5,7,1,2026-04-18T20:12:37.518931+05:30
Nainital,Uttarakhand,29.3919,79.4542,24.6,31,0.0,808.3,8.05,69.1,107,42.1,19.4,0,5,7,0,2026-04-18T20:12:37.518938+05:30
Mussoorie,Uttarakhand,30.4599,78.0664,21.3,52,0.0,804.3,7.4,51.5,98,49.6,20.5,0,5,7,0,2026-04-18T20:12:37.518946+05:30
Dharamshala,Himachal Pradesh,32.219,76.3234,23.9,40,0.0,870.7,7.45,38.9,81,42.6,13.6,0,5,7,0,2026-04-18T20:12:37.518953+05:30
Dalhousie,Himachal Pradesh,32.5387,75.971,20.2,39,0.0,805.6,6.8,39.6,86,58.3,20.0,0,5,7,0,2026-04-18T20:12:37.518961+05:30
Patiala,Punjab,30.3398,76.3869,29.0,42,0.0,976.7,7.1,19.4,120,137.4,44.6,4,5,7,0,2026-04-18T20:12:37.518968+05:30
Bhatinda,Punjab,30.211,74.9455,32.2,30,0.0,982.1,7.75,36.7,146,103.8,36.0,0,5,7,0,2026-04-18T20:12:37.518974+05:30
Rohtak,Haryana,28.8955,76.6066,29.5,53,0.0,979.4,6.95,14.4,368,393.0,65.7,4,5,7,1,2026-04-18T20:12:37.518981+05:30
Panipat,Haryana,29.3909,76.9635,29.2,47,0.0,978.3,6.6,12.2,546,495.5,77.1,4,5,7,1,2026-04-18T20:12:37.518987+05:30
Mathura,Uttar Pradesh,27.4924,77.6737,34.0,35,0.0,984.1,7.65,22.7,468,174.6,46.0,0,5,7,1,2026-04-18T20:12:37.518993+05:30
Vrindavan,Uttar Pradesh,27.5823,77.7027,33.7,35,0.0,984.6,7.6,24.8,468,174.6,46.0,0,5,7,1,2026-04-18T20:12:37.518999+05:30
Ayodhya,Uttar Pradesh,26.7922,82.1998,32.4,37,0.0,991.8,7.75,36.7,123,65.4,24.6,0,5,7,0,2026-04-18T20:12:37.519005+05:30
Ratlam,Madhya Pradesh,23.3315,75.0367,30.6,45,0.0,953.6,8.3,24.1,86,21.5,17.9,0,5,7,1,2026-04-18T20:12:37.519010+05:30
Sagar,Madhya Pradesh,23.8388,78.7378,34.0,31,0.0,948.5,7.85,29.9,130,20.4,16.4,0,5,7,0,2026-04-18T20:12:37.519016+05:30
Satna,Madhya Pradesh,24.6005,80.8322,34.5,23,0.0,969.1,8.5,28.8,136,56.5,20.4,0,5,7,0,2026-04-18T20:12:37.519021+05:30
Akola,Maharashtra,20.7002,77.0082,34.2,28,0.0,973.4,8.7,31.7,121,28.5,24.0,0,5,7,0,2026-04-18T20:12:37.519027+05:30
Amravati,Maharashtra,20.9374,77.7796,32.0,28,0.0,965.3,8.2,23.4,123,30.9,25.9,0,5,7,0,2026-04-18T20:12:37.519034+05:30
Latur,Maharashtra,18.4088,76.5604,30.7,49,0.0,939.2,9.1,16.6,155,33.4,29.1,0,5,7,1,2026-04-18T20:12:37.519039+05:30
Nanded,Maharashtra,19.1383,77.3091,33.1,40,0.0,967.0,8.85,18.0,150,48.0,39.5,0,5,7,1,2026-04-18T20:12:37.519044+05:30
Gulbarga,Karnataka,17.3297,76.8343,33.2,39,0.0,958.1,9.0,49.3,178,38.2,34.2,0,5,7,1,2026-04-18T20:12:37.519050+05:30
Bidar,Karnataka,17.9104,77.5199,29.4,52,0.0,935.7,9.0,28.1,163,44.8,39.5,4,5,7,1,2026-04-18T20:12:37.519055+05:30
Hospet,Karnataka,15.2689,76.3909,33.9,43,0.0,954.3,9.25,20.9,159,44.0,38.4,0,5,7,1,2026-04-18T20:12:37.519061+05:30
Tirupur,Tamil Nadu,11.1085,77.3411,33.8,26,0.0,974.1,9.3,31.3,127,28.2,21.8,0,5,7,0,2026-04-18T20:12:37.519066+05:30
Alappuzha,Kerala,9.4981,76.3388,29.9,81,0.0,1008.0,9.1,26.6,88,33.5,22.5,7,0,4,1,2026-04-18T20:12:37.519071+05:30
Munnar,Kerala,10.0889,77.0595,23.7,84,0.0,857.4,9.7,23.8,90,32.2,27.0,3,5,7,1,2026-04-18T20:12:37.519076+05:30
Silchar,Assam,24.8333,92.7789,28.8,72,0.0,1005.0,8.75,19.1,158,104.5,84.8,7,5,4,1,2026-04-18T20:12:37.519082+05:30
Dibrugarh,Assam,27.4728,94.912,27.3,79,0.0,995.7,8.65,13.7,122,73.1,56.5,7,5,7,1,2026-04-18T20:12:37.519087+05:30
