city,state,latitude,longitude,temp,humidity,rain,pressure,uv_index,wind_gusts,aqi,pm10,pm2_5,mosquito_risk,arthritis_risk,migraine_risk,frizz_risk,updated_at
Delhi,Delhi,28.6139,77.209,38.5,17,0.0,980.8,7.25,32.8,214,261.7,41.3,0,5,10,0,2026-04-20T13:43:32.593592+05:30
Mumbai,Maharashtra,19.076,72.8777,28.1,78,0.0,1007.3,8.05,21.6,80,47.8,33.2,7,5,4,1,2026-04-20T13:43:32.593638+05:30
Bangalore,Karnataka,12.9716,77.5946,33.6,38,0.0,911.6,9.55,29.5,74,28.0,22.1,0,5,7,1,2026-04-20T13:43:32.593653+05:30
Hyderabad,Telangana,17.385,78.4867,39.3,22,0.0,952.6,9.3,47.2,110,45.6,36.8,0,5,10,0,2026-04-20T13:43:32.593664+05:30
Chennai,Tamil Nadu,13.0827,80.2707,36.6,47,0.0,1005.8,9.25,35.3,34,14.5,10.3,0,5,7,1,2026-04-20T13:43:32.593674+05:30
Kolkata,West Bengal,22.5726,88.3639,34.8,64,0.0,1001.8,8.9,33.1,83,42.6,33.6,3,5,4,1,2026-04-20T13:43:32.593687+05:30
Pune,Maharashtra,18.5204,73.8567,39.3,16,0.0,947.7,8.55,44.3,111,39.7,32.6,0,5,10,0,2026-04-20T13:43:32.593696+05:30
Ahmedabad,Gujarat,23.0225,72.5714,38.6,28,0.0,1000.9,8.15,25.6,49,38.6,12.1,0,5,7,1,2026-04-20T13:43:32.593704+05:30
Jaipur,Rajasthan,26.9124,75.7873,38.8,17,0.0,958.4,7.95,26.6,114,182.1,22.4,0,5,10,0,2026-04-20T13:43:32.593712+05:30
Lucknow,Uttar Pradesh,26.8467,80.9462,41.4,15,0.0,989.3,7.9,39.6,119,199.3,32.8,0,5,10,0,2026-04-20T13:43:32.593720+05:30
Kanpur,Uttar Pradesh,26.4499,80.3319,39.9,21,0.0,988.1,7.9,30.2,182,306.4,41.6,0,5,10,0,2026-04-20T13:43:32.593727+05:30
Chandigarh,Chandigarh,30.7333,76.7794,38.2,14,0.0,966.9,7.25,34.2,64,42.3,14.5,0,5,10,0,2026-04-20T13:43:32.593735+05:30
Srinagar,Jammu and Kashmir,34.0837,74.7973,20.2,47,0.0,844.7,8.25,15.5,97,34.8,12.0,0,5,7,0,2026-04-20T13:43:32.593742+05:30
Jammu,Jammu and Kashmir,32.7266,74.857,36.5,21,0.0,971.5,7.9,28.1,62,40.4,12.2,0,5,10,0,2026-04-20T13:43:32.593751+05:30
Amritsar,Punjab,31.634,74.8723,37.3,15,0.0,979.6,7.9,32.4,79,35.3,11.4,0,5,10,0,2026-04-20T13:43:32.593758+05:30
Ludhiana,Punjab,30.901,75.8573,38.7,13,0.0,976.8,7.5,32.4,67,49.9,14.4,0,5,10,0,2026-04-20T13:43:32.593767+05:30
Jalandhar,Punjab,31.326,75.5762,38.2,14,0.0,978.1,7.65,31.3,76,61.0,16.9,0,5,10,0,2026-04-20T13:43:32.593775+05:30
Dehradun,Uttarakhand,30.6284,78.0322,26.8,22,0.0,832.8,7.7,41.0,59,28.6,7.8,4,5,7,0,2026-04-20T13:43:32.593784+05:30
Shimla,Himachal Pradesh,31.1048,77.1734,25.6,19,0.0,788.9,7.75,47.9,54,30.0,10.1,4,5,7,0,2026-04-20T13:43:32.593791+05:30
Manali,Himachal Pradesh,32.2396,77.1887,24.6,24,0.0,823.5,9.85,28.4,84,16.7,4.8,0,5,7,0,2026-04-20T13:43:32.593797+05:30
Gurgaon,Haryana,28.4595,77.0266,39.2,15,0.0,979.4,7.4,32.8,834,745.1,80.3,0,5,10,0,2026-04-20T13:43:32.593804+05:30
Noida,Uttar Pradesh,28.5355,77.391,39.0,16,0.0,982.2,7.3,32.8,834,745.1,80.3,0,5,10,0,2026-04-20T13:43:32.593811+05:30
Ghaziabad,Uttar Pradesh,28.6692,77.4538,38.8,17,0.0,980.4,7.3,32.4,126,201.6,36.3,0,5,10,0,2026-04-20T13:43:32.593818+05:30
Faridabad,Haryana,28.4089,77.3178,39.5,15,0.0,981.6,7.35,32.0,834,745.1,80.3,0,5,10,0,2026-04-20T13:43:32.593825+05:30
Meerut,Uttar Pradesh,28.9845,77.7064,39.4,15,0.0,978.9,7.2,35.3,126,201.6,36.3,0,5,10,0,2026-04-20T13:43:32.593831+05:30
Agra,Uttar Pradesh,27.1767,78.0081,40.2,19,0.0,985.1,7.7,23.8,555,482.4,58.0,0,5,10,0,2026-04-20T13:43:32.593840+05:30
Varanasi,Uttar Pradesh,25.3176,82.9739,43.0,15,0.0,992.6,8.4,34.2,107,75.0,19.8,0,5,10,0,2026-04-20T13:43:32.593847+05:30
Prayagraj,Uttar Pradesh,25.4358,81.8463,42.1,17,0.0,991.4,7.8,34.9,91,88.2,22.5,0,5,10,0,2026-04-20T13:43:32.593854+05:30
Gorakhpur,Uttar Pradesh,26.7606,83.3732,40.1,29,0.0,992.5,8.35,37.1,133,121.1,33.1,0,5,10,1,2026-04-20T13:43:32.593861+05:30
Bareilly,Uttar Pradesh,28.367,79.4304,39.9,17,0.0,983.5,7.55,35.6,76,106.4,21.5,0,5,10,0,2026-04-20T13:43:32.593867+05:30
Aligarh,Uttar Pradesh,27.8974,78.088,40.8,14,0.0,982.5,7.45,32.4,415,488.0,57.9,0,5,10,0,2026-04-20T13:43:32.593873+05:30
Moradabad,Uttar Pradesh,28.8386,78.7733,39.6,16,0.0,980.5,7.4,38.5,82,108.3,22.1,0,5,10,0,2026-04-20T13:43:32.593882+05:30
Saharanpur,Uttar Pradesh,29.9637,77.546,37.7,17,0.0,973.6,6.95,30.2,70,71.9,18.3,0,5,10,0,2026-04-20T13:43:32.593888+05:30
Jhansi,Uttar Pradesh,25.4484,78.5685,42.2,12,0.0,974.9,8.05,29.9,62,143.0,28.1,0,5,10,0,2026-04-20T13:43:35.819866+05:30
Surat,Gujarat,21.1702,72.8311,32.6,59,0.0,1006.2,7.85,23.8,109,44.4,38.3,0,5,4,1,2026-04-20T13:43:35.819897+05:30
Vadodara,Gujarat,22.3072,73.1812,39.1,27,0.0,1003.1,8.1,25.6,81,22.6,15.5,0,5,7,1,2026-04-20T13:43:35.819906+05:30
Rajkot,Gujarat,22.3039,70.8022,36.7,26,0.0,993.8,7.85,27.7,45,45.3,14.6,0,5,10,0,2026-04-20T13:43:35.819913+05:30
Thane,Maharashtra,19.2183,72.9781,33.9,50,0.0,1006.9,8.05,31.7,80,47.8,33.2,0,5,4,1,2026-04-20T13:43:35.819920+05:30
Nagpur,Maharashtra,21.1458,79.0882,40.3,15,0.0,971.1,8.6,37.4,83,27.1,20.3,0,5,10,0,2026-04-20T13:43:35.819927+05:30
Nashik,Maharashtra,19.9975,73.7898,36.8,19,0.0,945.7,8.3,34.6,86,21.4,14.3,0,5,10,0,2026-04-20T13:43:35.819934+05:30
Aurangabad,Maharashtra,19.8762,75.3433,38.6,18,0.0,943.8,8.85,21.2,86,35.3,29.3,0,5,10,0,2026-04-20T13:43:35.819941+05:30
Solapur,Maharashtra,17.6599,75.9064,37.8,26,0.0,956.4,8.75,24.8,125,43.4,35.9,0,5,10,0,2026-04-20T13:43:35.819954+05:30
Kolhapur,Maharashtra,16.705,74.2433,35.1,38,0.0,947.5,9.05,29.5,111,43.3,36.2,0,5,10,1,2026-04-20T13:43:35.819960+05:30
Goa,Goa,15.2993,74.124,32.1,67,0.0,996.9,9.0,28.8,84,38.6,27.0,3,5,7,1,2026-04-20T13:43:35.819967+05:30
Jodhpur,Rajasthan,26.2389,73.0243,39.2,20,0.0,981.8,8.15,25.2,93,115.5,18.2,0,5,10,0,2026-04-20T13:43:35.819973+05:30
Udaipur,Rajasthan,24.5854,73.7125,36.9,15,0.0,946.7,8.7,30.6,47,20.5,6.8,0,5,10,0,2026-04-20T13:43:35.819979+05:30
Kota,Rajasthan,25.2138,75.8648,41.0,12,0.0,976.5,8.25,26.6,51,30.2,8.2,0,5,10,0,2026-04-20T13:43:35.819986+05:30
Bikaner,Rajasthan,28.0229,73.3119,38.4,18,0.0,980.7,8.0,31.0,63,59.3,15.1,0,5,10,0,2026-04-20T13:43:35.819992+05:30
Ajmer,Rajasthan,26.4499,74.6399,37.9,19,0.0,954.0,8.1,25.2,52,170.9,23.2,0,5,10,0,2026-04-20T13:43:35.819998+05:30
Gwalior,Madhya Pradesh,26.2183,78.1828,40.7,18,0.0,980.7,8.0,37.1,80,227.2,37.4,0,5,10,0,2026-04-20T13:43:35.820004+05:30
Indore,Madhya Pradesh,22.7196,75.8577,38.2,16,0.0,947.9,8.6,35.6,77,16.1,12.8,0,5,10,0,2026-04-20T13:43:35.820011+05:30
Bhopal,Madhya Pradesh,23.2599,77.4126,40.5,12,0.0,952.6,7.1,35.6,79,15.3,12.8,0,5,10,0,2026-04-20T13:43:35.820017+05:30
Jabalpur,Madhya Pradesh,23.1815,79.9864,40.3,18,0.0,959.2,8.45,37.1,66,16.5,12.7,0,5,10,0,2026-04-20T13:43:35.820023+05:30
Ujjain,Madhya Pradesh,23.1765,75.7885,38.2,16,0.0,953.6,8.55,34.9,58,11.7,8.2,0,5,10,0,2026-04-20T13:43:35.820030+05:30
Visakhapatnam,Andhra Pradesh,17.6868,83.2185,34.4,54,0.0,1001.7,9.2,45.4,55,21.8,16.8,0,5,4,1,2026-04-20T13:43:35.820037+05:30
Vijayawada,Andhra Pradesh,16.5062,80.648,37.1,46,0.0,1000.7,9.2,27.7,53,21.2,16.2,0,5,7,1,2026-04-20T13:43:35.820043+05:30
Guntur,Andhra Pradesh,16.3067,80.4365,37.5,45,0.0,1001.9,9.25,31.0,56,25.0,20.1,0,5,7,1,2026-04-20T13:43:35.820049+05:30
Nellore,Andhra Pradesh,14.4426,79.9865,38.8,39,0.0,1003.4,9.25,38.5,48,22.8,19.7,0,5,7,1,2026-04-20T13:43:35.820056+05:30
Kurnool,Andhra Pradesh,15.8281,78.0373,39.6,28,0.0,975.3,9.2,43.2,93,41.7,29.7,0,5,10,1,2026-04-20T13:43:35.820064+05:30
Kakinada,Andhra Pradesh,16.9891,82.2475,38.0,43,0.0,1005.3,9.2,34.9,38,16.1,10.2,0,5,7,1,2026-04-20T13:43:35.820070+05:30
Tirupati,Andhra Pradesh,13.6288,79.4192,37.4,40,0.0,989.7,9.3,29.9,65,24.6,21.8,0,5,10,1,2026-04-20T13:43:35.820076+05:30
Warangal,Telangana,17.9689,79.5941,39.0,30,0.0,977.0,9.15,27.7,90,41.8,35.2,0,5,10,1,2026-04-20T13:43:35.820082+05:30
Nizamabad,Telangana,18.6725,78.0941,40.2,22,0.0,963.4,9.15,33.8,114,34.5,29.0,0,5,10,0,2026-04-20T13:43:35.820089+05:30
Mysore,Karnataka,12.2958,76.6396,35.0,36,0.0,928.0,9.45,38.2,82,28.8,22.9,0,5,7,1,2026-04-20T13:43:35.820095+05:30
Mangalore,Karnataka,12.9141,74.856,29.8,80,0.0,1005.1,9.1,23.0,77,35.7,22.5,7,5,4,1,2026-04-20T13:43:35.820101+05:30
Hubli-Dharwad,Karnataka,15.3647,75.124,36.2,34,0.0,940.3,9.25,33.5,94,48.3,38.2,0,5,10,1,2026-04-20T13:43:35.820108+05:30
Belgaum,Karnataka,15.8497,74.4977,32.8,41,0.0,925.9,9.25,26.6,123,46.9,39.0,0,5,7,1,2026-04-20T13:43:39.045140+05:30
Coimbatore,Tamil Nadu,11.0168,76.9558,36.0,36,0.0,960.7,9.4,49.3,104,29.7,26.0,0,5,10,1,2026-04-20T13:43:39.045170+05:30
Madurai,Tamil Nadu,9.9252,78.1198,37.7,33,0.0,991.2,9.3,39.6,63,15.7,12.6,0,5,10,1,2026-04-20T13:43:39.045180+05:30
Trichy,Tamil Nadu,10.7905,78.7047,37.2,36,0.0,998.0,9.3,25.2,62,14.8,12.1,0,5,10,1,2026-04-20T13:43:39.045188+05:30
Salem,Tamil Nadu,11.6643,78.146,37.2,35,0.0,975.7,9.35,19.8,58,17.0,13.8,0,5,10,1,2026-04-20T13:43:39.045196+05:30
Tirunelveli,Tamil Nadu,8.7139,77.7567,39.0,26,0.0,1000.6,9.2,50.4,65,17.8,13.8,0,5,7,1,2026-04-20T13:43:39.045204+05:30
Vellore,Tamil Nadu,12.9165,79.1325,36.8,39,0.0,982.9,9.35,30.6,75,19.9,17.1,0,5,10,1,2026-04-20T13:43:39.045211+05:30
Erode,Tamil Nadu,11.341,77.7172,38.8,33,0.0,986.9,9.35,27.4,58,17.3,14.2,0,5,10,1,2026-04-20T13:43:39.045218+05:30
Kochi,Kerala,9.9312,76.2673,29.3,81,0.0,1007.1,9.05,29.9,61,15.7,13.0,7,5,4,1,2026-04-20T13:43:39.045226+05:30
Thiruvananthapuram,Kerala,8.5241,76.9366,29.2,82,0.0,1006.2,8.9,32.0,65,21.4,16.6,7,5,4,1,2026-04-20T13:43:39.045233+05:30
Kozhikode,Kerala,11.2588,75.7804,31.0,74,0.0,1006.2,9.1,28.8,61,26.4,17.3,3,5,4,1,2026-04-20T13:43:39.045240+05:30
Thrissur,Kerala,10.5276,76.2144,34.0,60,0.0,1005.4,9.05,36.7,66,19.4,15.6,0,5,4,1,2026-04-20T13:43:39.045247+05:30
Kannur,Kerala,11.8745,75.3704,32.3,66,0.0,1005.5,9.1,30.6,73,30.0,19.4,3,5,4,1,2026-04-20T13:43:39.045254+05:30
Patna,Bihar,25.5941,85.1376,38.7,37,0.0,995.2,8.15,37.1,140,98.7,42.4,0,5,10,1,2026-04-20T13:43:39.045261+05:30
Gaya,Bihar,24.7914,85.0002,41.4,21,0.0,988.9,8.6,34.6,106,82.9,23.9,0,5,10,0,2026-04-20T13:43:39.045267+05:30
Muzaffarpur,Bihar,26.1209,85.3647,37.3,45,0.0,995.4,8.3,23.0,144,91.3,48.7,0,5,10,1,2026-04-20T13:43:39.045273+05:30
Bhagalpur,Bihar,25.2425,87.0117,37.0,50,0.0,996.1,8.65,19.1,151,96.2,64.3,0,5,10,1,2026-04-20T13:43:39.045280+05:30
Ranchi,Jharkhand,23.3441,85.3096,39.4,18,0.0,935.5,9.25,38.2,111,61.7,15.5,0,5,10,0,2026-04-20T13:43:39.045286+05:30
Jamshedpur,Jharkhand,22.8046,86.2029,39.4,40,0.0,986.1,9.05,32.8,154,90.8,34.5,0,5,10,1,2026-04-20T13:43:39.045293+05:30
Dhanbad,Jharkhand,23.7957,86.4304,41.5,21,0.0,975.1,9.0,25.6,156,69.8,21.3,0,5,10,0,2026-04-20T13:43:39.045299+05:30
Bokaro,Jharkhand,23.6693,86.1511,40.8,22,0.0,979.0,9.0,37.8,136,64.0,20.1,0,5,10,0,2026-04-20T13:43:39.045306+05:30
Bhubaneswar,Odisha,20.2961,85.8245,34.5,66,0.0,999.6,9.1,36.7,72,35.9,29.0,3,5,7,1,2026-04-20T13:43:39.045333+05:30
Cuttack,Odisha,20.4625,85.8828,38.4,48,0.0,1000.9,9.15,36.4,72,35.9,29.0,0,5,7,1,2026-04-20T13:43:39.045341+05:30
Rourkela,Odisha,22.2604,84.8536,39.8,33,0.0,980.9,8.95,41.0,150,85.9,35.2,0,5,10,1,2026-04-20T13:43:39.045348+05:30
Raipur,Chhattisgarh,21.2514,81.6296,41.6,17,0.0,971.6,8.65,40.3,109,57.4,24.0,0,5,10,0,2026-04-20T13:43:39.045354+05:30
Bhilai,Chhattisgarh,21.1938,81.3509,41.7,17,0.0,971.9,8.25,38.2,103,39.2,23.3,0,5,10,0,2026-04-20T13:43:39.045361+05:30
Guwahati,Assam,26.1158,91.7086,28.8,76,0.0,998.3,8.5,43.9,109,19.4,14.4,7,5,7,1,2026-04-20T13:43:39.045367+05:30
Agartala,Tripura,23.8315,91.2868,33.8,58,0.0,1003.0,8.6,33.1,105,61.2,46.7,0,5,4,1,2026-04-20T13:43:39.045373+05:30
Shillong,Meghalaya,25.5788,91.8933,22.1,58,0.0,856.0,7.2,73.8,73,35.3,23.7,0,5,7,0,2026-04-20T13:43:39.045379+05:30
Imphal,Manipur,24.817,93.9368,22.7,80,0.0,921.9,9.15,79.2,118,61.5,35.6,3,5,7,1,2026-04-20T13:43:39.045386+05:30
Aizawl,Mizoram,23.7271,92.7176,27.5,57,0.0,892.7,8.95,58.7,137,65.7,48.3,4,5,7,1,2026-04-20T13:43:39.045392+05:30
Kohima,Nagaland,25.6701,94.1077,19.9,82,0.0,854.2,7.75,98.6,89,41.9,26.0,3,10,7,1,2026-04-20T13:43:39.045399+05:30
Gangtok,Sikkim,27.3314,88.6138,21.9,71,0.0,837.4,8.8,17.6,68,21.6,16.9,3,5,7,1,2026-04-20T13:43:39.045405+05:30
Siliguri,West Bengal,26.7271,88.3953,28.6,63,0.0,990.0,8.45,23.8,93,70.5,52.3,7,5,7,1,2026-04-20T13:43:42.278175+05:30
Durgapur,West Bengal,23.5204,87.3119,39.5,41,0.0,990.0,8.9,26.3,150,105.7,47.5,0,5,10,1,2026-04-20T13:43:42.278204+05:30
Asansol,West Bengal,23.6739,86.9524,40.3,34,0.0,988.4,8.95,51.1,142,82.0,28.1,0,5,10,1,2026-04-20T13:43:42.278213+05:30
Pondicherry,Puducherry,11.9139,79.8145,36.8,45,0.0,1006.4,9.25,32.8,32,12.3,8.5,0,5,7,1,2026-04-20T13:43:42.278221+05:30
Port Blair,Andaman and Nicobar Islands,11.6234,92.7265,30.1,71,0.0,1005.7,9.05,19.8,61,20.1,16.8,3,5,4,1,2026-04-20T13:43:42.278229+05:30
Haridwar,Uttarakhand,29.9457,78.1642,37.8,18,0.0,972.1,7.05,33.5,59,50.9,13.6,0,5,10,0,2026-04-20T13:43:42.278236+05:30
Rishikesh,Uttarakhand,30.0869,78.2676,36.7,19,0.0,965.0,7.2,35.6,54,52.7,12.2,0,5,10,0,2026-04-20T13:43:42.278243+05:30
Nainital,Uttarakhand,29.3919,79.4542,30.1,18,0.0,809.7,8.05,62.6,80,59.0,14.1,0,5,7,0,2026-04-20T13:43:42.278250+05:30
Mussoorie,Uttarakhand,30.4599,78.0664,27.5,21,0.0,806.3,7.55,44.3,56,39.0,10.6,4,5,7,0,2026-04-20T13:43:42.278257+05:30
Dharamshala,Himachal Pradesh,32.219,76.3234,30.3,19,0.0,870.9,7.8,33.8,58,26.0,6.7,0,5,7,0,2026-04-20T13:43:42.278264+05:30
Dalhousie,Himachal Pradesh,32.5387,75.971,28.9,16,0.0,807.6,8.05,29.5,52,39.5,10.7,4,5,7,0,2026-04-20T13:43:42.278272+05:30
Patiala,Punjab,30.3398,76.3869,38.9,13,0.0,976.2,7.15,29.5,348,455.4,46.4,0,5,10,0,2026-04-20T13:43:42.278279+05:30
Bhatinda,Punjab,30.211,74.9455,39.6,11,0.0,982.1,7.8,32.8,72,44.7,13.1,0,5,10,0,2026-04-20T13:43:42.278286+05:30
Rohtak,Haryana,28.8955,76.6066,39.0,15,0.0,979.8,7.3,31.3,563,404.2,47.4,0,5,10,0,2026-04-20T13:43:42.278293+05:30
Panipat,Haryana,29.3909,76.9635,39.3,14,0.0,978.3,7.1,28.1,967,773.0,75.4,0,5,10,0,2026-04-20T13:43:42.278299+05:30
Mathura,Uttar Pradesh,27.4924,77.6737,40.3,18,0.0,984.3,7.6,24.1,571,501.1,60.8,0,5,10,0,2026-04-20T13:43:42.278305+05:30
Vrindavan,Uttar Pradesh,27.5823,77.7027,40.7,16,0.0,984.6,7.55,29.2,571,501.1,60.8,0,5,10,0,2026-04-20T13:43:42.278339+05:30
Ayodhya,Uttar Pradesh,26.7922,82.1998,41.7,21,0.0,990.7,8.1,34.9,104,194.6,37.1,0,5,10,0,2026-04-20T13:43:42.278353+05:30
Ratlam,Madhya Pradesh,23.3315,75.0367,35.0,27,0.0,954.7,8.45,30.2,60,11.9,7.5,0,5,7,0,2026-04-20T13:43:42.278360+05:30
Sagar,Madhya Pradesh,23.8388,78.7378,40.4,14,0.0,948.6,8.35,36.7,68,17.2,12.2,0,5,10,0,2026-04-20T13:43:42.278367+05:30
Satna,Madhya Pradesh,24.6005,80.8322,42.2,12,0.0,967.9,7.75,36.0,70,24.2,11.4,0,5,10,0,2026-04-20T13:43:42.278373+05:30
Akola,Maharashtra,20.7002,77.0082,41.0,17,0.0,973.5,8.9,29.5,77,32.5,26.7,0,5,10,0,2026-04-20T13:43:42.278381+05:30
Amravati,Maharashtra,20.9374,77.7796,40.4,20,0.0,965.8,8.85,25.9,78,27.5,22.6,0,5,10,0,2026-04-20T13:43:42.278388+05:30
Latur,Maharashtra,18.4088,76.5604,37.7,23,0.0,939.4,8.9,27.7,120,36.0,29.9,0,5,10,0,2026-04-20T13:43:42.278394+05:30
Nanded,Maharashtra,19.1383,77.3091,40.4,21,0.0,967.3,8.85,25.2,114,31.3,25.5,0,5,10,0,2026-04-20T13:43:42.278400+05:30
Gulbarga,Karnataka,17.3297,76.8343,39.1,23,0.0,957.8,9.1,26.3,132,44.7,37.0,0,5,10,0,2026-04-20T13:43:42.278406+05:30
Bidar,Karnataka,17.9104,77.5199,38.1,23,0.0,935.2,8.65,33.5,127,42.8,36.6,0,5,10,0,2026-04-20T13:43:42.278412+05:30
Hospet,Karnataka,15.2689,76.3909,35.6,39,0.0,954.9,9.25,28.4,115,46.7,36.4,0,5,10,1,2026-04-20T13:43:42.278419+05:30
Tirupur,Tamil Nadu,11.1085,77.3411,37.7,34,0.0,973.6,9.4,29.5,68,19.8,16.8,0,5,10,1,2026-04-20T13:43:42.278426+05:30
Alappuzha,Kerala,9.4981,76.3388,29.3,81,0.0,1007.1,8.6,27.4,67,17.1,14.1,7,5,4,1,2026-04-20T13:43:42.278432+05:30
Munnar,Kerala,10.0889,77.0595,32.6,34,0.0,859.2,9.65,31.3,73,14.5,10.6,0,5,7,0,2026-04-20T13:43:42.278439+05:30
Silchar,Assam,24.8333,92.7789,28.0,79,0.0,1003.0,8.1,42.8,122,58.6,42.0,7,5,4,1,2026-04-20T13:43:42.278446+05:30
Dibrugarh,Assam,27.4728,94.912,27.5,74,0.0,992.0,8.75,16.6,126,30.6,24.5,7,5,7,1,2026-04-20T13:43:42.278452+05:30
