city,state,latitude,longitude,temp,humidity,rain,pressure,uv_index,wind_gusts,aqi,pm10,pm2_5,mosquito_risk,arthritis_risk,migraine_risk,frizz_risk,updated_at
Delhi,Delhi,28.6139,77.209,21.6,56,0.0,983.6,7.25,30.2,466,270.1,49.9,0,5,7,0,2026-04-13T04:07:43.573984+05:30
Mumbai,Maharashtra,19.076,72.8777,28.4,82,0.0,1007.2,8.0,20.2,123,75.2,34.9,7,5,4,1,2026-04-13T04:07:43.574026+05:30
Bangalore,Karnataka,12.9716,77.5946,23.8,67,0.0,911.3,9.6,33.1,94,38.3,31.4,3,5,7,1,2026-04-13T04:07:43.574041+05:30
Hyderabad,Telangana,17.385,78.4867,28.6,55,0.0,952.5,9.25,29.9,85,41.9,32.2,4,5,7,1,2026-04-13T04:07:43.574050+05:30
Chennai,Tamil Nadu,13.0827,80.2707,27.2,87,0.0,1006.8,9.35,34.9,45,18.4,10.5,7,5,4,1,2026-04-13T04:07:43.574059+05:30
Kolkata,West Bengal,22.5726,88.3639,26.4,94,0.0,1005.0,8.85,28.8,87,23.0,18.5,7,5,4,1,2026-04-13T04:07:43.574068+05:30
Pune,Maharashtra,18.5204,73.8567,25.7,58,0.0,947.4,8.6,38.5,114,50.6,39.5,4,5,7,1,2026-04-13T04:07:43.574079+05:30
Ahmedabad,Gujarat,23.0225,72.5714,26.3,34,0.0,1000.6,8.1,26.3,81,42.0,19.5,4,5,4,0,2026-04-13T04:07:43.574087+05:30
Jaipur,Rajasthan,26.9124,75.7873,23.5,40,0.0,959.8,7.9,24.5,138,109.4,27.8,0,5,7,0,2026-04-13T04:07:43.574096+05:30
Lucknow,Uttar Pradesh,26.8467,80.9462,22.3,57,0.0,993.6,7.75,37.4,126,184.4,43.8,0,5,7,0,2026-04-13T04:07:43.574103+05:30
Kanpur,Uttar Pradesh,26.4499,80.3319,21.7,60,0.0,992.0,7.75,28.1,278,610.9,88.9,0,5,7,0,2026-04-13T04:07:43.574111+05:30
Chandigarh,Chandigarh,30.7333,76.7794,18.5,69,0.0,968.9,7.2,28.8,58,21.0,13.2,3,5,7,0,2026-04-13T04:07:43.574118+05:30
Srinagar,Jammu and Kashmir,34.0837,74.7973,6.2,86,0.0,839.3,8.1,14.4,93,63.8,54.1,3,10,7,0,2026-04-13T04:07:43.574126+05:30
Jammu,Jammu and Kashmir,32.7266,74.857,17.5,75,0.0,973.5,7.75,31.7,63,23.9,21.1,3,5,7,0,2026-04-13T04:07:43.574133+05:30
Amritsar,Punjab,31.634,74.8723,19.0,68,0.0,981.9,7.8,20.9,71,31.7,27.4,3,5,7,0,2026-04-13T04:07:43.574139+05:30
Ludhiana,Punjab,30.901,75.8573,19.5,64,0.0,979.4,7.45,26.3,67,29.1,27.3,3,5,7,0,2026-04-13T04:07:43.574145+05:30
Jalandhar,Punjab,31.326,75.5762,18.5,70,0.0,980.8,7.6,22.0,73,38.1,32.2,3,5,7,0,2026-04-13T04:07:43.574154+05:30
Dehradun,Uttarakhand,30.6284,78.0322,11.5,71,0.0,827.9,7.25,31.7,45,11.2,8.0,3,5,7,0,2026-04-13T04:07:43.574161+05:30
Shimla,Himachal Pradesh,31.1048,77.1734,9.2,78,0.0,781.3,7.7,39.2,47,30.7,13.8,3,5,7,0,2026-04-13T04:07:43.574167+05:30
Manali,Himachal Pradesh,32.2396,77.1887,12.6,46,0.0,817.1,9.65,28.1,73,14.5,11.2,0,5,7,0,2026-04-13T04:07:43.574174+05:30
Gurgaon,Haryana,28.4595,77.0266,19.0,69,0.0,981.9,7.35,24.5,1228,689.2,96.9,3,5,7,0,2026-04-13T04:07:43.574180+05:30
Noida,Uttar Pradesh,28.5355,77.391,21.2,58,0.0,985.1,7.3,31.0,1228,689.2,96.9,0,5,7,0,2026-04-13T04:07:43.574187+05:30
Ghaziabad,Uttar Pradesh,28.6692,77.4538,19.7,63,0.0,983.1,7.25,29.9,239,167.6,33.9,3,5,7,0,2026-04-13T04:07:43.574193+05:30
Faridabad,Haryana,28.4089,77.3178,20.1,62,0.0,984.2,7.3,28.4,1228,689.2,96.9,3,5,7,0,2026-04-13T04:07:43.574200+05:30
Meerut,Uttar Pradesh,28.9845,77.7064,18.6,64,0.0,981.6,7.15,33.1,239,167.6,33.9,3,5,7,0,2026-04-13T04:07:43.574206+05:30
Agra,Uttar Pradesh,27.1767,78.0081,20.8,58,0.0,988.3,7.65,22.0,882,1493.8,184.4,0,5,7,0,2026-04-13T04:07:43.574232+05:30
Varanasi,Uttar Pradesh,25.3176,82.9739,23.2,56,0.0,997.1,8.35,37.1,109,91.0,43.4,0,5,7,0,2026-04-13T04:07:43.574246+05:30
Prayagraj,Uttar Pradesh,25.4358,81.8463,23.2,62,0.0,996.1,8.25,37.1,118,117.3,36.1,3,5,7,0,2026-04-13T04:07:43.574255+05:30
Gorakhpur,Uttar Pradesh,26.7606,83.3732,22.1,52,0.0,996.3,8.15,24.5,94,59.3,29.9,0,5,7,0,2026-04-13T04:07:43.574263+05:30
Bareilly,Uttar Pradesh,28.367,79.4304,19.3,69,0.0,986.6,7.55,37.1,73,39.8,22.0,3,5,7,0,2026-04-13T04:07:43.574269+05:30
Aligarh,Uttar Pradesh,27.8974,78.088,18.9,65,0.0,986.0,7.45,31.7,653,566.2,81.0,3,5,7,0,2026-04-13T04:07:43.574275+05:30
Moradabad,Uttar Pradesh,28.8386,78.7733,18.9,67,0.0,983.7,7.35,34.2,87,51.3,24.9,3,5,7,0,2026-04-13T04:07:43.574282+05:30
Saharanpur,Uttar Pradesh,29.9637,77.546,17.5,76,0.0,976.0,6.8,29.9,78,27.9,20.3,3,5,7,0,2026-04-13T04:07:43.574288+05:30
Jhansi,Uttar Pradesh,25.4484,78.5685,24.3,48,0.0,978.3,8.15,26.6,77,266.4,41.4,0,5,7,0,2026-04-13T04:07:46.929142+05:30
Surat,Gujarat,21.1702,72.8311,27.0,87,0.0,1005.2,7.8,23.8,134,50.1,33.2,7,5,4,1,2026-04-13T04:07:46.929173+05:30
Vadodara,Gujarat,22.3072,73.1812,26.5,76,0.0,1002.7,8.1,20.2,122,86.1,66.1,7,5,4,1,2026-04-13T04:07:46.929182+05:30
Rajkot,Gujarat,22.3039,70.8022,25.6,75,0.0,993.4,7.8,34.9,75,53.7,24.0,7,5,7,1,2026-04-13T04:07:46.929190+05:30
Thane,Maharashtra,19.2183,72.9781,26.9,90,0.0,1006.7,8.0,33.1,123,75.2,34.9,7,5,4,1,2026-04-13T04:07:46.929197+05:30
Nagpur,Maharashtra,21.1458,79.0882,23.4,67,0.0,971.2,8.85,25.2,91,52.5,43.3,3,5,7,1,2026-04-13T04:07:46.929205+05:30
Nashik,Maharashtra,19.9975,73.7898,24.7,54,0.0,944.6,8.25,32.8,103,72.2,44.2,0,5,7,0,2026-04-13T04:07:46.929212+05:30
Aurangabad,Maharashtra,19.8762,75.3433,26.7,47,0.0,943.1,8.95,29.9,83,45.5,32.1,4,5,7,0,2026-04-13T04:07:46.929262+05:30
Solapur,Maharashtra,17.6599,75.9064,29.7,46,0.0,955.7,9.05,25.2,95,44.6,38.8,4,5,7,1,2026-04-13T04:07:46.929273+05:30
Kolhapur,Maharashtra,16.705,74.2433,22.5,86,0.0,947.0,9.05,42.8,90,42.3,34.9,3,5,7,1,2026-04-13T04:07:46.929282+05:30
Goa,Goa,15.2993,74.124,27.9,85,0.0,997.1,9.0,29.9,97,53.2,38.9,7,5,7,1,2026-04-13T04:07:46.929289+05:30
Jodhpur,Rajasthan,26.2389,73.0243,25.7,40,0.0,982.7,8.15,24.5,65,21.0,13.9,4,5,7,0,2026-04-13T04:07:46.929296+05:30
Udaipur,Rajasthan,24.5854,73.7125,21.2,40,0.0,946.2,8.7,24.1,53,18.9,8.2,0,5,7,0,2026-04-13T04:07:46.929302+05:30
Kota,Rajasthan,25.2138,75.8648,20.4,62,0.0,978.4,8.15,16.2,75,49.2,16.2,3,5,7,0,2026-04-13T04:07:46.929309+05:30
Bikaner,Rajasthan,28.0229,73.3119,24.9,45,0.0,981.9,7.95,19.1,52,18.6,8.2,0,5,7,0,2026-04-13T04:07:46.929316+05:30
Ajmer,Rajasthan,26.4499,74.6399,22.9,39,0.0,954.4,8.1,29.2,74,22.0,15.9,0,5,7,0,2026-04-13T04:07:46.929323+05:30
Gwalior,Madhya Pradesh,26.2183,78.1828,24.3,49,0.0,983.8,7.9,30.6,154,691.0,96.4,0,5,7,0,2026-04-13T04:07:46.929330+05:30
Indore,Madhya Pradesh,22.7196,75.8577,24.6,51,0.0,947.0,8.55,25.6,69,75.7,33.4,0,5,7,0,2026-04-13T04:07:46.929336+05:30
Bhopal,Madhya Pradesh,23.2599,77.4126,24.9,48,0.0,953.2,8.55,24.8,63,64.3,28.2,0,5,7,0,2026-04-13T04:07:46.929343+05:30
Jabalpur,Madhya Pradesh,23.1815,79.9864,23.6,57,0.0,961.2,8.65,27.4,67,62.6,27.5,0,5,7,0,2026-04-13T04:07:46.929349+05:30
Ujjain,Madhya Pradesh,23.1765,75.7885,23.9,54,0.0,952.8,8.45,26.3,73,79.6,46.3,0,5,7,0,2026-04-13T04:07:46.929357+05:30
Visakhapatnam,Andhra Pradesh,17.6868,83.2185,27.0,87,0.0,1003.5,9.15,41.8,74,32.1,20.6,7,5,4,1,2026-04-13T04:07:46.929363+05:30
Vijayawada,Andhra Pradesh,16.5062,80.648,26.5,90,0.0,1002.3,9.2,28.8,60,24.4,14.4,7,5,4,1,2026-04-13T04:07:46.929370+05:30
Guntur,Andhra Pradesh,16.3067,80.4365,26.8,90,0.0,1003.2,9.2,31.7,60,23.7,13.7,7,5,4,1,2026-04-13T04:07:46.929376+05:30
Nellore,Andhra Pradesh,14.4426,79.9865,26.0,92,0.0,1005.0,9.3,35.6,58,18.8,11.1,7,5,4,1,2026-04-13T04:07:46.929384+05:30
Kurnool,Andhra Pradesh,15.8281,78.0373,30.4,51,0.0,975.4,9.2,26.3,80,30.3,25.2,0,5,7,1,2026-04-13T04:07:46.929392+05:30
Kakinada,Andhra Pradesh,16.9891,82.2475,27.3,85,0.0,1007.4,9.2,32.0,56,33.6,16.8,7,5,4,1,2026-04-13T04:07:46.929399+05:30
Tirupati,Andhra Pradesh,13.6288,79.4192,24.8,72,0.0,991.4,9.4,31.7,70,25.4,20.0,3,5,7,1,2026-04-13T04:07:46.929406+05:30
Warangal,Telangana,17.9689,79.5941,26.8,74,0.0,977.5,9.1,32.8,85,35.5,28.1,7,5,7,1,2026-04-13T04:07:46.929413+05:30
Nizamabad,Telangana,18.6725,78.0941,29.4,55,0.0,962.7,9.05,32.4,128,38.9,34.8,4,5,7,1,2026-04-13T04:07:46.929419+05:30
Mysore,Karnataka,12.2958,76.6396,23.2,90,0.0,928.0,9.5,40.3,100,44.6,33.9,3,5,7,1,2026-04-13T04:07:46.929426+05:30
Mangalore,Karnataka,12.9141,74.856,29.8,79,0.0,1005.7,9.15,25.2,99,59.4,34.2,7,5,4,1,2026-04-13T04:07:46.929432+05:30
Hubli-Dharwad,Karnataka,15.3647,75.124,24.0,89,0.0,940.0,9.25,36.0,91,36.1,28.3,3,5,7,1,2026-04-13T04:07:46.929439+05:30
Belgaum,Karnataka,15.8497,74.4977,22.7,88,0.0,925.0,9.3,36.4,94,46.7,37.7,3,5,7,1,2026-04-13T04:07:50.287515+05:30
Coimbatore,Tamil Nadu,11.0168,76.9558,24.2,90,0.0,961.2,9.45,37.1,97,54.4,38.4,3,5,7,1,2026-04-13T04:07:50.287547+05:30
Madurai,Tamil Nadu,9.9252,78.1198,27.0,87,0.0,992.8,9.35,36.4,84,36.3,32.0,7,5,7,1,2026-04-13T04:07:50.287558+05:30
Trichy,Tamil Nadu,10.7905,78.7047,26.2,93,0.0,999.6,9.35,28.4,61,17.3,14.7,7,5,7,1,2026-04-13T04:07:50.287566+05:30
Salem,Tamil Nadu,11.6643,78.146,25.6,87,0.0,976.9,9.45,19.1,77,32.7,27.2,7,5,7,1,2026-04-13T04:07:50.287574+05:30
Tirunelveli,Tamil Nadu,8.7139,77.7567,26.7,85,0.0,1002.7,8.75,45.7,84,44.9,35.2,7,5,4,1,2026-04-13T04:07:50.287582+05:30
Vellore,Tamil Nadu,12.9165,79.1325,24.2,75,0.0,984.5,9.45,32.4,88,42.6,36.4,3,5,7,1,2026-04-13T04:07:50.287590+05:30
Erode,Tamil Nadu,11.341,77.7172,27.1,77,0.0,988.7,9.4,24.8,66,20.9,17.3,7,5,7,1,2026-04-13T04:07:50.287598+05:30
Kochi,Kerala,9.9312,76.2673,28.4,85,0.0,1007.8,9.15,33.1,102,52.3,39.6,7,5,4,1,2026-04-13T04:07:50.287606+05:30
Thiruvananthapuram,Kerala,8.5241,76.9366,28.5,82,0.0,1007.0,9.15,25.2,86,51.7,29.9,7,5,4,1,2026-04-13T04:07:50.287614+05:30
Kozhikode,Kerala,11.2588,75.7804,29.5,82,0.0,1006.8,9.15,29.2,95,61.7,34.3,7,5,4,1,2026-04-13T04:07:50.287621+05:30
Thrissur,Kerala,10.5276,76.2144,27.2,91,0.0,1006.2,9.15,40.3,98,44.0,30.6,7,5,4,1,2026-04-13T04:07:50.287628+05:30
Kannur,Kerala,11.8745,75.3704,29.0,81,0.0,1006.3,9.15,33.5,112,56.5,39.8,7,5,4,1,2026-04-13T04:07:50.287635+05:30
Patna,Bihar,25.5941,85.1376,24.8,67,0.0,999.5,8.5,30.6,109,71.0,41.3,3,5,7,1,2026-04-13T04:07:50.287642+05:30
Gaya,Bihar,24.7914,85.0002,26.2,47,0.0,992.6,8.6,25.2,103,86.8,37.5,4,5,7,0,2026-04-13T04:07:50.287650+05:30
Muzaffarpur,Bihar,26.1209,85.3647,22.8,75,0.0,999.4,8.5,19.1,120,74.3,48.7,3,5,7,1,2026-04-13T04:07:50.287657+05:30
Bhagalpur,Bihar,25.2425,87.0117,23.0,84,0.0,999.8,8.5,15.8,133,92.7,53.3,3,5,7,1,2026-04-13T04:07:50.287665+05:30
Ranchi,Jharkhand,23.3441,85.3096,22.8,49,0.0,936.4,9.1,28.8,68,34.2,22.5,0,5,7,0,2026-04-13T04:07:50.287672+05:30
Jamshedpur,Jharkhand,22.8046,86.2029,24.7,79,0.0,989.7,8.95,18.0,84,41.8,29.8,3,5,7,1,2026-04-13T04:07:50.287680+05:30
Dhanbad,Jharkhand,23.7957,86.4304,24.6,63,0.0,978.1,8.9,22.3,136,119.0,87.1,3,5,7,1,2026-04-13T04:07:50.287687+05:30
Bokaro,Jharkhand,23.6693,86.1511,25.6,51,0.0,982.5,8.9,22.7,123,108.5,81.0,4,5,7,0,2026-04-13T04:07:50.287695+05:30
Bhubaneswar,Odisha,20.2961,85.8245,26.6,88,0.0,1001.9,9.1,37.8,72,18.4,12.9,7,5,4,1,2026-04-13T04:07:50.287702+05:30
Cuttack,Odisha,20.4625,85.8828,26.4,91,0.0,1003.8,9.1,33.1,72,18.4,12.9,7,5,4,1,2026-04-13T04:07:50.287708+05:30
Rourkela,Odisha,22.2604,84.8536,24.6,77,0.0,983.7,8.85,24.5,118,53.2,31.3,3,5,7,1,2026-04-13T04:07:50.287715+05:30
Raipur,Chhattisgarh,21.2514,81.6296,26.5,43,0.0,972.5,8.9,32.4,131,67.3,57.3,4,5,7,0,2026-04-13T04:07:50.287722+05:30
Bhilai,Chhattisgarh,21.1938,81.3509,25.2,50,0.0,972.7,8.9,31.3,130,64.3,54.7,4,5,7,0,2026-04-13T04:07:50.287729+05:30
Guwahati,Assam,26.1158,91.7086,21.5,95,0.0,1002.1,8.4,45.7,142,62.9,49.0,3,5,4,1,2026-04-13T04:07:50.287736+05:30
Agartala,Tripura,23.8315,91.2868,24.7,97,0.0,1005.7,8.65,23.4,93,20.9,18.9,3,5,4,1,2026-04-13T04:07:50.287743+05:30
Shillong,Meghalaya,25.5788,91.8933,14.2,71,0.0,854.8,8.2,76.7,123,61.5,39.8,3,5,7,0,2026-04-13T04:07:50.287750+05:30
Imphal,Manipur,24.817,93.9368,17.0,94,0.0,923.2,8.4,74.5,119,77.8,51.8,3,10,7,0,2026-04-13T04:07:50.287757+05:30
Aizawl,Mizoram,23.7271,92.7176,17.5,78,0.0,891.9,8.9,46.8,99,83.1,38.0,3,5,7,0,2026-04-13T04:07:50.287764+05:30
Kohima,Nagaland,25.6701,94.1077,13.9,87,0.0,853.9,8.95,106.6,108,62.2,31.0,3,10,7,0,2026-04-13T04:07:50.287771+05:30
Gangtok,Sikkim,27.3314,88.6138,12.1,86,0.0,835.1,8.55,13.7,97,131.8,49.5,3,10,7,0,2026-04-13T04:07:50.287778+05:30
Siliguri,West Bengal,26.7271,88.3953,19.1,68,0.0,994.0,8.4,29.9,141,185.8,74.7,3,5,7,0,2026-04-13T04:07:53.637382+05:30
Durgapur,West Bengal,23.5204,87.3119,24.4,93,0.0,993.4,8.85,20.9,112,42.3,35.6,3,5,7,1,2026-04-13T04:07:53.637419+05:30
Asansol,West Bengal,23.6739,86.9524,25.5,76,0.0,991.9,8.85,18.0,102,66.4,42.1,7,5,7,1,2026-04-13T04:07:53.637432+05:30
Pondicherry,Puducherry,11.9139,79.8145,25.2,97,0.0,1008.3,9.3,29.9,35,14.2,8.3,7,0,4,1,2026-04-13T04:07:53.637443+05:30
Port Blair,Andaman and Nicobar Islands,11.6234,92.7265,28.8,79,0.0,1006.9,9.2,15.5,57,28.5,15.1,7,5,4,1,2026-04-13T04:07:53.637453+05:30
Haridwar,Uttarakhand,29.9457,78.1642,18.4,72,0.0,974.5,6.95,31.0,64,30.2,28.5,3,5,7,0,2026-04-13T04:07:53.637463+05:30
Rishikesh,Uttarakhand,30.0869,78.2676,17.9,71,0.0,967.2,7.15,32.4,66,25.8,19.3,3,5,7,0,2026-04-13T04:07:53.637472+05:30
Nainital,Uttarakhand,29.3919,79.4542,16.5,44,0.0,804.5,8.0,34.9,84,22.1,14.0,0,5,7,0,2026-04-13T04:07:53.637482+05:30
Mussoorie,Uttarakhand,30.4599,78.0664,13.3,64,0.0,800.5,7.45,33.5,61,25.4,21.9,3,5,7,0,2026-04-13T04:07:53.637490+05:30
Dharamshala,Himachal Pradesh,32.219,76.3234,17.0,38,0.0,868.2,7.75,23.8,48,7.0,3.7,0,5,7,0,2026-04-13T04:07:53.637497+05:30
Dalhousie,Himachal Pradesh,32.5387,75.971,13.1,48,0.0,801.8,7.45,21.6,58,26.3,19.0,0,5,7,0,2026-04-13T04:07:53.637505+05:30
Patiala,Punjab,30.3398,76.3869,18.0,69,0.0,978.6,7.1,27.4,396,309.2,44.2,3,5,7,0,2026-04-13T04:07:53.637512+05:30
Bhatinda,Punjab,30.211,74.9455,19.3,62,0.0,984.6,7.8,22.7,63,28.8,17.6,3,5,7,0,2026-04-13T04:07:53.637518+05:30
Rohtak,Haryana,28.8955,76.6066,19.0,66,0.0,982.3,7.3,30.6,720,523.4,81.0,3,5,7,0,2026-04-13T04:07:53.637525+05:30
Panipat,Haryana,29.3909,76.9635,19.2,61,0.0,980.5,7.1,32.4,1144,1106.4,128.1,3,5,7,0,2026-04-13T04:07:53.637533+05:30
Mathura,Uttar Pradesh,27.4924,77.6737,19.3,66,0.0,987.4,7.6,22.7,918,987.2,147.6,3,5,7,0,2026-04-13T04:07:53.637539+05:30
Vrindavan,Uttar Pradesh,27.5823,77.7027,19.4,65,0.0,987.8,7.55,25.9,918,987.2,147.6,3,5,7,0,2026-04-13T04:07:53.637546+05:30
Ayodhya,Uttar Pradesh,26.7922,82.1998,22.2,55,0.0,994.8,7.95,33.1,101,98.5,33.3,0,5,7,0,2026-04-13T04:07:53.637553+05:30
Ratlam,Madhya Pradesh,23.3315,75.0367,22.0,69,0.0,953.2,8.4,23.8,62,64.3,37.3,3,5,7,0,2026-04-13T04:07:53.637560+05:30
Sagar,Madhya Pradesh,23.8388,78.7378,23.8,53,0.0,949.9,8.55,24.1,57,56.6,23.2,0,5,7,0,2026-04-13T04:07:53.637567+05:30
Satna,Madhya Pradesh,24.6005,80.8322,24.7,54,0.0,971.4,8.55,26.6,64,234.2,41.7,0,5,7,0,2026-04-13T04:07:53.637573+05:30
Akola,Maharashtra,20.7002,77.0082,25.7,58,0.0,973.6,8.8,24.5,77,38.3,26.2,4,5,7,1,2026-04-13T04:07:53.637580+05:30
Amravati,Maharashtra,20.9374,77.7796,25.2,49,0.0,965.5,8.8,24.5,79,38.8,27.1,4,5,7,0,2026-04-13T04:07:53.637587+05:30
Latur,Maharashtra,18.4088,76.5604,26.5,58,0.0,938.6,9.05,27.0,83,43.7,32.6,4,5,7,1,2026-04-13T04:07:53.637594+05:30
Nanded,Maharashtra,19.1383,77.3091,26.3,64,0.0,966.8,8.95,21.6,99,61.5,44.6,7,5,7,1,2026-04-13T04:07:53.637601+05:30
Gulbarga,Karnataka,17.3297,76.8343,29.2,58,0.0,957.6,9.1,24.1,86,38.3,29.6,4,5,7,1,2026-04-13T04:07:53.637607+05:30
Bidar,Karnataka,17.9104,77.5199,28.3,54,0.0,934.1,9.1,29.2,93,38.5,33.4,4,5,7,1,2026-04-13T04:07:53.637613+05:30
Hospet,Karnataka,15.2689,76.3909,26.8,82,0.0,955.5,9.3,24.5,105,39.5,34.7,7,5,7,1,2026-04-13T04:07:53.637619+05:30
Tirupur,Tamil Nadu,11.1085,77.3411,26.8,84,0.0,974.9,9.45,29.5,84,42.8,32.4,7,5,7,1,2026-04-13T04:07:53.637625+05:30
Alappuzha,Kerala,9.4981,76.3388,27.9,82,0.0,1008.0,9.15,25.6,98,56.0,34.5,7,0,4,1,2026-04-13T04:07:53.637631+05:30
Munnar,Kerala,10.0889,77.0595,20.9,83,0.0,856.0,9.7,28.4,87,40.2,34.8,3,5,7,1,2026-04-13T04:07:53.637638+05:30
Silchar,Assam,24.8333,92.7789,22.3,87,0.0,1005.6,8.7,37.4,152,83.4,58.0,3,5,4,1,2026-04-13T04:07:53.637645+05:30
Dibrugarh,Assam,27.4728,94.912,19.8,87,0.0,997.4,5.6,21.2,104,65.2,42.4,3,10,3,1,2026-04-13T04:07:53.637652+05:30
