city,state,latitude,longitude,temp,humidity,rain,pressure,uv_index,wind_gusts,aqi,pm10,pm2_5,no2,co,o3,so2,mosquito_risk,arthritis_risk,migraine_risk,frizz_risk,updated_at
Delhi,Delhi,28.6139,77.209,31.3,27,0.0,976.9,7.75,37.1,615,553.2,130.9,25.4,226.0,35.0,11.6,0,5,7,0,2026-05-19T05:40:31.444172+05:30
Mumbai,Maharashtra,19.076,72.8777,28.1,84,0.0,1005.1,7.15,43.6,74,53.3,22.1,7.3,220.0,56.0,5.4,7,5,4,1,2026-05-19T05:40:31.444216+05:30
Bangalore,Karnataka,12.9716,77.5946,21.2,96,0.0,909.4,9.3,38.9,70,12.6,11.7,10.2,252.0,60.0,6.1,3,5,7,1,2026-05-19T05:40:31.444231+05:30
Hyderabad,Telangana,17.385,78.4867,28.0,70,0.0,949.9,9.25,28.8,67,28.9,26.7,9.9,302.0,84.0,8.6,7,5,7,1,2026-05-19T05:40:31.444242+05:30
Chennai,Tamil Nadu,13.0827,80.2707,28.6,78,0.0,1003.2,9.15,42.5,57,18.5,15.7,15.3,314.0,58.0,15.9,7,5,4,1,2026-05-19T05:40:31.444251+05:30
Kolkata,West Bengal,22.5726,88.3639,28.8,92,0.0,1001.1,8.95,33.8,72,18.6,15.4,7.6,245.0,64.0,6.6,7,5,4,1,2026-05-19T05:40:31.444260+05:30
Pune,Maharashtra,18.5204,73.8567,24.6,78,0.0,944.9,6.3,41.8,76,35.2,21.3,12.5,185.0,51.0,13.4,3,5,7,1,2026-05-19T05:40:31.444267+05:30
Ahmedabad,Gujarat,23.0225,72.5714,29.4,44,0.0,997.8,8.15,33.5,67,37.0,16.8,5.2,158.0,47.0,4.1,4,5,7,0,2026-05-19T05:40:31.444275+05:30
Jaipur,Rajasthan,26.9124,75.7873,31.8,20,0.0,955.3,8.25,37.4,183,409.8,74.5,4.4,163.0,73.0,4.1,0,5,7,0,2026-05-19T05:40:31.444287+05:30
Lucknow,Uttar Pradesh,26.8467,80.9462,30.0,53,0.0,987.5,8.25,34.9,183,204.9,90.1,48.1,423.0,21.0,16.7,4,5,7,1,2026-05-19T05:40:31.444294+05:30
Kanpur,Uttar Pradesh,26.4499,80.3319,31.7,37,0.0,985.2,8.25,40.7,428,508.5,109.7,44.5,341.0,19.0,12.4,0,5,7,0,2026-05-19T05:40:31.444302+05:30
Chandigarh,Chandigarh,30.7333,76.7794,30.8,36,0.0,961.3,7.75,27.7,60,21.5,19.0,17.2,305.0,60.0,7.7,0,5,7,0,2026-05-19T05:40:31.444309+05:30
Srinagar,Jammu and Kashmir,34.0837,74.7973,12.8,87,0.0,836.9,8.95,41.4,72,41.6,30.7,21.1,248.0,7.0,1.0,3,10,7,0,2026-05-19T05:40:31.444317+05:30
Jammu,Jammu and Kashmir,32.7266,74.857,25.5,52,0.0,964.9,8.55,30.2,67,21.5,17.9,15.8,313.0,36.0,2.7,4,5,7,0,2026-05-19T05:40:31.444324+05:30
Amritsar,Punjab,31.634,74.8723,27.6,64,0.0,973.1,8.45,24.8,94,65.7,54.2,32.0,728.0,35.0,11.5,7,5,7,1,2026-05-19T05:40:31.444331+05:30
Ludhiana,Punjab,30.901,75.8573,28.4,60,0.0,971.1,8.05,29.2,90,54.5,46.2,24.7,635.0,37.0,9.3,4,5,7,1,2026-05-19T05:40:31.444338+05:30
Jalandhar,Punjab,31.326,75.5762,28.1,55,0.0,972.0,8.25,24.1,108,68.9,49.7,26.6,979.0,47.0,8.8,4,5,7,1,2026-05-19T05:40:31.444344+05:30
Dehradun,Uttarakhand,30.6284,78.0322,12.8,89,0.0,823.5,8.2,43.2,37,11.3,10.0,20.9,272.0,11.0,0.2,3,10,7,0,2026-05-19T05:40:31.444352+05:30
Shimla,Himachal Pradesh,31.1048,77.1734,15.0,54,0.0,780.6,8.3,46.1,47,19.3,16.0,18.5,203.0,80.0,2.5,0,5,7,0,2026-05-19T05:40:31.444360+05:30
Manali,Himachal Pradesh,32.2396,77.1887,10.1,38,0.0,811.6,9.65,47.5,40,10.7,5.5,39.0,189.0,60.0,0.0,0,5,7,1,2026-05-19T05:40:31.444367+05:30
Gurgaon,Haryana,28.4595,77.0266,30.1,27,0.0,975.4,7.85,34.2,1359,1896.2,273.8,15.8,224.0,47.0,9.1,0,5,7,0,2026-05-19T05:40:31.444377+05:30
Noida,Uttar Pradesh,28.5355,77.391,29.4,33,0.0,977.9,7.75,31.3,1359,1896.2,273.8,15.8,225.0,47.0,9.1,4,5,7,0,2026-05-19T05:40:31.444384+05:30
Ghaziabad,Uttar Pradesh,28.6692,77.4538,30.5,31,0.0,976.1,7.75,36.0,519,553.2,161.1,28.9,266.0,30.0,13.7,0,5,7,0,2026-05-19T05:40:31.444391+05:30
Faridabad,Haryana,28.4089,77.3178,31.8,25,0.0,977.5,7.8,40.0,1359,1896.2,273.8,15.8,221.0,47.0,9.1,0,5,7,0,2026-05-19T05:40:31.444397+05:30
Meerut,Uttar Pradesh,28.9845,77.7064,28.8,38,0.0,975.2,7.65,27.0,519,553.2,161.1,28.9,307.0,30.0,13.7,4,5,7,0,2026-05-19T05:40:31.444403+05:30
Agra,Uttar Pradesh,27.1767,78.0081,32.0,27,0.0,981.5,8.1,41.8,667,640.7,91.5,16.2,200.0,37.0,6.0,0,5,7,0,2026-05-19T05:40:31.444410+05:30
Varanasi,Uttar Pradesh,25.3176,82.9739,30.0,61,0.0,991.6,8.7,32.0,112,75.9,46.1,20.3,1034.0,70.0,15.4,7,5,7,1,2026-05-19T05:40:31.444417+05:30
Prayagraj,Uttar Pradesh,25.4358,81.8463,30.8,47,0.0,989.6,8.6,36.4,140,96.4,60.1,28.8,319.0,49.0,16.3,0,5,7,1,2026-05-19T05:40:31.444424+05:30
Gorakhpur,Uttar Pradesh,26.7606,83.3732,27.6,80,0.0,993.2,8.6,36.7,160,70.1,59.0,10.4,565.0,92.0,13.2,7,5,7,1,2026-05-19T05:40:31.444432+05:30
Bareilly,Uttar Pradesh,28.367,79.4304,27.0,68,0.0,980.5,8.05,28.4,151,52.5,40.7,24.3,714.0,57.0,8.7,7,5,7,1,2026-05-19T05:40:31.444439+05:30
Aligarh,Uttar Pradesh,27.8974,78.088,29.9,32,0.0,979.2,7.9,36.4,796,769.3,172.3,22.7,244.0,32.0,10.1,4,5,7,0,2026-05-19T05:40:31.444446+05:30
Moradabad,Uttar Pradesh,28.8386,78.7733,27.3,68,0.0,977.2,7.85,26.3,168,135.5,82.9,65.6,945.0,15.0,17.9,7,5,7,1,2026-05-19T05:40:31.444452+05:30
Saharanpur,Uttar Pradesh,29.9637,77.546,28.2,48,0.0,968.4,7.4,25.2,98,60.8,45.3,42.1,386.0,14.0,9.4,4,5,7,1,2026-05-19T05:40:31.444458+05:30
Jhansi,Uttar Pradesh,25.4484,78.5685,31.0,41,0.0,971.8,8.5,29.9,65,46.9,17.7,6.3,166.0,49.0,2.3,0,5,7,1,2026-05-19T05:40:34.696355+05:30
Surat,Gujarat,21.1702,72.8311,27.5,77,0.0,1002.5,7.75,40.3,98,53.8,34.8,32.8,321.0,24.0,41.4,7,5,4,1,2026-05-19T05:40:34.696387+05:30
Vadodara,Gujarat,22.3072,73.1812,29.6,39,0.0,1000.1,7.65,44.3,79,36.8,23.4,11.4,202.0,40.0,7.3,4,5,4,0,2026-05-19T05:40:34.696397+05:30
Rajkot,Gujarat,22.3039,70.8022,25.5,90,0.0,990.8,7.7,43.2,69,27.8,10.8,5.2,115.0,42.0,4.8,7,5,7,1,2026-05-19T05:40:34.696406+05:30
Thane,Maharashtra,19.2183,72.9781,27.9,87,0.0,1004.4,7.2,39.6,74,53.3,22.1,7.3,216.0,56.0,5.4,7,5,4,1,2026-05-19T05:40:34.696414+05:30
Nagpur,Maharashtra,21.1458,79.0882,32.5,45,0.0,968.9,8.5,40.7,76,24.3,21.9,12.7,311.0,84.0,17.4,0,5,7,1,2026-05-19T05:40:34.696422+05:30
Nashik,Maharashtra,19.9975,73.7898,25.1,56,0.0,941.8,8.15,37.8,69,44.2,22.1,7.1,143.0,60.0,4.1,4,5,7,0,2026-05-19T05:40:34.696429+05:30
Aurangabad,Maharashtra,19.8762,75.3433,28.6,39,0.0,941.0,9.05,36.7,67,40.2,24.2,11.7,177.0,75.0,7.9,4,5,7,0,2026-05-19T05:40:34.696436+05:30
Solapur,Maharashtra,17.6599,75.9064,29.5,65,0.0,953.4,8.45,41.8,77,23.6,17.1,9.2,182.0,50.0,4.1,7,5,7,1,2026-05-19T05:40:34.696444+05:30
Kolhapur,Maharashtra,16.705,74.2433,24.8,87,0.0,945.5,8.35,43.9,60,32.9,17.5,4.7,137.0,62.0,3.0,3,5,7,1,2026-05-19T05:40:34.696452+05:30
Goa,Goa,15.2993,74.124,27.9,88,0.0,995.2,2.4,27.0,68,55.2,23.6,4.4,408.0,52.0,2.3,7,5,3,1,2026-05-19T05:40:34.696459+05:30
Jodhpur,Rajasthan,26.2389,73.0243,29.3,31,0.0,978.4,8.45,39.6,135,202.6,47.6,4.1,139.0,57.0,3.6,4,5,7,0,2026-05-19T05:40:34.696466+05:30
Udaipur,Rajasthan,24.5854,73.7125,29.0,28,0.0,942.1,8.85,41.0,53,33.9,14.4,3.4,133.0,65.0,3.6,4,5,7,0,2026-05-19T05:40:34.696474+05:30
Kota,Rajasthan,25.2138,75.8648,32.5,21,0.0,973.7,8.4,32.4,76,18.7,10.3,4.2,180.0,67.0,3.3,0,5,7,0,2026-05-19T05:40:34.696481+05:30
Bikaner,Rajasthan,28.0229,73.3119,30.2,23,0.0,976.4,8.4,36.0,103,209.1,81.7,1.6,129.0,82.0,2.1,0,5,7,0,2026-05-19T05:40:34.696489+05:30
Ajmer,Rajasthan,26.4499,74.6399,28.9,27,0.0,950.5,8.4,41.8,75,54.8,21.0,3.8,167.0,68.0,4.1,4,5,7,0,2026-05-19T05:40:34.696496+05:30
Gwalior,Madhya Pradesh,26.2183,78.1828,31.8,28,0.0,977.1,8.3,38.9,81,39.2,18.7,8.5,182.0,48.0,4.4,0,5,7,0,2026-05-19T05:40:34.696503+05:30
Indore,Madhya Pradesh,22.7196,75.8577,30.8,25,0.0,944.2,8.65,42.8,70,26.0,15.7,4.0,231.0,81.0,5.9,0,5,7,0,2026-05-19T05:40:34.696511+05:30
Bhopal,Madhya Pradesh,23.2599,77.4126,32.9,23,0.0,948.8,8.7,39.6,78,46.1,27.0,9.9,284.0,59.0,6.1,0,5,7,0,2026-05-19T05:40:34.696518+05:30
Jabalpur,Madhya Pradesh,23.1815,79.9864,31.3,37,0.0,956.6,8.85,36.7,81,32.2,30.3,20.2,258.0,56.0,9.1,0,5,7,0,2026-05-19T05:40:34.696526+05:30
Ujjain,Madhya Pradesh,23.1765,75.7885,30.6,24,0.0,949.4,8.55,44.6,65,24.9,15.8,4.2,259.0,70.0,4.8,0,5,7,0,2026-05-19T05:40:34.696534+05:30
Visakhapatnam,Andhra Pradesh,17.6868,83.2185,28.4,87,0.0,1000.2,9.1,47.5,65,21.2,16.1,17.2,369.0,45.0,32.4,7,5,4,1,2026-05-19T05:40:34.696542+05:30
Vijayawada,Andhra Pradesh,16.5062,80.648,29.2,85,0.0,998.6,8.4,27.0,65,21.1,17.2,8.0,262.0,78.0,6.4,7,5,7,1,2026-05-19T05:40:34.696549+05:30
Guntur,Andhra Pradesh,16.3067,80.4365,29.5,85,0.0,999.6,8.45,32.0,67,19.0,15.5,7.3,256.0,83.0,5.4,7,5,7,1,2026-05-19T05:40:34.696556+05:30
Nellore,Andhra Pradesh,14.4426,79.9865,29.2,73,0.0,1001.3,9.1,42.8,62,19.9,18.5,8.4,308.0,80.0,6.8,7,5,4,1,2026-05-19T05:40:34.696565+05:30
Kurnool,Andhra Pradesh,15.8281,78.0373,30.9,60,0.0,973.3,9.1,40.7,65,26.1,22.8,8.2,230.0,79.0,9.8,0,5,7,1,2026-05-19T05:40:34.696572+05:30
Kakinada,Andhra Pradesh,16.9891,82.2475,29.2,85,0.0,1004.1,8.5,29.5,53,19.3,12.6,3.0,267.0,71.0,1.9,7,5,4,1,2026-05-19T05:40:34.696579+05:30
Tirupati,Andhra Pradesh,13.6288,79.4192,27.8,75,0.0,987.2,9.1,40.7,67,22.2,21.1,16.0,252.0,46.0,3.3,7,5,7,1,2026-05-19T05:40:34.696586+05:30
Warangal,Telangana,17.9689,79.5941,27.5,81,0.0,974.9,9.15,33.5,77,24.1,21.9,7.7,283.0,87.0,9.5,7,5,7,1,2026-05-19T05:40:34.696593+05:30
Nizamabad,Telangana,18.6725,78.0941,29.6,55,0.0,961.4,9.1,29.5,76,26.5,24.2,11.9,307.0,72.0,7.6,4,5,7,1,2026-05-19T05:40:34.696600+05:30
Mysore,Karnataka,12.2958,76.6396,22.0,92,0.0,926.2,7.8,41.4,54,6.1,5.8,7.1,192.0,53.0,2.4,3,5,7,1,2026-05-19T05:40:34.696607+05:30
Mangalore,Karnataka,12.9141,74.856,25.0,98,0.0,1004.8,6.6,34.6,54,9.5,6.9,4.0,172.0,65.0,1.6,7,5,4,1,2026-05-19T05:40:34.696613+05:30
Hubli-Dharwad,Karnataka,15.3647,75.124,24.2,89,0.0,938.3,6.15,38.5,59,20.8,10.4,3.2,140.0,61.0,2.1,3,5,7,1,2026-05-19T05:40:34.696620+05:30
Belgaum,Karnataka,15.8497,74.4977,23.0,91,0.0,923.1,6.45,41.0,58,30.7,14.3,4.8,126.0,53.0,1.7,3,5,7,1,2026-05-19T05:40:37.962571+05:30
Coimbatore,Tamil Nadu,11.0168,76.9558,25.2,79,0.0,959.4,8.45,56.2,27,2.7,2.5,5.4,160.0,48.0,3.0,7,5,7,1,2026-05-19T05:40:37.962604+05:30
Madurai,Tamil Nadu,9.9252,78.1198,26.9,80,0.0,990.8,9.0,37.4,53,14.8,13.6,19.3,311.0,20.0,4.8,7,5,7,1,2026-05-19T05:40:37.962615+05:30
Trichy,Tamil Nadu,10.7905,78.7047,26.5,85,0.0,997.3,9.0,31.0,51,15.3,14.2,19.2,247.0,29.0,4.9,7,5,7,1,2026-05-19T05:40:37.962624+05:30
Salem,Tamil Nadu,11.6643,78.146,25.8,81,0.0,975.1,6.85,42.1,56,16.7,15.6,19.0,255.0,33.0,6.9,7,5,7,1,2026-05-19T05:40:37.962633+05:30
Tirunelveli,Tamil Nadu,8.7139,77.7567,26.9,86,0.0,1002.1,8.8,27.7,30,8.4,6.4,5.6,142.0,43.0,1.8,7,5,4,1,2026-05-19T05:40:37.962641+05:30
Vellore,Tamil Nadu,12.9165,79.1325,27.4,75,0.0,981.2,9.1,39.6,72,26.8,24.6,12.4,244.0,52.0,6.1,7,5,7,1,2026-05-19T05:40:37.962649+05:30
Erode,Tamil Nadu,11.341,77.7172,27.1,71,0.0,986.8,8.75,48.2,46,10.0,9.4,14.0,169.0,34.0,3.7,7,5,7,1,2026-05-19T05:40:37.962656+05:30
Kochi,Kerala,9.9312,76.2673,25.5,95,0.1,1007.7,8.25,36.7,39,8.5,7.1,8.1,190.0,40.0,2.7,10,5,4,1,2026-05-19T05:40:37.962664+05:30
Thiruvananthapuram,Kerala,8.5241,76.9366,24.9,96,0.3,1007.5,8.35,38.2,43,16.4,9.3,1.3,123.0,54.0,0.4,6,5,4,1,2026-05-19T05:40:37.962672+05:30
Kozhikode,Kerala,11.2588,75.7804,24.6,99,0.1,1006.7,7.3,37.4,34,5.4,3.5,1.3,234.0,72.0,0.7,6,5,4,1,2026-05-19T05:40:37.962679+05:30
Thrissur,Kerala,10.5276,76.2144,24.4,99,0.1,1005.9,7.65,34.9,36,6.8,5.8,7.3,208.0,44.0,3.0,6,5,4,1,2026-05-19T05:40:37.962687+05:30
Kannur,Kerala,11.8745,75.3704,25.0,97,0.2,1005.8,8.05,34.2,29,6.3,4.8,3.6,201.0,58.0,1.7,10,5,4,1,2026-05-19T05:40:37.962694+05:30
Patna,Bihar,25.5941,85.1376,26.9,87,0.0,996.0,8.8,41.0,153,67.1,61.9,12.0,443.0,76.0,13.0,7,5,7,1,2026-05-19T05:40:37.962702+05:30
Gaya,Bihar,24.7914,85.0002,27.2,82,0.0,988.4,8.8,29.5,130,69.2,66.8,12.8,539.0,77.0,18.1,7,5,7,1,2026-05-19T05:40:37.962709+05:30
Muzaffarpur,Bihar,26.1209,85.3647,26.4,86,0.0,996.8,8.8,44.6,153,65.4,59.1,10.4,414.0,80.0,11.0,7,5,7,1,2026-05-19T05:40:37.962716+05:30
Bhagalpur,Bihar,25.2425,87.0117,25.8,90,0.0,997.8,8.8,39.6,152,52.7,48.0,11.9,451.0,74.0,9.2,7,5,7,1,2026-05-19T05:40:37.962722+05:30
Ranchi,Jharkhand,23.3441,85.3096,25.3,67,0.0,933.3,9.25,45.0,116,47.7,38.2,10.9,299.0,108.0,28.8,7,5,7,1,2026-05-19T05:40:37.962729+05:30
Jamshedpur,Jharkhand,22.8046,86.2029,27.5,69,0.0,986.1,9.1,40.0,118,45.9,39.5,20.8,343.0,71.0,26.7,7,5,7,1,2026-05-19T05:40:37.962736+05:30
Dhanbad,Jharkhand,23.7957,86.4304,26.6,67,0.0,974.7,9.05,24.8,162,82.4,70.1,57.6,381.0,42.0,120.5,7,5,7,1,2026-05-19T05:40:37.962743+05:30
Bokaro,Jharkhand,23.6693,86.1511,26.5,69,0.0,978.3,9.05,27.7,159,78.9,62.6,41.3,294.0,61.0,78.7,7,5,7,1,2026-05-19T05:40:37.962751+05:30
Bhubaneswar,Odisha,20.2961,85.8245,28.8,87,0.0,998.2,9.15,45.7,62,15.2,12.0,5.9,207.0,61.0,6.1,7,5,7,1,2026-05-19T05:40:37.962758+05:30
Cuttack,Odisha,20.4625,85.8828,28.8,88,0.0,999.9,9.2,39.2,62,15.2,12.0,5.9,224.0,61.0,6.1,7,5,7,1,2026-05-19T05:40:37.962764+05:30
Rourkela,Odisha,22.2604,84.8536,27.8,82,0.0,980.8,9.0,48.2,126,53.4,43.8,18.6,406.0,63.0,16.4,7,5,7,1,2026-05-19T05:40:37.962771+05:30
Raipur,Chhattisgarh,21.2514,81.6296,30.4,55,0.0,970.8,9.0,45.7,97,32.1,29.4,28.9,574.0,56.0,44.8,0,5,7,1,2026-05-19T05:40:37.962778+05:30
Bhilai,Chhattisgarh,21.1938,81.3509,29.9,57,0.0,971.2,9.0,44.3,89,29.9,27.2,24.4,784.0,69.0,40.2,4,5,7,1,2026-05-19T05:40:37.962785+05:30
Guwahati,Assam,26.1158,91.7086,23.0,99,0.0,1000.4,8.75,22.0,77,35.5,30.6,10.5,268.0,46.0,4.0,3,5,4,1,2026-05-19T05:40:37.962791+05:30
Agartala,Tripura,23.8315,91.2868,22.8,100,0.0,1004.5,8.75,41.0,90,37.6,26.2,10.8,224.0,57.0,3.5,3,5,4,1,2026-05-19T05:40:37.962798+05:30
Shillong,Meghalaya,25.5788,91.8933,18.1,94,0.0,855.5,6.85,24.8,55,19.0,12.7,5.9,296.0,74.0,4.1,3,10,7,1,2026-05-19T05:40:37.962805+05:30
Imphal,Manipur,24.817,93.9368,21.2,95,0.0,921.3,9.2,33.5,89,45.3,33.8,10.6,516.0,40.0,3.4,3,5,7,1,2026-05-19T05:40:37.962812+05:30
Aizawl,Mizoram,23.7271,92.7176,18.9,92,0.0,890.1,9.05,28.1,93,57.3,40.5,11.0,181.0,43.0,3.2,3,10,7,1,2026-05-19T05:40:37.962819+05:30
Kohima,Nagaland,25.6701,94.1077,17.6,93,0.1,853.6,8.65,31.0,60,17.6,9.5,8.5,258.0,27.0,1.3,6,10,7,1,2026-05-19T05:40:37.962826+05:30
Gangtok,Sikkim,27.3314,88.6138,15.0,98,0.2,835.3,9.1,40.3,92,28.1,23.7,12.0,747.0,20.0,0.4,6,10,7,0,2026-05-19T05:40:37.962833+05:30
Siliguri,West Bengal,26.7271,88.3953,23.6,91,0.0,991.7,8.7,26.3,150,94.5,76.8,16.7,411.0,80.0,5.9,3,5,7,1,2026-05-19T05:40:41.210888+05:30
Durgapur,West Bengal,23.5204,87.3119,27.5,85,0.0,990.1,9.0,28.1,153,55.8,51.8,32.8,719.0,51.0,42.5,7,5,7,1,2026-05-19T05:40:41.210941+05:30
Asansol,West Bengal,23.6739,86.9524,27.3,81,0.0,988.4,9.0,32.8,155,64.5,56.3,40.0,540.0,44.0,55.7,7,5,7,1,2026-05-19T05:40:41.210953+05:30
Pondicherry,Puducherry,11.9139,79.8145,27.9,79,0.0,1005.1,8.95,42.8,57,14.6,12.9,13.5,227.0,55.0,10.5,7,5,4,1,2026-05-19T05:40:41.210962+05:30
Port Blair,Andaman and Nicobar Islands,11.6234,92.7265,25.2,97,0.1,1005.4,8.95,48.6,32,11.0,6.4,0.3,132.0,53.0,0.3,10,5,4,1,2026-05-19T05:40:41.210970+05:30
Haridwar,Uttarakhand,29.9457,78.1642,25.6,60,0.0,967.2,7.55,36.7,74,32.2,29.5,36.3,366.0,18.0,5.0,4,5,7,1,2026-05-19T05:40:41.210978+05:30
Rishikesh,Uttarakhand,30.0869,78.2676,21.0,76,0.0,959.5,7.7,32.4,56,21.9,21.3,18.6,340.0,67.0,5.8,3,5,7,1,2026-05-19T05:40:41.210987+05:30
Nainital,Uttarakhand,29.3919,79.4542,15.4,70,0.0,802.2,8.55,38.2,70,42.0,27.2,16.6,257.0,99.0,7.1,3,5,7,0,2026-05-19T05:40:41.210995+05:30
Mussoorie,Uttarakhand,30.4599,78.0664,18.2,49,0.0,800.0,8.1,55.4,59,19.0,18.9,33.5,228.0,16.0,3.7,0,5,7,0,2026-05-19T05:40:41.211002+05:30
Dharamshala,Himachal Pradesh,32.219,76.3234,24.2,44,0.0,865.7,8.45,51.1,35,10.5,7.7,15.0,241.0,27.0,0.2,0,5,7,0,2026-05-19T05:40:41.211010+05:30
Dalhousie,Himachal Pradesh,32.5387,75.971,13.3,74,0.0,798.6,8.7,52.2,55,17.1,15.7,21.7,261.0,14.0,0.7,3,5,7,0,2026-05-19T05:40:41.211017+05:30
Patiala,Punjab,30.3398,76.3869,29.1,45,0.0,970.9,7.65,30.6,406,128.1,57.2,19.9,673.0,51.0,10.5,4,5,7,0,2026-05-19T05:40:41.211025+05:30
Bhatinda,Punjab,30.211,74.9455,31.1,27,0.0,976.9,8.3,31.3,91,147.6,41.9,19.0,226.0,47.0,3.4,0,5,7,0,2026-05-19T05:40:41.211032+05:30
Rohtak,Haryana,28.8955,76.6066,29.2,31,0.0,975.5,7.75,29.9,727,827.0,127.6,15.6,192.0,44.0,4.0,4,5,7,0,2026-05-19T05:40:41.211039+05:30
Panipat,Haryana,29.3909,76.9635,28.4,41,0.0,973.8,7.6,39.2,1555,1408.2,225.4,17.4,320.0,38.0,5.6,4,5,7,0,2026-05-19T05:40:41.211046+05:30
Mathura,Uttar Pradesh,27.4924,77.6737,32.5,25,0.0,980.5,8.05,41.4,716,851.2,114.1,10.5,186.0,52.0,4.5,0,5,7,0,2026-05-19T05:40:41.211054+05:30
Vrindavan,Uttar Pradesh,27.5823,77.7027,31.6,28,0.0,980.9,8.0,38.5,716,851.2,114.1,10.5,186.0,52.0,4.5,0,5,7,0,2026-05-19T05:40:41.211061+05:30
Ayodhya,Uttar Pradesh,26.7922,82.1998,28.6,76,0.0,990.4,8.4,36.0,161,59.5,48.5,17.2,720.0,77.0,17.2,7,5,7,1,2026-05-19T05:40:41.211069+05:30
Ratlam,Madhya Pradesh,23.3315,75.0367,28.0,33,0.0,950.5,8.55,40.7,62,27.1,17.6,5.6,209.0,61.0,6.3,4,5,7,0,2026-05-19T05:40:41.211076+05:30
Sagar,Madhya Pradesh,23.8388,78.7378,31.0,31,0.0,944.9,8.75,37.4,63,41.8,19.3,15.9,244.0,49.0,4.4,0,5,7,0,2026-05-19T05:40:41.211083+05:30
Satna,Madhya Pradesh,24.6005,80.8322,29.5,39,0.0,965.5,8.75,44.3,99,232.4,61.5,29.8,232.0,37.0,6.2,4,5,7,0,2026-05-19T05:40:41.211090+05:30
Akola,Maharashtra,20.7002,77.0082,33.8,28,0.0,970.6,8.85,39.2,68,30.2,24.7,13.9,265.0,60.0,5.8,0,5,7,0,2026-05-19T05:40:41.211098+05:30
Amravati,Maharashtra,20.9374,77.7796,33.4,37,0.0,963.0,8.9,51.1,68,26.1,23.5,9.9,256.0,77.0,5.4,0,5,7,1,2026-05-19T05:40:41.211106+05:30
Latur,Maharashtra,18.4088,76.5604,29.2,58,0.0,936.1,8.1,32.0,76,27.1,22.1,9.2,216.0,68.0,8.2,4,5,7,1,2026-05-19T05:40:41.211113+05:30
Nanded,Maharashtra,19.1383,77.3091,31.9,47,0.0,964.5,7.95,34.9,75,33.4,30.0,10.6,237.0,83.0,7.4,0,5,7,1,2026-05-19T05:40:41.211120+05:30
Gulbarga,Karnataka,17.3297,76.8343,29.0,65,0.0,955.1,9.05,37.4,83,28.3,22.4,12.4,199.0,59.0,5.7,7,5,7,1,2026-05-19T05:40:41.211127+05:30
Bidar,Karnataka,17.9104,77.5199,28.1,60,0.0,932.2,9.15,29.9,78,24.1,21.9,11.1,235.0,72.0,5.8,4,5,7,1,2026-05-19T05:40:41.211133+05:30
Hospet,Karnataka,15.2689,76.3909,26.6,82,0.0,953.1,7.85,40.0,67,10.8,7.8,4.0,142.0,63.0,2.1,7,5,7,1,2026-05-19T05:40:41.211140+05:30
Tirupur,Tamil Nadu,11.1085,77.3411,26.3,74,0.0,972.7,8.75,56.9,48,9.9,9.4,14.2,152.0,34.0,4.4,7,5,7,1,2026-05-19T05:40:41.211147+05:30
Alappuzha,Kerala,9.4981,76.3388,25.0,100,0.1,1007.9,8.6,35.6,31,10.2,7.0,3.8,125.0,59.0,1.3,10,5,4,1,2026-05-19T05:40:41.211154+05:30
Munnar,Kerala,10.0889,77.0595,17.1,100,0.0,855.4,7.6,35.6,21,2.1,2.0,5.3,140.0,35.0,1.3,3,10,7,1,2026-05-19T05:40:41.211162+05:30
Silchar,Assam,24.8333,92.7789,23.6,99,0.2,1003.3,8.9,25.9,97,53.0,33.2,7.9,388.0,71.0,4.6,6,5,4,1,2026-05-19T05:40:41.211169+05:30
Dibrugarh,Assam,27.4728,94.912,22.0,95,0.0,994.4,8.85,15.1,98,78.7,69.4,30.5,303.0,20.0,0.5,3,5,7,1,2026-05-19T05:40:41.211176+05:30
