city,state,latitude,longitude,temp,humidity,rain,pressure,uv_index,wind_gusts,aqi,pm10,pm2_5,no2,co,o3,so2,mosquito_risk,arthritis_risk,migraine_risk,frizz_risk,updated_at
Delhi,Delhi,28.6139,77.209,30.6,40,0.0,984.8,7.15,29.2,140,233.8,53.8,6.2,330.0,230.0,27.2,0,5,7,0,2026-05-05T14:38:10.845137+05:30
Mumbai,Maharashtra,19.076,72.8777,32.5,61,0.0,1007.2,7.85,42.1,68,80.6,29.9,4.0,189.0,113.0,22.4,3,5,4,1,2026-05-05T14:38:10.845179+05:30
Bangalore,Karnataka,12.9716,77.5946,33.5,26,0.0,911.1,9.05,33.1,80,45.1,19.9,4.2,263.0,165.0,5.8,0,5,7,0,2026-05-05T14:38:10.845195+05:30
Hyderabad,Telangana,17.385,78.4867,38.8,14,0.0,951.0,9.25,37.8,107,42.6,17.4,2.4,310.0,171.0,6.0,0,5,10,0,2026-05-05T14:38:10.845206+05:30
Chennai,Tamil Nadu,13.0827,80.2707,33.8,47,0.0,1004.8,8.7,45.7,76,46.0,31.0,2.4,237.0,151.0,8.5,0,5,4,1,2026-05-05T14:38:10.845215+05:30
Kolkata,West Bengal,22.5726,88.3639,30.2,62,0.0,1006.0,8.65,45.7,68,19.4,14.3,2.9,391.0,101.0,6.8,3,5,4,1,2026-05-05T14:38:10.845223+05:30
Pune,Maharashtra,18.5204,73.8567,36.8,18,0.0,947.0,8.45,49.7,54,52.2,16.2,1.5,162.0,119.0,3.5,0,5,10,0,2026-05-05T14:38:10.845231+05:30
Ahmedabad,Gujarat,23.0225,72.5714,39.1,20,0.0,1000.2,8.1,29.9,71,144.8,34.7,2.0,177.0,150.0,9.2,0,5,7,0,2026-05-05T14:38:10.845246+05:30
Jaipur,Rajasthan,26.9124,75.7873,33.3,32,0.0,960.0,8.05,28.4,151,140.6,30.6,1.2,214.0,155.0,5.2,0,5,7,0,2026-05-05T14:38:10.845255+05:30
Lucknow,Uttar Pradesh,26.8467,80.9462,29.3,58,0.0,994.5,5.25,28.4,93,45.9,30.5,2.8,350.0,172.0,8.0,4,5,3,1,2026-05-05T14:38:10.845263+05:30
Kanpur,Uttar Pradesh,26.4499,80.3319,30.0,58,0.0,992.1,8.05,34.9,144,112.0,28.8,2.3,347.0,181.0,6.1,4,5,7,1,2026-05-05T14:38:10.845271+05:30
Chandigarh,Chandigarh,30.7333,76.7794,30.6,26,0.0,970.9,7.4,42.1,107,56.6,16.1,1.6,261.0,169.0,6.4,0,5,7,0,2026-05-05T14:38:10.845279+05:30
Srinagar,Jammu and Kashmir,34.0837,74.7973,19.7,51,0.0,845.5,8.7,26.3,105,11.3,6.6,1.5,274.0,145.0,1.0,0,5,7,0,2026-05-05T14:38:10.845288+05:30
Jammu,Jammu and Kashmir,32.7266,74.857,32.2,24,0.0,975.3,8.3,32.0,89,78.2,19.7,1.2,216.0,153.0,2.0,0,5,7,0,2026-05-05T14:38:10.845296+05:30
Amritsar,Punjab,31.634,74.8723,32.8,28,0.0,983.3,8.2,45.0,100,72.6,19.7,1.1,257.0,161.0,4.7,0,5,7,0,2026-05-05T14:38:10.845303+05:30
Ludhiana,Punjab,30.901,75.8573,29.1,40,0.0,981.3,7.8,28.8,98,74.3,21.6,1.5,252.0,172.0,8.3,4,5,7,0,2026-05-05T14:38:10.845313+05:30
Jalandhar,Punjab,31.326,75.5762,30.9,34,0.0,982.3,7.95,41.8,97,76.1,22.0,1.2,275.0,166.0,7.2,0,5,7,0,2026-05-05T14:38:10.845321+05:30
Dehradun,Uttarakhand,30.6284,78.0322,19.1,47,0.1,833.0,7.05,32.4,81,42.3,12.3,1.7,173.0,140.0,0.9,3,5,7,0,2026-05-05T14:38:10.845330+05:30
Shimla,Himachal Pradesh,31.1048,77.1734,17.2,35,0.0,787.0,5.0,36.4,98,40.2,13.0,1.0,192.0,153.0,3.2,0,5,3,0,2026-05-05T14:38:10.845338+05:30
Manali,Himachal Pradesh,32.2396,77.1887,16.7,46,0.0,819.2,9.7,41.0,136,19.4,5.4,0.7,169.0,167.0,0.3,0,5,7,0,2026-05-05T14:38:10.845345+05:30
Gurgaon,Haryana,28.4595,77.0266,30.6,42,0.0,983.0,7.6,35.6,495,378.1,63.8,4.5,309.0,195.0,15.5,0,5,7,0,2026-05-05T14:38:10.845352+05:30
Noida,Uttar Pradesh,28.5355,77.391,29.8,48,0.0,986.5,7.3,30.2,495,378.1,63.8,4.5,390.0,195.0,15.5,4,5,7,1,2026-05-05T14:38:10.845378+05:30
Ghaziabad,Uttar Pradesh,28.6692,77.4538,29.9,47,0.0,985.0,7.0,37.4,116,221.2,45.4,2.7,241.0,190.0,8.9,4,5,7,1,2026-05-05T14:38:10.845388+05:30
Faridabad,Haryana,28.4089,77.3178,29.8,49,0.0,985.5,7.25,28.8,495,378.1,63.8,4.5,413.0,195.0,15.5,4,5,7,1,2026-05-05T14:38:10.845396+05:30
Meerut,Uttar Pradesh,28.9845,77.7064,24.8,69,0.0,984.2,3.4,50.8,116,221.2,45.4,2.7,284.0,190.0,8.9,3,5,3,1,2026-05-05T14:38:10.845403+05:30
Agra,Uttar Pradesh,27.1767,78.0081,28.8,55,0.0,989.0,7.9,33.8,202,216.1,44.0,1.9,267.0,180.0,8.0,4,5,7,1,2026-05-05T14:38:10.845411+05:30
Varanasi,Uttar Pradesh,25.3176,82.9739,29.8,54,0.0,997.6,8.25,50.4,142,74.0,44.1,2.1,338.0,187.0,8.9,4,5,7,1,2026-05-05T14:38:10.845418+05:30
Prayagraj,Uttar Pradesh,25.4358,81.8463,32.5,45,0.0,995.9,8.45,51.8,129,71.0,41.0,2.0,298.0,163.0,6.1,0,5,7,1,2026-05-05T14:38:10.845428+05:30
Gorakhpur,Uttar Pradesh,26.7606,83.3732,30.9,50,0.0,997.6,7.8,23.0,107,48.3,39.1,3.4,302.0,159.0,6.3,0,5,7,1,2026-05-05T14:38:10.845436+05:30
Bareilly,Uttar Pradesh,28.367,79.4304,30.2,49,0.0,988.7,7.5,37.8,98,125.7,30.3,1.9,265.0,186.0,10.3,0,5,7,1,2026-05-05T14:38:10.845443+05:30
Aligarh,Uttar Pradesh,27.8974,78.088,29.8,49,0.0,987.5,7.65,41.8,225,260.8,47.1,1.9,254.0,176.0,10.0,4,5,7,1,2026-05-05T14:38:10.845451+05:30
Moradabad,Uttar Pradesh,28.8386,78.7733,30.2,47,0.0,986.1,6.8,46.4,105,68.7,27.0,2.5,269.0,193.0,15.2,0,5,7,1,2026-05-05T14:38:10.845458+05:30
Saharanpur,Uttar Pradesh,29.9637,77.546,30.1,37,0.0,977.9,6.3,53.3,113,78.0,22.0,1.8,241.0,173.0,8.0,0,5,7,0,2026-05-05T14:38:10.845464+05:30
Jhansi,Uttar Pradesh,25.4484,78.5685,34.7,33,0.0,977.7,8.35,59.8,116,65.0,35.5,1.7,238.0,173.0,17.6,0,5,7,1,2026-05-05T14:38:14.231320+05:30
Surat,Gujarat,21.1702,72.8311,34.8,47,0.0,1005.3,7.7,41.8,73,75.4,31.3,12.7,344.0,83.0,39.3,0,5,4,1,2026-05-05T14:38:14.231357+05:30
Vadodara,Gujarat,22.3072,73.1812,37.3,29,0.0,1002.6,8.05,44.3,66,70.5,26.0,1.6,164.0,130.0,4.8,0,5,7,1,2026-05-05T14:38:14.231390+05:30
Rajkot,Gujarat,22.3039,70.8022,40.5,15,0.0,992.0,7.7,51.8,62,117.3,26.5,1.0,142.0,146.0,5.8,0,5,10,0,2026-05-05T14:38:14.231401+05:30
Thane,Maharashtra,19.2183,72.9781,34.6,48,0.0,1006.1,7.85,38.9,68,80.6,29.9,4.0,182.0,113.0,22.4,0,5,4,1,2026-05-05T14:38:14.231409+05:30
Nagpur,Maharashtra,21.1458,79.0882,40.6,14,0.0,970.3,8.9,34.9,109,36.0,18.1,4.1,195.0,169.0,18.5,0,5,10,0,2026-05-05T14:38:14.231417+05:30
Nashik,Maharashtra,19.9975,73.7898,36.0,20,0.0,944.7,8.2,44.6,60,65.7,21.0,1.1,160.0,111.0,1.8,0,5,10,0,2026-05-05T14:38:14.231424+05:30
Aurangabad,Maharashtra,19.8762,75.3433,37.5,14,0.0,942.9,9.0,42.8,61,67.8,18.2,0.9,154.0,124.0,2.4,0,5,10,0,2026-05-05T14:38:14.231431+05:30
Solapur,Maharashtra,17.6599,75.9064,39.5,14,0.0,954.8,9.1,41.0,54,67.5,17.2,1.1,151.0,130.0,2.7,0,5,10,0,2026-05-05T14:38:14.231439+05:30
Kolhapur,Maharashtra,16.705,74.2433,36.7,20,0.0,946.7,8.95,45.7,58,65.9,17.5,1.4,153.0,104.0,1.2,0,5,10,0,2026-05-05T14:38:14.231447+05:30
Goa,Goa,15.2993,74.124,35.5,47,0.0,996.0,8.95,36.0,69,41.2,17.2,0.6,140.0,77.0,1.0,0,5,10,1,2026-05-05T14:38:14.231455+05:30
Jodhpur,Rajasthan,26.2389,73.0243,36.8,27,0.0,982.4,8.3,47.5,92,140.2,30.6,0.9,165.0,148.0,5.7,0,5,10,0,2026-05-05T14:38:14.231462+05:30
Udaipur,Rajasthan,24.5854,73.7125,32.8,38,0.0,946.5,8.75,50.8,70,118.0,27.0,0.8,162.0,142.0,4.3,0,5,7,1,2026-05-05T14:38:14.231469+05:30
Kota,Rajasthan,25.2138,75.8648,36.5,24,0.0,977.9,8.3,28.8,106,88.7,36.6,1.4,230.0,176.0,17.9,0,5,10,0,2026-05-05T14:38:14.231476+05:30
Bikaner,Rajasthan,28.0229,73.3119,35.5,22,0.0,982.6,8.2,28.8,79,90.1,22.3,0.6,187.0,148.0,7.3,0,5,10,0,2026-05-05T14:38:14.231483+05:30
Ajmer,Rajasthan,26.4499,74.6399,34.8,22,0.0,954.9,8.2,35.3,89,70.5,20.5,0.8,186.0,151.0,5.4,0,5,7,0,2026-05-05T14:38:14.231490+05:30
Gwalior,Madhya Pradesh,26.2183,78.1828,25.6,76,0.0,984.6,8.1,49.3,108,69.6,35.6,1.0,328.0,163.0,6.4,7,5,7,1,2026-05-05T14:38:14.231498+05:30
Indore,Madhya Pradesh,22.7196,75.8577,36.8,20,0.0,947.5,8.6,46.8,74,56.9,17.4,1.0,180.0,132.0,2.7,0,5,10,0,2026-05-05T14:38:14.231505+05:30
Bhopal,Madhya Pradesh,23.2599,77.4126,37.8,18,0.0,952.3,8.6,37.4,98,61.9,20.8,0.6,243.0,133.0,3.2,0,5,10,0,2026-05-05T14:38:14.231512+05:30
Jabalpur,Madhya Pradesh,23.1815,79.9864,37.9,23,0.0,959.3,8.3,43.9,137,46.2,26.5,1.6,219.0,180.0,6.9,0,5,10,0,2026-05-05T14:38:14.231519+05:30
Ujjain,Madhya Pradesh,23.1765,75.7885,37.2,21,0.0,953.1,8.55,44.6,78,56.1,17.7,0.8,166.0,127.0,3.3,0,5,10,0,2026-05-05T14:38:14.231527+05:30
Visakhapatnam,Andhra Pradesh,17.6868,83.2185,33.0,54,0.0,1002.2,9.2,36.7,79,27.0,19.6,11.9,331.0,69.0,13.9,0,5,4,1,2026-05-05T14:38:14.231534+05:30
Vijayawada,Andhra Pradesh,16.5062,80.648,36.5,37,0.0,1000.2,9.2,41.4,75,43.4,28.2,1.9,201.0,125.0,4.8,0,5,7,1,2026-05-05T14:38:14.231541+05:30
Guntur,Andhra Pradesh,16.3067,80.4365,36.6,37,0.0,1001.4,9.2,39.2,76,45.6,29.5,1.4,216.0,131.0,3.1,0,5,7,1,2026-05-05T14:38:14.231548+05:30
Nellore,Andhra Pradesh,14.4426,79.9865,34.5,54,0.0,1003.2,8.9,40.3,98,48.2,32.7,1.4,243.0,166.0,8.1,0,5,4,1,2026-05-05T14:38:14.231556+05:30
Kurnool,Andhra Pradesh,15.8281,78.0373,41.8,13,0.0,973.3,9.2,43.9,77,48.0,17.2,1.1,192.0,149.0,5.5,0,5,10,0,2026-05-05T14:38:14.231564+05:30
Kakinada,Andhra Pradesh,16.9891,82.2475,33.5,57,0.0,1005.6,9.15,32.8,69,28.1,18.2,0.8,202.0,85.0,1.0,0,5,4,1,2026-05-05T14:38:14.231571+05:30
Tirupati,Andhra Pradesh,13.6288,79.4192,38.2,25,0.0,987.9,9.25,31.7,103,63.1,36.0,1.6,225.0,173.0,5.7,0,5,10,0,2026-05-05T14:38:14.231578+05:30
Warangal,Telangana,17.9689,79.5941,39.5,20,0.0,975.9,9.15,53.3,86,43.2,24.4,1.4,213.0,151.0,6.0,0,5,10,0,2026-05-05T14:38:14.231584+05:30
Nizamabad,Telangana,18.6725,78.0941,39.0,16,0.0,962.4,9.1,32.8,94,42.4,16.6,1.3,200.0,149.0,6.5,0,5,10,0,2026-05-05T14:38:14.231592+05:30
Mysore,Karnataka,12.2958,76.6396,32.7,40,0.0,927.2,9.35,31.0,67,37.4,16.2,1.9,176.0,143.0,1.9,0,5,7,1,2026-05-05T14:38:14.231598+05:30
Mangalore,Karnataka,12.9141,74.856,33.2,55,0.0,1004.3,8.6,50.0,62,42.5,16.6,0.8,132.0,78.0,0.9,0,5,4,1,2026-05-05T14:38:14.231605+05:30
Hubli-Dharwad,Karnataka,15.3647,75.124,36.8,20,0.0,939.2,9.2,55.4,57,54.4,15.2,1.3,168.0,113.0,1.0,0,5,10,0,2026-05-05T14:38:14.231612+05:30
Belgaum,Karnataka,15.8497,74.4977,34.4,23,0.0,925.2,9.2,54.7,58,62.9,16.5,1.3,147.0,99.0,1.6,0,5,7,0,2026-05-05T14:38:17.646104+05:30
Coimbatore,Tamil Nadu,11.0168,76.9558,33.6,39,0.0,959.7,9.25,38.2,57,32.2,14.0,2.0,202.0,127.0,2.5,0,5,7,1,2026-05-05T14:38:17.646135+05:30
Madurai,Tamil Nadu,9.9252,78.1198,39.2,28,0.0,989.0,4.45,35.3,113,56.6,29.5,2.1,248.0,183.0,3.6,0,5,6,1,2026-05-05T14:38:17.646146+05:30
Trichy,Tamil Nadu,10.7905,78.7047,37.1,35,0.0,996.2,8.65,34.6,84,46.3,21.2,1.7,206.0,156.0,4.5,0,5,10,1,2026-05-05T14:38:17.646155+05:30
Salem,Tamil Nadu,11.6643,78.146,36.3,32,0.0,974.3,9.0,41.0,97,57.6,26.5,2.7,183.0,178.0,11.0,0,5,10,1,2026-05-05T14:38:17.646163+05:30
Tirunelveli,Tamil Nadu,8.7139,77.7567,31.9,55,0.2,1000.1,8.75,37.8,77,40.9,17.4,1.3,195.0,107.0,1.1,3,5,4,1,2026-05-05T14:38:17.646171+05:30
Vellore,Tamil Nadu,12.9165,79.1325,37.1,29,0.0,981.5,8.35,34.2,112,67.3,31.8,1.5,225.0,170.0,5.3,0,5,10,0,2026-05-05T14:38:17.646179+05:30
Erode,Tamil Nadu,11.341,77.7172,38.1,27,0.0,985.5,8.95,59.0,71,51.5,21.0,2.1,221.0,156.0,2.3,0,5,10,0,2026-05-05T14:38:17.646187+05:30
Kochi,Kerala,9.9312,76.2673,30.5,73,0.0,1006.4,3.95,27.7,69,29.2,14.1,2.4,147.0,105.0,1.5,3,5,0,1,2026-05-05T14:38:17.646195+05:30
Thiruvananthapuram,Kerala,8.5241,76.9366,30.0,71,0.0,1005.8,8.8,32.8,71,42.7,18.2,2.4,138.0,101.0,2.4,7,5,4,1,2026-05-05T14:38:17.646203+05:30
Kozhikode,Kerala,11.2588,75.7804,29.8,74,0.0,1006.5,8.75,39.6,60,42.6,15.3,0.4,142.0,79.0,0.8,7,5,4,1,2026-05-05T14:38:17.646210+05:30
Thrissur,Kerala,10.5276,76.2144,31.5,65,0.0,1004.8,5.7,28.8,63,28.7,13.6,1.4,143.0,102.0,1.2,3,5,0,1,2026-05-05T14:38:17.646217+05:30
Kannur,Kerala,11.8745,75.3704,30.9,70,0.0,1005.5,8.7,42.1,63,39.1,16.4,0.9,138.0,86.0,1.0,3,5,4,1,2026-05-05T14:38:17.646224+05:30
Patna,Bihar,25.5941,85.1376,31.2,52,0.0,999.7,8.7,29.2,124,55.3,45.3,3.4,327.0,181.0,7.1,0,5,7,1,2026-05-05T14:38:17.646231+05:30
Gaya,Bihar,24.7914,85.0002,32.3,43,0.0,993.4,8.75,31.7,108,67.3,45.8,2.5,308.0,191.0,9.0,0,5,7,1,2026-05-05T14:38:17.646239+05:30
Muzaffarpur,Bihar,26.1209,85.3647,31.0,53,0.0,1000.3,8.6,30.6,111,43.9,37.3,3.2,285.0,179.0,8.7,0,5,4,1,2026-05-05T14:38:17.646246+05:30
Bhagalpur,Bihar,25.2425,87.0117,31.0,56,0.0,1001.4,8.7,25.9,122,39.8,31.8,3.2,249.0,169.0,8.2,0,5,4,1,2026-05-05T14:38:17.646252+05:30
Ranchi,Jharkhand,23.3441,85.3096,26.2,65,0.1,938.4,9.2,33.5,139,72.6,37.8,1.4,244.0,178.0,14.4,10,5,7,1,2026-05-05T14:38:17.646259+05:30
Jamshedpur,Jharkhand,22.8046,86.2029,32.2,51,0.0,990.8,9.0,29.5,81,33.8,26.2,2.7,233.0,158.0,10.9,0,5,7,1,2026-05-05T14:38:17.646266+05:30
Dhanbad,Jharkhand,23.7957,86.4304,25.0,80,0.0,981.3,9.0,29.5,136,64.0,52.5,15.2,371.0,182.0,48.6,7,5,7,1,2026-05-05T14:38:17.646273+05:30
Bokaro,Jharkhand,23.6693,86.1511,24.2,86,0.0,984.5,8.85,34.2,149,82.7,61.9,15.5,1018.0,211.0,57.0,3,5,7,1,2026-05-05T14:38:17.646281+05:30
Bhubaneswar,Odisha,20.2961,85.8245,28.8,75,0.0,1002.3,9.1,37.1,56,16.8,10.4,2.2,189.0,91.0,2.8,7,5,4,1,2026-05-05T14:38:17.646288+05:30
Cuttack,Odisha,20.4625,85.8828,28.2,75,0.1,1004.4,9.15,30.2,56,16.8,10.4,2.2,221.0,91.0,2.8,10,5,4,1,2026-05-05T14:38:17.646295+05:30
Rourkela,Odisha,22.2604,84.8536,33.0,47,0.0,984.1,9.0,43.6,130,66.1,42.3,2.1,377.0,184.0,30.4,0,5,7,1,2026-05-05T14:38:17.646302+05:30
Raipur,Chhattisgarh,21.2514,81.6296,38.3,23,0.0,972.2,8.95,37.4,124,52.3,31.8,4.7,340.0,204.0,7.0,0,5,10,0,2026-05-05T14:38:17.646309+05:30
Bhilai,Chhattisgarh,21.1938,81.3509,38.5,25,0.0,972.6,8.95,41.4,117,44.6,26.7,4.9,429.0,180.0,6.2,0,5,10,0,2026-05-05T14:38:17.646317+05:30
Guwahati,Assam,26.1158,91.7086,29.3,59,0.0,1000.4,8.65,23.8,77,44.5,23.1,1.1,249.0,136.0,1.2,4,5,4,1,2026-05-05T14:38:17.646323+05:30
Agartala,Tripura,23.8315,91.2868,30.0,67,0.0,1005.3,8.75,24.1,134,29.8,21.2,4.1,198.0,186.0,1.7,7,5,4,1,2026-05-05T14:38:17.646330+05:30
Shillong,Meghalaya,25.5788,91.8933,21.9,60,0.1,857.6,8.4,25.2,79,57.4,27.4,1.1,222.0,140.0,1.8,3,5,7,0,2026-05-05T14:38:17.646337+05:30
Imphal,Manipur,24.817,93.9368,28.6,44,0.0,922.5,9.2,28.4,95,46.0,21.4,1.0,217.0,122.0,1.2,4,5,7,0,2026-05-05T14:38:17.646344+05:30
Aizawl,Mizoram,23.7271,92.7176,23.8,65,0.2,892.8,9.05,27.0,78,34.3,18.5,0.7,177.0,106.0,0.9,6,5,7,1,2026-05-05T14:38:17.646351+05:30
Kohima,Nagaland,25.6701,94.1077,23.2,61,0.0,855.7,9.15,31.3,67,33.3,17.5,0.8,230.0,124.0,0.8,3,5,7,0,2026-05-05T14:38:17.646359+05:30
Gangtok,Sikkim,27.3314,88.6138,16.9,92,0.3,837.7,9.0,33.5,76,24.6,14.4,1.2,238.0,130.0,0.6,6,10,7,0,2026-05-05T14:38:17.646387+05:30
Siliguri,West Bengal,26.7271,88.3953,28.9,60,0.1,993.0,8.6,29.5,88,40.7,26.5,1.7,324.0,140.0,1.2,7,5,7,1,2026-05-05T14:38:21.005140+05:30
Durgapur,West Bengal,23.5204,87.3119,29.2,71,0.0,995.5,8.7,28.1,103,35.2,30.5,10.4,267.0,145.0,30.8,7,5,7,1,2026-05-05T14:38:21.005173+05:30
Asansol,West Bengal,23.6739,86.9524,28.9,69,0.0,994.1,8.3,32.0,107,42.3,36.2,10.4,427.0,160.0,36.2,7,5,7,1,2026-05-05T14:38:21.005183+05:30
Pondicherry,Puducherry,11.9139,79.8145,31.5,67,0.0,1006.0,8.9,41.8,81,51.3,34.0,1.9,279.0,169.0,10.6,3,5,4,1,2026-05-05T14:38:21.005192+05:30
Port Blair,Andaman and Nicobar Islands,11.6234,92.7265,26.1,89,0.0,1006.8,8.4,38.9,29,5.1,3.9,0.5,141.0,65.0,0.1,7,5,4,1,2026-05-05T14:38:21.005200+05:30
Haridwar,Uttarakhand,29.9457,78.1642,25.5,59,0.0,977.6,6.2,50.4,98,62.4,19.2,1.2,221.0,169.0,6.7,4,5,7,1,2026-05-05T14:38:21.005208+05:30
Rishikesh,Uttarakhand,30.0869,78.2676,28.5,38,0.0,969.5,6.6,49.3,101,50.2,15.4,0.9,185.0,165.0,4.8,4,5,7,0,2026-05-05T14:38:21.005216+05:30
Nainital,Uttarakhand,29.3919,79.4542,15.0,60,0.0,807.4,6.55,31.0,99,37.7,14.6,1.1,200.0,162.0,3.1,0,5,7,0,2026-05-05T14:38:21.005224+05:30
Mussoorie,Uttarakhand,30.4599,78.0664,14.7,66,0.2,804.6,6.2,37.1,97,44.1,12.5,1.5,179.0,158.0,4.6,6,5,7,0,2026-05-05T14:38:21.005232+05:30
Dharamshala,Himachal Pradesh,32.219,76.3234,20.4,46,0.0,871.7,6.7,45.0,109,49.1,12.4,0.5,188.0,152.0,0.7,0,5,7,0,2026-05-05T14:38:21.005239+05:30
Dalhousie,Himachal Pradesh,32.5387,75.971,16.5,49,0.0,807.5,6.15,46.8,106,89.2,20.4,1.1,198.0,157.0,1.7,0,5,7,0,2026-05-05T14:38:21.005246+05:30
Patiala,Punjab,30.3398,76.3869,30.9,35,0.0,980.3,7.3,66.6,215,218.4,34.9,1.5,221.0,175.0,7.4,0,5,7,0,2026-05-05T14:38:21.005254+05:30
Bhatinda,Punjab,30.211,74.9455,32.4,32,0.0,985.6,8.1,37.8,449,311.1,55.6,2.4,249.0,192.0,13.6,0,5,7,0,2026-05-05T14:38:21.005260+05:30
Rohtak,Haryana,28.8955,76.6066,33.2,31,0.0,983.0,7.55,50.4,230,304.5,62.4,3.1,250.0,213.0,17.2,0,5,7,0,2026-05-05T14:38:21.005267+05:30
Panipat,Haryana,29.3909,76.9635,29.7,43,0.0,982.6,6.65,45.7,581,461.0,72.6,3.8,243.0,214.0,22.5,4,5,7,0,2026-05-05T14:38:21.005274+05:30
Mathura,Uttar Pradesh,27.4924,77.6737,30.6,50,0.0,988.1,7.65,44.3,230,224.9,45.2,1.7,284.0,177.0,6.3,0,5,7,1,2026-05-05T14:38:21.005280+05:30
Vrindavan,Uttar Pradesh,27.5823,77.7027,31.0,46,0.0,988.5,7.6,36.0,230,224.9,45.2,1.7,273.0,177.0,6.3,0,5,7,1,2026-05-05T14:38:21.005287+05:30
Ayodhya,Uttar Pradesh,26.7922,82.1998,29.4,56,0.0,996.4,4.65,23.4,86,45.4,38.4,2.5,318.0,164.0,5.8,4,5,3,1,2026-05-05T14:38:21.005294+05:30
Ratlam,Madhya Pradesh,23.3315,75.0367,34.8,28,0.0,954.7,8.5,39.2,67,53.8,17.6,0.6,154.0,124.0,3.5,0,5,7,0,2026-05-05T14:38:21.005301+05:30
Sagar,Madhya Pradesh,23.8388,78.7378,30.2,43,0.0,950.0,8.65,48.2,112,58.6,35.6,1.4,273.0,158.0,9.7,0,5,7,1,2026-05-05T14:38:21.005308+05:30
Satna,Madhya Pradesh,24.6005,80.8322,30.9,45,0.0,970.6,8.7,39.2,126,68.2,39.2,1.6,210.0,178.0,7.7,0,5,7,1,2026-05-05T14:38:21.005315+05:30
Akola,Maharashtra,20.7002,77.0082,39.8,15,0.0,972.6,8.9,36.4,64,45.9,17.3,1.3,155.0,138.0,8.4,0,5,10,0,2026-05-05T14:38:21.005323+05:30
Amravati,Maharashtra,20.9374,77.7796,39.6,14,0.0,965.0,8.85,32.4,78,50.2,18.5,1.5,156.0,143.0,6.0,0,5,10,0,2026-05-05T14:38:21.005331+05:30
Latur,Maharashtra,18.4088,76.5604,37.5,16,0.0,938.5,9.05,38.5,63,62.2,19.2,1.0,154.0,136.0,7.5,0,5,10,0,2026-05-05T14:38:21.005338+05:30
Nanded,Maharashtra,19.1383,77.3091,40.1,17,0.0,966.1,8.95,33.1,65,50.9,17.8,1.1,164.0,135.0,4.2,0,5,10,0,2026-05-05T14:38:21.005345+05:30
Gulbarga,Karnataka,17.3297,76.8343,40.5,12,0.0,956.0,9.1,37.1,54,56.7,17.6,1.5,163.0,141.0,4.4,0,5,10,0,2026-05-05T14:38:21.005351+05:30
Bidar,Karnataka,17.9104,77.5199,37.8,17,0.0,934.3,9.15,32.4,67,46.3,17.4,1.4,159.0,142.0,5.6,0,5,10,0,2026-05-05T14:38:21.005358+05:30
Hospet,Karnataka,15.2689,76.3909,36.7,21,0.0,953.8,9.25,36.4,62,51.1,15.1,1.6,168.0,130.0,1.5,0,5,10,0,2026-05-05T14:38:21.005385+05:30
Tirupur,Tamil Nadu,11.1085,77.3411,37.0,31,0.0,972.2,9.2,45.7,70,44.9,18.7,2.1,212.0,150.0,2.8,0,5,10,1,2026-05-05T14:38:21.005393+05:30
Alappuzha,Kerala,9.4981,76.3388,30.8,69,0.0,1006.4,7.75,33.5,70,32.2,15.5,2.2,131.0,114.0,2.6,3,5,4,1,2026-05-05T14:38:21.005400+05:30
Munnar,Kerala,10.0889,77.0595,21.0,86,0.0,856.4,7.25,24.5,58,35.0,15.3,1.8,192.0,114.0,1.2,3,5,7,1,2026-05-05T14:38:21.005408+05:30
Silchar,Assam,24.8333,92.7789,32.4,51,0.0,1003.0,8.85,38.2,99,42.1,25.2,1.4,220.0,135.0,3.6,0,5,4,1,2026-05-05T14:38:21.005415+05:30
Dibrugarh,Assam,27.4728,94.912,29.3,61,0.0,993.9,8.45,34.6,57,23.1,14.3,1.4,219.0,127.0,1.1,7,5,7,1,2026-05-05T14:38:21.005422+05:30
