city,state,latitude,longitude,temp,humidity,rain,pressure,uv_index,wind_gusts,aqi,pm10,pm2_5,no2,co,o3,so2,mosquito_risk,arthritis_risk,migraine_risk,frizz_risk,updated_at
Delhi,Delhi,28.6139,77.209,37.5,18,0.0,978.2,7.7,42.1,419,763.7,127.6,18.7,399.0,96.0,10.9,0,5,10,0,2026-05-16T19:07:44.994269+05:30
Mumbai,Maharashtra,19.076,72.8777,30.0,74,0.0,1003.4,7.85,50.0,60,42.1,16.6,8.7,210.0,63.0,4.7,7,5,4,1,2026-05-16T19:07:44.994319+05:30
Bangalore,Karnataka,12.9716,77.5946,26.4,67,0.0,908.6,8.8,41.0,151,111.1,71.9,44.1,376.0,94.0,15.5,7,5,7,1,2026-05-16T19:07:44.994333+05:30
Hyderabad,Telangana,17.385,78.4867,33.5,44,0.0,949.5,9.3,41.0,152,59.1,40.7,8.3,379.0,136.0,6.6,0,5,7,1,2026-05-16T19:07:44.994344+05:30
Chennai,Tamil Nadu,13.0827,80.2707,30.0,78,0.0,1002.6,8.85,33.5,42,11.3,7.7,8.0,201.0,84.0,9.9,7,5,4,1,2026-05-16T19:07:44.994352+05:30
Kolkata,West Bengal,22.5726,88.3639,27.6,92,0.4,1002.6,9.0,33.5,60,23.0,14.6,6.0,269.0,55.0,5.2,10,5,4,1,2026-05-16T19:07:44.994360+05:30
Pune,Maharashtra,18.5204,73.8567,33.4,43,0.0,943.8,8.5,40.3,101,31.5,20.7,5.3,210.0,135.0,9.1,0,5,7,1,2026-05-16T19:07:44.994367+05:30
Ahmedabad,Gujarat,23.0225,72.5714,39.2,18,0.0,996.2,8.15,32.4,57,52.5,17.2,5.5,205.0,90.0,3.2,0,5,10,0,2026-05-16T19:07:44.994374+05:30
Jaipur,Rajasthan,26.9124,75.7873,37.0,17,0.0,955.6,8.25,35.6,165,163.4,37.0,10.9,282.0,108.0,5.6,0,5,10,0,2026-05-16T19:07:44.994384+05:30
Lucknow,Uttar Pradesh,26.8467,80.9462,35.8,28,0.0,987.8,8.2,35.6,154,163.9,55.3,12.8,298.0,106.0,9.8,0,5,10,0,2026-05-16T19:07:44.994390+05:30
Kanpur,Uttar Pradesh,26.4499,80.3319,36.4,26,0.0,986.1,8.2,36.0,151,314.8,66.8,9.2,267.0,108.0,8.2,0,5,10,0,2026-05-16T19:07:44.994397+05:30
Chandigarh,Chandigarh,30.7333,76.7794,31.6,32,0.0,964.1,7.7,36.7,143,40.4,22.4,7.8,419.0,138.0,8.2,0,5,7,0,2026-05-16T19:07:44.994403+05:30
Srinagar,Jammu and Kashmir,34.0837,74.7973,18.9,67,0.0,842.2,8.9,27.4,95,16.9,12.9,9.4,687.0,102.0,2.2,3,5,7,0,2026-05-16T19:07:44.994410+05:30
Jammu,Jammu and Kashmir,32.7266,74.857,32.2,38,0.0,968.5,8.45,28.4,122,28.7,17.3,13.5,363.0,125.0,3.7,0,5,7,0,2026-05-16T19:07:44.994416+05:30
Amritsar,Punjab,31.634,74.8723,32.2,42,0.0,976.2,8.35,28.4,156,50.8,25.8,12.4,408.0,136.0,8.2,0,5,7,1,2026-05-16T19:07:44.994422+05:30
Ludhiana,Punjab,30.901,75.8573,33.5,30,0.0,974.1,7.95,42.8,124,66.4,27.1,6.8,321.0,129.0,5.1,0,5,7,0,2026-05-16T19:07:44.994429+05:30
Jalandhar,Punjab,31.326,75.5762,32.8,36,0.0,975.1,8.15,36.4,141,65.4,29.2,8.4,397.0,138.0,6.6,0,5,7,0,2026-05-16T19:07:44.994436+05:30
Dehradun,Uttarakhand,30.6284,78.0322,18.8,65,0.0,827.9,8.1,37.4,89,43.3,19.7,12.2,185.0,109.0,3.4,3,5,7,0,2026-05-16T19:07:44.994442+05:30
Shimla,Himachal Pradesh,31.1048,77.1734,16.4,52,0.0,783.0,8.2,45.0,93,47.8,19.3,4.4,195.0,129.0,3.2,0,5,7,0,2026-05-16T19:07:44.994465+05:30
Manali,Himachal Pradesh,32.2396,77.1887,13.5,72,0.1,816.1,9.9,38.2,128,20.7,12.0,16.6,184.0,141.0,0.4,6,5,7,0,2026-05-16T19:07:44.994472+05:30
Gurgaon,Haryana,28.4595,77.0266,35.0,25,0.0,976.7,7.8,41.0,665,1039.4,165.3,22.2,431.0,97.0,11.1,0,5,7,0,2026-05-16T19:07:44.994479+05:30
Noida,Uttar Pradesh,28.5355,77.391,35.2,24,0.0,979.2,7.7,31.3,665,1039.4,165.3,22.2,628.0,97.0,11.1,0,5,10,0,2026-05-16T19:07:44.994497+05:30
Ghaziabad,Uttar Pradesh,28.6692,77.4538,34.0,28,0.0,977.4,7.7,38.9,197,493.6,98.7,14.9,283.0,103.0,12.3,0,5,7,0,2026-05-16T19:07:44.994505+05:30
Faridabad,Haryana,28.4089,77.3178,37.0,19,0.0,978.7,7.75,41.0,665,1039.4,165.3,22.2,452.0,97.0,11.1,0,5,10,0,2026-05-16T19:07:44.994512+05:30
Meerut,Uttar Pradesh,28.9845,77.7064,33.8,35,0.0,976.2,7.6,41.4,197,493.6,98.7,14.9,326.0,103.0,12.3,0,5,7,1,2026-05-16T19:07:44.994519+05:30
Agra,Uttar Pradesh,27.1767,78.0081,36.6,25,0.0,982.2,8.05,32.4,438,555.1,96.6,14.1,279.0,106.0,8.6,0,5,10,0,2026-05-16T19:07:44.994525+05:30
Varanasi,Uttar Pradesh,25.3176,82.9739,36.8,25,0.0,991.7,8.7,40.3,157,146.2,54.5,16.6,342.0,122.0,13.9,0,5,10,0,2026-05-16T19:07:44.994532+05:30
Prayagraj,Uttar Pradesh,25.4358,81.8463,36.6,26,0.0,989.9,8.6,38.5,155,121.5,46.7,13.6,317.0,109.0,11.7,0,5,10,0,2026-05-16T19:07:44.994542+05:30
Gorakhpur,Uttar Pradesh,26.7606,83.3732,32.3,46,0.0,991.1,8.6,31.3,155,91.7,41.9,10.3,350.0,126.0,11.1,0,5,7,1,2026-05-16T19:07:44.994549+05:30
Bareilly,Uttar Pradesh,28.367,79.4304,31.0,46,0.0,981.2,8.0,29.2,154,57.4,44.5,8.8,308.0,143.0,11.9,0,5,7,1,2026-05-16T19:07:44.994556+05:30
Aligarh,Uttar Pradesh,27.8974,78.088,32.9,38,0.0,980.3,7.85,35.6,267,678.0,125.7,14.4,398.0,126.0,12.5,0,5,7,1,2026-05-16T19:07:44.994562+05:30
Moradabad,Uttar Pradesh,28.8386,78.7733,33.0,35,0.0,978.1,7.85,46.8,154,115.7,53.7,14.1,356.0,111.0,9.7,0,5,7,0,2026-05-16T19:07:44.994568+05:30
Saharanpur,Uttar Pradesh,29.9637,77.546,31.4,36,0.0,970.3,7.4,40.7,152,124.8,42.0,9.9,281.0,119.0,9.7,0,5,7,0,2026-05-16T19:07:44.994573+05:30
Jhansi,Uttar Pradesh,25.4484,78.5685,36.8,24,0.0,972.7,8.5,23.0,102,58.9,24.9,4.2,247.0,117.0,7.5,0,5,10,0,2026-05-16T19:07:48.327547+05:30
Surat,Gujarat,21.1702,72.8311,32.8,60,0.0,1000.8,7.75,36.7,81,59.6,36.1,32.7,305.0,67.0,69.4,0,5,4,1,2026-05-16T19:07:48.327580+05:30
Vadodara,Gujarat,22.3072,73.1812,39.0,18,0.0,998.0,8.1,31.7,84,59.8,23.3,8.5,211.0,121.0,9.6,0,5,10,0,2026-05-16T19:07:48.327590+05:30
Rajkot,Gujarat,22.3039,70.8022,36.2,29,0.0,989.5,7.75,38.5,52,43.5,16.3,2.8,137.0,95.0,4.8,0,5,10,0,2026-05-16T19:07:48.327598+05:30
Thane,Maharashtra,19.2183,72.9781,30.9,69,0.0,1002.7,7.9,44.3,60,42.1,16.6,8.7,176.0,63.0,4.7,3,5,4,1,2026-05-16T19:07:48.327606+05:30
Nagpur,Maharashtra,21.1458,79.0882,39.5,21,0.0,967.4,8.95,38.2,174,57.7,33.1,21.7,210.0,141.0,27.6,0,5,10,0,2026-05-16T19:07:48.327614+05:30
Nashik,Maharashtra,19.9975,73.7898,33.7,38,0.0,941.7,8.2,37.4,50,37.4,19.5,3.0,179.0,123.0,5.5,0,5,7,1,2026-05-16T19:07:48.327621+05:30
Aurangabad,Maharashtra,19.8762,75.3433,36.2,24,0.0,940.2,9.1,37.1,65,31.4,17.2,4.2,209.0,111.0,3.8,0,5,10,0,2026-05-16T19:07:48.327629+05:30
Solapur,Maharashtra,17.6599,75.9064,36.8,24,0.0,951.7,8.45,36.4,124,27.8,18.9,10.3,249.0,129.0,6.8,0,5,10,0,2026-05-16T19:07:48.327637+05:30
Kolhapur,Maharashtra,16.705,74.2433,30.0,67,0.0,943.3,8.55,42.1,123,36.1,24.2,4.6,159.0,129.0,6.2,7,5,7,1,2026-05-16T19:07:48.327645+05:30
Goa,Goa,15.2993,74.124,30.4,74,0.0,993.7,8.9,36.4,65,25.6,14.8,1.8,135.0,57.0,1.1,3,5,7,1,2026-05-16T19:07:48.327652+05:30
Jodhpur,Rajasthan,26.2389,73.0243,38.8,18,0.0,977.9,8.4,31.0,120,143.4,29.5,4.6,184.0,97.0,2.5,0,5,10,0,2026-05-16T19:07:48.327659+05:30
Udaipur,Rajasthan,24.5854,73.7125,34.9,25,0.0,942.6,8.85,31.3,51,39.1,14.2,2.0,147.0,96.0,2.6,0,5,7,0,2026-05-16T19:07:48.327667+05:30
Kota,Rajasthan,25.2138,75.8648,39.0,16,0.0,972.9,8.45,29.5,77,81.0,27.6,6.3,168.0,114.0,5.6,0,5,10,0,2026-05-16T19:07:48.327674+05:30
Bikaner,Rajasthan,28.0229,73.3119,38.2,18,0.0,976.9,8.4,25.9,96,141.6,34.6,3.0,208.0,100.0,3.1,0,5,10,0,2026-05-16T19:07:48.327681+05:30
Ajmer,Rajasthan,26.4499,74.6399,35.3,22,0.0,950.7,8.4,34.2,77,98.3,26.7,6.7,198.0,105.0,2.9,0,5,10,0,2026-05-16T19:07:48.327688+05:30
Gwalior,Madhya Pradesh,26.2183,78.1828,37.9,18,0.0,977.8,8.25,36.7,110,108.5,34.7,6.1,212.0,113.0,5.6,0,5,10,0,2026-05-16T19:07:48.327696+05:30
Indore,Madhya Pradesh,22.7196,75.8577,36.1,18,0.0,944.1,8.7,37.4,71,23.6,11.9,2.9,215.0,114.0,2.7,0,5,10,0,2026-05-16T19:07:48.327703+05:30
Bhopal,Madhya Pradesh,23.2599,77.4126,38.0,16,0.0,948.7,8.7,39.6,81,27.2,14.2,4.1,217.0,108.0,3.6,0,5,10,0,2026-05-16T19:07:48.327710+05:30
Jabalpur,Madhya Pradesh,23.1815,79.9864,35.8,26,0.0,956.4,8.9,37.8,120,47.6,26.3,7.6,236.0,118.0,5.0,0,5,10,0,2026-05-16T19:07:48.327717+05:30
Ujjain,Madhya Pradesh,23.1765,75.7885,36.0,17,0.0,949.6,8.65,38.2,61,26.0,12.2,1.5,179.0,109.0,2.2,0,5,10,0,2026-05-16T19:07:48.327725+05:30
Visakhapatnam,Andhra Pradesh,17.6868,83.2185,30.3,78,0.0,999.9,9.15,39.6,62,16.5,12.6,18.0,294.0,55.0,35.6,3,5,7,1,2026-05-16T19:07:48.327732+05:30
Vijayawada,Andhra Pradesh,16.5062,80.648,34.3,52,0.0,998.1,8.85,32.4,54,14.3,10.9,5.2,171.0,76.0,6.2,0,5,7,1,2026-05-16T19:07:48.327740+05:30
Guntur,Andhra Pradesh,16.3067,80.4365,32.9,57,0.0,999.2,8.85,40.7,59,13.9,10.2,3.9,205.0,76.0,2.7,0,5,7,1,2026-05-16T19:07:48.327747+05:30
Nellore,Andhra Pradesh,14.4426,79.9865,30.7,73,0.0,1001.3,8.25,33.8,46,12.5,8.5,2.4,160.0,94.0,3.7,3,5,4,1,2026-05-16T19:07:48.327755+05:30
Kurnool,Andhra Pradesh,15.8281,78.0373,31.1,59,0.0,972.9,8.95,51.8,136,61.0,38.0,2.9,214.0,119.0,4.8,0,5,7,1,2026-05-16T19:07:48.327763+05:30
Kakinada,Andhra Pradesh,16.9891,82.2475,31.0,72,0.0,1003.5,9.15,40.3,36,11.6,7.5,1.9,167.0,70.0,1.2,3,5,4,1,2026-05-16T19:07:48.327770+05:30
Tirupati,Andhra Pradesh,13.6288,79.4192,31.7,52,0.0,986.5,9.25,33.1,63,18.1,14.7,7.8,185.0,119.0,11.1,0,5,7,1,2026-05-16T19:07:48.327777+05:30
Warangal,Telangana,17.9689,79.5941,34.7,45,0.0,974.5,9.15,49.3,122,49.7,36.0,4.8,235.0,113.0,6.7,0,5,7,1,2026-05-16T19:07:48.327784+05:30
Nizamabad,Telangana,18.6725,78.0941,35.0,28,0.0,959.2,9.05,33.1,120,34.5,20.3,11.5,227.0,122.0,5.9,0,5,7,0,2026-05-16T19:07:48.327792+05:30
Mysore,Karnataka,12.2958,76.6396,25.4,77,0.0,925.1,7.2,40.0,110,87.1,50.9,14.7,333.0,122.0,6.7,7,5,7,1,2026-05-16T19:07:48.327799+05:30
Mangalore,Karnataka,12.9141,74.856,26.7,97,0.4,1003.5,7.95,35.6,61,28.3,18.6,5.0,291.0,59.0,1.7,10,5,4,1,2026-05-16T19:07:48.327806+05:30
Hubli-Dharwad,Karnataka,15.3647,75.124,25.5,94,0.1,937.1,7.8,46.1,129,27.0,20.1,5.7,252.0,125.0,3.7,10,5,7,1,2026-05-16T19:07:48.327813+05:30
Belgaum,Karnataka,15.8497,74.4977,27.7,71,0.0,922.1,9.2,40.7,100,32.0,20.9,4.9,160.0,109.0,4.2,7,5,7,1,2026-05-16T19:07:51.662116+05:30
Coimbatore,Tamil Nadu,11.0168,76.9558,26.2,78,0.0,957.6,9.0,45.7,91,63.6,36.2,8.4,306.0,106.0,5.2,7,5,7,1,2026-05-16T19:07:51.662147+05:30
Madurai,Tamil Nadu,9.9252,78.1198,31.0,58,0.0,987.9,8.75,26.3,90,25.8,20.2,21.2,408.0,86.0,4.9,0,5,7,1,2026-05-16T19:07:51.662157+05:30
Trichy,Tamil Nadu,10.7905,78.7047,29.1,72,0.0,994.7,3.75,28.8,95,24.4,20.1,14.4,324.0,93.0,5.1,7,5,3,1,2026-05-16T19:07:51.662165+05:30
Salem,Tamil Nadu,11.6643,78.146,31.1,56,0.0,972.2,8.95,27.0,134,83.8,49.7,24.4,402.0,119.0,22.0,0,5,7,1,2026-05-16T19:07:51.662173+05:30
Tirunelveli,Tamil Nadu,8.7139,77.7567,30.2,60,0.0,998.3,8.6,33.1,61,15.1,10.4,5.8,388.0,97.0,1.5,0,5,7,1,2026-05-16T19:07:51.662181+05:30
Vellore,Tamil Nadu,12.9165,79.1325,30.8,60,0.0,979.6,9.25,28.8,84,24.3,16.2,9.5,251.0,91.0,5.3,0,5,7,1,2026-05-16T19:07:51.662188+05:30
Erode,Tamil Nadu,11.341,77.7172,30.3,58,0.0,984.0,4.5,37.4,117,85.2,47.4,28.1,389.0,104.0,7.0,0,5,3,1,2026-05-16T19:07:51.662196+05:30
Kochi,Kerala,9.9312,76.2673,27.2,83,0.0,1005.5,5.5,32.4,67,28.5,21.5,15.3,311.0,81.0,5.3,7,5,0,1,2026-05-16T19:07:51.662203+05:30
Thiruvananthapuram,Kerala,8.5241,76.9366,25.2,95,0.0,1004.6,8.2,50.4,51,12.4,7.1,2.9,264.0,99.0,1.0,7,5,4,1,2026-05-16T19:07:51.662211+05:30
Kozhikode,Kerala,11.2588,75.7804,25.1,94,0.0,1004.9,7.55,46.4,64,16.3,11.1,1.8,222.0,99.0,1.4,7,5,4,1,2026-05-16T19:07:51.662218+05:30
Thrissur,Kerala,10.5276,76.2144,26.1,85,0.0,1003.9,8.0,33.1,73,33.6,25.8,13.6,272.0,81.0,4.0,7,5,4,1,2026-05-16T19:07:51.662227+05:30
Kannur,Kerala,11.8745,75.3704,24.5,98,0.1,1004.5,8.7,36.4,65,23.1,16.8,7.3,282.0,78.0,1.9,6,5,4,1,2026-05-16T19:07:51.662235+05:30
Patna,Bihar,25.5941,85.1376,32.2,61,0.0,994.5,8.8,23.4,162,98.0,57.4,28.8,547.0,105.0,14.1,3,5,7,1,2026-05-16T19:07:51.662242+05:30
Gaya,Bihar,24.7914,85.0002,32.8,44,0.0,988.0,8.85,35.6,152,102.2,44.8,13.2,451.0,110.0,9.0,0,5,7,1,2026-05-16T19:07:51.662249+05:30
Muzaffarpur,Bihar,26.1209,85.3647,31.6,65,0.0,994.4,8.8,33.5,158,94.5,65.0,28.6,521.0,102.0,13.5,3,5,7,1,2026-05-16T19:07:51.662256+05:30
Bhagalpur,Bihar,25.2425,87.0117,30.9,71,0.0,995.6,8.8,29.9,191,68.7,54.1,9.5,390.0,160.0,16.8,3,5,7,1,2026-05-16T19:07:51.662263+05:30
Ranchi,Jharkhand,23.3441,85.3096,28.9,45,0.0,933.9,9.25,36.7,141,61.5,36.1,12.1,399.0,104.0,8.4,4,5,7,0,2026-05-16T19:07:51.662270+05:30
Jamshedpur,Jharkhand,22.8046,86.2029,31.5,57,0.0,985.8,9.1,28.1,166,74.5,51.9,15.0,409.0,120.0,17.2,0,5,7,1,2026-05-16T19:07:51.662277+05:30
Dhanbad,Jharkhand,23.7957,86.4304,31.5,45,0.0,974.5,9.05,22.7,165,106.4,71.5,50.2,496.0,73.0,109.5,0,5,7,1,2026-05-16T19:07:51.662284+05:30
Bokaro,Jharkhand,23.6693,86.1511,31.2,49,0.0,978.3,9.05,31.7,157,105.0,67.5,36.3,433.0,87.0,112.2,0,5,7,1,2026-05-16T19:07:51.662292+05:30
Bhubaneswar,Odisha,20.2961,85.8245,30.1,78,0.0,999.2,9.2,43.6,44,16.4,9.5,4.4,173.0,47.0,2.3,3,5,7,1,2026-05-16T19:07:51.662299+05:30
Cuttack,Odisha,20.4625,85.8828,30.8,74,0.0,1000.9,9.2,42.8,44,16.4,9.5,4.4,196.0,47.0,2.3,3,5,4,1,2026-05-16T19:07:51.662306+05:30
Rourkela,Odisha,22.2604,84.8536,31.3,59,0.0,980.0,8.4,36.4,169,85.0,61.5,16.1,379.0,147.0,13.6,0,5,7,1,2026-05-16T19:07:51.662313+05:30
Raipur,Chhattisgarh,21.2514,81.6296,35.1,44,0.0,970.1,9.05,28.4,185,114.8,82.4,19.9,254.0,158.0,38.6,0,5,10,1,2026-05-16T19:07:51.662320+05:30
Bhilai,Chhattisgarh,21.1938,81.3509,33.6,47,0.0,970.1,9.05,36.4,157,108.3,73.3,28.4,463.0,127.0,42.5,0,5,7,1,2026-05-16T19:07:51.662327+05:30
Guwahati,Assam,26.1158,91.7086,25.1,93,0.1,997.6,8.5,26.3,75,24.3,21.0,7.1,337.0,90.0,3.5,10,5,7,1,2026-05-16T19:07:51.662334+05:30
Agartala,Tripura,23.8315,91.2868,27.6,89,0.1,1002.3,6.8,32.0,70,36.3,28.7,17.4,219.0,72.0,4.6,10,5,4,1,2026-05-16T19:07:51.662342+05:30
Shillong,Meghalaya,25.5788,91.8933,17.7,93,0.0,853.9,8.05,40.3,65,19.9,14.9,5.6,310.0,96.0,3.6,3,10,7,1,2026-05-16T19:07:51.662349+05:30
Imphal,Manipur,24.817,93.9368,23.2,81,0.0,920.4,8.75,31.7,84,28.3,19.2,10.8,331.0,72.0,3.9,3,5,7,1,2026-05-16T19:07:51.662356+05:30
Aizawl,Mizoram,23.7271,92.7176,19.7,97,0.0,889.7,9.15,29.2,58,28.3,17.5,4.2,179.0,81.0,2.7,3,10,7,1,2026-05-16T19:07:51.662364+05:30
Kohima,Nagaland,25.6701,94.1077,17.9,98,0.0,852.3,9.2,25.9,57,27.6,17.8,9.0,282.0,66.0,2.5,3,10,7,1,2026-05-16T19:07:51.662371+05:30
Gangtok,Sikkim,27.3314,88.6138,16.0,93,0.1,833.8,9.1,36.4,91,13.2,11.0,7.8,371.0,111.0,1.5,6,10,7,0,2026-05-16T19:07:51.662378+05:30
Siliguri,West Bengal,26.7271,88.3953,25.4,86,0.0,988.5,8.65,27.7,109,28.9,22.9,9.5,603.0,115.0,3.9,7,5,7,1,2026-05-16T19:07:54.995357+05:30
Durgapur,West Bengal,23.5204,87.3119,29.9,70,0.0,989.8,9.0,33.8,206,110.1,91.5,30.9,609.0,125.0,39.2,7,5,7,1,2026-05-16T19:07:54.995388+05:30
Asansol,West Bengal,23.6739,86.9524,30.9,66,0.0,988.3,9.05,32.0,185,93.1,65.9,41.8,621.0,89.0,28.4,3,5,7,1,2026-05-16T19:07:54.995396+05:30
Pondicherry,Puducherry,11.9139,79.8145,29.0,82,0.0,1003.7,9.05,32.4,72,13.2,10.5,2.8,331.0,106.0,3.7,7,5,4,1,2026-05-16T19:07:54.995404+05:30
Port Blair,Andaman and Nicobar Islands,11.6234,92.7265,28.6,81,0.0,1005.5,6.6,39.6,26,8.3,5.1,0.6,128.0,57.0,0.2,7,5,4,1,2026-05-16T19:07:54.995411+05:30
Haridwar,Uttarakhand,29.9457,78.1642,30.2,44,0.0,968.4,7.5,35.6,145,67.8,34.2,7.8,275.0,138.0,11.0,0,5,7,1,2026-05-16T19:07:54.995418+05:30
Rishikesh,Uttarakhand,30.0869,78.2676,30.1,45,0.0,961.5,7.6,29.9,119,48.9,28.5,4.3,238.0,152.0,8.8,0,5,7,1,2026-05-16T19:07:54.995424+05:30
Nainital,Uttarakhand,29.3919,79.4542,17.3,54,0.0,802.8,8.45,47.2,122,47.7,27.9,4.5,231.0,135.0,6.1,0,5,7,0,2026-05-16T19:07:54.995430+05:30
Mussoorie,Uttarakhand,30.4599,78.0664,17.2,66,0.0,800.6,8.0,45.7,133,49.7,28.6,9.3,244.0,140.0,9.1,3,5,7,0,2026-05-16T19:07:54.995436+05:30
Dharamshala,Himachal Pradesh,32.219,76.3234,20.3,69,0.0,866.0,8.35,42.5,87,27.7,12.3,4.6,215.0,113.0,1.0,3,5,7,0,2026-05-16T19:07:54.995442+05:30
Dalhousie,Himachal Pradesh,32.5387,75.971,15.4,74,0.0,802.7,8.6,41.0,114,34.8,16.8,10.7,299.0,132.0,2.1,3,5,7,0,2026-05-16T19:07:54.995448+05:30
Patiala,Punjab,30.3398,76.3869,33.8,27,0.0,973.5,7.6,45.4,274,821.4,112.7,4.9,271.0,123.0,5.2,0,5,7,0,2026-05-16T19:07:54.995455+05:30
Bhatinda,Punjab,30.211,74.9455,34.5,32,0.0,979.2,8.25,33.5,115,70.5,26.5,4.7,260.0,115.0,6.2,0,5,7,0,2026-05-16T19:07:54.995461+05:30
Rohtak,Haryana,28.8955,76.6066,34.2,27,0.0,976.9,7.75,38.5,570,942.5,144.8,12.8,393.0,101.0,5.9,0,5,7,0,2026-05-16T19:07:54.995466+05:30
Panipat,Haryana,29.3909,76.9635,33.8,27,0.0,975.4,7.55,41.4,1076,2145.8,295.2,8.2,281.0,105.0,7.4,0,5,7,0,2026-05-16T19:07:54.995472+05:30
Mathura,Uttar Pradesh,27.4924,77.6737,35.2,26,0.0,981.5,8.0,36.4,475,719.0,116.2,13.2,306.0,105.0,4.9,0,5,10,0,2026-05-16T19:07:54.995478+05:30
Vrindavan,Uttar Pradesh,27.5823,77.7027,34.3,30,0.0,981.9,7.95,34.9,475,719.0,116.2,13.2,309.0,105.0,4.9,0,5,7,0,2026-05-16T19:07:54.995498+05:30
Ayodhya,Uttar Pradesh,26.7922,82.1998,32.5,46,0.0,989.1,8.35,33.5,159,115.9,48.9,7.5,318.0,132.0,12.2,0,5,7,1,2026-05-16T19:07:54.995505+05:30
Ratlam,Madhya Pradesh,23.3315,75.0367,34.2,26,0.0,950.7,8.55,33.5,54,29.7,13.2,1.2,159.0,104.0,2.0,0,5,7,0,2026-05-16T19:07:54.995512+05:30
Sagar,Madhya Pradesh,23.8388,78.7378,36.9,17,0.0,945.5,8.75,33.8,98,27.6,14.8,3.7,166.0,112.0,3.4,0,5,10,0,2026-05-16T19:07:54.995518+05:30
Satna,Madhya Pradesh,24.6005,80.8322,35.5,26,0.0,966.6,8.75,33.1,121,57.7,28.9,4.4,210.0,113.0,4.9,0,5,10,0,2026-05-16T19:07:54.995524+05:30
Akola,Maharashtra,20.7002,77.0082,39.5,18,0.0,969.1,8.2,42.1,95,21.0,13.6,4.8,182.0,118.0,5.0,0,5,10,0,2026-05-16T19:07:54.995531+05:30
Amravati,Maharashtra,20.9374,77.7796,39.0,14,0.0,961.4,8.9,36.7,101,23.5,14.3,9.2,227.0,117.0,7.1,0,5,10,0,2026-05-16T19:07:54.995538+05:30
Latur,Maharashtra,18.4088,76.5604,35.4,24,0.0,935.4,8.8,38.2,123,24.0,15.7,5.1,173.0,135.0,7.1,0,5,10,0,2026-05-16T19:07:54.995544+05:30
Nanded,Maharashtra,19.1383,77.3091,37.0,22,0.0,962.7,8.25,30.6,119,29.7,17.6,10.9,301.0,119.0,5.9,0,5,10,0,2026-05-16T19:07:54.995551+05:30
Gulbarga,Karnataka,17.3297,76.8343,35.6,27,0.0,953.4,8.6,46.8,133,23.8,16.6,8.7,237.0,130.0,5.9,0,5,10,0,2026-05-16T19:07:54.995556+05:30
Bidar,Karnataka,17.9104,77.5199,34.0,28,0.0,931.4,8.9,33.5,128,28.1,20.2,13.3,331.0,120.0,5.6,0,5,7,0,2026-05-16T19:07:54.995562+05:30
Hospet,Karnataka,15.2689,76.3909,28.4,62,0.0,952.0,8.6,48.6,164,76.4,56.0,16.9,303.0,142.0,17.0,7,5,7,1,2026-05-16T19:07:54.995568+05:30
Tirupur,Tamil Nadu,11.1085,77.3411,27.9,72,0.0,970.6,7.6,42.8,105,87.5,46.8,18.8,293.0,112.0,6.9,7,5,7,1,2026-05-16T19:07:54.995574+05:30
Alappuzha,Kerala,9.4981,76.3388,26.0,94,0.1,1005.7,7.9,38.9,60,23.4,15.6,8.2,164.0,96.0,3.2,10,5,4,1,2026-05-16T19:07:54.995580+05:30
Munnar,Kerala,10.0889,77.0595,17.8,100,0.0,853.5,3.75,28.4,65,32.9,19.7,12.8,222.0,67.0,2.5,3,10,3,1,2026-05-16T19:07:54.995586+05:30
Silchar,Assam,24.8333,92.7789,27.2,89,0.0,1001.5,8.75,28.4,74,38.0,25.8,10.1,320.0,79.0,5.7,7,5,4,1,2026-05-16T19:07:54.995592+05:30
Dibrugarh,Assam,27.4728,94.912,25.0,81,0.0,992.5,8.9,22.3,92,29.2,24.1,10.0,270.0,76.0,2.1,7,5,7,1,2026-05-16T19:07:54.995598+05:30
