city,state,latitude,longitude,temp,humidity,rain,pressure,uv_index,wind_gusts,aqi,pm10,pm2_5,no2,co,o3,so2,mosquito_risk,arthritis_risk,migraine_risk,frizz_risk,updated_at
Delhi,Delhi,28.6139,77.209,33.4,25,0.0,975.2,7.75,37.1,632,709.7,152.7,18.5,339.0,56.0,9.0,0,5,7,0,2026-05-19T01:56:23.221469+05:30
Mumbai,Maharashtra,19.076,72.8777,28.9,82,0.0,1005.1,7.9,43.6,70,50.4,22.6,8.7,206.0,57.0,4.5,7,5,4,1,2026-05-19T01:56:23.221527+05:30
Bangalore,Karnataka,12.9716,77.5946,22.2,97,0.0,909.2,6.7,38.9,80,15.3,14.2,15.3,271.0,64.0,7.0,3,5,7,1,2026-05-19T01:56:23.221545+05:30
Hyderabad,Telangana,17.385,78.4867,30.3,53,0.0,949.6,8.65,28.8,62,29.3,25.6,12.6,339.0,87.0,8.7,0,5,7,1,2026-05-19T01:56:23.221556+05:30
Chennai,Tamil Nadu,13.0827,80.2707,29.6,80,0.0,1003.0,9.1,42.5,56,15.6,12.5,11.9,301.0,69.0,13.5,7,5,4,1,2026-05-19T01:56:23.221566+05:30
Kolkata,West Bengal,22.5726,88.3639,29.0,91,0.0,1000.4,8.95,33.8,72,21.1,16.8,6.4,237.0,72.0,5.5,7,5,4,1,2026-05-19T01:56:23.221575+05:30
Pune,Maharashtra,18.5204,73.8567,25.9,79,0.0,944.7,8.5,41.8,98,36.9,26.8,17.0,198.0,79.0,24.5,7,5,7,1,2026-05-19T01:56:23.221583+05:30
Ahmedabad,Gujarat,23.0225,72.5714,32.7,34,0.0,996.9,8.15,33.5,66,30.3,18.1,5.2,165.0,63.0,3.2,0,5,7,0,2026-05-19T01:56:23.221592+05:30
Jaipur,Rajasthan,26.9124,75.7873,34.0,21,0.0,954.2,8.25,37.4,166,330.6,62.4,5.3,178.0,78.0,4.2,0,5,7,0,2026-05-19T01:56:23.221609+05:30
Lucknow,Uttar Pradesh,26.8467,80.9462,32.1,48,0.0,985.7,8.2,34.9,187,420.0,113.6,45.5,483.0,33.0,16.3,0,5,7,1,2026-05-19T01:56:23.221617+05:30
Kanpur,Uttar Pradesh,26.4499,80.3319,33.6,36,0.0,984.0,8.25,40.7,395,661.2,140.2,34.8,403.0,39.0,14.2,0,5,7,1,2026-05-19T01:56:23.221624+05:30
Chandigarh,Chandigarh,30.7333,76.7794,30.5,34,0.0,961.1,7.8,27.7,74,39.0,25.2,16.0,358.0,87.0,13.0,0,5,7,0,2026-05-19T01:56:23.221633+05:30
Srinagar,Jammu and Kashmir,34.0837,74.7973,14.0,90,0.0,837.1,8.85,41.4,70,40.9,34.0,26.6,530.0,15.0,0.3,3,10,7,0,2026-05-19T01:56:23.221641+05:30
Jammu,Jammu and Kashmir,32.7266,74.857,27.0,48,0.0,964.7,8.55,30.2,73,34.9,33.1,39.9,457.0,10.0,3.3,4,5,7,0,2026-05-19T01:56:23.221649+05:30
Amritsar,Punjab,31.634,74.8723,31.1,50,0.0,972.4,8.45,24.8,88,85.2,61.0,40.3,849.0,54.0,18.2,0,5,7,1,2026-05-19T01:56:23.221673+05:30
Ludhiana,Punjab,30.901,75.8573,30.9,52,0.0,970.4,8.05,29.2,95,54.8,36.1,15.9,1053.0,66.0,8.7,0,5,7,1,2026-05-19T01:56:23.221681+05:30
Jalandhar,Punjab,31.326,75.5762,29.4,50,0.0,971.6,8.25,24.1,105,70.5,46.6,22.8,1150.0,60.0,10.5,4,5,7,1,2026-05-19T01:56:23.221688+05:30
Dehradun,Uttarakhand,30.6284,78.0322,15.5,80,0.0,823.9,8.2,43.2,56,17.9,16.5,30.7,244.0,39.0,2.0,3,5,7,0,2026-05-19T01:56:23.221696+05:30
Shimla,Himachal Pradesh,31.1048,77.1734,17.4,48,0.0,781.8,8.3,46.1,88,21.9,17.8,17.9,232.0,93.0,4.6,0,5,7,0,2026-05-19T01:56:23.221706+05:30
Manali,Himachal Pradesh,32.2396,77.1887,12.0,37,0.0,812.3,9.65,47.5,37,8.7,4.7,74.8,268.0,27.0,0.1,0,5,7,1,2026-05-19T01:56:23.221716+05:30
Gurgaon,Haryana,28.4595,77.0266,30.8,30,0.0,973.7,7.85,34.2,1363,1676.4,250.5,14.6,241.0,60.0,8.0,0,5,7,0,2026-05-19T01:56:23.221724+05:30
Noida,Uttar Pradesh,28.5355,77.391,32.0,32,0.0,976.3,7.8,31.3,1363,1676.4,250.5,14.6,380.0,60.0,8.0,0,5,7,0,2026-05-19T01:56:23.221732+05:30
Ghaziabad,Uttar Pradesh,28.6692,77.4538,31.0,34,0.0,974.6,7.75,36.0,526,683.6,161.6,22.1,316.0,52.0,13.4,0,5,7,0,2026-05-19T01:56:23.221739+05:30
Faridabad,Haryana,28.4089,77.3178,33.8,24,0.0,975.8,7.8,40.0,1363,1676.4,250.5,14.6,282.0,60.0,8.0,0,5,7,0,2026-05-19T01:56:23.221746+05:30
Meerut,Uttar Pradesh,28.9845,77.7064,31.2,34,0.0,973.2,7.65,27.0,526,683.6,161.6,22.1,391.0,52.0,13.4,0,5,7,0,2026-05-19T01:56:23.221753+05:30
Agra,Uttar Pradesh,27.1767,78.0081,33.8,25,0.0,980.0,8.1,41.8,681,810.3,115.9,15.7,255.0,45.0,5.9,0,5,7,0,2026-05-19T01:56:23.221761+05:30
Varanasi,Uttar Pradesh,25.3176,82.9739,32.5,47,0.0,990.5,8.7,32.0,113,180.7,85.9,55.6,559.0,22.0,18.5,0,5,7,1,2026-05-19T01:56:23.221770+05:30
Prayagraj,Uttar Pradesh,25.4358,81.8463,32.2,41,0.0,988.3,8.65,36.4,142,260.8,105.0,59.1,428.0,21.0,18.3,0,5,7,1,2026-05-19T01:56:23.221777+05:30
Gorakhpur,Uttar Pradesh,26.7606,83.3732,29.0,72,0.0,991.0,8.65,36.7,165,124.8,94.3,26.6,650.0,73.0,19.0,7,5,7,1,2026-05-19T01:56:23.221786+05:30
Bareilly,Uttar Pradesh,28.367,79.4304,27.6,74,0.0,978.8,8.05,28.4,155,122.9,79.2,53.4,645.0,39.0,18.7,7,5,7,1,2026-05-19T01:56:23.221793+05:30
Aligarh,Uttar Pradesh,27.8974,78.088,31.2,33,0.0,977.4,7.9,36.4,814,1236.8,216.1,16.2,312.0,57.0,8.8,0,5,7,0,2026-05-19T01:56:23.221800+05:30
Moradabad,Uttar Pradesh,28.8386,78.7733,29.7,63,0.0,975.5,7.85,26.3,165,332.5,133.6,73.2,942.0,13.0,22.8,7,5,7,1,2026-05-19T01:56:23.221806+05:30
Saharanpur,Uttar Pradesh,29.9637,77.546,31.0,37,0.0,967.4,7.4,25.2,113,62.9,35.2,19.5,398.0,82.0,13.0,0,5,7,0,2026-05-19T01:56:23.221813+05:30
Jhansi,Uttar Pradesh,25.4484,78.5685,34.0,25,0.0,970.9,8.5,29.9,68,64.3,25.3,4.7,179.0,64.0,2.4,0,5,7,0,2026-05-19T01:56:26.465195+05:30
Surat,Gujarat,21.1702,72.8311,29.3,85,0.0,1001.6,7.75,40.3,93,43.4,30.6,31.7,315.0,35.0,47.0,7,5,4,1,2026-05-19T01:56:26.465232+05:30
Vadodara,Gujarat,22.3072,73.1812,31.2,52,0.0,999.0,7.75,44.3,72,36.9,25.6,17.4,218.0,48.0,12.7,0,5,7,1,2026-05-19T01:56:26.465243+05:30
Rajkot,Gujarat,22.3039,70.8022,25.9,92,0.0,990.8,7.7,43.2,68,29.5,11.8,7.2,133.0,45.0,6.2,7,5,7,1,2026-05-19T01:56:26.465252+05:30
Thane,Maharashtra,19.2183,72.9781,28.5,85,0.0,1004.4,7.9,39.6,70,50.4,22.6,8.7,198.0,57.0,4.5,7,5,4,1,2026-05-19T01:56:26.465260+05:30
Nagpur,Maharashtra,21.1458,79.0882,34.0,38,0.0,967.9,8.1,40.7,76,31.1,27.2,20.3,265.0,79.0,21.4,0,5,7,1,2026-05-19T01:56:26.465268+05:30
Nashik,Maharashtra,19.9975,73.7898,26.6,53,0.0,941.8,8.2,37.8,67,31.4,19.6,12.6,195.0,59.0,2.9,4,5,7,1,2026-05-19T01:56:26.465275+05:30
Aurangabad,Maharashtra,19.8762,75.3433,31.4,35,0.0,939.5,9.05,36.7,62,31.7,23.3,9.3,230.0,115.0,12.1,0,5,7,0,2026-05-19T01:56:26.465283+05:30
Solapur,Maharashtra,17.6599,75.9064,31.1,56,0.0,953.6,7.75,41.8,81,30.6,27.2,11.5,183.0,85.0,5.1,0,5,7,1,2026-05-19T01:56:26.465291+05:30
Kolhapur,Maharashtra,16.705,74.2433,24.6,90,0.0,945.2,8.0,43.9,58,26.5,15.5,5.6,153.0,63.0,3.0,3,5,7,1,2026-05-19T01:56:26.465299+05:30
Goa,Goa,15.2993,74.124,29.0,80,0.0,995.2,6.1,27.0,68,54.4,24.7,6.4,277.0,50.0,1.9,7,5,7,1,2026-05-19T01:56:26.465307+05:30
Jodhpur,Rajasthan,26.2389,73.0243,32.2,21,0.0,977.7,8.45,39.6,142,209.1,46.4,5.2,156.0,68.0,3.0,0,5,7,0,2026-05-19T01:56:26.465314+05:30
Udaipur,Rajasthan,24.5854,73.7125,31.3,20,0.0,942.1,8.85,41.0,56,31.4,15.0,2.7,136.0,77.0,3.0,0,5,7,0,2026-05-19T01:56:26.465321+05:30
Kota,Rajasthan,25.2138,75.8648,34.2,26,0.0,972.9,8.4,32.4,83,63.1,32.8,14.8,205.0,46.0,5.0,0,5,7,0,2026-05-19T01:56:26.465329+05:30
Bikaner,Rajasthan,28.0229,73.3119,33.3,16,0.0,975.6,8.4,36.0,93,318.5,82.0,2.1,132.0,84.0,2.0,0,5,7,0,2026-05-19T01:56:26.465337+05:30
Ajmer,Rajasthan,26.4499,74.6399,31.5,22,0.0,950.0,8.4,41.8,81,83.8,23.8,4.7,181.0,77.0,4.4,0,5,7,0,2026-05-19T01:56:26.465344+05:30
Gwalior,Madhya Pradesh,26.2183,78.1828,34.7,23,0.0,975.7,8.3,38.9,83,52.4,23.3,8.1,179.0,54.0,3.4,0,5,7,0,2026-05-19T01:56:26.465350+05:30
Indore,Madhya Pradesh,22.7196,75.8577,33.7,22,0.0,943.8,8.65,42.8,75,35.3,20.8,6.7,230.0,89.0,6.6,0,5,7,0,2026-05-19T01:56:26.465357+05:30
Bhopal,Madhya Pradesh,23.2599,77.4126,34.3,23,0.0,948.0,8.7,39.6,70,82.0,32.7,11.2,527.0,74.0,7.4,0,5,7,0,2026-05-19T01:56:26.465364+05:30
Jabalpur,Madhya Pradesh,23.1815,79.9864,32.0,36,0.0,955.8,8.6,36.7,85,59.5,33.5,25.2,292.0,50.0,5.6,0,5,7,0,2026-05-19T01:56:26.465371+05:30
Ujjain,Madhya Pradesh,23.1765,75.7885,33.1,23,0.0,949.3,8.6,44.6,66,31.8,18.8,3.8,231.0,89.0,5.4,0,5,7,0,2026-05-19T01:56:26.465379+05:30
Visakhapatnam,Andhra Pradesh,17.6868,83.2185,29.1,87,0.0,1000.6,9.05,47.5,64,21.2,15.5,13.6,288.0,63.0,26.3,7,5,4,1,2026-05-19T01:56:26.465387+05:30
Vijayawada,Andhra Pradesh,16.5062,80.648,29.9,82,0.0,999.0,8.5,27.0,64,16.4,12.5,5.1,220.0,79.0,4.4,7,5,7,1,2026-05-19T01:56:26.465394+05:30
Guntur,Andhra Pradesh,16.3067,80.4365,29.9,83,0.0,1000.1,8.65,32.0,67,17.3,13.5,4.9,210.0,87.0,3.8,7,5,4,1,2026-05-19T01:56:26.465401+05:30
Nellore,Andhra Pradesh,14.4426,79.9865,30.4,74,0.0,1001.1,8.55,42.8,88,21.8,18.7,9.7,293.0,95.0,15.1,3,5,4,1,2026-05-19T01:56:26.465408+05:30
Kurnool,Andhra Pradesh,15.8281,78.0373,32.2,57,0.0,972.7,7.25,40.7,63,23.9,21.8,10.7,229.0,84.0,6.5,0,5,7,1,2026-05-19T01:56:26.465416+05:30
Kakinada,Andhra Pradesh,16.9891,82.2475,29.6,83,0.0,1004.3,8.25,29.5,54,18.0,10.9,1.6,222.0,71.0,1.0,7,5,4,1,2026-05-19T01:56:26.465424+05:30
Tirupati,Andhra Pradesh,13.6288,79.4192,28.4,75,0.0,987.1,8.4,40.7,71,18.9,17.8,11.7,258.0,86.0,12.9,7,5,7,1,2026-05-19T01:56:26.465431+05:30
Warangal,Telangana,17.9689,79.5941,29.8,64,0.0,974.7,9.1,33.5,72,33.6,31.1,11.6,315.0,92.0,10.2,7,5,7,1,2026-05-19T01:56:26.465438+05:30
Nizamabad,Telangana,18.6725,78.0941,31.3,49,0.0,960.5,9.15,29.5,78,27.0,24.2,10.8,264.0,83.0,5.3,0,5,7,1,2026-05-19T01:56:26.465445+05:30
Mysore,Karnataka,12.2958,76.6396,22.1,94,0.0,926.1,8.6,41.4,52,7.6,7.3,10.5,228.0,55.0,2.7,3,5,7,1,2026-05-19T01:56:26.465452+05:30
Mangalore,Karnataka,12.9141,74.856,25.5,97,0.0,1004.6,8.2,34.6,55,8.8,7.6,8.8,226.0,55.0,3.2,7,5,4,1,2026-05-19T01:56:26.465459+05:30
Hubli-Dharwad,Karnataka,15.3647,75.124,25.0,89,0.0,938.1,6.5,38.5,57,18.5,10.8,7.4,156.0,43.0,1.9,7,5,7,1,2026-05-19T01:56:26.465466+05:30
Belgaum,Karnataka,15.8497,74.4977,23.5,91,0.0,923.1,8.8,41.0,58,25.3,12.4,4.9,128.0,54.0,1.9,3,5,7,1,2026-05-19T01:56:29.716338+05:30
Coimbatore,Tamil Nadu,11.0168,76.9558,25.5,79,0.0,959.6,9.05,56.2,30,3.5,3.1,5.6,164.0,52.0,2.3,7,5,7,1,2026-05-19T01:56:29.716375+05:30
Madurai,Tamil Nadu,9.9252,78.1198,27.8,75,0.0,991.1,8.55,37.4,60,21.2,20.4,27.4,476.0,24.0,5.9,7,5,7,1,2026-05-19T01:56:29.716386+05:30
Trichy,Tamil Nadu,10.7905,78.7047,27.4,80,0.0,997.2,7.3,31.0,57,15.5,15.0,21.0,245.0,40.0,4.7,7,5,7,1,2026-05-19T01:56:29.716395+05:30
Salem,Tamil Nadu,11.6643,78.146,26.7,77,0.0,975.1,6.0,42.1,51,14.0,13.4,18.9,342.0,43.0,6.4,7,5,3,1,2026-05-19T01:56:29.716402+05:30
Tirunelveli,Tamil Nadu,8.7139,77.7567,27.7,79,0.0,1001.7,7.6,27.7,27,11.1,8.3,6.8,182.0,45.0,1.8,7,5,4,1,2026-05-19T01:56:29.716410+05:30
Vellore,Tamil Nadu,12.9165,79.1325,27.8,76,0.0,980.8,7.75,39.6,70,18.3,17.0,10.6,257.0,75.0,7.0,7,5,7,1,2026-05-19T01:56:29.716418+05:30
Erode,Tamil Nadu,11.341,77.7172,27.5,72,0.0,986.8,7.4,48.2,39,12.0,11.3,18.5,180.0,38.0,4.3,7,5,7,1,2026-05-19T01:56:29.716426+05:30
Kochi,Kerala,9.9312,76.2673,25.5,96,0.1,1007.4,7.6,36.7,33,6.1,5.0,7.1,256.0,48.0,2.3,10,5,4,1,2026-05-19T01:56:29.716434+05:30
Thiruvananthapuram,Kerala,8.5241,76.9366,25.2,98,0.3,1007.5,6.9,38.2,39,16.5,9.2,1.1,126.0,58.0,0.5,10,5,4,1,2026-05-19T01:56:29.716441+05:30
Kozhikode,Kerala,11.2588,75.7804,24.9,99,0.1,1006.4,6.6,37.4,31,5.3,4.5,4.0,275.0,65.0,1.9,6,5,4,1,2026-05-19T01:56:29.716448+05:30
Thrissur,Kerala,10.5276,76.2144,24.9,97,0.0,1005.8,5.55,34.9,30,6.0,5.3,7.7,221.0,44.0,2.6,3,5,0,1,2026-05-19T01:56:29.716457+05:30
Kannur,Kerala,11.8745,75.3704,25.9,92,0.0,1005.4,7.45,34.2,37,8.1,7.6,8.6,242.0,47.0,3.1,7,5,4,1,2026-05-19T01:56:29.716465+05:30
Patna,Bihar,25.5941,85.1376,28.5,81,0.0,994.8,8.8,41.0,156,46.4,38.3,11.4,471.0,107.0,15.1,7,5,7,1,2026-05-19T01:56:29.716472+05:30
Gaya,Bihar,24.7914,85.0002,28.8,58,0.0,987.5,8.85,29.5,141,70.3,52.3,12.5,367.0,101.0,15.9,4,5,7,1,2026-05-19T01:56:29.716479+05:30
Muzaffarpur,Bihar,26.1209,85.3647,27.5,83,0.0,995.5,8.8,44.6,156,47.8,40.7,11.0,483.0,100.0,13.1,7,5,7,1,2026-05-19T01:56:29.716485+05:30
Bhagalpur,Bihar,25.2425,87.0117,27.2,89,0.0,996.5,8.8,39.6,134,37.1,34.5,13.8,474.0,73.0,6.4,7,5,7,1,2026-05-19T01:56:29.716492+05:30
Ranchi,Jharkhand,23.3441,85.3096,26.3,57,0.0,932.8,9.25,45.0,126,44.4,36.0,10.1,290.0,121.0,20.5,4,5,7,1,2026-05-19T01:56:29.716499+05:30
Jamshedpur,Jharkhand,22.8046,86.2029,28.6,61,0.0,985.3,9.1,40.0,128,59.5,48.8,19.7,401.0,98.0,29.8,7,5,7,1,2026-05-19T01:56:29.716507+05:30
Dhanbad,Jharkhand,23.7957,86.4304,27.9,62,0.0,974.1,9.05,24.8,158,90.3,77.8,52.8,951.0,59.0,117.1,7,5,7,1,2026-05-19T01:56:29.716514+05:30
Bokaro,Jharkhand,23.6693,86.1511,26.1,73,0.0,977.7,9.05,27.7,153,82.7,61.5,33.9,494.0,72.0,68.1,7,5,7,1,2026-05-19T01:56:29.716521+05:30
Bhubaneswar,Odisha,20.2961,85.8245,29.1,87,0.0,997.5,9.1,45.7,62,16.0,12.4,4.2,203.0,69.0,4.2,7,5,7,1,2026-05-19T01:56:29.716529+05:30
Cuttack,Odisha,20.4625,85.8828,29.1,87,0.0,999.3,9.15,39.2,62,16.0,12.4,4.2,208.0,69.0,4.2,7,5,7,1,2026-05-19T01:56:29.716536+05:30
Rourkela,Odisha,22.2604,84.8536,29.0,69,0.0,979.4,9.0,48.2,131,74.7,56.3,26.6,396.0,84.0,21.1,7,5,7,1,2026-05-19T01:56:29.716544+05:30
Raipur,Chhattisgarh,21.2514,81.6296,31.9,40,0.0,969.1,8.7,45.7,109,34.3,31.7,22.2,407.0,75.0,33.0,0,5,7,1,2026-05-19T01:56:29.716550+05:30
Bhilai,Chhattisgarh,21.1938,81.3509,31.3,44,0.0,969.6,9.0,44.3,98,33.9,31.1,21.7,580.0,79.0,34.4,0,5,7,1,2026-05-19T01:56:29.716557+05:30
Guwahati,Assam,26.1158,91.7086,22.9,99,0.0,999.6,8.7,22.0,59,19.2,16.0,8.0,351.0,70.0,3.3,3,5,7,1,2026-05-19T01:56:29.716564+05:30
Agartala,Tripura,23.8315,91.2868,25.8,92,0.0,1002.6,8.9,41.0,75,24.2,20.3,14.4,212.0,27.0,2.1,7,5,4,1,2026-05-19T01:56:29.716571+05:30
Shillong,Meghalaya,25.5788,91.8933,18.0,96,0.0,854.6,7.3,24.8,42,15.5,10.1,6.2,243.0,85.0,4.9,3,10,7,1,2026-05-19T01:56:29.716579+05:30
Imphal,Manipur,24.817,93.9368,21.2,96,0.0,920.6,9.25,33.5,79,16.5,13.0,9.2,483.0,50.0,3.0,3,5,7,1,2026-05-19T01:56:29.716586+05:30
Aizawl,Mizoram,23.7271,92.7176,18.5,95,0.0,889.2,9.1,28.1,74,33.8,22.2,6.5,198.0,62.0,3.6,3,10,7,1,2026-05-19T01:56:29.716593+05:30
Kohima,Nagaland,25.6701,94.1077,17.5,84,0.1,852.8,8.7,31.0,59,12.1,7.9,8.5,242.0,43.0,2.0,6,10,7,0,2026-05-19T01:56:29.716600+05:30
Gangtok,Sikkim,27.3314,88.6138,16.2,99,0.0,834.9,8.6,40.3,76,19.0,16.0,14.9,851.0,49.0,1.3,3,10,7,0,2026-05-19T01:56:29.716607+05:30
Siliguri,West Bengal,26.7271,88.3953,23.9,95,0.0,991.0,8.7,26.3,117,58.4,48.8,11.3,402.0,103.0,4.9,3,5,7,1,2026-05-19T01:56:33.009787+05:30
Durgapur,West Bengal,23.5204,87.3119,28.3,88,0.0,989.2,9.0,28.1,155,65.4,59.8,25.6,601.0,81.0,36.7,7,5,7,1,2026-05-19T01:56:33.009826+05:30
Asansol,West Bengal,23.6739,86.9524,27.6,91,0.0,987.8,9.0,32.8,154,67.3,62.2,36.4,426.0,70.0,56.1,7,5,7,1,2026-05-19T01:56:33.009837+05:30
Pondicherry,Puducherry,11.9139,79.8145,28.5,82,0.0,1004.7,5.0,42.8,55,12.1,10.2,11.1,289.0,65.0,10.4,7,5,0,1,2026-05-19T01:56:33.009846+05:30
Port Blair,Andaman and Nicobar Islands,11.6234,92.7265,25.9,93,0.0,1004.5,8.95,48.6,28,8.1,4.8,0.2,115.0,54.0,0.3,7,5,4,1,2026-05-19T01:56:33.009854+05:30
Haridwar,Uttarakhand,29.9457,78.1642,25.0,69,0.0,965.6,7.55,36.7,82,46.2,37.6,33.5,375.0,37.0,9.3,7,5,7,1,2026-05-19T01:56:33.009862+05:30
Rishikesh,Uttarakhand,30.0869,78.2676,22.1,74,0.0,958.2,7.65,32.4,104,38.6,25.0,17.2,383.0,94.0,8.0,3,5,7,1,2026-05-19T01:56:33.009869+05:30
Nainital,Uttarakhand,29.3919,79.4542,16.7,61,0.0,801.2,8.5,38.2,115,39.8,23.1,14.3,267.0,112.0,6.2,3,5,7,0,2026-05-19T01:56:33.009877+05:30
Mussoorie,Uttarakhand,30.4599,78.0664,19.2,50,0.0,799.6,8.1,55.4,63,32.8,29.7,38.5,253.0,49.0,8.6,0,5,7,0,2026-05-19T01:56:33.009886+05:30
Dharamshala,Himachal Pradesh,32.219,76.3234,24.4,47,0.0,865.6,8.45,51.1,33,12.0,9.9,17.5,246.0,21.0,0.2,0,5,7,0,2026-05-19T01:56:33.009893+05:30
Dalhousie,Himachal Pradesh,32.5387,75.971,14.7,73,0.0,799.4,8.7,52.2,64,20.3,18.7,25.9,386.0,41.0,1.7,3,5,7,0,2026-05-19T01:56:33.009901+05:30
Patiala,Punjab,30.3398,76.3869,31.8,42,0.0,969.9,7.7,30.6,389,205.4,63.3,16.3,470.0,58.0,8.5,0,5,7,1,2026-05-19T01:56:33.009909+05:30
Bhatinda,Punjab,30.211,74.9455,32.8,30,0.0,975.2,8.35,31.3,93,94.5,59.3,42.8,429.0,25.0,8.3,0,5,7,0,2026-05-19T01:56:33.009916+05:30
Rohtak,Haryana,28.8955,76.6066,30.3,31,0.0,973.9,7.8,29.9,795,793.5,137.8,13.2,269.0,58.0,3.7,0,5,7,0,2026-05-19T01:56:33.009923+05:30
Panipat,Haryana,29.3909,76.9635,30.5,37,0.0,972.1,7.6,39.2,1646,1967.0,310.1,13.8,358.0,57.0,6.0,0,5,7,0,2026-05-19T01:56:33.009930+05:30
Mathura,Uttar Pradesh,27.4924,77.6737,33.2,25,0.0,978.9,8.05,41.4,732,795.3,123.9,12.1,235.0,50.0,4.1,0,5,7,0,2026-05-19T01:56:33.009938+05:30
Vrindavan,Uttar Pradesh,27.5823,77.7027,32.3,27,0.0,979.3,8.0,38.5,732,795.3,123.9,12.1,223.0,50.0,4.1,0,5,7,0,2026-05-19T01:56:33.009945+05:30
Ayodhya,Uttar Pradesh,26.7922,82.1998,29.5,58,0.0,988.3,8.4,36.0,163,197.4,102.7,66.5,637.0,17.0,16.6,4,5,7,1,2026-05-19T01:56:33.009953+05:30
Ratlam,Madhya Pradesh,23.3315,75.0367,31.4,26,0.0,950.2,8.55,40.7,60,30.6,18.2,3.4,195.0,88.0,5.2,0,5,7,0,2026-05-19T01:56:33.009960+05:30
Sagar,Madhya Pradesh,23.8388,78.7378,32.4,29,0.0,944.5,8.75,37.4,70,76.4,27.9,16.4,218.0,53.0,3.6,0,5,7,0,2026-05-19T01:56:33.009967+05:30
Satna,Madhya Pradesh,24.6005,80.8322,31.5,34,0.0,964.5,8.8,44.3,80,137.8,41.0,25.7,305.0,42.0,4.5,0,5,7,0,2026-05-19T01:56:33.009974+05:30
Akola,Maharashtra,20.7002,77.0082,35.3,24,0.0,969.8,8.65,39.2,60,38.2,26.1,22.5,227.0,64.0,7.6,0,5,10,0,2026-05-19T01:56:33.009982+05:30
Amravati,Maharashtra,20.9374,77.7796,35.0,33,0.0,962.2,8.35,51.1,63,39.3,30.4,31.7,260.0,46.0,7.2,0,5,7,1,2026-05-19T01:56:33.009990+05:30
Latur,Maharashtra,18.4088,76.5604,30.0,51,0.0,936.5,8.75,32.0,71,31.3,28.1,8.0,252.0,110.0,4.3,4,5,7,1,2026-05-19T01:56:33.009998+05:30
Nanded,Maharashtra,19.1383,77.3091,33.2,42,0.0,964.4,8.3,34.9,75,33.5,30.0,8.9,301.0,100.0,5.2,0,5,7,1,2026-05-19T01:56:33.010005+05:30
Gulbarga,Karnataka,17.3297,76.8343,29.5,62,0.0,954.8,9.05,37.4,78,36.2,31.4,24.1,262.0,67.0,10.1,7,5,7,1,2026-05-19T01:56:33.010012+05:30
Bidar,Karnataka,17.9104,77.5199,29.0,54,0.0,931.8,9.1,29.9,79,29.9,27.0,16.5,269.0,74.0,6.5,4,5,7,1,2026-05-19T01:56:33.010019+05:30
Hospet,Karnataka,15.2689,76.3909,26.2,87,0.0,952.7,5.85,40.0,67,14.1,11.1,10.2,178.0,53.0,2.5,7,5,3,1,2026-05-19T01:56:33.010026+05:30
Tirupur,Tamil Nadu,11.1085,77.3411,26.9,75,0.0,972.9,8.95,56.9,41,11.1,10.4,17.7,155.0,41.0,4.6,7,5,7,1,2026-05-19T01:56:33.010033+05:30
Alappuzha,Kerala,9.4981,76.3388,25.8,99,0.1,1007.7,8.7,35.6,31,8.8,6.3,4.6,128.0,59.0,1.2,10,5,4,1,2026-05-19T01:56:33.010041+05:30
Munnar,Kerala,10.0889,77.0595,17.5,100,0.1,855.8,7.5,35.6,23,3.2,3.1,6.9,141.0,34.0,1.3,6,10,7,1,2026-05-19T01:56:33.010048+05:30
Silchar,Assam,24.8333,92.7789,24.0,99,0.0,1002.1,8.9,25.9,82,38.0,22.8,5.7,269.0,89.0,3.8,3,5,4,1,2026-05-19T01:56:33.010055+05:30
Dibrugarh,Assam,27.4728,94.912,21.1,99,0.0,994.0,8.85,15.1,89,57.6,50.6,32.8,342.0,0.0,1.8,3,5,7,1,2026-05-19T01:56:33.010062+05:30
