city,state,latitude,longitude,temp,humidity,rain,pressure,uv_index,wind_gusts,aqi,pm10,pm2_5,mosquito_risk,arthritis_risk,migraine_risk,frizz_risk,updated_at
Delhi,Delhi,28.6139,77.209,28.0,53,0.0,983.7,6.9,20.9,141,240.3,61.2,4,5,7,1,2026-04-02T20:29:48.301003+05:30
Mumbai,Maharashtra,19.076,72.8777,27.8,74,0.0,1010.7,7.25,19.4,115,26.0,18.2,7,0,4,1,2026-04-02T20:29:48.301044+05:30
Bangalore,Karnataka,12.9716,77.5946,27.7,36,0.0,913.0,9.6,20.9,131,22.2,20.0,4,5,7,0,2026-04-02T20:29:48.301059+05:30
Hyderabad,Telangana,17.385,78.4867,30.1,41,0.0,954.8,9.1,25.9,106,28.7,25.0,0,5,7,0,2026-04-02T20:29:48.301069+05:30
Chennai,Tamil Nadu,13.0827,80.2707,28.3,78,0.0,1009.3,9.3,29.9,40,13.6,10.4,7,0,4,1,2026-04-02T20:29:48.301078+05:30
Kolkata,West Bengal,22.5726,88.3639,27.7,79,0.0,1006.6,8.6,24.1,99,27.1,24.8,7,5,4,1,2026-04-02T20:29:48.301088+05:30
Pune,Maharashtra,18.5204,73.8567,27.3,74,0.0,950.4,8.45,29.9,134,63.6,55.5,7,5,7,1,2026-04-02T20:29:48.301100+05:30
Ahmedabad,Gujarat,23.0225,72.5714,31.8,35,0.0,1002.5,7.9,29.5,104,20.7,13.1,0,5,4,0,2026-04-02T20:29:48.301108+05:30
Jaipur,Rajasthan,26.9124,75.7873,26.7,52,0.0,960.8,7.55,40.7,116,90.1,23.8,4,5,7,0,2026-04-02T20:29:48.301116+05:30
Lucknow,Uttar Pradesh,26.8467,80.9462,30.1,40,0.0,993.3,7.05,31.7,113,70.3,29.2,0,5,7,0,2026-04-02T20:29:48.301123+05:30
Kanpur,Uttar Pradesh,26.4499,80.3319,30.1,49,0.0,991.8,7.05,23.8,119,165.8,39.0,0,5,7,1,2026-04-02T20:29:48.301130+05:30
Chandigarh,Chandigarh,30.7333,76.7794,24.4,56,0.0,969.1,6.8,21.6,69,46.3,22.8,0,5,7,0,2026-04-02T20:29:48.301138+05:30
Srinagar,Jammu and Kashmir,34.0837,74.7973,12.8,75,0.0,842.6,7.5,14.8,111,36.3,25.2,3,5,7,0,2026-04-02T20:29:48.301145+05:30
Jammu,Jammu and Kashmir,32.7266,74.857,26.4,53,0.0,973.5,7.4,19.8,76,58.2,29.7,4,5,7,1,2026-04-02T20:29:48.301152+05:30
Amritsar,Punjab,31.634,74.8723,26.2,54,0.0,981.2,7.4,19.4,89,66.6,35.0,4,5,7,1,2026-04-02T20:29:48.301159+05:30
Ludhiana,Punjab,30.901,75.8573,27.5,47,0.0,979.3,7.0,16.2,120,108.7,51.7,4,5,7,0,2026-04-02T20:29:48.301165+05:30
Jalandhar,Punjab,31.326,75.5762,25.3,53,0.0,980.4,7.2,14.0,91,102.9,43.5,4,5,7,0,2026-04-02T20:29:48.301174+05:30
Dehradun,Uttarakhand,30.6284,78.0322,16.9,50,0.0,831.2,7.15,34.9,50,31.2,12.3,0,5,7,0,2026-04-02T20:29:48.301180+05:30
Shimla,Himachal Pradesh,31.1048,77.1734,14.3,57,0.0,785.4,7.25,33.8,56,41.0,18.4,0,5,7,0,2026-04-02T20:29:48.301186+05:30
Manali,Himachal Pradesh,32.2396,77.1887,17.1,67,0.0,822.4,9.1,26.6,101,22.6,10.7,3,5,7,0,2026-04-02T20:29:48.301193+05:30
Gurgaon,Haryana,28.4595,77.0266,26.6,60,0.0,982.2,7.0,19.4,185,339.0,65.4,4,5,7,1,2026-04-02T20:29:48.301199+05:30
Noida,Uttar Pradesh,28.5355,77.391,27.4,56,0.0,985.2,6.95,16.9,185,339.0,65.4,4,5,7,1,2026-04-02T20:29:48.301208+05:30
Ghaziabad,Uttar Pradesh,28.6692,77.4538,26.8,57,0.0,983.4,6.9,15.8,113,187.7,56.1,4,5,7,1,2026-04-02T20:29:48.301215+05:30
Faridabad,Haryana,28.4089,77.3178,26.3,57,0.0,984.4,6.95,18.7,185,339.0,65.4,4,5,7,1,2026-04-02T20:29:48.301221+05:30
Meerut,Uttar Pradesh,28.9845,77.7064,25.5,61,0.0,982.0,6.8,18.7,113,187.7,56.1,7,5,7,1,2026-04-02T20:29:48.301228+05:30
Agra,Uttar Pradesh,27.1767,78.0081,31.5,35,0.0,988.2,7.0,17.3,189,907.1,100.8,0,5,7,0,2026-04-02T20:29:48.301234+05:30
Varanasi,Uttar Pradesh,25.3176,82.9739,29.6,49,0.0,997.6,7.6,29.9,115,45.4,36.8,4,5,7,1,2026-04-02T20:29:48.301242+05:30
Prayagraj,Uttar Pradesh,25.4358,81.8463,31.8,43,0.0,996.2,7.5,21.6,103,36.0,27.4,0,5,7,1,2026-04-02T20:29:48.301249+05:30
Gorakhpur,Uttar Pradesh,26.7606,83.3732,28.7,32,0.0,996.1,7.8,39.6,103,29.3,19.9,4,5,7,0,2026-04-02T20:29:48.301256+05:30
Bareilly,Uttar Pradesh,28.367,79.4304,26.8,48,0.0,987.0,7.2,31.0,88,31.0,18.6,4,5,7,0,2026-04-02T20:29:48.301262+05:30
Aligarh,Uttar Pradesh,27.8974,78.088,28.1,45,0.0,986.0,7.05,17.3,143,188.1,46.9,4,5,7,0,2026-04-02T20:29:48.301268+05:30
Moradabad,Uttar Pradesh,28.8386,78.7733,25.6,52,0.0,984.1,7.0,26.6,87,44.2,26.6,4,5,7,0,2026-04-02T20:29:48.301276+05:30
Saharanpur,Uttar Pradesh,29.9637,77.546,24.5,56,0.0,976.0,6.5,24.8,86,46.6,29.4,0,5,7,0,2026-04-02T20:29:48.301283+05:30
Jhansi,Uttar Pradesh,25.4484,78.5685,32.5,34,0.0,977.8,6.45,22.0,98,22.0,18.9,0,5,7,0,2026-04-02T20:29:51.650007+05:30
Surat,Gujarat,21.1702,72.8311,27.0,69,0.0,1008.1,7.65,30.6,92,30.4,26.0,7,0,4,1,2026-04-02T20:29:51.650039+05:30
Vadodara,Gujarat,22.3072,73.1812,30.4,35,0.0,1005.0,7.9,34.9,147,29.2,24.7,0,5,4,0,2026-04-02T20:29:51.650050+05:30
Rajkot,Gujarat,22.3039,70.8022,26.7,64,0.0,995.8,7.05,36.7,79,32.6,16.1,7,5,7,1,2026-04-02T20:29:51.650058+05:30
Thane,Maharashtra,19.2183,72.9781,26.9,74,0.0,1010.2,7.25,33.1,115,26.0,18.2,7,0,4,1,2026-04-02T20:29:51.650065+05:30
Nagpur,Maharashtra,21.1458,79.0882,25.5,75,0.0,976.3,8.4,32.8,148,39.6,33.9,7,5,7,1,2026-04-02T20:29:51.650072+05:30
Nashik,Maharashtra,19.9975,73.7898,26.1,65,0.0,947.5,8.15,29.9,145,32.0,27.8,7,5,7,1,2026-04-02T20:29:51.650080+05:30
Aurangabad,Maharashtra,19.8762,75.3433,25.5,70,0.0,946.8,8.85,47.9,107,36.0,30.4,7,5,7,1,2026-04-02T20:29:51.650088+05:30
Solapur,Maharashtra,17.6599,75.9064,25.8,76,0.0,959.5,8.9,31.0,141,31.7,26.1,7,5,7,1,2026-04-02T20:29:51.650095+05:30
Kolhapur,Maharashtra,16.705,74.2433,24.6,82,0.0,949.7,8.95,34.6,146,63.8,59.3,3,5,7,1,2026-04-02T20:29:51.650102+05:30
Goa,Goa,15.2993,74.124,29.0,76,0.0,999.7,8.85,29.5,75,25.8,20.3,7,5,7,1,2026-04-02T20:29:51.650109+05:30
Jodhpur,Rajasthan,26.2389,73.0243,29.5,38,0.0,983.6,7.8,36.7,77,191.9,27.2,4,5,7,0,2026-04-02T20:29:51.650116+05:30
Udaipur,Rajasthan,24.5854,73.7125,27.0,41,0.0,947.7,8.4,38.9,72,13.3,9.1,4,5,7,0,2026-04-02T20:29:51.650122+05:30
Kota,Rajasthan,25.2138,75.8648,31.7,19,0.0,978.7,7.85,27.7,87,29.5,24.2,0,5,7,0,2026-04-02T20:29:51.650129+05:30
Bikaner,Rajasthan,28.0229,73.3119,30.6,32,0.0,981.9,7.45,35.6,75,19.0,7.7,0,5,7,0,2026-04-02T20:29:51.650136+05:30
Ajmer,Rajasthan,26.4499,74.6399,29.3,33,0.0,954.8,7.5,33.1,79,14.8,11.6,4,5,7,0,2026-04-02T20:29:51.650143+05:30
Gwalior,Madhya Pradesh,26.2183,78.1828,32.5,41,0.0,983.5,6.45,22.0,96,29.1,24.2,0,5,7,1,2026-04-02T20:29:51.650150+05:30
Indore,Madhya Pradesh,22.7196,75.8577,28.0,51,0.0,949.6,8.3,40.7,126,36.4,31.4,4,5,7,1,2026-04-02T20:29:51.650157+05:30
Bhopal,Madhya Pradesh,23.2599,77.4126,28.8,52,0.0,955.2,7.85,33.1,105,36.2,31.0,4,5,7,1,2026-04-02T20:29:51.650163+05:30
Jabalpur,Madhya Pradesh,23.1815,79.9864,27.5,59,0.0,963.7,7.9,31.7,108,35.5,29.6,4,5,7,1,2026-04-02T20:29:51.650169+05:30
Ujjain,Madhya Pradesh,23.1765,75.7885,28.7,41,0.0,954.8,8.2,27.7,111,32.8,29.0,4,5,7,0,2026-04-02T20:29:51.650176+05:30
Visakhapatnam,Andhra Pradesh,17.6868,83.2185,27.0,79,0.0,1006.0,9.05,36.4,52,16.5,14.0,7,5,4,1,2026-04-02T20:29:51.650183+05:30
Vijayawada,Andhra Pradesh,16.5062,80.648,29.2,63,0.0,1004.5,9.15,24.1,44,17.3,15.8,7,5,4,1,2026-04-02T20:29:51.650190+05:30
Guntur,Andhra Pradesh,16.3067,80.4365,27.9,74,0.0,1005.9,9.15,27.4,41,16.8,15.0,7,5,4,1,2026-04-02T20:29:51.650196+05:30
Nellore,Andhra Pradesh,14.4426,79.9865,27.5,82,0.0,1007.9,9.25,28.1,44,11.4,8.9,7,5,4,1,2026-04-02T20:29:51.650204+05:30
Kurnool,Andhra Pradesh,15.8281,78.0373,32.9,30,0.0,977.6,9.15,24.1,83,28.3,22.6,0,5,7,0,2026-04-02T20:29:51.650211+05:30
Kakinada,Andhra Pradesh,16.9891,82.2475,27.6,77,0.0,1009.5,9.0,33.1,34,12.6,9.8,7,0,4,1,2026-04-02T20:29:51.650218+05:30
Tirupati,Andhra Pradesh,13.6288,79.4192,28.5,59,0.0,993.6,9.35,31.3,74,15.9,15.2,4,5,7,1,2026-04-02T20:29:51.650224+05:30
Warangal,Telangana,17.9689,79.5941,30.5,53,0.0,980.2,9.0,25.9,64,42.3,37.3,0,5,7,1,2026-04-02T20:29:51.650230+05:30
Nizamabad,Telangana,18.6725,78.0941,28.5,66,0.0,967.0,8.9,34.2,120,57.5,49.2,7,5,7,1,2026-04-02T20:29:51.650236+05:30
Mysore,Karnataka,12.2958,76.6396,26.0,68,0.0,929.8,9.5,34.9,141,39.3,34.1,7,5,7,1,2026-04-02T20:29:51.650243+05:30
Mangalore,Karnataka,12.9141,74.856,29.3,79,0.0,1008.4,9.05,22.7,88,23.5,18.6,7,0,4,1,2026-04-02T20:29:51.650250+05:30
Hubli-Dharwad,Karnataka,15.3647,75.124,25.3,74,0.0,942.5,9.2,37.8,149,29.0,26.9,7,5,7,1,2026-04-02T20:29:51.650256+05:30
Belgaum,Karnataka,15.8497,74.4977,23.8,86,0.0,927.3,9.1,32.4,142,38.0,34.5,3,5,7,1,2026-04-02T20:29:55.018953+05:30
Coimbatore,Tamil Nadu,11.0168,76.9558,26.5,75,0.0,963.2,9.45,44.3,121,20.5,17.8,7,5,7,1,2026-04-02T20:29:55.018984+05:30
Madurai,Tamil Nadu,9.9252,78.1198,29.4,63,0.0,994.8,9.4,33.5,98,13.2,12.7,7,5,7,1,2026-04-02T20:29:55.018994+05:30
Trichy,Tamil Nadu,10.7905,78.7047,28.1,54,0.0,1001.2,9.4,20.9,73,15.7,15.0,4,5,4,1,2026-04-02T20:29:55.019002+05:30
Salem,Tamil Nadu,11.6643,78.146,30.4,40,0.0,978.2,9.4,17.3,128,16.8,16.3,0,5,7,0,2026-04-02T20:29:55.019009+05:30
Tirunelveli,Tamil Nadu,8.7139,77.7567,29.1,66,0.0,1005.0,9.35,45.7,75,11.9,11.0,7,5,4,1,2026-04-02T20:29:55.019016+05:30
Vellore,Tamil Nadu,12.9165,79.1325,27.3,55,0.0,986.4,9.4,27.4,61,17.2,16.3,4,5,7,1,2026-04-02T20:29:55.019023+05:30
Erode,Tamil Nadu,11.341,77.7172,31.5,44,0.0,989.5,9.25,26.3,93,13.9,13.0,0,5,7,1,2026-04-02T20:29:55.019030+05:30
Kochi,Kerala,9.9312,76.2673,29.1,80,0.0,1010.3,9.2,31.0,111,25.1,21.6,7,0,4,1,2026-04-02T20:29:55.019037+05:30
Thiruvananthapuram,Kerala,8.5241,76.9366,29.7,70,0.0,1009.8,9.2,25.2,87,14.7,10.4,7,0,4,1,2026-04-02T20:29:55.019044+05:30
Kozhikode,Kerala,11.2588,75.7804,29.3,78,0.0,1009.4,8.75,25.2,59,19.3,13.9,7,0,4,1,2026-04-02T20:29:55.019051+05:30
Thrissur,Kerala,10.5276,76.2144,28.4,84,0.0,1008.5,9.15,32.0,87,18.9,16.6,7,0,4,1,2026-04-02T20:29:55.019058+05:30
Kannur,Kerala,11.8745,75.3704,29.1,76,0.0,1008.7,9.15,25.6,73,23.8,20.1,7,0,4,1,2026-04-02T20:29:55.019066+05:30
Patna,Bihar,25.5941,85.1376,29.6,51,0.0,999.6,8.0,33.5,103,31.8,24.4,4,5,7,1,2026-04-02T20:29:55.019072+05:30
Gaya,Bihar,24.7914,85.0002,30.5,45,0.0,994.0,8.25,29.2,103,34.9,26.3,0,5,7,1,2026-04-02T20:29:55.019078+05:30
Muzaffarpur,Bihar,26.1209,85.3647,28.2,44,0.0,999.3,8.25,31.3,99,30.5,23.2,4,5,7,0,2026-04-02T20:29:55.019085+05:30
Bhagalpur,Bihar,25.2425,87.0117,29.0,61,0.0,1000.4,7.85,26.6,109,31.9,21.4,7,5,4,1,2026-04-02T20:29:55.019092+05:30
Ranchi,Jharkhand,23.3441,85.3096,26.5,55,0.0,939.6,8.9,32.0,125,36.1,28.6,4,5,7,1,2026-04-02T20:29:55.019099+05:30
Jamshedpur,Jharkhand,22.8046,86.2029,30.6,56,0.0,991.6,8.7,31.7,156,47.4,36.1,0,5,7,1,2026-04-02T20:29:55.019105+05:30
Dhanbad,Jharkhand,23.7957,86.4304,32.3,45,0.0,980.3,8.65,27.0,152,63.8,57.3,0,5,7,1,2026-04-02T20:29:55.019111+05:30
Bokaro,Jharkhand,23.6693,86.1511,31.6,42,0.0,984.6,8.65,28.1,150,59.4,53.0,0,5,7,1,2026-04-02T20:29:55.019117+05:30
Bhubaneswar,Odisha,20.2961,85.8245,27.7,72,0.0,1004.5,8.9,30.6,66,17.3,15.5,7,5,4,1,2026-04-02T20:29:55.019124+05:30
Cuttack,Odisha,20.4625,85.8828,29.5,56,0.0,1006.1,8.95,23.0,66,17.3,15.5,4,5,4,1,2026-04-02T20:29:55.019130+05:30
Rourkela,Odisha,22.2604,84.8536,30.6,59,0.0,986.2,8.65,26.6,184,59.6,47.4,0,5,7,1,2026-04-02T20:29:55.019137+05:30
Raipur,Chhattisgarh,21.2514,81.6296,31.3,45,0.0,976.8,8.7,25.6,176,68.5,61.9,0,5,7,1,2026-04-02T20:29:55.019143+05:30
Bhilai,Chhattisgarh,21.1938,81.3509,30.0,49,0.0,977.3,8.7,24.8,155,64.0,56.3,4,5,7,1,2026-04-02T20:29:55.019149+05:30
Guwahati,Assam,26.1158,91.7086,26.5,82,0.0,1002.0,8.15,33.5,105,41.3,37.7,7,5,4,1,2026-04-02T20:29:55.019156+05:30
Agartala,Tripura,23.8315,91.2868,26.7,81,0.0,1006.8,8.4,43.2,111,37.7,32.1,7,5,4,1,2026-04-02T20:29:55.019163+05:30
Shillong,Meghalaya,25.5788,91.8933,15.8,89,0.0,857.5,8.55,70.9,103,38.3,33.5,3,10,7,0,2026-04-02T20:29:55.019170+05:30
Imphal,Manipur,24.817,93.9368,19.6,82,0.0,924.8,8.7,87.1,117,55.8,49.0,3,10,7,1,2026-04-02T20:29:55.019177+05:30
Aizawl,Mizoram,23.7271,92.7176,21.2,78,0.0,894.3,8.65,55.1,97,53.4,40.7,3,5,7,1,2026-04-02T20:29:55.019184+05:30
Kohima,Nagaland,25.6701,94.1077,16.4,88,0.0,856.3,8.65,105.5,91,51.9,43.7,3,10,7,0,2026-04-02T20:29:55.019191+05:30
Gangtok,Sikkim,27.3314,88.6138,16.9,90,0.0,838.4,8.5,20.5,108,53.1,44.2,3,10,7,0,2026-04-02T20:29:55.019197+05:30
Siliguri,West Bengal,26.7271,88.3953,23.5,68,0.0,993.8,8.05,21.6,144,60.5,48.9,3,5,7,1,2026-04-02T20:29:58.366270+05:30
Durgapur,West Bengal,23.5204,87.3119,31.9,49,0.0,995.0,8.6,21.6,175,69.2,61.5,0,5,7,1,2026-04-02T20:29:58.366300+05:30
Asansol,West Bengal,23.6739,86.9524,32.5,48,0.0,993.6,8.65,22.3,167,56.1,48.9,0,5,7,1,2026-04-02T20:29:58.366310+05:30
Pondicherry,Puducherry,11.9139,79.8145,25.5,85,0.0,1010.5,9.25,27.0,38,10.7,7.8,7,0,4,1,2026-04-02T20:29:58.366318+05:30
Port Blair,Andaman and Nicobar Islands,11.6234,92.7265,29.0,77,0.0,1009.4,9.1,32.0,43,9.8,6.1,7,0,4,1,2026-04-02T20:29:58.366326+05:30
Haridwar,Uttarakhand,29.9457,78.1642,23.8,52,0.0,974.7,6.65,29.2,61,30.7,17.9,0,5,7,0,2026-04-02T20:29:58.366334+05:30
Rishikesh,Uttarakhand,30.0869,78.2676,23.0,52,0.0,967.6,6.7,31.0,49,29.8,12.0,0,5,7,0,2026-04-02T20:29:58.366341+05:30
Nainital,Uttarakhand,29.3919,79.4542,21.2,29,0.0,807.7,7.55,42.1,69,28.0,13.4,0,5,7,0,2026-04-02T20:29:58.366349+05:30
Mussoorie,Uttarakhand,30.4599,78.0664,18.4,40,0.0,804.3,7.0,37.4,57,39.1,19.8,0,5,7,0,2026-04-02T20:29:58.366356+05:30
Dharamshala,Himachal Pradesh,32.219,76.3234,20.9,48,0.0,870.6,7.3,28.4,54,25.7,11.9,0,5,7,0,2026-04-02T20:29:58.366363+05:30
Dalhousie,Himachal Pradesh,32.5387,75.971,17.7,41,0.0,804.7,7.55,24.8,62,39.1,21.8,0,5,7,0,2026-04-02T20:29:58.366370+05:30
Patiala,Punjab,30.3398,76.3869,25.4,56,0.0,978.7,6.7,20.9,108,112.9,46.2,4,5,7,0,2026-04-02T20:29:58.366377+05:30
Bhatinda,Punjab,30.211,74.9455,26.1,60,0.0,983.8,7.15,50.4,98,201.2,38.3,4,5,7,1,2026-04-02T20:29:58.366383+05:30
Rohtak,Haryana,28.8955,76.6066,24.7,68,0.0,982.6,6.9,49.0,149,295.2,74.5,3,5,7,1,2026-04-02T20:29:58.366389+05:30
Panipat,Haryana,29.3909,76.9635,24.9,66,0.0,981.0,6.7,22.7,161,115.3,55.1,3,5,7,1,2026-04-02T20:29:58.366396+05:30
Mathura,Uttar Pradesh,27.4924,77.6737,28.6,46,0.0,987.3,7.2,18.0,150,815.8,93.6,4,5,7,0,2026-04-02T20:29:58.366402+05:30
Vrindavan,Uttar Pradesh,27.5823,77.7027,28.6,43,0.0,988.0,7.2,15.8,150,815.8,93.6,4,5,7,0,2026-04-02T20:29:58.366409+05:30
Ayodhya,Uttar Pradesh,26.7922,82.1998,28.9,37,0.0,994.6,7.65,36.4,105,33.2,21.6,4,5,7,0,2026-04-02T20:29:58.366415+05:30
Ratlam,Madhya Pradesh,23.3315,75.0367,28.6,40,0.0,955.6,8.15,33.1,104,25.4,21.8,4,5,7,0,2026-04-02T20:29:58.366422+05:30
Sagar,Madhya Pradesh,23.8388,78.7378,28.8,47,0.0,952.0,8.25,34.2,96,27.6,22.5,4,5,7,1,2026-04-02T20:29:58.366428+05:30
Satna,Madhya Pradesh,24.6005,80.8322,32.5,37,0.0,972.4,7.75,22.3,88,31.5,22.8,0,5,7,0,2026-04-02T20:29:58.366435+05:30
Akola,Maharashtra,20.7002,77.0082,26.7,73,0.0,977.7,8.6,23.4,119,36.6,32.0,7,5,7,1,2026-04-02T20:29:58.366442+05:30
Amravati,Maharashtra,20.9374,77.7796,26.0,76,0.0,969.9,8.55,38.9,116,38.2,32.4,7,5,7,1,2026-04-02T20:29:58.366449+05:30
Latur,Maharashtra,18.4088,76.5604,25.1,74,0.0,942.1,8.9,36.4,122,39.8,34.7,7,5,7,1,2026-04-02T20:29:58.366456+05:30
Nanded,Maharashtra,19.1383,77.3091,28.3,68,0.0,971.1,8.75,29.5,133,50.8,43.1,7,5,7,1,2026-04-02T20:29:58.366461+05:30
Gulbarga,Karnataka,17.3297,76.8343,29.7,52,0.0,960.6,8.95,45.4,131,20.0,16.8,4,5,7,1,2026-04-02T20:29:58.366467+05:30
Bidar,Karnataka,17.9104,77.5199,26.1,69,0.0,937.6,8.95,30.2,111,35.2,30.3,7,5,7,1,2026-04-02T20:29:58.366473+05:30
Hospet,Karnataka,15.2689,76.3909,29.7,58,0.0,957.1,9.15,33.8,159,24.4,21.1,4,5,7,1,2026-04-02T20:29:58.366479+05:30
Tirupur,Tamil Nadu,11.1085,77.3411,30.1,56,0.0,976.3,9.2,30.2,105,20.0,17.3,0,5,7,1,2026-04-02T20:29:58.366485+05:30
Alappuzha,Kerala,9.4981,76.3388,29.1,80,0.0,1010.6,9.2,27.4,120,24.0,18.7,7,0,4,1,2026-04-02T20:29:58.366511+05:30
Munnar,Kerala,10.0889,77.0595,22.0,89,0.0,858.6,9.75,34.9,88,22.4,20.9,3,5,7,1,2026-04-02T20:29:58.366520+05:30
Silchar,Assam,24.8333,92.7789,25.4,85,0.0,1006.3,8.4,34.2,145,63.6,55.2,7,5,4,1,2026-04-02T20:29:58.366527+05:30
Dibrugarh,Assam,27.4728,94.912,22.4,91,0.0,998.1,6.05,26.3,87,25.6,24.1,3,5,7,1,2026-04-02T20:29:58.366534+05:30
