city,state,latitude,longitude,temp,humidity,rain,pressure,uv_index,wind_gusts,aqi,pm10,pm2_5,mosquito_risk,arthritis_risk,migraine_risk,frizz_risk,updated_at
Delhi,Delhi,28.6139,77.209,19.2,70,0.0,984.5,6.2,27.0,175,295.2,84.5,3,5,7,0,2026-03-18T05:06:04.890277+05:30
Mumbai,Maharashtra,19.076,72.8777,26.2,77,0.0,1008.3,7.7,22.0,87,38.3,18.9,7,0,4,1,2026-03-18T05:06:04.890335+05:30
Bangalore,Karnataka,12.9716,77.5946,19.2,92,0.0,910.9,9.4,24.8,103,31.8,29.8,3,10,7,1,2026-03-18T05:06:04.890353+05:30
Hyderabad,Telangana,17.385,78.4867,21.9,82,0.0,954.0,8.65,43.9,81,9.0,8.2,3,5,7,1,2026-03-18T05:06:04.890363+05:30
Chennai,Tamil Nadu,13.0827,80.2707,26.0,86,0.0,1008.5,9.1,30.6,37,13.7,9.9,7,0,4,1,2026-03-18T05:06:04.890372+05:30
Kolkata,West Bengal,22.5726,88.3639,24.1,93,0.0,1008.6,8.1,31.7,58,10.9,8.4,3,0,4,1,2026-03-18T05:06:04.890381+05:30
Pune,Maharashtra,18.5204,73.8567,17.7,87,0.0,947.6,8.3,40.7,92,72.4,51.9,3,10,7,0,2026-03-18T05:06:04.890394+05:30
Ahmedabad,Gujarat,23.0225,72.5714,22.4,71,0.0,1002.0,7.55,15.8,71,33.1,22.5,3,5,4,1,2026-03-18T05:06:04.890402+05:30
Jaipur,Rajasthan,26.9124,75.7873,21.4,57,0.0,960.2,6.75,25.6,183,377.2,62.2,0,5,7,0,2026-03-18T05:06:04.890409+05:30
Lucknow,Uttar Pradesh,26.8467,80.9462,21.0,65,0.0,994.6,6.7,27.0,89,66.8,38.8,3,5,7,0,2026-03-18T05:06:04.890417+05:30
Kanpur,Uttar Pradesh,26.4499,80.3319,20.2,72,0.0,992.7,6.7,22.3,108,67.3,34.1,3,5,7,0,2026-03-18T05:06:04.890424+05:30
Chandigarh,Chandigarh,30.7333,76.7794,13.8,88,0.0,969.8,6.05,27.0,88,46.0,25.6,3,10,7,0,2026-03-18T05:06:04.890431+05:30
Srinagar,Jammu and Kashmir,34.0837,74.7973,5.6,83,0.0,841.0,2.9,22.0,111,94.1,69.4,3,10,3,0,2026-03-18T05:06:04.890438+05:30
Jammu,Jammu and Kashmir,32.7266,74.857,16.6,72,0.0,974.7,4.4,20.9,92,48.7,31.7,3,5,3,0,2026-03-18T05:06:04.890446+05:30
Amritsar,Punjab,31.634,74.8723,15.0,81,0.0,983.1,3.35,22.0,118,45.9,43.0,3,10,3,0,2026-03-18T05:06:04.890452+05:30
Ludhiana,Punjab,30.901,75.8573,15.0,83,0.0,980.6,5.95,29.5,119,106.2,54.9,3,10,3,0,2026-03-18T05:06:04.890458+05:30
Jalandhar,Punjab,31.326,75.5762,15.3,82,0.0,981.8,5.2,24.8,106,99.2,56.7,3,10,3,0,2026-03-18T05:06:04.890469+05:30
Dehradun,Uttarakhand,30.6284,78.0322,9.8,44,0.0,827.9,6.2,26.3,52,15.4,7.2,0,5,7,1,2026-03-18T05:06:04.890476+05:30
Shimla,Himachal Pradesh,31.1048,77.1734,9.0,44,0.0,781.5,5.3,37.4,61,34.6,13.5,0,5,3,1,2026-03-18T05:06:04.890483+05:30
Manali,Himachal Pradesh,32.2396,77.1887,9.9,59,0.0,817.8,5.7,23.8,40,27.4,11.6,0,5,3,0,2026-03-18T05:06:04.890490+05:30
Gurgaon,Haryana,28.4595,77.0266,16.1,86,0.0,982.8,6.3,23.8,605,411.6,101.3,3,10,7,0,2026-03-18T05:06:04.890497+05:30
Noida,Uttar Pradesh,28.5355,77.391,19.3,71,0.0,986.0,6.2,23.8,605,411.6,101.3,3,5,7,0,2026-03-18T05:06:04.890504+05:30
Ghaziabad,Uttar Pradesh,28.6692,77.4538,17.5,75,0.0,984.2,6.2,22.7,147,205.8,69.6,3,5,7,0,2026-03-18T05:06:04.890509+05:30
Faridabad,Haryana,28.4089,77.3178,17.9,81,0.0,985.2,6.25,21.2,605,411.6,101.3,3,10,7,0,2026-03-18T05:06:04.890515+05:30
Meerut,Uttar Pradesh,28.9845,77.7064,15.3,80,0.0,982.8,5.95,20.5,147,205.8,69.6,3,5,3,0,2026-03-18T05:06:04.890522+05:30
Agra,Uttar Pradesh,27.1767,78.0081,19.6,75,0.0,989.5,6.6,23.4,425,395.8,82.9,3,5,7,0,2026-03-18T05:06:04.890528+05:30
Varanasi,Uttar Pradesh,25.3176,82.9739,21.3,70,0.0,998.6,6.95,24.1,114,49.8,33.5,3,5,7,0,2026-03-18T05:06:04.890537+05:30
Prayagraj,Uttar Pradesh,25.4358,81.8463,20.8,70,0.0,997.1,6.95,26.3,107,71.0,49.9,3,5,7,0,2026-03-18T05:06:04.890543+05:30
Gorakhpur,Uttar Pradesh,26.7606,83.3732,18.2,70,0.0,998.4,6.85,22.3,101,91.3,56.0,3,5,7,0,2026-03-18T05:06:04.890550+05:30
Bareilly,Uttar Pradesh,28.367,79.4304,16.5,79,0.0,988.1,6.4,23.8,97,85.2,49.5,3,5,7,0,2026-03-18T05:06:04.890556+05:30
Aligarh,Uttar Pradesh,27.8974,78.088,18.2,77,0.0,987.0,6.35,20.9,152,231.4,70.5,3,5,7,0,2026-03-18T05:06:04.890563+05:30
Moradabad,Uttar Pradesh,28.8386,78.7733,16.1,81,0.0,984.9,6.2,21.6,135,83.6,74.5,3,10,7,0,2026-03-18T05:06:04.890571+05:30
Saharanpur,Uttar Pradesh,29.9637,77.546,14.3,77,0.0,977.0,5.6,39.2,101,88.7,61.7,3,5,3,0,2026-03-18T05:06:04.890577+05:30
Jhansi,Uttar Pradesh,25.4484,78.5685,20.6,68,0.0,978.4,7.1,32.0,63,130.4,32.5,3,5,7,0,2026-03-18T05:06:08.232725+05:30
Surat,Gujarat,21.1702,72.8311,24.1,91,0.0,1006.8,7.45,24.5,85,32.7,23.6,3,5,4,1,2026-03-18T05:06:08.232754+05:30
Vadodara,Gujarat,22.3072,73.1812,21.9,92,0.0,1004.5,7.6,24.1,70,28.9,19.7,3,5,4,1,2026-03-18T05:06:08.232763+05:30
Rajkot,Gujarat,22.3039,70.8022,23.0,89,0.0,994.1,7.05,40.3,51,15.0,8.7,3,5,7,1,2026-03-18T05:06:08.232770+05:30
Thane,Maharashtra,19.2183,72.9781,22.2,95,0.0,1007.8,7.7,33.8,87,38.3,18.9,3,5,4,1,2026-03-18T05:06:08.232777+05:30
Nagpur,Maharashtra,21.1458,79.0882,22.2,78,0.0,974.0,7.85,36.7,90,33.5,30.9,3,5,7,1,2026-03-18T05:06:08.232783+05:30
Nashik,Maharashtra,19.9975,73.7898,20.0,78,0.0,944.5,7.95,31.7,68,37.0,22.5,3,5,7,0,2026-03-18T05:06:08.232789+05:30
Aurangabad,Maharashtra,19.8762,75.3433,20.8,63,0.0,943.4,8.45,26.3,61,31.2,23.2,3,5,7,0,2026-03-18T05:06:08.232795+05:30
Solapur,Maharashtra,17.6599,75.9064,21.8,72,0.0,956.9,8.65,42.1,111,42.4,38.4,3,5,7,1,2026-03-18T05:06:08.232801+05:30
Kolhapur,Maharashtra,16.705,74.2433,17.6,91,0.0,947.0,8.35,46.4,95,86.6,63.8,3,10,7,1,2026-03-18T05:06:08.232807+05:30
Goa,Goa,15.2993,74.124,25.1,82,0.0,997.6,8.7,23.4,78,72.9,35.5,7,5,7,1,2026-03-18T05:06:08.232814+05:30
Jodhpur,Rajasthan,26.2389,73.0243,21.9,41,0.0,982.8,7.1,39.6,104,51.0,18.6,0,5,7,0,2026-03-18T05:06:08.232820+05:30
Udaipur,Rajasthan,24.5854,73.7125,19.5,49,0.0,946.0,7.95,27.0,37,7.9,7.2,0,5,7,0,2026-03-18T05:06:08.232826+05:30
Kota,Rajasthan,25.2138,75.8648,19.7,65,0.0,978.8,7.3,16.6,79,66.8,29.8,3,5,7,0,2026-03-18T05:06:08.232832+05:30
Bikaner,Rajasthan,28.0229,73.3119,20.1,53,0.0,982.6,5.25,33.1,74,92.9,18.1,0,5,3,0,2026-03-18T05:06:08.232838+05:30
Ajmer,Rajasthan,26.4499,74.6399,21.8,51,0.0,954.6,7.05,26.3,114,186.7,40.5,0,5,7,0,2026-03-18T05:06:08.232844+05:30
Gwalior,Madhya Pradesh,26.2183,78.1828,21.9,72,0.0,984.3,6.9,24.5,121,339.9,75.7,3,5,7,1,2026-03-18T05:06:08.232850+05:30
Indore,Madhya Pradesh,22.7196,75.8577,21.1,44,0.0,947.3,7.85,21.2,56,14.4,14.4,0,5,7,0,2026-03-18T05:06:08.232855+05:30
Bhopal,Madhya Pradesh,23.2599,77.4126,20.7,50,0.0,953.1,7.7,31.0,55,28.8,25.7,0,5,7,0,2026-03-18T05:06:08.232861+05:30
Jabalpur,Madhya Pradesh,23.1815,79.9864,22.8,59,0.0,961.9,7.8,29.5,55,22.8,19.5,0,5,7,0,2026-03-18T05:06:08.232866+05:30
Ujjain,Madhya Pradesh,23.1765,75.7885,21.2,47,0.0,953.1,7.75,19.8,55,15.7,15.7,0,5,7,0,2026-03-18T05:06:08.232872+05:30
Visakhapatnam,Andhra Pradesh,17.6868,83.2185,23.6,90,0.0,1005.9,8.05,34.9,51,14.5,13.7,3,5,4,1,2026-03-18T05:06:08.232878+05:30
Vijayawada,Andhra Pradesh,16.5062,80.648,24.0,91,0.0,1004.2,8.55,24.1,49,18.3,16.5,3,5,4,1,2026-03-18T05:06:08.232884+05:30
Guntur,Andhra Pradesh,16.3067,80.4365,24.2,91,0.0,1005.4,8.7,30.6,44,15.1,13.4,3,5,4,1,2026-03-18T05:06:08.232891+05:30
Nellore,Andhra Pradesh,14.4426,79.9865,25.5,86,0.0,1007.5,9.0,32.0,38,10.8,7.7,7,5,4,1,2026-03-18T05:06:08.232897+05:30
Kurnool,Andhra Pradesh,15.8281,78.0373,25.0,70,0.0,977.4,8.85,41.8,73,9.0,7.7,7,5,7,1,2026-03-18T05:06:08.232904+05:30
Kakinada,Andhra Pradesh,16.9891,82.2475,21.9,98,0.0,1009.4,8.65,30.2,30,10.7,9.2,3,0,4,1,2026-03-18T05:06:08.232910+05:30
Tirupati,Andhra Pradesh,13.6288,79.4192,22.5,88,0.0,993.2,9.1,31.3,59,30.4,26.6,3,5,7,1,2026-03-18T05:06:08.232916+05:30
Warangal,Telangana,17.9689,79.5941,22.9,89,0.0,980.2,7.6,32.4,56,11.1,10.4,3,5,7,1,2026-03-18T05:06:08.232921+05:30
Nizamabad,Telangana,18.6725,78.0941,24.3,70,0.0,964.8,8.05,38.9,123,37.6,34.6,3,5,7,1,2026-03-18T05:06:08.232927+05:30
Mysore,Karnataka,12.2958,76.6396,19.2,90,0.0,927.6,9.35,20.5,106,41.9,40.3,3,10,7,1,2026-03-18T05:06:08.232933+05:30
Mangalore,Karnataka,12.9141,74.856,27.8,80,0.0,1006.2,9.0,18.0,78,30.3,22.4,7,5,4,1,2026-03-18T05:06:08.232938+05:30
Hubli-Dharwad,Karnataka,15.3647,75.124,20.3,93,0.0,939.9,8.95,32.0,86,55.2,50.1,3,5,7,1,2026-03-18T05:06:08.232945+05:30
Belgaum,Karnataka,15.8497,74.4977,19.3,99,0.0,924.4,8.85,36.4,80,70.3,40.0,3,10,7,1,2026-03-18T05:06:11.570419+05:30
Coimbatore,Tamil Nadu,11.0168,76.9558,21.1,86,0.0,961.8,9.35,28.1,96,40.7,38.6,3,5,7,1,2026-03-18T05:06:11.570456+05:30
Madurai,Tamil Nadu,9.9252,78.1198,23.4,87,0.0,993.5,7.9,25.6,63,29.0,27.7,3,5,7,1,2026-03-18T05:06:11.570468+05:30
Trichy,Tamil Nadu,10.7905,78.7047,24.6,91,0.0,1000.5,8.75,24.8,54,23.1,19.3,3,5,4,1,2026-03-18T05:06:11.570478+05:30
Salem,Tamil Nadu,11.6643,78.146,23.1,87,0.0,977.9,9.2,21.6,78,25.0,21.9,3,5,7,1,2026-03-18T05:06:11.570486+05:30
Tirunelveli,Tamil Nadu,8.7139,77.7567,23.2,93,0.0,1003.6,6.7,27.0,67,32.2,31.2,3,5,4,1,2026-03-18T05:06:11.570494+05:30
Vellore,Tamil Nadu,12.9165,79.1325,22.0,92,0.0,985.9,9.2,33.5,66,25.6,21.8,3,5,7,1,2026-03-18T05:06:11.570502+05:30
Erode,Tamil Nadu,11.341,77.7172,23.2,82,0.0,989.8,9.2,23.0,60,16.0,13.4,3,5,7,1,2026-03-18T05:06:11.570510+05:30
Kochi,Kerala,9.9312,76.2673,27.0,83,0.0,1008.4,9.1,25.6,92,32.6,31.8,7,0,4,1,2026-03-18T05:06:11.570518+05:30
Thiruvananthapuram,Kerala,8.5241,76.9366,27.2,78,0.0,1007.4,7.9,14.8,56,17.3,16.2,7,5,4,1,2026-03-18T05:06:11.570526+05:30
Kozhikode,Kerala,11.2588,75.7804,26.1,84,0.0,1007.9,8.95,27.4,92,29.4,27.2,7,5,4,1,2026-03-18T05:06:11.570533+05:30
Thrissur,Kerala,10.5276,76.2144,23.6,89,0.0,1007.3,8.05,31.7,87,27.0,26.2,3,5,4,1,2026-03-18T05:06:11.570542+05:30
Kannur,Kerala,11.8745,75.3704,25.8,83,0.0,1007.0,9.05,28.1,102,35.5,32.8,7,5,4,1,2026-03-18T05:06:11.570550+05:30
Patna,Bihar,25.5941,85.1376,23.7,70,0.0,1001.6,7.35,20.2,144,95.7,72.6,3,5,4,1,2026-03-18T05:06:11.570558+05:30
Gaya,Bihar,24.7914,85.0002,22.5,57,0.0,994.9,6.9,26.6,91,44.4,32.2,0,5,7,0,2026-03-18T05:06:11.570566+05:30
Muzaffarpur,Bihar,26.1209,85.3647,20.1,82,0.0,1001.6,7.5,20.2,151,102.7,79.4,3,5,4,1,2026-03-18T05:06:11.570574+05:30
Bhagalpur,Bihar,25.2425,87.0117,23.1,81,0.0,1002.8,7.45,22.7,147,74.0,59.1,3,5,4,1,2026-03-18T05:06:11.570581+05:30
Ranchi,Jharkhand,23.3441,85.3096,20.2,75,0.0,938.9,8.25,36.4,114,49.0,40.3,3,5,7,0,2026-03-18T05:06:11.570589+05:30
Jamshedpur,Jharkhand,22.8046,86.2029,22.4,82,0.0,993.0,8.1,31.7,143,65.0,56.0,3,5,7,1,2026-03-18T05:06:11.570597+05:30
Dhanbad,Jharkhand,23.7957,86.4304,23.0,68,0.0,981.2,8.05,38.5,153,89.6,71.7,3,5,7,1,2026-03-18T05:06:11.570605+05:30
Bokaro,Jharkhand,23.6693,86.1511,22.6,70,0.0,985.4,8.05,48.2,144,88.2,71.5,3,5,7,1,2026-03-18T05:06:11.570612+05:30
Bhubaneswar,Odisha,20.2961,85.8245,23.6,94,0.0,1005.1,8.4,31.3,51,9.2,8.1,3,5,4,1,2026-03-18T05:06:11.570620+05:30
Cuttack,Odisha,20.4625,85.8828,23.3,94,0.0,1007.1,8.5,21.6,51,9.2,8.1,3,5,4,1,2026-03-18T05:06:11.570627+05:30
Rourkela,Odisha,22.2604,84.8536,21.7,85,0.0,987.7,8.05,36.7,152,65.9,54.5,3,5,7,1,2026-03-18T05:06:11.570634+05:30
Raipur,Chhattisgarh,21.2514,81.6296,21.2,77,0.0,976.6,7.7,48.2,126,48.4,44.6,3,5,7,1,2026-03-18T05:06:11.570641+05:30
Bhilai,Chhattisgarh,21.1938,81.3509,20.8,82,0.0,976.6,7.65,42.5,122,50.2,46.3,3,5,7,1,2026-03-18T05:06:11.570649+05:30
Guwahati,Assam,26.1158,91.7086,20.0,88,0.0,1004.9,7.45,38.9,96,59.0,48.2,3,5,4,1,2026-03-18T05:06:11.570656+05:30
Agartala,Tripura,23.8315,91.2868,22.1,96,0.0,1009.7,7.85,27.0,69,12.0,10.6,3,0,4,1,2026-03-18T05:06:11.570664+05:30
Shillong,Meghalaya,25.5788,91.8933,12.4,90,0.0,856.0,7.85,61.9,70,31.5,27.2,3,10,7,0,2026-03-18T05:06:11.570671+05:30
Imphal,Manipur,24.817,93.9368,15.1,88,0.0,925.3,8.15,66.2,85,46.2,38.4,3,10,7,0,2026-03-18T05:06:11.570679+05:30
Aizawl,Mizoram,23.7271,92.7176,14.9,94,0.0,894.0,8.05,44.3,76,32.7,26.8,3,10,7,0,2026-03-18T05:06:11.570686+05:30
Kohima,Nagaland,25.6701,94.1077,13.5,79,0.0,855.2,7.95,96.1,70,35.7,29.9,3,5,7,0,2026-03-18T05:06:11.570693+05:30
Gangtok,Sikkim,27.3314,88.6138,10.1,60,0.0,835.5,7.85,22.7,78,17.1,11.7,0,5,7,0,2026-03-18T05:06:11.570701+05:30
Siliguri,West Bengal,26.7271,88.3953,18.7,62,0.0,995.9,7.5,33.8,130,63.6,47.3,3,5,7,0,2026-03-18T05:06:14.911220+05:30
Durgapur,West Bengal,23.5204,87.3119,22.4,93,0.0,997.3,7.9,34.9,141,48.2,45.6,3,5,7,1,2026-03-18T05:06:14.911250+05:30
Asansol,West Bengal,23.6739,86.9524,23.3,79,0.0,995.8,7.85,42.5,142,68.2,55.6,3,5,7,1,2026-03-18T05:06:14.911260+05:30
Pondicherry,Puducherry,11.9139,79.8145,24.3,97,0.0,1009.5,9.1,26.6,31,13.3,9.0,3,0,4,1,2026-03-18T05:06:14.911268+05:30
Port Blair,Andaman and Nicobar Islands,11.6234,92.7265,27.7,81,0.0,1007.8,9.05,23.0,63,14.2,11.4,7,5,4,1,2026-03-18T05:06:14.911276+05:30
Haridwar,Uttarakhand,29.9457,78.1642,15.1,63,0.0,975.6,5.55,27.0,71,35.5,22.3,3,5,3,0,2026-03-18T05:06:14.911283+05:30
Rishikesh,Uttarakhand,30.0869,78.2676,15.6,51,0.0,968.2,5.7,17.3,59,34.7,15.8,0,5,3,0,2026-03-18T05:06:14.911290+05:30
Nainital,Uttarakhand,29.3919,79.4542,15.7,28,0.0,805.3,6.85,31.7,64,33.2,15.1,0,5,7,1,2026-03-18T05:06:14.911298+05:30
Mussoorie,Uttarakhand,30.4599,78.0664,12.2,39,0.0,800.9,5.75,32.0,68,26.7,15.8,0,5,3,1,2026-03-18T05:06:14.911327+05:30
Dharamshala,Himachal Pradesh,32.219,76.3234,16.8,27,0.0,868.3,5.0,23.0,46,14.3,4.5,0,5,3,1,2026-03-18T05:06:14.911334+05:30
Dalhousie,Himachal Pradesh,32.5387,75.971,12.9,31,0.0,801.8,4.35,31.3,74,42.6,22.0,0,5,3,1,2026-03-18T05:06:14.911342+05:30
Patiala,Punjab,30.3398,76.3869,13.6,91,0.0,979.7,4.85,28.1,133,92.0,49.7,3,10,3,0,2026-03-18T05:06:14.911350+05:30
Bhatinda,Punjab,30.211,74.9455,14.5,79,0.0,985.7,5.45,27.0,112,103.4,53.1,3,5,3,0,2026-03-18T05:06:14.911356+05:30
Rohtak,Haryana,28.8955,76.6066,15.3,91,0.0,983.1,5.75,31.7,299,347.4,84.8,3,10,3,0,2026-03-18T05:06:14.911363+05:30
Panipat,Haryana,29.3909,76.9635,14.6,91,0.0,981.8,5.1,36.0,270,213.7,69.6,3,10,3,0,2026-03-18T05:06:14.911369+05:30
Mathura,Uttar Pradesh,27.4924,77.6737,19.2,77,0.0,988.5,6.5,19.1,546,545.8,124.3,3,5,7,0,2026-03-18T05:06:14.911376+05:30
Vrindavan,Uttar Pradesh,27.5823,77.7027,18.7,78,0.0,988.9,6.45,19.4,546,545.8,124.3,3,5,7,0,2026-03-18T05:06:14.911383+05:30
Ayodhya,Uttar Pradesh,26.7922,82.1998,19.7,62,0.0,996.4,6.9,34.2,91,78.7,42.0,3,5,7,0,2026-03-18T05:06:14.911390+05:30
Ratlam,Madhya Pradesh,23.3315,75.0367,23.2,42,0.0,954.2,7.7,25.2,51,14.5,14.5,0,5,7,0,2026-03-18T05:06:14.911397+05:30
Sagar,Madhya Pradesh,23.8388,78.7378,20.2,51,0.0,949.6,7.7,35.6,37,32.7,15.0,0,5,7,0,2026-03-18T05:06:14.911404+05:30
Satna,Madhya Pradesh,24.6005,80.8322,22.3,53,0.0,971.4,7.6,30.2,73,40.6,21.3,0,5,7,0,2026-03-18T05:06:14.911410+05:30
Akola,Maharashtra,20.7002,77.0082,22.8,49,0.0,974.6,8.15,29.2,70,35.7,32.4,0,5,7,0,2026-03-18T05:06:14.911417+05:30
Amravati,Maharashtra,20.9374,77.7796,22.8,63,0.0,966.8,8.15,52.9,75,40.4,36.7,3,5,7,0,2026-03-18T05:06:14.911425+05:30
Latur,Maharashtra,18.4088,76.5604,20.9,74,0.0,939.2,8.55,34.2,111,40.5,36.9,3,5,7,1,2026-03-18T05:06:14.911435+05:30
Nanded,Maharashtra,19.1383,77.3091,23.2,64,0.0,968.9,8.4,32.8,98,46.8,42.1,3,5,7,0,2026-03-18T05:06:14.911441+05:30
Gulbarga,Karnataka,17.3297,76.8343,22.1,78,0.0,959.3,7.2,46.4,115,51.6,45.5,3,5,7,1,2026-03-18T05:06:14.911447+05:30
Bidar,Karnataka,17.9104,77.5199,22.3,68,0.0,935.6,6.95,43.9,107,34.2,31.0,3,5,7,1,2026-03-18T05:06:14.911453+05:30
Hospet,Karnataka,15.2689,76.3909,22.5,82,0.0,955.8,8.95,25.9,104,56.0,51.5,3,5,7,1,2026-03-18T05:06:14.911459+05:30
Tirupur,Tamil Nadu,11.1085,77.3411,23.3,86,0.0,975.8,9.35,22.0,84,31.3,29.5,3,5,7,1,2026-03-18T05:06:14.911465+05:30
Alappuzha,Kerala,9.4981,76.3388,26.6,86,0.0,1008.4,8.95,20.9,78,26.8,25.6,7,0,4,1,2026-03-18T05:06:14.911471+05:30
Munnar,Kerala,10.0889,77.0595,17.9,93,0.0,855.0,9.6,30.2,83,42.4,41.0,3,10,7,1,2026-03-18T05:06:14.911479+05:30
Silchar,Assam,24.8333,92.7789,19.0,90,0.0,1010.2,7.8,43.6,90,51.3,41.2,3,5,4,1,2026-03-18T05:06:14.911486+05:30
Dibrugarh,Assam,27.4728,94.912,18.8,88,0.0,1000.4,7.55,28.1,93,34.1,25.6,3,10,4,1,2026-03-18T05:06:14.911493+05:30
