city,state,latitude,longitude,temp,humidity,rain,pressure,uv_index,wind_gusts,aqi,pm10,pm2_5,mosquito_risk,arthritis_risk,migraine_risk,frizz_risk,updated_at
Delhi,Delhi,28.6139,77.209,25.4,49,0.0,981.7,6.1,41.4,434,581.1,83.6,4,5,7,0,2026-03-16T18:50:34.283534+05:30
Mumbai,Maharashtra,19.076,72.8777,27.2,77,0.0,1008.3,7.7,18.0,126,119.7,36.1,7,0,4,1,2026-03-16T18:50:34.283583+05:30
Bangalore,Karnataka,12.9716,77.5946,26.3,48,0.0,912.0,9.35,22.0,173,36.6,32.9,4,5,7,0,2026-03-16T18:50:34.283600+05:30
Hyderabad,Telangana,17.385,78.4867,28.1,52,0.0,953.9,8.65,22.3,115,54.4,44.1,4,5,7,1,2026-03-16T18:50:34.283609+05:30
Chennai,Tamil Nadu,13.0827,80.2707,27.3,75,0.0,1007.9,9.05,31.0,42,8.6,6.4,7,5,4,1,2026-03-16T18:50:34.283618+05:30
Kolkata,West Bengal,22.5726,88.3639,24.4,87,0.0,1008.7,8.15,33.8,75,21.8,18.2,3,0,4,1,2026-03-16T18:50:34.283627+05:30
Pune,Maharashtra,18.5204,73.8567,29.0,35,0.0,948.2,8.25,42.8,119,29.1,21.7,4,5,7,0,2026-03-16T18:50:34.283641+05:30
Ahmedabad,Gujarat,23.0225,72.5714,33.2,15,0.0,1000.4,7.45,28.4,84,31.2,13.9,0,5,4,0,2026-03-16T18:50:34.283651+05:30
Jaipur,Rajasthan,26.9124,75.7873,30.5,12,0.0,957.9,6.9,31.3,164,118.7,22.4,0,5,7,1,2026-03-16T18:50:34.283659+05:30
Lucknow,Uttar Pradesh,26.8467,80.9462,29.1,35,0.0,992.3,6.65,48.6,106,59.3,38.2,4,5,7,0,2026-03-16T18:50:34.283668+05:30
Kanpur,Uttar Pradesh,26.4499,80.3319,29.0,42,0.0,990.2,6.7,35.3,119,102.7,42.1,4,5,7,0,2026-03-16T18:50:34.283693+05:30
Chandigarh,Chandigarh,30.7333,76.7794,17.8,68,0.0,969.0,5.25,43.2,65,45.4,24.9,3,5,3,0,2026-03-16T18:50:34.283702+05:30
Srinagar,Jammu and Kashmir,34.0837,74.7973,7.3,84,0.0,838.3,5.0,21.6,79,16.4,14.7,3,10,3,0,2026-03-16T18:50:34.283710+05:30
Jammu,Jammu and Kashmir,32.7266,74.857,19.1,65,0.0,975.0,6.5,34.2,65,44.7,23.0,3,5,7,0,2026-03-16T18:50:34.283717+05:30
Amritsar,Punjab,31.634,74.8723,16.3,80,0.0,983.1,6.45,34.2,77,50.6,21.5,3,5,7,0,2026-03-16T18:50:34.283725+05:30
Ludhiana,Punjab,30.901,75.8573,17.1,63,0.0,980.3,6.15,42.8,83,36.9,20.4,3,5,7,0,2026-03-16T18:50:34.283732+05:30
Jalandhar,Punjab,31.326,75.5762,16.4,74,0.0,981.7,6.3,43.2,73,40.5,18.9,3,5,7,0,2026-03-16T18:50:34.283742+05:30
Dehradun,Uttarakhand,30.6284,78.0322,10.7,71,0.0,827.7,5.25,31.0,88,37.0,11.9,3,5,3,0,2026-03-16T18:50:34.283749+05:30
Shimla,Himachal Pradesh,31.1048,77.1734,10.0,71,0.0,780.9,4.4,35.6,77,43.4,12.3,3,5,3,0,2026-03-16T18:50:34.283756+05:30
Manali,Himachal Pradesh,32.2396,77.1887,8.0,97,0.6,813.8,5.2,43.2,109,20.4,6.4,6,10,3,0,2026-03-16T18:50:34.283764+05:30
Gurgaon,Haryana,28.4595,77.0266,24.5,55,0.0,979.8,6.2,45.7,2034,728.3,109.7,0,5,7,0,2026-03-16T18:50:34.283771+05:30
Noida,Uttar Pradesh,28.5355,77.391,25.4,48,0.0,983.2,6.1,42.1,2034,728.3,109.7,4,5,7,0,2026-03-16T18:50:34.283778+05:30
Ghaziabad,Uttar Pradesh,28.6692,77.4538,22.7,62,0.0,981.7,6.1,45.7,117,181.6,43.2,3,5,7,0,2026-03-16T18:50:34.283784+05:30
Faridabad,Haryana,28.4089,77.3178,25.2,50,0.0,982.1,6.15,41.0,2034,728.3,109.7,4,5,7,0,2026-03-16T18:50:34.283791+05:30
Meerut,Uttar Pradesh,28.9845,77.7064,20.9,74,0.0,980.7,6.0,53.6,117,181.6,43.2,3,5,3,1,2026-03-16T18:50:34.283797+05:30
Agra,Uttar Pradesh,27.1767,78.0081,27.2,32,0.0,986.1,6.5,34.9,1023,234.2,56.1,4,5,7,0,2026-03-16T18:50:34.283804+05:30
Varanasi,Uttar Pradesh,25.3176,82.9739,27.0,57,0.0,996.3,7.35,29.9,156,59.8,47.4,4,5,7,1,2026-03-16T18:50:34.283814+05:30
Prayagraj,Uttar Pradesh,25.4358,81.8463,26.2,70,0.0,994.4,7.2,33.8,173,62.4,48.8,7,5,7,1,2026-03-16T18:50:34.283821+05:30
Gorakhpur,Uttar Pradesh,26.7606,83.3732,25.4,50,0.0,996.7,6.85,27.4,128,41.7,25.7,4,5,7,0,2026-03-16T18:50:34.283828+05:30
Bareilly,Uttar Pradesh,28.367,79.4304,21.7,74,0.0,987.5,6.3,60.8,88,84.1,36.1,3,5,7,1,2026-03-16T18:50:34.283835+05:30
Aligarh,Uttar Pradesh,27.8974,78.088,26.8,47,0.0,983.9,6.25,37.1,613,432.1,74.3,4,5,7,0,2026-03-16T18:50:34.283842+05:30
Moradabad,Uttar Pradesh,28.8386,78.7733,23.5,66,0.0,984.4,6.15,69.1,99,71.0,38.1,3,5,7,1,2026-03-16T18:50:34.283848+05:30
Saharanpur,Uttar Pradesh,29.9637,77.546,20.2,68,0.0,975.5,5.7,40.7,77,71.5,37.3,3,5,3,0,2026-03-16T18:50:34.283857+05:30
Jhansi,Uttar Pradesh,25.4484,78.5685,30.3,26,0.0,976.4,7.15,27.4,93,152.3,35.0,0,5,7,0,2026-03-16T18:50:37.506433+05:30
Surat,Gujarat,21.1702,72.8311,26.6,81,0.0,1006.1,7.35,28.1,100,65.2,38.3,7,5,4,1,2026-03-16T18:50:37.506464+05:30
Vadodara,Gujarat,22.3072,73.1812,33.2,22,0.0,1002.7,7.0,28.4,95,46.7,21.8,0,5,4,0,2026-03-16T18:50:37.506474+05:30
Rajkot,Gujarat,22.3039,70.8022,34.0,16,0.0,992.7,7.3,25.6,83,45.2,16.2,0,5,7,0,2026-03-16T18:50:37.506482+05:30
Thane,Maharashtra,19.2183,72.9781,27.1,73,0.0,1007.7,7.7,31.3,126,119.7,36.1,7,5,4,1,2026-03-16T18:50:37.506490+05:30
Nagpur,Maharashtra,21.1458,79.0882,31.6,26,0.0,971.2,7.95,20.5,112,36.2,27.6,0,5,7,0,2026-03-16T18:50:37.506497+05:30
Nashik,Maharashtra,19.9975,73.7898,27.6,46,0.0,945.1,7.9,26.6,80,43.5,16.8,4,5,7,0,2026-03-16T18:50:37.506504+05:30
Aurangabad,Maharashtra,19.8762,75.3433,30.9,22,0.0,943.0,8.45,28.1,78,22.6,13.5,0,5,7,0,2026-03-16T18:50:37.506511+05:30
Solapur,Maharashtra,17.6599,75.9064,30.8,31,0.0,956.1,8.65,26.6,132,32.2,27.9,0,5,7,0,2026-03-16T18:50:37.506518+05:30
Kolhapur,Maharashtra,16.705,74.2433,26.5,57,0.0,947.8,8.75,41.0,101,41.0,35.0,4,5,7,1,2026-03-16T18:50:37.506525+05:30
Goa,Goa,15.2993,74.124,28.4,67,0.0,998.2,8.75,33.1,96,40.5,19.2,7,5,7,1,2026-03-16T18:50:37.506543+05:30
Jodhpur,Rajasthan,26.2389,73.0243,32.9,13,0.0,980.0,7.2,34.2,105,105.9,18.6,0,5,7,0,2026-03-16T18:50:37.506558+05:30
Udaipur,Rajasthan,24.5854,73.7125,29.1,16,0.0,945.4,7.8,33.5,77,22.2,9.2,4,5,7,0,2026-03-16T18:50:37.506571+05:30
Kota,Rajasthan,25.2138,75.8648,31.6,17,0.0,976.4,7.2,23.0,78,77.5,25.3,0,5,7,0,2026-03-16T18:50:37.506584+05:30
Bikaner,Rajasthan,28.0229,73.3119,29.1,18,0.0,980.7,6.9,28.4,76,73.3,21.5,4,5,7,0,2026-03-16T18:50:37.506591+05:30
Ajmer,Rajasthan,26.4499,74.6399,29.6,17,0.0,952.6,7.15,32.4,70,28.2,10.2,4,5,7,0,2026-03-16T18:50:37.506598+05:30
Gwalior,Madhya Pradesh,26.2183,78.1828,27.9,39,0.0,981.8,6.8,31.0,102,97.6,26.6,4,5,7,0,2026-03-16T18:50:37.506605+05:30
Indore,Madhya Pradesh,22.7196,75.8577,29.9,28,0.0,946.7,7.75,33.1,82,33.3,16.2,4,5,7,0,2026-03-16T18:50:37.506612+05:30
Bhopal,Madhya Pradesh,23.2599,77.4126,29.0,22,0.0,952.4,7.65,32.4,76,21.6,12.7,4,5,7,0,2026-03-16T18:50:37.506619+05:30
Jabalpur,Madhya Pradesh,23.1815,79.9864,28.7,29,0.0,959.7,7.8,37.4,80,17.9,14.3,4,5,7,0,2026-03-16T18:50:37.506626+05:30
Ujjain,Madhya Pradesh,23.1765,75.7885,29.1,28,0.0,952.7,7.65,32.4,70,31.9,17.3,4,5,7,0,2026-03-16T18:50:37.506633+05:30
Visakhapatnam,Andhra Pradesh,17.6868,83.2185,26.5,72,0.0,1006.1,8.7,40.0,59,13.5,11.3,7,5,4,1,2026-03-16T18:50:37.506639+05:30
Vijayawada,Andhra Pradesh,16.5062,80.648,28.1,58,0.0,1003.5,8.75,26.6,48,12.9,11.0,4,5,4,1,2026-03-16T18:50:37.506646+05:30
Guntur,Andhra Pradesh,16.3067,80.4365,27.5,60,0.0,1004.7,8.75,28.4,46,13.5,11.0,4,5,4,1,2026-03-16T18:50:37.506653+05:30
Nellore,Andhra Pradesh,14.4426,79.9865,27.3,70,0.0,1006.5,8.95,32.4,67,10.0,7.9,7,5,4,1,2026-03-16T18:50:37.506661+05:30
Kurnool,Andhra Pradesh,15.8281,78.0373,30.2,48,0.0,976.7,8.8,26.3,123,38.8,29.8,0,5,7,1,2026-03-16T18:50:37.506668+05:30
Kakinada,Andhra Pradesh,16.9891,82.2475,26.8,67,0.0,1009.1,8.7,31.0,43,7.4,5.3,7,0,4,1,2026-03-16T18:50:37.506690+05:30
Tirupati,Andhra Pradesh,13.6288,79.4192,29.4,42,0.0,991.6,9.05,28.4,76,15.9,14.8,4,5,7,0,2026-03-16T18:50:37.506698+05:30
Warangal,Telangana,17.9689,79.5941,28.0,66,0.0,979.2,8.5,32.0,75,39.9,33.1,7,5,7,1,2026-03-16T18:50:37.506705+05:30
Nizamabad,Telangana,18.6725,78.0941,27.9,54,0.0,964.8,8.45,33.5,147,61.0,52.2,4,5,7,1,2026-03-16T18:50:37.506711+05:30
Mysore,Karnataka,12.2958,76.6396,25.5,72,0.0,928.8,9.35,33.5,174,45.3,39.2,7,5,7,1,2026-03-16T18:50:37.506718+05:30
Mangalore,Karnataka,12.9141,74.856,29.5,75,0.0,1006.7,9.0,23.8,99,43.8,35.2,7,5,4,1,2026-03-16T18:50:37.506724+05:30
Hubli-Dharwad,Karnataka,15.3647,75.124,28.2,51,0.0,941.0,8.95,44.6,153,42.0,36.1,4,5,7,1,2026-03-16T18:50:37.506731+05:30
Belgaum,Karnataka,15.8497,74.4977,25.7,64,0.0,925.7,9.0,36.7,124,31.2,23.2,7,5,7,1,2026-03-16T18:50:40.722377+05:30
Coimbatore,Tamil Nadu,11.0168,76.9558,26.6,67,0.0,961.7,9.3,40.0,136,28.8,26.1,7,5,7,1,2026-03-16T18:50:40.722406+05:30
Madurai,Tamil Nadu,9.9252,78.1198,31.1,48,0.0,992.5,9.25,25.6,68,14.5,12.7,0,5,7,1,2026-03-16T18:50:40.722416+05:30
Trichy,Tamil Nadu,10.7905,78.7047,31.0,48,0.0,999.1,9.2,22.7,75,22.3,20.4,0,5,7,1,2026-03-16T18:50:40.722424+05:30
Salem,Tamil Nadu,11.6643,78.146,31.8,45,0.0,976.3,9.25,16.6,113,26.1,23.7,0,5,7,1,2026-03-16T18:50:40.722432+05:30
Tirunelveli,Tamil Nadu,8.7139,77.7567,29.9,62,0.0,1002.8,9.25,38.9,65,13.7,12.5,7,5,4,1,2026-03-16T18:50:40.722439+05:30
Vellore,Tamil Nadu,12.9165,79.1325,29.1,44,0.0,984.4,9.15,29.9,84,21.1,19.3,4,5,7,0,2026-03-16T18:50:40.722446+05:30
Erode,Tamil Nadu,11.341,77.7172,33.2,41,0.0,987.7,9.2,23.8,69,19.7,17.2,0,5,7,1,2026-03-16T18:50:40.722453+05:30
Kochi,Kerala,9.9312,76.2673,28.8,80,0.0,1008.1,9.1,32.0,102,25.2,22.2,7,0,4,1,2026-03-16T18:50:40.722460+05:30
Thiruvananthapuram,Kerala,8.5241,76.9366,28.8,76,0.0,1007.7,9.15,28.4,101,16.4,13.1,7,5,4,1,2026-03-16T18:50:40.722467+05:30
Kozhikode,Kerala,11.2588,75.7804,29.1,76,0.0,1007.5,9.0,31.7,76,27.7,22.8,7,5,4,1,2026-03-16T18:50:40.722473+05:30
Thrissur,Kerala,10.5276,76.2144,28.9,76,0.0,1006.6,9.05,35.6,93,25.0,22.5,7,5,4,1,2026-03-16T18:50:40.722481+05:30
Kannur,Kerala,11.8745,75.3704,29.4,72,0.0,1007.3,8.9,29.9,92,39.0,33.4,7,5,4,1,2026-03-16T18:50:40.722487+05:30
Patna,Bihar,25.5941,85.1376,28.8,56,0.0,1000.0,7.5,24.5,157,81.3,56.5,4,5,4,1,2026-03-16T18:50:40.722493+05:30
Gaya,Bihar,24.7914,85.0002,26.3,60,0.0,993.2,7.25,33.5,138,54.1,36.9,4,5,7,1,2026-03-16T18:50:40.722499+05:30
Muzaffarpur,Bihar,26.1209,85.3647,26.6,59,0.0,1000.0,7.5,21.6,158,70.5,51.1,4,5,4,1,2026-03-16T18:50:40.722505+05:30
Bhagalpur,Bihar,25.2425,87.0117,27.6,63,0.0,1001.0,7.55,31.7,184,76.6,62.4,7,5,4,1,2026-03-16T18:50:40.722511+05:30
Ranchi,Jharkhand,23.3441,85.3096,25.0,51,0.0,938.3,8.0,35.3,149,39.3,34.3,4,5,7,0,2026-03-16T18:50:40.722518+05:30
Jamshedpur,Jharkhand,22.8046,86.2029,24.9,73,0.0,992.6,8.0,39.6,164,48.1,42.8,3,5,7,1,2026-03-16T18:50:40.722524+05:30
Dhanbad,Jharkhand,23.7957,86.4304,27.5,48,0.0,980.4,7.6,35.6,162,54.2,47.7,4,5,7,0,2026-03-16T18:50:40.722530+05:30
Bokaro,Jharkhand,23.6693,86.1511,26.9,59,0.0,984.4,7.8,28.4,156,47.4,41.0,4,5,7,1,2026-03-16T18:50:40.722536+05:30
Bhubaneswar,Odisha,20.2961,85.8245,25.8,79,0.0,1005.2,8.5,37.4,73,33.5,29.5,7,5,4,1,2026-03-16T18:50:40.722542+05:30
Cuttack,Odisha,20.4625,85.8828,25.7,80,0.0,1007.3,8.5,39.6,73,33.5,29.5,7,5,4,1,2026-03-16T18:50:40.722548+05:30
Rourkela,Odisha,22.2604,84.8536,26.9,60,0.0,986.2,8.0,42.1,171,56.5,50.4,4,5,7,1,2026-03-16T18:50:40.722555+05:30
Raipur,Chhattisgarh,21.2514,81.6296,29.5,44,0.0,973.9,8.2,36.0,139,48.2,43.9,4,5,7,0,2026-03-16T18:50:40.722561+05:30
Bhilai,Chhattisgarh,21.1938,81.3509,29.5,45,0.0,974.0,8.2,34.2,132,47.0,41.9,4,5,7,1,2026-03-16T18:50:40.722567+05:30
Guwahati,Assam,26.1158,91.7086,24.8,80,0.0,1002.0,7.2,36.7,84,34.0,31.0,3,5,4,1,2026-03-16T18:50:40.722574+05:30
Agartala,Tripura,23.8315,91.2868,25.0,74,0.0,1008.0,5.55,31.7,68,36.7,32.1,7,0,0,1,2026-03-16T18:50:40.722580+05:30
Shillong,Meghalaya,25.5788,91.8933,12.9,91,0.0,855.6,7.85,74.2,65,18.4,16.6,3,10,7,0,2026-03-16T18:50:40.722586+05:30
Imphal,Manipur,24.817,93.9368,16.0,88,0.0,924.2,8.2,70.2,88,38.6,31.0,3,10,7,0,2026-03-16T18:50:40.722593+05:30
Aizawl,Mizoram,23.7271,92.7176,17.6,84,0.0,894.0,8.05,60.1,87,48.9,40.2,3,10,7,0,2026-03-16T18:50:40.722600+05:30
Kohima,Nagaland,25.6701,94.1077,15.0,67,0.0,854.7,7.9,110.5,71,33.4,26.6,3,5,7,0,2026-03-16T18:50:40.722606+05:30
Gangtok,Sikkim,27.3314,88.6138,12.8,79,0.0,835.4,7.85,18.7,86,38.1,24.8,3,5,7,0,2026-03-16T18:50:40.722612+05:30
Siliguri,West Bengal,26.7271,88.3953,21.1,76,0.0,994.6,7.5,28.8,133,49.0,35.5,3,5,7,1,2026-03-16T18:50:43.969201+05:30
Durgapur,West Bengal,23.5204,87.3119,25.9,73,0.0,996.3,7.75,41.4,156,64.7,59.6,7,5,7,1,2026-03-16T18:50:43.969230+05:30
Asansol,West Bengal,23.6739,86.9524,26.7,68,0.0,994.4,7.75,46.1,155,56.3,50.1,7,5,7,1,2026-03-16T18:50:43.969240+05:30
Pondicherry,Puducherry,11.9139,79.8145,27.3,77,0.0,1008.7,9.05,32.4,35,7.7,5.4,7,0,4,1,2026-03-16T18:50:43.969247+05:30
Port Blair,Andaman and Nicobar Islands,11.6234,92.7265,28.0,77,0.0,1008.3,9.0,20.2,70,15.9,13.4,7,0,4,1,2026-03-16T18:50:43.969255+05:30
Haridwar,Uttarakhand,29.9457,78.1642,21.6,58,0.0,974.6,5.85,51.8,87,51.1,24.3,0,5,3,0,2026-03-16T18:50:43.969263+05:30
Rishikesh,Uttarakhand,30.0869,78.2676,20.0,57,0.0,967.6,5.9,32.8,92,33.9,15.0,0,5,3,0,2026-03-16T18:50:43.969270+05:30
Nainital,Uttarakhand,29.3919,79.4542,17.5,44,0.0,805.8,6.75,68.8,78,64.0,23.5,0,5,7,0,2026-03-16T18:50:43.969278+05:30
Mussoorie,Uttarakhand,30.4599,78.0664,12.1,63,0.0,800.2,5.3,33.8,82,49.8,22.1,3,5,3,0,2026-03-16T18:50:43.969284+05:30
Dharamshala,Himachal Pradesh,32.219,76.3234,14.9,46,0.0,867.5,4.9,37.8,76,25.3,8.8,0,5,3,0,2026-03-16T18:50:43.969291+05:30
Dalhousie,Himachal Pradesh,32.5387,75.971,11.2,55,0.0,800.9,5.2,26.3,66,42.4,16.0,0,5,3,0,2026-03-16T18:50:43.969299+05:30
Patiala,Punjab,30.3398,76.3869,18.3,66,0.0,978.9,5.8,52.6,74,38.0,24.2,3,5,3,0,2026-03-16T18:50:43.969306+05:30
Bhatinda,Punjab,30.211,74.9455,19.5,63,0.0,985.1,6.55,36.0,86,63.6,28.4,3,5,7,0,2026-03-16T18:50:43.969313+05:30
Rohtak,Haryana,28.8955,76.6066,25.0,50,0.0,980.4,6.15,48.2,621,1363.5,161.6,4,5,7,0,2026-03-16T18:50:43.969319+05:30
Panipat,Haryana,29.3909,76.9635,22.8,59,0.0,979.9,5.9,41.4,190,847.5,101.3,0,5,3,0,2026-03-16T18:50:43.969326+05:30
Mathura,Uttar Pradesh,27.4924,77.6737,28.5,34,0.0,984.7,6.4,34.2,1139,257.0,55.9,4,5,7,0,2026-03-16T18:50:43.969332+05:30
Vrindavan,Uttar Pradesh,27.5823,77.7027,27.4,36,0.0,985.2,6.35,37.1,1139,257.0,55.9,4,5,7,0,2026-03-16T18:50:43.969338+05:30
Ayodhya,Uttar Pradesh,26.7922,82.1998,26.3,48,0.0,994.5,6.75,33.1,102,48.8,31.2,4,5,7,0,2026-03-16T18:50:43.969345+05:30
Ratlam,Madhya Pradesh,23.3315,75.0367,30.2,28,0.0,953.7,7.55,34.2,76,27.6,14.1,0,5,7,0,2026-03-16T18:50:43.969351+05:30
Sagar,Madhya Pradesh,23.8388,78.7378,28.1,29,0.0,948.7,7.6,29.2,79,37.6,12.6,4,5,7,0,2026-03-16T18:50:43.969358+05:30
Satna,Madhya Pradesh,24.6005,80.8322,30.5,21,0.0,969.3,7.6,38.9,99,21.9,13.6,0,5,7,0,2026-03-16T18:50:43.969364+05:30
Akola,Maharashtra,20.7002,77.0082,33.2,24,0.0,973.0,8.1,23.4,108,34.5,23.1,0,5,7,0,2026-03-16T18:50:43.969371+05:30
Amravati,Maharashtra,20.9374,77.7796,31.9,26,0.0,965.3,8.05,31.0,113,35.5,25.2,0,5,7,0,2026-03-16T18:50:43.969378+05:30
Latur,Maharashtra,18.4088,76.5604,28.9,33,0.0,939.1,8.55,24.5,114,38.5,30.4,4,5,7,0,2026-03-16T18:50:43.969384+05:30
Nanded,Maharashtra,19.1383,77.3091,32.4,31,0.0,967.2,8.35,23.8,113,37.4,29.9,0,5,7,0,2026-03-16T18:50:43.969390+05:30
Gulbarga,Karnataka,17.3297,76.8343,29.6,40,0.0,958.5,8.65,32.4,159,43.9,37.6,4,5,7,0,2026-03-16T18:50:43.969396+05:30
Bidar,Karnataka,17.9104,77.5199,26.2,55,0.0,935.7,8.6,37.1,164,52.5,46.9,4,5,7,1,2026-03-16T18:50:43.969402+05:30
Hospet,Karnataka,15.2689,76.3909,29.5,51,0.0,955.8,8.9,28.8,174,48.0,41.2,4,5,7,1,2026-03-16T18:50:43.969408+05:30
Tirupur,Tamil Nadu,11.1085,77.3411,28.9,38,0.0,975.1,9.3,33.1,116,21.4,18.7,4,5,7,0,2026-03-16T18:50:43.969414+05:30
Alappuzha,Kerala,9.4981,76.3388,28.8,79,0.0,1008.2,9.1,30.2,114,22.8,19.0,7,0,4,1,2026-03-16T18:50:43.969420+05:30
Munnar,Kerala,10.0889,77.0595,22.8,76,0.0,857.4,9.6,33.1,85,25.3,23.5,3,5,7,1,2026-03-16T18:50:43.969427+05:30
Silchar,Assam,24.8333,92.7789,22.2,87,0.0,1007.6,7.85,44.6,74,28.2,24.4,3,5,4,1,2026-03-16T18:50:43.969433+05:30
Dibrugarh,Assam,27.4728,94.912,19.0,92,0.0,997.8,3.25,40.7,80,34.1,30.3,3,10,3,1,2026-03-16T18:50:43.969439+05:30
