city,state,latitude,longitude,temp,humidity,rain,pressure,uv_index,wind_gusts,aqi,pm10,pm2_5,no2,co,o3,so2,mosquito_risk,arthritis_risk,migraine_risk,frizz_risk,updated_at
Delhi,Delhi,28.6139,77.209,35.9,46,0.0,973.4,7.75,37.8,284,614.7,127.6,23.9,478.0,97.0,14.7,0,5,10,1,2026-06-29T19:36:24.883526+05:30
Mumbai,Maharashtra,19.076,72.8777,26.2,90,0.1,1004.1,4.2,32.0,48,13.9,8.4,9.6,282.0,53.0,6.8,10,5,0,1,2026-06-29T19:36:24.883568+05:30
Bangalore,Karnataka,12.9716,77.5946,21.9,91,0.2,910.2,7.85,49.0,38,8.5,6.9,14.2,306.0,57.0,4.0,6,5,7,1,2026-06-29T19:36:24.883580+05:30
Hyderabad,Telangana,17.385,78.4867,27.5,73,0.0,948.7,7.7,34.9,39,8.6,8.5,11.9,404.0,64.0,4.5,7,5,7,1,2026-06-29T19:36:24.883588+05:30
Chennai,Tamil Nadu,13.0827,80.2707,30.0,78,0.0,1003.0,8.5,34.9,84,23.1,18.2,7.2,574.0,115.0,7.0,7,5,4,1,2026-06-29T19:36:24.883595+05:30
Kolkata,West Bengal,22.5726,88.3639,28.3,92,0.0,999.6,8.35,25.9,93,45.3,43.8,22.5,573.0,71.0,16.2,7,5,7,1,2026-06-29T19:36:24.883601+05:30
Pune,Maharashtra,18.5204,73.8567,24.1,89,0.1,943.9,7.3,38.5,26,8.5,6.5,14.6,171.0,36.0,7.2,6,5,7,1,2026-06-29T19:36:24.883606+05:30
Ahmedabad,Gujarat,23.0225,72.5714,34.1,52,0.0,994.3,8.05,42.8,60,30.6,16.7,7.3,145.0,76.0,4.3,0,5,7,1,2026-06-29T19:36:24.883612+05:30
Jaipur,Rajasthan,26.9124,75.7873,35.1,44,0.0,951.9,8.2,34.6,150,215.6,53.3,12.1,255.0,66.0,5.6,0,5,10,1,2026-06-29T19:36:24.883617+05:30
Lucknow,Uttar Pradesh,26.8467,80.9462,31.7,74,0.0,985.0,7.85,32.8,141,143.0,61.9,13.5,322.0,116.0,8.4,3,5,7,1,2026-06-29T19:36:24.883625+05:30
Kanpur,Uttar Pradesh,26.4499,80.3319,31.6,73,0.0,983.2,8.25,41.4,130,210.5,71.2,11.2,341.0,117.0,7.9,3,5,7,1,2026-06-29T19:36:24.883630+05:30
Chandigarh,Chandigarh,30.7333,76.7794,31.8,65,0.0,959.0,7.85,34.2,139,82.9,49.8,25.0,696.0,114.0,14.7,3,5,7,1,2026-06-29T19:36:24.883635+05:30
Srinagar,Jammu and Kashmir,34.0837,74.7973,30.7,37,0.0,835.4,9.1,24.1,132,29.4,20.3,17.5,534.0,119.0,4.6,0,5,7,0,2026-06-29T19:36:24.883641+05:30
Jammu,Jammu and Kashmir,32.7266,74.857,34.6,55,0.0,961.8,8.65,40.7,139,65.2,45.5,18.3,349.0,126.0,7.7,0,5,7,1,2026-06-29T19:36:24.883645+05:30
Amritsar,Punjab,31.634,74.8723,33.3,73,0.0,969.2,8.5,34.6,147,68.5,44.6,22.8,539.0,94.0,8.4,3,5,7,1,2026-06-29T19:36:24.883650+05:30
Ludhiana,Punjab,30.901,75.8573,35.1,54,0.0,967.8,8.0,38.2,155,112.9,53.0,25.4,591.0,89.0,7.5,0,5,10,1,2026-06-29T19:36:24.883655+05:30
Jalandhar,Punjab,31.326,75.5762,33.7,61,0.0,968.6,8.25,40.7,152,109.4,51.5,21.6,577.0,91.0,5.3,3,5,7,1,2026-06-29T19:36:24.883660+05:30
Dehradun,Uttarakhand,30.6284,78.0322,20.1,97,0.0,825.2,6.45,31.3,103,22.8,18.0,15.1,258.0,111.0,2.0,3,5,7,1,2026-06-29T19:36:24.883667+05:30
Shimla,Himachal Pradesh,31.1048,77.1734,18.0,89,0.0,780.2,6.5,37.8,98,22.4,18.3,10.5,420.0,116.0,4.3,3,10,7,1,2026-06-29T19:36:24.883671+05:30
Manali,Himachal Pradesh,32.2396,77.1887,20.9,96,0.0,814.9,8.9,36.7,53,38.6,28.5,67.5,249.0,41.0,0.8,3,5,7,1,2026-06-29T19:36:24.883680+05:30
Gurgaon,Haryana,28.4595,77.0266,36.1,44,0.0,971.8,7.85,43.2,502,717.1,138.8,33.0,623.0,81.0,13.6,0,5,10,1,2026-06-29T19:36:24.883684+05:30
Noida,Uttar Pradesh,28.5355,77.391,32.5,80,0.0,974.6,7.8,27.0,502,717.1,138.8,33.0,845.0,81.0,13.6,3,5,7,1,2026-06-29T19:36:24.883690+05:30
Ghaziabad,Uttar Pradesh,28.6692,77.4538,33.3,70,0.0,972.8,7.8,29.5,197,478.7,122.0,26.9,348.0,120.0,20.4,3,5,7,1,2026-06-29T19:36:24.883695+05:30
Faridabad,Haryana,28.4089,77.3178,34.3,58,0.1,974.1,7.85,37.8,502,717.1,138.8,33.0,478.0,81.0,13.6,3,5,7,1,2026-06-29T19:36:24.883700+05:30
Meerut,Uttar Pradesh,28.9845,77.7064,34.6,57,0.0,971.8,7.65,28.8,197,478.7,122.0,26.9,322.0,120.0,20.4,0,5,7,1,2026-06-29T19:36:24.883704+05:30
Agra,Uttar Pradesh,27.1767,78.0081,36.6,46,0.0,978.4,8.1,43.9,459,364.1,78.7,15.4,202.0,80.0,7.2,0,5,10,1,2026-06-29T19:36:24.883709+05:30
Varanasi,Uttar Pradesh,25.3176,82.9739,34.3,60,0.0,989.6,7.3,37.8,93,31.8,28.3,14.7,665.0,89.0,8.4,0,5,7,1,2026-06-29T19:36:24.883715+05:30
Prayagraj,Uttar Pradesh,25.4358,81.8463,34.3,63,0.0,987.5,8.7,40.7,87,45.4,33.6,15.5,229.0,95.0,9.6,3,5,7,1,2026-06-29T19:36:24.883720+05:30
Gorakhpur,Uttar Pradesh,26.7606,83.3732,29.9,75,0.0,989.9,8.3,45.0,136,54.7,49.4,13.1,437.0,112.0,8.2,7,5,7,1,2026-06-29T19:36:24.883725+05:30
Bareilly,Uttar Pradesh,28.367,79.4304,31.8,71,0.0,977.8,7.55,34.2,153,48.9,39.9,8.0,528.0,133.0,4.8,3,5,7,1,2026-06-29T19:36:24.883731+05:30
Aligarh,Uttar Pradesh,27.8974,78.088,34.8,56,0.0,976.0,7.95,43.6,251,506.6,124.8,25.3,207.0,89.0,11.2,0,5,7,1,2026-06-29T19:36:24.883735+05:30
Moradabad,Uttar Pradesh,28.8386,78.7733,32.9,68,0.0,974.3,7.55,32.4,193,88.0,67.8,12.7,514.0,155.0,13.1,3,5,7,1,2026-06-29T19:36:24.883740+05:30
Saharanpur,Uttar Pradesh,29.9637,77.546,32.4,73,0.0,966.1,7.45,36.7,166,104.8,63.3,32.5,384.0,107.0,18.2,3,5,7,1,2026-06-29T19:36:24.883744+05:30
Jhansi,Uttar Pradesh,25.4484,78.5685,34.6,51,0.0,970.0,7.85,42.8,76,79.6,32.6,6.5,186.0,75.0,3.8,0,5,7,1,2026-06-29T19:36:28.245428+05:30
Surat,Gujarat,21.1702,72.8311,30.8,67,0.0,1000.7,4.85,48.6,70,24.9,16.1,16.8,175.0,38.0,30.4,3,5,0,1,2026-06-29T19:36:28.245458+05:30
Vadodara,Gujarat,22.3072,73.1812,31.8,62,0.0,997.5,6.05,45.7,63,31.8,19.2,10.0,194.0,69.0,13.1,3,5,7,1,2026-06-29T19:36:28.245470+05:30
Rajkot,Gujarat,22.3039,70.8022,31.6,63,0.0,987.0,7.55,50.0,57,36.0,17.1,3.1,111.0,66.0,3.7,3,5,7,1,2026-06-29T19:36:28.245477+05:30
Thane,Maharashtra,19.2183,72.9781,26.7,89,0.0,1003.5,3.45,26.3,48,13.9,8.4,9.6,234.0,53.0,6.8,7,5,0,1,2026-06-29T19:36:28.245484+05:30
Nagpur,Maharashtra,21.1458,79.0882,27.7,91,0.0,967.7,7.6,36.0,76,22.8,19.5,17.7,268.0,65.0,14.2,7,5,7,1,2026-06-29T19:36:28.245490+05:30
Nashik,Maharashtra,19.9975,73.7898,25.2,79,0.0,940.9,6.55,43.9,34,7.6,5.3,8.0,155.0,60.0,4.1,7,5,7,1,2026-06-29T19:36:28.245496+05:30
Aurangabad,Maharashtra,19.8762,75.3433,24.6,96,0.2,939.5,7.15,40.0,49,11.6,9.4,6.4,184.0,75.0,4.4,6,5,7,1,2026-06-29T19:36:28.245502+05:30
Solapur,Maharashtra,17.6599,75.9064,26.5,81,0.0,953.2,6.5,51.1,33,5.5,4.9,6.3,184.0,54.0,2.1,7,5,7,1,2026-06-29T19:36:28.245508+05:30
Kolhapur,Maharashtra,16.705,74.2433,22.7,96,0.0,944.9,7.9,36.7,27,5.1,4.7,6.6,171.0,44.0,2.1,3,5,7,1,2026-06-29T19:36:28.245514+05:30
Goa,Goa,15.2993,74.124,24.5,98,0.1,996.8,4.2,31.0,28,11.1,7.0,3.3,219.0,51.0,0.7,6,5,3,1,2026-06-29T19:36:28.245519+05:30
Jodhpur,Rajasthan,26.2389,73.0243,36.4,35,0.0,973.7,8.4,46.8,141,275.7,54.5,4.2,135.0,71.0,1.5,0,5,10,1,2026-06-29T19:36:28.245525+05:30
Udaipur,Rajasthan,24.5854,73.7125,30.2,58,0.0,939.6,8.8,36.0,61,24.7,14.7,3.5,170.0,78.0,2.4,0,5,7,1,2026-06-29T19:36:28.245530+05:30
Kota,Rajasthan,25.2138,75.8648,31.2,68,0.0,971.4,6.4,35.6,67,34.6,21.9,6.2,188.0,88.0,5.3,3,5,7,1,2026-06-29T19:36:28.245535+05:30
Bikaner,Rajasthan,28.0229,73.3119,39.0,27,0.0,971.4,8.45,40.3,145,115.3,38.3,2.2,134.0,78.0,2.1,0,5,10,1,2026-06-29T19:36:28.245542+05:30
Ajmer,Rajasthan,26.4499,74.6399,33.1,46,0.0,947.0,8.35,49.0,83,32.5,19.0,6.1,158.0,73.0,2.7,0,5,7,1,2026-06-29T19:36:28.245547+05:30
Gwalior,Madhya Pradesh,26.2183,78.1828,35.8,45,0.0,974.6,7.45,46.8,96,104.3,39.0,6.7,200.0,79.0,4.0,0,5,10,1,2026-06-29T19:36:28.245553+05:30
Indore,Madhya Pradesh,22.7196,75.8577,25.7,93,0.0,942.5,8.25,35.6,80,25.0,22.1,14.1,458.0,68.0,5.5,7,5,7,1,2026-06-29T19:36:28.245558+05:30
Bhopal,Madhya Pradesh,23.2599,77.4126,27.0,92,0.0,948.0,8.55,30.2,76,28.2,21.3,5.9,373.0,81.0,3.3,7,5,7,1,2026-06-29T19:36:28.245564+05:30
Jabalpur,Madhya Pradesh,23.1815,79.9864,31.3,62,0.0,955.1,7.95,32.0,67,20.9,17.5,6.8,183.0,85.0,2.6,3,5,7,1,2026-06-29T19:36:28.245569+05:30
Ujjain,Madhya Pradesh,23.1765,75.7885,26.3,92,0.1,948.1,7.55,36.0,78,32.5,23.6,5.8,335.0,75.0,3.8,10,5,7,1,2026-06-29T19:36:28.245575+05:30
Visakhapatnam,Andhra Pradesh,17.6868,83.2185,29.5,84,0.0,997.9,8.5,50.8,91,25.7,22.4,23.7,363.0,86.0,38.6,7,5,7,1,2026-06-29T19:36:28.245580+05:30
Vijayawada,Andhra Pradesh,16.5062,80.648,30.9,67,0.0,997.0,7.7,47.9,55,22.8,21.8,18.4,449.0,51.0,6.2,3,5,7,1,2026-06-29T19:36:28.245585+05:30
Guntur,Andhra Pradesh,16.3067,80.4365,31.3,62,0.0,998.5,7.8,41.4,51,18.9,18.3,15.7,304.0,51.0,5.6,3,5,7,1,2026-06-29T19:36:28.245591+05:30
Nellore,Andhra Pradesh,14.4426,79.9865,29.6,78,0.0,1001.2,8.55,38.9,53,22.2,18.7,5.6,195.0,116.0,4.5,7,5,4,1,2026-06-29T19:36:28.245597+05:30
Kurnool,Andhra Pradesh,15.8281,78.0373,27.3,75,0.1,973.5,5.75,53.6,35,5.0,4.5,5.5,131.0,71.0,3.2,10,5,3,1,2026-06-29T19:36:28.245603+05:30
Kakinada,Andhra Pradesh,16.9891,82.2475,29.8,80,0.0,1001.9,7.15,50.8,69,19.7,15.0,4.0,346.0,95.0,4.4,7,5,4,1,2026-06-29T19:36:28.245608+05:30
Tirupati,Andhra Pradesh,13.6288,79.4192,28.5,83,0.1,987.8,8.35,37.4,38,24.4,23.1,36.3,383.0,34.0,4.9,10,5,7,1,2026-06-29T19:36:28.245613+05:30
Warangal,Telangana,17.9689,79.5941,28.4,77,0.0,973.4,5.75,28.1,54,13.2,12.7,6.7,299.0,77.0,2.2,7,5,3,1,2026-06-29T19:36:28.245618+05:30
Nizamabad,Telangana,18.6725,78.0941,27.7,86,0.0,959.9,5.7,32.8,58,21.2,16.9,7.6,343.0,89.0,5.4,7,5,3,1,2026-06-29T19:36:28.245624+05:30
Mysore,Karnataka,12.2958,76.6396,22.5,88,0.1,927.6,7.7,56.2,34,5.6,4.0,5.6,172.0,53.0,1.5,6,5,7,1,2026-06-29T19:36:28.245629+05:30
Mangalore,Karnataka,12.9141,74.856,25.0,94,0.5,1006.8,7.7,48.2,26,13.4,7.7,4.6,172.0,46.0,1.3,10,5,4,1,2026-06-29T19:36:28.245634+05:30
Hubli-Dharwad,Karnataka,15.3647,75.124,22.8,93,0.0,938.4,8.0,45.4,27,3.1,2.5,4.6,135.0,48.0,0.9,3,5,7,1,2026-06-29T19:36:28.245640+05:30
Belgaum,Karnataka,15.8497,74.4977,21.8,97,0.0,923.0,7.8,46.1,24,3.3,2.9,6.3,120.0,43.0,1.4,3,5,7,1,2026-06-29T19:36:31.589056+05:30
Coimbatore,Tamil Nadu,11.0168,76.9558,23.8,90,0.2,960.6,8.55,63.4,31,6.5,5.2,6.9,204.0,47.0,2.5,6,5,7,1,2026-06-29T19:36:31.589132+05:30
Madurai,Tamil Nadu,9.9252,78.1198,30.2,55,0.0,991.4,8.75,51.8,48,11.3,9.7,28.7,168.0,27.0,6.1,0,5,7,1,2026-06-29T19:36:31.589145+05:30
Trichy,Tamil Nadu,10.7905,78.7047,30.7,53,0.0,997.8,8.8,63.4,37,9.0,6.8,7.0,132.0,64.0,2.6,0,5,7,1,2026-06-29T19:36:31.589154+05:30
Salem,Tamil Nadu,11.6643,78.146,25.5,93,0.1,975.8,8.65,35.3,45,11.4,9.0,10.7,276.0,70.0,5.9,10,5,7,1,2026-06-29T19:36:31.589161+05:30
Tirunelveli,Tamil Nadu,8.7139,77.7567,30.1,56,0.0,1002.0,8.55,53.3,33,7.9,5.4,4.4,131.0,57.0,1.4,0,5,4,1,2026-06-29T19:36:31.589168+05:30
Vellore,Tamil Nadu,12.9165,79.1325,27.5,78,0.0,981.3,8.85,38.5,45,12.0,11.3,11.0,186.0,74.0,3.1,7,5,7,1,2026-06-29T19:36:31.589174+05:30
Erode,Tamil Nadu,11.341,77.7172,26.6,79,0.1,987.9,8.8,54.4,39,10.2,7.7,9.9,203.0,56.0,2.7,10,5,7,1,2026-06-29T19:36:31.589181+05:30
Kochi,Kerala,9.9312,76.2673,26.1,92,0.0,1009.5,8.25,41.4,30,14.6,11.5,11.0,146.0,39.0,3.2,7,0,4,1,2026-06-29T19:36:31.589187+05:30
Thiruvananthapuram,Kerala,8.5241,76.9366,26.1,85,0.0,1008.1,8.35,51.8,29,12.9,7.0,3.0,120.0,53.0,1.1,7,0,4,1,2026-06-29T19:36:31.589193+05:30
Kozhikode,Kerala,11.2588,75.7804,24.5,97,0.2,1009.4,8.5,42.1,28,15.1,6.9,1.1,177.0,57.0,0.6,6,0,4,1,2026-06-29T19:36:31.589199+05:30
Thrissur,Kerala,10.5276,76.2144,25.6,94,0.0,1007.9,8.5,38.5,26,13.5,10.4,7.8,207.0,41.0,2.3,7,5,4,1,2026-06-29T19:36:31.589206+05:30
Kannur,Kerala,11.8745,75.3704,25.3,94,0.2,1008.1,7.85,46.4,27,15.5,8.5,6.0,186.0,42.0,1.2,10,0,4,1,2026-06-29T19:36:31.589213+05:30
Patna,Bihar,25.5941,85.1376,29.3,88,0.0,993.2,7.6,31.7,144,42.0,40.5,16.0,508.0,112.0,11.4,7,5,7,1,2026-06-29T19:36:31.589220+05:30
Gaya,Bihar,24.7914,85.0002,31.5,73,0.0,986.4,8.5,35.3,112,31.2,30.0,11.0,327.0,95.0,6.9,3,5,7,1,2026-06-29T19:36:31.589225+05:30
Muzaffarpur,Bihar,26.1209,85.3647,29.1,88,0.0,993.4,8.55,26.3,162,51.0,48.5,17.3,399.0,120.0,12.2,7,5,7,1,2026-06-29T19:36:31.589231+05:30
Bhagalpur,Bihar,25.2425,87.0117,28.6,92,0.0,994.8,6.35,23.0,146,54.6,52.5,16.6,431.0,111.0,17.6,7,5,7,1,2026-06-29T19:36:31.589236+05:30
Ranchi,Jharkhand,23.3441,85.3096,26.6,88,0.0,932.4,8.9,39.2,111,36.0,35.2,10.6,345.0,92.0,4.8,7,5,7,1,2026-06-29T19:36:31.589242+05:30
Jamshedpur,Jharkhand,22.8046,86.2029,29.0,92,0.1,984.7,8.75,37.1,138,49.2,48.4,20.4,606.0,95.0,23.2,10,5,7,1,2026-06-29T19:36:31.589248+05:30
Dhanbad,Jharkhand,23.7957,86.4304,29.2,81,0.0,973.7,8.45,33.1,153,73.1,72.4,59.0,452.0,80.0,143.6,7,5,7,1,2026-06-29T19:36:31.589253+05:30
Bokaro,Jharkhand,23.6693,86.1511,29.6,83,0.0,977.3,8.7,37.8,137,61.5,60.5,44.9,1140.0,95.0,120.3,7,5,7,1,2026-06-29T19:36:31.589258+05:30
Bhubaneswar,Odisha,20.2961,85.8245,29.7,83,0.0,997.0,7.65,36.4,85,28.2,26.1,9.3,228.0,105.0,7.6,7,5,7,1,2026-06-29T19:36:31.589264+05:30
Cuttack,Odisha,20.4625,85.8828,30.1,84,0.0,998.8,7.85,43.9,85,28.2,26.1,9.3,316.0,105.0,7.6,3,5,7,1,2026-06-29T19:36:31.589269+05:30
Rourkela,Odisha,22.2604,84.8536,30.2,80,0.0,979.3,8.45,37.4,155,37.6,36.1,13.5,500.0,119.0,15.3,3,5,7,1,2026-06-29T19:36:31.589274+05:30
Raipur,Chhattisgarh,21.2514,81.6296,27.1,93,0.1,968.9,8.85,36.7,103,32.2,29.2,19.0,522.0,99.0,38.0,10,5,7,1,2026-06-29T19:36:31.589279+05:30
Bhilai,Chhattisgarh,21.1938,81.3509,27.6,94,0.2,969.3,8.55,40.7,85,33.1,29.6,16.3,781.0,104.0,33.0,10,5,7,1,2026-06-29T19:36:31.589284+05:30
Guwahati,Assam,26.1158,91.7086,26.1,99,0.0,996.9,4.95,25.2,54,18.9,18.6,12.0,453.0,52.0,2.7,7,5,3,1,2026-06-29T19:36:31.589290+05:30
Agartala,Tripura,23.8315,91.2868,27.6,91,0.0,1001.2,7.25,34.2,47,21.6,21.1,14.0,188.0,62.0,2.8,7,5,4,1,2026-06-29T19:36:31.589295+05:30
Shillong,Meghalaya,25.5788,91.8933,20.1,99,0.0,854.3,7.25,26.6,33,6.2,6.1,8.6,257.0,59.0,2.2,3,5,7,1,2026-06-29T19:36:31.589301+05:30
Imphal,Manipur,24.817,93.9368,24.9,89,0.0,919.5,8.6,26.3,40,13.8,13.5,9.7,311.0,42.0,2.0,3,5,7,1,2026-06-29T19:36:31.589306+05:30
Aizawl,Mizoram,23.7271,92.7176,21.1,90,0.0,889.1,8.7,33.1,28,4.2,4.1,5.2,148.0,48.0,0.8,3,5,7,1,2026-06-29T19:36:31.589312+05:30
Kohima,Nagaland,25.6701,94.1077,20.4,97,0.0,852.6,7.4,23.4,28,7.0,6.8,8.1,286.0,42.0,1.2,3,5,7,1,2026-06-29T19:36:31.589317+05:30
Gangtok,Sikkim,27.3314,88.6138,19.1,98,0.3,834.6,6.6,27.7,69,4.9,4.6,6.2,369.0,110.0,1.8,6,10,7,1,2026-06-29T19:36:31.589322+05:30
Siliguri,West Bengal,26.7271,88.3953,25.7,91,0.0,987.9,7.75,30.2,85,21.4,20.2,9.6,553.0,113.0,4.7,7,5,7,1,2026-06-29T19:36:34.958154+05:30
Durgapur,West Bengal,23.5204,87.3119,28.7,87,0.0,988.7,8.65,28.4,157,86.6,85.7,41.3,492.0,93.0,69.9,7,5,7,1,2026-06-29T19:36:34.958186+05:30
Asansol,West Bengal,23.6739,86.9524,29.0,85,0.0,987.2,8.25,31.3,159,60.1,59.6,39.1,1355.0,99.0,66.4,7,5,7,1,2026-06-29T19:36:34.958196+05:30
Pondicherry,Puducherry,11.9139,79.8145,30.6,65,0.0,1005.2,8.8,45.0,79,24.3,18.2,12.4,283.0,97.0,8.2,3,5,4,1,2026-06-29T19:36:34.958204+05:30
Port Blair,Andaman and Nicobar Islands,11.6234,92.7265,25.4,96,0.1,1006.9,5.65,42.8,24,13.8,8.5,0.4,95.0,48.0,0.2,10,5,0,1,2026-06-29T19:36:34.958211+05:30
Haridwar,Uttarakhand,29.9457,78.1642,32.9,63,0.0,964.7,7.4,37.8,148,52.9,40.2,11.6,358.0,120.0,10.6,3,5,7,1,2026-06-29T19:36:34.958217+05:30
Rishikesh,Uttarakhand,30.0869,78.2676,30.8,70,0.0,957.7,6.25,27.0,139,38.0,31.2,7.4,348.0,112.0,5.7,3,5,7,1,2026-06-29T19:36:34.958223+05:30
Nainital,Uttarakhand,29.3919,79.4542,18.3,96,0.0,801.3,5.6,31.0,164,58.2,40.4,6.1,351.0,147.0,7.5,3,10,3,1,2026-06-29T19:36:34.958229+05:30
Mussoorie,Uttarakhand,30.4599,78.0664,18.5,98,0.0,798.6,6.05,41.4,139,33.1,29.2,13.8,386.0,113.0,6.2,3,10,7,1,2026-06-29T19:36:34.958235+05:30
Dharamshala,Himachal Pradesh,32.219,76.3234,23.6,94,0.0,863.0,8.05,32.8,97,29.1,24.1,8.9,394.0,108.0,1.5,3,5,7,1,2026-06-29T19:36:34.958284+05:30
Dalhousie,Himachal Pradesh,32.5387,75.971,19.1,100,0.0,799.9,8.45,31.7,134,45.8,33.8,9.4,524.0,139.0,4.4,3,10,7,1,2026-06-29T19:36:34.958292+05:30
Patiala,Punjab,30.3398,76.3869,34.6,54,0.0,967.9,7.45,51.1,167,453.6,109.2,24.8,338.0,99.0,9.9,0,5,7,1,2026-06-29T19:36:34.958299+05:30
Bhatinda,Punjab,30.211,74.9455,38.2,38,0.0,972.1,8.1,32.0,148,103.6,61.5,36.4,333.0,65.0,7.5,0,5,10,1,2026-06-29T19:36:34.958305+05:30
Rohtak,Haryana,28.8955,76.6066,34.7,55,0.0,971.5,7.75,37.1,563,542.0,116.4,30.0,690.0,79.0,8.3,0,5,7,1,2026-06-29T19:36:34.958311+05:30
Panipat,Haryana,29.3909,76.9635,32.8,70,0.0,970.2,7.5,28.1,714,1061.7,183.9,25.5,436.0,88.0,10.5,3,5,7,1,2026-06-29T19:36:34.958316+05:30
Mathura,Uttar Pradesh,27.4924,77.6737,33.1,61,0.1,977.7,8.05,40.7,450,277.5,76.8,22.4,250.0,70.0,5.2,6,5,7,1,2026-06-29T19:36:34.958323+05:30
Vrindavan,Uttar Pradesh,27.5823,77.7027,32.8,65,0.1,978.0,8.0,38.9,450,277.5,76.8,22.4,311.0,70.0,5.2,6,5,7,1,2026-06-29T19:36:34.958329+05:30
Ayodhya,Uttar Pradesh,26.7922,82.1998,31.6,72,0.0,987.2,8.4,28.1,137,48.9,40.4,11.5,310.0,118.0,5.8,3,5,7,1,2026-06-29T19:36:34.958334+05:30
Ratlam,Madhya Pradesh,23.3315,75.0367,28.1,82,0.0,948.7,7.65,35.6,76,30.9,23.0,5.0,166.0,76.0,3.6,7,5,7,1,2026-06-29T19:36:34.958339+05:30
Sagar,Madhya Pradesh,23.8388,78.7378,29.2,74,0.0,943.8,7.45,34.2,68,26.3,18.2,4.0,194.0,92.0,2.7,7,5,7,1,2026-06-29T19:36:34.958344+05:30
Satna,Madhya Pradesh,24.6005,80.8322,32.2,62,0.0,963.9,8.8,37.8,75,36.3,24.6,9.8,246.0,79.0,3.3,3,5,7,1,2026-06-29T19:36:34.958349+05:30
Akola,Maharashtra,20.7002,77.0082,27.8,82,0.0,970.2,6.95,32.8,62,20.9,17.1,6.5,185.0,86.0,4.1,7,5,7,1,2026-06-29T19:36:34.958355+05:30
Amravati,Maharashtra,20.9374,77.7796,29.3,72,0.0,962.2,5.95,33.5,64,22.3,18.0,7.1,176.0,87.0,5.2,7,5,3,1,2026-06-29T19:36:34.958361+05:30
Latur,Maharashtra,18.4088,76.5604,24.7,92,0.2,935.2,6.3,33.5,41,4.7,4.7,5.5,149.0,60.0,1.2,6,5,7,1,2026-06-29T19:36:34.958368+05:30
Nanded,Maharashtra,19.1383,77.3091,28.4,81,0.0,963.5,8.25,25.6,53,18.5,14.5,7.5,247.0,83.0,6.5,7,5,7,1,2026-06-29T19:36:34.958373+05:30
Gulbarga,Karnataka,17.3297,76.8343,27.2,72,0.0,954.6,6.25,43.9,34,4.4,4.0,7.6,166.0,60.0,2.3,7,5,7,1,2026-06-29T19:36:34.958378+05:30
Bidar,Karnataka,17.9104,77.5199,25.6,92,0.0,930.9,7.4,31.3,48,8.9,8.6,8.6,169.0,75.0,2.4,7,5,7,1,2026-06-29T19:36:34.958383+05:30
Hospet,Karnataka,15.2689,76.3909,24.1,92,0.1,953.1,7.65,45.7,31,3.5,2.8,4.5,131.0,52.0,1.4,6,5,7,1,2026-06-29T19:36:34.958389+05:30
Tirupur,Tamil Nadu,11.1085,77.3411,25.2,82,0.1,973.8,8.9,65.5,38,11.0,8.8,12.1,178.0,51.0,3.7,10,5,7,1,2026-06-29T19:36:34.958394+05:30
Alappuzha,Kerala,9.4981,76.3388,26.6,90,0.0,1009.4,8.35,41.0,31,13.6,8.8,6.8,90.0,48.0,2.0,7,0,4,1,2026-06-29T19:36:34.958399+05:30
Munnar,Kerala,10.0889,77.0595,16.5,99,0.0,856.3,7.7,45.0,27,6.9,5.6,6.7,106.0,43.0,1.6,3,10,7,1,2026-06-29T19:36:34.958405+05:30
Silchar,Assam,24.8333,92.7789,27.4,95,0.0,1000.4,8.3,25.2,46,15.7,15.1,6.7,292.0,64.0,3.9,7,5,4,1,2026-06-29T19:36:34.958409+05:30
Dibrugarh,Assam,27.4728,94.912,27.2,89,0.0,990.6,3.6,27.0,45,14.8,14.5,12.5,236.0,45.0,1.7,7,5,3,1,2026-06-29T19:36:34.958414+05:30
