city,state,latitude,longitude,temp,humidity,rain,pressure,uv_index,wind_gusts,aqi,pm10,pm2_5,mosquito_risk,arthritis_risk,migraine_risk,frizz_risk,updated_at
Delhi,Delhi,28.6139,77.209,24.0,68,0.0,984.5,5.95,30.2,217,393.0,110.8,3,5,3,1,2026-03-12T23:21:18.377025+05:30
Mumbai,Maharashtra,19.076,72.8777,28.7,74,0.0,1008.4,7.6,27.7,224,45.8,44.1,7,0,4,1,2026-03-12T23:21:18.377073+05:30
Bangalore,Karnataka,12.9716,77.5946,23.8,46,0.0,912.8,9.3,32.8,73,23.2,21.4,0,5,7,0,2026-03-12T23:21:18.377089+05:30
Hyderabad,Telangana,17.385,78.4867,25.4,47,0.0,953.9,8.65,23.4,111,42.8,33.6,4,5,7,0,2026-03-12T23:21:18.377101+05:30
Chennai,Tamil Nadu,13.0827,80.2707,25.7,90,0.0,1008.8,9.0,29.5,78,25.1,21.2,7,0,4,1,2026-03-12T23:21:18.377111+05:30
Kolkata,West Bengal,22.5726,88.3639,24.0,91,0.0,1007.8,7.95,20.9,141,35.9,32.6,3,5,4,1,2026-03-12T23:21:18.377120+05:30
Pune,Maharashtra,18.5204,73.8567,26.0,57,0.0,949.1,8.15,25.9,140,51.5,48.9,4,5,7,1,2026-03-12T23:21:18.377134+05:30
Ahmedabad,Gujarat,23.0225,72.5714,27.8,33,0.0,1003.0,7.45,30.6,70,69.2,55.5,4,5,4,0,2026-03-12T23:21:18.377142+05:30
Jaipur,Rajasthan,26.9124,75.7873,26.0,22,0.0,960.9,6.4,42.8,104,73.1,35.2,4,5,7,0,2026-03-12T23:21:18.377150+05:30
Lucknow,Uttar Pradesh,26.8467,80.9462,26.0,50,0.0,994.5,6.5,28.1,154,346.5,81.5,4,5,7,0,2026-03-12T23:21:18.377158+05:30
Kanpur,Uttar Pradesh,26.4499,80.3319,25.8,60,0.0,992.6,6.0,18.0,209,429.3,93.1,4,5,3,1,2026-03-12T23:21:18.377168+05:30
Chandigarh,Chandigarh,30.7333,76.7794,20.0,77,0.0,970.7,5.95,32.0,96,65.0,51.6,3,5,3,0,2026-03-12T23:21:18.377175+05:30
Srinagar,Jammu and Kashmir,34.0837,74.7973,7.7,86,0.0,841.9,6.35,23.0,85,31.3,29.3,3,10,7,0,2026-03-12T23:21:18.377183+05:30
Jammu,Jammu and Kashmir,32.7266,74.857,18.6,89,0.0,976.0,6.05,39.6,82,61.5,46.4,3,10,7,1,2026-03-12T23:21:18.377189+05:30
Amritsar,Punjab,31.634,74.8723,19.4,86,0.0,983.9,6.65,32.4,152,57.5,35.2,3,10,7,1,2026-03-12T23:21:18.377196+05:30
Ludhiana,Punjab,30.901,75.8573,21.3,77,0.0,981.6,6.2,59.4,152,66.1,38.1,3,5,7,1,2026-03-12T23:21:18.377202+05:30
Jalandhar,Punjab,31.326,75.5762,20.6,80,0.0,982.9,6.4,31.7,138,78.9,34.2,3,5,7,1,2026-03-12T23:21:18.377211+05:30
Dehradun,Uttarakhand,30.6284,78.0322,13.0,65,0.0,830.4,5.85,37.1,56,33.3,14.3,3,5,3,0,2026-03-12T23:21:18.377218+05:30
Shimla,Himachal Pradesh,31.1048,77.1734,10.9,70,0.0,784.0,6.5,42.5,70,54.4,28.3,3,5,7,0,2026-03-12T23:21:18.377225+05:30
Manali,Himachal Pradesh,32.2396,77.1887,12.4,40,0.0,820.4,3.7,44.6,46,12.9,6.9,0,5,3,1,2026-03-12T23:21:18.377231+05:30
Gurgaon,Haryana,28.4595,77.0266,21.9,79,0.0,982.9,6.15,31.0,797,517.8,140.6,3,5,7,1,2026-03-12T23:21:18.377238+05:30
Noida,Uttar Pradesh,28.5355,77.391,24.0,67,0.0,986.0,6.0,29.9,797,517.8,140.6,3,5,3,1,2026-03-12T23:21:18.377244+05:30
Ghaziabad,Uttar Pradesh,28.6692,77.4538,22.7,74,0.0,984.1,5.95,26.3,171,388.4,109.4,3,5,3,1,2026-03-12T23:21:18.377250+05:30
Faridabad,Haryana,28.4089,77.3178,22.2,71,0.0,985.2,6.2,29.9,797,517.8,140.6,3,5,7,1,2026-03-12T23:21:18.377256+05:30
Meerut,Uttar Pradesh,28.9845,77.7064,21.9,77,0.0,982.8,5.95,24.5,171,388.4,109.4,3,5,3,1,2026-03-12T23:21:18.377262+05:30
Agra,Uttar Pradesh,27.1767,78.0081,24.6,37,0.0,989.2,6.2,31.7,379,370.7,117.1,0,5,7,0,2026-03-12T23:21:18.377268+05:30
Varanasi,Uttar Pradesh,25.3176,82.9739,23.8,62,0.0,998.6,7.3,23.8,113,75.9,41.1,3,5,7,1,2026-03-12T23:21:18.377278+05:30
Prayagraj,Uttar Pradesh,25.4358,81.8463,25.6,52,0.0,997.2,6.6,23.0,124,130.4,53.2,4,5,7,0,2026-03-12T23:21:18.377284+05:30
Gorakhpur,Uttar Pradesh,26.7606,83.3732,23.6,71,0.0,998.2,7.05,18.4,198,129.0,103.8,3,5,7,1,2026-03-12T23:21:18.377291+05:30
Bareilly,Uttar Pradesh,28.367,79.4304,21.4,69,0.0,987.7,6.25,23.4,132,431.2,93.1,3,5,7,0,2026-03-12T23:21:18.377300+05:30
Aligarh,Uttar Pradesh,27.8974,78.088,21.2,63,0.0,986.5,5.9,29.9,461,722.7,130.4,3,5,3,0,2026-03-12T23:21:18.377306+05:30
Moradabad,Uttar Pradesh,28.8386,78.7733,22.0,71,0.0,984.6,6.05,26.3,146,224.0,83.8,3,5,7,1,2026-03-12T23:21:18.377312+05:30
Saharanpur,Uttar Pradesh,29.9637,77.546,20.8,77,0.0,977.2,5.25,24.8,152,227.7,92.7,3,5,3,1,2026-03-12T23:21:18.377318+05:30
Jhansi,Uttar Pradesh,25.4484,78.5685,25.0,40,0.0,979.2,6.7,29.9,70,17.3,16.1,4,5,7,0,2026-03-12T23:21:21.656039+05:30
Surat,Gujarat,21.1702,72.8311,27.0,64,0.0,1007.0,7.3,26.3,142,51.6,50.2,7,5,4,1,2026-03-12T23:21:21.656073+05:30
Vadodara,Gujarat,22.3072,73.1812,28.3,30,0.0,1005.0,7.45,26.6,116,63.6,60.8,4,5,4,0,2026-03-12T23:21:21.656084+05:30
Rajkot,Gujarat,22.3039,70.8022,25.7,45,0.0,995.8,7.3,31.3,94,45.1,24.3,4,5,7,0,2026-03-12T23:21:21.656092+05:30
Thane,Maharashtra,19.2183,72.9781,27.0,74,0.0,1007.8,7.6,41.4,224,45.8,44.1,7,5,4,1,2026-03-12T23:21:21.656100+05:30
Nagpur,Maharashtra,21.1458,79.0882,24.7,51,0.0,973.5,8.0,16.6,105,49.5,39.8,0,5,7,0,2026-03-12T23:21:21.656107+05:30
Nashik,Maharashtra,19.9975,73.7898,26.0,37,0.0,946.5,7.8,33.8,100,31.5,30.0,4,5,7,0,2026-03-12T23:21:21.656114+05:30
Aurangabad,Maharashtra,19.8762,75.3433,25.8,35,0.0,944.5,8.3,20.5,97,29.5,28.3,4,5,7,0,2026-03-12T23:21:21.656121+05:30
Solapur,Maharashtra,17.6599,75.9064,26.2,54,0.0,956.8,8.5,18.0,115,36.9,34.2,4,5,7,1,2026-03-12T23:21:21.656128+05:30
Kolhapur,Maharashtra,16.705,74.2433,23.4,66,0.0,948.3,8.65,27.7,151,85.2,81.7,3,5,7,1,2026-03-12T23:21:21.656136+05:30
Goa,Goa,15.2993,74.124,27.3,87,0.0,998.2,8.7,33.5,141,59.8,53.0,7,5,7,1,2026-03-12T23:21:21.656143+05:30
Jodhpur,Rajasthan,26.2389,73.0243,26.4,32,0.0,984.3,6.55,25.9,72,115.0,29.1,4,5,7,0,2026-03-12T23:21:21.656150+05:30
Udaipur,Rajasthan,24.5854,73.7125,23.0,26,0.0,948.0,7.55,38.5,78,16.1,10.5,0,5,7,0,2026-03-12T23:21:21.656156+05:30
Kota,Rajasthan,25.2138,75.8648,22.3,44,0.0,979.4,6.75,34.2,74,34.3,33.3,0,5,7,0,2026-03-12T23:21:21.656163+05:30
Bikaner,Rajasthan,28.0229,73.3119,26.3,47,0.0,983.9,6.15,28.4,104,55.2,30.0,4,5,7,0,2026-03-12T23:21:21.656170+05:30
Ajmer,Rajasthan,26.4499,74.6399,24.8,34,0.0,955.9,6.75,34.2,62,50.9,23.5,0,5,7,0,2026-03-12T23:21:21.656176+05:30
Gwalior,Madhya Pradesh,26.2183,78.1828,25.6,31,0.0,984.1,6.3,33.8,59,13.2,13.1,4,5,7,0,2026-03-12T23:21:21.656183+05:30
Indore,Madhya Pradesh,22.7196,75.8577,20.9,46,0.0,948.9,7.75,29.2,75,36.7,35.9,0,5,7,0,2026-03-12T23:21:21.656189+05:30
Bhopal,Madhya Pradesh,23.2599,77.4126,24.3,41,0.0,954.5,7.6,28.8,85,32.2,28.0,0,5,7,0,2026-03-12T23:21:21.656196+05:30
Jabalpur,Madhya Pradesh,23.1815,79.9864,25.9,42,0.0,962.2,7.75,20.5,84,46.2,30.0,4,5,7,0,2026-03-12T23:21:21.656202+05:30
Ujjain,Madhya Pradesh,23.1765,75.7885,22.9,42,0.0,954.8,7.65,27.7,93,24.0,23.3,0,5,7,0,2026-03-12T23:21:21.656208+05:30
Visakhapatnam,Andhra Pradesh,17.6868,83.2185,25.8,89,0.0,1005.2,8.65,40.3,91,33.4,29.3,7,5,4,1,2026-03-12T23:21:21.656214+05:30
Vijayawada,Andhra Pradesh,16.5062,80.648,25.7,85,0.0,1003.6,8.7,28.4,74,24.6,22.9,7,5,4,1,2026-03-12T23:21:21.656220+05:30
Guntur,Andhra Pradesh,16.3067,80.4365,25.3,89,0.0,1004.8,8.7,36.0,78,24.2,22.4,7,5,4,1,2026-03-12T23:21:21.656226+05:30
Nellore,Andhra Pradesh,14.4426,79.9865,25.0,93,0.0,1007.4,8.9,28.1,72,20.2,18.0,7,5,4,1,2026-03-12T23:21:21.656233+05:30
Kurnool,Andhra Pradesh,15.8281,78.0373,28.7,41,0.0,977.6,8.65,25.9,81,30.5,27.0,4,5,7,0,2026-03-12T23:21:21.656240+05:30
Kakinada,Andhra Pradesh,16.9891,82.2475,23.8,96,0.0,1009.0,8.65,41.0,70,27.7,23.1,3,0,4,1,2026-03-12T23:21:21.656247+05:30
Tirupati,Andhra Pradesh,13.6288,79.4192,25.4,71,0.0,993.4,9.05,36.4,102,40.7,39.2,7,5,7,1,2026-03-12T23:21:21.656253+05:30
Warangal,Telangana,17.9689,79.5941,27.2,45,0.0,978.7,8.45,11.9,115,57.5,50.3,4,5,7,0,2026-03-12T23:21:21.656259+05:30
Nizamabad,Telangana,18.6725,78.0941,24.7,52,0.0,964.7,8.35,19.8,102,57.5,51.7,0,5,7,0,2026-03-12T23:21:21.656264+05:30
Mysore,Karnataka,12.2958,76.6396,24.1,46,0.0,928.7,9.3,34.9,67,20.4,19.0,0,5,7,0,2026-03-12T23:21:21.656270+05:30
Mangalore,Karnataka,12.9141,74.856,29.3,82,0.0,1007.3,8.9,32.8,104,49.4,42.5,7,5,4,1,2026-03-12T23:21:21.656276+05:30
Hubli-Dharwad,Karnataka,15.3647,75.124,25.4,37,0.0,941.3,8.85,35.6,117,22.9,20.3,4,5,7,0,2026-03-12T23:21:21.656282+05:30
Belgaum,Karnataka,15.8497,74.4977,24.8,56,0.0,926.4,8.9,37.4,117,48.1,44.4,0,5,7,0,2026-03-12T23:21:24.935389+05:30
Coimbatore,Tamil Nadu,11.0168,76.9558,23.5,65,0.0,962.9,9.3,44.3,73,28.1,27.3,3,5,7,1,2026-03-12T23:21:24.935422+05:30
Madurai,Tamil Nadu,9.9252,78.1198,26.3,81,0.0,994.6,9.2,32.0,71,23.1,22.1,7,5,7,1,2026-03-12T23:21:24.935434+05:30
Trichy,Tamil Nadu,10.7905,78.7047,25.5,89,0.0,1001.3,9.15,28.1,80,23.6,22.2,7,5,4,1,2026-03-12T23:21:24.935442+05:30
Salem,Tamil Nadu,11.6643,78.146,25.7,75,0.0,978.2,9.2,27.7,77,34.1,32.7,7,5,7,1,2026-03-12T23:21:24.935449+05:30
Tirunelveli,Tamil Nadu,8.7139,77.7567,26.6,77,0.0,1004.9,8.45,27.4,60,19.3,18.1,7,5,4,1,2026-03-12T23:21:24.935456+05:30
Vellore,Tamil Nadu,12.9165,79.1325,24.9,85,0.0,986.4,9.1,36.4,92,41.2,39.8,3,5,7,1,2026-03-12T23:21:24.935463+05:30
Erode,Tamil Nadu,11.341,77.7172,26.8,67,0.0,990.1,9.15,24.5,75,25.3,24.7,7,5,7,1,2026-03-12T23:21:24.935471+05:30
Kochi,Kerala,9.9312,76.2673,27.5,84,0.0,1009.9,9.05,35.6,112,41.4,39.6,7,0,4,1,2026-03-12T23:21:24.935478+05:30
Thiruvananthapuram,Kerala,8.5241,76.9366,28.1,79,0.0,1009.0,7.9,25.9,98,18.3,14.4,7,0,4,1,2026-03-12T23:21:24.935502+05:30
Kozhikode,Kerala,11.2588,75.7804,28.9,82,0.0,1008.5,9.0,31.7,100,36.1,29.7,7,0,4,1,2026-03-12T23:21:24.935509+05:30
Thrissur,Kerala,10.5276,76.2144,27.4,85,0.0,1007.9,9.05,39.2,95,34.8,32.8,7,5,4,1,2026-03-12T23:21:24.935516+05:30
Kannur,Kerala,11.8745,75.3704,28.6,81,0.0,1007.7,9.0,34.9,96,44.6,38.2,7,5,4,1,2026-03-12T23:21:24.935523+05:30
Patna,Bihar,25.5941,85.1376,25.8,73,0.0,1001.5,7.45,22.0,199,172.3,131.8,7,5,4,1,2026-03-12T23:21:24.935530+05:30
Gaya,Bihar,24.7914,85.0002,26.3,50,0.0,995.1,7.6,21.6,172,184.9,66.4,4,5,7,0,2026-03-12T23:21:24.935537+05:30
Muzaffarpur,Bihar,26.1209,85.3647,24.0,85,0.0,1001.6,7.4,25.6,225,153.7,148.1,3,5,4,1,2026-03-12T23:21:24.935543+05:30
Bhagalpur,Bihar,25.2425,87.0117,25.0,86,0.0,1003.1,7.5,33.5,186,114.6,107.8,7,5,4,1,2026-03-12T23:21:24.935548+05:30
Ranchi,Jharkhand,23.3441,85.3096,23.0,45,0.0,939.0,8.2,33.8,154,92.4,34.7,0,5,7,0,2026-03-12T23:21:24.935554+05:30
Jamshedpur,Jharkhand,22.8046,86.2029,26.0,86,0.0,992.0,8.05,18.7,165,71.5,69.4,7,5,7,1,2026-03-12T23:21:24.935560+05:30
Dhanbad,Jharkhand,23.7957,86.4304,25.0,80,0.0,981.4,8.0,20.9,187,144.8,124.8,7,5,7,1,2026-03-12T23:21:24.935567+05:30
Bokaro,Jharkhand,23.6693,86.1511,24.9,51,0.0,985.5,8.0,23.4,177,139.2,80.1,0,5,7,0,2026-03-12T23:21:24.935573+05:30
Bhubaneswar,Odisha,20.2961,85.8245,26.1,90,0.0,1004.0,8.35,33.5,122,42.6,38.1,7,5,4,1,2026-03-12T23:21:24.935579+05:30
Cuttack,Odisha,20.4625,85.8828,26.1,91,0.0,1005.9,8.35,29.5,122,42.6,38.1,7,5,4,1,2026-03-12T23:21:24.935585+05:30
Rourkela,Odisha,22.2604,84.8536,27.1,53,0.0,985.9,8.0,16.2,152,124.3,52.5,4,5,7,1,2026-03-12T23:21:24.935591+05:30
Raipur,Chhattisgarh,21.2514,81.6296,25.9,43,0.0,975.0,8.1,16.2,158,59.6,43.9,4,5,7,0,2026-03-12T23:21:24.935597+05:30
Bhilai,Chhattisgarh,21.1938,81.3509,25.1,47,0.0,975.2,8.1,11.9,152,64.0,48.0,4,5,7,0,2026-03-12T23:21:24.935603+05:30
Guwahati,Assam,26.1158,91.7086,23.9,91,0.0,1004.3,7.15,24.1,153,82.4,78.7,3,5,4,1,2026-03-12T23:21:24.935609+05:30
Agartala,Tripura,23.8315,91.2868,21.3,93,0.0,1009.4,7.7,19.1,154,55.1,52.0,3,0,4,1,2026-03-12T23:21:24.935615+05:30
Shillong,Meghalaya,25.5788,91.8933,11.7,89,0.0,856.0,6.65,26.3,148,76.8,70.1,3,10,7,0,2026-03-12T23:21:24.935621+05:30
Imphal,Manipur,24.817,93.9368,17.5,88,0.0,925.2,8.0,31.0,168,100.6,95.9,3,10,7,0,2026-03-12T23:21:24.935628+05:30
Aizawl,Mizoram,23.7271,92.7176,17.1,82,0.0,894.3,7.9,37.1,185,114.8,103.8,3,10,7,0,2026-03-12T23:21:24.935635+05:30
Kohima,Nagaland,25.6701,94.1077,14.6,88,0.0,855.9,7.1,41.4,151,69.6,67.5,3,10,7,0,2026-03-12T23:21:24.935641+05:30
Gangtok,Sikkim,27.3314,88.6138,14.6,94,0.0,838.2,7.15,20.2,92,34.3,32.0,3,10,7,0,2026-03-12T23:21:24.935647+05:30
Siliguri,West Bengal,26.7271,88.3953,19.8,85,0.0,996.9,7.4,23.8,162,65.4,60.1,3,10,7,1,2026-03-12T23:21:28.221135+05:30
Durgapur,West Bengal,23.5204,87.3119,25.4,88,0.0,996.9,7.95,26.3,186,121.5,113.4,7,5,7,1,2026-03-12T23:21:28.221169+05:30
Asansol,West Bengal,23.6739,86.9524,26.1,84,0.0,995.4,7.35,24.5,183,122.0,116.6,7,5,7,1,2026-03-12T23:21:28.221180+05:30
Pondicherry,Puducherry,11.9139,79.8145,24.9,94,0.0,1010.0,9.0,29.5,71,23.3,18.8,3,0,4,1,2026-03-12T23:21:28.221188+05:30
Port Blair,Andaman and Nicobar Islands,11.6234,92.7265,27.8,80,0.0,1008.2,8.95,20.5,45,16.0,13.2,7,0,4,1,2026-03-12T23:21:28.221196+05:30
Haridwar,Uttarakhand,29.9457,78.1642,20.7,79,0.0,975.5,5.35,30.2,104,93.6,50.8,3,5,3,1,2026-03-12T23:21:28.221203+05:30
Rishikesh,Uttarakhand,30.0869,78.2676,20.1,61,0.0,968.3,5.45,29.5,93,59.4,29.3,3,5,3,0,2026-03-12T23:21:28.221211+05:30
Nainital,Uttarakhand,29.3919,79.4542,18.7,54,0.0,806.9,6.55,55.1,111,99.0,41.9,0,5,7,0,2026-03-12T23:21:28.221218+05:30
Mussoorie,Uttarakhand,30.4599,78.0664,16.3,45,0.0,803.7,6.1,42.8,85,70.1,43.4,0,5,7,0,2026-03-12T23:21:28.221225+05:30
Dharamshala,Himachal Pradesh,32.219,76.3234,18.2,52,0.0,870.8,6.55,50.8,52,27.5,16.5,0,5,7,0,2026-03-12T23:21:28.221232+05:30
Dalhousie,Himachal Pradesh,32.5387,75.971,14.4,53,0.0,804.6,5.85,36.0,74,31.3,23.7,0,5,3,0,2026-03-12T23:21:28.221240+05:30
Patiala,Punjab,30.3398,76.3869,20.4,83,0.0,980.4,5.65,37.4,156,381.8,78.9,3,5,3,1,2026-03-12T23:21:28.221247+05:30
Bhatinda,Punjab,30.211,74.9455,21.3,85,0.0,986.8,6.4,28.1,154,81.0,53.4,3,5,7,1,2026-03-12T23:21:28.221254+05:30
Rohtak,Haryana,28.8955,76.6066,21.8,83,0.0,983.4,5.95,27.0,294,433.1,109.0,3,5,3,1,2026-03-12T23:21:28.221260+05:30
Panipat,Haryana,29.3909,76.9635,20.9,89,0.0,982.1,5.75,20.9,342,564.4,106.9,3,5,3,1,2026-03-12T23:21:28.221266+05:30
Mathura,Uttar Pradesh,27.4924,77.6737,21.1,61,0.0,988.2,5.8,30.6,280,421.0,91.7,3,5,3,0,2026-03-12T23:21:28.221273+05:30
Vrindavan,Uttar Pradesh,27.5823,77.7027,21.2,62,0.0,988.4,5.65,32.4,280,421.0,91.7,3,5,3,0,2026-03-12T23:21:28.221279+05:30
Ayodhya,Uttar Pradesh,26.7922,82.1998,22.5,67,0.0,996.3,6.55,26.3,153,117.6,61.9,3,5,7,1,2026-03-12T23:21:28.221285+05:30
Ratlam,Madhya Pradesh,23.3315,75.0367,26.4,29,0.0,955.9,7.6,33.1,84,17.9,17.2,4,5,7,0,2026-03-12T23:21:28.221291+05:30
Sagar,Madhya Pradesh,23.8388,78.7378,25.4,39,0.0,951.3,7.55,27.0,88,23.3,18.9,4,5,7,0,2026-03-12T23:21:28.221297+05:30
Satna,Madhya Pradesh,24.6005,80.8322,25.8,40,0.0,972.6,7.55,29.2,84,21.0,15.6,4,5,7,0,2026-03-12T23:21:28.221303+05:30
Akola,Maharashtra,20.7002,77.0082,25.7,45,0.0,975.3,8.05,22.7,115,44.9,36.6,4,5,7,0,2026-03-12T23:21:28.221309+05:30
Amravati,Maharashtra,20.9374,77.7796,25.9,43,0.0,967.5,8.0,16.9,123,49.2,39.7,4,5,7,0,2026-03-12T23:21:28.221316+05:30
Latur,Maharashtra,18.4088,76.5604,25.1,47,0.0,940.1,8.45,19.1,126,38.0,32.6,4,5,7,0,2026-03-12T23:21:28.221322+05:30
Nanded,Maharashtra,19.1383,77.3091,27.7,43,0.0,968.6,8.25,16.2,100,57.4,51.7,4,5,7,0,2026-03-12T23:21:28.221328+05:30
Gulbarga,Karnataka,17.3297,76.8343,29.2,44,0.0,959.3,8.5,18.0,127,34.3,30.2,4,5,7,0,2026-03-12T23:21:28.221334+05:30
Bidar,Karnataka,17.9104,77.5199,27.3,44,0.0,936.0,8.45,19.1,108,56.7,48.5,4,5,7,0,2026-03-12T23:21:28.221340+05:30
Hospet,Karnataka,15.2689,76.3909,28.8,41,0.0,956.5,8.8,32.4,105,38.4,33.3,4,5,7,0,2026-03-12T23:21:28.221346+05:30
Tirupur,Tamil Nadu,11.1085,77.3411,27.4,60,0.0,976.6,9.3,32.8,79,26.9,26.2,4,5,7,1,2026-03-12T23:21:28.221352+05:30
Alappuzha,Kerala,9.4981,76.3388,27.5,83,0.0,1009.9,8.4,32.0,105,39.3,36.2,7,0,4,1,2026-03-12T23:21:28.221358+05:30
Munnar,Kerala,10.0889,77.0595,21.0,75,0.0,857.3,9.5,23.0,71,30.2,29.2,3,5,7,1,2026-03-12T23:21:28.221364+05:30
Silchar,Assam,24.8333,92.7789,22.7,90,0.0,1008.1,7.7,23.8,179,158.8,148.1,3,0,4,1,2026-03-12T23:21:28.221370+05:30
Dibrugarh,Assam,27.4728,94.912,23.5,88,0.0,998.6,6.3,20.2,123,45.4,44.1,3,5,7,1,2026-03-12T23:21:28.221377+05:30
