city,state,latitude,longitude,temp,humidity,rain,pressure,uv_index,wind_gusts,aqi,pm10,pm2_5,no2,co,o3,so2,mosquito_risk,arthritis_risk,migraine_risk,frizz_risk,updated_at
Delhi,Delhi,28.6139,77.209,30.9,73,0.0,976.6,7.05,38.2,315,292.4,111.3,48.6,918.0,39.0,20.8,3,5,7,1,2026-07-14T21:47:37.849860+05:30
Mumbai,Maharashtra,19.076,72.8777,27.8,79,0.0,1007.9,6.55,41.0,73,31.9,15.7,8.4,237.0,42.0,6.1,7,5,4,1,2026-07-14T21:47:37.849908+05:30
Bangalore,Karnataka,12.9716,77.5946,25.4,55,0.0,912.4,8.55,40.3,58,24.1,18.8,36.7,913.0,40.0,8.2,4,5,7,0,2026-07-14T21:47:37.849924+05:30
Hyderabad,Telangana,17.385,78.4867,29.5,56,0.0,951.8,8.05,47.5,61,28.7,21.5,15.4,456.0,58.0,6.1,4,5,7,1,2026-07-14T21:47:37.849934+05:30
Chennai,Tamil Nadu,13.0827,80.2707,31.7,68,0.0,1004.8,8.25,37.1,109,39.6,27.2,12.9,253.0,117.0,6.8,3,5,4,1,2026-07-14T21:47:37.849942+05:30
Kolkata,West Bengal,22.5726,88.3639,28.0,92,0.0,1000.0,8.7,27.4,134,74.5,73.1,46.9,1291.0,20.0,22.7,7,5,4,1,2026-07-14T21:47:37.849950+05:30
Pune,Maharashtra,18.5204,73.8567,23.7,86,0.0,947.7,8.4,47.9,57,25.4,14.3,10.5,182.0,37.0,7.0,3,5,7,1,2026-07-14T21:47:37.849957+05:30
Ahmedabad,Gujarat,23.0225,72.5714,29.9,68,0.0,999.2,6.1,43.9,65,28.6,16.3,12.1,254.0,46.0,5.2,7,5,7,1,2026-07-14T21:47:37.849964+05:30
Jaipur,Rajasthan,26.9124,75.7873,30.4,57,0.0,955.3,8.1,41.0,437,484.3,98.7,13.6,202.0,48.0,5.7,0,5,7,1,2026-07-14T21:47:37.849971+05:30
Lucknow,Uttar Pradesh,26.8467,80.9462,30.7,73,0.0,987.4,7.8,24.5,157,156.5,79.2,30.4,355.0,46.0,11.7,3,5,7,1,2026-07-14T21:47:37.849982+05:30
Kanpur,Uttar Pradesh,26.4499,80.3319,31.3,64,0.0,986.2,7.55,31.0,147,114.6,54.8,19.4,229.0,58.0,7.5,3,5,7,1,2026-07-14T21:47:37.849988+05:30
Chandigarh,Chandigarh,30.7333,76.7794,28.4,79,0.0,962.2,7.7,24.5,172,123.4,91.0,43.5,1429.0,91.0,21.1,7,5,7,1,2026-07-14T21:47:37.849998+05:30
Srinagar,Jammu and Kashmir,34.0837,74.7973,21.0,82,0.0,837.3,8.85,22.0,83,31.4,28.0,32.0,1164.0,43.0,3.4,3,5,7,1,2026-07-14T21:47:37.850005+05:30
Jammu,Jammu and Kashmir,32.7266,74.857,28.8,76,0.0,965.7,8.25,22.7,153,112.2,73.1,54.1,1022.0,74.0,9.6,7,5,7,1,2026-07-14T21:47:37.850012+05:30
Amritsar,Punjab,31.634,74.8723,29.5,77,0.0,973.5,8.2,14.8,187,155.1,111.3,61.0,1284.0,46.0,12.5,7,5,7,1,2026-07-14T21:47:37.850019+05:30
Ludhiana,Punjab,30.901,75.8573,30.1,78,0.0,971.9,7.85,24.1,187,156.0,122.9,65.9,869.0,45.0,14.1,3,5,7,1,2026-07-14T21:47:37.850025+05:30
Jalandhar,Punjab,31.326,75.5762,29.8,84,0.0,972.8,7.5,19.8,193,208.2,144.4,78.4,1381.0,55.0,14.2,7,5,7,1,2026-07-14T21:47:37.850031+05:30
Dehradun,Uttarakhand,30.6284,78.0322,19.5,97,0.0,827.8,8.1,27.0,121,77.5,39.9,31.3,317.0,76.0,3.5,3,10,7,1,2026-07-14T21:47:37.850038+05:30
Shimla,Himachal Pradesh,31.1048,77.1734,15.8,93,0.0,781.4,7.85,32.8,153,87.5,55.5,25.1,473.0,93.0,9.6,3,10,7,0,2026-07-14T21:47:37.850044+05:30
Manali,Himachal Pradesh,32.2396,77.1887,18.9,91,0.0,816.2,9.55,31.7,106,33.8,22.5,55.7,217.0,71.0,0.4,3,10,7,1,2026-07-14T21:47:37.850056+05:30
Gurgaon,Haryana,28.4595,77.0266,31.0,65,0.0,975.1,6.8,34.2,386,201.6,89.2,46.3,557.0,38.0,16.3,3,5,7,1,2026-07-14T21:47:37.850064+05:30
Noida,Uttar Pradesh,28.5355,77.391,31.1,72,0.0,978.0,7.05,30.6,386,201.6,89.2,46.3,765.0,38.0,16.3,3,5,7,1,2026-07-14T21:47:37.850070+05:30
Ghaziabad,Uttar Pradesh,28.6692,77.4538,31.0,71,0.0,976.3,7.25,30.6,225,314.8,109.2,34.5,884.0,59.0,17.4,3,5,7,1,2026-07-14T21:47:37.850077+05:30
Faridabad,Haryana,28.4089,77.3178,31.8,63,0.0,977.3,7.45,43.9,386,201.6,89.2,46.3,614.0,38.0,16.3,3,5,7,1,2026-07-14T21:47:37.850082+05:30
Meerut,Uttar Pradesh,28.9845,77.7064,30.9,78,0.0,975.0,7.55,29.9,225,314.8,109.2,34.5,860.0,59.0,17.4,3,5,7,1,2026-07-14T21:47:37.850089+05:30
Agra,Uttar Pradesh,27.1767,78.0081,31.3,63,0.0,982.0,7.95,28.4,153,151.3,56.7,15.6,316.0,61.0,6.5,3,5,7,1,2026-07-14T21:47:37.850095+05:30
Varanasi,Uttar Pradesh,25.3176,82.9739,30.9,72,0.0,991.9,6.5,22.3,153,161.6,80.1,30.7,1615.0,58.0,16.9,3,5,7,1,2026-07-14T21:47:37.850101+05:30
Prayagraj,Uttar Pradesh,25.4358,81.8463,31.1,75,0.0,990.4,7.7,29.2,150,153.7,80.6,28.8,356.0,50.0,13.0,3,5,7,1,2026-07-14T21:47:37.850109+05:30
Gorakhpur,Uttar Pradesh,26.7606,83.3732,29.1,84,0.0,991.7,7.75,32.0,156,128.1,85.4,33.0,594.0,54.0,13.8,7,5,7,1,2026-07-14T21:47:37.850115+05:30
Bareilly,Uttar Pradesh,28.367,79.4304,30.3,81,0.0,980.7,8.0,28.8,180,186.7,100.4,25.7,388.0,72.0,12.1,3,5,7,1,2026-07-14T21:47:37.850124+05:30
Aligarh,Uttar Pradesh,27.8974,78.088,30.7,71,0.0,979.3,7.8,46.1,253,225.8,94.3,26.1,363.0,50.0,8.1,3,5,7,1,2026-07-14T21:47:37.850130+05:30
Moradabad,Uttar Pradesh,28.8386,78.7733,29.5,84,0.0,977.4,7.5,30.2,193,224.9,118.7,34.3,741.0,66.0,14.8,7,5,7,1,2026-07-14T21:47:37.850136+05:30
Saharanpur,Uttar Pradesh,29.9637,77.546,30.7,75,0.0,969.3,7.35,30.6,190,225.8,129.0,59.1,621.0,62.0,25.3,3,5,7,1,2026-07-14T21:47:37.850143+05:30
Jhansi,Uttar Pradesh,25.4484,78.5685,30.1,69,0.0,973.3,8.4,41.4,107,97.1,44.6,9.3,194.0,61.0,5.4,3,5,7,1,2026-07-14T21:47:41.173503+05:30
Surat,Gujarat,21.1702,72.8311,28.4,79,0.0,1005.0,4.3,53.6,73,27.2,18.4,19.9,294.0,27.0,31.2,7,5,0,1,2026-07-14T21:47:41.173540+05:30
Vadodara,Gujarat,22.3072,73.1812,28.7,78,0.0,1001.8,5.35,48.2,64,26.8,17.0,14.0,155.0,35.0,10.6,7,5,0,1,2026-07-14T21:47:41.173550+05:30
Rajkot,Gujarat,22.3039,70.8022,28.2,77,0.0,991.5,7.2,52.2,58,24.6,13.2,5.1,111.0,41.0,3.9,7,5,7,1,2026-07-14T21:47:41.173559+05:30
Thane,Maharashtra,19.2183,72.9781,27.0,84,0.0,1007.3,6.9,34.9,73,31.9,15.7,8.4,244.0,42.0,6.1,7,5,4,1,2026-07-14T21:47:41.173568+05:30
Nagpur,Maharashtra,21.1458,79.0882,29.1,57,0.0,970.4,8.15,47.9,78,31.0,23.3,13.7,231.0,59.0,10.9,4,5,7,1,2026-07-14T21:47:41.173576+05:30
Nashik,Maharashtra,19.9975,73.7898,23.4,90,0.0,944.4,7.2,50.8,58,19.3,10.3,9.3,149.0,39.0,5.1,3,5,7,1,2026-07-14T21:47:41.173599+05:30
Aurangabad,Maharashtra,19.8762,75.3433,25.1,73,0.0,943.1,7.7,50.4,62,26.6,17.2,7.6,158.0,69.0,8.7,7,5,7,1,2026-07-14T21:47:41.173607+05:30
Solapur,Maharashtra,17.6599,75.9064,27.8,56,0.0,956.5,8.5,38.9,58,23.5,16.6,5.7,164.0,64.0,2.8,4,5,7,1,2026-07-14T21:47:41.173615+05:30
Kolhapur,Maharashtra,16.705,74.2433,22.8,93,0.0,948.1,8.8,43.9,55,24.4,15.0,8.3,183.0,38.0,3.2,3,5,7,1,2026-07-14T21:47:41.173623+05:30
Goa,Goa,15.2993,74.124,26.5,87,0.0,999.2,7.65,31.3,71,38.0,20.7,4.8,468.0,45.0,1.8,7,5,7,1,2026-07-14T21:47:41.173630+05:30
Jodhpur,Rajasthan,26.2389,73.0243,32.1,50,0.0,977.8,8.2,47.5,198,262.6,62.2,6.8,227.0,52.0,2.3,0,5,7,1,2026-07-14T21:47:41.173638+05:30
Udaipur,Rajasthan,24.5854,73.7125,26.9,71,0.0,943.0,8.1,47.9,72,53.0,23.7,6.3,136.0,59.0,3.4,7,5,7,1,2026-07-14T21:47:41.173645+05:30
Kota,Rajasthan,25.2138,75.8648,30.5,58,0.0,974.5,8.3,38.5,89,42.5,24.7,9.4,193.0,65.0,6.0,0,5,7,1,2026-07-14T21:47:41.173652+05:30
Bikaner,Rajasthan,28.0229,73.3119,34.6,42,0.0,975.4,8.4,39.6,170,285.9,78.2,3.0,138.0,66.0,2.9,0,5,7,1,2026-07-14T21:47:41.173659+05:30
Ajmer,Rajasthan,26.4499,74.6399,28.9,59,0.0,950.3,8.25,56.2,101,88.5,34.9,7.7,170.0,54.0,3.8,4,5,7,1,2026-07-14T21:47:41.173666+05:30
Gwalior,Madhya Pradesh,26.2183,78.1828,29.9,70,0.0,978.1,8.05,42.5,112,96.2,41.4,9.5,169.0,56.0,3.3,7,5,7,1,2026-07-14T21:47:41.173673+05:30
Indore,Madhya Pradesh,22.7196,75.8577,26.2,71,0.0,945.5,8.4,52.2,68,32.2,23.2,13.2,313.0,60.0,7.1,7,5,7,1,2026-07-14T21:47:41.173680+05:30
Bhopal,Madhya Pradesh,23.2599,77.4126,26.5,69,0.0,950.5,8.55,42.1,77,28.9,20.2,9.4,300.0,58.0,3.9,7,5,7,1,2026-07-14T21:47:41.173687+05:30
Jabalpur,Madhya Pradesh,23.1815,79.9864,27.4,73,0.0,958.1,8.1,38.2,92,74.3,38.0,8.5,220.0,64.0,4.9,7,5,7,1,2026-07-14T21:47:41.173694+05:30
Ujjain,Madhya Pradesh,23.1765,75.7885,26.5,65,0.0,950.8,8.5,50.8,68,31.1,21.9,8.0,246.0,65.0,5.3,7,5,7,1,2026-07-14T21:47:41.173701+05:30
Visakhapatnam,Andhra Pradesh,17.6868,83.2185,31.6,63,0.0,998.5,8.5,26.3,139,55.8,40.0,45.8,346.0,42.0,59.3,3,5,7,1,2026-07-14T21:47:41.173707+05:30
Vijayawada,Andhra Pradesh,16.5062,80.648,31.2,56,0.0,999.3,6.65,48.6,80,39.2,30.7,16.2,217.0,52.0,9.2,0,5,7,1,2026-07-14T21:47:41.173714+05:30
Guntur,Andhra Pradesh,16.3067,80.4365,31.4,53,0.0,1000.7,6.35,49.3,71,38.0,30.2,17.1,273.0,50.0,8.8,0,5,4,1,2026-07-14T21:47:41.173721+05:30
Nellore,Andhra Pradesh,14.4426,79.9865,32.4,41,0.0,1003.2,8.25,48.2,67,38.9,27.1,9.8,358.0,89.0,4.3,0,5,4,1,2026-07-14T21:47:41.173729+05:30
Kurnool,Andhra Pradesh,15.8281,78.0373,31.7,48,0.0,975.4,7.3,43.2,58,28.6,19.7,10.9,248.0,72.0,7.4,0,5,7,1,2026-07-14T21:47:41.173737+05:30
Kakinada,Andhra Pradesh,16.9891,82.2475,31.4,64,0.0,1003.0,8.15,52.6,95,43.7,27.0,8.7,222.0,83.0,8.3,3,5,4,1,2026-07-14T21:47:41.173744+05:30
Tirupati,Andhra Pradesh,13.6288,79.4192,31.1,43,0.0,989.0,8.4,38.5,78,75.9,56.7,64.1,253.0,22.0,9.0,0,5,7,1,2026-07-14T21:47:41.173750+05:30
Warangal,Telangana,17.9689,79.5941,28.9,64,0.0,976.1,7.25,43.2,70,28.7,23.9,12.0,243.0,58.0,6.1,7,5,7,1,2026-07-14T21:47:41.173756+05:30
Nizamabad,Telangana,18.6725,78.0941,28.0,63,0.0,962.6,5.4,43.9,65,30.4,23.3,9.6,266.0,70.0,5.7,7,5,3,1,2026-07-14T21:47:41.173763+05:30
Mysore,Karnataka,12.2958,76.6396,23.1,87,0.0,929.1,8.9,34.2,56,21.4,15.5,14.0,203.0,58.0,3.3,3,5,7,1,2026-07-14T21:47:41.173769+05:30
Mangalore,Karnataka,12.9141,74.856,27.1,83,0.0,1008.5,8.5,38.9,61,27.7,16.7,9.3,244.0,38.0,3.2,7,0,4,1,2026-07-14T21:47:41.173776+05:30
Hubli-Dharwad,Karnataka,15.3647,75.124,22.8,90,0.0,941.5,9.0,44.6,54,19.6,13.0,6.9,156.0,43.0,1.8,3,5,7,1,2026-07-14T21:47:41.173783+05:30
Belgaum,Karnataka,15.8497,74.4977,21.0,98,0.0,926.1,8.4,41.0,53,20.7,12.4,9.0,145.0,33.0,2.3,3,5,7,1,2026-07-14T21:47:44.476946+05:30
Coimbatore,Tamil Nadu,11.0168,76.9558,25.2,87,0.0,962.1,8.35,52.6,55,17.9,14.7,11.2,197.0,44.0,4.0,7,5,7,1,2026-07-14T21:47:44.476985+05:30
Madurai,Tamil Nadu,9.9252,78.1198,31.0,59,0.0,992.5,8.55,29.9,74,39.8,24.6,23.4,253.0,64.0,8.1,0,5,7,1,2026-07-14T21:47:44.476997+05:30
Trichy,Tamil Nadu,10.7905,78.7047,30.6,67,0.0,999.2,8.65,46.4,68,35.9,27.7,35.6,278.0,33.0,7.9,3,5,7,1,2026-07-14T21:47:44.477006+05:30
Salem,Tamil Nadu,11.6643,78.146,28.1,68,0.0,976.7,8.35,28.4,72,25.7,18.7,17.8,301.0,59.0,6.0,7,5,7,1,2026-07-14T21:47:44.477015+05:30
Tirunelveli,Tamil Nadu,8.7139,77.7567,30.7,58,0.0,1002.3,7.55,38.2,51,16.3,11.6,6.8,156.0,52.0,2.6,0,5,4,1,2026-07-14T21:47:44.477023+05:30
Vellore,Tamil Nadu,12.9165,79.1325,31.9,44,0.0,983.0,8.9,42.8,74,70.3,52.5,51.5,223.0,28.0,10.7,0,5,7,1,2026-07-14T21:47:44.477031+05:30
Erode,Tamil Nadu,11.341,77.7172,29.0,69,0.0,988.4,8.6,53.6,61,26.5,19.5,20.0,195.0,46.0,4.5,7,5,7,1,2026-07-14T21:47:44.477039+05:30
Kochi,Kerala,9.9312,76.2673,27.6,85,0.0,1010.5,8.3,42.1,57,28.6,20.1,16.8,158.0,28.0,4.9,7,0,4,1,2026-07-14T21:47:44.477046+05:30
Thiruvananthapuram,Kerala,8.5241,76.9366,26.5,88,0.0,1009.7,7.95,50.8,55,24.8,13.5,4.4,132.0,49.0,1.5,7,0,4,1,2026-07-14T21:47:44.477054+05:30
Kozhikode,Kerala,11.2588,75.7804,26.6,86,0.0,1009.4,8.15,46.4,55,29.1,14.6,1.7,164.0,53.0,1.3,7,0,4,1,2026-07-14T21:47:44.477061+05:30
Thrissur,Kerala,10.5276,76.2144,26.2,90,0.0,1008.9,7.9,43.9,56,26.3,17.7,9.6,231.0,35.0,3.4,7,0,4,1,2026-07-14T21:47:44.477069+05:30
Kannur,Kerala,11.8745,75.3704,27.2,81,0.0,1008.7,8.4,48.2,57,24.1,14.6,9.4,219.0,37.0,2.5,7,0,4,1,2026-07-14T21:47:44.477076+05:30
Patna,Bihar,25.5941,85.1376,30.5,83,0.0,994.9,7.6,19.8,153,142.0,100.4,48.7,852.0,53.0,21.0,3,5,7,1,2026-07-14T21:47:44.477083+05:30
Gaya,Bihar,24.7914,85.0002,31.0,77,0.0,988.5,8.45,21.6,158,145.8,99.4,38.0,696.0,52.0,16.6,3,5,7,1,2026-07-14T21:47:44.477089+05:30
Muzaffarpur,Bihar,26.1209,85.3647,29.7,84,0.0,995.0,7.55,20.9,153,117.3,90.8,42.4,458.0,58.0,19.3,7,5,7,1,2026-07-14T21:47:44.477096+05:30
Bhagalpur,Bihar,25.2425,87.0117,29.0,92,0.0,996.0,8.2,27.7,125,72.2,63.3,32.7,432.0,81.0,19.7,7,5,7,1,2026-07-14T21:47:44.477103+05:30
Ranchi,Jharkhand,23.3441,85.3096,25.6,89,0.0,933.4,8.75,40.0,151,109.2,65.0,26.3,444.0,52.0,10.4,7,5,7,1,2026-07-14T21:47:44.477109+05:30
Jamshedpur,Jharkhand,22.8046,86.2029,27.3,95,0.0,985.8,6.2,31.3,155,70.3,53.3,26.0,892.0,83.0,42.4,7,5,7,1,2026-07-14T21:47:44.477116+05:30
Dhanbad,Jharkhand,23.7957,86.4304,27.0,93,0.0,974.9,8.8,28.8,165,85.0,66.6,54.0,587.0,41.0,132.1,7,5,7,1,2026-07-14T21:47:44.477122+05:30
Bokaro,Jharkhand,23.6693,86.1511,27.2,98,0.0,978.8,8.7,29.5,167,101.3,69.6,46.2,704.0,49.0,122.6,7,5,7,1,2026-07-14T21:47:44.477129+05:30
Bhubaneswar,Odisha,20.2961,85.8245,27.0,93,0.0,996.7,3.95,37.8,117,78.0,56.5,27.6,416.0,50.0,17.4,7,5,3,1,2026-07-14T21:47:44.477136+05:30
Cuttack,Odisha,20.4625,85.8828,27.2,92,0.0,998.4,2.05,29.2,117,78.0,56.5,27.6,307.0,50.0,17.4,7,5,3,1,2026-07-14T21:47:44.477143+05:30
Rourkela,Odisha,22.2604,84.8536,26.9,92,0.0,980.1,7.8,30.2,145,104.1,58.4,19.1,1006.0,83.0,17.1,7,5,7,1,2026-07-14T21:47:44.477150+05:30
Raipur,Chhattisgarh,21.2514,81.6296,27.8,86,0.1,971.1,8.75,33.8,129,71.9,42.7,38.6,558.0,42.0,62.2,10,5,7,1,2026-07-14T21:47:44.477158+05:30
Bhilai,Chhattisgarh,21.1938,81.3509,29.0,71,0.0,971.3,8.75,35.6,113,71.7,40.4,27.9,1052.0,55.0,46.5,7,5,7,1,2026-07-14T21:47:44.477164+05:30
Guwahati,Assam,26.1158,91.7086,27.7,95,0.0,996.1,8.1,25.2,51,15.7,15.4,12.9,281.0,31.0,2.2,7,5,7,1,2026-07-14T21:47:44.477170+05:30
Agartala,Tripura,23.8315,91.2868,27.8,87,0.0,1000.9,8.65,25.2,79,31.0,30.0,21.2,241.0,43.0,3.0,7,5,4,1,2026-07-14T21:47:44.477177+05:30
Shillong,Meghalaya,25.5788,91.8933,19.4,98,0.0,854.0,8.65,25.9,58,11.3,10.9,9.7,481.0,60.0,2.6,3,10,7,1,2026-07-14T21:47:44.477184+05:30
Imphal,Manipur,24.817,93.9368,25.0,90,0.0,919.8,9.2,25.9,54,22.6,21.4,21.5,723.0,26.0,3.6,7,5,7,1,2026-07-14T21:47:44.477190+05:30
Aizawl,Mizoram,23.7271,92.7176,20.5,99,0.0,888.7,8.95,19.8,50,4.7,4.3,5.3,177.0,43.0,0.5,3,5,7,1,2026-07-14T21:47:44.477197+05:30
Kohima,Nagaland,25.6701,94.1077,20.3,95,0.0,852.2,8.15,24.8,43,10.7,10.5,14.8,362.0,24.0,1.3,3,5,7,1,2026-07-14T21:47:44.477203+05:30
Gangtok,Sikkim,27.3314,88.6138,19.0,95,0.1,835.6,8.7,27.7,44,5.7,5.3,9.3,381.0,75.0,1.2,6,10,7,1,2026-07-14T21:47:44.477211+05:30
Siliguri,West Bengal,26.7271,88.3953,27.9,93,0.0,987.8,8.45,27.0,68,31.2,29.0,19.2,1484.0,69.0,5.5,7,5,7,1,2026-07-14T21:47:47.791866+05:30
Durgapur,West Bengal,23.5204,87.3119,27.5,97,0.0,989.6,7.65,26.3,163,77.5,65.9,35.6,739.0,64.0,36.0,7,5,7,1,2026-07-14T21:47:47.791905+05:30
Asansol,West Bengal,23.6739,86.9524,27.2,95,0.0,988.2,7.4,26.3,159,67.5,51.2,34.6,832.0,62.0,35.9,7,5,7,1,2026-07-14T21:47:47.791918+05:30
Pondicherry,Puducherry,11.9139,79.8145,30.3,81,0.0,1006.4,8.05,43.2,110,33.6,22.2,8.8,169.0,92.0,4.9,3,5,4,1,2026-07-14T21:47:47.791928+05:30
Port Blair,Andaman and Nicobar Islands,11.6234,92.7265,28.5,76,0.0,1006.7,8.3,61.2,49,16.1,7.9,0.3,86.0,49.0,0.3,7,5,4,1,2026-07-14T21:47:47.791937+05:30
Haridwar,Uttarakhand,29.9457,78.1642,28.8,89,0.0,967.7,7.5,32.8,179,215.1,113.6,36.4,449.0,85.0,19.3,7,5,7,1,2026-07-14T21:47:47.791945+05:30
Rishikesh,Uttarakhand,30.0869,78.2676,27.7,87,0.0,960.7,7.6,28.4,165,186.3,81.5,10.7,454.0,118.0,11.5,7,5,7,1,2026-07-14T21:47:47.791953+05:30
Nainital,Uttarakhand,29.3919,79.4542,17.1,97,0.0,802.8,8.5,27.7,166,172.8,83.1,17.2,384.0,74.0,8.7,3,10,7,1,2026-07-14T21:47:47.791961+05:30
Mussoorie,Uttarakhand,30.4599,78.0664,17.3,100,0.0,800.2,8.0,38.2,162,133.6,73.6,38.0,415.0,80.0,13.9,3,10,7,1,2026-07-14T21:47:47.791968+05:30
Dharamshala,Himachal Pradesh,32.219,76.3234,22.1,77,0.0,865.1,8.3,30.6,89,32.0,19.8,16.0,429.0,70.0,1.5,3,5,7,1,2026-07-14T21:47:47.791976+05:30
Dalhousie,Himachal Pradesh,32.5387,75.971,16.8,96,0.0,800.9,8.6,31.3,153,115.9,69.2,39.4,722.0,102.0,5.9,3,10,7,1,2026-07-14T21:47:47.791984+05:30
Patiala,Punjab,30.3398,76.3869,30.2,76,0.0,971.5,7.5,45.7,188,328.8,132.7,48.0,661.0,54.0,12.8,3,5,7,1,2026-07-14T21:47:47.791992+05:30
Bhatinda,Punjab,30.211,74.9455,33.6,52,0.0,976.9,8.2,28.1,181,191.9,110.6,60.8,512.0,46.0,12.2,0,5,7,1,2026-07-14T21:47:47.792000+05:30
Rohtak,Haryana,28.8955,76.6066,31.6,77,0.0,975.1,7.35,36.7,493,222.1,88.7,29.1,395.0,49.0,6.0,3,5,7,1,2026-07-14T21:47:47.792007+05:30
Panipat,Haryana,29.3909,76.9635,30.8,72,0.0,973.7,7.35,42.1,771,277.5,101.3,25.8,567.0,56.0,6.8,3,5,7,1,2026-07-14T21:47:47.792013+05:30
Mathura,Uttar Pradesh,27.4924,77.6737,31.3,65,0.0,980.8,7.9,29.9,649,972.3,156.0,25.4,305.0,48.0,5.4,3,5,7,1,2026-07-14T21:47:47.792022+05:30
Vrindavan,Uttar Pradesh,27.5823,77.7027,31.2,67,0.0,981.3,7.9,29.2,649,972.3,156.0,25.4,368.0,48.0,5.4,3,5,7,1,2026-07-14T21:47:47.792030+05:30
Ayodhya,Uttar Pradesh,26.7922,82.1998,29.4,91,0.0,989.5,7.95,34.2,163,165.8,79.9,19.9,684.0,77.0,9.1,7,5,7,1,2026-07-14T21:47:47.792038+05:30
Ratlam,Madhya Pradesh,23.3315,75.0367,26.8,70,0.0,951.9,8.4,50.8,65,27.4,18.7,6.2,168.0,68.0,5.7,7,5,7,1,2026-07-14T21:47:47.792046+05:30
Sagar,Madhya Pradesh,23.8388,78.7378,27.4,65,0.0,946.8,8.6,44.3,91,44.4,26.5,6.0,188.0,68.0,3.7,7,5,7,1,2026-07-14T21:47:47.792054+05:30
Satna,Madhya Pradesh,24.6005,80.8322,29.4,70,0.0,967.0,6.9,41.4,108,68.2,34.8,8.7,176.0,71.0,4.8,7,5,7,1,2026-07-14T21:47:47.792061+05:30
Akola,Maharashtra,20.7002,77.0082,28.6,63,0.0,972.9,5.35,51.1,63,27.7,19.6,11.5,192.0,61.0,6.9,7,5,3,1,2026-07-14T21:47:47.792069+05:30
Amravati,Maharashtra,20.9374,77.7796,28.8,60,0.0,964.9,7.65,50.4,64,27.1,19.3,11.2,171.0,65.0,7.3,4,5,7,1,2026-07-14T21:47:47.792078+05:30
Latur,Maharashtra,18.4088,76.5604,26.8,55,0.0,938.6,7.15,41.0,59,25.6,19.1,6.8,187.0,69.0,3.5,4,5,7,1,2026-07-14T21:47:47.792086+05:30
Nanded,Maharashtra,19.1383,77.3091,28.4,62,0.0,966.5,8.5,41.0,66,31.3,23.9,11.3,290.0,64.0,4.7,7,5,7,1,2026-07-14T21:47:47.792094+05:30
Gulbarga,Karnataka,17.3297,76.8343,30.0,45,0.0,957.6,8.35,44.3,58,25.0,17.9,12.4,193.0,57.0,3.5,4,5,7,1,2026-07-14T21:47:47.792101+05:30
Bidar,Karnataka,17.9104,77.5199,26.9,68,0.0,934.0,7.25,41.0,61,30.6,23.6,18.3,335.0,48.0,4.8,7,5,7,1,2026-07-14T21:47:47.792108+05:30
Hospet,Karnataka,15.2689,76.3909,27.1,64,0.0,956.0,8.3,43.2,54,24.1,15.7,6.1,150.0,60.0,2.0,7,5,7,1,2026-07-14T21:47:47.792114+05:30
Tirupur,Tamil Nadu,11.1085,77.3411,25.7,84,0.0,975.2,8.35,58.0,63,30.3,22.4,24.4,178.0,38.0,5.8,7,5,7,1,2026-07-14T21:47:47.792121+05:30
Alappuzha,Kerala,9.4981,76.3388,27.8,85,0.0,1010.6,8.05,42.1,57,30.2,17.2,9.5,90.0,44.0,3.3,7,0,4,1,2026-07-14T21:47:47.792128+05:30
Munnar,Kerala,10.0889,77.0595,18.6,100,0.0,858.1,8.6,31.0,50,14.3,12.0,11.3,166.0,36.0,2.6,3,10,7,1,2026-07-14T21:47:47.792136+05:30
Silchar,Assam,24.8333,92.7789,27.2,98,0.1,1000.4,8.85,19.1,84,18.6,17.5,7.3,305.0,66.0,3.9,10,5,4,1,2026-07-14T21:47:47.792142+05:30
Dibrugarh,Assam,27.4728,94.912,28.5,88,0.1,989.5,8.6,23.4,80,25.4,25.1,15.6,296.0,40.0,1.9,10,5,7,1,2026-07-14T21:47:47.792149+05:30
