city,state,latitude,longitude,temp,humidity,rain,pressure,uv_index,wind_gusts,aqi,pm10,pm2_5,no2,co,o3,so2,mosquito_risk,arthritis_risk,migraine_risk,frizz_risk,updated_at
Delhi,Delhi,28.6139,77.209,23.8,82,0.0,983.1,6.65,24.5,156,115.0,60.5,32.0,515.0,43.0,20.5,3,5,7,1,2026-06-01T05:38:43.007860+05:30
Mumbai,Maharashtra,19.076,72.8777,29.5,76,0.0,1008.4,7.7,40.0,57,18.6,11.7,8.9,163.0,40.0,6.2,7,0,4,1,2026-06-01T05:38:43.007904+05:30
Bangalore,Karnataka,12.9716,77.5946,21.2,93,0.0,912.0,9.2,32.8,70,14.8,13.5,12.1,279.0,51.0,6.1,3,5,7,1,2026-06-01T05:38:43.007918+05:30
Hyderabad,Telangana,17.385,78.4867,27.8,47,0.0,952.3,9.1,33.1,78,39.6,20.3,9.3,264.0,70.0,5.8,4,5,7,0,2026-06-01T05:38:43.007928+05:30
Chennai,Tamil Nadu,13.0827,80.2707,29.5,70,0.0,1006.4,8.4,34.2,79,21.3,17.9,16.8,372.0,46.0,17.4,7,5,4,1,2026-06-01T05:38:43.007937+05:30
Kolkata,West Bengal,22.5726,88.3639,28.1,90,0.0,1006.0,8.9,22.0,124,93.6,82.4,35.0,594.0,26.0,11.7,7,5,4,1,2026-06-01T05:38:43.007945+05:30
Pune,Maharashtra,18.5204,73.8567,24.1,91,0.0,948.5,8.3,40.0,51,16.6,11.8,13.8,149.0,33.0,13.0,3,5,7,1,2026-06-01T05:38:43.007952+05:30
Ahmedabad,Gujarat,23.0225,72.5714,29.4,74,0.0,1001.5,8.0,31.3,71,34.7,20.3,4.6,130.0,41.0,4.1,7,5,4,1,2026-06-01T05:38:43.007959+05:30
Jaipur,Rajasthan,26.9124,75.7873,22.7,81,0.0,959.6,8.15,29.9,98,138.3,46.1,13.5,266.0,42.0,7.2,3,5,7,1,2026-06-01T05:38:43.007969+05:30
Lucknow,Uttar Pradesh,26.8467,80.9462,23.9,94,0.0,994.1,8.3,24.8,96,56.8,49.5,29.5,428.0,41.0,9.5,3,5,7,1,2026-06-01T05:38:43.007977+05:30
Kanpur,Uttar Pradesh,26.4499,80.3319,25.3,76,0.0,992.2,8.3,22.3,102,81.0,44.4,24.7,369.0,44.0,8.4,7,5,7,1,2026-06-01T05:38:43.007984+05:30
Chandigarh,Chandigarh,30.7333,76.7794,23.0,77,0.0,968.9,7.5,32.4,84,40.2,39.0,41.6,816.0,12.0,5.9,3,5,7,1,2026-06-01T05:38:43.007991+05:30
Srinagar,Jammu and Kashmir,34.0837,74.7973,12.2,95,0.0,839.5,9.05,21.2,119,86.1,52.3,22.2,324.0,14.0,1.4,3,10,7,0,2026-06-01T05:38:43.007998+05:30
Jammu,Jammu and Kashmir,32.7266,74.857,22.9,70,0.0,972.6,8.55,25.2,110,76.8,54.1,31.1,358.0,10.0,2.0,3,5,7,1,2026-06-01T05:38:43.008004+05:30
Amritsar,Punjab,31.634,74.8723,23.6,71,0.0,980.8,8.45,18.0,116,197.4,65.4,23.2,429.0,42.0,5.7,3,5,7,1,2026-06-01T05:38:43.008013+05:30
Ludhiana,Punjab,30.901,75.8573,23.0,82,0.0,978.8,7.95,27.7,150,260.8,87.5,39.2,565.0,34.0,12.4,3,5,7,1,2026-06-01T05:38:43.008020+05:30
Jalandhar,Punjab,31.326,75.5762,23.1,79,0.0,979.8,8.2,20.9,134,341.8,94.1,39.2,514.0,29.0,9.1,3,5,7,1,2026-06-01T05:38:43.008028+05:30
Dehradun,Uttarakhand,30.6284,78.0322,13.7,82,0.0,829.3,5.85,29.9,33,13.0,8.0,21.5,249.0,21.0,0.1,3,10,3,0,2026-06-01T05:38:43.008035+05:30
Shimla,Himachal Pradesh,31.1048,77.1734,11.0,95,0.1,783.0,8.25,33.5,45,14.5,11.2,17.0,245.0,56.0,0.5,6,10,7,0,2026-06-01T05:38:43.008044+05:30
Manali,Himachal Pradesh,32.2396,77.1887,14.8,76,0.0,819.2,7.85,30.2,46,3.4,2.5,5.9,184.0,102.0,0.0,3,5,7,0,2026-06-01T05:38:43.008051+05:30
Gurgaon,Haryana,28.4595,77.0266,23.6,86,0.0,981.5,7.65,25.9,650,331.6,88.2,28.7,453.0,51.0,19.7,3,5,7,1,2026-06-01T05:38:43.008057+05:30
Noida,Uttar Pradesh,28.5355,77.391,23.0,90,0.0,984.8,7.15,23.0,650,331.6,88.2,28.7,510.0,51.0,19.7,3,5,7,1,2026-06-01T05:38:43.008064+05:30
Ghaziabad,Uttar Pradesh,28.6692,77.4538,22.5,92,0.0,982.8,7.3,23.8,114,83.1,56.2,25.5,546.0,46.0,10.1,3,5,7,1,2026-06-01T05:38:43.008071+05:30
Faridabad,Haryana,28.4089,77.3178,23.4,88,0.0,984.0,7.25,24.5,650,331.6,88.2,28.7,470.0,51.0,19.7,3,5,7,1,2026-06-01T05:38:43.008077+05:30
Meerut,Uttar Pradesh,28.9845,77.7064,22.6,96,0.0,981.7,7.6,32.8,114,83.1,56.2,25.5,610.0,46.0,10.1,3,5,7,1,2026-06-01T05:38:43.008083+05:30
Agra,Uttar Pradesh,27.1767,78.0081,24.6,78,0.0,987.7,8.05,19.4,190,88.9,36.0,16.3,280.0,58.0,7.0,3,5,7,1,2026-06-01T05:38:43.008090+05:30
Varanasi,Uttar Pradesh,25.3176,82.9739,27.1,72,0.0,997.6,8.75,20.2,152,79.6,69.4,40.2,594.0,25.0,11.8,7,5,7,1,2026-06-01T05:38:43.008097+05:30
Prayagraj,Uttar Pradesh,25.4358,81.8463,26.0,86,0.0,996.1,8.65,27.7,107,50.2,43.1,30.6,413.0,33.0,8.5,7,5,7,1,2026-06-01T05:38:43.008104+05:30
Gorakhpur,Uttar Pradesh,26.7606,83.3732,26.0,86,0.0,997.6,8.6,15.5,153,128.5,116.6,67.9,533.0,7.0,16.3,7,5,7,1,2026-06-01T05:38:43.008112+05:30
Bareilly,Uttar Pradesh,28.367,79.4304,22.5,98,0.1,988.0,8.0,33.1,113,80.3,69.2,44.9,433.0,37.0,9.4,6,5,7,1,2026-06-01T05:38:43.008118+05:30
Aligarh,Uttar Pradesh,27.8974,78.088,23.4,82,0.0,985.8,7.85,30.2,123,58.7,47.1,23.2,302.0,52.0,7.6,3,5,7,1,2026-06-01T05:38:43.008125+05:30
Moradabad,Uttar Pradesh,28.8386,78.7733,23.9,92,0.0,984.2,7.75,38.5,138,109.0,97.6,58.0,276.0,13.0,14.9,3,5,7,1,2026-06-01T05:38:43.008131+05:30
Saharanpur,Uttar Pradesh,29.9637,77.546,22.6,90,0.0,976.0,7.2,34.6,117,75.2,68.7,48.0,833.0,33.0,14.5,3,5,7,1,2026-06-01T05:38:43.008137+05:30
Jhansi,Uttar Pradesh,25.4484,78.5685,26.1,72,0.0,977.9,8.45,51.1,73,48.1,29.4,12.8,303.0,66.0,4.3,7,5,7,1,2026-06-01T05:38:46.368517+05:30
Surat,Gujarat,21.1702,72.8311,28.9,84,0.0,1006.4,7.55,41.0,71,26.3,18.6,23.9,344.0,23.0,39.5,7,5,4,1,2026-06-01T05:38:46.368548+05:30
Vadodara,Gujarat,22.3072,73.1812,29.5,75,0.0,1003.6,7.95,37.8,65,24.2,16.6,9.7,131.0,33.0,9.3,7,5,4,1,2026-06-01T05:38:46.368559+05:30
Rajkot,Gujarat,22.3039,70.8022,28.4,77,0.0,993.9,7.55,43.2,65,23.7,12.6,4.0,101.0,39.0,3.8,7,5,7,1,2026-06-01T05:38:46.368568+05:30
Thane,Maharashtra,19.2183,72.9781,29.5,76,0.0,1007.8,7.7,34.9,57,18.6,11.7,8.9,172.0,40.0,6.2,7,5,4,1,2026-06-01T05:38:46.368577+05:30
Nagpur,Maharashtra,21.1458,79.0882,30.4,40,0.0,972.5,8.85,43.6,82,44.1,29.9,24.4,257.0,35.0,9.1,0,5,7,0,2026-06-01T05:38:46.368585+05:30
Nashik,Maharashtra,19.9975,73.7898,24.0,92,0.0,945.7,8.0,40.3,48,14.7,9.5,7.0,116.0,39.0,5.0,3,5,7,1,2026-06-01T05:38:46.368594+05:30
Aurangabad,Maharashtra,19.8762,75.3433,25.4,82,0.0,944.4,8.9,54.4,57,15.1,10.0,9.2,137.0,37.0,7.4,7,5,7,1,2026-06-01T05:38:46.368602+05:30
Solapur,Maharashtra,17.6599,75.9064,28.1,62,0.0,957.8,8.95,35.6,62,29.0,17.6,10.9,168.0,54.0,5.4,7,5,7,1,2026-06-01T05:38:46.368610+05:30
Kolhapur,Maharashtra,16.705,74.2433,24.1,91,0.0,948.6,8.75,50.8,35,11.9,9.3,8.6,188.0,35.0,3.1,3,5,7,1,2026-06-01T05:38:46.368617+05:30
Goa,Goa,15.2993,74.124,26.5,96,0.0,998.2,8.7,28.8,50,30.0,24.4,11.5,395.0,41.0,2.8,7,5,7,1,2026-06-01T05:38:46.368624+05:30
Jodhpur,Rajasthan,26.2389,73.0243,29.5,56,0.0,981.1,8.4,35.3,95,64.0,23.6,5.9,142.0,50.0,4.0,4,5,7,1,2026-06-01T05:38:46.368632+05:30
Udaipur,Rajasthan,24.5854,73.7125,26.0,75,0.0,945.6,8.75,38.9,71,33.9,21.0,6.8,147.0,44.0,6.1,7,5,7,1,2026-06-01T05:38:46.368639+05:30
Kota,Rajasthan,25.2138,75.8648,27.0,72,0.0,977.9,8.35,49.0,68,66.6,30.7,9.4,285.0,51.0,3.9,7,5,7,1,2026-06-01T05:38:46.368647+05:30
Bikaner,Rajasthan,28.0229,73.3119,27.1,57,0.0,980.3,8.4,28.8,98,110.1,51.3,4.7,168.0,79.0,7.2,4,5,7,1,2026-06-01T05:38:46.368655+05:30
Ajmer,Rajasthan,26.4499,74.6399,26.0,70,0.0,953.7,8.35,72.4,74,97.8,31.5,4.6,225.0,62.0,2.8,7,5,7,1,2026-06-01T05:38:46.368662+05:30
Gwalior,Madhya Pradesh,26.2183,78.1828,25.6,71,0.0,982.5,8.2,46.4,80,55.4,28.5,6.8,293.0,73.0,3.9,7,5,7,1,2026-06-01T05:38:46.368668+05:30
Indore,Madhya Pradesh,22.7196,75.8577,26.8,65,0.0,948.0,8.6,43.6,67,28.9,20.7,7.0,188.0,55.0,10.5,7,5,7,1,2026-06-01T05:38:46.368676+05:30
Bhopal,Madhya Pradesh,23.2599,77.4126,26.8,55,0.0,952.8,8.65,61.2,52,31.5,23.1,14.0,331.0,42.0,4.8,4,5,7,1,2026-06-01T05:38:46.368683+05:30
Jabalpur,Madhya Pradesh,23.1815,79.9864,26.3,62,0.0,961.2,8.85,39.6,90,68.2,43.7,25.0,300.0,50.0,7.0,7,5,7,1,2026-06-01T05:38:46.368691+05:30
Ujjain,Madhya Pradesh,23.1765,75.7885,26.5,70,0.0,953.5,8.55,38.9,68,25.7,18.0,6.0,205.0,49.0,9.7,7,5,7,1,2026-06-01T05:38:46.368698+05:30
Visakhapatnam,Andhra Pradesh,17.6868,83.2185,28.8,95,0.0,1002.6,9.0,37.4,122,42.4,36.4,27.7,424.0,68.0,37.2,7,5,4,1,2026-06-01T05:38:46.368706+05:30
Vijayawada,Andhra Pradesh,16.5062,80.648,29.4,77,0.0,1000.9,9.0,28.1,91,34.7,29.3,13.6,211.0,67.0,5.6,7,5,4,1,2026-06-01T05:38:46.368713+05:30
Guntur,Andhra Pradesh,16.3067,80.4365,29.0,73,0.0,1002.2,9.0,30.6,89,32.8,27.9,17.1,189.0,49.0,4.9,7,5,4,1,2026-06-01T05:38:46.368720+05:30
Nellore,Andhra Pradesh,14.4426,79.9865,29.2,74,0.0,1004.5,8.65,38.2,76,29.7,26.1,8.1,165.0,88.0,8.1,7,5,4,1,2026-06-01T05:38:46.368728+05:30
Kurnool,Andhra Pradesh,15.8281,78.0373,28.2,69,0.0,976.7,8.95,40.3,69,25.0,18.3,16.8,172.0,36.0,4.3,7,5,7,1,2026-06-01T05:38:46.368736+05:30
Kakinada,Andhra Pradesh,16.9891,82.2475,29.0,86,0.0,1006.2,9.0,28.1,91,33.1,24.6,4.1,323.0,105.0,3.9,7,5,4,1,2026-06-01T05:38:46.368743+05:30
Tirupati,Andhra Pradesh,13.6288,79.4192,26.8,77,0.0,990.4,9.0,25.9,80,37.5,34.6,17.0,173.0,55.0,8.7,7,5,7,1,2026-06-01T05:38:46.368750+05:30
Warangal,Telangana,17.9689,79.5941,28.1,55,0.0,976.9,9.0,28.4,110,70.5,37.7,16.1,314.0,46.0,3.5,4,5,7,1,2026-06-01T05:38:46.368757+05:30
Nizamabad,Telangana,18.6725,78.0941,27.1,54,0.0,963.9,9.0,31.0,75,21.8,14.4,10.0,212.0,67.0,4.3,4,5,7,1,2026-06-01T05:38:46.368764+05:30
Mysore,Karnataka,12.2958,76.6396,22.5,94,0.0,929.0,7.1,44.3,43,7.7,6.8,6.7,200.0,58.0,1.9,3,5,7,1,2026-06-01T05:38:46.368771+05:30
Mangalore,Karnataka,12.9141,74.856,26.4,91,0.0,1007.3,8.65,33.5,43,9.5,8.2,6.4,243.0,47.0,2.6,7,5,4,1,2026-06-01T05:38:46.368778+05:30
Hubli-Dharwad,Karnataka,15.3647,75.124,23.4,96,0.0,941.5,8.9,41.8,31,11.1,8.4,5.7,156.0,37.0,1.7,3,5,7,1,2026-06-01T05:38:46.368785+05:30
Belgaum,Karnataka,15.8497,74.4977,22.0,99,0.0,926.0,8.95,44.3,41,20.5,17.2,11.5,149.0,25.0,0.6,3,5,7,1,2026-06-01T05:38:49.938414+05:30
Coimbatore,Tamil Nadu,11.0168,76.9558,24.9,87,0.0,962.3,8.95,48.2,33,4.9,4.2,6.6,157.0,57.0,2.6,3,5,7,1,2026-06-01T05:38:49.938471+05:30
Madurai,Tamil Nadu,9.9252,78.1198,29.1,65,0.0,993.4,8.8,30.6,77,34.8,29.9,31.4,182.0,4.0,5.0,7,5,7,1,2026-06-01T05:38:49.938485+05:30
Trichy,Tamil Nadu,10.7905,78.7047,28.4,72,0.0,1000.0,5.25,37.1,52,13.5,11.1,9.8,145.0,46.0,4.0,7,5,0,1,2026-06-01T05:38:49.938496+05:30
Salem,Tamil Nadu,11.6643,78.146,27.3,75,0.0,977.8,7.7,36.4,67,28.2,23.1,17.8,193.0,52.0,8.3,7,5,7,1,2026-06-01T05:38:49.938505+05:30
Tirunelveli,Tamil Nadu,8.7139,77.7567,27.7,74,0.0,1003.9,8.75,38.5,28,7.7,6.4,6.3,172.0,35.0,1.8,7,5,4,1,2026-06-01T05:38:49.938515+05:30
Vellore,Tamil Nadu,12.9165,79.1325,27.1,66,0.0,984.1,8.8,29.5,88,32.4,28.2,15.6,241.0,49.0,5.5,7,5,7,1,2026-06-01T05:38:49.938524+05:30
Erode,Tamil Nadu,11.341,77.7172,27.8,75,0.0,989.6,6.1,46.1,49,11.2,9.3,9.7,191.0,48.0,3.6,7,5,7,1,2026-06-01T05:38:49.938532+05:30
Kochi,Kerala,9.9312,76.2673,26.0,96,0.0,1009.7,8.65,31.0,53,14.9,13.3,13.6,224.0,19.0,4.1,7,0,4,1,2026-06-01T05:38:49.938541+05:30
Thiruvananthapuram,Kerala,8.5241,76.9366,24.2,98,0.0,1009.4,7.35,35.3,32,13.2,8.3,3.6,190.0,53.0,2.1,3,0,4,1,2026-06-01T05:38:49.938550+05:30
Kozhikode,Kerala,11.2588,75.7804,25.3,99,0.0,1008.7,8.55,28.8,33,6.2,4.4,2.7,305.0,64.0,2.2,7,0,4,1,2026-06-01T05:38:49.938558+05:30
Thrissur,Kerala,10.5276,76.2144,24.8,98,0.0,1008.1,8.55,27.7,51,15.4,13.9,13.7,289.0,20.0,4.8,3,0,4,1,2026-06-01T05:38:49.938567+05:30
Kannur,Kerala,11.8745,75.3704,26.1,89,0.0,1007.7,8.65,25.2,34,8.7,7.5,7.6,185.0,33.0,2.2,7,5,4,1,2026-06-01T05:38:49.938577+05:30
Patna,Bihar,25.5941,85.1376,27.5,87,0.0,1000.6,8.85,15.1,156,114.3,101.5,40.9,742.0,53.0,21.6,7,5,4,1,2026-06-01T05:38:49.938585+05:30
Gaya,Bihar,24.7914,85.0002,25.5,83,0.0,993.9,8.9,21.2,141,109.2,101.3,44.1,519.0,38.0,19.9,7,5,7,1,2026-06-01T05:38:49.938594+05:30
Muzaffarpur,Bihar,26.1209,85.3647,25.6,81,0.0,1000.7,8.85,18.7,160,112.9,101.0,32.2,815.0,56.0,16.8,7,5,4,1,2026-06-01T05:38:49.938602+05:30
Bhagalpur,Bihar,25.2425,87.0117,26.9,85,0.0,1001.3,8.8,13.7,156,69.4,60.5,25.4,396.0,73.0,16.6,7,5,4,1,2026-06-01T05:38:49.938609+05:30
Ranchi,Jharkhand,23.3441,85.3096,23.5,78,0.0,937.6,9.25,40.0,103,75.9,63.6,26.3,383.0,80.0,15.4,3,5,7,1,2026-06-01T05:38:49.938616+05:30
Jamshedpur,Jharkhand,22.8046,86.2029,25.4,98,0.0,991.1,9.05,19.1,150,122.9,101.0,49.7,774.0,19.0,16.7,7,5,7,1,2026-06-01T05:38:49.938623+05:30
Dhanbad,Jharkhand,23.7957,86.4304,25.6,94,0.0,980.2,9.05,18.4,167,202.1,185.8,75.4,1638.0,13.0,313.6,7,5,7,1,2026-06-01T05:38:49.938631+05:30
Bokaro,Jharkhand,23.6693,86.1511,24.9,96,0.0,984.1,9.05,20.9,169,204.0,189.1,66.0,891.0,28.0,260.9,3,5,7,1,2026-06-01T05:38:49.938638+05:30
Bhubaneswar,Odisha,20.2961,85.8245,27.0,98,0.0,1002.1,9.05,33.5,110,56.1,48.3,14.3,407.0,75.0,8.2,7,5,4,1,2026-06-01T05:38:49.938645+05:30
Cuttack,Odisha,20.4625,85.8828,27.2,97,0.0,1003.9,9.1,27.0,110,56.1,48.3,14.3,373.0,75.0,8.2,7,5,4,1,2026-06-01T05:38:49.938652+05:30
Rourkela,Odisha,22.2604,84.8536,26.4,80,0.0,985.0,9.0,38.5,113,82.4,72.4,41.0,604.0,31.0,24.2,7,5,7,1,2026-06-01T05:38:49.938659+05:30
Raipur,Chhattisgarh,21.2514,81.6296,27.4,69,0.1,973.9,8.95,29.2,126,68.0,52.2,50.5,382.0,33.0,47.3,10,5,7,1,2026-06-01T05:38:49.938666+05:30
Bhilai,Chhattisgarh,21.1938,81.3509,27.2,68,0.0,974.3,8.95,31.3,131,71.5,47.8,45.3,321.0,42.0,53.7,7,5,7,1,2026-06-01T05:38:49.938672+05:30
Guwahati,Assam,26.1158,91.7086,25.1,98,0.0,1002.3,8.2,23.0,72,25.0,20.5,10.9,379.0,38.0,2.3,7,5,4,1,2026-06-01T05:38:49.938680+05:30
Agartala,Tripura,23.8315,91.2868,26.2,91,0.0,1006.8,8.85,19.4,137,38.1,32.8,16.8,422.0,20.0,3.0,7,5,4,1,2026-06-01T05:38:49.938687+05:30
Shillong,Meghalaya,25.5788,91.8933,17.7,100,0.0,857.7,7.3,23.4,60,13.1,9.0,5.4,263.0,61.0,1.1,3,10,7,1,2026-06-01T05:38:49.938694+05:30
Imphal,Manipur,24.817,93.9368,22.4,96,0.0,924.0,8.95,21.6,57,14.1,13.2,8.5,345.0,35.0,1.9,3,5,7,1,2026-06-01T05:38:49.938701+05:30
Aizawl,Mizoram,23.7271,92.7176,18.8,98,0.0,892.7,8.45,22.0,27,15.1,10.5,2.8,218.0,69.0,1.9,3,10,7,1,2026-06-01T05:38:49.938708+05:30
Kohima,Nagaland,25.6701,94.1077,19.4,97,0.0,856.0,7.8,20.5,38,4.5,4.0,4.2,190.0,37.0,0.5,3,10,7,1,2026-06-01T05:38:49.938716+05:30
Gangtok,Sikkim,27.3314,88.6138,13.9,95,0.1,837.4,9.25,37.8,60,13.8,10.0,5.2,319.0,76.0,0.8,6,10,7,0,2026-06-01T05:38:49.938723+05:30
Siliguri,West Bengal,26.7271,88.3953,26.0,80,0.0,993.7,8.75,27.0,108,44.4,37.6,14.3,639.0,67.0,3.7,7,5,7,1,2026-06-01T05:38:53.300321+05:30
Durgapur,West Bengal,23.5204,87.3119,26.4,97,0.0,995.4,8.95,19.1,158,104.1,88.9,41.4,1249.0,9.0,44.8,7,5,7,1,2026-06-01T05:38:53.300353+05:30
Asansol,West Bengal,23.6739,86.9524,25.9,96,0.0,993.9,9.0,20.5,153,104.8,89.2,48.4,836.0,16.0,63.9,7,5,7,1,2026-06-01T05:38:53.300365+05:30
Pondicherry,Puducherry,11.9139,79.8145,28.8,77,0.0,1007.9,8.85,38.5,66,15.0,12.0,13.5,224.0,40.0,8.1,7,5,4,1,2026-06-01T05:38:53.300373+05:30
Port Blair,Andaman and Nicobar Islands,11.6234,92.7265,25.8,93,0.1,1007.4,7.55,36.7,35,13.5,6.7,0.2,125.0,78.0,0.5,10,5,4,1,2026-06-01T05:38:53.300382+05:30
Haridwar,Uttarakhand,29.9457,78.1642,21.8,91,0.0,974.3,7.55,28.1,87,43.4,38.0,30.1,317.0,58.0,7.6,3,5,7,1,2026-06-01T05:38:53.300390+05:30
Rishikesh,Uttarakhand,30.0869,78.2676,19.9,91,0.0,966.7,7.65,24.1,59,19.0,16.4,17.6,452.0,71.0,2.6,3,10,7,1,2026-06-01T05:38:53.300399+05:30
Nainital,Uttarakhand,29.3919,79.4542,10.6,94,0.0,803.0,7.65,45.7,68,31.7,26.1,26.9,248.0,27.0,1.9,3,10,7,0,2026-06-01T05:38:53.300408+05:30
Mussoorie,Uttarakhand,30.4599,78.0664,13.7,72,0.0,802.2,7.35,43.9,60,25.8,23.9,43.5,292.0,27.0,5.9,3,5,7,0,2026-06-01T05:38:53.300416+05:30
Dharamshala,Himachal Pradesh,32.219,76.3234,19.5,61,0.0,869.3,8.45,37.8,49,11.0,6.3,8.8,207.0,62.0,0.0,3,5,7,0,2026-06-01T05:38:53.300423+05:30
Dalhousie,Himachal Pradesh,32.5387,75.971,11.7,93,0.0,802.5,8.55,33.5,82,44.8,30.2,18.2,241.0,53.0,0.7,3,10,7,0,2026-06-01T05:38:53.300453+05:30
Patiala,Punjab,30.3398,76.3869,23.0,81,0.0,978.3,7.55,33.8,408,222.6,76.4,25.5,547.0,59.0,11.8,3,5,7,1,2026-06-01T05:38:53.300463+05:30
Bhatinda,Punjab,30.211,74.9455,24.5,73,0.0,983.7,8.3,31.3,626,457.3,117.1,11.4,336.0,78.0,7.0,3,5,7,1,2026-06-01T05:38:53.300471+05:30
Rohtak,Haryana,28.8955,76.6066,23.5,79,0.0,981.9,7.7,25.6,402,195.6,67.5,28.7,442.0,44.0,20.1,3,5,7,1,2026-06-01T05:38:53.300478+05:30
Panipat,Haryana,29.3909,76.9635,23.8,83,0.0,980.7,7.25,29.9,437,98.5,50.6,23.2,494.0,46.0,9.1,3,5,7,1,2026-06-01T05:38:53.300485+05:30
Mathura,Uttar Pradesh,27.4924,77.6737,24.2,84,0.0,986.6,8.0,23.8,279,183.5,56.3,19.2,281.0,53.0,5.5,3,5,7,1,2026-06-01T05:38:53.300492+05:30
Vrindavan,Uttar Pradesh,27.5823,77.7027,24.5,81,0.0,987.1,7.95,24.8,279,183.5,56.3,19.2,296.0,53.0,5.5,3,5,7,1,2026-06-01T05:38:53.300499+05:30
Ayodhya,Uttar Pradesh,26.7922,82.1998,24.4,98,0.0,995.6,8.4,20.5,105,58.6,53.4,32.5,496.0,39.0,7.9,3,5,7,1,2026-06-01T05:38:53.300506+05:30
Ratlam,Madhya Pradesh,23.3315,75.0367,25.9,79,0.0,954.4,8.45,43.2,68,23.6,15.8,6.7,149.0,42.0,10.4,7,5,7,1,2026-06-01T05:38:53.300514+05:30
Sagar,Madhya Pradesh,23.8388,78.7378,25.6,59,0.0,949.5,8.15,39.6,51,38.6,25.4,16.9,202.0,51.0,3.8,4,5,7,1,2026-06-01T05:38:53.300521+05:30
Satna,Madhya Pradesh,24.6005,80.8322,25.1,75,0.0,971.2,8.75,37.1,83,46.3,36.6,23.3,368.0,50.0,6.6,7,5,7,1,2026-06-01T05:38:53.300528+05:30
Akola,Maharashtra,20.7002,77.0082,29.5,59,0.0,974.8,8.8,54.0,63,26.7,15.6,9.8,137.0,53.0,7.7,4,5,7,1,2026-06-01T05:38:53.300536+05:30
Amravati,Maharashtra,20.9374,77.7796,29.4,47,0.0,967.0,8.8,63.0,64,30.4,16.6,9.8,203.0,59.0,5.2,4,5,7,1,2026-06-01T05:38:53.300544+05:30
Latur,Maharashtra,18.4088,76.5604,27.8,55,0.0,940.0,8.95,36.7,66,32.8,15.1,8.6,170.0,66.0,2.4,4,5,7,1,2026-06-01T05:38:53.300552+05:30
Nanded,Maharashtra,19.1383,77.3091,29.0,44,0.0,968.3,8.9,51.5,67,25.2,13.4,9.5,215.0,63.0,3.9,4,5,7,0,2026-06-01T05:38:53.300559+05:30
Gulbarga,Karnataka,17.3297,76.8343,28.8,51,0.0,958.6,8.95,34.6,63,37.8,19.8,11.5,186.0,55.0,3.9,4,5,7,1,2026-06-01T05:38:53.300566+05:30
Bidar,Karnataka,17.9104,77.5199,27.0,48,0.0,935.1,8.95,33.1,78,28.3,15.8,11.1,191.0,71.0,5.6,4,5,7,0,2026-06-01T05:38:53.300572+05:30
Hospet,Karnataka,15.2689,76.3909,24.9,91,0.0,956.8,8.95,49.3,42,10.3,8.0,5.7,149.0,42.0,1.8,3,5,7,1,2026-06-01T05:38:53.300579+05:30
Tirupur,Tamil Nadu,11.1085,77.3411,26.0,82,0.0,975.6,8.85,37.8,50,11.9,9.9,10.4,139.0,52.0,4.1,7,5,7,1,2026-06-01T05:38:53.300586+05:30
Alappuzha,Kerala,9.4981,76.3388,25.4,99,0.0,1009.7,7.35,31.7,43,14.0,10.0,7.1,203.0,48.0,2.9,7,0,4,1,2026-06-01T05:38:53.300593+05:30
Munnar,Kerala,10.0889,77.0595,17.0,89,0.0,856.4,9.2,26.3,40,7.7,7.0,6.6,154.0,32.0,1.4,3,10,7,0,2026-06-01T05:38:53.300600+05:30
Silchar,Assam,24.8333,92.7789,25.2,97,0.2,1005.9,8.95,16.9,93,35.3,28.7,10.1,228.0,57.0,5.1,10,5,4,1,2026-06-01T05:38:53.300609+05:30
Dibrugarh,Assam,27.4728,94.912,27.1,91,0.0,995.6,8.7,21.6,79,31.3,29.2,24.8,245.0,25.0,1.2,7,5,7,1,2026-06-01T05:38:53.300617+05:30
