city,state,latitude,longitude,temp,humidity,rain,pressure,uv_index,wind_gusts,aqi,pm10,pm2_5,no2,co,o3,so2,mosquito_risk,arthritis_risk,migraine_risk,frizz_risk,updated_at
Delhi,Delhi,28.6139,77.209,32.6,49,0.0,978.4,7.75,33.8,192,384.6,92.4,16.3,438.0,117.0,15.1,0,5,7,1,2026-06-15T18:47:40.196121+05:30
Mumbai,Maharashtra,19.076,72.8777,30.6,67,0.0,1006.6,7.7,49.3,57,34.2,16.9,5.7,174.0,53.0,3.9,3,5,4,1,2026-06-15T18:47:40.196167+05:30
Bangalore,Karnataka,12.9716,77.5946,27.2,46,0.0,910.3,9.15,41.0,58,47.3,26.8,29.0,591.0,57.0,6.0,4,5,7,0,2026-06-15T18:47:40.196183+05:30
Hyderabad,Telangana,17.385,78.4867,33.1,39,0.0,950.2,9.05,40.3,93,77.8,40.5,19.8,399.0,85.0,7.3,0,5,7,1,2026-06-15T18:47:40.196193+05:30
Chennai,Tamil Nadu,13.0827,80.2707,31.9,67,0.0,1003.6,8.2,33.1,125,47.7,32.5,8.6,339.0,140.0,7.1,3,5,4,1,2026-06-15T18:47:40.196201+05:30
Kolkata,West Bengal,22.5726,88.3639,30.1,82,0.0,1001.0,8.95,39.6,142,49.4,42.1,9.8,518.0,109.0,8.8,3,5,4,1,2026-06-15T18:47:40.196209+05:30
Pune,Maharashtra,18.5204,73.8567,28.2,65,0.0,947.0,8.3,58.0,51,19.2,11.5,4.8,147.0,69.0,6.0,7,5,7,1,2026-06-15T18:47:40.196215+05:30
Ahmedabad,Gujarat,23.0225,72.5714,37.1,36,0.0,996.6,8.05,45.0,63,48.4,18.3,3.0,148.0,82.0,2.9,0,5,10,1,2026-06-15T18:47:40.196222+05:30
Jaipur,Rajasthan,26.9124,75.7873,31.9,54,0.0,954.7,8.25,26.6,127,124.3,41.0,5.6,423.0,85.0,4.0,0,5,7,1,2026-06-15T18:47:40.196233+05:30
Lucknow,Uttar Pradesh,26.8467,80.9462,33.5,60,0.0,987.4,8.35,25.2,170,182.1,69.6,13.1,289.0,108.0,8.6,0,5,7,1,2026-06-15T18:47:40.196239+05:30
Kanpur,Uttar Pradesh,26.4499,80.3319,36.5,35,0.0,985.9,8.3,37.1,249,237.5,73.1,12.4,206.0,104.0,7.2,0,5,10,1,2026-06-15T18:47:40.196249+05:30
Chandigarh,Chandigarh,30.7333,76.7794,30.8,53,0.0,963.6,7.8,24.5,147,113.6,48.9,11.5,784.0,140.0,10.8,0,5,7,1,2026-06-15T18:47:40.196256+05:30
Srinagar,Jammu and Kashmir,34.0837,74.7973,22.0,61,0.0,840.7,9.05,33.1,101,22.4,14.5,11.5,346.0,110.0,3.3,3,5,7,0,2026-06-15T18:47:40.196263+05:30
Jammu,Jammu and Kashmir,32.7266,74.857,33.3,36,0.0,967.4,8.6,39.2,139,47.3,25.0,16.9,323.0,134.0,4.9,0,5,7,0,2026-06-15T18:47:40.196269+05:30
Amritsar,Punjab,31.634,74.8723,31.6,63,0.0,975.3,8.45,45.0,145,79.4,39.1,13.3,482.0,130.0,6.6,3,5,7,1,2026-06-15T18:47:40.196276+05:30
Ludhiana,Punjab,30.901,75.8573,33.4,41,0.0,973.8,8.05,28.1,157,217.5,68.7,12.5,407.0,116.0,9.2,0,5,7,1,2026-06-15T18:47:40.196282+05:30
Jalandhar,Punjab,31.326,75.5762,33.3,49,0.0,974.5,8.2,39.6,156,155.5,51.2,11.6,464.0,138.0,7.8,0,5,7,1,2026-06-15T18:47:40.196289+05:30
Dehradun,Uttarakhand,30.6284,78.0322,20.1,66,0.0,828.8,8.25,40.0,109,17.2,10.7,7.2,201.0,128.0,1.8,3,5,7,0,2026-06-15T18:47:40.196296+05:30
Shimla,Himachal Pradesh,31.1048,77.1734,17.6,58,0.0,783.1,8.35,43.6,136,31.5,17.3,6.2,244.0,142.0,5.6,0,5,7,0,2026-06-15T18:47:40.196309+05:30
Manali,Himachal Pradesh,32.2396,77.1887,19.2,74,0.0,817.0,10.0,35.6,109,15.4,13.0,32.2,178.0,113.0,0.6,3,5,7,0,2026-06-15T18:47:40.196316+05:30
Gurgaon,Haryana,28.4595,77.0266,32.3,48,0.0,977.1,7.85,46.8,539,488.0,105.5,24.6,339.0,123.0,16.5,0,5,7,1,2026-06-15T18:47:40.196323+05:30
Noida,Uttar Pradesh,28.5355,77.391,31.9,58,0.0,979.8,7.8,35.6,539,488.0,105.5,24.6,532.0,123.0,16.5,0,5,7,1,2026-06-15T18:47:40.196332+05:30
Ghaziabad,Uttar Pradesh,28.6692,77.4538,30.4,71,0.0,978.0,7.8,29.9,173,172.8,68.5,17.2,309.0,127.0,16.6,3,5,7,1,2026-06-15T18:47:40.196338+05:30
Faridabad,Haryana,28.4089,77.3178,33.3,44,0.0,979.2,7.85,46.8,539,488.0,105.5,24.6,342.0,123.0,16.5,0,5,7,1,2026-06-15T18:47:40.196343+05:30
Meerut,Uttar Pradesh,28.9845,77.7064,29.6,70,0.0,976.4,7.7,38.9,173,172.8,68.5,17.2,351.0,127.0,16.6,7,5,7,1,2026-06-15T18:47:40.196350+05:30
Agra,Uttar Pradesh,27.1767,78.0081,32.8,45,0.0,983.1,8.15,64.8,753,575.6,118.3,16.9,189.0,121.0,10.9,0,5,7,1,2026-06-15T18:47:40.196356+05:30
Varanasi,Uttar Pradesh,25.3176,82.9739,36.8,36,0.0,991.4,8.8,30.6,152,115.7,53.2,12.1,367.0,111.0,9.4,0,5,10,1,2026-06-15T18:47:40.196362+05:30
Prayagraj,Uttar Pradesh,25.4358,81.8463,37.3,32,0.0,990.0,8.7,32.4,153,118.7,53.1,10.7,184.0,106.0,9.1,0,5,10,1,2026-06-15T18:47:40.196369+05:30
Gorakhpur,Uttar Pradesh,26.7606,83.3732,32.8,56,0.0,990.7,8.7,31.3,146,89.9,44.6,12.4,331.0,112.0,8.8,0,5,7,1,2026-06-15T18:47:40.196377+05:30
Bareilly,Uttar Pradesh,28.367,79.4304,32.3,58,0.0,980.9,8.1,28.1,158,163.4,63.3,8.2,302.0,135.0,9.6,0,5,7,1,2026-06-15T18:47:40.196383+05:30
Aligarh,Uttar Pradesh,27.8974,78.088,25.2,87,0.1,982.1,8.0,64.4,465,386.5,99.2,17.3,217.0,153.0,17.4,10,5,7,1,2026-06-15T18:47:40.196390+05:30
Moradabad,Uttar Pradesh,28.8386,78.7733,32.8,56,0.0,978.2,7.9,32.0,169,104.3,47.8,11.0,436.0,124.0,8.3,0,5,7,1,2026-06-15T18:47:40.196396+05:30
Saharanpur,Uttar Pradesh,29.9637,77.546,29.1,67,0.0,970.6,7.55,23.0,147,83.6,40.9,12.4,437.0,127.0,13.3,7,5,7,1,2026-06-15T18:47:40.196403+05:30
Jhansi,Uttar Pradesh,25.4484,78.5685,35.3,36,0.0,972.8,8.5,41.0,116,117.1,44.0,3.5,177.0,91.0,4.9,0,5,10,1,2026-06-15T18:47:43.515846+05:30
Surat,Gujarat,21.1702,72.8311,31.3,68,0.0,1003.3,7.55,54.7,70,33.6,20.3,13.8,200.0,41.0,30.1,3,5,4,1,2026-06-15T18:47:43.515881+05:30
Vadodara,Gujarat,22.3072,73.1812,34.2,50,0.0,999.7,8.0,50.8,70,46.7,20.1,5.4,152.0,80.0,6.0,0,5,7,1,2026-06-15T18:47:43.515892+05:30
Rajkot,Gujarat,22.3039,70.8022,34.1,44,0.0,989.8,7.55,53.6,61,39.2,14.6,2.6,107.0,66.0,3.5,0,5,7,1,2026-06-15T18:47:43.515900+05:30
Thane,Maharashtra,19.2183,72.9781,30.9,66,0.0,1006.0,7.7,49.0,57,34.2,16.9,5.7,157.0,53.0,3.9,3,5,4,1,2026-06-15T18:47:43.515908+05:30
Nagpur,Maharashtra,21.1458,79.0882,32.4,47,0.0,969.3,8.85,46.1,106,69.4,33.2,9.1,222.0,98.0,15.5,0,5,7,1,2026-06-15T18:47:43.515915+05:30
Nashik,Maharashtra,19.9975,73.7898,29.3,52,0.0,943.9,8.0,55.8,50,24.5,12.3,1.7,118.0,59.0,1.0,4,5,7,1,2026-06-15T18:47:43.515923+05:30
Aurangabad,Maharashtra,19.8762,75.3433,33.2,31,0.0,941.6,8.9,48.2,58,39.2,16.8,2.1,127.0,82.0,1.9,0,5,7,0,2026-06-15T18:47:43.515930+05:30
Solapur,Maharashtra,17.6599,75.9064,34.9,28,0.0,954.0,8.9,50.0,58,50.5,23.0,3.1,132.0,105.0,3.3,0,5,7,0,2026-06-15T18:47:43.515938+05:30
Kolhapur,Maharashtra,16.705,74.2433,27.2,67,0.0,947.0,8.75,46.8,52,26.7,13.8,3.1,135.0,67.0,1.7,7,5,7,1,2026-06-15T18:47:43.515945+05:30
Goa,Goa,15.2993,74.124,29.5,73,0.0,997.2,8.5,37.1,59,28.6,13.7,1.6,149.0,53.0,1.1,7,5,7,1,2026-06-15T18:47:43.515953+05:30
Jodhpur,Rajasthan,26.2389,73.0243,35.9,39,0.0,977.5,8.45,45.4,161,272.9,48.2,3.0,124.0,77.0,1.6,0,5,10,1,2026-06-15T18:47:43.515960+05:30
Udaipur,Rajasthan,24.5854,73.7125,31.7,46,0.0,942.7,8.8,44.3,64,48.0,18.9,2.0,120.0,79.0,1.8,0,5,7,1,2026-06-15T18:47:43.515968+05:30
Kota,Rajasthan,25.2138,75.8648,34.6,43,0.0,973.5,8.35,33.1,103,61.7,27.1,3.9,196.0,94.0,4.6,0,5,7,1,2026-06-15T18:47:43.515975+05:30
Bikaner,Rajasthan,28.0229,73.3119,37.5,31,0.0,975.6,8.5,41.0,156,131.3,36.0,1.8,136.0,83.0,2.7,0,5,10,1,2026-06-15T18:47:43.515982+05:30
Ajmer,Rajasthan,26.4499,74.6399,32.5,41,0.0,950.1,8.35,44.3,104,76.8,26.3,2.8,136.0,85.0,2.5,0,5,7,1,2026-06-15T18:47:43.515989+05:30
Gwalior,Madhya Pradesh,26.2183,78.1828,35.4,40,0.0,977.9,8.3,56.9,121,196.5,58.7,7.2,187.0,98.0,4.7,0,5,10,1,2026-06-15T18:47:43.515996+05:30
Indore,Madhya Pradesh,22.7196,75.8577,32.7,40,0.0,944.6,8.6,52.6,95,83.6,31.4,4.8,190.0,87.0,3.8,0,5,7,1,2026-06-15T18:47:43.516003+05:30
Bhopal,Madhya Pradesh,23.2599,77.4126,29.1,60,0.0,950.5,8.65,42.8,110,54.7,28.0,3.7,162.0,88.0,2.4,4,5,7,1,2026-06-15T18:47:43.516010+05:30
Jabalpur,Madhya Pradesh,23.1815,79.9864,30.0,69,0.2,957.1,8.85,27.0,105,74.0,38.8,4.0,187.0,96.0,2.5,10,5,7,1,2026-06-15T18:47:43.516016+05:30
Ujjain,Madhya Pradesh,23.1765,75.7885,33.4,39,0.0,950.0,8.55,53.3,89,70.5,28.3,1.9,145.0,93.0,4.1,0,5,7,1,2026-06-15T18:47:43.516024+05:30
Visakhapatnam,Andhra Pradesh,17.6868,83.2185,32.7,69,0.0,999.0,8.95,37.4,157,93.8,65.0,36.5,816.0,100.0,78.5,3,5,7,1,2026-06-15T18:47:43.516031+05:30
Vijayawada,Andhra Pradesh,16.5062,80.648,32.4,62,0.0,998.1,9.0,31.7,111,75.7,52.5,12.0,338.0,96.0,8.7,3,5,7,1,2026-06-15T18:47:43.516038+05:30
Guntur,Andhra Pradesh,16.3067,80.4365,32.2,62,0.0,999.5,8.95,41.0,106,75.4,50.2,15.1,322.0,85.0,7.4,3,5,7,1,2026-06-15T18:47:43.516045+05:30
Nellore,Andhra Pradesh,14.4426,79.9865,30.4,71,0.0,1002.4,8.25,43.6,72,67.5,36.8,8.0,224.0,107.0,5.2,3,5,4,1,2026-06-15T18:47:43.516072+05:30
Kurnool,Andhra Pradesh,15.8281,78.0373,33.1,47,0.0,973.3,8.75,42.8,69,50.5,26.1,8.1,199.0,109.0,8.8,0,5,7,1,2026-06-15T18:47:43.516081+05:30
Kakinada,Andhra Pradesh,16.9891,82.2475,34.1,55,0.0,1002.4,8.75,33.1,116,70.8,42.8,6.2,280.0,127.0,5.0,0,5,4,1,2026-06-15T18:47:43.516088+05:30
Tirupati,Andhra Pradesh,13.6288,79.4192,32.0,62,0.0,987.6,8.55,33.5,71,65.4,38.0,22.6,340.0,80.0,6.1,3,5,7,1,2026-06-15T18:47:43.516095+05:30
Warangal,Telangana,17.9689,79.5941,30.4,64,0.0,974.8,8.9,41.4,123,75.0,43.2,11.7,281.0,94.0,8.8,3,5,7,1,2026-06-15T18:47:43.516102+05:30
Nizamabad,Telangana,18.6725,78.0941,33.2,41,0.0,960.8,8.95,42.1,95,58.4,27.9,7.8,214.0,89.0,3.4,0,5,7,1,2026-06-15T18:47:43.516109+05:30
Mysore,Karnataka,12.2958,76.6396,27.3,57,0.0,927.4,9.0,32.0,52,26.0,14.3,7.3,192.0,83.0,2.0,4,5,7,1,2026-06-15T18:47:43.516116+05:30
Mangalore,Karnataka,12.9141,74.856,27.9,85,0.1,1006.3,8.65,43.2,60,23.1,12.4,4.2,177.0,49.0,1.7,10,5,4,1,2026-06-15T18:47:43.516124+05:30
Hubli-Dharwad,Karnataka,15.3647,75.124,26.6,78,0.0,939.6,8.9,54.7,50,15.5,9.9,4.1,145.0,67.0,1.4,7,5,7,1,2026-06-15T18:47:43.516133+05:30
Belgaum,Karnataka,15.8497,74.4977,25.3,74,0.0,925.1,8.95,45.7,51,25.1,13.1,3.5,135.0,59.0,1.3,7,5,7,1,2026-06-15T18:47:46.838828+05:30
Coimbatore,Tamil Nadu,11.0168,76.9558,26.2,86,0.0,960.3,8.85,50.4,57,19.3,12.7,7.5,206.0,68.0,2.8,7,5,7,1,2026-06-15T18:47:46.838863+05:30
Madurai,Tamil Nadu,9.9252,78.1198,28.6,72,0.0,991.0,7.95,46.4,84,84.5,30.2,10.7,364.0,100.0,3.9,7,5,7,1,2026-06-15T18:47:46.838874+05:30
Trichy,Tamil Nadu,10.7905,78.7047,35.4,41,0.0,996.7,8.5,41.4,70,73.3,30.6,6.0,209.0,111.0,4.1,0,5,10,1,2026-06-15T18:47:46.838883+05:30
Salem,Tamil Nadu,11.6643,78.146,32.0,49,0.0,974.6,8.75,41.0,69,56.5,22.4,6.3,176.0,96.0,5.4,0,5,7,1,2026-06-15T18:47:46.838891+05:30
Tirunelveli,Tamil Nadu,8.7139,77.7567,32.5,52,0.0,1001.0,8.0,42.8,52,16.1,10.6,4.8,156.0,70.0,1.8,0,5,4,1,2026-06-15T18:47:46.838899+05:30
Vellore,Tamil Nadu,12.9165,79.1325,31.8,51,0.0,981.1,8.9,42.8,67,76.1,35.9,19.7,265.0,71.0,4.6,0,5,7,1,2026-06-15T18:47:46.838907+05:30
Erode,Tamil Nadu,11.341,77.7172,31.1,58,0.0,986.6,8.75,40.7,65,31.5,16.1,7.3,238.0,91.0,2.6,0,5,7,1,2026-06-15T18:47:46.838915+05:30
Kochi,Kerala,9.9312,76.2673,26.6,91,0.1,1008.7,8.05,40.0,68,22.3,14.1,10.1,189.0,50.0,3.4,10,0,4,1,2026-06-15T18:47:46.838923+05:30
Thiruvananthapuram,Kerala,8.5241,76.9366,26.3,88,0.0,1008.0,6.9,46.4,56,22.5,11.2,3.1,147.0,62.0,1.2,7,0,4,1,2026-06-15T18:47:46.838930+05:30
Kozhikode,Kerala,11.2588,75.7804,27.8,85,0.0,1007.0,8.55,50.4,53,17.8,9.1,1.3,143.0,59.0,1.0,7,5,4,1,2026-06-15T18:47:46.838937+05:30
Thrissur,Kerala,10.5276,76.2144,27.7,84,0.1,1006.5,7.65,39.2,76,20.1,13.6,10.7,257.0,42.0,2.7,10,5,4,1,2026-06-15T18:47:46.838944+05:30
Kannur,Kerala,11.8745,75.3704,28.4,81,0.0,1006.3,8.6,50.8,55,15.7,9.0,4.1,151.0,55.0,1.5,7,5,4,1,2026-06-15T18:47:46.838951+05:30
Patna,Bihar,25.5941,85.1376,33.8,55,0.0,994.4,8.85,27.7,158,160.7,70.5,30.9,429.0,98.0,15.7,0,5,7,1,2026-06-15T18:47:46.838958+05:30
Gaya,Bihar,24.7914,85.0002,33.8,49,0.0,988.3,8.95,31.3,153,134.6,62.9,19.3,473.0,102.0,11.3,0,5,7,1,2026-06-15T18:47:46.838965+05:30
Muzaffarpur,Bihar,26.1209,85.3647,32.7,70,0.0,994.3,8.85,28.8,158,168.6,76.6,31.7,546.0,92.0,14.7,3,5,7,1,2026-06-15T18:47:46.838972+05:30
Bhagalpur,Bihar,25.2425,87.0117,33.1,65,0.0,995.2,8.85,22.3,166,63.8,43.3,13.2,392.0,139.0,13.1,3,5,7,1,2026-06-15T18:47:46.838979+05:30
Ranchi,Jharkhand,23.3441,85.3096,28.7,66,0.0,934.0,9.25,32.4,123,95.2,42.8,14.3,496.0,113.0,10.4,7,5,7,1,2026-06-15T18:47:46.838986+05:30
Jamshedpur,Jharkhand,22.8046,86.2029,32.9,48,0.0,985.5,9.1,28.4,198,108.0,68.9,12.5,498.0,173.0,28.1,0,5,7,1,2026-06-15T18:47:46.838993+05:30
Dhanbad,Jharkhand,23.7957,86.4304,34.1,41,0.0,974.8,9.05,31.0,163,106.4,73.8,40.3,341.0,104.0,126.6,0,5,7,1,2026-06-15T18:47:46.839000+05:30
Bokaro,Jharkhand,23.6693,86.1511,32.8,55,0.0,978.5,9.1,34.6,162,111.3,71.0,35.9,349.0,100.0,126.2,0,5,7,1,2026-06-15T18:47:46.839006+05:30
Bhubaneswar,Odisha,20.2961,85.8245,29.5,85,0.0,998.4,7.6,26.6,169,65.4,52.3,8.6,497.0,119.0,7.1,7,5,7,1,2026-06-15T18:47:46.839013+05:30
Cuttack,Odisha,20.4625,85.8828,30.2,82,0.0,1000.0,9.15,28.8,169,65.4,52.3,8.6,500.0,119.0,7.1,3,5,4,1,2026-06-15T18:47:46.839020+05:30
Rourkela,Odisha,22.2604,84.8536,33.1,47,0.0,979.8,9.0,37.4,117,115.9,49.8,11.2,355.0,112.0,8.2,0,5,7,1,2026-06-15T18:47:46.839026+05:30
Raipur,Chhattisgarh,21.2514,81.6296,32.5,48,0.0,970.8,8.6,55.1,131,84.3,47.3,23.6,206.0,97.0,41.0,0,5,7,1,2026-06-15T18:47:46.839033+05:30
Bhilai,Chhattisgarh,21.1938,81.3509,31.2,51,0.0,970.9,8.6,57.6,129,81.7,49.7,26.4,284.0,83.0,40.4,0,5,7,1,2026-06-15T18:47:46.839039+05:30
Guwahati,Assam,26.1158,91.7086,27.9,93,0.1,996.6,8.65,27.7,74,35.2,29.6,8.1,434.0,84.0,4.5,10,5,7,1,2026-06-15T18:47:46.839046+05:30
Agartala,Tripura,23.8315,91.2868,26.5,97,0.0,1002.4,8.6,28.1,82,37.7,33.1,10.3,245.0,83.0,3.1,7,5,4,1,2026-06-15T18:47:46.839068+05:30
Shillong,Meghalaya,25.5788,91.8933,20.5,94,0.0,854.9,8.15,21.6,56,8.2,7.5,7.2,319.0,95.0,2.3,3,5,7,1,2026-06-15T18:47:46.839075+05:30
Imphal,Manipur,24.817,93.9368,25.9,76,0.0,920.3,7.9,31.3,85,26.7,22.4,11.4,325.0,64.0,3.2,7,5,7,1,2026-06-15T18:47:46.839081+05:30
Aizawl,Mizoram,23.7271,92.7176,20.4,98,0.1,890.1,9.1,24.5,57,12.4,10.1,4.7,196.0,60.0,0.9,6,5,7,1,2026-06-15T18:47:46.839088+05:30
Kohima,Nagaland,25.6701,94.1077,20.6,98,0.0,853.3,8.1,29.2,45,8.1,7.3,6.2,255.0,70.0,1.1,3,5,7,1,2026-06-15T18:47:46.839095+05:30
Gangtok,Sikkim,27.3314,88.6138,19.1,94,0.2,835.1,8.85,37.8,102,28.5,22.8,6.1,392.0,124.0,2.2,6,10,7,1,2026-06-15T18:47:46.839101+05:30
Siliguri,West Bengal,26.7271,88.3953,27.3,93,0.0,987.8,8.8,20.5,127,66.6,54.9,13.1,785.0,120.0,5.6,7,5,7,1,2026-06-15T18:47:50.164205+05:30
Durgapur,West Bengal,23.5204,87.3119,30.1,81,0.0,989.8,9.0,32.8,209,136.9,112.0,27.7,506.0,168.0,58.6,3,5,7,1,2026-06-15T18:47:50.164242+05:30
Asansol,West Bengal,23.6739,86.9524,31.1,73,0.0,988.1,9.0,29.5,161,105.0,76.6,29.4,478.0,131.0,46.6,3,5,7,1,2026-06-15T18:47:50.164254+05:30
Pondicherry,Puducherry,11.9139,79.8145,28.4,85,0.1,1005.9,8.45,37.1,107,54.2,35.5,17.7,293.0,123.0,8.6,10,5,4,1,2026-06-15T18:47:50.164263+05:30
Port Blair,Andaman and Nicobar Islands,11.6234,92.7265,28.1,79,0.0,1006.6,7.35,44.3,35,21.9,11.4,0.5,103.0,41.0,0.5,7,5,4,1,2026-06-15T18:47:50.164271+05:30
Haridwar,Uttarakhand,29.9457,78.1642,30.8,63,0.0,968.8,7.6,28.1,146,42.1,26.0,6.5,339.0,137.0,8.0,3,5,7,1,2026-06-15T18:47:50.164279+05:30
Rishikesh,Uttarakhand,30.0869,78.2676,29.9,62,0.0,961.7,7.7,26.6,124,32.2,18.8,3.3,285.0,143.0,5.0,7,5,7,1,2026-06-15T18:47:50.164286+05:30
Nainital,Uttarakhand,29.3919,79.4542,18.9,69,0.0,804.0,8.55,33.1,120,58.0,25.3,5.1,250.0,136.0,7.1,3,5,7,0,2026-06-15T18:47:50.164293+05:30
Mussoorie,Uttarakhand,30.4599,78.0664,18.4,61,0.0,801.6,8.15,50.8,129,29.8,18.4,6.6,236.0,139.0,4.9,3,5,7,0,2026-06-15T18:47:50.164301+05:30
Dharamshala,Himachal Pradesh,32.219,76.3234,22.5,57,0.0,866.3,8.5,40.7,91,13.1,8.2,4.7,241.0,113.0,0.6,0,5,7,0,2026-06-15T18:47:50.164308+05:30
Dalhousie,Himachal Pradesh,32.5387,75.971,19.0,65,0.0,803.1,8.75,36.4,126,27.6,15.6,9.2,270.0,136.0,1.8,3,5,7,0,2026-06-15T18:47:50.164317+05:30
Patiala,Punjab,30.3398,76.3869,32.5,47,0.0,973.2,7.7,31.7,309,388.4,88.2,9.1,243.0,110.0,7.5,0,5,7,1,2026-06-15T18:47:50.164325+05:30
Bhatinda,Punjab,30.211,74.9455,29.9,62,0.0,978.4,8.35,40.3,156,239.3,69.6,16.4,254.0,97.0,11.2,7,5,7,1,2026-06-15T18:47:50.164333+05:30
Rohtak,Haryana,28.8955,76.6066,32.0,54,0.0,976.6,7.8,54.0,277,388.4,91.5,15.7,323.0,101.0,7.2,0,5,7,1,2026-06-15T18:47:50.164340+05:30
Panipat,Haryana,29.3909,76.9635,32.3,55,0.0,975.3,7.65,41.8,426,427.5,99.4,11.4,253.0,101.0,10.9,0,5,7,1,2026-06-15T18:47:50.164347+05:30
Mathura,Uttar Pradesh,27.4924,77.6737,25.0,89,0.3,983.0,8.1,57.6,599,461.9,112.0,20.9,232.0,122.0,9.1,10,5,7,1,2026-06-15T18:47:50.164353+05:30
Vrindavan,Uttar Pradesh,27.5823,77.7027,25.1,91,0.5,983.3,8.1,61.2,599,461.9,112.0,20.9,239.0,122.0,9.1,10,5,7,1,2026-06-15T18:47:50.164359+05:30
Ayodhya,Uttar Pradesh,26.7922,82.1998,33.1,55,0.0,989.0,8.45,30.2,157,117.3,51.3,11.2,276.0,102.0,6.9,0,5,7,1,2026-06-15T18:47:50.164366+05:30
Ratlam,Madhya Pradesh,23.3315,75.0367,32.6,41,0.0,950.9,8.5,47.5,85,61.2,26.5,1.3,130.0,97.0,4.4,0,5,7,1,2026-06-15T18:47:50.164372+05:30
Sagar,Madhya Pradesh,23.8388,78.7378,28.4,65,0.0,947.1,8.7,38.2,106,94.5,38.6,2.7,157.0,98.0,2.5,7,5,7,1,2026-06-15T18:47:50.164379+05:30
Satna,Madhya Pradesh,24.6005,80.8322,34.7,39,0.0,966.5,8.8,31.3,104,89.9,38.4,3.6,181.0,98.0,2.4,0,5,7,1,2026-06-15T18:47:50.164385+05:30
Akola,Maharashtra,20.7002,77.0082,35.9,31,0.0,971.1,8.8,48.2,80,66.1,28.5,5.0,138.0,96.0,6.0,0,5,10,1,2026-06-15T18:47:50.164393+05:30
Amravati,Maharashtra,20.9374,77.7796,33.3,40,0.0,963.5,8.8,49.7,81,62.2,28.2,6.5,178.0,93.0,6.8,0,5,7,1,2026-06-15T18:47:50.164401+05:30
Latur,Maharashtra,18.4088,76.5604,32.7,34,0.0,936.8,8.9,39.6,66,50.3,22.5,4.5,169.0,90.0,2.6,0,5,7,0,2026-06-15T18:47:50.164408+05:30
Nanded,Maharashtra,19.1383,77.3091,35.7,30,0.0,964.4,8.85,39.6,86,51.3,23.9,7.1,279.0,84.0,2.5,0,5,10,0,2026-06-15T18:47:50.164415+05:30
Gulbarga,Karnataka,17.3297,76.8343,32.9,44,0.0,955.0,8.9,43.2,63,54.6,24.7,14.8,251.0,90.0,4.0,0,5,7,1,2026-06-15T18:47:50.164422+05:30
Bidar,Karnataka,17.9104,77.5199,31.4,41,0.0,932.5,8.9,41.4,92,60.1,30.4,11.7,204.0,92.0,4.6,0,5,7,1,2026-06-15T18:47:50.164429+05:30
Hospet,Karnataka,15.2689,76.3909,30.3,40,0.0,952.7,8.95,44.3,57,48.7,24.7,8.2,169.0,93.0,2.6,0,5,7,0,2026-06-15T18:47:50.164435+05:30
Tirupur,Tamil Nadu,11.1085,77.3411,27.9,75,0.0,973.4,8.85,51.8,65,29.9,15.4,7.2,179.0,85.0,3.4,7,5,7,1,2026-06-15T18:47:50.164441+05:30
Alappuzha,Kerala,9.4981,76.3388,26.8,92,0.1,1008.8,8.4,42.8,62,27.6,14.7,7.0,99.0,56.0,2.5,10,0,4,1,2026-06-15T18:47:50.164448+05:30
Munnar,Kerala,10.0889,77.0595,18.2,95,0.0,856.7,9.0,30.6,53,14.6,10.5,5.7,132.0,67.0,1.8,3,10,7,1,2026-06-15T18:47:50.164454+05:30
Silchar,Assam,24.8333,92.7789,27.8,92,0.1,1001.0,8.95,24.8,73,31.1,26.0,7.3,311.0,86.0,4.3,10,5,4,1,2026-06-15T18:47:50.164461+05:30
Dibrugarh,Assam,27.4728,94.912,27.3,97,0.0,990.8,7.5,24.5,77,19.0,17.4,7.4,297.0,95.0,1.8,7,5,7,1,2026-06-15T18:47:50.164468+05:30
