city,state,latitude,longitude,temp,humidity,rain,pressure,uv_index,wind_gusts,aqi,pm10,pm2_5,mosquito_risk,arthritis_risk,migraine_risk,frizz_risk,updated_at
Delhi,Delhi,28.6139,77.209,23.7,58,0.0,987.0,6.45,28.4,164,486.2,98.0,0,5,7,0,2026-03-22T20:59:54.011214+05:30
Mumbai,Maharashtra,19.076,72.8777,29.6,56,0.0,1010.3,7.9,28.4,180,57.0,39.7,4,0,4,1,2026-03-22T20:59:54.011268+05:30
Bangalore,Karnataka,12.9716,77.5946,25.1,61,0.0,913.1,9.45,25.2,123,65.7,55.1,7,5,7,1,2026-03-22T20:59:54.011284+05:30
Hyderabad,Telangana,17.385,78.4867,26.8,64,0.0,955.8,8.9,26.6,140,50.4,39.5,7,5,7,1,2026-03-22T20:59:54.011295+05:30
Chennai,Tamil Nadu,13.0827,80.2707,27.7,73,0.0,1009.9,9.15,32.4,38,12.3,7.7,7,0,4,1,2026-03-22T20:59:54.011304+05:30
Kolkata,West Bengal,22.5726,88.3639,23.9,66,0.0,1010.7,8.25,16.6,130,77.5,75.2,3,0,4,1,2026-03-22T20:59:54.011314+05:30
Pune,Maharashtra,18.5204,73.8567,28.1,41,0.0,950.6,8.45,29.5,118,25.4,18.7,4,5,7,0,2026-03-22T20:59:54.011326+05:30
Ahmedabad,Gujarat,23.0225,72.5714,28.7,39,0.0,1005.8,7.65,22.7,78,60.5,34.9,4,5,4,0,2026-03-22T20:59:54.011334+05:30
Jaipur,Rajasthan,26.9124,75.7873,26.3,41,0.0,963.2,7.25,29.9,87,110.6,40.9,4,5,7,0,2026-03-22T20:59:54.011342+05:30
Lucknow,Uttar Pradesh,26.8467,80.9462,23.9,53,0.0,997.8,6.95,26.6,116,248.7,54.7,0,5,7,0,2026-03-22T20:59:54.011350+05:30
Kanpur,Uttar Pradesh,26.4499,80.3319,22.7,68,0.0,996.1,7.0,27.7,142,446.1,74.5,3,5,7,1,2026-03-22T20:59:54.011356+05:30
Chandigarh,Chandigarh,30.7333,76.7794,18.9,77,0.0,972.3,6.4,33.1,125,45.5,42.5,3,5,7,0,2026-03-22T20:59:54.011364+05:30
Srinagar,Jammu and Kashmir,34.0837,74.7973,11.3,68,0.0,839.9,7.5,14.0,126,70.1,59.1,3,5,7,0,2026-03-22T20:59:54.011371+05:30
Jammu,Jammu and Kashmir,32.7266,74.857,21.3,68,0.0,976.1,6.85,22.0,102,57.2,52.3,3,5,7,0,2026-03-22T20:59:54.011377+05:30
Amritsar,Punjab,31.634,74.8723,20.6,69,0.0,984.8,7.05,20.5,156,79.9,57.6,3,5,7,0,2026-03-22T20:59:54.011384+05:30
Ludhiana,Punjab,30.901,75.8573,21.2,67,0.0,982.9,6.6,26.6,134,109.9,63.3,3,5,7,0,2026-03-22T20:59:54.011390+05:30
Jalandhar,Punjab,31.326,75.5762,21.4,67,0.0,984.0,6.85,21.6,151,97.1,65.2,3,5,7,0,2026-03-22T20:59:54.011399+05:30
Dehradun,Uttarakhand,30.6284,78.0322,11.8,81,0.0,830.0,6.8,24.1,124,36.8,31.9,3,10,7,0,2026-03-22T20:59:54.011406+05:30
Shimla,Himachal Pradesh,31.1048,77.1734,9.5,89,0.0,783.3,6.85,41.0,112,36.2,31.9,3,10,7,0,2026-03-22T20:59:54.011414+05:30
Manali,Himachal Pradesh,32.2396,77.1887,13.0,43,0.0,818.5,8.9,33.8,141,22.5,13.8,0,5,7,0,2026-03-22T20:59:54.011421+05:30
Gurgaon,Haryana,28.4595,77.0266,22.1,66,0.0,985.3,6.55,23.8,454,478.7,100.6,3,5,7,0,2026-03-22T20:59:54.011427+05:30
Noida,Uttar Pradesh,28.5355,77.391,23.6,58,0.0,988.5,6.45,27.7,454,478.7,100.6,0,5,7,0,2026-03-22T20:59:54.011433+05:30
Ghaziabad,Uttar Pradesh,28.6692,77.4538,22.4,63,0.0,986.6,6.45,28.1,152,444.2,89.2,3,5,7,0,2026-03-22T20:59:54.011440+05:30
Faridabad,Haryana,28.4089,77.3178,22.4,62,0.0,987.7,6.5,24.8,454,478.7,100.6,3,5,7,0,2026-03-22T20:59:54.011446+05:30
Meerut,Uttar Pradesh,28.9845,77.7064,20.4,69,0.0,985.2,6.3,31.7,152,444.2,89.2,3,5,7,0,2026-03-22T20:59:54.011454+05:30
Agra,Uttar Pradesh,27.1767,78.0081,23.3,56,0.0,991.8,6.45,29.9,524,384.6,78.9,0,5,7,0,2026-03-22T20:59:54.011461+05:30
Varanasi,Uttar Pradesh,25.3176,82.9739,22.9,64,0.0,1002.6,7.1,28.4,105,57.3,50.8,3,5,4,0,2026-03-22T20:59:54.011469+05:30
Prayagraj,Uttar Pradesh,25.4358,81.8463,23.7,55,0.0,1000.9,7.5,24.8,118,69.4,38.4,0,5,4,0,2026-03-22T20:59:54.011475+05:30
Gorakhpur,Uttar Pradesh,26.7606,83.3732,20.6,76,0.0,1002.0,7.25,11.2,158,37.8,35.5,3,5,4,1,2026-03-22T20:59:54.011481+05:30
Bareilly,Uttar Pradesh,28.367,79.4304,20.5,71,0.0,990.4,6.65,29.5,119,115.5,44.8,3,5,7,0,2026-03-22T20:59:54.011488+05:30
Aligarh,Uttar Pradesh,27.8974,78.088,21.8,64,0.0,989.6,6.6,27.7,331,657.5,109.2,3,5,7,0,2026-03-22T20:59:54.011496+05:30
Moradabad,Uttar Pradesh,28.8386,78.7733,20.3,69,0.0,987.3,6.5,30.6,135,121.1,46.9,3,5,7,0,2026-03-22T20:59:54.011502+05:30
Saharanpur,Uttar Pradesh,29.9637,77.546,19.4,70,0.0,979.2,6.15,34.2,151,279.4,69.4,3,5,7,0,2026-03-22T20:59:54.011507+05:30
Jhansi,Uttar Pradesh,25.4484,78.5685,25.2,45,0.0,982.3,7.45,32.4,79,52.5,22.8,4,5,7,0,2026-03-22T20:59:57.261867+05:30
Surat,Gujarat,21.1702,72.8311,28.0,50,0.0,1009.8,7.65,24.5,108,72.2,54.8,4,0,4,1,2026-03-22T20:59:57.261902+05:30
Vadodara,Gujarat,22.3072,73.1812,28.5,46,0.0,1007.5,7.8,20.2,130,50.9,36.0,4,5,4,0,2026-03-22T20:59:57.261912+05:30
Rajkot,Gujarat,22.3039,70.8022,27.9,43,0.0,998.3,7.6,28.8,65,40.3,20.9,4,5,7,0,2026-03-22T20:59:57.261920+05:30
Thane,Maharashtra,19.2183,72.9781,29.5,42,0.0,1009.8,7.85,41.0,180,57.0,39.7,4,0,4,0,2026-03-22T20:59:57.261927+05:30
Nagpur,Maharashtra,21.1458,79.0882,27.9,33,0.0,976.5,8.35,19.4,106,44.5,33.5,4,5,7,0,2026-03-22T20:59:57.261935+05:30
Nashik,Maharashtra,19.9975,73.7898,25.8,39,0.0,948.5,8.1,28.8,91,30.5,22.2,4,5,7,0,2026-03-22T20:59:57.261941+05:30
Aurangabad,Maharashtra,19.8762,75.3433,27.2,35,0.0,946.9,8.6,28.4,107,29.2,21.7,4,5,7,0,2026-03-22T20:59:57.261948+05:30
Solapur,Maharashtra,17.6599,75.9064,28.6,33,0.0,958.9,8.75,24.5,106,29.8,21.1,4,5,7,0,2026-03-22T20:59:57.261977+05:30
Kolhapur,Maharashtra,16.705,74.2433,24.7,54,0.0,949.8,8.85,33.1,96,51.1,44.0,0,5,7,0,2026-03-22T20:59:57.261984+05:30
Goa,Goa,15.2993,74.124,28.4,78,0.0,999.9,8.85,35.3,122,45.9,34.5,7,5,7,1,2026-03-22T20:59:57.261992+05:30
Jodhpur,Rajasthan,26.2389,73.0243,24.3,73,0.0,987.4,7.55,39.2,70,87.3,21.7,3,5,7,1,2026-03-22T20:59:57.261999+05:30
Udaipur,Rajasthan,24.5854,73.7125,25.1,42,0.0,950.2,8.15,26.6,62,33.8,13.6,4,5,7,0,2026-03-22T20:59:57.262006+05:30
Kota,Rajasthan,25.2138,75.8648,26.7,40,0.0,982.2,7.4,12.6,108,43.3,29.6,4,5,7,0,2026-03-22T20:59:57.262012+05:30
Bikaner,Rajasthan,28.0229,73.3119,25.4,58,0.0,986.1,7.1,22.3,68,53.0,17.7,4,5,7,1,2026-03-22T20:59:57.262019+05:30
Ajmer,Rajasthan,26.4499,74.6399,25.8,44,0.0,958.3,7.35,25.9,77,39.8,17.7,4,5,7,0,2026-03-22T20:59:57.262025+05:30
Gwalior,Madhya Pradesh,26.2183,78.1828,26.0,53,0.0,987.5,7.15,29.9,135,103.1,29.6,4,5,7,0,2026-03-22T20:59:57.262032+05:30
Indore,Madhya Pradesh,22.7196,75.8577,24.9,46,0.0,951.2,8.05,17.6,79,34.7,24.3,0,5,7,0,2026-03-22T20:59:57.262039+05:30
Bhopal,Madhya Pradesh,23.2599,77.4126,24.3,39,0.0,957.1,7.9,25.9,89,31.1,20.9,0,5,7,0,2026-03-22T20:59:57.262045+05:30
Jabalpur,Madhya Pradesh,23.1815,79.9864,24.4,50,0.0,965.3,8.05,29.9,79,48.4,21.7,0,5,7,0,2026-03-22T20:59:57.262051+05:30
Ujjain,Madhya Pradesh,23.1765,75.7885,24.9,53,0.0,957.0,8.0,13.3,68,42.6,31.5,0,5,7,0,2026-03-22T20:59:57.262059+05:30
Visakhapatnam,Andhra Pradesh,17.6868,83.2185,26.2,84,0.0,1007.2,8.85,36.7,81,24.4,19.5,7,5,4,1,2026-03-22T20:59:57.262065+05:30
Vijayawada,Andhra Pradesh,16.5062,80.648,27.3,74,0.0,1005.9,8.9,18.7,65,31.2,26.5,7,5,4,1,2026-03-22T20:59:57.262071+05:30
Guntur,Andhra Pradesh,16.3067,80.4365,26.6,82,0.0,1007.1,8.9,19.4,68,33.9,29.2,7,5,4,1,2026-03-22T20:59:57.262078+05:30
Nellore,Andhra Pradesh,14.4426,79.9865,26.8,82,0.0,1008.9,9.05,27.7,48,11.2,7.1,7,0,4,1,2026-03-22T20:59:57.262085+05:30
Kurnool,Andhra Pradesh,15.8281,78.0373,31.0,45,0.0,978.6,8.9,20.2,103,50.4,34.9,0,5,7,1,2026-03-22T20:59:57.262091+05:30
Kakinada,Andhra Pradesh,16.9891,82.2475,25.8,81,0.0,1010.7,8.8,28.8,42,16.4,10.9,7,0,4,1,2026-03-22T20:59:57.262098+05:30
Tirupati,Andhra Pradesh,13.6288,79.4192,27.3,69,0.0,994.5,9.2,28.4,77,21.0,17.8,7,5,7,1,2026-03-22T20:59:57.262104+05:30
Warangal,Telangana,17.9689,79.5941,27.2,63,0.0,981.7,8.75,21.2,130,82.9,67.8,7,5,7,1,2026-03-22T20:59:57.262109+05:30
Nizamabad,Telangana,18.6725,78.0941,28.1,46,0.0,967.1,8.65,27.4,113,51.8,45.3,4,5,7,0,2026-03-22T20:59:57.262115+05:30
Mysore,Karnataka,12.2958,76.6396,25.0,73,0.0,930.0,9.4,37.4,117,50.1,38.5,7,5,7,1,2026-03-22T20:59:57.262121+05:30
Mangalore,Karnataka,12.9141,74.856,29.3,76,0.0,1008.6,9.05,28.4,88,32.6,20.1,7,0,4,1,2026-03-22T20:59:57.262127+05:30
Hubli-Dharwad,Karnataka,15.3647,75.124,26.5,60,0.0,942.3,9.05,26.3,150,39.8,32.8,4,5,7,1,2026-03-22T20:59:57.262133+05:30
Belgaum,Karnataka,15.8497,74.4977,24.6,61,0.0,927.8,9.1,35.3,133,30.6,25.9,3,5,7,1,2026-03-22T21:00:22.589808+05:30
Coimbatore,Tamil Nadu,11.0168,76.9558,26.9,72,0.0,963.8,9.3,33.5,98,46.0,38.6,7,5,7,1,2026-03-22T21:00:22.589843+05:30
Madurai,Tamil Nadu,9.9252,78.1198,28.8,56,0.0,995.0,9.35,29.5,63,22.3,18.1,4,5,7,1,2026-03-22T21:00:22.589854+05:30
Trichy,Tamil Nadu,10.7905,78.7047,28.3,71,0.0,1001.8,9.25,23.8,64,22.5,19.5,7,5,4,1,2026-03-22T21:00:22.589863+05:30
Salem,Tamil Nadu,11.6643,78.146,28.9,56,0.0,979.0,9.3,21.2,109,33.3,27.0,4,5,7,1,2026-03-22T21:00:22.589870+05:30
Tirunelveli,Tamil Nadu,8.7139,77.7567,28.0,67,0.0,1005.2,9.3,33.1,75,18.2,15.3,7,5,4,1,2026-03-22T21:00:22.589877+05:30
Vellore,Tamil Nadu,12.9165,79.1325,27.2,64,0.0,987.6,9.25,34.9,90,21.6,17.9,7,5,7,1,2026-03-22T21:00:22.589885+05:30
Erode,Tamil Nadu,11.341,77.7172,29.9,51,0.0,990.5,9.3,32.8,86,30.0,24.7,4,5,7,1,2026-03-22T21:00:22.589892+05:30
Kochi,Kerala,9.9312,76.2673,29.2,76,0.0,1010.6,9.15,34.9,89,42.7,38.5,7,0,4,1,2026-03-22T21:00:22.589899+05:30
Thiruvananthapuram,Kerala,8.5241,76.9366,28.3,79,0.0,1009.9,9.15,26.3,112,18.6,13.5,7,0,4,1,2026-03-22T21:00:22.589906+05:30
Kozhikode,Kerala,11.2588,75.7804,29.4,79,0.0,1009.5,9.1,31.0,63,33.9,18.0,7,0,4,1,2026-03-22T21:00:22.589912+05:30
Thrissur,Kerala,10.5276,76.2144,28.7,80,0.0,1008.8,9.1,38.2,72,43.5,37.0,7,0,4,1,2026-03-22T21:00:22.589918+05:30
Kannur,Kerala,11.8745,75.3704,29.1,76,0.0,1009.1,9.05,34.9,68,37.0,19.5,7,0,4,1,2026-03-22T21:00:22.589925+05:30
Patna,Bihar,25.5941,85.1376,22.7,66,0.0,1005.9,7.55,19.1,160,70.8,67.3,3,5,4,0,2026-03-22T21:00:22.589932+05:30
Gaya,Bihar,24.7914,85.0002,21.4,74,0.0,999.3,7.5,21.6,139,56.0,49.1,3,5,7,1,2026-03-22T21:00:22.589939+05:30
Muzaffarpur,Bihar,26.1209,85.3647,21.5,67,0.0,1005.9,6.15,11.5,162,82.7,78.0,3,5,4,0,2026-03-22T21:00:22.589945+05:30
Bhagalpur,Bihar,25.2425,87.0117,21.7,71,0.0,1006.7,7.05,17.3,155,73.1,66.8,3,5,4,1,2026-03-22T21:00:22.589951+05:30
Ranchi,Jharkhand,23.3441,85.3096,20.2,56,0.0,941.5,8.45,29.5,116,56.6,27.9,0,5,7,0,2026-03-22T21:00:22.589978+05:30
Jamshedpur,Jharkhand,22.8046,86.2029,26.2,43,0.0,995.3,8.35,19.1,118,59.5,38.8,4,5,7,0,2026-03-22T21:00:22.589985+05:30
Dhanbad,Jharkhand,23.7957,86.4304,23.1,56,0.0,984.7,8.2,23.8,136,58.8,48.5,0,5,7,0,2026-03-22T21:00:22.589991+05:30
Bokaro,Jharkhand,23.6693,86.1511,22.6,60,0.0,988.9,8.2,24.5,135,65.9,47.5,0,5,7,0,2026-03-22T21:00:22.589998+05:30
Bhubaneswar,Odisha,20.2961,85.8245,25.4,83,0.0,1006.9,8.65,28.4,138,31.5,27.6,7,5,4,1,2026-03-22T21:00:22.590004+05:30
Cuttack,Odisha,20.4625,85.8828,25.3,81,0.0,1008.9,8.65,20.9,138,31.5,27.6,7,0,4,1,2026-03-22T21:00:22.590010+05:30
Rourkela,Odisha,22.2604,84.8536,23.9,57,0.0,989.4,8.2,20.5,119,38.1,27.1,0,5,7,0,2026-03-22T21:00:22.590016+05:30
Raipur,Chhattisgarh,21.2514,81.6296,26.2,32,0.0,978.5,8.4,23.0,100,45.8,39.0,4,5,7,0,2026-03-22T21:00:22.590023+05:30
Bhilai,Chhattisgarh,21.1938,81.3509,24.8,39,0.0,978.8,8.4,16.9,83,61.9,51.5,0,5,7,0,2026-03-22T21:00:22.590029+05:30
Guwahati,Assam,26.1158,91.7086,21.8,85,0.0,1006.1,7.6,20.5,83,25.6,23.8,3,5,4,1,2026-03-22T21:00:22.590035+05:30
Agartala,Tripura,23.8315,91.2868,22.3,72,0.0,1011.1,7.85,22.0,134,79.2,74.5,3,0,4,1,2026-03-22T21:00:22.590042+05:30
Shillong,Meghalaya,25.5788,91.8933,10.7,91,0.0,856.8,6.7,24.8,61,23.1,21.0,3,10,7,0,2026-03-22T21:00:22.590049+05:30
Imphal,Manipur,24.817,93.9368,14.3,93,0.0,925.9,8.15,51.5,63,21.9,20.8,3,10,7,0,2026-03-22T21:00:22.590056+05:30
Aizawl,Mizoram,23.7271,92.7176,15.6,85,0.0,895.0,8.2,44.6,54,18.3,16.9,3,10,7,0,2026-03-22T21:00:22.590062+05:30
Kohima,Nagaland,25.6701,94.1077,11.5,95,0.0,855.4,7.8,56.9,56,16.5,15.3,3,10,7,0,2026-03-22T21:00:22.590070+05:30
Gangtok,Sikkim,27.3314,88.6138,12.0,86,0.0,837.5,7.85,19.4,79,20.4,19.7,3,10,7,0,2026-03-22T21:00:22.590076+05:30
Siliguri,West Bengal,26.7271,88.3953,18.2,74,0.0,998.1,7.45,17.3,100,43.8,42.4,3,5,7,0,2026-03-22T21:00:25.846189+05:30
Durgapur,West Bengal,23.5204,87.3119,23.8,58,0.0,1000.0,8.1,18.4,123,64.0,60.3,0,5,4,0,2026-03-22T21:00:25.846224+05:30
Asansol,West Bengal,23.6739,86.9524,24.0,57,0.0,998.5,8.2,20.5,116,45.2,39.8,0,5,7,0,2026-03-22T21:00:25.846236+05:30
Pondicherry,Puducherry,11.9139,79.8145,25.6,87,0.0,1011.1,9.15,28.8,35,13.5,7.9,7,0,4,1,2026-03-22T21:00:25.846245+05:30
Port Blair,Andaman and Nicobar Islands,11.6234,92.7265,28.9,76,0.0,1009.6,9.1,20.9,43,11.6,8.6,7,0,4,1,2026-03-22T21:00:25.846253+05:30
Haridwar,Uttarakhand,29.9457,78.1642,19.0,73,0.0,977.9,6.25,25.9,124,189.5,56.1,3,5,7,0,2026-03-22T21:00:25.846260+05:30
Rishikesh,Uttarakhand,30.0869,78.2676,18.8,72,0.0,970.4,6.3,25.6,133,85.0,40.9,3,5,7,0,2026-03-22T21:00:25.846268+05:30
Nainital,Uttarakhand,29.3919,79.4542,14.1,68,0.0,806.2,7.15,37.8,131,38.3,33.1,3,5,7,0,2026-03-22T21:00:25.846275+05:30
Mussoorie,Uttarakhand,30.4599,78.0664,12.3,76,0.0,802.4,6.65,25.9,133,85.4,48.7,3,5,7,0,2026-03-22T21:00:25.846283+05:30
Dharamshala,Himachal Pradesh,32.219,76.3234,15.7,75,0.0,870.0,6.75,20.9,129,34.1,27.8,3,5,7,0,2026-03-22T21:00:25.846289+05:30
Dalhousie,Himachal Pradesh,32.5387,75.971,12.7,81,0.0,803.5,7.0,19.1,117,54.2,49.7,3,10,7,0,2026-03-22T21:00:25.846297+05:30
Patiala,Punjab,30.3398,76.3869,19.2,74,0.0,982.3,6.3,31.3,161,297.1,74.5,3,5,7,0,2026-03-22T21:00:25.846303+05:30
Bhatinda,Punjab,30.211,74.9455,21.3,71,0.0,988.0,6.9,19.4,151,119.7,60.3,3,5,7,0,2026-03-22T21:00:25.846310+05:30
Rohtak,Haryana,28.8955,76.6066,21.2,71,0.0,985.8,6.45,24.8,189,510.4,98.3,3,5,7,0,2026-03-22T21:00:25.846316+05:30
Panipat,Haryana,29.3909,76.9635,19.9,72,0.0,984.4,6.25,29.5,448,791.6,124.8,3,5,7,0,2026-03-22T21:00:25.846322+05:30
Mathura,Uttar Pradesh,27.4924,77.6737,22.2,64,0.0,991.0,6.6,28.1,371,396.7,75.4,3,5,7,0,2026-03-22T21:00:25.846329+05:30
Vrindavan,Uttar Pradesh,27.5823,77.7027,22.2,63,0.0,991.4,6.45,28.1,371,396.7,75.4,3,5,7,0,2026-03-22T21:00:25.846335+05:30
Ayodhya,Uttar Pradesh,26.7922,82.1998,22.9,63,0.0,1000.0,7.0,18.7,102,44.5,38.0,3,5,4,0,2026-03-22T21:00:25.846341+05:30
Ratlam,Madhya Pradesh,23.3315,75.0367,26.2,46,0.0,957.9,7.95,14.4,73,40.5,29.2,4,5,7,0,2026-03-22T21:00:25.846347+05:30
Sagar,Madhya Pradesh,23.8388,78.7378,24.4,48,0.0,954.1,7.95,29.9,94,40.3,20.3,0,5,7,0,2026-03-22T21:00:25.846353+05:30
Satna,Madhya Pradesh,24.6005,80.8322,23.7,49,0.0,976.0,7.9,32.4,95,57.3,20.7,0,5,7,0,2026-03-22T21:00:25.846359+05:30
Akola,Maharashtra,20.7002,77.0082,26.3,42,0.0,978.4,8.3,21.2,120,25.6,21.0,4,5,7,0,2026-03-22T21:00:25.846365+05:30
Amravati,Maharashtra,20.9374,77.7796,26.6,43,0.0,970.3,8.3,22.3,119,22.8,17.9,4,5,7,0,2026-03-22T21:00:25.846371+05:30
Latur,Maharashtra,18.4088,76.5604,25.8,43,0.0,942.1,8.7,28.8,115,21.7,17.2,4,5,7,0,2026-03-22T21:00:25.846377+05:30
Nanded,Maharashtra,19.1383,77.3091,27.7,36,0.0,971.3,8.5,28.4,110,33.8,29.0,4,5,7,0,2026-03-22T21:00:25.846383+05:30
Gulbarga,Karnataka,17.3297,76.8343,30.9,28,0.0,960.6,8.75,18.4,123,42.7,31.3,0,5,7,0,2026-03-22T21:00:25.846389+05:30
Bidar,Karnataka,17.9104,77.5199,28.3,37,0.0,937.8,8.75,20.5,118,26.4,21.5,4,5,7,0,2026-03-22T21:00:25.846394+05:30
Hospet,Karnataka,15.2689,76.3909,29.9,46,0.0,957.4,9.0,15.1,185,34.5,29.2,4,5,7,1,2026-03-22T21:00:25.846400+05:30
Tirupur,Tamil Nadu,11.1085,77.3411,30.1,42,0.0,976.9,9.4,31.0,99,49.5,40.7,0,5,7,0,2026-03-22T21:00:25.846406+05:30
Alappuzha,Kerala,9.4981,76.3388,29.0,77,0.0,1010.7,9.15,33.5,96,33.3,26.0,7,0,4,1,2026-03-22T21:00:25.846412+05:30
Munnar,Kerala,10.0889,77.0595,22.2,80,0.0,858.8,8.65,26.6,71,36.8,29.2,3,5,7,1,2026-03-22T21:00:25.846418+05:30
Silchar,Assam,24.8333,92.7789,20.9,88,0.0,1010.3,7.95,22.7,82,59.4,54.8,3,0,4,1,2026-03-22T21:00:25.846423+05:30
Dibrugarh,Assam,27.4728,94.912,21.0,89,0.0,1000.3,4.5,28.4,123,34.3,31.9,3,5,0,1,2026-03-22T21:00:25.846429+05:30
