city,state,latitude,longitude,temp,humidity,rain,pressure,uv_index,wind_gusts,aqi,pm10,pm2_5,mosquito_risk,arthritis_risk,migraine_risk,frizz_risk,updated_at
Delhi,Delhi,28.6139,77.209,23.4,79,0.0,987.3,6.1,19.1,184,588.6,141.6,3,5,7,1,2026-03-10T02:08:35.163283+05:30
Mumbai,Maharashtra,19.076,72.8777,28.9,65,0.0,1008.3,7.55,17.6,106,29.3,28.6,7,0,4,1,2026-03-10T02:08:35.163324+05:30
Bangalore,Karnataka,12.9716,77.5946,20.4,87,0.0,912.5,9.25,32.4,102,42.3,37.0,3,5,7,1,2026-03-10T02:08:35.163340+05:30
Hyderabad,Telangana,17.385,78.4867,22.6,86,0.0,955.4,8.6,28.8,105,43.2,38.3,3,5,7,1,2026-03-10T02:08:35.163350+05:30
Chennai,Tamil Nadu,13.0827,80.2707,25.1,77,0.0,1010.3,9.0,33.8,90,33.8,25.4,7,0,4,1,2026-03-10T02:08:35.163359+05:30
Kolkata,West Bengal,22.5726,88.3639,24.0,96,0.0,1011.3,7.75,15.8,130,46.1,40.0,3,0,4,1,2026-03-10T02:08:35.163368+05:30
Pune,Maharashtra,18.5204,73.8567,21.0,55,0.0,949.3,8.1,33.1,66,23.8,20.6,0,5,7,0,2026-03-10T02:08:35.163380+05:30
Ahmedabad,Gujarat,23.0225,72.5714,24.6,35,0.0,1005.1,7.4,18.7,55,16.8,15.7,0,5,4,0,2026-03-10T02:08:35.163388+05:30
Jaipur,Rajasthan,26.9124,75.7873,25.1,26,0.0,964.0,6.85,19.4,77,142.5,29.7,4,5,7,0,2026-03-10T02:08:35.163397+05:30
Lucknow,Uttar Pradesh,26.8467,80.9462,23.5,89,0.0,998.7,6.55,22.0,173,135.0,122.9,3,5,7,1,2026-03-10T02:08:35.163405+05:30
Kanpur,Uttar Pradesh,26.4499,80.3319,22.2,83,0.0,996.6,6.6,18.0,162,175.6,89.9,3,5,7,1,2026-03-10T02:08:35.163412+05:30
Chandigarh,Chandigarh,30.7333,76.7794,22.0,74,0.0,973.2,6.0,24.1,105,56.5,49.2,3,5,3,1,2026-03-10T02:08:35.163420+05:30
Srinagar,Jammu and Kashmir,34.0837,74.7973,10.1,84,0.1,845.4,3.55,18.0,139,91.0,61.5,6,10,3,0,2026-03-10T02:08:35.163428+05:30
Jammu,Jammu and Kashmir,32.7266,74.857,20.8,77,0.0,977.0,6.3,28.8,93,36.8,31.5,3,5,7,1,2026-03-10T02:08:35.163435+05:30
Amritsar,Punjab,31.634,74.8723,23.1,76,0.0,985.0,6.4,18.7,166,149.5,130.4,3,5,7,1,2026-03-10T02:08:35.163442+05:30
Ludhiana,Punjab,30.901,75.8573,22.5,77,0.0,983.1,5.95,16.2,161,188.6,133.2,3,5,3,1,2026-03-10T02:08:35.163448+05:30
Jalandhar,Punjab,31.326,75.5762,21.5,87,0.0,984.3,5.7,15.8,161,151.3,120.6,3,5,3,1,2026-03-10T02:08:35.163457+05:30
Dehradun,Uttarakhand,30.6284,78.0322,13.5,74,0.0,832.9,6.35,25.9,69,35.9,26.7,3,5,7,0,2026-03-10T02:08:35.163463+05:30
Shimla,Himachal Pradesh,31.1048,77.1734,12.5,69,0.0,787.1,6.3,37.1,69,46.6,31.1,3,5,7,0,2026-03-10T02:08:35.163470+05:30
Manali,Himachal Pradesh,32.2396,77.1887,16.8,40,0.0,825.3,6.85,38.2,40,32.7,18.6,0,5,7,0,2026-03-10T02:08:35.163477+05:30
Gurgaon,Haryana,28.4595,77.0266,20.5,84,0.0,985.6,6.1,16.2,463,473.1,122.9,3,5,7,1,2026-03-10T02:08:35.163483+05:30
Noida,Uttar Pradesh,28.5355,77.391,22.8,80,0.0,988.9,6.05,18.7,463,473.1,122.9,3,5,7,1,2026-03-10T02:08:35.163490+05:30
Ghaziabad,Uttar Pradesh,28.6692,77.4538,21.5,87,0.0,986.9,5.95,15.5,164,484.3,126.2,3,5,3,1,2026-03-10T02:08:35.163497+05:30
Faridabad,Haryana,28.4089,77.3178,20.8,79,0.0,988.1,6.1,17.3,463,473.1,122.9,3,5,7,1,2026-03-10T02:08:35.163504+05:30
Meerut,Uttar Pradesh,28.9845,77.7064,21.3,86,0.0,985.9,5.95,17.3,164,484.3,126.2,3,5,3,1,2026-03-10T02:08:35.163510+05:30
Agra,Uttar Pradesh,27.1767,78.0081,22.8,76,0.0,992.2,6.45,16.6,180,234.7,101.5,3,5,7,1,2026-03-10T02:08:35.163517+05:30
Varanasi,Uttar Pradesh,25.3176,82.9739,22.2,96,0.0,1002.8,7.25,15.5,184,145.3,139.7,3,5,4,1,2026-03-10T02:08:35.163526+05:30
Prayagraj,Uttar Pradesh,25.4358,81.8463,21.9,93,0.0,1000.9,7.1,15.1,186,141.6,136.9,3,5,4,1,2026-03-10T02:08:35.163533+05:30
Gorakhpur,Uttar Pradesh,26.7606,83.3732,21.2,93,0.0,1003.0,6.95,19.1,199,134.1,123.4,3,5,4,1,2026-03-10T02:08:35.163539+05:30
Bareilly,Uttar Pradesh,28.367,79.4304,21.1,94,0.0,991.7,5.5,23.4,169,109.9,85.9,3,5,3,1,2026-03-10T02:08:35.163546+05:30
Aligarh,Uttar Pradesh,27.8974,78.088,20.2,87,0.0,990.0,6.1,17.3,172,258.9,136.9,3,5,7,1,2026-03-10T02:08:35.163553+05:30
Moradabad,Uttar Pradesh,28.8386,78.7733,21.3,86,0.0,988.4,6.1,25.6,175,122.5,94.5,3,5,7,1,2026-03-10T02:08:35.163559+05:30
Saharanpur,Uttar Pradesh,29.9637,77.546,19.6,94,0.0,980.4,5.75,21.2,163,166.2,105.5,3,10,3,1,2026-03-10T02:08:35.163566+05:30
Jhansi,Uttar Pradesh,25.4484,78.5685,22.7,55,0.0,981.7,7.05,23.0,70,54.8,29.7,0,5,7,0,2026-03-10T02:08:38.436913+05:30
Surat,Gujarat,21.1702,72.8311,26.9,47,0.0,1008.2,7.3,25.9,99,34.5,33.6,4,0,4,0,2026-03-10T02:08:38.436945+05:30
Vadodara,Gujarat,22.3072,73.1812,25.7,43,0.0,1006.6,7.4,18.4,69,20.4,19.4,4,5,4,0,2026-03-10T02:08:38.436957+05:30
Rajkot,Gujarat,22.3039,70.8022,23.8,63,0.0,997.4,7.25,32.8,58,27.4,25.0,3,5,7,1,2026-03-10T02:08:38.436966+05:30
Thane,Maharashtra,19.2183,72.9781,27.4,47,0.0,1007.8,7.55,36.0,106,29.3,28.6,4,5,4,0,2026-03-10T02:08:38.436974+05:30
Nagpur,Maharashtra,21.1458,79.0882,21.3,48,0.0,975.3,7.95,24.1,92,37.3,28.3,0,5,7,0,2026-03-10T02:08:38.436983+05:30
Nashik,Maharashtra,19.9975,73.7898,24.7,36,0.0,947.3,7.75,25.6,79,17.0,15.4,0,5,7,0,2026-03-10T02:08:38.436990+05:30
Aurangabad,Maharashtra,19.8762,75.3433,23.4,47,0.0,945.8,8.25,26.6,66,36.7,33.3,0,5,7,0,2026-03-10T02:08:38.436998+05:30
Solapur,Maharashtra,17.6599,75.9064,22.7,55,0.0,958.7,8.5,22.3,88,32.9,29.8,0,5,7,0,2026-03-10T02:08:38.437007+05:30
Kolhapur,Maharashtra,16.705,74.2433,24.4,41,0.0,948.6,8.6,38.5,127,49.8,46.7,0,5,7,0,2026-03-10T02:08:38.437015+05:30
Goa,Goa,15.2993,74.124,26.1,93,0.0,998.5,8.65,37.1,134,64.0,59.0,7,5,7,1,2026-03-10T02:08:38.437023+05:30
Jodhpur,Rajasthan,26.2389,73.0243,24.3,28,0.0,987.4,7.15,20.5,64,98.0,27.1,0,5,7,0,2026-03-10T02:08:38.437032+05:30
Udaipur,Rajasthan,24.5854,73.7125,19.8,33,0.0,950.4,7.75,20.2,42,10.6,9.1,0,5,7,0,2026-03-10T02:08:38.437039+05:30
Kota,Rajasthan,25.2138,75.8648,20.9,56,0.0,982.3,7.15,19.1,69,35.3,29.5,0,5,7,0,2026-03-10T02:08:38.437047+05:30
Bikaner,Rajasthan,28.0229,73.3119,23.8,37,0.0,986.1,6.85,20.9,52,68.9,16.7,0,5,7,0,2026-03-10T02:08:38.437055+05:30
Ajmer,Rajasthan,26.4499,74.6399,22.5,30,0.0,958.7,7.15,23.0,51,34.3,15.6,0,5,7,0,2026-03-10T02:08:38.437063+05:30
Gwalior,Madhya Pradesh,26.2183,78.1828,23.6,64,0.0,987.3,6.75,22.3,79,138.8,44.7,3,5,7,1,2026-03-10T02:08:38.437071+05:30
Indore,Madhya Pradesh,22.7196,75.8577,20.7,49,0.0,950.4,7.7,21.6,76,39.9,30.0,0,5,7,0,2026-03-10T02:08:38.437078+05:30
Bhopal,Madhya Pradesh,23.2599,77.4126,23.2,43,0.0,956.4,7.55,19.4,70,57.4,37.0,0,5,7,0,2026-03-10T02:08:38.437086+05:30
Jabalpur,Madhya Pradesh,23.1815,79.9864,22.6,56,0.0,964.4,7.65,23.4,94,56.6,36.2,0,5,7,0,2026-03-10T02:08:38.437094+05:30
Ujjain,Madhya Pradesh,23.1765,75.7885,22.7,46,0.0,956.5,7.55,20.2,92,55.9,49.1,0,5,7,0,2026-03-10T02:08:38.437102+05:30
Visakhapatnam,Andhra Pradesh,17.6868,83.2185,24.1,89,0.0,1008.0,8.55,34.6,109,59.1,47.3,3,0,4,1,2026-03-10T02:08:38.437110+05:30
Vijayawada,Andhra Pradesh,16.5062,80.648,23.9,87,0.0,1006.5,8.6,22.3,105,51.3,43.4,3,5,4,1,2026-03-10T02:08:38.437118+05:30
Guntur,Andhra Pradesh,16.3067,80.4365,23.3,90,0.0,1007.6,8.6,24.1,99,47.8,41.1,3,5,4,1,2026-03-10T02:08:38.437125+05:30
Nellore,Andhra Pradesh,14.4426,79.9865,23.8,87,0.0,1009.4,8.85,28.1,84,36.0,26.7,3,0,4,1,2026-03-10T02:08:38.437134+05:30
Kurnool,Andhra Pradesh,15.8281,78.0373,25.2,74,0.0,979.2,8.65,31.3,94,37.1,32.6,7,5,7,1,2026-03-10T02:08:38.437142+05:30
Kakinada,Andhra Pradesh,16.9891,82.2475,22.4,89,0.0,1011.6,8.55,25.6,99,54.2,39.7,3,0,4,1,2026-03-10T02:08:38.437150+05:30
Tirupati,Andhra Pradesh,13.6288,79.4192,21.5,83,0.0,994.9,8.95,31.0,106,65.7,54.7,3,5,7,1,2026-03-10T02:08:38.437158+05:30
Warangal,Telangana,17.9689,79.5941,24.1,89,0.0,981.6,8.45,27.0,111,44.4,41.2,3,5,7,1,2026-03-10T02:08:38.437165+05:30
Nizamabad,Telangana,18.6725,78.0941,24.4,67,0.0,966.8,8.3,28.4,123,47.0,43.1,3,5,7,1,2026-03-10T02:08:38.437172+05:30
Mysore,Karnataka,12.2958,76.6396,21.8,73,0.0,928.9,9.25,35.6,118,39.6,35.6,3,5,7,1,2026-03-10T02:08:38.437179+05:30
Mangalore,Karnataka,12.9141,74.856,28.4,83,0.0,1007.2,8.9,27.7,117,37.0,32.8,7,5,4,1,2026-03-10T02:08:38.437186+05:30
Hubli-Dharwad,Karnataka,15.3647,75.124,25.0,47,0.0,941.6,8.8,46.4,96,41.0,35.7,4,5,7,0,2026-03-10T02:08:38.437194+05:30
Belgaum,Karnataka,15.8497,74.4977,22.7,44,0.0,926.2,8.85,44.6,104,43.0,36.6,0,5,7,0,2026-03-10T02:08:41.709381+05:30
Coimbatore,Tamil Nadu,11.0168,76.9558,23.0,73,0.0,963.4,9.25,43.9,107,46.3,41.6,3,5,7,1,2026-03-10T02:08:41.709412+05:30
Madurai,Tamil Nadu,9.9252,78.1198,23.4,83,0.0,995.2,9.2,35.3,100,54.0,46.0,3,5,7,1,2026-03-10T02:08:41.709423+05:30
Trichy,Tamil Nadu,10.7905,78.7047,23.0,90,0.0,1002.3,9.1,35.6,95,43.5,36.7,3,5,4,1,2026-03-10T02:08:41.709431+05:30
Salem,Tamil Nadu,11.6643,78.146,22.6,82,0.0,979.4,9.15,32.8,116,62.2,53.8,3,5,7,1,2026-03-10T02:08:41.709439+05:30
Tirunelveli,Tamil Nadu,8.7139,77.7567,24.6,77,0.0,1005.3,9.2,43.2,95,45.5,36.4,3,5,4,1,2026-03-10T02:08:41.709446+05:30
Vellore,Tamil Nadu,12.9165,79.1325,21.4,86,0.0,987.8,9.05,34.6,117,74.7,64.3,3,5,7,1,2026-03-10T02:08:41.709454+05:30
Erode,Tamil Nadu,11.341,77.7172,23.8,82,0.0,991.3,9.15,27.4,90,48.0,41.7,3,5,7,1,2026-03-10T02:08:41.709460+05:30
Kochi,Kerala,9.9312,76.2673,26.0,85,0.0,1009.5,9.05,38.9,126,49.5,47.5,7,0,4,1,2026-03-10T02:08:41.709468+05:30
Thiruvananthapuram,Kerala,8.5241,76.9366,27.7,80,0.0,1008.1,9.1,27.0,105,39.6,30.0,7,0,4,1,2026-03-10T02:08:41.709475+05:30
Kozhikode,Kerala,11.2588,75.7804,25.7,89,0.0,1009.0,8.95,24.8,97,34.0,31.3,7,0,4,1,2026-03-10T02:08:41.709482+05:30
Thrissur,Kerala,10.5276,76.2144,24.3,91,0.0,1007.9,9.0,35.6,122,51.0,48.9,3,5,4,1,2026-03-10T02:08:41.709489+05:30
Kannur,Kerala,11.8745,75.3704,26.4,85,0.0,1008.0,8.95,34.6,113,32.6,30.7,7,0,4,1,2026-03-10T02:08:41.709496+05:30
Patna,Bihar,25.5941,85.1376,23.6,86,0.0,1006.1,7.4,26.3,185,117.8,112.7,3,5,4,1,2026-03-10T02:08:41.709502+05:30
Gaya,Bihar,24.7914,85.0002,21.8,95,0.0,999.0,7.5,17.6,183,111.5,104.8,3,5,7,1,2026-03-10T02:08:41.709508+05:30
Muzaffarpur,Bihar,26.1209,85.3647,22.1,93,0.0,1006.3,7.35,22.0,186,118.3,112.5,3,5,4,1,2026-03-10T02:08:41.709515+05:30
Bhagalpur,Bihar,25.2425,87.0117,23.6,88,0.0,1006.6,7.4,20.2,174,104.8,95.5,3,5,4,1,2026-03-10T02:08:41.709521+05:30
Ranchi,Jharkhand,23.3441,85.3096,20.0,96,0.0,941.8,8.15,20.9,167,72.4,66.8,3,5,7,1,2026-03-10T02:08:41.709527+05:30
Jamshedpur,Jharkhand,22.8046,86.2029,22.9,90,0.0,996.0,8.05,16.9,157,40.0,36.4,3,5,7,1,2026-03-10T02:08:41.709534+05:30
Dhanbad,Jharkhand,23.7957,86.4304,21.8,85,0.0,984.9,7.9,17.6,174,78.7,71.9,3,5,7,1,2026-03-10T02:08:41.709541+05:30
Bokaro,Jharkhand,23.6693,86.1511,21.5,91,0.0,989.0,7.95,19.8,178,103.4,93.4,3,5,7,1,2026-03-10T02:08:41.709547+05:30
Bhubaneswar,Odisha,20.2961,85.8245,24.4,88,0.0,1007.1,8.35,30.2,92,40.2,35.2,3,5,4,1,2026-03-10T02:08:41.709554+05:30
Cuttack,Odisha,20.4625,85.8828,25.0,85,0.0,1008.9,8.4,27.7,92,40.2,35.2,7,0,4,1,2026-03-10T02:08:41.709561+05:30
Rourkela,Odisha,22.2604,84.8536,24.8,77,0.0,989.2,7.95,27.0,164,86.1,78.5,3,5,7,1,2026-03-10T02:08:41.709568+05:30
Raipur,Chhattisgarh,21.2514,81.6296,24.8,42,0.0,976.9,8.05,18.4,164,131.3,111.8,0,5,7,0,2026-03-10T02:08:41.709574+05:30
Bhilai,Chhattisgarh,21.1938,81.3509,23.7,49,0.0,977.1,8.05,16.6,157,106.6,88.7,0,5,7,0,2026-03-10T02:08:41.709581+05:30
Guwahati,Assam,26.1158,91.7086,23.4,80,0.0,1007.2,7.3,11.5,154,69.4,64.7,3,5,4,1,2026-03-10T02:08:41.709588+05:30
Agartala,Tripura,23.8315,91.2868,22.3,82,0.0,1011.5,7.7,16.2,162,107.8,99.2,3,0,4,1,2026-03-10T02:08:41.709595+05:30
Shillong,Meghalaya,25.5788,91.8933,10.7,89,0.0,858.5,5.25,20.2,155,78.5,71.2,3,10,3,0,2026-03-10T02:08:41.709602+05:30
Imphal,Manipur,24.817,93.9368,15.1,92,0.0,927.3,7.95,34.2,163,117.1,112.5,3,10,7,0,2026-03-10T02:08:41.709609+05:30
Aizawl,Mizoram,23.7271,92.7176,15.2,88,0.0,895.4,7.6,28.4,165,89.4,82.9,3,10,7,0,2026-03-10T02:08:41.709617+05:30
Kohima,Nagaland,25.6701,94.1077,14.1,74,0.0,858.0,7.05,42.1,154,68.0,64.0,3,5,7,0,2026-03-10T02:08:41.709624+05:30
Gangtok,Sikkim,27.3314,88.6138,12.8,74,0.0,840.3,5.2,18.0,158,57.7,47.0,3,5,3,0,2026-03-10T02:08:41.709630+05:30
Siliguri,West Bengal,26.7271,88.3953,20.7,60,0.0,1000.0,7.35,23.8,165,125.7,101.0,0,5,4,0,2026-03-10T02:08:44.980748+05:30
Durgapur,West Bengal,23.5204,87.3119,22.8,92,0.0,1000.6,7.85,15.5,164,81.5,73.1,3,5,4,1,2026-03-10T02:08:44.980775+05:30
Asansol,West Bengal,23.6739,86.9524,22.6,90,0.0,999.1,7.9,16.6,165,70.8,63.6,3,5,7,1,2026-03-10T02:08:44.980785+05:30
Pondicherry,Puducherry,11.9139,79.8145,23.6,88,0.0,1011.3,8.95,36.0,86,30.9,22.9,3,0,4,1,2026-03-10T02:08:44.980829+05:30
Port Blair,Andaman and Nicobar Islands,11.6234,92.7265,27.6,79,0.0,1008.5,8.9,34.2,85,30.9,26.5,7,0,4,1,2026-03-10T02:08:44.980839+05:30
Haridwar,Uttarakhand,29.9457,78.1642,21.3,92,0.0,979.2,5.85,20.5,155,66.8,59.6,3,5,3,1,2026-03-10T02:08:44.980846+05:30
Rishikesh,Uttarakhand,30.0869,78.2676,20.6,86,0.0,972.1,5.9,22.3,150,79.9,59.6,3,5,3,1,2026-03-10T02:08:44.980853+05:30
Nainital,Uttarakhand,29.3919,79.4542,17.0,86,0.0,809.4,6.75,50.0,161,114.6,81.5,3,10,7,0,2026-03-10T02:08:44.980860+05:30
Mussoorie,Uttarakhand,30.4599,78.0664,15.7,82,0.0,806.0,6.25,34.6,138,75.9,59.6,3,10,7,0,2026-03-10T02:08:44.980868+05:30
Dharamshala,Himachal Pradesh,32.219,76.3234,21.4,40,0.0,873.6,5.9,22.0,48,30.0,14.9,0,5,3,0,2026-03-10T02:08:44.980874+05:30
Dalhousie,Himachal Pradesh,32.5387,75.971,18.4,40,0.0,807.8,5.8,21.6,77,43.1,34.9,0,5,3,0,2026-03-10T02:08:44.980882+05:30
Patiala,Punjab,30.3398,76.3869,20.9,80,0.0,982.7,5.9,14.4,164,196.0,119.7,3,5,3,1,2026-03-10T02:08:44.980888+05:30
Bhatinda,Punjab,30.211,74.9455,22.1,70,0.0,987.8,6.5,15.8,157,125.7,101.7,3,5,7,1,2026-03-10T02:08:44.980894+05:30
Rohtak,Haryana,28.8955,76.6066,20.1,87,0.0,985.8,6.05,16.2,196,599.8,143.9,3,5,7,1,2026-03-10T02:08:44.980901+05:30
Panipat,Haryana,29.3909,76.9635,19.7,90,0.0,984.6,5.9,16.6,527,542.0,146.7,3,10,3,1,2026-03-10T02:08:44.980907+05:30
Mathura,Uttar Pradesh,27.4924,77.6737,20.9,75,0.0,991.2,6.35,19.1,159,244.0,101.3,3,5,7,1,2026-03-10T02:08:44.980913+05:30
Vrindavan,Uttar Pradesh,27.5823,77.7027,20.1,82,0.0,991.6,6.3,19.4,159,244.0,101.3,3,5,7,1,2026-03-10T02:08:44.980919+05:30
Ayodhya,Uttar Pradesh,26.7922,82.1998,22.7,90,0.0,1000.9,6.75,21.2,197,144.8,136.4,3,5,4,1,2026-03-10T02:08:44.980926+05:30
Ratlam,Madhya Pradesh,23.3315,75.0367,18.5,75,0.0,957.0,7.55,17.3,76,40.4,37.5,3,5,7,0,2026-03-10T02:08:44.980933+05:30
Sagar,Madhya Pradesh,23.8388,78.7378,22.4,44,0.0,953.0,7.5,18.4,59,31.8,16.4,0,5,7,0,2026-03-10T02:08:44.980939+05:30
Satna,Madhya Pradesh,24.6005,80.8322,22.5,72,0.0,975.2,7.5,25.9,122,100.6,41.2,3,5,7,1,2026-03-10T02:08:44.980945+05:30
Akola,Maharashtra,20.7002,77.0082,23.8,65,0.0,977.0,8.0,19.8,64,36.4,31.8,3,5,7,1,2026-03-10T02:08:44.980952+05:30
Amravati,Maharashtra,20.9374,77.7796,21.4,68,0.0,969.2,7.95,19.8,64,40.2,33.9,3,5,7,0,2026-03-10T02:08:44.980958+05:30
Latur,Maharashtra,18.4088,76.5604,22.1,53,0.0,941.3,8.4,27.4,90,47.8,38.6,0,5,7,0,2026-03-10T02:08:44.980964+05:30
Nanded,Maharashtra,19.1383,77.3091,24.9,49,0.0,970.3,8.2,20.5,84,61.9,50.2,0,5,7,0,2026-03-10T02:08:44.980970+05:30
Gulbarga,Karnataka,17.3297,76.8343,25.0,56,0.0,961.0,8.5,31.0,89,38.8,35.6,4,5,7,0,2026-03-10T02:08:44.980976+05:30
Bidar,Karnataka,17.9104,77.5199,22.3,69,0.0,937.2,8.45,31.7,109,44.4,40.6,3,5,7,1,2026-03-10T02:08:44.980982+05:30
Hospet,Karnataka,15.2689,76.3909,25.9,63,0.0,957.4,8.8,36.4,94,42.7,38.4,7,5,7,1,2026-03-10T02:08:44.980988+05:30
Tirupur,Tamil Nadu,11.1085,77.3411,23.7,73,0.0,977.4,9.25,38.9,97,50.3,44.4,3,5,7,1,2026-03-10T02:08:44.980994+05:30
Alappuzha,Kerala,9.4981,76.3388,26.6,87,0.0,1009.3,9.05,32.4,120,42.6,39.6,7,0,4,1,2026-03-10T02:08:44.981000+05:30
Munnar,Kerala,10.0889,77.0595,18.6,83,0.0,855.7,9.55,29.2,96,46.9,40.2,3,10,7,0,2026-03-10T02:08:44.981006+05:30
Silchar,Assam,24.8333,92.7789,22.0,91,0.0,1010.6,7.65,11.5,172,144.4,134.6,3,0,4,1,2026-03-10T02:08:44.981012+05:30
Dibrugarh,Assam,27.4728,94.912,22.4,90,0.0,1001.6,7.4,18.4,162,73.6,66.6,3,5,4,1,2026-03-10T02:08:44.981019+05:30
