city,state,latitude,longitude,temp,humidity,rain,pressure,uv_index,wind_gusts,aqi,pm10,pm2_5,no2,co,o3,so2,mosquito_risk,arthritis_risk,migraine_risk,frizz_risk,updated_at
Delhi,Delhi,28.6139,77.209,36.2,46,0.0,974.3,6.6,38.2,450,609.1,133.6,8.7,278.0,148.0,12.7,0,5,10,1,2026-07-14T16:19:10.495192+05:30
Mumbai,Maharashtra,19.076,72.8777,29.3,74,0.0,1006.2,7.0,44.3,70,44.6,20.8,5.2,155.0,71.0,6.4,7,5,4,1,2026-07-14T16:19:10.495233+05:30
Bangalore,Karnataka,12.9716,77.5946,32.2,33,0.0,910.4,8.55,40.3,59,23.1,12.1,6.6,236.0,90.0,2.9,0,5,7,0,2026-07-14T16:19:10.495248+05:30
Hyderabad,Telangana,17.385,78.4867,32.7,44,0.0,949.8,7.8,47.5,57,24.6,15.0,2.9,216.0,104.0,3.1,0,5,7,1,2026-07-14T16:19:10.495258+05:30
Chennai,Tamil Nadu,13.0827,80.2707,34.9,50,0.0,1001.6,8.25,36.7,77,42.3,27.8,6.1,220.0,149.0,6.8,0,5,4,1,2026-07-14T16:19:10.495266+05:30
Kolkata,West Bengal,22.5726,88.3639,27.4,93,0.1,996.5,8.7,28.8,145,31.7,26.7,7.5,621.0,158.0,12.2,10,5,7,1,2026-07-14T16:19:10.495274+05:30
Pune,Maharashtra,18.5204,73.8567,29.2,56,0.0,945.9,8.4,48.2,54,31.0,15.0,1.8,126.0,78.0,3.3,4,5,7,1,2026-07-14T16:19:10.495281+05:30
Ahmedabad,Gujarat,23.0225,72.5714,36.2,40,0.0,996.1,5.85,43.9,67,74.5,25.6,2.2,124.0,79.0,2.8,0,5,6,1,2026-07-14T16:19:10.495288+05:30
Jaipur,Rajasthan,26.9124,75.7873,34.0,47,0.0,953.6,8.1,41.0,428,212.3,58.2,1.6,134.0,90.0,3.2,0,5,7,1,2026-07-14T16:19:10.495294+05:30
Lucknow,Uttar Pradesh,26.8467,80.9462,35.3,55,0.0,984.6,8.0,24.8,153,231.4,71.7,3.0,194.0,129.0,5.3,0,5,10,1,2026-07-14T16:19:10.495305+05:30
Kanpur,Uttar Pradesh,26.4499,80.3319,35.8,50,0.0,983.0,7.3,35.3,136,204.0,61.2,2.7,160.0,124.0,4.8,0,5,10,1,2026-07-14T16:19:10.495312+05:30
Chandigarh,Chandigarh,30.7333,76.7794,33.5,56,0.0,960.8,7.7,24.5,172,124.8,61.2,2.8,387.0,187.0,14.2,0,5,7,1,2026-07-14T16:19:10.495319+05:30
Srinagar,Jammu and Kashmir,34.0837,74.7973,28.5,41,0.0,838.3,8.95,20.2,95,21.1,11.1,1.7,257.0,147.0,2.3,4,5,7,0,2026-07-14T16:19:10.495325+05:30
Jammu,Jammu and Kashmir,32.7266,74.857,34.2,49,0.0,964.7,8.35,25.2,154,85.9,41.2,1.2,317.0,165.0,3.8,0,5,7,1,2026-07-14T16:19:10.495332+05:30
Amritsar,Punjab,31.634,74.8723,33.9,60,0.0,972.4,8.3,16.9,188,115.3,59.6,1.9,362.0,213.0,10.6,0,5,7,1,2026-07-14T16:19:10.495338+05:30
Ludhiana,Punjab,30.901,75.8573,34.6,54,0.0,970.2,7.9,24.5,189,112.7,61.0,2.2,396.0,180.0,5.4,0,5,7,1,2026-07-14T16:19:10.495344+05:30
Jalandhar,Punjab,31.326,75.5762,34.3,56,0.0,971.4,7.9,19.1,195,113.6,61.2,2.2,413.0,187.0,6.8,0,5,7,1,2026-07-14T16:19:10.495350+05:30
Dehradun,Uttarakhand,30.6284,78.0322,23.8,65,0.0,827.9,8.1,28.4,115,70.5,30.5,0.6,240.0,127.0,3.6,3,5,7,1,2026-07-14T16:19:10.495356+05:30
Shimla,Himachal Pradesh,31.1048,77.1734,21.6,63,0.0,783.2,7.4,36.4,152,72.2,35.5,1.5,230.0,149.0,9.7,3,5,7,0,2026-07-14T16:19:10.495363+05:30
Manali,Himachal Pradesh,32.2396,77.1887,24.0,64,0.0,817.3,9.55,31.7,104,21.5,10.0,0.0,146.0,160.0,1.1,3,5,7,1,2026-07-14T16:19:10.495371+05:30
Gurgaon,Haryana,28.4595,77.0266,36.2,44,0.0,972.9,7.05,34.2,521,556.9,124.8,8.9,209.0,136.0,11.4,0,5,10,1,2026-07-14T16:19:10.495377+05:30
Noida,Uttar Pradesh,28.5355,77.391,36.3,45,0.0,975.8,6.6,30.6,521,556.9,124.8,8.9,281.0,136.0,11.4,0,5,10,1,2026-07-14T16:19:10.495384+05:30
Ghaziabad,Uttar Pradesh,28.6692,77.4538,36.0,47,0.0,974.0,6.7,30.6,327,530.9,134.1,4.8,210.0,169.0,15.0,0,5,10,1,2026-07-14T16:19:10.495390+05:30
Faridabad,Haryana,28.4089,77.3178,36.4,44,0.0,975.1,6.7,43.9,521,556.9,124.8,8.9,195.0,136.0,11.4,0,5,10,1,2026-07-14T16:19:10.495399+05:30
Meerut,Uttar Pradesh,28.9845,77.7064,34.7,56,0.0,972.9,7.6,29.9,327,530.9,134.1,4.8,183.0,169.0,15.0,0,5,7,1,2026-07-14T16:19:10.495406+05:30
Agra,Uttar Pradesh,27.1767,78.0081,34.9,53,0.0,979.6,7.95,30.2,154,310.1,89.2,3.6,148.0,120.0,4.1,0,5,7,1,2026-07-14T16:19:10.495412+05:30
Varanasi,Uttar Pradesh,25.3176,82.9739,34.7,55,0.0,988.7,6.5,22.3,151,168.1,61.9,3.2,258.0,140.0,8.6,0,5,7,1,2026-07-14T16:19:10.495418+05:30
Prayagraj,Uttar Pradesh,25.4358,81.8463,35.8,49,0.0,987.1,7.7,28.4,132,185.3,61.5,3.1,177.0,129.0,7.4,0,5,10,1,2026-07-14T16:19:10.495424+05:30
Gorakhpur,Uttar Pradesh,26.7606,83.3732,33.1,67,0.0,988.2,7.85,24.1,159,174.6,74.5,3.1,266.0,164.0,7.7,3,5,7,1,2026-07-14T16:19:10.495431+05:30
Bareilly,Uttar Pradesh,28.367,79.4304,34.9,53,0.0,977.9,8.0,25.2,175,334.3,106.4,3.1,196.0,155.0,8.4,0,5,7,1,2026-07-14T16:19:10.495439+05:30
Aligarh,Uttar Pradesh,27.8974,78.088,35.0,51,0.0,977.1,7.85,46.1,486,769.3,163.9,3.4,178.0,135.0,8.0,0,5,7,1,2026-07-14T16:19:10.495445+05:30
Moradabad,Uttar Pradesh,28.8386,78.7733,34.7,55,0.0,974.9,7.6,25.6,200,409.8,127.1,4.0,175.0,176.0,11.9,0,5,7,1,2026-07-14T16:19:10.495451+05:30
Saharanpur,Uttar Pradesh,29.9637,77.546,33.5,60,0.0,967.4,7.35,30.6,192,243.1,93.6,3.1,264.0,179.0,17.2,0,5,7,1,2026-07-14T16:19:10.495457+05:30
Jhansi,Uttar Pradesh,25.4484,78.5685,33.9,53,0.0,970.9,8.4,41.4,109,170.4,49.6,1.6,114.0,99.0,4.8,0,5,7,1,2026-07-14T16:19:13.739138+05:30
Surat,Gujarat,21.1702,72.8311,30.7,68,0.1,1002.8,6.35,55.4,73,39.5,22.3,9.8,239.0,45.0,26.8,6,5,4,1,2026-07-14T16:19:13.739171+05:30
Vadodara,Gujarat,22.3072,73.1812,33.1,56,0.0,999.3,4.35,48.2,65,44.0,20.0,3.3,139.0,74.0,3.2,0,5,3,1,2026-07-14T16:19:13.739183+05:30
Rajkot,Gujarat,22.3039,70.8022,33.8,47,0.0,988.8,7.15,54.0,62,52.9,19.4,1.3,100.0,70.0,2.9,0,5,7,1,2026-07-14T16:19:13.739193+05:30
Thane,Maharashtra,19.2183,72.9781,30.0,70,0.0,1005.4,7.1,37.1,70,44.6,20.8,5.2,151.0,71.0,6.4,7,5,4,1,2026-07-14T16:19:13.739202+05:30
Nagpur,Maharashtra,21.1458,79.0882,33.6,45,0.0,968.1,7.8,49.0,84,77.3,31.8,4.7,136.0,95.0,12.1,0,5,7,1,2026-07-14T16:19:13.739210+05:30
Nashik,Maharashtra,19.9975,73.7898,28.0,64,0.0,942.7,7.25,50.8,57,32.1,15.0,1.3,111.0,70.0,1.8,7,5,7,1,2026-07-14T16:19:13.739218+05:30
Aurangabad,Maharashtra,19.8762,75.3433,30.4,48,0.0,941.2,7.55,50.4,60,28.3,15.3,1.2,121.0,96.0,3.3,0,5,7,1,2026-07-14T16:19:13.739226+05:30
Solapur,Maharashtra,17.6599,75.9064,33.3,43,0.1,954.0,8.55,39.6,56,31.2,17.1,1.2,117.0,95.0,1.8,3,5,7,1,2026-07-14T16:19:13.739235+05:30
Kolhapur,Maharashtra,16.705,74.2433,27.7,65,0.0,946.4,8.9,46.1,54,27.7,15.8,1.5,113.0,72.0,1.6,7,5,7,1,2026-07-14T16:19:13.739242+05:30
Goa,Goa,15.2993,74.124,29.3,72,0.0,997.2,8.0,33.8,69,35.3,17.8,0.9,104.0,58.0,1.3,7,5,7,1,2026-07-14T16:19:13.739250+05:30
Jodhpur,Rajasthan,26.2389,73.0243,35.6,40,0.0,976.2,8.0,47.5,202,372.5,66.4,1.5,107.0,71.0,2.2,0,5,10,1,2026-07-14T16:19:13.739258+05:30
Udaipur,Rajasthan,24.5854,73.7125,30.8,53,0.0,941.6,8.15,47.9,74,75.9,25.5,1.1,110.0,74.0,2.6,0,5,7,1,2026-07-14T16:19:13.739266+05:30
Kota,Rajasthan,25.2138,75.8648,35.0,41,0.0,972.4,8.3,37.8,94,160.7,43.1,2.0,130.0,80.0,4.8,0,5,7,1,2026-07-14T16:19:13.739274+05:30
Bikaner,Rajasthan,28.0229,73.3119,37.8,36,0.0,973.9,8.4,39.6,173,265.4,73.6,0.4,109.0,84.0,3.1,0,5,10,1,2026-07-14T16:19:13.739282+05:30
Ajmer,Rajasthan,26.4499,74.6399,32.1,48,0.0,948.8,8.2,56.2,107,195.1,50.1,1.1,118.0,78.0,2.4,0,5,7,1,2026-07-14T16:19:13.739289+05:30
Gwalior,Madhya Pradesh,26.2183,78.1828,33.8,54,0.0,975.7,8.05,42.5,115,201.6,55.8,1.3,122.0,94.0,2.4,0,5,7,1,2026-07-14T16:19:13.739297+05:30
Indore,Madhya Pradesh,22.7196,75.8577,31.0,46,0.0,944.3,8.4,52.2,72,39.5,19.0,2.0,171.0,86.0,2.9,0,5,7,1,2026-07-14T16:19:13.739304+05:30
Bhopal,Madhya Pradesh,23.2599,77.4126,31.3,49,0.0,949.1,8.6,41.8,82,96.4,32.8,1.5,163.0,84.0,2.8,0,5,7,1,2026-07-14T16:19:13.739312+05:30
Jabalpur,Madhya Pradesh,23.1815,79.9864,30.6,66,0.0,955.5,8.55,38.2,92,72.6,28.3,2.1,137.0,93.0,4.3,3,5,7,1,2026-07-14T16:19:13.739319+05:30
Ujjain,Madhya Pradesh,23.1765,75.7885,30.8,51,0.0,949.5,8.5,49.0,71,45.1,20.9,1.3,143.0,84.0,3.2,0,5,7,1,2026-07-14T16:19:13.739327+05:30
Visakhapatnam,Andhra Pradesh,17.6868,83.2185,35.0,51,0.0,995.2,8.55,26.6,136,109.7,50.6,15.7,677.0,137.0,44.5,0,5,7,1,2026-07-14T16:19:13.739334+05:30
Vijayawada,Andhra Pradesh,16.5062,80.648,34.4,47,0.0,996.7,5.8,48.6,82,37.7,22.8,2.3,136.0,111.0,5.5,0,5,3,1,2026-07-14T16:19:13.739341+05:30
Guntur,Andhra Pradesh,16.3067,80.4365,36.4,38,0.0,997.8,6.35,49.3,73,36.2,21.4,1.9,135.0,109.0,4.2,0,5,10,1,2026-07-14T16:19:13.739349+05:30
Nellore,Andhra Pradesh,14.4426,79.9865,39.0,26,0.0,999.5,8.1,48.2,66,37.4,18.8,2.9,120.0,115.0,4.4,0,5,10,1,2026-07-14T16:19:13.739357+05:30
Kurnool,Andhra Pradesh,15.8281,78.0373,37.0,31,0.0,972.9,7.3,43.2,54,28.9,15.9,1.5,120.0,116.0,7.5,0,5,10,1,2026-07-14T16:19:13.739365+05:30
Kakinada,Andhra Pradesh,16.9891,82.2475,34.0,55,0.0,999.6,7.15,53.6,94,44.9,23.6,2.9,155.0,137.0,6.1,0,5,7,1,2026-07-14T16:19:13.739373+05:30
Tirupati,Andhra Pradesh,13.6288,79.4192,37.8,27,0.0,985.9,8.25,38.5,76,36.4,16.8,2.8,112.0,107.0,3.2,0,5,10,0,2026-07-14T16:19:13.739381+05:30
Warangal,Telangana,17.9689,79.5941,31.3,57,0.0,974.2,7.25,43.2,71,29.0,18.3,3.1,147.0,88.0,5.2,0,5,7,1,2026-07-14T16:19:13.739389+05:30
Nizamabad,Telangana,18.6725,78.0941,31.3,55,0.0,961.1,5.0,43.9,63,25.6,16.9,2.3,135.0,96.0,3.8,0,5,3,1,2026-07-14T16:19:13.739396+05:30
Mysore,Karnataka,12.2958,76.6396,31.4,43,0.0,927.0,8.95,38.9,55,18.8,10.4,2.6,137.0,96.0,1.7,0,5,7,1,2026-07-14T16:19:13.739404+05:30
Mangalore,Karnataka,12.9141,74.856,29.0,70,0.0,1006.4,8.25,38.9,61,32.0,16.2,1.2,98.0,59.0,1.4,7,5,4,1,2026-07-14T16:19:13.739412+05:30
Hubli-Dharwad,Karnataka,15.3647,75.124,29.4,55,0.0,939.6,8.75,46.4,51,28.5,15.8,1.9,110.0,71.0,1.3,4,5,7,1,2026-07-14T16:19:13.739419+05:30
Belgaum,Karnataka,15.8497,74.4977,26.4,62,0.0,924.7,8.45,42.5,52,26.5,15.0,1.4,103.0,62.0,1.2,7,5,7,1,2026-07-14T16:19:17.002684+05:30
Coimbatore,Tamil Nadu,11.0168,76.9558,32.2,48,0.0,959.0,8.35,54.4,54,19.1,11.1,1.5,141.0,90.0,2.3,0,5,7,1,2026-07-14T16:19:17.002716+05:30
Madurai,Tamil Nadu,9.9252,78.1198,40.3,20,0.0,988.1,8.65,29.5,71,50.8,20.1,1.8,129.0,123.0,2.4,0,5,10,0,2026-07-14T16:19:17.002727+05:30
Trichy,Tamil Nadu,10.7905,78.7047,39.8,22,0.0,994.5,8.5,45.0,65,38.3,17.9,0.9,134.0,116.0,2.4,0,5,10,0,2026-07-14T16:19:17.002736+05:30
Salem,Tamil Nadu,11.6643,78.146,37.1,28,0.0,973.1,8.35,28.4,72,33.1,16.1,3.0,178.0,118.0,5.5,0,5,10,0,2026-07-14T16:19:17.002744+05:30
Tirunelveli,Tamil Nadu,8.7139,77.7567,37.8,31,0.0,998.5,7.6,42.8,51,18.2,11.1,1.7,120.0,86.0,1.6,0,5,10,1,2026-07-14T16:19:17.002751+05:30
Vellore,Tamil Nadu,12.9165,79.1325,38.4,24,0.0,979.5,8.9,42.8,73,35.6,16.9,4.7,121.0,93.0,1.9,0,5,10,0,2026-07-14T16:19:17.002759+05:30
Erode,Tamil Nadu,11.341,77.7172,36.6,34,0.0,984.8,8.5,49.3,61,28.1,14.2,2.4,157.0,111.0,2.2,0,5,10,1,2026-07-14T16:19:17.002766+05:30
Kochi,Kerala,9.9312,76.2673,29.0,75,0.0,1007.8,8.4,43.6,58,21.0,12.8,2.5,110.0,68.0,2.3,7,5,4,1,2026-07-14T16:19:17.002773+05:30
Thiruvananthapuram,Kerala,8.5241,76.9366,28.3,78,0.0,1006.7,7.9,52.9,54,23.4,12.8,2.3,102.0,64.0,1.0,7,5,4,1,2026-07-14T16:19:17.002780+05:30
Kozhikode,Kerala,11.2588,75.7804,29.3,73,0.0,1006.6,8.15,45.0,53,26.6,13.2,0.6,98.0,67.0,1.1,7,5,4,1,2026-07-14T16:19:17.002787+05:30
Thrissur,Kerala,10.5276,76.2144,29.5,71,0.0,1005.9,7.9,40.7,56,19.1,12.1,1.9,103.0,69.0,1.8,7,5,4,1,2026-07-14T16:19:17.002795+05:30
Kannur,Kerala,11.8745,75.3704,29.6,71,0.0,1006.2,8.75,43.6,56,28.3,14.8,1.4,98.0,63.0,1.4,7,5,4,1,2026-07-14T16:19:17.002802+05:30
Patna,Bihar,25.5941,85.1376,33.7,64,0.0,991.3,7.6,29.2,156,128.5,64.5,3.0,285.0,163.0,11.0,3,5,7,1,2026-07-14T16:19:17.002809+05:30
Gaya,Bihar,24.7914,85.0002,33.3,65,0.0,985.1,8.45,21.6,160,133.6,64.7,2.9,290.0,151.0,8.4,3,5,7,1,2026-07-14T16:19:17.002816+05:30
Muzaffarpur,Bihar,26.1209,85.3647,33.7,64,0.0,991.1,7.55,18.7,154,94.1,49.5,3.4,301.0,166.0,13.0,3,5,7,1,2026-07-14T16:19:17.002822+05:30
Bhagalpur,Bihar,25.2425,87.0117,32.3,73,0.0,991.7,7.8,27.7,113,19.2,17.3,6.8,259.0,132.0,12.1,3,5,7,1,2026-07-14T16:19:17.002829+05:30
Ranchi,Jharkhand,23.3441,85.3096,28.8,72,0.0,931.0,8.65,40.0,154,101.3,45.5,3.8,201.0,121.0,11.4,7,5,7,1,2026-07-14T16:19:17.002869+05:30
Jamshedpur,Jharkhand,22.8046,86.2029,31.6,70,0.0,982.3,5.8,31.3,162,104.1,59.6,21.4,289.0,125.0,42.7,3,5,3,1,2026-07-14T16:19:17.002882+05:30
Dhanbad,Jharkhand,23.7957,86.4304,32.3,66,0.0,971.3,7.7,28.8,172,90.3,49.5,18.3,274.0,113.0,39.5,3,5,7,1,2026-07-14T16:19:17.002889+05:30
Bokaro,Jharkhand,23.6693,86.1511,31.1,72,0.0,975.3,8.65,29.5,174,128.5,65.2,19.0,227.0,125.0,48.7,3,5,7,1,2026-07-14T16:19:17.002897+05:30
Bhubaneswar,Odisha,20.2961,85.8245,30.0,84,0.0,993.7,5.85,37.8,136,101.7,60.3,15.1,260.0,110.0,24.4,7,5,3,1,2026-07-14T16:19:17.002904+05:30
Cuttack,Odisha,20.4625,85.8828,29.7,86,0.0,995.4,2.2,29.2,136,101.7,60.3,15.1,238.0,110.0,24.4,7,5,3,1,2026-07-14T16:19:17.002911+05:30
Rourkela,Odisha,22.2604,84.8536,30.7,74,0.0,977.0,7.8,36.0,153,122.5,56.2,7.3,459.0,110.0,15.1,3,5,7,1,2026-07-14T16:19:17.002918+05:30
Raipur,Chhattisgarh,21.2514,81.6296,28.3,79,0.3,968.4,8.8,47.5,131,97.1,42.4,16.7,145.0,95.0,39.6,10,5,7,1,2026-07-14T16:19:17.002925+05:30
Bhilai,Chhattisgarh,21.1938,81.3509,27.7,81,0.2,969.3,8.75,43.6,119,73.6,34.3,15.7,243.0,87.0,34.9,10,5,7,1,2026-07-14T16:19:17.002932+05:30
Guwahati,Assam,26.1158,91.7086,28.8,92,0.1,991.9,8.1,26.3,56,11.9,11.2,2.7,236.0,99.0,1.8,10,5,7,1,2026-07-14T16:19:17.002939+05:30
Agartala,Tripura,23.8315,91.2868,30.5,81,0.1,996.4,8.65,22.7,82,17.7,15.5,5.7,195.0,144.0,3.4,6,5,7,1,2026-07-14T16:19:17.002946+05:30
Shillong,Meghalaya,25.5788,91.8933,24.3,85,0.1,852.0,8.45,25.9,61,12.0,11.2,3.9,183.0,86.0,1.8,6,5,7,1,2026-07-14T16:19:17.002953+05:30
Imphal,Manipur,24.817,93.9368,29.1,68,0.0,915.7,9.2,26.3,55,5.7,4.6,1.0,189.0,80.0,1.2,7,5,7,1,2026-07-14T16:19:17.002960+05:30
Aizawl,Mizoram,23.7271,92.7176,23.0,92,0.1,885.2,8.95,20.9,53,7.6,6.6,3.4,149.0,63.0,0.6,6,5,7,1,2026-07-14T16:19:17.002966+05:30
Kohima,Nagaland,25.6701,94.1077,24.6,91,0.0,850.0,8.25,25.9,45,5.7,5.5,1.7,176.0,82.0,0.6,3,5,7,1,2026-07-14T16:19:17.002973+05:30
Gangtok,Sikkim,27.3314,88.6138,21.1,89,0.1,833.8,8.25,26.6,44,3.7,3.3,3.2,258.0,93.0,0.8,6,5,7,1,2026-07-14T16:19:17.002980+05:30
Siliguri,West Bengal,26.7271,88.3953,32.5,67,0.0,983.7,7.95,25.9,69,12.5,9.8,2.0,333.0,117.0,1.9,3,5,7,1,2026-07-14T16:19:20.257959+05:30
Durgapur,West Bengal,23.5204,87.3119,32.7,70,0.0,985.6,8.85,26.3,164,44.1,32.9,17.5,350.0,149.0,39.3,3,5,7,1,2026-07-14T16:19:20.257991+05:30
Asansol,West Bengal,23.6739,86.9524,32.5,68,0.0,984.3,6.5,26.3,162,53.4,35.3,17.4,310.0,123.0,30.6,3,5,7,1,2026-07-14T16:19:20.258002+05:30
Pondicherry,Puducherry,11.9139,79.8145,34.7,55,0.0,1002.8,8.2,43.2,72,41.9,28.5,12.3,205.0,146.0,4.8,0,5,4,1,2026-07-14T16:19:20.258010+05:30
Port Blair,Andaman and Nicobar Islands,11.6234,92.7265,29.3,75,0.0,1003.2,8.2,60.8,48,16.7,7.5,0.3,90.0,47.0,0.4,7,5,4,1,2026-07-14T16:19:20.258018+05:30
Haridwar,Uttarakhand,29.9457,78.1642,34.1,55,0.0,965.7,7.45,32.8,178,226.3,85.4,1.8,332.0,161.0,12.9,0,5,7,1,2026-07-14T16:19:20.258026+05:30
Rishikesh,Uttarakhand,30.0869,78.2676,33.3,58,0.0,958.8,7.6,28.4,165,169.0,63.1,1.0,313.0,137.0,8.0,0,5,7,1,2026-07-14T16:19:20.258034+05:30
Nainital,Uttarakhand,29.3919,79.4542,22.6,66,0.0,803.4,8.5,28.8,161,262.6,84.1,1.6,257.0,160.0,11.4,3,5,7,0,2026-07-14T16:19:20.258041+05:30
Mussoorie,Uttarakhand,30.4599,78.0664,22.5,70,0.0,801.2,8.0,36.7,160,140.6,55.4,1.9,231.0,136.0,7.5,3,5,7,1,2026-07-14T16:19:20.258049+05:30
Dharamshala,Himachal Pradesh,32.219,76.3234,25.4,64,0.0,865.1,8.4,33.1,86,50.1,23.8,0.6,205.0,146.0,1.2,7,5,7,1,2026-07-14T16:19:20.258057+05:30
Dalhousie,Himachal Pradesh,32.5387,75.971,20.6,83,0.0,802.5,8.65,30.2,148,95.9,44.4,1.1,235.0,165.0,2.7,3,5,7,1,2026-07-14T16:19:20.258065+05:30
Patiala,Punjab,30.3398,76.3869,34.2,57,0.0,969.9,7.5,45.7,186,113.4,57.4,2.4,268.0,175.0,7.4,0,5,7,1,2026-07-14T16:19:20.258072+05:30
Bhatinda,Punjab,30.211,74.9455,32.9,60,0.2,975.6,8.2,30.2,190,188.1,71.5,2.2,210.0,165.0,11.2,3,5,7,1,2026-07-14T16:19:20.258079+05:30
Rohtak,Haryana,28.8955,76.6066,36.7,44,0.0,972.8,7.3,36.7,655,610.9,124.3,3.8,185.0,132.0,6.4,0,5,10,1,2026-07-14T16:19:20.258087+05:30
Panipat,Haryana,29.3909,76.9635,35.3,52,0.0,971.6,7.3,42.1,660,420.0,113.4,3.8,181.0,167.0,13.8,0,5,10,1,2026-07-14T16:19:20.258094+05:30
Mathura,Uttar Pradesh,27.4924,77.6737,35.3,49,0.0,978.5,7.9,29.9,791,586.7,121.1,3.8,160.0,113.0,3.4,0,5,10,1,2026-07-14T16:19:20.258101+05:30
Vrindavan,Uttar Pradesh,27.5823,77.7027,35.5,48,0.0,978.9,7.9,29.2,791,586.7,121.1,3.8,154.0,113.0,3.4,0,5,10,1,2026-07-14T16:19:20.258108+05:30
Ayodhya,Uttar Pradesh,26.7922,82.1998,32.2,73,0.0,986.8,7.8,34.2,158,259.8,80.1,2.4,313.0,157.0,6.7,3,5,7,1,2026-07-14T16:19:20.258115+05:30
Ratlam,Madhya Pradesh,23.3315,75.0367,31.0,50,0.0,950.5,8.25,49.0,68,47.5,21.7,1.2,119.0,85.0,3.4,0,5,7,1,2026-07-14T16:19:20.258122+05:30
Sagar,Madhya Pradesh,23.8388,78.7378,31.1,58,0.0,944.8,8.6,44.3,93,114.6,34.9,1.2,127.0,94.0,3.6,0,5,7,1,2026-07-14T16:19:20.258129+05:30
Satna,Madhya Pradesh,24.6005,80.8322,33.2,57,0.0,964.2,6.9,41.4,103,109.9,39.0,1.4,136.0,111.0,4.1,0,5,7,1,2026-07-14T16:19:20.258136+05:30
Akola,Maharashtra,20.7002,77.0082,32.7,47,0.0,971.4,5.85,51.1,62,31.0,17.0,1.6,114.0,96.0,5.3,0,5,3,1,2026-07-14T16:19:20.258144+05:30
Amravati,Maharashtra,20.9374,77.7796,32.8,47,0.0,963.1,7.5,50.4,63,31.8,17.3,1.9,119.0,96.0,5.8,0,5,7,1,2026-07-14T16:19:20.258151+05:30
Latur,Maharashtra,18.4088,76.5604,31.4,51,0.0,937.2,7.55,41.0,57,32.9,18.1,1.4,111.0,86.0,1.9,0,5,7,1,2026-07-14T16:19:20.258159+05:30
Nanded,Maharashtra,19.1383,77.3091,31.9,53,0.0,965.1,8.05,41.0,63,27.6,17.3,1.9,135.0,94.0,2.7,0,5,7,1,2026-07-14T16:19:20.258166+05:30
Gulbarga,Karnataka,17.3297,76.8343,33.6,41,0.0,955.7,8.15,44.3,55,27.5,14.9,1.7,131.0,99.0,2.1,0,5,7,1,2026-07-14T16:19:20.258172+05:30
Bidar,Karnataka,17.9104,77.5199,30.7,51,0.0,932.5,7.25,41.0,58,29.5,17.0,2.8,132.0,90.0,3.1,0,5,7,1,2026-07-14T16:19:20.258179+05:30
Hospet,Karnataka,15.2689,76.3909,34.0,35,0.0,953.1,7.5,43.2,51,26.1,15.0,2.5,121.0,90.0,2.2,0,5,7,1,2026-07-14T16:19:20.258185+05:30
Tirupur,Tamil Nadu,11.1085,77.3411,33.8,42,0.0,971.7,8.3,58.3,62,26.0,13.4,2.2,137.0,106.0,2.7,0,5,7,1,2026-07-14T16:19:20.258191+05:30
Alappuzha,Kerala,9.4981,76.3388,29.0,76,0.0,1007.8,8.0,43.9,57,23.8,13.4,2.8,91.0,67.0,2.0,7,5,4,1,2026-07-14T16:19:20.258198+05:30
Munnar,Kerala,10.0889,77.0595,20.7,90,0.0,856.6,8.4,35.6,48,17.8,9.9,1.4,110.0,77.0,1.5,3,5,7,1,2026-07-14T16:19:20.258206+05:30
Silchar,Assam,24.8333,92.7789,29.7,88,0.4,994.8,8.85,27.0,92,12.6,11.0,2.8,185.0,113.0,3.4,10,5,7,1,2026-07-14T16:19:20.258212+05:30
Dibrugarh,Assam,27.4728,94.912,33.4,63,0.0,983.9,8.6,17.6,81,15.7,15.5,2.5,201.0,121.0,1.5,3,5,7,1,2026-07-14T16:19:20.258219+05:30
