city,state,latitude,longitude,temp,humidity,rain,pressure,uv_index,wind_gusts,aqi,pm10,pm2_5,no2,co,o3,so2,mosquito_risk,arthritis_risk,migraine_risk,frizz_risk,updated_at
Delhi,Delhi,28.6139,77.209,41.6,17,0.0,975.8,7.75,45.7,591,678.0,119.0,13.4,260.0,113.0,8.8,0,5,10,0,2026-05-21T17:46:12.904081+05:30
Mumbai,Maharashtra,19.076,72.8777,31.5,68,0.0,1005.0,7.75,39.2,53,19.7,13.1,8.8,202.0,60.0,5.6,3,5,4,1,2026-05-21T17:46:12.904126+05:30
Bangalore,Karnataka,12.9716,77.5946,29.6,55,0.1,909.4,8.85,33.8,50,13.4,10.7,11.7,682.0,111.0,4.0,7,5,7,1,2026-05-21T17:46:12.904141+05:30
Hyderabad,Telangana,17.385,78.4867,38.5,25,0.0,948.8,8.45,34.9,127,55.2,34.8,7.2,325.0,143.0,7.5,0,5,10,0,2026-05-21T17:46:12.904152+05:30
Chennai,Tamil Nadu,13.0827,80.2707,34.7,61,0.0,1000.9,8.5,42.8,162,32.2,26.8,7.6,301.0,174.0,9.6,3,5,4,1,2026-05-21T17:46:12.904161+05:30
Kolkata,West Bengal,22.5726,88.3639,33.8,72,0.0,998.9,8.95,31.0,118,79.9,52.6,11.7,980.0,94.0,10.2,3,5,7,1,2026-05-21T17:46:12.904177+05:30
Pune,Maharashtra,18.5204,73.8567,31.1,52,0.1,945.5,7.5,49.7,65,30.0,20.5,4.8,191.0,130.0,9.5,3,5,7,1,2026-05-21T17:46:12.904185+05:30
Ahmedabad,Gujarat,23.0225,72.5714,40.6,18,0.0,996.6,8.15,31.0,73,50.5,18.8,2.5,166.0,100.0,2.5,0,5,10,0,2026-05-21T17:46:12.904193+05:30
Jaipur,Rajasthan,26.9124,75.7873,39.0,10,0.0,955.1,8.25,45.7,179,212.8,37.3,2.0,161.0,113.0,2.3,0,5,10,0,2026-05-21T17:46:12.904203+05:30
Lucknow,Uttar Pradesh,26.8467,80.9462,40.8,23,0.0,985.9,8.25,36.7,163,497.3,113.4,6.4,192.0,128.0,7.5,0,5,10,0,2026-05-21T17:46:12.904210+05:30
Kanpur,Uttar Pradesh,26.4499,80.3319,41.5,17,0.0,984.3,8.25,46.4,368,674.3,110.1,4.3,169.0,117.0,5.0,0,5,10,0,2026-05-21T17:46:12.904217+05:30
Chandigarh,Chandigarh,30.7333,76.7794,39.0,17,0.0,962.3,7.8,32.4,156,52.5,23.9,5.8,359.0,147.0,9.7,0,5,10,0,2026-05-21T17:46:12.904225+05:30
Srinagar,Jammu and Kashmir,34.0837,74.7973,21.0,55,0.0,843.3,8.3,24.5,70,33.2,13.2,3.9,329.0,120.0,2.8,0,5,7,0,2026-05-21T17:46:12.904233+05:30
Jammu,Jammu and Kashmir,32.7266,74.857,37.9,18,0.0,967.2,8.55,46.8,81,182.5,34.3,3.5,172.0,115.0,1.9,0,5,10,0,2026-05-21T17:46:12.904240+05:30
Amritsar,Punjab,31.634,74.8723,39.5,17,0.0,974.3,8.45,40.7,93,44.1,17.5,2.8,191.0,114.0,2.8,0,5,10,0,2026-05-21T17:46:12.904247+05:30
Ludhiana,Punjab,30.901,75.8573,38.7,20,0.0,972.2,8.05,34.6,136,66.8,25.4,3.2,245.0,129.0,3.4,0,5,10,0,2026-05-21T17:46:12.904253+05:30
Jalandhar,Punjab,31.326,75.5762,40.0,17,0.0,973.1,8.2,26.6,124,62.6,23.5,5.1,252.0,114.0,2.8,0,5,10,0,2026-05-21T17:46:12.904260+05:30
Dehradun,Uttarakhand,30.6284,78.0322,26.2,38,0.0,830.3,8.05,45.4,129,55.4,21.8,2.3,279.0,156.0,8.1,4,5,7,0,2026-05-21T17:46:12.904266+05:30
Shimla,Himachal Pradesh,31.1048,77.1734,24.1,24,0.0,786.3,8.3,46.8,123,39.9,17.3,3.2,196.0,142.0,6.2,0,5,7,0,2026-05-21T17:46:12.904274+05:30
Manali,Himachal Pradesh,32.2396,77.1887,21.7,52,0.0,820.0,10.0,45.7,104,39.5,14.3,10.1,171.0,135.0,1.1,0,5,7,0,2026-05-21T17:46:12.904283+05:30
Gurgaon,Haryana,28.4595,77.0266,40.7,18,0.0,974.6,7.85,49.3,1842,1430.5,196.0,11.1,297.0,112.0,7.2,0,5,10,0,2026-05-21T17:46:12.904289+05:30
Noida,Uttar Pradesh,28.5355,77.391,41.0,18,0.0,976.9,7.8,42.1,1842,1430.5,196.0,11.1,320.0,112.0,7.2,0,5,10,0,2026-05-21T17:46:12.904295+05:30
Ghaziabad,Uttar Pradesh,28.6692,77.4538,40.6,21,0.0,975.1,7.75,45.0,566,670.6,125.3,10.0,195.0,128.0,12.4,0,5,10,0,2026-05-21T17:46:12.904302+05:30
Faridabad,Haryana,28.4089,77.3178,41.2,17,0.0,976.4,7.8,51.1,1842,1430.5,196.0,11.1,241.0,112.0,7.2,0,5,10,0,2026-05-21T17:46:12.904308+05:30
Meerut,Uttar Pradesh,28.9845,77.7064,40.2,22,0.0,974.0,7.7,40.7,566,670.6,125.3,10.0,190.0,128.0,12.4,0,5,10,0,2026-05-21T17:46:12.904315+05:30
Agra,Uttar Pradesh,27.1767,78.0081,41.4,16,0.0,980.7,8.1,47.9,1051,638.9,93.8,10.9,167.0,107.0,4.9,0,5,10,0,2026-05-21T17:46:12.904321+05:30
Varanasi,Uttar Pradesh,25.3176,82.9739,41.4,18,0.0,989.9,8.75,40.0,157,57.7,27.2,7.0,224.0,124.0,6.4,0,5,10,0,2026-05-21T17:46:12.904328+05:30
Prayagraj,Uttar Pradesh,25.4358,81.8463,40.8,17,0.0,988.5,8.65,41.0,154,112.5,32.6,4.2,176.0,119.0,4.8,0,5,10,0,2026-05-21T17:46:12.904334+05:30
Gorakhpur,Uttar Pradesh,26.7606,83.3732,36.4,49,0.0,990.3,8.65,38.2,185,94.1,61.2,9.6,379.0,147.0,10.4,0,5,10,1,2026-05-21T17:46:12.904343+05:30
Bareilly,Uttar Pradesh,28.367,79.4304,37.5,36,0.0,979.1,8.05,27.7,171,266.4,93.4,6.6,317.0,162.0,11.6,0,5,10,1,2026-05-21T17:46:12.904350+05:30
Aligarh,Uttar Pradesh,27.8974,78.088,40.0,22,0.0,978.4,7.95,44.6,1167,1005.8,161.1,8.0,200.0,114.0,6.6,0,5,10,0,2026-05-21T17:46:12.904356+05:30
Moradabad,Uttar Pradesh,28.8386,78.7733,38.8,31,0.0,976.1,7.85,31.7,176,341.8,112.9,14.3,310.0,127.0,9.6,0,5,10,1,2026-05-21T17:46:12.904363+05:30
Saharanpur,Uttar Pradesh,29.9637,77.546,38.1,29,0.0,968.3,7.2,32.4,195,141.6,53.7,14.1,349.0,151.0,16.8,0,5,10,1,2026-05-21T17:46:12.904369+05:30
Jhansi,Uttar Pradesh,25.4484,78.5685,39.8,14,0.0,972.2,8.5,43.2,59,35.2,15.5,2.3,144.0,104.0,2.9,0,5,10,0,2026-05-21T17:46:16.245957+05:30
Surat,Gujarat,21.1702,72.8311,33.5,53,0.0,1002.5,7.75,37.1,72,60.1,28.6,26.2,283.0,46.0,61.7,0,5,4,1,2026-05-21T17:46:16.245989+05:30
Vadodara,Gujarat,22.3072,73.1812,40.3,20,0.0,998.6,8.1,36.4,79,81.5,32.1,3.4,191.0,137.0,8.2,0,5,10,0,2026-05-21T17:46:16.246000+05:30
Rajkot,Gujarat,22.3039,70.8022,39.0,25,0.0,989.1,7.75,47.9,69,65.7,26.0,1.6,131.0,115.0,4.9,0,5,10,0,2026-05-21T17:46:16.246010+05:30
Thane,Maharashtra,19.2183,72.9781,32.3,64,0.0,1004.2,7.85,34.9,53,19.7,13.1,8.8,186.0,60.0,5.6,3,5,4,1,2026-05-21T17:46:16.246018+05:30
Nagpur,Maharashtra,21.1458,79.0882,43.0,13,0.0,967.0,8.95,42.5,101,41.3,23.0,7.0,178.0,134.0,15.1,0,5,10,0,2026-05-21T17:46:16.246026+05:30
Nashik,Maharashtra,19.9975,73.7898,32.5,48,0.0,943.0,4.1,34.6,51,29.5,13.2,2.0,152.0,82.0,1.1,0,5,3,1,2026-05-21T17:46:16.246033+05:30
Aurangabad,Maharashtra,19.8762,75.3433,35.2,32,0.0,940.7,8.75,38.9,66,51.2,24.4,1.7,168.0,118.0,3.4,0,5,10,0,2026-05-21T17:46:16.246041+05:30
Solapur,Maharashtra,17.6599,75.9064,36.2,33,0.0,953.2,9.05,42.1,84,56.0,32.0,2.2,161.0,139.0,4.9,0,5,10,1,2026-05-21T17:46:16.246049+05:30
Kolhapur,Maharashtra,16.705,74.2433,29.0,65,0.0,945.4,8.5,41.4,60,20.2,14.3,4.5,180.0,96.0,2.1,7,5,7,1,2026-05-21T17:46:16.246057+05:30
Goa,Goa,15.2993,74.124,31.0,67,0.0,995.4,8.45,29.2,48,8.9,6.0,1.3,148.0,64.0,0.7,3,5,7,1,2026-05-21T17:46:16.246064+05:30
Jodhpur,Rajasthan,26.2389,73.0243,39.5,17,0.0,977.1,8.45,47.2,169,392.1,61.2,1.3,132.0,104.0,2.0,0,5,10,0,2026-05-21T17:46:16.246071+05:30
Udaipur,Rajasthan,24.5854,73.7125,36.7,12,0.0,943.1,8.85,38.9,67,35.3,13.8,0.9,130.0,108.0,1.6,0,5,10,0,2026-05-21T17:46:16.246079+05:30
Kota,Rajasthan,25.2138,75.8648,40.2,9,0.0,973.7,8.4,44.3,63,40.4,15.5,1.7,135.0,110.0,2.6,0,5,10,0,2026-05-21T17:46:16.246086+05:30
Bikaner,Rajasthan,28.0229,73.3119,40.3,12,0.0,975.4,8.4,31.3,160,156.0,50.1,0.6,133.0,112.0,1.8,0,5,10,0,2026-05-21T17:46:16.246094+05:30
Ajmer,Rajasthan,26.4499,74.6399,36.5,15,0.0,950.6,8.4,52.9,81,92.2,23.5,1.2,135.0,107.0,1.7,0,5,10,0,2026-05-21T17:46:16.246101+05:30
Gwalior,Madhya Pradesh,26.2183,78.1828,40.4,16,0.0,977.0,8.25,52.6,65,63.3,21.2,1.2,145.0,110.0,2.0,0,5,10,0,2026-05-21T17:46:16.246109+05:30
Indore,Madhya Pradesh,22.7196,75.8577,38.4,19,0.0,944.5,8.7,37.8,68,53.6,24.0,1.9,194.0,114.0,3.4,0,5,10,0,2026-05-21T17:46:16.246116+05:30
Bhopal,Madhya Pradesh,23.2599,77.4126,40.0,16,0.0,949.1,8.7,43.9,65,42.6,20.5,1.4,165.0,115.0,3.0,0,5,10,0,2026-05-21T17:46:16.246124+05:30
Jabalpur,Madhya Pradesh,23.1815,79.9864,41.3,12,0.0,956.1,8.9,36.0,69,27.4,15.0,2.5,144.0,119.0,2.9,0,5,10,0,2026-05-21T17:46:16.246131+05:30
Ujjain,Madhya Pradesh,23.1765,75.7885,38.5,19,0.0,949.8,8.65,37.4,68,50.6,21.3,1.0,157.0,110.0,2.9,0,5,10,0,2026-05-21T17:46:16.246139+05:30
Visakhapatnam,Andhra Pradesh,17.6868,83.2185,36.0,60,0.0,995.6,9.0,37.1,190,67.3,59.1,33.7,543.0,163.0,76.4,0,5,10,1,2026-05-21T17:46:16.246147+05:30
Vijayawada,Andhra Pradesh,16.5062,80.648,41.8,24,0.0,994.4,9.1,41.8,145,69.6,56.6,11.6,228.0,147.0,12.0,0,5,10,1,2026-05-21T17:46:16.246154+05:30
Guntur,Andhra Pradesh,16.3067,80.4365,42.4,21,0.0,995.8,9.05,42.5,136,61.7,47.0,6.4,214.0,159.0,11.7,0,5,10,0,2026-05-21T17:46:16.246161+05:30
Nellore,Andhra Pradesh,14.4426,79.9865,37.3,46,0.0,998.5,9.1,42.8,113,38.9,26.2,4.3,229.0,148.0,4.0,0,5,10,1,2026-05-21T17:46:16.246169+05:30
Kurnool,Andhra Pradesh,15.8281,78.0373,39.0,27,0.0,971.2,8.85,41.4,111,65.0,41.7,2.5,182.0,158.0,11.6,0,5,10,1,2026-05-21T17:46:16.246177+05:30
Kakinada,Andhra Pradesh,16.9891,82.2475,38.7,41,0.0,999.1,8.4,35.6,132,40.4,28.5,3.5,288.0,134.0,3.9,0,5,10,1,2026-05-21T17:46:16.246184+05:30
Tirupati,Andhra Pradesh,13.6288,79.4192,30.5,73,0.0,985.6,9.1,32.8,89,41.1,27.0,15.2,292.0,123.0,4.0,3,5,7,1,2026-05-21T17:46:16.246191+05:30
Warangal,Telangana,17.9689,79.5941,40.2,21,0.0,972.5,8.8,44.6,153,50.6,38.4,7.9,203.0,164.0,16.2,0,5,10,0,2026-05-21T17:46:16.246198+05:30
Nizamabad,Telangana,18.6725,78.0941,40.0,20,0.0,959.6,9.1,33.8,120,59.8,37.0,2.8,182.0,158.0,6.2,0,5,10,0,2026-05-21T17:46:16.246205+05:30
Mysore,Karnataka,12.2958,76.6396,29.0,63,0.0,926.5,7.15,45.0,41,6.4,5.7,6.7,175.0,82.0,1.6,7,5,7,1,2026-05-21T17:46:16.246212+05:30
Mangalore,Karnataka,12.9141,74.856,29.0,82,0.0,1004.6,8.85,37.4,53,10.9,7.2,2.2,133.0,60.0,1.2,7,5,4,1,2026-05-21T17:46:16.246219+05:30
Hubli-Dharwad,Karnataka,15.3647,75.124,29.8,60,0.0,938.4,9.05,37.8,39,7.8,5.8,2.9,144.0,83.0,0.7,4,5,7,1,2026-05-21T17:46:16.246226+05:30
Belgaum,Karnataka,15.8497,74.4977,26.5,78,0.0,923.7,8.75,39.2,55,10.3,8.1,3.4,166.0,84.0,2.0,7,5,7,1,2026-05-21T17:46:19.603178+05:30
Coimbatore,Tamil Nadu,11.0168,76.9558,29.4,68,0.0,959.1,8.4,53.6,36,5.6,5.0,4.5,169.0,72.0,2.0,7,5,7,1,2026-05-21T17:46:19.603208+05:30
Madurai,Tamil Nadu,9.9252,78.1198,35.0,46,0.0,989.0,9.0,47.5,74,7.8,7.0,11.7,228.0,71.0,2.4,0,5,7,1,2026-05-21T17:46:19.603219+05:30
Trichy,Tamil Nadu,10.7905,78.7047,34.5,51,0.0,994.7,9.0,38.5,44,11.7,10.1,10.8,199.0,86.0,3.1,0,5,7,1,2026-05-21T17:46:19.603229+05:30
Salem,Tamil Nadu,11.6643,78.146,32.5,57,0.1,973.8,8.95,46.8,76,9.7,8.2,5.9,198.0,110.0,5.8,3,5,7,1,2026-05-21T17:46:19.603238+05:30
Tirunelveli,Tamil Nadu,8.7139,77.7567,34.8,48,0.0,999.4,8.15,38.5,33,6.8,5.4,3.1,133.0,71.0,1.1,0,5,7,1,2026-05-21T17:46:19.603245+05:30
Vellore,Tamil Nadu,12.9165,79.1325,32.0,68,0.1,979.5,8.8,46.1,86,37.7,24.0,9.7,288.0,121.0,3.6,6,5,7,1,2026-05-21T17:46:19.603252+05:30
Erode,Tamil Nadu,11.341,77.7172,33.6,52,0.0,985.1,8.6,50.4,46,7.1,5.9,5.1,172.0,92.0,2.2,0,5,7,1,2026-05-21T17:46:19.603260+05:30
Kochi,Kerala,9.9312,76.2673,29.5,80,0.0,1006.8,8.6,36.7,60,12.5,9.2,6.6,178.0,58.0,2.8,7,5,4,1,2026-05-21T17:46:19.603268+05:30
Thiruvananthapuram,Kerala,8.5241,76.9366,28.2,84,0.0,1006.6,8.35,45.4,28,10.0,5.9,1.5,168.0,59.0,0.5,7,5,4,1,2026-05-21T17:46:19.603276+05:30
Kozhikode,Kerala,11.2588,75.7804,28.1,89,0.1,1006.2,8.8,34.2,31,10.7,6.7,0.8,192.0,67.0,0.5,10,5,4,1,2026-05-21T17:46:19.603283+05:30
Thrissur,Kerala,10.5276,76.2144,29.4,79,0.1,1005.2,8.6,35.6,56,10.5,8.4,6.0,200.0,54.0,2.0,10,5,4,1,2026-05-21T17:46:19.603291+05:30
Kannur,Kerala,11.8745,75.3704,29.1,81,0.1,1005.2,8.8,31.7,34,10.8,7.5,5.1,144.0,56.0,1.2,10,5,4,1,2026-05-21T17:46:19.603298+05:30
Patna,Bihar,25.5941,85.1376,33.7,65,0.0,994.0,8.85,43.6,201,95.5,71.2,7.9,429.0,185.0,17.3,3,5,7,1,2026-05-21T17:46:19.603305+05:30
Gaya,Bihar,24.7914,85.0002,36.3,49,0.0,986.5,8.9,33.8,160,114.3,65.9,9.7,349.0,142.0,11.8,0,5,10,1,2026-05-21T17:46:19.603313+05:30
Muzaffarpur,Bihar,26.1209,85.3647,32.0,71,0.0,994.4,8.85,42.8,180,70.3,55.3,8.6,407.0,157.0,11.8,3,5,7,1,2026-05-21T17:46:19.603320+05:30
Bhagalpur,Bihar,25.2425,87.0117,31.2,72,0.0,995.3,8.85,37.4,171,54.2,41.9,8.1,361.0,176.0,20.6,3,5,7,1,2026-05-21T17:46:19.603328+05:30
Ranchi,Jharkhand,23.3441,85.3096,32.5,43,0.0,932.6,9.3,36.7,143,79.2,33.1,7.2,319.0,121.0,6.3,0,5,7,1,2026-05-21T17:46:19.603335+05:30
Jamshedpur,Jharkhand,22.8046,86.2029,36.8,43,0.0,983.3,9.1,31.7,193,142.0,59.6,17.5,451.0,153.0,20.8,0,5,10,1,2026-05-21T17:46:19.603342+05:30
Dhanbad,Jharkhand,23.7957,86.4304,39.0,27,0.0,973.0,9.1,33.8,181,133.2,80.3,45.6,330.0,100.0,110.2,0,5,10,1,2026-05-21T17:46:19.603349+05:30
Bokaro,Jharkhand,23.6693,86.1511,37.4,32,0.0,976.7,9.1,33.1,168,114.3,61.0,29.4,442.0,112.0,109.3,0,5,10,1,2026-05-21T17:46:19.603356+05:30
Bhubaneswar,Odisha,20.2961,85.8245,37.5,44,0.0,994.5,9.1,33.5,152,97.8,77.1,15.6,448.0,132.0,13.2,0,5,10,1,2026-05-21T17:46:19.603363+05:30
Cuttack,Odisha,20.4625,85.8828,35.1,62,0.0,996.1,9.15,28.4,152,97.8,77.1,15.6,496.0,132.0,13.2,3,5,10,1,2026-05-21T17:46:19.603370+05:30
Rourkela,Odisha,22.2604,84.8536,37.2,37,0.0,977.9,9.0,45.0,187,151.8,63.1,14.4,398.0,156.0,15.3,0,5,10,1,2026-05-21T17:46:19.603378+05:30
Raipur,Chhattisgarh,21.2514,81.6296,41.5,17,0.0,967.8,8.95,36.0,152,64.0,41.4,21.8,183.0,102.0,25.1,0,5,10,0,2026-05-21T17:46:19.603385+05:30
Bhilai,Chhattisgarh,21.1938,81.3509,40.8,19,0.0,968.1,9.0,36.7,150,56.5,38.4,24.2,177.0,101.0,36.0,0,5,10,0,2026-05-21T17:46:19.603392+05:30
Guwahati,Assam,26.1158,91.7086,28.2,86,0.0,996.6,8.65,25.2,111,30.7,26.7,5.9,455.0,91.0,1.9,7,5,7,1,2026-05-21T17:46:19.603400+05:30
Agartala,Tripura,23.8315,91.2868,30.2,84,0.0,1000.5,8.25,28.4,94,41.6,32.0,17.6,295.0,107.0,6.1,3,5,4,1,2026-05-21T17:46:19.603407+05:30
Shillong,Meghalaya,25.5788,91.8933,21.7,83,0.0,855.1,8.45,25.2,89,32.7,23.1,6.4,302.0,89.0,3.2,3,5,7,1,2026-05-21T17:46:19.603415+05:30
Imphal,Manipur,24.817,93.9368,26.9,76,0.0,919.7,8.95,37.4,140,48.0,34.2,8.7,281.0,88.0,3.3,7,5,7,1,2026-05-21T17:46:19.603422+05:30
Aizawl,Mizoram,23.7271,92.7176,22.0,91,0.0,889.3,8.5,25.6,89,46.2,29.6,4.9,223.0,83.0,2.9,3,5,7,1,2026-05-21T17:46:19.603452+05:30
Kohima,Nagaland,25.6701,94.1077,20.8,97,0.0,853.1,9.2,23.4,103,60.3,39.7,5.7,247.0,89.0,2.4,3,5,7,1,2026-05-21T17:46:19.603460+05:30
Gangtok,Sikkim,27.3314,88.6138,19.7,90,0.0,835.4,9.2,37.1,88,17.9,13.0,3.8,339.0,134.0,2.1,3,10,7,1,2026-05-21T17:46:19.603467+05:30
Siliguri,West Bengal,26.7271,88.3953,27.8,89,0.0,987.8,8.75,36.4,152,41.9,31.7,6.4,675.0,136.0,3.6,7,5,7,1,2026-05-21T17:46:23.013541+05:30
Durgapur,West Bengal,23.5204,87.3119,31.7,73,0.0,987.5,9.0,34.9,206,177.9,111.5,30.7,710.0,187.0,53.6,3,5,7,1,2026-05-21T17:46:23.013574+05:30
Asansol,West Bengal,23.6739,86.9524,34.0,58,0.0,986.2,9.05,27.4,192,145.3,95.0,41.5,630.0,113.0,35.2,0,5,7,1,2026-05-21T17:46:23.013585+05:30
Pondicherry,Puducherry,11.9139,79.8145,32.6,74,0.0,1002.6,7.3,42.8,130,32.6,27.6,20.3,321.0,143.0,10.9,3,5,4,1,2026-05-21T17:46:23.013593+05:30
Port Blair,Andaman and Nicobar Islands,11.6234,92.7265,25.9,98,0.1,1004.6,8.3,38.5,30,8.6,5.4,0.7,135.0,63.0,0.4,10,5,4,1,2026-05-21T17:46:23.013602+05:30
Haridwar,Uttarakhand,29.9457,78.1642,37.7,30,0.0,966.6,7.45,28.4,183,97.3,40.3,4.9,305.0,172.0,15.6,0,5,10,1,2026-05-21T17:46:23.013609+05:30
Rishikesh,Uttarakhand,30.0869,78.2676,36.5,41,0.0,959.8,7.5,29.9,139,80.6,30.5,1.5,324.0,163.0,10.5,0,5,10,1,2026-05-21T17:46:23.013618+05:30
Nainital,Uttarakhand,29.3919,79.4542,23.4,55,0.0,805.9,8.55,34.6,162,281.3,70.1,2.4,329.0,163.0,10.3,0,5,7,0,2026-05-21T17:46:23.013626+05:30
Mussoorie,Uttarakhand,30.4599,78.0664,23.9,41,0.0,803.7,7.9,53.6,159,70.8,32.1,3.7,299.0,171.0,12.3,0,5,7,0,2026-05-21T17:46:23.013634+05:30
Dharamshala,Himachal Pradesh,32.219,76.3234,28.4,26,0.0,867.9,8.45,48.2,72,36.9,11.0,1.0,179.0,116.0,2.2,4,5,7,0,2026-05-21T17:46:23.013641+05:30
Dalhousie,Himachal Pradesh,32.5387,75.971,24.2,34,0.0,805.8,8.7,43.2,88,56.3,18.7,3.0,176.0,124.0,2.4,0,5,7,0,2026-05-21T17:46:23.013649+05:30
Patiala,Punjab,30.3398,76.3869,39.8,17,0.0,971.5,7.65,40.3,154,121.5,34.5,4.1,249.0,127.0,6.2,0,5,10,0,2026-05-21T17:46:23.013656+05:30
Bhatinda,Punjab,30.211,74.9455,41.2,15,0.0,976.4,8.35,26.6,148,88.9,32.9,3.8,194.0,152.0,11.8,0,5,10,0,2026-05-21T17:46:23.013663+05:30
Rohtak,Haryana,28.8955,76.6066,40.4,19,0.0,974.8,7.8,47.9,851,743.2,113.2,7.3,204.0,108.0,3.7,0,5,10,0,2026-05-21T17:46:23.013669+05:30
Panipat,Haryana,29.3909,76.9635,40.9,17,0.0,973.1,7.5,39.2,1427,1382.1,192.3,7.8,201.0,103.0,8.0,0,5,10,0,2026-05-21T17:46:23.013676+05:30
Mathura,Uttar Pradesh,27.4924,77.6737,41.2,16,0.0,979.6,8.05,46.1,1057,594.2,85.9,7.3,175.0,108.0,3.2,0,5,10,0,2026-05-21T17:46:23.013683+05:30
Vrindavan,Uttar Pradesh,27.5823,77.7027,40.8,17,0.0,980.1,8.0,44.6,1057,594.2,85.9,7.3,199.0,108.0,3.2,0,5,10,0,2026-05-21T17:46:23.013690+05:30
Ayodhya,Uttar Pradesh,26.7922,82.1998,38.2,28,0.0,987.7,8.4,27.7,159,110.4,45.8,5.2,268.0,129.0,6.4,0,5,10,1,2026-05-21T17:46:23.013697+05:30
Ratlam,Madhya Pradesh,23.3315,75.0367,37.1,21,0.0,951.2,8.55,36.0,68,54.5,22.0,0.7,136.0,108.0,2.5,0,5,10,0,2026-05-21T17:46:23.013705+05:30
Sagar,Madhya Pradesh,23.8388,78.7378,39.2,13,0.0,946.0,8.75,50.4,63,30.7,15.0,1.0,135.0,123.0,2.7,0,5,10,0,2026-05-21T17:46:23.013711+05:30
Satna,Madhya Pradesh,24.6005,80.8322,39.4,15,0.0,965.8,8.8,47.5,71,38.4,15.5,1.6,142.0,117.0,2.3,0,5,10,0,2026-05-21T17:46:23.013718+05:30
Akola,Maharashtra,20.7002,77.0082,41.3,19,0.0,969.5,8.9,42.1,83,50.1,25.9,2.5,153.0,127.0,6.4,0,5,10,0,2026-05-21T17:46:23.013726+05:30
Amravati,Maharashtra,20.9374,77.7796,40.7,17,0.0,962.1,8.9,34.9,89,48.9,26.3,3.0,157.0,129.0,7.3,0,5,10,0,2026-05-21T17:46:23.013735+05:30
Latur,Maharashtra,18.4088,76.5604,36.5,30,0.0,936.2,9.05,41.8,99,53.3,29.6,1.8,170.0,140.0,5.3,0,5,10,0,2026-05-21T17:46:23.013742+05:30
Nanded,Maharashtra,19.1383,77.3091,40.4,21,0.0,963.3,9.0,34.6,97,51.9,27.4,2.0,172.0,133.0,5.2,0,5,10,0,2026-05-21T17:46:23.013749+05:30
Gulbarga,Karnataka,17.3297,76.8343,34.8,43,0.1,954.4,9.05,33.8,93,52.7,31.3,3.2,209.0,145.0,5.2,3,5,7,1,2026-05-21T17:46:23.013755+05:30
Bidar,Karnataka,17.9104,77.5199,37.0,29,0.0,931.8,9.1,37.4,109,47.1,27.0,2.7,190.0,142.0,5.5,0,5,10,1,2026-05-21T17:46:23.013762+05:30
Hospet,Karnataka,15.2689,76.3909,32.9,48,0.0,952.0,8.8,40.7,46,20.6,13.9,3.6,179.0,112.0,2.7,0,5,7,1,2026-05-21T17:46:23.013769+05:30
Tirupur,Tamil Nadu,11.1085,77.3411,31.4,61,0.0,971.9,9.1,60.5,49,7.1,6.0,5.1,154.0,89.0,2.8,3,5,7,1,2026-05-21T17:46:23.013776+05:30
Alappuzha,Kerala,9.4981,76.3388,29.4,79,0.1,1007.1,8.55,40.0,44,12.4,8.4,5.5,110.0,56.0,1.4,10,5,4,1,2026-05-21T17:46:23.013783+05:30
Munnar,Kerala,10.0889,77.0595,19.1,99,0.0,856.0,9.1,30.6,33,5.3,4.7,5.0,132.0,63.0,1.3,3,10,7,1,2026-05-21T17:46:23.013791+05:30
Silchar,Assam,24.8333,92.7789,28.6,84,0.0,999.8,8.95,29.9,141,47.3,34.0,5.1,439.0,113.0,6.9,7,5,7,1,2026-05-21T17:46:23.013799+05:30
Dibrugarh,Assam,27.4728,94.912,30.2,79,0.0,990.7,8.9,16.6,97,51.2,37.7,11.3,348.0,87.0,3.3,3,5,7,1,2026-05-21T17:46:23.013805+05:30
