city,state,latitude,longitude,temp,humidity,rain,pressure,uv_index,aqi,mosquito_risk,arthritis_risk,migraine_risk,frizz_risk,updated_at
Delhi,Delhi,28.6139,77.209,24.3,47,0.0,982.7,5.6,151,0,5,3,0,2026-02-27T20:11:16.225926+05:30
Mumbai,Maharashtra,19.076,72.8777,26.0,66,0.0,1009.1,7.3,67,7,0,4,1,2026-02-27T20:11:16.225969+05:30
Bangalore,Karnataka,12.9716,77.5946,26.0,46,0.0,910.4,8.9,139,4,5,7,0,2026-02-27T20:11:16.225984+05:30
Hyderabad,Telangana,17.385,78.4867,26.2,58,0.0,952.6,8.1,126,4,5,7,1,2026-02-27T20:11:16.225994+05:30
Chennai,Tamil Nadu,13.0827,80.2707,26.5,76,0.0,1007.4,8.65,110,7,5,4,1,2026-02-27T20:11:16.226002+05:30
Kolkata,West Bengal,22.5726,88.3639,24.4,51,0.0,1005.6,7.45,161,0,5,4,0,2026-02-27T20:11:16.226010+05:30
Pune,Maharashtra,18.5204,73.8567,23.4,60,0.0,947.7,7.85,89,0,5,7,0,2026-02-27T20:11:16.226017+05:30
Ahmedabad,Gujarat,23.0225,72.5714,26.8,48,0.0,1001.4,7.1,83,4,5,4,0,2026-02-27T20:11:16.226025+05:30
Jaipur,Rajasthan,26.9124,75.7873,26.8,33,0.0,958.6,6.4,93,4,5,7,0,2026-02-27T20:11:16.226036+05:30
Lucknow,Uttar Pradesh,26.8467,80.9462,23.6,50,0.0,993.7,6.05,123,0,5,7,0,2026-02-27T20:11:16.226044+05:30
Kanpur,Uttar Pradesh,26.4499,80.3319,23.1,54,0.0,991.9,6.05,130,0,5,7,0,2026-02-27T20:11:16.226050+05:30
Chandigarh,Chandigarh,30.7333,76.7794,20.2,70,0.0,968.5,5.5,116,3,5,3,0,2026-02-27T20:11:16.226057+05:30
Srinagar,Jammu and Kashmir,34.0837,74.7973,10.0,61,0.0,837.2,6.35,153,3,5,7,0,2026-02-27T20:11:16.226064+05:30
Jammu,Jammu and Kashmir,32.7266,74.857,21.8,61,0.0,972.2,6.05,117,3,5,7,0,2026-02-27T20:11:16.226070+05:30
Amritsar,Punjab,31.634,74.8723,21.2,66,0.0,980.2,6.0,163,3,5,3,0,2026-02-27T20:11:16.226076+05:30
Ludhiana,Punjab,30.901,75.8573,22.1,65,0.0,978.3,5.75,173,3,5,3,0,2026-02-27T20:11:16.226083+05:30
Jalandhar,Punjab,31.326,75.5762,22.2,64,0.0,979.5,5.9,175,3,5,3,0,2026-02-27T20:11:16.226089+05:30
Dehradun,Uttarakhand,30.6284,78.0322,10.9,91,0.0,826.9,5.85,122,3,10,3,0,2026-02-27T20:11:16.226096+05:30
Shimla,Himachal Pradesh,31.1048,77.1734,9.9,78,0.0,781.1,5.9,105,3,5,3,0,2026-02-27T20:11:16.226105+05:30
Manali,Himachal Pradesh,32.2396,77.1887,11.5,59,0.0,816.6,7.6,134,0,5,7,0,2026-02-27T20:11:16.226111+05:30
Gurgaon,Haryana,28.4595,77.0266,21.7,60,0.0,980.8,5.7,156,0,5,3,0,2026-02-27T20:11:16.226118+05:30
Noida,Uttar Pradesh,28.5355,77.391,24.1,48,0.0,984.3,5.6,156,0,5,3,0,2026-02-27T20:11:16.226124+05:30
Ghaziabad,Uttar Pradesh,28.6692,77.4538,22.8,57,0.0,982.4,5.55,151,0,5,3,0,2026-02-27T20:11:16.226130+05:30
Faridabad,Haryana,28.4089,77.3178,24.2,43,0.0,983.5,5.65,156,0,5,3,0,2026-02-27T20:11:16.226136+05:30
Meerut,Uttar Pradesh,28.9845,77.7064,21.7,65,0.0,981.1,5.45,151,3,5,3,0,2026-02-27T20:11:16.226143+05:30
Agra,Uttar Pradesh,27.1767,78.0081,22.3,62,0.0,987.5,5.9,141,3,5,3,0,2026-02-27T20:11:16.226152+05:30
Varanasi,Uttar Pradesh,25.3176,82.9739,21.3,63,0.0,998.2,6.7,121,3,5,7,0,2026-02-27T20:11:16.226159+05:30
Prayagraj,Uttar Pradesh,25.4358,81.8463,22.9,55,0.0,996.3,6.6,147,0,5,7,0,2026-02-27T20:11:16.226166+05:30
Gorakhpur,Uttar Pradesh,26.7606,83.3732,20.3,63,0.0,997.3,6.45,153,3,5,7,0,2026-02-27T20:11:16.226174+05:30
Bareilly,Uttar Pradesh,28.367,79.4304,21.0,61,0.0,986.6,5.75,148,3,5,3,0,2026-02-27T20:11:16.226180+05:30
Aligarh,Uttar Pradesh,27.8974,78.088,23.2,50,0.0,985.4,5.7,152,0,5,3,0,2026-02-27T20:11:16.226187+05:30
Moradabad,Uttar Pradesh,28.8386,78.7733,20.3,64,0.0,983.3,5.6,151,3,5,3,0,2026-02-27T20:11:16.226193+05:30
Saharanpur,Uttar Pradesh,29.9637,77.546,19.6,70,0.0,975.3,5.25,155,3,5,3,0,2026-02-27T20:11:16.226199+05:30
Jhansi,Uttar Pradesh,25.4484,78.5685,24.8,49,0.0,977.7,6.55,100,0,5,7,0,2026-02-27T20:11:19.437910+05:30
Surat,Gujarat,21.1702,72.8311,24.2,72,0.0,1007.1,7.05,75,3,5,4,1,2026-02-27T20:11:19.437939+05:30
Vadodara,Gujarat,22.3072,73.1812,25.2,55,0.0,1004.3,7.1,85,4,5,4,0,2026-02-27T20:11:19.437949+05:30
Rajkot,Gujarat,22.3039,70.8022,27.9,41,0.0,993.2,7.0,100,4,5,7,0,2026-02-27T20:11:19.437957+05:30
Thane,Maharashtra,19.2183,72.9781,24.8,68,0.0,1008.6,7.3,67,3,0,4,1,2026-02-27T20:11:19.437964+05:30
Nagpur,Maharashtra,21.1458,79.0882,26.1,51,0.0,972.9,7.45,143,4,5,7,0,2026-02-27T20:11:19.437971+05:30
Nashik,Maharashtra,19.9975,73.7898,21.5,68,0.0,944.9,7.5,56,3,5,7,0,2026-02-27T20:11:19.437978+05:30
Aurangabad,Maharashtra,19.8762,75.3433,26.6,42,0.0,942.7,7.8,92,4,5,7,0,2026-02-27T20:11:19.437985+05:30
Solapur,Maharashtra,17.6599,75.9064,27.3,46,0.0,956.1,8.05,100,4,5,7,0,2026-02-27T20:11:19.437992+05:30
Kolhapur,Maharashtra,16.705,74.2433,23.4,46,0.0,947.1,8.3,64,0,5,7,0,2026-02-27T20:11:19.437998+05:30
Goa,Goa,15.2993,74.124,26.6,67,0.0,997.3,8.3,54,7,5,7,1,2026-02-27T20:11:19.438005+05:30
Jodhpur,Rajasthan,26.2389,73.0243,24.7,37,0.0,981.3,6.7,80,0,5,7,0,2026-02-27T20:11:19.438011+05:30
Udaipur,Rajasthan,24.5854,73.7125,22.1,41,0.0,945.6,7.35,100,0,5,7,0,2026-02-27T20:11:19.438017+05:30
Kota,Rajasthan,25.2138,75.8648,24.6,53,0.0,977.8,6.75,89,0,5,7,0,2026-02-27T20:11:19.438024+05:30
Bikaner,Rajasthan,28.0229,73.3119,27.4,33,0.0,980.0,6.35,81,4,5,7,0,2026-02-27T20:11:19.438031+05:30
Ajmer,Rajasthan,26.4499,74.6399,26.2,38,0.0,953.2,6.7,96,4,5,7,0,2026-02-27T20:11:19.438037+05:30
Gwalior,Madhya Pradesh,26.2183,78.1828,23.3,66,0.0,983.0,6.25,88,3,5,7,1,2026-02-27T20:11:19.438043+05:30
Indore,Madhya Pradesh,22.7196,75.8577,21.8,62,0.0,947.0,7.25,105,3,5,7,0,2026-02-27T20:11:19.438049+05:30
Bhopal,Madhya Pradesh,23.2599,77.4126,24.6,57,0.0,953.2,7.1,94,0,5,7,0,2026-02-27T20:11:19.438056+05:30
Jabalpur,Madhya Pradesh,23.1815,79.9864,25.9,44,0.0,961.5,7.15,81,4,5,7,0,2026-02-27T20:11:19.438062+05:30
Ujjain,Madhya Pradesh,23.1765,75.7885,22.7,65,0.0,952.9,7.15,89,3,5,7,0,2026-02-27T20:11:19.438069+05:30
Visakhapatnam,Andhra Pradesh,17.6868,83.2185,25.5,83,0.0,1004.1,8.15,100,7,5,4,1,2026-02-27T20:11:19.438075+05:30
Vijayawada,Andhra Pradesh,16.5062,80.648,27.9,63,0.0,1002.1,8.2,104,7,5,4,1,2026-02-27T20:11:19.438081+05:30
Guntur,Andhra Pradesh,16.3067,80.4365,26.5,69,0.0,1003.8,8.2,111,7,5,4,1,2026-02-27T20:11:19.438088+05:30
Nellore,Andhra Pradesh,14.4426,79.9865,26.2,78,0.0,1006.1,8.45,153,7,5,4,1,2026-02-27T20:11:19.438095+05:30
Kurnool,Andhra Pradesh,15.8281,78.0373,29.3,42,0.0,975.8,8.25,130,4,5,7,0,2026-02-27T20:11:19.438101+05:30
Kakinada,Andhra Pradesh,16.9891,82.2475,25.1,84,0.0,1007.6,8.15,93,7,5,4,1,2026-02-27T20:11:19.438108+05:30
Tirupati,Andhra Pradesh,13.6288,79.4192,26.5,55,0.0,991.7,8.6,124,4,5,7,1,2026-02-27T20:11:19.438114+05:30
Warangal,Telangana,17.9689,79.5941,28.0,51,0.0,978.2,7.95,154,4,5,7,1,2026-02-27T20:11:19.438120+05:30
Nizamabad,Telangana,18.6725,78.0941,27.0,53,0.0,963.9,7.85,141,4,5,7,1,2026-02-27T20:11:19.438126+05:30
Mysore,Karnataka,12.2958,76.6396,24.4,69,0.0,927.3,8.85,155,3,5,7,1,2026-02-27T20:11:19.438131+05:30
Mangalore,Karnataka,12.9141,74.856,28.6,75,0.0,1005.9,8.55,44,7,5,4,1,2026-02-27T20:11:19.438137+05:30
Hubli-Dharwad,Karnataka,15.3647,75.124,26.0,50,0.0,939.6,8.45,107,4,5,7,0,2026-02-27T20:11:19.438143+05:30
Belgaum,Karnataka,15.8497,74.4977,23.9,42,0.0,924.7,8.5,77,0,5,7,0,2026-02-27T20:11:22.645552+05:30
Coimbatore,Tamil Nadu,11.0168,76.9558,25.1,76,0.0,961.0,4.0,117,7,5,3,1,2026-02-27T20:11:22.645583+05:30
Madurai,Tamil Nadu,9.9252,78.1198,28.3,62,0.0,992.4,8.95,150,7,5,7,1,2026-02-27T20:11:22.645595+05:30
Trichy,Tamil Nadu,10.7905,78.7047,27.9,64,0.0,999.2,8.85,131,7,5,7,1,2026-02-27T20:11:22.645604+05:30
Salem,Tamil Nadu,11.6643,78.146,29.3,49,0.0,976.1,8.8,144,4,5,7,1,2026-02-27T20:11:22.645614+05:30
Tirunelveli,Tamil Nadu,8.7139,77.7567,27.5,75,0.0,1002.9,8.95,138,7,5,4,1,2026-02-27T20:11:22.645623+05:30
Vellore,Tamil Nadu,12.9165,79.1325,27.0,60,0.0,984.1,8.7,128,4,5,7,1,2026-02-27T20:11:22.645633+05:30
Erode,Tamil Nadu,11.341,77.7172,30.2,46,0.0,987.5,8.85,118,0,5,7,1,2026-02-27T20:11:22.645642+05:30
Kochi,Kerala,9.9312,76.2673,28.3,78,0.0,1008.0,8.8,121,7,0,4,1,2026-02-27T20:11:22.645652+05:30
Thiruvananthapuram,Kerala,8.5241,76.9366,28.0,78,0.0,1007.6,8.75,137,7,5,4,1,2026-02-27T20:11:22.645681+05:30
Kozhikode,Kerala,11.2588,75.7804,28.9,74,0.0,1007.0,8.65,74,7,5,4,1,2026-02-27T20:11:22.645692+05:30
Thrissur,Kerala,10.5276,76.2144,27.5,78,0.0,1006.3,8.75,101,7,5,4,1,2026-02-27T20:11:22.645703+05:30
Kannur,Kerala,11.8745,75.3704,28.5,69,0.0,1006.2,8.65,46,7,5,4,1,2026-02-27T20:11:22.645712+05:30
Patna,Bihar,25.5941,85.1376,23.4,53,0.0,1000.8,6.9,151,0,5,4,0,2026-02-27T20:11:22.645722+05:30
Gaya,Bihar,24.7914,85.0002,20.7,65,0.0,994.4,7.0,115,3,5,7,0,2026-02-27T20:11:22.645732+05:30
Muzaffarpur,Bihar,26.1209,85.3647,21.1,59,0.0,1000.7,6.85,154,0,5,4,0,2026-02-27T20:11:22.645741+05:30
Bhagalpur,Bihar,25.2425,87.0117,21.3,61,0.0,1001.5,6.9,138,3,5,4,0,2026-02-27T20:11:22.645750+05:30
Ranchi,Jharkhand,23.3441,85.3096,19.8,42,0.0,937.4,7.65,119,0,5,7,0,2026-02-27T20:11:22.645759+05:30
Jamshedpur,Jharkhand,22.8046,86.2029,25.1,49,0.0,990.5,7.55,137,4,5,7,0,2026-02-27T20:11:22.645769+05:30
Dhanbad,Jharkhand,23.7957,86.4304,24.2,27,0.0,979.9,7.4,129,0,5,7,0,2026-02-27T20:11:22.645778+05:30
Bokaro,Jharkhand,23.6693,86.1511,22.9,35,0.0,984.2,7.4,126,0,5,7,0,2026-02-27T20:11:22.645788+05:30
Bhubaneswar,Odisha,20.2961,85.8245,24.6,68,0.0,1002.4,7.85,154,3,5,4,1,2026-02-27T20:11:22.645797+05:30
Cuttack,Odisha,20.4625,85.8828,26.7,44,0.0,1003.9,7.9,154,4,5,4,0,2026-02-27T20:11:22.645806+05:30
Rourkela,Odisha,22.2604,84.8536,23.9,46,0.0,984.6,7.45,129,0,5,7,0,2026-02-27T20:11:22.645815+05:30
Raipur,Chhattisgarh,21.2514,81.6296,26.6,42,0.0,974.8,7.55,151,4,5,7,0,2026-02-27T20:11:22.645824+05:30
Bhilai,Chhattisgarh,21.1938,81.3509,25.4,45,0.0,975.0,7.55,153,4,5,7,0,2026-02-27T20:11:22.645834+05:30
Guwahati,Assam,26.1158,91.7086,21.0,82,0.0,1000.9,6.9,142,3,5,4,1,2026-02-27T20:11:22.645843+05:30
Agartala,Tripura,23.8315,91.2868,20.8,56,0.0,1005.6,7.25,172,0,5,4,0,2026-02-27T20:11:22.645852+05:30
Shillong,Meghalaya,25.5788,91.8933,7.9,91,0.0,851.3,5.4,117,3,10,3,0,2026-02-27T20:11:22.645862+05:30
Imphal,Manipur,24.817,93.9368,14.8,70,0.0,920.9,7.45,157,3,5,7,0,2026-02-27T20:11:22.645871+05:30
Aizawl,Mizoram,23.7271,92.7176,15.4,62,0.0,890.2,7.4,172,3,5,7,0,2026-02-27T20:11:22.645881+05:30
Kohima,Nagaland,25.6701,94.1077,10.9,78,0.0,851.0,5.85,156,3,5,3,0,2026-02-27T20:11:22.645894+05:30
Gangtok,Sikkim,27.3314,88.6138,10.5,96,0.1,833.4,4.8,153,6,10,3,0,2026-02-27T20:11:22.645905+05:30
Siliguri,West Bengal,26.7271,88.3953,18.8,66,0.0,993.4,6.85,163,3,5,7,0,2026-02-27T20:11:25.854222+05:30
Durgapur,West Bengal,23.5204,87.3119,24.4,36,0.0,995.0,7.4,119,0,5,7,0,2026-02-27T20:11:25.854250+05:30
Asansol,West Bengal,23.6739,86.9524,25.1,30,0.0,993.6,7.4,122,4,5,7,0,2026-02-27T20:11:25.854260+05:30
Pondicherry,Puducherry,11.9139,79.8145,24.8,85,0.0,1008.6,8.7,105,3,0,4,1,2026-02-27T20:11:25.854270+05:30
Port Blair,Andaman and Nicobar Islands,11.6234,92.7265,26.2,85,0.0,1006.0,8.65,39,7,5,4,1,2026-02-27T20:11:25.854278+05:30
Haridwar,Uttarakhand,29.9457,78.1642,20.3,68,0.0,974.2,5.3,134,3,5,3,0,2026-02-27T20:11:25.854285+05:30
Rishikesh,Uttarakhand,30.0869,78.2676,19.1,72,0.0,966.9,5.4,132,3,5,3,0,2026-02-27T20:11:25.854292+05:30
Nainital,Uttarakhand,29.3919,79.4542,14.3,56,0.0,803.5,6.2,139,0,5,7,0,2026-02-27T20:11:25.854299+05:30
Mussoorie,Uttarakhand,30.4599,78.0664,11.7,79,0.0,799.2,5.75,143,3,5,3,0,2026-02-27T20:11:25.854306+05:30
Dharamshala,Himachal Pradesh,32.219,76.3234,16.0,59,0.0,867.1,5.95,117,0,5,3,0,2026-02-27T20:11:25.854313+05:30
Dalhousie,Himachal Pradesh,32.5387,75.971,14.0,53,0.0,801.4,6.2,125,0,5,7,0,2026-02-27T20:11:25.854320+05:30
Patiala,Punjab,30.3398,76.3869,21.0,66,0.0,978.0,5.4,163,3,5,3,0,2026-02-27T20:11:25.854327+05:30
Bhatinda,Punjab,30.211,74.9455,22.3,63,0.0,983.1,6.1,157,3,5,7,0,2026-02-27T20:11:25.854334+05:30
Rohtak,Haryana,28.8955,76.6066,21.6,62,0.0,981.0,5.6,151,3,5,3,0,2026-02-27T20:11:25.854341+05:30
Panipat,Haryana,29.3909,76.9635,20.6,68,0.0,979.9,5.4,155,3,5,3,0,2026-02-27T20:11:25.854347+05:30
Mathura,Uttar Pradesh,27.4924,77.6737,22.0,57,0.0,986.4,5.85,125,0,5,3,0,2026-02-27T20:11:25.854354+05:30
Vrindavan,Uttar Pradesh,27.5823,77.7027,22.3,55,0.0,987.0,5.8,125,0,5,3,0,2026-02-27T20:11:25.854361+05:30
Ayodhya,Uttar Pradesh,26.7922,82.1998,20.8,55,0.0,995.6,6.2,141,0,5,7,0,2026-02-27T20:11:25.854367+05:30
Ratlam,Madhya Pradesh,23.3315,75.0367,23.5,63,0.0,953.8,7.1,92,3,5,7,1,2026-02-27T20:11:25.854374+05:30
Sagar,Madhya Pradesh,23.8388,78.7378,25.1,48,0.0,949.9,7.05,84,4,5,7,0,2026-02-27T20:11:25.854381+05:30
Satna,Madhya Pradesh,24.6005,80.8322,24.5,38,0.0,971.2,7.0,91,0,5,7,0,2026-02-27T20:11:25.854388+05:30
Akola,Maharashtra,20.7002,77.0082,28.5,42,0.0,973.7,7.55,135,4,5,7,0,2026-02-27T20:11:25.854395+05:30
Amravati,Maharashtra,20.9374,77.7796,28.1,47,0.0,966.4,7.45,130,4,5,7,0,2026-02-27T20:11:25.854403+05:30
Latur,Maharashtra,18.4088,76.5604,25.4,47,0.0,938.7,7.95,103,4,5,7,0,2026-02-27T20:11:25.854410+05:30
Nanded,Maharashtra,19.1383,77.3091,28.2,46,0.0,967.4,7.75,139,4,5,7,0,2026-02-27T20:11:25.854416+05:30
Gulbarga,Karnataka,17.3297,76.8343,28.0,41,0.0,957.5,8.1,134,4,5,7,0,2026-02-27T20:11:25.854422+05:30
Bidar,Karnataka,17.9104,77.5199,27.5,46,0.0,934.5,8.05,137,4,5,7,0,2026-02-27T20:11:25.854429+05:30
Hospet,Karnataka,15.2689,76.3909,30.4,36,0.0,954.5,8.4,157,0,5,7,0,2026-02-27T20:11:25.854436+05:30
Tirupur,Tamil Nadu,11.1085,77.3411,28.2,65,0.0,974.2,6.65,151,7,5,7,1,2026-02-27T20:11:25.854443+05:30
Alappuzha,Kerala,9.4981,76.3388,28.2,79,0.0,1008.2,8.8,165,7,0,4,1,2026-02-27T20:11:25.854450+05:30
Munnar,Kerala,10.0889,77.0595,20.7,97,0.1,856.1,6.35,93,6,5,7,1,2026-02-27T20:11:25.854457+05:30
Silchar,Assam,24.8333,92.7789,22.9,57,0.0,1004.3,7.2,163,0,5,4,0,2026-02-27T20:11:25.854464+05:30
Dibrugarh,Assam,27.4728,94.912,20.3,85,0.0,995.8,6.95,149,3,5,7,1,2026-02-27T20:11:25.854470+05:30
