city,state,latitude,longitude,temp,humidity,rain,pressure,uv_index,wind_gusts,aqi,pm10,pm2_5,mosquito_risk,arthritis_risk,migraine_risk,frizz_risk,updated_at
Delhi,Delhi,28.6139,77.209,26.2,35,0.0,980.4,7.3,22.7,253,499.2,107.8,4,5,7,0,2026-04-16T05:15:02.289260+05:30
Mumbai,Maharashtra,19.076,72.8777,28.2,79,0.0,1006.1,8.0,20.2,82,42.5,24.1,7,5,4,1,2026-04-16T05:15:02.289309+05:30
Bangalore,Karnataka,12.9716,77.5946,23.4,65,0.0,909.5,9.6,32.4,72,31.7,27.2,3,5,7,1,2026-04-16T05:15:02.289326+05:30
Hyderabad,Telangana,17.385,78.4867,27.6,62,0.0,950.7,9.2,27.7,89,25.2,22.1,7,5,7,1,2026-04-16T05:15:02.289337+05:30
Chennai,Tamil Nadu,13.0827,80.2707,28.2,88,0.0,1004.9,9.35,32.8,30,9.3,6.4,7,5,4,1,2026-04-16T05:15:02.289346+05:30
Kolkata,West Bengal,22.5726,88.3639,27.5,89,0.0,1004.4,8.85,34.9,90,28.8,21.4,7,5,4,1,2026-04-16T05:15:02.289359+05:30
Pune,Maharashtra,18.5204,73.8567,19.6,62,0.0,945.4,8.6,41.0,68,28.0,20.2,3,5,7,0,2026-04-16T05:15:02.289367+05:30
Ahmedabad,Gujarat,23.0225,72.5714,25.6,48,0.0,998.8,8.1,16.2,87,31.2,14.6,4,5,7,0,2026-04-16T05:15:02.289375+05:30
Jaipur,Rajasthan,26.9124,75.7873,26.5,29,0.0,956.8,7.95,29.5,158,183.0,31.0,4,5,7,0,2026-04-16T05:15:02.289383+05:30
Lucknow,Uttar Pradesh,26.8467,80.9462,23.7,44,0.0,991.2,7.85,21.2,104,199.3,42.7,0,5,7,0,2026-04-16T05:15:02.289390+05:30
Kanpur,Uttar Pradesh,26.4499,80.3319,23.0,56,0.0,989.1,7.85,20.2,139,216.1,42.0,0,5,7,0,2026-04-16T05:15:02.289398+05:30
Chandigarh,Chandigarh,30.7333,76.7794,20.0,55,0.0,966.0,7.2,21.2,45,11.5,11.1,0,5,7,0,2026-04-16T05:15:02.289406+05:30
Srinagar,Jammu and Kashmir,34.0837,74.7973,9.3,66,0.0,838.1,7.85,25.2,70,29.0,23.2,3,5,7,0,2026-04-16T05:15:02.289414+05:30
Jammu,Jammu and Kashmir,32.7266,74.857,18.8,68,0.0,969.8,7.45,29.5,61,16.5,16.2,3,5,7,0,2026-04-16T05:15:02.289423+05:30
Amritsar,Punjab,31.634,74.8723,19.7,73,0.0,977.7,7.95,26.3,81,34.3,32.4,3,5,7,0,2026-04-16T05:15:02.289430+05:30
Ludhiana,Punjab,30.901,75.8573,20.4,61,0.0,976.0,7.5,18.4,72,39.5,37.8,3,5,7,0,2026-04-16T05:15:02.289438+05:30
Jalandhar,Punjab,31.326,75.5762,19.0,65,0.0,976.9,7.0,22.7,64,29.4,28.2,3,5,7,0,2026-04-16T05:15:02.289446+05:30
Dehradun,Uttarakhand,30.6284,78.0322,13.9,58,0.0,827.7,7.35,34.6,42,7.0,6.8,0,5,7,0,2026-04-16T05:15:02.289453+05:30
Shimla,Himachal Pradesh,31.1048,77.1734,11.4,70,0.0,781.3,7.3,42.5,49,11.5,11.2,3,5,7,0,2026-04-16T05:15:02.289460+05:30
Manali,Himachal Pradesh,32.2396,77.1887,14.9,49,0.0,818.5,8.65,31.7,56,14.3,11.9,0,5,7,0,2026-04-16T05:15:02.289467+05:30
Gurgaon,Haryana,28.4595,77.0266,22.7,49,0.0,978.6,7.4,19.1,651,651.9,121.1,0,5,7,0,2026-04-16T05:15:02.289474+05:30
Noida,Uttar Pradesh,28.5355,77.391,25.3,39,0.0,981.9,7.35,26.6,651,651.9,121.1,4,5,7,0,2026-04-16T05:15:02.289480+05:30
Ghaziabad,Uttar Pradesh,28.6692,77.4538,23.6,44,0.0,980.0,7.35,20.2,147,220.3,64.7,0,5,7,0,2026-04-16T05:15:02.289488+05:30
Faridabad,Haryana,28.4089,77.3178,24.1,42,0.0,981.0,7.4,23.4,651,651.9,121.1,0,5,7,0,2026-04-16T05:15:02.289494+05:30
Meerut,Uttar Pradesh,28.9845,77.7064,21.0,53,0.0,978.6,7.25,25.9,147,220.3,64.7,0,5,7,0,2026-04-16T05:15:02.289501+05:30
Agra,Uttar Pradesh,27.1767,78.0081,22.8,42,0.0,984.9,7.75,19.1,364,618.4,96.4,0,5,7,0,2026-04-16T05:15:02.289510+05:30
Varanasi,Uttar Pradesh,25.3176,82.9739,24.6,56,0.0,994.5,8.45,21.2,82,98.7,41.3,0,5,7,0,2026-04-16T05:15:02.289517+05:30
Prayagraj,Uttar Pradesh,25.4358,81.8463,26.2,49,0.0,993.3,8.3,22.3,80,75.4,35.4,4,5,7,0,2026-04-16T05:15:02.289525+05:30
Gorakhpur,Uttar Pradesh,26.7606,83.3732,23.8,71,0.0,995.1,8.25,29.5,94,71.2,49.9,3,5,7,1,2026-04-16T05:15:02.289531+05:30
Bareilly,Uttar Pradesh,28.367,79.4304,19.2,70,0.0,983.9,7.6,23.8,59,29.9,28.8,3,5,7,0,2026-04-16T05:15:02.289538+05:30
Aligarh,Uttar Pradesh,27.8974,78.088,21.4,51,0.0,982.8,7.5,24.1,327,319.4,70.5,0,5,7,0,2026-04-16T05:15:02.289546+05:30
Moradabad,Uttar Pradesh,28.8386,78.7733,20.5,60,0.0,980.8,7.45,26.6,75,52.5,43.8,0,5,7,0,2026-04-16T05:15:02.289552+05:30
Saharanpur,Uttar Pradesh,29.9637,77.546,18.0,71,0.0,972.8,6.9,26.3,72,34.2,33.5,3,5,7,0,2026-04-16T05:15:02.289558+05:30
Jhansi,Uttar Pradesh,25.4484,78.5685,25.9,51,0.0,975.0,8.2,32.4,68,161.1,30.2,4,5,7,0,2026-04-16T05:15:05.510635+05:30
Surat,Gujarat,21.1702,72.8311,26.7,85,0.0,1004.1,7.8,27.7,100,31.9,24.8,7,5,4,1,2026-04-16T05:15:05.510670+05:30
Vadodara,Gujarat,22.3072,73.1812,25.6,81,0.0,1001.3,8.1,22.7,85,23.0,19.7,7,5,4,1,2026-04-16T05:15:05.510683+05:30
Rajkot,Gujarat,22.3039,70.8022,22.6,91,0.0,991.6,7.7,29.9,62,33.8,14.2,3,5,7,1,2026-04-16T05:15:05.510693+05:30
Thane,Maharashtra,19.2183,72.9781,26.1,89,0.0,1005.6,8.0,32.4,82,42.5,24.1,7,5,4,1,2026-04-16T05:15:05.510702+05:30
Nagpur,Maharashtra,21.1458,79.0882,25.7,45,0.0,969.7,8.85,15.1,64,19.1,16.6,4,5,7,0,2026-04-16T05:15:05.510711+05:30
Nashik,Maharashtra,19.9975,73.7898,21.6,56,0.0,942.8,8.3,31.7,58,31.0,20.6,0,5,7,0,2026-04-16T05:15:05.510720+05:30
Aurangabad,Maharashtra,19.8762,75.3433,25.0,36,0.0,941.5,9.0,27.0,42,23.3,9.1,4,5,7,0,2026-04-16T05:15:05.510752+05:30
Solapur,Maharashtra,17.6599,75.9064,26.0,46,0.0,954.3,9.05,23.8,72,16.1,14.3,4,5,7,0,2026-04-16T05:15:05.510763+05:30
Kolhapur,Maharashtra,16.705,74.2433,21.0,87,0.0,944.8,9.0,38.9,83,36.0,27.5,3,5,7,1,2026-04-16T05:15:05.510770+05:30
Goa,Goa,15.2993,74.124,27.6,77,0.0,995.4,9.0,29.2,78,58.6,30.0,7,5,7,1,2026-04-16T05:15:05.510777+05:30
Jodhpur,Rajasthan,26.2389,73.0243,27.0,46,0.0,979.0,8.15,25.6,69,49.9,21.0,4,5,7,0,2026-04-16T05:15:05.510784+05:30
Udaipur,Rajasthan,24.5854,73.7125,23.1,53,0.0,943.7,8.7,29.2,70,92.2,23.4,0,5,7,0,2026-04-16T05:15:05.510791+05:30
Kota,Rajasthan,25.2138,75.8648,25.9,63,0.0,975.1,8.2,16.9,64,63.6,24.4,7,5,7,1,2026-04-16T05:15:05.510798+05:30
Bikaner,Rajasthan,28.0229,73.3119,26.3,44,0.0,978.0,7.8,24.1,59,20.8,11.3,4,5,7,0,2026-04-16T05:15:05.510805+05:30
Ajmer,Rajasthan,26.4499,74.6399,25.8,33,0.0,951.3,8.15,31.3,71,36.9,14.2,4,5,7,0,2026-04-16T05:15:05.510812+05:30
Gwalior,Madhya Pradesh,26.2183,78.1828,25.3,51,0.0,980.3,7.95,26.6,113,298.0,48.5,4,5,7,0,2026-04-16T05:15:05.510818+05:30
Indore,Madhya Pradesh,22.7196,75.8577,23.9,59,0.0,945.0,8.55,25.2,65,39.0,21.5,0,5,7,0,2026-04-16T05:15:05.510825+05:30
Bhopal,Madhya Pradesh,23.2599,77.4126,26.4,54,0.0,950.9,8.55,20.5,58,36.9,25.1,4,5,7,1,2026-04-16T05:15:05.510831+05:30
Jabalpur,Madhya Pradesh,23.1815,79.9864,23.4,63,0.0,957.9,8.7,23.4,48,22.4,14.9,3,5,7,0,2026-04-16T05:15:05.510838+05:30
Ujjain,Madhya Pradesh,23.1765,75.7885,23.9,61,0.0,950.6,8.5,24.1,71,42.3,23.6,3,5,7,0,2026-04-16T05:15:05.510845+05:30
Visakhapatnam,Andhra Pradesh,17.6868,83.2185,26.8,89,0.0,1001.7,9.15,45.0,53,13.2,11.0,7,5,4,1,2026-04-16T05:15:05.510852+05:30
Vijayawada,Andhra Pradesh,16.5062,80.648,27.4,90,0.0,1000.2,9.2,31.0,43,8.8,7.2,7,5,4,1,2026-04-16T05:15:05.510859+05:30
Guntur,Andhra Pradesh,16.3067,80.4365,27.5,90,0.0,1001.3,9.2,32.4,49,8.1,6.4,7,5,4,1,2026-04-16T05:15:05.510866+05:30
Nellore,Andhra Pradesh,14.4426,79.9865,26.9,92,0.0,1002.8,9.3,38.2,43,8.6,7.5,7,5,4,1,2026-04-16T05:15:05.510873+05:30
Kurnool,Andhra Pradesh,15.8281,78.0373,31.1,45,0.0,974.3,9.2,19.4,87,12.9,12.2,0,5,7,1,2026-04-16T05:15:05.510881+05:30
Kakinada,Andhra Pradesh,16.9891,82.2475,26.6,91,0.0,1005.6,9.2,36.0,36,10.8,7.7,7,5,4,1,2026-04-16T05:15:05.510888+05:30
Tirupati,Andhra Pradesh,13.6288,79.4192,25.5,92,0.0,989.7,9.4,32.8,60,23.7,23.2,7,5,7,1,2026-04-16T05:15:05.510895+05:30
Warangal,Telangana,17.9689,79.5941,26.4,78,0.0,975.7,9.1,26.3,72,12.9,12.2,7,5,7,1,2026-04-16T05:15:05.510902+05:30
Nizamabad,Telangana,18.6725,78.0941,27.1,54,0.0,962.2,9.05,27.4,80,37.0,34.9,4,5,7,1,2026-04-16T05:15:05.510908+05:30
Mysore,Karnataka,12.2958,76.6396,23.0,93,0.0,926.4,9.5,38.5,77,38.2,32.4,3,5,7,1,2026-04-16T05:15:05.510915+05:30
Mangalore,Karnataka,12.9141,74.856,29.4,80,0.0,1004.1,8.75,22.3,77,53.9,31.4,7,5,4,1,2026-04-16T05:15:05.510922+05:30
Hubli-Dharwad,Karnataka,15.3647,75.124,23.4,93,0.0,938.4,8.35,29.5,70,35.5,18.2,3,5,7,1,2026-04-16T05:15:05.510929+05:30
Belgaum,Karnataka,15.8497,74.4977,20.9,97,0.0,922.8,9.25,36.7,69,38.4,24.4,3,5,7,1,2026-04-16T05:15:08.728191+05:30
Coimbatore,Tamil Nadu,11.0168,76.9558,24.3,95,0.0,959.8,9.45,37.1,90,49.6,43.9,3,5,7,1,2026-04-16T05:15:08.728222+05:30
Madurai,Tamil Nadu,9.9252,78.1198,27.1,90,0.0,991.0,9.05,36.7,56,23.6,21.7,7,5,7,1,2026-04-16T05:15:08.728232+05:30
Trichy,Tamil Nadu,10.7905,78.7047,26.7,92,0.0,997.9,9.35,27.0,48,12.5,11.7,7,5,7,1,2026-04-16T05:15:08.728241+05:30
Salem,Tamil Nadu,11.6643,78.146,24.8,85,0.0,975.4,9.45,24.5,61,16.8,16.5,3,5,7,1,2026-04-16T05:15:08.728249+05:30
Tirunelveli,Tamil Nadu,8.7139,77.7567,27.5,77,0.0,1000.9,8.45,41.4,65,36.9,30.6,7,5,4,1,2026-04-16T05:15:08.728256+05:30
Vellore,Tamil Nadu,12.9165,79.1325,24.9,95,0.0,982.6,9.4,32.4,76,35.6,35.0,3,5,7,1,2026-04-16T05:15:08.728263+05:30
Erode,Tamil Nadu,11.341,77.7172,27.6,83,0.0,987.0,9.4,30.2,59,24.5,22.8,7,5,7,1,2026-04-16T05:15:08.728270+05:30
Kochi,Kerala,9.9312,76.2673,28.8,84,0.0,1006.2,9.2,31.7,95,52.2,47.7,7,5,4,1,2026-04-16T05:15:08.728278+05:30
Thiruvananthapuram,Kerala,8.5241,76.9366,29.1,82,0.0,1005.4,8.7,25.9,74,37.1,26.1,7,5,4,1,2026-04-16T05:15:08.728285+05:30
Kozhikode,Kerala,11.2588,75.7804,29.2,83,0.0,1005.2,9.15,31.0,77,48.4,30.4,7,5,4,1,2026-04-16T05:15:08.728291+05:30
Thrissur,Kerala,10.5276,76.2144,28.1,88,0.0,1004.5,9.1,38.5,97,61.5,53.7,7,5,4,1,2026-04-16T05:15:08.728299+05:30
Kannur,Kerala,11.8745,75.3704,29.1,82,0.0,1004.6,9.15,30.2,77,43.3,32.8,7,5,4,1,2026-04-16T05:15:08.728306+05:30
Patna,Bihar,25.5941,85.1376,25.3,82,0.0,998.1,8.55,33.1,116,71.9,63.6,7,5,7,1,2026-04-16T05:15:08.728314+05:30
Gaya,Bihar,24.7914,85.0002,23.9,75,0.0,990.6,8.65,27.0,73,54.0,33.1,3,5,7,1,2026-04-16T05:15:08.728320+05:30
Muzaffarpur,Bihar,26.1209,85.3647,24.3,85,0.0,998.6,8.55,34.2,142,75.4,65.9,3,5,7,1,2026-04-16T05:15:08.728327+05:30
Bhagalpur,Bihar,25.2425,87.0117,24.2,92,0.0,999.7,8.55,35.6,145,65.9,56.9,3,5,7,1,2026-04-16T05:15:08.728333+05:30
Ranchi,Jharkhand,23.3441,85.3096,25.0,86,0.0,935.6,9.15,44.3,91,76.6,47.0,7,5,7,1,2026-04-16T05:15:08.728339+05:30
Jamshedpur,Jharkhand,22.8046,86.2029,26.8,91,0.0,988.8,9.0,43.6,124,75.2,58.7,7,5,7,1,2026-04-16T05:15:08.728346+05:30
Dhanbad,Jharkhand,23.7957,86.4304,27.5,89,0.0,977.5,8.95,42.5,150,83.1,77.3,7,5,7,1,2026-04-16T05:15:08.728352+05:30
Bokaro,Jharkhand,23.6693,86.1511,26.1,82,0.0,981.5,8.95,48.6,124,93.6,80.3,7,5,7,1,2026-04-16T05:15:08.728359+05:30
Bhubaneswar,Odisha,20.2961,85.8245,26.9,91,0.0,1000.3,9.1,40.3,66,14.6,10.8,7,5,4,1,2026-04-16T05:15:08.728365+05:30
Cuttack,Odisha,20.4625,85.8828,27.1,90,0.0,1002.0,9.15,37.4,66,14.6,10.8,7,5,4,1,2026-04-16T05:15:08.728372+05:30
Rourkela,Odisha,22.2604,84.8536,28.1,83,0.0,982.4,8.9,38.9,133,71.5,58.2,7,5,7,1,2026-04-16T05:15:08.728378+05:30
Raipur,Chhattisgarh,21.2514,81.6296,28.0,54,0.0,971.0,8.95,32.0,103,34.0,33.3,4,5,7,1,2026-04-16T05:15:08.728385+05:30
Bhilai,Chhattisgarh,21.1938,81.3509,26.8,60,0.0,971.3,8.95,31.0,86,25.6,25.2,4,5,7,1,2026-04-16T05:15:08.728391+05:30
Guwahati,Assam,26.1158,91.7086,22.5,92,0.0,1002.4,8.45,24.8,131,56.9,43.2,3,5,4,1,2026-04-16T05:15:08.728397+05:30
Agartala,Tripura,23.8315,91.2868,22.8,94,0.0,1007.5,8.7,27.4,111,29.9,21.5,3,5,4,1,2026-04-16T05:15:08.728403+05:30
Shillong,Meghalaya,25.5788,91.8933,13.2,95,0.0,855.2,7.6,53.6,99,57.6,36.6,3,10,7,0,2026-04-16T05:15:08.728409+05:30
Imphal,Manipur,24.817,93.9368,17.2,91,0.0,923.6,8.45,68.0,113,68.2,42.6,3,10,7,0,2026-04-16T05:15:08.728416+05:30
Aizawl,Mizoram,23.7271,92.7176,18.4,92,0.0,893.0,8.95,32.8,123,83.1,54.0,3,10,7,1,2026-04-16T05:15:08.728422+05:30
Kohima,Nagaland,25.6701,94.1077,14.4,81,0.0,854.5,8.7,54.4,95,53.0,28.3,3,10,7,0,2026-04-16T05:15:08.728429+05:30
Gangtok,Sikkim,27.3314,88.6138,14.2,77,0.0,835.9,8.8,18.7,151,43.9,31.2,3,5,7,0,2026-04-16T05:15:08.728435+05:30
Siliguri,West Bengal,26.7271,88.3953,19.5,85,0.0,994.9,8.45,23.4,164,156.5,104.5,3,10,7,1,2026-04-16T05:15:11.959824+05:30
Durgapur,West Bengal,23.5204,87.3119,27.5,91,0.0,993.2,8.85,40.7,131,46.9,43.9,7,5,7,1,2026-04-16T05:15:11.959859+05:30
Asansol,West Bengal,23.6739,86.9524,27.9,89,0.0,991.5,8.9,50.4,126,52.7,49.9,7,5,7,1,2026-04-16T05:15:11.959871+05:30
Pondicherry,Puducherry,11.9139,79.8145,27.5,96,0.0,1006.7,9.25,28.8,35,8.4,5.6,7,5,4,1,2026-04-16T05:15:11.959881+05:30
Port Blair,Andaman and Nicobar Islands,11.6234,92.7265,29.2,69,0.0,1006.3,9.2,13.3,65,25.3,18.2,7,5,4,1,2026-04-16T05:15:11.959890+05:30
Haridwar,Uttarakhand,29.9457,78.1642,19.0,71,0.0,971.6,7.05,31.7,53,18.9,18.9,3,5,7,0,2026-04-16T05:15:11.959900+05:30
Rishikesh,Uttarakhand,30.0869,78.2676,19.2,71,0.0,964.7,7.0,33.1,59,14.3,14.2,3,5,7,0,2026-04-16T05:15:11.959909+05:30
Nainital,Uttarakhand,29.3919,79.4542,19.6,33,0.0,804.7,8.1,50.0,66,10.8,9.3,0,5,7,0,2026-04-16T05:15:11.959918+05:30
Mussoorie,Uttarakhand,30.4599,78.0664,16.6,56,0.0,800.9,7.1,38.2,51,14.9,14.9,0,5,7,0,2026-04-16T05:15:11.959925+05:30
Dharamshala,Himachal Pradesh,32.219,76.3234,20.6,41,0.0,867.5,7.2,25.2,52,5.7,4.8,0,5,7,0,2026-04-16T05:15:11.959932+05:30
Dalhousie,Himachal Pradesh,32.5387,75.971,17.2,40,0.0,801.9,7.75,25.6,50,11.6,11.1,0,5,7,0,2026-04-16T05:15:11.959940+05:30
Patiala,Punjab,30.3398,76.3869,18.2,65,0.0,975.4,7.1,19.8,160,39.3,37.8,3,5,7,0,2026-04-16T05:15:11.959947+05:30
Bhatinda,Punjab,30.211,74.9455,22.3,57,0.0,980.3,7.45,23.0,61,42.5,27.8,0,5,7,0,2026-04-16T05:15:11.959954+05:30
Rohtak,Haryana,28.8955,76.6066,20.9,54,0.0,978.7,7.35,27.0,421,711.5,125.7,0,5,7,0,2026-04-16T05:15:11.959961+05:30
Panipat,Haryana,29.3909,76.9635,19.7,60,0.0,977.5,7.2,23.0,696,408.9,98.0,0,5,7,0,2026-04-16T05:15:11.959967+05:30
Mathura,Uttar Pradesh,27.4924,77.6737,23.3,43,0.0,984.2,7.65,25.2,418,538.3,99.4,0,5,7,0,2026-04-16T05:15:11.959974+05:30
Vrindavan,Uttar Pradesh,27.5823,77.7027,21.8,46,0.0,984.7,7.6,26.6,418,538.3,99.4,0,5,7,0,2026-04-16T05:15:11.959980+05:30
Ayodhya,Uttar Pradesh,26.7922,82.1998,22.7,52,0.0,992.8,8.0,22.7,84,91.7,30.4,0,5,7,0,2026-04-16T05:15:11.959987+05:30
Ratlam,Madhya Pradesh,23.3315,75.0367,23.0,68,0.0,951.4,8.4,28.8,65,43.8,22.1,3,5,7,1,2026-04-16T05:15:11.959994+05:30
Sagar,Madhya Pradesh,23.8388,78.7378,25.6,48,0.0,947.2,8.55,21.6,48,43.2,16.6,4,5,7,0,2026-04-16T05:15:11.960001+05:30
Satna,Madhya Pradesh,24.6005,80.8322,27.9,45,0.0,968.4,8.6,28.8,72,68.2,21.5,4,5,7,0,2026-04-16T05:15:11.960007+05:30
Akola,Maharashtra,20.7002,77.0082,25.5,59,0.0,972.1,8.8,24.1,51,29.7,19.0,4,5,7,1,2026-04-16T05:15:11.960015+05:30
Amravati,Maharashtra,20.9374,77.7796,23.8,59,0.0,963.9,8.8,19.1,47,26.8,17.5,0,5,7,0,2026-04-16T05:15:11.960022+05:30
Latur,Maharashtra,18.4088,76.5604,24.0,54,0.0,936.8,9.05,23.4,64,20.4,13.3,0,5,7,0,2026-04-16T05:15:11.960029+05:30
Nanded,Maharashtra,19.1383,77.3091,24.7,57,0.0,965.7,8.95,17.3,63,25.7,19.2,0,5,7,0,2026-04-16T05:15:11.960036+05:30
Gulbarga,Karnataka,17.3297,76.8343,28.5,43,0.0,955.6,9.05,27.4,93,26.0,24.0,4,5,7,0,2026-04-16T05:15:11.960042+05:30
Bidar,Karnataka,17.9104,77.5199,26.9,51,0.0,933.0,9.1,33.8,106,49.8,41.4,4,5,7,0,2026-04-16T05:15:11.960049+05:30
Hospet,Karnataka,15.2689,76.3909,26.5,81,0.0,954.5,9.25,31.7,79,25.3,18.9,7,5,7,1,2026-04-16T05:15:11.960055+05:30
Tirupur,Tamil Nadu,11.1085,77.3411,26.4,90,0.0,973.3,9.5,32.8,74,37.6,32.8,7,5,7,1,2026-04-16T05:15:11.960062+05:30
Alappuzha,Kerala,9.4981,76.3388,28.7,84,0.0,1006.3,8.65,29.5,92,51.1,39.2,7,5,4,1,2026-04-16T05:15:11.960068+05:30
Munnar,Kerala,10.0889,77.0595,20.4,70,0.0,854.5,9.05,22.0,71,32.0,28.9,3,5,7,0,2026-04-16T05:15:11.960075+05:30
Silchar,Assam,24.8333,92.7789,22.3,95,0.0,1006.9,8.7,26.6,114,55.8,34.1,3,5,4,1,2026-04-16T05:15:11.960082+05:30
Dibrugarh,Assam,27.4728,94.912,19.9,91,0.0,997.9,8.55,9.4,148,57.5,39.7,3,10,7,1,2026-04-16T05:15:11.960088+05:30
