city,state,latitude,longitude,temp,humidity,rain,pressure,uv_index,wind_gusts,aqi,pm10,pm2_5,mosquito_risk,arthritis_risk,migraine_risk,frizz_risk,updated_at
Delhi,Delhi,28.6139,77.209,24.7,46,0.0,985.7,6.15,25.6,190,415.4,91.0,0,5,7,0,2026-03-11T22:27:03.582882+05:30
Mumbai,Maharashtra,19.076,72.8777,28.0,88,0.0,1011.0,7.6,23.4,199,59.3,52.3,7,0,4,1,2026-03-11T22:27:03.582925+05:30
Bangalore,Karnataka,12.9716,77.5946,24.4,52,0.0,914.2,9.25,27.7,61,18.7,18.1,0,5,7,0,2026-03-11T22:27:03.582940+05:30
Hyderabad,Telangana,17.385,78.4867,25.5,51,0.0,956.3,8.6,24.8,95,46.2,38.4,4,5,7,0,2026-03-11T22:27:03.582950+05:30
Chennai,Tamil Nadu,13.0827,80.2707,26.2,83,0.0,1010.9,9.0,31.7,67,23.9,19.8,7,0,4,1,2026-03-11T22:27:03.582959+05:30
Kolkata,West Bengal,22.5726,88.3639,25.1,88,0.0,1009.1,7.5,22.0,136,52.6,49.6,7,0,4,1,2026-03-11T22:27:03.582968+05:30
Pune,Maharashtra,18.5204,73.8567,26.4,70,0.0,951.6,8.15,31.3,115,50.1,46.3,7,5,7,1,2026-03-11T22:27:03.582981+05:30
Ahmedabad,Gujarat,23.0225,72.5714,28.5,29,0.0,1005.2,7.4,25.9,125,29.0,27.8,4,5,4,0,2026-03-11T22:27:03.582989+05:30
Jaipur,Rajasthan,26.9124,75.7873,28.2,20,0.0,963.1,6.85,33.1,102,89.2,37.1,4,5,7,0,2026-03-11T22:27:03.582997+05:30
Lucknow,Uttar Pradesh,26.8467,80.9462,26.4,60,0.0,995.9,6.6,28.8,179,259.8,70.1,4,5,7,1,2026-03-11T22:27:03.583005+05:30
Kanpur,Uttar Pradesh,26.4499,80.3319,26.4,65,0.0,994.4,6.6,23.8,172,399.5,76.6,7,5,7,1,2026-03-11T22:27:03.583013+05:30
Chandigarh,Chandigarh,30.7333,76.7794,23.0,53,0.0,971.3,5.35,24.5,133,72.2,52.7,0,5,3,0,2026-03-11T22:27:03.583020+05:30
Srinagar,Jammu and Kashmir,34.0837,74.7973,9.0,94,0.0,844.9,4.55,28.1,115,83.1,75.0,3,10,3,0,2026-03-11T22:27:03.583028+05:30
Jammu,Jammu and Kashmir,32.7266,74.857,20.9,63,0.0,975.7,5.4,27.0,89,36.7,26.5,3,5,3,0,2026-03-11T22:27:03.583035+05:30
Amritsar,Punjab,31.634,74.8723,22.7,87,0.0,983.9,6.45,23.8,156,91.5,69.6,3,5,7,1,2026-03-11T22:27:03.583042+05:30
Ludhiana,Punjab,30.901,75.8573,24.7,57,0.0,981.6,6.25,14.8,173,143.9,101.3,0,5,7,0,2026-03-11T22:27:03.583049+05:30
Jalandhar,Punjab,31.326,75.5762,24.2,63,0.0,982.8,6.5,17.6,166,122.5,85.2,3,5,7,1,2026-03-11T22:27:03.583058+05:30
Dehradun,Uttarakhand,30.6284,78.0322,15.3,73,0.0,831.9,6.0,28.8,100,35.2,25.5,3,5,3,0,2026-03-11T22:27:03.583065+05:30
Shimla,Himachal Pradesh,31.1048,77.1734,13.1,72,0.0,786.3,5.95,46.8,101,43.0,32.2,3,5,3,0,2026-03-11T22:27:03.583072+05:30
Manali,Himachal Pradesh,32.2396,77.1887,15.4,52,0.0,823.9,6.55,42.5,72,14.5,7.5,0,5,7,0,2026-03-11T22:27:03.583094+05:30
Gurgaon,Haryana,28.4595,77.0266,21.9,56,0.0,984.0,6.25,24.5,629,560.7,127.1,0,5,7,0,2026-03-11T22:27:03.583103+05:30
Noida,Uttar Pradesh,28.5355,77.391,24.2,49,0.0,987.2,6.15,25.9,629,560.7,127.1,0,5,7,0,2026-03-11T22:27:03.583110+05:30
Ghaziabad,Uttar Pradesh,28.6692,77.4538,22.8,55,0.0,985.2,6.1,24.5,167,341.8,75.2,0,5,7,0,2026-03-11T22:27:03.583117+05:30
Faridabad,Haryana,28.4089,77.3178,21.8,54,0.0,986.4,6.15,23.0,629,560.7,127.1,0,5,7,0,2026-03-11T22:27:03.583123+05:30
Meerut,Uttar Pradesh,28.9845,77.7064,21.2,69,0.0,983.8,5.75,29.2,167,341.8,75.2,3,5,3,0,2026-03-11T22:27:03.583130+05:30
Agra,Uttar Pradesh,27.1767,78.0081,23.0,66,0.0,990.4,6.5,18.4,332,525.3,97.6,3,5,7,1,2026-03-11T22:27:03.583137+05:30
Varanasi,Uttar Pradesh,25.3176,82.9739,23.5,77,0.0,1000.4,7.3,23.0,184,84.8,65.2,3,5,4,1,2026-03-11T22:27:03.583147+05:30
Prayagraj,Uttar Pradesh,25.4358,81.8463,25.5,62,0.0,998.9,7.15,23.8,182,113.2,66.8,7,5,7,1,2026-03-11T22:27:03.583157+05:30
Gorakhpur,Uttar Pradesh,26.7606,83.3732,24.6,78,0.0,999.5,7.0,22.0,213,155.1,139.7,3,5,7,1,2026-03-11T22:27:03.583166+05:30
Bareilly,Uttar Pradesh,28.367,79.4304,21.8,70,0.0,989.0,6.35,30.6,194,189.5,63.1,3,5,7,1,2026-03-11T22:27:03.583173+05:30
Aligarh,Uttar Pradesh,27.8974,78.088,22.3,55,0.0,988.1,6.25,25.6,379,797.2,129.5,0,5,7,0,2026-03-11T22:27:03.583179+05:30
Moradabad,Uttar Pradesh,28.8386,78.7733,21.6,70,0.0,985.8,6.15,34.6,186,104.1,41.2,3,5,7,0,2026-03-11T22:27:03.583185+05:30
Saharanpur,Uttar Pradesh,29.9637,77.546,21.4,67,0.0,977.7,5.45,36.0,163,97.8,49.9,3,5,3,0,2026-03-11T22:27:03.583191+05:30
Jhansi,Uttar Pradesh,25.4484,78.5685,26.3,43,0.0,980.9,7.1,27.7,94,41.7,23.5,4,5,7,0,2026-03-11T22:27:06.893981+05:30
Surat,Gujarat,21.1702,72.8311,30.1,38,0.0,1008.5,7.3,27.4,142,86.6,84.3,0,0,4,0,2026-03-11T22:27:06.894018+05:30
Vadodara,Gujarat,22.3072,73.1812,30.2,34,0.0,1006.7,7.45,20.2,112,40.7,38.3,0,5,4,0,2026-03-11T22:27:06.894030+05:30
Rajkot,Gujarat,22.3039,70.8022,28.0,30,0.0,998.0,7.25,32.4,115,16.3,15.9,4,5,7,0,2026-03-11T22:27:06.894040+05:30
Thane,Maharashtra,19.2183,72.9781,26.6,93,0.0,1010.5,7.6,40.7,199,59.3,52.3,7,0,4,1,2026-03-11T22:27:06.894050+05:30
Nagpur,Maharashtra,21.1458,79.0882,27.0,45,0.0,975.8,8.0,12.6,112,64.0,49.0,4,5,7,0,2026-03-11T22:27:06.894059+05:30
Nashik,Maharashtra,19.9975,73.7898,25.7,52,0.0,948.6,7.75,25.6,156,52.9,50.1,4,5,7,0,2026-03-11T22:27:06.894069+05:30
Aurangabad,Maharashtra,19.8762,75.3433,26.2,42,0.0,946.7,8.3,18.4,137,43.0,37.8,4,5,7,0,2026-03-11T22:27:06.894077+05:30
Solapur,Maharashtra,17.6599,75.9064,27.1,65,0.0,959.6,8.5,20.5,128,36.1,31.5,7,5,7,1,2026-03-11T22:27:06.894107+05:30
Kolhapur,Maharashtra,16.705,74.2433,24.9,89,0.0,951.0,8.65,32.4,147,68.0,62.4,3,5,7,1,2026-03-11T22:27:06.894117+05:30
Goa,Goa,15.2993,74.124,28.1,81,0.0,1001.0,8.65,39.6,151,63.3,55.3,7,5,4,1,2026-03-11T22:27:06.894125+05:30
Jodhpur,Rajasthan,26.2389,73.0243,26.3,29,0.0,986.1,7.15,31.7,107,128.5,25.3,4,5,7,0,2026-03-11T22:27:06.894134+05:30
Udaipur,Rajasthan,24.5854,73.7125,24.3,31,0.0,950.5,7.8,26.3,106,15.1,14.1,0,5,7,0,2026-03-11T22:27:06.894142+05:30
Kota,Rajasthan,25.2138,75.8648,24.0,47,0.0,981.6,7.2,18.7,96,60.8,31.7,0,5,7,0,2026-03-11T22:27:06.894149+05:30
Bikaner,Rajasthan,28.0229,73.3119,27.8,24,0.0,984.9,6.15,27.7,93,60.5,18.9,4,5,7,0,2026-03-11T22:27:06.894155+05:30
Ajmer,Rajasthan,26.4499,74.6399,25.5,31,0.0,958.2,7.2,27.7,106,30.0,19.7,4,5,7,0,2026-03-11T22:27:06.894162+05:30
Gwalior,Madhya Pradesh,26.2183,78.1828,26.9,38,0.0,985.9,6.8,29.9,105,153.7,42.1,4,5,7,0,2026-03-11T22:27:06.894169+05:30
Indore,Madhya Pradesh,22.7196,75.8577,23.7,38,0.0,950.7,7.7,20.9,94,36.7,29.5,0,5,7,0,2026-03-11T22:27:06.894176+05:30
Bhopal,Madhya Pradesh,23.2599,77.4126,24.5,38,0.0,956.8,7.55,24.8,94,36.8,26.0,0,5,7,0,2026-03-11T22:27:06.894183+05:30
Jabalpur,Madhya Pradesh,23.1815,79.9864,27.2,29,0.0,964.1,7.7,24.5,91,85.9,35.7,4,5,7,0,2026-03-11T22:27:06.894189+05:30
Ujjain,Madhya Pradesh,23.1765,75.7885,23.7,53,0.0,956.9,7.65,14.8,83,43.2,35.5,0,5,7,0,2026-03-11T22:27:06.894196+05:30
Visakhapatnam,Andhra Pradesh,17.6868,83.2185,26.0,82,0.0,1006.8,8.6,39.2,92,22.6,19.4,7,5,4,1,2026-03-11T22:27:06.894203+05:30
Vijayawada,Andhra Pradesh,16.5062,80.648,25.8,65,0.0,1006.0,8.7,17.6,88,22.4,21.7,7,5,4,1,2026-03-11T22:27:06.894210+05:30
Guntur,Andhra Pradesh,16.3067,80.4365,25.4,73,0.0,1007.2,8.7,18.7,76,24.7,23.6,7,5,4,1,2026-03-11T22:27:06.894218+05:30
Nellore,Andhra Pradesh,14.4426,79.9865,24.7,88,0.0,1009.7,8.85,28.4,64,18.4,15.8,3,0,4,1,2026-03-11T22:27:06.894225+05:30
Kurnool,Andhra Pradesh,15.8281,78.0373,29.0,41,0.0,980.0,8.7,25.2,60,44.6,37.8,4,5,7,0,2026-03-11T22:27:06.894233+05:30
Kakinada,Andhra Pradesh,16.9891,82.2475,24.6,82,0.0,1010.4,8.65,25.9,82,18.6,15.5,3,0,4,1,2026-03-11T22:27:06.894239+05:30
Tirupati,Andhra Pradesh,13.6288,79.4192,24.4,71,0.0,995.5,9.0,32.4,78,24.3,23.1,3,5,7,1,2026-03-11T22:27:06.894246+05:30
Warangal,Telangana,17.9689,79.5941,27.7,51,0.0,981.3,8.45,23.4,81,56.6,51.0,4,5,7,1,2026-03-11T22:27:06.894253+05:30
Nizamabad,Telangana,18.6725,78.0941,25.5,48,0.0,967.3,8.35,26.6,119,51.1,45.6,4,5,7,0,2026-03-11T22:27:06.894259+05:30
Mysore,Karnataka,12.2958,76.6396,24.1,56,0.0,930.4,9.25,28.8,61,22.0,21.0,0,5,7,0,2026-03-11T22:27:06.894266+05:30
Mangalore,Karnataka,12.9141,74.856,29.0,80,0.0,1009.7,8.9,29.5,105,42.1,36.0,7,0,4,1,2026-03-11T22:27:06.894273+05:30
Hubli-Dharwad,Karnataka,15.3647,75.124,26.3,42,0.0,943.5,8.85,37.1,96,21.1,19.4,4,5,7,0,2026-03-11T22:27:06.894281+05:30
Belgaum,Karnataka,15.8497,74.4977,24.1,76,0.0,928.6,8.9,41.0,119,41.9,36.4,3,5,7,1,2026-03-11T22:27:10.207197+05:30
Coimbatore,Tamil Nadu,11.0168,76.9558,24.6,57,0.0,964.3,9.25,35.6,76,29.4,27.8,0,5,7,0,2026-03-11T22:27:10.207232+05:30
Madurai,Tamil Nadu,9.9252,78.1198,26.6,78,0.0,996.3,8.4,31.7,63,17.6,16.8,7,5,7,1,2026-03-11T22:27:10.207244+05:30
Trichy,Tamil Nadu,10.7905,78.7047,26.2,82,0.0,1003.1,9.15,28.8,65,19.3,18.2,7,5,4,1,2026-03-11T22:27:10.207254+05:30
Salem,Tamil Nadu,11.6643,78.146,26.4,73,0.0,979.9,9.15,19.8,69,17.5,16.5,7,5,7,1,2026-03-11T22:27:10.207263+05:30
Tirunelveli,Tamil Nadu,8.7139,77.7567,26.4,78,0.0,1006.4,6.2,25.9,53,17.7,16.1,7,5,4,1,2026-03-11T22:27:10.207272+05:30
Vellore,Tamil Nadu,12.9165,79.1325,25.2,79,0.0,988.4,9.1,34.6,89,29.2,27.8,7,5,7,1,2026-03-11T22:27:10.207280+05:30
Erode,Tamil Nadu,11.341,77.7172,27.4,63,0.0,991.7,9.15,18.7,78,21.8,20.9,7,5,7,1,2026-03-11T22:27:10.207289+05:30
Kochi,Kerala,9.9312,76.2673,28.3,81,0.0,1011.2,8.25,38.9,114,52.4,49.2,7,0,4,1,2026-03-11T22:27:10.207297+05:30
Thiruvananthapuram,Kerala,8.5241,76.9366,28.1,80,0.0,1010.3,7.3,25.6,84,20.6,17.5,7,0,4,1,2026-03-11T22:27:10.207306+05:30
Kozhikode,Kerala,11.2588,75.7804,28.8,82,0.0,1010.1,8.95,31.3,116,35.2,29.5,7,0,4,1,2026-03-11T22:27:10.207314+05:30
Thrissur,Kerala,10.5276,76.2144,27.4,85,0.0,1009.5,9.05,39.2,89,34.5,32.0,7,0,4,1,2026-03-11T22:27:10.207321+05:30
Kannur,Kerala,11.8745,75.3704,28.1,83,0.0,1009.8,8.95,38.9,125,40.5,34.3,7,0,4,1,2026-03-11T22:27:10.207328+05:30
Patna,Bihar,25.5941,85.1376,26.5,83,0.0,1003.1,6.85,24.8,200,179.3,167.6,7,5,4,1,2026-03-11T22:27:10.207336+05:30
Gaya,Bihar,24.7914,85.0002,26.2,79,0.0,996.7,7.5,21.6,176,167.2,153.7,7,5,7,1,2026-03-11T22:27:10.207343+05:30
Muzaffarpur,Bihar,26.1209,85.3647,25.1,81,0.0,1003.1,7.35,22.0,216,179.7,168.1,7,5,4,1,2026-03-11T22:27:10.207349+05:30
Bhagalpur,Bihar,25.2425,87.0117,25.3,89,0.0,1004.1,7.15,18.4,175,111.3,104.1,7,5,4,1,2026-03-11T22:27:10.207356+05:30
Ranchi,Jharkhand,23.3441,85.3096,23.4,63,0.0,940.6,8.15,28.1,170,95.5,83.4,3,5,7,0,2026-03-11T22:27:10.207362+05:30
Jamshedpur,Jharkhand,22.8046,86.2029,25.4,81,0.0,994.5,8.05,27.0,162,84.3,74.3,7,5,7,1,2026-03-11T22:27:10.207369+05:30
Dhanbad,Jharkhand,23.7957,86.4304,24.3,80,0.0,983.2,7.6,28.4,196,127.1,119.2,3,5,7,1,2026-03-11T22:27:10.207375+05:30
Bokaro,Jharkhand,23.6693,86.1511,24.6,83,0.0,987.5,7.7,37.8,193,120.6,110.1,3,5,7,1,2026-03-11T22:27:10.207381+05:30
Bhubaneswar,Odisha,20.2961,85.8245,26.1,86,0.0,1005.5,8.35,28.4,101,25.1,21.9,7,5,4,1,2026-03-11T22:27:10.207388+05:30
Cuttack,Odisha,20.4625,85.8828,26.2,88,0.0,1007.5,8.4,26.3,101,25.1,21.9,7,5,4,1,2026-03-11T22:27:10.207394+05:30
Rourkela,Odisha,22.2604,84.8536,26.6,65,0.0,987.4,7.95,27.4,163,92.2,78.0,7,5,7,1,2026-03-11T22:27:10.207401+05:30
Raipur,Chhattisgarh,21.2514,81.6296,27.0,40,0.0,977.0,8.05,24.1,156,127.1,103.1,4,5,7,0,2026-03-11T22:27:10.207407+05:30
Bhilai,Chhattisgarh,21.1938,81.3509,25.1,40,0.0,977.4,8.05,19.1,152,116.9,92.9,4,5,7,0,2026-03-11T22:27:10.207414+05:30
Guwahati,Assam,26.1158,91.7086,24.8,85,0.0,1003.5,7.35,19.4,152,70.3,65.2,3,5,4,1,2026-03-11T22:27:10.207420+05:30
Agartala,Tripura,23.8315,91.2868,23.5,86,0.0,1009.4,7.7,15.8,175,84.5,78.7,3,0,4,1,2026-03-11T22:27:10.207426+05:30
Shillong,Meghalaya,25.5788,91.8933,13.3,94,0.0,857.7,6.65,31.3,119,42.6,40.0,3,10,7,0,2026-03-11T22:27:10.207433+05:30
Imphal,Manipur,24.817,93.9368,18.9,82,0.0,925.7,7.95,40.3,159,110.4,103.4,3,10,7,0,2026-03-11T22:27:10.207440+05:30
Aizawl,Mizoram,23.7271,92.7176,16.9,90,0.0,895.0,7.9,27.4,188,146.2,141.1,3,10,7,0,2026-03-11T22:27:10.207447+05:30
Kohima,Nagaland,25.6701,94.1077,15.3,91,0.0,856.7,7.05,32.8,151,75.9,71.7,3,10,7,0,2026-03-11T22:27:10.207453+05:30
Gangtok,Sikkim,27.3314,88.6138,15.4,89,0.0,839.2,6.3,19.8,122,59.5,54.8,3,10,7,0,2026-03-11T22:27:10.207459+05:30
Siliguri,West Bengal,26.7271,88.3953,21.6,71,0.0,996.6,7.35,21.2,170,115.7,105.0,3,5,7,1,2026-03-11T22:27:13.513739+05:30
Durgapur,West Bengal,23.5204,87.3119,24.2,87,0.0,998.5,7.6,20.5,164,101.3,95.0,3,5,7,1,2026-03-11T22:27:13.513770+05:30
Asansol,West Bengal,23.6739,86.9524,23.8,85,0.0,997.0,7.85,20.2,173,108.3,101.5,3,5,7,1,2026-03-11T22:27:13.513780+05:30
Pondicherry,Puducherry,11.9139,79.8145,25.2,93,0.0,1012.0,9.0,31.3,59,20.9,16.7,7,0,4,1,2026-03-11T22:27:13.513788+05:30
Port Blair,Andaman and Nicobar Islands,11.6234,92.7265,28.0,78,0.0,1009.6,8.95,20.2,57,14.5,11.7,7,0,4,1,2026-03-11T22:27:13.513796+05:30
Haridwar,Uttarakhand,29.9457,78.1642,20.7,77,0.0,976.5,5.85,38.5,151,73.1,43.9,3,5,3,1,2026-03-11T22:27:13.513803+05:30
Rishikesh,Uttarakhand,30.0869,78.2676,20.1,73,0.0,969.4,5.95,36.4,134,54.2,33.2,3,5,3,0,2026-03-11T22:27:13.513812+05:30
Nainital,Uttarakhand,29.3919,79.4542,19.0,46,0.0,808.1,6.8,64.4,159,35.6,26.0,0,5,7,0,2026-03-11T22:27:13.513820+05:30
Mussoorie,Uttarakhand,30.4599,78.0664,17.3,61,0.0,804.8,6.0,38.9,129,57.9,40.5,3,5,3,0,2026-03-11T22:27:13.513827+05:30
Dharamshala,Himachal Pradesh,32.219,76.3234,21.3,31,0.0,872.5,5.4,25.9,57,21.7,11.9,0,5,3,0,2026-03-11T22:27:13.513834+05:30
Dalhousie,Himachal Pradesh,32.5387,75.971,17.6,29,0.0,806.5,4.75,19.8,87,37.3,27.0,0,5,3,1,2026-03-11T22:27:13.513842+05:30
Patiala,Punjab,30.3398,76.3869,22.1,65,0.0,980.8,5.4,19.1,166,126.7,98.5,3,5,3,0,2026-03-11T22:27:13.513849+05:30
Bhatinda,Punjab,30.211,74.9455,23.3,68,0.0,986.4,6.6,25.2,149,101.5,76.1,3,5,7,1,2026-03-11T22:27:13.513856+05:30
Rohtak,Haryana,28.8955,76.6066,21.9,58,0.0,984.4,6.1,27.4,204,438.7,104.5,0,5,7,0,2026-03-11T22:27:13.513863+05:30
Panipat,Haryana,29.3909,76.9635,20.7,69,0.0,982.8,5.45,24.8,336,631.4,102.2,3,5,3,0,2026-03-11T22:27:13.513869+05:30
Mathura,Uttar Pradesh,27.4924,77.6737,22.2,60,0.0,989.3,6.4,21.2,335,633.3,103.8,0,5,7,0,2026-03-11T22:27:13.513876+05:30
Vrindavan,Uttar Pradesh,27.5823,77.7027,22.5,56,0.0,989.9,6.35,23.0,335,633.3,103.8,0,5,7,0,2026-03-11T22:27:13.513882+05:30
Ayodhya,Uttar Pradesh,26.7922,82.1998,23.5,77,0.0,997.7,6.8,25.2,185,82.2,54.4,3,5,7,1,2026-03-11T22:27:13.513889+05:30
Ratlam,Madhya Pradesh,23.3315,75.0367,24.7,42,0.0,957.5,7.55,19.8,97,37.7,31.7,0,5,7,0,2026-03-11T22:27:13.513896+05:30
Sagar,Madhya Pradesh,23.8388,78.7378,26.1,30,0.0,953.0,7.55,24.8,102,57.5,23.5,4,5,7,0,2026-03-11T22:27:13.513902+05:30
Satna,Madhya Pradesh,24.6005,80.8322,25.9,39,0.0,974.3,7.55,34.2,145,57.3,26.1,4,5,7,0,2026-03-11T22:27:13.513909+05:30
Akola,Maharashtra,20.7002,77.0082,27.9,40,0.0,977.5,8.0,14.4,152,42.0,34.0,4,5,7,0,2026-03-11T22:27:13.513916+05:30
Amravati,Maharashtra,20.9374,77.7796,27.4,49,0.0,969.6,8.0,11.9,146,43.2,30.4,4,5,7,0,2026-03-11T22:27:13.513923+05:30
Latur,Maharashtra,18.4088,76.5604,27.1,45,0.0,942.8,8.45,24.5,137,37.6,33.9,4,5,7,0,2026-03-11T22:27:13.513930+05:30
Nanded,Maharashtra,19.1383,77.3091,27.7,50,0.0,971.1,8.2,18.0,123,43.3,39.0,4,5,7,1,2026-03-11T22:27:13.513936+05:30
Gulbarga,Karnataka,17.3297,76.8343,29.2,47,0.0,961.8,8.5,21.6,100,37.3,31.2,4,5,7,1,2026-03-11T22:27:13.513942+05:30
Bidar,Karnataka,17.9104,77.5199,27.6,45,0.0,938.6,8.5,24.8,105,53.9,46.6,4,5,7,0,2026-03-11T22:27:13.513949+05:30
Hospet,Karnataka,15.2689,76.3909,28.2,45,0.0,958.5,8.8,28.4,81,25.1,23.1,4,5,7,0,2026-03-11T22:27:13.513955+05:30
Tirupur,Tamil Nadu,11.1085,77.3411,27.7,55,0.0,978.0,9.25,29.5,86,24.1,22.8,4,5,7,1,2026-03-11T22:27:13.513961+05:30
Alappuzha,Kerala,9.4981,76.3388,28.3,81,0.0,1011.4,8.25,37.8,106,45.5,40.6,7,0,4,1,2026-03-11T22:27:13.513967+05:30
Munnar,Kerala,10.0889,77.0595,20.8,80,0.0,858.6,8.0,27.4,60,27.9,26.8,3,5,7,1,2026-03-11T22:27:13.513974+05:30
Silchar,Assam,24.8333,92.7789,25.1,80,0.0,1008.1,7.65,20.2,174,125.3,115.9,7,0,4,1,2026-03-11T22:27:13.513981+05:30
Dibrugarh,Assam,27.4728,94.912,22.9,88,0.0,998.5,7.45,31.3,158,88.0,82.9,3,5,7,1,2026-03-11T22:27:13.513987+05:30
