city,state,latitude,longitude,temp,humidity,rain,pressure,uv_index,wind_gusts,aqi,pm10,pm2_5,mosquito_risk,arthritis_risk,migraine_risk,frizz_risk,updated_at
Delhi,Delhi,28.6139,77.209,32.9,27,0.0,979.4,7.45,34.9,169,373.5,66.1,0,5,7,0,2026-04-30T19:33:31.734787+05:30
Mumbai,Maharashtra,19.076,72.8777,29.4,78,0.0,1007.3,8.05,41.8,70,42.8,17.5,7,5,4,1,2026-04-30T19:33:31.734841+05:30
Bangalore,Karnataka,12.9716,77.5946,24.0,73,0.0,913.0,9.55,36.4,161,46.9,39.5,3,5,7,1,2026-04-30T19:33:31.734857+05:30
Hyderabad,Telangana,17.385,78.4867,36.8,20,0.0,951.5,9.25,35.3,153,42.4,36.1,0,5,10,0,2026-04-30T19:33:31.734868+05:30
Chennai,Tamil Nadu,13.0827,80.2707,30.9,80,0.0,1005.6,9.25,53.6,47,14.2,9.9,3,5,4,1,2026-04-30T19:33:31.734877+05:30
Kolkata,West Bengal,22.5726,88.3639,24.5,92,0.2,1008.4,8.75,30.2,61,19.7,16.5,6,0,4,1,2026-04-30T19:33:31.734887+05:30
Pune,Maharashtra,18.5204,73.8567,29.2,51,0.0,947.5,8.6,49.3,68,27.7,12.2,4,5,7,1,2026-04-30T19:33:31.734905+05:30
Ahmedabad,Gujarat,23.0225,72.5714,34.5,46,0.0,997.7,8.2,41.0,72,50.2,20.1,0,5,7,1,2026-04-30T19:33:31.734913+05:30
Jaipur,Rajasthan,26.9124,75.7873,34.2,19,0.0,955.4,8.05,46.4,172,351.1,53.3,0,5,7,0,2026-04-30T19:33:31.734921+05:30
Lucknow,Uttar Pradesh,26.8467,80.9462,29.0,52,0.0,992.0,7.6,41.8,177,61.2,36.8,4,5,7,1,2026-04-30T19:33:31.734929+05:30
Kanpur,Uttar Pradesh,26.4499,80.3319,29.5,57,0.0,989.7,7.55,45.7,186,160.7,48.0,4,5,7,1,2026-04-30T19:33:31.734936+05:30
Chandigarh,Chandigarh,30.7333,76.7794,27.5,39,0.0,965.9,7.35,37.1,129,144.8,36.1,4,5,7,0,2026-04-30T19:33:31.734943+05:30
Srinagar,Jammu and Kashmir,34.0837,74.7973,15.0,84,0.0,840.0,6.85,24.1,71,21.4,20.0,3,10,7,0,2026-04-30T19:33:31.734952+05:30
Jammu,Jammu and Kashmir,32.7266,74.857,25.4,54,0.0,969.1,8.3,36.7,112,21.9,14.6,4,5,7,0,2026-04-30T19:33:31.734959+05:30
Amritsar,Punjab,31.634,74.8723,26.9,51,0.0,977.1,8.05,38.2,133,33.2,21.1,4,5,7,0,2026-04-30T19:33:31.734967+05:30
Ludhiana,Punjab,30.901,75.8573,30.9,29,0.0,975.2,7.45,32.4,121,73.1,28.5,0,5,7,0,2026-04-30T19:33:31.734975+05:30
Jalandhar,Punjab,31.326,75.5762,28.0,47,0.0,975.9,7.85,26.6,122,41.4,23.9,4,5,7,0,2026-04-30T19:33:31.734985+05:30
Dehradun,Uttarakhand,30.6284,78.0322,13.1,87,0.0,827.7,7.7,46.8,74,22.6,17.3,3,10,7,0,2026-04-30T19:33:31.734994+05:30
Shimla,Himachal Pradesh,31.1048,77.1734,11.1,77,0.0,780.9,7.4,46.4,106,26.1,16.9,3,5,7,0,2026-04-30T19:33:31.735002+05:30
Manali,Himachal Pradesh,32.2396,77.1887,10.5,86,0.0,814.5,10.15,29.5,110,5.7,5.0,3,10,7,0,2026-04-30T19:33:31.735010+05:30
Gurgaon,Haryana,28.4595,77.0266,32.2,25,0.0,977.5,7.55,41.4,779,1683.8,184.9,0,5,7,0,2026-04-30T19:33:31.735017+05:30
Noida,Uttar Pradesh,28.5355,77.391,30.1,38,0.0,980.9,7.45,42.5,779,1683.8,184.9,0,5,7,0,2026-04-30T19:33:31.735024+05:30
Ghaziabad,Uttar Pradesh,28.6692,77.4538,30.7,34,0.0,979.4,7.45,56.2,148,290.6,56.3,0,5,7,0,2026-04-30T19:33:31.735032+05:30
Faridabad,Haryana,28.4089,77.3178,31.2,35,0.0,980.1,7.5,43.2,779,1683.8,184.9,0,5,7,0,2026-04-30T19:33:31.735039+05:30
Meerut,Uttar Pradesh,28.9845,77.7064,28.6,41,0.0,978.7,7.2,56.5,148,290.6,56.3,4,5,7,0,2026-04-30T19:33:31.735045+05:30
Agra,Uttar Pradesh,27.1767,78.0081,31.2,37,0.0,984.7,7.8,53.3,526,254.3,51.7,0,5,7,0,2026-04-30T19:33:31.735052+05:30
Varanasi,Uttar Pradesh,25.3176,82.9739,28.5,55,0.0,996.9,8.5,36.0,185,56.5,38.4,4,5,7,1,2026-04-30T19:33:31.735063+05:30
Prayagraj,Uttar Pradesh,25.4358,81.8463,28.9,52,0.0,994.3,7.55,34.9,169,64.3,35.5,4,5,7,1,2026-04-30T19:33:31.735071+05:30
Gorakhpur,Uttar Pradesh,26.7606,83.3732,27.0,58,0.0,997.0,8.25,45.7,116,42.8,24.4,4,5,7,1,2026-04-30T19:33:31.735077+05:30
Bareilly,Uttar Pradesh,28.367,79.4304,28.6,45,0.0,984.9,7.7,48.2,159,106.9,43.3,4,5,7,0,2026-04-30T19:33:31.735083+05:30
Aligarh,Uttar Pradesh,27.8974,78.088,31.0,36,0.0,982.5,7.6,40.3,266,309.2,61.2,0,5,7,0,2026-04-30T19:33:31.735090+05:30
Moradabad,Uttar Pradesh,28.8386,78.7733,28.4,43,0.0,981.6,7.55,50.0,179,134.6,54.9,4,5,7,0,2026-04-30T19:33:31.735096+05:30
Saharanpur,Uttar Pradesh,29.9637,77.546,26.7,53,0.0,973.3,6.2,66.2,124,101.7,37.6,4,5,7,1,2026-04-30T19:33:31.735102+05:30
Jhansi,Uttar Pradesh,25.4484,78.5685,30.7,41,0.0,975.4,8.3,54.4,89,75.0,24.6,0,5,7,0,2026-04-30T19:33:35.018172+05:30
Surat,Gujarat,21.1702,72.8311,29.2,80,0.0,1004.3,7.8,51.1,64,36.1,18.9,7,5,4,1,2026-04-30T19:33:35.018207+05:30
Vadodara,Gujarat,22.3072,73.1812,32.7,55,0.0,1000.9,8.15,45.7,72,28.6,16.4,0,5,4,1,2026-04-30T19:33:35.018262+05:30
Rajkot,Gujarat,22.3039,70.8022,35.0,34,0.0,990.7,7.9,46.1,61,33.1,14.2,0,5,7,1,2026-04-30T19:33:35.018270+05:30
Thane,Maharashtra,19.2183,72.9781,29.9,73,0.0,1006.6,8.05,38.9,70,42.8,17.5,7,5,4,1,2026-04-30T19:33:35.018277+05:30
Nagpur,Maharashtra,21.1458,79.0882,37.5,16,0.0,969.6,8.9,53.6,91,39.6,20.6,0,5,10,0,2026-04-30T19:33:35.018284+05:30
Nashik,Maharashtra,19.9975,73.7898,28.7,48,0.0,944.7,8.3,53.3,64,39.0,13.9,4,5,7,1,2026-04-30T19:33:35.018292+05:30
Aurangabad,Maharashtra,19.8762,75.3433,34.2,19,0.0,942.6,9.05,53.3,85,35.5,15.3,0,5,7,0,2026-04-30T19:33:35.018298+05:30
Solapur,Maharashtra,17.6599,75.9064,36.4,18,0.0,954.3,9.1,40.3,100,26.1,19.4,0,5,10,0,2026-04-30T19:33:35.018305+05:30
Kolhapur,Maharashtra,16.705,74.2433,29.0,43,0.0,947.7,9.0,43.6,57,18.1,11.7,4,5,7,0,2026-04-30T19:33:35.018312+05:30
Goa,Goa,15.2993,74.124,30.1,75,0.0,997.3,8.95,36.4,57,25.8,13.8,3,5,7,1,2026-04-30T19:33:35.018319+05:30
Jodhpur,Rajasthan,26.2389,73.0243,36.2,25,0.0,977.2,8.3,39.2,128,284.1,46.8,0,5,10,0,2026-04-30T19:33:35.018326+05:30
Udaipur,Rajasthan,24.5854,73.7125,33.2,24,0.0,943.3,8.8,46.8,68,53.2,18.4,0,5,7,0,2026-04-30T19:33:35.018334+05:30
Kota,Rajasthan,25.2138,75.8648,35.2,17,0.0,973.8,8.3,43.9,83,98.3,32.1,0,5,10,0,2026-04-30T19:33:35.018340+05:30
Bikaner,Rajasthan,28.0229,73.3119,37.0,13,0.0,975.2,8.2,47.2,83,82.2,17.3,0,5,10,0,2026-04-30T19:33:35.018347+05:30
Ajmer,Rajasthan,26.4499,74.6399,33.3,24,0.0,950.8,8.25,50.4,82,106.2,25.3,0,5,7,0,2026-04-30T19:33:35.018353+05:30
Gwalior,Madhya Pradesh,26.2183,78.1828,32.4,31,0.0,980.2,8.05,38.2,110,118.3,31.0,0,5,7,0,2026-04-30T19:33:35.018359+05:30
Indore,Madhya Pradesh,22.7196,75.8577,34.8,21,0.0,945.9,8.6,45.0,77,49.0,20.7,0,5,7,0,2026-04-30T19:33:35.018366+05:30
Bhopal,Madhya Pradesh,23.2599,77.4126,33.5,26,0.0,950.7,8.6,59.0,72,47.0,18.6,0,5,7,0,2026-04-30T19:33:35.018373+05:30
Jabalpur,Madhya Pradesh,23.1815,79.9864,30.2,36,0.0,960.1,8.7,43.6,93,66.8,24.7,0,5,7,0,2026-04-30T19:33:35.018379+05:30
Ujjain,Madhya Pradesh,23.1765,75.7885,35.0,21,0.0,951.2,8.55,48.6,73,49.6,21.1,0,5,7,0,2026-04-30T19:33:35.018387+05:30
Visakhapatnam,Andhra Pradesh,17.6868,83.2185,29.5,83,0.0,1002.2,9.1,55.8,59,20.0,15.9,7,5,4,1,2026-04-30T19:33:35.018393+05:30
Vijayawada,Andhra Pradesh,16.5062,80.648,31.4,74,0.0,1000.7,9.2,50.4,106,23.3,21.3,3,5,4,1,2026-04-30T19:33:35.018399+05:30
Guntur,Andhra Pradesh,16.3067,80.4365,32.6,67,0.0,1001.7,9.2,39.2,135,31.3,28.6,3,5,4,1,2026-04-30T19:33:35.018405+05:30
Nellore,Andhra Pradesh,14.4426,79.9865,30.8,79,0.0,1004.0,9.2,42.5,106,18.5,15.0,3,5,4,1,2026-04-30T19:33:35.018412+05:30
Kurnool,Andhra Pradesh,15.8281,78.0373,35.7,28,0.0,974.8,9.2,35.3,160,43.5,35.5,0,5,10,0,2026-04-30T19:33:35.018419+05:30
Kakinada,Andhra Pradesh,16.9891,82.2475,29.6,71,0.0,1006.0,9.15,40.0,51,16.4,12.0,7,5,4,1,2026-04-30T19:33:35.018425+05:30
Tirupati,Andhra Pradesh,13.6288,79.4192,34.1,39,0.0,989.4,9.3,39.6,127,40.7,36.2,0,5,7,1,2026-04-30T19:33:35.018431+05:30
Warangal,Telangana,17.9689,79.5941,35.3,23,0.0,975.5,9.15,37.1,148,38.9,35.0,0,5,10,0,2026-04-30T19:33:35.018437+05:30
Nizamabad,Telangana,18.6725,78.0941,35.4,16,0.0,960.8,9.1,42.8,92,37.8,28.3,0,5,10,0,2026-04-30T19:33:35.018443+05:30
Mysore,Karnataka,12.2958,76.6396,26.0,68,0.0,929.4,9.4,60.1,114,25.8,22.2,7,5,7,1,2026-04-30T19:33:35.018449+05:30
Mangalore,Karnataka,12.9141,74.856,30.7,69,0.0,1006.5,9.05,41.4,66,34.2,18.3,3,5,4,1,2026-04-30T19:33:35.018455+05:30
Hubli-Dharwad,Karnataka,15.3647,75.124,28.5,63,0.0,940.4,9.2,37.4,83,16.6,13.6,7,5,7,1,2026-04-30T19:33:35.018462+05:30
Belgaum,Karnataka,15.8497,74.4977,26.3,72,0.0,925.7,9.2,38.9,57,16.4,11.6,7,5,7,1,2026-04-30T19:33:38.385106+05:30
Coimbatore,Tamil Nadu,11.0168,76.9558,28.1,69,0.0,961.6,9.35,55.4,81,22.3,17.8,7,5,7,1,2026-04-30T19:33:38.385142+05:30
Madurai,Tamil Nadu,9.9252,78.1198,32.5,51,0.0,992.5,9.2,46.4,101,12.0,11.6,0,5,7,1,2026-04-30T19:33:38.385154+05:30
Trichy,Tamil Nadu,10.7905,78.7047,34.2,51,0.0,998.3,9.25,37.8,83,5.6,5.2,0,5,7,1,2026-04-30T19:33:38.385162+05:30
Salem,Tamil Nadu,11.6643,78.146,32.3,45,0.0,976.2,9.3,37.1,154,38.8,29.7,0,5,7,1,2026-04-30T19:33:38.385170+05:30
Tirunelveli,Tamil Nadu,8.7139,77.7567,32.5,53,0.0,1002.6,9.1,43.9,50,12.5,12.0,0,5,4,1,2026-04-30T19:33:38.385178+05:30
Vellore,Tamil Nadu,12.9165,79.1325,34.2,39,0.0,983.1,9.3,39.6,132,30.4,27.0,0,5,7,1,2026-04-30T19:33:38.385185+05:30
Erode,Tamil Nadu,11.341,77.7172,31.9,43,0.0,988.2,9.25,38.9,115,34.2,25.4,0,5,7,1,2026-04-30T19:33:38.385193+05:30
Kochi,Kerala,9.9312,76.2673,27.1,90,0.0,1009.3,8.85,32.4,64,23.4,18.9,7,0,4,1,2026-04-30T19:33:38.385200+05:30
Thiruvananthapuram,Kerala,8.5241,76.9366,25.1,96,0.0,1009.6,8.95,30.2,46,6.5,4.5,7,0,4,1,2026-04-30T19:33:38.385225+05:30
Kozhikode,Kerala,11.2588,75.7804,27.3,90,0.0,1008.0,8.9,40.3,55,27.9,16.2,7,0,4,1,2026-04-30T19:33:38.385232+05:30
Thrissur,Kerala,10.5276,76.2144,26.4,94,0.0,1007.6,8.8,40.3,71,22.3,19.4,7,5,4,1,2026-04-30T19:33:38.385240+05:30
Kannur,Kerala,11.8745,75.3704,28.3,82,0.0,1007.7,9.0,42.1,65,42.3,21.2,7,5,4,1,2026-04-30T19:33:38.385248+05:30
Patna,Bihar,25.5941,85.1376,27.0,62,0.0,1000.6,8.55,42.8,155,56.6,38.9,7,5,4,1,2026-04-30T19:33:38.385255+05:30
Gaya,Bihar,24.7914,85.0002,25.7,72,0.0,993.2,8.65,43.9,181,59.0,43.7,7,5,7,1,2026-04-30T19:33:38.385261+05:30
Muzaffarpur,Bihar,26.1209,85.3647,25.3,71,0.0,1001.1,8.55,43.2,115,64.3,37.6,7,5,4,1,2026-04-30T19:33:38.385268+05:30
Bhagalpur,Bihar,25.2425,87.0117,26.6,63,0.0,1001.8,8.55,38.2,140,68.5,46.3,7,5,4,1,2026-04-30T19:33:38.385274+05:30
Ranchi,Jharkhand,23.3441,85.3096,22.8,75,0.0,937.0,9.15,45.4,172,46.0,36.7,3,5,7,1,2026-04-30T19:33:38.385281+05:30
Jamshedpur,Jharkhand,22.8046,86.2029,23.8,92,0.0,990.6,8.95,36.7,174,39.9,36.1,3,5,7,1,2026-04-30T19:33:38.385287+05:30
Dhanbad,Jharkhand,23.7957,86.4304,23.9,89,0.0,979.1,8.9,40.3,172,67.5,61.5,3,5,7,1,2026-04-30T19:33:38.385295+05:30
Bokaro,Jharkhand,23.6693,86.1511,24.1,85,0.0,983.1,8.9,42.8,180,60.8,53.8,3,5,7,1,2026-04-30T19:33:38.385302+05:30
Bhubaneswar,Odisha,20.2961,85.8245,28.6,84,0.0,1000.9,9.05,45.0,79,12.5,10.1,7,5,4,1,2026-04-30T19:33:38.385309+05:30
Cuttack,Odisha,20.4625,85.8828,29.1,82,0.0,1002.7,9.1,40.3,79,12.5,10.1,7,5,4,1,2026-04-30T19:33:38.385316+05:30
Rourkela,Odisha,22.2604,84.8536,25.3,83,0.0,984.6,8.9,48.6,156,56.9,44.7,7,5,7,1,2026-04-30T19:33:38.385323+05:30
Raipur,Chhattisgarh,21.2514,81.6296,35.7,23,0.0,971.8,8.95,53.6,153,35.9,28.2,0,5,10,0,2026-04-30T19:33:38.385329+05:30
Bhilai,Chhattisgarh,21.1938,81.3509,34.5,26,0.0,971.9,8.95,55.4,137,36.2,27.1,0,5,7,0,2026-04-30T19:33:38.385335+05:30
Guwahati,Assam,26.1158,91.7086,21.4,91,0.0,1003.0,7.45,24.5,65,33.8,20.7,3,5,4,1,2026-04-30T19:33:38.385341+05:30
Agartala,Tripura,23.8315,91.2868,24.2,86,0.0,1007.2,5.5,37.8,104,41.6,38.3,3,5,0,1,2026-04-30T19:33:38.385348+05:30
Shillong,Meghalaya,25.5788,91.8933,14.6,93,0.0,855.8,7.65,32.8,57,25.8,19.3,3,10,7,0,2026-04-30T19:33:38.385354+05:30
Imphal,Manipur,24.817,93.9368,18.0,95,0.0,923.5,9.05,31.7,92,27.5,23.3,3,10,7,1,2026-04-30T19:33:38.385360+05:30
Aizawl,Mizoram,23.7271,92.7176,17.2,89,0.0,892.4,8.3,41.4,65,18.6,15.0,3,10,7,0,2026-04-30T19:33:38.385367+05:30
Kohima,Nagaland,25.6701,94.1077,15.4,97,0.0,854.2,5.0,31.0,60,22.6,15.1,3,10,3,0,2026-04-30T19:33:38.385374+05:30
Gangtok,Sikkim,27.3314,88.6138,11.7,99,0.2,835.7,5.5,31.7,72,14.1,9.8,6,10,3,0,2026-04-30T19:33:38.385381+05:30
Siliguri,West Bengal,26.7271,88.3953,22.2,80,0.0,994.4,8.4,36.0,81,32.7,19.7,3,5,7,1,2026-04-30T19:33:41.728316+05:30
Durgapur,West Bengal,23.5204,87.3119,23.1,95,1.0,993.0,8.85,46.4,138,40.7,36.3,6,5,7,1,2026-04-30T19:33:41.728351+05:30
Asansol,West Bengal,23.6739,86.9524,23.6,92,0.1,993.9,8.2,40.0,140,43.2,38.4,6,5,7,1,2026-04-30T19:33:41.728361+05:30
Pondicherry,Puducherry,11.9139,79.8145,30.5,82,0.0,1007.2,9.2,47.5,43,12.1,8.4,3,5,4,1,2026-04-30T19:33:41.728370+05:30
Port Blair,Andaman and Nicobar Islands,11.6234,92.7265,29.0,76,0.0,1008.2,8.9,28.8,35,8.4,7.8,7,0,4,1,2026-04-30T19:33:41.728378+05:30
Haridwar,Uttarakhand,29.9457,78.1642,24.8,64,0.0,971.7,7.2,38.2,126,90.8,32.7,3,5,7,1,2026-04-30T19:33:41.728385+05:30
Rishikesh,Uttarakhand,30.0869,78.2676,23.5,63,0.0,964.3,7.35,44.3,122,68.5,24.6,3,5,7,1,2026-04-30T19:33:41.728393+05:30
Nainital,Uttarakhand,29.3919,79.4542,11.1,90,0.0,802.0,7.95,36.0,119,70.8,28.8,3,10,7,0,2026-04-30T19:33:41.728401+05:30
Mussoorie,Uttarakhand,30.4599,78.0664,10.3,98,0.0,798.7,7.7,44.6,101,43.0,24.9,3,10,7,0,2026-04-30T19:33:41.728408+05:30
Dharamshala,Himachal Pradesh,32.219,76.3234,17.6,60,0.0,865.3,8.15,46.4,87,22.8,13.5,0,5,7,0,2026-04-30T19:33:41.728415+05:30
Dalhousie,Himachal Pradesh,32.5387,75.971,12.0,89,0.0,800.6,6.35,29.5,105,35.4,19.3,3,10,7,0,2026-04-30T19:33:41.728422+05:30
Patiala,Punjab,30.3398,76.3869,29.0,42,0.0,974.6,7.25,42.8,173,459.1,66.1,4,5,7,0,2026-04-30T19:33:41.728430+05:30
Bhatinda,Punjab,30.211,74.9455,31.1,31,0.0,979.6,8.05,40.0,148,43.7,21.5,0,5,7,0,2026-04-30T19:33:41.728436+05:30
Rohtak,Haryana,28.8955,76.6066,31.2,27,0.0,978.0,7.5,40.7,323,476.8,78.0,0,5,7,0,2026-04-30T19:33:41.728443+05:30
Panipat,Haryana,29.3909,76.9635,29.3,39,0.0,977.2,7.3,49.7,721,309.2,62.2,4,5,7,0,2026-04-30T19:33:41.728450+05:30
Mathura,Uttar Pradesh,27.4924,77.6737,31.4,35,0.0,983.1,7.7,60.8,534,430.3,66.6,0,5,7,0,2026-04-30T19:33:41.728456+05:30
Vrindavan,Uttar Pradesh,27.5823,77.7027,31.4,34,0.0,983.5,7.65,56.9,534,430.3,66.6,0,5,7,0,2026-04-30T19:33:41.728463+05:30
Ayodhya,Uttar Pradesh,26.7922,82.1998,28.0,53,0.0,994.5,7.7,38.2,149,47.7,30.0,4,5,7,1,2026-04-30T19:33:41.728469+05:30
Ratlam,Madhya Pradesh,23.3315,75.0367,33.8,24,0.0,952.1,8.5,43.9,77,51.0,20.3,0,5,7,0,2026-04-30T19:33:41.728475+05:30
Sagar,Madhya Pradesh,23.8388,78.7378,28.9,37,0.0,947.4,8.65,63.4,89,65.4,20.5,4,5,7,0,2026-04-30T19:33:41.728482+05:30
Satna,Madhya Pradesh,24.6005,80.8322,29.6,40,0.0,968.7,7.2,41.8,92,78.5,27.7,4,5,7,0,2026-04-30T19:33:41.728488+05:30
Akola,Maharashtra,20.7002,77.0082,36.2,16,0.0,971.7,8.85,45.7,58,41.6,16.8,0,5,10,0,2026-04-30T19:33:41.728495+05:30
Amravati,Maharashtra,20.9374,77.7796,36.4,14,0.0,964.1,8.85,49.3,62,36.8,15.2,0,5,10,0,2026-04-30T19:33:41.728502+05:30
Latur,Maharashtra,18.4088,76.5604,35.9,16,0.0,937.3,9.05,42.8,86,26.8,20.0,0,5,10,0,2026-04-30T19:33:41.728508+05:30
Nanded,Maharashtra,19.1383,77.3091,37.2,12,0.0,964.5,9.0,47.9,82,29.6,20.5,0,5,10,0,2026-04-30T19:33:41.728514+05:30
Gulbarga,Karnataka,17.3297,76.8343,36.0,20,0.0,956.5,9.1,46.8,119,29.2,21.9,0,5,10,0,2026-04-30T19:33:41.728520+05:30
Bidar,Karnataka,17.9104,77.5199,34.0,20,0.0,933.1,9.1,38.2,111,42.8,34.3,0,5,7,0,2026-04-30T19:33:41.728526+05:30
Hospet,Karnataka,15.2689,76.3909,28.9,57,0.0,954.3,9.25,56.5,128,28.4,24.3,4,5,7,1,2026-04-30T19:33:41.728532+05:30
Tirupur,Tamil Nadu,11.1085,77.3411,30.1,62,0.0,974.6,9.35,52.9,122,35.9,27.6,3,5,7,1,2026-04-30T19:33:41.728538+05:30
Alappuzha,Kerala,9.4981,76.3388,26.5,94,0.0,1009.5,9.0,34.2,59,21.9,17.2,7,0,4,1,2026-04-30T19:33:41.728544+05:30
Munnar,Kerala,10.0889,77.0595,18.4,99,0.0,857.4,8.95,25.2,78,20.9,18.9,3,10,7,1,2026-04-30T19:33:41.728549+05:30
Silchar,Assam,24.8333,92.7789,22.5,88,0.0,1006.5,5.05,26.6,108,47.6,37.1,3,5,0,1,2026-04-30T19:33:41.728555+05:30
Dibrugarh,Assam,27.4728,94.912,22.0,96,0.0,997.0,7.9,27.7,70,33.4,24.1,3,5,7,1,2026-04-30T19:33:41.728561+05:30
