city,state,latitude,longitude,temp,humidity,rain,pressure,uv_index,wind_gusts,aqi,pm10,pm2_5,no2,co,o3,so2,mosquito_risk,arthritis_risk,migraine_risk,frizz_risk,updated_at
Delhi,Delhi,28.6139,77.209,33.5,49,0.0,975.0,7.3,37.8,397,317.6,109.9,33.9,550.0,42.0,27.1,0,5,7,1,2026-06-30T05:36:38.463113+05:30
Mumbai,Maharashtra,19.076,72.8777,25.9,93,0.6,1004.4,1.15,37.1,47,9.3,5.8,7.3,134.0,49.0,6.4,10,5,0,1,2026-06-30T05:36:38.463158+05:30
Bangalore,Karnataka,12.9716,77.5946,20.7,89,0.0,909.9,8.2,60.8,18,2.4,2.0,5.4,144.0,40.0,3.0,3,5,7,1,2026-06-30T05:36:38.463172+05:30
Hyderabad,Telangana,17.385,78.4867,24.0,87,0.0,949.5,4.75,45.7,27,3.9,3.5,7.9,167.0,34.0,3.8,3,5,3,1,2026-06-30T05:36:38.463180+05:30
Chennai,Tamil Nadu,13.0827,80.2707,27.2,76,0.0,1004.3,7.75,45.4,52,6.2,5.4,12.6,256.0,35.0,9.1,7,5,4,1,2026-06-30T05:36:38.463188+05:30
Kolkata,West Bengal,22.5726,88.3639,27.4,95,0.0,999.7,6.9,27.7,108,67.5,66.8,23.4,491.0,61.0,13.8,7,5,7,1,2026-06-30T05:36:38.463195+05:30
Pune,Maharashtra,18.5204,73.8567,23.2,94,0.1,944.0,1.6,38.2,25,2.8,2.8,7.3,122.0,36.0,6.6,6,5,3,1,2026-06-30T05:36:38.463201+05:30
Ahmedabad,Gujarat,23.0225,72.5714,30.5,65,0.0,996.3,7.95,41.0,60,26.5,13.2,4.9,112.0,46.0,3.9,3,5,7,1,2026-06-30T05:36:38.463208+05:30
Jaipur,Rajasthan,26.9124,75.7873,30.6,52,0.0,953.0,8.15,42.1,144,410.7,72.6,6.3,143.0,52.0,3.6,0,5,7,1,2026-06-30T05:36:38.463215+05:30
Lucknow,Uttar Pradesh,26.8467,80.9462,28.5,85,0.0,986.4,5.75,28.1,120,38.3,33.1,12.7,305.0,77.0,6.0,7,5,3,1,2026-06-30T05:36:38.463224+05:30
Kanpur,Uttar Pradesh,26.4499,80.3319,29.7,80,0.0,984.0,5.7,28.4,137,40.0,30.2,15.7,225.0,62.0,6.3,7,5,3,1,2026-06-30T05:36:38.463230+05:30
Chandigarh,Chandigarh,30.7333,76.7794,30.4,63,0.0,961.1,7.8,37.1,125,53.1,42.8,20.6,220.0,54.0,8.0,3,5,7,1,2026-06-30T05:36:38.463236+05:30
Srinagar,Jammu and Kashmir,34.0837,74.7973,19.1,82,0.0,835.7,9.1,23.4,92,45.6,39.8,30.1,327.0,23.0,2.2,3,10,7,0,2026-06-30T05:36:38.463243+05:30
Jammu,Jammu and Kashmir,32.7266,74.857,26.1,80,0.1,964.4,8.65,41.4,141,68.9,55.2,20.2,227.0,57.0,5.3,10,5,7,1,2026-06-30T05:36:38.463248+05:30
Amritsar,Punjab,31.634,74.8723,29.2,72,0.0,971.8,8.5,31.3,151,89.9,65.7,28.7,272.0,43.0,9.0,7,5,7,1,2026-06-30T05:36:38.463254+05:30
Ludhiana,Punjab,30.901,75.8573,31.6,55,0.0,969.7,7.85,29.5,160,268.2,96.4,22.9,248.0,59.0,14.9,0,5,7,1,2026-06-30T05:36:38.463260+05:30
Jalandhar,Punjab,31.326,75.5762,30.8,62,0.0,971.3,7.15,27.4,155,129.0,74.3,23.5,234.0,57.0,16.4,3,5,7,1,2026-06-30T05:36:38.463267+05:30
Dehradun,Uttarakhand,30.6284,78.0322,17.6,100,0.0,826.0,5.1,28.8,67,20.1,16.3,14.1,247.0,50.0,0.7,3,10,3,1,2026-06-30T05:36:38.463286+05:30
Shimla,Himachal Pradesh,31.1048,77.1734,14.7,95,0.0,779.6,4.35,38.5,87,37.7,29.2,11.3,193.0,62.0,0.6,3,10,3,0,2026-06-30T05:36:38.463292+05:30
Manali,Himachal Pradesh,32.2396,77.1887,19.4,73,0.0,816.4,7.9,36.0,58,5.2,4.4,44.9,224.0,32.0,0.0,3,5,7,0,2026-06-30T05:36:38.463300+05:30
Gurgaon,Haryana,28.4595,77.0266,31.8,50,0.0,973.3,7.0,39.2,602,478.7,118.7,27.9,324.0,31.0,11.8,0,5,7,1,2026-06-30T05:36:38.463305+05:30
Noida,Uttar Pradesh,28.5355,77.391,29.4,76,0.0,976.5,7.6,26.3,602,478.7,118.7,27.9,377.0,31.0,11.8,7,5,7,1,2026-06-30T05:36:38.463313+05:30
Ghaziabad,Uttar Pradesh,28.6692,77.4538,29.8,75,0.0,974.8,7.4,32.8,177,245.9,84.3,15.3,380.0,80.0,13.6,7,5,7,1,2026-06-30T05:36:38.463319+05:30
Faridabad,Haryana,28.4089,77.3178,30.5,70,0.0,975.8,7.6,37.8,602,478.7,118.7,27.9,594.0,31.0,11.8,3,5,7,1,2026-06-30T05:36:38.463325+05:30
Meerut,Uttar Pradesh,28.9845,77.7064,30.0,78,0.0,974.0,7.1,32.0,177,245.9,84.3,15.3,355.0,80.0,13.6,7,5,7,1,2026-06-30T05:36:38.463331+05:30
Agra,Uttar Pradesh,27.1767,78.0081,31.6,54,0.0,979.7,7.55,34.6,455,78.7,32.5,16.1,215.0,44.0,6.3,0,5,7,1,2026-06-30T05:36:38.463336+05:30
Varanasi,Uttar Pradesh,25.3176,82.9739,27.2,96,0.4,990.8,8.05,24.5,73,21.6,19.3,17.0,476.0,63.0,11.1,10,5,7,1,2026-06-30T05:36:38.463341+05:30
Prayagraj,Uttar Pradesh,25.4358,81.8463,27.7,91,0.3,988.8,8.2,44.3,73,33.8,29.0,19.7,296.0,50.0,8.0,10,5,7,1,2026-06-30T05:36:38.463347+05:30
Gorakhpur,Uttar Pradesh,26.7606,83.3732,25.4,97,0.2,991.3,7.7,43.2,114,27.3,23.4,6.2,398.0,110.0,3.2,10,5,7,1,2026-06-30T05:36:38.463352+05:30
Bareilly,Uttar Pradesh,28.367,79.4304,27.3,93,0.1,980.1,8.1,34.6,132,38.0,29.6,8.2,297.0,102.0,3.6,10,5,7,1,2026-06-30T05:36:38.463359+05:30
Aligarh,Uttar Pradesh,27.8974,78.088,27.2,92,0.3,977.7,7.6,46.8,338,212.3,85.7,21.4,407.0,60.0,11.3,10,5,7,1,2026-06-30T05:36:38.463364+05:30
Moradabad,Uttar Pradesh,28.8386,78.7733,26.9,88,0.0,976.8,6.65,32.0,155,49.8,38.2,10.1,311.0,104.0,9.1,7,5,7,1,2026-06-30T05:36:38.463369+05:30
Saharanpur,Uttar Pradesh,29.9637,77.546,28.5,79,0.0,968.4,7.5,34.6,155,74.3,61.0,7.2,274.0,113.0,9.2,7,5,7,1,2026-06-30T05:36:38.463374+05:30
Jhansi,Uttar Pradesh,25.4484,78.5685,30.8,61,0.0,970.8,7.35,40.3,82,20.7,15.2,8.3,164.0,63.0,9.0,3,5,7,1,2026-06-30T05:36:41.781419+05:30
Surat,Gujarat,21.1702,72.8311,25.9,99,0.2,1001.8,4.5,46.1,68,24.4,19.0,28.8,322.0,20.0,42.9,10,5,0,1,2026-06-30T05:36:41.781451+05:30
Vadodara,Gujarat,22.3072,73.1812,29.9,68,0.0,998.6,6.2,51.1,61,16.9,12.7,15.7,136.0,27.0,14.3,7,5,7,1,2026-06-30T05:36:41.781459+05:30
Rajkot,Gujarat,22.3039,70.8022,28.9,71,0.0,988.5,6.8,45.0,56,23.8,11.9,4.2,95.0,46.0,4.2,7,5,7,1,2026-06-30T05:36:41.781466+05:30
Thane,Maharashtra,19.2183,72.9781,25.2,97,0.1,1003.8,1.05,26.6,47,9.3,5.8,7.3,149.0,49.0,6.4,10,5,0,1,2026-06-30T05:36:41.781472+05:30
Nagpur,Maharashtra,21.1458,79.0882,24.7,97,0.1,968.3,4.5,34.9,76,21.4,18.4,11.5,206.0,63.0,7.5,6,5,3,1,2026-06-30T05:36:41.781478+05:30
Nashik,Maharashtra,19.9975,73.7898,23.3,92,0.0,941.0,6.85,46.1,40,6.4,5.3,11.8,120.0,31.0,14.6,3,5,7,1,2026-06-30T05:36:41.781483+05:30
Aurangabad,Maharashtra,19.8762,75.3433,23.6,86,0.0,939.8,5.55,40.7,42,21.9,13.6,10.6,172.0,45.0,13.6,3,5,3,1,2026-06-30T05:36:41.781489+05:30
Solapur,Maharashtra,17.6599,75.9064,24.0,91,0.0,954.0,7.2,48.2,20,3.6,3.3,6.7,134.0,35.0,2.2,3,5,7,1,2026-06-30T05:36:41.781495+05:30
Kolhapur,Maharashtra,16.705,74.2433,22.6,95,0.0,945.1,7.55,56.9,21,2.0,1.9,3.2,116.0,46.0,1.5,3,5,7,1,2026-06-30T05:36:41.781501+05:30
Goa,Goa,15.2993,74.124,24.5,98,0.5,997.0,2.85,26.6,29,11.8,6.6,1.4,174.0,51.0,0.5,6,5,3,1,2026-06-30T05:36:41.781507+05:30
Jodhpur,Rajasthan,26.2389,73.0243,30.3,56,0.0,976.4,8.4,45.0,148,344.6,80.8,3.0,107.0,52.0,3.6,0,5,7,1,2026-06-30T05:36:41.781513+05:30
Udaipur,Rajasthan,24.5854,73.7125,26.1,71,0.0,940.4,8.9,35.6,56,23.2,15.8,8.7,123.0,44.0,7.2,7,5,7,1,2026-06-30T05:36:41.781519+05:30
Kota,Rajasthan,25.2138,75.8648,29.7,63,0.0,971.8,8.35,37.4,67,21.7,17.0,8.0,167.0,57.0,7.5,7,5,7,1,2026-06-30T05:36:41.781524+05:30
Bikaner,Rajasthan,28.0229,73.3119,32.4,51,0.0,973.9,8.5,39.6,154,427.5,134.6,1.8,100.0,56.0,2.2,0,5,7,1,2026-06-30T05:36:41.781529+05:30
Ajmer,Rajasthan,26.4499,74.6399,29.0,58,0.0,948.3,8.35,47.9,73,44.8,17.7,5.3,141.0,54.0,3.1,4,5,7,1,2026-06-30T05:36:41.781535+05:30
Gwalior,Madhya Pradesh,26.2183,78.1828,31.6,55,0.0,975.6,7.0,40.7,91,20.4,15.1,7.9,159.0,63.0,7.5,0,5,7,1,2026-06-30T05:36:41.781540+05:30
Indore,Madhya Pradesh,22.7196,75.8577,24.2,91,0.3,942.8,6.15,36.0,67,24.0,17.9,9.2,175.0,52.0,8.7,6,5,7,1,2026-06-30T05:36:41.781546+05:30
Bhopal,Madhya Pradesh,23.2599,77.4126,24.9,93,0.0,948.1,8.6,40.0,71,23.1,19.0,9.1,255.0,56.0,5.5,3,5,7,1,2026-06-30T05:36:41.781551+05:30
Jabalpur,Madhya Pradesh,23.1815,79.9864,25.6,91,0.0,956.1,5.25,40.0,62,26.1,20.7,8.4,202.0,63.0,2.9,7,5,3,1,2026-06-30T05:36:41.781556+05:30
Ujjain,Madhya Pradesh,23.1765,75.7885,24.6,91,0.4,948.4,6.95,41.0,66,22.4,15.9,7.8,174.0,51.0,8.2,6,5,7,1,2026-06-30T05:36:41.781562+05:30
Visakhapatnam,Andhra Pradesh,17.6868,83.2185,27.9,84,0.0,998.2,8.7,36.0,65,15.7,13.8,16.0,330.0,68.0,28.2,7,5,7,1,2026-06-30T05:36:41.781567+05:30
Vijayawada,Andhra Pradesh,16.5062,80.648,28.3,71,0.0,998.1,6.25,46.1,55,9.8,9.5,11.4,183.0,38.0,4.4,7,5,7,1,2026-06-30T05:36:41.781572+05:30
Guntur,Andhra Pradesh,16.3067,80.4365,27.9,72,0.0,999.5,6.45,46.8,51,8.8,8.3,11.9,165.0,33.0,5.2,7,5,7,1,2026-06-30T05:36:41.781578+05:30
Nellore,Andhra Pradesh,14.4426,79.9865,27.6,74,0.0,1002.6,7.55,54.4,34,4.1,3.0,5.6,158.0,41.0,4.1,7,5,4,1,2026-06-30T05:36:41.781584+05:30
Kurnool,Andhra Pradesh,15.8281,78.0373,25.4,78,0.0,974.4,7.05,54.4,20,2.6,2.2,5.4,120.0,40.0,1.6,7,5,7,1,2026-06-30T05:36:41.781591+05:30
Kakinada,Andhra Pradesh,16.9891,82.2475,26.8,90,0.0,1002.2,8.35,43.6,48,12.5,9.7,4.7,202.0,100.0,5.3,7,5,4,1,2026-06-30T05:36:41.781596+05:30
Tirupati,Andhra Pradesh,13.6288,79.4192,26.7,71,0.0,988.4,8.1,48.6,28,2.5,2.0,4.4,116.0,42.0,1.2,7,5,7,1,2026-06-30T05:36:41.781601+05:30
Warangal,Telangana,17.9689,79.5941,25.9,86,0.0,974.6,3.35,37.8,46,8.2,8.0,10.3,194.0,42.0,3.5,7,5,3,1,2026-06-30T05:36:41.781607+05:30
Nizamabad,Telangana,18.6725,78.0941,25.1,88,0.0,960.7,2.95,39.2,55,10.2,9.5,9.4,184.0,50.0,5.2,7,5,3,1,2026-06-30T05:36:41.781612+05:30
Mysore,Karnataka,12.2958,76.6396,21.3,90,0.0,927.4,6.55,54.7,19,1.8,1.5,3.2,101.0,42.0,1.3,3,5,7,1,2026-06-30T05:36:41.781617+05:30
Mangalore,Karnataka,12.9141,74.856,24.6,94,0.4,1007.4,5.95,39.6,29,13.2,7.5,2.9,134.0,39.0,1.1,6,5,0,1,2026-06-30T05:36:41.781622+05:30
Hubli-Dharwad,Karnataka,15.3647,75.124,22.0,98,0.0,938.7,6.55,60.8,21,0.8,0.7,2.1,101.0,45.0,0.7,3,5,7,1,2026-06-30T05:36:41.781628+05:30
Belgaum,Karnataka,15.8497,74.4977,21.2,96,0.0,923.1,6.0,61.6,20,1.3,1.3,3.0,105.0,46.0,1.2,3,5,3,1,2026-06-30T05:36:45.106388+05:30
Coimbatore,Tamil Nadu,11.0168,76.9558,22.1,96,0.0,960.2,8.2,59.0,18,4.0,3.2,5.4,157.0,33.0,2.3,3,5,7,1,2026-06-30T05:36:45.106420+05:30
Madurai,Tamil Nadu,9.9252,78.1198,26.4,70,0.0,991.1,7.4,29.2,54,28.5,25.9,29.0,230.0,1.0,6.0,7,5,7,1,2026-06-30T05:36:45.106429+05:30
Trichy,Tamil Nadu,10.7905,78.7047,27.1,70,0.0,998.0,8.15,61.9,22,4.8,3.6,4.2,104.0,41.0,2.3,7,5,7,1,2026-06-30T05:36:45.106437+05:30
Salem,Tamil Nadu,11.6643,78.146,24.1,93,0.0,976.1,7.3,37.4,40,14.0,12.1,18.0,224.0,22.0,7.8,3,5,7,1,2026-06-30T05:36:45.106444+05:30
Tirunelveli,Tamil Nadu,8.7139,77.7567,28.6,60,0.0,1001.8,8.6,50.0,22,8.5,4.5,2.8,184.0,41.0,1.3,4,5,4,1,2026-06-30T05:36:45.106450+05:30
Vellore,Tamil Nadu,12.9165,79.1325,26.3,70,0.0,981.8,8.35,52.2,22,4.0,3.1,5.7,141.0,41.0,2.4,7,5,7,1,2026-06-30T05:36:45.106457+05:30
Erode,Tamil Nadu,11.341,77.7172,24.6,82,0.0,988.1,8.2,43.2,38,13.1,11.8,13.2,150.0,29.0,3.5,3,5,7,1,2026-06-30T05:36:45.106463+05:30
Kochi,Kerala,9.9312,76.2673,25.0,96,0.0,1009.5,7.95,42.1,37,10.9,9.0,10.2,128.0,20.0,3.3,7,0,4,1,2026-06-30T05:36:45.106470+05:30
Thiruvananthapuram,Kerala,8.5241,76.9366,24.1,92,0.0,1008.3,8.35,52.9,29,10.9,6.6,4.2,155.0,40.0,2.1,3,0,4,1,2026-06-30T05:36:45.106476+05:30
Kozhikode,Kerala,11.2588,75.7804,23.6,99,0.0,1008.7,7.8,39.6,24,12.0,5.7,1.1,170.0,49.0,0.6,3,0,4,1,2026-06-30T05:36:45.106482+05:30
Thrissur,Kerala,10.5276,76.2144,23.3,99,0.0,1007.9,8.0,41.4,33,10.2,9.0,9.1,202.0,21.0,2.7,3,5,4,1,2026-06-30T05:36:45.106488+05:30
Kannur,Kerala,11.8745,75.3704,23.9,97,0.2,1008.1,8.15,40.7,26,6.6,3.6,3.7,145.0,38.0,1.0,6,0,4,1,2026-06-30T05:36:45.106494+05:30
Patna,Bihar,25.5941,85.1376,26.1,97,0.0,994.2,8.25,31.0,121,37.8,35.3,13.2,322.0,78.0,12.2,7,5,7,1,2026-06-30T05:36:45.106500+05:30
Gaya,Bihar,24.7914,85.0002,27.0,93,0.0,987.3,8.15,24.5,91,41.2,40.9,23.4,302.0,36.0,9.6,7,5,7,1,2026-06-30T05:36:45.106506+05:30
Muzaffarpur,Bihar,26.1209,85.3647,25.6,98,0.0,994.5,8.45,24.5,121,29.2,26.3,10.1,300.0,97.0,8.9,7,5,7,1,2026-06-30T05:36:45.106511+05:30
Bhagalpur,Bihar,25.2425,87.0117,26.2,96,0.1,995.5,7.55,21.2,139,33.5,32.7,11.8,374.0,81.0,8.8,10,5,7,1,2026-06-30T05:36:45.106517+05:30
Ranchi,Jharkhand,23.3441,85.3096,23.5,94,0.0,932.0,8.9,31.0,96,40.0,39.5,9.9,294.0,81.0,15.4,3,5,7,1,2026-06-30T05:36:45.106523+05:30
Jamshedpur,Jharkhand,22.8046,86.2029,26.3,96,0.0,984.9,8.5,32.8,151,53.6,53.0,19.3,462.0,69.0,26.2,7,5,7,1,2026-06-30T05:36:45.106528+05:30
Dhanbad,Jharkhand,23.7957,86.4304,26.1,95,0.0,973.7,8.4,21.6,161,119.0,118.3,79.3,397.0,16.0,151.7,7,5,7,1,2026-06-30T05:36:45.106533+05:30
Bokaro,Jharkhand,23.6693,86.1511,26.2,93,0.0,977.5,8.85,22.0,155,73.8,73.1,38.9,271.0,58.0,93.0,7,5,7,1,2026-06-30T05:36:45.106539+05:30
Bhubaneswar,Odisha,20.2961,85.8245,27.4,93,0.0,996.5,7.3,32.4,80,20.5,19.6,8.3,245.0,79.0,7.7,7,5,7,1,2026-06-30T05:36:45.106544+05:30
Cuttack,Odisha,20.4625,85.8828,27.9,93,0.0,998.3,8.05,33.5,80,20.5,19.6,8.3,231.0,79.0,7.7,7,5,7,1,2026-06-30T05:36:45.106550+05:30
Rourkela,Odisha,22.2604,84.8536,26.3,97,0.1,979.8,8.8,37.4,97,33.1,32.2,10.5,307.0,71.0,8.2,10,5,7,1,2026-06-30T05:36:45.106556+05:30
Raipur,Chhattisgarh,21.2514,81.6296,26.1,89,0.0,969.7,4.9,32.0,87,41.9,39.0,34.3,451.0,54.0,45.4,7,5,3,1,2026-06-30T05:36:45.106561+05:30
Bhilai,Chhattisgarh,21.1938,81.3509,26.1,87,0.0,970.0,2.9,34.6,85,34.7,31.8,28.6,623.0,66.0,40.6,7,5,3,1,2026-06-30T05:36:45.106566+05:30
Guwahati,Assam,26.1158,91.7086,25.3,98,0.1,996.8,7.0,21.6,56,13.1,12.7,8.2,259.0,54.0,2.0,10,5,7,1,2026-06-30T05:36:45.106572+05:30
Agartala,Tripura,23.8315,91.2868,26.1,95,0.0,1000.5,6.95,25.6,54,13.3,12.2,12.2,164.0,32.0,3.7,7,5,4,1,2026-06-30T05:36:45.106578+05:30
Shillong,Meghalaya,25.5788,91.8933,20.4,92,0.0,854.0,7.2,18.0,31,2.4,2.3,3.6,196.0,65.0,2.0,3,5,7,1,2026-06-30T05:36:45.106583+05:30
Imphal,Manipur,24.817,93.9368,23.2,98,0.0,919.5,7.35,24.1,37,8.8,8.1,7.6,304.0,35.0,2.7,3,5,7,1,2026-06-30T05:36:45.106589+05:30
Aizawl,Mizoram,23.7271,92.7176,20.6,97,0.0,887.8,7.45,22.3,25,10.0,9.8,7.5,146.0,17.0,0.8,3,5,7,1,2026-06-30T05:36:45.106594+05:30
Kohima,Nagaland,25.6701,94.1077,20.2,93,0.0,852.6,7.35,24.5,22,4.5,4.2,4.8,206.0,36.0,0.7,3,5,7,1,2026-06-30T05:36:45.106599+05:30
Gangtok,Sikkim,27.3314,88.6138,18.6,99,0.0,834.6,6.15,27.0,46,7.3,6.9,3.8,338.0,101.0,1.8,3,10,7,1,2026-06-30T05:36:45.106604+05:30
Siliguri,West Bengal,26.7271,88.3953,24.3,99,0.2,988.1,6.15,21.2,56,22.9,22.0,9.3,357.0,97.0,4.9,6,5,7,1,2026-06-30T05:36:48.433165+05:30
Durgapur,West Bengal,23.5204,87.3119,26.7,97,0.0,989.4,9.0,32.4,167,142.0,141.1,53.5,1091.0,30.0,78.9,7,5,7,1,2026-06-30T05:36:48.433198+05:30
Asansol,West Bengal,23.6739,86.9524,26.8,97,0.0,987.6,8.8,25.6,160,121.1,120.1,63.1,555.0,18.0,90.5,7,5,7,1,2026-06-30T05:36:48.433208+05:30
Pondicherry,Puducherry,11.9139,79.8145,28.7,60,0.0,1005.9,8.1,46.4,52,9.1,7.5,9.5,161.0,38.0,3.0,4,5,4,1,2026-06-30T05:36:48.433216+05:30
Port Blair,Andaman and Nicobar Islands,11.6234,92.7265,27.4,86,0.0,1005.5,7.95,46.4,26,12.9,7.3,0.2,88.0,50.0,0.3,7,5,4,1,2026-06-30T05:36:48.433222+05:30
Haridwar,Uttarakhand,29.9457,78.1642,28.1,80,0.0,967.2,7.05,31.0,138,66.8,48.0,5.2,249.0,118.0,6.2,7,5,7,1,2026-06-30T05:36:48.433229+05:30
Rishikesh,Uttarakhand,30.0869,78.2676,25.7,96,0.0,959.9,6.9,27.4,116,51.7,32.6,4.6,234.0,115.0,2.7,7,5,7,1,2026-06-30T05:36:48.433235+05:30
Nainital,Uttarakhand,29.3919,79.4542,16.2,100,0.1,801.3,6.6,29.2,112,27.2,18.6,6.5,219.0,113.0,2.3,6,10,7,1,2026-06-30T05:36:48.433241+05:30
Mussoorie,Uttarakhand,30.4599,78.0664,17.5,92,0.2,799.7,5.3,40.0,102,30.0,24.4,12.4,259.0,75.0,3.9,6,10,3,1,2026-06-30T05:36:48.433246+05:30
Dharamshala,Himachal Pradesh,32.219,76.3234,21.4,91,0.2,864.6,6.55,28.1,72,10.7,8.6,11.6,253.0,65.0,0.3,6,5,7,1,2026-06-30T05:36:48.433252+05:30
Dalhousie,Himachal Pradesh,32.5387,75.971,17.7,97,0.1,801.0,8.7,27.7,109,50.8,35.9,9.8,245.0,96.0,2.4,6,10,7,1,2026-06-30T05:36:48.433258+05:30
Patiala,Punjab,30.3398,76.3869,30.6,69,0.0,969.7,7.5,38.2,175,793.5,153.2,19.2,393.0,61.0,13.4,3,5,7,1,2026-06-30T05:36:48.433264+05:30
Bhatinda,Punjab,30.211,74.9455,32.1,43,0.0,974.5,8.1,35.3,155,175.6,86.6,49.6,211.0,11.0,6.5,0,5,7,1,2026-06-30T05:36:48.433287+05:30
Rohtak,Haryana,28.8955,76.6066,31.6,49,0.0,973.3,7.55,34.6,682,495.5,117.8,31.7,215.0,20.0,9.3,0,5,7,1,2026-06-30T05:36:48.433293+05:30
Panipat,Haryana,29.3909,76.9635,30.2,70,0.0,972.3,7.0,27.7,844,1400.7,242.1,36.4,378.0,25.0,19.6,3,5,7,1,2026-06-30T05:36:48.433298+05:30
Mathura,Uttar Pradesh,27.4924,77.6737,31.3,56,0.0,978.9,7.1,32.8,404,209.5,49.2,18.7,300.0,40.0,4.6,0,5,7,1,2026-06-30T05:36:48.433304+05:30
Vrindavan,Uttar Pradesh,27.5823,77.7027,30.8,59,0.0,979.5,7.95,32.4,404,209.5,49.2,18.7,350.0,40.0,4.6,0,5,7,1,2026-06-30T05:36:48.433309+05:30
Ayodhya,Uttar Pradesh,26.7922,82.1998,26.6,93,0.0,989.0,7.25,27.7,101,33.8,26.4,9.1,405.0,96.0,3.2,7,5,7,1,2026-06-30T05:36:48.433315+05:30
Ratlam,Madhya Pradesh,23.3315,75.0367,25.4,86,0.0,949.5,5.5,40.7,63,20.5,13.8,7.8,154.0,47.0,8.4,7,5,3,1,2026-06-30T05:36:48.433320+05:30
Sagar,Madhya Pradesh,23.8388,78.7378,25.1,93,0.0,944.3,8.25,34.2,67,22.8,16.3,6.6,176.0,67.0,2.9,7,5,7,1,2026-06-30T05:36:48.433325+05:30
Satna,Madhya Pradesh,24.6005,80.8322,25.6,91,0.1,964.8,7.85,40.7,70,25.0,18.7,9.8,169.0,56.0,3.9,10,5,7,1,2026-06-30T05:36:48.433331+05:30
Akola,Maharashtra,20.7002,77.0082,26.1,89,0.0,970.4,1.85,34.6,59,21.2,14.0,11.5,153.0,41.0,11.1,7,5,3,1,2026-06-30T05:36:48.433337+05:30
Amravati,Maharashtra,20.9374,77.7796,24.8,94,0.0,962.4,2.0,39.2,62,19.2,13.4,11.6,156.0,45.0,12.0,3,5,3,1,2026-06-30T05:36:48.433343+05:30
Latur,Maharashtra,18.4088,76.5604,23.5,89,0.0,935.9,4.75,44.3,36,11.4,8.4,9.4,126.0,30.0,3.7,3,5,3,1,2026-06-30T05:36:48.433349+05:30
Nanded,Maharashtra,19.1383,77.3091,25.1,93,0.0,964.5,4.6,36.0,55,12.0,9.5,7.7,157.0,56.0,5.0,7,5,3,1,2026-06-30T05:36:48.433355+05:30
Gulbarga,Karnataka,17.3297,76.8343,24.0,86,0.0,955.6,4.6,51.5,19,2.9,2.6,6.0,132.0,38.0,2.7,3,5,3,1,2026-06-30T05:36:48.433360+05:30
Bidar,Karnataka,17.9104,77.5199,23.3,88,0.0,931.8,5.0,44.3,38,7.5,5.7,7.9,142.0,33.0,2.5,3,5,3,1,2026-06-30T05:36:48.433366+05:30
Hospet,Karnataka,15.2689,76.3909,23.2,91,0.0,953.7,6.25,58.0,20,1.3,1.1,2.8,100.0,45.0,1.2,3,5,7,1,2026-06-30T05:36:48.433372+05:30
Tirupur,Tamil Nadu,11.1085,77.3411,22.9,92,0.0,974.0,8.3,58.0,44,16.6,15.3,17.2,132.0,20.0,4.5,3,5,7,1,2026-06-30T05:36:48.433377+05:30
Alappuzha,Kerala,9.4981,76.3388,25.1,96,0.1,1009.6,8.25,43.9,32,13.7,7.9,5.6,83.0,37.0,2.7,10,0,4,1,2026-06-30T05:36:48.433382+05:30
Munnar,Kerala,10.0889,77.0595,16.5,99,0.1,856.1,6.85,52.6,15,2.5,1.8,2.6,87.0,30.0,0.6,6,10,7,1,2026-06-30T05:36:48.433388+05:30
Silchar,Assam,24.8333,92.7789,26.3,95,0.1,1000.1,8.35,27.4,62,22.0,20.4,9.4,240.0,43.0,3.7,10,5,4,1,2026-06-30T05:36:48.433393+05:30
Dibrugarh,Assam,27.4728,94.912,26.1,90,0.0,991.2,7.8,19.4,74,23.5,23.1,19.8,218.0,37.0,1.1,7,5,7,1,2026-06-30T05:36:48.433398+05:30
