city,state,latitude,longitude,temp,humidity,rain,pressure,uv_index,wind_gusts,aqi,pm10,pm2_5,mosquito_risk,arthritis_risk,migraine_risk,frizz_risk,updated_at
Delhi,Delhi,28.6139,77.209,38.1,13,0.0,978.6,7.3,28.8,172,556.9,56.3,0,5,10,0,2026-04-15T16:32:41.550013+05:30
Mumbai,Maharashtra,19.076,72.8777,29.7,75,0.0,1004.9,8.0,19.1,122,46.0,24.9,7,5,4,1,2026-04-15T16:32:41.550052+05:30
Bangalore,Karnataka,12.9716,77.5946,35.8,21,0.0,909.4,9.65,28.1,142,32.7,25.4,0,5,10,0,2026-04-15T16:32:41.550068+05:30
Hyderabad,Telangana,17.385,78.4867,39.8,18,0.0,949.2,9.25,31.3,142,32.9,26.0,0,5,10,0,2026-04-15T16:32:41.550078+05:30
Chennai,Tamil Nadu,13.0827,80.2707,34.5,52,0.0,1003.1,9.35,32.8,36,12.3,9.3,0,5,4,1,2026-04-15T16:32:41.550086+05:30
Kolkata,West Bengal,22.5726,88.3639,33.9,62,0.0,1001.1,8.85,27.7,90,43.5,33.9,3,5,4,1,2026-04-15T16:32:41.550094+05:30
Pune,Maharashtra,18.5204,73.8567,37.5,19,0.0,945.9,8.6,44.6,99,20.5,13.4,0,5,10,0,2026-04-15T16:32:41.550105+05:30
Ahmedabad,Gujarat,23.0225,72.5714,40.6,21,0.0,996.4,8.15,21.2,83,119.2,28.1,0,5,10,0,2026-04-15T16:32:41.550113+05:30
Jaipur,Rajasthan,26.9124,75.7873,39.0,11,0.0,955.8,7.95,32.4,172,224.9,32.4,0,5,10,0,2026-04-15T16:32:41.550120+05:30
Lucknow,Uttar Pradesh,26.8467,80.9462,38.5,15,0.0,988.2,7.8,25.9,142,131.3,22.6,0,5,10,0,2026-04-15T16:32:41.550128+05:30
Kanpur,Uttar Pradesh,26.4499,80.3319,37.1,21,0.0,986.8,7.8,21.2,157,272.9,34.9,0,5,10,0,2026-04-15T16:32:41.550135+05:30
Chandigarh,Chandigarh,30.7333,76.7794,36.2,17,0.0,965.0,7.25,31.0,158,10.6,7.8,0,5,10,0,2026-04-15T16:32:41.550143+05:30
Srinagar,Jammu and Kashmir,34.0837,74.7973,24.3,21,0.0,841.3,7.75,17.3,115,17.5,6.1,0,5,7,0,2026-04-15T16:32:41.550150+05:30
Jammu,Jammu and Kashmir,32.7266,74.857,35.3,18,0.0,969.0,7.95,35.6,133,14.4,9.0,0,5,10,0,2026-04-15T16:32:41.550157+05:30
Amritsar,Punjab,31.634,74.8723,34.4,25,0.0,977.1,7.6,30.2,136,17.3,7.7,0,5,7,0,2026-04-15T16:32:41.550164+05:30
Ludhiana,Punjab,30.901,75.8573,37.0,18,0.0,974.6,7.35,30.2,131,31.7,9.5,0,5,10,0,2026-04-15T16:32:41.550170+05:30
Jalandhar,Punjab,31.326,75.5762,35.7,19,0.0,976.0,7.55,29.2,136,35.4,10.0,0,5,10,0,2026-04-15T16:32:41.550178+05:30
Dehradun,Uttarakhand,30.6284,78.0322,23.2,44,0.0,829.9,7.7,27.7,128,9.1,6.5,0,5,7,0,2026-04-15T16:32:41.550185+05:30
Shimla,Himachal Pradesh,31.1048,77.1734,21.7,31,0.0,785.6,7.75,49.0,133,10.9,6.1,0,5,7,0,2026-04-15T16:32:41.550191+05:30
Manali,Himachal Pradesh,32.2396,77.1887,23.0,41,0.0,820.5,9.7,32.0,153,15.8,6.4,0,5,7,0,2026-04-15T16:32:41.550198+05:30
Gurgaon,Haryana,28.4595,77.0266,38.4,13,0.0,977.1,7.4,29.5,598,1426.8,127.6,0,5,10,0,2026-04-15T16:32:41.550205+05:30
Noida,Uttar Pradesh,28.5355,77.391,38.2,13,0.0,980.0,7.35,27.4,598,1426.8,127.6,0,5,10,0,2026-04-15T16:32:41.550211+05:30
Ghaziabad,Uttar Pradesh,28.6692,77.4538,37.9,13,0.0,978.3,7.3,27.7,143,438.7,47.6,0,5,10,0,2026-04-15T16:32:41.550217+05:30
Faridabad,Haryana,28.4089,77.3178,38.2,13,0.0,979.4,7.35,27.4,598,1426.8,127.6,0,5,10,0,2026-04-15T16:32:41.550223+05:30
Meerut,Uttar Pradesh,28.9845,77.7064,37.6,13,0.0,977.0,7.2,32.0,143,438.7,47.6,0,5,10,0,2026-04-15T16:32:41.550230+05:30
Agra,Uttar Pradesh,27.1767,78.0081,39.1,13,0.0,982.9,7.65,29.9,300,672.4,65.4,0,5,10,0,2026-04-15T16:32:41.550236+05:30
Varanasi,Uttar Pradesh,25.3176,82.9739,40.0,14,0.0,991.6,8.4,19.4,147,41.7,12.3,0,5,10,0,2026-04-15T16:32:41.550245+05:30
Prayagraj,Uttar Pradesh,25.4358,81.8463,39.1,16,0.0,990.2,8.25,20.5,157,55.8,13.6,0,5,10,0,2026-04-15T16:32:41.550252+05:30
Gorakhpur,Uttar Pradesh,26.7606,83.3732,38.7,14,0.0,991.4,8.2,25.9,155,124.8,25.2,0,5,10,0,2026-04-15T16:32:41.550259+05:30
Bareilly,Uttar Pradesh,28.367,79.4304,37.8,12,0.0,981.9,7.55,31.3,139,13.0,7.8,0,5,10,0,2026-04-15T16:32:41.550266+05:30
Aligarh,Uttar Pradesh,27.8974,78.088,39.0,9,0.0,980.9,7.45,33.8,189,776.7,74.7,0,5,10,0,2026-04-15T16:32:41.550275+05:30
Moradabad,Uttar Pradesh,28.8386,78.7733,37.4,13,0.0,978.8,7.4,31.3,139,28.0,9.7,0,5,10,0,2026-04-15T16:32:41.550281+05:30
Saharanpur,Uttar Pradesh,29.9637,77.546,36.1,16,0.0,971.4,7.0,33.1,165,76.8,14.0,0,5,10,0,2026-04-15T16:32:41.550289+05:30
Jhansi,Uttar Pradesh,25.4484,78.5685,40.2,14,0.0,971.9,8.2,34.2,137,53.2,16.1,0,5,10,0,2026-04-15T16:32:44.780937+05:30
Surat,Gujarat,21.1702,72.8311,32.3,54,0.0,1002.9,7.8,31.0,102,105.5,44.0,0,5,4,1,2026-04-15T16:32:44.780967+05:30
Vadodara,Gujarat,22.3072,73.1812,39.9,21,0.0,999.0,8.1,28.8,95,104.5,33.5,0,5,10,0,2026-04-15T16:32:44.780979+05:30
Rajkot,Gujarat,22.3039,70.8022,37.6,23,0.0,989.8,7.85,31.3,88,61.5,20.2,0,5,10,0,2026-04-15T16:32:44.780989+05:30
Thane,Maharashtra,19.2183,72.9781,32.7,52,0.0,1004.4,8.0,32.8,122,46.0,24.9,0,5,4,1,2026-04-15T16:32:44.780997+05:30
Nagpur,Maharashtra,21.1458,79.0882,40.0,12,0.0,968.0,8.85,35.6,129,11.4,7.9,0,5,10,0,2026-04-15T16:32:44.781005+05:30
Nashik,Maharashtra,19.9975,73.7898,36.0,24,0.0,943.0,8.3,38.9,67,24.0,7.8,0,5,10,0,2026-04-15T16:32:44.781013+05:30
Aurangabad,Maharashtra,19.8762,75.3433,39.5,9,0.0,940.7,8.95,38.9,85,9.3,4.7,0,5,10,0,2026-04-15T16:32:44.781020+05:30
Solapur,Maharashtra,17.6599,75.9064,41.0,14,0.0,953.0,9.05,28.8,142,26.1,19.6,0,5,10,0,2026-04-15T16:32:44.781028+05:30
Kolhapur,Maharashtra,16.705,74.2433,33.5,46,0.0,945.3,9.05,45.0,112,27.9,15.4,0,5,7,1,2026-04-15T16:32:44.781035+05:30
Goa,Goa,15.2993,74.124,31.4,69,0.0,994.9,9.0,31.3,86,56.7,20.0,3,5,7,1,2026-04-15T16:32:44.781043+05:30
Jodhpur,Rajasthan,26.2389,73.0243,40.1,14,0.0,978.4,8.15,24.5,74,58.3,13.6,0,5,10,0,2026-04-15T16:32:44.781051+05:30
Udaipur,Rajasthan,24.5854,73.7125,37.2,18,0.0,943.2,8.75,26.6,67,100.6,20.5,0,5,10,0,2026-04-15T16:32:44.781059+05:30
Kota,Rajasthan,25.2138,75.8648,40.6,15,0.0,973.4,8.2,23.4,85,46.1,13.2,0,5,10,0,2026-04-15T16:32:44.781067+05:30
Bikaner,Rajasthan,28.0229,73.3119,39.7,11,0.0,977.9,8.0,14.8,112,74.7,14.1,0,5,10,0,2026-04-15T16:32:44.781076+05:30
Ajmer,Rajasthan,26.4499,74.6399,38.3,13,0.0,951.1,8.15,26.6,109,93.4,18.2,0,5,10,0,2026-04-15T16:32:44.781083+05:30
Gwalior,Madhya Pradesh,26.2183,78.1828,38.3,18,0.0,978.4,7.95,31.3,136,122.0,23.5,0,5,10,0,2026-04-15T16:32:44.781091+05:30
Indore,Madhya Pradesh,22.7196,75.8577,37.2,21,0.0,944.4,8.55,32.0,80,53.4,18.4,0,5,10,0,2026-04-15T16:32:44.781098+05:30
Bhopal,Madhya Pradesh,23.2599,77.4126,39.2,14,0.0,949.4,8.55,31.3,80,46.9,16.2,0,5,10,0,2026-04-15T16:32:44.781106+05:30
Jabalpur,Madhya Pradesh,23.1815,79.9864,39.1,11,0.0,956.6,8.7,34.9,93,12.6,6.1,0,5,10,0,2026-04-15T16:32:44.781114+05:30
Ujjain,Madhya Pradesh,23.1765,75.7885,37.1,23,0.0,950.2,8.5,29.5,72,70.5,20.8,0,5,10,0,2026-04-15T16:32:44.781122+05:30
Visakhapatnam,Andhra Pradesh,17.6868,83.2185,31.4,65,0.0,1000.1,9.15,41.4,64,17.0,12.3,3,5,4,1,2026-04-15T16:32:44.781129+05:30
Vijayawada,Andhra Pradesh,16.5062,80.648,38.2,33,0.0,997.9,9.2,31.7,49,21.0,17.1,0,5,10,1,2026-04-15T16:32:44.781137+05:30
Guntur,Andhra Pradesh,16.3067,80.4365,37.3,39,0.0,999.2,9.2,31.0,55,26.8,21.7,0,5,10,1,2026-04-15T16:32:44.781145+05:30
Nellore,Andhra Pradesh,14.4426,79.9865,35.5,53,0.0,1001.3,9.3,36.4,58,24.7,19.0,0,5,7,1,2026-04-15T16:32:44.781154+05:30
Kurnool,Andhra Pradesh,15.8281,78.0373,40.9,20,0.0,971.7,9.2,24.5,146,36.7,27.1,0,5,10,0,2026-04-15T16:32:44.781163+05:30
Kakinada,Andhra Pradesh,16.9891,82.2475,35.5,47,0.0,1003.0,9.2,34.6,51,12.5,8.1,0,5,7,1,2026-04-15T16:32:44.781171+05:30
Tirupati,Andhra Pradesh,13.6288,79.4192,38.1,25,0.0,987.3,9.4,32.0,66,25.4,20.7,0,5,10,0,2026-04-15T16:32:44.781178+05:30
Warangal,Telangana,17.9689,79.5941,39.0,32,0.0,973.9,9.1,29.2,99,32.0,25.3,0,5,10,1,2026-04-15T16:32:44.781187+05:30
Nizamabad,Telangana,18.6725,78.0941,40.5,17,0.0,960.6,9.05,26.6,103,18.6,12.5,0,5,10,0,2026-04-15T16:32:44.781194+05:30
Mysore,Karnataka,12.2958,76.6396,36.9,21,0.0,925.4,9.55,46.4,118,30.6,23.1,0,5,10,0,2026-04-15T16:32:44.781202+05:30
Mangalore,Karnataka,12.9141,74.856,30.4,77,0.0,1003.0,9.15,24.1,66,31.9,20.2,3,5,4,1,2026-04-15T16:32:44.781209+05:30
Hubli-Dharwad,Karnataka,15.3647,75.124,35.0,38,0.0,937.5,9.2,47.5,116,35.2,25.7,0,5,7,1,2026-04-15T16:32:44.781217+05:30
Belgaum,Karnataka,15.8497,74.4977,31.2,53,0.0,923.5,9.25,39.6,126,35.2,17.0,0,5,7,1,2026-04-15T16:32:48.001559+05:30
Coimbatore,Tamil Nadu,11.0168,76.9558,37.6,28,0.0,957.8,9.45,52.2,127,29.1,21.7,0,5,10,0,2026-04-15T16:32:48.001586+05:30
Madurai,Tamil Nadu,9.9252,78.1198,39.2,25,0.0,987.9,9.4,40.7,84,13.6,9.4,0,5,10,0,2026-04-15T16:32:48.001596+05:30
Trichy,Tamil Nadu,10.7905,78.7047,38.5,27,0.0,994.6,9.4,22.0,52,13.2,10.1,0,5,10,1,2026-04-15T16:32:48.001605+05:30
Salem,Tamil Nadu,11.6643,78.146,39.4,21,0.0,972.6,9.45,19.1,88,27.2,19.3,0,5,10,0,2026-04-15T16:32:48.001613+05:30
Tirunelveli,Tamil Nadu,8.7139,77.7567,35.7,47,0.0,998.5,9.3,50.4,71,19.6,14.6,0,5,10,1,2026-04-15T16:32:48.001619+05:30
Vellore,Tamil Nadu,12.9165,79.1325,37.4,27,0.0,980.5,9.45,29.5,90,24.2,19.6,0,5,10,0,2026-04-15T16:32:48.001625+05:30
Erode,Tamil Nadu,11.341,77.7172,39.9,23,0.0,983.8,9.4,25.9,113,24.1,17.1,0,5,10,0,2026-04-15T16:32:48.001631+05:30
Kochi,Kerala,9.9312,76.2673,30.0,80,0.0,1004.6,9.2,32.4,94,30.6,22.9,7,5,4,1,2026-04-15T16:32:48.001638+05:30
Thiruvananthapuram,Kerala,8.5241,76.9366,29.8,80,0.0,1003.7,9.15,34.9,70,29.3,18.6,7,5,4,1,2026-04-15T16:32:48.001644+05:30
Kozhikode,Kerala,11.2588,75.7804,31.3,74,0.0,1004.0,9.15,31.3,73,32.0,19.0,3,5,4,1,2026-04-15T16:32:48.001651+05:30
Thrissur,Kerala,10.5276,76.2144,33.0,65,0.0,1003.0,9.2,36.0,95,29.0,21.1,3,5,4,1,2026-04-15T16:32:48.001658+05:30
Kannur,Kerala,11.8745,75.3704,32.3,67,0.0,1003.6,9.15,31.7,68,33.9,22.1,3,5,4,1,2026-04-15T16:32:48.001665+05:30
Patna,Bihar,25.5941,85.1376,37.5,22,0.0,994.8,8.55,19.8,188,92.0,22.2,0,5,10,0,2026-04-15T16:32:48.001671+05:30
Gaya,Bihar,24.7914,85.0002,37.8,21,0.0,988.3,8.6,18.0,148,49.1,14.6,0,5,10,0,2026-04-15T16:32:48.001677+05:30
Muzaffarpur,Bihar,26.1209,85.3647,35.4,36,0.0,994.8,8.5,21.2,197,101.5,27.5,0,5,10,1,2026-04-15T16:32:48.001684+05:30
Bhagalpur,Bihar,25.2425,87.0117,32.9,52,0.0,996.2,8.5,16.2,184,67.8,23.5,0,5,7,1,2026-04-15T16:32:48.001690+05:30
Ranchi,Jharkhand,23.3441,85.3096,34.5,23,0.0,934.6,9.15,30.2,179,63.1,28.8,0,5,7,0,2026-04-15T16:32:48.001696+05:30
Jamshedpur,Jharkhand,22.8046,86.2029,38.0,20,0.0,985.8,8.95,20.9,194,60.5,31.1,0,5,10,0,2026-04-15T16:32:48.001702+05:30
Dhanbad,Jharkhand,23.7957,86.4304,38.3,15,0.0,975.0,8.9,22.7,150,50.3,22.8,0,5,10,0,2026-04-15T16:32:48.001709+05:30
Bokaro,Jharkhand,23.6693,86.1511,38.1,18,0.0,978.8,8.9,26.6,157,44.2,20.4,0,5,10,0,2026-04-15T16:32:48.001715+05:30
Bhubaneswar,Odisha,20.2961,85.8245,31.9,65,0.0,998.6,9.1,31.7,73,23.3,17.8,3,5,7,1,2026-04-15T16:32:48.001722+05:30
Cuttack,Odisha,20.4625,85.8828,34.4,60,0.0,1000.2,9.15,25.9,73,23.3,17.8,0,5,4,1,2026-04-15T16:32:48.001728+05:30
Rourkela,Odisha,22.2604,84.8536,39.3,25,0.0,979.8,8.9,34.9,209,71.2,40.5,0,5,10,0,2026-04-15T16:32:48.001734+05:30
Raipur,Chhattisgarh,21.2514,81.6296,41.5,12,0.0,968.9,8.95,39.2,171,23.7,16.8,0,5,10,0,2026-04-15T16:32:48.001740+05:30
Bhilai,Chhattisgarh,21.1938,81.3509,41.0,12,0.0,969.3,8.95,40.7,154,21.4,14.9,0,5,10,0,2026-04-15T16:32:48.001747+05:30
Guwahati,Assam,26.1158,91.7086,27.5,76,0.0,999.0,8.45,31.7,134,57.5,36.2,7,5,7,1,2026-04-15T16:32:48.001753+05:30
Agartala,Tripura,23.8315,91.2868,31.9,60,0.0,1002.0,8.7,24.5,99,64.3,41.7,0,5,4,1,2026-04-15T16:32:48.001760+05:30
Shillong,Meghalaya,25.5788,91.8933,18.5,67,0.0,854.5,8.6,59.4,102,57.3,32.8,3,5,7,0,2026-04-15T16:32:48.001766+05:30
Imphal,Manipur,24.817,93.9368,21.9,72,0.0,921.3,9.05,69.1,128,61.5,34.3,3,5,7,1,2026-04-15T16:32:48.001772+05:30
Aizawl,Mizoram,23.7271,92.7176,25.3,57,0.0,891.5,8.95,50.4,121,76.8,40.9,4,5,7,1,2026-04-15T16:32:48.001778+05:30
Kohima,Nagaland,25.6701,94.1077,16.6,93,0.0,853.5,8.95,73.8,113,49.5,27.6,3,10,7,0,2026-04-15T16:32:48.001784+05:30
Gangtok,Sikkim,27.3314,88.6138,17.9,77,0.0,835.2,8.1,17.6,144,56.0,35.5,3,5,7,0,2026-04-15T16:32:48.001791+05:30
Siliguri,West Bengal,26.7271,88.3953,24.9,72,0.0,990.6,8.4,27.7,158,95.7,57.6,3,5,7,1,2026-04-15T16:32:51.230226+05:30
Durgapur,West Bengal,23.5204,87.3119,38.1,24,0.0,989.7,8.85,25.9,164,60.8,34.0,0,5,10,0,2026-04-15T16:32:51.230258+05:30
Asansol,West Bengal,23.6739,86.9524,38.3,21,0.0,988.2,8.85,27.7,160,52.5,25.3,0,5,10,0,2026-04-15T16:32:51.230271+05:30
Pondicherry,Puducherry,11.9139,79.8145,36.0,50,0.0,1003.7,9.3,27.4,56,13.0,9.9,0,5,7,1,2026-04-15T16:32:51.230281+05:30
Port Blair,Andaman and Nicobar Islands,11.6234,92.7265,29.6,71,0.0,1005.3,9.2,20.9,72,23.7,16.8,7,5,4,1,2026-04-15T16:32:51.230291+05:30
Haridwar,Uttarakhand,29.9457,78.1642,35.2,22,0.0,970.0,7.05,32.0,148,14.7,9.1,0,5,10,0,2026-04-15T16:32:51.230299+05:30
Rishikesh,Uttarakhand,30.0869,78.2676,33.4,29,0.0,963.1,7.15,29.9,134,7.8,6.8,0,5,7,0,2026-04-15T16:32:51.230308+05:30
Nainital,Uttarakhand,29.3919,79.4542,26.8,22,0.0,806.7,8.05,45.7,143,11.1,6.5,4,5,7,0,2026-04-15T16:32:51.230317+05:30
Mussoorie,Uttarakhand,30.4599,78.0664,23.8,38,0.0,803.0,7.55,39.6,145,9.7,8.7,0,5,7,0,2026-04-15T16:32:51.230326+05:30
Dharamshala,Himachal Pradesh,32.219,76.3234,27.0,38,0.0,868.4,7.8,23.8,128,13.4,7.7,4,5,7,0,2026-04-15T16:32:51.230335+05:30
Dalhousie,Himachal Pradesh,32.5387,75.971,25.6,32,0.0,804.8,8.0,24.1,146,13.6,9.0,4,5,7,0,2026-04-15T16:32:51.230345+05:30
Patiala,Punjab,30.3398,76.3869,37.5,13,0.0,974.0,7.15,30.6,169,527.1,47.6,0,5,10,0,2026-04-15T16:32:51.230353+05:30
Bhatinda,Punjab,30.211,74.9455,37.7,18,0.0,979.4,7.85,36.4,131,37.5,10.3,0,5,10,0,2026-04-15T16:32:51.230362+05:30
Rohtak,Haryana,28.8955,76.6066,38.8,12,0.0,977.1,7.3,34.2,327,715.3,65.0,0,5,10,0,2026-04-15T16:32:51.230371+05:30
Panipat,Haryana,29.3909,76.9635,37.8,14,0.0,976.1,7.15,30.2,748,1303.9,111.5,0,5,10,0,2026-04-15T16:32:51.230378+05:30
Mathura,Uttar Pradesh,27.4924,77.6737,39.0,13,0.0,982.2,7.6,25.2,256,791.6,72.4,0,5,10,0,2026-04-15T16:32:51.230385+05:30
Vrindavan,Uttar Pradesh,27.5823,77.7027,39.0,10,0.0,982.6,7.6,29.2,256,791.6,72.4,0,5,10,0,2026-04-15T16:32:51.230392+05:30
Ayodhya,Uttar Pradesh,26.7922,82.1998,39.7,12,0.0,989.5,7.95,31.0,128,108.7,19.9,0,5,10,0,2026-04-15T16:32:51.230399+05:30
Ratlam,Madhya Pradesh,23.3315,75.0367,35.4,32,0.0,951.0,8.4,25.2,70,67.3,18.7,0,5,10,1,2026-04-15T16:32:51.230406+05:30
Sagar,Madhya Pradesh,23.8388,78.7378,38.6,16,0.0,946.0,8.6,28.4,68,33.4,13.2,0,5,10,0,2026-04-15T16:32:51.230412+05:30
Satna,Madhya Pradesh,24.6005,80.8322,40.8,13,0.0,965.3,8.6,30.6,144,14.1,7.6,0,5,10,0,2026-04-15T16:32:51.230418+05:30
Akola,Maharashtra,20.7002,77.0082,41.3,11,0.0,970.2,8.75,37.4,90,13.0,8.2,0,5,10,0,2026-04-15T16:32:51.230425+05:30
Amravati,Maharashtra,20.9374,77.7796,40.5,12,0.0,962.6,8.8,34.9,89,12.6,8.0,0,5,10,0,2026-04-15T16:32:51.230433+05:30
Latur,Maharashtra,18.4088,76.5604,37.7,19,0.0,936.8,9.05,25.2,118,23.8,16.9,0,5,10,0,2026-04-15T16:32:51.230439+05:30
Nanded,Maharashtra,19.1383,77.3091,39.5,20,0.0,964.5,8.95,17.3,111,17.8,12.6,0,5,10,0,2026-04-15T16:32:51.230446+05:30
Gulbarga,Karnataka,17.3297,76.8343,40.8,18,0.0,954.0,9.1,24.1,162,33.3,26.8,0,5,10,0,2026-04-15T16:32:51.230452+05:30
Bidar,Karnataka,17.9104,77.5199,39.1,17,0.0,932.2,9.1,24.1,161,38.0,29.8,0,5,10,0,2026-04-15T16:32:51.230458+05:30
Hospet,Karnataka,15.2689,76.3909,37.2,31,0.0,952.0,9.3,28.4,124,32.5,25.1,0,5,10,1,2026-04-15T16:32:51.230464+05:30
Tirupur,Tamil Nadu,11.1085,77.3411,39.8,21,0.0,970.5,9.5,36.7,129,27.9,20.3,0,5,10,0,2026-04-15T16:32:51.230470+05:30
Alappuzha,Kerala,9.4981,76.3388,30.0,80,0.0,1004.7,9.2,31.3,93,34.9,24.3,7,5,4,1,2026-04-15T16:32:51.230476+05:30
Munnar,Kerala,10.0889,77.0595,27.4,67,0.0,856.0,9.75,34.6,79,18.7,12.2,7,5,7,1,2026-04-15T16:32:51.230483+05:30
Silchar,Assam,24.8333,92.7789,29.7,65,0.0,1001.9,8.7,29.9,145,57.6,41.2,7,5,4,1,2026-04-15T16:32:51.230490+05:30
Dibrugarh,Assam,27.4728,94.912,22.9,74,0.0,995.3,7.95,31.3,110,114.1,59.8,3,5,7,1,2026-04-15T16:32:51.230497+05:30
