city,state,latitude,longitude,temp,humidity,rain,pressure,uv_index,wind_gusts,aqi,pm10,pm2_5,no2,co,o3,so2,mosquito_risk,arthritis_risk,migraine_risk,frizz_risk,updated_at
Delhi,Delhi,28.6139,77.209,30.4,65,0.0,978.9,7.75,25.9,256,225.4,97.1,59.9,1470.0,101.0,31.8,3,5,7,1,2026-06-13T19:35:00.640059+05:30
Mumbai,Maharashtra,19.076,72.8777,31.6,62,0.0,1007.4,6.5,51.5,73,44.2,21.1,6.5,163.0,51.0,4.1,3,5,4,1,2026-06-13T19:35:00.640114+05:30
Bangalore,Karnataka,12.9716,77.5946,24.1,88,0.0,911.6,8.45,37.8,45,17.6,14.5,27.8,489.0,51.0,5.2,3,5,7,1,2026-06-13T19:35:00.640130+05:30
Hyderabad,Telangana,17.385,78.4867,27.4,80,0.0,951.3,6.4,38.2,86,52.5,32.7,18.9,474.0,79.0,6.2,7,5,7,1,2026-06-13T19:35:00.640140+05:30
Chennai,Tamil Nadu,13.0827,80.2707,30.7,71,0.0,1005.9,4.95,38.9,96,29.1,22.2,14.5,328.0,113.0,8.0,3,5,0,1,2026-06-13T19:35:00.640148+05:30
Kolkata,West Bengal,22.5726,88.3639,28.6,92,0.2,1002.4,8.9,40.7,117,46.3,43.2,15.5,432.0,80.0,10.0,10,5,4,1,2026-06-13T19:35:00.640157+05:30
Pune,Maharashtra,18.5204,73.8567,28.0,65,0.0,947.6,7.8,51.8,62,31.0,15.4,5.9,150.0,60.0,5.1,7,5,7,1,2026-06-13T19:35:00.640163+05:30
Ahmedabad,Gujarat,23.0225,72.5714,37.2,37,0.0,997.1,8.05,43.9,72,61.7,23.9,3.5,166.0,81.0,3.0,0,5,10,1,2026-06-13T19:35:00.640170+05:30
Jaipur,Rajasthan,26.9124,75.7873,29.4,63,0.0,956.0,8.2,28.4,112,118.3,43.4,18.8,465.0,80.0,8.0,7,5,7,1,2026-06-13T19:35:00.640183+05:30
Lucknow,Uttar Pradesh,26.8467,80.9462,29.5,77,0.0,989.2,8.0,32.4,150,78.5,56.2,19.7,680.0,100.0,10.6,7,5,7,1,2026-06-13T19:35:00.640189+05:30
Kanpur,Uttar Pradesh,26.4499,80.3319,31.9,61,0.0,987.1,8.3,52.2,164,153.2,61.0,17.1,386.0,108.0,10.2,3,5,7,1,2026-06-13T19:35:00.640196+05:30
Chandigarh,Chandigarh,30.7333,76.7794,26.9,76,0.0,965.2,7.8,49.7,142,114.6,52.4,30.2,1146.0,114.0,10.9,7,5,7,1,2026-06-13T19:35:00.640203+05:30
Srinagar,Jammu and Kashmir,34.0837,74.7973,18.0,79,0.0,841.7,7.4,20.9,99,23.2,16.0,23.9,1086.0,91.0,3.3,3,5,7,0,2026-06-13T19:35:00.640209+05:30
Jammu,Jammu and Kashmir,32.7266,74.857,28.1,61,0.0,970.2,8.4,38.2,115,77.5,32.5,26.4,408.0,95.0,3.9,7,5,7,1,2026-06-13T19:35:00.640215+05:30
Amritsar,Punjab,31.634,74.8723,27.3,71,0.0,977.7,8.45,51.5,119,119.2,39.8,13.7,399.0,97.0,4.1,7,5,7,1,2026-06-13T19:35:00.640221+05:30
Ludhiana,Punjab,30.901,75.8573,27.9,73,0.0,975.3,8.05,42.1,146,104.8,52.4,24.3,560.0,88.0,10.9,7,5,7,1,2026-06-13T19:35:00.640227+05:30
Jalandhar,Punjab,31.326,75.5762,27.9,70,0.0,976.4,8.2,49.7,109,105.7,44.5,22.3,691.0,88.0,5.3,7,5,7,1,2026-06-13T19:35:00.640233+05:30
Dehradun,Uttarakhand,30.6284,78.0322,16.5,85,0.0,827.7,7.65,30.6,88,36.9,15.6,11.6,200.0,103.0,1.4,3,10,7,0,2026-06-13T19:35:00.640240+05:30
Shimla,Himachal Pradesh,31.1048,77.1734,14.0,78,0.0,781.8,7.4,27.7,108,48.2,23.9,16.6,389.0,98.0,2.7,3,5,7,0,2026-06-13T19:35:00.640248+05:30
Manali,Himachal Pradesh,32.2396,77.1887,15.7,71,0.0,816.7,4.85,37.1,112,6.1,3.3,25.3,222.0,105.0,0.4,3,5,3,0,2026-06-13T19:35:00.640254+05:30
Gurgaon,Haryana,28.4595,77.0266,30.2,61,0.0,977.2,7.85,27.7,1088,378.1,132.7,73.0,1274.0,112.0,35.3,3,5,7,1,2026-06-13T19:35:00.640261+05:30
Noida,Uttar Pradesh,28.5355,77.391,29.9,66,0.0,980.4,7.8,23.4,1088,378.1,132.7,73.0,1507.0,112.0,35.3,7,5,7,1,2026-06-13T19:35:00.640267+05:30
Ghaziabad,Uttar Pradesh,28.6692,77.4538,29.0,73,0.0,978.7,7.8,25.6,169,198.4,85.2,34.6,353.0,106.0,19.6,7,5,7,1,2026-06-13T19:35:00.640273+05:30
Faridabad,Haryana,28.4089,77.3178,30.7,65,0.0,979.6,7.8,25.9,1088,378.1,132.7,73.0,1145.0,112.0,35.3,3,5,7,1,2026-06-13T19:35:00.640286+05:30
Meerut,Uttar Pradesh,28.9845,77.7064,28.0,81,0.0,977.5,7.7,35.3,169,198.4,85.2,34.6,439.0,106.0,19.6,7,5,7,1,2026-06-13T19:35:00.640295+05:30
Agra,Uttar Pradesh,27.1767,78.0081,30.3,64,0.0,983.6,8.1,25.2,657,333.4,92.7,27.4,398.0,104.0,13.2,3,5,7,1,2026-06-13T19:35:00.640301+05:30
Varanasi,Uttar Pradesh,25.3176,82.9739,31.0,63,0.0,993.2,8.4,61.6,170,83.4,66.4,15.0,971.0,128.0,13.8,3,5,7,1,2026-06-13T19:35:00.640307+05:30
Prayagraj,Uttar Pradesh,25.4358,81.8463,30.8,57,0.0,991.8,8.7,46.8,178,89.9,71.2,19.1,452.0,126.0,16.6,0,5,7,1,2026-06-13T19:35:00.640313+05:30
Gorakhpur,Uttar Pradesh,26.7606,83.3732,28.6,75,0.0,992.7,8.7,32.8,160,67.5,55.6,15.5,429.0,121.0,10.4,7,5,7,1,2026-06-13T19:35:00.640321+05:30
Bareilly,Uttar Pradesh,28.367,79.4304,29.3,73,0.0,982.4,7.95,21.2,151,136.9,62.9,16.4,380.0,112.0,11.0,7,5,7,1,2026-06-13T19:35:00.640327+05:30
Aligarh,Uttar Pradesh,27.8974,78.088,30.1,59,0.0,981.4,7.95,25.6,355,251.5,89.4,34.2,372.0,93.0,15.6,0,5,7,1,2026-06-13T19:35:00.640333+05:30
Moradabad,Uttar Pradesh,28.8386,78.7733,29.1,74,0.0,979.4,7.95,44.6,160,120.1,62.9,23.9,505.0,108.0,13.3,7,5,7,1,2026-06-13T19:35:00.640340+05:30
Saharanpur,Uttar Pradesh,29.9637,77.546,26.7,84,0.0,971.8,7.55,37.8,163,141.1,65.0,34.2,514.0,102.0,14.7,7,5,7,1,2026-06-13T19:35:00.640346+05:30
Jhansi,Uttar Pradesh,25.4484,78.5685,32.7,49,0.0,974.2,8.5,29.9,139,75.7,41.4,5.0,266.0,101.0,7.4,0,5,7,1,2026-06-13T19:35:03.873501+05:30
Surat,Gujarat,21.1702,72.8311,30.9,73,0.0,1003.9,7.6,54.7,74,42.7,24.0,14.3,172.0,40.0,26.0,3,5,4,1,2026-06-13T19:35:03.873536+05:30
Vadodara,Gujarat,22.3072,73.1812,32.5,62,0.0,1000.2,8.0,50.8,71,45.1,25.4,10.4,176.0,64.0,13.4,3,5,4,1,2026-06-13T19:35:03.873546+05:30
Rajkot,Gujarat,22.3039,70.8022,33.1,61,0.0,990.8,7.55,53.3,66,44.6,19.4,3.7,109.0,63.0,4.8,3,5,7,1,2026-06-13T19:35:03.873555+05:30
Thane,Maharashtra,19.2183,72.9781,31.6,62,0.0,1006.7,6.65,42.1,73,44.2,21.1,6.5,155.0,51.0,4.1,3,5,4,1,2026-06-13T19:35:03.873562+05:30
Nagpur,Maharashtra,21.1458,79.0882,31.2,64,0.0,969.6,8.9,59.0,105,57.6,33.3,24.4,232.0,66.0,17.0,3,5,7,1,2026-06-13T19:35:03.873570+05:30
Nashik,Maharashtra,19.9975,73.7898,28.0,65,0.0,944.4,8.0,52.9,67,40.9,18.5,3.0,128.0,57.0,1.4,7,5,7,1,2026-06-13T19:35:03.873577+05:30
Aurangabad,Maharashtra,19.8762,75.3433,33.5,35,0.0,942.1,8.95,49.3,79,41.9,20.9,3.1,131.0,90.0,3.5,0,5,7,1,2026-06-13T19:35:03.873585+05:30
Solapur,Maharashtra,17.6599,75.9064,33.7,37,0.0,954.6,7.8,50.4,63,60.3,23.7,4.0,169.0,92.0,2.4,0,5,7,1,2026-06-13T19:35:03.873592+05:30
Kolhapur,Maharashtra,16.705,74.2433,26.5,75,0.0,947.6,7.7,49.7,52,23.6,13.0,5.0,157.0,57.0,2.2,7,5,7,1,2026-06-13T19:35:03.873599+05:30
Goa,Goa,15.2993,74.124,28.9,76,0.0,998.1,6.9,32.0,65,31.5,15.6,3.1,257.0,51.0,1.4,7,5,7,1,2026-06-13T19:35:03.873606+05:30
Jodhpur,Rajasthan,26.2389,73.0243,35.9,37,0.0,978.1,8.4,40.3,142,275.7,57.3,4.8,201.0,73.0,2.1,0,5,10,1,2026-06-13T19:35:03.873613+05:30
Udaipur,Rajasthan,24.5854,73.7125,32.8,41,0.0,943.1,8.8,38.9,74,54.9,22.8,3.2,122.0,79.0,2.3,0,5,7,1,2026-06-13T19:35:03.873621+05:30
Kota,Rajasthan,25.2138,75.8648,32.8,48,0.0,974.6,8.35,49.7,90,77.1,36.1,10.7,217.0,77.0,7.1,0,5,7,1,2026-06-13T19:35:03.873627+05:30
Bikaner,Rajasthan,28.0229,73.3119,35.1,39,0.0,976.9,8.5,33.5,151,244.0,74.0,3.3,148.0,83.0,2.7,0,5,10,1,2026-06-13T19:35:03.873635+05:30
Ajmer,Rajasthan,26.4499,74.6399,31.2,55,0.0,950.9,8.35,49.7,94,151.8,42.1,10.2,205.0,77.0,3.5,0,5,7,1,2026-06-13T19:35:03.873641+05:30
Gwalior,Madhya Pradesh,26.2183,78.1828,31.1,63,0.0,979.2,8.3,21.6,159,86.6,42.8,6.0,265.0,98.0,5.3,3,5,7,1,2026-06-13T19:35:03.873647+05:30
Indore,Madhya Pradesh,22.7196,75.8577,33.5,39,0.0,945.2,8.6,44.6,80,61.9,27.1,3.6,200.0,99.0,4.1,0,5,7,1,2026-06-13T19:35:03.873654+05:30
Bhopal,Madhya Pradesh,23.2599,77.4126,32.1,46,0.1,950.0,8.65,37.1,99,87.1,35.3,7.5,330.0,77.0,4.2,3,5,7,1,2026-06-13T19:35:03.873661+05:30
Jabalpur,Madhya Pradesh,23.1815,79.9864,29.7,63,0.0,957.7,8.6,26.6,101,82.7,40.6,9.9,195.0,87.0,4.4,7,5,7,1,2026-06-13T19:35:03.873667+05:30
Ujjain,Madhya Pradesh,23.1765,75.7885,33.9,37,0.0,950.5,8.55,45.4,77,59.6,26.7,2.0,164.0,99.0,4.0,0,5,7,1,2026-06-13T19:35:03.873675+05:30
Visakhapatnam,Andhra Pradesh,17.6868,83.2185,31.0,75,0.0,999.8,9.0,43.6,109,38.3,30.6,23.8,416.0,100.0,38.8,3,5,7,1,2026-06-13T19:35:03.873682+05:30
Vijayawada,Andhra Pradesh,16.5062,80.648,29.9,80,0.0,999.7,2.5,32.0,81,64.3,49.4,17.8,353.0,75.0,7.9,7,5,3,1,2026-06-13T19:35:03.873689+05:30
Guntur,Andhra Pradesh,16.3067,80.4365,31.9,63,0.0,1001.0,3.45,33.8,84,64.5,48.3,19.4,335.0,67.0,6.9,3,5,0,1,2026-06-13T19:35:03.873696+05:30
Nellore,Andhra Pradesh,14.4426,79.9865,32.9,51,0.0,1003.6,8.0,43.2,56,40.5,28.0,11.3,209.0,104.0,7.2,0,5,4,1,2026-06-13T19:35:03.873704+05:30
Kurnool,Andhra Pradesh,15.8281,78.0373,31.6,49,0.0,974.6,2.8,33.8,73,49.2,26.4,13.5,155.0,78.0,6.7,0,5,3,1,2026-06-13T19:35:03.873711+05:30
Kakinada,Andhra Pradesh,16.9891,82.2475,30.0,70,0.0,1003.8,9.0,33.8,80,31.1,23.3,6.2,393.0,111.0,4.4,7,5,4,1,2026-06-13T19:35:03.873719+05:30
Tirupati,Andhra Pradesh,13.6288,79.4192,30.5,62,0.0,989.8,8.1,31.3,53,34.6,27.1,24.0,551.0,57.0,4.1,3,5,7,1,2026-06-13T19:35:03.873725+05:30
Warangal,Telangana,17.9689,79.5941,27.1,79,0.0,976.1,4.3,40.7,100,70.5,46.6,18.1,290.0,71.0,6.9,7,5,3,1,2026-06-13T19:35:03.873731+05:30
Nizamabad,Telangana,18.6725,78.0941,27.5,77,0.0,962.7,8.8,41.0,90,61.0,32.4,9.0,178.0,94.0,5.7,7,5,7,1,2026-06-13T19:35:03.873738+05:30
Mysore,Karnataka,12.2958,76.6396,24.0,82,0.0,928.8,7.6,39.6,34,16.1,11.4,15.3,197.0,57.0,2.5,3,5,7,1,2026-06-13T19:35:03.873745+05:30
Mangalore,Karnataka,12.9141,74.856,26.7,89,0.0,1007.8,8.55,28.4,48,25.6,14.0,11.2,246.0,49.0,3.9,7,5,4,1,2026-06-13T19:35:03.873752+05:30
Hubli-Dharwad,Karnataka,15.3647,75.124,24.8,86,0.1,940.7,7.3,49.7,41,13.4,8.2,5.8,150.0,55.0,1.5,6,5,7,1,2026-06-13T19:35:03.873758+05:30
Belgaum,Karnataka,15.8497,74.4977,24.4,79,0.0,925.8,7.9,49.3,43,18.9,9.9,4.0,133.0,53.0,1.4,3,5,7,1,2026-06-13T19:35:07.104924+05:30
Coimbatore,Tamil Nadu,11.0168,76.9558,23.6,95,0.1,962.2,8.75,49.3,35,13.3,9.3,9.9,213.0,55.0,2.7,6,5,7,1,2026-06-13T19:35:07.104961+05:30
Madurai,Tamil Nadu,9.9252,78.1198,30.9,53,0.0,992.6,8.4,44.3,59,20.0,13.9,16.6,319.0,51.0,3.7,0,5,7,1,2026-06-13T19:35:07.104972+05:30
Trichy,Tamil Nadu,10.7905,78.7047,29.8,62,0.0,999.4,8.35,55.4,51,16.2,12.5,10.9,281.0,75.0,3.5,7,5,7,1,2026-06-13T19:35:07.104981+05:30
Salem,Tamil Nadu,11.6643,78.146,25.6,93,0.2,977.5,7.35,32.8,56,23.5,15.1,11.9,274.0,70.0,7.3,10,5,7,1,2026-06-13T19:35:07.104989+05:30
Tirunelveli,Tamil Nadu,8.7139,77.7567,30.0,58,0.0,1003.7,8.4,39.2,34,16.9,9.9,4.7,143.0,59.0,1.3,4,5,4,1,2026-06-13T19:35:07.104997+05:30
Vellore,Tamil Nadu,12.9165,79.1325,27.9,86,0.0,983.5,8.35,40.7,52,28.2,22.2,10.6,298.0,89.0,3.7,7,5,7,1,2026-06-13T19:35:07.105005+05:30
Erode,Tamil Nadu,11.341,77.7172,27.4,89,0.1,989.4,7.95,36.7,52,18.1,11.8,9.3,202.0,72.0,2.4,10,5,7,1,2026-06-13T19:35:07.105014+05:30
Kochi,Kerala,9.9312,76.2673,25.2,97,0.0,1010.8,7.6,28.8,65,33.1,22.3,20.8,148.0,33.0,4.4,7,0,4,1,2026-06-13T19:35:07.105022+05:30
Thiruvananthapuram,Kerala,8.5241,76.9366,24.4,95,0.1,1010.3,8.05,41.4,32,15.2,7.1,2.3,146.0,60.0,0.8,6,0,4,1,2026-06-13T19:35:07.105029+05:30
Kozhikode,Kerala,11.2588,75.7804,26.0,89,0.0,1009.6,8.4,34.2,34,17.9,7.9,1.7,227.0,66.0,1.0,7,0,4,1,2026-06-13T19:35:07.105037+05:30
Thrissur,Kerala,10.5276,76.2144,25.5,94,0.0,1009.1,7.95,31.3,66,27.0,17.2,17.7,206.0,34.0,4.0,7,0,4,1,2026-06-13T19:35:07.105045+05:30
Kannur,Kerala,11.8745,75.3704,26.4,89,0.0,1008.6,8.55,31.0,42,24.2,14.0,17.4,152.0,42.0,3.3,7,0,4,1,2026-06-13T19:35:07.105052+05:30
Patna,Bihar,25.5941,85.1376,28.6,82,0.0,995.9,8.85,45.4,189,95.9,80.8,33.2,613.0,108.0,20.9,7,5,7,1,2026-06-13T19:35:07.105059+05:30
Gaya,Bihar,24.7914,85.0002,28.4,80,0.0,989.7,8.9,57.2,180,100.4,82.7,26.0,462.0,124.0,18.7,7,5,7,1,2026-06-13T19:35:07.105066+05:30
Muzaffarpur,Bihar,26.1209,85.3647,30.8,72,0.0,995.3,8.85,23.0,190,100.1,85.0,33.6,644.0,116.0,22.7,3,5,7,1,2026-06-13T19:35:07.105072+05:30
Bhagalpur,Bihar,25.2425,87.0117,31.3,70,0.1,996.6,7.9,40.0,203,90.3,74.7,16.7,628.0,144.0,20.6,6,5,7,1,2026-06-13T19:35:07.105080+05:30
Ranchi,Jharkhand,23.3441,85.3096,24.6,88,0.2,934.9,9.3,30.6,150,71.2,56.6,11.4,257.0,94.0,6.8,6,5,7,1,2026-06-13T19:35:07.105087+05:30
Jamshedpur,Jharkhand,22.8046,86.2029,29.1,77,0.0,987.3,9.05,46.1,166,79.2,65.9,17.3,323.0,102.0,16.2,7,5,7,1,2026-06-13T19:35:07.105093+05:30
Dhanbad,Jharkhand,23.7957,86.4304,27.3,91,0.3,976.3,8.9,34.6,185,92.9,84.5,45.1,598.0,98.0,113.3,10,5,7,1,2026-06-13T19:35:07.105101+05:30
Bokaro,Jharkhand,23.6693,86.1511,26.4,92,0.0,980.7,8.9,29.5,166,87.5,74.0,31.8,1030.0,95.0,83.5,7,5,7,1,2026-06-13T19:35:07.105108+05:30
Bhubaneswar,Odisha,20.2961,85.8245,29.4,86,0.0,998.7,8.8,41.4,123,57.9,50.5,23.4,624.0,94.0,10.1,7,5,7,1,2026-06-13T19:35:07.105116+05:30
Cuttack,Odisha,20.4625,85.8828,29.9,82,0.0,1000.5,8.9,38.5,123,57.9,50.5,23.4,515.0,94.0,10.1,7,5,4,1,2026-06-13T19:35:07.105123+05:30
Rourkela,Odisha,22.2604,84.8536,27.5,95,0.0,981.4,9.0,46.8,153,59.0,49.8,10.3,384.0,122.0,16.5,7,5,7,1,2026-06-13T19:35:07.105130+05:30
Raipur,Chhattisgarh,21.2514,81.6296,33.9,44,0.0,970.9,8.95,40.0,130,99.0,56.7,31.2,274.0,79.0,43.9,0,5,7,1,2026-06-13T19:35:07.105136+05:30
Bhilai,Chhattisgarh,21.1938,81.3509,32.3,52,0.0,971.2,8.95,43.2,121,103.4,55.9,26.8,447.0,86.0,36.7,0,5,7,1,2026-06-13T19:35:07.105142+05:30
Guwahati,Assam,26.1158,91.7086,25.8,99,0.0,998.5,8.8,26.6,81,21.3,19.0,8.8,361.0,66.0,2.0,7,5,7,1,2026-06-13T19:35:07.105148+05:30
Agartala,Tripura,23.8315,91.2868,27.4,89,0.0,1003.3,8.85,27.7,83,30.4,25.6,11.5,251.0,68.0,2.7,7,5,4,1,2026-06-13T19:35:07.105155+05:30
Shillong,Meghalaya,25.5788,91.8933,19.7,95,0.0,855.6,6.75,19.1,63,12.4,11.5,6.7,286.0,95.0,2.1,3,10,7,1,2026-06-13T19:35:07.105162+05:30
Imphal,Manipur,24.817,93.9368,24.0,86,0.0,921.2,7.95,27.0,40,12.0,11.1,11.2,499.0,63.0,2.7,3,5,7,1,2026-06-13T19:35:07.105169+05:30
Aizawl,Mizoram,23.7271,92.7176,20.5,91,0.0,890.9,8.85,25.2,41,11.0,8.4,4.4,214.0,68.0,1.0,3,5,7,1,2026-06-13T19:35:07.105175+05:30
Kohima,Nagaland,25.6701,94.1077,20.1,95,0.0,853.6,2.8,21.2,34,6.7,6.4,6.6,343.0,61.0,0.8,3,5,3,1,2026-06-13T19:35:07.105182+05:30
Gangtok,Sikkim,27.3314,88.6138,18.1,97,0.2,835.9,8.6,38.5,90,18.1,13.1,7.8,425.0,114.0,1.4,6,10,7,1,2026-06-13T19:35:07.105188+05:30
Siliguri,West Bengal,26.7271,88.3953,27.3,86,0.0,989.1,8.65,20.5,150,67.1,52.6,11.7,892.0,126.0,6.0,7,5,7,1,2026-06-13T19:35:10.341679+05:30
Durgapur,West Bengal,23.5204,87.3119,27.9,86,0.0,991.2,8.85,27.4,167,71.9,67.3,30.3,671.0,108.0,46.8,7,5,7,1,2026-06-13T19:35:10.341716+05:30
Asansol,West Bengal,23.6739,86.9524,29.9,79,0.0,989.6,8.85,29.9,182,73.3,68.0,27.9,379.0,120.0,44.2,7,5,7,1,2026-06-13T19:35:10.341728+05:30
Pondicherry,Puducherry,11.9139,79.8145,28.6,82,0.0,1007.7,8.35,41.0,80,38.0,28.3,15.6,298.0,107.0,5.4,7,5,4,1,2026-06-13T19:35:10.341738+05:30
Port Blair,Andaman and Nicobar Islands,11.6234,92.7265,26.5,90,0.0,1008.8,8.8,39.6,20,7.5,4.5,0.5,98.0,41.0,0.4,7,0,4,1,2026-06-13T19:35:10.341746+05:30
Haridwar,Uttarakhand,29.9457,78.1642,27.8,76,0.0,969.7,7.65,29.5,158,104.3,45.5,16.3,396.0,127.0,7.9,7,5,7,1,2026-06-13T19:35:10.341755+05:30
Rishikesh,Uttarakhand,30.0869,78.2676,26.4,76,0.0,962.5,7.7,20.5,134,70.8,31.2,9.0,362.0,136.0,4.8,7,5,7,1,2026-06-13T19:35:10.341762+05:30
Nainital,Uttarakhand,29.3919,79.4542,16.4,72,0.0,803.1,8.25,25.9,122,70.5,36.9,10.1,325.0,130.0,9.1,3,5,7,0,2026-06-13T19:35:10.341770+05:30
Mussoorie,Uttarakhand,30.4599,78.0664,14.3,94,0.0,799.4,8.0,25.9,138,55.6,26.6,14.6,263.0,128.0,6.3,3,10,7,0,2026-06-13T19:35:10.341779+05:30
Dharamshala,Himachal Pradesh,32.219,76.3234,19.6,83,0.0,866.5,7.85,31.0,75,25.6,9.9,9.9,309.0,89.0,0.7,3,10,7,1,2026-06-13T19:35:10.341786+05:30
Dalhousie,Himachal Pradesh,32.5387,75.971,13.7,98,0.0,801.4,7.95,26.3,84,32.9,16.1,23.1,529.0,88.0,1.5,3,10,7,0,2026-06-13T19:35:10.341795+05:30
Patiala,Punjab,30.3398,76.3869,28.5,71,0.0,974.6,7.7,38.5,385,127.6,52.0,13.8,428.0,100.0,8.1,7,5,7,1,2026-06-13T19:35:10.341802+05:30
Bhatinda,Punjab,30.211,74.9455,30.9,53,0.0,980.0,8.3,30.6,691,156.5,61.2,14.1,356.0,108.0,11.8,0,5,7,1,2026-06-13T19:35:10.341809+05:30
Rohtak,Haryana,28.8955,76.6066,31.0,56,0.0,977.6,7.8,26.6,717,313.9,106.2,41.0,303.0,114.0,20.3,0,5,7,1,2026-06-13T19:35:10.341816+05:30
Panipat,Haryana,29.3909,76.9635,28.4,75,0.0,976.6,7.65,34.6,1123,330.6,100.6,26.8,536.0,108.0,21.1,7,5,7,1,2026-06-13T19:35:10.341824+05:30
Mathura,Uttar Pradesh,27.4924,77.6737,30.3,60,0.0,982.6,8.05,25.9,611,274.7,88.7,36.0,712.0,86.0,9.1,0,5,7,1,2026-06-13T19:35:10.341831+05:30
Vrindavan,Uttar Pradesh,27.5823,77.7027,30.6,55,0.0,983.1,8.05,25.2,611,274.7,88.7,36.0,461.0,86.0,9.1,0,5,7,1,2026-06-13T19:35:10.341839+05:30
Ayodhya,Uttar Pradesh,26.7922,82.1998,27.2,80,0.0,991.1,8.35,42.5,149,77.1,59.3,18.7,420.0,99.0,9.1,7,5,7,1,2026-06-13T19:35:10.341846+05:30
Ratlam,Madhya Pradesh,23.3315,75.0367,32.9,44,0.0,951.8,8.5,40.0,76,53.6,25.7,1.7,135.0,101.0,4.4,0,5,7,1,2026-06-13T19:35:10.341854+05:30
Sagar,Madhya Pradesh,23.8388,78.7378,28.3,65,0.0,946.9,8.75,41.4,88,37.3,23.6,3.1,187.0,103.0,2.7,7,5,7,1,2026-06-13T19:35:10.341877+05:30
Satna,Madhya Pradesh,24.6005,80.8322,31.9,54,0.0,967.2,8.65,35.3,110,70.3,44.9,8.0,211.0,104.0,5.2,0,5,7,1,2026-06-13T19:35:10.341885+05:30
Akola,Maharashtra,20.7002,77.0082,36.3,31,0.0,971.0,8.8,41.0,80,60.3,24.3,5.5,139.0,99.0,5.6,0,5,10,1,2026-06-13T19:35:10.341893+05:30
Amravati,Maharashtra,20.9374,77.7796,34.2,46,0.0,963.3,8.7,39.6,85,58.3,24.6,6.1,163.0,95.0,6.1,0,5,7,1,2026-06-13T19:35:10.341901+05:30
Latur,Maharashtra,18.4088,76.5604,31.6,43,0.0,937.0,8.85,35.6,74,67.1,27.7,8.1,176.0,82.0,2.8,0,5,7,1,2026-06-13T19:35:10.341908+05:30
Nanded,Maharashtra,19.1383,77.3091,31.1,55,0.0,965.6,8.9,36.4,90,63.8,29.4,11.1,291.0,82.0,4.3,0,5,7,1,2026-06-13T19:35:10.341915+05:30
Gulbarga,Karnataka,17.3297,76.8343,31.6,50,0.0,955.9,8.7,34.9,65,58.1,25.4,15.8,146.0,73.0,3.1,0,5,7,1,2026-06-13T19:35:10.341922+05:30
Bidar,Karnataka,17.9104,77.5199,30.1,57,0.0,933.1,7.2,37.4,82,62.9,33.6,15.7,299.0,74.0,3.6,0,5,7,1,2026-06-13T19:35:10.341929+05:30
Hospet,Karnataka,15.2689,76.3909,28.9,62,0.0,955.1,7.6,41.0,46,18.0,10.7,6.1,154.0,65.0,1.7,7,5,7,1,2026-06-13T19:35:10.341936+05:30
Tirupur,Tamil Nadu,11.1085,77.3411,25.5,82,0.0,975.7,8.8,51.5,54,16.9,12.0,11.3,182.0,64.0,3.4,7,5,7,1,2026-06-13T19:35:10.341943+05:30
Alappuzha,Kerala,9.4981,76.3388,24.4,97,0.1,1011.7,7.5,32.4,54,25.7,13.4,9.3,93.0,53.0,2.2,6,0,4,1,2026-06-13T19:35:10.341950+05:30
Munnar,Kerala,10.0889,77.0595,16.8,100,0.2,857.7,7.9,38.2,41,9.7,7.2,7.6,131.0,53.0,1.7,6,10,7,1,2026-06-13T19:35:10.341958+05:30
Silchar,Assam,24.8333,92.7789,26.6,94,0.1,1002.8,8.6,22.7,63,31.8,24.5,8.8,364.0,88.0,4.6,10,5,4,1,2026-06-13T19:35:10.341965+05:30
Dibrugarh,Assam,27.4728,94.912,25.2,98,0.4,992.1,8.1,24.8,83,23.7,22.6,13.2,249.0,61.0,2.0,10,5,7,1,2026-06-13T19:35:10.341974+05:30
