city,state,latitude,longitude,temp,humidity,rain,pressure,uv_index,wind_gusts,aqi,pm10,pm2_5,no2,co,o3,so2,mosquito_risk,arthritis_risk,migraine_risk,frizz_risk,updated_at
Delhi,Delhi,28.6139,77.209,35.5,49,0.0,974.5,7.75,37.1,165,285.9,116.4,52.2,650.0,50.0,30.3,0,5,10,1,2026-06-29T00:54:30.786958+05:30
Mumbai,Maharashtra,19.076,72.8777,25.4,94,0.2,1005.0,1.85,35.3,54,18.4,10.4,9.0,299.0,44.0,7.2,10,5,0,1,2026-06-29T00:54:30.786993+05:30
Bangalore,Karnataka,12.9716,77.5946,21.9,89,0.0,909.8,8.45,56.5,33,3.7,3.6,9.5,180.0,35.0,3.9,3,5,7,1,2026-06-29T00:54:30.787008+05:30
Hyderabad,Telangana,17.385,78.4867,23.8,95,0.0,949.1,5.3,36.4,52,11.6,10.7,13.5,253.0,46.0,8.9,3,5,3,1,2026-06-29T00:54:30.787017+05:30
Chennai,Tamil Nadu,13.0827,80.2707,26.2,96,0.3,1005.0,8.4,45.7,64,11.9,10.0,9.3,263.0,81.0,7.9,10,5,4,1,2026-06-29T00:54:30.787026+05:30
Kolkata,West Bengal,22.5726,88.3639,28.3,92,0.0,999.5,8.9,30.2,71,31.8,28.9,8.2,247.0,101.0,8.5,7,5,7,1,2026-06-29T00:54:30.787038+05:30
Pune,Maharashtra,18.5204,73.8567,23.5,93,0.0,944.3,5.45,38.9,36,5.4,4.8,10.2,140.0,34.0,7.2,3,5,3,1,2026-06-29T00:54:30.787045+05:30
Ahmedabad,Gujarat,23.0225,72.5714,32.7,55,0.0,995.9,7.85,44.3,68,23.1,13.9,5.5,141.0,61.0,4.2,0,5,7,1,2026-06-29T00:54:30.787052+05:30
Jaipur,Rajasthan,26.9124,75.7873,28.1,71,0.0,953.1,8.2,35.6,143,367.9,79.2,7.2,183.0,57.0,4.4,7,5,7,1,2026-06-29T00:54:30.787058+05:30
Lucknow,Uttar Pradesh,26.8467,80.9462,30.2,82,0.0,985.0,7.85,28.4,111,116.4,58.3,20.1,248.0,67.0,10.0,3,5,7,1,2026-06-29T00:54:30.787067+05:30
Kanpur,Uttar Pradesh,26.4499,80.3319,35.4,45,0.0,983.2,8.3,41.8,107,98.3,48.2,25.1,241.0,44.0,7.1,0,5,10,1,2026-06-29T00:54:30.787074+05:30
Chandigarh,Chandigarh,30.7333,76.7794,30.5,66,0.0,960.4,7.85,27.0,150,76.4,70.1,42.7,712.0,38.0,10.6,3,5,7,1,2026-06-29T00:54:30.787081+05:30
Srinagar,Jammu and Kashmir,34.0837,74.7973,21.8,74,0.0,836.2,9.1,22.7,75,40.2,38.4,30.3,652.0,4.0,0.2,3,5,7,1,2026-06-29T00:54:30.787087+05:30
Jammu,Jammu and Kashmir,32.7266,74.857,32.5,56,0.0,963.8,8.7,29.9,113,51.9,45.9,33.8,396.0,26.0,5.4,0,5,7,1,2026-06-29T00:54:30.787093+05:30
Amritsar,Punjab,31.634,74.8723,30.7,77,0.0,971.2,8.55,34.9,155,79.9,63.1,39.9,513.0,34.0,8.3,3,5,7,1,2026-06-29T00:54:30.787099+05:30
Ludhiana,Punjab,30.901,75.8573,32.9,61,0.0,969.7,7.9,33.8,162,96.2,74.7,36.2,901.0,61.0,10.3,3,5,7,1,2026-06-29T00:54:30.787105+05:30
Jalandhar,Punjab,31.326,75.5762,31.0,77,0.0,970.4,8.25,34.2,163,90.3,75.0,41.3,730.0,49.0,8.7,3,5,7,1,2026-06-29T00:54:30.787111+05:30
Dehradun,Uttarakhand,30.6284,78.0322,18.1,98,0.1,826.1,6.45,27.7,83,45.3,36.6,20.4,259.0,61.0,1.1,6,10,7,1,2026-06-29T00:54:30.787118+05:30
Shimla,Himachal Pradesh,31.1048,77.1734,15.7,92,0.0,780.1,6.2,41.4,113,50.8,44.4,23.5,351.0,37.0,0.0,3,10,7,0,2026-06-29T00:54:30.787124+05:30
Manali,Himachal Pradesh,32.2396,77.1887,17.9,65,0.0,814.8,9.25,36.4,54,10.7,9.1,66.9,254.0,27.0,0.0,3,5,7,0,2026-06-29T00:54:30.787136+05:30
Gurgaon,Haryana,28.4595,77.0266,32.3,61,0.0,972.7,7.8,36.7,177,271.9,102.0,48.8,872.0,61.0,33.3,3,5,7,1,2026-06-29T00:54:30.787142+05:30
Noida,Uttar Pradesh,28.5355,77.391,31.3,77,0.0,975.7,7.8,29.2,177,271.9,102.0,48.8,1561.0,61.0,33.3,3,5,7,1,2026-06-29T00:54:30.787150+05:30
Ghaziabad,Uttar Pradesh,28.6692,77.4538,31.9,69,0.0,974.0,7.8,29.9,164,209.5,112.0,48.2,883.0,65.0,30.2,3,5,7,1,2026-06-29T00:54:30.787156+05:30
Faridabad,Haryana,28.4089,77.3178,34.4,48,0.0,975.2,7.85,40.0,177,271.9,102.0,48.8,1167.0,61.0,33.3,0,5,7,1,2026-06-29T00:54:30.787162+05:30
Meerut,Uttar Pradesh,28.9845,77.7064,33.3,60,0.0,972.9,6.05,31.3,164,209.5,112.0,48.2,728.0,65.0,30.2,0,5,7,1,2026-06-29T00:54:30.787168+05:30
Agra,Uttar Pradesh,27.1767,78.0081,32.6,55,0.0,979.5,8.1,40.3,199,129.5,51.7,20.6,222.0,47.0,7.3,0,5,7,1,2026-06-29T00:54:30.787174+05:30
Varanasi,Uttar Pradesh,25.3176,82.9739,32.4,60,0.0,989.8,8.35,42.8,110,44.8,37.6,19.7,289.0,58.0,8.6,0,5,7,1,2026-06-29T00:54:30.787180+05:30
Prayagraj,Uttar Pradesh,25.4358,81.8463,33.4,56,0.0,987.9,8.7,37.1,100,44.6,32.5,16.3,227.0,64.0,7.1,0,5,7,1,2026-06-29T00:54:30.787187+05:30
Gorakhpur,Uttar Pradesh,26.7606,83.3732,29.9,82,0.0,989.3,8.6,28.1,152,69.2,55.1,29.6,479.0,58.0,9.2,7,5,7,1,2026-06-29T00:54:30.787193+05:30
Bareilly,Uttar Pradesh,28.367,79.4304,31.2,69,0.0,978.5,7.55,35.6,149,76.4,50.9,14.2,862.0,94.0,9.4,3,5,7,1,2026-06-29T00:54:30.787201+05:30
Aligarh,Uttar Pradesh,27.8974,78.088,32.0,65,0.0,976.6,7.25,33.8,167,206.8,96.6,57.4,624.0,15.0,13.0,3,5,7,1,2026-06-29T00:54:30.787207+05:30
Moradabad,Uttar Pradesh,28.8386,78.7733,32.2,63,0.0,975.3,7.8,36.7,162,125.3,72.4,30.8,914.0,63.0,13.2,3,5,7,1,2026-06-29T00:54:30.787214+05:30
Saharanpur,Uttar Pradesh,29.9637,77.546,31.0,69,0.0,967.5,7.45,29.9,160,124.8,99.4,31.3,656.0,80.0,19.4,3,5,7,1,2026-06-29T00:54:30.787220+05:30
Jhansi,Uttar Pradesh,25.4484,78.5685,29.5,73,0.0,971.0,8.45,40.0,73,40.9,24.4,7.7,183.0,63.0,5.8,7,5,7,1,2026-06-29T00:54:34.094755+05:30
Surat,Gujarat,21.1702,72.8311,30.1,75,0.0,1001.5,5.95,47.9,75,35.6,20.4,14.5,193.0,38.0,24.8,3,5,0,1,2026-06-29T00:54:34.094789+05:30
Vadodara,Gujarat,22.3072,73.1812,30.7,71,0.0,998.4,6.0,48.2,72,28.4,19.1,19.0,176.0,29.0,21.1,3,5,3,1,2026-06-29T00:54:34.094803+05:30
Rajkot,Gujarat,22.3039,70.8022,29.1,71,0.0,989.2,7.2,43.6,64,27.4,13.6,5.1,102.0,45.0,5.0,7,5,7,1,2026-06-29T00:54:34.094814+05:30
Thane,Maharashtra,19.2183,72.9781,25.4,98,0.0,1004.2,1.55,30.6,54,18.4,10.4,9.0,214.0,44.0,7.2,7,5,0,1,2026-06-29T00:54:34.094824+05:30
Nagpur,Maharashtra,21.1458,79.0882,27.6,85,0.0,968.0,8.5,32.4,93,29.2,26.0,13.9,216.0,65.0,12.0,7,5,7,1,2026-06-29T00:54:34.094832+05:30
Nashik,Maharashtra,19.9975,73.7898,23.5,91,0.0,941.2,4.2,45.4,47,12.7,7.9,6.8,122.0,45.0,4.9,3,5,3,1,2026-06-29T00:54:34.094841+05:30
Aurangabad,Maharashtra,19.8762,75.3433,24.4,91,0.0,940.0,6.85,50.0,60,21.1,15.3,11.0,157.0,43.0,4.8,3,5,7,1,2026-06-29T00:54:34.094847+05:30
Solapur,Maharashtra,17.6599,75.9064,24.5,96,0.0,953.4,6.15,42.8,40,10.2,9.2,7.2,168.0,64.0,1.9,3,5,7,1,2026-06-29T00:54:34.094854+05:30
Kolhapur,Maharashtra,16.705,74.2433,23.3,93,0.0,944.7,6.8,54.4,23,3.8,3.7,5.6,147.0,39.0,2.3,3,5,7,1,2026-06-29T00:54:34.094860+05:30
Goa,Goa,15.2993,74.124,24.2,99,0.5,996.2,5.0,31.3,29,12.3,8.4,2.7,216.0,51.0,1.0,6,5,3,1,2026-06-29T00:54:34.094867+05:30
Jodhpur,Rajasthan,26.2389,73.0243,32.9,45,0.0,975.9,8.45,44.6,137,178.3,44.8,4.6,138.0,53.0,1.5,0,5,7,1,2026-06-29T00:54:34.094873+05:30
Udaipur,Rajasthan,24.5854,73.7125,28.0,61,0.0,940.8,8.85,33.5,68,36.9,18.3,4.4,138.0,61.0,2.0,7,5,7,1,2026-06-29T00:54:34.094879+05:30
Kota,Rajasthan,25.2138,75.8648,30.9,60,0.0,971.8,8.35,44.3,73,23.9,15.2,9.3,210.0,52.0,3.2,0,5,7,1,2026-06-29T00:54:34.094885+05:30
Bikaner,Rajasthan,28.0229,73.3119,34.4,38,0.0,973.4,8.45,40.3,122,148.5,44.0,2.4,114.0,65.0,2.8,0,5,7,1,2026-06-29T00:54:34.094891+05:30
Ajmer,Rajasthan,26.4499,74.6399,30.7,50,0.0,948.2,8.2,51.1,96,51.2,24.0,7.6,146.0,54.0,3.8,0,5,7,1,2026-06-29T00:54:34.094897+05:30
Gwalior,Madhya Pradesh,26.2183,78.1828,30.7,64,0.0,975.6,8.25,43.9,88,87.8,40.9,7.2,159.0,58.0,3.9,3,5,7,1,2026-06-29T00:54:34.094903+05:30
Indore,Madhya Pradesh,22.7196,75.8577,25.6,80,0.0,943.0,8.4,45.0,88,51.0,39.1,17.8,290.0,45.0,7.4,7,5,7,1,2026-06-29T00:54:34.094909+05:30
Bhopal,Madhya Pradesh,23.2599,77.4126,27.1,81,0.0,948.2,8.65,28.4,85,36.9,28.2,7.5,305.0,70.0,4.0,7,5,7,1,2026-06-29T00:54:34.094915+05:30
Jabalpur,Madhya Pradesh,23.1815,79.9864,29.0,72,0.0,956.2,8.6,35.6,80,28.9,25.0,7.7,265.0,73.0,3.0,7,5,7,1,2026-06-29T00:54:34.094921+05:30
Ujjain,Madhya Pradesh,23.1765,75.7885,26.8,73,0.0,948.6,3.7,38.9,82,49.7,37.5,14.3,304.0,45.0,5.1,7,5,3,1,2026-06-29T00:54:34.094928+05:30
Visakhapatnam,Andhra Pradesh,17.6868,83.2185,28.2,91,0.0,998.7,8.25,40.7,75,30.6,24.3,18.9,313.0,87.0,31.9,7,5,7,1,2026-06-29T00:54:34.094934+05:30
Vijayawada,Andhra Pradesh,16.5062,80.648,26.0,95,0.3,999.5,7.55,41.4,70,13.6,11.7,5.2,201.0,88.0,4.0,10,5,7,1,2026-06-29T00:54:34.094940+05:30
Guntur,Andhra Pradesh,16.3067,80.4365,26.1,95,0.1,1000.4,7.55,31.0,66,11.5,10.2,5.5,192.0,83.0,2.7,10,5,4,1,2026-06-29T00:54:34.094947+05:30
Nellore,Andhra Pradesh,14.4426,79.9865,25.8,98,0.2,1003.5,8.3,45.7,57,13.0,8.7,5.7,169.0,70.0,2.6,10,5,4,1,2026-06-29T00:54:34.094954+05:30
Kurnool,Andhra Pradesh,15.8281,78.0373,25.1,94,0.0,973.6,6.7,44.3,31,4.9,4.5,9.7,143.0,39.0,4.5,7,5,7,1,2026-06-29T00:54:34.094961+05:30
Kakinada,Andhra Pradesh,16.9891,82.2475,28.1,92,0.0,1003.0,8.65,50.0,74,28.6,21.0,2.5,218.0,110.0,3.5,7,5,4,1,2026-06-29T00:54:34.094967+05:30
Tirupati,Andhra Pradesh,13.6288,79.4192,25.7,97,0.0,989.1,8.05,43.9,53,12.0,9.3,9.0,203.0,54.0,1.6,7,5,7,1,2026-06-29T00:54:34.094972+05:30
Warangal,Telangana,17.9689,79.5941,26.5,86,0.0,974.8,6.1,30.2,71,14.7,12.9,12.4,210.0,55.0,2.9,7,5,7,1,2026-06-29T00:54:34.094978+05:30
Nizamabad,Telangana,18.6725,78.0941,25.0,92,0.0,960.7,7.95,31.0,79,17.2,15.0,7.4,202.0,74.0,2.5,7,5,7,1,2026-06-29T00:54:34.094984+05:30
Mysore,Karnataka,12.2958,76.6396,22.2,90,0.0,926.9,7.8,52.6,22,2.9,2.8,6.4,116.0,36.0,1.9,3,5,7,1,2026-06-29T00:54:34.094990+05:30
Mangalore,Karnataka,12.9141,74.856,24.2,97,0.4,1006.2,5.6,35.6,29,9.1,5.6,3.0,144.0,48.0,1.1,6,5,0,1,2026-06-29T00:54:34.094996+05:30
Hubli-Dharwad,Karnataka,15.3647,75.124,22.5,94,0.0,938.2,6.5,58.0,20,2.2,1.9,4.2,116.0,42.0,1.5,3,5,7,1,2026-06-29T00:54:34.095002+05:30
Belgaum,Karnataka,15.8497,74.4977,21.2,98,0.0,922.6,7.9,52.2,20,2.5,2.0,3.1,117.0,45.0,1.0,3,5,7,1,2026-06-29T00:54:37.392049+05:30
Coimbatore,Tamil Nadu,11.0168,76.9558,23.1,92,0.0,960.7,8.85,55.1,23,2.8,2.5,4.4,160.0,39.0,2.1,3,5,7,1,2026-06-29T00:54:37.392075+05:30
Madurai,Tamil Nadu,9.9252,78.1198,28.9,63,0.0,991.6,8.75,31.7,61,19.7,17.1,29.1,139.0,9.0,6.3,7,5,7,1,2026-06-29T00:54:37.392085+05:30
Trichy,Tamil Nadu,10.7905,78.7047,27.1,76,0.0,998.0,8.8,48.6,47,10.3,8.7,12.2,108.0,40.0,3.5,7,5,7,1,2026-06-29T00:54:37.392093+05:30
Salem,Tamil Nadu,11.6643,78.146,25.2,90,0.0,976.0,8.75,37.4,52,12.1,10.4,13.8,277.0,35.0,6.3,7,5,7,1,2026-06-29T00:54:37.392100+05:30
Tirunelveli,Tamil Nadu,8.7139,77.7567,28.7,66,0.0,1002.2,8.6,58.7,26,3.5,3.0,5.0,135.0,37.0,1.4,7,5,4,1,2026-06-29T00:54:37.392107+05:30
Vellore,Tamil Nadu,12.9165,79.1325,25.9,96,0.1,982.5,8.45,45.4,55,14.1,11.9,12.1,171.0,41.0,3.0,10,5,7,1,2026-06-29T00:54:37.392114+05:30
Erode,Tamil Nadu,11.341,77.7172,25.9,79,0.0,988.0,8.85,44.3,39,9.7,9.0,13.6,145.0,29.0,3.3,7,5,7,1,2026-06-29T00:54:37.392120+05:30
Kochi,Kerala,9.9312,76.2673,25.2,94,0.1,1009.7,8.45,46.4,40,8.9,7.1,8.9,116.0,29.0,3.0,10,0,4,1,2026-06-29T00:54:37.392127+05:30
Thiruvananthapuram,Kerala,8.5241,76.9366,24.2,98,0.1,1008.3,8.3,54.4,32,10.7,6.1,2.2,154.0,52.0,0.9,6,0,4,1,2026-06-29T00:54:37.392134+05:30
Kozhikode,Kerala,11.2588,75.7804,24.0,100,0.2,1008.2,8.55,41.8,30,9.7,5.2,0.9,167.0,57.0,0.6,6,0,4,1,2026-06-29T00:54:37.392140+05:30
Thrissur,Kerala,10.5276,76.2144,24.1,97,0.1,1007.9,8.4,44.3,41,6.3,5.5,7.4,186.0,32.0,2.3,6,5,4,1,2026-06-29T00:54:37.392147+05:30
Kannur,Kerala,11.8745,75.3704,24.6,97,0.4,1007.2,8.45,47.5,30,10.4,6.9,4.5,158.0,42.0,1.4,6,5,4,1,2026-06-29T00:54:37.392153+05:30
Patna,Bihar,25.5941,85.1376,28.2,97,0.1,993.6,7.6,23.8,152,55.6,50.4,15.6,331.0,89.0,8.8,10,5,7,1,2026-06-29T00:54:37.392160+05:30
Gaya,Bihar,24.7914,85.0002,27.3,95,0.1,987.4,8.6,36.4,121,46.2,44.0,16.6,286.0,75.0,8.8,10,5,7,1,2026-06-29T00:54:37.392166+05:30
Muzaffarpur,Bihar,26.1209,85.3647,27.4,93,0.0,993.6,7.6,22.7,154,52.4,48.7,11.5,327.0,102.0,6.5,7,5,7,1,2026-06-29T00:54:37.392172+05:30
Bhagalpur,Bihar,25.2425,87.0117,28.2,97,0.0,994.1,7.8,24.8,118,48.5,47.1,10.8,285.0,106.0,12.8,7,5,7,1,2026-06-29T00:54:37.392178+05:30
Ranchi,Jharkhand,23.3441,85.3096,25.2,93,0.0,932.5,9.0,41.8,117,47.7,47.0,8.6,322.0,109.0,11.6,7,5,7,1,2026-06-29T00:54:37.392184+05:30
Jamshedpur,Jharkhand,22.8046,86.2029,28.2,85,0.0,985.0,8.75,37.1,118,50.8,49.2,23.3,788.0,66.0,28.6,7,5,7,1,2026-06-29T00:54:37.392190+05:30
Dhanbad,Jharkhand,23.7957,86.4304,28.7,84,0.0,973.6,8.8,42.8,155,62.9,61.9,41.6,1837.0,66.0,113.1,7,5,7,1,2026-06-29T00:54:37.392196+05:30
Bokaro,Jharkhand,23.6693,86.1511,29.4,79,0.0,977.5,8.75,46.1,152,50.6,49.7,24.8,1412.0,84.0,66.1,7,5,7,1,2026-06-29T00:54:37.392202+05:30
Bhubaneswar,Odisha,20.2961,85.8245,27.5,96,0.0,997.4,7.15,40.3,83,32.9,31.5,14.0,176.0,75.0,7.5,7,5,7,1,2026-06-29T00:54:37.392208+05:30
Cuttack,Odisha,20.4625,85.8828,27.7,97,0.0,999.1,7.8,37.4,83,32.9,31.5,14.0,191.0,75.0,7.5,7,5,7,1,2026-06-29T00:54:37.392215+05:30
Rourkela,Odisha,22.2604,84.8536,27.9,87,0.0,980.1,7.5,43.6,106,43.1,41.4,8.9,257.0,108.0,15.4,7,5,7,1,2026-06-29T00:54:37.392221+05:30
Raipur,Chhattisgarh,21.2514,81.6296,27.9,87,0.0,969.7,7.2,29.2,114,33.9,31.4,23.6,242.0,68.0,42.5,7,5,7,1,2026-06-29T00:54:37.392227+05:30
Bhilai,Chhattisgarh,21.1938,81.3509,28.1,81,0.0,970.1,7.1,39.2,108,33.1,30.4,22.0,276.0,76.0,39.7,7,5,7,1,2026-06-29T00:54:37.392233+05:30
Guwahati,Assam,26.1158,91.7086,26.3,91,0.0,995.2,5.9,27.0,59,17.3,16.8,7.7,314.0,64.0,2.8,7,5,3,1,2026-06-29T00:54:37.392239+05:30
Agartala,Tripura,23.8315,91.2868,26.9,92,0.0,1001.1,7.6,36.7,47,13.6,12.0,8.1,164.0,42.0,1.9,7,5,4,1,2026-06-29T00:54:37.392245+05:30
Shillong,Meghalaya,25.5788,91.8933,20.3,95,0.1,853.0,8.75,36.7,33,2.9,2.8,5.6,165.0,60.0,1.6,6,5,7,1,2026-06-29T00:54:37.392251+05:30
Imphal,Manipur,24.817,93.9368,23.1,100,0.0,919.0,9.05,31.7,46,15.9,15.7,11.1,354.0,28.0,2.1,3,5,7,1,2026-06-29T00:54:37.392257+05:30
Aizawl,Mizoram,23.7271,92.7176,20.2,92,0.0,888.9,8.15,37.1,26,3.3,3.0,2.5,119.0,43.0,0.7,3,5,7,1,2026-06-29T00:54:37.392263+05:30
Kohima,Nagaland,25.6701,94.1077,20.0,93,0.0,851.4,8.95,20.9,32,6.4,6.1,4.9,258.0,41.0,0.9,3,5,7,1,2026-06-29T00:54:37.392269+05:30
Gangtok,Sikkim,27.3314,88.6138,18.7,96,1.3,832.7,6.9,26.6,46,9.2,8.5,6.6,350.0,103.0,1.9,6,10,7,1,2026-06-29T00:54:37.392275+05:30
Siliguri,West Bengal,26.7271,88.3953,25.0,99,0.1,986.7,8.05,20.9,74,25.1,23.2,9.3,409.0,105.0,2.8,10,5,7,1,2026-06-29T00:54:40.898480+05:30
Durgapur,West Bengal,23.5204,87.3119,28.1,90,0.0,988.5,8.9,35.3,151,54.2,53.3,26.3,540.0,73.0,43.5,7,5,7,1,2026-06-29T00:54:40.898514+05:30
Asansol,West Bengal,23.6739,86.9524,28.8,86,0.0,987.1,8.9,32.8,145,56.7,55.9,31.3,449.0,72.0,64.5,7,5,7,1,2026-06-29T00:54:40.898528+05:30
Pondicherry,Puducherry,11.9139,79.8145,26.4,89,0.0,1006.6,8.7,46.4,63,11.3,8.8,11.7,310.0,63.0,11.2,7,5,4,1,2026-06-29T00:54:40.898538+05:30
Port Blair,Andaman and Nicobar Islands,11.6234,92.7265,24.5,98,0.1,1006.6,8.6,46.8,22,10.9,6.6,0.2,83.0,51.0,0.2,6,5,4,1,2026-06-29T00:54:40.898548+05:30
Haridwar,Uttarakhand,29.9457,78.1642,28.1,74,0.1,966.4,7.1,34.6,153,67.8,56.8,18.0,350.0,68.0,7.3,10,5,7,1,2026-06-29T00:54:40.898557+05:30
Rishikesh,Uttarakhand,30.0869,78.2676,25.5,95,0.1,959.7,6.0,27.0,130,56.3,38.9,9.3,311.0,96.0,4.4,10,5,3,1,2026-06-29T00:54:40.898566+05:30
Nainital,Uttarakhand,29.3919,79.4542,16.6,97,0.0,801.3,6.2,28.4,129,63.1,39.8,9.8,335.0,88.0,4.6,3,10,7,1,2026-06-29T00:54:40.898578+05:30
Mussoorie,Uttarakhand,30.4599,78.0664,17.2,97,0.0,799.4,5.45,37.1,128,49.5,40.5,18.3,328.0,76.0,6.1,3,10,3,1,2026-06-29T00:54:40.898586+05:30
Dharamshala,Himachal Pradesh,32.219,76.3234,22.7,91,0.0,864.3,7.9,31.3,57,16.9,15.1,18.6,375.0,34.0,0.1,3,5,7,1,2026-06-29T00:54:40.898592+05:30
Dalhousie,Himachal Pradesh,32.5387,75.971,15.8,99,0.0,799.4,8.05,31.3,90,37.8,31.4,18.7,483.0,75.0,1.7,3,10,7,0,2026-06-29T00:54:40.898599+05:30
Patiala,Punjab,30.3398,76.3869,32.3,66,0.0,969.4,7.3,34.6,166,143.4,97.6,42.6,767.0,39.0,9.8,3,5,7,1,2026-06-29T00:54:40.898606+05:30
Bhatinda,Punjab,30.211,74.9455,33.2,61,0.0,974.4,8.3,28.8,156,101.0,74.5,58.6,461.0,23.0,10.0,3,5,7,1,2026-06-29T00:54:40.898612+05:30
Rohtak,Haryana,28.8955,76.6066,31.8,64,0.0,973.0,7.75,32.0,165,277.5,106.9,55.9,580.0,46.0,16.9,3,5,7,1,2026-06-29T00:54:40.898618+05:30
Panipat,Haryana,29.3909,76.9635,31.7,68,0.0,971.6,6.7,32.0,177,235.2,98.3,39.5,690.0,58.0,10.1,3,5,7,1,2026-06-29T00:54:40.898625+05:30
Mathura,Uttar Pradesh,27.4924,77.6737,32.5,57,0.0,978.2,7.4,34.9,186,179.7,61.7,35.1,253.0,34.0,6.5,0,5,7,1,2026-06-29T00:54:40.898630+05:30
Vrindavan,Uttar Pradesh,27.5823,77.7027,32.0,61,0.0,978.6,7.4,32.8,186,179.7,61.7,35.1,342.0,34.0,6.5,3,5,7,1,2026-06-29T00:54:40.898636+05:30
Ayodhya,Uttar Pradesh,26.7922,82.1998,30.9,76,0.0,987.0,8.45,43.6,139,100.8,71.5,38.5,618.0,41.0,8.9,3,5,7,1,2026-06-29T00:54:40.898642+05:30
Ratlam,Madhya Pradesh,23.3315,75.0367,26.6,75,0.0,949.6,8.5,39.2,81,52.0,36.9,12.4,224.0,58.0,7.2,7,5,7,1,2026-06-29T00:54:40.898648+05:30
Sagar,Madhya Pradesh,23.8388,78.7378,27.3,81,0.0,944.7,8.1,37.8,75,35.9,25.3,8.4,195.0,68.0,3.2,7,5,7,1,2026-06-29T00:54:40.898654+05:30
Satna,Madhya Pradesh,24.6005,80.8322,31.4,57,0.0,964.7,8.75,39.2,78,39.8,31.7,18.9,185.0,42.0,3.5,0,5,7,1,2026-06-29T00:54:40.898661+05:30
Akola,Maharashtra,20.7002,77.0082,27.9,79,0.0,970.6,4.85,32.8,80,25.8,19.8,9.8,184.0,60.0,3.2,7,5,3,1,2026-06-29T00:54:40.898668+05:30
Amravati,Maharashtra,20.9374,77.7796,26.5,87,0.1,962.6,6.4,31.0,79,24.2,18.9,8.4,194.0,66.0,3.1,10,5,7,1,2026-06-29T00:54:40.898675+05:30
Latur,Maharashtra,18.4088,76.5604,23.8,93,0.0,935.8,6.9,32.8,68,18.9,14.1,5.1,187.0,84.0,1.2,3,5,7,1,2026-06-29T00:54:40.898681+05:30
Nanded,Maharashtra,19.1383,77.3091,25.0,95,0.0,964.5,6.15,28.4,68,16.2,13.6,6.8,183.0,75.0,2.0,7,5,7,1,2026-06-29T00:54:40.898687+05:30
Gulbarga,Karnataka,17.3297,76.8343,23.9,96,0.0,955.2,7.15,42.5,35,6.2,5.6,8.3,163.0,52.0,1.9,3,5,7,1,2026-06-29T00:54:40.898693+05:30
Bidar,Karnataka,17.9104,77.5199,23.4,97,0.0,931.4,6.65,32.4,53,11.6,10.2,9.4,176.0,65.0,1.3,3,5,7,1,2026-06-29T00:54:40.898700+05:30
Hospet,Karnataka,15.2689,76.3909,23.7,91,0.0,953.1,7.35,60.1,22,3.8,3.0,5.0,123.0,39.0,1.7,3,5,7,1,2026-06-29T00:54:40.898706+05:30
Tirupur,Tamil Nadu,11.1085,77.3411,23.9,88,0.0,974.2,8.85,59.0,42,11.9,11.1,16.2,134.0,25.0,4.1,3,5,7,1,2026-06-29T00:54:40.898711+05:30
Alappuzha,Kerala,9.4981,76.3388,25.3,93,0.1,1009.6,8.45,51.5,39,11.1,7.3,5.2,86.0,43.0,2.1,10,0,4,1,2026-06-29T00:54:40.898718+05:30
Munnar,Kerala,10.0889,77.0595,17.0,100,0.1,855.8,8.8,47.5,19,2.3,2.2,6.1,89.0,26.0,1.4,6,10,7,1,2026-06-29T00:54:40.898724+05:30
Silchar,Assam,24.8333,92.7789,25.7,96,0.1,1000.4,8.6,29.5,51,11.6,11.0,6.0,228.0,62.0,3.2,10,5,4,1,2026-06-29T00:54:40.898730+05:30
Dibrugarh,Assam,27.4728,94.912,24.7,97,0.2,990.1,6.7,27.0,53,10.7,9.9,9.0,188.0,54.0,1.0,6,5,7,1,2026-06-29T00:54:40.898736+05:30
