city,state,latitude,longitude,temp,humidity,rain,pressure,uv_index,wind_gusts,aqi,pm10,pm2_5,mosquito_risk,arthritis_risk,migraine_risk,frizz_risk,updated_at
Delhi,Delhi,28.6139,77.209,22.1,58,0.0,987.5,5.8,36.7,338,655.7,113.4,0,5,3,0,2026-03-03T21:21:17.505573+05:30
Mumbai,Maharashtra,19.076,72.8777,28.1,67,0.0,1011.1,7.35,25.9,169,53.9,51.3,7,0,4,1,2026-03-03T21:21:17.505633+05:30
Bangalore,Karnataka,12.9716,77.5946,24.7,44,0.0,914.5,9.1,36.0,113,34.6,34.0,0,5,7,0,2026-03-03T21:21:17.505651+05:30
Hyderabad,Telangana,17.385,78.4867,26.2,54,0.0,956.9,8.35,23.4,148,41.8,41.1,4,5,7,1,2026-03-03T21:21:17.505662+05:30
Chennai,Tamil Nadu,13.0827,80.2707,25.9,81,0.0,1011.7,8.8,30.2,110,33.1,29.5,7,0,4,1,2026-03-03T21:21:17.505672+05:30
Kolkata,West Bengal,22.5726,88.3639,24.8,58,0.0,1009.9,7.7,16.2,169,114.1,84.5,0,0,4,0,2026-03-03T21:21:17.505681+05:30
Pune,Maharashtra,18.5204,73.8567,28.7,50,0.0,951.7,7.9,32.8,135,27.6,27.2,4,5,7,1,2026-03-03T21:21:17.505695+05:30
Ahmedabad,Gujarat,23.0225,72.5714,27.9,44,0.0,1006.1,7.15,15.5,107,41.8,33.8,4,5,4,0,2026-03-03T21:21:17.505704+05:30
Jaipur,Rajasthan,26.9124,75.7873,26.5,21,0.0,964.9,6.55,29.9,102,81.0,37.4,4,5,7,0,2026-03-03T21:21:17.505712+05:30
Lucknow,Uttar Pradesh,26.8467,80.9462,23.8,53,0.0,998.3,6.3,35.6,153,247.7,63.8,0,5,7,0,2026-03-03T21:21:17.505721+05:30
Kanpur,Uttar Pradesh,26.4499,80.3319,21.1,66,0.0,996.6,6.3,28.4,186,301.7,65.7,3,5,7,0,2026-03-03T21:21:17.505728+05:30
Chandigarh,Chandigarh,30.7333,76.7794,20.0,66,0.0,972.5,5.7,33.5,140,36.4,34.5,3,5,3,0,2026-03-03T21:21:17.505736+05:30
Srinagar,Jammu and Kashmir,34.0837,74.7973,8.8,68,0.0,841.6,6.6,16.2,138,81.3,71.2,3,5,7,0,2026-03-03T21:21:17.505744+05:30
Jammu,Jammu and Kashmir,32.7266,74.857,21.9,62,0.0,976.2,6.3,20.9,106,66.1,55.2,3,5,7,0,2026-03-03T21:21:17.505751+05:30
Amritsar,Punjab,31.634,74.8723,20.9,58,0.0,984.5,6.25,25.9,102,53.6,45.2,0,5,7,0,2026-03-03T21:21:17.505759+05:30
Ludhiana,Punjab,30.901,75.8573,22.2,60,0.0,982.9,5.9,29.9,139,86.6,58.4,0,5,3,0,2026-03-03T21:21:17.505766+05:30
Jalandhar,Punjab,31.326,75.5762,22.1,57,0.0,984.0,6.05,25.9,138,59.4,48.1,0,5,7,0,2026-03-03T21:21:17.505776+05:30
Dehradun,Uttarakhand,30.6284,78.0322,12.7,86,0.0,831.3,6.05,31.0,111,31.1,28.2,3,10,7,0,2026-03-03T21:21:17.505783+05:30
Shimla,Himachal Pradesh,31.1048,77.1734,11.8,65,0.0,785.7,6.1,44.6,112,32.1,26.1,3,5,7,0,2026-03-03T21:21:17.505791+05:30
Manali,Himachal Pradesh,32.2396,77.1887,17.0,30,0.0,822.5,7.7,34.6,100,18.6,15.1,0,5,7,1,2026-03-03T21:21:17.505799+05:30
Gurgaon,Haryana,28.4595,77.0266,19.1,68,0.0,985.8,5.9,33.8,1181,1210.7,160.7,3,5,3,0,2026-03-03T21:21:17.505806+05:30
Noida,Uttar Pradesh,28.5355,77.391,22.4,55,0.0,989.0,5.8,36.4,1181,1210.7,160.7,0,5,3,0,2026-03-03T21:21:17.505814+05:30
Ghaziabad,Uttar Pradesh,28.6692,77.4538,22.3,59,0.0,987.1,5.75,36.0,248,607.2,110.1,0,5,3,0,2026-03-03T21:21:17.505821+05:30
Faridabad,Haryana,28.4089,77.3178,22.6,48,0.0,988.3,5.85,32.8,1181,1210.7,160.7,0,5,3,0,2026-03-03T21:21:17.505828+05:30
Meerut,Uttar Pradesh,28.9845,77.7064,20.2,69,0.0,985.6,5.65,41.4,248,607.2,110.1,3,5,3,0,2026-03-03T21:21:17.505838+05:30
Agra,Uttar Pradesh,27.1767,78.0081,21.7,51,0.0,992.5,6.15,30.6,473,504.8,78.5,0,5,7,0,2026-03-03T21:21:17.505845+05:30
Varanasi,Uttar Pradesh,25.3176,82.9739,22.2,59,0.0,1002.6,6.95,23.0,123,93.1,69.2,0,5,4,0,2026-03-03T21:21:17.505870+05:30
Prayagraj,Uttar Pradesh,25.4358,81.8463,23.8,55,0.0,1000.9,6.8,23.0,125,86.6,57.3,0,5,4,0,2026-03-03T21:21:17.505878+05:30
Gorakhpur,Uttar Pradesh,26.7606,83.3732,23.0,57,0.0,1001.9,6.65,16.9,147,119.0,87.3,0,5,4,0,2026-03-03T21:21:17.505888+05:30
Bareilly,Uttar Pradesh,28.367,79.4304,20.6,75,0.0,991.4,6.0,28.8,141,350.2,93.4,3,5,3,1,2026-03-03T21:21:17.505895+05:30
Aligarh,Uttar Pradesh,27.8974,78.088,20.2,60,0.0,990.1,5.9,34.9,677,899.7,140.2,0,5,3,0,2026-03-03T21:21:17.505902+05:30
Moradabad,Uttar Pradesh,28.8386,78.7733,20.9,65,0.0,987.9,5.8,28.8,142,239.3,73.6,3,5,3,0,2026-03-03T21:21:17.505909+05:30
Saharanpur,Uttar Pradesh,29.9637,77.546,19.4,68,0.0,979.4,5.45,43.2,135,149.0,53.9,3,5,3,0,2026-03-03T21:21:17.505915+05:30
Jhansi,Uttar Pradesh,25.4484,78.5685,24.3,51,0.0,982.9,6.7,26.6,78,41.7,27.4,0,5,7,0,2026-03-03T21:21:20.849327+05:30
Surat,Gujarat,21.1702,72.8311,26.9,56,0.0,1010.1,7.05,27.0,160,77.1,74.5,4,0,4,1,2026-03-03T21:21:20.849362+05:30
Vadodara,Gujarat,22.3072,73.1812,27.9,49,0.0,1008.1,7.15,13.3,152,54.8,51.6,4,0,4,1,2026-03-03T21:21:20.849373+05:30
Rajkot,Gujarat,22.3039,70.8022,28.4,30,0.0,998.4,7.0,17.6,89,22.5,19.2,4,5,7,0,2026-03-03T21:21:20.849382+05:30
Thane,Maharashtra,19.2183,72.9781,28.5,49,0.0,1010.6,7.35,36.7,169,53.9,51.3,4,0,4,1,2026-03-03T21:21:20.849391+05:30
Nagpur,Maharashtra,21.1458,79.0882,27.2,46,0.0,977.2,7.7,17.6,97,37.5,30.6,4,5,7,0,2026-03-03T21:21:20.849400+05:30
Nashik,Maharashtra,19.9975,73.7898,27.0,37,0.0,949.3,7.55,28.8,140,34.8,34.1,4,5,7,0,2026-03-03T21:21:20.849408+05:30
Aurangabad,Maharashtra,19.8762,75.3433,27.7,38,0.0,947.8,8.05,25.2,128,27.8,26.8,4,5,7,0,2026-03-03T21:21:20.849417+05:30
Solapur,Maharashtra,17.6599,75.9064,27.7,55,0.0,960.2,8.25,18.0,150,31.5,31.2,4,5,7,1,2026-03-03T21:21:20.849426+05:30
Kolhapur,Maharashtra,16.705,74.2433,25.6,67,0.0,951.1,8.4,39.2,158,80.1,79.6,7,5,7,1,2026-03-03T21:21:20.849434+05:30
Goa,Goa,15.2993,74.124,27.6,80,0.0,1001.2,8.45,34.2,81,33.9,27.6,7,5,4,1,2026-03-03T21:21:20.849442+05:30
Jodhpur,Rajasthan,26.2389,73.0243,27.5,40,0.0,987.7,6.85,15.8,75,62.9,27.5,4,5,7,0,2026-03-03T21:21:20.849450+05:30
Udaipur,Rajasthan,24.5854,73.7125,23.3,46,0.0,951.4,7.45,18.4,99,35.9,21.6,0,5,7,0,2026-03-03T21:21:20.849458+05:30
Kota,Rajasthan,25.2138,75.8648,27.6,42,0.0,983.4,6.85,19.4,86,53.1,36.6,4,5,7,0,2026-03-03T21:21:20.849466+05:30
Bikaner,Rajasthan,28.0229,73.3119,26.7,36,0.0,986.7,6.55,21.6,81,39.7,19.7,4,5,7,0,2026-03-03T21:21:20.849474+05:30
Ajmer,Rajasthan,26.4499,74.6399,25.6,25,0.0,959.5,6.8,25.9,82,47.1,28.8,4,5,7,0,2026-03-03T21:21:20.849482+05:30
Gwalior,Madhya Pradesh,26.2183,78.1828,23.1,66,0.0,988.1,6.45,29.5,124,70.1,36.3,3,5,7,1,2026-03-03T21:21:20.849490+05:30
Indore,Madhya Pradesh,22.7196,75.8577,24.1,53,0.0,952.1,7.4,16.9,95,33.9,31.1,0,5,7,0,2026-03-03T21:21:20.849498+05:30
Bhopal,Madhya Pradesh,23.2599,77.4126,24.7,50,0.0,958.2,7.3,22.3,96,36.7,27.0,0,5,7,0,2026-03-03T21:21:20.849506+05:30
Jabalpur,Madhya Pradesh,23.1815,79.9864,25.8,41,0.0,965.9,7.4,17.6,78,41.3,28.0,4,5,7,0,2026-03-03T21:21:20.849514+05:30
Ujjain,Madhya Pradesh,23.1765,75.7885,25.2,50,0.0,958.0,7.3,15.5,107,43.9,40.6,4,5,7,0,2026-03-03T21:21:20.849522+05:30
Visakhapatnam,Andhra Pradesh,17.6868,83.2185,25.9,85,0.0,1008.4,8.35,34.2,131,48.3,42.7,7,0,4,1,2026-03-03T21:21:20.849530+05:30
Vijayawada,Andhra Pradesh,16.5062,80.648,26.6,63,0.0,1006.6,8.4,26.6,142,40.6,38.2,7,5,4,1,2026-03-03T21:21:20.849538+05:30
Guntur,Andhra Pradesh,16.3067,80.4365,26.2,69,0.0,1008.0,8.4,25.9,131,47.4,45.8,7,0,4,1,2026-03-03T21:21:20.849547+05:30
Nellore,Andhra Pradesh,14.4426,79.9865,25.5,80,0.0,1010.2,8.6,29.2,121,30.4,27.4,7,0,4,1,2026-03-03T21:21:20.849555+05:30
Kurnool,Andhra Pradesh,15.8281,78.0373,30.4,37,0.0,979.9,8.45,29.2,114,33.1,32.4,0,5,7,0,2026-03-03T21:21:20.849564+05:30
Kakinada,Andhra Pradesh,16.9891,82.2475,24.9,84,0.0,1011.8,8.35,34.9,125,37.4,31.3,3,0,4,1,2026-03-03T21:21:20.849572+05:30
Tirupati,Andhra Pradesh,13.6288,79.4192,25.6,52,0.0,996.1,8.75,37.1,150,46.4,44.6,4,5,7,0,2026-03-03T21:21:20.849580+05:30
Warangal,Telangana,17.9689,79.5941,29.7,42,0.0,982.4,8.2,14.0,139,42.3,41.3,4,5,7,0,2026-03-03T21:21:20.849588+05:30
Nizamabad,Telangana,18.6725,78.0941,26.9,53,0.0,968.3,8.1,24.5,105,38.1,35.7,4,5,7,1,2026-03-03T21:21:20.849595+05:30
Mysore,Karnataka,12.2958,76.6396,26.6,38,0.0,930.8,9.15,32.8,127,34.5,33.9,4,5,7,0,2026-03-03T21:21:20.849602+05:30
Mangalore,Karnataka,12.9141,74.856,28.7,79,0.0,1009.9,8.7,29.2,64,27.1,20.2,7,0,4,1,2026-03-03T21:21:20.849611+05:30
Hubli-Dharwad,Karnataka,15.3647,75.124,27.0,54,0.0,943.5,8.6,25.6,161,35.9,35.5,4,5,7,1,2026-03-03T21:21:20.849619+05:30
Belgaum,Karnataka,15.8497,74.4977,24.1,77,0.0,928.7,8.65,32.0,173,51.7,50.9,3,5,7,1,2026-03-03T21:21:24.190794+05:30
Coimbatore,Tamil Nadu,11.0168,76.9558,26.5,45,0.0,964.8,9.15,43.6,124,42.6,41.8,4,5,7,0,2026-03-03T21:21:24.190829+05:30
Madurai,Tamil Nadu,9.9252,78.1198,26.2,60,0.0,996.4,9.1,33.8,107,30.2,29.5,4,5,7,1,2026-03-03T21:21:24.190840+05:30
Trichy,Tamil Nadu,10.7905,78.7047,26.3,74,0.0,1003.4,9.0,31.0,118,31.9,31.1,7,5,4,1,2026-03-03T21:21:24.190849+05:30
Salem,Tamil Nadu,11.6643,78.146,28.0,47,0.0,980.3,9.0,40.7,133,36.4,35.6,4,5,7,0,2026-03-03T21:21:24.190858+05:30
Tirunelveli,Tamil Nadu,8.7139,77.7567,26.0,69,0.0,1006.7,9.1,42.1,97,18.9,18.3,7,5,4,1,2026-03-03T21:21:24.190867+05:30
Vellore,Tamil Nadu,12.9165,79.1325,26.3,61,0.0,988.8,8.85,38.5,140,40.3,38.9,7,5,7,1,2026-03-03T21:21:24.190875+05:30
Erode,Tamil Nadu,11.341,77.7172,28.9,41,0.0,991.9,9.05,33.5,135,36.8,36.1,4,5,7,0,2026-03-03T21:21:24.190884+05:30
Kochi,Kerala,9.9312,76.2673,27.6,81,0.0,1011.9,8.95,33.1,115,31.7,29.5,7,0,4,1,2026-03-03T21:21:24.190893+05:30
Thiruvananthapuram,Kerala,8.5241,76.9366,28.5,69,0.0,1011.1,8.95,27.0,139,33.3,30.6,7,0,4,1,2026-03-03T21:21:24.190902+05:30
Kozhikode,Kerala,11.2588,75.7804,28.9,79,0.0,1010.6,8.85,36.4,65,26.8,19.0,7,0,4,1,2026-03-03T21:21:24.190910+05:30
Thrissur,Kerala,10.5276,76.2144,27.6,82,0.0,1009.9,8.9,38.9,113,30.2,28.2,7,0,4,1,2026-03-03T21:21:24.190918+05:30
Kannur,Kerala,11.8745,75.3704,28.4,75,0.0,1010.0,8.8,38.2,68,26.9,19.7,7,0,4,1,2026-03-03T21:21:24.190927+05:30
Patna,Bihar,25.5941,85.1376,24.8,49,0.0,1005.5,7.1,16.9,145,84.1,58.8,0,5,4,0,2026-03-03T21:21:24.190935+05:30
Gaya,Bihar,24.7914,85.0002,21.2,52,0.0,998.9,7.2,23.0,115,85.7,51.5,0,5,7,0,2026-03-03T21:21:24.190943+05:30
Muzaffarpur,Bihar,26.1209,85.3647,23.2,53,0.0,1005.4,7.05,10.4,154,104.5,68.7,0,5,4,0,2026-03-03T21:21:24.190951+05:30
Bhagalpur,Bihar,25.2425,87.0117,22.4,53,0.0,1006.4,7.15,13.0,133,108.3,73.8,0,5,4,0,2026-03-03T21:21:24.190959+05:30
Ranchi,Jharkhand,23.3441,85.3096,20.6,45,0.0,941.9,7.9,40.7,107,54.0,30.3,0,5,7,0,2026-03-03T21:21:24.190967+05:30
Jamshedpur,Jharkhand,22.8046,86.2029,24.9,41,0.0,994.8,7.75,14.4,101,67.1,40.0,0,5,7,0,2026-03-03T21:21:24.190975+05:30
Dhanbad,Jharkhand,23.7957,86.4304,25.2,24,0.0,984.6,7.65,27.7,106,58.2,39.1,4,5,7,0,2026-03-03T21:21:24.190984+05:30
Bokaro,Jharkhand,23.6693,86.1511,23.1,32,0.0,988.9,7.65,32.8,109,66.1,42.3,0,5,7,0,2026-03-03T21:21:24.190995+05:30
Bhubaneswar,Odisha,20.2961,85.8245,25.5,84,0.0,1006.7,8.1,25.2,151,49.7,43.7,7,5,4,1,2026-03-03T21:21:24.191003+05:30
Cuttack,Odisha,20.4625,85.8828,25.9,72,0.0,1008.8,8.1,26.3,151,49.7,43.7,7,0,4,1,2026-03-03T21:21:24.191011+05:30
Rourkela,Odisha,22.2604,84.8536,25.9,47,0.0,989.2,7.7,27.4,95,65.4,38.9,4,5,7,0,2026-03-03T21:21:24.191019+05:30
Raipur,Chhattisgarh,21.2514,81.6296,26.7,39,0.0,978.7,7.8,14.4,126,66.4,56.7,4,5,7,0,2026-03-03T21:21:24.191027+05:30
Bhilai,Chhattisgarh,21.1938,81.3509,27.3,38,0.0,979.1,7.8,13.7,123,57.6,50.8,4,5,7,0,2026-03-03T21:21:24.191034+05:30
Guwahati,Assam,26.1158,91.7086,25.0,59,0.0,1006.2,7.1,22.0,155,96.6,81.5,4,5,4,1,2026-03-03T21:21:24.191042+05:30
Agartala,Tripura,23.8315,91.2868,23.2,75,0.0,1010.3,7.45,15.8,175,102.2,91.5,3,0,4,1,2026-03-03T21:21:24.191050+05:30
Shillong,Meghalaya,25.5788,91.8933,11.0,87,0.0,857.9,7.45,28.4,153,104.8,87.3,3,10,7,0,2026-03-03T21:21:24.191058+05:30
Imphal,Manipur,24.817,93.9368,14.6,75,0.0,925.8,7.65,32.8,157,74.0,65.9,3,5,7,0,2026-03-03T21:21:24.191066+05:30
Aizawl,Mizoram,23.7271,92.7176,17.3,61,0.0,894.7,7.65,32.8,160,72.4,61.5,3,5,7,0,2026-03-03T21:21:24.191074+05:30
Kohima,Nagaland,25.6701,94.1077,13.0,81,0.0,856.9,6.65,45.0,152,82.0,67.5,3,10,7,0,2026-03-03T21:21:24.191082+05:30
Gangtok,Sikkim,27.3314,88.6138,12.0,90,0.0,839.6,7.4,19.4,153,110.4,81.7,3,10,7,0,2026-03-03T21:21:24.191090+05:30
Siliguri,West Bengal,26.7271,88.3953,19.8,68,0.0,999.3,7.1,20.2,164,112.0,76.6,3,5,7,0,2026-03-03T21:21:27.534649+05:30
Durgapur,West Bengal,23.5204,87.3119,25.6,43,0.0,999.7,7.65,26.6,101,52.5,30.2,4,5,7,0,2026-03-03T21:21:27.534683+05:30
Asansol,West Bengal,23.6739,86.9524,25.7,44,0.0,998.3,7.65,22.7,98,47.5,28.5,4,5,7,0,2026-03-03T21:21:27.534695+05:30
Pondicherry,Puducherry,11.9139,79.8145,23.9,89,0.0,1012.6,8.85,28.1,103,28.5,25.0,3,0,4,1,2026-03-03T21:21:27.534706+05:30
Port Blair,Andaman and Nicobar Islands,11.6234,92.7265,27.6,73,0.0,1010.4,8.8,15.5,84,32.6,24.2,7,0,4,1,2026-03-03T21:21:27.534716+05:30
Haridwar,Uttarakhand,29.9457,78.1642,23.2,46,0.0,978.3,5.55,22.3,147,128.1,56.9,0,5,3,0,2026-03-03T21:21:27.534725+05:30
Rishikesh,Uttarakhand,30.0869,78.2676,18.8,72,0.0,970.8,5.6,23.8,157,65.4,43.1,3,5,3,0,2026-03-03T21:21:27.534734+05:30
Nainital,Uttarakhand,29.3919,79.4542,15.8,62,0.0,808.1,6.4,54.7,158,71.0,58.3,3,5,7,0,2026-03-03T21:21:27.534744+05:30
Mussoorie,Uttarakhand,30.4599,78.0664,14.3,68,0.0,804.2,5.95,41.8,161,66.1,48.2,3,5,3,0,2026-03-03T21:21:27.534753+05:30
Dharamshala,Himachal Pradesh,32.219,76.3234,19.3,50,0.0,872.2,6.2,23.4,113,28.8,24.0,0,5,7,0,2026-03-03T21:21:27.534763+05:30
Dalhousie,Himachal Pradesh,32.5387,75.971,15.3,57,0.0,805.8,6.4,19.8,121,55.4,51.3,0,5,7,0,2026-03-03T21:21:27.534773+05:30
Patiala,Punjab,30.3398,76.3869,19.9,67,0.0,982.2,5.6,34.2,255,342.7,77.1,3,5,3,0,2026-03-03T21:21:27.534783+05:30
Bhatinda,Punjab,30.211,74.9455,22.0,64,0.0,988.0,6.25,28.1,135,76.4,57.3,3,5,7,0,2026-03-03T21:21:27.534791+05:30
Rohtak,Haryana,28.8955,76.6066,20.2,68,0.0,986.1,5.8,33.8,469,681.7,111.1,3,5,3,0,2026-03-03T21:21:27.534800+05:30
Panipat,Haryana,29.3909,76.9635,19.8,71,0.0,984.5,5.6,37.4,1058,1203.3,168.1,3,5,3,0,2026-03-03T21:21:27.534809+05:30
Mathura,Uttar Pradesh,27.4924,77.6737,24.8,41,0.0,991.6,6.1,29.9,516,542.0,82.4,0,5,7,0,2026-03-03T21:21:27.534818+05:30
Vrindavan,Uttar Pradesh,27.5823,77.7027,21.2,56,0.0,991.9,6.05,32.4,516,542.0,82.4,0,5,7,0,2026-03-03T21:21:27.534827+05:30
Ayodhya,Uttar Pradesh,26.7922,82.1998,22.9,63,0.0,1000.1,6.45,25.6,147,93.1,63.8,3,5,4,0,2026-03-03T21:21:27.534836+05:30
Ratlam,Madhya Pradesh,23.3315,75.0367,24.1,61,0.0,958.6,7.25,13.0,95,35.5,32.4,3,5,7,1,2026-03-03T21:21:27.534845+05:30
Sagar,Madhya Pradesh,23.8388,78.7378,25.8,45,0.0,954.6,7.2,25.6,96,36.9,23.5,4,5,7,0,2026-03-03T21:21:27.534853+05:30
Satna,Madhya Pradesh,24.6005,80.8322,24.2,45,0.0,976.1,7.2,30.2,86,40.7,23.1,0,5,7,0,2026-03-03T21:21:27.534862+05:30
Akola,Maharashtra,20.7002,77.0082,27.3,40,0.0,978.6,7.75,19.1,113,34.6,32.0,4,5,7,0,2026-03-03T21:21:27.534871+05:30
Amravati,Maharashtra,20.9374,77.7796,27.4,55,0.0,971.0,7.75,16.6,113,37.7,34.2,4,5,7,1,2026-03-03T21:21:27.534881+05:30
Latur,Maharashtra,18.4088,76.5604,26.1,54,0.0,943.2,8.2,31.0,143,26.9,25.8,4,5,7,1,2026-03-03T21:21:27.534891+05:30
Nanded,Maharashtra,19.1383,77.3091,27.9,50,0.0,972.1,8.0,19.4,103,31.5,29.6,4,5,7,1,2026-03-03T21:21:27.534899+05:30
Gulbarga,Karnataka,17.3297,76.8343,28.4,44,0.0,961.7,8.3,17.3,151,28.5,28.1,4,5,7,0,2026-03-03T21:21:27.534907+05:30
Bidar,Karnataka,17.9104,77.5199,26.0,44,0.0,938.8,8.25,19.8,119,33.1,31.9,4,5,7,0,2026-03-03T21:21:27.534916+05:30
Hospet,Karnataka,15.2689,76.3909,30.5,39,0.0,958.5,8.6,25.6,155,41.4,40.9,0,5,7,0,2026-03-03T21:21:27.534925+05:30
Tirupur,Tamil Nadu,11.1085,77.3411,28.7,37,0.0,978.2,9.15,33.8,139,46.7,45.8,4,5,7,0,2026-03-03T21:21:27.534933+05:30
Alappuzha,Kerala,9.4981,76.3388,27.2,82,0.0,1012.1,8.95,30.6,112,33.3,29.1,7,0,4,1,2026-03-03T21:21:27.534942+05:30
Munnar,Kerala,10.0889,77.0595,19.9,73,0.0,858.6,9.45,20.9,102,41.3,40.2,3,5,7,0,2026-03-03T21:21:27.534952+05:30
Silchar,Assam,24.8333,92.7789,22.9,70,0.0,1008.9,7.4,20.2,162,96.4,81.5,3,0,4,1,2026-03-03T21:21:27.534960+05:30
Dibrugarh,Assam,27.4728,94.912,23.6,77,0.0,999.7,7.1,11.2,147,78.2,62.2,3,5,7,1,2026-03-03T21:21:27.534969+05:30
