city,state,latitude,longitude,temp,humidity,rain,pressure,uv_index,wind_gusts,aqi,pm10,pm2_5,mosquito_risk,arthritis_risk,migraine_risk,frizz_risk,updated_at
Delhi,Delhi,28.6139,77.209,31.8,47,0.0,987.7,5.35,27.7,164,211.4,65.0,0,5,3,1,2026-03-09T12:44:44.948135+05:30
Mumbai,Maharashtra,19.076,72.8777,30.1,61,0.0,1009.8,7.55,24.1,117,61.5,60.8,3,0,4,1,2026-03-09T12:44:44.948172+05:30
Bangalore,Karnataka,12.9716,77.5946,30.5,34,0.0,914.3,9.25,37.4,100,42.3,32.2,0,5,7,0,2026-03-09T12:44:44.948187+05:30
Hyderabad,Telangana,17.385,78.4867,34.0,30,0.0,957.1,8.55,30.2,98,41.7,33.4,0,5,7,0,2026-03-09T12:44:44.948197+05:30
Chennai,Tamil Nadu,13.0827,80.2707,30.6,57,0.0,1011.3,8.95,33.1,83,57.5,41.7,0,0,4,1,2026-03-09T12:44:44.948206+05:30
Kolkata,West Bengal,22.5726,88.3639,30.2,61,0.0,1011.0,7.9,16.6,146,63.3,49.9,3,0,4,1,2026-03-09T12:44:44.948214+05:30
Pune,Maharashtra,18.5204,73.8567,36.4,18,0.0,951.9,8.1,31.0,69,18.5,15.0,0,5,10,0,2026-03-09T12:44:44.948225+05:30
Ahmedabad,Gujarat,23.0225,72.5714,36.9,22,0.0,1006.7,7.4,18.4,62,18.5,11.5,0,5,7,0,2026-03-09T12:44:44.948233+05:30
Jaipur,Rajasthan,26.9124,75.7873,36.9,12,0.0,965.1,6.8,29.2,81,83.8,14.9,0,5,10,0,2026-03-09T12:44:44.948240+05:30
Lucknow,Uttar Pradesh,26.8467,80.9462,32.4,44,0.0,998.2,6.55,20.5,177,163.0,56.6,0,5,7,1,2026-03-09T12:44:44.948247+05:30
Kanpur,Uttar Pradesh,26.4499,80.3319,32.6,48,0.0,996.4,6.55,18.0,164,183.0,45.6,0,5,7,1,2026-03-09T12:44:44.948254+05:30
Chandigarh,Chandigarh,30.7333,76.7794,30.7,46,0.0,973.2,5.95,28.1,117,42.1,22.1,0,5,3,1,2026-03-09T12:44:44.948261+05:30
Srinagar,Jammu and Kashmir,34.0837,74.7973,18.3,45,0.0,847.9,6.3,25.9,135,47.1,26.8,0,5,7,0,2026-03-09T12:44:44.948268+05:30
Jammu,Jammu and Kashmir,32.7266,74.857,29.6,45,0.0,977.5,6.55,20.9,90,43.2,24.9,4,5,7,1,2026-03-09T12:44:44.948275+05:30
Amritsar,Punjab,31.634,74.8723,31.2,51,0.0,985.6,6.5,16.9,159,82.0,51.5,0,5,7,1,2026-03-09T12:44:44.948282+05:30
Ludhiana,Punjab,30.901,75.8573,31.1,45,0.0,983.4,6.1,22.7,154,70.8,48.8,0,5,7,1,2026-03-09T12:44:44.948288+05:30
Jalandhar,Punjab,31.326,75.5762,30.7,50,0.0,984.6,6.35,20.9,158,73.8,46.9,0,5,7,1,2026-03-09T12:44:44.948297+05:30
Dehradun,Uttarakhand,30.6284,78.0322,23.5,40,0.0,836.1,6.3,29.9,73,33.6,14.6,0,5,7,0,2026-03-09T12:44:44.948304+05:30
Shimla,Himachal Pradesh,31.1048,77.1734,22.8,22,0.0,791.9,6.35,50.4,73,23.5,8.8,0,5,7,0,2026-03-09T12:44:44.948314+05:30
Manali,Himachal Pradesh,32.2396,77.1887,25.4,13,0.0,827.1,8.05,35.6,59,20.1,8.0,4,5,7,1,2026-03-09T12:44:44.948321+05:30
Gurgaon,Haryana,28.4595,77.0266,32.0,48,0.0,986.3,5.85,26.3,640,610.9,99.2,0,5,3,1,2026-03-09T12:44:44.948328+05:30
Noida,Uttar Pradesh,28.5355,77.391,32.6,43,0.0,989.2,5.55,27.0,640,610.9,99.2,0,5,3,1,2026-03-09T12:44:44.948351+05:30
Ghaziabad,Uttar Pradesh,28.6692,77.4538,31.6,51,0.0,987.3,5.3,27.4,157,168.6,66.6,0,5,3,1,2026-03-09T12:44:44.948358+05:30
Faridabad,Haryana,28.4089,77.3178,31.9,48,0.0,988.6,6.05,24.5,640,610.9,99.2,0,5,7,1,2026-03-09T12:44:44.948365+05:30
Meerut,Uttar Pradesh,28.9845,77.7064,31.6,47,0.0,985.9,5.5,28.4,157,168.6,66.6,0,5,3,1,2026-03-09T12:44:44.948372+05:30
Agra,Uttar Pradesh,27.1767,78.0081,35.6,30,0.0,992.3,6.4,22.3,187,277.5,71.2,0,5,10,0,2026-03-09T12:44:44.948378+05:30
Varanasi,Uttar Pradesh,25.3176,82.9739,31.6,47,0.0,1002.7,7.2,15.8,182,124.3,87.5,0,5,4,1,2026-03-09T12:44:44.948388+05:30
Prayagraj,Uttar Pradesh,25.4358,81.8463,31.8,48,0.0,1001.1,7.1,14.8,189,142.0,81.7,0,5,4,1,2026-03-09T12:44:44.948395+05:30
Gorakhpur,Uttar Pradesh,26.7606,83.3732,29.1,62,0.0,1003.0,6.9,27.0,186,123.4,108.7,7,5,4,1,2026-03-09T12:44:44.948401+05:30
Bareilly,Uttar Pradesh,28.367,79.4304,30.7,60,0.0,991.3,6.25,18.4,166,170.0,83.4,0,5,7,1,2026-03-09T12:44:44.948408+05:30
Aligarh,Uttar Pradesh,27.8974,78.088,33.0,42,0.0,990.1,6.15,24.8,237,263.6,76.6,0,5,7,1,2026-03-09T12:44:44.948417+05:30
Moradabad,Uttar Pradesh,28.8386,78.7733,30.2,60,0.0,988.2,6.05,19.1,171,147.6,86.6,0,5,7,1,2026-03-09T12:44:44.948423+05:30
Saharanpur,Uttar Pradesh,29.9637,77.546,30.0,49,0.0,980.0,5.7,28.4,160,91.7,58.4,4,5,3,1,2026-03-09T12:44:44.948429+05:30
Jhansi,Uttar Pradesh,25.4484,78.5685,36.0,22,0.0,982.5,7.0,25.6,70,42.4,17.3,0,5,10,0,2026-03-09T12:44:48.189478+05:30
Surat,Gujarat,21.1702,72.8311,35.6,26,0.0,1010.2,7.25,24.8,99,35.7,33.1,0,0,7,0,2026-03-09T12:44:48.189513+05:30
Vadodara,Gujarat,22.3072,73.1812,38.0,21,0.0,1008.4,7.4,15.5,68,19.9,18.6,0,0,7,0,2026-03-09T12:44:48.189526+05:30
Rajkot,Gujarat,22.3039,70.8022,35.5,24,0.0,999.1,7.2,24.1,63,15.8,10.6,0,5,10,0,2026-03-09T12:44:48.189537+05:30
Thane,Maharashtra,19.2183,72.9781,39.1,17,0.0,1009.2,7.55,33.8,117,61.5,60.8,0,0,7,0,2026-03-09T12:44:48.189546+05:30
Nagpur,Maharashtra,21.1458,79.0882,35.5,22,0.0,977.6,7.95,28.8,78,23.3,13.5,0,5,10,0,2026-03-09T12:44:48.189555+05:30
Nashik,Maharashtra,19.9975,73.7898,35.1,19,0.0,949.6,7.75,31.0,53,13.4,12.3,0,5,10,0,2026-03-09T12:44:48.189563+05:30
Aurangabad,Maharashtra,19.8762,75.3433,34.9,18,0.0,948.5,8.25,34.2,63,12.6,8.3,0,5,7,0,2026-03-09T12:44:48.189571+05:30
Solapur,Maharashtra,17.6599,75.9064,34.4,26,0.0,960.7,8.5,26.6,75,21.0,16.3,0,5,7,0,2026-03-09T12:44:48.189581+05:30
Kolhapur,Maharashtra,16.705,74.2433,33.8,27,0.0,950.9,8.6,40.0,140,27.1,21.5,0,5,7,0,2026-03-09T12:44:48.189589+05:30
Goa,Goa,15.2993,74.124,32.0,61,0.0,999.6,8.65,34.2,137,48.3,42.4,3,5,7,1,2026-03-09T12:44:48.189598+05:30
Jodhpur,Rajasthan,26.2389,73.0243,35.3,20,0.0,988.9,7.1,22.7,59,46.9,13.6,0,5,10,0,2026-03-09T12:44:48.189607+05:30
Udaipur,Rajasthan,24.5854,73.7125,34.9,16,0.0,952.3,7.7,14.4,38,10.5,5.9,0,5,7,0,2026-03-09T12:44:48.189615+05:30
Kota,Rajasthan,25.2138,75.8648,35.9,23,0.0,984.0,7.1,17.3,75,19.2,10.6,0,5,10,0,2026-03-09T12:44:48.189623+05:30
Bikaner,Rajasthan,28.0229,73.3119,33.8,27,0.0,987.3,6.8,22.3,55,81.7,20.9,0,5,7,0,2026-03-09T12:44:48.189632+05:30
Ajmer,Rajasthan,26.4499,74.6399,34.4,23,0.0,960.5,7.1,22.3,44,43.7,10.3,0,5,7,0,2026-03-09T12:44:48.189640+05:30
Gwalior,Madhya Pradesh,26.2183,78.1828,34.4,35,0.0,987.8,6.75,23.0,74,84.3,26.4,0,5,7,1,2026-03-09T12:44:48.189649+05:30
Indore,Madhya Pradesh,22.7196,75.8577,35.2,15,0.0,953.4,7.65,24.5,80,16.2,6.6,0,5,10,0,2026-03-09T12:44:48.189657+05:30
Bhopal,Madhya Pradesh,23.2599,77.4126,35.3,18,0.0,959.0,7.55,15.8,67,29.0,10.4,0,5,10,0,2026-03-09T12:44:48.189665+05:30
Jabalpur,Madhya Pradesh,23.1815,79.9864,33.8,24,0.0,966.6,7.65,21.2,108,44.0,18.7,0,5,7,0,2026-03-09T12:44:48.189673+05:30
Ujjain,Madhya Pradesh,23.1765,75.7885,34.1,22,0.0,959.2,7.55,14.8,98,11.8,8.1,0,5,7,0,2026-03-09T12:44:48.189682+05:30
Visakhapatnam,Andhra Pradesh,17.6868,83.2185,30.8,59,0.0,1008.4,8.55,33.8,95,55.2,43.5,0,0,4,1,2026-03-09T12:44:48.189690+05:30
Vijayawada,Andhra Pradesh,16.5062,80.648,31.1,59,0.0,1006.9,8.65,26.3,92,48.5,38.4,0,5,4,1,2026-03-09T12:44:48.189698+05:30
Guntur,Andhra Pradesh,16.3067,80.4365,30.8,57,0.0,1008.1,8.65,27.0,88,46.1,36.2,0,0,4,1,2026-03-09T12:44:48.189706+05:30
Nellore,Andhra Pradesh,14.4426,79.9865,31.4,55,0.0,1009.8,8.8,33.8,77,50.3,38.2,0,0,4,1,2026-03-09T12:44:48.189715+05:30
Kurnool,Andhra Pradesh,15.8281,78.0373,34.7,31,0.0,980.1,8.65,38.5,83,41.0,31.1,0,5,7,0,2026-03-09T12:44:48.189724+05:30
Kakinada,Andhra Pradesh,16.9891,82.2475,30.8,59,0.0,1012.2,8.55,31.7,85,54.0,40.5,0,0,4,1,2026-03-09T12:44:48.189732+05:30
Tirupati,Andhra Pradesh,13.6288,79.4192,31.5,46,0.0,995.0,8.95,38.5,90,48.7,36.6,0,5,7,1,2026-03-09T12:44:48.189741+05:30
Warangal,Telangana,17.9689,79.5941,32.3,55,0.0,982.8,8.4,28.1,110,43.2,35.5,0,5,7,1,2026-03-09T12:44:48.189748+05:30
Nizamabad,Telangana,18.6725,78.0941,34.8,26,0.0,968.8,8.3,31.7,116,41.8,27.8,0,5,7,0,2026-03-09T12:44:48.189756+05:30
Mysore,Karnataka,12.2958,76.6396,31.0,38,0.0,931.0,9.25,41.0,128,41.8,32.9,0,5,7,0,2026-03-09T12:44:48.189763+05:30
Mangalore,Karnataka,12.9141,74.856,28.9,81,0.0,1007.6,8.85,23.8,128,51.9,47.0,7,5,4,1,2026-03-09T12:44:48.189772+05:30
Hubli-Dharwad,Karnataka,15.3647,75.124,34.8,23,0.0,943.5,8.85,36.7,88,28.7,22.9,0,5,7,0,2026-03-09T12:44:48.189780+05:30
Belgaum,Karnataka,15.8497,74.4977,34.0,21,0.0,928.7,8.85,45.0,119,21.7,17.2,0,5,7,0,2026-03-09T12:44:51.435504+05:30
Coimbatore,Tamil Nadu,11.0168,76.9558,31.2,47,0.0,964.2,9.25,47.9,107,38.8,27.6,0,5,7,1,2026-03-09T12:44:51.435536+05:30
Madurai,Tamil Nadu,9.9252,78.1198,32.5,44,0.0,995.2,9.2,36.7,92,38.1,26.1,0,5,7,1,2026-03-09T12:44:51.435547+05:30
Trichy,Tamil Nadu,10.7905,78.7047,32.0,48,0.0,1002.5,9.1,32.4,80,49.6,37.0,0,5,4,1,2026-03-09T12:44:51.435557+05:30
Salem,Tamil Nadu,11.6643,78.146,32.2,43,0.0,980.0,9.15,34.9,107,55.4,40.4,0,5,7,1,2026-03-09T12:44:51.435566+05:30
Tirunelveli,Tamil Nadu,8.7139,77.7567,34.0,38,0.0,1005.2,9.2,31.7,99,29.7,20.4,0,5,4,1,2026-03-09T12:44:51.435574+05:30
Vellore,Tamil Nadu,12.9165,79.1325,31.2,45,0.0,987.9,9.0,41.8,108,46.3,34.3,0,5,7,1,2026-03-09T12:44:51.435582+05:30
Erode,Tamil Nadu,11.341,77.7172,32.5,48,0.0,991.7,9.15,28.8,82,43.8,29.2,0,5,7,1,2026-03-09T12:44:51.435589+05:30
Kochi,Kerala,9.9312,76.2673,27.7,81,0.0,1010.1,8.95,29.9,150,54.6,48.3,7,0,4,1,2026-03-09T12:44:51.435598+05:30
Thiruvananthapuram,Kerala,8.5241,76.9366,28.1,80,0.0,1009.5,9.05,26.6,111,50.1,43.0,7,0,4,1,2026-03-09T12:44:51.435605+05:30
Kozhikode,Kerala,11.2588,75.7804,29.6,75,0.0,1009.3,8.45,24.5,107,26.3,24.7,7,0,4,1,2026-03-09T12:44:51.435613+05:30
Thrissur,Kerala,10.5276,76.2144,34.5,46,0.0,1007.9,9.05,41.4,130,42.6,37.7,0,5,4,1,2026-03-09T12:44:51.435621+05:30
Kannur,Kerala,11.8745,75.3704,30.9,68,0.0,1008.4,8.95,27.0,126,40.4,37.6,3,0,4,1,2026-03-09T12:44:51.435629+05:30
Patna,Bihar,25.5941,85.1376,28.9,63,0.0,1006.1,7.4,30.6,170,96.6,87.8,7,5,4,1,2026-03-09T12:44:51.435637+05:30
Gaya,Bihar,24.7914,85.0002,30.8,60,0.0,998.3,7.5,27.0,164,109.7,95.2,0,5,7,1,2026-03-09T12:44:51.435644+05:30
Muzaffarpur,Bihar,26.1209,85.3647,27.7,65,0.0,1006.9,7.3,34.2,173,97.6,88.7,7,5,4,1,2026-03-09T12:44:51.435652+05:30
Bhagalpur,Bihar,25.2425,87.0117,28.1,70,0.0,1007.2,4.8,25.9,162,83.8,70.1,7,5,0,1,2026-03-09T12:44:51.435659+05:30
Ranchi,Jharkhand,23.3441,85.3096,30.8,42,0.0,942.3,8.15,33.5,162,93.4,74.3,0,5,7,1,2026-03-09T12:44:51.435667+05:30
Jamshedpur,Jharkhand,22.8046,86.2029,32.1,54,0.0,994.9,8.0,28.8,157,85.0,69.6,0,5,7,1,2026-03-09T12:44:51.435674+05:30
Dhanbad,Jharkhand,23.7957,86.4304,32.0,49,0.0,984.2,7.65,32.8,168,97.8,85.4,0,5,7,1,2026-03-09T12:44:51.435681+05:30
Bokaro,Jharkhand,23.6693,86.1511,32.1,46,0.0,988.2,7.6,35.6,173,101.7,85.7,0,5,7,1,2026-03-09T12:44:51.435689+05:30
Bhubaneswar,Odisha,20.2961,85.8245,32.2,50,0.0,1007.2,8.3,31.3,96,56.6,42.5,0,5,4,1,2026-03-09T12:44:51.435696+05:30
Cuttack,Odisha,20.4625,85.8828,33.1,46,0.0,1009.0,8.35,30.2,96,56.6,42.5,0,0,4,1,2026-03-09T12:44:51.435703+05:30
Rourkela,Odisha,22.2604,84.8536,34.0,43,0.0,988.9,7.9,22.7,166,98.3,78.7,0,5,7,1,2026-03-09T12:44:51.435711+05:30
Raipur,Chhattisgarh,21.2514,81.6296,34.9,30,0.0,978.8,8.0,24.8,161,78.7,63.1,0,5,7,0,2026-03-09T12:44:51.435718+05:30
Bhilai,Chhattisgarh,21.1938,81.3509,35.4,27,0.0,979.3,8.05,24.5,155,75.0,57.9,0,5,10,0,2026-03-09T12:44:51.435726+05:30
Guwahati,Assam,26.1158,91.7086,30.8,51,0.0,1006.6,7.3,11.5,154,82.0,66.6,0,5,4,1,2026-03-09T12:44:51.435734+05:30
Agartala,Tripura,23.8315,91.2868,30.7,48,0.0,1011.1,7.7,10.8,161,73.1,59.1,0,0,4,1,2026-03-09T12:44:51.435741+05:30
Shillong,Meghalaya,25.5788,91.8933,18.1,61,0.0,861.0,6.45,26.6,140,64.5,53.1,3,5,7,0,2026-03-09T12:44:51.435749+05:30
Imphal,Manipur,24.817,93.9368,24.3,54,0.0,927.9,7.95,27.0,160,55.5,49.6,0,5,7,0,2026-03-09T12:44:51.435757+05:30
Aizawl,Mizoram,23.7271,92.7176,25.4,43,0.0,898.1,7.85,27.4,163,66.6,55.3,4,5,7,0,2026-03-09T12:44:51.435765+05:30
Kohima,Nagaland,25.6701,94.1077,17.5,84,0.0,859.5,7.0,55.1,155,104.3,91.0,3,10,7,0,2026-03-09T12:44:51.435773+05:30
Gangtok,Sikkim,27.3314,88.6138,17.4,74,0.0,843.2,4.8,18.4,152,70.5,52.6,3,5,3,0,2026-03-09T12:44:51.435781+05:30
Siliguri,West Bengal,26.7271,88.3953,24.6,58,0.0,1000.7,7.35,18.4,155,73.3,54.1,0,5,4,0,2026-03-09T12:44:54.682306+05:30
Durgapur,West Bengal,23.5204,87.3119,32.1,49,0.0,999.9,7.6,23.4,159,80.8,70.1,0,5,7,1,2026-03-09T12:44:54.682377+05:30
Asansol,West Bengal,23.6739,86.9524,32.4,51,0.0,998.2,7.55,27.0,159,83.8,73.1,0,5,7,1,2026-03-09T12:44:54.682392+05:30
Pondicherry,Puducherry,11.9139,79.8145,31.4,56,0.0,1011.9,8.95,32.4,75,55.4,39.3,0,0,4,1,2026-03-09T12:44:54.682402+05:30
Port Blair,Andaman and Nicobar Islands,11.6234,92.7265,28.0,74,0.0,1009.8,8.9,27.4,84,29.9,25.6,7,0,4,1,2026-03-09T12:44:54.682411+05:30
Haridwar,Uttarakhand,29.9457,78.1642,30.0,59,0.0,978.5,5.8,25.6,158,106.4,61.2,4,5,3,1,2026-03-09T12:44:54.682419+05:30
Rishikesh,Uttarakhand,30.0869,78.2676,30.1,55,0.0,971.3,5.85,27.0,154,92.9,54.0,0,5,3,1,2026-03-09T12:44:54.682427+05:30
Nainital,Uttarakhand,29.3919,79.4542,22.7,65,0.0,811.8,6.7,55.8,158,109.0,65.7,3,5,7,0,2026-03-09T12:44:54.682435+05:30
Mussoorie,Uttarakhand,30.4599,78.0664,22.9,54,0.0,808.8,6.2,41.0,151,76.6,48.2,0,5,7,0,2026-03-09T12:44:54.682444+05:30
Dharamshala,Himachal Pradesh,32.219,76.3234,25.9,36,0.0,874.9,6.45,26.6,54,30.9,10.8,4,5,7,0,2026-03-09T12:44:54.682452+05:30
Dalhousie,Himachal Pradesh,32.5387,75.971,25.3,25,0.0,810.8,6.65,21.6,82,39.1,17.5,4,5,7,0,2026-03-09T12:44:54.682461+05:30
Patiala,Punjab,30.3398,76.3869,31.6,43,0.0,982.8,5.35,25.6,172,202.6,59.1,0,5,3,1,2026-03-09T12:44:54.682469+05:30
Bhatinda,Punjab,30.211,74.9455,31.4,50,0.0,988.7,6.2,21.6,155,89.6,59.8,0,5,7,1,2026-03-09T12:44:54.682477+05:30
Rohtak,Haryana,28.8955,76.6066,32.5,46,0.0,986.5,6.0,28.4,176,281.3,63.8,0,5,3,1,2026-03-09T12:44:54.682485+05:30
Panipat,Haryana,29.3909,76.9635,32.4,46,0.0,984.9,5.8,28.8,556,482.4,92.4,0,5,3,1,2026-03-09T12:44:54.682492+05:30
Mathura,Uttar Pradesh,27.4924,77.6737,35.4,30,0.0,991.3,6.3,24.1,195,237.0,61.5,0,5,10,0,2026-03-09T12:44:54.682499+05:30
Vrindavan,Uttar Pradesh,27.5823,77.7027,34.5,35,0.0,991.8,6.25,26.3,195,237.0,61.5,0,5,7,1,2026-03-09T12:44:54.682507+05:30
Ayodhya,Uttar Pradesh,26.7922,82.1998,30.6,58,0.0,1000.7,6.7,17.3,192,127.6,107.1,0,5,4,1,2026-03-09T12:44:54.682515+05:30
Ratlam,Madhya Pradesh,23.3315,75.0367,34.7,24,0.0,959.9,7.5,11.9,80,8.3,8.0,0,5,7,0,2026-03-09T12:44:54.682522+05:30
Sagar,Madhya Pradesh,23.8388,78.7378,34.3,23,0.0,955.4,7.5,16.9,63,32.8,10.9,0,5,7,0,2026-03-09T12:44:54.682530+05:30
Satna,Madhya Pradesh,24.6005,80.8322,34.3,28,0.0,976.2,7.45,24.1,147,107.8,34.5,0,5,7,0,2026-03-09T12:44:54.682538+05:30
Akola,Maharashtra,20.7002,77.0082,36.5,21,0.0,979.5,7.95,19.1,69,23.5,14.0,0,5,10,0,2026-03-09T12:44:54.682546+05:30
Amravati,Maharashtra,20.9374,77.7796,37.0,18,0.0,971.6,7.9,26.6,63,22.7,13.1,0,5,10,0,2026-03-09T12:44:54.682555+05:30
Latur,Maharashtra,18.4088,76.5604,34.3,19,0.0,943.9,8.4,29.5,96,25.1,18.4,0,5,7,0,2026-03-09T12:44:54.682562+05:30
Nanded,Maharashtra,19.1383,77.3091,36.8,18,0.0,972.6,8.15,29.9,77,27.9,17.9,0,5,10,0,2026-03-09T12:44:54.682573+05:30
Gulbarga,Karnataka,17.3297,76.8343,36.4,17,0.0,962.1,8.5,32.0,83,26.1,20.6,0,5,10,0,2026-03-09T12:44:54.682580+05:30
Bidar,Karnataka,17.9104,77.5199,34.6,18,0.0,939.6,8.45,31.7,102,32.6,23.3,0,5,7,0,2026-03-09T12:44:54.682588+05:30
Hospet,Karnataka,15.2689,76.3909,33.7,33,0.0,958.5,8.8,36.7,88,41.8,31.3,0,5,7,0,2026-03-09T12:44:54.682595+05:30
Tirupur,Tamil Nadu,11.1085,77.3411,32.7,41,0.0,977.9,9.25,39.2,96,40.7,27.1,0,5,7,1,2026-03-09T12:44:54.682602+05:30
Alappuzha,Kerala,9.4981,76.3388,27.4,82,0.0,1010.3,8.95,25.6,130,46.6,42.0,7,0,4,1,2026-03-09T12:44:54.682609+05:30
Munnar,Kerala,10.0889,77.0595,28.6,41,0.0,860.2,9.55,19.1,101,41.3,25.4,4,5,7,0,2026-03-09T12:44:54.682617+05:30
Silchar,Assam,24.8333,92.7789,31.0,54,0.0,1009.6,7.65,12.6,167,82.7,69.2,0,0,4,1,2026-03-09T12:44:54.682625+05:30
Dibrugarh,Assam,27.4728,94.912,29.4,57,0.0,1000.1,7.4,14.0,160,98.3,78.9,4,5,4,1,2026-03-09T12:44:54.682632+05:30
