city,state,latitude,longitude,temp,humidity,rain,pressure,uv_index,wind_gusts,aqi,pm10,pm2_5,no2,co,o3,so2,mosquito_risk,arthritis_risk,migraine_risk,frizz_risk,updated_at
Delhi,Delhi,28.6139,77.209,29.7,78,0.0,973.1,7.7,25.9,413,422.8,140.2,64.3,528.0,15.0,22.2,7,5,7,1,2026-07-12T00:37:56.686453+05:30
Mumbai,Maharashtra,19.076,72.8777,27.8,85,0.0,1006.2,7.8,53.3,54,27.7,11.6,4.6,135.0,43.0,3.6,7,5,4,1,2026-07-12T00:37:56.686513+05:30
Bangalore,Karnataka,12.9716,77.5946,22.7,86,0.0,911.6,7.45,47.9,47,15.8,9.6,14.9,274.0,33.0,4.4,3,5,7,1,2026-07-12T00:37:56.686528+05:30
Hyderabad,Telangana,17.385,78.4867,27.9,60,0.0,950.2,8.6,53.6,60,28.6,16.6,11.0,322.0,45.0,4.6,4,5,7,1,2026-07-12T00:37:56.686538+05:30
Chennai,Tamil Nadu,13.0827,80.2707,29.7,78,0.0,1004.0,7.7,40.0,70,29.8,18.6,11.3,212.0,82.0,7.7,7,5,4,1,2026-07-12T00:37:56.686546+05:30
Kolkata,West Bengal,22.5726,88.3639,27.8,95,0.0,997.0,7.65,24.1,119,70.1,55.3,17.7,416.0,70.0,13.5,7,5,7,1,2026-07-12T00:37:56.686553+05:30
Pune,Maharashtra,18.5204,73.8567,23.4,89,0.0,945.6,8.4,55.4,33,8.7,4.8,6.1,114.0,36.0,4.7,3,5,7,1,2026-07-12T00:37:56.686560+05:30
Ahmedabad,Gujarat,23.0225,72.5714,28.7,74,0.0,996.6,8.1,52.2,65,37.8,19.7,6.5,124.0,43.0,4.3,7,5,7,1,2026-07-12T00:37:56.686567+05:30
Jaipur,Rajasthan,26.9124,75.7873,28.4,71,0.0,951.8,8.2,38.5,433,407.9,78.5,10.2,211.0,56.0,4.7,7,5,7,1,2026-07-12T00:37:56.686573+05:30
Lucknow,Uttar Pradesh,26.8467,80.9462,26.6,93,0.0,984.4,8.2,36.0,153,105.0,56.1,32.1,461.0,32.0,9.6,7,5,7,1,2026-07-12T00:37:56.686584+05:30
Kanpur,Uttar Pradesh,26.4499,80.3319,29.6,72,0.0,982.8,8.2,36.7,127,109.2,41.4,11.2,183.0,74.0,8.1,7,5,7,1,2026-07-12T00:37:56.686591+05:30
Chandigarh,Chandigarh,30.7333,76.7794,26.5,88,0.0,959.0,7.7,40.0,154,105.5,88.9,71.4,879.0,12.0,11.8,7,5,7,1,2026-07-12T00:37:56.686598+05:30
Srinagar,Jammu and Kashmir,34.0837,74.7973,20.3,87,0.0,835.6,8.15,23.4,72,15.0,14.3,18.0,464.0,66.0,1.4,3,5,7,1,2026-07-12T00:37:56.686604+05:30
Jammu,Jammu and Kashmir,32.7266,74.857,27.2,83,0.0,963.0,8.3,33.5,99,26.4,24.6,30.9,494.0,48.0,4.0,7,5,7,1,2026-07-12T00:37:56.686613+05:30
Amritsar,Punjab,31.634,74.8723,28.4,85,0.0,970.6,8.35,45.0,161,175.1,93.4,19.5,415.0,75.0,7.0,7,5,7,1,2026-07-12T00:37:56.686620+05:30
Ludhiana,Punjab,30.901,75.8573,28.5,86,0.0,968.6,7.95,46.1,165,202.1,114.6,45.5,378.0,39.0,14.0,7,5,7,1,2026-07-12T00:37:56.686626+05:30
Jalandhar,Punjab,31.326,75.5762,27.7,86,0.0,969.7,8.15,45.4,166,184.9,99.2,36.0,430.0,58.0,8.7,7,5,7,1,2026-07-12T00:37:56.686632+05:30
Dehradun,Uttarakhand,30.6284,78.0322,17.7,100,0.1,823.8,8.1,29.2,57,16.2,15.6,32.6,255.0,61.0,2.6,6,10,7,1,2026-07-12T00:37:56.686640+05:30
Shimla,Himachal Pradesh,31.1048,77.1734,15.0,96,0.0,778.2,8.25,36.7,102,54.0,46.4,19.6,482.0,95.0,3.2,3,10,7,0,2026-07-12T00:37:56.686646+05:30
Manali,Himachal Pradesh,32.2396,77.1887,19.1,92,0.2,813.2,8.7,28.4,54,8.5,8.4,43.9,236.0,79.0,0.4,6,10,7,1,2026-07-12T00:37:56.686655+05:30
Gurgaon,Haryana,28.4595,77.0266,29.7,75,0.0,971.5,7.7,27.0,541,780.4,168.1,28.4,272.0,42.0,8.8,7,5,7,1,2026-07-12T00:37:56.686664+05:30
Noida,Uttar Pradesh,28.5355,77.391,29.4,85,0.0,974.6,7.7,24.5,541,780.4,168.1,28.4,248.0,42.0,8.8,7,5,7,1,2026-07-12T00:37:56.686670+05:30
Ghaziabad,Uttar Pradesh,28.6692,77.4538,29.0,88,0.0,972.8,7.7,26.6,309,488.0,166.7,62.7,1196.0,13.0,20.2,7,5,7,1,2026-07-12T00:37:56.686676+05:30
Faridabad,Haryana,28.4089,77.3178,29.7,81,0.0,973.8,7.75,26.6,541,780.4,168.1,28.4,219.0,42.0,8.8,7,5,7,1,2026-07-12T00:37:56.686682+05:30
Meerut,Uttar Pradesh,28.9845,77.7064,25.9,95,0.1,972.1,7.55,29.2,309,488.0,166.7,62.7,745.0,13.0,20.2,10,5,7,1,2026-07-12T00:37:56.686688+05:30
Agra,Uttar Pradesh,27.1767,78.0081,30.2,68,0.0,978.3,8.0,36.7,153,156.5,42.3,21.1,247.0,43.0,6.1,3,5,7,1,2026-07-12T00:37:56.686694+05:30
Varanasi,Uttar Pradesh,25.3176,82.9739,29.7,73,0.0,988.3,8.7,42.1,104,40.0,29.3,12.3,233.0,62.0,7.4,7,5,7,1,2026-07-12T00:37:56.686701+05:30
Prayagraj,Uttar Pradesh,25.4358,81.8463,30.5,64,0.0,987.3,8.6,43.6,105,62.6,39.2,12.7,183.0,63.0,6.7,3,5,7,1,2026-07-12T00:37:56.686707+05:30
Gorakhpur,Uttar Pradesh,26.7606,83.3732,26.8,97,0.2,987.8,6.2,35.3,111,84.5,53.1,13.8,383.0,82.0,5.3,10,5,7,1,2026-07-12T00:37:56.686713+05:30
Bareilly,Uttar Pradesh,28.367,79.4304,27.7,94,0.0,977.4,8.0,30.6,155,208.2,94.5,27.9,344.0,57.0,8.7,7,5,7,1,2026-07-12T00:37:56.686722+05:30
Aligarh,Uttar Pradesh,27.8974,78.088,29.8,71,0.0,975.9,7.85,29.2,381,493.6,116.4,16.6,195.0,56.0,5.4,7,5,7,1,2026-07-12T00:37:56.686728+05:30
Moradabad,Uttar Pradesh,28.8386,78.7733,27.9,96,0.1,974.5,7.8,36.0,158,135.0,72.2,25.7,443.0,69.0,9.0,10,5,7,1,2026-07-12T00:37:56.686734+05:30
Saharanpur,Uttar Pradesh,29.9637,77.546,25.7,96,0.0,966.6,7.35,39.2,140,77.1,64.5,29.5,485.0,52.0,10.5,7,5,7,1,2026-07-12T00:37:56.686741+05:30
Jhansi,Uttar Pradesh,25.4484,78.5685,29.7,68,0.0,970.1,8.4,44.6,92,32.7,19.6,7.3,140.0,69.0,7.9,7,5,7,1,2026-07-12T00:38:00.093987+05:30
Surat,Gujarat,21.1702,72.8311,28.3,85,0.0,1002.7,5.45,65.5,59,24.9,13.9,12.4,210.0,35.0,21.0,7,5,0,1,2026-07-12T00:38:00.094017+05:30
Vadodara,Gujarat,22.3072,73.1812,28.2,81,0.0,999.4,8.05,58.3,58,28.6,15.6,7.2,128.0,40.0,5.3,7,5,7,1,2026-07-12T00:38:00.094028+05:30
Rajkot,Gujarat,22.3039,70.8022,27.1,84,0.0,988.9,7.75,61.2,59,28.8,13.4,3.8,98.0,43.0,3.3,7,5,7,1,2026-07-12T00:38:00.094037+05:30
Thane,Maharashtra,19.2183,72.9781,27.2,89,0.0,1005.4,7.5,49.0,54,27.7,11.6,4.6,165.0,43.0,3.6,7,5,4,1,2026-07-12T00:38:00.094045+05:30
Nagpur,Maharashtra,21.1458,79.0882,27.6,72,0.0,967.6,7.7,41.8,81,38.5,21.8,12.4,171.0,49.0,9.9,7,5,7,1,2026-07-12T00:38:00.094053+05:30
Nashik,Maharashtra,19.9975,73.7898,23.4,90,0.0,942.2,8.1,64.4,35,7.9,4.6,7.6,102.0,32.0,3.8,3,5,7,1,2026-07-12T00:38:00.094061+05:30
Aurangabad,Maharashtra,19.8762,75.3433,23.7,86,0.0,940.3,8.95,54.7,50,19.3,9.5,7.8,133.0,37.0,8.1,3,5,7,1,2026-07-12T00:38:00.094068+05:30
Solapur,Maharashtra,17.6599,75.9064,25.2,74,0.0,955.0,8.75,50.0,44,18.3,9.7,5.4,131.0,37.0,2.2,7,5,7,1,2026-07-12T00:38:00.094076+05:30
Kolhapur,Maharashtra,16.705,74.2433,22.7,94,0.0,946.4,8.5,52.2,37,9.9,5.1,4.2,123.0,39.0,2.3,3,5,7,1,2026-07-12T00:38:00.094084+05:30
Goa,Goa,15.2993,74.124,25.7,94,0.0,997.9,7.3,38.9,54,27.7,14.6,3.6,304.0,40.0,1.5,7,5,7,1,2026-07-12T00:38:00.094091+05:30
Jodhpur,Rajasthan,26.2389,73.0243,30.5,61,0.0,974.1,8.4,53.3,214,403.3,94.3,3.1,103.0,60.0,2.5,3,5,7,1,2026-07-12T00:38:00.094098+05:30
Udaipur,Rajasthan,24.5854,73.7125,25.1,77,0.0,939.3,8.8,52.9,68,43.2,22.6,3.9,103.0,62.0,3.8,7,5,7,1,2026-07-12T00:38:00.094105+05:30
Kota,Rajasthan,25.2138,75.8648,29.1,67,0.0,971.6,8.3,42.5,81,40.5,23.9,7.0,155.0,72.0,6.3,7,5,7,1,2026-07-12T00:38:00.094113+05:30
Bikaner,Rajasthan,28.0229,73.3119,32.4,56,0.0,971.2,8.45,41.8,160,271.9,92.7,2.5,110.0,64.0,4.3,0,5,7,1,2026-07-12T00:38:00.094120+05:30
Ajmer,Rajasthan,26.4499,74.6399,28.7,66,0.0,946.5,8.35,49.0,78,33.1,21.0,5.3,123.0,66.0,3.4,7,5,7,1,2026-07-12T00:38:00.094127+05:30
Gwalior,Madhya Pradesh,26.2183,78.1828,29.2,70,0.0,974.7,8.15,43.2,88,32.1,20.8,9.0,151.0,63.0,6.5,7,5,7,1,2026-07-12T00:38:00.094134+05:30
Indore,Madhya Pradesh,22.7196,75.8577,24.8,86,0.0,942.8,8.55,52.6,63,23.6,13.7,6.7,157.0,49.0,8.2,3,5,7,1,2026-07-12T00:38:00.094141+05:30
Bhopal,Madhya Pradesh,23.2599,77.4126,26.1,79,0.0,947.8,8.6,42.1,75,29.6,18.9,5.8,183.0,65.0,5.5,7,5,7,1,2026-07-12T00:38:00.094148+05:30
Jabalpur,Madhya Pradesh,23.1815,79.9864,26.7,75,0.0,955.3,4.8,36.7,82,42.5,23.5,5.3,193.0,68.0,4.8,7,5,3,1,2026-07-12T00:38:00.094156+05:30
Ujjain,Madhya Pradesh,23.1765,75.7885,25.4,85,0.0,948.1,8.5,51.8,63,21.9,13.1,6.4,172.0,51.0,8.4,7,5,7,1,2026-07-12T00:38:00.094163+05:30
Visakhapatnam,Andhra Pradesh,17.6868,83.2185,29.1,68,0.0,998.1,8.5,40.3,91,41.3,27.0,20.9,284.0,51.0,31.2,7,5,7,1,2026-07-12T00:38:00.094171+05:30
Vijayawada,Andhra Pradesh,16.5062,80.648,30.8,62,0.0,997.8,8.55,44.3,80,41.0,26.4,15.5,286.0,42.0,5.4,3,5,7,1,2026-07-12T00:38:00.094178+05:30
Guntur,Andhra Pradesh,16.3067,80.4365,31.6,52,0.0,999.1,8.15,45.4,75,41.1,24.9,15.4,365.0,41.0,5.6,0,5,7,1,2026-07-12T00:38:00.094186+05:30
Nellore,Andhra Pradesh,14.4426,79.9865,30.0,71,0.0,1002.3,8.8,46.4,67,42.0,26.7,14.6,239.0,71.0,7.2,7,5,4,1,2026-07-12T00:38:00.094194+05:30
Kurnool,Andhra Pradesh,15.8281,78.0373,29.2,57,0.0,974.6,8.35,49.3,55,23.3,12.5,7.4,137.0,48.0,4.0,4,5,7,1,2026-07-12T00:38:00.094202+05:30
Kakinada,Andhra Pradesh,16.9891,82.2475,29.3,70,0.0,1002.2,8.3,49.0,78,38.5,24.2,9.1,343.0,69.0,5.0,7,5,4,1,2026-07-12T00:38:00.094209+05:30
Tirupati,Andhra Pradesh,13.6288,79.4192,29.1,55,0.0,988.5,8.0,38.5,72,56.2,36.4,40.6,244.0,13.0,4.4,4,5,7,1,2026-07-12T00:38:00.094216+05:30
Warangal,Telangana,17.9689,79.5941,27.7,70,0.0,974.3,8.8,43.6,75,44.0,28.8,17.7,231.0,32.0,4.5,7,5,7,1,2026-07-12T00:38:00.094223+05:30
Nizamabad,Telangana,18.6725,78.0941,27.2,64,0.0,961.1,8.8,45.4,65,25.7,14.5,7.5,184.0,49.0,6.3,7,5,7,1,2026-07-12T00:38:00.094230+05:30
Mysore,Karnataka,12.2958,76.6396,22.0,94,0.0,928.6,8.8,46.8,33,15.1,8.9,12.5,154.0,30.0,2.6,3,5,7,1,2026-07-12T00:38:00.094237+05:30
Mangalore,Karnataka,12.9141,74.856,25.2,97,0.0,1007.7,5.75,49.0,50,18.4,10.8,8.1,163.0,29.0,2.6,7,5,0,1,2026-07-12T00:38:00.094244+05:30
Hubli-Dharwad,Karnataka,15.3647,75.124,22.0,94,0.0,940.2,8.85,52.2,31,11.7,5.7,4.7,120.0,38.0,1.7,3,5,7,1,2026-07-12T00:38:00.094252+05:30
Belgaum,Karnataka,15.8497,74.4977,20.7,97,0.0,924.5,9.0,50.4,31,11.1,4.8,3.4,109.0,39.0,1.5,3,5,7,1,2026-07-12T00:38:03.334822+05:30
Coimbatore,Tamil Nadu,11.0168,76.9558,24.0,95,0.0,961.6,8.6,55.1,38,17.7,11.5,14.5,201.0,20.0,3.7,3,5,7,1,2026-07-12T00:38:03.334853+05:30
Madurai,Tamil Nadu,9.9252,78.1198,29.6,70,0.0,991.9,8.0,42.5,59,38.1,36.0,39.8,211.0,1.0,13.0,7,5,7,1,2026-07-12T00:38:03.334864+05:30
Trichy,Tamil Nadu,10.7905,78.7047,29.4,65,0.0,998.5,8.0,56.9,45,17.0,9.9,10.1,120.0,31.0,3.5,7,5,7,1,2026-07-12T00:38:03.334873+05:30
Salem,Tamil Nadu,11.6643,78.146,26.4,83,0.0,976.8,8.9,22.3,60,31.1,19.4,22.3,340.0,28.0,7.0,7,5,7,1,2026-07-12T00:38:03.334882+05:30
Tirunelveli,Tamil Nadu,8.7139,77.7567,29.4,65,0.0,1002.9,8.4,40.3,25,13.4,8.7,7.7,140.0,35.0,2.6,7,5,4,1,2026-07-12T00:38:03.334890+05:30
Vellore,Tamil Nadu,12.9165,79.1325,30.8,49,0.0,982.5,7.25,39.6,64,25.0,16.0,12.3,189.0,42.0,3.8,0,5,7,1,2026-07-12T00:38:03.334897+05:30
Erode,Tamil Nadu,11.341,77.7172,27.3,76,0.0,988.7,8.75,52.6,55,31.9,19.7,22.5,185.0,23.0,5.0,7,5,7,1,2026-07-12T00:38:03.334905+05:30
Kochi,Kerala,9.9312,76.2673,27.4,88,0.0,1009.8,7.85,43.2,49,23.5,17.9,16.7,107.0,18.0,4.4,7,0,4,1,2026-07-12T00:38:03.334913+05:30
Thiruvananthapuram,Kerala,8.5241,76.9366,25.7,93,0.0,1009.4,7.85,49.3,34,15.1,8.5,4.8,121.0,43.0,2.0,7,0,4,1,2026-07-12T00:38:03.334920+05:30
Kozhikode,Kerala,11.2588,75.7804,26.0,92,0.0,1008.5,8.15,46.8,39,20.0,10.0,3.5,170.0,46.0,1.8,7,0,4,1,2026-07-12T00:38:03.334927+05:30
Thrissur,Kerala,10.5276,76.2144,26.2,90,0.0,1008.0,7.8,41.0,50,20.5,14.1,11.8,189.0,26.0,3.9,7,0,4,1,2026-07-12T00:38:03.334936+05:30
Kannur,Kerala,11.8745,75.3704,26.3,89,0.0,1007.9,8.2,44.6,44,16.7,9.9,9.2,195.0,30.0,2.5,7,5,4,1,2026-07-12T00:38:03.334943+05:30
Patna,Bihar,25.5941,85.1376,27.2,92,0.1,991.4,8.75,37.4,123,79.4,61.2,24.1,401.0,57.0,8.9,10,5,7,1,2026-07-12T00:38:03.334951+05:30
Gaya,Bihar,24.7914,85.0002,28.7,75,0.0,985.1,8.55,38.2,99,56.7,40.3,20.3,233.0,58.0,30.8,7,5,7,1,2026-07-12T00:38:03.334959+05:30
Muzaffarpur,Bihar,26.1209,85.3647,27.4,88,0.0,991.2,8.0,35.6,122,68.0,51.0,17.5,355.0,74.0,5.8,7,5,7,1,2026-07-12T00:38:03.334966+05:30
Bhagalpur,Bihar,25.2425,87.0117,27.4,93,0.0,992.1,7.9,32.0,83,37.3,29.0,13.1,271.0,69.0,6.0,7,5,7,1,2026-07-12T00:38:03.334974+05:30
Ranchi,Jharkhand,23.3441,85.3096,24.0,92,0.0,930.4,8.45,31.0,88,45.6,34.1,8.7,228.0,69.0,9.0,3,5,7,1,2026-07-12T00:38:03.334981+05:30
Jamshedpur,Jharkhand,22.8046,86.2029,27.5,83,0.0,982.9,4.7,28.4,111,57.5,42.7,16.4,270.0,69.0,27.9,7,5,3,1,2026-07-12T00:38:03.334989+05:30
Dhanbad,Jharkhand,23.7957,86.4304,26.7,86,0.0,971.5,7.65,30.2,115,50.1,38.8,32.8,260.0,39.0,72.7,7,5,7,1,2026-07-12T00:38:03.334996+05:30
Bokaro,Jharkhand,23.6693,86.1511,27.4,84,0.0,975.4,9.05,32.0,107,48.7,36.4,22.7,250.0,47.0,50.3,7,5,7,1,2026-07-12T00:38:03.335003+05:30
Bhubaneswar,Odisha,20.2961,85.8245,27.7,89,0.0,995.2,9.05,36.4,94,55.4,38.8,14.9,390.0,60.0,7.8,7,5,7,1,2026-07-12T00:38:03.335010+05:30
Cuttack,Odisha,20.4625,85.8828,28.0,89,0.0,996.9,9.05,37.1,94,55.4,38.8,14.9,381.0,60.0,7.8,7,5,7,1,2026-07-12T00:38:03.335018+05:30
Rourkela,Odisha,22.2604,84.8536,27.4,81,0.0,978.2,8.9,30.6,125,52.7,36.9,15.5,267.0,67.0,24.1,7,5,7,1,2026-07-12T00:38:03.335025+05:30
Raipur,Chhattisgarh,21.2514,81.6296,27.6,69,0.0,968.7,7.05,43.6,110,52.4,32.4,20.6,451.0,55.0,35.7,7,5,7,1,2026-07-12T00:38:03.335032+05:30
Bhilai,Chhattisgarh,21.1938,81.3509,27.1,72,0.0,969.2,8.3,47.9,103,50.9,30.2,16.8,500.0,59.0,29.1,7,5,7,1,2026-07-12T00:38:03.335039+05:30
Guwahati,Assam,26.1158,91.7086,25.9,98,0.1,991.9,3.65,19.1,45,15.6,15.6,10.6,314.0,54.0,2.5,10,5,3,1,2026-07-12T00:38:03.335046+05:30
Agartala,Tripura,23.8315,91.2868,25.8,98,0.1,997.3,7.95,31.0,82,28.2,21.8,9.1,217.0,72.0,3.6,10,5,7,1,2026-07-12T00:38:03.335053+05:30
Shillong,Meghalaya,25.5788,91.8933,21.2,95,0.1,850.4,3.25,19.8,39,1.8,1.8,5.7,315.0,82.0,2.7,6,5,3,1,2026-07-12T00:38:03.335061+05:30
Imphal,Manipur,24.817,93.9368,23.4,99,0.0,915.7,1.45,31.0,29,13.5,10.6,7.7,375.0,58.0,2.7,3,5,3,1,2026-07-12T00:38:03.335068+05:30
Aizawl,Mizoram,23.7271,92.7176,20.2,97,0.0,885.5,4.15,36.4,37,7.5,4.7,2.3,153.0,78.0,3.4,3,5,3,1,2026-07-12T00:38:03.335075+05:30
Kohima,Nagaland,25.6701,94.1077,21.3,93,0.1,848.9,3.45,19.4,27,4.6,4.4,5.3,318.0,60.0,1.3,6,5,3,1,2026-07-12T00:38:03.335083+05:30
Gangtok,Sikkim,27.3314,88.6138,19.0,97,0.2,830.9,7.1,28.4,45,4.4,4.4,5.7,355.0,93.0,1.3,6,10,7,1,2026-07-12T00:38:03.335090+05:30
Siliguri,West Bengal,26.7271,88.3953,25.7,99,0.0,983.4,8.0,19.8,81,20.2,20.1,10.8,493.0,96.0,3.8,7,5,7,1,2026-07-12T00:38:06.590487+05:30
Durgapur,West Bengal,23.5204,87.3119,27.6,88,0.0,986.4,7.1,28.1,121,48.4,36.8,37.0,260.0,34.0,58.3,7,5,7,1,2026-07-12T00:38:06.590519+05:30
Asansol,West Bengal,23.6739,86.9524,27.5,84,0.0,985.0,8.8,30.6,105,44.5,34.0,32.9,1273.0,38.0,53.2,7,5,7,1,2026-07-12T00:38:06.590530+05:30
Pondicherry,Puducherry,11.9139,79.8145,30.0,71,0.0,1005.7,8.7,46.1,69,22.2,15.5,12.7,221.0,62.0,7.7,7,5,4,1,2026-07-12T00:38:06.590539+05:30
Port Blair,Andaman and Nicobar Islands,11.6234,92.7265,27.7,84,0.1,1004.4,8.25,58.0,32,16.9,9.0,0.2,84.0,56.0,0.4,10,5,4,1,2026-07-12T00:38:06.590548+05:30
Haridwar,Uttarakhand,29.9457,78.1642,24.2,98,0.1,965.2,7.45,32.4,97,54.8,49.4,23.5,458.0,60.0,7.4,6,5,7,1,2026-07-12T00:38:06.590557+05:30
Rishikesh,Uttarakhand,30.0869,78.2676,24.2,97,0.2,958.2,7.55,32.8,95,24.4,20.7,6.5,383.0,119.0,3.4,6,5,7,1,2026-07-12T00:38:06.590564+05:30
Nainital,Uttarakhand,29.3919,79.4542,16.3,99,0.1,799.4,8.15,33.1,71,60.5,36.6,11.9,337.0,94.0,5.8,6,10,7,1,2026-07-12T00:38:06.590573+05:30
Mussoorie,Uttarakhand,30.4599,78.0664,16.7,99,0.1,797.1,7.95,41.0,70,31.2,28.1,30.5,343.0,77.0,7.0,6,10,7,1,2026-07-12T00:38:06.590580+05:30
Dharamshala,Himachal Pradesh,32.219,76.3234,20.9,90,0.0,862.0,8.45,36.4,54,15.7,13.8,18.5,624.0,57.0,1.2,3,5,7,1,2026-07-12T00:38:06.590588+05:30
Dalhousie,Himachal Pradesh,32.5387,75.971,15.8,97,0.0,797.5,8.65,28.4,99,50.9,43.5,50.3,574.0,63.0,5.2,3,10,7,0,2026-07-12T00:38:06.590597+05:30
Patiala,Punjab,30.3398,76.3869,28.2,87,0.0,968.3,7.5,36.7,167,159.7,96.2,33.9,615.0,50.0,9.2,7,5,7,1,2026-07-12T00:38:06.590605+05:30
Bhatinda,Punjab,30.211,74.9455,30.7,77,0.0,972.9,8.25,37.4,176,338.1,130.9,29.2,341.0,53.0,9.8,3,5,7,1,2026-07-12T00:38:06.590613+05:30
Rohtak,Haryana,28.8955,76.6066,29.7,77,0.0,971.5,7.6,27.7,720,1270.3,199.8,17.2,226.0,53.0,4.1,7,5,7,1,2026-07-12T00:38:06.590621+05:30
Panipat,Haryana,29.3909,76.9635,27.0,95,0.0,970.8,7.45,26.6,876,1374.6,254.3,48.7,1150.0,20.0,9.6,7,5,7,1,2026-07-12T00:38:06.590629+05:30
Mathura,Uttar Pradesh,27.4924,77.6737,31.1,62,0.0,977.3,7.9,33.5,591,704.1,106.9,20.3,214.0,48.0,4.6,3,5,7,1,2026-07-12T00:38:06.590637+05:30
Vrindavan,Uttar Pradesh,27.5823,77.7027,31.3,60,0.0,977.6,7.9,32.4,591,704.1,106.9,20.3,202.0,48.0,4.6,0,5,7,1,2026-07-12T00:38:06.590645+05:30
Ayodhya,Uttar Pradesh,26.7922,82.1998,27.2,93,0.0,985.9,8.1,31.7,151,102.9,51.6,15.2,277.0,63.0,4.3,7,5,7,1,2026-07-12T00:38:06.590653+05:30
Ratlam,Madhya Pradesh,23.3315,75.0367,25.2,90,0.0,949.0,8.45,52.2,61,21.3,12.8,6.9,147.0,46.0,9.0,7,5,7,1,2026-07-12T00:38:06.590661+05:30
Sagar,Madhya Pradesh,23.8388,78.7378,27.3,72,0.0,944.0,8.6,46.4,83,35.4,21.4,5.5,178.0,67.0,3.7,7,5,7,1,2026-07-12T00:38:06.590668+05:30
Satna,Madhya Pradesh,24.6005,80.8322,28.2,69,0.0,963.8,8.6,42.1,91,41.3,24.4,5.1,165.0,68.0,3.5,7,5,7,1,2026-07-12T00:38:06.590676+05:30
Akola,Maharashtra,20.7002,77.0082,27.9,67,0.0,970.7,8.7,47.2,60,21.1,11.4,6.8,119.0,41.0,6.5,7,5,7,1,2026-07-12T00:38:06.590684+05:30
Amravati,Maharashtra,20.9374,77.7796,27.7,69,0.0,962.4,8.75,46.1,62,20.9,11.5,7.7,151.0,41.0,7.7,7,5,7,1,2026-07-12T00:38:06.590693+05:30
Latur,Maharashtra,18.4088,76.5604,24.8,72,0.0,936.8,8.85,49.7,50,17.1,8.8,4.7,119.0,43.0,2.8,3,5,7,1,2026-07-12T00:38:06.590700+05:30
Nanded,Maharashtra,19.1383,77.3091,27.1,70,0.0,964.9,8.85,42.8,59,19.5,11.8,5.5,131.0,53.0,4.1,7,5,7,1,2026-07-12T00:38:06.590708+05:30
Gulbarga,Karnataka,17.3297,76.8343,26.0,72,0.0,956.4,8.35,54.7,49,21.5,11.0,6.1,122.0,42.0,2.7,7,5,7,1,2026-07-12T00:38:06.590715+05:30
Bidar,Karnataka,17.9104,77.5199,25.8,63,0.0,932.6,8.8,48.2,55,22.8,11.9,5.7,142.0,49.0,2.4,7,5,7,1,2026-07-12T00:38:06.590723+05:30
Hospet,Karnataka,15.2689,76.3909,24.2,83,0.0,955.6,8.45,55.4,40,12.7,6.8,5.9,128.0,37.0,1.9,3,5,7,1,2026-07-12T00:38:06.590730+05:30
Tirupur,Tamil Nadu,11.1085,77.3411,25.3,88,0.0,975.1,8.8,64.8,57,38.6,24.8,30.3,169.0,13.0,6.7,7,5,7,1,2026-07-12T00:38:06.590738+05:30
Alappuzha,Kerala,9.4981,76.3388,27.2,91,0.0,1009.9,7.95,45.4,43,19.8,12.6,10.5,82.0,35.0,3.4,7,0,4,1,2026-07-12T00:38:06.590746+05:30
Munnar,Kerala,10.0889,77.0595,16.7,92,0.0,856.7,8.65,38.5,20,13.9,9.4,10.7,104.0,18.0,1.8,3,10,7,0,2026-07-12T00:38:06.590753+05:30
Silchar,Assam,24.8333,92.7789,26.7,93,0.1,996.4,2.25,21.2,35,20.0,13.5,4.8,333.0,73.0,3.6,10,5,3,1,2026-07-12T00:38:06.590761+05:30
Dibrugarh,Assam,27.4728,94.912,26.0,99,0.1,985.8,4.05,24.1,40,6.7,6.7,7.2,211.0,72.0,1.0,10,5,3,1,2026-07-12T00:38:06.590769+05:30
