city,state,latitude,longitude,temp,humidity,rain,pressure,uv_index,wind_gusts,aqi,pm10,pm2_5,no2,co,o3,so2,mosquito_risk,arthritis_risk,migraine_risk,frizz_risk,updated_at
Delhi,Delhi,28.6139,77.209,30.3,75,0.0,973.1,7.65,25.9,641,666.8,151.8,21.1,260.0,51.0,12.1,3,5,7,1,2026-07-13T00:48:41.547505+05:30
Mumbai,Maharashtra,19.076,72.8777,27.9,81,0.0,1005.7,4.35,49.7,52,31.0,13.5,4.4,129.0,45.0,4.2,7,5,0,1,2026-07-13T00:48:41.547570+05:30
Bangalore,Karnataka,12.9716,77.5946,21.5,86,0.0,910.5,8.9,48.6,46,12.5,7.9,8.9,201.0,40.0,4.0,3,5,7,1,2026-07-13T00:48:41.547586+05:30
Hyderabad,Telangana,17.385,78.4867,28.2,59,0.0,949.7,8.95,47.5,57,22.8,14.2,8.1,152.0,48.0,4.4,4,5,7,1,2026-07-13T00:48:41.547596+05:30
Chennai,Tamil Nadu,13.0827,80.2707,30.1,77,0.0,1002.6,7.5,40.7,72,29.3,18.3,9.7,173.0,71.0,6.9,3,5,4,1,2026-07-13T00:48:41.547604+05:30
Kolkata,West Bengal,22.5726,88.3639,28.5,88,0.0,997.3,5.7,22.0,145,66.4,53.8,12.9,414.0,81.0,11.6,7,5,3,1,2026-07-13T00:48:41.547612+05:30
Pune,Maharashtra,18.5204,73.8567,23.3,86,0.0,944.8,8.4,53.3,34,13.2,6.6,5.8,111.0,36.0,5.0,3,5,7,1,2026-07-13T00:48:41.547619+05:30
Ahmedabad,Gujarat,23.0225,72.5714,28.9,72,0.0,995.9,8.15,48.6,65,34.9,17.2,5.0,119.0,42.0,3.8,7,5,7,1,2026-07-13T00:48:41.547625+05:30
Jaipur,Rajasthan,26.9124,75.7873,28.9,66,0.0,951.9,8.2,36.7,366,393.0,80.3,11.9,156.0,51.0,5.3,7,5,7,1,2026-07-13T00:48:41.547632+05:30
Lucknow,Uttar Pradesh,26.8467,80.9462,29.7,70,0.0,983.6,8.2,36.4,122,78.2,40.0,11.5,180.0,65.0,7.2,7,5,7,1,2026-07-13T00:48:41.547654+05:30
Kanpur,Uttar Pradesh,26.4499,80.3319,29.9,69,0.0,982.3,8.2,37.8,109,87.8,38.1,12.1,177.0,63.0,7.7,7,5,7,1,2026-07-13T00:48:41.547663+05:30
Chandigarh,Chandigarh,30.7333,76.7794,27.1,78,0.0,958.9,7.7,24.8,160,178.8,95.7,37.9,755.0,64.0,19.7,7,5,7,1,2026-07-13T00:48:41.547670+05:30
Srinagar,Jammu and Kashmir,34.0837,74.7973,16.9,98,0.0,836.8,8.9,22.0,48,43.9,42.1,40.0,512.0,24.0,3.1,3,10,7,1,2026-07-13T00:48:41.547677+05:30
Jammu,Jammu and Kashmir,32.7266,74.857,26.0,88,0.0,962.9,8.55,24.1,140,106.9,73.6,54.4,744.0,29.0,9.1,7,5,7,1,2026-07-13T00:48:41.547686+05:30
Amritsar,Punjab,31.634,74.8723,26.6,88,0.0,970.9,8.45,18.4,159,180.7,107.1,40.1,1010.0,44.0,8.3,7,5,7,1,2026-07-13T00:48:41.547693+05:30
Ludhiana,Punjab,30.901,75.8573,27.3,90,0.0,968.7,7.9,23.0,170,177.4,107.3,48.2,393.0,26.0,9.0,7,5,7,1,2026-07-13T00:48:41.547699+05:30
Jalandhar,Punjab,31.326,75.5762,26.8,85,0.0,969.8,8.15,20.9,161,186.7,120.1,64.4,395.0,14.0,9.2,7,5,7,1,2026-07-13T00:48:41.547707+05:30
Dehradun,Uttarakhand,30.6284,78.0322,18.4,100,0.0,823.5,8.15,28.8,81,99.0,50.4,25.1,260.0,69.0,5.4,3,10,7,1,2026-07-13T00:48:41.547716+05:30
Shimla,Himachal Pradesh,31.1048,77.1734,17.0,58,0.0,778.9,8.25,35.6,101,90.3,49.7,16.0,272.0,84.0,6.6,0,5,7,0,2026-07-13T00:48:41.547722+05:30
Manali,Himachal Pradesh,32.2396,77.1887,17.6,85,0.0,813.4,9.35,32.4,89,9.1,8.3,11.9,291.0,120.0,0.0,3,10,7,0,2026-07-13T00:48:41.547731+05:30
Gurgaon,Haryana,28.4595,77.0266,30.5,71,0.0,971.7,7.6,30.2,829,1024.5,210.0,16.1,257.0,56.0,7.7,3,5,7,1,2026-07-13T00:48:41.547740+05:30
Noida,Uttar Pradesh,28.5355,77.391,30.6,75,0.0,974.5,7.65,24.8,829,1024.5,210.0,16.1,255.0,56.0,7.7,3,5,7,1,2026-07-13T00:48:41.547747+05:30
Ghaziabad,Uttar Pradesh,28.6692,77.4538,30.6,74,0.0,972.5,7.6,26.6,524,434.0,132.2,30.2,357.0,41.0,17.5,3,5,7,1,2026-07-13T00:48:41.547753+05:30
Faridabad,Haryana,28.4089,77.3178,30.3,77,0.0,973.9,7.65,27.7,829,1024.5,210.0,16.1,244.0,56.0,7.7,3,5,7,1,2026-07-13T00:48:41.547759+05:30
Meerut,Uttar Pradesh,28.9845,77.7064,29.6,75,0.0,971.5,7.25,28.1,524,434.0,132.2,30.2,510.0,41.0,17.5,7,5,7,1,2026-07-13T00:48:41.547765+05:30
Agra,Uttar Pradesh,27.1767,78.0081,30.5,66,0.0,978.4,8.0,38.9,137,147.6,43.0,16.2,224.0,50.0,5.8,3,5,7,1,2026-07-13T00:48:41.547771+05:30
Varanasi,Uttar Pradesh,25.3176,82.9739,29.5,75,0.0,988.5,8.7,36.0,93,44.7,30.4,13.4,224.0,57.0,8.0,7,5,7,1,2026-07-13T00:48:41.547778+05:30
Prayagraj,Uttar Pradesh,25.4358,81.8463,30.0,66,0.0,987.3,8.55,40.7,91,45.9,28.7,9.3,165.0,68.0,6.2,7,5,7,1,2026-07-13T00:48:41.547785+05:30
Gorakhpur,Uttar Pradesh,26.7606,83.3732,26.4,97,0.0,987.4,8.45,28.8,131,83.4,56.6,25.1,319.0,50.0,6.3,7,5,7,1,2026-07-13T00:48:41.547791+05:30
Bareilly,Uttar Pradesh,28.367,79.4304,29.9,79,0.0,976.6,8.0,29.2,173,220.3,84.1,18.7,274.0,49.0,6.6,7,5,7,1,2026-07-13T00:48:41.547799+05:30
Aligarh,Uttar Pradesh,27.8974,78.088,30.4,69,0.0,975.9,7.85,32.8,608,704.1,157.4,12.0,198.0,63.0,5.1,3,5,7,1,2026-07-13T00:48:41.547807+05:30
Moradabad,Uttar Pradesh,28.8386,78.7733,28.9,82,0.0,973.6,7.85,38.2,296,542.0,156.0,31.7,438.0,43.0,13.4,7,5,7,1,2026-07-13T00:48:41.547813+05:30
Saharanpur,Uttar Pradesh,29.9637,77.546,26.8,78,0.0,965.7,7.35,28.1,176,219.3,145.8,65.1,417.0,17.0,21.8,7,5,7,1,2026-07-13T00:48:41.547819+05:30
Jhansi,Uttar Pradesh,25.4484,78.5685,30.0,64,0.0,969.9,8.45,43.6,83,44.5,25.6,7.1,143.0,70.0,8.0,7,5,7,1,2026-07-13T00:48:44.794496+05:30
Surat,Gujarat,21.1702,72.8311,28.4,81,0.0,1002.2,7.05,61.2,59,27.6,15.3,11.6,183.0,38.0,20.2,7,5,4,1,2026-07-13T00:48:44.794583+05:30
Vadodara,Gujarat,22.3072,73.1812,28.1,81,0.0,998.8,7.9,56.5,59,32.1,16.9,6.6,107.0,40.0,6.4,7,5,7,1,2026-07-13T00:48:44.794608+05:30
Rajkot,Gujarat,22.3039,70.8022,27.3,82,0.0,988.0,7.7,56.9,58,30.9,15.1,2.8,94.0,45.0,2.4,7,5,7,1,2026-07-13T00:48:44.794625+05:30
Thane,Maharashtra,19.2183,72.9781,27.1,85,0.0,1004.9,5.1,45.4,52,31.0,13.5,4.4,149.0,45.0,4.2,7,5,0,1,2026-07-13T00:48:44.794642+05:30
Nagpur,Maharashtra,21.1458,79.0882,27.5,77,0.0,967.8,8.7,41.4,72,43.0,25.1,12.7,242.0,46.0,9.4,7,5,7,1,2026-07-13T00:48:44.794660+05:30
Nashik,Maharashtra,19.9975,73.7898,23.4,93,0.0,941.5,8.1,57.2,37,11.8,7.0,8.2,120.0,32.0,6.3,3,5,7,1,2026-07-13T00:48:44.794675+05:30
Aurangabad,Maharashtra,19.8762,75.3433,23.9,85,0.0,940.1,8.95,50.0,53,23.1,11.0,8.5,127.0,37.0,9.5,3,5,7,1,2026-07-13T00:48:44.794697+05:30
Solapur,Maharashtra,17.6599,75.9064,25.1,78,0.0,954.4,8.9,44.6,46,17.3,9.3,5.0,123.0,36.0,2.4,7,5,7,1,2026-07-13T00:48:44.794718+05:30
Kolhapur,Maharashtra,16.705,74.2433,22.9,93,0.0,946.1,8.9,50.4,32,13.1,7.4,4.5,114.0,36.0,2.4,3,5,7,1,2026-07-13T00:48:44.794740+05:30
Goa,Goa,15.2993,74.124,25.8,95,0.0,997.4,6.1,39.6,54,30.3,17.6,4.5,307.0,37.0,1.5,7,5,7,1,2026-07-13T00:48:44.794758+05:30
Jodhpur,Rajasthan,26.2389,73.0243,30.4,63,0.0,974.4,8.45,47.2,165,287.8,62.6,2.9,99.0,60.0,2.6,3,5,7,1,2026-07-13T00:48:44.794775+05:30
Udaipur,Rajasthan,24.5854,73.7125,26.0,84,0.0,939.5,8.45,48.6,71,36.3,19.6,5.1,125.0,53.0,5.3,7,5,7,1,2026-07-13T00:48:44.794789+05:30
Kota,Rajasthan,25.2138,75.8648,29.2,70,0.0,971.3,8.3,42.8,82,43.1,26.1,6.6,149.0,70.0,7.1,7,5,7,1,2026-07-13T00:48:44.794806+05:30
Bikaner,Rajasthan,28.0229,73.3119,31.8,55,0.0,972.0,8.45,36.7,159,312.9,87.1,2.7,125.0,57.0,2.9,0,5,7,1,2026-07-13T00:48:44.794828+05:30
Ajmer,Rajasthan,26.4499,74.6399,28.5,65,0.0,947.0,8.35,52.6,79,42.5,24.3,5.6,118.0,62.0,4.0,7,5,7,1,2026-07-13T00:48:44.794847+05:30
Gwalior,Madhya Pradesh,26.2183,78.1828,29.6,67,0.0,974.4,8.2,43.2,83,42.8,25.8,8.6,149.0,67.0,7.4,7,5,7,1,2026-07-13T00:48:44.794866+05:30
Indore,Madhya Pradesh,22.7196,75.8577,24.9,87,0.0,943.0,8.6,55.4,66,27.1,14.0,5.9,158.0,46.0,6.9,3,5,7,1,2026-07-13T00:48:44.794887+05:30
Bhopal,Madhya Pradesh,23.2599,77.4126,26.5,79,0.0,948.0,7.9,44.3,72,43.7,27.2,5.9,175.0,66.0,6.2,7,5,7,1,2026-07-13T00:48:44.794911+05:30
Jabalpur,Madhya Pradesh,23.1815,79.9864,26.7,80,0.0,955.4,6.7,36.4,72,43.9,24.3,5.8,223.0,63.0,4.7,7,5,7,1,2026-07-13T00:48:44.794931+05:30
Ujjain,Madhya Pradesh,23.1765,75.7885,25.6,86,0.0,948.4,7.95,52.9,66,27.4,14.1,5.9,152.0,45.0,7.8,7,5,7,1,2026-07-13T00:48:44.794953+05:30
Visakhapatnam,Andhra Pradesh,17.6868,83.2185,29.7,63,0.0,996.5,8.2,31.7,94,42.1,26.2,20.0,271.0,47.0,32.5,7,5,7,1,2026-07-13T00:48:44.794968+05:30
Vijayawada,Andhra Pradesh,16.5062,80.648,31.2,60,0.0,996.9,8.7,49.7,82,47.5,33.9,18.6,484.0,37.0,6.1,0,5,7,1,2026-07-13T00:48:44.794985+05:30
Guntur,Andhra Pradesh,16.3067,80.4365,31.9,49,0.0,998.1,8.25,47.9,76,43.2,29.9,18.4,313.0,36.0,6.1,0,5,7,1,2026-07-13T00:48:44.795006+05:30
Nellore,Andhra Pradesh,14.4426,79.9865,29.7,73,0.0,1001.2,8.7,49.7,67,36.3,25.0,12.6,209.0,61.0,7.6,7,5,4,1,2026-07-13T00:48:44.795025+05:30
Kurnool,Andhra Pradesh,15.8281,78.0373,29.4,56,0.0,973.9,8.9,49.3,53,17.5,9.8,5.6,134.0,47.0,3.9,4,5,7,1,2026-07-13T00:48:44.795050+05:30
Kakinada,Andhra Pradesh,16.9891,82.2475,29.2,70,0.0,1001.2,6.45,44.6,84,44.9,28.0,9.1,302.0,66.0,5.1,7,5,4,1,2026-07-13T00:48:44.795067+05:30
Tirupati,Andhra Pradesh,13.6288,79.4192,26.9,88,0.0,987.0,8.3,39.6,78,56.8,37.3,35.1,175.0,21.0,6.3,7,5,7,1,2026-07-13T00:48:44.795084+05:30
Warangal,Telangana,17.9689,79.5941,27.4,80,0.0,973.7,8.75,45.0,73,46.8,33.5,20.1,365.0,26.0,5.2,7,5,7,1,2026-07-13T00:48:44.795099+05:30
Nizamabad,Telangana,18.6725,78.0941,28.3,63,0.0,960.6,8.8,46.1,62,29.2,18.2,8.2,140.0,50.0,6.4,7,5,7,1,2026-07-13T00:48:44.795113+05:30
Mysore,Karnataka,12.2958,76.6396,21.8,92,0.0,927.8,9.0,44.6,40,12.1,7.2,7.3,128.0,34.0,2.4,3,5,7,1,2026-07-13T00:48:44.795149+05:30
Mangalore,Karnataka,12.9141,74.856,26.3,91,0.0,1006.9,8.7,47.2,42,20.7,11.2,5.0,136.0,34.0,2.4,7,5,4,1,2026-07-13T00:48:44.795162+05:30
Hubli-Dharwad,Karnataka,15.3647,75.124,22.4,94,0.0,939.6,8.95,50.8,30,11.2,5.9,4.1,107.0,37.0,1.7,3,5,7,1,2026-07-13T00:48:44.795172+05:30
Belgaum,Karnataka,15.8497,74.4977,20.9,96,0.0,924.0,9.0,50.8,29,10.9,5.5,3.9,106.0,37.0,1.5,3,5,7,1,2026-07-13T00:48:48.069411+05:30
Coimbatore,Tamil Nadu,11.0168,76.9558,23.5,95,0.0,960.5,8.45,54.4,40,10.9,8.1,8.6,168.0,26.0,3.2,3,5,7,1,2026-07-13T00:48:48.069442+05:30
Madurai,Tamil Nadu,9.9252,78.1198,28.6,61,0.0,990.8,8.65,43.2,62,12.7,10.1,11.2,126.0,30.0,4.3,7,5,7,1,2026-07-13T00:48:48.069453+05:30
Trichy,Tamil Nadu,10.7905,78.7047,28.6,60,0.0,997.3,8.25,52.6,52,13.5,7.0,4.3,110.0,41.0,2.5,4,5,7,1,2026-07-13T00:48:48.069462+05:30
Salem,Tamil Nadu,11.6643,78.146,25.4,82,0.0,975.9,8.75,34.6,61,17.8,11.6,11.3,252.0,34.0,5.5,7,5,7,1,2026-07-13T00:48:48.069471+05:30
Tirunelveli,Tamil Nadu,8.7139,77.7567,28.7,64,0.0,1001.0,8.2,50.8,30,9.8,6.3,5.3,133.0,35.0,2.3,7,5,4,1,2026-07-13T00:48:48.069479+05:30
Vellore,Tamil Nadu,12.9165,79.1325,30.8,48,0.0,981.0,8.05,47.2,62,20.4,13.1,7.4,146.0,52.0,3.7,0,5,7,1,2026-07-13T00:48:48.069487+05:30
Erode,Tamil Nadu,11.341,77.7172,26.2,78,0.0,987.7,8.45,52.6,53,20.6,14.0,14.7,158.0,28.0,4.0,7,5,7,1,2026-07-13T00:48:48.069495+05:30
Kochi,Kerala,9.9312,76.2673,27.3,84,0.0,1009.1,8.1,46.1,46,15.8,11.6,10.2,107.0,24.0,3.6,7,0,4,1,2026-07-13T00:48:48.069502+05:30
Thiruvananthapuram,Kerala,8.5241,76.9366,25.4,90,0.0,1008.5,8.0,51.5,35,14.2,8.3,3.5,122.0,41.0,1.6,7,0,4,1,2026-07-13T00:48:48.069510+05:30
Kozhikode,Kerala,11.2588,75.7804,25.3,97,0.0,1008.4,8.35,45.4,35,20.8,9.7,1.9,142.0,46.0,1.3,7,0,4,1,2026-07-13T00:48:48.069517+05:30
Thrissur,Kerala,10.5276,76.2144,25.8,90,0.0,1007.5,7.8,46.4,41,18.7,12.8,8.3,142.0,29.0,3.4,7,5,4,1,2026-07-13T00:48:48.069548+05:30
Kannur,Kerala,11.8745,75.3704,25.9,94,0.0,1007.5,8.75,46.4,39,17.0,8.8,4.9,147.0,34.0,1.9,7,5,4,1,2026-07-13T00:48:48.069558+05:30
Patna,Bihar,25.5941,85.1376,27.0,92,0.5,991.3,8.0,21.2,143,85.2,57.5,20.9,211.0,56.0,8.1,10,5,7,1,2026-07-13T00:48:48.069566+05:30
Gaya,Bihar,24.7914,85.0002,28.6,79,0.0,984.8,4.85,28.1,120,76.6,52.7,20.4,383.0,41.0,7.8,7,5,3,1,2026-07-13T00:48:48.069574+05:30
Muzaffarpur,Bihar,26.1209,85.3647,27.1,97,0.3,991.3,8.2,26.3,145,81.3,57.4,17.3,526.0,70.0,6.1,10,5,7,1,2026-07-13T00:48:48.069582+05:30
Bhagalpur,Bihar,25.2425,87.0117,28.5,90,0.0,991.5,3.8,25.6,129,77.5,54.6,23.1,505.0,48.0,10.0,7,5,3,1,2026-07-13T00:48:48.069589+05:30
Ranchi,Jharkhand,23.3441,85.3096,25.6,83,0.0,930.1,8.0,31.0,95,50.1,38.0,14.6,184.0,57.0,9.1,7,5,7,1,2026-07-13T00:48:48.069596+05:30
Jamshedpur,Jharkhand,22.8046,86.2029,28.2,81,0.0,982.0,7.7,27.4,112,45.4,35.4,14.8,201.0,76.0,25.3,7,5,7,1,2026-07-13T00:48:48.069603+05:30
Dhanbad,Jharkhand,23.7957,86.4304,26.9,93,0.0,971.0,4.55,20.9,155,135.5,111.8,71.7,251.0,9.0,173.4,7,5,3,1,2026-07-13T00:48:48.069611+05:30
Bokaro,Jharkhand,23.6693,86.1511,28.2,83,0.0,974.8,5.1,24.8,153,118.0,96.9,48.5,241.0,17.0,117.0,7,5,3,1,2026-07-13T00:48:48.069618+05:30
Bhubaneswar,Odisha,20.2961,85.8245,28.6,86,0.0,994.4,7.5,26.6,113,43.7,33.2,11.6,349.0,76.0,7.3,7,5,7,1,2026-07-13T00:48:48.069625+05:30
Cuttack,Odisha,20.4625,85.8828,29.1,84,0.0,996.1,7.8,27.7,113,43.7,33.2,11.6,366.0,76.0,7.3,7,5,7,1,2026-07-13T00:48:48.069631+05:30
Rourkela,Odisha,22.2604,84.8536,28.1,84,0.0,977.0,8.9,23.4,100,36.0,27.5,13.0,417.0,72.0,20.3,7,5,7,1,2026-07-13T00:48:48.069638+05:30
Raipur,Chhattisgarh,21.2514,81.6296,27.5,72,0.0,968.7,8.65,37.8,92,49.9,31.9,20.9,434.0,51.0,38.1,7,5,7,1,2026-07-13T00:48:48.069645+05:30
Bhilai,Chhattisgarh,21.1938,81.3509,27.0,75,0.0,969.2,8.8,39.2,87,47.8,29.3,16.5,531.0,54.0,29.8,7,5,7,1,2026-07-13T00:48:48.069653+05:30
Guwahati,Assam,26.1158,91.7086,25.6,100,0.0,992.6,1.75,23.8,37,9.9,9.7,7.4,301.0,67.0,2.1,7,5,3,1,2026-07-13T00:48:48.069660+05:30
Agartala,Tripura,23.8315,91.2868,26.0,98,0.0,997.9,1.75,31.0,83,30.5,26.8,10.5,231.0,80.0,4.8,7,5,3,1,2026-07-13T00:48:48.069667+05:30
Shillong,Meghalaya,25.5788,91.8933,20.6,97,0.1,850.7,0.9,26.3,36,1.2,1.2,3.3,255.0,85.0,2.9,6,5,3,1,2026-07-13T00:48:48.069674+05:30
Imphal,Manipur,24.817,93.9368,23.0,98,0.1,916.7,2.6,20.2,51,14.2,11.8,5.8,225.0,57.0,2.6,6,5,3,1,2026-07-13T00:48:48.069681+05:30
Aizawl,Mizoram,23.7271,92.7176,20.3,93,0.0,885.9,0.95,22.0,49,9.9,6.3,2.2,170.0,64.0,2.0,3,5,3,1,2026-07-13T00:48:48.069689+05:30
Kohima,Nagaland,25.6701,94.1077,21.0,95,0.1,849.9,7.1,24.5,26,5.1,4.2,5.0,206.0,50.0,1.1,6,5,7,1,2026-07-13T00:48:48.069695+05:30
Gangtok,Sikkim,27.3314,88.6138,19.4,95,0.6,831.3,1.8,25.2,49,2.6,2.5,3.1,301.0,110.0,1.1,6,10,3,1,2026-07-13T00:48:48.069702+05:30
Siliguri,West Bengal,26.7271,88.3953,25.3,99,0.3,984.1,0.6,31.3,47,12.3,11.7,7.7,399.0,93.0,2.9,10,5,3,1,2026-07-13T00:48:51.355504+05:30
Durgapur,West Bengal,23.5204,87.3119,27.5,95,0.0,986.2,4.1,27.4,152,69.6,59.0,31.9,563.0,46.0,44.7,7,5,3,1,2026-07-13T00:48:51.355560+05:30
Asansol,West Bengal,23.6739,86.9524,27.1,95,0.0,984.7,2.55,24.8,141,73.3,58.8,45.7,389.0,31.0,63.3,7,5,3,1,2026-07-13T00:48:51.355574+05:30
Pondicherry,Puducherry,11.9139,79.8145,29.5,73,0.0,1004.7,8.0,48.2,66,15.5,10.9,9.9,172.0,55.0,6.4,7,5,4,1,2026-07-13T00:48:51.355584+05:30
Port Blair,Andaman and Nicobar Islands,11.6234,92.7265,28.1,78,0.1,1003.8,8.75,58.0,50,22.9,10.0,0.2,84.0,50.0,0.4,10,5,4,1,2026-07-13T00:48:51.355592+05:30
Haridwar,Uttarakhand,29.9457,78.1642,26.9,95,0.0,964.0,7.5,23.8,162,139.7,84.1,20.7,297.0,58.0,8.8,7,5,7,1,2026-07-13T00:48:51.355600+05:30
Rishikesh,Uttarakhand,30.0869,78.2676,25.4,93,0.0,956.8,7.6,27.7,147,70.5,43.7,9.9,244.0,90.0,5.8,7,5,7,1,2026-07-13T00:48:51.355608+05:30
Nainital,Uttarakhand,29.3919,79.4542,16.8,100,0.0,799.3,8.5,35.6,155,204.9,65.0,10.8,287.0,93.0,4.7,3,10,7,1,2026-07-13T00:48:51.355616+05:30
Mussoorie,Uttarakhand,30.4599,78.0664,17.7,95,0.0,797.1,8.0,43.2,142,110.6,54.2,14.7,272.0,91.0,8.8,3,10,7,1,2026-07-13T00:48:51.355623+05:30
Dharamshala,Himachal Pradesh,32.219,76.3234,21.8,74,0.0,862.4,8.35,36.0,56,25.7,18.6,15.7,316.0,23.0,0.5,3,5,7,1,2026-07-13T00:48:51.355631+05:30
Dalhousie,Himachal Pradesh,32.5387,75.971,18.0,84,0.0,798.8,8.65,31.7,98,64.7,44.6,40.0,496.0,39.0,3.5,3,10,7,0,2026-07-13T00:48:51.355639+05:30
Patiala,Punjab,30.3398,76.3869,28.2,87,0.0,968.4,7.5,24.5,172,161.1,102.9,33.8,395.0,48.0,10.2,7,5,7,1,2026-07-13T00:48:51.355646+05:30
Bhatinda,Punjab,30.211,74.9455,27.3,92,0.0,973.7,8.25,22.3,355,234.2,122.5,19.0,345.0,80.0,9.3,7,5,7,1,2026-07-13T00:48:51.355653+05:30
Rohtak,Haryana,28.8955,76.6066,28.9,73,0.0,971.6,7.6,28.1,1190,1996.8,296.2,9.6,171.0,64.0,3.6,7,5,7,1,2026-07-13T00:48:51.355660+05:30
Panipat,Haryana,29.3909,76.9635,28.4,83,0.0,970.3,7.45,25.2,1646,2890.8,444.2,16.8,587.0,47.0,3.8,7,5,7,1,2026-07-13T00:48:51.355667+05:30
Mathura,Uttar Pradesh,27.4924,77.6737,31.3,62,0.0,977.4,7.9,34.2,913,812.1,126.7,15.2,183.0,55.0,4.5,3,5,7,1,2026-07-13T00:48:51.355674+05:30
Vrindavan,Uttar Pradesh,27.5823,77.7027,31.5,62,0.0,977.9,7.85,33.1,913,812.1,126.7,15.2,180.0,55.0,4.5,3,5,7,1,2026-07-13T00:48:51.355681+05:30
Ayodhya,Uttar Pradesh,26.7922,82.1998,27.9,98,0.0,985.4,8.35,33.8,137,103.4,68.0,34.9,561.0,30.0,9.9,7,5,7,1,2026-07-13T00:48:51.355688+05:30
Ratlam,Madhya Pradesh,23.3315,75.0367,25.3,89,0.0,949.1,8.05,52.2,64,27.6,13.8,6.3,135.0,41.0,8.4,7,5,7,1,2026-07-13T00:48:51.355695+05:30
Sagar,Madhya Pradesh,23.8388,78.7378,26.6,77,0.0,943.8,8.65,47.5,74,45.3,27.5,5.3,174.0,69.0,4.0,7,5,7,1,2026-07-13T00:48:51.355701+05:30
Satna,Madhya Pradesh,24.6005,80.8322,28.2,68,0.0,964.0,8.7,41.8,77,44.1,25.6,5.4,167.0,65.0,3.7,7,5,7,1,2026-07-13T00:48:51.355708+05:30
Akola,Maharashtra,20.7002,77.0082,28.3,65,0.0,970.6,8.75,48.2,60,28.8,15.7,6.6,114.0,46.0,7.2,7,5,7,1,2026-07-13T00:48:51.355717+05:30
Amravati,Maharashtra,20.9374,77.7796,28.0,69,0.0,962.6,8.75,54.4,61,31.1,17.1,7.4,122.0,47.0,8.4,7,5,7,1,2026-07-13T00:48:51.355725+05:30
Latur,Maharashtra,18.4088,76.5604,24.8,73,0.0,936.5,8.9,43.6,51,22.7,10.3,4.2,115.0,42.0,2.7,3,5,7,1,2026-07-13T00:48:51.355732+05:30
Nanded,Maharashtra,19.1383,77.3091,27.8,64,0.0,964.6,8.85,41.4,57,30.9,16.7,4.6,135.0,57.0,3.9,7,5,7,1,2026-07-13T00:48:51.355739+05:30
Gulbarga,Karnataka,17.3297,76.8343,25.7,71,0.0,955.7,8.8,49.3,49,18.0,9.2,4.9,113.0,39.0,2.7,7,5,7,1,2026-07-13T00:48:51.355746+05:30
Bidar,Karnataka,17.9104,77.5199,25.9,67,0.0,932.1,8.95,45.4,55,23.5,12.3,4.3,126.0,51.0,2.2,7,5,7,1,2026-07-13T00:48:51.355753+05:30
Hospet,Karnataka,15.2689,76.3909,23.9,87,0.0,954.4,8.9,50.8,36,12.3,6.1,4.1,121.0,37.0,1.8,3,5,7,1,2026-07-13T00:48:51.355760+05:30
Tirupur,Tamil Nadu,11.1085,77.3411,24.7,87,0.0,974.2,8.35,59.4,56,24.2,17.1,18.8,147.0,21.0,5.2,3,5,7,1,2026-07-13T00:48:51.355767+05:30
Alappuzha,Kerala,9.4981,76.3388,27.6,82,0.0,1009.2,7.95,46.1,41,17.7,10.2,6.0,80.0,37.0,2.7,7,0,4,1,2026-07-13T00:48:51.355774+05:30
Munnar,Kerala,10.0889,77.0595,15.7,99,0.0,855.6,8.7,37.1,32,7.7,5.5,6.1,99.0,27.0,1.5,3,10,7,0,2026-07-13T00:48:51.355782+05:30
Silchar,Assam,24.8333,92.7789,27.1,94,0.1,997.3,0.5,17.6,73,28.9,19.7,5.6,241.0,72.0,4.4,10,5,3,1,2026-07-13T00:48:51.355789+05:30
Dibrugarh,Assam,27.4728,94.912,26.2,99,0.3,987.8,8.9,20.2,39,7.1,7.0,14.0,269.0,39.0,1.4,10,5,7,1,2026-07-13T00:48:51.355795+05:30
