city,state,latitude,longitude,temp,humidity,rain,pressure,uv_index,wind_gusts,aqi,pm10,pm2_5,no2,co,o3,so2,mosquito_risk,arthritis_risk,migraine_risk,frizz_risk,updated_at
Delhi,Delhi,28.6139,77.209,31.7,21,0.0,977.5,7.7,41.8,484,672.4,157.9,28.4,492.0,59.0,16.6,0,5,7,0,2026-05-24T02:26:44.152815+05:30
Mumbai,Maharashtra,19.076,72.8777,30.5,75,0.0,1008.9,7.65,36.4,41,9.1,6.2,5.1,212.0,55.0,4.1,3,0,4,1,2026-05-24T02:26:44.152854+05:30
Bangalore,Karnataka,12.9716,77.5946,21.4,94,0.0,911.9,6.2,43.9,44,12.7,11.6,21.0,262.0,44.0,5.1,3,5,7,1,2026-05-24T02:26:44.152867+05:30
Hyderabad,Telangana,17.385,78.4867,29.5,55,0.0,951.8,9.25,47.5,78,21.2,18.3,7.6,208.0,92.0,4.6,4,5,7,1,2026-05-24T02:26:44.152875+05:30
Chennai,Tamil Nadu,13.0827,80.2707,31.4,60,0.0,1004.2,8.55,64.4,75,29.3,25.4,11.9,299.0,82.0,8.9,0,5,4,1,2026-05-24T02:26:44.152881+05:30
Kolkata,West Bengal,22.5726,88.3639,29.4,89,0.0,1002.0,9.0,38.9,96,26.2,21.1,5.1,230.0,91.0,4.6,7,5,4,1,2026-05-24T02:26:44.152887+05:30
Pune,Maharashtra,18.5204,73.8567,26.0,86,0.0,949.0,8.35,41.0,39,10.4,9.5,12.2,174.0,40.0,8.8,7,5,7,1,2026-05-24T02:26:44.152892+05:30
Ahmedabad,Gujarat,23.0225,72.5714,32.7,48,0.0,1001.3,8.1,36.4,74,22.4,17.5,4.9,156.0,60.0,3.4,0,5,4,1,2026-05-24T02:26:44.152898+05:30
Jaipur,Rajasthan,26.9124,75.7873,31.9,23,0.0,956.7,8.25,50.0,179,359.5,81.3,7.2,213.0,65.0,5.1,0,5,7,0,2026-05-24T02:26:44.152907+05:30
Lucknow,Uttar Pradesh,26.8467,80.9462,32.4,29,0.0,987.4,8.2,47.9,171,423.8,109.4,14.4,345.0,76.0,8.8,0,5,7,0,2026-05-24T02:26:44.152912+05:30
Kanpur,Uttar Pradesh,26.4499,80.3319,33.3,26,0.0,986.2,8.2,48.2,471,642.6,134.6,15.0,283.0,64.0,8.3,0,5,7,0,2026-05-24T02:26:44.152917+05:30
Chandigarh,Chandigarh,30.7333,76.7794,28.2,26,0.0,963.3,7.75,48.2,84,36.4,27.6,24.7,292.0,47.0,7.2,4,5,7,0,2026-05-24T02:26:44.152923+05:30
Srinagar,Jammu and Kashmir,34.0837,74.7973,11.4,95,0.0,840.8,8.9,29.5,67,47.1,39.3,36.1,664.0,15.0,2.1,3,10,7,0,2026-05-24T02:26:44.152928+05:30
Jammu,Jammu and Kashmir,32.7266,74.857,25.2,38,0.0,968.4,8.55,32.8,73,27.8,20.7,20.9,273.0,36.0,2.1,4,5,7,0,2026-05-24T02:26:44.152934+05:30
Amritsar,Punjab,31.634,74.8723,28.0,37,0.0,975.8,8.45,23.8,129,65.0,50.8,33.9,348.0,32.0,8.1,4,5,7,0,2026-05-24T02:26:44.152939+05:30
Ludhiana,Punjab,30.901,75.8573,28.1,34,0.0,973.8,8.0,26.3,103,49.0,35.7,19.5,474.0,53.0,6.7,4,5,7,0,2026-05-24T02:26:44.152945+05:30
Jalandhar,Punjab,31.326,75.5762,28.4,32,0.0,974.8,8.2,24.8,109,52.5,33.3,21.4,425.0,63.0,5.8,4,5,7,0,2026-05-24T02:26:44.152950+05:30
Dehradun,Uttarakhand,30.6284,78.0322,12.9,56,0.0,823.6,7.95,52.9,60,38.4,17.5,31.9,201.0,22.0,0.6,0,5,7,0,2026-05-24T02:26:44.152955+05:30
Shimla,Himachal Pradesh,31.1048,77.1734,14.8,35,0.0,781.1,8.25,69.5,66,35.0,19.2,23.0,182.0,45.0,1.4,0,5,7,1,2026-05-24T02:26:44.152963+05:30
Manali,Himachal Pradesh,32.2396,77.1887,8.5,58,0.0,811.9,9.0,47.5,40,20.5,5.6,31.7,227.0,83.0,0.0,0,5,7,0,2026-05-24T02:26:44.152968+05:30
Gurgaon,Haryana,28.4595,77.0266,28.2,34,0.0,975.9,7.85,39.2,886,670.6,149.9,39.9,503.0,36.0,18.0,4,5,7,0,2026-05-24T02:26:44.152987+05:30
Noida,Uttar Pradesh,28.5355,77.391,30.6,26,0.0,978.7,7.75,37.8,886,670.6,149.9,39.9,516.0,36.0,18.0,0,5,7,0,2026-05-24T02:26:44.152993+05:30
Ghaziabad,Uttar Pradesh,28.6692,77.4538,30.9,22,0.0,977.0,7.7,40.7,318,558.8,131.8,19.1,417.0,76.0,16.6,0,5,7,0,2026-05-24T02:26:44.152998+05:30
Faridabad,Haryana,28.4089,77.3178,31.4,23,0.0,978.2,7.8,43.6,886,670.6,149.9,39.9,493.0,36.0,18.0,0,5,7,0,2026-05-24T02:26:44.153003+05:30
Meerut,Uttar Pradesh,28.9845,77.7064,30.3,23,0.0,975.4,7.65,47.5,318,558.8,131.8,19.1,295.0,76.0,16.6,0,5,7,0,2026-05-24T02:26:44.153008+05:30
Agra,Uttar Pradesh,27.1767,78.0081,32.0,28,0.0,982.5,8.05,38.9,648,499.2,88.2,23.4,434.0,33.0,6.8,0,5,7,0,2026-05-24T02:26:44.153012+05:30
Varanasi,Uttar Pradesh,25.3176,82.9739,33.3,28,0.0,991.6,8.7,43.9,154,130.9,65.2,34.5,619.0,41.0,13.5,0,5,7,0,2026-05-24T02:26:44.153018+05:30
Prayagraj,Uttar Pradesh,25.4358,81.8463,32.8,31,0.0,990.5,8.6,45.7,152,247.7,75.7,29.6,365.0,47.0,11.3,0,5,7,0,2026-05-24T02:26:44.153024+05:30
Gorakhpur,Uttar Pradesh,26.7606,83.3732,27.5,69,0.0,990.9,8.55,31.7,155,120.1,75.7,40.4,316.0,44.0,14.0,7,5,7,1,2026-05-24T02:26:44.153031+05:30
Bareilly,Uttar Pradesh,28.367,79.4304,29.2,36,0.0,980.4,8.0,43.9,134,149.5,59.3,21.8,306.0,55.0,10.2,4,5,7,0,2026-05-24T02:26:44.153036+05:30
Aligarh,Uttar Pradesh,27.8974,78.088,30.2,28,0.0,979.9,7.9,41.4,601,618.4,143.9,28.4,379.0,37.0,11.6,0,5,7,0,2026-05-24T02:26:44.153041+05:30
Moradabad,Uttar Pradesh,28.8386,78.7733,29.0,28,0.0,977.1,7.85,48.6,124,221.7,72.2,21.5,340.0,55.0,8.9,4,5,7,0,2026-05-24T02:26:44.153045+05:30
Saharanpur,Uttar Pradesh,29.9637,77.546,28.8,25,0.0,969.3,7.4,46.8,107,107.6,45.1,16.1,297.0,66.0,8.7,4,5,7,0,2026-05-24T02:26:44.153050+05:30
Jhansi,Uttar Pradesh,25.4484,78.5685,32.2,30,0.0,973.5,8.45,46.1,91,83.8,40.2,3.8,176.0,71.0,2.5,0,5,7,0,2026-05-24T02:26:47.466132+05:30
Surat,Gujarat,21.1702,72.8311,30.2,82,0.0,1006.8,7.7,42.5,56,15.0,11.5,14.1,236.0,36.0,24.1,3,5,4,1,2026-05-24T02:26:47.466164+05:30
Vadodara,Gujarat,22.3072,73.1812,30.7,75,0.0,1003.5,8.1,48.2,60,13.0,10.8,18.6,128.0,25.0,19.4,3,5,4,1,2026-05-24T02:26:47.466172+05:30
Rajkot,Gujarat,22.3039,70.8022,29.0,74,0.0,994.2,7.7,50.8,68,27.4,18.5,5.5,119.0,45.0,6.1,7,5,7,1,2026-05-24T02:26:47.466179+05:30
Thane,Maharashtra,19.2183,72.9781,30.0,78,0.0,1008.3,7.5,36.4,41,9.1,6.2,5.1,324.0,55.0,4.1,7,0,4,1,2026-05-24T02:26:47.466185+05:30
Nagpur,Maharashtra,21.1458,79.0882,35.0,22,0.0,970.1,8.9,43.9,67,29.3,21.0,10.1,216.0,70.0,6.2,0,5,7,0,2026-05-24T02:26:47.466192+05:30
Nashik,Maharashtra,19.9975,73.7898,25.2,88,0.0,946.1,7.85,40.3,38,6.8,5.4,7.1,148.0,44.0,4.9,7,5,7,1,2026-05-24T02:26:47.466198+05:30
Aurangabad,Maharashtra,19.8762,75.3433,28.4,64,0.0,944.4,9.05,44.3,56,10.7,8.4,8.9,164.0,52.0,6.4,7,5,7,1,2026-05-24T02:26:47.466204+05:30
Solapur,Maharashtra,17.6599,75.9064,29.0,67,0.0,957.6,8.2,42.1,57,11.3,10.8,12.4,218.0,41.0,2.3,7,5,7,1,2026-05-24T02:26:47.466211+05:30
Kolhapur,Maharashtra,16.705,74.2433,24.5,93,0.0,948.7,8.9,42.5,43,10.8,9.6,9.0,154.0,38.0,2.4,3,5,7,1,2026-05-24T02:26:47.466217+05:30
Goa,Goa,15.2993,74.124,26.5,98,0.0,999.5,6.8,32.0,37,16.6,13.2,6.3,275.0,43.0,1.2,7,5,7,1,2026-05-24T02:26:47.466222+05:30
Jodhpur,Rajasthan,26.2389,73.0243,33.7,28,0.0,980.1,8.4,56.9,180,275.7,69.8,4.6,134.0,55.0,3.1,0,5,7,0,2026-05-24T02:26:47.466227+05:30
Udaipur,Rajasthan,24.5854,73.7125,31.4,28,0.0,945.3,8.8,54.4,97,90.1,32.9,3.0,136.0,70.0,2.6,0,5,7,0,2026-05-24T02:26:47.466232+05:30
Kota,Rajasthan,25.2138,75.8648,34.5,24,0.0,975.6,8.4,42.5,104,91.0,38.5,8.2,157.0,56.0,3.2,0,5,7,0,2026-05-24T02:26:47.466239+05:30
Bikaner,Rajasthan,28.0229,73.3119,31.4,20,0.0,977.3,8.45,55.1,123,68.9,30.7,7.0,312.0,47.0,2.6,0,5,7,0,2026-05-24T02:26:47.466244+05:30
Ajmer,Rajasthan,26.4499,74.6399,31.5,31,0.0,952.7,8.4,61.9,127,102.4,39.8,3.3,152.0,66.0,3.2,0,5,7,0,2026-05-24T02:26:47.466250+05:30
Gwalior,Madhya Pradesh,26.2183,78.1828,32.7,28,0.0,978.6,8.25,42.8,101,85.0,40.5,5.5,188.0,66.0,3.0,0,5,7,0,2026-05-24T02:26:47.466255+05:30
Indore,Madhya Pradesh,22.7196,75.8577,31.0,38,0.0,947.5,8.7,45.0,73,71.7,32.8,3.6,209.0,87.0,3.7,0,5,7,0,2026-05-24T02:26:47.466259+05:30
Bhopal,Madhya Pradesh,23.2599,77.4126,33.0,24,0.0,951.8,8.7,44.6,78,55.3,33.3,6.7,224.0,64.0,4.5,0,5,7,0,2026-05-24T02:26:47.466264+05:30
Jabalpur,Madhya Pradesh,23.1815,79.9864,32.3,24,0.0,958.3,8.85,40.7,72,78.5,38.2,26.1,304.0,45.0,5.3,0,5,7,0,2026-05-24T02:26:47.466269+05:30
Ujjain,Madhya Pradesh,23.1765,75.7885,31.7,32,0.0,952.8,8.65,46.8,76,69.4,32.2,3.1,200.0,82.0,3.9,0,5,7,0,2026-05-24T02:26:47.466275+05:30
Visakhapatnam,Andhra Pradesh,17.6868,83.2185,30.1,87,0.0,999.1,9.05,31.3,119,49.2,43.0,32.0,318.0,79.0,30.2,3,5,7,1,2026-05-24T02:26:47.466280+05:30
Vijayawada,Andhra Pradesh,16.5062,80.648,33.3,42,0.0,997.9,9.1,48.2,93,29.3,26.5,7.6,228.0,95.0,6.2,0,5,7,1,2026-05-24T02:26:47.466285+05:30
Guntur,Andhra Pradesh,16.3067,80.4365,33.2,42,0.0,999.1,9.15,50.8,87,28.7,25.5,5.7,215.0,101.0,5.5,0,5,7,1,2026-05-24T02:26:47.466290+05:30
Nellore,Andhra Pradesh,14.4426,79.9865,32.0,54,0.0,1002.5,7.0,49.7,66,25.0,21.5,6.3,187.0,97.0,8.2,0,5,4,1,2026-05-24T02:26:47.466296+05:30
Kurnool,Andhra Pradesh,15.8281,78.0373,28.7,67,0.0,976.1,8.0,58.3,56,20.8,18.6,9.1,208.0,85.0,2.3,7,5,7,1,2026-05-24T02:26:47.466302+05:30
Kakinada,Andhra Pradesh,16.9891,82.2475,31.9,72,0.0,1002.3,8.4,34.2,95,29.8,23.2,5.2,413.0,111.0,4.2,3,5,4,1,2026-05-24T02:26:47.466308+05:30
Tirupati,Andhra Pradesh,13.6288,79.4192,29.3,59,0.0,988.2,8.65,44.6,67,22.6,19.0,6.1,171.0,87.0,2.8,4,5,7,1,2026-05-24T02:26:47.466313+05:30
Warangal,Telangana,17.9689,79.5941,33.6,36,0.0,975.2,9.15,51.8,94,30.9,27.6,8.4,219.0,87.0,4.6,0,5,7,1,2026-05-24T02:26:47.466318+05:30
Nizamabad,Telangana,18.6725,78.0941,32.5,38,0.0,963.1,9.1,45.4,74,32.7,28.3,9.6,176.0,74.0,5.6,0,5,7,1,2026-05-24T02:26:47.466323+05:30
Mysore,Karnataka,12.2958,76.6396,21.7,96,0.0,929.0,7.65,42.5,31,8.0,7.3,9.6,263.0,48.0,2.2,3,5,7,1,2026-05-24T02:26:47.466328+05:30
Mangalore,Karnataka,12.9141,74.856,25.1,96,0.0,1009.3,7.25,37.1,41,17.5,13.5,9.5,296.0,38.0,2.5,7,0,4,1,2026-05-24T02:26:47.466334+05:30
Hubli-Dharwad,Karnataka,15.3647,75.124,24.2,94,0.0,941.9,9.05,40.0,22,5.4,4.1,4.1,132.0,42.0,1.1,3,5,7,1,2026-05-24T02:26:47.466339+05:30
Belgaum,Karnataka,15.8497,74.4977,23.1,97,0.0,926.6,8.1,39.6,26,8.0,6.3,5.9,137.0,41.0,1.4,3,5,7,1,2026-05-24T02:26:50.759789+05:30
Coimbatore,Tamil Nadu,11.0168,76.9558,24.9,90,0.0,962.0,6.4,51.1,29,7.1,6.0,5.9,215.0,53.0,2.6,3,5,7,1,2026-05-24T02:26:50.759821+05:30
Madurai,Tamil Nadu,9.9252,78.1198,28.2,69,0.0,992.6,8.9,44.3,54,19.2,18.1,30.3,258.0,13.0,5.4,7,5,7,1,2026-05-24T02:26:50.759830+05:30
Trichy,Tamil Nadu,10.7905,78.7047,28.4,73,0.0,998.9,7.2,45.7,49,12.3,10.0,9.5,156.0,56.0,3.4,7,5,7,1,2026-05-24T02:26:50.759836+05:30
Salem,Tamil Nadu,11.6643,78.146,27.8,70,0.0,977.0,6.8,39.6,56,29.8,23.2,26.4,187.0,36.0,7.6,7,5,7,1,2026-05-24T02:26:50.759843+05:30
Tirunelveli,Tamil Nadu,8.7139,77.7567,29.2,67,0.0,1003.1,8.85,36.7,31,10.7,8.9,7.6,143.0,40.0,2.2,7,5,4,1,2026-05-24T02:26:50.759849+05:30
Vellore,Tamil Nadu,12.9165,79.1325,28.5,67,0.0,982.7,8.95,66.6,68,22.9,20.4,9.9,310.0,64.0,3.2,7,5,7,1,2026-05-24T02:26:50.759854+05:30
Erode,Tamil Nadu,11.341,77.7172,27.7,75,0.0,988.8,7.4,46.4,40,15.2,13.0,16.4,208.0,35.0,3.1,7,5,7,1,2026-05-24T02:26:50.759860+05:30
Kochi,Kerala,9.9312,76.2673,26.4,96,0.0,1010.7,7.95,33.1,60,25.4,22.3,21.7,181.0,21.0,4.9,7,0,4,1,2026-05-24T02:26:50.759866+05:30
Thiruvananthapuram,Kerala,8.5241,76.9366,25.1,94,0.0,1010.0,8.3,42.8,41,14.1,9.1,4.5,158.0,50.0,1.8,7,0,4,1,2026-05-24T02:26:50.759871+05:30
Kozhikode,Kerala,11.2588,75.7804,26.1,95,0.1,1009.7,8.55,36.7,31,13.9,8.5,1.6,151.0,68.0,0.8,10,0,4,1,2026-05-24T02:26:50.759877+05:30
Thrissur,Kerala,10.5276,76.2144,25.3,98,0.1,1009.3,7.75,34.6,62,25.6,22.9,16.9,389.0,28.0,4.1,10,0,4,1,2026-05-24T02:26:50.759883+05:30
Kannur,Kerala,11.8745,75.3704,26.0,95,0.1,1009.0,8.5,40.7,37,11.9,8.8,8.8,201.0,42.0,1.8,10,0,4,1,2026-05-24T02:26:50.759889+05:30
Patna,Bihar,25.5941,85.1376,28.9,69,0.0,993.9,8.8,25.9,160,126.2,88.2,40.7,545.0,64.0,24.0,7,5,7,1,2026-05-24T02:26:50.759894+05:30
Gaya,Bihar,24.7914,85.0002,29.4,48,0.0,988.0,8.9,34.6,158,145.3,69.4,28.7,578.0,45.0,9.2,4,5,7,1,2026-05-24T02:26:50.759900+05:30
Muzaffarpur,Bihar,26.1209,85.3647,28.4,82,0.0,994.4,8.8,33.1,157,91.0,71.2,17.6,674.0,93.0,17.6,7,5,7,1,2026-05-24T02:26:50.759905+05:30
Bhagalpur,Bihar,25.2425,87.0117,29.5,72,0.0,995.7,8.8,33.8,151,72.6,58.3,17.9,438.0,78.0,16.9,7,5,7,1,2026-05-24T02:26:50.759910+05:30
Ranchi,Jharkhand,23.3441,85.3096,26.1,57,0.0,934.0,9.25,28.1,123,142.0,51.3,20.1,234.0,69.0,6.9,4,5,7,1,2026-05-24T02:26:50.759915+05:30
Jamshedpur,Jharkhand,22.8046,86.2029,29.0,88,0.0,986.6,9.1,42.5,152,56.1,46.0,16.2,429.0,77.0,20.2,7,5,7,1,2026-05-24T02:26:50.759921+05:30
Dhanbad,Jharkhand,23.7957,86.4304,29.0,88,0.0,975.6,8.9,32.4,162,67.3,59.0,39.4,648.0,61.0,88.8,7,5,7,1,2026-05-24T02:26:50.759926+05:30
Bokaro,Jharkhand,23.6693,86.1511,29.2,68,0.0,979.2,9.05,29.5,163,128.1,80.6,51.4,1447.0,33.0,63.9,7,5,7,1,2026-05-24T02:26:50.759932+05:30
Bhubaneswar,Odisha,20.2961,85.8245,28.9,95,0.0,998.5,9.15,44.6,84,22.8,17.6,4.9,252.0,89.0,4.0,7,5,7,1,2026-05-24T02:26:50.759936+05:30
Cuttack,Odisha,20.4625,85.8828,28.9,95,0.0,1000.3,9.2,40.0,84,22.8,17.6,4.9,273.0,89.0,4.0,7,5,4,1,2026-05-24T02:26:50.759941+05:30
Rourkela,Odisha,22.2604,84.8536,29.2,75,0.0,980.9,9.0,54.7,156,100.1,64.7,39.3,306.0,36.0,16.2,7,5,7,1,2026-05-24T02:26:50.759946+05:30
Raipur,Chhattisgarh,21.2514,81.6296,32.2,26,0.0,970.3,9.0,44.3,119,61.2,47.4,48.5,478.0,21.0,38.3,0,5,7,0,2026-05-24T02:26:50.759951+05:30
Bhilai,Chhattisgarh,21.1938,81.3509,32.1,30,0.0,970.8,9.0,31.0,102,56.9,43.5,39.3,623.0,32.0,33.5,0,5,7,0,2026-05-24T02:26:50.759956+05:30
Guwahati,Assam,26.1158,91.7086,23.0,98,0.0,998.1,8.75,23.0,56,18.5,12.7,5.9,340.0,85.0,2.6,3,5,7,1,2026-05-24T02:26:50.759961+05:30
Agartala,Tripura,23.8315,91.2868,26.8,90,0.0,1003.4,8.35,43.2,74,27.6,21.5,6.0,190.0,58.0,2.1,7,5,4,1,2026-05-24T02:26:50.759966+05:30
Shillong,Meghalaya,25.5788,91.8933,20.2,91,0.0,854.4,8.8,52.6,42,1.9,1.4,4.5,191.0,73.0,2.4,3,5,7,1,2026-05-24T02:26:50.759971+05:30
Imphal,Manipur,24.817,93.9368,21.1,97,0.1,921.5,9.3,34.6,53,8.0,6.1,6.3,269.0,57.0,2.3,6,5,7,1,2026-05-24T02:26:50.759977+05:30
Aizawl,Mizoram,23.7271,92.7176,19.5,93,0.0,890.8,8.5,44.6,59,16.8,11.5,1.9,177.0,57.0,0.8,3,10,7,1,2026-05-24T02:26:50.759982+05:30
Kohima,Nagaland,25.6701,94.1077,16.3,90,0.0,851.7,9.3,34.9,27,9.7,6.8,4.2,220.0,59.0,1.3,3,10,7,0,2026-05-24T02:26:50.759987+05:30
Gangtok,Sikkim,27.3314,88.6138,16.1,83,0.1,834.0,9.15,36.7,79,22.4,10.7,2.7,443.0,138.0,3.3,6,10,7,0,2026-05-24T02:26:50.759992+05:30
Siliguri,West Bengal,26.7271,88.3953,22.5,98,0.1,989.7,8.7,24.8,78,45.3,24.3,7.7,407.0,116.0,4.7,6,5,7,1,2026-05-24T02:26:54.046926+05:30
Durgapur,West Bengal,23.5204,87.3119,28.7,92,0.0,990.7,9.0,35.3,154,42.3,37.8,16.6,323.0,72.0,26.9,7,5,7,1,2026-05-24T02:26:54.046958+05:30
Asansol,West Bengal,23.6739,86.9524,28.6,93,0.0,989.3,8.85,33.8,152,40.0,36.0,14.8,418.0,75.0,24.4,7,5,7,1,2026-05-24T02:26:54.046968+05:30
Pondicherry,Puducherry,11.9139,79.8145,29.4,68,0.0,1006.5,8.8,32.8,68,30.4,24.4,12.8,321.0,80.0,5.5,7,5,4,1,2026-05-24T02:26:54.046975+05:30
Port Blair,Andaman and Nicobar Islands,11.6234,92.7265,27.1,90,0.0,1006.2,8.0,33.5,33,10.3,5.9,0.2,114.0,80.0,0.5,7,5,4,1,2026-05-24T02:26:54.046982+05:30
Haridwar,Uttarakhand,29.9457,78.1642,24.0,48,0.0,967.0,7.55,53.3,88,36.2,26.5,16.0,287.0,71.0,8.6,0,5,7,0,2026-05-24T02:26:54.046988+05:30
Rishikesh,Uttarakhand,30.0869,78.2676,20.5,62,0.0,959.4,7.65,48.2,87,37.4,23.6,13.8,315.0,94.0,7.7,3,5,7,0,2026-05-24T02:26:54.046995+05:30
Nainital,Uttarakhand,29.3919,79.4542,14.4,54,0.0,800.3,8.5,45.4,103,42.0,22.0,11.0,247.0,101.0,5.9,0,5,7,0,2026-05-24T02:26:54.047001+05:30
Mussoorie,Uttarakhand,30.4599,78.0664,16.3,36,0.0,798.8,7.9,72.0,78,48.0,28.0,33.9,195.0,45.0,5.7,0,5,7,0,2026-05-24T02:26:54.047008+05:30
Dharamshala,Himachal Pradesh,32.219,76.3234,22.1,33,0.0,866.2,8.4,54.0,52,25.6,10.0,15.4,175.0,24.0,0.2,0,5,7,0,2026-05-24T02:26:54.047014+05:30
Dalhousie,Himachal Pradesh,32.5387,75.971,11.7,59,0.0,799.0,8.7,44.6,68,42.6,23.5,43.6,328.0,0.0,1.2,0,5,7,0,2026-05-24T02:26:54.047021+05:30
Patiala,Punjab,30.3398,76.3869,29.2,29,0.0,972.9,7.65,41.0,406,470.3,100.1,13.4,386.0,67.0,7.2,4,5,7,0,2026-05-24T02:26:54.047027+05:30
Bhatinda,Punjab,30.211,74.9455,30.8,31,0.0,979.0,8.3,29.2,90,59.1,35.7,18.5,346.0,67.0,8.4,0,5,7,0,2026-05-24T02:26:54.047032+05:30
Rohtak,Haryana,28.8955,76.6066,30.1,24,0.0,976.3,7.75,34.2,665,806.5,168.6,29.1,306.0,50.0,8.6,0,5,7,0,2026-05-24T02:26:54.047037+05:30
Panipat,Haryana,29.3909,76.9635,30.0,25,0.0,974.6,7.6,44.3,1431,1490.1,246.8,14.2,293.0,74.0,7.9,4,5,7,0,2026-05-24T02:26:54.047043+05:30
Mathura,Uttar Pradesh,27.4924,77.6737,31.3,30,0.0,981.4,8.0,37.1,561,265.4,65.9,28.6,326.0,28.0,5.3,0,5,7,0,2026-05-24T02:26:54.047048+05:30
Vrindavan,Uttar Pradesh,27.5823,77.7027,31.0,31,0.0,981.7,8.0,36.0,561,265.4,65.9,28.6,325.0,28.0,5.3,0,5,7,0,2026-05-24T02:26:54.047053+05:30
Ayodhya,Uttar Pradesh,26.7922,82.1998,30.4,37,0.0,988.9,8.35,32.4,154,285.9,82.4,17.2,256.0,70.0,10.7,0,5,7,0,2026-05-24T02:26:54.047058+05:30
Ratlam,Madhya Pradesh,23.3315,75.0367,30.1,49,0.0,954.3,8.55,49.7,76,60.5,30.0,4.5,169.0,74.0,6.3,0,5,7,1,2026-05-24T02:26:54.047064+05:30
Sagar,Madhya Pradesh,23.8388,78.7378,31.5,29,0.0,947.7,8.75,50.8,75,57.2,32.0,10.7,220.0,61.0,4.3,0,5,7,0,2026-05-24T02:26:54.047069+05:30
Satna,Madhya Pradesh,24.6005,80.8322,32.8,30,0.0,967.6,8.8,48.2,107,93.1,43.1,17.6,207.0,48.0,3.8,0,5,7,0,2026-05-24T02:26:54.047075+05:30
Akola,Maharashtra,20.7002,77.0082,33.3,44,0.0,973.5,8.85,52.2,64,25.1,20.8,7.3,190.0,91.0,11.9,0,5,7,1,2026-05-24T02:26:54.047082+05:30
Amravati,Maharashtra,20.9374,77.7796,33.2,37,0.0,965.7,8.85,50.4,66,23.5,18.7,8.5,174.0,77.0,8.8,0,5,7,1,2026-05-24T02:26:54.047088+05:30
Latur,Maharashtra,18.4088,76.5604,29.4,58,0.0,939.6,9.05,40.3,65,21.8,20.7,15.2,231.0,50.0,3.4,4,5,7,1,2026-05-24T02:26:54.047094+05:30
Nanded,Maharashtra,19.1383,77.3091,33.3,38,0.0,967.2,8.85,45.7,67,25.3,21.2,5.9,183.0,82.0,3.9,0,5,7,1,2026-05-24T02:26:54.047099+05:30
Gulbarga,Karnataka,17.3297,76.8343,28.5,63,0.0,958.6,9.05,54.4,56,17.3,16.2,13.3,235.0,56.0,2.6,7,5,7,1,2026-05-24T02:26:54.047105+05:30
Bidar,Karnataka,17.9104,77.5199,28.6,57,0.0,934.7,9.1,43.6,76,22.5,20.3,9.0,237.0,81.0,3.3,4,5,7,1,2026-05-24T02:26:54.047110+05:30
Hospet,Karnataka,15.2689,76.3909,25.2,90,0.0,956.7,6.5,46.4,31,5.9,5.3,8.8,196.0,36.0,1.4,7,5,7,1,2026-05-24T02:26:54.047115+05:30
Tirupur,Tamil Nadu,11.1085,77.3411,25.4,88,0.0,975.4,6.35,51.5,41,16.4,14.0,17.7,184.0,35.0,3.5,7,5,7,1,2026-05-24T02:26:54.047120+05:30
Alappuzha,Kerala,9.4981,76.3388,26.4,94,0.1,1010.8,8.65,34.2,50,18.5,13.8,12.4,97.0,45.0,3.4,10,0,4,1,2026-05-24T02:26:54.047126+05:30
Munnar,Kerala,10.0889,77.0595,17.1,99,0.0,857.8,7.7,32.8,29,9.5,8.8,8.3,133.0,32.0,1.3,3,10,7,1,2026-05-24T02:26:54.047131+05:30
Silchar,Assam,24.8333,92.7789,24.5,99,0.0,1003.3,8.95,36.4,54,27.0,15.3,4.6,259.0,75.0,2.1,3,5,4,1,2026-05-24T02:26:54.047137+05:30
Dibrugarh,Assam,27.4728,94.912,22.9,99,0.3,992.8,7.3,37.1,52,15.4,11.4,5.9,238.0,94.0,1.7,6,5,7,1,2026-05-24T02:26:54.047143+05:30
