city,state,latitude,longitude,temp,humidity,rain,pressure,uv_index,wind_gusts,aqi,pm10,pm2_5,mosquito_risk,arthritis_risk,migraine_risk,frizz_risk,updated_at
Delhi,Delhi,28.6139,77.209,26.0,40,0.0,986.6,7.15,38.5,562,1378.4,183.5,4,5,7,0,2026-04-10T20:24:35.794816+05:30
Mumbai,Maharashtra,19.076,72.8777,28.6,75,0.0,1010.3,7.95,25.2,97,63.8,35.4,7,0,4,1,2026-04-10T20:24:35.794862+05:30
Bangalore,Karnataka,12.9716,77.5946,27.3,61,0.0,914.2,9.65,42.8,187,43.7,37.7,7,5,7,1,2026-04-10T20:24:35.794887+05:30
Hyderabad,Telangana,17.385,78.4867,33.4,30,0.0,955.1,9.15,19.4,154,65.2,37.6,0,5,7,0,2026-04-10T20:24:35.794897+05:30
Chennai,Tamil Nadu,13.0827,80.2707,29.4,78,0.0,1009.8,9.4,36.4,65,22.2,16.0,7,0,4,1,2026-04-10T20:24:35.794905+05:30
Kolkata,West Bengal,22.5726,88.3639,26.7,71,0.0,1008.1,8.7,21.2,155,105.2,78.9,7,0,4,1,2026-04-10T20:24:35.794912+05:30
Pune,Maharashtra,18.5204,73.8567,30.1,58,0.0,950.5,8.5,31.3,128,41.4,24.5,0,5,7,1,2026-04-10T20:24:35.794924+05:30
Ahmedabad,Gujarat,23.0225,72.5714,32.4,24,0.0,1005.1,8.0,36.7,137,52.3,28.3,0,5,4,0,2026-04-10T20:24:35.794931+05:30
Jaipur,Rajasthan,26.9124,75.7873,28.0,28,0.0,964.5,7.75,28.4,160,184.9,34.7,4,5,7,0,2026-04-10T20:24:35.794937+05:30
Lucknow,Uttar Pradesh,26.8467,80.9462,25.8,37,0.0,996.3,7.65,40.0,130,575.6,93.4,4,5,7,0,2026-04-10T20:24:35.794945+05:30
Kanpur,Uttar Pradesh,26.4499,80.3319,24.4,50,0.0,994.9,7.65,35.3,254,812.1,110.1,0,5,7,0,2026-04-10T20:24:35.794951+05:30
Chandigarh,Chandigarh,30.7333,76.7794,22.5,50,0.0,972.6,7.15,42.1,136,13.8,12.4,0,5,7,0,2026-04-10T20:24:35.794958+05:30
Srinagar,Jammu and Kashmir,34.0837,74.7973,13.3,67,0.0,843.1,8.1,12.6,123,53.6,34.3,3,5,7,0,2026-04-10T20:24:35.794964+05:30
Jammu,Jammu and Kashmir,32.7266,74.857,22.1,53,0.0,977.0,7.75,34.2,108,28.5,19.4,0,5,7,0,2026-04-10T20:24:35.794969+05:30
Amritsar,Punjab,31.634,74.8723,22.9,51,0.0,985.8,7.7,29.2,140,22.4,18.5,0,5,7,0,2026-04-10T20:24:35.794975+05:30
Ludhiana,Punjab,30.901,75.8573,24.9,40,0.0,983.4,7.3,32.8,121,50.8,22.1,0,5,7,0,2026-04-10T20:24:35.794980+05:30
Jalandhar,Punjab,31.326,75.5762,23.8,46,0.0,984.7,7.5,29.9,133,56.6,21.5,0,5,7,0,2026-04-10T20:24:35.794987+05:30
Dehradun,Uttarakhand,30.6284,78.0322,13.3,64,0.0,829.5,7.55,29.5,139,9.8,8.6,3,5,7,0,2026-04-10T20:24:35.794993+05:30
Shimla,Himachal Pradesh,31.1048,77.1734,10.9,52,0.0,784.7,7.6,50.8,120,12.1,9.7,0,5,7,0,2026-04-10T20:24:35.794999+05:30
Manali,Himachal Pradesh,32.2396,77.1887,13.6,88,0.0,820.6,9.9,32.4,177,15.5,8.3,3,10,7,0,2026-04-10T20:24:35.795004+05:30
Gurgaon,Haryana,28.4595,77.0266,23.7,51,0.0,985.2,7.25,35.6,1676,3151.6,354.8,0,5,7,0,2026-04-10T20:24:35.795010+05:30
Noida,Uttar Pradesh,28.5355,77.391,25.5,43,0.0,988.1,7.15,37.8,1676,3151.6,354.8,4,5,7,0,2026-04-10T20:24:35.795015+05:30
Ghaziabad,Uttar Pradesh,28.6692,77.4538,24.5,45,0.0,986.1,7.15,37.8,373,1184.6,165.8,0,5,7,0,2026-04-10T20:24:35.795021+05:30
Faridabad,Haryana,28.4089,77.3178,25.7,40,0.0,987.5,7.2,36.4,1676,3151.6,354.8,4,5,7,0,2026-04-10T20:24:35.795026+05:30
Meerut,Uttar Pradesh,28.9845,77.7064,22.9,48,0.0,984.4,7.05,42.5,373,1184.6,165.8,0,5,7,0,2026-04-10T20:24:35.795031+05:30
Agra,Uttar Pradesh,27.1767,78.0081,24.4,46,0.0,991.5,7.5,36.0,897,1557.2,174.2,0,5,7,0,2026-04-10T20:24:35.795038+05:30
Varanasi,Uttar Pradesh,25.3176,82.9739,25.4,38,0.0,1000.3,8.2,39.2,154,65.2,27.9,4,5,4,0,2026-04-10T20:24:35.795046+05:30
Prayagraj,Uttar Pradesh,25.4358,81.8463,26.4,43,0.0,999.1,8.05,31.7,149,97.3,30.7,4,5,7,0,2026-04-10T20:24:35.795052+05:30
Gorakhpur,Uttar Pradesh,26.7606,83.3732,25.6,29,0.0,999.1,8.05,43.2,135,53.6,19.4,4,5,7,0,2026-04-10T20:24:35.795057+05:30
Bareilly,Uttar Pradesh,28.367,79.4304,22.4,55,0.0,989.2,7.4,38.2,129,222.6,53.8,0,5,7,0,2026-04-10T20:24:35.795063+05:30
Aligarh,Uttar Pradesh,27.8974,78.088,23.4,47,0.0,988.9,7.3,38.9,824,2048.9,263.6,0,5,7,0,2026-04-10T20:24:35.795068+05:30
Moradabad,Uttar Pradesh,28.8386,78.7733,22.2,54,0.0,986.2,7.25,38.2,114,397.7,80.8,0,5,7,0,2026-04-10T20:24:35.795073+05:30
Saharanpur,Uttar Pradesh,29.9637,77.546,23.3,43,0.0,978.3,6.85,50.4,128,170.9,34.5,0,5,7,0,2026-04-10T20:24:35.795079+05:30
Jhansi,Uttar Pradesh,25.4484,78.5685,27.1,33,0.0,982.4,8.0,33.5,135,23.1,13.7,4,5,7,0,2026-04-10T20:24:39.055608+05:30
Surat,Gujarat,21.1702,72.8311,29.4,56,0.0,1008.6,7.75,19.4,139,67.5,52.0,4,0,4,1,2026-04-10T20:24:39.055638+05:30
Vadodara,Gujarat,22.3072,73.1812,31.4,29,0.0,1006.7,8.0,31.7,129,39.0,24.9,0,5,4,0,2026-04-10T20:24:39.055649+05:30
Rajkot,Gujarat,22.3039,70.8022,33.0,25,0.0,996.9,7.7,25.9,151,41.3,21.7,0,5,7,0,2026-04-10T20:24:39.055657+05:30
Thane,Maharashtra,19.2183,72.9781,28.1,73,0.0,1009.6,7.95,37.8,97,63.8,35.4,7,0,4,1,2026-04-10T20:24:39.055665+05:30
Nagpur,Maharashtra,21.1458,79.0882,29.5,52,0.0,975.4,8.75,24.1,159,60.1,31.0,4,5,7,1,2026-04-10T20:24:39.055672+05:30
Nashik,Maharashtra,19.9975,73.7898,29.9,39,0.0,947.9,8.2,28.1,158,41.3,31.1,4,5,7,0,2026-04-10T20:24:39.055680+05:30
Aurangabad,Maharashtra,19.8762,75.3433,31.6,26,0.0,946.4,8.85,28.4,141,33.5,22.9,0,5,7,0,2026-04-10T20:24:39.055687+05:30
Solapur,Maharashtra,17.6599,75.9064,34.4,28,0.0,958.2,9.0,23.4,128,45.3,25.6,0,5,7,0,2026-04-10T20:24:39.055694+05:30
Kolhapur,Maharashtra,16.705,74.2433,28.0,56,0.0,949.4,9.0,34.6,101,51.7,33.1,4,5,7,1,2026-04-10T20:24:39.055701+05:30
Goa,Goa,15.2993,74.124,28.3,76,0.0,999.2,9.0,37.1,77,98.7,37.5,7,5,7,1,2026-04-10T20:24:39.055708+05:30
Jodhpur,Rajasthan,26.2389,73.0243,28.8,33,0.0,987.2,8.0,22.7,115,73.8,20.8,4,5,7,0,2026-04-10T20:24:39.055716+05:30
Udaipur,Rajasthan,24.5854,73.7125,28.1,27,0.0,950.9,8.55,29.9,113,30.7,11.2,4,5,7,0,2026-04-10T20:24:39.055723+05:30
Kota,Rajasthan,25.2138,75.8648,28.1,39,0.0,983.5,8.0,23.8,120,58.9,26.7,4,5,7,0,2026-04-10T20:24:39.055730+05:30
Bikaner,Rajasthan,28.0229,73.3119,30.9,25,0.0,986.3,7.8,19.8,131,59.0,16.5,0,5,7,0,2026-04-10T20:24:39.055737+05:30
Ajmer,Rajasthan,26.4499,74.6399,26.2,39,0.0,958.9,7.95,20.2,108,48.1,19.2,4,5,7,0,2026-04-10T20:24:39.055744+05:30
Gwalior,Madhya Pradesh,26.2183,78.1828,25.6,49,0.0,987.5,7.75,33.1,125,48.8,16.3,4,5,7,0,2026-04-10T20:24:39.055750+05:30
Indore,Madhya Pradesh,22.7196,75.8577,27.4,37,0.0,951.5,8.45,31.0,137,26.1,15.0,4,5,7,0,2026-04-10T20:24:39.055757+05:30
Bhopal,Madhya Pradesh,23.2599,77.4126,28.9,19,0.0,957.5,8.45,30.2,128,19.7,10.0,4,5,7,0,2026-04-10T20:24:39.055764+05:30
Jabalpur,Madhya Pradesh,23.1815,79.9864,29.2,35,0.0,964.5,8.55,24.5,127,58.2,23.3,4,5,7,0,2026-04-10T20:24:39.055771+05:30
Ujjain,Madhya Pradesh,23.1765,75.7885,27.9,34,0.0,957.5,8.35,29.5,131,36.3,20.0,4,5,7,0,2026-04-10T20:24:39.055778+05:30
Visakhapatnam,Andhra Pradesh,17.6868,83.2185,28.4,84,0.0,1006.5,9.1,37.1,97,29.3,22.6,7,5,4,1,2026-04-10T20:24:39.055785+05:30
Vijayawada,Andhra Pradesh,16.5062,80.648,30.5,69,0.0,1004.4,9.2,35.6,87,23.6,21.3,3,5,4,1,2026-04-10T20:24:39.055791+05:30
Guntur,Andhra Pradesh,16.3067,80.4365,28.9,82,0.0,1006.0,9.2,33.8,97,30.0,26.3,7,5,4,1,2026-04-10T20:24:39.055799+05:30
Nellore,Andhra Pradesh,14.4426,79.9865,28.9,82,0.0,1008.3,9.3,34.9,96,22.5,17.9,7,0,4,1,2026-04-10T20:24:39.055807+05:30
Kurnool,Andhra Pradesh,15.8281,78.0373,35.2,37,0.0,977.5,9.15,25.2,125,44.0,28.0,0,5,10,1,2026-04-10T20:24:39.055815+05:30
Kakinada,Andhra Pradesh,16.9891,82.2475,29.0,81,0.0,1010.0,9.15,37.1,74,22.9,16.0,7,0,4,1,2026-04-10T20:24:39.055822+05:30
Tirupati,Andhra Pradesh,13.6288,79.4192,30.4,67,0.0,994.2,9.05,30.6,141,34.9,31.9,3,5,7,1,2026-04-10T20:24:39.055829+05:30
Warangal,Telangana,17.9689,79.5941,32.8,37,0.0,980.1,9.0,23.4,145,65.4,42.6,0,5,7,1,2026-04-10T20:24:39.055836+05:30
Nizamabad,Telangana,18.6725,78.0941,31.3,41,0.0,966.7,8.95,29.5,139,49.2,32.5,0,5,7,1,2026-04-10T20:24:39.055843+05:30
Mysore,Karnataka,12.2958,76.6396,26.7,73,0.0,930.5,9.55,37.4,162,48.7,39.0,7,5,7,1,2026-04-10T20:24:39.055849+05:30
Mangalore,Karnataka,12.9141,74.856,29.6,78,0.0,1007.9,9.15,32.4,66,75.0,25.0,7,5,4,1,2026-04-10T20:24:39.055856+05:30
Hubli-Dharwad,Karnataka,15.3647,75.124,29.0,58,0.0,942.0,9.2,36.0,128,54.5,29.9,4,5,7,1,2026-04-10T20:24:39.055863+05:30
Belgaum,Karnataka,15.8497,74.4977,26.7,65,0.0,927.4,9.25,35.3,125,51.9,29.6,7,5,7,1,2026-04-10T20:24:42.322964+05:30
Coimbatore,Tamil Nadu,11.0168,76.9558,28.3,70,0.0,963.7,9.5,36.7,142,33.6,27.6,7,5,7,1,2026-04-10T20:24:42.322994+05:30
Madurai,Tamil Nadu,9.9252,78.1198,30.6,64,0.0,995.2,9.4,41.0,127,21.4,19.0,3,5,7,1,2026-04-10T20:24:42.323004+05:30
Trichy,Tamil Nadu,10.7905,78.7047,30.7,66,0.0,1001.8,9.4,31.7,107,20.9,18.7,3,5,4,1,2026-04-10T20:24:42.323012+05:30
Salem,Tamil Nadu,11.6643,78.146,32.3,54,0.0,978.8,9.3,24.1,163,37.1,33.8,0,5,7,1,2026-04-10T20:24:42.323019+05:30
Tirunelveli,Tamil Nadu,8.7139,77.7567,29.6,68,0.0,1005.3,9.35,38.2,140,25.3,22.1,7,5,4,1,2026-04-10T20:24:42.323026+05:30
Vellore,Tamil Nadu,12.9165,79.1325,30.2,64,0.0,987.0,9.45,35.3,139,32.1,29.9,3,5,7,1,2026-04-10T20:24:42.323033+05:30
Erode,Tamil Nadu,11.341,77.7172,33.7,47,0.0,989.9,9.45,34.9,153,32.8,29.3,0,5,7,1,2026-04-10T20:24:42.323041+05:30
Kochi,Kerala,9.9312,76.2673,29.2,80,0.0,1010.7,9.25,31.7,81,32.0,22.5,7,0,4,1,2026-04-10T20:24:42.323048+05:30
Thiruvananthapuram,Kerala,8.5241,76.9366,27.8,83,0.0,1010.6,9.2,28.1,66,37.1,19.1,7,0,4,1,2026-04-10T20:24:42.323055+05:30
Kozhikode,Kerala,11.2588,75.7804,29.8,80,0.0,1009.3,9.15,30.2,68,54.9,17.1,7,0,4,1,2026-04-10T20:24:42.323062+05:30
Thrissur,Kerala,10.5276,76.2144,29.7,79,0.0,1008.6,9.2,36.0,92,39.0,21.5,7,0,4,1,2026-04-10T20:24:42.323069+05:30
Kannur,Kerala,11.8745,75.3704,29.4,77,0.0,1008.5,9.15,36.4,68,62.6,19.6,7,0,4,1,2026-04-10T20:24:42.323076+05:30
Patna,Bihar,25.5941,85.1376,26.8,37,0.0,1002.3,8.35,38.9,135,47.1,24.4,4,5,4,0,2026-04-10T20:24:42.323082+05:30
Gaya,Bihar,24.7914,85.0002,25.8,41,0.0,996.2,8.45,37.8,148,48.4,24.6,4,5,7,0,2026-04-10T20:24:42.323089+05:30
Muzaffarpur,Bihar,26.1209,85.3647,25.5,38,0.0,1001.9,8.35,36.0,131,43.0,22.5,4,5,4,0,2026-04-10T20:24:42.323095+05:30
Bhagalpur,Bihar,25.2425,87.0117,25.1,53,0.0,1002.7,8.35,34.2,144,34.5,21.1,4,5,4,0,2026-04-10T20:24:42.323102+05:30
Ranchi,Jharkhand,23.3441,85.3096,24.1,36,0.0,940.2,9.0,37.4,124,39.9,19.7,0,5,7,0,2026-04-10T20:24:42.323108+05:30
Jamshedpur,Jharkhand,22.8046,86.2029,27.0,60,0.0,993.0,8.85,16.9,138,71.0,34.8,4,5,7,1,2026-04-10T20:24:42.323115+05:30
Dhanbad,Jharkhand,23.7957,86.4304,25.8,43,0.0,982.0,8.75,31.0,148,57.9,36.1,4,5,7,0,2026-04-10T20:24:42.323121+05:30
Bokaro,Jharkhand,23.6693,86.1511,25.9,42,0.0,986.3,8.8,32.8,132,58.7,33.4,4,5,7,0,2026-04-10T20:24:42.323128+05:30
Bhubaneswar,Odisha,20.2961,85.8245,27.6,89,0.0,1005.3,9.0,24.5,150,43.1,35.7,7,5,4,1,2026-04-10T20:24:42.323135+05:30
Cuttack,Odisha,20.4625,85.8828,28.4,82,0.0,1007.0,9.0,22.7,150,43.1,35.7,7,5,4,1,2026-04-10T20:24:42.323142+05:30
Rourkela,Odisha,22.2604,84.8536,26.2,60,0.0,987.1,8.75,20.2,118,60.5,31.7,4,5,7,1,2026-04-10T20:24:42.323149+05:30
Raipur,Chhattisgarh,21.2514,81.6296,31.8,34,0.0,976.6,8.8,24.1,177,88.9,57.4,0,5,7,0,2026-04-10T20:24:42.323156+05:30
Bhilai,Chhattisgarh,21.1938,81.3509,30.2,33,0.0,976.9,8.8,22.3,177,81.0,54.4,0,5,7,0,2026-04-10T20:24:42.323163+05:30
Guwahati,Assam,26.1158,91.7086,23.0,85,0.0,1004.0,8.2,32.4,109,45.3,37.6,3,5,4,1,2026-04-10T20:24:42.323169+05:30
Agartala,Tripura,23.8315,91.2868,24.4,81,0.0,1008.2,8.55,28.8,166,65.4,51.1,3,0,4,1,2026-04-10T20:24:42.323176+05:30
Shillong,Meghalaya,25.5788,91.8933,11.8,88,0.0,855.7,7.05,50.4,108,36.0,29.0,3,10,7,0,2026-04-10T20:24:42.323182+05:30
Imphal,Manipur,24.817,93.9368,15.6,77,0.0,924.2,8.9,57.6,104,42.3,31.4,3,5,7,0,2026-04-10T20:24:42.323189+05:30
Aizawl,Mizoram,23.7271,92.7176,17.5,75,0.0,893.9,8.8,58.0,86,52.5,27.4,3,5,7,0,2026-04-10T20:24:42.323196+05:30
Kohima,Nagaland,25.6701,94.1077,12.7,89,0.0,854.8,8.4,72.0,90,32.5,24.4,3,10,7,0,2026-04-10T20:24:42.323203+05:30
Gangtok,Sikkim,27.3314,88.6138,12.8,95,0.1,836.6,8.5,15.1,99,40.6,30.6,6,10,7,0,2026-04-10T20:24:42.323210+05:30
Siliguri,West Bengal,26.7271,88.3953,20.6,64,0.0,995.4,8.2,26.6,106,55.5,44.5,3,5,7,0,2026-04-10T20:24:45.582990+05:30
Durgapur,West Bengal,23.5204,87.3119,26.6,56,0.0,997.4,8.7,20.9,145,54.8,34.3,4,5,7,1,2026-04-10T20:24:45.583021+05:30
Asansol,West Bengal,23.6739,86.9524,27.0,47,0.0,995.9,8.75,23.0,130,49.9,29.0,4,5,7,0,2026-04-10T20:24:45.583030+05:30
Pondicherry,Puducherry,11.9139,79.8145,28.7,85,0.0,1010.9,8.85,33.8,62,20.6,14.4,7,0,4,1,2026-04-10T20:24:45.583038+05:30
Port Blair,Andaman and Nicobar Islands,11.6234,92.7265,29.1,75,0.0,1010.1,9.15,16.6,39,3.0,2.4,7,0,4,1,2026-04-10T20:24:45.583047+05:30
Haridwar,Uttarakhand,29.9457,78.1642,22.5,48,0.0,976.6,6.95,45.4,139,88.2,23.5,0,5,7,0,2026-04-10T20:24:45.583054+05:30
Rishikesh,Uttarakhand,30.0869,78.2676,21.5,51,0.0,969.2,7.0,37.1,149,36.9,16.1,0,5,7,0,2026-04-10T20:24:45.583062+05:30
Nainital,Uttarakhand,29.3919,79.4542,16.7,45,0.0,806.6,7.9,57.2,139,64.5,23.2,0,5,7,0,2026-04-10T20:24:45.583069+05:30
Mussoorie,Uttarakhand,30.4599,78.0664,14.2,58,0.0,802.3,7.4,37.8,142,20.1,16.1,0,5,7,0,2026-04-10T20:24:45.583076+05:30
Dharamshala,Himachal Pradesh,32.219,76.3234,17.7,57,0.0,871.6,7.6,24.8,151,16.8,11.8,0,5,7,0,2026-04-10T20:24:45.583083+05:30
Dalhousie,Himachal Pradesh,32.5387,75.971,14.7,55,0.0,805.2,7.85,19.4,130,21.9,17.8,0,5,7,0,2026-04-10T20:24:45.583090+05:30
Patiala,Punjab,30.3398,76.3869,23.6,44,0.0,982.3,7.0,38.5,656,1009.6,109.7,0,5,7,0,2026-04-10T20:24:45.583097+05:30
Bhatinda,Punjab,30.211,74.9455,24.9,44,0.0,988.6,7.65,31.7,142,40.5,18.7,0,5,7,0,2026-04-10T20:24:45.583104+05:30
Rohtak,Haryana,28.8955,76.6066,24.7,43,0.0,985.7,7.15,38.5,911,1743.4,206.8,0,5,7,0,2026-04-10T20:24:45.583111+05:30
Panipat,Haryana,29.3909,76.9635,23.7,42,0.0,984.0,7.0,41.0,1749,2816.3,306.4,0,5,7,0,2026-04-10T20:24:45.583118+05:30
Mathura,Uttar Pradesh,27.4924,77.6737,25.9,40,0.0,990.6,7.45,34.2,979,1806.8,205.8,4,5,7,0,2026-04-10T20:24:45.583124+05:30
Vrindavan,Uttar Pradesh,27.5823,77.7027,24.0,47,0.0,990.9,7.4,37.4,979,1806.8,205.8,0,5,7,0,2026-04-10T20:24:45.583131+05:30
Ayodhya,Uttar Pradesh,26.7922,82.1998,25.4,36,0.0,997.7,7.8,49.7,128,178.3,37.5,4,5,7,0,2026-04-10T20:24:45.583137+05:30
Ratlam,Madhya Pradesh,23.3315,75.0367,27.1,44,0.0,958.1,8.3,32.4,128,30.6,15.8,4,5,7,0,2026-04-10T20:24:45.583144+05:30
Sagar,Madhya Pradesh,23.8388,78.7378,28.4,22,0.0,954.0,8.4,29.9,126,26.3,11.1,4,5,7,0,2026-04-10T20:24:45.583151+05:30
Satna,Madhya Pradesh,24.6005,80.8322,27.8,29,0.0,974.7,8.45,34.6,133,29.2,14.4,4,5,7,0,2026-04-10T20:24:45.583157+05:30
Akola,Maharashtra,20.7002,77.0082,32.9,19,0.0,976.9,8.7,24.5,151,64.5,34.2,0,5,7,0,2026-04-10T20:24:45.583164+05:30
Amravati,Maharashtra,20.9374,77.7796,32.5,40,0.0,969.2,8.7,28.4,146,60.5,30.7,0,5,7,1,2026-04-10T20:24:45.583172+05:30
Latur,Maharashtra,18.4088,76.5604,29.5,48,0.0,941.8,8.95,30.2,135,35.5,23.7,4,5,7,1,2026-04-10T20:24:45.583178+05:30
Nanded,Maharashtra,19.1383,77.3091,31.1,42,0.0,970.4,8.85,19.4,135,46.4,29.7,0,5,7,1,2026-04-10T20:24:45.583185+05:30
Gulbarga,Karnataka,17.3297,76.8343,34.3,29,0.0,960.1,9.05,26.3,134,35.6,21.9,0,5,7,0,2026-04-10T20:24:45.583192+05:30
Bidar,Karnataka,17.9104,77.5199,31.3,36,0.0,937.7,9.05,28.8,133,37.7,24.4,0,5,7,0,2026-04-10T20:24:45.583198+05:30
Hospet,Karnataka,15.2689,76.3909,34.6,36,0.0,956.7,9.25,23.4,174,40.3,28.7,0,5,7,1,2026-04-10T20:24:45.583205+05:30
Tirupur,Tamil Nadu,11.1085,77.3411,32.7,47,0.0,976.8,9.5,30.2,166,38.6,33.3,0,5,7,1,2026-04-10T20:24:45.583211+05:30
Alappuzha,Kerala,9.4981,76.3388,28.2,83,0.0,1011.2,9.2,26.6,75,41.6,24.0,7,0,4,1,2026-04-10T20:24:45.583218+05:30
Munnar,Kerala,10.0889,77.0595,23.2,92,0.0,859.5,8.1,31.3,117,36.2,33.2,3,5,7,1,2026-04-10T20:24:45.583225+05:30
Silchar,Assam,24.8333,92.7789,22.5,79,0.0,1007.6,8.55,25.9,128,71.7,58.1,3,5,4,1,2026-04-10T20:24:45.583231+05:30
Dibrugarh,Assam,27.4728,94.912,20.9,89,0.0,999.0,8.35,16.2,96,47.4,40.9,3,5,7,1,2026-04-10T20:24:45.583238+05:30
