city,state,latitude,longitude,temp,humidity,rain,pressure,uv_index,wind_gusts,aqi,pm10,pm2_5,mosquito_risk,arthritis_risk,migraine_risk,frizz_risk,updated_at
Delhi,Delhi,28.6139,77.209,34.9,37,0.0,983.1,7.05,20.5,179,389.3,78.7,0,5,7,1,2026-04-19T11:04:56.130014+05:30
Mumbai,Maharashtra,19.076,72.8777,29.7,77,0.0,1008.5,7.45,26.6,87,59.1,31.2,7,0,4,1,2026-04-19T11:04:56.130061+05:30
Bangalore,Karnataka,12.9716,77.5946,31.7,48,0.0,914.0,9.6,25.9,85,27.8,21.8,0,5,7,1,2026-04-19T11:04:56.130077+05:30
Hyderabad,Telangana,17.385,78.4867,36.7,37,0.0,954.7,9.25,39.2,103,39.8,32.7,0,5,10,1,2026-04-19T11:04:56.130088+05:30
Chennai,Tamil Nadu,13.0827,80.2707,34.2,56,0.0,1008.2,9.3,34.6,37,14.8,9.8,0,0,4,1,2026-04-19T11:04:56.130097+05:30
Kolkata,West Bengal,22.5726,88.3639,33.3,69,0.0,1005.7,8.9,32.4,83,36.7,28.7,3,5,4,1,2026-04-19T11:04:56.130109+05:30
Pune,Maharashtra,18.5204,73.8567,37.5,24,0.0,949.7,8.6,31.0,95,29.8,21.8,0,5,10,0,2026-04-19T11:04:56.130118+05:30
Ahmedabad,Gujarat,23.0225,72.5714,34.9,31,0.0,1002.9,7.75,25.2,62,42.8,16.6,0,5,4,0,2026-04-19T11:04:56.130126+05:30
Jaipur,Rajasthan,26.9124,75.7873,37.6,20,0.0,960.6,7.9,38.5,149,441.4,56.3,0,5,10,0,2026-04-19T11:04:56.130134+05:30
Lucknow,Uttar Pradesh,26.8467,80.9462,36.5,32,0.0,992.9,7.85,32.4,116,188.6,50.4,0,5,10,1,2026-04-19T11:04:56.130142+05:30
Kanpur,Uttar Pradesh,26.4499,80.3319,35.3,40,0.0,991.6,7.9,21.6,179,347.4,64.3,0,5,10,1,2026-04-19T11:04:56.130149+05:30
Chandigarh,Chandigarh,30.7333,76.7794,32.4,41,0.0,969.1,6.15,34.9,69,111.3,24.1,0,5,7,1,2026-04-19T11:04:56.130157+05:30
Srinagar,Jammu and Kashmir,34.0837,74.7973,15.6,75,0.0,845.9,7.55,30.2,67,31.9,20.4,3,5,7,0,2026-04-19T11:04:56.130167+05:30
Jammu,Jammu and Kashmir,32.7266,74.857,30.3,35,0.0,973.6,5.75,32.4,63,24.0,13.0,0,5,3,0,2026-04-19T11:04:56.130174+05:30
Amritsar,Punjab,31.634,74.8723,29.2,43,0.0,981.9,7.35,25.9,64,37.7,19.7,4,5,7,0,2026-04-19T11:04:56.130182+05:30
Ludhiana,Punjab,30.901,75.8573,32.8,38,0.0,979.0,7.4,37.1,90,41.3,24.2,0,5,7,1,2026-04-19T11:04:56.130195+05:30
Jalandhar,Punjab,31.326,75.5762,31.3,36,0.0,980.4,6.4,36.0,74,48.1,23.6,0,5,7,0,2026-04-19T11:04:56.130202+05:30
Dehradun,Uttarakhand,30.6284,78.0322,25.2,28,0.0,834.2,6.9,47.5,33,18.9,5.4,4,5,7,0,2026-04-19T11:04:56.130210+05:30
Shimla,Himachal Pradesh,31.1048,77.1734,24.1,32,0.0,789.9,6.75,44.6,51,46.9,10.8,0,5,7,0,2026-04-19T11:04:56.130241+05:30
Manali,Himachal Pradesh,32.2396,77.1887,22.7,27,0.0,824.8,6.7,44.3,46,5.8,3.2,0,5,7,0,2026-04-19T11:04:56.130257+05:30
Gurgaon,Haryana,28.4595,77.0266,33.9,43,0.0,981.7,7.15,18.4,452,698.5,100.8,0,5,7,1,2026-04-19T11:04:56.130265+05:30
Noida,Uttar Pradesh,28.5355,77.391,35.5,36,0.0,984.5,7.0,22.3,452,698.5,100.8,0,5,10,1,2026-04-19T11:04:56.130272+05:30
Ghaziabad,Uttar Pradesh,28.6692,77.4538,34.7,40,0.0,982.8,6.9,20.5,157,356.7,74.0,0,5,7,1,2026-04-19T11:04:56.130280+05:30
Faridabad,Haryana,28.4089,77.3178,35.7,34,0.0,983.8,7.2,24.8,452,698.5,100.8,0,5,10,1,2026-04-19T11:04:56.130287+05:30
Meerut,Uttar Pradesh,28.9845,77.7064,35.0,40,0.0,981.4,6.55,24.8,157,356.7,74.0,0,5,7,1,2026-04-19T11:04:56.130293+05:30
Agra,Uttar Pradesh,27.1767,78.0081,35.9,35,0.0,987.8,7.6,26.3,334,461.0,93.1,0,5,10,1,2026-04-19T11:04:56.130304+05:30
Varanasi,Uttar Pradesh,25.3176,82.9739,38.7,27,0.0,996.7,8.45,27.7,101,271.9,48.8,0,5,10,1,2026-04-19T11:04:56.130311+05:30
Prayagraj,Uttar Pradesh,25.4358,81.8463,38.7,28,0.0,995.4,8.35,27.7,98,275.7,54.5,0,5,10,1,2026-04-19T11:04:56.130319+05:30
Gorakhpur,Uttar Pradesh,26.7606,83.3732,33.8,57,0.0,996.7,8.3,28.8,109,64.7,50.1,0,5,7,1,2026-04-19T11:04:56.130326+05:30
Bareilly,Uttar Pradesh,28.367,79.4304,36.7,34,0.0,986.3,7.4,30.2,84,99.0,27.6,0,5,10,1,2026-04-19T11:04:56.130334+05:30
Aligarh,Uttar Pradesh,27.8974,78.088,38.2,26,0.0,985.4,7.55,32.0,229,491.7,82.7,0,5,10,0,2026-04-19T11:04:56.130343+05:30
Moradabad,Uttar Pradesh,28.8386,78.7733,36.1,35,0.0,983.2,7.25,34.2,105,102.0,31.1,0,5,10,1,2026-04-19T11:04:56.130349+05:30
Saharanpur,Uttar Pradesh,29.9637,77.546,33.5,38,0.0,975.8,6.35,35.3,98,44.7,21.4,0,5,7,1,2026-04-19T11:04:56.130355+05:30
Jhansi,Uttar Pradesh,25.4484,78.5685,38.6,24,0.0,978.2,8.25,26.3,66,53.1,16.6,0,5,10,0,2026-04-19T11:04:59.347498+05:30
Surat,Gujarat,21.1702,72.8311,33.3,41,0.0,1007.2,7.85,25.6,99,50.5,38.0,0,5,4,1,2026-04-19T11:04:59.347532+05:30
Vadodara,Gujarat,22.3072,73.1812,35.8,32,0.0,1005.0,8.15,30.2,72,26.4,15.1,0,5,7,1,2026-04-19T11:04:59.347544+05:30
Rajkot,Gujarat,22.3039,70.8022,31.1,44,0.0,995.8,7.15,28.4,56,54.2,17.2,0,5,7,1,2026-04-19T11:04:59.347554+05:30
Thane,Maharashtra,19.2183,72.9781,34.1,44,0.0,1008.1,7.3,40.0,87,59.1,31.2,0,0,4,1,2026-04-19T11:04:59.347563+05:30
Nagpur,Maharashtra,21.1458,79.0882,38.8,17,0.0,973.6,8.8,18.7,93,34.5,30.7,0,5,10,0,2026-04-19T11:04:59.347572+05:30
Nashik,Maharashtra,19.9975,73.7898,35.2,28,0.0,947.2,6.35,33.5,73,32.1,14.6,0,5,10,0,2026-04-19T11:04:59.347580+05:30
Aurangabad,Maharashtra,19.8762,75.3433,36.9,27,0.0,945.6,8.85,22.7,63,22.1,15.5,0,5,10,0,2026-04-19T11:04:59.347589+05:30
Solapur,Maharashtra,17.6599,75.9064,37.5,30,0.0,957.9,8.95,27.0,130,40.7,34.6,0,5,10,1,2026-04-19T11:04:59.347597+05:30
Kolhapur,Maharashtra,16.705,74.2433,34.3,41,0.0,949.1,9.05,45.4,101,44.9,33.8,0,5,7,1,2026-04-19T11:04:59.347611+05:30
Goa,Goa,15.2993,74.124,32.1,64,0.0,998.7,9.0,29.9,85,52.6,25.6,3,5,7,1,2026-04-19T11:04:59.347619+05:30
Jodhpur,Rajasthan,26.2389,73.0243,35.4,25,0.0,984.2,8.15,27.0,109,196.0,48.5,0,5,10,0,2026-04-19T11:04:59.347627+05:30
Udaipur,Rajasthan,24.5854,73.7125,35.6,17,0.0,948.3,8.4,36.7,39,25.5,9.5,0,5,10,0,2026-04-19T11:04:59.347635+05:30
Kota,Rajasthan,25.2138,75.8648,38.7,18,0.0,979.2,8.25,36.4,76,22.8,8.9,0,5,10,0,2026-04-19T11:04:59.347643+05:30
Bikaner,Rajasthan,28.0229,73.3119,33.8,34,0.0,982.6,8.0,23.0,82,69.2,25.5,0,5,7,0,2026-04-19T11:04:59.347651+05:30
Ajmer,Rajasthan,26.4499,74.6399,33.8,25,0.0,956.2,7.65,28.4,63,116.4,24.9,0,5,7,0,2026-04-19T11:04:59.347659+05:30
Gwalior,Madhya Pradesh,26.2183,78.1828,39.3,21,0.0,983.2,7.65,31.3,85,243.1,48.0,0,5,10,0,2026-04-19T11:04:59.347667+05:30
Indore,Madhya Pradesh,22.7196,75.8577,36.5,23,0.0,949.7,8.6,29.5,52,8.7,5.5,0,5,10,0,2026-04-19T11:04:59.347675+05:30
Bhopal,Madhya Pradesh,23.2599,77.4126,37.2,24,0.0,955.2,8.6,30.2,56,42.8,18.2,0,5,10,0,2026-04-19T11:04:59.347683+05:30
Jabalpur,Madhya Pradesh,23.1815,79.9864,35.6,30,0.0,962.4,8.75,23.8,69,19.6,13.3,0,5,10,0,2026-04-19T11:04:59.347691+05:30
Ujjain,Madhya Pradesh,23.1765,75.7885,36.6,24,0.0,955.3,8.5,33.8,51,9.4,6.8,0,5,10,0,2026-04-19T11:04:59.347700+05:30
Visakhapatnam,Andhra Pradesh,17.6868,83.2185,33.6,58,0.0,1004.7,9.15,38.5,65,27.8,19.5,0,5,4,1,2026-04-19T11:04:59.347707+05:30
Vijayawada,Andhra Pradesh,16.5062,80.648,33.9,59,0.0,1003.6,9.2,31.3,58,20.0,12.4,0,5,4,1,2026-04-19T11:04:59.347715+05:30
Guntur,Andhra Pradesh,16.3067,80.4365,34.4,56,0.0,1004.7,9.25,33.8,62,18.5,12.5,0,5,4,1,2026-04-19T11:04:59.347723+05:30
Nellore,Andhra Pradesh,14.4426,79.9865,35.6,47,0.0,1006.0,9.25,33.5,51,16.9,12.1,0,5,7,1,2026-04-19T11:04:59.347732+05:30
Kurnool,Andhra Pradesh,15.8281,78.0373,39.6,26,0.0,977.0,9.25,38.2,87,35.9,30.9,0,5,10,1,2026-04-19T11:04:59.347739+05:30
Kakinada,Andhra Pradesh,16.9891,82.2475,34.6,56,0.0,1008.5,9.2,29.9,53,20.7,12.0,0,0,4,1,2026-04-19T11:04:59.347746+05:30
Tirupati,Andhra Pradesh,13.6288,79.4192,33.9,54,0.0,992.9,9.35,33.1,66,14.9,11.4,0,5,7,1,2026-04-19T11:04:59.347753+05:30
Warangal,Telangana,17.9689,79.5941,34.4,50,0.0,979.6,9.15,32.8,88,24.4,19.8,0,5,7,1,2026-04-19T11:04:59.347759+05:30
Nizamabad,Telangana,18.6725,78.0941,38.4,26,0.0,965.7,9.1,39.2,111,44.8,39.6,0,5,10,0,2026-04-19T11:04:59.347765+05:30
Mysore,Karnataka,12.2958,76.6396,32.6,44,0.0,930.4,9.5,43.9,88,31.2,25.4,0,5,7,1,2026-04-19T11:04:59.347772+05:30
Mangalore,Karnataka,12.9141,74.856,29.8,84,0.0,1007.5,9.1,22.7,69,43.2,23.8,7,5,4,1,2026-04-19T11:04:59.347778+05:30
Hubli-Dharwad,Karnataka,15.3647,75.124,29.6,70,0.0,942.4,9.2,31.7,77,40.5,31.4,7,5,7,1,2026-04-19T11:04:59.347785+05:30
Belgaum,Karnataka,15.8497,74.4977,30.2,66,0.0,927.2,9.25,28.8,92,44.4,33.9,3,5,7,1,2026-04-19T11:05:02.586765+05:30
Coimbatore,Tamil Nadu,11.0168,76.9558,33.1,53,0.0,963.4,9.4,53.3,90,29.9,23.1,0,5,7,1,2026-04-19T11:05:02.586799+05:30
Madurai,Tamil Nadu,9.9252,78.1198,34.4,46,0.0,994.2,9.3,41.0,64,15.5,13.6,0,5,7,1,2026-04-19T11:05:02.586811+05:30
Trichy,Tamil Nadu,10.7905,78.7047,34.2,53,0.0,1000.9,9.3,23.0,55,16.2,13.3,0,5,4,1,2026-04-19T11:05:02.586821+05:30
Salem,Tamil Nadu,11.6643,78.146,33.5,53,0.0,978.8,9.35,18.0,64,15.3,11.9,0,5,7,1,2026-04-19T11:05:02.586831+05:30
Tirunelveli,Tamil Nadu,8.7139,77.7567,36.6,38,0.0,1004.0,9.25,49.0,68,21.5,16.1,0,5,7,1,2026-04-19T11:05:02.586839+05:30
Vellore,Tamil Nadu,12.9165,79.1325,33.1,58,0.0,985.9,9.4,27.7,87,18.0,14.3,0,5,7,1,2026-04-19T11:05:02.586849+05:30
Erode,Tamil Nadu,11.341,77.7172,35.5,48,0.0,990.0,9.35,27.0,58,20.2,17.4,0,5,10,1,2026-04-19T11:05:02.586858+05:30
Kochi,Kerala,9.9312,76.2673,29.4,82,0.0,1009.4,9.15,25.2,78,25.9,20.3,7,0,4,1,2026-04-19T11:05:02.586867+05:30
Thiruvananthapuram,Kerala,8.5241,76.9366,29.0,84,0.0,1008.7,9.1,29.5,69,28.2,19.6,7,0,4,1,2026-04-19T11:05:02.586873+05:30
Kozhikode,Kerala,11.2588,75.7804,31.3,74,0.0,1008.6,9.1,30.2,64,21.4,16.3,3,0,4,1,2026-04-19T11:05:02.586880+05:30
Thrissur,Kerala,10.5276,76.2144,34.1,61,0.0,1007.8,9.15,32.8,77,19.8,15.5,3,5,4,1,2026-04-19T11:05:02.586887+05:30
Kannur,Kerala,11.8745,75.3704,32.8,65,0.0,1007.9,9.1,33.1,70,34.2,21.7,3,5,4,1,2026-04-19T11:05:02.586895+05:30
Patna,Bihar,25.5941,85.1376,32.7,61,0.0,1000.0,8.6,27.0,127,56.9,47.1,3,5,4,1,2026-04-19T11:05:02.586901+05:30
Gaya,Bihar,24.7914,85.0002,37.5,33,0.0,993.1,8.7,33.8,95,84.3,29.6,0,5,10,1,2026-04-19T11:05:02.586907+05:30
Muzaffarpur,Bihar,26.1209,85.3647,31.8,60,0.0,1000.4,8.6,29.5,141,57.7,49.2,0,5,4,1,2026-04-19T11:05:02.586914+05:30
Bhagalpur,Bihar,25.2425,87.0117,31.2,65,0.0,1001.5,8.65,27.0,122,48.9,44.5,3,5,4,1,2026-04-19T11:05:02.586920+05:30
Ranchi,Jharkhand,23.3441,85.3096,37.1,24,0.0,939.5,9.2,43.2,72,79.4,26.6,0,5,10,0,2026-04-19T11:05:02.586926+05:30
Jamshedpur,Jharkhand,22.8046,86.2029,37.4,50,0.0,990.3,9.0,36.7,115,78.7,60.1,0,5,10,1,2026-04-19T11:05:02.586933+05:30
Dhanbad,Jharkhand,23.7957,86.4304,38.7,34,0.0,979.3,8.95,39.6,157,92.7,39.5,0,5,10,1,2026-04-19T11:05:02.586940+05:30
Bokaro,Jharkhand,23.6693,86.1511,38.8,31,0.0,983.4,8.95,44.3,145,105.2,30.9,0,5,10,1,2026-04-19T11:05:02.586946+05:30
Bhubaneswar,Odisha,20.2961,85.8245,32.9,68,0.0,1003.5,9.1,34.6,65,31.7,23.1,3,5,4,1,2026-04-19T11:05:02.586952+05:30
Cuttack,Odisha,20.4625,85.8828,34.4,63,0.0,1005.0,9.15,34.2,65,31.7,23.1,3,5,4,1,2026-04-19T11:05:02.586959+05:30
Rourkela,Odisha,22.2604,84.8536,38.9,40,0.0,984.9,8.8,32.8,135,68.9,57.7,0,5,10,1,2026-04-19T11:05:02.586965+05:30
Raipur,Chhattisgarh,21.2514,81.6296,38.5,36,0.0,975.0,9.0,33.8,150,46.8,42.4,0,5,10,1,2026-04-19T11:05:02.586971+05:30
Bhilai,Chhattisgarh,21.1938,81.3509,38.1,38,0.0,975.3,8.95,31.7,152,44.0,39.5,0,5,10,1,2026-04-19T11:05:02.586977+05:30
Guwahati,Assam,26.1158,91.7086,28.2,79,0.0,1002.6,8.55,24.8,119,69.2,49.9,7,5,4,1,2026-04-19T11:05:02.586983+05:30
Agartala,Tripura,23.8315,91.2868,29.9,76,0.0,1006.8,8.75,35.6,125,43.0,32.9,7,5,4,1,2026-04-19T11:05:02.586990+05:30
Shillong,Meghalaya,25.5788,91.8933,20.7,71,0.0,858.8,6.75,54.7,99,29.8,20.2,3,5,7,0,2026-04-19T11:05:02.586997+05:30
Imphal,Manipur,24.817,93.9368,22.7,76,0.0,924.7,8.2,61.2,150,66.4,44.1,3,5,7,1,2026-04-19T11:05:02.587003+05:30
Aizawl,Mizoram,23.7271,92.7176,25.7,60,0.0,895.2,8.7,38.5,148,49.2,33.9,4,5,7,1,2026-04-19T11:05:02.587009+05:30
Kohima,Nagaland,25.6701,94.1077,19.9,87,0.0,857.1,8.65,53.6,127,68.0,45.1,3,10,7,1,2026-04-19T11:05:02.587016+05:30
Gangtok,Sikkim,27.3314,88.6138,21.3,75,0.0,840.2,8.9,21.6,77,16.6,13.0,3,5,7,1,2026-04-19T11:05:02.587022+05:30
Siliguri,West Bengal,26.7271,88.3953,26.4,73,0.0,994.8,8.45,21.2,150,35.2,27.2,7,5,7,1,2026-04-19T11:05:05.808994+05:30
Durgapur,West Bengal,23.5204,87.3119,35.6,61,0.0,994.4,8.9,40.3,126,77.5,61.2,3,5,10,1,2026-04-19T11:05:05.809025+05:30
Asansol,West Bengal,23.6739,86.9524,36.3,58,0.0,992.9,8.95,34.6,141,86.1,55.4,0,5,10,1,2026-04-19T11:05:05.809036+05:30
Pondicherry,Puducherry,11.9139,79.8145,34.2,58,0.0,1009.3,9.25,30.6,32,15.1,10.6,0,0,4,1,2026-04-19T11:05:05.809044+05:30
Port Blair,Andaman and Nicobar Islands,11.6234,92.7265,29.4,74,0.0,1008.1,9.15,13.0,55,16.4,13.3,7,0,4,1,2026-04-19T11:05:05.809052+05:30
Haridwar,Uttarakhand,29.9457,78.1642,34.5,34,0.0,974.3,6.3,27.4,67,52.7,15.6,0,5,7,1,2026-04-19T11:05:05.809060+05:30
Rishikesh,Uttarakhand,30.0869,78.2676,34.4,31,0.0,967.2,6.7,27.0,57,60.8,13.9,0,5,7,0,2026-04-19T11:05:05.809067+05:30
Nainital,Uttarakhand,29.3919,79.4542,29.9,31,0.0,811.6,8.1,60.5,56,39.3,10.5,4,5,7,0,2026-04-19T11:05:05.809075+05:30
Mussoorie,Uttarakhand,30.4599,78.0664,26.9,28,0.0,807.8,6.9,46.4,57,52.4,13.0,4,5,7,0,2026-04-19T11:05:05.809082+05:30
Dharamshala,Himachal Pradesh,32.219,76.3234,25.2,39,0.0,871.8,6.3,39.2,37,27.1,7.2,4,5,7,0,2026-04-19T11:05:05.809089+05:30
Dalhousie,Himachal Pradesh,32.5387,75.971,22.0,36,0.0,807.3,6.2,34.6,58,53.3,12.7,0,5,7,0,2026-04-19T11:05:05.809098+05:30
Patiala,Punjab,30.3398,76.3869,33.2,42,0.0,978.4,6.05,26.6,140,207.2,48.4,0,5,7,1,2026-04-19T11:05:05.809105+05:30
Bhatinda,Punjab,30.211,74.9455,35.5,25,0.0,984.4,7.75,36.0,81,51.9,23.0,0,5,10,0,2026-04-19T11:05:05.809111+05:30
Rohtak,Haryana,28.8955,76.6066,32.4,49,0.0,982.0,6.55,23.0,222,444.2,74.7,0,5,7,1,2026-04-19T11:05:05.809117+05:30
Panipat,Haryana,29.3909,76.9635,34.1,42,0.0,980.6,6.05,28.8,411,586.7,94.3,0,5,7,1,2026-04-19T11:05:05.809124+05:30
Mathura,Uttar Pradesh,27.4924,77.6737,37.8,28,0.0,986.6,7.65,37.8,293,385.6,80.3,0,5,10,1,2026-04-19T11:05:05.809131+05:30
Vrindavan,Uttar Pradesh,27.5823,77.7027,37.5,29,0.0,987.1,7.65,41.4,293,385.6,80.3,0,5,10,1,2026-04-19T11:05:05.809138+05:30
Ayodhya,Uttar Pradesh,26.7922,82.1998,35.9,44,0.0,994.7,8.05,36.0,94,66.8,43.2,0,5,10,1,2026-04-19T11:05:05.809145+05:30
Ratlam,Madhya Pradesh,23.3315,75.0367,33.8,34,0.0,955.9,8.45,26.6,36,13.3,7.1,0,5,7,0,2026-04-19T11:05:05.809151+05:30
Sagar,Madhya Pradesh,23.8388,78.7378,38.1,22,0.0,951.4,8.65,34.2,54,62.4,17.1,0,5,10,0,2026-04-19T11:05:05.809157+05:30
Satna,Madhya Pradesh,24.6005,80.8322,40.2,18,0.0,971.7,8.65,39.6,75,234.2,36.3,0,5,10,0,2026-04-19T11:05:05.809164+05:30
Akola,Maharashtra,20.7002,77.0082,38.6,26,0.0,975.5,8.85,24.1,65,15.4,9.9,0,5,10,0,2026-04-19T11:05:05.809171+05:30
Amravati,Maharashtra,20.9374,77.7796,37.4,23,0.0,968.1,8.85,16.2,67,15.5,9.7,0,5,10,0,2026-04-19T11:05:05.809179+05:30
Latur,Maharashtra,18.4088,76.5604,35.2,28,0.0,941.4,8.7,17.6,108,25.9,21.0,0,5,10,0,2026-04-19T11:05:05.809186+05:30
Nanded,Maharashtra,19.1383,77.3091,36.3,30,0.0,969.7,9.0,22.7,89,20.0,15.8,0,5,10,0,2026-04-19T11:05:05.809193+05:30
Gulbarga,Karnataka,17.3297,76.8343,37.7,30,0.0,959.7,9.1,40.3,98,42.1,36.3,0,5,10,1,2026-04-19T11:05:05.809199+05:30
Bidar,Karnataka,17.9104,77.5199,36.1,34,0.0,937.3,9.15,34.9,104,40.5,34.9,0,5,10,1,2026-04-19T11:05:05.809205+05:30
Hospet,Karnataka,15.2689,76.3909,31.7,62,0.0,957.0,9.25,25.6,93,36.1,30.6,3,5,7,1,2026-04-19T11:05:05.809212+05:30
Tirupur,Tamil Nadu,11.1085,77.3411,34.5,48,0.0,976.6,9.4,28.8,72,23.9,19.5,0,5,7,1,2026-04-19T11:05:05.809218+05:30
Alappuzha,Kerala,9.4981,76.3388,29.2,82,0.0,1009.4,9.1,23.0,85,29.1,22.9,7,0,4,1,2026-04-19T11:05:05.809248+05:30
Munnar,Kerala,10.0889,77.0595,30.0,49,0.0,860.6,9.65,37.8,78,22.8,15.6,4,5,7,1,2026-04-19T11:05:05.809257+05:30
Silchar,Assam,24.8333,92.7789,26.9,82,0.0,1006.7,8.8,33.8,158,85.2,60.3,7,5,4,1,2026-04-19T11:05:05.809264+05:30
Dibrugarh,Assam,27.4728,94.912,28.0,74,0.0,996.0,8.65,19.4,143,76.6,52.4,7,5,7,1,2026-04-19T11:05:05.809271+05:30
