city,state,latitude,longitude,temp,humidity,rain,pressure,uv_index,wind_gusts,aqi,pm10,pm2_5,no2,co,o3,so2,mosquito_risk,arthritis_risk,migraine_risk,frizz_risk,updated_at
Delhi,Delhi,28.6139,77.209,29.5,53,0.0,977.5,7.75,35.3,350,171.4,54.8,33.0,282.0,34.0,13.6,4,5,7,1,2026-06-23T05:39:17.944853+05:30
Mumbai,Maharashtra,19.076,72.8777,25.0,96,0.1,1005.2,1.7,35.3,38,7.6,6.2,12.5,139.0,39.0,11.0,10,5,0,1,2026-06-23T05:39:17.944903+05:30
Bangalore,Karnataka,12.9716,77.5946,20.2,95,0.0,910.6,7.2,52.2,21,3.1,2.9,7.8,193.0,35.0,4.1,3,5,7,1,2026-06-23T05:39:17.944918+05:30
Hyderabad,Telangana,17.385,78.4867,26.8,69,0.0,951.1,4.7,48.2,36,7.5,6.6,11.3,178.0,34.0,5.0,7,5,3,1,2026-06-23T05:39:17.944928+05:30
Chennai,Tamil Nadu,13.0827,80.2707,27.4,81,0.0,1005.0,4.9,37.1,57,11.5,10.7,17.4,239.0,35.0,9.6,7,5,0,1,2026-06-23T05:39:17.944937+05:30
Kolkata,West Bengal,22.5726,88.3639,27.5,93,0.0,1000.5,8.9,26.3,115,54.5,51.9,19.1,438.0,59.0,13.0,7,5,4,1,2026-06-23T05:39:17.944945+05:30
Pune,Maharashtra,18.5204,73.8567,23.7,94,0.1,945.0,3.2,36.4,22,5.4,4.8,9.0,130.0,32.0,5.0,6,5,3,1,2026-06-23T05:39:17.944953+05:30
Ahmedabad,Gujarat,23.0225,72.5714,29.9,72,0.0,997.9,8.05,42.1,64,41.8,16.7,5.6,137.0,39.0,3.9,7,5,7,1,2026-06-23T05:39:17.944961+05:30
Jaipur,Rajasthan,26.9124,75.7873,27.0,54,0.0,954.7,8.2,35.6,143,78.5,39.1,16.0,203.0,33.0,6.2,4,5,7,1,2026-06-23T05:39:17.944969+05:30
Lucknow,Uttar Pradesh,26.8467,80.9462,30.7,52,0.0,986.9,8.25,40.3,155,171.8,67.8,20.8,340.0,67.0,12.4,0,5,7,1,2026-06-23T05:39:17.944981+05:30
Kanpur,Uttar Pradesh,26.4499,80.3319,30.6,49,0.0,985.7,8.25,43.6,218,318.5,86.8,24.4,311.0,49.0,9.7,0,5,7,1,2026-06-23T05:39:17.944988+05:30
Chandigarh,Chandigarh,30.7333,76.7794,25.6,59,0.0,963.1,7.8,36.0,95,43.7,40.6,39.3,504.0,19.0,8.0,4,5,7,1,2026-06-23T05:39:17.944996+05:30
Srinagar,Jammu and Kashmir,34.0837,74.7973,13.8,100,0.0,838.7,9.1,18.7,74,27.8,26.9,20.4,414.0,22.0,0.9,3,10,7,0,2026-06-23T05:39:17.945004+05:30
Jammu,Jammu and Kashmir,32.7266,74.857,24.1,60,0.0,966.6,8.65,35.6,82,33.3,31.5,38.1,411.0,2.0,2.2,0,5,7,0,2026-06-23T05:39:17.945019+05:30
Amritsar,Punjab,31.634,74.8723,25.8,73,0.0,974.8,8.5,18.4,133,101.3,85.4,72.7,438.0,4.0,14.3,7,5,7,1,2026-06-23T05:39:17.945026+05:30
Ludhiana,Punjab,30.901,75.8573,26.6,68,0.0,972.9,8.05,32.4,114,62.4,47.8,30.0,376.0,41.0,6.9,7,5,7,1,2026-06-23T05:39:17.945033+05:30
Jalandhar,Punjab,31.326,75.5762,26.6,70,0.0,973.9,8.25,27.7,124,75.7,61.2,47.9,422.0,18.0,7.3,7,5,7,1,2026-06-23T05:39:17.945043+05:30
Dehradun,Uttarakhand,30.6284,78.0322,14.3,94,0.0,824.9,7.7,32.4,64,27.6,19.1,23.2,301.0,21.0,0.4,3,10,7,0,2026-06-23T05:39:17.945050+05:30
Shimla,Himachal Pradesh,31.1048,77.1734,11.8,73,0.0,778.5,8.3,40.3,68,21.6,16.1,13.3,161.0,57.0,0.6,3,5,7,0,2026-06-23T05:39:17.945057+05:30
Manali,Himachal Pradesh,32.2396,77.1887,12.9,72,0.0,812.9,9.6,36.4,43,2.5,2.3,9.5,151.0,129.0,0.0,3,5,7,0,2026-06-23T05:39:17.945066+05:30
Gurgaon,Haryana,28.4595,77.0266,26.6,66,0.0,975.9,7.85,47.9,629,128.1,49.5,34.9,247.0,31.0,13.2,7,5,7,1,2026-06-23T05:39:17.945073+05:30
Noida,Uttar Pradesh,28.5355,77.391,28.4,60,0.0,978.7,7.8,27.7,629,128.1,49.5,34.9,332.0,31.0,13.2,4,5,7,1,2026-06-23T05:39:17.945080+05:30
Ghaziabad,Uttar Pradesh,28.6692,77.4538,26.9,65,0.0,976.8,7.8,29.2,273,162.1,55.9,35.1,398.0,35.0,17.1,7,5,7,1,2026-06-23T05:39:17.945086+05:30
Faridabad,Haryana,28.4089,77.3178,28.9,55,0.0,978.2,7.85,41.0,629,128.1,49.5,34.9,248.0,31.0,13.2,4,5,7,1,2026-06-23T05:39:17.945093+05:30
Meerut,Uttar Pradesh,28.9845,77.7064,27.2,64,0.0,975.6,7.7,34.9,273,162.1,55.9,35.1,350.0,35.0,17.1,7,5,7,1,2026-06-23T05:39:17.945100+05:30
Agra,Uttar Pradesh,27.1767,78.0081,29.1,58,0.0,982.2,8.1,33.1,713,216.1,49.0,28.6,349.0,23.0,6.1,4,5,7,1,2026-06-23T05:39:17.945107+05:30
Varanasi,Uttar Pradesh,25.3176,82.9739,30.2,55,0.0,990.9,8.4,41.8,114,49.2,34.5,16.0,291.0,48.0,8.7,0,5,7,1,2026-06-23T05:39:17.945114+05:30
Prayagraj,Uttar Pradesh,25.4358,81.8463,31.3,51,0.0,989.7,8.25,41.4,124,93.8,48.7,30.3,213.0,25.0,8.6,0,5,7,1,2026-06-23T05:39:17.945121+05:30
Gorakhpur,Uttar Pradesh,26.7606,83.3732,27.6,83,0.0,990.7,8.3,37.1,163,95.0,77.8,18.3,674.0,82.0,13.7,7,5,7,1,2026-06-23T05:39:17.945160+05:30
Bareilly,Uttar Pradesh,28.367,79.4304,28.5,59,0.0,980.7,8.1,32.8,161,262.6,86.8,29.0,411.0,40.0,15.8,4,5,7,1,2026-06-23T05:39:17.945177+05:30
Aligarh,Uttar Pradesh,27.8974,78.088,27.8,60,0.0,979.8,7.95,31.7,491,247.7,70.8,28.8,338.0,33.0,9.0,4,5,7,1,2026-06-23T05:39:17.945185+05:30
Moradabad,Uttar Pradesh,28.8386,78.7733,28.1,59,0.0,977.5,7.95,37.8,166,249.6,85.9,27.3,438.0,39.0,14.3,4,5,7,1,2026-06-23T05:39:17.945198+05:30
Saharanpur,Uttar Pradesh,29.9637,77.546,25.8,69,0.0,969.9,7.45,34.2,160,386.5,130.4,45.9,388.0,22.0,11.7,7,5,7,1,2026-06-23T05:39:17.945206+05:30
Jhansi,Uttar Pradesh,25.4484,78.5685,29.4,58,0.0,972.7,8.45,37.1,92,59.6,34.0,8.0,175.0,58.0,5.7,4,5,7,1,2026-06-23T05:39:21.295421+05:30
Surat,Gujarat,21.1702,72.8311,26.0,96,0.0,1003.2,4.2,41.8,61,27.8,19.6,29.5,328.0,18.0,42.4,7,5,0,1,2026-06-23T05:39:21.295456+05:30
Vadodara,Gujarat,22.3072,73.1812,28.9,78,0.0,1000.2,7.85,44.3,54,20.1,13.4,14.5,120.0,27.0,12.7,7,5,4,1,2026-06-23T05:39:21.295466+05:30
Rajkot,Gujarat,22.3039,70.8022,27.7,78,0.0,990.1,7.55,44.3,68,41.0,15.3,6.0,106.0,38.0,5.7,7,5,7,1,2026-06-23T05:39:21.295475+05:30
Thane,Maharashtra,19.2183,72.9781,24.6,98,0.1,1004.8,1.2,31.0,38,7.6,6.2,12.5,115.0,39.0,11.0,6,5,0,1,2026-06-23T05:39:21.295483+05:30
Nagpur,Maharashtra,21.1458,79.0882,26.4,80,0.0,970.4,5.05,54.0,63,8.3,8.0,12.4,202.0,59.0,11.7,7,5,3,1,2026-06-23T05:39:21.295491+05:30
Nashik,Maharashtra,19.9975,73.7898,23.0,94,0.0,942.2,5.65,38.2,22,6.7,5.5,11.9,114.0,32.0,15.0,3,5,3,1,2026-06-23T05:39:21.295499+05:30
Aurangabad,Maharashtra,19.8762,75.3433,25.0,81,0.0,941.6,8.1,32.0,28,5.6,5.5,9.2,180.0,46.0,7.9,7,5,7,1,2026-06-23T05:39:21.295507+05:30
Solapur,Maharashtra,17.6599,75.9064,26.3,74,0.0,955.5,6.6,56.9,20,4.4,3.5,3.8,144.0,40.0,1.4,7,5,7,1,2026-06-23T05:39:21.295515+05:30
Kolhapur,Maharashtra,16.705,74.2433,23.0,95,0.1,945.5,8.35,56.9,18,2.6,2.5,3.9,124.0,39.0,1.8,6,5,7,1,2026-06-23T05:39:21.295523+05:30
Goa,Goa,15.2993,74.124,24.4,98,0.1,997.1,3.55,35.3,25,11.1,6.8,1.8,132.0,45.0,0.5,6,5,3,1,2026-06-23T05:39:21.295530+05:30
Jodhpur,Rajasthan,26.2389,73.0243,30.5,52,0.0,977.7,8.4,37.1,126,168.1,44.1,6.7,132.0,42.0,2.3,0,5,7,1,2026-06-23T05:39:21.295538+05:30
Udaipur,Rajasthan,24.5854,73.7125,25.1,82,0.0,942.2,8.75,35.6,68,17.8,11.6,14.0,143.0,32.0,14.7,7,5,7,1,2026-06-23T05:39:21.295545+05:30
Kota,Rajasthan,25.2138,75.8648,28.5,62,0.0,973.8,8.3,34.6,86,33.1,21.0,9.0,168.0,52.0,6.4,7,5,7,1,2026-06-23T05:39:21.295552+05:30
Bikaner,Rajasthan,28.0229,73.3119,30.1,50,0.0,976.1,8.5,35.3,142,159.3,44.5,4.2,130.0,45.0,2.9,0,5,7,1,2026-06-23T05:39:21.295559+05:30
Ajmer,Rajasthan,26.4499,74.6399,26.9,52,0.0,949.9,8.35,45.7,96,49.7,24.5,12.8,133.0,37.0,4.2,4,5,7,1,2026-06-23T05:39:21.295566+05:30
Gwalior,Madhya Pradesh,26.2183,78.1828,28.5,55,0.0,977.9,8.25,42.1,107,76.8,38.8,14.0,187.0,36.0,3.4,4,5,7,1,2026-06-23T05:39:21.295573+05:30
Indore,Madhya Pradesh,22.7196,75.8577,25.8,76,0.0,945.1,6.35,38.2,61,16.0,14.9,7.9,174.0,60.0,8.9,7,5,7,1,2026-06-23T05:39:21.295580+05:30
Bhopal,Madhya Pradesh,23.2599,77.4126,24.8,86,0.0,950.3,6.65,38.2,67,15.5,13.4,8.2,280.0,48.0,2.9,3,5,7,1,2026-06-23T05:39:21.295587+05:30
Jabalpur,Madhya Pradesh,23.1815,79.9864,28.0,61,0.0,957.8,6.9,34.6,87,21.8,17.1,10.2,211.0,47.0,3.6,7,5,7,1,2026-06-23T05:39:21.295594+05:30
Ujjain,Madhya Pradesh,23.1765,75.7885,26.1,73,0.0,950.5,8.1,35.6,63,15.9,14.9,8.4,228.0,54.0,12.9,7,5,7,1,2026-06-23T05:39:21.295601+05:30
Visakhapatnam,Andhra Pradesh,17.6868,83.2185,28.4,80,0.0,999.6,8.55,32.4,90,29.0,27.7,21.8,322.0,64.0,37.8,7,5,7,1,2026-06-23T05:39:21.295609+05:30
Vijayawada,Andhra Pradesh,16.5062,80.648,27.2,78,0.0,999.8,5.8,38.5,82,26.3,25.6,13.5,236.0,52.0,4.5,7,5,3,1,2026-06-23T05:39:21.295615+05:30
Guntur,Andhra Pradesh,16.3067,80.4365,27.2,76,0.0,1001.1,5.55,39.2,75,18.3,17.8,13.4,201.0,44.0,5.4,7,5,0,1,2026-06-23T05:39:21.295622+05:30
Nellore,Andhra Pradesh,14.4426,79.9865,27.2,78,0.0,1003.6,8.3,37.1,59,7.8,7.1,8.9,133.0,44.0,5.4,7,5,4,1,2026-06-23T05:39:21.295630+05:30
Kurnool,Andhra Pradesh,15.8281,78.0373,26.5,75,0.0,975.9,7.8,46.1,24,4.2,3.6,7.3,137.0,32.0,3.6,7,5,7,1,2026-06-23T05:39:21.295639+05:30
Kakinada,Andhra Pradesh,16.9891,82.2475,28.2,82,0.0,1004.2,7.9,42.1,76,18.8,16.8,5.3,208.0,97.0,6.0,7,5,4,1,2026-06-23T05:39:21.295646+05:30
Tirupati,Andhra Pradesh,13.6288,79.4192,25.8,80,0.0,989.0,7.7,37.8,53,9.4,8.6,15.6,164.0,24.0,2.7,7,5,7,1,2026-06-23T05:39:21.295653+05:30
Warangal,Telangana,17.9689,79.5941,25.0,93,0.0,975.9,9.0,37.1,54,13.5,13.2,14.2,201.0,41.0,4.8,7,5,7,1,2026-06-23T05:39:21.295660+05:30
Nizamabad,Telangana,18.6725,78.0941,26.2,79,0.0,962.5,7.75,59.0,29,7.0,6.7,8.8,151.0,44.0,4.0,7,5,7,1,2026-06-23T05:39:21.295667+05:30
Mysore,Karnataka,12.2958,76.6396,21.4,93,0.0,927.6,8.05,47.2,18,1.8,1.7,3.9,120.0,39.0,1.7,3,5,7,1,2026-06-23T05:39:21.295675+05:30
Mangalore,Karnataka,12.9141,74.856,24.1,98,0.0,1007.2,7.85,36.7,25,11.4,6.9,2.9,128.0,40.0,1.3,3,5,4,1,2026-06-23T05:39:21.295682+05:30
Hubli-Dharwad,Karnataka,15.3647,75.124,22.0,96,0.0,939.4,7.55,63.4,21,0.8,0.7,1.7,92.0,45.0,0.6,3,5,7,1,2026-06-23T05:39:21.295689+05:30
Belgaum,Karnataka,15.8497,74.4977,21.5,98,0.0,923.5,8.6,51.5,20,1.5,1.4,3.5,112.0,38.0,1.2,3,5,7,1,2026-06-23T05:39:24.662495+05:30
Coimbatore,Tamil Nadu,11.0168,76.9558,22.2,97,0.0,960.8,8.0,51.5,19,3.1,2.6,4.1,122.0,38.0,2.2,3,5,7,1,2026-06-23T05:39:24.662530+05:30
Madurai,Tamil Nadu,9.9252,78.1198,26.5,68,0.0,992.1,8.25,44.6,58,29.3,28.9,32.5,213.0,1.0,6.3,7,5,7,1,2026-06-23T05:39:24.662542+05:30
Trichy,Tamil Nadu,10.7905,78.7047,27.2,70,0.0,999.1,7.8,52.9,23,4.5,3.6,6.1,116.0,36.0,2.7,7,5,7,1,2026-06-23T05:39:24.662551+05:30
Salem,Tamil Nadu,11.6643,78.146,24.3,89,0.0,976.9,8.1,43.9,39,12.8,11.7,17.5,274.0,25.0,6.6,3,5,7,1,2026-06-23T05:39:24.662561+05:30
Tirunelveli,Tamil Nadu,8.7139,77.7567,27.2,71,0.0,1003.0,2.9,43.9,16,6.0,5.0,6.8,128.0,29.0,2.1,7,5,0,1,2026-06-23T05:39:24.662568+05:30
Vellore,Tamil Nadu,12.9165,79.1325,26.3,70,0.0,982.6,6.9,41.4,42,7.9,7.3,12.9,168.0,27.0,4.3,7,5,7,1,2026-06-23T05:39:24.662576+05:30
Erode,Tamil Nadu,11.341,77.7172,25.0,81,0.0,988.8,7.75,32.8,29,9.3,8.3,11.7,133.0,30.0,3.3,7,5,7,1,2026-06-23T05:39:24.662584+05:30
Kochi,Kerala,9.9312,76.2673,25.0,96,0.0,1009.8,8.4,37.4,38,10.8,8.9,11.1,87.0,24.0,4.0,7,0,4,1,2026-06-23T05:39:24.662592+05:30
Thiruvananthapuram,Kerala,8.5241,76.9366,24.3,98,0.0,1009.3,8.0,46.8,20,11.0,6.7,3.8,105.0,43.0,2.0,3,0,4,1,2026-06-23T05:39:24.662599+05:30
Kozhikode,Kerala,11.2588,75.7804,23.4,99,0.0,1009.2,7.65,35.6,25,7.6,3.9,0.6,122.0,54.0,0.4,3,0,4,1,2026-06-23T05:39:24.662606+05:30
Thrissur,Kerala,10.5276,76.2144,23.8,99,0.0,1008.2,7.65,35.3,38,11.0,9.1,8.3,175.0,29.0,2.8,3,0,4,1,2026-06-23T05:39:24.662614+05:30
Kannur,Kerala,11.8745,75.3704,24.0,97,0.1,1007.8,6.4,34.9,20,7.8,5.1,3.8,120.0,38.0,1.3,6,5,4,1,2026-06-23T05:39:24.662621+05:30
Patna,Bihar,25.5941,85.1376,26.7,95,0.0,994.1,8.6,32.0,151,81.3,66.6,24.1,632.0,44.0,11.7,7,5,7,1,2026-06-23T05:39:24.662629+05:30
Gaya,Bihar,24.7914,85.0002,28.9,71,0.0,987.4,8.6,37.4,99,51.1,36.1,15.1,255.0,60.0,12.1,7,5,7,1,2026-06-23T05:39:24.662636+05:30
Muzaffarpur,Bihar,26.1209,85.3647,25.5,93,0.0,994.4,8.85,26.3,156,93.1,79.4,18.2,487.0,64.0,13.5,7,5,7,1,2026-06-23T05:39:24.662642+05:30
Bhagalpur,Bihar,25.2425,87.0117,26.5,96,0.0,995.2,8.85,22.3,150,72.9,53.1,16.5,335.0,56.0,9.3,7,5,7,1,2026-06-23T05:39:24.662649+05:30
Ranchi,Jharkhand,23.3441,85.3096,24.1,83,0.0,932.4,8.95,37.8,83,36.1,28.0,10.1,246.0,67.0,6.7,3,5,7,1,2026-06-23T05:39:24.662656+05:30
Jamshedpur,Jharkhand,22.8046,86.2029,26.0,84,0.0,985.5,9.1,43.2,113,33.8,28.4,13.1,302.0,81.0,19.9,7,5,7,1,2026-06-23T05:39:24.662663+05:30
Dhanbad,Jharkhand,23.7957,86.4304,26.3,87,0.0,974.3,9.1,27.0,153,69.6,57.6,47.2,249.0,35.0,106.5,7,5,7,1,2026-06-23T05:39:24.662670+05:30
Bokaro,Jharkhand,23.6693,86.1511,26.7,82,0.0,977.8,8.85,29.9,131,56.5,44.0,29.9,272.0,47.0,77.9,7,5,7,1,2026-06-23T05:39:24.662676+05:30
Bhubaneswar,Odisha,20.2961,85.8245,27.5,93,0.0,997.7,9.05,33.1,76,30.7,29.7,16.5,367.0,49.0,7.1,7,5,7,1,2026-06-23T05:39:24.662684+05:30
Cuttack,Odisha,20.4625,85.8828,27.4,87,0.0,999.4,9.05,36.7,76,30.7,29.7,16.5,340.0,49.0,7.1,7,5,7,1,2026-06-23T05:39:24.662691+05:30
Rourkela,Odisha,22.2604,84.8536,26.3,85,0.0,980.4,9.0,38.5,98,41.0,37.1,12.9,309.0,61.0,9.6,7,5,7,1,2026-06-23T05:39:24.662699+05:30
Raipur,Chhattisgarh,21.2514,81.6296,27.5,68,0.0,971.2,8.95,45.0,87,20.7,20.2,23.7,589.0,63.0,41.5,7,5,7,1,2026-06-23T05:39:24.662706+05:30
Bhilai,Chhattisgarh,21.1938,81.3509,27.1,69,0.0,971.7,8.9,44.3,83,19.3,18.9,19.9,733.0,62.0,34.8,7,5,7,1,2026-06-23T05:39:24.662712+05:30
Guwahati,Assam,26.1158,91.7086,24.7,99,0.0,996.8,8.7,29.9,80,27.6,21.9,6.5,331.0,73.0,3.0,3,5,7,1,2026-06-23T05:39:24.662719+05:30
Agartala,Tripura,23.8315,91.2868,25.1,96,0.0,1001.7,8.65,38.2,66,15.5,14.2,13.3,198.0,48.0,4.6,7,5,4,1,2026-06-23T05:39:24.662726+05:30
Shillong,Meghalaya,25.5788,91.8933,19.3,92,0.0,853.7,7.85,29.2,57,10.4,8.5,3.5,206.0,84.0,2.6,3,10,7,1,2026-06-23T05:39:24.662733+05:30
Imphal,Manipur,24.817,93.9368,22.3,97,0.0,919.5,9.1,29.2,72,24.2,22.7,7.9,334.0,42.0,2.4,3,5,7,1,2026-06-23T05:39:24.662739+05:30
Aizawl,Mizoram,23.7271,92.7176,19.5,95,0.0,888.7,8.2,28.1,19,4.1,4.1,4.8,161.0,31.0,0.5,3,10,7,1,2026-06-23T05:39:24.662746+05:30
Kohima,Nagaland,25.6701,94.1077,19.5,96,0.0,851.8,6.95,22.3,55,19.0,15.5,5.4,230.0,41.0,1.0,3,10,7,1,2026-06-23T05:39:24.662753+05:30
Gangtok,Sikkim,27.3314,88.6138,17.1,96,0.1,832.9,9.05,34.9,53,13.1,10.0,6.0,405.0,110.0,3.3,6,10,7,1,2026-06-23T05:39:24.662760+05:30
Siliguri,West Bengal,26.7271,88.3953,23.8,97,0.0,987.9,8.8,20.9,81,33.8,25.1,8.2,494.0,117.0,6.0,3,5,7,1,2026-06-23T05:39:28.023967+05:30
Durgapur,West Bengal,23.5204,87.3119,26.6,90,0.0,989.3,9.0,29.2,157,87.8,82.7,53.3,1090.0,19.0,58.3,7,5,7,1,2026-06-23T05:39:28.024009+05:30
Asansol,West Bengal,23.6739,86.9524,26.5,89,0.0,987.8,9.05,30.6,153,75.2,65.9,50.5,995.0,29.0,64.6,7,5,7,1,2026-06-23T05:39:28.024021+05:30
Pondicherry,Puducherry,11.9139,79.8145,28.1,65,0.0,1006.7,7.55,40.3,56,18.6,17.3,21.0,308.0,30.0,10.4,7,5,4,1,2026-06-23T05:39:28.024031+05:30
Port Blair,Andaman and Nicobar Islands,11.6234,92.7265,27.5,81,0.0,1006.7,8.75,45.0,25,9.6,5.4,0.2,98.0,42.0,0.2,7,5,4,1,2026-06-23T05:39:28.024040+05:30
Haridwar,Uttarakhand,29.9457,78.1642,24.0,80,0.0,967.9,7.6,28.4,125,160.7,74.0,39.9,386.0,36.0,12.9,3,5,7,1,2026-06-23T05:39:28.024048+05:30
Rishikesh,Uttarakhand,30.0869,78.2676,21.8,89,0.0,960.5,7.7,23.4,93,64.7,39.3,12.6,397.0,97.0,8.7,3,5,7,1,2026-06-23T05:39:28.024057+05:30
Nainital,Uttarakhand,29.3919,79.4542,13.4,98,0.0,800.4,6.65,33.8,109,28.8,23.3,13.5,302.0,71.0,2.2,3,10,7,0,2026-06-23T05:39:28.024065+05:30
Mussoorie,Uttarakhand,30.4599,78.0664,15.0,76,0.0,798.4,7.25,40.0,83,43.5,36.1,31.1,262.0,41.0,4.8,3,5,7,0,2026-06-23T05:39:28.024074+05:30
Dharamshala,Himachal Pradesh,32.219,76.3234,21.1,57,0.0,864.9,8.5,40.7,43,9.7,7.8,10.7,231.0,74.0,0.1,0,5,7,0,2026-06-23T05:39:28.024082+05:30
Dalhousie,Himachal Pradesh,32.5387,75.971,11.9,86,0.0,798.0,8.8,37.8,75,27.0,23.3,28.0,238.0,20.0,0.7,3,10,7,0,2026-06-23T05:39:28.024091+05:30
Patiala,Punjab,30.3398,76.3869,27.0,67,0.0,972.5,7.7,32.4,300,351.1,85.4,22.5,300.0,48.0,7.1,7,5,7,1,2026-06-23T05:39:28.024099+05:30
Bhatinda,Punjab,30.211,74.9455,27.9,61,0.0,978.0,8.3,28.8,104,117.6,62.2,61.4,411.0,10.0,5.3,7,5,7,1,2026-06-23T05:39:28.024106+05:30
Rohtak,Haryana,28.8955,76.6066,26.5,70,0.0,976.0,7.75,33.1,447,174.2,52.9,38.1,254.0,24.0,5.6,7,5,7,1,2026-06-23T05:39:28.024114+05:30
Panipat,Haryana,29.3909,76.9635,26.6,70,0.0,974.7,7.65,32.4,1439,512.2,109.7,32.4,316.0,32.0,7.7,7,5,7,1,2026-06-23T05:39:28.024121+05:30
Mathura,Uttar Pradesh,27.4924,77.6737,27.4,65,0.0,981.2,8.05,39.2,598,108.5,41.7,33.9,320.0,16.0,4.2,7,5,7,1,2026-06-23T05:39:28.024153+05:30
Vrindavan,Uttar Pradesh,27.5823,77.7027,27.0,68,0.0,981.6,8.05,38.5,598,108.5,41.7,33.9,310.0,16.0,4.2,7,5,7,1,2026-06-23T05:39:28.024162+05:30
Ayodhya,Uttar Pradesh,26.7922,82.1998,28.1,83,0.0,988.3,8.4,36.0,159,112.9,59.3,25.2,1000.0,49.0,13.5,7,5,7,1,2026-06-23T05:39:28.024170+05:30
Ratlam,Madhya Pradesh,23.3315,75.0367,25.0,83,0.0,951.3,7.5,34.2,61,14.2,12.5,10.9,210.0,39.0,16.0,7,5,7,1,2026-06-23T05:39:28.024178+05:30
Sagar,Madhya Pradesh,23.8388,78.7378,26.7,69,0.0,946.3,5.95,38.9,90,24.7,18.6,8.8,253.0,48.0,3.2,7,5,3,1,2026-06-23T05:39:28.024186+05:30
Satna,Madhya Pradesh,24.6005,80.8322,29.2,58,0.0,966.3,8.8,39.2,86,48.4,30.7,9.3,175.0,54.0,4.2,4,5,7,1,2026-06-23T05:39:28.024193+05:30
Akola,Maharashtra,20.7002,77.0082,26.8,83,0.1,972.7,7.85,37.1,41,8.4,8.2,11.9,176.0,48.0,7.1,10,5,7,1,2026-06-23T05:39:28.024203+05:30
Amravati,Maharashtra,20.9374,77.7796,25.5,90,0.0,965.0,8.2,38.9,49,9.5,9.2,12.6,150.0,50.0,7.6,7,5,7,1,2026-06-23T05:39:28.024211+05:30
Latur,Maharashtra,18.4088,76.5604,25.5,75,0.0,937.8,6.8,47.9,23,4.4,3.9,5.6,144.0,36.0,1.3,7,5,7,1,2026-06-23T05:39:28.024219+05:30
Nanded,Maharashtra,19.1383,77.3091,26.3,82,0.0,966.6,8.0,43.2,34,4.2,4.1,6.4,167.0,50.0,2.4,7,5,7,1,2026-06-23T05:39:28.024227+05:30
Gulbarga,Karnataka,17.3297,76.8343,25.9,75,0.0,957.0,8.65,64.4,21,4.9,4.2,5.9,149.0,36.0,2.4,7,5,7,1,2026-06-23T05:39:28.024234+05:30
Bidar,Karnataka,17.9104,77.5199,25.4,75,0.0,933.5,8.0,59.0,24,6.7,5.9,9.2,149.0,34.0,2.4,7,5,7,1,2026-06-23T05:39:28.024241+05:30
Hospet,Karnataka,15.2689,76.3909,24.0,86,0.0,954.5,7.75,55.4,20,1.9,1.6,3.0,104.0,42.0,1.2,3,5,7,1,2026-06-23T05:39:28.024247+05:30
Tirupur,Tamil Nadu,11.1085,77.3411,23.7,90,0.0,974.9,8.1,51.1,32,10.8,10.0,14.3,115.0,25.0,4.0,3,5,7,1,2026-06-23T05:39:28.024254+05:30
Alappuzha,Kerala,9.4981,76.3388,25.6,90,0.1,1009.9,3.55,38.9,29,8.6,6.1,6.7,81.0,36.0,2.5,10,0,0,1,2026-06-23T05:39:28.024261+05:30
Munnar,Kerala,10.0889,77.0595,16.6,100,0.0,856.5,9.05,41.0,16,4.7,3.4,3.9,96.0,28.0,1.1,3,10,7,1,2026-06-23T05:39:28.024269+05:30
Silchar,Assam,24.8333,92.7789,25.5,96,0.1,1001.2,8.4,23.4,87,58.3,54.2,20.4,269.0,38.0,6.5,10,5,4,1,2026-06-23T05:39:28.024277+05:30
Dibrugarh,Assam,27.4728,94.912,24.0,98,0.1,991.2,8.5,20.5,79,24.6,18.8,8.0,219.0,71.0,1.3,6,5,7,1,2026-06-23T05:39:28.024284+05:30
