city,state,latitude,longitude,temp,humidity,rain,pressure,uv_index,wind_gusts,aqi,pm10,pm2_5,no2,co,o3,so2,mosquito_risk,arthritis_risk,migraine_risk,frizz_risk,updated_at
Delhi,Delhi,28.6139,77.209,26.9,88,0.0,975.9,6.95,37.1,89,127.1,34.2,19.7,335.0,58.0,19.3,7,5,7,1,2026-07-23T04:36:35.519151+05:30
Mumbai,Maharashtra,19.076,72.8777,26.4,89,0.5,1002.9,0.85,68.4,54,24.0,11.1,2.9,95.0,41.0,2.8,10,5,0,1,2026-07-23T04:36:35.519197+05:30
Bangalore,Karnataka,12.9716,77.5946,19.5,96,0.0,910.3,9.0,49.7,33,12.6,6.8,8.5,172.0,27.0,4.5,3,10,7,1,2026-07-23T04:36:35.519212+05:30
Hyderabad,Telangana,17.385,78.4867,23.0,86,0.0,950.0,7.8,59.4,37,6.5,4.9,8.7,130.0,29.0,5.1,3,5,7,1,2026-07-23T04:36:35.519221+05:30
Chennai,Tamil Nadu,13.0827,80.2707,26.8,88,0.0,1005.9,8.95,36.4,76,32.9,25.1,22.6,216.0,38.0,12.5,7,5,4,1,2026-07-23T04:36:35.519229+05:30
Kolkata,West Bengal,22.5726,88.3639,24.9,97,0.2,1001.6,1.2,33.8,56,17.1,14.2,10.4,269.0,48.0,5.3,6,5,0,1,2026-07-23T04:36:35.519237+05:30
Pune,Maharashtra,18.5204,73.8567,22.0,91,0.1,942.2,1.45,58.0,25,18.6,7.8,2.2,98.0,55.0,1.9,6,5,3,1,2026-07-23T04:36:35.519244+05:30
Ahmedabad,Gujarat,23.0225,72.5714,26.2,96,0.6,992.4,3.95,43.9,59,23.1,12.0,8.0,114.0,34.0,4.4,10,5,3,1,2026-07-23T04:36:35.519250+05:30
Jaipur,Rajasthan,26.9124,75.7873,25.2,93,0.0,951.2,7.3,30.6,52,11.0,10.8,12.2,250.0,70.0,4.8,7,5,7,1,2026-07-23T04:36:35.519256+05:30
Lucknow,Uttar Pradesh,26.8467,80.9462,26.3,91,0.0,986.4,4.2,50.0,76,18.2,18.1,9.9,301.0,64.0,7.6,7,5,3,1,2026-07-23T04:36:35.519269+05:30
Kanpur,Uttar Pradesh,26.4499,80.3319,26.4,90,0.0,984.2,7.6,47.9,74,17.3,17.3,10.2,277.0,67.0,7.9,7,5,7,1,2026-07-23T04:36:35.519276+05:30
Chandigarh,Chandigarh,30.7333,76.7794,27.7,72,0.0,963.1,7.6,36.7,80,22.3,22.1,27.6,250.0,29.0,4.8,7,5,7,1,2026-07-23T04:36:35.519283+05:30
Srinagar,Jammu and Kashmir,34.0837,74.7973,16.0,100,0.0,838.6,8.75,24.5,69,14.3,14.3,14.6,342.0,52.0,2.8,3,10,7,0,2026-07-23T04:36:35.519291+05:30
Jammu,Jammu and Kashmir,32.7266,74.857,23.6,95,0.0,967.1,7.75,32.4,73,36.3,35.2,42.1,180.0,13.0,3.3,3,5,7,1,2026-07-23T04:36:35.519297+05:30
Amritsar,Punjab,31.634,74.8723,26.0,91,0.1,974.3,5.7,29.5,90,23.9,23.7,14.0,371.0,57.0,3.7,10,5,3,1,2026-07-23T04:36:35.519303+05:30
Ludhiana,Punjab,30.901,75.8573,26.3,96,0.1,972.3,6.15,37.4,116,64.0,61.5,47.8,547.0,8.0,8.9,10,5,7,1,2026-07-23T04:36:35.519309+05:30
Jalandhar,Punjab,31.326,75.5762,26.2,97,0.3,973.4,6.9,32.8,111,43.2,42.8,26.9,433.0,30.0,4.8,10,5,7,1,2026-07-23T04:36:35.519315+05:30
Dehradun,Uttarakhand,30.6284,78.0322,16.4,95,0.0,826.0,7.75,24.1,34,12.5,12.1,32.2,238.0,27.0,1.2,3,10,7,0,2026-07-23T04:36:35.519332+05:30
Shimla,Himachal Pradesh,31.1048,77.1734,14.6,96,0.0,780.6,7.2,23.4,49,9.6,9.5,21.6,282.0,30.0,1.6,3,10,7,0,2026-07-23T04:36:35.519338+05:30
Manali,Himachal Pradesh,32.2396,77.1887,19.1,85,0.4,816.4,6.7,23.8,24,2.4,2.3,17.9,194.0,34.0,0.8,6,10,7,1,2026-07-23T04:36:35.519348+05:30
Gurgaon,Haryana,28.4595,77.0266,26.9,87,0.0,974.1,7.0,39.2,91,95.0,31.7,17.5,335.0,61.0,18.0,7,5,7,1,2026-07-23T04:36:35.519355+05:30
Noida,Uttar Pradesh,28.5355,77.391,27.1,86,0.0,977.4,6.95,37.8,91,95.0,31.7,17.5,310.0,61.0,18.0,7,5,7,1,2026-07-23T04:36:35.519361+05:30
Ghaziabad,Uttar Pradesh,28.6692,77.4538,27.1,85,0.0,975.8,7.55,40.7,73,21.4,20.4,14.5,309.0,60.0,10.2,7,5,7,1,2026-07-23T04:36:35.519367+05:30
Faridabad,Haryana,28.4089,77.3178,27.0,86,0.0,976.6,7.05,41.0,91,95.0,31.7,17.5,324.0,61.0,18.0,7,5,7,1,2026-07-23T04:36:35.519374+05:30
Meerut,Uttar Pradesh,28.9845,77.7064,27.2,83,0.0,975.0,7.5,43.2,73,21.4,20.4,14.5,298.0,60.0,10.2,7,5,7,1,2026-07-23T04:36:35.519397+05:30
Agra,Uttar Pradesh,27.1767,78.0081,26.1,90,0.1,979.9,7.15,39.6,68,34.1,26.8,10.6,300.0,76.0,7.0,10,5,7,1,2026-07-23T04:36:35.519403+05:30
Varanasi,Uttar Pradesh,25.3176,82.9739,25.5,96,0.0,990.3,6.25,35.3,70,22.5,22.4,21.9,460.0,33.0,18.2,7,5,7,1,2026-07-23T04:36:35.519410+05:30
Prayagraj,Uttar Pradesh,25.4358,81.8463,26.1,94,0.0,987.9,7.3,34.2,69,21.8,21.7,15.7,324.0,55.0,13.5,7,5,7,1,2026-07-23T04:36:35.519417+05:30
Gorakhpur,Uttar Pradesh,26.7606,83.3732,26.4,89,0.0,991.4,4.6,47.9,68,21.7,21.6,11.1,297.0,55.0,6.6,7,5,3,1,2026-07-23T04:36:35.519423+05:30
Bareilly,Uttar Pradesh,28.367,79.4304,27.2,83,0.0,980.6,5.4,49.3,68,19.4,19.3,11.7,290.0,61.0,6.1,7,5,3,1,2026-07-23T04:36:35.519430+05:30
Aligarh,Uttar Pradesh,27.8974,78.088,26.8,85,0.0,978.3,7.1,43.6,74,26.5,26.3,11.7,298.0,71.0,8.8,7,5,7,1,2026-07-23T04:36:35.519437+05:30
Moradabad,Uttar Pradesh,28.8386,78.7733,27.3,81,0.0,977.6,7.35,49.0,66,20.3,20.2,12.8,296.0,61.0,7.1,7,5,7,1,2026-07-23T04:36:35.519442+05:30
Saharanpur,Uttar Pradesh,29.9637,77.546,26.8,85,0.0,969.9,7.3,41.0,72,25.1,24.5,22.7,396.0,31.0,6.8,7,5,7,1,2026-07-23T04:36:35.519448+05:30
Jhansi,Uttar Pradesh,25.4484,78.5685,25.3,97,0.0,969.3,7.45,28.4,56,20.4,20.4,13.0,234.0,62.0,6.6,7,5,7,1,2026-07-23T04:36:38.901122+05:30
Surat,Gujarat,21.1702,72.8311,26.0,94,0.1,997.7,1.55,50.8,73,21.4,14.0,19.7,230.0,28.0,32.1,10,5,3,1,2026-07-23T04:36:38.901156+05:30
Vadodara,Gujarat,22.3072,73.1812,25.6,97,0.1,994.8,1.05,42.8,62,14.6,9.3,9.4,135.0,32.0,4.3,10,5,3,1,2026-07-23T04:36:38.901166+05:30
Rajkot,Gujarat,22.3039,70.8022,26.2,87,0.0,985.3,1.7,56.5,59,17.6,9.3,4.6,87.0,37.0,4.3,7,5,3,1,2026-07-23T04:36:38.901175+05:30
Thane,Maharashtra,19.2183,72.9781,25.0,95,1.2,1002.3,0.55,45.0,54,24.0,11.1,2.9,101.0,41.0,2.8,10,5,0,1,2026-07-23T04:36:38.901183+05:30
Nagpur,Maharashtra,21.1458,79.0882,24.0,91,0.0,966.8,5.4,55.1,34,13.5,8.9,9.2,152.0,34.0,7.8,3,5,3,1,2026-07-23T04:36:38.901191+05:30
Nashik,Maharashtra,19.9975,73.7898,22.5,95,0.8,937.6,1.35,63.7,15,0.6,0.6,4.9,95.0,33.0,4.1,6,5,3,1,2026-07-23T04:36:38.901198+05:30
Aurangabad,Maharashtra,19.8762,75.3433,22.4,91,0.0,937.4,3.65,66.6,17,1.3,1.2,3.1,102.0,38.0,1.3,3,5,3,1,2026-07-23T04:36:38.901206+05:30
Solapur,Maharashtra,17.6599,75.9064,24.1,75,0.0,953.9,5.3,64.1,33,15.1,7.6,3.5,110.0,44.0,1.6,3,5,3,1,2026-07-23T04:36:38.901213+05:30
Kolhapur,Maharashtra,16.705,74.2433,21.6,94,0.0,944.6,5.55,54.4,28,21.4,10.2,2.1,102.0,46.0,1.3,3,5,3,1,2026-07-23T04:36:38.901221+05:30
Goa,Goa,15.2993,74.124,23.6,99,0.1,996.6,3.95,43.2,57,20.3,11.0,1.4,246.0,40.0,0.5,6,5,3,1,2026-07-23T04:36:38.901228+05:30
Jodhpur,Rajasthan,26.2389,73.0243,25.9,95,0.0,973.3,8.15,31.3,86,43.0,13.7,6.0,164.0,64.0,1.2,7,5,7,1,2026-07-23T04:36:38.901236+05:30
Udaipur,Rajasthan,24.5854,73.7125,23.3,98,0.6,936.6,8.65,27.7,50,8.4,5.1,7.6,145.0,45.0,2.9,6,5,7,1,2026-07-23T04:36:38.901243+05:30
Kota,Rajasthan,25.2138,75.8648,25.2,97,0.1,969.4,7.8,28.4,60,23.3,21.1,15.7,263.0,50.0,4.8,10,5,7,1,2026-07-23T04:36:38.901251+05:30
Bikaner,Rajasthan,28.0229,73.3119,26.9,91,0.0,973.2,7.15,27.0,72,10.9,10.4,4.1,219.0,96.0,3.6,7,5,7,1,2026-07-23T04:36:38.901258+05:30
Ajmer,Rajasthan,26.4499,74.6399,24.3,99,0.0,945.7,7.35,32.8,61,11.4,10.3,9.7,240.0,72.0,2.7,3,5,7,1,2026-07-23T04:36:38.901265+05:30
Gwalior,Madhya Pradesh,26.2183,78.1828,26.0,92,0.0,974.7,6.15,28.4,53,22.9,22.3,9.2,294.0,79.0,8.4,7,5,7,1,2026-07-23T04:36:38.901273+05:30
Indore,Madhya Pradesh,22.7196,75.8577,23.3,97,0.0,939.0,2.1,52.9,49,6.6,6.0,11.2,204.0,38.0,9.8,3,5,3,1,2026-07-23T04:36:38.901280+05:30
Bhopal,Madhya Pradesh,23.2599,77.4126,23.4,96,0.1,944.7,5.1,33.8,42,7.4,6.7,6.6,192.0,56.0,3.6,6,5,3,1,2026-07-23T04:36:38.901287+05:30
Jabalpur,Madhya Pradesh,23.1815,79.9864,23.8,98,0.1,953.5,1.15,36.7,33,5.4,5.2,7.3,164.0,46.0,4.3,6,5,3,1,2026-07-23T04:36:38.901294+05:30
Ujjain,Madhya Pradesh,23.1765,75.7885,23.1,97,0.1,944.4,2.65,43.9,46,5.7,5.4,7.9,233.0,52.0,6.0,6,5,3,1,2026-07-23T04:36:38.901302+05:30
Visakhapatnam,Andhra Pradesh,17.6868,83.2185,26.8,80,0.0,1000.5,8.1,41.8,69,26.1,18.1,17.5,283.0,37.0,27.8,7,5,4,1,2026-07-23T04:36:38.901310+05:30
Vijayawada,Andhra Pradesh,16.5062,80.648,27.2,77,0.0,1000.0,7.45,38.2,57,15.3,10.5,11.4,183.0,25.0,6.7,7,5,4,1,2026-07-23T04:36:38.901334+05:30
Guntur,Andhra Pradesh,16.3067,80.4365,27.5,74,0.0,1001.3,8.2,43.6,54,15.6,10.2,12.2,169.0,23.0,7.2,7,5,4,1,2026-07-23T04:36:38.901342+05:30
Nellore,Andhra Pradesh,14.4426,79.9865,26.9,77,0.0,1004.2,8.95,38.2,59,18.6,12.6,12.7,205.0,28.0,4.5,7,5,4,1,2026-07-23T04:36:38.901351+05:30
Kurnool,Andhra Pradesh,15.8281,78.0373,25.0,77,0.0,975.1,8.75,48.2,38,6.8,4.0,6.9,110.0,28.0,4.5,7,5,7,1,2026-07-23T04:36:38.901360+05:30
Kakinada,Andhra Pradesh,16.9891,82.2475,27.9,70,0.0,1004.9,8.3,48.2,66,23.2,15.1,8.9,178.0,43.0,7.0,7,5,4,1,2026-07-23T04:36:38.901368+05:30
Tirupati,Andhra Pradesh,13.6288,79.4192,25.5,88,0.0,989.9,8.65,35.3,62,19.6,16.4,25.0,189.0,4.0,2.6,7,5,7,1,2026-07-23T04:36:38.901375+05:30
Warangal,Telangana,17.9689,79.5941,24.1,88,0.0,975.6,7.35,47.5,50,15.1,9.7,10.4,172.0,25.0,4.0,3,5,7,1,2026-07-23T04:36:38.901382+05:30
Nizamabad,Telangana,18.6725,78.0941,22.3,95,0.3,960.5,3.5,62.6,40,15.3,8.9,5.6,126.0,38.0,2.0,6,5,3,1,2026-07-23T04:36:38.901389+05:30
Mysore,Karnataka,12.2958,76.6396,20.4,97,0.0,927.4,8.7,50.4,25,10.8,5.7,6.4,109.0,27.0,2.0,3,5,7,1,2026-07-23T04:36:38.901397+05:30
Mangalore,Karnataka,12.9141,74.856,23.8,98,0.2,1006.9,8.8,44.3,51,17.4,9.8,6.5,143.0,23.0,2.2,6,5,4,1,2026-07-23T04:36:38.901404+05:30
Hubli-Dharwad,Karnataka,15.3647,75.124,21.1,97,0.0,938.4,5.2,55.8,17,1.6,1.1,1.9,102.0,36.0,0.8,3,5,3,1,2026-07-23T04:36:38.901412+05:30
Belgaum,Karnataka,15.8497,74.4977,20.5,98,0.1,922.9,5.9,50.4,20,3.1,2.0,2.5,103.0,38.0,1.1,6,5,3,1,2026-07-23T04:36:42.307217+05:30
Coimbatore,Tamil Nadu,11.0168,76.9558,22.6,94,0.0,961.0,8.95,51.5,35,12.2,7.6,8.2,176.0,19.0,2.8,3,5,7,1,2026-07-23T04:36:42.307251+05:30
Madurai,Tamil Nadu,9.9252,78.1198,28.0,67,0.0,992.3,8.7,29.9,69,21.5,16.9,24.8,144.0,13.0,6.0,7,5,7,1,2026-07-23T04:36:42.307263+05:30
Trichy,Tamil Nadu,10.7905,78.7047,28.0,67,0.0,999.0,8.1,45.4,57,14.9,11.9,14.6,113.0,20.0,4.7,7,5,7,1,2026-07-23T04:36:42.307273+05:30
Salem,Tamil Nadu,11.6643,78.146,25.2,90,0.0,976.8,8.9,27.7,68,25.6,21.1,28.9,377.0,13.0,7.2,7,5,7,1,2026-07-23T04:36:42.307283+05:30
Tirunelveli,Tamil Nadu,8.7139,77.7567,27.9,71,0.0,1002.9,7.9,49.0,43,7.7,6.3,7.6,140.0,26.0,2.5,7,5,4,1,2026-07-23T04:36:42.307290+05:30
Vellore,Tamil Nadu,12.9165,79.1325,26.2,77,0.0,983.6,8.75,39.2,63,16.8,13.7,21.3,162.0,12.0,4.6,7,5,7,1,2026-07-23T04:36:42.307297+05:30
Erode,Tamil Nadu,11.341,77.7172,25.9,77,0.0,988.6,8.8,39.6,55,20.1,16.1,18.2,159.0,17.0,4.8,7,5,7,1,2026-07-23T04:36:42.307304+05:30
Kochi,Kerala,9.9312,76.2673,25.5,94,0.0,1009.0,7.75,27.7,57,10.9,9.4,14.2,199.0,8.0,4.4,7,0,4,1,2026-07-23T04:36:42.307311+05:30
Thiruvananthapuram,Kerala,8.5241,76.9366,24.3,96,0.0,1008.6,7.0,40.3,51,11.3,7.7,5.8,176.0,34.0,3.5,3,0,4,1,2026-07-23T04:36:42.307335+05:30
Kozhikode,Kerala,11.2588,75.7804,23.3,99,0.3,1008.5,8.5,36.0,34,14.0,6.8,2.2,285.0,40.0,1.4,6,0,4,1,2026-07-23T04:36:42.307343+05:30
Thrissur,Kerala,10.5276,76.2144,23.7,98,0.0,1007.3,8.65,32.8,56,12.2,10.1,11.7,274.0,12.0,3.2,3,5,4,1,2026-07-23T04:36:42.307352+05:30
Kannur,Kerala,11.8745,75.3704,23.2,98,0.1,1007.6,8.5,34.2,45,12.9,7.7,6.6,130.0,26.0,2.6,6,5,4,1,2026-07-23T04:36:42.307359+05:30
Patna,Bihar,25.5941,85.1376,25.8,93,0.0,994.8,7.1,36.7,64,22.9,22.9,17.6,274.0,43.0,17.0,7,5,7,1,2026-07-23T04:36:42.307366+05:30
Gaya,Bihar,24.7914,85.0002,25.9,93,0.0,987.7,7.6,23.4,57,13.8,13.7,20.9,282.0,19.0,14.0,7,5,7,1,2026-07-23T04:36:42.307374+05:30
Muzaffarpur,Bihar,26.1209,85.3647,25.7,92,0.0,995.3,6.7,45.0,64,20.3,20.2,13.7,263.0,49.0,12.1,7,5,7,1,2026-07-23T04:36:42.307381+05:30
Bhagalpur,Bihar,25.2425,87.0117,25.7,95,0.0,996.6,7.4,35.6,60,16.6,16.5,17.1,276.0,36.0,14.4,7,5,7,1,2026-07-23T04:36:42.307388+05:30
Ranchi,Jharkhand,23.3441,85.3096,22.3,95,0.0,932.0,5.8,38.9,32,4.2,4.0,7.3,157.0,39.0,7.3,3,5,3,1,2026-07-23T04:36:42.307395+05:30
Jamshedpur,Jharkhand,22.8046,86.2029,24.4,95,0.0,986.1,8.35,35.6,59,17.2,15.7,24.6,213.0,21.0,22.6,3,5,7,1,2026-07-23T04:36:42.307402+05:30
Dhanbad,Jharkhand,23.7957,86.4304,24.7,95,0.0,974.7,6.4,32.0,81,33.3,32.5,40.2,1400.0,11.0,106.9,3,5,7,1,2026-07-23T04:36:42.307409+05:30
Bokaro,Jharkhand,23.6693,86.1511,24.9,92,0.0,978.4,6.85,36.4,74,25.6,24.7,28.9,277.0,19.0,83.3,3,5,7,1,2026-07-23T04:36:42.307417+05:30
Bhubaneswar,Odisha,20.2961,85.8245,26.3,92,0.0,998.3,8.65,41.8,67,27.3,21.2,8.7,279.0,60.0,7.0,7,5,7,1,2026-07-23T04:36:42.307424+05:30
Cuttack,Odisha,20.4625,85.8828,26.3,93,0.0,1000.0,8.45,42.1,67,27.3,21.2,8.7,252.0,60.0,7.0,7,5,4,1,2026-07-23T04:36:42.307431+05:30
Rourkela,Odisha,22.2604,84.8536,24.1,97,0.3,979.9,4.25,47.9,38,7.3,6.0,6.0,192.0,41.0,2.7,6,5,3,1,2026-07-23T04:36:42.307438+05:30
Raipur,Chhattisgarh,21.2514,81.6296,24.3,88,0.0,969.1,2.55,56.9,55,13.7,10.6,17.2,187.0,29.0,27.5,3,5,3,1,2026-07-23T04:36:42.307446+05:30
Bhilai,Chhattisgarh,21.1938,81.3509,24.2,89,0.0,969.4,4.25,58.7,53,14.4,10.7,16.4,301.0,29.0,26.3,3,5,3,1,2026-07-23T04:36:42.307456+05:30
Guwahati,Assam,26.1158,91.7086,25.0,98,0.1,998.3,7.1,22.3,39,11.5,11.0,10.3,205.0,24.0,1.7,10,5,7,1,2026-07-23T04:36:42.307463+05:30
Agartala,Tripura,23.8315,91.2868,24.2,98,0.0,1003.7,7.8,35.3,41,6.5,6.0,9.6,137.0,41.0,2.0,3,5,4,1,2026-07-23T04:36:42.307470+05:30
Shillong,Meghalaya,25.5788,91.8933,19.5,98,0.1,855.2,4.75,25.2,22,1.5,1.4,4.4,189.0,44.0,1.9,6,10,3,1,2026-07-23T04:36:42.307477+05:30
Imphal,Manipur,24.817,93.9368,21.1,97,0.1,921.2,7.25,23.8,39,7.5,7.1,7.2,344.0,28.0,2.0,6,5,7,1,2026-07-23T04:36:42.307484+05:30
Aizawl,Mizoram,23.7271,92.7176,18.7,97,0.0,890.1,8.45,36.0,23,2.3,2.1,3.1,125.0,37.0,0.6,3,10,7,1,2026-07-23T04:36:42.307491+05:30
Kohima,Nagaland,25.6701,94.1077,19.4,95,0.1,853.5,5.9,20.9,22,2.3,2.2,5.3,222.0,29.0,0.5,6,10,3,1,2026-07-23T04:36:42.307498+05:30
Gangtok,Sikkim,27.3314,88.6138,16.8,100,0.0,835.0,7.3,31.3,32,14.3,13.9,11.6,302.0,48.0,1.2,3,10,7,1,2026-07-23T04:36:42.307505+05:30
Siliguri,West Bengal,26.7271,88.3953,24.1,96,0.0,989.6,8.45,30.6,60,21.1,20.2,11.7,206.0,58.0,3.9,3,5,7,1,2026-07-23T04:36:45.695066+05:30
Durgapur,West Bengal,23.5204,87.3119,25.2,98,0.0,990.3,7.55,31.3,68,16.1,15.5,25.3,560.0,30.0,34.1,7,5,7,1,2026-07-23T04:36:45.695098+05:30
Asansol,West Bengal,23.6739,86.9524,25.2,97,0.0,988.6,6.55,29.9,64,14.0,13.4,29.3,320.0,22.0,38.8,7,5,7,1,2026-07-23T04:36:45.695109+05:30
Pondicherry,Puducherry,11.9139,79.8145,27.9,77,0.0,1007.4,8.1,40.3,70,23.2,15.7,12.8,210.0,52.0,12.6,7,5,4,1,2026-07-23T04:36:45.695118+05:30
Port Blair,Andaman and Nicobar Islands,11.6234,92.7265,27.2,82,0.0,1006.9,8.7,38.5,47,11.5,6.8,0.2,94.0,48.0,0.4,7,5,4,1,2026-07-23T04:36:45.695127+05:30
Haridwar,Uttarakhand,29.9457,78.1642,26.3,84,0.0,968.4,7.3,30.6,68,20.6,19.7,20.3,346.0,34.0,4.8,7,5,7,1,2026-07-23T04:36:45.695135+05:30
Rishikesh,Uttarakhand,30.0869,78.2676,23.9,94,0.0,961.0,7.3,24.5,51,10.1,9.8,9.0,352.0,61.0,3.4,3,5,7,1,2026-07-23T04:36:45.695143+05:30
Nainital,Uttarakhand,29.3919,79.4542,15.2,93,0.0,801.3,6.75,42.8,47,6.8,6.7,9.2,244.0,64.0,2.2,3,10,7,0,2026-07-23T04:36:45.695151+05:30
Mussoorie,Uttarakhand,30.4599,78.0664,15.7,98,0.0,799.2,7.0,27.4,55,11.6,11.4,26.3,208.0,34.0,3.4,3,10,7,0,2026-07-23T04:36:45.695159+05:30
Dharamshala,Himachal Pradesh,32.219,76.3234,20.3,88,0.3,865.0,7.6,25.9,46,11.6,11.4,14.1,254.0,57.0,0.8,6,5,7,1,2026-07-23T04:36:45.695166+05:30
Dalhousie,Himachal Pradesh,32.5387,75.971,16.6,98,0.3,801.5,1.4,20.5,63,13.5,13.0,12.6,236.0,66.0,1.4,6,10,3,1,2026-07-23T04:36:45.695174+05:30
Patiala,Punjab,30.3398,76.3869,27.2,85,0.0,971.8,7.5,41.0,79,23.2,22.4,22.7,444.0,44.0,9.2,7,5,7,1,2026-07-23T04:36:45.695181+05:30
Bhatinda,Punjab,30.211,74.9455,26.5,95,0.1,976.1,6.9,28.1,102,17.5,16.8,12.3,416.0,79.0,3.8,10,5,7,1,2026-07-23T04:36:45.695188+05:30
Rohtak,Haryana,28.8955,76.6066,26.9,88,0.0,974.7,6.55,37.8,95,131.3,33.4,21.0,410.0,60.0,21.7,7,5,7,1,2026-07-23T04:36:45.695195+05:30
Panipat,Haryana,29.3909,76.9635,27.3,84,0.0,973.8,7.3,39.2,87,23.3,18.3,19.4,337.0,58.0,15.2,7,5,7,1,2026-07-23T04:36:45.695202+05:30
Mathura,Uttar Pradesh,27.4924,77.6737,25.9,91,0.1,979.3,7.05,37.1,85,99.9,35.9,10.4,308.0,75.0,5.3,10,5,7,1,2026-07-23T04:36:45.695209+05:30
Vrindavan,Uttar Pradesh,27.5823,77.7027,26.4,88,0.1,979.7,7.1,36.4,85,99.9,35.9,10.4,304.0,75.0,5.3,10,5,7,1,2026-07-23T04:36:45.695216+05:30
Ayodhya,Uttar Pradesh,26.7922,82.1998,26.2,91,0.0,988.9,6.85,45.4,72,20.1,20.0,11.1,325.0,57.0,6.8,7,5,7,1,2026-07-23T04:36:45.695223+05:30
Ratlam,Madhya Pradesh,23.3315,75.0367,23.2,98,0.0,945.3,2.65,46.4,44,5.0,4.5,7.3,177.0,53.0,5.2,3,5,3,1,2026-07-23T04:36:45.695230+05:30
Sagar,Madhya Pradesh,23.8388,78.7378,23.3,98,0.0,941.1,2.15,35.6,41,5.8,5.5,7.4,174.0,55.0,2.1,3,5,3,1,2026-07-23T04:36:45.695237+05:30
Satna,Madhya Pradesh,24.6005,80.8322,24.8,96,0.0,963.0,3.95,36.7,63,16.8,16.7,15.2,203.0,37.0,7.6,3,5,3,1,2026-07-23T04:36:45.695244+05:30
Akola,Maharashtra,20.7002,77.0082,24.0,90,0.3,968.1,1.9,61.6,22,4.0,3.3,5.1,120.0,34.0,2.9,6,5,3,1,2026-07-23T04:36:45.695252+05:30
Amravati,Maharashtra,20.9374,77.7796,23.9,86,0.1,960.5,3.55,60.1,23,6.0,4.5,5.4,128.0,35.0,3.0,6,5,3,1,2026-07-23T04:36:45.695260+05:30
Latur,Maharashtra,18.4088,76.5604,22.7,81,0.0,935.3,6.25,60.5,33,24.2,10.9,3.3,111.0,49.0,1.4,3,5,7,1,2026-07-23T04:36:45.695267+05:30
Nanded,Maharashtra,19.1383,77.3091,23.6,78,0.0,963.8,1.85,52.2,40,18.9,9.5,5.1,122.0,44.0,2.8,3,5,3,1,2026-07-23T04:36:45.695274+05:30
Gulbarga,Karnataka,17.3297,76.8343,23.6,82,0.0,955.7,4.25,71.3,31,8.8,5.5,5.0,118.0,38.0,2.5,3,5,3,1,2026-07-23T04:36:45.695281+05:30
Bidar,Karnataka,17.9104,77.5199,21.9,88,0.0,931.6,6.4,67.0,33,10.2,5.9,5.6,117.0,39.0,2.4,3,5,7,1,2026-07-23T04:36:45.695288+05:30
Hospet,Karnataka,15.2689,76.3909,22.9,87,0.0,953.9,6.2,56.2,21,3.6,2.0,3.2,103.0,33.0,1.4,3,5,7,1,2026-07-23T04:36:45.695295+05:30
Tirupur,Tamil Nadu,11.1085,77.3411,24.0,88,0.0,974.7,8.9,52.9,57,23.1,19.3,21.5,138.0,12.0,6.0,3,5,7,1,2026-07-23T04:36:45.695302+05:30
Alappuzha,Kerala,9.4981,76.3388,25.7,94,0.0,1009.1,8.3,29.5,57,14.1,10.3,11.3,155.0,24.0,5.3,7,0,4,1,2026-07-23T04:36:45.695309+05:30
Munnar,Kerala,10.0889,77.0595,15.5,96,0.0,855.6,7.55,36.7,35,5.9,4.5,7.5,90.0,14.0,1.0,3,10,7,0,2026-07-23T04:36:45.695331+05:30
Silchar,Assam,24.8333,92.7789,25.1,98,0.0,1002.9,7.0,32.0,53,14.8,13.7,9.3,245.0,38.0,4.3,7,5,4,1,2026-07-23T04:36:45.695339+05:30
Dibrugarh,Assam,27.4728,94.912,24.3,98,0.0,993.6,8.25,24.5,52,6.8,6.5,7.0,193.0,51.0,0.8,3,5,7,1,2026-07-23T04:36:45.695346+05:30
