city,state,latitude,longitude,temp,humidity,rain,pressure,uv_index,aqi,mosquito_risk,arthritis_risk,migraine_risk,frizz_risk,updated_at
Delhi,Delhi,28.6139,77.209,28.4,35,0.0,984.9,5.4,167,4,5,3,0,2026-02-23T14:30:31.945924+05:30
Mumbai,Maharashtra,19.076,72.8777,27.0,78,0.0,1006.9,7.25,158,7,5,4,1,2026-02-23T14:30:31.945966+05:30
Bangalore,Karnataka,12.9716,77.5946,31.0,27,0.0,910.2,8.9,57,0,5,7,0,2026-02-23T14:30:31.945980+05:30
Hyderabad,Telangana,17.385,78.4867,30.4,38,0.0,952.7,8.05,95,0,5,7,0,2026-02-23T14:30:31.945990+05:30
Chennai,Tamil Nadu,13.0827,80.2707,31.7,51,0.0,1005.7,8.2,39,0,5,4,1,2026-02-23T14:30:31.945999+05:30
Kolkata,West Bengal,22.5726,88.3639,30.1,51,0.0,1006.2,7.3,161,0,5,4,1,2026-02-23T14:30:31.946007+05:30
Pune,Maharashtra,18.5204,73.8567,32.9,23,0.0,947.4,7.75,136,0,5,7,0,2026-02-23T14:30:31.946018+05:30
Ahmedabad,Gujarat,23.0225,72.5714,33.0,24,0.0,1002.1,6.3,87,0,5,4,0,2026-02-23T14:30:31.946040+05:30
Jaipur,Rajasthan,26.9124,75.7873,28.6,32,0.0,961.0,6.2,121,4,5,7,0,2026-02-23T14:30:31.946049+05:30
Lucknow,Uttar Pradesh,26.8467,80.9462,28.1,37,0.0,995.6,5.85,158,4,5,3,0,2026-02-23T14:30:31.946056+05:30
Kanpur,Uttar Pradesh,26.4499,80.3319,27.9,42,0.0,993.8,5.85,155,4,5,3,0,2026-02-23T14:30:31.946062+05:30
Chandigarh,Chandigarh,30.7333,76.7794,26.1,45,0.0,971.0,5.25,153,4,5,3,0,2026-02-23T14:30:31.946070+05:30
Srinagar,Jammu and Kashmir,34.0837,74.7973,17.2,20,0.0,842.2,6.1,159,0,5,7,1,2026-02-23T14:30:31.946078+05:30
Jammu,Jammu and Kashmir,32.7266,74.857,26.0,51,0.0,974.7,5.8,155,4,5,3,0,2026-02-23T14:30:31.946084+05:30
Amritsar,Punjab,31.634,74.8723,25.9,49,0.0,983.4,5.75,178,4,5,3,0,2026-02-23T14:30:31.946093+05:30
Ludhiana,Punjab,30.901,75.8573,26.4,46,0.0,981.2,5.45,191,4,5,3,0,2026-02-23T14:30:31.946100+05:30
Jalandhar,Punjab,31.326,75.5762,26.0,48,0.0,982.3,5.6,188,4,5,3,0,2026-02-23T14:30:31.946108+05:30
Dehradun,Uttarakhand,30.6284,78.0322,15.6,67,0.0,830.2,5.55,91,3,5,3,0,2026-02-23T14:30:31.946115+05:30
Shimla,Himachal Pradesh,31.1048,77.1734,14.3,56,0.0,784.6,5.65,113,0,5,3,0,2026-02-23T14:30:31.946122+05:30
Manali,Himachal Pradesh,32.2396,77.1887,19.2,20,0.0,818.9,7.2,79,0,5,7,1,2026-02-23T14:30:31.946129+05:30
Gurgaon,Haryana,28.4595,77.0266,28.1,39,0.0,983.3,5.5,167,4,5,3,0,2026-02-23T14:30:31.946135+05:30
Noida,Uttar Pradesh,28.5355,77.391,28.4,36,0.0,986.4,5.4,167,4,5,3,0,2026-02-23T14:30:31.946141+05:30
Ghaziabad,Uttar Pradesh,28.6692,77.4538,27.1,44,0.0,984.9,5.35,163,4,5,3,0,2026-02-23T14:30:31.946147+05:30
Faridabad,Haryana,28.4089,77.3178,27.2,47,0.0,985.9,5.4,167,4,5,3,0,2026-02-23T14:30:31.946153+05:30
Meerut,Uttar Pradesh,28.9845,77.7064,27.3,42,0.0,983.6,5.25,163,4,5,3,0,2026-02-23T14:30:31.946159+05:30
Agra,Uttar Pradesh,27.1767,78.0081,28.5,45,0.0,989.7,5.7,165,4,5,3,0,2026-02-23T14:30:31.946165+05:30
Varanasi,Uttar Pradesh,25.3176,82.9739,28.5,40,0.0,999.5,6.5,156,4,5,7,0,2026-02-23T14:30:31.946175+05:30
Prayagraj,Uttar Pradesh,25.4358,81.8463,28.2,43,0.0,997.7,6.4,153,4,5,7,0,2026-02-23T14:30:31.946182+05:30
Gorakhpur,Uttar Pradesh,26.7606,83.3732,27.3,40,0.0,999.1,6.2,153,4,5,7,0,2026-02-23T14:30:31.946188+05:30
Bareilly,Uttar Pradesh,28.367,79.4304,26.9,45,0.0,989.1,5.5,161,4,5,3,0,2026-02-23T14:30:31.946194+05:30
Aligarh,Uttar Pradesh,27.8974,78.088,27.7,43,0.0,987.7,5.45,169,4,5,3,0,2026-02-23T14:30:31.946200+05:30
Moradabad,Uttar Pradesh,28.8386,78.7733,26.7,49,0.0,985.8,5.35,167,4,5,3,0,2026-02-23T14:30:31.946206+05:30
Saharanpur,Uttar Pradesh,29.9637,77.546,26.3,48,0.0,977.9,5.0,163,4,5,3,0,2026-02-23T14:30:31.946211+05:30
Jhansi,Uttar Pradesh,25.4484,78.5685,27.8,43,0.0,979.7,6.35,115,4,5,7,0,2026-02-23T14:30:35.274300+05:30
Surat,Gujarat,21.1702,72.8311,30.9,52,0.0,1006.3,6.95,160,0,5,4,1,2026-02-23T14:30:35.274331+05:30
Vadodara,Gujarat,22.3072,73.1812,34.1,30,0.0,1003.9,6.6,106,0,5,4,0,2026-02-23T14:30:35.274340+05:30
Rajkot,Gujarat,22.3039,70.8022,33.6,24,0.0,993.4,6.9,72,0,5,7,0,2026-02-23T14:30:35.274348+05:30
Thane,Maharashtra,19.2183,72.9781,32.3,49,0.0,1006.5,7.25,158,0,5,4,1,2026-02-23T14:30:35.274355+05:30
Nagpur,Maharashtra,21.1458,79.0882,31.3,34,0.0,973.2,7.35,168,0,5,7,0,2026-02-23T14:30:35.274363+05:30
Nashik,Maharashtra,19.9975,73.7898,31.6,22,0.0,944.9,6.75,84,0,5,7,0,2026-02-23T14:30:35.274370+05:30
Aurangabad,Maharashtra,19.8762,75.3433,31.3,25,0.0,943.6,7.7,74,0,5,7,0,2026-02-23T14:30:35.274377+05:30
Solapur,Maharashtra,17.6599,75.9064,31.5,40,0.0,955.9,7.85,104,0,5,7,1,2026-02-23T14:30:35.274384+05:30
Kolhapur,Maharashtra,16.705,74.2433,31.4,37,0.0,946.5,7.9,155,0,5,7,0,2026-02-23T14:30:35.274391+05:30
Goa,Goa,15.2993,74.124,30.6,66,0.0,996.1,8.25,156,3,5,7,1,2026-02-23T14:30:35.274398+05:30
Jodhpur,Rajasthan,26.2389,73.0243,32.0,15,0.0,983.5,6.5,72,0,5,7,0,2026-02-23T14:30:35.274405+05:30
Udaipur,Rajasthan,24.5854,73.7125,27.9,25,0.0,947.3,7.15,52,4,5,7,0,2026-02-23T14:30:35.274412+05:30
Kota,Rajasthan,25.2138,75.8648,30.4,29,0.0,979.6,6.55,153,0,5,7,0,2026-02-23T14:30:35.274419+05:30
Bikaner,Rajasthan,28.0229,73.3119,30.1,31,0.0,982.3,6.1,65,0,5,7,0,2026-02-23T14:30:35.274426+05:30
Ajmer,Rajasthan,26.4499,74.6399,28.9,24,0.0,955.2,6.5,149,4,5,7,0,2026-02-23T14:30:35.274433+05:30
Gwalior,Madhya Pradesh,26.2183,78.1828,27.9,38,0.0,984.9,6.05,105,4,5,7,0,2026-02-23T14:30:35.274440+05:30
Indore,Madhya Pradesh,22.7196,75.8577,27.8,32,0.0,948.7,7.1,89,4,5,7,0,2026-02-23T14:30:35.274447+05:30
Bhopal,Madhya Pradesh,23.2599,77.4126,27.6,40,0.0,954.7,6.9,121,4,5,7,0,2026-02-23T14:30:35.274453+05:30
Jabalpur,Madhya Pradesh,23.1815,79.9864,30.0,33,0.0,961.6,6.95,151,4,5,7,0,2026-02-23T14:30:35.274460+05:30
Ujjain,Madhya Pradesh,23.1765,75.7885,28.2,33,0.0,954.6,7.0,97,4,5,7,0,2026-02-23T14:30:35.274467+05:30
Visakhapatnam,Andhra Pradesh,17.6868,83.2185,32.2,46,0.0,1002.7,8.05,105,0,5,4,1,2026-02-23T14:30:35.274474+05:30
Vijayawada,Andhra Pradesh,16.5062,80.648,33.7,40,0.0,1001.1,8.15,80,0,5,4,1,2026-02-23T14:30:35.274481+05:30
Guntur,Andhra Pradesh,16.3067,80.4365,33.7,41,0.0,1002.2,8.15,78,0,5,4,1,2026-02-23T14:30:35.274488+05:30
Nellore,Andhra Pradesh,14.4426,79.9865,33.3,46,0.0,1004.3,8.4,53,0,5,4,1,2026-02-23T14:30:35.274495+05:30
Kurnool,Andhra Pradesh,15.8281,78.0373,34.2,33,0.0,975.3,8.2,62,0,5,7,0,2026-02-23T14:30:35.274502+05:30
Kakinada,Andhra Pradesh,16.9891,82.2475,32.5,46,0.0,1006.3,8.1,58,0,5,4,1,2026-02-23T14:30:35.274509+05:30
Tirupati,Andhra Pradesh,13.6288,79.4192,32.1,47,0.0,989.8,8.55,62,0,5,7,1,2026-02-23T14:30:35.274516+05:30
Warangal,Telangana,17.9689,79.5941,31.3,53,0.0,978.3,7.9,104,0,5,7,1,2026-02-23T14:30:35.274523+05:30
Nizamabad,Telangana,18.6725,78.0941,31.2,45,0.0,964.3,7.25,137,0,5,7,1,2026-02-23T14:30:35.274529+05:30
Mysore,Karnataka,12.2958,76.6396,32.1,31,0.0,926.6,8.95,63,0,5,7,0,2026-02-23T14:30:35.274537+05:30
Mangalore,Karnataka,12.9141,74.856,28.1,82,0.0,1004.9,8.55,141,7,5,4,1,2026-02-23T14:30:35.274544+05:30
Hubli-Dharwad,Karnataka,15.3647,75.124,32.0,40,0.0,939.1,8.2,80,0,5,7,1,2026-02-23T14:30:35.274551+05:30
Belgaum,Karnataka,15.8497,74.4977,29.8,47,0.0,924.4,8.25,120,4,5,7,1,2026-02-23T14:30:38.556395+05:30
Coimbatore,Tamil Nadu,11.0168,76.9558,32.4,39,0.0,959.6,8.95,71,0,5,7,1,2026-02-23T14:30:38.556427+05:30
Madurai,Tamil Nadu,9.9252,78.1198,34.5,42,0.0,990.0,8.95,77,0,5,7,1,2026-02-23T14:30:38.556436+05:30
Trichy,Tamil Nadu,10.7905,78.7047,33.7,45,0.0,997.1,8.7,56,0,5,7,1,2026-02-23T14:30:38.556443+05:30
Salem,Tamil Nadu,11.6643,78.146,34.5,35,0.0,974.7,8.65,66,0,5,7,1,2026-02-23T14:30:38.556451+05:30
Tirunelveli,Tamil Nadu,8.7139,77.7567,34.5,40,0.0,1000.2,8.95,60,0,5,4,1,2026-02-23T14:30:38.556458+05:30
Vellore,Tamil Nadu,12.9165,79.1325,32.7,40,0.0,982.7,8.65,62,0,5,7,1,2026-02-23T14:30:38.556465+05:30
Erode,Tamil Nadu,11.341,77.7172,34.9,37,0.0,986.2,8.85,60,0,5,7,1,2026-02-23T14:30:38.556472+05:30
Kochi,Kerala,9.9312,76.2673,28.1,79,0.0,1006.1,8.3,70,7,5,4,1,2026-02-23T14:30:38.556480+05:30
Thiruvananthapuram,Kerala,8.5241,76.9366,28.1,79,0.0,1005.3,7.65,75,7,5,4,1,2026-02-23T14:30:38.556486+05:30
Kozhikode,Kerala,11.2588,75.7804,29.2,74,0.0,1005.7,8.65,67,7,5,4,1,2026-02-23T14:30:38.556493+05:30
Thrissur,Kerala,10.5276,76.2144,31.5,61,0.0,1004.6,8.75,73,3,5,4,1,2026-02-23T14:30:38.556501+05:30
Kannur,Kerala,11.8745,75.3704,29.6,72,0.0,1005.3,8.6,89,7,5,4,1,2026-02-23T14:30:38.556508+05:30
Patna,Bihar,25.5941,85.1376,28.4,34,0.0,1002.3,6.7,161,4,5,4,0,2026-02-23T14:30:38.556516+05:30
Gaya,Bihar,24.7914,85.0002,27.8,49,0.0,995.6,6.8,152,4,5,7,1,2026-02-23T14:30:38.556523+05:30
Muzaffarpur,Bihar,26.1209,85.3647,28.2,34,0.0,1002.1,6.65,163,4,5,4,0,2026-02-23T14:30:38.556530+05:30
Bhagalpur,Bihar,25.2425,87.0117,27.5,44,0.0,1003.0,6.75,153,4,5,4,0,2026-02-23T14:30:38.556536+05:30
Ranchi,Jharkhand,23.3441,85.3096,28.3,32,0.0,938.3,7.4,140,4,5,7,0,2026-02-23T14:30:38.556543+05:30
Jamshedpur,Jharkhand,22.8046,86.2029,31.8,34,0.0,991.2,7.35,157,0,5,7,0,2026-02-23T14:30:38.556550+05:30
Dhanbad,Jharkhand,23.7957,86.4304,31.7,25,0.0,980.3,7.2,152,0,5,7,0,2026-02-23T14:30:38.556557+05:30
Bokaro,Jharkhand,23.6693,86.1511,31.6,27,0.0,984.3,7.2,152,0,5,7,0,2026-02-23T14:30:38.556563+05:30
Bhubaneswar,Odisha,20.2961,85.8245,32.9,44,0.0,1001.9,7.75,93,0,5,4,1,2026-02-23T14:30:38.556570+05:30
Cuttack,Odisha,20.4625,85.8828,34.4,32,0.0,1003.6,7.8,93,0,5,4,0,2026-02-23T14:30:38.556576+05:30
Rourkela,Odisha,22.2604,84.8536,33.2,25,0.0,984.9,7.25,129,0,5,7,0,2026-02-23T14:30:38.556583+05:30
Raipur,Chhattisgarh,21.2514,81.6296,29.9,38,0.0,974.9,7.4,165,4,5,7,0,2026-02-23T14:30:38.556591+05:30
Bhilai,Chhattisgarh,21.1938,81.3509,29.8,40,0.0,975.4,4.6,169,4,5,3,0,2026-02-23T14:30:38.556598+05:30
Guwahati,Assam,26.1158,91.7086,28.1,49,0.0,1001.9,6.7,129,4,5,4,1,2026-02-23T14:30:38.556605+05:30
Agartala,Tripura,23.8315,91.2868,30.2,42,0.0,1006.5,7.05,170,0,5,4,0,2026-02-23T14:30:38.556612+05:30
Shillong,Meghalaya,25.5788,91.8933,17.6,39,0.0,855.9,7.05,128,0,5,7,0,2026-02-23T14:30:38.556620+05:30
Imphal,Manipur,24.817,93.9368,22.1,36,0.0,922.9,7.25,154,0,5,7,0,2026-02-23T14:30:38.556627+05:30
Aizawl,Mizoram,23.7271,92.7176,24.3,31,0.0,893.6,7.2,152,0,5,7,0,2026-02-23T14:30:38.556633+05:30
Kohima,Nagaland,25.6701,94.1077,16.8,52,0.0,854.8,7.1,138,0,5,7,0,2026-02-23T14:30:38.556640+05:30
Gangtok,Sikkim,27.3314,88.6138,17.2,53,0.0,837.1,6.65,106,0,5,7,0,2026-02-23T14:30:38.556647+05:30
Siliguri,West Bengal,26.7271,88.3953,24.0,48,0.0,994.6,6.65,152,0,5,7,0,2026-02-23T14:30:41.824691+05:30
Durgapur,West Bengal,23.5204,87.3119,32.2,30,0.0,995.3,7.2,150,0,5,7,0,2026-02-23T14:30:41.824727+05:30
Asansol,West Bengal,23.6739,86.9524,32.0,29,0.0,994.1,7.2,134,0,5,7,0,2026-02-23T14:30:41.824738+05:30
Pondicherry,Puducherry,11.9139,79.8145,33.4,50,0.0,1006.0,8.0,43,0,5,4,1,2026-02-23T14:30:41.824747+05:30
Port Blair,Andaman and Nicobar Islands,11.6234,92.7265,29.0,67,0.0,1004.0,7.05,63,7,5,4,1,2026-02-23T14:30:41.824755+05:30
Haridwar,Uttarakhand,29.9457,78.1642,26.7,45,0.0,976.4,5.1,144,4,5,3,0,2026-02-23T14:30:41.824764+05:30
Rishikesh,Uttarakhand,30.0869,78.2676,26.1,44,0.0,968.9,5.15,122,4,5,3,0,2026-02-23T14:30:41.824772+05:30
Nainital,Uttarakhand,29.3919,79.4542,16.6,69,0.0,806.0,5.95,118,3,5,3,0,2026-02-23T14:30:41.824780+05:30
Mussoorie,Uttarakhand,30.4599,78.0664,16.5,59,0.0,803.1,5.45,129,0,5,3,0,2026-02-23T14:30:41.824788+05:30
Dharamshala,Himachal Pradesh,32.219,76.3234,20.3,56,0.0,869.8,5.7,91,0,5,3,0,2026-02-23T14:30:41.824795+05:30
Dalhousie,Himachal Pradesh,32.5387,75.971,18.7,50,0.0,804.8,5.9,147,0,5,3,0,2026-02-23T14:30:41.824804+05:30
Patiala,Punjab,30.3398,76.3869,26.5,46,0.0,980.6,5.15,185,4,5,3,0,2026-02-23T14:30:41.824811+05:30
Bhatinda,Punjab,30.211,74.9455,28.2,41,0.0,985.9,5.85,157,4,5,3,0,2026-02-23T14:30:41.824824+05:30
Rohtak,Haryana,28.8955,76.6066,28.0,41,0.0,983.7,5.4,170,4,5,3,0,2026-02-23T14:30:41.824832+05:30
Panipat,Haryana,29.3909,76.9635,26.7,49,0.0,982.7,5.2,170,4,5,3,0,2026-02-23T14:30:41.824841+05:30
Mathura,Uttar Pradesh,27.4924,77.6737,28.4,44,0.0,988.8,5.65,164,4,5,3,0,2026-02-23T14:30:41.824849+05:30
Vrindavan,Uttar Pradesh,27.5823,77.7027,28.1,46,0.0,989.3,5.6,164,4,5,3,0,2026-02-23T14:30:41.824856+05:30
Ayodhya,Uttar Pradesh,26.7922,82.1998,27.7,38,0.0,997.4,6.0,155,4,5,3,0,2026-02-23T14:30:41.824864+05:30
Ratlam,Madhya Pradesh,23.3315,75.0367,29.0,30,0.0,955.2,6.95,75,4,5,7,0,2026-02-23T14:30:41.824872+05:30
Sagar,Madhya Pradesh,23.8388,78.7378,28.1,39,0.0,950.8,6.85,124,4,5,7,0,2026-02-23T14:30:41.824881+05:30
Satna,Madhya Pradesh,24.6005,80.8322,28.2,41,0.0,972.4,6.75,120,4,5,7,0,2026-02-23T14:30:41.824889+05:30
Akola,Maharashtra,20.7002,77.0082,33.6,22,0.0,974.7,7.4,129,0,5,7,0,2026-02-23T14:30:41.824897+05:30
Amravati,Maharashtra,20.9374,77.7796,33.4,24,0.0,967.0,7.35,156,0,5,7,0,2026-02-23T14:30:41.824906+05:30
Latur,Maharashtra,18.4088,76.5604,30.6,35,0.0,939.1,7.8,130,0,5,7,0,2026-02-23T14:30:41.824914+05:30
Nanded,Maharashtra,19.1383,77.3091,33.1,37,0.0,967.6,7.6,155,0,5,7,1,2026-02-23T14:30:41.824925+05:30
Gulbarga,Karnataka,17.3297,76.8343,32.7,36,0.0,957.6,7.95,99,0,5,7,0,2026-02-23T14:30:41.824934+05:30
Bidar,Karnataka,17.9104,77.5199,30.6,41,0.0,934.8,7.35,116,0,5,7,0,2026-02-23T14:30:41.824942+05:30
Hospet,Karnataka,15.2689,76.3909,32.7,39,0.0,954.0,7.9,59,0,5,7,1,2026-02-23T14:30:41.824949+05:30
Tirupur,Tamil Nadu,11.1085,77.3411,33.8,35,0.0,972.9,8.95,68,0,5,7,1,2026-02-23T14:30:41.824957+05:30
Alappuzha,Kerala,9.4981,76.3388,28.1,80,0.0,1006.2,8.6,79,7,5,4,1,2026-02-23T14:30:41.824965+05:30
Munnar,Kerala,10.0889,77.0595,25.9,61,0.0,856.3,7.9,70,7,5,7,1,2026-02-23T14:30:41.824973+05:30
Silchar,Assam,24.8333,92.7789,30.1,38,0.0,1004.9,7.0,154,0,5,4,0,2026-02-23T14:30:41.824980+05:30
Dibrugarh,Assam,27.4728,94.912,25.2,58,0.0,996.7,6.7,151,4,5,7,1,2026-02-23T14:30:41.824988+05:30
