city,state,latitude,longitude,temp,humidity,rain,pressure,uv_index,wind_gusts,aqi,pm10,pm2_5,no2,co,o3,so2,mosquito_risk,arthritis_risk,migraine_risk,frizz_risk,updated_at
Delhi,Delhi,28.6139,77.209,30.8,70,0.0,974.5,6.3,36.0,143,55.6,34.7,29.7,570.0,121.0,21.6,3,5,7,1,2026-07-22T17:56:03.406829+05:30
Mumbai,Maharashtra,19.076,72.8777,26.4,89,0.4,1003.3,0.75,65.2,57,27.8,12.6,7.8,213.0,42.0,3.6,10,5,0,1,2026-07-22T17:56:03.406863+05:30
Bangalore,Karnataka,12.9716,77.5946,21.9,93,0.2,911.2,7.45,47.9,37,8.5,6.8,20.3,465.0,35.0,3.8,6,5,7,1,2026-07-22T17:56:03.406878+05:30
Hyderabad,Telangana,17.385,78.4867,24.1,88,0.1,950.1,4.55,47.9,40,13.0,9.1,9.6,329.0,57.0,5.0,6,5,3,1,2026-07-22T17:56:03.406888+05:30
Chennai,Tamil Nadu,13.0827,80.2707,30.5,76,0.3,1004.5,8.4,35.6,77,30.3,21.4,9.9,260.0,104.0,7.0,6,5,4,1,2026-07-22T17:56:03.406896+05:30
Kolkata,West Bengal,22.5726,88.3639,26.3,95,0.2,1000.6,4.75,34.6,56,13.9,12.7,10.1,642.0,65.0,7.5,10,5,0,1,2026-07-22T17:56:03.406904+05:30
Pune,Maharashtra,18.5204,73.8567,23.7,85,0.1,942.8,1.5,63.0,20,17.5,7.6,7.2,173.0,41.0,3.3,6,5,3,1,2026-07-22T17:56:03.406911+05:30
Ahmedabad,Gujarat,23.0225,72.5714,29.8,75,0.0,992.7,6.15,34.9,61,32.7,15.5,8.5,299.0,61.0,4.7,7,5,7,1,2026-07-22T17:56:03.406918+05:30
Jaipur,Rajasthan,26.9124,75.7873,30.5,69,0.0,950.4,6.65,37.4,79,6.9,6.4,6.8,277.0,113.0,4.9,3,5,7,1,2026-07-22T17:56:03.406924+05:30
Lucknow,Uttar Pradesh,26.8467,80.9462,31.0,69,0.0,985.2,6.45,45.0,85,15.8,15.8,5.9,255.0,111.0,5.3,3,5,7,1,2026-07-22T17:56:03.406935+05:30
Kanpur,Uttar Pradesh,26.4499,80.3319,30.3,73,0.0,983.0,6.2,42.5,87,14.3,14.2,4.8,255.0,130.0,6.5,3,5,7,1,2026-07-22T17:56:03.406942+05:30
Chandigarh,Chandigarh,30.7333,76.7794,29.9,71,0.0,962.4,7.4,44.6,87,19.2,18.6,9.2,371.0,112.0,6.4,7,5,7,1,2026-07-22T17:56:03.406949+05:30
Srinagar,Jammu and Kashmir,34.0837,74.7973,17.5,98,0.1,838.8,2.55,13.3,62,12.6,12.6,14.2,702.0,73.0,3.3,6,10,3,1,2026-07-22T17:56:03.406955+05:30
Jammu,Jammu and Kashmir,32.7266,74.857,26.7,84,0.1,967.0,4.75,40.7,60,14.4,14.0,8.2,322.0,94.0,2.5,10,5,3,1,2026-07-22T17:56:03.406962+05:30
Amritsar,Punjab,31.634,74.8723,26.8,94,0.3,974.3,1.95,42.5,80,26.7,26.2,9.1,494.0,95.0,6.7,10,5,3,1,2026-07-22T17:56:03.406968+05:30
Ludhiana,Punjab,30.901,75.8573,26.6,92,0.0,972.1,5.95,40.0,106,29.0,28.3,11.5,452.0,108.0,14.6,7,5,3,1,2026-07-22T17:56:03.406974+05:30
Jalandhar,Punjab,31.326,75.5762,27.1,90,0.1,973.4,5.5,42.5,105,28.4,27.7,11.6,536.0,99.0,12.0,10,5,3,1,2026-07-22T17:56:03.406980+05:30
Dehradun,Uttarakhand,30.6284,78.0322,20.2,96,0.0,827.7,6.55,26.6,43,5.9,5.7,2.9,187.0,87.0,1.1,3,5,7,1,2026-07-22T17:56:03.406986+05:30
Shimla,Himachal Pradesh,31.1048,77.1734,17.5,90,0.0,782.2,5.2,27.0,50,7.5,7.4,8.5,217.0,88.0,1.7,3,10,3,0,2026-07-22T17:56:03.406993+05:30
Manali,Himachal Pradesh,32.2396,77.1887,21.5,93,0.1,817.3,3.75,20.5,49,2.8,2.7,4.9,224.0,97.0,1.0,6,5,3,1,2026-07-22T17:56:03.407001+05:30
Gurgaon,Haryana,28.4595,77.0266,30.6,74,0.2,972.8,6.1,43.2,114,153.2,47.5,28.1,569.0,119.0,17.4,6,5,7,1,2026-07-22T17:56:03.407009+05:30
Noida,Uttar Pradesh,28.5355,77.391,30.0,81,0.0,976.2,6.7,38.5,114,153.2,47.5,28.1,392.0,119.0,17.4,7,5,7,1,2026-07-22T17:56:03.407015+05:30
Ghaziabad,Uttar Pradesh,28.6692,77.4538,30.5,76,0.0,974.5,6.8,40.7,111,21.1,21.0,8.2,263.0,113.0,7.8,3,5,7,1,2026-07-22T17:56:03.407021+05:30
Faridabad,Haryana,28.4089,77.3178,30.0,78,0.0,975.3,6.9,39.6,114,153.2,47.5,28.1,389.0,119.0,17.4,7,5,7,1,2026-07-22T17:56:03.407027+05:30
Meerut,Uttar Pradesh,28.9845,77.7064,30.6,73,0.0,973.7,6.9,41.8,111,21.1,21.0,8.2,271.0,113.0,7.8,3,5,7,1,2026-07-22T17:56:03.407033+05:30
Agra,Uttar Pradesh,27.1767,78.0081,31.7,68,0.0,978.5,6.85,36.7,100,16.6,16.5,5.3,291.0,133.0,4.8,3,5,7,1,2026-07-22T17:56:03.407039+05:30
Varanasi,Uttar Pradesh,25.3176,82.9739,30.3,73,0.2,989.0,8.15,46.8,69,14.4,14.4,8.5,512.0,100.0,6.8,6,5,7,1,2026-07-22T17:56:03.407045+05:30
Prayagraj,Uttar Pradesh,25.4358,81.8463,28.9,85,0.0,987.3,8.1,37.1,92,17.4,17.3,5.5,361.0,125.0,7.6,7,5,7,1,2026-07-22T17:56:03.407052+05:30
Gorakhpur,Uttar Pradesh,26.7606,83.3732,28.1,88,0.1,990.4,6.45,52.6,76,14.8,14.8,7.5,267.0,84.0,3.5,10,5,7,1,2026-07-22T17:56:03.407058+05:30
Bareilly,Uttar Pradesh,28.367,79.4304,31.0,74,0.0,978.9,6.55,42.8,81,17.0,16.8,6.6,261.0,99.0,3.7,3,5,7,1,2026-07-22T17:56:03.407065+05:30
Aligarh,Uttar Pradesh,27.8974,78.088,31.4,70,0.0,976.8,6.9,39.6,107,17.6,17.5,5.9,249.0,131.0,8.5,3,5,7,1,2026-07-22T17:56:03.407071+05:30
Moradabad,Uttar Pradesh,28.8386,78.7733,31.2,71,0.0,976.0,7.7,45.0,88,19.0,18.8,6.8,243.0,117.0,7.4,3,5,7,1,2026-07-22T17:56:03.407077+05:30
Saharanpur,Uttar Pradesh,29.9637,77.546,30.5,73,0.0,968.8,7.35,52.6,77,16.4,16.0,6.1,269.0,98.0,3.5,3,5,7,1,2026-07-22T17:56:03.407085+05:30
Jhansi,Uttar Pradesh,25.4484,78.5685,29.9,75,0.0,968.6,7.35,35.3,60,16.6,16.5,3.8,221.0,118.0,7.9,7,5,7,1,2026-07-22T17:56:06.667789+05:30
Surat,Gujarat,21.1702,72.8311,26.8,90,0.0,998.2,0.65,32.8,71,27.7,22.4,34.4,360.0,17.0,49.2,7,5,3,1,2026-07-22T17:56:06.667841+05:30
Vadodara,Gujarat,22.3072,73.1812,28.3,81,0.0,995.4,0.95,26.3,61,36.2,19.7,12.2,388.0,58.0,10.5,7,5,3,1,2026-07-22T17:56:06.667852+05:30
Rajkot,Gujarat,22.3039,70.8022,28.5,80,0.1,985.1,3.5,44.3,59,41.8,20.4,4.8,109.0,62.0,6.5,10,5,3,1,2026-07-22T17:56:06.667860+05:30
Thane,Maharashtra,19.2183,72.9781,25.3,94,0.5,1002.3,0.85,45.0,57,27.8,12.6,7.8,214.0,42.0,3.6,10,5,0,1,2026-07-22T17:56:06.667867+05:30
Nagpur,Maharashtra,21.1458,79.0882,24.9,93,0.2,966.6,0.65,51.8,34,5.1,4.9,9.6,176.0,44.0,10.4,6,5,3,1,2026-07-22T17:56:06.667874+05:30
Nashik,Maharashtra,19.9975,73.7898,22.5,96,0.3,938.2,0.55,64.8,20,1.8,1.4,5.7,129.0,39.0,1.6,6,5,3,1,2026-07-22T17:56:06.667881+05:30
Aurangabad,Maharashtra,19.8762,75.3433,24.6,78,0.0,937.9,1.25,49.7,23,4.7,3.7,6.0,172.0,52.0,5.4,3,5,3,1,2026-07-22T17:56:06.667887+05:30
Solapur,Maharashtra,17.6599,75.9064,25.3,78,0.0,953.5,5.8,58.0,26,7.8,4.7,3.3,126.0,49.0,1.8,7,5,3,1,2026-07-22T17:56:06.667894+05:30
Kolhapur,Maharashtra,16.705,74.2433,22.4,93,0.0,945.2,7.25,60.5,23,5.1,3.7,6.1,142.0,35.0,1.6,3,5,7,1,2026-07-22T17:56:06.667900+05:30
Goa,Goa,15.2993,74.124,25.5,100,0.3,997.5,6.5,29.9,56,27.9,12.6,2.0,161.0,46.0,0.9,10,5,7,1,2026-07-22T17:56:06.667907+05:30
Jodhpur,Rajasthan,26.2389,73.0243,27.6,93,0.2,973.8,5.25,22.0,77,151.8,39.5,3.1,192.0,98.0,2.0,10,5,3,1,2026-07-22T17:56:06.667916+05:30
Udaipur,Rajasthan,24.5854,73.7125,26.4,85,0.1,937.3,2.35,29.2,55,17.6,8.9,4.8,199.0,66.0,3.1,10,5,3,1,2026-07-22T17:56:06.667923+05:30
Kota,Rajasthan,25.2138,75.8648,30.6,71,0.1,968.5,8.0,23.8,50,11.2,9.1,3.6,214.0,117.0,5.0,6,5,7,1,2026-07-22T17:56:06.667929+05:30
Bikaner,Rajasthan,28.0229,73.3119,28.0,87,0.1,972.4,5.35,36.7,76,18.8,14.6,1.8,255.0,141.0,4.1,10,5,3,1,2026-07-22T17:56:06.667936+05:30
Ajmer,Rajasthan,26.4499,74.6399,28.2,76,0.1,945.6,7.3,28.1,58,8.9,8.1,4.7,234.0,112.0,1.5,10,5,7,1,2026-07-22T17:56:06.667942+05:30
Gwalior,Madhya Pradesh,26.2183,78.1828,30.2,74,0.1,973.6,7.0,36.7,62,17.1,15.3,2.5,322.0,121.0,3.5,6,5,7,1,2026-07-22T17:56:06.667949+05:30
Indore,Madhya Pradesh,22.7196,75.8577,24.4,94,0.1,939.8,4.3,33.8,49,7.5,6.8,7.6,276.0,69.0,3.7,6,5,3,1,2026-07-22T17:56:06.667955+05:30
Bhopal,Madhya Pradesh,23.2599,77.4126,25.2,91,0.2,945.2,8.05,38.2,40,7.9,7.7,4.7,316.0,88.0,2.7,10,5,7,1,2026-07-22T17:56:06.667961+05:30
Jabalpur,Madhya Pradesh,23.1815,79.9864,24.9,96,0.2,953.0,6.75,41.4,41,5.3,5.2,6.2,213.0,66.0,1.9,6,5,7,1,2026-07-22T17:56:06.667968+05:30
Ujjain,Madhya Pradesh,23.1765,75.7885,25.1,93,0.1,945.0,4.5,32.8,47,8.6,6.9,4.0,218.0,74.0,2.6,10,5,3,1,2026-07-22T17:56:06.667974+05:30
Visakhapatnam,Andhra Pradesh,17.6868,83.2185,29.1,71,0.0,1000.0,8.65,54.7,64,25.1,17.1,17.7,343.0,66.0,30.9,7,5,4,1,2026-07-22T17:56:06.667981+05:30
Vijayawada,Andhra Pradesh,16.5062,80.648,30.8,62,0.0,999.5,5.75,46.4,62,16.1,10.6,6.5,172.0,60.0,4.6,3,5,3,1,2026-07-22T17:56:06.667987+05:30
Guntur,Andhra Pradesh,16.3067,80.4365,31.7,54,0.0,1000.8,5.75,51.5,58,14.2,9.1,5.9,148.0,56.0,4.3,0,5,0,1,2026-07-22T17:56:06.667994+05:30
Nellore,Andhra Pradesh,14.4426,79.9865,34.2,45,0.0,1002.9,8.05,43.9,64,28.1,17.7,6.5,148.0,91.0,4.2,0,5,4,1,2026-07-22T17:56:06.668001+05:30
Kurnool,Andhra Pradesh,15.8281,78.0373,25.5,90,0.1,974.9,5.2,50.4,39,16.8,9.4,5.8,129.0,55.0,2.9,10,5,3,1,2026-07-22T17:56:06.668008+05:30
Kakinada,Andhra Pradesh,16.9891,82.2475,29.2,76,0.0,1004.3,7.9,58.3,62,22.9,14.6,4.5,193.0,79.0,4.2,7,5,4,1,2026-07-22T17:56:06.668015+05:30
Tirupati,Andhra Pradesh,13.6288,79.4192,27.3,76,0.1,989.8,8.45,38.5,72,22.2,15.3,17.0,233.0,58.0,2.6,10,5,7,1,2026-07-22T17:56:06.668021+05:30
Warangal,Telangana,17.9689,79.5941,27.0,76,0.0,975.4,3.35,46.1,51,13.6,10.1,7.5,204.0,52.0,4.2,7,5,3,1,2026-07-22T17:56:06.668027+05:30
Nizamabad,Telangana,18.6725,78.0941,25.6,80,0.1,960.3,1.85,50.0,39,11.6,7.4,4.6,148.0,50.0,2.8,10,5,3,1,2026-07-22T17:56:06.668034+05:30
Mysore,Karnataka,12.2958,76.6396,24.4,76,0.0,928.7,7.5,52.6,28,5.2,3.9,8.2,148.0,42.0,1.6,3,5,7,1,2026-07-22T17:56:06.668040+05:30
Mangalore,Karnataka,12.9141,74.856,25.2,90,0.0,1007.7,8.2,31.0,51,15.1,7.2,3.4,127.0,43.0,1.5,7,5,4,1,2026-07-22T17:56:06.668046+05:30
Hubli-Dharwad,Karnataka,15.3647,75.124,23.4,86,0.1,939.5,6.5,62.3,23,5.7,3.3,4.8,131.0,44.0,0.9,6,5,7,1,2026-07-22T17:56:06.668053+05:30
Belgaum,Karnataka,15.8497,74.4977,21.6,92,0.1,923.7,8.05,62.3,20,4.7,2.8,4.7,117.0,37.0,1.3,6,5,7,1,2026-07-22T17:56:09.929176+05:30
Coimbatore,Tamil Nadu,11.0168,76.9558,28.0,67,0.0,961.2,8.05,53.6,39,6.1,4.6,4.8,166.0,53.0,2.0,7,5,7,1,2026-07-22T17:56:09.929204+05:30
Madurai,Tamil Nadu,9.9252,78.1198,35.8,35,0.1,990.9,8.2,50.0,73,36.8,17.6,4.5,148.0,113.0,2.7,3,5,10,1,2026-07-22T17:56:09.929217+05:30
Trichy,Tamil Nadu,10.7905,78.7047,34.5,41,0.2,997.5,7.95,40.3,57,20.4,10.9,4.4,126.0,81.0,2.4,3,5,7,1,2026-07-22T17:56:09.929228+05:30
Salem,Tamil Nadu,11.6643,78.146,31.2,52,0.1,976.4,8.3,40.7,66,15.6,9.8,8.1,187.0,74.0,6.3,3,5,7,1,2026-07-22T17:56:09.929238+05:30
Tirunelveli,Tamil Nadu,8.7139,77.7567,34.7,44,0.0,1001.0,8.65,44.3,49,11.0,7.4,2.7,130.0,73.0,1.6,0,5,4,1,2026-07-22T17:56:09.929246+05:30
Vellore,Tamil Nadu,12.9165,79.1325,24.3,100,0.2,983.5,8.9,40.0,74,22.2,13.5,8.7,242.0,63.0,2.6,6,5,7,1,2026-07-22T17:56:09.929255+05:30
Erode,Tamil Nadu,11.341,77.7172,32.0,48,0.1,988.1,8.3,41.4,55,9.8,6.6,6.0,173.0,68.0,2.2,3,5,7,1,2026-07-22T17:56:09.929264+05:30
Kochi,Kerala,9.9312,76.2673,27.7,83,0.0,1009.6,7.75,34.9,62,11.7,8.3,6.6,126.0,53.0,3.0,7,0,4,1,2026-07-22T17:56:09.929273+05:30
Thiruvananthapuram,Kerala,8.5241,76.9366,28.1,80,0.0,1008.5,8.15,37.4,51,15.4,9.5,4.1,111.0,57.0,1.4,7,0,4,1,2026-07-22T17:56:09.929281+05:30
Kozhikode,Kerala,11.2588,75.7804,27.5,82,0.0,1008.8,7.8,31.3,37,8.8,4.9,1.3,122.0,52.0,1.2,7,0,4,1,2026-07-22T17:56:09.929290+05:30
Thrissur,Kerala,10.5276,76.2144,27.7,82,0.0,1008.0,7.65,34.9,60,10.7,8.0,5.0,121.0,54.0,2.5,7,0,4,1,2026-07-22T17:56:09.929300+05:30
Kannur,Kerala,11.8745,75.3704,27.3,80,0.1,1008.3,7.45,29.2,43,10.6,5.7,5.0,117.0,39.0,1.2,10,0,4,1,2026-07-22T17:56:09.929308+05:30
Patna,Bihar,25.5941,85.1376,30.6,71,0.0,993.3,8.2,47.9,62,12.0,12.0,8.6,293.0,100.0,6.6,3,5,7,1,2026-07-22T17:56:09.929317+05:30
Gaya,Bihar,24.7914,85.0002,30.5,70,0.0,986.3,8.85,44.6,54,9.7,9.7,7.2,291.0,114.0,14.3,3,5,7,1,2026-07-22T17:56:09.929326+05:30
Muzaffarpur,Bihar,26.1209,85.3647,27.8,86,0.0,994.3,7.15,53.3,67,12.5,12.5,8.6,261.0,94.0,5.3,7,5,7,1,2026-07-22T17:56:09.929334+05:30
Bhagalpur,Bihar,25.2425,87.0117,28.8,82,0.0,995.3,7.05,43.6,57,11.9,11.8,9.4,233.0,87.0,9.0,7,5,7,1,2026-07-22T17:56:09.929343+05:30
Ranchi,Jharkhand,23.3441,85.3096,24.0,87,0.0,931.8,6.05,41.8,48,4.0,4.0,7.5,179.0,61.0,9.3,3,5,7,1,2026-07-22T17:56:09.929351+05:30
Jamshedpur,Jharkhand,22.8046,86.2029,26.8,85,0.0,985.1,7.6,23.4,60,13.0,12.7,17.0,496.0,48.0,20.3,7,5,7,1,2026-07-22T17:56:09.929360+05:30
Dhanbad,Jharkhand,23.7957,86.4304,26.8,89,0.0,973.8,7.05,41.0,76,29.9,29.6,41.6,472.0,33.0,88.9,7,5,7,1,2026-07-22T17:56:09.929368+05:30
Bokaro,Jharkhand,23.6693,86.1511,27.2,82,0.0,977.6,8.65,38.2,79,24.6,24.3,29.7,715.0,44.0,74.1,7,5,7,1,2026-07-22T17:56:09.929376+05:30
Bhubaneswar,Odisha,20.2961,85.8245,26.7,95,0.1,998.2,7.5,38.9,59,21.9,19.6,10.9,342.0,90.0,7.4,10,5,7,1,2026-07-22T17:56:09.929384+05:30
Cuttack,Odisha,20.4625,85.8828,26.9,95,0.2,999.9,7.3,38.9,59,21.9,19.6,10.9,291.0,90.0,7.4,10,5,7,1,2026-07-22T17:56:09.929392+05:30
Rourkela,Odisha,22.2604,84.8536,25.0,95,0.1,979.6,1.8,37.4,56,6.3,6.0,6.3,337.0,60.0,3.2,10,5,3,1,2026-07-22T17:56:09.929400+05:30
Raipur,Chhattisgarh,21.2514,81.6296,25.3,86,0.0,968.8,0.6,54.4,57,12.6,11.4,19.0,204.0,37.0,31.3,7,5,3,1,2026-07-22T17:56:09.929409+05:30
Bhilai,Chhattisgarh,21.1938,81.3509,25.0,87,0.0,969.3,0.75,57.6,54,12.3,11.0,17.6,348.0,40.0,30.4,7,5,3,1,2026-07-22T17:56:09.929417+05:30
Guwahati,Assam,26.1158,91.7086,27.0,97,0.1,997.6,8.65,21.6,50,6.7,6.6,6.2,240.0,54.0,1.1,10,5,7,1,2026-07-22T17:56:09.929425+05:30
Agartala,Tripura,23.8315,91.2868,26.4,90,0.0,1002.5,8.5,38.9,38,8.1,7.5,8.2,193.0,51.0,1.2,7,5,4,1,2026-07-22T17:56:09.929434+05:30
Shillong,Meghalaya,25.5788,91.8933,21.7,79,0.0,855.8,8.45,32.4,34,5.0,4.1,4.3,203.0,61.0,1.3,3,5,7,1,2026-07-22T17:56:09.929442+05:30
Imphal,Manipur,24.817,93.9368,22.9,96,0.3,921.3,8.6,24.1,52,6.2,6.1,7.3,256.0,55.0,1.4,6,5,7,1,2026-07-22T17:56:09.929452+05:30
Aizawl,Mizoram,23.7271,92.7176,20.1,97,0.1,890.2,8.15,39.6,29,3.2,2.6,3.8,134.0,50.0,0.4,6,5,7,1,2026-07-22T17:56:09.929460+05:30
Kohima,Nagaland,25.6701,94.1077,21.4,95,0.0,854.1,7.95,24.1,32,4.3,4.2,5.6,176.0,52.0,0.5,3,5,7,1,2026-07-22T17:56:09.929469+05:30
Gangtok,Sikkim,27.3314,88.6138,18.8,98,0.1,836.1,6.8,30.6,37,2.8,2.8,6.0,194.0,77.0,0.7,6,10,7,1,2026-07-22T17:56:09.929477+05:30
Siliguri,West Bengal,26.7271,88.3953,28.5,77,0.1,988.9,8.6,37.4,59,9.0,8.9,8.4,432.0,84.0,2.0,10,5,7,1,2026-07-22T17:56:13.182585+05:30
Durgapur,West Bengal,23.5204,87.3119,27.2,87,0.0,989.3,8.7,35.6,68,18.3,18.2,23.1,593.0,65.0,26.2,7,5,7,1,2026-07-22T17:56:13.182619+05:30
Asansol,West Bengal,23.6739,86.9524,27.5,83,0.0,987.8,8.4,36.7,64,16.3,16.2,28.2,439.0,51.0,32.3,7,5,7,1,2026-07-22T17:56:13.182634+05:30
Pondicherry,Puducherry,11.9139,79.8145,30.1,80,0.0,1006.2,7.3,37.8,72,33.6,24.3,12.3,182.0,102.0,5.1,3,5,4,1,2026-07-22T17:56:13.182646+05:30
Port Blair,Andaman and Nicobar Islands,11.6234,92.7265,27.9,81,0.0,1007.8,8.6,40.3,48,14.5,8.5,0.5,106.0,45.0,0.5,7,5,4,1,2026-07-22T17:56:13.182658+05:30
Haridwar,Uttarakhand,29.9457,78.1642,30.8,70,0.0,967.3,7.4,37.1,70,13.7,13.3,3.7,212.0,97.0,3.4,3,5,7,1,2026-07-22T17:56:13.182668+05:30
Rishikesh,Uttarakhand,30.0869,78.2676,29.1,77,0.0,960.3,7.25,23.8,56,10.8,10.5,2.6,216.0,93.0,2.2,7,5,7,1,2026-07-22T17:56:13.182679+05:30
Nainital,Uttarakhand,29.3919,79.4542,21.0,72,0.0,803.6,6.45,47.9,54,10.6,10.3,2.4,181.0,94.0,1.1,3,5,7,0,2026-07-22T17:56:13.182689+05:30
Mussoorie,Uttarakhand,30.4599,78.0664,19.1,99,0.0,800.8,7.6,30.6,54,11.8,11.5,6.9,223.0,95.0,3.0,3,10,7,1,2026-07-22T17:56:13.182699+05:30
Dharamshala,Himachal Pradesh,32.219,76.3234,22.6,93,0.0,865.4,6.3,24.1,46,3.4,3.3,5.5,260.0,87.0,0.4,3,5,7,1,2026-07-22T17:56:13.182709+05:30
Dalhousie,Himachal Pradesh,32.5387,75.971,17.6,100,0.1,801.9,1.7,20.9,61,11.7,11.3,12.6,269.0,99.0,1.8,6,10,3,1,2026-07-22T17:56:13.182720+05:30
Patiala,Punjab,30.3398,76.3869,30.3,75,0.0,971.0,6.45,39.6,91,23.6,23.2,6.9,295.0,125.0,7.7,3,5,7,1,2026-07-22T17:56:13.182730+05:30
Bhatinda,Punjab,30.211,74.9455,29.7,76,0.0,976.2,7.65,43.6,84,28.2,27.8,8.7,340.0,141.0,15.0,7,5,7,1,2026-07-22T17:56:13.182739+05:30
Rohtak,Haryana,28.8955,76.6066,31.1,69,0.0,973.4,6.2,42.5,153,195.1,53.0,12.3,364.0,180.0,20.0,3,5,7,1,2026-07-22T17:56:13.182749+05:30
Panipat,Haryana,29.3909,76.9635,30.2,75,0.0,972.7,7.45,41.8,152,122.9,39.7,7.9,311.0,165.0,17.3,3,5,7,1,2026-07-22T17:56:13.182757+05:30
Mathura,Uttar Pradesh,27.4924,77.6737,31.8,66,0.0,977.7,7.2,38.9,97,289.6,44.5,6.3,287.0,130.0,4.5,3,5,7,1,2026-07-22T17:56:13.182764+05:30
Vrindavan,Uttar Pradesh,27.5823,77.7027,32.1,64,0.0,978.1,7.05,38.5,97,289.6,44.5,6.3,271.0,130.0,4.5,3,5,7,1,2026-07-22T17:56:13.182771+05:30
Ayodhya,Uttar Pradesh,26.7922,82.1998,30.1,76,0.0,987.8,8.0,48.6,81,16.8,16.7,5.2,289.0,109.0,4.0,3,5,7,1,2026-07-22T17:56:13.182779+05:30
Ratlam,Madhya Pradesh,23.3315,75.0367,24.6,93,0.2,946.1,0.8,34.2,46,9.2,7.5,4.1,157.0,70.0,2.5,6,5,3,1,2026-07-22T17:56:13.182786+05:30
Sagar,Madhya Pradesh,23.8388,78.7378,25.8,90,0.0,941.1,7.9,25.9,43,4.0,4.0,2.8,182.0,84.0,1.2,7,5,7,1,2026-07-22T17:56:13.182794+05:30
Satna,Madhya Pradesh,24.6005,80.8322,26.7,88,0.0,962.5,7.9,31.3,57,9.1,9.1,3.2,228.0,103.0,4.7,7,5,7,1,2026-07-22T17:56:13.182801+05:30
Akola,Maharashtra,20.7002,77.0082,25.5,91,0.6,968.6,0.8,58.3,23,4.8,3.9,6.2,160.0,51.0,3.8,10,5,3,1,2026-07-22T17:56:13.182828+05:30
Amravati,Maharashtra,20.9374,77.7796,24.8,92,0.3,960.5,1.2,51.5,24,4.6,3.8,6.4,148.0,51.0,3.9,6,5,3,1,2026-07-22T17:56:13.182838+05:30
Latur,Maharashtra,18.4088,76.5604,24.4,82,0.1,935.3,3.75,60.1,25,7.5,4.8,3.0,141.0,51.0,1.4,6,5,3,1,2026-07-22T17:56:13.182845+05:30
Nanded,Maharashtra,19.1383,77.3091,24.7,91,0.1,963.6,0.8,51.8,35,8.3,5.6,4.7,184.0,54.0,3.5,6,5,3,1,2026-07-22T17:56:13.182853+05:30
Gulbarga,Karnataka,17.3297,76.8343,26.5,70,0.2,955.4,2.85,63.0,29,12.7,7.4,6.2,142.0,51.0,2.4,10,5,3,1,2026-07-22T17:56:13.182860+05:30
Bidar,Karnataka,17.9104,77.5199,24.6,80,0.0,931.6,1.7,57.2,31,13.0,8.1,6.5,148.0,56.0,2.0,3,5,3,1,2026-07-22T17:56:13.182867+05:30
Hospet,Karnataka,15.2689,76.3909,26.8,66,0.1,954.5,4.9,61.2,25,5.7,3.8,5.6,123.0,48.0,1.3,10,5,3,1,2026-07-22T17:56:13.182874+05:30
Tirupur,Tamil Nadu,11.1085,77.3411,30.8,56,0.0,974.2,8.15,54.7,58,10.0,6.9,5.8,162.0,67.0,2.6,0,5,7,1,2026-07-22T17:56:13.182880+05:30
Alappuzha,Kerala,9.4981,76.3388,27.9,80,0.0,1009.5,7.25,33.1,60,15.2,10.0,5.8,93.0,57.0,2.8,7,0,4,1,2026-07-22T17:56:13.182888+05:30
Munnar,Kerala,10.0889,77.0595,18.1,93,0.1,857.4,8.05,34.2,44,8.1,5.6,3.3,105.0,63.0,1.6,6,10,7,1,2026-07-22T17:56:13.182896+05:30
Silchar,Assam,24.8333,92.7789,27.2,92,0.1,1002.1,8.75,28.4,53,12.1,10.6,4.1,229.0,70.0,3.4,10,5,4,1,2026-07-22T17:56:13.182903+05:30
Dibrugarh,Assam,27.4728,94.912,28.6,81,0.0,990.7,5.0,19.8,69,6.5,6.4,4.4,227.0,97.0,1.3,7,5,3,1,2026-07-22T17:56:13.182911+05:30
