city,state,latitude,longitude,temp,humidity,rain,pressure,uv_index,wind_gusts,aqi,pm10,pm2_5,no2,co,o3,so2,mosquito_risk,arthritis_risk,migraine_risk,frizz_risk,updated_at
Delhi,Delhi,28.6139,77.209,28.7,78,0.0,973.4,6.0,38.2,83,57.0,24.4,18.8,644.0,111.0,15.2,7,5,3,1,2026-07-09T17:41:35.684205+05:30
Mumbai,Maharashtra,19.076,72.8777,28.7,81,0.0,1005.0,6.8,47.5,60,33.1,16.0,7.8,189.0,46.0,5.4,7,5,4,1,2026-07-09T17:41:35.684246+05:30
Bangalore,Karnataka,12.9716,77.5946,26.6,62,0.0,910.2,8.25,50.8,32,13.3,8.3,13.2,352.0,60.0,3.7,7,5,7,1,2026-07-09T17:41:35.684261+05:30
Hyderabad,Telangana,17.385,78.4867,31.0,53,0.0,949.4,8.45,47.5,33,30.6,14.6,5.2,249.0,84.0,3.3,0,5,7,1,2026-07-09T17:41:35.684270+05:30
Chennai,Tamil Nadu,13.0827,80.2707,31.9,67,0.1,1003.4,7.8,41.0,64,26.1,18.8,7.2,252.0,99.0,7.8,6,5,4,1,2026-07-09T17:41:35.684278+05:30
Kolkata,West Bengal,22.5726,88.3639,27.0,96,0.3,999.6,5.35,45.7,65,21.7,17.8,9.2,401.0,68.0,5.3,10,5,3,1,2026-07-09T17:41:35.684286+05:30
Pune,Maharashtra,18.5204,73.8567,26.4,77,0.0,945.0,7.4,50.0,26,15.6,8.0,4.7,144.0,50.0,4.3,7,5,7,1,2026-07-09T17:41:35.684293+05:30
Ahmedabad,Gujarat,23.0225,72.5714,34.9,51,0.0,993.9,7.9,42.1,81,59.8,25.6,4.6,202.0,91.0,3.9,0,5,7,1,2026-07-09T17:41:35.684300+05:30
Jaipur,Rajasthan,26.9124,75.7873,31.9,63,0.0,951.1,8.1,38.5,142,129.0,51.7,4.9,247.0,91.0,3.8,3,5,7,1,2026-07-09T17:41:35.684306+05:30
Lucknow,Uttar Pradesh,26.8467,80.9462,31.1,72,0.0,983.9,6.85,35.3,74,21.5,16.8,14.9,320.0,87.0,6.3,3,5,7,1,2026-07-09T17:41:35.684317+05:30
Kanpur,Uttar Pradesh,26.4499,80.3319,32.2,65,0.0,981.8,6.95,32.0,59,82.2,23.2,10.6,242.0,109.0,8.1,3,5,7,1,2026-07-09T17:41:35.684323+05:30
Chandigarh,Chandigarh,30.7333,76.7794,26.2,96,0.4,960.7,1.5,21.6,152,34.1,33.8,15.9,874.0,125.0,10.4,10,5,3,1,2026-07-09T17:41:35.684330+05:30
Srinagar,Jammu and Kashmir,34.0837,74.7973,28.3,43,0.0,836.7,9.05,20.9,138,22.2,18.8,8.8,289.0,129.0,2.2,4,5,7,0,2026-07-09T17:41:35.684337+05:30
Jammu,Jammu and Kashmir,32.7266,74.857,35.1,45,0.0,963.2,8.6,24.5,185,89.2,66.1,4.3,425.0,197.0,7.5,0,5,10,1,2026-07-09T17:41:35.684343+05:30
Amritsar,Punjab,31.634,74.8723,33.6,60,0.0,971.0,8.45,27.7,179,123.9,64.3,4.9,505.0,197.0,10.8,0,5,7,1,2026-07-09T17:41:35.684350+05:30
Ludhiana,Punjab,30.901,75.8573,29.2,81,0.1,969.9,3.25,41.0,153,58.7,40.2,8.2,566.0,147.0,11.7,10,5,3,1,2026-07-09T17:41:35.684356+05:30
Jalandhar,Punjab,31.326,75.5762,29.9,77,0.0,970.5,7.5,32.8,157,73.8,51.1,5.3,468.0,178.0,7.1,7,5,7,1,2026-07-09T17:41:35.684362+05:30
Dehradun,Uttarakhand,30.6284,78.0322,19.6,98,0.4,824.9,0.45,34.9,78,5.4,5.4,12.3,218.0,65.0,0.4,6,10,3,1,2026-07-09T17:41:35.684368+05:30
Shimla,Himachal Pradesh,31.1048,77.1734,16.2,100,0.4,779.3,1.5,24.5,64,10.6,10.4,8.8,350.0,90.0,1.2,6,10,3,1,2026-07-09T17:41:35.684374+05:30
Manali,Himachal Pradesh,32.2396,77.1887,22.3,87,0.4,814.8,6.75,35.3,45,11.1,11.1,30.2,216.0,83.0,1.6,6,5,7,1,2026-07-09T17:41:35.684382+05:30
Gurgaon,Haryana,28.4595,77.0266,29.4,75,0.0,971.9,6.55,37.8,101,289.6,61.5,22.0,478.0,127.0,17.6,7,5,7,1,2026-07-09T17:41:35.684389+05:30
Noida,Uttar Pradesh,28.5355,77.391,28.9,76,0.0,974.8,5.4,44.6,101,289.6,61.5,22.0,623.0,127.0,17.6,7,5,3,1,2026-07-09T17:41:35.684395+05:30
Ghaziabad,Uttar Pradesh,28.6692,77.4538,27.8,80,0.0,973.1,5.8,32.8,71,20.1,19.9,15.4,309.0,114.0,16.8,7,5,3,1,2026-07-09T17:41:35.684401+05:30
Faridabad,Haryana,28.4089,77.3178,28.9,77,0.0,974.2,5.7,56.5,101,289.6,61.5,22.0,564.0,127.0,17.6,7,5,3,1,2026-07-09T17:41:35.684411+05:30
Meerut,Uttar Pradesh,28.9845,77.7064,26.7,92,0.2,971.8,2.9,36.4,71,20.1,19.9,15.4,320.0,114.0,16.8,10,5,3,1,2026-07-09T17:41:35.684417+05:30
Agra,Uttar Pradesh,27.1767,78.0081,29.9,69,0.0,977.8,6.65,58.0,83,220.3,47.6,10.1,321.0,130.0,8.1,7,5,7,1,2026-07-09T17:41:35.684423+05:30
Varanasi,Uttar Pradesh,25.3176,82.9739,30.5,79,0.1,988.8,7.3,26.6,90,13.4,11.6,7.7,482.0,100.0,5.4,6,5,7,1,2026-07-09T17:41:35.684430+05:30
Prayagraj,Uttar Pradesh,25.4358,81.8463,31.9,69,0.0,986.9,7.95,27.7,85,12.1,10.4,5.4,282.0,111.0,4.9,3,5,7,1,2026-07-09T17:41:35.684437+05:30
Gorakhpur,Uttar Pradesh,26.7606,83.3732,30.4,84,0.1,988.2,7.15,27.7,88,39.8,38.3,9.2,298.0,119.0,8.3,6,5,7,1,2026-07-09T17:41:35.684443+05:30
Bareilly,Uttar Pradesh,28.367,79.4304,27.7,94,0.2,976.8,7.1,45.4,65,17.2,17.1,10.8,338.0,90.0,5.4,10,5,7,1,2026-07-09T17:41:35.684451+05:30
Aligarh,Uttar Pradesh,27.8974,78.088,27.7,79,0.0,975.7,7.8,35.6,86,339.9,72.6,13.9,314.0,119.0,13.3,7,5,7,1,2026-07-09T17:41:35.684457+05:30
Moradabad,Uttar Pradesh,28.8386,78.7733,27.8,93,0.3,973.7,6.1,46.4,67,18.0,18.0,14.9,288.0,84.0,5.9,10,5,7,1,2026-07-09T17:41:35.684463+05:30
Saharanpur,Uttar Pradesh,29.9637,77.546,26.6,93,0.2,967.0,1.4,27.0,94,16.7,16.6,17.3,415.0,64.0,3.2,10,5,3,1,2026-07-09T17:41:35.684469+05:30
Jhansi,Uttar Pradesh,25.4484,78.5685,31.8,70,0.1,968.9,4.7,46.8,69,45.9,26.4,4.3,197.0,98.0,4.3,6,5,3,1,2026-07-09T17:41:39.087138+05:30
Surat,Gujarat,21.1702,72.8311,29.8,80,0.0,1001.0,6.4,56.2,71,31.9,17.9,12.0,225.0,37.0,28.9,7,5,4,1,2026-07-09T17:41:39.087172+05:30
Vadodara,Gujarat,22.3072,73.1812,31.7,70,0.0,997.3,6.55,49.7,69,58.7,27.3,6.2,175.0,84.0,6.3,3,5,7,1,2026-07-09T17:41:39.087183+05:30
Rajkot,Gujarat,22.3039,70.8022,33.4,52,0.0,987.1,7.55,50.4,71,55.4,22.0,1.9,108.0,74.0,3.9,0,5,7,1,2026-07-09T17:41:39.087193+05:30
Thane,Maharashtra,19.2183,72.9781,29.0,78,0.1,1004.3,7.1,41.0,60,33.1,16.0,7.8,182.0,46.0,5.4,10,5,4,1,2026-07-09T17:41:39.087202+05:30
Nagpur,Maharashtra,21.1458,79.0882,31.0,62,0.0,967.4,5.6,46.4,61,50.1,24.2,8.3,174.0,86.0,14.5,3,5,3,1,2026-07-09T17:41:39.087211+05:30
Nashik,Maharashtra,19.9975,73.7898,26.1,80,0.0,941.4,5.85,55.4,34,22.8,11.3,3.0,122.0,54.0,2.2,7,5,3,1,2026-07-09T17:41:39.087220+05:30
Aurangabad,Maharashtra,19.8762,75.3433,29.7,57,0.0,939.6,7.5,53.3,40,25.0,12.9,3.1,134.0,79.0,6.3,4,5,7,1,2026-07-09T17:41:39.087228+05:30
Solapur,Maharashtra,17.6599,75.9064,31.2,56,0.0,953.3,6.0,46.8,31,26.0,11.0,2.4,122.0,69.0,1.8,0,5,3,1,2026-07-09T17:41:39.087237+05:30
Kolhapur,Maharashtra,16.705,74.2433,25.3,82,0.0,946.0,8.5,52.2,25,19.3,10.4,3.4,129.0,49.0,1.9,7,5,7,1,2026-07-09T17:41:39.087246+05:30
Goa,Goa,15.2993,74.124,27.4,85,0.1,997.0,7.65,34.9,54,23.8,12.2,1.3,122.0,49.0,1.1,10,5,7,1,2026-07-09T17:41:39.087255+05:30
Jodhpur,Rajasthan,26.2389,73.0243,34.4,49,0.0,973.8,8.45,41.8,157,434.0,80.1,1.6,126.0,89.0,2.1,0,5,7,1,2026-07-09T17:41:39.087264+05:30
Udaipur,Rajasthan,24.5854,73.7125,29.9,59,0.0,939.6,8.8,50.4,83,77.8,27.0,1.7,117.0,84.0,2.7,4,5,7,1,2026-07-09T17:41:39.087273+05:30
Kota,Rajasthan,25.2138,75.8648,30.7,77,0.1,970.3,8.3,40.0,83,84.8,37.0,2.9,166.0,105.0,6.4,6,5,7,1,2026-07-09T17:41:39.087282+05:30
Bikaner,Rajasthan,28.0229,73.3119,35.1,53,0.0,971.9,8.45,31.3,155,162.1,54.0,0.6,145.0,87.0,2.2,0,5,10,1,2026-07-09T17:41:39.087290+05:30
Ajmer,Rajasthan,26.4499,74.6399,24.5,99,0.7,947.2,8.35,46.8,112,104.3,37.4,2.0,136.0,96.0,3.2,6,5,7,1,2026-07-09T17:41:39.087299+05:30
Gwalior,Madhya Pradesh,26.2183,78.1828,33.0,60,0.0,973.2,5.9,41.8,69,85.7,39.2,4.4,236.0,113.0,4.2,0,5,3,1,2026-07-09T17:41:39.087307+05:30
Indore,Madhya Pradesh,22.7196,75.8577,29.0,65,0.0,942.1,5.5,49.0,67,61.0,26.8,4.4,198.0,84.0,5.7,7,5,3,1,2026-07-09T17:41:39.087316+05:30
Bhopal,Madhya Pradesh,23.2599,77.4126,29.2,68,0.0,947.2,6.3,54.0,64,61.9,30.7,3.2,198.0,85.0,6.0,7,5,7,1,2026-07-09T17:41:39.087324+05:30
Jabalpur,Madhya Pradesh,23.1815,79.9864,29.0,76,0.1,955.0,7.35,45.7,61,24.4,16.3,4.7,179.0,74.0,3.6,10,5,7,1,2026-07-09T17:41:39.087332+05:30
Ujjain,Madhya Pradesh,23.1765,75.7885,29.1,62,0.0,947.5,7.2,50.8,69,62.4,26.7,2.9,187.0,87.0,4.3,7,5,7,1,2026-07-09T17:41:39.087341+05:30
Visakhapatnam,Andhra Pradesh,17.6868,83.2185,29.9,78,0.0,997.9,8.25,46.1,83,25.4,20.8,16.2,274.0,96.0,32.0,7,5,7,1,2026-07-09T17:41:39.087350+05:30
Vijayawada,Andhra Pradesh,16.5062,80.648,30.0,83,0.1,997.9,6.45,39.6,62,18.5,11.6,4.8,160.0,87.0,5.1,10,5,7,1,2026-07-09T17:41:39.087359+05:30
Guntur,Andhra Pradesh,16.3067,80.4365,33.0,54,0.0,999.0,6.3,43.2,62,20.5,12.3,5.3,145.0,79.0,4.1,0,5,7,1,2026-07-09T17:41:39.087367+05:30
Nellore,Andhra Pradesh,14.4426,79.9865,34.8,46,0.1,1001.2,8.55,45.7,43,27.2,17.2,3.5,117.0,101.0,3.3,3,5,4,1,2026-07-09T17:41:39.087376+05:30
Kurnool,Andhra Pradesh,15.8281,78.0373,32.6,53,0.0,972.8,5.45,49.3,34,31.1,12.6,1.7,126.0,91.0,2.4,0,5,3,1,2026-07-09T17:41:39.087386+05:30
Kakinada,Andhra Pradesh,16.9891,82.2475,32.0,65,0.0,1002.0,8.1,50.4,72,17.5,13.3,4.2,198.0,91.0,3.0,3,5,4,1,2026-07-09T17:41:39.087394+05:30
Tirupati,Andhra Pradesh,13.6288,79.4192,35.9,36,0.0,987.0,7.85,42.5,40,16.0,11.6,15.4,117.0,54.0,1.6,0,5,10,1,2026-07-09T17:41:39.087403+05:30
Warangal,Telangana,17.9689,79.5941,31.0,68,0.0,974.1,8.0,36.0,49,24.3,13.5,6.0,184.0,70.0,2.7,3,5,7,1,2026-07-09T17:41:39.087411+05:30
Nizamabad,Telangana,18.6725,78.0941,31.2,61,0.0,960.2,6.0,46.1,48,41.7,19.8,3.1,168.0,87.0,5.1,3,5,3,1,2026-07-09T17:41:39.087419+05:30
Mysore,Karnataka,12.2958,76.6396,26.2,70,0.0,927.5,6.85,45.0,30,8.4,5.1,4.5,136.0,63.0,1.6,7,5,7,1,2026-07-09T17:41:39.087427+05:30
Mangalore,Karnataka,12.9141,74.856,27.0,87,0.2,1006.7,8.3,37.8,57,24.7,13.0,2.5,117.0,50.0,1.3,10,5,4,1,2026-07-09T17:41:39.087436+05:30
Hubli-Dharwad,Karnataka,15.3647,75.124,26.6,71,0.0,939.0,8.05,55.1,25,13.9,7.7,2.6,112.0,52.0,1.1,7,5,7,1,2026-07-09T17:41:39.087444+05:30
Belgaum,Karnataka,15.8497,74.4977,24.2,82,0.0,924.2,7.6,54.7,23,17.9,9.4,2.7,105.0,49.0,1.4,3,5,7,1,2026-07-09T17:41:42.480502+05:30
Coimbatore,Tamil Nadu,11.0168,76.9558,27.6,73,0.0,960.4,8.8,47.2,30,6.5,4.8,4.8,141.0,57.0,1.9,7,5,7,1,2026-07-09T17:41:42.480535+05:30
Madurai,Tamil Nadu,9.9252,78.1198,34.6,43,0.1,990.5,8.7,35.3,38,21.5,10.4,4.9,142.0,69.0,2.0,3,5,7,1,2026-07-09T17:41:42.480546+05:30
Trichy,Tamil Nadu,10.7905,78.7047,35.5,40,0.0,996.7,8.5,54.4,33,16.3,8.2,3.4,130.0,69.0,1.8,0,5,10,1,2026-07-09T17:41:42.480555+05:30
Salem,Tamil Nadu,11.6643,78.146,30.9,60,0.0,975.1,7.95,31.7,46,16.3,9.3,6.1,145.0,78.0,4.7,0,5,7,1,2026-07-09T17:41:42.480564+05:30
Tirunelveli,Tamil Nadu,8.7139,77.7567,33.8,46,0.0,1000.7,8.3,49.0,33,13.8,8.8,2.7,115.0,68.0,1.5,0,5,4,1,2026-07-09T17:41:42.480572+05:30
Vellore,Tamil Nadu,12.9165,79.1325,34.5,41,0.0,981.0,8.35,42.8,38,19.4,11.2,7.9,143.0,73.0,2.3,0,5,7,1,2026-07-09T17:41:42.480580+05:30
Erode,Tamil Nadu,11.341,77.7172,33.2,49,0.0,986.8,8.05,48.2,36,11.1,7.0,5.1,159.0,70.0,1.9,0,5,7,1,2026-07-09T17:41:42.480588+05:30
Kochi,Kerala,9.9312,76.2673,28.1,81,0.0,1009.0,8.55,44.6,51,16.0,10.4,7.2,128.0,48.0,2.7,7,0,4,1,2026-07-09T17:41:42.480596+05:30
Thiruvananthapuram,Kerala,8.5241,76.9366,27.8,79,0.0,1008.2,8.2,52.9,48,21.2,12.7,3.3,104.0,61.0,1.2,7,0,4,1,2026-07-09T17:41:42.480603+05:30
Kozhikode,Kerala,11.2588,75.7804,27.5,83,0.0,1008.2,8.45,35.3,45,22.7,12.0,1.2,124.0,54.0,1.0,7,0,4,1,2026-07-09T17:41:42.480610+05:30
Thrissur,Kerala,10.5276,76.2144,28.3,78,0.0,1007.3,8.55,36.0,51,14.4,9.2,5.0,120.0,49.0,1.9,7,5,4,1,2026-07-09T17:41:42.480618+05:30
Kannur,Kerala,11.8745,75.3704,27.5,86,0.1,1007.3,8.2,30.6,51,24.4,14.0,2.4,106.0,53.0,1.2,10,5,4,1,2026-07-09T17:41:42.480625+05:30
Patna,Bihar,25.5941,85.1376,30.0,87,0.1,992.3,8.65,25.6,93,37.3,33.8,7.5,302.0,131.0,13.1,10,5,7,1,2026-07-09T17:41:42.480632+05:30
Gaya,Bihar,24.7914,85.0002,28.7,91,0.1,985.8,8.5,32.8,83,16.5,16.1,6.7,227.0,97.0,5.7,10,5,7,1,2026-07-09T17:41:42.480639+05:30
Muzaffarpur,Bihar,26.1209,85.3647,31.0,78,0.0,992.2,8.75,26.6,112,44.2,39.8,8.2,307.0,142.0,14.8,3,5,7,1,2026-07-09T17:41:42.480646+05:30
Bhagalpur,Bihar,25.2425,87.0117,29.3,87,0.1,993.6,6.9,24.1,91,32.4,30.9,11.0,334.0,120.0,15.7,10,5,7,1,2026-07-09T17:41:42.480653+05:30
Ranchi,Jharkhand,23.3441,85.3096,25.0,94,0.1,931.3,7.7,46.4,66,16.2,15.6,7.1,252.0,96.0,7.8,10,5,7,1,2026-07-09T17:41:42.480659+05:30
Jamshedpur,Jharkhand,22.8046,86.2029,27.8,89,0.0,984.4,7.45,45.0,86,21.1,20.3,11.6,521.0,92.0,14.9,7,5,7,1,2026-07-09T17:41:42.480667+05:30
Dhanbad,Jharkhand,23.7957,86.4304,28.0,88,0.1,972.8,8.7,36.0,131,35.3,34.9,39.8,969.0,64.0,79.3,10,5,7,1,2026-07-09T17:41:42.480675+05:30
Bokaro,Jharkhand,23.6693,86.1511,27.8,90,0.0,976.5,6.6,35.3,102,24.9,24.8,26.8,248.0,71.0,59.8,7,5,7,1,2026-07-09T17:41:42.480682+05:30
Bhubaneswar,Odisha,20.2961,85.8245,29.8,82,0.0,996.6,7.75,51.8,71,29.9,22.2,6.0,386.0,84.0,5.6,7,5,7,1,2026-07-09T17:41:42.480689+05:30
Cuttack,Odisha,20.4625,85.8828,29.5,85,0.0,998.4,7.7,45.0,71,29.9,22.2,6.0,408.0,84.0,5.6,7,5,7,1,2026-07-09T17:41:42.480696+05:30
Rourkela,Odisha,22.2604,84.8536,28.1,91,0.1,979.1,6.55,46.8,78,32.4,26.0,8.1,411.0,103.0,12.4,10,5,7,1,2026-07-09T17:41:42.480704+05:30
Raipur,Chhattisgarh,21.2514,81.6296,30.3,70,0.0,969.2,7.15,45.7,79,44.9,26.8,13.9,319.0,98.0,30.9,3,5,7,1,2026-07-09T17:41:42.480711+05:30
Bhilai,Chhattisgarh,21.1938,81.3509,30.2,69,0.0,969.6,6.9,47.2,79,43.8,25.6,12.4,536.0,99.0,26.8,3,5,7,1,2026-07-09T17:41:42.480718+05:30
Guwahati,Assam,26.1158,91.7086,27.1,99,0.1,994.3,3.55,26.6,53,9.0,8.8,7.1,275.0,75.0,1.9,10,5,3,1,2026-07-09T17:41:42.480724+05:30
Agartala,Tripura,23.8315,91.2868,26.7,93,0.1,1000.4,3.05,39.2,46,11.5,10.2,8.0,162.0,64.0,2.8,10,5,0,1,2026-07-09T17:41:42.480731+05:30
Shillong,Meghalaya,25.5788,91.8933,21.7,85,0.0,853.0,2.5,41.8,32,3.0,2.8,7.2,171.0,65.0,2.0,3,5,3,1,2026-07-09T17:41:42.480738+05:30
Imphal,Manipur,24.817,93.9368,25.4,79,0.0,918.7,3.5,32.8,30,9.4,5.9,3.5,197.0,57.0,1.4,7,5,3,1,2026-07-09T17:41:42.480745+05:30
Aizawl,Mizoram,23.7271,92.7176,20.4,92,0.1,888.6,0.55,45.0,29,2.4,1.8,3.5,119.0,55.0,0.8,6,5,3,1,2026-07-09T17:41:42.480752+05:30
Kohima,Nagaland,25.6701,94.1077,21.6,97,0.0,851.6,1.15,22.7,30,7.3,4.9,3.4,163.0,55.0,1.0,3,5,3,1,2026-07-09T17:41:42.480759+05:30
Gangtok,Sikkim,27.3314,88.6138,21.6,82,0.0,833.9,7.7,28.8,47,3.0,3.0,5.7,217.0,92.0,0.7,3,5,7,1,2026-07-09T17:41:42.480766+05:30
Siliguri,West Bengal,26.7271,88.3953,29.0,84,0.0,985.2,7.1,26.3,64,9.3,9.2,5.4,430.0,109.0,2.1,7,5,7,1,2026-07-09T17:41:45.876254+05:30
Durgapur,West Bengal,23.5204,87.3119,28.2,89,0.0,988.0,6.95,38.2,97,32.7,32.0,31.4,479.0,65.0,46.7,7,5,7,1,2026-07-09T17:41:45.876287+05:30
Asansol,West Bengal,23.6739,86.9524,28.1,90,0.1,986.5,7.7,37.8,94,31.0,30.4,32.4,353.0,68.0,45.0,10,5,7,1,2026-07-09T17:41:45.876299+05:30
Pondicherry,Puducherry,11.9139,79.8145,30.7,71,0.1,1005.0,7.7,42.1,62,33.1,24.1,14.6,164.0,96.0,5.9,6,5,4,1,2026-07-09T17:41:45.876308+05:30
Port Blair,Andaman and Nicobar Islands,11.6234,92.7265,28.1,83,0.0,1007.0,8.75,41.0,53,31.0,15.9,0.5,103.0,52.0,0.5,7,5,4,1,2026-07-09T17:41:45.876318+05:30
Haridwar,Uttarakhand,29.9457,78.1642,25.8,96,0.4,965.1,0.65,29.5,73,14.0,14.0,11.3,366.0,74.0,2.4,10,5,3,1,2026-07-09T17:41:45.876326+05:30
Rishikesh,Uttarakhand,30.0869,78.2676,25.6,97,0.4,958.0,1.8,26.3,39,8.3,8.2,6.9,282.0,82.0,1.1,10,5,3,1,2026-07-09T17:41:45.876334+05:30
Nainital,Uttarakhand,29.3919,79.4542,18.8,96,0.2,800.6,7.7,51.1,50,10.3,10.2,4.8,216.0,94.0,1.7,6,10,7,1,2026-07-09T17:41:45.876342+05:30
Mussoorie,Uttarakhand,30.4599,78.0664,17.7,100,0.5,797.5,0.45,45.0,72,10.1,10.1,13.2,228.0,79.0,2.1,6,10,3,1,2026-07-09T17:41:45.876350+05:30
Dharamshala,Himachal Pradesh,32.219,76.3234,24.1,77,0.0,863.6,8.4,38.2,107,13.9,13.2,2.5,303.0,147.0,1.2,3,5,7,1,2026-07-09T17:41:45.876358+05:30
Dalhousie,Himachal Pradesh,32.5387,75.971,20.8,87,0.0,801.1,8.4,29.9,172,45.1,40.5,3.8,364.0,184.0,3.5,3,5,7,1,2026-07-09T17:41:45.876367+05:30
Patiala,Punjab,30.3398,76.3869,28.4,73,0.0,969.5,5.95,31.0,150,32.7,32.1,9.1,407.0,119.0,6.9,7,5,3,1,2026-07-09T17:41:45.876375+05:30
Bhatinda,Punjab,30.211,74.9455,36.1,44,0.0,973.7,8.25,33.8,169,139.2,60.5,6.3,341.0,209.0,23.6,0,5,10,1,2026-07-09T17:41:45.876383+05:30
Rohtak,Haryana,28.8955,76.6066,29.7,73,0.0,972.4,5.35,29.2,97,142.5,30.6,8.2,279.0,121.0,7.2,7,5,3,1,2026-07-09T17:41:45.876390+05:30
Panipat,Haryana,29.3909,76.9635,26.4,93,0.2,971.3,3.1,32.4,95,44.8,23.9,12.6,403.0,95.0,6.8,10,5,3,1,2026-07-09T17:41:45.876398+05:30
Mathura,Uttar Pradesh,27.4924,77.6737,30.4,68,0.0,977.0,7.8,48.2,109,392.1,75.4,20.0,315.0,107.0,6.7,3,5,7,1,2026-07-09T17:41:45.876406+05:30
Vrindavan,Uttar Pradesh,27.5823,77.7027,30.3,69,0.0,977.4,7.3,50.0,109,392.1,75.4,20.0,311.0,107.0,6.7,3,5,7,1,2026-07-09T17:41:45.876414+05:30
Ayodhya,Uttar Pradesh,26.7922,82.1998,28.6,88,0.3,986.4,7.45,27.4,91,28.0,27.4,8.2,315.0,113.0,5.3,10,5,7,1,2026-07-09T17:41:45.876422+05:30
Ratlam,Madhya Pradesh,23.3315,75.0367,29.4,63,0.0,948.6,7.95,51.1,70,63.1,27.0,2.1,131.0,91.0,4.5,7,5,7,1,2026-07-09T17:41:45.876430+05:30
Sagar,Madhya Pradesh,23.8388,78.7378,29.5,67,0.0,943.2,7.05,50.8,58,33.5,20.7,4.2,149.0,71.0,4.4,7,5,7,1,2026-07-09T17:41:45.876438+05:30
Satna,Madhya Pradesh,24.6005,80.8322,30.5,66,0.0,963.3,8.2,46.4,55,25.6,16.2,4.3,192.0,93.0,3.1,3,5,7,1,2026-07-09T17:41:45.876446+05:30
Akola,Maharashtra,20.7002,77.0082,31.5,60,0.0,969.6,5.65,51.8,50,35.2,17.2,4.4,132.0,72.0,8.0,0,5,3,1,2026-07-09T17:41:45.876455+05:30
Amravati,Maharashtra,20.9374,77.7796,29.7,66,0.0,962.2,8.15,51.5,51,36.1,16.6,4.9,143.0,70.0,9.1,7,5,7,1,2026-07-09T17:41:45.876463+05:30
Latur,Maharashtra,18.4088,76.5604,30.4,56,0.0,935.8,5.55,49.3,37,32.0,13.3,1.7,132.0,80.0,2.1,0,5,3,1,2026-07-09T17:41:45.876471+05:30
Nanded,Maharashtra,19.1383,77.3091,31.7,59,0.0,963.7,7.9,45.7,50,44.7,19.0,2.7,175.0,81.0,2.7,0,5,7,1,2026-07-09T17:41:45.876479+05:30
Gulbarga,Karnataka,17.3297,76.8343,30.8,58,0.1,954.6,5.2,51.1,33,26.0,11.4,3.5,143.0,75.0,2.1,3,5,3,1,2026-07-09T17:41:45.876486+05:30
Bidar,Karnataka,17.9104,77.5199,29.1,66,0.1,931.6,5.8,47.5,37,33.8,14.2,3.0,150.0,81.0,1.7,10,5,3,1,2026-07-09T17:41:45.876494+05:30
Hospet,Karnataka,15.2689,76.3909,29.4,63,0.0,953.1,7.35,53.3,30,15.1,7.7,3.3,133.0,61.0,1.5,7,5,7,1,2026-07-09T17:41:45.876502+05:30
Tirupur,Tamil Nadu,11.1085,77.3411,29.7,63,0.0,973.5,8.5,50.8,39,10.7,7.0,5.1,142.0,68.0,2.4,7,5,7,1,2026-07-09T17:41:45.876509+05:30
Alappuzha,Kerala,9.4981,76.3388,28.1,80,0.0,1009.1,8.5,48.6,52,18.7,11.1,5.4,87.0,59.0,2.6,7,0,4,1,2026-07-09T17:41:45.876517+05:30
Munnar,Kerala,10.0889,77.0595,18.1,94,0.1,856.8,8.8,36.0,24,6.7,4.6,4.8,105.0,49.0,1.0,6,10,7,1,2026-07-09T17:41:45.876525+05:30
Silchar,Assam,24.8333,92.7789,28.9,82,0.0,999.4,0.35,29.5,35,11.8,9.9,5.6,208.0,58.0,3.1,7,5,3,1,2026-07-09T17:41:45.876532+05:30
Dibrugarh,Assam,27.4728,94.912,27.8,92,0.0,988.5,5.25,28.4,55,9.3,9.2,6.4,200.0,73.0,1.4,7,5,3,1,2026-07-09T17:41:45.876540+05:30
