city,state,latitude,longitude,temp,humidity,rain,pressure,uv_index,wind_gusts,aqi,pm10,pm2_5,no2,co,o3,so2,mosquito_risk,arthritis_risk,migraine_risk,frizz_risk,updated_at
Delhi,Delhi,28.6139,77.209,35.4,42,0.0,980.8,7.75,31.0,166,164.4,70.8,33.3,668.0,99.0,39.1,0,5,10,1,2026-06-26T09:28:49.218141+05:30
Mumbai,Maharashtra,19.076,72.8777,28.4,79,0.0,1008.3,7.45,34.2,58,36.0,18.0,12.5,288.0,51.0,15.3,7,0,4,1,2026-06-26T09:28:49.218181+05:30
Bangalore,Karnataka,12.9716,77.5946,24.6,69,0.0,912.7,6.75,49.3,30,15.8,9.0,9.2,326.0,39.0,4.6,3,5,7,1,2026-06-26T09:28:49.218197+05:30
Hyderabad,Telangana,17.385,78.4867,26.8,74,0.0,952.3,6.45,42.1,55,22.6,13.9,7.9,344.0,68.0,6.5,7,5,7,1,2026-06-26T09:28:49.218207+05:30
Chennai,Tamil Nadu,13.0827,80.2707,32.9,50,0.0,1006.3,8.55,44.6,58,22.1,17.8,16.3,422.0,47.0,12.9,0,5,4,1,2026-06-26T09:28:49.218215+05:30
Kolkata,West Bengal,22.5726,88.3639,29.8,83,0.0,1005.1,8.9,23.4,103,35.6,28.3,5.2,387.0,110.0,10.2,7,5,4,1,2026-06-26T09:28:49.218222+05:30
Pune,Maharashtra,18.5204,73.8567,25.9,75,0.0,948.0,7.75,38.9,38,13.1,7.4,6.7,163.0,46.0,7.5,7,5,7,1,2026-06-26T09:28:49.218229+05:30
Ahmedabad,Gujarat,23.0225,72.5714,32.7,58,0.0,1000.8,8.05,33.8,73,37.5,16.7,4.6,150.0,50.0,4.6,0,5,4,1,2026-06-26T09:28:49.218235+05:30
Jaipur,Rajasthan,26.9124,75.7873,32.2,51,0.0,958.5,8.15,28.1,110,121.5,40.3,9.2,220.0,61.0,7.6,0,5,7,1,2026-06-26T09:28:49.218241+05:30
Lucknow,Uttar Pradesh,26.8467,80.9462,37.2,38,0.0,990.5,8.35,29.9,149,103.1,50.2,13.4,461.0,109.0,12.6,0,5,10,1,2026-06-26T09:28:49.218252+05:30
Kanpur,Uttar Pradesh,26.4499,80.3319,37.2,35,0.0,988.8,8.3,28.4,132,185.8,48.8,9.7,248.0,93.0,8.5,0,5,10,1,2026-06-26T09:28:49.218259+05:30
Chandigarh,Chandigarh,30.7333,76.7794,33.7,50,0.0,967.1,7.8,19.1,152,121.1,46.0,9.1,601.0,158.0,9.2,0,5,7,1,2026-06-26T09:28:49.218266+05:30
Srinagar,Jammu and Kashmir,34.0837,74.7973,23.6,59,0.0,843.9,9.05,21.2,81,25.1,23.5,9.9,435.0,97.0,3.2,0,5,7,0,2026-06-26T09:28:49.218272+05:30
Jammu,Jammu and Kashmir,32.7266,74.857,33.3,44,0.0,971.2,8.65,24.1,117,40.7,37.0,18.0,325.0,127.0,5.3,0,5,7,1,2026-06-26T09:28:49.218278+05:30
Amritsar,Punjab,31.634,74.8723,31.3,61,0.0,978.6,8.5,20.5,152,81.0,50.5,14.6,503.0,99.0,6.6,3,5,7,1,2026-06-26T09:28:49.218285+05:30
Ludhiana,Punjab,30.901,75.8573,34.3,50,0.0,976.6,8.05,23.4,160,177.9,75.4,17.5,794.0,94.0,11.9,0,5,7,1,2026-06-26T09:28:49.218291+05:30
Jalandhar,Punjab,31.326,75.5762,33.7,48,0.0,977.8,8.25,26.3,151,111.3,58.3,15.7,550.0,94.0,7.8,0,5,7,1,2026-06-26T09:28:49.218300+05:30
Dehradun,Uttarakhand,30.6284,78.0322,23.6,65,0.0,833.2,7.0,31.0,79,35.5,17.9,2.6,206.0,133.0,1.2,3,5,7,1,2026-06-26T09:28:49.218310+05:30
Shimla,Himachal Pradesh,31.1048,77.1734,21.2,57,0.0,787.8,7.65,33.8,87,37.4,24.7,3.8,263.0,129.0,0.5,0,5,7,0,2026-06-26T09:28:49.218316+05:30
Manali,Himachal Pradesh,32.2396,77.1887,24.5,50,0.0,821.9,8.15,35.6,61,4.2,3.3,17.7,203.0,98.0,0.1,0,5,7,0,2026-06-26T09:28:49.218328+05:30
Gurgaon,Haryana,28.4595,77.0266,34.3,47,0.0,979.4,7.8,25.2,158,109.2,46.3,23.5,452.0,77.0,17.7,0,5,7,1,2026-06-26T09:28:49.218335+05:30
Noida,Uttar Pradesh,28.5355,77.391,34.8,46,0.0,982.2,7.8,22.0,158,109.2,46.3,23.5,754.0,77.0,17.7,0,5,7,1,2026-06-26T09:28:49.218341+05:30
Ghaziabad,Uttar Pradesh,28.6692,77.4538,34.5,48,0.0,980.5,7.8,18.4,166,122.9,63.6,24.5,532.0,133.0,30.7,0,5,7,1,2026-06-26T09:28:49.218349+05:30
Faridabad,Haryana,28.4089,77.3178,35.0,43,0.0,981.6,7.8,29.2,158,109.2,46.3,23.5,518.0,77.0,17.7,0,5,7,1,2026-06-26T09:28:49.218356+05:30
Meerut,Uttar Pradesh,28.9845,77.7064,34.5,45,0.0,979.5,7.7,24.8,166,122.9,63.6,24.5,539.0,133.0,30.7,0,5,7,1,2026-06-26T09:28:49.218362+05:30
Agra,Uttar Pradesh,27.1767,78.0081,34.3,49,0.0,985.6,8.1,27.0,180,293.4,54.2,13.4,295.0,80.0,8.0,0,5,7,1,2026-06-26T09:28:49.218368+05:30
Varanasi,Uttar Pradesh,25.3176,82.9739,35.6,51,0.0,994.9,8.4,24.8,100,28.1,21.7,7.8,285.0,108.0,11.3,0,5,10,1,2026-06-26T09:28:49.218374+05:30
Prayagraj,Uttar Pradesh,25.4358,81.8463,34.6,50,0.0,993.6,8.7,31.3,122,44.7,27.5,7.9,230.0,104.0,10.3,0,5,7,1,2026-06-26T09:28:49.218381+05:30
Gorakhpur,Uttar Pradesh,26.7606,83.3732,32.9,63,0.0,995.0,8.7,25.2,155,68.5,47.3,8.1,510.0,139.0,11.5,3,5,7,1,2026-06-26T09:28:49.218387+05:30
Bareilly,Uttar Pradesh,28.367,79.4304,35.7,44,0.0,984.3,8.1,22.3,160,110.4,56.3,10.3,433.0,175.0,16.4,0,5,10,1,2026-06-26T09:28:49.218395+05:30
Aligarh,Uttar Pradesh,27.8974,78.088,34.3,50,0.0,983.4,7.95,22.3,161,109.4,40.9,13.6,425.0,92.0,7.3,0,5,7,1,2026-06-26T09:28:49.218401+05:30
Moradabad,Uttar Pradesh,28.8386,78.7733,35.6,44,0.0,981.4,7.95,29.9,158,95.9,47.4,12.0,504.0,155.0,13.5,0,5,10,1,2026-06-26T09:28:49.218410+05:30
Saharanpur,Uttar Pradesh,29.9637,77.546,33.6,53,0.0,973.9,7.55,20.9,149,112.7,50.2,11.2,541.0,156.0,9.4,0,5,7,1,2026-06-26T09:28:49.218418+05:30
Jhansi,Uttar Pradesh,25.4484,78.5685,33.3,53,0.0,976.4,8.45,29.9,74,32.0,19.3,5.9,171.0,78.0,12.0,0,5,7,1,2026-06-26T09:28:52.478505+05:30
Surat,Gujarat,21.1702,72.8311,31.7,62,0.0,1005.7,7.1,42.8,82,61.0,29.2,19.1,340.0,35.0,54.3,3,5,4,1,2026-06-26T09:28:52.478537+05:30
Vadodara,Gujarat,22.3072,73.1812,33.1,52,0.0,1003.0,8.0,45.0,81,42.6,21.0,8.0,259.0,45.0,8.9,0,5,4,1,2026-06-26T09:28:52.478547+05:30
Rajkot,Gujarat,22.3039,70.8022,31.8,57,0.0,992.9,7.55,41.8,65,50.8,18.9,3.7,113.0,51.0,5.5,0,5,7,1,2026-06-26T09:28:52.478556+05:30
Thane,Maharashtra,19.2183,72.9781,28.6,81,0.0,1007.7,7.25,31.7,58,36.0,18.0,12.5,240.0,51.0,15.3,7,5,4,1,2026-06-26T09:28:52.478565+05:30
Nagpur,Maharashtra,21.1458,79.0882,29.8,68,0.0,971.9,8.9,24.5,79,34.3,21.7,23.0,298.0,71.0,47.8,7,5,7,1,2026-06-26T09:28:52.478572+05:30
Nashik,Maharashtra,19.9975,73.7898,27.1,70,0.0,945.3,7.65,41.4,54,16.6,8.4,7.5,137.0,42.0,10.4,7,5,7,1,2026-06-26T09:28:52.478580+05:30
Aurangabad,Maharashtra,19.8762,75.3433,27.3,69,0.0,943.8,8.05,37.1,59,48.2,18.6,4.3,145.0,53.0,8.1,7,5,7,1,2026-06-26T09:28:52.478587+05:30
Solapur,Maharashtra,17.6599,75.9064,28.7,63,0.0,957.3,3.5,37.4,44,18.6,9.5,6.0,137.0,45.0,4.7,7,5,3,1,2026-06-26T09:28:52.478594+05:30
Kolhapur,Maharashtra,16.705,74.2433,26.5,73,0.0,948.5,8.45,44.6,29,16.3,8.8,4.8,141.0,46.0,2.5,7,5,7,1,2026-06-26T09:28:52.478602+05:30
Goa,Goa,15.2993,74.124,27.2,86,0.0,999.4,6.2,32.8,53,18.7,9.9,2.1,164.0,53.0,1.5,7,5,7,1,2026-06-26T09:28:52.478610+05:30
Jodhpur,Rajasthan,26.2389,73.0243,32.0,57,0.0,981.3,8.4,30.2,116,158.8,41.2,2.6,122.0,52.0,3.1,0,5,7,1,2026-06-26T09:28:52.478617+05:30
Udaipur,Rajasthan,24.5854,73.7125,30.6,54,0.0,945.3,8.6,36.0,75,31.5,17.0,2.6,123.0,58.0,3.6,0,5,7,1,2026-06-26T09:28:52.478625+05:30
Kota,Rajasthan,25.2138,75.8648,32.3,53,0.0,977.2,7.6,32.0,80,66.4,32.8,6.5,260.0,70.0,5.7,0,5,7,1,2026-06-26T09:28:52.478632+05:30
Bikaner,Rajasthan,28.0229,73.3119,33.8,47,0.0,979.6,8.45,31.0,148,100.4,32.1,2.1,139.0,62.0,3.3,0,5,7,1,2026-06-26T09:28:52.478640+05:30
Ajmer,Rajasthan,26.4499,74.6399,31.1,51,0.0,953.4,8.25,29.5,94,81.5,31.9,5.4,170.0,61.0,4.6,0,5,7,1,2026-06-26T09:28:52.478647+05:30
Gwalior,Madhya Pradesh,26.2183,78.1828,34.0,50,0.0,981.2,8.25,31.7,79,37.8,20.2,6.4,177.0,73.0,11.0,0,5,7,1,2026-06-26T09:28:52.478654+05:30
Indore,Madhya Pradesh,22.7196,75.8577,28.8,70,0.0,947.1,7.3,37.1,102,48.7,27.0,7.9,214.0,53.0,14.8,7,5,7,1,2026-06-26T09:28:52.478663+05:30
Bhopal,Madhya Pradesh,23.2599,77.4126,28.6,67,0.0,952.8,8.6,25.9,83,60.5,32.5,5.0,382.0,78.0,4.7,7,5,7,1,2026-06-26T09:28:52.478670+05:30
Jabalpur,Madhya Pradesh,23.1815,79.9864,30.3,63,0.0,960.6,8.85,21.6,68,34.9,19.8,4.0,217.0,94.0,4.1,3,5,7,1,2026-06-26T09:28:52.478678+05:30
Ujjain,Madhya Pradesh,23.1765,75.7885,29.7,67,0.0,952.7,6.25,46.1,94,50.6,27.6,6.8,189.0,55.0,14.8,7,5,7,1,2026-06-26T09:28:52.478686+05:30
Visakhapatnam,Andhra Pradesh,17.6868,83.2185,31.0,74,0.0,1001.4,8.6,29.2,86,35.5,29.2,20.8,339.0,81.0,47.0,3,5,4,1,2026-06-26T09:28:52.478693+05:30
Vijayawada,Andhra Pradesh,16.5062,80.648,32.7,55,0.0,1000.6,8.45,38.2,77,41.0,26.6,6.6,191.0,85.0,7.8,0,5,4,1,2026-06-26T09:28:52.478700+05:30
Guntur,Andhra Pradesh,16.3067,80.4365,33.0,52,0.0,1001.8,8.1,49.7,79,35.4,23.7,6.8,193.0,74.0,7.5,0,5,4,1,2026-06-26T09:28:52.478707+05:30
Nellore,Andhra Pradesh,14.4426,79.9865,32.8,53,0.0,1004.5,8.45,40.0,46,16.1,8.9,4.4,178.0,50.0,6.8,0,5,4,1,2026-06-26T09:28:52.478715+05:30
Kurnool,Andhra Pradesh,15.8281,78.0373,30.0,58,0.0,976.7,4.25,48.6,42,10.7,7.2,5.5,157.0,42.0,5.0,4,5,3,1,2026-06-26T09:28:52.478723+05:30
Kakinada,Andhra Pradesh,16.9891,82.2475,31.8,70,0.0,1005.0,7.3,32.4,58,26.1,18.5,4.0,218.0,109.0,6.0,3,5,4,1,2026-06-26T09:28:52.478730+05:30
Tirupati,Andhra Pradesh,13.6288,79.4192,32.3,50,0.0,990.4,7.85,37.1,44,17.5,9.4,3.4,130.0,58.0,1.7,0,5,7,1,2026-06-26T09:28:52.478737+05:30
Warangal,Telangana,17.9689,79.5941,30.0,66,0.0,977.3,8.1,36.7,65,23.5,17.7,4.4,208.0,84.0,4.5,7,5,7,1,2026-06-26T09:28:52.478744+05:30
Nizamabad,Telangana,18.6725,78.0941,27.5,76,0.0,964.1,7.3,41.8,65,43.7,24.9,5.8,216.0,69.0,5.4,7,5,7,1,2026-06-26T09:28:52.478752+05:30
Mysore,Karnataka,12.2958,76.6396,25.6,72,0.0,930.0,8.8,44.6,26,10.0,6.1,4.8,136.0,46.0,2.3,7,5,7,1,2026-06-26T09:28:52.478758+05:30
Mangalore,Karnataka,12.9141,74.856,26.3,85,0.0,1008.9,8.2,33.5,48,17.8,10.0,5.1,162.0,50.0,3.5,7,0,4,1,2026-06-26T09:28:52.478765+05:30
Hubli-Dharwad,Karnataka,15.3647,75.124,25.0,78,0.0,941.5,8.2,47.9,18,3.7,2.4,3.7,122.0,45.0,1.5,7,5,7,1,2026-06-26T09:28:52.478772+05:30
Belgaum,Karnataka,15.8497,74.4977,24.3,78,0.0,926.3,7.9,44.3,22,6.2,3.9,3.7,113.0,47.0,2.1,3,5,7,1,2026-06-26T09:28:55.746758+05:30
Coimbatore,Tamil Nadu,11.0168,76.9558,27.9,67,0.0,963.0,8.5,47.5,31,14.7,8.1,3.8,196.0,52.0,3.3,7,5,7,1,2026-06-26T09:28:55.746792+05:30
Madurai,Tamil Nadu,9.9252,78.1198,32.3,46,0.0,993.4,7.85,29.9,67,18.2,15.3,14.5,170.0,57.0,7.2,0,5,7,1,2026-06-26T09:28:55.746806+05:30
Trichy,Tamil Nadu,10.7905,78.7047,31.8,55,0.0,999.9,8.2,41.8,40,11.9,8.3,5.1,145.0,46.0,3.8,0,5,7,1,2026-06-26T09:28:55.746816+05:30
Salem,Tamil Nadu,11.6643,78.146,29.0,64,0.0,978.4,8.7,36.4,63,22.4,17.6,14.2,144.0,50.0,14.8,7,5,7,1,2026-06-26T09:28:55.746826+05:30
Tirunelveli,Tamil Nadu,8.7139,77.7567,33.2,50,0.0,1003.9,8.7,51.1,25,5.9,4.2,3.3,119.0,49.0,1.9,0,5,4,1,2026-06-26T09:28:55.746835+05:30
Vellore,Tamil Nadu,12.9165,79.1325,30.3,58,0.0,984.1,8.45,40.7,47,16.4,9.8,6.3,159.0,51.0,4.4,0,5,7,1,2026-06-26T09:28:55.746844+05:30
Erode,Tamil Nadu,11.341,77.7172,30.8,57,0.0,990.0,8.6,41.4,52,15.9,11.9,8.8,202.0,46.0,4.3,0,5,7,1,2026-06-26T09:28:55.746852+05:30
Kochi,Kerala,9.9312,76.2673,26.4,85,0.1,1011.8,8.2,36.4,51,11.9,8.8,6.3,145.0,49.0,3.9,10,0,4,1,2026-06-26T09:28:55.746862+05:30
Thiruvananthapuram,Kerala,8.5241,76.9366,26.4,87,0.1,1010.7,8.45,46.8,30,9.9,6.2,3.0,139.0,52.0,1.6,10,0,4,1,2026-06-26T09:28:55.746872+05:30
Kozhikode,Kerala,11.2588,75.7804,27.1,83,0.0,1010.3,8.35,34.2,29,10.2,5.0,1.3,142.0,55.0,1.0,7,0,4,1,2026-06-26T09:28:55.746880+05:30
Thrissur,Kerala,10.5276,76.2144,28.0,80,0.0,1009.6,8.4,37.4,50,13.0,10.3,5.9,192.0,49.0,3.1,7,0,4,1,2026-06-26T09:28:55.746889+05:30
Kannur,Kerala,11.8745,75.3704,26.9,85,0.0,1009.4,8.2,37.1,35,13.0,7.8,6.3,167.0,43.0,3.0,7,0,4,1,2026-06-26T09:28:55.746898+05:30
Patna,Bihar,25.5941,85.1376,33.9,61,0.0,998.1,8.9,24.5,142,59.6,55.9,9.8,435.0,139.0,17.9,3,5,7,1,2026-06-26T09:28:55.746907+05:30
Gaya,Bihar,24.7914,85.0002,34.5,53,0.0,991.6,8.6,17.6,98,28.6,26.2,6.4,254.0,123.0,11.7,0,5,7,1,2026-06-26T09:28:55.746915+05:30
Muzaffarpur,Bihar,26.1209,85.3647,31.7,71,0.0,998.3,8.85,29.5,154,57.9,53.8,8.5,586.0,140.0,16.9,3,5,7,1,2026-06-26T09:28:55.746923+05:30
Bhagalpur,Bihar,25.2425,87.0117,31.8,67,0.0,999.5,8.65,25.6,138,30.3,28.2,11.9,567.0,100.0,25.6,3,5,7,1,2026-06-26T09:28:55.746931+05:30
Ranchi,Jharkhand,23.3441,85.3096,30.1,60,0.0,937.2,7.95,23.4,82,18.9,18.5,4.7,266.0,134.0,23.1,0,5,7,1,2026-06-26T09:28:55.746939+05:30
Jamshedpur,Jharkhand,22.8046,86.2029,29.4,80,0.0,990.1,9.1,22.3,95,36.0,33.8,21.0,397.0,103.0,45.4,7,5,7,1,2026-06-26T09:28:55.746947+05:30
Dhanbad,Jharkhand,23.7957,86.4304,27.6,91,0.0,978.9,8.85,29.5,153,55.9,53.6,47.3,593.0,69.0,117.7,7,5,7,1,2026-06-26T09:28:55.746956+05:30
Bokaro,Jharkhand,23.6693,86.1511,28.9,81,0.0,982.7,8.55,30.6,153,44.8,43.1,28.9,366.0,109.0,88.9,7,5,7,1,2026-06-26T09:28:55.746964+05:30
Bhubaneswar,Odisha,20.2961,85.8245,32.1,74,0.0,1000.6,9.05,34.6,81,27.0,23.9,5.4,335.0,139.0,12.1,3,5,4,1,2026-06-26T09:28:55.746973+05:30
Cuttack,Odisha,20.4625,85.8828,32.1,74,0.0,1002.4,9.1,42.8,81,27.0,23.9,5.4,347.0,139.0,12.1,3,5,4,1,2026-06-26T09:28:55.746982+05:30
Rourkela,Odisha,22.2604,84.8536,33.6,54,0.0,983.5,8.95,36.4,81,16.8,16.4,6.6,402.0,132.0,23.4,0,5,7,1,2026-06-26T09:28:55.746991+05:30
Raipur,Chhattisgarh,21.2514,81.6296,34.1,47,0.0,972.9,8.95,34.9,86,38.3,37.5,31.8,588.0,82.0,77.0,0,5,7,1,2026-06-26T09:28:55.746999+05:30
Bhilai,Chhattisgarh,21.1938,81.3509,33.2,50,0.0,973.5,8.95,29.9,84,37.7,36.8,27.7,999.0,88.0,72.1,0,5,7,1,2026-06-26T09:28:55.747008+05:30
Guwahati,Assam,26.1158,91.7086,30.0,78,0.0,1000.7,8.8,27.0,96,44.0,34.8,2.6,324.0,121.0,6.1,7,5,4,1,2026-06-26T09:28:55.747015+05:30
Agartala,Tripura,23.8315,91.2868,29.9,76,0.0,1005.8,8.4,25.2,88,34.6,22.8,6.0,182.0,101.0,3.7,7,5,4,1,2026-06-26T09:28:55.747022+05:30
Shillong,Meghalaya,25.5788,91.8933,25.6,60,0.0,859.3,6.2,20.9,65,21.5,14.8,2.1,252.0,123.0,4.1,4,5,7,1,2026-06-26T09:28:55.747029+05:30
Imphal,Manipur,24.817,93.9368,26.8,81,0.0,923.3,8.8,29.2,62,11.9,9.2,2.1,225.0,108.0,3.0,7,5,7,1,2026-06-26T09:28:55.747036+05:30
Aizawl,Mizoram,23.7271,92.7176,24.3,68,0.0,893.3,8.2,26.6,66,35.4,17.1,1.4,157.0,102.0,2.2,3,5,7,1,2026-06-26T09:28:55.747043+05:30
Kohima,Nagaland,25.6701,94.1077,24.4,72,0.0,857.1,8.85,28.1,54,19.0,13.4,2.0,221.0,101.0,2.0,3,5,7,1,2026-06-26T09:28:55.747050+05:30
Gangtok,Sikkim,27.3314,88.6138,23.0,73,0.0,839.8,8.45,34.6,85,20.6,16.6,2.7,343.0,139.0,3.9,3,5,7,1,2026-06-26T09:28:55.747077+05:30
Siliguri,West Bengal,26.7271,88.3953,29.0,79,0.0,992.4,8.65,22.3,121,46.8,37.3,5.1,507.0,144.0,7.0,7,5,7,1,2026-06-26T09:28:59.008708+05:30
Durgapur,West Bengal,23.5204,87.3119,30.1,73,0.0,994.0,9.0,24.8,148,38.3,35.6,22.6,830.0,80.0,56.1,3,5,7,1,2026-06-26T09:28:59.008741+05:30
Asansol,West Bengal,23.6739,86.9524,29.8,76,0.0,992.5,9.05,25.9,132,39.0,36.8,26.0,528.0,72.0,62.6,7,5,7,1,2026-06-26T09:28:59.008753+05:30
Pondicherry,Puducherry,11.9139,79.8145,32.0,54,0.0,1008.0,7.7,41.4,64,26.1,21.9,17.8,222.0,51.0,13.5,0,0,4,1,2026-06-26T09:28:59.008764+05:30
Port Blair,Andaman and Nicobar Islands,11.6234,92.7265,27.4,87,0.1,1008.7,8.7,37.1,25,5.8,3.6,0.4,104.0,57.0,0.3,10,0,4,1,2026-06-26T09:28:59.008773+05:30
Haridwar,Uttarakhand,29.9457,78.1642,33.6,53,0.0,972.2,7.65,20.2,123,88.5,36.4,4.8,295.0,157.0,6.3,0,5,7,1,2026-06-26T09:28:59.008783+05:30
Rishikesh,Uttarakhand,30.0869,78.2676,32.8,53,0.0,965.3,7.75,21.2,97,47.6,22.5,2.5,283.0,140.0,2.6,0,5,7,1,2026-06-26T09:28:59.008792+05:30
Nainital,Uttarakhand,29.3919,79.4542,22.8,51,0.0,808.8,7.9,31.0,97,74.3,28.9,1.9,233.0,153.0,5.9,0,5,7,0,2026-06-26T09:28:59.008801+05:30
Mussoorie,Uttarakhand,30.4599,78.0664,22.3,65,0.0,806.4,6.5,34.2,95,44.4,24.6,4.6,237.0,154.0,4.3,3,5,7,0,2026-06-26T09:28:59.008810+05:30
Dharamshala,Himachal Pradesh,32.219,76.3234,25.7,60,0.0,870.4,8.55,42.5,55,33.9,19.4,2.2,252.0,122.0,1.4,4,5,7,1,2026-06-26T09:28:59.008817+05:30
Dalhousie,Himachal Pradesh,32.5387,75.971,22.8,59,0.0,807.7,8.15,30.6,103,58.9,32.6,4.9,246.0,147.0,2.7,0,5,7,0,2026-06-26T09:28:59.008826+05:30
Patiala,Punjab,30.3398,76.3869,34.3,53,0.0,976.1,7.7,23.8,161,232.8,73.8,10.3,552.0,111.0,11.3,0,5,7,1,2026-06-26T09:28:59.008834+05:30
Bhatinda,Punjab,30.211,74.9455,33.6,51,0.0,981.5,7.5,23.8,159,121.1,58.9,13.7,360.0,92.0,7.4,0,5,7,1,2026-06-26T09:28:59.008842+05:30
Rohtak,Haryana,28.8955,76.6066,33.2,54,0.0,979.6,7.1,19.1,161,272.9,65.2,17.0,496.0,76.0,7.7,0,5,7,1,2026-06-26T09:28:59.008850+05:30
Panipat,Haryana,29.3909,76.9635,32.9,57,0.0,978.2,7.0,25.6,176,375.3,87.1,20.5,473.0,83.0,11.0,0,5,7,1,2026-06-26T09:28:59.008858+05:30
Mathura,Uttar Pradesh,27.4924,77.6737,33.8,53,0.0,984.7,8.05,21.6,147,184.4,44.9,16.5,387.0,64.0,6.6,0,5,7,1,2026-06-26T09:28:59.008866+05:30
Vrindavan,Uttar Pradesh,27.5823,77.7027,33.8,53,0.0,985.1,8.0,20.9,147,184.4,44.9,16.5,432.0,64.0,6.6,0,5,7,1,2026-06-26T09:28:59.008873+05:30
Ayodhya,Uttar Pradesh,26.7922,82.1998,33.6,57,0.0,993.0,8.45,37.8,154,67.3,41.3,7.7,497.0,126.0,11.3,0,5,7,1,2026-06-26T09:28:59.008881+05:30
Ratlam,Madhya Pradesh,23.3315,75.0367,29.6,66,0.0,953.8,8.45,33.8,93,49.2,26.3,6.6,154.0,56.0,14.0,7,5,7,1,2026-06-26T09:28:59.008889+05:30
Sagar,Madhya Pradesh,23.8388,78.7378,29.1,66,0.0,949.2,8.4,27.0,72,30.5,17.2,3.7,180.0,86.0,2.2,7,5,7,1,2026-06-26T09:28:59.008897+05:30
Satna,Madhya Pradesh,24.6005,80.8322,32.3,55,0.0,969.9,8.8,32.8,73,47.4,22.5,3.2,187.0,103.0,4.1,0,5,7,1,2026-06-26T09:28:59.008905+05:30
Akola,Maharashtra,20.7002,77.0082,29.7,64,0.0,974.3,8.65,37.4,71,54.8,27.3,6.4,155.0,62.0,10.6,7,5,7,1,2026-06-26T09:28:59.008914+05:30
Amravati,Maharashtra,20.9374,77.7796,28.8,67,0.0,966.6,8.4,39.6,71,60.8,30.9,6.9,172.0,72.0,11.5,7,5,7,1,2026-06-26T09:28:59.008923+05:30
Latur,Maharashtra,18.4088,76.5604,27.7,66,0.0,939.8,6.25,31.3,58,40.9,18.1,4.4,155.0,66.0,7.7,7,5,7,1,2026-06-26T09:28:59.008931+05:30
Nanded,Maharashtra,19.1383,77.3091,27.2,78,0.0,967.9,6.75,31.3,67,51.0,26.0,5.2,194.0,63.0,4.6,7,5,7,1,2026-06-26T09:28:59.008939+05:30
Gulbarga,Karnataka,17.3297,76.8343,28.4,65,0.0,958.6,1.85,34.2,43,14.9,8.1,6.6,163.0,42.0,4.3,7,5,3,1,2026-06-26T09:28:59.008947+05:30
Bidar,Karnataka,17.9104,77.5199,27.4,71,0.0,935.1,4.1,35.3,61,29.7,17.3,6.8,173.0,67.0,6.7,7,5,3,1,2026-06-26T09:28:59.008955+05:30
Hospet,Karnataka,15.2689,76.3909,26.4,72,0.0,956.5,8.8,56.5,21,11.6,6.1,3.4,119.0,46.0,2.1,7,5,7,1,2026-06-26T09:28:59.008962+05:30
Tirupur,Tamil Nadu,11.1085,77.3411,29.1,62,0.0,976.4,8.4,51.8,55,17.7,13.2,9.3,160.0,48.0,4.9,7,5,7,1,2026-06-26T09:28:59.008970+05:30
Alappuzha,Kerala,9.4981,76.3388,26.3,89,0.1,1011.8,7.7,41.0,43,11.1,7.5,5.6,91.0,51.0,3.0,10,0,4,1,2026-06-26T09:28:59.008978+05:30
Munnar,Kerala,10.0889,77.0595,19.3,87,0.1,858.7,8.4,40.0,24,5.7,3.6,3.0,95.0,45.0,1.4,6,10,7,1,2026-06-26T09:28:59.008987+05:30
Silchar,Assam,24.8333,92.7789,28.9,77,0.0,1004.8,8.9,23.0,91,30.2,20.4,4.6,247.0,85.0,6.8,7,5,4,1,2026-06-26T09:28:59.008995+05:30
Dibrugarh,Assam,27.4728,94.912,28.1,82,0.0,994.5,8.9,26.6,81,26.6,21.1,2.9,292.0,117.0,2.7,7,5,7,1,2026-06-26T09:28:59.009004+05:30
