city,state,latitude,longitude,temp,humidity,rain,pressure,uv_index,wind_gusts,aqi,pm10,pm2_5,mosquito_risk,arthritis_risk,migraine_risk,frizz_risk,updated_at
Delhi,Delhi,28.6139,77.209,24.4,48,0.0,983.8,6.9,35.6,146,93.8,45.4,0,5,7,0,2026-04-08T18:55:41.625400+05:30
Mumbai,Maharashtra,19.076,72.8777,28.7,75,0.0,1008.5,7.9,20.2,77,59.6,20.1,7,0,4,1,2026-04-08T18:55:41.625452+05:30
Bangalore,Karnataka,12.9716,77.5946,31.7,28,0.0,911.0,9.6,26.6,185,23.4,21.8,0,5,7,0,2026-04-08T18:55:41.625468+05:30
Hyderabad,Telangana,17.385,78.4867,34.7,24,0.0,951.7,9.15,23.4,108,70.5,29.6,0,5,7,0,2026-04-08T18:55:41.625477+05:30
Chennai,Tamil Nadu,13.0827,80.2707,29.9,79,0.0,1005.9,9.35,35.6,84,30.0,23.6,7,5,4,1,2026-04-08T18:55:41.625486+05:30
Kolkata,West Bengal,22.5726,88.3639,25.7,83,0.0,1007.0,8.7,24.8,104,33.1,30.0,7,5,4,1,2026-04-08T18:55:41.625496+05:30
Pune,Maharashtra,18.5204,73.8567,29.6,46,0.0,948.4,8.5,41.0,75,64.7,20.4,4,5,7,1,2026-04-08T18:55:41.625509+05:30
Ahmedabad,Gujarat,23.0225,72.5714,33.4,23,0.0,1000.1,8.0,31.3,69,29.8,12.1,0,5,4,0,2026-04-08T18:55:41.625517+05:30
Jaipur,Rajasthan,26.9124,75.7873,26.3,34,0.0,959.1,7.65,35.6,115,237.5,37.0,4,5,7,0,2026-04-08T18:55:41.625525+05:30
Lucknow,Uttar Pradesh,26.8467,80.9462,21.4,78,0.0,996.1,6.95,41.0,106,75.0,41.1,3,5,7,1,2026-04-08T18:55:41.625534+05:30
Kanpur,Uttar Pradesh,26.4499,80.3319,23.8,67,0.0,993.5,7.45,35.3,116,251.5,48.2,3,5,7,1,2026-04-08T18:55:41.625541+05:30
Chandigarh,Chandigarh,30.7333,76.7794,19.1,83,0.0,970.4,6.85,30.6,98,32.7,17.9,3,10,7,1,2026-04-08T18:55:41.625549+05:30
Srinagar,Jammu and Kashmir,34.0837,74.7973,8.4,88,0.2,836.9,1.3,16.6,85,8.4,8.2,6,10,3,0,2026-04-08T18:55:41.625556+05:30
Jammu,Jammu and Kashmir,32.7266,74.857,18.5,82,0.0,974.3,7.3,27.7,84,22.1,14.6,3,10,7,0,2026-04-08T18:55:41.625564+05:30
Amritsar,Punjab,31.634,74.8723,18.4,82,0.0,982.6,7.45,18.0,98,45.4,27.6,3,10,7,0,2026-04-08T18:55:41.625571+05:30
Ludhiana,Punjab,30.901,75.8573,18.8,78,0.0,980.7,6.95,23.8,94,46.9,26.1,3,5,7,0,2026-04-08T18:55:41.625579+05:30
Jalandhar,Punjab,31.326,75.5762,19.7,73,0.0,981.8,7.05,22.7,95,47.7,24.3,3,5,7,0,2026-04-08T18:55:41.625587+05:30
Dehradun,Uttarakhand,30.6284,78.0322,9.9,84,0.0,827.1,6.1,42.5,96,5.7,3.3,3,10,7,0,2026-04-08T18:55:41.625595+05:30
Shimla,Himachal Pradesh,31.1048,77.1734,8.3,88,0.0,780.4,1.2,41.0,92,6.5,4.8,3,10,3,0,2026-04-08T18:55:41.625602+05:30
Manali,Himachal Pradesh,32.2396,77.1887,10.1,98,0.4,813.6,5.45,29.9,124,3.1,2.8,6,10,3,0,2026-04-08T18:55:41.625609+05:30
Gurgaon,Haryana,28.4595,77.0266,23.6,55,0.0,982.0,7.05,27.7,498,299.0,62.4,0,5,7,0,2026-04-08T18:55:41.625616+05:30
Noida,Uttar Pradesh,28.5355,77.391,24.3,50,0.0,985.5,6.95,36.7,498,299.0,62.4,0,5,7,0,2026-04-08T18:55:41.625623+05:30
Ghaziabad,Uttar Pradesh,28.6692,77.4538,22.3,65,0.0,984.0,6.9,34.9,111,63.3,36.4,3,5,7,0,2026-04-08T18:55:41.625631+05:30
Faridabad,Haryana,28.4089,77.3178,24.1,49,0.0,984.5,7.0,30.2,498,299.0,62.4,0,5,7,0,2026-04-08T18:55:41.625638+05:30
Meerut,Uttar Pradesh,28.9845,77.7064,19.1,80,0.0,983.4,6.7,30.2,111,63.3,36.4,3,5,7,0,2026-04-08T18:55:41.625645+05:30
Agra,Uttar Pradesh,27.1767,78.0081,25.2,52,0.0,988.0,7.35,29.5,320,596.0,70.3,4,5,7,0,2026-04-08T18:55:41.625652+05:30
Varanasi,Uttar Pradesh,25.3176,82.9739,26.9,50,0.0,998.5,7.3,36.7,139,50.3,31.5,4,5,7,0,2026-04-08T18:55:41.625661+05:30
Prayagraj,Uttar Pradesh,25.4358,81.8463,26.8,55,0.0,996.6,8.0,33.8,138,56.2,30.5,4,5,7,1,2026-04-08T18:55:41.625668+05:30
Gorakhpur,Uttar Pradesh,26.7606,83.3732,21.1,71,0.0,1000.0,7.4,38.5,93,46.7,32.8,3,5,4,0,2026-04-08T18:55:41.625675+05:30
Bareilly,Uttar Pradesh,28.367,79.4304,20.1,82,0.0,989.2,7.15,31.7,93,71.2,38.8,3,5,7,1,2026-04-08T18:55:41.625682+05:30
Aligarh,Uttar Pradesh,27.8974,78.088,24.0,56,0.0,986.6,7.1,25.9,172,203.5,35.3,0,5,7,0,2026-04-08T18:55:41.625689+05:30
Moradabad,Uttar Pradesh,28.8386,78.7733,20.2,80,0.0,985.9,6.95,27.4,102,53.7,34.1,3,5,7,1,2026-04-08T18:55:41.625695+05:30
Saharanpur,Uttar Pradesh,29.9637,77.546,19.6,78,0.0,977.7,6.2,29.9,90,43.3,28.8,3,5,7,0,2026-04-08T18:55:41.625704+05:30
Jhansi,Uttar Pradesh,25.4484,78.5685,28.3,19,0.0,977.8,7.95,42.8,96,54.4,15.9,4,5,7,0,2026-04-08T18:55:44.886133+05:30
Surat,Gujarat,21.1702,72.8311,27.9,81,0.0,1006.1,7.7,38.5,68,45.8,19.5,7,5,4,1,2026-04-08T18:55:44.886173+05:30
Vadodara,Gujarat,22.3072,73.1812,30.9,56,0.0,1002.6,7.95,38.5,64,54.1,23.3,0,5,4,1,2026-04-08T18:55:44.886187+05:30
Rajkot,Gujarat,22.3039,70.8022,31.7,31,0.0,992.8,7.7,38.9,87,21.8,11.4,0,5,7,0,2026-04-08T18:55:44.886196+05:30
Thane,Maharashtra,19.2183,72.9781,28.6,72,0.0,1008.0,7.9,36.0,77,59.6,20.1,7,0,4,1,2026-04-08T18:55:44.886206+05:30
Nagpur,Maharashtra,21.1458,79.0882,30.4,44,0.0,970.6,8.7,37.8,84,63.3,24.1,0,5,7,1,2026-04-08T18:55:44.886216+05:30
Nashik,Maharashtra,19.9975,73.7898,27.0,59,0.0,945.4,8.2,42.1,65,53.7,17.9,4,5,7,1,2026-04-08T18:55:44.886224+05:30
Aurangabad,Maharashtra,19.8762,75.3433,30.6,26,0.0,943.4,8.85,46.1,64,37.7,15.4,0,5,7,0,2026-04-08T18:55:44.886233+05:30
Solapur,Maharashtra,17.6599,75.9064,35.5,21,0.0,955.1,8.95,29.9,72,57.6,19.7,0,5,10,0,2026-04-08T18:55:44.886243+05:30
Kolhapur,Maharashtra,16.705,74.2433,28.2,48,0.0,947.7,8.95,43.9,71,68.2,28.6,4,5,7,1,2026-04-08T18:55:44.886252+05:30
Goa,Goa,15.2993,74.124,28.5,73,0.0,997.7,9.0,38.5,65,57.4,19.5,7,5,7,1,2026-04-08T18:55:44.886261+05:30
Jodhpur,Rajasthan,26.2389,73.0243,28.2,38,0.0,981.6,7.9,29.2,102,159.7,32.8,4,5,7,0,2026-04-08T18:55:44.886269+05:30
Udaipur,Rajasthan,24.5854,73.7125,26.9,33,0.0,945.3,8.5,36.0,81,60.1,17.9,4,5,7,0,2026-04-08T18:55:44.886277+05:30
Kota,Rajasthan,25.2138,75.8648,28.3,40,0.0,977.9,7.95,34.2,113,129.0,37.5,4,5,7,0,2026-04-08T18:55:44.886285+05:30
Bikaner,Rajasthan,28.0229,73.3119,28.6,20,0.0,981.1,7.7,30.2,85,99.4,20.1,4,5,7,0,2026-04-08T18:55:44.886294+05:30
Ajmer,Rajasthan,26.4499,74.6399,26.1,36,0.0,953.6,7.85,34.9,102,80.6,21.6,4,5,7,0,2026-04-08T18:55:44.886302+05:30
Gwalior,Madhya Pradesh,26.2183,78.1828,26.5,47,0.0,983.4,7.65,35.6,89,62.2,17.9,4,5,7,0,2026-04-08T18:55:44.886310+05:30
Indore,Madhya Pradesh,22.7196,75.8577,28.1,34,0.0,946.9,8.4,50.0,71,46.3,21.0,4,5,7,0,2026-04-08T18:55:44.886317+05:30
Bhopal,Madhya Pradesh,23.2599,77.4126,29.4,30,0.0,952.3,8.4,53.6,75,33.9,17.8,4,5,7,0,2026-04-08T18:55:44.886325+05:30
Jabalpur,Madhya Pradesh,23.1815,79.9864,28.9,46,0.0,960.4,8.5,46.8,95,71.2,32.5,4,5,7,1,2026-04-08T18:55:44.886332+05:30
Ujjain,Madhya Pradesh,23.1765,75.7885,28.0,34,0.0,952.7,8.3,45.4,67,36.4,16.5,4,5,7,0,2026-04-08T18:55:44.886366+05:30
Visakhapatnam,Andhra Pradesh,17.6868,83.2185,28.5,84,0.0,1003.0,9.1,37.8,79,33.2,29.5,7,5,4,1,2026-04-08T18:55:44.886376+05:30
Vijayawada,Andhra Pradesh,16.5062,80.648,33.0,53,0.0,1001.0,9.15,26.6,142,44.7,42.0,0,5,4,1,2026-04-08T18:55:44.886385+05:30
Guntur,Andhra Pradesh,16.3067,80.4365,31.2,69,0.0,1002.4,9.15,27.7,152,43.1,39.9,3,5,4,1,2026-04-08T18:55:44.886393+05:30
Nellore,Andhra Pradesh,14.4426,79.9865,30.3,76,0.0,1004.3,9.25,35.6,154,35.2,31.0,3,5,4,1,2026-04-08T18:55:44.886402+05:30
Kurnool,Andhra Pradesh,15.8281,78.0373,36.3,21,0.0,974.7,9.15,23.0,118,41.4,18.9,0,5,10,0,2026-04-08T18:55:44.886412+05:30
Kakinada,Andhra Pradesh,16.9891,82.2475,31.2,68,0.0,1006.2,9.1,29.2,78,27.8,23.9,3,5,4,1,2026-04-08T18:55:44.886420+05:30
Tirupati,Andhra Pradesh,13.6288,79.4192,32.7,50,0.0,989.7,9.4,34.6,151,41.7,39.3,0,5,7,1,2026-04-08T18:55:44.886428+05:30
Warangal,Telangana,17.9689,79.5941,34.1,35,0.0,976.4,9.0,25.2,116,82.2,38.6,0,5,7,1,2026-04-08T18:55:44.886436+05:30
Nizamabad,Telangana,18.6725,78.0941,33.1,35,0.0,962.7,8.95,27.0,82,97.1,40.2,0,5,7,0,2026-04-08T18:55:44.886444+05:30
Mysore,Karnataka,12.2958,76.6396,31.8,35,0.0,927.6,9.45,42.1,121,12.6,11.9,0,5,7,0,2026-04-08T18:55:44.886452+05:30
Mangalore,Karnataka,12.9141,74.856,29.1,77,0.0,1006.1,9.15,33.5,57,72.4,23.6,7,5,4,1,2026-04-08T18:55:44.886460+05:30
Hubli-Dharwad,Karnataka,15.3647,75.124,29.8,55,0.0,940.0,9.2,37.8,102,47.0,21.7,4,5,7,1,2026-04-08T18:55:44.886468+05:30
Belgaum,Karnataka,15.8497,74.4977,27.2,62,0.0,925.6,9.2,41.4,70,51.7,21.3,7,5,7,1,2026-04-08T18:55:48.146187+05:30
Coimbatore,Tamil Nadu,11.0168,76.9558,28.8,56,0.0,960.7,9.45,55.1,91,15.1,13.0,4,5,7,1,2026-04-08T18:55:48.146218+05:30
Madurai,Tamil Nadu,9.9252,78.1198,34.7,44,0.0,991.3,9.35,27.7,141,37.5,32.1,0,5,7,1,2026-04-08T18:55:48.146228+05:30
Trichy,Tamil Nadu,10.7905,78.7047,33.3,57,0.0,997.7,8.7,28.1,101,33.9,29.5,0,5,7,1,2026-04-08T18:55:48.146236+05:30
Salem,Tamil Nadu,11.6643,78.146,35.6,34,0.0,975.0,9.45,34.2,167,22.2,19.4,0,5,10,1,2026-04-08T18:55:48.146244+05:30
Tirunelveli,Tamil Nadu,8.7139,77.7567,31.9,61,0.0,1002.2,9.25,36.4,120,35.6,28.2,3,5,4,1,2026-04-08T18:55:48.146251+05:30
Vellore,Tamil Nadu,12.9165,79.1325,33.6,43,0.0,982.4,9.2,41.4,140,48.2,45.2,0,5,7,1,2026-04-08T18:55:48.146258+05:30
Erode,Tamil Nadu,11.341,77.7172,37.4,27,0.0,986.0,9.4,30.2,121,17.5,14.8,0,5,10,0,2026-04-08T18:55:48.146266+05:30
Kochi,Kerala,9.9312,76.2673,29.6,73,0.0,1008.2,9.2,36.4,59,21.7,14.4,7,0,4,1,2026-04-08T18:55:48.146274+05:30
Thiruvananthapuram,Kerala,8.5241,76.9366,29.7,72,0.0,1007.4,9.2,45.0,55,24.9,13.2,7,5,4,1,2026-04-08T18:55:48.146281+05:30
Kozhikode,Kerala,11.2588,75.7804,29.4,76,0.0,1007.2,9.15,31.0,50,19.0,10.9,7,5,4,1,2026-04-08T18:55:48.146287+05:30
Thrissur,Kerala,10.5276,76.2144,29.6,69,0.0,1006.4,9.2,37.1,61,17.1,11.0,7,5,4,1,2026-04-08T18:55:48.146295+05:30
Kannur,Kerala,11.8745,75.3704,29.5,72,0.0,1006.7,9.15,36.0,66,33.2,15.3,7,5,4,1,2026-04-08T18:55:48.146301+05:30
Patna,Bihar,25.5941,85.1376,24.4,69,0.0,1001.9,6.65,29.2,139,50.4,37.8,3,5,4,1,2026-04-08T18:55:48.146308+05:30
Gaya,Bihar,24.7914,85.0002,25.6,64,0.0,994.5,8.25,28.1,174,56.7,42.8,7,5,7,1,2026-04-08T18:55:48.146316+05:30
Muzaffarpur,Bihar,26.1209,85.3647,22.5,81,0.0,1002.4,7.0,36.7,136,53.7,40.9,3,5,4,1,2026-04-08T18:55:48.146322+05:30
Bhagalpur,Bihar,25.2425,87.0117,25.1,84,0.0,1002.7,8.3,29.2,184,65.4,52.9,7,5,4,1,2026-04-08T18:55:48.146329+05:30
Ranchi,Jharkhand,23.3441,85.3096,22.9,75,0.0,937.9,8.65,39.2,169,78.2,46.2,3,5,7,1,2026-04-08T18:55:48.146356+05:30
Jamshedpur,Jharkhand,22.8046,86.2029,25.1,82,0.0,991.4,8.8,32.4,183,48.8,42.5,7,5,7,1,2026-04-08T18:55:48.146367+05:30
Dhanbad,Jharkhand,23.7957,86.4304,23.8,80,0.0,980.8,8.7,29.9,182,71.0,64.3,3,5,7,1,2026-04-08T18:55:48.146374+05:30
Bokaro,Jharkhand,23.6693,86.1511,23.9,84,0.0,985.0,8.7,30.2,189,76.8,68.5,3,5,7,1,2026-04-08T18:55:48.146381+05:30
Bhubaneswar,Odisha,20.2961,85.8245,28.1,80,0.0,1002.0,8.95,33.1,72,27.0,24.9,7,5,4,1,2026-04-08T18:55:48.146387+05:30
Cuttack,Odisha,20.4625,85.8828,29.0,76,0.0,1003.4,9.0,33.1,72,27.0,24.9,7,5,4,1,2026-04-08T18:55:48.146394+05:30
Rourkela,Odisha,22.2604,84.8536,28.4,75,0.0,983.8,8.75,32.0,180,61.0,47.5,7,5,7,1,2026-04-08T18:55:48.146400+05:30
Raipur,Chhattisgarh,21.2514,81.6296,35.0,21,0.0,971.9,8.3,37.4,108,70.1,33.4,0,5,7,0,2026-04-08T18:55:48.146407+05:30
Bhilai,Chhattisgarh,21.1938,81.3509,34.7,22,0.0,972.3,8.5,36.7,91,72.9,31.4,0,5,7,0,2026-04-08T18:55:48.146413+05:30
Guwahati,Assam,26.1158,91.7086,25.9,73,0.0,1003.1,8.15,24.1,113,35.5,29.4,7,5,4,1,2026-04-08T18:55:48.146419+05:30
Agartala,Tripura,23.8315,91.2868,26.7,68,0.0,1006.9,8.45,11.9,186,45.1,42.0,7,5,4,1,2026-04-08T18:55:48.146426+05:30
Shillong,Meghalaya,25.5788,91.8933,13.9,84,0.0,856.3,7.8,40.3,125,31.1,24.6,3,10,7,0,2026-04-08T18:55:48.146432+05:30
Imphal,Manipur,24.817,93.9368,18.2,73,0.0,924.0,8.65,42.8,81,20.4,16.8,3,5,7,0,2026-04-08T18:55:48.146439+05:30
Aizawl,Mizoram,23.7271,92.7176,20.3,65,0.0,893.4,8.7,34.9,78,23.9,19.2,3,5,7,0,2026-04-08T18:55:48.146446+05:30
Kohima,Nagaland,25.6701,94.1077,14.0,94,0.0,854.9,8.0,57.2,87,19.3,15.4,3,10,7,0,2026-04-08T18:55:48.146452+05:30
Gangtok,Sikkim,27.3314,88.6138,13.8,79,0.0,837.5,7.4,16.9,112,25.0,19.6,3,5,7,0,2026-04-08T18:55:48.146458+05:30
Siliguri,West Bengal,26.7271,88.3953,20.1,82,0.0,996.9,7.9,25.2,125,44.6,38.0,3,5,7,1,2026-04-08T18:55:51.407739+05:30
Durgapur,West Bengal,23.5204,87.3119,26.6,74,0.0,995.6,8.65,21.6,163,53.2,47.4,7,5,7,1,2026-04-08T18:55:51.407773+05:30
Asansol,West Bengal,23.6739,86.9524,26.1,77,0.0,994.5,8.7,22.3,165,58.1,52.5,7,5,7,1,2026-04-08T18:55:51.407785+05:30
Pondicherry,Puducherry,11.9139,79.8145,30.7,75,0.0,1006.7,9.3,26.6,82,32.0,24.3,3,5,4,1,2026-04-08T18:55:51.407795+05:30
Port Blair,Andaman and Nicobar Islands,11.6234,92.7265,29.4,74,0.0,1007.9,9.2,7.9,31,7.6,5.2,7,5,4,1,2026-04-08T18:55:51.407805+05:30
Haridwar,Uttarakhand,29.9457,78.1642,18.9,86,0.0,976.4,5.7,25.2,83,27.8,20.1,3,10,3,1,2026-04-08T18:55:51.407815+05:30
Rishikesh,Uttarakhand,30.0869,78.2676,18.5,87,0.0,968.7,4.4,24.5,82,17.1,10.1,3,10,3,1,2026-04-08T18:55:51.407825+05:30
Nainital,Uttarakhand,29.3919,79.4542,12.5,85,0.0,803.6,6.5,55.4,73,35.5,16.5,3,10,7,0,2026-04-08T18:55:51.407835+05:30
Mussoorie,Uttarakhand,30.4599,78.0664,10.5,87,0.0,799.4,6.6,50.0,92,25.7,16.0,3,10,7,0,2026-04-08T18:55:51.407844+05:30
Dharamshala,Himachal Pradesh,32.219,76.3234,13.2,80,0.0,866.4,5.6,32.4,99,5.5,3.8,3,5,3,0,2026-04-08T18:55:51.407851+05:30
Dalhousie,Himachal Pradesh,32.5387,75.971,10.5,69,0.0,799.7,4.7,34.9,102,23.0,15.4,3,5,3,0,2026-04-08T18:55:51.407859+05:30
Patiala,Punjab,30.3398,76.3869,18.3,82,0.0,980.0,6.65,27.7,93,44.7,26.5,3,10,7,0,2026-04-08T18:55:51.407866+05:30
Bhatinda,Punjab,30.211,74.9455,23.2,47,0.0,984.7,7.45,32.0,106,64.3,28.1,0,5,7,0,2026-04-08T18:55:51.407873+05:30
Rohtak,Haryana,28.8955,76.6066,23.5,51,0.0,982.4,6.95,28.1,155,149.0,44.5,0,5,7,0,2026-04-08T18:55:51.407880+05:30
Panipat,Haryana,29.3909,76.9635,20.3,72,0.0,982.0,6.75,30.2,130,105.7,42.6,3,5,7,0,2026-04-08T18:55:51.407887+05:30
Mathura,Uttar Pradesh,27.4924,77.6737,23.9,60,0.0,987.3,7.25,31.3,193,260.8,38.4,0,5,7,0,2026-04-08T18:55:51.407894+05:30
Vrindavan,Uttar Pradesh,27.5823,77.7027,23.3,63,0.0,987.9,7.25,28.4,193,260.8,38.4,3,5,7,0,2026-04-08T18:55:51.407900+05:30
Ayodhya,Uttar Pradesh,26.7922,82.1998,22.4,71,0.0,998.1,7.65,35.3,95,58.3,33.2,3,5,7,1,2026-04-08T18:55:51.407907+05:30
Ratlam,Madhya Pradesh,23.3315,75.0367,28.1,39,0.0,953.5,8.25,45.0,64,36.7,15.3,4,5,7,0,2026-04-08T18:55:51.407914+05:30
Sagar,Madhya Pradesh,23.8388,78.7378,29.0,34,0.0,948.8,7.7,47.2,71,41.6,17.8,4,5,7,0,2026-04-08T18:55:51.407921+05:30
Satna,Madhya Pradesh,24.6005,80.8322,27.6,46,0.0,970.9,8.4,37.1,73,49.8,20.5,4,5,7,0,2026-04-08T18:55:51.407928+05:30
Akola,Maharashtra,20.7002,77.0082,32.5,33,0.0,973.6,8.7,40.7,69,53.0,20.8,0,5,7,0,2026-04-08T18:55:51.407935+05:30
Amravati,Maharashtra,20.9374,77.7796,32.4,28,0.0,965.3,8.7,41.0,68,52.7,20.5,0,5,7,0,2026-04-08T18:55:51.407943+05:30
Latur,Maharashtra,18.4088,76.5604,31.5,30,0.0,938.2,8.95,33.5,75,52.3,20.0,0,5,7,0,2026-04-08T18:55:51.407950+05:30
Nanded,Maharashtra,19.1383,77.3091,33.1,31,0.0,966.5,8.85,31.7,80,64.0,22.7,0,5,7,0,2026-04-08T18:55:51.407957+05:30
Gulbarga,Karnataka,17.3297,76.8343,35.7,19,0.0,956.8,9.0,32.4,81,54.9,19.6,0,5,10,0,2026-04-08T18:55:51.407963+05:30
Bidar,Karnataka,17.9104,77.5199,33.6,21,0.0,934.2,9.0,31.7,78,72.2,27.1,0,5,7,0,2026-04-08T18:55:51.407970+05:30
Hospet,Karnataka,15.2689,76.3909,35.1,26,0.0,954.4,9.2,27.0,140,36.3,21.1,0,5,10,0,2026-04-08T18:55:51.407976+05:30
Tirupur,Tamil Nadu,11.1085,77.3411,34.0,39,0.0,973.2,9.5,41.8,140,15.8,14.1,0,5,7,1,2026-04-08T18:55:51.407982+05:30
Alappuzha,Kerala,9.4981,76.3388,29.8,72,0.0,1008.3,8.9,32.0,59,24.1,14.1,7,0,4,1,2026-04-08T18:55:51.407989+05:30
Munnar,Kerala,10.0889,77.0595,23.8,79,0.0,857.7,9.5,37.4,72,23.6,19.2,3,5,7,1,2026-04-08T18:55:51.407996+05:30
Silchar,Assam,24.8333,92.7789,27.0,64,0.0,1005.9,8.45,23.0,110,39.1,35.6,7,5,4,1,2026-04-08T18:55:51.408002+05:30
Dibrugarh,Assam,27.4728,94.912,23.3,81,0.0,998.3,8.0,13.0,82,40.0,30.5,3,5,7,1,2026-04-08T18:55:51.408008+05:30
