city,state,latitude,longitude,temp,humidity,rain,pressure,uv_index,wind_gusts,aqi,pm10,pm2_5,mosquito_risk,arthritis_risk,migraine_risk,frizz_risk,updated_at
Delhi,Delhi,28.6139,77.209,33.7,40,0.0,988.8,6.05,22.3,480,219.3,85.0,0,5,7,1,2026-03-10T14:20:14.434557+05:30
Mumbai,Maharashtra,19.076,72.8777,28.8,65,0.0,1009.1,7.55,17.3,189,96.9,94.5,7,0,4,1,2026-03-10T14:20:14.434596+05:30
Bangalore,Karnataka,12.9716,77.5946,30.5,22,0.0,914.4,9.25,32.8,117,23.2,17.6,0,5,7,0,2026-03-10T14:20:14.434611+05:30
Hyderabad,Telangana,17.385,78.4867,33.3,36,0.0,956.9,8.6,30.6,131,63.3,48.7,0,5,7,1,2026-03-10T14:20:14.434622+05:30
Chennai,Tamil Nadu,13.0827,80.2707,30.7,55,0.0,1011.3,8.95,34.2,92,23.7,18.0,0,0,4,1,2026-03-10T14:20:14.434631+05:30
Kolkata,West Bengal,22.5726,88.3639,29.0,68,0.0,1010.8,4.85,13.7,116,55.8,43.9,7,0,0,1,2026-03-10T14:20:14.434640+05:30
Pune,Maharashtra,18.5204,73.8567,37.2,19,0.0,951.2,8.1,37.4,86,28.5,23.3,0,5,10,0,2026-03-10T14:20:14.434652+05:30
Ahmedabad,Gujarat,23.0225,72.5714,39.5,15,0.0,1005.5,7.4,15.8,56,16.4,13.1,0,5,7,0,2026-03-10T14:20:14.434660+05:30
Jaipur,Rajasthan,26.9124,75.7873,37.3,14,0.0,965.4,6.85,22.0,82,126.2,21.2,0,5,10,0,2026-03-10T14:20:14.434668+05:30
Lucknow,Uttar Pradesh,26.8467,80.9462,32.4,47,0.0,998.8,6.55,20.2,175,134.6,104.3,0,5,7,1,2026-03-10T14:20:14.434676+05:30
Kanpur,Uttar Pradesh,26.4499,80.3319,32.5,49,0.0,997.0,6.6,15.5,169,181.1,103.1,0,5,7,1,2026-03-10T14:20:14.434683+05:30
Chandigarh,Chandigarh,30.7333,76.7794,30.0,62,0.0,975.1,5.95,19.1,128,105.0,58.7,7,5,3,1,2026-03-10T14:20:14.434690+05:30
Srinagar,Jammu and Kashmir,34.0837,74.7973,16.0,68,0.0,848.6,3.8,22.3,117,46.9,31.3,3,5,3,0,2026-03-10T14:20:14.434697+05:30
Jammu,Jammu and Kashmir,32.7266,74.857,24.6,59,0.0,979.3,6.05,38.2,99,61.0,35.0,0,5,7,1,2026-03-10T14:20:14.434703+05:30
Amritsar,Punjab,31.634,74.8723,29.7,46,0.0,987.9,6.0,26.6,163,74.0,52.0,4,5,3,1,2026-03-10T14:20:14.434710+05:30
Ludhiana,Punjab,30.901,75.8573,31.2,55,0.0,985.2,5.6,18.4,169,124.8,71.7,0,5,3,1,2026-03-10T14:20:14.434717+05:30
Jalandhar,Punjab,31.326,75.5762,30.6,53,0.0,986.6,6.2,25.9,167,102.7,64.0,0,5,7,1,2026-03-10T14:20:14.434726+05:30
Dehradun,Uttarakhand,30.6284,78.0322,21.6,64,0.0,837.3,6.4,28.1,74,48.8,26.8,3,5,7,0,2026-03-10T14:20:14.434733+05:30
Shimla,Himachal Pradesh,31.1048,77.1734,19.4,63,0.0,792.1,6.05,34.6,80,41.2,20.8,3,5,7,0,2026-03-10T14:20:14.434739+05:30
Manali,Himachal Pradesh,32.2396,77.1887,21.7,30,0.0,827.8,7.35,41.4,54,27.6,10.2,0,5,7,0,2026-03-10T14:20:14.434746+05:30
Gurgaon,Haryana,28.4595,77.0266,34.0,37,0.0,987.3,5.7,20.5,623,393.9,92.0,0,5,3,1,2026-03-10T14:20:14.434753+05:30
Noida,Uttar Pradesh,28.5355,77.391,34.0,41,0.0,990.3,6.05,22.7,623,393.9,92.0,0,5,7,1,2026-03-10T14:20:14.434759+05:30
Ghaziabad,Uttar Pradesh,28.6692,77.4538,32.5,47,0.0,988.6,5.95,16.9,289,211.9,85.4,0,5,3,1,2026-03-10T14:20:14.434766+05:30
Faridabad,Haryana,28.4089,77.3178,33.7,41,0.0,989.5,5.95,22.3,623,393.9,92.0,0,5,3,1,2026-03-10T14:20:14.434773+05:30
Meerut,Uttar Pradesh,28.9845,77.7064,32.4,48,0.0,987.5,5.85,16.2,289,211.9,85.4,0,5,3,1,2026-03-10T14:20:14.434779+05:30
Agra,Uttar Pradesh,27.1767,78.0081,36.5,26,0.0,992.9,6.45,22.3,198,410.7,85.2,0,5,10,0,2026-03-10T14:20:14.434785+05:30
Varanasi,Uttar Pradesh,25.3176,82.9739,32.3,50,0.0,1002.3,7.25,14.8,183,119.7,107.6,0,5,4,1,2026-03-10T14:20:14.434794+05:30
Prayagraj,Uttar Pradesh,25.4358,81.8463,32.4,50,0.0,1000.9,7.1,14.4,180,125.7,107.8,0,5,4,1,2026-03-10T14:20:14.434801+05:30
Gorakhpur,Uttar Pradesh,26.7606,83.3732,30.4,60,0.0,1002.6,6.95,20.2,191,100.6,89.2,0,5,4,1,2026-03-10T14:20:14.434808+05:30
Bareilly,Uttar Pradesh,28.367,79.4304,31.3,53,0.0,992.8,5.9,18.0,179,192.3,133.2,0,5,3,1,2026-03-10T14:20:14.434817+05:30
Aligarh,Uttar Pradesh,27.8974,78.088,34.4,38,0.0,991.0,6.15,22.0,190,332.5,85.2,0,5,7,1,2026-03-10T14:20:14.434824+05:30
Moradabad,Uttar Pradesh,28.8386,78.7733,31.4,51,0.0,989.8,5.25,23.4,178,164.8,129.0,0,5,3,1,2026-03-10T14:20:14.434830+05:30
Saharanpur,Uttar Pradesh,29.9637,77.546,30.4,58,0.0,982.0,5.65,19.4,164,138.8,85.7,0,5,3,1,2026-03-10T14:20:14.434835+05:30
Jhansi,Uttar Pradesh,25.4484,78.5685,36.7,24,0.0,982.7,7.05,25.2,97,129.0,36.2,0,5,10,0,2026-03-10T14:20:17.694108+05:30
Surat,Gujarat,21.1702,72.8311,39.6,18,0.0,1008.4,7.3,23.4,99,47.5,46.4,0,0,7,0,2026-03-10T14:20:17.694143+05:30
Vadodara,Gujarat,22.3072,73.1812,41.4,14,0.0,1006.8,7.4,15.5,68,15.7,12.4,0,5,7,0,2026-03-10T14:20:17.694154+05:30
Rajkot,Gujarat,22.3039,70.8022,37.7,18,0.0,998.0,7.25,33.1,60,17.2,14.4,0,5,10,0,2026-03-10T14:20:17.694163+05:30
Thane,Maharashtra,19.2183,72.9781,39.1,23,0.0,1008.7,7.55,32.0,189,96.9,94.5,0,0,7,0,2026-03-10T14:20:17.694172+05:30
Nagpur,Maharashtra,21.1458,79.0882,36.2,24,0.0,976.7,7.95,23.4,76,40.0,29.2,0,5,10,0,2026-03-10T14:20:17.694180+05:30
Nashik,Maharashtra,19.9975,73.7898,36.7,17,0.0,948.8,7.75,29.2,69,15.5,12.6,0,5,10,0,2026-03-10T14:20:17.694188+05:30
Aurangabad,Maharashtra,19.8762,75.3433,36.5,18,0.0,947.4,8.3,21.2,90,14.7,11.6,0,5,10,0,2026-03-10T14:20:17.694196+05:30
Solapur,Maharashtra,17.6599,75.9064,34.7,33,0.0,959.8,8.5,29.2,93,49.5,40.6,0,5,7,1,2026-03-10T14:20:17.694205+05:30
Kolhapur,Maharashtra,16.705,74.2433,34.6,28,0.0,950.0,8.6,40.7,105,51.0,42.7,0,5,7,0,2026-03-10T14:20:17.694214+05:30
Goa,Goa,15.2993,74.124,33.2,54,0.0,998.4,8.6,37.4,151,58.8,49.0,0,5,7,1,2026-03-10T14:20:17.694221+05:30
Jodhpur,Rajasthan,26.2389,73.0243,37.6,14,0.0,988.6,7.15,23.0,78,31.0,16.0,0,5,10,0,2026-03-10T14:20:17.694231+05:30
Udaipur,Rajasthan,24.5854,73.7125,35.7,14,0.0,952.3,7.75,21.6,49,13.0,5.6,0,5,10,0,2026-03-10T14:20:17.694238+05:30
Kota,Rajasthan,25.2138,75.8648,38.0,14,0.0,983.8,7.15,13.7,69,59.8,17.9,0,5,10,0,2026-03-10T14:20:17.694246+05:30
Bikaner,Rajasthan,28.0229,73.3119,35.5,17,0.0,987.3,6.85,25.6,69,18.0,15.0,0,5,10,0,2026-03-10T14:20:17.694254+05:30
Ajmer,Rajasthan,26.4499,74.6399,36.2,14,0.0,960.4,7.1,21.6,61,178.8,27.2,0,5,10,0,2026-03-10T14:20:17.694263+05:30
Gwalior,Madhya Pradesh,26.2183,78.1828,35.1,30,0.0,988.3,6.75,24.5,127,196.5,46.3,0,5,10,0,2026-03-10T14:20:17.694270+05:30
Indore,Madhya Pradesh,22.7196,75.8577,36.5,17,0.0,952.7,7.65,26.3,69,18.5,8.5,0,5,10,0,2026-03-10T14:20:17.694278+05:30
Bhopal,Madhya Pradesh,23.2599,77.4126,36.6,19,0.0,958.2,7.55,23.8,58,17.9,7.7,0,5,10,0,2026-03-10T14:20:17.694286+05:30
Jabalpur,Madhya Pradesh,23.1815,79.9864,35.4,22,0.0,965.8,7.65,25.9,80,40.5,17.2,0,5,10,0,2026-03-10T14:20:17.694294+05:30
Ujjain,Madhya Pradesh,23.1765,75.7885,35.9,19,0.0,958.6,7.55,19.1,87,21.1,8.5,0,5,10,0,2026-03-10T14:20:17.694303+05:30
Visakhapatnam,Andhra Pradesh,17.6868,83.2185,32.0,38,0.0,1007.7,8.55,34.6,134,53.8,41.3,0,5,4,0,2026-03-10T14:20:17.694311+05:30
Vijayawada,Andhra Pradesh,16.5062,80.648,33.0,37,0.0,1006.5,8.6,21.6,133,31.9,26.5,0,5,4,1,2026-03-10T14:20:17.694318+05:30
Guntur,Andhra Pradesh,16.3067,80.4365,33.1,36,0.0,1007.7,8.65,24.8,129,33.1,26.9,0,5,4,0,2026-03-10T14:20:17.694326+05:30
Nellore,Andhra Pradesh,14.4426,79.9865,32.4,45,0.0,1009.7,8.85,29.9,102,26.4,21.0,0,0,4,1,2026-03-10T14:20:17.694334+05:30
Kurnool,Andhra Pradesh,15.8281,78.0373,35.0,28,0.0,979.8,8.65,32.4,115,58.6,43.3,0,5,7,0,2026-03-10T14:20:17.694343+05:30
Kakinada,Andhra Pradesh,16.9891,82.2475,32.9,42,0.0,1011.4,8.6,27.0,116,43.0,32.4,0,0,4,1,2026-03-10T14:20:17.694352+05:30
Tirupati,Andhra Pradesh,13.6288,79.4192,32.0,38,0.0,994.7,8.95,34.6,142,25.0,21.0,0,5,7,0,2026-03-10T14:20:17.694359+05:30
Warangal,Telangana,17.9689,79.5941,33.0,46,0.0,982.4,8.4,27.0,137,63.8,49.6,0,5,7,1,2026-03-10T14:20:17.694367+05:30
Nizamabad,Telangana,18.6725,78.0941,35.3,30,0.0,968.1,8.3,29.5,133,55.8,44.7,0,5,10,0,2026-03-10T14:20:17.694374+05:30
Mysore,Karnataka,12.2958,76.6396,31.7,18,0.0,930.5,9.25,36.7,119,33.2,24.6,0,5,7,0,2026-03-10T14:20:17.694383+05:30
Mangalore,Karnataka,12.9141,74.856,28.5,82,0.0,1007.2,8.9,33.5,106,48.4,38.3,7,5,4,1,2026-03-10T14:20:17.694391+05:30
Hubli-Dharwad,Karnataka,15.3647,75.124,34.8,24,0.0,942.8,8.8,43.9,100,63.1,50.1,0,5,7,0,2026-03-10T14:20:17.694400+05:30
Belgaum,Karnataka,15.8497,74.4977,34.2,26,0.0,927.9,8.85,45.4,89,53.7,43.8,0,5,7,0,2026-03-10T14:20:20.949315+05:30
Coimbatore,Tamil Nadu,11.0168,76.9558,32.8,27,0.0,963.4,9.25,43.2,122,31.1,24.2,0,5,7,0,2026-03-10T14:20:20.949346+05:30
Madurai,Tamil Nadu,9.9252,78.1198,33.9,37,0.0,994.2,9.2,43.6,117,25.3,22.5,0,5,7,1,2026-03-10T14:20:20.949356+05:30
Trichy,Tamil Nadu,10.7905,78.7047,31.3,50,0.0,1002.0,8.7,37.4,115,27.0,24.7,0,5,4,1,2026-03-10T14:20:20.949364+05:30
Salem,Tamil Nadu,11.6643,78.146,33.4,36,0.0,979.2,9.15,37.4,136,28.1,23.1,0,5,7,1,2026-03-10T14:20:20.949371+05:30
Tirunelveli,Tamil Nadu,8.7139,77.7567,35.2,34,0.0,1003.9,9.2,43.6,96,21.4,17.6,0,5,7,1,2026-03-10T14:20:20.949378+05:30
Vellore,Tamil Nadu,12.9165,79.1325,31.5,38,0.0,987.4,9.05,36.4,147,30.4,26.5,0,5,7,0,2026-03-10T14:20:20.949386+05:30
Erode,Tamil Nadu,11.341,77.7172,34.2,34,0.0,990.8,9.1,36.7,125,36.1,29.5,0,5,7,1,2026-03-10T14:20:20.949393+05:30
Kochi,Kerala,9.9312,76.2673,28.2,76,0.0,1009.3,9.05,40.3,152,54.6,44.6,7,0,4,1,2026-03-10T14:20:20.949400+05:30
Thiruvananthapuram,Kerala,8.5241,76.9366,28.8,63,0.0,1008.2,9.1,27.0,121,37.3,30.5,7,0,4,1,2026-03-10T14:20:20.949408+05:30
Kozhikode,Kerala,11.2588,75.7804,29.8,66,0.0,1008.4,8.95,24.1,102,59.8,49.8,7,0,4,1,2026-03-10T14:20:20.949415+05:30
Thrissur,Kerala,10.5276,76.2144,33.9,49,0.0,1007.3,9.0,36.7,151,31.4,23.3,0,5,4,1,2026-03-10T14:20:20.949422+05:30
Kannur,Kerala,11.8745,75.3704,30.2,69,0.0,1008.0,8.95,39.2,94,46.1,37.6,3,0,4,1,2026-03-10T14:20:20.949428+05:30
Patna,Bihar,25.5941,85.1376,31.8,51,0.0,1005.0,7.4,24.8,174,91.3,80.6,0,5,4,1,2026-03-10T14:20:20.949434+05:30
Gaya,Bihar,24.7914,85.0002,30.8,59,0.0,998.2,7.5,15.8,174,76.6,66.4,0,5,7,1,2026-03-10T14:20:20.949441+05:30
Muzaffarpur,Bihar,26.1209,85.3647,32.0,49,0.0,1005.1,7.35,22.0,175,95.2,83.6,0,5,4,1,2026-03-10T14:20:20.949447+05:30
Bhagalpur,Bihar,25.2425,87.0117,31.6,49,0.0,1005.7,7.4,17.6,166,91.0,77.3,0,5,4,1,2026-03-10T14:20:20.949453+05:30
Ranchi,Jharkhand,23.3441,85.3096,30.4,38,0.0,941.4,8.15,24.1,158,92.9,70.1,0,5,7,0,2026-03-10T14:20:20.949459+05:30
Jamshedpur,Jharkhand,22.8046,86.2029,32.1,53,0.0,994.1,8.05,32.4,138,84.1,68.7,0,5,7,1,2026-03-10T14:20:20.949466+05:30
Dhanbad,Jharkhand,23.7957,86.4304,30.3,51,0.0,984.0,7.55,23.4,169,98.3,84.5,0,5,7,1,2026-03-10T14:20:20.949472+05:30
Bokaro,Jharkhand,23.6693,86.1511,31.0,50,0.0,987.9,7.95,19.4,175,98.0,86.4,0,5,7,1,2026-03-10T14:20:20.949478+05:30
Bhubaneswar,Odisha,20.2961,85.8245,32.3,50,0.0,1006.2,8.35,32.8,105,58.1,45.4,0,5,4,1,2026-03-10T14:20:20.949504+05:30
Cuttack,Odisha,20.4625,85.8828,34.3,44,0.0,1007.6,8.35,29.2,105,58.1,45.4,0,5,4,1,2026-03-10T14:20:20.949510+05:30
Rourkela,Odisha,22.2604,84.8536,34.8,28,0.0,987.9,7.95,22.3,159,84.5,67.5,0,5,7,0,2026-03-10T14:20:20.949517+05:30
Raipur,Chhattisgarh,21.2514,81.6296,36.4,25,0.0,977.7,8.05,14.8,155,84.1,54.5,0,5,10,0,2026-03-10T14:20:20.949524+05:30
Bhilai,Chhattisgarh,21.1938,81.3509,37.0,24,0.0,978.1,8.05,11.9,152,77.1,48.8,0,5,10,0,2026-03-10T14:20:20.949531+05:30
Guwahati,Assam,26.1158,91.7086,31.1,53,0.0,1004.9,7.3,11.2,156,82.4,72.2,0,5,4,1,2026-03-10T14:20:20.949538+05:30
Agartala,Tripura,23.8315,91.2868,30.8,51,0.0,1009.8,7.7,12.6,168,82.7,68.7,0,0,4,1,2026-03-10T14:20:20.949544+05:30
Shillong,Meghalaya,25.5788,91.8933,18.8,59,0.0,860.4,6.75,18.4,154,66.6,58.9,0,5,7,0,2026-03-10T14:20:20.949550+05:30
Imphal,Manipur,24.817,93.9368,24.9,49,0.0,926.7,6.35,28.8,153,46.0,39.2,0,5,7,0,2026-03-10T14:20:20.949556+05:30
Aizawl,Mizoram,23.7271,92.7176,26.0,43,0.0,896.7,7.85,28.4,152,53.3,42.1,4,5,7,0,2026-03-10T14:20:20.949563+05:30
Kohima,Nagaland,25.6701,94.1077,18.2,83,0.0,858.8,6.8,50.0,137,54.5,48.3,3,10,7,0,2026-03-10T14:20:20.949569+05:30
Gangtok,Sikkim,27.3314,88.6138,22.1,47,0.0,843.4,6.25,19.8,152,53.2,43.8,0,5,7,0,2026-03-10T14:20:20.949575+05:30
Siliguri,West Bengal,26.7271,88.3953,28.2,49,0.0,998.3,7.35,23.4,164,65.0,52.4,4,5,7,1,2026-03-10T14:20:24.206125+05:30
Durgapur,West Bengal,23.5204,87.3119,28.9,64,0.0,999.7,7.8,24.5,157,71.9,60.5,7,5,7,1,2026-03-10T14:20:24.206156+05:30
Asansol,West Bengal,23.6739,86.9524,29.9,61,0.0,998.0,7.9,22.0,161,87.1,73.1,7,5,7,1,2026-03-10T14:20:24.206168+05:30
Pondicherry,Puducherry,11.9139,79.8145,30.9,59,0.0,1011.7,8.95,36.0,87,23.2,17.1,0,0,4,1,2026-03-10T14:20:24.206177+05:30
Port Blair,Andaman and Nicobar Islands,11.6234,92.7265,29.5,67,0.0,1008.3,8.95,29.5,77,25.3,22.3,7,0,4,1,2026-03-10T14:20:24.206187+05:30
Haridwar,Uttarakhand,29.9457,78.1642,30.3,57,0.0,980.6,5.85,21.2,154,135.5,88.0,0,5,3,1,2026-03-10T14:20:24.206195+05:30
Rishikesh,Uttarakhand,30.0869,78.2676,29.7,57,0.0,973.4,5.9,23.0,152,124.3,80.1,4,5,3,1,2026-03-10T14:20:24.206202+05:30
Nainital,Uttarakhand,29.3919,79.4542,22.0,66,0.0,812.8,6.75,51.5,172,147.1,109.0,3,5,7,0,2026-03-10T14:20:24.206208+05:30
Mussoorie,Uttarakhand,30.4599,78.0664,21.7,63,0.0,810.1,6.25,37.1,144,114.3,70.1,3,5,7,0,2026-03-10T14:20:24.206216+05:30
Dharamshala,Himachal Pradesh,32.219,76.3234,25.1,47,0.0,876.5,6.45,20.5,58,26.4,9.4,4,5,7,0,2026-03-10T14:20:24.206223+05:30
Dalhousie,Himachal Pradesh,32.5387,75.971,23.1,42,0.0,811.5,6.1,19.4,90,42.4,18.0,0,5,7,0,2026-03-10T14:20:24.206230+05:30
Patiala,Punjab,30.3398,76.3869,32.0,51,0.0,984.2,5.9,18.4,169,206.8,80.8,0,5,3,1,2026-03-10T14:20:24.206237+05:30
Bhatinda,Punjab,30.211,74.9455,33.3,40,0.0,989.5,6.45,15.5,155,123.9,40.4,0,5,7,1,2026-03-10T14:20:24.206244+05:30
Rohtak,Haryana,28.8955,76.6066,33.8,39,0.0,987.6,5.35,19.8,507,242.1,71.2,0,5,3,1,2026-03-10T14:20:24.206250+05:30
Panipat,Haryana,29.3909,76.9635,32.8,45,0.0,986.5,5.9,16.6,549,266.4,84.3,0,5,3,1,2026-03-10T14:20:24.206256+05:30
Mathura,Uttar Pradesh,27.4924,77.6737,36.2,25,0.0,992.1,6.35,23.8,391,478.7,99.0,0,5,10,0,2026-03-10T14:20:24.206263+05:30
Vrindavan,Uttar Pradesh,27.5823,77.7027,35.6,30,0.0,992.6,6.3,24.8,391,478.7,99.0,0,5,10,0,2026-03-10T14:20:24.206269+05:30
Ayodhya,Uttar Pradesh,26.7922,82.1998,31.7,51,0.0,1000.6,6.75,19.4,189,105.0,94.1,0,5,4,1,2026-03-10T14:20:24.206276+05:30
Ratlam,Madhya Pradesh,23.3315,75.0367,36.4,17,0.0,959.3,7.55,18.4,71,17.2,8.0,0,5,10,0,2026-03-10T14:20:24.206282+05:30
Sagar,Madhya Pradesh,23.8388,78.7378,36.0,20,0.0,954.9,7.5,19.8,54,41.1,13.0,0,5,10,0,2026-03-10T14:20:24.206288+05:30
Satna,Madhya Pradesh,24.6005,80.8322,35.3,29,0.0,975.8,7.5,20.2,129,102.9,50.1,0,5,10,0,2026-03-10T14:20:24.206294+05:30
Akola,Maharashtra,20.7002,77.0082,38.7,17,0.0,978.2,8.0,18.4,68,16.0,9.5,0,5,10,0,2026-03-10T14:20:24.206301+05:30
Amravati,Maharashtra,20.9374,77.7796,38.2,17,0.0,970.7,7.95,19.4,71,17.0,9.7,0,5,10,0,2026-03-10T14:20:24.206308+05:30
Latur,Maharashtra,18.4088,76.5604,34.7,25,0.0,943.1,8.4,26.6,98,39.8,31.3,0,5,7,0,2026-03-10T14:20:24.206315+05:30
Nanded,Maharashtra,19.1383,77.3091,37.3,23,0.0,971.6,8.2,19.8,119,30.3,22.8,0,5,10,0,2026-03-10T14:20:24.206321+05:30
Gulbarga,Karnataka,17.3297,76.8343,35.3,30,0.0,961.4,8.5,30.6,110,57.2,46.4,0,5,10,0,2026-03-10T14:20:24.206327+05:30
Bidar,Karnataka,17.9104,77.5199,34.8,26,0.0,938.8,8.45,31.0,123,52.7,42.3,0,5,7,0,2026-03-10T14:20:24.206333+05:30
Hospet,Karnataka,15.2689,76.3909,34.1,28,0.0,958.1,8.8,36.4,116,63.1,49.9,0,5,7,0,2026-03-10T14:20:24.206339+05:30
Tirupur,Tamil Nadu,11.1085,77.3411,34.0,29,0.0,977.1,9.25,43.9,129,41.3,32.9,0,5,7,0,2026-03-10T14:20:24.206346+05:30
Alappuzha,Kerala,9.4981,76.3388,28.5,73,0.0,1009.4,9.05,33.5,151,61.5,51.8,7,0,4,1,2026-03-10T14:20:24.206352+05:30
Munnar,Kerala,10.0889,77.0595,30.6,26,0.0,860.3,9.55,27.4,114,20.1,16.1,0,5,7,0,2026-03-10T14:20:24.206359+05:30
Silchar,Assam,24.8333,92.7789,31.5,50,0.0,1007.9,7.65,13.3,170,77.1,66.4,0,5,4,1,2026-03-10T14:20:24.206365+05:30
Dibrugarh,Assam,27.4728,94.912,30.4,54,0.0,998.1,7.4,15.5,166,84.5,72.4,0,5,7,1,2026-03-10T14:20:24.206371+05:30
