city,state,latitude,longitude,temp,humidity,rain,pressure,uv_index,wind_gusts,aqi,pm10,pm2_5,no2,co,o3,so2,mosquito_risk,arthritis_risk,migraine_risk,frizz_risk,updated_at
Delhi,Delhi,28.6139,77.209,29.6,52,0.0,979.9,7.8,33.1,166,287.8,126.7,61.6,394.0,43.0,39.9,4,5,7,1,2026-06-19T07:14:23.696651+05:30
Mumbai,Maharashtra,19.076,72.8777,29.7,62,0.0,1007.6,7.6,45.7,61,24.0,13.2,6.3,158.0,46.0,6.5,7,5,4,1,2026-06-19T07:14:23.696717+05:30
Bangalore,Karnataka,12.9716,77.5946,21.3,89,0.0,911.9,5.95,36.4,58,15.5,12.8,13.2,381.0,63.0,6.0,3,5,3,1,2026-06-19T07:14:23.696734+05:30
Hyderabad,Telangana,17.385,78.4867,28.2,56,0.0,952.6,7.95,38.2,73,21.2,17.4,12.1,315.0,65.0,11.0,4,5,7,1,2026-06-19T07:14:23.696746+05:30
Chennai,Tamil Nadu,13.0827,80.2707,27.6,82,0.0,1006.4,8.45,42.8,80,35.0,28.4,19.1,365.0,51.0,12.1,7,5,4,1,2026-06-19T07:14:23.696758+05:30
Kolkata,West Bengal,22.5726,88.3639,30.0,84,0.0,1003.3,8.45,37.8,125,52.4,41.8,10.4,414.0,90.0,7.7,7,5,4,1,2026-06-19T07:14:23.696769+05:30
Pune,Maharashtra,18.5204,73.8567,23.4,83,0.0,947.5,8.15,44.3,51,18.2,11.9,8.7,148.0,39.0,8.2,3,5,7,1,2026-06-19T07:14:23.696777+05:30
Ahmedabad,Gujarat,23.0225,72.5714,24.5,97,0.4,1001.1,8.05,42.1,68,34.6,19.3,8.3,176.0,34.0,5.5,6,5,4,1,2026-06-19T07:14:23.696786+05:30
Jaipur,Rajasthan,26.9124,75.7873,27.2,67,0.0,957.5,8.2,34.2,121,162.5,36.0,5.9,209.0,60.0,4.4,7,5,7,1,2026-06-19T07:14:23.696794+05:30
Lucknow,Uttar Pradesh,26.8467,80.9462,32.3,52,0.0,989.2,8.35,33.8,159,159.3,70.5,34.5,478.0,47.0,13.0,0,5,7,1,2026-06-19T07:14:23.696814+05:30
Kanpur,Uttar Pradesh,26.4499,80.3319,33.2,47,0.0,987.6,8.25,34.2,156,265.4,56.6,17.0,229.0,45.0,8.7,0,5,7,1,2026-06-19T07:14:23.696822+05:30
Chandigarh,Chandigarh,30.7333,76.7794,27.5,72,0.0,965.9,7.8,28.4,142,61.0,48.8,28.3,565.0,54.0,6.2,7,5,7,1,2026-06-19T07:14:23.696830+05:30
Srinagar,Jammu and Kashmir,34.0837,74.7973,16.7,80,0.0,841.4,8.15,24.1,83,33.4,31.0,14.6,412.0,52.0,1.6,3,5,7,0,2026-06-19T07:14:23.696839+05:30
Jammu,Jammu and Kashmir,32.7266,74.857,27.1,64,0.0,969.3,8.2,60.8,84,25.9,24.1,26.1,358.0,43.0,2.3,7,5,7,1,2026-06-19T07:14:23.696847+05:30
Amritsar,Punjab,31.634,74.8723,27.5,72,0.0,977.4,8.35,62.3,133,49.7,41.9,25.1,510.0,42.0,7.7,7,5,7,1,2026-06-19T07:14:23.696856+05:30
Ludhiana,Punjab,30.901,75.8573,27.9,69,0.0,975.6,8.05,31.0,152,103.4,90.8,36.3,722.0,53.0,12.0,7,5,7,1,2026-06-19T07:14:23.696863+05:30
Jalandhar,Punjab,31.326,75.5762,27.6,71,0.0,976.5,8.25,40.0,151,94.1,80.6,38.1,530.0,47.0,8.3,7,5,7,1,2026-06-19T07:14:23.696870+05:30
Dehradun,Uttarakhand,30.6284,78.0322,18.1,86,0.0,829.3,7.7,31.7,68,16.6,10.2,15.7,229.0,45.0,0.2,3,10,7,0,2026-06-19T07:14:23.696878+05:30
Shimla,Himachal Pradesh,31.1048,77.1734,15.0,91,0.0,782.6,7.75,33.8,79,23.9,18.1,7.7,219.0,83.0,0.1,3,10,7,0,2026-06-19T07:14:23.696887+05:30
Manali,Himachal Pradesh,32.2396,77.1887,18.2,69,0.0,817.5,8.95,30.2,75,1.5,1.5,8.3,170.0,124.0,0.0,3,5,7,0,2026-06-19T07:14:23.696906+05:30
Gurgaon,Haryana,28.4595,77.0266,28.3,59,0.0,978.5,7.9,29.2,218,286.8,117.6,65.8,344.0,33.0,38.8,4,5,7,1,2026-06-19T07:14:23.696915+05:30
Noida,Uttar Pradesh,28.5355,77.391,29.4,56,0.0,981.1,7.85,24.5,218,286.8,117.6,65.8,423.0,33.0,38.8,4,5,7,1,2026-06-19T07:14:23.696922+05:30
Ghaziabad,Uttar Pradesh,28.6692,77.4538,28.9,58,0.0,979.3,7.8,28.1,168,251.5,129.0,65.8,456.0,46.0,25.9,4,5,7,1,2026-06-19T07:14:23.696930+05:30
Faridabad,Haryana,28.4089,77.3178,29.1,56,0.0,980.5,7.85,31.0,218,286.8,117.6,65.8,355.0,33.0,38.8,4,5,7,1,2026-06-19T07:14:23.696938+05:30
Meerut,Uttar Pradesh,28.9845,77.7064,27.9,64,0.0,978.0,7.75,29.5,168,251.5,129.0,65.8,618.0,46.0,25.9,7,5,7,1,2026-06-19T07:14:23.696946+05:30
Agra,Uttar Pradesh,27.1767,78.0081,30.4,51,0.0,984.8,8.15,31.3,280,495.5,93.8,29.7,237.0,30.0,7.8,0,5,7,1,2026-06-19T07:14:23.696954+05:30
Varanasi,Uttar Pradesh,25.3176,82.9739,32.7,51,0.0,993.7,8.8,33.8,106,30.6,25.9,13.3,212.0,67.0,10.6,0,5,7,1,2026-06-19T07:14:23.696962+05:30
Prayagraj,Uttar Pradesh,25.4358,81.8463,32.8,51,0.0,992.0,8.7,32.0,108,37.3,28.2,14.2,174.0,54.0,7.5,0,5,7,1,2026-06-19T07:14:23.696970+05:30
Gorakhpur,Uttar Pradesh,26.7606,83.3732,30.4,71,0.0,993.0,8.45,27.0,157,77.5,61.2,24.6,539.0,57.0,12.2,3,5,7,1,2026-06-19T07:14:23.696978+05:30
Bareilly,Uttar Pradesh,28.367,79.4304,29.0,62,0.0,983.1,8.15,33.8,155,134.6,92.4,44.9,527.0,51.0,15.9,7,5,7,1,2026-06-19T07:14:23.696988+05:30
Aligarh,Uttar Pradesh,27.8974,78.088,29.2,56,0.0,982.3,8.0,29.5,177,247.7,119.2,54.1,377.0,56.0,18.9,4,5,7,1,2026-06-19T07:14:23.696998+05:30
Moradabad,Uttar Pradesh,28.8386,78.7733,28.9,61,0.0,979.9,7.95,35.6,158,146.2,100.8,44.8,642.0,46.0,13.0,7,5,7,1,2026-06-19T07:14:23.697005+05:30
Saharanpur,Uttar Pradesh,29.9637,77.546,27.0,72,0.0,972.3,7.5,27.7,155,129.9,110.4,53.8,580.0,52.0,15.2,7,5,7,1,2026-06-19T07:14:23.697013+05:30
Jhansi,Uttar Pradesh,25.4484,78.5685,30.1,60,0.0,975.4,8.5,32.0,75,20.0,14.1,7.2,159.0,63.0,9.7,0,5,7,1,2026-06-19T07:14:27.004081+05:30
Surat,Gujarat,21.1702,72.8311,27.8,85,0.0,1005.4,7.6,47.5,70,39.5,24.8,27.7,283.0,24.0,50.2,7,5,4,1,2026-06-19T07:14:27.004119+05:30
Vadodara,Gujarat,22.3072,73.1812,26.3,94,0.0,1003.2,8.0,43.6,63,22.6,12.9,9.8,132.0,40.0,4.7,7,5,4,1,2026-06-19T07:14:27.004130+05:30
Rajkot,Gujarat,22.3039,70.8022,27.8,79,0.0,992.4,7.55,45.4,59,33.6,15.7,5.3,105.0,38.0,4.1,7,5,7,1,2026-06-19T07:14:27.004139+05:30
Thane,Maharashtra,19.2183,72.9781,28.8,70,0.0,1007.1,7.5,40.3,61,24.0,13.2,6.3,172.0,46.0,6.5,7,5,4,1,2026-06-19T07:14:27.004147+05:30
Nagpur,Maharashtra,21.1458,79.0882,30.6,53,0.0,971.9,8.9,41.0,87,26.9,22.2,19.3,393.0,48.0,13.2,0,5,7,1,2026-06-19T07:14:27.004155+05:30
Nashik,Maharashtra,19.9975,73.7898,23.9,85,0.0,944.9,8.05,42.8,51,16.5,10.5,9.7,156.0,36.0,11.9,3,5,7,1,2026-06-19T07:14:27.004162+05:30
Aurangabad,Maharashtra,19.8762,75.3433,25.2,74,0.0,943.8,8.9,43.2,51,18.2,12.1,9.0,132.0,39.0,9.8,7,5,7,1,2026-06-19T07:14:27.004169+05:30
Solapur,Maharashtra,17.6599,75.9064,26.5,60,0.0,957.4,8.9,41.8,52,17.4,12.4,6.1,132.0,47.0,3.9,4,5,7,1,2026-06-19T07:14:27.004177+05:30
Kolhapur,Maharashtra,16.705,74.2433,23.7,84,0.0,948.1,8.45,47.2,53,19.5,11.8,5.2,137.0,43.0,2.9,3,5,7,1,2026-06-19T07:14:27.004184+05:30
Goa,Goa,15.2993,74.124,26.0,93,0.0,998.4,8.6,29.9,60,41.2,21.9,5.3,247.0,47.0,2.5,7,5,7,1,2026-06-19T07:14:27.004191+05:30
Jodhpur,Rajasthan,26.2389,73.0243,28.8,66,0.0,980.2,8.45,36.7,100,140.2,37.4,4.8,116.0,53.0,3.1,7,5,7,1,2026-06-19T07:14:27.004198+05:30
Udaipur,Rajasthan,24.5854,73.7125,25.4,77,0.0,944.6,8.8,35.6,60,32.7,16.9,8.6,124.0,46.0,4.8,7,5,7,1,2026-06-19T07:14:27.004205+05:30
Kota,Rajasthan,25.2138,75.8648,29.4,62,0.0,976.8,8.35,38.2,69,28.2,17.8,6.9,181.0,60.0,6.8,7,5,7,1,2026-06-19T07:14:27.004213+05:30
Bikaner,Rajasthan,28.0229,73.3119,29.3,64,0.0,978.7,8.45,29.9,122,194.6,57.0,3.1,121.0,47.0,3.2,7,5,7,1,2026-06-19T07:14:27.004219+05:30
Ajmer,Rajasthan,26.4499,74.6399,26.4,71,0.0,952.4,8.35,36.0,76,28.1,15.9,6.3,137.0,55.0,4.5,7,5,7,1,2026-06-19T07:14:27.004226+05:30
Gwalior,Madhya Pradesh,26.2183,78.1828,31.0,52,0.0,980.5,8.3,36.4,93,28.6,18.2,6.5,157.0,58.0,5.0,0,5,7,1,2026-06-19T07:14:27.004233+05:30
Indore,Madhya Pradesh,22.7196,75.8577,26.1,74,0.0,947.1,8.65,43.6,66,28.4,18.0,7.6,209.0,50.0,10.3,7,5,7,1,2026-06-19T07:14:27.004239+05:30
Bhopal,Madhya Pradesh,23.2599,77.4126,26.6,69,0.0,952.2,8.7,34.9,65,26.7,18.3,5.4,228.0,66.0,4.9,7,5,7,1,2026-06-19T07:14:27.004246+05:30
Jabalpur,Madhya Pradesh,23.1815,79.9864,28.1,70,0.0,959.8,8.9,30.6,66,24.9,21.4,13.0,280.0,54.0,3.4,7,5,7,1,2026-06-19T07:14:27.004253+05:30
Ujjain,Madhya Pradesh,23.1765,75.7885,26.3,76,0.0,952.6,8.5,41.4,64,29.8,17.7,6.9,196.0,47.0,10.0,7,5,7,1,2026-06-19T07:14:27.004260+05:30
Visakhapatnam,Andhra Pradesh,17.6868,83.2185,26.0,97,0.2,1002.2,6.4,36.7,109,37.3,29.6,24.1,374.0,78.0,41.9,10,5,4,1,2026-06-19T07:14:27.004266+05:30
Vijayawada,Andhra Pradesh,16.5062,80.648,29.1,69,0.0,1000.8,7.1,28.8,81,31.5,28.6,9.7,231.0,87.0,4.6,7,5,4,1,2026-06-19T07:14:27.004273+05:30
Guntur,Andhra Pradesh,16.3067,80.4365,28.6,67,0.0,1002.0,8.05,34.6,75,29.6,26.9,10.1,210.0,83.0,4.3,7,5,4,1,2026-06-19T07:14:27.004282+05:30
Nellore,Andhra Pradesh,14.4426,79.9865,27.1,88,0.0,1004.9,7.25,29.5,66,21.8,18.5,11.6,167.0,52.0,4.2,7,5,4,1,2026-06-19T07:14:27.004290+05:30
Kurnool,Andhra Pradesh,15.8281,78.0373,28.5,64,0.0,976.9,2.9,37.4,64,18.5,14.0,7.7,175.0,45.0,3.7,7,5,3,1,2026-06-19T07:14:27.004298+05:30
Kakinada,Andhra Pradesh,16.9891,82.2475,27.6,93,0.0,1006.1,4.35,31.0,89,32.6,23.6,5.5,189.0,105.0,5.0,7,5,0,1,2026-06-19T07:14:27.004305+05:30
Tirupati,Andhra Pradesh,13.6288,79.4192,26.5,92,0.0,990.6,3.1,50.0,70,25.0,21.1,18.1,236.0,36.0,3.7,7,5,3,1,2026-06-19T07:14:27.004311+05:30
Warangal,Telangana,17.9689,79.5941,29.9,58,0.0,976.8,7.9,34.2,90,31.9,29.0,11.4,300.0,70.0,10.0,4,5,7,1,2026-06-19T07:14:27.004317+05:30
Nizamabad,Telangana,18.6725,78.0941,29.9,49,0.0,963.9,8.95,31.7,73,27.4,23.7,16.7,232.0,48.0,5.9,4,5,7,1,2026-06-19T07:14:27.004324+05:30
Mysore,Karnataka,12.2958,76.6396,21.2,92,0.0,929.0,7.55,38.5,55,14.3,10.4,11.0,171.0,50.0,2.7,3,5,7,1,2026-06-19T07:14:27.004330+05:30
Mangalore,Karnataka,12.9141,74.856,24.1,96,0.0,1008.1,8.55,27.7,67,23.3,15.6,11.5,283.0,31.0,3.7,3,0,4,1,2026-06-19T07:14:27.004336+05:30
Hubli-Dharwad,Karnataka,15.3647,75.124,23.9,84,0.0,941.4,8.0,37.1,51,19.6,10.7,3.5,139.0,44.0,2.1,3,5,7,1,2026-06-19T07:14:27.004342+05:30
Belgaum,Karnataka,15.8497,74.4977,22.1,90,0.0,925.9,8.85,38.2,55,26.2,17.2,5.6,114.0,39.0,1.1,3,5,7,1,2026-06-19T07:14:30.479911+05:30
Coimbatore,Tamil Nadu,11.0168,76.9558,23.8,92,0.0,962.4,8.0,36.7,38,6.6,5.6,9.1,242.0,44.0,3.8,3,5,7,1,2026-06-19T07:14:30.479950+05:30
Madurai,Tamil Nadu,9.9252,78.1198,27.5,72,0.0,993.3,7.4,28.8,64,18.0,14.8,18.8,273.0,34.0,5.0,7,5,7,1,2026-06-19T07:14:30.479962+05:30
Trichy,Tamil Nadu,10.7905,78.7047,27.5,77,0.0,999.7,7.1,38.9,54,9.5,8.0,8.5,174.0,61.0,3.7,7,5,7,1,2026-06-19T07:14:30.479970+05:30
Salem,Tamil Nadu,11.6643,78.146,25.7,86,0.0,977.7,6.9,21.6,58,22.1,19.6,14.3,273.0,53.0,9.0,7,5,7,1,2026-06-19T07:14:30.479979+05:30
Tirunelveli,Tamil Nadu,8.7139,77.7567,28.6,66,0.0,1003.5,7.4,36.0,51,18.5,12.7,8.2,264.0,34.0,2.8,7,5,4,1,2026-06-19T07:14:30.479988+05:30
Vellore,Tamil Nadu,12.9165,79.1325,26.9,74,0.0,984.2,7.9,42.5,69,27.7,21.9,15.2,254.0,50.0,6.7,7,5,7,1,2026-06-19T07:14:30.479996+05:30
Erode,Tamil Nadu,11.341,77.7172,26.1,84,0.0,989.6,6.0,23.8,50,11.4,9.7,12.5,227.0,48.0,3.7,7,5,3,1,2026-06-19T07:14:30.480004+05:30
Kochi,Kerala,9.9312,76.2673,24.8,96,0.2,1010.0,8.4,22.7,60,20.3,15.6,16.2,235.0,18.0,4.0,6,0,4,1,2026-06-19T07:14:30.480012+05:30
Thiruvananthapuram,Kerala,8.5241,76.9366,24.9,97,0.0,1009.1,7.2,35.6,55,27.1,14.8,6.5,244.0,44.0,3.7,3,0,4,1,2026-06-19T07:14:30.480020+05:30
Kozhikode,Kerala,11.2588,75.7804,23.9,99,0.2,1009.5,7.95,32.8,51,25.8,12.1,2.5,247.0,55.0,2.0,6,0,4,1,2026-06-19T07:14:30.480026+05:30
Thrissur,Kerala,10.5276,76.2144,24.5,99,0.1,1008.6,7.15,25.9,61,19.6,14.9,10.7,314.0,33.0,4.1,6,0,4,1,2026-06-19T07:14:30.480034+05:30
Kannur,Kerala,11.8745,75.3704,24.1,98,0.2,1008.7,6.75,31.7,66,22.1,15.2,15.7,259.0,29.0,3.0,6,0,4,1,2026-06-19T07:14:30.480041+05:30
Patna,Bihar,25.5941,85.1376,29.0,78,0.0,997.0,8.9,28.1,155,95.9,74.3,18.9,358.0,79.0,11.9,7,5,7,1,2026-06-19T07:14:30.480049+05:30
Gaya,Bihar,24.7914,85.0002,28.6,76,0.0,990.5,8.5,29.5,156,68.9,53.0,20.7,228.0,71.0,14.0,7,5,7,1,2026-06-19T07:14:30.480056+05:30
Muzaffarpur,Bihar,26.1209,85.3647,28.0,85,0.0,997.5,8.9,24.1,156,93.4,72.9,16.3,570.0,86.0,11.2,7,5,7,1,2026-06-19T07:14:30.480063+05:30
Bhagalpur,Bihar,25.2425,87.0117,28.5,79,0.0,998.5,8.7,34.6,161,84.5,76.4,14.6,622.0,72.0,21.0,7,5,7,1,2026-06-19T07:14:30.480069+05:30
Ranchi,Jharkhand,23.3441,85.3096,27.1,69,0.0,936.0,8.0,34.2,150,74.7,64.0,11.8,268.0,96.0,11.5,7,5,7,1,2026-06-19T07:14:30.480076+05:30
Jamshedpur,Jharkhand,22.8046,86.2029,30.2,69,0.0,988.3,8.5,36.4,157,89.4,73.3,21.3,567.0,84.0,36.3,3,5,7,1,2026-06-19T07:14:30.480084+05:30
Dhanbad,Jharkhand,23.7957,86.4304,27.9,82,0.0,977.6,8.45,37.1,170,99.0,81.3,40.6,377.0,65.0,112.7,7,5,7,1,2026-06-19T07:14:30.480090+05:30
Bokaro,Jharkhand,23.6693,86.1511,29.6,70,0.0,981.6,7.35,38.5,165,94.1,76.6,37.2,308.0,60.0,95.0,7,5,7,1,2026-06-19T07:14:30.480098+05:30
Bhubaneswar,Odisha,20.2961,85.8245,29.8,83,0.0,999.9,8.2,42.8,122,38.8,32.1,6.8,364.0,102.0,9.7,7,5,7,1,2026-06-19T07:14:30.480105+05:30
Cuttack,Odisha,20.4625,85.8828,29.9,84,0.0,1001.7,7.4,44.3,122,38.8,32.1,6.8,347.0,102.0,9.7,7,5,4,1,2026-06-19T07:14:30.480112+05:30
Rourkela,Odisha,22.2604,84.8536,29.6,75,0.0,982.5,9.0,37.1,153,94.3,76.6,21.3,438.0,89.0,8.3,7,5,7,1,2026-06-19T07:14:30.480119+05:30
Raipur,Chhattisgarh,21.2514,81.6296,29.6,65,0.0,973.1,8.3,46.4,112,74.7,68.7,65.9,812.0,19.0,108.3,7,5,7,1,2026-06-19T07:14:30.480126+05:30
Bhilai,Chhattisgarh,21.1938,81.3509,28.3,72,0.0,973.4,8.3,45.0,109,73.6,68.0,55.1,1148.0,25.0,99.8,7,5,7,1,2026-06-19T07:14:30.480132+05:30
Guwahati,Assam,26.1158,91.7086,26.2,92,0.0,1000.3,8.8,35.3,95,37.6,31.8,7.2,296.0,75.0,3.6,7,5,4,1,2026-06-19T07:14:30.480138+05:30
Agartala,Tripura,23.8315,91.2868,27.1,86,0.0,1005.0,8.55,31.0,86,28.1,23.4,11.7,195.0,57.0,3.2,7,5,4,1,2026-06-19T07:14:30.480145+05:30
Shillong,Meghalaya,25.5788,91.8933,21.2,84,0.0,857.3,8.3,24.5,66,7.5,5.7,3.9,235.0,85.0,3.3,3,5,7,1,2026-06-19T07:14:30.480152+05:30
Imphal,Manipur,24.817,93.9368,24.3,85,0.0,922.4,8.65,29.9,72,13.5,10.4,5.2,318.0,66.0,2.5,3,5,7,1,2026-06-19T07:14:30.480159+05:30
Aizawl,Mizoram,23.7271,92.7176,21.6,84,0.1,892.1,8.45,26.6,56,13.0,11.2,3.3,179.0,47.0,0.6,6,5,7,1,2026-06-19T07:14:30.480165+05:30
Kohima,Nagaland,25.6701,94.1077,21.3,91,0.0,855.3,7.85,21.6,64,16.8,11.8,2.3,263.0,83.0,2.0,3,5,7,1,2026-06-19T07:14:30.480172+05:30
Gangtok,Sikkim,27.3314,88.6138,18.1,97,0.7,836.5,8.1,33.8,49,12.5,10.4,4.9,459.0,111.0,3.1,6,10,7,1,2026-06-19T07:14:30.480178+05:30
Siliguri,West Bengal,26.7271,88.3953,24.3,98,0.5,991.6,6.95,25.6,95,28.8,24.2,7.6,428.0,124.0,4.5,6,5,7,1,2026-06-19T07:14:33.792186+05:30
Durgapur,West Bengal,23.5204,87.3119,26.3,97,0.1,992.7,9.05,28.4,176,107.6,98.3,42.7,833.0,48.0,67.9,10,5,7,1,2026-06-19T07:14:33.792223+05:30
Asansol,West Bengal,23.6739,86.9524,27.4,89,0.0,991.5,8.9,31.3,170,92.9,79.2,40.5,578.0,58.0,73.6,7,5,7,1,2026-06-19T07:14:33.792235+05:30
Pondicherry,Puducherry,11.9139,79.8145,27.7,86,0.0,1007.7,7.85,44.3,75,27.5,22.9,15.8,362.0,62.0,12.4,7,5,4,1,2026-06-19T07:14:33.792245+05:30
Port Blair,Andaman and Nicobar Islands,11.6234,92.7265,27.2,90,0.0,1008.7,7.85,36.0,23,17.1,7.7,0.3,101.0,49.0,0.3,7,0,4,1,2026-06-19T07:14:33.792253+05:30
Haridwar,Uttarakhand,29.9457,78.1642,27.4,84,0.0,970.4,7.65,23.4,141,87.8,67.8,31.5,302.0,63.0,7.0,7,5,7,1,2026-06-19T07:14:33.792261+05:30
Rishikesh,Uttarakhand,30.0869,78.2676,26.6,77,0.0,963.4,7.75,22.7,114,70.8,40.6,9.2,339.0,105.0,3.6,7,5,7,1,2026-06-19T07:14:33.792269+05:30
Nainital,Uttarakhand,29.3919,79.4542,17.0,89,0.0,804.7,7.85,28.8,115,72.4,49.1,23.7,272.0,64.0,4.1,3,10,7,0,2026-06-19T07:14:33.792277+05:30
Mussoorie,Uttarakhand,30.4599,78.0664,16.8,88,0.0,801.9,7.6,37.4,108,48.8,36.1,28.9,226.0,56.0,4.0,3,10,7,0,2026-06-19T07:14:33.792284+05:30
Dharamshala,Himachal Pradesh,32.219,76.3234,22.2,74,0.0,867.6,7.6,44.3,49,4.6,3.0,4.0,267.0,99.0,0.2,3,5,7,1,2026-06-19T07:14:33.792291+05:30
Dalhousie,Himachal Pradesh,32.5387,75.971,15.5,93,0.0,802.4,8.6,33.8,78,12.0,9.2,10.0,277.0,76.0,0.6,3,10,7,0,2026-06-19T07:14:33.792299+05:30
Patiala,Punjab,30.3398,76.3869,28.4,63,0.0,975.1,7.7,28.4,159,127.6,106.6,29.5,674.0,68.0,11.6,7,5,7,1,2026-06-19T07:14:33.792307+05:30
Bhatinda,Punjab,30.211,74.9455,29.3,61,0.0,980.9,8.3,34.9,148,82.2,69.2,43.1,514.0,41.0,8.6,7,5,7,1,2026-06-19T07:14:33.792314+05:30
Rohtak,Haryana,28.8955,76.6066,27.9,67,0.0,978.8,7.8,30.2,233,361.4,128.1,53.4,357.0,31.0,19.0,7,5,7,1,2026-06-19T07:14:33.792320+05:30
Panipat,Haryana,29.3909,76.9635,27.8,63,0.0,977.1,7.65,27.7,525,366.9,141.1,50.3,509.0,31.0,10.3,7,5,7,1,2026-06-19T07:14:33.792326+05:30
Mathura,Uttar Pradesh,27.4924,77.6737,29.2,61,0.0,983.7,8.1,28.1,162,136.4,62.4,43.3,271.0,15.0,8.0,7,5,7,1,2026-06-19T07:14:33.792333+05:30
Vrindavan,Uttar Pradesh,27.5823,77.7027,29.4,59,0.0,984.2,8.1,27.7,162,136.4,62.4,43.3,278.0,15.0,8.0,4,5,7,1,2026-06-19T07:14:33.792339+05:30
Ayodhya,Uttar Pradesh,26.7922,82.1998,30.8,65,0.0,990.9,8.45,31.0,158,141.6,88.7,46.5,557.0,48.0,14.1,3,5,7,1,2026-06-19T07:14:33.792346+05:30
Ratlam,Madhya Pradesh,23.3315,75.0367,25.1,83,0.0,953.7,7.5,43.6,63,27.1,15.3,6.7,144.0,47.0,9.5,7,5,7,1,2026-06-19T07:14:33.792353+05:30
Sagar,Madhya Pradesh,23.8388,78.7378,27.7,65,0.0,948.7,8.75,31.7,61,18.1,13.2,6.1,191.0,70.0,2.4,7,5,7,1,2026-06-19T07:14:33.792359+05:30
Satna,Madhya Pradesh,24.6005,80.8322,30.4,58,0.0,968.5,8.3,37.4,77,27.5,19.8,8.2,194.0,69.0,4.0,0,5,7,1,2026-06-19T07:14:33.792365+05:30
Akola,Maharashtra,20.7002,77.0082,29.2,56,0.0,974.6,8.8,40.7,58,24.4,15.1,7.4,124.0,58.0,10.3,4,5,7,1,2026-06-19T07:14:33.792372+05:30
Amravati,Maharashtra,20.9374,77.7796,29.0,55,0.0,966.5,8.7,37.1,60,23.9,16.5,7.9,166.0,66.0,10.6,4,5,7,1,2026-06-19T07:14:33.792380+05:30
Latur,Maharashtra,18.4088,76.5604,27.0,55,0.0,939.5,8.95,27.0,62,19.8,15.1,6.0,148.0,68.0,9.2,4,5,7,1,2026-06-19T07:14:33.792387+05:30
Nanded,Maharashtra,19.1383,77.3091,30.8,47,0.0,968.0,8.9,34.2,58,19.7,14.1,7.0,151.0,53.0,5.3,0,5,7,1,2026-06-19T07:14:33.792394+05:30
Gulbarga,Karnataka,17.3297,76.8343,27.5,53,0.0,958.7,8.95,35.3,56,16.1,12.1,6.0,143.0,47.0,4.0,4,5,7,1,2026-06-19T07:14:33.792401+05:30
Bidar,Karnataka,17.9104,77.5199,27.5,56,0.0,935.1,8.9,31.3,66,19.5,16.1,10.2,168.0,65.0,7.3,4,5,7,1,2026-06-19T07:14:33.792408+05:30
Hospet,Karnataka,15.2689,76.3909,25.3,77,0.0,956.4,8.9,38.5,51,20.4,11.3,3.8,130.0,46.0,2.1,7,5,7,1,2026-06-19T07:14:33.792414+05:30
Tirupur,Tamil Nadu,11.1085,77.3411,24.7,89,0.0,975.8,7.6,29.9,50,12.0,10.2,13.2,190.0,42.0,4.5,3,5,7,1,2026-06-19T07:14:33.792420+05:30
Alappuzha,Kerala,9.4981,76.3388,25.7,94,0.1,1009.9,6.5,29.5,56,17.6,11.6,10.5,165.0,37.0,3.7,10,0,4,1,2026-06-19T07:14:33.792427+05:30
Munnar,Kerala,10.0889,77.0595,16.7,99,0.1,856.6,4.65,22.3,23,2.2,2.2,6.4,118.0,28.0,1.2,6,10,3,1,2026-06-19T07:14:33.792434+05:30
Silchar,Assam,24.8333,92.7789,27.8,86,0.0,1004.1,8.1,30.2,86,43.1,33.4,10.5,257.0,68.0,5.3,7,5,4,1,2026-06-19T07:14:33.792441+05:30
Dibrugarh,Assam,27.4728,94.912,26.1,99,0.0,994.0,8.65,22.3,67,20.4,17.2,5.7,276.0,103.0,2.2,7,5,7,1,2026-06-19T07:14:33.792464+05:30
