city,state,latitude,longitude,temp,humidity,rain,pressure,uv_index,wind_gusts,aqi,pm10,pm2_5,no2,co,o3,so2,mosquito_risk,arthritis_risk,migraine_risk,frizz_risk,updated_at
Delhi,Delhi,28.6139,77.209,35.7,35,0.0,980.7,7.8,35.6,403,380.9,101.3,37.3,712.0,135.0,45.8,0,5,10,1,2026-06-18T09:45:14.744512+05:30
Mumbai,Maharashtra,19.076,72.8777,31.9,58,0.0,1009.4,7.7,45.7,57,36.7,18.5,7.1,186.0,64.0,9.0,0,0,4,1,2026-06-18T09:45:14.744569+05:30
Bangalore,Karnataka,12.9716,77.5946,26.2,63,0.0,914.3,8.5,35.3,63,20.0,12.9,9.4,551.0,64.0,5.0,7,5,7,1,2026-06-18T09:45:14.744585+05:30
Hyderabad,Telangana,17.385,78.4867,32.7,40,0.0,954.4,9.05,36.4,73,32.1,22.1,7.5,292.0,102.0,9.2,0,5,7,1,2026-06-18T09:45:14.744596+05:30
Chennai,Tamil Nadu,13.0827,80.2707,33.9,49,0.0,1007.1,8.3,35.3,82,33.3,26.0,14.8,326.0,106.0,15.8,0,5,4,1,2026-06-18T09:45:14.744606+05:30
Kolkata,West Bengal,22.5726,88.3639,34.9,62,0.0,1003.9,8.95,34.9,128,71.9,53.6,3.6,462.0,148.0,13.3,3,5,4,1,2026-06-18T09:45:14.744616+05:30
Pune,Maharashtra,18.5204,73.8567,30.1,53,0.0,949.7,8.3,47.2,51,21.0,11.8,3.7,153.0,65.0,6.2,0,5,7,1,2026-06-18T09:45:14.744624+05:30
Ahmedabad,Gujarat,23.0225,72.5714,31.1,67,0.0,1002.2,8.05,36.7,67,44.2,18.3,3.5,149.0,56.0,5.4,3,5,4,1,2026-06-18T09:45:14.744632+05:30
Jaipur,Rajasthan,26.9124,75.7873,32.4,52,0.0,958.9,8.2,29.5,121,232.8,46.3,3.9,191.0,78.0,5.0,0,5,7,1,2026-06-18T09:45:14.744640+05:30
Lucknow,Uttar Pradesh,26.8467,80.9462,37.2,35,0.0,990.8,8.35,33.8,156,299.0,73.6,8.9,261.0,141.0,15.3,0,5,10,1,2026-06-18T09:45:14.744652+05:30
Kanpur,Uttar Pradesh,26.4499,80.3319,37.5,35,0.0,989.2,8.3,37.4,157,257.0,61.9,10.0,193.0,105.0,10.7,0,5,10,1,2026-06-18T09:45:14.744660+05:30
Chandigarh,Chandigarh,30.7333,76.7794,32.1,53,0.0,966.8,7.8,58.0,156,129.9,52.7,6.4,566.0,174.0,20.2,0,5,7,1,2026-06-18T09:45:14.744668+05:30
Srinagar,Jammu and Kashmir,34.0837,74.7973,20.7,66,0.0,843.6,8.8,30.6,71,29.6,21.3,6.7,475.0,109.0,4.6,3,5,7,0,2026-06-18T09:45:14.744677+05:30
Jammu,Jammu and Kashmir,32.7266,74.857,33.9,38,0.0,970.7,8.65,40.3,87,27.3,15.3,8.2,336.0,140.0,3.5,0,5,7,1,2026-06-18T09:45:14.744684+05:30
Amritsar,Punjab,31.634,74.8723,31.7,61,0.0,978.6,8.3,53.3,160,75.2,55.8,17.5,678.0,147.0,18.9,3,5,7,1,2026-06-18T09:45:14.744692+05:30
Ludhiana,Punjab,30.901,75.8573,34.0,45,0.0,976.3,7.8,72.0,160,91.5,58.0,10.9,623.0,141.0,12.7,0,5,7,1,2026-06-18T09:45:14.744700+05:30
Jalandhar,Punjab,31.326,75.5762,34.9,40,0.0,977.3,8.25,68.4,160,101.0,56.8,10.4,453.0,158.0,10.5,0,5,7,1,2026-06-18T09:45:14.744707+05:30
Dehradun,Uttarakhand,30.6284,78.0322,23.7,60,0.0,832.1,6.95,29.9,68,55.3,21.4,0.4,203.0,144.0,2.2,0,5,7,0,2026-06-18T09:45:14.744717+05:30
Shimla,Himachal Pradesh,31.1048,77.1734,21.4,48,0.0,787.0,7.75,34.9,82,75.0,26.7,1.3,215.0,147.0,4.1,0,5,7,0,2026-06-18T09:45:14.744725+05:30
Manali,Himachal Pradesh,32.2396,77.1887,24.3,43,0.0,820.5,9.45,31.0,54,3.8,3.3,11.7,175.0,109.0,0.2,0,5,7,0,2026-06-18T09:45:14.744734+05:30
Gurgaon,Haryana,28.4595,77.0266,34.9,37,0.0,979.3,7.85,31.3,359,345.5,75.4,28.6,413.0,102.0,24.4,0,5,7,1,2026-06-18T09:45:14.744742+05:30
Noida,Uttar Pradesh,28.5355,77.391,34.5,45,0.0,982.1,7.85,21.6,359,345.5,75.4,28.6,705.0,102.0,24.4,0,5,7,1,2026-06-18T09:45:14.744749+05:30
Ghaziabad,Uttar Pradesh,28.6692,77.4538,33.6,51,0.0,980.4,7.6,25.6,427,506.6,127.1,14.1,666.0,192.0,32.9,0,5,7,1,2026-06-18T09:45:14.744755+05:30
Faridabad,Haryana,28.4089,77.3178,35.1,38,0.0,981.4,7.85,33.1,359,345.5,75.4,28.6,518.0,102.0,24.4,0,5,10,1,2026-06-18T09:45:14.744763+05:30
Meerut,Uttar Pradesh,28.9845,77.7064,34.0,46,0.0,979.1,7.15,42.1,427,506.6,127.1,14.1,414.0,192.0,32.9,0,5,7,1,2026-06-18T09:45:14.744770+05:30
Agra,Uttar Pradesh,27.1767,78.0081,36.0,39,0.0,985.5,8.15,29.9,186,618.4,92.9,11.0,218.0,85.0,7.2,0,5,10,1,2026-06-18T09:45:14.744777+05:30
Varanasi,Uttar Pradesh,25.3176,82.9739,35.3,48,0.0,995.3,8.45,30.6,153,99.4,48.8,5.9,246.0,120.0,10.7,0,5,10,1,2026-06-18T09:45:14.744784+05:30
Prayagraj,Uttar Pradesh,25.4358,81.8463,37.2,38,0.0,993.6,8.45,33.5,153,61.9,37.7,4.8,180.0,120.0,9.0,0,5,10,1,2026-06-18T09:45:14.744791+05:30
Gorakhpur,Uttar Pradesh,26.7606,83.3732,34.8,51,0.0,994.7,8.7,29.2,155,127.6,61.9,5.8,329.0,135.0,12.4,0,5,7,1,2026-06-18T09:45:14.744799+05:30
Bareilly,Uttar Pradesh,28.367,79.4304,33.5,53,0.0,984.0,8.15,31.7,161,241.2,78.0,6.2,364.0,168.0,18.9,0,5,7,1,2026-06-18T09:45:14.744808+05:30
Aligarh,Uttar Pradesh,27.8974,78.088,34.2,47,0.0,983.4,7.9,29.2,297,318.5,79.6,14.4,357.0,131.0,14.6,0,5,7,1,2026-06-18T09:45:14.744815+05:30
Moradabad,Uttar Pradesh,28.8386,78.7733,33.8,49,0.0,981.0,7.6,36.0,179,267.3,91.0,14.0,381.0,162.0,17.7,0,5,7,1,2026-06-18T09:45:14.744822+05:30
Saharanpur,Uttar Pradesh,29.9637,77.546,31.8,61,0.0,973.5,7.55,38.5,203,261.7,84.8,6.4,497.0,184.0,20.3,3,5,7,1,2026-06-18T09:45:14.744829+05:30
Jhansi,Uttar Pradesh,25.4484,78.5685,35.3,41,0.0,976.4,8.5,34.6,84,49.5,22.5,2.6,148.0,85.0,6.1,0,5,10,1,2026-06-18T09:45:18.111650+05:30
Surat,Gujarat,21.1702,72.8311,32.0,63,0.0,1007.3,7.6,52.2,70,44.2,23.3,14.9,323.0,41.0,41.8,3,5,4,1,2026-06-18T09:45:18.111687+05:30
Vadodara,Gujarat,22.3072,73.1812,31.8,59,0.0,1004.6,8.05,46.8,62,42.3,18.0,4.0,156.0,56.0,5.2,0,5,4,1,2026-06-18T09:45:18.111698+05:30
Rajkot,Gujarat,22.3039,70.8022,30.3,67,0.1,994.3,5.65,44.3,60,36.2,14.5,2.5,111.0,54.0,3.9,6,5,3,1,2026-06-18T09:45:18.111707+05:30
Thane,Maharashtra,19.2183,72.9781,32.1,60,0.0,1008.7,7.7,42.1,57,36.7,18.5,7.1,177.0,64.0,9.0,0,0,4,1,2026-06-18T09:45:18.111715+05:30
Nagpur,Maharashtra,21.1458,79.0882,34.4,41,0.0,973.7,8.9,39.6,88,35.3,22.2,9.0,213.0,103.0,21.8,0,5,7,1,2026-06-18T09:45:18.111723+05:30
Nashik,Maharashtra,19.9975,73.7898,29.9,55,0.0,947.0,8.05,45.7,48,28.2,12.5,3.1,126.0,61.0,4.9,4,5,7,1,2026-06-18T09:45:18.111731+05:30
Aurangabad,Maharashtra,19.8762,75.3433,30.4,52,0.0,945.8,8.95,43.9,50,30.0,12.3,2.3,128.0,62.0,3.9,0,5,7,1,2026-06-18T09:45:18.111737+05:30
Solapur,Maharashtra,17.6599,75.9064,30.8,51,0.0,959.1,8.9,46.1,56,26.7,14.8,3.1,133.0,74.0,5.9,0,5,7,1,2026-06-18T09:45:18.111745+05:30
Kolhapur,Maharashtra,16.705,74.2433,29.4,54,0.0,950.1,8.8,46.4,51,22.9,13.8,3.2,133.0,68.0,3.0,4,5,7,1,2026-06-18T09:45:18.111752+05:30
Goa,Goa,15.2993,74.124,29.9,72,0.0,1000.2,8.7,28.1,60,29.7,14.8,1.3,160.0,60.0,2.2,7,5,4,1,2026-06-18T09:45:18.111759+05:30
Jodhpur,Rajasthan,26.2389,73.0243,32.9,56,0.0,981.8,8.4,37.4,104,224.9,51.5,1.5,132.0,58.0,4.2,0,5,7,1,2026-06-18T09:45:18.111766+05:30
Udaipur,Rajasthan,24.5854,73.7125,29.9,59,0.0,946.2,8.8,36.7,67,47.1,18.5,1.6,143.0,61.0,3.3,4,5,7,1,2026-06-18T09:45:18.111773+05:30
Kota,Rajasthan,25.2138,75.8648,34.4,45,0.0,977.8,8.35,46.4,72,46.0,22.6,3.2,159.0,86.0,6.2,0,5,7,1,2026-06-18T09:45:18.111780+05:30
Bikaner,Rajasthan,28.0229,73.3119,34.8,44,0.0,979.8,8.4,29.9,123,227.7,65.7,1.3,134.0,66.0,2.9,0,5,7,1,2026-06-18T09:45:18.111787+05:30
Ajmer,Rajasthan,26.4499,74.6399,30.8,59,0.0,954.1,8.35,39.2,83,71.2,26.3,2.3,136.0,71.0,3.9,0,5,7,1,2026-06-18T09:45:18.111795+05:30
Gwalior,Madhya Pradesh,26.2183,78.1828,35.3,43,0.0,981.3,8.3,33.8,88,56.3,24.2,2.4,145.0,82.0,3.7,0,5,10,1,2026-06-18T09:45:18.111803+05:30
Indore,Madhya Pradesh,22.7196,75.8577,30.5,55,0.0,948.8,8.6,42.5,80,41.3,22.9,4.3,196.0,62.0,10.0,0,5,7,1,2026-06-18T09:45:18.111810+05:30
Bhopal,Madhya Pradesh,23.2599,77.4126,30.0,60,0.0,954.1,8.7,29.5,84,42.6,23.3,2.3,177.0,86.0,7.4,4,5,7,1,2026-06-18T09:45:18.111817+05:30
Jabalpur,Madhya Pradesh,23.1815,79.9864,29.3,74,0.0,961.6,5.8,42.8,93,35.9,23.0,3.4,202.0,96.0,4.5,7,5,3,1,2026-06-18T09:45:18.111824+05:30
Ujjain,Madhya Pradesh,23.1765,75.7885,31.5,53,0.0,954.2,8.55,40.3,72,41.4,22.6,3.7,166.0,63.0,10.1,0,5,7,1,2026-06-18T09:45:18.111832+05:30
Visakhapatnam,Andhra Pradesh,17.6868,83.2185,32.5,60,0.0,1002.8,8.95,32.8,134,50.3,36.7,23.0,431.0,101.0,50.9,0,5,4,1,2026-06-18T09:45:18.111858+05:30
Vijayawada,Andhra Pradesh,16.5062,80.648,32.3,62,0.0,1002.0,8.95,27.4,108,33.6,24.9,5.0,244.0,123.0,7.8,3,5,4,1,2026-06-18T09:45:18.111865+05:30
Guntur,Andhra Pradesh,16.3067,80.4365,31.5,62,0.0,1003.1,8.95,38.5,117,31.2,24.1,6.4,227.0,122.0,7.5,3,5,4,1,2026-06-18T09:45:18.111873+05:30
Nellore,Andhra Pradesh,14.4426,79.9865,32.1,59,0.0,1005.8,7.8,34.9,84,27.7,19.2,6.1,162.0,102.0,9.5,0,5,4,1,2026-06-18T09:45:18.111881+05:30
Kurnool,Andhra Pradesh,15.8281,78.0373,32.3,50,0.0,978.2,3.4,36.4,69,24.2,16.1,4.3,153.0,79.0,9.5,0,5,3,1,2026-06-18T09:45:18.111888+05:30
Kakinada,Andhra Pradesh,16.9891,82.2475,32.3,67,0.0,1006.4,8.1,31.7,97,37.0,23.6,2.2,282.0,121.0,5.8,3,5,4,1,2026-06-18T09:45:18.111896+05:30
Tirupati,Andhra Pradesh,13.6288,79.4192,32.9,52,0.0,991.6,7.65,33.8,82,26.8,18.2,6.0,153.0,94.0,4.4,0,5,7,1,2026-06-18T09:45:18.111902+05:30
Warangal,Telangana,17.9689,79.5941,32.8,50,0.0,979.0,9.0,30.2,125,50.8,37.4,8.0,312.0,123.0,12.0,0,5,7,1,2026-06-18T09:45:18.111908+05:30
Nizamabad,Telangana,18.6725,78.0941,33.6,41,0.0,966.0,8.9,33.8,81,32.9,17.9,2.6,158.0,87.0,5.7,0,5,7,1,2026-06-18T09:45:18.111914+05:30
Mysore,Karnataka,12.2958,76.6396,23.5,90,0.1,930.9,8.6,26.3,51,15.9,9.4,5.4,269.0,62.0,2.7,6,5,7,1,2026-06-18T09:45:18.111921+05:30
Mangalore,Karnataka,12.9141,74.856,27.1,87,0.0,1009.7,7.5,26.3,66,22.5,12.6,4.5,159.0,56.0,2.7,7,0,4,1,2026-06-18T09:45:18.111927+05:30
Hubli-Dharwad,Karnataka,15.3647,75.124,28.3,58,0.0,943.4,8.9,36.7,46,25.7,12.8,2.9,142.0,63.0,1.9,4,5,7,1,2026-06-18T09:45:18.111934+05:30
Belgaum,Karnataka,15.8497,74.4977,26.9,64,0.0,928.2,8.95,37.8,51,25.2,12.7,2.8,118.0,60.0,1.9,7,5,7,1,2026-06-18T09:45:21.478447+05:30
Coimbatore,Tamil Nadu,11.0168,76.9558,26.5,76,0.0,964.4,7.1,36.4,35,13.6,8.5,4.2,265.0,82.0,3.4,7,5,7,1,2026-06-18T09:45:21.478484+05:30
Madurai,Tamil Nadu,9.9252,78.1198,31.5,52,0.0,994.7,6.65,42.8,79,23.5,13.1,10.0,205.0,72.0,4.6,0,5,7,1,2026-06-18T09:45:21.478495+05:30
Trichy,Tamil Nadu,10.7905,78.7047,31.7,58,0.0,1001.2,5.95,45.0,66,23.5,15.1,6.5,168.0,75.0,5.1,0,5,0,1,2026-06-18T09:45:21.478504+05:30
Salem,Tamil Nadu,11.6643,78.146,25.9,87,0.1,980.1,7.65,31.3,71,22.4,14.0,8.4,151.0,99.0,13.1,10,5,7,1,2026-06-18T09:45:21.478514+05:30
Tirunelveli,Tamil Nadu,8.7139,77.7567,34.1,44,0.0,1004.7,8.2,38.2,47,33.2,16.5,5.4,154.0,58.0,2.7,0,5,4,1,2026-06-18T09:45:21.478522+05:30
Vellore,Tamil Nadu,12.9165,79.1325,31.3,59,0.0,985.5,8.7,39.6,74,24.7,17.8,7.3,181.0,92.0,6.0,0,5,7,1,2026-06-18T09:45:21.478529+05:30
Erode,Tamil Nadu,11.341,77.7172,27.2,76,0.0,991.8,8.15,30.6,57,21.0,13.0,6.9,203.0,78.0,4.1,7,5,7,1,2026-06-18T09:45:21.478537+05:30
Kochi,Kerala,9.9312,76.2673,27.5,83,0.1,1011.8,6.45,32.4,73,35.0,21.7,10.5,162.0,64.0,6.0,10,0,4,1,2026-06-18T09:45:21.478545+05:30
Thiruvananthapuram,Kerala,8.5241,76.9366,26.9,86,0.0,1011.4,7.3,36.7,56,38.6,19.4,5.6,160.0,57.0,3.4,7,0,4,1,2026-06-18T09:45:21.478552+05:30
Kozhikode,Kerala,11.2588,75.7804,28.5,81,0.0,1010.6,3.5,34.9,53,21.8,10.3,1.3,163.0,66.0,1.5,7,0,0,1,2026-06-18T09:45:21.478559+05:30
Thrissur,Kerala,10.5276,76.2144,28.1,83,0.0,1010.0,4.3,32.0,84,32.0,20.3,5.6,186.0,76.0,4.3,7,0,0,1,2026-06-18T09:45:21.478566+05:30
Kannur,Kerala,11.8745,75.3704,28.8,77,0.0,1009.8,4.35,29.9,49,25.7,14.7,4.6,188.0,62.0,2.9,7,0,0,1,2026-06-18T09:45:21.478573+05:30
Patna,Bihar,25.5941,85.1376,34.2,54,0.0,998.5,8.8,33.5,163,139.2,69.6,6.6,297.0,175.0,16.9,0,5,7,1,2026-06-18T09:45:21.478580+05:30
Gaya,Bihar,24.7914,85.0002,33.7,52,0.0,992.3,8.9,28.1,159,135.5,64.5,5.1,265.0,152.0,11.3,0,5,7,1,2026-06-18T09:45:21.478587+05:30
Muzaffarpur,Bihar,26.1209,85.3647,32.6,65,0.0,998.4,8.6,27.0,164,120.6,69.4,6.6,549.0,175.0,18.9,3,5,7,1,2026-06-18T09:45:21.478593+05:30
Bhagalpur,Bihar,25.2425,87.0117,33.1,64,0.0,999.4,8.7,26.3,158,88.0,69.4,9.2,487.0,164.0,27.6,3,5,7,1,2026-06-18T09:45:21.478599+05:30
Ranchi,Jharkhand,23.3441,85.3096,30.9,52,0.0,937.9,9.0,42.1,145,83.6,46.7,2.7,226.0,159.0,13.0,0,5,7,1,2026-06-18T09:45:21.478606+05:30
Jamshedpur,Jharkhand,22.8046,86.2029,34.4,48,0.0,989.2,9.05,25.9,162,85.4,60.3,7.5,298.0,173.0,32.0,0,5,7,1,2026-06-18T09:45:21.478613+05:30
Dhanbad,Jharkhand,23.7957,86.4304,35.1,41,0.0,978.4,8.85,38.2,172,121.1,76.4,31.9,218.0,125.0,74.3,0,5,10,1,2026-06-18T09:45:21.478619+05:30
Bokaro,Jharkhand,23.6693,86.1511,33.4,51,0.0,982.4,9.0,38.5,169,104.5,58.2,19.1,252.0,136.0,52.8,0,5,7,1,2026-06-18T09:45:21.478625+05:30
Bhubaneswar,Odisha,20.2961,85.8245,33.7,64,0.0,1001.0,8.9,25.2,124,58.7,45.6,4.2,327.0,153.0,12.9,3,5,4,1,2026-06-18T09:45:21.478632+05:30
Cuttack,Odisha,20.4625,85.8828,33.4,67,0.0,1002.8,9.1,23.0,124,58.7,45.6,4.2,326.0,153.0,12.9,3,5,4,1,2026-06-18T09:45:21.478638+05:30
Rourkela,Odisha,22.2604,84.8536,34.4,48,0.0,984.0,9.0,28.4,151,69.6,48.4,4.6,331.0,149.0,16.0,0,5,7,1,2026-06-18T09:45:21.478645+05:30
Raipur,Chhattisgarh,21.2514,81.6296,34.8,44,0.0,974.2,8.55,34.9,145,76.6,48.0,21.6,177.0,92.0,58.4,0,5,7,1,2026-06-18T09:45:21.478652+05:30
Bhilai,Chhattisgarh,21.1938,81.3509,34.3,43,0.0,974.6,8.95,38.5,136,74.3,45.2,16.3,419.0,91.0,48.0,0,5,7,1,2026-06-18T09:45:21.478658+05:30
Guwahati,Assam,26.1158,91.7086,29.9,72,0.0,1000.3,8.8,33.1,89,37.4,28.7,1.7,332.0,127.0,3.7,7,5,4,1,2026-06-18T09:45:21.478664+05:30
Agartala,Tripura,23.8315,91.2868,29.9,74,0.0,1005.7,8.65,31.0,79,27.0,19.3,4.6,213.0,107.0,3.6,7,5,4,1,2026-06-18T09:45:21.478671+05:30
Shillong,Meghalaya,25.5788,91.8933,26.0,57,0.2,858.9,7.15,21.6,66,31.7,22.1,1.2,240.0,123.0,3.0,7,5,7,1,2026-06-18T09:45:21.478677+05:30
Imphal,Manipur,24.817,93.9368,27.6,68,0.0,923.1,9.2,30.6,80,25.4,19.0,0.7,181.0,105.0,1.8,7,5,7,1,2026-06-18T09:45:21.478683+05:30
Aizawl,Mizoram,23.7271,92.7176,25.1,70,0.0,893.5,8.9,27.0,51,20.4,13.1,0.7,153.0,94.0,1.0,7,5,7,1,2026-06-18T09:45:21.478690+05:30
Kohima,Nagaland,25.6701,94.1077,24.2,78,0.1,856.4,7.7,25.9,54,34.6,24.0,0.5,207.0,110.0,1.9,6,5,7,1,2026-06-18T09:45:21.478696+05:30
Gangtok,Sikkim,27.3314,88.6138,23.8,64,0.0,839.3,7.45,35.6,69,11.3,9.4,1.2,303.0,148.0,3.7,3,5,7,1,2026-06-18T09:45:21.478703+05:30
Siliguri,West Bengal,26.7271,88.3953,28.0,78,0.0,992.3,8.75,24.8,99,29.0,21.3,2.9,478.0,160.0,6.9,7,5,7,1,2026-06-18T09:45:24.724950+05:30
Durgapur,West Bengal,23.5204,87.3119,34.8,56,0.0,992.8,9.0,40.0,175,113.2,91.7,28.2,660.0,164.0,84.7,0,5,7,1,2026-06-18T09:45:24.724987+05:30
Asansol,West Bengal,23.6739,86.9524,35.1,51,0.0,991.5,8.85,32.8,170,116.4,85.9,31.3,647.0,134.0,83.6,0,5,10,1,2026-06-18T09:45:24.725000+05:30
Pondicherry,Puducherry,11.9139,79.8145,32.6,58,0.0,1008.7,7.95,43.6,80,34.1,25.1,9.9,186.0,106.0,10.8,0,0,4,1,2026-06-18T09:45:24.725009+05:30
Port Blair,Andaman and Nicobar Islands,11.6234,92.7265,30.1,73,0.0,1009.7,8.55,36.4,23,10.0,5.2,0.3,93.0,45.0,0.3,3,0,4,1,2026-06-18T09:45:24.725017+05:30
Haridwar,Uttarakhand,29.9457,78.1642,32.7,55,0.0,971.7,7.65,41.4,156,183.9,59.1,1.5,277.0,174.0,11.5,0,5,7,1,2026-06-18T09:45:24.725024+05:30
Rishikesh,Uttarakhand,30.0869,78.2676,31.7,55,0.0,964.6,7.75,27.4,112,102.9,37.6,1.5,275.0,157.0,5.2,0,5,7,1,2026-06-18T09:45:24.725032+05:30
Nainital,Uttarakhand,29.3919,79.4542,22.8,50,0.0,807.6,6.5,27.0,140,112.0,43.7,0.0,235.0,169.0,10.1,0,5,7,0,2026-06-18T09:45:24.725039+05:30
Mussoorie,Uttarakhand,30.4599,78.0664,21.7,68,0.0,805.1,6.4,31.3,107,125.7,43.3,0.7,222.0,167.0,7.4,3,5,7,0,2026-06-18T09:45:24.725047+05:30
Dharamshala,Himachal Pradesh,32.219,76.3234,25.4,52,0.0,869.7,8.35,40.3,58,23.9,11.5,1.1,228.0,133.0,1.7,4,5,7,0,2026-06-18T09:45:24.725053+05:30
Dalhousie,Himachal Pradesh,32.5387,75.971,22.5,51,0.0,806.8,8.35,34.2,87,45.3,20.0,2.9,240.0,150.0,2.4,0,5,7,0,2026-06-18T09:45:24.725062+05:30
Patiala,Punjab,30.3398,76.3869,34.3,42,0.0,975.9,7.7,68.8,168,139.2,56.5,4.2,402.0,145.0,14.8,0,5,7,1,2026-06-18T09:45:24.725069+05:30
Bhatinda,Punjab,30.211,74.9455,36.0,38,0.0,981.3,8.3,71.3,142,77.5,44.5,9.8,303.0,139.0,21.5,0,5,10,1,2026-06-18T09:45:24.725076+05:30
Rohtak,Haryana,28.8955,76.6066,34.2,41,0.0,979.5,7.8,31.3,266,271.9,70.5,23.4,514.0,117.0,16.5,0,5,7,1,2026-06-18T09:45:24.725082+05:30
Panipat,Haryana,29.3909,76.9635,33.7,49,0.0,978.0,6.9,37.4,510,365.1,83.6,15.7,404.0,118.0,17.7,0,5,7,1,2026-06-18T09:45:24.725089+05:30
Mathura,Uttar Pradesh,27.4924,77.6737,34.6,45,0.0,984.7,8.1,22.3,196,453.6,76.8,12.2,397.0,79.0,5.5,0,5,7,1,2026-06-18T09:45:24.725096+05:30
Vrindavan,Uttar Pradesh,27.5823,77.7027,34.6,44,0.0,985.0,8.1,22.7,196,453.6,76.8,12.2,431.0,79.0,5.5,0,5,7,1,2026-06-18T09:45:24.725103+05:30
Ayodhya,Uttar Pradesh,26.7922,82.1998,35.6,48,0.0,992.5,8.05,29.9,155,125.7,61.7,6.3,350.0,128.0,9.2,0,5,10,1,2026-06-18T09:45:24.725110+05:30
Ratlam,Madhya Pradesh,23.3315,75.0367,30.6,58,0.0,955.1,8.5,40.7,69,40.2,21.5,3.6,132.0,61.0,9.7,0,5,7,1,2026-06-18T09:45:24.725118+05:30
Sagar,Madhya Pradesh,23.8388,78.7378,32.0,49,0.0,950.3,8.75,36.4,85,38.5,20.8,2.4,211.0,92.0,5.5,0,5,7,1,2026-06-18T09:45:24.725125+05:30
Satna,Madhya Pradesh,24.6005,80.8322,35.3,42,0.0,970.2,8.85,33.8,102,51.0,28.2,2.3,158.0,103.0,5.5,0,5,10,1,2026-06-18T09:45:24.725132+05:30
Akola,Maharashtra,20.7002,77.0082,33.4,45,0.0,976.2,8.8,40.7,65,32.9,15.6,3.2,119.0,64.0,7.7,0,5,7,1,2026-06-18T09:45:24.725140+05:30
Amravati,Maharashtra,20.9374,77.7796,32.5,47,0.0,968.4,8.8,40.0,70,34.0,16.8,3.9,127.0,68.0,9.6,0,5,7,1,2026-06-18T09:45:24.725148+05:30
Latur,Maharashtra,18.4088,76.5604,30.4,49,0.0,941.7,8.85,42.8,58,29.8,15.6,3.0,154.0,77.0,6.2,0,5,7,1,2026-06-18T09:45:24.725155+05:30
Nanded,Maharashtra,19.1383,77.3091,33.4,42,0.0,970.1,8.85,38.9,62,31.3,14.4,1.9,140.0,71.0,2.2,0,5,7,1,2026-06-18T09:45:24.725161+05:30
Gulbarga,Karnataka,17.3297,76.8343,31.7,44,0.0,960.4,8.9,42.1,62,27.8,15.9,3.8,153.0,78.0,6.2,0,5,7,1,2026-06-18T09:45:24.725168+05:30
Bidar,Karnataka,17.9104,77.5199,30.8,50,0.0,937.3,8.85,34.6,64,25.4,15.7,3.8,148.0,85.0,5.9,0,5,7,1,2026-06-18T09:45:24.725175+05:30
Hospet,Karnataka,15.2689,76.3909,28.6,61,0.0,958.2,8.95,37.4,53,21.4,12.2,4.0,156.0,62.0,3.4,7,5,7,1,2026-06-18T09:45:24.725181+05:30
Tirupur,Tamil Nadu,11.1085,77.3411,27.0,79,0.0,978.0,8.35,40.7,56,19.7,12.3,6.2,228.0,84.0,4.4,7,5,7,1,2026-06-18T09:45:24.725187+05:30
Alappuzha,Kerala,9.4981,76.3388,27.7,79,0.0,1011.9,7.55,29.9,65,39.5,22.6,11.0,110.0,64.0,5.9,7,0,4,1,2026-06-18T09:45:24.725193+05:30
Munnar,Kerala,10.0889,77.0595,19.8,81,0.0,859.4,2.7,28.8,30,18.6,9.7,4.2,131.0,52.0,1.4,3,10,3,1,2026-06-18T09:45:24.725200+05:30
Silchar,Assam,24.8333,92.7789,30.1,71,0.1,1004.4,8.9,26.6,124,28.8,21.9,0.4,222.0,109.0,3.5,6,5,4,1,2026-06-18T09:45:24.725207+05:30
Dibrugarh,Assam,27.4728,94.912,30.4,74,0.0,994.0,8.05,24.1,69,20.2,17.7,1.1,259.0,139.0,2.5,3,5,7,1,2026-06-18T09:45:24.725213+05:30
