city,state,latitude,longitude,temp,humidity,rain,pressure,uv_index,wind_gusts,aqi,pm10,pm2_5,no2,co,o3,so2,mosquito_risk,arthritis_risk,migraine_risk,frizz_risk,updated_at
Delhi,Delhi,28.6139,77.209,37.8,34,0.0,979.7,7.8,33.1,171,297.1,74.5,2.8,254.0,192.0,15.9,0,5,10,1,2026-06-19T12:40:09.117360+05:30
Mumbai,Maharashtra,19.076,72.8777,33.1,52,0.0,1008.3,7.7,45.7,58,27.0,16.6,4.0,137.0,88.0,8.2,0,0,4,1,2026-06-19T12:40:09.117407+05:30
Bangalore,Karnataka,12.9716,77.5946,29.9,49,0.0,913.2,8.4,36.4,58,15.6,11.4,3.3,227.0,130.0,4.5,4,5,7,1,2026-06-19T12:40:09.117423+05:30
Hyderabad,Telangana,17.385,78.4867,35.0,38,0.0,953.2,8.95,38.2,72,26.3,18.6,1.9,200.0,139.0,6.6,0,5,7,1,2026-06-19T12:40:09.117433+05:30
Chennai,Tamil Nadu,13.0827,80.2707,33.5,57,0.0,1006.1,8.3,42.8,82,31.7,25.1,9.5,338.0,145.0,15.5,0,5,4,1,2026-06-19T12:40:09.117442+05:30
Kolkata,West Bengal,22.5726,88.3639,30.4,80,0.7,1003.8,8.85,37.8,120,45.5,39.1,6.7,389.0,122.0,11.0,6,5,4,1,2026-06-19T12:40:09.117450+05:30
Pune,Maharashtra,18.5204,73.8567,33.7,31,0.0,948.6,8.25,44.3,52,20.1,11.5,1.3,126.0,96.0,3.5,0,5,7,0,2026-06-19T12:40:09.117458+05:30
Ahmedabad,Gujarat,23.0225,72.5714,33.0,49,0.0,1000.3,7.5,42.1,69,58.4,22.1,2.0,129.0,81.0,5.5,0,5,4,1,2026-06-19T12:40:09.117465+05:30
Jaipur,Rajasthan,26.9124,75.7873,35.2,42,0.0,958.3,8.25,34.2,119,131.8,35.4,0.7,139.0,102.0,3.8,0,5,10,1,2026-06-19T12:40:09.117472+05:30
Lucknow,Uttar Pradesh,26.8467,80.9462,39.9,31,0.0,989.1,8.35,33.8,158,205.4,56.8,0.5,247.0,170.0,8.8,0,5,10,1,2026-06-19T12:40:09.117483+05:30
Kanpur,Uttar Pradesh,26.4499,80.3319,40.2,28,0.0,988.0,8.1,34.2,156,276.6,57.6,1.0,201.0,154.0,8.0,0,5,10,1,2026-06-19T12:40:09.117490+05:30
Chandigarh,Chandigarh,30.7333,76.7794,35.3,38,0.0,965.7,7.8,28.4,142,58.3,43.5,2.0,322.0,208.0,13.6,0,5,10,1,2026-06-19T12:40:09.117498+05:30
Srinagar,Jammu and Kashmir,34.0837,74.7973,24.9,48,0.0,844.0,8.1,24.1,82,12.6,9.3,1.6,272.0,150.0,2.2,0,5,7,0,2026-06-19T12:40:09.117505+05:30
Jammu,Jammu and Kashmir,32.7266,74.857,35.9,34,0.0,970.1,8.15,60.8,84,33.1,21.3,1.4,286.0,172.0,3.4,0,5,10,1,2026-06-19T12:40:09.117512+05:30
Amritsar,Punjab,31.634,74.8723,34.4,48,0.0,978.1,8.45,62.3,123,53.9,32.5,2.0,313.0,170.0,8.3,0,5,7,1,2026-06-19T12:40:09.117519+05:30
Ludhiana,Punjab,30.901,75.8573,36.1,40,0.0,975.8,8.05,31.0,153,75.0,36.7,0.8,334.0,163.0,4.4,0,5,10,1,2026-06-19T12:40:09.117526+05:30
Jalandhar,Punjab,31.326,75.5762,35.4,43,0.0,977.0,8.25,40.0,152,88.9,40.0,1.0,322.0,174.0,5.4,0,5,10,1,2026-06-19T12:40:09.117533+05:30
Dehradun,Uttarakhand,30.6284,78.0322,23.7,58,0.0,831.6,7.7,31.7,69,42.3,21.7,0.7,206.0,152.0,2.3,0,5,7,0,2026-06-19T12:40:09.117541+05:30
Shimla,Himachal Pradesh,31.1048,77.1734,23.0,48,0.1,787.5,7.75,33.8,77,37.8,23.5,0.8,191.0,160.0,5.3,3,5,7,0,2026-06-19T12:40:09.117548+05:30
Manali,Himachal Pradesh,32.2396,77.1887,24.8,44,0.0,821.2,9.3,30.2,81,8.9,6.4,3.3,146.0,146.0,0.4,0,5,7,0,2026-06-19T12:40:09.117559+05:30
Gurgaon,Haryana,28.4595,77.0266,36.5,37,0.0,978.5,7.9,29.2,302,392.1,82.2,2.4,202.0,184.0,15.8,0,5,10,1,2026-06-19T12:40:09.117566+05:30
Noida,Uttar Pradesh,28.5355,77.391,36.9,39,0.0,981.2,7.85,24.5,302,392.1,82.2,2.4,299.0,184.0,15.8,0,5,10,1,2026-06-19T12:40:09.117573+05:30
Ghaziabad,Uttar Pradesh,28.6692,77.4538,35.8,44,0.0,979.4,7.85,28.1,166,183.0,67.5,4.1,273.0,224.0,24.7,0,5,10,1,2026-06-19T12:40:09.117579+05:30
Faridabad,Haryana,28.4089,77.3178,37.1,36,0.0,980.5,7.9,31.0,302,392.1,82.2,2.4,217.0,184.0,15.8,0,5,10,1,2026-06-19T12:40:09.117586+05:30
Meerut,Uttar Pradesh,28.9845,77.7064,35.0,46,0.0,978.2,7.75,29.5,166,183.0,67.5,4.1,280.0,224.0,24.7,0,5,7,1,2026-06-19T12:40:09.117592+05:30
Agra,Uttar Pradesh,27.1767,78.0081,37.8,33,0.0,984.6,8.15,31.3,398,540.2,87.1,1.1,166.0,183.0,11.3,0,5,10,1,2026-06-19T12:40:09.117599+05:30
Varanasi,Uttar Pradesh,25.3176,82.9739,40.6,30,0.0,993.0,8.45,33.8,95,163.9,52.0,1.0,201.0,155.0,8.6,0,5,10,1,2026-06-19T12:40:09.117605+05:30
Prayagraj,Uttar Pradesh,25.4358,81.8463,40.3,27,0.0,991.4,8.05,32.0,104,157.4,49.4,1.1,183.0,150.0,8.9,0,5,10,1,2026-06-19T12:40:09.117612+05:30
Gorakhpur,Uttar Pradesh,26.7606,83.3732,37.2,41,0.0,992.3,8.7,27.0,157,148.1,59.3,1.5,256.0,195.0,10.1,0,5,10,1,2026-06-19T12:40:09.117618+05:30
Bareilly,Uttar Pradesh,28.367,79.4304,37.0,40,0.0,982.9,8.15,33.8,154,76.8,49.2,1.3,277.0,200.0,10.2,0,5,10,1,2026-06-19T12:40:09.117627+05:30
Aligarh,Uttar Pradesh,27.8974,78.088,36.2,37,0.0,982.3,8.05,29.5,171,363.2,79.2,1.5,192.0,203.0,17.3,0,5,10,1,2026-06-19T12:40:09.117633+05:30
Moradabad,Uttar Pradesh,28.8386,78.7733,36.0,42,0.0,980.0,7.95,35.6,159,84.5,58.0,1.6,305.0,217.0,14.2,0,5,10,1,2026-06-19T12:40:09.117640+05:30
Saharanpur,Uttar Pradesh,29.9637,77.546,34.5,49,0.0,972.4,7.55,27.7,157,93.1,58.6,2.3,275.0,221.0,17.6,0,5,7,1,2026-06-19T12:40:09.117646+05:30
Jhansi,Uttar Pradesh,25.4484,78.5685,37.8,35,0.0,975.5,8.5,32.0,72,84.5,30.2,0.8,138.0,109.0,4.8,0,5,10,1,2026-06-19T12:40:12.387820+05:30
Surat,Gujarat,21.1702,72.8311,33.0,56,0.0,1005.9,7.6,47.5,68,24.9,16.4,10.6,250.0,53.0,35.4,0,5,4,1,2026-06-19T12:40:12.387853+05:30
Vadodara,Gujarat,22.3072,73.1812,34.3,46,0.0,1002.9,7.8,43.6,63,51.2,22.5,3.6,124.0,76.0,7.5,0,5,4,1,2026-06-19T12:40:12.387864+05:30
Rajkot,Gujarat,22.3039,70.8022,36.4,40,0.0,992.4,7.55,45.4,62,65.7,21.4,0.8,105.0,80.0,2.7,0,5,10,1,2026-06-19T12:40:12.387874+05:30
Thane,Maharashtra,19.2183,72.9781,35.4,42,0.0,1007.2,7.7,40.3,58,27.0,16.6,4.0,137.0,88.0,8.2,0,5,7,1,2026-06-19T12:40:12.387882+05:30
Nagpur,Maharashtra,21.1458,79.0882,38.0,28,0.0,972.0,8.9,41.0,84,31.7,17.5,2.9,154.0,133.0,14.3,0,5,10,1,2026-06-19T12:40:12.387889+05:30
Nashik,Maharashtra,19.9975,73.7898,33.0,38,0.0,946.0,8.05,42.8,51,19.8,12.3,1.1,130.0,101.0,4.6,0,5,7,1,2026-06-19T12:40:12.387897+05:30
Aurangabad,Maharashtra,19.8762,75.3433,35.0,26,0.0,944.6,8.95,43.2,51,19.0,11.4,1.0,124.0,108.0,5.0,0,5,7,0,2026-06-19T12:40:12.387905+05:30
Solapur,Maharashtra,17.6599,75.9064,35.0,32,0.0,957.7,8.4,41.8,51,21.0,12.5,1.1,122.0,105.0,2.3,0,5,7,0,2026-06-19T12:40:12.387913+05:30
Kolhapur,Maharashtra,16.705,74.2433,32.2,37,0.0,948.8,8.05,47.2,53,23.5,13.0,1.2,120.0,90.0,1.7,0,5,7,0,2026-06-19T12:40:12.387921+05:30
Goa,Goa,15.2993,74.124,32.9,57,0.0,998.5,8.7,29.9,61,32.2,14.3,0.5,122.0,64.0,1.5,0,5,7,1,2026-06-19T12:40:12.387929+05:30
Jodhpur,Rajasthan,26.2389,73.0243,35.8,44,0.0,981.1,8.4,36.7,98,200.2,43.4,0.5,109.0,81.0,2.3,0,5,10,1,2026-06-19T12:40:12.387936+05:30
Udaipur,Rajasthan,24.5854,73.7125,32.6,49,0.0,945.8,8.45,35.6,62,39.3,18.8,0.6,111.0,86.0,3.0,0,5,7,1,2026-06-19T12:40:12.387943+05:30
Kota,Rajasthan,25.2138,75.8648,36.9,42,0.0,977.5,8.35,38.2,67,62.6,25.2,0.8,129.0,107.0,5.7,0,5,10,1,2026-06-19T12:40:12.387950+05:30
Bikaner,Rajasthan,28.0229,73.3119,37.5,39,0.0,979.7,8.45,29.9,121,151.8,49.6,0.3,110.0,83.0,2.5,0,5,10,1,2026-06-19T12:40:12.387958+05:30
Ajmer,Rajasthan,26.4499,74.6399,33.2,45,0.0,953.2,8.35,36.0,74,101.3,31.2,0.5,115.0,93.0,3.1,0,5,7,1,2026-06-19T12:40:12.387965+05:30
Gwalior,Madhya Pradesh,26.2183,78.1828,38.4,32,0.0,980.4,8.3,36.4,86,97.3,32.8,0.6,141.0,109.0,3.2,0,5,10,1,2026-06-19T12:40:12.387972+05:30
Indore,Madhya Pradesh,22.7196,75.8577,33.9,40,0.0,948.5,8.65,43.6,66,32.6,17.2,1.0,160.0,102.0,3.6,0,5,7,1,2026-06-19T12:40:12.387979+05:30
Bhopal,Madhya Pradesh,23.2599,77.4126,33.6,44,0.0,952.9,8.7,34.9,64,37.8,19.0,0.7,154.0,106.0,4.1,0,5,7,1,2026-06-19T12:40:12.387986+05:30
Jabalpur,Madhya Pradesh,23.1815,79.9864,36.2,43,0.0,960.1,8.15,30.6,66,24.5,13.7,0.6,131.0,116.0,2.0,0,5,10,1,2026-06-19T12:40:12.387992+05:30
Ujjain,Madhya Pradesh,23.1765,75.7885,34.0,44,0.0,953.5,8.45,41.4,63,31.0,16.4,0.8,139.0,95.0,3.1,0,5,7,1,2026-06-19T12:40:12.387999+05:30
Visakhapatnam,Andhra Pradesh,17.6868,83.2185,34.3,63,0.0,1000.4,8.85,36.7,102,37.8,32.0,16.6,407.0,127.0,45.6,3,5,4,1,2026-06-19T12:40:12.388008+05:30
Vijayawada,Andhra Pradesh,16.5062,80.648,35.9,47,0.0,1000.2,8.85,28.8,79,24.0,19.7,2.3,169.0,141.0,7.5,0,5,7,1,2026-06-19T12:40:12.388015+05:30
Guntur,Andhra Pradesh,16.3067,80.4365,36.0,45,0.0,1001.5,8.9,34.6,74,23.1,19.0,1.9,164.0,139.0,5.9,0,5,7,1,2026-06-19T12:40:12.388023+05:30
Nellore,Andhra Pradesh,14.4426,79.9865,34.7,51,0.0,1004.7,7.85,29.5,65,26.4,17.9,2.9,159.0,121.0,8.0,0,5,4,1,2026-06-19T12:40:12.388031+05:30
Kurnool,Andhra Pradesh,15.8281,78.0373,33.8,42,0.0,977.0,7.25,37.4,64,27.1,18.2,1.7,142.0,119.0,8.7,0,5,7,1,2026-06-19T12:40:12.388040+05:30
Kakinada,Andhra Pradesh,16.9891,82.2475,32.9,56,0.0,1004.7,5.55,31.0,83,27.9,23.6,4.4,225.0,141.0,8.4,0,5,0,1,2026-06-19T12:40:12.388047+05:30
Tirupati,Andhra Pradesh,13.6288,79.4192,35.6,42,0.0,990.3,5.3,50.0,67,19.2,12.7,1.2,129.0,116.0,2.5,0,5,6,1,2026-06-19T12:40:12.388054+05:30
Warangal,Telangana,17.9689,79.5941,36.8,36,0.0,977.5,8.5,34.2,83,25.5,20.3,2.0,210.0,162.0,7.2,0,5,10,1,2026-06-19T12:40:12.388062+05:30
Nizamabad,Telangana,18.6725,78.0941,35.6,35,0.0,964.5,8.95,31.7,71,27.5,15.5,0.8,142.0,110.0,3.5,0,5,10,1,2026-06-19T12:40:12.388070+05:30
Mysore,Karnataka,12.2958,76.6396,28.9,60,0.0,929.7,6.5,38.5,56,18.6,10.9,1.5,154.0,115.0,2.1,4,5,7,1,2026-06-19T12:40:12.388078+05:30
Mangalore,Karnataka,12.9141,74.856,30.1,69,0.0,1007.5,7.8,27.7,66,28.4,12.9,1.0,129.0,77.0,2.4,3,5,4,1,2026-06-19T12:40:12.388085+05:30
Hubli-Dharwad,Karnataka,15.3647,75.124,31.7,45,0.0,942.2,8.95,37.1,51,31.2,13.4,1.0,114.0,83.0,1.1,0,5,7,1,2026-06-19T12:40:12.388092+05:30
Belgaum,Karnataka,15.8497,74.4977,28.1,53,0.0,926.7,9.0,38.2,56,29.5,13.9,1.0,113.0,80.0,1.7,4,5,7,1,2026-06-19T12:40:15.649487+05:30
Coimbatore,Tamil Nadu,11.0168,76.9558,32.1,54,0.1,963.0,8.35,36.7,34,19.3,10.8,1.3,155.0,97.0,2.3,3,5,7,1,2026-06-19T12:40:15.649523+05:30
Madurai,Tamil Nadu,9.9252,78.1198,34.6,46,0.0,992.6,7.7,28.8,62,11.1,8.0,1.6,153.0,125.0,2.3,0,5,7,1,2026-06-19T12:40:15.649537+05:30
Trichy,Tamil Nadu,10.7905,78.7047,34.8,51,0.0,999.4,8.45,38.9,51,11.3,8.0,1.6,158.0,122.0,2.6,0,5,7,1,2026-06-19T12:40:15.649547+05:30
Salem,Tamil Nadu,11.6643,78.146,32.2,53,0.0,977.7,7.4,21.6,59,17.1,13.7,3.6,181.0,147.0,14.1,0,5,7,1,2026-06-19T12:40:15.649557+05:30
Tirunelveli,Tamil Nadu,8.7139,77.7567,36.7,38,0.0,1002.3,7.95,36.0,47,11.9,6.7,1.0,122.0,83.0,1.1,0,5,7,1,2026-06-19T12:40:15.649567+05:30
Vellore,Tamil Nadu,12.9165,79.1325,33.6,51,0.0,984.2,8.25,42.5,70,22.3,16.5,1.4,164.0,131.0,3.8,0,5,7,1,2026-06-19T12:40:15.649575+05:30
Erode,Tamil Nadu,11.341,77.7172,33.3,52,0.0,989.4,7.1,23.8,46,9.7,7.3,1.5,184.0,131.0,2.3,0,5,7,1,2026-06-19T12:40:15.649584+05:30
Kochi,Kerala,9.9312,76.2673,28.7,76,0.0,1009.3,7.75,22.7,57,23.0,13.0,2.5,156.0,91.0,4.3,7,0,4,1,2026-06-19T12:40:15.649593+05:30
Thiruvananthapuram,Kerala,8.5241,76.9366,29.4,71,0.0,1008.3,7.2,35.6,54,29.7,15.1,1.0,127.0,90.0,1.8,7,0,4,1,2026-06-19T12:40:15.649602+05:30
Kozhikode,Kerala,11.2588,75.7804,30.1,69,0.0,1008.5,8.3,32.8,52,32.1,16.0,0.8,123.0,87.0,2.1,3,0,4,1,2026-06-19T12:40:15.649610+05:30
Thrissur,Kerala,10.5276,76.2144,29.9,71,0.0,1007.7,7.65,25.9,56,27.9,14.8,1.0,137.0,83.0,2.3,7,5,4,1,2026-06-19T12:40:15.649620+05:30
Kannur,Kerala,11.8745,75.3704,30.0,72,0.0,1008.0,8.35,31.7,67,31.4,14.2,0.9,122.0,79.0,1.8,7,0,4,1,2026-06-19T12:40:15.649629+05:30
Patna,Bihar,25.5941,85.1376,36.7,45,0.0,995.4,8.65,28.1,155,93.8,55.2,1.8,263.0,197.0,10.5,0,5,10,1,2026-06-19T12:40:15.649637+05:30
Gaya,Bihar,24.7914,85.0002,37.7,37,0.0,989.2,8.5,29.5,152,72.6,45.5,1.4,192.0,177.0,12.8,0,5,10,1,2026-06-19T12:40:15.649644+05:30
Muzaffarpur,Bihar,26.1209,85.3647,34.4,61,0.0,995.6,8.65,24.1,155,91.3,55.6,2.1,381.0,199.0,11.9,3,5,7,1,2026-06-19T12:40:15.649651+05:30
Bhagalpur,Bihar,25.2425,87.0117,34.7,57,0.0,996.7,8.45,34.6,162,104.5,76.8,6.3,288.0,204.0,37.2,0,5,7,1,2026-06-19T12:40:15.649658+05:30
Ranchi,Jharkhand,23.3441,85.3096,32.9,53,0.0,936.1,8.0,34.2,148,51.2,36.6,1.3,161.0,161.0,9.9,0,5,7,1,2026-06-19T12:40:15.649665+05:30
Jamshedpur,Jharkhand,22.8046,86.2029,31.9,62,0.0,988.2,9.05,36.4,158,79.6,62.4,3.5,249.0,212.0,32.6,3,5,7,1,2026-06-19T12:40:15.649672+05:30
Dhanbad,Jharkhand,23.7957,86.4304,36.6,46,0.0,977.2,7.85,37.1,166,90.6,58.1,14.0,143.0,167.0,51.5,0,5,10,1,2026-06-19T12:40:15.649680+05:30
Bokaro,Jharkhand,23.6693,86.1511,37.2,46,0.0,980.8,6.95,38.5,162,83.6,63.1,16.0,167.0,193.0,67.4,0,5,10,1,2026-06-19T12:40:15.649687+05:30
Bhubaneswar,Odisha,20.2961,85.8245,29.2,83,0.0,999.4,8.15,42.8,113,45.6,34.9,2.0,266.0,160.0,8.5,7,5,7,1,2026-06-19T12:40:15.649694+05:30
Cuttack,Odisha,20.4625,85.8828,29.3,81,0.0,1001.0,7.2,44.3,113,45.6,34.9,2.0,269.0,160.0,8.5,7,5,4,1,2026-06-19T12:40:15.649700+05:30
Rourkela,Odisha,22.2604,84.8536,35.1,59,0.4,983.0,9.0,37.1,153,49.4,41.1,2.3,257.0,183.0,18.2,3,5,10,1,2026-06-19T12:40:15.649707+05:30
Raipur,Chhattisgarh,21.2514,81.6296,37.1,39,0.0,972.9,7.8,46.4,116,49.5,35.7,13.3,152.0,134.0,41.9,0,5,10,1,2026-06-19T12:40:15.649714+05:30
Bhilai,Chhattisgarh,21.1938,81.3509,36.4,40,0.0,973.3,8.5,45.0,113,43.4,30.4,12.8,216.0,127.0,38.4,0,5,10,1,2026-06-19T12:40:15.649721+05:30
Guwahati,Assam,26.1158,91.7086,31.7,69,0.0,997.2,8.7,35.3,92,17.6,15.1,1.7,287.0,107.0,2.8,3,5,7,1,2026-06-19T12:40:15.649728+05:30
Agartala,Tripura,23.8315,91.2868,28.7,83,0.0,1003.6,8.0,31.0,82,16.6,14.1,3.1,189.0,120.0,2.9,7,5,4,1,2026-06-19T12:40:15.649736+05:30
Shillong,Meghalaya,25.5788,91.8933,24.7,70,0.1,856.9,7.2,24.5,58,16.1,12.5,1.6,245.0,105.0,2.5,6,5,7,1,2026-06-19T12:40:15.649743+05:30
Imphal,Manipur,24.817,93.9368,28.6,68,0.1,920.7,8.15,29.9,70,29.2,19.0,0.8,201.0,101.0,2.2,10,5,7,1,2026-06-19T12:40:15.649750+05:30
Aizawl,Mizoram,23.7271,92.7176,24.8,72,0.1,891.8,8.55,26.6,58,23.5,15.3,0.6,168.0,94.0,1.1,6,5,7,1,2026-06-19T12:40:15.649757+05:30
Kohima,Nagaland,25.6701,94.1077,21.2,100,0.5,853.1,7.85,21.6,59,20.7,14.4,0.7,216.0,105.0,2.1,6,5,7,1,2026-06-19T12:40:15.649764+05:30
Gangtok,Sikkim,27.3314,88.6138,22.5,72,0.0,837.1,8.45,33.8,69,5.7,4.9,1.4,291.0,136.0,3.2,3,5,7,1,2026-06-19T12:40:15.649771+05:30
Siliguri,West Bengal,26.7271,88.3953,29.0,74,0.2,989.6,6.45,25.6,97,15.7,12.8,1.7,388.0,153.0,8.6,10,5,7,1,2026-06-19T12:40:18.922495+05:30
Durgapur,West Bengal,23.5204,87.3119,31.5,70,0.0,992.4,8.85,28.4,176,116.6,90.8,32.0,425.0,164.0,89.2,3,5,7,1,2026-06-19T12:40:18.922528+05:30
Asansol,West Bengal,23.6739,86.9524,35.2,54,0.0,991.0,8.9,31.3,167,100.8,64.7,19.0,295.0,161.0,52.7,0,5,10,1,2026-06-19T12:40:18.922540+05:30
Pondicherry,Puducherry,11.9139,79.8145,33.5,58,0.0,1007.7,7.8,44.3,77,26.1,21.1,6.7,231.0,134.0,10.8,0,5,4,1,2026-06-19T12:40:18.922548+05:30
Port Blair,Andaman and Nicobar Islands,11.6234,92.7265,30.9,64,0.0,1007.4,8.75,36.0,25,17.3,8.0,0.2,92.0,49.0,0.5,3,5,4,1,2026-06-19T12:40:18.922556+05:30
Haridwar,Uttarakhand,29.9457,78.1642,35.2,44,0.0,970.6,7.65,23.4,149,61.5,45.5,1.5,268.0,200.0,10.1,0,5,10,1,2026-06-19T12:40:18.922565+05:30
Rishikesh,Uttarakhand,30.0869,78.2676,33.9,45,0.0,963.6,7.75,22.7,118,65.0,39.0,0.8,240.0,180.0,6.1,0,5,7,1,2026-06-19T12:40:18.922572+05:30
Nainital,Uttarakhand,29.3919,79.4542,21.5,67,0.0,807.0,8.6,28.8,115,67.5,37.8,1.2,227.0,183.0,8.0,3,5,7,0,2026-06-19T12:40:18.922580+05:30
Mussoorie,Uttarakhand,30.4599,78.0664,20.9,62,0.1,804.1,7.6,37.4,110,59.6,37.3,1.1,197.0,182.0,6.3,6,5,7,0,2026-06-19T12:40:18.922587+05:30
Dharamshala,Himachal Pradesh,32.219,76.3234,25.5,52,0.0,869.5,8.3,44.3,56,24.9,12.5,0.4,228.0,142.0,1.0,4,5,7,0,2026-06-19T12:40:18.922595+05:30
Dalhousie,Himachal Pradesh,32.5387,75.971,21.2,75,0.1,808.0,8.25,33.8,77,27.2,16.4,1.0,221.0,162.0,1.7,6,5,7,1,2026-06-19T12:40:18.922603+05:30
Patiala,Punjab,30.3398,76.3869,36.4,40,0.0,975.0,7.7,28.4,165,901.5,122.0,1.2,303.0,170.0,7.6,0,5,10,1,2026-06-19T12:40:18.922610+05:30
Bhatinda,Punjab,30.211,74.9455,36.4,39,0.0,980.9,8.3,34.9,149,106.6,42.6,2.9,182.0,161.0,17.0,0,5,10,1,2026-06-19T12:40:18.922617+05:30
Rohtak,Haryana,28.8955,76.6066,36.0,44,0.0,978.8,7.8,30.2,325,270.1,61.5,0.3,204.0,156.0,5.7,0,5,10,1,2026-06-19T12:40:18.922624+05:30
Panipat,Haryana,29.3909,76.9635,36.0,42,0.0,977.2,7.65,27.7,635,405.1,83.4,1.7,267.0,170.0,13.5,0,5,10,1,2026-06-19T12:40:18.922634+05:30
Mathura,Uttar Pradesh,27.4924,77.6737,36.2,40,0.0,983.8,8.1,28.1,165,332.5,73.1,0.5,142.0,184.0,13.2,0,5,10,1,2026-06-19T12:40:18.922642+05:30
Vrindavan,Uttar Pradesh,27.5823,77.7027,36.2,40,0.0,984.1,8.1,27.7,165,332.5,73.1,0.5,139.0,184.0,13.2,0,5,10,1,2026-06-19T12:40:18.922649+05:30
Ayodhya,Uttar Pradesh,26.7922,82.1998,38.6,37,0.0,990.5,8.45,31.0,160,182.1,61.7,0.3,248.0,187.0,11.4,0,5,10,1,2026-06-19T12:40:18.922656+05:30
Ratlam,Madhya Pradesh,23.3315,75.0367,32.9,50,0.1,955.2,6.6,43.6,61,31.8,16.4,0.7,117.0,90.0,2.6,3,5,7,1,2026-06-19T12:40:18.922663+05:30
Sagar,Madhya Pradesh,23.8388,78.7378,35.3,41,0.0,949.5,8.75,31.7,59,46.9,20.3,0.5,149.0,108.0,2.0,0,5,10,1,2026-06-19T12:40:18.922671+05:30
Satna,Madhya Pradesh,24.6005,80.8322,38.2,32,0.0,968.8,8.8,37.4,74,82.4,31.8,0.6,140.0,116.0,4.5,0,5,10,1,2026-06-19T12:40:18.922678+05:30
Akola,Maharashtra,20.7002,77.0082,36.9,35,0.0,974.7,8.8,40.7,58,34.8,16.3,1.2,115.0,101.0,5.5,0,5,10,1,2026-06-19T12:40:18.922685+05:30
Amravati,Maharashtra,20.9374,77.7796,36.2,35,0.0,967.0,8.8,37.1,60,34.9,17.2,1.4,123.0,107.0,7.1,0,5,10,1,2026-06-19T12:40:18.922693+05:30
Latur,Maharashtra,18.4088,76.5604,34.7,33,0.0,940.7,8.7,27.0,62,21.7,13.3,0.9,127.0,110.0,3.3,0,5,7,1,2026-06-19T12:40:18.922700+05:30
Nanded,Maharashtra,19.1383,77.3091,36.8,31,0.0,968.5,8.9,34.2,59,26.7,14.5,1.0,131.0,107.0,2.4,0,5,10,1,2026-06-19T12:40:18.922707+05:30
Gulbarga,Karnataka,17.3297,76.8343,35.4,33,0.0,959.2,8.05,35.3,55,21.2,13.6,1.4,132.0,114.0,3.0,0,5,10,1,2026-06-19T12:40:18.922714+05:30
Bidar,Karnataka,17.9104,77.5199,33.8,38,0.0,936.3,8.5,31.3,67,25.4,16.5,1.3,147.0,123.0,5.9,0,5,7,1,2026-06-19T12:40:18.922721+05:30
Hospet,Karnataka,15.2689,76.3909,31.7,45,0.0,956.7,7.05,38.5,52,30.0,14.9,1.3,130.0,92.0,2.3,0,5,7,1,2026-06-19T12:40:18.922728+05:30
Tirupur,Tamil Nadu,11.1085,77.3411,33.1,51,0.0,975.8,8.1,29.9,48,14.9,9.6,1.5,168.0,119.0,2.7,0,5,7,1,2026-06-19T12:40:18.922734+05:30
Alappuzha,Kerala,9.4981,76.3388,29.7,71,0.0,1009.2,7.1,29.5,53,17.4,11.1,3.8,99.0,74.0,3.8,7,0,4,1,2026-06-19T12:40:18.922742+05:30
Munnar,Kerala,10.0889,77.0595,20.2,89,0.0,858.3,6.25,22.3,20,15.7,7.4,0.5,114.0,74.0,1.1,3,5,7,1,2026-06-19T12:40:18.922749+05:30
Silchar,Assam,24.8333,92.7789,31.2,72,0.1,1001.9,8.2,30.2,85,28.0,18.9,1.2,210.0,95.0,2.4,6,5,4,1,2026-06-19T12:40:18.922756+05:30
Dibrugarh,Assam,27.4728,94.912,28.1,91,0.1,990.5,8.9,22.3,68,28.2,21.8,1.2,253.0,138.0,2.7,10,5,7,1,2026-06-19T12:40:18.922763+05:30
