city,state,latitude,longitude,temp,humidity,rain,pressure,uv_index,wind_gusts,aqi,pm10,pm2_5,mosquito_risk,arthritis_risk,migraine_risk,frizz_risk,updated_at
Delhi,Delhi,28.6139,77.209,35.1,19,0.0,981.2,7.4,33.1,151,353.9,81.7,0,5,10,0,2026-04-24T21:36:19.420652+05:30
Mumbai,Maharashtra,19.076,72.8777,30.8,63,0.0,1006.8,8.05,41.0,111,40.3,22.6,3,5,4,1,2026-04-24T21:36:19.420693+05:30
Bangalore,Karnataka,12.9716,77.5946,28.5,35,0.0,912.7,9.6,40.3,113,20.9,19.2,4,5,7,0,2026-04-24T21:36:19.420709+05:30
Hyderabad,Telangana,17.385,78.4867,31.5,40,0.0,954.1,9.25,29.5,143,40.7,36.7,0,5,7,1,2026-04-24T21:36:19.420719+05:30
Chennai,Tamil Nadu,13.0827,80.2707,29.6,78,0.0,1007.1,9.25,51.1,28,8.7,6.2,7,5,4,1,2026-04-24T21:36:19.420729+05:30
Kolkata,West Bengal,22.5726,88.3639,28.6,82,0.0,1005.8,8.9,33.8,75,25.4,21.4,7,5,4,1,2026-04-24T21:36:19.420741+05:30
Pune,Maharashtra,18.5204,73.8567,31.1,27,0.0,948.0,8.65,47.2,136,39.7,36.9,0,5,7,0,2026-04-24T21:36:19.420748+05:30
Ahmedabad,Gujarat,23.0225,72.5714,37.2,16,0.0,1000.7,8.2,30.2,52,87.1,40.9,0,5,7,0,2026-04-24T21:36:19.420756+05:30
Jaipur,Rajasthan,26.9124,75.7873,33.3,22,0.0,959.6,8.05,32.4,101,207.2,42.0,0,5,7,0,2026-04-24T21:36:19.420783+05:30
Lucknow,Uttar Pradesh,26.8467,80.9462,35.8,17,0.0,991.2,7.9,36.7,134,244.9,60.5,0,5,10,0,2026-04-24T21:36:19.420793+05:30
Kanpur,Uttar Pradesh,26.4499,80.3319,35.7,16,0.0,989.9,7.95,31.0,134,215.6,47.6,0,5,10,0,2026-04-24T21:36:19.420800+05:30
Chandigarh,Chandigarh,30.7333,76.7794,30.5,28,0.0,967.9,7.4,44.6,106,34.8,22.9,0,5,7,0,2026-04-24T21:36:19.420808+05:30
Srinagar,Jammu and Kashmir,34.0837,74.7973,13.3,94,0.0,845.0,8.6,38.2,78,42.0,23.7,3,10,7,0,2026-04-24T21:36:19.420815+05:30
Jammu,Jammu and Kashmir,32.7266,74.857,30.6,29,0.0,972.6,8.15,36.4,76,64.0,34.3,0,5,7,0,2026-04-24T21:36:19.420822+05:30
Amritsar,Punjab,31.634,74.8723,31.5,32,0.0,980.7,8.05,42.5,95,79.9,32.5,0,5,7,0,2026-04-24T21:36:19.420828+05:30
Ludhiana,Punjab,30.901,75.8573,31.7,27,0.0,978.2,7.7,38.9,87,81.3,27.9,0,5,7,0,2026-04-24T21:36:19.420838+05:30
Jalandhar,Punjab,31.326,75.5762,31.8,28,0.0,979.4,7.85,33.5,96,114.3,31.4,0,5,7,0,2026-04-24T21:36:19.420846+05:30
Dehradun,Uttarakhand,30.6284,78.0322,17.3,53,0.0,830.5,7.85,40.7,105,29.6,19.7,0,5,7,0,2026-04-24T21:36:19.420853+05:30
Shimla,Himachal Pradesh,31.1048,77.1734,16.3,45,0.0,786.2,7.9,46.4,97,43.1,18.5,0,5,7,0,2026-04-24T21:36:19.420860+05:30
Manali,Himachal Pradesh,32.2396,77.1887,11.2,69,0.0,817.8,9.95,42.1,115,30.5,16.7,3,5,7,0,2026-04-24T21:36:19.420867+05:30
Gurgaon,Haryana,28.4595,77.0266,32.4,23,0.0,979.7,7.5,31.3,581,540.2,95.7,0,5,7,0,2026-04-24T21:36:19.420873+05:30
Noida,Uttar Pradesh,28.5355,77.391,34.0,21,0.0,982.4,7.45,20.5,581,540.2,95.7,0,5,7,0,2026-04-24T21:36:19.420880+05:30
Ghaziabad,Uttar Pradesh,28.6692,77.4538,32.6,27,0.0,980.9,7.4,35.3,151,317.6,71.2,0,5,7,0,2026-04-24T21:36:19.420886+05:30
Faridabad,Haryana,28.4089,77.3178,35.7,18,0.0,981.8,7.5,40.0,581,540.2,95.7,0,5,10,0,2026-04-24T21:36:19.420892+05:30
Meerut,Uttar Pradesh,28.9845,77.7064,30.0,43,0.0,979.6,7.35,27.4,151,317.6,71.2,4,5,7,0,2026-04-24T21:36:19.420898+05:30
Agra,Uttar Pradesh,27.1767,78.0081,34.0,23,0.0,986.2,7.8,30.2,433,261.7,96.2,0,5,7,0,2026-04-24T21:36:19.420906+05:30
Varanasi,Uttar Pradesh,25.3176,82.9739,33.7,18,0.0,995.6,8.45,34.6,133,63.1,37.1,0,5,7,0,2026-04-24T21:36:19.420913+05:30
Prayagraj,Uttar Pradesh,25.4358,81.8463,32.5,20,0.0,994.1,8.35,39.2,126,32.4,26.2,0,5,7,0,2026-04-24T21:36:19.420919+05:30
Gorakhpur,Uttar Pradesh,26.7606,83.3732,31.0,46,0.0,996.0,8.3,31.3,142,208.2,82.2,0,5,7,1,2026-04-24T21:36:19.420928+05:30
Bareilly,Uttar Pradesh,28.367,79.4304,32.0,28,0.0,985.1,7.65,38.2,139,73.3,50.3,0,5,7,0,2026-04-24T21:36:19.420934+05:30
Aligarh,Uttar Pradesh,27.8974,78.088,33.0,25,0.0,983.8,7.6,30.6,260,348.3,98.5,0,5,7,0,2026-04-24T21:36:19.420940+05:30
Moradabad,Uttar Pradesh,28.8386,78.7733,31.6,31,0.0,981.8,7.5,39.6,154,112.9,79.2,0,5,7,0,2026-04-24T21:36:19.420947+05:30
Saharanpur,Uttar Pradesh,29.9637,77.546,30.8,27,0.0,974.2,7.15,30.2,108,116.9,53.2,0,5,7,0,2026-04-24T21:36:19.420952+05:30
Jhansi,Uttar Pradesh,25.4484,78.5685,32.1,22,0.0,976.6,8.3,26.6,114,33.9,26.0,0,5,7,0,2026-04-24T21:36:22.870940+05:30
Surat,Gujarat,21.1702,72.8311,30.5,55,0.0,1005.8,7.9,33.5,99,41.8,28.6,0,5,4,1,2026-04-24T21:36:22.870974+05:30
Vadodara,Gujarat,22.3072,73.1812,33.0,28,0.0,1003.5,8.15,34.2,99,54.8,41.8,0,5,4,0,2026-04-24T21:36:22.870986+05:30
Rajkot,Gujarat,22.3039,70.8022,28.5,42,0.0,994.1,7.9,43.6,54,25.2,9.9,4,5,7,0,2026-04-24T21:36:22.870995+05:30
Thane,Maharashtra,19.2183,72.9781,32.2,49,0.0,1006.1,7.4,37.1,111,40.3,22.6,0,5,4,1,2026-04-24T21:36:22.871004+05:30
Nagpur,Maharashtra,21.1458,79.0882,36.8,15,0.0,972.3,8.6,29.2,142,56.9,50.3,0,5,10,0,2026-04-24T21:36:22.871012+05:30
Nashik,Maharashtra,19.9975,73.7898,31.2,27,0.0,946.0,8.35,34.6,135,29.1,21.8,0,5,7,0,2026-04-24T21:36:22.871020+05:30
Aurangabad,Maharashtra,19.8762,75.3433,33.0,20,0.0,944.5,9.1,43.2,121,23.7,20.4,0,5,7,0,2026-04-24T21:36:22.871029+05:30
Solapur,Maharashtra,17.6599,75.9064,32.7,29,0.0,957.5,9.0,55.4,150,38.0,33.5,0,5,7,0,2026-04-24T21:36:22.871037+05:30
Kolhapur,Maharashtra,16.705,74.2433,28.5,44,0.0,947.5,9.05,37.4,149,73.6,66.8,4,5,7,0,2026-04-24T21:36:22.871045+05:30
Goa,Goa,15.2993,74.124,29.8,78,0.0,997.4,9.0,37.1,111,38.5,30.7,7,5,7,1,2026-04-24T21:36:22.871053+05:30
Jodhpur,Rajasthan,26.2389,73.0243,35.2,21,0.0,982.2,8.25,23.0,67,123.4,28.2,0,5,10,0,2026-04-24T21:36:22.871061+05:30
Udaipur,Rajasthan,24.5854,73.7125,31.3,21,0.0,946.6,8.8,33.5,71,42.1,15.7,0,5,7,0,2026-04-24T21:36:22.871069+05:30
Kota,Rajasthan,25.2138,75.8648,33.2,21,0.0,977.8,8.3,32.0,93,52.9,33.3,0,5,7,0,2026-04-24T21:36:22.871077+05:30
Bikaner,Rajasthan,28.0229,73.3119,35.7,18,0.0,980.6,8.05,26.6,58,54.4,18.4,0,5,10,0,2026-04-24T21:36:22.871086+05:30
Ajmer,Rajasthan,26.4499,74.6399,32.8,33,0.0,954.8,8.2,33.8,61,72.2,24.3,0,5,7,0,2026-04-24T21:36:22.871094+05:30
Gwalior,Madhya Pradesh,26.2183,78.1828,33.5,19,0.0,982.0,8.05,34.2,88,122.0,34.9,0,5,7,0,2026-04-24T21:36:22.871102+05:30
Indore,Madhya Pradesh,22.7196,75.8577,32.7,15,0.0,948.5,8.65,46.8,77,28.6,19.7,0,5,7,0,2026-04-24T21:36:22.871109+05:30
Bhopal,Madhya Pradesh,23.2599,77.4126,32.5,22,0.0,953.2,8.65,38.9,64,28.5,17.8,0,5,7,0,2026-04-24T21:36:22.871118+05:30
Jabalpur,Madhya Pradesh,23.1815,79.9864,32.4,17,0.0,960.8,8.75,36.4,109,20.9,15.3,0,5,7,0,2026-04-24T21:36:22.871126+05:30
Ujjain,Madhya Pradesh,23.1765,75.7885,31.7,17,0.0,954.1,8.55,40.3,54,36.0,24.4,0,5,7,0,2026-04-24T21:36:22.871134+05:30
Visakhapatnam,Andhra Pradesh,17.6868,83.2185,28.7,84,0.0,1003.5,9.2,42.5,59,15.8,12.4,7,5,4,1,2026-04-24T21:36:22.871143+05:30
Vijayawada,Andhra Pradesh,16.5062,80.648,29.9,69,0.0,1002.6,9.15,27.4,52,14.0,12.0,7,5,4,1,2026-04-24T21:36:22.871151+05:30
Guntur,Andhra Pradesh,16.3067,80.4365,28.9,80,0.0,1004.1,9.25,36.0,53,14.5,12.5,7,5,4,1,2026-04-24T21:36:22.871159+05:30
Nellore,Andhra Pradesh,14.4426,79.9865,29.0,80,0.0,1005.8,9.3,40.0,45,9.4,7.2,7,5,4,1,2026-04-24T21:36:22.871168+05:30
Kurnool,Andhra Pradesh,15.8281,78.0373,33.9,31,0.0,976.7,9.25,41.4,114,31.9,28.1,0,5,7,0,2026-04-24T21:36:22.871177+05:30
Kakinada,Andhra Pradesh,16.9891,82.2475,29.4,75,0.0,1007.1,9.05,36.4,37,11.7,8.1,7,5,4,1,2026-04-24T21:36:22.871185+05:30
Tirupati,Andhra Pradesh,13.6288,79.4192,30.7,54,0.0,991.2,9.35,33.8,61,14.7,13.7,0,5,7,1,2026-04-24T21:36:22.871193+05:30
Warangal,Telangana,17.9689,79.5941,31.4,44,0.0,978.7,9.2,34.9,165,41.2,38.2,0,5,7,1,2026-04-24T21:36:22.871201+05:30
Nizamabad,Telangana,18.6725,78.0941,32.1,29,0.0,964.3,8.8,27.7,123,80.3,72.9,0,5,7,0,2026-04-24T21:36:22.871208+05:30
Mysore,Karnataka,12.2958,76.6396,28.5,39,0.0,928.2,9.5,35.3,123,29.9,26.4,4,5,7,0,2026-04-24T21:36:22.871217+05:30
Mangalore,Karnataka,12.9141,74.856,29.9,77,0.0,1005.9,9.1,40.0,71,26.1,18.5,7,5,4,1,2026-04-24T21:36:22.871224+05:30
Hubli-Dharwad,Karnataka,15.3647,75.124,28.5,45,0.0,940.7,9.2,36.0,105,52.2,47.7,4,5,7,0,2026-04-24T21:36:22.871232+05:30
Belgaum,Karnataka,15.8497,74.4977,26.1,71,0.0,925.6,9.25,36.0,141,68.2,61.2,7,5,7,1,2026-04-24T21:36:26.303711+05:30
Coimbatore,Tamil Nadu,11.0168,76.9558,29.4,60,0.0,961.4,9.4,42.1,97,25.6,23.4,4,5,7,1,2026-04-24T21:36:26.303741+05:30
Madurai,Tamil Nadu,9.9252,78.1198,29.8,67,0.0,993.0,9.3,38.5,50,8.7,8.2,7,5,7,1,2026-04-24T21:36:26.303751+05:30
Trichy,Tamil Nadu,10.7905,78.7047,29.7,59,0.0,999.3,9.3,29.5,50,11.1,10.9,4,5,7,1,2026-04-24T21:36:26.303759+05:30
Salem,Tamil Nadu,11.6643,78.146,31.8,40,0.0,976.8,9.35,40.7,99,20.5,19.6,0,5,7,1,2026-04-24T21:36:26.303807+05:30
Tirunelveli,Tamil Nadu,8.7139,77.7567,28.4,75,0.0,1003.2,9.2,41.8,83,18.9,17.9,7,5,4,1,2026-04-24T21:36:26.303820+05:30
Vellore,Tamil Nadu,12.9165,79.1325,29.4,66,0.0,984.5,9.4,36.4,70,26.7,26.1,7,5,7,1,2026-04-24T21:36:26.303828+05:30
Erode,Tamil Nadu,11.341,77.7172,33.4,33,0.0,988.3,9.35,44.3,76,16.1,15.0,0,5,7,0,2026-04-24T21:36:26.303836+05:30
Kochi,Kerala,9.9312,76.2673,29.0,80,0.0,1008.0,8.5,38.2,88,41.2,37.8,7,0,4,1,2026-04-24T21:36:26.303843+05:30
Thiruvananthapuram,Kerala,8.5241,76.9366,26.8,90,0.0,1008.0,8.9,34.9,71,25.5,19.8,7,0,4,1,2026-04-24T21:36:26.303850+05:30
Kozhikode,Kerala,11.2588,75.7804,28.7,86,0.0,1006.7,9.1,36.4,81,28.4,21.0,7,5,4,1,2026-04-24T21:36:26.303857+05:30
Thrissur,Kerala,10.5276,76.2144,28.6,82,0.0,1006.2,9.15,37.4,95,41.4,37.6,7,5,4,1,2026-04-24T21:36:26.303864+05:30
Kannur,Kerala,11.8745,75.3704,30.0,77,0.0,1006.1,9.1,39.6,80,29.6,22.1,7,5,4,1,2026-04-24T21:36:26.303870+05:30
Patna,Bihar,25.5941,85.1376,31.2,61,0.0,999.8,8.6,30.2,158,105.0,56.7,3,5,7,1,2026-04-24T21:36:26.303877+05:30
Gaya,Bihar,24.7914,85.0002,32.7,24,0.0,992.7,8.7,32.4,142,117.6,51.7,0,5,7,0,2026-04-24T21:36:26.303883+05:30
Muzaffarpur,Bihar,26.1209,85.3647,29.9,68,0.0,999.7,8.6,32.4,155,110.1,64.0,7,5,7,1,2026-04-24T21:36:26.303889+05:30
Bhagalpur,Bihar,25.2425,87.0117,30.0,71,0.0,1001.1,8.65,37.8,162,66.4,59.8,7,5,4,1,2026-04-24T21:36:26.303895+05:30
Ranchi,Jharkhand,23.3441,85.3096,27.3,31,0.0,937.9,9.15,31.0,118,105.9,40.6,4,5,7,0,2026-04-24T21:36:26.303902+05:30
Jamshedpur,Jharkhand,22.8046,86.2029,30.1,74,0.0,990.4,8.65,37.8,173,57.5,39.2,3,5,7,1,2026-04-24T21:36:26.303908+05:30
Dhanbad,Jharkhand,23.7957,86.4304,32.0,48,0.0,979.6,8.95,37.8,166,116.4,64.5,0,5,7,1,2026-04-24T21:36:26.303914+05:30
Bokaro,Jharkhand,23.6693,86.1511,31.0,40,0.0,983.2,8.95,22.7,162,124.8,59.8,0,5,7,0,2026-04-24T21:36:26.303920+05:30
Bhubaneswar,Odisha,20.2961,85.8245,27.2,94,0.0,1002.4,9.1,39.2,88,19.3,15.3,7,5,4,1,2026-04-24T21:36:26.303926+05:30
Cuttack,Odisha,20.4625,85.8828,27.5,93,0.0,1004.2,9.15,33.1,88,19.3,15.3,7,5,4,1,2026-04-24T21:36:26.303932+05:30
Rourkela,Odisha,22.2604,84.8536,31.8,23,0.0,983.9,8.85,30.2,139,136.0,54.6,0,5,7,0,2026-04-24T21:36:26.303938+05:30
Raipur,Chhattisgarh,21.2514,81.6296,32.5,22,0.0,973.3,8.95,42.1,159,58.7,49.4,0,5,7,0,2026-04-24T21:36:26.303944+05:30
Bhilai,Chhattisgarh,21.1938,81.3509,32.8,24,0.0,973.8,8.9,42.1,126,57.7,52.0,0,5,7,0,2026-04-24T21:36:26.303950+05:30
Guwahati,Assam,26.1158,91.7086,24.9,82,0.0,1002.6,8.55,23.4,151,97.8,75.4,3,5,4,1,2026-04-24T21:36:26.303956+05:30
Agartala,Tripura,23.8315,91.2868,29.1,69,0.0,1006.3,8.65,26.3,124,96.4,72.4,7,5,4,1,2026-04-24T21:36:26.303962+05:30
Shillong,Meghalaya,25.5788,91.8933,18.8,84,0.0,859.0,6.3,26.6,127,68.9,50.1,3,10,7,0,2026-04-24T21:36:26.303968+05:30
Imphal,Manipur,24.817,93.9368,21.1,86,0.0,923.7,9.1,31.7,151,112.7,70.3,3,5,7,1,2026-04-24T21:36:26.303976+05:30
Aizawl,Mizoram,23.7271,92.7176,22.3,69,0.0,893.8,8.45,28.4,117,112.9,49.9,3,5,7,1,2026-04-24T21:36:26.303982+05:30
Kohima,Nagaland,25.6701,94.1077,18.1,93,0.0,856.7,8.55,35.3,140,114.1,65.0,3,10,7,1,2026-04-24T21:36:26.303988+05:30
Gangtok,Sikkim,27.3314,88.6138,15.1,82,0.0,837.8,6.7,38.5,100,56.1,41.3,3,10,7,0,2026-04-24T21:36:26.303994+05:30
Siliguri,West Bengal,26.7271,88.3953,24.4,85,0.0,994.0,8.45,23.8,156,114.8,78.5,3,5,7,1,2026-04-24T21:36:29.669961+05:30
Durgapur,West Bengal,23.5204,87.3119,29.8,83,0.0,994.5,8.5,31.3,163,63.3,48.7,7,5,7,1,2026-04-24T21:36:29.669995+05:30
Asansol,West Bengal,23.6739,86.9524,31.0,68,0.0,993.2,8.9,35.6,154,79.4,48.5,3,5,7,1,2026-04-24T21:36:29.670007+05:30
Pondicherry,Puducherry,11.9139,79.8145,29.5,77,0.0,1008.3,9.15,40.3,25,7.0,4.6,7,0,4,1,2026-04-24T21:36:29.670016+05:30
Port Blair,Andaman and Nicobar Islands,11.6234,92.7265,27.2,80,0.0,1008.0,9.15,30.6,38,10.8,5.9,7,0,4,1,2026-04-24T21:36:29.670026+05:30
Haridwar,Uttarakhand,29.9457,78.1642,24.7,60,0.0,971.9,7.25,23.8,115,58.7,41.0,0,5,7,1,2026-04-24T21:36:29.670035+05:30
Rishikesh,Uttarakhand,30.0869,78.2676,23.0,55,0.0,964.5,7.35,23.8,120,37.0,24.7,0,5,7,0,2026-04-24T21:36:29.670043+05:30
Nainital,Uttarakhand,29.3919,79.4542,17.2,51,0.0,806.8,8.2,43.9,159,50.4,34.6,0,5,7,0,2026-04-24T21:36:29.670051+05:30
Mussoorie,Uttarakhand,30.4599,78.0664,17.5,44,0.0,804.3,7.75,46.1,131,54.2,36.3,0,5,7,0,2026-04-24T21:36:29.670058+05:30
Dharamshala,Himachal Pradesh,32.219,76.3234,22.8,38,0.0,870.7,8.05,50.4,81,35.2,18.1,0,5,7,0,2026-04-24T21:36:29.670065+05:30
Dalhousie,Himachal Pradesh,32.5387,75.971,15.7,57,0.0,805.4,8.3,37.4,82,49.0,25.9,0,5,7,0,2026-04-24T21:36:29.670073+05:30
Patiala,Punjab,30.3398,76.3869,32.8,27,0.0,977.1,7.35,44.6,196,810.3,98.7,0,5,7,0,2026-04-24T21:36:29.670080+05:30
Bhatinda,Punjab,30.211,74.9455,33.5,24,0.0,983.3,8.0,34.9,88,98.0,30.5,0,5,7,0,2026-04-24T21:36:29.670087+05:30
Rohtak,Haryana,28.8955,76.6066,32.5,25,0.0,980.2,7.45,31.0,167,371.6,80.1,0,5,7,0,2026-04-24T21:36:29.670093+05:30
Panipat,Haryana,29.3909,76.9635,31.8,28,0.0,978.8,7.3,34.2,328,620.3,98.5,0,5,7,0,2026-04-24T21:36:29.670099+05:30
Mathura,Uttar Pradesh,27.4924,77.6737,31.9,25,0.0,985.1,7.75,26.3,385,384.6,78.9,0,5,7,0,2026-04-24T21:36:29.670105+05:30
Vrindavan,Uttar Pradesh,27.5823,77.7027,30.8,26,0.0,985.4,7.7,25.9,385,384.6,78.9,0,5,7,0,2026-04-24T21:36:29.670111+05:30
Ayodhya,Uttar Pradesh,26.7922,82.1998,31.6,25,0.0,993.6,8.05,31.3,139,151.8,53.0,0,5,7,0,2026-04-24T21:36:29.670117+05:30
Ratlam,Madhya Pradesh,23.3315,75.0367,29.5,22,0.0,954.5,8.5,37.4,60,26.5,15.1,4,5,7,0,2026-04-24T21:36:29.670124+05:30
Sagar,Madhya Pradesh,23.8388,78.7378,30.3,18,0.0,949.8,8.65,44.6,98,20.5,13.0,0,5,7,0,2026-04-24T21:36:29.670130+05:30
Satna,Madhya Pradesh,24.6005,80.8322,31.6,20,0.0,970.4,8.65,41.8,118,29.2,27.3,0,5,7,0,2026-04-24T21:36:29.670137+05:30
Akola,Maharashtra,20.7002,77.0082,34.2,16,0.0,974.0,8.85,30.2,110,32.4,27.2,0,5,7,0,2026-04-24T21:36:29.670144+05:30
Amravati,Maharashtra,20.9374,77.7796,34.8,17,0.0,967.0,8.75,29.9,113,41.0,33.1,0,5,7,0,2026-04-24T21:36:29.670150+05:30
Latur,Maharashtra,18.4088,76.5604,31.8,29,0.0,940.4,8.3,29.2,154,42.6,38.4,0,5,7,0,2026-04-24T21:36:29.670157+05:30
Nanded,Maharashtra,19.1383,77.3091,33.2,24,0.0,967.8,8.1,27.7,132,48.3,43.5,0,5,7,0,2026-04-24T21:36:29.670163+05:30
Gulbarga,Karnataka,17.3297,76.8343,31.1,35,0.0,959.1,8.7,65.9,143,48.0,40.3,0,5,7,0,2026-04-24T21:36:29.670169+05:30
Bidar,Karnataka,17.9104,77.5199,28.3,42,0.0,935.8,8.9,43.9,132,62.6,55.3,4,5,7,0,2026-04-24T21:36:29.670175+05:30
Hospet,Karnataka,15.2689,76.3909,32.7,26,0.0,955.3,9.25,27.0,142,32.5,28.8,0,5,7,0,2026-04-24T21:36:29.670182+05:30
Tirupur,Tamil Nadu,11.1085,77.3411,33.5,31,0.0,974.3,9.4,42.5,84,20.7,18.9,0,5,7,0,2026-04-24T21:36:29.670188+05:30
Alappuzha,Kerala,9.4981,76.3388,27.5,90,0.0,1008.3,9.0,36.0,81,44.1,38.0,7,0,4,1,2026-04-24T21:36:29.670194+05:30
Munnar,Kerala,10.0889,77.0595,19.2,67,0.0,856.8,9.6,20.9,66,26.8,25.7,3,5,7,0,2026-04-24T21:36:29.670201+05:30
Silchar,Assam,24.8333,92.7789,26.0,89,0.0,1005.2,8.75,19.8,158,152.3,96.4,7,5,4,1,2026-04-24T21:36:29.670207+05:30
Dibrugarh,Assam,27.4728,94.912,26.0,82,0.0,996.2,8.65,16.6,88,64.0,50.3,7,5,7,1,2026-04-24T21:36:29.670213+05:30
