city,state,latitude,longitude,temp,humidity,rain,pressure,uv_index,wind_gusts,aqi,pm10,pm2_5,mosquito_risk,arthritis_risk,migraine_risk,frizz_risk,updated_at
Delhi,Delhi,28.6139,77.209,19.8,77,0.0,984.8,5.85,32.4,305,431.2,89.4,3,5,3,0,2026-03-05T05:04:15.053432+05:30
Mumbai,Maharashtra,19.076,72.8777,28.1,60,0.0,1009.2,7.4,27.0,121,36.3,34.0,4,0,4,1,2026-03-05T05:04:15.053472+05:30
Bangalore,Karnataka,12.9716,77.5946,18.7,74,0.0,911.5,9.1,32.8,88,29.8,28.3,3,5,7,0,2026-03-05T05:04:15.053488+05:30
Hyderabad,Telangana,17.385,78.4867,18.5,78,0.0,953.6,8.45,29.5,93,41.9,38.6,3,5,7,0,2026-03-05T05:04:15.053498+05:30
Chennai,Tamil Nadu,13.0827,80.2707,22.6,95,0.0,1008.6,8.85,31.0,99,42.5,38.0,3,0,4,1,2026-03-05T05:04:15.053506+05:30
Kolkata,West Bengal,22.5726,88.3639,19.9,73,0.0,1007.8,7.8,10.8,166,134.1,109.2,3,5,4,0,2026-03-05T05:04:15.053514+05:30
Pune,Maharashtra,18.5204,73.8567,21.8,56,0.0,949.5,7.95,31.0,78,43.5,42.4,0,5,7,0,2026-03-05T05:04:15.053526+05:30
Ahmedabad,Gujarat,23.0225,72.5714,21.6,63,0.0,1005.8,7.15,23.4,74,14.7,13.6,3,5,4,0,2026-03-05T05:04:15.053533+05:30
Jaipur,Rajasthan,26.9124,75.7873,22.3,33,0.0,962.3,6.65,37.1,86,163.0,31.2,0,5,7,0,2026-03-05T05:04:15.053541+05:30
Lucknow,Uttar Pradesh,26.8467,80.9462,19.0,87,0.0,995.5,6.4,13.3,162,277.5,92.2,3,10,7,1,2026-03-05T05:04:15.053548+05:30
Kanpur,Uttar Pradesh,26.4499,80.3319,17.8,91,0.0,993.8,6.4,24.8,172,333.4,78.5,3,10,7,1,2026-03-05T05:04:15.053556+05:30
Chandigarh,Chandigarh,30.7333,76.7794,18.5,79,0.0,969.9,5.75,32.4,87,33.5,28.9,3,5,3,0,2026-03-05T05:04:15.053563+05:30
Srinagar,Jammu and Kashmir,34.0837,74.7973,6.8,84,0.0,842.4,6.65,15.8,151,105.2,67.5,3,10,7,0,2026-03-05T05:04:15.053570+05:30
Jammu,Jammu and Kashmir,32.7266,74.857,15.3,70,0.0,974.2,6.45,28.1,102,44.4,36.9,3,5,7,0,2026-03-05T05:04:15.053577+05:30
Amritsar,Punjab,31.634,74.8723,17.3,82,0.0,983.0,6.35,25.6,154,95.9,76.8,3,10,7,0,2026-03-05T05:04:15.053583+05:30
Ludhiana,Punjab,30.901,75.8573,20.0,75,0.0,980.8,6.0,26.6,155,88.5,74.0,3,5,3,0,2026-03-05T05:04:15.053590+05:30
Jalandhar,Punjab,31.326,75.5762,18.2,80,0.0,982.0,6.2,26.3,156,109.2,92.4,3,5,7,0,2026-03-05T05:04:15.053598+05:30
Dehradun,Uttarakhand,30.6284,78.0322,13.5,36,0.0,828.5,6.15,34.2,61,25.1,19.4,0,5,7,1,2026-03-05T05:04:15.053605+05:30
Shimla,Himachal Pradesh,31.1048,77.1734,13.2,45,0.0,784.5,6.2,52.6,64,34.2,22.6,0,5,7,0,2026-03-05T05:04:15.053611+05:30
Manali,Himachal Pradesh,32.2396,77.1887,18.4,24,0.0,822.5,7.4,34.2,54,33.3,15.2,0,5,7,1,2026-03-05T05:04:15.053618+05:30
Gurgaon,Haryana,28.4595,77.0266,17.0,86,0.0,983.3,5.95,31.3,1233,1460.3,185.8,3,10,3,0,2026-03-05T05:04:15.053625+05:30
Noida,Uttar Pradesh,28.5355,77.391,20.2,75,0.0,986.3,5.9,31.7,1233,1460.3,185.8,3,5,3,0,2026-03-05T05:04:15.053631+05:30
Ghaziabad,Uttar Pradesh,28.6692,77.4538,19.6,82,0.0,984.3,5.85,28.4,196,327.8,79.2,3,10,3,1,2026-03-05T05:04:15.053638+05:30
Faridabad,Haryana,28.4089,77.3178,20.2,69,0.0,985.6,5.9,31.0,1233,1460.3,185.8,3,5,3,0,2026-03-05T05:04:15.053644+05:30
Meerut,Uttar Pradesh,28.9845,77.7064,18.1,92,0.0,982.8,5.75,27.0,196,327.8,79.2,3,10,3,1,2026-03-05T05:04:15.053650+05:30
Agra,Uttar Pradesh,27.1767,78.0081,16.5,77,0.0,989.7,6.25,34.6,434,495.5,82.4,3,5,7,0,2026-03-05T05:04:15.053657+05:30
Varanasi,Uttar Pradesh,25.3176,82.9739,18.3,85,0.0,999.7,7.05,16.2,154,102.0,62.6,3,10,7,0,2026-03-05T05:04:15.053666+05:30
Prayagraj,Uttar Pradesh,25.4358,81.8463,18.7,84,0.0,998.2,6.9,19.4,153,166.7,75.7,3,10,7,0,2026-03-05T05:04:15.053676+05:30
Gorakhpur,Uttar Pradesh,26.7606,83.3732,17.0,91,0.0,999.4,6.75,13.0,170,131.3,110.4,3,10,7,0,2026-03-05T05:04:15.053684+05:30
Bareilly,Uttar Pradesh,28.367,79.4304,16.8,94,0.0,988.4,6.05,13.0,165,132.7,114.6,3,10,7,0,2026-03-05T05:04:15.053690+05:30
Aligarh,Uttar Pradesh,27.8974,78.088,17.5,80,0.0,987.2,5.95,30.6,614,707.8,126.2,3,5,3,0,2026-03-05T05:04:15.053697+05:30
Moradabad,Uttar Pradesh,28.8386,78.7733,16.1,99,0.0,985.0,5.9,14.4,161,301.7,118.5,3,10,3,0,2026-03-05T05:04:15.053703+05:30
Saharanpur,Uttar Pradesh,29.9637,77.546,15.7,96,0.0,976.6,5.5,15.5,153,110.1,77.1,3,10,3,0,2026-03-05T05:04:15.053709+05:30
Jhansi,Uttar Pradesh,25.4484,78.5685,17.6,57,0.0,979.7,6.85,35.3,56,17.2,10.9,0,5,7,0,2026-03-05T05:04:18.305117+05:30
Surat,Gujarat,21.1702,72.8311,23.3,67,0.0,1009.4,7.1,27.4,135,37.1,35.6,3,0,4,1,2026-03-05T05:04:18.305147+05:30
Vadodara,Gujarat,22.3072,73.1812,21.7,57,0.0,1007.5,7.2,23.4,111,28.5,26.5,0,5,4,0,2026-03-05T05:04:18.305157+05:30
Rajkot,Gujarat,22.3039,70.8022,20.9,70,0.0,998.3,7.05,33.8,64,10.9,10.3,3,5,7,0,2026-03-05T05:04:18.305165+05:30
Thane,Maharashtra,19.2183,72.9781,24.7,60,0.0,1008.8,7.4,38.9,121,36.3,34.0,0,0,4,1,2026-03-05T05:04:18.305172+05:30
Nagpur,Maharashtra,21.1458,79.0882,18.3,62,0.0,974.7,7.8,25.9,67,15.0,12.8,3,5,7,0,2026-03-05T05:04:18.305180+05:30
Nashik,Maharashtra,19.9975,73.7898,22.2,55,0.0,947.2,7.55,33.5,73,30.4,26.7,0,5,7,0,2026-03-05T05:04:18.305187+05:30
Aurangabad,Maharashtra,19.8762,75.3433,20.8,53,0.0,945.2,8.1,29.2,74,27.9,26.8,0,5,7,0,2026-03-05T05:04:18.305193+05:30
Solapur,Maharashtra,17.6599,75.9064,21.4,67,0.0,957.6,8.35,18.4,71,32.8,30.4,3,5,7,0,2026-03-05T05:04:18.305201+05:30
Kolhapur,Maharashtra,16.705,74.2433,18.6,85,0.0,947.7,8.5,33.5,154,100.1,99.2,3,10,7,0,2026-03-05T05:04:18.305209+05:30
Goa,Goa,15.2993,74.124,25.6,94,0.0,998.5,8.55,30.2,145,76.1,73.6,7,5,7,1,2026-03-05T05:04:18.305217+05:30
Jodhpur,Rajasthan,26.2389,73.0243,21.0,57,0.0,986.6,6.95,21.2,79,155.5,35.4,0,5,7,0,2026-03-05T05:04:18.305224+05:30
Udaipur,Rajasthan,24.5854,73.7125,17.4,52,0.0,949.5,7.55,22.0,60,23.5,17.5,0,5,7,0,2026-03-05T05:04:18.305231+05:30
Kota,Rajasthan,25.2138,75.8648,17.0,67,0.0,981.4,6.95,25.2,78,29.9,21.2,3,5,7,0,2026-03-05T05:04:18.305238+05:30
Bikaner,Rajasthan,28.0229,73.3119,21.6,52,0.0,984.9,6.6,22.3,63,37.5,15.1,0,5,7,0,2026-03-05T05:04:18.305244+05:30
Ajmer,Rajasthan,26.4499,74.6399,20.0,48,0.0,957.4,6.9,23.4,65,40.2,16.3,0,5,7,0,2026-03-05T05:04:18.305251+05:30
Gwalior,Madhya Pradesh,26.2183,78.1828,20.7,52,0.0,985.1,6.55,32.4,72,21.1,15.5,0,5,7,0,2026-03-05T05:04:18.305258+05:30
Indore,Madhya Pradesh,22.7196,75.8577,16.6,61,0.0,949.7,7.5,23.8,78,39.1,33.8,3,5,7,0,2026-03-05T05:04:18.305264+05:30
Bhopal,Madhya Pradesh,23.2599,77.4126,18.5,41,0.0,955.3,7.35,28.8,62,23.5,20.1,0,5,7,0,2026-03-05T05:04:18.305289+05:30
Jabalpur,Madhya Pradesh,23.1815,79.9864,18.1,59,0.0,963.1,7.5,29.5,60,22.1,20.1,0,5,7,0,2026-03-05T05:04:18.305296+05:30
Ujjain,Madhya Pradesh,23.1765,75.7885,15.1,68,0.0,955.6,7.4,22.7,107,62.2,56.1,3,5,7,0,2026-03-05T05:04:18.305304+05:30
Visakhapatnam,Andhra Pradesh,17.6868,83.2185,23.6,80,0.0,1004.4,8.45,34.9,117,41.7,40.7,3,5,4,1,2026-03-05T05:04:18.305310+05:30
Vijayawada,Andhra Pradesh,16.5062,80.648,23.4,83,0.0,1003.6,8.5,17.6,125,43.8,41.6,3,5,4,1,2026-03-05T05:04:18.305317+05:30
Guntur,Andhra Pradesh,16.3067,80.4365,23.3,84,0.0,1004.9,8.55,20.9,116,41.4,39.7,3,5,4,1,2026-03-05T05:04:18.305324+05:30
Nellore,Andhra Pradesh,14.4426,79.9865,23.2,83,0.0,1006.8,8.7,32.0,105,39.7,37.3,3,5,4,1,2026-03-05T05:04:18.305331+05:30
Kurnool,Andhra Pradesh,15.8281,78.0373,24.6,58,0.0,977.8,8.5,26.3,79,30.7,29.6,0,5,7,0,2026-03-05T05:04:18.305339+05:30
Kakinada,Andhra Pradesh,16.9891,82.2475,21.9,94,0.0,1008.5,8.45,29.2,95,39.1,37.0,3,0,4,1,2026-03-05T05:04:18.305346+05:30
Tirupati,Andhra Pradesh,13.6288,79.4192,19.0,78,0.0,992.9,8.85,31.0,135,66.8,64.7,3,5,7,0,2026-03-05T05:04:18.305352+05:30
Warangal,Telangana,17.9689,79.5941,22.1,64,0.0,979.4,8.25,28.8,104,27.3,25.7,3,5,7,0,2026-03-05T05:04:18.305359+05:30
Nizamabad,Telangana,18.6725,78.0941,19.1,68,0.0,965.5,8.15,24.8,80,40.9,38.2,3,5,7,0,2026-03-05T05:04:18.305366+05:30
Mysore,Karnataka,12.2958,76.6396,20.1,97,0.0,928.6,9.15,25.2,89,39.0,38.2,3,5,7,1,2026-03-05T05:04:18.305373+05:30
Mangalore,Karnataka,12.9141,74.856,28.3,78,0.0,1007.3,8.75,28.1,111,55.2,52.3,7,5,4,1,2026-03-05T05:04:18.305380+05:30
Hubli-Dharwad,Karnataka,15.3647,75.124,19.7,97,0.0,940.7,8.75,23.4,79,30.4,29.2,3,10,7,1,2026-03-05T05:04:18.305388+05:30
Belgaum,Karnataka,15.8497,74.4977,20.5,89,0.0,925.5,8.75,37.8,120,73.6,71.2,3,5,7,1,2026-03-05T05:04:21.554430+05:30
Coimbatore,Tamil Nadu,11.0168,76.9558,19.6,75,0.0,962.4,9.15,34.2,99,49.0,48.2,3,5,7,0,2026-03-05T05:04:21.554457+05:30
Madurai,Tamil Nadu,9.9252,78.1198,24.4,90,0.0,994.3,9.1,33.1,79,36.3,35.7,3,5,7,1,2026-03-05T05:04:21.554466+05:30
Trichy,Tamil Nadu,10.7905,78.7047,22.0,100,0.0,1001.4,9.0,34.2,86,41.0,38.6,3,5,4,1,2026-03-05T05:04:21.554474+05:30
Salem,Tamil Nadu,11.6643,78.146,20.8,82,0.0,978.5,9.05,18.0,93,43.0,42.3,3,5,7,1,2026-03-05T05:04:21.554481+05:30
Tirunelveli,Tamil Nadu,8.7139,77.7567,23.5,89,0.0,1004.5,9.15,48.2,74,32.6,31.2,3,5,4,1,2026-03-05T05:04:21.554487+05:30
Vellore,Tamil Nadu,12.9165,79.1325,18.1,91,0.0,985.9,8.9,32.0,122,62.2,60.1,3,10,7,1,2026-03-05T05:04:21.554494+05:30
Erode,Tamil Nadu,11.341,77.7172,22.1,91,0.0,990.5,9.05,22.7,89,28.9,28.0,3,5,7,1,2026-03-05T05:04:21.554501+05:30
Kochi,Kerala,9.9312,76.2673,26.9,81,0.0,1009.4,8.95,36.4,122,56.1,55.1,7,0,4,1,2026-03-05T05:04:21.554507+05:30
Thiruvananthapuram,Kerala,8.5241,76.9366,26.9,79,0.0,1008.5,9.0,27.0,94,30.3,27.8,7,0,4,1,2026-03-05T05:04:21.554514+05:30
Kozhikode,Kerala,11.2588,75.7804,26.9,81,0.0,1008.7,8.85,29.9,111,52.9,48.3,7,0,4,1,2026-03-05T05:04:21.554520+05:30
Thrissur,Kerala,10.5276,76.2144,24.8,96,0.0,1007.9,8.95,36.7,127,70.8,68.5,3,5,4,1,2026-03-05T05:04:21.554526+05:30
Kannur,Kerala,11.8745,75.3704,26.8,88,0.0,1007.8,8.85,34.9,111,56.2,53.0,7,5,4,1,2026-03-05T05:04:21.554533+05:30
Patna,Bihar,25.5941,85.1376,20.3,80,0.0,1002.9,7.2,12.6,170,132.7,108.5,3,5,4,1,2026-03-05T05:04:21.554539+05:30
Gaya,Bihar,24.7914,85.0002,17.4,80,0.0,996.0,7.3,13.7,152,87.8,60.1,3,5,7,0,2026-03-05T05:04:21.554545+05:30
Muzaffarpur,Bihar,26.1209,85.3647,18.1,85,0.0,1002.8,7.15,14.0,172,161.6,133.6,3,10,4,0,2026-03-05T05:04:21.554552+05:30
Bhagalpur,Bihar,25.2425,87.0117,18.2,82,0.0,1003.5,7.25,11.9,163,136.4,108.3,3,10,4,0,2026-03-05T05:04:21.554558+05:30
Ranchi,Jharkhand,23.3441,85.3096,17.3,58,0.0,938.4,7.95,18.4,101,148.1,48.8,0,5,7,0,2026-03-05T05:04:21.554564+05:30
Jamshedpur,Jharkhand,22.8046,86.2029,19.3,76,0.0,992.7,7.85,9.0,151,118.0,87.1,3,5,7,0,2026-03-05T05:04:21.554570+05:30
Dhanbad,Jharkhand,23.7957,86.4304,18.6,71,0.0,981.6,7.75,14.8,153,115.9,87.3,3,5,7,0,2026-03-05T05:04:21.554576+05:30
Bokaro,Jharkhand,23.6693,86.1511,18.4,66,0.0,985.8,7.75,11.5,155,137.4,95.0,3,5,7,0,2026-03-05T05:04:21.554582+05:30
Bhubaneswar,Odisha,20.2961,85.8245,22.4,100,0.0,1003.6,8.15,32.8,153,79.4,73.6,3,5,4,1,2026-03-05T05:04:21.554588+05:30
Cuttack,Odisha,20.4625,85.8828,22.0,97,0.0,1005.9,8.2,28.1,153,79.4,73.6,3,5,4,1,2026-03-05T05:04:21.554594+05:30
Rourkela,Odisha,22.2604,84.8536,19.6,69,0.0,986.8,7.8,20.5,98,69.2,36.9,3,5,7,0,2026-03-05T05:04:21.554601+05:30
Raipur,Chhattisgarh,21.2514,81.6296,21.2,48,0.0,976.1,7.9,25.9,120,65.7,60.1,0,5,7,0,2026-03-05T05:04:21.554607+05:30
Bhilai,Chhattisgarh,21.1938,81.3509,20.1,53,0.0,976.4,7.9,26.6,105,41.4,37.0,0,5,7,0,2026-03-05T05:04:21.554613+05:30
Guwahati,Assam,26.1158,91.7086,20.2,82,0.0,1003.8,7.15,17.6,149,70.5,64.7,3,5,4,1,2026-03-05T05:04:21.554619+05:30
Agartala,Tripura,23.8315,91.2868,16.6,94,0.0,1008.0,7.55,15.1,158,75.7,59.8,3,5,4,0,2026-03-05T05:04:21.554625+05:30
Shillong,Meghalaya,25.5788,91.8933,11.4,66,0.0,855.3,7.55,16.2,124,45.1,38.9,3,5,7,0,2026-03-05T05:04:21.554631+05:30
Imphal,Manipur,24.817,93.9368,12.9,88,0.0,923.6,7.75,23.0,146,79.9,72.9,3,10,7,0,2026-03-05T05:04:21.554638+05:30
Aizawl,Mizoram,23.7271,92.7176,13.5,73,0.0,891.7,7.7,24.5,160,91.3,84.1,3,5,7,0,2026-03-05T05:04:21.554643+05:30
Kohima,Nagaland,25.6701,94.1077,12.5,76,0.0,854.4,7.6,38.9,151,68.2,61.9,3,5,7,0,2026-03-05T05:04:21.554649+05:30
Gangtok,Sikkim,27.3314,88.6138,10.8,94,0.0,836.1,7.5,23.4,120,36.7,31.9,3,10,7,0,2026-03-05T05:04:21.554655+05:30
Siliguri,West Bengal,26.7271,88.3953,19.5,70,0.0,995.9,7.15,23.4,154,60.3,56.7,3,5,7,0,2026-03-05T05:04:24.809224+05:30
Durgapur,West Bengal,23.5204,87.3119,20.0,67,0.0,997.2,7.75,18.4,152,122.5,94.3,3,5,7,0,2026-03-05T05:04:24.809256+05:30
Asansol,West Bengal,23.6739,86.9524,20.6,66,0.0,995.7,7.7,18.7,132,95.7,69.8,3,5,7,0,2026-03-05T05:04:24.809310+05:30
Pondicherry,Puducherry,11.9139,79.8145,21.6,100,0.0,1010.1,8.85,27.4,82,33.4,29.2,3,0,4,1,2026-03-05T05:04:24.809323+05:30
Port Blair,Andaman and Nicobar Islands,11.6234,92.7265,26.5,76,0.0,1007.7,8.8,24.1,93,24.9,21.0,7,5,4,1,2026-03-05T05:04:24.809334+05:30
Haridwar,Uttarakhand,29.9457,78.1642,17.1,87,0.0,975.4,5.65,23.8,132,66.1,56.8,3,10,3,0,2026-03-05T05:04:24.809343+05:30
Rishikesh,Uttarakhand,30.0869,78.2676,17.2,75,0.0,967.9,5.7,23.4,103,42.4,39.3,3,5,3,0,2026-03-05T05:04:24.809353+05:30
Nainital,Uttarakhand,29.3919,79.4542,14.9,66,0.0,804.9,6.5,55.4,150,79.6,61.7,3,5,7,0,2026-03-05T05:04:24.809362+05:30
Mussoorie,Uttarakhand,30.4599,78.0664,15.4,33,0.0,801.9,6.05,43.6,98,38.2,32.9,0,5,7,1,2026-03-05T05:04:24.809370+05:30
Dharamshala,Himachal Pradesh,32.219,76.3234,21.6,26,0.0,870.7,6.3,26.6,50,24.2,9.3,0,5,7,0,2026-03-05T05:04:24.809377+05:30
Dalhousie,Himachal Pradesh,32.5387,75.971,17.3,24,0.0,804.9,6.5,23.8,82,28.1,22.5,0,5,7,1,2026-03-05T05:04:24.809385+05:30
Patiala,Punjab,30.3398,76.3869,19.0,86,0.0,979.9,5.7,28.1,212,448.0,90.1,3,10,3,1,2026-03-05T05:04:24.809392+05:30
Bhatinda,Punjab,30.211,74.9455,18.3,84,0.0,986.2,6.35,28.1,147,75.0,53.4,3,10,7,0,2026-03-05T05:04:24.809399+05:30
Rohtak,Haryana,28.8955,76.6066,17.8,84,0.0,983.8,5.85,32.0,436,571.8,96.4,3,10,3,0,2026-03-05T05:04:24.809406+05:30
Panipat,Haryana,29.3909,76.9635,18.7,88,0.0,982.0,5.65,30.6,1024,1289.0,169.0,3,10,3,1,2026-03-05T05:04:24.809413+05:30
Mathura,Uttar Pradesh,27.4924,77.6737,20.0,57,0.0,988.6,6.15,32.0,515,618.4,98.5,0,5,7,0,2026-03-05T05:04:24.809420+05:30
Vrindavan,Uttar Pradesh,27.5823,77.7027,17.3,75,0.0,989.1,6.1,33.8,515,618.4,98.5,3,5,7,0,2026-03-05T05:04:24.809426+05:30
Ayodhya,Uttar Pradesh,26.7922,82.1998,18.0,88,0.0,997.5,6.55,11.5,173,228.6,138.3,3,10,7,0,2026-03-05T05:04:24.809433+05:30
Ratlam,Madhya Pradesh,23.3315,75.0367,17.6,76,0.0,956.6,7.35,20.5,99,56.3,49.2,3,5,7,0,2026-03-05T05:04:24.809440+05:30
Sagar,Madhya Pradesh,23.8388,78.7378,16.7,59,0.0,951.4,7.3,31.3,51,16.4,13.6,0,5,7,0,2026-03-05T05:04:24.809447+05:30
Satna,Madhya Pradesh,24.6005,80.8322,17.7,62,0.0,972.9,7.3,40.0,64,21.8,16.9,3,5,7,0,2026-03-05T05:04:24.809453+05:30
Akola,Maharashtra,20.7002,77.0082,19.7,63,0.0,976.9,7.8,24.5,78,30.6,27.2,3,5,7,0,2026-03-05T05:04:24.809460+05:30
Amravati,Maharashtra,20.9374,77.7796,17.8,67,0.0,968.8,7.8,16.9,74,29.4,26.0,3,5,7,0,2026-03-05T05:04:24.809467+05:30
Latur,Maharashtra,18.4088,76.5604,20.4,57,0.0,940.5,8.25,33.5,88,53.4,50.2,0,5,7,0,2026-03-05T05:04:24.809474+05:30
Nanded,Maharashtra,19.1383,77.3091,21.3,62,0.0,970.0,8.05,25.2,85,56.1,53.3,3,5,7,0,2026-03-05T05:04:24.809481+05:30
Gulbarga,Karnataka,17.3297,76.8343,22.3,55,0.0,959.5,8.35,20.9,76,32.7,29.5,0,5,7,0,2026-03-05T05:04:24.809487+05:30
Bidar,Karnataka,17.9104,77.5199,21.7,59,0.0,936.0,8.3,25.2,91,52.5,48.3,0,5,7,0,2026-03-05T05:04:24.809494+05:30
Hospet,Karnataka,15.2689,76.3909,24.5,58,0.0,956.0,8.7,20.9,89,25.0,24.1,0,5,7,0,2026-03-05T05:04:24.809500+05:30
Tirupur,Tamil Nadu,11.1085,77.3411,22.4,73,0.0,976.4,9.15,29.2,103,42.0,41.7,3,5,7,1,2026-03-05T05:04:24.809506+05:30
Alappuzha,Kerala,9.4981,76.3388,26.9,81,0.0,1009.4,8.95,34.2,110,44.0,41.8,7,0,4,1,2026-03-05T05:04:24.809513+05:30
Munnar,Kerala,10.0889,77.0595,15.5,74,0.0,854.6,9.45,26.3,76,26.8,26.5,3,5,7,0,2026-03-05T05:04:24.809520+05:30
Silchar,Assam,24.8333,92.7789,19.0,79,0.0,1007.1,7.5,13.3,152,63.1,55.8,3,5,4,0,2026-03-05T05:04:24.809527+05:30
Dibrugarh,Assam,27.4728,94.912,19.5,92,0.0,998.1,7.2,9.0,130,39.0,35.0,3,10,7,1,2026-03-05T05:04:24.809533+05:30
