city,state,latitude,longitude,temp,humidity,rain,pressure,uv_index,wind_gusts,aqi,pm10,pm2_5,no2,co,o3,so2,mosquito_risk,arthritis_risk,migraine_risk,frizz_risk,updated_at
Delhi,Delhi,28.6139,77.209,33.9,49,0.0,980.1,7.8,23.4,239,459.1,115.9,14.3,687.0,189.0,36.0,0,5,7,1,2026-06-14T11:21:30.380815+05:30
Mumbai,Maharashtra,19.076,72.8777,32.7,60,0.0,1009.6,7.7,47.5,69,52.2,22.5,2.5,139.0,69.0,3.8,0,0,4,1,2026-06-14T11:21:30.380862+05:30
Bangalore,Karnataka,12.9716,77.5946,27.2,67,0.0,913.8,6.55,43.6,48,15.9,7.9,4.6,213.0,63.0,3.3,7,5,7,1,2026-06-14T11:21:30.380879+05:30
Hyderabad,Telangana,17.385,78.4867,32.0,50,0.0,953.1,5.05,53.3,89,40.9,21.9,2.4,195.0,109.0,6.4,0,5,3,1,2026-06-14T11:21:30.380889+05:30
Chennai,Tamil Nadu,13.0827,80.2707,33.2,56,0.0,1006.4,8.45,36.7,60,27.4,19.3,8.0,261.0,113.0,10.9,0,5,4,1,2026-06-14T11:21:30.380897+05:30
Kolkata,West Bengal,22.5726,88.3639,33.7,55,0.0,1002.3,8.35,31.7,109,32.1,28.6,4.0,391.0,155.0,10.6,0,5,4,1,2026-06-14T11:21:30.380905+05:30
Pune,Maharashtra,18.5204,73.8567,33.0,45,0.0,949.8,8.3,50.8,56,39.3,16.2,2.3,126.0,78.0,6.4,0,5,7,1,2026-06-14T11:21:30.380912+05:30
Ahmedabad,Gujarat,23.0225,72.5714,36.0,44,0.0,1001.2,8.05,45.4,71,68.5,22.1,1.5,120.0,68.0,3.1,0,5,7,1,2026-06-14T11:21:30.380918+05:30
Jaipur,Rajasthan,26.9124,75.7873,34.5,44,0.0,957.9,8.2,39.6,113,269.2,62.2,2.1,184.0,90.0,5.5,0,5,7,1,2026-06-14T11:21:30.380929+05:30
Lucknow,Uttar Pradesh,26.8467,80.9462,34.1,50,0.0,990.3,8.35,32.0,151,285.0,67.5,3.3,294.0,158.0,10.4,0,5,7,1,2026-06-14T11:21:30.380937+05:30
Kanpur,Uttar Pradesh,26.4499,80.3319,36.2,37,0.0,989.1,8.3,34.6,152,355.8,73.6,2.3,283.0,158.0,9.5,0,5,10,1,2026-06-14T11:21:30.380944+05:30
Chandigarh,Chandigarh,30.7333,76.7794,31.3,51,0.0,966.1,7.8,20.2,102,53.1,21.9,3.2,349.0,157.0,13.3,0,5,7,1,2026-06-14T11:21:30.380951+05:30
Srinagar,Jammu and Kashmir,34.0837,74.7973,20.6,59,0.0,842.3,9.0,20.9,70,13.0,9.9,2.2,355.0,135.0,2.4,0,5,7,0,2026-06-14T11:21:30.380959+05:30
Jammu,Jammu and Kashmir,32.7266,74.857,33.3,31,0.0,969.9,8.6,28.1,84,18.0,10.9,3.7,399.0,145.0,2.2,0,5,7,0,2026-06-14T11:21:30.380966+05:30
Amritsar,Punjab,31.634,74.8723,31.8,47,0.0,978.0,8.45,18.4,108,62.2,26.5,3.0,318.0,140.0,4.6,0,5,7,1,2026-06-14T11:21:30.380973+05:30
Ludhiana,Punjab,30.901,75.8573,32.2,42,0.0,975.8,8.05,24.1,126,39.3,22.3,3.4,353.0,143.0,8.1,0,5,7,1,2026-06-14T11:21:30.380981+05:30
Jalandhar,Punjab,31.326,75.5762,32.2,41,0.0,976.9,8.25,21.6,104,95.0,32.5,3.0,342.0,142.0,3.4,0,5,7,1,2026-06-14T11:21:30.380988+05:30
Dehradun,Uttarakhand,30.6284,78.0322,24.0,43,0.0,831.2,8.3,27.4,55,44.6,13.4,0.0,148.0,128.0,0.8,0,5,7,0,2026-06-14T11:21:30.380995+05:30
Shimla,Himachal Pradesh,31.1048,77.1734,21.2,40,0.0,785.7,8.35,33.8,59,46.6,14.2,0.1,158.0,132.0,1.2,0,5,7,0,2026-06-14T11:21:30.381007+05:30
Manali,Himachal Pradesh,32.2396,77.1887,23.3,46,0.0,819.6,9.75,37.1,50,5.0,3.3,3.7,153.0,142.0,0.7,0,5,7,0,2026-06-14T11:21:30.381031+05:30
Gurgaon,Haryana,28.4595,77.0266,35.6,38,0.0,978.6,7.85,27.4,493,536.4,131.8,14.8,324.0,191.0,35.0,0,5,10,1,2026-06-14T11:21:30.381038+05:30
Noida,Uttar Pradesh,28.5355,77.391,34.6,47,0.0,981.6,7.85,25.6,493,536.4,131.8,14.8,603.0,191.0,35.0,0,5,7,1,2026-06-14T11:21:30.381045+05:30
Ghaziabad,Uttar Pradesh,28.6692,77.4538,33.9,49,0.0,979.9,7.8,22.7,171,465.7,109.2,6.9,438.0,189.0,32.5,0,5,7,1,2026-06-14T11:21:30.381052+05:30
Faridabad,Haryana,28.4089,77.3178,34.9,43,0.0,980.8,7.85,27.0,493,536.4,131.8,14.8,492.0,191.0,35.0,0,5,7,1,2026-06-14T11:21:30.381058+05:30
Meerut,Uttar Pradesh,28.9845,77.7064,33.2,51,0.0,978.8,7.75,31.7,171,465.7,109.2,6.9,328.0,189.0,32.5,0,5,7,1,2026-06-14T11:21:30.381064+05:30
Agra,Uttar Pradesh,27.1767,78.0081,36.8,35,0.0,985.0,8.15,28.1,484,637.0,105.7,6.0,325.0,154.0,10.8,0,5,10,1,2026-06-14T11:21:30.381070+05:30
Varanasi,Uttar Pradesh,25.3176,82.9739,36.2,42,0.0,994.1,8.8,34.9,175,104.5,56.9,2.0,293.0,185.0,15.4,0,5,10,1,2026-06-14T11:21:30.381077+05:30
Prayagraj,Uttar Pradesh,25.4358,81.8463,36.8,38,0.0,992.8,8.7,36.7,167,192.3,56.0,2.6,270.0,169.0,12.7,0,5,10,1,2026-06-14T11:21:30.381083+05:30
Gorakhpur,Uttar Pradesh,26.7606,83.3732,34.4,53,0.0,993.6,8.7,41.4,156,122.0,48.4,0.9,323.0,153.0,9.3,0,5,7,1,2026-06-14T11:21:30.381092+05:30
Bareilly,Uttar Pradesh,28.367,79.4304,34.0,46,0.0,983.7,8.15,30.6,157,200.7,62.4,4.3,337.0,180.0,15.0,0,5,7,1,2026-06-14T11:21:30.381098+05:30
Aligarh,Uttar Pradesh,27.8974,78.088,35.1,42,0.0,982.7,8.0,24.8,232,403.3,109.4,4.3,321.0,188.0,23.4,0,5,10,1,2026-06-14T11:21:30.381105+05:30
Moradabad,Uttar Pradesh,28.8386,78.7733,33.9,46,0.0,980.7,7.95,37.1,153,323.2,81.0,5.2,326.0,170.0,16.1,0,5,7,1,2026-06-14T11:21:30.381111+05:30
Saharanpur,Uttar Pradesh,29.9637,77.546,31.9,53,0.0,972.9,7.55,25.2,143,165.8,52.5,6.3,331.0,158.0,12.5,0,5,7,1,2026-06-14T11:21:30.381118+05:30
Jhansi,Uttar Pradesh,25.4484,78.5685,36.4,37,0.0,975.9,8.5,29.2,93,124.3,32.9,1.5,149.0,115.0,6.4,0,5,10,1,2026-06-14T11:21:33.614792+05:30
Surat,Gujarat,21.1702,72.8311,34.5,52,0.0,1007.0,7.6,52.9,77,83.8,33.6,10.3,263.0,56.0,28.0,0,5,4,1,2026-06-14T11:21:33.614829+05:30
Vadodara,Gujarat,22.3072,73.1812,36.0,44,0.0,1003.5,8.0,46.4,73,76.1,27.1,2.2,121.0,72.0,4.8,0,5,7,1,2026-06-14T11:21:33.614840+05:30
Rajkot,Gujarat,22.3039,70.8022,35.6,44,0.0,993.9,7.55,52.6,71,50.6,19.6,1.3,100.0,71.0,4.0,0,5,10,1,2026-06-14T11:21:33.614849+05:30
Thane,Maharashtra,19.2183,72.9781,35.0,47,0.0,1008.6,7.7,44.3,69,52.2,22.5,2.5,128.0,69.0,3.8,0,0,4,1,2026-06-14T11:21:33.614856+05:30
Nagpur,Maharashtra,21.1458,79.0882,35.8,39,0.0,971.4,8.1,70.2,106,64.3,31.1,5.1,162.0,129.0,18.9,0,5,10,1,2026-06-14T11:21:33.614864+05:30
Nashik,Maharashtra,19.9975,73.7898,31.9,46,0.0,946.7,8.05,54.0,60,52.5,19.6,1.0,110.0,64.0,1.1,0,5,7,1,2026-06-14T11:21:33.614870+05:30
Aurangabad,Maharashtra,19.8762,75.3433,33.4,41,0.0,945.0,8.95,52.9,61,53.2,19.3,1.1,113.0,73.0,2.5,0,5,7,1,2026-06-14T11:21:33.614878+05:30
Solapur,Maharashtra,17.6599,75.9064,34.0,43,0.0,958.1,8.9,47.2,63,43.2,17.1,1.5,117.0,83.0,3.5,0,5,7,1,2026-06-14T11:21:33.614885+05:30
Kolhapur,Maharashtra,16.705,74.2433,30.3,55,0.1,949.4,8.75,44.6,46,28.0,11.6,1.5,120.0,70.0,1.9,3,5,7,1,2026-06-14T11:21:33.614893+05:30
Goa,Goa,15.2993,74.124,31.2,69,0.0,1000.3,8.0,35.6,65,30.0,13.9,0.8,129.0,64.0,1.6,3,5,4,1,2026-06-14T11:21:33.614901+05:30
Jodhpur,Rajasthan,26.2389,73.0243,35.3,46,0.0,981.0,8.45,43.2,159,322.2,68.0,1.0,112.0,76.0,4.5,0,5,10,1,2026-06-14T11:21:33.614909+05:30
Udaipur,Rajasthan,24.5854,73.7125,33.2,48,0.0,945.9,8.85,48.6,74,88.2,25.7,0.8,108.0,69.0,2.7,0,5,7,1,2026-06-14T11:21:33.614916+05:30
Kota,Rajasthan,25.2138,75.8648,36.1,43,0.0,976.8,8.35,37.1,107,100.4,34.1,2.0,140.0,87.0,6.6,0,5,10,1,2026-06-14T11:21:33.614923+05:30
Bikaner,Rajasthan,28.0229,73.3119,37.8,35,0.0,978.4,8.45,32.4,155,176.0,57.3,1.2,148.0,94.0,4.4,0,5,10,1,2026-06-14T11:21:33.614932+05:30
Ajmer,Rajasthan,26.4499,74.6399,33.8,47,0.0,953.2,8.35,38.5,107,133.2,48.1,0.9,121.0,85.0,4.8,0,5,7,1,2026-06-14T11:21:33.614938+05:30
Gwalior,Madhya Pradesh,26.2183,78.1828,35.5,40,0.0,980.8,8.3,31.3,118,136.9,35.3,1.0,160.0,110.0,3.5,0,5,10,1,2026-06-14T11:21:33.614945+05:30
Indore,Madhya Pradesh,22.7196,75.8577,33.5,46,0.0,948.0,8.6,43.9,77,70.5,30.3,2.3,153.0,80.0,6.8,0,5,7,1,2026-06-14T11:21:33.614952+05:30
Bhopal,Madhya Pradesh,23.2599,77.4126,33.6,48,0.0,952.8,8.65,40.3,98,63.3,28.3,1.3,174.0,96.0,6.3,0,5,7,1,2026-06-14T11:21:33.614959+05:30
Jabalpur,Madhya Pradesh,23.1815,79.9864,34.7,41,0.0,959.9,8.05,28.8,98,72.6,28.7,1.5,160.0,118.0,4.7,0,5,7,1,2026-06-14T11:21:33.614966+05:30
Ujjain,Madhya Pradesh,23.1765,75.7885,32.7,50,0.0,953.4,8.55,55.4,76,61.0,26.7,2.0,137.0,78.0,6.5,0,5,7,1,2026-06-14T11:21:33.614975+05:30
Visakhapatnam,Andhra Pradesh,17.6868,83.2185,34.6,52,0.0,1000.0,8.8,41.8,93,46.1,34.3,9.1,306.0,141.0,30.0,0,5,4,1,2026-06-14T11:21:33.614982+05:30
Vijayawada,Andhra Pradesh,16.5062,80.648,34.2,50,0.0,1000.7,8.7,35.3,82,52.3,32.4,3.3,214.0,120.0,8.3,0,5,4,1,2026-06-14T11:21:33.614989+05:30
Guntur,Andhra Pradesh,16.3067,80.4365,34.8,49,0.0,1002.1,8.95,37.1,81,43.2,28.8,3.4,206.0,115.0,7.8,0,5,4,1,2026-06-14T11:21:33.614996+05:30
Nellore,Andhra Pradesh,14.4426,79.9865,32.6,58,0.0,1005.1,7.8,37.8,62,30.5,16.6,2.8,130.0,86.0,6.8,0,5,4,1,2026-06-14T11:21:33.615004+05:30
Kurnool,Andhra Pradesh,15.8281,78.0373,33.8,47,0.0,977.3,4.8,44.6,72,34.6,17.2,2.6,129.0,86.0,8.3,0,5,3,1,2026-06-14T11:21:33.615029+05:30
Kakinada,Andhra Pradesh,16.9891,82.2475,34.4,47,0.0,1004.8,8.8,51.1,77,36.8,23.6,2.5,252.0,132.0,6.2,0,5,4,1,2026-06-14T11:21:33.615037+05:30
Tirupati,Andhra Pradesh,13.6288,79.4192,33.6,47,0.0,990.9,8.8,34.9,58,28.1,13.6,1.9,118.0,74.0,1.8,0,5,7,1,2026-06-14T11:21:33.615044+05:30
Warangal,Telangana,17.9689,79.5941,34.5,47,0.0,977.1,7.9,36.7,116,39.0,25.0,2.7,210.0,118.0,7.9,0,5,7,1,2026-06-14T11:21:33.615050+05:30
Nizamabad,Telangana,18.6725,78.0941,34.7,44,0.0,964.5,9.0,49.3,95,41.7,20.1,1.5,135.0,91.0,3.6,0,5,7,1,2026-06-14T11:21:33.615056+05:30
Mysore,Karnataka,12.2958,76.6396,28.4,63,0.0,930.9,8.95,37.8,39,9.5,5.0,2.3,127.0,67.0,1.9,7,5,7,1,2026-06-14T11:21:33.615063+05:30
Mangalore,Karnataka,12.9141,74.856,28.5,76,0.0,1010.3,8.65,31.3,56,25.3,11.2,1.5,131.0,72.0,2.2,7,0,4,1,2026-06-14T11:21:33.615070+05:30
Hubli-Dharwad,Karnataka,15.3647,75.124,30.1,60,0.0,943.0,8.05,49.3,46,21.4,9.6,1.3,113.0,67.0,1.3,0,5,7,1,2026-06-14T11:21:33.615077+05:30
Belgaum,Karnataka,15.8497,74.4977,29.6,57,0.0,928.2,6.65,49.0,43,21.5,9.0,1.5,109.0,65.0,1.5,4,5,7,1,2026-06-14T11:21:36.851627+05:30
Coimbatore,Tamil Nadu,11.0168,76.9558,31.1,51,0.1,963.6,8.35,47.5,35,12.6,6.2,1.6,142.0,65.0,2.0,3,5,7,1,2026-06-14T11:21:36.851664+05:30
Madurai,Tamil Nadu,9.9252,78.1198,35.9,36,0.0,993.9,8.55,46.1,58,32.8,14.4,2.0,123.0,95.0,3.3,0,5,10,1,2026-06-14T11:21:36.851675+05:30
Trichy,Tamil Nadu,10.7905,78.7047,35.7,40,0.0,1000.2,7.75,58.7,52,17.0,8.6,1.7,128.0,74.0,2.3,0,5,7,1,2026-06-14T11:21:36.851685+05:30
Salem,Tamil Nadu,11.6643,78.146,31.7,55,0.0,978.8,8.75,36.7,58,25.7,14.5,5.1,186.0,88.0,9.9,0,5,7,1,2026-06-14T11:21:36.851693+05:30
Tirunelveli,Tamil Nadu,8.7139,77.7567,36.1,40,0.0,1004.4,8.65,43.9,41,12.9,6.2,1.2,118.0,70.0,1.2,0,5,7,1,2026-06-14T11:21:36.851701+05:30
Vellore,Tamil Nadu,12.9165,79.1325,33.6,50,0.0,984.5,8.15,42.8,55,21.4,12.3,2.6,157.0,81.0,2.8,0,5,7,1,2026-06-14T11:21:36.851709+05:30
Erode,Tamil Nadu,11.341,77.7172,34.7,43,0.0,990.3,8.45,36.0,47,16.1,9.1,2.8,165.0,79.0,2.6,0,5,7,1,2026-06-14T11:21:36.851716+05:30
Kochi,Kerala,9.9312,76.2673,28.5,76,0.0,1012.2,7.6,40.3,67,12.8,7.9,4.0,128.0,68.0,3.8,7,0,4,1,2026-06-14T11:21:36.851724+05:30
Thiruvananthapuram,Kerala,8.5241,76.9366,28.8,77,0.0,1011.1,8.3,44.3,40,24.4,12.4,1.4,116.0,74.0,1.6,7,0,4,1,2026-06-14T11:21:36.851731+05:30
Kozhikode,Kerala,11.2588,75.7804,28.7,76,0.0,1011.5,8.2,34.2,37,16.4,6.3,0.6,146.0,68.0,1.0,7,0,4,1,2026-06-14T11:21:36.851738+05:30
Thrissur,Kerala,10.5276,76.2144,29.4,74,0.0,1010.4,8.4,36.7,67,15.5,9.5,2.4,146.0,73.0,2.5,7,0,4,1,2026-06-14T11:21:36.851746+05:30
Kannur,Kerala,11.8745,75.3704,28.2,75,0.0,1010.8,8.1,34.2,51,15.9,6.8,1.6,137.0,61.0,1.3,7,0,4,1,2026-06-14T11:21:36.851753+05:30
Patna,Bihar,25.5941,85.1376,33.9,53,0.0,996.6,8.9,28.8,176,105.0,77.1,3.3,410.0,192.0,15.2,0,5,7,1,2026-06-14T11:21:36.851760+05:30
Gaya,Bihar,24.7914,85.0002,34.9,47,0.0,990.3,8.95,33.1,169,111.1,79.6,3.8,333.0,187.0,13.0,0,5,7,1,2026-06-14T11:21:36.851767+05:30
Muzaffarpur,Bihar,26.1209,85.3647,33.1,58,0.0,996.5,8.6,23.8,174,101.0,76.6,3.5,425.0,188.0,15.2,0,5,7,1,2026-06-14T11:21:36.851774+05:30
Bhagalpur,Bihar,25.2425,87.0117,33.5,60,0.0,997.1,8.85,20.2,156,78.5,67.5,6.4,355.0,188.0,34.1,0,5,7,1,2026-06-14T11:21:36.851781+05:30
Ranchi,Jharkhand,23.3441,85.3096,32.5,46,0.0,935.8,8.0,33.5,141,87.8,56.8,1.7,193.0,165.0,11.5,0,5,7,1,2026-06-14T11:21:36.851788+05:30
Jamshedpur,Jharkhand,22.8046,86.2029,34.4,51,0.0,987.2,9.1,43.2,155,75.2,61.7,5.9,314.0,201.0,34.8,0,5,7,1,2026-06-14T11:21:36.851795+05:30
Dhanbad,Jharkhand,23.7957,86.4304,33.0,55,0.0,976.7,8.45,42.5,170,106.2,79.6,15.3,267.0,168.0,52.8,0,5,7,1,2026-06-14T11:21:36.851803+05:30
Bokaro,Jharkhand,23.6693,86.1511,33.3,56,0.0,980.4,8.6,43.9,162,106.9,79.2,14.8,276.0,177.0,56.2,0,5,7,1,2026-06-14T11:21:36.851809+05:30
Bhubaneswar,Odisha,20.2961,85.8245,35.3,55,0.0,998.6,9.05,52.2,116,38.4,29.0,4.3,244.0,127.0,9.8,0,5,10,1,2026-06-14T11:21:36.851816+05:30
Cuttack,Odisha,20.4625,85.8828,35.1,56,0.0,1000.4,9.15,43.2,116,38.4,29.0,4.3,263.0,127.0,9.8,0,5,7,1,2026-06-14T11:21:36.851823+05:30
Rourkela,Odisha,22.2604,84.8536,35.0,49,0.0,981.5,8.75,32.8,151,58.8,42.7,3.1,308.0,178.0,21.3,0,5,7,1,2026-06-14T11:21:36.851830+05:30
Raipur,Chhattisgarh,21.2514,81.6296,36.7,32,0.0,972.4,8.95,46.8,133,85.2,45.1,13.1,162.0,118.0,43.2,0,5,10,1,2026-06-14T11:21:36.851836+05:30
Bhilai,Chhattisgarh,21.1938,81.3509,34.8,38,0.0,972.9,8.95,46.1,125,89.2,41.9,10.1,395.0,116.0,33.1,0,5,7,1,2026-06-14T11:21:36.851843+05:30
Guwahati,Assam,26.1158,91.7086,29.4,76,0.0,997.6,8.15,28.8,78,24.4,19.8,1.4,295.0,128.0,2.8,7,5,7,1,2026-06-14T11:21:36.851850+05:30
Agartala,Tripura,23.8315,91.2868,28.6,83,0.1,1003.0,8.5,30.2,70,32.9,23.5,3.6,183.0,118.0,3.2,10,5,4,1,2026-06-14T11:21:36.851858+05:30
Shillong,Meghalaya,25.5788,91.8933,22.7,88,0.0,855.6,7.35,25.2,50,10.8,8.6,1.7,230.0,110.0,2.6,3,5,7,1,2026-06-14T11:21:36.851864+05:30
Imphal,Manipur,24.817,93.9368,28.2,67,0.0,920.6,9.2,32.0,63,18.9,10.9,0.7,174.0,98.0,1.6,7,5,7,1,2026-06-14T11:21:36.851872+05:30
Aizawl,Mizoram,23.7271,92.7176,25.1,68,0.0,890.9,9.1,33.8,51,25.8,14.8,0.5,156.0,88.0,1.0,7,5,7,1,2026-06-14T11:21:36.851879+05:30
Kohima,Nagaland,25.6701,94.1077,21.7,96,0.1,853.2,7.65,24.8,40,16.9,10.2,0.6,185.0,104.0,1.5,6,5,7,1,2026-06-14T11:21:36.851886+05:30
Gangtok,Sikkim,27.3314,88.6138,25.4,52,0.0,837.1,9.2,39.2,71,24.2,15.6,0.9,268.0,130.0,1.7,4,5,7,0,2026-06-14T11:21:36.851893+05:30
Siliguri,West Bengal,26.7271,88.3953,30.0,70,0.1,989.2,8.75,20.5,115,31.3,23.5,1.7,385.0,156.0,5.3,10,5,7,1,2026-06-14T11:21:40.076532+05:30
Durgapur,West Bengal,23.5204,87.3119,33.5,55,0.0,991.4,8.9,38.5,166,106.2,93.1,27.8,591.0,180.0,96.9,0,5,7,1,2026-06-14T11:21:40.076569+05:30
Asansol,West Bengal,23.6739,86.9524,33.5,53,0.0,990.1,8.9,55.8,164,102.7,83.1,21.8,404.0,163.0,67.4,0,5,7,1,2026-06-14T11:21:40.076580+05:30
Pondicherry,Puducherry,11.9139,79.8145,33.8,55,0.0,1008.3,8.55,40.7,63,30.9,21.5,7.1,189.0,104.0,10.1,0,0,4,1,2026-06-14T11:21:40.076589+05:30
Port Blair,Andaman and Nicobar Islands,11.6234,92.7265,30.8,68,0.1,1008.0,7.15,46.8,27,16.8,9.5,0.2,89.0,46.0,0.5,6,0,4,1,2026-06-14T11:21:40.076597+05:30
Haridwar,Uttarakhand,29.9457,78.1642,32.9,46,0.0,971.2,7.65,27.0,102,104.8,35.6,1.1,240.0,154.0,6.9,0,5,7,1,2026-06-14T11:21:40.076605+05:30
Rishikesh,Uttarakhand,30.0869,78.2676,32.5,43,0.0,964.0,7.75,28.4,77,61.7,22.8,0.8,213.0,146.0,3.8,0,5,7,1,2026-06-14T11:21:40.076613+05:30
Nainital,Uttarakhand,29.3919,79.4542,23.1,44,0.0,807.0,8.6,37.8,93,80.1,25.9,0.5,187.0,152.0,5.0,0,5,7,0,2026-06-14T11:21:40.076620+05:30
Mussoorie,Uttarakhand,30.4599,78.0664,21.6,47,0.0,804.0,8.15,41.0,77,59.1,20.5,0.1,156.0,141.0,2.6,0,5,7,0,2026-06-14T11:21:40.076628+05:30
Dharamshala,Himachal Pradesh,32.219,76.3234,25.0,42,0.0,868.5,8.5,41.8,36,8.4,3.5,0.4,194.0,140.0,0.6,4,5,7,0,2026-06-14T11:21:40.076635+05:30
Dalhousie,Himachal Pradesh,32.5387,75.971,22.1,42,0.1,805.5,8.75,34.6,60,37.0,14.2,0.9,181.0,150.0,1.1,3,5,7,0,2026-06-14T11:21:40.076644+05:30
Patiala,Punjab,30.3398,76.3869,33.2,40,0.0,975.2,7.7,23.0,144,242.1,54.2,4.1,271.0,148.0,15.2,0,5,7,1,2026-06-14T11:21:40.076651+05:30
Bhatinda,Punjab,30.211,74.9455,34.3,36,0.0,980.8,8.35,23.4,147,42.3,25.3,7.0,274.0,140.0,23.1,0,5,7,1,2026-06-14T11:21:40.076658+05:30
Rohtak,Haryana,28.8955,76.6066,34.9,43,0.0,978.8,7.8,26.3,447,457.3,109.0,7.6,349.0,173.0,15.8,0,5,7,1,2026-06-14T11:21:40.076665+05:30
Panipat,Haryana,29.3909,76.9635,33.6,49,0.0,977.5,7.65,27.7,431,791.6,132.2,8.2,367.0,148.0,25.0,0,5,7,1,2026-06-14T11:21:40.076672+05:30
Mathura,Uttar Pradesh,27.4924,77.6737,35.8,39,0.0,984.0,8.1,23.8,376,381.8,85.7,5.0,328.0,136.0,10.0,0,5,10,1,2026-06-14T11:21:40.076679+05:30
Vrindavan,Uttar Pradesh,27.5823,77.7027,36.1,37,0.0,984.3,8.05,24.1,376,381.8,85.7,5.0,333.0,136.0,10.0,0,5,10,1,2026-06-14T11:21:40.076687+05:30
Ayodhya,Uttar Pradesh,26.7922,82.1998,34.4,54,0.0,991.7,8.4,32.4,154,156.5,52.3,1.0,293.0,157.0,11.0,0,5,7,1,2026-06-14T11:21:40.076694+05:30
Ratlam,Madhya Pradesh,23.3315,75.0367,32.5,52,0.0,954.6,8.5,43.6,74,66.1,27.0,1.8,115.0,74.0,5.6,0,5,7,1,2026-06-14T11:21:40.076700+05:30
Sagar,Madhya Pradesh,23.8388,78.7378,35.0,36,0.0,949.1,8.75,34.2,74,94.3,32.1,1.4,148.0,111.0,5.5,0,5,7,1,2026-06-14T11:21:40.076708+05:30
Satna,Madhya Pradesh,24.6005,80.8322,35.5,37,0.0,969.3,8.8,32.0,103,82.7,30.3,0.7,174.0,140.0,5.1,0,5,10,1,2026-06-14T11:21:40.076714+05:30
Akola,Maharashtra,20.7002,77.0082,34.2,49,0.0,974.6,8.85,52.9,71,50.6,23.7,2.0,112.0,82.0,7.1,0,5,7,1,2026-06-14T11:21:40.076722+05:30
Amravati,Maharashtra,20.9374,77.7796,35.0,45,0.0,966.6,8.85,56.5,73,49.6,23.6,2.3,121.0,84.0,7.9,0,5,7,1,2026-06-14T11:21:40.076731+05:30
Latur,Maharashtra,18.4088,76.5604,32.7,50,0.0,940.7,8.9,45.4,77,53.6,20.8,1.9,132.0,82.0,5.2,0,5,7,1,2026-06-14T11:21:40.076739+05:30
Nanded,Maharashtra,19.1383,77.3091,32.7,52,0.1,968.7,8.9,45.4,81,44.1,19.5,1.6,123.0,83.0,3.3,3,5,7,1,2026-06-14T11:21:40.076746+05:30
Gulbarga,Karnataka,17.3297,76.8343,33.4,48,0.0,959.3,8.9,41.8,69,41.4,16.9,1.8,128.0,83.0,3.6,0,5,7,1,2026-06-14T11:21:40.076753+05:30
Bidar,Karnataka,17.9104,77.5199,32.4,51,0.0,936.3,8.95,46.4,92,44.4,20.9,2.1,133.0,96.0,6.6,0,5,7,1,2026-06-14T11:21:40.076759+05:30
Hospet,Karnataka,15.2689,76.3909,31.5,56,0.0,957.5,8.75,51.1,51,26.3,11.7,1.5,121.0,70.0,2.2,0,5,7,1,2026-06-14T11:21:40.076766+05:30
Tirupur,Tamil Nadu,11.1085,77.3411,33.3,48,0.0,976.8,8.15,51.8,50,17.9,9.9,2.9,141.0,76.0,2.8,0,5,7,1,2026-06-14T11:21:40.076772+05:30
Alappuzha,Kerala,9.4981,76.3388,28.4,78,0.0,1012.3,8.15,40.3,54,16.5,9.7,3.2,94.0,75.0,3.2,7,0,4,1,2026-06-14T11:21:40.076779+05:30
Munnar,Kerala,10.0889,77.0595,19.5,88,0.0,859.9,8.5,37.1,37,9.7,4.4,1.0,97.0,62.0,1.2,3,10,7,1,2026-06-14T11:21:40.076787+05:30
Silchar,Assam,24.8333,92.7789,29.3,78,0.0,1001.8,8.35,32.4,68,21.5,13.0,1.7,195.0,91.0,3.1,7,5,4,1,2026-06-14T11:21:40.076793+05:30
Dibrugarh,Assam,27.4728,94.912,29.8,73,0.0,990.9,8.5,22.0,71,16.9,15.7,1.4,231.0,106.0,0.9,7,5,7,1,2026-06-14T11:21:40.076800+05:30
