city,state,latitude,longitude,temp,humidity,rain,pressure,uv_index,wind_gusts,aqi,pm10,pm2_5,no2,co,o3,so2,mosquito_risk,arthritis_risk,migraine_risk,frizz_risk,updated_at
Delhi,Delhi,28.6139,77.209,25.8,43,0.0,980.6,7.35,36.0,152,313.9,67.3,27.4,519.0,78.0,16.8,4,5,7,0,2026-05-07T01:55:04.616566+05:30
Mumbai,Maharashtra,19.076,72.8777,27.4,89,0.0,1005.2,7.85,43.9,85,73.6,27.1,14.4,403.0,72.0,19.1,7,5,4,1,2026-05-07T01:55:04.616619+05:30
Bangalore,Karnataka,12.9716,77.5946,21.9,91,0.0,909.8,9.5,31.3,91,43.5,39.2,11.8,289.0,112.0,12.7,3,5,7,1,2026-05-07T01:55:04.616636+05:30
Hyderabad,Telangana,17.385,78.4867,27.4,61,0.0,951.1,9.25,27.0,84,27.9,23.2,8.5,258.0,86.0,5.4,7,5,7,1,2026-05-07T01:55:04.616648+05:30
Chennai,Tamil Nadu,13.0827,80.2707,28.8,74,0.0,1005.4,9.05,40.7,48,15.2,10.1,8.3,163.0,54.0,3.3,7,5,4,1,2026-05-07T01:55:04.616657+05:30
Kolkata,West Bengal,22.5726,88.3639,24.0,95,0.0,1005.8,8.9,54.4,94,71.2,66.8,36.0,414.0,31.0,16.2,3,5,4,1,2026-05-07T01:55:04.616666+05:30
Pune,Maharashtra,18.5204,73.8567,25.4,76,0.0,945.4,8.5,48.6,92,41.7,27.3,18.1,377.0,80.0,21.3,7,5,7,1,2026-05-07T01:55:04.616674+05:30
Ahmedabad,Gujarat,23.0225,72.5714,31.5,40,0.0,998.7,8.1,31.0,105,125.7,63.8,37.7,360.0,46.0,21.7,0,5,7,1,2026-05-07T01:55:04.616685+05:30
Jaipur,Rajasthan,26.9124,75.7873,25.4,42,0.0,956.3,8.1,39.6,115,133.2,45.4,23.8,363.0,56.0,7.9,4,5,7,0,2026-05-07T01:55:04.616694+05:30
Lucknow,Uttar Pradesh,26.8467,80.9462,21.1,80,0.0,992.5,8.05,32.4,115,79.4,52.9,22.0,396.0,65.0,13.4,3,5,7,1,2026-05-07T01:55:04.616702+05:30
Kanpur,Uttar Pradesh,26.4499,80.3319,22.1,78,0.0,990.8,7.55,33.1,120,120.6,45.6,13.7,329.0,81.0,9.7,3,5,7,1,2026-05-07T01:55:04.616709+05:30
Chandigarh,Chandigarh,30.7333,76.7794,20.2,57,0.0,965.9,7.15,38.2,77,26.8,22.5,23.1,803.0,57.0,5.5,0,5,7,0,2026-05-07T01:55:04.616717+05:30
Srinagar,Jammu and Kashmir,34.0837,74.7973,7.9,89,0.0,835.5,8.7,24.5,75,40.2,29.2,28.0,534.0,39.0,4.1,3,10,7,0,2026-05-07T01:55:04.616725+05:30
Jammu,Jammu and Kashmir,32.7266,74.857,21.0,58,0.0,970.1,8.05,30.2,67,33.8,31.2,30.3,340.0,31.0,3.6,0,5,7,0,2026-05-07T01:55:04.616733+05:30
Amritsar,Punjab,31.634,74.8723,22.1,59,0.0,977.9,8.2,31.7,103,25.5,20.5,4.0,457.0,100.0,4.3,0,5,7,0,2026-05-07T01:55:04.616739+05:30
Ludhiana,Punjab,30.901,75.8573,20.7,68,0.0,975.7,7.8,31.0,120,209.5,61.0,16.5,660.0,67.0,8.8,3,5,7,0,2026-05-07T01:55:04.616746+05:30
Jalandhar,Punjab,31.326,75.5762,20.1,69,0.0,976.7,7.95,29.5,111,88.7,43.1,17.9,679.0,65.0,7.8,3,5,7,0,2026-05-07T01:55:04.616752+05:30
Dehradun,Uttarakhand,30.6284,78.0322,9.0,92,0.0,825.5,7.25,33.5,57,25.7,15.7,22.2,173.0,44.0,0.2,3,10,7,0,2026-05-07T01:55:04.616778+05:30
Shimla,Himachal Pradesh,31.1048,77.1734,6.2,78,0.0,777.5,4.8,34.9,59,24.9,17.1,16.5,303.0,77.0,0.4,3,5,3,0,2026-05-07T01:55:04.616786+05:30
Manali,Himachal Pradesh,32.2396,77.1887,8.5,71,0.0,812.7,8.2,33.1,114,17.3,8.5,23.3,314.0,125.0,0.7,3,5,7,0,2026-05-07T01:55:04.616793+05:30
Gurgaon,Haryana,28.4595,77.0266,24.6,45,0.0,978.9,7.65,45.0,374,568.1,99.7,22.4,492.0,87.0,17.9,0,5,7,0,2026-05-07T01:55:04.616801+05:30
Noida,Uttar Pradesh,28.5355,77.391,22.6,54,0.0,981.8,7.55,30.2,374,568.1,99.7,22.4,360.0,87.0,17.9,0,5,7,0,2026-05-07T01:55:04.616808+05:30
Ghaziabad,Uttar Pradesh,28.6692,77.4538,22.9,55,0.0,980.1,7.55,32.8,134,220.3,56.0,14.4,416.0,82.0,9.9,0,5,7,0,2026-05-07T01:55:04.616815+05:30
Faridabad,Haryana,28.4089,77.3178,24.4,50,0.0,981.4,7.6,34.9,374,568.1,99.7,22.4,491.0,87.0,17.9,0,5,7,0,2026-05-07T01:55:04.616822+05:30
Meerut,Uttar Pradesh,28.9845,77.7064,23.2,57,0.0,978.7,7.45,32.8,134,220.3,56.0,14.4,445.0,82.0,9.9,0,5,7,0,2026-05-07T01:55:04.616829+05:30
Agra,Uttar Pradesh,27.1767,78.0081,23.5,56,0.0,985.6,7.85,43.9,327,856.8,109.0,7.8,368.0,104.0,10.9,0,5,7,0,2026-05-07T01:55:04.616836+05:30
Varanasi,Uttar Pradesh,25.3176,82.9739,22.7,80,0.0,997.1,8.6,25.9,130,65.7,55.6,28.4,600.0,70.0,20.2,3,5,7,1,2026-05-07T01:55:04.616843+05:30
Prayagraj,Uttar Pradesh,25.4358,81.8463,22.5,79,0.0,995.7,8.45,39.2,127,53.3,42.4,24.4,381.0,62.0,13.3,3,5,7,1,2026-05-07T01:55:04.616853+05:30
Gorakhpur,Uttar Pradesh,26.7606,83.3732,21.0,92,0.0,997.3,8.4,35.6,94,49.4,35.3,21.3,555.0,67.0,7.3,3,5,7,1,2026-05-07T01:55:04.616860+05:30
Bareilly,Uttar Pradesh,28.367,79.4304,21.7,66,0.0,985.0,7.8,30.2,108,46.8,28.2,11.2,487.0,77.0,5.1,3,5,7,0,2026-05-07T01:55:04.616866+05:30
Aligarh,Uttar Pradesh,27.8974,78.088,24.2,48,0.0,983.3,7.7,35.3,152,183.0,50.5,11.2,343.0,92.0,9.7,0,5,7,0,2026-05-07T01:55:04.616873+05:30
Moradabad,Uttar Pradesh,28.8386,78.7733,20.9,75,0.0,981.6,7.65,36.7,146,55.3,47.0,28.7,489.0,60.0,11.2,3,5,7,1,2026-05-07T01:55:04.616879+05:30
Saharanpur,Uttar Pradesh,29.9637,77.546,21.2,66,0.0,973.3,7.15,33.8,119,50.3,42.6,29.5,489.0,41.0,10.3,3,5,7,0,2026-05-07T01:55:04.616885+05:30
Jhansi,Uttar Pradesh,25.4484,78.5685,25.2,47,0.0,976.2,8.35,32.0,81,97.6,31.2,4.9,309.0,93.0,5.2,4,5,7,0,2026-05-07T01:55:07.871344+05:30
Surat,Gujarat,21.1702,72.8311,28.0,83,0.0,1003.1,7.7,32.4,99,58.6,32.0,38.8,536.0,40.0,58.8,7,5,4,1,2026-05-07T01:55:07.871378+05:30
Vadodara,Gujarat,22.3072,73.1812,29.3,59,0.0,1000.7,8.05,32.4,101,125.7,64.7,40.9,441.0,50.0,18.5,4,5,4,1,2026-05-07T01:55:07.871390+05:30
Rajkot,Gujarat,22.3039,70.8022,25.8,78,0.0,991.5,7.7,44.3,71,42.8,15.7,7.1,192.0,57.0,6.2,7,5,7,1,2026-05-07T01:55:07.871399+05:30
Thane,Maharashtra,19.2183,72.9781,26.9,90,0.0,1004.6,7.9,37.1,85,73.6,27.1,14.4,276.0,72.0,19.1,7,5,4,1,2026-05-07T01:55:07.871406+05:30
Nagpur,Maharashtra,21.1458,79.0882,29.4,41,0.0,971.1,8.9,31.7,101,79.9,55.8,44.9,466.0,33.0,26.0,4,5,7,0,2026-05-07T01:55:07.871414+05:30
Nashik,Maharashtra,19.9975,73.7898,24.8,74,0.0,942.3,8.15,31.7,70,65.2,32.1,30.0,311.0,43.0,5.4,3,5,7,1,2026-05-07T01:55:07.871422+05:30
Aurangabad,Maharashtra,19.8762,75.3433,29.4,31,0.0,941.2,9.05,30.6,73,65.7,23.1,9.5,186.0,99.0,3.1,4,5,7,0,2026-05-07T01:55:07.871429+05:30
Solapur,Maharashtra,17.6599,75.9064,31.5,34,0.0,954.1,9.05,29.9,64,38.0,27.9,9.0,330.0,97.0,9.1,0,5,7,0,2026-05-07T01:55:07.871437+05:30
Kolhapur,Maharashtra,16.705,74.2433,24.1,78,0.0,944.0,8.95,48.6,68,32.0,22.4,14.1,236.0,49.0,4.0,3,5,7,1,2026-05-07T01:55:07.871444+05:30
Goa,Goa,15.2993,74.124,26.1,87,0.0,994.5,8.95,32.0,68,39.5,23.4,10.3,253.0,57.0,2.5,7,5,7,1,2026-05-07T01:55:07.871451+05:30
Jodhpur,Rajasthan,26.2389,73.0243,29.5,25,0.0,978.9,8.3,37.8,87,147.6,27.0,4.3,418.0,93.0,2.9,4,5,7,0,2026-05-07T01:55:07.871458+05:30
Udaipur,Rajasthan,24.5854,73.7125,22.5,53,0.0,942.7,8.75,28.4,74,64.0,23.1,5.0,291.0,85.0,4.8,0,5,7,0,2026-05-07T01:55:07.871465+05:30
Kota,Rajasthan,25.2138,75.8648,26.0,34,0.0,975.5,8.3,38.2,78,53.7,27.5,10.6,571.0,71.0,16.1,4,5,7,0,2026-05-07T01:55:07.871472+05:30
Bikaner,Rajasthan,28.0229,73.3119,27.5,28,0.0,977.1,8.25,32.4,81,54.2,24.3,6.1,225.0,65.0,5.4,4,5,7,0,2026-05-07T01:55:07.871479+05:30
Ajmer,Rajasthan,26.4499,74.6399,27.6,26,0.0,951.0,8.25,46.4,80,101.5,30.5,13.9,340.0,68.0,6.7,4,5,7,0,2026-05-07T01:55:07.871485+05:30
Gwalior,Madhya Pradesh,26.2183,78.1828,23.4,58,0.0,981.3,8.1,38.5,103,155.5,42.4,4.8,284.0,104.0,6.7,0,5,7,0,2026-05-07T01:55:07.871492+05:30
Indore,Madhya Pradesh,22.7196,75.8577,28.3,22,0.0,945.8,8.65,36.0,71,32.5,21.0,8.2,414.0,91.0,6.4,4,5,7,0,2026-05-07T01:55:07.871498+05:30
Bhopal,Madhya Pradesh,23.2599,77.4126,26.6,29,0.0,951.7,8.65,34.2,66,30.4,20.6,5.3,247.0,93.0,8.3,4,5,7,0,2026-05-07T01:55:07.871504+05:30
Jabalpur,Madhya Pradesh,23.1815,79.9864,24.9,42,0.0,959.9,8.8,32.8,76,33.3,20.1,9.7,258.0,89.0,6.1,0,5,7,0,2026-05-07T01:55:07.871510+05:30
Ujjain,Madhya Pradesh,23.1765,75.7885,26.8,25,0.0,951.0,8.55,30.2,84,49.7,35.2,12.1,337.0,79.0,6.7,4,5,7,0,2026-05-07T01:55:07.871517+05:30
Visakhapatnam,Andhra Pradesh,17.6868,83.2185,26.2,94,0.0,1002.7,9.15,32.0,78,30.6,25.6,33.4,524.0,27.0,5.3,7,5,4,1,2026-05-07T01:55:07.871523+05:30
Vijayawada,Andhra Pradesh,16.5062,80.648,28.0,83,0.0,1001.3,9.2,33.1,58,17.8,13.8,9.4,231.0,42.0,5.1,7,5,4,1,2026-05-07T01:55:07.871529+05:30
Guntur,Andhra Pradesh,16.3067,80.4365,27.9,85,0.0,1002.5,9.2,34.6,61,16.1,12.4,8.3,200.0,47.0,5.0,7,5,4,1,2026-05-07T01:55:07.871536+05:30
Nellore,Andhra Pradesh,14.4426,79.9865,27.8,83,0.0,1004.3,9.2,40.0,46,13.8,8.6,4.1,172.0,61.0,3.0,7,5,4,1,2026-05-07T01:55:07.871543+05:30
Kurnool,Andhra Pradesh,15.8281,78.0373,28.7,63,0.0,974.6,9.15,39.2,78,18.5,15.4,3.8,183.0,81.0,2.5,7,5,7,1,2026-05-07T01:55:07.871550+05:30
Kakinada,Andhra Pradesh,16.9891,82.2475,26.5,94,0.0,1006.4,9.15,32.4,42,12.7,8.0,2.2,345.0,50.0,0.8,7,5,4,1,2026-05-07T01:55:07.871557+05:30
Tirupati,Andhra Pradesh,13.6288,79.4192,26.6,86,0.0,989.9,9.3,44.6,72,20.8,18.3,23.5,222.0,37.0,14.5,7,5,7,1,2026-05-07T01:55:07.871563+05:30
Warangal,Telangana,17.9689,79.5941,28.0,64,0.0,976.6,9.1,41.4,81,26.7,23.6,9.2,271.0,74.0,10.9,7,5,7,1,2026-05-07T01:55:07.871569+05:30
Nizamabad,Telangana,18.6725,78.0941,29.0,46,0.0,961.9,9.1,39.6,94,49.8,37.0,9.9,256.0,85.0,5.3,4,5,7,1,2026-05-07T01:55:07.871575+05:30
Mysore,Karnataka,12.2958,76.6396,22.9,83,0.0,926.3,9.4,32.0,73,52.0,37.7,10.2,307.0,104.0,6.4,3,5,7,1,2026-05-07T01:55:07.871582+05:30
Mangalore,Karnataka,12.9141,74.856,28.9,73,0.0,1003.7,6.9,40.7,63,36.8,17.8,6.2,198.0,54.0,1.9,7,5,4,1,2026-05-07T01:55:07.871588+05:30
Hubli-Dharwad,Karnataka,15.3647,75.124,23.5,79,0.0,937.3,9.2,41.0,65,35.2,20.8,17.1,272.0,39.0,3.1,3,5,7,1,2026-05-07T01:55:07.871594+05:30
Belgaum,Karnataka,15.8497,74.4977,22.1,80,0.0,921.6,8.35,42.5,67,37.8,24.6,21.6,230.0,35.0,3.6,3,5,7,1,2026-05-07T01:55:11.140460+05:30
Coimbatore,Tamil Nadu,11.0168,76.9558,23.3,91,0.0,960.1,9.05,28.8,71,33.5,24.7,8.3,255.0,106.0,5.0,3,5,7,1,2026-05-07T01:55:11.140495+05:30
Madurai,Tamil Nadu,9.9252,78.1198,27.6,74,0.0,991.3,8.15,46.1,82,21.0,16.5,12.5,223.0,75.0,3.6,7,5,7,1,2026-05-07T01:55:11.140506+05:30
Trichy,Tamil Nadu,10.7905,78.7047,27.3,84,0.0,997.9,6.7,31.0,74,20.8,15.7,12.4,238.0,63.0,5.1,7,5,7,1,2026-05-07T01:55:11.140515+05:30
Salem,Tamil Nadu,11.6643,78.146,24.5,98,0.0,975.8,7.55,42.8,98,40.7,33.5,10.9,240.0,96.0,13.8,3,5,7,1,2026-05-07T01:55:11.140523+05:30
Tirunelveli,Tamil Nadu,8.7139,77.7567,27.5,81,0.0,1001.0,6.05,40.7,71,35.0,27.9,10.2,252.0,71.0,4.8,7,5,4,1,2026-05-07T01:55:11.140531+05:30
Vellore,Tamil Nadu,12.9165,79.1325,26.1,89,0.0,983.0,8.95,34.9,94,22.8,19.9,12.5,210.0,52.0,2.1,7,5,7,1,2026-05-07T01:55:11.140538+05:30
Erode,Tamil Nadu,11.341,77.7172,25.1,94,0.0,987.7,8.0,29.9,87,38.4,29.1,9.5,249.0,98.0,4.7,7,5,7,1,2026-05-07T01:55:11.140546+05:30
Kochi,Kerala,9.9312,76.2673,25.6,95,0.0,1006.9,6.0,29.2,76,30.0,22.6,11.4,233.0,68.0,4.3,7,5,0,1,2026-05-07T01:55:11.140553+05:30
Thiruvananthapuram,Kerala,8.5241,76.9366,25.3,97,0.0,1005.4,5.0,28.8,53,21.0,11.8,5.4,366.0,92.0,2.9,7,5,0,1,2026-05-07T01:55:11.140560+05:30
Kozhikode,Kerala,11.2588,75.7804,24.3,96,0.0,1006.0,7.55,33.5,63,41.8,20.7,3.8,226.0,75.0,2.2,3,5,4,1,2026-05-07T01:55:11.140567+05:30
Thrissur,Kerala,10.5276,76.2144,24.0,100,0.4,1005.8,6.75,34.6,85,27.7,21.7,13.5,293.0,62.0,3.0,6,5,4,1,2026-05-07T01:55:11.140574+05:30
Kannur,Kerala,11.8745,75.3704,25.1,99,0.1,1005.3,7.9,36.7,61,30.3,17.8,13.6,213.0,36.0,2.1,10,5,4,1,2026-05-07T01:55:11.140582+05:30
Patna,Bihar,25.5941,85.1376,22.0,88,0.0,1000.7,8.7,41.0,127,83.1,67.5,33.5,400.0,68.0,19.1,3,5,4,1,2026-05-07T01:55:11.140589+05:30
Gaya,Bihar,24.7914,85.0002,23.4,81,0.0,993.2,8.75,34.2,126,74.7,62.9,35.6,340.0,37.0,10.7,3,5,7,1,2026-05-07T01:55:11.140595+05:30
Muzaffarpur,Bihar,26.1209,85.3647,21.4,91,0.0,1001.1,8.7,55.8,131,91.5,76.4,40.9,424.0,47.0,19.3,3,5,4,1,2026-05-07T01:55:11.140601+05:30
Bhagalpur,Bihar,25.2425,87.0117,21.3,90,0.0,1002.1,8.7,51.5,112,65.9,58.4,17.8,334.0,86.0,13.2,3,5,4,1,2026-05-07T01:55:11.140607+05:30
Ranchi,Jharkhand,23.3441,85.3096,21.1,88,0.0,936.7,9.2,37.4,100,91.7,77.1,18.0,529.0,120.0,27.8,3,5,7,1,2026-05-07T01:55:11.140614+05:30
Jamshedpur,Jharkhand,22.8046,86.2029,24.0,88,0.0,990.7,9.05,37.8,127,66.6,58.1,29.0,331.0,71.0,16.6,3,5,7,1,2026-05-07T01:55:11.140620+05:30
Dhanbad,Jharkhand,23.7957,86.4304,23.4,91,0.0,979.8,8.95,50.0,161,162.1,150.4,81.1,497.0,45.0,91.0,3,5,7,1,2026-05-07T01:55:11.140627+05:30
Bokaro,Jharkhand,23.6693,86.1511,23.3,91,0.0,983.7,9.0,42.5,159,170.4,156.0,88.4,646.0,28.0,94.8,3,5,7,1,2026-05-07T01:55:11.140633+05:30
Bhubaneswar,Odisha,20.2961,85.8245,26.2,95,0.0,1001.8,8.45,29.9,63,15.4,12.1,7.6,159.0,41.0,3.9,7,5,4,1,2026-05-07T01:55:11.140639+05:30
Cuttack,Odisha,20.4625,85.8828,26.2,95,0.0,1003.6,8.5,31.0,63,15.4,12.1,7.6,183.0,41.0,3.9,7,5,4,1,2026-05-07T01:55:11.140646+05:30
Rourkela,Odisha,22.2604,84.8536,23.6,71,0.0,984.0,8.95,38.5,105,65.2,57.2,20.0,493.0,85.0,42.6,3,5,7,1,2026-05-07T01:55:11.140652+05:30
Raipur,Chhattisgarh,21.2514,81.6296,27.5,46,0.0,972.4,8.95,30.6,121,83.8,65.0,44.1,605.0,49.0,13.6,4,5,7,0,2026-05-07T01:55:11.140658+05:30
Bhilai,Chhattisgarh,21.1938,81.3509,27.5,49,0.0,972.8,8.95,28.4,115,93.4,69.8,57.8,949.0,32.0,13.3,4,5,7,0,2026-05-07T01:55:11.140664+05:30
Guwahati,Assam,26.1158,91.7086,21.6,95,0.0,1002.4,8.65,37.4,81,25.6,22.6,6.6,277.0,82.0,1.7,3,5,4,1,2026-05-07T01:55:11.140670+05:30
Agartala,Tripura,23.8315,91.2868,23.0,97,0.1,1006.6,8.85,25.2,114,34.2,29.5,16.6,375.0,77.0,3.5,6,5,4,1,2026-05-07T01:55:11.140676+05:30
Shillong,Meghalaya,25.5788,91.8933,15.1,93,0.0,855.8,9.0,23.8,79,18.2,15.7,7.5,292.0,77.0,1.0,3,10,7,0,2026-05-07T01:55:11.140682+05:30
Imphal,Manipur,24.817,93.9368,19.8,97,0.0,923.0,9.2,31.3,82,48.4,44.0,20.6,576.0,29.0,1.4,3,10,7,1,2026-05-07T01:55:11.140688+05:30
Aizawl,Mizoram,23.7271,92.7176,16.6,99,0.0,891.6,9.05,27.4,63,29.2,20.7,7.4,250.0,58.0,1.2,3,10,7,1,2026-05-07T01:55:11.140694+05:30
Kohima,Nagaland,25.6701,94.1077,15.9,98,0.1,853.9,9.15,25.2,79,28.5,21.6,8.2,234.0,50.0,0.4,6,10,7,0,2026-05-07T01:55:11.140701+05:30
Gangtok,Sikkim,27.3314,88.6138,10.5,82,0.0,835.9,9.0,47.2,64,27.1,20.5,15.5,372.0,82.0,1.1,3,10,7,0,2026-05-07T01:55:11.140707+05:30
Siliguri,West Bengal,26.7271,88.3953,21.1,83,0.0,994.2,8.6,29.2,99,57.0,47.0,29.7,553.0,61.0,5.3,3,5,7,1,2026-05-07T01:55:14.406113+05:30
Durgapur,West Bengal,23.5204,87.3119,23.3,95,0.0,994.9,8.9,54.0,157,97.6,91.5,35.9,546.0,81.0,46.2,3,5,7,1,2026-05-07T01:55:14.406150+05:30
Asansol,West Bengal,23.6739,86.9524,23.4,94,0.0,993.6,8.95,56.9,154,115.7,107.3,37.5,725.0,74.0,65.7,3,5,7,1,2026-05-07T01:55:14.406161+05:30
Pondicherry,Puducherry,11.9139,79.8145,28.6,78,0.0,1006.6,8.2,36.0,52,14.6,8.7,1.4,194.0,74.0,0.4,7,5,4,1,2026-05-07T01:55:14.406170+05:30
Port Blair,Andaman and Nicobar Islands,11.6234,92.7265,24.6,96,0.0,1004.8,9.05,33.5,32,6.1,4.7,0.3,230.0,70.0,0.1,3,5,4,1,2026-05-07T01:55:14.406178+05:30
Haridwar,Uttarakhand,29.9457,78.1642,18.8,71,0.0,971.8,6.0,28.4,85,44.1,36.1,29.7,279.0,27.0,5.5,3,5,3,0,2026-05-07T01:55:14.406186+05:30
Rishikesh,Uttarakhand,30.0869,78.2676,16.6,77,0.0,964.3,6.05,20.5,79,48.5,28.3,15.0,291.0,72.0,3.8,3,5,7,0,2026-05-07T01:55:14.406193+05:30
Nainital,Uttarakhand,29.3919,79.4542,11.4,64,0.0,802.2,6.65,27.7,72,27.5,18.3,8.9,207.0,93.0,1.6,3,5,7,0,2026-05-07T01:55:14.406201+05:30
Mussoorie,Uttarakhand,30.4599,78.0664,8.6,75,0.0,797.4,6.9,38.5,77,40.6,29.1,29.9,247.0,39.0,6.9,3,5,7,0,2026-05-07T01:55:14.406208+05:30
Dharamshala,Himachal Pradesh,32.219,76.3234,17.4,48,0.0,865.7,7.6,38.9,49,12.9,9.6,11.4,201.0,67.0,0.5,0,5,7,0,2026-05-07T01:55:14.406215+05:30
Dalhousie,Himachal Pradesh,32.5387,75.971,8.5,71,0.0,797.8,7.8,31.0,58,24.3,21.1,33.7,426.0,40.0,1.5,3,5,7,0,2026-05-07T01:55:14.406222+05:30
Patiala,Punjab,30.3398,76.3869,21.8,55,0.0,975.3,7.45,37.1,142,269.2,54.5,11.7,411.0,88.0,8.5,0,5,7,0,2026-05-07T01:55:14.406229+05:30
Bhatinda,Punjab,30.211,74.9455,24.4,45,0.0,980.8,8.1,30.2,145,202.6,68.0,17.2,345.0,68.0,9.7,0,5,7,0,2026-05-07T01:55:14.406236+05:30
Rohtak,Haryana,28.8955,76.6066,24.0,49,0.0,979.1,7.6,41.4,199,400.5,77.5,23.0,420.0,83.0,18.8,0,5,7,0,2026-05-07T01:55:14.406242+05:30
Panipat,Haryana,29.3909,76.9635,22.0,64,0.0,977.5,7.4,36.4,488,432.1,85.9,18.4,445.0,81.0,11.1,3,5,7,0,2026-05-07T01:55:14.406249+05:30
Mathura,Uttar Pradesh,27.4924,77.6737,24.1,47,0.0,984.4,7.3,40.7,268,765.5,102.0,7.3,369.0,118.0,11.0,0,5,7,0,2026-05-07T01:55:14.406256+05:30
Vrindavan,Uttar Pradesh,27.5823,77.7027,24.4,45,0.0,984.9,7.25,42.8,268,765.5,102.0,7.3,372.0,118.0,11.0,0,5,7,0,2026-05-07T01:55:14.406262+05:30
Ayodhya,Uttar Pradesh,26.7922,82.1998,20.0,95,0.0,994.9,8.2,29.2,95,41.1,30.2,16.8,448.0,75.0,6.3,3,5,7,1,2026-05-07T01:55:14.406269+05:30
Ratlam,Madhya Pradesh,23.3315,75.0367,25.5,36,0.0,951.8,8.45,32.4,82,63.1,47.1,15.5,248.0,64.0,9.5,4,5,7,0,2026-05-07T01:55:14.406276+05:30
Sagar,Madhya Pradesh,23.8388,78.7378,24.6,41,0.0,948.5,8.65,34.9,63,40.2,21.4,12.9,267.0,78.0,5.9,0,5,7,0,2026-05-07T01:55:14.406282+05:30
Satna,Madhya Pradesh,24.6005,80.8322,21.2,71,0.0,970.3,8.7,36.7,86,55.4,30.6,11.2,325.0,93.0,8.2,3,5,7,0,2026-05-07T01:55:14.406289+05:30
Akola,Maharashtra,20.7002,77.0082,30.0,35,0.0,971.9,8.85,32.0,70,59.0,33.8,24.7,272.0,53.0,6.4,4,5,7,0,2026-05-07T01:55:14.406296+05:30
Amravati,Maharashtra,20.9374,77.7796,29.2,42,0.0,964.6,8.1,33.5,71,53.0,29.9,20.1,274.0,65.0,6.8,4,5,7,0,2026-05-07T01:55:14.406304+05:30
Latur,Maharashtra,18.4088,76.5604,29.3,35,0.0,937.2,8.35,41.0,72,64.3,37.5,28.5,353.0,58.0,11.9,4,5,7,0,2026-05-07T01:55:14.406311+05:30
Nanded,Maharashtra,19.1383,77.3091,29.6,37,0.0,965.8,8.3,29.5,77,61.9,40.7,24.4,305.0,55.0,6.3,4,5,7,0,2026-05-07T01:55:14.406318+05:30
Gulbarga,Karnataka,17.3297,76.8343,29.6,41,0.0,955.9,9.1,31.0,77,37.0,27.7,7.1,242.0,102.0,6.3,4,5,7,0,2026-05-07T01:55:14.406324+05:30
Bidar,Karnataka,17.9104,77.5199,27.4,47,0.0,933.2,8.95,46.4,87,42.1,32.4,10.2,232.0,95.0,8.2,4,5,7,0,2026-05-07T01:55:14.406330+05:30
Hospet,Karnataka,15.2689,76.3909,28.4,47,0.0,953.2,9.25,27.0,84,34.8,30.0,8.2,246.0,101.0,10.5,4,5,7,0,2026-05-07T01:55:14.406338+05:30
Tirupur,Tamil Nadu,11.1085,77.3411,24.2,92,0.0,973.8,9.05,33.8,82,44.8,33.9,11.5,263.0,108.0,6.7,3,5,7,1,2026-05-07T01:55:14.406345+05:30
Alappuzha,Kerala,9.4981,76.3388,25.5,96,0.0,1006.7,4.5,33.1,69,29.3,18.7,9.5,187.0,73.0,4.6,7,5,0,1,2026-05-07T01:55:14.406352+05:30
Munnar,Kerala,10.0889,77.0595,16.6,99,0.0,854.2,6.5,25.9,67,40.7,33.1,15.2,218.0,37.0,3.0,3,10,7,1,2026-05-07T01:55:14.406359+05:30
Silchar,Assam,24.8333,92.7789,22.4,98,0.0,1005.8,8.85,27.0,110,57.9,50.8,22.5,330.0,46.0,7.0,3,5,4,1,2026-05-07T01:55:14.406365+05:30
Dibrugarh,Assam,27.4728,94.912,22.1,95,0.1,996.5,8.75,31.3,73,12.8,10.6,10.9,243.0,43.0,0.3,6,5,7,1,2026-05-07T01:55:14.406372+05:30
