city,state,latitude,longitude,temp,humidity,rain,pressure,uv_index,wind_gusts,aqi,pm10,pm2_5,no2,co,o3,so2,mosquito_risk,arthritis_risk,migraine_risk,frizz_risk,updated_at
Delhi,Delhi,28.6139,77.209,37.5,29,0.0,982.8,7.65,27.0,162,543.9,94.3,5.2,395.0,260.0,30.0,0,5,10,1,2026-05-11T13:15:57.467647+05:30
Mumbai,Maharashtra,19.076,72.8777,37.5,38,0.0,1005.1,7.9,54.7,100,61.9,41.1,11.6,399.0,245.0,26.8,0,5,7,1,2026-05-11T13:15:57.467702+05:30
Bangalore,Karnataka,12.9716,77.5946,34.3,22,0.0,910.9,7.8,46.4,67,37.4,19.8,3.5,248.0,160.0,6.7,0,5,7,0,2026-05-11T13:15:57.467720+05:30
Hyderabad,Telangana,17.385,78.4867,36.0,30,0.0,952.2,9.25,36.0,58,35.5,15.6,1.8,277.0,136.0,4.4,0,5,10,0,2026-05-11T13:15:57.467737+05:30
Chennai,Tamil Nadu,13.0827,80.2707,32.5,60,0.0,1004.6,8.95,39.6,21,4.2,3.1,2.4,137.0,54.0,6.7,0,5,4,1,2026-05-11T13:15:57.467747+05:30
Kolkata,West Bengal,22.5726,88.3639,30.5,65,0.0,1006.4,8.6,42.8,155,39.6,28.3,3.0,326.0,147.0,8.1,3,5,4,1,2026-05-11T13:15:57.467756+05:30
Pune,Maharashtra,18.5204,73.8567,40.8,14,0.0,946.4,8.5,45.0,69,43.4,16.5,0.9,204.0,168.0,9.7,0,5,10,0,2026-05-11T13:15:57.467766+05:30
Ahmedabad,Gujarat,23.0225,72.5714,42.8,15,0.0,999.4,8.15,33.5,63,56.2,20.0,2.1,222.0,141.0,5.0,0,5,10,0,2026-05-11T13:15:57.467777+05:30
Jaipur,Rajasthan,26.9124,75.7873,37.6,26,0.0,960.1,8.2,30.6,170,256.1,54.2,1.3,301.0,183.0,15.3,0,5,10,0,2026-05-11T13:15:57.467786+05:30
Lucknow,Uttar Pradesh,26.8467,80.9462,36.7,30,0.0,992.8,8.15,30.6,111,45.1,32.6,0.9,347.0,190.0,8.1,0,5,10,1,2026-05-11T13:15:57.467795+05:30
Kanpur,Uttar Pradesh,26.4499,80.3319,38.4,24,0.0,990.7,8.15,37.4,127,165.3,42.7,1.1,313.0,205.0,9.7,0,5,10,0,2026-05-11T13:15:57.467803+05:30
Chandigarh,Chandigarh,30.7333,76.7794,33.3,39,0.0,970.2,7.7,39.2,151,155.5,53.4,1.9,324.0,215.0,12.5,0,5,7,1,2026-05-11T13:15:57.467812+05:30
Srinagar,Jammu and Kashmir,34.0837,74.7973,22.9,52,0.0,845.5,8.85,28.8,98,38.8,16.1,1.3,256.0,140.0,3.0,0,5,7,0,2026-05-11T13:15:57.467822+05:30
Jammu,Jammu and Kashmir,32.7266,74.857,31.7,40,0.0,974.7,8.45,30.6,154,84.1,36.1,1.0,359.0,169.0,4.3,0,5,7,1,2026-05-11T13:15:57.467830+05:30
Amritsar,Punjab,31.634,74.8723,34.0,39,0.0,981.8,8.35,29.9,164,467.5,95.9,1.4,366.0,194.0,16.3,0,5,7,1,2026-05-11T13:15:57.467838+05:30
Ludhiana,Punjab,30.901,75.8573,36.5,33,0.0,979.1,7.9,30.2,180,583.0,95.9,1.7,363.0,216.0,17.4,0,5,10,1,2026-05-11T13:15:57.467846+05:30
Jalandhar,Punjab,31.326,75.5762,33.3,44,0.0,980.9,8.1,25.6,160,424.7,83.8,1.4,388.0,204.0,15.5,0,5,7,1,2026-05-11T13:15:57.467856+05:30
Dehradun,Uttarakhand,30.6284,78.0322,20.6,69,0.1,833.7,5.55,31.3,108,83.1,42.5,1.4,276.0,156.0,1.8,6,5,3,0,2026-05-11T13:15:57.467866+05:30
Shimla,Himachal Pradesh,31.1048,77.1734,18.5,59,0.1,788.1,6.35,39.2,154,108.7,45.3,0.9,296.0,173.0,8.8,3,5,7,0,2026-05-11T13:15:57.467875+05:30
Manali,Himachal Pradesh,32.2396,77.1887,20.8,49,0.0,820.6,9.85,38.5,89,49.1,22.4,0.9,231.0,172.0,1.1,0,5,7,0,2026-05-11T13:15:57.467882+05:30
Gurgaon,Haryana,28.4595,77.0266,36.7,31,0.0,981.4,7.75,29.2,797,1117.6,132.2,2.6,363.0,211.0,16.9,0,5,10,1,2026-05-11T13:15:57.467890+05:30
Noida,Uttar Pradesh,28.5355,77.391,36.3,33,0.0,984.5,7.65,25.2,797,1117.6,132.2,2.6,356.0,211.0,16.9,0,5,10,1,2026-05-11T13:15:57.467897+05:30
Ghaziabad,Uttar Pradesh,28.6692,77.4538,36.1,32,0.0,982.9,7.65,28.1,146,363.2,65.2,2.5,356.0,221.0,11.6,0,5,10,1,2026-05-11T13:15:57.467904+05:30
Faridabad,Haryana,28.4089,77.3178,36.3,31,0.0,983.5,7.7,26.3,797,1117.6,132.2,2.6,352.0,211.0,16.9,0,5,10,1,2026-05-11T13:15:57.467911+05:30
Meerut,Uttar Pradesh,28.9845,77.7064,34.5,38,0.0,982.0,7.55,27.4,146,363.2,65.2,2.5,339.0,221.0,11.6,0,5,7,1,2026-05-11T13:15:57.467918+05:30
Agra,Uttar Pradesh,27.1767,78.0081,37.3,30,0.0,987.3,8.0,25.2,409,407.9,64.7,1.1,335.0,199.0,11.6,0,5,10,1,2026-05-11T13:15:57.467925+05:30
Varanasi,Uttar Pradesh,25.3176,82.9739,37.8,27,0.0,995.7,8.65,29.5,126,76.6,47.5,2.3,342.0,247.0,15.5,0,5,10,0,2026-05-11T13:15:57.467932+05:30
Prayagraj,Uttar Pradesh,25.4358,81.8463,38.0,27,0.0,994.1,8.55,32.0,121,68.2,44.5,1.7,319.0,228.0,13.2,0,5,10,0,2026-05-11T13:15:57.467942+05:30
Gorakhpur,Uttar Pradesh,26.7606,83.3732,34.8,37,0.0,996.7,8.5,32.0,108,56.3,37.3,1.2,359.0,188.0,6.8,0,5,7,1,2026-05-11T13:15:57.467949+05:30
Bareilly,Uttar Pradesh,28.367,79.4304,34.2,38,0.0,987.3,7.95,27.0,107,127.6,41.7,2.0,318.0,212.0,15.0,0,5,7,1,2026-05-11T13:15:57.467956+05:30
Aligarh,Uttar Pradesh,27.8974,78.088,36.5,32,0.0,985.7,7.8,29.9,192,420.0,68.0,1.3,330.0,200.0,14.5,0,5,10,1,2026-05-11T13:15:57.467964+05:30
Moradabad,Uttar Pradesh,28.8386,78.7733,33.3,41,0.0,984.7,7.25,29.9,124,65.2,39.9,2.4,329.0,217.0,18.2,0,5,7,1,2026-05-11T13:15:57.467971+05:30
Saharanpur,Uttar Pradesh,29.9637,77.546,32.7,46,0.0,977.0,7.35,27.7,151,106.4,45.4,1.3,306.0,201.0,13.7,0,5,7,1,2026-05-11T13:15:57.467979+05:30
Jhansi,Uttar Pradesh,25.4484,78.5685,38.5,26,0.0,976.9,8.45,35.3,107,135.0,42.0,1.4,291.0,206.0,21.3,0,5,10,0,2026-05-11T13:16:01.188035+05:30
Surat,Gujarat,21.1702,72.8311,43.0,17,0.0,1003.5,7.75,37.8,99,61.2,35.5,26.6,177.0,111.0,75.6,0,5,7,0,2026-05-11T13:16:01.188068+05:30
Vadodara,Gujarat,22.3072,73.1812,42.8,17,0.0,1001.3,8.1,33.5,71,67.1,24.0,2.4,218.0,155.0,7.3,0,5,7,0,2026-05-11T13:16:01.188079+05:30
Rajkot,Gujarat,22.3039,70.8022,41.0,21,0.0,992.4,7.7,46.1,54,46.1,16.3,1.2,143.0,125.0,5.8,0,5,10,0,2026-05-11T13:16:01.188088+05:30
Thane,Maharashtra,19.2183,72.9781,43.1,18,0.0,1003.5,7.9,56.2,100,61.9,41.1,11.6,249.0,245.0,26.8,0,5,7,0,2026-05-11T13:16:01.188096+05:30
Nagpur,Maharashtra,21.1458,79.0882,40.3,19,0.0,971.0,8.95,36.4,99,42.8,27.4,4.9,236.0,169.0,23.0,0,5,10,0,2026-05-11T13:16:01.188104+05:30
Nashik,Maharashtra,19.9975,73.7898,41.4,11,0.0,943.6,8.2,46.1,69,52.5,18.5,0.9,176.0,162.0,9.6,0,5,10,0,2026-05-11T13:16:01.188112+05:30
Aurangabad,Maharashtra,19.8762,75.3433,41.0,12,0.0,942.7,9.05,38.5,86,57.5,20.7,1.4,209.0,178.0,11.5,0,5,10,0,2026-05-11T13:16:01.188120+05:30
Solapur,Maharashtra,17.6599,75.9064,40.2,18,0.0,954.9,9.05,33.5,71,49.6,23.1,1.2,221.0,171.0,7.0,0,5,10,0,2026-05-11T13:16:01.188128+05:30
Kolhapur,Maharashtra,16.705,74.2433,37.8,23,0.0,946.4,8.9,54.4,91,38.1,24.2,1.7,242.0,175.0,9.4,0,5,10,0,2026-05-11T13:16:01.188136+05:30
Goa,Goa,15.2993,74.124,37.4,45,0.0,994.9,8.85,34.9,86,42.1,18.6,0.6,171.0,99.0,1.8,0,5,10,1,2026-05-11T13:16:01.188144+05:30
Jodhpur,Rajasthan,26.2389,73.0243,42.2,10,0.0,981.7,8.4,34.9,104,235.2,46.3,0.6,156.0,139.0,3.3,0,5,10,0,2026-05-11T13:16:01.188152+05:30
Udaipur,Rajasthan,24.5854,73.7125,40.7,12,0.0,946.1,8.85,38.9,51,65.9,14.0,0.5,151.0,129.0,3.7,0,5,10,0,2026-05-11T13:16:01.188159+05:30
Kota,Rajasthan,25.2138,75.8648,40.8,20,0.0,977.5,8.4,35.3,106,127.6,38.6,1.4,275.0,187.0,13.6,0,5,10,0,2026-05-11T13:16:01.188167+05:30
Bikaner,Rajasthan,28.0229,73.3119,42.1,14,0.0,979.9,8.3,41.4,89,74.0,20.5,0.4,220.0,121.0,7.4,0,5,10,0,2026-05-11T13:16:01.188175+05:30
Ajmer,Rajasthan,26.4499,74.6399,40.0,16,0.0,954.8,8.35,38.9,102,116.6,34.8,1.0,250.0,166.0,14.6,0,5,10,0,2026-05-11T13:16:01.188183+05:30
Gwalior,Madhya Pradesh,26.2183,78.1828,37.7,27,0.0,982.6,8.2,33.5,113,143.4,41.8,0.7,304.0,199.0,12.2,0,5,10,0,2026-05-11T13:16:01.188190+05:30
Indore,Madhya Pradesh,22.7196,75.8577,41.4,13,0.0,947.1,8.7,45.4,85,99.9,30.5,0.8,251.0,162.0,5.4,0,5,10,0,2026-05-11T13:16:01.188198+05:30
Bhopal,Madhya Pradesh,23.2599,77.4126,39.3,19,0.0,953.0,8.7,40.3,96,110.8,31.1,0.5,255.0,167.0,5.8,0,5,10,0,2026-05-11T13:16:01.188205+05:30
Jabalpur,Madhya Pradesh,23.1815,79.9864,39.6,17,0.0,959.4,8.85,41.8,92,72.4,29.0,1.6,248.0,198.0,7.6,0,5,10,0,2026-05-11T13:16:01.188213+05:30
Ujjain,Madhya Pradesh,23.1765,75.7885,42.2,12,0.0,952.6,8.65,47.9,90,92.9,29.5,0.6,242.0,162.0,7.7,0,5,10,0,2026-05-11T13:16:01.188220+05:30
Visakhapatnam,Andhra Pradesh,17.6868,83.2185,33.3,56,0.0,1001.8,9.1,36.4,73,20.5,16.5,16.9,673.0,64.0,21.6,0,5,4,1,2026-05-11T13:16:01.188228+05:30
Vijayawada,Andhra Pradesh,16.5062,80.648,38.0,35,0.0,999.8,8.55,37.4,46,18.2,10.9,1.2,169.0,109.0,5.1,0,5,10,1,2026-05-11T13:16:01.188235+05:30
Guntur,Andhra Pradesh,16.3067,80.4365,38.8,32,0.0,1000.7,8.5,38.2,45,20.2,12.3,1.2,176.0,115.0,4.7,0,5,7,1,2026-05-11T13:16:01.188243+05:30
Nellore,Andhra Pradesh,14.4426,79.9865,34.9,49,0.0,1003.1,9.15,38.9,24,9.4,5.9,1.0,128.0,72.0,2.8,0,5,4,1,2026-05-11T13:16:01.188251+05:30
Kurnool,Andhra Pradesh,15.8281,78.0373,39.0,25,0.0,974.5,8.6,40.3,48,22.8,10.9,0.8,174.0,113.0,3.3,0,5,10,0,2026-05-11T13:16:01.188260+05:30
Kakinada,Andhra Pradesh,16.9891,82.2475,33.3,55,0.0,1005.3,9.1,38.9,28,13.3,9.0,1.9,306.0,83.0,1.9,0,5,4,1,2026-05-11T13:16:01.188267+05:30
Tirupati,Andhra Pradesh,13.6288,79.4192,36.7,35,0.0,988.1,9.2,43.9,38,7.3,4.6,0.8,172.0,78.0,0.9,0,5,10,1,2026-05-11T13:16:01.188275+05:30
Warangal,Telangana,17.9689,79.5941,37.1,33,0.0,977.1,9.15,43.6,60,22.6,14.5,1.5,186.0,121.0,6.3,0,5,10,1,2026-05-11T13:16:01.188282+05:30
Nizamabad,Telangana,18.6725,78.0941,38.1,25,0.0,962.9,9.15,32.0,72,37.7,18.5,1.0,196.0,147.0,4.0,0,5,10,0,2026-05-11T13:16:01.188290+05:30
Mysore,Karnataka,12.2958,76.6396,33.3,39,0.0,927.1,8.75,31.7,69,31.4,20.4,2.0,230.0,178.0,5.4,0,5,7,1,2026-05-11T13:16:01.188297+05:30
Mangalore,Karnataka,12.9141,74.856,30.6,78,0.0,1004.1,8.4,34.6,66,25.3,16.8,1.1,198.0,127.0,2.8,3,5,4,1,2026-05-11T13:16:01.188305+05:30
Hubli-Dharwad,Karnataka,15.3647,75.124,36.8,26,0.0,939.7,8.9,51.8,78,69.4,34.2,1.3,216.0,158.0,4.8,0,5,10,0,2026-05-11T13:16:01.188312+05:30
Belgaum,Karnataka,15.8497,74.4977,36.0,24,0.0,925.3,8.7,50.8,79,36.1,19.6,1.5,198.0,156.0,8.1,0,5,10,0,2026-05-11T13:16:04.424341+05:30
Coimbatore,Tamil Nadu,11.0168,76.9558,32.9,51,0.0,959.3,9.2,27.4,74,31.8,19.8,1.7,227.0,162.0,6.0,0,5,7,1,2026-05-11T13:16:04.424372+05:30
Madurai,Tamil Nadu,9.9252,78.1198,35.8,40,0.0,989.1,9.0,30.2,70,22.8,16.9,1.5,239.0,150.0,6.8,0,5,10,1,2026-05-11T13:16:04.424384+05:30
Trichy,Tamil Nadu,10.7905,78.7047,34.8,46,0.0,996.0,9.15,28.1,76,18.4,15.3,1.4,183.0,124.0,7.9,0,5,7,1,2026-05-11T13:16:04.424392+05:30
Salem,Tamil Nadu,11.6643,78.146,35.7,33,0.0,974.1,9.1,32.4,71,29.9,22.0,3.2,177.0,164.0,19.3,0,5,10,1,2026-05-11T13:16:04.424401+05:30
Tirunelveli,Tamil Nadu,8.7139,77.7567,37.7,37,0.0,999.3,9.05,40.3,50,10.3,8.8,1.2,209.0,134.0,1.3,0,5,10,1,2026-05-11T13:16:04.424409+05:30
Vellore,Tamil Nadu,12.9165,79.1325,35.5,38,0.0,981.6,8.9,34.6,54,10.9,9.5,1.6,177.0,98.0,6.5,0,5,10,1,2026-05-11T13:16:04.424417+05:30
Erode,Tamil Nadu,11.341,77.7172,34.5,44,0.0,986.1,9.15,24.1,71,27.4,19.2,1.7,234.0,156.0,6.5,0,5,7,1,2026-05-11T13:16:04.424424+05:30
Kochi,Kerala,9.9312,76.2673,30.3,77,0.0,1005.7,8.95,31.3,65,15.4,13.8,2.2,236.0,150.0,2.7,3,5,4,1,2026-05-11T13:16:04.424431+05:30
Thiruvananthapuram,Kerala,8.5241,76.9366,29.4,79,0.0,1005.4,8.35,35.3,44,9.3,8.1,1.4,188.0,128.0,2.4,7,5,4,1,2026-05-11T13:16:04.424439+05:30
Kozhikode,Kerala,11.2588,75.7804,31.4,74,0.0,1004.5,8.85,33.1,53,13.4,10.2,0.6,214.0,125.0,1.9,3,5,4,1,2026-05-11T13:16:04.424445+05:30
Thrissur,Kerala,10.5276,76.2144,32.7,67,0.0,1003.9,8.95,29.9,67,14.5,12.4,1.3,233.0,132.0,2.1,3,5,4,1,2026-05-11T13:16:04.424453+05:30
Kannur,Kerala,11.8745,75.3704,31.5,69,0.0,1004.3,8.8,34.9,53,17.7,12.8,1.1,211.0,125.0,1.3,3,5,4,1,2026-05-11T13:16:04.424460+05:30
Patna,Bihar,25.5941,85.1376,34.2,40,0.0,999.6,8.7,26.3,142,69.6,51.5,1.6,388.0,223.0,16.6,0,5,7,1,2026-05-11T13:16:04.424466+05:30
Gaya,Bihar,24.7914,85.0002,36.0,32,0.0,992.7,8.75,31.3,133,66.6,44.7,1.4,330.0,215.0,17.7,0,5,10,1,2026-05-11T13:16:04.424473+05:30
Muzaffarpur,Bihar,26.1209,85.3647,32.8,48,0.0,1000.0,8.7,27.4,138,58.0,42.6,1.5,378.0,200.0,10.7,0,5,4,1,2026-05-11T13:16:04.424479+05:30
Bhagalpur,Bihar,25.2425,87.0117,33.9,43,0.0,1000.7,8.5,27.0,145,60.5,48.7,3.3,300.0,228.0,9.6,0,5,4,1,2026-05-11T13:16:04.424486+05:30
Ranchi,Jharkhand,23.3441,85.3096,31.5,40,0.0,938.1,9.25,30.6,97,60.3,32.8,1.1,202.0,182.0,13.8,0,5,7,1,2026-05-11T13:16:04.424492+05:30
Jamshedpur,Jharkhand,22.8046,86.2029,27.0,70,0.1,991.5,9.05,49.0,117,48.0,33.2,2.4,313.0,194.0,18.8,10,5,7,1,2026-05-11T13:16:04.424499+05:30
Dhanbad,Jharkhand,23.7957,86.4304,29.9,62,0.0,980.2,8.95,40.3,162,81.3,59.6,15.1,753.0,230.0,60.0,7,5,7,1,2026-05-11T13:16:04.424506+05:30
Bokaro,Jharkhand,23.6693,86.1511,30.0,58,0.0,984.0,8.95,42.8,159,81.7,54.2,14.0,661.0,226.0,56.6,4,5,7,1,2026-05-11T13:16:04.424513+05:30
Bhubaneswar,Odisha,20.2961,85.8245,33.8,51,0.0,1001.8,9.1,34.6,82,18.4,12.9,1.3,187.0,118.0,4.3,0,5,4,1,2026-05-11T13:16:04.424520+05:30
Cuttack,Odisha,20.4625,85.8828,34.5,48,0.0,1003.5,9.15,36.7,82,18.4,12.9,1.3,180.0,118.0,4.3,0,5,4,1,2026-05-11T13:16:04.424527+05:30
Rourkela,Odisha,22.2604,84.8536,35.9,39,0.0,983.9,8.95,35.6,118,62.4,40.4,1.3,213.0,187.0,34.5,0,5,10,1,2026-05-11T13:16:04.424533+05:30
Raipur,Chhattisgarh,21.2514,81.6296,38.8,25,0.0,972.9,9.0,31.7,102,58.9,31.3,6.3,538.0,210.0,5.6,0,5,10,0,2026-05-11T13:16:04.424540+05:30
Bhilai,Chhattisgarh,21.1938,81.3509,38.1,27,0.0,973.5,9.0,32.0,109,50.9,26.9,6.0,625.0,179.0,4.4,0,5,10,1,2026-05-11T13:16:04.424546+05:30
Guwahati,Assam,26.1158,91.7086,28.4,62,0.0,1002.4,8.6,32.4,92,31.1,22.3,1.1,307.0,141.0,1.4,7,5,4,1,2026-05-11T13:16:04.424553+05:30
Agartala,Tripura,23.8315,91.2868,29.8,61,0.0,1006.7,8.8,27.7,126,44.6,36.3,4.1,300.0,182.0,1.5,7,5,4,1,2026-05-11T13:16:04.424560+05:30
Shillong,Meghalaya,25.5788,91.8933,20.9,65,0.0,858.1,8.85,24.8,85,36.0,24.7,1.2,252.0,149.0,2.0,3,5,7,0,2026-05-11T13:16:04.424566+05:30
Imphal,Manipur,24.817,93.9368,22.1,71,0.0,923.8,8.5,33.8,99,34.3,24.2,0.9,270.0,133.0,0.9,3,5,7,1,2026-05-11T13:16:04.424573+05:30
Aizawl,Mizoram,23.7271,92.7176,25.1,46,0.0,893.8,9.0,25.6,89,30.2,22.5,0.7,254.0,146.0,1.1,4,5,7,0,2026-05-11T13:16:04.424580+05:30
Kohima,Nagaland,25.6701,94.1077,20.2,67,0.0,856.4,8.65,23.8,65,29.0,19.3,0.5,227.0,145.0,1.4,3,5,7,0,2026-05-11T13:16:04.424586+05:30
Gangtok,Sikkim,27.3314,88.6138,22.3,39,0.0,839.6,8.95,45.7,56,28.8,17.7,0.5,188.0,137.0,1.2,0,5,7,0,2026-05-11T13:16:04.424593+05:30
Siliguri,West Bengal,26.7271,88.3953,30.5,50,0.0,993.3,8.55,27.0,95,42.1,27.1,1.1,319.0,161.0,2.5,0,5,7,1,2026-05-11T13:16:07.655355+05:30
Durgapur,West Bengal,23.5204,87.3119,30.4,64,0.0,995.5,8.9,40.0,174,64.5,54.8,14.2,173.0,194.0,51.6,3,5,7,1,2026-05-11T13:16:07.655388+05:30
Asansol,West Bengal,23.6739,86.9524,30.3,64,0.0,994.0,8.9,38.5,164,69.4,55.2,13.8,420.0,208.0,52.3,3,5,7,1,2026-05-11T13:16:07.655398+05:30
Pondicherry,Puducherry,11.9139,79.8145,30.2,76,0.0,1005.2,8.8,33.8,24,9.9,7.7,1.6,166.0,85.0,3.2,3,5,4,1,2026-05-11T13:16:07.655407+05:30
Port Blair,Andaman and Nicobar Islands,11.6234,92.7265,29.5,80,0.1,1005.0,8.35,36.0,31,4.0,2.5,0.3,135.0,69.0,0.1,10,5,4,1,2026-05-11T13:16:07.655415+05:30
Haridwar,Uttarakhand,29.9457,78.1642,31.9,47,0.0,975.5,6.3,30.6,140,97.6,44.5,1.4,274.0,197.0,13.7,0,5,7,1,2026-05-11T13:16:07.655423+05:30
Rishikesh,Uttarakhand,30.0869,78.2676,30.1,50,0.0,968.5,5.95,24.1,119,91.5,44.2,1.1,267.0,191.0,11.1,0,5,3,1,2026-05-11T13:16:07.655431+05:30
Nainital,Uttarakhand,29.3919,79.4542,19.3,67,0.1,809.0,7.05,28.8,103,47.3,28.7,1.0,271.0,177.0,7.5,6,5,7,0,2026-05-11T13:16:07.655439+05:30
Mussoorie,Uttarakhand,30.4599,78.0664,19.3,65,0.0,806.5,7.6,42.1,132,126.2,63.6,1.6,279.0,183.0,8.0,3,5,7,0,2026-05-11T13:16:07.655446+05:30
Dharamshala,Himachal Pradesh,32.219,76.3234,23.6,58,0.0,872.2,8.35,38.9,106,77.3,28.2,0.5,317.0,145.0,2.7,0,5,7,0,2026-05-11T13:16:07.655454+05:30
Dalhousie,Himachal Pradesh,32.5387,75.971,19.9,59,0.0,808.5,8.55,34.2,152,148.5,48.1,1.1,313.0,171.0,7.6,0,5,7,0,2026-05-11T13:16:07.655462+05:30
Patiala,Punjab,30.3398,76.3869,36.1,34,0.0,978.7,7.55,38.9,496,851.2,114.3,2.1,329.0,229.0,21.9,0,5,10,1,2026-05-11T13:16:07.655469+05:30
Bhatinda,Punjab,30.211,74.9455,37.4,31,0.0,983.4,8.2,37.8,483,542.0,99.7,2.3,333.0,202.0,16.9,0,5,10,1,2026-05-11T13:16:07.655476+05:30
Rohtak,Haryana,28.8955,76.6066,37.0,31,0.0,981.6,7.65,31.0,406,624.0,96.6,1.6,344.0,220.0,14.2,0,5,10,1,2026-05-11T13:16:07.655483+05:30
Panipat,Haryana,29.3909,76.9635,35.7,35,0.0,980.8,7.5,31.7,691,840.1,115.5,3.7,345.0,244.0,26.3,0,5,10,1,2026-05-11T13:16:07.655490+05:30
Mathura,Uttar Pradesh,27.4924,77.6737,36.7,32,0.0,986.6,7.95,27.0,423,536.4,75.7,1.0,339.0,197.0,11.2,0,5,10,1,2026-05-11T13:16:07.655498+05:30
Vrindavan,Uttar Pradesh,27.5823,77.7027,37.0,32,0.0,987.0,7.9,27.7,423,536.4,75.7,1.0,342.0,197.0,11.2,0,5,10,1,2026-05-11T13:16:07.655505+05:30
Ayodhya,Uttar Pradesh,26.7922,82.1998,35.2,34,0.0,994.5,8.3,33.5,120,52.0,34.7,0.8,331.0,184.0,7.4,0,5,10,1,2026-05-11T13:16:07.655513+05:30
Ratlam,Madhya Pradesh,23.3315,75.0367,42.0,13,0.0,953.7,8.55,35.3,84,73.1,24.4,0.5,225.0,161.0,9.8,0,5,10,0,2026-05-11T13:16:07.655521+05:30
Sagar,Madhya Pradesh,23.8388,78.7378,38.0,21,0.0,949.6,8.75,43.9,108,88.5,26.5,0.5,250.0,173.0,5.4,0,5,10,0,2026-05-11T13:16:07.655527+05:30
Satna,Madhya Pradesh,24.6005,80.8322,38.6,23,0.0,969.6,8.75,43.6,125,85.2,39.2,1.3,255.0,209.0,15.8,0,5,10,0,2026-05-11T13:16:07.655535+05:30
Akola,Maharashtra,20.7002,77.0082,42.2,15,0.0,972.3,8.9,49.7,88,66.8,25.3,2.2,251.0,203.0,19.0,0,5,10,0,2026-05-11T13:16:07.655543+05:30
Amravati,Maharashtra,20.9374,77.7796,40.5,15,0.0,965.3,8.9,40.3,88,59.4,24.8,2.3,231.0,196.0,10.6,0,5,10,0,2026-05-11T13:16:07.655550+05:30
Latur,Maharashtra,18.4088,76.5604,39.7,16,0.0,938.4,9.05,36.7,74,46.6,21.0,1.1,203.0,162.0,7.8,0,5,10,0,2026-05-11T13:16:07.655557+05:30
Nanded,Maharashtra,19.1383,77.3091,40.8,17,0.0,966.1,9.0,32.4,77,44.9,22.5,1.4,201.0,168.0,9.5,0,5,10,0,2026-05-11T13:16:07.655564+05:30
Gulbarga,Karnataka,17.3297,76.8343,39.2,21,0.0,956.8,9.1,30.2,64,40.3,18.5,1.4,202.0,156.0,6.7,0,5,10,0,2026-05-11T13:16:07.655570+05:30
Bidar,Karnataka,17.9104,77.5199,36.8,25,0.0,934.7,9.1,32.8,66,39.5,17.7,1.3,193.0,151.0,5.0,0,5,10,0,2026-05-11T13:16:07.655577+05:30
Hospet,Karnataka,15.2689,76.3909,35.2,35,0.0,954.3,8.7,35.6,76,44.0,21.8,1.6,196.0,163.0,4.8,0,5,10,1,2026-05-11T13:16:07.655584+05:30
Tirupur,Tamil Nadu,11.1085,77.3411,35.4,40,0.0,972.4,9.25,31.3,84,31.0,21.8,2.0,230.0,177.0,7.8,0,5,10,1,2026-05-11T13:16:07.655590+05:30
Alappuzha,Kerala,9.4981,76.3388,31.0,72,0.0,1005.8,8.7,34.9,55,13.6,12.6,2.1,210.0,152.0,4.0,3,5,4,1,2026-05-11T13:16:07.655597+05:30
Munnar,Kerala,10.0889,77.0595,25.5,39,0.0,856.8,9.45,18.0,51,21.9,12.7,0.9,172.0,132.0,2.1,4,5,7,0,2026-05-11T13:16:07.655604+05:30
Silchar,Assam,24.8333,92.7789,31.2,52,0.0,1004.6,8.8,18.0,137,40.7,30.2,1.2,339.0,171.0,3.6,0,5,4,1,2026-05-11T13:16:07.655611+05:30
Dibrugarh,Assam,27.4728,94.912,25.7,71,0.0,997.5,5.25,22.0,70,23.3,15.3,0.8,248.0,141.0,1.5,7,5,3,1,2026-05-11T13:16:07.655637+05:30
