city,state,latitude,longitude,temp,humidity,rain,pressure,uv_index,wind_gusts,aqi,pm10,pm2_5,mosquito_risk,arthritis_risk,migraine_risk,frizz_risk,updated_at
Delhi,Delhi,28.6139,77.209,30.0,30,0.0,981.0,7.35,41.0,159,538.3,96.2,4,5,7,0,2026-04-25T02:23:42.554512+05:30
Mumbai,Maharashtra,19.076,72.8777,28.1,58,0.0,1006.2,8.0,43.9,78,23.9,11.8,4,5,4,1,2026-04-25T02:23:42.554551+05:30
Bangalore,Karnataka,12.9716,77.5946,25.6,45,0.0,910.5,8.6,41.8,81,22.8,21.8,4,5,7,0,2026-04-25T02:23:42.554566+05:30
Hyderabad,Telangana,17.385,78.4867,29.1,39,0.0,951.7,9.3,37.4,111,38.6,33.9,4,5,7,0,2026-04-25T02:23:42.554576+05:30
Chennai,Tamil Nadu,13.0827,80.2707,28.5,85,0.0,1005.4,8.85,50.8,27,9.6,6.7,7,5,4,1,2026-04-25T02:23:42.554584+05:30
Kolkata,West Bengal,22.5726,88.3639,27.9,90,0.0,1005.2,8.6,41.0,75,23.5,19.5,7,5,4,1,2026-04-25T02:23:42.554596+05:30
Pune,Maharashtra,18.5204,73.8567,28.0,41,0.0,946.6,8.5,38.2,109,47.8,44.6,4,5,7,0,2026-04-25T02:23:42.554603+05:30
Ahmedabad,Gujarat,23.0225,72.5714,31.5,25,0.0,1000.7,8.2,24.1,60,19.3,11.0,0,5,4,0,2026-04-25T02:23:42.554611+05:30
Jaipur,Rajasthan,26.9124,75.7873,29.6,24,0.0,958.5,8.05,33.5,112,112.5,34.1,4,5,7,0,2026-04-25T02:23:42.554618+05:30
Lucknow,Uttar Pradesh,26.8467,80.9462,31.4,21,0.0,990.5,7.9,40.7,125,217.5,51.8,0,5,7,0,2026-04-25T02:23:42.554626+05:30
Kanpur,Uttar Pradesh,26.4499,80.3319,30.5,24,0.0,988.9,7.9,44.3,126,194.2,50.5,0,5,7,0,2026-04-25T02:23:42.554632+05:30
Chandigarh,Chandigarh,30.7333,76.7794,26.5,36,0.0,966.7,7.15,59.4,69,26.0,20.5,4,5,7,0,2026-04-25T02:23:42.554640+05:30
Srinagar,Jammu and Kashmir,34.0837,74.7973,11.8,97,0.0,845.1,8.6,34.6,74,54.6,23.8,3,10,7,0,2026-04-25T02:23:42.554647+05:30
Jammu,Jammu and Kashmir,32.7266,74.857,26.9,29,0.0,971.8,8.2,40.7,75,28.5,21.6,4,5,7,0,2026-04-25T02:23:42.554654+05:30
Amritsar,Punjab,31.634,74.8723,27.9,34,0.0,979.8,8.1,42.8,98,86.1,39.6,4,5,7,0,2026-04-25T02:23:42.554660+05:30
Ludhiana,Punjab,30.901,75.8573,26.4,38,0.0,977.4,7.65,46.8,81,46.2,23.9,4,5,7,0,2026-04-25T02:23:42.554669+05:30
Jalandhar,Punjab,31.326,75.5762,26.4,38,0.0,978.4,7.8,38.5,87,71.9,30.7,4,5,7,0,2026-04-25T02:23:42.554676+05:30
Dehradun,Uttarakhand,30.6284,78.0322,13.7,64,0.0,828.2,7.85,47.9,54,22.4,16.1,3,5,7,0,2026-04-25T02:23:42.554682+05:30
Shimla,Himachal Pradesh,31.1048,77.1734,13.4,48,0.0,783.7,7.65,51.1,57,43.7,21.3,0,5,7,0,2026-04-25T02:23:42.554689+05:30
Manali,Himachal Pradesh,32.2396,77.1887,8.8,78,0.0,817.2,8.5,42.8,59,36.3,23.7,3,5,7,0,2026-04-25T02:23:42.554695+05:30
Gurgaon,Haryana,28.4595,77.0266,27.0,33,0.0,979.2,7.45,46.4,616,599.8,95.5,4,5,7,0,2026-04-25T02:23:42.554702+05:30
Noida,Uttar Pradesh,28.5355,77.391,28.8,34,0.0,982.1,7.35,31.7,616,599.8,95.5,4,5,7,0,2026-04-25T02:23:42.554708+05:30
Ghaziabad,Uttar Pradesh,28.6692,77.4538,28.0,37,0.0,980.3,7.4,49.3,151,390.2,80.6,4,5,7,0,2026-04-25T02:23:42.554716+05:30
Faridabad,Haryana,28.4089,77.3178,31.6,26,0.0,981.6,7.45,40.0,616,599.8,95.5,0,5,7,0,2026-04-25T02:23:42.554722+05:30
Meerut,Uttar Pradesh,28.9845,77.7064,27.4,41,0.0,979.2,7.3,41.8,151,390.2,80.6,4,5,7,0,2026-04-25T02:23:42.554728+05:30
Agra,Uttar Pradesh,27.1767,78.0081,28.2,36,0.0,985.1,7.8,42.8,369,246.8,92.4,4,5,7,0,2026-04-25T02:23:42.554739+05:30
Varanasi,Uttar Pradesh,25.3176,82.9739,30.2,17,0.0,994.6,8.55,40.3,123,65.9,42.6,0,5,7,0,2026-04-25T02:23:42.554746+05:30
Prayagraj,Uttar Pradesh,25.4358,81.8463,27.0,33,0.0,993.2,8.4,33.5,112,74.0,35.9,4,5,7,0,2026-04-25T02:23:42.554752+05:30
Gorakhpur,Uttar Pradesh,26.7606,83.3732,28.1,57,0.0,994.7,8.3,46.8,151,112.9,70.8,4,5,7,1,2026-04-25T02:23:42.554758+05:30
Bareilly,Uttar Pradesh,28.367,79.4304,26.7,45,0.0,984.0,7.35,42.5,131,62.9,55.8,4,5,7,0,2026-04-25T02:23:42.554764+05:30
Aligarh,Uttar Pradesh,27.8974,78.088,26.7,39,0.0,983.0,7.6,42.1,246,418.2,102.7,4,5,7,0,2026-04-25T02:23:42.554770+05:30
Moradabad,Uttar Pradesh,28.8386,78.7733,26.5,52,0.0,980.9,7.3,51.8,156,150.4,95.0,4,5,7,0,2026-04-25T02:23:42.554776+05:30
Saharanpur,Uttar Pradesh,29.9637,77.546,24.2,45,0.0,973.2,7.15,60.5,111,106.4,64.5,0,5,7,0,2026-04-25T02:23:42.554782+05:30
Jhansi,Uttar Pradesh,25.4484,78.5685,30.1,22,0.0,975.7,8.3,30.2,62,27.6,23.6,0,5,7,0,2026-04-25T02:23:45.899474+05:30
Surat,Gujarat,21.1702,72.8311,29.2,59,0.0,1004.6,7.85,35.6,93,32.9,24.2,4,5,4,1,2026-04-25T02:23:45.899502+05:30
Vadodara,Gujarat,22.3072,73.1812,29.1,42,0.0,1002.8,8.15,28.1,75,38.0,31.3,4,5,4,0,2026-04-25T02:23:45.899512+05:30
Rajkot,Gujarat,22.3039,70.8022,24.1,77,0.0,993.7,7.9,33.1,38,25.0,9.4,3,5,7,1,2026-04-25T02:23:45.899519+05:30
Thane,Maharashtra,19.2183,72.9781,28.1,58,0.0,1005.5,8.0,42.1,78,23.9,11.8,4,5,4,1,2026-04-25T02:23:45.899525+05:30
Nagpur,Maharashtra,21.1458,79.0882,32.4,20,0.0,970.9,8.9,33.1,99,50.9,44.4,0,5,7,0,2026-04-25T02:23:45.899532+05:30
Nashik,Maharashtra,19.9975,73.7898,27.9,34,0.0,944.0,8.3,32.0,87,30.2,21.2,4,5,7,0,2026-04-25T02:23:45.899538+05:30
Aurangabad,Maharashtra,19.8762,75.3433,30.2,24,0.0,942.9,9.0,30.6,78,24.6,18.9,0,5,7,0,2026-04-25T02:23:45.899544+05:30
Solapur,Maharashtra,17.6599,75.9064,29.1,36,0.0,955.2,8.95,24.8,112,51.5,46.1,4,5,7,0,2026-04-25T02:23:45.899550+05:30
Kolhapur,Maharashtra,16.705,74.2433,24.8,64,0.0,945.7,9.05,31.7,151,85.9,78.0,3,5,7,1,2026-04-25T02:23:45.899556+05:30
Goa,Goa,15.2993,74.124,27.4,92,0.0,995.6,9.0,34.2,86,42.0,33.1,7,5,7,1,2026-04-25T02:23:45.899562+05:30
Jodhpur,Rajasthan,26.2389,73.0243,32.3,22,0.0,981.3,8.3,29.5,73,117.8,25.1,0,5,7,0,2026-04-25T02:23:45.899568+05:30
Udaipur,Rajasthan,24.5854,73.7125,26.4,30,0.0,944.8,8.8,39.6,51,58.2,17.3,4,5,7,0,2026-04-25T02:23:45.899574+05:30
Kota,Rajasthan,25.2138,75.8648,29.4,28,0.0,976.7,8.3,31.3,59,35.4,24.6,4,5,7,0,2026-04-25T02:23:45.899580+05:30
Bikaner,Rajasthan,28.0229,73.3119,30.0,31,0.0,980.1,8.15,29.5,60,68.0,26.4,4,5,7,0,2026-04-25T02:23:45.899585+05:30
Ajmer,Rajasthan,26.4499,74.6399,29.8,26,0.0,953.8,8.25,31.3,56,83.8,22.1,4,5,7,0,2026-04-25T02:23:45.899591+05:30
Gwalior,Madhya Pradesh,26.2183,78.1828,30.5,26,0.0,980.9,8.05,39.2,60,76.8,27.2,0,5,7,0,2026-04-25T02:23:45.899596+05:30
Indore,Madhya Pradesh,22.7196,75.8577,28.5,20,0.0,947.3,8.6,29.2,52,24.6,13.2,4,5,7,0,2026-04-25T02:23:45.899602+05:30
Bhopal,Madhya Pradesh,23.2599,77.4126,30.1,22,0.0,952.7,8.6,31.7,53,40.3,27.9,0,5,7,0,2026-04-25T02:23:45.899608+05:30
Jabalpur,Madhya Pradesh,23.1815,79.9864,28.0,23,0.0,959.3,8.8,40.0,62,28.0,19.3,4,5,7,0,2026-04-25T02:23:45.899613+05:30
Ujjain,Madhya Pradesh,23.1765,75.7885,28.3,23,0.0,952.9,8.55,37.8,57,28.9,14.0,4,5,7,0,2026-04-25T02:23:45.899619+05:30
Visakhapatnam,Andhra Pradesh,17.6868,83.2185,26.8,93,0.0,1001.8,8.5,42.8,58,15.7,12.7,7,5,4,1,2026-04-25T02:23:45.899626+05:30
Vijayawada,Andhra Pradesh,16.5062,80.648,27.1,92,0.0,1000.5,8.7,34.2,52,12.9,11.1,7,5,4,1,2026-04-25T02:23:45.899631+05:30
Guntur,Andhra Pradesh,16.3067,80.4365,26.8,96,0.0,1001.7,8.5,38.5,53,12.3,10.4,7,5,4,1,2026-04-25T02:23:45.899637+05:30
Nellore,Andhra Pradesh,14.4426,79.9865,27.0,88,0.0,1004.1,9.15,43.2,40,8.2,6.8,7,5,4,1,2026-04-25T02:23:45.899644+05:30
Kurnool,Andhra Pradesh,15.8281,78.0373,29.8,49,0.0,975.3,9.2,36.4,80,18.3,16.0,4,5,7,1,2026-04-25T02:23:45.899650+05:30
Kakinada,Andhra Pradesh,16.9891,82.2475,27.2,91,0.0,1005.8,8.4,39.2,36,12.1,8.5,7,5,4,1,2026-04-25T02:23:45.899656+05:30
Tirupati,Andhra Pradesh,13.6288,79.4192,27.2,74,0.0,989.8,9.0,36.7,55,19.6,18.5,7,5,7,1,2026-04-25T02:23:45.899661+05:30
Warangal,Telangana,17.9689,79.5941,28.4,50,0.0,976.7,8.95,31.7,111,29.3,27.4,4,5,7,1,2026-04-25T02:23:45.899667+05:30
Nizamabad,Telangana,18.6725,78.0941,29.0,39,0.0,962.6,8.8,28.1,129,65.2,60.3,4,5,7,0,2026-04-25T02:23:45.899672+05:30
Mysore,Karnataka,12.2958,76.6396,22.9,79,0.0,925.9,8.75,52.6,91,23.3,21.1,3,5,7,1,2026-04-25T02:23:45.899678+05:30
Mangalore,Karnataka,12.9141,74.856,28.7,87,0.0,1004.5,8.0,40.7,70,26.5,20.3,7,5,4,1,2026-04-25T02:23:45.899684+05:30
Hubli-Dharwad,Karnataka,15.3647,75.124,25.4,88,0.0,938.9,9.25,36.4,112,51.1,47.1,7,5,7,1,2026-04-25T02:23:45.899689+05:30
Belgaum,Karnataka,15.8497,74.4977,25.2,67,0.0,923.9,9.3,32.8,126,68.5,59.4,7,5,7,1,2026-04-25T02:23:49.243478+05:30
Coimbatore,Tamil Nadu,11.0168,76.9558,27.3,72,0.0,959.7,8.8,43.9,83,25.7,24.1,7,5,7,1,2026-04-25T02:23:49.243513+05:30
Madurai,Tamil Nadu,9.9252,78.1198,27.4,84,0.0,991.7,8.75,40.0,44,13.3,12.6,7,5,7,1,2026-04-25T02:23:49.243524+05:30
Trichy,Tamil Nadu,10.7905,78.7047,27.2,83,0.0,998.3,9.0,32.4,46,10.9,9.9,7,5,7,1,2026-04-25T02:23:49.243535+05:30
Salem,Tamil Nadu,11.6643,78.146,27.7,63,0.0,975.4,9.0,42.8,60,19.8,19.3,7,5,7,1,2026-04-25T02:23:49.243543+05:30
Tirunelveli,Tamil Nadu,8.7139,77.7567,26.5,89,0.0,1001.4,8.95,37.8,64,21.3,20.3,7,5,4,1,2026-04-25T02:23:49.243551+05:30
Vellore,Tamil Nadu,12.9165,79.1325,26.5,75,0.0,982.9,9.0,36.7,71,32.7,32.0,7,5,7,1,2026-04-25T02:23:49.243559+05:30
Erode,Tamil Nadu,11.341,77.7172,28.4,62,0.0,987.3,9.0,40.3,44,8.5,8.3,7,5,7,1,2026-04-25T02:23:49.243568+05:30
Kochi,Kerala,9.9312,76.2673,27.6,94,0.0,1006.1,8.65,40.7,90,39.8,37.5,7,5,4,1,2026-04-25T02:23:49.243575+05:30
Thiruvananthapuram,Kerala,8.5241,76.9366,25.7,95,0.0,1006.0,8.2,34.2,61,22.2,18.0,7,5,4,1,2026-04-25T02:23:49.243584+05:30
Kozhikode,Kerala,11.2588,75.7804,26.9,95,0.0,1005.2,8.6,39.6,78,29.0,22.0,7,5,4,1,2026-04-25T02:23:49.243591+05:30
Thrissur,Kerala,10.5276,76.2144,26.8,90,0.0,1004.5,8.45,48.2,95,42.5,39.2,7,5,4,1,2026-04-25T02:23:49.243600+05:30
Kannur,Kerala,11.8745,75.3704,27.4,88,0.0,1004.6,8.85,40.7,77,28.9,23.1,7,5,4,1,2026-04-25T02:23:49.243608+05:30
Patna,Bihar,25.5941,85.1376,28.3,77,0.0,998.4,8.65,50.0,152,86.8,58.2,7,5,7,1,2026-04-25T02:23:49.243616+05:30
Gaya,Bihar,24.7914,85.0002,27.7,43,0.0,991.6,8.7,55.4,131,80.3,37.7,4,5,7,0,2026-04-25T02:23:49.243623+05:30
Muzaffarpur,Bihar,26.1209,85.3647,26.7,82,0.0,998.9,8.65,33.5,153,78.9,59.8,7,5,7,1,2026-04-25T02:23:49.243631+05:30
Bhagalpur,Bihar,25.2425,87.0117,26.4,83,0.0,1000.0,8.6,56.9,151,65.2,57.7,7,5,4,1,2026-04-25T02:23:49.243638+05:30
Ranchi,Jharkhand,23.3441,85.3096,23.8,33,0.0,935.8,9.2,34.9,116,106.9,41.3,0,5,7,0,2026-04-25T02:23:49.243646+05:30
Jamshedpur,Jharkhand,22.8046,86.2029,27.5,80,0.0,989.3,8.85,34.2,152,69.4,49.2,7,5,7,1,2026-04-25T02:23:49.243653+05:30
Dhanbad,Jharkhand,23.7957,86.4304,27.1,87,0.0,978.4,8.95,49.7,165,155.5,102.9,7,5,7,1,2026-04-25T02:23:49.243660+05:30
Bokaro,Jharkhand,23.6693,86.1511,25.5,50,0.0,982.0,8.95,43.9,160,156.5,89.6,4,5,7,0,2026-04-25T02:23:49.243668+05:30
Bhubaneswar,Odisha,20.2961,85.8245,26.3,97,0.0,1000.7,9.05,40.7,70,17.4,13.6,7,5,4,1,2026-04-25T02:23:49.243676+05:30
Cuttack,Odisha,20.4625,85.8828,26.4,97,0.0,1002.6,9.1,36.4,70,17.4,13.6,7,5,4,1,2026-04-25T02:23:49.243683+05:30
Rourkela,Odisha,22.2604,84.8536,27.0,69,0.0,983.3,8.3,40.7,130,84.5,49.8,7,5,7,1,2026-04-25T02:23:49.243690+05:30
Raipur,Chhattisgarh,21.2514,81.6296,28.8,26,0.0,972.0,9.0,28.1,113,65.2,57.7,4,5,7,0,2026-04-25T02:23:49.243696+05:30
Bhilai,Chhattisgarh,21.1938,81.3509,28.6,35,0.0,972.4,9.0,34.6,107,52.4,48.2,4,5,7,0,2026-04-25T02:23:49.243702+05:30
Guwahati,Assam,26.1158,91.7086,23.4,98,0.0,1001.5,8.55,31.7,151,75.4,59.6,3,5,4,1,2026-04-25T02:23:49.243707+05:30
Agartala,Tripura,23.8315,91.2868,25.7,91,0.0,1005.5,8.75,26.3,127,71.9,58.2,7,5,4,1,2026-04-25T02:23:49.243714+05:30
Shillong,Meghalaya,25.5788,91.8933,17.2,79,0.0,856.6,8.2,31.0,125,64.3,43.5,3,5,7,0,2026-04-25T02:23:49.243719+05:30
Imphal,Manipur,24.817,93.9368,18.9,86,0.0,922.8,9.1,35.6,151,119.2,77.5,3,10,7,1,2026-04-25T02:23:49.243725+05:30
Aizawl,Mizoram,23.7271,92.7176,18.0,78,0.0,891.3,9.0,34.2,116,102.0,49.6,3,5,7,0,2026-04-25T02:23:49.243731+05:30
Kohima,Nagaland,25.6701,94.1077,15.6,92,0.0,854.2,8.4,32.0,143,102.9,64.0,3,10,7,0,2026-04-25T02:23:49.243737+05:30
Gangtok,Sikkim,27.3314,88.6138,14.1,73,0.0,836.3,8.9,46.8,95,33.3,24.6,3,5,7,0,2026-04-25T02:23:49.243743+05:30
Siliguri,West Bengal,26.7271,88.3953,22.2,92,0.0,992.7,8.45,47.2,157,83.6,67.8,3,5,7,1,2026-04-25T02:23:52.586540+05:30
Durgapur,West Bengal,23.5204,87.3119,26.5,97,0.0,993.8,8.9,39.6,150,62.9,55.6,7,5,7,1,2026-04-25T02:23:52.586569+05:30
Asansol,West Bengal,23.6739,86.9524,27.0,95,0.0,992.5,8.95,45.7,153,86.1,62.2,7,5,7,1,2026-04-25T02:23:52.586578+05:30
Pondicherry,Puducherry,11.9139,79.8145,28.9,81,0.0,1006.7,8.8,43.2,23,8.1,5.2,7,5,4,1,2026-04-25T02:23:52.586587+05:30
Port Blair,Andaman and Nicobar Islands,11.6234,92.7265,26.0,87,0.0,1005.9,9.15,30.2,37,12.2,6.2,7,5,4,1,2026-04-25T02:23:52.586594+05:30
Haridwar,Uttarakhand,29.9457,78.1642,21.3,64,0.0,971.4,7.2,32.8,82,39.2,32.9,3,5,7,0,2026-04-25T02:23:52.586602+05:30
Rishikesh,Uttarakhand,30.0869,78.2676,19.6,65,0.0,964.1,7.35,31.7,67,25.6,21.9,3,5,7,0,2026-04-25T02:23:52.586608+05:30
Nainital,Uttarakhand,29.3919,79.4542,16.8,45,0.0,805.8,7.8,43.2,83,32.4,28.4,0,5,7,0,2026-04-25T02:23:52.586615+05:30
Mussoorie,Uttarakhand,30.4599,78.0664,16.2,46,0.0,802.6,7.75,58.0,72,26.4,22.9,0,5,7,0,2026-04-25T02:23:52.586622+05:30
Dharamshala,Himachal Pradesh,32.219,76.3234,23.6,30,0.0,870.4,7.35,61.9,48,23.2,14.3,0,5,7,0,2026-04-25T02:23:52.586629+05:30
Dalhousie,Himachal Pradesh,32.5387,75.971,11.2,67,0.0,802.0,8.2,47.2,61,27.6,21.9,3,5,7,0,2026-04-25T02:23:52.586637+05:30
Patiala,Punjab,30.3398,76.3869,28.7,34,0.0,976.4,7.35,52.6,334,786.0,93.8,4,5,7,0,2026-04-25T02:23:52.586644+05:30
Bhatinda,Punjab,30.211,74.9455,29.4,25,0.0,982.4,8.0,41.8,88,71.9,32.2,4,5,7,0,2026-04-25T02:23:52.586651+05:30
Rohtak,Haryana,28.8955,76.6066,28.4,26,0.0,979.8,7.45,44.3,194,1013.3,139.7,4,5,7,0,2026-04-25T02:23:52.586657+05:30
Panipat,Haryana,29.3909,76.9635,29.2,27,0.0,978.4,7.3,63.7,454,2168.1,248.7,4,5,7,0,2026-04-25T02:23:52.586663+05:30
Mathura,Uttar Pradesh,27.4924,77.6737,27.9,33,0.0,984.0,7.55,41.8,331,422.8,79.4,4,5,7,0,2026-04-25T02:23:52.586671+05:30
Vrindavan,Uttar Pradesh,27.5823,77.7027,27.0,35,0.0,984.5,7.7,40.3,331,422.8,79.4,4,5,7,0,2026-04-25T02:23:52.586676+05:30
Ayodhya,Uttar Pradesh,26.7922,82.1998,27.0,42,0.0,992.7,8.1,37.1,136,174.6,48.1,4,5,7,0,2026-04-25T02:23:52.586683+05:30
Ratlam,Madhya Pradesh,23.3315,75.0367,27.3,29,0.0,953.5,8.5,29.9,53,32.4,13.9,4,5,7,0,2026-04-25T02:23:52.586689+05:30
Sagar,Madhya Pradesh,23.8388,78.7378,26.9,24,0.0,948.6,8.65,28.8,51,20.5,14.6,4,5,7,0,2026-04-25T02:23:52.586695+05:30
Satna,Madhya Pradesh,24.6005,80.8322,26.3,26,0.0,969.1,8.65,41.4,70,37.4,32.9,4,5,7,0,2026-04-25T02:23:52.586701+05:30
Akola,Maharashtra,20.7002,77.0082,29.4,27,0.0,973.3,8.6,31.3,74,23.9,20.8,4,5,7,0,2026-04-25T02:23:52.586708+05:30
Amravati,Maharashtra,20.9374,77.7796,30.0,23,0.0,965.5,8.6,30.6,81,26.8,23.5,4,5,7,0,2026-04-25T02:23:52.586715+05:30
Latur,Maharashtra,18.4088,76.5604,28.8,33,0.0,938.4,9.05,32.4,104,43.1,39.0,4,5,7,0,2026-04-25T02:23:52.586722+05:30
Nanded,Maharashtra,19.1383,77.3091,28.8,37,0.0,967.1,8.9,31.0,104,53.3,47.7,4,5,7,0,2026-04-25T02:23:52.586728+05:30
Gulbarga,Karnataka,17.3297,76.8343,28.2,42,0.0,956.8,9.05,26.6,110,39.7,34.3,4,5,7,0,2026-04-25T02:23:52.586734+05:30
Bidar,Karnataka,17.9104,77.5199,26.9,44,0.0,933.7,8.3,31.7,119,46.4,42.7,4,5,7,0,2026-04-25T02:23:52.586740+05:30
Hospet,Karnataka,15.2689,76.3909,28.7,34,0.0,954.1,9.3,27.4,97,31.2,27.2,4,5,7,0,2026-04-25T02:23:52.586746+05:30
Tirupur,Tamil Nadu,11.1085,77.3411,28.8,44,0.0,973.4,9.05,37.1,62,10.4,10.2,4,5,7,0,2026-04-25T02:23:52.586752+05:30
Alappuzha,Kerala,9.4981,76.3388,26.0,96,0.0,1006.4,8.6,36.7,83,36.2,30.3,7,5,4,1,2026-04-25T02:23:52.586758+05:30
Munnar,Kerala,10.0889,77.0595,15.9,77,0.0,853.8,9.4,26.3,65,20.7,20.1,3,5,7,0,2026-04-25T02:23:52.586764+05:30
Silchar,Assam,24.8333,92.7789,24.8,92,0.0,1004.2,8.75,23.4,158,116.6,78.7,3,5,4,1,2026-04-25T02:23:52.586771+05:30
Dibrugarh,Assam,27.4728,94.912,23.8,92,0.0,995.3,8.7,23.0,83,12.3,10.6,3,5,7,1,2026-04-25T02:23:52.586777+05:30
