city,state,latitude,longitude,temp,humidity,rain,pressure,uv_index,wind_gusts,aqi,pm10,pm2_5,mosquito_risk,arthritis_risk,migraine_risk,frizz_risk,updated_at
Delhi,Delhi,28.6139,77.209,33.2,34,0.0,987.9,6.05,23.4,467,237.0,66.6,0,5,7,0,2026-03-10T16:13:05.015263+05:30
Mumbai,Maharashtra,19.076,72.8777,29.2,63,0.0,1007.9,7.55,19.8,205,53.9,51.1,7,5,4,1,2026-03-10T16:13:05.015312+05:30
Bangalore,Karnataka,12.9716,77.5946,30.3,26,0.0,913.2,9.25,32.4,111,19.2,16.1,0,5,7,0,2026-03-10T16:13:05.015327+05:30
Hyderabad,Telangana,17.385,78.4867,33.3,34,0.0,955.9,8.6,31.0,134,60.8,47.4,0,5,7,0,2026-03-10T16:13:05.015337+05:30
Chennai,Tamil Nadu,13.0827,80.2707,30.1,53,0.0,1010.3,8.95,35.6,89,21.7,16.4,0,0,4,1,2026-03-10T16:13:05.015347+05:30
Kolkata,West Bengal,22.5726,88.3639,27.3,74,0.0,1010.1,4.85,18.0,116,57.9,48.4,7,0,0,1,2026-03-10T16:13:05.015356+05:30
Pune,Maharashtra,18.5204,73.8567,36.9,19,0.0,950.3,8.1,36.4,112,27.1,22.5,0,5,10,0,2026-03-10T16:13:05.015369+05:30
Ahmedabad,Gujarat,23.0225,72.5714,39.5,13,0.0,1004.1,7.4,19.1,83,15.7,13.8,0,5,7,0,2026-03-10T16:13:05.015378+05:30
Jaipur,Rajasthan,26.9124,75.7873,37.1,11,0.0,964.4,6.85,22.0,107,177.4,25.3,0,5,10,0,2026-03-10T16:13:05.015386+05:30
Lucknow,Uttar Pradesh,26.8467,80.9462,32.4,45,0.0,997.8,6.55,20.2,178,154.6,95.7,0,5,7,1,2026-03-10T16:13:05.015394+05:30
Kanpur,Uttar Pradesh,26.4499,80.3319,32.2,48,0.0,996.2,6.6,15.5,170,178.8,76.6,0,5,7,1,2026-03-10T16:13:05.015401+05:30
Chandigarh,Chandigarh,30.7333,76.7794,30.6,54,0.0,974.0,5.95,15.5,134,90.3,56.6,0,5,3,1,2026-03-10T16:13:05.015409+05:30
Srinagar,Jammu and Kashmir,34.0837,74.7973,12.4,85,0.8,847.1,3.8,28.8,123,50.2,27.9,6,10,3,0,2026-03-10T16:13:05.015416+05:30
Jammu,Jammu and Kashmir,32.7266,74.857,27.2,71,0.0,977.7,6.05,38.2,101,60.1,33.2,7,5,7,1,2026-03-10T16:13:05.015424+05:30
Amritsar,Punjab,31.634,74.8723,31.4,52,0.0,985.6,6.0,26.3,162,72.2,43.4,0,5,3,1,2026-03-10T16:13:05.015431+05:30
Ludhiana,Punjab,30.901,75.8573,32.0,44,0.0,983.9,5.6,13.0,170,121.5,63.1,0,5,3,1,2026-03-10T16:13:05.015438+05:30
Jalandhar,Punjab,31.326,75.5762,32.1,46,0.0,984.9,6.2,14.0,167,103.4,54.8,0,5,7,1,2026-03-10T16:13:05.015447+05:30
Dehradun,Uttarakhand,30.6284,78.0322,20.6,67,0.0,836.2,6.4,26.6,75,48.9,28.7,3,5,7,0,2026-03-10T16:13:05.015455+05:30
Shimla,Himachal Pradesh,31.1048,77.1734,19.8,58,0.0,791.6,6.05,37.1,82,41.6,24.7,0,5,7,0,2026-03-10T16:13:05.015462+05:30
Manali,Himachal Pradesh,32.2396,77.1887,20.5,40,0.0,826.9,7.35,41.0,62,20.5,8.1,0,5,7,0,2026-03-10T16:13:05.015469+05:30
Gurgaon,Haryana,28.4595,77.0266,33.6,32,0.0,986.3,5.7,21.2,613,782.3,101.0,0,5,3,0,2026-03-10T16:13:05.015476+05:30
Noida,Uttar Pradesh,28.5355,77.391,33.6,33,0.0,989.4,6.05,23.4,613,782.3,101.0,0,5,7,0,2026-03-10T16:13:05.015484+05:30
Ghaziabad,Uttar Pradesh,28.6692,77.4538,32.5,41,0.0,987.6,5.95,18.7,295,172.3,73.3,0,5,3,1,2026-03-10T16:13:05.015490+05:30
Faridabad,Haryana,28.4089,77.3178,33.4,32,0.0,988.6,5.95,23.0,613,782.3,101.0,0,5,3,0,2026-03-10T16:13:05.015496+05:30
Meerut,Uttar Pradesh,28.9845,77.7064,31.9,46,0.0,986.5,5.85,18.4,295,172.3,73.3,0,5,3,1,2026-03-10T16:13:05.015503+05:30
Agra,Uttar Pradesh,27.1767,78.0081,35.6,25,0.0,992.1,6.45,22.0,192,519.7,71.0,0,5,10,0,2026-03-10T16:13:05.015510+05:30
Varanasi,Uttar Pradesh,25.3176,82.9739,31.4,52,0.0,1001.6,7.25,15.5,184,114.1,103.4,0,5,4,1,2026-03-10T16:13:05.015520+05:30
Prayagraj,Uttar Pradesh,25.4358,81.8463,31.8,50,0.0,1000.1,7.1,15.5,182,136.4,95.5,0,5,4,1,2026-03-10T16:13:05.015529+05:30
Gorakhpur,Uttar Pradesh,26.7606,83.3732,30.1,58,0.0,1001.6,6.95,20.2,189,105.9,91.5,0,5,4,1,2026-03-10T16:13:05.015536+05:30
Bareilly,Uttar Pradesh,28.367,79.4304,31.0,52,0.0,991.7,5.9,18.0,180,160.2,109.4,0,5,3,1,2026-03-10T16:13:05.015542+05:30
Aligarh,Uttar Pradesh,27.8974,78.088,34.1,32,0.0,990.2,6.15,23.4,190,352.0,79.9,0,5,7,0,2026-03-10T16:13:05.015549+05:30
Moradabad,Uttar Pradesh,28.8386,78.7733,31.0,51,0.0,988.7,5.25,23.4,180,154.6,103.8,0,5,3,1,2026-03-10T16:13:05.015555+05:30
Saharanpur,Uttar Pradesh,29.9637,77.546,30.2,54,0.0,980.9,5.65,21.2,164,112.7,61.5,0,5,3,1,2026-03-10T16:13:05.015561+05:30
Jhansi,Uttar Pradesh,25.4484,78.5685,36.3,17,0.0,981.9,7.05,26.3,106,91.7,23.7,0,5,10,0,2026-03-10T16:13:08.352310+05:30
Surat,Gujarat,21.1702,72.8311,38.5,22,0.0,1007.5,7.3,23.8,102,45.4,44.1,0,5,7,0,2026-03-10T16:13:08.352344+05:30
Vadodara,Gujarat,22.3072,73.1812,41.2,12,0.0,1005.4,7.4,17.3,88,15.8,11.1,0,5,7,0,2026-03-10T16:13:08.352357+05:30
Rajkot,Gujarat,22.3039,70.8022,38.4,13,0.0,996.6,7.25,33.5,62,14.5,12.6,0,5,10,0,2026-03-10T16:13:08.352367+05:30
Thane,Maharashtra,19.2183,72.9781,35.0,34,0.0,1008.1,7.55,33.5,205,53.9,51.1,0,0,4,1,2026-03-10T16:13:08.352375+05:30
Nagpur,Maharashtra,21.1458,79.0882,36.5,19,0.0,975.7,7.95,24.8,104,36.6,24.2,0,5,10,0,2026-03-10T16:13:08.352382+05:30
Nashik,Maharashtra,19.9975,73.7898,36.6,15,0.0,947.7,7.75,28.1,109,17.2,13.8,0,5,10,0,2026-03-10T16:13:08.352389+05:30
Aurangabad,Maharashtra,19.8762,75.3433,36.7,16,0.0,946.3,8.3,21.6,106,12.8,10.2,0,5,10,0,2026-03-10T16:13:08.352396+05:30
Solapur,Maharashtra,17.6599,75.9064,35.3,27,0.0,958.5,8.5,29.5,119,48.9,41.0,0,5,10,0,2026-03-10T16:13:08.352403+05:30
Kolhapur,Maharashtra,16.705,74.2433,34.5,25,0.0,949.0,8.6,40.3,111,50.9,43.2,0,5,7,0,2026-03-10T16:13:08.352410+05:30
Goa,Goa,15.2993,74.124,31.1,65,0.0,997.3,8.6,38.9,151,56.3,46.9,3,5,7,1,2026-03-10T16:13:08.352417+05:30
Jodhpur,Rajasthan,26.2389,73.0243,37.3,12,0.0,987.3,7.15,26.3,78,32.8,13.0,0,5,10,0,2026-03-10T16:13:08.352424+05:30
Udaipur,Rajasthan,24.5854,73.7125,35.4,14,0.0,951.0,7.75,21.6,79,12.8,8.8,0,5,10,0,2026-03-10T16:13:08.352431+05:30
Kota,Rajasthan,25.2138,75.8648,37.5,14,0.0,982.7,7.15,17.3,69,42.5,12.3,0,5,10,0,2026-03-10T16:13:08.352438+05:30
Bikaner,Rajasthan,28.0229,73.3119,36.4,13,0.0,986.1,6.85,29.9,93,15.3,13.2,0,5,10,0,2026-03-10T16:13:08.352446+05:30
Ajmer,Rajasthan,26.4499,74.6399,35.5,14,0.0,959.4,7.1,21.2,68,96.6,18.2,0,5,10,0,2026-03-10T16:13:08.352452+05:30
Gwalior,Madhya Pradesh,26.2183,78.1828,34.3,21,0.0,987.7,6.75,24.5,127,90.1,22.9,0,5,7,0,2026-03-10T16:13:08.352459+05:30
Indore,Madhya Pradesh,22.7196,75.8577,35.8,16,0.0,951.7,7.65,26.3,76,16.8,8.4,0,5,10,0,2026-03-10T16:13:08.352467+05:30
Bhopal,Madhya Pradesh,23.2599,77.4126,36.0,18,0.0,957.4,7.55,23.0,65,16.4,6.9,0,5,10,0,2026-03-10T16:13:08.352474+05:30
Jabalpur,Madhya Pradesh,23.1815,79.9864,35.0,26,0.0,964.8,7.65,26.3,87,34.9,17.1,0,5,7,0,2026-03-10T16:13:08.352480+05:30
Ujjain,Madhya Pradesh,23.1765,75.7885,35.2,18,0.0,957.6,7.55,19.1,83,17.6,8.0,0,5,10,0,2026-03-10T16:13:08.352488+05:30
Visakhapatnam,Andhra Pradesh,17.6868,83.2185,30.0,47,0.0,1006.7,8.55,34.2,134,45.6,35.5,4,5,4,1,2026-03-10T16:13:08.352495+05:30
Vijayawada,Andhra Pradesh,16.5062,80.648,33.0,35,0.0,1005.2,8.6,21.6,135,32.7,26.6,0,5,4,0,2026-03-10T16:13:08.352502+05:30
Guntur,Andhra Pradesh,16.3067,80.4365,32.9,33,0.0,1006.5,8.65,23.4,129,29.9,24.0,0,5,4,0,2026-03-10T16:13:08.352508+05:30
Nellore,Andhra Pradesh,14.4426,79.9865,31.4,46,0.0,1008.8,8.85,28.1,100,26.0,20.5,0,0,4,1,2026-03-10T16:13:08.352516+05:30
Kurnool,Andhra Pradesh,15.8281,78.0373,35.1,27,0.0,978.6,8.65,31.7,115,45.8,35.3,0,5,10,0,2026-03-10T16:13:08.352523+05:30
Kakinada,Andhra Pradesh,16.9891,82.2475,31.8,46,0.0,1010.2,8.6,28.4,120,42.7,32.8,0,0,4,1,2026-03-10T16:13:08.352529+05:30
Tirupati,Andhra Pradesh,13.6288,79.4192,31.8,37,0.0,993.5,8.95,34.6,139,21.8,17.8,0,5,7,0,2026-03-10T16:13:08.352536+05:30
Warangal,Telangana,17.9689,79.5941,33.4,45,0.0,981.2,8.4,27.0,140,66.8,51.7,0,5,7,1,2026-03-10T16:13:08.352542+05:30
Nizamabad,Telangana,18.6725,78.0941,35.3,27,0.0,967.0,8.3,30.6,135,43.3,33.5,0,5,10,0,2026-03-10T16:13:08.352548+05:30
Mysore,Karnataka,12.2958,76.6396,31.7,17,0.0,929.3,9.25,39.2,115,21.4,17.3,0,5,7,0,2026-03-10T16:13:08.352555+05:30
Mangalore,Karnataka,12.9141,74.856,28.8,81,0.0,1005.9,8.9,31.7,113,41.3,34.7,7,5,4,1,2026-03-10T16:13:08.352561+05:30
Hubli-Dharwad,Karnataka,15.3647,75.124,34.3,24,0.0,941.8,8.8,44.3,110,56.1,45.6,0,5,7,0,2026-03-10T16:13:08.352568+05:30
Belgaum,Karnataka,15.8497,74.4977,33.7,25,0.0,927.0,8.85,46.8,113,56.1,46.2,0,5,7,0,2026-03-10T16:13:11.687359+05:30
Coimbatore,Tamil Nadu,11.0168,76.9558,32.8,29,0.0,962.2,9.25,46.4,120,23.5,19.7,0,5,7,0,2026-03-10T16:13:11.687393+05:30
Madurai,Tamil Nadu,9.9252,78.1198,33.4,40,0.0,993.1,9.2,41.4,115,18.3,17.1,0,5,7,1,2026-03-10T16:13:11.687405+05:30
Trichy,Tamil Nadu,10.7905,78.7047,31.9,49,0.0,1000.8,8.7,37.4,109,19.7,18.2,0,5,4,1,2026-03-10T16:13:11.687414+05:30
Salem,Tamil Nadu,11.6643,78.146,33.7,32,0.0,977.8,9.15,33.1,130,21.0,18.4,0,5,7,0,2026-03-10T16:13:11.687423+05:30
Tirunelveli,Tamil Nadu,8.7139,77.7567,34.4,39,0.0,1002.9,9.2,47.2,97,18.5,15.3,0,5,4,1,2026-03-10T16:13:11.687432+05:30
Vellore,Tamil Nadu,12.9165,79.1325,31.5,37,0.0,986.3,9.05,35.6,145,26.4,23.1,0,5,7,0,2026-03-10T16:13:11.687441+05:30
Erode,Tamil Nadu,11.341,77.7172,34.9,31,0.0,989.2,9.1,28.8,123,24.9,21.5,0,5,7,0,2026-03-10T16:13:11.687449+05:30
Kochi,Kerala,9.9312,76.2673,28.9,74,0.0,1007.6,9.05,39.2,151,53.7,43.9,7,5,4,1,2026-03-10T16:13:11.687457+05:30
Thiruvananthapuram,Kerala,8.5241,76.9366,29.0,64,0.0,1007.3,9.1,27.4,118,37.0,29.0,7,5,4,1,2026-03-10T16:13:11.687465+05:30
Kozhikode,Kerala,11.2588,75.7804,30.4,61,0.0,1007.0,8.95,24.8,123,60.5,46.8,3,5,4,1,2026-03-10T16:13:11.687474+05:30
Thrissur,Kerala,10.5276,76.2144,32.7,53,0.0,1006.2,9.0,37.4,141,26.8,21.1,0,5,4,1,2026-03-10T16:13:11.687482+05:30
Kannur,Kerala,11.8745,75.3704,30.7,58,0.0,1006.6,8.95,39.2,100,50.3,40.9,0,5,4,1,2026-03-10T16:13:11.687491+05:30
Patna,Bihar,25.5941,85.1376,30.7,54,0.0,1004.3,7.4,24.5,173,92.0,81.3,0,5,4,1,2026-03-10T16:13:11.687499+05:30
Gaya,Bihar,24.7914,85.0002,29.8,62,0.0,997.5,7.5,15.5,171,78.0,67.5,7,5,7,1,2026-03-10T16:13:11.687507+05:30
Muzaffarpur,Bihar,26.1209,85.3647,31.2,50,0.0,1004.2,7.35,22.0,175,97.6,85.7,0,5,4,1,2026-03-10T16:13:11.687515+05:30
Bhagalpur,Bihar,25.2425,87.0117,30.8,51,0.0,1004.8,7.4,17.6,164,87.1,73.1,0,5,4,1,2026-03-10T16:13:11.687522+05:30
Ranchi,Jharkhand,23.3441,85.3096,27.9,53,0.0,940.9,8.15,29.5,160,89.6,64.0,4,5,7,1,2026-03-10T16:13:11.687530+05:30
Jamshedpur,Jharkhand,22.8046,86.2029,32.0,49,0.0,993.5,8.05,31.0,133,85.4,71.2,0,5,7,1,2026-03-10T16:13:11.687538+05:30
Dhanbad,Jharkhand,23.7957,86.4304,29.6,55,0.0,983.3,7.55,20.9,168,105.7,92.4,4,5,7,1,2026-03-10T16:13:11.687546+05:30
Bokaro,Jharkhand,23.6693,86.1511,30.1,53,0.0,987.2,7.95,20.5,174,110.4,97.3,0,5,7,1,2026-03-10T16:13:11.687554+05:30
Bhubaneswar,Odisha,20.2961,85.8245,31.2,52,0.0,1005.5,8.35,32.4,108,55.4,44.7,0,5,4,1,2026-03-10T16:13:11.687562+05:30
Cuttack,Odisha,20.4625,85.8828,33.1,49,0.0,1007.0,8.35,29.2,108,55.4,44.7,0,5,4,1,2026-03-10T16:13:11.687570+05:30
Rourkela,Odisha,22.2604,84.8536,34.3,34,0.0,986.9,7.95,26.3,158,81.5,56.9,0,5,7,1,2026-03-10T16:13:11.687577+05:30
Raipur,Chhattisgarh,21.2514,81.6296,36.5,21,0.0,977.0,8.05,17.3,155,66.8,41.2,0,5,10,0,2026-03-10T16:13:11.687585+05:30
Bhilai,Chhattisgarh,21.1938,81.3509,37.0,20,0.0,977.2,8.05,13.7,151,63.3,37.1,0,5,10,0,2026-03-10T16:13:11.687593+05:30
Guwahati,Assam,26.1158,91.7086,30.2,57,0.0,1004.6,7.3,11.5,154,76.6,67.1,0,5,4,1,2026-03-10T16:13:11.687601+05:30
Agartala,Tripura,23.8315,91.2868,29.9,55,0.0,1009.2,7.7,14.4,169,78.0,64.5,4,0,4,1,2026-03-10T16:13:11.687609+05:30
Shillong,Meghalaya,25.5788,91.8933,16.8,71,0.0,859.7,6.75,18.4,152,54.1,48.4,3,5,7,0,2026-03-10T16:13:11.687618+05:30
Imphal,Manipur,24.817,93.9368,23.0,57,0.0,926.1,6.35,30.6,154,50.3,45.8,0,5,7,0,2026-03-10T16:13:11.687626+05:30
Aizawl,Mizoram,23.7271,92.7176,24.2,49,0.0,896.1,7.85,27.7,151,55.1,44.5,0,5,7,0,2026-03-10T16:13:11.687635+05:30
Kohima,Nagaland,25.6701,94.1077,17.3,85,0.0,858.0,6.8,50.0,140,50.3,45.9,3,10,7,0,2026-03-10T16:13:11.687643+05:30
Gangtok,Sikkim,27.3314,88.6138,20.5,52,0.0,842.2,6.25,18.7,151,66.6,55.4,0,5,7,0,2026-03-10T16:13:11.687649+05:30
Siliguri,West Bengal,26.7271,88.3953,27.2,53,0.0,997.7,7.35,21.2,164,74.5,62.4,4,5,7,1,2026-03-10T16:13:15.024163+05:30
Durgapur,West Bengal,23.5204,87.3119,27.7,70,0.0,999.0,7.8,19.4,156,86.4,73.6,7,5,7,1,2026-03-10T16:13:15.024196+05:30
Asansol,West Bengal,23.6739,86.9524,29.1,64,0.0,997.3,7.9,19.1,160,96.9,83.1,7,5,7,1,2026-03-10T16:13:15.024207+05:30
Pondicherry,Puducherry,11.9139,79.8145,30.7,58,0.0,1010.7,8.95,37.8,82,20.7,15.0,0,0,4,1,2026-03-10T16:13:15.024216+05:30
Port Blair,Andaman and Nicobar Islands,11.6234,92.7265,29.3,68,0.0,1008.3,8.95,29.2,73,22.2,19.6,7,0,4,1,2026-03-10T16:13:15.024224+05:30
Haridwar,Uttarakhand,29.9457,78.1642,30.3,56,0.0,979.4,5.85,22.3,155,109.7,62.9,0,5,3,1,2026-03-10T16:13:15.024231+05:30
Rishikesh,Uttarakhand,30.0869,78.2676,29.4,56,0.0,972.3,5.9,23.0,152,106.2,65.4,4,5,3,1,2026-03-10T16:13:15.024239+05:30
Nainital,Uttarakhand,29.3919,79.4542,21.8,64,0.0,811.8,6.75,56.9,173,138.8,99.2,3,5,7,0,2026-03-10T16:13:15.024246+05:30
Mussoorie,Uttarakhand,30.4599,78.0664,20.6,67,0.0,808.7,6.25,38.9,142,102.4,61.0,3,5,7,0,2026-03-10T16:13:15.024254+05:30
Dharamshala,Himachal Pradesh,32.219,76.3234,24.9,53,0.0,875.2,6.45,20.5,56,28.9,11.6,0,5,7,0,2026-03-10T16:13:15.024261+05:30
Dalhousie,Himachal Pradesh,32.5387,75.971,23.0,43,0.0,810.5,6.1,18.4,89,46.4,20.3,0,5,7,0,2026-03-10T16:13:15.024269+05:30
Patiala,Punjab,30.3398,76.3869,31.6,48,0.0,983.3,5.9,14.4,170,182.5,68.0,0,5,3,1,2026-03-10T16:13:15.024276+05:30
Bhatinda,Punjab,30.211,74.9455,33.0,34,0.0,988.4,6.45,16.9,154,92.0,35.5,0,5,7,0,2026-03-10T16:13:15.024282+05:30
Rohtak,Haryana,28.8955,76.6066,33.3,30,0.0,986.7,5.35,20.2,487,283.1,56.0,0,5,3,0,2026-03-10T16:13:15.024290+05:30
Panipat,Haryana,29.3909,76.9635,31.8,43,0.0,985.5,5.9,18.0,514,334.3,68.9,0,5,3,1,2026-03-10T16:13:15.024297+05:30
Mathura,Uttar Pradesh,27.4924,77.6737,35.5,23,0.0,991.3,6.35,23.0,369,420.0,70.3,0,5,10,0,2026-03-10T16:13:15.024303+05:30
Vrindavan,Uttar Pradesh,27.5823,77.7027,35.1,28,0.0,991.7,6.3,24.1,369,420.0,70.3,0,5,10,0,2026-03-10T16:13:15.024310+05:30
Ayodhya,Uttar Pradesh,26.7922,82.1998,31.4,50,0.0,999.6,6.75,19.4,190,115.0,99.0,0,5,7,1,2026-03-10T16:13:15.024316+05:30
Ratlam,Madhya Pradesh,23.3315,75.0367,36.3,16,0.0,958.1,7.55,18.7,78,15.4,7.2,0,5,10,0,2026-03-10T16:13:15.024323+05:30
Sagar,Madhya Pradesh,23.8388,78.7378,35.3,20,0.0,954.0,7.5,21.2,86,31.0,12.6,0,5,10,0,2026-03-10T16:13:15.024329+05:30
Satna,Madhya Pradesh,24.6005,80.8322,35.3,26,0.0,974.7,7.5,24.5,135,79.6,34.0,0,5,10,0,2026-03-10T16:13:15.024336+05:30
Akola,Maharashtra,20.7002,77.0082,38.6,16,0.0,976.8,8.0,16.9,86,14.8,9.3,0,5,10,0,2026-03-10T16:13:15.024343+05:30
Amravati,Maharashtra,20.9374,77.7796,38.1,15,0.0,969.5,7.95,19.1,75,13.4,7.5,0,5,10,0,2026-03-10T16:13:15.024351+05:30
Latur,Maharashtra,18.4088,76.5604,34.6,23,0.0,942.1,8.4,27.0,124,37.8,30.3,0,5,7,0,2026-03-10T16:13:15.024357+05:30
Nanded,Maharashtra,19.1383,77.3091,37.1,23,0.0,970.4,8.2,19.4,123,29.3,22.4,0,5,10,0,2026-03-10T16:13:15.024364+05:30
Gulbarga,Karnataka,17.3297,76.8343,35.9,26,0.0,960.1,8.5,30.6,115,54.8,44.7,0,5,10,0,2026-03-10T16:13:15.024370+05:30
Bidar,Karnataka,17.9104,77.5199,34.6,24,0.0,937.7,8.45,33.1,126,46.9,37.6,0,5,7,0,2026-03-10T16:13:15.024376+05:30
Hospet,Karnataka,15.2689,76.3909,34.3,26,0.0,956.9,8.8,36.0,118,53.1,42.7,0,5,7,0,2026-03-10T16:13:15.024382+05:30
Tirupur,Tamil Nadu,11.1085,77.3411,34.2,29,0.0,975.7,9.25,42.5,129,29.3,24.6,0,5,7,0,2026-03-10T16:13:15.024389+05:30
Alappuzha,Kerala,9.4981,76.3388,29.0,73,0.0,1007.9,9.05,33.5,151,57.4,45.5,7,5,4,1,2026-03-10T16:13:15.024395+05:30
Munnar,Kerala,10.0889,77.0595,29.6,33,0.0,858.9,9.55,33.8,110,19.6,16.6,4,5,7,0,2026-03-10T16:13:15.024402+05:30
Silchar,Assam,24.8333,92.7789,30.3,52,0.0,1007.6,7.65,14.0,167,69.6,61.2,0,5,4,1,2026-03-10T16:13:15.024409+05:30
Dibrugarh,Assam,27.4728,94.912,30.3,53,0.0,997.6,7.4,14.4,164,82.0,70.1,0,5,7,1,2026-03-10T16:13:15.024415+05:30
