city,state,latitude,longitude,temp,humidity,rain,pressure,uv_index,wind_gusts,aqi,pm10,pm2_5,no2,co,o3,so2,mosquito_risk,arthritis_risk,migraine_risk,frizz_risk,updated_at
Delhi,Delhi,28.6139,77.209,31.5,47,0.0,976.4,7.7,40.0,192,163.4,101.0,56.5,703.0,59.0,39.7,0,5,7,1,2026-05-15T01:19:52.993452+05:30
Mumbai,Maharashtra,19.076,72.8777,29.5,79,0.0,1004.4,7.9,47.9,74,23.6,14.9,5.8,276.0,68.0,3.9,7,5,4,1,2026-05-15T01:19:52.993489+05:30
Bangalore,Karnataka,12.9716,77.5946,25.5,57,0.0,908.0,9.45,40.0,90,49.9,33.2,46.0,536.0,38.0,11.8,4,5,7,1,2026-05-15T01:19:52.993502+05:30
Hyderabad,Telangana,17.385,78.4867,29.9,54,0.0,949.0,7.1,32.4,99,30.6,24.4,11.4,353.0,83.0,8.0,4,5,7,1,2026-05-15T01:19:52.993509+05:30
Chennai,Tamil Nadu,13.0827,80.2707,29.2,82,0.0,1001.8,8.3,36.7,28,10.0,6.8,9.3,163.0,37.0,7.0,7,5,4,1,2026-05-15T01:19:52.993516+05:30
Kolkata,West Bengal,22.5726,88.3639,28.0,85,0.0,1001.1,9.0,36.4,53,9.9,7.8,5.8,184.0,34.0,3.1,7,5,4,1,2026-05-15T01:19:52.993522+05:30
Pune,Maharashtra,18.5204,73.8567,26.9,54,0.0,944.4,8.5,43.6,99,26.0,19.0,18.1,226.0,70.0,21.9,4,5,7,1,2026-05-15T01:19:52.993527+05:30
Ahmedabad,Gujarat,23.0225,72.5714,32.5,45,0.0,996.7,8.15,35.6,53,12.7,10.2,4.1,169.0,71.0,2.6,0,5,7,1,2026-05-15T01:19:52.993533+05:30
Jaipur,Rajasthan,26.9124,75.7873,31.7,30,0.0,953.7,8.25,34.9,127,130.4,61.2,41.8,210.0,43.0,17.2,0,5,7,0,2026-05-15T01:19:52.993541+05:30
Lucknow,Uttar Pradesh,26.8467,80.9462,28.9,65,0.0,987.2,8.2,30.2,157,180.7,112.5,61.0,783.0,35.0,28.2,7,5,7,1,2026-05-15T01:19:52.993546+05:30
Kanpur,Uttar Pradesh,26.4499,80.3319,30.3,58,0.0,985.0,8.2,43.6,159,183.0,85.0,29.4,588.0,60.0,15.7,0,5,7,1,2026-05-15T01:19:52.993552+05:30
Chandigarh,Chandigarh,30.7333,76.7794,23.1,63,0.0,961.8,7.65,27.7,95,40.5,33.2,21.7,539.0,76.0,12.5,3,5,7,0,2026-05-15T01:19:52.993557+05:30
Srinagar,Jammu and Kashmir,34.0837,74.7973,12.2,92,0.0,839.2,8.0,36.0,68,46.1,42.6,36.9,955.0,31.0,1.0,3,10,7,0,2026-05-15T01:19:52.993562+05:30
Jammu,Jammu and Kashmir,32.7266,74.857,23.7,56,0.0,967.0,8.45,27.4,75,37.7,33.6,37.1,602.0,22.0,4.4,0,5,7,0,2026-05-15T01:19:52.993567+05:30
Amritsar,Punjab,31.634,74.8723,25.2,56,0.0,974.0,8.35,40.3,114,62.4,44.6,17.0,577.0,82.0,8.2,4,5,7,0,2026-05-15T01:19:52.993572+05:30
Ludhiana,Punjab,30.901,75.8573,27.4,37,0.0,972.9,7.2,41.4,135,46.7,36.8,15.5,441.0,77.0,7.3,4,5,7,0,2026-05-15T01:19:52.993576+05:30
Jalandhar,Punjab,31.326,75.5762,27.1,38,0.0,973.4,8.05,34.9,117,64.3,37.7,15.2,524.0,81.0,7.0,4,5,7,0,2026-05-15T01:19:52.993581+05:30
Dehradun,Uttarakhand,30.6284,78.0322,14.1,65,0.0,823.9,7.6,44.6,79,36.9,26.7,35.8,324.0,48.0,3.3,3,5,7,0,2026-05-15T01:19:52.993586+05:30
Shimla,Himachal Pradesh,31.1048,77.1734,12.2,44,0.0,778.7,7.35,47.5,80,37.3,23.9,24.8,297.0,81.0,5.3,0,5,7,0,2026-05-15T01:19:52.993593+05:30
Manali,Himachal Pradesh,32.2396,77.1887,9.6,71,0.0,812.5,9.4,42.8,44,11.1,7.2,50.9,264.0,61.0,0.0,3,5,7,0,2026-05-15T01:19:52.993600+05:30
Gurgaon,Haryana,28.4595,77.0266,30.8,38,0.0,974.9,7.8,38.2,746,442.4,139.7,38.5,921.0,84.0,37.6,0,5,7,0,2026-05-15T01:19:52.993605+05:30
Noida,Uttar Pradesh,28.5355,77.391,29.0,62,0.0,977.7,7.7,39.2,746,442.4,139.7,38.5,1047.0,84.0,37.6,7,5,7,1,2026-05-15T01:19:52.993610+05:30
Ghaziabad,Uttar Pradesh,28.6692,77.4538,27.2,74,0.0,975.9,7.7,48.6,180,148.1,106.9,38.0,741.0,69.0,25.4,7,5,7,1,2026-05-15T01:19:52.993615+05:30
Faridabad,Haryana,28.4089,77.3178,30.8,51,0.0,977.1,7.75,42.8,746,442.4,139.7,38.5,788.0,84.0,37.6,0,5,7,1,2026-05-15T01:19:52.993620+05:30
Meerut,Uttar Pradesh,28.9845,77.7064,28.8,62,0.0,974.8,7.6,60.8,180,148.1,106.9,38.0,770.0,69.0,25.4,7,5,7,1,2026-05-15T01:19:52.993625+05:30
Agra,Uttar Pradesh,27.1767,78.0081,29.6,54,0.0,981.1,8.05,31.0,381,666.8,143.9,13.7,589.0,92.0,16.8,4,5,7,1,2026-05-15T01:19:52.993630+05:30
Varanasi,Uttar Pradesh,25.3176,82.9739,29.3,64,0.0,991.1,8.75,29.5,137,88.0,70.8,27.8,633.0,73.0,18.5,7,5,7,1,2026-05-15T01:19:52.993635+05:30
Prayagraj,Uttar Pradesh,25.4358,81.8463,30.6,56,0.0,989.2,8.6,37.8,149,89.4,65.2,28.9,531.0,62.0,14.7,0,5,7,1,2026-05-15T01:19:52.993641+05:30
Gorakhpur,Uttar Pradesh,26.7606,83.3732,26.5,75,0.0,991.8,8.6,30.2,119,66.4,56.3,19.5,513.0,83.0,13.0,7,5,7,1,2026-05-15T01:19:52.993649+05:30
Bareilly,Uttar Pradesh,28.367,79.4304,25.7,77,0.0,980.1,8.0,34.6,155,127.1,91.5,39.2,692.0,65.0,21.1,7,5,7,1,2026-05-15T01:19:52.993653+05:30
Aligarh,Uttar Pradesh,27.8974,78.088,28.1,71,0.0,978.7,7.85,32.0,350,260.8,100.8,18.1,692.0,93.0,19.8,7,5,7,1,2026-05-15T01:19:52.993658+05:30
Moradabad,Uttar Pradesh,28.8386,78.7733,26.1,78,0.0,976.9,7.8,33.8,163,172.8,146.2,73.8,1143.0,40.0,33.7,7,5,7,1,2026-05-15T01:19:52.993663+05:30
Saharanpur,Uttar Pradesh,29.9637,77.546,25.0,77,0.0,968.8,7.25,39.2,151,126.7,102.7,58.9,728.0,36.0,23.0,7,5,7,1,2026-05-15T01:19:52.993667+05:30
Jhansi,Uttar Pradesh,25.4484,78.5685,31.4,41,0.0,970.6,8.5,25.2,113,99.7,39.5,8.7,423.0,65.0,6.7,0,5,7,1,2026-05-15T01:19:56.328286+05:30
Surat,Gujarat,21.1702,72.8311,30.4,70,0.0,1001.3,7.75,42.1,86,31.1,26.4,37.2,371.0,36.0,47.5,3,5,4,1,2026-05-15T01:19:56.328340+05:30
Vadodara,Gujarat,22.3072,73.1812,32.5,33,0.0,998.9,8.1,34.2,67,17.8,13.4,10.1,268.0,69.0,9.2,0,5,7,0,2026-05-15T01:19:56.328349+05:30
Rajkot,Gujarat,22.3039,70.8022,27.4,84,0.0,990.1,7.75,45.4,48,10.1,7.4,7.3,133.0,43.0,7.0,7,5,7,1,2026-05-15T01:19:56.328356+05:30
Thane,Maharashtra,19.2183,72.9781,29.6,76,0.0,1003.7,7.85,42.5,74,23.6,14.9,5.8,256.0,68.0,3.9,7,5,4,1,2026-05-15T01:19:56.328363+05:30
Nagpur,Maharashtra,21.1458,79.0882,34.0,36,0.0,966.7,9.0,41.4,114,78.2,58.2,35.8,319.0,64.0,23.5,0,5,7,1,2026-05-15T01:19:56.328369+05:30
Nashik,Maharashtra,19.9975,73.7898,26.8,56,0.0,941.7,8.15,45.0,63,17.1,12.1,7.4,206.0,60.0,2.1,4,5,7,1,2026-05-15T01:19:56.328375+05:30
Aurangabad,Maharashtra,19.8762,75.3433,31.5,32,0.0,939.6,8.15,40.3,77,32.9,21.2,7.8,207.0,114.0,9.8,0,5,7,0,2026-05-15T01:19:56.328380+05:30
Solapur,Maharashtra,17.6599,75.9064,30.5,49,0.0,952.8,8.55,37.8,110,50.1,37.6,11.2,316.0,96.0,6.1,0,5,7,1,2026-05-15T01:19:56.328387+05:30
Kolhapur,Maharashtra,16.705,74.2433,24.9,90,0.0,944.1,8.15,43.9,83,26.9,19.2,9.3,238.0,70.0,5.1,3,5,7,1,2026-05-15T01:19:56.328393+05:30
Goa,Goa,15.2993,74.124,28.9,85,0.0,994.1,4.25,40.7,82,29.3,21.2,6.3,359.0,60.0,2.1,7,5,3,1,2026-05-15T01:19:56.328399+05:30
Jodhpur,Rajasthan,26.2389,73.0243,32.0,35,0.0,976.7,8.4,37.1,115,212.8,48.9,14.3,428.0,56.0,5.4,0,5,7,0,2026-05-15T01:19:56.328405+05:30
Udaipur,Rajasthan,24.5854,73.7125,30.7,25,0.0,941.4,8.85,38.2,75,23.1,11.3,2.8,140.0,72.0,2.3,0,5,7,0,2026-05-15T01:19:56.328411+05:30
Kota,Rajasthan,25.2138,75.8648,34.3,24,0.0,972.3,8.45,34.6,88,73.1,47.3,26.6,479.0,51.0,9.3,0,5,7,0,2026-05-15T01:19:56.328417+05:30
Bikaner,Rajasthan,28.0229,73.3119,28.2,64,0.0,974.8,8.35,58.0,88,88.0,36.8,3.1,295.0,83.0,3.8,7,5,7,1,2026-05-15T01:19:56.328424+05:30
Ajmer,Rajasthan,26.4499,74.6399,29.5,38,0.0,948.6,7.6,49.3,85,99.9,37.3,14.4,200.0,55.0,6.2,4,5,7,0,2026-05-15T01:19:56.328430+05:30
Gwalior,Madhya Pradesh,26.2183,78.1828,31.3,38,0.0,975.8,8.25,43.6,138,141.6,50.6,11.2,429.0,61.0,7.8,0,5,7,0,2026-05-15T01:19:56.328436+05:30
Indore,Madhya Pradesh,22.7196,75.8577,32.7,25,0.0,943.0,8.7,43.6,80,42.6,23.8,5.1,304.0,92.0,5.7,0,5,7,0,2026-05-15T01:19:56.328442+05:30
Bhopal,Madhya Pradesh,23.2599,77.4126,33.5,25,0.0,947.6,8.7,38.9,81,49.7,37.6,12.4,389.0,57.0,6.4,0,5,7,0,2026-05-15T01:19:56.328447+05:30
Jabalpur,Madhya Pradesh,23.1815,79.9864,32.0,42,0.0,955.1,8.9,35.6,98,55.2,33.1,24.5,304.0,57.0,8.1,0,5,7,1,2026-05-15T01:19:56.328452+05:30
Ujjain,Madhya Pradesh,23.1765,75.7885,32.0,29,0.0,948.2,8.65,41.8,79,43.0,23.3,4.3,278.0,88.0,5.2,0,5,7,0,2026-05-15T01:19:56.328458+05:30
Visakhapatnam,Andhra Pradesh,17.6868,83.2185,28.0,85,0.0,999.6,8.7,36.7,67,21.5,18.2,26.5,443.0,27.0,66.4,7,5,7,1,2026-05-15T01:19:56.328464+05:30
Vijayawada,Andhra Pradesh,16.5062,80.648,28.4,85,0.0,998.0,8.55,44.3,55,12.0,9.6,8.0,180.0,35.0,6.5,7,5,7,1,2026-05-15T01:19:56.328470+05:30
Guntur,Andhra Pradesh,16.3067,80.4365,28.5,83,0.0,999.1,8.65,39.2,55,13.0,9.9,7.7,174.0,34.0,6.1,7,5,7,1,2026-05-15T01:19:56.328476+05:30
Nellore,Andhra Pradesh,14.4426,79.9865,28.0,89,0.0,1000.9,8.55,38.9,32,11.2,7.1,4.6,194.0,37.0,2.7,7,5,4,1,2026-05-15T01:19:56.328482+05:30
Kurnool,Andhra Pradesh,15.8281,78.0373,32.2,48,0.0,972.2,6.6,37.8,75,25.1,18.2,4.9,223.0,84.0,4.6,0,5,7,1,2026-05-15T01:19:56.328488+05:30
Kakinada,Andhra Pradesh,16.9891,82.2475,28.8,80,0.0,1003.3,8.45,38.5,30,9.3,5.5,1.3,158.0,53.0,0.9,7,5,4,1,2026-05-15T01:19:56.328493+05:30
Tirupati,Andhra Pradesh,13.6288,79.4192,27.5,82,0.0,986.3,9.25,34.2,59,28.1,22.8,28.1,319.0,6.0,4.6,7,5,7,1,2026-05-15T01:19:56.328498+05:30
Warangal,Telangana,17.9689,79.5941,29.1,70,0.0,974.0,8.9,33.8,81,27.5,24.2,10.4,291.0,87.0,13.1,7,5,7,1,2026-05-15T01:19:56.328503+05:30
Nizamabad,Telangana,18.6725,78.0941,31.8,49,0.0,959.6,9.0,34.2,127,77.5,56.9,18.4,336.0,74.0,6.7,0,5,7,1,2026-05-15T01:19:56.328508+05:30
Mysore,Karnataka,12.2958,76.6396,23.4,94,0.0,924.5,9.1,31.3,86,29.8,23.2,13.8,287.0,72.0,3.3,3,5,7,1,2026-05-15T01:19:56.328513+05:30
Mangalore,Karnataka,12.9141,74.856,26.6,97,0.0,1002.9,8.75,51.1,79,37.6,25.2,11.5,306.0,61.0,4.0,7,5,4,1,2026-05-15T01:19:56.328518+05:30
Hubli-Dharwad,Karnataka,15.3647,75.124,25.1,96,0.0,937.5,8.05,52.2,79,21.0,15.4,12.1,233.0,48.0,2.7,7,5,7,1,2026-05-15T01:19:56.328524+05:30
Belgaum,Karnataka,15.8497,74.4977,23.9,95,0.0,922.6,8.25,39.2,85,25.8,18.9,13.3,249.0,47.0,3.0,3,5,7,1,2026-05-15T01:19:59.651778+05:30
Coimbatore,Tamil Nadu,11.0168,76.9558,24.0,89,0.0,957.0,8.6,42.5,73,20.0,14.1,8.7,239.0,73.0,3.3,3,5,7,1,2026-05-15T01:19:59.651809+05:30
Madurai,Tamil Nadu,9.9252,78.1198,28.0,87,0.1,987.9,7.7,43.9,94,34.1,28.9,29.7,834.0,42.0,6.8,10,5,7,1,2026-05-15T01:19:59.651818+05:30
Trichy,Tamil Nadu,10.7905,78.7047,27.9,86,0.0,994.4,4.4,28.1,90,27.6,24.0,17.6,298.0,65.0,5.1,7,5,3,1,2026-05-15T01:19:59.651826+05:30
Salem,Tamil Nadu,11.6643,78.146,27.4,83,0.0,972.6,9.15,29.2,111,53.3,43.2,28.9,389.0,62.0,12.7,7,5,7,1,2026-05-15T01:19:59.651832+05:30
Tirunelveli,Tamil Nadu,8.7139,77.7567,29.2,68,0.0,998.3,1.6,24.1,54,11.7,9.3,7.1,226.0,62.0,2.6,7,5,3,1,2026-05-15T01:19:59.651838+05:30
Vellore,Tamil Nadu,12.9165,79.1325,26.6,89,0.0,979.4,9.25,31.0,77,39.9,35.2,29.5,297.0,16.0,10.1,7,5,7,1,2026-05-15T01:19:59.651844+05:30
Erode,Tamil Nadu,11.341,77.7172,26.4,81,0.0,984.3,8.85,27.4,86,22.2,16.8,18.2,246.0,58.0,3.0,7,5,7,1,2026-05-15T01:19:59.651850+05:30
Kochi,Kerala,9.9312,76.2673,26.1,94,0.0,1004.9,8.65,37.8,71,20.0,16.5,20.3,353.0,37.0,7.0,7,5,4,1,2026-05-15T01:19:59.651856+05:30
Thiruvananthapuram,Kerala,8.5241,76.9366,25.5,91,0.0,1004.1,1.45,29.9,55,28.1,15.0,2.3,319.0,85.0,1.3,7,5,0,1,2026-05-15T01:19:59.651862+05:30
Kozhikode,Kerala,11.2588,75.7804,24.8,98,0.0,1004.4,8.75,43.6,73,19.7,9.6,2.1,226.0,91.0,1.5,3,5,4,1,2026-05-15T01:19:59.651867+05:30
Thrissur,Kerala,10.5276,76.2144,25.0,100,0.0,1003.5,8.6,32.8,75,19.3,16.0,15.8,369.0,44.0,6.0,7,5,4,1,2026-05-15T01:19:59.651874+05:30
Kannur,Kerala,11.8745,75.3704,25.1,96,0.0,1003.7,8.85,51.5,87,18.9,12.2,9.5,324.0,67.0,3.1,7,5,4,1,2026-05-15T01:19:59.651879+05:30
Patna,Bihar,25.5941,85.1376,26.7,81,0.0,994.9,8.8,28.8,112,60.5,47.4,18.0,564.0,87.0,17.8,7,5,7,1,2026-05-15T01:19:59.651885+05:30
Gaya,Bihar,24.7914,85.0002,27.1,71,0.0,987.6,8.9,23.0,136,61.9,51.9,14.5,483.0,101.0,17.7,7,5,7,1,2026-05-15T01:19:59.651890+05:30
Muzaffarpur,Bihar,26.1209,85.3647,25.8,82,0.0,995.3,8.8,32.4,116,70.3,55.8,22.0,531.0,75.0,16.6,7,5,7,1,2026-05-15T01:19:59.651895+05:30
Bhagalpur,Bihar,25.2425,87.0117,26.0,83,0.0,996.2,8.8,32.8,106,48.3,38.8,15.6,434.0,90.0,16.6,7,5,7,1,2026-05-15T01:19:59.651900+05:30
Ranchi,Jharkhand,23.3441,85.3096,24.6,75,0.0,932.4,9.3,38.2,95,69.8,48.8,36.8,276.0,58.0,18.7,3,5,7,1,2026-05-15T01:19:59.651905+05:30
Jamshedpur,Jharkhand,22.8046,86.2029,27.5,82,0.0,985.5,9.15,43.2,85,22.4,18.3,16.8,351.0,37.0,22.1,7,5,7,1,2026-05-15T01:19:59.651911+05:30
Dhanbad,Jharkhand,23.7957,86.4304,26.6,90,0.0,974.1,9.05,32.4,151,29.6,25.9,33.5,502.0,32.0,73.7,7,5,7,1,2026-05-15T01:19:59.651916+05:30
Bokaro,Jharkhand,23.6693,86.1511,27.4,82,0.0,977.7,9.1,33.5,150,57.5,48.4,40.1,1407.0,48.0,86.9,7,5,7,1,2026-05-15T01:19:59.651922+05:30
Bhubaneswar,Odisha,20.2961,85.8245,28.3,83,0.0,998.1,9.2,41.8,36,7.6,5.6,4.3,146.0,42.0,2.0,7,5,7,1,2026-05-15T01:19:59.651927+05:30
Cuttack,Odisha,20.4625,85.8828,28.2,84,0.0,999.9,9.25,40.7,36,7.6,5.6,4.3,163.0,42.0,2.0,7,5,7,1,2026-05-15T01:19:59.651932+05:30
Rourkela,Odisha,22.2604,84.8536,27.3,81,0.0,979.2,9.05,44.6,105,30.6,23.7,13.8,189.0,80.0,24.8,7,5,7,1,2026-05-15T01:19:59.651936+05:30
Raipur,Chhattisgarh,21.2514,81.6296,31.2,41,0.0,968.2,9.05,37.8,146,96.4,69.4,46.6,423.0,43.0,41.9,0,5,7,1,2026-05-15T01:19:59.651941+05:30
Bhilai,Chhattisgarh,21.1938,81.3509,31.4,43,0.0,968.4,9.05,43.2,132,82.2,58.3,42.4,447.0,53.0,47.9,0,5,7,1,2026-05-15T01:19:59.651946+05:30
Guwahati,Assam,26.1158,91.7086,22.4,99,0.0,998.0,8.7,23.8,55,17.1,13.5,8.5,368.0,70.0,2.5,3,5,7,1,2026-05-15T01:19:59.651951+05:30
Agartala,Tripura,23.8315,91.2868,24.8,96,0.0,1001.9,8.8,35.3,55,9.3,8.6,12.4,142.0,15.0,2.0,3,5,4,1,2026-05-15T01:19:59.651956+05:30
Shillong,Meghalaya,25.5788,91.8933,16.8,95,0.0,852.6,8.95,27.4,43,6.4,4.8,6.0,245.0,85.0,3.2,3,10,7,0,2026-05-15T01:19:59.651961+05:30
Imphal,Manipur,24.817,93.9368,21.4,89,0.0,919.5,9.2,29.2,83,23.5,20.5,22.5,522.0,35.0,4.0,3,5,7,1,2026-05-15T01:19:59.651967+05:30
Aizawl,Mizoram,23.7271,92.7176,18.0,91,0.0,888.6,8.95,37.1,40,5.0,3.9,4.3,146.0,52.0,1.7,3,10,7,1,2026-05-15T01:19:59.651973+05:30
Kohima,Nagaland,25.6701,94.1077,15.9,91,0.0,850.3,8.5,24.8,58,17.8,13.4,13.4,280.0,40.0,1.8,3,10,7,0,2026-05-15T01:19:59.651978+05:30
Gangtok,Sikkim,27.3314,88.6138,13.7,98,0.6,832.8,9.1,42.1,51,19.3,17.8,12.7,363.0,90.0,2.8,6,10,7,0,2026-05-15T01:19:59.651983+05:30
Siliguri,West Bengal,26.7271,88.3953,22.1,93,0.0,989.2,8.65,22.3,88,31.3,27.8,13.7,403.0,98.0,4.7,3,5,7,1,2026-05-15T01:20:21.573448+05:30
Durgapur,West Bengal,23.5204,87.3119,27.2,89,0.0,989.7,9.0,30.2,134,17.6,14.9,16.3,221.0,28.0,21.8,7,5,7,1,2026-05-15T01:20:21.573479+05:30
Asansol,West Bengal,23.6739,86.9524,27.2,87,0.0,988.0,9.05,37.8,133,15.0,12.6,15.6,262.0,34.0,20.4,7,5,7,1,2026-05-15T01:20:21.573488+05:30
Pondicherry,Puducherry,11.9139,79.8145,27.5,89,0.0,1002.9,9.1,30.2,51,14.1,10.1,7.0,564.0,45.0,3.8,7,5,4,1,2026-05-15T01:20:21.573496+05:30
Port Blair,Andaman and Nicobar Islands,11.6234,92.7265,25.0,97,0.3,1003.8,3.25,42.1,26,5.1,3.2,0.3,117.0,58.0,0.1,10,5,0,1,2026-05-15T01:20:21.573502+05:30
Haridwar,Uttarakhand,29.9457,78.1642,23.1,74,0.0,967.1,7.5,39.2,109,80.8,63.1,31.4,470.0,64.0,13.6,3,5,7,1,2026-05-15T01:20:21.573509+05:30
Rishikesh,Uttarakhand,30.0869,78.2676,20.3,83,0.0,959.7,7.6,36.4,125,58.3,43.9,17.4,509.0,104.0,9.5,3,5,7,1,2026-05-15T01:20:21.573514+05:30
Nainital,Uttarakhand,29.3919,79.4542,13.3,87,0.0,799.6,8.45,44.6,116,59.8,48.2,19.2,420.0,102.0,11.0,3,10,7,0,2026-05-15T01:20:21.573521+05:30
Mussoorie,Uttarakhand,30.4599,78.0664,16.4,46,0.0,798.8,7.95,58.0,118,73.8,54.7,40.7,276.0,67.0,13.0,0,5,7,0,2026-05-15T01:20:21.573526+05:30
Dharamshala,Himachal Pradesh,32.219,76.3234,21.2,38,0.0,865.2,8.35,41.4,41,17.2,12.7,16.1,219.0,37.0,0.3,0,5,7,0,2026-05-15T01:20:21.573532+05:30
Dalhousie,Himachal Pradesh,32.5387,75.971,12.7,65,0.0,799.0,8.6,46.4,63,31.1,25.9,47.8,395.0,18.0,2.2,3,5,7,0,2026-05-15T01:20:21.573539+05:30
Patiala,Punjab,30.3398,76.3869,27.3,46,0.0,971.9,7.0,36.7,155,292.4,68.0,14.4,345.0,78.0,10.1,4,5,7,0,2026-05-15T01:20:21.573545+05:30
Bhatinda,Punjab,30.211,74.9455,29.1,35,0.0,978.1,7.95,55.8,162,105.2,46.7,12.4,365.0,84.0,7.0,4,5,7,0,2026-05-15T01:20:21.573550+05:30
Rohtak,Haryana,28.8955,76.6066,28.1,56,0.0,975.0,7.7,33.1,254,246.8,109.4,38.5,296.0,81.0,34.7,4,5,7,1,2026-05-15T01:20:21.573556+05:30
Panipat,Haryana,29.3909,76.9635,27.0,64,0.0,973.7,7.55,28.8,230,233.3,111.1,35.1,345.0,63.0,19.0,7,5,7,1,2026-05-15T01:20:21.573561+05:30
Mathura,Uttar Pradesh,27.4924,77.6737,27.8,62,0.0,980.0,8.0,27.4,389,491.7,131.3,13.8,952.0,101.0,18.3,7,5,7,1,2026-05-15T01:20:21.573567+05:30
Vrindavan,Uttar Pradesh,27.5823,77.7027,27.5,65,0.0,980.4,7.95,27.0,389,491.7,131.3,13.8,893.0,101.0,18.3,7,5,7,1,2026-05-15T01:20:21.573572+05:30
Ayodhya,Uttar Pradesh,26.7922,82.1998,26.9,73,0.0,989.6,8.35,28.1,141,138.8,96.9,60.4,858.0,37.0,18.8,7,5,7,1,2026-05-15T01:20:21.573578+05:30
Ratlam,Madhya Pradesh,23.3315,75.0367,30.4,29,0.0,949.4,8.55,41.4,81,42.6,22.1,4.7,248.0,81.0,5.3,0,5,7,0,2026-05-15T01:20:21.573582+05:30
Sagar,Madhya Pradesh,23.8388,78.7378,32.1,29,0.0,943.9,8.75,37.4,73,43.1,22.3,15.8,271.0,64.0,4.1,0,5,7,0,2026-05-15T01:20:21.573588+05:30
Satna,Madhya Pradesh,24.6005,80.8322,30.4,45,0.0,964.7,8.8,29.2,106,157.9,53.9,23.1,372.0,72.0,7.8,0,5,7,1,2026-05-15T01:20:21.573593+05:30
Akola,Maharashtra,20.7002,77.0082,35.7,24,0.0,968.9,8.8,40.0,99,41.9,26.7,9.5,285.0,83.0,7.4,0,5,10,0,2026-05-15T01:20:21.573599+05:30
Amravati,Maharashtra,20.9374,77.7796,34.7,28,0.0,960.9,8.95,42.5,100,45.4,31.0,14.9,263.0,66.0,6.6,0,5,7,0,2026-05-15T01:20:21.573605+05:30
Latur,Maharashtra,18.4088,76.5604,29.6,45,0.0,935.1,9.1,35.3,107,74.7,44.0,17.9,259.0,82.0,8.7,4,5,7,1,2026-05-15T01:20:21.573610+05:30
Nanded,Maharashtra,19.1383,77.3091,32.0,44,0.0,963.1,9.05,38.5,117,100.8,62.2,43.6,349.0,33.0,10.0,0,5,7,1,2026-05-15T01:20:21.573616+05:30
Gulbarga,Karnataka,17.3297,76.8343,31.1,49,0.0,954.2,8.5,34.9,128,73.8,50.2,25.4,316.0,72.0,6.5,0,5,7,1,2026-05-15T01:20:21.573621+05:30
Bidar,Karnataka,17.9104,77.5199,29.5,52,0.0,931.0,9.15,37.8,131,69.4,50.6,18.3,312.0,79.0,5.6,4,5,7,1,2026-05-15T01:20:21.573626+05:30
Hospet,Karnataka,15.2689,76.3909,25.8,93,0.0,952.1,9.2,46.8,94,28.8,22.1,6.1,284.0,95.0,1.5,7,5,7,1,2026-05-15T01:20:21.573632+05:30
Tirupur,Tamil Nadu,11.1085,77.3411,24.9,86,0.0,970.4,8.7,29.5,84,27.5,20.5,21.0,218.0,57.0,5.1,3,5,7,1,2026-05-15T01:20:21.573637+05:30
Alappuzha,Kerala,9.4981,76.3388,26.6,95,0.0,1005.0,8.6,38.5,64,19.2,12.0,9.5,167.0,73.0,3.3,7,5,4,1,2026-05-15T01:20:21.573642+05:30
Munnar,Kerala,10.0889,77.0595,17.8,99,0.0,853.4,8.4,23.4,60,8.1,7.4,7.6,159.0,55.0,1.9,3,10,7,1,2026-05-15T01:20:21.573648+05:30
Silchar,Assam,24.8333,92.7789,23.4,96,0.2,1001.6,8.95,31.3,88,32.2,24.3,8.5,261.0,71.0,4.8,6,5,4,1,2026-05-15T01:20:21.573653+05:30
Dibrugarh,Assam,27.4728,94.912,23.8,86,0.0,991.6,7.7,28.8,83,39.5,36.9,35.6,387.0,14.0,2.8,3,5,7,1,2026-05-15T01:20:21.573658+05:30
