city,state,latitude,longitude,temp,humidity,rain,pressure,uv_index,wind_gusts,aqi,pm10,pm2_5,mosquito_risk,arthritis_risk,migraine_risk,frizz_risk,updated_at
Delhi,Delhi,28.6139,77.209,30.4,29,0.0,986.1,7.25,31.7,436,212.8,39.6,0,5,7,0,2026-04-13T11:17:22.920475+05:30
Mumbai,Maharashtra,19.076,72.8777,28.0,81,0.0,1010.1,8.0,19.8,116,89.6,49.2,7,0,4,1,2026-04-13T11:17:22.920521+05:30
Bangalore,Karnataka,12.9716,77.5946,32.1,43,0.0,914.7,9.6,31.3,94,40.5,28.9,0,5,7,1,2026-04-13T11:17:22.920552+05:30
Hyderabad,Telangana,17.385,78.4867,37.4,29,0.0,955.3,9.25,32.0,88,40.7,31.4,0,5,10,1,2026-04-13T11:17:22.920563+05:30
Chennai,Tamil Nadu,13.0827,80.2707,34.5,53,0.0,1009.2,9.35,35.3,46,19.1,11.1,0,0,4,1,2026-04-13T11:17:22.920571+05:30
Kolkata,West Bengal,22.5726,88.3639,33.1,64,0.0,1007.2,8.85,28.1,77,31.9,23.5,3,5,4,1,2026-04-13T11:17:22.920580+05:30
Pune,Maharashtra,18.5204,73.8567,36.5,21,0.0,950.9,8.6,40.0,93,42.0,21.0,0,5,10,0,2026-04-13T11:17:22.920592+05:30
Ahmedabad,Gujarat,23.0225,72.5714,37.7,19,0.0,1003.6,8.1,27.7,73,56.9,25.7,0,5,7,0,2026-04-13T11:17:22.920600+05:30
Jaipur,Rajasthan,26.9124,75.7873,32.5,25,0.0,963.4,7.9,23.8,138,553.2,66.6,0,5,7,0,2026-04-13T11:17:22.920607+05:30
Lucknow,Uttar Pradesh,26.8467,80.9462,33.6,20,0.0,995.7,7.75,40.0,112,54.2,18.7,0,5,7,0,2026-04-13T11:17:22.920615+05:30
Kanpur,Uttar Pradesh,26.4499,80.3319,31.7,30,0.0,994.7,7.75,29.9,283,209.1,32.9,0,5,7,0,2026-04-13T11:17:22.920622+05:30
Chandigarh,Chandigarh,30.7333,76.7794,29.5,38,0.0,971.3,7.2,28.1,54,16.2,8.9,4,5,7,0,2026-04-13T11:17:22.920630+05:30
Srinagar,Jammu and Kashmir,34.0837,74.7973,16.5,61,0.0,845.0,8.15,14.4,99,31.9,17.8,3,5,7,0,2026-04-13T11:17:22.920636+05:30
Jammu,Jammu and Kashmir,32.7266,74.857,29.8,39,0.0,975.1,7.4,31.7,65,25.6,13.4,4,5,7,0,2026-04-13T11:17:22.920644+05:30
Amritsar,Punjab,31.634,74.8723,29.0,42,0.0,983.9,7.8,22.3,72,21.4,14.1,4,5,7,0,2026-04-13T11:17:22.920650+05:30
Ludhiana,Punjab,30.901,75.8573,30.1,34,0.0,981.7,7.45,26.3,66,15.1,11.4,0,5,7,0,2026-04-13T11:17:22.920657+05:30
Jalandhar,Punjab,31.326,75.5762,29.4,40,0.0,982.8,7.6,24.5,74,24.3,12.0,4,5,7,0,2026-04-13T11:17:22.920665+05:30
Dehradun,Uttarakhand,30.6284,78.0322,20.7,41,0.0,832.7,7.5,30.2,45,15.7,6.1,0,5,7,0,2026-04-13T11:17:22.920672+05:30
Shimla,Himachal Pradesh,31.1048,77.1734,19.0,49,0.0,787.8,7.7,36.7,48,19.4,6.3,0,5,7,0,2026-04-13T11:17:22.920679+05:30
Manali,Himachal Pradesh,32.2396,77.1887,22.3,22,0.0,823.0,9.65,28.1,98,10.3,5.3,0,5,7,1,2026-04-13T11:17:22.920685+05:30
Gurgaon,Haryana,28.4595,77.0266,30.4,33,0.0,984.7,7.35,25.9,1121,765.5,87.3,0,5,7,0,2026-04-13T11:17:22.920692+05:30
Noida,Uttar Pradesh,28.5355,77.391,30.9,29,0.0,987.6,7.3,32.0,1121,765.5,87.3,0,5,7,0,2026-04-13T11:17:22.920699+05:30
Ghaziabad,Uttar Pradesh,28.6692,77.4538,30.1,33,0.0,985.7,7.25,31.7,203,156.0,31.0,0,5,7,0,2026-04-13T11:17:22.920708+05:30
Faridabad,Haryana,28.4089,77.3178,31.3,29,0.0,987.0,7.3,29.2,1121,765.5,87.3,0,5,7,0,2026-04-13T11:17:22.920715+05:30
Meerut,Uttar Pradesh,28.9845,77.7064,30.2,34,0.0,984.1,7.15,34.6,203,156.0,31.0,0,5,7,0,2026-04-13T11:17:22.920721+05:30
Agra,Uttar Pradesh,27.1767,78.0081,32.2,29,0.0,991.1,7.65,25.2,929,314.8,53.1,0,5,7,0,2026-04-13T11:17:22.920727+05:30
Varanasi,Uttar Pradesh,25.3176,82.9739,35.5,24,0.0,999.8,8.35,36.4,97,270.1,44.5,0,5,10,0,2026-04-13T11:17:22.920736+05:30
Prayagraj,Uttar Pradesh,25.4358,81.8463,34.7,24,0.0,998.8,8.25,36.4,94,373.5,52.0,0,5,7,0,2026-04-13T11:17:22.920743+05:30
Gorakhpur,Uttar Pradesh,26.7606,83.3732,34.4,25,0.0,998.8,8.15,24.5,82,142.5,28.3,0,5,7,0,2026-04-13T11:17:22.920750+05:30
Bareilly,Uttar Pradesh,28.367,79.4304,31.7,28,0.0,988.9,7.5,36.7,69,18.0,13.5,0,5,7,0,2026-04-13T11:17:22.920756+05:30
Aligarh,Uttar Pradesh,27.8974,78.088,32.4,26,0.0,988.6,7.45,33.8,641,400.5,51.7,0,5,7,0,2026-04-13T11:17:22.920762+05:30
Moradabad,Uttar Pradesh,28.8386,78.7733,30.8,30,0.0,985.8,7.35,34.6,80,22.6,14.3,0,5,7,0,2026-04-13T11:17:22.920768+05:30
Saharanpur,Uttar Pradesh,29.9637,77.546,29.5,36,0.0,978.1,6.95,29.9,72,32.9,16.6,4,5,7,0,2026-04-13T11:17:22.920774+05:30
Jhansi,Uttar Pradesh,25.4484,78.5685,34.6,22,0.0,981.1,8.15,26.6,138,657.5,83.4,0,5,7,0,2026-04-13T11:17:26.140858+05:30
Surat,Gujarat,21.1702,72.8311,31.0,73,0.0,1008.4,7.8,25.9,136,83.6,64.0,3,0,4,1,2026-04-13T11:17:26.140891+05:30
Vadodara,Gujarat,22.3072,73.1812,36.8,31,0.0,1005.6,8.05,23.4,131,50.4,35.0,0,5,7,1,2026-04-13T11:17:26.140901+05:30
Rajkot,Gujarat,22.3039,70.8022,35.6,29,0.0,996.5,7.8,37.1,73,85.7,26.7,0,5,10,0,2026-04-13T11:17:26.140909+05:30
Thane,Maharashtra,19.2183,72.9781,32.9,55,0.0,1009.5,8.0,33.1,116,89.6,49.2,0,0,4,1,2026-04-13T11:17:26.140916+05:30
Nagpur,Maharashtra,21.1458,79.0882,34.8,34,0.0,975.1,8.8,25.2,102,80.6,43.7,0,5,7,1,2026-04-13T11:17:26.140922+05:30
Nashik,Maharashtra,19.9975,73.7898,33.9,29,0.0,948.1,8.25,33.8,94,42.5,18.2,0,5,7,0,2026-04-13T11:17:26.140929+05:30
Aurangabad,Maharashtra,19.8762,75.3433,36.6,23,0.0,946.4,8.95,31.0,84,42.5,24.6,0,5,10,0,2026-04-13T11:17:26.140935+05:30
Solapur,Maharashtra,17.6599,75.9064,37.6,26,0.0,959.0,9.05,30.2,98,41.1,29.5,0,5,10,0,2026-04-13T11:17:26.140942+05:30
Kolhapur,Maharashtra,16.705,74.2433,32.2,44,0.0,950.6,9.05,43.9,93,45.5,29.2,0,5,7,1,2026-04-13T11:17:26.140948+05:30
Goa,Goa,15.2993,74.124,30.9,70,0.0,1000.3,9.0,29.5,95,44.9,28.3,3,5,4,1,2026-04-13T11:17:26.140955+05:30
Jodhpur,Rajasthan,26.2389,73.0243,34.9,25,0.0,985.4,8.15,26.3,56,30.6,9.2,0,5,7,0,2026-04-13T11:17:26.140961+05:30
Udaipur,Rajasthan,24.5854,73.7125,34.1,18,0.0,949.4,8.65,26.3,46,65.0,11.5,0,5,7,0,2026-04-13T11:17:26.140967+05:30
Kota,Rajasthan,25.2138,75.8648,33.5,33,0.0,981.6,8.15,18.4,78,229.1,34.7,0,5,7,0,2026-04-13T11:17:26.140973+05:30
Bikaner,Rajasthan,28.0229,73.3119,34.6,23,0.0,984.2,7.95,19.4,50,157.9,26.5,0,5,7,0,2026-04-13T11:17:26.140980+05:30
Ajmer,Rajasthan,26.4499,74.6399,33.7,24,0.0,957.4,8.1,31.3,60,91.3,19.0,0,5,7,0,2026-04-13T11:17:26.140987+05:30
Gwalior,Madhya Pradesh,26.2183,78.1828,33.4,25,0.0,986.5,7.9,30.6,294,391.2,63.8,0,5,7,0,2026-04-13T11:17:26.140993+05:30
Indore,Madhya Pradesh,22.7196,75.8577,34.4,28,0.0,950.6,8.55,31.3,78,49.5,18.6,0,5,7,0,2026-04-13T11:17:26.140999+05:30
Bhopal,Madhya Pradesh,23.2599,77.4126,35.0,24,0.0,956.5,8.55,22.3,67,156.0,30.6,0,5,7,0,2026-04-13T11:17:26.141006+05:30
Jabalpur,Madhya Pradesh,23.1815,79.9864,34.4,27,0.0,964.2,8.65,27.4,70,265.4,44.2,0,5,7,0,2026-04-13T11:17:26.141012+05:30
Ujjain,Madhya Pradesh,23.1765,75.7885,34.4,30,0.0,956.2,8.45,29.2,90,50.3,21.1,0,5,7,0,2026-04-13T11:17:26.141018+05:30
Visakhapatnam,Andhra Pradesh,17.6868,83.2185,33.9,53,0.0,1005.4,9.15,42.1,72,42.0,24.6,0,5,4,1,2026-04-13T11:17:26.141024+05:30
Vijayawada,Andhra Pradesh,16.5062,80.648,34.3,55,0.0,1004.3,9.2,31.0,60,35.2,18.3,0,5,4,1,2026-04-13T11:17:26.141030+05:30
Guntur,Andhra Pradesh,16.3067,80.4365,34.4,54,0.0,1005.5,9.2,32.4,61,33.2,19.1,0,5,4,1,2026-04-13T11:17:26.141036+05:30
Nellore,Andhra Pradesh,14.4426,79.9865,36.2,41,0.0,1007.3,9.3,35.6,57,23.2,15.5,0,5,7,1,2026-04-13T11:17:26.141043+05:30
Kurnool,Andhra Pradesh,15.8281,78.0373,38.5,31,0.0,978.2,9.2,26.6,85,41.9,33.1,0,5,10,1,2026-04-13T11:17:26.141051+05:30
Kakinada,Andhra Pradesh,16.9891,82.2475,34.8,55,0.0,1008.9,9.2,34.6,57,36.7,17.1,0,0,4,1,2026-04-13T11:17:26.141057+05:30
Tirupati,Andhra Pradesh,13.6288,79.4192,35.4,37,0.0,993.7,9.4,31.0,70,22.7,17.0,0,5,10,1,2026-04-13T11:17:26.141064+05:30
Warangal,Telangana,17.9689,79.5941,35.9,43,0.0,980.4,9.1,33.8,82,31.3,23.2,0,5,10,1,2026-04-13T11:17:26.141070+05:30
Nizamabad,Telangana,18.6725,78.0941,37.6,34,0.0,966.3,9.05,32.0,108,42.7,35.5,0,5,10,1,2026-04-13T11:17:26.141076+05:30
Mysore,Karnataka,12.2958,76.6396,32.6,42,0.0,931.1,9.5,46.1,96,43.2,28.9,0,5,7,1,2026-04-13T11:17:26.141082+05:30
Mangalore,Karnataka,12.9141,74.856,29.5,84,0.0,1008.5,9.15,23.4,101,66.6,36.3,7,0,4,1,2026-04-13T11:17:26.141088+05:30
Hubli-Dharwad,Karnataka,15.3647,75.124,29.1,60,0.0,943.8,9.25,36.4,88,41.9,30.7,4,5,7,1,2026-04-13T11:17:26.141094+05:30
Belgaum,Karnataka,15.8497,74.4977,32.3,37,0.0,928.9,9.3,37.8,93,36.1,22.3,0,5,7,0,2026-04-13T11:17:29.366445+05:30
Coimbatore,Tamil Nadu,11.0168,76.9558,34.0,47,0.0,964.0,9.45,36.4,94,41.8,29.5,0,5,7,1,2026-04-13T11:17:29.366477+05:30
Madurai,Tamil Nadu,9.9252,78.1198,34.8,42,0.0,994.7,9.25,40.0,81,28.4,20.8,0,5,7,1,2026-04-13T11:17:29.366487+05:30
Trichy,Tamil Nadu,10.7905,78.7047,34.6,42,0.0,1001.6,9.35,27.4,56,23.2,15.5,0,5,4,1,2026-04-13T11:17:29.366495+05:30
Salem,Tamil Nadu,11.6643,78.146,34.1,47,0.0,979.5,9.45,17.6,74,22.9,15.0,0,5,7,1,2026-04-13T11:17:29.366503+05:30
Tirunelveli,Tamil Nadu,8.7139,77.7567,36.0,40,0.0,1004.5,8.7,47.9,83,36.6,23.6,0,5,7,1,2026-04-13T11:17:29.366510+05:30
Vellore,Tamil Nadu,12.9165,79.1325,35.2,36,0.0,986.6,9.45,31.3,89,23.6,17.6,0,5,10,1,2026-04-13T11:17:29.366517+05:30
Erode,Tamil Nadu,11.341,77.7172,35.5,46,0.0,990.7,9.4,26.3,62,22.4,16.4,0,5,10,1,2026-04-13T11:17:29.366557+05:30
Kochi,Kerala,9.9312,76.2673,29.3,80,0.0,1010.0,9.15,29.9,102,42.1,26.1,7,0,4,1,2026-04-13T11:17:29.366568+05:30
Thiruvananthapuram,Kerala,8.5241,76.9366,28.8,83,0.0,1009.2,9.1,29.2,86,46.3,28.2,7,0,4,1,2026-04-13T11:17:29.366575+05:30
Kozhikode,Kerala,11.2588,75.7804,31.4,71,0.0,1009.3,9.15,30.2,96,59.0,32.0,3,0,4,1,2026-04-13T11:17:29.366582+05:30
Thrissur,Kerala,10.5276,76.2144,33.9,59,0.0,1008.3,9.15,37.8,93,43.2,24.7,0,0,4,1,2026-04-13T11:17:29.366589+05:30
Kannur,Kerala,11.8745,75.3704,32.9,59,0.0,1008.7,9.15,33.5,111,65.2,35.7,0,0,4,1,2026-04-13T11:17:29.366596+05:30
Patna,Bihar,25.5941,85.1376,35.0,28,0.0,1001.7,8.5,32.0,104,89.4,31.2,0,5,4,0,2026-04-13T11:17:29.366603+05:30
Gaya,Bihar,24.7914,85.0002,33.9,35,0.0,995.6,8.6,23.4,100,137.8,33.5,0,5,7,1,2026-04-13T11:17:29.366610+05:30
Muzaffarpur,Bihar,26.1209,85.3647,33.9,37,0.0,1001.8,8.45,23.0,111,73.3,41.2,0,5,4,1,2026-04-13T11:17:29.366616+05:30
Bhagalpur,Bihar,25.2425,87.0117,31.3,58,0.0,1002.5,8.5,16.6,142,91.7,49.4,0,5,4,1,2026-04-13T11:17:29.366622+05:30
Ranchi,Jharkhand,23.3441,85.3096,32.5,28,0.0,940.2,9.1,22.0,67,84.3,24.1,0,5,7,0,2026-04-13T11:17:29.366628+05:30
Jamshedpur,Jharkhand,22.8046,86.2029,33.8,45,0.0,992.1,8.95,16.9,78,49.1,34.3,0,5,7,1,2026-04-13T11:17:29.366635+05:30
Dhanbad,Jharkhand,23.7957,86.4304,36.1,25,0.0,981.1,8.9,21.6,151,100.1,41.7,0,5,10,0,2026-04-13T11:17:29.366642+05:30
Bokaro,Jharkhand,23.6693,86.1511,35.0,29,0.0,985.2,8.9,16.6,140,102.0,39.7,0,5,7,0,2026-04-13T11:17:29.366648+05:30
Bhubaneswar,Odisha,20.2961,85.8245,32.8,66,0.0,1003.9,9.05,34.6,66,34.6,25.9,3,5,4,1,2026-04-13T11:17:29.366655+05:30
Cuttack,Odisha,20.4625,85.8828,34.8,56,0.0,1005.5,9.1,33.5,66,34.6,25.9,0,5,4,1,2026-04-13T11:17:29.366660+05:30
Rourkela,Odisha,22.2604,84.8536,35.1,46,0.0,986.3,8.85,24.5,86,47.4,35.2,0,5,10,1,2026-04-13T11:17:29.366666+05:30
Raipur,Chhattisgarh,21.2514,81.6296,37.2,38,0.0,976.1,8.9,34.2,117,51.3,43.3,0,5,10,1,2026-04-13T11:17:29.366672+05:30
Bhilai,Chhattisgarh,21.1938,81.3509,37.1,40,0.0,976.3,8.9,32.8,117,48.4,40.0,0,5,10,1,2026-04-13T11:17:29.366678+05:30
Guwahati,Assam,26.1158,91.7086,27.2,70,0.0,1003.4,8.4,40.3,141,71.7,45.4,7,5,4,1,2026-04-13T11:17:29.366683+05:30
Agartala,Tripura,23.8315,91.2868,31.6,66,0.0,1007.6,8.65,32.0,85,39.2,24.0,3,5,4,1,2026-04-13T11:17:29.366689+05:30
Shillong,Meghalaya,25.5788,91.8933,19.9,63,0.0,858.8,8.8,75.2,120,64.7,34.9,3,5,7,0,2026-04-13T11:17:29.366695+05:30
Imphal,Manipur,24.817,93.9368,21.7,70,0.0,925.9,8.4,79.2,117,76.6,31.3,3,5,7,0,2026-04-13T11:17:29.366701+05:30
Aizawl,Mizoram,23.7271,92.7176,27.1,43,0.0,896.4,8.9,46.8,98,65.4,25.3,4,5,7,0,2026-04-13T11:17:29.366707+05:30
Kohima,Nagaland,25.6701,94.1077,19.6,67,0.0,857.5,8.95,107.6,100,63.8,26.1,3,5,7,0,2026-04-13T11:17:29.366712+05:30
Gangtok,Sikkim,27.3314,88.6138,18.6,65,0.0,839.7,8.65,14.4,111,85.7,34.1,3,5,7,0,2026-04-13T11:17:29.366718+05:30
Siliguri,West Bengal,26.7271,88.3953,25.4,61,0.0,995.9,8.3,25.9,149,119.2,46.6,7,5,7,1,2026-04-13T11:17:32.587357+05:30
Durgapur,West Bengal,23.5204,87.3119,34.9,44,0.0,995.9,8.85,19.4,115,72.6,55.8,0,5,7,1,2026-04-13T11:17:32.587389+05:30
Asansol,West Bengal,23.6739,86.9524,35.2,37,0.0,994.5,8.85,18.0,109,88.2,45.6,0,5,10,1,2026-04-13T11:17:32.587399+05:30
Pondicherry,Puducherry,11.9139,79.8145,33.9,57,0.0,1010.3,9.3,31.0,34,16.1,10.6,0,0,4,1,2026-04-13T11:17:32.587407+05:30
Port Blair,Andaman and Nicobar Islands,11.6234,92.7265,29.4,79,0.0,1008.7,9.2,11.9,57,28.1,15.0,7,0,4,1,2026-04-13T11:17:32.587414+05:30
Haridwar,Uttarakhand,29.9457,78.1642,29.9,41,0.0,976.2,7.05,29.9,66,23.3,12.8,4,5,7,0,2026-04-13T11:17:32.587422+05:30
Rishikesh,Uttarakhand,30.0869,78.2676,29.8,41,0.0,968.9,6.75,32.0,57,20.8,8.4,4,5,7,0,2026-04-13T11:17:32.587430+05:30
Nainital,Uttarakhand,29.3919,79.4542,24.1,41,0.0,809.7,8.0,34.6,69,21.1,10.0,0,5,7,0,2026-04-13T11:17:32.587437+05:30
Mussoorie,Uttarakhand,30.4599,78.0664,21.6,48,0.0,806.0,7.35,34.6,61,19.3,8.0,0,5,7,0,2026-04-13T11:17:32.587445+05:30
Dharamshala,Himachal Pradesh,32.219,76.3234,23.2,50,0.0,871.7,7.75,24.5,53,11.5,3.7,0,5,7,0,2026-04-13T11:17:32.587451+05:30
Dalhousie,Himachal Pradesh,32.5387,75.971,21.6,37,0.0,806.9,7.35,22.3,59,23.5,9.2,0,5,7,0,2026-04-13T11:17:32.587459+05:30
Patiala,Punjab,30.3398,76.3869,30.4,32,0.0,981.0,7.1,27.0,376,421.9,44.7,0,5,7,0,2026-04-13T11:17:32.587466+05:30
Bhatinda,Punjab,30.211,74.9455,32.1,24,0.0,986.7,7.75,22.0,59,14.1,8.0,0,5,7,0,2026-04-13T11:17:32.587473+05:30
Rohtak,Haryana,28.8955,76.6066,31.5,27,0.0,985.0,7.25,31.3,673,315.7,45.5,0,5,7,0,2026-04-13T11:17:32.587479+05:30
Panipat,Haryana,29.3909,76.9635,31.0,29,0.0,983.2,7.1,32.4,1150,838.2,81.3,0,5,7,0,2026-04-13T11:17:32.587486+05:30
Mathura,Uttar Pradesh,27.4924,77.6737,32.5,28,0.0,990.1,7.6,24.5,876,384.6,60.3,0,5,7,0,2026-04-13T11:17:32.587492+05:30
Vrindavan,Uttar Pradesh,27.5823,77.7027,32.1,29,0.0,990.5,7.55,28.1,876,384.6,60.3,0,5,7,0,2026-04-13T11:17:32.587499+05:30
Ayodhya,Uttar Pradesh,26.7922,82.1998,35.4,16,0.0,997.0,7.95,35.3,88,90.1,20.4,0,5,10,0,2026-04-13T11:17:32.587505+05:30
Ratlam,Madhya Pradesh,23.3315,75.0367,33.4,38,0.0,957.0,8.4,25.9,76,48.2,18.3,0,5,7,1,2026-04-13T11:17:32.587511+05:30
Sagar,Madhya Pradesh,23.8388,78.7378,34.6,25,0.0,953.4,8.55,22.0,68,387.4,49.0,0,5,7,0,2026-04-13T11:17:32.587517+05:30
Satna,Madhya Pradesh,24.6005,80.8322,34.5,22,0.0,974.5,8.55,25.2,96,440.5,53.6,0,5,7,0,2026-04-13T11:17:32.587523+05:30
Akola,Maharashtra,20.7002,77.0082,37.4,27,0.0,976.6,8.75,26.6,75,49.5,22.2,0,5,10,0,2026-04-13T11:17:32.587548+05:30
Amravati,Maharashtra,20.9374,77.7796,37.3,26,0.0,969.0,8.8,23.4,78,45.5,21.9,0,5,10,0,2026-04-13T11:17:32.587555+05:30
Latur,Maharashtra,18.4088,76.5604,35.3,27,0.0,942.2,9.05,33.1,84,40.3,28.9,0,5,10,0,2026-04-13T11:17:32.587562+05:30
Nanded,Maharashtra,19.1383,77.3091,36.3,31,0.0,970.5,8.95,18.0,99,38.3,27.9,0,5,10,1,2026-04-13T11:17:32.587568+05:30
Gulbarga,Karnataka,17.3297,76.8343,37.8,31,0.0,960.1,9.1,18.7,88,41.9,33.2,0,5,10,1,2026-04-13T11:17:32.587573+05:30
Bidar,Karnataka,17.9104,77.5199,36.0,35,0.0,937.6,9.15,27.7,92,44.6,35.4,0,5,10,1,2026-04-13T11:17:32.587579+05:30
Hospet,Karnataka,15.2689,76.3909,32.9,52,0.0,958.0,9.25,24.5,101,38.4,29.6,0,5,7,1,2026-04-13T11:17:32.587585+05:30
Tirupur,Tamil Nadu,11.1085,77.3411,35.0,43,0.0,977.1,9.45,29.9,81,39.1,28.5,0,5,7,1,2026-04-13T11:17:32.587591+05:30
Alappuzha,Kerala,9.4981,76.3388,29.1,82,0.0,1010.2,9.15,25.9,97,47.5,29.6,7,0,4,1,2026-04-13T11:17:32.587597+05:30
Munnar,Kerala,10.0889,77.0595,29.3,50,0.0,860.8,9.7,28.8,84,30.9,22.0,4,5,7,1,2026-04-13T11:17:32.587604+05:30
Silchar,Assam,24.8333,92.7789,26.4,77,0.0,1007.7,8.65,46.4,151,85.4,40.3,7,5,4,1,2026-04-13T11:17:32.587611+05:30
Dibrugarh,Assam,27.4728,94.912,24.2,73,0.0,998.9,6.8,25.9,122,112.9,53.7,3,5,7,1,2026-04-13T11:17:32.587617+05:30
