city,state,latitude,longitude,temp,humidity,rain,pressure,uv_index,wind_gusts,aqi,pm10,pm2_5,no2,co,o3,so2,mosquito_risk,arthritis_risk,migraine_risk,frizz_risk,updated_at
Delhi,Delhi,28.6139,77.209,44.0,10,0.0,977.0,7.7,38.9,697,538.3,80.8,3.4,215.0,138.0,6.6,0,5,10,0,2026-05-19T15:21:12.589272+05:30
Mumbai,Maharashtra,19.076,72.8777,32.2,59,0.0,1005.2,7.25,40.3,75,58.0,21.9,3.8,173.0,96.0,3.9,0,5,4,1,2026-05-19T15:21:12.589305+05:30
Bangalore,Karnataka,12.9716,77.5946,24.5,84,0.2,908.9,9.15,46.1,59,7.2,6.6,4.4,303.0,113.0,2.8,6,5,7,1,2026-05-19T15:21:12.589320+05:30
Hyderabad,Telangana,17.385,78.4867,38.3,28,0.0,948.9,9.2,28.1,88,30.6,23.9,2.3,318.0,167.0,6.3,0,5,10,1,2026-05-19T15:21:12.589330+05:30
Chennai,Tamil Nadu,13.0827,80.2707,36.5,49,0.0,1001.0,9.15,45.0,84,28.2,22.8,2.9,257.0,167.0,7.0,0,5,7,1,2026-05-19T15:21:12.589342+05:30
Kolkata,West Bengal,22.5726,88.3639,35.2,58,0.0,997.4,8.95,42.5,71,35.9,26.7,2.6,324.0,137.0,9.8,0,5,10,1,2026-05-19T15:21:12.589350+05:30
Pune,Maharashtra,18.5204,73.8567,35.7,35,0.1,945.1,8.45,42.8,78,50.1,28.1,2.1,185.0,158.0,10.1,3,5,10,1,2026-05-19T15:21:12.589357+05:30
Ahmedabad,Gujarat,23.0225,72.5714,42.0,13,0.0,996.5,8.15,35.3,64,47.3,16.5,1.4,151.0,108.0,2.3,0,5,10,0,2026-05-19T15:21:12.589364+05:30
Jaipur,Rajasthan,26.9124,75.7873,42.3,12,0.0,955.5,8.25,36.7,166,147.6,28.5,1.0,149.0,123.0,3.4,0,5,10,0,2026-05-19T15:21:12.589373+05:30
Lucknow,Uttar Pradesh,26.8467,80.9462,42.5,23,0.0,985.9,8.25,33.5,164,283.1,71.7,1.8,354.0,204.0,13.5,0,5,10,1,2026-05-19T15:21:12.589380+05:30
Kanpur,Uttar Pradesh,26.4499,80.3319,43.9,15,0.0,984.3,8.25,44.6,448,401.4,73.3,1.4,218.0,171.0,9.3,0,5,10,0,2026-05-19T15:21:12.589386+05:30
Chandigarh,Chandigarh,30.7333,76.7794,40.8,18,0.0,963.7,7.75,28.1,138,40.7,18.1,1.6,300.0,152.0,8.3,0,5,10,0,2026-05-19T15:21:12.589393+05:30
Srinagar,Jammu and Kashmir,34.0837,74.7973,25.9,34,0.1,844.5,9.0,34.2,77,31.9,15.1,2.1,234.0,131.0,3.1,7,5,7,0,2026-05-19T15:21:12.589400+05:30
Jammu,Jammu and Kashmir,32.7266,74.857,41.6,13,0.0,967.0,8.55,30.6,75,34.8,14.7,1.4,248.0,142.0,3.7,0,5,10,0,2026-05-19T15:21:12.589407+05:30
Amritsar,Punjab,31.634,74.8723,42.5,11,0.0,974.4,8.45,25.2,106,79.4,23.9,1.7,213.0,160.0,5.6,0,5,10,0,2026-05-19T15:21:12.589413+05:30
Ludhiana,Punjab,30.901,75.8573,42.8,10,0.0,972.7,8.05,27.0,101,126.2,26.3,1.2,206.0,133.0,3.1,0,5,10,0,2026-05-19T15:21:12.589419+05:30
Jalandhar,Punjab,31.326,75.5762,42.0,14,0.0,973.8,8.25,26.6,115,87.8,22.3,1.3,244.0,144.0,5.0,0,5,10,0,2026-05-19T15:21:12.589425+05:30
Dehradun,Uttarakhand,30.6284,78.0322,27.1,46,0.0,831.9,8.2,48.2,93,38.4,18.4,0.9,304.0,166.0,7.1,4,5,7,0,2026-05-19T15:21:12.589431+05:30
Shimla,Himachal Pradesh,31.1048,77.1734,25.6,26,0.0,788.2,8.3,44.6,108,36.1,16.6,1.0,196.0,158.0,8.3,4,5,7,0,2026-05-19T15:21:12.589440+05:30
Manali,Himachal Pradesh,32.2396,77.1887,24.3,46,0.0,821.3,9.9,51.8,65,21.4,10.7,1.2,174.0,157.0,1.1,0,5,7,0,2026-05-19T15:21:12.589446+05:30
Gurgaon,Haryana,28.4595,77.0266,42.8,13,0.0,975.7,7.85,35.6,1590,1192.1,141.6,3.2,191.0,138.0,5.6,0,5,10,0,2026-05-19T15:21:12.589453+05:30
Noida,Uttar Pradesh,28.5355,77.391,43.2,13,0.0,977.9,7.75,33.5,1590,1192.1,141.6,3.2,231.0,138.0,5.6,0,5,10,0,2026-05-19T15:21:12.589459+05:30
Ghaziabad,Uttar Pradesh,28.6692,77.4538,43.0,12,0.0,976.4,7.75,40.7,563,571.8,95.7,2.6,165.0,154.0,9.1,0,5,10,0,2026-05-19T15:21:12.589471+05:30
Faridabad,Haryana,28.4089,77.3178,43.7,10,0.0,977.5,7.8,39.2,1590,1192.1,141.6,3.2,200.0,138.0,5.6,0,5,10,0,2026-05-19T15:21:12.589477+05:30
Meerut,Uttar Pradesh,28.9845,77.7064,41.4,20,0.0,975.8,7.65,29.9,563,571.8,95.7,2.6,172.0,154.0,9.1,0,5,10,0,2026-05-19T15:21:12.589483+05:30
Agra,Uttar Pradesh,27.1767,78.0081,43.7,13,0.0,981.5,8.1,43.2,813,1009.6,137.4,1.8,162.0,156.0,6.9,0,5,10,0,2026-05-19T15:21:12.589489+05:30
Varanasi,Uttar Pradesh,25.3176,82.9739,40.7,32,0.0,989.6,8.7,32.0,150,283.1,72.4,1.9,351.0,200.0,13.9,0,5,10,1,2026-05-19T15:21:12.589496+05:30
Prayagraj,Uttar Pradesh,25.4358,81.8463,43.3,19,0.0,987.8,8.6,35.3,151,285.9,69.4,1.7,219.0,198.0,12.9,0,5,10,0,2026-05-19T15:21:12.589502+05:30
Gorakhpur,Uttar Pradesh,26.7606,83.3732,36.5,47,0.0,990.4,8.6,36.0,157,117.8,59.8,1.7,399.0,184.0,11.9,0,5,10,1,2026-05-19T15:21:12.589510+05:30
Bareilly,Uttar Pradesh,28.367,79.4304,38.5,37,0.0,980.4,8.05,28.4,156,171.8,57.2,1.6,381.0,204.0,14.4,0,5,10,1,2026-05-19T15:21:12.589516+05:30
Aligarh,Uttar Pradesh,27.8974,78.088,43.2,12,0.0,979.2,7.9,33.5,862,845.6,126.2,2.4,228.0,185.0,12.1,0,5,10,0,2026-05-19T15:21:12.589523+05:30
Moradabad,Uttar Pradesh,28.8386,78.7733,39.3,34,0.0,977.8,7.85,30.6,160,169.0,56.0,2.7,419.0,234.0,19.8,0,5,10,1,2026-05-19T15:21:12.589530+05:30
Saharanpur,Uttar Pradesh,29.9637,77.546,39.4,26,0.0,970.4,7.4,26.6,121,200.7,54.6,2.8,265.0,206.0,17.2,0,5,10,1,2026-05-19T15:21:12.589536+05:30
Jhansi,Uttar Pradesh,25.4484,78.5685,43.8,12,0.0,972.1,8.5,37.4,66,105.0,24.2,0.9,147.0,127.0,4.2,0,5,10,0,2026-05-19T15:21:15.913399+05:30
Surat,Gujarat,21.1702,72.8311,38.5,27,0.0,1001.8,7.75,41.0,103,92.4,50.2,30.5,540.0,107.0,71.1,0,5,7,1,2026-05-19T15:21:15.913423+05:30
Vadodara,Gujarat,22.3072,73.1812,42.5,14,0.0,998.4,7.75,45.0,81,59.5,25.6,2.1,169.0,150.0,8.3,0,5,10,0,2026-05-19T15:21:15.913433+05:30
Rajkot,Gujarat,22.3039,70.8022,41.2,17,0.0,989.1,7.65,45.0,65,56.9,20.7,1.1,128.0,122.0,5.0,0,5,10,0,2026-05-19T15:21:15.913441+05:30
Thane,Maharashtra,19.2183,72.9781,34.7,51,0.0,1004.0,7.7,37.8,75,58.0,21.9,3.8,163.0,96.0,3.9,0,5,4,1,2026-05-19T15:21:15.913447+05:30
Nagpur,Maharashtra,21.1458,79.0882,44.3,14,0.0,966.7,8.35,36.0,97,51.5,28.9,5.0,233.0,185.0,22.2,0,5,10,0,2026-05-19T15:21:15.913454+05:30
Nashik,Maharashtra,19.9975,73.7898,36.8,27,0.0,942.7,8.15,38.5,72,55.2,22.3,1.0,142.0,115.0,2.3,0,5,10,0,2026-05-19T15:21:15.913461+05:30
Aurangabad,Maharashtra,19.8762,75.3433,40.4,16,0.0,940.3,9.05,34.2,70,47.5,23.3,1.1,168.0,139.0,5.4,0,5,10,0,2026-05-19T15:21:15.913468+05:30
Solapur,Maharashtra,17.6599,75.9064,39.9,26,0.0,952.4,8.3,35.6,79,40.5,26.4,1.4,173.0,163.0,7.8,0,5,10,1,2026-05-19T15:21:15.913474+05:30
Kolhapur,Maharashtra,16.705,74.2433,31.1,54,0.0,945.6,8.4,43.6,66,41.1,23.1,2.0,151.0,132.0,4.2,0,5,7,1,2026-05-19T15:21:15.913481+05:30
Goa,Goa,15.2993,74.124,27.5,95,0.3,995.9,5.0,24.8,72,46.2,20.7,1.4,122.0,81.0,1.8,10,5,3,1,2026-05-19T15:21:15.913488+05:30
Jodhpur,Rajasthan,26.2389,73.0243,40.5,17,0.0,977.7,8.45,37.1,129,199.8,37.5,0.7,132.0,110.0,2.0,0,5,10,0,2026-05-19T15:21:15.913495+05:30
Udaipur,Rajasthan,24.5854,73.7125,38.8,11,0.0,943.3,8.85,39.2,54,27.2,11.4,0.5,121.0,109.0,1.3,0,5,10,0,2026-05-19T15:21:15.913501+05:30
Kota,Rajasthan,25.2138,75.8648,43.5,13,0.0,973.5,8.4,33.5,66,50.6,17.9,0.8,137.0,126.0,4.5,0,5,10,0,2026-05-19T15:21:15.913507+05:30
Bikaner,Rajasthan,28.0229,73.3119,42.0,12,0.0,975.7,8.4,34.9,136,70.1,29.1,0.4,129.0,112.0,2.2,0,5,10,0,2026-05-19T15:21:15.913514+05:30
Ajmer,Rajasthan,26.4499,74.6399,39.3,13,0.0,951.2,8.4,40.3,64,37.4,15.1,0.7,134.0,117.0,2.3,0,5,10,0,2026-05-19T15:21:15.913520+05:30
Gwalior,Madhya Pradesh,26.2183,78.1828,44.0,11,0.0,977.1,8.3,40.3,80,223.1,43.1,0.7,157.0,129.0,2.9,0,5,10,0,2026-05-19T15:21:15.913526+05:30
Indore,Madhya Pradesh,22.7196,75.8577,41.5,14,0.0,944.2,8.7,42.5,68,43.7,17.5,1.2,186.0,128.0,3.7,0,5,10,0,2026-05-19T15:21:15.913532+05:30
Bhopal,Madhya Pradesh,23.2599,77.4126,42.8,12,0.0,948.5,8.7,35.3,75,62.2,20.4,0.8,173.0,130.0,3.8,0,5,10,0,2026-05-19T15:21:15.913538+05:30
Jabalpur,Madhya Pradesh,23.1815,79.9864,42.9,14,0.0,955.9,8.85,33.5,89,53.7,20.2,1.0,163.0,140.0,4.0,0,5,10,0,2026-05-19T15:21:15.913544+05:30
Ujjain,Madhya Pradesh,23.1765,75.7885,41.6,14,0.0,949.7,8.5,42.5,65,42.3,18.1,0.6,155.0,124.0,3.6,0,5,10,0,2026-05-19T15:21:15.913550+05:30
Visakhapatnam,Andhra Pradesh,17.6868,83.2185,34.2,63,0.0,997.7,9.1,50.4,64,32.1,25.1,6.9,341.0,132.0,26.3,3,5,7,1,2026-05-19T15:21:15.913556+05:30
Vijayawada,Andhra Pradesh,16.5062,80.648,40.5,35,0.0,995.5,8.75,29.5,98,23.7,20.9,1.9,255.0,159.0,7.5,0,5,10,1,2026-05-19T15:21:15.913563+05:30
Guntur,Andhra Pradesh,16.3067,80.4365,40.7,34,0.0,996.7,8.8,36.4,95,21.5,18.5,1.4,249.0,147.0,5.1,0,5,10,1,2026-05-19T15:21:15.913569+05:30
Nellore,Andhra Pradesh,14.4426,79.9865,39.8,36,0.0,998.7,9.1,45.4,91,30.3,25.7,2.3,203.0,171.0,4.9,0,5,10,1,2026-05-19T15:21:15.913576+05:30
Kurnool,Andhra Pradesh,15.8281,78.0373,39.8,29,0.0,971.3,9.15,41.4,78,31.2,24.6,1.2,188.0,162.0,6.3,0,5,10,1,2026-05-19T15:21:15.913583+05:30
Kakinada,Andhra Pradesh,16.9891,82.2475,40.8,34,0.0,999.9,8.7,33.8,55,27.6,20.5,1.3,243.0,125.0,4.8,0,5,10,1,2026-05-19T15:21:15.913590+05:30
Tirupati,Andhra Pradesh,13.6288,79.4192,32.7,59,0.0,985.4,9.15,38.9,69,23.4,20.6,1.9,187.0,149.0,3.7,0,5,7,1,2026-05-19T15:21:15.913596+05:30
Warangal,Telangana,17.9689,79.5941,39.2,34,0.0,973.1,9.15,36.0,84,34.6,27.6,1.6,241.0,151.0,5.5,0,5,10,1,2026-05-19T15:21:15.913602+05:30
Nizamabad,Telangana,18.6725,78.0941,41.0,23,0.0,959.7,9.1,30.6,91,44.9,31.8,1.3,191.0,169.0,7.1,0,5,10,0,2026-05-19T15:21:15.913608+05:30
Mysore,Karnataka,12.2958,76.6396,28.7,64,0.0,925.9,7.65,43.6,43,2.6,2.5,2.8,186.0,84.0,1.3,7,5,7,1,2026-05-19T15:21:15.913614+05:30
Mangalore,Karnataka,12.9141,74.856,27.6,85,0.1,1004.6,7.05,38.9,46,7.2,5.0,2.2,163.0,73.0,0.9,10,5,4,1,2026-05-19T15:21:15.913621+05:30
Hubli-Dharwad,Karnataka,15.3647,75.124,28.7,68,0.0,938.5,6.3,40.0,56,19.7,11.8,2.1,162.0,100.0,1.9,7,5,7,1,2026-05-19T15:21:15.913627+05:30
Belgaum,Karnataka,15.8497,74.4977,27.7,71,0.0,923.9,6.35,36.7,61,37.1,20.8,2.2,146.0,104.0,2.5,7,5,7,1,2026-05-19T15:21:19.236418+05:30
Coimbatore,Tamil Nadu,11.0168,76.9558,31.0,59,0.0,958.3,8.35,59.0,33,2.6,2.3,2.3,168.0,76.0,1.3,0,5,7,1,2026-05-19T15:21:19.236447+05:30
Madurai,Tamil Nadu,9.9252,78.1198,34.7,50,0.0,988.3,8.95,40.3,47,5.4,4.0,1.7,165.0,85.0,1.2,0,5,7,1,2026-05-19T15:21:19.236461+05:30
Trichy,Tamil Nadu,10.7905,78.7047,33.8,60,0.0,994.7,8.7,29.2,47,8.0,7.1,2.2,192.0,113.0,2.2,0,5,7,1,2026-05-19T15:21:19.236472+05:30
Salem,Tamil Nadu,11.6643,78.146,30.5,66,0.1,973.5,8.9,46.8,53,5.6,5.1,2.2,194.0,116.0,4.4,6,5,7,1,2026-05-19T15:21:19.236482+05:30
Tirunelveli,Tamil Nadu,8.7139,77.7567,35.2,48,0.0,998.9,8.8,21.6,29,2.8,2.2,1.1,139.0,61.0,0.5,0,5,10,1,2026-05-19T15:21:19.236491+05:30
Vellore,Tamil Nadu,12.9165,79.1325,36.8,40,0.0,978.9,6.65,38.2,67,13.6,12.2,1.6,222.0,137.0,3.3,0,5,10,1,2026-05-19T15:21:19.236500+05:30
Erode,Tamil Nadu,11.341,77.7172,34.5,46,0.1,984.7,9.1,46.8,40,4.0,3.6,2.2,176.0,96.0,1.4,3,5,7,1,2026-05-19T15:21:19.236509+05:30
Kochi,Kerala,9.9312,76.2673,29.0,78,0.0,1006.3,7.85,32.8,36,8.0,5.7,2.6,146.0,68.0,2.0,7,5,4,1,2026-05-19T15:21:19.236517+05:30
Thiruvananthapuram,Kerala,8.5241,76.9366,28.2,79,0.0,1005.9,7.5,35.3,38,8.0,4.7,1.0,117.0,59.0,0.4,7,5,4,1,2026-05-19T15:21:19.236525+05:30
Kozhikode,Kerala,11.2588,75.7804,28.3,83,0.0,1005.4,3.9,30.6,34,5.8,3.8,0.6,152.0,72.0,0.3,7,5,0,1,2026-05-19T15:21:19.236534+05:30
Thrissur,Kerala,10.5276,76.2144,29.0,78,0.0,1004.5,7.4,34.9,35,7.4,5.3,2.0,171.0,65.0,1.5,7,5,4,1,2026-05-19T15:21:19.236543+05:30
Kannur,Kerala,11.8745,75.3704,27.5,87,0.0,1005.0,7.6,37.8,31,5.8,4.3,2.8,137.0,65.0,0.8,7,5,4,1,2026-05-19T15:21:19.236552+05:30
Patna,Bihar,25.5941,85.1376,35.2,52,0.0,993.3,8.8,42.1,148,83.8,53.8,2.8,416.0,202.0,15.8,0,5,10,1,2026-05-19T15:21:19.236561+05:30
Gaya,Bihar,24.7914,85.0002,38.0,41,0.0,986.4,8.85,30.2,159,101.3,58.4,2.0,354.0,220.0,17.0,0,5,10,1,2026-05-19T15:21:19.236569+05:30
Muzaffarpur,Bihar,26.1209,85.3647,34.2,56,0.0,993.6,8.85,44.3,149,81.5,51.2,2.8,388.0,184.0,13.3,0,5,7,1,2026-05-19T15:21:19.236578+05:30
Bhagalpur,Bihar,25.2425,87.0117,34.5,56,0.0,994.0,8.8,37.4,144,53.3,44.0,5.3,387.0,154.0,17.4,0,5,7,1,2026-05-19T15:21:19.236586+05:30
Ranchi,Jharkhand,23.3441,85.3096,35.2,29,0.0,932.4,9.25,47.9,129,147.1,37.0,1.2,221.0,156.0,6.9,0,5,10,0,2026-05-19T15:21:19.236594+05:30
Jamshedpur,Jharkhand,22.8046,86.2029,38.0,32,0.0,982.5,9.1,45.7,162,78.0,32.4,2.8,232.0,199.0,15.9,0,5,10,1,2026-05-19T15:21:19.236603+05:30
Dhanbad,Jharkhand,23.7957,86.4304,38.7,31,0.0,972.1,9.05,25.2,160,98.0,49.8,6.8,225.0,219.0,36.3,0,5,10,1,2026-05-19T15:21:19.236612+05:30
Bokaro,Jharkhand,23.6693,86.1511,37.9,34,0.0,975.9,9.05,21.6,156,110.6,42.6,6.8,220.0,195.0,33.4,0,5,10,1,2026-05-19T15:21:19.236621+05:30
Bhubaneswar,Odisha,20.2961,85.8245,38.0,50,0.0,994.7,9.15,44.3,61,28.9,23.7,2.4,261.0,160.0,9.7,0,5,10,1,2026-05-19T15:21:19.236630+05:30
Cuttack,Odisha,20.4625,85.8828,39.3,41,0.0,996.0,9.2,33.8,61,28.9,23.7,2.4,267.0,160.0,9.7,0,5,10,1,2026-05-19T15:21:19.236638+05:30
Rourkela,Odisha,22.2604,84.8536,39.4,29,0.0,977.5,8.95,44.6,158,213.7,51.3,1.7,272.0,182.0,11.8,0,5,10,1,2026-05-19T15:21:19.236645+05:30
Raipur,Chhattisgarh,21.2514,81.6296,41.2,24,0.0,968.7,9.0,46.8,96,56.2,36.1,5.7,194.0,185.0,27.6,0,5,10,1,2026-05-19T15:21:19.236651+05:30
Bhilai,Chhattisgarh,21.1938,81.3509,40.5,25,0.0,969.2,9.0,46.8,94,52.7,32.8,6.0,342.0,170.0,25.2,0,5,10,1,2026-05-19T15:21:19.236657+05:30
Guwahati,Assam,26.1158,91.7086,31.6,60,0.0,994.8,8.75,22.0,87,47.8,28.3,1.5,307.0,147.0,4.8,0,5,7,1,2026-05-19T15:21:19.236663+05:30
Agartala,Tripura,23.8315,91.2868,30.2,79,0.0,999.9,8.75,35.3,87,29.0,17.5,3.7,245.0,123.0,2.6,3,5,7,1,2026-05-19T15:21:19.236670+05:30
Shillong,Meghalaya,25.5788,91.8933,24.4,68,0.1,854.4,7.1,24.5,81,46.2,22.4,1.5,267.0,135.0,4.8,6,5,7,1,2026-05-19T15:21:19.236676+05:30
Imphal,Manipur,24.817,93.9368,28.8,60,0.0,917.7,9.1,36.0,90,27.4,16.6,1.1,220.0,112.0,3.0,4,5,7,1,2026-05-19T15:21:19.236682+05:30
Aizawl,Mizoram,23.7271,92.7176,27.0,59,0.0,888.9,9.1,29.9,98,53.0,21.9,0.7,190.0,110.0,3.9,4,5,7,1,2026-05-19T15:21:19.236688+05:30
Kohima,Nagaland,25.6701,94.1077,24.4,72,0.0,852.2,8.65,27.7,65,32.4,19.1,0.8,243.0,124.0,3.4,3,5,7,1,2026-05-19T15:21:19.236694+05:30
Gangtok,Sikkim,27.3314,88.6138,24.4,61,0.0,835.7,9.15,39.6,91,32.1,23.7,1.1,316.0,144.0,3.6,3,5,7,1,2026-05-19T15:21:19.236700+05:30
Siliguri,West Bengal,26.7271,88.3953,31.7,61,0.0,986.7,8.7,28.8,151,46.7,32.1,1.9,347.0,152.0,5.5,3,5,7,1,2026-05-19T15:21:22.561641+05:30
Durgapur,West Bengal,23.5204,87.3119,37.5,48,0.0,986.5,9.0,46.1,161,80.6,72.9,8.6,362.0,297.0,52.3,0,5,10,1,2026-05-19T15:21:22.561670+05:30
Asansol,West Bengal,23.6739,86.9524,38.0,44,0.0,985.2,9.0,44.6,159,83.8,61.9,6.8,357.0,267.0,40.4,0,5,10,1,2026-05-19T15:21:22.561683+05:30
Pondicherry,Puducherry,11.9139,79.8145,33.0,71,0.0,1003.0,9.05,36.4,58,21.2,17.8,2.8,199.0,151.0,9.6,3,5,4,1,2026-05-19T15:21:22.561694+05:30
Port Blair,Andaman and Nicobar Islands,11.6234,92.7265,29.3,77,0.0,1002.7,8.8,50.8,30,9.4,5.4,0.4,138.0,53.0,0.3,7,5,4,1,2026-05-19T15:21:22.561703+05:30
Haridwar,Uttarakhand,29.9457,78.1642,38.2,36,0.0,968.7,7.55,34.6,147,78.0,36.4,1.6,399.0,199.0,13.0,0,5,10,1,2026-05-19T15:21:22.561712+05:30
Rishikesh,Uttarakhand,30.0869,78.2676,37.5,36,0.0,961.8,7.7,32.0,156,54.9,27.4,0.9,342.0,184.0,9.8,0,5,10,1,2026-05-19T15:21:22.561721+05:30
Nainital,Uttarakhand,29.3919,79.4542,25.3,45,0.0,807.4,8.55,38.2,151,63.8,29.6,1.2,286.0,185.0,11.4,4,5,7,0,2026-05-19T15:21:22.561731+05:30
Mussoorie,Uttarakhand,30.4599,78.0664,24.7,45,0.0,805.3,8.05,52.9,150,49.8,30.5,1.7,298.0,211.0,14.3,0,5,7,0,2026-05-19T15:21:22.561740+05:30
Dharamshala,Himachal Pradesh,32.219,76.3234,29.7,29,0.0,869.6,8.45,44.3,85,37.4,14.7,0.5,227.0,139.0,3.2,4,5,7,0,2026-05-19T15:21:22.561749+05:30
Dalhousie,Himachal Pradesh,32.5387,75.971,26.6,23,0.0,807.7,8.7,44.6,108,45.9,19.3,1.3,180.0,158.0,4.5,4,5,7,0,2026-05-19T15:21:22.561758+05:30
Patiala,Punjab,30.3398,76.3869,43.2,10,0.0,972.3,7.65,36.4,476,769.3,89.6,1.1,159.0,135.0,4.3,0,5,10,0,2026-05-19T15:21:22.561767+05:30
Bhatinda,Punjab,30.211,74.9455,42.5,10,0.0,977.4,8.3,28.1,99,51.2,17.2,1.8,157.0,137.0,5.8,0,5,10,0,2026-05-19T15:21:22.561775+05:30
Rohtak,Haryana,28.8955,76.6066,42.7,14,0.0,975.9,7.8,31.7,871,603.5,72.2,1.6,169.0,129.0,2.2,0,5,10,0,2026-05-19T15:21:22.561784+05:30
Panipat,Haryana,29.3909,76.9635,43.2,11,0.0,974.4,7.6,37.8,1775,1542.3,167.6,2.0,148.0,132.0,6.1,0,5,10,0,2026-05-19T15:21:22.561792+05:30
Mathura,Uttar Pradesh,27.4924,77.6737,43.6,12,0.0,980.5,8.05,42.8,922,814.0,107.1,1.5,167.0,141.0,3.8,0,5,10,0,2026-05-19T15:21:22.561801+05:30
Vrindavan,Uttar Pradesh,27.5823,77.7027,42.8,14,0.0,980.9,8.0,41.0,922,814.0,107.1,1.5,170.0,141.0,3.8,0,5,10,0,2026-05-19T15:21:22.561809+05:30
Ayodhya,Uttar Pradesh,26.7922,82.1998,37.8,44,0.0,988.4,8.4,35.3,156,169.5,61.9,1.3,429.0,185.0,12.2,0,5,10,1,2026-05-19T15:21:22.561818+05:30
Ratlam,Madhya Pradesh,23.3315,75.0367,40.1,13,0.0,951.6,8.55,39.6,64,37.7,16.5,0.5,136.0,118.0,2.3,0,5,10,0,2026-05-19T15:21:22.561827+05:30
Sagar,Madhya Pradesh,23.8388,78.7378,42.1,14,0.0,945.8,8.75,31.7,65,62.2,19.2,0.6,155.0,131.0,3.9,0,5,10,0,2026-05-19T15:21:22.561837+05:30
Satna,Madhya Pradesh,24.6005,80.8322,42.8,13,0.0,965.1,8.75,45.0,117,102.9,24.1,0.6,149.0,126.0,3.5,0,5,10,0,2026-05-19T15:21:22.561845+05:30
Akola,Maharashtra,20.7002,77.0082,43.5,14,0.0,969.1,8.85,36.0,82,46.7,21.3,1.5,173.0,144.0,7.3,0,5,10,0,2026-05-19T15:21:22.561855+05:30
Amravati,Maharashtra,20.9374,77.7796,43.4,14,0.0,961.4,8.9,44.3,83,47.0,20.7,1.7,183.0,145.0,7.6,0,5,10,0,2026-05-19T15:21:22.561862+05:30
Latur,Maharashtra,18.4088,76.5604,39.9,20,0.0,935.8,7.55,37.4,85,43.5,23.3,1.2,176.0,159.0,7.7,0,5,10,0,2026-05-19T15:21:22.561869+05:30
Nanded,Maharashtra,19.1383,77.3091,41.7,18,0.0,963.2,8.1,40.0,102,49.4,24.6,1.3,188.0,157.0,6.5,0,5,10,0,2026-05-19T15:21:22.561875+05:30
Gulbarga,Karnataka,17.3297,76.8343,39.5,29,0.0,954.0,9.1,36.4,84,35.2,25.6,1.7,201.0,161.0,7.1,0,5,10,1,2026-05-19T15:21:22.561881+05:30
Bidar,Karnataka,17.9104,77.5199,38.2,29,0.0,931.6,9.15,47.9,86,39.0,28.6,1.5,202.0,167.0,6.7,0,5,10,1,2026-05-19T15:21:22.561887+05:30
Hospet,Karnataka,15.2689,76.3909,31.7,58,0.0,952.5,7.8,43.6,61,20.8,15.1,1.9,181.0,119.0,3.8,0,5,7,1,2026-05-19T15:21:22.561894+05:30
Tirupur,Tamil Nadu,11.1085,77.3411,33.7,49,0.0,971.4,8.8,60.8,40,3.7,3.4,2.1,164.0,94.0,1.9,0,5,7,1,2026-05-19T15:21:22.561900+05:30
Alappuzha,Kerala,9.4981,76.3388,27.8,85,0.1,1006.4,8.0,32.4,30,8.4,5.8,2.3,117.0,66.0,1.2,10,5,4,1,2026-05-19T15:21:22.561906+05:30
Munnar,Kerala,10.0889,77.0595,19.6,96,0.1,855.5,7.4,41.0,29,3.3,2.5,1.1,141.0,66.0,0.8,6,10,7,1,2026-05-19T15:21:22.561913+05:30
Silchar,Assam,24.8333,92.7789,31.6,68,0.0,998.3,8.9,30.2,104,47.4,26.9,1.4,207.0,123.0,4.8,3,5,7,1,2026-05-19T15:21:22.561920+05:30
Dibrugarh,Assam,27.4728,94.912,30.9,62,0.0,988.4,8.85,14.4,112,26.3,20.3,1.3,246.0,138.0,2.1,3,5,7,1,2026-05-19T15:21:22.561926+05:30
