city,state,latitude,longitude,temp,humidity,rain,pressure,uv_index,wind_gusts,aqi,pm10,pm2_5,mosquito_risk,arthritis_risk,migraine_risk,frizz_risk,updated_at
Delhi,Delhi,28.6139,77.209,33.1,22,0.0,981.8,7.2,34.6,294,668.7,72.9,0,5,7,0,2026-04-12T16:11:31.501204+05:30
Mumbai,Maharashtra,19.076,72.8777,29.2,75,0.0,1005.1,8.0,22.3,174,55.5,34.7,7,5,4,1,2026-04-12T16:11:31.501246+05:30
Bangalore,Karnataka,12.9716,77.5946,34.7,28,0.0,910.3,9.7,31.0,116,39.2,28.7,0,5,7,0,2026-04-12T16:11:31.501261+05:30
Hyderabad,Telangana,17.385,78.4867,39.6,20,0.0,950.4,9.25,29.2,116,31.9,21.1,0,5,10,0,2026-04-12T16:11:31.501271+05:30
Chennai,Tamil Nadu,13.0827,80.2707,33.3,51,0.0,1005.5,9.4,34.6,48,18.0,9.7,0,5,4,1,2026-04-12T16:11:31.501280+05:30
Kolkata,West Bengal,22.5726,88.3639,34.2,38,0.0,1002.9,8.8,22.3,141,86.1,29.0,0,5,4,1,2026-04-12T16:11:31.501289+05:30
Pune,Maharashtra,18.5204,73.8567,39.0,21,0.0,945.9,8.55,42.5,143,34.6,21.4,0,5,10,0,2026-04-12T16:11:31.501301+05:30
Ahmedabad,Gujarat,23.0225,72.5714,41.1,15,0.0,998.5,8.1,22.3,108,81.3,21.5,0,5,10,0,2026-04-12T16:11:31.501309+05:30
Jaipur,Rajasthan,26.9124,75.7873,34.9,13,0.0,959.2,7.85,30.2,147,208.6,27.9,0,5,7,0,2026-04-12T16:11:31.501317+05:30
Lucknow,Uttar Pradesh,26.8467,80.9462,35.7,22,0.0,990.4,7.7,29.2,166,170.0,35.2,0,5,10,0,2026-04-12T16:11:31.501324+05:30
Kanpur,Uttar Pradesh,26.4499,80.3319,34.0,30,0.0,989.3,7.75,24.5,418,368.8,50.5,0,5,7,0,2026-04-12T16:11:31.501332+05:30
Chandigarh,Chandigarh,30.7333,76.7794,30.0,33,0.0,968.2,7.1,31.7,120,33.2,14.8,4,5,7,0,2026-04-12T16:11:31.501340+05:30
Srinagar,Jammu and Kashmir,34.0837,74.7973,18.3,46,0.0,841.3,8.05,17.3,97,17.6,7.3,0,5,7,0,2026-04-12T16:11:31.501347+05:30
Jammu,Jammu and Kashmir,32.7266,74.857,30.0,34,0.0,972.5,7.8,27.7,70,38.0,11.7,4,5,7,0,2026-04-12T16:11:31.501355+05:30
Amritsar,Punjab,31.634,74.8723,29.8,33,0.0,980.9,7.75,25.6,94,35.0,12.5,4,5,7,0,2026-04-12T16:11:31.501362+05:30
Ludhiana,Punjab,30.901,75.8573,30.8,29,0.0,978.5,7.4,30.2,79,53.0,14.7,0,5,7,0,2026-04-12T16:11:31.501369+05:30
Jalandhar,Punjab,31.326,75.5762,30.2,32,0.0,979.7,7.55,27.0,82,63.1,15.3,0,5,7,0,2026-04-12T16:11:31.501379+05:30
Dehradun,Uttarakhand,30.6284,78.0322,19.2,54,0.0,829.8,7.45,33.5,103,36.4,12.0,0,5,7,0,2026-04-12T16:11:31.501386+05:30
Shimla,Himachal Pradesh,31.1048,77.1734,17.2,49,0.0,784.8,7.65,41.0,111,31.5,12.3,0,5,7,0,2026-04-12T16:11:31.501393+05:30
Manali,Himachal Pradesh,32.2396,77.1887,18.2,56,0.0,819.1,9.85,29.2,154,16.7,5.9,0,5,7,0,2026-04-12T16:11:31.501399+05:30
Gurgaon,Haryana,28.4595,77.0266,33.1,21,0.0,980.4,7.3,33.5,851,1870.1,171.4,0,5,7,0,2026-04-12T16:11:31.501406+05:30
Noida,Uttar Pradesh,28.5355,77.391,33.3,22,0.0,983.3,7.25,33.8,851,1870.1,171.4,0,5,7,0,2026-04-12T16:11:31.501413+05:30
Ghaziabad,Uttar Pradesh,28.6692,77.4538,32.7,25,0.0,981.5,7.2,32.8,172,448.0,55.8,0,5,7,0,2026-04-12T16:11:31.501420+05:30
Faridabad,Haryana,28.4089,77.3178,33.2,21,0.0,982.6,7.3,33.1,851,1870.1,171.4,0,5,7,0,2026-04-12T16:11:31.501427+05:30
Meerut,Uttar Pradesh,28.9845,77.7064,32.2,26,0.0,980.1,7.1,33.1,172,448.0,55.8,0,5,7,0,2026-04-12T16:11:31.501434+05:30
Agra,Uttar Pradesh,27.1767,78.0081,34.9,18,0.0,986.3,7.6,33.5,517,1087.8,101.5,0,5,7,0,2026-04-12T16:11:31.501440+05:30
Varanasi,Uttar Pradesh,25.3176,82.9739,37.7,18,0.0,993.9,8.3,25.9,137,27.0,13.2,0,5,10,0,2026-04-12T16:11:31.501450+05:30
Prayagraj,Uttar Pradesh,25.4358,81.8463,38.1,19,0.0,992.0,8.2,24.1,156,46.8,14.4,0,5,10,0,2026-04-12T16:11:31.501457+05:30
Gorakhpur,Uttar Pradesh,26.7606,83.3732,37.0,17,0.0,993.1,8.15,36.0,105,79.4,22.9,0,5,10,0,2026-04-12T16:11:31.501465+05:30
Bareilly,Uttar Pradesh,28.367,79.4304,33.3,26,0.0,984.7,7.45,34.9,100,67.8,19.7,0,5,7,0,2026-04-12T16:11:31.501472+05:30
Aligarh,Uttar Pradesh,27.8974,78.088,34.2,20,0.0,984.0,7.4,34.2,461,1072.9,107.6,0,5,7,0,2026-04-12T16:11:31.501479+05:30
Moradabad,Uttar Pradesh,28.8386,78.7733,32.2,29,0.0,981.9,7.25,36.0,102,48.1,17.8,0,5,7,0,2026-04-12T16:11:31.501485+05:30
Saharanpur,Uttar Pradesh,29.9637,77.546,30.6,32,0.0,974.6,6.9,32.0,105,128.5,25.8,0,5,7,0,2026-04-12T16:11:31.501491+05:30
Jhansi,Uttar Pradesh,25.4484,78.5685,36.4,23,0.0,975.7,8.15,36.0,100,184.9,34.1,0,5,10,0,2026-04-12T16:11:34.758057+05:30
Surat,Gujarat,21.1702,72.8311,33.9,46,0.0,1003.7,7.8,26.6,150,85.0,58.1,0,5,4,1,2026-04-12T16:11:34.758089+05:30
Vadodara,Gujarat,22.3072,73.1812,40.0,18,0.0,1000.8,8.05,22.3,128,54.2,23.5,0,5,7,0,2026-04-12T16:11:34.758102+05:30
Rajkot,Gujarat,22.3039,70.8022,39.0,19,0.0,991.4,7.8,23.4,75,61.5,19.3,0,5,10,0,2026-04-12T16:11:34.758111+05:30
Thane,Maharashtra,19.2183,72.9781,32.4,56,0.0,1004.8,8.0,34.6,174,55.5,34.7,0,5,4,1,2026-04-12T16:11:34.758120+05:30
Nagpur,Maharashtra,21.1458,79.0882,37.1,26,0.0,969.9,8.8,14.8,167,25.4,19.3,0,5,10,0,2026-04-12T16:11:34.758129+05:30
Nashik,Maharashtra,19.9975,73.7898,37.3,21,0.0,943.4,8.25,33.1,145,37.8,19.4,0,5,10,0,2026-04-12T16:11:34.758137+05:30
Aurangabad,Maharashtra,19.8762,75.3433,39.3,15,0.0,941.4,8.95,31.0,159,35.9,21.7,0,5,10,0,2026-04-12T16:11:34.758146+05:30
Solapur,Maharashtra,17.6599,75.9064,40.9,17,0.0,953.4,9.05,27.0,121,36.0,23.7,0,5,10,0,2026-04-12T16:11:34.758154+05:30
Kolhapur,Maharashtra,16.705,74.2433,35.0,40,0.0,945.5,9.05,49.3,110,36.4,25.9,0,5,7,1,2026-04-12T16:11:34.758162+05:30
Goa,Goa,15.2993,74.124,31.0,68,0.0,995.4,9.05,32.8,101,41.1,26.4,3,5,7,1,2026-04-12T16:11:34.758171+05:30
Jodhpur,Rajasthan,26.2389,73.0243,36.2,18,0.0,982.1,8.1,16.2,95,55.5,14.3,0,5,10,0,2026-04-12T16:11:34.758179+05:30
Udaipur,Rajasthan,24.5854,73.7125,35.3,16,0.0,945.9,8.7,28.4,67,52.5,11.6,0,5,10,0,2026-04-12T16:11:34.758187+05:30
Kota,Rajasthan,25.2138,75.8648,36.4,20,0.0,977.2,8.15,24.1,79,186.7,36.8,0,5,10,0,2026-04-12T16:11:34.758196+05:30
Bikaner,Rajasthan,28.0229,73.3119,36.1,14,0.0,981.2,7.95,21.2,96,47.1,13.1,0,5,10,0,2026-04-12T16:11:34.758204+05:30
Ajmer,Rajasthan,26.4499,74.6399,34.7,13,0.0,954.3,8.05,26.3,98,44.2,13.1,0,5,7,0,2026-04-12T16:11:34.758212+05:30
Gwalior,Madhya Pradesh,26.2183,78.1828,34.4,27,0.0,981.9,7.85,33.1,101,184.9,36.0,0,5,7,0,2026-04-12T16:11:34.758220+05:30
Indore,Madhya Pradesh,22.7196,75.8577,35.9,21,0.0,946.4,8.55,27.7,80,25.5,13.2,0,5,10,0,2026-04-12T16:11:34.758228+05:30
Bhopal,Madhya Pradesh,23.2599,77.4126,38.4,15,0.0,951.3,8.5,32.4,93,16.0,10.5,0,5,10,0,2026-04-12T16:11:34.758236+05:30
Jabalpur,Madhya Pradesh,23.1815,79.9864,37.6,15,0.0,958.6,8.65,33.8,122,18.6,11.0,0,5,10,0,2026-04-12T16:11:34.758243+05:30
Ujjain,Madhya Pradesh,23.1765,75.7885,36.5,19,0.0,952.0,8.45,27.4,71,39.1,16.0,0,5,10,0,2026-04-12T16:11:34.758251+05:30
Visakhapatnam,Andhra Pradesh,17.6868,83.2185,31.7,66,0.0,1001.7,9.2,38.9,80,31.4,22.1,3,5,4,1,2026-04-12T16:11:34.758259+05:30
Vijayawada,Andhra Pradesh,16.5062,80.648,37.1,42,0.0,999.3,9.25,35.6,62,26.0,17.6,0,5,10,1,2026-04-12T16:11:34.758267+05:30
Guntur,Andhra Pradesh,16.3067,80.4365,36.1,43,0.0,1001.0,9.25,34.9,61,25.8,17.3,0,5,7,1,2026-04-12T16:11:34.758274+05:30
Nellore,Andhra Pradesh,14.4426,79.9865,35.6,46,0.0,1003.3,9.35,34.6,55,29.8,19.4,0,5,7,1,2026-04-12T16:11:34.758283+05:30
Kurnool,Andhra Pradesh,15.8281,78.0373,40.9,23,0.0,973.2,9.25,31.0,101,35.6,23.2,0,5,10,0,2026-04-12T16:11:34.758292+05:30
Kakinada,Andhra Pradesh,16.9891,82.2475,34.8,52,0.0,1004.7,9.2,36.7,56,22.4,11.7,0,5,4,1,2026-04-12T16:11:34.758300+05:30
Tirupati,Andhra Pradesh,13.6288,79.4192,36.5,33,0.0,988.8,9.45,32.0,68,31.0,21.6,0,5,10,1,2026-04-12T16:11:34.758308+05:30
Warangal,Telangana,17.9689,79.5941,39.1,27,0.0,975.0,9.1,29.5,96,30.0,21.1,0,5,10,1,2026-04-12T16:11:34.758316+05:30
Nizamabad,Telangana,18.6725,78.0941,39.6,21,0.0,961.6,9.05,26.3,159,34.2,22.2,0,5,10,0,2026-04-12T16:11:34.758324+05:30
Mysore,Karnataka,12.2958,76.6396,35.5,29,0.0,926.2,9.55,44.3,104,37.3,27.0,0,5,10,0,2026-04-12T16:11:34.758332+05:30
Mangalore,Karnataka,12.9141,74.856,29.5,79,0.0,1004.0,9.2,24.1,96,70.8,36.2,7,5,4,1,2026-04-12T16:11:34.758340+05:30
Hubli-Dharwad,Karnataka,15.3647,75.124,33.4,49,0.0,938.4,9.25,35.6,121,41.1,29.8,0,5,7,1,2026-04-12T16:11:34.758349+05:30
Belgaum,Karnataka,15.8497,74.4977,31.8,56,0.0,923.9,9.3,41.8,135,38.3,28.3,0,5,7,1,2026-04-12T16:11:38.012917+05:30
Coimbatore,Tamil Nadu,11.0168,76.9558,36.4,30,0.0,959.0,9.5,37.4,111,30.9,21.8,0,5,10,0,2026-04-12T16:11:38.012949+05:30
Madurai,Tamil Nadu,9.9252,78.1198,37.8,31,0.0,989.5,9.4,32.8,90,20.4,14.6,0,5,10,1,2026-04-12T16:11:38.012960+05:30
Trichy,Tamil Nadu,10.7905,78.7047,37.4,35,0.0,996.4,9.4,27.4,71,16.9,11.0,0,5,10,1,2026-04-12T16:11:38.012969+05:30
Salem,Tamil Nadu,11.6643,78.146,37.9,27,0.0,974.2,9.45,25.9,82,28.2,19.1,0,5,10,0,2026-04-12T16:11:38.012977+05:30
Tirunelveli,Tamil Nadu,8.7139,77.7567,36.3,38,0.0,999.8,9.35,37.4,87,22.6,16.9,0,5,10,1,2026-04-12T16:11:38.012985+05:30
Vellore,Tamil Nadu,12.9165,79.1325,36.4,30,0.0,982.0,9.5,33.5,86,34.0,25.0,0,5,10,1,2026-04-12T16:11:38.012992+05:30
Erode,Tamil Nadu,11.341,77.7172,38.6,31,0.0,985.5,9.45,29.5,74,24.7,16.6,0,5,10,1,2026-04-12T16:11:38.012999+05:30
Kochi,Kerala,9.9312,76.2673,29.9,80,0.0,1005.5,8.7,28.1,96,46.2,28.3,7,5,4,1,2026-04-12T16:11:38.013006+05:30
Thiruvananthapuram,Kerala,8.5241,76.9366,29.8,81,0.0,1005.0,9.2,21.6,80,47.5,25.6,7,5,4,1,2026-04-12T16:11:38.013013+05:30
Kozhikode,Kerala,11.2588,75.7804,31.0,75,0.0,1004.9,9.1,32.4,87,66.1,31.4,3,5,4,1,2026-04-12T16:11:38.013020+05:30
Thrissur,Kerala,10.5276,76.2144,33.1,60,0.0,1004.0,8.15,32.0,91,40.6,25.0,0,5,4,1,2026-04-12T16:11:38.013028+05:30
Kannur,Kerala,11.8745,75.3704,31.2,68,0.0,1004.6,9.2,31.3,108,70.8,34.9,3,5,4,1,2026-04-12T16:11:38.013034+05:30
Patna,Bihar,25.5941,85.1376,36.6,19,0.0,996.4,8.45,36.4,121,99.7,27.1,0,5,10,0,2026-04-12T16:11:38.013041+05:30
Gaya,Bihar,24.7914,85.0002,36.3,21,0.0,990.3,8.55,26.3,130,112.0,27.9,0,5,10,0,2026-04-12T16:11:38.013048+05:30
Muzaffarpur,Bihar,26.1209,85.3647,36.3,20,0.0,996.1,8.45,34.6,152,96.4,29.6,0,5,10,0,2026-04-12T16:11:38.013054+05:30
Bhagalpur,Bihar,25.2425,87.0117,33.7,33,0.0,997.7,8.5,26.6,150,155.5,42.1,0,5,7,0,2026-04-12T16:11:38.013061+05:30
Ranchi,Jharkhand,23.3441,85.3096,33.4,19,0.0,936.1,9.1,30.6,130,24.7,8.8,0,5,7,0,2026-04-12T16:11:38.013068+05:30
Jamshedpur,Jharkhand,22.8046,86.2029,35.5,26,0.0,987.9,8.9,18.4,158,49.7,14.6,0,5,10,0,2026-04-12T16:11:38.013076+05:30
Dhanbad,Jharkhand,23.7957,86.4304,37.0,16,0.0,976.6,8.85,29.5,131,51.0,16.5,0,5,10,0,2026-04-12T16:11:38.013083+05:30
Bokaro,Jharkhand,23.6693,86.1511,36.4,16,0.0,980.6,8.85,30.2,127,35.9,13.7,0,5,10,0,2026-04-12T16:11:38.013090+05:30
Bhubaneswar,Odisha,20.2961,85.8245,33.5,56,0.0,1000.2,9.05,32.8,113,50.8,25.4,0,5,4,1,2026-04-12T16:11:38.013097+05:30
Cuttack,Odisha,20.4625,85.8828,37.3,32,0.0,1001.1,9.1,34.6,113,50.8,25.4,0,5,7,1,2026-04-12T16:11:38.013104+05:30
Rourkela,Odisha,22.2604,84.8536,37.3,18,0.0,982.1,8.85,17.6,170,49.4,18.1,0,5,10,0,2026-04-12T16:11:38.013110+05:30
Raipur,Chhattisgarh,21.2514,81.6296,39.4,14,0.0,971.3,8.9,19.8,150,27.3,18.7,0,5,10,0,2026-04-12T16:11:38.013116+05:30
Bhilai,Chhattisgarh,21.1938,81.3509,39.3,15,0.0,971.6,8.9,15.8,130,24.0,15.8,0,5,10,0,2026-04-12T16:11:38.013123+05:30
Guwahati,Assam,26.1158,91.7086,28.6,61,0.0,998.3,8.4,30.2,149,80.8,42.6,7,5,7,1,2026-04-12T16:11:38.013129+05:30
Agartala,Tripura,23.8315,91.2868,31.7,52,0.0,1002.6,8.6,29.5,103,66.1,36.1,0,5,4,1,2026-04-12T16:11:38.013135+05:30
Shillong,Meghalaya,25.5788,91.8933,17.4,65,0.0,853.9,7.05,64.4,142,72.9,38.9,3,5,7,0,2026-04-12T16:11:38.013142+05:30
Imphal,Manipur,24.817,93.9368,22.2,58,0.0,921.1,9.0,62.6,129,73.8,28.0,0,5,7,0,2026-04-12T16:11:38.013149+05:30
Aizawl,Mizoram,23.7271,92.7176,24.9,48,0.0,891.6,8.85,44.3,131,73.8,29.3,0,5,7,0,2026-04-12T16:11:38.013155+05:30
Kohima,Nagaland,25.6701,94.1077,17.3,75,0.0,852.8,8.9,88.9,125,74.7,31.7,3,5,7,0,2026-04-12T16:11:38.013161+05:30
Gangtok,Sikkim,27.3314,88.6138,15.7,79,0.0,834.9,8.05,16.6,153,84.8,28.6,3,5,7,0,2026-04-12T16:11:38.013168+05:30
Siliguri,West Bengal,26.7271,88.3953,24.6,57,0.0,991.2,7.3,18.7,159,109.4,34.7,0,5,7,0,2026-04-12T16:11:41.271423+05:30
Durgapur,West Bengal,23.5204,87.3119,35.3,27,0.0,991.8,8.8,21.2,147,89.4,24.4,0,5,10,0,2026-04-12T16:11:41.271457+05:30
Asansol,West Bengal,23.6739,86.9524,36.0,23,0.0,990.1,8.85,23.4,126,68.9,20.3,0,5,10,0,2026-04-12T16:11:41.271469+05:30
Pondicherry,Puducherry,11.9139,79.8145,34.9,46,0.0,1005.9,9.35,29.5,48,10.9,5.9,0,5,4,1,2026-04-12T16:11:41.271478+05:30
Port Blair,Andaman and Nicobar Islands,11.6234,92.7265,29.4,76,0.0,1005.4,9.25,15.8,50,32.0,15.9,7,5,4,1,2026-04-12T16:11:41.271488+05:30
Haridwar,Uttarakhand,29.9457,78.1642,30.9,31,0.0,972.8,7.0,33.8,100,35.9,15.0,0,5,7,0,2026-04-12T16:11:41.271497+05:30
Rishikesh,Uttarakhand,30.0869,78.2676,30.1,31,0.0,965.6,7.1,34.2,97,29.3,11.0,0,5,7,0,2026-04-12T16:11:41.271505+05:30
Nainital,Uttarakhand,29.3919,79.4542,23.1,33,0.0,806.4,7.95,52.2,108,46.7,14.6,0,5,7,0,2026-04-12T16:11:41.271514+05:30
Mussoorie,Uttarakhand,30.4599,78.0664,20.2,46,0.0,802.7,7.4,37.8,97,31.0,13.9,0,5,7,0,2026-04-12T16:11:41.271523+05:30
Dharamshala,Himachal Pradesh,32.219,76.3234,22.5,54,0.0,869.0,7.7,23.4,108,32.4,8.6,0,5,7,0,2026-04-12T16:11:41.271531+05:30
Dalhousie,Himachal Pradesh,32.5387,75.971,20.7,44,0.0,804.3,7.95,20.5,95,44.4,12.6,0,5,7,0,2026-04-12T16:11:41.271540+05:30
Patiala,Punjab,30.3398,76.3869,31.3,28,0.0,977.6,7.0,32.0,212,780.4,71.5,0,5,7,0,2026-04-12T16:11:41.271548+05:30
Bhatinda,Punjab,30.211,74.9455,32.8,22,0.0,983.4,7.75,32.0,104,55.5,14.8,0,5,7,0,2026-04-12T16:11:41.271557+05:30
Rohtak,Haryana,28.8955,76.6066,33.4,20,0.0,980.9,7.25,36.0,548,1013.3,94.8,0,5,7,0,2026-04-12T16:11:41.271565+05:30
Panipat,Haryana,29.3909,76.9635,32.2,25,0.0,979.5,7.05,33.8,944,1687.6,147.1,0,5,7,0,2026-04-12T16:11:41.271573+05:30
Mathura,Uttar Pradesh,27.4924,77.6737,34.5,20,0.0,985.5,7.55,28.8,560,1195.8,106.2,0,5,7,0,2026-04-12T16:11:41.271581+05:30
Vrindavan,Uttar Pradesh,27.5823,77.7027,34.1,20,0.0,985.9,7.5,32.0,560,1195.8,106.2,0,5,7,0,2026-04-12T16:11:41.271588+05:30
Ayodhya,Uttar Pradesh,26.7922,82.1998,36.8,17,0.0,991.7,7.9,36.0,117,117.3,27.3,0,5,10,0,2026-04-12T16:11:41.271596+05:30
Ratlam,Madhya Pradesh,23.3315,75.0367,34.5,28,0.0,953.2,8.35,26.6,71,37.0,12.9,0,5,7,0,2026-04-12T16:11:41.271605+05:30
Sagar,Madhya Pradesh,23.8388,78.7378,37.5,19,0.0,947.9,8.5,33.1,100,24.3,10.2,0,5,10,0,2026-04-12T16:11:41.271613+05:30
Satna,Madhya Pradesh,24.6005,80.8322,37.9,17,0.0,967.9,8.5,37.1,123,21.9,10.4,0,5,10,0,2026-04-12T16:11:41.271622+05:30
Akola,Maharashtra,20.7002,77.0082,40.7,13,0.0,971.5,8.8,27.4,148,34.5,22.1,0,5,10,0,2026-04-12T16:11:41.271631+05:30
Amravati,Maharashtra,20.9374,77.7796,39.2,15,0.0,964.2,8.8,20.5,144,33.2,21.5,0,5,10,0,2026-04-12T16:11:41.271640+05:30
Latur,Maharashtra,18.4088,76.5604,37.3,21,0.0,937.6,9.05,24.5,115,34.9,20.5,0,5,10,0,2026-04-12T16:11:41.271669+05:30
Nanded,Maharashtra,19.1383,77.3091,38.6,24,0.0,965.6,8.95,14.8,158,38.8,24.9,0,5,10,0,2026-04-12T16:11:41.271680+05:30
Gulbarga,Karnataka,17.3297,76.8343,39.9,21,0.0,955.3,9.1,28.4,115,38.0,26.7,0,5,10,0,2026-04-12T16:11:41.271689+05:30
Bidar,Karnataka,17.9104,77.5199,38.6,22,0.0,933.2,9.1,26.6,126,33.1,20.7,0,5,10,0,2026-04-12T16:11:41.271697+05:30
Hospet,Karnataka,15.2689,76.3909,36.5,35,0.0,953.0,9.3,26.6,116,41.6,30.9,0,5,10,1,2026-04-12T16:11:41.271704+05:30
Tirupur,Tamil Nadu,11.1085,77.3411,38.0,28,0.0,972.1,9.5,29.2,93,27.8,18.8,0,5,10,1,2026-04-12T16:11:41.271710+05:30
Alappuzha,Kerala,9.4981,76.3388,29.8,81,0.0,1005.6,9.2,24.5,97,49.8,28.3,7,5,4,1,2026-04-12T16:11:41.271717+05:30
Munnar,Kerala,10.0889,77.0595,29.4,50,0.0,857.2,9.75,30.6,93,24.6,16.8,4,5,7,1,2026-04-12T16:11:41.271724+05:30
Silchar,Assam,24.8333,92.7789,29.1,66,0.0,1002.1,8.65,38.2,140,71.2,45.1,7,5,4,1,2026-04-12T16:11:41.271731+05:30
Dibrugarh,Assam,27.4728,94.912,23.1,78,0.0,995.0,8.2,32.0,110,55.5,38.4,3,5,7,1,2026-04-12T16:11:41.271737+05:30
