city,state,latitude,longitude,temp,humidity,rain,pressure,uv_index,wind_gusts,aqi,pm10,pm2_5,no2,co,o3,so2,mosquito_risk,arthritis_risk,migraine_risk,frizz_risk,updated_at
Delhi,Delhi,28.6139,77.209,42.2,15,0.0,978.8,7.8,36.4,473,321.3,63.6,3.8,213.0,152.0,9.7,0,5,10,0,2026-05-22T15:02:02.297494+05:30
Mumbai,Maharashtra,19.076,72.8777,33.2,63,0.1,1007.7,7.05,35.6,58,34.0,23.4,5.6,180.0,127.0,7.5,6,5,4,1,2026-05-22T15:02:02.297535+05:30
Bangalore,Karnataka,12.9716,77.5946,32.0,45,0.0,911.8,7.4,44.3,37,15.0,9.3,3.2,298.0,126.0,2.9,0,5,7,1,2026-05-22T15:02:02.297547+05:30
Hyderabad,Telangana,17.385,78.4867,38.3,28,0.0,950.9,7.45,50.4,77,37.3,25.0,2.2,240.0,153.0,7.6,0,5,10,1,2026-05-22T15:02:02.297555+05:30
Chennai,Tamil Nadu,13.0827,80.2707,36.7,49,0.0,1002.8,9.0,41.8,100,33.4,25.1,3.2,274.0,203.0,5.6,0,5,7,1,2026-05-22T15:02:02.297561+05:30
Kolkata,West Bengal,22.5726,88.3639,35.0,64,0.0,999.7,8.95,36.7,127,72.6,43.3,2.5,318.0,126.0,7.7,3,5,7,1,2026-05-22T15:02:02.297567+05:30
Pune,Maharashtra,18.5204,73.8567,28.4,71,0.1,948.5,8.45,36.0,53,24.0,16.8,2.3,193.0,128.0,6.1,10,5,7,1,2026-05-22T15:02:02.297573+05:30
Ahmedabad,Gujarat,23.0225,72.5714,42.0,19,0.0,999.2,8.15,42.1,72,45.8,21.0,1.4,158.0,106.0,2.5,0,5,10,0,2026-05-22T15:02:02.297578+05:30
Jaipur,Rajasthan,26.9124,75.7873,40.3,18,0.0,957.9,8.25,42.1,152,151.3,39.3,0.9,151.0,107.0,2.7,0,5,10,0,2026-05-22T15:02:02.297587+05:30
Lucknow,Uttar Pradesh,26.8467,80.9462,42.2,19,0.0,988.1,8.25,37.8,190,282.2,80.1,1.9,260.0,189.0,11.3,0,5,10,0,2026-05-22T15:02:02.297592+05:30
Kanpur,Uttar Pradesh,26.4499,80.3319,43.2,13,0.0,986.7,8.25,39.6,403,581.1,83.4,1.3,170.0,142.0,5.2,0,5,10,0,2026-05-22T15:02:02.297597+05:30
Chandigarh,Chandigarh,30.7333,76.7794,39.1,16,0.0,966.0,7.75,68.8,101,66.6,22.9,1.4,218.0,133.0,4.9,0,5,10,0,2026-05-22T15:02:02.297602+05:30
Srinagar,Jammu and Kashmir,34.0837,74.7973,21.0,57,0.0,844.7,8.95,37.8,66,48.2,14.3,2.2,222.0,111.0,1.8,0,5,7,0,2026-05-22T15:02:02.297621+05:30
Jammu,Jammu and Kashmir,32.7266,74.857,37.5,19,0.0,970.8,8.55,41.8,77,66.4,18.5,1.2,188.0,120.0,1.3,0,5,10,0,2026-05-22T15:02:02.297627+05:30
Amritsar,Punjab,31.634,74.8723,38.3,23,0.0,978.3,8.45,56.2,79,83.8,26.2,1.2,179.0,138.0,3.4,0,5,10,0,2026-05-22T15:02:02.297632+05:30
Ludhiana,Punjab,30.901,75.8573,39.1,20,0.0,975.9,8.05,42.8,85,86.4,25.5,1.1,183.0,127.0,2.8,0,5,10,0,2026-05-22T15:02:02.297637+05:30
Jalandhar,Punjab,31.326,75.5762,39.2,20,0.0,976.9,8.2,47.5,91,94.5,27.0,1.1,177.0,133.0,2.6,0,5,10,0,2026-05-22T15:02:02.297642+05:30
Dehradun,Uttarakhand,30.6284,78.0322,25.3,37,0.0,833.6,8.2,34.9,89,51.0,21.7,1.2,202.0,141.0,3.5,4,5,7,0,2026-05-22T15:02:02.297647+05:30
Shimla,Himachal Pradesh,31.1048,77.1734,22.4,31,0.0,788.6,7.6,38.9,79,53.3,20.8,1.1,161.0,131.0,2.9,0,5,7,0,2026-05-22T15:02:02.297654+05:30
Manali,Himachal Pradesh,32.2396,77.1887,22.0,56,0.1,822.1,8.05,51.8,69,18.4,7.4,1.3,138.0,136.0,0.8,3,5,7,0,2026-05-22T15:02:02.297659+05:30
Gurgaon,Haryana,28.4595,77.0266,40.8,19,0.0,977.8,7.85,37.1,1461,323.2,67.3,3.2,182.0,142.0,6.7,0,5,10,0,2026-05-22T15:02:02.297663+05:30
Noida,Uttar Pradesh,28.5355,77.391,42.4,15,0.0,979.8,7.8,37.1,1461,323.2,67.3,3.2,213.0,142.0,6.7,0,5,10,0,2026-05-22T15:02:02.297670+05:30
Ghaziabad,Uttar Pradesh,28.6692,77.4538,40.8,20,0.0,978.5,7.8,38.5,417,248.7,59.3,2.9,181.0,172.0,12.8,0,5,10,0,2026-05-22T15:02:02.297676+05:30
Faridabad,Haryana,28.4089,77.3178,42.2,15,0.0,979.3,7.85,37.4,1461,323.2,67.3,3.2,189.0,142.0,6.7,0,5,10,0,2026-05-22T15:02:02.297680+05:30
Meerut,Uttar Pradesh,28.9845,77.7064,40.6,21,0.0,977.5,7.7,37.8,417,248.7,59.3,2.9,204.0,172.0,12.8,0,5,10,0,2026-05-22T15:02:02.297685+05:30
Agra,Uttar Pradesh,27.1767,78.0081,42.5,15,0.0,983.5,8.1,44.6,836,681.7,91.0,1.4,158.0,126.0,2.7,0,5,10,0,2026-05-22T15:02:02.297690+05:30
Varanasi,Uttar Pradesh,25.3176,82.9739,43.3,16,0.0,991.3,8.75,35.3,120,163.0,39.8,1.7,196.0,170.0,7.4,0,5,10,0,2026-05-22T15:02:02.297695+05:30
Prayagraj,Uttar Pradesh,25.4358,81.8463,43.5,14,0.0,990.0,8.65,38.2,110,156.0,41.7,1.6,167.0,167.0,8.1,0,5,10,0,2026-05-22T15:02:02.297700+05:30
Gorakhpur,Uttar Pradesh,26.7606,83.3732,38.7,39,0.0,991.6,8.65,31.3,154,116.9,63.1,1.9,369.0,202.0,15.0,0,5,10,1,2026-05-22T15:02:02.297710+05:30
Bareilly,Uttar Pradesh,28.367,79.4304,40.2,21,0.0,982.1,8.05,31.3,186,193.7,73.6,1.7,358.0,201.0,10.4,0,5,10,0,2026-05-22T15:02:02.297714+05:30
Aligarh,Uttar Pradesh,27.8974,78.088,41.2,16,0.0,981.4,7.95,37.8,846,851.2,117.6,1.5,161.0,133.0,4.6,0,5,10,0,2026-05-22T15:02:02.297719+05:30
Moradabad,Uttar Pradesh,28.8386,78.7733,40.0,26,0.0,979.3,7.9,37.8,217,246.8,90.3,3.1,327.0,241.0,20.3,0,5,10,1,2026-05-22T15:02:02.297724+05:30
Saharanpur,Uttar Pradesh,29.9637,77.546,38.9,23,0.0,972.4,7.5,46.8,161,94.5,39.1,2.8,229.0,191.0,16.6,0,5,10,0,2026-05-22T15:02:02.297729+05:30
Jhansi,Uttar Pradesh,25.4484,78.5685,42.2,14,0.0,974.5,8.5,42.1,54,94.5,22.6,0.9,126.0,116.0,2.9,0,5,10,0,2026-05-22T15:02:05.661299+05:30
Surat,Gujarat,21.1702,72.8311,35.6,50,0.0,1005.2,7.75,42.5,75,41.0,27.4,15.9,346.0,61.0,49.6,0,5,7,1,2026-05-22T15:02:05.661331+05:30
Vadodara,Gujarat,22.3072,73.1812,41.2,28,0.0,1001.4,8.15,45.7,77,65.4,32.7,1.8,182.0,140.0,8.6,0,5,7,1,2026-05-22T15:02:05.661340+05:30
Rajkot,Gujarat,22.3039,70.8022,41.5,20,0.0,991.9,7.8,45.4,76,56.0,24.7,1.0,139.0,118.0,4.8,0,5,10,0,2026-05-22T15:02:05.661347+05:30
Thane,Maharashtra,19.2183,72.9781,34.2,57,0.0,1006.8,7.1,32.4,58,34.0,23.4,5.6,174.0,127.0,7.5,0,5,4,1,2026-05-22T15:02:05.661354+05:30
Nagpur,Maharashtra,21.1458,79.0882,44.2,12,0.0,968.9,8.75,42.8,77,27.6,16.4,4.6,162.0,152.0,15.1,0,5,10,0,2026-05-22T15:02:05.661360+05:30
Nashik,Maharashtra,19.9975,73.7898,32.7,50,0.0,945.3,8.15,46.4,52,24.5,14.4,1.1,150.0,96.0,1.5,0,5,7,1,2026-05-22T15:02:05.661366+05:30
Aurangabad,Maharashtra,19.8762,75.3433,39.2,24,0.0,943.1,7.1,48.2,62,34.6,18.1,1.0,163.0,121.0,4.0,0,5,10,0,2026-05-22T15:02:05.661371+05:30
Solapur,Maharashtra,17.6599,75.9064,35.6,41,0.0,956.0,8.95,38.9,62,33.9,21.6,1.3,160.0,137.0,5.8,0,5,10,1,2026-05-22T15:02:05.661378+05:30
Kolhapur,Maharashtra,16.705,74.2433,34.5,40,0.0,947.5,8.65,45.4,42,13.4,9.0,1.5,150.0,105.0,1.7,0,5,7,1,2026-05-22T15:02:05.661384+05:30
Goa,Goa,15.2993,74.124,32.7,61,0.1,997.5,5.85,27.4,30,9.7,6.4,0.6,128.0,65.0,0.7,6,5,3,1,2026-05-22T15:02:05.661390+05:30
Jodhpur,Rajasthan,26.2389,73.0243,40.4,16,0.0,980.9,8.45,35.6,159,329.7,64.0,0.7,131.0,112.0,3.2,0,5,10,0,2026-05-22T15:02:05.661396+05:30
Udaipur,Rajasthan,24.5854,73.7125,38.8,12,0.0,945.9,8.85,40.7,58,97.8,27.7,0.5,125.0,102.0,1.8,0,5,10,0,2026-05-22T15:02:05.661401+05:30
Kota,Rajasthan,25.2138,75.8648,42.3,12,0.0,976.2,8.4,40.3,62,34.7,14.2,0.9,128.0,118.0,2.8,0,5,10,0,2026-05-22T15:02:05.661407+05:30
Bikaner,Rajasthan,28.0229,73.3119,41.7,18,0.0,978.6,8.4,25.9,164,122.5,43.5,0.3,145.0,99.0,2.7,0,5,10,0,2026-05-22T15:02:05.661412+05:30
Ajmer,Rajasthan,26.4499,74.6399,38.4,16,0.0,953.6,8.4,43.2,74,81.3,24.9,0.6,131.0,102.0,1.9,0,5,10,0,2026-05-22T15:02:05.661417+05:30
Gwalior,Madhya Pradesh,26.2183,78.1828,42.4,13,0.0,979.5,8.3,45.4,66,199.8,44.2,0.5,139.0,112.0,2.0,0,5,10,0,2026-05-22T15:02:05.661423+05:30
Indore,Madhya Pradesh,22.7196,75.8577,40.0,18,0.0,946.9,8.7,42.1,66,31.5,17.7,1.0,175.0,123.0,3.7,0,5,10,0,2026-05-22T15:02:05.661428+05:30
Bhopal,Madhya Pradesh,23.2599,77.4126,41.7,12,0.0,951.7,8.75,40.7,61,29.1,13.4,0.7,161.0,121.0,3.4,0,5,10,0,2026-05-22T15:02:05.661433+05:30
Jabalpur,Madhya Pradesh,23.1815,79.9864,42.5,10,0.0,958.4,8.9,39.6,56,15.2,8.8,0.8,135.0,127.0,2.5,0,5,10,0,2026-05-22T15:02:05.661438+05:30
Ujjain,Madhya Pradesh,23.1765,75.7885,40.5,18,0.0,952.3,8.65,40.3,65,36.2,19.0,0.6,150.0,116.0,3.1,0,5,10,0,2026-05-22T15:02:05.661444+05:30
Visakhapatnam,Andhra Pradesh,17.6868,83.2185,37.0,56,0.0,997.6,9.0,45.0,131,56.1,47.3,13.1,404.0,209.0,53.8,0,5,10,1,2026-05-22T15:02:05.661449+05:30
Vijayawada,Andhra Pradesh,16.5062,80.648,42.7,29,0.0,996.2,9.1,52.9,102,34.9,26.8,2.0,210.0,170.0,8.2,0,5,10,1,2026-05-22T15:02:05.661454+05:30
Guntur,Andhra Pradesh,16.3067,80.4365,41.2,30,0.0,998.1,9.1,52.2,101,34.2,25.9,1.6,208.0,165.0,7.8,0,5,10,1,2026-05-22T15:02:05.661460+05:30
Nellore,Andhra Pradesh,14.4426,79.9865,38.2,35,0.0,1001.6,8.2,50.0,71,39.9,26.4,2.2,164.0,149.0,6.6,0,5,7,1,2026-05-22T15:02:05.661466+05:30
Kurnool,Andhra Pradesh,15.8281,78.0373,39.0,30,0.0,974.3,9.05,46.8,65,23.2,17.5,1.5,169.0,146.0,7.4,0,5,10,1,2026-05-22T15:02:05.661472+05:30
Kakinada,Andhra Pradesh,16.9891,82.2475,41.6,34,0.0,1001.0,9.1,42.5,152,40.6,34.7,3.6,285.0,206.0,6.8,0,5,7,1,2026-05-22T15:02:05.661477+05:30
Tirupati,Andhra Pradesh,13.6288,79.4192,37.6,35,0.1,987.6,8.25,33.1,71,28.7,17.8,1.4,170.0,131.0,3.0,3,5,10,1,2026-05-22T15:02:05.661482+05:30
Warangal,Telangana,17.9689,79.5941,42.5,16,0.0,973.9,9.1,45.0,124,39.3,28.1,2.0,187.0,175.0,12.9,0,5,10,0,2026-05-22T15:02:05.661487+05:30
Nizamabad,Telangana,18.6725,78.0941,41.7,17,0.0,961.9,9.1,41.8,88,44.6,28.2,1.5,233.0,149.0,6.0,0,5,10,0,2026-05-22T15:02:05.661493+05:30
Mysore,Karnataka,12.2958,76.6396,33.6,42,0.0,928.4,8.8,52.9,33,11.2,7.4,1.7,136.0,98.0,1.3,0,5,7,1,2026-05-22T15:02:05.661498+05:30
Mangalore,Karnataka,12.9141,74.856,27.9,85,0.1,1007.7,8.35,41.8,39,6.9,4.7,0.9,139.0,69.0,1.1,10,5,4,1,2026-05-22T15:02:05.661504+05:30
Hubli-Dharwad,Karnataka,15.3647,75.124,31.0,54,0.0,940.8,8.65,41.0,30,7.5,5.1,1.3,133.0,86.0,0.8,0,5,7,1,2026-05-22T15:02:05.661509+05:30
Belgaum,Karnataka,15.8497,74.4977,28.8,62,0.1,926.2,8.55,40.7,32,9.3,6.2,1.3,136.0,89.0,1.7,10,5,7,1,2026-05-22T15:02:09.022737+05:30
Coimbatore,Tamil Nadu,11.0168,76.9558,33.3,50,0.0,960.8,8.4,55.8,33,12.7,8.0,1.4,162.0,93.0,1.9,0,5,7,1,2026-05-22T15:02:09.022768+05:30
Madurai,Tamil Nadu,9.9252,78.1198,39.8,28,0.0,989.5,8.55,51.5,63,18.5,11.7,2.1,142.0,128.0,2.4,0,5,10,1,2026-05-22T15:02:09.022777+05:30
Trichy,Tamil Nadu,10.7905,78.7047,38.1,36,0.0,995.7,8.9,55.1,39,11.9,8.5,1.8,147.0,114.0,2.4,0,5,10,1,2026-05-22T15:02:09.022784+05:30
Salem,Tamil Nadu,11.6643,78.146,38.4,32,0.0,974.6,8.9,43.6,49,17.6,11.3,2.4,168.0,137.0,6.7,0,5,10,1,2026-05-22T15:02:09.022790+05:30
Tirunelveli,Tamil Nadu,8.7139,77.7567,36.8,39,0.1,1000.8,8.45,51.1,30,8.2,5.4,1.2,119.0,84.0,0.9,3,5,7,1,2026-05-22T15:02:09.022796+05:30
Vellore,Tamil Nadu,12.9165,79.1325,39.9,24,0.0,980.5,7.95,53.3,65,37.8,17.8,1.4,173.0,133.0,2.8,0,5,10,0,2026-05-22T15:02:09.022802+05:30
Erode,Tamil Nadu,11.341,77.7172,38.1,35,0.0,985.9,8.7,49.0,37,15.1,9.3,2.0,180.0,116.0,1.9,0,5,10,1,2026-05-22T15:02:09.022808+05:30
Kochi,Kerala,9.9312,76.2673,29.6,75,0.0,1009.2,8.05,33.5,51,11.0,7.3,2.6,122.0,77.0,2.3,7,0,4,1,2026-05-22T15:02:09.022814+05:30
Thiruvananthapuram,Kerala,8.5241,76.9366,28.7,78,0.0,1008.7,7.8,40.0,29,9.7,5.6,0.9,99.0,71.0,0.5,7,0,4,1,2026-05-22T15:02:09.022820+05:30
Kozhikode,Kerala,11.2588,75.7804,29.9,72,0.0,1008.3,7.55,43.2,30,6.6,4.1,0.4,134.0,65.0,0.4,7,0,4,1,2026-05-22T15:02:09.022825+05:30
Thrissur,Kerala,10.5276,76.2144,30.1,72,0.0,1007.4,8.35,37.4,50,8.8,6.5,1.7,127.0,76.0,1.7,3,5,4,1,2026-05-22T15:02:09.022832+05:30
Kannur,Kerala,11.8745,75.3704,29.4,77,0.0,1007.9,8.05,41.8,37,7.3,5.2,0.9,131.0,73.0,1.0,7,5,4,1,2026-05-22T15:02:09.022838+05:30
Patna,Bihar,25.5941,85.1376,38.3,49,0.0,994.2,8.85,28.4,155,95.2,71.9,3.1,438.0,235.0,20.5,0,5,10,1,2026-05-22T15:02:09.022843+05:30
Gaya,Bihar,24.7914,85.0002,41.2,21,0.0,987.5,8.9,29.5,154,238.4,66.6,1.5,229.0,171.0,12.5,0,5,10,0,2026-05-22T15:02:09.022848+05:30
Muzaffarpur,Bihar,26.1209,85.3647,36.1,56,0.0,994.5,8.85,31.3,146,89.2,68.7,3.2,378.0,220.0,19.7,0,5,10,1,2026-05-22T15:02:09.022853+05:30
Bhagalpur,Bihar,25.2425,87.0117,36.2,56,0.0,994.6,8.85,33.8,134,69.2,54.4,5.1,422.0,210.0,23.9,0,5,10,1,2026-05-22T15:02:09.022858+05:30
Ranchi,Jharkhand,23.3441,85.3096,37.2,24,0.0,934.0,9.3,29.2,153,53.1,24.2,1.2,164.0,152.0,7.0,0,5,10,0,2026-05-22T15:02:09.022863+05:30
Jamshedpur,Jharkhand,22.8046,86.2029,38.3,39,0.0,984.5,9.1,33.5,152,120.6,76.1,3.0,230.0,226.0,26.2,0,5,10,1,2026-05-22T15:02:09.022868+05:30
Dhanbad,Jharkhand,23.7957,86.4304,39.8,27,0.0,974.0,9.1,33.5,163,119.2,75.0,9.1,306.0,220.0,50.2,0,5,10,1,2026-05-22T15:02:09.022874+05:30
Bokaro,Jharkhand,23.6693,86.1511,37.8,35,0.0,977.5,9.1,28.8,160,102.4,53.6,8.3,273.0,201.0,41.5,0,5,10,1,2026-05-22T15:02:09.022879+05:30
Bhubaneswar,Odisha,20.2961,85.8245,37.2,52,0.0,996.3,9.15,42.8,124,53.2,38.8,2.2,284.0,137.0,9.1,0,5,10,1,2026-05-22T15:02:09.022885+05:30
Cuttack,Odisha,20.4625,85.8828,37.3,54,0.0,997.7,9.2,36.4,124,53.2,38.8,2.2,289.0,137.0,9.1,0,5,10,1,2026-05-22T15:02:09.022890+05:30
Rourkela,Odisha,22.2604,84.8536,37.0,44,0.0,979.5,9.0,44.3,169,88.9,51.5,1.7,203.0,185.0,12.7,0,5,10,1,2026-05-22T15:02:09.022895+05:30
Raipur,Chhattisgarh,21.2514,81.6296,43.5,13,0.0,969.9,9.0,41.4,152,20.4,14.4,4.4,149.0,153.0,15.9,0,5,10,0,2026-05-22T15:02:09.022900+05:30
Bhilai,Chhattisgarh,21.1938,81.3509,43.2,13,0.0,970.1,8.8,38.2,106,23.5,16.6,6.1,152.0,155.0,22.7,0,5,10,0,2026-05-22T15:02:09.022905+05:30
Guwahati,Assam,26.1158,91.7086,30.4,74,0.2,996.1,8.8,23.0,90,24.0,17.7,1.4,327.0,125.0,2.1,6,5,7,1,2026-05-22T15:02:09.022910+05:30
Agartala,Tripura,23.8315,91.2868,32.4,72,0.0,1001.0,8.85,29.5,88,60.3,32.4,4.2,210.0,155.0,3.2,3,5,4,1,2026-05-22T15:02:09.022915+05:30
Shillong,Meghalaya,25.5788,91.8933,23.6,75,0.1,855.2,8.6,24.5,69,17.1,10.6,1.4,242.0,111.0,2.0,6,5,7,1,2026-05-22T15:02:09.022919+05:30
Imphal,Manipur,24.817,93.9368,29.2,63,0.0,920.0,9.3,35.6,95,26.0,16.2,1.2,228.0,110.0,2.3,7,5,7,1,2026-05-22T15:02:09.022924+05:30
Aizawl,Mizoram,23.7271,92.7176,24.1,81,0.0,890.1,8.35,28.4,75,31.5,15.7,0.7,208.0,90.0,1.6,3,5,7,1,2026-05-22T15:02:09.022931+05:30
Kohima,Nagaland,25.6701,94.1077,22.6,92,0.0,853.3,9.2,25.9,93,26.2,17.8,1.0,200.0,112.0,1.6,3,5,7,1,2026-05-22T15:02:09.022936+05:30
Gangtok,Sikkim,27.3314,88.6138,20.8,86,0.1,835.8,9.15,34.6,76,11.5,8.0,1.1,278.0,135.0,2.2,6,5,7,1,2026-05-22T15:02:09.022954+05:30
Siliguri,West Bengal,26.7271,88.3953,33.2,55,0.1,987.1,7.9,21.2,106,43.9,28.6,2.1,359.0,150.0,4.2,3,5,7,1,2026-05-22T15:02:12.390606+05:30
Durgapur,West Bengal,23.5204,87.3119,38.2,52,0.0,988.0,9.0,38.2,160,108.0,76.1,8.8,651.0,209.0,45.9,0,5,10,1,2026-05-22T15:02:12.390637+05:30
Asansol,West Bengal,23.6739,86.9524,36.7,55,0.0,987.0,9.05,39.6,158,112.2,76.6,8.0,304.0,209.0,43.6,0,5,10,1,2026-05-22T15:02:12.390647+05:30
Pondicherry,Puducherry,11.9139,79.8145,33.2,70,0.0,1004.2,8.95,45.7,60,31.3,26.3,6.0,223.0,187.0,12.4,3,5,4,1,2026-05-22T15:02:12.390654+05:30
Port Blair,Andaman and Nicobar Islands,11.6234,92.7265,27.5,87,0.1,1005.3,1.4,34.2,31,4.9,3.4,0.5,119.0,65.0,0.3,10,5,0,1,2026-05-22T15:02:12.390662+05:30
Haridwar,Uttarakhand,29.9457,78.1642,38.6,23,0.0,970.7,7.6,27.7,153,66.4,31.5,1.5,294.0,176.0,10.8,0,5,10,0,2026-05-22T15:02:12.390668+05:30
Rishikesh,Uttarakhand,30.0869,78.2676,37.7,21,0.0,963.8,7.7,30.2,131,89.9,32.9,0.8,254.0,158.0,6.4,0,5,10,0,2026-05-22T15:02:12.390674+05:30
Nainital,Uttarakhand,29.3919,79.4542,24.6,37,0.1,808.6,8.55,50.4,160,171.4,55.9,1.4,222.0,174.0,9.6,3,5,7,0,2026-05-22T15:02:12.390680+05:30
Mussoorie,Uttarakhand,30.4599,78.0664,24.6,29,0.0,806.8,8.1,45.7,125,52.5,26.9,1.6,199.0,172.0,8.1,0,5,7,0,2026-05-22T15:02:12.390687+05:30
Dharamshala,Himachal Pradesh,32.219,76.3234,26.6,36,0.0,870.5,7.55,42.1,51,46.9,13.0,0.4,139.0,117.0,1.2,4,5,7,0,2026-05-22T15:02:12.390693+05:30
Dalhousie,Himachal Pradesh,32.5387,75.971,23.7,38,0.0,807.8,7.8,45.0,69,59.5,16.6,0.9,142.0,122.0,1.3,0,5,7,0,2026-05-22T15:02:12.390700+05:30
Patiala,Punjab,30.3398,76.3869,39.8,17,0.0,975.1,7.65,53.3,343,92.9,28.6,1.2,185.0,138.0,5.8,0,5,10,0,2026-05-22T15:02:12.390706+05:30
Bhatinda,Punjab,30.211,74.9455,40.3,19,0.0,980.9,8.3,40.0,96,121.5,35.3,1.7,208.0,143.0,7.4,0,5,10,0,2026-05-22T15:02:12.390711+05:30
Rohtak,Haryana,28.8955,76.6066,40.9,17,0.0,978.2,7.8,34.9,652,421.0,71.0,1.7,180.0,141.0,5.0,0,5,10,0,2026-05-22T15:02:12.390716+05:30
Panipat,Haryana,29.3909,76.9635,40.7,16,0.0,976.8,7.65,42.8,1411,944.4,124.8,2.5,200.0,150.0,11.0,0,5,10,0,2026-05-22T15:02:12.390722+05:30
Mathura,Uttar Pradesh,27.4924,77.6737,42.2,16,0.0,982.5,8.05,41.8,699,771.1,109.0,1.3,155.0,123.0,2.3,0,5,10,0,2026-05-22T15:02:12.390727+05:30
Vrindavan,Uttar Pradesh,27.5823,77.7027,41.9,17,0.0,983.0,8.0,40.0,699,771.1,109.0,1.3,154.0,123.0,2.3,0,5,10,0,2026-05-22T15:02:12.390733+05:30
Ayodhya,Uttar Pradesh,26.7922,82.1998,39.2,41,0.0,989.7,8.4,29.5,151,140.2,59.5,1.6,388.0,198.0,12.1,0,5,10,1,2026-05-22T15:02:12.390738+05:30
Ratlam,Madhya Pradesh,23.3315,75.0367,39.5,21,0.0,953.8,8.6,38.5,67,40.0,20.1,0.5,141.0,114.0,2.9,0,5,10,0,2026-05-22T15:02:12.390744+05:30
Sagar,Madhya Pradesh,23.8388,78.7378,41.1,12,0.0,948.4,8.75,39.6,48,47.7,14.5,0.6,137.0,122.0,2.1,0,5,10,0,2026-05-22T15:02:12.390749+05:30
Satna,Madhya Pradesh,24.6005,80.8322,41.8,12,0.0,967.8,8.8,39.2,50,65.0,15.8,0.6,140.0,122.0,1.7,0,5,10,0,2026-05-22T15:02:12.390755+05:30
Akola,Maharashtra,20.7002,77.0082,41.8,18,0.0,972.2,8.9,49.7,73,35.2,20.0,1.5,155.0,131.0,7.4,0,5,10,0,2026-05-22T15:02:12.390760+05:30
Amravati,Maharashtra,20.9374,77.7796,42.2,16,0.0,964.2,8.9,45.4,71,31.4,17.8,1.7,163.0,136.0,7.6,0,5,10,0,2026-05-22T15:02:12.390766+05:30
Latur,Maharashtra,18.4088,76.5604,38.0,28,0.0,938.8,9.05,41.0,74,40.0,23.2,1.0,163.0,137.0,6.5,0,5,10,1,2026-05-22T15:02:12.390772+05:30
Nanded,Maharashtra,19.1383,77.3091,41.3,20,0.0,966.0,8.95,39.6,85,43.9,26.3,1.1,162.0,145.0,7.3,0,5,10,0,2026-05-22T15:02:12.390778+05:30
Gulbarga,Karnataka,17.3297,76.8343,38.0,35,0.0,957.0,8.95,51.5,63,31.8,20.8,1.6,170.0,142.0,5.8,0,5,10,1,2026-05-22T15:02:12.390782+05:30
Bidar,Karnataka,17.9104,77.5199,36.8,31,0.0,934.5,8.95,56.9,78,42.6,25.8,1.3,173.0,145.0,7.0,0,5,10,1,2026-05-22T15:02:12.390787+05:30
Hospet,Karnataka,15.2689,76.3909,33.5,48,0.0,955.1,9.1,46.4,33,15.9,10.2,1.6,151.0,107.0,2.5,0,5,7,1,2026-05-22T15:02:12.390792+05:30
Tirupur,Tamil Nadu,11.1085,77.3411,36.0,40,0.0,973.3,8.05,61.9,39,14.0,8.8,1.9,156.0,110.0,2.3,0,5,10,1,2026-05-22T15:02:12.390797+05:30
Alappuzha,Kerala,9.4981,76.3388,29.3,76,0.0,1009.4,8.0,36.4,39,8.0,5.2,1.8,98.0,68.0,1.1,7,0,4,1,2026-05-22T15:02:12.390802+05:30
Munnar,Kerala,10.0889,77.0595,21.6,88,0.1,858.7,4.25,32.0,29,9.4,6.1,1.8,125.0,81.0,1.1,6,5,3,1,2026-05-22T15:02:12.390808+05:30
Silchar,Assam,24.8333,92.7789,29.8,81,0.1,1000.1,8.95,24.8,95,29.9,16.9,1.3,235.0,115.0,4.1,10,5,4,1,2026-05-22T15:02:12.390813+05:30
Dibrugarh,Assam,27.4728,94.912,31.5,69,0.1,989.5,8.95,27.4,93,36.3,26.7,1.6,280.0,142.0,1.7,6,5,7,1,2026-05-22T15:02:12.390818+05:30
