city,state,latitude,longitude,temp,humidity,rain,pressure,uv_index,wind_gusts,aqi,pm10,pm2_5,mosquito_risk,arthritis_risk,migraine_risk,frizz_risk,updated_at
Delhi,Delhi,28.6139,77.209,27.6,51,0.0,983.6,5.6,35.3,148,246.8,40.9,4,5,3,1,2026-04-04T17:02:25.098980+05:30
Mumbai,Maharashtra,19.076,72.8777,27.7,77,0.0,1008.0,7.9,20.9,73,34.9,18.1,7,0,4,1,2026-04-04T17:02:25.099022+05:30
Bangalore,Karnataka,12.9716,77.5946,29.4,51,0.0,910.7,9.1,24.5,130,26.3,23.0,4,5,7,1,2026-04-04T17:02:25.099037+05:30
Hyderabad,Telangana,17.385,78.4867,34.8,28,0.0,951.0,7.95,43.9,132,39.2,30.5,0,5,7,0,2026-04-04T17:02:25.099047+05:30
Chennai,Tamil Nadu,13.0827,80.2707,32.1,64,0.0,1004.7,8.75,31.0,50,21.5,17.6,3,5,4,1,2026-04-04T17:02:25.099056+05:30
Kolkata,West Bengal,22.5726,88.3639,33.3,60,0.0,1002.5,8.55,20.5,192,56.6,49.9,0,5,4,1,2026-04-04T17:02:25.099064+05:30
Pune,Maharashtra,18.5204,73.8567,31.7,42,0.0,947.6,8.5,40.0,90,31.1,21.2,0,5,7,1,2026-04-04T17:02:25.099076+05:30
Ahmedabad,Gujarat,23.0225,72.5714,33.1,25,0.0,1001.0,7.5,24.8,53,26.0,10.4,0,5,4,0,2026-04-04T17:02:25.099084+05:30
Jaipur,Rajasthan,26.9124,75.7873,30.0,31,0.0,958.9,7.45,41.4,80,119.2,23.9,4,5,7,0,2026-04-04T17:02:25.099091+05:30
Lucknow,Uttar Pradesh,26.8467,80.9462,33.5,33,0.0,991.8,6.3,52.2,153,271.0,58.0,0,5,7,0,2026-04-04T17:02:25.099099+05:30
Kanpur,Uttar Pradesh,26.4499,80.3319,31.5,46,0.0,990.6,6.75,39.6,242,380.9,65.7,0,5,7,1,2026-04-04T17:02:25.099106+05:30
Chandigarh,Chandigarh,30.7333,76.7794,24.1,67,0.0,969.9,5.9,28.8,94,93.4,27.6,3,5,3,1,2026-04-04T17:02:25.099113+05:30
Srinagar,Jammu and Kashmir,34.0837,74.7973,10.1,80,0.0,839.8,5.25,29.5,66,14.0,8.3,3,5,3,0,2026-04-04T17:02:25.099120+05:30
Jammu,Jammu and Kashmir,32.7266,74.857,21.7,72,0.0,975.0,6.55,46.4,58,91.3,22.5,3,5,7,1,2026-04-04T17:02:25.099127+05:30
Amritsar,Punjab,31.634,74.8723,19.6,84,0.0,983.3,6.15,32.0,82,111.8,26.3,3,10,7,1,2026-04-04T17:02:25.099134+05:30
Ludhiana,Punjab,30.901,75.8573,24.3,60,0.0,980.5,6.7,28.4,126,157.9,32.1,0,5,7,0,2026-04-04T17:02:25.099141+05:30
Jalandhar,Punjab,31.326,75.5762,22.7,70,0.0,982.1,6.75,34.2,104,154.6,32.1,3,5,7,1,2026-04-04T17:02:25.099150+05:30
Dehradun,Uttarakhand,30.6284,78.0322,16.8,53,0.0,830.6,3.85,34.2,47,24.6,8.7,0,5,3,0,2026-04-04T17:02:25.099157+05:30
Shimla,Himachal Pradesh,31.1048,77.1734,14.4,75,0.0,784.2,5.55,49.7,52,40.0,15.0,3,5,3,0,2026-04-04T17:02:25.099163+05:30
Manali,Himachal Pradesh,32.2396,77.1887,15.0,75,0.0,819.0,7.2,31.3,66,15.1,4.5,3,5,7,0,2026-04-04T17:02:25.099172+05:30
Gurgaon,Haryana,28.4595,77.0266,27.8,49,0.0,981.9,6.2,28.8,561,366.0,53.4,4,5,7,1,2026-04-04T17:02:25.099180+05:30
Noida,Uttar Pradesh,28.5355,77.391,27.8,50,0.0,985.1,5.7,29.9,561,366.0,53.4,4,5,3,1,2026-04-04T17:02:25.099186+05:30
Ghaziabad,Uttar Pradesh,28.6692,77.4538,26.0,65,0.0,983.5,5.55,29.9,154,198.4,39.3,7,5,3,1,2026-04-04T17:02:25.099192+05:30
Faridabad,Haryana,28.4089,77.3178,27.3,52,0.0,984.3,5.8,29.5,561,366.0,53.4,4,5,3,1,2026-04-04T17:02:25.099199+05:30
Meerut,Uttar Pradesh,28.9845,77.7064,24.2,71,0.0,982.6,6.45,46.4,154,198.4,39.3,3,5,7,1,2026-04-04T17:02:25.099205+05:30
Agra,Uttar Pradesh,27.1767,78.0081,25.1,66,0.0,989.1,6.8,35.6,618,376.3,53.1,7,5,7,1,2026-04-04T17:02:25.099212+05:30
Varanasi,Uttar Pradesh,25.3176,82.9739,32.5,47,0.0,995.5,6.05,24.8,85,21.8,18.4,0,5,7,1,2026-04-04T17:02:25.099223+05:30
Prayagraj,Uttar Pradesh,25.4358,81.8463,32.2,45,0.0,994.4,5.45,37.1,92,29.3,20.7,0,5,3,1,2026-04-04T17:02:25.099229+05:30
Gorakhpur,Uttar Pradesh,26.7606,83.3732,34.6,29,0.0,993.8,6.8,37.1,98,63.1,23.2,0,5,7,0,2026-04-04T17:02:25.099236+05:30
Bareilly,Uttar Pradesh,28.367,79.4304,29.5,45,0.0,986.5,5.35,24.5,111,31.0,13.9,4,5,3,1,2026-04-04T17:02:25.099242+05:30
Aligarh,Uttar Pradesh,27.8974,78.088,26.2,62,0.0,986.4,5.3,40.7,568,521.5,68.9,7,5,3,1,2026-04-04T17:02:25.099249+05:30
Moradabad,Uttar Pradesh,28.8386,78.7733,26.5,62,0.0,984.3,6.0,31.0,129,71.0,24.6,7,5,3,1,2026-04-04T17:02:25.099255+05:30
Saharanpur,Uttar Pradesh,29.9637,77.546,23.6,74,0.0,977.1,5.6,29.5,153,133.2,30.5,3,5,3,1,2026-04-04T17:02:25.099261+05:30
Jhansi,Uttar Pradesh,25.4484,78.5685,28.6,54,0.0,978.1,7.15,45.0,82,48.5,16.1,4,5,7,1,2026-04-04T17:02:28.441455+05:30
Surat,Gujarat,21.1702,72.8311,29.7,54,0.0,1006.2,7.6,25.6,77,63.8,27.5,4,5,4,1,2026-04-04T17:02:28.441485+05:30
Vadodara,Gujarat,22.3072,73.1812,33.3,33,0.0,1003.0,7.85,25.9,76,55.6,19.5,0,5,4,0,2026-04-04T17:02:28.441494+05:30
Rajkot,Gujarat,22.3039,70.8022,32.2,29,0.0,993.3,7.55,34.9,61,26.7,12.4,0,5,7,0,2026-04-04T17:02:28.441503+05:30
Thane,Maharashtra,19.2183,72.9781,29.2,66,0.0,1007.5,7.9,36.7,73,34.9,18.1,7,5,4,1,2026-04-04T17:02:28.441510+05:30
Nagpur,Maharashtra,21.1458,79.0882,29.7,53,0.0,972.5,7.65,35.3,135,41.1,35.5,4,5,7,1,2026-04-04T17:02:28.441518+05:30
Nashik,Maharashtra,19.9975,73.7898,29.1,47,0.0,945.0,8.15,37.4,57,19.6,8.9,4,5,7,1,2026-04-04T17:02:28.441525+05:30
Aurangabad,Maharashtra,19.8762,75.3433,33.9,22,0.0,942.6,8.85,36.7,72,25.3,13.0,0,5,7,0,2026-04-04T17:02:28.441532+05:30
Solapur,Maharashtra,17.6599,75.9064,34.6,31,0.0,955.1,8.9,22.0,121,28.6,21.8,0,5,7,0,2026-04-04T17:02:28.441539+05:30
Kolhapur,Maharashtra,16.705,74.2433,30.8,44,0.0,946.9,8.95,44.6,88,20.1,15.1,0,5,7,1,2026-04-04T17:02:28.441545+05:30
Goa,Goa,15.2993,74.124,29.6,71,0.0,996.9,8.15,36.4,66,23.7,11.5,7,5,7,1,2026-04-04T17:02:28.441552+05:30
Jodhpur,Rajasthan,26.2389,73.0243,29.9,28,0.0,982.5,7.6,28.4,88,118.3,17.1,4,5,7,0,2026-04-04T17:02:28.441559+05:30
Udaipur,Rajasthan,24.5854,73.7125,28.3,24,0.0,945.5,7.5,37.8,55,19.3,7.7,4,5,7,0,2026-04-04T17:02:28.441566+05:30
Kota,Rajasthan,25.2138,75.8648,29.5,42,0.0,978.3,7.8,34.2,66,49.8,15.3,4,5,7,0,2026-04-04T17:02:28.441573+05:30
Bikaner,Rajasthan,28.0229,73.3119,28.3,31,0.0,982.0,7.15,30.2,70,26.0,8.8,4,5,7,0,2026-04-04T17:02:28.441580+05:30
Ajmer,Rajasthan,26.4499,74.6399,28.7,30,0.0,953.7,7.65,36.0,76,28.9,11.2,4,5,7,0,2026-04-04T17:02:28.441587+05:30
Gwalior,Madhya Pradesh,26.2183,78.1828,28.2,56,0.0,983.1,7.3,29.5,105,68.2,18.9,4,5,7,1,2026-04-04T17:02:28.441594+05:30
Indore,Madhya Pradesh,22.7196,75.8577,28.1,48,0.0,947.8,8.35,38.9,63,26.1,13.8,4,5,7,1,2026-04-04T17:02:28.441601+05:30
Bhopal,Madhya Pradesh,23.2599,77.4126,29.2,40,0.0,953.4,8.3,34.6,65,29.3,17.1,4,5,7,0,2026-04-04T17:02:28.441607+05:30
Jabalpur,Madhya Pradesh,23.1815,79.9864,29.4,46,0.0,960.6,6.8,30.6,83,23.6,18.2,4,5,7,1,2026-04-04T17:02:28.441613+05:30
Ujjain,Madhya Pradesh,23.1765,75.7885,26.9,59,0.0,953.6,8.25,33.8,63,26.0,12.0,4,5,7,1,2026-04-04T17:02:28.441620+05:30
Visakhapatnam,Andhra Pradesh,17.6868,83.2185,30.6,65,0.0,1001.8,8.4,36.7,60,25.3,21.8,3,5,4,1,2026-04-04T17:02:28.441626+05:30
Vijayawada,Andhra Pradesh,16.5062,80.648,35.0,44,0.0,999.5,8.8,19.8,47,18.8,15.7,0,5,7,1,2026-04-04T17:02:28.441632+05:30
Guntur,Andhra Pradesh,16.3067,80.4365,34.7,43,0.0,1000.8,8.6,30.6,49,17.2,13.9,0,5,4,1,2026-04-04T17:02:28.441639+05:30
Nellore,Andhra Pradesh,14.4426,79.9865,32.6,61,0.0,1003.1,8.75,31.0,57,19.6,16.2,3,5,4,1,2026-04-04T17:02:28.441645+05:30
Kurnool,Andhra Pradesh,15.8281,78.0373,36.9,30,0.0,973.5,8.15,22.0,123,21.9,16.7,0,5,10,1,2026-04-04T17:02:28.441653+05:30
Kakinada,Andhra Pradesh,16.9891,82.2475,33.4,51,0.0,1004.6,8.5,34.6,35,11.2,7.9,0,5,4,1,2026-04-04T17:02:28.441659+05:30
Tirupati,Andhra Pradesh,13.6288,79.4192,35.3,34,0.0,988.5,8.8,26.3,66,21.0,17.7,0,5,10,1,2026-04-04T17:02:28.441665+05:30
Warangal,Telangana,17.9689,79.5941,34.0,46,0.0,976.2,8.0,37.1,134,45.2,36.8,0,5,7,1,2026-04-04T17:02:28.441671+05:30
Nizamabad,Telangana,18.6725,78.0941,31.6,47,0.0,963.5,8.2,29.2,124,39.9,32.6,0,5,7,1,2026-04-04T17:02:28.441677+05:30
Mysore,Karnataka,12.2958,76.6396,26.5,68,0.0,927.5,9.05,32.0,111,23.9,20.7,7,5,7,1,2026-04-04T17:02:28.441684+05:30
Mangalore,Karnataka,12.9141,74.856,29.4,77,0.0,1005.4,8.1,20.5,61,13.6,10.4,7,5,4,1,2026-04-04T17:02:28.441690+05:30
Hubli-Dharwad,Karnataka,15.3647,75.124,31.5,42,0.0,939.4,8.6,41.8,93,26.5,21.5,0,5,7,1,2026-04-04T17:02:28.441696+05:30
Belgaum,Karnataka,15.8497,74.4977,28.6,55,0.0,924.9,9.1,37.8,81,19.4,14.1,4,5,7,1,2026-04-04T17:02:31.778943+05:30
Coimbatore,Tamil Nadu,11.0168,76.9558,28.1,66,0.0,960.9,8.95,50.4,95,14.3,13.3,7,5,7,1,2026-04-04T17:02:31.778975+05:30
Madurai,Tamil Nadu,9.9252,78.1198,36.3,34,0.0,990.1,8.6,28.1,129,23.5,21.7,0,5,10,1,2026-04-04T17:02:31.778987+05:30
Trichy,Tamil Nadu,10.7905,78.7047,35.1,43,0.0,996.7,9.15,29.9,91,26.5,24.6,0,5,10,1,2026-04-04T17:02:31.778996+05:30
Salem,Tamil Nadu,11.6643,78.146,34.6,43,0.0,974.9,8.5,41.0,148,29.9,26.5,0,5,7,1,2026-04-04T17:02:31.779004+05:30
Tirunelveli,Tamil Nadu,8.7139,77.7567,32.5,53,0.0,1001.2,8.45,24.5,62,12.5,11.5,0,5,4,1,2026-04-04T17:02:31.779013+05:30
Vellore,Tamil Nadu,12.9165,79.1325,33.6,45,0.0,981.9,8.75,26.6,97,25.0,21.9,0,5,7,1,2026-04-04T17:02:31.779020+05:30
Erode,Tamil Nadu,11.341,77.7172,32.6,54,0.0,987.1,8.8,39.6,129,23.4,20.9,0,5,7,1,2026-04-04T17:02:31.779028+05:30
Kochi,Kerala,9.9312,76.2673,29.0,78,0.0,1007.6,8.7,21.2,69,10.2,8.8,7,5,4,1,2026-04-04T17:02:31.779035+05:30
Thiruvananthapuram,Kerala,8.5241,76.9366,29.1,79,0.0,1006.7,8.55,29.5,72,15.3,11.0,7,5,4,1,2026-04-04T17:02:31.779043+05:30
Kozhikode,Kerala,11.2588,75.7804,29.2,78,0.0,1007.0,8.25,26.3,61,12.9,9.5,7,5,4,1,2026-04-04T17:02:31.779051+05:30
Thrissur,Kerala,10.5276,76.2144,30.2,71,0.0,1006.0,8.5,28.1,55,9.8,8.9,3,5,4,1,2026-04-04T17:02:31.779059+05:30
Kannur,Kerala,11.8745,75.3704,29.5,76,0.0,1006.1,8.2,24.1,62,14.4,11.4,7,5,4,1,2026-04-04T17:02:31.779067+05:30
Patna,Bihar,25.5941,85.1376,34.3,36,0.0,997.0,7.95,34.6,112,56.5,26.5,0,5,7,1,2026-04-04T17:02:31.779075+05:30
Gaya,Bihar,24.7914,85.0002,32.8,42,0.0,991.1,8.4,22.7,111,27.3,16.2,0,5,7,1,2026-04-04T17:02:31.779083+05:30
Muzaffarpur,Bihar,26.1209,85.3647,34.3,30,0.0,996.4,7.9,32.8,110,67.3,28.3,0,5,7,0,2026-04-04T17:02:31.779091+05:30
Bhagalpur,Bihar,25.2425,87.0117,33.4,40,0.0,997.1,8.25,27.0,142,40.0,21.9,0,5,7,1,2026-04-04T17:02:31.779099+05:30
Ranchi,Jharkhand,23.3441,85.3096,30.4,38,0.0,936.7,8.2,37.8,123,19.0,16.2,0,5,7,0,2026-04-04T17:02:31.779107+05:30
Jamshedpur,Jharkhand,22.8046,86.2029,36.0,34,0.0,987.7,8.5,21.2,137,33.3,28.3,0,5,10,1,2026-04-04T17:02:31.779115+05:30
Dhanbad,Jharkhand,23.7957,86.4304,36.3,25,0.0,976.5,8.55,19.8,99,24.5,20.9,0,5,10,0,2026-04-04T17:02:31.779123+05:30
Bokaro,Jharkhand,23.6693,86.1511,35.8,25,0.0,980.5,8.15,20.2,104,23.6,19.5,0,5,10,0,2026-04-04T17:02:31.779131+05:30
Bhubaneswar,Odisha,20.2961,85.8245,32.8,62,0.0,1000.2,8.95,26.3,146,51.6,44.0,3,5,4,1,2026-04-04T17:02:31.779139+05:30
Cuttack,Odisha,20.4625,85.8828,31.1,63,0.0,1002.7,9.0,31.7,146,51.6,44.0,3,5,4,1,2026-04-04T17:02:31.779146+05:30
Rourkela,Odisha,22.2604,84.8536,32.6,46,0.0,983.4,8.45,59.4,147,44.9,37.8,0,5,7,1,2026-04-04T17:02:31.779153+05:30
Raipur,Chhattisgarh,21.2514,81.6296,33.1,41,0.0,972.7,7.75,41.4,113,45.8,37.6,0,5,7,1,2026-04-04T17:02:31.779160+05:30
Bhilai,Chhattisgarh,21.1938,81.3509,32.9,44,0.0,973.0,8.15,37.8,97,44.7,36.2,0,5,7,1,2026-04-04T17:02:31.779167+05:30
Guwahati,Assam,26.1158,91.7086,29.4,70,0.0,997.2,8.25,31.0,125,44.4,36.8,7,5,7,1,2026-04-04T17:02:31.779174+05:30
Agartala,Tripura,23.8315,91.2868,32.0,61,0.0,1002.2,8.45,25.6,102,50.4,44.4,3,5,4,1,2026-04-04T17:02:31.779181+05:30
Shillong,Meghalaya,25.5788,91.8933,18.6,66,0.0,854.6,8.4,55.1,106,32.4,26.4,3,5,7,0,2026-04-04T17:02:31.779188+05:30
Imphal,Manipur,24.817,93.9368,22.1,71,0.0,920.7,8.75,76.0,128,43.2,33.5,3,5,7,1,2026-04-04T17:02:31.779196+05:30
Aizawl,Mizoram,23.7271,92.7176,25.1,60,0.0,891.4,8.55,55.1,119,45.9,37.6,4,5,7,1,2026-04-04T17:02:31.779203+05:30
Kohima,Nagaland,25.6701,94.1077,19.5,77,0.0,853.1,8.55,74.2,103,35.2,26.7,3,5,7,0,2026-04-04T17:02:31.779210+05:30
Gangtok,Sikkim,27.3314,88.6138,19.8,75,0.0,835.7,8.45,18.4,134,53.2,42.3,3,5,7,0,2026-04-04T17:02:31.779218+05:30
Siliguri,West Bengal,26.7271,88.3953,26.0,67,0.0,990.2,8.2,28.8,162,66.8,52.0,7,5,7,1,2026-04-04T17:02:35.117162+05:30
Durgapur,West Bengal,23.5204,87.3119,36.4,29,0.0,991.3,8.35,15.8,120,23.0,20.3,0,5,10,0,2026-04-04T17:02:35.117192+05:30
Asansol,West Bengal,23.6739,86.9524,36.1,31,0.0,989.8,8.45,15.5,95,24.6,21.5,0,5,10,1,2026-04-04T17:02:35.117203+05:30
Pondicherry,Puducherry,11.9139,79.8145,32.8,65,0.0,1005.6,8.9,23.8,62,18.1,13.8,3,5,4,1,2026-04-04T17:02:35.117211+05:30
Port Blair,Andaman and Nicobar Islands,11.6234,92.7265,29.0,70,0.0,1006.0,8.75,18.7,45,18.2,10.6,7,5,4,1,2026-04-04T17:02:35.117219+05:30
Haridwar,Uttarakhand,29.9457,78.1642,23.3,71,0.0,976.0,5.55,37.1,97,71.5,22.8,3,5,3,1,2026-04-04T17:02:35.117227+05:30
Rishikesh,Uttarakhand,30.0869,78.2676,25.4,53,0.0,968.4,6.05,25.6,64,34.3,12.6,4,5,7,0,2026-04-04T17:02:35.117234+05:30
Nainital,Uttarakhand,29.3919,79.4542,21.1,43,0.0,807.0,4.95,39.2,66,25.4,10.5,0,5,3,0,2026-04-04T17:02:35.117241+05:30
Mussoorie,Uttarakhand,30.4599,78.0664,16.7,54,0.0,803.0,5.1,47.2,66,39.1,13.6,0,5,3,0,2026-04-04T17:02:35.117247+05:30
Dharamshala,Himachal Pradesh,32.219,76.3234,17.6,76,0.0,868.7,5.7,47.5,49,13.6,6.9,3,5,3,0,2026-04-04T17:02:35.117254+05:30
Dalhousie,Himachal Pradesh,32.5387,75.971,14.2,68,0.0,802.5,5.65,52.6,68,63.3,18.5,3,5,3,0,2026-04-04T17:02:35.117262+05:30
Patiala,Punjab,30.3398,76.3869,26.1,53,0.0,979.3,5.4,27.4,188,277.5,39.5,4,5,3,0,2026-04-04T17:02:35.117268+05:30
Bhatinda,Punjab,30.211,74.9455,23.7,68,0.0,985.0,6.95,32.8,84,118.0,24.4,3,5,7,1,2026-04-04T17:02:35.117275+05:30
Rohtak,Haryana,28.8955,76.6066,27.5,49,0.0,982.3,6.55,24.5,107,172.8,27.8,4,5,7,0,2026-04-04T17:02:35.117282+05:30
Panipat,Haryana,29.3909,76.9635,24.7,64,0.0,981.6,5.75,27.0,231,402.3,48.1,3,5,3,1,2026-04-04T17:02:35.117288+05:30
Mathura,Uttar Pradesh,27.4924,77.6737,24.4,69,0.0,988.0,5.25,40.7,440,430.3,60.8,3,5,3,1,2026-04-04T17:02:35.117295+05:30
Vrindavan,Uttar Pradesh,27.5823,77.7027,25.7,63,0.0,988.3,5.45,45.7,440,430.3,60.8,7,5,3,1,2026-04-04T17:02:35.117301+05:30
Ayodhya,Uttar Pradesh,26.7922,82.1998,33.4,34,0.0,993.0,7.2,35.3,108,116.2,42.0,0,5,7,0,2026-04-04T17:02:35.117307+05:30
Ratlam,Madhya Pradesh,23.3315,75.0367,28.5,45,0.0,954.2,8.1,36.7,60,30.7,12.4,4,5,7,0,2026-04-04T17:02:35.117314+05:30
Sagar,Madhya Pradesh,23.8388,78.7378,28.7,49,0.0,949.9,8.3,36.0,68,24.3,14.3,4,5,7,1,2026-04-04T17:02:35.117320+05:30
Satna,Madhya Pradesh,24.6005,80.8322,31.7,40,0.0,970.6,5.05,28.8,81,22.1,16.8,0,5,3,1,2026-04-04T17:02:35.117327+05:30
Akola,Maharashtra,20.7002,77.0082,34.0,32,0.0,973.2,7.25,25.6,100,35.6,27.2,0,5,7,0,2026-04-04T17:02:35.117334+05:30
Amravati,Maharashtra,20.9374,77.7796,30.0,53,0.0,966.6,7.7,41.4,98,34.9,26.5,4,5,7,1,2026-04-04T17:02:35.117341+05:30
Latur,Maharashtra,18.4088,76.5604,31.5,38,0.0,938.5,8.9,28.8,123,33.9,26.3,0,5,7,0,2026-04-04T17:02:35.117348+05:30
Nanded,Maharashtra,19.1383,77.3091,33.4,37,0.0,967.1,8.25,21.2,115,31.4,25.0,0,5,7,1,2026-04-04T17:02:35.117354+05:30
Gulbarga,Karnataka,17.3297,76.8343,32.8,42,0.0,957.1,8.45,32.0,147,39.2,31.9,0,5,7,1,2026-04-04T17:02:35.117360+05:30
Bidar,Karnataka,17.9104,77.5199,30.7,48,0.0,934.4,8.6,31.3,123,39.9,32.8,0,5,7,1,2026-04-04T17:02:35.117366+05:30
Hospet,Karnataka,15.2689,76.3909,34.2,35,0.0,953.8,8.1,22.7,112,27.1,22.1,0,5,7,1,2026-04-04T17:02:35.117372+05:30
Tirupur,Tamil Nadu,11.1085,77.3411,32.1,50,0.0,973.8,8.6,31.3,118,19.0,17.0,0,5,7,1,2026-04-04T17:02:35.117378+05:30
Alappuzha,Kerala,9.4981,76.3388,29.0,78,0.0,1007.7,9.15,21.6,81,14.3,11.3,7,5,4,1,2026-04-04T17:02:35.117384+05:30
Munnar,Kerala,10.0889,77.0595,23.0,86,0.0,856.8,6.2,33.5,64,14.4,13.6,3,5,7,1,2026-04-04T17:02:35.117391+05:30
Silchar,Assam,24.8333,92.7789,29.7,69,0.0,1001.4,8.45,26.6,135,52.9,43.2,7,5,4,1,2026-04-04T17:02:35.117397+05:30
Dibrugarh,Assam,27.4728,94.912,26.4,74,0.0,992.1,8.3,14.8,109,46.9,36.6,7,5,7,1,2026-04-04T17:02:35.117404+05:30
