city,state,latitude,longitude,temp,humidity,rain,pressure,uv_index,wind_gusts,aqi,pm10,pm2_5,no2,co,o3,so2,mosquito_risk,arthritis_risk,migraine_risk,frizz_risk,updated_at
Delhi,Delhi,28.6139,77.209,30.5,71,0.0,978.7,7.7,26.3,280,733.9,206.8,81.6,1232.0,5.0,29.0,3,5,7,1,2026-07-15T23:39:50.140933+05:30
Mumbai,Maharashtra,19.076,72.8777,26.1,87,0.1,1008.5,7.75,48.2,68,35.5,15.5,10.6,226.0,43.0,9.0,10,0,4,1,2026-07-15T23:39:50.140980+05:30
Bangalore,Karnataka,12.9716,77.5946,22.3,73,0.0,912.7,9.15,42.1,59,16.9,13.5,18.8,301.0,52.0,5.6,3,5,7,1,2026-07-15T23:39:50.140996+05:30
Hyderabad,Telangana,17.385,78.4867,26.7,66,0.0,952.7,8.95,46.1,72,22.4,14.3,9.6,262.0,56.0,4.8,7,5,7,1,2026-07-15T23:39:50.141006+05:30
Chennai,Tamil Nadu,13.0827,80.2707,30.4,76,0.0,1005.7,8.75,37.8,117,32.4,22.4,8.4,207.0,96.0,6.5,3,5,4,1,2026-07-15T23:39:50.141014+05:30
Kolkata,West Bengal,22.5726,88.3639,27.4,88,0.0,1000.0,7.3,38.2,97,27.5,24.6,18.0,338.0,53.0,10.3,7,5,4,1,2026-07-15T23:39:50.141022+05:30
Pune,Maharashtra,18.5204,73.8567,23.3,88,0.0,948.2,8.1,49.7,50,15.1,9.0,10.3,181.0,38.0,7.5,3,5,7,1,2026-07-15T23:39:50.141029+05:30
Ahmedabad,Gujarat,23.0225,72.5714,27.7,79,0.0,1000.2,7.0,45.4,65,41.8,24.3,20.2,261.0,34.0,7.2,7,5,4,1,2026-07-15T23:39:50.141036+05:30
Jaipur,Rajasthan,26.9124,75.7873,30.1,58,0.0,957.0,7.85,38.2,306,370.7,73.6,18.6,302.0,45.0,6.2,0,5,7,1,2026-07-15T23:39:50.141043+05:30
Lucknow,Uttar Pradesh,26.8467,80.9462,29.6,87,0.0,989.0,7.05,24.1,160,97.6,57.4,20.7,436.0,69.0,8.3,7,5,7,1,2026-07-15T23:39:50.141059+05:30
Kanpur,Uttar Pradesh,26.4499,80.3319,30.1,76,0.0,987.4,7.6,36.7,156,105.9,61.9,24.2,276.0,50.0,7.6,3,5,7,1,2026-07-15T23:39:50.141069+05:30
Chandigarh,Chandigarh,30.7333,76.7794,28.0,80,0.0,964.3,7.7,32.4,162,98.5,83.1,38.8,928.0,89.0,18.4,7,5,7,1,2026-07-15T23:39:50.141076+05:30
Srinagar,Jammu and Kashmir,34.0837,74.7973,20.2,86,0.0,838.1,8.8,20.2,87,55.4,48.8,46.5,1090.0,23.0,3.9,3,5,7,1,2026-07-15T23:39:50.141084+05:30
Jammu,Jammu and Kashmir,32.7266,74.857,26.7,82,0.0,968.0,8.55,16.9,152,81.5,69.6,56.7,696.0,37.0,7.6,7,5,7,1,2026-07-15T23:39:50.141091+05:30
Amritsar,Punjab,31.634,74.8723,29.0,85,0.0,975.9,8.35,22.0,187,168.1,128.1,86.4,948.0,15.0,16.0,7,5,7,1,2026-07-15T23:39:50.141098+05:30
Ludhiana,Punjab,30.901,75.8573,29.7,80,0.0,974.2,7.9,27.0,185,146.7,86.6,37.6,828.0,40.0,7.5,7,5,7,1,2026-07-15T23:39:50.141104+05:30
Jalandhar,Punjab,31.326,75.5762,28.7,84,0.0,975.1,8.15,23.4,188,166.7,109.7,61.5,900.0,24.0,9.4,7,5,7,1,2026-07-15T23:39:50.141110+05:30
Dehradun,Uttarakhand,30.6284,78.0322,19.6,99,0.0,829.4,7.75,26.6,105,64.7,48.7,22.5,387.0,90.0,0.7,3,10,7,1,2026-07-15T23:39:50.141120+05:30
Shimla,Himachal Pradesh,31.1048,77.1734,15.0,96,0.0,782.4,8.2,39.6,137,75.2,57.5,19.8,485.0,100.0,6.0,3,10,7,0,2026-07-15T23:39:50.141126+05:30
Manali,Himachal Pradesh,32.2396,77.1887,19.3,83,0.0,818.0,9.5,31.3,64,17.8,13.8,24.8,353.0,88.0,0.0,3,10,7,1,2026-07-15T23:39:50.141135+05:30
Gurgaon,Haryana,28.4595,77.0266,29.8,74,0.0,977.2,7.75,29.9,312,683.6,165.8,37.4,594.0,34.0,13.4,7,5,7,1,2026-07-15T23:39:50.141141+05:30
Noida,Uttar Pradesh,28.5355,77.391,30.4,75,0.0,980.1,7.7,29.9,312,683.6,165.8,37.4,807.0,34.0,13.4,3,5,7,1,2026-07-15T23:39:50.141147+05:30
Ghaziabad,Uttar Pradesh,28.6692,77.4538,29.8,83,0.0,978.2,7.65,32.0,182,614.7,200.2,85.2,1897.0,3.0,30.2,7,5,7,1,2026-07-15T23:39:50.141154+05:30
Faridabad,Haryana,28.4089,77.3178,30.5,70,0.0,979.5,7.7,28.4,312,683.6,165.8,37.4,761.0,34.0,13.4,3,5,7,1,2026-07-15T23:39:50.141160+05:30
Meerut,Uttar Pradesh,28.9845,77.7064,30.0,75,0.0,976.9,7.6,38.2,182,614.7,200.2,85.2,905.0,3.0,30.2,7,5,7,1,2026-07-15T23:39:50.141181+05:30
Agra,Uttar Pradesh,27.1767,78.0081,29.7,71,0.0,983.9,6.85,34.2,151,96.4,51.1,20.7,300.0,50.0,6.8,7,5,7,1,2026-07-15T23:39:50.141187+05:30
Varanasi,Uttar Pradesh,25.3176,82.9739,29.5,87,0.0,993.0,8.55,28.1,174,93.6,57.5,17.5,816.0,75.0,10.3,7,5,7,1,2026-07-15T23:39:50.141193+05:30
Prayagraj,Uttar Pradesh,25.4358,81.8463,30.3,82,0.0,991.4,8.55,26.6,167,99.9,63.8,23.7,348.0,58.0,10.9,3,5,7,1,2026-07-15T23:39:50.141200+05:30
Gorakhpur,Uttar Pradesh,26.7606,83.3732,28.2,93,0.0,993.1,8.45,23.0,148,52.9,35.6,11.5,711.0,93.0,4.3,7,5,7,1,2026-07-15T23:39:50.141206+05:30
Bareilly,Uttar Pradesh,28.367,79.4304,29.2,83,0.0,982.5,8.0,22.7,164,130.9,90.1,32.3,629.0,58.0,11.9,7,5,7,1,2026-07-15T23:39:50.141213+05:30
Aligarh,Uttar Pradesh,27.8974,78.088,29.4,73,0.0,981.3,7.7,34.6,168,360.4,106.2,20.8,325.0,55.0,6.8,7,5,7,1,2026-07-15T23:39:50.141219+05:30
Moradabad,Uttar Pradesh,28.8386,78.7733,29.3,82,0.0,979.4,7.8,28.1,172,259.8,157.9,67.1,836.0,36.0,24.2,7,5,7,1,2026-07-15T23:39:50.141226+05:30
Saharanpur,Uttar Pradesh,29.9637,77.546,28.9,78,0.0,971.3,7.35,32.8,183,351.1,151.8,59.5,611.0,48.0,21.5,7,5,7,1,2026-07-15T23:39:50.141232+05:30
Jhansi,Uttar Pradesh,25.4484,78.5685,29.3,71,0.0,974.7,7.5,42.5,115,77.5,40.7,14.6,173.0,51.0,4.0,7,5,7,1,2026-07-15T23:39:53.456780+05:30
Surat,Gujarat,21.1702,72.8311,26.1,92,0.0,1005.7,7.7,43.2,68,25.7,17.8,23.2,233.0,26.0,34.6,7,5,4,1,2026-07-15T23:39:53.456818+05:30
Vadodara,Gujarat,22.3072,73.1812,28.2,81,0.0,1002.6,7.0,42.8,62,21.3,15.0,19.0,231.0,29.0,19.7,7,5,4,1,2026-07-15T23:39:53.456829+05:30
Rajkot,Gujarat,22.3039,70.8022,27.8,77,0.0,992.3,4.7,45.7,57,26.0,15.4,7.7,115.0,34.0,4.7,7,5,3,1,2026-07-15T23:39:53.456838+05:30
Thane,Maharashtra,19.2183,72.9781,25.4,91,0.0,1008.0,7.4,35.6,68,35.5,15.5,10.6,245.0,43.0,9.0,7,0,4,1,2026-07-15T23:39:53.456846+05:30
Nagpur,Maharashtra,21.1458,79.0882,28.5,72,0.0,971.0,7.5,40.0,93,71.2,42.1,27.8,372.0,28.0,13.1,7,5,7,1,2026-07-15T23:39:53.456853+05:30
Nashik,Maharashtra,19.9975,73.7898,22.5,94,0.0,945.0,7.5,46.8,52,20.5,12.3,14.3,170.0,38.0,15.1,3,5,7,1,2026-07-15T23:39:53.456861+05:30
Aurangabad,Maharashtra,19.8762,75.3433,23.7,84,0.0,943.7,8.85,44.3,54,12.1,8.1,9.8,195.0,50.0,10.2,3,5,7,1,2026-07-15T23:39:53.456868+05:30
Solapur,Maharashtra,17.6599,75.9064,26.2,71,0.0,957.4,8.85,52.2,59,20.7,13.1,9.8,183.0,43.0,3.0,7,5,7,1,2026-07-15T23:39:53.456876+05:30
Kolhapur,Maharashtra,16.705,74.2433,21.8,93,0.0,948.7,7.7,46.1,52,14.6,9.3,7.1,178.0,40.0,3.1,3,5,7,1,2026-07-15T23:39:53.456884+05:30
Goa,Goa,15.2993,74.124,23.9,99,0.4,1000.0,7.25,34.6,75,43.2,24.9,7.6,241.0,41.0,2.6,6,5,4,1,2026-07-15T23:39:53.456891+05:30
Jodhpur,Rajasthan,26.2389,73.0243,30.9,53,0.0,979.6,8.2,38.2,137,164.8,38.8,8.7,143.0,48.0,2.5,0,5,7,1,2026-07-15T23:39:53.456899+05:30
Udaipur,Rajasthan,24.5854,73.7125,25.3,75,0.0,944.3,8.8,37.1,67,48.1,25.0,8.5,148.0,64.0,7.0,7,5,7,1,2026-07-15T23:39:53.456906+05:30
Kota,Rajasthan,25.2138,75.8648,29.9,59,0.0,975.9,8.25,34.9,91,36.0,21.6,10.5,176.0,62.0,6.2,4,5,7,1,2026-07-15T23:39:53.456914+05:30
Bikaner,Rajasthan,28.0229,73.3119,32.4,47,0.0,977.5,8.4,36.7,155,113.6,35.5,3.1,123.0,65.0,3.0,0,5,7,1,2026-07-15T23:39:53.456921+05:30
Ajmer,Rajasthan,26.4499,74.6399,27.9,64,0.0,952.0,8.3,46.1,90,29.6,16.9,11.8,185.0,49.0,4.7,7,5,7,1,2026-07-15T23:39:53.456928+05:30
Gwalior,Madhya Pradesh,26.2183,78.1828,28.7,77,0.0,979.6,8.15,39.2,139,101.0,44.7,11.7,186.0,56.0,3.3,7,5,7,1,2026-07-15T23:39:53.456936+05:30
Indore,Madhya Pradesh,22.7196,75.8577,25.7,77,0.0,946.7,8.55,38.9,65,31.2,22.0,10.0,291.0,70.0,8.9,7,5,7,1,2026-07-15T23:39:53.456943+05:30
Bhopal,Madhya Pradesh,23.2599,77.4126,26.8,76,0.0,951.5,5.35,43.6,84,32.6,22.5,12.6,478.0,49.0,4.9,7,5,3,1,2026-07-15T23:39:53.456951+05:30
Jabalpur,Madhya Pradesh,23.1815,79.9864,26.5,85,0.0,958.6,8.65,33.1,108,83.6,41.7,10.0,254.0,56.0,5.2,7,5,7,1,2026-07-15T23:39:53.456957+05:30
Ujjain,Madhya Pradesh,23.1765,75.7885,26.0,75,0.0,952.2,8.5,36.7,66,29.5,20.7,7.2,276.0,73.0,7.6,7,5,7,1,2026-07-15T23:39:53.456965+05:30
Visakhapatnam,Andhra Pradesh,17.6868,83.2185,29.8,62,0.0,999.5,8.65,36.7,114,39.9,31.9,29.1,318.0,54.0,47.0,7,5,7,1,2026-07-15T23:39:53.456972+05:30
Vijayawada,Andhra Pradesh,16.5062,80.648,31.1,53,0.0,1000.0,8.55,48.2,87,47.7,32.4,14.1,304.0,59.0,8.8,0,5,4,1,2026-07-15T23:39:53.456979+05:30
Guntur,Andhra Pradesh,16.3067,80.4365,31.8,46,0.0,1001.3,8.8,49.0,84,45.6,30.6,14.2,154.0,56.0,8.4,0,5,4,1,2026-07-15T23:39:53.456987+05:30
Nellore,Andhra Pradesh,14.4426,79.9865,32.0,35,0.0,1003.8,8.55,51.1,76,35.6,25.1,10.9,274.0,93.0,5.8,0,5,4,0,2026-07-15T23:39:53.456995+05:30
Kurnool,Andhra Pradesh,15.8281,78.0373,25.7,81,0.0,977.2,8.9,64.4,70,29.8,17.8,9.8,176.0,58.0,8.6,7,5,7,1,2026-07-15T23:39:53.457003+05:30
Kakinada,Andhra Pradesh,16.9891,82.2475,30.5,52,0.0,1003.9,6.15,52.6,96,35.4,25.9,8.5,221.0,82.0,8.5,0,5,4,1,2026-07-15T23:39:53.457011+05:30
Tirupati,Andhra Pradesh,13.6288,79.4192,28.2,54,0.0,989.8,8.85,40.0,82,52.6,46.4,59.2,218.0,5.0,6.2,4,5,7,1,2026-07-15T23:39:53.457018+05:30
Warangal,Telangana,17.9689,79.5941,28.4,61,0.0,977.1,8.7,45.4,86,30.0,21.2,9.1,203.0,58.0,4.5,7,5,7,1,2026-07-15T23:39:53.457025+05:30
Nizamabad,Telangana,18.6725,78.0941,26.6,69,0.0,964.1,8.9,40.0,75,20.7,13.8,8.1,196.0,59.0,7.4,7,5,7,1,2026-07-15T23:39:53.457032+05:30
Mysore,Karnataka,12.2958,76.6396,20.9,95,0.0,929.5,9.0,41.0,57,19.9,14.2,12.7,194.0,44.0,3.1,3,5,7,1,2026-07-15T23:39:53.457039+05:30
Mangalore,Karnataka,12.9141,74.856,26.4,84,0.0,1009.0,8.75,35.6,70,46.1,26.5,14.1,220.0,31.0,4.5,7,0,4,1,2026-07-15T23:39:53.457046+05:30
Hubli-Dharwad,Karnataka,15.3647,75.124,21.6,94,0.0,941.9,8.1,48.2,53,14.1,8.0,5.3,152.0,43.0,1.6,3,5,7,1,2026-07-15T23:39:53.457054+05:30
Belgaum,Karnataka,15.8497,74.4977,21.3,93,0.0,926.5,8.55,47.2,51,17.5,8.8,4.1,136.0,45.0,1.9,3,5,7,1,2026-07-15T23:39:56.774804+05:30
Coimbatore,Tamil Nadu,11.0168,76.9558,24.3,89,0.0,962.5,8.6,50.8,58,17.6,13.7,9.9,210.0,41.0,3.9,3,5,7,1,2026-07-15T23:39:56.774843+05:30
Madurai,Tamil Nadu,9.9252,78.1198,30.5,56,0.0,993.2,7.75,36.0,85,39.6,29.9,35.7,164.0,32.0,9.3,0,5,7,1,2026-07-15T23:39:56.774855+05:30
Trichy,Tamil Nadu,10.7905,78.7047,29.5,68,0.0,1000.1,8.3,47.2,69,21.6,16.6,13.4,236.0,50.0,4.9,7,5,4,1,2026-07-15T23:39:56.774865+05:30
Salem,Tamil Nadu,11.6643,78.146,26.6,74,0.0,977.8,8.7,24.5,76,28.0,21.7,21.3,287.0,41.0,6.6,7,5,7,1,2026-07-15T23:39:56.774874+05:30
Tirunelveli,Tamil Nadu,8.7139,77.7567,29.4,62,0.0,1003.8,8.0,45.4,57,18.2,13.2,8.2,181.0,42.0,2.9,7,5,4,1,2026-07-15T23:39:56.774882+05:30
Vellore,Tamil Nadu,12.9165,79.1325,30.3,42,0.0,983.7,8.95,43.2,88,32.4,27.1,28.6,311.0,34.0,6.6,0,5,7,0,2026-07-15T23:39:56.774891+05:30
Erode,Tamil Nadu,11.341,77.7172,27.2,71,0.0,989.3,8.45,43.9,65,26.8,19.8,19.0,181.0,37.0,4.6,7,5,7,1,2026-07-15T23:39:56.774899+05:30
Kochi,Kerala,9.9312,76.2673,26.8,93,0.0,1011.0,8.4,37.8,66,46.1,37.5,38.7,214.0,3.0,10.9,7,0,4,1,2026-07-15T23:39:56.774908+05:30
Thiruvananthapuram,Kerala,8.5241,76.9366,25.7,89,0.0,1010.7,8.0,48.2,60,27.0,15.1,5.4,166.0,44.0,1.7,7,0,4,1,2026-07-15T23:39:56.774916+05:30
Kozhikode,Kerala,11.2588,75.7804,25.9,88,0.0,1010.3,8.2,37.4,62,47.3,21.4,2.3,245.0,56.0,1.6,7,0,4,1,2026-07-15T23:39:56.774923+05:30
Thrissur,Kerala,10.5276,76.2144,25.5,91,0.0,1009.4,8.3,35.6,63,45.2,31.9,20.8,260.0,28.0,7.1,7,0,4,1,2026-07-15T23:39:56.774931+05:30
Kannur,Kerala,11.8745,75.3704,26.0,89,0.0,1009.5,7.25,39.2,66,40.3,24.0,17.5,361.0,25.0,3.3,7,0,4,1,2026-07-15T23:39:56.774938+05:30
Patna,Bihar,25.5941,85.1376,27.8,95,0.0,996.5,8.25,34.2,159,61.0,48.4,15.4,488.0,91.0,10.3,7,5,7,1,2026-07-15T23:39:56.774945+05:30
Gaya,Bihar,24.7914,85.0002,27.2,96,0.0,989.8,8.5,26.6,158,80.8,53.8,15.1,396.0,74.0,6.9,7,5,7,1,2026-07-15T23:39:56.774953+05:30
Muzaffarpur,Bihar,26.1209,85.3647,27.6,95,0.0,996.4,7.35,22.0,154,51.9,44.6,18.1,567.0,80.0,10.7,7,5,7,1,2026-07-15T23:39:56.774960+05:30
Bhagalpur,Bihar,25.2425,87.0117,27.5,96,0.3,997.3,7.95,21.6,100,39.3,38.6,21.3,374.0,54.0,9.5,10,5,7,1,2026-07-15T23:39:56.774967+05:30
Ranchi,Jharkhand,23.3441,85.3096,23.6,96,0.0,933.7,8.5,32.4,155,68.2,39.9,12.3,240.0,71.0,7.1,3,5,7,1,2026-07-15T23:39:56.774974+05:30
Jamshedpur,Jharkhand,22.8046,86.2029,25.6,97,0.2,985.9,7.75,31.7,160,65.4,60.8,40.5,726.0,47.0,64.0,10,5,7,1,2026-07-15T23:39:56.774981+05:30
Dhanbad,Jharkhand,23.7957,86.4304,25.7,99,0.1,975.8,8.6,29.9,179,61.7,59.1,47.4,293.0,44.0,106.9,10,5,7,1,2026-07-15T23:39:56.774988+05:30
Bokaro,Jharkhand,23.6693,86.1511,25.8,97,0.1,979.6,8.35,28.8,182,81.5,64.5,42.7,405.0,53.0,107.4,10,5,7,1,2026-07-15T23:39:56.774995+05:30
Bhubaneswar,Odisha,20.2961,85.8245,25.9,96,0.0,996.1,5.9,37.8,132,62.6,45.2,16.4,270.0,58.0,16.4,7,5,3,1,2026-07-15T23:39:56.775002+05:30
Cuttack,Odisha,20.4625,85.8828,26.1,95,0.0,998.0,6.95,37.1,132,62.6,45.2,16.4,221.0,58.0,16.4,7,5,7,1,2026-07-15T23:39:56.775010+05:30
Rourkela,Odisha,22.2604,84.8536,25.7,98,0.0,980.5,7.8,40.0,156,82.7,47.0,13.0,486.0,63.0,6.5,7,5,7,1,2026-07-15T23:39:56.775017+05:30
Raipur,Chhattisgarh,21.2514,81.6296,27.7,79,0.0,971.2,8.0,30.2,133,55.4,40.9,35.1,235.0,49.0,61.2,7,5,7,1,2026-07-15T23:39:56.775024+05:30
Bhilai,Chhattisgarh,21.1938,81.3509,27.7,78,0.0,971.7,8.35,31.0,117,53.6,37.0,25.1,789.0,58.0,43.5,7,5,7,1,2026-07-15T23:39:56.775030+05:30
Guwahati,Assam,26.1158,91.7086,27.0,97,0.0,997.8,7.85,23.4,43,11.8,11.6,10.5,323.0,41.0,1.8,7,5,7,1,2026-07-15T23:39:56.775037+05:30
Agartala,Tripura,23.8315,91.2868,27.4,87,0.0,1002.7,8.7,31.7,69,20.8,17.8,13.0,295.0,38.0,2.7,7,5,4,1,2026-07-15T23:39:56.775043+05:30
Shillong,Meghalaya,25.5788,91.8933,20.8,93,0.0,855.9,7.1,27.4,34,5.1,4.9,6.4,247.0,67.0,2.0,3,5,7,1,2026-07-15T23:39:56.775050+05:30
Imphal,Manipur,24.817,93.9368,23.9,96,0.0,921.0,8.65,24.1,51,11.8,11.2,11.9,308.0,35.0,2.2,3,5,7,1,2026-07-15T23:39:56.775057+05:30
Aizawl,Mizoram,23.7271,92.7176,20.9,98,0.0,890.0,9.0,30.6,40,10.1,9.2,14.0,300.0,15.0,0.9,3,5,7,1,2026-07-15T23:39:56.775064+05:30
Kohima,Nagaland,25.6701,94.1077,21.2,93,0.1,854.2,7.25,26.6,43,6.4,5.8,6.4,315.0,40.0,0.8,6,5,7,1,2026-07-15T23:39:56.775071+05:30
Gangtok,Sikkim,27.3314,88.6138,18.7,82,0.0,836.2,8.55,33.1,48,8.7,8.4,6.4,297.0,99.0,1.8,3,10,7,0,2026-07-15T23:39:56.775078+05:30
Siliguri,West Bengal,26.7271,88.3953,25.7,98,0.0,990.3,6.95,23.4,81,40.9,39.2,19.0,562.0,86.0,6.2,7,5,7,1,2026-07-15T23:40:00.092948+05:30
Durgapur,West Bengal,23.5204,87.3119,26.6,96,0.2,990.6,9.0,31.0,139,50.4,49.7,41.0,354.0,31.0,32.8,10,5,7,1,2026-07-15T23:40:00.092989+05:30
Asansol,West Bengal,23.6739,86.9524,26.1,97,0.1,988.9,8.15,26.3,151,43.9,43.3,39.9,406.0,37.0,32.9,10,5,7,1,2026-07-15T23:40:00.093001+05:30
Pondicherry,Puducherry,11.9139,79.8145,28.6,79,0.0,1007.3,8.15,43.9,84,19.5,14.1,9.6,187.0,65.0,6.7,7,5,4,1,2026-07-15T23:40:00.093010+05:30
Port Blair,Andaman and Nicobar Islands,11.6234,92.7265,26.7,89,0.0,1008.0,8.35,55.4,51,38.4,13.7,0.2,86.0,53.0,0.4,7,0,4,1,2026-07-15T23:40:00.093019+05:30
Haridwar,Uttarakhand,29.9457,78.1642,27.5,87,0.0,969.7,7.45,25.2,168,162.1,121.1,40.6,505.0,81.0,20.4,7,5,7,1,2026-07-15T23:40:00.093027+05:30
Rishikesh,Uttarakhand,30.0869,78.2676,26.7,91,0.0,962.6,7.55,23.8,161,91.0,66.6,14.0,423.0,115.0,10.1,7,5,7,1,2026-07-15T23:40:00.093035+05:30
Nainital,Uttarakhand,29.3919,79.4542,17.1,99,0.0,804.4,7.55,27.0,155,75.4,51.0,16.2,354.0,90.0,9.0,3,10,7,1,2026-07-15T23:40:00.093043+05:30
Mussoorie,Uttarakhand,30.4599,78.0664,17.7,100,0.0,802.1,7.85,33.1,152,102.2,82.0,27.8,483.0,100.0,10.3,3,10,7,1,2026-07-15T23:40:00.093051+05:30
Dharamshala,Himachal Pradesh,32.219,76.3234,21.4,72,0.0,866.7,8.4,36.0,67,41.4,32.1,19.0,302.0,39.0,0.8,3,5,7,1,2026-07-15T23:40:00.093060+05:30
Dalhousie,Himachal Pradesh,32.5387,75.971,15.7,96,0.0,801.9,8.4,30.6,138,79.4,63.3,47.3,807.0,65.0,5.0,3,10,7,0,2026-07-15T23:40:00.093068+05:30
Patiala,Punjab,30.3398,76.3869,29.2,80,0.0,973.5,7.6,29.2,193,427.5,155.1,53.7,696.0,31.0,12.0,7,5,7,1,2026-07-15T23:40:00.093076+05:30
Bhatinda,Punjab,30.211,74.9455,33.0,57,0.0,979.1,8.2,25.9,174,262.6,123.9,64.7,414.0,18.0,9.1,0,5,7,1,2026-07-15T23:40:00.093083+05:30
Rohtak,Haryana,28.8955,76.6066,30.7,72,0.0,977.2,7.65,33.1,498,769.3,181.6,53.8,555.0,18.0,9.0,3,5,7,1,2026-07-15T23:40:00.093089+05:30
Panipat,Haryana,29.3909,76.9635,29.7,82,0.0,975.9,7.5,28.1,791,884.8,221.2,58.8,1137.0,19.0,11.9,7,5,7,1,2026-07-15T23:40:00.093097+05:30
Mathura,Uttar Pradesh,27.4924,77.6737,29.5,74,0.0,982.8,7.65,38.2,389,931.3,151.3,21.4,269.0,53.0,5.3,7,5,7,1,2026-07-15T23:40:00.093104+05:30
Vrindavan,Uttar Pradesh,27.5823,77.7027,29.8,73,0.0,983.1,7.65,31.0,389,931.3,151.3,21.4,275.0,53.0,5.3,7,5,7,1,2026-07-15T23:40:00.093111+05:30
Ayodhya,Uttar Pradesh,26.7922,82.1998,28.9,94,0.0,991.0,7.05,25.2,174,95.9,58.1,13.4,941.0,87.0,5.2,7,5,7,1,2026-07-15T23:40:00.093118+05:30
Ratlam,Madhya Pradesh,23.3315,75.0367,25.7,79,0.0,953.1,7.3,36.4,64,25.6,18.2,6.9,181.0,72.0,9.4,7,5,7,1,2026-07-15T23:40:00.093125+05:30
Sagar,Madhya Pradesh,23.8388,78.7378,26.8,73,0.0,947.7,6.65,40.0,97,57.7,31.5,10.3,198.0,53.0,3.6,7,5,7,1,2026-07-15T23:40:00.093132+05:30
Satna,Madhya Pradesh,24.6005,80.8322,28.4,73,0.0,967.8,8.7,31.3,123,83.6,43.0,7.6,197.0,72.0,4.5,7,5,7,1,2026-07-15T23:40:00.093139+05:30
Akola,Maharashtra,20.7002,77.0082,28.1,66,0.0,974.0,7.95,42.8,66,30.6,17.9,10.2,164.0,59.0,9.0,7,5,7,1,2026-07-15T23:40:00.093148+05:30
Amravati,Maharashtra,20.9374,77.7796,28.0,70,0.0,965.9,7.4,41.4,67,31.9,18.6,10.4,191.0,66.0,9.8,7,5,7,1,2026-07-15T23:40:00.093156+05:30
Latur,Maharashtra,18.4088,76.5604,24.0,81,0.0,939.4,8.9,42.8,58,18.6,13.0,7.6,179.0,54.0,2.8,3,5,7,1,2026-07-15T23:40:00.093164+05:30
Nanded,Maharashtra,19.1383,77.3091,26.0,74,0.0,968.1,8.85,42.1,69,19.9,13.4,6.3,180.0,63.0,3.9,7,5,7,1,2026-07-15T23:40:00.093187+05:30
Gulbarga,Karnataka,17.3297,76.8343,25.9,72,0.0,958.8,8.75,62.6,60,19.9,12.3,10.7,191.0,48.0,3.4,7,5,7,1,2026-07-15T23:40:00.093195+05:30
Bidar,Karnataka,17.9104,77.5199,23.9,76,0.0,934.8,9.0,44.6,66,18.7,12.2,7.6,161.0,58.0,2.1,3,5,7,1,2026-07-15T23:40:00.093202+05:30
Hospet,Karnataka,15.2689,76.3909,24.5,76,0.0,956.9,8.5,43.9,55,22.4,12.9,5.0,132.0,46.0,1.9,3,5,7,1,2026-07-15T23:40:00.093209+05:30
Tirupur,Tamil Nadu,11.1085,77.3411,25.1,85,0.0,976.0,8.8,52.6,66,30.4,22.8,24.1,174.0,30.0,6.0,7,5,7,1,2026-07-15T23:40:00.093216+05:30
Alappuzha,Kerala,9.4981,76.3388,26.8,92,0.0,1011.2,8.25,39.2,64,35.6,22.4,15.1,90.0,35.0,4.8,7,0,4,1,2026-07-15T23:40:00.093224+05:30
Munnar,Kerala,10.0889,77.0595,15.9,87,0.0,856.8,8.4,36.4,54,14.5,12.2,12.3,166.0,28.0,2.5,3,10,7,0,2026-07-15T23:40:00.093232+05:30
Silchar,Assam,24.8333,92.7789,26.3,100,0.1,1002.7,8.85,25.2,60,15.7,15.2,8.9,227.0,58.0,4.0,10,5,4,1,2026-07-15T23:40:00.093239+05:30
Dibrugarh,Assam,27.4728,94.912,26.7,96,0.1,992.1,7.3,22.0,54,10.5,10.3,10.9,270.0,41.0,0.9,10,5,7,1,2026-07-15T23:40:00.093247+05:30
