city,state,latitude,longitude,temp,humidity,rain,pressure,uv_index,wind_gusts,aqi,pm10,pm2_5,mosquito_risk,arthritis_risk,migraine_risk,frizz_risk,updated_at
Delhi,Delhi,28.6139,77.209,25.5,43,0.0,987.6,7.05,25.6,158,280.3,55.6,4,5,7,0,2026-04-09T19:18:33.967978+05:30
Mumbai,Maharashtra,19.076,72.8777,28.0,79,0.0,1009.8,7.95,19.4,82,131.8,31.5,7,0,4,1,2026-04-09T19:18:33.968053+05:30
Bangalore,Karnataka,12.9716,77.5946,31.0,36,0.0,912.1,9.6,27.4,170,31.3,21.6,0,5,7,0,2026-04-09T19:18:33.968070+05:30
Hyderabad,Telangana,17.385,78.4867,33.2,28,0.0,953.5,9.15,28.8,125,43.1,22.3,0,5,7,0,2026-04-09T19:18:33.968081+05:30
Chennai,Tamil Nadu,13.0827,80.2707,30.2,75,0.0,1006.7,9.35,37.1,67,24.8,19.7,3,5,4,1,2026-04-09T19:18:33.968091+05:30
Kolkata,West Bengal,22.5726,88.3639,25.2,80,0.0,1008.2,8.45,14.4,159,65.9,47.8,7,0,4,1,2026-04-09T19:18:33.968100+05:30
Pune,Maharashtra,18.5204,73.8567,28.8,49,0.0,949.8,8.5,36.4,84,107.3,37.5,4,5,7,1,2026-04-09T19:18:33.968113+05:30
Ahmedabad,Gujarat,23.0225,72.5714,33.5,29,0.0,1003.7,8.0,16.9,132,61.2,25.3,0,5,4,0,2026-04-09T19:18:33.968124+05:30
Jaipur,Rajasthan,26.9124,75.7873,27.0,30,0.0,963.7,7.75,27.0,145,150.4,28.1,4,5,7,0,2026-04-09T19:18:33.968132+05:30
Lucknow,Uttar Pradesh,26.8467,80.9462,26.7,36,0.0,997.0,7.55,37.1,124,117.1,29.3,4,5,7,0,2026-04-09T19:18:33.968141+05:30
Kanpur,Uttar Pradesh,26.4499,80.3319,25.6,44,0.0,995.6,7.6,31.7,137,363.2,52.5,4,5,7,0,2026-04-09T19:18:33.968149+05:30
Chandigarh,Chandigarh,30.7333,76.7794,22.0,49,0.0,974.4,7.05,25.6,134,33.2,24.6,0,5,7,0,2026-04-09T19:18:33.968157+05:30
Srinagar,Jammu and Kashmir,34.0837,74.7973,10.6,75,0.0,843.1,7.9,22.0,115,13.3,10.4,3,5,7,0,2026-04-09T19:18:33.968165+05:30
Jammu,Jammu and Kashmir,32.7266,74.857,22.4,55,0.0,979.5,7.65,27.4,109,30.0,17.9,0,5,7,0,2026-04-09T19:18:33.968173+05:30
Amritsar,Punjab,31.634,74.8723,21.7,58,0.0,987.6,7.6,18.0,114,32.0,22.5,0,5,7,0,2026-04-09T19:18:33.968180+05:30
Ludhiana,Punjab,30.901,75.8573,23.5,44,0.0,985.0,7.25,22.0,116,37.4,22.3,0,5,7,0,2026-04-09T19:18:33.968187+05:30
Jalandhar,Punjab,31.326,75.5762,23.1,47,0.0,986.5,7.4,21.2,108,40.0,20.4,0,5,7,0,2026-04-09T19:18:33.968197+05:30
Dehradun,Uttarakhand,30.6284,78.0322,11.8,74,0.0,831.1,7.3,22.3,122,28.5,16.6,3,5,7,0,2026-04-09T19:18:33.968205+05:30
Shimla,Himachal Pradesh,31.1048,77.1734,9.4,73,0.0,784.7,7.4,27.4,132,40.6,28.3,3,5,7,0,2026-04-09T19:18:33.968212+05:30
Manali,Himachal Pradesh,32.2396,77.1887,10.9,80,0.0,819.3,9.7,27.7,152,10.5,6.9,3,5,7,0,2026-04-09T19:18:33.968220+05:30
Gurgaon,Haryana,28.4595,77.0266,24.0,52,0.0,986.1,7.15,20.5,170,864.3,112.0,0,5,7,0,2026-04-09T19:18:33.968227+05:30
Noida,Uttar Pradesh,28.5355,77.391,25.1,47,0.0,989.1,7.1,25.6,170,864.3,112.0,4,5,7,0,2026-04-09T19:18:33.968234+05:30
Ghaziabad,Uttar Pradesh,28.6692,77.4538,23.8,51,0.0,987.3,7.05,26.3,155,190.9,46.4,0,5,7,0,2026-04-09T19:18:33.968241+05:30
Faridabad,Haryana,28.4089,77.3178,24.6,48,0.0,988.2,7.15,22.0,170,864.3,112.0,0,5,7,0,2026-04-09T19:18:33.968247+05:30
Meerut,Uttar Pradesh,28.9845,77.7064,23.0,53,0.0,986.3,6.95,29.9,155,190.9,46.4,0,5,7,0,2026-04-09T19:18:33.968253+05:30
Agra,Uttar Pradesh,27.1767,78.0081,25.7,47,0.0,992.0,7.45,19.8,606,508.5,69.2,4,5,7,0,2026-04-09T19:18:33.968261+05:30
Varanasi,Uttar Pradesh,25.3176,82.9739,26.4,38,0.0,1000.6,8.15,36.0,147,57.9,26.5,4,5,4,0,2026-04-09T19:18:33.968275+05:30
Prayagraj,Uttar Pradesh,25.4358,81.8463,26.7,42,0.0,999.6,8.05,36.4,137,66.4,24.3,4,5,7,0,2026-04-09T19:18:33.968282+05:30
Gorakhpur,Uttar Pradesh,26.7606,83.3732,26.5,31,0.0,999.8,7.95,29.5,146,30.2,17.8,4,5,7,0,2026-04-09T19:18:33.968289+05:30
Bareilly,Uttar Pradesh,28.367,79.4304,23.4,48,0.0,991.0,7.35,33.5,120,26.2,17.2,0,5,7,0,2026-04-09T19:18:33.968295+05:30
Aligarh,Uttar Pradesh,27.8974,78.088,24.4,48,0.0,989.9,7.25,28.4,140,438.7,68.0,0,5,7,0,2026-04-09T19:18:33.968302+05:30
Moradabad,Uttar Pradesh,28.8386,78.7733,22.4,52,0.0,988.1,7.15,29.9,117,44.9,23.4,0,5,7,0,2026-04-09T19:18:33.968311+05:30
Saharanpur,Uttar Pradesh,29.9637,77.546,21.7,54,0.0,980.8,6.75,29.9,123,68.5,25.3,0,5,7,0,2026-04-09T19:18:33.968317+05:30
Jhansi,Uttar Pradesh,25.4484,78.5685,27.0,41,0.0,981.5,8.0,27.4,118,112.7,31.8,4,5,7,0,2026-04-09T19:18:37.299258+05:30
Surat,Gujarat,21.1702,72.8311,27.2,61,0.0,1008.7,7.7,28.1,91,108.7,43.2,7,0,4,1,2026-04-09T19:18:37.299294+05:30
Vadodara,Gujarat,22.3072,73.1812,31.3,48,0.0,1006.0,8.0,20.5,119,42.8,24.4,0,5,4,1,2026-04-09T19:18:37.299305+05:30
Rajkot,Gujarat,22.3039,70.8022,33.1,37,0.0,995.3,7.7,21.2,112,55.5,20.3,0,5,7,1,2026-04-09T19:18:37.299313+05:30
Thane,Maharashtra,19.2183,72.9781,27.7,75,0.0,1009.3,7.95,33.8,82,131.8,31.5,7,0,4,1,2026-04-09T19:18:37.299321+05:30
Nagpur,Maharashtra,21.1458,79.0882,29.5,56,0.0,973.7,8.75,20.5,125,38.2,18.9,4,5,7,1,2026-04-09T19:18:37.299328+05:30
Nashik,Maharashtra,19.9975,73.7898,27.7,41,0.0,947.4,8.2,27.0,68,88.5,24.3,4,5,7,0,2026-04-09T19:18:37.299335+05:30
Aurangabad,Maharashtra,19.8762,75.3433,30.7,33,0.0,945.4,8.9,29.2,74,45.3,16.9,0,5,7,0,2026-04-09T19:18:37.299342+05:30
Solapur,Maharashtra,17.6599,75.9064,34.1,24,0.0,956.9,8.95,23.8,77,101.7,31.4,0,5,7,0,2026-04-09T19:18:37.299350+05:30
Kolhapur,Maharashtra,16.705,74.2433,26.2,68,0.0,948.9,9.0,38.5,81,69.8,26.5,7,5,7,1,2026-04-09T19:18:37.299357+05:30
Goa,Goa,15.2993,74.124,28.7,75,0.0,998.9,8.95,36.0,71,58.6,16.8,7,5,7,1,2026-04-09T19:18:37.299364+05:30
Jodhpur,Rajasthan,26.2389,73.0243,28.7,23,0.0,986.9,8.0,28.4,102,99.4,15.7,4,5,7,0,2026-04-09T19:18:37.299371+05:30
Udaipur,Rajasthan,24.5854,73.7125,26.6,18,0.0,950.1,8.5,36.4,113,60.3,14.2,4,5,7,0,2026-04-09T19:18:37.299378+05:30
Kota,Rajasthan,25.2138,75.8648,28.2,37,0.0,981.8,8.0,24.8,130,76.1,25.5,4,5,7,0,2026-04-09T19:18:37.299384+05:30
Bikaner,Rajasthan,28.0229,73.3119,29.2,21,0.0,986.9,7.8,21.6,114,66.1,16.1,4,5,7,0,2026-04-09T19:18:37.299391+05:30
Ajmer,Rajasthan,26.4499,74.6399,26.7,26,0.0,958.4,7.95,28.8,117,39.9,12.8,4,5,7,0,2026-04-09T19:18:37.299396+05:30
Gwalior,Madhya Pradesh,26.2183,78.1828,27.0,47,0.0,987.2,7.7,28.8,111,95.9,26.8,4,5,7,0,2026-04-09T19:18:37.299402+05:30
Indore,Madhya Pradesh,22.7196,75.8577,28.7,37,0.0,950.2,8.4,22.7,110,35.9,18.7,4,5,7,0,2026-04-09T19:18:37.299408+05:30
Bhopal,Madhya Pradesh,23.2599,77.4126,29.7,26,0.0,955.9,8.4,26.6,110,54.8,21.1,4,5,7,0,2026-04-09T19:18:37.299414+05:30
Jabalpur,Madhya Pradesh,23.1815,79.9864,29.1,35,0.0,963.6,8.55,27.0,119,58.6,26.3,4,5,7,0,2026-04-09T19:18:37.299420+05:30
Ujjain,Madhya Pradesh,23.1765,75.7885,28.5,30,0.0,956.2,8.35,22.0,96,46.3,21.2,4,5,7,0,2026-04-09T19:18:37.299426+05:30
Visakhapatnam,Andhra Pradesh,17.6868,83.2185,28.8,81,0.0,1004.4,9.1,43.2,94,33.1,28.9,7,5,4,1,2026-04-09T19:18:37.299433+05:30
Vijayawada,Andhra Pradesh,16.5062,80.648,32.7,55,0.0,1002.2,9.15,33.1,94,34.3,31.3,0,5,4,1,2026-04-09T19:18:37.299439+05:30
Guntur,Andhra Pradesh,16.3067,80.4365,30.9,69,0.0,1003.6,9.15,31.7,119,41.1,35.6,3,5,4,1,2026-04-09T19:18:37.299446+05:30
Nellore,Andhra Pradesh,14.4426,79.9865,29.9,74,0.0,1005.2,9.3,34.9,119,26.5,22.0,7,5,4,1,2026-04-09T19:18:37.299453+05:30
Kurnool,Andhra Pradesh,15.8281,78.0373,35.6,24,0.0,975.7,9.2,27.7,135,42.4,22.0,0,5,10,0,2026-04-09T19:18:37.299460+05:30
Kakinada,Andhra Pradesh,16.9891,82.2475,30.2,71,0.0,1007.8,9.1,28.4,77,26.1,20.2,3,5,4,1,2026-04-09T19:18:37.299467+05:30
Tirupati,Andhra Pradesh,13.6288,79.4192,32.5,53,0.0,990.7,9.4,29.2,129,34.6,32.1,0,5,7,1,2026-04-09T19:18:37.299474+05:30
Warangal,Telangana,17.9689,79.5941,32.6,53,0.0,978.6,9.0,24.5,137,56.8,35.3,0,5,7,1,2026-04-09T19:18:37.299480+05:30
Nizamabad,Telangana,18.6725,78.0941,30.8,37,0.0,965.4,8.95,26.3,89,84.1,34.5,0,5,7,0,2026-04-09T19:18:37.299486+05:30
Mysore,Karnataka,12.2958,76.6396,29.3,50,0.0,928.5,9.5,41.8,128,29.3,19.3,4,5,7,1,2026-04-09T19:18:37.299492+05:30
Mangalore,Karnataka,12.9141,74.856,29.6,78,0.0,1007.1,9.15,33.5,75,56.7,18.9,7,5,4,1,2026-04-09T19:18:37.299498+05:30
Hubli-Dharwad,Karnataka,15.3647,75.124,27.9,64,0.0,941.4,9.2,38.9,69,43.1,18.6,7,5,7,1,2026-04-09T19:18:37.299505+05:30
Belgaum,Karnataka,15.8497,74.4977,25.9,68,0.0,926.8,9.2,38.2,75,49.1,17.9,7,5,7,1,2026-04-09T19:18:40.628965+05:30
Coimbatore,Tamil Nadu,11.0168,76.9558,27.8,68,0.0,961.7,9.45,42.1,67,18.1,12.7,7,5,7,1,2026-04-09T19:18:40.629020+05:30
Madurai,Tamil Nadu,9.9252,78.1198,32.6,52,0.0,992.6,9.4,23.8,132,31.2,28.4,0,5,7,1,2026-04-09T19:18:40.629031+05:30
Trichy,Tamil Nadu,10.7905,78.7047,32.5,57,0.0,998.7,9.35,22.7,98,24.8,22.6,0,5,7,1,2026-04-09T19:18:40.629040+05:30
Salem,Tamil Nadu,11.6643,78.146,33.5,46,0.0,976.2,9.15,36.4,159,24.2,21.3,0,5,7,1,2026-04-09T19:18:40.629048+05:30
Tirunelveli,Tamil Nadu,8.7139,77.7567,28.2,73,0.0,1003.3,9.3,19.8,106,28.1,24.4,7,5,4,1,2026-04-09T19:18:40.629057+05:30
Vellore,Tamil Nadu,12.9165,79.1325,32.2,49,0.0,983.9,9.4,20.2,119,31.5,29.3,0,5,7,1,2026-04-09T19:18:40.629064+05:30
Erode,Tamil Nadu,11.341,77.7172,34.7,41,0.0,987.5,8.85,20.2,121,18.0,15.8,0,5,7,1,2026-04-09T19:18:40.629071+05:30
Kochi,Kerala,9.9312,76.2673,29.7,76,0.0,1008.6,8.4,25.6,65,32.7,18.5,7,0,4,1,2026-04-09T19:18:40.629079+05:30
Thiruvananthapuram,Kerala,8.5241,76.9366,29.3,79,0.0,1007.9,9.15,34.9,52,28.4,16.2,7,5,4,1,2026-04-09T19:18:40.629086+05:30
Kozhikode,Kerala,11.2588,75.7804,29.7,77,0.0,1007.8,9.15,27.4,68,45.1,16.7,7,5,4,1,2026-04-09T19:18:40.629094+05:30
Thrissur,Kerala,10.5276,76.2144,29.4,76,0.0,1007.0,8.6,30.6,64,32.8,17.2,7,5,4,1,2026-04-09T19:18:40.629101+05:30
Kannur,Kerala,11.8745,75.3704,29.6,76,0.0,1007.3,9.15,32.8,73,49.8,19.2,7,5,4,1,2026-04-09T19:18:40.629108+05:30
Patna,Bihar,25.5941,85.1376,28.0,41,0.0,1002.6,8.3,27.0,150,41.9,26.3,4,5,4,0,2026-04-09T19:18:40.629116+05:30
Gaya,Bihar,24.7914,85.0002,26.7,42,0.0,996.4,8.4,24.1,153,43.5,23.7,4,5,7,0,2026-04-09T19:18:40.629123+05:30
Muzaffarpur,Bihar,26.1209,85.3647,27.0,56,0.0,1002.5,8.15,19.4,141,44.5,28.8,4,5,4,1,2026-04-09T19:18:40.629129+05:30
Bhagalpur,Bihar,25.2425,87.0117,25.7,66,0.0,1003.7,7.9,23.4,147,53.8,37.3,7,5,4,1,2026-04-09T19:18:40.629136+05:30
Ranchi,Jharkhand,23.3441,85.3096,25.7,40,0.0,940.1,9.0,31.0,111,42.4,20.7,4,5,7,0,2026-04-09T19:18:40.629142+05:30
Jamshedpur,Jharkhand,22.8046,86.2029,27.6,63,0.0,992.8,8.8,15.8,136,75.2,38.8,7,5,7,1,2026-04-09T19:18:40.629148+05:30
Dhanbad,Jharkhand,23.7957,86.4304,26.8,55,0.0,982.0,8.7,23.0,144,49.9,32.2,4,5,7,1,2026-04-09T19:18:40.629155+05:30
Bokaro,Jharkhand,23.6693,86.1511,26.3,67,0.0,986.3,8.7,23.8,146,53.8,31.7,7,5,7,1,2026-04-09T19:18:40.629162+05:30
Bhubaneswar,Odisha,20.2961,85.8245,26.5,87,0.0,1004.1,8.9,32.8,106,43.1,36.1,7,5,4,1,2026-04-09T19:18:40.629168+05:30
Cuttack,Odisha,20.4625,85.8828,27.3,85,0.0,1005.9,9.0,31.7,106,43.1,36.1,7,5,4,1,2026-04-09T19:18:40.629175+05:30
Rourkela,Odisha,22.2604,84.8536,28.6,59,0.0,986.4,8.75,19.1,113,63.8,31.7,4,5,7,1,2026-04-09T19:18:40.629182+05:30
Raipur,Chhattisgarh,21.2514,81.6296,33.0,25,0.0,975.0,8.8,27.4,125,90.1,47.8,0,5,7,0,2026-04-09T19:18:40.629188+05:30
Bhilai,Chhattisgarh,21.1938,81.3509,32.2,28,0.0,975.4,8.8,28.4,117,77.5,39.7,0,5,7,0,2026-04-09T19:18:40.629194+05:30
Guwahati,Assam,26.1158,91.7086,22.7,86,0.0,1004.4,8.05,24.8,95,35.2,30.7,3,5,4,1,2026-04-09T19:18:40.629200+05:30
Agartala,Tripura,23.8315,91.2868,23.2,92,0.0,1008.7,8.45,19.1,126,52.5,50.8,3,0,4,1,2026-04-09T19:18:40.629206+05:30
Shillong,Meghalaya,25.5788,91.8933,12.2,93,0.0,855.5,8.3,35.6,92,36.6,31.1,3,10,7,0,2026-04-09T19:18:40.629212+05:30
Imphal,Manipur,24.817,93.9368,16.7,94,0.1,924.0,7.55,47.9,86,40.9,38.0,6,10,7,0,2026-04-09T19:18:40.629220+05:30
Aizawl,Mizoram,23.7271,92.7176,17.7,93,0.0,893.6,6.4,47.5,71,28.3,24.4,3,10,7,1,2026-04-09T19:18:40.629226+05:30
Kohima,Nagaland,25.6701,94.1077,14.0,82,0.0,854.6,6.7,67.0,79,28.9,23.8,3,10,7,0,2026-04-09T19:18:40.629233+05:30
Gangtok,Sikkim,27.3314,88.6138,12.2,86,0.0,836.3,6.15,20.2,107,19.0,16.8,3,10,7,0,2026-04-09T19:18:40.629239+05:30
Siliguri,West Bengal,26.7271,88.3953,19.1,87,0.0,996.2,5.95,21.6,115,42.1,36.2,3,10,3,1,2026-04-09T19:18:43.959060+05:30
Durgapur,West Bengal,23.5204,87.3119,26.7,66,0.0,997.1,8.7,18.0,133,90.3,55.5,7,5,7,1,2026-04-09T19:18:43.959095+05:30
Asansol,West Bengal,23.6739,86.9524,27.3,64,0.0,995.6,8.7,18.4,129,62.2,38.2,7,5,7,1,2026-04-09T19:18:43.959105+05:30
Pondicherry,Puducherry,11.9139,79.8145,29.8,79,0.0,1007.8,9.3,27.7,137,27.0,21.3,7,5,4,1,2026-04-09T19:18:43.959112+05:30
Port Blair,Andaman and Nicobar Islands,11.6234,92.7265,28.7,78,0.0,1009.2,9.25,13.0,35,6.5,5.1,7,0,4,1,2026-04-09T19:18:43.959120+05:30
Haridwar,Uttarakhand,29.9457,78.1642,21.9,52,0.0,979.0,6.9,30.6,126,33.5,18.2,0,5,7,0,2026-04-09T19:18:43.959129+05:30
Rishikesh,Uttarakhand,30.0869,78.2676,20.3,59,0.0,971.4,6.95,28.8,125,27.0,13.4,0,5,7,0,2026-04-09T19:18:43.959137+05:30
Nainital,Uttarakhand,29.3919,79.4542,15.1,56,0.0,807.0,7.8,39.2,112,22.2,12.3,0,5,7,0,2026-04-09T19:18:43.959145+05:30
Mussoorie,Uttarakhand,30.4599,78.0664,12.2,71,0.0,803.2,6.85,26.6,123,25.9,15.9,3,5,7,0,2026-04-09T19:18:43.959153+05:30
Dharamshala,Himachal Pradesh,32.219,76.3234,14.9,71,0.0,871.7,7.5,23.4,122,19.2,11.0,3,5,7,0,2026-04-09T19:18:43.959160+05:30
Dalhousie,Himachal Pradesh,32.5387,75.971,12.8,64,0.0,805.4,7.65,18.7,112,28.1,15.6,3,5,7,0,2026-04-09T19:18:43.959168+05:30
Patiala,Punjab,30.3398,76.3869,23.0,47,0.0,984.0,6.9,27.0,119,508.5,65.0,0,5,7,0,2026-04-09T19:18:43.959176+05:30
Bhatinda,Punjab,30.211,74.9455,23.6,47,0.0,989.8,7.6,27.4,135,41.1,22.2,0,5,7,0,2026-04-09T19:18:43.959182+05:30
Rohtak,Haryana,28.8955,76.6066,23.5,47,0.0,986.6,7.05,32.0,145,441.4,64.5,0,5,7,0,2026-04-09T19:18:43.959189+05:30
Panipat,Haryana,29.3909,76.9635,22.8,48,0.0,985.4,6.9,29.9,151,901.5,103.4,0,5,7,0,2026-04-09T19:18:43.959195+05:30
Mathura,Uttar Pradesh,27.4924,77.6737,26.4,45,0.0,991.1,7.4,25.6,383,353.0,55.9,4,5,7,0,2026-04-09T19:18:43.959201+05:30
Vrindavan,Uttar Pradesh,27.5823,77.7027,24.8,51,0.0,991.5,7.35,27.0,383,353.0,55.9,0,5,7,0,2026-04-09T19:18:43.959208+05:30
Ayodhya,Uttar Pradesh,26.7922,82.1998,25.7,33,0.0,998.5,7.75,36.0,113,34.7,19.0,4,5,7,0,2026-04-09T19:18:43.959215+05:30
Ratlam,Madhya Pradesh,23.3315,75.0367,28.2,41,0.0,957.1,8.3,27.0,93,47.8,19.5,4,5,7,0,2026-04-09T19:18:43.959221+05:30
Sagar,Madhya Pradesh,23.8388,78.7378,28.7,29,0.0,952.6,8.4,25.9,107,69.8,25.7,4,5,7,0,2026-04-09T19:18:43.959227+05:30
Satna,Madhya Pradesh,24.6005,80.8322,28.0,30,0.0,974.6,8.4,26.6,116,80.3,23.6,4,5,7,0,2026-04-09T19:18:43.959234+05:30
Akola,Maharashtra,20.7002,77.0082,32.4,37,0.0,976.1,8.7,25.6,92,37.0,18.3,0,5,7,0,2026-04-09T19:18:43.959241+05:30
Amravati,Maharashtra,20.9374,77.7796,32.1,32,0.0,967.9,8.7,20.2,104,38.0,19.3,0,5,7,0,2026-04-09T19:18:43.959248+05:30
Latur,Maharashtra,18.4088,76.5604,29.4,40,0.0,940.4,8.95,28.4,84,97.3,36.2,4,5,7,0,2026-04-09T19:18:43.959255+05:30
Nanded,Maharashtra,19.1383,77.3091,31.4,41,0.0,969.3,8.85,22.3,80,97.1,32.5,0,5,7,1,2026-04-09T19:18:43.959261+05:30
Gulbarga,Karnataka,17.3297,76.8343,34.5,22,0.0,958.8,9.0,31.3,95,68.5,24.7,0,5,7,0,2026-04-09T19:18:43.959267+05:30
Bidar,Karnataka,17.9104,77.5199,31.5,30,0.0,936.3,9.0,32.4,89,63.1,27.7,0,5,7,0,2026-04-09T19:18:43.959273+05:30
Hospet,Karnataka,15.2689,76.3909,33.9,32,0.0,955.5,9.2,23.4,85,54.7,22.9,0,5,7,0,2026-04-09T19:18:43.959281+05:30
Tirupur,Tamil Nadu,11.1085,77.3411,31.1,56,0.0,974.7,9.3,34.2,110,17.1,14.6,0,5,7,1,2026-04-09T19:18:43.959287+05:30
Alappuzha,Kerala,9.4981,76.3388,29.7,77,0.0,1008.8,8.45,25.6,66,39.0,20.0,7,0,4,1,2026-04-09T19:18:43.959293+05:30
Munnar,Kerala,10.0889,77.0595,22.3,92,0.0,857.7,9.15,33.8,86,24.5,21.2,3,5,7,1,2026-04-09T19:18:43.959300+05:30
Silchar,Assam,24.8333,92.7789,22.1,91,0.0,1008.0,6.0,23.4,98,54.2,49.9,3,0,0,1,2026-04-09T19:18:43.959306+05:30
Dibrugarh,Assam,27.4728,94.912,22.6,83,0.0,998.4,4.9,16.9,93,36.8,29.0,3,5,3,1,2026-04-09T19:18:43.959312+05:30
