city,state,latitude,longitude,temp,humidity,rain,pressure,uv_index,wind_gusts,aqi,pm10,pm2_5,no2,co,o3,so2,mosquito_risk,arthritis_risk,migraine_risk,frizz_risk,updated_at
Delhi,Delhi,28.6139,77.209,31.3,59,0.1,976.1,7.5,33.5,170,222.1,115.7,76.2,474.0,0.0,26.3,3,5,7,1,2026-06-28T04:34:43.510669+05:30
Mumbai,Maharashtra,19.076,72.8777,26.5,89,0.1,1003.7,7.7,39.2,60,25.3,14.3,14.0,153.0,37.0,9.6,10,5,4,1,2026-06-28T04:34:43.510711+05:30
Bangalore,Karnataka,12.9716,77.5946,20.5,97,0.0,908.9,8.3,46.8,44,14.6,10.4,13.3,207.0,30.0,5.3,3,5,7,1,2026-06-28T04:34:43.510727+05:30
Hyderabad,Telangana,17.385,78.4867,23.5,95,0.0,949.3,8.5,36.7,76,29.0,21.0,10.0,186.0,63.0,6.1,3,5,7,1,2026-06-28T04:34:43.510736+05:30
Chennai,Tamil Nadu,13.0827,80.2707,26.2,94,0.0,1003.8,8.6,44.6,68,21.6,16.7,17.3,253.0,48.0,10.1,7,5,4,1,2026-06-28T04:34:43.510744+05:30
Kolkata,West Bengal,22.5726,88.3639,27.5,90,0.0,1001.6,9.0,38.2,67,20.6,18.1,10.1,296.0,56.0,5.5,7,5,4,1,2026-06-28T04:34:43.510753+05:30
Pune,Maharashtra,18.5204,73.8567,23.5,91,0.0,943.9,7.1,41.8,46,12.9,10.4,15.8,135.0,26.0,10.3,3,5,7,1,2026-06-28T04:34:43.510761+05:30
Ahmedabad,Gujarat,23.0225,72.5714,30.7,56,0.0,996.6,8.05,39.6,72,39.5,19.2,5.4,109.0,46.0,3.0,0,5,7,1,2026-06-28T04:34:43.510767+05:30
Jaipur,Rajasthan,26.9124,75.7873,29.2,63,0.0,954.1,8.2,38.5,132,300.8,65.2,7.9,156.0,55.0,4.3,7,5,7,1,2026-06-28T04:34:43.510774+05:30
Lucknow,Uttar Pradesh,26.8467,80.9462,29.3,77,0.0,987.1,8.3,29.2,128,51.7,34.2,18.8,199.0,52.0,5.5,7,5,7,1,2026-06-28T04:34:43.510787+05:30
Kanpur,Uttar Pradesh,26.4499,80.3319,32.1,60,0.0,985.2,8.3,43.6,118,38.0,27.5,18.4,174.0,48.0,4.5,0,5,7,1,2026-06-28T04:34:43.510794+05:30
Chandigarh,Chandigarh,30.7333,76.7794,27.9,75,0.0,962.2,7.8,28.8,154,69.2,58.2,40.2,639.0,13.0,4.5,7,5,7,1,2026-06-28T04:34:43.510801+05:30
Srinagar,Jammu and Kashmir,34.0837,74.7973,17.5,83,0.0,837.1,9.1,33.8,76,26.4,25.4,25.5,291.0,8.0,0.6,3,10,7,0,2026-06-28T04:34:43.510809+05:30
Jammu,Jammu and Kashmir,32.7266,74.857,25.9,93,0.2,967.0,8.65,31.0,125,44.8,39.3,48.5,314.0,0.0,2.5,10,5,7,1,2026-06-28T04:34:43.510816+05:30
Amritsar,Punjab,31.634,74.8723,28.9,73,0.0,973.6,8.5,48.2,164,107.3,91.3,42.2,543.0,28.0,5.7,7,5,7,1,2026-06-28T04:34:43.510822+05:30
Ludhiana,Punjab,30.901,75.8573,30.7,69,0.0,971.8,8.0,43.6,161,160.7,113.9,60.4,1340.0,16.0,13.5,3,5,7,1,2026-06-28T04:34:43.510828+05:30
Jalandhar,Punjab,31.326,75.5762,30.5,68,0.0,972.6,8.25,43.6,165,161.1,135.0,74.2,757.0,10.0,11.1,3,5,7,1,2026-06-28T04:34:43.510835+05:30
Dehradun,Uttarakhand,30.6284,78.0322,16.7,98,0.0,827.0,6.45,31.7,77,29.1,22.4,22.8,207.0,13.0,0.1,3,10,7,1,2026-06-28T04:34:43.510841+05:30
Shimla,Himachal Pradesh,31.1048,77.1734,12.7,98,0.0,779.6,7.6,35.6,111,70.8,53.6,20.5,307.0,32.0,0.0,3,10,7,0,2026-06-28T04:34:43.510847+05:30
Manali,Himachal Pradesh,32.2396,77.1887,17.3,63,0.0,816.1,9.15,34.9,55,9.9,7.0,46.5,210.0,60.0,0.0,3,5,7,0,2026-06-28T04:34:43.510856+05:30
Gurgaon,Haryana,28.4595,77.0266,30.7,60,0.0,974.6,7.5,36.7,167,197.9,69.6,47.4,517.0,9.0,12.4,0,5,7,1,2026-06-28T04:34:43.510865+05:30
Noida,Uttar Pradesh,28.5355,77.391,30.1,71,0.0,977.6,7.2,24.1,167,197.9,69.6,47.4,604.0,9.0,12.4,3,5,7,1,2026-06-28T04:34:43.510871+05:30
Ghaziabad,Uttar Pradesh,28.6692,77.4538,29.4,77,0.0,976.0,7.75,29.9,171,221.2,113.6,51.0,564.0,33.0,17.1,7,5,7,1,2026-06-28T04:34:43.510877+05:30
Faridabad,Haryana,28.4089,77.3178,31.0,64,0.0,976.9,7.2,29.9,167,197.9,69.6,47.4,590.0,9.0,12.4,3,5,7,1,2026-06-28T04:34:43.510883+05:30
Meerut,Uttar Pradesh,28.9845,77.7064,31.2,59,0.0,975.2,5.95,25.9,171,221.2,113.6,51.0,775.0,33.0,17.1,0,5,3,1,2026-06-28T04:34:43.510889+05:30
Agra,Uttar Pradesh,27.1767,78.0081,31.2,59,0.0,981.3,7.25,37.8,137,36.2,22.7,17.8,181.0,36.0,4.9,0,5,7,1,2026-06-28T04:34:43.510895+05:30
Varanasi,Uttar Pradesh,25.3176,82.9739,26.8,90,0.2,992.5,8.4,33.5,135,29.7,27.2,14.0,396.0,68.0,8.6,10,5,7,1,2026-06-28T04:34:43.510902+05:30
Prayagraj,Uttar Pradesh,25.4358,81.8463,27.8,89,0.2,991.1,8.7,36.0,111,51.8,39.8,20.0,235.0,50.0,6.1,10,5,7,1,2026-06-28T04:34:43.510909+05:30
Gorakhpur,Uttar Pradesh,26.7606,83.3732,26.8,98,0.0,991.9,7.75,34.2,161,90.8,78.9,18.7,616.0,74.0,6.6,7,5,7,1,2026-06-28T04:34:43.510915+05:30
Bareilly,Uttar Pradesh,28.367,79.4304,30.6,60,0.0,980.3,8.1,23.4,158,80.3,48.0,14.0,688.0,90.0,9.1,0,5,7,1,2026-06-28T04:34:43.510923+05:30
Aligarh,Uttar Pradesh,27.8974,78.088,30.7,63,0.0,978.9,5.5,29.9,166,110.1,54.8,27.6,537.0,49.0,6.6,3,5,3,1,2026-06-28T04:34:43.510929+05:30
Moradabad,Uttar Pradesh,28.8386,78.7733,31.4,58,0.0,977.2,7.75,29.2,163,99.9,66.6,25.8,796.0,75.0,10.6,0,5,7,1,2026-06-28T04:34:43.510935+05:30
Saharanpur,Uttar Pradesh,29.9637,77.546,30.6,61,0.0,969.4,6.9,22.3,161,94.1,74.3,41.7,667.0,15.0,8.7,3,5,7,1,2026-06-28T04:34:43.510941+05:30
Jhansi,Uttar Pradesh,25.4484,78.5685,29.8,66,0.0,972.3,7.3,38.9,87,28.5,21.4,7.9,177.0,63.0,3.8,7,5,7,1,2026-06-28T04:34:46.867791+05:30
Surat,Gujarat,21.1702,72.8311,29.1,80,0.0,1001.6,7.6,41.8,84,34.5,19.2,19.5,288.0,32.0,31.6,7,5,4,1,2026-06-28T04:34:46.867823+05:30
Vadodara,Gujarat,22.3072,73.1812,30.6,67,0.0,998.9,8.0,45.0,77,25.9,17.5,13.6,148.0,32.0,10.4,3,5,7,1,2026-06-28T04:34:46.867834+05:30
Rajkot,Gujarat,22.3039,70.8022,27.8,77,0.0,989.3,7.55,40.0,69,44.5,19.3,7.7,100.0,42.0,7.2,7,5,7,1,2026-06-28T04:34:46.867843+05:30
Thane,Maharashtra,19.2183,72.9781,26.0,93,0.0,1003.3,7.7,33.1,60,25.3,14.3,14.0,163.0,37.0,9.6,7,5,4,1,2026-06-28T04:34:46.867851+05:30
Nagpur,Maharashtra,21.1458,79.0882,26.4,95,0.0,968.4,8.85,35.6,95,34.5,27.9,20.6,277.0,32.0,6.5,7,5,7,1,2026-06-28T04:34:46.867858+05:30
Nashik,Maharashtra,19.9975,73.7898,23.5,93,0.0,941.1,7.55,36.4,55,23.9,13.8,9.3,115.0,35.0,7.1,3,5,7,1,2026-06-28T04:34:46.867866+05:30
Aurangabad,Maharashtra,19.8762,75.3433,25.1,84,0.0,939.5,7.65,33.5,68,21.7,14.6,11.9,147.0,43.0,6.2,7,5,7,1,2026-06-28T04:34:46.867874+05:30
Solapur,Maharashtra,17.6599,75.9064,25.1,90,0.0,953.4,7.65,31.3,57,7.8,6.3,8.7,185.0,33.0,2.5,7,5,7,1,2026-06-28T04:34:46.867882+05:30
Kolhapur,Maharashtra,16.705,74.2433,23.5,90,0.0,944.2,6.75,40.3,33,7.7,6.5,7.1,119.0,33.0,2.6,3,5,7,1,2026-06-28T04:34:46.867889+05:30
Goa,Goa,15.2993,74.124,23.8,99,0.1,995.3,3.3,32.4,40,12.6,8.0,2.3,184.0,46.0,0.6,6,5,3,1,2026-06-28T04:34:46.867897+05:30
Jodhpur,Rajasthan,26.2389,73.0243,31.2,53,0.0,976.8,8.45,38.5,109,191.9,48.0,5.8,133.0,46.0,2.5,0,5,7,1,2026-06-28T04:34:46.867904+05:30
Udaipur,Rajasthan,24.5854,73.7125,25.8,76,0.0,941.2,8.7,32.4,66,40.5,21.2,10.3,133.0,41.0,2.2,7,5,7,1,2026-06-28T04:34:46.867911+05:30
Kota,Rajasthan,25.2138,75.8648,28.8,75,0.0,973.0,6.25,30.2,75,33.6,20.6,9.1,196.0,47.0,3.4,7,5,7,1,2026-06-28T04:34:46.867919+05:30
Bikaner,Rajasthan,28.0229,73.3119,32.5,49,0.0,975.3,8.45,32.4,96,114.8,40.6,2.7,118.0,55.0,2.8,0,5,7,1,2026-06-28T04:34:46.867927+05:30
Ajmer,Rajasthan,26.4499,74.6399,28.4,64,0.0,949.3,8.35,42.1,82,41.0,23.7,6.7,139.0,56.0,3.3,7,5,7,1,2026-06-28T04:34:46.867934+05:30
Gwalior,Madhya Pradesh,26.2183,78.1828,30.0,65,0.0,977.1,7.5,40.3,85,24.6,19.6,9.3,151.0,52.0,6.5,7,5,7,1,2026-06-28T04:34:46.867941+05:30
Indore,Madhya Pradesh,22.7196,75.8577,25.2,87,0.0,943.2,3.25,40.0,86,36.3,28.4,12.8,268.0,51.0,5.2,7,5,3,1,2026-06-28T04:34:46.867948+05:30
Bhopal,Madhya Pradesh,23.2599,77.4126,25.4,90,0.0,948.6,3.3,23.0,90,36.2,31.1,12.0,358.0,43.0,2.8,7,5,3,1,2026-06-28T04:34:46.867956+05:30
Jabalpur,Madhya Pradesh,23.1815,79.9864,26.6,88,0.0,956.8,8.8,30.6,69,33.9,28.4,10.3,270.0,59.0,3.4,7,5,7,1,2026-06-28T04:34:46.867963+05:30
Ujjain,Madhya Pradesh,23.1765,75.7885,25.5,85,0.0,948.9,7.0,33.8,83,36.4,27.0,8.8,257.0,56.0,3.6,7,5,7,1,2026-06-28T04:34:46.867970+05:30
Visakhapatnam,Andhra Pradesh,17.6868,83.2185,26.8,94,0.0,998.3,8.4,36.7,85,21.1,18.2,25.8,330.0,56.0,34.8,7,5,7,1,2026-06-28T04:34:46.867977+05:30
Vijayawada,Andhra Pradesh,16.5062,80.648,25.8,96,0.1,998.2,7.95,45.0,90,21.1,17.8,8.2,214.0,68.0,2.8,10,5,7,1,2026-06-28T04:34:46.867985+05:30
Guntur,Andhra Pradesh,16.3067,80.4365,25.8,95,0.0,999.5,7.75,40.3,85,20.5,17.4,8.6,199.0,64.0,2.8,7,5,7,1,2026-06-28T04:34:46.867993+05:30
Nellore,Andhra Pradesh,14.4426,79.9865,25.6,95,0.1,1002.1,8.1,36.4,66,26.4,19.8,9.8,143.0,55.0,5.4,10,5,4,1,2026-06-28T04:34:46.868001+05:30
Kurnool,Andhra Pradesh,15.8281,78.0373,24.5,95,0.1,973.7,7.6,37.1,62,7.7,6.0,10.3,176.0,34.0,3.3,6,5,7,1,2026-06-28T04:34:46.868009+05:30
Kakinada,Andhra Pradesh,16.9891,82.2475,25.5,97,0.1,1003.5,5.85,33.8,69,22.6,16.5,4.7,183.0,89.0,3.4,10,5,0,1,2026-06-28T04:34:46.868016+05:30
Tirupati,Andhra Pradesh,13.6288,79.4192,25.1,92,0.0,987.5,7.6,42.5,58,15.8,12.3,18.1,172.0,21.0,1.9,7,5,7,1,2026-06-28T04:34:46.868023+05:30
Warangal,Telangana,17.9689,79.5941,25.5,95,0.0,974.3,6.6,33.8,90,28.6,21.0,8.9,213.0,68.0,3.4,7,5,7,1,2026-06-28T04:34:46.868031+05:30
Nizamabad,Telangana,18.6725,78.0941,25.2,89,0.0,960.6,4.3,33.5,107,49.1,33.1,13.7,197.0,46.0,5.7,7,5,3,1,2026-06-28T04:34:46.868038+05:30
Mysore,Karnataka,12.2958,76.6396,21.2,96,0.0,926.1,7.45,48.6,34,12.9,8.6,7.6,122.0,34.0,2.2,3,5,7,1,2026-06-28T04:34:46.868045+05:30
Mangalore,Karnataka,12.9141,74.856,24.6,96,0.3,1005.3,1.2,42.8,46,11.8,6.4,2.2,123.0,42.0,0.9,6,5,0,1,2026-06-28T04:34:46.868053+05:30
Hubli-Dharwad,Karnataka,15.3647,75.124,22.4,96,0.0,937.5,6.3,44.3,20,1.5,1.2,2.3,106.0,42.0,0.9,3,5,7,1,2026-06-28T04:34:46.868060+05:30
Belgaum,Karnataka,15.8497,74.4977,22.4,93,0.0,922.4,7.45,40.3,21,3.2,2.5,3.3,110.0,42.0,1.4,3,5,7,1,2026-06-28T04:34:50.223131+05:30
Coimbatore,Tamil Nadu,11.0168,76.9558,22.7,95,0.0,959.6,8.7,50.0,36,15.3,9.0,6.0,128.0,34.0,3.0,3,5,7,1,2026-06-28T04:34:50.223162+05:30
Madurai,Tamil Nadu,9.9252,78.1198,27.8,67,0.0,990.4,8.25,50.8,66,27.8,25.0,39.4,136.0,0.0,5.3,7,5,7,1,2026-06-28T04:34:50.223173+05:30
Trichy,Tamil Nadu,10.7905,78.7047,27.4,76,0.0,997.1,8.25,51.5,50,14.9,9.7,8.7,111.0,32.0,3.3,7,5,7,1,2026-06-28T04:34:50.223182+05:30
Salem,Tamil Nadu,11.6643,78.146,24.4,94,0.0,975.2,8.8,31.7,57,22.2,17.8,23.1,230.0,19.0,6.6,3,5,7,1,2026-06-28T04:34:50.223191+05:30
Tirunelveli,Tamil Nadu,8.7139,77.7567,27.7,71,0.0,1000.8,8.55,46.8,43,14.9,10.5,8.5,122.0,29.0,2.6,7,5,4,1,2026-06-28T04:34:50.223199+05:30
Vellore,Tamil Nadu,12.9165,79.1325,24.6,95,0.0,981.3,8.8,37.4,57,20.8,16.9,22.4,207.0,18.0,3.5,3,5,7,1,2026-06-28T04:34:50.223206+05:30
Erode,Tamil Nadu,11.341,77.7172,25.0,87,0.0,987.0,8.6,41.8,53,19.3,13.8,14.0,131.0,26.0,3.6,7,5,7,1,2026-06-28T04:34:50.223213+05:30
Kochi,Kerala,9.9312,76.2673,24.0,99,0.2,1008.0,8.55,43.2,55,15.1,9.8,12.0,128.0,23.0,3.4,6,0,4,1,2026-06-28T04:34:50.223221+05:30
Thiruvananthapuram,Kerala,8.5241,76.9366,23.8,97,0.0,1007.2,7.5,52.9,45,18.3,9.2,2.6,113.0,48.0,1.3,3,5,4,1,2026-06-28T04:34:50.223228+05:30
Kozhikode,Kerala,11.2588,75.7804,23.1,99,0.2,1007.0,8.55,41.4,38,15.5,7.0,0.7,118.0,52.0,0.6,6,5,4,1,2026-06-28T04:34:50.223236+05:30
Thrissur,Kerala,10.5276,76.2144,23.5,99,0.1,1006.3,8.55,41.4,57,17.2,10.5,9.4,124.0,27.0,2.7,6,5,4,1,2026-06-28T04:34:50.223244+05:30
Kannur,Kerala,11.8745,75.3704,24.0,99,0.1,1005.9,8.6,40.3,46,13.2,7.3,3.0,113.0,40.0,0.9,6,5,4,1,2026-06-28T04:34:50.223251+05:30
Patna,Bihar,25.5941,85.1376,27.1,98,0.1,995.4,8.45,28.4,155,85.7,77.8,18.4,320.0,72.0,10.0,10,5,7,1,2026-06-28T04:34:50.223258+05:30
Gaya,Bihar,24.7914,85.0002,27.0,93,0.2,990.0,8.65,27.7,131,41.8,39.3,11.9,276.0,79.0,7.4,10,5,7,1,2026-06-28T04:34:50.223266+05:30
Muzaffarpur,Bihar,26.1209,85.3647,26.5,95,0.0,995.5,8.85,27.4,158,87.5,77.5,13.6,370.0,93.0,8.6,7,5,7,1,2026-06-28T04:34:50.223274+05:30
Bhagalpur,Bihar,25.2425,87.0117,26.9,96,0.0,996.4,7.75,32.8,129,48.3,44.2,13.5,370.0,76.0,20.8,7,5,7,1,2026-06-28T04:34:50.223280+05:30
Ranchi,Jharkhand,23.3441,85.3096,24.5,91,0.0,933.3,9.0,28.8,124,54.4,51.7,10.6,326.0,79.0,16.1,3,5,7,1,2026-06-28T04:34:50.223288+05:30
Jamshedpur,Jharkhand,22.8046,86.2029,27.1,90,0.0,986.2,5.55,27.7,129,50.9,48.1,26.1,359.0,33.0,21.8,7,5,3,1,2026-06-28T04:34:50.223295+05:30
Dhanbad,Jharkhand,23.7957,86.4304,27.6,91,0.0,975.0,9.1,35.3,157,92.9,88.9,56.9,1404.0,10.0,188.3,7,5,7,1,2026-06-28T04:34:50.223302+05:30
Bokaro,Jharkhand,23.6693,86.1511,28.0,84,0.0,978.7,9.1,36.7,160,90.1,85.7,35.0,486.0,50.0,147.7,7,5,7,1,2026-06-28T04:34:50.223309+05:30
Bhubaneswar,Odisha,20.2961,85.8245,27.5,93,0.0,997.7,8.75,39.2,70,25.1,20.5,9.0,239.0,56.0,2.9,7,5,7,1,2026-06-28T04:34:50.223316+05:30
Cuttack,Odisha,20.4625,85.8828,27.8,93,0.0,999.5,8.65,33.5,70,25.1,20.5,9.0,253.0,56.0,2.9,7,5,7,1,2026-06-28T04:34:50.223323+05:30
Rourkela,Odisha,22.2604,84.8536,27.8,87,0.0,980.3,9.0,44.3,116,43.0,39.8,14.0,314.0,65.0,20.8,7,5,7,1,2026-06-28T04:34:50.223330+05:30
Raipur,Chhattisgarh,21.2514,81.6296,27.8,84,0.0,969.7,8.95,26.3,104,44.9,41.9,33.2,576.0,44.0,55.5,7,5,7,1,2026-06-28T04:34:50.223336+05:30
Bhilai,Chhattisgarh,21.1938,81.3509,27.6,83,0.0,970.2,8.95,35.6,106,44.2,41.6,30.7,694.0,45.0,48.2,7,5,7,1,2026-06-28T04:34:50.223343+05:30
Guwahati,Assam,26.1158,91.7086,26.0,91,0.0,997.0,7.8,34.9,80,23.5,21.7,6.7,297.0,65.0,2.3,7,5,7,1,2026-06-28T04:34:50.223349+05:30
Agartala,Tripura,23.8315,91.2868,26.4,90,0.0,1002.8,8.05,38.2,57,14.3,12.5,9.3,154.0,38.0,2.2,7,5,4,1,2026-06-28T04:34:50.223356+05:30
Shillong,Meghalaya,25.5788,91.8933,19.8,97,0.0,854.1,8.0,37.8,54,2.9,2.7,5.1,156.0,49.0,1.5,3,10,7,1,2026-06-28T04:34:50.223363+05:30
Imphal,Manipur,24.817,93.9368,23.0,96,0.0,920.1,9.25,32.0,57,11.8,11.2,6.3,263.0,41.0,2.0,3,5,7,1,2026-06-28T04:34:50.223370+05:30
Aizawl,Mizoram,23.7271,92.7176,20.2,92,0.0,889.9,8.2,35.6,32,4.5,3.7,2.2,119.0,36.0,0.5,3,5,7,1,2026-06-28T04:34:50.223376+05:30
Kohima,Nagaland,25.6701,94.1077,20.1,92,0.1,852.4,7.4,25.6,47,10.0,8.5,3.8,229.0,49.0,1.2,6,5,7,1,2026-06-28T04:34:50.223383+05:30
Gangtok,Sikkim,27.3314,88.6138,18.7,96,0.3,834.8,6.7,31.0,76,10.5,9.2,4.3,327.0,130.0,2.7,6,10,7,1,2026-06-28T04:34:50.223389+05:30
Siliguri,West Bengal,26.7271,88.3953,24.7,99,0.2,988.7,8.8,19.8,90,30.3,25.3,7.1,368.0,120.0,3.1,6,5,7,1,2026-06-28T04:34:53.594612+05:30
Durgapur,West Bengal,23.5204,87.3119,27.2,94,0.0,990.2,9.05,28.8,127,49.4,48.1,32.8,557.0,29.0,39.8,7,5,7,1,2026-06-28T04:34:53.594645+05:30
Asansol,West Bengal,23.6739,86.9524,27.4,92,0.0,988.7,8.85,37.4,129,50.3,48.0,33.5,397.0,21.0,40.2,7,5,7,1,2026-06-28T04:34:53.594656+05:30
Pondicherry,Puducherry,11.9139,79.8145,26.7,84,0.0,1005.4,8.4,41.4,65,20.9,16.4,14.2,335.0,49.0,10.4,7,5,4,1,2026-06-28T04:34:53.594665+05:30
Port Blair,Andaman and Nicobar Islands,11.6234,92.7265,25.2,94,0.1,1005.4,2.25,41.8,18,9.4,5.6,0.3,89.0,41.0,0.2,10,5,0,1,2026-06-28T04:34:53.594673+05:30
Haridwar,Uttarakhand,29.9457,78.1642,27.9,73,0.0,967.7,7.05,27.7,147,85.0,66.4,35.4,335.0,19.0,5.8,7,5,7,1,2026-06-28T04:34:53.594682+05:30
Rishikesh,Uttarakhand,30.0869,78.2676,26.0,81,0.0,960.8,6.55,31.3,114,98.0,52.2,14.7,360.0,77.0,4.8,7,5,7,1,2026-06-28T04:34:53.594690+05:30
Nainital,Uttarakhand,29.3919,79.4542,15.5,94,0.0,802.5,6.75,28.4,124,94.3,52.0,15.4,312.0,74.0,5.5,3,10,7,0,2026-06-28T04:34:53.594698+05:30
Mussoorie,Uttarakhand,30.4599,78.0664,15.3,95,0.1,799.8,5.7,40.7,116,60.1,44.2,35.4,264.0,14.0,4.0,6,10,3,0,2026-06-28T04:34:53.594707+05:30
Dharamshala,Himachal Pradesh,32.219,76.3234,20.9,87,0.2,864.9,7.9,31.0,59,20.2,15.4,11.5,246.0,61.0,0.0,6,5,7,1,2026-06-28T04:34:53.594715+05:30
Dalhousie,Himachal Pradesh,32.5387,75.971,15.2,94,0.0,800.2,7.1,33.1,108,36.0,28.2,14.3,336.0,59.0,0.7,3,10,7,0,2026-06-28T04:34:53.594723+05:30
Patiala,Punjab,30.3398,76.3869,30.6,67,0.0,971.5,7.65,33.5,166,177.0,109.2,49.3,827.0,18.0,8.5,3,5,7,1,2026-06-28T04:34:53.594730+05:30
Bhatinda,Punjab,30.211,74.9455,30.7,73,0.0,976.4,8.05,27.0,156,110.8,88.5,63.7,639.0,14.0,8.7,3,5,7,1,2026-06-28T04:34:53.594737+05:30
Rohtak,Haryana,28.8955,76.6066,29.9,69,0.0,974.5,7.1,28.8,174,260.8,115.5,70.2,790.0,0.0,14.0,7,5,7,1,2026-06-28T04:34:53.594743+05:30
Panipat,Haryana,29.3909,76.9635,30.0,69,0.0,973.5,6.8,28.8,443,277.5,136.4,73.4,951.0,0.0,14.1,7,5,7,1,2026-06-28T04:34:53.594751+05:30
Mathura,Uttar Pradesh,27.4924,77.6737,30.8,59,0.0,980.3,7.4,31.0,153,213.3,51.6,27.4,279.0,30.0,3.7,0,5,7,1,2026-06-28T04:34:53.594758+05:30
Vrindavan,Uttar Pradesh,27.5823,77.7027,30.6,61,0.0,980.6,7.4,28.4,153,213.3,51.6,27.4,334.0,30.0,3.7,3,5,7,1,2026-06-28T04:34:53.594765+05:30
Ayodhya,Uttar Pradesh,26.7922,82.1998,27.8,93,0.0,989.4,8.0,23.4,140,78.9,59.4,18.6,504.0,61.0,4.8,7,5,7,1,2026-06-28T04:34:53.594772+05:30
Ratlam,Madhya Pradesh,23.3315,75.0367,25.6,85,0.0,949.8,8.1,32.0,80,38.8,27.5,8.6,199.0,58.0,4.8,7,5,7,1,2026-06-28T04:34:53.594779+05:30
Sagar,Madhya Pradesh,23.8388,78.7378,26.0,86,0.0,945.3,8.1,24.1,69,33.4,25.9,9.2,273.0,61.0,2.2,7,5,7,1,2026-06-28T04:34:53.594786+05:30
Satna,Madhya Pradesh,24.6005,80.8322,28.9,75,0.0,966.0,6.35,25.9,72,29.3,24.5,11.1,196.0,58.0,1.9,7,5,7,1,2026-06-28T04:34:53.594793+05:30
Akola,Maharashtra,20.7002,77.0082,26.8,86,0.0,970.2,5.8,34.2,84,38.9,29.6,14.2,168.0,45.0,6.5,7,5,3,1,2026-06-28T04:34:53.594801+05:30
Amravati,Maharashtra,20.9374,77.7796,26.1,91,0.0,962.4,8.45,36.0,80,35.4,27.8,13.4,206.0,48.0,6.3,7,5,7,1,2026-06-28T04:34:53.594809+05:30
Latur,Maharashtra,18.4088,76.5604,24.3,91,0.0,935.4,6.9,28.8,89,48.7,29.9,12.0,165.0,42.0,3.1,3,5,7,1,2026-06-28T04:34:53.594816+05:30
Nanded,Maharashtra,19.1383,77.3091,25.6,90,0.0,964.3,8.2,29.2,90,55.3,30.6,10.2,183.0,57.0,4.3,7,5,7,1,2026-06-28T04:34:53.594823+05:30
Gulbarga,Karnataka,17.3297,76.8343,24.2,93,0.1,955.0,8.6,40.0,64,9.7,7.7,10.9,152.0,37.0,2.5,6,5,7,1,2026-06-28T04:34:53.594830+05:30
Bidar,Karnataka,17.9104,77.5199,23.5,95,0.0,931.5,8.35,37.1,84,31.7,20.6,11.8,164.0,58.0,3.6,3,5,7,1,2026-06-28T04:34:53.594837+05:30
Hospet,Karnataka,15.2689,76.3909,24.1,86,0.0,952.9,7.85,46.4,27,5.2,3.9,5.7,111.0,35.0,1.5,3,5,7,1,2026-06-28T04:34:53.594843+05:30
Tirupur,Tamil Nadu,11.1085,77.3411,23.7,90,0.0,973.3,8.9,55.1,55,19.5,14.6,15.3,114.0,23.0,4.3,3,5,7,1,2026-06-28T04:34:53.594850+05:30
Alappuzha,Kerala,9.4981,76.3388,24.9,95,0.1,1008.0,8.5,44.6,54,19.3,10.1,6.8,85.0,41.0,2.4,6,0,4,1,2026-06-28T04:34:53.594856+05:30
Munnar,Kerala,10.0889,77.0595,16.4,98,0.0,854.4,7.95,41.0,31,12.9,7.7,5.8,91.0,24.0,1.3,3,10,7,1,2026-06-28T04:34:53.594864+05:30
Silchar,Assam,24.8333,92.7789,25.6,96,0.1,1002.0,8.5,32.4,65,19.0,16.5,8.6,211.0,43.0,3.6,10,5,4,1,2026-06-28T04:34:53.594870+05:30
Dibrugarh,Assam,27.4728,94.912,24.7,99,0.1,990.6,7.45,41.0,66,22.4,19.4,6.8,222.0,85.0,2.0,6,5,7,1,2026-06-28T04:34:53.594877+05:30
