city,state,latitude,longitude,temp,humidity,rain,pressure,uv_index,wind_gusts,aqi,pm10,pm2_5,no2,co,o3,so2,mosquito_risk,arthritis_risk,migraine_risk,frizz_risk,updated_at
Delhi,Delhi,28.6139,77.209,38.3,16,0.0,977.9,7.75,46.4,397,800.9,127.6,16.0,264.0,102.0,10.5,0,5,10,0,2026-05-23T19:11:58.957726+05:30
Mumbai,Maharashtra,19.076,72.8777,31.1,70,0.0,1008.1,7.8,32.8,47,11.4,8.7,9.8,237.0,63.0,5.5,3,0,4,1,2026-05-23T19:11:58.957771+05:30
Bangalore,Karnataka,12.9716,77.5946,24.0,84,0.0,912.8,6.3,34.6,47,23.3,16.1,15.3,889.0,87.0,4.3,3,5,7,1,2026-05-23T19:11:58.957787+05:30
Hyderabad,Telangana,17.385,78.4867,34.5,36,0.0,951.9,9.2,47.9,110,31.5,26.4,8.4,387.0,117.0,5.9,0,5,7,1,2026-05-23T19:11:58.957797+05:30
Chennai,Tamil Nadu,13.0827,80.2707,34.0,53,0.0,1004.6,3.2,45.7,120,34.9,25.7,11.8,329.0,120.0,7.1,0,5,0,1,2026-05-23T19:11:58.957805+05:30
Kolkata,West Bengal,22.5726,88.3639,30.3,83,0.1,1001.1,8.95,44.6,101,42.7,29.7,5.6,342.0,78.0,5.9,6,5,4,1,2026-05-23T19:11:58.957813+05:30
Pune,Maharashtra,18.5204,73.8567,28.1,74,0.0,948.7,8.4,38.9,46,14.1,11.7,8.1,206.0,87.0,6.3,7,5,7,1,2026-05-23T19:11:58.957824+05:30
Ahmedabad,Gujarat,23.0225,72.5714,40.7,21,0.0,998.5,8.15,33.1,74,42.1,21.6,5.4,194.0,87.0,2.8,0,5,10,0,2026-05-23T19:11:58.957831+05:30
Jaipur,Rajasthan,26.9124,75.7873,38.8,15,0.0,956.5,8.25,51.8,183,306.4,69.4,5.8,177.0,97.0,4.0,0,5,10,0,2026-05-23T19:11:58.957840+05:30
Lucknow,Uttar Pradesh,26.8467,80.9462,37.4,22,0.0,987.7,8.2,56.9,163,309.2,73.1,8.4,223.0,120.0,8.4,0,5,10,0,2026-05-23T19:11:58.957846+05:30
Kanpur,Uttar Pradesh,26.4499,80.3319,38.3,18,0.0,985.9,8.25,52.9,362,722.7,122.9,6.9,224.0,124.0,8.7,0,5,10,0,2026-05-23T19:11:58.957852+05:30
Chandigarh,Chandigarh,30.7333,76.7794,34.4,21,0.0,964.8,7.75,37.8,119,48.8,23.3,8.1,311.0,126.0,6.9,0,5,7,0,2026-05-23T19:11:58.957858+05:30
Srinagar,Jammu and Kashmir,34.0837,74.7973,18.8,58,0.0,843.4,8.85,27.7,80,20.1,10.6,8.5,601.0,102.0,2.0,0,5,7,0,2026-05-23T19:11:58.957865+05:30
Jammu,Jammu and Kashmir,32.7266,74.857,30.8,36,0.0,969.9,8.5,49.0,95,65.2,25.4,11.0,222.0,113.0,3.0,0,5,7,0,2026-05-23T19:11:58.957871+05:30
Amritsar,Punjab,31.634,74.8723,33.9,33,0.0,977.0,8.4,30.2,143,49.5,24.4,7.1,280.0,136.0,7.5,0,5,7,0,2026-05-23T19:11:58.957877+05:30
Ludhiana,Punjab,30.901,75.8573,36.0,20,0.0,974.8,8.0,37.8,108,70.1,27.6,5.4,279.0,124.0,5.3,0,5,10,0,2026-05-23T19:11:58.957883+05:30
Jalandhar,Punjab,31.326,75.5762,35.5,20,0.0,975.8,8.15,35.3,117,81.7,29.8,6.2,339.0,131.0,5.8,0,5,10,0,2026-05-23T19:11:58.957889+05:30
Dehradun,Uttarakhand,30.6284,78.0322,20.7,47,0.0,828.6,8.15,47.5,86,41.2,13.9,7.3,184.0,119.0,2.0,0,5,7,0,2026-05-23T19:11:58.957895+05:30
Shimla,Himachal Pradesh,31.1048,77.1734,18.0,33,0.0,784.4,8.25,46.4,93,47.6,16.9,4.3,176.0,125.0,2.9,0,5,7,0,2026-05-23T19:11:58.957903+05:30
Manali,Himachal Pradesh,32.2396,77.1887,17.8,53,0.0,818.1,9.85,47.5,96,43.5,11.3,15.1,153.0,124.0,0.5,0,5,7,0,2026-05-23T19:11:58.957909+05:30
Gurgaon,Haryana,28.4595,77.0266,37.0,19,0.0,976.6,7.85,47.5,885,1531.1,214.2,16.9,383.0,97.0,8.9,0,5,10,0,2026-05-23T19:11:58.957915+05:30
Noida,Uttar Pradesh,28.5355,77.391,37.5,17,0.0,979.4,7.75,44.6,885,1531.1,214.2,16.9,321.0,97.0,8.9,0,5,10,0,2026-05-23T19:11:58.957921+05:30
Ghaziabad,Uttar Pradesh,28.6692,77.4538,36.7,19,0.0,977.5,7.75,58.0,175,599.8,102.4,10.1,227.0,114.0,11.3,0,5,10,0,2026-05-23T19:11:58.957927+05:30
Faridabad,Haryana,28.4089,77.3178,38.3,15,0.0,978.9,7.8,50.0,885,1531.1,214.2,16.9,294.0,97.0,8.9,0,5,10,0,2026-05-23T19:11:58.957933+05:30
Meerut,Uttar Pradesh,28.9845,77.7064,36.0,22,0.0,976.3,7.65,59.8,175,599.8,102.4,10.1,207.0,114.0,11.3,0,5,10,0,2026-05-23T19:11:58.957938+05:30
Agra,Uttar Pradesh,27.1767,78.0081,37.2,24,0.0,982.5,8.1,42.1,602,1277.8,176.5,10.1,210.0,93.0,4.9,0,5,10,0,2026-05-23T19:11:58.957947+05:30
Varanasi,Uttar Pradesh,25.3176,82.9739,38.5,19,0.0,990.8,8.75,49.0,156,176.5,63.3,13.2,274.0,113.0,9.7,0,5,10,0,2026-05-23T19:11:58.957954+05:30
Prayagraj,Uttar Pradesh,25.4358,81.8463,39.0,18,0.0,989.8,8.65,42.8,152,124.3,46.4,7.7,261.0,116.0,7.9,0,5,10,0,2026-05-23T19:11:58.957960+05:30
Gorakhpur,Uttar Pradesh,26.7606,83.3732,34.9,38,0.0,990.3,8.65,42.5,172,85.4,42.3,7.1,235.0,122.0,7.6,0,5,7,1,2026-05-23T19:11:58.957969+05:30
Bareilly,Uttar Pradesh,28.367,79.4304,34.0,32,0.0,981.0,8.05,57.2,150,65.0,32.5,7.2,235.0,128.0,8.6,0,5,7,0,2026-05-23T19:11:58.957975+05:30
Aligarh,Uttar Pradesh,27.8974,78.088,36.3,25,0.0,980.1,7.85,51.1,543,979.8,156.9,10.4,282.0,105.0,7.4,0,5,10,0,2026-05-23T19:11:58.957981+05:30
Moradabad,Uttar Pradesh,28.8386,78.7733,34.5,29,0.0,977.7,7.85,65.9,132,190.9,56.3,10.9,274.0,109.0,7.5,0,5,7,0,2026-05-23T19:11:58.957987+05:30
Saharanpur,Uttar Pradesh,29.9637,77.546,34.6,24,0.0,970.6,7.45,59.8,116,72.4,28.5,9.1,250.0,116.0,8.1,0,5,7,0,2026-05-23T19:11:58.957993+05:30
Jhansi,Uttar Pradesh,25.4484,78.5685,38.2,18,0.0,973.1,8.5,46.8,81,68.5,31.3,3.5,153.0,94.0,3.6,0,5,10,0,2026-05-23T19:12:02.207052+05:30
Surat,Gujarat,21.1702,72.8311,31.6,68,0.0,1005.3,7.65,39.2,60,17.6,14.6,20.2,309.0,35.0,42.2,3,5,4,1,2026-05-23T19:12:02.207087+05:30
Vadodara,Gujarat,22.3072,73.1812,37.2,40,0.0,1001.3,8.1,41.8,63,32.4,20.4,5.8,183.0,96.0,6.7,0,5,7,1,2026-05-23T19:12:02.207098+05:30
Rajkot,Gujarat,22.3039,70.8022,34.3,55,0.0,992.3,7.55,41.0,67,37.7,23.3,2.8,130.0,98.0,6.2,0,5,7,1,2026-05-23T19:12:02.207106+05:30
Thane,Maharashtra,19.2183,72.9781,31.1,69,0.0,1007.4,7.65,29.9,47,11.4,8.7,9.8,217.0,63.0,5.5,3,5,4,1,2026-05-23T19:12:02.207114+05:30
Nagpur,Maharashtra,21.1458,79.0882,39.8,17,0.0,969.5,8.95,56.9,84,40.3,20.5,7.0,178.0,100.0,10.4,0,5,10,0,2026-05-23T19:12:02.207121+05:30
Nashik,Maharashtra,19.9975,73.7898,30.1,60,0.0,945.4,8.1,43.9,47,10.7,7.3,2.7,145.0,72.0,0.9,0,5,7,1,2026-05-23T19:12:02.207128+05:30
Aurangabad,Maharashtra,19.8762,75.3433,32.0,48,0.0,943.6,9.05,44.3,58,32.0,21.5,3.5,169.0,99.0,3.2,0,5,7,1,2026-05-23T19:12:02.207135+05:30
Solapur,Maharashtra,17.6599,75.9064,31.8,55,0.0,957.1,9.0,42.5,66,25.5,19.6,3.8,182.0,112.0,3.3,0,5,7,1,2026-05-23T19:12:02.207142+05:30
Kolhapur,Maharashtra,16.705,74.2433,26.0,85,0.0,948.9,8.85,35.6,43,11.2,9.3,8.5,164.0,67.0,2.4,7,5,7,1,2026-05-23T19:12:02.207150+05:30
Goa,Goa,15.2993,74.124,26.3,96,0.0,999.5,5.2,27.0,32,10.6,7.3,2.8,194.0,51.0,0.9,7,5,3,1,2026-05-23T19:12:02.207158+05:30
Jodhpur,Rajasthan,26.2389,73.0243,39.8,13,0.0,979.3,8.4,43.2,170,306.4,68.2,3.6,146.0,94.0,3.2,0,5,10,0,2026-05-23T19:12:02.207165+05:30
Udaipur,Rajasthan,24.5854,73.7125,35.9,17,0.0,945.1,8.85,39.2,94,102.0,33.1,1.6,146.0,94.0,2.2,0,5,10,0,2026-05-23T19:12:02.207173+05:30
Kota,Rajasthan,25.2138,75.8648,39.2,16,0.0,975.3,8.4,50.0,90,94.3,36.2,4.3,166.0,97.0,3.6,0,5,10,0,2026-05-23T19:12:02.207181+05:30
Bikaner,Rajasthan,28.0229,73.3119,40.8,10,0.0,977.0,8.4,45.7,131,75.9,25.7,1.2,144.0,106.0,2.0,0,5,10,0,2026-05-23T19:12:02.207188+05:30
Ajmer,Rajasthan,26.4499,74.6399,36.7,19,0.0,951.9,8.4,51.8,116,157.4,47.5,2.4,164.0,103.0,3.3,0,5,10,0,2026-05-23T19:12:02.207194+05:30
Gwalior,Madhya Pradesh,26.2183,78.1828,38.8,17,0.0,978.1,8.25,47.5,91,90.3,37.3,3.5,164.0,98.0,2.7,0,5,10,0,2026-05-23T19:12:02.207202+05:30
Indore,Madhya Pradesh,22.7196,75.8577,36.5,18,0.0,946.4,8.7,54.0,67,47.0,20.9,2.6,197.0,103.0,2.5,0,5,10,0,2026-05-23T19:12:02.207209+05:30
Bhopal,Madhya Pradesh,23.2599,77.4126,37.7,16,0.0,950.7,8.75,44.6,67,61.7,26.5,2.9,200.0,102.0,3.2,0,5,10,0,2026-05-23T19:12:02.207216+05:30
Jabalpur,Madhya Pradesh,23.1815,79.9864,37.7,14,0.0,957.5,8.9,43.9,70,47.7,21.2,4.5,154.0,105.0,2.9,0,5,10,0,2026-05-23T19:12:02.207223+05:30
Ujjain,Madhya Pradesh,23.1765,75.7885,36.7,19,0.0,951.7,8.65,50.0,68,61.7,25.4,1.6,158.0,101.0,2.4,0,5,10,0,2026-05-23T19:12:02.207231+05:30
Visakhapatnam,Andhra Pradesh,17.6868,83.2185,32.8,71,0.0,998.1,9.05,32.0,212,56.6,48.9,29.0,727.0,145.0,47.3,3,5,7,1,2026-05-23T19:12:02.207238+05:30
Vijayawada,Andhra Pradesh,16.5062,80.648,37.6,35,0.0,997.4,8.9,44.6,143,47.0,42.7,14.9,289.0,125.0,10.9,0,5,10,1,2026-05-23T19:12:02.207246+05:30
Guntur,Andhra Pradesh,16.3067,80.4365,37.0,38,0.0,998.9,8.9,44.6,136,42.0,37.1,9.7,237.0,132.0,10.5,0,5,10,1,2026-05-23T19:12:02.207252+05:30
Nellore,Andhra Pradesh,14.4426,79.9865,34.5,49,0.0,1002.9,8.95,54.0,85,29.2,23.5,6.5,236.0,123.0,5.3,0,5,4,1,2026-05-23T19:12:02.207261+05:30
Kurnool,Andhra Pradesh,15.8281,78.0373,26.9,89,0.1,976.6,9.05,55.8,77,22.1,17.7,5.5,211.0,122.0,9.5,10,5,7,1,2026-05-23T19:12:02.207269+05:30
Kakinada,Andhra Pradesh,16.9891,82.2475,36.5,51,0.0,1001.5,9.05,47.2,164,39.0,30.9,5.0,394.0,150.0,3.9,0,5,7,1,2026-05-23T19:12:02.207276+05:30
Tirupati,Andhra Pradesh,13.6288,79.4192,31.4,59,0.0,989.2,6.65,42.1,72,31.0,26.5,10.9,353.0,96.0,4.0,0,5,7,1,2026-05-23T19:12:02.207283+05:30
Warangal,Telangana,17.9689,79.5941,37.1,26,0.0,974.8,9.1,49.7,142,35.7,31.8,8.8,275.0,132.0,10.0,0,5,10,0,2026-05-23T19:12:02.207289+05:30
Nizamabad,Telangana,18.6725,78.0941,36.3,29,0.0,962.8,9.1,47.2,86,27.9,20.3,3.9,215.0,110.0,4.4,0,5,10,0,2026-05-23T19:12:02.207296+05:30
Mysore,Karnataka,12.2958,76.6396,23.0,94,0.0,930.2,8.7,40.7,44,12.7,10.5,12.0,196.0,81.0,2.2,3,5,7,1,2026-05-23T19:12:02.207304+05:30
Mangalore,Karnataka,12.9141,74.856,25.2,98,0.3,1009.7,7.6,28.4,36,14.9,10.5,5.3,165.0,52.0,1.7,10,0,4,1,2026-05-23T19:12:02.207311+05:30
Hubli-Dharwad,Karnataka,15.3647,75.124,24.2,91,0.1,942.3,9.0,51.8,38,5.8,4.6,4.9,166.0,61.0,0.8,6,5,7,1,2026-05-23T19:12:02.207318+05:30
Belgaum,Karnataka,15.8497,74.4977,24.3,89,0.0,927.0,9.0,37.8,37,10.0,7.5,6.6,155.0,63.0,1.8,3,5,7,1,2026-05-23T19:12:05.454691+05:30
Coimbatore,Tamil Nadu,11.0168,76.9558,27.0,79,0.1,963.5,8.8,49.3,40,10.9,8.8,5.8,199.0,72.0,2.1,10,5,7,1,2026-05-23T19:12:05.454726+05:30
Madurai,Tamil Nadu,9.9252,78.1198,29.3,63,0.0,993.6,8.2,30.6,62,24.3,13.2,6.7,361.0,97.0,2.6,7,5,7,1,2026-05-23T19:12:05.454737+05:30
Trichy,Tamil Nadu,10.7905,78.7047,31.0,59,0.0,999.0,8.3,46.1,48,33.9,24.4,23.8,191.0,75.0,4.9,0,5,7,1,2026-05-23T19:12:05.454746+05:30
Salem,Tamil Nadu,11.6643,78.146,29.4,60,0.0,977.8,8.3,38.5,78,23.3,14.0,8.0,238.0,102.0,5.8,4,5,7,1,2026-05-23T19:12:05.454753+05:30
Tirunelveli,Tamil Nadu,8.7139,77.7567,30.8,61,0.0,1003.2,8.25,39.2,39,9.8,7.5,3.8,154.0,72.0,1.3,3,5,4,1,2026-05-23T19:12:05.454760+05:30
Vellore,Tamil Nadu,12.9165,79.1325,30.6,57,0.0,982.8,8.1,42.8,76,36.3,28.8,16.8,211.0,85.0,4.9,0,5,7,1,2026-05-23T19:12:05.454768+05:30
Erode,Tamil Nadu,11.341,77.7172,27.9,78,0.0,989.8,8.55,42.8,50,14.3,10.6,8.9,235.0,90.0,2.3,7,5,7,1,2026-05-23T19:12:05.454775+05:30
Kochi,Kerala,9.9312,76.2673,26.5,89,0.0,1011.1,8.05,37.4,58,17.3,12.8,10.1,161.0,58.0,3.4,7,0,4,1,2026-05-23T19:12:05.454782+05:30
Thiruvananthapuram,Kerala,8.5241,76.9366,26.0,92,0.1,1010.0,8.15,43.2,38,18.3,10.5,2.5,124.0,59.0,0.8,10,0,4,1,2026-05-23T19:12:05.454790+05:30
Kozhikode,Kerala,11.2588,75.7804,25.4,99,0.0,1010.3,8.45,25.9,33,13.0,8.1,1.3,195.0,68.0,0.6,7,0,4,1,2026-05-23T19:12:05.454797+05:30
Thrissur,Kerala,10.5276,76.2144,25.0,98,0.0,1009.5,8.6,29.2,58,14.0,10.8,9.0,199.0,55.0,2.4,7,0,4,1,2026-05-23T19:12:05.454805+05:30
Kannur,Kerala,11.8745,75.3704,25.2,99,0.1,1009.8,7.85,24.5,36,13.8,10.0,7.0,157.0,51.0,1.3,10,0,4,1,2026-05-23T19:12:05.454811+05:30
Patna,Bihar,25.5941,85.1376,35.0,56,0.0,993.3,8.85,36.0,188,177.9,84.1,31.7,439.0,115.0,17.5,0,5,7,1,2026-05-23T19:12:05.454818+05:30
Gaya,Bihar,24.7914,85.0002,35.7,33,0.0,987.2,8.9,36.0,158,205.4,71.5,17.8,312.0,107.0,10.3,0,5,10,1,2026-05-23T19:12:05.454826+05:30
Muzaffarpur,Bihar,26.1209,85.3647,32.5,78,0.0,993.1,8.85,21.6,201,137.4,86.1,23.4,482.0,139.0,17.9,3,5,7,1,2026-05-23T19:12:05.454832+05:30
Bhagalpur,Bihar,25.2425,87.0117,33.3,68,0.0,994.7,8.8,38.2,189,162.1,64.3,12.9,450.0,136.0,13.6,3,5,7,1,2026-05-23T19:12:05.454839+05:30
Ranchi,Jharkhand,23.3441,85.3096,30.0,36,0.0,933.6,9.3,41.0,130,65.7,32.1,9.8,273.0,129.0,9.8,4,5,7,0,2026-05-23T19:12:05.454846+05:30
Jamshedpur,Jharkhand,22.8046,86.2029,33.4,56,0.0,985.8,9.1,28.4,193,115.0,59.5,14.1,318.0,137.0,18.6,0,5,7,1,2026-05-23T19:12:05.454853+05:30
Dhanbad,Jharkhand,23.7957,86.4304,35.0,30,0.0,974.6,9.05,38.9,164,228.2,103.4,61.3,244.0,78.0,122.3,0,5,7,0,2026-05-23T19:12:05.454860+05:30
Bokaro,Jharkhand,23.6693,86.1511,34.5,43,0.0,978.2,9.1,31.3,163,205.8,92.7,43.0,245.0,98.0,118.3,0,5,7,1,2026-05-23T19:12:05.454868+05:30
Bhubaneswar,Odisha,20.2961,85.8245,30.1,93,0.2,998.8,8.45,38.9,123,35.6,29.2,6.6,309.0,116.0,8.4,6,5,7,1,2026-05-23T19:12:05.454874+05:30
Cuttack,Odisha,20.4625,85.8828,30.0,90,1.1,1000.2,8.35,31.7,123,35.6,29.2,6.6,296.0,116.0,8.4,10,5,4,1,2026-05-23T19:12:05.454881+05:30
Rourkela,Odisha,22.2604,84.8536,34.7,37,0.0,979.4,9.0,38.2,158,94.8,43.3,15.8,527.0,125.0,9.4,0,5,7,1,2026-05-23T19:12:05.454888+05:30
Raipur,Chhattisgarh,21.2514,81.6296,39.3,17,0.0,969.6,8.85,45.4,140,27.1,22.7,20.5,174.0,91.0,31.4,0,5,10,0,2026-05-23T19:12:05.454894+05:30
Bhilai,Chhattisgarh,21.1938,81.3509,38.2,17,0.0,969.9,8.95,45.7,102,29.9,23.1,19.5,160.0,92.0,28.8,0,5,10,0,2026-05-23T19:12:05.454901+05:30
Guwahati,Assam,26.1158,91.7086,25.8,91,0.0,997.6,8.75,25.9,62,29.0,22.1,6.7,398.0,87.0,4.3,7,5,7,1,2026-05-23T19:12:05.454907+05:30
Agartala,Tripura,23.8315,91.2868,29.3,81,0.0,1002.6,8.8,44.6,81,30.5,23.9,7.6,225.0,66.0,2.4,7,5,4,1,2026-05-23T19:12:05.454914+05:30
Shillong,Meghalaya,25.5788,91.8933,19.7,93,0.0,854.9,9.05,51.5,58,24.4,16.9,6.1,275.0,97.0,3.6,3,10,7,1,2026-05-23T19:12:05.454920+05:30
Imphal,Manipur,24.817,93.9368,24.4,85,0.0,921.6,9.0,36.0,57,25.1,17.8,8.3,338.0,70.0,2.3,3,5,7,1,2026-05-23T19:12:05.454927+05:30
Aizawl,Mizoram,23.7271,92.7176,21.6,86,0.0,891.1,9.0,38.2,58,36.7,22.7,3.7,204.0,81.0,2.1,3,5,7,1,2026-05-23T19:12:05.454933+05:30
Kohima,Nagaland,25.6701,94.1077,18.9,94,0.0,852.7,9.3,26.6,45,17.3,10.8,6.2,304.0,72.0,1.7,3,10,7,1,2026-05-23T19:12:05.454941+05:30
Gangtok,Sikkim,27.3314,88.6138,17.8,91,0.3,834.1,9.15,32.4,89,8.0,5.7,5.6,393.0,114.0,2.4,6,10,7,1,2026-05-23T19:12:05.454949+05:30
Siliguri,West Bengal,26.7271,88.3953,25.9,89,0.0,988.4,8.75,23.8,109,32.5,22.5,8.5,621.0,120.0,6.0,7,5,7,1,2026-05-23T19:12:08.756027+05:30
Durgapur,West Bengal,23.5204,87.3119,30.3,76,0.0,989.8,9.0,34.9,212,115.5,86.6,23.8,507.0,147.0,41.0,3,5,7,1,2026-05-23T19:12:08.756063+05:30
Asansol,West Bengal,23.6739,86.9524,31.6,68,0.0,988.4,9.0,33.1,196,166.2,82.4,40.0,677.0,111.0,32.4,3,5,7,1,2026-05-23T19:12:08.756074+05:30
Pondicherry,Puducherry,11.9139,79.8145,31.0,70,0.0,1006.8,4.65,37.4,93,40.5,30.6,25.3,332.0,120.0,12.4,3,5,0,1,2026-05-23T19:12:08.756083+05:30
Port Blair,Andaman and Nicobar Islands,11.6234,92.7265,27.8,80,0.0,1007.6,8.05,34.9,29,5.6,3.4,0.5,132.0,62.0,0.3,7,5,4,1,2026-05-23T19:12:08.756092+05:30
Haridwar,Uttarakhand,29.9457,78.1642,33.5,26,0.0,968.6,7.55,47.2,123,36.1,20.0,5.5,239.0,128.0,7.1,0,5,7,0,2026-05-23T19:12:08.756100+05:30
Rishikesh,Uttarakhand,30.0869,78.2676,31.5,40,0.0,961.5,7.65,42.8,109,29.3,15.0,2.5,222.0,136.0,5.4,0,5,7,1,2026-05-23T19:12:08.756107+05:30
Nainital,Uttarakhand,29.3919,79.4542,18.5,53,0.0,803.7,8.5,49.0,127,68.9,24.9,2.7,177.0,138.0,5.1,0,5,7,0,2026-05-23T19:12:08.756114+05:30
Mussoorie,Uttarakhand,30.4599,78.0664,18.8,47,0.0,801.7,8.05,54.0,106,29.2,15.6,4.9,211.0,130.0,5.0,0,5,7,0,2026-05-23T19:12:08.756122+05:30
Dharamshala,Himachal Pradesh,32.219,76.3234,22.1,46,0.0,867.5,8.4,48.2,77,36.8,12.4,4.6,203.0,104.0,1.2,0,5,7,0,2026-05-23T19:12:08.756129+05:30
Dalhousie,Himachal Pradesh,32.5387,75.971,17.4,57,0.0,804.2,8.65,45.4,95,53.6,19.2,11.8,211.0,113.0,1.8,0,5,7,0,2026-05-23T19:12:08.756137+05:30
Patiala,Punjab,30.3398,76.3869,36.0,20,0.0,973.6,7.65,50.4,278,763.7,108.5,4.9,227.0,114.0,5.6,0,5,10,0,2026-05-23T19:12:08.756145+05:30
Bhatinda,Punjab,30.211,74.9455,37.0,20,0.0,979.6,8.3,36.4,102,81.7,27.0,4.3,244.0,122.0,6.9,0,5,10,0,2026-05-23T19:12:08.756152+05:30
Rohtak,Haryana,28.8955,76.6066,36.3,22,0.0,976.7,7.75,49.0,773,1046.8,153.7,12.9,214.0,102.0,6.3,0,5,10,0,2026-05-23T19:12:08.756159+05:30
Panipat,Haryana,29.3909,76.9635,37.0,18,0.0,975.6,7.4,52.2,1624,2481.0,319.4,7.8,229.0,111.0,8.1,0,5,10,0,2026-05-23T19:12:08.756166+05:30
Mathura,Uttar Pradesh,27.4924,77.6737,36.2,33,0.0,981.4,8.0,48.2,672,912.7,128.1,10.4,254.0,91.0,3.3,0,5,10,1,2026-05-23T19:12:08.756173+05:30
Vrindavan,Uttar Pradesh,27.5823,77.7027,35.8,32,0.0,981.9,8.0,47.2,672,912.7,128.1,10.4,233.0,91.0,3.3,0,5,10,1,2026-05-23T19:12:08.756180+05:30
Ayodhya,Uttar Pradesh,26.7922,82.1998,35.9,27,0.0,988.6,8.35,49.0,163,111.3,42.0,6.1,215.0,133.0,9.3,0,5,10,0,2026-05-23T19:12:08.756187+05:30
Ratlam,Madhya Pradesh,23.3315,75.0367,35.7,21,0.0,952.9,8.55,46.1,69,73.1,28.3,1.3,147.0,99.0,2.4,0,5,10,0,2026-05-23T19:12:08.756194+05:30
Sagar,Madhya Pradesh,23.8388,78.7378,36.8,15,0.0,946.9,8.75,45.0,68,69.6,28.0,3.4,155.0,105.0,3.0,0,5,10,0,2026-05-23T19:12:08.756201+05:30
Satna,Madhya Pradesh,24.6005,80.8322,36.8,21,0.0,966.6,8.8,50.0,89,157.4,49.1,4.6,154.0,112.0,4.0,0,5,10,0,2026-05-23T19:12:08.756208+05:30
Akola,Maharashtra,20.7002,77.0082,38.4,23,0.0,972.5,8.9,50.8,64,27.8,16.0,4.0,146.0,94.0,4.2,0,5,10,0,2026-05-23T19:12:08.756216+05:30
Amravati,Maharashtra,20.9374,77.7796,38.2,22,0.0,964.7,8.9,54.7,67,26.3,15.3,4.8,180.0,95.0,4.6,0,5,10,0,2026-05-23T19:12:08.756224+05:30
Latur,Maharashtra,18.4088,76.5604,30.1,53,0.0,939.4,9.05,43.2,77,29.0,20.1,2.6,183.0,115.0,3.2,0,5,7,1,2026-05-23T19:12:08.756231+05:30
Nanded,Maharashtra,19.1383,77.3091,36.7,30,0.0,966.8,9.0,45.0,80,29.6,21.0,3.4,200.0,108.0,3.5,0,5,10,1,2026-05-23T19:12:08.756238+05:30
Gulbarga,Karnataka,17.3297,76.8343,31.1,54,0.0,958.1,9.0,45.0,67,20.7,16.9,7.0,208.0,106.0,3.5,0,5,7,1,2026-05-23T19:12:08.756245+05:30
Bidar,Karnataka,17.9104,77.5199,32.2,44,0.0,934.9,8.95,45.7,99,28.1,21.2,6.3,223.0,115.0,4.7,0,5,7,1,2026-05-23T19:12:08.756251+05:30
Hospet,Karnataka,15.2689,76.3909,23.6,96,0.2,957.7,8.95,42.5,46,14.3,11.7,7.1,219.0,93.0,2.2,6,5,7,1,2026-05-23T19:12:08.756258+05:30
Tirupur,Tamil Nadu,11.1085,77.3411,27.6,76,0.0,976.4,8.85,45.0,47,13.9,10.6,9.1,188.0,83.0,2.8,7,5,7,1,2026-05-23T19:12:08.756265+05:30
Alappuzha,Kerala,9.4981,76.3388,26.3,95,0.1,1011.1,7.55,41.8,48,13.7,9.3,7.4,99.0,60.0,2.1,10,0,4,1,2026-05-23T19:12:08.756271+05:30
Munnar,Kerala,10.0889,77.0595,18.1,99,0.0,858.6,8.7,32.0,35,9.4,7.5,7.5,154.0,62.0,1.4,3,10,7,1,2026-05-23T19:12:08.756278+05:30
Silchar,Assam,24.8333,92.7789,25.8,95,0.1,1002.6,8.45,38.9,60,30.6,19.3,5.7,293.0,80.0,3.2,10,5,4,1,2026-05-23T19:12:08.756286+05:30
Dibrugarh,Assam,27.4728,94.912,24.5,96,0.1,992.5,8.9,37.1,73,16.3,14.2,7.4,273.0,87.0,1.5,6,5,7,1,2026-05-23T19:12:08.756292+05:30
