city,state,latitude,longitude,temp,humidity,rain,pressure,uv_index,wind_gusts,aqi,pm10,pm2_5,no2,co,o3,so2,mosquito_risk,arthritis_risk,migraine_risk,frizz_risk,updated_at
Delhi,Delhi,28.6139,77.209,31.9,51,0.0,980.0,7.8,26.6,378,514.1,157.4,88.9,1234.0,18.0,41.8,0,5,7,1,2026-06-17T23:52:08.129620+05:30
Mumbai,Maharashtra,19.076,72.8777,30.3,65,0.0,1009.2,7.65,51.5,56,27.6,13.2,6.3,162.0,45.0,4.5,3,0,4,1,2026-06-17T23:52:08.129672+05:30
Bangalore,Karnataka,12.9716,77.5946,22.4,90,0.0,912.7,8.7,32.8,75,15.9,12.7,21.5,606.0,48.0,6.0,3,5,7,1,2026-06-17T23:52:08.129689+05:30
Hyderabad,Telangana,17.385,78.4867,29.4,57,0.0,952.3,9.05,34.6,95,62.2,44.1,40.6,1033.0,41.0,10.7,4,5,7,1,2026-06-17T23:52:08.129700+05:30
Chennai,Tamil Nadu,13.0827,80.2707,29.8,74,0.0,1006.3,7.0,32.8,86,31.4,23.2,16.9,321.0,75.0,7.9,7,5,4,1,2026-06-17T23:52:08.129708+05:30
Kolkata,West Bengal,22.5726,88.3639,29.8,88,0.0,1003.3,9.0,28.4,119,46.0,37.3,10.7,362.0,75.0,7.7,7,5,4,1,2026-06-17T23:52:08.129717+05:30
Pune,Maharashtra,18.5204,73.8567,24.5,81,0.0,949.4,8.3,50.4,48,14.3,8.9,7.9,150.0,41.0,6.9,3,5,7,1,2026-06-17T23:52:08.129724+05:30
Ahmedabad,Gujarat,23.0225,72.5714,29.6,83,0.0,1001.1,8.0,36.0,63,40.3,19.7,5.0,226.0,62.0,4.0,7,5,4,1,2026-06-17T23:52:08.129732+05:30
Jaipur,Rajasthan,26.9124,75.7873,29.6,61,0.0,957.7,8.2,25.6,114,152.7,50.3,14.6,296.0,52.0,7.0,7,5,7,1,2026-06-17T23:52:08.129742+05:30
Lucknow,Uttar Pradesh,26.8467,80.9462,32.7,52,0.0,990.4,8.35,33.1,160,183.5,71.5,41.6,523.0,28.0,11.8,0,5,7,1,2026-06-17T23:52:08.129750+05:30
Kanpur,Uttar Pradesh,26.4499,80.3319,34.0,42,0.0,989.0,8.15,33.1,180,249.6,79.4,45.8,413.0,24.0,12.4,0,5,7,1,2026-06-17T23:52:08.129757+05:30
Chandigarh,Chandigarh,30.7333,76.7794,27.2,66,0.0,965.2,7.8,19.8,154,170.9,87.5,49.5,1140.0,42.0,11.4,7,5,7,1,2026-06-17T23:52:08.129764+05:30
Srinagar,Jammu and Kashmir,34.0837,74.7973,17.9,87,0.0,841.6,8.8,25.2,76,43.9,40.5,39.2,1095.0,6.0,0.1,3,10,7,0,2026-06-17T23:52:08.129773+05:30
Jammu,Jammu and Kashmir,32.7266,74.857,27.2,67,0.0,968.7,8.65,22.3,117,53.7,46.8,57.9,637.0,33.0,6.7,7,5,7,1,2026-06-17T23:52:08.129781+05:30
Amritsar,Punjab,31.634,74.8723,28.2,71,0.0,976.7,8.45,16.2,147,79.9,66.8,39.1,992.0,81.0,11.1,7,5,7,1,2026-06-17T23:52:08.129788+05:30
Ludhiana,Punjab,30.901,75.8573,29.5,62,0.0,975.0,8.05,31.0,154,91.5,62.4,38.4,1064.0,52.0,9.5,7,5,7,1,2026-06-17T23:52:08.129795+05:30
Jalandhar,Punjab,31.326,75.5762,28.5,71,0.0,975.8,8.25,22.3,152,75.7,52.5,24.4,1454.0,76.0,5.8,7,5,7,1,2026-06-17T23:52:08.129801+05:30
Dehradun,Uttarakhand,30.6284,78.0322,17.1,89,0.0,828.9,6.65,28.8,69,39.6,28.6,33.5,248.0,35.0,1.4,3,10,7,0,2026-06-17T23:52:08.129808+05:30
Shimla,Himachal Pradesh,31.1048,77.1734,13.9,85,0.0,782.4,7.65,27.4,90,88.9,52.7,26.0,406.0,62.0,0.0,3,10,7,0,2026-06-17T23:52:08.129818+05:30
Manali,Himachal Pradesh,32.2396,77.1887,15.8,75,0.0,816.3,9.85,31.7,46,11.4,9.9,60.1,355.0,62.0,0.0,3,5,7,0,2026-06-17T23:52:08.129841+05:30
Gurgaon,Haryana,28.4595,77.0266,30.5,57,0.0,978.3,7.85,23.4,421,411.6,133.2,100.7,898.0,9.0,38.2,0,5,7,1,2026-06-17T23:52:08.129856+05:30
Noida,Uttar Pradesh,28.5355,77.391,28.6,68,0.0,981.2,7.85,16.9,421,411.6,133.2,100.7,1418.0,9.0,38.2,7,5,7,1,2026-06-17T23:52:08.129863+05:30
Ghaziabad,Uttar Pradesh,28.6692,77.4538,27.2,76,0.0,979.4,7.8,21.2,392,601.6,187.2,75.6,772.0,30.0,32.4,7,5,7,1,2026-06-17T23:52:08.129869+05:30
Faridabad,Haryana,28.4089,77.3178,31.1,48,0.0,980.7,7.85,26.6,421,411.6,133.2,100.7,1141.0,9.0,38.2,0,5,7,1,2026-06-17T23:52:08.129876+05:30
Meerut,Uttar Pradesh,28.9845,77.7064,29.6,64,0.0,978.4,7.7,22.7,392,601.6,187.2,75.6,564.0,30.0,32.4,7,5,7,1,2026-06-17T23:52:08.129883+05:30
Agra,Uttar Pradesh,27.1767,78.0081,32.2,47,0.0,984.8,8.15,31.7,196,419.1,135.0,82.8,560.0,1.0,30.1,0,5,7,1,2026-06-17T23:52:08.129893+05:30
Varanasi,Uttar Pradesh,25.3176,82.9739,32.7,60,0.0,994.7,8.75,43.6,156,113.9,71.2,31.9,441.0,59.0,16.9,0,5,7,1,2026-06-17T23:52:08.129900+05:30
Prayagraj,Uttar Pradesh,25.4358,81.8463,33.2,54,0.0,993.1,8.7,37.1,156,141.6,79.2,40.0,203.0,43.0,16.8,0,5,7,1,2026-06-17T23:52:08.129907+05:30
Gorakhpur,Uttar Pradesh,26.7606,83.3732,30.1,65,0.0,994.2,8.65,34.6,167,112.9,67.3,28.1,320.0,53.0,11.4,3,5,7,1,2026-06-17T23:52:08.129916+05:30
Bareilly,Uttar Pradesh,28.367,79.4304,28.0,70,0.0,983.7,8.15,30.6,161,247.7,94.8,25.0,423.0,89.0,17.5,7,5,7,1,2026-06-17T23:52:08.129922+05:30
Aligarh,Uttar Pradesh,27.8974,78.088,29.3,63,0.0,982.5,8.0,27.0,263,499.2,156.5,86.9,711.0,18.0,27.3,7,5,7,1,2026-06-17T23:52:08.129928+05:30
Moradabad,Uttar Pradesh,28.8386,78.7733,29.1,62,0.0,980.5,7.95,25.9,176,353.9,132.2,42.5,610.0,48.0,15.6,7,5,7,1,2026-06-17T23:52:08.129935+05:30
Saharanpur,Uttar Pradesh,29.9637,77.546,28.7,62,0.0,972.5,7.55,20.5,302,472.2,177.0,85.4,549.0,17.0,30.3,7,5,7,1,2026-06-17T23:52:08.129940+05:30
Jhansi,Uttar Pradesh,25.4484,78.5685,31.1,56,0.0,976.0,8.5,44.3,93,38.8,24.8,8.9,165.0,59.0,2.8,0,5,7,1,2026-06-17T23:52:11.363988+05:30
Surat,Gujarat,21.1702,72.8311,29.7,74,0.0,1006.6,7.55,54.0,64,39.1,21.9,17.3,233.0,30.0,28.9,7,5,4,1,2026-06-17T23:52:11.364023+05:30
Vadodara,Gujarat,22.3072,73.1812,29.8,74,0.0,1003.6,8.0,50.0,57,27.5,17.2,14.2,158.0,32.0,14.0,7,5,4,1,2026-06-17T23:52:11.364034+05:30
Rajkot,Gujarat,22.3039,70.8022,28.9,72,0.0,993.4,7.5,51.8,54,33.2,15.8,4.9,106.0,41.0,4.9,7,5,7,1,2026-06-17T23:52:11.364042+05:30
Thane,Maharashtra,19.2183,72.9781,30.2,64,0.0,1008.6,7.65,45.7,56,27.6,13.2,6.3,158.0,45.0,4.5,3,0,4,1,2026-06-17T23:52:11.364049+05:30
Nagpur,Maharashtra,21.1458,79.0882,25.9,93,0.2,972.2,8.85,52.2,99,36.0,27.3,15.1,268.0,61.0,10.0,10,5,7,1,2026-06-17T23:52:11.364057+05:30
Nashik,Maharashtra,19.9975,73.7898,24.8,81,0.0,946.6,8.0,49.0,43,15.9,8.6,4.4,127.0,43.0,1.8,3,5,7,1,2026-06-17T23:52:11.364065+05:30
Aurangabad,Maharashtra,19.8762,75.3433,28.0,60,0.0,944.9,8.9,48.2,51,16.4,9.3,5.4,130.0,53.0,4.6,4,5,7,1,2026-06-17T23:52:11.364072+05:30
Solapur,Maharashtra,17.6599,75.9064,29.2,55,0.0,957.9,8.4,52.2,59,15.3,9.9,4.6,127.0,65.0,3.4,4,5,7,1,2026-06-17T23:52:11.364079+05:30
Kolhapur,Maharashtra,16.705,74.2433,23.9,85,0.0,949.1,8.55,45.7,50,16.6,10.9,7.2,163.0,40.0,3.2,3,5,7,1,2026-06-17T23:52:11.364087+05:30
Goa,Goa,15.2993,74.124,27.0,82,0.0,999.6,7.75,29.9,56,31.7,17.7,5.7,355.0,44.0,2.2,7,5,7,1,2026-06-17T23:52:11.364094+05:30
Jodhpur,Rajasthan,26.2389,73.0243,31.9,54,0.0,980.8,8.4,33.8,107,141.6,34.3,5.4,135.0,59.0,2.1,0,5,7,1,2026-06-17T23:52:11.364102+05:30
Udaipur,Rajasthan,24.5854,73.7125,28.0,62,0.0,945.7,8.8,37.8,68,48.2,23.0,8.5,127.0,61.0,3.6,7,5,7,1,2026-06-17T23:52:11.364109+05:30
Kota,Rajasthan,25.2138,75.8648,31.1,53,0.0,977.1,8.35,31.0,85,39.0,25.0,7.6,184.0,65.0,5.3,0,5,7,1,2026-06-17T23:52:11.364116+05:30
Bikaner,Rajasthan,28.0229,73.3119,30.8,58,0.0,978.7,8.45,24.5,128,117.3,42.3,2.7,141.0,62.0,1.9,0,5,7,1,2026-06-17T23:52:11.364123+05:30
Ajmer,Rajasthan,26.4499,74.6399,29.1,59,0.0,953.1,8.35,37.8,92,37.3,20.8,6.9,249.0,61.0,3.8,4,5,7,1,2026-06-17T23:52:11.364130+05:30
Gwalior,Madhya Pradesh,26.2183,78.1828,31.8,48,0.0,980.8,7.7,31.3,122,64.0,30.5,10.7,157.0,48.0,3.4,0,5,7,1,2026-06-17T23:52:11.364137+05:30
Indore,Madhya Pradesh,22.7196,75.8577,28.5,59,0.0,947.8,8.55,51.1,76,48.0,41.4,29.6,232.0,28.0,8.9,4,5,7,1,2026-06-17T23:52:11.364145+05:30
Bhopal,Madhya Pradesh,23.2599,77.4126,27.4,72,0.0,952.7,8.45,42.1,89,36.4,27.5,12.0,408.0,59.0,4.4,7,5,7,1,2026-06-17T23:52:11.364152+05:30
Jabalpur,Madhya Pradesh,23.1815,79.9864,26.3,83,0.0,960.7,8.7,49.0,100,30.5,24.0,10.9,226.0,63.0,3.0,7,5,7,1,2026-06-17T23:52:11.364160+05:30
Ujjain,Madhya Pradesh,23.1765,75.7885,28.4,61,0.0,953.2,8.5,56.5,73,48.7,31.0,8.1,445.0,67.0,4.9,7,5,7,1,2026-06-17T23:52:11.364168+05:30
Visakhapatnam,Andhra Pradesh,17.6868,83.2185,29.6,95,0.0,1001.7,8.9,40.7,143,73.1,54.0,46.9,382.0,56.0,58.3,7,5,4,1,2026-06-17T23:52:11.364175+05:30
Vijayawada,Andhra Pradesh,16.5062,80.648,31.3,70,0.0,1000.5,8.9,31.3,131,46.9,37.5,12.1,520.0,82.0,7.0,3,5,4,1,2026-06-17T23:52:11.364182+05:30
Guntur,Andhra Pradesh,16.3067,80.4365,31.0,70,0.0,1001.7,8.9,33.8,128,62.4,49.4,20.9,567.0,66.0,8.9,3,5,4,1,2026-06-17T23:52:11.364189+05:30
Nellore,Andhra Pradesh,14.4426,79.9865,31.0,68,0.0,1004.2,8.5,38.9,104,50.5,36.0,12.2,274.0,100.0,10.7,3,5,4,1,2026-06-17T23:52:11.364197+05:30
Kurnool,Andhra Pradesh,15.8281,78.0373,28.9,66,0.0,975.9,8.25,40.7,79,68.2,50.3,42.1,579.0,37.0,12.7,7,5,7,1,2026-06-17T23:52:11.364204+05:30
Kakinada,Andhra Pradesh,16.9891,82.2475,30.3,88,0.0,1005.3,8.6,27.7,104,49.6,32.0,3.1,338.0,118.0,4.9,3,5,4,1,2026-06-17T23:52:11.364211+05:30
Tirupati,Andhra Pradesh,13.6288,79.4192,28.1,76,0.0,990.6,7.1,30.2,97,49.9,36.9,30.5,314.0,45.0,6.9,7,5,7,1,2026-06-17T23:52:11.364218+05:30
Warangal,Telangana,17.9689,79.5941,29.8,69,0.0,977.0,8.7,32.4,143,94.8,75.7,48.8,819.0,18.0,10.8,7,5,7,1,2026-06-17T23:52:11.364225+05:30
Nizamabad,Telangana,18.6725,78.0941,30.9,41,0.0,963.2,8.95,34.6,91,71.7,44.5,30.9,433.0,36.0,6.4,0,5,7,1,2026-06-17T23:52:11.364232+05:30
Mysore,Karnataka,12.2958,76.6396,21.8,93,0.0,929.6,8.5,38.9,55,14.6,11.8,17.7,199.0,40.0,3.3,3,5,7,1,2026-06-17T23:52:11.364239+05:30
Mangalore,Karnataka,12.9141,74.856,27.1,85,0.0,1008.6,8.55,38.2,56,39.8,30.5,23.6,476.0,16.0,5.7,7,0,4,1,2026-06-17T23:52:11.364246+05:30
Hubli-Dharwad,Karnataka,15.3647,75.124,23.5,88,0.0,942.0,7.55,37.8,41,16.7,10.4,7.4,160.0,41.0,2.2,3,5,7,1,2026-06-17T23:52:11.364253+05:30
Belgaum,Karnataka,15.8497,74.4977,22.2,93,0.0,926.8,8.05,38.9,47,21.2,12.9,8.0,150.0,38.0,2.0,3,5,7,1,2026-06-17T23:52:14.601849+05:30
Coimbatore,Tamil Nadu,11.0168,76.9558,24.0,90,0.0,963.2,8.85,45.4,39,12.3,10.4,15.6,246.0,31.0,4.5,3,5,7,1,2026-06-17T23:52:14.601885+05:30
Madurai,Tamil Nadu,9.9252,78.1198,26.8,84,0.2,993.6,8.65,38.5,86,21.5,16.3,18.6,228.0,48.0,5.0,10,5,7,1,2026-06-17T23:52:14.601897+05:30
Trichy,Tamil Nadu,10.7905,78.7047,28.1,72,0.0,1000.4,8.55,42.5,71,21.0,15.8,12.5,165.0,62.0,4.1,7,5,4,1,2026-06-17T23:52:14.601906+05:30
Salem,Tamil Nadu,11.6643,78.146,25.3,91,0.0,979.0,8.7,28.8,76,24.6,17.8,16.5,322.0,63.0,7.2,7,5,7,1,2026-06-17T23:52:14.601914+05:30
Tirunelveli,Tamil Nadu,8.7139,77.7567,29.6,57,0.0,1003.6,7.25,36.7,42,17.9,12.2,9.1,164.0,43.0,2.7,4,5,4,1,2026-06-17T23:52:14.601922+05:30
Vellore,Tamil Nadu,12.9165,79.1325,27.6,74,0.0,984.7,8.45,33.8,108,34.6,23.9,10.0,246.0,90.0,4.5,7,5,7,1,2026-06-17T23:52:14.601929+05:30
Erode,Tamil Nadu,11.341,77.7172,26.2,85,0.0,990.7,8.8,42.1,59,19.2,14.8,18.1,311.0,42.0,3.5,7,5,7,1,2026-06-17T23:52:14.601937+05:30
Kochi,Kerala,9.9312,76.2673,26.0,93,0.0,1010.6,6.9,32.4,58,36.0,32.1,32.8,349.0,4.0,8.5,7,0,4,1,2026-06-17T23:52:14.601944+05:30
Thiruvananthapuram,Kerala,8.5241,76.9366,24.7,91,0.0,1009.9,7.45,35.6,46,27.6,15.3,8.1,319.0,48.0,3.6,3,0,4,1,2026-06-17T23:52:14.601951+05:30
Kozhikode,Kerala,11.2588,75.7804,26.1,93,0.1,1009.7,8.3,34.2,49,28.6,14.4,3.3,397.0,55.0,1.9,10,0,4,1,2026-06-17T23:52:14.601959+05:30
Thrissur,Kerala,10.5276,76.2144,25.4,95,0.0,1009.0,8.2,33.5,58,58.3,52.3,29.6,502.0,6.0,9.9,7,0,4,1,2026-06-17T23:52:14.601966+05:30
Kannur,Kerala,11.8745,75.3704,25.7,90,0.0,1008.9,8.6,34.9,51,29.0,21.7,23.6,691.0,16.0,4.0,7,0,4,1,2026-06-17T23:52:14.601973+05:30
Patna,Bihar,25.5941,85.1376,31.3,76,0.0,997.1,8.85,29.2,162,181.6,129.9,87.2,804.0,10.0,32.5,3,5,7,1,2026-06-17T23:52:14.601981+05:30
Gaya,Bihar,24.7914,85.0002,31.7,63,0.0,990.8,8.95,29.5,156,157.9,95.5,44.2,848.0,51.0,18.5,3,5,7,1,2026-06-17T23:52:14.601987+05:30
Muzaffarpur,Bihar,26.1209,85.3647,29.6,86,0.0,997.0,8.85,28.1,164,147.1,114.1,57.6,959.0,39.0,25.6,7,5,7,1,2026-06-17T23:52:14.601995+05:30
Bhagalpur,Bihar,25.2425,87.0117,31.1,74,0.0,997.7,8.85,21.6,162,104.5,87.8,11.4,966.0,127.0,21.7,3,5,7,1,2026-06-17T23:52:14.602002+05:30
Ranchi,Jharkhand,23.3441,85.3096,26.3,68,0.0,935.7,9.05,28.1,153,80.3,56.3,12.5,246.0,95.0,8.2,7,5,7,1,2026-06-17T23:52:14.602010+05:30
Jamshedpur,Jharkhand,22.8046,86.2029,29.6,63,0.0,988.2,9.05,33.8,166,93.4,74.7,19.1,340.0,102.0,30.6,7,5,7,1,2026-06-17T23:52:14.602016+05:30
Dhanbad,Jharkhand,23.7957,86.4304,30.3,66,0.0,976.9,9.05,28.4,170,157.4,121.5,73.2,895.0,43.0,182.6,3,5,7,1,2026-06-17T23:52:14.602023+05:30
Bokaro,Jharkhand,23.6693,86.1511,29.6,65,0.0,980.6,9.1,27.0,167,146.7,110.6,67.6,1092.0,16.0,130.1,7,5,7,1,2026-06-17T23:52:14.602029+05:30
Bhubaneswar,Odisha,20.2961,85.8245,28.9,91,0.0,999.9,9.0,32.0,109,41.1,35.3,10.5,362.0,119.0,12.5,7,5,7,1,2026-06-17T23:52:14.602036+05:30
Cuttack,Odisha,20.4625,85.8828,28.9,90,0.0,1001.6,9.1,29.5,109,41.1,35.3,10.5,361.0,119.0,12.5,7,5,4,1,2026-06-17T23:52:14.602043+05:30
Rourkela,Odisha,22.2604,84.8536,28.2,85,0.0,982.7,9.0,34.9,159,104.3,74.0,16.9,693.0,104.0,11.0,7,5,7,1,2026-06-17T23:52:14.602049+05:30
Raipur,Chhattisgarh,21.2514,81.6296,27.7,81,0.0,972.9,8.9,44.3,158,82.4,58.7,44.3,318.0,48.0,63.1,7,5,7,1,2026-06-17T23:52:14.602056+05:30
Bhilai,Chhattisgarh,21.1938,81.3509,27.9,82,0.0,973.4,8.9,43.6,155,94.3,61.0,45.3,576.0,50.0,64.1,7,5,7,1,2026-06-17T23:52:14.602062+05:30
Guwahati,Assam,26.1158,91.7086,25.7,95,0.1,999.3,8.75,29.5,82,27.3,24.4,8.8,425.0,71.0,3.5,10,5,7,1,2026-06-17T23:52:14.602068+05:30
Agartala,Tripura,23.8315,91.2868,26.6,90,0.0,1004.8,8.75,25.6,70,23.1,20.4,11.5,222.0,50.0,2.8,7,5,4,1,2026-06-17T23:52:14.602075+05:30
Shillong,Meghalaya,25.5788,91.8933,17.8,87,0.0,855.5,7.2,23.0,58,13.5,11.6,6.2,288.0,83.0,2.6,3,10,7,0,2026-06-17T23:52:14.602083+05:30
Imphal,Manipur,24.817,93.9368,22.8,96,0.0,921.7,8.25,31.7,52,19.0,18.3,18.9,391.0,24.0,3.0,3,5,7,1,2026-06-17T23:52:14.602090+05:30
Aizawl,Mizoram,23.7271,92.7176,19.6,95,0.0,891.5,9.05,28.8,34,6.5,5.9,4.8,158.0,48.0,1.0,3,10,7,1,2026-06-17T23:52:14.602097+05:30
Kohima,Nagaland,25.6701,94.1077,18.8,96,0.0,853.9,8.7,24.8,49,12.3,11.7,12.4,393.0,31.0,1.1,3,10,7,1,2026-06-17T23:52:14.602104+05:30
Gangtok,Sikkim,27.3314,88.6138,17.5,99,0.3,836.8,8.9,40.3,56,13.3,12.4,15.9,682.0,89.0,3.0,6,10,7,1,2026-06-17T23:52:14.602110+05:30
Siliguri,West Bengal,26.7271,88.3953,23.6,99,0.3,991.5,8.75,27.0,129,46.8,40.2,12.0,490.0,113.0,7.3,6,5,7,1,2026-06-17T23:52:17.862399+05:30
Durgapur,West Bengal,23.5204,87.3119,29.3,85,0.0,992.2,9.0,25.6,173,114.8,100.6,29.2,616.0,80.0,47.6,7,5,7,1,2026-06-17T23:52:17.862435+05:30
Asansol,West Bengal,23.6739,86.9524,29.5,79,0.0,990.5,9.05,27.4,168,113.6,95.7,29.3,626.0,88.0,52.3,7,5,7,1,2026-06-17T23:52:17.862446+05:30
Pondicherry,Puducherry,11.9139,79.8145,27.3,84,0.0,1008.7,8.65,40.3,78,23.7,17.9,15.1,303.0,68.0,12.8,7,0,4,1,2026-06-17T23:52:17.862455+05:30
Port Blair,Andaman and Nicobar Islands,11.6234,92.7265,26.1,89,0.0,1008.9,8.05,37.8,24,7.7,4.2,0.3,88.0,42.0,0.3,7,0,4,1,2026-06-17T23:52:17.862463+05:30
Haridwar,Uttarakhand,29.9457,78.1642,28.1,74,0.0,971.0,7.65,20.2,168,217.5,105.5,45.1,423.0,51.0,17.5,7,5,7,1,2026-06-17T23:52:17.862471+05:30
Rishikesh,Uttarakhand,30.0869,78.2676,25.8,72,0.0,963.6,6.25,22.0,152,117.3,56.7,22.0,420.0,75.0,6.3,7,5,7,1,2026-06-17T23:52:17.862478+05:30
Nainital,Uttarakhand,29.3919,79.4542,14.7,100,0.0,803.9,6.05,29.9,139,141.6,66.6,17.7,441.0,102.0,10.8,3,10,7,0,2026-06-17T23:52:17.862485+05:30
Mussoorie,Uttarakhand,30.4599,78.0664,16.4,81,0.0,802.1,7.0,32.4,123,101.7,63.3,49.7,266.0,44.0,12.2,3,10,7,0,2026-06-17T23:52:17.862493+05:30
Dharamshala,Himachal Pradesh,32.219,76.3234,21.6,72,0.0,867.5,8.55,41.8,61,14.0,13.3,18.7,393.0,42.0,0.2,3,5,7,1,2026-06-17T23:52:17.862501+05:30
Dalhousie,Himachal Pradesh,32.5387,75.971,13.2,96,0.0,801.3,8.8,30.2,123,55.9,41.6,38.2,576.0,66.0,3.3,3,10,7,0,2026-06-17T23:52:17.862508+05:30
Patiala,Punjab,30.3398,76.3869,29.3,60,0.0,974.7,7.55,28.1,196,174.2,78.0,29.3,510.0,48.0,9.4,4,5,7,1,2026-06-17T23:52:17.862515+05:30
Bhatinda,Punjab,30.211,74.9455,30.2,59,0.0,980.0,8.3,20.9,117,68.9,49.9,29.9,443.0,58.0,8.0,0,5,7,1,2026-06-17T23:52:17.862522+05:30
Rohtak,Haryana,28.8955,76.6066,29.9,60,0.0,978.5,7.8,20.5,364,396.7,126.7,92.4,575.0,0.0,25.7,4,5,7,1,2026-06-17T23:52:17.862529+05:30
Panipat,Haryana,29.3909,76.9635,28.8,66,0.0,976.9,7.65,18.0,679,601.6,148.5,64.7,722.0,17.0,16.9,7,5,7,1,2026-06-17T23:52:17.862536+05:30
Mathura,Uttar Pradesh,27.4924,77.6737,29.5,66,0.0,983.8,8.1,25.6,179,381.8,113.9,82.9,804.0,0.0,15.1,7,5,7,1,2026-06-17T23:52:17.862542+05:30
Vrindavan,Uttar Pradesh,27.5823,77.7027,29.4,64,0.0,984.2,8.05,25.6,179,381.8,113.9,82.9,789.0,0.0,15.1,7,5,7,1,2026-06-17T23:52:17.862549+05:30
Ayodhya,Uttar Pradesh,26.7922,82.1998,30.0,72,0.0,992.3,8.4,34.9,159,101.0,59.8,30.5,569.0,43.0,9.2,7,5,7,1,2026-06-17T23:52:17.862555+05:30
Ratlam,Madhya Pradesh,23.3315,75.0367,28.1,64,0.0,954.4,8.45,42.8,68,39.6,21.5,3.4,131.0,83.0,6.2,7,5,7,1,2026-06-17T23:52:17.862561+05:30
Sagar,Madhya Pradesh,23.8388,78.7378,27.9,68,0.0,949.3,7.75,43.6,91,34.3,24.7,11.3,188.0,59.0,2.5,7,5,7,1,2026-06-17T23:52:17.862568+05:30
Satna,Madhya Pradesh,24.6005,80.8322,30.5,56,0.0,969.5,8.8,31.7,98,31.5,25.9,10.0,195.0,70.0,4.1,0,5,7,1,2026-06-17T23:52:17.862575+05:30
Akola,Maharashtra,20.7002,77.0082,30.9,52,0.0,974.8,8.8,42.8,71,38.0,22.8,12.4,137.0,66.0,6.5,0,5,7,1,2026-06-17T23:52:17.862582+05:30
Amravati,Maharashtra,20.9374,77.7796,28.5,67,0.0,966.6,8.4,48.6,76,39.3,26.0,17.1,276.0,50.0,5.6,7,5,7,1,2026-06-17T23:52:17.862590+05:30
Latur,Maharashtra,18.4088,76.5604,29.9,43,0.0,940.0,8.85,36.7,71,38.5,24.7,10.2,199.0,81.0,5.3,4,5,7,1,2026-06-17T23:52:17.862597+05:30
Nanded,Maharashtra,19.1383,77.3091,32.2,40,0.0,967.8,8.8,34.9,74,38.0,24.1,14.1,461.0,60.0,3.8,0,5,7,1,2026-06-17T23:52:17.862604+05:30
Gulbarga,Karnataka,17.3297,76.8343,29.9,46,0.0,958.6,7.7,34.9,68,30.2,20.4,16.4,182.0,59.0,4.2,4,5,7,1,2026-06-17T23:52:17.862610+05:30
Bidar,Karnataka,17.9104,77.5199,27.4,55,0.0,934.5,8.95,34.9,91,54.8,38.4,37.5,546.0,34.0,5.1,4,5,7,1,2026-06-17T23:52:17.862617+05:30
Hospet,Karnataka,15.2689,76.3909,26.4,74,0.0,956.6,8.65,33.8,51,17.1,11.7,7.1,157.0,50.0,2.1,7,5,7,1,2026-06-17T23:52:17.862623+05:30
Tirupur,Tamil Nadu,11.1085,77.3411,24.9,89,0.0,976.9,8.7,46.4,60,22.2,18.0,23.4,214.0,29.0,5.4,3,5,7,1,2026-06-17T23:52:17.862629+05:30
Alappuzha,Kerala,9.4981,76.3388,26.4,92,0.0,1010.7,5.5,28.4,57,29.2,20.9,22.0,332.0,29.0,7.2,7,0,0,1,2026-06-17T23:52:17.862636+05:30
Munnar,Kerala,10.0889,77.0595,16.0,97,0.0,856.9,5.9,32.4,25,9.2,6.9,9.8,136.0,31.0,1.9,3,10,3,0,2026-06-17T23:52:17.862643+05:30
Silchar,Assam,24.8333,92.7789,25.6,97,0.4,1004.0,8.6,26.3,81,39.7,33.4,10.6,312.0,77.0,4.3,10,5,4,1,2026-06-17T23:52:17.862649+05:30
Dibrugarh,Assam,27.4728,94.912,25.9,98,0.0,993.1,7.8,28.4,62,16.4,15.5,9.7,293.0,74.0,1.7,7,5,7,1,2026-06-17T23:52:17.862656+05:30
