city,state,latitude,longitude,temp,humidity,rain,pressure,uv_index,wind_gusts,aqi,pm10,pm2_5,no2,co,o3,so2,mosquito_risk,arthritis_risk,migraine_risk,frizz_risk,updated_at
Delhi,Delhi,28.6139,77.209,33.5,58,0.0,973.8,7.4,32.0,155,271.9,82.4,16.8,587.0,154.0,30.6,0,5,7,1,2026-07-01T18:05:30.567636+05:30
Mumbai,Maharashtra,19.076,72.8777,26.6,90,0.2,1002.7,0.85,45.4,34,14.1,8.4,10.6,351.0,47.0,4.5,10,5,0,1,2026-07-01T18:05:30.567675+05:30
Bangalore,Karnataka,12.9716,77.5946,23.7,74,0.0,909.4,7.0,56.2,26,3.7,3.1,10.0,277.0,51.0,2.5,3,5,7,1,2026-07-01T18:05:30.567690+05:30
Hyderabad,Telangana,17.385,78.4867,27.9,65,0.0,947.5,6.0,44.3,28,9.2,6.9,8.1,373.0,63.0,3.8,7,5,3,1,2026-07-01T18:05:30.567699+05:30
Chennai,Tamil Nadu,13.0827,80.2707,33.0,55,0.0,1002.2,5.65,48.6,40,11.4,9.7,12.8,368.0,83.0,6.2,0,5,0,1,2026-07-01T18:05:30.567707+05:30
Kolkata,West Bengal,22.5726,88.3639,27.6,95,0.1,997.5,8.5,29.5,103,23.3,22.6,12.0,720.0,104.0,13.1,10,5,7,1,2026-07-01T18:05:30.567714+05:30
Pune,Maharashtra,18.5204,73.8567,23.7,92,0.1,942.3,3.55,46.1,22,3.1,3.0,10.3,182.0,42.0,3.9,6,5,3,1,2026-07-01T18:05:30.567721+05:30
Ahmedabad,Gujarat,23.0225,72.5714,33.3,57,0.0,992.7,6.35,42.8,53,21.8,11.6,4.4,155.0,83.0,4.8,0,5,7,1,2026-07-01T18:05:30.567728+05:30
Jaipur,Rajasthan,26.9124,75.7873,32.3,59,0.0,951.5,8.2,44.6,137,100.4,32.2,2.4,158.0,104.0,3.3,0,5,7,1,2026-07-01T18:05:30.567734+05:30
Lucknow,Uttar Pradesh,26.8467,80.9462,30.9,76,0.0,984.8,7.35,20.2,111,76.4,33.9,3.9,317.0,153.0,6.1,3,5,7,1,2026-07-01T18:05:30.567745+05:30
Kanpur,Uttar Pradesh,26.4499,80.3319,31.5,70,0.0,983.0,5.6,29.9,107,125.3,40.2,3.9,203.0,147.0,6.1,3,5,3,1,2026-07-01T18:05:30.567752+05:30
Chandigarh,Chandigarh,30.7333,76.7794,27.7,81,0.0,960.6,3.4,37.4,104,108.3,41.6,7.6,370.0,146.0,9.5,7,5,3,1,2026-07-01T18:05:30.567759+05:30
Srinagar,Jammu and Kashmir,34.0837,74.7973,26.8,57,0.1,837.6,9.1,31.7,136,25.3,19.1,3.7,368.0,150.0,3.2,7,5,7,1,2026-07-01T18:05:30.567765+05:30
Jammu,Jammu and Kashmir,32.7266,74.857,27.5,90,0.2,964.5,8.6,32.4,109,212.8,61.0,4.6,265.0,146.0,6.3,10,5,7,1,2026-07-01T18:05:30.567772+05:30
Amritsar,Punjab,31.634,74.8723,31.7,70,0.0,971.2,8.45,46.4,174,455.4,132.7,6.0,382.0,137.0,5.8,3,5,7,1,2026-07-01T18:05:30.567778+05:30
Ludhiana,Punjab,30.901,75.8573,32.3,63,0.0,969.3,7.15,43.2,178,134.6,43.8,7.5,366.0,135.0,10.7,3,5,7,1,2026-07-01T18:05:30.567784+05:30
Jalandhar,Punjab,31.326,75.5762,33.2,61,0.0,970.0,6.3,38.9,175,245.9,66.6,7.8,470.0,133.0,9.5,3,5,7,1,2026-07-01T18:05:30.567790+05:30
Dehradun,Uttarakhand,30.6284,78.0322,21.2,89,0.0,826.3,5.1,15.8,73,27.5,10.4,3.6,207.0,132.0,3.2,3,5,3,1,2026-07-01T18:05:30.567796+05:30
Shimla,Himachal Pradesh,31.1048,77.1734,18.1,94,0.0,780.5,5.25,22.3,73,86.6,24.9,5.4,230.0,117.0,2.9,3,10,3,1,2026-07-01T18:05:30.567805+05:30
Manali,Himachal Pradesh,32.2396,77.1887,22.9,86,0.0,815.7,6.35,41.0,59,21.2,19.4,39.5,189.0,108.0,1.0,3,5,7,1,2026-07-01T18:05:30.567833+05:30
Gurgaon,Haryana,28.4595,77.0266,33.2,58,0.0,972.3,7.65,33.5,527,523.4,99.0,12.9,474.0,149.0,18.1,0,5,7,1,2026-07-01T18:05:30.567845+05:30
Noida,Uttar Pradesh,28.5355,77.391,32.5,65,0.0,975.4,7.4,24.5,527,523.4,99.0,12.9,387.0,149.0,18.1,3,5,7,1,2026-07-01T18:05:30.567851+05:30
Ghaziabad,Uttar Pradesh,28.6692,77.4538,32.2,67,0.0,973.7,7.25,25.9,99,143.4,53.4,7.5,245.0,145.0,17.2,3,5,7,1,2026-07-01T18:05:30.567857+05:30
Faridabad,Haryana,28.4089,77.3178,33.6,56,0.0,974.5,7.5,29.9,527,523.4,99.0,12.9,380.0,149.0,18.1,0,5,7,1,2026-07-01T18:05:30.567863+05:30
Meerut,Uttar Pradesh,28.9845,77.7064,30.8,71,0.0,972.8,7.2,26.3,99,143.4,53.4,7.5,228.0,145.0,17.2,3,5,7,1,2026-07-01T18:05:30.567869+05:30
Agra,Uttar Pradesh,27.1767,78.0081,33.3,61,0.0,978.6,2.7,28.1,154,158.8,44.5,6.1,207.0,141.0,5.8,3,5,3,1,2026-07-01T18:05:30.567875+05:30
Varanasi,Uttar Pradesh,25.3176,82.9739,33.0,63,0.0,988.5,7.9,24.1,128,25.4,22.9,4.6,625.0,149.0,6.9,3,5,7,1,2026-07-01T18:05:30.567881+05:30
Prayagraj,Uttar Pradesh,25.4358,81.8463,32.1,70,0.0,987.2,8.3,18.0,146,43.0,28.8,3.5,263.0,162.0,5.9,3,5,7,1,2026-07-01T18:05:30.567888+05:30
Gorakhpur,Uttar Pradesh,26.7606,83.3732,30.4,84,0.1,988.7,7.1,26.3,166,66.6,57.4,5.0,340.0,180.0,10.5,6,5,7,1,2026-07-01T18:05:30.567894+05:30
Bareilly,Uttar Pradesh,28.367,79.4304,29.5,81,0.0,978.4,6.05,19.4,128,78.7,34.0,4.5,312.0,157.0,8.8,7,5,7,1,2026-07-01T18:05:30.567902+05:30
Aligarh,Uttar Pradesh,27.8974,78.088,32.5,62,0.0,976.6,6.55,29.2,113,85.0,33.5,6.5,205.0,134.0,16.2,3,5,7,1,2026-07-01T18:05:30.567908+05:30
Moradabad,Uttar Pradesh,28.8386,78.7733,31.3,69,0.0,975.0,7.5,24.5,111,100.4,44.2,6.9,268.0,157.0,14.6,3,5,7,1,2026-07-01T18:05:30.567914+05:30
Saharanpur,Uttar Pradesh,29.9637,77.546,29.3,77,0.0,967.4,6.5,28.8,88,146.7,54.4,6.0,274.0,138.0,7.6,7,5,7,1,2026-07-01T18:05:30.567920+05:30
Jhansi,Uttar Pradesh,25.4484,78.5685,33.9,50,0.0,969.4,8.2,29.5,71,88.5,32.1,5.8,152.0,101.0,4.1,0,5,7,1,2026-07-01T18:05:33.821045+05:30
Surat,Gujarat,21.1702,72.8311,26.6,95,0.1,999.3,5.55,35.6,64,22.2,15.6,21.4,461.0,37.0,38.5,10,5,3,1,2026-07-01T18:05:33.821076+05:30
Vadodara,Gujarat,22.3072,73.1812,29.6,78,0.1,996.2,6.1,37.1,54,22.2,16.8,8.1,176.0,90.0,9.2,10,5,7,1,2026-07-01T18:05:33.821086+05:30
Rajkot,Gujarat,22.3039,70.8022,30.0,72,0.1,985.8,5.25,46.1,53,35.4,17.6,2.2,140.0,79.0,4.1,10,5,3,1,2026-07-01T18:05:33.821095+05:30
Thane,Maharashtra,19.2183,72.9781,26.0,95,0.2,1002.0,0.6,32.8,34,14.1,8.4,10.6,299.0,47.0,4.5,10,5,0,1,2026-07-01T18:05:33.821103+05:30
Nagpur,Maharashtra,21.1458,79.0882,27.3,91,0.1,965.7,7.35,26.3,55,15.4,13.4,17.4,297.0,68.0,11.0,10,5,7,1,2026-07-01T18:05:33.821111+05:30
Nashik,Maharashtra,19.9975,73.7898,23.8,94,0.0,939.1,2.45,37.4,25,3.3,2.4,7.6,136.0,41.0,0.8,3,5,3,1,2026-07-01T18:05:33.821118+05:30
Aurangabad,Maharashtra,19.8762,75.3433,24.4,91,0.1,937.9,7.5,42.5,27,5.3,4.5,5.1,172.0,60.0,2.7,6,5,7,1,2026-07-01T18:05:33.821125+05:30
Solapur,Maharashtra,17.6599,75.9064,25.5,90,0.1,952.1,7.65,52.2,28,5.6,4.0,4.7,154.0,53.0,1.6,10,5,7,1,2026-07-01T18:05:33.821132+05:30
Kolhapur,Maharashtra,16.705,74.2433,22.4,96,0.1,943.8,7.05,43.9,24,5.0,4.2,8.4,156.0,41.0,1.8,6,5,7,1,2026-07-01T18:05:33.821139+05:30
Goa,Goa,15.2993,74.124,24.2,99,0.4,995.8,3.3,33.1,31,14.3,7.3,2.1,180.0,52.0,0.6,6,5,3,1,2026-07-01T18:05:33.821146+05:30
Jodhpur,Rajasthan,26.2389,73.0243,37.5,35,0.0,972.5,8.4,38.2,137,160.2,36.6,1.4,117.0,84.0,1.1,0,5,10,1,2026-07-01T18:05:33.821153+05:30
Udaipur,Rajasthan,24.5854,73.7125,30.5,65,0.0,938.1,8.75,32.4,56,26.1,14.3,1.3,121.0,82.0,2.0,3,5,7,1,2026-07-01T18:05:33.821160+05:30
Kota,Rajasthan,25.2138,75.8648,33.2,54,0.0,970.2,7.25,24.5,75,41.7,22.4,2.2,150.0,109.0,4.2,0,5,7,1,2026-07-01T18:05:33.821168+05:30
Bikaner,Rajasthan,28.0229,73.3119,40.0,29,0.0,970.5,8.45,37.4,158,85.2,29.3,0.7,115.0,89.0,2.1,0,5,10,1,2026-07-01T18:05:33.821175+05:30
Ajmer,Rajasthan,26.4499,74.6399,33.9,47,0.0,946.2,8.35,42.1,71,38.2,21.2,1.6,130.0,95.0,2.0,0,5,7,1,2026-07-01T18:05:33.821182+05:30
Gwalior,Madhya Pradesh,26.2183,78.1828,32.1,66,0.0,974.4,1.25,33.1,78,59.0,27.5,4.4,202.0,118.0,3.2,3,5,3,1,2026-07-01T18:05:33.821189+05:30
Indore,Madhya Pradesh,22.7196,75.8577,28.7,71,0.1,940.7,7.65,26.6,59,22.1,17.2,8.4,351.0,83.0,3.4,10,5,7,1,2026-07-01T18:05:33.821196+05:30
Bhopal,Madhya Pradesh,23.2599,77.4126,28.8,75,0.1,946.0,7.6,33.1,67,29.7,19.6,3.4,371.0,98.0,3.4,10,5,7,1,2026-07-01T18:05:33.821203+05:30
Jabalpur,Madhya Pradesh,23.1815,79.9864,26.1,95,0.1,953.5,8.25,28.8,63,36.8,20.3,2.4,250.0,114.0,1.9,10,5,7,1,2026-07-01T18:05:33.821210+05:30
Ujjain,Madhya Pradesh,23.1765,75.7885,29.5,69,0.0,946.1,8.05,27.4,59,22.2,16.2,3.2,217.0,92.0,3.1,7,5,7,1,2026-07-01T18:05:33.821217+05:30
Visakhapatnam,Andhra Pradesh,17.6868,83.2185,30.3,72,0.0,995.6,5.45,37.1,73,20.1,18.9,33.7,374.0,47.0,54.0,3,5,3,1,2026-07-01T18:05:33.821224+05:30
Vijayawada,Andhra Pradesh,16.5062,80.648,30.5,73,0.0,996.2,5.2,51.1,48,10.8,8.6,4.3,221.0,79.0,5.0,3,5,3,1,2026-07-01T18:05:33.821231+05:30
Guntur,Andhra Pradesh,16.3067,80.4365,33.2,52,0.0,997.3,4.2,49.0,38,10.9,8.4,3.9,227.0,78.0,4.8,0,5,3,1,2026-07-01T18:05:33.821238+05:30
Nellore,Andhra Pradesh,14.4426,79.9865,33.3,49,0.0,1000.4,3.7,52.6,32,3.6,2.9,3.4,153.0,62.0,1.8,0,5,0,1,2026-07-01T18:05:33.821246+05:30
Kurnool,Andhra Pradesh,15.8281,78.0373,28.1,68,0.1,972.8,3.0,53.6,30,5.3,3.9,4.0,125.0,61.0,1.2,10,5,3,1,2026-07-01T18:05:33.821253+05:30
Kakinada,Andhra Pradesh,16.9891,82.2475,27.9,88,0.1,1000.6,5.0,52.6,51,7.8,7.1,4.1,207.0,94.0,3.8,10,5,0,1,2026-07-01T18:05:33.821260+05:30
Tirupati,Andhra Pradesh,13.6288,79.4192,31.5,52,0.0,986.8,3.55,49.3,29,4.7,4.5,10.2,127.0,46.0,1.0,0,5,3,1,2026-07-01T18:05:33.821267+05:30
Warangal,Telangana,17.9689,79.5941,28.2,78,0.0,972.5,2.3,41.0,38,9.7,9.0,8.9,160.0,56.0,2.4,7,5,3,1,2026-07-01T18:05:33.821273+05:30
Nizamabad,Telangana,18.6725,78.0941,27.7,79,0.1,958.3,1.95,37.4,35,8.6,8.1,4.1,162.0,80.0,7.2,10,5,3,1,2026-07-01T18:05:33.821280+05:30
Mysore,Karnataka,12.2958,76.6396,22.4,91,0.1,926.5,4.8,56.5,25,2.7,2.2,6.2,137.0,47.0,1.4,6,5,3,1,2026-07-01T18:05:33.821286+05:30
Mangalore,Karnataka,12.9141,74.856,25.2,94,0.3,1006.0,1.0,40.3,26,8.8,6.0,5.8,151.0,41.0,1.3,10,5,0,1,2026-07-01T18:05:33.821293+05:30
Hubli-Dharwad,Karnataka,15.3647,75.124,22.4,97,0.1,937.5,5.55,49.7,21,2.3,1.8,7.2,146.0,42.0,0.9,6,5,3,1,2026-07-01T18:05:33.821299+05:30
Belgaum,Karnataka,15.8497,74.4977,21.5,98,0.2,921.9,3.7,49.0,22,1.7,1.5,5.9,145.0,43.0,0.9,6,5,3,1,2026-07-01T18:05:37.062851+05:30
Coimbatore,Tamil Nadu,11.0168,76.9558,25.2,81,0.0,959.8,3.15,55.4,23,7.0,4.9,5.0,170.0,48.0,2.0,7,5,3,1,2026-07-01T18:05:37.062885+05:30
Madurai,Tamil Nadu,9.9252,78.1198,32.8,46,0.0,989.8,8.55,57.2,41,17.1,8.6,5.6,137.0,60.0,2.0,0,5,7,1,2026-07-01T18:05:37.062896+05:30
Trichy,Tamil Nadu,10.7905,78.7047,33.1,43,0.0,996.2,6.0,64.4,29,14.1,7.7,4.8,125.0,50.0,1.9,0,5,3,1,2026-07-01T18:05:37.062904+05:30
Salem,Tamil Nadu,11.6643,78.146,30.2,57,0.0,974.6,2.8,29.9,41,11.4,7.7,6.6,147.0,59.0,5.0,0,5,3,1,2026-07-01T18:05:37.062913+05:30
Tirunelveli,Tamil Nadu,8.7139,77.7567,32.7,47,0.0,1000.8,8.65,43.6,32,12.7,7.9,3.7,113.0,60.0,1.5,0,5,4,1,2026-07-01T18:05:37.062920+05:30
Vellore,Tamil Nadu,12.9165,79.1325,31.2,52,0.0,980.6,3.3,55.1,33,7.9,6.2,8.0,153.0,62.0,2.3,0,5,3,1,2026-07-01T18:05:37.062930+05:30
Erode,Tamil Nadu,11.341,77.7172,30.3,56,0.0,986.2,1.9,45.7,35,10.8,7.3,7.7,163.0,50.0,2.2,0,5,3,1,2026-07-01T18:05:37.062938+05:30
Kochi,Kerala,9.9312,76.2673,25.8,90,0.0,1008.7,3.35,35.6,50,19.3,11.7,5.7,171.0,60.0,3.3,7,0,0,1,2026-07-01T18:05:37.062946+05:30
Thiruvananthapuram,Kerala,8.5241,76.9366,26.7,85,0.0,1007.6,8.25,44.3,42,17.2,9.0,2.2,123.0,54.0,1.0,7,5,4,1,2026-07-01T18:05:37.062954+05:30
Kozhikode,Kerala,11.2588,75.7804,24.6,97,0.2,1008.1,1.6,33.5,24,10.9,5.9,1.7,195.0,50.0,0.8,6,0,0,1,2026-07-01T18:05:37.062961+05:30
Thrissur,Kerala,10.5276,76.2144,25.2,95,0.0,1007.1,2.55,35.6,51,13.5,9.1,5.0,200.0,55.0,2.2,7,5,0,1,2026-07-01T18:05:37.062970+05:30
Kannur,Kerala,11.8745,75.3704,24.8,97,0.3,1007.1,1.6,32.8,27,8.4,5.1,6.1,137.0,39.0,1.0,6,5,0,1,2026-07-01T18:05:37.062977+05:30
Patna,Bihar,25.5941,85.1376,28.7,89,0.0,992.7,8.05,27.7,162,42.4,40.6,10.7,360.0,149.0,12.0,7,5,7,1,2026-07-01T18:05:37.062984+05:30
Gaya,Bihar,24.7914,85.0002,28.3,93,0.2,985.9,8.55,20.2,145,38.0,37.3,7.5,282.0,131.0,9.0,10,5,7,1,2026-07-01T18:05:37.062992+05:30
Muzaffarpur,Bihar,26.1209,85.3647,30.1,88,0.0,992.3,7.6,29.2,169,44.5,42.8,10.9,381.0,145.0,11.0,3,5,7,1,2026-07-01T18:05:37.062998+05:30
Bhagalpur,Bihar,25.2425,87.0117,30.8,77,0.0,993.1,8.15,24.1,145,32.0,31.4,10.4,391.0,160.0,19.9,3,5,7,1,2026-07-01T18:05:37.063005+05:30
Ranchi,Jharkhand,23.3441,85.3096,25.7,89,0.2,930.5,8.95,24.1,87,17.6,17.3,4.0,290.0,134.0,6.5,10,5,7,1,2026-07-01T18:05:37.063012+05:30
Jamshedpur,Jharkhand,22.8046,86.2029,27.7,92,0.0,982.7,9.05,20.5,164,26.4,26.1,7.2,360.0,149.0,14.7,7,5,7,1,2026-07-01T18:05:37.063019+05:30
Dhanbad,Jharkhand,23.7957,86.4304,28.5,86,0.1,971.9,6.2,26.6,162,65.2,65.0,32.4,404.0,172.0,90.8,10,5,7,1,2026-07-01T18:05:37.063025+05:30
Bokaro,Jharkhand,23.6693,86.1511,28.4,87,0.1,975.7,7.55,28.4,164,69.8,69.4,32.3,656.0,202.0,107.2,10,5,7,1,2026-07-01T18:05:37.063032+05:30
Bhubaneswar,Odisha,20.2961,85.8245,29.0,84,0.0,993.8,6.35,29.5,58,8.5,8.3,7.5,331.0,89.0,4.7,7,5,7,1,2026-07-01T18:05:37.063039+05:30
Cuttack,Odisha,20.4625,85.8828,29.0,84,0.0,995.6,4.95,25.6,58,8.5,8.3,7.5,319.0,89.0,4.7,7,5,3,1,2026-07-01T18:05:37.063046+05:30
Rourkela,Odisha,22.2604,84.8536,30.3,75,0.0,976.4,5.55,33.1,98,21.5,21.3,6.4,1026.0,137.0,12.6,3,5,3,1,2026-07-01T18:05:37.063053+05:30
Raipur,Chhattisgarh,21.2514,81.6296,27.8,87,0.2,966.5,6.95,31.7,78,22.5,20.8,26.5,192.0,76.0,47.8,10,5,7,1,2026-07-01T18:05:37.063059+05:30
Bhilai,Chhattisgarh,21.1938,81.3509,27.7,86,0.0,966.9,1.95,32.4,71,18.9,17.7,27.2,253.0,73.0,46.3,7,5,3,1,2026-07-01T18:05:37.063066+05:30
Guwahati,Assam,26.1158,91.7086,26.8,98,0.0,995.0,8.6,22.0,43,7.9,7.9,6.7,334.0,70.0,1.5,7,5,7,1,2026-07-01T18:05:37.063073+05:30
Agartala,Tripura,23.8315,91.2868,28.8,82,0.0,999.1,8.45,33.1,71,15.2,15.0,9.5,189.0,76.0,1.4,7,5,7,1,2026-07-01T18:05:37.063080+05:30
Shillong,Meghalaya,25.5788,91.8933,21.9,86,0.0,853.6,7.4,23.0,36,6.2,6.1,6.9,215.0,71.0,2.1,3,5,7,1,2026-07-01T18:05:37.063087+05:30
Imphal,Manipur,24.817,93.9368,25.3,88,0.0,918.2,9.2,22.0,34,4.0,4.0,5.6,312.0,69.0,1.6,7,5,7,1,2026-07-01T18:05:37.063093+05:30
Aizawl,Mizoram,23.7271,92.7176,23.6,80,0.0,887.7,8.0,28.8,36,5.6,5.5,7.3,150.0,49.0,0.6,3,5,7,1,2026-07-01T18:05:37.063100+05:30
Kohima,Nagaland,25.6701,94.1077,21.8,95,0.1,851.8,5.45,22.0,29,3.3,3.3,4.5,207.0,57.0,0.6,6,5,3,1,2026-07-01T18:05:37.063107+05:30
Gangtok,Sikkim,27.3314,88.6138,19.7,96,0.0,834.6,7.5,26.6,87,12.5,11.7,5.1,305.0,121.0,1.5,3,10,7,1,2026-07-01T18:05:37.063114+05:30
Siliguri,West Bengal,26.7271,88.3953,28.1,88,0.1,986.4,8.6,26.6,110,35.7,33.3,6.8,447.0,122.0,2.8,10,5,7,1,2026-07-01T18:05:40.303311+05:30
Durgapur,West Bengal,23.5204,87.3119,29.8,78,0.0,986.6,8.6,22.0,165,53.9,53.4,24.0,465.0,146.0,42.3,7,5,7,1,2026-07-01T18:05:40.303342+05:30
Asansol,West Bengal,23.6739,86.9524,28.0,94,0.2,985.4,6.25,20.5,170,58.4,58.0,23.5,393.0,174.0,51.0,10,5,7,1,2026-07-01T18:05:40.303353+05:30
Pondicherry,Puducherry,11.9139,79.8145,33.1,55,0.1,1003.9,1.85,43.2,46,16.8,13.2,9.2,195.0,98.0,9.1,3,5,0,1,2026-07-01T18:05:40.303362+05:30
Port Blair,Andaman and Nicobar Islands,11.6234,92.7265,26.9,89,0.0,1004.0,4.85,50.4,31,9.7,6.0,0.5,113.0,63.0,0.4,7,5,0,1,2026-07-01T18:05:40.303370+05:30
Haridwar,Uttarakhand,29.9457,78.1642,30.3,72,0.0,966.0,4.95,24.5,92,117.1,42.3,3.4,232.0,141.0,7.3,3,5,3,1,2026-07-01T18:05:40.303378+05:30
Rishikesh,Uttarakhand,30.0869,78.2676,29.1,74,0.0,958.9,6.4,13.7,70,77.3,28.8,2.4,237.0,128.0,6.3,7,5,7,1,2026-07-01T18:05:40.303386+05:30
Nainital,Uttarakhand,29.3919,79.4542,19.2,97,0.0,802.0,5.6,20.9,82,46.3,20.7,2.7,247.0,122.0,2.6,3,10,3,1,2026-07-01T18:05:40.303394+05:30
Mussoorie,Uttarakhand,30.4599,78.0664,20.7,80,0.0,799.8,3.9,22.7,82,92.4,31.9,3.5,226.0,145.0,7.9,3,5,3,1,2026-07-01T18:05:40.303401+05:30
Dharamshala,Himachal Pradesh,32.219,76.3234,23.4,92,0.0,863.7,4.7,29.9,77,33.1,11.0,3.2,253.0,119.0,1.1,3,5,3,1,2026-07-01T18:05:40.303409+05:30
Dalhousie,Himachal Pradesh,32.5387,75.971,19.1,98,0.0,800.5,7.55,24.1,115,141.6,39.5,4.0,340.0,149.0,4.5,3,10,7,1,2026-07-01T18:05:40.303416+05:30
Patiala,Punjab,30.3398,76.3869,30.4,65,0.0,969.4,7.3,43.9,261,83.4,39.6,6.2,275.0,141.0,11.6,3,5,7,1,2026-07-01T18:05:40.303424+05:30
Bhatinda,Punjab,30.211,74.9455,36.0,51,0.0,973.1,8.25,39.6,961,555.1,159.7,10.1,164.0,135.0,11.3,0,5,10,1,2026-07-01T18:05:40.303431+05:30
Rohtak,Haryana,28.8955,76.6066,34.2,54,0.0,972.5,7.6,31.7,794,614.7,120.6,9.1,335.0,178.0,18.4,0,5,7,1,2026-07-01T18:05:40.303438+05:30
Panipat,Haryana,29.3909,76.9635,31.4,63,0.0,971.7,7.55,30.6,1126,568.1,106.6,9.4,257.0,165.0,25.3,3,5,7,1,2026-07-01T18:05:40.303445+05:30
Mathura,Uttar Pradesh,27.4924,77.6737,33.9,56,0.0,977.7,3.4,37.1,194,170.9,44.4,5.6,233.0,145.0,4.4,0,5,3,1,2026-07-01T18:05:40.303457+05:30
Vrindavan,Uttar Pradesh,27.5823,77.7027,33.7,58,0.0,978.1,4.45,35.6,194,170.9,44.4,5.6,230.0,145.0,4.4,0,5,3,1,2026-07-01T18:05:40.303463+05:30
Ayodhya,Uttar Pradesh,26.7922,82.1998,30.5,80,0.0,986.7,6.4,24.5,148,52.0,41.7,4.2,313.0,161.0,6.6,3,5,7,1,2026-07-01T18:05:40.303470+05:30
Ratlam,Madhya Pradesh,23.3315,75.0367,29.3,70,0.0,947.2,7.35,32.4,56,20.3,15.1,2.9,137.0,88.0,3.1,7,5,7,1,2026-07-01T18:05:40.303477+05:30
Sagar,Madhya Pradesh,23.8388,78.7378,28.9,73,0.0,942.7,8.05,37.4,71,33.8,17.5,3.0,178.0,104.0,1.8,7,5,7,1,2026-07-01T18:05:40.303484+05:30
Satna,Madhya Pradesh,24.6005,80.8322,28.0,87,0.1,963.0,8.2,29.9,72,76.1,29.8,2.8,191.0,110.0,2.1,10,5,7,1,2026-07-01T18:05:40.303491+05:30
Akola,Maharashtra,20.7002,77.0082,26.3,92,0.1,968.0,1.0,31.3,47,14.0,10.0,5.1,174.0,83.0,7.8,10,5,3,1,2026-07-01T18:05:40.303499+05:30
Amravati,Maharashtra,20.9374,77.7796,29.6,73,0.0,960.0,5.4,31.3,48,15.0,10.6,5.8,196.0,84.0,9.1,7,5,3,1,2026-07-01T18:05:40.303507+05:30
Latur,Maharashtra,18.4088,76.5604,24.6,89,0.1,934.2,5.35,44.6,29,3.4,2.8,2.9,155.0,59.0,0.7,6,5,3,1,2026-07-01T18:05:40.303514+05:30
Nanded,Maharashtra,19.1383,77.3091,26.0,93,0.2,962.4,1.95,33.5,31,5.1,4.7,3.7,170.0,74.0,4.2,10,5,3,1,2026-07-01T18:05:40.303521+05:30
Gulbarga,Karnataka,17.3297,76.8343,25.9,82,0.0,953.9,4.75,48.6,29,4.7,3.7,7.2,158.0,56.0,2.1,7,5,3,1,2026-07-01T18:05:40.303529+05:30
Bidar,Karnataka,17.9104,77.5199,25.1,84,0.2,930.1,6.3,49.7,30,9.6,6.4,5.1,164.0,68.0,1.5,10,5,7,1,2026-07-01T18:05:40.303536+05:30
Hospet,Karnataka,15.2689,76.3909,25.0,82,0.1,952.5,4.15,51.5,25,5.4,3.2,4.5,120.0,50.0,1.4,10,5,3,1,2026-07-01T18:05:40.303542+05:30
Tirupur,Tamil Nadu,11.1085,77.3411,27.5,69,0.0,972.5,3.35,60.5,40,10.1,7.2,7.5,154.0,52.0,3.0,7,5,3,1,2026-07-01T18:05:40.303549+05:30
Alappuzha,Kerala,9.4981,76.3388,26.1,88,0.2,1008.8,2.4,38.9,44,18.3,10.7,5.5,90.0,62.0,2.8,10,0,0,1,2026-07-01T18:05:40.303556+05:30
Munnar,Kerala,10.0889,77.0595,16.9,98,0.2,855.5,4.25,46.4,23,12.4,7.1,5.1,114.0,47.0,1.5,6,10,3,1,2026-07-01T18:05:40.303563+05:30
Silchar,Assam,24.8333,92.7789,27.7,94,0.0,998.4,8.65,27.0,58,12.2,12.0,5.2,234.0,76.0,3.4,7,5,7,1,2026-07-01T18:05:40.303570+05:30
Dibrugarh,Assam,27.4728,94.912,29.1,88,0.0,988.2,8.65,23.8,79,15.8,15.4,5.5,226.0,80.0,1.2,7,5,7,1,2026-07-01T18:05:40.303577+05:30
