city,state,latitude,longitude,temp,humidity,rain,pressure,uv_index,wind_gusts,aqi,pm10,pm2_5,no2,co,o3,so2,mosquito_risk,arthritis_risk,migraine_risk,frizz_risk,updated_at
Delhi,Delhi,28.6139,77.209,26.6,68,0.1,983.2,7.6,50.8,180,312.0,66.1,5.9,417.0,189.0,23.7,10,5,7,1,2026-05-31T14:19:51.590407+05:30
Mumbai,Maharashtra,19.076,72.8777,33.5,60,0.0,1008.1,7.8,40.3,61,32.0,20.0,3.1,147.0,95.0,5.1,0,0,4,1,2026-05-31T14:19:51.590468+05:30
Bangalore,Karnataka,12.9716,77.5946,30.7,51,0.0,912.2,9.25,42.8,82,17.7,13.1,1.5,201.0,135.0,2.9,0,5,7,1,2026-05-31T14:19:51.590485+05:30
Hyderabad,Telangana,17.385,78.4867,35.8,33,0.0,952.7,9.1,55.1,69,49.4,27.2,1.3,187.0,135.0,6.8,0,5,10,1,2026-05-31T14:19:51.590494+05:30
Chennai,Tamil Nadu,13.0827,80.2707,36.2,54,0.0,1004.7,8.2,38.2,84,31.1,24.0,3.1,295.0,150.0,8.3,0,5,7,1,2026-05-31T14:19:51.590502+05:30
Kolkata,West Bengal,22.5726,88.3639,34.6,55,0.0,1002.9,8.95,26.6,152,60.3,36.3,1.7,302.0,164.0,11.3,0,5,4,1,2026-05-31T14:19:51.590509+05:30
Pune,Maharashtra,18.5204,73.8567,33.4,43,0.1,948.6,6.2,42.1,52,38.5,17.8,1.2,126.0,106.0,4.6,3,5,7,1,2026-05-31T14:19:51.590516+05:30
Ahmedabad,Gujarat,23.0225,72.5714,38.8,34,0.0,999.4,8.1,53.3,71,72.6,21.7,1.1,128.0,88.0,4.0,0,5,10,1,2026-05-31T14:19:51.590522+05:30
Jaipur,Rajasthan,26.9124,75.7873,36.6,26,0.0,959.1,8.15,41.4,88,121.5,26.7,0.7,156.0,120.0,3.7,0,5,10,0,2026-05-31T14:19:51.590534+05:30
Lucknow,Uttar Pradesh,26.8467,80.9462,34.5,47,0.0,992.7,8.15,41.0,100,76.6,26.8,1.1,265.0,178.0,7.1,0,5,7,1,2026-05-31T14:19:51.590541+05:30
Kanpur,Uttar Pradesh,26.4499,80.3319,35.2,42,0.0,991.1,8.15,54.7,124,115.3,32.5,1.2,274.0,185.0,8.7,0,5,10,1,2026-05-31T14:19:51.590548+05:30
Chandigarh,Chandigarh,30.7333,76.7794,30.2,41,0.0,969.6,6.25,39.2,85,71.5,26.3,2.0,302.0,173.0,8.0,0,5,7,0,2026-05-31T14:19:51.590554+05:30
Srinagar,Jammu and Kashmir,34.0837,74.7973,26.5,38,0.0,842.8,9.0,27.0,118,64.3,26.0,0.7,325.0,155.0,3.7,4,5,7,0,2026-05-31T14:19:51.590562+05:30
Jammu,Jammu and Kashmir,32.7266,74.857,31.5,38,0.0,973.8,8.5,28.1,119,129.9,42.5,1.2,260.0,176.0,3.5,0,5,7,0,2026-05-31T14:19:51.590569+05:30
Amritsar,Punjab,31.634,74.8723,32.7,39,0.0,981.3,8.3,35.6,88,135.0,35.3,0.9,260.0,164.0,5.4,0,5,7,1,2026-05-31T14:19:51.590578+05:30
Ludhiana,Punjab,30.901,75.8573,32.2,40,0.0,979.0,7.85,38.5,98,198.4,45.4,1.2,266.0,160.0,6.8,0,5,7,1,2026-05-31T14:19:51.590592+05:30
Jalandhar,Punjab,31.326,75.5762,32.4,38,0.0,980.1,8.05,38.2,108,236.1,51.6,1.0,256.0,167.0,7.6,0,5,7,1,2026-05-31T14:19:51.590598+05:30
Dehradun,Uttarakhand,30.6284,78.0322,21.2,45,0.0,832.6,7.55,30.2,75,30.3,15.9,0.7,233.0,156.0,2.4,0,5,7,0,2026-05-31T14:19:51.590604+05:30
Shimla,Himachal Pradesh,31.1048,77.1734,18.0,55,0.1,786.9,3.95,22.3,85,29.6,16.2,1.8,269.0,155.0,2.6,3,5,3,0,2026-05-31T14:19:51.590613+05:30
Manali,Himachal Pradesh,32.2396,77.1887,19.6,63,0.0,820.1,6.85,33.5,81,15.0,6.8,0.3,157.0,165.0,0.2,3,5,7,0,2026-05-31T14:19:51.590619+05:30
Gurgaon,Haryana,28.4595,77.0266,34.8,34,0.0,980.3,7.7,46.4,982,445.2,73.8,3.6,326.0,170.0,12.5,0,5,7,1,2026-05-31T14:19:51.590625+05:30
Noida,Uttar Pradesh,28.5355,77.391,25.9,76,0.1,984.9,7.6,51.5,982,445.2,73.8,3.6,371.0,170.0,12.5,10,5,7,1,2026-05-31T14:19:51.590632+05:30
Ghaziabad,Uttar Pradesh,28.6692,77.4538,23.7,94,0.1,982.9,7.6,54.4,114,149.0,36.9,2.0,335.0,167.0,10.2,6,5,7,1,2026-05-31T14:19:51.590640+05:30
Faridabad,Haryana,28.4089,77.3178,28.9,57,0.1,983.7,7.65,49.7,982,445.2,73.8,3.6,337.0,170.0,12.5,7,5,7,1,2026-05-31T14:19:51.590646+05:30
Meerut,Uttar Pradesh,28.9845,77.7064,24.0,90,0.4,982.6,6.9,35.6,114,149.0,36.9,2.0,303.0,167.0,10.2,6,5,7,1,2026-05-31T14:19:51.590652+05:30
Agra,Uttar Pradesh,27.1767,78.0081,35.7,33,0.0,986.8,7.95,33.1,580,201.2,38.5,1.0,236.0,161.0,5.3,0,5,10,1,2026-05-31T14:19:51.590658+05:30
Varanasi,Uttar Pradesh,25.3176,82.9739,35.5,42,0.0,995.8,8.7,31.0,108,49.0,30.5,1.2,339.0,186.0,8.4,0,5,10,1,2026-05-31T14:19:51.590664+05:30
Prayagraj,Uttar Pradesh,25.4358,81.8463,37.0,33,0.0,994.2,8.55,25.2,109,50.2,27.5,1.3,285.0,186.0,8.0,0,5,10,1,2026-05-31T14:19:51.590671+05:30
Gorakhpur,Uttar Pradesh,26.7606,83.3732,34.6,45,0.0,995.9,8.55,26.3,114,47.8,32.9,1.5,314.0,175.0,9.6,0,5,7,1,2026-05-31T14:19:51.590680+05:30
Bareilly,Uttar Pradesh,28.367,79.4304,31.2,54,0.0,987.1,7.95,33.5,86,18.7,13.6,1.0,259.0,145.0,2.1,0,5,7,1,2026-05-31T14:19:51.590686+05:30
Aligarh,Uttar Pradesh,27.8974,78.088,34.6,38,0.0,984.8,7.75,44.6,179,261.7,46.7,1.5,282.0,166.0,8.5,0,5,7,1,2026-05-31T14:19:51.590692+05:30
Moradabad,Uttar Pradesh,28.8386,78.7733,31.5,49,0.0,984.1,7.75,30.2,95,23.2,16.8,1.7,279.0,155.0,6.2,0,5,7,1,2026-05-31T14:19:51.590698+05:30
Saharanpur,Uttar Pradesh,29.9637,77.546,29.4,51,0.0,976.7,3.9,32.8,83,35.7,24.9,1.5,289.0,164.0,7.0,4,5,3,1,2026-05-31T14:19:51.590704+05:30
Jhansi,Uttar Pradesh,25.4484,78.5685,35.5,33,0.0,977.2,8.4,19.4,71,19.2,11.8,1.1,228.0,158.0,8.7,0,5,10,1,2026-05-31T14:19:54.902037+05:30
Surat,Gujarat,21.1702,72.8311,35.0,51,0.0,1005.8,7.7,49.7,78,40.5,24.6,7.8,233.0,68.0,29.1,0,5,4,1,2026-05-31T14:19:54.902071+05:30
Vadodara,Gujarat,22.3072,73.1812,38.5,33,0.0,1001.9,8.05,43.6,74,57.2,21.4,1.0,130.0,89.0,2.5,0,5,7,1,2026-05-31T14:19:54.902081+05:30
Rajkot,Gujarat,22.3039,70.8022,39.5,32,0.0,991.9,7.7,43.6,66,61.9,25.4,0.7,111.0,90.0,3.4,0,5,10,1,2026-05-31T14:19:54.902090+05:30
Thane,Maharashtra,19.2183,72.9781,35.0,51,0.0,1007.1,7.8,37.1,61,32.0,20.0,3.1,141.0,95.0,5.1,0,5,4,1,2026-05-31T14:19:54.902097+05:30
Nagpur,Maharashtra,21.1458,79.0882,39.9,19,0.0,971.0,8.8,39.6,91,48.4,25.0,5.2,170.0,161.0,27.5,0,5,10,0,2026-05-31T14:19:54.902105+05:30
Nashik,Maharashtra,19.9975,73.7898,34.3,44,0.0,945.8,8.1,46.8,57,44.7,16.9,0.6,117.0,80.0,1.1,0,5,7,1,2026-05-31T14:19:54.902112+05:30
Aurangabad,Maharashtra,19.8762,75.3433,38.6,20,0.0,943.4,8.9,51.8,63,57.9,20.2,0.7,123.0,99.0,2.5,0,5,10,0,2026-05-31T14:19:54.902120+05:30
Solapur,Maharashtra,17.6599,75.9064,37.8,27,0.0,956.5,8.95,62.3,61,43.8,17.5,0.9,125.0,101.0,2.3,0,5,10,0,2026-05-31T14:19:54.902127+05:30
Kolhapur,Maharashtra,16.705,74.2433,33.7,42,0.0,948.3,8.75,47.5,39,16.4,8.1,0.8,128.0,87.0,1.3,0,5,7,1,2026-05-31T14:19:54.902134+05:30
Goa,Goa,15.2993,74.124,35.0,52,0.0,997.5,8.0,33.1,51,15.5,9.8,0.4,134.0,64.0,1.1,0,5,7,1,2026-05-31T14:19:54.902140+05:30
Jodhpur,Rajasthan,26.2389,73.0243,37.7,33,0.0,981.6,8.4,39.6,91,179.3,35.5,0.5,117.0,89.0,1.8,0,5,10,1,2026-05-31T14:19:54.902147+05:30
Udaipur,Rajasthan,24.5854,73.7125,35.3,35,0.0,946.1,8.8,36.7,67,66.4,23.0,0.5,126.0,95.0,3.0,0,5,10,1,2026-05-31T14:19:54.902154+05:30
Kota,Rajasthan,25.2138,75.8648,37.5,27,0.0,977.5,8.3,28.8,61,43.0,17.8,0.6,138.0,129.0,5.7,0,5,10,0,2026-05-31T14:19:54.902161+05:30
Bikaner,Rajasthan,28.0229,73.3119,37.0,33,0.0,980.4,8.35,28.1,59,206.3,41.1,0.3,132.0,100.0,3.3,0,5,10,1,2026-05-31T14:19:54.902168+05:30
Ajmer,Rajasthan,26.4499,74.6399,34.0,39,0.0,954.4,8.3,40.3,53,76.4,22.4,0.4,123.0,103.0,2.2,0,5,7,1,2026-05-31T14:19:54.902174+05:30
Gwalior,Madhya Pradesh,26.2183,78.1828,34.7,36,0.0,982.3,8.1,19.1,83,35.4,15.5,0.6,221.0,147.0,5.1,0,5,7,1,2026-05-31T14:19:54.902181+05:30
Indore,Madhya Pradesh,22.7196,75.8577,36.1,28,0.0,947.8,8.35,67.7,68,45.6,20.1,0.7,151.0,103.0,3.3,0,5,10,0,2026-05-31T14:19:54.902187+05:30
Bhopal,Madhya Pradesh,23.2599,77.4126,37.0,24,0.0,952.7,8.6,42.1,59,34.2,14.4,0.6,167.0,130.0,4.3,0,5,10,0,2026-05-31T14:19:54.902194+05:30
Jabalpur,Madhya Pradesh,23.1815,79.9864,37.0,23,0.0,960.1,8.8,48.6,68,34.2,14.7,0.7,177.0,138.0,3.5,0,5,10,0,2026-05-31T14:19:54.902200+05:30
Ujjain,Madhya Pradesh,23.1765,75.7885,35.9,32,0.0,953.2,8.45,52.6,67,50.1,22.0,0.7,139.0,104.0,4.2,0,5,10,1,2026-05-31T14:19:54.902208+05:30
Visakhapatnam,Andhra Pradesh,17.6868,83.2185,33.7,64,0.0,999.6,8.9,44.6,108,51.9,44.5,11.8,515.0,166.0,46.1,3,5,7,1,2026-05-31T14:19:54.902215+05:30
Vijayawada,Andhra Pradesh,16.5062,80.648,40.3,30,0.0,999.1,9.0,41.4,76,42.4,25.1,1.1,186.0,147.0,5.6,0,5,10,1,2026-05-31T14:19:54.902221+05:30
Guntur,Andhra Pradesh,16.3067,80.4365,39.5,33,0.0,1000.3,8.55,45.0,73,46.7,26.8,1.1,174.0,142.0,4.8,0,5,7,1,2026-05-31T14:19:54.902228+05:30
Nellore,Andhra Pradesh,14.4426,79.9865,39.8,34,0.0,1002.4,8.45,33.1,69,23.7,18.6,2.0,153.0,150.0,6.4,0,5,7,1,2026-05-31T14:19:54.902237+05:30
Kurnool,Andhra Pradesh,15.8281,78.0373,37.4,37,0.0,975.6,9.0,55.1,58,38.6,21.3,1.1,139.0,122.0,7.3,0,5,10,1,2026-05-31T14:19:54.902245+05:30
Kakinada,Andhra Pradesh,16.9891,82.2475,36.8,51,0.0,1003.5,9.0,37.8,79,30.2,22.4,1.5,245.0,139.0,3.7,0,5,7,1,2026-05-31T14:19:54.902252+05:30
Tirupati,Andhra Pradesh,13.6288,79.4192,39.0,32,0.0,988.4,9.05,34.9,71,21.8,15.1,0.4,142.0,129.0,2.5,0,5,10,1,2026-05-31T14:19:54.902259+05:30
Warangal,Telangana,17.9689,79.5941,37.8,33,0.0,976.6,8.6,59.0,91,53.2,26.8,1.3,168.0,140.0,7.8,0,5,10,1,2026-05-31T14:19:54.902265+05:30
Nizamabad,Telangana,18.6725,78.0941,37.3,32,0.0,963.6,9.0,40.0,84,52.5,24.0,0.7,141.0,109.0,2.9,0,5,10,1,2026-05-31T14:19:54.902272+05:30
Mysore,Karnataka,12.2958,76.6396,33.3,42,0.0,928.8,9.1,44.6,53,15.1,10.1,1.0,148.0,118.0,1.5,0,5,7,1,2026-05-31T14:19:54.902279+05:30
Mangalore,Karnataka,12.9141,74.856,31.1,72,0.1,1007.1,8.6,29.5,42,10.1,6.6,1.1,122.0,80.0,1.6,6,5,4,1,2026-05-31T14:19:54.902285+05:30
Hubli-Dharwad,Karnataka,15.3647,75.124,35.5,40,0.0,941.5,8.9,43.6,37,16.5,8.4,0.8,130.0,93.0,0.9,0,5,10,1,2026-05-31T14:19:54.902292+05:30
Belgaum,Karnataka,15.8497,74.4977,33.3,43,0.0,927.0,7.55,44.6,29,16.8,8.2,0.8,126.0,82.0,1.3,0,5,7,1,2026-05-31T14:19:58.212194+05:30
Coimbatore,Tamil Nadu,11.0168,76.9558,33.1,45,0.2,961.4,8.1,43.2,37,15.9,8.9,1.4,147.0,99.0,2.0,3,5,7,1,2026-05-31T14:19:58.212230+05:30
Madurai,Tamil Nadu,9.9252,78.1198,38.2,34,0.0,991.2,8.7,33.1,75,29.0,15.4,1.4,163.0,152.0,3.0,0,5,10,1,2026-05-31T14:19:58.212241+05:30
Trichy,Tamil Nadu,10.7905,78.7047,37.8,39,0.0,997.5,8.9,34.2,53,14.8,9.7,0.9,131.0,128.0,2.7,0,5,10,1,2026-05-31T14:19:58.212250+05:30
Salem,Tamil Nadu,11.6643,78.146,38.1,31,0.0,975.9,8.95,47.9,72,27.9,19.7,2.3,157.0,175.0,10.0,0,5,10,1,2026-05-31T14:19:58.212258+05:30
Tirunelveli,Tamil Nadu,8.7139,77.7567,36.9,38,0.0,1001.6,8.35,24.5,29,9.8,5.4,0.9,120.0,82.0,0.8,0,5,7,1,2026-05-31T14:19:58.212265+05:30
Vellore,Tamil Nadu,12.9165,79.1325,37.6,35,0.0,982.1,8.7,37.1,98,25.6,17.9,0.4,162.0,147.0,2.5,0,5,10,1,2026-05-31T14:19:58.212273+05:30
Erode,Tamil Nadu,11.341,77.7172,38.8,31,0.0,987.2,8.5,27.7,52,19.1,11.3,1.2,168.0,138.0,2.2,0,5,10,1,2026-05-31T14:19:58.212280+05:30
Kochi,Kerala,9.9312,76.2673,30.4,73,0.0,1009.0,7.7,32.8,61,10.5,7.0,1.8,106.0,84.0,2.6,3,0,4,1,2026-05-31T14:19:58.212287+05:30
Thiruvananthapuram,Kerala,8.5241,76.9366,29.5,77,0.0,1008.4,7.3,31.3,29,8.1,4.9,0.6,98.0,71.0,0.5,7,0,4,1,2026-05-31T14:19:58.212294+05:30
Kozhikode,Kerala,11.2588,75.7804,29.2,83,0.1,1008.5,8.65,29.2,29,5.9,3.4,0.3,117.0,68.0,0.5,10,0,4,1,2026-05-31T14:19:58.212302+05:30
Thrissur,Kerala,10.5276,76.2144,30.6,73,0.1,1007.3,7.95,32.4,56,9.9,6.9,1.6,109.0,81.0,2.0,6,5,4,1,2026-05-31T14:19:58.212310+05:30
Kannur,Kerala,11.8745,75.3704,29.7,81,0.0,1008.0,7.2,31.0,39,7.9,5.2,1.3,110.0,70.0,1.0,7,0,4,1,2026-05-31T14:19:58.212318+05:30
Patna,Bihar,25.5941,85.1376,34.3,51,0.0,998.5,8.8,33.5,152,85.9,59.0,1.2,345.0,219.0,17.1,0,5,7,1,2026-05-31T14:19:58.212324+05:30
Gaya,Bihar,24.7914,85.0002,35.0,48,0.0,991.7,8.85,21.2,152,74.5,56.0,1.3,304.0,205.0,19.9,0,5,7,1,2026-05-31T14:19:58.212331+05:30
Muzaffarpur,Bihar,26.1209,85.3647,34.0,52,0.0,998.6,8.8,33.5,138,84.5,59.0,1.5,380.0,217.0,18.0,0,5,7,1,2026-05-31T14:19:58.212338+05:30
Bhagalpur,Bihar,25.2425,87.0117,34.6,52,0.0,998.5,8.8,25.9,157,100.1,67.1,2.6,306.0,230.0,30.2,0,5,7,1,2026-05-31T14:19:58.212344+05:30
Ranchi,Jharkhand,23.3441,85.3096,25.9,81,0.3,936.8,9.25,32.4,129,53.4,34.6,1.3,228.0,147.0,6.4,10,5,7,1,2026-05-31T14:19:58.212352+05:30
Jamshedpur,Jharkhand,22.8046,86.2029,34.5,52,0.0,988.3,5.55,36.7,115,57.5,37.0,1.3,369.0,164.0,12.6,0,5,3,1,2026-05-31T14:19:58.212359+05:30
Dhanbad,Jharkhand,23.7957,86.4304,33.5,51,0.0,977.8,8.85,24.5,164,85.0,66.6,10.9,294.0,212.0,54.6,0,5,7,1,2026-05-31T14:19:58.212366+05:30
Bokaro,Jharkhand,23.6693,86.1511,33.1,57,0.0,981.6,9.05,27.0,172,86.1,67.1,13.5,1278.0,214.0,62.9,0,5,7,1,2026-05-31T14:19:58.212372+05:30
Bhubaneswar,Odisha,20.2961,85.8245,32.8,66,0.0,999.5,9.05,26.3,104,31.3,22.5,2.5,202.0,133.0,5.0,3,5,7,1,2026-05-31T14:19:58.212379+05:30
Cuttack,Odisha,20.4625,85.8828,33.5,67,0.0,1001.2,9.1,24.5,104,31.3,22.5,2.5,214.0,133.0,5.0,3,5,4,1,2026-05-31T14:19:58.212386+05:30
Rourkela,Odisha,22.2604,84.8536,33.2,54,0.1,982.6,8.35,37.1,139,65.9,45.1,1.7,246.0,187.0,17.4,3,5,7,1,2026-05-31T14:19:58.212392+05:30
Raipur,Chhattisgarh,21.2514,81.6296,39.2,24,0.0,972.3,8.85,31.3,126,44.9,28.0,5.3,215.0,175.0,25.9,0,5,10,0,2026-05-31T14:19:58.212399+05:30
Bhilai,Chhattisgarh,21.1938,81.3509,38.3,27,0.0,972.6,8.95,29.5,131,52.0,32.8,7.7,200.0,177.0,39.1,0,5,10,0,2026-05-31T14:19:58.212405+05:30
Guwahati,Assam,26.1158,91.7086,33.3,56,0.0,998.1,8.75,29.9,64,37.1,22.2,1.0,310.0,127.0,2.4,0,5,7,1,2026-05-31T14:19:58.212412+05:30
Agartala,Tripura,23.8315,91.2868,33.8,54,0.0,1002.7,8.85,23.8,156,57.3,34.6,2.8,289.0,204.0,8.4,0,5,4,1,2026-05-31T14:19:58.212419+05:30
Shillong,Meghalaya,25.5788,91.8933,24.4,72,0.0,857.5,9.05,23.8,64,36.7,20.2,1.4,231.0,116.0,2.5,3,5,7,1,2026-05-31T14:19:58.212425+05:30
Imphal,Manipur,24.817,93.9368,26.4,79,0.0,922.1,9.0,24.5,74,3.2,2.8,0.8,200.0,72.0,0.7,7,5,7,1,2026-05-31T14:19:58.212432+05:30
Aizawl,Mizoram,23.7271,92.7176,25.2,71,0.1,891.3,8.2,27.7,46,16.8,8.2,0.6,212.0,79.0,0.5,10,5,7,1,2026-05-31T14:19:58.212439+05:30
Kohima,Nagaland,25.6701,94.1077,22.5,98,0.0,855.2,2.15,23.0,55,16.8,10.9,1.4,190.0,78.0,0.6,3,5,3,1,2026-05-31T14:19:58.212446+05:30
Gangtok,Sikkim,27.3314,88.6138,24.5,52,0.1,839.9,9.15,42.5,67,32.0,18.2,0.5,194.0,130.0,1.8,3,5,7,0,2026-05-31T14:19:58.212470+05:30
Siliguri,West Bengal,26.7271,88.3953,33.2,56,0.1,990.5,8.65,20.2,139,61.7,36.2,1.1,286.0,165.0,4.4,3,5,7,1,2026-05-31T14:20:19.197588+05:30
Durgapur,West Bengal,23.5204,87.3119,33.8,60,0.0,992.5,8.95,23.8,160,80.8,64.5,8.7,296.0,231.0,53.0,0,5,7,1,2026-05-31T14:20:19.197624+05:30
Asansol,West Bengal,23.6739,86.9524,33.8,58,0.0,991.2,9.0,29.2,156,82.4,65.9,8.0,486.0,219.0,49.8,0,5,7,1,2026-05-31T14:20:19.197635+05:30
Pondicherry,Puducherry,11.9139,79.8145,35.8,53,0.0,1005.9,8.8,38.9,77,37.8,31.7,5.4,249.0,192.0,12.0,0,5,7,1,2026-05-31T14:20:19.197644+05:30
Port Blair,Andaman and Nicobar Islands,11.6234,92.7265,28.6,81,0.0,1005.5,8.0,36.0,37,7.5,4.7,0.3,119.0,75.0,0.4,7,5,4,1,2026-05-31T14:20:19.197652+05:30
Haridwar,Uttarakhand,29.9457,78.1642,29.0,55,0.1,975.2,6.4,27.4,89,27.0,21.6,1.1,260.0,163.0,5.9,7,5,7,1,2026-05-31T14:20:19.197660+05:30
Rishikesh,Uttarakhand,30.0869,78.2676,29.6,43,0.1,967.8,6.85,29.9,104,24.3,18.0,0.7,239.0,158.0,4.4,7,5,7,0,2026-05-31T14:20:19.197668+05:30
Nainital,Uttarakhand,29.3919,79.4542,16.4,85,0.1,807.4,6.15,25.6,75,16.4,9.6,0.6,253.0,141.0,1.6,6,10,7,0,2026-05-31T14:20:19.197675+05:30
Mussoorie,Uttarakhand,30.4599,78.0664,18.9,47,0.0,805.1,7.25,37.4,83,31.4,18.7,0.8,228.0,161.0,4.6,0,5,7,0,2026-05-31T14:20:19.197683+05:30
Dharamshala,Himachal Pradesh,32.219,76.3234,22.0,48,0.0,871.1,7.85,36.7,50,24.3,10.1,0.7,220.0,144.0,0.9,0,5,7,0,2026-05-31T14:20:19.197691+05:30
Dalhousie,Himachal Pradesh,32.5387,75.971,18.1,76,0.0,806.9,7.4,23.0,86,56.1,18.9,1.1,226.0,166.0,2.6,3,5,7,0,2026-05-31T14:20:19.197698+05:30
Patiala,Punjab,30.3398,76.3869,31.0,45,0.0,978.6,7.5,44.6,145,163.0,41.3,1.7,282.0,158.0,9.0,0,5,7,1,2026-05-31T14:20:19.197706+05:30
Bhatinda,Punjab,30.211,74.9455,33.8,40,0.0,983.3,8.2,33.5,275,410.7,80.6,2.4,253.0,184.0,17.5,0,5,7,1,2026-05-31T14:20:19.197714+05:30
Rohtak,Haryana,28.8955,76.6066,32.3,42,0.0,981.4,7.6,47.5,492,375.3,76.4,4.4,267.0,188.0,18.3,0,5,7,1,2026-05-31T14:20:19.197721+05:30
Panipat,Haryana,29.3909,76.9635,26.9,69,0.1,981.2,7.4,32.4,698,166.7,45.3,5.7,273.0,178.0,21.9,10,5,7,1,2026-05-31T14:20:19.197728+05:30
Mathura,Uttar Pradesh,27.4924,77.6737,35.0,35,0.0,985.7,7.9,40.3,562,243.1,43.1,1.0,279.0,156.0,3.8,0,5,7,1,2026-05-31T14:20:19.197736+05:30
Vrindavan,Uttar Pradesh,27.5823,77.7027,35.0,35,0.0,986.1,7.85,39.6,562,243.1,43.1,1.0,279.0,156.0,3.8,0,5,7,1,2026-05-31T14:20:19.197743+05:30
Ayodhya,Uttar Pradesh,26.7922,82.1998,34.0,46,0.0,994.4,8.25,38.5,103,43.4,26.4,0.9,304.0,171.0,6.2,0,5,7,1,2026-05-31T14:20:19.197750+05:30
Ratlam,Madhya Pradesh,23.3315,75.0367,36.2,32,0.0,954.2,8.45,47.2,68,50.2,23.4,0.6,127.0,102.0,4.5,0,5,10,1,2026-05-31T14:20:19.197758+05:30
Sagar,Madhya Pradesh,23.8388,78.7378,32.7,39,0.0,949.9,8.65,49.0,68,21.2,7.9,0.5,150.0,135.0,2.7,0,5,7,1,2026-05-31T14:20:19.197765+05:30
Satna,Madhya Pradesh,24.6005,80.8322,36.0,28,0.1,970.0,8.7,30.6,90,41.8,18.8,0.7,238.0,156.0,7.6,3,5,10,0,2026-05-31T14:20:19.197772+05:30
Akola,Maharashtra,20.7002,77.0082,37.8,24,0.0,973.7,8.7,64.1,73,45.2,19.8,1.3,130.0,119.0,6.4,0,5,10,0,2026-05-31T14:20:19.197781+05:30
Amravati,Maharashtra,20.9374,77.7796,36.8,25,0.0,966.3,8.75,48.6,73,39.7,18.3,1.6,149.0,127.0,7.7,0,5,10,0,2026-05-31T14:20:19.197789+05:30
Latur,Maharashtra,18.4088,76.5604,37.7,23,0.0,939.6,8.95,44.3,61,69.6,22.4,0.7,132.0,99.0,2.5,0,5,10,0,2026-05-31T14:20:19.197796+05:30
Nanded,Maharashtra,19.1383,77.3091,38.5,26,0.0,966.9,8.9,47.2,73,67.1,24.7,0.8,128.0,102.0,2.3,0,5,10,0,2026-05-31T14:20:19.197803+05:30
Gulbarga,Karnataka,17.3297,76.8343,37.6,26,0.0,958.1,8.95,52.2,56,42.0,18.0,1.0,131.0,106.0,2.5,0,5,10,0,2026-05-31T14:20:19.197810+05:30
Bidar,Karnataka,17.9104,77.5199,35.2,33,0.0,935.5,9.0,45.4,70,64.0,27.4,1.0,139.0,118.0,5.1,0,5,10,1,2026-05-31T14:20:19.197817+05:30
Hospet,Karnataka,15.2689,76.3909,34.2,48,0.0,955.6,8.9,52.2,47,18.2,10.0,1.2,145.0,98.0,2.9,0,5,7,1,2026-05-31T14:20:19.197824+05:30
Tirupur,Tamil Nadu,11.1085,77.3411,37.5,33,0.0,973.8,8.45,36.0,53,19.0,11.3,1.3,143.0,132.0,2.5,0,5,10,1,2026-05-31T14:20:19.197831+05:30
Alappuzha,Kerala,9.4981,76.3388,29.5,76,0.0,1009.1,6.4,27.7,41,8.3,5.1,1.2,101.0,73.0,1.1,7,0,4,1,2026-05-31T14:20:19.197838+05:30
Munnar,Kerala,10.0889,77.0595,21.5,88,0.0,858.3,7.8,25.9,31,29.5,12.1,0.6,117.0,102.0,1.6,3,5,7,1,2026-05-31T14:20:19.197846+05:30
Silchar,Assam,24.8333,92.7789,33.5,60,0.0,1001.2,8.2,20.2,117,38.4,21.0,1.3,219.0,113.0,3.0,0,5,4,1,2026-05-31T14:20:19.197853+05:30
Dibrugarh,Assam,27.4728,94.912,31.7,71,0.0,992.4,3.4,22.7,119,20.3,15.5,0.8,182.0,98.0,1.1,3,5,3,1,2026-05-31T14:20:19.197860+05:30
