city,state,latitude,longitude,temp,humidity,rain,pressure,uv_index,wind_gusts,aqi,pm10,pm2_5,mosquito_risk,arthritis_risk,migraine_risk,frizz_risk,updated_at
Delhi,Delhi,28.6139,77.209,30.3,34,0.0,987.2,7.15,33.8,756,409.8,60.8,0,5,7,0,2026-04-11T13:21:50.372054+05:30
Mumbai,Maharashtra,19.076,72.8777,28.2,82,0.0,1009.9,7.95,24.1,112,79.9,53.1,7,0,4,1,2026-04-11T13:21:50.372100+05:30
Bangalore,Karnataka,12.9716,77.5946,33.4,36,0.0,914.1,9.65,27.4,86,40.7,27.4,0,5,7,1,2026-04-11T13:21:50.372117+05:30
Hyderabad,Telangana,17.385,78.4867,38.0,25,0.0,955.1,9.2,19.1,103,36.1,24.9,0,5,10,0,2026-04-11T13:21:50.372128+05:30
Chennai,Tamil Nadu,13.0827,80.2707,36.2,48,0.0,1008.5,9.15,36.4,58,25.0,17.2,0,0,7,1,2026-04-11T13:21:50.372137+05:30
Kolkata,West Bengal,22.5726,88.3639,32.7,48,0.0,1007.3,8.75,20.2,139,59.1,40.2,0,5,4,1,2026-04-11T13:21:50.372146+05:30
Pune,Maharashtra,18.5204,73.8567,38.6,22,0.0,950.7,8.55,39.6,97,35.9,20.3,0,5,10,0,2026-04-11T13:21:50.372157+05:30
Ahmedabad,Gujarat,23.0225,72.5714,38.7,16,0.0,1005.0,8.05,18.4,74,30.4,15.5,0,5,7,0,2026-04-11T13:21:50.372165+05:30
Jaipur,Rajasthan,26.9124,75.7873,34.5,21,0.0,963.5,7.85,37.4,97,150.4,21.9,0,5,7,0,2026-04-11T13:21:50.372173+05:30
Lucknow,Uttar Pradesh,26.8467,80.9462,34.6,23,0.0,995.6,7.65,46.1,254,199.3,46.2,0,5,7,0,2026-04-11T13:21:50.372182+05:30
Kanpur,Uttar Pradesh,26.4499,80.3319,33.3,30,0.0,994.8,7.65,40.7,613,556.9,75.9,0,5,7,0,2026-04-11T13:21:50.372189+05:30
Chandigarh,Chandigarh,30.7333,76.7794,30.4,30,0.0,972.1,7.15,33.8,61,39.5,16.2,0,5,7,0,2026-04-11T13:21:50.372197+05:30
Srinagar,Jammu and Kashmir,34.0837,74.7973,12.5,71,0.1,843.1,7.45,18.0,85,46.4,13.3,6,5,7,0,2026-04-11T13:21:50.372204+05:30
Jammu,Jammu and Kashmir,32.7266,74.857,26.3,42,0.0,976.9,6.65,17.6,63,89.9,18.8,4,5,7,0,2026-04-11T13:21:50.372211+05:30
Amritsar,Punjab,31.634,74.8723,28.0,42,0.0,985.0,7.7,20.9,57,82.7,23.0,4,5,7,0,2026-04-11T13:21:50.372218+05:30
Ludhiana,Punjab,30.901,75.8573,30.3,31,0.0,982.4,7.35,33.8,57,52.5,18.0,0,5,7,0,2026-04-11T13:21:50.372225+05:30
Jalandhar,Punjab,31.326,75.5762,29.2,34,0.0,983.8,7.5,27.0,59,75.0,20.4,4,5,7,0,2026-04-11T13:21:50.372236+05:30
Dehradun,Uttarakhand,30.6284,78.0322,20.1,51,0.0,833.1,7.5,48.6,54,46.4,10.9,0,5,7,0,2026-04-11T13:21:50.372243+05:30
Shimla,Himachal Pradesh,31.1048,77.1734,17.3,48,0.0,787.9,7.5,46.1,68,37.4,10.5,0,5,7,0,2026-04-11T13:21:50.372250+05:30
Manali,Himachal Pradesh,32.2396,77.1887,16.4,55,0.0,821.8,9.1,33.1,108,33.2,9.1,0,5,7,0,2026-04-11T13:21:50.372256+05:30
Gurgaon,Haryana,28.4595,77.0266,29.3,39,0.0,985.6,7.3,26.3,1941,1411.9,143.4,4,5,7,0,2026-04-11T13:21:50.372263+05:30
Noida,Uttar Pradesh,28.5355,77.391,30.6,34,0.0,988.7,7.2,33.5,1941,1411.9,143.4,0,5,7,0,2026-04-11T13:21:50.372269+05:30
Ghaziabad,Uttar Pradesh,28.6692,77.4538,30.2,35,0.0,986.7,7.15,32.4,576,335.3,53.7,0,5,7,0,2026-04-11T13:21:50.372275+05:30
Faridabad,Haryana,28.4089,77.3178,30.2,35,0.0,988.0,7.25,33.1,1941,1411.9,143.4,0,5,7,0,2026-04-11T13:21:50.372281+05:30
Meerut,Uttar Pradesh,28.9845,77.7064,30.4,34,0.0,985.1,7.05,33.5,576,335.3,53.7,0,5,7,0,2026-04-11T13:21:50.372287+05:30
Agra,Uttar Pradesh,27.1767,78.0081,33.9,28,0.0,991.7,7.55,29.9,1250,756.2,90.3,0,5,7,0,2026-04-11T13:21:50.372294+05:30
Varanasi,Uttar Pradesh,25.3176,82.9739,35.8,20,0.0,999.4,8.3,41.4,99,150.4,38.0,0,5,10,0,2026-04-11T13:21:50.372303+05:30
Prayagraj,Uttar Pradesh,25.4358,81.8463,35.5,20,0.0,998.8,8.15,43.9,126,139.7,39.7,0,5,10,0,2026-04-11T13:21:50.372310+05:30
Gorakhpur,Uttar Pradesh,26.7606,83.3732,34.0,24,0.0,998.3,8.1,34.9,105,131.8,43.9,0,5,7,0,2026-04-11T13:21:50.372318+05:30
Bareilly,Uttar Pradesh,28.367,79.4304,33.0,28,0.0,989.4,7.45,50.0,90,35.9,14.2,0,5,7,0,2026-04-11T13:21:50.372324+05:30
Aligarh,Uttar Pradesh,27.8974,78.088,33.5,27,0.0,989.4,7.35,38.9,1245,916.4,105.7,0,5,7,0,2026-04-11T13:21:50.372331+05:30
Moradabad,Uttar Pradesh,28.8386,78.7733,31.3,29,0.0,986.5,7.25,42.5,102,56.8,18.3,0,5,7,0,2026-04-11T13:21:50.372337+05:30
Saharanpur,Uttar Pradesh,29.9637,77.546,31.7,29,0.0,978.7,6.85,40.7,70,59.6,18.5,0,5,7,0,2026-04-11T13:21:50.372342+05:30
Jhansi,Uttar Pradesh,25.4484,78.5685,36.0,21,0.0,981.8,8.1,28.8,59,119.7,25.0,0,5,10,0,2026-04-11T13:21:53.597426+05:30
Surat,Gujarat,21.1702,72.8311,35.5,34,0.0,1009.1,7.8,28.4,114,79.4,72.4,0,0,7,1,2026-04-11T13:21:53.597460+05:30
Vadodara,Gujarat,22.3072,73.1812,38.6,21,0.0,1006.9,8.05,16.6,55,20.5,11.5,0,5,7,0,2026-04-11T13:21:53.597470+05:30
Rajkot,Gujarat,22.3039,70.8022,37.0,27,0.0,997.7,7.75,31.7,71,40.4,18.9,0,5,10,0,2026-04-11T13:21:53.597479+05:30
Thane,Maharashtra,19.2183,72.9781,33.6,58,0.0,1009.7,7.95,37.8,112,79.9,53.1,0,0,4,1,2026-04-11T13:21:53.597486+05:30
Nagpur,Maharashtra,21.1458,79.0882,35.3,24,0.0,976.3,8.75,22.7,79,36.4,12.6,0,5,10,0,2026-04-11T13:21:53.597492+05:30
Nashik,Maharashtra,19.9975,73.7898,36.0,23,0.0,948.4,8.25,37.8,109,39.7,25.7,0,5,10,0,2026-04-11T13:21:53.597499+05:30
Aurangabad,Maharashtra,19.8762,75.3433,37.4,18,0.0,946.8,8.9,29.5,74,26.2,15.1,0,5,10,0,2026-04-11T13:21:53.597506+05:30
Solapur,Maharashtra,17.6599,75.9064,39.8,21,0.0,958.9,9.0,18.7,66,30.4,18.2,0,5,10,0,2026-04-11T13:21:53.597513+05:30
Kolhapur,Maharashtra,16.705,74.2433,37.1,27,0.0,950.0,8.5,43.9,104,37.5,24.7,0,5,10,0,2026-04-11T13:21:53.597520+05:30
Goa,Goa,15.2993,74.124,32.0,62,0.0,1000.2,9.05,33.8,110,89.2,35.6,3,5,4,1,2026-04-11T13:21:53.597527+05:30
Jodhpur,Rajasthan,26.2389,73.0243,35.6,22,0.0,986.4,8.05,28.4,62,89.9,19.2,0,5,10,0,2026-04-11T13:21:53.597534+05:30
Udaipur,Rajasthan,24.5854,73.7125,34.8,21,0.0,950.7,8.6,33.8,86,17.3,5.9,0,5,7,0,2026-04-11T13:21:53.597540+05:30
Kota,Rajasthan,25.2138,75.8648,35.4,24,0.0,982.5,8.1,17.6,72,24.7,8.4,0,5,10,0,2026-04-11T13:21:53.597547+05:30
Bikaner,Rajasthan,28.0229,73.3119,33.7,25,0.0,985.4,7.4,32.8,51,47.8,14.2,0,5,7,0,2026-04-11T13:21:53.597554+05:30
Ajmer,Rajasthan,26.4499,74.6399,34.4,19,0.0,958.5,8.0,37.8,64,11.6,4.5,0,5,7,0,2026-04-11T13:21:53.597560+05:30
Gwalior,Madhya Pradesh,26.2183,78.1828,34.3,28,0.0,987.2,7.8,28.1,102,101.7,25.3,0,5,7,0,2026-04-11T13:21:53.597566+05:30
Indore,Madhya Pradesh,22.7196,75.8577,35.0,17,0.0,952.2,8.5,21.6,72,35.6,11.7,0,5,7,0,2026-04-11T13:21:53.597573+05:30
Bhopal,Madhya Pradesh,23.2599,77.4126,36.2,15,0.0,957.9,8.45,22.3,58,49.6,11.3,0,5,10,0,2026-04-11T13:21:53.597579+05:30
Jabalpur,Madhya Pradesh,23.1815,79.9864,34.1,21,0.0,965.5,8.6,20.5,75,41.3,15.0,0,5,7,0,2026-04-11T13:21:53.597585+05:30
Ujjain,Madhya Pradesh,23.1765,75.7885,35.3,17,0.0,957.9,8.4,20.5,63,28.7,11.2,0,5,10,0,2026-04-11T13:21:53.597591+05:30
Visakhapatnam,Andhra Pradesh,17.6868,83.2185,35.3,49,0.0,1004.9,9.15,40.3,83,38.5,30.5,0,5,7,1,2026-04-11T13:21:53.597598+05:30
Vijayawada,Andhra Pradesh,16.5062,80.648,37.2,41,0.0,1003.7,9.2,26.3,75,34.5,26.0,0,5,7,1,2026-04-11T13:21:53.597605+05:30
Guntur,Andhra Pradesh,16.3067,80.4365,37.7,39,0.0,1004.8,9.25,33.8,74,35.2,26.1,0,5,7,1,2026-04-11T13:21:53.597612+05:30
Nellore,Andhra Pradesh,14.4426,79.9865,39.3,30,0.0,1006.2,9.25,41.8,65,34.8,24.9,0,5,7,1,2026-04-11T13:21:53.597619+05:30
Kurnool,Andhra Pradesh,15.8281,78.0373,38.9,30,0.0,977.7,9.2,26.6,82,38.2,25.1,0,5,10,1,2026-04-11T13:21:53.597626+05:30
Kakinada,Andhra Pradesh,16.9891,82.2475,37.4,42,0.0,1008.4,9.2,35.6,63,26.4,18.2,0,0,7,1,2026-04-11T13:21:53.597633+05:30
Tirupati,Andhra Pradesh,13.6288,79.4192,37.1,33,0.0,992.6,9.4,29.9,76,38.0,26.3,0,5,10,1,2026-04-11T13:21:53.597639+05:30
Warangal,Telangana,17.9689,79.5941,37.5,33,0.0,980.3,9.1,25.2,104,34.7,24.8,0,5,10,1,2026-04-11T13:21:53.597645+05:30
Nizamabad,Telangana,18.6725,78.0941,37.6,27,0.0,967.2,9.0,24.8,81,28.5,16.9,0,5,10,0,2026-04-11T13:21:53.597651+05:30
Mysore,Karnataka,12.2958,76.6396,33.0,43,0.0,930.5,9.4,34.2,82,33.5,24.6,0,5,7,1,2026-04-11T13:21:53.597657+05:30
Mangalore,Karnataka,12.9141,74.856,29.4,81,0.0,1008.6,8.75,24.5,83,77.1,29.4,7,0,4,1,2026-04-11T13:21:53.597663+05:30
Hubli-Dharwad,Karnataka,15.3647,75.124,36.4,32,0.0,942.9,9.25,41.4,95,50.5,27.6,0,5,10,1,2026-04-11T13:21:53.597669+05:30
Belgaum,Karnataka,15.8497,74.4977,35.4,31,0.0,928.6,9.3,41.0,96,46.0,25.3,0,5,10,0,2026-04-11T13:21:56.819089+05:30
Coimbatore,Tamil Nadu,11.0168,76.9558,35.6,38,0.0,963.4,7.35,32.0,74,34.5,23.0,0,5,10,1,2026-04-11T13:21:56.819122+05:30
Madurai,Tamil Nadu,9.9252,78.1198,36.8,38,0.0,993.6,8.45,40.3,73,29.6,20.0,0,5,10,1,2026-04-11T13:21:56.819133+05:30
Trichy,Tamil Nadu,10.7905,78.7047,36.5,41,0.0,1000.3,9.4,26.6,69,26.3,18.1,0,5,7,1,2026-04-11T13:21:56.819141+05:30
Salem,Tamil Nadu,11.6643,78.146,36.3,36,0.0,978.5,9.05,20.2,72,35.6,23.6,0,5,10,1,2026-04-11T13:21:56.819149+05:30
Tirunelveli,Tamil Nadu,8.7139,77.7567,37.5,36,0.0,1003.4,9.35,41.4,72,25.4,17.5,0,5,7,1,2026-04-11T13:21:56.819156+05:30
Vellore,Tamil Nadu,12.9165,79.1325,37.1,32,0.0,985.7,9.45,34.9,84,36.8,25.4,0,5,10,1,2026-04-11T13:21:56.819163+05:30
Erode,Tamil Nadu,11.341,77.7172,37.8,34,0.0,989.7,8.75,32.0,62,34.5,20.8,0,5,10,1,2026-04-11T13:21:56.819170+05:30
Kochi,Kerala,9.9312,76.2673,29.0,80,0.0,1009.7,8.85,28.4,67,21.5,14.4,7,0,4,1,2026-04-11T13:21:56.819177+05:30
Thiruvananthapuram,Kerala,8.5241,76.9366,28.9,82,0.0,1008.5,7.75,33.8,62,21.1,13.7,7,0,4,1,2026-04-11T13:21:56.819184+05:30
Kozhikode,Kerala,11.2588,75.7804,30.4,75,0.0,1009.2,8.7,27.4,63,26.4,13.0,3,0,4,1,2026-04-11T13:21:56.819190+05:30
Thrissur,Kerala,10.5276,76.2144,33.4,62,0.0,1008.1,9.0,31.7,66,24.8,15.3,3,0,4,1,2026-04-11T13:21:56.819198+05:30
Kannur,Kerala,11.8745,75.3704,30.7,69,0.0,1008.9,8.65,29.2,62,29.5,13.1,3,0,4,1,2026-04-11T13:21:56.819206+05:30
Patna,Bihar,25.5941,85.1376,33.9,25,0.0,1001.6,8.45,31.3,93,328.8,59.8,0,5,4,0,2026-04-11T13:21:56.819213+05:30
Gaya,Bihar,24.7914,85.0002,34.3,24,0.0,995.4,8.55,35.3,83,251.5,43.8,0,5,7,0,2026-04-11T13:21:56.819219+05:30
Muzaffarpur,Bihar,26.1209,85.3647,33.1,30,0.0,1001.5,8.4,20.2,89,335.3,61.0,0,5,4,0,2026-04-11T13:21:56.819225+05:30
Bhagalpur,Bihar,25.2425,87.0117,31.6,32,0.0,1002.9,8.45,23.0,76,285.9,47.7,0,5,4,0,2026-04-11T13:21:56.819231+05:30
Ranchi,Jharkhand,23.3441,85.3096,31.3,20,0.0,940.6,9.05,35.6,89,173.2,29.5,0,5,7,0,2026-04-11T13:21:56.819237+05:30
Jamshedpur,Jharkhand,22.8046,86.2029,32.9,30,0.0,993.0,8.85,17.6,115,181.1,35.2,0,5,7,0,2026-04-11T13:21:56.819244+05:30
Dhanbad,Jharkhand,23.7957,86.4304,33.4,24,0.0,981.8,8.8,26.3,125,299.9,51.7,0,5,7,0,2026-04-11T13:21:56.819250+05:30
Bokaro,Jharkhand,23.6693,86.1511,33.1,24,0.0,985.8,8.8,29.5,123,263.6,47.4,0,5,7,0,2026-04-11T13:21:56.819257+05:30
Bhubaneswar,Odisha,20.2961,85.8245,35.3,47,0.0,1003.7,9.0,23.0,122,65.0,42.8,0,5,7,1,2026-04-11T13:21:56.819264+05:30
Cuttack,Odisha,20.4625,85.8828,36.0,42,0.0,1005.6,9.05,18.4,122,65.0,42.8,0,5,7,1,2026-04-11T13:21:56.819270+05:30
Rourkela,Odisha,22.2604,84.8536,34.1,25,0.0,987.6,8.75,18.7,89,160.7,28.2,0,5,7,0,2026-04-11T13:21:56.819276+05:30
Raipur,Chhattisgarh,21.2514,81.6296,37.1,16,0.0,977.3,8.85,21.6,108,55.8,18.7,0,5,10,0,2026-04-11T13:21:56.819282+05:30
Bhilai,Chhattisgarh,21.1938,81.3509,37.1,17,0.0,977.6,8.85,19.8,104,52.4,20.3,0,5,10,0,2026-04-11T13:21:56.819288+05:30
Guwahati,Assam,26.1158,91.7086,28.4,58,0.0,1002.5,8.35,20.2,109,32.7,22.9,4,5,4,1,2026-04-11T13:21:56.819294+05:30
Agartala,Tripura,23.8315,91.2868,31.6,45,0.0,1006.9,8.6,23.0,146,65.2,44.1,0,5,4,1,2026-04-11T13:21:56.819301+05:30
Shillong,Meghalaya,25.5788,91.8933,18.1,46,0.0,857.0,8.75,52.2,97,37.0,24.1,0,5,7,0,2026-04-11T13:21:56.819308+05:30
Imphal,Manipur,24.817,93.9368,21.6,50,0.0,923.8,8.95,51.1,96,29.9,19.2,0,5,7,0,2026-04-11T13:21:56.819315+05:30
Aizawl,Mizoram,23.7271,92.7176,25.2,35,0.0,895.0,8.8,42.1,89,40.0,20.4,4,5,7,0,2026-04-11T13:21:56.819322+05:30
Kohima,Nagaland,25.6701,94.1077,18.0,49,0.0,855.9,7.6,66.2,90,19.2,13.5,0,5,7,0,2026-04-11T13:21:56.819328+05:30
Gangtok,Sikkim,27.3314,88.6138,17.4,64,0.0,838.0,8.55,18.4,97,36.6,28.9,3,5,7,0,2026-04-11T13:21:56.819334+05:30
Siliguri,West Bengal,26.7271,88.3953,23.6,61,0.0,995.5,8.2,18.0,120,32.1,25.3,3,5,7,0,2026-04-11T13:22:00.042051+05:30
Durgapur,West Bengal,23.5204,87.3119,32.3,31,0.0,996.8,8.75,21.2,111,250.5,46.2,0,5,7,0,2026-04-11T13:22:00.042084+05:30
Asansol,West Bengal,23.6739,86.9524,32.5,31,0.0,995.3,8.75,22.7,94,293.4,50.8,0,5,7,0,2026-04-11T13:22:00.042095+05:30
Pondicherry,Puducherry,11.9139,79.8145,36.6,46,0.0,1008.9,9.35,36.7,56,20.5,15.0,0,0,7,1,2026-04-11T13:22:00.042103+05:30
Port Blair,Andaman and Nicobar Islands,11.6234,92.7265,28.9,73,0.0,1008.1,9.25,25.2,26,9.1,5.8,7,0,4,1,2026-04-11T13:22:00.042111+05:30
Haridwar,Uttarakhand,29.9457,78.1642,31.7,32,0.0,976.8,6.95,49.0,61,43.9,16.1,0,5,7,0,2026-04-11T13:22:00.042119+05:30
Rishikesh,Uttarakhand,30.0869,78.2676,30.8,33,0.0,969.5,7.0,48.6,51,54.4,15.9,0,5,7,0,2026-04-11T13:22:00.042125+05:30
Nainital,Uttarakhand,29.3919,79.4542,22.7,44,0.0,809.5,7.7,69.8,76,43.2,13.9,0,5,7,0,2026-04-11T13:22:00.042133+05:30
Mussoorie,Uttarakhand,30.4599,78.0664,21.2,45,0.0,806.3,7.45,65.2,53,45.3,14.1,0,5,7,0,2026-04-11T13:22:00.042140+05:30
Dharamshala,Himachal Pradesh,32.219,76.3234,19.5,74,0.0,871.6,7.5,30.2,117,50.4,11.2,3,5,7,0,2026-04-11T13:22:00.042147+05:30
Dalhousie,Himachal Pradesh,32.5387,75.971,17.1,66,0.0,805.8,7.0,20.9,51,75.7,17.9,3,5,7,0,2026-04-11T13:22:00.042154+05:30
Patiala,Punjab,30.3398,76.3869,31.2,30,0.0,981.6,6.95,34.6,704,504.8,53.6,0,5,7,0,2026-04-11T13:22:00.042161+05:30
Bhatinda,Punjab,30.211,74.9455,31.6,31,0.0,987.3,7.7,28.4,59,72.4,21.2,0,5,7,0,2026-04-11T13:22:00.042168+05:30
Rohtak,Haryana,28.8955,76.6066,30.3,34,0.0,985.9,7.1,26.6,1081,579.3,68.7,0,5,7,0,2026-04-11T13:22:00.042175+05:30
Panipat,Haryana,29.3909,76.9635,31.6,29,0.0,984.1,6.95,29.9,1975,1102.7,109.9,0,5,7,0,2026-04-11T13:22:00.042181+05:30
Mathura,Uttar Pradesh,27.4924,77.6737,33.4,29,0.0,991.0,7.5,27.7,1320,784.2,91.3,0,5,7,0,2026-04-11T13:22:00.042187+05:30
Vrindavan,Uttar Pradesh,27.5823,77.7027,33.2,28,0.0,991.2,7.45,32.0,1320,784.2,91.3,0,5,7,0,2026-04-11T13:22:00.042193+05:30
Ayodhya,Uttar Pradesh,26.7922,82.1998,35.6,19,0.0,996.6,7.85,46.4,134,89.9,34.0,0,5,10,0,2026-04-11T13:22:00.042200+05:30
Ratlam,Madhya Pradesh,23.3315,75.0367,34.6,22,0.0,958.8,8.35,17.3,61,24.7,8.9,0,5,7,0,2026-04-11T13:22:00.042206+05:30
Sagar,Madhya Pradesh,23.8388,78.7378,36.2,16,0.0,954.3,8.5,28.1,66,52.4,13.3,0,5,10,0,2026-04-11T13:22:00.042213+05:30
Satna,Madhya Pradesh,24.6005,80.8322,35.2,18,0.0,975.0,8.5,33.5,68,120.6,23.1,0,5,10,0,2026-04-11T13:22:00.042219+05:30
Akola,Maharashtra,20.7002,77.0082,38.7,18,0.0,977.6,8.75,25.6,75,21.4,12.5,0,5,10,0,2026-04-11T13:22:00.042226+05:30
Amravati,Maharashtra,20.9374,77.7796,38.0,17,0.0,970.3,8.75,23.4,66,19.6,10.4,0,5,10,0,2026-04-11T13:22:00.042233+05:30
Latur,Maharashtra,18.4088,76.5604,36.0,27,0.0,942.6,9.0,21.2,74,27.3,17.1,0,5,10,0,2026-04-11T13:22:00.042239+05:30
Nanded,Maharashtra,19.1383,77.3091,37.9,29,0.0,970.7,8.9,17.3,86,26.2,14.3,0,5,10,1,2026-04-11T13:22:00.042246+05:30
Gulbarga,Karnataka,17.3297,76.8343,39.4,23,0.0,960.3,9.05,19.4,66,38.6,26.1,0,5,10,0,2026-04-11T13:22:00.042252+05:30
Bidar,Karnataka,17.9104,77.5199,37.5,25,0.0,938.0,9.05,23.0,88,24.9,15.8,0,5,10,0,2026-04-11T13:22:00.042258+05:30
Hospet,Karnataka,15.2689,76.3909,36.0,36,0.0,957.6,9.3,26.3,85,43.7,29.5,0,5,10,1,2026-04-11T13:22:00.042264+05:30
Tirupur,Tamil Nadu,11.1085,77.3411,36.9,36,0.0,976.3,9.1,26.6,74,39.8,24.3,0,5,10,1,2026-04-11T13:22:00.042270+05:30
Alappuzha,Kerala,9.4981,76.3388,28.9,82,0.0,1009.8,8.65,29.2,66,23.6,15.1,7,0,4,1,2026-04-11T13:22:00.042277+05:30
Munnar,Kerala,10.0889,77.0595,29.6,51,0.0,860.4,9.6,36.7,81,32.6,19.0,4,5,7,1,2026-04-11T13:22:00.042284+05:30
Silchar,Assam,24.8333,92.7789,30.7,47,0.0,1006.0,8.6,22.3,140,56.6,35.0,0,5,4,1,2026-04-11T13:22:00.042290+05:30
Dibrugarh,Assam,27.4728,94.912,25.2,64,0.0,997.1,8.4,24.5,89,25.6,18.8,7,5,7,1,2026-04-11T13:22:00.042296+05:30
