city,state,latitude,longitude,temp,humidity,rain,pressure,uv_index,wind_gusts,aqi,pm10,pm2_5,no2,co,o3,so2,mosquito_risk,arthritis_risk,migraine_risk,frizz_risk,updated_at
Delhi,Delhi,28.6139,77.209,28.5,89,0.0,973.5,7.55,23.0,208,76.6,70.3,63.8,927.0,142.0,47.1,7,5,7,1,2026-07-07T20:11:17.557966+05:30
Mumbai,Maharashtra,19.076,72.8777,26.3,93,0.7,1001.2,0.75,62.6,53,19.9,11.4,8.6,246.0,61.0,4.9,10,5,0,1,2026-07-07T20:11:17.558012+05:30
Bangalore,Karnataka,12.9716,77.5946,23.5,70,0.0,911.3,8.15,70.2,32,13.0,8.1,9.6,278.0,51.0,3.0,3,5,7,1,2026-07-07T20:11:17.558028+05:30
Hyderabad,Telangana,17.385,78.4867,26.7,73,0.0,948.5,7.05,62.3,34,7.0,5.2,5.7,214.0,64.0,3.9,7,5,7,1,2026-07-07T20:11:17.558039+05:30
Chennai,Tamil Nadu,13.0827,80.2707,33.7,53,0.0,1003.9,8.6,58.3,62,30.3,19.8,9.5,192.0,92.0,5.6,0,5,4,1,2026-07-07T20:11:17.558047+05:30
Kolkata,West Bengal,22.5726,88.3639,28.2,90,0.0,1001.1,7.9,45.4,63,23.0,18.2,7.7,290.0,64.0,6.6,7,5,4,1,2026-07-07T20:11:17.558055+05:30
Pune,Maharashtra,18.5204,73.8567,23.3,89,0.0,941.0,1.3,63.4,24,4.3,3.4,7.8,158.0,48.0,4.2,3,5,3,1,2026-07-07T20:11:17.558062+05:30
Ahmedabad,Gujarat,23.0225,72.5714,27.7,93,0.0,992.8,2.6,39.2,99,46.8,30.4,12.0,291.0,61.0,5.0,7,5,3,1,2026-07-07T20:11:17.558068+05:30
Jaipur,Rajasthan,26.9124,75.7873,31.1,75,0.0,950.2,8.2,26.6,92,26.2,21.4,16.3,722.0,94.0,6.2,3,5,7,1,2026-07-07T20:11:17.558075+05:30
Lucknow,Uttar Pradesh,26.8467,80.9462,26.7,95,0.1,983.9,5.25,48.6,63,19.6,19.5,12.0,331.0,91.0,7.6,10,5,3,1,2026-07-07T20:11:17.558086+05:30
Kanpur,Uttar Pradesh,26.4499,80.3319,26.9,94,0.3,981.7,4.6,53.3,69,17.5,17.5,12.1,341.0,95.0,6.9,10,5,3,1,2026-07-07T20:11:17.558092+05:30
Chandigarh,Chandigarh,30.7333,76.7794,28.8,84,0.0,958.9,7.1,26.3,178,53.9,50.3,32.8,1155.0,130.0,14.9,7,5,7,1,2026-07-07T20:11:17.558099+05:30
Srinagar,Jammu and Kashmir,34.0837,74.7973,25.1,57,0.0,836.1,9.1,22.7,122,30.7,24.5,15.8,871.0,104.0,4.0,4,5,7,1,2026-07-07T20:11:17.558106+05:30
Jammu,Jammu and Kashmir,32.7266,74.857,32.0,65,0.0,962.0,8.65,54.0,163,41.1,36.3,29.4,519.0,127.0,6.3,3,5,7,1,2026-07-07T20:11:17.558112+05:30
Amritsar,Punjab,31.634,74.8723,31.1,73,0.0,969.7,8.4,37.8,156,85.4,69.2,27.4,672.0,101.0,7.3,3,5,7,1,2026-07-07T20:11:17.558119+05:30
Ludhiana,Punjab,30.901,75.8573,31.5,78,0.0,968.0,7.2,34.2,166,91.7,63.6,25.1,1144.0,112.0,10.4,3,5,7,1,2026-07-07T20:11:17.558125+05:30
Jalandhar,Punjab,31.326,75.5762,31.1,71,0.0,969.0,7.7,35.3,165,115.7,76.6,40.2,848.0,107.0,9.4,3,5,7,1,2026-07-07T20:11:17.558131+05:30
Dehradun,Uttarakhand,30.6284,78.0322,20.9,88,0.1,824.5,7.55,33.8,106,14.8,14.6,10.9,272.0,119.0,3.6,6,5,7,1,2026-07-07T20:11:17.558138+05:30
Shimla,Himachal Pradesh,31.1048,77.1734,17.1,94,0.0,778.9,5.7,32.8,134,28.1,25.4,13.8,410.0,122.0,8.3,3,10,3,1,2026-07-07T20:11:17.558145+05:30
Manali,Himachal Pradesh,32.2396,77.1887,21.1,92,0.0,814.8,9.55,32.8,100,17.5,17.0,72.1,231.0,62.0,0.3,3,5,7,1,2026-07-07T20:11:17.558154+05:30
Gurgaon,Haryana,28.4595,77.0266,29.1,83,0.0,971.9,7.75,26.3,168,69.2,62.4,71.4,738.0,120.0,44.1,7,5,7,1,2026-07-07T20:11:17.558161+05:30
Noida,Uttar Pradesh,28.5355,77.391,28.8,89,0.0,975.0,7.05,28.4,168,69.2,62.4,71.4,815.0,120.0,44.1,7,5,7,1,2026-07-07T20:11:17.558168+05:30
Ghaziabad,Uttar Pradesh,28.6692,77.4538,28.1,91,0.0,973.2,7.05,26.6,173,57.9,51.5,35.2,332.0,116.0,23.9,7,5,7,1,2026-07-07T20:11:17.558177+05:30
Faridabad,Haryana,28.4089,77.3178,29.1,85,0.0,974.3,6.55,29.2,168,69.2,62.4,71.4,643.0,120.0,44.1,7,5,7,1,2026-07-07T20:11:17.558183+05:30
Meerut,Uttar Pradesh,28.9845,77.7064,27.3,94,0.0,971.9,6.8,26.3,173,57.9,51.5,35.2,422.0,116.0,23.9,7,5,7,1,2026-07-07T20:11:17.558189+05:30
Agra,Uttar Pradesh,27.1767,78.0081,30.1,81,0.0,978.0,3.7,26.6,125,44.0,27.7,14.8,309.0,110.0,10.6,3,5,3,1,2026-07-07T20:11:17.558195+05:30
Varanasi,Uttar Pradesh,25.3176,82.9739,28.1,91,0.0,988.6,6.7,36.0,61,24.3,24.1,11.3,695.0,99.0,13.8,7,5,7,1,2026-07-07T20:11:17.558203+05:30
Prayagraj,Uttar Pradesh,25.4358,81.8463,28.8,84,0.0,986.1,3.55,35.3,55,25.2,25.1,14.7,393.0,91.0,11.1,7,5,3,1,2026-07-07T20:11:17.558210+05:30
Gorakhpur,Uttar Pradesh,26.7606,83.3732,28.7,90,0.1,989.4,7.25,49.0,81,24.2,24.2,10.0,311.0,114.0,8.8,10,5,7,1,2026-07-07T20:11:17.558216+05:30
Bareilly,Uttar Pradesh,28.367,79.4304,28.6,86,0.0,977.6,7.0,28.8,126,29.5,29.2,11.8,304.0,100.0,5.1,7,5,7,1,2026-07-07T20:11:17.558225+05:30
Aligarh,Uttar Pradesh,27.8974,78.088,29.7,83,0.0,976.1,5.65,34.9,117,46.9,35.4,21.1,279.0,98.0,11.7,7,5,3,1,2026-07-07T20:11:17.558232+05:30
Moradabad,Uttar Pradesh,28.8386,78.7733,28.7,86,0.0,974.6,6.55,26.6,155,58.2,57.6,34.6,298.0,113.0,22.1,7,5,7,1,2026-07-07T20:11:17.558238+05:30
Saharanpur,Uttar Pradesh,29.9637,77.546,27.6,95,0.1,965.8,6.75,29.9,175,56.8,52.5,31.6,586.0,135.0,17.1,10,5,7,1,2026-07-07T20:11:17.558245+05:30
Jhansi,Uttar Pradesh,25.4484,78.5685,26.3,96,0.6,967.9,5.6,40.0,58,12.6,9.4,7.9,244.0,92.0,3.0,10,5,3,1,2026-07-07T20:11:20.927670+05:30
Surat,Gujarat,21.1702,72.8311,25.7,99,0.3,997.9,2.25,32.0,99,46.9,41.2,44.6,560.0,40.0,64.9,10,5,3,1,2026-07-07T20:11:20.927723+05:30
Vadodara,Gujarat,22.3072,73.1812,27.4,93,0.1,995.2,2.7,33.5,89,39.7,31.3,15.6,530.0,72.0,7.6,10,5,3,1,2026-07-07T20:11:20.927734+05:30
Rajkot,Gujarat,22.3039,70.8022,28.1,88,0.1,985.0,0.9,34.9,76,45.2,27.3,8.6,144.0,68.0,8.9,10,5,3,1,2026-07-07T20:11:20.927742+05:30
Thane,Maharashtra,19.2183,72.9781,25.7,96,0.3,1000.4,0.7,47.5,53,19.9,11.4,8.6,412.0,61.0,4.9,10,5,0,1,2026-07-07T20:11:20.927749+05:30
Nagpur,Maharashtra,21.1458,79.0882,26.2,90,0.3,964.9,7.75,46.4,38,10.2,8.3,10.9,250.0,50.0,10.2,10,5,7,1,2026-07-07T20:11:20.927757+05:30
Nashik,Maharashtra,19.9975,73.7898,23.5,96,0.1,937.0,2.3,42.1,30,4.8,3.6,11.8,148.0,50.0,2.7,6,5,3,1,2026-07-07T20:11:20.927764+05:30
Aurangabad,Maharashtra,19.8762,75.3433,23.5,94,0.0,935.7,2.2,56.2,37,6.8,6.3,8.7,150.0,65.0,6.6,3,5,3,1,2026-07-07T20:11:20.927772+05:30
Solapur,Maharashtra,17.6599,75.9064,26.6,72,0.0,952.2,6.6,67.0,28,5.5,3.7,4.1,124.0,50.0,2.0,7,5,7,1,2026-07-07T20:11:20.927779+05:30
Kolhapur,Maharashtra,16.705,74.2433,22.5,95,0.1,943.2,6.1,60.5,23,7.1,4.7,5.0,135.0,47.0,1.7,6,5,7,1,2026-07-07T20:11:20.927787+05:30
Goa,Goa,15.2993,74.124,24.4,96,0.2,996.4,5.85,44.3,60,25.6,13.0,1.8,196.0,49.0,0.7,6,5,3,1,2026-07-07T20:11:20.927794+05:30
Jodhpur,Rajasthan,26.2389,73.0243,31.3,74,0.0,972.8,6.8,24.5,75,136.9,39.0,7.9,296.0,96.0,3.6,3,5,7,1,2026-07-07T20:11:20.927801+05:30
Udaipur,Rajasthan,24.5854,73.7125,27.8,82,0.0,937.4,8.75,34.6,71,18.6,16.4,8.3,348.0,92.0,5.5,7,5,7,1,2026-07-07T20:11:20.927808+05:30
Kota,Rajasthan,25.2138,75.8648,28.3,90,0.0,968.9,5.75,44.6,63,16.1,15.4,10.9,382.0,80.0,3.1,7,5,3,1,2026-07-07T20:11:20.927815+05:30
Bikaner,Rajasthan,28.0229,73.3119,37.7,37,0.0,970.6,8.45,28.4,88,108.7,40.9,5.1,201.0,73.0,3.2,0,5,10,1,2026-07-07T20:11:20.927822+05:30
Ajmer,Rajasthan,26.4499,74.6399,30.8,71,0.0,945.3,8.4,28.4,75,24.6,21.6,7.2,289.0,98.0,2.4,3,5,7,1,2026-07-07T20:11:20.927829+05:30
Gwalior,Madhya Pradesh,26.2183,78.1828,28.4,85,0.1,973.2,4.35,40.3,73,20.6,12.2,7.4,282.0,97.0,2.7,10,5,3,1,2026-07-07T20:11:20.927837+05:30
Indore,Madhya Pradesh,22.7196,75.8577,25.0,94,0.3,939.0,7.8,27.4,78,21.3,21.2,13.7,504.0,80.0,4.1,10,5,7,1,2026-07-07T20:11:20.927844+05:30
Bhopal,Madhya Pradesh,23.2599,77.4126,25.4,96,0.1,943.7,8.5,27.7,54,11.6,11.6,11.3,316.0,70.0,3.0,10,5,7,1,2026-07-07T20:11:20.927851+05:30
Jabalpur,Madhya Pradesh,23.1815,79.9864,24.9,97,0.3,952.0,8.3,33.8,46,8.6,8.6,5.9,207.0,76.0,5.1,6,5,7,1,2026-07-07T20:11:20.927858+05:30
Ujjain,Madhya Pradesh,23.1765,75.7885,25.2,96,0.4,944.4,7.95,35.3,76,21.0,20.8,8.5,422.0,88.0,3.9,10,5,7,1,2026-07-07T20:11:20.927864+05:30
Visakhapatnam,Andhra Pradesh,17.6868,83.2185,28.7,74,0.0,998.9,8.6,60.1,72,32.8,22.6,13.4,233.0,89.0,25.6,7,5,7,1,2026-07-07T20:11:20.927871+05:30
Vijayawada,Andhra Pradesh,16.5062,80.648,29.2,80,0.1,997.9,4.9,54.0,51,23.4,17.2,8.2,259.0,79.0,4.8,10,5,3,1,2026-07-07T20:11:20.927878+05:30
Guntur,Andhra Pradesh,16.3067,80.4365,34.8,43,0.0,999.0,5.2,57.6,41,20.3,15.6,10.2,204.0,59.0,3.9,0,5,3,1,2026-07-07T20:11:20.927885+05:30
Nellore,Andhra Pradesh,14.4426,79.9865,34.5,42,0.0,1002.0,8.35,55.1,37,33.9,14.7,6.1,180.0,60.0,2.8,0,5,4,1,2026-07-07T20:11:20.927893+05:30
Kurnool,Andhra Pradesh,15.8281,78.0373,29.6,58,0.0,973.7,4.45,67.0,33,11.1,5.8,3.8,119.0,56.0,2.8,4,5,3,1,2026-07-07T20:11:20.927901+05:30
Kakinada,Andhra Pradesh,16.9891,82.2475,29.5,71,0.0,1002.5,7.95,57.2,65,32.1,20.9,2.7,184.0,107.0,3.1,7,5,4,1,2026-07-07T20:11:20.927908+05:30
Tirupati,Andhra Pradesh,13.6288,79.4192,32.9,44,0.0,988.5,7.95,58.0,35,22.7,12.6,9.4,134.0,59.0,2.2,0,5,7,1,2026-07-07T20:11:20.927915+05:30
Warangal,Telangana,17.9689,79.5941,30.4,57,0.0,972.9,6.8,63.0,35,9.7,7.8,5.3,159.0,69.0,3.2,0,5,7,1,2026-07-07T20:11:20.927921+05:30
Nizamabad,Telangana,18.6725,78.0941,28.4,69,0.0,958.1,8.55,60.1,28,3.8,3.3,4.5,159.0,55.0,2.5,7,5,7,1,2026-07-07T20:11:20.927928+05:30
Mysore,Karnataka,12.2958,76.6396,22.4,83,0.0,928.5,8.0,65.5,30,10.4,6.6,6.0,131.0,51.0,1.7,3,5,7,1,2026-07-07T20:11:20.927936+05:30
Mangalore,Karnataka,12.9141,74.856,26.4,85,0.1,1007.4,8.7,54.4,65,32.0,17.9,2.6,109.0,47.0,1.4,10,5,4,1,2026-07-07T20:11:20.927942+05:30
Hubli-Dharwad,Karnataka,15.3647,75.124,22.3,94,0.0,938.1,4.95,68.0,23,7.6,4.7,4.5,129.0,44.0,1.0,3,5,3,1,2026-07-07T20:11:20.927949+05:30
Belgaum,Karnataka,15.8497,74.4977,21.1,97,0.1,922.1,1.35,71.3,22,3.7,2.3,4.0,111.0,45.0,1.3,6,5,3,1,2026-07-07T20:11:24.291062+05:30
Coimbatore,Tamil Nadu,11.0168,76.9558,24.7,81,0.0,961.9,8.45,59.8,31,15.3,10.0,7.3,150.0,47.0,2.4,3,5,7,1,2026-07-07T20:11:24.291098+05:30
Madurai,Tamil Nadu,9.9252,78.1198,31.2,49,0.0,992.1,8.6,53.3,57,40.9,17.2,5.9,162.0,66.0,2.5,0,5,7,1,2026-07-07T20:11:24.291109+05:30
Trichy,Tamil Nadu,10.7905,78.7047,31.6,48,0.0,998.9,8.5,72.4,47,30.7,15.5,3.9,126.0,62.0,2.0,0,5,7,1,2026-07-07T20:11:24.291118+05:30
Salem,Tamil Nadu,11.6643,78.146,29.9,51,0.0,977.0,8.3,42.8,50,25.1,14.3,8.6,167.0,60.0,4.4,4,5,7,1,2026-07-07T20:11:24.291127+05:30
Tirunelveli,Tamil Nadu,8.7139,77.7567,30.9,50,0.0,1003.5,8.6,52.2,52,28.1,16.1,4.4,118.0,56.0,1.6,0,5,4,1,2026-07-07T20:11:24.291135+05:30
Vellore,Tamil Nadu,12.9165,79.1325,32.6,42,0.0,982.6,7.7,55.4,37,15.4,8.7,4.6,132.0,70.0,2.2,0,5,7,1,2026-07-07T20:11:24.291142+05:30
Erode,Tamil Nadu,11.341,77.7172,28.1,65,0.0,988.7,8.35,54.4,47,28.8,17.2,10.3,176.0,54.0,2.7,7,5,7,1,2026-07-07T20:11:24.291149+05:30
Kochi,Kerala,9.9312,76.2673,27.9,85,0.0,1010.5,7.95,43.2,63,36.4,24.0,19.2,190.0,31.0,4.7,7,0,4,1,2026-07-07T20:11:24.291157+05:30
Thiruvananthapuram,Kerala,8.5241,76.9366,26.7,86,0.0,1009.7,8.35,49.7,55,19.1,11.4,4.1,116.0,51.0,1.3,7,0,4,1,2026-07-07T20:11:24.291164+05:30
Kozhikode,Kerala,11.2588,75.7804,24.6,97,0.1,1009.8,8.1,38.5,61,33.9,18.0,1.2,181.0,54.0,0.8,6,0,4,1,2026-07-07T20:11:24.291170+05:30
Thrissur,Kerala,10.5276,76.2144,27.1,86,0.0,1008.7,8.45,47.2,58,28.9,17.7,7.1,164.0,45.0,2.5,7,0,4,1,2026-07-07T20:11:24.291178+05:30
Kannur,Kerala,11.8745,75.3704,26.6,89,0.2,1008.5,7.85,49.7,61,31.9,18.0,7.8,243.0,40.0,1.8,10,0,4,1,2026-07-07T20:11:24.291186+05:30
Patna,Bihar,25.5941,85.1376,29.2,86,0.0,993.3,8.55,38.5,55,32.2,32.1,25.8,328.0,69.0,14.0,7,5,7,1,2026-07-07T20:11:24.291194+05:30
Gaya,Bihar,24.7914,85.0002,29.1,82,0.0,986.6,8.75,34.2,57,30.4,30.2,15.4,296.0,71.0,12.0,7,5,7,1,2026-07-07T20:11:24.291201+05:30
Muzaffarpur,Bihar,26.1209,85.3647,29.2,84,0.0,993.5,7.95,43.9,70,27.2,27.1,22.4,397.0,79.0,12.8,7,5,7,1,2026-07-07T20:11:24.291207+05:30
Bhagalpur,Bihar,25.2425,87.0117,28.2,90,0.0,995.5,8.45,43.9,60,24.3,23.4,16.7,340.0,89.0,31.4,7,5,7,1,2026-07-07T20:11:24.291214+05:30
Ranchi,Jharkhand,23.3441,85.3096,24.9,87,0.0,932.4,7.9,52.2,43,26.3,18.4,5.2,184.0,88.0,6.7,3,5,7,1,2026-07-07T20:11:24.291221+05:30
Jamshedpur,Jharkhand,22.8046,86.2029,28.6,78,0.0,985.5,5.4,53.3,53,27.4,23.4,16.4,533.0,68.0,20.0,7,5,3,1,2026-07-07T20:11:24.291227+05:30
Dhanbad,Jharkhand,23.7957,86.4304,28.4,80,0.0,974.3,7.7,43.6,75,43.7,39.7,43.2,333.0,52.0,99.1,7,5,7,1,2026-07-07T20:11:24.291233+05:30
Bokaro,Jharkhand,23.6693,86.1511,28.5,76,0.0,978.1,7.1,48.6,67,38.8,32.2,29.2,899.0,59.0,73.4,7,5,7,1,2026-07-07T20:11:24.291240+05:30
Bhubaneswar,Odisha,20.2961,85.8245,28.5,76,0.0,997.4,8.9,59.0,64,25.3,17.9,5.1,167.0,84.0,5.3,7,5,7,1,2026-07-07T20:11:24.291248+05:30
Cuttack,Odisha,20.4625,85.8828,28.7,76,0.0,999.0,8.85,54.0,64,25.3,17.9,5.1,197.0,84.0,5.3,7,5,7,1,2026-07-07T20:11:24.291255+05:30
Rourkela,Odisha,22.2604,84.8536,28.1,82,0.0,979.0,7.05,55.1,43,18.6,15.0,8.3,291.0,71.0,5.2,7,5,7,1,2026-07-07T20:11:24.291261+05:30
Raipur,Chhattisgarh,21.2514,81.6296,28.9,70,0.0,967.1,6.45,57.2,50,13.2,12.5,15.7,216.0,61.0,27.5,7,5,7,1,2026-07-07T20:11:24.291268+05:30
Bhilai,Chhattisgarh,21.1938,81.3509,28.6,72,0.0,967.4,7.65,61.9,48,14.3,13.0,16.8,392.0,60.0,29.9,7,5,7,1,2026-07-07T20:11:24.291274+05:30
Guwahati,Assam,26.1158,91.7086,27.3,98,0.2,997.2,6.95,22.7,38,13.2,13.2,11.1,343.0,44.0,2.7,10,5,7,1,2026-07-07T20:11:24.291281+05:30
Agartala,Tripura,23.8315,91.2868,24.9,99,0.1,1003.3,6.3,37.8,36,13.2,11.6,10.7,169.0,52.0,3.5,6,5,4,1,2026-07-07T20:11:24.291288+05:30
Shillong,Meghalaya,25.5788,91.8933,21.0,88,0.0,855.3,3.4,34.2,32,3.8,3.7,6.4,208.0,61.0,1.6,3,5,3,1,2026-07-07T20:11:24.291295+05:30
Imphal,Manipur,24.817,93.9368,23.3,97,0.0,920.9,8.05,27.7,26,7.2,7.0,8.9,327.0,45.0,2.0,3,5,7,1,2026-07-07T20:11:24.291301+05:30
Aizawl,Mizoram,23.7271,92.7176,19.6,98,0.1,890.2,1.25,50.4,26,1.2,1.0,4.0,127.0,57.0,1.3,6,10,3,1,2026-07-07T20:11:24.291308+05:30
Kohima,Nagaland,25.6701,94.1077,21.3,95,0.1,853.5,4.5,20.5,27,3.6,3.5,5.6,246.0,47.0,0.9,6,5,3,1,2026-07-07T20:11:24.291314+05:30
Gangtok,Sikkim,27.3314,88.6138,19.1,99,0.2,835.8,4.05,25.2,39,4.3,4.3,5.1,199.0,93.0,1.6,6,10,3,1,2026-07-07T20:11:24.291321+05:30
Siliguri,West Bengal,26.7271,88.3953,25.3,99,0.1,989.0,8.35,29.5,43,15.1,15.0,11.4,420.0,86.0,3.7,10,5,7,1,2026-07-07T20:11:27.645495+05:30
Durgapur,West Bengal,23.5204,87.3119,27.3,95,0.0,989.8,7.7,41.0,74,31.0,29.6,24.0,287.0,72.0,36.8,7,5,7,1,2026-07-07T20:11:27.645531+05:30
Asansol,West Bengal,23.6739,86.9524,27.7,89,0.0,988.4,8.2,45.0,67,28.5,27.0,27.0,777.0,70.0,41.5,7,5,7,1,2026-07-07T20:11:27.645543+05:30
Pondicherry,Puducherry,11.9139,79.8145,33.8,46,0.0,1005.9,8.6,47.2,59,29.5,18.1,11.6,227.0,86.0,8.9,0,5,4,1,2026-07-07T20:11:27.645552+05:30
Port Blair,Andaman and Nicobar Islands,11.6234,92.7265,27.9,78,0.0,1009.2,8.05,37.8,58,30.7,17.4,0.4,105.0,67.0,0.6,7,0,4,1,2026-07-07T20:11:27.645559+05:30
Haridwar,Uttarakhand,29.9457,78.1642,27.2,97,0.0,964.2,7.25,42.8,136,42.0,39.3,17.6,388.0,125.0,8.5,7,5,7,1,2026-07-07T20:11:27.645567+05:30
Rishikesh,Uttarakhand,30.0869,78.2676,26.6,96,0.1,957.2,6.9,40.3,119,29.1,27.7,8.8,367.0,134.0,6.1,10,5,7,1,2026-07-07T20:11:27.645574+05:30
Nainital,Uttarakhand,29.3919,79.4542,18.8,96,0.0,800.8,6.45,22.7,93,26.4,26.1,9.8,238.0,116.0,8.8,3,10,7,1,2026-07-07T20:11:27.645582+05:30
Mussoorie,Uttarakhand,30.4599,78.0664,18.4,100,0.2,797.2,7.45,38.9,139,30.4,29.4,17.6,404.0,127.0,8.6,6,10,7,1,2026-07-07T20:11:27.645590+05:30
Dharamshala,Himachal Pradesh,32.219,76.3234,23.3,77,0.0,862.5,8.2,37.1,90,14.8,13.8,10.3,337.0,98.0,1.5,3,5,7,1,2026-07-07T20:11:27.645597+05:30
Dalhousie,Himachal Pradesh,32.5387,75.971,18.4,100,0.0,799.5,8.7,33.5,144,38.5,35.0,17.2,469.0,141.0,5.7,3,10,7,1,2026-07-07T20:11:27.645604+05:30
Patiala,Punjab,30.3398,76.3869,30.4,79,0.0,967.8,7.35,31.7,152,43.9,39.8,18.2,701.0,109.0,8.4,3,5,7,1,2026-07-07T20:11:27.645612+05:30
Bhatinda,Punjab,30.211,74.9455,33.8,63,0.0,972.7,8.0,55.1,203,184.4,99.9,33.3,550.0,142.0,22.0,3,5,7,1,2026-07-07T20:11:27.645619+05:30
Rohtak,Haryana,28.8955,76.6066,29.5,80,0.0,972.0,7.0,34.2,160,54.8,45.6,48.3,725.0,120.0,16.6,7,5,7,1,2026-07-07T20:11:27.645626+05:30
Panipat,Haryana,29.3909,76.9635,28.6,86,0.0,970.7,5.0,27.7,164,62.4,52.9,36.8,524.0,130.0,27.6,7,5,3,1,2026-07-07T20:11:27.645633+05:30
Mathura,Uttar Pradesh,27.4924,77.6737,30.5,78,0.0,977.2,3.95,25.9,115,119.2,41.3,27.2,285.0,85.0,6.8,3,5,3,1,2026-07-07T20:11:27.645640+05:30
Vrindavan,Uttar Pradesh,27.5823,77.7027,30.6,77,0.0,977.5,4.25,25.9,115,119.2,41.3,27.2,271.0,85.0,6.8,3,5,3,1,2026-07-07T20:11:27.645647+05:30
Ayodhya,Uttar Pradesh,26.7922,82.1998,27.7,92,0.0,986.4,6.2,47.2,59,22.7,22.7,12.5,344.0,96.0,9.4,7,5,7,1,2026-07-07T20:11:27.645654+05:30
Ratlam,Madhya Pradesh,23.3315,75.0367,25.2,95,0.4,945.5,7.4,33.8,70,18.0,17.7,6.0,278.0,93.0,3.8,10,5,7,1,2026-07-07T20:11:27.645660+05:30
Sagar,Madhya Pradesh,23.8388,78.7378,25.2,94,0.1,939.9,4.05,24.8,43,5.9,5.8,8.0,266.0,77.0,2.4,10,5,3,1,2026-07-07T20:11:27.645667+05:30
Satna,Madhya Pradesh,24.6005,80.8322,26.9,88,0.0,961.2,5.4,33.1,49,13.0,12.7,9.6,292.0,73.0,6.3,7,5,3,1,2026-07-07T20:11:27.645674+05:30
Akola,Maharashtra,20.7002,77.0082,25.5,95,0.0,966.3,7.1,44.6,40,11.9,11.7,8.7,213.0,88.0,8.2,7,5,7,1,2026-07-07T20:11:27.645682+05:30
Amravati,Maharashtra,20.9374,77.7796,26.5,85,0.1,958.8,5.55,43.6,37,10.2,10.1,8.5,226.0,82.0,8.1,10,5,3,1,2026-07-07T20:11:27.645689+05:30
Latur,Maharashtra,18.4088,76.5604,26.5,69,0.0,933.7,8.0,70.9,28,4.2,3.4,3.7,138.0,54.0,1.9,7,5,7,1,2026-07-07T20:11:27.645713+05:30
Nanded,Maharashtra,19.1383,77.3091,26.4,83,0.0,961.4,6.2,60.5,29,4.2,4.0,5.8,163.0,59.0,4.2,7,5,7,1,2026-07-07T20:11:27.645720+05:30
Gulbarga,Karnataka,17.3297,76.8343,27.2,69,0.0,954.1,6.9,69.8,30,5.7,3.4,4.7,128.0,51.0,2.2,7,5,7,1,2026-07-07T20:11:27.645727+05:30
Bidar,Karnataka,17.9104,77.5199,26.6,70,0.0,930.2,7.45,65.9,28,5.2,3.7,5.9,139.0,53.0,2.2,7,5,7,1,2026-07-07T20:11:27.645734+05:30
Hospet,Karnataka,15.2689,76.3909,25.0,79,0.0,953.5,6.8,73.8,27,7.7,4.7,4.8,118.0,47.0,1.5,7,5,7,1,2026-07-07T20:11:27.645740+05:30
Tirupur,Tamil Nadu,11.1085,77.3411,26.5,72,0.0,974.7,8.35,69.5,49,27.0,16.2,12.0,154.0,51.0,3.5,7,5,7,1,2026-07-07T20:11:27.645747+05:30
Alappuzha,Kerala,9.4981,76.3388,28.0,84,0.0,1010.5,8.2,45.4,64,29.5,18.1,10.1,89.0,47.0,3.0,7,0,4,1,2026-07-07T20:11:27.645754+05:30
Munnar,Kerala,10.0889,77.0595,16.5,100,0.0,857.4,7.2,61.9,32,27.1,15.5,6.9,97.0,48.0,1.8,3,10,7,1,2026-07-07T20:11:27.645762+05:30
Silchar,Assam,24.8333,92.7789,26.3,96,0.2,1002.1,1.0,27.0,35,8.6,8.1,5.6,277.0,52.0,2.0,10,5,0,1,2026-07-07T20:11:27.645769+05:30
Dibrugarh,Assam,27.4728,94.912,26.6,97,0.0,991.3,3.7,31.0,38,11.8,11.4,8.4,190.0,55.0,1.7,7,5,3,1,2026-07-07T20:11:27.645775+05:30
