city,state,latitude,longitude,temp,humidity,rain,pressure,uv_index,wind_gusts,aqi,pm10,pm2_5,no2,co,o3,so2,mosquito_risk,arthritis_risk,migraine_risk,frizz_risk,updated_at
Delhi,Delhi,28.6139,77.209,30.9,73,0.0,975.9,5.85,28.1,105,15.0,14.7,10.0,507.0,142.0,20.0,3,5,3,1,2026-07-21T14:58:27.781142+05:30
Mumbai,Maharashtra,19.076,72.8777,28.1,80,0.0,1004.5,6.95,56.9,64,43.9,20.0,7.3,239.0,59.0,6.3,7,5,4,1,2026-07-21T14:58:27.781186+05:30
Bangalore,Karnataka,12.9716,77.5946,27.0,61,0.2,911.1,8.4,47.9,40,15.6,8.4,4.2,235.0,69.0,2.6,10,5,7,1,2026-07-21T14:58:27.781199+05:30
Hyderabad,Telangana,17.385,78.4867,26.4,81,0.1,950.2,4.0,39.2,39,24.9,11.9,1.8,237.0,83.0,2.8,10,5,3,1,2026-07-21T14:58:27.781208+05:30
Chennai,Tamil Nadu,13.0827,80.2707,34.4,53,0.0,1004.1,7.9,30.2,69,39.0,26.8,4.8,243.0,139.0,5.9,0,5,4,1,2026-07-21T14:58:27.781215+05:30
Kolkata,West Bengal,22.5726,88.3639,28.0,85,0.2,999.8,6.65,28.1,63,13.4,13.1,8.2,348.0,87.0,8.7,10,5,7,1,2026-07-21T14:58:27.781222+05:30
Pune,Maharashtra,18.5204,73.8567,25.7,83,0.1,944.3,4.7,56.9,26,13.3,7.2,3.3,153.0,57.0,3.5,10,5,3,1,2026-07-21T14:58:27.781228+05:30
Ahmedabad,Gujarat,23.0225,72.5714,33.6,56,0.0,994.4,4.85,34.2,62,38.2,17.2,3.7,149.0,75.0,5.6,0,5,3,1,2026-07-21T14:58:27.781235+05:30
Jaipur,Rajasthan,26.9124,75.7873,26.3,92,0.3,952.8,1.1,23.8,67,26.2,13.7,7.2,237.0,90.0,4.5,10,5,3,1,2026-07-21T14:58:27.781240+05:30
Lucknow,Uttar Pradesh,26.8467,80.9462,31.0,74,0.0,986.7,6.95,38.9,66,11.6,11.5,3.0,316.0,127.0,7.4,3,5,7,1,2026-07-21T14:58:27.781249+05:30
Kanpur,Uttar Pradesh,26.4499,80.3319,27.4,91,0.1,985.2,6.95,32.4,69,6.9,6.7,4.8,213.0,118.0,6.3,10,5,7,1,2026-07-21T14:58:27.781255+05:30
Chandigarh,Chandigarh,30.7333,76.7794,30.4,71,0.0,963.7,6.5,33.1,71,15.4,15.4,10.0,404.0,113.0,6.5,3,5,7,1,2026-07-21T14:58:27.781262+05:30
Srinagar,Jammu and Kashmir,34.0837,74.7973,20.3,94,0.4,839.5,8.15,21.2,53,8.1,7.9,8.7,620.0,91.0,3.0,6,5,7,1,2026-07-21T14:58:27.781268+05:30
Jammu,Jammu and Kashmir,32.7266,74.857,26.8,91,0.1,967.9,6.8,32.4,94,19.8,12.4,7.5,308.0,96.0,4.4,10,5,7,1,2026-07-21T14:58:27.781273+05:30
Amritsar,Punjab,31.634,74.8723,32.0,68,0.0,974.7,8.05,42.5,122,49.0,24.6,4.2,336.0,110.0,4.7,3,5,7,1,2026-07-21T14:58:27.781278+05:30
Ludhiana,Punjab,30.901,75.8573,31.3,69,0.0,972.8,3.75,42.1,88,20.1,19.7,7.7,376.0,114.0,8.2,3,5,3,1,2026-07-21T14:58:27.781283+05:30
Jalandhar,Punjab,31.326,75.5762,31.8,65,0.0,973.8,5.1,38.2,95,18.2,15.9,5.3,365.0,130.0,7.2,3,5,3,1,2026-07-21T14:58:27.781290+05:30
Dehradun,Uttarakhand,30.6284,78.0322,22.4,85,0.1,829.1,2.35,25.2,58,3.0,2.9,3.4,236.0,111.0,1.1,6,5,3,1,2026-07-21T14:58:27.781296+05:30
Shimla,Himachal Pradesh,31.1048,77.1734,18.6,94,0.1,783.7,3.8,21.2,49,4.1,4.0,5.6,282.0,106.0,1.0,6,10,3,1,2026-07-21T14:58:27.781302+05:30
Manali,Himachal Pradesh,32.2396,77.1887,21.3,98,0.3,818.5,5.8,24.1,42,1.2,1.1,4.1,198.0,101.0,0.5,6,5,3,1,2026-07-21T14:58:27.781309+05:30
Gurgaon,Haryana,28.4595,77.0266,31.0,72,0.0,974.2,4.7,29.2,97,13.5,12.7,7.9,480.0,129.0,13.3,3,5,3,1,2026-07-21T14:58:27.781315+05:30
Noida,Uttar Pradesh,28.5355,77.391,30.9,72,0.1,977.4,3.45,31.7,97,13.5,12.7,7.9,337.0,129.0,13.3,6,5,3,1,2026-07-21T14:58:27.781320+05:30
Ghaziabad,Uttar Pradesh,28.6692,77.4538,30.5,73,0.1,975.7,2.6,33.5,87,10.6,10.5,4.5,285.0,129.0,9.8,6,5,3,1,2026-07-21T14:58:27.781324+05:30
Faridabad,Haryana,28.4089,77.3178,31.1,71,0.0,976.6,3.6,32.8,97,13.5,12.7,7.9,400.0,129.0,13.3,3,5,3,1,2026-07-21T14:58:27.781329+05:30
Meerut,Uttar Pradesh,28.9845,77.7064,28.5,86,0.0,975.1,2.25,43.6,87,10.6,10.5,4.5,276.0,129.0,9.8,7,5,3,1,2026-07-21T14:58:27.781334+05:30
Agra,Uttar Pradesh,27.1767,78.0081,31.5,68,0.0,980.5,7.05,20.9,67,23.4,14.1,3.1,261.0,138.0,4.4,3,5,7,1,2026-07-21T14:58:27.781339+05:30
Varanasi,Uttar Pradesh,25.3176,82.9739,32.5,65,0.1,990.3,8.25,39.2,73,25.0,23.3,2.7,545.0,144.0,11.7,6,5,7,1,2026-07-21T14:58:27.781345+05:30
Prayagraj,Uttar Pradesh,25.4358,81.8463,28.8,83,0.4,989.2,7.35,32.8,67,27.0,26.2,3.5,324.0,154.0,13.4,10,5,7,1,2026-07-21T14:58:27.781350+05:30
Gorakhpur,Uttar Pradesh,26.7606,83.3732,32.2,65,0.1,991.0,7.65,40.7,66,18.8,18.0,1.9,271.0,134.0,4.2,6,5,7,1,2026-07-21T14:58:27.781355+05:30
Bareilly,Uttar Pradesh,28.367,79.4304,30.9,76,0.3,980.4,3.85,50.8,62,11.7,11.6,3.1,302.0,125.0,8.6,6,5,3,1,2026-07-21T14:58:27.781362+05:30
Aligarh,Uttar Pradesh,27.8974,78.088,31.0,72,0.1,978.3,6.85,27.7,86,12.6,10.9,2.7,222.0,140.0,7.6,6,5,7,1,2026-07-21T14:58:27.781367+05:30
Moradabad,Uttar Pradesh,28.8386,78.7733,31.6,72,0.0,977.4,3.8,51.8,63,11.8,11.8,3.4,294.0,129.0,8.8,3,5,3,1,2026-07-21T14:58:27.781372+05:30
Saharanpur,Uttar Pradesh,29.9637,77.546,31.3,67,0.0,970.1,6.4,46.1,81,11.2,11.1,2.3,312.0,122.0,3.7,3,5,7,1,2026-07-21T14:58:27.781377+05:30
Jhansi,Uttar Pradesh,25.4484,78.5685,31.1,66,0.0,970.9,3.8,15.8,66,39.1,19.0,2.0,162.0,128.0,9.1,3,5,3,1,2026-07-21T14:58:31.152348+05:30
Surat,Gujarat,21.1702,72.8311,29.1,83,0.0,1000.3,4.7,52.2,68,29.5,18.8,15.3,363.0,42.0,36.9,7,5,0,1,2026-07-21T14:58:31.152379+05:30
Vadodara,Gujarat,22.3072,73.1812,29.2,79,0.1,997.3,6.3,34.9,59,32.8,14.7,3.4,171.0,68.0,4.2,10,5,7,1,2026-07-21T14:58:31.152389+05:30
Rajkot,Gujarat,22.3039,70.8022,30.9,69,0.1,986.5,4.9,38.9,62,35.6,16.0,1.5,102.0,77.0,3.9,6,5,3,1,2026-07-21T14:58:31.152397+05:30
Thane,Maharashtra,19.2183,72.9781,28.7,79,0.1,1003.7,6.35,46.8,64,43.9,20.0,7.3,268.0,59.0,6.3,10,5,4,1,2026-07-21T14:58:31.152403+05:30
Nagpur,Maharashtra,21.1458,79.0882,25.9,93,0.2,967.6,0.95,31.3,53,12.2,9.2,9.3,220.0,59.0,12.1,10,5,3,1,2026-07-21T14:58:31.152409+05:30
Nashik,Maharashtra,19.9975,73.7898,25.3,86,0.1,940.6,3.5,57.2,23,12.9,6.9,2.5,143.0,55.0,1.9,10,5,3,1,2026-07-21T14:58:31.152416+05:30
Aurangabad,Maharashtra,19.8762,75.3433,25.3,84,0.2,939.3,2.95,50.8,28,11.8,6.8,2.0,126.0,73.0,5.1,10,5,3,1,2026-07-21T14:58:31.152421+05:30
Solapur,Maharashtra,17.6599,75.9064,28.4,64,0.0,953.9,4.65,53.3,32,23.7,9.4,1.0,125.0,69.0,1.5,7,5,3,1,2026-07-21T14:58:31.152427+05:30
Kolhapur,Maharashtra,16.705,74.2433,24.7,84,0.0,946.0,6.65,54.4,30,13.6,7.1,2.0,125.0,55.0,1.6,3,5,7,1,2026-07-21T14:58:31.152433+05:30
Goa,Goa,15.2993,74.124,25.5,93,0.1,997.8,7.65,33.5,58,18.8,9.7,0.8,111.0,53.0,1.0,10,5,7,1,2026-07-21T14:58:31.152439+05:30
Jodhpur,Rajasthan,26.2389,73.0243,36.5,42,0.0,975.2,7.15,35.6,88,108.7,30.2,0.9,115.0,89.0,1.8,0,5,10,1,2026-07-21T14:58:31.152444+05:30
Udaipur,Rajasthan,24.5854,73.7125,25.4,94,0.0,939.8,3.0,28.4,57,36.3,15.3,1.2,115.0,78.0,3.1,7,5,3,1,2026-07-21T14:58:31.152449+05:30
Kota,Rajasthan,25.2138,75.8648,28.5,85,0.1,972.1,2.7,28.8,65,12.8,9.9,3.4,175.0,93.0,5.5,10,5,3,1,2026-07-21T14:58:31.152455+05:30
Bikaner,Rajasthan,28.0229,73.3119,39.9,34,0.0,973.1,8.15,36.4,83,90.6,27.7,0.6,115.0,87.0,2.9,0,5,10,1,2026-07-21T14:58:31.152461+05:30
Ajmer,Rajasthan,26.4499,74.6399,27.2,87,0.1,948.0,4.55,31.0,59,40.9,19.2,1.9,128.0,99.0,2.9,10,5,3,1,2026-07-21T14:58:31.152466+05:30
Gwalior,Madhya Pradesh,26.2183,78.1828,31.0,68,0.0,976.0,5.45,17.6,60,27.2,15.5,1.5,171.0,118.0,3.7,3,5,3,1,2026-07-21T14:58:31.152471+05:30
Indore,Madhya Pradesh,22.7196,75.8577,25.6,89,0.1,941.9,5.65,32.8,52,18.3,11.5,6.2,209.0,56.0,6.2,10,5,3,1,2026-07-21T14:58:31.152477+05:30
Bhopal,Madhya Pradesh,23.2599,77.4126,25.9,88,0.1,947.1,1.15,31.3,59,6.0,5.8,6.2,235.0,58.0,2.7,10,5,3,1,2026-07-21T14:58:31.152482+05:30
Jabalpur,Madhya Pradesh,23.1815,79.9864,27.4,82,0.1,954.9,5.2,20.9,52,4.3,3.9,2.1,173.0,95.0,2.3,10,5,3,1,2026-07-21T14:58:31.152487+05:30
Ujjain,Madhya Pradesh,23.1765,75.7885,25.1,93,0.4,947.4,1.8,27.0,52,14.6,9.1,3.9,188.0,60.0,5.3,10,5,3,1,2026-07-21T14:58:31.152493+05:30
Visakhapatnam,Andhra Pradesh,17.6868,83.2185,31.2,65,0.0,998.1,8.35,40.7,68,17.3,13.9,12.1,338.0,92.0,28.2,3,5,7,1,2026-07-21T14:58:31.152498+05:30
Vijayawada,Andhra Pradesh,16.5062,80.648,33.0,52,0.0,998.9,5.0,49.3,58,34.2,17.0,2.0,132.0,85.0,4.3,0,5,3,1,2026-07-21T14:58:31.152503+05:30
Guntur,Andhra Pradesh,16.3067,80.4365,35.2,41,0.0,1000.0,4.75,51.8,55,35.3,16.8,1.5,127.0,85.0,3.6,0,5,3,1,2026-07-21T14:58:31.152508+05:30
Nellore,Andhra Pradesh,14.4426,79.9865,35.2,44,0.0,1002.6,6.7,40.3,55,35.3,16.3,2.1,116.0,90.0,4.8,0,5,7,1,2026-07-21T14:58:31.152514+05:30
Kurnool,Andhra Pradesh,15.8281,78.0373,33.1,48,0.0,973.9,4.55,52.2,45,30.0,12.1,1.2,127.0,77.0,1.9,0,5,3,1,2026-07-21T14:58:31.152520+05:30
Kakinada,Andhra Pradesh,16.9891,82.2475,31.2,63,0.0,1003.1,6.85,55.1,57,21.2,12.4,2.3,195.0,95.0,3.8,3,5,4,1,2026-07-21T14:58:31.152526+05:30
Tirupati,Andhra Pradesh,13.6288,79.4192,34.7,43,0.0,988.1,8.35,34.2,55,31.4,13.2,1.0,115.0,73.0,1.1,0,5,7,1,2026-07-21T14:58:31.152531+05:30
Warangal,Telangana,17.9689,79.5941,28.6,69,0.0,975.6,3.8,46.8,44,17.2,10.2,3.2,141.0,58.0,2.6,7,5,3,1,2026-07-21T14:58:31.152536+05:30
Nizamabad,Telangana,18.6725,78.0941,25.9,90,0.2,961.0,2.55,39.2,40,10.8,8.4,5.9,121.0,50.0,6.1,10,5,3,1,2026-07-21T14:58:31.152541+05:30
Mysore,Karnataka,12.2958,76.6396,27.1,66,0.0,928.3,7.95,47.2,30,14.3,7.2,1.8,124.0,71.0,1.4,7,5,7,1,2026-07-21T14:58:31.152547+05:30
Mangalore,Karnataka,12.9141,74.856,28.6,80,0.0,1007.4,7.75,32.4,52,16.2,8.9,1.2,103.0,57.0,2.0,7,5,4,1,2026-07-21T14:58:31.152553+05:30
Hubli-Dharwad,Karnataka,15.3647,75.124,28.0,61,0.0,939.9,5.55,58.0,21,11.3,5.8,1.7,106.0,58.0,1.1,7,5,3,1,2026-07-21T14:58:31.152558+05:30
Belgaum,Karnataka,15.8497,74.4977,24.2,81,0.0,924.6,8.15,54.7,23,14.2,6.8,1.3,116.0,55.0,1.4,3,5,7,1,2026-07-21T14:58:34.506430+05:30
Coimbatore,Tamil Nadu,11.0168,76.9558,31.6,53,0.0,960.8,8.8,51.1,38,14.8,7.9,1.6,146.0,73.0,2.1,0,5,7,1,2026-07-21T14:58:34.506460+05:30
Madurai,Tamil Nadu,9.9252,78.1198,38.0,29,0.0,990.3,8.45,29.2,57,30.0,14.0,2.3,150.0,110.0,3.1,0,5,10,1,2026-07-21T14:58:34.506470+05:30
Trichy,Tamil Nadu,10.7905,78.7047,38.1,31,0.0,996.6,8.75,46.1,43,20.6,10.4,1.9,117.0,81.0,2.3,0,5,10,1,2026-07-21T14:58:34.506477+05:30
Salem,Tamil Nadu,11.6643,78.146,33.2,49,0.0,975.5,8.15,23.8,58,32.2,16.0,2.2,131.0,106.0,5.7,0,5,7,1,2026-07-21T14:58:34.506483+05:30
Tirunelveli,Tamil Nadu,8.7139,77.7567,38.0,31,0.0,1001.1,8.6,41.8,40,15.7,10.8,1.7,108.0,86.0,1.7,0,5,7,1,2026-07-21T14:58:34.506489+05:30
Vellore,Tamil Nadu,12.9165,79.1325,31.1,57,0.0,982.0,8.0,39.6,60,26.3,13.6,2.0,168.0,91.0,2.5,0,5,7,1,2026-07-21T14:58:34.506495+05:30
Erode,Tamil Nadu,11.341,77.7172,36.8,35,0.0,986.7,8.55,40.0,52,21.7,11.9,2.2,153.0,99.0,2.5,0,5,10,1,2026-07-21T14:58:34.506502+05:30
Kochi,Kerala,9.9312,76.2673,28.8,80,0.0,1009.2,8.65,30.2,56,12.9,8.5,2.6,119.0,66.0,3.4,7,0,4,1,2026-07-21T14:58:34.506508+05:30
Thiruvananthapuram,Kerala,8.5241,76.9366,29.3,76,0.0,1008.3,7.9,36.7,53,15.3,10.1,2.4,105.0,71.0,1.7,7,0,4,1,2026-07-21T14:58:34.506513+05:30
Kozhikode,Kerala,11.2588,75.7804,28.7,78,0.0,1008.6,8.2,30.2,35,10.7,6.1,0.6,122.0,58.0,1.4,7,0,4,1,2026-07-21T14:58:34.506518+05:30
Thrissur,Kerala,10.5276,76.2144,29.9,72,0.0,1007.4,8.3,32.0,53,11.1,7.1,1.6,108.0,59.0,2.0,7,5,4,1,2026-07-21T14:58:34.506525+05:30
Kannur,Kerala,11.8745,75.3704,28.4,79,0.0,1008.0,8.05,29.2,43,13.5,7.5,1.5,108.0,56.0,1.7,7,0,4,1,2026-07-21T14:58:34.506531+05:30
Patna,Bihar,25.5941,85.1376,32.3,61,0.1,994.0,8.1,44.6,70,14.6,14.1,2.9,232.0,138.0,9.0,6,5,7,1,2026-07-21T14:58:34.506537+05:30
Gaya,Bihar,24.7914,85.0002,32.9,60,0.0,986.8,8.25,37.4,69,9.1,8.7,2.1,287.0,116.0,6.0,0,5,7,1,2026-07-21T14:58:34.506543+05:30
Muzaffarpur,Bihar,26.1209,85.3647,32.0,68,0.0,994.4,8.75,42.8,70,14.8,14.3,2.6,248.0,136.0,6.8,3,5,7,1,2026-07-21T14:58:34.506548+05:30
Bhagalpur,Bihar,25.2425,87.0117,31.0,71,0.0,995.6,7.4,38.5,61,12.3,12.2,5.5,183.0,99.0,9.5,3,5,7,1,2026-07-21T14:58:34.506553+05:30
Ranchi,Jharkhand,23.3441,85.3096,26.1,80,0.0,932.0,7.6,38.9,64,9.5,9.3,12.9,231.0,72.0,16.4,7,5,7,1,2026-07-21T14:58:34.506559+05:30
Jamshedpur,Jharkhand,22.8046,86.2029,28.6,79,0.2,984.5,7.8,30.6,69,7.9,7.7,5.3,307.0,98.0,8.2,10,5,7,1,2026-07-21T14:58:34.506565+05:30
Dhanbad,Jharkhand,23.7957,86.4304,27.2,85,0.1,974.3,5.8,37.1,102,17.5,17.4,20.6,374.0,77.0,53.9,10,5,3,1,2026-07-21T14:58:34.506570+05:30
Bokaro,Jharkhand,23.6693,86.1511,27.7,84,0.1,978.0,6.15,41.4,109,18.0,17.8,23.0,477.0,80.0,62.3,10,5,7,1,2026-07-21T14:58:34.506576+05:30
Bhubaneswar,Odisha,20.2961,85.8245,29.7,82,0.1,996.1,8.25,31.0,80,13.8,12.6,4.8,274.0,114.0,6.1,10,5,7,1,2026-07-21T14:58:34.506581+05:30
Cuttack,Odisha,20.4625,85.8828,30.2,81,0.0,997.8,8.55,28.4,80,13.8,12.6,4.8,261.0,114.0,6.1,3,5,7,1,2026-07-21T14:58:34.506587+05:30
Rourkela,Odisha,22.2604,84.8536,26.3,92,0.2,978.6,1.1,23.4,90,8.6,8.2,10.7,306.0,89.0,12.5,10,5,3,1,2026-07-21T14:58:34.506593+05:30
Raipur,Chhattisgarh,21.2514,81.6296,25.9,93,0.5,968.8,1.55,34.9,83,22.4,21.8,28.2,478.0,45.0,60.1,10,5,3,1,2026-07-21T14:58:34.506598+05:30
Bhilai,Chhattisgarh,21.1938,81.3509,25.5,94,0.6,969.4,1.75,38.5,76,19.3,18.7,21.5,963.0,57.0,52.9,10,5,3,1,2026-07-21T14:58:34.506603+05:30
Guwahati,Assam,26.1158,91.7086,31.1,76,0.1,996.1,7.25,22.0,45,6.2,6.1,1.7,209.0,87.0,1.6,6,5,7,1,2026-07-21T14:58:34.506609+05:30
Agartala,Tripura,23.8315,91.2868,28.7,84,0.0,1001.4,7.5,35.6,50,5.3,5.2,3.5,158.0,85.0,1.3,7,5,4,1,2026-07-21T14:58:34.506614+05:30
Shillong,Meghalaya,25.5788,91.8933,23.9,71,0.0,855.6,6.95,20.9,27,3.3,3.2,3.7,162.0,62.0,1.5,3,5,7,1,2026-07-21T14:58:34.506619+05:30
Imphal,Manipur,24.817,93.9368,28.1,71,0.0,919.7,8.8,25.9,57,4.5,3.9,1.3,166.0,72.0,0.9,7,5,7,1,2026-07-21T14:58:34.506625+05:30
Aizawl,Mizoram,23.7271,92.7176,21.2,96,0.1,889.5,7.85,24.5,32,3.3,3.0,1.2,121.0,73.0,0.4,6,5,7,1,2026-07-21T14:58:34.506631+05:30
Kohima,Nagaland,25.6701,94.1077,24.5,84,0.0,853.4,8.6,22.7,33,4.4,4.1,1.3,143.0,72.0,0.5,3,5,7,1,2026-07-21T14:58:34.506637+05:30
Gangtok,Sikkim,27.3314,88.6138,19.8,97,0.1,836.5,6.8,25.6,33,1.8,1.8,3.2,181.0,70.0,0.6,6,10,7,1,2026-07-21T14:58:34.506642+05:30
Siliguri,West Bengal,26.7271,88.3953,30.9,67,0.0,988.5,6.9,41.0,48,5.2,5.1,2.2,213.0,93.0,1.3,3,5,7,1,2026-07-21T14:58:37.937337+05:30
Durgapur,West Bengal,23.5204,87.3119,27.6,86,0.0,989.1,6.35,35.3,83,10.6,10.6,13.7,207.0,84.0,27.8,7,5,7,1,2026-07-21T14:58:37.937370+05:30
Asansol,West Bengal,23.6739,86.9524,28.2,82,0.1,987.8,7.95,34.6,84,12.1,12.0,15.0,271.0,84.0,30.5,10,5,7,1,2026-07-21T14:58:37.937379+05:30
Pondicherry,Puducherry,11.9139,79.8145,32.4,67,0.0,1005.8,8.2,36.4,85,35.2,26.4,10.4,230.0,128.0,12.9,3,5,4,1,2026-07-21T14:58:37.937386+05:30
Port Blair,Andaman and Nicobar Islands,11.6234,92.7265,30.4,69,0.0,1006.3,8.55,42.5,58,16.9,10.0,0.2,94.0,48.0,0.6,3,5,4,1,2026-07-21T14:58:37.937392+05:30
Haridwar,Uttarakhand,29.9457,78.1642,31.9,64,0.0,968.6,6.65,33.1,81,9.5,9.5,2.0,272.0,114.0,3.9,3,5,7,1,2026-07-21T14:58:37.937397+05:30
Rishikesh,Uttarakhand,30.0869,78.2676,30.3,74,0.0,961.6,4.6,21.2,55,6.4,6.4,1.6,269.0,101.0,2.2,3,5,3,1,2026-07-21T14:58:37.937403+05:30
Nainital,Uttarakhand,29.3919,79.4542,23.2,61,0.0,805.5,5.45,49.3,44,6.0,5.8,1.0,212.0,98.0,1.1,3,5,3,0,2026-07-21T14:58:37.937409+05:30
Mussoorie,Uttarakhand,30.4599,78.0664,21.1,84,0.0,802.4,3.45,31.3,65,5.7,5.7,2.5,266.0,113.0,2.7,3,5,3,1,2026-07-21T14:58:37.937415+05:30
Dharamshala,Himachal Pradesh,32.219,76.3234,23.4,90,0.1,867.0,1.95,36.7,37,1.6,1.5,3.8,241.0,89.0,0.6,6,5,3,1,2026-07-21T14:58:37.937421+05:30
Dalhousie,Himachal Pradesh,32.5387,75.971,19.0,98,0.0,803.7,1.95,31.7,70,8.2,7.1,5.8,290.0,118.0,2.9,3,10,3,1,2026-07-21T14:58:37.937427+05:30
Patiala,Punjab,30.3398,76.3869,29.8,78,0.0,972.5,4.95,29.5,84,23.9,23.7,6.1,336.0,126.0,7.5,7,5,3,1,2026-07-21T14:58:37.937434+05:30
Bhatinda,Punjab,30.211,74.9455,33.6,58,0.0,976.9,8.05,42.1,172,155.5,45.5,3.1,211.0,136.0,10.1,0,5,7,1,2026-07-21T14:58:37.937440+05:30
Rohtak,Haryana,28.8955,76.6066,31.1,67,0.0,974.8,1.85,26.6,112,18.0,17.4,8.4,332.0,153.0,19.3,3,5,3,1,2026-07-21T14:58:37.937445+05:30
Panipat,Haryana,29.3909,76.9635,29.9,78,0.1,974.1,1.3,30.6,117,17.3,16.9,6.1,271.0,146.0,15.8,10,5,3,1,2026-07-21T14:58:37.937451+05:30
Mathura,Uttar Pradesh,27.4924,77.6737,31.5,70,0.0,979.4,6.65,30.2,78,15.1,10.2,2.9,283.0,130.0,2.9,3,5,7,1,2026-07-21T14:58:37.937457+05:30
Vrindavan,Uttar Pradesh,27.5823,77.7027,31.5,71,0.0,979.8,6.75,29.5,78,15.1,10.2,2.9,275.0,130.0,2.9,3,5,7,1,2026-07-21T14:58:37.937462+05:30
Ayodhya,Uttar Pradesh,26.7922,82.1998,32.3,68,0.1,988.6,7.15,42.1,67,22.4,21.7,2.0,300.0,149.0,7.6,6,5,7,1,2026-07-21T14:58:37.937468+05:30
Ratlam,Madhya Pradesh,23.3315,75.0367,25.0,92,0.2,948.4,1.1,27.7,51,17.0,10.0,3.3,124.0,64.0,4.9,10,5,3,1,2026-07-21T14:58:37.937474+05:30
Sagar,Madhya Pradesh,23.8388,78.7378,27.4,77,0.1,943.3,1.0,32.0,51,15.1,10.3,2.3,188.0,90.0,4.1,10,5,3,1,2026-07-21T14:58:37.937480+05:30
Satna,Madhya Pradesh,24.6005,80.8322,29.7,71,0.0,964.5,5.75,20.2,53,6.5,6.3,2.7,175.0,125.0,3.6,7,5,3,1,2026-07-21T14:58:37.937485+05:30
Akola,Maharashtra,20.7002,77.0082,26.5,89,0.4,970.1,1.5,44.3,35,7.0,5.0,3.3,125.0,69.0,7.6,10,5,3,1,2026-07-21T14:58:37.937491+05:30
Amravati,Maharashtra,20.9374,77.7796,25.9,93,0.2,962.1,1.2,47.2,38,8.4,5.7,4.0,125.0,66.0,8.1,10,5,3,1,2026-07-21T14:58:37.937498+05:30
Latur,Maharashtra,18.4088,76.5604,25.9,82,0.1,936.1,3.8,46.8,32,15.8,8.4,2.0,133.0,65.0,1.7,10,5,3,1,2026-07-21T14:58:37.937503+05:30
Nanded,Maharashtra,19.1383,77.3091,26.5,88,0.0,964.6,1.35,35.3,38,14.0,8.3,2.9,129.0,62.0,2.9,7,5,3,1,2026-07-21T14:58:37.937509+05:30
Gulbarga,Karnataka,17.3297,76.8343,30.7,55,0.2,955.3,3.5,55.1,34,25.3,10.3,1.4,112.0,75.0,1.8,3,5,3,1,2026-07-21T14:58:37.937515+05:30
Bidar,Karnataka,17.9104,77.5199,25.1,88,0.1,932.2,4.3,50.8,34,17.3,8.6,1.9,141.0,72.0,1.6,10,5,3,1,2026-07-21T14:58:37.937521+05:30
Hospet,Karnataka,15.2689,76.3909,30.6,53,0.0,953.9,4.7,51.8,23,19.3,8.0,1.5,113.0,66.0,1.6,0,5,3,1,2026-07-21T14:58:37.937526+05:30
Tirupur,Tamil Nadu,11.1085,77.3411,33.5,48,0.0,973.4,8.8,56.2,54,19.3,11.1,2.3,141.0,96.0,3.0,0,5,7,1,2026-07-21T14:58:37.937532+05:30
Alappuzha,Kerala,9.4981,76.3388,29.5,76,0.0,1009.1,8.6,31.7,53,14.9,10.4,3.3,93.0,65.0,3.9,7,0,4,1,2026-07-21T14:58:37.937537+05:30
Munnar,Kerala,10.0889,77.0595,21.3,78,0.1,858.3,9.05,33.8,33,11.5,6.3,1.2,99.0,66.0,1.4,6,5,7,1,2026-07-21T14:58:37.937542+05:30
Silchar,Assam,24.8333,92.7789,32.7,62,0.0,999.4,8.1,27.0,64,8.0,7.5,2.0,149.0,82.0,3.3,3,5,7,1,2026-07-21T14:58:37.937547+05:30
Dibrugarh,Assam,27.4728,94.912,33.4,61,0.0,988.6,8.6,31.0,75,11.6,10.9,1.3,165.0,120.0,1.4,3,5,7,1,2026-07-21T14:58:37.937552+05:30
