city,state,latitude,longitude,temp,humidity,rain,pressure,uv_index,wind_gusts,aqi,pm10,pm2_5,no2,co,o3,so2,mosquito_risk,arthritis_risk,migraine_risk,frizz_risk,updated_at
Delhi,Delhi,28.6139,77.209,39.7,28,0.0,978.2,7.75,25.6,199,312.9,93.4,6.0,226.0,206.0,28.3,0,5,10,1,2026-06-25T13:18:22.667692+05:30
Mumbai,Maharashtra,19.076,72.8777,29.4,77,0.0,1006.8,4.6,38.5,54,29.7,17.0,6.2,175.0,97.0,11.9,7,5,0,1,2026-06-25T13:18:22.667735+05:30
Bangalore,Karnataka,12.9716,77.5946,27.4,58,0.1,911.1,8.55,57.2,25,11.4,6.6,2.0,192.0,69.0,2.0,7,5,7,1,2026-06-25T13:18:22.667751+05:30
Hyderabad,Telangana,17.385,78.4867,31.3,49,0.1,949.9,7.6,46.1,27,28.5,13.4,1.6,194.0,100.0,3.7,3,5,7,1,2026-06-25T13:18:22.667760+05:30
Chennai,Tamil Nadu,13.0827,80.2707,36.6,44,0.0,1003.5,7.7,43.9,59,21.3,15.7,4.6,180.0,125.0,9.2,0,5,7,1,2026-06-25T13:18:22.667770+05:30
Kolkata,West Bengal,22.5726,88.3639,32.4,67,0.1,1001.4,8.7,35.3,127,29.0,27.4,2.9,385.0,169.0,13.8,6,5,4,1,2026-06-25T13:18:22.667780+05:30
Pune,Maharashtra,18.5204,73.8567,29.2,62,0.0,946.3,8.2,41.4,32,15.4,7.1,1.9,137.0,78.0,4.2,7,5,7,1,2026-06-25T13:18:22.667786+05:30
Ahmedabad,Gujarat,23.0225,72.5714,37.9,35,0.0,997.8,8.0,38.9,71,67.5,24.2,1.3,128.0,85.0,3.2,0,5,10,1,2026-06-25T13:18:22.667793+05:30
Jaipur,Rajasthan,26.9124,75.7873,36.2,36,0.0,956.3,8.2,28.8,136,185.3,46.0,0.6,144.0,98.0,3.2,0,5,10,1,2026-06-25T13:18:22.667800+05:30
Lucknow,Uttar Pradesh,26.8467,80.9462,39.6,31,0.0,988.1,8.3,34.2,158,315.7,70.1,0.8,184.0,159.0,6.2,0,5,10,1,2026-06-25T13:18:22.667811+05:30
Kanpur,Uttar Pradesh,26.4499,80.3319,39.8,27,0.0,986.6,8.3,45.0,152,221.2,53.2,1.0,183.0,150.0,5.3,0,5,10,1,2026-06-25T13:18:22.667817+05:30
Chandigarh,Chandigarh,30.7333,76.7794,35.8,39,0.0,964.9,7.8,22.0,155,124.3,50.2,2.0,338.0,212.0,17.0,0,5,10,1,2026-06-25T13:18:22.667824+05:30
Srinagar,Jammu and Kashmir,34.0837,74.7973,28.8,42,0.0,841.9,9.1,23.8,73,18.7,15.5,1.1,336.0,160.0,2.9,4,5,7,0,2026-06-25T13:18:22.667831+05:30
Jammu,Jammu and Kashmir,32.7266,74.857,35.1,42,0.0,969.0,8.65,23.4,93,58.2,30.5,0.9,270.0,162.0,5.9,0,5,10,1,2026-06-25T13:18:22.667837+05:30
Amritsar,Punjab,31.634,74.8723,34.3,50,0.0,976.7,8.45,52.9,137,72.4,39.2,1.1,235.0,186.0,7.3,0,5,7,1,2026-06-25T13:18:22.667846+05:30
Ludhiana,Punjab,30.901,75.8573,36.7,39,0.0,974.5,8.05,24.5,166,209.5,64.5,0.9,261.0,188.0,7.7,0,5,10,1,2026-06-25T13:18:22.667852+05:30
Jalandhar,Punjab,31.326,75.5762,35.6,43,0.0,975.7,8.25,45.0,151,102.4,46.1,1.1,281.0,188.0,9.5,0,5,10,1,2026-06-25T13:18:22.667858+05:30
Dehradun,Uttarakhand,30.6284,78.0322,23.8,61,0.1,831.7,7.65,24.5,76,17.6,15.7,0.7,227.0,166.0,2.9,6,5,7,0,2026-06-25T13:18:22.667864+05:30
Shimla,Himachal Pradesh,31.1048,77.1734,21.4,61,0.0,786.1,6.5,28.1,93,40.6,24.5,1.1,255.0,170.0,6.9,3,5,7,0,2026-06-25T13:18:22.667873+05:30
Manali,Himachal Pradesh,32.2396,77.1887,25.0,51,0.1,820.0,9.0,31.0,39,9.7,9.1,10.1,165.0,103.0,0.6,7,5,7,0,2026-06-25T13:18:22.667880+05:30
Gurgaon,Haryana,28.4595,77.0266,37.9,31,0.0,977.0,7.85,19.4,346,411.6,93.6,3.8,170.0,170.0,16.5,0,5,10,1,2026-06-25T13:18:22.667887+05:30
Noida,Uttar Pradesh,28.5355,77.391,37.0,36,0.0,979.9,7.8,22.3,346,411.6,93.6,3.8,242.0,170.0,16.5,0,5,10,1,2026-06-25T13:18:22.667893+05:30
Ghaziabad,Uttar Pradesh,28.6692,77.4538,36.9,37,0.0,978.2,7.2,16.9,207,367.9,98.3,3.0,219.0,220.0,25.8,0,5,10,1,2026-06-25T13:18:22.667900+05:30
Faridabad,Haryana,28.4089,77.3178,37.3,34,0.0,979.2,7.8,19.4,346,411.6,93.6,3.8,195.0,170.0,16.5,0,5,10,1,2026-06-25T13:18:22.667906+05:30
Meerut,Uttar Pradesh,28.9845,77.7064,37.2,36,0.0,977.2,4.45,22.3,207,367.9,98.3,3.0,234.0,220.0,25.8,0,5,6,1,2026-06-25T13:18:22.667912+05:30
Agra,Uttar Pradesh,27.1767,78.0081,38.9,29,0.0,982.9,8.1,29.2,193,251.5,60.1,0.9,162.0,136.0,3.7,0,5,10,1,2026-06-25T13:18:22.667919+05:30
Varanasi,Uttar Pradesh,25.3176,82.9739,38.3,39,0.0,992.1,8.8,37.4,116,112.7,43.5,1.3,220.0,151.0,7.9,0,5,10,1,2026-06-25T13:18:22.667925+05:30
Prayagraj,Uttar Pradesh,25.4358,81.8463,37.6,39,0.0,991.0,8.65,34.6,128,155.1,52.9,1.4,173.0,156.0,8.2,0,5,10,1,2026-06-25T13:18:22.667931+05:30
Gorakhpur,Uttar Pradesh,26.7606,83.3732,38.5,38,0.0,991.5,8.65,25.9,161,160.7,68.5,1.5,283.0,214.0,11.3,0,5,10,1,2026-06-25T13:18:22.667937+05:30
Bareilly,Uttar Pradesh,28.367,79.4304,38.3,32,0.0,982.0,8.1,22.3,170,221.2,69.2,1.0,201.0,198.0,13.3,0,5,10,1,2026-06-25T13:18:22.667945+05:30
Aligarh,Uttar Pradesh,27.8974,78.088,38.2,31,0.0,980.7,7.85,19.4,372,355.8,83.8,1.2,168.0,165.0,11.9,0,5,10,1,2026-06-25T13:18:22.667951+05:30
Moradabad,Uttar Pradesh,28.8386,78.7733,38.1,32,0.0,979.2,7.9,24.8,179,259.8,73.1,1.6,186.0,202.0,15.3,0,5,10,1,2026-06-25T13:18:22.667957+05:30
Saharanpur,Uttar Pradesh,29.9637,77.546,36.0,38,0.0,971.8,7.45,22.7,157,131.8,48.7,1.8,225.0,206.0,15.0,0,5,10,1,2026-06-25T13:18:22.667963+05:30
Jhansi,Uttar Pradesh,25.4484,78.5685,34.1,49,0.0,974.1,8.2,39.2,79,83.4,31.2,1.7,146.0,112.0,7.9,0,5,7,1,2026-06-25T13:18:26.070694+05:30
Surat,Gujarat,21.1702,72.8311,33.3,57,0.0,1003.6,7.6,43.6,74,57.7,27.0,13.0,333.0,57.0,43.0,0,5,4,1,2026-06-25T13:18:26.070726+05:30
Vadodara,Gujarat,22.3072,73.1812,37.2,35,0.0,1000.1,8.0,45.0,74,82.0,27.6,1.7,128.0,88.0,4.0,0,5,7,1,2026-06-25T13:18:26.070738+05:30
Rajkot,Gujarat,22.3039,70.8022,37.3,37,0.0,990.2,7.55,45.0,68,70.1,23.5,1.0,103.0,86.0,3.9,0,5,10,1,2026-06-25T13:18:26.070747+05:30
Thane,Maharashtra,19.2183,72.9781,30.7,69,0.0,1005.9,6.6,33.1,54,29.7,17.0,6.2,186.0,97.0,11.9,3,5,4,1,2026-06-25T13:18:26.070756+05:30
Nagpur,Maharashtra,21.1458,79.0882,33.0,54,0.0,969.0,8.0,30.2,57,31.4,21.5,6.9,175.0,119.0,23.4,0,5,7,1,2026-06-25T13:18:26.070765+05:30
Nashik,Maharashtra,19.9975,73.7898,29.0,64,0.0,943.5,6.6,41.4,50,25.0,11.1,1.7,122.0,83.0,4.5,7,5,7,1,2026-06-25T13:18:26.070773+05:30
Aurangabad,Maharashtra,19.8762,75.3433,28.6,64,0.0,942.1,1.8,45.0,61,29.9,12.6,2.2,127.0,71.0,4.6,7,5,3,1,2026-06-25T13:18:26.070781+05:30
Solapur,Maharashtra,17.6599,75.9064,30.4,53,0.0,955.0,7.1,40.7,24,34.8,11.7,1.0,113.0,83.0,1.8,0,5,7,1,2026-06-25T13:18:26.070790+05:30
Kolhapur,Maharashtra,16.705,74.2433,27.5,66,0.1,946.9,3.1,47.9,22,7.2,4.5,1.4,119.0,69.0,1.6,10,5,3,1,2026-06-25T13:18:26.070798+05:30
Goa,Goa,15.2993,74.124,30.6,68,0.0,997.6,7.0,32.8,46,12.9,6.9,1.6,123.0,56.0,1.0,3,5,7,1,2026-06-25T13:18:26.070805+05:30
Jodhpur,Rajasthan,26.2389,73.0243,35.6,46,0.0,978.7,8.35,37.1,149,221.2,49.0,0.6,108.0,78.0,1.9,0,5,10,1,2026-06-25T13:18:26.070813+05:30
Udaipur,Rajasthan,24.5854,73.7125,33.7,46,0.0,943.7,8.75,32.8,72,63.3,22.9,0.6,109.0,77.0,2.1,0,5,7,1,2026-06-25T13:18:26.070821+05:30
Kota,Rajasthan,25.2138,75.8648,36.8,39,0.0,974.9,8.3,36.7,87,77.8,30.0,0.8,128.0,104.0,4.7,0,5,10,1,2026-06-25T13:18:26.070829+05:30
Bikaner,Rajasthan,28.0229,73.3119,39.2,33,0.0,976.6,8.45,32.0,152,287.8,80.8,0.4,124.0,91.0,3.0,0,5,10,1,2026-06-25T13:18:26.070837+05:30
Ajmer,Rajasthan,26.4499,74.6399,32.4,52,0.0,951.6,8.3,40.7,96,170.0,45.1,0.6,108.0,81.0,2.7,0,5,7,1,2026-06-25T13:18:26.070845+05:30
Gwalior,Madhya Pradesh,26.2183,78.1828,38.6,31,0.0,978.7,8.25,38.5,85,109.2,34.3,0.5,146.0,110.0,2.7,0,5,10,1,2026-06-25T13:18:26.070852+05:30
Indore,Madhya Pradesh,22.7196,75.8577,32.2,55,0.0,945.4,3.15,36.0,74,52.0,26.3,1.4,182.0,102.0,6.3,0,5,3,1,2026-06-25T13:18:26.070860+05:30
Bhopal,Madhya Pradesh,23.2599,77.4126,32.0,56,0.0,950.6,8.3,26.6,76,50.9,28.1,2.7,216.0,92.0,8.5,0,5,7,1,2026-06-25T13:18:26.070868+05:30
Jabalpur,Madhya Pradesh,23.1815,79.9864,33.7,48,0.0,958.0,8.85,25.9,65,53.6,25.1,0.8,178.0,118.0,3.6,0,5,7,1,2026-06-25T13:18:26.070877+05:30
Ujjain,Madhya Pradesh,23.1765,75.7885,33.5,51,0.0,951.0,7.6,37.1,78,56.9,26.1,0.9,142.0,101.0,5.1,0,5,7,1,2026-06-25T13:18:26.070885+05:30
Visakhapatnam,Andhra Pradesh,17.6868,83.2185,36.3,43,0.0,998.2,8.45,30.2,69,27.9,24.0,8.0,340.0,149.0,34.3,0,5,10,1,2026-06-25T13:18:26.070893+05:30
Vijayawada,Andhra Pradesh,16.5062,80.648,34.7,46,0.2,998.0,8.65,40.0,56,20.1,11.8,1.4,157.0,111.0,5.1,3,5,7,1,2026-06-25T13:18:26.070900+05:30
Guntur,Andhra Pradesh,16.3067,80.4365,34.0,50,0.1,999.5,8.35,37.1,51,21.2,11.6,1.2,155.0,107.0,4.2,3,5,7,1,2026-06-25T13:18:26.070908+05:30
Nellore,Andhra Pradesh,14.4426,79.9865,36.5,42,0.0,1001.8,8.2,46.8,30,13.9,7.7,1.3,109.0,92.0,4.5,0,5,7,1,2026-06-25T13:18:26.070916+05:30
Kurnool,Andhra Pradesh,15.8281,78.0373,34.2,42,0.0,974.3,6.5,47.5,27,23.9,9.9,1.3,113.0,86.0,4.6,0,5,7,1,2026-06-25T13:18:26.070925+05:30
Kakinada,Andhra Pradesh,16.9891,82.2475,34.5,48,0.0,1002.6,8.7,39.6,56,18.5,14.2,1.9,216.0,133.0,5.4,0,5,4,1,2026-06-25T13:18:26.070933+05:30
Tirupati,Andhra Pradesh,13.6288,79.4192,37.0,38,0.0,987.5,8.2,42.1,39,12.8,6.7,0.5,103.0,75.0,1.0,0,5,10,1,2026-06-25T13:18:26.070941+05:30
Warangal,Telangana,17.9689,79.5941,33.2,48,0.2,974.4,5.7,35.6,53,21.3,15.1,2.5,173.0,97.0,4.2,3,5,3,1,2026-06-25T13:18:26.070949+05:30
Nizamabad,Telangana,18.6725,78.0941,32.1,53,0.0,961.2,6.65,39.2,57,33.6,19.4,2.5,153.0,97.0,6.3,0,5,7,1,2026-06-25T13:18:26.070957+05:30
Mysore,Karnataka,12.2958,76.6396,29.0,57,0.0,928.2,8.2,47.9,22,8.2,4.9,1.3,118.0,71.0,1.4,4,5,7,1,2026-06-25T13:18:26.070964+05:30
Mangalore,Karnataka,12.9141,74.856,29.1,74,0.0,1007.2,8.6,32.4,43,11.5,7.1,1.9,102.0,64.0,2.4,7,5,4,1,2026-06-25T13:18:26.070972+05:30
Hubli-Dharwad,Karnataka,15.3647,75.124,29.3,61,0.0,940.3,8.75,51.8,22,3.0,1.7,1.7,111.0,58.0,0.9,7,5,7,1,2026-06-25T13:18:26.070980+05:30
Belgaum,Karnataka,15.8497,74.4977,26.6,71,0.0,925.2,6.2,47.9,20,5.1,2.9,1.6,104.0,58.0,1.4,7,5,7,1,2026-06-25T13:18:29.398334+05:30
Coimbatore,Tamil Nadu,11.0168,76.9558,31.8,47,0.0,961.0,8.2,51.8,22,6.8,4.6,1.4,117.0,68.0,1.8,0,5,7,1,2026-06-25T13:18:29.398370+05:30
Madurai,Tamil Nadu,9.9252,78.1198,37.3,35,0.0,991.0,8.6,33.8,69,9.5,7.7,1.6,179.0,117.0,3.4,0,5,10,1,2026-06-25T13:18:29.398384+05:30
Trichy,Tamil Nadu,10.7905,78.7047,36.3,41,0.0,997.1,8.35,53.6,37,9.5,6.1,1.2,110.0,83.0,2.0,0,5,10,1,2026-06-25T13:18:29.398394+05:30
Salem,Tamil Nadu,11.6643,78.146,33.8,49,0.0,976.0,8.8,37.4,55,14.8,10.2,1.8,167.0,108.0,6.5,0,5,7,1,2026-06-25T13:18:29.398404+05:30
Tirunelveli,Tamil Nadu,8.7139,77.7567,36.0,40,0.0,1001.8,8.55,45.4,21,5.5,4.1,1.3,112.0,69.0,1.3,0,5,7,1,2026-06-25T13:18:29.398413+05:30
Vellore,Tamil Nadu,12.9165,79.1325,35.7,41,0.0,981.5,8.1,43.6,45,16.1,9.4,1.0,135.0,92.0,2.2,0,5,10,1,2026-06-25T13:18:29.398422+05:30
Erode,Tamil Nadu,11.341,77.7172,37.1,36,0.0,987.2,8.8,38.9,42,10.0,7.1,1.5,146.0,95.0,2.2,0,5,10,1,2026-06-25T13:18:29.398431+05:30
Kochi,Kerala,9.9312,76.2673,28.8,78,0.0,1009.3,8.35,38.5,37,7.2,5.5,3.3,116.0,55.0,2.9,7,0,4,1,2026-06-25T13:18:29.398440+05:30
Thiruvananthapuram,Kerala,8.5241,76.9366,28.9,76,0.0,1008.3,8.3,55.4,27,10.8,7.1,1.2,91.0,65.0,1.2,7,0,4,1,2026-06-25T13:18:29.398448+05:30
Kozhikode,Kerala,11.2588,75.7804,28.9,75,0.1,1008.3,8.5,31.3,25,6.9,4.2,0.6,117.0,59.0,0.9,10,0,4,1,2026-06-25T13:18:29.398456+05:30
Thrissur,Kerala,10.5276,76.2144,29.9,72,0.1,1007.4,8.4,35.6,39,6.5,5.1,1.6,125.0,63.0,2.0,10,5,4,1,2026-06-25T13:18:29.398465+05:30
Kannur,Kerala,11.8745,75.3704,28.6,76,0.0,1007.9,8.35,35.3,26,10.9,6.3,1.1,116.0,63.0,1.3,7,5,4,1,2026-06-25T13:18:29.398474+05:30
Patna,Bihar,25.5941,85.1376,38.2,43,0.0,994.9,8.85,22.0,151,108.7,45.9,2.1,286.0,207.0,16.6,0,5,10,1,2026-06-25T13:18:29.398483+05:30
Gaya,Bihar,24.7914,85.0002,37.3,43,0.0,988.7,8.95,21.6,90,89.2,38.0,1.5,189.0,173.0,14.8,0,5,10,1,2026-06-25T13:18:29.398491+05:30
Muzaffarpur,Bihar,26.1209,85.3647,35.6,56,0.0,995.0,8.85,29.2,157,107.8,59.3,2.6,414.0,234.0,18.5,0,5,10,1,2026-06-25T13:18:29.398500+05:30
Bhagalpur,Bihar,25.2425,87.0117,34.5,59,0.2,995.7,8.85,25.9,154,95.0,58.0,3.1,316.0,225.0,19.0,3,5,7,1,2026-06-25T13:18:29.398509+05:30
Ranchi,Jharkhand,23.3441,85.3096,31.9,57,0.0,934.7,9.15,22.7,77,24.7,23.3,1.2,176.0,157.0,10.9,0,5,7,1,2026-06-25T13:18:29.398518+05:30
Jamshedpur,Jharkhand,22.8046,86.2029,32.9,63,0.1,986.3,9.05,37.1,94,31.1,30.6,1.9,242.0,183.0,21.9,6,5,7,1,2026-06-25T13:18:29.398525+05:30
Dhanbad,Jharkhand,23.7957,86.4304,36.6,46,0.0,975.1,9.05,23.0,142,48.3,47.1,9.8,172.0,204.0,55.6,0,5,10,1,2026-06-25T13:18:29.398532+05:30
Bokaro,Jharkhand,23.6693,86.1511,36.1,48,0.0,979.0,9.1,26.6,114,45.3,41.9,10.6,184.0,188.0,55.5,0,5,10,1,2026-06-25T13:18:29.398539+05:30
Bhubaneswar,Odisha,20.2961,85.8245,33.2,66,0.0,997.9,9.05,35.3,82,19.8,19.2,1.9,208.0,165.0,11.4,3,5,7,1,2026-06-25T13:18:29.398545+05:30
Cuttack,Odisha,20.4625,85.8828,33.1,68,0.0,999.7,9.15,35.6,82,19.8,19.2,1.9,229.0,165.0,11.4,3,5,7,1,2026-06-25T13:18:29.398552+05:30
Rourkela,Odisha,22.2604,84.8536,36.4,44,0.0,980.0,9.0,32.8,90,23.4,23.2,1.4,202.0,156.0,14.3,0,5,10,1,2026-06-25T13:18:29.398558+05:30
Raipur,Chhattisgarh,21.2514,81.6296,35.2,43,0.1,970.1,8.85,31.0,72,27.7,27.6,10.3,286.0,132.0,44.3,3,5,10,1,2026-06-25T13:18:29.398565+05:30
Bhilai,Chhattisgarh,21.1938,81.3509,34.9,44,0.0,970.5,8.9,34.2,67,23.9,23.7,11.2,509.0,118.0,44.3,0,5,7,1,2026-06-25T13:18:29.398572+05:30
Guwahati,Assam,26.1158,91.7086,31.7,71,0.1,996.2,8.8,21.6,66,26.1,18.1,1.2,319.0,146.0,5.9,6,5,7,1,2026-06-25T13:18:29.398578+05:30
Agartala,Tripura,23.8315,91.2868,31.1,72,0.0,1001.8,8.55,27.0,79,45.8,35.4,3.1,190.0,157.0,6.5,3,5,4,1,2026-06-25T13:18:29.398608+05:30
Shillong,Meghalaya,25.5788,91.8933,26.3,58,0.0,856.2,7.05,17.6,55,17.7,12.2,1.6,262.0,134.0,3.8,4,5,7,1,2026-06-25T13:18:29.398616+05:30
Imphal,Manipur,24.817,93.9368,26.8,79,0.0,919.6,8.5,22.7,51,28.3,14.8,0.9,205.0,117.0,3.2,7,5,7,1,2026-06-25T13:18:29.398623+05:30
Aizawl,Mizoram,23.7271,92.7176,21.9,92,0.2,889.8,8.55,20.5,49,81.3,33.3,0.4,171.0,112.0,3.4,6,5,7,1,2026-06-25T13:18:29.398630+05:30
Kohima,Nagaland,25.6701,94.1077,23.4,91,0.1,853.5,9.25,23.0,43,15.0,8.4,0.7,215.0,113.0,2.6,6,5,7,1,2026-06-25T13:18:29.398638+05:30
Gangtok,Sikkim,27.3314,88.6138,23.7,67,0.2,836.9,8.8,37.4,47,17.8,11.8,0.9,283.0,148.0,3.2,6,5,7,1,2026-06-25T13:18:29.398645+05:30
Siliguri,West Bengal,26.7271,88.3953,31.4,72,0.0,988.2,8.4,27.0,95,37.6,27.1,2.0,430.0,170.0,7.5,3,5,7,1,2026-06-25T13:18:32.722558+05:30
Durgapur,West Bengal,23.5204,87.3119,36.0,54,0.0,989.5,8.9,50.8,155,61.2,60.3,11.2,472.0,222.0,64.9,0,5,10,1,2026-06-25T13:18:32.722618+05:30
Asansol,West Bengal,23.6739,86.9524,36.2,51,0.0,988.1,8.85,34.9,148,50.6,49.8,8.4,426.0,210.0,49.7,0,5,10,1,2026-06-25T13:18:32.722634+05:30
Pondicherry,Puducherry,11.9139,79.8145,34.0,57,0.0,1005.4,7.75,40.7,63,21.8,16.8,2.2,181.0,133.0,6.2,0,5,4,1,2026-06-25T13:18:32.722643+05:30
Port Blair,Andaman and Nicobar Islands,11.6234,92.7265,29.4,74,0.1,1005.7,7.1,45.0,28,6.8,4.2,0.3,90.0,56.0,0.5,10,5,4,1,2026-06-25T13:18:32.722652+05:30
Haridwar,Uttarakhand,29.9457,78.1642,36.6,38,0.0,969.8,7.05,25.2,140,63.6,35.6,1.2,277.0,196.0,7.5,0,5,10,1,2026-06-25T13:18:32.722660+05:30
Rishikesh,Uttarakhand,30.0869,78.2676,35.5,38,0.0,963.0,7.15,19.4,119,50.6,30.3,0.7,261.0,182.0,6.2,0,5,10,1,2026-06-25T13:18:32.722667+05:30
Nainital,Uttarakhand,29.3919,79.4542,23.1,55,0.2,807.5,6.85,29.2,116,86.8,32.9,1.1,246.0,178.0,6.4,3,5,7,0,2026-06-25T13:18:32.722675+05:30
Mussoorie,Uttarakhand,30.4599,78.0664,18.9,85,0.1,803.6,7.15,30.6,101,37.7,29.1,1.1,247.0,193.0,6.8,6,10,7,1,2026-06-25T13:18:32.722683+05:30
Dharamshala,Himachal Pradesh,32.219,76.3234,26.4,57,0.0,868.9,8.55,39.2,49,17.1,12.1,0.6,238.0,152.0,1.5,4,5,7,1,2026-06-25T13:18:32.722691+05:30
Dalhousie,Himachal Pradesh,32.5387,75.971,20.6,82,0.1,805.4,8.05,30.2,79,41.2,26.5,1.2,263.0,175.0,3.6,6,5,7,1,2026-06-25T13:18:32.722699+05:30
Patiala,Punjab,30.3398,76.3869,36.6,37,0.0,974.0,7.7,20.2,195,238.0,71.2,1.5,234.0,204.0,14.3,0,5,10,1,2026-06-25T13:18:32.722706+05:30
Bhatinda,Punjab,30.211,74.9455,35.8,44,0.0,979.2,8.3,26.6,158,237.0,68.0,2.2,171.0,169.0,17.1,0,5,10,1,2026-06-25T13:18:32.722713+05:30
Rohtak,Haryana,28.8955,76.6066,36.6,38,0.0,977.4,7.75,18.7,213,281.3,71.2,0.0,161.0,140.0,2.3,0,5,10,1,2026-06-25T13:18:32.722720+05:30
Panipat,Haryana,29.3909,76.9635,36.6,39,0.0,976.1,7.65,19.8,395,426.5,97.8,3.1,185.0,176.0,22.1,0,5,10,1,2026-06-25T13:18:32.722727+05:30
Mathura,Uttar Pradesh,27.4924,77.6737,38.0,34,0.0,981.9,8.05,17.6,328,426.5,76.4,0.8,176.0,121.0,2.0,0,5,10,1,2026-06-25T13:18:32.722734+05:30
Vrindavan,Uttar Pradesh,27.5823,77.7027,37.7,35,0.0,982.4,8.0,16.9,328,426.5,76.4,0.8,173.0,121.0,2.0,0,5,10,1,2026-06-25T13:18:32.722741+05:30
Ayodhya,Uttar Pradesh,26.7922,82.1998,38.6,34,0.0,989.7,8.4,26.6,164,243.1,62.9,0.7,206.0,154.0,6.0,0,5,10,1,2026-06-25T13:18:32.722747+05:30
Ratlam,Madhya Pradesh,23.3315,75.0367,33.5,51,0.0,951.8,6.2,39.6,74,55.4,25.3,0.7,116.0,100.0,4.6,0,5,7,1,2026-06-25T13:18:32.722754+05:30
Sagar,Madhya Pradesh,23.8388,78.7378,32.9,49,0.0,947.3,8.35,37.8,75,74.7,30.9,1.0,175.0,118.0,5.9,0,5,7,1,2026-06-25T13:18:32.722761+05:30
Satna,Madhya Pradesh,24.6005,80.8322,36.1,42,0.0,967.4,7.05,26.3,82,96.4,32.2,0.7,154.0,125.0,3.5,0,5,10,1,2026-06-25T13:18:32.722768+05:30
Akola,Maharashtra,20.7002,77.0082,32.7,53,0.0,971.8,5.55,38.5,61,36.1,17.6,1.9,124.0,89.0,6.3,0,5,3,1,2026-06-25T13:18:32.722776+05:30
Amravati,Maharashtra,20.9374,77.7796,31.9,55,0.0,963.9,7.65,35.3,59,42.4,19.8,2.3,150.0,98.0,7.2,0,5,7,1,2026-06-25T13:18:32.722784+05:30
Latur,Maharashtra,18.4088,76.5604,28.2,63,0.0,937.3,7.05,46.8,40,38.5,15.7,1.4,127.0,81.0,2.4,7,5,7,1,2026-06-25T13:18:32.722791+05:30
Nanded,Maharashtra,19.1383,77.3091,28.8,74,0.0,965.6,8.05,41.0,59,33.2,16.1,1.1,160.0,102.0,3.7,7,5,7,1,2026-06-25T13:18:32.722798+05:30
Gulbarga,Karnataka,17.3297,76.8343,31.2,53,0.0,956.2,6.25,43.6,23,34.8,11.8,1.3,122.0,86.0,2.1,0,5,7,1,2026-06-25T13:18:32.722805+05:30
Bidar,Karnataka,17.9104,77.5199,29.3,63,0.0,933.2,6.95,42.8,38,35.0,15.8,2.1,131.0,93.0,4.4,7,5,7,1,2026-06-25T13:18:32.722812+05:30
Hospet,Karnataka,15.2689,76.3909,28.3,73,0.0,954.2,8.1,48.2,23,6.7,3.4,1.3,120.0,68.0,1.5,7,5,7,1,2026-06-25T13:18:32.722818+05:30
Tirupur,Tamil Nadu,11.1085,77.3411,32.9,49,0.0,973.9,8.05,50.8,48,9.5,6.9,1.5,143.0,87.0,2.4,0,5,7,1,2026-06-25T13:18:32.722825+05:30
Alappuzha,Kerala,9.4981,76.3388,29.2,75,0.0,1009.2,8.0,47.9,32,10.2,7.5,3.4,85.0,63.0,3.2,7,0,4,1,2026-06-25T13:18:32.722831+05:30
Munnar,Kerala,10.0889,77.0595,19.5,95,0.2,857.6,9.0,40.3,20,4.8,3.2,0.8,88.0,55.0,0.9,6,10,7,1,2026-06-25T13:18:32.722839+05:30
Silchar,Assam,24.8333,92.7789,32.2,68,0.0,999.9,8.7,20.2,64,52.9,25.5,1.1,227.0,126.0,5.2,3,5,7,1,2026-06-25T13:18:32.722845+05:30
Dibrugarh,Assam,27.4728,94.912,33.0,63,0.0,988.9,8.55,20.9,51,9.3,7.2,1.0,243.0,134.0,2.0,3,5,7,1,2026-06-25T13:18:32.722852+05:30
