city,state,latitude,longitude,temp,humidity,rain,pressure,uv_index,wind_gusts,aqi,pm10,pm2_5,no2,co,o3,so2,mosquito_risk,arthritis_risk,migraine_risk,frizz_risk,updated_at
Delhi,Delhi,28.6139,77.209,26.4,71,0.0,979.8,7.7,52.9,645,378.1,116.9,25.1,379.0,92.0,25.8,7,5,7,1,2026-05-29T03:27:13.121691+05:30
Mumbai,Maharashtra,19.076,72.8777,29.9,74,0.0,1008.4,7.8,41.8,61,48.9,20.4,4.3,127.0,51.0,4.2,7,0,4,1,2026-05-29T03:27:13.121741+05:30
Bangalore,Karnataka,12.9716,77.5946,21.5,98,0.0,911.5,7.8,39.6,60,11.1,10.3,12.5,267.0,56.0,5.3,3,5,7,1,2026-05-29T03:27:13.121757+05:30
Hyderabad,Telangana,17.385,78.4867,28.5,60,0.0,951.2,9.15,41.8,84,35.6,27.9,20.5,417.0,67.0,9.0,4,5,7,1,2026-05-29T03:27:13.121767+05:30
Chennai,Tamil Nadu,13.0827,80.2707,30.0,74,0.0,1004.5,9.0,36.7,77,31.2,25.5,13.3,329.0,94.0,9.4,7,5,4,1,2026-05-29T03:27:13.121776+05:30
Kolkata,West Bengal,22.5726,88.3639,27.6,92,0.0,1004.4,8.95,27.4,117,54.0,39.8,8.7,387.0,75.0,5.9,7,5,4,1,2026-05-29T03:27:13.121784+05:30
Pune,Maharashtra,18.5204,73.8567,24.4,86,0.0,948.1,8.4,47.2,45,13.3,9.4,9.9,135.0,37.0,7.7,3,5,7,1,2026-05-29T03:27:13.121792+05:30
Ahmedabad,Gujarat,23.0225,72.5714,30.7,64,0.0,999.3,8.15,48.6,73,38.5,21.4,4.8,135.0,45.0,4.8,3,5,7,1,2026-05-29T03:27:13.121799+05:30
Jaipur,Rajasthan,26.9124,75.7873,31.8,41,0.0,954.5,8.2,70.9,161,415.4,97.6,5.6,249.0,100.0,7.2,0,5,7,1,2026-05-29T03:27:13.121810+05:30
Lucknow,Uttar Pradesh,26.8467,80.9462,30.4,58,0.0,991.2,7.1,49.7,108,48.7,41.9,8.5,328.0,125.0,13.5,0,5,7,1,2026-05-29T03:27:13.121817+05:30
Kanpur,Uttar Pradesh,26.4499,80.3319,31.8,53,0.0,987.8,5.7,46.8,196,83.8,47.5,9.8,326.0,113.0,10.4,0,5,3,1,2026-05-29T03:27:13.121824+05:30
Chandigarh,Chandigarh,30.7333,76.7794,27.6,50,0.0,964.4,7.7,65.5,151,96.6,77.1,35.4,500.0,61.0,11.8,4,5,7,1,2026-05-29T03:27:13.121832+05:30
Srinagar,Jammu and Kashmir,34.0837,74.7973,12.2,78,0.0,838.5,8.9,31.0,74,43.3,38.5,23.5,358.0,11.0,0.7,3,5,7,0,2026-05-29T03:27:13.121839+05:30
Jammu,Jammu and Kashmir,32.7266,74.857,25.5,33,0.0,966.6,8.55,47.2,84,33.1,29.6,26.4,311.0,29.0,2.6,4,5,7,0,2026-05-29T03:27:13.121847+05:30
Amritsar,Punjab,31.634,74.8723,28.9,34,0.0,974.5,8.4,43.2,147,506.6,149.0,13.1,434.0,90.0,9.5,4,5,7,0,2026-05-29T03:27:13.121854+05:30
Ludhiana,Punjab,30.901,75.8573,27.3,57,0.0,973.8,7.95,56.2,350,408.9,111.3,9.1,407.0,109.0,13.7,4,5,7,1,2026-05-29T03:27:13.121860+05:30
Jalandhar,Punjab,31.326,75.5762,28.1,40,0.0,974.3,8.15,53.3,162,480.6,133.6,14.6,379.0,86.0,11.7,4,5,7,0,2026-05-29T03:27:13.121867+05:30
Dehradun,Uttarakhand,30.6284,78.0322,13.0,90,0.0,826.8,8.15,28.8,100,64.0,43.7,18.9,417.0,76.0,2.5,3,10,7,0,2026-05-29T03:27:13.121874+05:30
Shimla,Himachal Pradesh,31.1048,77.1734,12.5,67,0.0,780.3,8.05,29.9,81,61.0,43.0,24.5,364.0,76.0,6.1,3,5,7,0,2026-05-29T03:27:13.121883+05:30
Manali,Himachal Pradesh,32.2396,77.1887,12.2,60,0.0,815.0,9.65,47.5,56,5.9,4.5,16.7,242.0,122.0,0.0,0,5,7,0,2026-05-29T03:27:13.121894+05:30
Gurgaon,Haryana,28.4595,77.0266,25.8,73,0.0,977.9,7.8,56.5,1271,258.9,87.1,10.9,356.0,115.0,12.5,7,5,7,1,2026-05-29T03:27:13.121915+05:30
Noida,Uttar Pradesh,28.5355,77.391,27.0,67,0.0,981.6,7.7,58.3,1271,258.9,87.1,10.9,362.0,115.0,12.5,7,5,7,1,2026-05-29T03:27:13.121923+05:30
Ghaziabad,Uttar Pradesh,28.6692,77.4538,27.9,63,0.0,979.5,7.7,63.4,510,285.0,94.5,13.1,371.0,103.0,13.5,7,5,7,1,2026-05-29T03:27:13.121930+05:30
Faridabad,Haryana,28.4089,77.3178,26.2,72,0.0,980.8,7.75,63.7,1271,258.9,87.1,10.9,339.0,115.0,12.5,7,5,7,1,2026-05-29T03:27:13.121937+05:30
Meerut,Uttar Pradesh,28.9845,77.7064,26.1,71,0.0,977.7,7.6,67.3,510,285.0,94.5,13.1,412.0,103.0,13.5,7,5,7,1,2026-05-29T03:27:13.121945+05:30
Agra,Uttar Pradesh,27.1767,78.0081,31.8,55,0.0,983.0,8.05,75.2,462,1873.8,248.7,5.2,313.0,135.0,8.5,0,5,7,1,2026-05-29T03:27:13.121952+05:30
Varanasi,Uttar Pradesh,25.3176,82.9739,29.6,61,0.0,994.3,8.7,48.6,144,62.9,54.8,9.8,348.0,128.0,19.8,7,5,7,1,2026-05-29T03:27:13.121959+05:30
Prayagraj,Uttar Pradesh,25.4358,81.8463,31.0,57,0.0,992.6,8.2,59.8,139,62.9,53.8,9.0,356.0,138.0,17.7,0,5,7,1,2026-05-29T03:27:13.121966+05:30
Gorakhpur,Uttar Pradesh,26.7606,83.3732,26.4,74,0.0,996.2,8.1,43.9,104,45.8,38.8,10.6,382.0,104.0,10.9,7,5,7,1,2026-05-29T03:27:13.121974+05:30
Bareilly,Uttar Pradesh,28.367,79.4304,25.8,74,0.0,984.9,7.65,46.1,145,131.8,49.6,10.8,301.0,99.0,10.6,7,5,7,1,2026-05-29T03:27:13.121981+05:30
Aligarh,Uttar Pradesh,27.8974,78.088,26.9,70,0.1,982.4,7.85,74.5,1023,139.7,61.9,9.8,341.0,109.0,8.8,10,5,7,1,2026-05-29T03:27:13.121988+05:30
Moradabad,Uttar Pradesh,28.8386,78.7733,26.0,71,0.0,980.7,7.8,49.0,116,67.8,38.3,10.8,298.0,101.0,10.5,7,5,7,1,2026-05-29T03:27:13.121994+05:30
Saharanpur,Uttar Pradesh,29.9637,77.546,26.5,60,0.0,972.2,7.45,59.0,123,76.4,36.2,5.2,349.0,146.0,11.6,4,5,7,1,2026-05-29T03:27:13.122000+05:30
Jhansi,Uttar Pradesh,25.4484,78.5685,31.7,49,0.0,972.7,8.45,78.8,82,115.5,54.5,4.9,168.0,127.0,9.0,0,5,7,1,2026-05-29T03:27:16.382161+05:30
Surat,Gujarat,21.1702,72.8311,29.5,77,0.0,1005.4,7.7,59.8,82,46.7,23.9,11.5,218.0,40.0,20.4,7,5,4,1,2026-05-29T03:27:16.382198+05:30
Vadodara,Gujarat,22.3072,73.1812,29.0,76,0.0,1002.1,8.05,55.4,77,34.5,21.7,9.8,119.0,39.0,10.6,7,5,4,1,2026-05-29T03:27:16.382208+05:30
Rajkot,Gujarat,22.3039,70.8022,27.6,80,0.0,992.0,7.7,56.9,74,38.1,18.9,2.8,106.0,45.0,2.9,7,5,7,1,2026-05-29T03:27:16.382216+05:30
Thane,Maharashtra,19.2183,72.9781,29.6,73,0.0,1007.8,7.8,40.3,61,48.9,20.4,4.3,140.0,51.0,4.2,7,5,4,1,2026-05-29T03:27:16.382225+05:30
Nagpur,Maharashtra,21.1458,79.0882,35.1,29,0.0,969.3,8.85,46.4,74,35.2,22.0,9.3,263.0,74.0,6.8,0,5,10,0,2026-05-29T03:27:16.382233+05:30
Nashik,Maharashtra,19.9975,73.7898,24.1,88,0.0,944.9,8.1,50.0,55,34.1,16.6,10.4,147.0,38.0,10.6,3,5,7,1,2026-05-29T03:27:16.382242+05:30
Aurangabad,Maharashtra,19.8762,75.3433,26.4,69,0.0,943.0,8.95,49.7,54,25.3,15.9,11.0,151.0,46.0,10.5,7,5,7,1,2026-05-29T03:27:16.382250+05:30
Solapur,Maharashtra,17.6599,75.9064,27.7,60,0.0,956.7,8.95,37.1,49,10.3,8.3,7.3,163.0,51.0,2.7,4,5,7,1,2026-05-29T03:27:16.382258+05:30
Kolhapur,Maharashtra,16.705,74.2433,24.0,89,0.0,948.4,8.8,46.8,27,6.4,5.2,4.7,139.0,45.0,2.1,3,5,7,1,2026-05-29T03:27:16.382266+05:30
Goa,Goa,15.2993,74.124,26.5,95,0.1,998.7,5.45,31.0,38,13.5,10.3,4.0,419.0,51.0,1.1,10,5,3,1,2026-05-29T03:27:16.382273+05:30
Jodhpur,Rajasthan,26.2389,73.0243,31.7,53,0.0,977.3,8.4,51.8,260,436.8,91.7,2.0,115.0,68.0,2.6,0,5,7,1,2026-05-29T03:27:16.382282+05:30
Udaipur,Rajasthan,24.5854,73.7125,27.9,48,0.0,942.8,8.8,52.2,67,32.9,18.5,2.3,133.0,67.0,2.4,4,5,7,0,2026-05-29T03:27:16.382289+05:30
Kota,Rajasthan,25.2138,75.8648,34.1,32,0.0,973.8,8.4,77.0,67,68.9,30.9,4.3,159.0,87.0,5.3,0,5,7,0,2026-05-29T03:27:16.382297+05:30
Bikaner,Rajasthan,28.0229,73.3119,35.0,37,0.0,974.0,8.35,65.9,161,141.6,68.7,3.9,340.0,70.0,5.0,0,5,7,1,2026-05-29T03:27:16.382304+05:30
Ajmer,Rajasthan,26.4499,74.6399,31.9,44,0.0,949.7,8.35,68.4,82,114.6,43.0,4.1,128.0,75.0,3.5,0,5,7,1,2026-05-29T03:27:16.382312+05:30
Gwalior,Madhya Pradesh,26.2183,78.1828,32.3,50,0.0,977.2,8.25,82.1,99,138.3,69.6,4.7,384.0,123.0,7.9,0,5,7,1,2026-05-29T03:27:16.382319+05:30
Indore,Madhya Pradesh,22.7196,75.8577,28.5,58,0.0,946.0,8.6,50.4,73,43.0,25.9,5.1,163.0,87.0,12.4,4,5,7,1,2026-05-29T03:27:16.382326+05:30
Bhopal,Madhya Pradesh,23.2599,77.4126,32.3,37,0.0,950.5,8.65,60.8,70,31.1,21.3,3.9,193.0,87.0,5.0,0,5,7,0,2026-05-29T03:27:16.382333+05:30
Jabalpur,Madhya Pradesh,23.1815,79.9864,33.2,30,0.0,957.3,8.8,50.4,67,40.2,23.2,9.7,212.0,74.0,5.0,0,5,7,0,2026-05-29T03:27:16.382341+05:30
Ujjain,Madhya Pradesh,23.1765,75.7885,28.8,60,0.0,951.5,8.55,52.2,73,41.3,24.9,4.8,171.0,74.0,11.6,4,5,7,1,2026-05-29T03:27:16.382348+05:30
Visakhapatnam,Andhra Pradesh,17.6868,83.2185,29.2,81,0.0,999.7,9.05,37.1,108,35.3,29.8,19.4,528.0,94.0,29.4,7,5,7,1,2026-05-29T03:27:16.382355+05:30
Vijayawada,Andhra Pradesh,16.5062,80.648,31.5,62,0.0,998.7,9.0,46.4,93,32.1,28.1,9.7,281.0,95.0,5.7,3,5,7,1,2026-05-29T03:27:16.382363+05:30
Guntur,Andhra Pradesh,16.3067,80.4365,30.6,61,0.0,999.9,8.95,46.1,88,32.7,29.0,16.0,285.0,61.0,5.3,3,5,7,1,2026-05-29T03:27:16.382369+05:30
Nellore,Andhra Pradesh,14.4426,79.9865,29.5,74,0.0,1002.6,9.0,42.5,74,31.0,23.1,8.9,219.0,81.0,4.7,7,5,4,1,2026-05-29T03:27:16.382377+05:30
Kurnool,Andhra Pradesh,15.8281,78.0373,28.8,69,0.0,975.7,8.75,42.1,64,9.3,8.5,9.9,164.0,49.0,5.4,7,5,7,1,2026-05-29T03:27:16.382385+05:30
Kakinada,Andhra Pradesh,16.9891,82.2475,29.7,79,0.0,1003.6,9.0,38.5,105,30.0,23.8,3.0,316.0,150.0,5.1,7,5,4,1,2026-05-29T03:27:16.382392+05:30
Tirupati,Andhra Pradesh,13.6288,79.4192,27.0,71,0.0,988.8,9.0,32.0,80,26.3,20.8,10.4,202.0,78.0,2.7,7,5,7,1,2026-05-29T03:27:16.382398+05:30
Warangal,Telangana,17.9689,79.5941,30.4,56,0.0,975.0,9.05,41.0,79,32.4,26.3,16.8,299.0,62.0,5.7,0,5,7,1,2026-05-29T03:27:16.382404+05:30
Nizamabad,Telangana,18.6725,78.0941,29.5,47,0.0,962.1,9.0,37.8,69,35.9,28.8,19.6,303.0,60.0,5.6,4,5,7,1,2026-05-29T03:27:16.382411+05:30
Mysore,Karnataka,12.2958,76.6396,21.7,93,0.0,928.4,6.55,40.0,36,7.5,6.3,7.3,167.0,49.0,2.0,3,5,7,1,2026-05-29T03:27:16.382418+05:30
Mangalore,Karnataka,12.9141,74.856,26.0,93,0.0,1007.5,7.35,31.7,35,11.6,9.5,9.1,344.0,45.0,2.8,7,5,4,1,2026-05-29T03:27:16.382425+05:30
Hubli-Dharwad,Karnataka,15.3647,75.124,23.3,95,0.0,941.1,6.6,42.1,24,4.4,3.7,4.9,121.0,43.0,1.2,3,5,7,1,2026-05-29T03:27:16.382432+05:30
Belgaum,Karnataka,15.8497,74.4977,22.5,94,0.0,926.0,8.95,43.2,22,6.3,5.1,3.7,112.0,41.0,1.2,3,5,7,1,2026-05-29T03:27:19.633423+05:30
Coimbatore,Tamil Nadu,11.0168,76.9558,24.8,84,0.0,961.7,8.85,52.2,26,4.2,3.5,5.3,134.0,46.0,2.6,3,5,7,1,2026-05-29T03:27:19.633459+05:30
Madurai,Tamil Nadu,9.9252,78.1198,27.3,70,0.0,992.3,8.8,40.7,77,26.8,26.0,42.1,173.0,3.0,6.2,7,5,7,1,2026-05-29T03:27:19.633470+05:30
Trichy,Tamil Nadu,10.7905,78.7047,28.6,66,0.0,998.6,8.8,38.9,59,7.4,6.4,7.9,141.0,48.0,4.0,7,5,7,1,2026-05-29T03:27:19.633479+05:30
Salem,Tamil Nadu,11.6643,78.146,27.4,71,0.0,976.8,8.95,40.0,64,21.7,17.5,18.1,209.0,52.0,6.9,7,5,7,1,2026-05-29T03:27:19.633486+05:30
Tirunelveli,Tamil Nadu,8.7139,77.7567,27.9,73,0.0,1003.6,7.95,36.0,27,8.2,6.7,7.2,150.0,31.0,2.1,7,5,4,1,2026-05-29T03:27:19.633494+05:30
Vellore,Tamil Nadu,12.9165,79.1325,28.0,64,0.0,982.7,8.7,40.0,86,22.6,19.0,10.0,272.0,84.0,4.3,7,5,7,1,2026-05-29T03:27:19.633501+05:30
Erode,Tamil Nadu,11.341,77.7172,27.0,75,0.0,988.5,8.8,49.7,42,11.3,9.8,13.1,189.0,37.0,3.7,7,5,7,1,2026-05-29T03:27:19.633509+05:30
Kochi,Kerala,9.9312,76.2673,26.0,92,0.0,1010.5,8.05,40.3,51,20.5,18.8,20.7,234.0,13.0,5.1,7,0,4,1,2026-05-29T03:27:19.633517+05:30
Thiruvananthapuram,Kerala,8.5241,76.9366,24.1,98,0.0,1010.5,7.15,48.6,28,9.0,4.6,1.6,235.0,44.0,0.7,3,0,4,1,2026-05-29T03:27:19.633524+05:30
Kozhikode,Kerala,11.2588,75.7804,24.6,99,0.0,1009.0,7.7,40.7,30,7.7,4.9,2.2,388.0,61.0,1.2,3,0,4,1,2026-05-29T03:27:19.633531+05:30
Thrissur,Kerala,10.5276,76.2144,23.7,98,0.1,1009.2,7.4,36.4,49,16.4,14.6,14.6,296.0,25.0,4.5,6,0,4,1,2026-05-29T03:27:19.633538+05:30
Kannur,Kerala,11.8745,75.3704,25.8,92,0.0,1008.0,8.25,37.1,30,8.9,7.0,7.5,271.0,38.0,2.0,7,0,4,1,2026-05-29T03:27:19.633545+05:30
Patna,Bihar,25.5941,85.1376,27.5,75,0.0,999.5,8.75,43.6,123,47.0,36.4,8.9,311.0,112.0,15.0,7,5,7,1,2026-05-29T03:27:19.633553+05:30
Gaya,Bihar,24.7914,85.0002,28.1,73,0.0,991.7,8.8,51.1,135,65.7,58.1,15.3,396.0,88.0,33.6,7,5,7,1,2026-05-29T03:27:19.633560+05:30
Muzaffarpur,Bihar,26.1209,85.3647,26.3,80,0.0,1000.2,8.75,43.9,113,41.3,32.1,8.3,314.0,110.0,10.0,7,5,4,1,2026-05-29T03:27:19.633567+05:30
Bhagalpur,Bihar,25.2425,87.0117,23.9,97,0.0,1001.8,8.7,40.3,113,47.5,32.5,6.7,248.0,122.0,6.4,3,5,4,1,2026-05-29T03:27:19.633573+05:30
Ranchi,Jharkhand,23.3441,85.3096,23.5,99,0.0,935.6,9.25,35.3,151,65.7,53.9,12.2,362.0,90.0,14.5,3,5,7,1,2026-05-29T03:27:19.633580+05:30
Jamshedpur,Jharkhand,22.8046,86.2029,26.2,92,0.0,988.5,9.05,35.6,136,45.9,35.5,12.5,262.0,66.0,13.7,7,5,7,1,2026-05-29T03:27:19.633587+05:30
Dhanbad,Jharkhand,23.7957,86.4304,26.2,85,0.0,978.6,9.0,46.1,154,61.7,50.6,35.9,307.0,47.0,88.3,7,5,7,1,2026-05-29T03:27:19.633594+05:30
Bokaro,Jharkhand,23.6693,86.1511,26.5,85,0.0,982.2,9.05,45.0,159,67.8,58.2,41.7,1001.0,38.0,102.6,7,5,7,1,2026-05-29T03:27:19.633601+05:30
Bhubaneswar,Odisha,20.2961,85.8245,28.4,92,0.0,999.0,9.05,45.7,101,29.7,23.8,5.0,244.0,98.0,4.2,7,5,7,1,2026-05-29T03:27:19.633608+05:30
Cuttack,Odisha,20.4625,85.8828,28.2,93,0.0,1000.9,9.1,42.5,101,29.7,23.8,5.0,253.0,98.0,4.2,7,5,4,1,2026-05-29T03:27:19.633614+05:30
Rourkela,Odisha,22.2604,84.8536,27.8,78,0.0,982.4,8.95,44.3,151,60.5,47.7,16.7,387.0,98.0,21.5,7,5,7,1,2026-05-29T03:27:19.633621+05:30
Raipur,Chhattisgarh,21.2514,81.6296,32.8,37,0.0,970.0,8.9,50.0,96,51.6,37.4,29.4,393.0,57.0,45.1,0,5,7,1,2026-05-29T03:27:19.633628+05:30
Bhilai,Chhattisgarh,21.1938,81.3509,31.9,41,0.0,970.3,8.9,54.7,89,51.2,35.7,27.1,494.0,53.0,37.9,0,5,7,1,2026-05-29T03:27:19.633634+05:30
Guwahati,Assam,26.1158,91.7086,22.1,94,0.0,1001.9,8.7,24.5,91,72.6,66.8,26.2,368.0,18.0,1.4,3,5,4,1,2026-05-29T03:27:19.633640+05:30
Agartala,Tripura,23.8315,91.2868,24.6,92,0.0,1005.3,8.65,37.1,110,55.5,46.3,24.6,330.0,33.0,3.7,3,5,4,1,2026-05-29T03:27:19.633647+05:30
Shillong,Meghalaya,25.5788,91.8933,15.6,84,0.0,855.6,9.1,21.2,60,14.8,9.1,7.7,229.0,46.0,0.9,3,10,7,0,2026-05-29T03:27:19.633654+05:30
Imphal,Manipur,24.817,93.9368,20.5,81,0.0,922.8,9.25,17.6,101,70.5,61.7,29.9,425.0,18.0,2.1,3,5,7,1,2026-05-29T03:27:19.633661+05:30
Aizawl,Mizoram,23.7271,92.7176,15.9,99,0.0,890.2,9.05,35.6,68,31.2,21.2,9.9,321.0,31.0,1.4,3,10,7,0,2026-05-29T03:27:19.633668+05:30
Kohima,Nagaland,25.6701,94.1077,16.5,87,0.0,854.5,8.65,27.4,75,51.6,41.3,21.6,228.0,36.0,0.6,3,10,7,0,2026-05-29T03:27:19.633675+05:30
Gangtok,Sikkim,27.3314,88.6138,13.8,89,0.0,837.0,9.1,35.6,61,20.1,13.5,6.2,533.0,76.0,1.0,3,10,7,0,2026-05-29T03:27:19.633682+05:30
Siliguri,West Bengal,26.7271,88.3953,24.2,76,0.0,993.6,8.7,24.8,117,66.1,51.9,17.9,384.0,83.0,5.6,3,5,7,1,2026-05-29T03:27:22.905549+05:30
Durgapur,West Bengal,23.5204,87.3119,24.5,92,0.0,994.0,8.95,38.2,150,61.5,48.5,21.4,430.0,57.0,27.1,3,5,7,1,2026-05-29T03:27:22.905588+05:30
Asansol,West Bengal,23.6739,86.9524,25.3,88,0.0,992.7,8.95,41.4,144,54.4,42.4,20.4,663.0,62.0,29.5,7,5,7,1,2026-05-29T03:27:22.905599+05:30
Pondicherry,Puducherry,11.9139,79.8145,29.1,69,0.0,1006.1,8.9,43.2,72,25.9,21.7,15.6,285.0,64.0,8.3,7,5,4,1,2026-05-29T03:27:22.905609+05:30
Port Blair,Andaman and Nicobar Islands,11.6234,92.7265,25.8,95,0.0,1006.3,8.85,41.4,39,18.2,7.2,0.2,121.0,91.0,0.5,7,5,4,1,2026-05-29T03:27:22.905619+05:30
Haridwar,Uttarakhand,29.9457,78.1642,22.9,74,0.0,970.7,7.5,43.2,104,66.6,36.6,6.0,349.0,134.0,9.1,3,5,7,1,2026-05-29T03:27:22.905627+05:30
Rishikesh,Uttarakhand,30.0869,78.2676,21.2,79,0.0,963.3,7.6,35.6,125,107.6,48.7,6.4,429.0,149.0,8.7,3,5,7,1,2026-05-29T03:27:22.905635+05:30
Nainital,Uttarakhand,29.3919,79.4542,11.7,100,0.0,802.3,7.75,29.5,87,70.8,30.3,4.7,325.0,125.0,4.5,3,10,7,0,2026-05-29T03:27:22.905644+05:30
Mussoorie,Uttarakhand,30.4599,78.0664,11.8,93,0.0,798.7,8.0,32.8,124,78.7,41.1,8.0,305.0,141.0,7.2,3,10,7,0,2026-05-29T03:27:22.905652+05:30
Dharamshala,Himachal Pradesh,32.219,76.3234,21.5,29,0.0,866.5,8.4,29.9,44,11.7,8.6,13.7,178.0,31.0,0.1,0,5,7,0,2026-05-29T03:27:22.905660+05:30
Dalhousie,Himachal Pradesh,32.5387,75.971,14.5,41,0.0,800.3,8.65,29.5,63,23.6,19.2,40.6,287.0,7.0,1.0,0,5,7,0,2026-05-29T03:27:22.905668+05:30
Patiala,Punjab,30.3398,76.3869,26.4,58,0.0,974.0,7.6,56.9,943,789.8,140.2,7.1,389.0,113.0,13.0,4,5,7,1,2026-05-29T03:27:22.905676+05:30
Bhatinda,Punjab,30.211,74.9455,29.1,41,0.0,978.2,8.25,53.3,200,838.2,228.6,8.3,329.0,131.0,14.6,4,5,7,0,2026-05-29T03:27:22.905684+05:30
Rohtak,Haryana,28.8955,76.6066,26.9,68,0.0,977.7,7.7,46.8,735,415.4,110.1,14.1,399.0,108.0,13.8,7,5,7,1,2026-05-29T03:27:22.905692+05:30
Panipat,Haryana,29.3909,76.9635,26.8,66,0.0,976.3,7.55,62.3,1252,486.2,127.1,19.7,415.0,79.0,15.1,7,5,7,1,2026-05-29T03:27:22.905699+05:30
Mathura,Uttar Pradesh,27.4924,77.6737,30.0,62,0.0,982.6,8.0,71.3,480,607.2,125.3,6.1,305.0,130.0,8.4,7,5,7,1,2026-05-29T03:27:22.905706+05:30
Vrindavan,Uttar Pradesh,27.5823,77.7027,29.2,65,0.0,983.1,7.95,72.7,480,607.2,125.3,6.1,309.0,130.0,8.4,7,5,7,1,2026-05-29T03:27:22.905713+05:30
Ayodhya,Uttar Pradesh,26.7922,82.1998,28.4,66,0.0,994.2,8.3,45.7,109,48.2,40.0,7.9,381.0,127.0,12.6,7,5,7,1,2026-05-29T03:27:22.905720+05:30
Ratlam,Madhya Pradesh,23.3315,75.0367,27.2,71,0.0,952.3,8.5,55.1,73,39.6,23.5,5.7,136.0,59.0,11.6,7,5,7,1,2026-05-29T03:27:22.905727+05:30
Sagar,Madhya Pradesh,23.8388,78.7378,32.4,33,0.0,947.0,8.7,76.7,62,25.1,16.8,3.8,213.0,84.0,5.2,0,5,7,0,2026-05-29T03:27:22.905735+05:30
Satna,Madhya Pradesh,24.6005,80.8322,30.5,51,0.0,967.4,8.4,67.3,87,63.8,48.3,6.0,393.0,149.0,16.0,0,5,7,1,2026-05-29T03:27:22.905742+05:30
Akola,Maharashtra,20.7002,77.0082,31.2,41,0.0,972.5,8.8,48.6,68,33.3,22.7,8.1,148.0,83.0,12.6,0,5,7,1,2026-05-29T03:27:22.905749+05:30
Amravati,Maharashtra,20.9374,77.7796,32.5,39,0.0,964.4,8.8,50.0,70,31.9,22.8,8.3,207.0,87.0,11.8,0,5,7,1,2026-05-29T03:27:22.905758+05:30
Latur,Maharashtra,18.4088,76.5604,27.6,57,0.0,938.7,9.0,40.0,61,22.1,18.7,6.5,201.0,110.0,11.5,4,5,7,1,2026-05-29T03:27:22.905766+05:30
Nanded,Maharashtra,19.1383,77.3091,31.6,38,0.0,966.1,8.9,40.3,62,27.4,21.5,16.4,238.0,56.0,6.8,0,5,7,0,2026-05-29T03:27:22.905773+05:30
Gulbarga,Karnataka,17.3297,76.8343,28.2,58,0.0,957.8,9.0,40.7,51,8.9,7.3,7.9,147.0,51.0,2.9,4,5,7,1,2026-05-29T03:27:22.905781+05:30
Bidar,Karnataka,17.9104,77.5199,28.5,53,0.0,934.0,9.0,40.7,74,28.4,22.9,23.5,248.0,52.0,5.5,4,5,7,1,2026-05-29T03:27:22.905788+05:30
Hospet,Karnataka,15.2689,76.3909,24.9,85,0.0,956.3,8.15,41.4,34,4.6,4.1,5.0,143.0,45.0,1.4,3,5,7,1,2026-05-29T03:27:22.905796+05:30
Tirupur,Tamil Nadu,11.1085,77.3411,25.7,82,0.0,974.9,9.0,58.0,42,11.6,10.0,13.3,141.0,37.0,4.0,7,5,7,1,2026-05-29T03:27:22.905803+05:30
Alappuzha,Kerala,9.4981,76.3388,25.8,94,0.2,1010.6,7.75,46.1,38,11.4,8.6,9.1,106.0,41.0,2.1,10,0,4,1,2026-05-29T03:27:22.905811+05:30
Munnar,Kerala,10.0889,77.0595,17.2,99,0.0,857.4,8.4,29.5,25,7.9,6.9,7.6,117.0,30.0,1.3,3,10,7,1,2026-05-29T03:27:22.905819+05:30
Silchar,Assam,24.8333,92.7789,22.7,99,0.0,1004.2,8.9,17.6,114,76.1,62.6,28.6,846.0,22.0,7.1,3,5,4,1,2026-05-29T03:27:22.905826+05:30
Dibrugarh,Assam,27.4728,94.912,23.4,89,0.0,996.3,8.85,13.7,99,79.2,56.3,34.1,799.0,20.0,4.2,3,5,7,1,2026-05-29T03:27:22.905833+05:30
