city,state,latitude,longitude,temp,humidity,rain,pressure,uv_index,wind_gusts,aqi,pm10,pm2_5,no2,co,o3,so2,mosquito_risk,arthritis_risk,migraine_risk,frizz_risk,updated_at
Delhi,Delhi,28.6139,77.209,29.6,80,0.0,974.5,6.6,37.8,156,183.0,80.1,56.1,1358.0,94.0,28.6,7,5,7,1,2026-07-10T20:02:39.921698+05:30
Mumbai,Maharashtra,19.076,72.8777,28.2,83,0.0,1008.1,5.4,44.6,59,29.5,14.0,8.6,195.0,42.0,5.6,7,0,0,1,2026-07-10T20:02:39.921740+05:30
Bangalore,Karnataka,12.9716,77.5946,21.8,92,0.1,913.4,6.7,47.5,37,15.3,11.3,23.9,597.0,41.0,5.8,6,5,7,1,2026-07-10T20:02:39.921755+05:30
Hyderabad,Telangana,17.385,78.4867,29.5,55,0.0,952.1,8.6,44.3,62,38.5,21.4,17.2,493.0,51.0,5.6,4,5,7,1,2026-07-10T20:02:39.921765+05:30
Chennai,Tamil Nadu,13.0827,80.2707,29.2,77,0.1,1007.4,7.75,38.5,68,36.4,23.9,11.0,383.0,104.0,8.1,10,5,4,1,2026-07-10T20:02:39.921774+05:30
Kolkata,West Bengal,22.5726,88.3639,27.0,95,0.0,1000.5,8.0,31.0,74,42.1,36.1,10.7,650.0,96.0,11.2,7,5,4,1,2026-07-10T20:02:39.921781+05:30
Pune,Maharashtra,18.5204,73.8567,24.1,86,0.0,948.1,7.7,46.4,32,22.6,11.0,8.9,159.0,39.0,5.8,3,5,7,1,2026-07-10T20:02:39.921788+05:30
Ahmedabad,Gujarat,23.0225,72.5714,32.4,58,0.0,996.6,8.0,46.4,73,44.4,23.5,7.5,188.0,74.0,4.7,0,5,7,1,2026-07-10T20:02:39.921795+05:30
Jaipur,Rajasthan,26.9124,75.7873,30.5,63,0.0,952.6,8.2,37.8,266,618.4,115.5,7.7,193.0,83.0,4.9,3,5,7,1,2026-07-10T20:02:39.921801+05:30
Lucknow,Uttar Pradesh,26.8467,80.9462,28.8,86,0.1,985.6,7.75,40.3,92,69.6,40.9,15.7,434.0,79.0,7.9,10,5,7,1,2026-07-10T20:02:39.921812+05:30
Kanpur,Uttar Pradesh,26.4499,80.3319,30.4,73,0.0,983.9,6.95,34.9,91,87.8,45.2,14.5,219.0,81.0,6.6,3,5,7,1,2026-07-10T20:02:39.921819+05:30
Chandigarh,Chandigarh,30.7333,76.7794,26.9,89,0.0,960.5,0.5,20.5,176,71.5,62.4,40.1,1354.0,110.0,14.2,7,5,3,1,2026-07-10T20:02:39.921826+05:30
Srinagar,Jammu and Kashmir,34.0837,74.7973,28.3,48,0.0,835.9,9.05,21.6,142,28.1,23.7,22.4,862.0,105.0,4.2,4,5,7,1,2026-07-10T20:02:39.921832+05:30
Jammu,Jammu and Kashmir,32.7266,74.857,27.6,90,0.0,964.0,8.55,25.2,184,89.4,76.6,20.6,525.0,153.0,9.4,7,5,7,1,2026-07-10T20:02:39.921839+05:30
Amritsar,Punjab,31.634,74.8723,27.8,88,0.1,972.1,8.4,41.4,173,92.2,70.5,20.9,692.0,131.0,9.2,10,5,7,1,2026-07-10T20:02:39.921845+05:30
Ludhiana,Punjab,30.901,75.8573,29.7,80,0.0,969.7,7.95,24.8,165,149.0,86.6,35.3,635.0,102.0,10.1,7,5,7,1,2026-07-10T20:02:39.921851+05:30
Jalandhar,Punjab,31.326,75.5762,29.7,80,0.0,970.7,8.15,21.2,165,112.2,84.5,41.9,651.0,96.0,9.0,7,5,7,1,2026-07-10T20:02:39.921857+05:30
Dehradun,Uttarakhand,30.6284,78.0322,19.9,95,0.0,825.3,1.5,26.6,54,6.6,6.5,22.3,259.0,68.0,0.7,3,10,3,1,2026-07-10T20:02:39.921863+05:30
Shimla,Himachal Pradesh,31.1048,77.1734,16.0,99,0.0,779.5,1.2,14.8,59,21.2,19.5,16.9,456.0,107.0,4.5,3,10,3,0,2026-07-10T20:02:39.921874+05:30
Manali,Himachal Pradesh,32.2396,77.1887,20.4,98,0.0,815.0,8.25,32.8,39,18.0,18.0,69.4,232.0,45.0,1.7,3,5,7,1,2026-07-10T20:02:39.921883+05:30
Gurgaon,Haryana,28.4595,77.0266,30.3,79,0.0,973.0,7.4,41.4,164,258.0,107.8,75.6,1424.0,68.0,28.3,3,5,7,1,2026-07-10T20:02:39.921889+05:30
Noida,Uttar Pradesh,28.5355,77.391,29.5,78,0.0,976.0,7.0,40.0,164,258.0,107.8,75.6,1076.0,68.0,28.3,7,5,7,1,2026-07-10T20:02:39.921895+05:30
Ghaziabad,Uttar Pradesh,28.6692,77.4538,29.0,80,0.0,974.1,6.6,35.3,152,59.6,39.1,20.2,536.0,103.0,13.8,7,5,7,1,2026-07-10T20:02:39.921901+05:30
Faridabad,Haryana,28.4089,77.3178,29.8,77,0.0,975.2,7.25,43.6,164,258.0,107.8,75.6,1063.0,68.0,28.3,7,5,7,1,2026-07-10T20:02:39.921907+05:30
Meerut,Uttar Pradesh,28.9845,77.7064,27.7,89,0.0,973.0,4.4,35.6,152,59.6,39.1,20.2,432.0,103.0,13.8,7,5,3,1,2026-07-10T20:02:39.921913+05:30
Agra,Uttar Pradesh,27.1767,78.0081,31.0,75,0.0,979.2,8.05,53.6,157,229.1,86.1,25.6,232.0,63.0,8.0,3,5,7,1,2026-07-10T20:02:39.921920+05:30
Varanasi,Uttar Pradesh,25.3176,82.9739,29.1,84,0.0,990.9,7.5,41.4,82,76.6,41.6,10.9,315.0,80.0,8.5,7,5,7,1,2026-07-10T20:02:39.921926+05:30
Prayagraj,Uttar Pradesh,25.4358,81.8463,29.0,82,0.0,989.0,8.35,35.6,88,85.7,46.7,10.7,211.0,85.0,8.1,7,5,7,1,2026-07-10T20:02:39.921933+05:30
Gorakhpur,Uttar Pradesh,26.7606,83.3732,29.2,87,0.0,989.9,7.0,28.1,83,48.8,38.4,15.8,312.0,80.0,8.1,7,5,7,1,2026-07-10T20:02:39.921939+05:30
Bareilly,Uttar Pradesh,28.367,79.4304,28.6,90,0.0,977.9,7.0,35.6,73,22.6,21.7,20.0,584.0,72.0,7.0,7,5,7,1,2026-07-10T20:02:39.921947+05:30
Aligarh,Uttar Pradesh,27.8974,78.088,30.2,76,0.0,977.0,7.4,46.1,169,182.5,78.7,23.4,527.0,128.0,17.4,3,5,7,1,2026-07-10T20:02:39.921953+05:30
Moradabad,Uttar Pradesh,28.8386,78.7733,26.4,98,0.0,975.3,5.5,36.7,68,30.3,29.2,28.1,637.0,69.0,15.9,7,5,3,1,2026-07-10T20:02:39.921959+05:30
Saharanpur,Uttar Pradesh,29.9637,77.546,26.5,90,0.1,967.4,2.8,32.4,73,24.2,23.4,32.0,484.0,59.0,8.1,10,5,3,1,2026-07-10T20:02:39.921965+05:30
Jhansi,Uttar Pradesh,25.4484,78.5685,31.3,65,0.0,971.0,8.25,44.3,104,55.6,31.0,4.4,159.0,100.0,7.4,3,5,7,1,2026-07-10T20:02:43.284941+05:30
Surat,Gujarat,21.1702,72.8311,28.6,85,0.0,1004.2,6.7,56.5,65,24.3,14.7,14.2,222.0,34.0,25.7,7,5,4,1,2026-07-10T20:02:43.284974+05:30
Vadodara,Gujarat,22.3072,73.1812,29.2,81,0.0,1000.2,6.0,49.7,65,37.0,22.8,13.0,151.0,55.0,13.0,7,5,0,1,2026-07-10T20:02:43.284984+05:30
Rajkot,Gujarat,22.3039,70.8022,30.0,65,0.0,990.2,7.7,55.8,62,44.6,19.4,3.5,114.0,56.0,3.8,7,5,7,1,2026-07-10T20:02:43.284992+05:30
Thane,Maharashtra,19.2183,72.9781,27.5,87,0.0,1007.5,5.8,37.4,59,29.5,14.0,8.6,239.0,42.0,5.6,7,5,0,1,2026-07-10T20:02:43.285001+05:30
Nagpur,Maharashtra,21.1458,79.0882,28.7,72,0.0,969.7,7.3,46.1,83,57.6,29.0,11.3,206.0,68.0,12.0,7,5,7,1,2026-07-10T20:02:43.285009+05:30
Nashik,Maharashtra,19.9975,73.7898,24.2,86,0.0,944.3,7.3,56.9,36,19.9,9.8,5.7,127.0,43.0,2.3,3,5,7,1,2026-07-10T20:02:43.285016+05:30
Aurangabad,Maharashtra,19.8762,75.3433,26.6,69,0.0,942.6,8.6,55.8,47,33.5,15.6,4.3,149.0,69.0,5.5,7,5,7,1,2026-07-10T20:02:43.285023+05:30
Solapur,Maharashtra,17.6599,75.9064,29.0,62,0.0,956.5,5.45,40.3,49,31.2,15.2,5.1,143.0,58.0,2.4,7,5,3,1,2026-07-10T20:02:43.285031+05:30
Kolhapur,Maharashtra,16.705,74.2433,24.0,87,0.0,948.8,8.3,48.2,35,18.0,9.7,6.2,153.0,41.0,2.6,3,5,7,1,2026-07-10T20:02:43.285039+05:30
Goa,Goa,15.2993,74.124,26.2,95,0.0,1000.0,7.9,35.3,59,24.3,13.2,4.8,181.0,40.0,1.6,7,5,4,1,2026-07-10T20:02:43.285046+05:30
Jodhpur,Rajasthan,26.2389,73.0243,32.4,53,0.0,975.3,8.0,47.2,185,391.2,83.8,4.0,128.0,73.0,2.7,0,5,7,1,2026-07-10T20:02:43.285055+05:30
Udaipur,Rajasthan,24.5854,73.7125,28.4,61,0.0,941.2,8.7,46.1,77,45.5,23.5,3.0,121.0,85.0,3.5,7,5,7,1,2026-07-10T20:02:43.285065+05:30
Kota,Rajasthan,25.2138,75.8648,31.2,56,0.0,972.2,8.3,37.8,96,54.6,29.1,5.0,158.0,91.0,6.0,0,5,7,1,2026-07-10T20:02:43.285072+05:30
Bikaner,Rajasthan,28.0229,73.3119,33.8,51,0.0,972.5,8.45,38.2,152,253.3,82.0,2.0,131.0,84.0,4.2,0,5,7,1,2026-07-10T20:02:43.285080+05:30
Ajmer,Rajasthan,26.4499,74.6399,29.5,60,0.0,948.0,8.35,50.4,94,54.1,27.1,4.3,136.0,83.0,3.6,4,5,7,1,2026-07-10T20:02:43.285087+05:30
Gwalior,Madhya Pradesh,26.2183,78.1828,29.6,78,0.0,975.3,8.0,47.2,98,54.2,30.0,7.8,187.0,78.0,4.2,7,5,7,1,2026-07-10T20:02:43.285094+05:30
Indore,Madhya Pradesh,22.7196,75.8577,27.1,72,0.0,944.4,8.45,57.2,76,49.5,27.6,7.2,231.0,79.0,5.9,7,5,7,1,2026-07-10T20:02:43.285100+05:30
Bhopal,Madhya Pradesh,23.2599,77.4126,27.9,68,0.0,949.1,8.25,52.6,83,47.5,25.4,5.2,229.0,74.0,4.1,7,5,7,1,2026-07-10T20:02:43.285107+05:30
Jabalpur,Madhya Pradesh,23.1815,79.9864,27.5,81,0.0,957.2,7.45,42.5,85,48.0,24.7,5.0,176.0,77.0,4.6,7,5,7,1,2026-07-10T20:02:43.285114+05:30
Ujjain,Madhya Pradesh,23.1765,75.7885,28.2,66,0.0,949.7,8.0,53.6,76,51.9,28.2,4.3,207.0,84.0,4.9,7,5,7,1,2026-07-10T20:02:43.285123+05:30
Visakhapatnam,Andhra Pradesh,17.6868,83.2185,30.4,75,0.0,1000.1,8.9,45.0,82,40.6,31.5,26.1,329.0,85.0,40.4,3,5,4,1,2026-07-10T20:02:43.285130+05:30
Vijayawada,Andhra Pradesh,16.5062,80.648,33.4,52,0.0,1000.1,7.45,43.2,73,48.1,30.0,14.0,366.0,55.0,6.0,0,5,4,1,2026-07-10T20:02:43.285137+05:30
Guntur,Andhra Pradesh,16.3067,80.4365,34.6,44,0.0,1001.5,7.8,43.9,76,48.8,29.3,13.2,263.0,54.0,6.0,0,5,4,1,2026-07-10T20:02:43.285144+05:30
Nellore,Andhra Pradesh,14.4426,79.9865,32.4,53,0.0,1004.5,6.25,57.2,59,39.2,22.4,7.5,175.0,82.0,4.8,0,5,4,1,2026-07-10T20:02:43.285173+05:30
Kurnool,Andhra Pradesh,15.8281,78.0373,30.9,53,0.0,975.7,8.25,43.9,56,39.3,19.2,9.7,153.0,57.0,6.1,0,5,7,1,2026-07-10T20:02:43.285183+05:30
Kakinada,Andhra Pradesh,16.9891,82.2475,30.9,68,0.0,1004.3,7.9,46.1,70,38.1,23.9,5.9,267.0,88.0,4.0,3,5,4,1,2026-07-10T20:02:43.285190+05:30
Tirupati,Andhra Pradesh,13.6288,79.4192,27.3,76,0.1,991.8,6.1,56.9,56,48.5,26.8,19.0,152.0,50.0,3.1,10,5,7,1,2026-07-10T20:02:43.285197+05:30
Warangal,Telangana,17.9689,79.5941,29.2,65,0.0,976.5,8.55,42.1,76,46.3,26.4,11.6,290.0,52.0,4.3,7,5,7,1,2026-07-10T20:02:43.285204+05:30
Nizamabad,Telangana,18.6725,78.0941,28.4,68,0.0,962.4,8.6,42.5,69,40.7,21.4,8.6,240.0,64.0,6.3,7,5,7,1,2026-07-10T20:02:43.285211+05:30
Mysore,Karnataka,12.2958,76.6396,22.6,92,0.0,930.3,7.85,43.6,31,8.9,6.2,10.4,173.0,48.0,2.2,3,5,7,1,2026-07-10T20:02:43.285217+05:30
Mangalore,Karnataka,12.9141,74.856,26.6,87,0.0,1009.5,8.25,32.0,56,22.4,11.8,10.6,137.0,37.0,3.3,7,0,4,1,2026-07-10T20:02:43.285224+05:30
Hubli-Dharwad,Karnataka,15.3647,75.124,23.9,88,0.0,942.1,6.9,49.7,30,14.5,7.8,5.5,127.0,41.0,1.6,3,5,7,1,2026-07-10T20:02:43.285232+05:30
Belgaum,Karnataka,15.8497,74.4977,22.9,89,0.0,926.9,8.55,47.2,28,17.3,8.7,6.0,113.0,36.0,1.8,3,5,7,1,2026-07-10T20:02:46.655394+05:30
Coimbatore,Tamil Nadu,11.0168,76.9558,23.9,94,0.0,963.6,8.5,41.8,32,7.0,5.8,10.5,196.0,43.0,3.0,3,5,7,1,2026-07-10T20:02:46.655427+05:30
Madurai,Tamil Nadu,9.9252,78.1198,30.5,58,0.0,994.1,8.65,46.1,56,22.3,16.7,22.6,175.0,45.0,4.8,0,5,7,1,2026-07-10T20:02:46.655438+05:30
Trichy,Tamil Nadu,10.7905,78.7047,30.0,66,0.0,1000.5,6.95,53.6,42,16.1,12.5,12.8,184.0,64.0,3.4,7,5,4,1,2026-07-10T20:02:46.655447+05:30
Salem,Tamil Nadu,11.6643,78.146,25.4,91,0.0,978.9,8.35,43.2,60,18.6,13.0,14.5,606.0,63.0,6.6,7,5,7,1,2026-07-10T20:02:46.655456+05:30
Tirunelveli,Tamil Nadu,8.7139,77.7567,29.9,61,0.0,1004.8,8.6,42.8,34,8.6,5.7,4.4,137.0,59.0,1.7,7,5,4,1,2026-07-10T20:02:46.655464+05:30
Vellore,Tamil Nadu,12.9165,79.1325,25.7,97,0.3,985.6,7.8,38.9,67,23.7,14.9,11.1,223.0,65.0,3.3,10,5,7,1,2026-07-10T20:02:46.655471+05:30
Erode,Tamil Nadu,11.341,77.7172,29.9,61,0.0,990.7,8.2,44.6,49,12.7,9.6,14.1,205.0,53.0,3.0,7,5,7,1,2026-07-10T20:02:46.655478+05:30
Kochi,Kerala,9.9312,76.2673,26.1,92,0.1,1012.1,8.45,32.0,49,17.2,13.0,18.8,173.0,23.0,4.2,10,0,4,1,2026-07-10T20:02:46.655486+05:30
Thiruvananthapuram,Kerala,8.5241,76.9366,26.1,88,0.0,1011.3,7.25,41.8,43,17.2,9.7,4.5,128.0,58.0,1.6,7,0,4,1,2026-07-10T20:02:46.655493+05:30
Kozhikode,Kerala,11.2588,75.7804,24.7,98,0.1,1011.4,8.05,36.7,39,16.1,7.7,1.8,273.0,54.0,1.2,6,0,4,1,2026-07-10T20:02:46.655500+05:30
Thrissur,Kerala,10.5276,76.2144,25.2,97,0.0,1010.3,7.5,35.6,49,16.5,11.9,12.7,219.0,33.0,3.4,7,0,4,1,2026-07-10T20:02:46.655507+05:30
Kannur,Kerala,11.8745,75.3704,25.6,94,0.0,1010.4,8.5,32.4,49,19.3,10.1,10.7,153.0,37.0,2.2,7,0,4,1,2026-07-10T20:02:46.655514+05:30
Patna,Bihar,25.5941,85.1376,27.9,95,0.1,993.7,8.4,32.4,77,33.3,29.7,19.0,427.0,76.0,8.7,10,5,7,1,2026-07-10T20:02:46.655521+05:30
Gaya,Bihar,24.7914,85.0002,28.7,87,0.1,987.4,5.35,40.0,70,37.0,28.1,9.9,310.0,78.0,6.6,10,5,3,1,2026-07-10T20:02:46.655529+05:30
Muzaffarpur,Bihar,26.1209,85.3647,26.8,98,0.3,993.8,8.05,23.4,88,34.9,32.8,22.0,592.0,74.0,8.6,10,5,7,1,2026-07-10T20:02:46.655536+05:30
Bhagalpur,Bihar,25.2425,87.0117,27.2,97,0.1,994.3,8.15,25.6,131,17.2,16.8,14.7,396.0,84.0,6.5,10,5,7,1,2026-07-10T20:02:46.655544+05:30
Ranchi,Jharkhand,23.3441,85.3096,24.8,93,0.0,933.1,7.4,41.8,73,44.8,34.8,7.9,211.0,92.0,11.0,3,5,7,1,2026-07-10T20:02:46.655551+05:30
Jamshedpur,Jharkhand,22.8046,86.2029,26.5,96,0.2,986.0,8.25,29.5,77,42.5,35.2,12.4,278.0,106.0,24.8,10,5,7,1,2026-07-10T20:02:46.655559+05:30
Dhanbad,Jharkhand,23.7957,86.4304,26.9,95,0.1,974.3,8.0,31.3,105,59.6,55.2,52.7,196.0,46.0,89.5,10,5,7,1,2026-07-10T20:02:46.655565+05:30
Bokaro,Jharkhand,23.6693,86.1511,27.2,93,0.0,978.3,7.55,29.9,93,54.8,45.1,29.4,238.0,78.0,64.4,7,5,7,1,2026-07-10T20:02:46.655573+05:30
Bhubaneswar,Odisha,20.2961,85.8245,27.0,95,0.0,998.3,7.95,36.7,76,27.1,22.7,9.1,296.0,80.0,4.9,7,5,7,1,2026-07-10T20:02:46.655580+05:30
Cuttack,Odisha,20.4625,85.8828,27.8,93,0.0,1000.0,8.35,37.8,76,27.1,22.7,9.1,286.0,80.0,4.9,7,5,4,1,2026-07-10T20:02:46.655586+05:30
Rourkela,Odisha,22.2604,84.8536,26.5,95,0.1,981.0,7.2,37.8,98,53.6,37.8,11.6,340.0,100.0,21.0,10,5,7,1,2026-07-10T20:02:46.655594+05:30
Raipur,Chhattisgarh,21.2514,81.6296,29.5,68,0.0,970.9,8.55,40.7,105,62.9,36.7,19.2,421.0,85.0,36.9,7,5,7,1,2026-07-10T20:02:46.655600+05:30
Bhilai,Chhattisgarh,21.1938,81.3509,29.1,70,0.0,971.5,8.55,42.1,102,66.4,35.9,15.1,556.0,91.0,29.8,7,5,7,1,2026-07-10T20:02:46.655607+05:30
Guwahati,Assam,26.1158,91.7086,27.4,96,0.0,994.7,7.05,20.9,51,15.3,15.2,8.2,372.0,55.0,2.3,7,5,7,1,2026-07-10T20:02:46.655615+05:30
Agartala,Tripura,23.8315,91.2868,25.8,98,0.1,1000.4,7.5,50.4,43,11.5,10.9,8.9,197.0,67.0,3.0,10,5,4,1,2026-07-10T20:02:46.655623+05:30
Shillong,Meghalaya,25.5788,91.8933,21.3,93,0.1,853.0,3.15,42.5,36,2.9,2.8,8.0,249.0,60.0,2.0,6,5,3,1,2026-07-10T20:02:46.655630+05:30
Imphal,Manipur,24.817,93.9368,24.2,98,0.0,919.4,2.0,29.9,38,8.2,7.9,8.2,447.0,59.0,2.4,3,5,3,1,2026-07-10T20:02:46.655636+05:30
Aizawl,Mizoram,23.7271,92.7176,20.3,94,0.0,888.7,1.7,49.0,32,1.3,1.2,2.6,125.0,57.0,0.9,3,5,3,1,2026-07-10T20:02:46.655643+05:30
Kohima,Nagaland,25.6701,94.1077,21.4,96,0.0,852.2,5.0,23.0,32,5.3,5.2,6.5,218.0,52.0,1.1,3,5,3,1,2026-07-10T20:02:46.655651+05:30
Gangtok,Sikkim,27.3314,88.6138,20.1,96,0.1,834.4,5.5,30.6,45,4.8,4.8,5.5,300.0,100.0,2.2,6,5,3,1,2026-07-10T20:02:46.655658+05:30
Siliguri,West Bengal,26.7271,88.3953,27.7,83,0.0,986.1,8.4,34.6,75,25.5,25.1,9.5,794.0,109.0,4.8,7,5,7,1,2026-07-10T20:02:50.019144+05:30
Durgapur,West Bengal,23.5204,87.3119,26.5,97,0.7,989.4,6.75,32.0,94,54.8,52.7,46.5,474.0,55.0,62.7,10,5,7,1,2026-07-10T20:02:50.019199+05:30
Asansol,West Bengal,23.6739,86.9524,26.6,95,0.6,987.9,7.15,27.7,87,49.5,46.9,46.6,706.0,52.0,60.0,10,5,7,1,2026-07-10T20:02:50.019211+05:30
Pondicherry,Puducherry,11.9139,79.8145,29.4,76,0.0,1008.9,5.85,37.4,67,38.6,27.9,16.8,329.0,100.0,5.9,7,0,0,1,2026-07-10T20:02:50.019220+05:30
Port Blair,Andaman and Nicobar Islands,11.6234,92.7265,28.0,80,0.0,1008.8,8.75,46.1,45,17.5,8.4,0.4,92.0,42.0,0.4,7,0,4,1,2026-07-10T20:02:50.019229+05:30
Haridwar,Uttarakhand,29.9457,78.1642,27.0,88,0.0,965.8,2.25,24.1,60,16.1,15.9,15.6,291.0,72.0,4.8,7,5,3,1,2026-07-10T20:02:50.019238+05:30
Rishikesh,Uttarakhand,30.0869,78.2676,26.8,86,0.0,958.6,2.5,23.8,51,9.0,8.6,6.3,333.0,100.0,2.6,7,5,3,1,2026-07-10T20:02:50.019245+05:30
Nainital,Uttarakhand,29.3919,79.4542,18.0,100,0.0,800.8,3.7,35.6,47,9.0,8.5,11.6,363.0,79.0,2.0,3,10,3,1,2026-07-10T20:02:50.019253+05:30
Mussoorie,Uttarakhand,30.4599,78.0664,17.9,100,0.0,798.2,4.5,32.4,60,11.5,11.3,24.8,387.0,72.0,4.5,3,10,3,1,2026-07-10T20:02:50.019261+05:30
Dharamshala,Himachal Pradesh,32.219,76.3234,21.7,98,0.0,863.4,8.2,29.5,111,24.1,22.0,10.3,511.0,122.0,1.4,3,5,7,1,2026-07-10T20:02:50.019268+05:30
Dalhousie,Himachal Pradesh,32.5387,75.971,17.8,100,0.0,799.9,7.95,28.8,166,56.3,48.5,21.6,616.0,135.0,4.8,3,10,7,1,2026-07-10T20:02:50.019276+05:30
Patiala,Punjab,30.3398,76.3869,29.4,83,0.0,969.4,7.15,22.0,164,108.0,54.4,17.1,525.0,125.0,8.5,7,5,7,1,2026-07-10T20:02:50.019283+05:30
Bhatinda,Punjab,30.211,74.9455,32.3,68,0.0,973.9,7.85,22.0,164,158.8,80.1,22.1,428.0,88.0,9.6,3,5,7,1,2026-07-10T20:02:50.019290+05:30
Rohtak,Haryana,28.8955,76.6066,30.4,74,0.0,973.1,7.0,32.0,163,379.0,110.6,36.2,535.0,98.0,14.7,3,5,7,1,2026-07-10T20:02:50.019297+05:30
Panipat,Haryana,29.3909,76.9635,27.9,86,0.0,971.8,4.8,25.9,239,1538.5,206.8,18.5,585.0,125.0,16.5,7,5,3,1,2026-07-10T20:02:50.019305+05:30
Mathura,Uttar Pradesh,27.4924,77.6737,30.3,74,0.1,978.4,7.95,50.0,358,284.1,99.4,24.0,250.0,65.0,4.4,6,5,7,1,2026-07-10T20:02:50.019312+05:30
Vrindavan,Uttar Pradesh,27.5823,77.7027,30.1,76,0.1,978.7,7.9,47.2,358,284.1,99.4,24.0,313.0,65.0,4.4,6,5,7,1,2026-07-10T20:02:50.019320+05:30
Ayodhya,Uttar Pradesh,26.7922,82.1998,29.0,87,0.0,987.9,7.0,27.4,90,49.4,33.1,9.8,287.0,87.0,5.0,7,5,7,1,2026-07-10T20:02:50.019327+05:30
Ratlam,Madhya Pradesh,23.3315,75.0367,28.3,67,0.0,950.5,8.45,51.5,74,49.9,27.0,3.6,143.0,87.0,5.0,7,5,7,1,2026-07-10T20:02:50.019335+05:30
Sagar,Madhya Pradesh,23.8388,78.7378,28.3,69,0.0,945.4,8.6,48.2,90,48.4,24.5,3.9,154.0,79.0,3.4,7,5,7,1,2026-07-10T20:02:50.019343+05:30
Satna,Madhya Pradesh,24.6005,80.8322,28.8,73,0.0,965.6,8.6,35.6,92,64.7,34.0,4.7,183.0,87.0,4.7,7,5,7,1,2026-07-10T20:02:50.019350+05:30
Akola,Maharashtra,20.7002,77.0082,30.1,59,0.0,972.1,8.65,50.0,63,43.9,22.1,7.0,198.0,72.0,6.7,0,5,7,1,2026-07-10T20:02:50.019359+05:30
Amravati,Maharashtra,20.9374,77.7796,29.3,62,0.0,964.2,5.85,52.2,65,43.3,21.9,7.7,155.0,75.0,7.9,7,5,3,1,2026-07-10T20:02:50.019367+05:30
Latur,Maharashtra,18.4088,76.5604,28.2,59,0.0,938.5,8.7,42.8,51,29.5,15.1,3.8,167.0,67.0,2.5,4,5,7,1,2026-07-10T20:02:50.019375+05:30
Nanded,Maharashtra,19.1383,77.3091,29.2,59,0.0,966.1,8.4,40.7,61,37.5,19.6,7.1,172.0,66.0,4.1,4,5,7,1,2026-07-10T20:02:50.019382+05:30
Gulbarga,Karnataka,17.3297,76.8343,28.4,65,0.0,957.3,6.9,41.8,53,44.1,19.3,9.0,149.0,62.0,3.1,7,5,7,1,2026-07-10T20:02:50.019389+05:30
Bidar,Karnataka,17.9104,77.5199,28.0,63,0.0,934.2,8.8,43.2,57,36.2,18.3,10.1,164.0,60.0,2.4,7,5,7,1,2026-07-10T20:02:50.019397+05:30
Hospet,Karnataka,15.2689,76.3909,26.5,72,0.0,956.6,6.05,44.6,37,22.7,11.2,5.7,133.0,50.0,1.9,7,5,7,1,2026-07-10T20:02:50.019403+05:30
Tirupur,Tamil Nadu,11.1085,77.3411,25.6,83,0.0,977.1,8.5,41.4,52,13.6,10.7,16.3,179.0,48.0,4.1,7,5,7,1,2026-07-10T20:02:50.019411+05:30
Alappuzha,Kerala,9.4981,76.3388,26.2,93,0.0,1012.1,7.9,36.0,46,15.2,9.3,9.3,88.0,45.0,3.0,7,0,4,1,2026-07-10T20:02:50.019418+05:30
Munnar,Kerala,10.0889,77.0595,17.1,100,0.0,858.7,8.2,39.2,24,6.3,4.8,8.8,122.0,34.0,1.7,3,10,7,1,2026-07-10T20:02:50.019426+05:30
Silchar,Assam,24.8333,92.7789,27.0,97,0.0,1000.1,3.2,29.2,35,7.6,7.2,5.6,233.0,60.0,3.0,7,5,0,1,2026-07-10T20:02:50.019433+05:30
Dibrugarh,Assam,27.4728,94.912,26.3,98,0.4,989.5,5.05,29.9,64,15.9,15.3,8.2,210.0,70.0,2.1,10,5,3,1,2026-07-10T20:02:50.019440+05:30
