city,state,latitude,longitude,temp,humidity,rain,pressure,uv_index,wind_gusts,aqi,pm10,pm2_5,no2,co,o3,so2,mosquito_risk,arthritis_risk,migraine_risk,frizz_risk,updated_at
Delhi,Delhi,28.6139,77.209,31.8,51,0.0,974.3,7.85,68.0,638,440.5,137.8,31.3,631.0,49.0,22.3,0,5,7,1,2026-06-11T04:57:13.884985+05:30
Mumbai,Maharashtra,19.076,72.8777,29.3,80,0.0,1004.6,7.7,40.3,74,55.9,24.6,3.5,150.0,54.0,3.0,7,5,4,1,2026-06-11T04:57:13.885033+05:30
Bangalore,Karnataka,12.9716,77.5946,20.2,97,0.0,909.5,9.1,42.1,39,8.2,6.1,11.6,170.0,31.0,4.4,3,5,7,1,2026-06-11T04:57:13.885048+05:30
Hyderabad,Telangana,17.385,78.4867,25.7,79,0.0,949.7,9.05,37.4,71,24.7,15.7,8.7,178.0,43.0,4.5,7,5,7,1,2026-06-11T04:57:13.885058+05:30
Chennai,Tamil Nadu,13.0827,80.2707,27.4,83,0.0,1003.7,4.3,37.8,61,21.1,12.9,11.1,198.0,53.0,8.6,7,5,0,1,2026-06-11T04:57:13.885066+05:30
Kolkata,West Bengal,22.5726,88.3639,28.4,94,0.0,1000.1,9.0,28.8,129,49.8,42.8,13.0,331.0,57.0,7.2,7,5,4,1,2026-06-11T04:57:13.885073+05:30
Pune,Maharashtra,18.5204,73.8567,25.4,84,0.0,945.0,8.35,41.0,58,17.2,10.4,8.0,107.0,38.0,6.0,7,5,7,1,2026-06-11T04:57:13.885079+05:30
Ahmedabad,Gujarat,23.0225,72.5714,30.0,67,0.0,996.4,8.05,47.2,77,47.8,24.3,3.9,112.0,48.0,3.9,7,5,7,1,2026-06-11T04:57:13.885085+05:30
Jaipur,Rajasthan,26.9124,75.7873,31.1,54,0.0,952.3,8.25,38.5,139,233.3,48.7,4.3,160.0,64.0,3.7,0,5,7,1,2026-06-11T04:57:13.885096+05:30
Lucknow,Uttar Pradesh,26.8467,80.9462,27.9,72,0.0,987.5,8.3,42.8,162,94.3,66.6,8.9,333.0,113.0,11.5,7,5,7,1,2026-06-11T04:57:13.885103+05:30
Kanpur,Uttar Pradesh,26.4499,80.3319,31.0,51,0.0,984.8,8.2,39.6,359,301.7,87.3,13.9,281.0,88.0,10.8,0,5,7,1,2026-06-11T04:57:13.885109+05:30
Chandigarh,Chandigarh,30.7333,76.7794,30.7,49,0.0,961.1,7.85,51.5,112,40.2,28.9,17.6,258.0,87.0,7.2,0,5,7,1,2026-06-11T04:57:13.885116+05:30
Srinagar,Jammu and Kashmir,34.0837,74.7973,14.0,93,0.0,835.8,8.95,29.2,76,40.5,36.4,28.3,276.0,3.0,0.8,3,10,7,0,2026-06-11T04:57:13.885123+05:30
Jammu,Jammu and Kashmir,32.7266,74.857,27.8,45,0.0,963.5,8.65,38.5,83,31.3,28.6,27.3,313.0,28.0,2.9,4,5,7,0,2026-06-11T04:57:13.885130+05:30
Amritsar,Punjab,31.634,74.8723,30.8,50,0.0,971.3,8.5,61.2,116,41.2,34.6,19.1,684.0,70.0,6.3,0,5,7,1,2026-06-11T04:57:13.885136+05:30
Ludhiana,Punjab,30.901,75.8573,30.4,59,0.0,969.9,8.05,50.4,159,538.3,135.0,8.8,403.0,109.0,13.0,0,5,7,1,2026-06-11T04:57:13.885143+05:30
Jalandhar,Punjab,31.326,75.5762,30.4,57,0.0,970.8,8.25,45.0,128,381.8,115.3,18.5,464.0,76.0,12.8,0,5,7,1,2026-06-11T04:57:13.885149+05:30
Dehradun,Uttarakhand,30.6284,78.0322,15.7,92,0.0,825.0,8.2,37.8,68,20.0,17.8,14.7,271.0,41.0,0.2,3,10,7,0,2026-06-11T04:57:13.885156+05:30
Shimla,Himachal Pradesh,31.1048,77.1734,13.2,65,0.0,778.3,8.35,43.9,76,28.4,25.9,24.9,286.0,38.0,2.0,3,5,7,0,2026-06-11T04:57:13.885172+05:30
Manali,Himachal Pradesh,32.2396,77.1887,12.5,69,0.0,812.2,7.7,37.4,54,7.7,4.3,47.1,192.0,54.0,0.0,3,5,7,0,2026-06-11T04:57:13.885178+05:30
Gurgaon,Haryana,28.4595,77.0266,31.4,48,0.0,972.6,7.85,77.8,1008,344.6,106.4,51.7,592.0,12.0,15.2,0,5,7,1,2026-06-11T04:57:13.885185+05:30
Noida,Uttar Pradesh,28.5355,77.391,29.1,63,0.0,975.8,7.75,64.1,1008,344.6,106.4,51.7,366.0,12.0,15.2,7,5,7,1,2026-06-11T04:57:13.885190+05:30
Ghaziabad,Uttar Pradesh,28.6692,77.4538,29.1,62,0.0,974.4,7.7,68.0,551,629.6,139.7,13.9,301.0,72.0,11.5,7,5,7,1,2026-06-11T04:57:13.885199+05:30
Faridabad,Haryana,28.4089,77.3178,30.3,55,0.0,975.1,7.8,72.4,1008,344.6,106.4,51.7,634.0,12.0,15.2,0,5,7,1,2026-06-11T04:57:13.885205+05:30
Meerut,Uttar Pradesh,28.9845,77.7064,29.1,60,0.0,973.8,7.65,52.6,551,629.6,139.7,13.9,324.0,72.0,11.5,4,5,7,1,2026-06-11T04:57:13.885211+05:30
Agra,Uttar Pradesh,27.1767,78.0081,32.7,51,0.0,979.4,8.15,69.1,716,2011.7,258.0,10.3,186.0,57.0,5.9,0,5,7,1,2026-06-11T04:57:13.885216+05:30
Varanasi,Uttar Pradesh,25.3176,82.9739,28.4,75,0.0,991.4,8.65,42.8,149,83.4,66.8,18.3,605.0,75.0,16.8,7,5,7,1,2026-06-11T04:57:13.885223+05:30
Prayagraj,Uttar Pradesh,25.4358,81.8463,30.0,56,0.0,989.2,8.35,33.8,151,89.9,76.4,15.9,465.0,88.0,15.9,4,5,7,1,2026-06-11T04:57:13.885229+05:30
Gorakhpur,Uttar Pradesh,26.7606,83.3732,25.0,86,0.0,992.8,8.7,41.4,157,81.0,52.2,6.7,386.0,126.0,6.6,7,5,7,1,2026-06-11T04:57:13.885238+05:30
Bareilly,Uttar Pradesh,28.367,79.4304,27.9,67,0.0,980.4,8.15,42.1,150,169.0,70.1,8.6,402.0,118.0,9.0,7,5,7,1,2026-06-11T04:57:13.885244+05:30
Aligarh,Uttar Pradesh,27.8974,78.088,29.3,57,0.0,977.0,7.45,60.8,452,530.9,136.4,31.9,327.0,23.0,9.3,4,5,7,1,2026-06-11T04:57:13.885250+05:30
Moradabad,Uttar Pradesh,28.8386,78.7733,29.3,59,0.0,976.8,7.95,51.1,162,105.2,57.3,8.2,369.0,123.0,10.6,4,5,7,1,2026-06-11T04:57:13.885256+05:30
Saharanpur,Uttar Pradesh,29.9637,77.546,29.2,56,0.0,968.4,7.5,51.5,140,45.1,34.3,19.2,338.0,63.0,6.7,4,5,7,1,2026-06-11T04:57:13.885262+05:30
Jhansi,Uttar Pradesh,25.4484,78.5685,32.1,51,0.0,971.0,8.5,51.1,73,31.9,21.0,6.2,149.0,72.0,7.5,0,5,7,1,2026-06-11T04:57:17.137186+05:30
Surat,Gujarat,21.1702,72.8311,29.7,78,0.0,1001.9,7.6,56.2,87,56.9,31.0,15.9,248.0,43.0,27.8,7,5,4,1,2026-06-11T04:57:17.137222+05:30
Vadodara,Gujarat,22.3072,73.1812,29.5,75,0.0,998.9,8.05,53.3,82,45.5,25.5,6.2,117.0,45.0,4.8,7,5,7,1,2026-06-11T04:57:17.137233+05:30
Rajkot,Gujarat,22.3039,70.8022,28.4,79,0.0,988.7,7.55,50.4,74,38.1,19.2,2.9,95.0,51.0,2.8,7,5,7,1,2026-06-11T04:57:17.137242+05:30
Thane,Maharashtra,19.2183,72.9781,28.1,90,0.0,1004.1,7.7,37.1,74,55.9,24.6,3.5,159.0,54.0,3.0,7,5,4,1,2026-06-11T04:57:17.137250+05:30
Nagpur,Maharashtra,21.1458,79.0882,30.8,53,0.0,967.8,8.85,33.5,95,49.8,35.5,14.0,342.0,64.0,14.1,0,5,7,1,2026-06-11T04:57:17.137258+05:30
Nashik,Maharashtra,19.9975,73.7898,24.6,91,0.0,941.9,8.1,47.2,65,28.2,15.0,5.3,108.0,45.0,3.5,3,5,7,1,2026-06-11T04:57:17.137265+05:30
Aurangabad,Maharashtra,19.8762,75.3433,25.6,80,0.0,940.5,8.95,45.4,69,27.4,15.5,10.3,116.0,38.0,9.8,7,5,7,1,2026-06-11T04:57:17.137272+05:30
Solapur,Maharashtra,17.6599,75.9064,26.6,78,0.0,954.4,8.9,39.2,58,17.5,10.9,6.4,139.0,38.0,2.2,7,5,7,1,2026-06-11T04:57:17.137279+05:30
Kolhapur,Maharashtra,16.705,74.2433,23.8,91,0.0,945.5,8.6,44.6,37,11.0,6.1,4.4,123.0,41.0,2.0,3,5,7,1,2026-06-11T04:57:17.137286+05:30
Goa,Goa,15.2993,74.124,24.7,97,0.0,996.3,8.3,32.4,51,44.7,23.2,5.8,290.0,39.0,1.7,3,5,7,1,2026-06-11T04:57:17.137293+05:30
Jodhpur,Rajasthan,26.2389,73.0243,30.6,65,0.0,975.2,8.45,51.8,169,333.4,77.3,2.3,108.0,59.0,2.1,3,5,7,1,2026-06-11T04:57:17.137300+05:30
Udaipur,Rajasthan,24.5854,73.7125,26.2,75,0.0,940.7,8.85,44.6,74,49.4,23.7,4.0,124.0,56.0,4.2,7,5,7,1,2026-06-11T04:57:17.137307+05:30
Kota,Rajasthan,25.2138,75.8648,30.8,62,0.0,972.0,8.4,39.6,80,33.9,24.3,6.6,146.0,68.0,10.6,3,5,7,1,2026-06-11T04:57:17.137314+05:30
Bikaner,Rajasthan,28.0229,73.3119,33.0,55,0.0,972.3,8.5,45.0,155,153.7,63.8,2.4,110.0,60.0,5.0,0,5,7,1,2026-06-11T04:57:17.137321+05:30
Ajmer,Rajasthan,26.4499,74.6399,28.9,68,0.0,947.6,8.4,46.1,66,37.8,20.5,3.7,122.0,66.0,3.2,7,5,7,1,2026-06-11T04:57:17.137328+05:30
Gwalior,Madhya Pradesh,26.2183,78.1828,32.7,51,0.0,975.6,8.3,47.9,69,28.2,21.2,6.1,149.0,69.0,8.6,0,5,7,1,2026-06-11T04:57:17.137334+05:30
Indore,Madhya Pradesh,22.7196,75.8577,26.7,77,0.0,943.7,8.65,45.4,77,36.1,21.5,5.7,141.0,52.0,8.3,7,5,7,1,2026-06-11T04:57:17.137341+05:30
Bhopal,Madhya Pradesh,23.2599,77.4126,28.9,60,0.0,948.9,8.7,40.0,75,41.8,28.6,6.0,208.0,74.0,6.6,4,5,7,1,2026-06-11T04:57:17.137347+05:30
Jabalpur,Madhya Pradesh,23.1815,79.9864,28.5,59,0.0,956.0,8.8,34.6,73,26.7,19.1,12.1,200.0,53.0,3.4,4,5,7,1,2026-06-11T04:57:17.137354+05:30
Ujjain,Madhya Pradesh,23.1765,75.7885,26.9,78,0.0,949.3,8.6,46.4,77,33.8,20.3,5.8,140.0,49.0,8.8,7,5,7,1,2026-06-11T04:57:17.137361+05:30
Visakhapatnam,Andhra Pradesh,17.6868,83.2185,28.4,91,0.0,997.0,8.85,37.4,138,42.8,32.9,30.4,1031.0,60.0,36.6,7,5,7,1,2026-06-11T04:57:17.137368+05:30
Vijayawada,Andhra Pradesh,16.5062,80.648,29.0,68,0.0,998.2,7.75,59.8,100,38.5,29.1,15.4,204.0,54.0,5.9,7,5,7,1,2026-06-11T04:57:17.137375+05:30
Guntur,Andhra Pradesh,16.3067,80.4365,28.7,71,0.0,999.7,6.9,49.0,89,38.3,28.5,13.8,213.0,57.0,7.1,7,5,7,1,2026-06-11T04:57:17.137382+05:30
Nellore,Andhra Pradesh,14.4426,79.9865,28.2,70,0.0,1001.8,7.75,44.6,57,11.8,7.4,6.9,141.0,48.0,4.6,7,5,4,1,2026-06-11T04:57:17.137389+05:30
Kurnool,Andhra Pradesh,15.8281,78.0373,26.0,79,0.0,974.2,8.95,37.8,58,12.8,8.4,10.5,150.0,31.0,3.0,7,5,7,1,2026-06-11T04:57:17.137396+05:30
Kakinada,Andhra Pradesh,16.9891,82.2475,26.1,93,0.0,1001.9,9.05,63.0,89,37.7,24.2,6.7,310.0,85.0,4.2,7,5,4,1,2026-06-11T04:57:17.137403+05:30
Tirupati,Andhra Pradesh,13.6288,79.4192,27.0,70,0.0,987.4,5.05,46.1,54,12.5,6.7,5.1,123.0,47.0,1.2,7,5,3,1,2026-06-11T04:57:17.137410+05:30
Warangal,Telangana,17.9689,79.5941,25.7,87,0.0,974.2,8.75,44.3,97,42.3,31.0,16.9,206.0,43.0,5.6,7,5,7,1,2026-06-11T04:57:17.137417+05:30
Nizamabad,Telangana,18.6725,78.0941,28.8,58,0.0,960.7,8.85,36.0,82,35.9,24.9,8.5,197.0,65.0,7.1,4,5,7,1,2026-06-11T04:57:17.137423+05:30
Mysore,Karnataka,12.2958,76.6396,20.9,95,0.0,926.7,9.05,42.5,22,7.9,5.7,8.0,130.0,30.0,1.7,3,5,7,1,2026-06-11T04:57:17.137429+05:30
Mangalore,Karnataka,12.9141,74.856,23.9,98,0.0,1006.1,8.35,36.0,41,12.3,8.3,10.2,202.0,26.0,3.0,3,5,4,1,2026-06-11T04:57:17.137436+05:30
Hubli-Dharwad,Karnataka,15.3647,75.124,22.7,97,0.0,938.9,8.3,46.4,19,6.7,3.0,2.9,109.0,42.0,1.0,3,5,7,1,2026-06-11T04:57:17.137442+05:30
Belgaum,Karnataka,15.8497,74.4977,22.0,98,0.0,923.4,6.5,44.6,28,13.9,6.6,3.2,108.0,44.0,1.5,3,5,7,1,2026-06-11T04:57:20.373874+05:30
Coimbatore,Tamil Nadu,11.0168,76.9558,23.1,93,0.0,959.9,7.65,54.7,19,4.7,3.4,7.0,164.0,29.0,2.4,3,5,7,1,2026-06-11T04:57:20.373910+05:30
Madurai,Tamil Nadu,9.9252,78.1198,28.3,66,0.0,991.1,7.45,41.0,24,8.8,7.9,17.3,169.0,18.0,4.7,7,5,7,1,2026-06-11T04:57:20.373921+05:30
Trichy,Tamil Nadu,10.7905,78.7047,28.2,68,0.0,997.8,6.8,38.2,21,4.2,3.3,5.9,107.0,38.0,2.7,7,5,7,1,2026-06-11T04:57:20.373949+05:30
Salem,Tamil Nadu,11.6643,78.146,25.9,79,0.0,975.7,6.5,37.8,43,14.0,12.1,20.4,259.0,22.0,6.4,7,5,7,1,2026-06-11T04:57:20.373958+05:30
Tirunelveli,Tamil Nadu,8.7139,77.7567,27.3,77,0.0,1002.0,8.6,44.3,18,4.1,3.4,5.8,144.0,35.0,2.2,7,5,4,1,2026-06-11T04:57:20.373966+05:30
Vellore,Tamil Nadu,12.9165,79.1325,27.1,68,0.0,981.4,8.5,43.2,55,13.2,9.6,12.9,188.0,39.0,4.9,7,5,7,1,2026-06-11T04:57:20.373974+05:30
Erode,Tamil Nadu,11.341,77.7172,24.7,84,0.0,987.6,7.65,46.8,27,8.4,7.4,13.7,152.0,30.0,3.9,3,5,7,1,2026-06-11T04:57:20.373982+05:30
Kochi,Kerala,9.9312,76.2673,25.7,97,0.0,1008.0,7.75,41.0,39,12.4,9.0,14.0,209.0,21.0,4.4,7,0,4,1,2026-06-11T04:57:20.373990+05:30
Thiruvananthapuram,Kerala,8.5241,76.9366,25.0,96,0.0,1007.8,7.85,42.8,29,14.1,7.0,1.9,92.0,56.0,0.7,7,5,4,1,2026-06-11T04:57:20.373997+05:30
Kozhikode,Kerala,11.2588,75.7804,24.3,97,0.0,1007.4,8.05,33.1,27,10.4,4.8,3.0,333.0,53.0,1.6,3,5,4,1,2026-06-11T04:57:20.374004+05:30
Thrissur,Kerala,10.5276,76.2144,24.0,99,0.0,1006.5,7.75,33.8,33,6.0,5.5,13.8,211.0,15.0,3.6,3,5,4,1,2026-06-11T04:57:20.374013+05:30
Kannur,Kerala,11.8745,75.3704,24.3,95,0.0,1006.5,8.35,31.3,29,8.2,6.0,12.4,390.0,20.0,2.3,3,5,4,1,2026-06-11T04:57:20.374020+05:30
Patna,Bihar,25.5941,85.1376,24.9,90,0.0,995.3,8.7,38.2,162,51.7,39.7,8.8,424.0,114.0,17.5,3,5,7,1,2026-06-11T04:57:20.374027+05:30
Gaya,Bihar,24.7914,85.0002,27.3,84,0.0,987.8,8.85,39.2,153,69.2,58.3,18.5,436.0,58.0,27.9,7,5,7,1,2026-06-11T04:57:20.374035+05:30
Muzaffarpur,Bihar,26.1209,85.3647,23.8,90,0.0,996.0,7.05,43.6,160,64.5,50.3,8.2,397.0,108.0,12.3,3,5,7,1,2026-06-11T04:57:20.374041+05:30
Bhagalpur,Bihar,25.2425,87.0117,24.9,90,0.0,997.2,8.8,38.5,155,68.5,53.4,11.8,427.0,87.0,10.8,3,5,7,1,2026-06-11T04:57:20.374047+05:30
Ranchi,Jharkhand,23.3441,85.3096,24.3,74,0.0,932.3,8.7,24.5,147,116.6,51.2,17.5,454.0,63.0,11.1,3,5,7,1,2026-06-11T04:57:20.374054+05:30
Jamshedpur,Jharkhand,22.8046,86.2029,27.0,86,0.0,985.1,9.05,36.7,155,63.8,54.8,20.2,510.0,61.0,25.4,7,5,7,1,2026-06-11T04:57:20.374061+05:30
Dhanbad,Jharkhand,23.7957,86.4304,27.1,96,0.0,974.4,9.05,40.7,161,77.3,70.3,40.0,618.0,48.0,93.0,7,5,7,1,2026-06-11T04:57:20.374068+05:30
Bokaro,Jharkhand,23.6693,86.1511,26.5,90,0.0,978.1,8.85,40.0,156,94.5,84.5,47.8,1567.0,32.0,105.9,7,5,7,1,2026-06-11T04:57:20.374075+05:30
Bhubaneswar,Odisha,20.2961,85.8245,28.0,87,0.0,996.1,9.05,26.6,158,88.9,74.0,26.3,395.0,56.0,8.7,7,5,7,1,2026-06-11T04:57:20.374082+05:30
Cuttack,Odisha,20.4625,85.8828,28.2,90,0.0,998.0,9.15,35.6,158,88.9,74.0,26.3,465.0,56.0,8.7,7,5,7,1,2026-06-11T04:57:20.374089+05:30
Rourkela,Odisha,22.2604,84.8536,26.1,92,0.0,979.4,9.0,27.0,151,139.7,76.8,42.3,931.0,31.0,17.7,7,5,7,1,2026-06-11T04:57:20.374097+05:30
Raipur,Chhattisgarh,21.2514,81.6296,30.2,55,0.0,969.1,8.85,41.8,126,46.3,39.8,33.9,404.0,51.0,45.6,0,5,7,1,2026-06-11T04:57:20.374103+05:30
Bhilai,Chhattisgarh,21.1938,81.3509,29.6,61,0.0,969.6,8.7,37.8,119,46.6,37.4,30.6,677.0,59.0,44.5,7,5,7,1,2026-06-11T04:57:20.374110+05:30
Guwahati,Assam,26.1158,91.7086,23.9,99,0.0,999.1,8.75,23.0,88,43.9,32.9,10.5,391.0,38.0,1.8,3,5,7,1,2026-06-11T04:57:20.374117+05:30
Agartala,Tripura,23.8315,91.2868,25.4,92,0.0,1002.8,8.6,38.2,78,40.6,37.4,18.3,197.0,25.0,3.7,7,5,4,1,2026-06-11T04:57:20.374123+05:30
Shillong,Meghalaya,25.5788,91.8933,16.9,99,0.0,854.0,6.8,23.4,54,12.7,8.3,5.5,203.0,74.0,2.3,3,10,7,1,2026-06-11T04:57:20.374130+05:30
Imphal,Manipur,24.817,93.9368,22.4,96,0.0,920.8,9.25,24.5,98,53.1,47.1,11.7,626.0,39.0,3.0,3,5,7,1,2026-06-11T04:57:20.374136+05:30
Aizawl,Mizoram,23.7271,92.7176,18.4,99,0.0,889.1,9.1,25.6,64,25.1,23.4,14.3,304.0,12.0,0.6,3,10,7,1,2026-06-11T04:57:20.374143+05:30
Kohima,Nagaland,25.6701,94.1077,19.5,90,0.0,853.3,9.25,33.5,68,29.6,21.6,7.0,273.0,50.0,2.0,3,10,7,1,2026-06-11T04:57:20.374149+05:30
Gangtok,Sikkim,27.3314,88.6138,15.6,93,0.1,834.5,9.1,37.4,108,32.2,23.4,8.3,671.0,122.0,4.4,6,10,7,0,2026-06-11T04:57:20.374156+05:30
Siliguri,West Bengal,26.7271,88.3953,22.9,99,0.0,990.5,8.75,31.7,142,92.9,64.7,9.6,369.0,125.0,9.3,3,5,7,1,2026-06-11T04:57:23.632929+05:30
Durgapur,West Bengal,23.5204,87.3119,28.2,95,0.0,989.6,9.0,32.4,168,74.7,67.8,26.6,367.0,49.0,34.9,7,5,7,1,2026-06-11T04:57:23.632984+05:30
Asansol,West Bengal,23.6739,86.9524,28.4,95,0.0,988.2,9.0,38.2,162,63.1,56.9,22.6,606.0,64.0,36.1,7,5,7,1,2026-06-11T04:57:23.632995+05:30
Pondicherry,Puducherry,11.9139,79.8145,27.6,83,0.0,1005.4,7.4,31.3,58,19.0,15.1,14.7,250.0,41.0,5.0,7,5,4,1,2026-06-11T04:57:23.633003+05:30
Port Blair,Andaman and Nicobar Islands,11.6234,92.7265,25.1,97,0.0,1006.1,2.85,49.7,26,8.4,5.1,0.3,90.0,61.0,0.2,7,5,0,1,2026-06-11T04:57:23.633010+05:30
Haridwar,Uttarakhand,29.9457,78.1642,26.8,69,0.0,967.0,7.6,50.0,118,33.3,29.6,20.9,313.0,49.0,4.1,7,5,7,1,2026-06-11T04:57:23.633018+05:30
Rishikesh,Uttarakhand,30.0869,78.2676,24.7,65,0.0,960.0,7.7,40.7,92,29.6,25.3,13.3,362.0,61.0,2.5,3,5,7,1,2026-06-11T04:57:23.633025+05:30
Nainital,Uttarakhand,29.3919,79.4542,11.5,97,0.1,800.9,7.95,36.4,107,58.3,40.9,15.0,297.0,73.0,3.4,6,10,7,0,2026-06-11T04:57:23.633032+05:30
Mussoorie,Uttarakhand,30.4599,78.0664,15.8,83,0.0,799.1,8.15,39.2,89,29.0,25.3,24.2,318.0,34.0,3.2,3,10,7,0,2026-06-11T04:57:23.633039+05:30
Dharamshala,Himachal Pradesh,32.219,76.3234,23.2,46,0.0,864.5,8.5,41.0,61,12.8,10.6,15.4,234.0,22.0,0.0,0,5,7,0,2026-06-11T04:57:23.633046+05:30
Dalhousie,Himachal Pradesh,32.5387,75.971,13.0,78,0.0,797.5,8.75,32.4,86,34.0,32.4,30.1,355.0,10.0,0.7,3,5,7,0,2026-06-11T04:57:23.633053+05:30
Patiala,Punjab,30.3398,76.3869,30.0,58,0.0,969.9,7.65,52.2,760,1780.7,244.9,6.6,378.0,113.0,12.1,4,5,7,1,2026-06-11T04:57:23.633061+05:30
Bhatinda,Punjab,30.211,74.9455,31.9,45,0.0,973.5,8.35,72.4,155,232.4,80.1,39.6,246.0,33.0,7.8,0,5,7,1,2026-06-11T04:57:23.633067+05:30
Rohtak,Haryana,28.8955,76.6066,30.7,54,0.0,972.5,7.85,73.4,822,480.6,108.7,45.5,621.0,21.0,14.5,0,5,7,1,2026-06-11T04:57:23.633074+05:30
Panipat,Haryana,29.3909,76.9635,29.5,60,0.0,971.9,7.65,48.2,1406,2421.4,349.2,27.4,345.0,54.0,17.0,4,5,7,1,2026-06-11T04:57:23.633080+05:30
Mathura,Uttar Pradesh,27.4924,77.6737,30.6,59,0.0,978.1,7.2,63.7,422,1076.6,137.8,15.3,222.0,45.0,4.3,0,5,7,1,2026-06-11T04:57:23.633086+05:30
Vrindavan,Uttar Pradesh,27.5823,77.7027,30.4,63,0.0,978.6,7.15,65.2,422,1076.6,137.8,15.3,243.0,45.0,4.3,3,5,7,1,2026-06-11T04:57:23.633092+05:30
Ayodhya,Uttar Pradesh,26.7922,82.1998,24.4,92,0.1,990.9,8.45,42.5,154,90.8,63.6,7.7,478.0,123.0,10.1,6,5,7,1,2026-06-11T04:57:23.633099+05:30
Ratlam,Madhya Pradesh,23.3315,75.0367,26.4,83,0.0,950.0,8.55,46.8,76,30.0,18.7,6.3,137.0,45.0,9.4,7,5,7,1,2026-06-11T04:57:23.633105+05:30
Sagar,Madhya Pradesh,23.8388,78.7378,29.2,53,0.0,945.2,8.75,39.6,67,31.3,21.5,7.8,205.0,62.0,4.3,4,5,7,1,2026-06-11T04:57:23.633111+05:30
Satna,Madhya Pradesh,24.6005,80.8322,30.5,40,0.0,964.7,8.35,49.3,71,22.2,16.2,15.4,223.0,47.0,3.7,0,5,7,0,2026-06-11T04:57:23.633117+05:30
Akola,Maharashtra,20.7002,77.0082,30.4,57,0.0,970.9,8.8,38.9,74,34.9,21.1,7.9,123.0,49.0,8.6,0,5,7,1,2026-06-11T04:57:23.633125+05:30
Amravati,Maharashtra,20.9374,77.7796,30.1,55,0.0,962.8,8.85,38.9,75,38.9,23.8,8.5,147.0,55.0,9.6,0,5,7,1,2026-06-11T04:57:23.633132+05:30
Latur,Maharashtra,18.4088,76.5604,25.8,79,0.0,936.5,8.85,33.8,69,26.3,14.6,6.1,133.0,41.0,3.2,7,5,7,1,2026-06-11T04:57:23.633139+05:30
Nanded,Maharashtra,19.1383,77.3091,29.5,61,0.0,964.7,8.9,40.7,78,33.8,21.4,6.5,138.0,62.0,7.0,7,5,7,1,2026-06-11T04:57:23.633146+05:30
Gulbarga,Karnataka,17.3297,76.8343,25.9,80,0.0,955.5,8.75,39.6,56,17.1,10.7,7.1,123.0,37.0,3.0,7,5,7,1,2026-06-11T04:57:23.633152+05:30
Bidar,Karnataka,17.9104,77.5199,25.8,69,0.0,932.1,8.8,37.1,73,27.9,17.9,7.1,124.0,46.0,2.7,7,5,7,1,2026-06-11T04:57:23.633159+05:30
Hospet,Karnataka,15.2689,76.3909,23.7,90,0.0,954.0,9.0,41.0,33,9.7,5.2,4.3,115.0,40.0,1.1,3,5,7,1,2026-06-11T04:57:23.633165+05:30
Tirupur,Tamil Nadu,11.1085,77.3411,23.5,92,0.0,973.6,7.95,57.6,32,11.1,9.7,17.9,132.0,22.0,4.7,3,5,7,1,2026-06-11T04:57:23.633171+05:30
Alappuzha,Kerala,9.4981,76.3388,25.8,96,0.0,1008.2,7.35,36.4,30,12.5,6.9,5.9,93.0,45.0,2.3,7,0,4,1,2026-06-11T04:57:23.633177+05:30
Munnar,Kerala,10.0889,77.0595,17.1,99,0.0,855.4,7.8,37.4,17,1.4,1.3,3.2,96.0,35.0,1.3,3,10,7,1,2026-06-11T04:57:23.633184+05:30
Silchar,Assam,24.8333,92.7789,25.4,100,0.0,1002.2,8.9,44.6,97,40.7,34.5,16.0,420.0,21.0,3.0,7,5,4,1,2026-06-11T04:57:23.633190+05:30
Dibrugarh,Assam,27.4728,94.912,23.8,99,0.2,993.0,8.75,19.4,78,27.0,20.2,11.2,264.0,60.0,1.2,6,5,7,1,2026-06-11T04:57:23.633197+05:30
