city,state,latitude,longitude,temp,humidity,rain,pressure,uv_index,wind_gusts,aqi,pm10,pm2_5,no2,co,o3,so2,mosquito_risk,arthritis_risk,migraine_risk,frizz_risk,updated_at
Delhi,Delhi,28.6139,77.209,36.0,41,0.0,979.6,7.75,34.2,156,309.2,96.2,25.5,520.0,88.0,19.0,0,5,10,1,2026-06-27T09:11:24.973751+05:30
Mumbai,Maharashtra,19.076,72.8777,28.3,81,0.0,1007.2,6.8,35.6,64,21.6,13.4,14.2,267.0,44.0,18.5,7,5,4,1,2026-06-27T09:11:24.973798+05:30
Bangalore,Karnataka,12.9716,77.5946,24.6,73,0.0,911.5,9.15,37.8,38,15.3,9.5,8.8,342.0,45.0,4.7,3,5,7,1,2026-06-27T09:11:24.973813+05:30
Hyderabad,Telangana,17.385,78.4867,27.9,69,0.0,952.0,8.0,38.5,79,34.8,18.2,9.5,381.0,58.0,6.3,7,5,7,1,2026-06-27T09:11:24.973823+05:30
Chennai,Tamil Nadu,13.0827,80.2707,32.3,56,0.0,1005.4,8.2,44.6,78,32.7,24.8,19.4,446.0,62.0,13.9,0,5,4,1,2026-06-27T09:11:24.973833+05:30
Kolkata,West Bengal,22.5726,88.3639,31.1,73,0.0,1003.8,8.8,27.7,85,18.3,15.0,4.0,355.0,93.0,6.3,3,5,4,1,2026-06-27T09:11:24.973841+05:30
Pune,Maharashtra,18.5204,73.8567,27.2,68,0.0,947.3,7.45,39.2,48,12.5,7.7,6.3,159.0,49.0,8.2,7,5,7,1,2026-06-27T09:11:24.973848+05:30
Ahmedabad,Gujarat,23.0225,72.5714,32.5,58,0.0,1000.1,8.05,37.8,74,48.3,19.8,4.6,146.0,50.0,3.6,0,5,4,1,2026-06-27T09:11:24.973854+05:30
Jaipur,Rajasthan,26.9124,75.7873,32.9,50,0.0,957.6,8.2,33.8,122,190.5,45.3,7.2,227.0,66.0,5.4,0,5,7,1,2026-06-27T09:11:24.973866+05:30
Lucknow,Uttar Pradesh,26.8467,80.9462,35.2,54,0.0,989.9,7.85,26.6,127,83.1,39.6,9.0,270.0,112.0,9.3,0,5,10,1,2026-06-27T09:11:24.973875+05:30
Kanpur,Uttar Pradesh,26.4499,80.3319,35.9,46,0.0,988.1,8.2,31.3,126,141.6,39.1,7.8,209.0,99.0,6.4,0,5,10,1,2026-06-27T09:11:24.973882+05:30
Chandigarh,Chandigarh,30.7333,76.7794,34.3,45,0.0,965.8,7.8,27.4,153,92.4,48.7,11.5,612.0,152.0,17.4,0,5,7,1,2026-06-27T09:11:24.973889+05:30
Srinagar,Jammu and Kashmir,34.0837,74.7973,23.3,54,0.0,843.7,9.1,24.8,74,29.0,25.6,7.9,440.0,106.0,5.0,0,5,7,0,2026-06-27T09:11:24.973896+05:30
Jammu,Jammu and Kashmir,32.7266,74.857,34.8,41,0.0,969.8,8.65,30.6,138,50.5,32.2,12.6,380.0,122.0,4.4,0,5,7,1,2026-06-27T09:11:24.973902+05:30
Amritsar,Punjab,31.634,74.8723,32.3,63,0.0,977.3,8.45,13.3,167,120.1,77.1,14.0,699.0,144.0,11.2,3,5,7,1,2026-06-27T09:11:24.973909+05:30
Ludhiana,Punjab,30.901,75.8573,34.9,47,0.0,975.3,8.05,25.2,159,122.5,72.6,13.8,572.0,128.0,14.8,0,5,7,1,2026-06-27T09:11:24.973915+05:30
Jalandhar,Punjab,31.326,75.5762,34.7,47,0.0,976.3,8.25,23.4,162,129.5,80.6,17.2,568.0,133.0,11.5,0,5,7,1,2026-06-27T09:11:24.973921+05:30
Dehradun,Uttarakhand,30.6284,78.0322,23.5,66,0.0,832.0,8.25,30.2,70,28.9,10.9,2.4,203.0,122.0,0.8,3,5,7,1,2026-06-27T09:11:24.973928+05:30
Shimla,Himachal Pradesh,31.1048,77.1734,21.7,52,0.0,787.2,7.35,37.8,90,52.0,23.7,2.9,242.0,132.0,4.3,0,5,7,0,2026-06-27T09:11:24.973934+05:30
Manali,Himachal Pradesh,32.2396,77.1887,23.9,52,0.0,821.2,8.35,34.9,53,3.0,2.9,12.4,212.0,98.0,0.0,0,5,7,0,2026-06-27T09:11:24.973943+05:30
Gurgaon,Haryana,28.4595,77.0266,34.9,45,0.0,978.2,7.25,38.5,163,262.6,76.6,27.8,403.0,77.0,21.1,0,5,7,1,2026-06-27T09:11:24.973951+05:30
Noida,Uttar Pradesh,28.5355,77.391,34.3,54,0.0,981.0,7.8,16.6,163,262.6,76.6,27.8,616.0,77.0,21.1,0,5,7,1,2026-06-27T09:11:24.973957+05:30
Ghaziabad,Uttar Pradesh,28.6692,77.4538,33.8,56,0.0,979.2,7.75,24.5,158,261.7,90.6,20.6,664.0,114.0,19.6,0,5,7,1,2026-06-27T09:11:24.973963+05:30
Faridabad,Haryana,28.4089,77.3178,35.0,46,0.0,980.3,7.8,31.3,163,262.6,76.6,27.8,458.0,77.0,21.1,0,5,7,1,2026-06-27T09:11:24.973969+05:30
Meerut,Uttar Pradesh,28.9845,77.7064,34.1,52,0.0,978.1,7.7,29.2,158,261.7,90.6,20.6,705.0,114.0,19.6,0,5,7,1,2026-06-27T09:11:24.973975+05:30
Agra,Uttar Pradesh,27.1767,78.0081,35.2,46,0.0,984.4,8.1,29.5,132,136.9,49.8,17.7,258.0,85.0,8.9,0,5,10,1,2026-06-27T09:11:24.973982+05:30
Varanasi,Uttar Pradesh,25.3176,82.9739,34.1,56,0.0,994.8,8.4,23.4,99,37.5,33.6,8.1,305.0,116.0,11.3,0,5,7,1,2026-06-27T09:11:24.973988+05:30
Prayagraj,Uttar Pradesh,25.4358,81.8463,34.2,54,0.0,993.0,8.55,51.1,106,38.1,30.7,7.8,206.0,108.0,10.2,0,5,7,1,2026-06-27T09:11:24.973995+05:30
Gorakhpur,Uttar Pradesh,26.7606,83.3732,32.4,63,0.0,994.5,8.3,30.2,159,60.3,51.2,8.0,390.0,147.0,11.0,3,5,7,1,2026-06-27T09:11:24.974002+05:30
Bareilly,Uttar Pradesh,28.367,79.4304,34.8,49,0.0,983.0,8.1,25.9,159,139.2,83.6,18.0,506.0,130.0,15.3,0,5,7,1,2026-06-27T09:11:24.974010+05:30
Aligarh,Uttar Pradesh,27.8974,78.088,34.5,51,0.0,982.2,7.95,23.8,158,226.3,84.8,19.7,324.0,94.0,18.9,0,5,7,1,2026-06-27T09:11:24.974016+05:30
Moradabad,Uttar Pradesh,28.8386,78.7733,35.3,45,0.0,980.1,7.95,31.3,163,135.5,74.7,17.4,567.0,158.0,14.8,0,5,10,1,2026-06-27T09:11:24.974023+05:30
Saharanpur,Uttar Pradesh,29.9637,77.546,34.0,52,0.0,972.4,7.45,23.8,166,138.3,64.3,12.3,421.0,165.0,13.1,0,5,7,1,2026-06-27T09:11:24.974028+05:30
Jhansi,Uttar Pradesh,25.4484,78.5685,34.3,52,0.0,975.1,8.45,29.2,86,47.6,27.2,5.4,195.0,84.0,10.9,0,5,7,1,2026-06-27T09:11:28.200709+05:30
Surat,Gujarat,21.1702,72.8311,31.7,62,0.0,1005.0,7.6,41.0,87,53.6,27.4,18.3,236.0,34.0,53.0,3,5,4,1,2026-06-27T09:11:28.200741+05:30
Vadodara,Gujarat,22.3072,73.1812,33.1,55,0.0,1002.4,8.0,40.0,79,40.5,21.1,7.6,168.0,46.0,8.1,0,5,4,1,2026-06-27T09:11:28.200752+05:30
Rajkot,Gujarat,22.3039,70.8022,31.0,63,0.0,992.3,7.55,49.7,65,41.9,16.5,4.5,111.0,51.0,7.0,3,5,7,1,2026-06-27T09:11:28.200760+05:30
Thane,Maharashtra,19.2183,72.9781,28.7,79,0.0,1006.5,6.8,33.1,64,21.6,13.4,14.2,251.0,44.0,18.5,7,5,4,1,2026-06-27T09:11:28.200768+05:30
Nagpur,Maharashtra,21.1458,79.0882,29.5,75,0.0,971.3,7.8,43.2,92,27.5,21.9,13.9,305.0,73.0,23.8,7,5,7,1,2026-06-27T09:11:28.200775+05:30
Nashik,Maharashtra,19.9975,73.7898,27.2,72,0.0,944.5,7.85,38.5,59,26.3,13.6,7.0,128.0,44.0,11.0,7,5,7,1,2026-06-27T09:11:28.200782+05:30
Aurangabad,Maharashtra,19.8762,75.3433,27.5,70,0.0,943.3,5.6,29.9,65,41.6,18.7,5.4,131.0,53.0,7.8,7,5,3,1,2026-06-27T09:11:28.200789+05:30
Solapur,Maharashtra,17.6599,75.9064,28.2,65,0.0,956.5,3.35,31.7,54,15.0,9.5,5.0,129.0,62.0,4.9,7,5,3,1,2026-06-27T09:11:28.200796+05:30
Kolhapur,Maharashtra,16.705,74.2433,26.5,71,0.0,947.5,6.9,39.6,34,10.7,6.3,3.6,151.0,50.0,2.2,7,5,7,1,2026-06-27T09:11:28.200803+05:30
Goa,Goa,15.2993,74.124,27.3,88,0.0,998.0,5.7,28.4,51,15.9,8.5,2.0,139.0,53.0,0.8,7,5,3,1,2026-06-27T09:11:28.200810+05:30
Jodhpur,Rajasthan,26.2389,73.0243,32.7,56,0.0,980.4,8.4,26.3,93,217.9,50.9,3.2,124.0,53.0,3.5,0,5,7,1,2026-06-27T09:11:28.200818+05:30
Udaipur,Rajasthan,24.5854,73.7125,30.1,59,0.0,944.8,7.2,44.3,67,46.3,24.1,4.4,140.0,65.0,4.4,0,5,7,1,2026-06-27T09:11:28.200824+05:30
Kota,Rajasthan,25.2138,75.8648,33.3,53,0.0,976.2,8.3,42.5,90,52.3,25.6,5.2,201.0,72.0,4.4,0,5,7,1,2026-06-27T09:11:28.200831+05:30
Bikaner,Rajasthan,28.0229,73.3119,35.4,40,0.0,978.7,8.45,32.0,109,60.5,20.4,1.9,139.0,65.0,3.9,0,5,10,1,2026-06-27T09:11:28.200838+05:30
Ajmer,Rajasthan,26.4499,74.6399,31.3,54,0.0,952.8,8.35,33.8,86,47.1,23.2,5.3,187.0,67.0,4.9,0,5,7,1,2026-06-27T09:11:28.200844+05:30
Gwalior,Madhya Pradesh,26.2183,78.1828,35.6,45,0.0,980.0,8.25,32.0,79,56.6,32.6,5.5,171.0,80.0,8.1,0,5,10,1,2026-06-27T09:11:28.200850+05:30
Indore,Madhya Pradesh,22.7196,75.8577,28.4,73,0.0,946.7,8.2,40.7,88,54.0,30.4,8.1,242.0,58.0,12.6,7,5,7,1,2026-06-27T09:11:28.200857+05:30
Bhopal,Madhya Pradesh,23.2599,77.4126,30.3,66,0.0,952.0,8.6,25.9,83,46.6,27.8,5.3,445.0,79.0,3.5,3,5,7,1,2026-06-27T09:11:28.200864+05:30
Jabalpur,Madhya Pradesh,23.1815,79.9864,31.5,60,0.0,959.8,8.85,31.3,70,22.7,17.7,5.1,241.0,88.0,3.3,0,5,7,1,2026-06-27T09:11:28.200871+05:30
Ujjain,Madhya Pradesh,23.1765,75.7885,29.2,69,0.0,952.4,8.3,31.3,85,45.2,27.6,7.4,249.0,50.0,13.9,7,5,7,1,2026-06-27T09:11:28.200878+05:30
Visakhapatnam,Andhra Pradesh,17.6868,83.2185,29.8,76,0.0,1001.5,6.85,31.0,96,31.2,26.8,23.5,528.0,79.0,45.4,7,5,4,1,2026-06-27T09:11:28.200885+05:30
Vijayawada,Andhra Pradesh,16.5062,80.648,30.2,67,0.0,1000.4,8.5,29.9,70,34.8,23.2,5.6,197.0,92.0,6.2,3,5,4,1,2026-06-27T09:11:28.200892+05:30
Guntur,Andhra Pradesh,16.3067,80.4365,30.0,67,0.0,1001.6,7.75,33.5,69,34.1,22.6,5.7,197.0,89.0,5.7,7,5,4,1,2026-06-27T09:11:28.200898+05:30
Nellore,Andhra Pradesh,14.4426,79.9865,31.5,59,0.0,1003.9,8.75,35.3,61,18.1,11.0,5.7,160.0,57.0,6.9,0,5,4,1,2026-06-27T09:11:28.200905+05:30
Kurnool,Andhra Pradesh,15.8281,78.0373,29.6,60,0.0,976.1,7.7,35.3,54,16.3,10.0,5.3,179.0,45.0,4.4,4,5,7,1,2026-06-27T09:11:28.200913+05:30
Kakinada,Andhra Pradesh,16.9891,82.2475,28.6,81,0.0,1005.2,6.5,32.4,72,26.1,19.4,5.4,264.0,98.0,5.9,7,5,4,1,2026-06-27T09:11:28.200920+05:30
Tirupati,Andhra Pradesh,13.6288,79.4192,31.6,52,0.0,989.6,8.35,36.4,55,22.1,12.2,4.6,135.0,64.0,1.8,0,5,7,1,2026-06-27T09:11:28.200926+05:30
Warangal,Telangana,17.9689,79.5941,29.7,69,0.0,976.8,8.95,33.5,81,48.1,27.6,5.1,200.0,82.0,6.1,7,5,7,1,2026-06-27T09:11:28.200932+05:30
Nizamabad,Telangana,18.6725,78.0941,28.3,71,0.1,963.8,8.3,35.6,88,50.3,26.2,4.2,188.0,89.0,4.8,10,5,7,1,2026-06-27T09:11:28.200939+05:30
Mysore,Karnataka,12.2958,76.6396,26.1,67,0.0,928.8,9.0,38.9,30,11.0,7.1,4.8,134.0,49.0,2.1,7,5,7,1,2026-06-27T09:11:28.200945+05:30
Mangalore,Karnataka,12.9141,74.856,27.1,84,0.0,1007.4,8.5,36.4,44,15.2,8.5,4.5,180.0,49.0,2.6,7,5,4,1,2026-06-27T09:11:28.200952+05:30
Hubli-Dharwad,Karnataka,15.3647,75.124,25.9,75,0.0,940.7,7.1,41.8,22,4.1,2.2,2.7,119.0,47.0,1.0,7,5,7,1,2026-06-27T09:11:28.200959+05:30
Belgaum,Karnataka,15.8497,74.4977,25.1,76,0.0,925.5,8.8,38.9,25,5.4,3.4,3.2,119.0,50.0,2.4,7,5,7,1,2026-06-27T09:11:31.441350+05:30
Coimbatore,Tamil Nadu,11.0168,76.9558,27.1,72,0.0,961.7,8.85,45.0,33,17.1,9.4,3.7,199.0,56.0,3.2,7,5,7,1,2026-06-27T09:11:31.441383+05:30
Madurai,Tamil Nadu,9.9252,78.1198,32.4,46,0.0,992.5,8.5,36.0,67,18.7,13.2,10.9,151.0,59.0,6.0,0,5,7,1,2026-06-27T09:11:31.441394+05:30
Trichy,Tamil Nadu,10.7905,78.7047,31.5,56,0.0,998.8,7.5,36.0,46,18.9,11.2,4.3,147.0,54.0,3.7,0,5,7,1,2026-06-27T09:11:31.441402+05:30
Salem,Tamil Nadu,11.6643,78.146,29.3,59,0.0,977.1,8.8,45.0,56,23.3,16.9,12.2,214.0,58.0,15.0,4,5,7,1,2026-06-27T09:11:31.441411+05:30
Tirunelveli,Tamil Nadu,8.7139,77.7567,32.9,47,0.0,1002.6,8.55,39.6,34,12.0,8.1,4.2,133.0,53.0,2.4,0,5,4,1,2026-06-27T09:11:31.441418+05:30
Vellore,Tamil Nadu,12.9165,79.1325,30.4,57,0.0,983.0,8.9,43.6,59,23.1,13.4,6.6,173.0,67.0,4.9,0,5,7,1,2026-06-27T09:11:31.441425+05:30
Erode,Tamil Nadu,11.341,77.7172,30.8,56,0.0,988.8,8.55,44.6,50,19.0,13.0,8.3,203.0,50.0,3.8,0,5,7,1,2026-06-27T09:11:31.441433+05:30
Kochi,Kerala,9.9312,76.2673,27.8,83,0.0,1009.5,8.55,36.0,55,12.8,8.9,5.8,150.0,50.0,3.9,7,0,4,1,2026-06-27T09:11:31.441441+05:30
Thiruvananthapuram,Kerala,8.5241,76.9366,27.3,84,0.1,1009.0,8.1,40.0,41,17.0,10.1,3.7,140.0,49.0,2.3,10,0,4,1,2026-06-27T09:11:31.441449+05:30
Kozhikode,Kerala,11.2588,75.7804,27.8,84,0.0,1008.5,8.6,37.1,30,11.1,5.3,1.1,208.0,55.0,1.1,7,0,4,1,2026-06-27T09:11:31.441456+05:30
Thrissur,Kerala,10.5276,76.2144,28.3,80,0.0,1007.7,8.55,34.6,56,12.6,9.1,4.8,188.0,54.0,3.2,7,5,4,1,2026-06-27T09:11:31.441464+05:30
Kannur,Kerala,11.8745,75.3704,27.7,83,0.0,1007.7,8.65,37.8,43,14.5,8.1,3.7,171.0,53.0,2.1,7,5,4,1,2026-06-27T09:11:31.441471+05:30
Patna,Bihar,25.5941,85.1376,34.2,57,0.0,997.6,8.8,23.4,150,74.5,65.0,10.8,385.0,156.0,19.9,0,5,7,1,2026-06-27T09:11:31.441478+05:30
Gaya,Bihar,24.7914,85.0002,34.0,58,0.0,991.3,8.6,21.2,94,35.0,34.2,4.3,263.0,140.0,9.6,0,5,7,1,2026-06-27T09:11:31.441485+05:30
Muzaffarpur,Bihar,26.1209,85.3647,32.0,75,0.0,997.7,8.85,22.7,154,69.8,64.0,10.2,481.0,135.0,18.9,3,5,7,1,2026-06-27T09:11:31.441492+05:30
Bhagalpur,Bihar,25.2425,87.0117,33.9,64,0.0,998.1,7.75,25.9,106,34.6,31.2,12.0,343.0,105.0,28.2,3,5,7,1,2026-06-27T09:11:31.441499+05:30
Ranchi,Jharkhand,23.3441,85.3096,29.9,65,0.0,936.7,8.15,22.7,99,36.3,33.5,4.3,392.0,139.0,20.9,7,5,7,1,2026-06-27T09:11:31.441506+05:30
Jamshedpur,Jharkhand,22.8046,86.2029,31.1,73,0.0,988.9,8.85,27.0,106,45.1,40.0,13.9,358.0,115.0,31.1,3,5,7,1,2026-06-27T09:11:31.441513+05:30
Dhanbad,Jharkhand,23.7957,86.4304,33.2,56,0.0,978.0,8.85,27.4,152,60.3,56.1,39.1,660.0,71.0,101.6,0,5,7,1,2026-06-27T09:11:31.441519+05:30
Bokaro,Jharkhand,23.6693,86.1511,33.4,54,0.0,981.7,9.1,31.0,153,58.9,54.5,23.5,304.0,108.0,75.9,0,5,7,1,2026-06-27T09:11:31.441526+05:30
Bhubaneswar,Odisha,20.2961,85.8245,30.5,80,0.0,1000.3,8.8,39.6,77,25.5,20.6,4.7,229.0,109.0,7.8,3,5,4,1,2026-06-27T09:11:31.441533+05:30
Cuttack,Odisha,20.4625,85.8828,30.4,81,0.0,1002.2,8.85,41.0,77,25.5,20.6,4.7,231.0,109.0,7.8,3,5,4,1,2026-06-27T09:11:31.441539+05:30
Rourkela,Odisha,22.2604,84.8536,32.7,62,0.0,983.0,8.95,46.4,91,30.7,27.6,6.2,325.0,123.0,23.9,3,5,7,1,2026-06-27T09:11:31.441545+05:30
Raipur,Chhattisgarh,21.2514,81.6296,32.4,54,0.0,972.8,8.85,36.0,105,42.4,40.3,26.3,588.0,87.0,60.1,0,5,7,1,2026-06-27T09:11:31.441552+05:30
Bhilai,Chhattisgarh,21.1938,81.3509,32.1,53,0.0,973.3,8.95,36.0,113,38.4,36.3,20.2,851.0,90.0,49.9,0,5,7,1,2026-06-27T09:11:31.441558+05:30
Guwahati,Assam,26.1158,91.7086,28.9,84,0.0,999.6,8.75,35.3,86,20.8,17.9,2.6,273.0,104.0,3.3,7,5,7,1,2026-06-27T09:11:31.441564+05:30
Agartala,Tripura,23.8315,91.2868,31.0,72,0.0,1004.9,8.7,33.5,67,17.1,13.4,4.6,161.0,84.0,2.3,3,5,4,1,2026-06-27T09:11:31.441570+05:30
Shillong,Meghalaya,25.5788,91.8933,23.9,77,0.0,857.9,7.1,30.2,58,7.5,6.5,4.2,190.0,87.0,2.9,3,5,7,1,2026-06-27T09:11:31.441576+05:30
Imphal,Manipur,24.817,93.9368,27.4,73,0.0,922.8,8.05,33.1,62,12.0,9.1,1.9,162.0,92.0,2.4,7,5,7,1,2026-06-27T09:11:31.441582+05:30
Aizawl,Mizoram,23.7271,92.7176,24.7,70,0.0,893.0,7.9,26.6,56,5.3,4.2,1.0,120.0,70.0,0.7,3,5,7,1,2026-06-27T09:11:31.441589+05:30
Kohima,Nagaland,25.6701,94.1077,22.8,88,0.0,855.9,7.65,22.0,55,16.4,11.6,1.3,233.0,103.0,1.8,3,5,7,1,2026-06-27T09:11:31.441596+05:30
Gangtok,Sikkim,27.3314,88.6138,22.7,81,0.1,838.4,8.75,38.5,75,6.5,5.9,2.0,368.0,147.0,3.5,6,5,7,1,2026-06-27T09:11:31.441603+05:30
Siliguri,West Bengal,26.7271,88.3953,27.7,83,0.0,991.2,8.65,19.4,104,22.1,19.5,4.0,488.0,150.0,4.7,7,5,7,1,2026-06-27T09:11:34.669853+05:30
Durgapur,West Bengal,23.5204,87.3119,31.6,74,0.0,992.9,9.05,30.2,138,43.5,38.0,20.7,693.0,75.0,49.9,3,5,7,1,2026-06-27T09:11:34.669886+05:30
Asansol,West Bengal,23.6739,86.9524,32.2,70,0.0,991.5,8.85,28.1,119,42.3,37.8,23.7,432.0,75.0,54.4,3,5,7,1,2026-06-27T09:11:34.669898+05:30
Pondicherry,Puducherry,11.9139,79.8145,32.3,54,0.0,1006.9,8.0,41.8,77,25.3,19.5,12.9,342.0,56.0,6.6,0,5,4,1,2026-06-27T09:11:34.669907+05:30
Port Blair,Andaman and Nicobar Islands,11.6234,92.7265,27.4,88,0.2,1008.4,8.75,39.6,21,3.7,2.2,0.3,94.0,46.0,0.3,10,0,4,1,2026-06-27T09:11:34.669915+05:30
Haridwar,Uttarakhand,29.9457,78.1642,34.3,52,0.0,970.7,7.6,26.3,152,78.9,33.6,4.8,277.0,146.0,5.2,0,5,7,1,2026-06-27T09:11:34.669922+05:30
Rishikesh,Uttarakhand,30.0869,78.2676,33.1,54,0.0,963.8,7.7,24.1,102,52.5,22.9,2.8,264.0,127.0,1.9,0,5,7,1,2026-06-27T09:11:34.669930+05:30
Nainital,Uttarakhand,29.3919,79.4542,22.9,53,0.1,807.9,6.85,28.8,96,102.2,40.4,2.0,220.0,149.0,5.1,3,5,7,0,2026-06-27T09:11:34.669937+05:30
Mussoorie,Uttarakhand,30.4599,78.0664,21.3,73,0.0,804.9,8.15,39.2,115,68.0,26.8,4.0,236.0,147.0,4.5,3,5,7,1,2026-06-27T09:11:34.669944+05:30
Dharamshala,Himachal Pradesh,32.219,76.3234,26.0,60,0.0,869.5,8.5,32.4,61,22.9,11.9,2.2,258.0,106.0,1.1,4,5,7,1,2026-06-27T09:11:34.669951+05:30
Dalhousie,Himachal Pradesh,32.5387,75.971,22.7,67,0.0,806.9,8.55,31.0,116,49.1,23.2,5.1,283.0,129.0,2.5,3,5,7,1,2026-06-27T09:11:34.669959+05:30
Patiala,Punjab,30.3398,76.3869,35.0,46,0.0,974.9,7.7,28.4,163,147.6,79.9,13.7,503.0,121.0,14.3,0,5,7,1,2026-06-27T09:11:34.669966+05:30
Bhatinda,Punjab,30.211,74.9455,34.5,48,0.0,980.2,8.3,29.2,155,114.8,58.8,12.0,301.0,102.0,10.2,0,5,7,1,2026-06-27T09:11:34.669973+05:30
Rohtak,Haryana,28.8955,76.6066,34.1,52,0.0,978.5,7.75,28.4,157,339.9,101.5,18.3,398.0,91.0,7.8,0,5,7,1,2026-06-27T09:11:34.669979+05:30
Panipat,Haryana,29.3909,76.9635,33.6,58,0.0,976.9,7.65,23.0,240,601.6,145.3,18.7,640.0,95.0,10.2,0,5,7,1,2026-06-27T09:11:34.669986+05:30
Mathura,Uttar Pradesh,27.4924,77.6737,34.8,50,0.0,983.4,7.85,24.8,139,128.1,48.1,16.1,309.0,74.0,6.4,0,5,7,1,2026-06-27T09:11:34.669993+05:30
Vrindavan,Uttar Pradesh,27.5823,77.7027,34.5,52,0.0,983.8,8.0,22.7,139,128.1,48.1,16.1,301.0,74.0,6.4,0,5,7,1,2026-06-27T09:11:34.670000+05:30
Ayodhya,Uttar Pradesh,26.7922,82.1998,32.1,66,0.0,992.4,8.0,29.2,142,61.5,48.0,8.5,368.0,122.0,9.8,3,5,7,1,2026-06-27T09:11:34.670007+05:30
Ratlam,Madhya Pradesh,23.3315,75.0367,29.6,68,0.0,953.2,8.45,31.0,80,39.5,24.4,7.8,165.0,45.0,15.5,7,5,7,1,2026-06-27T09:11:34.670014+05:30
Sagar,Madhya Pradesh,23.8388,78.7378,31.0,63,0.0,948.7,8.65,36.7,63,28.3,20.1,4.1,203.0,94.0,3.1,3,5,7,1,2026-06-27T09:11:34.670020+05:30
Satna,Madhya Pradesh,24.6005,80.8322,32.4,55,0.0,969.2,8.3,42.1,75,33.3,20.4,3.9,188.0,103.0,3.6,0,5,7,1,2026-06-27T09:11:34.670028+05:30
Akola,Maharashtra,20.7002,77.0082,30.0,67,0.0,973.7,8.1,39.6,79,50.4,24.8,4.8,139.0,85.0,5.9,7,5,7,1,2026-06-27T09:11:34.670035+05:30
Amravati,Maharashtra,20.9374,77.7796,29.5,70,0.0,965.8,6.4,37.4,78,38.6,19.6,5.4,173.0,81.0,5.3,7,5,7,1,2026-06-27T09:11:34.670043+05:30
Latur,Maharashtra,18.4088,76.5604,26.9,73,0.0,938.9,3.45,28.1,83,28.3,17.5,4.7,187.0,86.0,9.3,7,5,3,1,2026-06-27T09:11:34.670050+05:30
Nanded,Maharashtra,19.1383,77.3091,26.9,86,0.0,967.6,5.1,40.0,89,52.7,28.3,5.9,231.0,80.0,4.1,7,5,3,1,2026-06-27T09:11:34.670057+05:30
Gulbarga,Karnataka,17.3297,76.8343,28.6,66,0.0,957.8,5.75,31.7,54,14.0,9.3,5.6,153.0,56.0,4.5,7,5,3,1,2026-06-27T09:11:34.670064+05:30
Bidar,Karnataka,17.9104,77.5199,27.7,69,0.0,934.7,3.3,34.2,82,48.9,27.5,7.3,218.0,66.0,4.8,7,5,3,1,2026-06-27T09:11:34.670070+05:30
Hospet,Karnataka,15.2689,76.3909,27.2,68,0.0,955.8,6.7,52.9,29,7.3,4.1,3.5,127.0,44.0,1.8,7,5,7,1,2026-06-27T09:11:34.670077+05:30
Tirupur,Tamil Nadu,11.1085,77.3411,29.2,63,0.0,975.0,8.9,44.6,53,20.8,13.6,8.2,173.0,54.0,4.2,7,5,7,1,2026-06-27T09:11:34.670083+05:30
Alappuzha,Kerala,9.4981,76.3388,26.9,87,0.0,1009.8,8.45,35.6,50,15.4,9.6,5.6,105.0,53.0,3.1,7,0,4,1,2026-06-27T09:11:34.670089+05:30
Munnar,Kerala,10.0889,77.0595,20.2,78,0.0,857.9,8.6,31.3,25,11.8,6.8,2.2,97.0,53.0,1.2,3,5,7,1,2026-06-27T09:11:34.670095+05:30
Silchar,Assam,24.8333,92.7789,28.9,82,0.0,1004.2,8.8,29.9,88,12.1,10.2,4.7,177.0,57.0,4.4,7,5,4,1,2026-06-27T09:11:34.670102+05:30
Dibrugarh,Assam,27.4728,94.912,27.5,90,0.1,993.2,7.0,30.2,74,21.6,17.3,2.7,311.0,114.0,2.8,10,5,7,1,2026-06-27T09:11:34.670109+05:30
