city,state,latitude,longitude,temp,humidity,rain,pressure,uv_index,wind_gusts,aqi,pm10,pm2_5,mosquito_risk,arthritis_risk,migraine_risk,frizz_risk,updated_at
Delhi,Delhi,28.6139,77.209,28.9,33,0.0,983.0,6.0,24.5,394,226.3,46.0,4,5,3,0,2026-03-14T18:28:55.072843+05:30
Mumbai,Maharashtra,19.076,72.8777,28.1,75,0.0,1008.2,7.65,18.4,179,66.6,36.4,7,0,4,1,2026-03-14T18:28:55.072879+05:30
Bangalore,Karnataka,12.9716,77.5946,29.4,25,0.0,912.4,9.3,32.8,129,30.7,24.4,4,5,7,0,2026-03-14T18:28:55.072894+05:30
Hyderabad,Telangana,17.385,78.4867,32.2,31,0.0,953.7,8.7,30.2,135,46.2,33.5,0,5,7,0,2026-03-14T18:28:55.072904+05:30
Chennai,Tamil Nadu,13.0827,80.2707,28.5,69,0.0,1008.9,9.05,32.0,54,12.3,9.3,7,0,4,1,2026-03-14T18:28:55.072912+05:30
Kolkata,West Bengal,22.5726,88.3639,27.3,75,0.0,1007.9,8.05,33.8,85,27.5,21.7,7,5,4,1,2026-03-14T18:28:55.072921+05:30
Pune,Maharashtra,18.5204,73.8567,32.0,24,0.0,948.3,8.25,47.5,161,33.4,29.6,0,5,7,0,2026-03-14T18:28:55.072932+05:30
Ahmedabad,Gujarat,23.0225,72.5714,34.5,24,0.0,1001.0,7.5,24.8,78,54.0,20.3,0,5,4,0,2026-03-14T18:28:55.072940+05:30
Jaipur,Rajasthan,26.9124,75.7873,30.3,27,0.0,959.3,7.0,28.8,150,110.8,27.4,0,5,7,0,2026-03-14T18:28:55.072948+05:30
Lucknow,Uttar Pradesh,26.8467,80.9462,30.0,35,0.0,993.1,6.7,24.5,164,152.7,44.6,4,5,7,0,2026-03-14T18:28:55.072956+05:30
Kanpur,Uttar Pradesh,26.4499,80.3319,30.1,44,0.0,991.4,6.7,17.3,358,186.7,44.9,0,5,7,1,2026-03-14T18:28:55.072963+05:30
Chandigarh,Chandigarh,30.7333,76.7794,23.5,57,0.0,968.2,5.2,20.2,68,21.8,17.6,0,5,3,0,2026-03-14T18:28:55.072970+05:30
Srinagar,Jammu and Kashmir,34.0837,74.7973,15.2,56,0.0,840.3,5.6,19.1,95,33.6,12.6,0,5,3,0,2026-03-14T18:28:55.072977+05:30
Jammu,Jammu and Kashmir,32.7266,74.857,25.5,55,0.0,971.5,6.35,19.1,78,27.7,18.2,4,5,7,0,2026-03-14T18:28:55.072985+05:30
Amritsar,Punjab,31.634,74.8723,23.4,69,0.0,980.2,4.65,17.6,86,18.3,15.5,3,5,3,1,2026-03-14T18:28:55.072991+05:30
Ludhiana,Punjab,30.901,75.8573,25.5,49,0.0,978.6,5.25,20.2,86,33.9,22.1,4,5,3,0,2026-03-14T18:28:55.072997+05:30
Jalandhar,Punjab,31.326,75.5762,25.1,50,0.0,979.5,6.15,23.0,91,34.7,17.9,4,5,7,0,2026-03-14T18:28:55.073006+05:30
Dehradun,Uttarakhand,30.6284,78.0322,17.2,62,0.0,829.3,4.2,21.6,54,23.1,9.4,3,5,3,0,2026-03-14T18:28:55.073013+05:30
Shimla,Himachal Pradesh,31.1048,77.1734,14.6,62,0.0,783.6,5.5,22.3,57,17.2,8.9,3,5,3,0,2026-03-14T18:28:55.073020+05:30
Manali,Himachal Pradesh,32.2396,77.1887,14.9,36,0.0,819.4,7.3,29.2,70,38.1,9.0,0,5,7,0,2026-03-14T18:28:55.073027+05:30
Gurgaon,Haryana,28.4595,77.0266,27.4,41,0.0,981.3,5.85,19.4,1038,331.6,53.4,4,5,3,0,2026-03-14T18:28:55.073033+05:30
Noida,Uttar Pradesh,28.5355,77.391,28.5,34,0.0,984.5,5.75,23.8,1038,331.6,53.4,4,5,3,0,2026-03-14T18:28:55.073040+05:30
Ghaziabad,Uttar Pradesh,28.6692,77.4538,27.9,38,0.0,982.6,5.95,23.8,268,160.2,44.6,4,5,3,0,2026-03-14T18:28:55.073046+05:30
Faridabad,Haryana,28.4089,77.3178,26.0,46,0.0,983.8,5.75,22.7,1038,331.6,53.4,4,5,3,0,2026-03-14T18:28:55.073052+05:30
Meerut,Uttar Pradesh,28.9845,77.7064,26.6,45,0.0,981.2,5.8,27.4,268,160.2,44.6,4,5,3,0,2026-03-14T18:28:55.073058+05:30
Agra,Uttar Pradesh,27.1767,78.0081,28.3,35,0.0,987.4,6.35,15.5,670,132.7,43.0,4,5,7,0,2026-03-14T18:28:55.073064+05:30
Varanasi,Uttar Pradesh,25.3176,82.9739,30.6,47,0.0,997.0,6.85,27.7,135,82.0,37.5,0,5,7,1,2026-03-14T18:28:55.073073+05:30
Prayagraj,Uttar Pradesh,25.4358,81.8463,29.9,51,0.0,995.2,7.1,15.5,151,77.8,32.2,4,5,7,1,2026-03-14T18:28:55.073080+05:30
Gorakhpur,Uttar Pradesh,26.7606,83.3732,27.5,51,0.0,997.0,6.7,24.8,132,108.7,44.0,4,5,7,1,2026-03-14T18:28:55.073087+05:30
Bareilly,Uttar Pradesh,28.367,79.4304,25.9,59,0.0,986.7,6.4,19.4,134,39.1,26.1,4,5,7,1,2026-03-14T18:28:55.073093+05:30
Aligarh,Uttar Pradesh,27.8974,78.088,26.4,32,0.0,985.6,6.3,26.6,616,290.6,70.3,4,5,7,0,2026-03-14T18:28:55.073099+05:30
Moradabad,Uttar Pradesh,28.8386,78.7733,25.8,49,0.0,983.4,5.95,23.0,138,67.1,33.5,4,5,3,0,2026-03-14T18:28:55.073108+05:30
Saharanpur,Uttar Pradesh,29.9637,77.546,25.0,44,0.0,975.1,4.65,23.8,128,87.1,31.1,4,5,3,0,2026-03-14T18:28:55.073116+05:30
Jhansi,Uttar Pradesh,25.4484,78.5685,31.4,31,0.0,976.7,7.2,20.2,147,109.0,38.9,0,5,7,0,2026-03-14T18:28:58.372280+05:30
Surat,Gujarat,21.1702,72.8311,28.2,52,0.0,1006.6,7.35,23.4,142,94.8,58.6,4,5,4,1,2026-03-14T18:28:58.372313+05:30
Vadodara,Gujarat,22.3072,73.1812,34.1,23,0.0,1003.4,7.5,28.1,100,52.6,22.4,0,5,4,0,2026-03-14T18:28:58.372326+05:30
Rajkot,Gujarat,22.3039,70.8022,33.8,22,0.0,994.2,7.35,34.9,94,84.3,24.0,0,5,7,0,2026-03-14T18:28:58.372336+05:30
Thane,Maharashtra,19.2183,72.9781,29.6,53,0.0,1007.6,7.65,31.7,179,66.6,36.4,4,5,4,1,2026-03-14T18:28:58.372345+05:30
Nagpur,Maharashtra,21.1458,79.0882,33.6,30,0.0,972.1,8.1,19.8,196,35.7,30.7,0,5,7,0,2026-03-14T18:28:58.372354+05:30
Nashik,Maharashtra,19.9975,73.7898,30.0,20,0.0,946.1,7.9,39.2,125,24.6,19.2,4,5,7,0,2026-03-14T18:28:58.372362+05:30
Aurangabad,Maharashtra,19.8762,75.3433,32.8,25,0.0,943.7,8.4,32.8,148,26.4,22.2,0,5,7,0,2026-03-14T18:28:58.372370+05:30
Solapur,Maharashtra,17.6599,75.9064,33.0,31,0.0,956.4,8.6,18.7,160,45.2,36.3,0,5,7,0,2026-03-14T18:28:58.372379+05:30
Kolhapur,Maharashtra,16.705,74.2433,28.2,65,0.0,948.4,8.7,44.6,167,53.9,48.5,7,5,7,1,2026-03-14T18:28:58.372387+05:30
Goa,Goa,15.2993,74.124,29.3,71,0.0,998.4,8.75,32.4,135,39.9,35.5,7,5,7,1,2026-03-14T18:28:58.372396+05:30
Jodhpur,Rajasthan,26.2389,73.0243,33.5,20,0.0,981.1,7.1,37.4,87,158.3,32.8,0,5,7,0,2026-03-14T18:28:58.372402+05:30
Udaipur,Rajasthan,24.5854,73.7125,30.5,21,0.0,945.9,7.85,37.1,67,40.7,15.4,0,5,7,0,2026-03-14T18:28:58.372409+05:30
Kota,Rajasthan,25.2138,75.8648,32.9,22,0.0,976.9,7.25,13.7,95,32.0,17.1,0,5,7,0,2026-03-14T18:28:58.372415+05:30
Bikaner,Rajasthan,28.0229,73.3119,32.3,21,0.0,980.3,6.7,21.6,85,102.0,25.9,0,5,7,0,2026-03-14T18:28:58.372421+05:30
Ajmer,Rajasthan,26.4499,74.6399,30.6,23,0.0,953.3,7.05,41.4,78,38.5,16.6,0,5,7,0,2026-03-14T18:28:58.372427+05:30
Gwalior,Madhya Pradesh,26.2183,78.1828,28.1,49,0.0,982.6,6.9,22.0,266,115.7,34.2,4,5,7,1,2026-03-14T18:28:58.372433+05:30
Indore,Madhya Pradesh,22.7196,75.8577,31.9,18,0.0,947.4,7.8,38.2,126,20.3,17.3,0,5,7,0,2026-03-14T18:28:58.372439+05:30
Bhopal,Madhya Pradesh,23.2599,77.4126,31.5,23,0.0,952.7,7.65,35.3,129,23.8,20.3,0,5,7,0,2026-03-14T18:28:58.372444+05:30
Jabalpur,Madhya Pradesh,23.1815,79.9864,31.1,26,0.0,960.7,7.8,27.0,125,17.4,16.4,0,5,7,0,2026-03-14T18:28:58.372450+05:30
Ujjain,Madhya Pradesh,23.1765,75.7885,30.6,23,0.0,953.0,7.7,41.8,102,21.7,16.8,0,5,7,0,2026-03-14T18:28:58.372456+05:30
Visakhapatnam,Andhra Pradesh,17.6868,83.2185,27.1,75,0.0,1005.9,8.65,41.0,59,14.7,11.3,7,5,4,1,2026-03-14T18:28:58.372462+05:30
Vijayawada,Andhra Pradesh,16.5062,80.648,29.6,60,0.0,1003.8,8.75,31.3,60,15.5,11.6,4,5,4,1,2026-03-14T18:28:58.372467+05:30
Guntur,Andhra Pradesh,16.3067,80.4365,28.5,66,0.0,1005.3,8.75,33.8,58,17.7,12.4,7,5,4,1,2026-03-14T18:28:58.372473+05:30
Nellore,Andhra Pradesh,14.4426,79.9865,28.9,63,0.0,1007.2,8.9,33.1,64,21.0,15.4,7,5,4,1,2026-03-14T18:28:58.372480+05:30
Kurnool,Andhra Pradesh,15.8281,78.0373,35.3,20,0.0,976.3,8.75,23.4,127,43.0,30.9,0,5,10,0,2026-03-14T18:28:58.372487+05:30
Kakinada,Andhra Pradesh,16.9891,82.2475,27.9,71,0.0,1009.7,8.7,34.6,52,12.1,8.2,7,0,4,1,2026-03-14T18:28:58.372493+05:30
Tirupati,Andhra Pradesh,13.6288,79.4192,30.9,43,0.0,992.6,9.0,32.4,73,21.2,17.0,0,5,7,1,2026-03-14T18:28:58.372499+05:30
Warangal,Telangana,17.9689,79.5941,30.8,48,0.0,978.9,8.5,27.7,96,42.5,34.3,0,5,7,1,2026-03-14T18:28:58.372505+05:30
Nizamabad,Telangana,18.6725,78.0941,32.2,38,0.0,964.2,8.4,30.2,145,53.8,41.1,0,5,7,1,2026-03-14T18:28:58.372513+05:30
Mysore,Karnataka,12.2958,76.6396,30.3,28,0.0,928.8,9.3,32.8,141,35.4,28.8,0,5,7,0,2026-03-14T18:28:58.372520+05:30
Mangalore,Karnataka,12.9141,74.856,29.1,80,0.0,1007.2,8.95,24.8,103,29.4,24.7,7,5,4,1,2026-03-14T18:28:58.372526+05:30
Hubli-Dharwad,Karnataka,15.3647,75.124,27.8,66,0.0,941.0,8.9,46.4,154,39.2,31.4,7,5,7,1,2026-03-14T18:28:58.372532+05:30
Belgaum,Karnataka,15.8497,74.4977,26.1,72,0.0,926.3,8.95,44.3,174,49.2,43.8,7,5,7,1,2026-03-14T18:29:01.683906+05:30
Coimbatore,Tamil Nadu,11.0168,76.9558,31.7,21,0.0,961.7,9.3,37.1,101,17.4,13.6,0,5,7,0,2026-03-14T18:29:01.683933+05:30
Madurai,Tamil Nadu,9.9252,78.1198,33.3,37,0.0,992.6,9.25,28.8,59,6.3,4.7,0,5,7,1,2026-03-14T18:29:01.683943+05:30
Trichy,Tamil Nadu,10.7905,78.7047,32.4,43,0.0,999.8,9.2,27.0,65,9.3,7.6,0,5,7,1,2026-03-14T18:29:01.683951+05:30
Salem,Tamil Nadu,11.6643,78.146,31.8,30,0.0,977.4,9.2,23.8,91,20.3,17.2,0,5,7,0,2026-03-14T18:29:01.683958+05:30
Tirunelveli,Tamil Nadu,8.7139,77.7567,29.9,64,0.0,1003.5,9.25,36.4,52,8.1,7.2,7,5,4,1,2026-03-14T18:29:01.683966+05:30
Vellore,Tamil Nadu,12.9165,79.1325,30.3,40,0.0,985.5,9.1,32.8,97,23.6,20.5,0,5,7,0,2026-03-14T18:29:01.683973+05:30
Erode,Tamil Nadu,11.341,77.7172,33.6,35,0.0,988.7,9.2,24.8,61,13.5,11.1,0,5,7,1,2026-03-14T18:29:01.683980+05:30
Kochi,Kerala,9.9312,76.2673,28.4,81,0.0,1008.6,9.1,31.3,121,18.7,17.1,7,0,4,1,2026-03-14T18:29:01.683987+05:30
Thiruvananthapuram,Kerala,8.5241,76.9366,28.3,78,0.0,1008.4,9.1,26.3,80,13.1,9.9,7,0,4,1,2026-03-14T18:29:01.683994+05:30
Kozhikode,Kerala,11.2588,75.7804,29.0,82,0.0,1008.1,9.0,24.8,78,22.6,19.5,7,0,4,1,2026-03-14T18:29:01.684000+05:30
Thrissur,Kerala,10.5276,76.2144,28.9,78,0.0,1007.2,9.05,36.0,113,17.9,16.2,7,5,4,1,2026-03-14T18:29:01.684007+05:30
Kannur,Kerala,11.8745,75.3704,28.9,78,0.0,1007.7,8.95,29.2,96,28.1,24.2,7,5,4,1,2026-03-14T18:29:01.684014+05:30
Patna,Bihar,25.5941,85.1376,30.6,50,0.0,1000.1,7.5,20.2,138,81.7,42.0,0,5,4,1,2026-03-14T18:29:01.684020+05:30
Gaya,Bihar,24.7914,85.0002,30.7,47,0.0,993.6,7.55,21.2,124,73.1,32.1,0,5,7,1,2026-03-14T18:29:01.684026+05:30
Muzaffarpur,Bihar,26.1209,85.3647,29.2,52,0.0,1000.3,7.45,24.5,160,83.4,45.9,4,5,4,1,2026-03-14T18:29:01.684033+05:30
Bhagalpur,Bihar,25.2425,87.0117,29.1,52,0.0,1001.1,7.5,20.5,157,95.7,46.6,4,5,4,1,2026-03-14T18:29:01.684040+05:30
Ranchi,Jharkhand,23.3441,85.3096,29.7,18,0.0,938.4,8.2,24.5,126,20.4,14.5,4,5,7,0,2026-03-14T18:29:01.684046+05:30
Jamshedpur,Jharkhand,22.8046,86.2029,32.3,40,0.0,990.6,8.1,29.2,162,53.9,32.9,0,5,7,1,2026-03-14T18:29:01.684053+05:30
Dhanbad,Jharkhand,23.7957,86.4304,33.9,21,0.0,979.5,7.95,19.8,156,57.0,38.3,0,5,7,0,2026-03-14T18:29:01.684060+05:30
Bokaro,Jharkhand,23.6693,86.1511,32.6,23,0.0,983.6,8.0,20.2,152,44.1,31.1,0,5,7,0,2026-03-14T18:29:01.684066+05:30
Bhubaneswar,Odisha,20.2961,85.8245,26.7,79,0.0,1004.8,8.4,38.9,67,18.5,15.1,7,5,4,1,2026-03-14T18:29:01.684073+05:30
Cuttack,Odisha,20.4625,85.8828,28.1,69,0.0,1006.2,8.45,34.2,67,18.5,15.1,7,5,4,1,2026-03-14T18:29:01.684079+05:30
Rourkela,Odisha,22.2604,84.8536,33.5,33,0.0,984.3,8.05,25.2,172,36.2,32.9,0,5,7,0,2026-03-14T18:29:01.684085+05:30
Raipur,Chhattisgarh,21.2514,81.6296,32.6,33,0.0,974.5,8.15,34.2,172,37.6,33.4,0,5,7,0,2026-03-14T18:29:01.684091+05:30
Bhilai,Chhattisgarh,21.1938,81.3509,31.9,35,0.0,974.7,8.15,27.7,160,35.3,30.4,0,5,7,0,2026-03-14T18:29:01.684098+05:30
Guwahati,Assam,26.1158,91.7086,22.8,88,0.0,1003.9,7.35,32.0,73,30.3,21.4,3,5,4,1,2026-03-14T18:29:01.684103+05:30
Agartala,Tripura,23.8315,91.2868,26.5,73,0.0,1007.4,7.8,48.6,80,37.6,30.3,7,5,4,1,2026-03-14T18:29:01.684109+05:30
Shillong,Meghalaya,25.5788,91.8933,13.6,92,0.0,856.5,7.85,73.8,54,31.2,22.1,3,10,7,0,2026-03-14T18:29:01.684116+05:30
Imphal,Manipur,24.817,93.9368,17.1,87,0.0,925.3,7.1,82.8,148,64.7,51.2,3,10,7,0,2026-03-14T18:29:01.684123+05:30
Aizawl,Mizoram,23.7271,92.7176,18.7,78,0.0,894.6,8.0,63.4,111,46.7,38.4,3,5,7,0,2026-03-14T18:29:01.684145+05:30
Kohima,Nagaland,25.6701,94.1077,14.7,78,0.0,855.8,6.9,100.8,110,48.2,34.1,3,5,7,0,2026-03-14T18:29:01.684153+05:30
Gangtok,Sikkim,27.3314,88.6138,14.1,90,0.0,837.2,7.55,20.2,92,18.8,14.4,3,10,7,0,2026-03-14T18:29:01.684160+05:30
Siliguri,West Bengal,26.7271,88.3953,21.6,83,0.0,995.0,7.4,31.7,142,68.2,47.3,3,5,7,1,2026-03-14T18:29:04.992087+05:30
Durgapur,West Bengal,23.5204,87.3119,30.6,54,0.0,995.0,7.95,23.4,154,65.2,45.1,0,5,7,1,2026-03-14T18:29:04.992113+05:30
Asansol,West Bengal,23.6739,86.9524,32.1,39,0.0,993.2,7.95,21.2,145,57.2,36.4,0,5,7,1,2026-03-14T18:29:04.992122+05:30
Pondicherry,Puducherry,11.9139,79.8145,28.3,75,0.0,1009.7,9.05,29.9,51,12.0,8.9,7,0,4,1,2026-03-14T18:29:04.992166+05:30
Port Blair,Andaman and Nicobar Islands,11.6234,92.7265,27.8,78,0.0,1009.6,8.95,23.0,81,16.0,12.6,7,0,4,1,2026-03-14T18:29:04.992178+05:30
Haridwar,Uttarakhand,29.9457,78.1642,26.6,55,0.0,973.8,5.0,21.2,102,31.5,19.0,4,5,3,1,2026-03-14T18:29:04.992186+05:30
Rishikesh,Uttarakhand,30.0869,78.2676,25.1,55,0.0,966.7,4.55,20.9,78,21.8,12.5,4,5,3,0,2026-03-14T18:29:04.992193+05:30
Nainital,Uttarakhand,29.3919,79.4542,18.4,59,0.0,805.6,6.15,34.9,92,35.6,24.4,0,5,7,0,2026-03-14T18:29:04.992199+05:30
Mussoorie,Uttarakhand,30.4599,78.0664,17.4,59,0.0,802.2,4.9,25.2,78,26.8,15.9,0,5,3,0,2026-03-14T18:29:04.992207+05:30
Dharamshala,Himachal Pradesh,32.219,76.3234,20.9,39,0.0,868.4,5.45,17.6,66,27.5,9.3,0,5,3,0,2026-03-14T18:29:04.992213+05:30
Dalhousie,Himachal Pradesh,32.5387,75.971,18.4,37,0.0,802.9,6.05,18.7,71,27.4,12.0,0,5,7,0,2026-03-14T18:29:04.992220+05:30
Patiala,Punjab,30.3398,76.3869,24.1,45,0.0,977.9,5.45,27.0,216,132.2,33.4,0,5,3,0,2026-03-14T18:29:04.992227+05:30
Bhatinda,Punjab,30.211,74.9455,26.7,47,0.0,983.3,6.15,22.0,91,27.6,23.1,4,5,7,0,2026-03-14T18:29:04.992233+05:30
Rohtak,Haryana,28.8955,76.6066,27.6,45,0.0,981.7,5.9,22.0,459,210.0,44.5,4,5,3,0,2026-03-14T18:29:04.992239+05:30
Panipat,Haryana,29.3909,76.9635,26.0,49,0.0,980.1,5.6,23.0,874,353.0,57.2,4,5,3,0,2026-03-14T18:29:04.992245+05:30
Mathura,Uttar Pradesh,27.4924,77.6737,26.7,35,0.0,986.8,5.95,29.2,600,136.0,35.7,4,5,3,0,2026-03-14T18:29:04.992252+05:30
Vrindavan,Uttar Pradesh,27.5823,77.7027,26.4,37,0.0,987.4,5.9,35.3,600,136.0,35.7,4,5,3,0,2026-03-14T18:29:04.992262+05:30
Ayodhya,Uttar Pradesh,26.7922,82.1998,28.4,50,0.0,994.8,6.85,21.6,152,72.6,38.9,4,5,7,1,2026-03-14T18:29:04.992268+05:30
Ratlam,Madhya Pradesh,23.3315,75.0367,31.7,19,0.0,954.0,7.65,39.6,106,24.0,15.9,0,5,7,0,2026-03-14T18:29:04.992274+05:30
Sagar,Madhya Pradesh,23.8388,78.7378,30.4,27,0.0,949.4,7.6,34.2,121,21.0,16.8,0,5,7,0,2026-03-14T18:29:04.992280+05:30
Satna,Madhya Pradesh,24.6005,80.8322,32.6,24,0.0,970.2,7.6,26.3,114,37.7,17.9,0,5,7,0,2026-03-14T18:29:04.992286+05:30
Akola,Maharashtra,20.7002,77.0082,35.0,22,0.0,973.8,8.1,17.3,153,24.7,22.3,0,5,7,0,2026-03-14T18:29:04.992293+05:30
Amravati,Maharashtra,20.9374,77.7796,33.5,22,0.0,966.0,8.05,22.3,156,23.9,21.9,0,5,7,0,2026-03-14T18:29:04.992299+05:30
Latur,Maharashtra,18.4088,76.5604,31.5,36,0.0,939.7,8.5,26.6,152,44.8,35.9,0,5,7,0,2026-03-14T18:29:04.992306+05:30
Nanded,Maharashtra,19.1383,77.3091,34.1,27,0.0,967.8,8.3,31.0,171,47.6,38.3,0,5,7,0,2026-03-14T18:29:04.992312+05:30
Gulbarga,Karnataka,17.3297,76.8343,34.7,26,0.0,958.1,8.6,38.9,158,46.3,35.5,0,5,7,0,2026-03-14T18:29:04.992317+05:30
Bidar,Karnataka,17.9104,77.5199,31.9,30,0.0,935.5,8.55,37.1,150,51.6,37.0,0,5,7,0,2026-03-14T18:29:04.992323+05:30
Hospet,Karnataka,15.2689,76.3909,33.7,34,0.0,955.6,8.85,28.1,161,45.2,35.7,0,5,7,0,2026-03-14T18:29:04.992328+05:30
Tirupur,Tamil Nadu,11.1085,77.3411,33.3,21,0.0,975.1,9.3,30.2,74,16.2,13.3,0,5,7,0,2026-03-14T18:29:04.992334+05:30
Alappuzha,Kerala,9.4981,76.3388,28.6,79,0.0,1008.8,9.1,28.4,110,17.0,15.1,7,0,4,1,2026-03-14T18:29:04.992340+05:30
Munnar,Kerala,10.0889,77.0595,24.2,73,0.0,858.1,9.55,28.8,59,10.8,9.5,3,5,7,1,2026-03-14T18:29:04.992346+05:30
Silchar,Assam,24.8333,92.7789,21.0,90,0.0,1008.9,7.75,39.6,114,34.7,28.1,3,0,4,1,2026-03-14T18:29:04.992352+05:30
Dibrugarh,Assam,27.4728,94.912,20.1,91,0.1,999.3,4.45,22.0,92,34.2,29.5,6,5,3,1,2026-03-14T18:29:04.992358+05:30
