city,state,latitude,longitude,temp,humidity,rain,pressure,uv_index,wind_gusts,aqi,pm10,pm2_5,mosquito_risk,arthritis_risk,migraine_risk,frizz_risk,updated_at
Delhi,Delhi,28.6139,77.209,25.5,54,0.0,985.3,6.4,28.1,180,225.8,67.1,4,5,7,0,2026-03-25T20:33:19.256160+05:30
Mumbai,Maharashtra,19.076,72.8777,28.2,75,0.0,1008.4,7.95,24.8,115,39.0,29.8,7,0,4,1,2026-03-25T20:33:19.256206+05:30
Bangalore,Karnataka,12.9716,77.5946,27.5,39,0.0,912.1,9.5,32.0,117,30.2,26.9,4,5,7,0,2026-03-25T20:33:19.256221+05:30
Hyderabad,Telangana,17.385,78.4867,25.0,77,0.0,954.5,9.0,19.1,119,56.1,47.0,7,5,7,1,2026-03-25T20:33:19.256231+05:30
Chennai,Tamil Nadu,13.0827,80.2707,27.0,75,0.0,1009.1,9.2,32.8,47,24.7,15.5,7,0,4,1,2026-03-25T20:33:19.256240+05:30
Kolkata,West Bengal,22.5726,88.3639,26.2,84,0.0,1009.1,8.4,25.2,80,46.8,41.3,7,0,4,1,2026-03-25T20:33:19.256249+05:30
Pune,Maharashtra,18.5204,73.8567,29.0,57,0.0,948.9,8.5,32.8,128,35.7,28.8,4,5,7,1,2026-03-25T20:33:19.256266+05:30
Ahmedabad,Gujarat,23.0225,72.5714,30.7,37,0.0,1002.5,7.85,22.3,77,45.3,32.5,0,5,4,0,2026-03-25T20:33:19.256273+05:30
Jaipur,Rajasthan,26.9124,75.7873,26.5,46,0.0,962.0,7.35,27.7,113,77.5,34.0,4,5,7,0,2026-03-25T20:33:19.256281+05:30
Lucknow,Uttar Pradesh,26.8467,80.9462,25.7,44,0.0,995.8,7.1,37.1,115,221.7,54.2,4,5,7,0,2026-03-25T20:33:19.256288+05:30
Kanpur,Uttar Pradesh,26.4499,80.3319,24.8,61,0.0,994.1,7.15,29.2,165,302.7,62.2,3,5,7,1,2026-03-25T20:33:19.256295+05:30
Chandigarh,Chandigarh,30.7333,76.7794,20.7,70,0.0,971.3,6.55,29.9,135,40.2,34.8,3,5,7,0,2026-03-25T20:33:19.256303+05:30
Srinagar,Jammu and Kashmir,34.0837,74.7973,13.6,63,0.0,840.9,7.65,13.3,101,63.6,48.3,3,5,7,0,2026-03-25T20:33:19.256310+05:30
Jammu,Jammu and Kashmir,32.7266,74.857,22.5,73,0.0,975.6,6.9,18.7,105,49.9,40.5,3,5,7,1,2026-03-25T20:33:19.256317+05:30
Amritsar,Punjab,31.634,74.8723,22.4,69,0.0,983.6,6.85,27.7,144,44.4,38.6,3,5,7,1,2026-03-25T20:33:19.256323+05:30
Ludhiana,Punjab,30.901,75.8573,23.5,63,0.0,981.8,6.6,23.8,119,86.1,57.4,3,5,7,0,2026-03-25T20:33:19.256330+05:30
Jalandhar,Punjab,31.326,75.5762,23.1,70,0.0,983.1,6.75,22.0,118,64.3,45.3,3,5,7,1,2026-03-25T20:33:19.256338+05:30
Dehradun,Uttarakhand,30.6284,78.0322,14.2,81,0.0,830.4,7.0,23.8,135,34.6,26.3,3,10,7,0,2026-03-25T20:33:19.256345+05:30
Shimla,Himachal Pradesh,31.1048,77.1734,11.6,78,0.0,784.4,7.05,42.8,126,33.3,24.7,3,5,7,0,2026-03-25T20:33:19.256352+05:30
Manali,Himachal Pradesh,32.2396,77.1887,14.6,87,0.0,820.0,9.05,30.6,159,23.7,13.2,3,10,7,0,2026-03-25T20:33:19.256359+05:30
Gurgaon,Haryana,28.4595,77.0266,24.1,59,0.0,983.7,6.3,24.1,562,336.2,82.9,0,5,7,0,2026-03-25T20:33:19.256366+05:30
Noida,Uttar Pradesh,28.5355,77.391,25.1,56,0.0,986.9,6.35,27.4,562,336.2,82.9,4,5,7,0,2026-03-25T20:33:19.256373+05:30
Ghaziabad,Uttar Pradesh,28.6692,77.4538,23.9,60,0.0,985.1,6.4,28.4,149,259.8,65.0,0,5,7,0,2026-03-25T20:33:19.256379+05:30
Faridabad,Haryana,28.4089,77.3178,24.2,56,0.0,986.1,6.35,25.6,562,336.2,82.9,0,5,7,0,2026-03-25T20:33:19.256386+05:30
Meerut,Uttar Pradesh,28.9845,77.7064,22.0,64,0.0,983.7,6.5,32.0,149,259.8,65.0,3,5,7,0,2026-03-25T20:33:19.256392+05:30
Agra,Uttar Pradesh,27.1767,78.0081,25.7,48,0.0,990.1,7.0,31.7,440,347.4,82.9,4,5,7,0,2026-03-25T20:33:19.256399+05:30
Varanasi,Uttar Pradesh,25.3176,82.9739,24.5,43,0.0,999.8,7.8,30.6,129,78.5,34.8,0,5,7,0,2026-03-25T20:33:19.256408+05:30
Prayagraj,Uttar Pradesh,25.4358,81.8463,26.0,42,0.0,998.3,7.65,25.2,119,73.1,30.3,4,5,7,0,2026-03-25T20:33:19.256417+05:30
Gorakhpur,Uttar Pradesh,26.7606,83.3732,23.6,43,0.0,998.9,7.5,27.7,122,34.6,29.3,0,5,7,0,2026-03-25T20:33:19.256426+05:30
Bareilly,Uttar Pradesh,28.367,79.4304,22.7,69,0.0,988.9,6.85,28.8,127,115.5,47.7,3,5,7,1,2026-03-25T20:33:19.256434+05:30
Aligarh,Uttar Pradesh,27.8974,78.088,22.8,58,0.0,987.8,6.75,29.9,395,468.5,86.1,0,5,7,0,2026-03-25T20:33:19.256440+05:30
Moradabad,Uttar Pradesh,28.8386,78.7733,22.2,64,0.0,985.7,6.55,29.9,113,81.7,51.7,3,5,7,0,2026-03-25T20:33:19.256446+05:30
Saharanpur,Uttar Pradesh,29.9637,77.546,20.8,59,0.0,977.6,6.3,31.3,117,246.8,54.8,0,5,7,0,2026-03-25T20:33:19.256452+05:30
Jhansi,Uttar Pradesh,25.4484,78.5685,27.5,38,0.0,980.5,7.65,32.4,116,99.0,28.0,4,5,7,0,2026-03-25T20:33:22.616835+05:30
Surat,Gujarat,21.1702,72.8311,27.5,72,0.0,1007.0,7.7,24.1,93,66.1,60.5,7,5,4,1,2026-03-25T20:33:22.616864+05:30
Vadodara,Gujarat,22.3072,73.1812,30.2,46,0.0,1004.4,7.5,18.0,115,48.0,38.6,0,5,4,1,2026-03-25T20:33:22.616874+05:30
Rajkot,Gujarat,22.3039,70.8022,28.8,43,0.0,995.2,7.7,31.3,60,27.5,16.4,4,5,7,0,2026-03-25T20:33:22.616882+05:30
Thane,Maharashtra,19.2183,72.9781,27.6,73,0.0,1007.8,7.95,34.9,115,39.0,29.8,7,5,4,1,2026-03-25T20:33:22.616890+05:30
Nagpur,Maharashtra,21.1458,79.0882,28.7,48,0.0,973.9,8.4,20.5,106,29.7,22.5,4,5,7,1,2026-03-25T20:33:22.616897+05:30
Nashik,Maharashtra,19.9975,73.7898,28.0,45,0.0,946.3,8.15,26.6,82,36.7,25.8,4,5,7,0,2026-03-25T20:33:22.616904+05:30
Aurangabad,Maharashtra,19.8762,75.3433,29.6,32,0.0,944.8,8.7,32.8,68,22.4,17.0,4,5,7,0,2026-03-25T20:33:22.616912+05:30
Solapur,Maharashtra,17.6599,75.9064,27.6,59,0.0,957.6,8.85,29.2,139,39.8,33.2,4,5,7,1,2026-03-25T20:33:22.616919+05:30
Kolhapur,Maharashtra,16.705,74.2433,25.6,77,0.0,948.6,8.95,38.2,133,58.0,53.9,7,5,7,1,2026-03-25T20:33:22.616926+05:30
Goa,Goa,15.2993,74.124,28.4,75,0.0,998.1,8.95,29.9,113,46.8,34.2,7,5,7,1,2026-03-25T20:33:22.616933+05:30
Jodhpur,Rajasthan,26.2389,73.0243,29.8,32,0.0,983.9,7.45,26.6,66,119.2,22.4,4,5,7,0,2026-03-25T20:33:22.616940+05:30
Udaipur,Rajasthan,24.5854,73.7125,26.8,42,0.0,948.3,7.95,25.6,55,16.2,9.1,4,5,7,0,2026-03-25T20:33:22.616947+05:30
Kota,Rajasthan,25.2138,75.8648,28.1,45,0.0,980.8,7.7,17.3,121,40.6,30.9,4,5,7,0,2026-03-25T20:33:22.616953+05:30
Bikaner,Rajasthan,28.0229,73.3119,30.0,27,0.0,982.9,6.65,31.0,75,27.4,10.9,4,5,7,0,2026-03-25T20:33:22.616960+05:30
Ajmer,Rajasthan,26.4499,74.6399,27.5,40,0.0,956.3,7.5,28.8,95,42.6,20.5,4,5,7,0,2026-03-25T20:33:22.616967+05:30
Gwalior,Madhya Pradesh,26.2183,78.1828,27.2,49,0.0,985.7,7.25,29.9,170,74.7,24.2,4,5,7,0,2026-03-25T20:33:22.616973+05:30
Indore,Madhya Pradesh,22.7196,75.8577,27.0,44,0.0,949.1,8.15,23.0,96,40.2,30.9,4,5,7,0,2026-03-25T20:33:22.616979+05:30
Bhopal,Madhya Pradesh,23.2599,77.4126,27.4,40,0.0,955.3,8.05,22.0,87,29.8,20.9,4,5,7,0,2026-03-25T20:33:22.616985+05:30
Jabalpur,Madhya Pradesh,23.1815,79.9864,27.8,40,0.0,963.3,8.2,30.2,86,49.0,26.5,4,5,7,0,2026-03-25T20:33:22.616992+05:30
Ujjain,Madhya Pradesh,23.1765,75.7885,27.0,45,0.0,954.8,8.05,17.6,79,46.3,34.8,4,5,7,0,2026-03-25T20:33:22.616999+05:30
Visakhapatnam,Andhra Pradesh,17.6868,83.2185,26.8,79,0.0,1006.4,8.9,38.5,68,32.8,22.8,7,5,4,1,2026-03-25T20:33:22.617007+05:30
Vijayawada,Andhra Pradesh,16.5062,80.648,27.7,70,0.0,1004.3,9.0,24.5,59,21.8,17.6,7,5,4,1,2026-03-25T20:33:22.617013+05:30
Guntur,Andhra Pradesh,16.3067,80.4365,26.4,80,0.0,1005.5,9.0,24.8,56,24.7,20.5,7,5,4,1,2026-03-25T20:33:22.617020+05:30
Nellore,Andhra Pradesh,14.4426,79.9865,26.3,81,0.0,1007.7,9.1,29.5,83,21.1,13.3,7,5,4,1,2026-03-25T20:33:22.617027+05:30
Kurnool,Andhra Pradesh,15.8281,78.0373,30.8,50,0.0,977.8,8.65,24.1,109,55.5,42.6,0,5,7,1,2026-03-25T20:33:22.617035+05:30
Kakinada,Andhra Pradesh,16.9891,82.2475,26.5,79,0.0,1009.7,8.95,28.4,54,25.8,14.9,7,0,4,1,2026-03-25T20:33:22.617041+05:30
Tirupati,Andhra Pradesh,13.6288,79.4192,27.7,70,0.0,993.2,9.2,28.8,107,25.3,21.7,7,5,7,1,2026-03-25T20:33:22.617047+05:30
Warangal,Telangana,17.9689,79.5941,28.4,66,0.0,979.7,8.7,24.8,98,45.2,38.9,7,5,7,1,2026-03-25T20:33:22.617054+05:30
Nizamabad,Telangana,18.6725,78.0941,29.4,49,0.0,965.4,8.75,33.5,94,54.0,44.4,4,5,7,1,2026-03-25T20:33:22.617061+05:30
Mysore,Karnataka,12.2958,76.6396,29.2,44,0.0,928.4,9.4,32.0,122,38.1,32.6,4,5,7,0,2026-03-25T20:33:22.617067+05:30
Mangalore,Karnataka,12.9141,74.856,29.6,80,0.0,1006.3,9.05,23.8,125,40.7,33.9,7,5,4,1,2026-03-25T20:33:22.617073+05:30
Hubli-Dharwad,Karnataka,15.3647,75.124,24.5,80,0.0,941.4,9.1,38.2,132,46.8,40.3,3,5,7,1,2026-03-25T20:33:22.617080+05:30
Belgaum,Karnataka,15.8497,74.4977,24.1,79,0.0,926.3,9.1,24.8,139,48.8,40.2,3,5,7,1,2026-03-25T20:33:25.965765+05:30
Coimbatore,Tamil Nadu,11.0168,76.9558,28.0,61,0.0,961.8,9.4,34.6,96,22.1,18.9,7,5,7,1,2026-03-25T20:33:25.965794+05:30
Madurai,Tamil Nadu,9.9252,78.1198,29.2,59,0.0,993.5,9.35,25.9,81,15.7,13.6,4,5,7,1,2026-03-25T20:33:25.965804+05:30
Trichy,Tamil Nadu,10.7905,78.7047,27.8,72,0.0,1000.6,9.3,23.0,96,18.9,17.0,7,5,4,1,2026-03-25T20:33:25.965812+05:30
Salem,Tamil Nadu,11.6643,78.146,29.5,52,0.0,977.5,9.35,31.7,133,29.3,25.6,4,5,7,1,2026-03-25T20:33:25.965819+05:30
Tirunelveli,Tamil Nadu,8.7139,77.7567,28.3,65,0.0,1003.8,9.3,40.3,69,10.4,8.7,7,5,4,1,2026-03-25T20:33:25.965827+05:30
Vellore,Tamil Nadu,12.9165,79.1325,27.4,66,0.0,985.8,9.3,31.7,105,20.2,17.2,7,5,7,1,2026-03-25T20:33:25.965834+05:30
Erode,Tamil Nadu,11.341,77.7172,30.9,48,0.0,988.9,9.3,28.1,105,22.6,19.5,0,5,7,1,2026-03-25T20:33:25.965841+05:30
Kochi,Kerala,9.9312,76.2673,29.5,76,0.0,1008.1,9.15,33.1,126,36.2,30.2,7,0,4,1,2026-03-25T20:33:25.965848+05:30
Thiruvananthapuram,Kerala,8.5241,76.9366,29.4,77,0.0,1007.8,9.2,31.3,116,16.3,11.8,7,5,4,1,2026-03-25T20:33:25.965855+05:30
Kozhikode,Kerala,11.2588,75.7804,29.6,78,0.0,1007.0,9.1,28.4,97,42.0,29.9,7,5,4,1,2026-03-25T20:33:25.965862+05:30
Thrissur,Kerala,10.5276,76.2144,28.8,80,0.0,1006.5,9.15,39.2,105,38.1,31.5,7,5,4,1,2026-03-25T20:33:25.965869+05:30
Kannur,Kerala,11.8745,75.3704,29.6,76,0.0,1006.5,9.1,29.5,106,37.4,28.9,7,5,4,1,2026-03-25T20:33:25.965875+05:30
Patna,Bihar,25.5941,85.1376,27.3,45,0.0,1002.2,7.4,30.2,114,90.8,57.0,4,5,4,0,2026-03-25T20:33:25.965882+05:30
Gaya,Bihar,24.7914,85.0002,25.8,45,0.0,996.2,8.05,22.7,111,72.6,41.2,4,5,7,0,2026-03-25T20:33:25.965889+05:30
Muzaffarpur,Bihar,26.1209,85.3647,24.9,59,0.0,1002.2,7.9,24.1,105,99.4,63.1,0,5,4,1,2026-03-25T20:33:25.965896+05:30
Bhagalpur,Bihar,25.2425,87.0117,25.4,58,0.0,1003.7,8.0,24.1,149,75.7,52.9,4,5,4,1,2026-03-25T20:33:25.965903+05:30
Ranchi,Jharkhand,23.3441,85.3096,24.5,41,0.0,940.1,8.4,31.7,89,41.4,24.0,0,5,7,0,2026-03-25T20:33:25.965909+05:30
Jamshedpur,Jharkhand,22.8046,86.2029,28.5,65,0.0,993.0,8.55,30.2,172,72.2,55.4,7,5,7,1,2026-03-25T20:33:25.965916+05:30
Dhanbad,Jharkhand,23.7957,86.4304,27.9,35,0.0,982.4,8.45,27.0,153,96.4,77.5,4,5,7,0,2026-03-25T20:33:25.965923+05:30
Bokaro,Jharkhand,23.6693,86.1511,26.1,44,0.0,986.6,8.45,24.1,148,84.3,65.4,4,5,7,0,2026-03-25T20:33:25.965929+05:30
Bhubaneswar,Odisha,20.2961,85.8245,26.7,84,0.0,1005.7,8.75,28.1,80,36.1,30.9,7,5,4,1,2026-03-25T20:33:25.965936+05:30
Cuttack,Odisha,20.4625,85.8828,25.9,85,0.0,1007.7,8.8,27.4,80,36.1,30.9,7,5,4,1,2026-03-25T20:33:25.965943+05:30
Rourkela,Odisha,22.2604,84.8536,27.8,66,0.0,986.9,8.45,19.8,126,52.6,39.6,7,5,7,1,2026-03-25T20:33:25.965949+05:30
Raipur,Chhattisgarh,21.2514,81.6296,28.3,54,0.0,975.8,8.2,45.4,146,45.9,39.2,4,5,7,1,2026-03-25T20:33:25.965955+05:30
Bhilai,Chhattisgarh,21.1938,81.3509,27.8,57,0.0,976.1,8.2,40.0,117,52.7,45.4,4,5,7,1,2026-03-25T20:33:25.965962+05:30
Guwahati,Assam,26.1158,91.7086,23.5,80,0.0,1005.5,7.85,28.1,116,62.2,49.7,3,5,4,1,2026-03-25T20:33:25.965967+05:30
Agartala,Tripura,23.8315,91.2868,25.1,79,0.0,1009.5,8.15,27.4,152,52.3,48.1,7,0,4,1,2026-03-25T20:33:25.965974+05:30
Shillong,Meghalaya,25.5788,91.8933,11.7,94,0.0,857.2,8.25,67.0,103,57.3,43.3,3,10,7,0,2026-03-25T20:33:25.965981+05:30
Imphal,Manipur,24.817,93.9368,15.8,84,0.0,925.7,8.45,76.0,120,62.4,48.1,3,10,7,0,2026-03-25T20:33:25.965988+05:30
Aizawl,Mizoram,23.7271,92.7176,18.5,71,0.0,894.9,8.25,43.9,114,69.8,47.6,3,5,7,0,2026-03-25T20:33:25.965994+05:30
Kohima,Nagaland,25.6701,94.1077,13.6,99,0.0,856.5,7.8,76.7,97,58.0,43.5,3,10,7,0,2026-03-25T20:33:25.966000+05:30
Gangtok,Sikkim,27.3314,88.6138,13.3,90,0.0,838.3,8.1,18.7,95,44.0,36.8,3,10,7,0,2026-03-25T20:33:25.966006+05:30
Siliguri,West Bengal,26.7271,88.3953,20.5,69,0.0,996.8,7.8,25.2,149,82.0,65.4,3,5,7,0,2026-03-25T20:33:29.321583+05:30
Durgapur,West Bengal,23.5204,87.3119,27.0,74,0.0,997.8,8.4,22.7,151,83.1,69.4,7,5,7,1,2026-03-25T20:33:29.321612+05:30
Asansol,West Bengal,23.6739,86.9524,27.9,67,0.0,996.5,8.4,22.3,131,74.5,58.6,7,5,7,1,2026-03-25T20:33:29.321621+05:30
Pondicherry,Puducherry,11.9139,79.8145,25.0,87,0.0,1010.0,9.15,29.5,40,22.7,13.6,7,0,4,1,2026-03-25T20:33:29.321629+05:30
Port Blair,Andaman and Nicobar Islands,11.6234,92.7265,28.5,75,0.0,1008.4,9.1,25.2,63,17.1,12.5,7,0,4,1,2026-03-25T20:33:29.321636+05:30
Haridwar,Uttarakhand,29.9457,78.1642,22.2,53,0.0,976.4,6.45,25.2,133,102.7,41.7,0,5,7,0,2026-03-25T20:33:29.321644+05:30
Rishikesh,Uttarakhand,30.0869,78.2676,22.7,63,0.0,969.1,6.5,23.4,136,46.9,30.4,3,5,7,0,2026-03-25T20:33:29.321651+05:30
Nainital,Uttarakhand,29.3919,79.4542,16.6,61,0.0,806.8,7.35,27.7,138,34.6,29.5,3,5,7,0,2026-03-25T20:33:29.321658+05:30
Mussoorie,Uttarakhand,30.4599,78.0664,15.0,70,0.0,803.0,6.9,25.2,143,65.2,39.1,3,5,7,0,2026-03-25T20:33:29.321665+05:30
Dharamshala,Himachal Pradesh,32.219,76.3234,17.7,72,0.0,870.6,7.1,18.0,123,30.6,21.8,3,5,7,0,2026-03-25T20:33:29.321672+05:30
Dalhousie,Himachal Pradesh,32.5387,75.971,15.6,77,0.0,804.7,7.35,20.5,125,43.9,36.3,3,5,7,0,2026-03-25T20:33:29.321679+05:30
Patiala,Punjab,30.3398,76.3869,22.1,68,0.0,981.0,6.45,26.6,126,184.4,57.6,3,5,7,0,2026-03-25T20:33:29.321686+05:30
Bhatinda,Punjab,30.211,74.9455,23.9,62,0.0,986.1,6.35,22.3,138,60.1,54.6,3,5,7,1,2026-03-25T20:33:29.321692+05:30
Rohtak,Haryana,28.8955,76.6066,24.0,59,0.0,983.8,6.45,21.2,253,183.5,69.2,0,5,7,0,2026-03-25T20:33:29.321699+05:30
Panipat,Haryana,29.3909,76.9635,23.0,62,0.0,982.6,5.95,28.4,453,394.9,84.3,3,5,3,0,2026-03-25T20:33:29.321705+05:30
Mathura,Uttar Pradesh,27.4924,77.6737,24.7,58,0.0,989.2,6.85,20.9,455,285.9,68.0,0,5,7,0,2026-03-25T20:33:29.321712+05:30
Vrindavan,Uttar Pradesh,27.5823,77.7027,23.8,59,0.0,989.6,6.8,24.8,455,285.9,68.0,0,5,7,0,2026-03-25T20:33:29.321718+05:30
Ayodhya,Uttar Pradesh,26.7922,82.1998,24.5,38,0.0,997.3,7.3,35.3,111,45.3,28.7,0,5,7,0,2026-03-25T20:33:29.321724+05:30
Ratlam,Madhya Pradesh,23.3315,75.0367,27.5,48,0.0,955.6,8.05,24.5,68,38.9,26.8,4,5,7,0,2026-03-25T20:33:29.321731+05:30
Sagar,Madhya Pradesh,23.8388,78.7378,27.7,41,0.0,952.3,8.05,25.6,84,31.4,12.3,4,5,7,0,2026-03-25T20:33:29.321737+05:30
Satna,Madhya Pradesh,24.6005,80.8322,27.1,37,0.0,973.7,7.85,29.9,101,78.7,22.5,4,5,7,0,2026-03-25T20:33:29.321743+05:30
Akola,Maharashtra,20.7002,77.0082,29.3,42,0.0,975.4,8.45,23.8,75,21.5,15.8,4,5,7,0,2026-03-25T20:33:29.321750+05:30
Amravati,Maharashtra,20.9374,77.7796,29.8,44,0.0,967.8,8.45,22.7,78,27.8,20.7,4,5,7,1,2026-03-25T20:33:29.321756+05:30
Latur,Maharashtra,18.4088,76.5604,28.4,45,0.0,940.4,8.8,19.8,105,40.3,31.9,4,5,7,0,2026-03-25T20:33:29.321763+05:30
Nanded,Maharashtra,19.1383,77.3091,30.2,39,0.0,968.8,8.65,22.7,93,44.2,34.5,0,5,7,0,2026-03-25T20:33:29.321768+05:30
Gulbarga,Karnataka,17.3297,76.8343,26.4,70,0.0,959.9,8.85,26.3,137,41.0,35.0,7,5,7,1,2026-03-25T20:33:29.321774+05:30
Bidar,Karnataka,17.9104,77.5199,27.7,56,0.0,936.8,8.85,24.1,105,43.7,36.8,4,5,7,1,2026-03-25T20:33:29.321780+05:30
Hospet,Karnataka,15.2689,76.3909,27.9,69,0.0,956.6,9.05,21.2,152,48.4,43.4,7,5,7,1,2026-03-25T20:33:29.321786+05:30
Tirupur,Tamil Nadu,11.1085,77.3411,31.3,39,0.0,975.1,9.4,31.7,108,26.1,22.2,0,5,7,0,2026-03-25T20:33:29.321791+05:30
Alappuzha,Kerala,9.4981,76.3388,29.4,78,0.0,1008.4,9.15,29.2,121,35.6,27.6,7,0,4,1,2026-03-25T20:33:29.321797+05:30
Munnar,Kerala,10.0889,77.0595,24.2,71,0.0,857.8,9.65,30.6,70,28.9,23.9,3,5,7,1,2026-03-25T20:33:29.321804+05:30
Silchar,Assam,24.8333,92.7789,23.6,85,0.0,1008.5,8.15,36.0,160,114.3,89.6,3,0,4,1,2026-03-25T20:33:29.321811+05:30
Dibrugarh,Assam,27.4728,94.912,20.4,82,0.0,1000.9,6.95,27.4,81,31.1,28.2,3,5,4,1,2026-03-25T20:33:29.321817+05:30
