city,state,latitude,longitude,temp,humidity,rain,pressure,uv_index,wind_gusts,aqi,pm10,pm2_5,no2,co,o3,so2,mosquito_risk,arthritis_risk,migraine_risk,frizz_risk,updated_at
Delhi,Delhi,28.6139,77.209,31.7,77,0.1,973.1,7.3,26.3,206,64.0,40.7,16.8,545.0,190.0,27.3,6,5,7,1,2026-07-05T19:15:01.489458+05:30
Mumbai,Maharashtra,19.076,72.8777,26.5,88,0.4,999.9,1.05,69.8,28,24.2,11.3,5.7,142.0,55.0,3.4,10,5,3,1,2026-07-05T19:15:01.489504+05:30
Bangalore,Karnataka,12.9716,77.5946,24.5,64,0.0,909.5,8.0,78.1,31,15.2,9.3,5.8,229.0,58.0,2.6,3,5,7,1,2026-07-05T19:15:01.489529+05:30
Hyderabad,Telangana,17.385,78.4867,24.8,82,0.2,947.0,1.55,62.3,29,4.3,3.4,5.0,182.0,53.0,2.4,6,5,3,1,2026-07-05T19:15:01.489538+05:30
Chennai,Tamil Nadu,13.0827,80.2707,33.6,52,0.0,1002.2,8.9,56.9,51,26.0,16.6,6.5,248.0,88.0,5.7,0,5,4,1,2026-07-05T19:15:01.489546+05:30
Kolkata,West Bengal,22.5726,88.3639,27.8,89,0.0,992.9,2.9,40.0,45,16.5,15.0,9.2,375.0,74.0,6.4,7,5,3,1,2026-07-05T19:15:01.489553+05:30
Pune,Maharashtra,18.5204,73.8567,23.1,93,0.2,939.8,0.35,63.4,22,2.0,1.7,7.1,135.0,42.0,3.5,6,5,3,1,2026-07-05T19:15:01.489559+05:30
Ahmedabad,Gujarat,23.0225,72.5714,27.7,96,0.6,991.6,5.2,23.8,76,79.6,33.3,8.2,367.0,112.0,7.5,10,5,3,1,2026-07-05T19:15:01.489565+05:30
Jaipur,Rajasthan,26.9124,75.7873,32.4,65,0.0,950.2,8.05,20.5,132,21.0,13.0,10.8,407.0,132.0,6.8,3,5,7,1,2026-07-05T19:15:01.489571+05:30
Lucknow,Uttar Pradesh,26.8467,80.9462,32.4,72,0.0,984.0,8.2,25.2,145,25.7,25.4,10.4,382.0,131.0,6.6,3,5,7,1,2026-07-05T19:15:01.489580+05:30
Kanpur,Uttar Pradesh,26.4499,80.3319,33.8,64,0.0,981.7,7.65,22.0,141,20.7,20.4,9.5,319.0,136.0,6.6,3,5,7,1,2026-07-05T19:15:01.489587+05:30
Chandigarh,Chandigarh,30.7333,76.7794,31.8,74,0.0,959.0,7.45,26.3,191,69.8,63.6,17.0,732.0,168.0,17.3,3,5,7,1,2026-07-05T19:15:01.489593+05:30
Srinagar,Jammu and Kashmir,34.0837,74.7973,29.0,45,0.0,836.5,9.05,25.2,129,24.8,19.1,9.5,313.0,115.0,2.9,4,5,7,0,2026-07-05T19:15:01.489600+05:30
Jammu,Jammu and Kashmir,32.7266,74.857,34.6,55,0.0,961.8,8.45,36.0,176,84.8,65.9,9.1,408.0,162.0,8.4,0,5,7,1,2026-07-05T19:15:01.489606+05:30
Amritsar,Punjab,31.634,74.8723,34.8,55,0.0,969.8,8.45,54.7,175,96.9,77.3,12.5,434.0,157.0,11.2,0,5,7,1,2026-07-05T19:15:01.489612+05:30
Ludhiana,Punjab,30.901,75.8573,33.5,69,0.0,968.2,7.9,31.7,184,99.2,75.7,16.4,539.0,161.0,10.8,3,5,7,1,2026-07-05T19:15:01.489618+05:30
Jalandhar,Punjab,31.326,75.5762,33.1,71,0.0,969.1,7.9,24.5,185,93.4,80.1,13.5,569.0,152.0,8.1,3,5,7,1,2026-07-05T19:15:01.489623+05:30
Dehradun,Uttarakhand,30.6284,78.0322,20.7,97,0.0,825.8,6.8,29.9,105,23.1,22.7,7.1,281.0,125.0,3.4,3,5,7,1,2026-07-05T19:15:01.489631+05:30
Shimla,Himachal Pradesh,31.1048,77.1734,18.3,94,0.0,780.4,6.9,33.1,128,39.0,36.7,8.3,370.0,132.0,6.4,3,10,7,1,2026-07-05T19:15:01.489637+05:30
Manali,Himachal Pradesh,32.2396,77.1887,22.2,93,0.1,815.7,9.6,33.8,100,15.7,15.7,31.0,216.0,116.0,0.7,6,5,7,1,2026-07-05T19:15:01.489645+05:30
Gurgaon,Haryana,28.4595,77.0266,30.9,74,0.0,971.3,5.95,28.1,167,119.2,41.7,20.2,479.0,143.0,18.7,3,5,3,1,2026-07-05T19:15:01.489650+05:30
Noida,Uttar Pradesh,28.5355,77.391,30.9,80,0.1,974.5,6.2,23.8,167,119.2,41.7,20.2,537.0,143.0,18.7,6,5,7,1,2026-07-05T19:15:01.489656+05:30
Ghaziabad,Uttar Pradesh,28.6692,77.4538,30.6,88,0.1,972.8,6.7,23.8,156,35.4,32.9,16.2,332.0,134.0,14.5,6,5,7,1,2026-07-05T19:15:01.489662+05:30
Faridabad,Haryana,28.4089,77.3178,32.0,70,0.1,973.8,5.9,25.9,167,119.2,41.7,20.2,424.0,143.0,18.7,6,5,3,1,2026-07-05T19:15:01.489668+05:30
Meerut,Uttar Pradesh,28.9845,77.7064,32.6,73,0.0,971.7,7.45,26.3,156,35.4,32.9,16.2,344.0,134.0,14.5,3,5,7,1,2026-07-05T19:15:01.489674+05:30
Agra,Uttar Pradesh,27.1767,78.0081,34.1,65,0.0,977.3,7.8,32.0,130,58.9,30.3,12.5,292.0,131.0,8.3,3,5,7,1,2026-07-05T19:15:01.489680+05:30
Varanasi,Uttar Pradesh,25.3176,82.9739,32.1,70,0.0,987.2,7.75,41.8,84,29.6,29.2,13.3,293.0,83.0,7.2,3,5,7,1,2026-07-05T19:15:01.489686+05:30
Prayagraj,Uttar Pradesh,25.4358,81.8463,32.8,70,0.0,985.4,8.1,31.7,128,21.7,21.3,7.5,348.0,118.0,4.6,3,5,7,1,2026-07-05T19:15:01.489692+05:30
Gorakhpur,Uttar Pradesh,26.7606,83.3732,30.9,81,0.0,988.0,8.5,42.5,115,23.1,23.0,8.6,300.0,116.0,5.1,3,5,7,1,2026-07-05T19:15:01.489698+05:30
Bareilly,Uttar Pradesh,28.367,79.4304,32.7,70,0.0,977.3,6.65,22.3,121,32.0,30.2,11.9,305.0,124.0,12.5,3,5,7,1,2026-07-05T19:15:01.489705+05:30
Aligarh,Uttar Pradesh,27.8974,78.088,33.4,67,0.0,975.5,6.5,25.9,149,59.5,31.3,13.4,306.0,138.0,12.9,3,5,7,1,2026-07-05T19:15:01.489711+05:30
Moradabad,Uttar Pradesh,28.8386,78.7733,31.9,73,0.0,974.4,7.0,29.2,137,31.5,31.2,12.0,326.0,135.0,12.5,3,5,7,1,2026-07-05T19:15:01.489716+05:30
Saharanpur,Uttar Pradesh,29.9637,77.546,31.7,77,0.0,966.0,6.8,24.5,155,53.3,51.5,11.7,419.0,148.0,14.5,3,5,7,1,2026-07-05T19:15:01.489726+05:30
Jhansi,Uttar Pradesh,25.4484,78.5685,34.0,65,0.0,967.6,7.35,27.4,112,19.4,18.7,7.0,227.0,119.0,6.6,3,5,7,1,2026-07-05T19:15:04.874464+05:30
Surat,Gujarat,21.1702,72.8311,27.8,92,0.2,995.7,6.3,26.6,79,32.9,25.6,30.1,248.0,56.0,54.5,10,5,7,1,2026-07-05T19:15:04.874497+05:30
Vadodara,Gujarat,22.3072,73.1812,28.5,91,0.3,993.9,6.45,22.7,62,41.4,24.2,6.2,344.0,115.0,5.6,10,5,7,1,2026-07-05T19:15:04.874508+05:30
Rajkot,Gujarat,22.3039,70.8022,27.5,93,0.0,984.4,1.45,39.2,72,51.1,23.2,5.0,107.0,70.0,4.1,7,5,3,1,2026-07-05T19:15:04.874516+05:30
Thane,Maharashtra,19.2183,72.9781,25.6,95,0.5,999.1,1.3,52.9,28,24.2,11.3,5.7,144.0,55.0,3.4,10,5,3,1,2026-07-05T19:15:04.874524+05:30
Nagpur,Maharashtra,21.1458,79.0882,26.6,92,0.0,964.1,4.85,36.7,58,11.7,11.2,11.0,218.0,95.0,16.8,7,5,3,1,2026-07-05T19:15:04.874532+05:30
Nashik,Maharashtra,19.9975,73.7898,23.8,94,0.0,935.6,5.85,45.4,25,2.0,1.9,5.8,141.0,43.0,1.3,3,5,3,1,2026-07-05T19:15:04.874539+05:30
Aurangabad,Maharashtra,19.8762,75.3433,24.3,90,0.1,935.0,8.15,47.2,32,2.6,2.6,5.8,141.0,54.0,6.0,6,5,7,1,2026-07-05T19:15:04.874547+05:30
Solapur,Maharashtra,17.6599,75.9064,24.5,90,0.1,951.0,2.85,78.5,26,2.4,2.1,3.7,104.0,50.0,1.4,6,5,3,1,2026-07-05T19:15:04.874555+05:30
Kolhapur,Maharashtra,16.705,74.2433,22.1,96,0.3,942.4,2.8,67.3,22,3.3,2.4,3.5,120.0,50.0,1.2,6,5,3,1,2026-07-05T19:15:04.874562+05:30
Goa,Goa,15.2993,74.124,24.2,98,0.1,995.0,7.85,36.7,47,27.2,12.0,1.5,149.0,57.0,0.6,6,5,7,1,2026-07-05T19:15:04.874569+05:30
Jodhpur,Rajasthan,26.2389,73.0243,34.6,57,0.0,971.6,8.4,19.8,118,108.7,37.3,4.5,197.0,98.0,2.9,0,5,7,1,2026-07-05T19:15:04.874576+05:30
Udaipur,Rajasthan,24.5854,73.7125,27.1,89,0.0,937.0,8.5,27.0,73,32.6,18.1,5.3,228.0,85.0,2.8,7,5,7,1,2026-07-05T19:15:04.874584+05:30
Kota,Rajasthan,25.2138,75.8648,32.3,69,0.0,968.3,8.2,21.6,113,30.2,25.7,7.2,267.0,133.0,13.1,3,5,7,1,2026-07-05T19:15:04.874590+05:30
Bikaner,Rajasthan,28.0229,73.3119,38.9,33,0.0,970.1,7.85,28.1,134,104.3,43.7,2.4,208.0,123.0,7.2,0,5,10,1,2026-07-05T19:15:04.874600+05:30
Ajmer,Rajasthan,26.4499,74.6399,30.4,74,0.0,945.1,8.35,21.2,92,48.4,21.4,6.4,278.0,107.0,3.0,3,5,7,1,2026-07-05T19:15:04.874613+05:30
Gwalior,Madhya Pradesh,26.2183,78.1828,33.6,71,0.0,972.7,7.0,30.2,120,24.4,22.9,4.7,237.0,129.0,4.3,3,5,7,1,2026-07-05T19:15:04.874624+05:30
Indore,Madhya Pradesh,22.7196,75.8577,27.2,88,0.0,938.7,8.35,28.8,64,18.9,17.6,8.9,315.0,97.0,3.7,7,5,7,1,2026-07-05T19:15:04.874637+05:30
Bhopal,Madhya Pradesh,23.2599,77.4126,27.3,92,0.0,944.0,8.55,27.4,81,21.7,21.2,4.5,446.0,106.0,3.3,7,5,7,1,2026-07-05T19:15:04.874648+05:30
Jabalpur,Madhya Pradesh,23.1815,79.9864,27.2,92,0.0,951.9,7.6,39.6,73,15.6,15.4,5.2,244.0,93.0,2.5,7,5,7,1,2026-07-05T19:15:04.874660+05:30
Ujjain,Madhya Pradesh,23.1765,75.7885,27.7,87,0.1,944.2,8.45,28.1,57,22.4,20.7,4.9,322.0,103.0,2.5,10,5,7,1,2026-07-05T19:15:04.874673+05:30
Visakhapatnam,Andhra Pradesh,17.6868,83.2185,29.7,67,0.0,994.0,3.15,72.0,30,9.5,7.9,10.5,202.0,53.0,18.8,7,5,3,1,2026-07-05T19:15:04.874682+05:30
Vijayawada,Andhra Pradesh,16.5062,80.648,31.9,54,0.0,995.7,4.15,46.1,29,17.9,14.5,7.0,134.0,57.0,4.8,0,5,3,1,2026-07-05T19:15:04.874689+05:30
Guntur,Andhra Pradesh,16.3067,80.4365,33.3,46,0.0,997.3,7.35,49.3,27,17.2,12.7,6.6,129.0,58.0,4.6,0,5,7,1,2026-07-05T19:15:04.874697+05:30
Nellore,Andhra Pradesh,14.4426,79.9865,35.2,36,0.0,1000.1,4.15,56.2,33,18.7,10.0,3.0,123.0,69.0,2.2,0,5,3,1,2026-07-05T19:15:04.874705+05:30
Kurnool,Andhra Pradesh,15.8281,78.0373,29.4,56,0.0,972.3,7.0,72.4,31,9.5,5.4,2.3,112.0,58.0,1.8,4,5,7,1,2026-07-05T19:15:04.874714+05:30
Kakinada,Andhra Pradesh,16.9891,82.2475,29.1,72,0.0,999.6,3.0,82.8,32,13.7,9.3,5.1,155.0,63.0,4.4,7,5,3,1,2026-07-05T19:15:04.874722+05:30
Tirupati,Andhra Pradesh,13.6288,79.4192,32.4,40,0.0,986.8,7.8,63.7,36,18.4,10.5,2.9,146.0,72.0,1.5,0,5,7,1,2026-07-05T19:15:04.874729+05:30
Warangal,Telangana,17.9689,79.5941,28.0,68,0.0,971.9,1.0,57.2,28,6.9,5.4,4.2,125.0,58.0,2.7,7,5,3,1,2026-07-05T19:15:04.874735+05:30
Nizamabad,Telangana,18.6725,78.0941,26.4,78,0.0,957.6,1.3,50.8,28,3.4,3.3,3.6,121.0,51.0,1.9,7,5,3,1,2026-07-05T19:15:04.874742+05:30
Mysore,Karnataka,12.2958,76.6396,22.4,86,0.0,926.9,8.25,67.0,29,12.2,7.4,3.0,116.0,55.0,1.4,3,5,7,1,2026-07-05T19:15:04.874750+05:30
Mangalore,Karnataka,12.9141,74.856,27.9,79,0.0,1005.8,6.25,60.5,53,30.9,16.0,2.0,108.0,51.0,1.2,7,5,4,1,2026-07-05T19:15:04.874757+05:30
Hubli-Dharwad,Karnataka,15.3647,75.124,21.8,96,0.1,936.9,6.0,71.6,25,3.1,1.9,3.0,108.0,49.0,0.8,6,5,3,1,2026-07-05T19:15:04.874764+05:30
Belgaum,Karnataka,15.8497,74.4977,21.3,96,0.3,920.9,3.9,63.4,23,1.7,1.3,3.2,107.0,49.0,0.8,6,5,3,1,2026-07-05T19:15:08.243100+05:30
Coimbatore,Tamil Nadu,11.0168,76.9558,24.5,87,0.0,960.4,8.3,62.6,28,17.8,9.9,3.3,143.0,53.0,1.9,3,5,7,1,2026-07-05T19:15:08.243137+05:30
Madurai,Tamil Nadu,9.9252,78.1198,30.7,49,0.0,991.1,8.25,70.2,47,23.6,10.8,4.7,118.0,68.0,2.3,0,5,7,1,2026-07-05T19:15:08.243148+05:30
Trichy,Tamil Nadu,10.7905,78.7047,31.5,45,0.0,997.1,8.6,74.5,36,20.8,10.6,2.7,110.0,63.0,1.7,0,5,7,1,2026-07-05T19:15:08.243159+05:30
Salem,Tamil Nadu,11.6643,78.146,28.3,62,0.0,975.2,6.65,44.3,43,15.7,9.1,5.1,155.0,67.0,4.0,7,5,7,1,2026-07-05T19:15:08.243168+05:30
Tirunelveli,Tamil Nadu,8.7139,77.7567,29.9,58,0.0,1002.4,8.25,54.0,35,20.8,10.9,2.6,112.0,57.0,1.2,4,5,4,1,2026-07-05T19:15:08.243176+05:30
Vellore,Tamil Nadu,12.9165,79.1325,33.2,34,0.0,980.7,8.1,60.8,36,18.8,10.7,3.1,118.0,75.0,1.9,0,5,7,0,2026-07-05T19:15:08.243184+05:30
Erode,Tamil Nadu,11.341,77.7172,28.2,68,0.0,986.7,8.7,62.3,34,17.6,10.2,5.7,133.0,55.0,2.1,7,5,7,1,2026-07-05T19:15:08.243191+05:30
Kochi,Kerala,9.9312,76.2673,27.8,83,0.0,1009.1,7.05,43.6,54,24.2,13.4,7.5,109.0,43.0,3.0,7,0,4,1,2026-07-05T19:15:08.243199+05:30
Thiruvananthapuram,Kerala,8.5241,76.9366,26.7,84,0.0,1008.7,7.75,50.4,50,31.4,14.3,2.5,103.0,58.0,0.8,7,0,4,1,2026-07-05T19:15:08.243206+05:30
Kozhikode,Kerala,11.2588,75.7804,25.6,95,0.0,1008.2,8.05,46.4,48,27.1,12.8,0.7,102.0,56.0,0.7,7,0,4,1,2026-07-05T19:15:08.243213+05:30
Thrissur,Kerala,10.5276,76.2144,27.0,85,0.0,1007.3,6.8,49.0,52,20.8,11.5,3.9,115.0,47.0,1.9,7,5,4,1,2026-07-05T19:15:08.243221+05:30
Kannur,Kerala,11.8745,75.3704,27.6,82,0.0,1006.9,8.15,52.2,50,22.5,12.2,1.8,103.0,52.0,1.0,7,5,4,1,2026-07-05T19:15:08.243228+05:30
Patna,Bihar,25.5941,85.1376,30.4,80,0.0,990.4,8.05,55.1,89,17.5,17.2,9.8,223.0,90.0,6.4,3,5,7,1,2026-07-05T19:15:08.243235+05:30
Gaya,Bihar,24.7914,85.0002,27.5,96,0.1,983.4,7.5,52.2,67,13.1,12.9,6.6,256.0,87.0,4.9,10,5,7,1,2026-07-05T19:15:08.243242+05:30
Muzaffarpur,Bihar,26.1209,85.3647,30.9,79,0.0,990.6,8.5,53.3,89,19.2,18.7,10.7,220.0,86.0,5.3,3,5,7,1,2026-07-05T19:15:08.243249+05:30
Bhagalpur,Bihar,25.2425,87.0117,28.1,86,0.2,990.9,8.6,58.3,59,9.8,9.6,5.8,191.0,93.0,5.4,10,5,7,1,2026-07-05T19:15:08.243256+05:30
Ranchi,Jharkhand,23.3441,85.3096,23.5,98,0.0,926.7,5.25,51.1,56,14.7,14.6,10.4,528.0,85.0,16.7,3,5,3,1,2026-07-05T19:15:08.243263+05:30
Jamshedpur,Jharkhand,22.8046,86.2029,26.4,96,0.0,978.1,7.0,46.4,51,12.8,12.5,13.2,274.0,64.0,17.7,7,5,7,1,2026-07-05T19:15:08.243270+05:30
Dhanbad,Jharkhand,23.7957,86.4304,26.1,93,0.2,968.3,6.9,55.8,67,20.1,19.7,22.1,242.0,70.0,51.3,10,5,7,1,2026-07-05T19:15:08.243277+05:30
Bokaro,Jharkhand,23.6693,86.1511,26.3,93,0.0,972.1,5.8,51.1,66,19.8,19.4,20.8,250.0,66.0,49.4,7,5,3,1,2026-07-05T19:15:08.243284+05:30
Bhubaneswar,Odisha,20.2961,85.8245,26.8,94,0.1,989.2,2.35,41.0,43,7.1,6.9,6.8,232.0,69.0,4.0,10,5,3,1,2026-07-05T19:15:08.243291+05:30
Cuttack,Odisha,20.4625,85.8828,26.9,95,0.2,990.9,2.6,36.0,43,7.1,6.9,6.8,282.0,69.0,4.0,10,5,3,1,2026-07-05T19:15:08.243298+05:30
Rourkela,Odisha,22.2604,84.8536,26.2,97,0.1,972.2,6.25,46.1,53,15.3,15.1,9.1,256.0,81.0,9.0,10,5,7,1,2026-07-05T19:15:08.243305+05:30
Raipur,Chhattisgarh,21.2514,81.6296,26.4,93,0.1,964.5,5.15,46.1,69,21.1,21.0,22.9,381.0,90.0,38.4,10,5,3,1,2026-07-05T19:15:08.243312+05:30
Bhilai,Chhattisgarh,21.1938,81.3509,26.6,87,0.0,965.0,5.4,47.2,62,18.7,18.6,16.3,661.0,97.0,28.8,7,5,3,1,2026-07-05T19:15:08.243319+05:30
Guwahati,Assam,26.1158,91.7086,28.4,91,0.1,993.6,8.55,40.0,38,6.4,6.3,5.2,204.0,48.0,1.0,10,5,7,1,2026-07-05T19:15:08.243326+05:30
Agartala,Tripura,23.8315,91.2868,26.3,98,0.1,998.2,1.9,53.6,36,4.8,4.6,5.5,183.0,58.0,1.4,10,5,3,1,2026-07-05T19:15:08.243333+05:30
Shillong,Meghalaya,25.5788,91.8933,21.3,93,0.0,853.0,8.5,42.5,31,3.4,3.4,5.4,171.0,50.0,1.3,3,5,7,1,2026-07-05T19:15:08.243340+05:30
Imphal,Manipur,24.817,93.9368,24.9,90,0.0,918.8,3.1,32.8,28,5.4,5.3,4.2,364.0,50.0,1.3,3,5,3,1,2026-07-05T19:15:08.243346+05:30
Aizawl,Mizoram,23.7271,92.7176,21.2,96,0.0,886.9,3.2,32.8,25,3.7,3.7,3.9,134.0,37.0,0.5,3,5,3,1,2026-07-05T19:15:08.243353+05:30
Kohima,Nagaland,25.6701,94.1077,23.4,85,0.0,851.7,8.95,31.7,29,3.5,3.4,4.4,215.0,52.0,0.7,3,5,7,1,2026-07-05T19:15:08.243360+05:30
Gangtok,Sikkim,27.3314,88.6138,20.0,96,0.1,834.4,8.2,28.8,47,4.7,4.7,4.2,224.0,100.0,0.9,6,5,7,1,2026-07-05T19:15:08.243367+05:30
Siliguri,West Bengal,26.7271,88.3953,27.5,88,0.0,985.1,8.65,42.8,62,8.0,7.9,5.2,293.0,105.0,2.1,7,5,7,1,2026-07-05T19:15:11.621911+05:30
Durgapur,West Bengal,23.5204,87.3119,26.7,96,0.1,982.8,6.7,51.5,57,12.1,11.8,15.4,259.0,65.0,20.2,10,5,7,1,2026-07-05T19:15:11.621944+05:30
Asansol,West Bengal,23.6739,86.9524,26.7,92,0.1,981.6,6.8,53.3,56,13.2,13.0,16.1,265.0,72.0,21.5,10,5,7,1,2026-07-05T19:15:11.621956+05:30
Pondicherry,Puducherry,11.9139,79.8145,33.9,45,0.0,1004.1,8.35,50.0,51,25.7,16.2,9.3,167.0,77.0,9.0,0,5,4,1,2026-07-05T19:15:11.621966+05:30
Port Blair,Andaman and Nicobar Islands,11.6234,92.7265,28.1,83,0.0,1006.4,8.15,47.9,51,20.0,11.7,0.4,105.0,49.0,0.5,7,5,4,1,2026-07-05T19:15:11.621976+05:30
Haridwar,Uttarakhand,29.9457,78.1642,30.5,83,0.0,964.8,6.95,22.7,127,38.3,38.0,6.5,366.0,142.0,7.0,3,5,7,1,2026-07-05T19:15:11.621984+05:30
Rishikesh,Uttarakhand,30.0869,78.2676,29.6,79,0.0,957.7,6.95,23.8,102,27.4,27.0,4.1,339.0,122.0,4.1,7,5,7,1,2026-07-05T19:15:11.622012+05:30
Nainital,Uttarakhand,29.3919,79.4542,18.8,99,0.0,801.9,6.45,26.3,71,16.6,16.3,6.3,263.0,100.0,2.1,3,10,7,1,2026-07-05T19:15:11.622020+05:30
Mussoorie,Uttarakhand,30.4599,78.0664,19.3,96,0.0,799.0,6.2,35.3,130,36.6,36.1,7.9,312.0,143.0,8.3,3,10,7,1,2026-07-05T19:15:11.622027+05:30
Dharamshala,Himachal Pradesh,32.219,76.3234,23.6,91,0.0,863.0,8.25,33.1,75,6.8,6.3,4.5,315.0,101.0,0.4,3,5,7,1,2026-07-05T19:15:11.622035+05:30
Dalhousie,Himachal Pradesh,32.5387,75.971,20.0,99,0.0,800.2,8.0,25.9,152,39.5,32.8,7.1,394.0,160.0,3.2,3,5,7,1,2026-07-05T19:15:11.622043+05:30
Patiala,Punjab,30.3398,76.3869,32.7,70,0.0,968.1,6.9,18.7,179,93.6,71.2,14.8,461.0,156.0,13.8,3,5,7,1,2026-07-05T19:15:11.622051+05:30
Bhatinda,Punjab,30.211,74.9455,35.4,55,0.0,972.9,7.45,23.0,196,124.8,68.2,15.1,374.0,177.0,19.4,0,5,10,1,2026-07-05T19:15:11.622058+05:30
Rohtak,Haryana,28.8955,76.6066,33.6,68,0.0,971.6,7.4,18.0,204,70.1,43.2,12.1,417.0,196.0,17.1,3,5,7,1,2026-07-05T19:15:11.622065+05:30
Panipat,Haryana,29.3909,76.9635,32.5,73,0.0,970.3,6.95,18.0,190,105.5,65.7,15.2,368.0,184.0,31.4,3,5,7,1,2026-07-05T19:15:11.622072+05:30
Mathura,Uttar Pradesh,27.4924,77.6737,33.6,66,0.0,976.5,7.05,32.0,131,102.7,36.3,16.0,300.0,129.0,6.6,3,5,7,1,2026-07-05T19:15:11.622079+05:30
Vrindavan,Uttar Pradesh,27.5823,77.7027,33.7,65,0.0,976.9,6.7,30.6,131,102.7,36.3,16.0,305.0,129.0,6.6,3,5,7,1,2026-07-05T19:15:11.622086+05:30
Ayodhya,Uttar Pradesh,26.7922,82.1998,31.2,78,0.0,986.2,8.3,41.0,125,25.8,25.6,7.4,283.0,120.0,4.1,3,5,7,1,2026-07-05T19:15:11.622094+05:30
Ratlam,Madhya Pradesh,23.3315,75.0367,27.5,86,0.1,945.1,8.45,25.6,53,19.6,17.8,4.0,213.0,102.0,2.8,10,5,7,1,2026-07-05T19:15:11.622101+05:30
Sagar,Madhya Pradesh,23.8388,78.7378,29.3,75,0.0,940.9,8.1,21.2,75,15.5,15.1,4.4,222.0,96.0,2.1,7,5,7,1,2026-07-05T19:15:11.622108+05:30
Satna,Madhya Pradesh,24.6005,80.8322,25.6,97,0.5,962.0,8.2,41.0,110,17.9,17.6,3.3,207.0,140.0,3.7,10,5,7,1,2026-07-05T19:15:11.622115+05:30
Akola,Maharashtra,20.7002,77.0082,27.0,92,0.1,965.8,6.45,36.0,42,4.4,4.4,5.4,156.0,66.0,3.4,10,5,7,1,2026-07-05T19:15:11.622124+05:30
Amravati,Maharashtra,20.9374,77.7796,25.3,96,0.4,958.3,7.35,35.3,44,4.5,4.5,5.3,191.0,69.0,4.3,10,5,7,1,2026-07-05T19:15:11.622132+05:30
Latur,Maharashtra,18.4088,76.5604,23.8,90,0.1,932.7,1.25,56.2,25,2.5,2.2,3.3,119.0,48.0,1.3,6,5,3,1,2026-07-05T19:15:11.622140+05:30
Nanded,Maharashtra,19.1383,77.3091,25.8,88,0.0,961.0,5.75,48.2,28,3.1,2.9,3.9,127.0,55.0,3.5,7,5,3,1,2026-07-05T19:15:11.622147+05:30
Gulbarga,Karnataka,17.3297,76.8343,26.3,72,0.0,952.9,5.1,69.8,28,2.4,2.1,4.8,113.0,49.0,1.8,7,5,3,1,2026-07-05T19:15:11.622153+05:30
Bidar,Karnataka,17.9104,77.5199,23.3,90,0.1,928.9,1.8,55.8,26,2.3,2.2,4.4,116.0,50.0,1.4,6,5,3,1,2026-07-05T19:15:11.622161+05:30
Hospet,Karnataka,15.2689,76.3909,24.6,80,0.0,952.6,2.3,78.1,27,5.6,3.5,2.8,108.0,53.0,1.3,3,5,3,1,2026-07-05T19:15:11.622167+05:30
Tirupur,Tamil Nadu,11.1085,77.3411,26.1,80,0.0,973.0,7.55,73.4,36,17.5,10.4,6.4,125.0,54.0,2.6,7,5,7,1,2026-07-05T19:15:11.622174+05:30
Alappuzha,Kerala,9.4981,76.3388,27.9,83,0.0,1009.3,8.45,43.9,53,26.2,13.3,5.4,89.0,51.0,1.8,7,0,4,1,2026-07-05T19:15:11.622181+05:30
Munnar,Kerala,10.0889,77.0595,16.5,100,0.1,855.8,4.55,58.3,26,15.0,7.8,4.0,103.0,47.0,1.5,6,10,3,1,2026-07-05T19:15:11.622188+05:30
Silchar,Assam,24.8333,92.7789,27.3,95,0.0,998.4,8.95,36.7,44,13.2,13.0,5.6,200.0,54.0,2.7,7,5,7,1,2026-07-05T19:15:11.622195+05:30
Dibrugarh,Assam,27.4728,94.912,31.8,79,0.0,987.2,8.95,26.3,41,15.0,14.8,8.3,255.0,50.0,1.5,3,5,7,1,2026-07-05T19:15:11.622202+05:30
