city,state,latitude,longitude,temp,humidity,rain,pressure,uv_index,wind_gusts,aqi,pm10,pm2_5,no2,co,o3,so2,mosquito_risk,arthritis_risk,migraine_risk,frizz_risk,updated_at
Delhi,Delhi,28.6139,77.209,30.8,46,0.0,977.7,7.6,34.2,204,238.0,80.1,47.7,571.0,96.0,31.5,0,5,7,1,2026-05-02T21:21:05.192096+05:30
Mumbai,Maharashtra,19.076,72.8777,29.5,73,0.0,1007.3,7.9,42.1,74,45.8,19.0,10.4,225.0,66.0,18.2,7,5,4,1,2026-05-02T21:21:05.192152+05:30
Bangalore,Karnataka,12.9716,77.5946,28.1,44,0.0,910.8,9.5,34.6,121,36.9,29.3,48.2,1130.0,73.0,12.5,4,5,7,0,2026-05-02T21:21:05.192168+05:30
Hyderabad,Telangana,17.385,78.4867,34.2,22,0.0,951.2,9.25,34.6,77,60.8,40.9,49.4,735.0,45.0,14.9,0,5,7,0,2026-05-02T21:21:05.192177+05:30
Chennai,Tamil Nadu,13.0827,80.2707,31.0,73,0.0,1005.2,9.2,55.8,80,16.1,11.8,7.6,208.0,80.0,3.1,3,5,4,1,2026-05-02T21:21:05.192185+05:30
Kolkata,West Bengal,22.5726,88.3639,25.0,90,0.0,1003.9,8.85,49.3,68,26.5,23.1,14.0,372.0,72.0,9.0,7,5,4,1,2026-05-02T21:21:05.192193+05:30
Pune,Maharashtra,18.5204,73.8567,26.0,74,0.0,947.5,8.5,48.6,61,34.1,14.5,8.1,207.0,71.0,6.4,7,5,7,1,2026-05-02T21:21:05.192200+05:30
Ahmedabad,Gujarat,23.0225,72.5714,32.1,64,0.0,997.1,8.1,52.2,67,60.1,21.0,5.2,233.0,97.0,5.4,3,5,7,1,2026-05-02T21:21:05.192209+05:30
Jaipur,Rajasthan,26.9124,75.7873,33.2,25,0.0,955.0,8.15,39.2,115,146.2,40.3,31.5,221.0,57.0,7.4,0,5,7,0,2026-05-02T21:21:05.192216+05:30
Lucknow,Uttar Pradesh,26.8467,80.9462,26.6,65,0.0,990.3,8.1,35.3,155,81.7,42.8,18.1,376.0,104.0,12.9,7,5,7,1,2026-05-02T21:21:05.192222+05:30
Kanpur,Uttar Pradesh,26.4499,80.3319,29.0,55,0.0,987.8,8.1,35.3,161,177.4,53.2,19.3,372.0,100.0,11.8,4,5,7,1,2026-05-02T21:21:05.192229+05:30
Chandigarh,Chandigarh,30.7333,76.7794,27.1,43,0.0,963.3,7.6,33.8,153,45.3,31.1,19.6,916.0,117.0,18.2,4,5,7,0,2026-05-02T21:21:05.192235+05:30
Srinagar,Jammu and Kashmir,34.0837,74.7973,13.8,83,0.0,838.5,8.8,36.4,89,23.0,19.0,18.4,811.0,88.0,4.5,3,10,7,0,2026-05-02T21:21:05.192243+05:30
Jammu,Jammu and Kashmir,32.7266,74.857,25.5,50,0.0,967.4,8.4,31.7,126,32.9,24.4,20.6,371.0,93.0,5.3,4,5,7,0,2026-05-02T21:21:05.192250+05:30
Amritsar,Punjab,31.634,74.8723,29.2,35,0.0,975.0,8.25,32.8,169,29.5,20.8,6.0,652.0,150.0,7.7,4,5,7,0,2026-05-02T21:21:05.192256+05:30
Ludhiana,Punjab,30.901,75.8573,29.9,39,0.0,973.0,7.85,31.7,150,50.6,38.8,22.1,617.0,87.0,8.8,4,5,7,0,2026-05-02T21:21:05.192262+05:30
Jalandhar,Punjab,31.326,75.5762,28.0,43,0.0,973.9,8.05,27.0,134,49.1,31.4,16.1,1168.0,111.0,8.1,4,5,7,0,2026-05-02T21:21:05.192268+05:30
Dehradun,Uttarakhand,30.6284,78.0322,13.0,95,0.0,824.8,8.05,38.2,135,39.5,25.9,25.5,274.0,99.0,5.1,3,10,7,0,2026-05-02T21:21:05.192278+05:30
Shimla,Himachal Pradesh,31.1048,77.1734,13.0,61,0.0,780.3,8.1,46.8,148,39.6,23.2,15.1,244.0,125.0,8.6,3,5,7,0,2026-05-02T21:21:05.192285+05:30
Manali,Himachal Pradesh,32.2396,77.1887,9.5,80,0.0,812.2,10.3,42.8,145,11.7,8.9,32.6,255.0,122.0,0.6,3,5,7,0,2026-05-02T21:21:05.192291+05:30
Gurgaon,Haryana,28.4595,77.0266,30.0,42,0.0,976.0,7.7,36.4,807,461.0,110.4,60.4,698.0,91.0,31.8,4,5,7,0,2026-05-02T21:21:05.192297+05:30
Noida,Uttar Pradesh,28.5355,77.391,28.0,55,0.0,979.1,7.65,26.3,807,461.0,110.4,60.4,566.0,91.0,31.8,4,5,7,1,2026-05-02T21:21:05.192303+05:30
Ghaziabad,Uttar Pradesh,28.6692,77.4538,29.4,51,0.0,977.4,7.6,33.1,185,259.8,70.8,17.1,407.0,122.0,14.0,4,5,7,1,2026-05-02T21:21:05.192309+05:30
Faridabad,Haryana,28.4089,77.3178,30.4,45,0.0,978.6,7.65,32.4,807,461.0,110.4,60.4,745.0,91.0,31.8,0,5,7,1,2026-05-02T21:21:05.192315+05:30
Meerut,Uttar Pradesh,28.9845,77.7064,28.2,56,0.0,976.3,7.5,29.5,185,259.8,70.8,17.1,476.0,122.0,14.0,4,5,7,1,2026-05-02T21:21:05.192321+05:30
Agra,Uttar Pradesh,27.1767,78.0081,31.0,39,0.0,982.5,7.95,43.6,725,687.3,96.2,18.4,537.0,96.0,15.1,0,5,7,0,2026-05-02T21:21:05.192327+05:30
Varanasi,Uttar Pradesh,25.3176,82.9739,30.0,50,0.0,993.5,8.6,34.2,188,66.6,43.4,14.0,518.0,131.0,16.6,4,5,7,1,2026-05-02T21:21:05.192333+05:30
Prayagraj,Uttar Pradesh,25.4358,81.8463,25.0,90,0.0,992.4,8.5,51.5,183,64.7,42.1,15.0,330.0,114.0,12.7,7,5,7,1,2026-05-02T21:21:05.192344+05:30
Gorakhpur,Uttar Pradesh,26.7606,83.3732,25.9,63,0.0,994.5,8.45,31.3,159,59.6,37.4,10.9,399.0,122.0,8.0,7,5,7,1,2026-05-02T21:21:05.192351+05:30
Bareilly,Uttar Pradesh,28.367,79.4304,28.4,51,0.0,982.5,7.9,29.2,171,129.5,53.1,15.2,386.0,110.0,11.9,4,5,7,1,2026-05-02T21:21:05.192357+05:30
Aligarh,Uttar Pradesh,27.8974,78.088,29.4,51,0.0,980.5,7.75,28.4,409,314.8,77.1,22.5,489.0,90.0,18.8,4,5,7,1,2026-05-02T21:21:05.192363+05:30
Moradabad,Uttar Pradesh,28.8386,78.7733,27.3,56,0.0,979.1,7.7,31.0,180,138.3,59.6,16.6,507.0,134.0,20.9,4,5,7,1,2026-05-02T21:21:05.192369+05:30
Saharanpur,Uttar Pradesh,29.9637,77.546,25.5,68,0.0,970.6,7.35,31.7,152,165.3,66.4,33.3,630.0,106.0,19.0,7,5,7,1,2026-05-02T21:21:05.192375+05:30
Jhansi,Uttar Pradesh,25.4484,78.5685,29.0,52,0.0,973.4,8.4,49.0,76,76.8,28.1,7.1,281.0,89.0,8.0,4,5,7,1,2026-05-02T21:21:08.528088+05:30
Surat,Gujarat,21.1702,72.8311,29.2,83,0.0,1003.5,7.7,52.2,65,29.0,17.5,17.7,214.0,59.0,29.7,7,5,4,1,2026-05-02T21:21:08.528119+05:30
Vadodara,Gujarat,22.3072,73.1812,30.6,67,0.0,1000.0,8.05,50.8,60,21.1,15.6,15.2,266.0,67.0,21.8,3,5,4,1,2026-05-02T21:21:08.528129+05:30
Rajkot,Gujarat,22.3039,70.8022,32.0,43,0.0,990.1,7.75,56.5,56,40.3,17.0,5.4,171.0,83.0,7.7,0,5,7,1,2026-05-02T21:21:08.528139+05:30
Thane,Maharashtra,19.2183,72.9781,29.8,71,0.0,1006.6,7.9,40.0,74,45.8,19.0,10.4,238.0,66.0,18.2,7,5,4,1,2026-05-02T21:21:08.528147+05:30
Nagpur,Maharashtra,21.1458,79.0882,35.2,24,0.0,970.2,8.95,46.4,78,42.8,23.5,15.9,200.0,70.0,12.3,0,5,10,0,2026-05-02T21:21:08.528156+05:30
Nashik,Maharashtra,19.9975,73.7898,25.9,77,0.0,944.2,8.25,45.7,65,31.9,15.0,6.1,185.0,79.0,7.4,7,5,7,1,2026-05-02T21:21:08.528164+05:30
Aurangabad,Maharashtra,19.8762,75.3433,32.6,29,0.0,942.4,9.05,39.2,58,31.1,14.0,5.0,177.0,82.0,3.6,0,5,7,0,2026-05-02T21:21:08.528172+05:30
Solapur,Maharashtra,17.6599,75.9064,34.7,21,0.0,954.4,9.05,43.6,54,40.5,18.2,9.7,390.0,79.0,3.1,0,5,7,0,2026-05-02T21:21:08.528180+05:30
Kolhapur,Maharashtra,16.705,74.2433,24.9,82,0.0,947.2,8.95,49.0,66,39.2,17.2,7.9,188.0,62.0,2.6,3,5,7,1,2026-05-02T21:21:08.528188+05:30
Goa,Goa,15.2993,74.124,28.8,76,0.0,997.8,8.95,38.5,72,67.3,19.3,3.5,188.0,62.0,1.3,7,5,7,1,2026-05-02T21:21:08.528196+05:30
Jodhpur,Rajasthan,26.2389,73.0243,36.0,19,0.0,976.1,8.3,37.8,122,298.0,46.1,4.2,224.0,102.0,3.0,0,5,10,0,2026-05-02T21:21:08.528204+05:30
Udaipur,Rajasthan,24.5854,73.7125,33.0,19,0.0,942.0,8.8,38.2,76,100.8,24.9,2.5,202.0,115.0,3.7,0,5,7,0,2026-05-02T21:21:08.528211+05:30
Kota,Rajasthan,25.2138,75.8648,34.1,27,0.0,973.0,8.35,40.3,68,71.9,29.8,12.6,288.0,76.0,4.9,0,5,7,0,2026-05-02T21:21:08.528219+05:30
Bikaner,Rajasthan,28.0229,73.3119,35.5,20,0.0,975.0,8.25,34.6,68,84.3,25.1,5.3,449.0,91.0,5.9,0,5,10,0,2026-05-02T21:21:08.528227+05:30
Ajmer,Rajasthan,26.4499,74.6399,32.2,26,0.0,950.0,8.3,55.8,67,81.0,23.9,9.1,221.0,81.0,4.3,0,5,7,0,2026-05-02T21:21:08.528234+05:30
Gwalior,Madhya Pradesh,26.2183,78.1828,32.0,28,0.0,978.1,8.15,45.4,111,139.7,37.1,4.7,334.0,121.0,6.7,0,5,7,0,2026-05-02T21:21:08.528241+05:30
Indore,Madhya Pradesh,22.7196,75.8577,33.2,22,0.0,945.0,8.65,53.6,59,37.0,17.3,7.5,256.0,86.0,4.5,0,5,7,0,2026-05-02T21:21:08.528249+05:30
Bhopal,Madhya Pradesh,23.2599,77.4126,31.1,33,0.0,950.2,8.7,60.8,65,52.9,23.1,7.4,576.0,80.0,4.2,0,5,7,0,2026-05-02T21:21:08.528256+05:30
Jabalpur,Madhya Pradesh,23.1815,79.9864,26.8,61,0.0,958.4,8.85,72.0,72,72.6,26.7,14.2,303.0,74.0,5.1,7,5,7,1,2026-05-02T21:21:08.528263+05:30
Ujjain,Madhya Pradesh,23.1765,75.7885,33.0,23,0.0,950.1,8.6,51.5,57,46.8,19.2,4.1,230.0,91.0,3.6,0,5,7,0,2026-05-02T21:21:08.528272+05:30
Visakhapatnam,Andhra Pradesh,17.6868,83.2185,28.5,89,0.0,1002.2,8.85,55.4,60,23.6,18.8,20.5,312.0,69.0,4.2,7,5,4,1,2026-05-02T21:21:08.528279+05:30
Vijayawada,Andhra Pradesh,16.5062,80.648,31.1,69,0.0,1000.4,9.2,40.0,138,26.2,24.0,6.5,388.0,132.0,8.7,3,5,4,1,2026-05-02T21:21:08.528286+05:30
Guntur,Andhra Pradesh,16.3067,80.4365,30.3,81,0.0,1001.6,9.2,41.0,118,40.0,32.6,13.1,273.0,111.0,9.1,3,5,4,1,2026-05-02T21:21:08.528294+05:30
Nellore,Andhra Pradesh,14.4426,79.9865,31.2,72,0.0,1002.9,9.2,50.0,133,20.6,16.8,6.1,252.0,117.0,7.7,3,5,4,1,2026-05-02T21:21:08.528301+05:30
Kurnool,Andhra Pradesh,15.8281,78.0373,33.8,23,0.0,973.5,9.2,32.8,105,51.0,29.7,19.2,260.0,89.0,9.1,0,5,7,0,2026-05-02T21:21:08.528307+05:30
Kakinada,Andhra Pradesh,16.9891,82.2475,29.0,88,0.0,1005.7,9.15,43.6,52,19.4,14.0,3.2,249.0,86.0,2.5,7,5,4,1,2026-05-02T21:21:08.528313+05:30
Tirupati,Andhra Pradesh,13.6288,79.4192,32.0,61,0.0,989.3,9.3,48.2,128,30.3,26.7,13.4,331.0,124.0,8.3,3,5,7,1,2026-05-02T21:21:08.528319+05:30
Warangal,Telangana,17.9689,79.5941,32.5,32,0.0,975.2,9.15,31.0,90,70.1,46.7,29.5,476.0,66.0,11.2,0,5,7,0,2026-05-02T21:21:08.528324+05:30
Nizamabad,Telangana,18.6725,78.0941,33.8,20,0.0,961.0,9.1,31.7,74,55.4,31.7,17.8,373.0,77.0,5.1,0,5,7,0,2026-05-02T21:21:08.528330+05:30
Mysore,Karnataka,12.2958,76.6396,25.2,80,0.0,928.9,9.4,45.7,93,22.5,17.9,9.9,199.0,85.0,2.5,7,5,7,1,2026-05-02T21:21:08.528335+05:30
Mangalore,Karnataka,12.9141,74.856,29.4,74,0.0,1007.2,9.05,44.3,64,34.7,14.9,3.1,170.0,69.0,1.4,7,5,4,1,2026-05-02T21:21:08.528341+05:30
Hubli-Dharwad,Karnataka,15.3647,75.124,25.2,77,0.0,940.2,9.2,51.5,61,36.3,15.7,5.9,184.0,66.0,1.7,7,5,7,1,2026-05-02T21:21:08.528348+05:30
Belgaum,Karnataka,15.8497,74.4977,23.0,90,0.0,924.9,9.2,48.6,63,40.0,15.7,6.8,170.0,55.0,2.2,3,5,7,1,2026-05-02T21:21:11.854489+05:30
Coimbatore,Tamil Nadu,11.0168,76.9558,26.5,82,0.0,961.6,9.1,48.6,73,23.5,20.7,9.4,226.0,76.0,3.4,7,5,7,1,2026-05-02T21:21:11.854519+05:30
Madurai,Tamil Nadu,9.9252,78.1198,30.7,60,0.0,992.4,9.2,40.0,133,26.3,22.7,12.4,414.0,105.0,6.3,0,5,7,1,2026-05-02T21:21:11.854527+05:30
Trichy,Tamil Nadu,10.7905,78.7047,29.8,59,0.0,999.1,9.2,44.3,120,21.0,19.1,8.5,372.0,101.0,4.6,4,5,7,1,2026-05-02T21:21:11.854535+05:30
Salem,Tamil Nadu,11.6643,78.146,30.7,51,0.0,977.1,9.25,44.3,165,30.7,26.6,11.0,320.0,125.0,8.7,0,5,7,1,2026-05-02T21:21:11.854542+05:30
Tirunelveli,Tamil Nadu,8.7139,77.7567,30.9,60,0.0,1002.6,9.1,34.6,61,18.1,16.2,7.4,268.0,73.0,1.9,0,5,4,1,2026-05-02T21:21:11.854549+05:30
Vellore,Tamil Nadu,12.9165,79.1325,31.8,60,0.0,983.0,9.3,46.1,135,39.0,34.5,10.0,319.0,135.0,8.4,0,5,7,1,2026-05-02T21:21:11.854555+05:30
Erode,Tamil Nadu,11.341,77.7172,30.1,65,0.0,988.7,9.25,54.4,125,25.8,23.1,15.8,251.0,92.0,3.0,3,5,7,1,2026-05-02T21:21:11.854561+05:30
Kochi,Kerala,9.9312,76.2673,27.5,90,0.0,1009.4,8.1,31.7,74,32.9,28.3,29.8,384.0,33.0,5.8,7,0,4,1,2026-05-02T21:21:11.854568+05:30
Thiruvananthapuram,Kerala,8.5241,76.9366,25.8,95,0.0,1008.7,7.1,35.3,53,16.4,11.1,3.2,309.0,81.0,1.4,7,0,4,1,2026-05-02T21:21:11.854591+05:30
Kozhikode,Kerala,11.2588,75.7804,26.6,94,0.0,1008.6,8.7,40.0,58,30.0,17.6,2.0,436.0,70.0,0.8,7,0,4,1,2026-05-02T21:21:11.854598+05:30
Thrissur,Kerala,10.5276,76.2144,26.9,93,0.0,1007.8,7.8,38.2,68,32.5,26.9,20.3,419.0,41.0,3.7,7,5,4,1,2026-05-02T21:21:11.854605+05:30
Kannur,Kerala,11.8745,75.3704,29.4,77,0.0,1007.7,9.0,50.0,74,27.8,16.8,6.4,197.0,59.0,1.4,7,5,4,1,2026-05-02T21:21:11.854611+05:30
Patna,Bihar,25.5941,85.1376,25.8,68,0.0,998.2,8.65,30.2,172,61.5,46.2,11.9,357.0,135.0,14.3,7,5,7,1,2026-05-02T21:21:11.854618+05:30
Gaya,Bihar,24.7914,85.0002,27.0,63,0.0,990.8,8.75,29.5,173,66.8,42.4,8.6,443.0,144.0,15.7,7,5,7,1,2026-05-02T21:21:11.854624+05:30
Muzaffarpur,Bihar,26.1209,85.3647,24.7,71,0.0,999.0,8.65,30.6,160,57.2,43.9,12.0,355.0,126.0,11.2,3,5,7,1,2026-05-02T21:21:11.854630+05:30
Bhagalpur,Bihar,25.2425,87.0117,24.5,75,0.0,1000.1,8.65,31.0,171,55.5,43.9,11.0,325.0,120.0,7.0,3,5,4,1,2026-05-02T21:21:11.854636+05:30
Ranchi,Jharkhand,23.3441,85.3096,24.1,61,0.0,934.6,9.2,45.4,138,78.9,44.6,17.9,345.0,100.0,13.1,3,5,7,1,2026-05-02T21:21:11.854642+05:30
Jamshedpur,Jharkhand,22.8046,86.2029,26.4,76,0.0,988.3,9.0,60.1,183,86.1,68.9,19.9,436.0,151.0,48.0,7,5,7,1,2026-05-02T21:21:11.854648+05:30
Dhanbad,Jharkhand,23.7957,86.4304,24.7,82,0.0,977.6,9.0,29.9,206,107.8,94.1,45.4,635.0,145.0,81.6,3,5,7,1,2026-05-02T21:21:11.854655+05:30
Bokaro,Jharkhand,23.6693,86.1511,25.0,77,0.0,981.5,8.85,25.6,168,108.3,87.8,47.2,932.0,138.0,89.3,7,5,7,1,2026-05-02T21:21:11.854662+05:30
Bhubaneswar,Odisha,20.2961,85.8245,28.0,86,0.0,999.9,9.05,54.7,83,15.7,14.1,6.1,263.0,88.0,4.7,7,5,7,1,2026-05-02T21:21:11.854668+05:30
Cuttack,Odisha,20.4625,85.8828,28.4,84,0.0,1001.5,9.1,52.2,83,15.7,14.1,6.1,315.0,88.0,4.7,7,5,4,1,2026-05-02T21:21:11.854674+05:30
Rourkela,Odisha,22.2604,84.8536,28.2,50,0.0,981.4,8.95,51.1,155,70.3,42.8,12.1,706.0,114.0,26.2,4,5,7,1,2026-05-02T21:21:11.854680+05:30
Raipur,Chhattisgarh,21.2514,81.6296,31.9,35,0.0,971.5,9.0,51.1,141,49.5,33.2,31.0,306.0,85.0,8.7,0,5,7,0,2026-05-02T21:21:11.854686+05:30
Bhilai,Chhattisgarh,21.1938,81.3509,32.3,32,0.0,972.2,9.0,51.5,131,44.8,26.2,19.3,247.0,105.0,6.5,0,5,7,0,2026-05-02T21:21:11.854692+05:30
Guwahati,Assam,26.1158,91.7086,20.2,99,0.5,1002.5,4.3,21.6,64,29.6,25.9,11.7,386.0,69.0,3.0,6,5,0,1,2026-05-02T21:21:11.854698+05:30
Agartala,Tripura,23.8315,91.2868,22.9,94,0.0,1005.5,8.8,36.0,41,12.9,11.9,10.4,224.0,46.0,1.8,3,5,4,1,2026-05-02T21:21:11.854704+05:30
Shillong,Meghalaya,25.5788,91.8933,14.5,95,0.0,854.6,5.85,31.0,48,4.9,3.5,5.5,345.0,89.0,1.3,3,10,3,0,2026-05-02T21:21:11.854710+05:30
Imphal,Manipur,24.817,93.9368,17.2,96,0.0,922.6,6.3,25.2,53,21.2,18.3,16.7,990.0,43.0,3.0,3,10,7,1,2026-05-02T21:21:11.854715+05:30
Aizawl,Mizoram,23.7271,92.7176,15.4,92,0.0,890.8,9.0,46.8,36,10.4,7.6,4.8,206.0,52.0,0.4,3,10,7,0,2026-05-02T21:21:11.854721+05:30
Kohima,Nagaland,25.6701,94.1077,14.4,89,0.0,853.1,6.0,28.4,40,13.2,10.0,7.8,413.0,62.0,1.2,3,10,3,0,2026-05-02T21:21:11.854727+05:30
Gangtok,Sikkim,27.3314,88.6138,11.7,91,0.0,833.9,4.0,25.9,63,15.4,14.3,15.2,631.0,93.0,1.7,3,10,3,0,2026-05-02T21:21:11.854732+05:30
Siliguri,West Bengal,26.7271,88.3953,20.3,95,0.0,993.3,2.75,22.0,75,24.9,23.9,21.2,669.0,89.0,4.4,3,5,3,1,2026-05-02T21:21:15.196209+05:30
Durgapur,West Bengal,23.5204,87.3119,24.2,89,0.0,993.0,8.9,26.3,206,61.0,55.1,22.1,469.0,126.0,33.7,3,5,7,1,2026-05-02T21:21:15.196241+05:30
Asansol,West Bengal,23.6739,86.9524,24.5,86,0.0,991.6,8.95,27.7,212,79.4,70.8,26.1,533.0,150.0,51.9,3,5,7,1,2026-05-02T21:21:15.196252+05:30
Pondicherry,Puducherry,11.9139,79.8145,31.5,68,0.0,1006.7,9.15,52.2,83,16.4,13.0,7.8,280.0,87.0,4.4,3,5,4,1,2026-05-02T21:21:15.196260+05:30
Port Blair,Andaman and Nicobar Islands,11.6234,92.7265,28.9,74,0.0,1008.5,9.0,32.4,35,12.5,9.0,0.4,171.0,59.0,0.3,7,0,4,1,2026-05-02T21:21:15.196268+05:30
Haridwar,Uttarakhand,29.9457,78.1642,23.5,70,0.0,968.8,7.4,27.4,154,87.8,43.7,15.4,367.0,117.0,8.8,3,5,7,1,2026-05-02T21:21:15.196277+05:30
Rishikesh,Uttarakhand,30.0869,78.2676,21.7,75,0.0,961.6,7.5,24.5,156,79.4,37.5,9.1,361.0,129.0,5.7,3,5,7,1,2026-05-02T21:21:15.196285+05:30
Nainital,Uttarakhand,29.3919,79.4542,11.7,91,0.0,800.7,8.1,38.5,153,85.9,40.5,12.0,368.0,120.0,8.0,3,10,7,0,2026-05-02T21:21:15.196293+05:30
Mussoorie,Uttarakhand,30.4599,78.0664,11.7,93,0.0,797.3,7.9,52.6,166,89.6,38.2,21.5,333.0,126.0,14.1,3,10,7,0,2026-05-02T21:21:15.196300+05:30
Dharamshala,Himachal Pradesh,32.219,76.3234,17.9,52,0.0,864.2,8.25,50.0,117,19.5,13.8,10.6,293.0,106.0,1.5,0,5,7,0,2026-05-02T21:21:15.196308+05:30
Dalhousie,Himachal Pradesh,32.5387,75.971,10.9,84,0.0,798.6,8.5,37.4,129,33.4,24.7,35.5,420.0,93.0,3.5,3,10,7,0,2026-05-02T21:21:15.196316+05:30
Patiala,Punjab,30.3398,76.3869,29.0,40,0.0,972.7,7.5,30.6,242,301.7,53.8,10.3,296.0,113.0,14.7,4,5,7,0,2026-05-02T21:21:15.196324+05:30
Bhatinda,Punjab,30.211,74.9455,31.5,27,0.0,977.5,8.15,38.9,160,55.8,29.2,10.1,313.0,104.0,8.5,0,5,7,0,2026-05-02T21:21:15.196331+05:30
Rohtak,Haryana,28.8955,76.6066,29.4,48,0.0,975.9,7.65,28.1,382,351.1,102.2,54.4,457.0,78.0,28.1,4,5,7,1,2026-05-02T21:21:15.196339+05:30
Panipat,Haryana,29.3909,76.9635,28.0,56,0.0,975.1,7.45,25.9,468,465.7,110.6,37.3,554.0,92.0,22.8,4,5,7,1,2026-05-02T21:21:15.196346+05:30
Mathura,Uttar Pradesh,27.4924,77.6737,29.3,44,0.0,981.2,7.9,30.2,670,756.2,96.4,16.5,474.0,107.0,10.1,4,5,7,0,2026-05-02T21:21:15.196353+05:30
Vrindavan,Uttar Pradesh,27.5823,77.7027,29.6,43,0.0,981.7,7.85,29.9,670,756.2,96.4,16.5,436.0,107.0,10.1,4,5,7,0,2026-05-02T21:21:15.196360+05:30
Ayodhya,Uttar Pradesh,26.7922,82.1998,28.0,54,0.0,992.2,8.25,41.0,151,96.6,44.2,19.9,421.0,103.0,9.6,4,5,7,1,2026-05-02T21:21:15.196368+05:30
Ratlam,Madhya Pradesh,23.3315,75.0367,32.0,30,0.0,950.7,8.55,50.0,55,62.4,21.0,1.9,162.0,108.0,4.3,0,5,7,0,2026-05-02T21:21:15.196375+05:30
Sagar,Madhya Pradesh,23.8388,78.7378,25.6,60,0.0,945.8,8.7,73.1,70,60.8,22.3,7.4,221.0,85.0,4.1,4,5,7,1,2026-05-02T21:21:15.196382+05:30
Satna,Madhya Pradesh,24.6005,80.8322,26.6,63,0.0,967.6,8.7,51.5,98,40.5,19.0,12.1,277.0,94.0,5.0,7,5,7,1,2026-05-02T21:21:15.196389+05:30
Akola,Maharashtra,20.7002,77.0082,35.6,23,0.0,971.5,8.9,46.8,58,39.2,17.9,6.4,171.0,86.0,8.6,0,5,10,0,2026-05-02T21:21:15.196397+05:30
Amravati,Maharashtra,20.9374,77.7796,34.8,22,0.0,963.8,8.9,42.8,57,56.9,22.5,9.4,267.0,77.0,7.5,0,5,7,0,2026-05-02T21:21:15.196406+05:30
Latur,Maharashtra,18.4088,76.5604,33.8,17,0.0,936.9,9.05,32.8,57,44.5,20.4,10.8,300.0,77.0,7.3,0,5,7,0,2026-05-02T21:21:15.196414+05:30
Nanded,Maharashtra,19.1383,77.3091,34.1,19,0.0,964.9,8.95,31.3,64,59.5,24.9,14.1,511.0,69.0,3.3,0,5,7,0,2026-05-02T21:21:15.196421+05:30
Gulbarga,Karnataka,17.3297,76.8343,34.9,15,0.0,955.3,9.1,41.8,58,57.9,29.1,37.0,192.0,52.0,5.7,0,5,7,0,2026-05-02T21:21:15.196428+05:30
Bidar,Karnataka,17.9104,77.5199,31.4,21,0.0,932.5,9.1,34.6,67,49.4,28.9,22.4,403.0,68.0,5.4,0,5,7,0,2026-05-02T21:21:15.196435+05:30
Hospet,Karnataka,15.2689,76.3909,29.9,56,0.0,954.7,9.2,41.8,72,37.7,21.4,18.7,206.0,78.0,2.9,4,5,7,1,2026-05-02T21:21:15.196442+05:30
Tirupur,Tamil Nadu,11.1085,77.3411,27.4,79,0.0,974.6,9.3,55.8,108,27.0,23.4,17.1,222.0,78.0,4.9,7,5,7,1,2026-05-02T21:21:15.196449+05:30
Alappuzha,Kerala,9.4981,76.3388,26.8,91,0.0,1009.4,8.2,29.9,72,31.0,22.3,14.5,153.0,62.0,4.6,7,0,4,1,2026-05-02T21:21:15.196456+05:30
Munnar,Kerala,10.0889,77.0595,17.8,96,0.0,857.1,9.2,24.8,57,15.5,14.1,9.7,247.0,61.0,1.7,3,10,7,1,2026-05-02T21:21:15.196463+05:30
Silchar,Assam,24.8333,92.7789,20.3,100,0.0,1005.7,6.75,32.8,53,30.3,24.2,12.1,362.0,51.0,5.7,3,5,4,1,2026-05-02T21:21:15.196470+05:30
Dibrugarh,Assam,27.4728,94.912,21.2,93,0.2,996.6,7.3,22.7,59,22.2,19.2,11.1,330.0,67.0,1.9,6,5,7,1,2026-05-02T21:21:15.196478+05:30
