city,state,latitude,longitude,temp,humidity,rain,pressure,uv_index,wind_gusts,aqi,pm10,pm2_5,mosquito_risk,arthritis_risk,migraine_risk,frizz_risk,updated_at
Delhi,Delhi,28.6139,77.209,23.7,61,0.0,983.4,6.15,38.2,158,407.0,61.0,3,5,7,0,2026-03-15T19:23:53.351045+05:30
Mumbai,Maharashtra,19.076,72.8777,27.8,76,0.0,1010.1,7.7,19.8,149,70.8,31.2,7,0,4,1,2026-03-15T19:23:53.351093+05:30
Bangalore,Karnataka,12.9716,77.5946,28.1,37,0.0,912.4,9.3,19.1,155,30.0,26.8,4,5,7,0,2026-03-15T19:23:53.351107+05:30
Hyderabad,Telangana,17.385,78.4867,27.0,56,0.0,955.3,8.7,29.2,134,50.5,39.5,4,5,7,1,2026-03-15T19:23:53.351117+05:30
Chennai,Tamil Nadu,13.0827,80.2707,27.5,73,0.0,1009.5,9.05,32.0,47,9.3,6.7,7,0,4,1,2026-03-15T19:23:53.351125+05:30
Kolkata,West Bengal,22.5726,88.3639,26.1,82,0.0,1008.9,7.9,36.4,59,21.9,17.2,7,0,4,1,2026-03-15T19:23:53.351133+05:30
Pune,Maharashtra,18.5204,73.8567,28.1,30,0.0,949.8,8.25,41.8,135,34.6,27.6,4,5,7,0,2026-03-15T19:23:53.351142+05:30
Ahmedabad,Gujarat,23.0225,72.5714,31.8,18,0.0,1002.0,7.5,27.7,68,50.6,17.5,0,5,4,0,2026-03-15T19:23:53.351149+05:30
Jaipur,Rajasthan,26.9124,75.7873,28.9,21,0.0,958.8,6.95,46.4,123,225.8,37.0,4,5,7,0,2026-03-15T19:23:53.351156+05:30
Lucknow,Uttar Pradesh,26.8467,80.9462,22.4,65,0.0,996.0,6.5,49.0,135,34.5,23.2,3,5,7,0,2026-03-15T19:23:53.351174+05:30
Kanpur,Uttar Pradesh,26.4499,80.3319,22.7,61,0.0,993.8,6.6,41.8,148,366.9,56.0,3,5,7,0,2026-03-15T19:23:53.351181+05:30
Chandigarh,Chandigarh,30.7333,76.7794,18.6,88,0.0,970.1,6.0,38.2,82,51.7,22.8,3,10,3,1,2026-03-15T19:23:53.351188+05:30
Srinagar,Jammu and Kashmir,34.0837,74.7973,6.9,90,0.0,836.6,4.95,27.7,98,10.7,9.8,3,10,3,0,2026-03-15T19:23:53.351194+05:30
Jammu,Jammu and Kashmir,32.7266,74.857,16.9,93,0.8,973.9,2.9,49.0,93,37.0,24.8,6,10,3,0,2026-03-15T19:23:53.351201+05:30
Amritsar,Punjab,31.634,74.8723,16.1,93,0.0,982.1,3.5,34.2,119,47.4,27.7,3,10,3,0,2026-03-15T19:23:53.351207+05:30
Ludhiana,Punjab,30.901,75.8573,16.9,91,0.0,980.1,5.15,33.1,125,78.7,32.8,3,10,3,0,2026-03-15T19:23:53.351212+05:30
Jalandhar,Punjab,31.326,75.5762,16.6,91,0.0,981.2,5.05,31.0,118,48.1,26.9,3,10,3,0,2026-03-15T19:23:53.351219+05:30
Dehradun,Uttarakhand,30.6284,78.0322,10.6,82,0.0,828.7,5.25,34.2,66,25.4,11.5,3,10,3,0,2026-03-15T19:23:53.351225+05:30
Shimla,Himachal Pradesh,31.1048,77.1734,8.6,76,0.0,781.4,5.95,56.2,64,27.0,14.9,3,5,3,0,2026-03-15T19:23:53.351231+05:30
Manali,Himachal Pradesh,32.2396,77.1887,10.1,95,0.1,814.6,6.9,37.8,50,1.6,1.2,6,10,7,0,2026-03-15T19:23:53.351237+05:30
Gurgaon,Haryana,28.4595,77.0266,22.3,67,0.0,981.6,6.25,45.4,695,2883.4,300.8,3,5,7,0,2026-03-15T19:23:53.351245+05:30
Noida,Uttar Pradesh,28.5355,77.391,23.7,63,0.0,985.0,6.15,36.7,695,2883.4,300.8,3,5,7,1,2026-03-15T19:23:53.351250+05:30
Ghaziabad,Uttar Pradesh,28.6692,77.4538,22.1,70,0.0,983.5,6.15,34.9,156,249.6,45.6,3,5,7,1,2026-03-15T19:23:53.351256+05:30
Faridabad,Haryana,28.4089,77.3178,22.7,65,0.0,984.1,6.2,39.6,695,2883.4,300.8,3,5,7,0,2026-03-15T19:23:53.351262+05:30
Meerut,Uttar Pradesh,28.9845,77.7064,19.7,81,0.0,982.6,6.0,27.7,156,249.6,45.6,3,10,3,1,2026-03-15T19:23:53.351267+05:30
Agra,Uttar Pradesh,27.1767,78.0081,24.5,61,0.0,988.1,6.6,36.7,558,1654.0,165.3,3,5,7,1,2026-03-15T19:23:53.351272+05:30
Varanasi,Uttar Pradesh,25.3176,82.9739,27.4,44,0.0,998.1,7.35,32.4,149,62.9,44.5,4,5,7,0,2026-03-15T19:23:53.351280+05:30
Prayagraj,Uttar Pradesh,25.4358,81.8463,26.6,48,0.0,996.6,7.25,42.8,133,50.1,35.9,4,5,7,0,2026-03-15T19:23:53.351286+05:30
Gorakhpur,Uttar Pradesh,26.7606,83.3732,21.9,63,0.0,999.8,7.1,40.3,153,53.0,38.5,3,5,7,0,2026-03-15T19:23:53.351291+05:30
Bareilly,Uttar Pradesh,28.367,79.4304,20.6,84,0.0,989.0,6.35,34.6,148,61.5,38.8,3,5,7,1,2026-03-15T19:23:53.351296+05:30
Aligarh,Uttar Pradesh,27.8974,78.088,22.5,70,0.0,986.5,6.3,40.7,173,142.0,43.9,3,5,7,1,2026-03-15T19:23:53.351301+05:30
Moradabad,Uttar Pradesh,28.8386,78.7733,22.2,65,0.0,985.5,6.2,29.5,154,60.1,33.6,3,5,7,0,2026-03-15T19:23:53.351307+05:30
Saharanpur,Uttar Pradesh,29.9637,77.546,18.4,87,0.0,977.3,5.8,33.5,151,47.8,23.6,3,10,3,1,2026-03-15T19:23:53.351312+05:30
Jhansi,Uttar Pradesh,25.4484,78.5685,26.8,47,0.0,978.0,7.2,31.7,85,69.6,23.3,4,5,7,0,2026-03-15T19:23:56.619293+05:30
Surat,Gujarat,21.1702,72.8311,26.9,76,0.0,1007.6,7.4,25.2,134,71.0,46.9,7,5,4,1,2026-03-15T19:23:56.619321+05:30
Vadodara,Gujarat,22.3072,73.1812,32.3,31,0.0,1004.2,7.5,25.9,88,56.2,27.2,0,5,4,0,2026-03-15T19:23:56.619330+05:30
Rajkot,Gujarat,22.3039,70.8022,31.6,28,0.0,994.7,7.35,31.0,68,58.9,18.6,0,5,7,0,2026-03-15T19:23:56.619338+05:30
Thane,Maharashtra,19.2183,72.9781,27.3,74,0.0,1009.5,7.7,33.8,149,70.8,31.2,7,0,4,1,2026-03-15T19:23:56.619345+05:30
Nagpur,Maharashtra,21.1458,79.0882,30.7,36,0.0,973.0,8.15,22.3,162,29.8,27.0,0,5,7,0,2026-03-15T19:23:56.619353+05:30
Nashik,Maharashtra,19.9975,73.7898,25.9,39,0.0,946.8,7.9,40.7,79,36.0,16.6,4,5,7,0,2026-03-15T19:23:56.619361+05:30
Aurangabad,Maharashtra,19.8762,75.3433,29.9,28,0.0,944.5,8.4,31.0,116,30.9,25.0,4,5,7,0,2026-03-15T19:23:56.619367+05:30
Solapur,Maharashtra,17.6599,75.9064,29.3,39,0.0,957.2,8.65,24.1,157,42.5,36.1,4,5,7,0,2026-03-15T19:23:56.619374+05:30
Kolhapur,Maharashtra,16.705,74.2433,26.3,58,0.0,949.0,8.7,38.9,138,43.3,37.6,4,5,7,1,2026-03-15T19:23:56.619381+05:30
Goa,Goa,15.2993,74.124,28.6,72,0.0,999.6,8.75,32.0,121,41.7,33.3,7,5,7,1,2026-03-15T19:23:56.619388+05:30
Jodhpur,Rajasthan,26.2389,73.0243,32.0,15,0.0,981.8,7.25,27.4,115,112.0,21.7,0,5,7,0,2026-03-15T19:23:56.619395+05:30
Udaipur,Rajasthan,24.5854,73.7125,28.1,20,0.0,946.6,7.85,38.2,63,39.0,13.5,4,5,7,0,2026-03-15T19:23:56.619401+05:30
Kota,Rajasthan,25.2138,75.8648,30.8,28,0.0,977.5,7.3,35.3,65,37.7,17.8,0,5,7,0,2026-03-15T19:23:56.619408+05:30
Bikaner,Rajasthan,28.0229,73.3119,30.5,16,0.0,981.0,6.9,41.4,63,20.0,7.5,0,5,7,0,2026-03-15T19:23:56.619415+05:30
Ajmer,Rajasthan,26.4499,74.6399,28.2,23,0.0,953.5,7.25,37.4,75,48.2,18.3,4,5,7,0,2026-03-15T19:23:56.619421+05:30
Gwalior,Madhya Pradesh,26.2183,78.1828,24.9,64,0.0,982.9,6.9,45.4,104,62.2,26.0,3,5,7,1,2026-03-15T19:23:56.619428+05:30
Indore,Madhya Pradesh,22.7196,75.8577,28.0,31,0.0,948.4,7.8,35.6,75,37.4,18.1,4,5,7,0,2026-03-15T19:23:56.619435+05:30
Bhopal,Madhya Pradesh,23.2599,77.4126,28.3,33,0.0,953.8,7.7,42.8,75,25.8,14.5,4,5,7,0,2026-03-15T19:23:56.619441+05:30
Jabalpur,Madhya Pradesh,23.1815,79.9864,27.9,39,0.0,961.0,7.8,38.2,109,25.6,19.7,4,5,7,0,2026-03-15T19:23:56.619448+05:30
Ujjain,Madhya Pradesh,23.1765,75.7885,27.4,34,0.0,954.2,7.7,34.6,66,40.4,20.0,4,5,7,0,2026-03-15T19:23:56.619456+05:30
Visakhapatnam,Andhra Pradesh,17.6868,83.2185,26.3,77,0.0,1006.5,8.65,40.0,64,21.0,16.5,7,5,4,1,2026-03-15T19:23:56.619463+05:30
Vijayawada,Andhra Pradesh,16.5062,80.648,27.6,67,0.0,1004.5,8.75,29.2,58,15.3,12.7,7,5,4,1,2026-03-15T19:23:56.619470+05:30
Guntur,Andhra Pradesh,16.3067,80.4365,26.9,72,0.0,1005.8,8.75,30.2,55,15.8,13.0,7,5,4,1,2026-03-15T19:23:56.619477+05:30
Nellore,Andhra Pradesh,14.4426,79.9865,27.0,75,0.0,1007.8,8.95,29.9,60,12.4,9.8,7,5,4,1,2026-03-15T19:23:56.619485+05:30
Kurnool,Andhra Pradesh,15.8281,78.0373,33.3,34,0.0,977.2,8.75,20.2,141,43.0,33.8,0,5,7,0,2026-03-15T19:23:56.619492+05:30
Kakinada,Andhra Pradesh,16.9891,82.2475,26.2,75,0.0,1010.0,8.7,31.7,58,16.5,11.2,7,0,4,1,2026-03-15T19:23:56.619499+05:30
Tirupati,Andhra Pradesh,13.6288,79.4192,28.7,53,0.0,993.1,9.05,29.5,72,16.1,14.9,4,5,7,1,2026-03-15T19:23:56.619505+05:30
Warangal,Telangana,17.9689,79.5941,29.5,52,0.0,980.0,8.55,31.7,81,40.5,32.9,4,5,7,1,2026-03-15T19:23:56.619511+05:30
Nizamabad,Telangana,18.6725,78.0941,28.7,49,0.0,965.3,8.4,33.1,141,65.9,55.9,4,5,7,1,2026-03-15T19:23:56.619518+05:30
Mysore,Karnataka,12.2958,76.6396,28.5,39,0.0,929.1,9.3,33.5,160,32.9,28.2,4,5,7,0,2026-03-15T19:23:56.619525+05:30
Mangalore,Karnataka,12.9141,74.856,29.1,79,0.0,1008.2,8.95,27.7,92,23.7,19.3,7,0,4,1,2026-03-15T19:23:56.619532+05:30
Hubli-Dharwad,Karnataka,15.3647,75.124,25.0,78,0.0,941.9,8.95,43.2,153,45.1,40.0,7,5,7,1,2026-03-15T19:23:56.619539+05:30
Belgaum,Karnataka,15.8497,74.4977,24.6,74,0.0,927.0,9.0,40.0,145,43.4,38.2,3,5,7,1,2026-03-15T19:23:59.891637+05:30
Coimbatore,Tamil Nadu,11.0168,76.9558,27.9,61,0.0,962.8,9.3,32.8,114,18.3,15.0,7,5,7,1,2026-03-15T19:23:59.891664+05:30
Madurai,Tamil Nadu,9.9252,78.1198,31.3,43,0.0,993.6,9.25,23.4,75,10.4,9.4,0,5,7,1,2026-03-15T19:23:59.891673+05:30
Trichy,Tamil Nadu,10.7905,78.7047,29.9,54,0.0,1000.7,9.15,20.2,55,10.9,10.2,4,5,4,1,2026-03-15T19:23:59.891681+05:30
Salem,Tamil Nadu,11.6643,78.146,30.5,45,0.0,978.1,9.2,14.8,100,17.9,16.1,0,5,7,1,2026-03-15T19:23:59.891688+05:30
Tirunelveli,Tamil Nadu,8.7139,77.7567,29.4,63,0.0,1004.3,9.25,40.0,71,8.3,7.6,7,5,4,1,2026-03-15T19:23:59.891695+05:30
Vellore,Tamil Nadu,12.9165,79.1325,28.1,51,0.0,986.2,9.1,31.0,92,17.7,16.9,4,5,7,1,2026-03-15T19:23:59.891702+05:30
Erode,Tamil Nadu,11.341,77.7172,31.8,42,0.0,989.3,9.2,20.5,75,14.3,12.5,0,5,7,1,2026-03-15T19:23:59.891709+05:30
Kochi,Kerala,9.9312,76.2673,29.0,75,0.0,1009.9,9.1,34.2,108,20.1,18.4,7,0,4,1,2026-03-15T19:23:59.891717+05:30
Thiruvananthapuram,Kerala,8.5241,76.9366,28.7,74,0.0,1009.4,9.1,27.0,90,11.2,8.0,7,0,4,1,2026-03-15T19:23:59.891724+05:30
Kozhikode,Kerala,11.2588,75.7804,29.3,74,0.0,1009.1,9.0,32.8,75,20.8,17.2,7,0,4,1,2026-03-15T19:23:59.891730+05:30
Thrissur,Kerala,10.5276,76.2144,28.5,76,0.0,1008.3,9.05,40.0,98,19.8,18.3,7,0,4,1,2026-03-15T19:23:59.891738+05:30
Kannur,Kerala,11.8745,75.3704,28.6,76,0.0,1008.6,8.95,33.5,88,28.1,23.3,7,0,4,1,2026-03-15T19:23:59.891744+05:30
Patna,Bihar,25.5941,85.1376,27.7,57,0.0,1001.6,7.55,27.4,171,71.2,53.3,4,5,4,1,2026-03-15T19:23:59.891751+05:30
Gaya,Bihar,24.7914,85.0002,25.6,66,0.0,994.1,7.65,28.8,144,80.1,49.2,7,5,7,1,2026-03-15T19:23:59.891758+05:30
Muzaffarpur,Bihar,26.1209,85.3647,24.8,69,0.0,1002.0,7.5,38.5,162,77.5,60.5,3,5,4,1,2026-03-15T19:23:59.891764+05:30
Bhagalpur,Bihar,25.2425,87.0117,27.1,72,0.0,1002.3,7.55,32.4,179,76.6,54.4,7,5,4,1,2026-03-15T19:23:59.891771+05:30
Ranchi,Jharkhand,23.3441,85.3096,23.2,70,0.0,938.9,8.3,45.7,183,43.0,40.4,3,5,7,1,2026-03-15T19:23:59.891778+05:30
Jamshedpur,Jharkhand,22.8046,86.2029,25.7,73,0.0,993.0,8.15,37.4,182,50.4,46.2,7,5,7,1,2026-03-15T19:23:59.891785+05:30
Dhanbad,Jharkhand,23.7957,86.4304,25.9,71,0.0,981.2,8.0,31.7,193,63.1,59.6,7,5,7,1,2026-03-15T19:23:59.891791+05:30
Bokaro,Jharkhand,23.6693,86.1511,26.4,69,0.0,985.1,8.0,25.9,177,57.3,52.4,7,5,7,1,2026-03-15T19:23:59.891798+05:30
Bhubaneswar,Odisha,20.2961,85.8245,26.1,80,0.0,1005.9,8.5,42.5,56,19.2,15.3,7,5,4,1,2026-03-15T19:23:59.891805+05:30
Cuttack,Odisha,20.4625,85.8828,27.0,74,0.0,1007.9,8.5,37.4,56,19.2,15.3,7,5,4,1,2026-03-15T19:23:59.891812+05:30
Rourkela,Odisha,22.2604,84.8536,26.3,69,0.0,986.9,8.1,55.4,201,53.3,49.4,7,5,7,1,2026-03-15T19:23:59.891819+05:30
Raipur,Chhattisgarh,21.2514,81.6296,29.5,39,0.0,974.8,8.2,35.6,151,53.6,48.4,4,5,7,0,2026-03-15T19:23:59.891825+05:30
Bhilai,Chhattisgarh,21.1938,81.3509,29.0,40,0.0,975.0,8.2,36.7,141,52.5,47.3,4,5,7,0,2026-03-15T19:23:59.891832+05:30
Guwahati,Assam,26.1158,91.7086,22.8,87,0.0,1004.5,7.4,39.6,77,24.7,20.4,3,5,4,1,2026-03-15T19:23:59.891838+05:30
Agartala,Tripura,23.8315,91.2868,23.2,90,0.0,1009.9,7.75,35.3,54,24.1,21.4,3,0,4,1,2026-03-15T19:23:59.891845+05:30
Shillong,Meghalaya,25.5788,91.8933,12.8,93,0.0,856.9,7.85,79.9,59,19.4,15.3,3,10,7,0,2026-03-15T19:23:59.891852+05:30
Imphal,Manipur,24.817,93.9368,16.2,83,0.0,925.5,8.15,70.2,86,38.3,31.5,3,10,7,0,2026-03-15T19:23:59.891859+05:30
Aizawl,Mizoram,23.7271,92.7176,16.2,87,0.0,894.6,8.1,55.8,86,31.4,25.7,3,10,7,0,2026-03-15T19:23:59.891866+05:30
Kohima,Nagaland,25.6701,94.1077,14.7,71,0.0,856.0,7.8,111.2,70,30.9,24.1,3,5,7,0,2026-03-15T19:23:59.891872+05:30
Gangtok,Sikkim,27.3314,88.6138,13.4,81,0.0,835.9,7.05,20.9,99,54.6,36.2,3,10,7,0,2026-03-15T19:23:59.891879+05:30
Siliguri,West Bengal,26.7271,88.3953,19.7,87,0.0,995.1,7.45,32.0,124,59.3,43.9,3,10,7,1,2026-03-15T19:24:03.164510+05:30
Durgapur,West Bengal,23.5204,87.3119,24.5,82,0.0,997.1,8.05,36.4,164,65.0,60.1,3,5,7,1,2026-03-15T19:24:03.164536+05:30
Asansol,West Bengal,23.6739,86.9524,25.4,79,0.0,995.4,8.05,33.5,192,59.8,56.0,7,5,7,1,2026-03-15T19:24:03.164544+05:30
Pondicherry,Puducherry,11.9139,79.8145,26.1,80,0.0,1010.5,9.0,28.1,38,6.5,4.5,7,0,4,1,2026-03-15T19:24:03.164550+05:30
Port Blair,Andaman and Nicobar Islands,11.6234,92.7265,27.7,79,0.0,1009.7,8.95,21.6,71,14.2,11.5,7,0,4,1,2026-03-15T19:24:03.164556+05:30
Haridwar,Uttarakhand,29.9457,78.1642,19.3,84,0.0,976.4,5.85,33.1,90,40.3,20.6,3,10,3,1,2026-03-15T19:24:03.164562+05:30
Rishikesh,Uttarakhand,30.0869,78.2676,18.7,78,0.0,968.9,5.65,36.7,68,40.4,18.4,3,5,3,0,2026-03-15T19:24:03.164568+05:30
Nainital,Uttarakhand,29.3919,79.4542,14.1,79,0.0,805.6,5.35,58.7,81,42.7,18.6,3,5,3,0,2026-03-15T19:24:03.164574+05:30
Mussoorie,Uttarakhand,30.4599,78.0664,11.3,74,0.0,800.8,5.35,46.8,78,33.8,17.8,3,5,3,0,2026-03-15T19:24:03.164579+05:30
Dharamshala,Himachal Pradesh,32.219,76.3234,13.7,74,0.0,867.1,4.15,40.7,49,8.1,4.9,3,5,3,0,2026-03-15T19:24:03.164585+05:30
Dalhousie,Himachal Pradesh,32.5387,75.971,10.0,85,0.0,800.0,3.65,32.8,74,41.7,25.0,3,10,3,0,2026-03-15T19:24:03.164591+05:30
Patiala,Punjab,30.3398,76.3869,18.8,88,0.0,979.7,5.9,33.1,126,54.4,28.1,3,10,3,1,2026-03-15T19:24:03.164596+05:30
Bhatinda,Punjab,30.211,74.9455,18.4,85,0.0,984.4,6.4,46.8,99,73.3,32.1,3,10,7,0,2026-03-15T19:24:03.164601+05:30
Rohtak,Haryana,28.8955,76.6066,21.2,75,0.0,981.8,6.15,39.2,181,853.1,100.8,3,5,7,1,2026-03-15T19:24:03.164607+05:30
Panipat,Haryana,29.3909,76.9635,20.5,80,0.0,981.3,5.95,27.4,176,466.6,60.3,3,5,3,1,2026-03-15T19:24:03.164612+05:30
Mathura,Uttar Pradesh,27.4924,77.6737,24.9,53,0.0,987.0,6.5,37.1,350,156.5,38.0,0,5,7,0,2026-03-15T19:24:03.164617+05:30
Vrindavan,Uttar Pradesh,27.5823,77.7027,23.9,62,0.0,987.7,6.45,38.2,350,156.5,38.0,3,5,7,1,2026-03-15T19:24:03.164623+05:30
Ayodhya,Uttar Pradesh,26.7922,82.1998,22.3,60,0.0,997.8,6.9,47.2,123,47.7,32.1,0,5,7,0,2026-03-15T19:24:03.164628+05:30
Ratlam,Madhya Pradesh,23.3315,75.0367,28.8,27,0.0,955.1,7.65,38.5,66,36.7,16.4,4,5,7,0,2026-03-15T19:24:03.164633+05:30
Sagar,Madhya Pradesh,23.8388,78.7378,27.1,38,0.0,950.2,7.65,36.7,73,26.4,14.0,4,5,7,0,2026-03-15T19:24:03.164638+05:30
Satna,Madhya Pradesh,24.6005,80.8322,27.7,50,0.0,971.2,7.6,51.1,113,25.6,15.1,4,5,7,1,2026-03-15T19:24:03.164644+05:30
Akola,Maharashtra,20.7002,77.0082,31.8,25,0.0,974.9,8.15,29.2,124,33.1,28.2,0,5,7,0,2026-03-15T19:24:03.164650+05:30
Amravati,Maharashtra,20.9374,77.7796,30.3,33,0.0,967.1,8.1,27.7,129,33.9,29.2,0,5,7,0,2026-03-15T19:24:03.164656+05:30
Latur,Maharashtra,18.4088,76.5604,28.2,34,0.0,940.1,8.55,25.6,155,37.8,33.4,4,5,7,0,2026-03-15T19:24:03.164662+05:30
Nanded,Maharashtra,19.1383,77.3091,31.4,33,0.0,968.7,8.35,19.1,160,46.4,39.6,0,5,7,0,2026-03-15T19:24:03.164667+05:30
Gulbarga,Karnataka,17.3297,76.8343,28.6,49,0.0,958.9,8.6,31.0,166,48.0,39.7,4,5,7,1,2026-03-15T19:24:03.164672+05:30
Bidar,Karnataka,17.9104,77.5199,26.8,54,0.0,936.3,7.65,34.9,159,52.6,42.7,4,5,7,1,2026-03-15T19:24:03.164677+05:30
Hospet,Karnataka,15.2689,76.3909,30.7,44,0.0,956.4,8.9,31.3,160,49.5,41.6,0,5,7,1,2026-03-15T19:24:03.164682+05:30
Tirupur,Tamil Nadu,11.1085,77.3411,31.6,36,0.0,975.8,9.3,28.4,90,17.6,15.1,0,5,7,0,2026-03-15T19:24:03.164688+05:30
Alappuzha,Kerala,9.4981,76.3388,28.7,78,0.0,1010.0,9.05,30.2,116,19.3,16.4,7,0,4,1,2026-03-15T19:24:03.164693+05:30
Munnar,Kerala,10.0889,77.0595,21.7,81,0.0,858.1,9.55,34.9,76,17.4,15.3,3,5,7,1,2026-03-15T19:24:03.164698+05:30
Silchar,Assam,24.8333,92.7789,21.4,89,0.0,1009.4,7.8,42.5,104,32.7,30.0,3,0,4,1,2026-03-15T19:24:03.164704+05:30
Dibrugarh,Assam,27.4728,94.912,18.7,93,0.7,999.2,4.5,40.0,69,33.2,27.5,6,10,3,1,2026-03-15T19:24:03.164709+05:30
