city,state,latitude,longitude,temp,humidity,rain,pressure,uv_index,wind_gusts,aqi,pm10,pm2_5,no2,co,o3,so2,mosquito_risk,arthritis_risk,migraine_risk,frizz_risk,updated_at
Delhi,Delhi,28.6139,77.209,31.7,71,0.0,976.5,6.85,30.2,315,661.2,137.4,29.2,340.0,80.0,17.1,3,5,7,1,2026-07-19T18:52:06.012650+05:30
Mumbai,Maharashtra,19.076,72.8777,26.2,90,0.2,1005.3,5.1,43.2,61,22.2,10.7,7.7,252.0,47.0,5.1,10,5,0,1,2026-07-19T18:52:06.012705+05:30
Bangalore,Karnataka,12.9716,77.5946,21.7,88,0.2,910.8,7.25,43.6,51,18.8,11.7,12.9,394.0,52.0,4.0,6,5,7,1,2026-07-19T18:52:06.012721+05:30
Hyderabad,Telangana,17.385,78.4867,27.3,74,0.0,950.0,3.5,42.1,35,18.3,11.1,4.9,251.0,73.0,3.2,7,5,3,1,2026-07-19T18:52:06.012732+05:30
Chennai,Tamil Nadu,13.0827,80.2707,29.5,78,0.0,1003.6,7.5,42.8,77,31.4,21.9,11.3,270.0,90.0,9.0,7,5,4,1,2026-07-19T18:52:06.012741+05:30
Kolkata,West Bengal,22.5726,88.3639,28.0,92,0.0,1002.2,7.05,32.4,60,19.6,15.9,6.5,481.0,75.0,5.4,7,5,4,1,2026-07-19T18:52:06.012751+05:30
Pune,Maharashtra,18.5204,73.8567,24.3,84,0.0,945.0,3.5,46.8,24,4.3,3.6,7.3,142.0,38.0,3.9,3,5,3,1,2026-07-19T18:52:06.012760+05:30
Ahmedabad,Gujarat,23.0225,72.5714,31.0,69,0.0,995.7,6.65,32.4,64,27.8,13.9,6.2,157.0,74.0,5.4,3,5,7,1,2026-07-19T18:52:06.012768+05:30
Jaipur,Rajasthan,26.9124,75.7873,32.3,59,0.0,953.9,7.95,34.6,127,52.9,23.4,6.3,143.0,87.0,4.2,0,5,7,1,2026-07-19T18:52:06.012777+05:30
Lucknow,Uttar Pradesh,26.8467,80.9462,28.9,85,0.0,988.0,5.6,24.5,152,99.7,51.0,17.2,370.0,81.0,8.6,7,5,3,1,2026-07-19T18:52:06.012789+05:30
Kanpur,Uttar Pradesh,26.4499,80.3319,29.1,86,0.0,986.2,6.25,24.1,154,79.4,39.9,14.0,330.0,69.0,6.7,7,5,7,1,2026-07-19T18:52:06.012796+05:30
Chandigarh,Chandigarh,30.7333,76.7794,30.1,82,0.0,962.3,5.85,27.7,156,84.3,38.6,16.6,452.0,88.0,8.6,3,5,3,1,2026-07-19T18:52:06.012806+05:30
Srinagar,Jammu and Kashmir,34.0837,74.7973,28.2,60,0.0,838.3,9.05,31.0,113,12.6,10.7,8.3,398.0,112.0,3.1,4,5,7,1,2026-07-19T18:52:06.012814+05:30
Jammu,Jammu and Kashmir,32.7266,74.857,30.8,76,0.0,965.5,6.55,28.4,146,139.7,56.1,9.4,320.0,109.0,6.2,3,5,7,1,2026-07-19T18:52:06.012822+05:30
Amritsar,Punjab,31.634,74.8723,32.8,75,0.0,973.0,7.8,32.0,172,177.4,90.8,11.2,437.0,123.0,8.0,3,5,7,1,2026-07-19T18:52:06.012831+05:30
Ludhiana,Punjab,30.901,75.8573,34.1,60,0.0,971.3,7.4,27.7,182,184.4,88.0,14.2,410.0,110.0,15.6,0,5,7,1,2026-07-19T18:52:06.012838+05:30
Jalandhar,Punjab,31.326,75.5762,33.1,69,0.0,972.2,3.85,29.5,173,160.2,77.8,12.1,426.0,113.0,17.1,3,5,3,1,2026-07-19T18:52:06.012845+05:30
Dehradun,Uttarakhand,30.6284,78.0322,20.2,99,0.2,827.4,5.1,26.6,65,38.8,16.0,4.6,242.0,97.0,2.5,6,5,3,1,2026-07-19T18:52:06.012860+05:30
Shimla,Himachal Pradesh,31.1048,77.1734,18.9,84,0.0,782.9,3.8,42.1,79,33.9,13.7,4.8,232.0,92.0,1.4,3,10,3,1,2026-07-19T18:52:06.012868+05:30
Manali,Himachal Pradesh,32.2396,77.1887,20.9,99,0.1,817.4,5.15,32.0,51,4.8,3.6,7.8,192.0,104.0,0.8,6,5,3,1,2026-07-19T18:52:06.012877+05:30
Gurgaon,Haryana,28.4595,77.0266,31.3,73,0.0,974.8,7.0,28.4,269,434.0,102.0,27.9,372.0,71.0,11.7,3,5,7,1,2026-07-19T18:52:06.012884+05:30
Noida,Uttar Pradesh,28.5355,77.391,30.8,79,0.0,978.0,5.3,25.6,269,434.0,102.0,27.9,374.0,71.0,11.7,3,5,3,1,2026-07-19T18:52:06.012892+05:30
Ghaziabad,Uttar Pradesh,28.6692,77.4538,30.1,86,0.0,976.2,6.35,25.2,227,491.7,127.1,23.1,353.0,125.0,19.4,3,5,7,1,2026-07-19T18:52:06.012899+05:30
Faridabad,Haryana,28.4089,77.3178,31.3,71,0.0,977.3,6.05,30.2,269,434.0,102.0,27.9,324.0,71.0,11.7,3,5,7,1,2026-07-19T18:52:06.012907+05:30
Meerut,Uttar Pradesh,28.9845,77.7064,29.3,92,0.0,975.1,6.5,41.4,227,491.7,127.1,23.1,419.0,125.0,19.4,7,5,7,1,2026-07-19T18:52:06.012914+05:30
Agra,Uttar Pradesh,27.1767,78.0081,30.4,79,0.0,981.9,3.55,36.0,170,102.0,47.0,22.8,207.0,73.0,7.5,3,5,3,1,2026-07-19T18:52:06.012921+05:30
Varanasi,Uttar Pradesh,25.3176,82.9739,29.4,85,0.0,991.9,6.85,20.9,117,36.6,29.3,12.8,615.0,101.0,9.5,7,5,7,1,2026-07-19T18:52:06.012929+05:30
Prayagraj,Uttar Pradesh,25.4358,81.8463,29.4,83,0.0,990.5,5.8,19.8,130,53.2,36.1,15.4,318.0,79.0,9.0,7,5,3,1,2026-07-19T18:52:06.012937+05:30
Gorakhpur,Uttar Pradesh,26.7606,83.3732,29.0,87,0.0,991.7,7.1,25.9,73,15.3,15.3,9.4,442.0,107.0,6.0,7,5,7,1,2026-07-19T18:52:06.012944+05:30
Bareilly,Uttar Pradesh,28.367,79.4304,27.2,92,0.2,981.4,5.25,31.7,152,66.4,42.8,12.1,384.0,90.0,8.9,10,5,3,1,2026-07-19T18:52:06.012953+05:30
Aligarh,Uttar Pradesh,27.8974,78.088,29.7,85,0.0,979.2,6.4,28.4,189,291.5,85.2,18.1,296.0,105.0,10.9,7,5,7,1,2026-07-19T18:52:06.012961+05:30
Moradabad,Uttar Pradesh,28.8386,78.7733,27.6,92,0.0,977.9,2.35,34.6,161,112.7,57.4,11.5,377.0,107.0,12.5,7,5,3,1,2026-07-19T18:52:06.012968+05:30
Saharanpur,Uttar Pradesh,29.9637,77.546,27.4,95,0.0,969.6,6.5,33.1,178,231.0,89.9,9.7,390.0,134.0,16.9,7,5,7,1,2026-07-19T18:52:06.012976+05:30
Jhansi,Uttar Pradesh,25.4484,78.5685,27.9,93,0.0,972.7,6.9,31.0,89,34.6,24.2,8.2,152.0,82.0,10.8,7,5,7,1,2026-07-19T18:52:09.341275+05:30
Surat,Gujarat,21.1702,72.8311,29.0,77,0.0,1001.4,7.45,43.2,70,17.2,13.2,14.8,228.0,35.0,29.5,7,5,4,1,2026-07-19T18:52:09.341308+05:30
Vadodara,Gujarat,22.3072,73.1812,30.1,74,0.0,998.5,6.1,31.3,65,28.4,17.9,8.9,140.0,73.0,13.1,3,5,7,1,2026-07-19T18:52:09.341318+05:30
Rajkot,Gujarat,22.3039,70.8022,31.3,61,0.0,987.4,6.0,45.4,61,26.8,13.3,3.5,103.0,60.0,4.6,3,5,3,1,2026-07-19T18:52:09.341327+05:30
Thane,Maharashtra,19.2183,72.9781,25.3,96,0.1,1004.6,5.5,38.9,61,22.2,10.7,7.7,228.0,47.0,5.1,10,5,0,1,2026-07-19T18:52:09.341336+05:30
Nagpur,Maharashtra,21.1458,79.0882,26.9,90,0.2,969.1,5.35,31.3,61,20.1,14.6,15.4,316.0,57.0,13.3,10,5,3,1,2026-07-19T18:52:09.341345+05:30
Nashik,Maharashtra,19.9975,73.7898,23.3,94,0.0,941.6,4.65,36.7,26,3.3,2.5,5.9,124.0,46.0,3.0,3,5,3,1,2026-07-19T18:52:09.341353+05:30
Aurangabad,Maharashtra,19.8762,75.3433,23.6,94,0.1,940.4,6.5,40.7,35,11.7,7.9,4.8,147.0,65.0,7.4,6,5,7,1,2026-07-19T18:52:09.341360+05:30
Solapur,Maharashtra,17.6599,75.9064,25.0,93,0.1,954.4,3.05,48.6,39,17.2,9.6,3.5,128.0,57.0,1.7,10,5,3,1,2026-07-19T18:52:09.341367+05:30
Kolhapur,Maharashtra,16.705,74.2433,23.2,90,0.0,945.9,8.0,48.2,29,6.7,4.4,4.6,136.0,40.0,1.9,3,5,7,1,2026-07-19T18:52:09.341375+05:30
Goa,Goa,15.2993,74.124,24.6,98,0.3,997.7,6.5,25.6,63,22.2,11.3,2.6,233.0,46.0,1.2,6,5,7,1,2026-07-19T18:52:09.341382+05:30
Jodhpur,Rajasthan,26.2389,73.0243,35.0,41,0.0,975.7,7.65,42.1,99,121.1,26.2,2.7,114.0,77.0,1.7,0,5,7,1,2026-07-19T18:52:09.341390+05:30
Udaipur,Rajasthan,24.5854,73.7125,29.2,58,0.0,940.9,6.25,29.9,64,33.6,16.6,2.5,116.0,87.0,4.1,4,5,7,1,2026-07-19T18:52:09.341397+05:30
Kota,Rajasthan,25.2138,75.8648,31.6,58,0.0,972.8,7.65,28.1,78,39.8,22.9,6.8,137.0,100.0,8.4,0,5,7,1,2026-07-19T18:52:09.341405+05:30
Bikaner,Rajasthan,28.0229,73.3119,36.8,36,0.0,974.0,8.05,35.3,122,100.4,27.8,1.0,112.0,78.0,2.2,0,5,10,1,2026-07-19T18:52:09.341412+05:30
Ajmer,Rajasthan,26.4499,74.6399,32.0,55,0.0,948.8,8.15,43.6,73,30.9,17.1,3.8,131.0,88.0,2.9,0,5,7,1,2026-07-19T18:52:09.341420+05:30
Gwalior,Madhya Pradesh,26.2183,78.1828,28.3,88,0.0,977.5,6.7,32.0,104,49.7,28.3,7.7,182.0,81.0,4.0,7,5,7,1,2026-07-19T18:52:09.341427+05:30
Indore,Madhya Pradesh,22.7196,75.8577,27.0,82,0.0,943.2,7.95,43.6,64,22.8,15.5,6.8,200.0,80.0,5.0,7,5,7,1,2026-07-19T18:52:09.341434+05:30
Bhopal,Madhya Pradesh,23.2599,77.4126,28.1,79,0.0,948.9,7.9,29.2,73,19.2,14.4,6.1,303.0,71.0,3.2,7,5,7,1,2026-07-19T18:52:09.341442+05:30
Jabalpur,Madhya Pradesh,23.1815,79.9864,26.5,94,0.0,957.2,7.95,31.3,86,37.8,24.3,5.2,235.0,90.0,3.5,7,5,7,1,2026-07-19T18:52:09.341449+05:30
Ujjain,Madhya Pradesh,23.1765,75.7885,27.5,79,0.0,948.7,7.5,31.7,64,23.6,15.1,3.9,192.0,80.0,3.6,7,5,7,1,2026-07-19T18:52:09.341456+05:30
Visakhapatnam,Andhra Pradesh,17.6868,83.2185,29.5,81,0.0,998.5,8.4,35.3,106,25.6,21.2,16.7,343.0,93.0,31.4,7,5,7,1,2026-07-19T18:52:09.341464+05:30
Vijayawada,Andhra Pradesh,16.5062,80.648,30.2,76,0.0,998.2,8.35,37.8,63,12.9,10.4,7.7,226.0,70.0,4.4,3,5,7,1,2026-07-19T18:52:09.341472+05:30
Guntur,Andhra Pradesh,16.3067,80.4365,31.7,61,0.0,999.3,7.8,40.3,57,11.9,9.5,7.7,237.0,65.0,3.8,3,5,7,1,2026-07-19T18:52:09.341480+05:30
Nellore,Andhra Pradesh,14.4426,79.9865,30.0,71,0.0,1001.8,7.55,38.2,59,30.2,20.2,5.3,156.0,97.0,4.4,7,5,4,1,2026-07-19T18:52:09.341488+05:30
Kurnool,Andhra Pradesh,15.8281,78.0373,24.4,92,0.3,974.6,8.1,43.9,41,32.0,15.3,3.5,134.0,72.0,5.1,6,5,7,1,2026-07-19T18:52:09.341496+05:30
Kakinada,Andhra Pradesh,16.9891,82.2475,31.6,66,0.0,1002.3,8.85,45.0,70,17.9,13.8,3.7,221.0,106.0,3.7,3,5,4,1,2026-07-19T18:52:09.341503+05:30
Tirupati,Andhra Pradesh,13.6288,79.4192,26.9,87,0.0,987.6,7.85,32.0,63,33.4,20.1,14.7,223.0,42.0,2.4,7,5,7,1,2026-07-19T18:52:09.341511+05:30
Warangal,Telangana,17.9689,79.5941,27.9,83,0.2,974.6,7.15,38.9,53,17.5,12.1,5.4,175.0,70.0,3.4,10,5,7,1,2026-07-19T18:52:09.341517+05:30
Nizamabad,Telangana,18.6725,78.0941,26.1,92,0.0,961.0,0.9,37.8,55,27.1,13.8,2.6,170.0,81.0,4.4,7,5,3,1,2026-07-19T18:52:09.341550+05:30
Mysore,Karnataka,12.2958,76.6396,23.9,81,0.0,927.8,6.8,45.7,39,14.1,8.3,4.4,132.0,57.0,1.8,3,5,7,1,2026-07-19T18:52:09.341558+05:30
Mangalore,Karnataka,12.9141,74.856,25.3,91,0.0,1007.2,8.25,31.0,57,16.2,8.6,3.2,113.0,43.0,1.6,7,5,4,1,2026-07-19T18:52:09.341566+05:30
Hubli-Dharwad,Karnataka,15.3647,75.124,24.1,82,0.0,939.4,7.5,54.0,26,8.1,4.9,3.8,114.0,45.0,1.2,3,5,7,1,2026-07-19T18:52:09.341573+05:30
Belgaum,Karnataka,15.8497,74.4977,22.2,92,0.0,923.9,7.75,53.6,23,3.7,2.6,4.4,110.0,39.0,1.4,3,5,7,1,2026-07-19T18:52:12.671833+05:30
Coimbatore,Tamil Nadu,11.0168,76.9558,25.1,84,0.0,960.5,7.9,45.7,45,8.4,5.6,3.7,154.0,53.0,2.2,7,5,7,1,2026-07-19T18:52:12.671867+05:30
Madurai,Tamil Nadu,9.9252,78.1198,30.7,62,0.0,991.6,7.95,38.9,71,29.5,15.4,5.5,141.0,86.0,3.2,3,5,7,1,2026-07-19T18:52:12.671878+05:30
Trichy,Tamil Nadu,10.7905,78.7047,28.6,83,0.3,997.7,8.4,42.8,53,25.4,13.9,4.2,122.0,76.0,2.7,10,5,7,1,2026-07-19T18:52:12.671887+05:30
Salem,Tamil Nadu,11.6643,78.146,28.4,72,0.1,975.7,6.3,38.2,64,19.3,10.9,7.4,258.0,69.0,4.9,10,5,7,1,2026-07-19T18:52:12.671896+05:30
Tirunelveli,Tamil Nadu,8.7139,77.7567,31.9,52,0.0,1001.7,8.5,49.0,38,8.8,6.6,3.0,115.0,61.0,1.9,0,5,4,1,2026-07-19T18:52:12.671904+05:30
Vellore,Tamil Nadu,12.9165,79.1325,30.5,64,0.0,981.2,7.15,36.7,66,27.5,17.1,12.9,138.0,54.0,3.2,3,5,7,1,2026-07-19T18:52:12.671912+05:30
Erode,Tamil Nadu,11.341,77.7172,31.1,59,0.0,987.4,7.35,37.8,54,16.3,9.7,7.3,157.0,60.0,2.5,0,5,7,1,2026-07-19T18:52:12.671920+05:30
Kochi,Kerala,9.9312,76.2673,27.0,85,0.2,1009.2,8.4,32.0,55,13.8,9.1,8.3,121.0,41.0,3.5,10,0,4,1,2026-07-19T18:52:12.671928+05:30
Thiruvananthapuram,Kerala,8.5241,76.9366,26.1,87,0.0,1008.7,7.95,42.1,50,14.3,8.3,3.1,109.0,58.0,1.1,7,0,4,1,2026-07-19T18:52:12.671936+05:30
Kozhikode,Kerala,11.2588,75.7804,25.3,91,0.1,1008.5,8.0,33.1,43,11.8,5.7,0.9,140.0,52.0,1.0,10,0,4,1,2026-07-19T18:52:12.671942+05:30
Thrissur,Kerala,10.5276,76.2144,26.7,85,0.0,1007.5,8.15,32.8,53,10.7,7.8,5.4,145.0,40.0,2.2,7,5,4,1,2026-07-19T18:52:12.671950+05:30
Kannur,Kerala,11.8745,75.3704,26.4,87,0.1,1007.6,8.0,31.0,51,16.9,8.7,4.5,130.0,40.0,1.4,10,5,4,1,2026-07-19T18:52:12.671957+05:30
Patna,Bihar,25.5941,85.1376,27.7,95,0.1,995.3,7.35,28.8,82,26.5,26.4,15.5,457.0,92.0,11.6,10,5,7,1,2026-07-19T18:52:12.671964+05:30
Gaya,Bihar,24.7914,85.0002,28.6,87,0.0,988.4,8.45,24.8,76,17.6,17.3,9.6,340.0,92.0,6.7,7,5,7,1,2026-07-19T18:52:12.671971+05:30
Muzaffarpur,Bihar,26.1209,85.3647,28.0,92,0.1,995.6,7.0,28.4,72,27.4,27.2,15.1,386.0,90.0,10.3,10,5,7,1,2026-07-19T18:52:12.671978+05:30
Bhagalpur,Bihar,25.2425,87.0117,27.8,93,0.2,996.9,7.55,27.0,77,24.3,23.7,12.5,278.0,93.0,10.3,10,5,7,1,2026-07-19T18:52:12.671984+05:30
Ranchi,Jharkhand,23.3441,85.3096,23.9,96,0.1,933.3,8.1,24.8,75,22.8,19.8,6.1,266.0,106.0,8.3,6,5,7,1,2026-07-19T18:52:12.671991+05:30
Jamshedpur,Jharkhand,22.8046,86.2029,26.3,97,0.0,986.0,8.2,29.9,100,21.7,21.2,10.3,436.0,88.0,14.0,7,5,7,1,2026-07-19T18:52:12.671998+05:30
Dhanbad,Jharkhand,23.7957,86.4304,26.2,95,0.1,975.5,7.8,27.7,150,46.4,46.0,38.7,535.0,68.0,77.7,10,5,7,1,2026-07-19T18:52:12.672004+05:30
Bokaro,Jharkhand,23.6693,86.1511,26.9,94,0.0,979.1,8.3,28.1,152,44.2,43.5,33.5,828.0,82.0,78.8,7,5,7,1,2026-07-19T18:52:12.672011+05:30
Bhubaneswar,Odisha,20.2961,85.8245,28.2,89,0.1,998.4,8.3,31.0,78,34.6,29.1,8.7,334.0,106.0,6.1,10,5,7,1,2026-07-19T18:52:12.672018+05:30
Cuttack,Odisha,20.4625,85.8828,27.3,95,0.2,1000.5,8.65,34.9,78,34.6,29.1,8.7,334.0,106.0,6.1,10,5,4,1,2026-07-19T18:52:12.672026+05:30
Rourkela,Odisha,22.2604,84.8536,26.8,94,0.1,980.6,7.4,29.2,105,40.4,31.7,7.0,327.0,131.0,17.2,10,5,7,1,2026-07-19T18:52:12.672033+05:30
Raipur,Chhattisgarh,21.2514,81.6296,26.3,95,0.1,970.5,7.85,29.5,92,42.1,32.9,29.6,257.0,72.0,49.2,10,5,7,1,2026-07-19T18:52:12.672040+05:30
Bhilai,Chhattisgarh,21.1938,81.3509,26.9,90,0.1,970.9,5.4,36.4,85,35.7,27.0,24.4,590.0,78.0,41.6,10,5,3,1,2026-07-19T18:52:12.672046+05:30
Guwahati,Assam,26.1158,91.7086,26.2,99,0.1,998.8,2.65,28.8,61,12.7,12.3,6.9,275.0,54.0,2.4,10,5,3,1,2026-07-19T18:52:12.672054+05:30
Agartala,Tripura,23.8315,91.2868,25.6,97,0.0,1004.1,7.95,45.0,57,10.1,8.7,7.0,153.0,50.0,1.9,7,5,4,1,2026-07-19T18:52:12.672060+05:30
Shillong,Meghalaya,25.5788,91.8933,20.2,95,0.1,855.9,2.1,33.5,29,3.0,2.9,6.0,189.0,59.0,2.0,6,5,3,1,2026-07-19T18:52:12.672067+05:30
Imphal,Manipur,24.817,93.9368,22.5,98,0.1,922.0,1.15,22.3,55,7.6,6.5,8.6,329.0,35.0,1.7,6,5,3,1,2026-07-19T18:52:12.672074+05:30
Aizawl,Mizoram,23.7271,92.7176,21.2,79,0.0,891.1,3.15,41.0,37,16.6,10.6,4.0,126.0,36.0,0.7,3,5,3,1,2026-07-19T18:52:12.672080+05:30
Kohima,Nagaland,25.6701,94.1077,20.5,93,0.2,854.2,1.9,18.4,33,2.6,2.5,5.9,241.0,38.0,0.4,6,5,3,1,2026-07-19T18:52:12.672087+05:30
Gangtok,Sikkim,27.3314,88.6138,19.4,99,0.0,836.6,3.4,27.4,34,3.0,2.9,5.9,219.0,65.0,0.8,3,10,3,1,2026-07-19T18:52:12.672094+05:30
Siliguri,West Bengal,26.7271,88.3953,25.9,95,0.0,990.1,3.4,24.5,54,13.4,13.2,9.0,377.0,72.0,2.8,7,5,3,1,2026-07-19T18:52:16.064785+05:30
Durgapur,West Bengal,23.5204,87.3119,27.6,90,0.0,990.4,7.3,31.0,114,44.0,43.1,24.9,264.0,73.0,29.3,7,5,7,1,2026-07-19T18:52:16.064819+05:30
Asansol,West Bengal,23.6739,86.9524,26.5,96,0.1,989.1,6.9,29.5,114,37.8,37.3,30.1,656.0,69.0,33.9,10,5,7,1,2026-07-19T18:52:16.064830+05:30
Pondicherry,Puducherry,11.9139,79.8145,29.2,83,0.0,1005.2,8.1,39.2,73,35.7,24.8,12.1,191.0,91.0,7.7,7,5,4,1,2026-07-19T18:52:16.064840+05:30
Port Blair,Andaman and Nicobar Islands,11.6234,92.7265,27.4,80,0.1,1007.5,8.75,37.4,54,21.8,11.3,0.3,98.0,43.0,0.4,10,5,4,1,2026-07-19T18:52:16.064848+05:30
Haridwar,Uttarakhand,29.9457,78.1642,27.0,97,0.0,968.2,7.1,30.2,163,186.7,76.6,5.8,359.0,125.0,12.6,7,5,7,1,2026-07-19T18:52:16.064857+05:30
Rishikesh,Uttarakhand,30.0869,78.2676,26.1,97,0.0,961.1,5.7,25.9,152,178.8,59.0,3.7,320.0,112.0,8.1,7,5,3,1,2026-07-19T18:52:16.064864+05:30
Nainital,Uttarakhand,29.3919,79.4542,18.6,99,0.1,803.3,3.9,25.6,76,24.9,13.1,5.6,234.0,101.0,3.5,6,10,3,1,2026-07-19T18:52:16.064872+05:30
Mussoorie,Uttarakhand,30.4599,78.0664,18.4,100,0.9,800.5,2.75,30.2,114,136.0,55.5,9.9,268.0,104.0,8.8,6,10,3,1,2026-07-19T18:52:16.064880+05:30
Dharamshala,Himachal Pradesh,32.219,76.3234,22.9,96,0.0,865.5,3.95,26.3,43,22.1,9.7,3.9,261.0,88.0,1.2,3,5,3,1,2026-07-19T18:52:16.064888+05:30
Dalhousie,Himachal Pradesh,32.5387,75.971,20.1,94,0.1,802.7,6.45,21.6,90,95.0,33.9,7.1,322.0,94.0,3.2,6,5,7,1,2026-07-19T18:52:16.064896+05:30
Patiala,Punjab,30.3398,76.3869,31.5,79,0.0,971.2,6.45,27.4,250,213.3,93.4,14.7,386.0,120.0,12.5,3,5,7,1,2026-07-19T18:52:16.064903+05:30
Bhatinda,Punjab,30.211,74.9455,36.9,41,0.0,975.7,7.1,28.8,185,235.6,83.6,16.9,159.0,86.0,8.8,0,5,10,1,2026-07-19T18:52:16.064910+05:30
Rohtak,Haryana,28.8955,76.6066,32.1,73,0.0,974.7,6.5,30.6,512,547.6,115.5,29.8,288.0,69.0,7.5,3,5,7,1,2026-07-19T18:52:16.064918+05:30
Panipat,Haryana,29.3909,76.9635,29.8,90,0.0,973.6,6.8,33.5,789,733.9,160.7,23.0,340.0,75.0,10.7,7,5,7,1,2026-07-19T18:52:16.064925+05:30
Mathura,Uttar Pradesh,27.4924,77.6737,30.3,76,0.0,980.7,2.65,33.8,235,254.3,71.5,24.6,322.0,60.0,4.1,3,5,3,1,2026-07-19T18:52:16.064933+05:30
Vrindavan,Uttar Pradesh,27.5823,77.7027,30.4,76,0.0,981.0,5.05,29.9,235,254.3,71.5,24.6,321.0,60.0,4.1,3,5,3,1,2026-07-19T18:52:16.064940+05:30
Ayodhya,Uttar Pradesh,26.7922,82.1998,28.9,84,0.0,990.0,7.8,21.6,75,14.1,13.8,11.6,482.0,96.0,5.1,7,5,7,1,2026-07-19T18:52:16.064947+05:30
Ratlam,Madhya Pradesh,23.3315,75.0367,28.8,71,0.0,949.4,6.95,33.1,61,27.7,15.8,3.5,135.0,80.0,3.4,7,5,7,1,2026-07-19T18:52:16.064954+05:30
Sagar,Madhya Pradesh,23.8388,78.7378,28.1,79,0.0,945.3,7.95,27.0,81,31.5,21.0,5.2,177.0,79.0,2.7,7,5,7,1,2026-07-19T18:52:16.064961+05:30
Satna,Madhya Pradesh,24.6005,80.8322,27.5,87,0.0,966.5,6.85,28.4,92,53.2,24.6,5.4,166.0,84.0,2.8,7,5,7,1,2026-07-19T18:52:16.064968+05:30
Akola,Maharashtra,20.7002,77.0082,28.2,79,0.0,970.7,7.5,37.8,53,16.9,10.6,4.8,131.0,71.0,6.8,7,5,7,1,2026-07-19T18:52:16.064976+05:30
Amravati,Maharashtra,20.9374,77.7796,28.7,77,0.0,962.9,7.0,40.7,54,20.3,12.2,5.2,152.0,71.0,8.5,7,5,7,1,2026-07-19T18:52:16.064983+05:30
Latur,Maharashtra,18.4088,76.5604,23.9,94,0.1,936.6,7.9,39.6,39,15.7,9.7,3.0,136.0,59.0,1.4,6,5,7,1,2026-07-19T18:52:16.064991+05:30
Nanded,Maharashtra,19.1383,77.3091,26.5,86,0.0,964.8,6.9,37.8,54,16.5,10.0,3.8,152.0,69.0,2.5,7,5,7,1,2026-07-19T18:52:16.064998+05:30
Gulbarga,Karnataka,17.3297,76.8343,23.4,96,0.1,956.4,8.2,40.7,35,17.1,9.6,4.6,125.0,61.0,1.9,6,5,7,1,2026-07-19T18:52:16.065005+05:30
Bidar,Karnataka,17.9104,77.5199,23.3,94,0.1,932.5,2.85,41.4,46,18.5,10.8,4.1,137.0,68.0,1.6,6,5,3,1,2026-07-19T18:52:16.065012+05:30
Hospet,Karnataka,15.2689,76.3909,25.2,85,0.0,953.9,7.0,46.1,36,16.8,9.5,3.8,116.0,49.0,1.8,7,5,7,1,2026-07-19T18:52:16.065019+05:30
Tirupur,Tamil Nadu,11.1085,77.3411,27.2,73,0.1,973.8,7.9,47.5,57,14.3,9.2,8.0,138.0,55.0,3.0,10,5,7,1,2026-07-19T18:52:16.065026+05:30
Alappuzha,Kerala,9.4981,76.3388,27.0,86,0.0,1009.4,8.1,36.7,52,14.2,8.0,5.4,89.0,49.0,2.4,7,0,4,1,2026-07-19T18:52:16.065033+05:30
Munnar,Kerala,10.0889,77.0595,17.3,99,0.1,856.5,6.35,36.0,32,7.5,5.0,3.7,109.0,45.0,1.4,6,10,7,1,2026-07-19T18:52:16.065041+05:30
Silchar,Assam,24.8333,92.7789,25.8,98,0.3,1003.3,2.95,27.7,63,18.5,14.1,6.9,237.0,52.0,4.0,10,5,0,1,2026-07-19T18:52:16.065048+05:30
Dibrugarh,Assam,27.4728,94.912,25.9,95,0.2,993.1,1.8,35.6,52,12.9,12.6,8.0,196.0,52.0,1.6,10,5,3,1,2026-07-19T18:52:16.065054+05:30
