city,state,latitude,longitude,temp,humidity,rain,pressure,uv_index,wind_gusts,aqi,pm10,pm2_5,mosquito_risk,arthritis_risk,migraine_risk,frizz_risk,updated_at
Delhi,Delhi,28.6139,77.209,28.6,42,0.0,988.0,5.75,36.0,187,256.1,63.3,4,5,3,0,2026-03-02T12:33:13.699183+05:30
Mumbai,Maharashtra,19.076,72.8777,26.1,76,0.0,1011.8,7.35,26.6,88,55.1,38.1,7,0,4,1,2026-03-02T12:33:13.699225+05:30
Bangalore,Karnataka,12.9716,77.5946,29.6,37,0.0,914.2,9.05,25.2,135,39.9,38.9,4,5,7,0,2026-03-02T12:33:13.699241+05:30
Hyderabad,Telangana,17.385,78.4867,33.7,27,0.0,956.0,8.3,22.0,149,40.2,39.5,0,5,7,0,2026-03-02T12:33:13.699252+05:30
Chennai,Tamil Nadu,13.0827,80.2707,32.0,48,0.0,1010.0,8.8,30.6,134,52.3,48.0,0,0,4,1,2026-03-02T12:33:13.699260+05:30
Kolkata,West Bengal,22.5726,88.3639,30.3,65,0.0,1007.9,7.65,19.8,141,68.0,60.3,3,5,4,1,2026-03-02T12:33:13.699268+05:30
Pune,Maharashtra,18.5204,73.8567,33.8,27,0.0,951.5,7.85,26.6,92,19.7,19.1,0,5,7,0,2026-03-02T12:33:13.699280+05:30
Ahmedabad,Gujarat,23.0225,72.5714,33.2,31,0.0,1006.8,7.1,16.2,106,38.5,23.6,0,5,4,0,2026-03-02T12:33:13.699289+05:30
Jaipur,Rajasthan,26.9124,75.7873,32.7,19,0.0,964.8,6.55,30.6,96,77.5,24.8,0,5,7,0,2026-03-02T12:33:13.699297+05:30
Lucknow,Uttar Pradesh,26.8467,80.9462,29.1,34,0.0,997.5,6.25,37.1,127,112.5,48.4,4,5,7,0,2026-03-02T12:33:13.699305+05:30
Kanpur,Uttar Pradesh,26.4499,80.3319,29.4,41,0.0,996.2,6.25,32.4,147,244.9,59.0,4,5,7,0,2026-03-02T12:33:13.699315+05:30
Chandigarh,Chandigarh,30.7333,76.7794,26.9,46,0.0,973.5,5.65,39.6,87,30.9,20.3,4,5,3,0,2026-03-02T12:33:13.699322+05:30
Srinagar,Jammu and Kashmir,34.0837,74.7973,17.0,23,0.0,846.8,6.55,18.4,142,32.5,25.1,0,5,7,1,2026-03-02T12:33:13.699329+05:30
Jammu,Jammu and Kashmir,32.7266,74.857,26.6,44,0.0,977.8,6.25,28.4,104,33.8,22.7,4,5,7,0,2026-03-02T12:33:13.699337+05:30
Amritsar,Punjab,31.634,74.8723,27.1,55,0.0,986.5,5.95,26.6,137,39.1,27.6,4,5,3,1,2026-03-02T12:33:13.699344+05:30
Ludhiana,Punjab,30.901,75.8573,27.2,51,0.0,984.2,5.85,33.8,159,66.4,46.8,4,5,3,1,2026-03-02T12:33:13.699351+05:30
Jalandhar,Punjab,31.326,75.5762,26.8,53,0.0,985.3,6.05,31.3,160,61.5,41.1,4,5,7,1,2026-03-02T12:33:13.699360+05:30
Dehradun,Uttarakhand,30.6284,78.0322,19.5,42,0.0,832.8,6.0,26.6,59,21.9,13.6,0,5,3,0,2026-03-02T12:33:13.699366+05:30
Shimla,Himachal Pradesh,31.1048,77.1734,16.6,44,0.0,787.7,6.05,58.0,73,23.9,14.5,0,5,7,0,2026-03-02T12:33:13.699374+05:30
Manali,Himachal Pradesh,32.2396,77.1887,20.5,18,0.0,822.5,7.7,36.7,56,12.7,7.9,0,5,7,1,2026-03-02T12:33:13.699381+05:30
Gurgaon,Haryana,28.4595,77.0266,29.0,42,0.0,986.6,5.85,33.1,741,929.5,121.5,4,5,3,0,2026-03-02T12:33:13.699387+05:30
Noida,Uttar Pradesh,28.5355,77.391,29.2,39,0.0,989.4,5.75,35.6,741,929.5,121.5,4,5,3,0,2026-03-02T12:33:13.699393+05:30
Ghaziabad,Uttar Pradesh,28.6692,77.4538,28.0,45,0.0,987.6,5.75,35.3,164,196.0,54.6,4,5,3,0,2026-03-02T12:33:13.699400+05:30
Faridabad,Haryana,28.4089,77.3178,28.6,43,0.0,988.8,5.8,32.0,741,929.5,121.5,4,5,3,0,2026-03-02T12:33:13.699406+05:30
Meerut,Uttar Pradesh,28.9845,77.7064,27.8,46,0.0,986.1,5.6,38.9,164,196.0,54.6,4,5,3,0,2026-03-02T12:33:13.699412+05:30
Agra,Uttar Pradesh,27.1767,78.0081,30.3,37,0.0,992.8,6.1,28.8,328,374.4,69.2,0,5,7,0,2026-03-02T12:33:13.699419+05:30
Varanasi,Uttar Pradesh,25.3176,82.9739,29.2,40,0.0,1001.4,6.9,33.1,93,97.3,30.9,4,5,4,0,2026-03-02T12:33:13.699428+05:30
Prayagraj,Uttar Pradesh,25.4358,81.8463,30.2,32,0.0,1000.2,6.75,31.0,97,99.2,34.7,0,5,4,0,2026-03-02T12:33:13.699435+05:30
Gorakhpur,Uttar Pradesh,26.7606,83.3732,27.7,48,0.0,1000.5,6.6,25.9,107,115.9,45.8,4,5,4,0,2026-03-02T12:33:13.699441+05:30
Bareilly,Uttar Pradesh,28.367,79.4304,27.0,43,0.0,990.9,5.95,31.7,128,58.6,42.0,4,5,3,0,2026-03-02T12:33:13.699447+05:30
Aligarh,Uttar Pradesh,27.8974,78.088,29.2,41,0.0,990.4,5.85,32.8,433,523.4,96.6,4,5,3,0,2026-03-02T12:33:13.699454+05:30
Moradabad,Uttar Pradesh,28.8386,78.7733,27.0,42,0.0,987.8,5.75,35.3,136,70.5,44.5,4,5,3,0,2026-03-02T12:33:13.699459+05:30
Saharanpur,Uttar Pradesh,29.9637,77.546,27.8,44,0.0,979.5,5.4,52.9,114,49.1,31.1,4,5,3,0,2026-03-02T12:33:13.699465+05:30
Jhansi,Uttar Pradesh,25.4484,78.5685,32.0,26,0.0,982.8,6.7,28.1,79,59.3,23.6,0,5,7,0,2026-03-02T12:33:16.911740+05:30
Surat,Gujarat,21.1702,72.8311,30.6,54,0.0,1011.0,7.0,23.4,142,82.2,66.1,0,0,4,1,2026-03-02T12:33:16.911770+05:30
Vadodara,Gujarat,22.3072,73.1812,33.5,35,0.0,1008.9,7.1,11.9,147,52.2,38.5,0,0,4,0,2026-03-02T12:33:16.911780+05:30
Rajkot,Gujarat,22.3039,70.8022,31.2,40,0.0,998.9,6.95,21.2,68,37.7,16.8,0,5,7,0,2026-03-02T12:33:16.911787+05:30
Thane,Maharashtra,19.2183,72.9781,30.2,54,0.0,1011.2,7.3,37.4,88,55.1,38.1,0,0,4,1,2026-03-02T12:33:16.911795+05:30
Nagpur,Maharashtra,21.1458,79.0882,32.5,31,0.0,977.2,7.7,22.7,64,25.4,19.7,0,5,7,0,2026-03-02T12:33:16.911803+05:30
Nashik,Maharashtra,19.9975,73.7898,31.9,29,0.0,949.2,7.5,28.1,89,26.2,24.3,0,5,7,0,2026-03-02T12:33:16.911809+05:30
Aurangabad,Maharashtra,19.8762,75.3433,32.5,29,0.0,947.8,8.0,21.2,73,19.0,18.2,0,5,7,0,2026-03-02T12:33:16.911816+05:30
Solapur,Maharashtra,17.6599,75.9064,32.5,41,0.0,960.1,8.2,14.0,116,40.6,40.2,0,5,7,1,2026-03-02T12:33:16.911823+05:30
Kolhapur,Maharashtra,16.705,74.2433,32.1,33,0.0,950.7,8.35,37.1,87,27.0,25.5,0,5,7,0,2026-03-02T12:33:16.911834+05:30
Goa,Goa,15.2993,74.124,30.8,52,0.0,1000.8,8.45,30.6,69,28.3,19.2,0,5,4,1,2026-03-02T12:33:16.911844+05:30
Jodhpur,Rajasthan,26.2389,73.0243,32.6,29,0.0,988.3,6.8,12.6,85,79.2,26.0,0,5,7,0,2026-03-02T12:33:16.911851+05:30
Udaipur,Rajasthan,24.5854,73.7125,30.6,28,0.0,951.5,7.4,15.5,66,28.5,16.4,0,5,7,0,2026-03-02T12:33:16.911857+05:30
Kota,Rajasthan,25.2138,75.8648,32.4,32,0.0,983.9,6.8,18.7,86,34.1,23.6,0,5,7,0,2026-03-02T12:33:16.911865+05:30
Bikaner,Rajasthan,28.0229,73.3119,32.2,24,0.0,987.2,6.5,19.4,68,49.6,23.9,0,5,7,0,2026-03-02T12:33:16.911871+05:30
Ajmer,Rajasthan,26.4499,74.6399,32.0,24,0.0,959.8,6.75,22.7,80,46.9,18.4,0,5,7,0,2026-03-02T12:33:16.911878+05:30
Gwalior,Madhya Pradesh,26.2183,78.1828,31.6,29,0.0,988.0,6.4,31.0,91,89.9,31.1,0,5,7,0,2026-03-02T12:33:16.911885+05:30
Indore,Madhya Pradesh,22.7196,75.8577,30.7,30,0.0,952.7,7.4,12.6,94,32.7,22.3,0,5,7,0,2026-03-02T12:33:16.911891+05:30
Bhopal,Madhya Pradesh,23.2599,77.4126,31.1,32,0.0,958.4,7.25,18.4,81,29.7,17.9,0,5,7,0,2026-03-02T12:33:16.911898+05:30
Jabalpur,Madhya Pradesh,23.1815,79.9864,30.9,27,0.0,966.2,7.35,19.4,70,28.8,15.3,0,5,7,0,2026-03-02T12:33:16.911905+05:30
Ujjain,Madhya Pradesh,23.1765,75.7885,30.4,36,0.0,958.6,7.3,11.5,119,34.1,22.7,0,5,7,0,2026-03-02T12:33:16.911911+05:30
Visakhapatnam,Andhra Pradesh,17.6868,83.2185,33.9,40,0.0,1005.6,8.35,41.0,151,58.4,55.6,0,5,4,1,2026-03-02T12:33:16.911918+05:30
Vijayawada,Andhra Pradesh,16.5062,80.648,32.8,48,0.0,1005.3,8.4,25.9,145,52.7,49.6,0,5,4,1,2026-03-02T12:33:16.911924+05:30
Guntur,Andhra Pradesh,16.3067,80.4365,33.6,44,0.0,1006.4,8.4,31.0,136,49.8,47.5,0,5,4,1,2026-03-02T12:33:16.911931+05:30
Nellore,Andhra Pradesh,14.4426,79.9865,34.8,30,0.0,1008.1,8.65,29.5,128,47.3,44.8,0,0,4,0,2026-03-02T12:33:16.911938+05:30
Kurnool,Andhra Pradesh,15.8281,78.0373,35.0,32,0.0,979.4,8.45,22.3,121,45.4,44.4,0,5,7,0,2026-03-02T12:33:16.911945+05:30
Kakinada,Andhra Pradesh,16.9891,82.2475,34.7,39,0.0,1009.7,8.35,30.6,148,54.4,50.4,0,0,4,1,2026-03-02T12:33:16.911952+05:30
Tirupati,Andhra Pradesh,13.6288,79.4192,33.7,29,0.0,994.0,8.75,27.7,132,42.8,40.7,0,5,7,0,2026-03-02T12:33:16.911958+05:30
Warangal,Telangana,17.9689,79.5941,32.9,47,0.0,981.8,8.15,17.3,143,52.4,50.8,0,5,7,1,2026-03-02T12:33:16.911964+05:30
Nizamabad,Telangana,18.6725,78.0941,33.1,37,0.0,968.1,8.05,27.0,128,29.8,29.3,0,5,7,1,2026-03-02T12:33:16.911970+05:30
Mysore,Karnataka,12.2958,76.6396,30.9,36,0.0,930.8,9.1,27.0,152,43.4,42.0,0,5,7,0,2026-03-02T12:33:16.911976+05:30
Mangalore,Karnataka,12.9141,74.856,27.5,80,0.0,1009.1,8.7,30.2,53,18.7,16.1,7,0,4,1,2026-03-02T12:33:16.911982+05:30
Hubli-Dharwad,Karnataka,15.3647,75.124,31.0,41,0.0,943.3,8.6,27.0,66,30.9,29.7,0,5,7,1,2026-03-02T12:33:16.911989+05:30
Belgaum,Karnataka,15.8497,74.4977,31.9,29,0.0,928.5,8.65,39.2,69,24.2,22.8,0,5,7,0,2026-03-02T12:33:20.126081+05:30
Coimbatore,Tamil Nadu,11.0168,76.9558,32.4,39,0.0,963.9,9.1,27.4,150,42.1,40.7,0,5,7,1,2026-03-02T12:33:20.126111+05:30
Madurai,Tamil Nadu,9.9252,78.1198,33.6,35,0.0,994.9,9.05,32.4,125,38.9,36.8,0,5,7,1,2026-03-02T12:33:20.126121+05:30
Trichy,Tamil Nadu,10.7905,78.7047,34.2,34,0.0,1001.7,8.95,29.9,133,40.6,38.4,0,5,4,1,2026-03-02T12:33:20.126130+05:30
Salem,Tamil Nadu,11.6643,78.146,34.4,34,0.0,979.1,9.0,31.7,134,47.5,45.5,0,5,7,1,2026-03-02T12:33:20.126138+05:30
Tirunelveli,Tamil Nadu,8.7139,77.7567,34.6,32,0.0,1005.0,9.1,39.6,140,36.4,34.5,0,5,4,0,2026-03-02T12:33:20.126145+05:30
Vellore,Tamil Nadu,12.9165,79.1325,33.8,29,0.0,986.8,8.85,34.6,144,43.8,41.7,0,5,7,0,2026-03-02T12:33:20.126153+05:30
Erode,Tamil Nadu,11.341,77.7172,35.1,33,0.0,990.6,9.0,30.2,122,41.6,39.5,0,5,10,1,2026-03-02T12:33:20.126160+05:30
Kochi,Kerala,9.9312,76.2673,27.7,78,0.0,1010.6,8.9,32.4,89,35.9,34.2,7,0,4,1,2026-03-02T12:33:20.126167+05:30
Thiruvananthapuram,Kerala,8.5241,76.9366,27.9,76,0.0,1009.8,8.9,27.0,77,26.8,25.3,7,0,4,1,2026-03-02T12:33:20.126175+05:30
Kozhikode,Kerala,11.2588,75.7804,29.3,71,0.0,1010.1,8.8,28.8,56,23.7,18.8,7,0,4,1,2026-03-02T12:33:20.126181+05:30
Thrissur,Kerala,10.5276,76.2144,31.7,59,0.0,1009.0,8.9,36.7,97,36.2,34.2,0,0,4,1,2026-03-02T12:33:20.126188+05:30
Kannur,Kerala,11.8745,75.3704,30.6,61,0.0,1009.6,8.75,33.8,52,18.6,15.6,3,0,4,1,2026-03-02T12:33:20.126195+05:30
Patna,Bihar,25.5941,85.1376,29.6,35,0.0,1003.8,7.05,29.2,129,163.4,48.3,4,5,4,0,2026-03-02T12:33:20.126203+05:30
Gaya,Bihar,24.7914,85.0002,30.5,29,0.0,997.0,7.15,27.4,129,124.8,32.8,0,5,7,0,2026-03-02T12:33:20.126209+05:30
Muzaffarpur,Bihar,26.1209,85.3647,29.6,37,0.0,1003.6,7.0,27.0,123,152.3,50.6,4,5,4,0,2026-03-02T12:33:20.126216+05:30
Bhagalpur,Bihar,25.2425,87.0117,29.3,46,0.0,1004.3,7.1,22.7,150,64.7,38.2,4,5,4,1,2026-03-02T12:33:20.126222+05:30
Ranchi,Jharkhand,23.3441,85.3096,29.6,20,0.0,940.9,7.8,42.8,93,35.2,11.7,4,5,7,0,2026-03-02T12:33:20.126229+05:30
Jamshedpur,Jharkhand,22.8046,86.2029,33.0,28,0.0,993.3,7.75,26.3,152,69.6,26.8,0,5,7,0,2026-03-02T12:33:20.126237+05:30
Dhanbad,Jharkhand,23.7957,86.4304,33.8,18,0.0,982.3,7.6,36.4,138,76.6,24.5,0,5,7,0,2026-03-02T12:33:20.126244+05:30
Bokaro,Jharkhand,23.6693,86.1511,33.5,18,0.0,986.3,7.6,40.7,142,73.6,23.9,0,5,7,0,2026-03-02T12:33:20.126250+05:30
Bhubaneswar,Odisha,20.2961,85.8245,33.8,47,0.0,1004.2,8.05,29.9,142,75.9,68.5,0,5,4,1,2026-03-02T12:33:20.126256+05:30
Cuttack,Odisha,20.4625,85.8828,34.5,46,0.0,1005.9,8.1,20.9,142,75.9,68.5,0,5,4,1,2026-03-02T12:33:20.126262+05:30
Rourkela,Odisha,22.2604,84.8536,33.4,28,0.0,987.8,7.65,27.4,145,44.9,16.1,0,5,7,0,2026-03-02T12:33:20.126268+05:30
Raipur,Chhattisgarh,21.2514,81.6296,33.2,29,0.0,978.2,7.8,24.1,101,41.9,25.3,0,5,7,0,2026-03-02T12:33:20.126274+05:30
Bhilai,Chhattisgarh,21.1938,81.3509,33.5,30,0.0,978.5,7.8,22.7,86,43.3,27.9,0,5,7,0,2026-03-02T12:33:20.126280+05:30
Guwahati,Assam,26.1158,91.7086,26.3,61,0.0,1004.6,7.0,28.4,155,72.6,53.2,7,5,4,1,2026-03-02T12:33:20.126286+05:30
Agartala,Tripura,23.8315,91.2868,29.9,58,0.0,1008.3,7.4,18.0,118,70.8,61.0,4,0,4,1,2026-03-02T12:33:20.126292+05:30
Shillong,Meghalaya,25.5788,91.8933,18.1,36,0.0,857.8,7.35,66.2,120,54.2,38.0,0,5,7,0,2026-03-02T12:33:20.126299+05:30
Imphal,Manipur,24.817,93.9368,20.8,54,0.0,925.1,7.6,72.4,150,58.3,43.3,0,5,7,0,2026-03-02T12:33:20.126306+05:30
Aizawl,Mizoram,23.7271,92.7176,23.8,50,0.0,895.5,7.45,41.8,129,67.1,59.8,0,5,7,0,2026-03-02T12:33:20.126313+05:30
Kohima,Nagaland,25.6701,94.1077,17.6,48,0.0,856.8,7.45,86.0,151,56.8,39.8,0,5,7,0,2026-03-02T12:33:20.126319+05:30
Gangtok,Sikkim,27.3314,88.6138,17.0,58,0.0,838.3,5.8,19.4,139,68.7,46.3,0,5,3,0,2026-03-02T12:33:20.126325+05:30
Siliguri,West Bengal,26.7271,88.3953,21.9,65,0.0,996.5,7.0,20.5,172,108.7,71.2,3,5,7,0,2026-03-02T12:33:23.342602+05:30
Durgapur,West Bengal,23.5204,87.3119,34.6,23,0.0,997.0,7.6,26.6,138,62.6,24.2,0,5,7,0,2026-03-02T12:33:23.342661+05:30
Asansol,West Bengal,23.6739,86.9524,34.5,24,0.0,995.8,7.6,29.2,116,69.8,23.0,0,5,7,0,2026-03-02T12:33:23.342671+05:30
Pondicherry,Puducherry,11.9139,79.8145,32.0,56,0.0,1010.9,8.8,27.7,130,53.1,48.9,0,0,4,1,2026-03-02T12:33:23.342679+05:30
Port Blair,Andaman and Nicobar Islands,11.6234,92.7265,27.6,75,0.0,1008.1,8.75,18.0,73,28.9,22.6,7,0,4,1,2026-03-02T12:33:23.342687+05:30
Haridwar,Uttarakhand,29.9457,78.1642,26.7,43,0.0,977.8,5.55,43.9,95,37.1,26.3,4,5,3,0,2026-03-02T12:33:23.342697+05:30
Rishikesh,Uttarakhand,30.0869,78.2676,26.9,42,0.0,970.2,5.6,34.2,77,31.0,19.7,4,5,3,0,2026-03-02T12:33:23.342704+05:30
Nainital,Uttarakhand,29.3919,79.4542,20.1,56,0.0,808.7,6.4,48.6,79,31.9,23.2,0,5,7,0,2026-03-02T12:33:23.342711+05:30
Mussoorie,Uttarakhand,30.4599,78.0664,19.0,48,0.0,805.4,5.9,32.8,80,31.4,21.3,0,5,3,0,2026-03-02T12:33:23.342718+05:30
Dharamshala,Himachal Pradesh,32.219,76.3234,21.5,52,0.0,872.8,6.1,27.4,57,17.4,10.7,0,5,7,0,2026-03-02T12:33:23.342725+05:30
Dalhousie,Himachal Pradesh,32.5387,75.971,21.1,30,0.0,808.4,6.35,23.8,102,34.2,22.6,0,5,7,0,2026-03-02T12:33:23.342733+05:30
Patiala,Punjab,30.3398,76.3869,27.4,50,0.0,983.2,5.55,37.1,158,249.6,60.8,4,5,3,0,2026-03-02T12:33:23.342739+05:30
Bhatinda,Punjab,30.211,74.9455,29.0,41,0.0,989.3,6.2,24.8,158,89.6,55.9,4,5,7,0,2026-03-02T12:33:23.342746+05:30
Rohtak,Haryana,28.8955,76.6066,28.7,43,0.0,987.0,5.75,33.8,227,353.0,72.4,4,5,3,0,2026-03-02T12:33:23.342753+05:30
Panipat,Haryana,29.3909,76.9635,27.6,47,0.0,985.4,5.55,34.6,583,719.0,103.8,4,5,3,0,2026-03-02T12:33:23.342760+05:30
Mathura,Uttar Pradesh,27.4924,77.6737,29.8,41,0.0,992.0,6.0,26.3,359,405.1,70.5,4,5,3,0,2026-03-02T12:33:23.342767+05:30
Vrindavan,Uttar Pradesh,27.5823,77.7027,29.4,43,0.0,992.3,6.0,29.9,359,405.1,70.5,4,5,3,0,2026-03-02T12:33:23.342773+05:30
Ayodhya,Uttar Pradesh,26.7922,82.1998,28.5,37,0.0,998.9,6.4,35.6,109,97.6,49.6,4,5,7,0,2026-03-02T12:33:23.342780+05:30
Ratlam,Madhya Pradesh,23.3315,75.0367,30.6,35,0.0,959.4,7.25,7.6,107,30.0,20.8,0,5,7,0,2026-03-02T12:33:23.342787+05:30
Sagar,Madhya Pradesh,23.8388,78.7378,30.9,27,0.0,955.0,7.2,24.5,67,25.7,15.5,0,5,7,0,2026-03-02T12:33:23.342793+05:30
Satna,Madhya Pradesh,24.6005,80.8322,32.2,19,0.0,975.9,7.15,36.7,62,47.5,17.8,0,5,7,0,2026-03-02T12:33:23.342799+05:30
Akola,Maharashtra,20.7002,77.0082,34.6,26,0.0,979.0,7.75,23.8,70,23.7,20.8,0,5,7,0,2026-03-02T12:33:23.342806+05:30
Amravati,Maharashtra,20.9374,77.7796,34.7,24,0.0,971.2,7.7,22.7,69,22.7,19.3,0,5,7,0,2026-03-02T12:33:23.342814+05:30
Latur,Maharashtra,18.4088,76.5604,32.6,30,0.0,943.2,8.15,26.3,80,30.9,30.3,0,5,7,0,2026-03-02T12:33:23.342820+05:30
Nanded,Maharashtra,19.1383,77.3091,33.7,31,0.0,972.3,7.95,18.7,78,20.7,19.9,0,5,7,0,2026-03-02T12:33:23.342826+05:30
Gulbarga,Karnataka,17.3297,76.8343,34.0,30,0.0,961.6,8.25,19.4,125,44.0,43.2,0,5,7,0,2026-03-02T12:33:23.342832+05:30
Bidar,Karnataka,17.9104,77.5199,31.3,39,0.0,938.4,8.2,17.3,152,48.4,47.6,0,5,7,0,2026-03-02T12:33:23.342838+05:30
Hospet,Karnataka,15.2689,76.3909,31.4,44,0.0,958.6,8.6,21.2,112,37.3,36.3,0,5,7,1,2026-03-02T12:33:23.342844+05:30
Tirupur,Tamil Nadu,11.1085,77.3411,33.7,34,0.0,977.2,9.1,32.0,150,42.5,40.7,0,5,7,0,2026-03-02T12:33:23.342850+05:30
Alappuzha,Kerala,9.4981,76.3388,27.7,80,0.0,1010.7,8.95,29.5,87,34.7,33.1,7,0,4,1,2026-03-02T12:33:23.342857+05:30
Munnar,Kerala,10.0889,77.0595,28.7,38,0.0,860.2,9.4,23.8,131,35.7,34.2,4,5,7,0,2026-03-02T12:33:23.342863+05:30
Silchar,Assam,24.8333,92.7789,27.8,62,0.0,1007.8,7.35,18.7,153,70.1,52.0,7,5,4,1,2026-03-02T12:33:23.342870+05:30
Dibrugarh,Assam,27.4728,94.912,23.9,65,0.0,999.1,7.05,11.9,152,100.8,70.8,3,5,7,1,2026-03-02T12:33:23.342876+05:30
