city,state,latitude,longitude,temp,humidity,rain,pressure,uv_index,wind_gusts,aqi,pm10,pm2_5,no2,co,o3,so2,mosquito_risk,arthritis_risk,migraine_risk,frizz_risk,updated_at
Delhi,Delhi,28.6139,77.209,27.7,61,0.0,977.8,7.65,33.8,241,274.7,74.3,17.3,643.0,95.0,18.7,7,5,7,1,2026-05-13T03:43:59.424923+05:30
Mumbai,Maharashtra,19.076,72.8777,29.5,82,0.0,1003.7,7.9,41.0,85,43.4,22.8,16.1,376.0,64.0,25.0,7,5,4,1,2026-05-13T03:43:59.424964+05:30
Bangalore,Karnataka,12.9716,77.5946,23.8,69,0.0,908.0,9.45,38.9,72,34.8,27.1,31.4,327.0,43.0,11.4,3,5,7,1,2026-05-13T03:43:59.424981+05:30
Hyderabad,Telangana,17.385,78.4867,27.1,69,0.0,949.7,9.3,31.7,64,14.1,10.7,8.5,192.0,53.0,3.7,7,5,7,1,2026-05-13T03:43:59.424992+05:30
Chennai,Tamil Nadu,13.0827,80.2707,28.2,80,0.0,1002.2,6.65,44.3,27,9.3,7.5,9.2,216.0,38.0,1.8,7,5,4,1,2026-05-13T03:43:59.425001+05:30
Kolkata,West Bengal,22.5726,88.3639,26.6,85,0.0,1003.3,8.95,30.2,77,21.9,18.7,12.0,218.0,36.0,4.7,7,5,4,1,2026-05-13T03:43:59.425010+05:30
Pune,Maharashtra,18.5204,73.8567,27.0,59,0.0,944.1,8.15,45.4,68,31.7,19.2,17.8,223.0,60.0,19.4,4,5,7,1,2026-05-13T03:43:59.425022+05:30
Ahmedabad,Gujarat,23.0225,72.5714,32.5,30,0.0,996.1,8.2,38.9,68,30.5,12.0,2.4,176.0,66.0,5.4,0,5,7,0,2026-05-13T03:43:59.425033+05:30
Jaipur,Rajasthan,26.9124,75.7873,30.9,29,0.0,954.5,8.2,38.5,165,259.8,64.3,7.8,414.0,96.0,9.2,0,5,7,0,2026-05-13T03:43:59.425041+05:30
Lucknow,Uttar Pradesh,26.8467,80.9462,28.0,60,0.0,989.3,8.15,56.2,123,51.6,43.5,10.5,429.0,102.0,10.6,4,5,7,1,2026-05-13T03:43:59.425050+05:30
Kanpur,Uttar Pradesh,26.4499,80.3319,29.4,54,0.0,987.2,8.15,39.6,145,256.1,59.6,8.2,438.0,106.0,10.5,4,5,7,1,2026-05-13T03:43:59.425058+05:30
Chandigarh,Chandigarh,30.7333,76.7794,22.7,67,0.0,964.0,7.7,34.6,125,49.6,36.2,36.7,702.0,14.0,5.1,3,5,7,1,2026-05-13T03:43:59.425066+05:30
Srinagar,Jammu and Kashmir,34.0837,74.7973,10.1,100,0.0,840.8,8.75,31.7,84,42.6,31.7,13.4,427.0,48.0,0.6,3,10,7,0,2026-05-13T03:43:59.425077+05:30
Jammu,Jammu and Kashmir,32.7266,74.857,21.1,64,0.0,967.7,8.45,28.1,117,36.0,31.8,15.0,258.0,38.0,0.7,3,5,7,0,2026-05-13T03:43:59.425085+05:30
Amritsar,Punjab,31.634,74.8723,25.0,51,0.0,976.0,8.4,47.5,151,112.0,71.7,15.6,627.0,65.0,7.7,4,5,7,0,2026-05-13T03:43:59.425092+05:30
Ludhiana,Punjab,30.901,75.8573,25.5,72,0.0,974.0,7.95,65.5,159,135.5,105.7,32.4,754.0,43.0,22.5,7,5,7,1,2026-05-13T03:43:59.425099+05:30
Jalandhar,Punjab,31.326,75.5762,24.7,67,0.0,974.9,8.1,48.6,153,103.8,66.4,21.0,802.0,47.0,9.2,3,5,7,1,2026-05-13T03:43:59.425106+05:30
Dehradun,Uttarakhand,30.6284,78.0322,12.6,92,0.0,825.1,8.15,32.0,70,22.9,14.9,20.5,331.0,28.0,0.0,3,10,7,0,2026-05-13T03:43:59.425115+05:30
Shimla,Himachal Pradesh,31.1048,77.1734,10.9,47,0.0,779.2,8.2,40.0,88,37.8,24.6,25.1,294.0,38.0,1.7,0,5,7,0,2026-05-13T03:43:59.425123+05:30
Manali,Himachal Pradesh,32.2396,77.1887,8.4,43,0.0,811.8,9.3,42.1,44,1.8,1.3,9.5,183.0,111.0,0.0,0,5,7,1,2026-05-13T03:43:59.425130+05:30
Gurgaon,Haryana,28.4595,77.0266,26.5,66,0.0,976.0,7.75,31.0,953,1117.6,153.2,13.2,625.0,96.0,16.6,7,5,7,1,2026-05-13T03:43:59.425138+05:30
Noida,Uttar Pradesh,28.5355,77.391,25.7,72,0.0,979.2,7.7,29.2,953,1117.6,153.2,13.2,666.0,96.0,16.6,7,5,7,1,2026-05-13T03:43:59.425145+05:30
Ghaziabad,Uttar Pradesh,28.6692,77.4538,25.7,72,0.0,977.5,7.65,28.1,154,229.1,65.2,9.6,500.0,95.0,11.9,7,5,7,1,2026-05-13T03:43:59.425152+05:30
Faridabad,Haryana,28.4089,77.3178,26.9,65,0.0,978.6,7.75,31.7,953,1117.6,153.2,13.2,631.0,96.0,16.6,7,5,7,1,2026-05-13T03:43:59.425159+05:30
Meerut,Uttar Pradesh,28.9845,77.7064,25.9,71,0.0,976.8,7.6,36.4,154,229.1,65.2,9.6,487.0,95.0,11.9,7,5,7,1,2026-05-13T03:43:59.425165+05:30
Agra,Uttar Pradesh,27.1767,78.0081,28.3,53,0.0,982.3,8.0,54.4,642,1132.5,150.4,6.0,432.0,110.0,14.4,4,5,7,1,2026-05-13T03:43:59.425173+05:30
Varanasi,Uttar Pradesh,25.3176,82.9739,28.4,70,0.0,993.5,8.7,30.6,137,68.7,59.5,10.3,423.0,123.0,16.3,7,5,7,1,2026-05-13T03:43:59.425180+05:30
Prayagraj,Uttar Pradesh,25.4358,81.8463,29.0,61,0.0,991.4,8.55,27.4,132,60.8,55.6,11.2,482.0,118.0,17.6,7,5,7,1,2026-05-13T03:43:59.425190+05:30
Gorakhpur,Uttar Pradesh,26.7606,83.3732,25.2,80,0.0,994.7,8.55,32.8,121,55.5,53.0,11.4,430.0,103.0,10.5,7,5,7,1,2026-05-13T03:43:59.425196+05:30
Bareilly,Uttar Pradesh,28.367,79.4304,26.3,70,0.0,982.6,7.95,29.9,125,74.5,50.6,11.9,432.0,87.0,7.1,7,5,7,1,2026-05-13T03:43:59.425203+05:30
Aligarh,Uttar Pradesh,27.8974,78.088,26.7,65,0.0,980.6,7.85,44.6,396,653.8,105.2,7.9,506.0,104.0,18.6,7,5,7,1,2026-05-13T03:43:59.425210+05:30
Moradabad,Uttar Pradesh,28.8386,78.7733,25.8,71,0.0,979.3,7.8,33.1,126,68.9,51.7,14.0,437.0,83.0,8.1,7,5,7,1,2026-05-13T03:43:59.425217+05:30
Saharanpur,Uttar Pradesh,29.9637,77.546,25.1,76,0.0,971.2,7.4,35.6,155,120.1,73.3,32.3,518.0,41.0,10.7,7,5,7,1,2026-05-13T03:43:59.425223+05:30
Jhansi,Uttar Pradesh,25.4484,78.5685,27.9,56,0.0,972.2,8.45,47.9,93,78.7,37.8,9.4,406.0,55.0,7.6,4,5,7,1,2026-05-13T03:44:02.692869+05:30
Surat,Gujarat,21.1702,72.8311,29.8,81,0.0,1000.5,6.2,41.8,97,30.7,21.4,25.3,269.0,36.0,34.7,7,5,4,1,2026-05-13T03:44:02.692902+05:30
Vadodara,Gujarat,22.3072,73.1812,32.0,48,0.0,997.9,5.9,36.7,73,29.2,18.3,10.5,263.0,57.0,9.3,0,5,3,1,2026-05-13T03:44:02.692913+05:30
Rajkot,Gujarat,22.3039,70.8022,27.2,79,0.0,989.0,7.75,53.3,53,24.3,11.8,4.6,158.0,63.0,6.1,7,5,7,1,2026-05-13T03:44:02.692921+05:30
Thane,Maharashtra,19.2183,72.9781,29.4,79,0.0,1003.1,7.9,35.6,85,43.4,22.8,16.1,260.0,64.0,25.0,7,5,4,1,2026-05-13T03:44:02.692930+05:30
Nagpur,Maharashtra,21.1458,79.0882,31.5,40,0.0,969.2,8.95,38.2,109,98.3,53.0,31.3,340.0,48.0,17.9,0,5,7,1,2026-05-13T03:44:02.692937+05:30
Nashik,Maharashtra,19.9975,73.7898,27.7,43,0.0,941.4,8.2,41.4,67,41.3,20.5,21.5,207.0,39.0,2.8,4,5,7,0,2026-05-13T03:44:02.692944+05:30
Aurangabad,Maharashtra,19.8762,75.3433,30.8,34,0.0,939.8,9.1,33.1,75,65.9,36.2,33.1,294.0,42.0,10.2,0,5,7,0,2026-05-13T03:44:02.692951+05:30
Solapur,Maharashtra,17.6599,75.9064,30.5,51,0.0,953.5,9.1,36.0,70,33.1,24.5,13.8,316.0,71.0,9.4,0,5,7,1,2026-05-13T03:44:02.692958+05:30
Kolhapur,Maharashtra,16.705,74.2433,24.8,86,0.0,944.3,9.0,40.7,67,33.8,21.6,15.7,170.0,40.0,4.6,3,5,7,1,2026-05-13T03:44:02.692964+05:30
Goa,Goa,15.2993,74.124,27.0,96,0.0,994.9,8.95,32.0,75,51.8,30.6,13.7,240.0,57.0,3.3,7,5,7,1,2026-05-13T03:44:02.692971+05:30
Jodhpur,Rajasthan,26.2389,73.0243,31.8,29,0.0,977.3,8.4,40.3,126,213.3,34.1,2.0,173.0,97.0,2.3,0,5,7,0,2026-05-13T03:44:02.692978+05:30
Udaipur,Rajasthan,24.5854,73.7125,31.2,28,0.0,941.8,8.85,46.1,58,31.2,14.7,2.1,180.0,95.0,2.6,0,5,7,0,2026-05-13T03:44:02.692986+05:30
Kota,Rajasthan,25.2138,75.8648,32.0,26,0.0,973.1,8.4,38.5,81,43.9,22.4,9.2,328.0,47.0,3.4,0,5,7,0,2026-05-13T03:44:02.692993+05:30
Bikaner,Rajasthan,28.0229,73.3119,28.2,54,0.0,975.4,8.35,25.2,97,121.5,42.3,2.8,247.0,100.0,6.1,4,5,7,1,2026-05-13T03:44:02.693000+05:30
Ajmer,Rajasthan,26.4499,74.6399,31.1,27,0.0,949.8,8.35,51.1,63,167.2,44.1,9.2,300.0,57.0,5.3,0,5,7,0,2026-05-13T03:44:02.693007+05:30
Gwalior,Madhya Pradesh,26.2183,78.1828,28.8,50,0.0,977.1,8.2,57.2,105,141.1,50.9,7.1,411.0,80.0,8.8,4,5,7,1,2026-05-13T03:44:02.693014+05:30
Indore,Madhya Pradesh,22.7196,75.8577,33.0,24,0.0,943.5,8.7,32.8,86,84.1,38.2,9.8,323.0,82.0,6.7,0,5,7,0,2026-05-13T03:44:02.693020+05:30
Bhopal,Madhya Pradesh,23.2599,77.4126,30.0,35,0.0,948.7,8.75,38.5,94,95.2,35.3,8.0,435.0,80.0,6.1,4,5,7,0,2026-05-13T03:44:02.693027+05:30
Jabalpur,Madhya Pradesh,23.1815,79.9864,29.2,37,0.0,956.7,8.85,36.4,100,87.8,40.5,31.7,299.0,30.0,5.9,4,5,7,0,2026-05-13T03:44:02.693033+05:30
Ujjain,Madhya Pradesh,23.1765,75.7885,32.4,25,0.0,948.8,8.65,35.6,90,66.4,37.4,11.5,394.0,52.0,6.6,0,5,7,0,2026-05-13T03:44:02.693040+05:30
Visakhapatnam,Andhra Pradesh,17.6868,83.2185,27.0,88,0.0,1000.0,9.15,40.0,64,31.3,28.1,27.8,1271.0,17.0,5.9,7,5,4,1,2026-05-13T03:44:02.693047+05:30
Vijayawada,Andhra Pradesh,16.5062,80.648,28.5,81,0.0,999.0,9.2,39.2,52,22.5,20.4,16.5,201.0,21.0,5.2,7,5,7,1,2026-05-13T03:44:02.693053+05:30
Guntur,Andhra Pradesh,16.3067,80.4365,28.2,80,0.0,1000.4,9.25,35.3,54,17.2,15.3,15.7,195.0,22.0,7.2,7,5,4,1,2026-05-13T03:44:02.693060+05:30
Nellore,Andhra Pradesh,14.4426,79.9865,26.5,90,0.0,1001.7,6.85,38.9,27,10.8,8.3,8.4,286.0,31.0,3.0,7,5,4,1,2026-05-13T03:44:02.693067+05:30
Kurnool,Andhra Pradesh,15.8281,78.0373,29.2,57,0.0,973.4,9.1,31.7,54,12.5,8.2,4.4,183.0,56.0,1.6,4,5,7,1,2026-05-13T03:44:02.693074+05:30
Kakinada,Andhra Pradesh,16.9891,82.2475,28.4,81,0.0,1003.6,9.0,39.6,22,9.4,5.6,2.0,168.0,46.0,0.8,7,5,4,1,2026-05-13T03:44:02.693081+05:30
Tirupati,Andhra Pradesh,13.6288,79.4192,25.2,89,0.0,987.0,8.65,33.8,51,24.5,22.5,32.1,290.0,0.0,4.0,7,5,7,1,2026-05-13T03:44:02.693088+05:30
Warangal,Telangana,17.9689,79.5941,27.4,76,0.0,975.0,7.9,35.3,64,12.8,11.5,9.9,181.0,43.0,10.0,7,5,7,1,2026-05-13T03:44:02.693095+05:30
Nizamabad,Telangana,18.6725,78.0941,29.5,52,0.0,960.5,9.15,31.7,75,33.2,26.4,10.9,266.0,78.0,5.9,4,5,7,1,2026-05-13T03:44:02.693102+05:30
Mysore,Karnataka,12.2958,76.6396,22.4,92,0.0,924.4,6.6,35.6,85,40.2,31.7,23.0,246.0,48.0,3.8,3,5,7,1,2026-05-13T03:44:02.693108+05:30
Mangalore,Karnataka,12.9141,74.856,25.5,96,0.0,1002.9,9.0,41.0,82,48.5,31.4,19.8,344.0,31.0,4.3,7,5,4,1,2026-05-13T03:44:02.693115+05:30
Hubli-Dharwad,Karnataka,15.3647,75.124,24.2,99,0.0,937.2,9.2,41.4,68,30.2,15.6,6.3,177.0,50.0,2.2,3,5,7,1,2026-05-13T03:44:02.693122+05:30
Belgaum,Karnataka,15.8497,74.4977,23.0,88,0.0,921.8,8.4,50.8,68,32.8,18.3,11.3,170.0,41.0,2.4,3,5,7,1,2026-05-13T03:44:05.971646+05:30
Coimbatore,Tamil Nadu,11.0168,76.9558,24.2,93,0.0,957.3,9.2,35.3,72,28.1,21.8,9.2,263.0,75.0,4.1,3,5,7,1,2026-05-13T03:44:05.971680+05:30
Madurai,Tamil Nadu,9.9252,78.1198,27.5,84,0.0,988.3,8.75,33.5,82,36.2,34.8,35.9,334.0,16.0,8.7,7,5,7,1,2026-05-13T03:44:05.971690+05:30
Trichy,Tamil Nadu,10.7905,78.7047,26.4,91,0.0,995.0,9.1,30.6,68,27.0,25.8,27.8,293.0,17.0,6.7,7,5,7,1,2026-05-13T03:44:05.971698+05:30
Salem,Tamil Nadu,11.6643,78.146,26.3,84,0.0,973.1,8.95,29.2,84,32.9,29.8,34.1,427.0,27.0,13.7,7,5,7,1,2026-05-13T03:44:05.971706+05:30
Tirunelveli,Tamil Nadu,8.7139,77.7567,27.7,75,0.0,998.2,7.75,23.0,73,16.5,15.0,7.2,354.0,59.0,1.3,7,5,7,1,2026-05-13T03:44:05.971714+05:30
Vellore,Tamil Nadu,12.9165,79.1325,25.4,89,0.0,980.2,7.7,33.1,68,33.3,31.0,31.6,370.0,7.0,13.4,7,5,7,1,2026-05-13T03:44:05.971722+05:30
Erode,Tamil Nadu,11.341,77.7172,26.8,78,0.0,984.7,9.15,27.0,92,44.7,38.8,38.5,293.0,30.0,9.2,7,5,7,1,2026-05-13T03:44:05.971729+05:30
Kochi,Kerala,9.9312,76.2673,26.6,96,0.0,1004.6,8.7,33.5,85,39.3,34.7,19.8,299.0,33.0,4.8,7,5,4,1,2026-05-13T03:44:05.971737+05:30
Thiruvananthapuram,Kerala,8.5241,76.9366,25.5,94,0.0,1004.2,8.05,33.8,61,24.4,15.2,4.3,251.0,87.0,2.6,7,5,4,1,2026-05-13T03:44:05.971744+05:30
Kozhikode,Kerala,11.2588,75.7804,24.9,98,0.0,1004.0,8.6,34.9,70,34.2,17.3,2.2,244.0,106.0,1.9,3,5,4,1,2026-05-13T03:44:05.971752+05:30
Thrissur,Kerala,10.5276,76.2144,24.7,98,0.0,1003.1,8.3,33.5,86,34.8,27.4,14.5,277.0,46.0,3.4,3,5,4,1,2026-05-13T03:44:05.971760+05:30
Kannur,Kerala,11.8745,75.3704,25.2,97,0.0,1003.3,8.6,35.3,83,42.7,32.0,30.7,213.0,31.0,3.0,7,5,4,1,2026-05-13T03:44:05.971766+05:30
Patna,Bihar,25.5941,85.1376,24.1,89,0.0,997.6,8.75,36.4,145,63.1,60.1,13.5,363.0,89.0,11.8,3,5,7,1,2026-05-13T03:44:05.971773+05:30
Gaya,Bihar,24.7914,85.0002,25.7,83,0.0,990.0,8.85,30.6,145,66.6,60.3,23.3,375.0,56.0,20.0,7,5,7,1,2026-05-13T03:44:05.971781+05:30
Muzaffarpur,Bihar,26.1209,85.3647,23.5,90,0.0,998.2,8.75,33.5,134,55.6,52.6,11.4,368.0,102.0,8.8,3,5,7,1,2026-05-13T03:44:05.971787+05:30
Bhagalpur,Bihar,25.2425,87.0117,22.5,98,0.2,998.9,8.75,32.8,130,28.9,24.2,9.7,246.0,102.0,9.5,6,5,7,1,2026-05-13T03:44:05.971794+05:30
Ranchi,Jharkhand,23.3441,85.3096,22.5,89,0.0,934.7,9.3,34.6,107,34.1,28.5,11.1,347.0,78.0,21.0,3,5,7,1,2026-05-13T03:44:05.971801+05:30
Jamshedpur,Jharkhand,22.8046,86.2029,25.6,84,0.0,987.9,9.15,27.0,96,26.7,23.5,19.5,368.0,27.0,24.7,7,5,7,1,2026-05-13T03:44:05.971807+05:30
Dhanbad,Jharkhand,23.7957,86.4304,25.3,89,0.0,976.5,9.1,25.6,149,54.4,49.7,48.3,748.0,15.0,60.5,7,5,7,1,2026-05-13T03:44:05.971814+05:30
Bokaro,Jharkhand,23.6693,86.1511,25.8,80,0.0,980.3,9.1,26.3,151,93.1,78.7,45.0,2411.0,35.0,57.4,7,5,7,1,2026-05-13T03:44:05.971822+05:30
Bhubaneswar,Odisha,20.2961,85.8245,26.4,89,0.0,999.8,9.0,38.9,53,15.8,12.7,11.3,192.0,33.0,3.1,7,5,7,1,2026-05-13T03:44:05.971828+05:30
Cuttack,Odisha,20.4625,85.8828,26.6,89,0.0,1001.7,9.05,41.8,53,15.8,12.7,11.3,226.0,33.0,3.1,7,5,4,1,2026-05-13T03:44:05.971835+05:30
Rourkela,Odisha,22.2604,84.8536,26.0,83,0.0,982.1,9.05,47.2,91,16.9,13.8,15.6,194.0,41.0,41.0,7,5,7,1,2026-05-13T03:44:05.971842+05:30
Raipur,Chhattisgarh,21.2514,81.6296,30.1,49,0.0,970.3,9.05,34.9,106,61.9,44.2,30.5,527.0,43.0,6.5,0,5,7,1,2026-05-13T03:44:05.971849+05:30
Bhilai,Chhattisgarh,21.1938,81.3509,29.4,50,0.0,970.8,9.05,37.1,100,56.2,40.3,32.0,777.0,53.0,6.8,4,5,7,1,2026-05-13T03:44:05.971855+05:30
Guwahati,Assam,26.1158,91.7086,22.5,91,0.0,1000.3,8.75,24.1,89,52.4,49.6,21.0,432.0,30.0,1.0,3,5,4,1,2026-05-13T03:44:05.971861+05:30
Agartala,Tripura,23.8315,91.2868,23.9,95,0.0,1004.6,8.9,20.9,106,21.5,19.2,10.7,314.0,59.0,2.1,3,5,4,1,2026-05-13T03:44:05.971869+05:30
Shillong,Meghalaya,25.5788,91.8933,14.3,95,0.0,853.8,6.45,25.9,70,23.7,22.2,7.4,294.0,78.0,1.7,3,10,7,0,2026-05-13T03:44:05.971876+05:30
Imphal,Manipur,24.817,93.9368,18.4,91,0.0,921.5,9.3,25.2,96,57.6,53.3,24.9,544.0,39.0,5.8,3,10,7,1,2026-05-13T03:44:05.971883+05:30
Aizawl,Mizoram,23.7271,92.7176,15.7,97,0.0,889.6,9.1,25.9,73,37.1,31.2,8.9,353.0,46.0,1.2,3,10,7,0,2026-05-13T03:44:05.971890+05:30
Kohima,Nagaland,25.6701,94.1077,13.8,98,0.0,852.0,8.65,25.9,61,26.2,23.5,9.8,291.0,43.0,0.4,3,10,7,0,2026-05-13T03:44:05.971896+05:30
Gangtok,Sikkim,27.3314,88.6138,13.2,79,0.0,833.8,8.8,33.8,60,15.9,13.6,10.9,424.0,83.0,0.9,3,5,7,0,2026-05-13T03:44:05.971902+05:30
Siliguri,West Bengal,26.7271,88.3953,21.6,98,0.0,991.9,8.65,30.2,124,63.3,56.6,29.9,390.0,61.0,5.7,3,5,7,1,2026-05-13T03:44:09.254473+05:30
Durgapur,West Bengal,23.5204,87.3119,25.6,91,0.0,992.0,9.0,35.6,111,26.4,22.4,20.8,232.0,29.0,23.5,7,5,7,1,2026-05-13T03:44:09.254506+05:30
Asansol,West Bengal,23.6739,86.9524,26.3,87,0.0,990.5,9.05,31.7,110,20.3,17.9,20.3,339.0,28.0,28.2,7,5,7,1,2026-05-13T03:44:09.254517+05:30
Pondicherry,Puducherry,11.9139,79.8145,26.6,92,0.0,1003.3,9.05,32.4,29,8.4,6.7,7.7,293.0,34.0,2.2,7,5,4,1,2026-05-13T03:44:09.254526+05:30
Port Blair,Andaman and Nicobar Islands,11.6234,92.7265,25.7,97,0.0,1003.6,6.65,39.2,22,2.6,1.7,0.3,98.0,43.0,0.1,7,5,4,1,2026-05-13T03:44:09.254534+05:30
Haridwar,Uttarakhand,29.9457,78.1642,22.9,83,0.0,969.4,7.5,29.2,151,90.8,59.6,27.7,381.0,34.0,7.2,3,5,7,1,2026-05-13T03:44:09.254543+05:30
Rishikesh,Uttarakhand,30.0869,78.2676,20.2,91,0.0,962.2,7.6,29.9,127,85.0,47.4,13.7,415.0,67.0,5.3,3,5,7,1,2026-05-13T03:44:09.254550+05:30
Nainital,Uttarakhand,29.3919,79.4542,12.0,91,0.0,801.2,8.45,52.6,117,78.0,48.4,24.0,312.0,45.0,4.5,3,10,7,0,2026-05-13T03:44:09.254558+05:30
Mussoorie,Uttarakhand,30.4599,78.0664,12.7,89,0.0,798.2,8.0,43.6,120,64.7,41.0,32.8,302.0,26.0,7.0,3,10,7,0,2026-05-13T03:44:09.254565+05:30
Dharamshala,Himachal Pradesh,32.219,76.3234,19.7,46,0.0,865.6,8.35,43.2,61,8.3,5.7,11.2,257.0,50.0,0.0,0,5,7,0,2026-05-13T03:44:09.254573+05:30
Dalhousie,Himachal Pradesh,32.5387,75.971,9.4,73,0.0,798.0,8.6,34.2,93,27.4,19.3,16.1,322.0,42.0,0.3,3,5,7,0,2026-05-13T03:44:09.254581+05:30
Patiala,Punjab,30.3398,76.3869,25.4,74,0.0,973.4,7.6,46.8,346,193.7,87.8,17.4,707.0,79.0,12.8,7,5,7,1,2026-05-13T03:44:09.254588+05:30
Bhatinda,Punjab,30.211,74.9455,27.0,62,0.0,978.2,8.25,41.4,420,204.4,79.6,10.1,471.0,80.0,13.2,7,5,7,1,2026-05-13T03:44:09.254595+05:30
Rohtak,Haryana,28.8955,76.6066,26.1,68,0.0,976.5,7.7,40.0,510,401.4,84.1,19.9,571.0,89.0,23.7,7,5,7,1,2026-05-13T03:44:09.254602+05:30
Panipat,Haryana,29.3909,76.9635,25.2,76,0.0,975.7,7.55,41.8,713,441.4,88.2,19.8,527.0,76.0,13.6,7,5,7,1,2026-05-13T03:44:09.254609+05:30
Mathura,Uttar Pradesh,27.4924,77.6737,27.0,60,0.0,981.3,7.95,62.3,585,901.5,129.0,6.7,456.0,104.0,15.2,4,5,7,1,2026-05-13T03:44:09.254616+05:30
Vrindavan,Uttar Pradesh,27.5823,77.7027,26.9,62,0.0,981.8,7.95,61.6,585,901.5,129.0,6.7,464.0,104.0,15.2,7,5,7,1,2026-05-13T03:44:09.254623+05:30
Ayodhya,Uttar Pradesh,26.7922,82.1998,26.5,74,0.0,992.0,8.3,30.6,134,46.4,43.7,9.8,469.0,111.0,9.6,7,5,7,1,2026-05-13T03:44:09.254630+05:30
Ratlam,Madhya Pradesh,23.3315,75.0367,31.5,27,0.0,949.7,8.55,39.2,68,32.9,20.4,4.9,235.0,78.0,4.9,0,5,7,0,2026-05-13T03:44:09.254638+05:30
Sagar,Madhya Pradesh,23.8388,78.7378,30.0,35,0.0,944.9,8.75,40.7,87,80.3,31.5,18.5,290.0,50.0,5.5,4,5,7,0,2026-05-13T03:44:09.254645+05:30
Satna,Madhya Pradesh,24.6005,80.8322,28.3,47,0.0,966.5,8.8,48.2,106,53.2,41.1,8.8,390.0,117.0,13.6,4,5,7,0,2026-05-13T03:44:09.254652+05:30
Akola,Maharashtra,20.7002,77.0082,33.7,33,0.0,969.8,8.9,32.4,83,85.2,41.1,28.7,274.0,42.0,5.5,0,5,7,0,2026-05-13T03:44:09.254660+05:30
Amravati,Maharashtra,20.9374,77.7796,31.9,39,0.0,963.1,8.95,27.7,85,81.3,42.3,32.6,300.0,43.0,7.3,0,5,7,1,2026-05-13T03:44:09.254668+05:30
Latur,Maharashtra,18.4088,76.5604,30.2,43,0.0,936.3,8.4,32.0,70,34.0,23.2,9.1,288.0,96.0,5.6,0,5,7,1,2026-05-13T03:44:09.254675+05:30
Nanded,Maharashtra,19.1383,77.3091,31.0,47,0.0,964.4,8.2,28.4,71,36.4,25.8,10.2,285.0,80.0,5.4,0,5,7,1,2026-05-13T03:44:09.254682+05:30
Gulbarga,Karnataka,17.3297,76.8343,29.5,48,0.0,955.1,9.0,27.7,68,29.4,20.4,12.6,250.0,74.0,8.2,4,5,7,1,2026-05-13T03:44:09.254688+05:30
Bidar,Karnataka,17.9104,77.5199,27.7,56,0.0,931.9,9.15,33.8,72,31.8,25.4,11.9,244.0,79.0,7.8,4,5,7,1,2026-05-13T03:44:09.254694+05:30
Hospet,Karnataka,15.2689,76.3909,26.6,77,0.0,952.4,9.1,44.3,76,35.6,26.5,23.4,244.0,42.0,6.3,7,5,7,1,2026-05-13T03:44:09.254701+05:30
Tirupur,Tamil Nadu,11.1085,77.3411,25.8,86,0.0,970.8,9.25,38.2,91,42.5,36.7,32.1,207.0,43.0,7.5,7,5,7,1,2026-05-13T03:44:09.254708+05:30
Alappuzha,Kerala,9.4981,76.3388,26.8,91,0.1,1004.8,7.85,33.5,75,39.8,26.7,10.3,202.0,68.0,4.0,10,5,4,1,2026-05-13T03:44:09.254715+05:30
Munnar,Kerala,10.0889,77.0595,16.8,79,0.0,852.5,9.15,27.0,72,27.4,24.3,9.9,263.0,40.0,0.4,3,5,7,0,2026-05-13T03:44:09.254722+05:30
Silchar,Assam,24.8333,92.7789,23.2,88,0.0,1003.5,8.9,23.0,105,66.1,60.8,22.8,537.0,58.0,8.2,3,5,4,1,2026-05-13T03:44:09.254729+05:30
Dibrugarh,Assam,27.4728,94.912,22.5,87,0.0,994.8,8.85,23.4,82,35.6,32.9,28.3,506.0,18.0,1.3,3,5,7,1,2026-05-13T03:44:09.254735+05:30
