city,state,latitude,longitude,temp,humidity,rain,pressure,uv_index,wind_gusts,aqi,pm10,pm2_5,mosquito_risk,arthritis_risk,migraine_risk,frizz_risk,updated_at
Delhi,Delhi,28.6139,77.209,22.6,58,0.0,984.9,5.75,29.2,374,814.0,125.7,0,5,3,0,2026-03-13T22:14:46.721662+05:30
Mumbai,Maharashtra,19.076,72.8777,29.3,67,0.0,1008.3,7.65,23.8,209,28.4,23.2,7,0,4,1,2026-03-13T22:14:46.721702+05:30
Bangalore,Karnataka,12.9716,77.5946,24.3,54,0.0,912.9,9.3,28.8,106,41.6,37.5,0,5,7,0,2026-03-13T22:14:46.721717+05:30
Hyderabad,Telangana,17.385,78.4867,26.8,41,0.0,953.9,8.65,19.1,154,37.7,29.9,4,5,7,0,2026-03-13T22:14:46.721728+05:30
Chennai,Tamil Nadu,13.0827,80.2707,26.7,83,0.0,1009.3,9.05,32.4,60,19.7,15.4,7,0,4,1,2026-03-13T22:14:46.721736+05:30
Kolkata,West Bengal,22.5726,88.3639,26.0,89,0.0,1007.0,8.0,29.2,117,28.3,24.5,7,5,4,1,2026-03-13T22:14:46.721745+05:30
Pune,Maharashtra,18.5204,73.8567,27.1,51,0.0,949.1,8.2,36.0,150,43.8,42.4,4,5,7,1,2026-03-13T22:14:46.721757+05:30
Ahmedabad,Gujarat,23.0225,72.5714,28.2,44,0.0,1002.3,7.45,22.3,109,60.1,43.9,4,5,4,0,2026-03-13T22:14:46.721764+05:30
Jaipur,Rajasthan,26.9124,75.7873,25.9,34,0.0,961.2,6.95,23.8,116,233.3,49.6,4,5,7,0,2026-03-13T22:14:46.721771+05:30
Lucknow,Uttar Pradesh,26.8467,80.9462,25.6,57,0.0,994.4,6.05,28.4,163,215.1,64.5,4,5,7,1,2026-03-13T22:14:46.721779+05:30
Kanpur,Uttar Pradesh,26.4499,80.3319,24.4,65,0.0,992.4,6.35,18.7,228,325.0,73.6,3,5,7,1,2026-03-13T22:14:46.721786+05:30
Chandigarh,Chandigarh,30.7333,76.7794,19.5,71,0.0,969.9,5.35,29.5,78,28.2,25.6,3,5,3,0,2026-03-13T22:14:46.721795+05:30
Srinagar,Jammu and Kashmir,34.0837,74.7973,7.9,79,0.0,839.9,6.75,15.1,77,68.2,52.9,3,5,7,0,2026-03-13T22:14:46.721802+05:30
Jammu,Jammu and Kashmir,32.7266,74.857,20.9,57,0.0,974.1,6.45,24.8,71,42.4,36.2,0,5,7,0,2026-03-13T22:14:46.721809+05:30
Amritsar,Punjab,31.634,74.8723,20.3,62,0.0,982.8,5.85,25.6,87,34.1,27.2,3,5,3,0,2026-03-13T22:14:46.721816+05:30
Ludhiana,Punjab,30.901,75.8573,21.0,67,0.0,980.7,5.7,27.7,99,36.2,28.1,3,5,3,0,2026-03-13T22:14:46.721822+05:30
Jalandhar,Punjab,31.326,75.5762,20.6,63,0.0,981.8,5.7,25.6,97,45.8,29.8,3,5,3,0,2026-03-13T22:14:46.721831+05:30
Dehradun,Uttarakhand,30.6284,78.0322,13.8,72,0.0,829.4,5.7,28.8,66,43.2,25.3,3,5,3,0,2026-03-13T22:14:46.721838+05:30
Shimla,Himachal Pradesh,31.1048,77.1734,10.9,69,0.0,783.0,5.15,39.2,61,31.0,21.9,3,5,3,0,2026-03-13T22:14:46.721845+05:30
Manali,Himachal Pradesh,32.2396,77.1887,12.4,32,0.0,819.6,8.05,38.5,74,28.0,12.4,0,5,7,1,2026-03-13T22:14:46.721851+05:30
Gurgaon,Haryana,28.4595,77.0266,20.1,67,0.0,983.2,6.15,28.1,1182,1944.6,233.3,3,5,7,0,2026-03-13T22:14:46.721858+05:30
Noida,Uttar Pradesh,28.5355,77.391,22.4,59,0.0,986.4,5.95,28.8,1182,1944.6,233.3,0,5,3,0,2026-03-13T22:14:46.721865+05:30
Ghaziabad,Uttar Pradesh,28.6692,77.4538,21.6,64,0.0,984.4,5.75,27.7,191,642.6,106.2,3,5,3,0,2026-03-13T22:14:46.721872+05:30
Faridabad,Haryana,28.4089,77.3178,20.9,59,0.0,985.6,6.2,27.7,1182,1944.6,233.3,0,5,7,0,2026-03-13T22:14:46.721880+05:30
Meerut,Uttar Pradesh,28.9845,77.7064,19.7,70,0.0,982.9,4.85,27.7,191,642.6,106.2,3,5,3,0,2026-03-13T22:14:46.721887+05:30
Agra,Uttar Pradesh,27.1767,78.0081,22.5,49,0.0,989.1,6.25,24.8,556,957.4,124.8,0,5,7,0,2026-03-13T22:14:46.721894+05:30
Varanasi,Uttar Pradesh,25.3176,82.9739,23.6,60,0.0,998.4,7.35,25.2,127,146.7,60.5,0,5,7,0,2026-03-13T22:14:46.721903+05:30
Prayagraj,Uttar Pradesh,25.4358,81.8463,25.6,56,0.0,996.7,7.1,21.6,150,120.1,51.7,4,5,7,1,2026-03-13T22:14:46.721910+05:30
Gorakhpur,Uttar Pradesh,26.7606,83.3732,23.5,66,0.0,997.3,7.05,28.4,181,62.4,44.2,3,5,7,1,2026-03-13T22:14:46.721916+05:30
Bareilly,Uttar Pradesh,28.367,79.4304,20.7,66,0.0,987.6,6.35,26.6,148,66.1,39.6,3,5,7,0,2026-03-13T22:14:46.721923+05:30
Aligarh,Uttar Pradesh,27.8974,78.088,19.6,60,0.0,987.2,5.9,28.8,593,1113.9,161.6,0,5,3,0,2026-03-13T22:14:46.721929+05:30
Moradabad,Uttar Pradesh,28.8386,78.7733,21.1,65,0.0,984.7,5.75,27.4,142,167.2,50.8,3,5,3,0,2026-03-13T22:14:46.721935+05:30
Saharanpur,Uttar Pradesh,29.9637,77.546,19.9,70,0.0,976.6,4.95,27.4,133,136.9,47.1,3,5,3,0,2026-03-13T22:14:46.721943+05:30
Jhansi,Uttar Pradesh,25.4484,78.5685,25.6,57,0.0,978.9,6.75,20.9,70,87.1,38.1,4,5,7,1,2026-03-13T22:14:49.944763+05:30
Surat,Gujarat,21.1702,72.8311,26.9,64,0.0,1006.5,7.35,23.8,146,73.8,68.5,7,5,4,1,2026-03-13T22:14:49.944790+05:30
Vadodara,Gujarat,22.3072,73.1812,30.5,33,0.0,1004.0,7.5,23.8,129,68.7,58.2,0,5,4,0,2026-03-13T22:14:49.944800+05:30
Rajkot,Gujarat,22.3039,70.8022,27.4,33,0.0,995.4,7.3,29.5,89,50.4,23.2,4,5,7,0,2026-03-13T22:14:49.944808+05:30
Thane,Maharashtra,19.2183,72.9781,28.5,55,0.0,1007.6,7.65,38.2,209,28.4,23.2,4,5,4,1,2026-03-13T22:14:49.944815+05:30
Nagpur,Maharashtra,21.1458,79.0882,26.0,46,0.0,973.0,8.05,19.4,110,53.0,48.7,4,5,7,0,2026-03-13T22:14:49.944822+05:30
Nashik,Maharashtra,19.9975,73.7898,26.7,41,0.0,946.4,7.85,34.9,143,29.8,27.6,4,5,7,0,2026-03-13T22:14:49.944829+05:30
Aurangabad,Maharashtra,19.8762,75.3433,26.7,44,0.0,944.4,8.35,29.5,142,35.7,34.0,4,5,7,0,2026-03-13T22:14:49.944836+05:30
Solapur,Maharashtra,17.6599,75.9064,27.9,44,0.0,956.8,8.6,24.1,146,47.8,42.3,4,5,7,0,2026-03-13T22:14:49.944843+05:30
Kolhapur,Maharashtra,16.705,74.2433,24.3,84,0.0,948.5,8.7,47.9,151,51.1,49.7,3,5,7,1,2026-03-13T22:14:49.944849+05:30
Goa,Goa,15.2993,74.124,28.0,82,0.0,998.7,8.7,31.3,133,53.1,48.3,7,5,7,1,2026-03-13T22:14:49.944856+05:30
Jodhpur,Rajasthan,26.2389,73.0243,28.0,39,0.0,983.4,6.8,18.7,87,156.0,36.4,4,5,7,0,2026-03-13T22:14:49.944862+05:30
Udaipur,Rajasthan,24.5854,73.7125,25.0,28,0.0,947.6,7.8,30.2,91,30.6,17.5,4,5,7,0,2026-03-13T22:14:49.944869+05:30
Kota,Rajasthan,25.2138,75.8648,26.9,41,0.0,978.8,7.1,17.6,86,38.8,19.2,4,5,7,0,2026-03-13T22:14:49.944875+05:30
Bikaner,Rajasthan,28.0229,73.3119,27.4,31,0.0,983.0,6.75,24.8,85,20.8,15.5,4,5,7,0,2026-03-13T22:14:49.944881+05:30
Ajmer,Rajasthan,26.4499,74.6399,24.4,35,0.0,955.3,7.05,22.0,76,80.6,32.8,0,5,7,0,2026-03-13T22:14:49.944888+05:30
Gwalior,Madhya Pradesh,26.2183,78.1828,25.8,66,0.0,984.3,6.8,21.2,99,181.6,52.5,7,5,7,1,2026-03-13T22:14:49.944894+05:30
Indore,Madhya Pradesh,22.7196,75.8577,23.5,38,0.0,948.6,7.75,32.4,85,43.1,39.1,0,5,7,0,2026-03-13T22:14:49.944900+05:30
Bhopal,Madhya Pradesh,23.2599,77.4126,25.2,30,0.0,954.1,7.55,31.0,93,22.1,21.5,4,5,7,0,2026-03-13T22:14:49.944907+05:30
Jabalpur,Madhya Pradesh,23.1815,79.9864,26.2,48,0.0,962.1,7.75,20.2,111,27.1,26.1,4,5,7,0,2026-03-13T22:14:49.944913+05:30
Ujjain,Madhya Pradesh,23.1765,75.7885,23.3,40,0.0,954.4,7.65,26.3,72,49.1,43.8,0,5,7,0,2026-03-13T22:14:49.944920+05:30
Visakhapatnam,Andhra Pradesh,17.6868,83.2185,26.1,84,0.0,1006.1,8.65,40.3,82,20.8,17.3,7,5,4,1,2026-03-13T22:14:49.944927+05:30
Vijayawada,Andhra Pradesh,16.5062,80.648,25.9,86,0.0,1004.7,8.75,31.3,86,16.2,14.2,7,5,4,1,2026-03-13T22:14:49.944933+05:30
Guntur,Andhra Pradesh,16.3067,80.4365,25.6,88,0.0,1005.7,8.75,33.8,81,15.1,13.2,7,5,4,1,2026-03-13T22:14:49.944940+05:30
Nellore,Andhra Pradesh,14.4426,79.9865,25.9,90,0.0,1007.8,8.9,30.2,71,15.0,11.8,7,5,4,1,2026-03-13T22:14:49.944947+05:30
Kurnool,Andhra Pradesh,15.8281,78.0373,30.5,33,0.0,977.4,8.7,23.8,151,56.0,46.6,0,5,7,0,2026-03-13T22:14:49.944954+05:30
Kakinada,Andhra Pradesh,16.9891,82.2475,25.0,90,0.0,1010.0,8.65,34.6,72,15.7,11.8,7,0,4,1,2026-03-13T22:14:49.944960+05:30
Tirupati,Andhra Pradesh,13.6288,79.4192,26.6,71,0.0,993.8,9.05,33.5,91,22.4,20.4,7,5,7,1,2026-03-13T22:14:49.944966+05:30
Warangal,Telangana,17.9689,79.5941,26.3,64,0.0,979.0,8.5,28.8,123,46.1,40.0,7,5,7,1,2026-03-13T22:14:49.944973+05:30
Nizamabad,Telangana,18.6725,78.0941,26.0,45,0.0,964.7,8.4,19.1,145,65.7,55.4,4,5,7,0,2026-03-13T22:14:49.944979+05:30
Mysore,Karnataka,12.2958,76.6396,25.1,48,0.0,929.0,9.3,29.9,112,39.7,35.9,4,5,7,0,2026-03-13T22:14:49.944985+05:30
Mangalore,Karnataka,12.9141,74.856,29.0,82,0.0,1007.8,8.95,23.0,115,46.2,39.7,7,5,4,1,2026-03-13T22:14:49.944991+05:30
Hubli-Dharwad,Karnataka,15.3647,75.124,25.8,68,0.0,941.4,8.9,29.2,146,34.9,32.0,7,5,7,1,2026-03-13T22:14:49.944997+05:30
Belgaum,Karnataka,15.8497,74.4977,24.2,84,0.0,926.5,8.95,41.0,137,50.9,48.7,3,5,7,1,2026-03-13T22:14:53.472025+05:30
Coimbatore,Tamil Nadu,11.0168,76.9558,24.1,83,0.0,963.3,9.3,42.8,89,38.0,33.1,3,5,7,1,2026-03-13T22:14:53.472058+05:30
Madurai,Tamil Nadu,9.9252,78.1198,27.4,62,0.0,994.7,9.25,26.6,79,21.4,19.6,7,5,7,1,2026-03-13T22:14:53.472070+05:30
Trichy,Tamil Nadu,10.7905,78.7047,26.5,79,0.0,1001.5,9.15,23.0,81,21.2,19.9,7,5,4,1,2026-03-13T22:14:53.472079+05:30
Salem,Tamil Nadu,11.6643,78.146,26.7,65,0.0,978.5,9.2,24.8,109,42.5,37.5,7,5,7,1,2026-03-13T22:14:53.472088+05:30
Tirunelveli,Tamil Nadu,8.7139,77.7567,26.6,73,0.0,1005.0,9.2,29.9,62,16.2,14.6,7,5,4,1,2026-03-13T22:14:53.472136+05:30
Vellore,Tamil Nadu,12.9165,79.1325,25.4,77,0.0,986.7,9.1,33.1,105,30.9,28.7,7,5,7,1,2026-03-13T22:14:53.472147+05:30
Erode,Tamil Nadu,11.341,77.7172,28.4,59,0.0,990.1,9.15,23.8,86,30.5,27.1,4,5,7,1,2026-03-13T22:14:53.472156+05:30
Kochi,Kerala,9.9312,76.2673,28.1,81,0.0,1010.2,9.1,33.8,120,31.4,29.6,7,0,4,1,2026-03-13T22:14:53.472164+05:30
Thiruvananthapuram,Kerala,8.5241,76.9366,27.6,82,0.0,1009.6,9.1,24.1,89,20.8,16.1,7,0,4,1,2026-03-13T22:14:53.472173+05:30
Kozhikode,Kerala,11.2588,75.7804,28.4,82,0.0,1009.2,9.0,29.9,92,29.3,25.5,7,0,4,1,2026-03-13T22:14:53.472180+05:30
Thrissur,Kerala,10.5276,76.2144,27.6,84,0.0,1008.4,9.05,37.1,103,25.8,23.6,7,0,4,1,2026-03-13T22:14:53.472187+05:30
Kannur,Kerala,11.8745,75.3704,28.8,81,0.0,1008.1,9.0,28.1,105,38.6,33.4,7,0,4,1,2026-03-13T22:14:53.472193+05:30
Patna,Bihar,25.5941,85.1376,26.0,61,0.0,1000.7,7.5,23.0,176,145.8,60.3,7,5,4,1,2026-03-13T22:14:53.472199+05:30
Gaya,Bihar,24.7914,85.0002,27.0,50,0.0,994.8,7.6,19.4,147,178.3,60.3,4,5,7,0,2026-03-13T22:14:53.472205+05:30
Muzaffarpur,Bihar,26.1209,85.3647,25.1,76,0.0,1000.7,7.45,24.8,177,166.2,94.1,7,5,4,1,2026-03-13T22:14:53.472211+05:30
Bhagalpur,Bihar,25.2425,87.0117,26.5,73,0.0,1001.6,7.5,26.6,165,182.1,98.7,7,5,4,1,2026-03-13T22:14:53.472217+05:30
Ranchi,Jharkhand,23.3441,85.3096,23.3,36,0.0,938.7,8.2,26.3,91,33.5,22.6,0,5,7,0,2026-03-13T22:14:53.472224+05:30
Jamshedpur,Jharkhand,22.8046,86.2029,27.8,53,0.0,991.1,8.05,16.6,151,64.5,46.1,4,5,7,1,2026-03-13T22:14:53.472230+05:30
Dhanbad,Jharkhand,23.7957,86.4304,26.7,40,0.0,980.4,7.95,26.3,164,95.2,58.3,4,5,7,0,2026-03-13T22:14:53.472237+05:30
Bokaro,Jharkhand,23.6693,86.1511,27.3,42,0.0,984.9,7.95,26.6,150,88.9,57.2,4,5,7,0,2026-03-13T22:14:53.472243+05:30
Bhubaneswar,Odisha,20.2961,85.8245,26.0,86,0.0,1004.6,8.4,33.5,94,23.7,20.7,7,5,4,1,2026-03-13T22:14:53.472249+05:30
Cuttack,Odisha,20.4625,85.8828,26.1,86,0.0,1006.3,8.4,28.1,94,23.7,20.7,7,5,4,1,2026-03-13T22:14:53.472256+05:30
Rourkela,Odisha,22.2604,84.8536,25.1,59,0.0,985.3,8.0,19.4,118,61.2,38.8,4,5,7,1,2026-03-13T22:14:53.472262+05:30
Raipur,Chhattisgarh,21.2514,81.6296,27.6,38,0.0,974.7,8.15,18.0,135,48.3,42.6,4,5,7,0,2026-03-13T22:14:53.472268+05:30
Bhilai,Chhattisgarh,21.1938,81.3509,27.1,39,0.0,975.0,8.15,14.8,124,48.3,42.8,4,5,7,0,2026-03-13T22:14:53.472274+05:30
Guwahati,Assam,26.1158,91.7086,22.3,92,0.0,1003.5,6.6,29.9,146,33.2,26.8,3,5,4,1,2026-03-13T22:14:53.472279+05:30
Agartala,Tripura,23.8315,91.2868,22.5,91,0.0,1008.6,7.6,32.8,118,30.0,27.3,3,0,4,1,2026-03-13T22:14:53.472286+05:30
Shillong,Meghalaya,25.5788,91.8933,13.4,90,0.0,856.0,7.0,54.7,110,21.1,16.2,3,10,7,0,2026-03-13T22:14:53.472292+05:30
Imphal,Manipur,24.817,93.9368,16.4,94,0.0,924.8,7.3,61.2,157,71.2,64.5,3,10,7,0,2026-03-13T22:14:53.472298+05:30
Aizawl,Mizoram,23.7271,92.7176,17.6,87,0.0,894.1,7.15,76.0,143,39.9,35.9,3,10,7,0,2026-03-13T22:14:53.472304+05:30
Kohima,Nagaland,25.6701,94.1077,14.4,82,0.0,855.0,6.25,82.8,131,26.0,23.8,3,10,7,0,2026-03-13T22:14:53.472310+05:30
Gangtok,Sikkim,27.3314,88.6138,14.0,95,0.0,836.4,5.15,15.8,94,27.1,26.1,3,10,3,0,2026-03-13T22:14:53.472316+05:30
Siliguri,West Bengal,26.7271,88.3953,19.2,91,0.0,995.2,7.3,29.5,148,48.8,44.0,3,10,7,1,2026-03-13T22:14:56.760007+05:30
Durgapur,West Bengal,23.5204,87.3119,28.1,46,0.0,995.8,7.95,26.3,160,100.1,71.2,4,5,7,0,2026-03-13T22:14:56.760036+05:30
Asansol,West Bengal,23.6739,86.9524,28.5,44,0.0,994.2,7.95,23.4,160,81.0,45.5,4,5,7,0,2026-03-13T22:14:56.760046+05:30
Pondicherry,Puducherry,11.9139,79.8145,25.0,92,0.0,1010.5,9.0,27.7,58,19.0,14.5,7,0,4,1,2026-03-13T22:14:56.760054+05:30
Port Blair,Andaman and Nicobar Islands,11.6234,92.7265,28.0,80,0.0,1008.9,8.95,21.6,64,11.7,9.0,7,0,4,1,2026-03-13T22:14:56.760062+05:30
Haridwar,Uttarakhand,29.9457,78.1642,20.2,74,0.0,975.1,5.6,29.5,86,94.3,43.1,3,5,3,0,2026-03-13T22:14:56.760070+05:30
Rishikesh,Uttarakhand,30.0869,78.2676,19.2,75,0.0,967.7,5.8,30.2,73,43.3,27.0,3,5,3,0,2026-03-13T22:14:56.760077+05:30
Nainital,Uttarakhand,29.3919,79.4542,17.7,36,0.0,806.0,6.55,44.3,93,37.6,27.6,0,5,7,0,2026-03-13T22:14:56.760085+05:30
Mussoorie,Uttarakhand,30.4599,78.0664,15.6,59,0.0,802.4,5.75,30.6,72,56.1,42.5,0,5,3,0,2026-03-13T22:14:56.760120+05:30
Dharamshala,Himachal Pradesh,32.219,76.3234,18.9,42,0.0,869.8,6.0,24.8,70,25.8,17.8,0,5,3,0,2026-03-13T22:14:56.760133+05:30
Dalhousie,Himachal Pradesh,32.5387,75.971,14.7,49,0.0,803.4,6.4,31.0,66,41.1,33.5,0,5,7,0,2026-03-13T22:14:56.760141+05:30
Patiala,Punjab,30.3398,76.3869,19.1,77,0.0,979.8,5.2,27.0,380,475.9,68.9,3,5,3,0,2026-03-13T22:14:56.760148+05:30
Bhatinda,Punjab,30.211,74.9455,21.5,68,0.0,985.9,6.25,27.7,112,51.0,43.5,3,5,7,0,2026-03-13T22:14:56.760155+05:30
Rohtak,Haryana,28.8955,76.6066,20.1,72,0.0,983.7,5.3,26.6,549,923.9,134.1,3,5,3,0,2026-03-13T22:14:56.760162+05:30
Panipat,Haryana,29.3909,76.9635,19.1,76,0.0,982.1,4.9,24.8,1021,1333.7,168.1,3,5,3,0,2026-03-13T22:14:56.760169+05:30
Mathura,Uttar Pradesh,27.4924,77.6737,21.6,52,0.0,988.5,5.65,25.6,679,1307.6,163.0,0,5,3,0,2026-03-13T22:14:56.760176+05:30
Vrindavan,Uttar Pradesh,27.5823,77.7027,20.2,57,0.0,989.0,5.75,28.8,679,1307.6,163.0,0,5,3,0,2026-03-13T22:14:56.760182+05:30
Ayodhya,Uttar Pradesh,26.7922,82.1998,23.4,62,0.0,996.0,6.35,30.2,156,76.4,45.5,3,5,7,0,2026-03-13T22:14:56.760189+05:30
Ratlam,Madhya Pradesh,23.3315,75.0367,27.2,37,0.0,955.4,7.6,30.6,102,25.8,23.3,4,5,7,0,2026-03-13T22:14:56.760195+05:30
Sagar,Madhya Pradesh,23.8388,78.7378,27.2,32,0.0,951.1,7.6,29.2,100,14.6,13.9,4,5,7,0,2026-03-13T22:14:56.760202+05:30
Satna,Madhya Pradesh,24.6005,80.8322,25.7,31,0.0,972.5,7.2,29.9,86,32.7,15.9,4,5,7,0,2026-03-13T22:14:56.760208+05:30
Akola,Maharashtra,20.7002,77.0082,28.3,41,0.0,975.0,8.05,24.8,146,40.7,37.1,4,5,7,0,2026-03-13T22:14:56.760215+05:30
Amravati,Maharashtra,20.9374,77.7796,28.2,37,0.0,967.3,8.0,15.1,146,42.5,37.5,4,5,7,0,2026-03-13T22:14:56.760221+05:30
Latur,Maharashtra,18.4088,76.5604,26.4,51,0.0,940.0,8.5,21.2,144,40.3,36.4,4,5,7,0,2026-03-13T22:14:56.760228+05:30
Nanded,Maharashtra,19.1383,77.3091,29.9,35,0.0,968.5,8.25,21.6,152,65.0,57.9,4,5,7,0,2026-03-13T22:14:56.760234+05:30
Gulbarga,Karnataka,17.3297,76.8343,29.7,41,0.0,958.9,8.6,32.0,155,40.3,34.5,4,5,7,0,2026-03-13T22:14:56.760240+05:30
Bidar,Karnataka,17.9104,77.5199,27.5,38,0.0,935.7,8.55,26.6,145,47.8,39.2,4,5,7,0,2026-03-13T22:14:56.760246+05:30
Hospet,Karnataka,15.2689,76.3909,30.1,46,0.0,956.0,8.9,24.1,155,43.1,36.9,0,5,7,1,2026-03-13T22:14:56.760252+05:30
Tirupur,Tamil Nadu,11.1085,77.3411,28.5,48,0.0,976.7,9.3,30.6,93,38.6,34.0,4,5,7,1,2026-03-13T22:14:56.760259+05:30
Alappuzha,Kerala,9.4981,76.3388,27.9,81,0.0,1010.5,9.1,28.1,119,25.5,22.4,7,0,4,1,2026-03-13T22:14:56.760265+05:30
Munnar,Kerala,10.0889,77.0595,21.9,78,0.0,858.0,9.55,24.5,73,28.9,26.5,3,5,7,1,2026-03-13T22:14:56.760272+05:30
Silchar,Assam,24.8333,92.7789,21.1,93,0.0,1008.8,7.75,42.8,160,45.9,39.0,3,0,4,1,2026-03-13T22:14:56.760279+05:30
Dibrugarh,Assam,27.4728,94.912,20.7,87,0.0,997.1,5.5,25.2,142,50.6,46.0,3,5,3,1,2026-03-13T22:14:56.760285+05:30
