city,state,latitude,longitude,temp,humidity,rain,pressure,uv_index,wind_gusts,aqi,pm10,pm2_5,no2,co,o3,so2,mosquito_risk,arthritis_risk,migraine_risk,frizz_risk,updated_at
Delhi,Delhi,28.6139,77.209,27.4,51,0.0,983.9,7.55,47.9,431,452.6,74.7,14.5,572.0,153.0,19.8,4,5,7,1,2026-05-07T19:50:49.070444+05:30
Mumbai,Maharashtra,19.076,72.8777,29.7,79,0.0,1005.9,7.85,43.9,96,86.1,29.1,12.7,254.0,76.0,12.0,7,5,4,1,2026-05-07T19:50:49.070491+05:30
Bangalore,Karnataka,12.9716,77.5946,28.6,47,0.1,910.7,9.5,29.5,74,27.2,24.9,30.1,399.0,66.0,10.3,7,5,7,1,2026-05-07T19:50:49.070508+05:30
Hyderabad,Telangana,17.385,78.4867,32.2,37,0.0,953.1,9.25,33.1,95,26.4,18.9,9.4,286.0,108.0,5.9,0,5,7,0,2026-05-07T19:50:49.070519+05:30
Chennai,Tamil Nadu,13.0827,80.2707,29.8,72,0.0,1006.0,9.25,39.2,30,6.5,4.6,4.1,134.0,41.0,3.9,7,5,4,1,2026-05-07T19:50:49.070529+05:30
Kolkata,West Bengal,22.5726,88.3639,26.9,85,0.0,1007.7,8.9,37.8,86,36.8,34.7,17.0,564.0,59.0,12.9,7,5,4,1,2026-05-07T19:50:49.070539+05:30
Pune,Maharashtra,18.5204,73.8567,32.0,35,0.0,946.3,8.45,41.4,137,59.8,28.9,7.3,301.0,151.0,11.7,0,5,7,0,2026-05-07T19:50:49.070547+05:30
Ahmedabad,Gujarat,23.0225,72.5714,39.4,13,0.0,998.6,8.05,27.7,101,79.2,34.9,33.7,328.0,93.0,12.3,0,5,10,0,2026-05-07T19:50:49.070559+05:30
Jaipur,Rajasthan,26.9124,75.7873,27.6,42,0.0,958.7,8.1,62.6,115,154.6,37.0,19.2,508.0,99.0,5.9,4,5,7,0,2026-05-07T19:50:49.070568+05:30
Lucknow,Uttar Pradesh,26.8467,80.9462,25.9,66,0.0,995.8,8.05,32.4,161,74.0,43.4,12.4,397.0,127.0,11.6,7,5,7,1,2026-05-07T19:50:49.070577+05:30
Kanpur,Uttar Pradesh,26.4499,80.3319,27.0,50,0.0,993.6,8.05,38.9,161,272.9,52.9,9.4,296.0,133.0,8.8,4,5,7,0,2026-05-07T19:50:49.070587+05:30
Chandigarh,Chandigarh,30.7333,76.7794,24.8,51,0.0,970.1,5.9,46.8,169,87.5,38.2,22.3,696.0,126.0,6.9,0,5,3,0,2026-05-07T19:50:49.070595+05:30
Srinagar,Jammu and Kashmir,34.0837,74.7973,17.2,62,0.0,838.9,8.7,33.5,95,36.8,20.3,24.4,1151.0,84.0,5.2,3,5,7,0,2026-05-07T19:50:49.070604+05:30
Jammu,Jammu and Kashmir,32.7266,74.857,27.3,45,0.0,972.7,8.3,30.6,167,42.8,27.1,23.8,557.0,132.0,7.8,4,5,7,0,2026-05-07T19:50:49.070612+05:30
Amritsar,Punjab,31.634,74.8723,28.5,41,0.0,980.6,8.2,32.0,165,176.0,43.8,3.3,482.0,160.0,8.0,4,5,7,0,2026-05-07T19:50:49.070622+05:30
Ludhiana,Punjab,30.901,75.8573,26.0,59,0.0,979.2,7.8,40.0,171,350.2,71.0,10.7,452.0,140.0,8.9,4,5,7,1,2026-05-07T19:50:49.070630+05:30
Jalandhar,Punjab,31.326,75.5762,25.8,56,0.0,980.1,7.95,38.2,171,295.2,67.8,12.9,477.0,132.0,12.1,4,5,7,1,2026-05-07T19:50:49.070637+05:30
Dehradun,Uttarakhand,30.6284,78.0322,13.3,83,0.0,830.2,5.95,30.6,144,27.4,18.7,18.1,225.0,123.0,1.3,3,10,3,0,2026-05-07T19:50:49.070647+05:30
Shimla,Himachal Pradesh,31.1048,77.1734,9.7,86,0.0,782.5,6.25,28.8,153,27.4,19.3,14.0,356.0,122.0,2.0,3,10,7,0,2026-05-07T19:50:49.070655+05:30
Manali,Himachal Pradesh,32.2396,77.1887,9.8,90,0.0,815.9,9.35,33.1,104,44.6,10.2,18.4,288.0,115.0,0.7,3,10,7,0,2026-05-07T19:50:49.070663+05:30
Gurgaon,Haryana,28.4595,77.0266,26.5,53,0.0,982.1,7.65,53.6,1432,2667.3,287.8,13.7,548.0,149.0,17.1,4,5,7,1,2026-05-07T19:50:49.070670+05:30
Noida,Uttar Pradesh,28.5355,77.391,25.8,56,0.0,985.5,7.55,45.7,1432,2667.3,287.8,13.7,586.0,149.0,17.1,4,5,7,1,2026-05-07T19:50:49.070677+05:30
Ghaziabad,Uttar Pradesh,28.6692,77.4538,25.9,57,0.0,983.8,7.55,45.7,183,333.4,54.6,6.6,332.0,154.0,12.2,4,5,7,1,2026-05-07T19:50:49.070684+05:30
Faridabad,Haryana,28.4089,77.3178,26.5,54,0.0,984.6,7.6,51.1,1432,2667.3,287.8,13.7,533.0,149.0,17.1,4,5,7,1,2026-05-07T19:50:49.070707+05:30
Meerut,Uttar Pradesh,28.9845,77.7064,24.6,68,0.0,982.9,7.1,45.4,183,333.4,54.6,6.6,373.0,154.0,12.2,3,5,7,1,2026-05-07T19:50:49.070714+05:30
Agra,Uttar Pradesh,27.1767,78.0081,24.8,66,0.0,988.4,7.9,52.9,874,862.4,100.8,10.2,390.0,130.0,11.6,3,5,7,1,2026-05-07T19:50:49.070722+05:30
Varanasi,Uttar Pradesh,25.3176,82.9739,26.7,58,0.0,999.8,8.55,37.4,165,74.3,45.1,22.8,633.0,113.0,16.6,4,5,7,1,2026-05-07T19:50:49.070730+05:30
Prayagraj,Uttar Pradesh,25.4358,81.8463,27.5,53,0.0,998.0,8.45,31.7,164,80.3,42.6,17.8,450.0,112.0,12.1,4,5,7,1,2026-05-07T19:50:49.070739+05:30
Gorakhpur,Uttar Pradesh,26.7606,83.3732,24.0,76,0.0,999.8,8.4,35.6,153,56.3,36.6,7.4,374.0,137.0,5.5,3,5,7,1,2026-05-07T19:50:49.070746+05:30
Bareilly,Uttar Pradesh,28.367,79.4304,23.4,78,0.0,989.3,7.2,26.6,154,67.3,37.0,13.8,312.0,116.0,7.5,3,5,7,1,2026-05-07T19:50:49.070753+05:30
Aligarh,Uttar Pradesh,27.8974,78.088,25.9,54,0.0,986.7,7.7,47.9,621,1482.7,158.8,5.4,332.0,159.0,14.1,4,5,7,0,2026-05-07T19:50:49.070760+05:30
Moradabad,Uttar Pradesh,28.8386,78.7733,23.5,75,0.0,986.1,7.35,35.6,162,81.5,46.7,18.8,354.0,118.0,13.8,3,5,7,1,2026-05-07T19:50:49.070766+05:30
Saharanpur,Uttar Pradesh,29.9637,77.546,24.0,66,0.0,977.4,7.0,49.0,148,115.5,46.7,20.7,456.0,118.0,13.3,3,5,7,1,2026-05-07T19:50:49.070772+05:30
Jhansi,Uttar Pradesh,25.4484,78.5685,28.9,43,0.0,978.4,8.3,45.0,139,42.8,19.0,3.2,225.0,127.0,8.7,4,5,7,0,2026-05-07T19:50:52.340907+05:30
Surat,Gujarat,21.1702,72.8311,31.4,63,0.0,1004.0,7.7,31.7,131,77.3,45.5,50.9,493.0,75.0,65.3,3,5,4,1,2026-05-07T19:50:52.340943+05:30
Vadodara,Gujarat,22.3072,73.1812,37.0,16,0.0,1001.0,8.0,37.8,157,74.3,34.6,27.4,281.0,99.0,7.8,0,5,7,0,2026-05-07T19:50:52.340954+05:30
Rajkot,Gujarat,22.3039,70.8022,32.3,47,0.0,991.8,7.65,45.4,111,38.5,17.3,4.4,162.0,107.0,6.0,0,5,7,1,2026-05-07T19:50:52.340964+05:30
Thane,Maharashtra,19.2183,72.9781,30.2,75,0.0,1005.2,7.9,35.3,96,86.1,29.1,12.7,225.0,76.0,12.0,3,5,4,1,2026-05-07T19:50:52.340971+05:30
Nagpur,Maharashtra,21.1458,79.0882,32.2,36,0.0,973.0,8.9,48.6,207,65.7,46.8,27.7,437.0,157.0,35.4,0,5,7,0,2026-05-07T19:50:52.340978+05:30
Nashik,Maharashtra,19.9975,73.7898,31.5,30,0.0,944.3,8.15,41.4,125,47.6,21.1,8.6,195.0,112.0,3.4,0,5,7,0,2026-05-07T19:50:52.340985+05:30
Aurangabad,Maharashtra,19.8762,75.3433,33.8,16,0.0,942.3,9.0,33.1,151,49.6,23.9,8.2,237.0,131.0,7.6,0,5,7,0,2026-05-07T19:50:52.340992+05:30
Solapur,Maharashtra,17.6599,75.9064,34.5,25,0.0,955.1,9.05,33.8,126,43.1,31.0,3.8,294.0,137.0,4.6,0,5,7,0,2026-05-07T19:50:52.341000+05:30
Kolhapur,Maharashtra,16.705,74.2433,28.5,61,0.0,946.6,8.95,46.8,143,46.3,34.1,10.9,208.0,118.0,7.4,7,5,7,1,2026-05-07T19:50:52.341006+05:30
Goa,Goa,15.2993,74.124,30.2,70,0.0,996.0,8.9,38.9,97,61.0,35.5,8.2,168.0,101.0,4.4,3,5,7,1,2026-05-07T19:50:52.341013+05:30
Jodhpur,Rajasthan,26.2389,73.0243,36.3,15,0.0,979.6,8.3,40.3,119,209.1,34.1,6.0,214.0,111.0,3.3,0,5,10,0,2026-05-07T19:50:52.341020+05:30
Udaipur,Rajasthan,24.5854,73.7125,29.2,33,0.0,944.3,8.75,31.3,99,68.5,19.9,3.0,376.0,115.0,2.5,4,5,7,0,2026-05-07T19:50:52.341026+05:30
Kota,Rajasthan,25.2138,75.8648,33.0,27,0.0,976.8,8.3,39.6,135,80.3,29.3,13.8,266.0,117.0,5.8,0,5,7,0,2026-05-07T19:50:52.341033+05:30
Bikaner,Rajasthan,28.0229,73.3119,37.5,11,0.0,977.5,8.25,49.0,115,50.3,15.0,3.7,200.0,114.0,5.0,0,5,10,0,2026-05-07T19:50:52.341040+05:30
Ajmer,Rajasthan,26.4499,74.6399,31.2,23,0.0,952.5,8.25,46.4,112,90.6,26.2,9.5,209.0,105.0,4.5,0,5,7,0,2026-05-07T19:50:52.341047+05:30
Gwalior,Madhya Pradesh,26.2183,78.1828,26.6,56,0.0,983.2,7.9,54.0,130,76.4,25.3,6.8,286.0,113.0,6.0,4,5,7,1,2026-05-07T19:50:52.341053+05:30
Indore,Madhya Pradesh,22.7196,75.8577,34.7,17,0.0,946.9,8.6,34.6,150,37.0,23.0,14.3,454.0,121.0,7.6,0,5,7,0,2026-05-07T19:50:52.341060+05:30
Bhopal,Madhya Pradesh,23.2599,77.4126,33.8,17,0.0,952.5,8.65,34.2,144,26.7,17.1,8.9,257.0,125.0,6.0,0,5,7,0,2026-05-07T19:50:52.341066+05:30
Jabalpur,Madhya Pradesh,23.1815,79.9864,31.3,28,0.0,961.3,8.8,37.4,126,28.1,16.9,13.9,288.0,119.0,4.4,0,5,7,0,2026-05-07T19:50:52.341072+05:30
Ujjain,Madhya Pradesh,23.1765,75.7885,33.8,19,0.0,952.5,8.55,46.4,133,43.4,25.5,7.5,268.0,111.0,5.1,0,5,7,0,2026-05-07T19:50:52.341079+05:30
Visakhapatnam,Andhra Pradesh,17.6868,83.2185,28.5,80,0.0,1004.2,8.9,35.3,73,19.8,17.4,19.8,360.0,23.0,9.4,7,5,4,1,2026-05-07T19:50:52.341086+05:30
Vijayawada,Andhra Pradesh,16.5062,80.648,31.5,60,0.0,1002.1,9.15,33.1,50,12.0,10.0,6.4,176.0,49.0,6.9,0,5,4,1,2026-05-07T19:50:52.341092+05:30
Guntur,Andhra Pradesh,16.3067,80.4365,30.9,63,0.0,1003.1,9.2,37.4,52,19.2,16.2,6.3,161.0,66.0,6.9,3,5,4,1,2026-05-07T19:50:52.341098+05:30
Nellore,Andhra Pradesh,14.4426,79.9865,29.2,75,0.0,1005.2,9.2,39.6,33,7.4,5.2,2.0,130.0,39.0,1.3,7,5,4,1,2026-05-07T19:50:52.341105+05:30
Kurnool,Andhra Pradesh,15.8281,78.0373,34.2,33,0.0,975.1,9.2,40.7,84,24.0,16.4,4.3,217.0,107.0,2.6,0,5,7,0,2026-05-07T19:50:52.341112+05:30
Kakinada,Andhra Pradesh,16.9891,82.2475,28.0,83,0.0,1007.5,8.9,30.6,32,9.9,6.7,1.5,182.0,48.0,0.7,7,5,4,1,2026-05-07T19:50:52.341119+05:30
Tirupati,Andhra Pradesh,13.6288,79.4192,29.5,63,0.0,990.0,9.25,37.4,53,11.3,10.2,5.9,154.0,56.0,3.8,7,5,7,1,2026-05-07T19:50:52.341125+05:30
Warangal,Telangana,17.9689,79.5941,30.5,54,0.0,978.9,9.1,43.9,84,47.0,34.6,20.1,292.0,102.0,9.6,0,5,7,1,2026-05-07T19:50:52.341132+05:30
Nizamabad,Telangana,18.6725,78.0941,27.8,60,0.0,964.1,9.1,49.0,123,42.1,30.0,8.8,317.0,113.0,4.1,4,5,7,1,2026-05-07T19:50:52.341138+05:30
Mysore,Karnataka,12.2958,76.6396,28.5,52,0.0,926.7,9.2,32.4,92,40.3,32.1,40.0,324.0,80.0,9.4,4,5,7,1,2026-05-07T19:50:52.341144+05:30
Mangalore,Karnataka,12.9141,74.856,28.2,85,0.0,1004.8,8.45,34.2,60,42.6,24.4,8.4,162.0,80.0,3.3,7,5,4,1,2026-05-07T19:50:52.341150+05:30
Hubli-Dharwad,Karnataka,15.3647,75.124,27.2,65,0.0,939.5,9.15,49.3,143,62.9,45.6,6.1,277.0,133.0,3.2,7,5,7,1,2026-05-07T19:50:52.341157+05:30
Belgaum,Karnataka,15.8497,74.4977,26.4,65,0.0,924.8,8.35,43.6,135,49.1,35.5,11.9,206.0,108.0,6.4,7,5,7,1,2026-05-07T19:50:55.582897+05:30
Coimbatore,Tamil Nadu,11.0168,76.9558,27.5,73,0.0,959.7,7.0,29.2,69,25.4,21.3,10.9,366.0,91.0,5.1,7,5,7,1,2026-05-07T19:50:55.582934+05:30
Madurai,Tamil Nadu,9.9252,78.1198,30.3,63,0.0,990.9,6.8,25.6,81,24.0,20.7,9.3,322.0,96.0,4.2,3,5,7,1,2026-05-07T19:50:55.582946+05:30
Trichy,Tamil Nadu,10.7905,78.7047,30.6,66,0.0,997.6,8.05,34.2,77,19.3,18.4,9.7,251.0,104.0,7.6,3,5,7,1,2026-05-07T19:50:55.582955+05:30
Salem,Tamil Nadu,11.6643,78.146,30.5,65,0.0,975.0,8.8,40.3,102,25.8,23.7,10.2,238.0,106.0,11.5,3,5,7,1,2026-05-07T19:50:55.582963+05:30
Tirunelveli,Tamil Nadu,8.7139,77.7567,29.4,71,0.0,1001.0,5.1,32.4,76,23.2,20.0,8.7,325.0,92.0,3.1,7,5,0,1,2026-05-07T19:50:55.582971+05:30
Vellore,Tamil Nadu,12.9165,79.1325,29.5,67,0.0,983.2,9.25,29.2,60,11.8,10.3,8.9,191.0,55.0,1.6,7,5,7,1,2026-05-07T19:50:55.582979+05:30
Erode,Tamil Nadu,11.341,77.7172,30.1,63,0.0,986.4,8.1,35.6,78,21.0,18.0,9.8,269.0,101.0,3.2,3,5,7,1,2026-05-07T19:50:55.582987+05:30
Kochi,Kerala,9.9312,76.2673,27.4,93,0.1,1006.9,3.65,28.1,64,23.8,21.0,20.0,526.0,54.0,4.3,10,5,0,1,2026-05-07T19:50:55.582995+05:30
Thiruvananthapuram,Kerala,8.5241,76.9366,25.0,95,0.0,1006.2,7.15,31.3,85,17.8,12.0,4.6,442.0,105.0,2.2,7,5,4,1,2026-05-07T19:50:55.583002+05:30
Kozhikode,Kerala,11.2588,75.7804,28.1,83,0.0,1005.9,7.5,32.0,83,11.6,8.3,2.2,265.0,119.0,1.6,7,5,4,1,2026-05-07T19:50:55.583009+05:30
Thrissur,Kerala,10.5276,76.2144,27.5,90,0.0,1005.0,3.6,31.7,66,24.3,21.1,18.9,779.0,54.0,3.3,7,5,0,1,2026-05-07T19:50:55.583017+05:30
Kannur,Kerala,11.8745,75.3704,28.8,81,0.0,1005.2,8.15,41.0,104,21.5,13.7,6.9,334.0,104.0,2.1,7,5,4,1,2026-05-07T19:50:55.583024+05:30
Patna,Bihar,25.5941,85.1376,26.9,75,0.0,1002.5,8.65,39.2,186,60.5,52.4,20.2,455.0,128.0,13.9,7,5,4,1,2026-05-07T19:50:55.583031+05:30
Gaya,Bihar,24.7914,85.0002,26.2,66,0.0,995.6,8.75,42.8,203,65.2,57.9,14.8,525.0,148.0,14.3,7,5,7,1,2026-05-07T19:50:55.583038+05:30
Muzaffarpur,Bihar,26.1209,85.3647,25.7,71,0.0,1002.5,8.65,39.2,161,61.7,52.2,22.2,717.0,114.0,14.5,7,5,4,1,2026-05-07T19:50:55.583045+05:30
Bhagalpur,Bihar,25.2425,87.0117,26.3,67,0.0,1003.0,8.7,38.5,178,68.9,64.7,23.1,416.0,126.0,14.5,7,5,4,1,2026-05-07T19:50:55.583051+05:30
Ranchi,Jharkhand,23.3441,85.3096,23.5,62,0.0,938.8,9.2,33.5,165,31.7,22.5,7.3,245.0,144.0,8.1,3,5,7,0,2026-05-07T19:50:55.583058+05:30
Jamshedpur,Jharkhand,22.8046,86.2029,27.8,69,0.0,992.2,9.0,37.4,199,39.5,36.0,15.7,353.0,130.0,26.0,7,5,7,1,2026-05-07T19:50:55.583065+05:30
Dhanbad,Jharkhand,23.7957,86.4304,26.2,73,0.0,981.4,8.95,39.2,198,63.1,60.1,26.4,473.0,164.0,41.2,7,5,7,1,2026-05-07T19:50:55.583072+05:30
Bokaro,Jharkhand,23.6693,86.1511,27.0,66,0.0,985.1,8.95,41.8,194,56.1,52.5,22.4,516.0,158.0,35.8,7,5,7,1,2026-05-07T19:50:55.583080+05:30
Bhubaneswar,Odisha,20.2961,85.8245,28.0,85,0.0,1003.6,9.1,51.1,48,13.2,10.5,7.3,236.0,54.0,3.3,7,5,4,1,2026-05-07T19:50:55.583087+05:30
Cuttack,Odisha,20.4625,85.8828,29.0,78,0.0,1005.2,9.1,40.0,48,13.2,10.5,7.3,272.0,54.0,3.3,7,5,4,1,2026-05-07T19:50:55.583094+05:30
Rourkela,Odisha,22.2604,84.8536,28.8,44,0.0,984.5,8.95,34.6,202,61.9,48.2,23.4,326.0,128.0,25.2,4,5,7,0,2026-05-07T19:50:55.583101+05:30
Raipur,Chhattisgarh,21.2514,81.6296,33.0,24,0.0,974.1,8.95,32.0,219,68.2,56.2,32.3,344.0,160.0,12.6,0,5,7,0,2026-05-07T19:50:55.583108+05:30
Bhilai,Chhattisgarh,21.1938,81.3509,31.7,31,0.0,974.4,8.95,25.9,211,62.4,49.2,31.9,660.0,149.0,9.5,0,5,7,0,2026-05-07T19:50:55.583114+05:30
Guwahati,Assam,26.1158,91.7086,22.8,87,0.0,1003.9,8.65,24.8,113,48.2,42.1,10.0,372.0,83.0,2.9,3,5,4,1,2026-05-07T19:50:55.583121+05:30
Agartala,Tripura,23.8315,91.2868,25.8,82,0.0,1008.1,8.85,32.0,122,68.9,66.8,42.7,420.0,101.0,8.7,7,0,4,1,2026-05-07T19:50:55.583128+05:30
Shillong,Meghalaya,25.5788,91.8933,15.6,87,0.0,857.8,7.95,24.8,117,43.5,37.3,13.9,405.0,86.0,2.7,3,10,7,0,2026-05-07T19:50:55.583135+05:30
Imphal,Manipur,24.817,93.9368,20.6,86,0.0,924.3,9.1,31.7,106,45.9,37.7,20.0,661.0,67.0,5.3,3,5,7,1,2026-05-07T19:50:55.583142+05:30
Aizawl,Mizoram,23.7271,92.7176,19.2,84,0.0,893.7,9.05,23.4,70,25.0,20.3,11.1,267.0,63.0,1.1,3,10,7,1,2026-05-07T19:50:55.583150+05:30
Kohima,Nagaland,25.6701,94.1077,15.8,94,0.0,855.8,9.15,26.3,71,48.5,35.7,13.7,368.0,71.0,1.4,3,10,7,0,2026-05-07T19:50:55.583156+05:30
Gangtok,Sikkim,27.3314,88.6138,12.4,90,0.0,836.8,8.55,36.7,92,34.9,25.2,16.4,470.0,102.0,1.9,3,10,7,0,2026-05-07T19:50:55.583162+05:30
Siliguri,West Bengal,26.7271,88.3953,23.4,74,0.0,994.7,8.6,21.6,104,68.0,51.1,27.9,1192.0,93.0,6.0,3,5,7,1,2026-05-07T19:50:58.878116+05:30
Durgapur,West Bengal,23.5204,87.3119,25.0,87,0.0,996.8,8.9,45.4,177,59.1,56.0,21.9,812.0,149.0,38.0,7,5,7,1,2026-05-07T19:50:58.878152+05:30
Asansol,West Bengal,23.6739,86.9524,25.8,83,0.0,995.4,8.95,34.2,197,61.7,58.3,21.9,975.0,163.0,41.0,7,5,7,1,2026-05-07T19:50:58.878165+05:30
Pondicherry,Puducherry,11.9139,79.8145,29.0,78,0.0,1007.0,7.25,35.3,26,5.6,3.9,1.9,138.0,42.0,0.3,7,5,4,1,2026-05-07T19:50:58.878174+05:30
Port Blair,Andaman and Nicobar Islands,11.6234,92.7265,27.6,85,0.0,1007.0,8.45,34.9,30,8.2,6.3,0.5,225.0,66.0,0.5,7,5,4,1,2026-05-07T19:50:58.878183+05:30
Haridwar,Uttarakhand,29.9457,78.1642,23.8,63,0.0,976.1,7.1,34.2,158,105.5,41.0,13.9,308.0,136.0,8.9,3,5,7,1,2026-05-07T19:50:58.878192+05:30
Rishikesh,Uttarakhand,30.0869,78.2676,22.5,69,0.0,968.7,7.05,36.0,162,96.6,30.9,8.0,353.0,159.0,6.6,3,5,7,1,2026-05-07T19:50:58.878199+05:30
Nainital,Uttarakhand,29.3919,79.4542,10.4,96,0.0,804.5,7.4,29.5,135,57.7,28.8,13.3,290.0,114.0,4.8,3,10,7,0,2026-05-07T19:50:58.878207+05:30
Mussoorie,Uttarakhand,30.4599,78.0664,10.8,87,0.0,801.7,5.35,39.2,158,68.9,33.2,18.5,346.0,137.0,11.0,3,10,3,0,2026-05-07T19:50:58.878215+05:30
Dharamshala,Himachal Pradesh,32.219,76.3234,16.3,73,0.0,868.5,6.8,39.2,120,23.5,14.0,9.4,280.0,110.0,1.4,3,5,7,0,2026-05-07T19:50:58.878223+05:30
Dalhousie,Himachal Pradesh,32.5387,75.971,11.8,85,0.0,803.2,7.65,33.1,154,36.9,27.2,29.5,528.0,109.0,5.4,3,10,7,0,2026-05-07T19:50:58.878230+05:30
Patiala,Punjab,30.3398,76.3869,25.2,59,0.0,979.3,7.45,45.4,489,590.5,79.4,6.8,311.0,148.0,7.6,4,5,7,1,2026-05-07T19:50:58.878238+05:30
Bhatinda,Punjab,30.211,74.9455,29.0,43,0.0,983.3,8.1,42.8,470,1017.0,160.2,4.6,294.0,174.0,13.8,4,5,7,0,2026-05-07T19:50:58.878245+05:30
Rohtak,Haryana,28.8955,76.6066,26.6,53,0.0,982.3,7.6,51.8,810,1210.7,149.9,12.4,363.0,157.0,19.5,4,5,7,1,2026-05-07T19:50:58.878252+05:30
Panipat,Haryana,29.3909,76.9635,25.2,61,0.0,981.7,7.1,52.2,1345,2361.8,234.7,7.1,364.0,162.0,13.3,7,5,7,1,2026-05-07T19:50:58.878258+05:30
Mathura,Uttar Pradesh,27.4924,77.6737,25.6,58,0.0,987.5,7.85,49.7,959,925.7,107.3,8.6,324.0,137.0,9.7,4,5,7,1,2026-05-07T19:50:58.878266+05:30
Vrindavan,Uttar Pradesh,27.5823,77.7027,25.8,57,0.0,988.1,7.8,50.8,959,925.7,107.3,8.6,306.0,137.0,9.7,4,5,7,1,2026-05-07T19:50:58.878273+05:30
Ayodhya,Uttar Pradesh,26.7922,82.1998,24.5,67,0.0,998.0,7.75,30.2,152,82.2,48.1,21.7,391.0,107.0,9.3,3,5,7,1,2026-05-07T19:50:58.878280+05:30
Ratlam,Madhya Pradesh,23.3315,75.0367,31.5,24,0.0,953.3,8.45,36.4,127,44.2,22.2,3.2,203.0,128.0,5.9,0,5,7,0,2026-05-07T19:50:58.878287+05:30
Sagar,Madhya Pradesh,23.8388,78.7378,30.0,25,0.0,949.4,8.65,35.3,128,17.2,9.3,6.8,305.0,115.0,3.3,4,5,7,0,2026-05-07T19:50:58.878294+05:30
Satna,Madhya Pradesh,24.6005,80.8322,27.8,39,0.0,972.3,8.65,40.3,162,44.7,21.4,3.5,251.0,156.0,7.0,4,5,7,0,2026-05-07T19:50:58.878301+05:30
Akola,Maharashtra,20.7002,77.0082,33.2,27,0.0,973.3,8.85,40.7,149,50.5,35.4,4.6,269.0,137.0,4.9,0,5,7,0,2026-05-07T19:50:58.878309+05:30
Amravati,Maharashtra,20.9374,77.7796,34.6,21,0.0,966.5,6.4,35.3,149,47.1,32.7,6.0,284.0,133.0,2.6,0,5,7,0,2026-05-07T19:50:58.878317+05:30
Latur,Maharashtra,18.4088,76.5604,31.1,33,0.0,939.1,8.35,35.3,122,60.3,42.3,9.9,293.0,115.0,11.1,0,5,7,0,2026-05-07T19:50:58.878325+05:30
Nanded,Maharashtra,19.1383,77.3091,33.0,32,0.0,967.7,8.3,44.6,125,40.4,26.7,12.3,369.0,115.0,4.7,0,5,7,0,2026-05-07T19:50:58.878331+05:30
Gulbarga,Karnataka,17.3297,76.8343,33.8,28,0.0,957.1,9.05,36.0,138,33.3,21.8,10.6,222.0,119.0,5.3,0,5,7,0,2026-05-07T19:50:58.878338+05:30
Bidar,Karnataka,17.9104,77.5199,30.6,36,0.0,935.0,9.0,34.2,115,44.2,29.4,22.7,622.0,106.0,4.9,0,5,7,0,2026-05-07T19:50:58.878344+05:30
Hospet,Karnataka,15.2689,76.3909,30.5,48,0.0,953.8,9.2,33.5,143,38.6,28.2,22.6,405.0,113.0,9.7,0,5,7,1,2026-05-07T19:50:58.878350+05:30
Tirupur,Tamil Nadu,11.1085,77.3411,29.5,63,0.0,972.7,7.5,28.1,89,31.1,26.1,14.4,348.0,102.0,5.3,7,5,7,1,2026-05-07T19:50:58.878357+05:30
Alappuzha,Kerala,9.4981,76.3388,27.4,93,0.1,1006.7,6.3,28.8,63,22.5,16.7,13.2,238.0,74.0,4.3,10,5,4,1,2026-05-07T19:50:58.878364+05:30
Munnar,Kerala,10.0889,77.0595,18.6,99,0.0,855.3,7.65,24.8,71,18.8,15.5,7.8,345.0,79.0,1.9,3,10,7,1,2026-05-07T19:50:58.878370+05:30
Silchar,Assam,24.8333,92.7789,26.4,85,0.0,1006.7,8.85,19.8,128,67.8,58.3,18.4,555.0,99.0,11.2,7,5,4,1,2026-05-07T19:50:58.878377+05:30
Dibrugarh,Assam,27.4728,94.912,23.6,84,0.0,997.8,8.8,22.7,85,35.3,28.8,11.0,392.0,73.0,2.1,3,5,7,1,2026-05-07T19:50:58.878383+05:30
