city,state,latitude,longitude,temp,humidity,rain,pressure,uv_index,wind_gusts,aqi,pm10,pm2_5,mosquito_risk,arthritis_risk,migraine_risk,frizz_risk,updated_at
Delhi,Delhi,28.6139,77.209,28.9,50,0.0,983.6,5.95,32.4,145,444.2,83.1,4,5,3,1,2026-03-29T10:44:05.779943+05:30
Mumbai,Maharashtra,19.076,72.8777,28.2,77,0.0,1010.5,8.0,24.5,63,29.6,17.4,7,0,4,1,2026-03-29T10:44:05.780001+05:30
Bangalore,Karnataka,12.9716,77.5946,28.7,56,0.0,913.7,9.55,28.8,132,62.6,52.6,4,5,7,1,2026-03-29T10:44:05.780018+05:30
Hyderabad,Telangana,17.385,78.4867,32.3,40,0.0,954.6,9.05,31.0,108,28.6,26.1,0,5,7,1,2026-03-29T10:44:05.780028+05:30
Chennai,Tamil Nadu,13.0827,80.2707,32.2,60,0.0,1008.1,9.25,37.4,60,23.3,17.6,0,0,4,1,2026-03-29T10:44:05.780038+05:30
Kolkata,West Bengal,22.5726,88.3639,28.9,77,0.0,1007.7,8.45,27.7,122,41.6,30.6,7,5,4,1,2026-03-29T10:44:05.780048+05:30
Pune,Maharashtra,18.5204,73.8567,30.5,36,0.0,950.7,8.55,33.8,67,39.7,16.5,0,5,7,0,2026-03-29T10:44:05.780061+05:30
Ahmedabad,Gujarat,23.0225,72.5714,30.7,57,0.0,1004.1,7.85,30.6,33,45.2,11.7,0,5,4,1,2026-03-29T10:44:05.780070+05:30
Jaipur,Rajasthan,26.9124,75.7873,31.3,40,0.0,960.1,7.2,38.2,71,134.6,21.4,0,5,7,1,2026-03-29T10:44:05.780078+05:30
Lucknow,Uttar Pradesh,26.8467,80.9462,29.4,52,0.0,994.8,7.25,16.6,119,193.2,42.8,4,5,7,1,2026-03-29T10:44:05.780086+05:30
Kanpur,Uttar Pradesh,26.4499,80.3319,29.5,55,0.0,992.8,7.25,16.9,132,206.8,41.8,4,5,7,1,2026-03-29T10:44:05.780094+05:30
Chandigarh,Chandigarh,30.7333,76.7794,25.0,63,0.0,970.0,6.5,28.1,85,49.7,21.3,7,5,7,1,2026-03-29T10:44:05.780101+05:30
Srinagar,Jammu and Kashmir,34.0837,74.7973,12.3,85,0.0,841.9,7.35,22.3,87,11.5,7.4,3,10,7,0,2026-03-29T10:44:05.780109+05:30
Jammu,Jammu and Kashmir,32.7266,74.857,20.1,86,0.1,974.4,6.75,28.1,84,32.7,23.5,6,5,7,1,2026-03-29T10:44:05.780118+05:30
Amritsar,Punjab,31.634,74.8723,22.0,82,0.0,981.9,7.3,35.3,73,38.2,16.6,3,5,7,1,2026-03-29T10:44:05.780126+05:30
Ludhiana,Punjab,30.901,75.8573,25.7,66,0.0,979.7,6.95,31.7,97,41.1,29.3,7,5,7,1,2026-03-29T10:44:05.780134+05:30
Jalandhar,Punjab,31.326,75.5762,22.7,83,0.0,981.2,7.1,29.2,92,37.1,16.6,3,5,7,1,2026-03-29T10:44:05.780143+05:30
Dehradun,Uttarakhand,30.6284,78.0322,18.3,70,0.0,831.4,3.05,19.4,68,41.4,20.3,3,5,3,0,2026-03-29T10:44:05.780150+05:30
Shimla,Himachal Pradesh,31.1048,77.1734,16.8,58,0.0,785.8,1.8,22.3,77,47.0,20.4,0,5,3,0,2026-03-29T10:44:05.780158+05:30
Manali,Himachal Pradesh,32.2396,77.1887,13.1,96,0.5,819.2,7.45,28.1,52,14.2,7.7,6,10,7,0,2026-03-29T10:44:05.780165+05:30
Gurgaon,Haryana,28.4595,77.0266,29.2,50,0.0,981.6,5.7,27.0,300,1277.8,141.6,4,5,3,1,2026-03-29T10:44:05.780172+05:30
Noida,Uttar Pradesh,28.5355,77.391,29.0,52,0.0,985.1,6.05,24.8,300,1277.8,141.6,4,5,7,1,2026-03-29T10:44:05.780180+05:30
Ghaziabad,Uttar Pradesh,28.6692,77.4538,27.8,59,0.0,983.6,6.1,24.1,150,314.8,63.1,4,5,7,1,2026-03-29T10:44:05.780187+05:30
Faridabad,Haryana,28.4089,77.3178,29.1,51,0.0,984.2,6.15,28.8,300,1277.8,141.6,4,5,7,1,2026-03-29T10:44:05.780194+05:30
Meerut,Uttar Pradesh,28.9845,77.7064,25.9,70,0.0,983.3,5.6,20.5,150,314.8,63.1,7,5,3,1,2026-03-29T10:44:05.780201+05:30
Agra,Uttar Pradesh,27.1767,78.0081,32.5,39,0.0,988.2,7.1,36.0,349,786.0,87.1,0,5,7,1,2026-03-29T10:44:05.780209+05:30
Varanasi,Uttar Pradesh,25.3176,82.9739,32.0,44,0.0,998.6,7.95,26.6,91,66.4,25.0,0,5,7,1,2026-03-29T10:44:05.780218+05:30
Prayagraj,Uttar Pradesh,25.4358,81.8463,31.0,49,0.0,996.9,7.8,22.7,112,70.1,29.2,0,5,7,1,2026-03-29T10:44:05.780226+05:30
Gorakhpur,Uttar Pradesh,26.7606,83.3732,28.2,62,0.0,999.3,7.65,26.3,121,71.2,47.8,7,5,7,1,2026-03-29T10:44:05.780233+05:30
Bareilly,Uttar Pradesh,28.367,79.4304,29.1,57,0.0,988.1,7.0,15.8,95,38.3,25.7,4,5,7,1,2026-03-29T10:44:05.780240+05:30
Aligarh,Uttar Pradesh,27.8974,78.088,29.9,50,0.0,986.3,6.9,26.3,177,441.4,65.7,4,5,7,1,2026-03-29T10:44:05.780249+05:30
Moradabad,Uttar Pradesh,28.8386,78.7733,28.1,64,0.0,984.9,6.6,18.0,139,41.8,34.2,7,5,7,1,2026-03-29T10:44:05.780256+05:30
Saharanpur,Uttar Pradesh,29.9637,77.546,25.7,68,0.0,977.4,5.4,25.6,106,41.7,32.6,7,5,3,1,2026-03-29T10:44:05.780264+05:30
Jhansi,Uttar Pradesh,25.4484,78.5685,34.5,31,0.0,978.0,7.8,27.4,69,46.7,16.6,0,5,7,0,2026-03-29T10:44:08.996733+05:30
Surat,Gujarat,21.1702,72.8311,29.4,66,0.0,1009.2,7.75,25.9,73,44.8,27.5,7,0,4,1,2026-03-29T10:44:08.996763+05:30
Vadodara,Gujarat,22.3072,73.1812,31.0,60,0.0,1006.6,7.85,31.3,53,27.8,11.7,0,5,4,1,2026-03-29T10:44:08.996773+05:30
Rajkot,Gujarat,22.3039,70.8022,29.4,63,0.0,996.2,7.6,32.8,37,56.1,15.4,7,5,7,1,2026-03-29T10:44:08.996782+05:30
Thane,Maharashtra,19.2183,72.9781,30.0,65,0.0,1010.0,8.0,35.3,63,29.6,17.4,7,0,4,1,2026-03-29T10:44:08.996790+05:30
Nagpur,Maharashtra,21.1458,79.0882,33.8,34,0.0,974.3,8.55,25.2,64,14.7,13.6,0,5,7,0,2026-03-29T10:44:08.996798+05:30
Nashik,Maharashtra,19.9975,73.7898,27.8,64,0.0,947.9,8.25,28.8,51,13.7,8.3,7,5,7,1,2026-03-29T10:44:08.996805+05:30
Aurangabad,Maharashtra,19.8762,75.3433,30.8,43,0.0,946.4,8.75,31.0,42,16.1,8.5,0,5,7,1,2026-03-29T10:44:08.996813+05:30
Solapur,Maharashtra,17.6599,75.9064,32.4,29,0.0,959.4,8.9,23.0,56,25.9,11.7,0,5,7,0,2026-03-29T10:44:08.996821+05:30
Kolhapur,Maharashtra,16.705,74.2433,30.3,34,0.0,950.0,9.0,36.7,78,46.1,20.6,0,5,7,0,2026-03-29T10:44:08.996828+05:30
Goa,Goa,15.2993,74.124,31.1,54,0.0,999.7,8.95,36.4,93,21.2,15.4,0,5,7,1,2026-03-29T10:44:08.996835+05:30
Jodhpur,Rajasthan,26.2389,73.0243,30.1,46,0.0,983.0,7.4,43.2,110,205.8,27.0,0,5,7,1,2026-03-29T10:44:08.996842+05:30
Udaipur,Rajasthan,24.5854,73.7125,29.5,44,0.0,947.9,8.2,35.3,25,39.9,9.6,4,5,7,0,2026-03-29T10:44:08.996851+05:30
Kota,Rajasthan,25.2138,75.8648,34.5,34,0.0,979.0,7.5,34.9,54,31.9,10.0,0,5,7,1,2026-03-29T10:44:08.996858+05:30
Bikaner,Rajasthan,28.0229,73.3119,30.9,44,0.0,980.5,7.55,34.6,81,263.6,60.3,0,5,7,1,2026-03-29T10:44:08.996865+05:30
Ajmer,Rajasthan,26.4499,74.6399,29.6,49,0.0,954.8,7.55,42.8,34,46.7,12.7,4,5,7,1,2026-03-29T10:44:08.996873+05:30
Gwalior,Madhya Pradesh,26.2183,78.1828,33.2,36,0.0,983.7,7.35,30.6,93,110.4,27.9,0,5,7,1,2026-03-29T10:44:08.996880+05:30
Indore,Madhya Pradesh,22.7196,75.8577,30.2,52,0.0,949.9,8.25,32.0,38,20.3,10.0,0,5,7,1,2026-03-29T10:44:08.996887+05:30
Bhopal,Madhya Pradesh,23.2599,77.4126,32.3,41,0.0,955.2,8.2,35.6,33,19.8,7.4,0,5,7,1,2026-03-29T10:44:08.996894+05:30
Jabalpur,Madhya Pradesh,23.1815,79.9864,32.1,41,0.0,962.7,8.3,33.8,61,16.0,13.4,0,5,7,1,2026-03-29T10:44:08.996923+05:30
Ujjain,Madhya Pradesh,23.1765,75.7885,29.7,55,0.0,955.5,8.15,34.9,37,22.8,10.8,4,5,7,1,2026-03-29T10:44:08.996932+05:30
Visakhapatnam,Andhra Pradesh,17.6868,83.2185,32.9,51,0.0,1005.3,9.0,40.3,77,32.2,22.7,0,5,4,1,2026-03-29T10:44:08.996939+05:30
Vijayawada,Andhra Pradesh,16.5062,80.648,31.6,63,0.0,1004.0,9.05,29.9,75,26.3,18.9,3,5,4,1,2026-03-29T10:44:08.996947+05:30
Guntur,Andhra Pradesh,16.3067,80.4365,31.6,63,0.0,1005.0,9.05,31.3,79,32.0,25.7,3,5,4,1,2026-03-29T10:44:08.996955+05:30
Nellore,Andhra Pradesh,14.4426,79.9865,32.6,57,0.0,1006.9,8.75,33.8,71,27.0,23.3,0,5,4,1,2026-03-29T10:44:08.996963+05:30
Kurnool,Andhra Pradesh,15.8281,78.0373,33.7,35,0.0,978.2,9.1,29.2,119,23.7,21.6,0,5,7,1,2026-03-29T10:44:08.996971+05:30
Kakinada,Andhra Pradesh,16.9891,82.2475,32.3,60,0.0,1009.2,9.0,30.2,63,26.4,16.1,0,0,4,1,2026-03-29T10:44:08.996978+05:30
Tirupati,Andhra Pradesh,13.6288,79.4192,34.2,45,0.0,992.7,9.2,34.6,94,35.0,30.5,0,5,7,1,2026-03-29T10:44:08.996986+05:30
Warangal,Telangana,17.9689,79.5941,31.8,58,0.0,980.0,8.9,28.4,110,45.6,40.2,0,5,7,1,2026-03-29T10:44:08.996993+05:30
Nizamabad,Telangana,18.6725,78.0941,32.7,38,0.0,966.7,8.8,29.2,72,20.0,17.9,0,5,7,1,2026-03-29T10:44:08.997000+05:30
Mysore,Karnataka,12.2958,76.6396,27.8,66,0.0,930.1,8.55,36.0,110,48.4,40.6,7,5,7,1,2026-03-29T10:44:08.997007+05:30
Mangalore,Karnataka,12.9141,74.856,28.6,80,0.0,1007.5,9.1,29.2,101,43.0,36.1,7,5,4,1,2026-03-29T10:44:08.997014+05:30
Hubli-Dharwad,Karnataka,15.3647,75.124,29.6,49,0.0,943.2,9.15,27.7,103,17.6,15.7,4,5,7,1,2026-03-29T10:44:08.997022+05:30
Belgaum,Karnataka,15.8497,74.4977,30.2,28,0.0,928.0,9.2,36.4,85,29.0,10.2,0,5,7,0,2026-03-29T10:44:12.212440+05:30
Coimbatore,Tamil Nadu,11.0168,76.9558,32.0,49,0.0,963.1,9.4,53.6,94,43.2,36.7,0,5,7,1,2026-03-29T10:44:12.212471+05:30
Madurai,Tamil Nadu,9.9252,78.1198,31.7,57,0.0,994.0,9.0,26.3,82,30.3,26.7,0,5,7,1,2026-03-29T10:44:12.212482+05:30
Trichy,Tamil Nadu,10.7905,78.7047,31.9,62,0.0,1000.7,8.85,29.5,68,24.7,21.4,3,5,4,1,2026-03-29T10:44:12.212490+05:30
Salem,Tamil Nadu,11.6643,78.146,32.6,50,0.0,978.5,9.4,35.6,81,31.3,26.1,0,5,7,1,2026-03-29T10:44:12.212497+05:30
Tirunelveli,Tamil Nadu,8.7139,77.7567,33.4,50,0.0,1004.2,9.4,43.9,72,25.8,22.9,0,5,4,1,2026-03-29T10:44:12.212504+05:30
Vellore,Tamil Nadu,12.9165,79.1325,32.3,51,0.0,985.7,9.35,37.4,123,39.7,35.6,0,5,7,1,2026-03-29T10:44:12.212511+05:30
Erode,Tamil Nadu,11.341,77.7172,33.5,46,0.0,989.8,9.35,38.9,98,37.8,33.9,0,5,7,1,2026-03-29T10:44:12.212519+05:30
Kochi,Kerala,9.9312,76.2673,28.5,81,0.0,1009.0,8.8,27.4,90,30.4,26.7,7,0,4,1,2026-03-29T10:44:12.212526+05:30
Thiruvananthapuram,Kerala,8.5241,76.9366,28.8,77,0.0,1008.4,9.2,31.3,75,28.0,24.6,7,0,4,1,2026-03-29T10:44:12.212534+05:30
Kozhikode,Kerala,11.2588,75.7804,30.2,72,0.0,1008.1,9.1,28.4,79,30.3,25.8,3,0,4,1,2026-03-29T10:44:12.212540+05:30
Thrissur,Kerala,10.5276,76.2144,32.2,63,0.0,1007.2,9.15,34.6,90,32.5,28.3,3,5,4,1,2026-03-29T10:44:12.212548+05:30
Kannur,Kerala,11.8745,75.3704,30.6,68,0.0,1007.6,9.15,34.6,90,37.3,32.0,3,5,4,1,2026-03-29T10:44:12.212555+05:30
Patna,Bihar,25.5941,85.1376,27.9,67,0.0,1002.6,8.05,23.8,110,57.3,46.9,7,5,4,1,2026-03-29T10:44:12.212561+05:30
Gaya,Bihar,24.7914,85.0002,30.2,59,0.0,995.2,8.15,17.6,95,66.1,43.0,0,5,7,1,2026-03-29T10:44:12.212568+05:30
Muzaffarpur,Bihar,26.1209,85.3647,27.1,68,0.0,1003.0,8.05,28.1,117,58.9,46.4,7,5,4,1,2026-03-29T10:44:12.212574+05:30
Bhagalpur,Bihar,25.2425,87.0117,27.2,71,0.0,1003.8,7.85,19.8,113,61.0,47.3,7,5,4,1,2026-03-29T10:44:12.212586+05:30
Ranchi,Jharkhand,23.3441,85.3096,28.6,60,0.0,939.6,8.75,33.5,114,46.8,33.9,4,5,7,1,2026-03-29T10:44:12.212594+05:30
Jamshedpur,Jharkhand,22.8046,86.2029,31.3,59,0.0,992.2,8.55,33.8,130,56.8,49.1,0,5,7,1,2026-03-29T10:44:12.212600+05:30
Dhanbad,Jharkhand,23.7957,86.4304,29.2,62,0.0,981.6,8.5,18.7,153,84.1,75.0,7,5,7,1,2026-03-29T10:44:12.212607+05:30
Bokaro,Jharkhand,23.6693,86.1511,29.9,62,0.0,985.7,8.5,23.0,154,82.9,73.3,7,5,7,1,2026-03-29T10:44:12.212613+05:30
Bhubaneswar,Odisha,20.2961,85.8245,32.3,64,0.0,1003.7,8.8,31.3,82,30.3,23.0,3,5,4,1,2026-03-29T10:44:12.212620+05:30
Cuttack,Odisha,20.4625,85.8828,32.7,62,0.0,1005.5,8.85,34.6,82,30.3,23.0,3,5,4,1,2026-03-29T10:44:12.212627+05:30
Rourkela,Odisha,22.2604,84.8536,32.1,60,0.0,986.1,8.5,32.4,110,67.1,59.3,0,5,7,1,2026-03-29T10:44:12.212633+05:30
Raipur,Chhattisgarh,21.2514,81.6296,35.4,31,0.0,975.7,8.6,29.9,101,34.8,31.9,0,5,10,0,2026-03-29T10:44:12.212640+05:30
Bhilai,Chhattisgarh,21.1938,81.3509,35.1,34,0.0,976.1,8.6,32.8,81,31.5,28.3,0,5,10,1,2026-03-29T10:44:12.212647+05:30
Guwahati,Assam,26.1158,91.7086,24.8,74,0.0,1005.0,7.15,14.4,103,58.3,31.5,3,5,4,1,2026-03-29T10:44:12.212654+05:30
Agartala,Tripura,23.8315,91.2868,26.8,77,0.0,1009.0,8.2,37.4,120,45.3,35.2,7,0,4,1,2026-03-29T10:44:12.212660+05:30
Shillong,Meghalaya,25.5788,91.8933,16.4,67,0.0,857.7,5.65,43.9,70,68.9,33.8,3,5,3,0,2026-03-29T10:44:12.212667+05:30
Imphal,Manipur,24.817,93.9368,18.9,83,0.0,925.5,7.35,61.9,122,58.0,34.3,3,10,7,0,2026-03-29T10:44:12.212674+05:30
Aizawl,Mizoram,23.7271,92.7176,23.0,61,0.0,895.6,6.95,52.9,127,63.8,46.8,3,5,7,0,2026-03-29T10:44:12.212681+05:30
Kohima,Nagaland,25.6701,94.1077,16.7,83,0.0,856.8,7.15,86.4,103,62.4,29.8,3,10,7,0,2026-03-29T10:44:12.212687+05:30
Gangtok,Sikkim,27.3314,88.6138,16.8,70,0.0,839.0,8.1,19.8,61,16.0,13.1,3,5,7,0,2026-03-29T10:44:12.212695+05:30
Siliguri,West Bengal,26.7271,88.3953,19.7,83,0.0,997.5,6.7,12.6,130,45.9,34.5,3,10,7,1,2026-03-29T10:44:15.454012+05:30
Durgapur,West Bengal,23.5204,87.3119,29.7,65,0.0,997.0,8.45,22.3,144,69.6,61.0,7,5,7,1,2026-03-29T10:44:15.454046+05:30
Asansol,West Bengal,23.6739,86.9524,29.6,66,0.0,995.5,8.45,23.4,145,72.4,63.8,7,5,7,1,2026-03-29T10:44:15.454059+05:30
Pondicherry,Puducherry,11.9139,79.8145,32.3,63,0.0,1009.3,9.0,32.4,57,21.7,16.6,3,0,4,1,2026-03-29T10:44:15.454068+05:30
Port Blair,Andaman and Nicobar Islands,11.6234,92.7265,28.6,73,0.0,1008.7,8.85,15.5,64,22.1,17.2,7,0,4,1,2026-03-29T10:44:15.454078+05:30
Haridwar,Uttarakhand,29.9457,78.1642,27.8,58,0.0,976.0,6.05,34.6,87,34.0,23.8,4,5,7,1,2026-03-29T10:44:15.454087+05:30
Rishikesh,Uttarakhand,30.0869,78.2676,28.4,53,0.0,968.4,4.45,29.5,74,35.7,17.7,4,5,3,1,2026-03-29T10:44:15.454097+05:30
Nainital,Uttarakhand,29.3919,79.4542,21.9,60,0.0,808.2,7.1,58.7,77,35.4,18.3,0,5,7,0,2026-03-29T10:44:15.454106+05:30
Mussoorie,Uttarakhand,30.4599,78.0664,19.3,63,0.0,804.4,4.4,23.8,86,31.9,22.4,3,5,3,0,2026-03-29T10:44:15.454115+05:30
Dharamshala,Himachal Pradesh,32.219,76.3234,17.8,63,0.1,868.3,6.95,26.6,53,10.9,4.1,6,5,7,0,2026-03-29T10:44:15.454124+05:30
Dalhousie,Himachal Pradesh,32.5387,75.971,13.7,74,0.4,802.4,7.4,27.0,79,27.1,18.7,6,5,7,0,2026-03-29T10:44:15.454134+05:30
Patiala,Punjab,30.3398,76.3869,25.2,61,0.0,979.1,6.6,35.6,109,180.7,41.7,7,5,7,1,2026-03-29T10:44:15.454143+05:30
Bhatinda,Punjab,30.211,74.9455,26.6,60,0.0,983.4,7.25,38.5,81,145.3,42.1,4,5,7,1,2026-03-29T10:44:15.454152+05:30
Rohtak,Haryana,28.8955,76.6066,27.1,59,0.0,982.3,6.25,31.7,151,560.7,92.2,4,5,7,1,2026-03-29T10:44:15.454160+05:30
Panipat,Haryana,29.3909,76.9635,23.8,76,0.0,981.9,6.1,30.2,211,642.6,99.4,3,5,7,1,2026-03-29T10:44:15.454168+05:30
Mathura,Uttar Pradesh,27.4924,77.6737,31.5,43,0.0,986.9,7.0,26.6,223,754.4,89.9,0,5,7,1,2026-03-29T10:44:15.454175+05:30
Vrindavan,Uttar Pradesh,27.5823,77.7027,30.7,46,0.0,987.5,6.9,29.5,223,754.4,89.9,0,5,7,1,2026-03-29T10:44:15.454181+05:30
Ayodhya,Uttar Pradesh,26.7922,82.1998,28.6,58,0.0,997.1,7.35,20.9,133,70.8,49.1,4,5,7,1,2026-03-29T10:44:15.454188+05:30
Ratlam,Madhya Pradesh,23.3315,75.0367,28.4,61,0.0,956.4,8.1,33.8,35,22.3,9.7,7,5,7,1,2026-03-29T10:44:15.454194+05:30
Sagar,Madhya Pradesh,23.8388,78.7378,33.1,33,0.0,951.2,8.2,33.1,45,8.9,4.6,0,5,7,0,2026-03-29T10:44:15.454201+05:30
Satna,Madhya Pradesh,24.6005,80.8322,32.4,36,0.0,972.3,8.15,36.0,67,39.1,16.2,0,5,7,0,2026-03-29T10:44:15.454207+05:30
Akola,Maharashtra,20.7002,77.0082,32.7,38,0.0,977.2,8.5,27.4,43,23.9,12.8,0,5,7,1,2026-03-29T10:44:15.454214+05:30
Amravati,Maharashtra,20.9374,77.7796,33.3,37,0.0,969.0,8.5,27.4,38,20.3,11.4,0,5,7,1,2026-03-29T10:44:15.454222+05:30
Latur,Maharashtra,18.4088,76.5604,31.9,33,0.0,942.0,8.85,28.4,53,22.4,11.8,0,5,7,0,2026-03-29T10:44:15.454228+05:30
Nanded,Maharashtra,19.1383,77.3091,33.4,34,0.0,970.6,8.7,18.4,56,21.1,15.9,0,5,7,0,2026-03-29T10:44:15.454235+05:30
Gulbarga,Karnataka,17.3297,76.8343,33.5,28,0.0,960.6,8.9,32.0,66,19.7,13.0,0,5,7,0,2026-03-29T10:44:15.454241+05:30
Bidar,Karnataka,17.9104,77.5199,32.6,28,0.0,937.5,8.9,30.2,77,20.4,17.3,0,5,7,0,2026-03-29T10:44:15.454247+05:30
Hospet,Karnataka,15.2689,76.3909,29.6,55,0.0,958.0,9.1,18.7,106,18.5,16.2,4,5,7,1,2026-03-29T10:44:15.454253+05:30
Tirupur,Tamil Nadu,11.1085,77.3411,32.7,48,0.0,976.4,9.45,39.2,105,45.9,40.7,0,5,7,1,2026-03-29T10:44:15.454260+05:30
Alappuzha,Kerala,9.4981,76.3388,28.9,77,0.0,1009.1,8.85,25.6,87,29.9,26.2,7,0,4,1,2026-03-29T10:44:15.454266+05:30
Munnar,Kerala,10.0889,77.0595,28.4,47,0.0,859.7,8.8,33.1,85,29.5,24.6,4,5,7,0,2026-03-29T10:44:15.454273+05:30
Silchar,Assam,24.8333,92.7789,23.7,81,0.0,1009.0,8.2,34.9,147,66.6,39.0,3,0,4,1,2026-03-29T10:44:15.454280+05:30
Dibrugarh,Assam,27.4728,94.912,21.6,83,0.0,999.8,7.45,16.9,89,26.7,19.7,3,5,7,1,2026-03-29T10:44:15.454287+05:30
