city,state,latitude,longitude,temp,humidity,rain,pressure,uv_index,wind_gusts,aqi,pm10,pm2_5,mosquito_risk,arthritis_risk,migraine_risk,frizz_risk,updated_at
Delhi,Delhi,28.6139,77.209,22.6,60,0.0,985.7,6.9,28.1,191,264.5,86.1,0,5,7,0,2026-04-06T08:18:12.727508+05:30
Mumbai,Maharashtra,19.076,72.8777,28.1,60,0.0,1011.4,7.95,23.4,62,28.5,17.9,4,0,4,1,2026-04-06T08:18:12.727567+05:30
Bangalore,Karnataka,12.9716,77.5946,24.3,71,0.0,914.1,9.65,29.9,87,23.9,22.6,3,5,7,1,2026-04-06T08:18:12.727582+05:30
Hyderabad,Telangana,17.385,78.4867,28.3,49,0.0,955.3,9.15,33.5,126,60.3,54.6,4,5,7,1,2026-04-06T08:18:12.727593+05:30
Chennai,Tamil Nadu,13.0827,80.2707,28.1,81,0.0,1009.6,9.35,26.6,60,22.6,18.3,7,0,4,1,2026-04-06T08:18:12.727602+05:30
Kolkata,West Bengal,22.5726,88.3639,26.6,83,0.0,1008.5,8.65,17.6,141,41.4,39.3,7,0,4,1,2026-04-06T08:18:12.727611+05:30
Pune,Maharashtra,18.5204,73.8567,22.3,77,0.0,950.8,8.55,32.0,66,37.8,27.1,3,5,7,1,2026-04-06T08:18:12.727623+05:30
Ahmedabad,Gujarat,23.0225,72.5714,24.9,54,0.0,1005.6,7.95,28.4,64,22.1,14.6,0,5,4,0,2026-04-06T08:18:12.727631+05:30
Jaipur,Rajasthan,26.9124,75.7873,23.9,47,0.0,962.3,7.55,30.6,107,195.1,41.1,0,5,7,0,2026-04-06T08:18:12.727638+05:30
Lucknow,Uttar Pradesh,26.8467,80.9462,23.5,65,0.0,995.9,7.45,32.0,92,76.8,38.6,3,5,7,1,2026-04-06T08:18:12.727646+05:30
Kanpur,Uttar Pradesh,26.4499,80.3319,23.6,73,0.0,994.3,7.5,33.1,120,144.4,47.8,3,5,7,1,2026-04-06T08:18:12.727653+05:30
Chandigarh,Chandigarh,30.7333,76.7794,21.5,56,0.0,970.7,6.85,17.3,67,28.9,25.9,0,5,7,0,2026-04-06T08:18:12.727661+05:30
Srinagar,Jammu and Kashmir,34.0837,74.7973,8.9,88,0.0,840.0,7.95,22.7,90,30.3,26.7,3,10,7,0,2026-04-06T08:18:12.727668+05:30
Jammu,Jammu and Kashmir,32.7266,74.857,21.1,56,0.0,974.7,7.55,21.6,78,37.8,30.3,0,5,7,0,2026-04-06T08:18:12.727675+05:30
Amritsar,Punjab,31.634,74.8723,20.1,71,0.0,983.2,7.5,14.8,111,66.4,55.9,3,5,7,0,2026-04-06T08:18:12.727682+05:30
Ludhiana,Punjab,30.901,75.8573,20.8,70,0.0,981.1,7.1,19.4,106,70.1,61.5,3,5,7,0,2026-04-06T08:18:12.727688+05:30
Jalandhar,Punjab,31.326,75.5762,19.9,76,0.0,982.1,7.25,15.8,89,60.5,48.2,3,5,7,0,2026-04-06T08:18:12.727696+05:30
Dehradun,Uttarakhand,30.6284,78.0322,12.8,67,0.0,829.6,6.65,28.1,41,7.3,4.8,3,5,7,0,2026-04-06T08:18:12.727703+05:30
Shimla,Himachal Pradesh,31.1048,77.1734,12.4,62,0.0,783.8,6.3,28.4,46,26.5,17.8,3,5,7,0,2026-04-06T08:18:12.727709+05:30
Manali,Himachal Pradesh,32.2396,77.1887,12.7,66,0.0,817.5,9.6,25.9,42,15.0,9.0,3,5,7,0,2026-04-06T08:18:12.727716+05:30
Gurgaon,Haryana,28.4595,77.0266,21.6,65,0.0,984.1,7.05,27.7,621,353.0,101.3,3,5,7,0,2026-04-06T08:18:12.727723+05:30
Noida,Uttar Pradesh,28.5355,77.391,22.8,61,0.0,987.2,6.95,28.4,621,353.0,101.3,3,5,7,0,2026-04-06T08:18:12.727729+05:30
Ghaziabad,Uttar Pradesh,28.6692,77.4538,21.8,66,0.0,985.3,6.9,28.4,131,205.4,69.2,3,5,7,0,2026-04-06T08:18:12.727735+05:30
Faridabad,Haryana,28.4089,77.3178,22.8,60,0.0,986.4,7.0,27.4,621,353.0,101.3,0,5,7,0,2026-04-06T08:18:12.727744+05:30
Meerut,Uttar Pradesh,28.9845,77.7064,21.3,70,0.0,983.9,6.8,24.8,131,205.4,69.2,3,5,7,0,2026-04-06T08:18:12.727750+05:30
Agra,Uttar Pradesh,27.1767,78.0081,22.6,68,0.0,990.6,7.3,27.4,192,670.6,120.6,3,5,7,1,2026-04-06T08:18:12.727757+05:30
Varanasi,Uttar Pradesh,25.3176,82.9739,24.8,67,0.0,999.9,7.7,24.8,87,49.6,30.3,3,5,7,1,2026-04-06T08:18:12.727765+05:30
Prayagraj,Uttar Pradesh,25.4358,81.8463,24.8,69,0.0,998.4,7.3,23.8,71,86.1,38.1,3,5,7,1,2026-04-06T08:18:12.727772+05:30
Gorakhpur,Uttar Pradesh,26.7606,83.3732,25.3,56,0.0,998.9,7.8,31.7,68,45.5,32.2,4,5,7,0,2026-04-06T08:18:12.727778+05:30
Bareilly,Uttar Pradesh,28.367,79.4304,21.6,77,0.0,989.2,7.2,27.7,85,48.9,38.8,3,5,7,1,2026-04-06T08:18:12.727785+05:30
Aligarh,Uttar Pradesh,27.8974,78.088,22.9,61,0.0,988.2,7.1,27.4,202,359.5,92.4,3,5,7,0,2026-04-06T08:18:12.727792+05:30
Moradabad,Uttar Pradesh,28.8386,78.7733,21.3,79,0.0,986.0,7.0,27.4,106,62.9,49.9,3,5,7,1,2026-04-06T08:18:12.727799+05:30
Saharanpur,Uttar Pradesh,29.9637,77.546,21.2,61,0.0,978.0,6.6,22.3,93,79.2,65.7,3,5,7,0,2026-04-06T08:18:12.727808+05:30
Jhansi,Uttar Pradesh,25.4484,78.5685,23.2,69,0.0,981.0,7.85,24.1,63,83.4,27.6,3,5,7,1,2026-04-06T08:18:16.051564+05:30
Surat,Gujarat,21.1702,72.8311,26.4,70,0.0,1009.9,7.7,28.8,80,33.2,26.8,7,0,4,1,2026-04-06T08:18:16.051595+05:30
Vadodara,Gujarat,22.3072,73.1812,25.7,61,0.0,1007.7,7.95,29.2,74,28.5,24.0,7,5,4,1,2026-04-06T08:18:16.051605+05:30
Rajkot,Gujarat,22.3039,70.8022,23.8,79,0.0,997.9,7.7,38.9,41,30.7,13.6,3,5,7,1,2026-04-06T08:18:16.051613+05:30
Thane,Maharashtra,19.2183,72.9781,27.0,65,0.0,1010.9,7.9,37.8,62,28.5,17.9,7,0,4,1,2026-04-06T08:18:16.051620+05:30
Nagpur,Maharashtra,21.1458,79.0882,26.1,51,0.0,974.4,8.5,24.1,69,20.8,18.0,4,5,7,0,2026-04-06T08:18:16.051628+05:30
Nashik,Maharashtra,19.9975,73.7898,21.7,77,0.0,947.9,8.2,32.8,57,28.8,16.4,3,5,7,1,2026-04-06T08:18:16.051635+05:30
Aurangabad,Maharashtra,19.8762,75.3433,22.2,57,0.0,946.5,8.9,28.1,52,19.4,12.3,0,5,7,0,2026-04-06T08:18:16.051641+05:30
Solapur,Maharashtra,17.6599,75.9064,24.7,58,0.0,959.9,9.0,34.9,51,24.7,18.5,0,5,7,0,2026-04-06T08:18:16.051649+05:30
Kolhapur,Maharashtra,16.705,74.2433,22.2,73,0.0,950.0,9.0,39.6,69,39.0,26.1,3,5,7,1,2026-04-06T08:18:16.051655+05:30
Goa,Goa,15.2993,74.124,26.2,75,0.0,1001.0,9.0,38.9,68,44.4,26.6,7,5,4,1,2026-04-06T08:18:16.051662+05:30
Jodhpur,Rajasthan,26.2389,73.0243,24.8,45,0.0,985.6,7.85,34.9,69,147.1,27.7,0,5,7,0,2026-04-06T08:18:16.051668+05:30
Udaipur,Rajasthan,24.5854,73.7125,22.7,52,0.0,948.6,8.4,34.9,32,19.4,10.2,0,5,7,0,2026-04-06T08:18:16.051675+05:30
Kota,Rajasthan,25.2138,75.8648,24.8,40,0.0,981.5,7.85,26.3,66,40.0,20.6,0,5,7,0,2026-04-06T08:18:16.051682+05:30
Bikaner,Rajasthan,28.0229,73.3119,23.3,49,0.0,984.5,7.65,27.4,41,29.6,12.8,0,5,7,0,2026-04-06T08:18:16.051688+05:30
Ajmer,Rajasthan,26.4499,74.6399,22.9,51,0.0,956.8,7.8,27.4,52,38.8,21.7,0,5,7,0,2026-04-06T08:18:16.051694+05:30
Gwalior,Madhya Pradesh,26.2183,78.1828,23.9,68,0.0,986.1,7.6,25.9,75,126.7,32.8,3,5,7,1,2026-04-06T08:18:16.051701+05:30
Indore,Madhya Pradesh,22.7196,75.8577,23.6,49,0.0,950.2,8.35,28.1,54,18.0,15.3,0,5,7,0,2026-04-06T08:18:16.051707+05:30
Bhopal,Madhya Pradesh,23.2599,77.4126,24.6,44,0.0,955.8,8.3,29.9,41,19.6,12.0,0,5,7,0,2026-04-06T08:18:16.051713+05:30
Jabalpur,Madhya Pradesh,23.1815,79.9864,25.9,50,0.0,963.1,7.95,27.4,63,22.1,15.1,4,5,7,0,2026-04-06T08:18:16.051719+05:30
Ujjain,Madhya Pradesh,23.1765,75.7885,23.3,51,0.0,955.8,8.2,28.4,42,18.3,16.3,0,5,7,0,2026-04-06T08:18:16.051726+05:30
Visakhapatnam,Andhra Pradesh,17.6868,83.2185,27.3,80,0.0,1006.2,9.1,37.1,109,54.0,47.8,7,5,4,1,2026-04-06T08:18:16.051732+05:30
Vijayawada,Andhra Pradesh,16.5062,80.648,28.9,82,0.0,1004.2,9.15,31.3,82,18.0,14.1,7,5,4,1,2026-04-06T08:18:16.051738+05:30
Guntur,Andhra Pradesh,16.3067,80.4365,29.3,78,0.0,1005.4,9.2,32.0,89,18.7,14.9,7,5,4,1,2026-04-06T08:18:16.051744+05:30
Nellore,Andhra Pradesh,14.4426,79.9865,28.0,74,0.0,1008.4,9.3,33.1,63,17.7,14.8,7,0,4,1,2026-04-06T08:18:16.051751+05:30
Kurnool,Andhra Pradesh,15.8281,78.0373,30.5,39,0.0,978.9,9.2,36.4,114,26.5,25.4,0,5,7,0,2026-04-06T08:18:16.051758+05:30
Kakinada,Andhra Pradesh,16.9891,82.2475,27.9,80,0.0,1009.8,9.1,24.8,63,21.7,14.9,7,0,4,1,2026-04-06T08:18:16.051764+05:30
Tirupati,Andhra Pradesh,13.6288,79.4192,26.3,87,0.0,994.1,8.7,23.8,86,22.2,20.6,7,5,7,1,2026-04-06T08:18:16.051770+05:30
Warangal,Telangana,17.9689,79.5941,26.8,73,0.0,980.9,9.05,36.7,152,60.5,55.5,7,5,7,1,2026-04-06T08:18:16.051777+05:30
Nizamabad,Telangana,18.6725,78.0941,26.1,58,0.0,967.1,8.95,29.2,90,21.1,18.0,4,5,7,1,2026-04-06T08:18:16.051784+05:30
Mysore,Karnataka,12.2958,76.6396,24.1,74,0.0,930.6,9.55,38.5,74,29.6,27.0,3,5,7,1,2026-04-06T08:18:16.051790+05:30
Mangalore,Karnataka,12.9141,74.856,29.1,73,0.0,1009.1,9.2,41.0,58,38.6,23.6,7,0,4,1,2026-04-06T08:18:16.051796+05:30
Hubli-Dharwad,Karnataka,15.3647,75.124,22.5,68,0.0,943.0,9.2,34.9,55,25.1,17.3,3,5,7,1,2026-04-06T08:18:16.051802+05:30
Belgaum,Karnataka,15.8497,74.4977,21.7,61,0.0,927.5,9.25,36.0,59,38.3,20.3,3,5,7,0,2026-04-06T08:18:19.384705+05:30
Coimbatore,Tamil Nadu,11.0168,76.9558,27.1,70,0.0,964.1,9.5,51.1,75,28.9,25.7,7,5,7,1,2026-04-06T08:18:19.384737+05:30
Madurai,Tamil Nadu,9.9252,78.1198,28.5,69,0.0,995.0,9.4,27.7,94,39.6,37.5,7,5,7,1,2026-04-06T08:18:19.384749+05:30
Trichy,Tamil Nadu,10.7905,78.7047,27.9,77,0.0,1001.7,9.25,24.1,90,35.7,34.0,7,5,4,1,2026-04-06T08:18:19.384758+05:30
Salem,Tamil Nadu,11.6643,78.146,28.1,75,0.0,979.6,8.7,38.9,82,26.0,23.7,7,5,7,1,2026-04-06T08:18:19.384767+05:30
Tirunelveli,Tamil Nadu,8.7139,77.7567,31.2,57,0.0,1004.8,6.8,23.4,57,19.6,15.8,0,5,4,1,2026-04-06T08:18:19.384775+05:30
Vellore,Tamil Nadu,12.9165,79.1325,26.8,82,0.0,986.9,9.45,25.2,104,35.5,33.4,7,5,7,1,2026-04-06T08:18:19.384785+05:30
Erode,Tamil Nadu,11.341,77.7172,28.7,77,0.0,991.2,9.45,32.4,76,28.8,25.3,7,5,7,1,2026-04-06T08:18:19.384794+05:30
Kochi,Kerala,9.9312,76.2673,29.1,77,0.0,1010.7,8.9,37.8,66,31.3,26.4,7,0,4,1,2026-04-06T08:18:19.384802+05:30
Thiruvananthapuram,Kerala,8.5241,76.9366,27.9,85,0.0,1010.1,3.45,39.6,53,25.6,17.4,7,0,0,1,2026-04-06T08:18:19.384810+05:30
Kozhikode,Kerala,11.2588,75.7804,28.8,77,0.0,1009.9,9.15,40.3,58,36.0,17.6,7,0,4,1,2026-04-06T08:18:19.384817+05:30
Thrissur,Kerala,10.5276,76.2144,29.3,77,0.0,1009.0,9.2,40.7,69,38.8,32.7,7,0,4,1,2026-04-06T08:18:19.384824+05:30
Kannur,Kerala,11.8745,75.3704,28.6,74,0.0,1009.4,9.2,48.2,56,29.2,17.8,7,0,4,1,2026-04-06T08:18:19.384830+05:30
Patna,Bihar,25.5941,85.1376,25.8,58,0.0,1002.4,6.3,30.2,61,34.6,30.7,4,5,4,1,2026-04-06T08:18:19.384837+05:30
Gaya,Bihar,24.7914,85.0002,26.1,64,0.0,996.2,5.45,21.6,65,34.0,27.8,7,5,3,1,2026-04-06T08:18:19.384843+05:30
Muzaffarpur,Bihar,26.1209,85.3647,26.0,59,0.0,1002.3,7.65,24.5,63,41.7,36.0,4,5,4,1,2026-04-06T08:18:19.384849+05:30
Bhagalpur,Bihar,25.2425,87.0117,26.4,63,0.0,1003.1,6.6,28.8,57,25.1,20.7,7,5,4,1,2026-04-06T08:18:19.384855+05:30
Ranchi,Jharkhand,23.3441,85.3096,24.1,68,0.0,940.1,8.2,27.4,90,52.5,47.6,3,5,7,1,2026-04-06T08:18:19.384862+05:30
Jamshedpur,Jharkhand,22.8046,86.2029,25.7,83,0.0,993.2,8.5,35.6,117,54.4,51.0,7,5,7,1,2026-04-06T08:18:19.384868+05:30
Dhanbad,Jharkhand,23.7957,86.4304,26.2,57,0.0,982.3,8.35,35.6,109,70.3,65.0,4,5,7,1,2026-04-06T08:18:19.384875+05:30
Bokaro,Jharkhand,23.6693,86.1511,25.6,66,0.0,986.6,8.05,35.6,98,64.7,58.8,7,5,7,1,2026-04-06T08:18:19.384881+05:30
Bhubaneswar,Odisha,20.2961,85.8245,28.0,83,0.0,1004.8,8.95,34.6,84,18.3,14.2,7,5,4,1,2026-04-06T08:18:19.384888+05:30
Cuttack,Odisha,20.4625,85.8828,28.1,82,0.0,1006.7,8.95,31.0,84,18.3,14.2,7,5,4,1,2026-04-06T08:18:19.384894+05:30
Rourkela,Odisha,22.2604,84.8536,25.9,83,0.0,987.2,7.85,38.5,124,67.8,62.6,7,5,7,1,2026-04-06T08:18:19.384900+05:30
Raipur,Chhattisgarh,21.2514,81.6296,26.4,67,0.0,976.2,8.75,26.6,119,64.3,59.5,7,5,7,1,2026-04-06T08:18:19.384906+05:30
Bhilai,Chhattisgarh,21.1938,81.3509,26.4,69,0.0,976.5,8.8,25.6,129,74.0,67.8,7,5,7,1,2026-04-06T08:18:19.384912+05:30
Guwahati,Assam,26.1158,91.7086,26.0,80,0.0,1003.3,8.25,41.0,95,42.8,38.0,7,5,4,1,2026-04-06T08:18:19.384918+05:30
Agartala,Tripura,23.8315,91.2868,27.5,80,0.0,1008.7,8.5,16.2,144,75.9,71.7,7,0,4,1,2026-04-06T08:18:19.384924+05:30
Shillong,Meghalaya,25.5788,91.8933,17.8,63,0.0,858.3,8.65,54.4,89,24.6,20.7,3,5,7,0,2026-04-06T08:18:19.384930+05:30
Imphal,Manipur,24.817,93.9368,21.4,67,0.0,925.6,8.85,52.6,147,61.9,52.7,3,5,7,0,2026-04-06T08:18:19.384937+05:30
Aizawl,Mizoram,23.7271,92.7176,23.0,57,0.0,895.9,8.75,33.1,144,57.2,48.3,0,5,7,0,2026-04-06T08:18:19.384943+05:30
Kohima,Nagaland,25.6701,94.1077,19.2,58,0.0,857.5,8.75,76.0,105,28.5,23.2,0,5,7,0,2026-04-06T08:18:19.384949+05:30
Gangtok,Sikkim,27.3314,88.6138,16.3,77,0.0,838.8,8.4,18.7,78,11.4,8.9,3,5,7,0,2026-04-06T08:18:19.384954+05:30
Siliguri,West Bengal,26.7271,88.3953,24.3,60,0.0,995.4,8.1,29.5,105,31.4,28.9,0,5,7,1,2026-04-06T08:18:22.714856+05:30
Durgapur,West Bengal,23.5204,87.3119,26.9,75,0.0,997.5,8.45,25.9,111,69.2,64.5,7,5,7,1,2026-04-06T08:18:22.714888+05:30
Asansol,West Bengal,23.6739,86.9524,27.1,66,0.0,996.0,8.45,23.4,102,66.4,61.5,7,5,7,1,2026-04-06T08:18:22.714900+05:30
Pondicherry,Puducherry,11.9139,79.8145,27.3,88,0.0,1010.4,9.3,24.8,66,27.1,24.3,7,0,4,1,2026-04-06T08:18:22.714910+05:30
Port Blair,Andaman and Nicobar Islands,11.6234,92.7265,28.7,72,0.0,1009.3,9.2,19.4,27,10.6,6.7,7,0,4,1,2026-04-06T08:18:22.714919+05:30
Haridwar,Uttarakhand,29.9457,78.1642,22.8,58,0.0,976.3,6.7,23.4,69,25.5,19.2,0,5,7,0,2026-04-06T08:18:22.714928+05:30
Rishikesh,Uttarakhand,30.0869,78.2676,22.6,55,0.0,969.0,6.8,25.6,53,16.3,12.0,0,5,7,0,2026-04-06T08:18:22.714936+05:30
Nainital,Uttarakhand,29.3919,79.4542,17.8,57,0.0,806.4,5.85,31.0,58,17.9,13.1,0,5,3,0,2026-04-06T08:18:22.714945+05:30
Mussoorie,Uttarakhand,30.4599,78.0664,14.9,62,0.0,802.5,5.35,29.9,60,20.9,15.5,3,5,3,0,2026-04-06T08:18:22.714953+05:30
Dharamshala,Himachal Pradesh,32.219,76.3234,18.0,57,0.0,869.0,7.45,23.8,43,16.8,10.2,0,5,7,0,2026-04-06T08:18:22.714961+05:30
Dalhousie,Himachal Pradesh,32.5387,75.971,14.0,55,0.0,802.7,6.9,20.9,62,21.2,16.5,0,5,7,0,2026-04-06T08:18:22.714970+05:30
Patiala,Punjab,30.3398,76.3869,21.0,68,0.0,980.6,6.75,20.9,116,52.5,49.0,3,5,7,0,2026-04-06T08:18:22.714978+05:30
Bhatinda,Punjab,30.211,74.9455,21.1,66,0.0,986.2,7.45,23.8,102,73.3,68.0,3,5,7,0,2026-04-06T08:18:22.714986+05:30
Rohtak,Haryana,28.8955,76.6066,21.5,63,0.0,984.5,6.95,29.5,354,312.9,88.7,3,5,7,0,2026-04-06T08:18:22.714994+05:30
Panipat,Haryana,29.3909,76.9635,21.7,65,0.0,983.0,6.75,22.7,448,254.3,72.4,3,5,7,0,2026-04-06T08:18:22.715002+05:30
Mathura,Uttar Pradesh,27.4924,77.6737,23.3,61,0.0,989.6,7.25,26.6,359,597.9,122.0,3,5,7,0,2026-04-06T08:18:22.715010+05:30
Vrindavan,Uttar Pradesh,27.5823,77.7027,22.7,66,0.0,989.9,7.2,26.6,359,597.9,122.0,3,5,7,1,2026-04-06T08:18:22.715018+05:30
Ayodhya,Uttar Pradesh,26.7922,82.1998,24.5,62,0.0,997.5,7.6,32.4,79,55.3,37.4,3,5,7,1,2026-04-06T08:18:22.715027+05:30
Ratlam,Madhya Pradesh,23.3315,75.0367,24.5,50,0.0,957.0,8.2,31.3,44,16.0,13.7,0,5,7,0,2026-04-06T08:18:22.715035+05:30
Sagar,Madhya Pradesh,23.8388,78.7378,24.5,59,0.0,952.1,8.3,21.2,41,60.5,19.6,0,5,7,0,2026-04-06T08:18:22.715043+05:30
Satna,Madhya Pradesh,24.6005,80.8322,25.0,64,0.0,973.5,8.25,25.2,56,91.3,26.1,7,5,7,1,2026-04-06T08:18:22.715050+05:30
Akola,Maharashtra,20.7002,77.0082,25.5,59,0.0,977.8,8.6,29.2,58,21.5,19.0,4,5,7,1,2026-04-06T08:18:22.715058+05:30
Amravati,Maharashtra,20.9374,77.7796,26.1,51,0.0,969.5,8.6,27.0,56,19.8,17.4,4,5,7,0,2026-04-06T08:18:22.715070+05:30
Latur,Maharashtra,18.4088,76.5604,23.7,61,0.0,942.0,9.0,29.9,64,25.0,18.3,3,5,7,0,2026-04-06T08:18:22.715077+05:30
Nanded,Maharashtra,19.1383,77.3091,25.9,56,0.0,971.2,8.85,24.8,65,18.4,15.4,4,5,7,1,2026-04-06T08:18:22.715084+05:30
Gulbarga,Karnataka,17.3297,76.8343,27.0,51,0.0,961.2,9.0,32.0,56,20.3,15.4,4,5,7,0,2026-04-06T08:18:22.715089+05:30
Bidar,Karnataka,17.9104,77.5199,26.0,52,0.0,937.8,9.05,28.4,82,22.9,17.7,4,5,7,0,2026-04-06T08:18:22.715095+05:30
Hospet,Karnataka,15.2689,76.3909,25.5,59,0.0,958.4,9.25,31.3,55,18.6,15.3,4,5,7,1,2026-04-06T08:18:22.715101+05:30
Tirupur,Tamil Nadu,11.1085,77.3411,27.8,74,0.0,977.4,9.55,40.0,79,33.6,31.0,7,5,7,1,2026-04-06T08:18:22.715107+05:30
Alappuzha,Kerala,9.4981,76.3388,28.5,81,0.0,1010.9,7.8,34.2,62,29.9,23.4,7,0,4,1,2026-04-06T08:18:22.715113+05:30
Munnar,Kerala,10.0889,77.0595,22.5,81,0.0,859.1,8.65,34.9,65,14.4,11.5,3,5,7,1,2026-04-06T08:18:22.715120+05:30
Silchar,Assam,24.8333,92.7789,25.8,84,0.0,1008.1,8.5,20.5,154,70.3,58.7,7,0,4,1,2026-04-06T08:18:22.715126+05:30
Dibrugarh,Assam,27.4728,94.912,22.6,85,0.0,997.5,8.3,38.2,106,49.1,36.0,3,5,7,1,2026-04-06T08:18:22.715132+05:30
