city,state,latitude,longitude,temp,humidity,rain,pressure,uv_index,wind_gusts,aqi,pm10,pm2_5,mosquito_risk,arthritis_risk,migraine_risk,frizz_risk,updated_at
Delhi,Delhi,28.6139,77.209,22.4,57,0.0,986.7,5.75,37.4,227,633.3,108.0,0,5,3,0,2026-03-02T20:15:13.643576+05:30
Mumbai,Maharashtra,19.076,72.8777,26.5,77,0.0,1011.2,7.3,25.6,116,37.1,25.3,7,0,4,1,2026-03-02T20:15:13.643623+05:30
Bangalore,Karnataka,12.9716,77.5946,26.5,41,0.0,913.1,9.05,28.8,143,47.7,47.1,4,5,7,0,2026-03-02T20:15:13.643639+05:30
Hyderabad,Telangana,17.385,78.4867,27.1,52,0.0,955.7,8.3,16.6,153,48.7,48.3,4,5,7,1,2026-03-02T20:15:13.643649+05:30
Chennai,Tamil Nadu,13.0827,80.2707,26.1,73,0.0,1010.0,8.8,30.2,129,41.4,37.6,7,0,4,1,2026-03-02T20:15:13.643658+05:30
Kolkata,West Bengal,22.5726,88.3639,26.4,72,0.0,1008.0,7.65,16.6,165,115.7,101.3,7,0,4,1,2026-03-02T20:15:13.643682+05:30
Pune,Maharashtra,18.5204,73.8567,27.4,57,0.0,950.8,7.85,28.4,151,27.4,26.4,4,5,7,1,2026-03-02T20:15:13.643696+05:30
Ahmedabad,Gujarat,23.0225,72.5714,29.2,38,0.0,1005.1,7.1,15.5,130,42.1,32.2,4,5,4,0,2026-03-02T20:15:13.643704+05:30
Jaipur,Rajasthan,26.9124,75.7873,25.9,31,0.0,963.6,6.5,30.2,99,83.6,32.0,4,5,7,0,2026-03-02T20:15:13.643712+05:30
Lucknow,Uttar Pradesh,26.8467,80.9462,23.8,49,0.0,996.5,6.25,37.4,146,199.8,61.9,0,5,7,0,2026-03-02T20:15:13.643721+05:30
Kanpur,Uttar Pradesh,26.4499,80.3319,22.2,64,0.0,995.0,6.25,32.0,151,253.3,60.5,3,5,7,0,2026-03-02T20:15:13.643728+05:30
Chandigarh,Chandigarh,30.7333,76.7794,19.5,62,0.0,971.9,5.65,38.9,112,29.9,26.4,3,5,3,0,2026-03-02T20:15:13.643736+05:30
Srinagar,Jammu and Kashmir,34.0837,74.7973,9.1,58,0.0,840.9,6.55,17.6,144,70.1,59.8,0,5,7,0,2026-03-02T20:15:13.643743+05:30
Jammu,Jammu and Kashmir,32.7266,74.857,22.3,55,0.0,975.8,6.25,26.3,103,39.2,32.7,0,5,7,0,2026-03-02T20:15:13.643750+05:30
Amritsar,Punjab,31.634,74.8723,19.6,65,0.0,984.4,6.1,25.2,143,33.6,27.5,3,5,7,0,2026-03-02T20:15:13.643757+05:30
Ludhiana,Punjab,30.901,75.8573,21.2,60,0.0,982.6,5.85,32.4,159,59.3,44.6,0,5,3,0,2026-03-02T20:15:13.643764+05:30
Jalandhar,Punjab,31.326,75.5762,21.3,61,0.0,983.7,6.0,30.2,160,50.8,36.9,3,5,3,0,2026-03-02T20:15:13.643772+05:30
Dehradun,Uttarakhand,30.6284,78.0322,12.5,73,0.0,829.4,6.0,27.0,98,22.7,17.9,3,5,3,0,2026-03-02T20:15:13.643779+05:30
Shimla,Himachal Pradesh,31.1048,77.1734,9.9,58,0.0,783.8,6.0,56.5,100,24.1,17.6,0,5,3,0,2026-03-02T20:15:13.643786+05:30
Manali,Himachal Pradesh,32.2396,77.1887,14.5,71,0.0,820.0,7.7,36.7,111,18.4,13.9,3,5,7,0,2026-03-02T20:15:13.643793+05:30
Gurgaon,Haryana,28.4595,77.0266,19.8,65,0.0,985.1,5.85,35.3,863,1221.9,166.2,3,5,3,0,2026-03-02T20:15:13.643799+05:30
Noida,Uttar Pradesh,28.5355,77.391,22.7,55,0.0,988.3,5.75,37.1,863,1221.9,166.2,0,5,3,0,2026-03-02T20:15:13.643806+05:30
Ghaziabad,Uttar Pradesh,28.6692,77.4538,22.1,57,0.0,986.3,5.75,36.0,184,540.2,93.6,0,5,3,0,2026-03-02T20:15:13.643813+05:30
Faridabad,Haryana,28.4089,77.3178,21.6,56,0.0,987.6,5.8,33.1,863,1221.9,166.2,0,5,3,0,2026-03-02T20:15:13.643819+05:30
Meerut,Uttar Pradesh,28.9845,77.7064,19.9,60,0.0,984.7,5.6,38.9,184,540.2,93.6,0,5,3,0,2026-03-02T20:15:13.643825+05:30
Agra,Uttar Pradesh,27.1767,78.0081,22.6,57,0.0,991.4,6.1,35.3,353,489.9,86.8,0,5,7,0,2026-03-02T20:15:13.643834+05:30
Varanasi,Uttar Pradesh,25.3176,82.9739,21.3,60,0.0,1000.8,6.9,31.7,105,52.7,34.7,0,5,4,0,2026-03-02T20:15:13.643843+05:30
Prayagraj,Uttar Pradesh,25.4358,81.8463,23.0,53,0.0,999.4,6.75,29.9,103,58.7,36.1,0,5,7,0,2026-03-02T20:15:13.643850+05:30
Gorakhpur,Uttar Pradesh,26.7606,83.3732,20.5,58,0.0,999.6,6.6,25.2,132,57.6,48.1,0,5,7,0,2026-03-02T20:15:13.643856+05:30
Bareilly,Uttar Pradesh,28.367,79.4304,20.2,62,0.0,989.6,5.9,31.3,132,81.3,36.3,3,5,3,0,2026-03-02T20:15:13.643862+05:30
Aligarh,Uttar Pradesh,27.8974,78.088,20.9,63,0.0,989.1,5.85,34.2,518,933.2,145.8,3,5,3,0,2026-03-02T20:15:13.643869+05:30
Moradabad,Uttar Pradesh,28.8386,78.7733,19.9,58,0.0,986.5,5.75,35.6,140,118.0,40.2,0,5,3,0,2026-03-02T20:15:13.643875+05:30
Saharanpur,Uttar Pradesh,29.9637,77.546,19.8,59,0.0,978.2,5.4,52.9,114,83.6,35.5,0,5,3,0,2026-03-02T20:15:13.643881+05:30
Jhansi,Uttar Pradesh,25.4484,78.5685,24.2,50,0.0,981.5,6.7,29.2,76,43.4,25.6,0,5,7,0,2026-03-02T20:15:16.985239+05:30
Surat,Gujarat,21.1702,72.8311,25.4,71,0.0,1009.6,7.0,23.0,150,88.9,82.0,7,0,4,1,2026-03-02T20:15:16.985273+05:30
Vadodara,Gujarat,22.3072,73.1812,28.2,42,0.0,1007.3,7.1,13.0,157,54.8,48.3,4,5,4,0,2026-03-02T20:15:16.985285+05:30
Rajkot,Gujarat,22.3039,70.8022,29.0,45,0.0,997.3,6.9,21.2,84,30.6,19.6,4,5,7,0,2026-03-02T20:15:16.985295+05:30
Thane,Maharashtra,19.2183,72.9781,25.6,77,0.0,1010.6,7.3,35.6,116,37.1,25.3,7,0,4,1,2026-03-02T20:15:16.985304+05:30
Nagpur,Maharashtra,21.1458,79.0882,28.3,43,0.0,976.2,7.7,20.9,103,35.5,32.7,4,5,7,0,2026-03-02T20:15:16.985314+05:30
Nashik,Maharashtra,19.9975,73.7898,26.1,52,0.0,948.4,7.5,28.1,128,24.4,21.8,4,5,7,0,2026-03-02T20:15:16.985323+05:30
Aurangabad,Maharashtra,19.8762,75.3433,28.3,41,0.0,946.9,8.0,21.2,139,27.0,26.4,4,5,7,0,2026-03-02T20:15:16.985332+05:30
Solapur,Maharashtra,17.6599,75.9064,28.8,51,0.0,959.0,8.25,14.0,174,55.4,54.8,4,5,7,1,2026-03-02T20:15:16.985342+05:30
Kolhapur,Maharashtra,16.705,74.2433,24.7,59,0.0,950.0,8.35,37.4,146,45.2,44.7,0,5,7,1,2026-03-02T20:15:16.985352+05:30
Goa,Goa,15.2993,74.124,26.8,76,0.0,1000.4,8.4,29.9,71,32.1,21.2,7,5,4,1,2026-03-02T20:15:16.985360+05:30
Jodhpur,Rajasthan,26.2389,73.0243,27.4,42,0.0,986.7,6.75,12.6,87,76.4,29.1,4,5,7,0,2026-03-02T20:15:16.985370+05:30
Udaipur,Rajasthan,24.5854,73.7125,26.2,48,0.0,950.4,7.4,15.5,105,34.9,25.1,4,5,7,0,2026-03-02T20:15:16.985380+05:30
Kota,Rajasthan,25.2138,75.8648,27.5,40,0.0,982.4,6.8,17.6,89,44.7,28.9,4,5,7,0,2026-03-02T20:15:16.985388+05:30
Bikaner,Rajasthan,28.0229,73.3119,27.2,38,0.0,986.1,6.5,20.2,71,46.2,24.2,4,5,7,0,2026-03-02T20:15:16.985396+05:30
Ajmer,Rajasthan,26.4499,74.6399,23.6,42,0.0,958.1,6.75,22.0,92,54.7,25.5,0,5,7,0,2026-03-02T20:15:16.985403+05:30
Gwalior,Madhya Pradesh,26.2183,78.1828,24.6,56,0.0,986.7,6.4,31.0,92,74.3,33.2,0,5,7,0,2026-03-02T20:15:16.985410+05:30
Indore,Madhya Pradesh,22.7196,75.8577,23.0,53,0.0,951.0,7.4,14.4,99,34.0,28.6,0,5,7,0,2026-03-02T20:15:16.985418+05:30
Bhopal,Madhya Pradesh,23.2599,77.4126,24.5,53,0.0,957.2,7.25,20.5,99,29.7,21.9,0,5,7,0,2026-03-02T20:15:16.985425+05:30
Jabalpur,Madhya Pradesh,23.1815,79.9864,25.6,38,0.0,964.9,7.35,20.9,79,33.5,23.0,4,5,7,0,2026-03-02T20:15:16.985432+05:30
Ujjain,Madhya Pradesh,23.1765,75.7885,25.4,51,0.0,957.1,7.25,11.5,117,38.5,32.4,4,5,7,0,2026-03-02T20:15:16.985440+05:30
Visakhapatnam,Andhra Pradesh,17.6868,83.2185,26.7,66,0.0,1006.4,8.35,37.8,148,42.1,38.6,7,5,4,1,2026-03-02T20:15:16.985448+05:30
Vijayawada,Andhra Pradesh,16.5062,80.648,27.3,53,0.0,1005.5,8.4,25.6,146,48.0,46.7,4,5,4,1,2026-03-02T20:15:16.985455+05:30
Guntur,Andhra Pradesh,16.3067,80.4365,26.6,62,0.0,1006.9,8.4,30.2,137,52.0,50.9,7,5,4,1,2026-03-02T20:15:16.985462+05:30
Nellore,Andhra Pradesh,14.4426,79.9865,25.7,75,0.0,1009.0,8.65,29.5,130,40.0,37.4,7,0,4,1,2026-03-02T20:15:16.985470+05:30
Kurnool,Andhra Pradesh,15.8281,78.0373,31.1,41,0.0,978.7,8.45,26.3,131,46.6,46.0,0,5,7,1,2026-03-02T20:15:16.985478+05:30
Kakinada,Andhra Pradesh,16.9891,82.2475,26.3,63,0.0,1010.3,8.35,29.2,139,40.2,36.8,7,0,4,1,2026-03-02T20:15:16.985485+05:30
Tirupati,Andhra Pradesh,13.6288,79.4192,26.5,50,0.0,994.5,8.75,32.4,148,53.8,52.5,4,5,7,0,2026-03-02T20:15:16.985492+05:30
Warangal,Telangana,17.9689,79.5941,29.8,48,0.0,981.2,8.15,17.3,138,50.6,50.1,4,5,7,1,2026-03-02T20:15:16.985499+05:30
Nizamabad,Telangana,18.6725,78.0941,28.0,45,0.0,967.5,8.05,25.6,128,38.4,37.6,4,5,7,0,2026-03-02T20:15:16.985506+05:30
Mysore,Karnataka,12.2958,76.6396,27.5,40,0.0,928.9,9.1,25.6,157,56.1,55.2,4,5,7,0,2026-03-02T20:15:16.985513+05:30
Mangalore,Karnataka,12.9141,74.856,28.5,76,0.0,1008.7,8.65,28.8,66,18.7,13.7,7,0,4,1,2026-03-02T20:15:16.985519+05:30
Hubli-Dharwad,Karnataka,15.3647,75.124,25.9,63,0.0,942.4,8.6,23.4,155,43.7,43.0,7,5,7,1,2026-03-02T20:15:16.985526+05:30
Belgaum,Karnataka,15.8497,74.4977,22.8,78,0.0,927.4,8.65,38.9,162,36.0,34.1,3,5,7,1,2026-03-02T20:15:20.327762+05:30
Coimbatore,Tamil Nadu,11.0168,76.9558,26.6,68,0.0,962.7,9.1,29.5,146,50.6,49.6,7,5,7,1,2026-03-02T20:15:20.327794+05:30
Madurai,Tamil Nadu,9.9252,78.1198,28.1,55,0.0,994.4,9.05,32.8,130,43.0,42.0,4,5,7,1,2026-03-02T20:15:20.327804+05:30
Trichy,Tamil Nadu,10.7905,78.7047,27.6,60,0.0,1001.4,8.95,32.0,149,48.2,46.9,4,5,4,1,2026-03-02T20:15:20.327812+05:30
Salem,Tamil Nadu,11.6643,78.146,29.4,47,0.0,978.2,9.0,32.4,147,50.6,49.8,4,5,7,1,2026-03-02T20:15:20.327820+05:30
Tirunelveli,Tamil Nadu,8.7139,77.7567,27.3,68,0.0,1004.7,9.05,40.3,134,37.5,36.4,7,5,4,1,2026-03-02T20:15:20.327827+05:30
Vellore,Tamil Nadu,12.9165,79.1325,27.1,52,0.0,987.1,8.85,37.1,148,46.0,44.7,4,5,7,1,2026-03-02T20:15:20.327834+05:30
Erode,Tamil Nadu,11.341,77.7172,30.8,38,0.0,989.7,9.0,23.4,140,48.7,47.7,0,5,7,0,2026-03-02T20:15:20.327841+05:30
Kochi,Kerala,9.9312,76.2673,28.3,78,0.0,1009.7,8.9,35.6,136,36.3,34.6,7,0,4,1,2026-03-02T20:15:20.327848+05:30
Thiruvananthapuram,Kerala,8.5241,76.9366,27.9,77,0.0,1009.2,8.85,27.7,129,32.7,29.8,7,0,4,1,2026-03-02T20:15:20.327856+05:30
Kozhikode,Kerala,11.2588,75.7804,28.5,77,0.0,1009.0,8.75,31.7,63,20.5,15.7,7,0,4,1,2026-03-02T20:15:20.327863+05:30
Thrissur,Kerala,10.5276,76.2144,27.3,81,0.0,1008.2,8.85,38.5,110,24.0,22.5,7,0,4,1,2026-03-02T20:15:20.327870+05:30
Kannur,Kerala,11.8745,75.3704,28.1,75,0.0,1008.9,8.75,34.9,70,20.7,16.1,7,0,4,1,2026-03-02T20:15:20.327877+05:30
Patna,Bihar,25.5941,85.1376,22.9,53,0.0,1003.2,7.05,28.8,127,66.4,43.7,0,5,4,0,2026-03-02T20:15:20.327884+05:30
Gaya,Bihar,24.7914,85.0002,19.6,56,0.0,997.1,7.15,23.8,121,54.2,32.8,0,5,7,0,2026-03-02T20:15:20.327890+05:30
Muzaffarpur,Bihar,26.1209,85.3647,21.5,48,0.0,1002.9,7.0,27.0,123,61.2,43.8,0,5,4,0,2026-03-02T20:15:20.327897+05:30
Bhagalpur,Bihar,25.2425,87.0117,21.3,59,0.0,1003.9,7.1,19.4,143,101.7,52.0,0,5,4,0,2026-03-02T20:15:20.327904+05:30
Ranchi,Jharkhand,23.3441,85.3096,21.0,33,0.0,940.4,7.8,40.3,98,36.7,20.3,0,5,7,0,2026-03-02T20:15:20.327911+05:30
Jamshedpur,Jharkhand,22.8046,86.2029,26.1,32,0.0,993.3,7.75,18.7,135,46.8,26.8,4,5,7,0,2026-03-02T20:15:20.327918+05:30
Dhanbad,Jharkhand,23.7957,86.4304,25.7,25,0.0,982.7,7.6,33.8,125,61.5,36.8,4,5,7,0,2026-03-02T20:15:20.327924+05:30
Bokaro,Jharkhand,23.6693,86.1511,23.1,32,0.0,987.0,7.6,37.1,129,61.5,36.3,0,5,7,0,2026-03-02T20:15:20.327931+05:30
Bhubaneswar,Odisha,20.2961,85.8245,26.4,72,0.0,1004.7,8.05,28.4,175,68.2,62.4,7,5,4,1,2026-03-02T20:15:20.327938+05:30
Cuttack,Odisha,20.4625,85.8828,28.2,61,0.0,1006.4,8.1,21.2,175,68.2,62.4,7,5,4,1,2026-03-02T20:15:20.327944+05:30
Rourkela,Odisha,22.2604,84.8536,25.5,40,0.0,987.7,7.65,24.8,113,50.1,35.6,4,5,7,0,2026-03-02T20:15:20.327950+05:30
Raipur,Chhattisgarh,21.2514,81.6296,27.7,41,0.0,977.3,7.75,24.1,95,59.4,49.1,4,5,7,0,2026-03-02T20:15:20.327957+05:30
Bhilai,Chhattisgarh,21.1938,81.3509,28.5,44,0.0,977.7,7.8,22.7,91,56.2,47.1,4,5,7,0,2026-03-02T20:15:20.327964+05:30
Guwahati,Assam,26.1158,91.7086,22.4,76,0.0,1004.9,7.0,28.4,152,78.0,62.4,3,5,4,1,2026-03-02T20:15:20.327971+05:30
Agartala,Tripura,23.8315,91.2868,23.8,78,0.0,1008.8,7.3,18.0,139,119.2,100.8,3,0,4,1,2026-03-02T20:15:20.327977+05:30
Shillong,Meghalaya,25.5788,91.8933,9.7,89,0.0,855.2,7.35,66.2,114,57.9,46.0,3,10,7,0,2026-03-02T20:15:20.327984+05:30
Imphal,Manipur,24.817,93.9368,14.6,74,0.0,924.4,7.6,72.4,151,86.8,70.1,3,5,7,0,2026-03-02T20:15:20.327991+05:30
Aizawl,Mizoram,23.7271,92.7176,16.5,84,0.0,894.0,7.6,42.8,142,79.9,74.7,3,10,7,0,2026-03-02T20:15:20.327998+05:30
Kohima,Nagaland,25.6701,94.1077,12.6,77,0.0,855.2,7.45,82.8,146,81.3,67.5,3,5,7,0,2026-03-02T20:15:20.328005+05:30
Gangtok,Sikkim,27.3314,88.6138,12.0,90,0.0,837.1,5.8,19.4,128,78.9,58.3,3,10,3,0,2026-03-02T20:15:20.328011+05:30
Siliguri,West Bengal,26.7271,88.3953,19.2,71,0.0,996.7,7.0,20.5,169,106.4,78.9,3,5,7,0,2026-03-02T20:15:23.673286+05:30
Durgapur,West Bengal,23.5204,87.3119,26.0,27,0.0,997.5,7.6,26.3,123,54.1,30.4,4,5,7,0,2026-03-02T20:15:23.673316+05:30
Asansol,West Bengal,23.6739,86.9524,26.3,28,0.0,996.2,7.6,28.4,104,51.5,27.9,4,5,7,0,2026-03-02T20:15:23.673326+05:30
Pondicherry,Puducherry,11.9139,79.8145,24.1,82,0.0,1011.0,8.8,29.5,123,38.8,34.6,3,0,4,1,2026-03-02T20:15:23.673335+05:30
Port Blair,Andaman and Nicobar Islands,11.6234,92.7265,27.7,72,0.0,1008.8,8.75,16.2,80,33.4,26.2,7,0,4,1,2026-03-02T20:15:23.673343+05:30
Haridwar,Uttarakhand,29.9457,78.1642,21.3,56,0.0,976.8,5.55,41.8,122,38.9,28.8,0,5,3,0,2026-03-02T20:15:23.673351+05:30
Rishikesh,Uttarakhand,30.0869,78.2676,18.9,65,0.0,969.3,5.6,31.3,124,25.3,22.4,3,5,3,0,2026-03-02T20:15:23.673358+05:30
Nainital,Uttarakhand,29.3919,79.4542,15.1,64,0.0,805.9,6.4,45.7,122,30.4,22.3,3,5,7,0,2026-03-02T20:15:23.673366+05:30
Mussoorie,Uttarakhand,30.4599,78.0664,13.4,61,0.0,802.1,5.9,33.8,120,28.8,26.5,3,5,3,0,2026-03-02T20:15:23.673374+05:30
Dharamshala,Himachal Pradesh,32.219,76.3234,17.4,60,0.0,870.9,6.1,26.3,113,30.0,23.1,0,5,7,0,2026-03-02T20:15:23.673381+05:30
Dalhousie,Himachal Pradesh,32.5387,75.971,15.3,46,0.0,805.0,6.35,22.3,120,47.3,39.3,0,5,7,0,2026-03-02T20:15:23.673389+05:30
Patiala,Punjab,30.3398,76.3869,19.7,63,0.0,981.8,5.55,37.4,158,341.8,70.1,3,5,3,0,2026-03-02T20:15:23.673397+05:30
Bhatinda,Punjab,30.211,74.9455,20.8,63,0.0,987.8,6.2,24.8,157,55.5,46.8,3,5,7,0,2026-03-02T20:15:23.673404+05:30
Rohtak,Haryana,28.8955,76.6066,20.5,62,0.0,985.6,5.75,34.9,303,670.6,111.8,3,5,3,0,2026-03-02T20:15:23.673412+05:30
Panipat,Haryana,29.3909,76.9635,19.5,62,0.0,983.9,5.55,35.3,715,1117.6,155.1,3,5,3,0,2026-03-02T20:15:23.673420+05:30
Mathura,Uttar Pradesh,27.4924,77.6737,23.0,56,0.0,990.7,6.0,29.2,415,700.4,110.1,0,5,3,0,2026-03-02T20:15:23.673427+05:30
Vrindavan,Uttar Pradesh,27.5823,77.7027,21.6,61,0.0,991.0,5.95,31.3,415,700.4,110.1,3,5,3,0,2026-03-02T20:15:23.673435+05:30
Ayodhya,Uttar Pradesh,26.7922,82.1998,21.1,49,0.0,998.2,6.4,34.6,128,71.9,43.0,0,5,7,0,2026-03-02T20:15:23.673442+05:30
Ratlam,Madhya Pradesh,23.3315,75.0367,26.8,45,0.0,957.9,7.25,7.2,105,33.3,28.6,4,5,7,0,2026-03-02T20:15:23.673449+05:30
Sagar,Madhya Pradesh,23.8388,78.7378,25.4,40,0.0,953.6,7.2,25.2,88,26.6,17.2,4,5,7,0,2026-03-02T20:15:23.673456+05:30
Satna,Madhya Pradesh,24.6005,80.8322,23.0,42,0.0,974.9,7.15,38.2,91,33.5,19.8,0,5,7,0,2026-03-02T20:15:23.673463+05:30
Akola,Maharashtra,20.7002,77.0082,27.8,41,0.0,978.1,7.75,25.9,122,25.1,24.0,4,5,7,0,2026-03-02T20:15:23.673471+05:30
Amravati,Maharashtra,20.9374,77.7796,26.1,38,0.0,970.0,7.7,24.5,119,27.4,26.0,4,5,7,0,2026-03-02T20:15:23.673479+05:30
Latur,Maharashtra,18.4088,76.5604,27.0,49,0.0,942.2,8.15,26.3,159,33.2,32.8,4,5,7,0,2026-03-02T20:15:23.673486+05:30
Nanded,Maharashtra,19.1383,77.3091,28.8,50,0.0,971.2,7.95,17.3,129,36.7,35.7,4,5,7,1,2026-03-02T20:15:23.673493+05:30
Gulbarga,Karnataka,17.3297,76.8343,29.5,48,0.0,960.6,8.25,19.4,174,54.9,54.2,4,5,7,1,2026-03-02T20:15:23.673500+05:30
Bidar,Karnataka,17.9104,77.5199,27.5,45,0.0,937.9,8.2,16.2,152,30.0,29.7,4,5,7,0,2026-03-02T20:15:23.673507+05:30
Hospet,Karnataka,15.2689,76.3909,31.3,36,0.0,957.4,8.6,21.2,179,49.9,49.5,0,5,7,0,2026-03-02T20:15:23.673514+05:30
Tirupur,Tamil Nadu,11.1085,77.3411,30.8,32,0.0,975.8,9.1,33.5,151,57.5,56.0,0,5,7,0,2026-03-02T20:15:23.673521+05:30
Alappuzha,Kerala,9.4981,76.3388,28.2,79,0.0,1009.8,8.9,32.8,151,27.0,24.8,7,0,4,1,2026-03-02T20:15:23.673528+05:30
Munnar,Kerala,10.0889,77.0595,21.9,85,0.0,857.9,9.4,22.0,126,44.2,43.3,3,5,7,1,2026-03-02T20:15:23.673536+05:30
Silchar,Assam,24.8333,92.7789,22.7,71,0.0,1007.5,7.35,18.7,154,109.0,87.3,3,5,4,1,2026-03-02T20:15:23.673543+05:30
Dibrugarh,Assam,27.4728,94.912,21.4,83,0.0,999.7,7.05,12.6,151,112.0,89.2,3,5,7,1,2026-03-02T20:15:23.673550+05:30
