city,state,latitude,longitude,temp,humidity,rain,pressure,uv_index,wind_gusts,aqi,pm10,pm2_5,mosquito_risk,arthritis_risk,migraine_risk,frizz_risk,updated_at
Delhi,Delhi,28.6139,77.209,32.0,32,0.0,987.8,6.55,19.1,164,105.5,27.3,0,5,7,0,2026-03-26T12:44:15.632641+05:30
Mumbai,Maharashtra,19.076,72.8777,29.6,71,0.0,1010.0,7.95,29.5,81,43.4,30.6,7,0,4,1,2026-03-26T12:44:15.632689+05:30
Bangalore,Karnataka,12.9716,77.5946,33.1,22,0.0,914.8,9.45,36.4,75,31.5,21.5,0,5,7,0,2026-03-26T12:44:15.632704+05:30
Hyderabad,Telangana,17.385,78.4867,35.1,32,0.0,956.5,8.95,29.2,98,34.7,25.6,0,5,10,0,2026-03-26T12:44:15.632715+05:30
Chennai,Tamil Nadu,13.0827,80.2707,32.8,50,0.0,1010.6,9.2,31.7,58,31.1,19.8,0,0,4,1,2026-03-26T12:44:15.632723+05:30
Kolkata,West Bengal,22.5726,88.3639,31.9,58,0.0,1009.2,8.45,18.4,127,81.5,63.8,0,0,4,1,2026-03-26T12:44:15.632732+05:30
Pune,Maharashtra,18.5204,73.8567,37.0,24,0.0,951.2,8.5,34.2,96,36.7,26.7,0,5,10,0,2026-03-26T12:44:15.632744+05:30
Ahmedabad,Gujarat,23.0225,72.5714,36.5,28,0.0,1005.7,7.9,26.3,65,46.1,17.3,0,5,7,0,2026-03-26T12:44:15.632753+05:30
Jaipur,Rajasthan,26.9124,75.7873,33.1,28,0.0,964.7,7.1,28.8,90,170.9,30.3,0,5,7,0,2026-03-26T12:44:15.632761+05:30
Lucknow,Uttar Pradesh,26.8467,80.9462,34.0,25,0.0,997.7,7.15,34.2,115,95.7,26.8,0,5,7,0,2026-03-26T12:44:15.632769+05:30
Kanpur,Uttar Pradesh,26.4499,80.3319,32.8,32,0.0,996.4,7.15,25.9,168,285.0,42.6,0,5,7,0,2026-03-26T12:44:15.632776+05:30
Chandigarh,Chandigarh,30.7333,76.7794,30.8,35,0.0,973.7,6.45,32.8,67,20.5,13.1,0,5,7,0,2026-03-26T12:44:15.632784+05:30
Srinagar,Jammu and Kashmir,34.0837,74.7973,14.6,56,0.0,846.7,7.3,16.9,88,24.6,14.9,0,5,7,0,2026-03-26T12:44:15.632791+05:30
Jammu,Jammu and Kashmir,32.7266,74.857,29.3,40,0.0,978.7,6.6,29.2,80,22.5,12.8,4,5,7,0,2026-03-26T12:44:15.632798+05:30
Amritsar,Punjab,31.634,74.8723,28.8,45,0.0,987.0,6.7,33.1,85,29.9,15.0,4,5,7,0,2026-03-26T12:44:15.632805+05:30
Ludhiana,Punjab,30.901,75.8573,30.4,44,0.0,984.1,6.15,32.0,86,27.8,19.8,0,5,7,1,2026-03-26T12:44:15.632812+05:30
Jalandhar,Punjab,31.326,75.5762,28.9,48,0.0,985.5,6.8,32.0,84,29.0,15.1,4,5,7,1,2026-03-26T12:44:15.632821+05:30
Dehradun,Uttarakhand,30.6284,78.0322,21.2,41,0.0,835.1,6.9,41.4,51,12.8,5.6,0,5,7,0,2026-03-26T12:44:15.632828+05:30
Shimla,Himachal Pradesh,31.1048,77.1734,19.4,41,0.0,790.2,6.95,46.8,59,12.7,7.2,0,5,7,0,2026-03-26T12:44:15.632836+05:30
Manali,Himachal Pradesh,32.2396,77.1887,20.4,37,0.0,824.6,8.75,27.7,62,9.9,6.4,0,5,7,0,2026-03-26T12:44:15.632842+05:30
Gurgaon,Haryana,28.4595,77.0266,31.5,37,0.0,986.3,5.9,25.9,321,254.3,46.8,0,5,3,0,2026-03-26T12:44:15.632850+05:30
Noida,Uttar Pradesh,28.5355,77.391,32.1,33,0.0,989.3,6.45,17.3,321,254.3,46.8,0,5,7,0,2026-03-26T12:44:15.632857+05:30
Ghaziabad,Uttar Pradesh,28.6692,77.4538,31.7,37,0.0,987.5,6.55,24.1,135,69.8,20.3,0,5,7,0,2026-03-26T12:44:15.632864+05:30
Faridabad,Haryana,28.4089,77.3178,31.7,37,0.0,988.7,6.2,26.3,321,254.3,46.8,0,5,7,0,2026-03-26T12:44:15.632871+05:30
Meerut,Uttar Pradesh,28.9845,77.7064,32.2,35,0.0,986.0,6.15,28.8,135,69.8,20.3,0,5,7,0,2026-03-26T12:44:15.632878+05:30
Agra,Uttar Pradesh,27.1767,78.0081,35.4,25,0.0,992.5,6.95,22.7,197,188.6,38.4,0,5,10,0,2026-03-26T12:44:15.632887+05:30
Varanasi,Uttar Pradesh,25.3176,82.9739,34.3,25,0.0,1001.7,7.8,29.5,102,109.0,27.1,0,5,4,0,2026-03-26T12:44:15.632897+05:30
Prayagraj,Uttar Pradesh,25.4358,81.8463,34.0,31,0.0,1000.3,7.7,26.3,100,163.4,36.7,0,5,4,0,2026-03-26T12:44:15.632904+05:30
Gorakhpur,Uttar Pradesh,26.7606,83.3732,32.4,32,0.0,1001.3,7.55,13.7,94,97.1,25.9,0,5,4,0,2026-03-26T12:44:15.632910+05:30
Bareilly,Uttar Pradesh,28.367,79.4304,31.4,44,0.0,991.3,6.8,29.9,91,34.8,23.8,0,5,7,1,2026-03-26T12:44:15.632917+05:30
Aligarh,Uttar Pradesh,27.8974,78.088,32.7,35,0.0,990.2,6.4,31.0,239,149.0,31.4,0,5,7,0,2026-03-26T12:44:15.632923+05:30
Moradabad,Uttar Pradesh,28.8386,78.7733,32.1,38,0.0,987.9,6.6,33.1,99,34.6,21.8,0,5,7,0,2026-03-26T12:44:15.632932+05:30
Saharanpur,Uttar Pradesh,29.9637,77.546,31.5,36,0.0,980.1,6.25,36.7,96,28.8,15.3,0,5,7,0,2026-03-26T12:44:15.632938+05:30
Jhansi,Uttar Pradesh,25.4484,78.5685,36.0,23,0.0,982.6,7.6,24.5,83,86.1,21.9,0,5,10,0,2026-03-26T12:44:18.941502+05:30
Surat,Gujarat,21.1702,72.8311,35.0,37,0.0,1009.7,7.7,23.4,93,48.0,30.0,0,0,4,1,2026-03-26T12:44:18.941534+05:30
Vadodara,Gujarat,22.3072,73.1812,38.1,25,0.0,1007.4,7.9,28.8,94,33.5,16.1,0,5,7,0,2026-03-26T12:44:18.941544+05:30
Rajkot,Gujarat,22.3039,70.8022,35.1,23,0.0,998.7,7.75,32.4,52,39.0,13.4,0,5,10,0,2026-03-26T12:44:18.941552+05:30
Thane,Maharashtra,19.2183,72.9781,37.8,29,0.0,1009.4,7.95,42.1,81,43.4,30.6,0,0,7,1,2026-03-26T12:44:18.941559+05:30
Nagpur,Maharashtra,21.1458,79.0882,36.5,35,0.0,976.4,8.45,22.3,76,43.1,34.6,0,5,10,1,2026-03-26T12:44:18.941566+05:30
Nashik,Maharashtra,19.9975,73.7898,34.1,29,0.0,949.3,8.15,29.9,79,27.8,16.6,0,5,7,0,2026-03-26T12:44:18.941574+05:30
Aurangabad,Maharashtra,19.8762,75.3433,35.2,27,0.0,947.8,8.65,23.0,56,15.9,10.7,0,5,10,0,2026-03-26T12:44:18.941581+05:30
Solapur,Maharashtra,17.6599,75.9064,35.5,33,0.0,960.1,8.85,23.8,111,45.6,35.6,0,5,10,1,2026-03-26T12:44:18.941589+05:30
Kolhapur,Maharashtra,16.705,74.2433,34.2,35,0.0,950.9,8.8,30.6,154,45.9,36.8,0,5,7,1,2026-03-26T12:44:18.941595+05:30
Goa,Goa,15.2993,74.124,34.0,58,0.0,999.3,7.75,32.4,97,40.3,31.0,0,5,7,1,2026-03-26T12:44:18.941602+05:30
Jodhpur,Rajasthan,26.2389,73.0243,33.7,27,0.0,987.6,7.45,30.6,74,68.5,18.2,0,5,7,0,2026-03-26T12:44:18.941609+05:30
Udaipur,Rajasthan,24.5854,73.7125,34.4,20,0.0,951.3,8.05,38.5,33,14.4,5.8,0,5,7,0,2026-03-26T12:44:18.941616+05:30
Kota,Rajasthan,25.2138,75.8648,36.5,26,0.0,982.8,7.65,16.9,77,33.8,20.0,0,5,10,0,2026-03-26T12:44:18.941622+05:30
Bikaner,Rajasthan,28.0229,73.3119,32.9,30,0.0,986.1,7.1,28.8,50,38.4,14.6,0,5,7,0,2026-03-26T12:44:18.941629+05:30
Ajmer,Rajasthan,26.4499,74.6399,33.2,28,0.0,959.2,7.35,33.5,56,81.5,16.6,0,5,7,0,2026-03-26T12:44:18.941635+05:30
Gwalior,Madhya Pradesh,26.2183,78.1828,34.7,28,0.0,988.2,7.3,23.4,84,188.6,35.2,0,5,7,0,2026-03-26T12:44:18.941642+05:30
Indore,Madhya Pradesh,22.7196,75.8577,34.8,25,0.0,952.2,8.15,30.2,69,13.2,7.2,0,5,7,0,2026-03-26T12:44:18.941649+05:30
Bhopal,Madhya Pradesh,23.2599,77.4126,36.7,22,0.0,957.6,8.05,29.5,50,20.0,8.6,0,5,10,0,2026-03-26T12:44:18.941655+05:30
Jabalpur,Madhya Pradesh,23.1815,79.9864,35.2,26,0.0,965.6,8.2,21.2,58,35.0,11.4,0,5,10,0,2026-03-26T12:44:18.941661+05:30
Ujjain,Madhya Pradesh,23.1765,75.7885,34.5,29,0.0,957.9,8.1,31.7,65,12.9,7.0,0,5,7,0,2026-03-26T12:44:18.941669+05:30
Visakhapatnam,Andhra Pradesh,17.6868,83.2185,34.6,52,0.0,1006.2,8.75,30.2,82,42.1,30.5,0,5,4,1,2026-03-26T12:44:18.941676+05:30
Vijayawada,Andhra Pradesh,16.5062,80.648,33.4,51,0.0,1005.6,9.0,22.0,68,40.3,28.2,0,5,4,1,2026-03-26T12:44:18.941683+05:30
Guntur,Andhra Pradesh,16.3067,80.4365,33.6,54,0.0,1006.7,9.0,27.7,65,36.9,25.2,0,5,4,1,2026-03-26T12:44:18.941690+05:30
Nellore,Andhra Pradesh,14.4426,79.9865,34.7,48,0.0,1008.7,9.1,31.7,55,27.4,18.6,0,0,4,1,2026-03-26T12:44:18.941698+05:30
Kurnool,Andhra Pradesh,15.8281,78.0373,38.0,21,0.0,979.0,9.0,29.2,84,34.2,23.4,0,5,10,0,2026-03-26T12:44:18.941706+05:30
Kakinada,Andhra Pradesh,16.9891,82.2475,35.7,48,0.0,1009.9,8.95,25.6,63,29.7,18.4,0,0,7,1,2026-03-26T12:44:18.941713+05:30
Tirupati,Andhra Pradesh,13.6288,79.4192,33.6,40,0.0,994.7,9.2,36.0,76,35.5,25.5,0,5,7,1,2026-03-26T12:44:18.941719+05:30
Warangal,Telangana,17.9689,79.5941,35.2,40,0.0,981.7,8.8,25.2,86,36.2,26.4,0,5,10,1,2026-03-26T12:44:18.941726+05:30
Nizamabad,Telangana,18.6725,78.0941,35.1,35,0.0,968.0,8.75,25.6,108,30.2,24.1,0,5,10,1,2026-03-26T12:44:18.941733+05:30
Mysore,Karnataka,12.2958,76.6396,34.5,20,0.0,930.9,9.4,38.5,75,31.4,22.4,0,5,7,0,2026-03-26T12:44:18.941739+05:30
Mangalore,Karnataka,12.9141,74.856,29.3,88,0.0,1007.2,9.1,30.6,105,40.3,33.9,7,5,4,1,2026-03-26T12:44:18.941746+05:30
Hubli-Dharwad,Karnataka,15.3647,75.124,34.0,35,0.0,943.1,9.1,32.4,124,30.5,24.0,0,5,7,1,2026-03-26T12:44:18.941754+05:30
Belgaum,Karnataka,15.8497,74.4977,32.2,36,0.0,928.3,9.1,31.7,130,38.0,30.0,0,5,7,0,2026-03-26T12:44:22.253610+05:30
Coimbatore,Tamil Nadu,11.0168,76.9558,33.6,37,0.0,964.0,9.4,42.5,55,26.0,18.7,0,5,7,1,2026-03-26T12:44:22.253649+05:30
Madurai,Tamil Nadu,9.9252,78.1198,33.1,46,0.0,995.2,9.35,27.4,60,31.9,22.6,0,5,7,1,2026-03-26T12:44:22.253660+05:30
Trichy,Tamil Nadu,10.7905,78.7047,32.8,50,0.0,1002.2,9.3,27.4,63,39.1,29.2,0,5,4,1,2026-03-26T12:44:22.253668+05:30
Salem,Tamil Nadu,11.6643,78.146,34.3,38,0.0,979.7,9.35,34.6,85,39.3,31.1,0,5,7,1,2026-03-26T12:44:22.253675+05:30
Tirunelveli,Tamil Nadu,8.7139,77.7567,34.8,40,0.0,1005.0,9.3,40.0,43,18.4,12.8,0,5,4,1,2026-03-26T12:44:22.253682+05:30
Vellore,Tamil Nadu,12.9165,79.1325,32.6,44,0.0,987.8,9.3,34.6,81,27.9,18.3,0,5,7,1,2026-03-26T12:44:22.253689+05:30
Erode,Tamil Nadu,11.341,77.7172,34.0,44,0.0,991.2,9.3,26.3,59,34.5,27.4,0,5,7,1,2026-03-26T12:44:22.253696+05:30
Kochi,Kerala,9.9312,76.2673,29.3,78,0.0,1009.5,9.2,34.2,95,39.3,30.5,7,0,4,1,2026-03-26T12:44:22.253704+05:30
Thiruvananthapuram,Kerala,8.5241,76.9366,28.7,75,0.0,1009.0,9.2,28.8,71,17.9,14.5,7,0,4,1,2026-03-26T12:44:22.253711+05:30
Kozhikode,Kerala,11.2588,75.7804,30.8,74,0.0,1008.5,9.1,30.6,98,46.6,37.7,3,0,4,1,2026-03-26T12:44:22.253718+05:30
Thrissur,Kerala,10.5276,76.2144,37.1,39,0.0,1007.1,9.15,39.2,97,29.4,21.9,0,5,7,1,2026-03-26T12:44:22.253725+05:30
Kannur,Kerala,11.8745,75.3704,32.5,66,0.0,1007.8,9.1,34.6,100,42.8,34.1,3,5,4,1,2026-03-26T12:44:22.253733+05:30
Patna,Bihar,25.5941,85.1376,32.9,34,0.0,1004.0,7.95,24.8,155,48.3,20.4,0,5,4,0,2026-03-26T12:44:22.253739+05:30
Gaya,Bihar,24.7914,85.0002,33.1,33,0.0,997.4,8.05,26.6,88,54.9,16.3,0,5,7,0,2026-03-26T12:44:22.253745+05:30
Muzaffarpur,Bihar,26.1209,85.3647,31.8,44,0.0,1004.2,7.95,17.6,158,52.2,30.7,0,5,4,1,2026-03-26T12:44:22.253752+05:30
Bhagalpur,Bihar,25.2425,87.0117,31.8,48,0.0,1004.9,8.0,15.1,126,62.4,26.9,0,5,4,1,2026-03-26T12:44:22.253759+05:30
Ranchi,Jharkhand,23.3441,85.3096,31.5,27,0.0,941.7,8.7,36.0,68,46.8,12.8,0,5,7,0,2026-03-26T12:44:22.253765+05:30
Jamshedpur,Jharkhand,22.8046,86.2029,34.2,44,0.0,993.8,8.55,22.0,166,98.3,69.2,0,5,7,1,2026-03-26T12:44:22.253771+05:30
Dhanbad,Jharkhand,23.7957,86.4304,34.6,27,0.0,983.0,8.45,23.8,152,73.1,41.0,0,5,7,0,2026-03-26T12:44:22.253777+05:30
Bokaro,Jharkhand,23.6693,86.1511,33.8,32,0.0,987.0,8.45,22.0,140,68.5,32.8,0,5,7,0,2026-03-26T12:44:22.253784+05:30
Bhubaneswar,Odisha,20.2961,85.8245,31.9,60,0.0,1005.9,8.75,18.0,97,66.1,51.8,0,5,4,1,2026-03-26T12:44:22.253790+05:30
Cuttack,Odisha,20.4625,85.8828,32.4,58,0.0,1007.8,8.8,11.9,97,66.1,51.8,0,5,4,1,2026-03-26T12:44:22.253796+05:30
Rourkela,Odisha,22.2604,84.8536,35.3,36,0.0,988.1,8.45,26.6,120,68.0,41.8,0,5,10,1,2026-03-26T12:44:22.253802+05:30
Raipur,Chhattisgarh,21.2514,81.6296,36.7,28,0.0,978.1,8.5,22.0,146,57.0,39.9,0,5,10,0,2026-03-26T12:44:22.253809+05:30
Bhilai,Chhattisgarh,21.1938,81.3509,36.7,30,0.0,978.5,8.5,19.8,148,54.9,40.9,0,5,10,1,2026-03-26T12:44:22.253816+05:30
Guwahati,Assam,26.1158,91.7086,28.7,61,0.0,1005.6,7.9,23.0,138,65.9,44.0,7,5,4,1,2026-03-26T12:44:22.253822+05:30
Agartala,Tripura,23.8315,91.2868,31.8,56,0.0,1009.3,8.2,20.5,162,81.3,57.4,0,0,4,1,2026-03-26T12:44:22.253828+05:30
Shillong,Meghalaya,25.5788,91.8933,19.9,43,0.0,859.9,8.3,26.6,110,50.3,31.1,0,5,7,0,2026-03-26T12:44:22.253835+05:30
Imphal,Manipur,24.817,93.9368,23.4,46,0.0,926.7,8.55,45.7,129,41.8,26.5,0,5,7,0,2026-03-26T12:44:22.253842+05:30
Aizawl,Mizoram,23.7271,92.7176,26.8,39,0.0,897.1,8.45,34.2,130,52.0,32.2,4,5,7,0,2026-03-26T12:44:22.253849+05:30
Kohima,Nagaland,25.6701,94.1077,18.1,69,0.0,858.4,8.45,47.5,109,43.5,27.4,3,5,7,0,2026-03-26T12:44:22.253855+05:30
Gangtok,Sikkim,27.3314,88.6138,18.4,69,0.0,840.7,8.05,18.7,94,58.1,42.5,3,5,7,0,2026-03-26T12:44:22.253861+05:30
Siliguri,West Bengal,26.7271,88.3953,23.5,67,0.0,998.5,7.9,32.8,153,78.9,52.7,3,5,7,1,2026-03-26T12:44:25.562955+05:30
Durgapur,West Bengal,23.5204,87.3119,33.7,48,0.0,998.2,8.4,21.2,162,79.4,50.3,0,5,7,1,2026-03-26T12:44:25.562985+05:30
Asansol,West Bengal,23.6739,86.9524,34.3,39,0.0,996.5,8.4,17.6,151,76.1,46.0,0,5,7,1,2026-03-26T12:44:25.562995+05:30
Pondicherry,Puducherry,11.9139,79.8145,32.6,55,0.0,1011.2,9.2,29.2,53,30.0,17.7,0,0,4,1,2026-03-26T12:44:25.563003+05:30
Port Blair,Andaman and Nicobar Islands,11.6234,92.7265,28.3,81,0.0,1007.7,9.15,26.6,61,12.8,8.8,7,5,4,1,2026-03-26T12:44:25.563011+05:30
Haridwar,Uttarakhand,29.9457,78.1642,31.9,37,0.0,978.4,6.4,48.2,81,19.6,11.5,0,5,7,0,2026-03-26T12:44:25.563019+05:30
Rishikesh,Uttarakhand,30.0869,78.2676,30.9,37,0.0,971.1,6.45,46.1,65,16.4,8.0,0,5,7,0,2026-03-26T12:44:25.563026+05:30
Nainital,Uttarakhand,29.3919,79.4542,23.8,45,0.0,811.7,7.25,65.9,64,23.0,14.0,0,5,7,0,2026-03-26T12:44:25.563034+05:30
Mussoorie,Uttarakhand,30.4599,78.0664,21.9,45,0.0,808.1,6.8,56.2,72,17.9,9.8,0,5,7,0,2026-03-26T12:44:25.563042+05:30
Dharamshala,Himachal Pradesh,32.219,76.3234,23.5,46,0.0,874.2,6.9,23.0,52,9.1,4.8,0,5,7,0,2026-03-26T12:44:25.563049+05:30
Dalhousie,Himachal Pradesh,32.5387,75.971,22.4,32,0.0,809.4,6.8,27.4,69,13.7,8.1,0,5,7,0,2026-03-26T12:44:25.563057+05:30
Patiala,Punjab,30.3398,76.3869,31.1,38,0.0,983.1,5.75,34.9,168,258.9,41.9,0,5,3,0,2026-03-26T12:44:25.563064+05:30
Bhatinda,Punjab,30.211,74.9455,30.8,40,0.0,989.0,5.75,40.7,88,31.0,21.1,0,5,3,0,2026-03-26T12:44:25.563071+05:30
Rohtak,Haryana,28.8955,76.6066,31.3,37,0.0,986.7,6.0,24.5,190,113.6,28.2,0,5,3,0,2026-03-26T12:44:25.563078+05:30
Panipat,Haryana,29.3909,76.9635,32.0,34,0.0,985.3,5.9,20.9,489,305.5,44.8,0,5,3,0,2026-03-26T12:44:25.563084+05:30
Mathura,Uttar Pradesh,27.4924,77.6737,33.7,32,0.0,991.5,6.8,32.0,186,84.8,26.4,0,5,7,0,2026-03-26T12:44:25.563091+05:30
Vrindavan,Uttar Pradesh,27.5823,77.7027,33.1,34,0.0,992.0,6.8,29.5,186,84.8,26.4,0,5,7,0,2026-03-26T12:44:25.563099+05:30
Ayodhya,Uttar Pradesh,26.7922,82.1998,34.0,30,0.0,999.4,7.3,32.8,96,141.1,35.2,0,5,7,0,2026-03-26T12:44:25.563105+05:30
Ratlam,Madhya Pradesh,23.3315,75.0367,34.6,28,0.0,958.6,8.05,29.5,44,10.8,5.4,0,5,7,0,2026-03-26T12:44:25.563112+05:30
Sagar,Madhya Pradesh,23.8388,78.7378,35.6,23,0.0,954.7,8.05,24.8,49,36.0,10.3,0,5,10,0,2026-03-26T12:44:25.563118+05:30
Satna,Madhya Pradesh,24.6005,80.8322,35.3,21,0.0,976.0,8.05,26.6,80,81.7,17.1,0,5,10,0,2026-03-26T12:44:25.563125+05:30
Akola,Maharashtra,20.7002,77.0082,37.5,25,0.0,978.3,8.4,24.1,56,21.1,15.1,0,5,10,0,2026-03-26T12:44:25.563133+05:30
Amravati,Maharashtra,20.9374,77.7796,38.1,24,0.0,970.5,8.4,23.8,57,21.7,15.5,0,5,10,0,2026-03-26T12:44:25.563140+05:30
Latur,Maharashtra,18.4088,76.5604,35.3,27,0.0,942.9,8.75,35.3,93,30.2,23.2,0,5,10,0,2026-03-26T12:44:25.563146+05:30
Nanded,Maharashtra,19.1383,77.3091,38.2,24,0.0,971.2,8.6,25.6,75,17.3,13.2,0,5,10,0,2026-03-26T12:44:25.563153+05:30
Gulbarga,Karnataka,17.3297,76.8343,34.3,37,0.0,962.0,8.85,16.9,102,37.7,28.9,0,5,7,1,2026-03-26T12:44:25.563159+05:30
Bidar,Karnataka,17.9104,77.5199,32.4,39,0.0,939.3,8.85,20.5,97,33.2,25.4,0,5,7,1,2026-03-26T12:44:25.563166+05:30
Hospet,Karnataka,15.2689,76.3909,34.5,34,0.0,958.2,9.05,28.1,96,31.5,24.6,0,5,7,1,2026-03-26T12:44:25.563172+05:30
Tirupur,Tamil Nadu,11.1085,77.3411,34.1,39,0.0,977.6,9.4,33.1,62,32.2,25.3,0,5,7,1,2026-03-26T12:44:25.563179+05:30
Alappuzha,Kerala,9.4981,76.3388,29.0,79,0.0,1009.7,9.15,29.5,88,33.2,26.8,7,0,4,1,2026-03-26T12:44:25.563186+05:30
Munnar,Kerala,10.0889,77.0595,31.6,36,0.0,861.0,9.7,26.6,59,26.7,17.6,0,5,7,0,2026-03-26T12:44:25.563193+05:30
Silchar,Assam,24.8333,92.7789,30.9,51,0.0,1008.4,8.25,18.7,157,69.6,43.3,0,0,4,1,2026-03-26T12:44:25.563200+05:30
Dibrugarh,Assam,27.4728,94.912,26.4,59,0.0,999.8,8.05,7.9,93,45.1,31.8,4,5,7,1,2026-03-26T12:44:25.563206+05:30
