city,state,latitude,longitude,temp,humidity,rain,pressure,uv_index,wind_gusts,aqi,pm10,pm2_5,mosquito_risk,arthritis_risk,migraine_risk,frizz_risk,updated_at
Delhi,Delhi,28.6139,77.209,26.5,45,0.0,986.9,5.7,29.9,155,188.6,73.1,4,5,3,0,2026-03-01T11:25:50.827552+05:30
Mumbai,Maharashtra,19.076,72.8777,26.0,72,0.0,1011.3,7.25,23.8,71,50.6,28.6,7,0,4,1,2026-03-01T11:25:50.827601+05:30
Bangalore,Karnataka,12.9716,77.5946,27.4,48,0.0,913.7,9.05,29.2,150,51.3,49.9,4,5,7,0,2026-03-01T11:25:50.827617+05:30
Hyderabad,Telangana,17.385,78.4867,30.5,41,0.0,955.7,8.3,27.4,122,47.7,46.7,0,5,7,0,2026-03-01T11:25:50.827627+05:30
Chennai,Tamil Nadu,13.0827,80.2707,31.9,50,0.0,1009.5,8.75,33.8,150,53.7,49.9,0,0,4,1,2026-03-01T11:25:50.827637+05:30
Kolkata,West Bengal,22.5726,88.3639,29.9,65,0.0,1007.6,7.6,25.2,84,39.0,36.8,7,5,4,1,2026-03-01T11:25:50.827646+05:30
Pune,Maharashtra,18.5204,73.8567,28.9,37,0.0,950.7,7.85,33.8,79,24.3,21.8,4,5,7,0,2026-03-01T11:25:50.827654+05:30
Ahmedabad,Gujarat,23.0225,72.5714,29.2,47,0.0,1006.5,7.05,21.2,98,49.6,22.6,4,5,4,1,2026-03-01T11:25:50.827661+05:30
Jaipur,Rajasthan,26.9124,75.7873,29.6,29,0.0,963.8,6.45,28.4,87,111.8,35.0,4,5,7,0,2026-03-01T11:25:50.827667+05:30
Lucknow,Uttar Pradesh,26.8467,80.9462,28.2,41,0.0,996.6,6.2,39.2,132,86.1,42.0,4,5,7,0,2026-03-01T11:25:50.827673+05:30
Kanpur,Uttar Pradesh,26.4499,80.3319,27.9,47,0.0,995.3,6.2,31.0,151,162.5,50.2,4,5,7,0,2026-03-01T11:25:50.827679+05:30
Chandigarh,Chandigarh,30.7333,76.7794,24.4,50,0.0,972.0,5.6,32.4,90,49.8,30.7,0,5,3,0,2026-03-01T11:25:50.827685+05:30
Srinagar,Jammu and Kashmir,34.0837,74.7973,13.6,30,0.0,843.6,6.4,14.8,151,65.2,43.7,0,5,7,1,2026-03-01T11:25:50.827691+05:30
Jammu,Jammu and Kashmir,32.7266,74.857,24.5,46,0.0,975.8,6.15,25.2,97,44.6,33.5,0,5,7,0,2026-03-01T11:25:50.827697+05:30
Amritsar,Punjab,31.634,74.8723,24.1,56,0.0,984.5,6.1,22.0,132,90.3,62.9,0,5,7,0,2026-03-01T11:25:50.827703+05:30
Ludhiana,Punjab,30.901,75.8573,24.5,58,0.0,982.4,5.8,27.4,153,87.1,70.8,0,5,3,0,2026-03-01T11:25:50.827709+05:30
Jalandhar,Punjab,31.326,75.5762,24.1,61,0.0,983.6,5.95,24.5,154,97.3,70.3,3,5,3,1,2026-03-01T11:25:50.827716+05:30
Dehradun,Uttarakhand,30.6284,78.0322,17.7,30,0.0,830.9,5.95,35.6,65,34.6,13.2,0,5,3,1,2026-03-01T11:25:50.827722+05:30
Shimla,Himachal Pradesh,31.1048,77.1734,15.5,38,0.0,785.9,6.0,51.8,71,39.6,16.5,0,5,3,0,2026-03-01T11:25:50.827727+05:30
Manali,Himachal Pradesh,32.2396,77.1887,17.2,9,0.0,819.8,7.6,34.9,51,15.0,8.8,0,5,7,1,2026-03-01T11:25:50.827733+05:30
Gurgaon,Haryana,28.4595,77.0266,26.3,49,0.0,985.5,5.8,28.1,265,581.1,112.5,4,5,3,0,2026-03-01T11:25:50.827738+05:30
Noida,Uttar Pradesh,28.5355,77.391,27.2,42,0.0,988.3,5.75,29.5,265,581.1,112.5,4,5,3,0,2026-03-01T11:25:50.827744+05:30
Ghaziabad,Uttar Pradesh,28.6692,77.4538,25.7,51,0.0,986.4,5.7,28.1,151,181.1,70.3,4,5,3,0,2026-03-01T11:25:50.827749+05:30
Faridabad,Haryana,28.4089,77.3178,26.1,51,0.0,987.6,5.75,26.3,265,581.1,112.5,4,5,3,0,2026-03-01T11:25:50.827755+05:30
Meerut,Uttar Pradesh,28.9845,77.7064,25.8,52,0.0,985.0,5.6,33.1,151,181.1,70.3,4,5,3,0,2026-03-01T11:25:50.827760+05:30
Agra,Uttar Pradesh,27.1767,78.0081,27.4,48,0.0,991.9,6.05,22.3,155,312.0,87.1,4,5,7,0,2026-03-01T11:25:50.827766+05:30
Varanasi,Uttar Pradesh,25.3176,82.9739,29.2,54,0.0,1000.3,6.85,30.6,134,82.9,46.1,4,5,4,1,2026-03-01T11:25:50.827773+05:30
Prayagraj,Uttar Pradesh,25.4358,81.8463,28.1,55,0.0,999.1,6.75,27.0,133,88.9,49.9,4,5,7,1,2026-03-01T11:25:50.827779+05:30
Gorakhpur,Uttar Pradesh,26.7606,83.3732,27.4,57,0.0,999.9,6.55,33.1,121,91.3,50.3,4,5,7,1,2026-03-01T11:25:50.827785+05:30
Bareilly,Uttar Pradesh,28.367,79.4304,25.4,57,0.0,989.8,5.9,34.2,124,69.4,51.3,4,5,3,1,2026-03-01T11:25:50.827792+05:30
Aligarh,Uttar Pradesh,27.8974,78.088,26.7,48,0.0,989.3,5.8,28.4,155,331.6,89.2,4,5,3,0,2026-03-01T11:25:50.827797+05:30
Moradabad,Uttar Pradesh,28.8386,78.7733,25.0,57,0.0,986.7,5.7,33.5,130,76.1,52.5,4,5,3,0,2026-03-01T11:25:50.827803+05:30
Saharanpur,Uttar Pradesh,29.9637,77.546,24.1,55,0.0,978.7,5.35,41.0,138,78.9,52.9,0,5,3,0,2026-03-01T11:25:50.827808+05:30
Jhansi,Uttar Pradesh,25.4484,78.5685,29.0,50,0.0,981.7,6.65,24.5,68,98.7,31.8,4,5,7,1,2026-03-01T11:25:54.088512+05:30
Surat,Gujarat,21.1702,72.8311,28.1,51,0.0,1010.5,6.95,27.0,95,73.3,52.9,4,0,4,1,2026-03-01T11:25:54.088542+05:30
Vadodara,Gujarat,22.3072,73.1812,29.9,42,0.0,1008.4,7.05,13.0,113,43.2,28.9,4,0,4,0,2026-03-01T11:25:54.088552+05:30
Rajkot,Gujarat,22.3039,70.8022,27.3,55,0.0,998.6,6.9,23.4,63,62.2,22.2,4,5,7,1,2026-03-01T11:25:54.088561+05:30
Thane,Maharashtra,19.2183,72.9781,28.5,53,0.0,1010.8,7.25,36.0,71,50.6,28.6,4,0,4,1,2026-03-01T11:25:54.088568+05:30
Nagpur,Maharashtra,21.1458,79.0882,31.2,35,0.0,975.9,7.65,28.8,134,25.8,24.8,0,5,7,0,2026-03-01T11:25:54.088575+05:30
Nashik,Maharashtra,19.9975,73.7898,27.8,35,0.0,948.2,7.45,25.6,79,29.1,25.3,4,5,7,0,2026-03-01T11:25:54.088583+05:30
Aurangabad,Maharashtra,19.8762,75.3433,29.7,34,0.0,946.8,8.0,25.6,62,28.1,25.1,4,5,7,0,2026-03-01T11:25:54.088590+05:30
Solapur,Maharashtra,17.6599,75.9064,28.4,47,0.0,959.6,8.25,19.8,76,19.3,18.7,4,5,7,0,2026-03-01T11:25:54.088597+05:30
Kolhapur,Maharashtra,16.705,74.2433,28.3,37,0.0,950.0,8.35,38.9,63,23.1,20.9,4,5,7,0,2026-03-01T11:25:54.088604+05:30
Goa,Goa,15.2993,74.124,30.3,46,0.0,1000.0,8.4,35.3,53,20.2,14.6,0,5,4,1,2026-03-01T11:25:54.088612+05:30
Jodhpur,Rajasthan,26.2389,73.0243,28.2,47,0.0,987.0,6.75,18.4,72,88.5,26.5,4,5,7,0,2026-03-01T11:25:54.088619+05:30
Udaipur,Rajasthan,24.5854,73.7125,28.2,36,0.0,950.2,7.35,25.2,59,22.1,12.1,4,5,7,0,2026-03-01T11:25:54.088626+05:30
Kota,Rajasthan,25.2138,75.8648,28.2,48,0.0,982.9,6.8,19.8,75,27.2,21.5,4,5,7,1,2026-03-01T11:25:54.088632+05:30
Bikaner,Rajasthan,28.0229,73.3119,29.1,31,0.0,985.6,6.45,16.2,64,39.1,20.5,4,5,7,0,2026-03-01T11:25:54.088639+05:30
Ajmer,Rajasthan,26.4499,74.6399,27.3,45,0.0,958.5,6.7,17.6,76,42.3,18.1,4,5,7,0,2026-03-01T11:25:54.088646+05:30
Gwalior,Madhya Pradesh,26.2183,78.1828,28.1,45,0.0,987.3,6.35,25.9,98,187.2,54.0,4,5,7,0,2026-03-01T11:25:54.088653+05:30
Indore,Madhya Pradesh,22.7196,75.8577,27.6,45,0.0,951.6,7.35,22.3,71,22.0,18.4,4,5,7,0,2026-03-01T11:25:54.088660+05:30
Bhopal,Madhya Pradesh,23.2599,77.4126,27.2,49,0.0,957.3,7.2,24.1,66,23.2,20.8,4,5,7,0,2026-03-01T11:25:54.088667+05:30
Jabalpur,Madhya Pradesh,23.1815,79.9864,29.4,45,0.0,964.5,7.3,32.8,106,16.3,15.9,4,5,7,1,2026-03-01T11:25:54.088674+05:30
Ujjain,Madhya Pradesh,23.1765,75.7885,28.4,45,0.0,957.3,7.25,20.5,82,20.1,16.4,4,5,7,0,2026-03-01T11:25:54.088682+05:30
Visakhapatnam,Andhra Pradesh,17.6868,83.2185,32.6,44,0.0,1005.5,8.3,39.2,140,66.4,63.6,0,5,4,1,2026-03-01T11:25:54.088691+05:30
Vijayawada,Andhra Pradesh,16.5062,80.648,29.3,66,0.0,1005.1,8.4,25.6,151,54.6,51.8,7,5,4,1,2026-03-01T11:25:54.088698+05:30
Guntur,Andhra Pradesh,16.3067,80.4365,30.4,60,0.0,1006.2,8.4,27.4,143,53.4,51.3,0,5,4,1,2026-03-01T11:25:54.088705+05:30
Nellore,Andhra Pradesh,14.4426,79.9865,33.0,40,0.0,1007.9,8.6,32.0,142,47.4,45.6,0,5,4,1,2026-03-01T11:25:54.088712+05:30
Kurnool,Andhra Pradesh,15.8281,78.0373,33.1,38,0.0,978.9,8.4,22.0,112,49.7,48.7,0,5,7,1,2026-03-01T11:25:54.088720+05:30
Kakinada,Andhra Pradesh,16.9891,82.2475,33.0,44,0.0,1009.6,8.3,34.2,148,63.1,58.7,0,0,4,1,2026-03-01T11:25:54.088727+05:30
Tirupati,Andhra Pradesh,13.6288,79.4192,31.8,36,0.0,993.8,8.7,30.6,152,46.4,44.6,0,5,7,0,2026-03-01T11:25:54.088734+05:30
Warangal,Telangana,17.9689,79.5941,29.4,60,0.0,981.4,8.1,27.7,130,53.2,52.2,4,5,7,1,2026-03-01T11:25:54.088740+05:30
Nizamabad,Telangana,18.6725,78.0941,30.7,42,0.0,967.7,8.0,20.9,125,38.3,37.7,0,5,7,1,2026-03-01T11:25:54.088747+05:30
Mysore,Karnataka,12.2958,76.6396,28.5,49,0.0,930.2,9.05,37.1,115,53.8,52.4,4,5,7,1,2026-03-01T11:25:54.088754+05:30
Mangalore,Karnataka,12.9141,74.856,27.9,72,0.0,1008.5,8.65,33.5,45,15.2,11.1,7,0,4,1,2026-03-01T11:25:54.088760+05:30
Hubli-Dharwad,Karnataka,15.3647,75.124,29.6,30,0.0,942.9,8.55,36.4,58,13.4,12.3,4,5,7,0,2026-03-01T11:25:54.088767+05:30
Belgaum,Karnataka,15.8497,74.4977,30.1,23,0.0,927.9,8.6,38.2,55,12.5,11.6,0,5,7,0,2026-03-01T11:25:57.335501+05:30
Coimbatore,Tamil Nadu,11.0168,76.9558,30.0,49,0.0,963.6,9.05,36.4,141,53.3,52.0,4,5,7,1,2026-03-01T11:25:57.335534+05:30
Madurai,Tamil Nadu,9.9252,78.1198,31.0,51,0.0,994.9,9.0,27.7,151,51.9,49.7,0,5,7,1,2026-03-01T11:25:57.335543+05:30
Trichy,Tamil Nadu,10.7905,78.7047,31.7,52,0.0,1001.8,8.9,26.6,152,43.1,40.7,0,5,4,1,2026-03-01T11:25:57.335551+05:30
Salem,Tamil Nadu,11.6643,78.146,32.5,39,0.0,979.0,8.95,25.6,149,49.4,47.6,0,5,7,1,2026-03-01T11:25:57.335558+05:30
Tirunelveli,Tamil Nadu,8.7139,77.7567,31.8,51,0.0,1005.1,9.05,43.9,139,48.9,47.3,0,5,4,1,2026-03-01T11:25:57.335565+05:30
Vellore,Tamil Nadu,12.9165,79.1325,32.3,32,0.0,986.6,8.8,38.5,155,49.7,47.8,0,5,7,0,2026-03-01T11:25:57.335573+05:30
Erode,Tamil Nadu,11.341,77.7172,32.5,43,0.0,990.8,8.95,26.6,137,54.1,52.3,0,5,7,1,2026-03-01T11:25:57.335580+05:30
Kochi,Kerala,9.9312,76.2673,27.8,79,0.0,1009.8,8.9,33.8,107,39.3,38.1,7,0,4,1,2026-03-01T11:25:57.335588+05:30
Thiruvananthapuram,Kerala,8.5241,76.9366,27.3,82,0.0,1009.2,8.95,23.8,91,31.5,30.2,7,0,4,1,2026-03-01T11:25:57.335595+05:30
Kozhikode,Kerala,11.2588,75.7804,29.8,59,0.0,1009.2,8.75,31.3,68,27.6,25.7,4,0,4,1,2026-03-01T11:25:57.335601+05:30
Thrissur,Kerala,10.5276,76.2144,32.1,55,0.0,1007.9,8.85,39.6,110,32.9,31.5,0,5,4,1,2026-03-01T11:25:57.335609+05:30
Kannur,Kerala,11.8745,75.3704,30.8,52,0.0,1008.6,8.75,38.2,50,14.9,11.2,0,0,4,1,2026-03-01T11:25:57.335616+05:30
Patna,Bihar,25.5941,85.1376,29.2,45,0.0,1003.1,7.0,30.2,116,78.2,47.0,4,5,4,1,2026-03-01T11:25:57.335623+05:30
Gaya,Bihar,24.7914,85.0002,29.4,46,0.0,996.5,7.1,21.2,97,63.1,37.8,4,5,7,1,2026-03-01T11:25:57.335629+05:30
Muzaffarpur,Bihar,26.1209,85.3647,29.1,45,0.0,1002.9,6.95,34.2,122,83.6,51.3,4,5,4,0,2026-03-01T11:25:57.335636+05:30
Bhagalpur,Bihar,25.2425,87.0117,28.7,56,0.0,1003.4,7.05,25.2,101,71.2,46.0,4,5,4,1,2026-03-01T11:25:57.335642+05:30
Ranchi,Jharkhand,23.3441,85.3096,27.6,30,0.0,940.2,7.75,27.7,83,39.1,33.2,4,5,7,0,2026-03-01T11:25:57.335649+05:30
Jamshedpur,Jharkhand,22.8046,86.2029,29.6,43,0.0,993.1,7.7,10.8,125,60.1,51.9,4,5,7,0,2026-03-01T11:25:57.335656+05:30
Dhanbad,Jharkhand,23.7957,86.4304,31.6,24,0.0,982.0,7.55,31.0,149,61.7,46.6,0,5,7,0,2026-03-01T11:25:57.335663+05:30
Bokaro,Jharkhand,23.6693,86.1511,31.1,25,0.0,986.1,7.55,30.6,147,59.8,46.6,0,5,7,0,2026-03-01T11:25:57.335670+05:30
Bhubaneswar,Odisha,20.2961,85.8245,32.7,42,0.0,1004.3,8.05,28.1,100,46.9,45.3,0,5,4,1,2026-03-01T11:25:57.335677+05:30
Cuttack,Odisha,20.4625,85.8828,32.9,44,0.0,1006.2,8.05,29.9,100,46.9,45.3,0,5,4,1,2026-03-01T11:25:57.335684+05:30
Rourkela,Odisha,22.2604,84.8536,31.3,32,0.0,987.4,7.6,22.3,113,57.4,54.9,0,5,7,0,2026-03-01T11:25:57.335691+05:30
Raipur,Chhattisgarh,21.2514,81.6296,32.5,38,0.0,976.8,7.75,27.4,157,74.7,74.0,0,5,7,1,2026-03-01T11:25:57.335698+05:30
Bhilai,Chhattisgarh,21.1938,81.3509,32.2,42,0.0,977.2,7.75,26.6,160,64.5,63.8,0,5,7,1,2026-03-01T11:25:57.335704+05:30
Guwahati,Assam,26.1158,91.7086,24.9,69,0.0,1004.2,7.0,32.0,163,85.2,68.2,3,5,4,1,2026-03-01T11:25:57.335711+05:30
Agartala,Tripura,23.8315,91.2868,28.9,60,0.0,1008.1,7.35,29.5,136,34.8,26.0,4,0,4,1,2026-03-01T11:25:57.335718+05:30
Shillong,Meghalaya,25.5788,91.8933,16.3,43,0.0,856.5,6.8,56.9,153,63.6,39.5,0,5,7,0,2026-03-01T11:25:57.335725+05:30
Imphal,Manipur,24.817,93.9368,20.8,45,0.0,924.1,7.55,54.0,151,60.3,36.9,0,5,7,0,2026-03-01T11:25:57.335732+05:30
Aizawl,Mizoram,23.7271,92.7176,23.6,37,0.0,894.9,7.55,40.0,123,57.5,30.6,0,5,7,0,2026-03-01T11:25:57.335738+05:30
Kohima,Nagaland,25.6701,94.1077,16.5,55,0.0,855.6,7.4,76.0,152,60.8,39.1,0,5,7,0,2026-03-01T11:25:57.335744+05:30
Gangtok,Sikkim,27.3314,88.6138,12.3,87,0.1,836.7,5.3,12.2,137,40.6,26.9,6,10,3,0,2026-03-01T11:25:57.335752+05:30
Siliguri,West Bengal,26.7271,88.3953,23.1,56,0.0,995.9,7.0,31.7,171,121.5,79.2,0,5,7,0,2026-03-01T11:26:00.772559+05:30
Durgapur,West Bengal,23.5204,87.3119,32.8,23,0.0,996.8,7.55,28.8,122,57.6,41.2,0,5,7,0,2026-03-01T11:26:00.772591+05:30
Asansol,West Bengal,23.6739,86.9524,32.6,23,0.0,995.4,7.55,28.1,106,57.7,41.2,0,5,7,0,2026-03-01T11:26:00.772602+05:30
Pondicherry,Puducherry,11.9139,79.8145,30.9,58,0.0,1010.8,8.8,29.2,144,54.1,50.3,0,0,4,1,2026-03-01T11:26:00.772611+05:30
Port Blair,Andaman and Nicobar Islands,11.6234,92.7265,28.3,59,0.0,1007.7,8.7,26.3,103,21.2,18.6,4,5,4,1,2026-03-01T11:26:00.772620+05:30
Haridwar,Uttarakhand,29.9457,78.1642,25.4,48,0.0,976.9,5.4,40.3,107,53.1,31.4,4,5,3,0,2026-03-01T11:26:00.772629+05:30
Rishikesh,Uttarakhand,30.0869,78.2676,25.6,42,0.0,969.3,5.5,37.1,89,51.7,24.5,4,5,3,0,2026-03-01T11:26:00.772638+05:30
Nainital,Uttarakhand,29.3919,79.4542,19.5,49,0.0,807.4,6.3,43.9,85,49.5,25.5,0,5,7,0,2026-03-01T11:26:00.772647+05:30
Mussoorie,Uttarakhand,30.4599,78.0664,18.0,36,0.0,803.9,5.85,41.8,88,45.9,22.1,0,5,3,0,2026-03-01T11:26:00.772655+05:30
Dharamshala,Himachal Pradesh,32.219,76.3234,20.4,43,0.0,870.6,6.05,27.7,59,15.9,6.7,0,5,7,0,2026-03-01T11:26:00.772663+05:30
Dalhousie,Himachal Pradesh,32.5387,75.971,20.0,18,0.0,806.0,6.25,28.8,90,33.5,17.1,0,5,7,1,2026-03-01T11:26:00.772673+05:30
Patiala,Punjab,30.3398,76.3869,24.8,58,0.0,981.8,5.5,29.9,154,210.9,69.8,0,5,3,0,2026-03-01T11:26:00.772682+05:30
Bhatinda,Punjab,30.211,74.9455,26.5,51,0.0,987.7,6.2,21.2,145,97.8,71.7,4,5,7,0,2026-03-01T11:26:00.772690+05:30
Rohtak,Haryana,28.8955,76.6066,26.2,49,0.0,985.8,5.7,29.2,158,168.6,68.5,4,5,3,0,2026-03-01T11:26:00.772698+05:30
Panipat,Haryana,29.3909,76.9635,25.8,53,0.0,984.1,5.5,29.9,306,457.3,97.6,4,5,3,0,2026-03-01T11:26:00.772706+05:30
Mathura,Uttar Pradesh,27.4924,77.6737,27.6,45,0.0,990.9,5.95,23.0,155,271.9,73.3,4,5,3,0,2026-03-01T11:26:00.772714+05:30
Vrindavan,Uttar Pradesh,27.5823,77.7027,27.2,47,0.0,991.2,5.95,25.6,155,271.9,73.3,4,5,3,0,2026-03-01T11:26:00.772722+05:30
Ayodhya,Uttar Pradesh,26.7922,82.1998,28.3,48,0.0,998.1,6.35,36.4,122,75.9,44.5,4,5,7,1,2026-03-01T11:26:00.772730+05:30
Ratlam,Madhya Pradesh,23.3315,75.0367,28.1,44,0.0,958.2,7.2,27.7,75,18.7,14.5,4,5,7,0,2026-03-01T11:26:00.772738+05:30
Sagar,Madhya Pradesh,23.8388,78.7378,28.2,45,0.0,953.5,7.15,19.1,53,22.9,17.1,4,5,7,0,2026-03-01T11:26:00.772746+05:30
Satna,Madhya Pradesh,24.6005,80.8322,30.0,39,0.0,974.5,7.1,28.4,101,47.3,33.8,4,5,7,0,2026-03-01T11:26:00.772754+05:30
Akola,Maharashtra,20.7002,77.0082,31.6,35,0.0,978.4,7.7,28.4,71,20.3,18.3,0,5,7,0,2026-03-01T11:26:00.772762+05:30
Amravati,Maharashtra,20.9374,77.7796,32.1,32,0.0,970.5,7.65,27.4,78,15.8,14.2,0,5,7,0,2026-03-01T11:26:00.772772+05:30
Latur,Maharashtra,18.4088,76.5604,28.7,40,0.0,942.6,8.15,25.6,75,18.6,17.6,4,5,7,0,2026-03-01T11:26:00.772780+05:30
Nanded,Maharashtra,19.1383,77.3091,30.8,38,0.0,971.6,7.9,15.5,79,16.9,15.7,0,5,7,0,2026-03-01T11:26:00.772788+05:30
Gulbarga,Karnataka,17.3297,76.8343,31.2,40,0.0,961.0,8.25,14.8,92,35.6,34.9,0,5,7,0,2026-03-01T11:26:00.772796+05:30
Bidar,Karnataka,17.9104,77.5199,29.5,44,0.0,938.0,8.2,19.1,110,32.1,31.5,4,5,7,0,2026-03-01T11:26:00.772804+05:30
Hospet,Karnataka,15.2689,76.3909,29.2,41,0.0,958.0,8.55,24.5,95,21.7,21.1,4,5,7,0,2026-03-01T11:26:00.772811+05:30
Tirupur,Tamil Nadu,11.1085,77.3411,31.1,47,0.0,977.0,9.1,20.5,151,59.5,58.0,0,5,7,1,2026-03-01T11:26:00.772819+05:30
Alappuzha,Kerala,9.4981,76.3388,27.9,78,0.0,1010.0,8.9,31.3,93,37.6,36.4,7,0,4,1,2026-03-01T11:26:00.772827+05:30
Munnar,Kerala,10.0889,77.0595,27.0,44,0.0,859.5,9.4,27.0,127,44.4,42.8,4,5,7,0,2026-03-01T11:26:00.772836+05:30
Silchar,Assam,24.8333,92.7789,28.3,49,0.0,1007.4,7.3,20.5,158,69.4,48.8,4,5,4,1,2026-03-01T11:26:00.772844+05:30
Dibrugarh,Assam,27.4728,94.912,19.5,82,0.0,999.1,7.0,13.7,157,98.7,85.4,3,10,7,1,2026-03-01T11:26:00.772852+05:30
