city,state,latitude,longitude,temp,humidity,rain,pressure,uv_index,wind_gusts,aqi,pm10,pm2_5,no2,co,o3,so2,mosquito_risk,arthritis_risk,migraine_risk,frizz_risk,updated_at
Delhi,Delhi,28.6139,77.209,30.0,48,0.0,978.1,7.6,34.2,196,289.6,83.4,45.7,585.0,88.0,30.4,4,5,7,1,2026-05-02T22:23:36.732820+05:30
Mumbai,Maharashtra,19.076,72.8777,29.4,74,0.0,1007.7,7.9,42.1,74,45.5,18.8,10.3,223.0,65.0,18.5,7,5,4,1,2026-05-02T22:23:36.732860+05:30
Bangalore,Karnataka,12.9716,77.5946,26.0,55,0.0,911.6,9.5,34.6,100,28.6,23.9,41.5,953.0,68.0,11.4,4,5,7,1,2026-05-02T22:23:36.732877+05:30
Hyderabad,Telangana,17.385,78.4867,32.7,26,0.0,951.3,9.25,34.6,78,66.4,46.6,51.3,829.0,40.0,16.0,0,5,7,0,2026-05-02T22:23:36.732887+05:30
Chennai,Tamil Nadu,13.0827,80.2707,30.9,73,0.0,1005.5,9.2,55.8,64,16.7,12.1,7.4,214.0,76.0,2.6,3,5,4,1,2026-05-02T22:23:36.732897+05:30
Kolkata,West Bengal,22.5726,88.3639,24.8,93,0.0,1004.2,8.85,49.3,66,22.9,20.4,13.0,353.0,67.0,8.2,3,5,4,1,2026-05-02T22:23:36.732906+05:30
Pune,Maharashtra,18.5204,73.8567,25.2,78,0.0,947.7,8.5,48.6,61,33.1,14.4,9.4,220.0,63.0,7.7,7,5,7,1,2026-05-02T22:23:36.732914+05:30
Ahmedabad,Gujarat,23.0225,72.5714,31.4,68,0.0,997.7,8.1,52.2,63,52.5,20.0,5.3,269.0,91.0,5.6,3,5,7,1,2026-05-02T22:23:36.732924+05:30
Jaipur,Rajasthan,26.9124,75.7873,32.2,26,0.0,955.8,8.15,39.2,115,154.1,43.4,34.3,214.0,48.0,8.0,0,5,7,0,2026-05-02T22:23:36.732933+05:30
Lucknow,Uttar Pradesh,26.8467,80.9462,26.0,67,0.0,990.6,8.1,35.3,138,78.5,40.7,17.4,376.0,99.0,12.7,7,5,7,1,2026-05-02T22:23:36.732942+05:30
Kanpur,Uttar Pradesh,26.4499,80.3319,28.0,59,0.0,988.3,8.1,35.3,150,177.4,52.7,18.3,372.0,94.0,11.6,4,5,7,1,2026-05-02T22:23:36.732950+05:30
Chandigarh,Chandigarh,30.7333,76.7794,26.2,45,0.0,963.5,7.6,33.8,140,46.9,34.1,24.5,878.0,95.0,17.1,4,5,7,0,2026-05-02T22:23:36.732958+05:30
Srinagar,Jammu and Kashmir,34.0837,74.7973,12.6,88,0.0,838.2,8.8,36.4,76,28.4,24.6,24.3,841.0,69.0,4.5,3,10,7,0,2026-05-02T22:23:36.732967+05:30
Jammu,Jammu and Kashmir,32.7266,74.857,24.0,54,0.0,966.8,8.4,31.7,110,31.5,23.5,22.0,356.0,81.0,5.2,0,5,7,0,2026-05-02T22:23:36.732975+05:30
Amritsar,Punjab,31.634,74.8723,27.9,38,0.0,975.0,8.25,32.8,165,26.1,19.2,6.5,639.0,141.0,7.6,4,5,7,0,2026-05-02T22:23:36.732982+05:30
Ludhiana,Punjab,30.901,75.8573,29.0,40,0.0,973.1,7.85,31.7,149,49.0,40.7,21.7,663.0,82.0,9.0,4,5,7,0,2026-05-02T22:23:36.732989+05:30
Jalandhar,Punjab,31.326,75.5762,27.0,43,0.0,973.9,8.05,27.0,120,69.6,27.4,15.0,1113.0,107.0,8.0,4,5,7,0,2026-05-02T22:23:36.732997+05:30
Dehradun,Uttarakhand,30.6284,78.0322,12.6,95,0.0,825.0,8.05,38.2,121,36.4,25.4,28.9,280.0,80.0,4.3,3,10,7,0,2026-05-02T22:23:36.733006+05:30
Shimla,Himachal Pradesh,31.1048,77.1734,12.6,61,0.0,780.3,8.1,46.8,139,40.0,24.3,18.7,272.0,110.0,7.7,3,5,7,0,2026-05-02T22:23:36.733013+05:30
Manali,Himachal Pradesh,32.2396,77.1887,9.4,77,0.0,812.3,10.3,42.8,135,9.3,7.6,39.3,277.0,108.0,0.5,3,5,7,0,2026-05-02T22:23:36.733022+05:30
Gurgaon,Haryana,28.4595,77.0266,29.6,43,0.0,976.4,7.7,36.4,791,841.9,138.3,54.0,708.0,84.0,29.1,4,5,7,0,2026-05-02T22:23:36.733030+05:30
Noida,Uttar Pradesh,28.5355,77.391,27.8,56,0.0,979.6,7.65,26.3,791,841.9,138.3,54.0,579.0,84.0,29.1,4,5,7,1,2026-05-02T22:23:36.733037+05:30
Ghaziabad,Uttar Pradesh,28.6692,77.4538,28.4,55,0.0,977.9,7.6,33.1,173,294.3,69.6,15.7,421.0,113.0,13.2,4,5,7,1,2026-05-02T22:23:36.733044+05:30
Faridabad,Haryana,28.4089,77.3178,29.4,49,0.0,978.9,7.65,32.4,791,841.9,138.3,54.0,714.0,84.0,29.1,4,5,7,1,2026-05-02T22:23:36.733050+05:30
Meerut,Uttar Pradesh,28.9845,77.7064,27.4,59,0.0,976.8,7.5,29.5,173,294.3,69.6,15.7,497.0,113.0,13.2,4,5,7,1,2026-05-02T22:23:36.733057+05:30
Agra,Uttar Pradesh,27.1767,78.0081,30.0,40,0.0,982.8,7.95,43.6,709,793.5,104.8,18.0,519.0,91.0,15.2,4,5,7,0,2026-05-02T22:23:36.733064+05:30
Varanasi,Uttar Pradesh,25.3176,82.9739,29.4,52,0.0,994.5,8.6,34.2,173,65.9,43.9,13.9,531.0,126.0,16.5,4,5,7,1,2026-05-02T22:23:36.733071+05:30
Prayagraj,Uttar Pradesh,25.4358,81.8463,24.9,89,0.0,993.2,8.5,51.5,166,63.1,41.4,15.1,347.0,109.0,12.5,3,5,7,1,2026-05-02T22:23:36.733081+05:30
Gorakhpur,Uttar Pradesh,26.7606,83.3732,25.2,66,0.0,995.1,8.45,31.3,150,57.6,36.4,10.2,415.0,118.0,7.3,7,5,7,1,2026-05-02T22:23:36.733088+05:30
Bareilly,Uttar Pradesh,28.367,79.4304,27.5,56,0.0,983.4,7.9,29.2,157,109.2,49.9,13.7,380.0,109.0,10.3,4,5,7,1,2026-05-02T22:23:36.733095+05:30
Aligarh,Uttar Pradesh,27.8974,78.088,28.7,56,0.0,980.9,7.75,28.4,402,466.6,81.5,20.1,483.0,90.0,17.6,4,5,7,1,2026-05-02T22:23:36.733102+05:30
Moradabad,Uttar Pradesh,28.8386,78.7733,26.5,59,0.0,979.7,7.7,31.0,169,122.5,55.4,16.0,480.0,129.0,19.1,4,5,7,1,2026-05-02T22:23:36.733109+05:30
Saharanpur,Uttar Pradesh,29.9637,77.546,25.0,66,0.0,971.1,7.35,31.7,134,157.9,72.9,35.8,590.0,87.0,18.9,7,5,7,1,2026-05-02T22:23:36.733115+05:30
Jhansi,Uttar Pradesh,25.4484,78.5685,28.3,54,0.0,973.8,8.4,49.0,76,86.4,30.3,6.9,298.0,87.0,7.9,4,5,7,1,2026-05-02T22:23:40.121563+05:30
Surat,Gujarat,21.1702,72.8311,29.0,85,0.0,1003.9,7.7,52.2,65,28.8,17.2,18.0,215.0,58.0,29.4,7,5,4,1,2026-05-02T22:23:40.121594+05:30
Vadodara,Gujarat,22.3072,73.1812,30.0,73,0.0,1000.5,8.05,50.8,58,22.0,14.8,15.4,273.0,60.0,21.3,7,5,4,1,2026-05-02T22:23:40.121605+05:30
Rajkot,Gujarat,22.3039,70.8022,31.0,46,0.0,990.7,7.75,56.5,56,37.7,16.4,5.5,173.0,78.0,7.5,0,5,7,1,2026-05-02T22:23:40.121614+05:30
Thane,Maharashtra,19.2183,72.9781,29.5,72,0.0,1007.0,7.9,40.0,74,45.5,18.8,10.3,236.0,65.0,18.5,7,5,4,1,2026-05-02T22:23:40.121622+05:30
Nagpur,Maharashtra,21.1458,79.0882,33.8,29,0.0,970.3,8.95,46.4,73,46.3,26.8,18.0,222.0,61.0,12.5,0,5,7,0,2026-05-02T22:23:40.121630+05:30
Nashik,Maharashtra,19.9975,73.7898,24.8,84,0.0,944.4,8.25,45.7,65,31.3,15.2,7.9,200.0,72.0,9.5,3,5,7,1,2026-05-02T22:23:40.121638+05:30
Aurangabad,Maharashtra,19.8762,75.3433,30.8,39,0.0,942.8,9.05,39.2,59,26.7,13.9,6.1,178.0,79.0,5.6,0,5,7,0,2026-05-02T22:23:40.121645+05:30
Solapur,Maharashtra,17.6599,75.9064,33.3,29,0.0,955.3,9.05,43.6,55,35.2,17.0,8.9,352.0,81.0,3.5,0,5,7,0,2026-05-02T22:23:40.121652+05:30
Kolhapur,Maharashtra,16.705,74.2433,24.2,85,0.0,947.9,8.95,49.0,66,39.2,17.1,8.3,192.0,57.0,2.7,3,5,7,1,2026-05-02T22:23:40.121659+05:30
Goa,Goa,15.2993,74.124,28.4,79,0.0,998.4,8.95,38.5,72,72.2,21.2,4.8,212.0,60.0,1.5,7,5,7,1,2026-05-02T22:23:40.121666+05:30
Jodhpur,Rajasthan,26.2389,73.0243,34.6,21,0.0,976.4,8.3,37.8,123,251.5,42.1,5.4,226.0,94.0,3.2,0,5,7,0,2026-05-02T22:23:40.121674+05:30
Udaipur,Rajasthan,24.5854,73.7125,32.1,21,0.0,942.6,8.8,38.2,75,107.3,25.8,3.0,197.0,108.0,3.7,0,5,7,0,2026-05-02T22:23:40.121681+05:30
Kota,Rajasthan,25.2138,75.8648,32.7,31,0.0,973.2,8.35,40.3,66,69.6,31.1,11.4,294.0,74.0,5.0,0,5,7,0,2026-05-02T22:23:40.121688+05:30
Bikaner,Rajasthan,28.0229,73.3119,35.0,21,0.0,975.3,8.25,34.6,69,82.4,27.0,6.0,412.0,82.0,5.9,0,5,7,0,2026-05-02T22:23:40.121695+05:30
Ajmer,Rajasthan,26.4499,74.6399,31.5,27,0.0,949.8,8.3,55.8,68,79.4,24.1,8.7,254.0,80.0,4.3,0,5,7,0,2026-05-02T22:23:40.121703+05:30
Gwalior,Madhya Pradesh,26.2183,78.1828,30.4,32,0.0,978.9,8.15,45.4,103,146.7,38.8,5.0,329.0,114.0,7.0,0,5,7,0,2026-05-02T22:23:40.121710+05:30
Indore,Madhya Pradesh,22.7196,75.8577,32.0,25,0.0,945.3,8.65,53.6,59,42.7,18.9,7.0,263.0,89.0,5.2,0,5,7,0,2026-05-02T22:23:40.121717+05:30
Bhopal,Madhya Pradesh,23.2599,77.4126,29.9,39,0.0,950.5,8.7,60.8,65,56.8,25.7,9.0,531.0,71.0,4.6,4,5,7,0,2026-05-02T22:23:40.121724+05:30
Jabalpur,Madhya Pradesh,23.1815,79.9864,26.3,59,0.0,958.4,8.85,72.0,71,71.2,27.8,16.2,299.0,65.0,5.2,4,5,7,1,2026-05-02T22:23:40.121731+05:30
Ujjain,Madhya Pradesh,23.1765,75.7885,31.6,25,0.0,950.4,8.6,51.5,57,53.1,21.0,3.9,233.0,93.0,4.3,0,5,7,0,2026-05-02T22:23:40.121738+05:30
Visakhapatnam,Andhra Pradesh,17.6868,83.2185,28.2,92,0.0,1002.4,8.85,55.4,60,23.4,18.4,20.3,305.0,66.0,3.7,7,5,4,1,2026-05-02T22:23:40.121745+05:30
Vijayawada,Andhra Pradesh,16.5062,80.648,30.4,74,0.0,1000.7,9.2,40.0,131,24.1,21.5,6.2,354.0,124.0,7.8,3,5,4,1,2026-05-02T22:23:40.121776+05:30
Guntur,Andhra Pradesh,16.3067,80.4365,30.0,81,0.0,1002.0,9.2,41.0,106,30.9,27.1,11.4,254.0,113.0,8.4,7,5,4,1,2026-05-02T22:23:40.121784+05:30
Nellore,Andhra Pradesh,14.4426,79.9865,31.0,72,0.0,1003.4,9.2,50.0,119,19.6,16.9,7.7,255.0,110.0,8.6,3,5,4,1,2026-05-02T22:23:40.121792+05:30
Kurnool,Andhra Pradesh,15.8281,78.0373,33.0,24,0.0,973.8,9.2,32.8,92,45.6,27.4,18.8,302.0,83.0,8.6,0,5,7,0,2026-05-02T22:23:40.121800+05:30
Kakinada,Andhra Pradesh,16.9891,82.2475,28.5,92,0.0,1006.0,9.15,43.6,52,19.4,13.8,3.1,240.0,82.0,2.3,7,5,4,1,2026-05-02T22:23:40.121806+05:30
Tirupati,Andhra Pradesh,13.6288,79.4192,31.1,67,0.0,989.9,9.3,48.2,116,29.7,27.6,13.7,329.0,120.0,9.2,3,5,7,1,2026-05-02T22:23:40.121813+05:30
Warangal,Telangana,17.9689,79.5941,31.7,38,0.0,975.9,9.15,31.0,90,52.9,36.3,26.6,467.0,66.0,10.4,0,5,7,0,2026-05-02T22:23:40.121821+05:30
Nizamabad,Telangana,18.6725,78.0941,33.0,20,0.0,961.3,9.1,31.7,68,60.8,34.9,20.8,395.0,69.0,5.7,0,5,7,0,2026-05-02T22:23:40.121829+05:30
Mysore,Karnataka,12.2958,76.6396,24.5,84,0.0,929.1,9.4,45.7,80,22.6,17.5,10.7,197.0,75.0,2.7,3,5,7,1,2026-05-02T22:23:40.121836+05:30
Mangalore,Karnataka,12.9141,74.856,29.2,74,0.0,1007.6,9.05,44.3,64,35.9,15.3,4.0,200.0,66.0,1.7,7,5,4,1,2026-05-02T22:23:40.121843+05:30
Hubli-Dharwad,Karnataka,15.3647,75.124,24.4,82,0.0,940.9,9.2,51.5,61,35.7,15.3,6.4,186.0,59.0,1.8,3,5,7,1,2026-05-02T22:23:40.121850+05:30
Belgaum,Karnataka,15.8497,74.4977,22.4,95,0.0,925.5,9.2,48.6,64,40.2,16.0,7.8,171.0,50.0,2.1,3,5,7,1,2026-05-02T22:23:43.506878+05:30
Coimbatore,Tamil Nadu,11.0168,76.9558,26.2,84,0.0,961.9,9.1,48.6,66,24.8,21.5,10.0,227.0,69.0,3.4,7,5,7,1,2026-05-02T22:23:43.506914+05:30
Madurai,Tamil Nadu,9.9252,78.1198,30.7,59,0.0,992.6,9.2,40.0,118,27.9,24.3,15.1,450.0,92.0,7.0,0,5,7,1,2026-05-02T22:23:43.506928+05:30
Trichy,Tamil Nadu,10.7905,78.7047,29.6,60,0.0,999.4,9.2,44.3,106,25.8,22.9,10.2,392.0,95.0,5.0,4,5,7,1,2026-05-02T22:23:43.506938+05:30
Salem,Tamil Nadu,11.6643,78.146,29.8,55,0.0,977.5,9.25,44.3,154,30.6,26.7,12.0,318.0,113.0,8.0,4,5,7,1,2026-05-02T22:23:43.506948+05:30
Tirunelveli,Tamil Nadu,8.7139,77.7567,30.3,62,0.0,1003.0,9.1,34.6,61,19.3,17.4,8.5,273.0,65.0,2.2,3,5,4,1,2026-05-02T22:23:43.506956+05:30
Vellore,Tamil Nadu,12.9165,79.1325,31.4,60,0.0,983.3,9.3,46.1,128,39.7,35.5,10.3,332.0,129.0,9.2,0,5,7,1,2026-05-02T22:23:43.506964+05:30
Erode,Tamil Nadu,11.341,77.7172,29.4,69,0.0,989.2,9.25,54.4,108,28.3,25.3,19.1,247.0,78.0,3.4,7,5,7,1,2026-05-02T22:23:43.506972+05:30
Kochi,Kerala,9.9312,76.2673,27.2,92,0.0,1009.8,8.1,31.7,74,35.5,31.3,33.8,416.0,24.0,6.6,7,0,4,1,2026-05-02T22:23:43.506980+05:30
Thiruvananthapuram,Kerala,8.5241,76.9366,25.6,96,0.0,1009.1,7.1,35.3,53,17.4,11.9,3.9,355.0,78.0,1.8,7,0,4,1,2026-05-02T22:23:43.506987+05:30
Kozhikode,Kerala,11.2588,75.7804,26.5,94,0.0,1009.0,8.7,40.0,58,30.5,18.0,2.3,587.0,70.0,0.9,7,0,4,1,2026-05-02T22:23:43.506994+05:30
Thrissur,Kerala,10.5276,76.2144,26.5,92,0.0,1008.4,7.8,38.2,68,38.0,32.5,23.5,443.0,34.0,4.3,7,0,4,1,2026-05-02T22:23:43.507002+05:30
Kannur,Kerala,11.8745,75.3704,29.0,79,0.0,1008.0,9.0,50.0,73,27.5,16.5,7.3,239.0,55.0,1.6,7,0,4,1,2026-05-02T22:23:43.507009+05:30
Patna,Bihar,25.5941,85.1376,25.0,71,0.0,998.9,8.65,30.2,161,56.2,45.2,11.8,355.0,128.0,13.5,7,5,7,1,2026-05-02T22:23:43.507016+05:30
Gaya,Bihar,24.7914,85.0002,26.5,66,0.0,991.4,8.75,29.5,162,64.5,42.8,8.9,446.0,141.0,15.7,7,5,7,1,2026-05-02T22:23:43.507023+05:30
Muzaffarpur,Bihar,26.1209,85.3647,24.0,73,0.0,999.4,8.65,30.6,148,49.9,40.3,11.7,363.0,120.0,10.7,3,5,7,1,2026-05-02T22:23:43.507030+05:30
Bhagalpur,Bihar,25.2425,87.0117,23.9,80,0.0,1000.3,8.65,31.0,160,56.6,45.5,11.6,344.0,109.0,7.9,3,5,4,1,2026-05-02T22:23:43.507036+05:30
Ranchi,Jharkhand,23.3441,85.3096,23.9,61,0.0,934.8,9.2,45.4,120,72.4,44.4,19.2,347.0,90.0,16.6,3,5,7,0,2026-05-02T22:23:43.507044+05:30
Jamshedpur,Jharkhand,22.8046,86.2029,25.8,79,0.0,988.4,9.0,60.1,169,75.4,62.6,17.2,431.0,140.0,39.7,7,5,7,1,2026-05-02T22:23:43.507051+05:30
Dhanbad,Jharkhand,23.7957,86.4304,24.1,85,0.0,978.2,9.0,29.9,200,101.7,91.5,44.9,561.0,125.0,81.8,3,5,7,1,2026-05-02T22:23:43.507058+05:30
Bokaro,Jharkhand,23.6693,86.1511,24.4,82,0.0,981.9,8.85,25.6,157,109.4,92.2,47.2,816.0,124.0,93.4,3,5,7,1,2026-05-02T22:23:43.507065+05:30
Bhubaneswar,Odisha,20.2961,85.8245,27.7,89,0.0,1000.3,9.05,54.7,72,16.5,14.6,6.3,253.0,81.0,4.8,7,5,4,1,2026-05-02T22:23:43.507073+05:30
Cuttack,Odisha,20.4625,85.8828,28.1,86,0.0,1001.9,9.1,52.2,72,16.5,14.6,6.3,297.0,81.0,4.8,7,5,4,1,2026-05-02T22:23:43.507079+05:30
Rourkela,Odisha,22.2604,84.8536,26.9,57,0.0,981.8,8.95,51.1,138,76.8,47.3,15.0,668.0,100.0,28.6,4,5,7,1,2026-05-02T22:23:43.507086+05:30
Raipur,Chhattisgarh,21.2514,81.6296,31.9,34,0.0,972.2,9.0,51.1,119,46.3,28.2,31.3,327.0,79.0,8.6,0,5,7,0,2026-05-02T22:23:43.507093+05:30
Bhilai,Chhattisgarh,21.1938,81.3509,31.6,35,0.0,972.8,9.0,51.5,115,52.0,27.1,23.0,289.0,93.0,7.0,0,5,7,0,2026-05-02T22:23:43.507100+05:30
Guwahati,Assam,26.1158,91.7086,20.1,99,0.4,1002.5,4.3,21.6,64,32.5,28.9,13.2,380.0,62.0,3.4,6,5,0,1,2026-05-02T22:23:43.507107+05:30
Agartala,Tripura,23.8315,91.2868,22.1,98,0.3,1005.8,8.8,36.0,37,13.4,11.6,11.8,216.0,42.0,1.9,6,5,4,1,2026-05-02T22:23:43.507114+05:30
Shillong,Meghalaya,25.5788,91.8933,14.3,97,0.0,854.6,5.85,31.0,47,5.1,3.4,5.4,324.0,87.0,1.1,3,10,3,0,2026-05-02T22:23:43.507122+05:30
Imphal,Manipur,24.817,93.9368,16.8,96,0.1,922.5,6.3,25.2,52,23.8,20.7,19.5,1013.0,36.0,3.3,6,10,7,1,2026-05-02T22:23:43.507129+05:30
Aizawl,Mizoram,23.7271,92.7176,15.0,93,0.0,890.6,9.0,46.8,34,10.4,7.5,4.5,198.0,53.0,0.5,3,10,7,0,2026-05-02T22:23:43.507136+05:30
Kohima,Nagaland,25.6701,94.1077,13.9,90,0.0,852.8,6.0,28.4,38,14.1,10.9,8.0,423.0,61.0,1.2,3,10,3,0,2026-05-02T22:23:43.507143+05:30
Gangtok,Sikkim,27.3314,88.6138,11.8,87,0.0,833.9,4.0,25.9,58,17.6,16.5,18.5,659.0,82.0,1.8,3,10,3,0,2026-05-02T22:23:43.507150+05:30
Siliguri,West Bengal,26.7271,88.3953,20.0,96,0.0,994.0,2.75,22.0,69,23.5,22.5,20.6,623.0,89.0,4.6,3,5,3,1,2026-05-02T22:23:46.894350+05:30
Durgapur,West Bengal,23.5204,87.3119,24.0,90,0.0,993.3,8.9,26.3,197,49.2,45.6,22.2,456.0,108.0,30.6,3,5,7,1,2026-05-02T22:23:46.894383+05:30
Asansol,West Bengal,23.6739,86.9524,24.1,88,0.0,991.9,8.95,27.7,206,70.3,64.3,26.5,508.0,128.0,50.6,3,5,7,1,2026-05-02T22:23:46.894394+05:30
Pondicherry,Puducherry,11.9139,79.8145,30.8,71,0.0,1007.1,9.15,52.2,67,15.4,12.5,8.7,280.0,78.0,5.4,3,5,4,1,2026-05-02T22:23:46.894403+05:30
Port Blair,Andaman and Nicobar Islands,11.6234,92.7265,28.6,76,0.0,1008.4,9.0,32.4,36,12.1,8.7,0.4,166.0,59.0,0.3,7,0,4,1,2026-05-02T22:23:46.894412+05:30
Haridwar,Uttarakhand,29.9457,78.1642,22.5,75,0.0,969.3,7.4,27.4,141,81.3,43.4,15.4,372.0,106.0,8.4,3,5,7,1,2026-05-02T22:23:46.894421+05:30
Rishikesh,Uttarakhand,30.0869,78.2676,20.7,80,0.0,962.2,7.5,24.5,147,76.8,39.1,10.5,360.0,115.0,5.2,3,5,7,1,2026-05-02T22:23:46.894429+05:30
Nainital,Uttarakhand,29.3919,79.4542,11.7,89,0.0,801.0,8.1,38.5,143,73.8,39.1,12.2,356.0,110.0,7.4,3,10,7,0,2026-05-02T22:23:46.894437+05:30
Mussoorie,Uttarakhand,30.4599,78.0664,11.9,90,0.0,797.8,7.9,52.6,156,91.0,43.4,27.1,332.0,101.0,14.3,3,10,7,0,2026-05-02T22:23:46.894446+05:30
Dharamshala,Himachal Pradesh,32.219,76.3234,17.5,51,0.0,863.9,8.25,50.0,108,19.2,14.2,11.7,275.0,92.0,1.2,0,5,7,0,2026-05-02T22:23:46.894454+05:30
Dalhousie,Himachal Pradesh,32.5387,75.971,10.2,83,0.0,797.9,8.5,37.4,114,33.4,26.0,41.0,473.0,70.0,3.3,3,10,7,0,2026-05-02T22:23:46.894461+05:30
Patiala,Punjab,30.3398,76.3869,28.1,44,0.0,973.0,7.5,30.6,247,187.7,47.8,12.7,334.0,102.0,16.3,4,5,7,0,2026-05-02T22:23:46.894468+05:30
Bhatinda,Punjab,30.211,74.9455,30.4,32,0.0,977.7,8.15,38.9,143,59.3,34.0,10.2,341.0,100.0,7.9,0,5,7,0,2026-05-02T22:23:46.894476+05:30
Rohtak,Haryana,28.8955,76.6066,28.8,52,0.0,976.5,7.65,28.1,383,324.1,101.3,53.7,518.0,69.0,29.7,4,5,7,1,2026-05-02T22:23:46.894483+05:30
Panipat,Haryana,29.3909,76.9635,27.2,60,0.0,975.5,7.45,25.9,469,436.8,114.8,39.3,591.0,75.0,22.4,4,5,7,1,2026-05-02T22:23:46.894490+05:30
Mathura,Uttar Pradesh,27.4924,77.6737,28.4,45,0.0,981.8,7.9,30.2,660,806.5,103.1,16.2,476.0,101.0,10.9,4,5,7,0,2026-05-02T22:23:46.894498+05:30
Vrindavan,Uttar Pradesh,27.5823,77.7027,28.5,46,0.0,982.3,7.85,29.9,660,806.5,103.1,16.2,440.0,101.0,10.9,4,5,7,0,2026-05-02T22:23:46.894505+05:30
Ayodhya,Uttar Pradesh,26.7922,82.1998,27.1,58,0.0,993.1,8.25,41.0,135,85.7,40.6,19.5,415.0,97.0,9.7,4,5,7,1,2026-05-02T22:23:46.894512+05:30
Ratlam,Madhya Pradesh,23.3315,75.0367,31.3,36,0.0,951.3,8.55,50.0,56,56.3,21.4,2.2,180.0,107.0,5.5,0,5,7,0,2026-05-02T22:23:46.894520+05:30
Sagar,Madhya Pradesh,23.8388,78.7378,25.6,57,0.0,946.2,8.7,73.1,61,60.3,23.2,7.8,216.0,79.0,4.0,4,5,7,1,2026-05-02T22:23:46.894526+05:30
Satna,Madhya Pradesh,24.6005,80.8322,26.4,62,0.0,968.1,8.7,51.5,85,42.4,21.3,16.8,305.0,81.0,5.6,7,5,7,1,2026-05-02T22:23:46.894533+05:30
Akola,Maharashtra,20.7002,77.0082,35.0,26,0.0,971.9,8.9,46.8,58,31.0,15.9,6.9,183.0,84.0,10.8,0,5,7,0,2026-05-02T22:23:46.894541+05:30
Amravati,Maharashtra,20.9374,77.7796,34.3,23,0.0,964.3,8.9,42.8,58,47.5,21.1,9.4,279.0,76.0,9.2,0,5,7,0,2026-05-02T22:23:46.894550+05:30
Latur,Maharashtra,18.4088,76.5604,32.5,19,0.0,937.4,9.05,32.8,57,51.9,23.8,11.9,303.0,72.0,7.1,0,5,7,0,2026-05-02T22:23:46.894557+05:30
Nanded,Maharashtra,19.1383,77.3091,33.5,20,0.0,965.5,8.95,31.3,59,63.3,27.0,15.8,544.0,60.0,3.5,0,5,7,0,2026-05-02T22:23:46.894563+05:30
Gulbarga,Karnataka,17.3297,76.8343,34.5,15,0.0,956.0,9.1,41.8,56,57.4,31.8,35.1,210.0,46.0,5.6,0,5,7,0,2026-05-02T22:23:46.894570+05:30
Bidar,Karnataka,17.9104,77.5199,30.3,23,0.0,932.8,9.1,34.6,66,54.2,32.5,27.8,397.0,57.0,5.8,0,5,7,0,2026-05-02T22:23:46.894577+05:30
Hospet,Karnataka,15.2689,76.3909,28.6,64,0.0,955.9,9.2,41.8,62,29.6,16.1,16.0,200.0,71.0,2.7,7,5,7,1,2026-05-02T22:23:46.894584+05:30
Tirupur,Tamil Nadu,11.1085,77.3411,27.0,82,0.0,975.2,9.3,55.8,88,29.6,25.5,19.8,226.0,68.0,5.5,7,5,7,1,2026-05-02T22:23:46.894591+05:30
Alappuzha,Kerala,9.4981,76.3388,26.7,93,0.0,1009.8,8.2,29.9,72,32.6,23.9,17.0,170.0,56.0,5.1,7,0,4,1,2026-05-02T22:23:46.894598+05:30
Munnar,Kerala,10.0889,77.0595,17.5,95,0.0,857.3,9.2,24.8,57,15.7,14.6,10.7,250.0,52.0,1.7,3,10,7,1,2026-05-02T22:23:46.894605+05:30
Silchar,Assam,24.8333,92.7789,20.4,98,0.1,1005.6,6.75,32.8,53,32.1,26.3,12.2,337.0,51.0,5.3,6,5,4,1,2026-05-02T22:23:46.894612+05:30
Dibrugarh,Assam,27.4728,94.912,21.0,95,0.2,996.6,7.3,22.7,59,18.4,15.5,11.2,343.0,63.0,1.8,6,5,7,1,2026-05-02T22:23:46.894619+05:30
