city,state,latitude,longitude,temp,humidity,rain,pressure,uv_index,wind_gusts,aqi,pm10,pm2_5,mosquito_risk,arthritis_risk,migraine_risk,frizz_risk,updated_at
Delhi,Delhi,28.6139,77.209,20.5,87,0.0,985.0,6.85,18.0,129,220.7,61.7,3,5,7,1,2026-04-01T00:36:04.025989+05:30
Mumbai,Maharashtra,19.076,72.8777,27.5,80,0.0,1009.8,7.85,25.2,57,23.8,13.0,7,0,4,1,2026-04-01T00:36:04.026022+05:30
Bangalore,Karnataka,12.9716,77.5946,24.0,69,0.0,912.7,9.55,27.7,88,27.2,24.9,3,5,7,1,2026-04-01T00:36:04.026037+05:30
Hyderabad,Telangana,17.385,78.4867,24.2,81,0.0,954.3,9.1,19.4,117,35.9,32.4,3,5,7,1,2026-04-01T00:36:04.026046+05:30
Chennai,Tamil Nadu,13.0827,80.2707,27.2,75,0.0,1009.0,9.25,29.5,48,16.5,12.6,7,0,4,1,2026-04-01T00:36:04.026054+05:30
Kolkata,West Bengal,22.5726,88.3639,25.4,94,0.0,1007.9,8.55,18.7,83,27.3,23.3,7,5,4,1,2026-04-01T00:36:04.026062+05:30
Pune,Maharashtra,18.5204,73.8567,25.1,92,0.0,949.4,8.4,29.5,108,70.8,62.9,7,5,7,1,2026-04-01T00:36:04.026072+05:30
Ahmedabad,Gujarat,23.0225,72.5714,27.9,56,0.0,1003.2,7.8,24.8,69,48.3,31.0,4,5,4,1,2026-04-01T00:36:04.026079+05:30
Jaipur,Rajasthan,26.9124,75.7873,21.5,78,0.0,961.6,6.55,34.2,65,241.2,37.3,3,5,7,1,2026-04-01T00:36:04.026085+05:30
Lucknow,Uttar Pradesh,26.8467,80.9462,26.3,57,0.0,996.6,7.05,42.5,150,161.6,42.5,4,5,7,1,2026-04-01T00:36:04.026092+05:30
Kanpur,Uttar Pradesh,26.4499,80.3319,23.8,79,0.1,995.9,7.4,47.9,280,282.2,50.4,6,5,7,1,2026-04-01T00:36:04.026099+05:30
Chandigarh,Chandigarh,30.7333,76.7794,20.9,74,0.0,970.5,6.45,16.6,88,71.7,40.0,3,5,7,0,2026-04-01T00:36:04.026106+05:30
Srinagar,Jammu and Kashmir,34.0837,74.7973,8.9,84,0.0,840.9,7.3,20.5,70,67.8,54.8,3,10,7,0,2026-04-01T00:36:04.026113+05:30
Jammu,Jammu and Kashmir,32.7266,74.857,23.2,56,0.0,975.0,6.5,18.7,72,44.5,31.8,0,5,7,0,2026-04-01T00:36:04.026119+05:30
Amritsar,Punjab,31.634,74.8723,20.7,74,0.0,982.9,5.9,14.4,113,105.5,48.7,3,5,3,0,2026-04-01T00:36:04.026125+05:30
Ludhiana,Punjab,30.901,75.8573,21.7,73,0.0,980.9,6.6,15.5,155,125.3,55.2,3,5,7,1,2026-04-01T00:36:04.026131+05:30
Jalandhar,Punjab,31.326,75.5762,20.8,73,0.0,982.1,6.5,15.8,151,108.0,51.9,3,5,7,0,2026-04-01T00:36:04.026139+05:30
Dehradun,Uttarakhand,30.6284,78.0322,13.2,65,0.0,830.4,6.55,33.8,40,22.9,13.9,3,5,7,0,2026-04-01T00:36:04.026144+05:30
Shimla,Himachal Pradesh,31.1048,77.1734,11.5,70,0.0,784.0,5.95,31.7,54,29.1,20.5,3,5,3,0,2026-04-01T00:36:04.026150+05:30
Manali,Himachal Pradesh,32.2396,77.1887,14.2,51,0.0,820.3,7.7,30.2,45,19.6,15.9,0,5,7,0,2026-04-01T00:36:04.026156+05:30
Gurgaon,Haryana,28.4595,77.0266,19.1,92,0.0,983.3,6.85,14.4,193,358.6,85.0,3,10,7,1,2026-04-01T00:36:04.026162+05:30
Noida,Uttar Pradesh,28.5355,77.391,20.9,83,0.0,986.7,6.85,16.2,193,358.6,85.0,3,5,7,1,2026-04-01T00:36:04.026168+05:30
Ghaziabad,Uttar Pradesh,28.6692,77.4538,20.2,88,0.0,984.9,6.85,18.0,125,197.9,55.4,3,5,7,1,2026-04-01T00:36:04.026173+05:30
Faridabad,Haryana,28.4089,77.3178,20.0,83,0.0,985.7,6.8,18.7,193,358.6,85.0,3,5,7,1,2026-04-01T00:36:04.026179+05:30
Meerut,Uttar Pradesh,28.9845,77.7064,19.6,88,0.0,983.6,6.7,19.8,125,197.9,55.4,3,10,7,1,2026-04-01T00:36:04.026185+05:30
Agra,Uttar Pradesh,27.1767,78.0081,21.3,87,0.0,990.3,6.85,28.1,282,529.0,79.2,3,5,7,1,2026-04-01T00:36:04.026191+05:30
Varanasi,Uttar Pradesh,25.3176,82.9739,26.0,59,0.0,998.1,7.45,31.7,151,127.6,69.6,4,5,7,1,2026-04-01T00:36:04.026199+05:30
Prayagraj,Uttar Pradesh,25.4358,81.8463,26.2,60,0.0,998.3,7.6,43.9,151,66.6,28.5,4,5,7,1,2026-04-01T00:36:04.026207+05:30
Gorakhpur,Uttar Pradesh,26.7606,83.3732,24.1,77,0.0,998.6,7.75,25.9,154,75.2,61.2,3,5,7,1,2026-04-01T00:36:04.026213+05:30
Bareilly,Uttar Pradesh,28.367,79.4304,22.5,69,0.0,989.0,6.65,22.0,87,98.3,39.3,3,5,7,1,2026-04-01T00:36:04.026221+05:30
Aligarh,Uttar Pradesh,27.8974,78.088,21.2,84,0.0,987.9,7.0,18.0,197,379.0,81.3,3,5,7,1,2026-04-01T00:36:04.026226+05:30
Moradabad,Uttar Pradesh,28.8386,78.7733,21.2,74,0.0,985.5,6.9,19.8,94,82.2,37.3,3,5,7,1,2026-04-01T00:36:04.026232+05:30
Saharanpur,Uttar Pradesh,29.9637,77.546,20.3,80,0.0,977.7,6.4,16.9,139,172.8,60.8,3,5,7,1,2026-04-01T00:36:04.026237+05:30
Jhansi,Uttar Pradesh,25.4484,78.5685,22.6,80,0.0,982.2,7.65,33.5,46,12.5,9.0,3,5,7,1,2026-04-01T00:36:07.330038+05:30
Surat,Gujarat,21.1702,72.8311,26.3,87,0.0,1007.7,7.65,26.3,81,38.6,24.7,7,5,4,1,2026-04-01T00:36:07.330064+05:30
Vadodara,Gujarat,22.3072,73.1812,27.3,70,0.0,1005.0,7.85,27.4,72,19.7,17.1,7,5,4,1,2026-04-01T00:36:07.330076+05:30
Rajkot,Gujarat,22.3039,70.8022,24.7,68,0.0,996.2,7.5,37.4,68,17.7,10.7,3,5,7,1,2026-04-01T00:36:07.330086+05:30
Thane,Maharashtra,19.2183,72.9781,26.1,85,0.0,1009.3,7.85,37.1,57,23.8,13.0,7,0,4,1,2026-04-01T00:36:07.330095+05:30
Nagpur,Maharashtra,21.1458,79.0882,26.7,67,0.0,974.0,8.6,24.8,70,44.2,39.0,7,5,7,1,2026-04-01T00:36:07.330104+05:30
Nashik,Maharashtra,19.9975,73.7898,23.7,87,0.0,946.6,8.1,32.0,60,16.4,10.9,3,5,7,1,2026-04-01T00:36:07.330113+05:30
Aurangabad,Maharashtra,19.8762,75.3433,25.3,71,0.0,945.0,8.75,28.4,76,48.9,38.8,7,5,7,1,2026-04-01T00:36:07.330121+05:30
Solapur,Maharashtra,17.6599,75.9064,27.5,59,0.0,957.9,8.9,33.1,96,56.2,49.0,4,5,7,1,2026-04-01T00:36:07.330129+05:30
Kolhapur,Maharashtra,16.705,74.2433,23.4,96,0.0,948.5,8.85,31.0,123,84.1,78.9,3,5,7,1,2026-04-01T00:36:07.330137+05:30
Goa,Goa,15.2993,74.124,28.4,82,0.0,998.7,8.85,32.0,80,43.7,32.8,7,5,7,1,2026-04-01T00:36:07.330146+05:30
Jodhpur,Rajasthan,26.2389,73.0243,25.3,51,0.0,984.3,7.5,27.7,71,191.9,31.7,4,5,7,0,2026-04-01T00:36:07.330154+05:30
Udaipur,Rajasthan,24.5854,73.7125,24.1,61,0.0,948.1,8.2,33.5,44,28.5,12.7,3,5,7,1,2026-04-01T00:36:07.330162+05:30
Kota,Rajasthan,25.2138,75.8648,24.3,72,0.0,980.9,7.15,28.1,52,20.2,15.1,3,5,7,1,2026-04-01T00:36:07.330170+05:30
Bikaner,Rajasthan,28.0229,73.3119,24.4,69,0.0,983.2,7.2,22.7,54,19.8,10.8,3,5,7,1,2026-04-01T00:36:07.330178+05:30
Ajmer,Rajasthan,26.4499,74.6399,23.5,68,0.0,956.4,7.2,27.7,45,28.2,18.8,3,5,7,1,2026-04-01T00:36:07.330185+05:30
Gwalior,Madhya Pradesh,26.2183,78.1828,22.1,84,0.0,987.0,7.35,20.9,40,70.1,22.5,3,5,7,1,2026-04-01T00:36:07.330193+05:30
Indore,Madhya Pradesh,22.7196,75.8577,25.1,62,0.0,948.9,8.3,30.6,64,28.6,25.7,7,5,7,1,2026-04-01T00:36:07.330200+05:30
Bhopal,Madhya Pradesh,23.2599,77.4126,26.4,50,0.0,954.6,8.25,35.3,58,32.1,28.7,4,5,7,0,2026-04-01T00:36:07.330208+05:30
Jabalpur,Madhya Pradesh,23.1815,79.9864,25.7,61,0.0,962.1,8.1,56.5,71,58.3,31.8,7,5,7,1,2026-04-01T00:36:07.330216+05:30
Ujjain,Madhya Pradesh,23.1765,75.7885,25.8,59,0.0,954.5,8.2,25.2,64,21.2,18.4,4,5,7,1,2026-04-01T00:36:07.330224+05:30
Visakhapatnam,Andhra Pradesh,17.6868,83.2185,26.2,89,0.0,1005.5,9.05,32.8,67,22.1,18.5,7,5,4,1,2026-04-01T00:36:07.330232+05:30
Vijayawada,Andhra Pradesh,16.5062,80.648,26.1,85,0.0,1004.3,9.1,30.2,59,15.6,13.6,7,5,4,1,2026-04-01T00:36:07.330239+05:30
Guntur,Andhra Pradesh,16.3067,80.4365,26.1,87,0.0,1005.5,9.1,31.0,58,13.6,11.7,7,5,4,1,2026-04-01T00:36:07.330247+05:30
Nellore,Andhra Pradesh,14.4426,79.9865,26.2,82,0.0,1007.7,9.2,29.5,51,12.5,9.6,7,5,4,1,2026-04-01T00:36:07.330256+05:30
Kurnool,Andhra Pradesh,15.8281,78.0373,28.2,71,0.0,977.9,9.1,18.7,82,24.6,21.9,7,5,7,1,2026-04-01T00:36:07.330264+05:30
Kakinada,Andhra Pradesh,16.9891,82.2475,25.7,87,0.0,1009.3,9.05,32.0,52,16.9,12.9,7,0,4,1,2026-04-01T00:36:07.330272+05:30
Tirupati,Andhra Pradesh,13.6288,79.4192,24.6,82,0.0,993.9,9.3,34.9,68,18.6,16.4,3,5,7,1,2026-04-01T00:36:07.330321+05:30
Warangal,Telangana,17.9689,79.5941,27.7,75,0.0,979.6,8.95,26.6,134,36.1,34.2,7,5,7,1,2026-04-01T00:36:07.330330+05:30
Nizamabad,Telangana,18.6725,78.0941,26.0,71,0.0,965.8,8.85,37.1,116,85.4,75.4,7,5,7,1,2026-04-01T00:36:07.330338+05:30
Mysore,Karnataka,12.2958,76.6396,24.0,77,0.0,929.4,9.5,28.8,108,37.3,32.8,3,5,7,1,2026-04-01T00:36:07.330346+05:30
Mangalore,Karnataka,12.9141,74.856,29.6,78,0.0,1007.0,9.15,21.2,84,33.3,27.3,7,5,4,1,2026-04-01T00:36:07.330354+05:30
Hubli-Dharwad,Karnataka,15.3647,75.124,24.1,78,0.0,941.7,9.15,34.2,96,59.0,53.8,3,5,7,1,2026-04-01T00:36:07.330362+05:30
Belgaum,Karnataka,15.8497,74.4977,22.9,94,0.0,926.3,9.1,27.4,104,66.1,58.0,3,5,7,1,2026-04-01T00:36:10.784656+05:30
Coimbatore,Tamil Nadu,11.0168,76.9558,25.3,80,0.0,962.8,9.45,40.3,87,27.9,23.5,7,5,7,1,2026-04-01T00:36:10.784682+05:30
Madurai,Tamil Nadu,9.9252,78.1198,26.3,81,0.0,994.8,8.4,27.0,65,22.1,20.3,7,5,7,1,2026-04-01T00:36:10.784694+05:30
Trichy,Tamil Nadu,10.7905,78.7047,25.1,85,0.0,1001.7,7.95,27.4,57,18.3,16.1,7,5,4,1,2026-04-01T00:36:10.784703+05:30
Salem,Tamil Nadu,11.6643,78.146,26.4,72,0.0,978.6,9.4,34.2,69,30.4,28.0,7,5,7,1,2026-04-01T00:36:10.784712+05:30
Tirunelveli,Tamil Nadu,8.7139,77.7567,26.2,86,0.0,1004.6,9.35,40.0,78,25.7,24.2,7,5,4,1,2026-04-01T00:36:10.784720+05:30
Vellore,Tamil Nadu,12.9165,79.1325,25.0,78,0.0,986.7,9.4,34.9,82,28.5,26.1,7,5,7,1,2026-04-01T00:36:10.784728+05:30
Erode,Tamil Nadu,11.341,77.7172,27.5,74,0.0,990.4,9.35,22.7,55,15.1,13.3,7,5,7,1,2026-04-01T00:36:10.784735+05:30
Kochi,Kerala,9.9312,76.2673,27.6,85,0.0,1009.7,9.2,34.2,113,43.9,41.9,7,0,4,1,2026-04-01T00:36:10.784743+05:30
Thiruvananthapuram,Kerala,8.5241,76.9366,28.6,80,0.0,1008.7,9.05,27.0,82,24.2,19.9,7,0,4,1,2026-04-01T00:36:10.784751+05:30
Kozhikode,Kerala,11.2588,75.7804,29.4,80,0.0,1008.1,9.15,26.6,106,29.6,21.9,7,0,4,1,2026-04-01T00:36:10.784759+05:30
Thrissur,Kerala,10.5276,76.2144,27.1,90,0.0,1007.7,9.2,34.6,119,36.0,33.3,7,5,4,1,2026-04-01T00:36:10.784767+05:30
Kannur,Kerala,11.8745,75.3704,28.7,79,0.0,1007.5,9.1,24.8,105,40.5,36.0,7,5,4,1,2026-04-01T00:36:10.784775+05:30
Patna,Bihar,25.5941,85.1376,25.9,83,0.0,1001.7,8.1,21.2,159,95.9,80.1,7,5,4,1,2026-04-01T00:36:10.784782+05:30
Gaya,Bihar,24.7914,85.0002,25.5,81,0.0,994.9,7.95,22.7,129,97.8,51.6,7,5,7,1,2026-04-01T00:36:10.784790+05:30
Muzaffarpur,Bihar,26.1209,85.3647,23.9,88,0.0,1002.0,8.15,28.4,164,95.5,82.2,3,5,4,1,2026-04-01T00:36:10.784797+05:30
Bhagalpur,Bihar,25.2425,87.0117,25.2,87,0.0,1002.9,8.2,29.9,162,85.0,76.6,7,5,4,1,2026-04-01T00:36:10.784805+05:30
Ranchi,Jharkhand,23.3441,85.3096,22.6,80,0.0,939.2,8.85,32.8,77,46.2,24.6,3,5,7,1,2026-04-01T00:36:10.784813+05:30
Jamshedpur,Jharkhand,22.8046,86.2029,26.0,85,0.0,992.6,8.65,23.0,131,52.4,42.8,7,5,7,1,2026-04-01T00:36:10.784820+05:30
Dhanbad,Jharkhand,23.7957,86.4304,24.7,81,0.0,981.8,8.6,27.4,161,111.1,101.0,3,5,7,1,2026-04-01T00:36:10.784828+05:30
Bokaro,Jharkhand,23.6693,86.1511,24.5,88,0.0,985.9,8.6,31.7,157,99.4,81.5,3,5,7,1,2026-04-01T00:36:10.784835+05:30
Bhubaneswar,Odisha,20.2961,85.8245,26.4,91,0.0,1004.2,8.85,25.6,88,24.9,22.0,7,5,4,1,2026-04-01T00:36:10.784842+05:30
Cuttack,Odisha,20.4625,85.8828,26.5,90,0.0,1006.2,8.9,18.0,88,24.9,22.0,7,5,4,1,2026-04-01T00:36:10.784850+05:30
Rourkela,Odisha,22.2604,84.8536,26.6,80,0.0,986.6,8.6,15.5,99,60.1,47.1,7,5,7,1,2026-04-01T00:36:10.784857+05:30
Raipur,Chhattisgarh,21.2514,81.6296,26.7,56,0.0,975.8,8.65,25.6,125,144.4,67.5,4,5,7,1,2026-04-01T00:36:10.784865+05:30
Bhilai,Chhattisgarh,21.1938,81.3509,26.1,56,0.0,976.1,8.65,23.0,107,123.4,60.3,4,5,7,1,2026-04-01T00:36:10.784872+05:30
Guwahati,Assam,26.1158,91.7086,22.9,94,0.0,1003.7,8.05,38.2,109,37.8,30.0,3,5,4,1,2026-04-01T00:36:10.784880+05:30
Agartala,Tripura,23.8315,91.2868,23.2,96,0.0,1008.1,8.35,23.4,84,54.5,51.2,3,0,4,1,2026-04-01T00:36:10.784887+05:30
Shillong,Meghalaya,25.5788,91.8933,13.2,92,0.0,856.2,7.4,50.8,78,13.8,11.8,3,10,7,0,2026-04-01T00:36:10.784896+05:30
Imphal,Manipur,24.817,93.9368,17.8,89,0.0,924.4,8.1,64.1,65,44.7,42.1,3,10,7,0,2026-04-01T00:36:10.784904+05:30
Aizawl,Mizoram,23.7271,92.7176,18.0,97,0.0,893.5,8.6,37.4,113,43.7,38.3,3,10,7,1,2026-04-01T00:36:10.784912+05:30
Kohima,Nagaland,25.6701,94.1077,14.5,89,0.0,855.1,8.55,70.2,55,16.7,15.0,3,10,7,0,2026-04-01T00:36:10.784920+05:30
Gangtok,Sikkim,27.3314,88.6138,14.2,96,0.3,837.9,8.45,16.2,96,14.2,12.5,6,10,7,0,2026-04-01T00:36:10.784928+05:30
Siliguri,West Bengal,26.7271,88.3953,19.6,85,0.0,996.7,8.05,22.3,159,78.7,64.7,3,10,7,1,2026-04-01T00:36:14.154734+05:30
Durgapur,West Bengal,23.5204,87.3119,25.9,87,0.0,997.0,8.55,36.7,158,66.8,61.2,7,5,7,1,2026-04-01T00:36:14.154753+05:30
Asansol,West Bengal,23.6739,86.9524,26.0,85,0.0,995.5,8.55,28.4,155,65.9,60.1,7,5,7,1,2026-04-01T00:36:14.154762+05:30
Pondicherry,Puducherry,11.9139,79.8145,25.3,85,0.0,1010.3,8.4,27.7,45,15.5,11.4,7,0,4,1,2026-04-01T00:36:14.154769+05:30
Port Blair,Andaman and Nicobar Islands,11.6234,92.7265,27.8,83,0.0,1007.7,7.4,14.4,36,7.2,5.1,7,5,4,1,2026-04-01T00:36:14.154776+05:30
Haridwar,Uttarakhand,29.9457,78.1642,19.4,77,0.0,976.1,6.5,23.8,85,94.8,45.1,3,5,7,0,2026-04-01T00:36:14.154783+05:30
Rishikesh,Uttarakhand,30.0869,78.2676,19.6,63,0.0,968.8,6.5,31.3,62,83.4,31.3,3,5,7,0,2026-04-01T00:36:14.154789+05:30
Nainital,Uttarakhand,29.3919,79.4542,19.0,37,0.0,807.7,7.15,37.4,67,49.4,24.9,0,5,7,0,2026-04-01T00:36:14.154796+05:30
Mussoorie,Uttarakhand,30.4599,78.0664,15.3,64,0.0,803.4,6.85,36.4,66,75.2,36.3,3,5,7,0,2026-04-01T00:36:14.154801+05:30
Dharamshala,Himachal Pradesh,32.219,76.3234,18.9,54,0.0,870.2,6.0,25.9,40,16.8,10.0,0,5,3,0,2026-04-01T00:36:14.154807+05:30
Dalhousie,Himachal Pradesh,32.5387,75.971,15.0,58,0.0,803.8,6.05,24.5,65,37.0,26.4,0,5,7,0,2026-04-01T00:36:14.154813+05:30
Patiala,Punjab,30.3398,76.3869,20.5,82,0.0,980.2,6.2,12.6,206,200.2,58.1,3,5,7,1,2026-04-01T00:36:14.154820+05:30
Bhatinda,Punjab,30.211,74.9455,20.1,83,0.0,985.8,6.05,14.4,104,106.6,39.9,3,5,7,1,2026-04-01T00:36:14.154825+05:30
Rohtak,Haryana,28.8955,76.6066,18.4,93,0.0,983.7,6.8,14.8,122,257.0,64.5,3,10,7,1,2026-04-01T00:36:14.154831+05:30
Panipat,Haryana,29.3909,76.9635,19.0,95,0.0,982.6,6.6,14.0,147,372.5,76.4,3,10,7,1,2026-04-01T00:36:14.154838+05:30
Mathura,Uttar Pradesh,27.4924,77.6737,20.5,89,0.0,989.0,7.05,28.4,162,433.1,78.9,3,5,7,1,2026-04-01T00:36:14.154844+05:30
Vrindavan,Uttar Pradesh,27.5823,77.7027,20.3,90,0.0,989.6,7.1,31.3,162,433.1,78.9,3,5,7,1,2026-04-01T00:36:14.154849+05:30
Ayodhya,Uttar Pradesh,26.7922,82.1998,24.5,71,0.0,996.9,7.45,31.7,119,134.1,39.1,3,5,7,1,2026-04-01T00:36:14.154855+05:30
Ratlam,Madhya Pradesh,23.3315,75.0367,27.3,55,0.0,955.2,8.15,27.7,56,18.7,14.5,4,5,7,1,2026-04-01T00:36:14.154860+05:30
Sagar,Madhya Pradesh,23.8388,78.7378,24.2,63,0.0,951.9,8.2,25.9,46,19.7,13.5,3,5,7,1,2026-04-01T00:36:14.154866+05:30
Satna,Madhya Pradesh,24.6005,80.8322,27.7,50,0.0,973.9,7.5,31.0,127,78.2,26.6,4,5,7,1,2026-04-01T00:36:14.154872+05:30
Akola,Maharashtra,20.7002,77.0082,27.4,61,0.0,975.5,8.55,13.0,71,44.4,39.2,7,5,7,1,2026-04-01T00:36:14.154878+05:30
Amravati,Maharashtra,20.9374,77.7796,26.8,73,0.0,968.5,8.6,33.5,66,36.3,32.7,7,5,7,1,2026-04-01T00:36:14.154884+05:30
Latur,Maharashtra,18.4088,76.5604,25.1,71,0.0,940.7,8.9,23.8,95,71.7,58.8,7,5,7,1,2026-04-01T00:36:14.154890+05:30
Nanded,Maharashtra,19.1383,77.3091,27.0,68,0.0,969.4,8.75,23.0,88,53.7,45.9,7,5,7,1,2026-04-01T00:36:14.154896+05:30
Gulbarga,Karnataka,17.3297,76.8343,25.9,72,0.0,959.8,8.95,34.9,113,59.0,50.5,7,5,7,1,2026-04-01T00:36:14.154902+05:30
Bidar,Karnataka,17.9104,77.5199,23.9,78,0.0,936.3,8.95,28.4,129,70.8,62.9,3,5,7,1,2026-04-01T00:36:14.154908+05:30
Hospet,Karnataka,15.2689,76.3909,26.1,75,0.0,957.0,9.15,23.8,108,41.1,36.4,7,5,7,1,2026-04-01T00:36:14.154913+05:30
Tirupur,Tamil Nadu,11.1085,77.3411,27.9,61,0.0,976.7,9.5,27.0,72,20.7,17.2,7,5,7,1,2026-04-01T00:36:14.154919+05:30
Alappuzha,Kerala,9.4981,76.3388,27.3,84,0.0,1009.9,9.2,29.9,113,38.9,35.9,7,0,4,1,2026-04-01T00:36:14.154925+05:30
Munnar,Kerala,10.0889,77.0595,20.9,89,0.0,857.3,9.65,19.4,76,36.9,32.4,3,5,7,1,2026-04-01T00:36:14.154931+05:30
Silchar,Assam,24.8333,92.7789,22.8,93,0.0,1007.0,8.35,20.9,82,47.4,41.8,3,5,4,1,2026-04-01T00:36:14.154936+05:30
Dibrugarh,Assam,27.4728,94.912,21.8,89,0.0,998.0,7.8,26.3,80,32.5,29.5,3,5,7,1,2026-04-01T00:36:14.154942+05:30
