city,state,latitude,longitude,temp,humidity,rain,pressure,uv_index,wind_gusts,aqi,pm10,pm2_5,mosquito_risk,arthritis_risk,migraine_risk,frizz_risk,updated_at
Delhi,Delhi,28.6139,77.209,20.1,64,0.0,983.5,6.0,26.3,193,288.7,92.9,3,5,3,0,2026-03-12T03:06:44.362902+05:30
Mumbai,Maharashtra,19.076,72.8777,27.5,88,0.0,1009.1,7.6,31.0,153,75.4,70.5,7,0,4,1,2026-03-12T03:06:44.362941+05:30
Bangalore,Karnataka,12.9716,77.5946,20.2,77,0.0,911.7,9.3,32.0,60,25.9,25.0,3,5,7,1,2026-03-12T03:06:44.362957+05:30
Hyderabad,Telangana,17.385,78.4867,22.8,61,0.0,953.8,8.65,18.7,77,46.1,36.8,3,5,7,0,2026-03-12T03:06:44.362966+05:30
Chennai,Tamil Nadu,13.0827,80.2707,23.5,95,0.0,1008.5,9.05,29.5,68,30.3,25.8,3,0,4,1,2026-03-12T03:06:44.362975+05:30
Kolkata,West Bengal,22.5726,88.3639,24.3,97,0.0,1006.8,8.0,24.5,133,37.4,34.3,3,5,4,1,2026-03-12T03:06:44.362984+05:30
Pune,Maharashtra,18.5204,73.8567,21.0,92,0.0,948.9,8.15,28.4,124,85.0,80.6,3,5,7,1,2026-03-12T03:06:44.362997+05:30
Ahmedabad,Gujarat,23.0225,72.5714,23.8,34,0.0,1003.4,7.45,29.2,70,23.7,22.9,0,5,4,0,2026-03-12T03:06:44.363013+05:30
Jaipur,Rajasthan,26.9124,75.7873,24.1,29,0.0,960.8,5.9,38.2,99,136.0,28.2,0,5,3,0,2026-03-12T03:06:44.363020+05:30
Lucknow,Uttar Pradesh,26.8467,80.9462,22.8,69,0.0,993.3,6.5,30.2,169,294.3,62.4,3,5,7,1,2026-03-12T03:06:44.363028+05:30
Kanpur,Uttar Pradesh,26.4499,80.3319,21.8,72,0.0,991.8,6.05,25.2,172,407.9,70.3,3,5,7,1,2026-03-12T03:06:44.363035+05:30
Chandigarh,Chandigarh,30.7333,76.7794,20.0,69,0.0,968.9,5.75,27.7,118,52.4,41.6,3,5,3,0,2026-03-12T03:06:44.363043+05:30
Srinagar,Jammu and Kashmir,34.0837,74.7973,8.2,95,0.0,841.2,6.95,22.3,110,36.2,29.6,3,10,7,0,2026-03-12T03:06:44.363050+05:30
Jammu,Jammu and Kashmir,32.7266,74.857,19.7,57,0.0,973.1,6.65,24.8,77,23.2,17.5,0,5,7,0,2026-03-12T03:06:44.363057+05:30
Amritsar,Punjab,31.634,74.8723,20.4,89,0.0,981.4,6.65,18.4,155,57.6,46.1,3,5,7,1,2026-03-12T03:06:44.363064+05:30
Ludhiana,Punjab,30.901,75.8573,21.8,64,0.0,979.2,5.95,37.8,170,147.6,109.2,3,5,3,0,2026-03-12T03:06:44.363071+05:30
Jalandhar,Punjab,31.326,75.5762,20.5,80,0.0,980.4,6.35,31.7,165,147.6,111.1,3,5,7,1,2026-03-12T03:06:44.363080+05:30
Dehradun,Uttarakhand,30.6284,78.0322,14.4,59,0.0,829.6,5.25,29.2,65,34.0,24.7,0,5,3,0,2026-03-12T03:06:44.363086+05:30
Shimla,Himachal Pradesh,31.1048,77.1734,11.9,74,0.0,783.6,5.85,38.2,91,49.0,37.8,3,5,3,0,2026-03-12T03:06:44.363092+05:30
Manali,Himachal Pradesh,32.2396,77.1887,14.5,59,0.0,821.1,3.55,40.7,47,14.2,5.2,0,5,3,0,2026-03-12T03:06:44.363099+05:30
Gurgaon,Haryana,28.4595,77.0266,17.4,73,0.0,982.0,6.05,22.0,678,363.2,100.6,3,5,7,0,2026-03-12T03:06:44.363106+05:30
Noida,Uttar Pradesh,28.5355,77.391,20.4,62,0.0,985.0,6.1,26.3,678,363.2,100.6,3,5,7,0,2026-03-12T03:06:44.363112+05:30
Ghaziabad,Uttar Pradesh,28.6692,77.4538,19.6,67,0.0,983.0,6.05,26.3,166,261.7,79.4,3,5,7,0,2026-03-12T03:06:44.363119+05:30
Faridabad,Haryana,28.4089,77.3178,18.7,63,0.0,984.2,5.75,23.4,678,363.2,100.6,3,5,3,0,2026-03-12T03:06:44.363125+05:30
Meerut,Uttar Pradesh,28.9845,77.7064,18.6,80,0.0,981.6,5.65,31.7,166,261.7,79.4,3,5,3,0,2026-03-12T03:06:44.363131+05:30
Agra,Uttar Pradesh,27.1767,78.0081,19.0,70,0.0,988.4,6.05,19.4,375,472.2,84.8,3,5,7,0,2026-03-12T03:06:44.363138+05:30
Varanasi,Uttar Pradesh,25.3176,82.9739,21.5,76,0.0,997.8,7.3,24.1,173,125.3,56.8,3,5,7,1,2026-03-12T03:06:44.363147+05:30
Prayagraj,Uttar Pradesh,25.4358,81.8463,23.0,65,0.0,996.3,6.75,23.4,174,157.9,67.5,3,5,7,0,2026-03-12T03:06:44.363154+05:30
Gorakhpur,Uttar Pradesh,26.7606,83.3732,21.0,89,0.0,997.1,6.85,20.2,203,170.4,154.6,3,5,7,1,2026-03-12T03:06:44.363161+05:30
Bareilly,Uttar Pradesh,28.367,79.4304,19.1,80,0.0,986.5,5.65,29.5,181,132.2,50.1,3,5,3,0,2026-03-12T03:06:44.363171+05:30
Aligarh,Uttar Pradesh,27.8974,78.088,17.8,65,0.0,986.1,5.35,29.5,441,420.0,110.8,3,5,3,0,2026-03-12T03:06:44.363177+05:30
Moradabad,Uttar Pradesh,28.8386,78.7733,19.4,78,0.0,983.5,5.55,35.3,175,134.1,52.0,3,5,3,0,2026-03-12T03:06:44.363183+05:30
Saharanpur,Uttar Pradesh,29.9637,77.546,19.2,71,0.0,975.8,5.6,34.9,158,101.3,77.8,3,5,3,0,2026-03-12T03:06:44.363191+05:30
Jhansi,Uttar Pradesh,25.4484,78.5685,21.0,59,0.0,978.4,6.75,27.4,88,26.1,16.9,0,5,7,0,2026-03-12T03:06:47.718241+05:30
Surat,Gujarat,21.1702,72.8311,24.8,85,0.0,1007.6,7.35,24.5,153,61.7,59.8,3,5,4,1,2026-03-12T03:06:47.718270+05:30
Vadodara,Gujarat,22.3072,73.1812,24.9,39,0.0,1005.2,7.5,23.8,73,26.1,25.1,0,5,4,0,2026-03-12T03:06:47.718279+05:30
Rajkot,Gujarat,22.3039,70.8022,22.1,60,0.0,996.3,7.3,28.1,64,8.7,8.3,0,5,7,0,2026-03-12T03:06:47.718287+05:30
Thane,Maharashtra,19.2183,72.9781,25.0,99,0.0,1008.7,7.6,42.1,153,75.4,70.5,7,0,4,1,2026-03-12T03:06:47.718295+05:30
Nagpur,Maharashtra,21.1458,79.0882,21.2,71,0.0,973.5,8.05,15.5,84,45.9,29.0,3,5,7,0,2026-03-12T03:06:47.718302+05:30
Nashik,Maharashtra,19.9975,73.7898,22.1,62,0.0,946.1,7.8,34.2,96,54.7,52.0,3,5,7,0,2026-03-12T03:06:47.718309+05:30
Aurangabad,Maharashtra,19.8762,75.3433,21.6,54,0.0,944.3,8.35,20.9,106,51.5,46.0,0,5,7,0,2026-03-12T03:06:47.718316+05:30
Solapur,Maharashtra,17.6599,75.9064,24.9,67,0.0,957.7,8.55,16.6,97,40.4,35.0,3,5,7,1,2026-03-12T03:06:47.718324+05:30
Kolhapur,Maharashtra,16.705,74.2433,21.6,97,0.0,948.3,8.65,26.3,146,78.9,74.7,3,5,7,1,2026-03-12T03:06:47.718331+05:30
Goa,Goa,15.2993,74.124,27.2,85,0.0,998.5,8.7,36.4,150,79.4,69.8,7,5,7,1,2026-03-12T03:06:47.718338+05:30
Jodhpur,Rajasthan,26.2389,73.0243,23.5,29,0.0,984.5,6.4,28.1,88,136.0,26.3,0,5,7,0,2026-03-12T03:06:47.718345+05:30
Udaipur,Rajasthan,24.5854,73.7125,19.9,33,0.0,948.1,7.4,32.4,49,16.4,15.3,0,5,7,0,2026-03-12T03:06:47.718352+05:30
Kota,Rajasthan,25.2138,75.8648,20.0,53,0.0,979.7,6.7,29.9,78,59.1,33.3,0,5,7,0,2026-03-12T03:06:47.718359+05:30
Bikaner,Rajasthan,28.0229,73.3119,23.0,30,0.0,982.4,5.95,23.0,73,113.9,32.7,0,5,3,0,2026-03-12T03:06:47.718366+05:30
Ajmer,Rajasthan,26.4499,74.6399,22.2,37,0.0,955.7,6.05,34.6,71,63.8,19.2,0,5,7,0,2026-03-12T03:06:47.718372+05:30
Gwalior,Madhya Pradesh,26.2183,78.1828,23.6,42,0.0,983.8,6.45,32.8,94,37.8,20.0,0,5,7,0,2026-03-12T03:06:47.718379+05:30
Indore,Madhya Pradesh,22.7196,75.8577,19.4,47,0.0,948.4,7.75,25.9,66,34.8,23.3,0,5,7,0,2026-03-12T03:06:47.718386+05:30
Bhopal,Madhya Pradesh,23.2599,77.4126,21.7,38,0.0,954.2,7.6,29.5,71,39.1,27.5,0,5,7,0,2026-03-12T03:06:47.718393+05:30
Jabalpur,Madhya Pradesh,23.1815,79.9864,23.1,37,0.0,961.9,7.75,21.2,97,85.2,39.8,0,5,7,0,2026-03-12T03:06:47.718400+05:30
Ujjain,Madhya Pradesh,23.1765,75.7885,21.1,46,0.0,954.3,7.65,23.8,77,53.8,46.4,0,5,7,0,2026-03-12T03:06:47.718407+05:30
Visakhapatnam,Andhra Pradesh,17.6868,83.2185,25.0,80,0.0,1004.2,8.65,41.4,84,21.7,19.3,7,5,4,1,2026-03-12T03:06:47.718413+05:30
Vijayawada,Andhra Pradesh,16.5062,80.648,23.4,85,0.0,1003.5,8.7,27.0,80,16.5,15.5,3,5,4,1,2026-03-12T03:06:47.718420+05:30
Guntur,Andhra Pradesh,16.3067,80.4365,22.7,88,0.0,1004.8,8.7,33.1,71,15.2,14.5,3,5,4,1,2026-03-12T03:06:47.718427+05:30
Nellore,Andhra Pradesh,14.4426,79.9865,23.0,94,0.0,1006.9,8.9,31.3,63,19.4,17.3,3,5,4,1,2026-03-12T03:06:47.718434+05:30
Kurnool,Andhra Pradesh,15.8281,78.0373,26.0,51,0.0,977.4,8.7,24.8,68,23.6,21.1,4,5,7,0,2026-03-12T03:06:47.718442+05:30
Kakinada,Andhra Pradesh,16.9891,82.2475,23.0,90,0.0,1008.5,8.65,34.2,75,19.4,16.1,3,0,4,1,2026-03-12T03:06:47.718449+05:30
Tirupati,Andhra Pradesh,13.6288,79.4192,20.3,92,0.0,993.1,9.05,33.5,77,38.5,37.1,3,5,7,1,2026-03-12T03:06:47.718456+05:30
Warangal,Telangana,17.9689,79.5941,24.5,60,0.0,978.8,8.5,12.2,82,34.8,31.3,0,5,7,1,2026-03-12T03:06:47.718463+05:30
Nizamabad,Telangana,18.6725,78.0941,24.7,51,0.0,964.9,8.35,24.8,117,55.3,49.7,0,5,7,0,2026-03-12T03:06:47.718470+05:30
Mysore,Karnataka,12.2958,76.6396,20.3,72,0.0,928.2,9.3,34.9,60,17.3,16.5,3,5,7,0,2026-03-12T03:06:47.718476+05:30
Mangalore,Karnataka,12.9141,74.856,28.8,79,0.0,1006.9,8.95,32.8,102,44.6,39.7,7,5,4,1,2026-03-12T03:06:47.718483+05:30
Hubli-Dharwad,Karnataka,15.3647,75.124,21.0,79,0.0,940.9,8.85,25.9,65,28.8,25.1,3,5,7,1,2026-03-12T03:06:47.718490+05:30
Belgaum,Karnataka,15.8497,74.4977,21.3,86,0.0,925.8,8.95,33.1,103,66.8,58.8,3,5,7,1,2026-03-12T03:06:51.077451+05:30
Coimbatore,Tamil Nadu,11.0168,76.9558,23.2,83,0.0,962.6,9.3,44.3,72,29.9,29.0,3,5,7,1,2026-03-12T03:06:51.077476+05:30
Madurai,Tamil Nadu,9.9252,78.1198,24.7,91,0.0,994.2,9.25,25.9,62,21.3,19.4,3,5,7,1,2026-03-12T03:06:51.077486+05:30
Trichy,Tamil Nadu,10.7905,78.7047,24.3,95,0.0,1001.1,9.15,23.4,65,24.7,21.9,3,5,4,1,2026-03-12T03:06:51.077494+05:30
Salem,Tamil Nadu,11.6643,78.146,23.8,85,0.0,978.3,9.2,25.9,68,25.6,24.4,3,5,7,1,2026-03-12T03:06:51.077500+05:30
Tirunelveli,Tamil Nadu,8.7139,77.7567,24.2,84,0.0,1004.3,9.05,42.1,54,17.0,15.7,3,5,4,1,2026-03-12T03:06:51.077507+05:30
Vellore,Tamil Nadu,12.9165,79.1325,21.7,98,0.0,986.0,9.1,33.1,89,48.5,46.4,3,5,7,1,2026-03-12T03:06:51.077514+05:30
Erode,Tamil Nadu,11.341,77.7172,24.5,89,0.0,990.3,9.2,23.0,72,20.3,19.3,3,5,7,1,2026-03-12T03:06:51.077521+05:30
Kochi,Kerala,9.9312,76.2673,26.9,83,0.0,1009.0,9.1,36.4,110,48.1,46.7,7,0,4,1,2026-03-12T03:06:51.077527+05:30
Thiruvananthapuram,Kerala,8.5241,76.9366,26.9,81,0.0,1008.1,9.1,24.1,71,25.3,21.7,7,0,4,1,2026-03-12T03:06:51.077534+05:30
Kozhikode,Kerala,11.2588,75.7804,28.1,82,0.0,1007.8,9.0,32.4,109,38.9,33.6,7,5,4,1,2026-03-12T03:06:51.077540+05:30
Thrissur,Kerala,10.5276,76.2144,26.0,89,0.0,1007.3,9.05,38.2,88,49.6,47.6,7,5,4,1,2026-03-12T03:06:51.077548+05:30
Kannur,Kerala,11.8745,75.3704,27.3,82,0.0,1007.0,9.0,32.8,114,41.9,38.1,7,5,4,1,2026-03-12T03:06:51.077555+05:30
Patna,Bihar,25.5941,85.1376,24.3,90,0.0,1000.8,7.5,29.5,203,183.9,173.2,3,5,4,1,2026-03-12T03:06:51.077561+05:30
Gaya,Bihar,24.7914,85.0002,23.8,90,0.0,994.5,7.35,20.2,181,136.9,127.1,3,5,7,1,2026-03-12T03:06:51.077568+05:30
Muzaffarpur,Bihar,26.1209,85.3647,23.1,90,0.0,1000.7,7.45,31.7,212,187.2,176.0,3,5,4,1,2026-03-12T03:06:51.077574+05:30
Bhagalpur,Bihar,25.2425,87.0117,23.0,96,0.0,1001.7,7.5,21.6,174,107.1,98.3,3,5,4,1,2026-03-12T03:06:51.077580+05:30
Ranchi,Jharkhand,23.3441,85.3096,20.2,77,0.0,938.0,8.2,34.9,169,114.6,99.9,3,5,7,0,2026-03-12T03:06:51.077586+05:30
Jamshedpur,Jharkhand,22.8046,86.2029,23.4,91,0.0,991.8,8.05,18.4,163,92.2,81.3,3,5,7,1,2026-03-12T03:06:51.077593+05:30
Dhanbad,Jharkhand,23.7957,86.4304,23.1,86,0.0,980.6,6.9,21.6,195,178.3,169.0,3,5,7,1,2026-03-12T03:06:51.077600+05:30
Bokaro,Jharkhand,23.6693,86.1511,23.3,88,0.0,984.8,8.0,22.0,192,163.4,152.3,3,5,7,1,2026-03-12T03:06:51.077607+05:30
Bhubaneswar,Odisha,20.2961,85.8245,24.8,90,0.0,1002.7,8.35,35.3,87,19.8,16.8,3,5,4,1,2026-03-12T03:06:51.077613+05:30
Cuttack,Odisha,20.4625,85.8828,24.9,90,0.0,1005.0,8.4,31.3,87,19.8,16.8,3,5,4,1,2026-03-12T03:06:51.077620+05:30
Rourkela,Odisha,22.2604,84.8536,22.0,86,0.0,985.6,8.0,16.6,163,88.7,80.6,3,5,7,1,2026-03-12T03:06:51.077626+05:30
Raipur,Chhattisgarh,21.2514,81.6296,22.7,43,0.0,975.0,8.1,15.1,161,116.2,92.2,0,5,7,0,2026-03-12T03:06:51.077632+05:30
Bhilai,Chhattisgarh,21.1938,81.3509,22.5,42,0.0,975.3,8.1,13.7,156,94.5,67.1,0,5,7,0,2026-03-12T03:06:51.077638+05:30
Guwahati,Assam,26.1158,91.7086,23.8,86,0.0,1002.1,6.95,22.0,152,56.3,51.0,3,5,4,1,2026-03-12T03:06:51.077644+05:30
Agartala,Tripura,23.8315,91.2868,22.2,93,0.0,1007.5,7.75,18.4,171,84.5,79.4,3,5,4,1,2026-03-12T03:06:51.077651+05:30
Shillong,Meghalaya,25.5788,91.8933,12.1,93,0.0,854.9,7.55,34.2,111,33.5,31.0,3,10,7,0,2026-03-12T03:06:51.077657+05:30
Imphal,Manipur,24.817,93.9368,16.7,88,0.0,923.7,8.0,39.6,163,122.9,115.7,3,10,7,0,2026-03-12T03:06:51.077664+05:30
Aizawl,Mizoram,23.7271,92.7176,16.3,87,0.0,892.7,7.9,32.8,188,128.5,123.4,3,10,7,0,2026-03-12T03:06:51.077670+05:30
Kohima,Nagaland,25.6701,94.1077,14.6,88,0.0,854.6,7.1,46.8,153,77.8,72.6,3,10,7,0,2026-03-12T03:06:51.077676+05:30
Gangtok,Sikkim,27.3314,88.6138,14.5,92,0.0,836.4,7.4,24.8,115,58.0,50.3,3,10,7,0,2026-03-12T03:06:51.077682+05:30
Siliguri,West Bengal,26.7271,88.3953,20.0,77,0.0,994.4,7.15,23.0,171,122.5,112.0,3,5,7,0,2026-03-12T03:06:54.863192+05:30
Durgapur,West Bengal,23.5204,87.3119,22.8,90,0.0,995.7,7.65,24.1,166,123.4,115.7,3,5,7,1,2026-03-12T03:06:54.863220+05:30
Asansol,West Bengal,23.6739,86.9524,23.1,91,0.0,994.3,7.65,28.8,175,134.6,126.7,3,5,7,1,2026-03-12T03:06:54.863229+05:30
Pondicherry,Puducherry,11.9139,79.8145,24.0,97,0.0,1009.8,9.0,28.4,60,22.6,18.3,3,0,4,1,2026-03-12T03:06:54.863236+05:30
Port Blair,Andaman and Nicobar Islands,11.6234,92.7265,27.2,83,0.0,1007.1,8.95,21.2,54,11.8,9.7,7,5,4,1,2026-03-12T03:06:54.863244+05:30
Haridwar,Uttarakhand,29.9457,78.1642,18.6,82,0.0,974.3,5.45,27.4,133,52.7,46.1,3,10,3,0,2026-03-12T03:06:54.863251+05:30
Rishikesh,Uttarakhand,30.0869,78.2676,19.3,76,0.0,967.1,5.1,22.0,112,37.0,31.7,3,5,3,0,2026-03-12T03:06:54.863257+05:30
Nainital,Uttarakhand,29.3919,79.4542,19.3,46,0.0,806.1,5.95,58.7,144,31.8,27.2,0,5,3,0,2026-03-12T03:06:54.863264+05:30
Mussoorie,Uttarakhand,30.4599,78.0664,16.9,47,0.0,802.8,5.0,35.3,101,42.4,38.1,0,5,3,0,2026-03-12T03:06:54.863271+05:30
Dharamshala,Himachal Pradesh,32.219,76.3234,20.6,33,0.0,870.0,5.95,31.3,49,10.7,3.7,0,5,3,0,2026-03-12T03:06:54.863277+05:30
Dalhousie,Himachal Pradesh,32.5387,75.971,17.1,32,0.0,804.3,6.05,26.6,73,15.4,10.4,0,5,7,0,2026-03-12T03:06:54.863284+05:30
Patiala,Punjab,30.3398,76.3869,19.8,67,0.0,978.5,5.75,33.5,165,131.8,98.7,3,5,3,0,2026-03-12T03:06:54.863291+05:30
Bhatinda,Punjab,30.211,74.9455,20.6,76,0.0,984.2,6.6,40.7,152,112.2,93.1,3,5,7,1,2026-03-12T03:06:54.863297+05:30
Rohtak,Haryana,28.8955,76.6066,19.1,69,0.0,982.2,5.75,23.4,214,329.7,105.2,3,5,3,0,2026-03-12T03:06:54.863303+05:30
Panipat,Haryana,29.3909,76.9635,18.5,78,0.0,980.6,5.85,28.4,346,236.6,89.6,3,5,3,0,2026-03-12T03:06:54.863309+05:30
Mathura,Uttar Pradesh,27.4924,77.6737,18.4,68,0.0,987.5,5.7,25.6,351,239.3,63.6,3,5,3,0,2026-03-12T03:06:54.863315+05:30
Vrindavan,Uttar Pradesh,27.5823,77.7027,17.5,71,0.0,988.0,5.45,28.1,351,239.3,63.6,3,5,3,0,2026-03-12T03:06:54.863321+05:30
Ayodhya,Uttar Pradesh,26.7922,82.1998,20.8,83,0.0,995.3,6.65,27.4,174,190.0,67.3,3,5,7,1,2026-03-12T03:06:54.863327+05:30
Ratlam,Madhya Pradesh,23.3315,75.0367,23.6,38,0.0,955.2,7.6,31.3,74,46.6,40.2,0,5,7,0,2026-03-12T03:06:54.863334+05:30
Sagar,Madhya Pradesh,23.8388,78.7378,23.2,38,0.0,951.0,7.6,27.0,77,44.0,22.8,0,5,7,0,2026-03-12T03:06:54.863340+05:30
Satna,Madhya Pradesh,24.6005,80.8322,22.4,48,0.0,972.1,7.55,33.5,123,52.3,27.2,0,5,7,0,2026-03-12T03:06:54.863346+05:30
Akola,Maharashtra,20.7002,77.0082,23.2,53,0.0,975.4,8.05,24.1,85,47.4,39.2,0,5,7,0,2026-03-12T03:06:54.863353+05:30
Amravati,Maharashtra,20.9374,77.7796,23.8,55,0.0,967.5,8.0,16.6,85,48.8,37.5,0,5,7,0,2026-03-12T03:06:54.863360+05:30
Latur,Maharashtra,18.4088,76.5604,23.1,51,0.0,939.9,8.45,19.4,101,40.5,35.4,0,5,7,0,2026-03-12T03:06:54.863366+05:30
Nanded,Maharashtra,19.1383,77.3091,24.3,57,0.0,969.1,8.25,17.6,114,48.8,44.4,0,5,7,0,2026-03-12T03:06:54.863372+05:30
Gulbarga,Karnataka,17.3297,76.8343,26.3,49,0.0,959.6,8.55,17.3,82,48.4,41.0,4,5,7,0,2026-03-12T03:06:54.863378+05:30
Bidar,Karnataka,17.9104,77.5199,24.0,53,0.0,936.1,8.5,23.0,99,58.3,51.0,0,5,7,0,2026-03-12T03:06:54.863384+05:30
Hospet,Karnataka,15.2689,76.3909,26.1,53,0.0,956.4,8.85,27.7,64,40.2,34.9,4,5,7,0,2026-03-12T03:06:54.863390+05:30
Tirupur,Tamil Nadu,11.1085,77.3411,24.5,83,0.0,976.4,9.3,32.8,78,22.5,21.7,3,5,7,1,2026-03-12T03:06:54.863397+05:30
Alappuzha,Kerala,9.4981,76.3388,26.0,88,0.0,1009.3,9.0,30.6,105,39.1,35.5,7,0,4,1,2026-03-12T03:06:54.863403+05:30
Munnar,Kerala,10.0889,77.0595,18.0,83,0.0,855.4,9.55,27.0,63,23.6,22.8,3,10,7,0,2026-03-12T03:06:54.863410+05:30
Silchar,Assam,24.8333,92.7789,21.6,93,0.0,1007.3,7.7,20.9,175,129.5,118.3,3,5,4,1,2026-03-12T03:06:54.863416+05:30
Dibrugarh,Assam,27.4728,94.912,21.3,91,0.0,997.8,7.45,22.7,156,59.0,55.9,3,5,7,1,2026-03-12T03:06:54.863422+05:30
