city,state,latitude,longitude,temp,humidity,rain,pressure,uv_index,wind_gusts,aqi,pm10,pm2_5,no2,co,o3,so2,mosquito_risk,arthritis_risk,migraine_risk,frizz_risk,updated_at
Delhi,Delhi,28.6139,77.209,27.4,93,0.0,974.4,7.65,24.5,156,84.1,63.6,57.4,985.0,36.0,30.1,7,5,7,1,2026-07-11T01:54:55.208477+05:30
Mumbai,Maharashtra,19.076,72.8777,27.1,90,0.1,1007.3,5.9,55.8,57,29.5,12.2,4.0,121.0,44.0,3.4,10,5,0,1,2026-07-11T01:54:55.208517+05:30
Bangalore,Karnataka,12.9716,77.5946,21.0,92,0.0,911.4,8.1,47.2,34,8.0,5.6,11.4,202.0,34.0,4.1,3,5,7,1,2026-07-11T01:54:55.208534+05:30
Hyderabad,Telangana,17.385,78.4867,27.5,64,0.0,950.9,7.6,50.0,61,29.3,17.5,10.6,231.0,44.0,5.1,7,5,7,1,2026-07-11T01:54:55.208543+05:30
Chennai,Tamil Nadu,13.0827,80.2707,27.7,80,0.0,1005.2,8.0,34.6,68,23.9,16.9,15.9,304.0,57.0,8.9,7,5,4,1,2026-07-11T01:54:55.208551+05:30
Kolkata,West Bengal,22.5726,88.3639,27.1,95,0.0,998.8,7.95,27.4,81,39.7,33.3,11.4,331.0,74.0,11.3,7,5,7,1,2026-07-11T01:54:55.208559+05:30
Pune,Maharashtra,18.5204,73.8567,23.7,91,0.0,946.7,8.0,56.2,32,5.9,3.0,5.9,111.0,36.0,5.1,3,5,7,1,2026-07-11T01:54:55.208567+05:30
Ahmedabad,Gujarat,23.0225,72.5714,28.1,77,0.0,997.8,4.1,46.8,69,33.4,17.6,6.3,119.0,40.0,4.3,7,5,3,1,2026-07-11T01:54:55.208577+05:30
Jaipur,Rajasthan,26.9124,75.7873,27.8,68,0.0,952.3,7.4,37.1,425,568.1,100.6,7.1,158.0,63.0,4.5,7,5,7,1,2026-07-11T01:54:55.208584+05:30
Lucknow,Uttar Pradesh,26.8467,80.9462,26.4,95,0.0,985.2,6.6,45.0,101,80.8,45.2,21.7,217.0,45.0,6.5,7,5,7,1,2026-07-11T01:54:55.208593+05:30
Kanpur,Uttar Pradesh,26.4499,80.3319,25.8,97,0.1,983.9,5.65,48.2,102,67.1,36.6,17.4,191.0,54.0,5.1,10,5,3,1,2026-07-11T01:54:55.208600+05:30
Chandigarh,Chandigarh,30.7333,76.7794,25.4,93,0.0,960.3,7.7,19.4,130,67.8,65.7,49.4,848.0,32.0,10.0,7,5,7,1,2026-07-11T01:54:55.208607+05:30
Srinagar,Jammu and Kashmir,34.0837,74.7973,22.9,69,0.0,835.2,9.05,31.3,90,54.2,50.5,37.5,817.0,18.0,1.4,3,5,7,1,2026-07-11T01:54:55.208614+05:30
Jammu,Jammu and Kashmir,32.7266,74.857,28.0,81,0.0,964.3,7.95,25.6,163,61.9,55.9,26.1,591.0,79.0,4.8,7,5,7,1,2026-07-11T01:54:55.208620+05:30
Amritsar,Punjab,31.634,74.8723,28.2,87,0.2,971.8,8.45,54.4,157,75.9,63.6,16.4,798.0,96.0,6.6,10,5,7,1,2026-07-11T01:54:55.208626+05:30
Ludhiana,Punjab,30.901,75.8573,27.6,89,0.0,969.8,7.95,23.0,156,87.5,51.7,18.8,799.0,90.0,11.5,7,5,7,1,2026-07-11T01:54:55.208632+05:30
Jalandhar,Punjab,31.326,75.5762,27.5,86,0.0,970.8,8.2,29.9,158,109.2,79.6,23.4,784.0,82.0,7.5,7,5,7,1,2026-07-11T01:54:55.208641+05:30
Dehradun,Uttarakhand,30.6284,78.0322,18.3,100,0.1,824.5,7.5,24.1,40,10.0,10.0,31.8,247.0,42.0,1.2,6,10,7,1,2026-07-11T01:54:55.208647+05:30
Shimla,Himachal Pradesh,31.1048,77.1734,15.1,93,0.0,778.6,8.25,32.8,57,35.9,33.2,20.8,330.0,80.0,3.0,3,10,7,0,2026-07-11T01:54:55.208654+05:30
Manali,Himachal Pradesh,32.2396,77.1887,19.5,91,0.0,813.9,8.2,33.1,41,17.4,17.4,56.7,362.0,33.0,0.0,3,10,7,1,2026-07-11T01:54:55.208662+05:30
Gurgaon,Haryana,28.4595,77.0266,27.2,91,0.0,972.9,7.7,28.1,166,134.6,82.4,55.4,733.0,29.0,20.0,7,5,7,1,2026-07-11T01:54:55.208669+05:30
Noida,Uttar Pradesh,28.5355,77.391,27.6,92,0.0,975.7,7.7,23.8,166,134.6,82.4,55.4,526.0,29.0,20.0,7,5,7,1,2026-07-11T01:54:55.208675+05:30
Ghaziabad,Uttar Pradesh,28.6692,77.4538,26.9,93,0.0,974.0,7.4,24.1,116,49.2,41.9,30.5,436.0,45.0,9.4,7,5,7,1,2026-07-11T01:54:55.208681+05:30
Faridabad,Haryana,28.4089,77.3178,27.7,92,0.0,975.1,7.75,25.9,166,134.6,82.4,55.4,823.0,29.0,20.0,7,5,7,1,2026-07-11T01:54:55.208687+05:30
Meerut,Uttar Pradesh,28.9845,77.7064,25.7,89,0.0,973.1,7.5,47.5,116,49.2,41.9,30.5,679.0,45.0,9.4,7,5,7,1,2026-07-11T01:54:55.208693+05:30
Agra,Uttar Pradesh,27.1767,78.0081,29.0,78,0.0,978.8,6.5,37.8,157,69.2,39.1,19.5,276.0,47.0,6.0,7,5,7,1,2026-07-11T01:54:55.208699+05:30
Varanasi,Uttar Pradesh,25.3176,82.9739,25.9,98,0.8,990.7,8.2,36.0,89,48.3,29.6,10.2,252.0,70.0,5.0,10,5,7,1,2026-07-11T01:54:55.208705+05:30
Prayagraj,Uttar Pradesh,25.4358,81.8463,27.5,91,0.0,988.1,8.6,43.2,91,43.4,25.0,8.4,190.0,76.0,3.6,7,5,7,1,2026-07-11T01:54:55.208712+05:30
Gorakhpur,Uttar Pradesh,26.7606,83.3732,27.3,94,0.1,989.2,6.4,33.8,82,40.4,28.0,11.5,276.0,84.0,5.5,10,5,7,1,2026-07-11T01:54:55.208718+05:30
Bareilly,Uttar Pradesh,28.367,79.4304,26.6,98,0.1,977.9,7.75,28.1,76,51.7,49.0,41.3,361.0,20.0,8.4,10,5,7,1,2026-07-11T01:54:55.208726+05:30
Aligarh,Uttar Pradesh,27.8974,78.088,27.9,88,0.0,976.6,7.8,32.0,157,107.6,57.5,23.9,470.0,63.0,9.2,7,5,7,1,2026-07-11T01:54:55.208732+05:30
Moradabad,Uttar Pradesh,28.8386,78.7733,26.8,91,0.0,974.7,7.3,31.7,77,61.5,58.6,48.7,428.0,21.0,13.9,7,5,7,1,2026-07-11T01:54:55.208738+05:30
Saharanpur,Uttar Pradesh,29.9637,77.546,25.0,97,0.0,967.7,7.35,26.3,72,52.2,51.1,53.8,377.0,10.0,10.6,7,5,7,1,2026-07-11T01:54:55.208744+05:30
Jhansi,Uttar Pradesh,25.4484,78.5685,29.7,66,0.0,970.9,8.05,43.9,100,45.8,27.5,6.9,142.0,79.0,10.2,7,5,7,1,2026-07-11T01:54:58.459848+05:30
Surat,Gujarat,21.1702,72.8311,28.2,88,0.0,1003.9,6.1,63.7,63,24.4,14.3,14.6,250.0,32.0,25.2,7,5,4,1,2026-07-11T01:54:58.459877+05:30
Vadodara,Gujarat,22.3072,73.1812,28.1,80,0.0,1000.6,7.5,55.1,64,27.9,15.1,7.0,125.0,39.0,4.8,7,5,4,1,2026-07-11T01:54:58.459887+05:30
Rajkot,Gujarat,22.3039,70.8022,26.9,86,0.0,990.3,7.15,57.6,61,25.5,11.6,3.6,97.0,41.0,3.4,7,5,7,1,2026-07-11T01:54:58.459896+05:30
Thane,Maharashtra,19.2183,72.9781,26.6,93,0.0,1006.6,5.65,47.5,57,29.5,12.2,4.0,136.0,44.0,3.4,7,5,0,1,2026-07-11T01:54:58.459903+05:30
Nagpur,Maharashtra,21.1458,79.0882,27.6,70,0.0,969.0,6.6,48.2,82,39.9,22.5,9.7,170.0,57.0,10.1,7,5,7,1,2026-07-11T01:54:58.459910+05:30
Nashik,Maharashtra,19.9975,73.7898,23.7,95,0.0,943.2,7.6,63.0,38,8.9,4.9,6.4,96.0,34.0,3.4,3,5,7,1,2026-07-11T01:54:58.459917+05:30
Aurangabad,Maharashtra,19.8762,75.3433,23.7,87,0.0,941.7,8.85,62.6,48,15.7,8.3,8.3,139.0,35.0,9.3,3,5,7,1,2026-07-11T01:54:58.459925+05:30
Solapur,Maharashtra,17.6599,75.9064,25.0,79,0.0,956.1,7.75,48.6,46,17.6,9.5,5.3,124.0,34.0,2.2,7,5,7,1,2026-07-11T01:54:58.459932+05:30
Kolhapur,Maharashtra,16.705,74.2433,23.2,93,0.0,947.7,7.85,54.0,32,5.9,3.5,3.7,111.0,38.0,2.2,3,5,7,1,2026-07-11T01:54:58.459939+05:30
Goa,Goa,15.2993,74.124,24.9,99,0.0,998.9,7.5,38.9,56,29.5,15.7,4.3,324.0,37.0,1.6,3,5,7,1,2026-07-11T01:54:58.459946+05:30
Jodhpur,Rajasthan,26.2389,73.0243,29.3,64,0.0,975.6,8.4,53.6,199,451.7,101.7,2.8,112.0,60.0,2.8,7,5,7,1,2026-07-11T01:54:58.459952+05:30
Udaipur,Rajasthan,24.5854,73.7125,24.0,82,0.0,940.7,8.85,53.3,72,35.2,17.8,3.7,106.0,58.0,3.7,3,5,7,1,2026-07-11T01:54:58.459959+05:30
Kota,Rajasthan,25.2138,75.8648,28.8,64,0.0,972.3,8.3,37.1,89,40.6,24.6,6.6,167.0,76.0,7.3,7,5,7,1,2026-07-11T01:54:58.459966+05:30
Bikaner,Rajasthan,28.0229,73.3119,30.6,60,0.0,973.0,7.85,39.6,159,205.4,75.2,2.7,110.0,62.0,4.8,0,5,7,1,2026-07-11T01:54:58.459972+05:30
Ajmer,Rajasthan,26.4499,74.6399,27.5,68,0.0,947.6,8.05,51.5,84,33.8,19.9,4.7,121.0,66.0,3.7,7,5,7,1,2026-07-11T01:54:58.460001+05:30
Gwalior,Madhya Pradesh,26.2183,78.1828,29.3,69,0.0,975.4,7.35,42.5,99,38.3,25.0,6.7,148.0,72.0,6.2,7,5,7,1,2026-07-11T01:54:58.460009+05:30
Indore,Madhya Pradesh,22.7196,75.8577,24.5,87,0.0,944.0,8.6,54.4,71,27.0,15.1,7.1,148.0,48.0,9.0,3,5,7,1,2026-07-11T01:54:58.460015+05:30
Bhopal,Madhya Pradesh,23.2599,77.4126,26.1,78,0.0,949.2,8.6,46.8,79,39.3,24.7,6.3,209.0,68.0,6.9,7,5,7,1,2026-07-11T01:54:58.460023+05:30
Jabalpur,Madhya Pradesh,23.1815,79.9864,26.6,74,0.0,956.4,8.05,36.7,82,42.0,23.6,5.0,192.0,71.0,4.9,7,5,7,1,2026-07-11T01:54:58.460029+05:30
Ujjain,Madhya Pradesh,23.1765,75.7885,25.2,86,0.0,949.3,8.5,55.4,70,25.4,14.7,7.6,162.0,47.0,10.3,7,5,7,1,2026-07-11T01:54:58.460037+05:30
Visakhapatnam,Andhra Pradesh,17.6868,83.2185,27.7,87,0.0,999.5,8.4,42.1,83,37.5,26.5,19.4,335.0,58.0,30.3,7,5,7,1,2026-07-11T01:54:58.460044+05:30
Vijayawada,Andhra Pradesh,16.5062,80.648,31.0,52,0.0,998.9,8.15,42.1,78,42.4,30.3,17.2,236.0,42.0,6.5,0,5,7,1,2026-07-11T01:54:58.460051+05:30
Guntur,Andhra Pradesh,16.3067,80.4365,31.5,50,0.0,1000.3,8.45,45.7,76,45.8,29.9,19.5,194.0,32.0,7.0,0,5,4,1,2026-07-11T01:54:58.460058+05:30
Nellore,Andhra Pradesh,14.4426,79.9865,28.6,72,0.0,1003.1,8.4,43.9,62,34.8,16.7,7.3,152.0,49.0,3.7,7,5,4,1,2026-07-11T01:54:58.460065+05:30
Kurnool,Andhra Pradesh,15.8281,78.0373,28.0,67,0.0,975.4,8.6,47.9,56,18.8,11.4,8.5,136.0,42.0,3.2,7,5,7,1,2026-07-11T01:54:58.460073+05:30
Kakinada,Andhra Pradesh,16.9891,82.2475,28.7,75,0.0,1003.2,5.45,43.6,73,34.6,22.9,5.9,190.0,90.0,4.1,7,5,0,1,2026-07-11T01:54:58.460080+05:30
Tirupati,Andhra Pradesh,13.6288,79.4192,28.4,62,0.0,989.1,8.25,36.0,60,18.5,11.9,11.4,131.0,37.0,2.4,7,5,7,1,2026-07-11T01:54:58.460087+05:30
Warangal,Telangana,17.9689,79.5941,28.1,66,0.0,975.1,7.45,43.9,71,35.4,22.1,12.7,218.0,39.0,3.7,7,5,7,1,2026-07-11T01:54:58.460093+05:30
Nizamabad,Telangana,18.6725,78.0941,27.1,68,0.0,962.1,8.4,45.7,63,23.2,15.3,9.7,161.0,42.0,6.8,7,5,7,1,2026-07-11T01:54:58.460100+05:30
Mysore,Karnataka,12.2958,76.6396,21.1,97,0.0,928.7,7.05,46.8,23,6.9,4.5,7.9,125.0,33.0,2.1,3,5,7,1,2026-07-11T01:54:58.460107+05:30
Mangalore,Karnataka,12.9141,74.856,24.8,99,0.0,1008.4,7.9,42.8,53,22.8,13.5,10.8,267.0,26.0,3.4,3,0,4,1,2026-07-11T01:54:58.460114+05:30
Hubli-Dharwad,Karnataka,15.3647,75.124,23.0,91,0.0,941.0,8.3,54.0,28,7.1,3.5,3.4,104.0,38.0,1.6,3,5,7,1,2026-07-11T01:54:58.460120+05:30
Belgaum,Karnataka,15.8497,74.4977,21.2,96,0.0,925.5,8.4,54.7,27,6.0,2.9,3.0,101.0,39.0,1.3,3,5,7,1,2026-07-11T01:55:01.693236+05:30
Coimbatore,Tamil Nadu,11.0168,76.9558,23.3,95,0.0,962.1,7.9,49.3,29,9.2,6.7,10.2,190.0,25.0,3.2,3,5,7,1,2026-07-11T01:55:01.693264+05:30
Madurai,Tamil Nadu,9.9252,78.1198,28.0,78,0.0,993.0,8.4,25.9,59,29.3,24.9,41.1,169.0,3.0,7.8,7,5,7,1,2026-07-11T01:55:01.693275+05:30
Trichy,Tamil Nadu,10.7905,78.7047,28.1,70,0.0,999.4,8.0,50.0,42,9.4,6.1,7.8,120.0,35.0,3.2,7,5,7,1,2026-07-11T01:55:01.693283+05:30
Salem,Tamil Nadu,11.6643,78.146,25.2,97,0.0,977.5,7.8,32.4,57,18.9,15.6,22.9,484.0,25.0,6.6,7,5,7,1,2026-07-11T01:55:01.693292+05:30
Tirunelveli,Tamil Nadu,8.7139,77.7567,28.7,67,0.0,1003.9,8.55,50.0,26,9.8,7.5,8.2,143.0,33.0,2.7,7,5,4,1,2026-07-11T01:55:01.693299+05:30
Vellore,Tamil Nadu,12.9165,79.1325,27.2,73,0.0,983.0,8.0,42.1,60,14.5,10.9,15.3,202.0,37.0,5.0,7,5,7,1,2026-07-11T01:55:01.693307+05:30
Erode,Tamil Nadu,11.341,77.7172,25.5,86,0.0,989.4,7.8,39.6,47,15.1,12.4,17.0,162.0,27.0,4.1,7,5,7,1,2026-07-11T01:55:01.693314+05:30
Kochi,Kerala,9.9312,76.2673,25.9,93,0.1,1010.8,7.8,40.3,47,18.6,14.7,16.6,112.0,17.0,4.6,10,0,4,1,2026-07-11T01:55:01.693322+05:30
Thiruvananthapuram,Kerala,8.5241,76.9366,24.9,95,0.0,1010.3,8.0,50.0,39,14.2,8.6,5.4,138.0,43.0,2.4,3,0,4,1,2026-07-11T01:55:01.693329+05:30
Kozhikode,Kerala,11.2588,75.7804,24.6,98,0.0,1009.8,7.95,40.3,34,15.3,7.3,2.6,206.0,48.0,1.4,3,0,4,1,2026-07-11T01:55:01.693337+05:30
Thrissur,Kerala,10.5276,76.2144,25.0,98,0.0,1008.9,7.8,38.2,45,17.2,12.5,10.4,316.0,29.0,3.8,7,0,4,1,2026-07-11T01:55:01.693345+05:30
Kannur,Kerala,11.8745,75.3704,25.0,97,0.0,1009.0,7.85,43.9,43,21.2,11.6,8.6,348.0,31.0,2.3,7,0,4,1,2026-07-11T01:55:01.693352+05:30
Patna,Bihar,25.5941,85.1376,27.2,90,0.0,992.8,5.35,35.3,77,55.5,35.9,15.1,387.0,66.0,7.6,7,5,3,1,2026-07-11T01:55:01.693360+05:30
Gaya,Bihar,24.7914,85.0002,26.5,93,0.1,986.8,6.35,38.9,74,58.0,43.2,18.0,263.0,50.0,15.6,10,5,7,1,2026-07-11T01:55:01.693367+05:30
Muzaffarpur,Bihar,26.1209,85.3647,26.2,96,0.0,992.6,2.55,26.6,87,47.5,37.3,16.5,373.0,67.0,7.0,7,5,3,1,2026-07-11T01:55:01.693374+05:30
Bhagalpur,Bihar,25.2425,87.0117,27.1,97,0.1,993.4,7.15,31.3,87,29.7,25.8,15.2,304.0,55.0,6.5,10,5,7,1,2026-07-11T01:55:01.693381+05:30
Ranchi,Jharkhand,23.3441,85.3096,23.9,96,0.0,931.9,4.75,38.5,78,44.5,29.6,7.7,205.0,77.0,10.7,3,5,3,1,2026-07-11T01:55:01.693389+05:30
Jamshedpur,Jharkhand,22.8046,86.2029,25.7,96,0.1,984.8,2.1,35.6,85,48.3,35.4,14.2,247.0,77.0,31.2,10,5,3,1,2026-07-11T01:55:01.693396+05:30
Dhanbad,Jharkhand,23.7957,86.4304,26.1,88,0.0,973.2,2.75,37.8,113,59.5,50.8,35.5,190.0,46.0,75.8,7,5,3,1,2026-07-11T01:55:01.693403+05:30
Bokaro,Jharkhand,23.6693,86.1511,26.4,88,0.1,977.1,2.45,40.7,99,51.0,40.3,20.7,201.0,61.0,45.0,10,5,3,1,2026-07-11T01:55:01.693410+05:30
Bhubaneswar,Odisha,20.2961,85.8245,27.9,87,0.0,996.9,8.3,35.3,74,22.4,19.1,9.7,278.0,62.0,5.0,7,5,7,1,2026-07-11T01:55:01.693417+05:30
Cuttack,Odisha,20.4625,85.8828,27.9,88,0.0,998.7,8.05,36.7,74,22.4,19.1,9.7,279.0,62.0,5.0,7,5,7,1,2026-07-11T01:55:01.693425+05:30
Rourkela,Odisha,22.2604,84.8536,25.8,97,0.2,979.6,2.05,38.9,102,64.0,36.7,13.6,312.0,68.0,19.3,10,5,3,1,2026-07-11T01:55:01.693432+05:30
Raipur,Chhattisgarh,21.2514,81.6296,27.4,76,0.0,970.1,7.55,39.6,107,60.1,37.1,25.4,470.0,51.0,44.8,7,5,7,1,2026-07-11T01:55:01.693439+05:30
Bhilai,Chhattisgarh,21.1938,81.3509,27.1,77,0.0,970.6,7.65,43.6,102,53.9,33.2,20.4,593.0,54.0,35.4,7,5,7,1,2026-07-11T01:55:01.693447+05:30
Guwahati,Assam,26.1158,91.7086,25.9,99,0.1,993.7,7.65,16.6,44,6.8,6.8,5.1,229.0,66.0,1.1,10,5,7,1,2026-07-11T01:55:01.693454+05:30
Agartala,Tripura,23.8315,91.2868,25.1,99,0.0,999.6,8.05,37.8,39,6.3,6.1,6.5,196.0,81.0,3.2,7,5,7,1,2026-07-11T01:55:01.693461+05:30
Shillong,Meghalaya,25.5788,91.8933,20.6,98,0.0,851.5,3.25,29.2,29,1.6,1.6,4.2,176.0,62.0,1.9,3,5,3,1,2026-07-11T01:55:01.693469+05:30
Imphal,Manipur,24.817,93.9368,23.5,98,0.0,917.7,5.7,29.5,27,6.0,5.8,5.4,473.0,48.0,2.1,3,5,3,1,2026-07-11T01:55:01.693477+05:30
Aizawl,Mizoram,23.7271,92.7176,19.7,98,0.1,887.1,8.6,42.5,26,0.4,0.4,2.1,128.0,55.0,1.0,6,10,7,1,2026-07-11T01:55:01.693485+05:30
Kohima,Nagaland,25.6701,94.1077,21.6,91,0.0,850.6,7.25,23.0,24,3.6,3.5,4.4,274.0,48.0,1.2,3,5,7,1,2026-07-11T01:55:01.693493+05:30
Gangtok,Sikkim,27.3314,88.6138,19.1,97,0.0,832.5,7.65,29.2,48,6.5,6.4,3.9,282.0,107.0,1.6,3,10,7,1,2026-07-11T01:55:01.693500+05:30
Siliguri,West Bengal,26.7271,88.3953,25.5,99,0.1,985.3,8.1,19.8,67,23.6,23.3,8.6,771.0,100.0,4.2,10,5,7,1,2026-07-11T01:55:04.939951+05:30
Durgapur,West Bengal,23.5204,87.3119,26.9,94,0.0,987.7,2.5,36.4,108,65.7,59.6,42.2,361.0,41.0,68.4,7,5,3,1,2026-07-11T01:55:04.940002+05:30
Asansol,West Bengal,23.6739,86.9524,26.9,90,0.0,986.4,3.7,35.3,98,59.6,52.6,37.3,1297.0,44.0,64.0,7,5,3,1,2026-07-11T01:55:04.940014+05:30
Pondicherry,Puducherry,11.9139,79.8145,27.1,83,0.0,1007.2,8.05,40.7,67,19.4,15.3,16.4,368.0,51.0,9.1,7,5,4,1,2026-07-11T01:55:04.940023+05:30
Port Blair,Andaman and Nicobar Islands,11.6234,92.7265,27.9,79,0.0,1006.5,8.8,55.8,38,11.3,6.2,0.1,83.0,45.0,0.3,7,5,4,1,2026-07-11T01:55:04.940031+05:30
Haridwar,Uttarakhand,29.9457,78.1642,24.7,99,0.8,965.9,7.5,28.8,61,36.8,36.1,36.4,309.0,23.0,6.2,6,5,7,1,2026-07-11T01:55:04.940039+05:30
Rishikesh,Uttarakhand,30.0869,78.2676,24.7,98,0.1,958.6,7.6,25.6,46,7.4,7.0,6.9,286.0,93.0,1.6,6,5,7,1,2026-07-11T01:55:04.940047+05:30
Nainital,Uttarakhand,29.3919,79.4542,17.2,99,0.0,800.0,5.4,22.3,33,14.2,13.4,18.6,266.0,48.0,2.5,3,10,3,1,2026-07-11T01:55:04.940056+05:30
Mussoorie,Uttarakhand,30.4599,78.0664,16.7,99,0.1,797.3,7.3,29.9,53,9.3,9.0,19.1,265.0,74.0,3.8,6,10,7,1,2026-07-11T01:55:04.940064+05:30
Dharamshala,Himachal Pradesh,32.219,76.3234,21.4,83,0.0,863.0,8.45,33.8,67,10.4,10.0,9.8,399.0,65.0,0.2,3,5,7,1,2026-07-11T01:55:04.940071+05:30
Dalhousie,Himachal Pradesh,32.5387,75.971,17.2,97,0.2,799.5,8.7,25.6,142,18.6,17.1,18.5,742.0,83.0,1.8,6,10,7,1,2026-07-11T01:55:04.940079+05:30
Patiala,Punjab,30.3398,76.3869,26.4,89,0.0,969.3,6.9,16.2,129,82.2,38.3,21.4,604.0,70.0,12.7,7,5,7,1,2026-07-11T01:55:04.940087+05:30
Bhatinda,Punjab,30.211,74.9455,29.0,79,0.0,974.4,8.3,27.7,164,225.4,92.0,21.4,455.0,74.0,9.5,7,5,7,1,2026-07-11T01:55:04.940094+05:30
Rohtak,Haryana,28.8955,76.6066,27.8,91,0.0,973.3,7.65,25.6,176,151.8,84.1,61.3,592.0,26.0,23.9,7,5,7,1,2026-07-11T01:55:04.940101+05:30
Panipat,Haryana,29.3909,76.9635,26.1,91,0.0,971.8,7.4,22.0,506,284.1,99.9,34.7,714.0,41.0,11.5,7,5,7,1,2026-07-11T01:55:04.940109+05:30
Mathura,Uttar Pradesh,27.4924,77.6737,28.9,75,0.0,977.9,7.95,33.1,264,108.3,51.6,24.8,318.0,42.0,5.0,7,5,7,1,2026-07-11T01:55:04.940117+05:30
Vrindavan,Uttar Pradesh,27.5823,77.7027,29.2,73,0.0,978.4,7.9,32.4,264,108.3,51.6,24.8,369.0,42.0,5.0,7,5,7,1,2026-07-11T01:55:04.940124+05:30
Ayodhya,Uttar Pradesh,26.7922,82.1998,26.0,97,0.1,987.7,8.05,34.6,85,44.9,28.3,10.2,327.0,83.0,3.1,10,5,7,1,2026-07-11T01:55:04.940132+05:30
Ratlam,Madhya Pradesh,23.3315,75.0367,25.0,91,0.0,950.0,8.5,52.9,68,23.6,13.7,8.2,140.0,43.0,11.0,7,5,7,1,2026-07-11T01:55:04.940139+05:30
Sagar,Madhya Pradesh,23.8388,78.7378,27.1,70,0.0,945.0,8.65,46.4,84,45.1,26.8,5.0,177.0,75.0,4.8,7,5,7,1,2026-07-11T01:55:04.940146+05:30
Satna,Madhya Pradesh,24.6005,80.8322,27.7,74,0.0,964.7,8.2,42.5,96,43.9,25.4,4.9,175.0,71.0,4.2,7,5,7,1,2026-07-11T01:55:04.940154+05:30
Akola,Maharashtra,20.7002,77.0082,27.1,70,0.0,972.0,8.75,52.6,61,28.6,14.4,7.2,118.0,39.0,7.2,7,5,7,1,2026-07-11T01:55:04.940162+05:30
Amravati,Maharashtra,20.9374,77.7796,27.4,70,0.0,963.8,8.5,60.1,64,31.0,15.9,8.1,153.0,40.0,8.3,7,5,7,1,2026-07-11T01:55:04.940169+05:30
Latur,Maharashtra,18.4088,76.5604,24.4,81,0.0,937.6,8.2,48.2,48,19.2,9.5,5.3,119.0,39.0,3.3,3,5,7,1,2026-07-11T01:55:04.940177+05:30
Nanded,Maharashtra,19.1383,77.3091,27.1,69,0.0,965.8,8.65,44.3,57,23.6,14.0,6.1,136.0,51.0,4.9,7,5,7,1,2026-07-11T01:55:04.940184+05:30
Gulbarga,Karnataka,17.3297,76.8343,25.8,75,0.0,957.5,8.0,52.2,52,18.5,9.5,5.6,114.0,37.0,2.7,7,5,7,1,2026-07-11T01:55:04.940191+05:30
Bidar,Karnataka,17.9104,77.5199,25.6,74,0.0,933.5,7.5,46.1,55,20.0,11.6,6.3,132.0,45.0,2.8,7,5,7,1,2026-07-11T01:55:04.940198+05:30
Hospet,Karnataka,15.2689,76.3909,24.1,84,0.0,955.7,8.35,50.4,36,10.4,5.7,5.2,123.0,34.0,1.9,3,5,7,1,2026-07-11T01:55:04.940206+05:30
Tirupur,Tamil Nadu,11.1085,77.3411,24.0,92,0.0,975.7,8.3,48.2,51,17.5,15.0,21.7,148.0,19.0,5.2,3,5,7,1,2026-07-11T01:55:04.940213+05:30
Alappuzha,Kerala,9.4981,76.3388,26.0,95,0.1,1010.9,8.2,42.8,42,16.8,11.1,11.4,83.0,33.0,3.8,10,0,4,1,2026-07-11T01:55:04.940220+05:30
Munnar,Kerala,10.0889,77.0595,16.8,99,0.1,857.3,8.3,40.3,20,7.1,4.7,5.7,90.0,25.0,1.2,6,10,7,1,2026-07-11T01:55:04.940228+05:30
Silchar,Assam,24.8333,92.7789,26.4,98,0.0,998.3,6.85,29.2,30,7.7,7.3,6.2,275.0,54.0,2.5,7,5,7,1,2026-07-11T01:55:04.940235+05:30
Dibrugarh,Assam,27.4728,94.912,25.3,99,0.3,988.4,7.25,27.4,56,10.0,9.6,6.6,184.0,70.0,1.6,10,5,7,1,2026-07-11T01:55:04.940243+05:30
