city,state,latitude,longitude,temp,humidity,rain,pressure,uv_index,wind_gusts,aqi,pm10,pm2_5,no2,co,o3,so2,mosquito_risk,arthritis_risk,migraine_risk,frizz_risk,updated_at
Delhi,Delhi,28.6139,77.209,34.3,56,0.0,976.6,7.65,29.5,132,53.1,38.4,18.8,647.0,147.0,31.5,0,5,7,1,2026-07-04T10:07:09.303095+05:30
Mumbai,Maharashtra,19.076,72.8777,26.4,90,1.1,1003.5,0.35,55.1,38,22.5,11.8,10.2,281.0,49.0,4.8,10,5,0,1,2026-07-04T10:07:09.303171+05:30
Bangalore,Karnataka,12.9716,77.5946,23.9,75,0.1,911.5,5.0,77.8,19,3.2,2.8,9.4,311.0,41.0,3.1,6,5,3,1,2026-07-04T10:07:09.303188+05:30
Hyderabad,Telangana,17.385,78.4867,24.1,87,0.1,948.8,1.0,65.9,18,4.2,3.7,5.7,332.0,46.0,3.3,6,5,3,1,2026-07-04T10:07:09.303199+05:30
Chennai,Tamil Nadu,13.0827,80.2707,29.9,63,0.0,1005.2,5.0,48.6,44,8.6,6.6,11.6,377.0,47.0,8.9,7,5,0,1,2026-07-04T10:07:09.303210+05:30
Kolkata,West Bengal,22.5726,88.3639,30.9,75,0.0,995.9,7.5,49.7,40,10.0,8.7,3.4,230.0,95.0,7.1,3,5,7,1,2026-07-04T10:07:09.303220+05:30
Pune,Maharashtra,18.5204,73.8567,23.8,92,0.2,943.0,0.6,55.8,21,2.3,2.1,7.1,174.0,45.0,2.9,6,5,3,1,2026-07-04T10:07:09.303229+05:30
Ahmedabad,Gujarat,23.0225,72.5714,29.0,82,0.0,995.9,2.25,39.6,63,32.1,14.9,6.2,156.0,52.0,3.7,7,5,3,1,2026-07-04T10:07:09.303237+05:30
Jaipur,Rajasthan,26.9124,75.7873,31.1,64,0.0,954.1,7.95,19.8,114,125.7,45.4,8.4,228.0,93.0,8.1,3,5,7,1,2026-07-04T10:07:09.303245+05:30
Lucknow,Uttar Pradesh,26.8467,80.9462,33.5,65,0.0,986.7,8.2,24.1,82,35.3,34.5,5.9,393.0,136.0,10.4,3,5,7,1,2026-07-04T10:07:09.303258+05:30
Kanpur,Uttar Pradesh,26.4499,80.3319,33.3,67,0.0,984.8,8.2,25.2,82,37.7,36.2,6.5,323.0,138.0,10.5,3,5,7,1,2026-07-04T10:07:09.303267+05:30
Chandigarh,Chandigarh,30.7333,76.7794,31.5,68,0.0,963.7,7.75,23.0,84,22.2,22.0,4.7,563.0,160.0,9.4,3,5,7,1,2026-07-04T10:07:09.303275+05:30
Srinagar,Jammu and Kashmir,34.0837,74.7973,24.9,60,0.0,841.6,9.05,20.5,77,29.0,22.9,5.7,487.0,133.0,5.6,0,5,7,1,2026-07-04T10:07:09.303283+05:30
Jammu,Jammu and Kashmir,32.7266,74.857,31.4,66,0.0,967.5,8.6,29.9,96,36.3,30.9,5.0,422.0,162.0,7.4,3,5,7,1,2026-07-04T10:07:09.303290+05:30
Amritsar,Punjab,31.634,74.8723,31.5,70,0.0,975.4,8.4,35.6,109,49.0,44.2,7.0,561.0,133.0,9.1,3,5,7,1,2026-07-04T10:07:09.303300+05:30
Ludhiana,Punjab,30.901,75.8573,27.7,92,0.5,973.6,7.95,33.5,122,39.5,38.2,10.0,677.0,148.0,14.3,10,5,7,1,2026-07-04T10:07:09.303308+05:30
Jalandhar,Punjab,31.326,75.5762,29.0,81,0.3,974.5,8.2,31.7,115,45.4,43.0,8.5,550.0,151.0,16.7,10,5,7,1,2026-07-04T10:07:09.303315+05:30
Dehradun,Uttarakhand,30.6284,78.0322,24.2,70,0.0,829.9,6.65,28.4,26,3.4,3.3,0.6,227.0,128.0,0.8,3,5,7,1,2026-07-04T10:07:09.303322+05:30
Shimla,Himachal Pradesh,31.1048,77.1734,22.4,65,0.0,785.1,6.85,24.5,38,3.9,3.8,2.6,253.0,127.0,0.9,3,5,7,0,2026-07-04T10:07:09.303329+05:30
Manali,Himachal Pradesh,32.2396,77.1887,24.0,72,0.0,818.7,9.4,36.4,52,2.5,2.3,13.8,220.0,104.0,0.4,3,5,7,1,2026-07-04T10:07:09.303338+05:30
Gurgaon,Haryana,28.4595,77.0266,33.5,59,0.0,975.2,6.6,24.8,142,139.7,49.2,16.0,519.0,130.0,22.4,0,5,7,1,2026-07-04T10:07:09.303345+05:30
Noida,Uttar Pradesh,28.5355,77.391,33.6,62,0.0,978.0,7.7,22.7,142,139.7,49.2,16.0,442.0,130.0,22.4,3,5,7,1,2026-07-04T10:07:09.303353+05:30
Ghaziabad,Uttar Pradesh,28.6692,77.4538,33.6,62,0.0,976.4,7.7,21.6,115,44.1,30.5,8.4,362.0,137.0,15.7,3,5,7,1,2026-07-04T10:07:09.303362+05:30
Faridabad,Haryana,28.4089,77.3178,34.4,55,0.0,977.3,7.15,26.3,142,139.7,49.2,16.0,445.0,130.0,22.4,0,5,7,1,2026-07-04T10:07:09.303370+05:30
Meerut,Uttar Pradesh,28.9845,77.7064,33.2,64,0.0,975.4,7.65,22.0,115,44.1,30.5,8.4,476.0,137.0,15.7,3,5,7,1,2026-07-04T10:07:09.303377+05:30
Agra,Uttar Pradesh,27.1767,78.0081,31.4,73,0.0,981.5,6.85,30.6,96,56.1,27.5,7.8,305.0,132.0,8.6,3,5,7,1,2026-07-04T10:07:09.303384+05:30
Varanasi,Uttar Pradesh,25.3176,82.9739,34.0,62,0.0,990.0,8.65,30.2,92,20.4,20.0,4.7,347.0,124.0,14.5,3,5,7,1,2026-07-04T10:07:09.303392+05:30
Prayagraj,Uttar Pradesh,25.4358,81.8463,34.1,61,0.0,988.6,8.55,29.5,96,27.5,26.8,5.7,348.0,133.0,13.5,3,5,7,1,2026-07-04T10:07:09.303399+05:30
Gorakhpur,Uttar Pradesh,26.7606,83.3732,34.0,64,0.0,990.6,7.7,29.9,94,32.1,31.4,5.3,299.0,138.0,11.2,3,5,7,1,2026-07-04T10:07:09.303406+05:30
Bareilly,Uttar Pradesh,28.367,79.4304,32.5,70,0.1,980.9,8.0,24.1,80,29.9,26.2,3.9,414.0,149.0,8.5,6,5,7,1,2026-07-04T10:07:09.303416+05:30
Aligarh,Uttar Pradesh,27.8974,78.088,33.7,63,0.0,979.1,7.8,24.8,115,32.7,25.4,8.3,276.0,123.0,10.5,3,5,7,1,2026-07-04T10:07:09.303423+05:30
Moradabad,Uttar Pradesh,28.8386,78.7733,33.0,67,0.0,977.8,7.35,24.5,102,21.7,21.7,7.2,305.0,143.0,14.0,3,5,7,1,2026-07-04T10:07:09.303429+05:30
Saharanpur,Uttar Pradesh,29.9637,77.546,32.7,65,0.0,970.3,7.0,33.1,99,25.3,25.1,3.8,406.0,161.0,11.1,3,5,7,1,2026-07-04T10:07:09.303436+05:30
Jhansi,Uttar Pradesh,25.4484,78.5685,31.5,68,0.0,971.3,8.4,29.9,66,21.5,20.4,5.3,233.0,123.0,10.9,3,5,7,1,2026-07-04T10:07:12.590000+05:30
Surat,Gujarat,21.1702,72.8311,26.9,90,0.1,1000.9,0.7,27.4,64,24.4,19.8,30.1,395.0,18.0,48.3,10,5,0,1,2026-07-04T10:07:12.590042+05:30
Vadodara,Gujarat,22.3072,73.1812,28.6,80,0.0,998.3,1.15,30.2,57,18.5,12.7,16.4,232.0,31.0,4.8,7,5,3,1,2026-07-04T10:07:12.590053+05:30
Rajkot,Gujarat,22.3039,70.8022,29.9,76,0.1,988.3,5.1,40.3,55,49.0,18.9,2.4,107.0,66.0,4.2,10,5,3,1,2026-07-04T10:07:12.590063+05:30
Thane,Maharashtra,19.2183,72.9781,26.0,96,0.7,1002.6,0.3,42.5,38,22.5,11.8,10.2,264.0,49.0,4.8,10,5,0,1,2026-07-04T10:07:12.590071+05:30
Nagpur,Maharashtra,21.1458,79.0882,28.1,80,0.0,966.0,7.85,28.4,36,8.1,7.7,13.1,307.0,88.0,25.2,7,5,7,1,2026-07-04T10:07:12.590080+05:30
Nashik,Maharashtra,19.9975,73.7898,25.2,87,0.0,940.1,0.35,33.1,18,1.4,1.3,5.7,163.0,52.0,1.4,7,5,3,1,2026-07-04T10:07:12.590088+05:30
Aurangabad,Maharashtra,19.8762,75.3433,23.7,93,0.2,938.8,0.45,36.7,19,2.7,2.6,7.3,186.0,43.0,4.6,6,5,3,1,2026-07-04T10:07:12.590096+05:30
Solapur,Maharashtra,17.6599,75.9064,24.1,92,0.3,953.4,2.8,44.3,20,2.5,2.3,3.5,121.0,48.0,1.7,6,5,3,1,2026-07-04T10:07:12.590105+05:30
Kolhapur,Maharashtra,16.705,74.2433,22.4,95,0.6,945.0,1.35,53.6,22,2.9,2.8,5.3,142.0,44.0,1.5,6,5,3,1,2026-07-04T10:07:12.590133+05:30
Goa,Goa,15.2993,74.124,24.2,99,0.4,998.5,5.45,37.1,51,23.2,12.4,2.1,162.0,53.0,0.7,6,5,3,1,2026-07-04T10:07:12.590140+05:30
Jodhpur,Rajasthan,26.2389,73.0243,29.6,76,0.0,976.6,7.25,27.4,146,321.3,72.6,4.0,144.0,65.0,3.3,7,5,7,1,2026-07-04T10:07:12.590148+05:30
Udaipur,Rajasthan,24.5854,73.7125,27.7,76,0.0,940.5,3.7,32.8,60,39.2,18.2,4.2,121.0,55.0,4.5,7,5,3,1,2026-07-04T10:07:12.590156+05:30
Kota,Rajasthan,25.2138,75.8648,30.3,70,0.0,972.6,7.45,28.1,93,97.3,33.9,6.9,189.0,71.0,3.7,3,5,7,1,2026-07-04T10:07:12.590164+05:30
Bikaner,Rajasthan,28.0229,73.3119,36.2,41,0.0,975.0,8.45,33.5,123,158.8,51.1,2.4,167.0,91.0,5.2,0,5,10,1,2026-07-04T10:07:12.590171+05:30
Ajmer,Rajasthan,26.4499,74.6399,29.3,68,0.0,949.0,8.2,33.5,113,136.9,45.9,3.9,141.0,76.0,4.8,7,5,7,1,2026-07-04T10:07:12.590179+05:30
Gwalior,Madhya Pradesh,26.2183,78.1828,30.8,75,0.0,976.7,7.5,30.2,74,27.0,23.4,3.9,236.0,123.0,4.8,3,5,7,1,2026-07-04T10:07:12.590186+05:30
Indore,Madhya Pradesh,22.7196,75.8577,26.5,78,0.0,941.7,6.55,32.4,41,22.9,11.5,5.5,330.0,74.0,3.6,7,5,7,1,2026-07-04T10:07:12.590193+05:30
Bhopal,Madhya Pradesh,23.2599,77.4126,28.2,73,0.1,946.8,8.6,31.0,59,6.7,6.4,2.5,232.0,114.0,2.6,10,5,7,1,2026-07-04T10:07:12.590201+05:30
Jabalpur,Madhya Pradesh,23.1815,79.9864,28.4,79,0.0,954.7,8.25,25.6,59,19.0,18.9,3.0,238.0,125.0,14.0,7,5,7,1,2026-07-04T10:07:12.590208+05:30
Ujjain,Madhya Pradesh,23.1765,75.7885,27.5,74,0.0,947.5,7.85,30.6,45,32.7,12.8,3.1,240.0,76.0,2.5,7,5,7,1,2026-07-04T10:07:12.590216+05:30
Visakhapatnam,Andhra Pradesh,17.6868,83.2185,27.6,81,0.0,995.3,6.35,54.4,43,9.4,8.7,9.2,264.0,56.0,21.5,7,5,7,1,2026-07-04T10:07:12.590223+05:30
Vijayawada,Andhra Pradesh,16.5062,80.648,27.6,81,0.0,997.9,1.45,61.9,38,7.9,6.0,4.2,152.0,50.0,4.7,7,5,3,1,2026-07-04T10:07:12.590230+05:30
Guntur,Andhra Pradesh,16.3067,80.4365,26.2,90,0.0,999.5,2.05,48.2,32,7.7,5.6,4.3,155.0,49.0,4.7,7,5,3,1,2026-07-04T10:07:12.590237+05:30
Nellore,Andhra Pradesh,14.4426,79.9865,29.6,64,0.2,1003.0,1.35,46.1,36,8.4,4.6,4.1,115.0,49.0,3.8,10,5,0,1,2026-07-04T10:07:12.590244+05:30
Kurnool,Andhra Pradesh,15.8281,78.0373,28.6,63,0.0,974.3,1.2,75.6,19,3.1,2.5,3.9,119.0,45.0,2.4,7,5,3,1,2026-07-04T10:07:12.590253+05:30
Kakinada,Andhra Pradesh,16.9891,82.2475,28.8,73,0.0,1000.8,1.6,67.3,40,7.2,6.1,4.6,184.0,58.0,5.2,7,5,0,1,2026-07-04T10:07:12.590260+05:30
Tirupati,Andhra Pradesh,13.6288,79.4192,30.6,55,0.0,988.8,3.25,48.2,34,8.4,5.1,4.3,116.0,51.0,1.8,0,5,3,1,2026-07-04T10:07:12.590267+05:30
Warangal,Telangana,17.9689,79.5941,27.0,78,0.1,973.4,3.6,52.9,21,4.9,4.5,4.8,149.0,43.0,2.2,10,5,3,1,2026-07-04T10:07:12.590274+05:30
Nizamabad,Telangana,18.6725,78.0941,24.4,94,0.4,959.8,0.95,45.4,18,3.8,3.5,5.3,156.0,43.0,3.8,6,5,3,1,2026-07-04T10:07:12.590280+05:30
Mysore,Karnataka,12.2958,76.6396,24.6,78,0.0,928.9,6.1,64.8,21,2.9,1.9,4.9,128.0,47.0,1.4,3,5,7,1,2026-07-04T10:07:12.590287+05:30
Mangalore,Karnataka,12.9141,74.856,26.3,90,0.1,1008.4,7.9,59.8,36,17.8,9.6,4.3,173.0,46.0,1.6,10,0,4,1,2026-07-04T10:07:12.590295+05:30
Hubli-Dharwad,Karnataka,15.3647,75.124,23.3,85,0.0,939.6,1.65,61.6,20,3.2,2.4,4.7,122.0,48.0,1.0,3,5,3,1,2026-07-04T10:07:12.590302+05:30
Belgaum,Karnataka,15.8497,74.4977,21.1,97,0.2,923.7,1.35,60.1,21,2.3,2.1,4.6,116.0,46.0,1.2,6,5,3,1,2026-07-04T10:07:15.850475+05:30
Coimbatore,Tamil Nadu,11.0168,76.9558,23.7,90,0.0,962.3,7.4,51.8,19,3.9,3.2,5.4,174.0,44.0,1.9,3,5,7,1,2026-07-04T10:07:15.850514+05:30
Madurai,Tamil Nadu,9.9252,78.1198,29.5,59,0.0,993.7,7.75,46.1,21,8.5,6.5,6.2,137.0,53.0,3.9,4,5,7,1,2026-07-04T10:07:15.850527+05:30
Trichy,Tamil Nadu,10.7905,78.7047,27.8,75,0.1,1000.3,8.5,53.3,20,5.8,4.3,4.9,115.0,51.0,2.5,10,5,4,1,2026-07-04T10:07:15.850535+05:30
Salem,Tamil Nadu,11.6643,78.146,25.1,89,0.0,977.9,8.55,38.9,32,7.6,6.6,8.8,185.0,50.0,7.4,7,5,7,1,2026-07-04T10:07:15.850544+05:30
Tirunelveli,Tamil Nadu,8.7139,77.7567,32.0,51,0.0,1004.6,6.5,47.9,28,5.4,3.5,2.8,130.0,53.0,1.2,0,5,4,1,2026-07-04T10:07:15.850552+05:30
Vellore,Tamil Nadu,12.9165,79.1325,29.7,59,0.0,983.2,2.2,51.5,24,4.9,3.7,5.1,127.0,50.0,2.5,4,5,3,1,2026-07-04T10:07:15.850560+05:30
Erode,Tamil Nadu,11.341,77.7172,26.1,81,0.0,989.7,8.65,53.3,25,7.4,5.8,7.4,158.0,46.0,2.7,7,5,7,1,2026-07-04T10:07:15.850569+05:30
Kochi,Kerala,9.9312,76.2673,26.7,86,0.1,1011.7,5.9,46.4,42,14.3,8.1,6.6,140.0,46.0,2.8,10,0,0,1,2026-07-04T10:07:15.850577+05:30
Thiruvananthapuram,Kerala,8.5241,76.9366,25.4,90,0.1,1011.4,3.95,45.7,40,13.4,7.0,1.9,110.0,50.0,0.6,10,0,0,1,2026-07-04T10:07:15.850584+05:30
Kozhikode,Kerala,11.2588,75.7804,24.6,94,0.5,1010.8,7.5,33.8,31,13.4,6.0,0.8,145.0,56.0,0.6,6,0,4,1,2026-07-04T10:07:15.850591+05:30
Thrissur,Kerala,10.5276,76.2144,25.7,95,0.1,1010.1,8.3,42.1,36,12.4,8.0,5.1,144.0,44.0,1.8,10,0,4,1,2026-07-04T10:07:15.850599+05:30
Kannur,Kerala,11.8745,75.3704,24.4,96,0.3,1009.8,6.55,37.8,33,12.7,6.4,3.4,132.0,49.0,1.2,6,0,4,1,2026-07-04T10:07:15.850607+05:30
Patna,Bihar,25.5941,85.1376,33.3,64,0.1,993.1,8.5,35.6,77,18.3,17.9,5.8,256.0,125.0,15.1,6,5,7,1,2026-07-04T10:07:15.850614+05:30
Gaya,Bihar,24.7914,85.0002,33.1,60,0.0,986.4,8.55,36.7,63,14.8,12.9,2.7,201.0,101.0,7.8,0,5,7,1,2026-07-04T10:07:15.850621+05:30
Muzaffarpur,Bihar,26.1209,85.3647,33.3,66,0.1,993.4,7.5,34.2,84,21.1,20.8,5.7,242.0,134.0,13.7,6,5,7,1,2026-07-04T10:07:15.850628+05:30
Bhagalpur,Bihar,25.2425,87.0117,32.8,68,0.0,993.9,8.5,38.5,65,13.9,12.3,4.5,199.0,104.0,10.4,3,5,7,1,2026-07-04T10:07:15.850635+05:30
Ranchi,Jharkhand,23.3441,85.3096,27.7,74,0.1,930.6,6.75,50.0,71,13.1,11.8,10.1,164.0,62.0,24.3,10,5,7,1,2026-07-04T10:07:15.850642+05:30
Jamshedpur,Jharkhand,22.8046,86.2029,29.4,76,0.1,981.6,6.05,46.1,62,9.1,8.6,6.5,263.0,63.0,9.0,10,5,7,1,2026-07-04T10:07:15.850650+05:30
Dhanbad,Jharkhand,23.7957,86.4304,31.2,67,0.0,972.1,7.45,52.6,91,18.7,17.1,10.8,177.0,63.0,30.2,3,5,7,1,2026-07-04T10:07:15.850657+05:30
Bokaro,Jharkhand,23.6693,86.1511,30.9,69,0.0,976.0,7.55,51.8,98,18.6,16.9,11.1,187.0,64.0,33.7,3,5,7,1,2026-07-04T10:07:15.850664+05:30
Bhubaneswar,Odisha,20.2961,85.8245,27.1,92,0.0,990.9,5.45,34.9,83,14.3,14.1,10.0,246.0,65.0,9.5,7,5,3,1,2026-07-04T10:07:15.850671+05:30
Cuttack,Odisha,20.4625,85.8828,27.5,92,0.1,992.8,3.35,32.4,83,14.3,14.1,10.0,218.0,65.0,9.5,10,5,3,1,2026-07-04T10:07:15.850678+05:30
Rourkela,Odisha,22.2604,84.8536,31.0,67,0.0,975.6,7.35,49.7,68,10.5,9.7,7.7,212.0,76.0,20.8,3,5,7,1,2026-07-04T10:07:15.850685+05:30
Raipur,Chhattisgarh,21.2514,81.6296,29.6,75,0.0,966.7,7.25,37.1,71,22.8,22.6,23.2,255.0,83.0,55.9,7,5,7,1,2026-07-04T10:07:15.850692+05:30
Bhilai,Chhattisgarh,21.1938,81.3509,29.3,76,0.0,967.2,8.25,29.9,62,21.0,20.7,21.8,225.0,81.0,55.9,7,5,7,1,2026-07-04T10:07:15.850698+05:30
Guwahati,Assam,26.1158,91.7086,33.5,63,0.0,994.3,8.7,31.7,44,7.0,6.9,1.2,224.0,99.0,1.7,3,5,7,1,2026-07-04T10:07:15.850705+05:30
Agartala,Tripura,23.8315,91.2868,31.8,71,0.0,999.3,8.25,35.6,52,6.8,6.7,2.7,140.0,111.0,1.0,3,5,7,1,2026-07-04T10:07:15.850712+05:30
Shillong,Meghalaya,25.5788,91.8933,26.9,63,0.1,855.3,8.6,32.8,26,2.7,2.6,0.8,145.0,80.0,0.8,10,5,7,1,2026-07-04T10:07:15.850718+05:30
Imphal,Manipur,24.817,93.9368,26.7,75,0.1,919.7,7.55,26.3,33,1.6,1.6,1.1,169.0,74.0,0.8,10,5,7,1,2026-07-04T10:07:15.850725+05:30
Aizawl,Mizoram,23.7271,92.7176,26.9,68,0.0,888.2,8.1,24.5,32,5.4,5.3,0.6,145.0,80.0,0.6,7,5,7,1,2026-07-04T10:07:15.850732+05:30
Kohima,Nagaland,25.6701,94.1077,28.4,59,0.0,853.9,9.0,27.4,32,3.4,3.4,0.6,145.0,81.0,0.6,4,5,7,1,2026-07-04T10:07:15.850739+05:30
Gangtok,Sikkim,27.3314,88.6138,23.0,78,0.1,836.4,9.15,32.0,42,8.8,8.2,1.0,179.0,115.0,1.2,6,5,7,1,2026-07-04T10:07:15.850746+05:30
Siliguri,West Bengal,26.7271,88.3953,31.8,68,0.0,986.8,8.7,28.1,68,17.4,16.6,1.5,299.0,134.0,2.7,3,5,7,1,2026-07-04T10:07:19.124971+05:30
Durgapur,West Bengal,23.5204,87.3119,31.1,72,0.0,986.6,5.25,55.4,71,15.1,13.4,8.1,198.0,71.0,16.4,3,5,3,1,2026-07-04T10:07:19.125011+05:30
Asansol,West Bengal,23.6739,86.9524,31.3,69,0.1,985.3,6.8,49.3,71,15.9,14.0,8.7,198.0,67.0,16.7,6,5,7,1,2026-07-04T10:07:19.125024+05:30
Pondicherry,Puducherry,11.9139,79.8145,26.5,90,0.1,1008.0,7.1,45.0,49,11.4,9.3,13.3,246.0,37.0,12.1,10,0,4,1,2026-07-04T10:07:19.125033+05:30
Port Blair,Andaman and Nicobar Islands,11.6234,92.7265,25.2,96,0.3,1007.5,6.8,51.5,47,20.7,9.7,0.4,100.0,48.0,0.4,10,5,4,1,2026-07-04T10:07:19.125042+05:30
Haridwar,Uttarakhand,29.9457,78.1642,33.2,61,0.0,968.7,7.5,21.6,83,18.0,18.0,1.0,316.0,153.0,9.6,3,5,7,1,2026-07-04T10:07:19.125050+05:30
Rishikesh,Uttarakhand,30.0869,78.2676,32.1,62,0.0,961.7,6.85,19.1,59,11.2,11.1,1.4,294.0,130.0,4.3,3,5,7,1,2026-07-04T10:07:19.125058+05:30
Nainital,Uttarakhand,29.3919,79.4542,22.7,71,0.0,805.9,6.95,28.4,64,10.4,10.2,0.6,279.0,124.0,1.6,3,5,7,1,2026-07-04T10:07:19.125066+05:30
Mussoorie,Uttarakhand,30.4599,78.0664,23.0,69,0.1,803.4,6.1,32.4,53,8.9,8.9,1.6,261.0,150.0,4.4,6,5,7,1,2026-07-04T10:07:19.125073+05:30
Dharamshala,Himachal Pradesh,32.219,76.3234,23.6,92,0.1,866.8,8.45,31.0,35,6.5,5.0,1.3,301.0,118.0,0.9,6,5,7,1,2026-07-04T10:07:19.125080+05:30
Dalhousie,Himachal Pradesh,32.5387,75.971,22.8,76,0.0,804.5,8.5,28.8,59,13.9,12.9,4.5,311.0,145.0,2.2,3,5,7,1,2026-07-04T10:07:19.125087+05:30
Patiala,Punjab,30.3398,76.3869,32.5,70,0.0,972.6,7.55,18.0,108,32.6,32.6,7.9,533.0,142.0,11.1,3,5,7,1,2026-07-04T10:07:19.125095+05:30
Bhatinda,Punjab,30.211,74.9455,32.9,60,0.0,977.7,8.25,29.9,113,86.1,46.6,8.8,428.0,151.0,18.7,0,5,7,1,2026-07-04T10:07:19.125102+05:30
Rohtak,Haryana,28.8955,76.6066,33.5,61,0.0,975.5,6.8,31.7,152,131.3,51.5,16.3,549.0,147.0,27.8,3,5,7,1,2026-07-04T10:07:19.125126+05:30
Panipat,Haryana,29.3909,76.9635,32.8,67,0.0,974.4,6.85,30.6,151,408.9,83.6,13.6,530.0,147.0,25.1,3,5,7,1,2026-07-04T10:07:19.125134+05:30
Mathura,Uttar Pradesh,27.4924,77.6737,31.8,69,0.1,980.6,7.15,22.3,107,61.2,32.1,10.9,298.0,116.0,8.1,6,5,7,1,2026-07-04T10:07:19.125141+05:30
Vrindavan,Uttar Pradesh,27.5823,77.7027,31.8,68,0.0,981.0,7.1,24.1,107,61.2,32.1,10.9,311.0,116.0,8.1,3,5,7,1,2026-07-04T10:07:19.125149+05:30
Ayodhya,Uttar Pradesh,26.7922,82.1998,33.9,61,0.0,988.6,7.9,26.6,95,33.2,32.4,5.0,344.0,135.0,9.8,3,5,7,1,2026-07-04T10:07:19.125156+05:30
Ratlam,Madhya Pradesh,23.3315,75.0367,27.2,77,0.0,948.6,5.2,28.8,42,18.0,7.6,3.4,191.0,67.0,3.2,7,5,3,1,2026-07-04T10:07:19.125163+05:30
Sagar,Madhya Pradesh,23.8388,78.7378,29.3,72,0.0,943.8,8.0,25.6,55,13.6,13.5,1.8,220.0,115.0,8.4,7,5,7,1,2026-07-04T10:07:19.125170+05:30
Satna,Madhya Pradesh,24.6005,80.8322,32.4,66,0.0,964.4,6.95,47.2,66,29.6,29.1,3.8,234.0,128.0,9.9,3,5,7,1,2026-07-04T10:07:19.125178+05:30
Akola,Maharashtra,20.7002,77.0082,25.4,95,0.1,969.3,1.25,38.2,21,3.0,2.8,8.0,156.0,45.0,3.6,10,5,3,1,2026-07-04T10:07:19.125186+05:30
Amravati,Maharashtra,20.9374,77.7796,26.3,85,0.1,961.1,7.65,38.5,21,3.0,2.8,8.1,208.0,46.0,5.5,10,5,7,1,2026-07-04T10:07:19.125196+05:30
Latur,Maharashtra,18.4088,76.5604,25.3,83,0.1,935.4,0.9,46.4,19,2.8,2.3,2.5,127.0,49.0,1.5,10,5,3,1,2026-07-04T10:07:19.125204+05:30
Nanded,Maharashtra,19.1383,77.3091,24.5,91,0.1,963.7,0.4,42.1,17,3.6,3.3,5.5,168.0,44.0,3.3,6,5,3,1,2026-07-04T10:07:19.125211+05:30
Gulbarga,Karnataka,17.3297,76.8343,23.6,94,0.8,955.0,1.1,59.4,19,2.5,2.0,3.9,139.0,49.0,2.2,6,5,3,1,2026-07-04T10:07:19.125218+05:30
Bidar,Karnataka,17.9104,77.5199,26.0,77,0.1,931.4,0.65,56.5,19,2.7,2.5,4.2,139.0,49.0,1.7,10,5,3,1,2026-07-04T10:07:19.125225+05:30
Hospet,Karnataka,15.2689,76.3909,25.1,77,0.0,954.1,2.15,72.4,20,2.6,2.3,4.6,115.0,47.0,1.4,7,5,3,1,2026-07-04T10:07:19.125232+05:30
Tirupur,Tamil Nadu,11.1085,77.3411,24.7,86,0.0,975.7,8.7,64.1,26,6.8,5.8,7.9,141.0,44.0,3.1,3,5,7,1,2026-07-04T10:07:19.125238+05:30
Alappuzha,Kerala,9.4981,76.3388,26.2,92,0.0,1011.9,5.6,47.2,42,13.5,7.0,3.7,89.0,52.0,1.5,7,0,0,1,2026-07-04T10:07:19.125245+05:30
Munnar,Kerala,10.0889,77.0595,16.9,98,0.4,857.7,6.25,54.7,15,4.6,2.6,5.3,105.0,39.0,1.5,6,10,7,1,2026-07-04T10:07:19.125253+05:30
Silchar,Assam,24.8333,92.7789,32.9,68,0.0,997.3,8.5,34.6,56,11.2,10.9,1.7,215.0,112.0,3.5,3,5,7,1,2026-07-04T10:07:19.125260+05:30
Dibrugarh,Assam,27.4728,94.912,33.5,63,0.0,989.0,8.9,24.1,56,7.6,7.1,1.0,193.0,122.0,1.6,3,5,7,1,2026-07-04T10:07:19.125267+05:30
