city,state,latitude,longitude,temp,humidity,rain,pressure,uv_index,wind_gusts,aqi,pm10,pm2_5,mosquito_risk,arthritis_risk,migraine_risk,frizz_risk,updated_at
Delhi,Delhi,28.6139,77.209,32.1,37,0.0,982.9,6.9,20.9,122,111.3,29.9,0,5,7,0,2026-04-02T17:19:40.892303+05:30
Mumbai,Maharashtra,19.076,72.8777,27.9,74,0.0,1008.5,7.25,19.4,102,35.4,26.7,7,0,4,1,2026-04-02T17:19:40.892347+05:30
Bangalore,Karnataka,12.9716,77.5946,32.6,25,0.0,911.2,9.6,20.9,100,15.4,11.1,0,5,7,0,2026-04-02T17:19:40.892363+05:30
Hyderabad,Telangana,17.385,78.4867,34.3,30,0.0,952.7,9.1,25.9,88,21.2,16.3,0,5,7,0,2026-04-02T17:19:40.892373+05:30
Chennai,Tamil Nadu,13.0827,80.2707,31.0,62,0.0,1007.2,9.3,29.9,39,13.9,10.6,3,5,4,1,2026-04-02T17:19:40.892382+05:30
Kolkata,West Bengal,22.5726,88.3639,31.7,69,0.0,1005.3,8.6,24.1,99,35.5,29.1,3,5,4,1,2026-04-02T17:19:40.892391+05:30
Pune,Maharashtra,18.5204,73.8567,30.3,56,0.0,949.1,8.45,29.9,117,53.1,45.8,0,5,7,1,2026-04-02T17:19:40.892402+05:30
Ahmedabad,Gujarat,23.0225,72.5714,35.5,27,0.0,1000.6,7.9,29.5,86,20.9,12.9,0,5,7,0,2026-04-02T17:19:40.892410+05:30
Jaipur,Rajasthan,26.9124,75.7873,33.8,30,0.0,958.8,7.55,40.7,114,153.2,21.3,0,5,7,0,2026-04-02T17:19:40.892417+05:30
Lucknow,Uttar Pradesh,26.8467,80.9462,36.2,23,0.0,992.3,7.05,31.7,104,58.9,19.7,0,5,10,0,2026-04-02T17:19:40.892425+05:30
Kanpur,Uttar Pradesh,26.4499,80.3319,34.8,32,0.0,991.0,7.05,23.8,111,167.2,30.5,0,5,7,0,2026-04-02T17:19:40.892433+05:30
Chandigarh,Chandigarh,30.7333,76.7794,30.1,43,0.0,969.4,6.8,21.6,69,41.9,13.4,0,5,7,1,2026-04-02T17:19:40.892440+05:30
Srinagar,Jammu and Kashmir,34.0837,74.7973,17.2,54,0.0,844.3,7.5,14.8,111,28.5,13.3,0,5,7,0,2026-04-02T17:19:40.892447+05:30
Jammu,Jammu and Kashmir,32.7266,74.857,31.7,30,0.0,973.4,7.4,19.8,77,46.0,14.2,0,5,7,0,2026-04-02T17:19:40.892453+05:30
Amritsar,Punjab,31.634,74.8723,31.8,31,0.0,981.4,7.4,19.4,92,57.9,16.2,0,5,7,0,2026-04-02T17:19:40.892460+05:30
Ludhiana,Punjab,30.901,75.8573,32.2,29,0.0,979.3,7.0,16.2,118,99.4,23.4,0,5,7,0,2026-04-02T17:19:40.892466+05:30
Jalandhar,Punjab,31.326,75.5762,31.6,30,0.0,980.4,7.2,14.0,90,74.7,21.6,0,5,7,0,2026-04-02T17:19:40.892474+05:30
Dehradun,Uttarakhand,30.6284,78.0322,21.6,36,0.0,833.1,7.15,34.9,47,25.8,7.5,0,5,7,0,2026-04-02T17:19:40.892481+05:30
Shimla,Himachal Pradesh,31.1048,77.1734,19.0,41,0.0,787.8,7.25,33.8,56,32.6,9.7,0,5,7,0,2026-04-02T17:19:40.892488+05:30
Manali,Himachal Pradesh,32.2396,77.1887,20.8,42,0.0,823.0,9.1,26.6,92,19.3,7.6,0,5,7,0,2026-04-02T17:19:40.892496+05:30
Gurgaon,Haryana,28.4595,77.0266,31.9,36,0.0,981.4,7.0,19.4,174,324.1,48.9,0,5,7,0,2026-04-02T17:19:40.892502+05:30
Noida,Uttar Pradesh,28.5355,77.391,32.7,35,0.0,984.4,6.95,16.9,174,324.1,48.9,0,5,7,0,2026-04-02T17:19:40.892508+05:30
Ghaziabad,Uttar Pradesh,28.6692,77.4538,32.2,39,0.0,982.5,6.9,15.8,108,62.6,19.4,0,5,7,1,2026-04-02T17:19:40.892515+05:30
Faridabad,Haryana,28.4089,77.3178,33.0,31,0.0,983.6,6.95,18.7,174,324.1,48.9,0,5,7,0,2026-04-02T17:19:40.892521+05:30
Meerut,Uttar Pradesh,28.9845,77.7064,32.3,38,0.0,981.5,6.8,18.7,108,62.6,19.4,0,5,7,1,2026-04-02T17:19:40.892527+05:30
Agra,Uttar Pradesh,27.1767,78.0081,36.5,25,0.0,986.5,7.0,17.3,212,175.1,32.8,0,5,10,0,2026-04-02T17:19:40.892534+05:30
Varanasi,Uttar Pradesh,25.3176,82.9739,36.5,28,0.0,996.1,7.6,29.9,111,27.5,17.0,0,5,10,0,2026-04-02T17:19:40.892543+05:30
Prayagraj,Uttar Pradesh,25.4358,81.8463,36.7,28,0.0,994.6,7.5,21.6,97,28.3,15.8,0,5,10,0,2026-04-02T17:19:40.892550+05:30
Gorakhpur,Uttar Pradesh,26.7606,83.3732,36.2,17,0.0,995.0,7.8,39.6,94,27.7,13.5,0,5,10,0,2026-04-02T17:19:40.892558+05:30
Bareilly,Uttar Pradesh,28.367,79.4304,34.2,25,0.0,986.3,7.2,31.0,84,32.0,13.3,0,5,7,0,2026-04-02T17:19:40.892564+05:30
Aligarh,Uttar Pradesh,27.8974,78.088,35.2,24,0.0,984.7,7.05,17.3,131,84.1,27.2,0,5,10,0,2026-04-02T17:19:40.892572+05:30
Moradabad,Uttar Pradesh,28.8386,78.7733,32.7,30,0.0,983.5,7.0,26.6,90,40.9,13.8,0,5,7,0,2026-04-02T17:19:40.892579+05:30
Saharanpur,Uttar Pradesh,29.9637,77.546,30.6,37,0.0,976.2,6.5,24.8,88,33.3,12.0,0,5,7,0,2026-04-02T17:19:40.892585+05:30
Jhansi,Uttar Pradesh,25.4484,78.5685,37.4,22,0.0,976.0,6.45,22.0,81,20.3,15.4,0,5,10,0,2026-04-02T17:19:44.167477+05:30
Surat,Gujarat,21.1702,72.8311,29.4,55,0.0,1006.6,7.65,30.6,91,45.2,38.1,4,5,4,1,2026-04-02T17:19:44.167507+05:30
Vadodara,Gujarat,22.3072,73.1812,35.1,20,0.0,1003.3,7.9,34.9,105,29.0,20.3,0,5,7,0,2026-04-02T17:19:44.167516+05:30
Rajkot,Gujarat,22.3039,70.8022,32.9,35,0.0,993.9,7.05,36.7,64,37.0,16.2,0,5,7,0,2026-04-02T17:19:44.167524+05:30
Thane,Maharashtra,19.2183,72.9781,29.4,61,0.0,1007.9,7.25,33.1,102,35.4,26.7,7,5,4,1,2026-04-02T17:19:44.167531+05:30
Nagpur,Maharashtra,21.1458,79.0882,30.9,54,0.0,973.5,8.4,32.8,120,44.6,34.6,0,5,7,1,2026-04-02T17:19:44.167538+05:30
Nashik,Maharashtra,19.9975,73.7898,27.9,58,0.0,946.4,8.15,29.9,123,26.8,20.6,4,5,7,1,2026-04-02T17:19:44.167544+05:30
Aurangabad,Maharashtra,19.8762,75.3433,28.1,57,0.0,945.0,8.85,47.9,108,34.6,26.5,4,5,7,1,2026-04-02T17:19:44.167551+05:30
Solapur,Maharashtra,17.6599,75.9064,32.5,42,0.0,956.6,8.9,31.0,132,28.5,22.5,0,5,7,1,2026-04-02T17:19:44.167558+05:30
Kolhapur,Maharashtra,16.705,74.2433,28.2,65,0.0,948.5,8.95,34.6,136,52.4,45.1,7,5,7,1,2026-04-02T17:19:44.167564+05:30
Goa,Goa,15.2993,74.124,30.7,67,0.0,997.9,8.85,29.5,74,24.6,16.4,3,5,7,1,2026-04-02T17:19:44.167571+05:30
Jodhpur,Rajasthan,26.2389,73.0243,33.4,28,0.0,982.1,7.8,36.7,72,136.0,19.1,0,5,7,0,2026-04-02T17:19:44.167578+05:30
Udaipur,Rajasthan,24.5854,73.7125,31.0,24,0.0,946.1,8.4,38.9,67,11.5,5.9,0,5,7,0,2026-04-02T17:19:44.167584+05:30
Kota,Rajasthan,25.2138,75.8648,37.6,16,0.0,976.7,7.85,27.7,67,20.5,14.2,0,5,10,0,2026-04-02T17:19:44.167591+05:30
Bikaner,Rajasthan,28.0229,73.3119,35.2,19,0.0,979.8,7.45,35.6,59,28.0,8.4,0,5,10,0,2026-04-02T17:19:44.167597+05:30
Ajmer,Rajasthan,26.4499,74.6399,34.0,25,0.0,953.3,7.5,33.1,64,11.8,7.2,0,5,7,0,2026-04-02T17:19:44.167603+05:30
Gwalior,Madhya Pradesh,26.2183,78.1828,35.3,31,0.0,982.0,6.45,22.0,77,25.8,16.4,0,5,10,0,2026-04-02T17:19:44.167609+05:30
Indore,Madhya Pradesh,22.7196,75.8577,34.0,23,0.0,947.6,8.3,40.7,118,34.1,26.4,0,5,7,0,2026-04-02T17:19:44.167615+05:30
Bhopal,Madhya Pradesh,23.2599,77.4126,32.2,40,0.0,953.8,7.85,33.1,98,36.3,27.8,0,5,7,1,2026-04-02T17:19:44.167621+05:30
Jabalpur,Madhya Pradesh,23.1815,79.9864,31.8,43,0.0,962.3,7.9,31.7,100,35.2,25.3,0,5,7,1,2026-04-02T17:19:44.167627+05:30
Ujjain,Madhya Pradesh,23.1765,75.7885,34.6,23,0.0,953.0,8.2,27.7,97,30.6,24.0,0,5,7,0,2026-04-02T17:19:44.167634+05:30
Visakhapatnam,Andhra Pradesh,17.6868,83.2185,30.0,59,0.0,1003.8,9.05,36.4,52,15.4,12.5,4,5,4,1,2026-04-02T17:19:44.167640+05:30
Vijayawada,Andhra Pradesh,16.5062,80.648,34.6,42,0.0,1001.8,9.15,24.1,44,15.8,12.2,0,5,4,1,2026-04-02T17:19:44.167646+05:30
Guntur,Andhra Pradesh,16.3067,80.4365,33.8,39,0.0,1003.3,9.15,27.4,39,15.2,10.5,0,5,4,1,2026-04-02T17:19:44.167653+05:30
Nellore,Andhra Pradesh,14.4426,79.9865,31.9,55,0.0,1005.6,9.25,28.1,42,13.6,10.5,0,5,4,1,2026-04-02T17:19:44.167660+05:30
Kurnool,Andhra Pradesh,15.8281,78.0373,36.9,20,0.0,975.6,9.15,24.1,60,19.7,13.8,0,5,10,0,2026-04-02T17:19:44.167667+05:30
Kakinada,Andhra Pradesh,16.9891,82.2475,33.5,45,0.0,1007.0,9.0,33.1,35,11.4,8.4,0,5,4,1,2026-04-02T17:19:44.167673+05:30
Tirupati,Andhra Pradesh,13.6288,79.4192,33.1,37,0.0,991.0,9.35,31.3,48,11.1,9.7,0,5,7,1,2026-04-02T17:19:44.167679+05:30
Warangal,Telangana,17.9689,79.5941,34.8,38,0.0,978.0,9.0,25.9,64,21.3,16.1,0,5,7,1,2026-04-02T17:19:44.167685+05:30
Nizamabad,Telangana,18.6725,78.0941,30.4,58,0.0,964.7,8.9,34.2,114,36.7,28.9,0,5,7,1,2026-04-02T17:19:44.167691+05:30
Mysore,Karnataka,12.2958,76.6396,32.6,27,0.0,927.5,9.5,34.9,124,21.2,15.7,0,5,7,0,2026-04-02T17:19:44.167698+05:30
Mangalore,Karnataka,12.9141,74.856,29.4,82,0.0,1005.9,9.05,22.7,87,24.2,19.1,7,5,4,1,2026-04-02T17:19:44.167704+05:30
Hubli-Dharwad,Karnataka,15.3647,75.124,28.4,64,0.0,941.0,9.2,37.8,129,31.5,25.6,7,5,7,1,2026-04-02T17:19:44.167710+05:30
Belgaum,Karnataka,15.8497,74.4977,26.7,71,0.0,926.0,9.1,32.4,139,37.3,32.0,7,5,7,1,2026-04-02T17:19:47.444671+05:30
Coimbatore,Tamil Nadu,11.0168,76.9558,33.0,40,0.0,960.4,9.45,44.3,102,14.7,10.4,0,5,7,1,2026-04-02T17:19:47.444702+05:30
Madurai,Tamil Nadu,9.9252,78.1198,35.4,30,0.0,990.8,9.4,33.5,68,9.9,9.0,0,5,10,0,2026-04-02T17:19:47.444712+05:30
Trichy,Tamil Nadu,10.7905,78.7047,33.9,35,0.0,998.3,9.4,20.9,52,9.9,9.0,0,5,7,1,2026-04-02T17:19:47.444721+05:30
Salem,Tamil Nadu,11.6643,78.146,35.1,33,0.0,975.6,9.4,17.3,84,14.7,13.6,0,5,10,1,2026-04-02T17:19:47.444728+05:30
Tirunelveli,Tamil Nadu,8.7139,77.7567,32.1,56,0.0,1001.7,9.35,45.7,60,9.9,8.6,0,5,4,1,2026-04-02T17:19:47.444735+05:30
Vellore,Tamil Nadu,12.9165,79.1325,32.5,32,0.0,984.1,9.4,27.4,53,10.6,9.2,0,5,7,0,2026-04-02T17:19:47.444743+05:30
Erode,Tamil Nadu,11.341,77.7172,36.4,25,0.0,986.9,9.25,26.3,57,8.8,7.3,0,5,10,0,2026-04-02T17:19:47.444750+05:30
Kochi,Kerala,9.9312,76.2673,29.1,80,0.0,1007.4,9.2,31.0,104,20.7,17.3,7,5,4,1,2026-04-02T17:19:47.444758+05:30
Thiruvananthapuram,Kerala,8.5241,76.9366,29.7,71,0.0,1006.7,9.2,25.2,83,13.9,10.1,7,5,4,1,2026-04-02T17:19:47.444765+05:30
Kozhikode,Kerala,11.2588,75.7804,29.7,75,0.0,1007.0,8.75,25.2,61,17.3,12.2,7,5,4,1,2026-04-02T17:19:47.444771+05:30
Thrissur,Kerala,10.5276,76.2144,30.8,71,0.0,1005.8,9.15,32.0,79,19.2,15.9,3,5,4,1,2026-04-02T17:19:47.444779+05:30
Kannur,Kerala,11.8745,75.3704,30.0,72,0.0,1006.6,9.15,25.6,74,18.9,14.9,7,5,4,1,2026-04-02T17:19:47.444786+05:30
Patna,Bihar,25.5941,85.1376,34.9,34,0.0,998.5,8.0,33.5,99,30.3,16.6,0,5,7,1,2026-04-02T17:19:47.444792+05:30
Gaya,Bihar,24.7914,85.0002,35.1,31,0.0,992.6,8.25,29.2,110,26.2,15.5,0,5,10,0,2026-04-02T17:19:47.444799+05:30
Muzaffarpur,Bihar,26.1209,85.3647,34.7,29,0.0,998.0,8.25,31.3,97,29.1,16.1,0,5,7,0,2026-04-02T17:19:47.444805+05:30
Bhagalpur,Bihar,25.2425,87.0117,32.9,43,0.0,999.4,7.85,26.6,109,31.5,16.2,0,5,7,1,2026-04-02T17:19:47.444812+05:30
Ranchi,Jharkhand,23.3441,85.3096,30.2,40,0.0,938.8,8.9,32.0,127,29.9,20.8,0,5,7,0,2026-04-02T17:19:47.444818+05:30
Jamshedpur,Jharkhand,22.8046,86.2029,34.5,39,0.0,990.5,8.7,31.7,156,37.7,26.8,0,5,7,1,2026-04-02T17:19:47.444824+05:30
Dhanbad,Jharkhand,23.7957,86.4304,36.5,25,0.0,978.6,8.65,27.0,153,32.9,25.8,0,5,10,0,2026-04-02T17:19:47.444830+05:30
Bokaro,Jharkhand,23.6693,86.1511,36.0,26,0.0,982.7,8.65,28.1,151,31.8,24.9,0,5,10,0,2026-04-02T17:19:47.444836+05:30
Bhubaneswar,Odisha,20.2961,85.8245,32.9,44,0.0,1002.4,8.9,30.6,58,21.1,16.2,0,5,4,1,2026-04-02T17:19:47.444843+05:30
Cuttack,Odisha,20.4625,85.8828,36.5,34,0.0,1003.5,8.95,23.0,58,21.1,16.2,0,5,7,1,2026-04-02T17:19:47.444849+05:30
Rourkela,Odisha,22.2604,84.8536,36.3,31,0.0,984.8,8.65,26.6,175,44.6,32.6,0,5,10,1,2026-04-02T17:19:47.444855+05:30
Raipur,Chhattisgarh,21.2514,81.6296,34.6,34,0.0,974.6,8.7,25.6,154,37.1,30.5,0,5,7,1,2026-04-02T17:19:47.444861+05:30
Bhilai,Chhattisgarh,21.1938,81.3509,34.5,35,0.0,974.9,8.7,24.8,129,38.2,30.4,0,5,7,1,2026-04-02T17:19:47.444868+05:30
Guwahati,Assam,26.1158,91.7086,29.1,75,0.0,999.7,8.15,33.5,103,34.6,28.9,7,5,7,1,2026-04-02T17:19:47.444874+05:30
Agartala,Tripura,23.8315,91.2868,31.9,57,0.0,1004.8,8.4,43.2,112,44.9,36.9,0,5,4,1,2026-04-02T17:19:47.444880+05:30
Shillong,Meghalaya,25.5788,91.8933,17.6,74,0.0,856.5,8.55,70.9,93,42.8,35.3,3,5,7,0,2026-04-02T17:19:47.444886+05:30
Imphal,Manipur,24.817,93.9368,20.9,74,0.0,923.3,8.7,87.1,113,51.8,41.2,3,5,7,1,2026-04-02T17:19:47.444893+05:30
Aizawl,Mizoram,23.7271,92.7176,24.1,62,0.0,893.6,8.65,55.1,103,50.1,35.9,3,5,7,1,2026-04-02T17:19:47.444899+05:30
Kohima,Nagaland,25.6701,94.1077,17.3,87,0.0,855.2,8.65,105.5,98,47.4,37.7,3,10,7,0,2026-04-02T17:19:47.444906+05:30
Gangtok,Sikkim,27.3314,88.6138,18.7,76,0.0,837.7,8.5,20.5,105,46.3,37.3,3,5,7,0,2026-04-02T17:19:47.444912+05:30
Siliguri,West Bengal,26.7271,88.3953,26.0,62,0.0,992.2,8.05,21.6,150,40.4,31.0,7,5,7,1,2026-04-02T17:19:50.722892+05:30
Durgapur,West Bengal,23.5204,87.3119,36.3,29,0.0,993.5,8.6,21.6,167,38.2,30.0,0,5,10,0,2026-04-02T17:19:50.722923+05:30
Asansol,West Bengal,23.6739,86.9524,36.4,29,0.0,992.0,8.65,22.3,162,37.1,29.3,0,5,10,0,2026-04-02T17:19:50.722932+05:30
Pondicherry,Puducherry,11.9139,79.8145,31.3,49,0.0,1007.8,9.25,27.0,38,11.3,8.1,0,5,4,1,2026-04-02T17:19:50.722940+05:30
Port Blair,Andaman and Nicobar Islands,11.6234,92.7265,29.0,76,0.0,1007.1,9.1,32.0,41,9.4,5.9,7,5,4,1,2026-04-02T17:19:50.722947+05:30
Haridwar,Uttarakhand,29.9457,78.1642,31.5,30,0.0,974.8,6.65,29.2,62,30.9,9.3,0,5,7,0,2026-04-02T17:19:50.722955+05:30
Rishikesh,Uttarakhand,30.0869,78.2676,31.4,26,0.0,967.8,6.7,31.0,49,28.7,8.1,0,5,7,0,2026-04-02T17:19:50.722962+05:30
Nainital,Uttarakhand,29.3919,79.4542,24.9,25,0.0,809.6,7.55,42.1,75,29.3,9.7,0,5,7,0,2026-04-02T17:19:50.722969+05:30
Mussoorie,Uttarakhand,30.4599,78.0664,22.3,31,0.0,806.1,7.0,37.4,57,28.1,8.6,0,5,7,0,2026-04-02T17:19:50.722976+05:30
Dharamshala,Himachal Pradesh,32.219,76.3234,25.1,38,0.0,871.2,7.3,28.4,53,23.8,7.5,4,5,7,0,2026-04-02T17:19:50.722983+05:30
Dalhousie,Himachal Pradesh,32.5387,75.971,23.7,27,0.0,807.0,7.55,24.8,62,30.6,9.8,0,5,7,0,2026-04-02T17:19:50.722991+05:30
Patiala,Punjab,30.3398,76.3869,31.7,33,0.0,978.8,6.7,20.9,108,136.9,25.8,0,5,7,0,2026-04-02T17:19:50.722998+05:30
Bhatinda,Punjab,30.211,74.9455,30.3,41,0.0,984.4,7.15,50.4,97,141.6,27.9,0,5,7,0,2026-04-02T17:19:50.723005+05:30
Rohtak,Haryana,28.8955,76.6066,31.0,46,0.0,981.8,6.9,49.0,148,183.5,36.9,0,5,7,1,2026-04-02T17:19:50.723011+05:30
Panipat,Haryana,29.3909,76.9635,31.7,40,0.0,980.7,6.7,22.7,165,121.1,25.8,0,5,7,1,2026-04-02T17:19:50.723018+05:30
Mathura,Uttar Pradesh,27.4924,77.6737,35.6,26,0.0,985.5,7.2,18.0,139,229.1,38.5,0,5,10,0,2026-04-02T17:19:50.723024+05:30
Vrindavan,Uttar Pradesh,27.5823,77.7027,35.8,25,0.0,986.1,7.2,15.8,139,229.1,38.5,0,5,10,0,2026-04-02T17:19:50.723031+05:30
Ayodhya,Uttar Pradesh,26.7922,82.1998,36.3,20,0.0,993.6,7.65,36.4,95,33.1,16.2,0,5,10,0,2026-04-02T17:19:50.723037+05:30
Ratlam,Madhya Pradesh,23.3315,75.0367,34.1,28,0.0,954.0,8.15,33.1,84,27.0,20.5,0,5,7,0,2026-04-02T17:19:50.723044+05:30
Sagar,Madhya Pradesh,23.8388,78.7378,33.2,30,0.0,950.4,8.25,34.2,90,27.6,20.1,0,5,7,0,2026-04-02T17:19:50.723050+05:30
Satna,Madhya Pradesh,24.6005,80.8322,35.7,26,0.0,971.0,7.75,22.3,81,34.6,21.7,0,5,10,0,2026-04-02T17:19:50.723057+05:30
Akola,Maharashtra,20.7002,77.0082,32.0,46,0.0,975.6,8.6,23.4,109,38.2,31.0,0,5,7,1,2026-04-02T17:19:50.723064+05:30
Amravati,Maharashtra,20.9374,77.7796,32.8,43,0.0,967.3,8.55,38.9,108,36.2,28.6,0,5,7,1,2026-04-02T17:19:50.723071+05:30
Latur,Maharashtra,18.4088,76.5604,28.5,61,0.0,940.1,8.9,36.4,124,32.8,25.7,7,5,7,1,2026-04-02T17:19:50.723078+05:30
Nanded,Maharashtra,19.1383,77.3091,32.9,47,0.0,968.5,8.75,29.5,120,42.7,34.3,0,5,7,1,2026-04-02T17:19:50.723084+05:30
Gulbarga,Karnataka,17.3297,76.8343,35.2,30,0.0,957.7,8.95,45.4,121,18.7,14.3,0,5,10,0,2026-04-02T17:19:50.723090+05:30
Bidar,Karnataka,17.9104,77.5199,32.9,38,0.0,935.2,8.95,30.2,107,25.1,19.6,0,5,7,1,2026-04-02T17:19:50.723097+05:30
Hospet,Karnataka,15.2689,76.3909,33.5,38,0.0,954.9,9.15,33.8,134,21.4,16.5,0,5,7,1,2026-04-02T17:19:50.723102+05:30
Tirupur,Tamil Nadu,11.1085,77.3411,36.0,22,0.0,973.4,9.2,30.2,71,11.7,8.6,0,5,10,0,2026-04-02T17:19:50.723109+05:30
Alappuzha,Kerala,9.4981,76.3388,29.4,78,0.0,1007.4,9.2,27.4,129,21.3,17.4,7,5,4,1,2026-04-02T17:19:50.723115+05:30
Munnar,Kerala,10.0889,77.0595,25.1,71,0.0,857.4,9.75,34.9,74,12.0,10.0,7,5,7,1,2026-04-02T17:19:50.723122+05:30
Silchar,Assam,24.8333,92.7789,28.4,73,0.0,1004.5,8.4,34.2,141,64.0,54.4,7,5,4,1,2026-04-02T17:19:50.723128+05:30
Dibrugarh,Assam,27.4728,94.912,23.1,86,0.0,996.3,6.05,26.3,94,18.0,16.3,3,5,7,1,2026-04-02T17:19:50.723134+05:30
