city,state,latitude,longitude,temp,humidity,rain,pressure,uv_index,wind_gusts,aqi,pm10,pm2_5,mosquito_risk,arthritis_risk,migraine_risk,frizz_risk,updated_at
Delhi,Delhi,28.6139,77.209,21.1,74,0.0,983.6,6.15,31.3,205,122.5,54.5,3,5,7,1,2026-03-31T04:10:15.525478+05:30
Mumbai,Maharashtra,19.076,72.8777,27.5,84,0.0,1007.9,8.05,26.6,68,33.5,14.4,7,5,4,1,2026-03-31T04:10:15.525520+05:30
Bangalore,Karnataka,12.9716,77.5946,22.4,71,0.0,910.1,9.0,19.1,106,29.8,27.4,3,5,7,1,2026-03-31T04:10:15.525535+05:30
Hyderabad,Telangana,17.385,78.4867,23.5,83,0.0,953.4,9.05,33.1,117,36.6,34.1,3,5,7,1,2026-03-31T04:10:15.525545+05:30
Chennai,Tamil Nadu,13.0827,80.2707,26.2,85,0.0,1006.4,9.3,29.2,50,16.0,11.4,7,5,4,1,2026-03-31T04:10:15.525559+05:30
Kolkata,West Bengal,22.5726,88.3639,25.9,92,0.0,1005.7,7.8,23.8,93,25.4,21.2,7,5,4,1,2026-03-31T04:10:15.525568+05:30
Pune,Maharashtra,18.5204,73.8567,23.3,97,0.0,947.8,8.55,39.2,80,51.3,38.4,3,5,7,1,2026-03-31T04:10:15.525576+05:30
Ahmedabad,Gujarat,23.0225,72.5714,25.8,69,0.0,1001.5,7.8,26.6,58,42.4,26.0,7,5,4,1,2026-03-31T04:10:15.525584+05:30
Jaipur,Rajasthan,26.9124,75.7873,22.9,65,0.0,960.1,7.2,37.4,89,34.8,16.2,3,5,7,0,2026-03-31T04:10:15.525591+05:30
Lucknow,Uttar Pradesh,26.8467,80.9462,24.8,67,0.0,992.7,7.25,28.4,141,277.5,80.6,3,5,7,1,2026-03-31T04:10:15.525599+05:30
Kanpur,Uttar Pradesh,26.4499,80.3319,23.5,71,0.0,991.2,7.3,29.5,322,612.8,121.1,3,5,7,1,2026-03-31T04:10:15.525606+05:30
Chandigarh,Chandigarh,30.7333,76.7794,19.4,89,0.0,969.5,6.3,22.0,108,77.5,31.0,3,10,7,1,2026-03-31T04:10:15.525613+05:30
Srinagar,Jammu and Kashmir,34.0837,74.7973,8.0,87,0.0,842.8,4.95,15.5,79,30.0,19.6,3,10,3,0,2026-03-31T04:10:15.525621+05:30
Jammu,Jammu and Kashmir,32.7266,74.857,19.1,77,0.0,975.9,6.9,32.8,70,47.3,18.1,3,5,7,0,2026-03-31T04:10:15.525628+05:30
Amritsar,Punjab,31.634,74.8723,19.1,87,0.0,982.3,6.65,41.4,123,231.9,68.0,3,10,7,1,2026-03-31T04:10:15.525638+05:30
Ludhiana,Punjab,30.901,75.8573,20.0,81,0.0,979.9,6.2,27.0,277,300.8,95.5,3,5,7,1,2026-03-31T04:10:15.525645+05:30
Jalandhar,Punjab,31.326,75.5762,19.6,91,0.0,981.4,6.55,18.4,167,376.3,96.6,3,10,7,1,2026-03-31T04:10:15.525652+05:30
Dehradun,Uttarakhand,30.6284,78.0322,12.6,76,0.0,828.9,7.1,37.1,45,24.9,9.1,3,5,7,0,2026-03-31T04:10:15.525659+05:30
Shimla,Himachal Pradesh,31.1048,77.1734,10.7,68,0.0,782.6,6.95,29.9,56,41.0,12.5,3,5,7,0,2026-03-31T04:10:15.525666+05:30
Manali,Himachal Pradesh,32.2396,77.1887,12.8,53,0.0,818.5,8.55,33.1,48,3.4,1.6,0,5,7,0,2026-03-31T04:10:15.525672+05:30
Gurgaon,Haryana,28.4595,77.0266,18.7,86,0.0,982.0,6.4,25.2,808,157.9,54.7,3,10,7,1,2026-03-31T04:10:15.525679+05:30
Noida,Uttar Pradesh,28.5355,77.391,20.9,75,0.0,985.2,6.05,30.2,808,157.9,54.7,3,5,7,1,2026-03-31T04:10:15.525686+05:30
Ghaziabad,Uttar Pradesh,28.6692,77.4538,19.7,77,0.0,983.2,6.05,30.6,161,162.5,55.2,3,5,7,0,2026-03-31T04:10:15.525693+05:30
Faridabad,Haryana,28.4089,77.3178,18.4,86,0.0,984.3,6.0,23.0,808,157.9,54.7,3,10,3,0,2026-03-31T04:10:15.525699+05:30
Meerut,Uttar Pradesh,28.9845,77.7064,18.8,78,0.0,981.9,6.55,25.2,161,162.5,55.2,3,5,7,0,2026-03-31T04:10:15.525707+05:30
Agra,Uttar Pradesh,27.1767,78.0081,20.6,69,0.0,988.2,6.9,32.0,619,286.8,40.0,3,5,7,0,2026-03-31T04:10:15.525713+05:30
Varanasi,Uttar Pradesh,25.3176,82.9739,24.4,75,0.0,996.4,7.6,27.0,96,72.9,52.9,3,5,7,1,2026-03-31T04:10:15.525720+05:30
Prayagraj,Uttar Pradesh,25.4358,81.8463,25.2,66,0.0,994.7,7.85,24.5,100,236.1,67.5,7,5,7,1,2026-03-31T04:10:15.525727+05:30
Gorakhpur,Uttar Pradesh,26.7606,83.3732,23.2,84,0.0,997.1,6.25,25.6,154,102.9,88.5,3,5,7,1,2026-03-31T04:10:15.525733+05:30
Bareilly,Uttar Pradesh,28.367,79.4304,21.6,86,0.0,986.7,6.45,29.2,108,65.4,33.5,3,5,7,1,2026-03-31T04:10:15.525740+05:30
Aligarh,Uttar Pradesh,27.8974,78.088,19.1,79,0.0,985.8,6.35,29.9,595,499.2,79.9,3,5,7,0,2026-03-31T04:10:15.525748+05:30
Moradabad,Uttar Pradesh,28.8386,78.7733,21.1,85,0.0,983.7,6.65,27.7,138,85.9,38.2,3,5,7,1,2026-03-31T04:10:15.525755+05:30
Saharanpur,Uttar Pradesh,29.9637,77.546,19.6,91,0.0,976.3,6.2,24.8,134,163.0,59.6,3,10,7,1,2026-03-31T04:10:15.525763+05:30
Jhansi,Uttar Pradesh,25.4484,78.5685,23.4,62,0.0,978.2,7.8,22.3,56,32.1,11.0,3,5,7,0,2026-03-31T04:10:18.750287+05:30
Surat,Gujarat,21.1702,72.8311,26.7,85,0.0,1006.1,7.8,28.4,97,21.0,19.0,7,5,4,1,2026-03-31T04:10:18.750320+05:30
Vadodara,Gujarat,22.3072,73.1812,27.3,79,0.0,1003.5,8.0,27.4,76,49.4,38.3,7,5,4,1,2026-03-31T04:10:18.750332+05:30
Rajkot,Gujarat,22.3039,70.8022,23.2,95,0.0,993.8,7.8,37.1,56,39.3,16.5,3,5,7,1,2026-03-31T04:10:18.750341+05:30
Thane,Maharashtra,19.2183,72.9781,26.6,85,0.0,1007.4,8.05,39.2,68,33.5,14.4,7,5,4,1,2026-03-31T04:10:18.750349+05:30
Nagpur,Maharashtra,21.1458,79.0882,25.1,67,0.0,973.0,8.55,24.1,57,25.6,20.3,7,5,7,1,2026-03-31T04:10:18.750357+05:30
Nashik,Maharashtra,19.9975,73.7898,21.9,89,0.0,944.8,8.25,31.7,60,45.2,22.4,3,5,7,1,2026-03-31T04:10:18.750364+05:30
Aurangabad,Maharashtra,19.8762,75.3433,21.6,84,0.0,943.4,8.75,22.7,58,27.0,21.9,3,5,7,1,2026-03-31T04:10:18.750371+05:30
Solapur,Maharashtra,17.6599,75.9064,23.6,79,0.0,956.8,8.9,27.7,82,31.8,28.6,3,5,7,1,2026-03-31T04:10:18.750379+05:30
Kolhapur,Maharashtra,16.705,74.2433,22.9,93,0.0,947.2,8.9,32.4,76,43.4,36.4,3,5,7,1,2026-03-31T04:10:18.750388+05:30
Goa,Goa,15.2993,74.124,27.5,81,0.0,996.6,9.0,34.6,64,40.2,27.5,7,5,7,1,2026-03-31T04:10:18.750396+05:30
Jodhpur,Rajasthan,26.2389,73.0243,25.2,62,0.0,982.5,7.7,37.1,93,28.2,10.7,7,5,7,1,2026-03-31T04:10:18.750404+05:30
Udaipur,Rajasthan,24.5854,73.7125,19.5,75,0.0,945.7,8.3,34.6,43,17.6,10.5,3,5,7,0,2026-03-31T04:10:18.750412+05:30
Kota,Rajasthan,25.2138,75.8648,24.3,71,0.0,978.9,7.75,41.0,49,22.5,14.5,3,5,7,1,2026-03-31T04:10:18.750419+05:30
Bikaner,Rajasthan,28.0229,73.3119,25.2,51,0.0,981.1,6.8,21.2,89,75.2,18.4,4,5,7,0,2026-03-31T04:10:18.750469+05:30
Ajmer,Rajasthan,26.4499,74.6399,24.2,57,0.0,954.3,7.7,38.5,45,19.4,9.9,0,5,7,0,2026-03-31T04:10:18.750482+05:30
Gwalior,Madhya Pradesh,26.2183,78.1828,23.2,65,0.0,983.6,7.35,25.9,69,27.5,11.0,3,5,7,1,2026-03-31T04:10:18.750491+05:30
Indore,Madhya Pradesh,22.7196,75.8577,23.4,71,0.0,947.8,8.3,24.8,50,20.0,12.5,3,5,7,1,2026-03-31T04:10:18.750499+05:30
Bhopal,Madhya Pradesh,23.2599,77.4126,23.5,68,0.0,953.6,8.25,24.1,41,20.5,13.4,3,5,7,1,2026-03-31T04:10:18.750507+05:30
Jabalpur,Madhya Pradesh,23.1815,79.9864,24.2,70,0.0,960.7,8.35,15.8,49,54.5,18.0,3,5,7,1,2026-03-31T04:10:18.750515+05:30
Ujjain,Madhya Pradesh,23.1765,75.7885,23.4,71,0.0,953.5,8.2,23.8,50,19.7,12.8,3,5,7,1,2026-03-31T04:10:18.750523+05:30
Visakhapatnam,Andhra Pradesh,17.6868,83.2185,25.4,88,0.0,1003.4,9.0,37.1,59,18.2,15.5,7,5,4,1,2026-03-31T04:10:18.750531+05:30
Vijayawada,Andhra Pradesh,16.5062,80.648,25.3,88,0.0,1002.4,9.1,21.6,60,19.4,16.2,7,5,4,1,2026-03-31T04:10:18.750539+05:30
Guntur,Andhra Pradesh,16.3067,80.4365,26.0,89,0.0,1003.3,9.1,25.9,64,16.7,13.6,7,5,4,1,2026-03-31T04:10:18.750546+05:30
Nellore,Andhra Pradesh,14.4426,79.9865,25.7,88,0.0,1004.8,9.15,32.4,59,13.4,10.1,7,5,4,1,2026-03-31T04:10:18.750555+05:30
Kurnool,Andhra Pradesh,15.8281,78.0373,27.6,62,0.0,976.2,9.05,43.2,106,22.2,20.5,7,5,7,1,2026-03-31T04:10:18.750564+05:30
Kakinada,Andhra Pradesh,16.9891,82.2475,23.4,95,0.0,1007.4,9.05,31.3,47,15.7,11.9,3,5,4,1,2026-03-31T04:10:18.750572+05:30
Tirupati,Andhra Pradesh,13.6288,79.4192,23.7,92,0.0,991.0,9.3,32.4,83,27.8,25.9,3,5,7,1,2026-03-31T04:10:18.750580+05:30
Warangal,Telangana,17.9689,79.5941,25.0,82,0.0,978.9,8.95,22.0,108,34.3,31.2,7,5,7,1,2026-03-31T04:10:18.750588+05:30
Nizamabad,Telangana,18.6725,78.0941,23.3,81,0.0,965.0,8.85,33.8,91,38.4,31.2,3,5,7,1,2026-03-31T04:10:18.750596+05:30
Mysore,Karnataka,12.2958,76.6396,22.1,96,0.0,926.8,8.55,23.0,119,55.2,50.9,3,5,7,1,2026-03-31T04:10:18.750603+05:30
Mangalore,Karnataka,12.9141,74.856,29.7,77,0.0,1004.7,9.05,28.1,85,52.4,48.5,7,5,4,1,2026-03-31T04:10:18.750611+05:30
Hubli-Dharwad,Karnataka,15.3647,75.124,22.6,93,0.0,939.7,9.1,37.1,66,27.8,24.9,3,5,7,1,2026-03-31T04:10:18.750619+05:30
Belgaum,Karnataka,15.8497,74.4977,21.8,94,0.0,924.5,9.1,39.6,62,44.9,36.1,3,5,7,1,2026-03-31T04:10:21.976084+05:30
Coimbatore,Tamil Nadu,11.0168,76.9558,23.5,93,0.0,960.3,9.05,37.4,91,52.7,48.3,3,5,7,1,2026-03-31T04:10:21.976114+05:30
Madurai,Tamil Nadu,9.9252,78.1198,25.2,95,0.0,991.7,9.4,30.2,70,29.3,27.6,7,5,7,1,2026-03-31T04:10:21.976124+05:30
Trichy,Tamil Nadu,10.7905,78.7047,25.6,93,0.0,998.8,9.35,23.4,60,22.4,19.7,7,5,7,1,2026-03-31T04:10:21.976132+05:30
Salem,Tamil Nadu,11.6643,78.146,25.2,86,0.0,976.1,9.4,31.7,71,26.4,25.0,7,5,7,1,2026-03-31T04:10:21.976140+05:30
Tirunelveli,Tamil Nadu,8.7139,77.7567,23.4,88,0.0,1001.6,8.65,49.0,79,37.6,35.3,3,5,4,1,2026-03-31T04:10:21.976148+05:30
Vellore,Tamil Nadu,12.9165,79.1325,23.3,97,0.0,983.7,9.4,32.0,99,44.1,42.3,3,5,7,1,2026-03-31T04:10:21.976155+05:30
Erode,Tamil Nadu,11.341,77.7172,26.5,83,0.0,987.8,9.4,28.8,61,15.5,14.8,7,5,7,1,2026-03-31T04:10:21.976162+05:30
Kochi,Kerala,9.9312,76.2673,28.4,81,0.0,1006.6,8.9,26.3,105,47.6,46.4,7,5,4,1,2026-03-31T04:10:21.976170+05:30
Thiruvananthapuram,Kerala,8.5241,76.9366,28.0,84,0.0,1005.7,9.2,27.0,81,31.4,27.2,7,5,4,1,2026-03-31T04:10:21.976176+05:30
Kozhikode,Kerala,11.2588,75.7804,28.5,81,0.0,1006.0,8.25,26.3,110,56.7,51.6,7,5,4,1,2026-03-31T04:10:21.976184+05:30
Thrissur,Kerala,10.5276,76.2144,27.0,92,0.0,1005.1,8.75,34.6,115,65.7,62.4,7,5,4,1,2026-03-31T04:10:21.976193+05:30
Kannur,Kerala,11.8745,75.3704,28.1,85,0.0,1005.1,9.0,29.9,112,58.1,54.8,7,5,4,1,2026-03-31T04:10:21.976201+05:30
Patna,Bihar,25.5941,85.1376,23.2,89,0.0,1000.4,8.1,28.4,161,110.4,100.1,3,5,4,1,2026-03-31T04:10:21.976208+05:30
Gaya,Bihar,24.7914,85.0002,25.0,83,0.0,993.1,8.2,24.8,124,77.3,65.4,7,5,7,1,2026-03-31T04:10:21.976215+05:30
Muzaffarpur,Bihar,26.1209,85.3647,21.6,90,0.0,1000.9,8.1,30.6,166,121.5,110.1,3,5,4,1,2026-03-31T04:10:21.976222+05:30
Bhagalpur,Bihar,25.2425,87.0117,22.5,95,0.0,1001.7,8.1,22.0,161,93.6,89.6,3,5,4,1,2026-03-31T04:10:21.976228+05:30
Ranchi,Jharkhand,23.3441,85.3096,22.2,88,0.0,937.3,8.45,42.8,127,66.4,55.3,3,5,7,1,2026-03-31T04:10:21.976234+05:30
Jamshedpur,Jharkhand,22.8046,86.2029,25.6,90,0.0,990.5,8.65,25.9,143,72.9,65.9,7,5,7,1,2026-03-31T04:10:21.976241+05:30
Dhanbad,Jharkhand,23.7957,86.4304,23.6,86,0.0,980.3,8.55,29.2,167,137.8,129.9,3,5,7,1,2026-03-31T04:10:21.976249+05:30
Bokaro,Jharkhand,23.6693,86.1511,23.6,89,0.0,984.3,8.55,34.2,164,138.8,130.9,3,5,7,1,2026-03-31T04:10:21.976259+05:30
Bhubaneswar,Odisha,20.2961,85.8245,26.0,91,0.0,1002.0,8.85,21.2,64,15.1,12.0,7,5,4,1,2026-03-31T04:10:21.976266+05:30
Cuttack,Odisha,20.4625,85.8828,26.0,93,0.0,1003.9,8.85,21.2,64,15.1,12.0,7,5,4,1,2026-03-31T04:10:21.976272+05:30
Rourkela,Odisha,22.2604,84.8536,25.6,89,0.0,984.5,8.55,37.4,105,48.2,43.4,7,5,7,1,2026-03-31T04:10:21.976278+05:30
Raipur,Chhattisgarh,21.2514,81.6296,25.9,62,0.0,974.5,8.4,27.0,105,58.9,55.8,7,5,7,1,2026-03-31T04:10:21.976285+05:30
Bhilai,Chhattisgarh,21.1938,81.3509,25.2,66,0.0,974.7,8.1,27.7,84,48.2,45.1,7,5,7,1,2026-03-31T04:10:21.976292+05:30
Guwahati,Assam,26.1158,91.7086,21.6,94,0.0,1003.2,8.05,23.4,122,59.8,49.1,3,5,4,1,2026-03-31T04:10:21.976298+05:30
Agartala,Tripura,23.8315,91.2868,22.9,93,0.0,1007.2,8.3,22.3,121,28.8,24.6,3,5,4,1,2026-03-31T04:10:21.976305+05:30
Shillong,Meghalaya,25.5788,91.8933,13.5,92,0.0,855.5,7.25,32.4,116,54.9,45.4,3,10,7,0,2026-03-31T04:10:21.976311+05:30
Imphal,Manipur,24.817,93.9368,16.7,92,0.0,923.8,8.45,56.9,109,9.9,8.0,3,10,7,0,2026-03-31T04:10:21.976318+05:30
Aizawl,Mizoram,23.7271,92.7176,17.0,94,0.0,892.8,8.55,44.6,123,60.5,47.5,3,10,7,0,2026-03-31T04:10:21.976326+05:30
Kohima,Nagaland,25.6701,94.1077,14.3,78,0.0,854.4,8.55,61.2,96,19.2,15.0,3,5,7,0,2026-03-31T04:10:21.976332+05:30
Gangtok,Sikkim,27.3314,88.6138,14.1,92,0.0,836.3,8.3,18.4,120,66.4,55.4,3,10,7,0,2026-03-31T04:10:21.976339+05:30
Siliguri,West Bengal,26.7271,88.3953,18.7,87,0.0,995.3,8.0,19.4,159,137.4,102.9,3,10,7,1,2026-03-31T04:10:25.206356+05:30
Durgapur,West Bengal,23.5204,87.3119,25.2,92,0.0,995.2,8.45,20.5,158,84.3,78.2,7,5,7,1,2026-03-31T04:10:25.206387+05:30
Asansol,West Bengal,23.6739,86.9524,24.9,90,0.0,994.2,8.55,27.7,158,89.4,82.7,3,5,7,1,2026-03-31T04:10:25.206398+05:30
Pondicherry,Puducherry,11.9139,79.8145,24.5,96,0.0,1007.6,9.25,24.8,44,15.2,10.7,3,5,4,1,2026-03-31T04:10:25.206406+05:30
Port Blair,Andaman and Nicobar Islands,11.6234,92.7265,28.4,74,0.0,1006.5,9.2,14.4,58,15.3,12.3,7,5,4,1,2026-03-31T04:10:25.206415+05:30
Haridwar,Uttarakhand,29.9457,78.1642,20.7,79,0.0,974.8,6.55,29.9,96,55.4,27.5,3,5,7,1,2026-03-31T04:10:25.206422+05:30
Rishikesh,Uttarakhand,30.0869,78.2676,20.2,65,0.0,967.5,6.65,30.6,76,42.3,16.5,3,5,7,0,2026-03-31T04:10:25.206469+05:30
Nainital,Uttarakhand,29.3919,79.4542,18.4,46,0.0,805.7,7.5,40.3,75,59.8,26.4,0,5,7,0,2026-03-31T04:10:25.206480+05:30
Mussoorie,Uttarakhand,30.4599,78.0664,15.3,51,0.0,802.1,7.0,34.2,73,27.5,15.9,0,5,7,0,2026-03-31T04:10:25.206489+05:30
Dharamshala,Himachal Pradesh,32.219,76.3234,17.8,59,0.0,869.5,7.2,38.5,37,13.9,6.3,0,5,7,0,2026-03-31T04:10:25.206496+05:30
Dalhousie,Himachal Pradesh,32.5387,75.971,13.7,63,0.0,803.3,6.7,32.8,65,43.2,22.2,3,5,7,0,2026-03-31T04:10:25.206504+05:30
Patiala,Punjab,30.3398,76.3869,18.3,82,0.0,979.0,5.9,19.8,460,259.8,83.4,3,10,3,0,2026-03-31T04:10:25.206511+05:30
Bhatinda,Punjab,30.211,74.9455,19.7,77,0.0,984.1,6.6,26.6,154,196.5,49.0,3,5,7,0,2026-03-31T04:10:25.206519+05:30
Rohtak,Haryana,28.8955,76.6066,18.4,90,0.0,982.3,6.05,30.2,306,116.4,55.2,3,10,7,1,2026-03-31T04:10:25.206525+05:30
Panipat,Haryana,29.3909,76.9635,18.1,80,0.0,981.0,6.55,19.1,435,106.2,53.1,3,5,7,0,2026-03-31T04:10:25.206532+05:30
Mathura,Uttar Pradesh,27.4924,77.6737,20.8,69,0.0,987.3,6.85,32.4,413,123.4,28.6,3,5,7,0,2026-03-31T04:10:25.206539+05:30
Vrindavan,Uttar Pradesh,27.5823,77.7027,19.4,79,0.0,987.8,6.8,26.6,413,123.4,28.6,3,5,7,0,2026-03-31T04:10:25.206546+05:30
Ayodhya,Uttar Pradesh,26.7922,82.1998,23.5,79,0.0,994.5,7.45,21.2,129,180.2,63.3,3,5,7,1,2026-03-31T04:10:25.206553+05:30
Ratlam,Madhya Pradesh,23.3315,75.0367,23.0,74,0.0,953.8,8.15,29.9,47,18.4,11.5,3,5,7,1,2026-03-31T04:10:25.206560+05:30
Sagar,Madhya Pradesh,23.8388,78.7378,25.1,56,0.0,950.2,8.2,18.4,37,32.9,13.0,4,5,7,0,2026-03-31T04:10:25.206567+05:30
Satna,Madhya Pradesh,24.6005,80.8322,26.3,53,0.0,970.6,8.2,24.5,87,402.3,84.5,4,5,7,0,2026-03-31T04:10:25.206574+05:30
Akola,Maharashtra,20.7002,77.0082,24.9,77,0.0,975.1,8.55,22.3,56,34.9,27.1,3,5,7,1,2026-03-31T04:10:25.206581+05:30
Amravati,Maharashtra,20.9374,77.7796,24.4,76,0.0,967.2,8.55,18.0,53,35.4,26.3,3,5,7,1,2026-03-31T04:10:25.206589+05:30
Latur,Maharashtra,18.4088,76.5604,21.9,81,0.0,939.5,8.85,36.0,73,34.5,29.8,3,5,7,1,2026-03-31T04:10:25.206596+05:30
Nanded,Maharashtra,19.1383,77.3091,23.1,83,0.0,968.5,8.75,24.5,65,30.9,25.9,3,5,7,1,2026-03-31T04:10:25.206603+05:30
Gulbarga,Karnataka,17.3297,76.8343,24.4,73,0.0,958.8,8.3,35.3,98,40.9,37.5,3,5,7,1,2026-03-31T04:10:25.206610+05:30
Bidar,Karnataka,17.9104,77.5199,22.9,77,0.0,935.4,7.6,32.8,97,50.2,44.9,3,5,7,1,2026-03-31T04:10:25.206616+05:30
Hospet,Karnataka,15.2689,76.3909,24.9,83,0.0,955.5,9.15,20.9,110,18.0,16.2,3,5,7,1,2026-03-31T04:10:25.206623+05:30
Tirupur,Tamil Nadu,11.1085,77.3411,25.9,87,0.0,973.9,9.5,26.6,80,34.0,31.9,7,5,7,1,2026-03-31T04:10:25.206630+05:30
Alappuzha,Kerala,9.4981,76.3388,27.9,85,0.0,1006.7,9.15,25.2,103,48.2,45.1,7,5,4,1,2026-03-31T04:10:25.206637+05:30
Munnar,Kerala,10.0889,77.0595,18.7,88,0.0,854.1,9.75,29.5,78,35.5,33.6,3,10,7,1,2026-03-31T04:10:25.206644+05:30
Silchar,Assam,24.8333,92.7789,22.2,93,0.0,1007.0,8.35,24.8,121,34.0,26.7,3,5,4,1,2026-03-31T04:10:25.206651+05:30
Dibrugarh,Assam,27.4728,94.912,21.3,93,0.0,998.2,7.95,9.0,98,37.5,34.5,3,5,7,1,2026-03-31T04:10:25.206657+05:30
