city,state,latitude,longitude,temp,humidity,rain,pressure,uv_index,wind_gusts,aqi,pm10,pm2_5,no2,co,o3,so2,mosquito_risk,arthritis_risk,migraine_risk,frizz_risk,updated_at
Delhi,Delhi,28.6139,77.209,36.3,34,0.0,980.4,7.75,39.6,163,478.7,113.2,26.7,531.0,153.0,47.4,0,5,10,1,2026-06-06T10:25:03.656714+05:30
Mumbai,Maharashtra,19.076,72.8777,32.0,67,0.0,1007.3,6.0,42.5,76,54.8,25.6,8.7,257.0,71.0,11.6,3,5,0,1,2026-06-06T10:25:03.656765+05:30
Bangalore,Karnataka,12.9716,77.5946,26.7,64,0.1,912.8,9.1,44.6,20,3.7,3.4,8.4,388.0,50.0,4.2,10,5,7,1,2026-06-06T10:25:03.656782+05:30
Hyderabad,Telangana,17.385,78.4867,29.6,61,0.0,952.4,9.15,37.8,89,37.8,24.7,5.9,348.0,115.0,5.9,7,5,7,1,2026-06-06T10:25:03.656792+05:30
Chennai,Tamil Nadu,13.0827,80.2707,35.8,42,0.0,1005.5,8.95,45.4,60,9.8,8.8,9.6,229.0,70.0,11.7,0,5,7,1,2026-06-06T10:25:03.656802+05:30
Kolkata,West Bengal,22.5726,88.3639,31.4,79,0.0,1002.4,8.45,41.8,131,43.2,41.2,16.3,553.0,103.0,13.8,3,5,4,1,2026-06-06T10:25:03.656811+05:30
Pune,Maharashtra,18.5204,73.8567,31.2,54,0.0,948.0,8.35,50.4,50,27.2,13.7,4.0,161.0,68.0,6.4,0,5,7,1,2026-06-06T10:25:03.656818+05:30
Ahmedabad,Gujarat,23.0225,72.5714,35.1,48,0.0,999.9,8.05,34.2,90,81.0,31.3,3.7,162.0,63.0,6.4,0,5,10,1,2026-06-06T10:25:03.656826+05:30
Jaipur,Rajasthan,26.9124,75.7873,34.9,40,0.0,958.2,8.25,40.0,112,120.1,37.6,5.8,253.0,84.0,6.5,0,5,7,1,2026-06-06T10:25:03.656838+05:30
Lucknow,Uttar Pradesh,26.8467,80.9462,33.5,55,0.0,990.7,8.3,26.6,155,157.4,58.0,8.8,422.0,120.0,21.4,0,5,7,1,2026-06-06T10:25:03.656846+05:30
Kanpur,Uttar Pradesh,26.4499,80.3319,35.4,40,0.0,989.0,8.3,37.1,169,232.8,68.7,8.9,314.0,124.0,18.1,0,5,10,1,2026-06-06T10:25:03.656853+05:30
Chandigarh,Chandigarh,30.7333,76.7794,33.2,45,0.0,966.5,7.8,32.8,134,103.6,39.6,7.0,671.0,180.0,16.4,0,5,7,1,2026-06-06T10:25:03.656861+05:30
Srinagar,Jammu and Kashmir,34.0837,74.7973,19.2,65,0.0,843.5,9.0,28.1,78,31.9,23.9,4.7,381.0,107.0,2.4,3,5,7,0,2026-06-06T10:25:03.656869+05:30
Jammu,Jammu and Kashmir,32.7266,74.857,33.7,33,0.0,970.2,8.6,29.5,91,33.1,20.3,8.2,301.0,111.0,2.6,0,5,7,0,2026-06-06T10:25:03.656876+05:30
Amritsar,Punjab,31.634,74.8723,36.3,29,0.0,977.9,8.45,27.0,141,45.9,29.6,7.7,492.0,146.0,9.1,0,5,10,0,2026-06-06T10:25:03.656883+05:30
Ludhiana,Punjab,30.901,75.8573,35.8,35,0.0,975.9,8.05,31.7,157,292.4,82.0,7.5,572.0,142.0,15.0,0,5,10,1,2026-06-06T10:25:03.656890+05:30
Jalandhar,Punjab,31.326,75.5762,35.5,37,0.0,976.8,8.25,24.8,151,253.3,83.1,9.2,477.0,142.0,13.1,0,5,10,1,2026-06-06T10:25:03.656897+05:30
Dehradun,Uttarakhand,30.6284,78.0322,24.4,41,0.0,831.9,8.2,37.1,66,30.5,13.7,0.0,185.0,145.0,1.0,0,5,7,0,2026-06-06T10:25:03.656904+05:30
Shimla,Himachal Pradesh,31.1048,77.1734,21.4,32,0.0,787.0,8.35,42.1,92,27.6,13.9,1.0,180.0,156.0,3.7,0,5,7,0,2026-06-06T10:25:03.656913+05:30
Manali,Himachal Pradesh,32.2396,77.1887,21.9,44,0.0,819.8,9.65,31.7,60,5.7,3.2,8.4,172.0,129.0,0.3,0,5,7,0,2026-06-06T10:25:03.656920+05:30
Gurgaon,Haryana,28.4595,77.0266,35.9,36,0.0,979.0,7.85,31.7,220,953.7,157.4,16.5,456.0,140.0,24.1,0,5,10,1,2026-06-06T10:25:03.656929+05:30
Noida,Uttar Pradesh,28.5355,77.391,35.0,42,0.0,981.8,7.8,26.6,220,953.7,157.4,16.5,636.0,140.0,24.1,0,5,7,1,2026-06-06T10:25:03.656939+05:30
Ghaziabad,Uttar Pradesh,28.6692,77.4538,34.5,44,0.0,980.1,7.75,25.2,166,314.8,85.9,9.4,602.0,174.0,29.0,0,5,7,1,2026-06-06T10:25:03.656946+05:30
Faridabad,Haryana,28.4089,77.3178,34.9,41,0.0,981.2,7.8,32.0,220,953.7,157.4,16.5,516.0,140.0,24.1,0,5,7,1,2026-06-06T10:25:03.656952+05:30
Meerut,Uttar Pradesh,28.9845,77.7064,33.4,50,0.0,979.1,7.7,27.7,166,314.8,85.9,9.4,571.0,174.0,29.0,0,5,7,1,2026-06-06T10:25:03.656959+05:30
Agra,Uttar Pradesh,27.1767,78.0081,35.1,39,0.0,985.3,8.1,30.6,402,722.7,125.7,6.1,356.0,155.0,17.7,0,5,10,1,2026-06-06T10:25:03.656966+05:30
Varanasi,Uttar Pradesh,25.3176,82.9739,36.2,40,0.0,994.3,8.8,34.2,152,118.0,67.5,5.5,546.0,155.0,11.2,0,5,10,1,2026-06-06T10:25:03.656974+05:30
Prayagraj,Uttar Pradesh,25.4358,81.8463,36.0,42,0.0,993.1,8.7,34.2,150,122.0,59.3,4.8,375.0,152.0,11.1,0,5,10,1,2026-06-06T10:25:03.656981+05:30
Gorakhpur,Uttar Pradesh,26.7606,83.3732,34.1,52,0.0,994.2,8.7,54.4,164,103.4,81.0,4.6,503.0,174.0,11.4,0,5,7,1,2026-06-06T10:25:03.656990+05:30
Bareilly,Uttar Pradesh,28.367,79.4304,33.1,52,0.0,984.0,8.1,27.4,153,74.0,48.3,3.2,391.0,155.0,9.3,0,5,7,1,2026-06-06T10:25:03.656996+05:30
Aligarh,Uttar Pradesh,27.8974,78.088,34.2,45,0.0,983.0,7.95,25.9,225,400.5,92.4,5.8,432.0,162.0,25.9,0,5,7,1,2026-06-06T10:25:03.657003+05:30
Moradabad,Uttar Pradesh,28.8386,78.7733,33.8,44,0.0,981.0,7.9,34.6,158,83.4,54.4,6.8,424.0,168.0,17.2,0,5,7,1,2026-06-06T10:25:03.657010+05:30
Saharanpur,Uttar Pradesh,29.9637,77.546,31.6,58,0.0,973.5,7.5,27.7,154,101.3,42.4,5.2,499.0,180.0,13.2,0,5,7,1,2026-06-06T10:25:03.657017+05:30
Jhansi,Uttar Pradesh,25.4484,78.5685,35.1,37,0.0,976.0,8.5,28.8,74,369.7,69.2,2.2,179.0,123.0,7.4,0,5,10,1,2026-06-06T10:25:06.891511+05:30
Surat,Gujarat,21.1702,72.8311,32.9,64,0.0,1005.1,7.6,44.3,88,62.4,29.3,13.7,323.0,50.0,34.8,3,5,4,1,2026-06-06T10:25:06.891549+05:30
Vadodara,Gujarat,22.3072,73.1812,35.5,49,0.0,1002.4,8.0,40.7,83,70.8,30.3,4.1,158.0,62.0,5.6,0,5,7,1,2026-06-06T10:25:06.891562+05:30
Rajkot,Gujarat,22.3039,70.8022,34.6,51,0.0,991.9,7.55,42.1,82,95.2,29.3,2.0,115.0,65.0,3.6,0,5,7,1,2026-06-06T10:25:06.891571+05:30
Thane,Maharashtra,19.2183,72.9781,33.8,58,0.1,1006.6,6.7,40.0,76,54.8,25.6,8.7,218.0,71.0,11.6,3,5,4,1,2026-06-06T10:25:06.891580+05:30
Nagpur,Maharashtra,21.1458,79.0882,36.9,30,0.0,971.1,8.85,45.7,78,73.3,35.6,7.1,193.0,109.0,18.1,0,5,10,1,2026-06-06T10:25:06.891588+05:30
Nashik,Maharashtra,19.9975,73.7898,32.0,51,0.0,945.2,8.05,39.6,61,39.1,19.6,3.9,145.0,67.0,6.7,0,5,7,1,2026-06-06T10:25:06.891595+05:30
Aurangabad,Maharashtra,19.8762,75.3433,33.0,46,0.0,943.9,8.95,43.2,62,41.0,19.7,3.5,139.0,69.0,6.8,0,5,7,1,2026-06-06T10:25:06.891603+05:30
Solapur,Maharashtra,17.6599,75.9064,33.1,51,0.0,956.9,8.95,46.1,69,21.7,12.9,2.9,128.0,83.0,3.6,0,5,7,1,2026-06-06T10:25:06.891610+05:30
Kolhapur,Maharashtra,16.705,74.2433,31.0,56,0.0,948.3,8.65,47.5,34,16.9,9.8,3.6,136.0,58.0,1.2,0,5,7,1,2026-06-06T10:25:06.891617+05:30
Goa,Goa,15.2993,74.124,31.8,66,0.0,998.1,7.55,31.7,33,14.2,7.7,1.6,170.0,64.0,0.9,3,5,7,1,2026-06-06T10:25:06.891624+05:30
Jodhpur,Rajasthan,26.2389,73.0243,35.4,49,0.0,980.1,8.45,65.9,126,243.1,63.3,2.0,131.0,71.0,4.3,0,5,10,1,2026-06-06T10:25:06.891631+05:30
Udaipur,Rajasthan,24.5854,73.7125,33.0,49,0.0,945.7,8.8,31.7,93,73.1,30.2,2.0,145.0,73.0,3.9,0,5,7,1,2026-06-06T10:25:06.891640+05:30
Kota,Rajasthan,25.2138,75.8648,36.2,41,0.0,976.6,8.4,28.8,75,74.3,39.6,4.7,184.0,87.0,7.4,0,5,10,1,2026-06-06T10:25:06.891648+05:30
Bikaner,Rajasthan,28.0229,73.3119,37.2,38,0.0,978.5,8.5,46.8,115,156.0,52.5,1.2,143.0,73.0,3.2,0,5,10,1,2026-06-06T10:25:06.891655+05:30
Ajmer,Rajasthan,26.4499,74.6399,33.4,48,0.0,953.0,8.35,32.8,96,91.3,33.6,2.2,147.0,84.0,3.9,0,5,7,1,2026-06-06T10:25:06.891662+05:30
Gwalior,Madhya Pradesh,26.2183,78.1828,35.2,36,0.0,981.1,8.3,31.0,194,471.2,84.5,1.6,186.0,138.0,8.7,0,5,10,1,2026-06-06T10:25:06.891669+05:30
Indore,Madhya Pradesh,22.7196,75.8577,32.1,57,0.0,947.3,8.65,30.6,88,54.6,29.4,4.4,236.0,71.0,10.7,0,5,7,1,2026-06-06T10:25:06.891677+05:30
Bhopal,Madhya Pradesh,23.2599,77.4126,33.3,47,0.0,952.4,8.7,33.8,89,43.2,19.5,1.0,224.0,116.0,5.1,0,5,7,1,2026-06-06T10:25:06.891684+05:30
Jabalpur,Madhya Pradesh,23.1815,79.9864,33.9,42,0.0,959.8,8.35,39.2,85,62.2,22.2,1.3,175.0,112.0,5.3,0,5,7,1,2026-06-06T10:25:06.891692+05:30
Ujjain,Madhya Pradesh,23.1765,75.7885,33.0,55,0.0,952.9,8.6,33.8,86,51.5,28.4,3.8,189.0,67.0,11.1,0,5,7,1,2026-06-06T10:25:06.891699+05:30
Visakhapatnam,Andhra Pradesh,17.6868,83.2185,37.3,44,0.0,999.1,8.7,36.7,99,40.4,32.5,13.5,407.0,125.0,36.4,0,5,10,1,2026-06-06T10:25:06.891707+05:30
Vijayawada,Andhra Pradesh,16.5062,80.648,36.1,45,0.0,999.9,9.0,34.9,67,26.8,19.9,5.0,215.0,100.0,8.1,0,5,10,1,2026-06-06T10:25:06.891714+05:30
Guntur,Andhra Pradesh,16.3067,80.4365,35.6,48,0.0,1001.2,9.0,36.7,62,33.3,23.1,5.7,224.0,97.0,8.7,0,5,7,1,2026-06-06T10:25:06.891721+05:30
Nellore,Andhra Pradesh,14.4426,79.9865,34.8,46,0.0,1003.9,8.9,43.9,42,9.7,7.1,3.8,144.0,77.0,6.0,0,5,4,1,2026-06-06T10:25:06.891730+05:30
Kurnool,Andhra Pradesh,15.8281,78.0373,33.1,54,0.0,976.5,7.05,40.7,37,18.9,12.7,5.6,170.0,78.0,8.1,0,5,7,1,2026-06-06T10:25:06.891740+05:30
Kakinada,Andhra Pradesh,16.9891,82.2475,35.6,52,0.0,1003.6,8.95,36.0,72,25.4,18.6,3.0,280.0,113.0,4.7,0,5,7,1,2026-06-06T10:25:06.891748+05:30
Tirupati,Andhra Pradesh,13.6288,79.4192,34.2,46,0.0,989.8,8.95,41.4,47,6.8,5.6,3.8,139.0,75.0,2.7,0,5,7,1,2026-06-06T10:25:06.891755+05:30
Warangal,Telangana,17.9689,79.5941,31.5,54,0.0,976.8,9.05,44.6,102,42.5,29.0,3.3,225.0,114.0,5.3,0,5,7,1,2026-06-06T10:25:06.891763+05:30
Nizamabad,Telangana,18.6725,78.0941,34.3,44,0.0,963.9,9.05,42.5,99,36.7,23.5,3.0,185.0,102.0,6.8,0,5,7,1,2026-06-06T10:25:06.891770+05:30
Mysore,Karnataka,12.2958,76.6396,23.3,90,0.1,929.5,8.4,43.6,18,3.4,3.1,6.6,158.0,48.0,2.1,6,5,7,1,2026-06-06T10:25:06.891777+05:30
Mangalore,Karnataka,12.9141,74.856,24.2,97,0.7,1008.3,0.45,29.9,27,6.8,5.5,9.0,235.0,40.0,1.6,6,0,0,1,2026-06-06T10:25:06.891785+05:30
Hubli-Dharwad,Karnataka,15.3647,75.124,29.0,64,0.0,941.9,7.15,43.9,21,3.9,2.8,4.1,135.0,53.0,1.1,7,5,7,1,2026-06-06T10:25:06.891792+05:30
Belgaum,Karnataka,15.8497,74.4977,28.5,62,0.1,926.6,8.7,40.7,23,9.0,5.2,3.1,120.0,58.0,2.0,10,5,7,1,2026-06-06T10:25:10.124067+05:30
Coimbatore,Tamil Nadu,11.0168,76.9558,26.5,74,0.0,963.2,8.8,59.0,18,3.4,2.7,5.2,181.0,42.0,2.2,7,5,7,1,2026-06-06T10:25:10.124104+05:30
Madurai,Tamil Nadu,9.9252,78.1198,34.5,44,0.0,993.5,8.65,65.5,25,8.1,6.2,4.4,161.0,63.0,3.6,0,5,7,1,2026-06-06T10:25:10.124116+05:30
Trichy,Tamil Nadu,10.7905,78.7047,33.7,48,0.0,999.9,8.7,45.4,23,12.4,8.0,4.4,147.0,60.0,3.7,0,5,7,1,2026-06-06T10:25:10.124124+05:30
Salem,Tamil Nadu,11.6643,78.146,32.7,49,0.0,978.0,8.8,48.2,36,12.1,9.2,6.8,185.0,66.0,8.7,0,5,7,1,2026-06-06T10:25:10.124132+05:30
Tirunelveli,Tamil Nadu,8.7139,77.7567,33.8,50,0.0,1004.7,6.95,46.1,19,6.1,3.7,3.0,154.0,46.0,1.3,0,5,4,1,2026-06-06T10:25:10.124140+05:30
Vellore,Tamil Nadu,12.9165,79.1325,33.9,46,0.0,983.5,8.95,59.8,37,5.1,4.5,3.0,139.0,71.0,3.3,0,5,7,1,2026-06-06T10:25:10.124147+05:30
Erode,Tamil Nadu,11.341,77.7172,32.1,53,0.0,989.6,8.85,53.6,26,5.7,4.6,5.3,150.0,54.0,3.1,0,5,7,1,2026-06-06T10:25:10.124155+05:30
Kochi,Kerala,9.9312,76.2673,27.1,82,0.3,1012.0,8.35,40.0,50,14.4,8.7,8.3,158.0,35.0,2.7,10,0,4,1,2026-06-06T10:25:10.124162+05:30
Thiruvananthapuram,Kerala,8.5241,76.9366,26.2,93,0.3,1011.0,7.85,49.0,26,13.5,6.3,2.1,116.0,49.0,0.7,10,0,4,1,2026-06-06T10:25:10.124170+05:30
Kozhikode,Kerala,11.2588,75.7804,26.4,90,0.1,1010.8,1.15,32.0,26,10.5,4.7,0.8,155.0,57.0,0.4,10,0,0,1,2026-06-06T10:25:10.124177+05:30
Thrissur,Kerala,10.5276,76.2144,25.0,100,0.3,1010.2,7.45,37.1,48,12.3,7.7,9.0,224.0,31.0,2.4,10,0,4,1,2026-06-06T10:25:10.124184+05:30
Kannur,Kerala,11.8745,75.3704,25.9,96,0.5,1009.4,1.15,39.6,26,8.5,5.6,4.9,247.0,48.0,1.0,10,0,0,1,2026-06-06T10:25:10.124191+05:30
Patna,Bihar,25.5941,85.1376,32.8,67,0.0,997.2,8.9,24.8,170,62.4,57.4,7.2,454.0,156.0,20.8,3,5,7,1,2026-06-06T10:25:10.124198+05:30
Gaya,Bihar,24.7914,85.0002,34.1,55,0.0,990.5,8.7,27.0,155,67.8,57.9,6.5,340.0,153.0,19.1,0,5,7,1,2026-06-06T10:25:10.124205+05:30
Muzaffarpur,Bihar,26.1209,85.3647,31.9,69,0.0,997.5,8.9,39.6,171,57.0,52.4,6.3,397.0,155.0,16.8,3,5,7,1,2026-06-06T10:25:10.124212+05:30
Bhagalpur,Bihar,25.2425,87.0117,32.9,66,0.0,998.1,8.9,28.4,155,32.7,30.6,8.6,449.0,130.0,22.0,3,5,7,1,2026-06-06T10:25:10.124218+05:30
Ranchi,Jharkhand,23.3441,85.3096,33.2,42,0.0,935.8,9.15,37.8,119,82.2,51.1,3.2,245.0,162.0,15.6,0,5,7,1,2026-06-06T10:25:10.124224+05:30
Jamshedpur,Jharkhand,22.8046,86.2029,34.3,50,0.0,987.5,8.95,42.8,153,78.9,58.7,9.3,371.0,154.0,36.9,0,5,7,1,2026-06-06T10:25:10.124231+05:30
Dhanbad,Jharkhand,23.7957,86.4304,35.3,52,0.0,976.7,7.75,29.5,165,100.4,83.6,40.0,493.0,135.0,108.5,0,5,10,1,2026-06-06T10:25:10.124238+05:30
Bokaro,Jharkhand,23.6693,86.1511,34.6,53,0.0,980.4,8.75,24.8,156,88.5,66.1,25.9,327.0,143.0,68.4,0,5,7,1,2026-06-06T10:25:10.124244+05:30
Bhubaneswar,Odisha,20.2961,85.8245,35.1,55,0.0,998.4,9.1,24.8,153,49.1,43.2,2.4,371.0,171.0,11.3,0,5,10,1,2026-06-06T10:25:10.124250+05:30
Cuttack,Odisha,20.4625,85.8828,35.4,53,0.0,1000.2,9.1,20.5,153,49.1,43.2,2.4,347.0,171.0,11.3,0,5,7,1,2026-06-06T10:25:10.124257+05:30
Rourkela,Odisha,22.2604,84.8536,35.6,44,0.0,981.8,9.05,41.4,151,85.7,58.2,4.1,498.0,149.0,14.9,0,5,10,1,2026-06-06T10:25:10.124263+05:30
Raipur,Chhattisgarh,21.2514,81.6296,37.6,27,0.0,971.7,9.0,42.8,135,78.7,32.4,16.3,292.0,94.0,46.8,0,5,10,0,2026-06-06T10:25:10.124286+05:30
Bhilai,Chhattisgarh,21.1938,81.3509,36.5,30,0.0,972.2,8.95,44.6,124,80.8,32.8,16.4,682.0,92.0,49.8,0,5,10,0,2026-06-06T10:25:10.124293+05:30
Guwahati,Assam,26.1158,91.7086,30.0,72,0.0,999.4,8.8,23.4,92,25.6,23.5,1.5,414.0,142.0,3.7,7,5,7,1,2026-06-06T10:25:10.124299+05:30
Agartala,Tripura,23.8315,91.2868,32.7,60,0.0,1003.3,8.8,33.5,153,53.9,45.2,4.9,207.0,148.0,3.1,0,5,4,1,2026-06-06T10:25:10.124306+05:30
Shillong,Meghalaya,25.5788,91.8933,24.6,59,0.0,857.9,8.15,21.6,63,38.5,30.0,0.8,243.0,143.0,3.3,0,5,7,1,2026-06-06T10:25:10.124313+05:30
Imphal,Manipur,24.817,93.9368,29.3,59,0.0,921.9,9.05,28.8,119,41.4,33.2,0.1,336.0,142.0,3.2,4,5,7,1,2026-06-06T10:25:10.124320+05:30
Aizawl,Mizoram,23.7271,92.7176,27.4,61,0.0,892.1,8.65,28.4,119,42.8,32.8,0.3,217.0,125.0,3.5,7,5,7,1,2026-06-06T10:25:10.124326+05:30
Kohima,Nagaland,25.6701,94.1077,24.0,79,0.1,855.6,9.25,24.1,75,20.6,16.9,0.2,229.0,133.0,2.1,6,5,7,1,2026-06-06T10:25:10.124333+05:30
Gangtok,Sikkim,27.3314,88.6138,23.8,60,0.1,838.4,9.05,34.2,105,12.3,10.0,2.0,297.0,143.0,2.4,3,5,7,0,2026-06-06T10:25:10.124339+05:30
Siliguri,West Bengal,26.7271,88.3953,28.8,72,0.1,991.1,8.8,21.2,113,16.6,14.6,2.8,416.0,163.0,4.3,10,5,7,1,2026-06-06T10:25:13.354194+05:30
Durgapur,West Bengal,23.5204,87.3119,32.4,74,0.0,991.7,9.05,36.7,170,67.1,60.1,28.1,626.0,110.0,66.7,3,5,7,1,2026-06-06T10:25:13.354230+05:30
Asansol,West Bengal,23.6739,86.9524,33.4,65,0.0,990.1,8.9,34.6,165,87.3,75.9,32.3,555.0,130.0,86.8,3,5,7,1,2026-06-06T10:25:13.354241+05:30
Pondicherry,Puducherry,11.9139,79.8145,34.1,50,0.0,1007.4,8.45,41.0,60,20.7,15.5,9.8,222.0,64.0,10.7,0,5,4,1,2026-06-06T10:25:13.354249+05:30
Port Blair,Andaman and Nicobar Islands,11.6234,92.7265,30.3,77,0.1,1006.9,7.75,49.7,26,7.5,4.7,0.4,105.0,57.0,0.3,6,5,4,1,2026-06-06T10:25:13.354257+05:30
Haridwar,Uttarakhand,29.9457,78.1642,32.6,47,0.0,971.7,7.6,25.6,137,82.4,38.1,1.6,294.0,172.0,7.0,0,5,7,1,2026-06-06T10:25:13.354265+05:30
Rishikesh,Uttarakhand,30.0869,78.2676,32.1,46,0.0,964.5,7.7,29.2,108,66.6,30.3,1.1,258.0,153.0,3.3,0,5,7,1,2026-06-06T10:25:13.354290+05:30
Nainital,Uttarakhand,29.3919,79.4542,21.5,55,0.0,807.3,7.25,25.2,90,52.9,28.3,1.1,217.0,142.0,2.0,0,5,7,0,2026-06-06T10:25:13.354298+05:30
Mussoorie,Uttarakhand,30.4599,78.0664,22.3,41,0.0,804.8,8.1,43.9,95,64.5,27.0,0.0,195.0,173.0,4.9,0,5,7,0,2026-06-06T10:25:13.354306+05:30
Dharamshala,Himachal Pradesh,32.219,76.3234,23.4,51,0.0,868.9,8.5,34.2,54,17.7,9.5,0.5,221.0,141.0,1.0,0,5,7,0,2026-06-06T10:25:13.354315+05:30
Dalhousie,Himachal Pradesh,32.5387,75.971,21.7,43,0.0,806.3,8.75,40.7,71,23.9,13.4,2.8,230.0,143.0,2.1,0,5,7,0,2026-06-06T10:25:13.354325+05:30
Patiala,Punjab,30.3398,76.3869,35.4,39,0.0,975.5,7.7,29.5,185,525.3,97.6,4.5,463.0,152.0,16.8,0,5,10,1,2026-06-06T10:25:13.354332+05:30
Bhatinda,Punjab,30.211,74.9455,37.2,32,0.0,980.4,8.35,28.1,160,253.3,74.0,11.0,259.0,130.0,17.7,0,5,10,1,2026-06-06T10:25:13.354339+05:30
Rohtak,Haryana,28.8955,76.6066,35.5,40,0.0,979.1,7.8,36.0,230,685.5,132.2,15.1,404.0,145.0,24.8,0,5,10,1,2026-06-06T10:25:13.354345+05:30
Panipat,Haryana,29.3909,76.9635,34.6,44,0.0,977.8,7.65,24.1,397,786.0,140.2,16.1,499.0,138.0,32.9,0,5,7,1,2026-06-06T10:25:13.354352+05:30
Mathura,Uttar Pradesh,27.4924,77.6737,34.6,44,0.0,984.2,8.05,28.1,370,732.0,123.9,6.9,402.0,138.0,14.1,0,5,7,1,2026-06-06T10:25:13.354359+05:30
Vrindavan,Uttar Pradesh,27.5823,77.7027,34.9,42,0.0,984.6,8.05,28.1,370,732.0,123.9,6.9,394.0,138.0,14.1,0,5,7,1,2026-06-06T10:25:13.354365+05:30
Ayodhya,Uttar Pradesh,26.7922,82.1998,33.5,58,0.0,992.1,8.45,43.9,153,105.0,54.7,4.5,349.0,149.0,9.5,0,5,7,1,2026-06-06T10:25:13.354372+05:30
Ratlam,Madhya Pradesh,23.3315,75.0367,32.8,56,0.0,953.9,8.5,36.4,84,51.9,28.3,3.8,141.0,66.0,11.1,0,5,7,1,2026-06-06T10:25:13.354378+05:30
Sagar,Madhya Pradesh,23.8388,78.7378,33.8,32,0.0,949.0,8.7,35.6,74,129.9,29.9,1.3,155.0,116.0,4.1,0,5,7,0,2026-06-06T10:25:13.354385+05:30
Satna,Madhya Pradesh,24.6005,80.8322,33.9,41,0.0,969.4,8.8,36.0,96,153.2,43.3,0.9,196.0,125.0,5.1,0,5,7,1,2026-06-06T10:25:13.354392+05:30
Akola,Maharashtra,20.7002,77.0082,34.8,48,0.0,973.8,8.8,41.4,76,47.0,25.4,4.1,138.0,79.0,10.8,0,5,7,1,2026-06-06T10:25:13.354399+05:30
Amravati,Maharashtra,20.9374,77.7796,35.7,38,0.0,965.9,8.85,37.1,79,48.2,27.3,4.3,164.0,90.0,13.4,0,5,10,1,2026-06-06T10:25:13.354408+05:30
Latur,Maharashtra,18.4088,76.5604,31.5,50,0.0,939.7,9.0,36.0,74,38.2,21.5,3.0,173.0,85.0,6.7,0,5,7,1,2026-06-06T10:25:13.354415+05:30
Nanded,Maharashtra,19.1383,77.3091,34.5,45,0.0,967.7,8.9,36.0,89,39.9,22.0,2.6,168.0,88.0,4.2,0,5,7,1,2026-06-06T10:25:13.354422+05:30
Gulbarga,Karnataka,17.3297,76.8343,33.1,50,0.0,958.3,8.95,51.1,72,19.4,13.0,4.0,160.0,88.0,4.1,0,5,7,1,2026-06-06T10:25:13.354428+05:30
Bidar,Karnataka,17.9104,77.5199,30.9,55,0.0,935.5,9.0,32.8,98,35.0,23.3,4.2,185.0,111.0,8.1,0,5,7,1,2026-06-06T10:25:13.354435+05:30
Hospet,Karnataka,15.2689,76.3909,27.4,74,0.0,956.7,8.4,42.5,19,6.6,4.2,3.9,129.0,53.0,2.3,7,5,7,1,2026-06-06T10:25:13.354442+05:30
Tirupur,Tamil Nadu,11.1085,77.3411,30.1,60,0.0,976.3,8.95,64.4,30,6.5,5.3,6.5,139.0,49.0,3.7,0,5,7,1,2026-06-06T10:25:13.354449+05:30
Alappuzha,Kerala,9.4981,76.3388,25.9,92,0.3,1012.2,8.35,41.0,39,16.1,8.1,4.2,93.0,49.0,1.4,10,0,4,1,2026-06-06T10:25:13.354455+05:30
Munnar,Kerala,10.0889,77.0595,17.5,95,0.1,858.5,8.55,40.3,14,2.4,2.1,3.6,105.0,45.0,1.6,6,10,7,1,2026-06-06T10:25:13.354463+05:30
Silchar,Assam,24.8333,92.7789,32.9,60,0.0,1002.0,8.9,22.7,131,47.6,38.8,0.3,272.0,143.0,5.8,0,5,4,1,2026-06-06T10:25:13.354470+05:30
Dibrugarh,Assam,27.4728,94.912,31.2,64,0.0,992.5,8.95,28.1,112,35.7,30.9,0.3,307.0,161.0,4.2,3,5,7,1,2026-06-06T10:25:13.354477+05:30
