city,state,latitude,longitude,temp,humidity,rain,pressure,uv_index,wind_gusts,aqi,pm10,pm2_5,mosquito_risk,arthritis_risk,migraine_risk,frizz_risk,updated_at
Delhi,Delhi,28.6139,77.209,27.2,42,0.0,982.3,6.85,40.7,153,295.2,45.9,4,5,7,0,2026-04-05T18:34:18.404070+05:30
Mumbai,Maharashtra,19.076,72.8777,27.7,68,0.0,1008.9,7.9,23.4,70,29.2,15.2,7,0,4,1,2026-04-05T18:34:18.404125+05:30
Bangalore,Karnataka,12.9716,77.5946,30.5,41,0.0,910.6,9.65,28.8,127,37.0,32.5,0,5,7,0,2026-04-05T18:34:18.404141+05:30
Hyderabad,Telangana,17.385,78.4867,33.5,34,0.0,951.4,9.15,26.3,155,51.7,42.1,0,5,7,0,2026-04-05T18:34:18.404152+05:30
Chennai,Tamil Nadu,13.0827,80.2707,30.2,77,0.0,1004.7,9.3,37.8,110,24.0,19.2,3,5,4,1,2026-04-05T18:34:18.404159+05:30
Kolkata,West Bengal,22.5726,88.3639,28.3,72,0.0,1004.4,8.7,29.2,163,70.5,64.7,7,5,4,1,2026-04-05T18:34:18.404167+05:30
Pune,Maharashtra,18.5204,73.8567,28.4,50,0.0,948.2,8.5,39.6,86,33.3,15.5,4,5,7,1,2026-04-05T18:34:18.404177+05:30
Ahmedabad,Gujarat,23.0225,72.5714,32.3,23,0.0,1001.4,7.9,28.1,102,25.3,9.9,0,5,4,0,2026-04-05T18:34:18.404184+05:30
Jaipur,Rajasthan,26.9124,75.7873,28.8,23,0.0,958.7,7.55,34.6,103,182.1,25.9,4,5,7,0,2026-04-05T18:34:18.404190+05:30
Lucknow,Uttar Pradesh,26.8467,80.9462,25.5,57,0.0,993.3,7.45,44.3,107,88.9,28.4,4,5,7,1,2026-04-05T18:34:18.404198+05:30
Kanpur,Uttar Pradesh,26.4499,80.3319,27.7,49,0.0,990.9,7.45,40.7,132,217.9,39.3,4,5,7,0,2026-04-05T18:34:18.404205+05:30
Chandigarh,Chandigarh,30.7333,76.7794,26.6,34,0.0,968.1,6.85,34.6,116,37.6,20.5,4,5,7,0,2026-04-05T18:34:18.404212+05:30
Srinagar,Jammu and Kashmir,34.0837,74.7973,14.2,64,0.0,838.8,7.45,18.4,86,27.2,15.0,3,5,7,0,2026-04-05T18:34:18.404220+05:30
Jammu,Jammu and Kashmir,32.7266,74.857,25.6,43,0.0,972.3,7.5,24.5,85,51.7,25.5,4,5,7,0,2026-04-05T18:34:18.404225+05:30
Amritsar,Punjab,31.634,74.8723,25.6,41,0.0,980.5,7.45,29.5,113,58.3,33.8,4,5,7,0,2026-04-05T18:34:18.404231+05:30
Ludhiana,Punjab,30.901,75.8573,27.2,32,0.0,978.2,7.05,29.5,96,54.0,26.7,4,5,7,0,2026-04-05T18:34:18.404236+05:30
Jalandhar,Punjab,31.326,75.5762,27.2,33,0.0,979.3,7.25,25.6,91,67.1,26.8,4,5,7,0,2026-04-05T18:34:18.404243+05:30
Dehradun,Uttarakhand,30.6284,78.0322,14.5,66,0.0,827.8,6.65,39.2,82,22.4,10.8,3,5,7,0,2026-04-05T18:34:18.404249+05:30
Shimla,Himachal Pradesh,31.1048,77.1734,12.1,71,0.0,782.3,5.35,29.5,79,23.7,13.6,3,5,3,0,2026-04-05T18:34:18.404254+05:30
Manali,Himachal Pradesh,32.2396,77.1887,13.7,82,0.0,816.3,9.45,29.2,106,15.2,7.2,3,10,7,0,2026-04-05T18:34:18.404260+05:30
Gurgaon,Haryana,28.4595,77.0266,26.5,46,0.0,980.7,6.5,35.6,239,815.8,92.9,4,5,7,0,2026-04-05T18:34:18.404265+05:30
Noida,Uttar Pradesh,28.5355,77.391,27.7,37,0.0,983.7,6.95,39.2,239,815.8,92.9,4,5,7,0,2026-04-05T18:34:18.404271+05:30
Ghaziabad,Uttar Pradesh,28.6692,77.4538,27.2,40,0.0,981.9,6.85,42.1,151,156.5,40.2,4,5,7,0,2026-04-05T18:34:18.404276+05:30
Faridabad,Haryana,28.4089,77.3178,27.3,38,0.0,983.0,6.1,36.4,239,815.8,92.9,4,5,7,0,2026-04-05T18:34:18.404281+05:30
Meerut,Uttar Pradesh,28.9845,77.7064,27.0,37,0.0,980.4,6.2,34.6,151,156.5,40.2,4,5,7,0,2026-04-05T18:34:18.404287+05:30
Agra,Uttar Pradesh,27.1767,78.0081,27.2,47,0.0,987.3,7.3,34.2,290,646.3,78.5,4,5,7,0,2026-04-05T18:34:18.404292+05:30
Varanasi,Uttar Pradesh,25.3176,82.9739,29.5,49,0.0,996.1,8.1,32.4,102,31.4,20.1,4,5,7,1,2026-04-05T18:34:18.404300+05:30
Prayagraj,Uttar Pradesh,25.4358,81.8463,29.1,50,0.0,994.6,7.95,30.2,94,27.5,18.5,4,5,7,1,2026-04-05T18:34:18.404306+05:30
Gorakhpur,Uttar Pradesh,26.7606,83.3732,29.8,30,0.0,995.6,7.85,45.4,87,28.0,15.7,4,5,7,0,2026-04-05T18:34:18.404311+05:30
Bareilly,Uttar Pradesh,28.367,79.4304,26.4,47,0.0,985.7,7.2,40.7,110,48.1,24.8,4,5,7,0,2026-04-05T18:34:18.404316+05:30
Aligarh,Uttar Pradesh,27.8974,78.088,25.6,56,0.0,984.9,7.1,31.0,156,218.4,53.0,4,5,7,1,2026-04-05T18:34:18.404322+05:30
Moradabad,Uttar Pradesh,28.8386,78.7733,25.8,48,0.0,982.5,7.0,29.2,124,61.9,30.0,4,5,7,0,2026-04-05T18:34:18.404327+05:30
Saharanpur,Uttar Pradesh,29.9637,77.546,27.2,34,0.0,974.4,6.6,33.8,96,95.7,26.8,4,5,7,0,2026-04-05T18:34:18.404333+05:30
Jhansi,Uttar Pradesh,25.4484,78.5685,27.9,50,0.0,976.7,7.85,33.1,85,15.5,8.6,4,5,7,1,2026-04-05T18:34:21.710370+05:30
Surat,Gujarat,21.1702,72.8311,28.1,58,0.0,1006.7,7.7,27.7,80,42.0,34.0,4,5,4,1,2026-04-05T18:34:21.710402+05:30
Vadodara,Gujarat,22.3072,73.1812,32.2,30,0.0,1003.6,7.9,19.8,138,28.8,19.2,0,5,4,0,2026-04-05T18:34:21.710411+05:30
Rajkot,Gujarat,22.3039,70.8022,31.6,25,0.0,993.6,7.65,34.6,106,29.0,10.3,0,5,7,0,2026-04-05T18:34:21.710419+05:30
Thane,Maharashtra,19.2183,72.9781,27.5,63,0.0,1008.4,7.9,34.9,70,29.2,15.2,7,0,4,1,2026-04-05T18:34:21.710426+05:30
Nagpur,Maharashtra,21.1458,79.0882,32.1,33,0.0,970.3,8.7,29.5,112,26.5,17.2,0,5,7,0,2026-04-05T18:34:21.710433+05:30
Nashik,Maharashtra,19.9975,73.7898,26.6,50,0.0,945.3,8.05,36.0,57,21.2,10.2,4,5,7,0,2026-04-05T18:34:21.710458+05:30
Aurangabad,Maharashtra,19.8762,75.3433,31.2,30,0.0,942.7,8.85,37.1,61,29.4,13.4,0,5,7,0,2026-04-05T18:34:21.710465+05:30
Solapur,Maharashtra,17.6599,75.9064,34.6,22,0.0,955.1,8.6,29.9,75,24.3,13.9,0,5,7,0,2026-04-05T18:34:21.710472+05:30
Kolhapur,Maharashtra,16.705,74.2433,27.1,51,0.0,947.8,9.05,45.0,67,26.1,17.2,4,5,7,1,2026-04-05T18:34:21.710478+05:30
Goa,Goa,15.2993,74.124,28.8,72,0.0,997.7,9.05,38.5,65,58.0,20.7,7,5,7,1,2026-04-05T18:34:21.710485+05:30
Jodhpur,Rajasthan,26.2389,73.0243,30.3,22,0.0,982.2,7.65,26.3,86,76.1,12.4,0,5,7,0,2026-04-05T18:34:21.710491+05:30
Udaipur,Rajasthan,24.5854,73.7125,25.9,28,0.0,946.2,8.3,34.2,102,22.5,7.8,4,5,7,0,2026-04-05T18:34:21.710497+05:30
Kota,Rajasthan,25.2138,75.8648,30.9,22,0.0,977.4,7.85,31.7,103,64.7,16.9,0,5,7,0,2026-04-05T18:34:21.710504+05:30
Bikaner,Rajasthan,28.0229,73.3119,29.2,27,0.0,981.6,7.6,26.6,88,16.9,8.8,4,5,7,0,2026-04-05T18:34:21.710511+05:30
Ajmer,Rajasthan,26.4499,74.6399,27.8,27,0.0,953.6,7.75,31.0,93,44.7,10.4,4,5,7,0,2026-04-05T18:34:21.710517+05:30
Gwalior,Madhya Pradesh,26.2183,78.1828,25.7,60,0.0,982.6,7.6,50.8,77,42.6,15.3,4,5,7,1,2026-04-05T18:34:21.710523+05:30
Indore,Madhya Pradesh,22.7196,75.8577,28.6,25,0.0,947.2,8.35,31.0,110,16.3,11.2,4,5,7,0,2026-04-05T18:34:21.710529+05:30
Bhopal,Madhya Pradesh,23.2599,77.4126,30.2,23,0.0,952.1,8.3,33.8,102,11.6,6.1,0,5,7,0,2026-04-05T18:34:21.710535+05:30
Jabalpur,Madhya Pradesh,23.1815,79.9864,31.3,29,0.0,959.6,8.45,31.0,73,29.6,16.8,0,5,7,0,2026-04-05T18:34:21.710541+05:30
Ujjain,Madhya Pradesh,23.1765,75.7885,28.5,26,0.0,953.0,8.25,32.8,96,15.0,8.6,4,5,7,0,2026-04-05T18:34:21.710547+05:30
Visakhapatnam,Andhra Pradesh,17.6868,83.2185,28.9,79,0.0,1002.5,9.1,36.0,78,36.2,31.4,7,5,4,1,2026-04-05T18:34:21.710552+05:30
Vijayawada,Andhra Pradesh,16.5062,80.648,32.8,56,0.0,1000.1,8.75,24.1,96,39.8,35.4,0,5,4,1,2026-04-05T18:34:21.710558+05:30
Guntur,Andhra Pradesh,16.3067,80.4365,31.7,62,0.0,1001.4,8.9,31.7,100,40.6,35.4,3,5,4,1,2026-04-05T18:34:21.710565+05:30
Nellore,Andhra Pradesh,14.4426,79.9865,30.5,72,0.0,1003.3,9.3,32.0,127,27.5,23.7,3,5,4,1,2026-04-05T18:34:21.710571+05:30
Kurnool,Andhra Pradesh,15.8281,78.0373,36.6,28,0.0,973.9,9.2,33.8,182,51.1,44.1,0,5,10,0,2026-04-05T18:34:21.710579+05:30
Kakinada,Andhra Pradesh,16.9891,82.2475,31.8,63,0.0,1005.3,9.15,29.5,58,23.5,17.7,3,5,4,1,2026-04-05T18:34:21.710707+05:30
Tirupati,Andhra Pradesh,13.6288,79.4192,33.0,47,0.0,988.9,8.6,36.0,142,44.2,39.3,0,5,7,1,2026-04-05T18:34:21.710728+05:30
Warangal,Telangana,17.9689,79.5941,31.9,57,0.0,977.1,8.8,37.4,154,61.2,52.3,0,5,7,1,2026-04-05T18:34:21.710737+05:30
Nizamabad,Telangana,18.6725,78.0941,33.0,32,0.0,962.9,8.9,55.1,110,38.6,26.0,0,5,7,0,2026-04-05T18:34:21.710744+05:30
Mysore,Karnataka,12.2958,76.6396,26.7,67,0.0,927.7,8.65,36.7,104,28.1,24.7,7,5,7,1,2026-04-05T18:34:21.710750+05:30
Mangalore,Karnataka,12.9141,74.856,29.7,76,0.0,1005.8,9.2,34.6,66,23.3,13.8,7,5,4,1,2026-04-05T18:34:21.710757+05:30
Hubli-Dharwad,Karnataka,15.3647,75.124,30.1,47,0.0,940.1,9.25,38.5,98,18.1,14.1,0,5,7,1,2026-04-05T18:34:21.710764+05:30
Belgaum,Karnataka,15.8497,74.4977,26.9,52,0.0,925.6,9.3,38.5,59,23.5,13.3,4,5,7,1,2026-04-05T18:34:25.018678+05:30
Coimbatore,Tamil Nadu,11.0168,76.9558,28.3,65,0.0,960.5,9.5,45.0,94,25.4,22.9,7,5,7,1,2026-04-05T18:34:25.018708+05:30
Madurai,Tamil Nadu,9.9252,78.1198,29.4,67,0.0,991.3,5.45,23.8,146,29.0,26.4,7,5,3,1,2026-04-05T18:34:25.018717+05:30
Trichy,Tamil Nadu,10.7905,78.7047,32.7,58,0.0,997.1,9.25,36.7,155,49.2,44.7,0,5,7,1,2026-04-05T18:34:25.018725+05:30
Salem,Tamil Nadu,11.6643,78.146,35.6,36,0.0,974.4,8.7,25.9,151,47.3,41.2,0,5,10,1,2026-04-05T18:34:25.018733+05:30
Tirunelveli,Tamil Nadu,8.7139,77.7567,33.4,48,0.0,1001.0,9.4,27.4,68,26.3,23.7,0,5,4,1,2026-04-05T18:34:25.018741+05:30
Vellore,Tamil Nadu,12.9165,79.1325,32.5,46,0.0,982.0,9.45,32.8,150,53.8,46.7,0,5,7,1,2026-04-05T18:34:25.018749+05:30
Erode,Tamil Nadu,11.341,77.7172,32.7,50,0.0,986.5,9.45,27.0,137,38.0,34.3,0,5,7,1,2026-04-05T18:34:25.018756+05:30
Kochi,Kerala,9.9312,76.2673,29.6,79,0.0,1007.6,8.2,31.7,67,22.9,18.0,7,5,4,1,2026-04-05T18:34:25.018763+05:30
Thiruvananthapuram,Kerala,8.5241,76.9366,29.8,78,0.0,1006.8,9.2,38.5,62,18.0,12.4,7,5,4,1,2026-04-05T18:34:25.018770+05:30
Kozhikode,Kerala,11.2588,75.7804,29.8,78,0.0,1006.7,9.15,33.8,58,28.9,16.3,7,5,4,1,2026-04-05T18:34:25.018777+05:30
Thrissur,Kerala,10.5276,76.2144,29.9,75,0.0,1005.8,8.4,36.7,69,23.1,18.0,7,5,4,1,2026-04-05T18:34:25.018785+05:30
Kannur,Kerala,11.8745,75.3704,30.1,69,0.0,1006.1,9.2,38.5,68,21.3,14.0,3,5,4,1,2026-04-05T18:34:25.018792+05:30
Patna,Bihar,25.5941,85.1376,31.8,38,0.0,998.2,8.25,45.0,83,27.8,19.2,0,5,7,0,2026-04-05T18:34:25.018799+05:30
Gaya,Bihar,24.7914,85.0002,31.2,39,0.0,992.2,8.35,41.4,93,34.2,23.3,0,5,7,0,2026-04-05T18:34:25.018806+05:30
Muzaffarpur,Bihar,26.1209,85.3647,30.7,38,0.0,997.9,8.2,33.5,71,26.0,16.8,0,5,7,0,2026-04-05T18:34:25.018813+05:30
Bhagalpur,Bihar,25.2425,87.0117,30.4,53,0.0,998.4,8.35,30.2,98,23.1,18.4,0,5,7,1,2026-04-05T18:34:25.018820+05:30
Ranchi,Jharkhand,23.3441,85.3096,25.5,62,0.0,937.5,8.95,45.7,105,33.9,24.8,7,5,7,1,2026-04-05T18:34:25.018827+05:30
Jamshedpur,Jharkhand,22.8046,86.2029,31.6,47,0.0,989.3,8.4,18.0,143,44.8,33.9,0,5,7,1,2026-04-05T18:34:25.018834+05:30
Dhanbad,Jharkhand,23.7957,86.4304,32.0,37,0.0,978.1,8.7,37.4,104,54.7,45.6,0,5,7,0,2026-04-05T18:34:25.018841+05:30
Bokaro,Jharkhand,23.6693,86.1511,29.5,51,0.0,982.4,8.7,38.2,114,54.7,42.7,4,5,7,1,2026-04-05T18:34:25.018848+05:30
Bhubaneswar,Odisha,20.2961,85.8245,28.2,81,0.0,1001.5,8.65,26.3,176,35.5,32.6,7,5,4,1,2026-04-05T18:34:25.018855+05:30
Cuttack,Odisha,20.4625,85.8828,28.3,79,0.0,1003.4,8.7,25.2,176,35.5,32.6,7,5,4,1,2026-04-05T18:34:25.018862+05:30
Rourkela,Odisha,22.2604,84.8536,29.1,58,0.0,984.7,8.7,29.9,132,51.0,40.5,4,5,7,1,2026-04-05T18:34:25.018869+05:30
Raipur,Chhattisgarh,21.2514,81.6296,32.3,41,0.0,972.9,8.75,30.2,168,56.5,47.7,0,5,7,1,2026-04-05T18:34:25.018876+05:30
Bhilai,Chhattisgarh,21.1938,81.3509,32.2,42,0.0,973.0,8.7,32.0,150,45.5,37.8,0,5,7,1,2026-04-05T18:34:25.018883+05:30
Guwahati,Assam,26.1158,91.7086,27.7,61,0.0,997.9,7.45,44.6,134,22.5,15.8,7,5,7,1,2026-04-05T18:34:25.018890+05:30
Agartala,Tripura,23.8315,91.2868,27.6,82,0.0,1004.2,8.4,31.7,163,57.7,49.7,7,5,4,1,2026-04-05T18:34:25.018897+05:30
Shillong,Meghalaya,25.5788,91.8933,15.7,73,0.0,854.3,8.1,67.0,108,31.4,26.4,3,5,7,0,2026-04-05T18:34:25.018904+05:30
Imphal,Manipur,24.817,93.9368,20.4,79,0.0,921.9,8.85,83.9,148,50.1,43.3,3,5,7,1,2026-04-05T18:34:25.018911+05:30
Aizawl,Mizoram,23.7271,92.7176,20.8,79,0.0,891.8,8.5,51.8,149,47.4,42.5,3,5,7,1,2026-04-05T18:34:25.018918+05:30
Kohima,Nagaland,25.6701,94.1077,18.1,77,0.0,853.8,8.2,95.0,110,41.3,34.8,3,5,7,0,2026-04-05T18:34:25.018925+05:30
Gangtok,Sikkim,27.3314,88.6138,15.3,85,0.0,835.5,8.25,24.5,105,34.0,25.7,3,10,7,0,2026-04-05T18:34:25.018932+05:30
Siliguri,West Bengal,26.7271,88.3953,24.9,60,0.0,991.4,8.2,36.4,154,44.7,34.6,0,5,7,1,2026-04-05T18:34:28.333035+05:30
Durgapur,West Bengal,23.5204,87.3119,30.4,49,0.0,993.3,7.7,38.2,110,49.5,43.5,0,5,7,1,2026-04-05T18:34:28.333119+05:30
Asansol,West Bengal,23.6739,86.9524,31.1,48,0.0,991.6,8.05,36.0,98,45.1,37.8,0,5,7,1,2026-04-05T18:34:28.333135+05:30
Pondicherry,Puducherry,11.9139,79.8145,31.4,70,0.0,1005.3,9.35,27.0,127,23.5,18.3,3,5,4,1,2026-04-05T18:34:28.333143+05:30
Port Blair,Andaman and Nicobar Islands,11.6234,92.7265,29.1,72,0.0,1006.6,9.25,22.7,36,8.2,5.8,7,5,4,1,2026-04-05T18:34:28.333151+05:30
Haridwar,Uttarakhand,29.9457,78.1642,27.7,31,0.0,972.4,6.7,27.7,87,32.4,17.2,4,5,7,0,2026-04-05T18:34:28.333159+05:30
Rishikesh,Uttarakhand,30.0869,78.2676,26.6,35,0.0,965.2,6.7,27.7,82,24.4,11.8,4,5,7,0,2026-04-05T18:34:28.333167+05:30
Nainital,Uttarakhand,29.3919,79.4542,18.5,49,0.0,804.8,6.8,31.7,91,33.8,18.7,0,5,7,0,2026-04-05T18:34:28.333175+05:30
Mussoorie,Uttarakhand,30.4599,78.0664,16.5,55,0.0,800.8,6.3,45.7,88,27.9,14.1,0,5,7,0,2026-04-05T18:34:28.333181+05:30
Dharamshala,Himachal Pradesh,32.219,76.3234,18.2,67,0.0,867.6,7.3,32.8,72,12.4,5.3,3,5,7,0,2026-04-05T18:34:28.333258+05:30
Dalhousie,Himachal Pradesh,32.5387,75.971,16.0,59,0.0,801.9,7.55,25.2,80,40.7,19.0,0,5,7,0,2026-04-05T18:34:28.333275+05:30
Patiala,Punjab,30.3398,76.3869,27.4,32,0.0,977.4,6.75,33.5,113,100.1,28.5,4,5,7,0,2026-04-05T18:34:28.333284+05:30
Bhatinda,Punjab,30.211,74.9455,26.9,36,0.0,983.2,7.35,30.2,112,36.7,19.5,4,5,7,0,2026-04-05T18:34:28.333291+05:30
Rohtak,Haryana,28.8955,76.6066,27.6,35,0.0,980.9,3.9,36.7,151,358.6,51.8,4,5,3,0,2026-04-05T18:34:28.333298+05:30
Panipat,Haryana,29.3909,76.9635,27.2,38,0.0,979.4,6.75,32.0,199,504.8,65.2,4,5,7,0,2026-04-05T18:34:28.333305+05:30
Mathura,Uttar Pradesh,27.4924,77.6737,24.5,64,0.0,986.1,5.8,31.3,226,229.1,46.7,3,5,3,1,2026-04-05T18:34:28.333311+05:30
Vrindavan,Uttar Pradesh,27.5823,77.7027,25.7,59,0.0,986.7,6.05,31.0,226,229.1,46.7,4,5,7,1,2026-04-05T18:34:28.333318+05:30
Ayodhya,Uttar Pradesh,26.7922,82.1998,28.8,41,0.0,994.5,7.6,46.1,100,43.8,21.8,4,5,7,0,2026-04-05T18:34:28.333324+05:30
Ratlam,Madhya Pradesh,23.3315,75.0367,28.4,30,0.0,954.1,7.85,33.5,96,15.4,7.4,4,5,7,0,2026-04-05T18:34:28.333332+05:30
Sagar,Madhya Pradesh,23.8388,78.7378,30.1,22,0.0,948.5,7.9,33.1,96,23.8,8.0,0,5,7,0,2026-04-05T18:34:28.333338+05:30
Satna,Madhya Pradesh,24.6005,80.8322,30.8,28,0.0,969.4,8.35,30.6,74,18.6,11.0,0,5,7,0,2026-04-05T18:34:28.333344+05:30
Akola,Maharashtra,20.7002,77.0082,33.4,26,0.0,973.3,8.65,36.4,80,30.2,18.5,0,5,7,0,2026-04-05T18:34:28.333351+05:30
Amravati,Maharashtra,20.9374,77.7796,33.8,22,0.0,965.0,8.65,34.9,79,27.7,17.2,0,5,7,0,2026-04-05T18:34:28.333359+05:30
Latur,Maharashtra,18.4088,76.5604,32.1,24,0.0,938.2,9.0,30.2,85,24.6,15.9,0,5,7,0,2026-04-05T18:34:28.333365+05:30
Nanded,Maharashtra,19.1383,77.3091,33.4,26,0.0,966.6,8.85,28.4,96,29.9,16.5,0,5,7,0,2026-04-05T18:34:28.333371+05:30
Gulbarga,Karnataka,17.3297,76.8343,34.6,25,0.0,957.0,9.0,34.6,91,24.0,15.5,0,5,7,0,2026-04-05T18:34:28.333377+05:30
Bidar,Karnataka,17.9104,77.5199,33.5,25,0.0,934.1,9.0,33.5,112,31.5,20.0,0,5,7,0,2026-04-05T18:34:28.333383+05:30
Hospet,Karnataka,15.2689,76.3909,34.4,28,0.0,954.1,9.2,29.2,107,21.0,18.1,0,5,7,0,2026-04-05T18:34:28.333389+05:30
Tirupur,Tamil Nadu,11.1085,77.3411,31.7,53,0.0,973.3,9.55,32.0,125,30.6,27.5,0,5,7,1,2026-04-05T18:34:28.333395+05:30
Alappuzha,Kerala,9.4981,76.3388,29.7,79,0.0,1007.7,8.9,30.6,69,20.7,15.3,7,5,4,1,2026-04-05T18:34:28.333401+05:30
Munnar,Kerala,10.0889,77.0595,22.8,86,0.0,856.9,9.75,38.5,59,20.5,18.8,3,5,7,1,2026-04-05T18:34:28.333408+05:30
Silchar,Assam,24.8333,92.7789,24.5,87,0.0,1003.3,8.4,33.1,156,69.4,62.2,3,5,4,1,2026-04-05T18:34:28.333415+05:30
Dibrugarh,Assam,27.4728,94.912,22.8,91,0.0,992.6,7.5,49.3,145,49.7,40.9,3,5,7,1,2026-04-05T18:34:28.333421+05:30
