city,state,latitude,longitude,temp,humidity,rain,pressure,uv_index,wind_gusts,aqi,pm10,pm2_5,no2,co,o3,so2,mosquito_risk,arthritis_risk,migraine_risk,frizz_risk,updated_at
Delhi,Delhi,28.6139,77.209,35.0,41,0.0,979.9,7.75,25.6,212,332.5,118.3,40.1,600.0,125.0,44.7,0,5,7,1,2026-06-25T09:22:11.228784+05:30
Mumbai,Maharashtra,19.076,72.8777,27.4,82,0.0,1007.6,4.5,38.5,53,30.9,14.5,11.9,242.0,48.0,13.2,7,5,0,1,2026-06-25T09:22:11.228830+05:30
Bangalore,Karnataka,12.9716,77.5946,24.9,67,0.1,912.7,8.5,57.2,27,7.2,5.1,8.1,341.0,39.0,4.0,6,5,7,1,2026-06-25T09:22:11.228846+05:30
Hyderabad,Telangana,17.385,78.4867,27.5,66,0.0,952.2,7.4,46.1,22,17.6,8.5,5.8,305.0,52.0,4.6,7,5,7,1,2026-06-25T09:22:11.228855+05:30
Chennai,Tamil Nadu,13.0827,80.2707,32.1,53,0.0,1006.6,8.2,43.9,60,16.9,13.5,13.9,444.0,49.0,12.5,0,5,4,1,2026-06-25T09:22:11.228863+05:30
Kolkata,West Bengal,22.5726,88.3639,31.9,78,0.0,1003.0,8.6,35.3,139,34.9,34.0,7.8,698.0,133.0,16.7,3,5,4,1,2026-06-25T09:22:11.228870+05:30
Pune,Maharashtra,18.5204,73.8567,26.1,74,0.0,947.3,1.4,41.4,33,5.8,4.1,6.8,169.0,47.0,6.1,7,5,3,1,2026-06-25T09:22:11.228877+05:30
Ahmedabad,Gujarat,23.0225,72.5714,32.4,53,0.0,999.8,8.0,38.9,70,53.1,21.1,4.1,145.0,49.0,4.9,0,5,7,1,2026-06-25T09:22:11.228884+05:30
Jaipur,Rajasthan,26.9124,75.7873,31.7,50,0.0,957.3,8.2,28.8,133,133.6,43.0,10.1,212.0,64.0,8.5,0,5,7,1,2026-06-25T09:22:11.228890+05:30
Lucknow,Uttar Pradesh,26.8467,80.9462,35.4,45,0.0,990.2,8.3,34.2,158,299.0,75.4,12.5,342.0,125.0,14.0,0,5,10,1,2026-06-25T09:22:11.228901+05:30
Kanpur,Uttar Pradesh,26.4499,80.3319,34.2,45,0.0,988.4,8.3,45.0,152,257.0,63.3,11.5,251.0,107.0,10.6,0,5,7,1,2026-06-25T09:22:11.228908+05:30
Chandigarh,Chandigarh,30.7333,76.7794,33.1,46,0.0,966.5,7.8,22.0,153,141.6,57.5,8.9,573.0,183.0,22.9,0,5,7,1,2026-06-25T09:22:11.228915+05:30
Srinagar,Jammu and Kashmir,34.0837,74.7973,23.1,61,0.0,842.5,9.1,23.8,71,26.8,24.0,7.4,487.0,104.0,4.4,3,5,7,0,2026-06-25T09:22:11.228921+05:30
Jammu,Jammu and Kashmir,32.7266,74.857,31.1,53,0.0,970.5,8.65,23.4,92,28.5,22.1,9.9,312.0,133.0,4.5,0,5,7,1,2026-06-25T09:22:11.228928+05:30
Amritsar,Punjab,31.634,74.8723,28.5,76,0.0,978.4,8.45,52.9,134,90.6,53.4,15.4,380.0,102.0,10.8,7,5,7,1,2026-06-25T09:22:11.228934+05:30
Ludhiana,Punjab,30.901,75.8573,32.2,53,0.0,976.2,8.05,24.5,165,274.7,100.8,19.6,419.0,128.0,16.1,0,5,7,1,2026-06-25T09:22:11.228940+05:30
Jalandhar,Punjab,31.326,75.5762,28.1,81,0.2,977.3,8.25,45.0,146,165.3,77.5,16.0,424.0,127.0,14.3,10,5,7,1,2026-06-25T09:22:11.228946+05:30
Dehradun,Uttarakhand,30.6284,78.0322,23.2,64,0.0,832.1,7.3,24.5,76,16.9,16.4,2.4,213.0,144.0,2.1,3,5,7,1,2026-06-25T09:22:11.228953+05:30
Shimla,Himachal Pradesh,31.1048,77.1734,20.7,53,0.0,786.9,6.5,28.1,92,18.6,18.3,2.2,249.0,145.0,1.6,0,5,7,0,2026-06-25T09:22:11.228959+05:30
Manali,Himachal Pradesh,32.2396,77.1887,22.6,59,0.0,820.7,8.5,31.0,39,2.3,2.1,14.5,181.0,73.0,0.1,0,5,7,0,2026-06-25T09:22:11.228967+05:30
Gurgaon,Haryana,28.4595,77.0266,33.9,47,0.0,978.4,7.8,19.4,535,251.5,94.8,42.7,522.0,67.0,31.2,0,5,7,1,2026-06-25T09:22:11.228973+05:30
Noida,Uttar Pradesh,28.5355,77.391,33.3,56,0.0,981.2,7.8,22.3,535,251.5,94.8,42.7,770.0,67.0,31.2,0,5,7,1,2026-06-25T09:22:11.228981+05:30
Ghaziabad,Uttar Pradesh,28.6692,77.4538,33.1,59,0.0,979.6,7.75,16.9,224,379.0,122.0,19.3,806.0,156.0,14.3,0,5,7,1,2026-06-25T09:22:11.228987+05:30
Faridabad,Haryana,28.4089,77.3178,33.3,54,0.0,980.6,7.8,19.4,535,251.5,94.8,42.7,479.0,67.0,31.2,0,5,7,1,2026-06-25T09:22:11.228993+05:30
Meerut,Uttar Pradesh,28.9845,77.7064,33.6,52,0.0,978.6,7.1,22.3,224,379.0,122.0,19.3,539.0,156.0,14.3,0,5,7,1,2026-06-25T09:22:11.229002+05:30
Agra,Uttar Pradesh,27.1767,78.0081,34.0,45,0.0,984.2,6.5,29.2,217,235.2,61.9,13.8,245.0,85.0,8.6,0,5,7,1,2026-06-25T09:22:11.229008+05:30
Varanasi,Uttar Pradesh,25.3176,82.9739,34.2,52,0.0,994.2,8.2,37.4,114,45.2,27.1,6.8,263.0,101.0,9.4,0,5,7,1,2026-06-25T09:22:11.229015+05:30
Prayagraj,Uttar Pradesh,25.4358,81.8463,33.5,52,0.0,992.9,8.3,34.6,126,40.4,25.9,6.3,215.0,99.0,8.0,0,5,7,1,2026-06-25T09:22:11.229021+05:30
Gorakhpur,Uttar Pradesh,26.7606,83.3732,34.3,53,0.0,993.9,8.65,25.9,159,132.2,84.1,13.7,612.0,155.0,17.0,0,5,7,1,2026-06-25T09:22:11.229027+05:30
Bareilly,Uttar Pradesh,28.367,79.4304,35.3,44,0.0,983.6,8.1,22.3,170,195.6,85.9,13.3,380.0,168.0,22.0,0,5,10,1,2026-06-25T09:22:11.229035+05:30
Aligarh,Uttar Pradesh,27.8974,78.088,33.9,45,0.0,982.2,7.95,19.4,421,305.5,99.0,24.2,411.0,79.0,12.4,0,5,7,1,2026-06-25T09:22:11.229041+05:30
Moradabad,Uttar Pradesh,28.8386,78.7733,35.1,44,0.0,980.5,7.8,24.8,184,171.8,81.0,14.4,434.0,177.0,21.2,0,5,10,1,2026-06-25T09:22:11.229047+05:30
Saharanpur,Uttar Pradesh,29.9637,77.546,32.9,52,0.0,973.1,7.2,22.7,156,83.1,50.3,10.6,426.0,178.0,15.3,0,5,7,1,2026-06-25T09:22:11.229053+05:30
Jhansi,Uttar Pradesh,25.4484,78.5685,31.9,55,0.0,975.3,8.2,39.2,78,44.6,26.5,4.7,180.0,80.0,7.6,0,5,7,1,2026-06-25T09:22:14.520027+05:30
Surat,Gujarat,21.1702,72.8311,30.3,70,0.1,1005.0,7.6,43.6,75,47.5,26.3,20.9,389.0,28.0,56.8,6,5,4,1,2026-06-25T09:22:14.520061+05:30
Vadodara,Gujarat,22.3072,73.1812,32.6,53,0.0,1002.2,8.0,45.0,74,46.3,20.7,5.5,160.0,45.0,5.6,0,5,4,1,2026-06-25T09:22:14.520073+05:30
Rajkot,Gujarat,22.3039,70.8022,31.9,57,0.0,991.9,7.55,45.0,68,46.0,17.8,3.2,110.0,50.0,4.7,0,5,7,1,2026-06-25T09:22:14.520082+05:30
Thane,Maharashtra,19.2183,72.9781,28.0,80,0.0,1007.0,5.15,33.1,53,30.9,14.5,11.9,237.0,48.0,13.2,7,5,0,1,2026-06-25T09:22:14.520091+05:30
Nagpur,Maharashtra,21.1458,79.0882,28.6,72,0.0,971.3,8.5,30.2,55,22.2,14.6,11.7,242.0,76.0,12.0,7,5,7,1,2026-06-25T09:22:14.520099+05:30
Nashik,Maharashtra,19.9975,73.7898,25.6,78,0.0,944.4,7.65,41.4,51,10.4,6.0,8.5,174.0,42.0,11.2,7,5,7,1,2026-06-25T09:22:14.520107+05:30
Aurangabad,Maharashtra,19.8762,75.3433,24.8,82,0.0,943.0,1.25,45.0,62,18.6,9.1,6.8,148.0,41.0,10.4,3,5,3,1,2026-06-25T09:22:14.520115+05:30
Solapur,Maharashtra,17.6599,75.9064,28.5,62,0.0,956.9,1.0,40.7,20,10.7,5.7,3.6,127.0,54.0,2.5,7,5,3,1,2026-06-25T09:22:14.520124+05:30
Kolhapur,Maharashtra,16.705,74.2433,25.1,78,0.0,948.1,7.9,47.9,19,7.3,6.1,6.4,141.0,44.0,2.1,7,5,7,1,2026-06-25T09:22:14.520132+05:30
Goa,Goa,15.2993,74.124,25.8,93,0.1,999.4,4.15,32.8,48,11.8,7.0,2.3,178.0,51.0,1.0,10,5,3,1,2026-06-25T09:22:14.520140+05:30
Jodhpur,Rajasthan,26.2389,73.0243,31.5,62,0.0,979.8,8.35,37.1,148,311.1,68.0,2.0,113.0,50.0,3.5,3,5,7,1,2026-06-25T09:22:14.520148+05:30
Udaipur,Rajasthan,24.5854,73.7125,29.8,60,0.0,944.4,8.8,32.8,74,34.0,17.3,1.9,123.0,52.0,2.6,4,5,7,1,2026-06-25T09:22:14.520156+05:30
Kota,Rajasthan,25.2138,75.8648,31.9,58,0.0,976.0,8.3,36.7,87,39.5,25.8,6.6,182.0,65.0,10.7,0,5,7,1,2026-06-25T09:22:14.520164+05:30
Bikaner,Rajasthan,28.0229,73.3119,33.7,48,0.0,977.9,8.45,32.0,151,434.9,115.5,1.7,134.0,66.0,3.4,0,5,7,1,2026-06-25T09:22:14.520171+05:30
Ajmer,Rajasthan,26.4499,74.6399,28.9,62,0.0,952.4,8.3,40.7,95,129.5,39.2,3.3,139.0,57.0,3.8,7,5,7,1,2026-06-25T09:22:14.520179+05:30
Gwalior,Madhya Pradesh,26.2183,78.1828,34.2,46,0.0,980.0,8.25,38.5,84,73.1,30.9,4.6,182.0,83.0,5.9,0,5,7,1,2026-06-25T09:22:14.520187+05:30
Indore,Madhya Pradesh,22.7196,75.8577,28.1,69,0.0,946.4,2.45,36.0,75,33.3,19.8,6.8,248.0,45.0,10.9,7,5,3,1,2026-06-25T09:22:14.520195+05:30
Bhopal,Madhya Pradesh,23.2599,77.4126,28.2,72,0.0,951.8,8.55,26.6,71,41.3,25.8,6.6,308.0,75.0,7.3,7,5,7,1,2026-06-25T09:22:14.520203+05:30
Jabalpur,Madhya Pradesh,23.1815,79.9864,29.4,67,0.0,960.0,8.85,25.9,60,36.1,21.4,3.9,224.0,97.0,4.1,7,5,7,1,2026-06-25T09:22:14.520210+05:30
Ujjain,Madhya Pradesh,23.1765,75.7885,29.1,66,0.0,952.0,3.65,37.1,78,37.0,20.8,5.0,163.0,50.0,11.1,7,5,3,1,2026-06-25T09:22:14.520218+05:30
Visakhapatnam,Andhra Pradesh,17.6868,83.2185,33.2,53,0.0,1000.5,8.75,30.2,68,25.0,21.6,20.3,364.0,63.0,49.5,0,5,4,1,2026-06-25T09:22:14.520225+05:30
Vijayawada,Andhra Pradesh,16.5062,80.648,31.5,59,0.0,1001.2,8.55,40.0,55,13.5,11.9,8.2,181.0,56.0,9.4,0,5,4,1,2026-06-25T09:22:14.520233+05:30
Guntur,Andhra Pradesh,16.3067,80.4365,31.8,56,0.0,1002.4,8.4,37.1,50,11.2,9.3,7.4,174.0,52.0,9.1,0,5,4,1,2026-06-25T09:22:14.520240+05:30
Nellore,Andhra Pradesh,14.4426,79.9865,32.7,52,0.0,1004.8,8.05,46.8,31,9.4,5.9,4.2,122.0,46.0,5.6,0,5,4,1,2026-06-25T09:22:14.520249+05:30
Kurnool,Andhra Pradesh,15.8281,78.0373,29.4,62,0.0,976.5,6.0,47.5,25,7.9,4.7,3.2,115.0,49.0,3.0,7,5,3,1,2026-06-25T09:22:14.520258+05:30
Kakinada,Andhra Pradesh,16.9891,82.2475,31.5,60,0.0,1005.1,8.15,39.6,56,24.3,18.3,6.3,255.0,89.0,7.0,0,5,4,1,2026-06-25T09:22:14.520266+05:30
Tirupati,Andhra Pradesh,13.6288,79.4192,31.6,53,0.0,990.7,8.25,42.1,40,10.7,6.5,3.3,127.0,57.0,2.1,0,5,7,1,2026-06-25T09:22:14.520273+05:30
Warangal,Telangana,17.9689,79.5941,30.0,58,0.0,977.3,5.5,35.6,46,29.9,18.7,6.7,205.0,61.0,5.4,4,5,3,1,2026-06-25T09:22:14.520281+05:30
Nizamabad,Telangana,18.6725,78.0941,29.2,59,0.0,963.5,6.4,39.2,52,24.8,15.8,10.4,264.0,48.0,6.1,4,5,7,1,2026-06-25T09:22:14.520287+05:30
Mysore,Karnataka,12.2958,76.6396,25.8,70,0.0,929.8,8.5,47.9,20,5.5,3.6,4.3,138.0,44.0,2.0,7,5,7,1,2026-06-25T09:22:14.520293+05:30
Mangalore,Karnataka,12.9141,74.856,26.3,86,0.1,1009.0,8.65,32.4,44,12.8,8.5,5.8,191.0,42.0,2.8,10,0,4,1,2026-06-25T09:22:14.520299+05:30
Hubli-Dharwad,Karnataka,15.3647,75.124,24.1,82,0.0,941.4,6.4,51.8,21,2.6,2.1,4.5,114.0,44.0,1.2,3,5,7,1,2026-06-25T09:22:14.520306+05:30
Belgaum,Karnataka,15.8497,74.4977,24.4,78,0.0,926.3,2.35,47.9,18,2.2,2.1,5.9,148.0,40.0,1.8,3,5,3,1,2026-06-25T09:22:17.799813+05:30
Coimbatore,Tamil Nadu,11.0168,76.9558,28.7,63,0.0,962.9,7.6,51.8,25,6.8,5.2,5.0,198.0,48.0,3.3,7,5,7,1,2026-06-25T09:22:17.799843+05:30
Madurai,Tamil Nadu,9.9252,78.1198,32.8,46,0.0,993.6,8.65,33.8,69,15.9,14.3,15.3,157.0,54.0,8.8,0,5,7,1,2026-06-25T09:22:17.799854+05:30
Trichy,Tamil Nadu,10.7905,78.7047,31.6,54,0.0,999.9,8.45,53.6,40,5.1,4.3,3.7,137.0,51.0,3.2,0,5,7,1,2026-06-25T09:22:17.799862+05:30
Salem,Tamil Nadu,11.6643,78.146,28.4,69,0.0,978.5,8.85,37.4,56,13.7,12.2,13.6,219.0,41.0,13.7,7,5,7,1,2026-06-25T09:22:17.799871+05:30
Tirunelveli,Tamil Nadu,8.7139,77.7567,32.8,51,0.0,1004.1,8.2,45.4,19,4.3,3.6,4.0,130.0,45.0,2.1,0,5,4,1,2026-06-25T09:22:17.799879+05:30
Vellore,Tamil Nadu,12.9165,79.1325,30.3,57,0.0,984.5,8.4,43.6,46,9.2,6.7,4.6,149.0,54.0,4.0,0,5,7,1,2026-06-25T09:22:17.799887+05:30
Erode,Tamil Nadu,11.341,77.7172,30.7,56,0.0,990.1,8.7,38.9,45,8.8,7.9,8.8,190.0,41.0,4.3,0,5,7,1,2026-06-25T09:22:17.799894+05:30
Kochi,Kerala,9.9312,76.2673,28.6,80,0.0,1010.6,8.55,38.5,38,11.6,9.9,10.8,144.0,33.0,4.3,7,0,4,1,2026-06-25T09:22:17.799901+05:30
Thiruvananthapuram,Kerala,8.5241,76.9366,28.0,81,0.0,1010.1,8.25,55.4,28,10.1,6.9,3.8,160.0,48.0,2.3,7,0,4,1,2026-06-25T09:22:17.799907+05:30
Kozhikode,Kerala,11.2588,75.7804,25.6,85,0.0,1010.4,8.0,31.3,24,6.2,3.8,1.6,159.0,51.0,1.2,7,0,4,1,2026-06-25T09:22:17.799913+05:30
Thrissur,Kerala,10.5276,76.2144,27.2,85,0.1,1009.3,8.2,35.6,39,13.3,11.6,9.9,189.0,33.0,3.9,10,0,4,1,2026-06-25T09:22:17.799921+05:30
Kannur,Kerala,11.8745,75.3704,26.5,87,0.0,1009.5,8.45,35.3,27,9.2,6.3,5.1,164.0,46.0,2.4,7,0,4,1,2026-06-25T09:22:17.799927+05:30
Patna,Bihar,25.5941,85.1376,34.4,54,0.0,997.1,8.85,22.0,151,38.0,30.5,15.4,353.0,92.0,24.2,0,5,7,1,2026-06-25T09:22:17.799934+05:30
Gaya,Bihar,24.7914,85.0002,33.8,54,0.0,990.8,8.65,21.6,92,19.9,17.9,6.8,236.0,110.0,14.2,0,5,7,1,2026-06-25T09:22:17.799941+05:30
Muzaffarpur,Bihar,26.1209,85.3647,32.0,70,0.0,997.3,8.85,29.2,158,71.5,57.3,13.6,623.0,127.0,21.4,3,5,7,1,2026-06-25T09:22:17.799950+05:30
Bhagalpur,Bihar,25.2425,87.0117,34.2,58,0.0,998.1,8.85,25.9,154,77.3,61.5,10.4,541.0,144.0,21.6,0,5,7,1,2026-06-25T09:22:17.799958+05:30
Ranchi,Jharkhand,23.3441,85.3096,29.8,60,0.0,936.4,9.25,22.7,78,23.2,23.1,5.1,211.0,114.0,20.6,4,5,7,1,2026-06-25T09:22:17.799965+05:30
Jamshedpur,Jharkhand,22.8046,86.2029,32.4,66,0.0,988.2,9.05,37.1,98,27.5,27.3,11.5,414.0,108.0,40.7,3,5,7,1,2026-06-25T09:22:17.799971+05:30
Dhanbad,Jharkhand,23.7957,86.4304,33.9,54,0.0,977.2,9.05,23.0,144,42.4,42.3,31.6,324.0,97.0,86.8,0,5,7,1,2026-06-25T09:22:17.799977+05:30
Bokaro,Jharkhand,23.6693,86.1511,34.1,52,0.0,981.0,9.1,26.6,118,32.7,32.5,19.0,288.0,111.0,55.9,0,5,7,1,2026-06-25T09:22:17.799983+05:30
Bhubaneswar,Odisha,20.2961,85.8245,28.6,87,0.2,999.8,9.05,35.3,82,22.0,21.2,7.4,335.0,118.0,15.7,10,5,7,1,2026-06-25T09:22:17.799989+05:30
Cuttack,Odisha,20.4625,85.8828,29.0,82,0.0,1002.0,9.15,35.6,82,22.0,21.2,7.4,352.0,118.0,15.7,7,5,4,1,2026-06-25T09:22:17.799996+05:30
Rourkela,Odisha,22.2604,84.8536,32.6,59,0.0,982.5,9.0,32.8,90,20.1,20.0,11.0,327.0,85.0,27.5,0,5,7,1,2026-06-25T09:22:17.800002+05:30
Raipur,Chhattisgarh,21.2514,81.6296,32.7,51,0.0,972.5,8.9,31.0,68,23.1,23.0,26.2,528.0,66.0,61.2,0,5,7,1,2026-06-25T09:22:17.800009+05:30
Bhilai,Chhattisgarh,21.1938,81.3509,31.7,54,0.0,973.0,8.9,34.2,63,21.0,21.0,22.3,813.0,71.0,57.1,0,5,7,1,2026-06-25T09:22:17.800015+05:30
Guwahati,Assam,26.1158,91.7086,29.4,76,0.0,999.7,8.8,21.6,65,18.0,12.8,2.7,322.0,124.0,5.1,7,5,7,1,2026-06-25T09:22:17.800022+05:30
Agartala,Tripura,23.8315,91.2868,28.1,82,0.0,1004.5,8.8,27.0,76,29.0,21.5,6.7,216.0,99.0,4.3,7,5,4,1,2026-06-25T09:22:17.800028+05:30
Shillong,Meghalaya,25.5788,91.8933,25.6,57,0.0,858.0,7.05,17.6,42,13.6,8.8,2.9,279.0,120.0,5.9,4,5,7,1,2026-06-25T09:22:17.800034+05:30
Imphal,Manipur,24.817,93.9368,27.0,79,0.0,922.0,8.9,22.7,50,13.2,7.6,2.1,233.0,104.0,3.1,7,5,7,1,2026-06-25T09:22:17.800041+05:30
Aizawl,Mizoram,23.7271,92.7176,22.1,90,0.0,891.8,8.65,20.5,36,43.8,16.8,1.4,175.0,99.0,2.6,3,5,7,1,2026-06-25T09:22:17.800047+05:30
Kohima,Nagaland,25.6701,94.1077,24.0,72,0.0,855.8,7.65,23.0,32,10.9,6.0,1.0,197.0,114.0,2.1,3,5,7,1,2026-06-25T09:22:17.800053+05:30
Gangtok,Sikkim,27.3314,88.6138,23.3,67,0.0,838.9,8.5,37.4,38,11.3,7.3,2.0,316.0,133.0,3.1,3,5,7,1,2026-06-25T09:22:17.800060+05:30
Siliguri,West Bengal,26.7271,88.3953,28.4,77,0.0,991.5,8.7,27.0,92,41.1,29.6,4.9,476.0,167.0,6.3,7,5,7,1,2026-06-25T09:22:21.081550+05:30
Durgapur,West Bengal,23.5204,87.3119,33.1,71,0.0,991.9,8.8,50.8,157,53.1,53.0,39.3,824.0,86.0,97.5,3,5,7,1,2026-06-25T09:22:21.081585+05:30
Asansol,West Bengal,23.6739,86.9524,33.7,64,0.0,990.5,8.85,34.9,150,45.6,45.5,33.5,727.0,91.0,86.1,3,5,7,1,2026-06-25T09:22:21.081598+05:30
Pondicherry,Puducherry,11.9139,79.8145,31.9,54,0.0,1008.2,7.85,40.7,63,20.4,17.6,12.5,285.0,57.0,8.3,0,0,4,1,2026-06-25T09:22:21.081607+05:30
Port Blair,Andaman and Nicobar Islands,11.6234,92.7265,29.1,78,0.0,1007.3,6.85,45.0,30,10.0,6.1,0.4,94.0,55.0,0.4,7,5,4,1,2026-06-25T09:22:21.081615+05:30
Haridwar,Uttarakhand,29.9457,78.1642,32.6,53,0.0,971.5,7.05,25.2,136,58.8,39.7,4.9,301.0,180.0,11.6,0,5,7,1,2026-06-25T09:22:21.081623+05:30
Rishikesh,Uttarakhand,30.0869,78.2676,31.6,53,0.0,964.5,7.15,19.4,99,45.2,30.9,2.4,289.0,173.0,8.2,0,5,7,1,2026-06-25T09:22:21.081630+05:30
Nainital,Uttarakhand,29.3919,79.4542,22.1,57,0.0,808.0,6.2,29.2,112,90.8,34.1,2.1,251.0,162.0,5.1,0,5,7,0,2026-06-25T09:22:21.081637+05:30
Mussoorie,Uttarakhand,30.4599,78.0664,21.1,65,0.0,805.0,6.35,30.6,97,31.1,26.7,3.8,272.0,169.0,6.9,3,5,7,0,2026-06-25T09:22:21.081644+05:30
Dharamshala,Himachal Pradesh,32.219,76.3234,25.1,61,0.0,869.5,8.35,39.2,45,9.7,7.2,2.1,283.0,117.0,0.9,7,5,7,1,2026-06-25T09:22:21.081651+05:30
Dalhousie,Himachal Pradesh,32.5387,75.971,22.5,58,0.0,806.6,8.4,30.2,79,25.2,17.8,4.0,289.0,145.0,2.3,0,5,7,0,2026-06-25T09:22:21.081659+05:30
Patiala,Punjab,30.3398,76.3869,32.9,55,0.0,975.6,7.7,20.2,255,267.3,87.5,11.6,468.0,137.0,12.6,0,5,7,1,2026-06-25T09:22:21.081666+05:30
Bhatinda,Punjab,30.211,74.9455,33.9,47,0.0,980.9,8.25,26.6,156,257.0,75.4,15.4,317.0,99.0,5.7,0,5,7,1,2026-06-25T09:22:21.081672+05:30
Rohtak,Haryana,28.8955,76.6066,33.1,52,0.0,978.9,7.75,18.7,226,314.8,100.4,33.3,365.0,86.0,17.7,0,5,7,1,2026-06-25T09:22:21.081679+05:30
Panipat,Haryana,29.3909,76.9635,32.8,52,0.0,977.6,6.25,19.8,519,543.9,133.6,23.5,605.0,123.0,20.3,0,5,7,1,2026-06-25T09:22:21.081685+05:30
Mathura,Uttar Pradesh,27.4924,77.6737,33.1,51,0.0,983.4,8.0,17.6,387,234.7,64.7,14.2,315.0,66.0,5.8,0,5,7,1,2026-06-25T09:22:21.081692+05:30
Vrindavan,Uttar Pradesh,27.5823,77.7027,33.0,51,0.0,983.8,8.0,16.9,387,234.7,64.7,14.2,317.0,66.0,5.8,0,5,7,1,2026-06-25T09:22:21.081699+05:30
Ayodhya,Uttar Pradesh,26.7922,82.1998,35.3,43,0.0,991.8,8.4,26.6,164,218.4,81.5,11.9,449.0,127.0,13.8,0,5,10,1,2026-06-25T09:22:21.081706+05:30
Ratlam,Madhya Pradesh,23.3315,75.0367,29.5,64,0.0,953.0,1.8,39.6,74,41.3,21.7,5.0,136.0,51.0,10.3,7,5,3,1,2026-06-25T09:22:21.081713+05:30
Sagar,Madhya Pradesh,23.8388,78.7378,28.4,67,0.0,948.4,8.25,37.8,72,41.4,23.0,3.7,217.0,87.0,3.4,7,5,7,1,2026-06-25T09:22:21.081719+05:30
Satna,Madhya Pradesh,24.6005,80.8322,31.7,59,0.0,969.3,8.35,26.3,82,39.2,22.4,3.4,207.0,98.0,4.9,0,5,7,1,2026-06-25T09:22:21.081726+05:30
Akola,Maharashtra,20.7002,77.0082,28.0,76,0.0,973.7,2.75,38.5,58,30.7,15.0,6.6,156.0,68.0,7.6,7,5,3,1,2026-06-25T09:22:21.081733+05:30
Amravati,Maharashtra,20.9374,77.7796,28.4,67,0.0,965.8,8.2,35.3,56,31.0,16.2,7.8,176.0,72.0,9.2,7,5,7,1,2026-06-25T09:22:21.081741+05:30
Latur,Maharashtra,18.4088,76.5604,27.8,63,0.0,939.1,4.7,46.8,37,25.9,9.6,4.6,145.0,50.0,4.0,7,5,3,1,2026-06-25T09:22:21.081748+05:30
Nanded,Maharashtra,19.1383,77.3091,27.8,69,0.0,967.4,8.3,41.0,53,34.1,18.7,7.0,171.0,62.0,9.7,7,5,7,1,2026-06-25T09:22:21.081755+05:30
Gulbarga,Karnataka,17.3297,76.8343,28.0,65,0.0,958.2,5.7,43.6,18,9.1,4.7,4.9,137.0,47.0,3.0,7,5,3,1,2026-06-25T09:22:21.081762+05:30
Bidar,Karnataka,17.9104,77.5199,27.7,62,0.0,934.6,7.3,42.8,32,20.2,8.8,6.7,162.0,47.0,4.1,7,5,7,1,2026-06-25T09:22:21.081768+05:30
Hospet,Karnataka,15.2689,76.3909,26.8,70,0.0,956.4,8.1,48.2,20,3.9,2.4,2.5,116.0,49.0,1.6,7,5,7,1,2026-06-25T09:22:21.081774+05:30
Tirupur,Tamil Nadu,11.1085,77.3411,30.2,57,0.0,976.3,8.65,50.8,51,11.2,9.9,9.5,158.0,43.0,5.4,0,5,7,1,2026-06-25T09:22:21.081780+05:30
Alappuzha,Kerala,9.4981,76.3388,28.3,79,0.0,1010.7,8.5,47.9,33,11.4,8.6,6.9,87.0,47.0,3.3,7,0,4,1,2026-06-25T09:22:21.081787+05:30
Munnar,Kerala,10.0889,77.0595,19.3,84,0.0,858.7,8.45,40.3,16,3.2,2.8,2.8,96.0,49.0,1.3,3,10,7,1,2026-06-25T09:22:21.081794+05:30
Silchar,Assam,24.8333,92.7789,29.5,76,0.1,1003.3,8.75,20.2,61,37.4,19.1,2.5,269.0,108.0,4.3,10,5,4,1,2026-06-25T09:22:21.081801+05:30
Dibrugarh,Assam,27.4728,94.912,30.8,75,0.0,993.0,8.7,20.9,53,10.4,8.4,2.0,263.0,123.0,1.6,3,5,7,1,2026-06-25T09:22:21.081807+05:30
