city,state,latitude,longitude,temp,humidity,rain,pressure,uv_index,wind_gusts,aqi,pm10,pm2_5,mosquito_risk,arthritis_risk,migraine_risk,frizz_risk,updated_at
Delhi,Delhi,28.6139,77.209,19.2,84,0.0,987.7,6.9,28.1,134,171.4,51.7,3,10,7,1,2026-04-08T22:36:48.928079+05:30
Mumbai,Maharashtra,19.076,72.8777,28.4,78,0.0,1010.3,7.9,20.2,77,69.2,18.7,7,0,4,1,2026-04-08T22:36:48.928126+05:30
Bangalore,Karnataka,12.9716,77.5946,27.8,37,0.0,913.5,9.6,25.2,95,54.7,53.3,4,5,7,0,2026-04-08T22:36:48.928142+05:30
Hyderabad,Telangana,17.385,78.4867,30.6,40,0.0,954.1,9.15,23.4,93,76.8,43.1,0,5,7,0,2026-04-08T22:36:48.928152+05:30
Chennai,Tamil Nadu,13.0827,80.2707,29.3,86,0.0,1009.1,9.35,35.6,77,24.3,18.9,7,0,4,1,2026-04-08T22:36:48.928160+05:30
Kolkata,West Bengal,22.5726,88.3639,24.4,90,0.0,1009.1,8.7,24.8,81,23.5,21.2,3,0,4,1,2026-04-08T22:36:48.928169+05:30
Pune,Maharashtra,18.5204,73.8567,24.2,84,0.0,950.3,8.5,41.0,74,48.0,21.4,3,5,7,1,2026-04-08T22:36:48.928180+05:30
Ahmedabad,Gujarat,23.0225,72.5714,27.9,47,0.0,1002.7,8.0,31.3,52,54.1,38.8,4,5,4,0,2026-04-08T22:36:48.928188+05:30
Jaipur,Rajasthan,26.9124,75.7873,23.3,57,0.0,961.8,7.65,35.6,113,227.7,44.0,0,5,7,0,2026-04-08T22:36:48.928195+05:30
Lucknow,Uttar Pradesh,26.8467,80.9462,21.0,75,0.0,998.9,6.95,41.0,99,56.5,40.0,3,5,7,1,2026-04-08T22:36:48.928203+05:30
Kanpur,Uttar Pradesh,26.4499,80.3319,20.7,78,0.0,996.7,7.45,35.3,120,309.2,57.5,3,5,7,1,2026-04-08T22:36:48.928210+05:30
Chandigarh,Chandigarh,30.7333,76.7794,17.7,90,0.0,974.0,6.85,30.6,69,44.6,37.7,3,10,7,0,2026-04-08T22:36:48.928218+05:30
Srinagar,Jammu and Kashmir,34.0837,74.7973,7.2,95,0.0,839.6,1.3,16.6,53,21.5,21.5,3,10,3,0,2026-04-08T22:36:48.928225+05:30
Jammu,Jammu and Kashmir,32.7266,74.857,15.7,88,0.0,977.1,7.3,27.7,62,38.3,34.3,3,10,7,0,2026-04-08T22:36:48.928233+05:30
Amritsar,Punjab,31.634,74.8723,16.3,87,0.0,985.6,7.45,18.0,96,38.9,28.1,3,10,7,0,2026-04-08T22:36:48.928240+05:30
Ludhiana,Punjab,30.901,75.8573,17.1,82,0.0,984.1,6.95,27.0,83,75.2,56.6,3,10,7,0,2026-04-08T22:36:48.928247+05:30
Jalandhar,Punjab,31.326,75.5762,17.0,86,0.0,985.0,7.05,25.9,86,56.7,39.5,3,10,7,0,2026-04-08T22:36:48.928256+05:30
Dehradun,Uttarakhand,30.6284,78.0322,8.4,88,0.0,829.6,6.1,42.5,69,6.6,4.8,3,10,7,0,2026-04-08T22:36:48.928263+05:30
Shimla,Himachal Pradesh,31.1048,77.1734,7.0,90,0.0,782.6,1.2,41.0,69,5.8,5.8,3,10,3,0,2026-04-08T22:36:48.928272+05:30
Manali,Himachal Pradesh,32.2396,77.1887,8.9,90,0.0,816.8,5.45,29.9,112,3.6,3.6,3,10,3,0,2026-04-08T22:36:48.928280+05:30
Gurgaon,Haryana,28.4595,77.0266,19.4,85,0.0,985.7,7.05,25.6,432,1426.8,175.6,3,10,7,1,2026-04-08T22:36:48.928287+05:30
Noida,Uttar Pradesh,28.5355,77.391,19.0,86,0.0,989.3,6.95,27.0,432,1426.8,175.6,3,10,7,1,2026-04-08T22:36:48.928294+05:30
Ghaziabad,Uttar Pradesh,28.6692,77.4538,18.2,89,0.0,987.5,6.9,25.6,106,58.8,42.6,3,10,7,1,2026-04-08T22:36:48.928300+05:30
Faridabad,Haryana,28.4089,77.3178,19.2,84,0.0,988.5,7.0,24.5,432,1426.8,175.6,3,10,7,1,2026-04-08T22:36:48.928306+05:30
Meerut,Uttar Pradesh,28.9845,77.7064,17.6,93,0.0,986.5,6.7,27.0,106,58.8,42.6,3,10,7,1,2026-04-08T22:36:48.928314+05:30
Agra,Uttar Pradesh,27.1767,78.0081,20.7,85,0.0,992.1,7.35,29.5,436,1691.3,190.9,3,5,7,1,2026-04-08T22:36:48.928321+05:30
Varanasi,Uttar Pradesh,25.3176,82.9739,22.5,70,0.0,1001.7,7.3,36.7,98,45.6,35.5,3,5,4,1,2026-04-08T22:36:48.928330+05:30
Prayagraj,Uttar Pradesh,25.4358,81.8463,23.5,67,0.0,999.9,8.0,33.8,113,41.1,31.1,3,5,7,1,2026-04-08T22:36:48.928337+05:30
Gorakhpur,Uttar Pradesh,26.7606,83.3732,19.2,78,0.0,1002.5,7.4,38.5,97,65.7,51.1,3,5,4,0,2026-04-08T22:36:48.928343+05:30
Bareilly,Uttar Pradesh,28.367,79.4304,17.8,93,0.0,992.5,7.15,31.7,95,57.9,32.0,3,10,7,1,2026-04-08T22:36:48.928350+05:30
Aligarh,Uttar Pradesh,27.8974,78.088,19.0,86,0.0,990.5,7.1,25.9,168,340.9,62.4,3,10,7,1,2026-04-08T22:36:48.928356+05:30
Moradabad,Uttar Pradesh,28.8386,78.7733,17.5,95,0.0,989.1,6.95,27.4,102,63.8,42.3,3,10,7,1,2026-04-08T22:36:48.928362+05:30
Saharanpur,Uttar Pradesh,29.9637,77.546,16.7,95,0.0,981.1,6.2,29.9,90,83.6,69.4,3,10,7,0,2026-04-08T22:36:48.928368+05:30
Jhansi,Uttar Pradesh,25.4484,78.5685,21.5,75,0.0,980.9,7.95,42.8,77,76.8,25.8,3,5,7,1,2026-04-08T22:36:52.208372+05:30
Surat,Gujarat,21.1702,72.8311,27.4,80,0.0,1008.1,7.7,38.5,68,46.9,21.7,7,0,4,1,2026-04-08T22:36:52.208402+05:30
Vadodara,Gujarat,22.3072,73.1812,27.6,78,0.0,1004.8,7.95,38.5,64,43.0,20.8,7,5,4,1,2026-04-08T22:36:52.208412+05:30
Rajkot,Gujarat,22.3039,70.8022,26.4,62,0.0,995.4,7.7,38.9,85,19.4,13.8,7,5,7,1,2026-04-08T22:36:52.208420+05:30
Thane,Maharashtra,19.2183,72.9781,27.5,80,0.0,1009.7,7.9,36.0,77,69.2,18.7,7,0,4,1,2026-04-08T22:36:52.208427+05:30
Nagpur,Maharashtra,21.1458,79.0882,26.5,56,0.0,973.5,8.7,37.8,85,68.2,37.6,4,5,7,1,2026-04-08T22:36:52.208434+05:30
Nashik,Maharashtra,19.9975,73.7898,23.0,87,0.0,947.1,8.2,42.1,65,36.1,14.1,3,5,7,1,2026-04-08T22:36:52.208441+05:30
Aurangabad,Maharashtra,19.8762,75.3433,26.3,45,0.0,945.4,8.85,46.1,63,42.5,20.9,4,5,7,0,2026-04-08T22:36:52.208448+05:30
Solapur,Maharashtra,17.6599,75.9064,30.2,36,0.0,958.0,8.95,29.9,74,35.5,19.0,0,5,7,0,2026-04-08T22:36:52.208456+05:30
Kolhapur,Maharashtra,16.705,74.2433,21.7,83,0.0,949.7,8.95,43.9,76,49.8,26.4,3,5,7,1,2026-04-08T22:36:52.208463+05:30
Goa,Goa,15.2993,74.124,27.7,79,0.0,1000.3,9.0,38.5,68,63.6,22.5,7,5,4,1,2026-04-08T22:36:52.208470+05:30
Jodhpur,Rajasthan,26.2389,73.0243,26.4,45,0.0,984.2,7.9,29.2,101,156.5,40.5,4,5,7,0,2026-04-08T22:36:52.208478+05:30
Udaipur,Rajasthan,24.5854,73.7125,23.5,47,0.0,947.6,8.5,36.0,85,48.2,16.7,0,5,7,0,2026-04-08T22:36:52.208484+05:30
Kota,Rajasthan,25.2138,75.8648,25.3,45,0.0,980.5,7.95,34.2,96,134.1,52.7,4,5,7,0,2026-04-08T22:36:52.208491+05:30
Bikaner,Rajasthan,28.0229,73.3119,25.7,34,0.0,984.3,7.7,30.2,69,67.3,18.7,4,5,7,0,2026-04-08T22:36:52.208498+05:30
Ajmer,Rajasthan,26.4499,74.6399,24.3,45,0.0,956.1,7.85,34.9,78,106.6,34.3,0,5,7,0,2026-04-08T22:36:52.208504+05:30
Gwalior,Madhya Pradesh,26.2183,78.1828,22.2,78,0.0,986.7,7.65,35.6,78,193.7,50.2,3,5,7,1,2026-04-08T22:36:52.208511+05:30
Indore,Madhya Pradesh,22.7196,75.8577,22.9,59,0.0,949.0,8.4,50.0,70,41.8,26.9,0,5,7,0,2026-04-08T22:36:52.208517+05:30
Bhopal,Madhya Pradesh,23.2599,77.4126,25.9,36,0.0,954.9,8.4,53.6,72,34.0,21.8,4,5,7,0,2026-04-08T22:36:52.208523+05:30
Jabalpur,Madhya Pradesh,23.1815,79.9864,25.8,66,0.0,962.4,8.5,46.8,98,85.4,49.9,7,5,7,1,2026-04-08T22:36:52.208529+05:30
Ujjain,Madhya Pradesh,23.1765,75.7885,23.5,57,0.0,954.9,8.3,45.4,65,39.0,25.6,0,5,7,0,2026-04-08T22:36:52.208536+05:30
Visakhapatnam,Andhra Pradesh,17.6868,83.2185,27.9,89,0.0,1005.5,9.1,37.8,82,33.8,31.1,7,5,4,1,2026-04-08T22:36:52.208543+05:30
Vijayawada,Andhra Pradesh,16.5062,80.648,28.9,82,0.0,1003.7,9.15,26.6,96,34.6,32.1,7,5,4,1,2026-04-08T22:36:52.208550+05:30
Guntur,Andhra Pradesh,16.3067,80.4365,28.4,87,0.0,1005.1,9.15,27.7,117,33.3,30.9,7,5,4,1,2026-04-08T22:36:52.208556+05:30
Nellore,Andhra Pradesh,14.4426,79.9865,28.9,86,0.0,1007.4,9.25,35.6,115,29.1,25.1,7,5,4,1,2026-04-08T22:36:52.208563+05:30
Kurnool,Andhra Pradesh,15.8281,78.0373,32.4,31,0.0,977.0,9.15,23.0,77,63.6,32.4,0,5,7,0,2026-04-08T22:36:52.208571+05:30
Kakinada,Andhra Pradesh,16.9891,82.2475,27.7,90,0.0,1009.1,9.1,29.2,76,30.2,25.8,7,0,4,1,2026-04-08T22:36:52.208578+05:30
Tirupati,Andhra Pradesh,13.6288,79.4192,28.8,81,0.0,993.7,9.4,31.7,118,35.7,32.9,7,5,7,1,2026-04-08T22:36:52.208584+05:30
Warangal,Telangana,17.9689,79.5941,31.3,44,0.0,979.0,9.0,25.2,106,97.6,57.9,0,5,7,1,2026-04-08T22:36:52.208591+05:30
Nizamabad,Telangana,18.6725,78.0941,29.9,44,0.0,965.2,8.95,27.0,92,119.7,67.5,4,5,7,1,2026-04-08T22:36:52.208597+05:30
Mysore,Karnataka,12.2958,76.6396,24.5,79,0.0,930.5,9.45,41.4,82,15.4,14.1,3,5,7,1,2026-04-08T22:36:52.208604+05:30
Mangalore,Karnataka,12.9141,74.856,29.2,79,0.0,1009.1,9.15,33.5,62,68.7,24.8,7,0,4,1,2026-04-08T22:36:52.208610+05:30
Hubli-Dharwad,Karnataka,15.3647,75.124,24.6,79,0.0,942.3,9.2,36.0,65,37.3,18.6,3,5,7,1,2026-04-08T22:36:52.208617+05:30
Belgaum,Karnataka,15.8497,74.4977,22.1,85,0.0,927.2,9.2,41.4,71,48.8,23.6,3,5,7,1,2026-04-08T22:36:55.492429+05:30
Coimbatore,Tamil Nadu,11.0168,76.9558,26.0,72,0.0,964.1,9.45,52.6,59,20.0,17.1,7,5,7,1,2026-04-08T22:36:55.492462+05:30
Madurai,Tamil Nadu,9.9252,78.1198,27.9,74,0.0,995.9,9.35,30.2,103,42.4,38.6,7,5,7,1,2026-04-08T22:36:55.492473+05:30
Trichy,Tamil Nadu,10.7905,78.7047,29.2,81,0.0,1001.6,8.7,28.1,94,36.4,33.6,7,5,4,1,2026-04-08T22:36:55.492482+05:30
Salem,Tamil Nadu,11.6643,78.146,31.4,55,0.0,979.0,9.45,44.6,143,34.6,31.4,0,5,7,1,2026-04-08T22:36:55.492490+05:30
Tirunelveli,Tamil Nadu,8.7139,77.7567,28.1,75,0.0,1005.7,9.25,36.4,108,39.9,33.8,7,5,4,1,2026-04-08T22:36:55.492498+05:30
Vellore,Tamil Nadu,12.9165,79.1325,29.0,78,0.0,986.4,9.2,36.0,124,37.7,34.6,7,5,7,1,2026-04-08T22:36:55.492506+05:30
Erode,Tamil Nadu,11.341,77.7172,31.8,51,0.0,991.2,9.4,36.7,91,28.8,26.6,0,5,7,1,2026-04-08T22:36:55.492513+05:30
Kochi,Kerala,9.9312,76.2673,30.2,70,0.0,1011.4,9.2,36.4,60,31.9,26.7,3,0,4,1,2026-04-08T22:36:55.492521+05:30
Thiruvananthapuram,Kerala,8.5241,76.9366,29.8,75,0.0,1010.6,9.2,45.0,55,24.9,13.3,7,0,4,1,2026-04-08T22:36:55.492528+05:30
Kozhikode,Kerala,11.2588,75.7804,29.9,73,0.0,1010.3,9.15,31.0,50,30.0,15.4,7,0,4,1,2026-04-08T22:36:55.492535+05:30
Thrissur,Kerala,10.5276,76.2144,28.6,77,0.0,1009.5,9.2,37.1,61,28.5,22.6,7,0,4,1,2026-04-08T22:36:55.492543+05:30
Kannur,Kerala,11.8745,75.3704,29.0,75,0.0,1009.6,9.15,36.0,53,53.3,22.6,7,0,4,1,2026-04-08T22:36:55.492551+05:30
Patna,Bihar,25.5941,85.1376,22.7,77,0.0,1004.7,6.65,29.2,111,51.0,40.6,3,5,4,1,2026-04-08T22:36:55.492558+05:30
Gaya,Bihar,24.7914,85.0002,22.8,87,0.0,997.6,8.25,28.1,145,48.5,39.6,3,5,7,1,2026-04-08T22:36:55.492565+05:30
Muzaffarpur,Bihar,26.1209,85.3647,21.1,81,0.0,1005.0,7.0,36.7,120,52.5,39.3,3,5,4,1,2026-04-08T22:36:55.492571+05:30
Bhagalpur,Bihar,25.2425,87.0117,23.4,93,0.0,1005.1,8.3,29.2,167,55.2,46.0,3,5,4,1,2026-04-08T22:36:55.492578+05:30
Ranchi,Jharkhand,23.3441,85.3096,21.6,85,0.0,939.6,8.65,39.2,112,72.9,51.8,3,5,7,1,2026-04-08T22:36:55.492585+05:30
Jamshedpur,Jharkhand,22.8046,86.2029,23.4,85,0.0,993.9,8.8,32.4,144,40.2,35.6,3,5,7,1,2026-04-08T22:36:55.492591+05:30
Dhanbad,Jharkhand,23.7957,86.4304,22.5,88,0.0,983.0,8.7,29.9,153,89.4,83.8,3,5,7,1,2026-04-08T22:36:55.492597+05:30
Bokaro,Jharkhand,23.6693,86.1511,22.1,90,0.0,987.1,8.7,30.2,157,92.4,85.4,3,5,7,1,2026-04-08T22:36:55.492604+05:30
Bhubaneswar,Odisha,20.2961,85.8245,26.7,93,0.0,1004.7,8.95,33.1,65,26.8,25.1,7,5,4,1,2026-04-08T22:36:55.492610+05:30
Cuttack,Odisha,20.4625,85.8828,25.7,88,0.0,1006.7,9.0,33.1,65,26.8,25.1,7,5,4,1,2026-04-08T22:36:55.492617+05:30
Rourkela,Odisha,22.2604,84.8536,24.2,79,0.0,987.0,8.75,33.8,126,68.0,51.8,3,5,7,1,2026-04-08T22:36:55.492623+05:30
Raipur,Chhattisgarh,21.2514,81.6296,29.4,48,0.0,975.0,8.3,37.4,104,104.3,57.5,4,5,7,1,2026-04-08T22:36:55.492630+05:30
Bhilai,Chhattisgarh,21.1938,81.3509,28.6,50,0.0,975.2,8.5,36.7,94,80.3,42.8,4,5,7,1,2026-04-08T22:36:55.492637+05:30
Guwahati,Assam,26.1158,91.7086,22.7,86,0.0,1006.1,8.15,24.1,76,48.2,43.4,3,5,4,1,2026-04-08T22:36:55.492643+05:30
Agartala,Tripura,23.8315,91.2868,24.9,79,0.0,1009.0,8.45,11.9,125,48.4,46.4,3,0,4,1,2026-04-08T22:36:55.492650+05:30
Shillong,Meghalaya,25.5788,91.8933,11.9,90,0.0,857.3,7.8,40.3,64,26.6,22.4,3,10,7,0,2026-04-08T22:36:55.492656+05:30
Imphal,Manipur,24.817,93.9368,16.5,76,0.0,925.4,8.65,42.8,72,40.9,37.1,3,5,7,0,2026-04-08T22:36:55.492663+05:30
Aizawl,Mizoram,23.7271,92.7176,18.3,74,0.0,894.5,8.7,34.9,65,32.1,27.8,3,5,7,0,2026-04-08T22:36:55.492671+05:30
Kohima,Nagaland,25.6701,94.1077,13.5,81,0.0,856.2,8.0,57.2,52,26.4,23.2,3,10,7,0,2026-04-08T22:36:55.492679+05:30
Gangtok,Sikkim,27.3314,88.6138,11.4,83,0.0,837.9,7.4,18.7,81,29.1,23.8,3,10,7,0,2026-04-08T22:36:55.492685+05:30
Siliguri,West Bengal,26.7271,88.3953,19.8,76,0.0,997.7,7.9,20.5,89,52.4,45.5,3,5,7,0,2026-04-08T22:36:58.772338+05:30
Durgapur,West Bengal,23.5204,87.3119,23.7,88,0.0,998.5,8.65,21.6,131,70.3,65.9,3,5,7,1,2026-04-08T22:36:58.772367+05:30
Asansol,West Bengal,23.6739,86.9524,23.5,87,0.0,997.0,8.7,22.3,136,76.4,70.5,3,5,7,1,2026-04-08T22:36:58.772377+05:30
Pondicherry,Puducherry,11.9139,79.8145,28.4,91,0.0,1010.1,9.3,26.6,77,24.6,18.7,7,0,4,1,2026-04-08T22:36:58.772384+05:30
Port Blair,Andaman and Nicobar Islands,11.6234,92.7265,28.9,77,0.0,1009.8,9.2,7.6,31,8.5,5.8,7,0,4,1,2026-04-08T22:36:58.772392+05:30
Haridwar,Uttarakhand,29.9457,78.1642,16.4,97,0.0,979.6,5.7,25.2,74,52.2,43.9,3,10,3,0,2026-04-08T22:36:58.772399+05:30
Rishikesh,Uttarakhand,30.0869,78.2676,15.2,92,0.0,972.0,4.4,24.5,65,24.7,16.3,3,10,3,0,2026-04-08T22:36:58.772406+05:30
Nainital,Uttarakhand,29.3919,79.4542,11.4,80,0.0,805.8,6.5,55.4,67,31.9,20.6,3,5,7,0,2026-04-08T22:36:58.772413+05:30
Mussoorie,Uttarakhand,30.4599,78.0664,9.1,84,0.0,801.7,6.6,50.0,65,26.6,20.8,3,10,7,0,2026-04-08T22:36:58.772419+05:30
Dharamshala,Himachal Pradesh,32.219,76.3234,11.9,82,0.0,869.7,5.6,32.4,77,4.5,4.1,3,10,3,0,2026-04-08T22:36:58.772426+05:30
Dalhousie,Himachal Pradesh,32.5387,75.971,8.3,73,0.0,801.8,4.7,34.9,59,31.1,25.4,3,5,3,0,2026-04-08T22:36:58.772433+05:30
Patiala,Punjab,30.3398,76.3869,17.5,89,0.0,983.2,6.65,27.4,85,54.0,39.8,3,10,7,0,2026-04-08T22:36:58.772440+05:30
Bhatinda,Punjab,30.211,74.9455,19.5,63,0.0,987.9,7.45,24.8,102,43.7,29.0,3,5,7,0,2026-04-08T22:36:58.772446+05:30
Rohtak,Haryana,28.8955,76.6066,19.0,88,0.0,986.0,6.95,25.6,148,287.8,58.9,3,10,7,1,2026-04-08T22:36:58.772453+05:30
Panipat,Haryana,29.3909,76.9635,17.7,91,0.0,985.3,6.75,24.5,119,182.5,49.6,3,10,7,1,2026-04-08T22:36:58.772459+05:30
Mathura,Uttar Pradesh,27.4924,77.6737,20.5,78,0.0,991.3,7.25,29.2,237,1445.4,158.3,3,5,7,1,2026-04-08T22:36:58.772465+05:30
Vrindavan,Uttar Pradesh,27.5823,77.7027,19.9,81,0.0,992.0,7.25,27.4,237,1445.4,158.3,3,10,7,1,2026-04-08T22:36:58.772471+05:30
Ayodhya,Uttar Pradesh,26.7922,82.1998,20.3,77,0.0,1000.6,7.65,35.3,92,59.0,44.0,3,5,4,1,2026-04-08T22:36:58.772478+05:30
Ratlam,Madhya Pradesh,23.3315,75.0367,25.6,49,0.0,955.6,8.25,45.0,70,33.5,20.0,4,5,7,0,2026-04-08T22:36:58.772484+05:30
Sagar,Madhya Pradesh,23.8388,78.7378,24.4,55,0.0,951.8,7.7,47.2,71,58.9,26.1,0,5,7,0,2026-04-08T22:36:58.772490+05:30
Satna,Madhya Pradesh,24.6005,80.8322,24.5,66,0.0,973.8,8.4,37.1,75,47.4,27.5,3,5,7,1,2026-04-08T22:36:58.772496+05:30
Akola,Maharashtra,20.7002,77.0082,27.9,40,0.0,976.2,8.7,40.7,69,40.3,20.5,4,5,7,0,2026-04-08T22:36:58.772504+05:30
Amravati,Maharashtra,20.9374,77.7796,27.2,39,0.0,968.2,8.7,41.0,69,40.3,20.2,4,5,7,0,2026-04-08T22:36:58.772511+05:30
Latur,Maharashtra,18.4088,76.5604,26.1,53,0.0,940.6,8.95,33.5,76,33.5,20.5,4,5,7,0,2026-04-08T22:36:58.772517+05:30
Nanded,Maharashtra,19.1383,77.3091,27.6,53,0.0,969.1,8.85,31.7,80,39.7,22.0,4,5,7,1,2026-04-08T22:36:58.772523+05:30
Gulbarga,Karnataka,17.3297,76.8343,31.7,35,0.0,959.3,9.0,32.4,76,54.9,29.8,0,5,7,0,2026-04-08T22:36:58.772529+05:30
Bidar,Karnataka,17.9104,77.5199,29.2,36,0.0,936.3,9.0,31.7,82,84.1,40.2,4,5,7,0,2026-04-08T22:36:58.772534+05:30
Hospet,Karnataka,15.2689,76.3909,31.2,43,0.0,956.9,9.2,27.0,108,47.5,30.9,0,5,7,1,2026-04-08T22:36:58.772540+05:30
Tirupur,Tamil Nadu,11.1085,77.3411,28.3,60,0.0,976.9,9.5,40.7,90,22.6,20.2,4,5,7,1,2026-04-08T22:36:58.772546+05:30
Alappuzha,Kerala,9.4981,76.3388,29.9,71,0.0,1011.5,8.9,32.0,59,28.5,20.3,7,0,4,1,2026-04-08T22:36:58.772552+05:30
Munnar,Kerala,10.0889,77.0595,21.6,93,0.0,859.7,9.5,37.4,60,22.9,20.5,3,5,7,1,2026-04-08T22:36:58.772559+05:30
Silchar,Assam,24.8333,92.7789,23.2,82,0.0,1007.9,8.45,23.0,90,59.8,55.9,3,5,4,1,2026-04-08T22:36:58.772565+05:30
Dibrugarh,Assam,27.4728,94.912,21.9,87,0.0,1000.0,8.0,13.0,64,44.6,38.0,3,5,4,1,2026-04-08T22:36:58.772571+05:30
