city,state,latitude,longitude,temp,humidity,rain,pressure,uv_index,wind_gusts,aqi,pm10,pm2_5,mosquito_risk,arthritis_risk,migraine_risk,frizz_risk,updated_at
Delhi,Delhi,28.6139,77.209,22.5,67,0.0,986.8,5.85,32.8,291,534.6,105.9,3,5,3,1,2026-03-04T23:11:48.485088+05:30
Mumbai,Maharashtra,19.076,72.8777,29.1,60,0.0,1010.4,7.35,24.5,199,34.5,33.3,4,0,4,1,2026-03-04T23:11:48.485120+05:30
Bangalore,Karnataka,12.9716,77.5946,23.1,48,0.0,914.4,9.1,35.3,99,27.1,26.4,0,5,7,0,2026-03-04T23:11:48.485134+05:30
Hyderabad,Telangana,17.385,78.4867,24.8,57,0.0,956.4,8.4,25.6,99,41.9,39.5,0,5,7,0,2026-03-04T23:11:48.485143+05:30
Chennai,Tamil Nadu,13.0827,80.2707,25.2,88,0.0,1010.9,8.8,29.5,93,21.4,18.7,7,0,4,1,2026-03-04T23:11:48.485151+05:30
Kolkata,West Bengal,22.5726,88.3639,23.3,58,0.0,1008.6,7.75,18.7,167,136.0,104.8,0,0,4,0,2026-03-04T23:11:48.485159+05:30
Pune,Maharashtra,18.5204,73.8567,25.0,51,0.0,951.0,7.95,30.2,106,25.6,25.0,4,5,7,0,2026-03-04T23:11:48.485170+05:30
Ahmedabad,Gujarat,23.0225,72.5714,25.9,37,0.0,1006.1,7.2,19.8,76,30.3,27.6,4,5,4,0,2026-03-04T23:11:48.485177+05:30
Jaipur,Rajasthan,26.9124,75.7873,26.4,25,0.0,964.2,6.6,32.0,93,86.6,40.9,4,5,7,0,2026-03-04T23:11:48.485183+05:30
Lucknow,Uttar Pradesh,26.8467,80.9462,22.5,71,0.0,997.1,6.35,24.8,159,189.1,86.4,3,5,7,1,2026-03-04T23:11:48.485190+05:30
Kanpur,Uttar Pradesh,26.4499,80.3319,22.1,69,0.0,995.5,6.35,27.0,176,285.9,88.2,3,5,7,1,2026-03-04T23:11:48.485196+05:30
Chandigarh,Chandigarh,30.7333,76.7794,20.1,76,0.0,972.0,5.75,34.9,104,40.4,37.1,3,5,3,0,2026-03-04T23:11:48.485205+05:30
Srinagar,Jammu and Kashmir,34.0837,74.7973,9.1,80,0.0,843.5,6.15,14.8,150,130.9,102.2,3,5,7,0,2026-03-04T23:11:48.485212+05:30
Jammu,Jammu and Kashmir,32.7266,74.857,21.7,64,0.0,976.3,6.35,22.3,106,68.5,55.6,3,5,7,0,2026-03-04T23:11:48.485218+05:30
Amritsar,Punjab,31.634,74.8723,20.3,72,0.0,984.3,6.3,22.0,152,75.9,59.0,3,5,7,0,2026-03-04T23:11:48.485224+05:30
Ludhiana,Punjab,30.901,75.8573,22.3,75,0.0,982.6,5.95,28.8,154,106.4,82.0,3,5,3,1,2026-03-04T23:11:48.485230+05:30
Jalandhar,Punjab,31.326,75.5762,21.3,72,0.0,983.7,6.15,27.0,155,105.7,84.5,3,5,7,0,2026-03-04T23:11:48.485238+05:30
Dehradun,Uttarakhand,30.6284,78.0322,13.7,67,0.0,831.0,6.1,29.2,74,31.3,23.7,3,5,7,0,2026-03-04T23:11:48.485244+05:30
Shimla,Himachal Pradesh,31.1048,77.1734,14.5,43,0.0,787.1,6.15,50.4,82,36.1,26.1,0,5,7,0,2026-03-04T23:11:48.485250+05:30
Manali,Himachal Pradesh,32.2396,77.1887,18.0,28,0.0,824.0,7.75,32.8,76,30.5,17.3,0,5,7,1,2026-03-04T23:11:48.485256+05:30
Gurgaon,Haryana,28.4595,77.0266,19.7,76,0.0,985.1,5.95,31.0,1190,1329.9,178.8,3,5,3,0,2026-03-04T23:11:48.485262+05:30
Noida,Uttar Pradesh,28.5355,77.391,22.8,65,0.0,988.2,5.85,32.0,1190,1329.9,178.8,3,5,3,0,2026-03-04T23:11:48.485268+05:30
Ghaziabad,Uttar Pradesh,28.6692,77.4538,22.3,70,0.0,986.3,5.8,29.5,193,489.9,103.6,3,5,3,1,2026-03-04T23:11:48.485274+05:30
Faridabad,Haryana,28.4089,77.3178,22.8,58,0.0,987.5,5.9,29.9,1190,1329.9,178.8,0,5,3,0,2026-03-04T23:11:48.485280+05:30
Meerut,Uttar Pradesh,28.9845,77.7064,20.3,81,0.0,984.9,5.7,32.0,193,489.9,103.6,3,5,3,1,2026-03-04T23:11:48.485286+05:30
Agra,Uttar Pradesh,27.1767,78.0081,20.8,64,0.0,991.3,6.2,32.8,426,566.2,93.4,3,5,7,0,2026-03-04T23:11:48.485292+05:30
Varanasi,Uttar Pradesh,25.3176,82.9739,21.2,76,0.0,1001.1,7.0,18.4,153,168.6,90.8,3,5,4,1,2026-03-04T23:11:48.485300+05:30
Prayagraj,Uttar Pradesh,25.4358,81.8463,22.6,68,0.0,999.7,6.85,23.4,154,117.3,71.7,3,5,7,1,2026-03-04T23:11:48.485307+05:30
Gorakhpur,Uttar Pradesh,26.7606,83.3732,21.6,72,0.0,1000.6,6.7,12.2,166,170.0,132.2,3,5,4,1,2026-03-04T23:11:48.485315+05:30
Bareilly,Uttar Pradesh,28.367,79.4304,20.2,78,0.0,990.4,6.05,20.5,162,104.5,87.1,3,5,7,1,2026-03-04T23:11:48.485321+05:30
Aligarh,Uttar Pradesh,27.8974,78.088,20.3,70,0.0,989.1,5.95,28.8,614,853.1,149.9,3,5,3,0,2026-03-04T23:11:48.485326+05:30
Moradabad,Uttar Pradesh,28.8386,78.7733,19.9,82,0.0,987.3,5.85,23.4,158,275.7,105.5,3,10,3,1,2026-03-04T23:11:48.485333+05:30
Saharanpur,Uttar Pradesh,29.9637,77.546,20.0,81,0.0,978.9,5.5,39.2,152,149.0,69.2,3,5,3,1,2026-03-04T23:11:48.485339+05:30
Jhansi,Uttar Pradesh,25.4484,78.5685,23.6,46,0.0,981.7,6.8,31.7,61,34.6,27.9,0,5,7,0,2026-03-04T23:11:51.747871+05:30
Surat,Gujarat,21.1702,72.8311,26.7,48,0.0,1009.5,7.05,27.7,139,46.2,43.4,4,0,4,0,2026-03-04T23:11:51.747900+05:30
Vadodara,Gujarat,22.3072,73.1812,26.4,53,0.0,1007.9,7.2,18.7,141,46.2,42.6,4,5,4,0,2026-03-04T23:11:51.747914+05:30
Rajkot,Gujarat,22.3039,70.8022,25.3,44,0.0,999.0,7.0,25.9,96,23.6,22.7,4,5,7,0,2026-03-04T23:11:51.747962+05:30
Thane,Maharashtra,19.2183,72.9781,27.9,48,0.0,1010.0,7.35,35.3,199,34.5,33.3,4,0,4,0,2026-03-04T23:11:51.747973+05:30
Nagpur,Maharashtra,21.1458,79.0882,24.9,51,0.0,976.6,7.75,23.0,66,34.7,30.6,0,5,7,0,2026-03-04T23:11:51.747984+05:30
Nashik,Maharashtra,19.9975,73.7898,24.3,48,0.0,948.5,7.55,23.4,100,29.3,28.5,0,5,7,0,2026-03-04T23:11:51.747994+05:30
Aurangabad,Maharashtra,19.8762,75.3433,24.4,45,0.0,946.8,8.05,22.7,115,35.6,34.9,0,5,7,0,2026-03-04T23:11:51.748004+05:30
Solapur,Maharashtra,17.6599,75.9064,25.4,57,0.0,959.4,8.3,18.0,115,23.1,22.1,4,5,7,1,2026-03-04T23:11:51.748018+05:30
Kolhapur,Maharashtra,16.705,74.2433,22.2,76,0.0,950.6,8.45,37.8,154,68.0,67.5,3,5,7,1,2026-03-04T23:11:51.748028+05:30
Goa,Goa,15.2993,74.124,27.4,87,0.0,1001.0,8.5,35.6,117,55.9,51.6,7,5,4,1,2026-03-04T23:11:51.748038+05:30
Jodhpur,Rajasthan,26.2389,73.0243,25.8,41,0.0,987.5,6.9,18.0,83,77.1,34.2,4,5,7,0,2026-03-04T23:11:51.748048+05:30
Udaipur,Rajasthan,24.5854,73.7125,21.6,47,0.0,951.1,7.5,23.8,66,33.1,21.6,0,5,7,0,2026-03-04T23:11:51.748058+05:30
Kota,Rajasthan,25.2138,75.8648,22.5,56,0.0,983.0,6.9,17.6,82,56.6,40.6,0,5,7,0,2026-03-04T23:11:51.748067+05:30
Bikaner,Rajasthan,28.0229,73.3119,25.3,39,0.0,986.5,6.55,23.8,67,57.4,21.0,4,5,7,0,2026-03-04T23:11:51.748077+05:30
Ajmer,Rajasthan,26.4499,74.6399,24.0,35,0.0,958.9,6.85,23.4,72,67.5,27.8,0,5,7,0,2026-03-04T23:11:51.748086+05:30
Gwalior,Madhya Pradesh,26.2183,78.1828,23.4,54,0.0,987.0,6.5,29.2,80,66.4,34.9,0,5,7,0,2026-03-04T23:11:51.748097+05:30
Indore,Madhya Pradesh,22.7196,75.8577,22.9,50,0.0,951.6,7.45,20.5,80,40.2,33.2,0,5,7,0,2026-03-04T23:11:51.748106+05:30
Bhopal,Madhya Pradesh,23.2599,77.4126,22.1,43,0.0,957.5,7.3,23.0,68,30.7,26.5,0,5,7,0,2026-03-04T23:11:51.748116+05:30
Jabalpur,Madhya Pradesh,23.1815,79.9864,23.9,41,0.0,965.0,7.45,23.4,67,27.5,19.6,0,5,7,0,2026-03-04T23:11:51.748126+05:30
Ujjain,Madhya Pradesh,23.1765,75.7885,23.1,46,0.0,957.5,7.35,19.4,107,65.2,56.8,0,5,7,0,2026-03-04T23:11:51.748136+05:30
Visakhapatnam,Andhra Pradesh,17.6868,83.2185,24.8,81,0.0,1006.2,8.4,36.7,130,32.7,29.7,3,5,4,1,2026-03-04T23:11:51.748146+05:30
Vijayawada,Andhra Pradesh,16.5062,80.648,24.9,77,0.0,1005.7,8.45,22.3,122,29.1,27.8,3,5,4,1,2026-03-04T23:11:51.748155+05:30
Guntur,Andhra Pradesh,16.3067,80.4365,24.6,84,0.0,1007.2,8.45,25.2,111,30.3,29.2,3,5,4,1,2026-03-04T23:11:51.748165+05:30
Nellore,Andhra Pradesh,14.4426,79.9865,24.7,89,0.0,1009.4,8.65,29.9,98,15.2,13.4,3,0,4,1,2026-03-04T23:11:51.748175+05:30
Kurnool,Andhra Pradesh,15.8281,78.0373,29.0,41,0.0,979.7,8.45,27.0,102,17.8,17.1,4,5,7,0,2026-03-04T23:11:51.748186+05:30
Kakinada,Andhra Pradesh,16.9891,82.2475,23.3,90,0.0,1010.4,8.4,33.8,98,30.4,26.5,3,0,4,1,2026-03-04T23:11:51.748195+05:30
Tirupati,Andhra Pradesh,13.6288,79.4192,25.1,53,0.0,995.5,8.8,34.6,135,46.1,45.2,4,5,7,0,2026-03-04T23:11:51.748205+05:30
Warangal,Telangana,17.9689,79.5941,26.8,46,0.0,981.2,8.2,20.5,114,36.0,33.9,4,5,7,0,2026-03-04T23:11:51.748215+05:30
Nizamabad,Telangana,18.6725,78.0941,23.1,60,0.0,967.4,8.1,26.3,98,31.8,29.4,0,5,7,0,2026-03-04T23:11:51.748224+05:30
Mysore,Karnataka,12.2958,76.6396,23.2,55,0.0,931.0,9.15,40.3,91,29.6,28.8,0,5,7,0,2026-03-04T23:11:51.748234+05:30
Mangalore,Karnataka,12.9141,74.856,28.6,81,0.0,1010.0,8.75,29.2,93,41.7,36.3,7,0,4,1,2026-03-04T23:11:51.748243+05:30
Hubli-Dharwad,Karnataka,15.3647,75.124,24.0,77,0.0,943.6,8.65,25.6,138,24.6,24.1,3,5,7,1,2026-03-04T23:11:51.748253+05:30
Belgaum,Karnataka,15.8497,74.4977,23.0,83,0.0,928.5,8.7,32.4,126,52.4,51.3,3,5,7,1,2026-03-04T23:11:55.012809+05:30
Coimbatore,Tamil Nadu,11.0168,76.9558,22.5,74,0.0,965.1,9.15,43.2,108,47.4,46.2,3,5,7,1,2026-03-04T23:11:55.012835+05:30
Madurai,Tamil Nadu,9.9252,78.1198,25.8,77,0.0,996.9,9.1,25.9,88,24.6,24.0,7,5,7,1,2026-03-04T23:11:55.012849+05:30
Trichy,Tamil Nadu,10.7905,78.7047,24.6,85,0.0,1003.6,9.0,31.0,93,21.5,20.4,3,5,4,1,2026-03-04T23:11:55.012860+05:30
Salem,Tamil Nadu,11.6643,78.146,25.5,55,0.0,980.4,9.0,37.8,101,29.3,28.7,4,5,7,0,2026-03-04T23:11:55.012871+05:30
Tirunelveli,Tamil Nadu,8.7139,77.7567,25.5,82,0.0,1007.0,9.15,36.0,79,22.5,21.4,7,5,4,1,2026-03-04T23:11:55.012881+05:30
Vellore,Tamil Nadu,12.9165,79.1325,24.1,65,0.0,988.5,8.85,38.9,123,41.4,40.5,3,5,7,1,2026-03-04T23:11:55.012891+05:30
Erode,Tamil Nadu,11.341,77.7172,26.7,56,0.0,992.2,9.05,29.9,101,30.0,29.4,4,5,7,1,2026-03-04T23:11:55.012901+05:30
Kochi,Kerala,9.9312,76.2673,27.6,81,0.0,1012.1,8.95,34.6,99,49.2,48.4,7,0,4,1,2026-03-04T23:11:55.012911+05:30
Thiruvananthapuram,Kerala,8.5241,76.9366,27.6,79,0.0,1011.2,9.0,27.4,116,21.1,18.7,7,0,4,1,2026-03-04T23:11:55.012934+05:30
Kozhikode,Kerala,11.2588,75.7804,28.4,81,0.0,1011.2,8.85,31.0,93,36.1,31.3,7,0,4,1,2026-03-04T23:11:55.012944+05:30
Thrissur,Kerala,10.5276,76.2144,26.6,89,0.0,1010.5,8.9,37.8,106,40.9,39.3,7,0,4,1,2026-03-04T23:11:55.012954+05:30
Kannur,Kerala,11.8745,75.3704,28.1,81,0.0,1010.4,8.8,33.5,89,41.3,36.3,7,0,4,1,2026-03-04T23:11:55.012965+05:30
Patna,Bihar,25.5941,85.1376,23.8,64,0.0,1003.9,7.2,15.5,168,145.8,113.2,3,5,4,1,2026-03-04T23:11:55.012974+05:30
Gaya,Bihar,24.7914,85.0002,20.2,73,0.0,997.5,7.25,17.6,153,140.2,89.2,3,5,7,0,2026-03-04T23:11:55.012984+05:30
Muzaffarpur,Bihar,26.1209,85.3647,21.4,71,0.0,1003.8,7.15,14.0,169,142.0,112.2,3,5,4,0,2026-03-04T23:11:55.012994+05:30
Bhagalpur,Bihar,25.2425,87.0117,22.1,65,0.0,1004.8,7.2,8.3,163,129.5,96.6,3,5,4,0,2026-03-04T23:11:55.013003+05:30
Ranchi,Jharkhand,23.3441,85.3096,20.3,46,0.0,940.3,7.9,30.6,96,125.7,44.4,0,5,7,0,2026-03-04T23:11:55.013013+05:30
Jamshedpur,Jharkhand,22.8046,86.2029,22.8,64,0.0,993.7,7.85,19.1,143,147.1,78.0,3,5,7,0,2026-03-04T23:11:55.013022+05:30
Dhanbad,Jharkhand,23.7957,86.4304,23.7,45,0.0,983.0,7.7,23.4,151,101.7,67.3,0,5,7,0,2026-03-04T23:11:55.013032+05:30
Bokaro,Jharkhand,23.6693,86.1511,23.2,49,0.0,987.4,7.7,23.8,152,126.7,69.6,0,5,7,0,2026-03-04T23:11:55.013041+05:30
Bhubaneswar,Odisha,20.2961,85.8245,24.7,87,0.0,1004.5,8.15,27.0,155,72.2,63.6,3,5,4,1,2026-03-04T23:11:55.013051+05:30
Cuttack,Odisha,20.4625,85.8828,24.3,82,0.0,1006.7,8.15,27.0,155,72.2,63.6,3,5,4,1,2026-03-04T23:11:55.013060+05:30
Rourkela,Odisha,22.2604,84.8536,25.8,44,0.0,988.1,7.75,21.2,98,71.2,46.3,4,5,7,0,2026-03-04T23:11:55.013069+05:30
Raipur,Chhattisgarh,21.2514,81.6296,24.8,47,0.0,977.5,7.8,19.8,128,74.0,63.6,0,5,7,0,2026-03-04T23:11:55.013079+05:30
Bhilai,Chhattisgarh,21.1938,81.3509,24.3,51,0.0,977.8,7.8,16.9,114,73.8,64.0,0,5,7,0,2026-03-04T23:11:55.013088+05:30
Guwahati,Assam,26.1158,91.7086,21.9,79,0.0,1004.4,7.1,18.4,147,60.1,55.3,3,5,4,1,2026-03-04T23:11:55.013098+05:30
Agartala,Tripura,23.8315,91.2868,21.2,69,0.0,1008.9,7.5,20.9,162,111.3,87.5,3,0,4,0,2026-03-04T23:11:55.013107+05:30
Shillong,Meghalaya,25.5788,91.8933,11.2,93,0.0,856.9,7.5,29.9,130,49.9,45.1,3,10,7,0,2026-03-04T23:11:55.013117+05:30
Imphal,Manipur,24.817,93.9368,15.4,75,0.0,924.6,7.7,21.2,137,76.6,69.8,3,5,7,0,2026-03-04T23:11:55.013127+05:30
Aizawl,Mizoram,23.7271,92.7176,15.5,71,0.0,893.1,7.7,22.0,161,114.8,101.7,3,5,7,0,2026-03-04T23:11:55.013136+05:30
Kohima,Nagaland,25.6701,94.1077,13.7,74,0.0,855.7,7.55,38.5,151,82.0,74.0,3,5,7,0,2026-03-04T23:11:55.013146+05:30
Gangtok,Sikkim,27.3314,88.6138,12.5,82,0.0,838.6,7.45,22.7,131,66.1,57.2,3,10,7,0,2026-03-04T23:11:55.013155+05:30
Siliguri,West Bengal,26.7271,88.3953,21.0,70,0.0,997.4,7.1,19.8,156,87.5,73.1,3,5,7,0,2026-03-04T23:11:58.278949+05:30
Durgapur,West Bengal,23.5204,87.3119,24.0,45,0.0,998.3,7.7,20.5,136,97.6,72.2,0,5,7,0,2026-03-04T23:11:58.278973+05:30
Asansol,West Bengal,23.6739,86.9524,24.2,47,0.0,996.9,7.7,20.9,120,74.5,53.4,0,5,7,0,2026-03-04T23:11:58.278984+05:30
Pondicherry,Puducherry,11.9139,79.8145,23.4,93,0.0,1012.3,8.85,29.2,84,21.7,18.0,3,0,4,1,2026-03-04T23:11:58.278994+05:30
Port Blair,Andaman and Nicobar Islands,11.6234,92.7265,27.3,73,0.0,1008.2,8.8,25.6,100,38.5,33.2,7,0,4,1,2026-03-04T23:11:58.279005+05:30
Haridwar,Uttarakhand,29.9457,78.1642,19.9,78,0.0,977.7,5.6,19.8,128,115.5,67.1,3,5,3,0,2026-03-04T23:11:58.279014+05:30
Rishikesh,Uttarakhand,30.0869,78.2676,19.3,73,0.0,970.3,5.65,22.7,154,55.6,46.0,3,5,3,0,2026-03-04T23:11:58.279023+05:30
Nainital,Uttarakhand,29.3919,79.4542,16.2,61,0.0,807.6,6.45,57.2,154,82.7,64.5,3,5,7,0,2026-03-04T23:11:58.279032+05:30
Mussoorie,Uttarakhand,30.4599,78.0664,15.6,61,0.0,804.3,6.0,35.6,145,63.6,48.8,3,5,3,0,2026-03-04T23:11:58.279040+05:30
Dharamshala,Himachal Pradesh,32.219,76.3234,22.0,37,0.0,873.0,6.25,27.7,86,29.4,18.7,0,5,7,0,2026-03-04T23:11:58.279049+05:30
Dalhousie,Himachal Pradesh,32.5387,75.971,17.7,40,0.0,806.9,6.45,22.0,82,54.5,46.8,0,5,7,0,2026-03-04T23:11:58.279058+05:30
Patiala,Punjab,30.3398,76.3869,20.6,84,0.0,981.8,5.65,30.6,182,358.6,86.6,3,5,3,1,2026-03-04T23:11:58.279068+05:30
Bhatinda,Punjab,30.211,74.9455,21.7,74,0.0,987.5,6.3,22.7,151,64.0,41.7,3,5,7,1,2026-03-04T23:11:58.279076+05:30
Rohtak,Haryana,28.8955,76.6066,20.4,77,0.0,985.4,5.85,31.0,414,638.9,109.4,3,5,3,1,2026-03-04T23:11:58.279084+05:30
Panipat,Haryana,29.3909,76.9635,20.3,85,0.0,984.0,5.65,31.0,941,1210.7,164.4,3,5,3,1,2026-03-04T23:11:58.279093+05:30
Mathura,Uttar Pradesh,27.4924,77.6737,24.5,48,0.0,990.5,6.1,29.9,491,596.0,98.3,0,5,7,0,2026-03-04T23:11:58.279101+05:30
Vrindavan,Uttar Pradesh,27.5823,77.7027,21.0,65,0.0,990.9,6.1,31.7,491,596.0,98.3,3,5,7,0,2026-03-04T23:11:58.279110+05:30
Ayodhya,Uttar Pradesh,26.7922,82.1998,22.5,69,0.0,998.8,6.5,9.7,166,253.3,122.9,3,5,7,1,2026-03-04T23:11:58.279118+05:30
Ratlam,Madhya Pradesh,23.3315,75.0367,23.9,54,0.0,958.2,7.3,21.2,104,47.4,39.5,0,5,7,0,2026-03-04T23:11:58.279126+05:30
Sagar,Madhya Pradesh,23.8388,78.7378,24.4,34,0.0,953.9,7.25,25.6,69,27.3,20.3,0,5,7,0,2026-03-04T23:11:58.279134+05:30
Satna,Madhya Pradesh,24.6005,80.8322,22.8,48,0.0,974.8,7.25,34.9,94,41.6,28.8,0,5,7,0,2026-03-04T23:11:58.279142+05:30
Akola,Maharashtra,20.7002,77.0082,25.9,43,0.0,978.2,7.8,17.3,81,39.1,36.0,4,5,7,0,2026-03-04T23:11:58.279152+05:30
Amravati,Maharashtra,20.9374,77.7796,24.6,57,0.0,970.1,7.75,16.2,84,43.7,39.3,0,5,7,0,2026-03-04T23:11:58.279161+05:30
Latur,Maharashtra,18.4088,76.5604,25.0,49,0.0,942.4,8.25,19.8,115,42.3,39.5,4,5,7,0,2026-03-04T23:11:58.279170+05:30
Nanded,Maharashtra,19.1383,77.3091,25.6,55,0.0,971.3,8.0,13.0,89,29.7,27.9,4,5,7,0,2026-03-04T23:11:58.279178+05:30
Gulbarga,Karnataka,17.3297,76.8343,27.1,41,0.0,961.4,8.35,23.0,118,21.0,19.6,4,5,7,0,2026-03-04T23:11:58.279186+05:30
Bidar,Karnataka,17.9104,77.5199,24.5,49,0.0,938.1,8.3,25.9,102,42.7,39.3,0,5,7,0,2026-03-04T23:11:58.279194+05:30
Hospet,Karnataka,15.2689,76.3909,28.0,39,0.0,958.5,8.6,25.9,147,33.9,32.9,4,5,7,0,2026-03-04T23:11:58.279203+05:30
Tirupur,Tamil Nadu,11.1085,77.3411,26.6,47,0.0,978.6,9.15,32.4,119,46.6,45.8,4,5,7,0,2026-03-04T23:11:58.279211+05:30
Alappuzha,Kerala,9.4981,76.3388,27.9,78,0.0,1012.2,8.95,30.2,97,43.0,40.7,7,0,4,1,2026-03-04T23:11:58.279219+05:30
Munnar,Kerala,10.0889,77.0595,19.2,75,0.0,858.6,9.45,24.5,78,32.9,32.6,3,5,7,0,2026-03-04T23:11:58.279228+05:30
Silchar,Assam,24.8333,92.7789,23.8,62,0.0,1007.4,7.45,14.4,151,91.0,80.8,3,5,4,1,2026-03-04T23:11:58.279236+05:30
Dibrugarh,Assam,27.4728,94.912,22.8,80,0.0,997.8,7.15,9.0,128,60.3,54.2,3,5,7,1,2026-03-04T23:11:58.279245+05:30
