city,state,latitude,longitude,temp,humidity,rain,pressure,uv_index,wind_gusts,aqi,pm10,pm2_5,no2,co,o3,so2,mosquito_risk,arthritis_risk,migraine_risk,frizz_risk,updated_at
Delhi,Delhi,28.6139,77.209,30.0,76,0.0,971.3,5.55,29.2,118,30.5,29.5,15.1,525.0,151.0,22.1,7,5,3,1,2026-07-08T16:37:22.469669+05:30
Mumbai,Maharashtra,19.076,72.8777,29.0,81,0.0,1001.8,6.4,60.1,57,39.5,18.2,10.0,289.0,43.0,5.1,7,5,4,1,2026-07-08T16:37:22.469725+05:30
Bangalore,Karnataka,12.9716,77.5946,28.3,53,0.0,909.6,8.4,62.6,28,6.3,4.5,7.3,265.0,60.0,2.6,4,5,7,1,2026-07-08T16:37:22.469742+05:30
Hyderabad,Telangana,17.385,78.4867,29.7,61,0.1,946.5,8.2,60.8,33,13.4,7.6,5.1,271.0,83.0,2.7,10,5,7,1,2026-07-08T16:37:22.469752+05:30
Chennai,Tamil Nadu,13.0827,80.2707,37.0,41,0.0,1001.2,8.0,52.9,65,39.8,24.9,4.1,231.0,117.0,6.4,0,5,7,1,2026-07-08T16:37:22.469760+05:30
Kolkata,West Bengal,22.5726,88.3639,29.4,85,0.2,997.7,7.85,40.0,68,29.4,21.9,9.0,345.0,70.0,7.1,10,5,7,1,2026-07-08T16:37:22.469768+05:30
Pune,Maharashtra,18.5204,73.8567,25.9,80,0.0,942.0,7.25,59.0,25,7.2,4.8,9.5,183.0,45.0,5.9,7,5,7,1,2026-07-08T16:37:22.469775+05:30
Ahmedabad,Gujarat,23.0225,72.5714,33.2,58,0.0,991.8,6.45,37.1,81,61.0,26.7,4.4,200.0,96.0,5.3,0,5,7,1,2026-07-08T16:37:22.469781+05:30
Jaipur,Rajasthan,26.9124,75.7873,31.2,66,0.0,948.2,8.1,39.6,76,327.8,60.3,3.9,307.0,128.0,5.0,3,5,7,1,2026-07-08T16:37:22.469788+05:30
Lucknow,Uttar Pradesh,26.8467,80.9462,28.8,91,0.2,981.0,7.2,47.9,77,18.2,18.0,6.2,266.0,113.0,5.3,10,5,7,1,2026-07-08T16:37:22.469798+05:30
Kanpur,Uttar Pradesh,26.4499,80.3319,31.0,78,0.0,978.6,7.3,43.9,70,16.7,13.4,6.0,286.0,110.0,3.5,3,5,7,1,2026-07-08T16:37:22.469805+05:30
Chandigarh,Chandigarh,30.7333,76.7794,29.6,73,0.0,958.8,6.6,29.2,150,16.8,16.6,8.6,308.0,116.0,10.1,7,5,7,1,2026-07-08T16:37:22.469811+05:30
Srinagar,Jammu and Kashmir,34.0837,74.7973,30.5,34,0.0,836.2,8.9,24.8,131,21.1,13.6,2.1,255.0,156.0,2.3,0,5,7,0,2026-07-08T16:37:22.469818+05:30
Jammu,Jammu and Kashmir,32.7266,74.857,30.3,71,0.0,962.4,8.5,33.8,170,85.9,63.3,3.9,399.0,192.0,5.8,3,5,7,1,2026-07-08T16:37:22.469825+05:30
Amritsar,Punjab,31.634,74.8723,31.3,69,0.0,969.8,8.35,28.8,171,122.9,66.6,4.3,478.0,167.0,8.0,3,5,7,1,2026-07-08T16:37:22.469831+05:30
Ludhiana,Punjab,30.901,75.8573,31.3,71,0.0,967.8,5.7,28.1,154,30.9,27.9,5.8,390.0,124.0,9.7,3,5,3,1,2026-07-08T16:37:22.469837+05:30
Jalandhar,Punjab,31.326,75.5762,31.9,69,0.1,968.8,8.15,32.4,158,55.2,42.6,3.5,448.0,158.0,9.1,6,5,7,1,2026-07-08T16:37:22.469843+05:30
Dehradun,Uttarakhand,30.6284,78.0322,20.5,98,0.3,824.0,1.55,17.3,68,4.6,4.6,4.4,260.0,109.0,1.4,6,5,3,1,2026-07-08T16:37:22.469851+05:30
Shimla,Himachal Pradesh,31.1048,77.1734,18.6,88,0.1,779.6,2.45,20.5,72,18.9,18.1,6.4,303.0,109.0,4.0,6,10,3,1,2026-07-08T16:37:22.469858+05:30
Manali,Himachal Pradesh,32.2396,77.1887,22.6,98,0.2,814.3,6.75,39.6,78,15.3,15.1,21.9,188.0,129.0,1.3,6,5,7,1,2026-07-08T16:37:22.469866+05:30
Gurgaon,Haryana,28.4595,77.0266,30.3,72,0.0,969.7,7.55,29.2,118,37.7,36.9,25.9,457.0,163.0,32.6,3,5,7,1,2026-07-08T16:37:22.469872+05:30
Noida,Uttar Pradesh,28.5355,77.391,28.8,84,0.1,972.8,5.75,32.4,118,37.7,36.9,25.9,397.0,163.0,32.6,10,5,3,1,2026-07-08T16:37:22.469878+05:30
Ghaziabad,Uttar Pradesh,28.6692,77.4538,28.5,87,0.2,971.1,6.5,29.5,103,29.8,28.9,8.0,283.0,141.0,11.9,10,5,7,1,2026-07-08T16:37:22.469884+05:30
Faridabad,Haryana,28.4089,77.3178,29.2,80,0.1,972.0,5.8,32.4,118,37.7,36.9,25.9,397.0,163.0,32.6,10,5,3,1,2026-07-08T16:37:22.469890+05:30
Meerut,Uttar Pradesh,28.9845,77.7064,28.7,86,0.2,970.3,7.05,31.3,103,29.8,28.9,8.0,264.0,141.0,11.9,10,5,7,1,2026-07-08T16:37:22.469896+05:30
Agra,Uttar Pradesh,27.1767,78.0081,28.0,91,0.2,974.4,6.1,33.5,83,19.5,19.0,14.6,272.0,94.0,6.1,10,5,7,1,2026-07-08T16:37:22.469901+05:30
Varanasi,Uttar Pradesh,25.3176,82.9739,31.6,77,0.0,985.9,5.6,41.0,66,20.5,20.3,10.0,532.0,111.0,21.0,3,5,3,1,2026-07-08T16:37:22.469908+05:30
Prayagraj,Uttar Pradesh,25.4358,81.8463,30.1,81,0.0,984.0,6.65,33.1,62,13.7,13.6,6.9,284.0,108.0,6.2,3,5,7,1,2026-07-08T16:37:22.469914+05:30
Gorakhpur,Uttar Pradesh,26.7606,83.3732,29.4,89,0.3,986.6,6.6,36.4,83,18.5,18.1,4.5,255.0,118.0,5.8,10,5,7,1,2026-07-08T16:37:22.469920+05:30
Bareilly,Uttar Pradesh,28.367,79.4304,28.6,91,0.1,974.7,5.75,44.6,72,23.9,22.8,6.4,228.0,106.0,6.9,10,5,3,1,2026-07-08T16:37:22.469928+05:30
Aligarh,Uttar Pradesh,27.8974,78.088,28.3,88,0.2,973.0,5.8,34.6,94,24.0,23.6,11.3,257.0,102.0,7.4,10,5,3,1,2026-07-08T16:37:22.469935+05:30
Moradabad,Uttar Pradesh,28.8386,78.7733,30.3,81,0.0,971.9,7.25,43.2,98,28.2,26.4,8.7,242.0,120.0,11.0,3,5,7,1,2026-07-08T16:37:22.469942+05:30
Saharanpur,Uttar Pradesh,29.9637,77.546,28.2,88,0.3,965.4,6.7,24.8,122,11.3,11.0,4.3,260.0,99.0,3.3,10,5,7,1,2026-07-08T16:37:22.469949+05:30
Jhansi,Uttar Pradesh,25.4484,78.5685,29.4,80,0.2,964.4,7.0,44.6,59,7.9,7.6,3.1,236.0,118.0,3.4,10,5,7,1,2026-07-08T16:37:25.860024+05:30
Surat,Gujarat,21.1702,72.8311,30.1,78,0.0,998.0,2.15,50.8,83,40.3,23.6,22.5,308.0,33.0,43.8,3,5,3,1,2026-07-08T16:37:25.860057+05:30
Vadodara,Gujarat,22.3072,73.1812,29.7,78,0.0,995.0,3.85,34.9,73,47.3,24.8,11.8,240.0,56.0,6.6,7,5,3,1,2026-07-08T16:37:25.860070+05:30
Rajkot,Gujarat,22.3039,70.8022,34.3,52,0.0,984.2,5.95,48.2,72,63.8,25.6,2.0,111.0,81.0,4.2,0,5,3,1,2026-07-08T16:37:25.860080+05:30
Thane,Maharashtra,19.2183,72.9781,29.0,81,0.0,1001.1,4.75,39.6,57,39.5,18.2,10.0,306.0,43.0,5.1,7,5,0,1,2026-07-08T16:37:25.860090+05:30
Nagpur,Maharashtra,21.1458,79.0882,29.7,74,0.1,963.0,8.25,47.2,41,9.5,9.4,10.5,242.0,91.0,13.2,10,5,7,1,2026-07-08T16:37:25.860100+05:30
Nashik,Maharashtra,19.9975,73.7898,26.6,76,0.0,938.5,0.75,53.3,26,32.5,13.3,4.0,125.0,51.0,1.5,7,5,3,1,2026-07-08T16:37:25.860109+05:30
Aurangabad,Maharashtra,19.8762,75.3433,26.3,74,0.0,937.0,6.35,43.2,37,7.9,5.7,3.8,160.0,73.0,2.6,7,5,7,1,2026-07-08T16:37:25.860117+05:30
Solapur,Maharashtra,17.6599,75.9064,30.6,55,0.0,950.8,7.7,59.8,30,11.3,5.7,2.0,133.0,68.0,1.5,0,5,7,1,2026-07-08T16:37:25.860126+05:30
Kolhapur,Maharashtra,16.705,74.2433,24.1,91,0.0,943.2,7.55,63.0,23,11.4,7.2,3.6,140.0,46.0,1.6,3,5,7,1,2026-07-08T16:37:25.860134+05:30
Goa,Goa,15.2993,74.124,26.3,91,0.2,995.2,8.35,44.3,52,25.3,13.2,1.1,132.0,46.0,0.8,10,5,7,1,2026-07-08T16:37:25.860140+05:30
Jodhpur,Rajasthan,26.2389,73.0243,37.7,40,0.0,970.5,6.85,32.4,131,272.9,61.7,1.2,162.0,101.0,3.4,0,5,10,1,2026-07-08T16:37:25.860147+05:30
Udaipur,Rajasthan,24.5854,73.7125,27.9,84,0.1,936.9,6.45,38.2,64,55.4,26.0,1.8,150.0,90.0,2.9,10,5,7,1,2026-07-08T16:37:25.860154+05:30
Kota,Rajasthan,25.2138,75.8648,28.1,89,0.1,967.9,7.25,42.8,63,63.1,30.5,5.5,220.0,95.0,3.9,10,5,7,1,2026-07-08T16:37:25.860160+05:30
Bikaner,Rajasthan,28.0229,73.3119,38.2,38,0.0,969.3,8.05,56.2,150,115.7,49.4,0.0,151.0,102.0,2.8,0,5,10,1,2026-07-08T16:37:25.860167+05:30
Ajmer,Rajasthan,26.4499,74.6399,31.6,66,0.1,943.6,7.25,37.1,84,198.4,68.2,1.3,193.0,108.0,3.1,6,5,7,1,2026-07-08T16:37:25.860173+05:30
Gwalior,Madhya Pradesh,26.2183,78.1828,28.8,85,0.1,969.4,7.2,33.8,66,9.3,9.2,5.6,288.0,110.0,3.0,10,5,7,1,2026-07-08T16:37:25.860179+05:30
Indore,Madhya Pradesh,22.7196,75.8577,25.9,89,0.0,938.8,5.3,47.5,67,23.1,15.9,9.4,341.0,69.0,7.5,7,5,3,1,2026-07-08T16:37:25.860185+05:30
Bhopal,Madhya Pradesh,23.2599,77.4126,27.2,83,0.2,943.3,1.8,41.8,69,9.9,8.9,3.8,280.0,97.0,1.7,10,5,3,1,2026-07-08T16:37:25.860191+05:30
Jabalpur,Madhya Pradesh,23.1815,79.9864,28.4,84,0.1,950.3,6.2,47.9,51,9.1,8.4,3.9,257.0,95.0,3.8,10,5,7,1,2026-07-08T16:37:25.860197+05:30
Ujjain,Madhya Pradesh,23.1765,75.7885,25.9,94,0.1,944.1,1.25,44.3,61,24.4,16.9,7.6,229.0,65.0,7.6,10,5,3,1,2026-07-08T16:37:25.860204+05:30
Visakhapatnam,Andhra Pradesh,17.6868,83.2185,30.1,71,0.0,996.4,9.0,51.5,77,31.9,22.1,12.7,249.0,82.0,26.6,3,5,7,1,2026-07-08T16:37:25.860210+05:30
Vijayawada,Andhra Pradesh,16.5062,80.648,37.1,41,0.0,994.3,6.3,48.2,59,18.5,10.5,4.0,112.0,77.0,3.4,0,5,10,1,2026-07-08T16:37:25.860216+05:30
Guntur,Andhra Pradesh,16.3067,80.4365,37.9,37,0.0,995.6,5.45,53.3,57,18.8,10.2,4.0,111.0,78.0,2.8,0,5,6,1,2026-07-08T16:37:25.860222+05:30
Nellore,Andhra Pradesh,14.4426,79.9865,37.0,38,0.1,998.9,8.55,47.5,44,17.8,8.9,3.7,121.0,85.0,2.5,3,5,10,1,2026-07-08T16:37:25.860228+05:30
Kurnool,Andhra Pradesh,15.8281,78.0373,32.5,51,0.1,970.7,4.7,68.4,32,10.2,5.2,1.1,115.0,80.0,1.4,3,5,3,1,2026-07-08T16:37:25.860235+05:30
Kakinada,Andhra Pradesh,16.9891,82.2475,33.2,57,0.0,999.9,8.75,52.6,68,26.1,16.8,2.3,148.0,88.0,2.0,0,5,7,1,2026-07-08T16:37:25.860241+05:30
Tirupati,Andhra Pradesh,13.6288,79.4192,34.7,44,0.0,985.6,8.4,45.4,41,18.5,8.8,4.4,114.0,75.0,1.5,0,5,7,1,2026-07-08T16:37:25.860247+05:30
Warangal,Telangana,17.9689,79.5941,31.2,66,0.1,970.7,5.55,50.0,38,10.6,7.0,2.3,154.0,89.0,2.1,6,5,3,1,2026-07-08T16:37:25.860253+05:30
Nizamabad,Telangana,18.6725,78.0941,30.9,59,0.0,956.9,5.6,59.8,34,4.7,4.0,3.3,160.0,79.0,5.1,0,5,3,1,2026-07-08T16:37:25.860258+05:30
Mysore,Karnataka,12.2958,76.6396,26.6,66,0.0,927.1,5.75,59.8,25,7.9,4.3,2.7,118.0,56.0,1.3,7,5,3,1,2026-07-08T16:37:25.860264+05:30
Mangalore,Karnataka,12.9141,74.856,29.1,75,0.1,1005.6,8.7,52.6,60,26.9,15.3,1.2,94.0,46.0,1.2,10,5,4,1,2026-07-08T16:37:25.860270+05:30
Hubli-Dharwad,Karnataka,15.3647,75.124,25.6,81,0.1,937.5,8.1,69.1,22,9.5,5.6,3.0,117.0,46.0,1.0,10,5,7,1,2026-07-08T16:37:25.860276+05:30
Belgaum,Karnataka,15.8497,74.4977,23.2,89,0.2,922.0,2.05,67.0,20,8.1,4.8,3.3,109.0,39.0,1.1,6,5,3,1,2026-07-08T16:37:29.255852+05:30
Coimbatore,Tamil Nadu,11.0168,76.9558,27.8,71,0.0,959.5,8.4,57.6,36,6.4,4.2,2.3,162.0,57.0,1.5,7,5,7,1,2026-07-08T16:37:29.255879+05:30
Madurai,Tamil Nadu,9.9252,78.1198,37.0,35,0.0,989.4,8.7,42.5,71,21.3,9.3,3.6,139.0,71.0,1.6,0,5,10,1,2026-07-08T16:37:29.255889+05:30
Trichy,Tamil Nadu,10.7905,78.7047,36.1,38,0.0,995.8,8.75,63.0,54,16.1,7.8,2.4,111.0,69.0,1.6,0,5,10,1,2026-07-08T16:37:29.255897+05:30
Salem,Tamil Nadu,11.6643,78.146,31.1,56,0.1,974.2,8.35,39.2,61,16.6,8.9,3.1,146.0,80.0,4.1,3,5,7,1,2026-07-08T16:37:29.255905+05:30
Tirunelveli,Tamil Nadu,8.7139,77.7567,34.0,45,0.0,1001.1,8.65,52.6,53,15.0,8.7,1.8,107.0,66.0,1.4,0,5,4,1,2026-07-08T16:37:29.255912+05:30
Vellore,Tamil Nadu,12.9165,79.1325,35.7,37,0.0,979.6,8.9,50.4,44,20.6,9.8,3.6,118.0,83.0,1.8,0,5,10,1,2026-07-08T16:37:29.255919+05:30
Erode,Tamil Nadu,11.341,77.7172,32.5,51,0.0,986.3,8.8,42.1,57,12.5,6.9,3.1,152.0,73.0,1.6,0,5,7,1,2026-07-08T16:37:29.255926+05:30
Kochi,Kerala,9.9312,76.2673,26.9,86,0.1,1008.8,8.3,41.8,64,14.7,8.4,2.9,119.0,55.0,2.3,10,0,4,1,2026-07-08T16:37:29.255933+05:30
Thiruvananthapuram,Kerala,8.5241,76.9366,28.6,77,0.0,1007.6,8.45,55.8,51,15.8,9.3,2.7,113.0,56.0,1.1,7,5,4,1,2026-07-08T16:37:29.255940+05:30
Kozhikode,Kerala,11.2588,75.7804,27.9,80,0.0,1007.7,7.95,38.9,57,19.3,8.9,0.9,122.0,51.0,1.1,7,5,4,1,2026-07-08T16:37:29.255946+05:30
Thrissur,Kerala,10.5276,76.2144,26.0,92,0.0,1007.0,8.5,40.3,62,16.4,8.6,2.2,96.0,53.0,1.4,7,5,4,1,2026-07-08T16:37:29.255954+05:30
Kannur,Kerala,11.8745,75.3704,28.1,78,0.0,1006.8,8.25,34.9,56,19.5,10.9,0.4,96.0,48.0,1.0,7,5,4,1,2026-07-08T16:37:29.255960+05:30
Patna,Bihar,25.5941,85.1376,32.8,67,0.1,990.1,7.25,25.2,90,13.3,12.6,6.2,241.0,107.0,6.0,6,5,7,1,2026-07-08T16:37:29.255966+05:30
Gaya,Bihar,24.7914,85.0002,31.1,76,0.0,983.5,6.9,28.8,66,12.0,11.3,6.1,190.0,92.0,6.4,3,5,7,1,2026-07-08T16:37:29.255973+05:30
Muzaffarpur,Bihar,26.1209,85.3647,28.9,91,0.5,990.4,7.65,28.4,85,19.0,17.9,7.4,280.0,112.0,7.5,10,5,7,1,2026-07-08T16:37:29.255979+05:30
Bhagalpur,Bihar,25.2425,87.0117,30.5,79,0.1,991.7,6.45,25.9,92,26.8,25.6,12.3,245.0,93.0,10.5,6,5,7,1,2026-07-08T16:37:29.255985+05:30
Ranchi,Jharkhand,23.3441,85.3096,28.7,69,0.0,929.7,8.0,47.5,62,14.2,11.0,3.2,175.0,101.0,5.5,7,5,7,1,2026-07-08T16:37:29.255992+05:30
Jamshedpur,Jharkhand,22.8046,86.2029,29.0,88,0.0,982.2,5.35,35.3,76,27.0,21.2,9.0,372.0,99.0,15.7,7,5,3,1,2026-07-08T16:37:29.255998+05:30
Dhanbad,Jharkhand,23.7957,86.4304,29.6,82,0.1,971.1,7.3,34.9,115,43.4,40.2,38.5,448.0,70.0,74.1,10,5,7,1,2026-07-08T16:37:29.256004+05:30
Bokaro,Jharkhand,23.6693,86.1511,30.7,74,0.0,974.6,8.0,34.2,89,29.7,25.5,24.6,1125.0,71.0,56.5,3,5,7,1,2026-07-08T16:37:29.256011+05:30
Bhubaneswar,Odisha,20.2961,85.8245,30.7,69,0.0,995.1,7.95,56.9,68,30.6,22.1,5.3,202.0,99.0,7.6,3,5,7,1,2026-07-08T16:37:29.256017+05:30
Cuttack,Odisha,20.4625,85.8828,31.3,69,0.0,996.7,7.6,47.2,68,30.6,22.1,5.3,207.0,99.0,7.6,3,5,7,1,2026-07-08T16:37:29.256023+05:30
Rourkela,Odisha,22.2604,84.8536,32.3,66,0.0,976.1,6.3,43.9,65,11.7,9.3,3.9,300.0,94.0,4.8,3,5,7,1,2026-07-08T16:37:29.256029+05:30
Raipur,Chhattisgarh,21.2514,81.6296,31.2,63,0.0,965.5,6.25,55.1,57,10.3,9.8,8.5,176.0,85.0,21.6,3,5,7,1,2026-07-08T16:37:29.256035+05:30
Bhilai,Chhattisgarh,21.1938,81.3509,31.0,62,0.0,965.8,6.8,58.7,57,11.0,10.4,9.6,372.0,84.0,23.8,3,5,7,1,2026-07-08T16:37:29.256042+05:30
Guwahati,Assam,26.1158,91.7086,28.1,98,0.1,993.0,6.2,27.7,48,9.4,9.1,5.3,210.0,82.0,1.5,10,5,7,1,2026-07-08T16:37:29.256048+05:30
Agartala,Tripura,23.8315,91.2868,26.1,97,0.2,999.8,3.65,37.8,51,16.9,13.8,9.6,156.0,65.0,3.3,10,5,3,1,2026-07-08T16:37:29.256054+05:30
Shillong,Meghalaya,25.5788,91.8933,21.1,96,0.1,851.8,3.05,31.0,39,3.7,3.6,7.5,234.0,72.0,2.3,6,5,3,1,2026-07-08T16:37:29.256060+05:30
Imphal,Manipur,24.817,93.9368,24.3,89,0.1,917.6,0.7,32.0,23,7.4,6.1,11.0,196.0,41.0,1.3,6,5,3,1,2026-07-08T16:37:29.256067+05:30
Aizawl,Mizoram,23.7271,92.7176,20.7,94,0.1,887.9,1.0,40.3,30,2.2,1.5,2.5,116.0,61.0,0.8,6,5,3,1,2026-07-08T16:37:29.256073+05:30
Kohima,Nagaland,25.6701,94.1077,22.2,97,0.1,850.5,6.2,18.7,31,2.7,2.7,4.9,160.0,53.0,0.8,6,5,7,1,2026-07-08T16:37:29.256079+05:30
Gangtok,Sikkim,27.3314,88.6138,21.4,95,0.1,832.9,6.75,32.8,43,3.0,3.0,4.1,204.0,94.0,1.8,6,5,7,1,2026-07-08T16:37:29.256086+05:30
Siliguri,West Bengal,26.7271,88.3953,30.1,75,0.0,984.1,7.85,27.0,61,10.7,10.6,5.5,417.0,111.0,4.0,3,5,7,1,2026-07-08T16:37:32.654298+05:30
Durgapur,West Bengal,23.5204,87.3119,27.9,94,0.1,986.7,8.55,42.5,101,36.6,34.1,33.8,484.0,65.0,44.2,10,5,7,1,2026-07-08T16:37:32.654319+05:30
Asansol,West Bengal,23.6739,86.9524,28.6,91,0.1,985.0,7.5,36.0,95,37.0,35.0,33.2,251.0,72.0,44.2,10,5,7,1,2026-07-08T16:37:32.654330+05:30
Pondicherry,Puducherry,11.9139,79.8145,31.8,73,0.0,1003.7,8.0,38.9,74,38.5,24.4,7.9,156.0,109.0,8.5,3,5,4,1,2026-07-08T16:37:32.654338+05:30
Port Blair,Andaman and Nicobar Islands,11.6234,92.7265,28.9,73,0.0,1007.0,7.4,38.5,60,30.7,18.2,0.5,102.0,56.0,0.5,7,5,4,1,2026-07-08T16:37:32.654345+05:30
Haridwar,Uttarakhand,29.9457,78.1642,27.9,95,0.4,963.5,5.2,19.8,105,7.3,7.0,2.4,313.0,98.0,2.8,10,5,3,1,2026-07-08T16:37:32.654352+05:30
Rishikesh,Uttarakhand,30.0869,78.2676,27.3,96,0.3,956.5,3.9,13.7,75,4.3,4.2,1.8,307.0,106.0,1.3,10,5,3,1,2026-07-08T16:37:32.654359+05:30
Nainital,Uttarakhand,29.3919,79.4542,20.8,86,0.1,800.3,7.25,31.0,61,17.1,15.4,2.6,219.0,107.0,4.2,6,5,7,1,2026-07-08T16:37:32.654365+05:30
Mussoorie,Uttarakhand,30.4599,78.0664,19.0,98,0.3,797.2,2.4,18.4,77,4.3,4.2,4.3,277.0,102.0,2.1,6,10,3,1,2026-07-08T16:37:32.654372+05:30
Dharamshala,Himachal Pradesh,32.219,76.3234,23.6,89,0.0,862.2,8.35,26.3,79,11.7,10.9,3.4,329.0,123.0,1.7,3,5,7,1,2026-07-08T16:37:32.654378+05:30
Dalhousie,Himachal Pradesh,32.5387,75.971,20.0,94,0.0,799.5,8.05,26.3,157,37.1,33.2,3.4,363.0,173.0,5.0,3,5,7,1,2026-07-08T16:37:32.654386+05:30
Patiala,Punjab,30.3398,76.3869,30.3,75,0.0,967.5,3.85,25.6,151,26.1,23.5,8.3,281.0,105.0,9.4,3,5,3,1,2026-07-08T16:37:32.654392+05:30
Bhatinda,Punjab,30.211,74.9455,34.2,59,0.0,972.0,7.5,37.1,419,445.2,100.1,4.5,378.0,194.0,17.5,0,5,7,1,2026-07-08T16:37:32.654402+05:30
Rohtak,Haryana,28.8955,76.6066,29.6,78,0.0,970.6,6.0,28.4,145,24.6,23.9,11.4,302.0,140.0,19.3,7,5,3,1,2026-07-08T16:37:32.654409+05:30
Panipat,Haryana,29.3909,76.9635,28.4,89,0.1,969.6,5.35,25.2,129,20.3,19.7,12.1,285.0,108.0,19.8,10,5,3,1,2026-07-08T16:37:32.654415+05:30
Mathura,Uttar Pradesh,27.4924,77.6737,27.7,93,0.2,974.2,5.9,37.1,95,25.7,25.3,16.6,291.0,103.0,5.8,10,5,3,1,2026-07-08T16:37:32.654421+05:30
Vrindavan,Uttar Pradesh,27.5823,77.7027,27.9,92,0.2,974.8,6.7,36.4,95,25.7,25.3,16.6,271.0,103.0,5.8,10,5,7,1,2026-07-08T16:37:32.654428+05:30
Ayodhya,Uttar Pradesh,26.7922,82.1998,30.3,82,0.1,983.8,6.6,41.8,82,19.7,19.3,3.6,255.0,131.0,8.1,6,5,7,1,2026-07-08T16:37:32.654434+05:30
Ratlam,Madhya Pradesh,23.3315,75.0367,26.1,89,0.2,945.5,1.5,41.4,58,29.8,18.9,7.0,167.0,66.0,8.2,10,5,3,1,2026-07-08T16:37:32.654440+05:30
Sagar,Madhya Pradesh,23.8388,78.7378,29.7,69,0.1,938.8,4.55,41.8,57,10.9,10.0,2.0,264.0,123.0,4.2,10,5,3,1,2026-07-08T16:37:32.654447+05:30
Satna,Madhya Pradesh,24.6005,80.8322,31.0,70,0.0,959.4,8.0,40.7,56,6.1,5.8,3.8,249.0,97.0,2.5,3,5,7,1,2026-07-08T16:37:32.654453+05:30
Akola,Maharashtra,20.7002,77.0082,27.0,85,0.0,966.7,6.8,49.0,38,6.3,5.9,7.7,183.0,80.0,9.2,7,5,7,1,2026-07-08T16:37:32.654460+05:30
Amravati,Maharashtra,20.9374,77.7796,28.9,71,0.1,958.3,7.3,53.3,38,7.3,6.8,7.3,201.0,84.0,7.9,10,5,7,1,2026-07-08T16:37:32.654467+05:30
Latur,Maharashtra,18.4088,76.5604,27.6,82,0.3,932.8,6.8,60.1,29,17.8,9.4,2.3,142.0,77.0,2.3,10,5,7,1,2026-07-08T16:37:32.654473+05:30
Nanded,Maharashtra,19.1383,77.3091,29.8,66,0.0,960.8,7.7,63.4,29,5.0,4.5,4.9,164.0,71.0,2.2,7,5,7,1,2026-07-08T16:37:32.654479+05:30
Gulbarga,Karnataka,17.3297,76.8343,29.8,64,0.2,952.1,6.7,65.2,32,10.5,5.5,3.3,131.0,69.0,1.8,10,5,7,1,2026-07-08T16:37:32.654486+05:30
Bidar,Karnataka,17.9104,77.5199,30.7,56,0.0,928.8,7.1,63.4,33,18.6,9.1,2.8,140.0,80.0,1.8,0,5,7,1,2026-07-08T16:37:32.654492+05:30
Hospet,Karnataka,15.2689,76.3909,29.8,58,0.0,951.5,5.75,72.0,26,9.2,4.9,1.8,106.0,57.0,1.4,4,5,3,1,2026-07-08T16:37:32.654498+05:30
Tirupur,Tamil Nadu,11.1085,77.3411,30.0,61,0.0,972.3,8.85,63.7,58,12.1,6.8,2.8,137.0,69.0,1.8,7,5,7,1,2026-07-08T16:37:32.654504+05:30
Alappuzha,Kerala,9.4981,76.3388,27.5,81,0.0,1008.5,8.25,45.0,60,17.9,10.4,3.7,92.0,64.0,2.7,7,0,4,1,2026-07-08T16:37:32.654511+05:30
Munnar,Kerala,10.0889,77.0595,17.4,99,0.5,856.0,5.9,60.1,40,8.5,4.9,1.6,98.0,51.0,0.9,6,10,3,1,2026-07-08T16:37:32.654517+05:30
Silchar,Assam,24.8333,92.7789,27.5,93,0.3,998.7,0.75,40.0,29,8.7,7.2,4.9,161.0,60.0,2.1,10,5,3,1,2026-07-08T16:37:32.654524+05:30
Dibrugarh,Assam,27.4728,94.912,30.0,81,0.0,986.2,7.2,21.2,48,7.7,7.4,3.8,197.0,93.0,1.6,7,5,7,1,2026-07-08T16:37:32.654530+05:30
