city,state,latitude,longitude,temp,humidity,rain,pressure,uv_index,wind_gusts,aqi,pm10,pm2_5,mosquito_risk,arthritis_risk,migraine_risk,frizz_risk,updated_at
Delhi,Delhi,28.6139,77.209,20.9,58,0.0,985.8,7.15,42.1,754,532.7,93.1,0,5,7,0,2026-04-11T05:08:51.418756+05:30
Mumbai,Maharashtra,19.076,72.8777,28.1,83,0.0,1009.3,7.95,24.8,104,64.3,38.9,7,0,4,1,2026-04-11T05:08:51.418801+05:30
Bangalore,Karnataka,12.9716,77.5946,23.8,83,0.0,912.7,9.65,28.8,88,29.0,26.2,3,5,7,1,2026-04-11T05:08:51.418817+05:30
Hyderabad,Telangana,17.385,78.4867,26.8,75,0.0,954.5,9.25,24.5,99,66.4,51.7,7,5,7,1,2026-04-11T05:08:51.418828+05:30
Chennai,Tamil Nadu,13.0827,80.2707,27.9,86,0.0,1008.5,8.95,35.3,61,19.7,13.8,7,0,4,1,2026-04-11T05:08:51.418838+05:30
Kolkata,West Bengal,22.5726,88.3639,23.6,94,0.0,1008.2,8.75,19.1,153,59.0,44.5,3,0,4,1,2026-04-11T05:08:51.418848+05:30
Pune,Maharashtra,18.5204,73.8567,23.3,85,0.0,949.3,8.55,42.8,96,85.4,51.9,3,5,7,1,2026-04-11T05:08:51.418875+05:30
Ahmedabad,Gujarat,23.0225,72.5714,24.6,50,0.0,1004.3,8.05,19.8,72,30.2,25.4,0,5,4,0,2026-04-11T05:08:51.418883+05:30
Jaipur,Rajasthan,26.9124,75.7873,22.6,49,0.0,962.8,7.8,33.8,137,71.5,23.7,0,5,7,0,2026-04-11T05:08:51.418892+05:30
Lucknow,Uttar Pradesh,26.8467,80.9462,20.3,56,0.0,995.6,7.65,43.6,184,491.7,106.9,0,5,7,0,2026-04-11T05:08:51.418900+05:30
Kanpur,Uttar Pradesh,26.4499,80.3319,19.1,65,0.0,994.4,7.65,39.6,471,858.7,139.2,3,5,7,0,2026-04-11T05:08:51.418908+05:30
Chandigarh,Chandigarh,30.7333,76.7794,18.6,68,0.0,971.2,6.6,35.3,48,10.6,10.6,3,5,7,0,2026-04-11T05:08:51.418916+05:30
Srinagar,Jammu and Kashmir,34.0837,74.7973,9.3,74,0.0,842.0,6.85,29.2,78,43.9,34.5,3,5,7,0,2026-04-11T05:08:51.418924+05:30
Jammu,Jammu and Kashmir,32.7266,74.857,18.0,79,0.0,975.5,7.4,22.0,59,35.4,25.8,3,5,7,0,2026-04-11T05:08:51.418932+05:30
Amritsar,Punjab,31.634,74.8723,19.4,76,0.0,984.3,7.7,27.7,61,53.1,16.1,3,5,7,0,2026-04-11T05:08:51.418940+05:30
Ludhiana,Punjab,30.901,75.8573,20.0,66,0.0,982.3,7.3,37.4,61,14.9,14.3,3,5,7,0,2026-04-11T05:08:51.418947+05:30
Jalandhar,Punjab,31.326,75.5762,19.6,72,0.0,983.5,7.45,32.4,66,36.9,13.9,3,5,7,0,2026-04-11T05:08:51.418956+05:30
Dehradun,Uttarakhand,30.6284,78.0322,11.4,52,0.0,828.5,7.15,38.2,37,4.6,4.5,0,5,7,0,2026-04-11T05:08:51.418963+05:30
Shimla,Himachal Pradesh,31.1048,77.1734,10.3,52,0.0,783.0,7.35,46.4,48,9.5,8.6,0,5,7,0,2026-04-11T05:08:51.418971+05:30
Manali,Himachal Pradesh,32.2396,77.1887,12.3,52,0.0,818.4,9.3,36.7,54,17.3,10.4,0,5,7,0,2026-04-11T05:08:51.418979+05:30
Gurgaon,Haryana,28.4595,77.0266,18.6,70,0.0,984.2,7.3,35.6,2103,1147.4,161.6,3,5,7,0,2026-04-11T05:08:51.418986+05:30
Noida,Uttar Pradesh,28.5355,77.391,20.5,61,0.0,987.3,7.2,43.6,2103,1147.4,161.6,3,5,7,0,2026-04-11T05:08:51.418993+05:30
Ghaziabad,Uttar Pradesh,28.6692,77.4538,19.6,64,0.0,985.3,7.15,41.0,586,365.1,65.4,3,5,7,0,2026-04-11T05:08:51.419000+05:30
Faridabad,Haryana,28.4089,77.3178,20.4,60,0.0,986.6,7.25,42.1,2103,1147.4,161.6,0,5,7,0,2026-04-11T05:08:51.419007+05:30
Meerut,Uttar Pradesh,28.9845,77.7064,18.6,68,0.0,983.5,7.05,40.7,586,365.1,65.4,3,5,7,0,2026-04-11T05:08:51.419017+05:30
Agra,Uttar Pradesh,27.1767,78.0081,19.9,62,0.0,990.9,7.55,33.5,1279,1233.1,177.0,3,5,7,0,2026-04-11T05:08:51.419024+05:30
Varanasi,Uttar Pradesh,25.3176,82.9739,19.5,63,0.0,1000.0,8.3,39.6,86,209.1,40.0,3,5,4,0,2026-04-11T05:08:51.419036+05:30
Prayagraj,Uttar Pradesh,25.4358,81.8463,20.9,54,0.0,998.8,8.15,41.0,96,322.2,58.2,0,5,7,0,2026-04-11T05:08:51.419044+05:30
Gorakhpur,Uttar Pradesh,26.7606,83.3732,19.4,52,0.0,998.5,8.1,35.3,70,288.7,60.3,0,5,7,0,2026-04-11T05:08:51.419051+05:30
Bareilly,Uttar Pradesh,28.367,79.4304,17.9,71,0.0,988.3,7.45,46.4,94,49.5,27.7,3,5,7,0,2026-04-11T05:08:51.419057+05:30
Aligarh,Uttar Pradesh,27.8974,78.088,18.5,70,0.0,988.3,7.35,44.6,1268,929.5,141.6,3,5,7,0,2026-04-11T05:08:51.419064+05:30
Moradabad,Uttar Pradesh,28.8386,78.7733,17.9,71,0.0,985.1,7.25,42.1,112,41.1,20.9,3,5,7,0,2026-04-11T05:08:51.419071+05:30
Saharanpur,Uttar Pradesh,29.9637,77.546,18.9,65,0.0,977.3,6.8,41.8,76,31.2,15.8,3,5,7,0,2026-04-11T05:08:51.419078+05:30
Jhansi,Uttar Pradesh,25.4484,78.5685,20.8,52,0.0,981.1,8.1,27.0,66,39.0,11.1,0,5,7,0,2026-04-11T05:08:54.758244+05:30
Surat,Gujarat,21.1702,72.8311,25.7,58,0.0,1007.9,7.75,29.2,123,32.4,29.9,4,5,4,1,2026-04-11T05:08:54.758276+05:30
Vadodara,Gujarat,22.3072,73.1812,23.7,56,0.0,1006.0,8.05,14.4,61,19.5,13.4,0,5,4,0,2026-04-11T05:08:54.758290+05:30
Rajkot,Gujarat,22.3039,70.8022,24.6,74,0.0,997.0,7.75,34.2,69,35.7,22.9,3,5,7,1,2026-04-11T05:08:54.758300+05:30
Thane,Maharashtra,19.2183,72.9781,26.6,86,0.0,1008.8,7.95,38.5,104,64.3,38.9,7,0,4,1,2026-04-11T05:08:54.758310+05:30
Nagpur,Maharashtra,21.1458,79.0882,23.9,45,0.0,975.3,8.75,21.2,69,19.9,13.9,0,5,7,0,2026-04-11T05:08:54.758319+05:30
Nashik,Maharashtra,19.9975,73.7898,24.1,57,0.0,946.8,8.25,34.9,96,73.3,59.0,0,5,7,0,2026-04-11T05:08:54.758326+05:30
Aurangabad,Maharashtra,19.8762,75.3433,25.1,39,0.0,945.2,8.9,32.0,76,35.0,20.7,4,5,7,0,2026-04-11T05:08:54.758333+05:30
Solapur,Maharashtra,17.6599,75.9064,27.3,51,0.0,957.8,9.0,19.1,67,25.1,18.2,4,5,7,1,2026-04-11T05:08:54.758341+05:30
Kolhapur,Maharashtra,16.705,74.2433,21.1,84,0.0,948.2,8.6,43.9,98,75.4,48.4,3,5,7,1,2026-04-11T05:08:54.758348+05:30
Goa,Goa,15.2993,74.124,26.7,86,0.0,998.7,9.05,34.2,96,96.4,43.3,7,5,7,1,2026-04-11T05:08:54.758356+05:30
Jodhpur,Rajasthan,26.2389,73.0243,24.7,38,0.0,985.8,8.05,26.6,63,69.2,16.9,0,5,7,0,2026-04-11T05:08:54.758362+05:30
Udaipur,Rajasthan,24.5854,73.7125,20.2,43,0.0,949.2,8.6,30.2,41,16.9,8.4,0,5,7,0,2026-04-11T05:08:54.758369+05:30
Kota,Rajasthan,25.2138,75.8648,19.9,62,0.0,982.0,8.1,18.0,76,36.4,21.2,3,5,7,0,2026-04-11T05:08:54.758376+05:30
Bikaner,Rajasthan,28.0229,73.3119,24.5,46,0.0,984.8,7.9,33.5,58,20.5,11.9,0,5,7,0,2026-04-11T05:08:54.758383+05:30
Ajmer,Rajasthan,26.4499,74.6399,21.7,43,0.0,957.1,8.0,35.3,76,72.2,22.9,0,5,7,0,2026-04-11T05:08:54.758390+05:30
Gwalior,Madhya Pradesh,26.2183,78.1828,21.9,60,0.0,986.5,7.8,27.7,95,255.2,37.0,0,5,7,0,2026-04-11T05:08:54.758396+05:30
Indore,Madhya Pradesh,22.7196,75.8577,20.1,53,0.0,950.3,8.5,20.9,59,31.0,18.6,0,5,7,0,2026-04-11T05:08:54.758408+05:30
Bhopal,Madhya Pradesh,23.2599,77.4126,21.6,47,0.0,956.4,8.5,24.5,58,24.4,13.7,0,5,7,0,2026-04-11T05:08:54.758415+05:30
Jabalpur,Madhya Pradesh,23.1815,79.9864,22.8,43,0.0,964.4,8.6,19.8,70,32.7,24.2,0,5,7,0,2026-04-11T05:08:54.758422+05:30
Ujjain,Madhya Pradesh,23.1765,75.7885,20.9,50,0.0,956.2,8.4,18.0,61,39.6,24.6,0,5,7,0,2026-04-11T05:08:54.758429+05:30
Visakhapatnam,Andhra Pradesh,17.6868,83.2185,27.3,87,0.0,1005.3,9.15,41.4,90,27.4,22.6,7,5,4,1,2026-04-11T05:08:54.758437+05:30
Vijayawada,Andhra Pradesh,16.5062,80.648,27.3,88,0.0,1004.3,9.2,26.3,77,23.3,19.4,7,5,4,1,2026-04-11T05:08:54.758443+05:30
Guntur,Andhra Pradesh,16.3067,80.4365,27.3,87,0.0,1005.4,9.25,33.8,77,19.5,16.5,7,5,4,1,2026-04-11T05:08:54.758450+05:30
Nellore,Andhra Pradesh,14.4426,79.9865,26.9,87,0.0,1006.8,9.25,41.0,67,18.7,15.3,7,5,4,1,2026-04-11T05:08:54.758458+05:30
Kurnool,Andhra Pradesh,15.8281,78.0373,29.6,58,0.0,977.7,9.25,26.6,86,31.2,28.7,4,5,7,1,2026-04-11T05:08:54.758465+05:30
Kakinada,Andhra Pradesh,16.9891,82.2475,27.2,91,0.0,1009.2,9.2,34.2,67,24.6,17.6,7,0,4,1,2026-04-11T05:08:54.758473+05:30
Tirupati,Andhra Pradesh,13.6288,79.4192,24.7,90,0.0,993.3,9.45,31.3,83,21.1,18.6,3,5,7,1,2026-04-11T05:08:54.758480+05:30
Warangal,Telangana,17.9689,79.5941,26.8,80,0.0,980.1,9.1,25.9,102,54.6,46.8,7,5,7,1,2026-04-11T05:08:54.758486+05:30
Nizamabad,Telangana,18.6725,78.0941,25.5,56,0.0,965.6,9.0,21.2,79,42.1,32.6,4,5,7,1,2026-04-11T05:08:54.758493+05:30
Mysore,Karnataka,12.2958,76.6396,22.4,89,0.0,929.7,9.1,28.8,82,38.0,29.8,3,5,7,1,2026-04-11T05:08:54.758500+05:30
Mangalore,Karnataka,12.9141,74.856,29.4,80,0.0,1007.6,8.75,26.6,76,97.3,34.0,7,5,4,1,2026-04-11T05:08:54.758507+05:30
Hubli-Dharwad,Karnataka,15.3647,75.124,23.2,84,0.0,941.4,9.25,42.1,85,71.9,40.4,3,5,7,1,2026-04-11T05:08:54.758513+05:30
Belgaum,Karnataka,15.8497,74.4977,21.2,89,0.0,925.6,9.3,38.9,89,95.9,46.8,3,5,7,1,2026-04-11T05:08:58.089418+05:30
Coimbatore,Tamil Nadu,11.0168,76.9558,23.3,89,0.0,963.3,6.9,29.5,74,32.5,23.0,3,5,7,1,2026-04-11T05:08:58.089449+05:30
Madurai,Tamil Nadu,9.9252,78.1198,26.9,93,0.0,994.2,8.85,37.4,77,31.0,28.6,7,5,7,1,2026-04-11T05:08:58.089461+05:30
Trichy,Tamil Nadu,10.7905,78.7047,27.3,92,0.0,1001.2,9.4,24.5,67,31.8,27.1,7,5,4,1,2026-04-11T05:08:58.089470+05:30
Salem,Tamil Nadu,11.6643,78.146,27.0,83,0.0,978.8,8.8,20.2,74,19.2,17.2,7,5,7,1,2026-04-11T05:08:58.089480+05:30
Tirunelveli,Tamil Nadu,8.7139,77.7567,25.2,90,0.0,1004.3,9.2,49.3,72,30.5,26.0,7,5,4,1,2026-04-11T05:08:58.089488+05:30
Vellore,Tamil Nadu,12.9165,79.1325,24.3,88,0.0,986.2,9.5,32.4,90,31.2,28.3,3,5,7,1,2026-04-11T05:08:58.089496+05:30
Erode,Tamil Nadu,11.341,77.7172,27.3,87,0.0,990.6,8.1,26.3,66,14.4,12.8,7,5,7,1,2026-04-11T05:08:58.089504+05:30
Kochi,Kerala,9.9312,76.2673,26.6,85,0.0,1010.2,9.15,32.4,71,17.9,15.4,7,0,4,1,2026-04-11T05:08:58.089513+05:30
Thiruvananthapuram,Kerala,8.5241,76.9366,27.6,86,0.0,1008.8,9.05,39.6,67,25.5,15.3,7,0,4,1,2026-04-11T05:08:58.089521+05:30
Kozhikode,Kerala,11.2588,75.7804,27.4,85,0.0,1009.5,8.95,29.9,69,34.0,16.2,7,0,4,1,2026-04-11T05:08:58.089530+05:30
Thrissur,Kerala,10.5276,76.2144,25.7,90,0.0,1008.7,8.05,33.1,73,20.9,16.4,7,0,4,1,2026-04-11T05:08:58.089540+05:30
Kannur,Kerala,11.8745,75.3704,26.3,82,0.0,1008.8,8.25,31.0,70,29.6,14.3,7,0,4,1,2026-04-11T05:08:58.089549+05:30
Patna,Bihar,25.5941,85.1376,20.8,61,0.0,1002.5,8.45,31.3,67,86.4,31.8,3,5,4,0,2026-04-11T05:08:58.089589+05:30
Gaya,Bihar,24.7914,85.0002,22.3,48,0.0,996.4,8.5,33.8,69,44.7,22.7,0,5,7,0,2026-04-11T05:08:58.089597+05:30
Muzaffarpur,Bihar,26.1209,85.3647,19.4,55,0.0,1001.9,8.4,22.7,65,99.4,29.9,0,5,4,0,2026-04-11T05:08:58.089605+05:30
Bhagalpur,Bihar,25.2425,87.0117,20.3,68,0.0,1003.1,8.45,23.8,72,36.2,20.3,3,5,4,0,2026-04-11T05:08:58.089612+05:30
Ranchi,Jharkhand,23.3441,85.3096,19.5,52,0.0,939.3,9.05,33.8,64,37.8,20.5,0,5,7,0,2026-04-11T05:08:58.089619+05:30
Jamshedpur,Jharkhand,22.8046,86.2029,21.4,91,0.0,993.2,8.85,17.6,118,83.1,65.4,3,5,7,1,2026-04-11T05:08:58.089626+05:30
Dhanbad,Jharkhand,23.7957,86.4304,19.7,68,0.0,982.0,8.8,25.9,117,90.1,76.4,3,5,7,0,2026-04-11T05:08:58.089634+05:30
Bokaro,Jharkhand,23.6693,86.1511,20.2,62,0.0,986.5,8.8,27.7,111,86.1,72.4,3,5,7,0,2026-04-11T05:08:58.089641+05:30
Bhubaneswar,Odisha,20.2961,85.8245,26.1,97,0.0,1004.1,9.0,23.4,118,51.2,44.9,7,5,4,1,2026-04-11T05:08:58.089649+05:30
Cuttack,Odisha,20.4625,85.8828,26.2,97,0.0,1006.2,9.05,18.7,118,51.2,44.9,7,5,4,1,2026-04-11T05:08:58.089656+05:30
Rourkela,Odisha,22.2604,84.8536,20.6,87,0.0,987.2,8.75,17.3,79,51.9,39.8,3,5,7,1,2026-04-11T05:08:58.089664+05:30
Raipur,Chhattisgarh,21.2514,81.6296,23.1,50,0.0,976.7,8.85,19.8,109,54.0,42.1,0,5,7,0,2026-04-11T05:08:58.089671+05:30
Bhilai,Chhattisgarh,21.1938,81.3509,22.4,48,0.0,977.1,8.85,17.6,109,46.2,32.2,0,5,7,0,2026-04-11T05:08:58.089678+05:30
Guwahati,Assam,26.1158,91.7086,20.7,91,0.0,1004.2,8.35,20.9,97,44.1,39.0,3,5,4,1,2026-04-11T05:08:58.089686+05:30
Agartala,Tripura,23.8315,91.2868,20.2,100,0.0,1008.6,8.6,26.3,150,59.5,49.4,3,0,4,1,2026-04-11T05:08:58.089697+05:30
Shillong,Meghalaya,25.5788,91.8933,11.0,66,0.0,855.0,8.75,55.8,80,35.7,30.0,3,5,7,0,2026-04-11T05:08:58.089704+05:30
Imphal,Manipur,24.817,93.9368,13.2,82,0.0,923.6,8.95,51.5,88,68.2,50.4,3,10,7,0,2026-04-11T05:08:58.089712+05:30
Aizawl,Mizoram,23.7271,92.7176,13.9,87,0.0,892.6,8.8,40.7,81,50.9,34.7,3,10,7,0,2026-04-11T05:08:58.089719+05:30
Kohima,Nagaland,25.6701,94.1077,10.9,78,0.0,853.7,8.3,77.8,65,39.8,30.4,3,5,7,0,2026-04-11T05:08:58.089726+05:30
Gangtok,Sikkim,27.3314,88.6138,11.0,86,0.0,835.5,8.55,18.7,75,37.7,28.2,3,10,7,0,2026-04-11T05:08:58.089733+05:30
Siliguri,West Bengal,26.7271,88.3953,17.6,67,0.0,996.1,8.3,17.6,112,78.7,59.8,3,5,7,0,2026-04-11T05:09:01.422837+05:30
Durgapur,West Bengal,23.5204,87.3119,23.0,64,0.0,997.2,8.75,20.2,115,77.1,63.3,3,5,7,0,2026-04-11T05:09:01.422864+05:30
Asansol,West Bengal,23.6739,86.9524,23.0,58,0.0,995.8,8.8,21.6,94,59.6,46.4,0,5,7,0,2026-04-11T05:09:01.422874+05:30
Pondicherry,Puducherry,11.9139,79.8145,26.7,95,0.0,1010.0,9.35,36.0,58,18.9,12.9,7,0,4,1,2026-04-11T05:09:01.422882+05:30
Port Blair,Andaman and Nicobar Islands,11.6234,92.7265,28.5,78,0.0,1008.2,9.25,24.1,28,7.3,4.8,7,0,4,1,2026-04-11T05:09:01.422890+05:30
Haridwar,Uttarakhand,29.9457,78.1642,15.0,86,0.0,975.4,6.9,42.8,64,22.8,21.8,3,10,7,0,2026-04-11T05:09:01.422897+05:30
Rishikesh,Uttarakhand,30.0869,78.2676,16.3,76,0.0,968.0,6.95,41.4,51,16.7,13.3,3,5,7,0,2026-04-11T05:09:01.422905+05:30
Nainital,Uttarakhand,29.3919,79.4542,15.8,49,0.0,804.7,7.75,64.8,55,23.3,12.6,0,5,7,0,2026-04-11T05:09:01.422912+05:30
Mussoorie,Uttarakhand,30.4599,78.0664,13.6,46,0.0,801.4,6.85,51.5,55,13.4,12.4,0,5,7,0,2026-04-11T05:09:01.422919+05:30
Dharamshala,Himachal Pradesh,32.219,76.3234,17.3,42,0.0,869.8,7.6,24.5,88,14.1,5.7,0,5,7,0,2026-04-11T05:09:01.422925+05:30
Dalhousie,Himachal Pradesh,32.5387,75.971,13.1,53,0.0,803.2,7.7,20.2,50,15.7,12.2,0,5,7,0,2026-04-11T05:09:01.422933+05:30
Patiala,Punjab,30.3398,76.3869,19.1,68,0.0,981.3,6.95,35.3,784,791.6,81.7,3,5,7,0,2026-04-11T05:09:01.422939+05:30
Bhatinda,Punjab,30.211,74.9455,20.5,67,0.0,987.8,7.7,28.8,63,65.2,17.9,3,5,7,0,2026-04-11T05:09:01.422946+05:30
Rohtak,Haryana,28.8955,76.6066,19.1,65,0.0,984.7,7.2,37.4,1089,873.6,127.6,3,5,7,0,2026-04-11T05:09:01.422952+05:30
Panipat,Haryana,29.3909,76.9635,19.3,64,0.0,983.1,7.0,34.6,2079,1754.6,197.4,3,5,7,0,2026-04-11T05:09:01.422958+05:30
Mathura,Uttar Pradesh,27.4924,77.6737,21.7,55,0.0,989.9,7.5,32.0,1389,1255.4,185.3,0,5,7,0,2026-04-11T05:09:01.422965+05:30
Vrindavan,Uttar Pradesh,27.5823,77.7027,19.0,68,0.0,990.3,7.45,38.2,1389,1255.4,185.3,3,5,7,0,2026-04-11T05:09:01.422972+05:30
Ayodhya,Uttar Pradesh,26.7922,82.1998,19.3,61,0.0,997.0,7.85,45.7,98,393.9,90.1,3,5,7,0,2026-04-11T05:09:01.422979+05:30
Ratlam,Madhya Pradesh,23.3315,75.0367,18.9,68,0.0,956.7,8.35,20.2,53,31.8,19.2,3,5,7,0,2026-04-11T05:09:01.422986+05:30
Sagar,Madhya Pradesh,23.8388,78.7378,20.7,42,0.0,952.9,8.5,26.6,58,20.6,11.9,0,5,7,0,2026-04-11T05:09:01.422992+05:30
Satna,Madhya Pradesh,24.6005,80.8322,20.6,46,0.0,974.2,8.5,33.8,61,48.9,13.2,0,5,7,0,2026-04-11T05:09:01.422999+05:30
Akola,Maharashtra,20.7002,77.0082,25.3,45,0.0,976.9,8.75,24.8,79,34.1,24.8,4,5,7,0,2026-04-11T05:09:01.423006+05:30
Amravati,Maharashtra,20.9374,77.7796,23.1,49,0.0,968.9,8.75,22.3,74,26.7,16.9,0,5,7,0,2026-04-11T05:09:01.423013+05:30
Latur,Maharashtra,18.4088,76.5604,24.8,55,0.0,940.2,9.0,17.6,71,42.3,29.1,0,5,7,0,2026-04-11T05:09:01.423019+05:30
Nanded,Maharashtra,19.1383,77.3091,25.5,61,0.0,969.6,8.9,15.5,81,47.7,37.7,7,5,7,1,2026-04-11T05:09:01.423026+05:30
Gulbarga,Karnataka,17.3297,76.8343,28.6,46,0.0,959.5,9.1,19.8,66,21.8,16.5,4,5,7,0,2026-04-11T05:09:01.423033+05:30
Bidar,Karnataka,17.9104,77.5199,26.3,50,0.0,936.3,9.05,29.2,70,37.0,26.2,4,5,7,0,2026-04-11T05:09:01.423039+05:30
Hospet,Karnataka,15.2689,76.3909,27.1,70,0.0,956.6,9.3,24.1,78,34.7,29.0,7,5,7,1,2026-04-11T05:09:01.423046+05:30
Tirupur,Tamil Nadu,11.1085,77.3411,25.9,77,0.0,976.8,8.65,26.6,75,28.8,22.2,7,5,7,1,2026-04-11T05:09:01.423052+05:30
Alappuzha,Kerala,9.4981,76.3388,26.3,82,0.0,1010.2,8.0,29.9,71,17.7,13.2,7,0,4,1,2026-04-11T05:09:01.423059+05:30
Munnar,Kerala,10.0889,77.0595,20.3,82,0.0,857.2,9.0,37.8,81,28.6,26.8,3,5,7,1,2026-04-11T05:09:01.423066+05:30
Silchar,Assam,24.8333,92.7789,18.9,93,0.0,1008.0,8.6,25.2,128,74.5,55.5,3,5,4,1,2026-04-11T05:09:01.423073+05:30
Dibrugarh,Assam,27.4728,94.912,18.4,100,0.0,999.2,8.4,20.2,95,35.2,28.5,3,10,7,1,2026-04-11T05:09:01.423079+05:30
