city,state,latitude,longitude,temp,humidity,rain,pressure,uv_index,wind_gusts,aqi,pm10,pm2_5,mosquito_risk,arthritis_risk,migraine_risk,frizz_risk,updated_at
Delhi,Delhi,28.6139,77.209,22.1,46,0.0,983.0,6.15,33.8,166,312.0,82.4,0,5,7,0,2026-03-15T03:00:19.381149+05:30
Mumbai,Maharashtra,19.076,72.8777,27.5,76,0.0,1009.1,7.7,21.2,114,87.3,39.9,7,0,4,1,2026-03-15T03:00:19.381194+05:30
Bangalore,Karnataka,12.9716,77.5946,20.4,69,0.0,912.0,9.3,20.9,93,29.9,28.0,3,5,7,0,2026-03-15T03:00:19.381210+05:30
Hyderabad,Telangana,17.385,78.4867,23.2,79,0.0,953.7,8.75,25.6,96,25.8,21.1,3,5,7,1,2026-03-15T03:00:19.381220+05:30
Chennai,Tamil Nadu,13.0827,80.2707,25.0,89,0.0,1009.5,9.05,30.6,50,15.3,12.0,7,0,4,1,2026-03-15T03:00:19.381233+05:30
Kolkata,West Bengal,22.5726,88.3639,25.0,88,0.0,1007.8,7.9,38.2,73,15.7,11.5,7,5,4,1,2026-03-15T03:00:19.381242+05:30
Pune,Maharashtra,18.5204,73.8567,23.0,30,0.0,948.6,8.3,41.8,105,42.7,38.1,0,5,7,0,2026-03-15T03:00:19.381250+05:30
Ahmedabad,Gujarat,23.0225,72.5714,22.3,53,0.0,1002.9,7.5,23.4,82,50.9,19.0,0,5,4,0,2026-03-15T03:00:19.381258+05:30
Jaipur,Rajasthan,26.9124,75.7873,23.1,49,0.0,959.5,7.0,42.8,129,338.1,59.4,0,5,7,0,2026-03-15T03:00:19.381265+05:30
Lucknow,Uttar Pradesh,26.8467,80.9462,21.8,65,0.0,994.3,6.4,34.9,158,150.9,53.8,3,5,7,0,2026-03-15T03:00:19.381272+05:30
Kanpur,Uttar Pradesh,26.4499,80.3319,20.8,70,0.0,992.0,6.75,52.9,250,313.9,69.2,3,5,7,0,2026-03-15T03:00:19.381280+05:30
Chandigarh,Chandigarh,30.7333,76.7794,18.4,68,0.0,968.2,5.85,36.0,81,38.1,36.3,3,5,3,0,2026-03-15T03:00:19.381287+05:30
Srinagar,Jammu and Kashmir,34.0837,74.7973,7.8,83,0.0,837.5,4.5,27.7,103,68.2,51.3,3,10,3,0,2026-03-15T03:00:19.381295+05:30
Jammu,Jammu and Kashmir,32.7266,74.857,17.9,66,0.0,971.7,4.25,42.1,83,30.6,27.5,3,5,3,0,2026-03-15T03:00:19.381302+05:30
Amritsar,Punjab,31.634,74.8723,18.0,63,0.0,979.9,3.75,36.4,84,45.5,42.7,3,5,3,0,2026-03-15T03:00:19.381311+05:30
Ludhiana,Punjab,30.901,75.8573,18.6,52,0.0,978.2,5.3,37.8,111,92.4,66.1,0,5,3,0,2026-03-15T03:00:19.381317+05:30
Jalandhar,Punjab,31.326,75.5762,17.1,64,0.0,979.3,6.1,35.6,97,80.8,53.9,3,5,7,0,2026-03-15T03:00:19.381324+05:30
Dehradun,Uttarakhand,30.6284,78.0322,12.2,36,0.0,828.0,6.15,31.3,51,31.8,16.4,0,5,7,1,2026-03-15T03:00:19.381331+05:30
Shimla,Himachal Pradesh,31.1048,77.1734,10.7,40,0.0,781.7,5.7,50.0,59,39.8,25.6,0,5,3,1,2026-03-15T03:00:19.381338+05:30
Manali,Himachal Pradesh,32.2396,77.1887,11.6,53,0.0,819.0,6.35,35.6,47,20.3,7.5,0,5,7,0,2026-03-15T03:00:19.381345+05:30
Gurgaon,Haryana,28.4595,77.0266,18.8,58,0.0,981.1,6.25,34.9,453,354.8,100.4,0,5,7,0,2026-03-15T03:00:19.381351+05:30
Noida,Uttar Pradesh,28.5355,77.391,20.1,58,0.0,984.5,6.15,32.4,453,354.8,100.4,0,5,7,0,2026-03-15T03:00:19.381357+05:30
Ghaziabad,Uttar Pradesh,28.6692,77.4538,19.2,62,0.0,982.7,6.15,31.0,157,296.2,76.1,3,5,7,0,2026-03-15T03:00:19.381364+05:30
Faridabad,Haryana,28.4089,77.3178,19.3,55,0.0,983.9,6.2,34.2,453,354.8,100.4,0,5,7,0,2026-03-15T03:00:19.381370+05:30
Meerut,Uttar Pradesh,28.9845,77.7064,17.4,70,0.0,981.2,6.05,28.1,157,296.2,76.1,3,5,7,0,2026-03-15T03:00:19.381378+05:30
Agra,Uttar Pradesh,27.1767,78.0081,18.1,66,0.0,988.0,6.6,36.0,417,689.2,95.5,3,5,7,0,2026-03-15T03:00:19.381385+05:30
Varanasi,Uttar Pradesh,25.3176,82.9739,21.6,75,0.0,997.4,7.25,35.6,150,131.3,81.0,3,5,7,1,2026-03-15T03:00:19.381391+05:30
Prayagraj,Uttar Pradesh,25.4358,81.8463,23.2,68,0.0,996.0,7.25,34.2,151,116.9,62.6,3,5,7,1,2026-03-15T03:00:19.381398+05:30
Gorakhpur,Uttar Pradesh,26.7606,83.3732,20.9,64,0.0,997.9,7.05,37.8,153,118.5,91.5,3,5,7,0,2026-03-15T03:00:19.381407+05:30
Bareilly,Uttar Pradesh,28.367,79.4304,17.9,77,0.0,987.1,5.55,32.0,130,150.9,68.9,3,5,3,0,2026-03-15T03:00:19.381413+05:30
Aligarh,Uttar Pradesh,27.8974,78.088,17.8,67,0.0,985.7,6.3,38.2,245,212.3,74.0,3,5,7,0,2026-03-15T03:00:19.381420+05:30
Moradabad,Uttar Pradesh,28.8386,78.7733,18.1,67,0.0,984.2,6.2,25.9,146,135.0,65.4,3,5,7,0,2026-03-15T03:00:19.381426+05:30
Saharanpur,Uttar Pradesh,29.9637,77.546,16.2,76,0.0,975.3,5.8,27.0,144,105.5,73.8,3,5,3,0,2026-03-15T03:00:19.381431+05:30
Jhansi,Uttar Pradesh,25.4484,78.5685,20.6,70,0.0,978.3,7.15,29.5,151,106.9,39.7,3,5,7,0,2026-03-15T03:00:22.696516+05:30
Surat,Gujarat,21.1702,72.8311,25.1,86,0.0,1007.2,7.4,26.3,139,70.3,43.5,7,5,4,1,2026-03-15T03:00:22.696547+05:30
Vadodara,Gujarat,22.3072,73.1812,23.5,77,0.0,1005.0,7.5,23.8,95,55.6,37.1,3,5,4,1,2026-03-15T03:00:22.696557+05:30
Rajkot,Gujarat,22.3039,70.8022,23.2,80,0.0,995.4,7.35,29.2,92,49.4,21.0,3,5,7,1,2026-03-15T03:00:22.696564+05:30
Thane,Maharashtra,19.2183,72.9781,24.7,89,0.0,1008.6,7.7,33.1,114,87.3,39.9,3,0,4,1,2026-03-15T03:00:22.696571+05:30
Nagpur,Maharashtra,21.1458,79.0882,24.2,60,0.0,973.0,8.15,27.7,128,46.9,41.9,0,5,7,0,2026-03-15T03:00:22.696578+05:30
Nashik,Maharashtra,19.9975,73.7898,21.3,31,0.0,945.8,7.9,40.0,86,45.6,27.8,0,5,7,0,2026-03-15T03:00:22.696584+05:30
Aurangabad,Maharashtra,19.8762,75.3433,23.2,37,0.0,944.2,8.4,26.3,83,38.8,31.4,0,5,7,0,2026-03-15T03:00:22.696591+05:30
Solapur,Maharashtra,17.6599,75.9064,22.7,56,0.0,957.2,8.65,26.6,109,40.7,36.7,0,5,7,0,2026-03-15T03:00:22.696598+05:30
Kolhapur,Maharashtra,16.705,74.2433,21.3,87,0.0,948.2,8.75,46.1,153,58.1,54.1,3,5,7,1,2026-03-15T03:00:22.696604+05:30
Goa,Goa,15.2993,74.124,27.9,81,0.0,998.6,8.8,31.3,128,54.2,49.4,7,5,7,1,2026-03-15T03:00:22.696611+05:30
Jodhpur,Rajasthan,26.2389,73.0243,23.1,46,0.0,982.2,7.25,30.6,95,183.0,44.6,0,5,7,0,2026-03-15T03:00:22.696618+05:30
Udaipur,Rajasthan,24.5854,73.7125,23.2,40,0.0,946.5,7.85,32.8,67,70.8,24.9,0,5,7,0,2026-03-15T03:00:22.696624+05:30
Kota,Rajasthan,25.2138,75.8648,21.3,73,0.0,978.9,7.3,36.7,81,24.7,15.8,3,5,7,1,2026-03-15T03:00:22.696630+05:30
Bikaner,Rajasthan,28.0229,73.3119,23.2,52,0.0,981.5,6.9,45.0,77,51.5,23.3,0,5,7,0,2026-03-15T03:00:22.696636+05:30
Ajmer,Rajasthan,26.4499,74.6399,21.6,53,0.0,953.5,7.25,39.6,82,42.0,22.2,0,5,7,0,2026-03-15T03:00:22.696642+05:30
Gwalior,Madhya Pradesh,26.2183,78.1828,22.3,67,0.0,983.4,6.9,28.4,197,130.4,44.1,3,5,7,0,2026-03-15T03:00:22.696649+05:30
Indore,Madhya Pradesh,22.7196,75.8577,20.0,54,0.0,947.5,7.8,31.7,78,31.0,18.7,0,5,7,0,2026-03-15T03:00:22.696655+05:30
Bhopal,Madhya Pradesh,23.2599,77.4126,18.8,51,0.0,952.9,7.7,34.9,77,25.4,20.6,0,5,7,0,2026-03-15T03:00:22.696662+05:30
Jabalpur,Madhya Pradesh,23.1815,79.9864,22.7,51,0.0,960.8,7.85,31.0,75,24.7,23.1,0,5,7,0,2026-03-15T03:00:22.696668+05:30
Ujjain,Madhya Pradesh,23.1765,75.7885,19.4,60,0.0,953.4,7.7,28.1,79,33.8,20.5,0,5,7,0,2026-03-15T03:00:22.696674+05:30
Visakhapatnam,Andhra Pradesh,17.6868,83.2185,24.5,87,0.0,1006.1,8.7,40.7,56,17.6,14.8,3,5,4,1,2026-03-15T03:00:22.696680+05:30
Vijayawada,Andhra Pradesh,16.5062,80.648,24.1,92,0.0,1004.7,8.75,24.5,58,19.3,16.8,3,5,4,1,2026-03-15T03:00:22.696686+05:30
Guntur,Andhra Pradesh,16.3067,80.4365,24.5,91,0.0,1005.7,8.75,24.8,55,16.7,14.6,3,5,4,1,2026-03-15T03:00:22.696693+05:30
Nellore,Andhra Pradesh,14.4426,79.9865,23.9,96,0.0,1007.5,8.95,32.0,55,12.3,10.4,3,5,4,1,2026-03-15T03:00:22.696700+05:30
Kurnool,Andhra Pradesh,15.8281,78.0373,25.6,65,0.0,977.3,8.75,19.1,84,25.1,21.3,7,5,7,1,2026-03-15T03:00:22.696708+05:30
Kakinada,Andhra Pradesh,16.9891,82.2475,23.2,93,0.0,1009.9,8.7,28.1,46,15.5,12.0,3,0,4,1,2026-03-15T03:00:22.696714+05:30
Tirupati,Andhra Pradesh,13.6288,79.4192,22.4,93,0.0,993.6,9.05,25.2,70,26.2,24.5,3,5,7,1,2026-03-15T03:00:22.696721+05:30
Warangal,Telangana,17.9689,79.5941,23.1,89,0.0,979.7,8.55,32.0,78,15.2,13.0,3,5,7,1,2026-03-15T03:00:22.696727+05:30
Nizamabad,Telangana,18.6725,78.0941,26.5,56,0.0,965.0,8.45,29.5,120,29.3,26.7,4,5,7,1,2026-03-15T03:00:22.696733+05:30
Mysore,Karnataka,12.2958,76.6396,21.2,93,0.0,929.4,9.3,32.8,96,35.9,33.8,3,5,7,1,2026-03-15T03:00:22.696740+05:30
Mangalore,Karnataka,12.9141,74.856,28.1,81,0.0,1007.6,8.95,27.0,93,37.3,32.2,7,5,4,1,2026-03-15T03:00:22.696746+05:30
Hubli-Dharwad,Karnataka,15.3647,75.124,23.0,94,0.0,941.3,8.95,43.2,109,33.4,31.2,3,5,7,1,2026-03-15T03:00:22.696752+05:30
Belgaum,Karnataka,15.8497,74.4977,22.4,94,0.0,926.1,9.0,41.0,130,67.1,64.3,3,5,7,1,2026-03-15T03:00:26.003540+05:30
Coimbatore,Tamil Nadu,11.0168,76.9558,21.7,84,0.0,962.9,9.3,31.3,71,38.8,37.0,3,5,7,1,2026-03-15T03:00:26.003570+05:30
Madurai,Tamil Nadu,9.9252,78.1198,24.0,83,0.0,995.1,9.25,24.1,55,19.6,17.8,3,5,7,1,2026-03-15T03:00:26.003580+05:30
Trichy,Tamil Nadu,10.7905,78.7047,24.3,94,0.0,1001.9,9.2,19.8,62,20.1,17.8,3,5,4,1,2026-03-15T03:00:26.003589+05:30
Salem,Tamil Nadu,11.6643,78.146,22.9,93,0.0,979.0,9.2,16.6,81,31.5,29.9,3,5,7,1,2026-03-15T03:00:26.003597+05:30
Tirunelveli,Tamil Nadu,8.7139,77.7567,23.7,87,0.0,1004.9,9.25,41.0,51,18.6,18.0,3,5,4,1,2026-03-15T03:00:26.003603+05:30
Vellore,Tamil Nadu,12.9165,79.1325,21.3,91,0.0,986.5,9.1,29.5,92,46.2,44.7,3,5,7,1,2026-03-15T03:00:26.003611+05:30
Erode,Tamil Nadu,11.341,77.7172,24.6,90,0.0,990.9,9.2,21.2,55,14.7,13.4,3,5,7,1,2026-03-15T03:00:26.003617+05:30
Kochi,Kerala,9.9312,76.2673,26.5,85,0.0,1009.8,9.1,33.5,86,34.1,33.6,7,0,4,1,2026-03-15T03:00:26.003624+05:30
Thiruvananthapuram,Kerala,8.5241,76.9366,27.7,82,0.0,1008.7,9.15,29.5,49,12.0,9.4,7,0,4,1,2026-03-15T03:00:26.003632+05:30
Kozhikode,Kerala,11.2588,75.7804,26.8,85,0.0,1009.1,9.0,28.4,69,25.4,22.2,7,0,4,1,2026-03-15T03:00:26.003638+05:30
Thrissur,Kerala,10.5276,76.2144,25.5,92,0.0,1008.4,9.05,36.4,80,33.2,32.2,7,0,4,1,2026-03-15T03:00:26.003646+05:30
Kannur,Kerala,11.8745,75.3704,26.9,84,0.0,1008.3,9.0,29.2,88,33.1,31.0,7,0,4,1,2026-03-15T03:00:26.003653+05:30
Patna,Bihar,25.5941,85.1376,24.7,70,0.0,1000.8,7.4,30.2,152,146.7,90.3,3,5,4,1,2026-03-15T03:00:26.003660+05:30
Gaya,Bihar,24.7914,85.0002,22.9,66,0.0,993.8,7.65,30.2,126,99.0,60.3,3,5,7,1,2026-03-15T03:00:26.003666+05:30
Muzaffarpur,Bihar,26.1209,85.3647,19.7,78,0.0,1000.9,7.5,34.9,160,136.4,99.4,3,5,4,0,2026-03-15T03:00:26.003672+05:30
Bhagalpur,Bihar,25.2425,87.0117,21.5,95,0.0,1001.9,7.55,23.4,153,78.0,61.5,3,5,4,1,2026-03-15T03:00:26.003678+05:30
Ranchi,Jharkhand,23.3441,85.3096,21.1,41,0.0,938.0,8.3,44.6,78,54.6,24.3,0,5,7,0,2026-03-15T03:00:26.003685+05:30
Jamshedpur,Jharkhand,22.8046,86.2029,25.6,78,0.0,991.8,8.2,43.2,148,48.0,42.4,7,5,7,1,2026-03-15T03:00:26.003691+05:30
Dhanbad,Jharkhand,23.7957,86.4304,24.2,87,0.0,980.4,8.05,54.0,161,118.0,105.7,3,5,7,1,2026-03-15T03:00:26.003698+05:30
Bokaro,Jharkhand,23.6693,86.1511,21.5,74,0.0,984.5,8.05,47.2,153,115.5,85.9,3,5,7,1,2026-03-15T03:00:26.003704+05:30
Bhubaneswar,Odisha,20.2961,85.8245,25.1,87,0.0,1004.2,8.5,39.6,57,12.0,8.8,7,5,4,1,2026-03-15T03:00:26.003710+05:30
Cuttack,Odisha,20.4625,85.8828,24.8,88,0.0,1006.1,8.5,33.8,57,12.0,8.8,3,5,4,1,2026-03-15T03:00:26.003717+05:30
Rourkela,Odisha,22.2604,84.8536,25.6,82,0.0,986.2,8.1,43.9,109,52.6,46.6,7,5,7,1,2026-03-15T03:00:26.003723+05:30
Raipur,Chhattisgarh,21.2514,81.6296,24.9,56,0.0,975.0,8.2,40.7,148,59.8,56.7,0,5,7,0,2026-03-15T03:00:26.003730+05:30
Bhilai,Chhattisgarh,21.1938,81.3509,23.8,59,0.0,975.1,8.25,38.2,137,52.6,48.9,0,5,7,0,2026-03-15T03:00:26.003736+05:30
Guwahati,Assam,26.1158,91.7086,20.2,96,0.0,1004.5,7.45,45.4,63,23.9,17.4,3,5,4,1,2026-03-15T03:00:26.003742+05:30
Agartala,Tripura,23.8315,91.2868,19.9,93,0.0,1010.0,7.9,48.6,72,12.7,10.0,3,5,4,1,2026-03-15T03:00:26.003749+05:30
Shillong,Meghalaya,25.5788,91.8933,12.7,93,0.0,856.2,7.85,75.6,51,12.2,7.7,3,10,7,0,2026-03-15T03:00:26.003756+05:30
Imphal,Manipur,24.817,93.9368,16.0,90,0.0,925.2,8.05,78.1,121,53.6,47.5,3,10,7,0,2026-03-15T03:00:26.003761+05:30
Aizawl,Mizoram,23.7271,92.7176,15.9,90,0.0,894.6,8.1,60.1,94,31.8,23.8,3,10,7,0,2026-03-15T03:00:26.003767+05:30
Kohima,Nagaland,25.6701,94.1077,14.3,80,0.0,855.0,7.35,110.5,86,24.3,20.1,3,5,7,0,2026-03-15T03:00:26.003774+05:30
Gangtok,Sikkim,27.3314,88.6138,12.0,91,0.0,835.9,7.55,20.9,65,32.5,23.2,3,10,7,0,2026-03-15T03:00:26.003780+05:30
Siliguri,West Bengal,26.7271,88.3953,19.2,80,0.0,995.6,7.4,34.9,137,64.5,47.0,3,5,7,0,2026-03-15T03:00:29.317884+05:30
Durgapur,West Bengal,23.5204,87.3119,24.4,93,0.0,996.0,8.05,26.3,151,35.2,32.9,3,5,7,1,2026-03-15T03:00:29.317917+05:30
Asansol,West Bengal,23.6739,86.9524,24.9,91,0.0,994.3,8.05,31.3,150,55.3,51.7,3,5,7,1,2026-03-15T03:00:29.317927+05:30
Pondicherry,Puducherry,11.9139,79.8145,24.2,94,0.0,1010.7,9.05,30.6,44,13.0,9.7,3,0,4,1,2026-03-15T03:00:29.317935+05:30
Port Blair,Andaman and Nicobar Islands,11.6234,92.7265,27.3,82,0.0,1008.9,8.95,23.4,54,13.1,9.9,7,0,4,1,2026-03-15T03:00:29.317944+05:30
Haridwar,Uttarakhand,29.9457,78.1642,18.1,76,0.0,974.1,5.85,25.2,98,46.2,38.5,3,5,3,0,2026-03-15T03:00:29.317952+05:30
Rishikesh,Uttarakhand,30.0869,78.2676,19.2,70,0.0,967.1,5.95,36.4,63,30.2,22.8,3,5,3,0,2026-03-15T03:00:29.317959+05:30
Nainital,Uttarakhand,29.3919,79.4542,16.4,28,0.0,804.8,5.65,50.8,86,35.0,30.2,0,5,3,1,2026-03-15T03:00:29.317966+05:30
Mussoorie,Uttarakhand,30.4599,78.0664,14.6,57,0.0,801.2,6.15,29.2,73,42.8,33.6,0,5,7,0,2026-03-15T03:00:29.317973+05:30
Dharamshala,Himachal Pradesh,32.219,76.3234,19.8,23,0.0,867.9,4.65,39.6,41,11.8,5.1,0,5,3,1,2026-03-15T03:00:29.317980+05:30
Dalhousie,Himachal Pradesh,32.5387,75.971,15.4,26,0.0,801.7,4.1,43.6,67,33.8,25.4,0,5,3,1,2026-03-15T03:00:29.317989+05:30
Patiala,Punjab,30.3398,76.3869,16.6,68,0.0,977.6,5.9,48.6,150,149.5,68.2,3,5,3,0,2026-03-15T03:00:29.317996+05:30
Bhatinda,Punjab,30.211,74.9455,18.3,72,0.0,983.1,6.45,46.1,96,82.4,45.4,3,5,7,0,2026-03-15T03:00:29.318003+05:30
Rohtak,Haryana,28.8955,76.6066,17.7,72,0.0,981.4,6.15,32.4,166,285.0,79.6,3,5,7,0,2026-03-15T03:00:29.318011+05:30
Panipat,Haryana,29.3909,76.9635,16.9,65,0.0,979.8,5.7,36.7,463,497.3,106.2,3,5,3,0,2026-03-15T03:00:29.318019+05:30
Mathura,Uttar Pradesh,27.4924,77.6737,18.5,69,0.0,987.5,6.45,37.4,220,760.0,95.2,3,5,7,0,2026-03-15T03:00:29.318026+05:30
Vrindavan,Uttar Pradesh,27.5823,77.7027,18.2,68,0.0,987.8,6.45,35.3,220,760.0,95.2,3,5,7,0,2026-03-15T03:00:29.318033+05:30
Ayodhya,Uttar Pradesh,26.7922,82.1998,20.3,76,0.0,996.5,6.9,33.1,153,106.9,50.5,3,5,7,0,2026-03-15T03:00:29.318041+05:30
Ratlam,Madhya Pradesh,23.3315,75.0367,22.5,51,0.0,954.4,7.65,31.3,75,36.2,20.0,0,5,7,0,2026-03-15T03:00:29.318048+05:30
Sagar,Madhya Pradesh,23.8388,78.7378,22.7,43,0.0,949.4,7.65,33.5,65,19.8,17.9,0,5,7,0,2026-03-15T03:00:29.318055+05:30
Satna,Madhya Pradesh,24.6005,80.8322,21.8,69,0.0,971.0,7.6,31.3,101,111.8,38.6,3,5,7,0,2026-03-15T03:00:29.318061+05:30
Akola,Maharashtra,20.7002,77.0082,24.3,50,0.0,975.1,8.15,25.2,92,39.0,35.3,0,5,7,0,2026-03-15T03:00:29.318069+05:30
Amravati,Maharashtra,20.9374,77.7796,21.8,63,0.0,967.1,8.1,22.7,101,41.0,37.7,3,5,7,0,2026-03-15T03:00:29.318093+05:30
Latur,Maharashtra,18.4088,76.5604,23.3,47,0.0,940.1,8.6,26.6,113,55.3,48.0,0,5,7,0,2026-03-15T03:00:29.318102+05:30
Nanded,Maharashtra,19.1383,77.3091,26.1,54,0.0,969.1,8.35,22.7,134,54.1,47.3,4,5,7,1,2026-03-15T03:00:29.318108+05:30
Gulbarga,Karnataka,17.3297,76.8343,26.9,46,0.0,959.5,8.65,14.0,102,50.3,41.8,4,5,7,0,2026-03-15T03:00:29.318115+05:30
Bidar,Karnataka,17.9104,77.5199,24.2,57,0.0,935.8,8.6,17.3,111,37.1,33.3,0,5,7,0,2026-03-15T03:00:29.318121+05:30
Hospet,Karnataka,15.2689,76.3909,25.1,81,0.0,957.1,8.9,28.8,110,42.6,39.5,7,5,7,1,2026-03-15T03:00:29.318128+05:30
Tirupur,Tamil Nadu,11.1085,77.3411,24.5,78,0.0,976.8,9.3,27.4,63,29.0,27.5,3,5,7,1,2026-03-15T03:00:29.318134+05:30
Alappuzha,Kerala,9.4981,76.3388,26.5,85,0.0,1009.8,9.1,30.2,72,27.7,25.3,7,0,4,1,2026-03-15T03:00:29.318141+05:30
Munnar,Kerala,10.0889,77.0595,18.4,88,0.0,856.2,9.6,37.4,58,22.0,20.7,3,10,7,1,2026-03-15T03:00:29.318148+05:30
Silchar,Assam,24.8333,92.7789,20.3,94,0.0,1009.7,7.55,41.8,89,30.7,26.1,3,0,4,1,2026-03-15T03:00:29.318155+05:30
Dibrugarh,Assam,27.4728,94.912,19.3,92,0.0,998.4,5.0,33.5,80,24.0,21.1,3,10,3,1,2026-03-15T03:00:29.318162+05:30
