city,state,latitude,longitude,temp,humidity,rain,pressure,uv_index,wind_gusts,aqi,pm10,pm2_5,no2,co,o3,so2,mosquito_risk,arthritis_risk,migraine_risk,frizz_risk,updated_at
Delhi,Delhi,28.6139,77.209,33.6,59,0.0,977.1,7.65,34.2,328,774.9,179.7,57.1,1172.0,36.0,21.2,0,5,7,1,2026-07-16T20:33:28.716524+05:30
Mumbai,Maharashtra,19.076,72.8777,27.8,81,0.0,1007.3,7.45,34.6,69,29.8,16.5,15.5,280.0,35.0,11.4,7,5,4,1,2026-07-16T20:33:28.716565+05:30
Bangalore,Karnataka,12.9716,77.5946,24.9,63,0.0,912.6,8.9,41.8,65,24.0,16.0,21.8,439.0,52.0,6.0,3,5,7,1,2026-07-16T20:33:28.716581+05:30
Hyderabad,Telangana,17.385,78.4867,28.7,56,0.0,952.0,8.3,47.9,62,46.4,27.7,29.9,337.0,41.0,8.2,4,5,7,1,2026-07-16T20:33:28.716590+05:30
Chennai,Tamil Nadu,13.0827,80.2707,31.9,57,0.0,1005.6,7.9,42.8,103,41.8,28.9,12.3,291.0,123.0,9.1,0,5,4,1,2026-07-16T20:33:28.716599+05:30
Kolkata,West Bengal,22.5726,88.3639,28.1,84,0.0,999.8,8.05,35.3,62,23.1,18.7,8.4,921.0,91.0,7.3,7,5,7,1,2026-07-16T20:33:28.716607+05:30
Pune,Maharashtra,18.5204,73.8567,23.8,85,0.0,947.2,7.5,45.0,50,11.8,7.6,11.6,201.0,37.0,7.1,3,5,7,1,2026-07-16T20:33:28.716614+05:30
Ahmedabad,Gujarat,23.0225,72.5714,29.6,74,0.0,999.0,7.0,40.0,82,48.0,24.4,15.4,199.0,49.0,6.8,7,5,7,1,2026-07-16T20:33:28.716620+05:30
Jaipur,Rajasthan,26.9124,75.7873,33.0,47,0.0,955.9,8.15,40.0,195,361.4,83.1,17.8,216.0,57.0,6.3,0,5,7,1,2026-07-16T20:33:28.716626+05:30
Lucknow,Uttar Pradesh,26.8467,80.9462,29.4,91,0.0,988.5,6.5,28.8,162,93.1,59.6,15.9,515.0,101.0,10.0,7,5,7,1,2026-07-16T20:33:28.716637+05:30
Kanpur,Uttar Pradesh,26.4499,80.3319,29.4,89,0.0,986.8,7.5,33.8,167,126.2,65.9,21.3,336.0,79.0,8.5,7,5,7,1,2026-07-16T20:33:28.716644+05:30
Chandigarh,Chandigarh,30.7333,76.7794,29.9,76,0.0,962.8,7.7,32.0,175,66.6,56.2,26.8,1068.0,121.0,14.2,7,5,7,1,2026-07-16T20:33:28.716650+05:30
Srinagar,Jammu and Kashmir,34.0837,74.7973,27.3,51,0.0,837.7,9.0,16.6,136,33.8,27.6,28.2,1545.0,94.0,4.9,4,5,7,1,2026-07-16T20:33:28.716657+05:30
Jammu,Jammu and Kashmir,32.7266,74.857,31.1,70,0.0,965.7,8.55,21.2,155,80.1,63.1,43.5,675.0,104.0,9.3,3,5,7,1,2026-07-16T20:33:28.716663+05:30
Amritsar,Punjab,31.634,74.8723,31.8,71,0.0,974.0,8.2,19.8,175,99.9,81.3,46.1,1026.0,85.0,13.6,3,5,7,1,2026-07-16T20:33:28.716669+05:30
Ludhiana,Punjab,30.901,75.8573,32.1,68,0.0,972.4,7.9,31.3,171,92.0,78.5,40.9,813.0,77.0,9.6,3,5,7,1,2026-07-16T20:33:28.716675+05:30
Jalandhar,Punjab,31.326,75.5762,31.3,76,0.0,973.3,8.2,24.5,180,113.2,92.2,49.6,1402.0,84.0,11.3,3,5,7,1,2026-07-16T20:33:28.716682+05:30
Dehradun,Uttarakhand,30.6284,78.0322,20.0,97,0.0,828.2,8.0,29.2,133,54.9,41.2,19.1,324.0,121.0,6.8,3,5,7,1,2026-07-16T20:33:28.716688+05:30
Shimla,Himachal Pradesh,31.1048,77.1734,16.5,96,0.0,782.3,8.25,40.7,128,51.6,36.8,13.1,421.0,118.0,7.4,3,10,7,0,2026-07-16T20:33:28.716694+05:30
Manali,Himachal Pradesh,32.2396,77.1887,20.3,95,0.0,817.7,9.55,33.1,99,21.8,14.1,35.7,228.0,80.0,1.6,3,5,7,1,2026-07-16T20:33:28.716703+05:30
Gurgaon,Haryana,28.4595,77.0266,32.4,63,0.0,975.6,7.75,34.2,332,519.7,142.0,56.4,846.0,31.0,15.9,3,5,7,1,2026-07-16T20:33:28.716711+05:30
Noida,Uttar Pradesh,28.5355,77.391,33.3,59,0.0,978.5,7.6,27.7,332,519.7,142.0,56.4,856.0,31.0,15.9,0,5,7,1,2026-07-16T20:33:28.716717+05:30
Ghaziabad,Uttar Pradesh,28.6692,77.4538,32.1,69,0.0,976.7,7.6,33.5,211,638.9,165.8,49.3,887.0,53.0,22.7,3,5,7,1,2026-07-16T20:33:28.716724+05:30
Faridabad,Haryana,28.4089,77.3178,33.1,62,0.0,977.8,7.6,33.8,332,519.7,142.0,56.4,824.0,31.0,15.9,3,5,7,1,2026-07-16T20:33:28.716730+05:30
Meerut,Uttar Pradesh,28.9845,77.7064,31.3,71,0.0,975.4,7.6,38.2,211,638.9,165.8,49.3,716.0,53.0,22.7,3,5,7,1,2026-07-16T20:33:28.716736+05:30
Agra,Uttar Pradesh,27.1767,78.0081,32.3,68,0.0,982.5,7.9,36.4,150,105.7,51.6,26.1,355.0,59.0,8.3,3,5,7,1,2026-07-16T20:33:28.716745+05:30
Varanasi,Uttar Pradesh,25.3176,82.9739,29.1,90,0.0,992.5,7.55,28.8,184,85.9,60.5,14.6,625.0,107.0,8.9,7,5,7,1,2026-07-16T20:33:28.716752+05:30
Prayagraj,Uttar Pradesh,25.4358,81.8463,29.3,90,0.0,991.3,6.75,31.7,170,96.2,59.0,16.3,619.0,94.0,9.9,7,5,7,1,2026-07-16T20:33:28.716759+05:30
Gorakhpur,Uttar Pradesh,26.7606,83.3732,27.8,93,0.0,992.6,7.5,25.9,147,31.1,29.1,13.5,600.0,89.0,4.8,7,5,7,1,2026-07-16T20:33:28.716765+05:30
Bareilly,Uttar Pradesh,28.367,79.4304,29.9,88,0.0,981.6,7.4,28.4,178,144.4,92.7,28.3,525.0,87.0,14.3,7,5,7,1,2026-07-16T20:33:28.716773+05:30
Aligarh,Uttar Pradesh,27.8974,78.088,31.4,70,0.0,979.8,7.55,32.4,222,603.5,153.2,27.1,397.0,56.0,7.7,3,5,7,1,2026-07-16T20:33:28.716779+05:30
Moradabad,Uttar Pradesh,28.8386,78.7733,31.3,77,0.0,977.9,7.8,33.1,188,241.2,119.7,39.6,716.0,62.0,16.0,3,5,7,1,2026-07-16T20:33:28.716785+05:30
Saharanpur,Uttar Pradesh,29.9637,77.546,30.8,74,0.0,969.4,7.35,36.7,168,127.6,68.5,20.4,496.0,94.0,11.7,3,5,7,1,2026-07-16T20:33:28.716791+05:30
Jhansi,Uttar Pradesh,25.4484,78.5685,31.3,66,0.0,973.7,4.05,38.5,96,45.4,24.5,9.4,277.0,63.0,3.0,3,5,3,1,2026-07-16T20:33:32.096083+05:30
Surat,Gujarat,21.1702,72.8311,28.5,81,0.0,1004.7,7.7,41.8,75,27.2,19.6,27.2,311.0,22.0,41.1,7,5,4,1,2026-07-16T20:33:32.096115+05:30
Vadodara,Gujarat,22.3072,73.1812,29.1,79,0.0,1001.7,6.5,37.8,72,25.4,19.0,20.3,184.0,48.0,23.2,7,5,4,1,2026-07-16T20:33:32.096126+05:30
Rajkot,Gujarat,22.3039,70.8022,28.5,76,0.0,991.0,7.25,34.9,68,25.3,15.0,10.5,116.0,39.0,4.5,7,5,7,1,2026-07-16T20:33:32.096136+05:30
Thane,Maharashtra,19.2183,72.9781,26.2,94,0.1,1006.8,6.75,32.0,69,29.8,16.5,15.5,316.0,35.0,11.4,10,5,4,1,2026-07-16T20:33:32.096145+05:30
Nagpur,Maharashtra,21.1458,79.0882,31.1,62,0.0,970.1,8.2,41.4,86,49.8,28.2,17.4,489.0,58.0,14.9,3,5,7,1,2026-07-16T20:33:32.096154+05:30
Nashik,Maharashtra,19.9975,73.7898,23.4,91,0.0,944.3,7.85,40.3,58,19.2,12.3,9.6,186.0,62.0,7.9,3,5,7,1,2026-07-16T20:33:32.096163+05:30
Aurangabad,Maharashtra,19.8762,75.3433,25.9,77,0.0,942.9,8.05,39.6,58,23.4,15.5,7.4,194.0,76.0,7.3,7,5,7,1,2026-07-16T20:33:32.096171+05:30
Solapur,Maharashtra,17.6599,75.9064,25.3,84,0.1,956.3,8.45,42.5,55,19.5,11.2,5.2,148.0,57.0,2.3,10,5,7,1,2026-07-16T20:33:32.096179+05:30
Kolhapur,Maharashtra,16.705,74.2433,22.9,91,0.0,947.8,7.4,47.2,50,17.2,11.1,9.7,160.0,38.0,3.1,3,5,7,1,2026-07-16T20:33:32.096187+05:30
Goa,Goa,15.2993,74.124,24.8,99,0.2,999.3,7.15,30.6,71,28.1,13.5,4.0,255.0,48.0,1.5,6,5,7,1,2026-07-16T20:33:32.096195+05:30
Jodhpur,Rajasthan,26.2389,73.0243,33.7,44,0.0,978.4,8.4,34.6,132,247.7,59.0,7.9,146.0,60.0,2.2,0,5,7,1,2026-07-16T20:33:32.096203+05:30
Udaipur,Rajasthan,24.5854,73.7125,28.1,63,0.0,943.6,8.8,30.6,82,49.2,25.3,5.5,161.0,75.0,3.6,7,5,7,1,2026-07-16T20:33:32.096211+05:30
Kota,Rajasthan,25.2138,75.8648,32.2,54,0.0,974.8,8.3,31.7,86,46.8,28.1,13.4,282.0,66.0,6.0,0,5,7,1,2026-07-16T20:33:32.096219+05:30
Bikaner,Rajasthan,28.0229,73.3119,35.8,38,0.0,976.0,8.4,37.4,136,114.1,43.4,3.2,128.0,65.0,2.4,0,5,10,1,2026-07-16T20:33:32.096227+05:30
Ajmer,Rajasthan,26.4499,74.6399,30.2,57,0.0,951.0,8.35,43.6,89,59.6,29.6,10.5,241.0,61.0,3.6,0,5,7,1,2026-07-16T20:33:32.096235+05:30
Gwalior,Madhya Pradesh,26.2183,78.1828,30.9,70,0.0,978.5,8.05,37.1,109,81.0,36.0,10.9,189.0,65.0,3.5,3,5,7,1,2026-07-16T20:33:32.096243+05:30
Indore,Madhya Pradesh,22.7196,75.8577,28.6,65,0.0,945.9,7.75,39.2,71,44.1,29.2,16.2,394.0,59.0,6.7,7,5,7,1,2026-07-16T20:33:32.096250+05:30
Bhopal,Madhya Pradesh,23.2599,77.4126,28.3,79,0.0,950.6,8.2,38.5,83,40.6,24.9,11.7,383.0,64.0,5.3,7,5,7,1,2026-07-16T20:33:32.096258+05:30
Jabalpur,Madhya Pradesh,23.1815,79.9864,25.7,99,0.0,958.9,8.45,35.3,100,39.6,23.6,7.3,382.0,75.0,3.5,7,5,7,1,2026-07-16T20:33:32.096266+05:30
Ujjain,Madhya Pradesh,23.1765,75.7885,28.0,70,0.0,951.1,8.4,36.0,73,45.5,28.8,8.3,352.0,71.0,4.9,7,5,7,1,2026-07-16T20:33:32.096274+05:30
Visakhapatnam,Andhra Pradesh,17.6868,83.2185,30.1,67,0.0,999.7,6.6,34.9,91,34.0,23.9,26.2,583.0,65.0,44.6,3,5,7,1,2026-07-16T20:33:32.096282+05:30
Vijayawada,Andhra Pradesh,16.5062,80.648,30.5,66,0.0,1000.5,7.0,46.8,73,35.3,25.6,13.2,368.0,62.0,6.9,3,5,4,1,2026-07-16T20:33:32.096289+05:30
Guntur,Andhra Pradesh,16.3067,80.4365,31.5,54,0.0,1001.7,7.1,45.7,70,34.7,25.7,14.9,370.0,59.0,6.0,0,5,4,1,2026-07-16T20:33:32.096297+05:30
Nellore,Andhra Pradesh,14.4426,79.9865,32.9,46,0.0,1004.0,7.95,43.2,70,38.2,22.4,8.8,192.0,80.0,4.4,0,5,4,1,2026-07-16T20:33:32.096305+05:30
Kurnool,Andhra Pradesh,15.8281,78.0373,25.8,80,0.1,976.5,8.15,41.0,64,54.0,23.1,7.0,151.0,70.0,5.8,10,5,7,1,2026-07-16T20:33:32.096313+05:30
Kakinada,Andhra Pradesh,16.9891,82.2475,29.5,71,0.0,1004.6,3.2,41.4,77,38.3,24.4,8.4,267.0,92.0,7.1,7,5,0,1,2026-07-16T20:33:32.096321+05:30
Tirupati,Andhra Pradesh,13.6288,79.4192,31.6,48,0.0,990.0,8.1,30.2,78,60.8,42.4,50.0,259.0,19.0,5.7,0,5,7,1,2026-07-16T20:33:32.096329+05:30
Warangal,Telangana,17.9689,79.5941,28.4,74,0.0,976.7,2.35,43.2,66,29.2,20.3,9.3,373.0,60.0,4.5,7,5,3,1,2026-07-16T20:33:32.096336+05:30
Nizamabad,Telangana,18.6725,78.0941,27.3,74,0.0,963.1,5.65,41.8,63,36.4,20.0,7.6,281.0,72.0,4.8,7,5,3,1,2026-07-16T20:33:32.096344+05:30
Mysore,Karnataka,12.2958,76.6396,22.9,81,0.0,929.5,8.8,42.8,61,23.4,13.4,9.7,148.0,51.0,2.5,3,5,7,1,2026-07-16T20:33:32.096373+05:30
Mangalore,Karnataka,12.9141,74.856,25.3,94,0.1,1008.9,7.95,35.3,70,27.7,15.0,9.6,218.0,37.0,2.8,10,0,4,1,2026-07-16T20:33:32.096381+05:30
Hubli-Dharwad,Karnataka,15.3647,75.124,23.0,87,0.0,941.3,7.5,46.1,53,10.9,6.7,6.7,150.0,44.0,1.5,3,5,7,1,2026-07-16T20:33:32.096389+05:30
Belgaum,Karnataka,15.8497,74.4977,21.3,95,0.0,925.7,7.9,49.3,48,10.1,6.2,7.2,127.0,42.0,2.3,3,5,7,1,2026-07-16T20:33:35.464605+05:30
Coimbatore,Tamil Nadu,11.0168,76.9558,24.9,83,0.0,962.3,8.5,52.6,59,22.4,13.3,8.4,191.0,47.0,3.6,3,5,7,1,2026-07-16T20:33:35.464638+05:30
Madurai,Tamil Nadu,9.9252,78.1198,32.0,50,0.0,992.9,8.2,45.7,83,27.8,19.5,18.6,177.0,63.0,5.4,0,5,7,1,2026-07-16T20:33:35.464649+05:30
Trichy,Tamil Nadu,10.7905,78.7047,31.0,55,0.0,999.8,8.1,45.7,66,29.6,23.1,20.9,150.0,52.0,5.8,0,5,7,1,2026-07-16T20:33:35.464658+05:30
Salem,Tamil Nadu,11.6643,78.146,28.3,66,0.0,977.7,8.1,27.0,76,30.5,21.1,21.9,253.0,54.0,6.6,7,5,7,1,2026-07-16T20:33:35.464667+05:30
Tirunelveli,Tamil Nadu,8.7139,77.7567,30.2,60,0.0,1003.2,7.95,41.0,60,22.3,12.6,5.8,143.0,55.0,2.2,0,5,4,1,2026-07-16T20:33:35.464675+05:30
Vellore,Tamil Nadu,12.9165,79.1325,32.2,40,0.0,983.6,8.3,42.1,79,63.3,41.0,27.4,402.0,47.0,6.8,0,5,7,1,2026-07-16T20:33:35.464683+05:30
Erode,Tamil Nadu,11.341,77.7172,28.4,68,0.0,989.3,8.35,41.8,66,25.7,16.9,15.7,186.0,48.0,3.7,7,5,7,1,2026-07-16T20:33:35.464690+05:30
Kochi,Kerala,9.9312,76.2673,27.8,80,0.0,1010.8,8.45,28.4,78,34.3,24.2,25.4,175.0,19.0,5.8,7,0,4,1,2026-07-16T20:33:35.464699+05:30
Thiruvananthapuram,Kerala,8.5241,76.9366,26.0,88,0.0,1010.3,7.6,39.2,67,33.6,15.8,6.3,141.0,50.0,1.8,7,0,4,1,2026-07-16T20:33:35.464706+05:30
Kozhikode,Kerala,11.2588,75.7804,25.7,90,0.0,1010.0,8.2,32.4,64,28.2,12.4,1.7,224.0,56.0,1.2,7,0,4,1,2026-07-16T20:33:35.464713+05:30
Thrissur,Kerala,10.5276,76.2144,26.3,89,0.0,1009.2,8.3,35.3,72,30.0,19.0,12.8,336.0,33.0,3.8,7,0,4,1,2026-07-16T20:33:35.464721+05:30
Kannur,Kerala,11.8745,75.3704,24.5,98,0.1,1009.4,7.95,32.8,67,22.9,12.8,10.9,328.0,34.0,2.2,6,0,4,1,2026-07-16T20:33:35.464728+05:30
Patna,Bihar,25.5941,85.1376,30.2,84,0.0,995.0,6.45,32.4,118,39.2,38.8,22.5,601.0,80.0,10.7,3,5,7,1,2026-07-16T20:33:35.464736+05:30
Gaya,Bihar,24.7914,85.0002,27.3,94,0.2,988.7,8.45,25.2,111,30.0,29.3,14.2,448.0,73.0,6.5,10,5,7,1,2026-07-16T20:33:35.464743+05:30
Muzaffarpur,Bihar,26.1209,85.3647,29.4,83,0.0,995.5,6.55,31.7,108,40.4,40.3,24.6,710.0,72.0,11.4,7,5,7,1,2026-07-16T20:33:35.464750+05:30
Bhagalpur,Bihar,25.2425,87.0117,30.2,79,0.0,996.0,8.7,31.3,92,25.6,23.5,15.6,304.0,70.0,7.4,3,5,7,1,2026-07-16T20:33:35.464757+05:30
Ranchi,Jharkhand,23.3441,85.3096,24.6,94,0.0,932.8,9.05,35.6,74,16.8,16.5,12.0,272.0,74.0,6.1,3,5,7,1,2026-07-16T20:33:35.464764+05:30
Jamshedpur,Jharkhand,22.8046,86.2029,26.5,97,0.1,984.8,6.15,36.0,83,37.8,36.8,30.6,304.0,66.0,46.9,10,5,7,1,2026-07-16T20:33:35.464771+05:30
Dhanbad,Jharkhand,23.7957,86.4304,28.9,80,0.0,974.1,8.05,33.8,99,44.4,42.3,44.3,229.0,56.0,101.0,7,5,7,1,2026-07-16T20:33:35.464777+05:30
Bokaro,Jharkhand,23.6693,86.1511,28.7,86,0.0,977.9,8.8,33.5,98,42.3,40.3,39.3,271.0,49.0,98.9,7,5,7,1,2026-07-16T20:33:35.464785+05:30
Bhubaneswar,Odisha,20.2961,85.8245,26.4,96,0.1,997.1,6.95,50.4,78,21.3,16.9,11.8,327.0,74.0,7.7,10,5,7,1,2026-07-16T20:33:35.464791+05:30
Cuttack,Odisha,20.4625,85.8828,26.1,95,0.1,998.6,6.95,36.4,78,21.3,16.9,11.8,322.0,74.0,7.7,10,5,7,1,2026-07-16T20:33:35.464799+05:30
Rourkela,Odisha,22.2604,84.8536,26.3,97,0.0,979.1,7.65,32.0,76,23.6,21.9,15.1,368.0,79.0,6.3,7,5,7,1,2026-07-16T20:33:35.464805+05:30
Raipur,Chhattisgarh,21.2514,81.6296,26.7,94,0.0,971.2,6.7,35.6,146,51.9,38.9,32.1,587.0,65.0,58.5,7,5,7,1,2026-07-16T20:33:35.464812+05:30
Bhilai,Chhattisgarh,21.1938,81.3509,26.4,93,0.0,971.7,4.2,37.4,126,51.5,35.6,23.6,730.0,76.0,43.1,7,5,3,1,2026-07-16T20:33:35.464819+05:30
Guwahati,Assam,26.1158,91.7086,27.9,93,0.0,997.8,6.75,22.7,58,14.7,14.1,14.3,340.0,26.0,2.3,7,5,7,1,2026-07-16T20:33:35.464825+05:30
Agartala,Tripura,23.8315,91.2868,27.9,83,0.0,1003.2,8.35,41.8,61,31.4,22.2,6.4,182.0,75.0,2.3,7,5,4,1,2026-07-16T20:33:35.464832+05:30
Shillong,Meghalaya,25.5788,91.8933,21.4,86,0.0,856.6,8.5,33.5,40,11.5,8.9,8.5,231.0,63.0,3.0,3,5,7,1,2026-07-16T20:33:35.464839+05:30
Imphal,Manipur,24.817,93.9368,23.4,96,0.0,921.7,8.35,24.5,58,22.6,18.6,14.2,405.0,39.0,3.0,3,5,7,1,2026-07-16T20:33:35.464845+05:30
Aizawl,Mizoram,23.7271,92.7176,20.9,90,0.0,891.2,8.1,42.1,55,13.0,7.7,2.7,148.0,65.0,1.0,3,5,7,1,2026-07-16T20:33:35.464852+05:30
Kohima,Nagaland,25.6701,94.1077,20.6,98,0.0,854.2,8.5,22.0,44,16.2,13.6,16.4,344.0,30.0,1.9,3,5,7,1,2026-07-16T20:33:35.464859+05:30
Gangtok,Sikkim,27.3314,88.6138,19.9,91,0.0,837.4,6.65,34.2,44,7.0,6.2,6.4,375.0,91.0,1.8,3,10,7,1,2026-07-16T20:33:35.464866+05:30
Siliguri,West Bengal,26.7271,88.3953,28.0,87,0.0,989.5,7.15,24.1,64,23.2,20.8,12.8,938.0,94.0,4.5,7,5,7,1,2026-07-16T20:33:38.831180+05:30
Durgapur,West Bengal,23.5204,87.3119,27.0,95,0.2,989.1,7.05,36.4,82,31.4,30.5,29.9,483.0,55.0,28.7,10,5,7,1,2026-07-16T20:33:38.831212+05:30
Asansol,West Bengal,23.6739,86.9524,28.3,87,0.0,987.9,8.05,32.8,81,28.8,27.6,31.9,321.0,62.0,29.2,7,5,7,1,2026-07-16T20:33:38.831224+05:30
Pondicherry,Puducherry,11.9139,79.8145,29.5,84,0.0,1006.9,8.2,45.7,102,39.2,28.1,17.8,139.0,87.0,6.8,7,5,4,1,2026-07-16T20:33:38.831233+05:30
Port Blair,Andaman and Nicobar Islands,11.6234,92.7265,27.6,86,0.0,1008.6,8.4,50.0,50,17.3,8.5,0.3,93.0,45.0,0.4,7,0,4,1,2026-07-16T20:33:38.831242+05:30
Haridwar,Uttarakhand,29.9457,78.1642,30.8,79,0.0,968.1,7.5,32.0,160,78.0,61.0,19.1,537.0,108.0,13.0,3,5,7,1,2026-07-16T20:33:38.831250+05:30
Rishikesh,Uttarakhand,30.0869,78.2676,29.0,83,0.0,961.1,7.6,27.0,157,79.9,57.3,9.8,423.0,141.0,11.3,7,5,7,1,2026-07-16T20:33:38.831259+05:30
Nainital,Uttarakhand,29.3919,79.4542,18.5,99,0.0,804.3,6.45,26.6,134,86.8,55.2,13.8,378.0,104.0,9.1,3,10,7,1,2026-07-16T20:33:38.831267+05:30
Mussoorie,Uttarakhand,30.4599,78.0664,18.4,100,0.0,801.2,7.3,42.1,162,68.7,60.3,26.8,438.0,104.0,12.0,3,10,7,1,2026-07-16T20:33:38.831275+05:30
Dharamshala,Himachal Pradesh,32.219,76.3234,23.1,91,0.0,866.1,8.45,31.0,111,32.2,24.9,11.3,460.0,108.0,2.2,3,5,7,1,2026-07-16T20:33:38.831282+05:30
Dalhousie,Himachal Pradesh,32.5387,75.971,17.9,98,0.0,802.0,8.0,28.8,149,55.4,44.5,30.8,556.0,113.0,4.4,3,10,7,1,2026-07-16T20:33:38.831290+05:30
Patiala,Punjab,30.3398,76.3869,30.8,74,0.0,972.0,7.6,33.8,182,373.5,116.4,29.2,695.0,76.0,9.1,3,5,7,1,2026-07-16T20:33:38.831298+05:30
Bhatinda,Punjab,30.211,74.9455,34.5,52,0.0,977.4,7.4,28.8,176,148.1,78.0,34.3,378.0,53.0,6.1,0,5,7,1,2026-07-16T20:33:38.831304+05:30
Rohtak,Haryana,28.8955,76.6066,31.7,71,0.0,975.5,7.65,31.3,559,834.5,183.0,56.2,1158.0,27.0,10.3,3,5,7,1,2026-07-16T20:33:38.831312+05:30
Panipat,Haryana,29.3909,76.9635,30.9,71,0.0,974.1,6.85,35.3,1138,1601.9,289.6,32.3,708.0,54.0,9.1,3,5,7,1,2026-07-16T20:33:38.831318+05:30
Mathura,Uttar Pradesh,27.4924,77.6737,32.1,61,0.0,981.3,7.9,33.1,425,374.4,84.3,33.5,397.0,47.0,5.5,3,5,7,1,2026-07-16T20:33:38.831326+05:30
Vrindavan,Uttar Pradesh,27.5823,77.7027,32.2,59,0.0,981.6,7.9,32.0,425,374.4,84.3,33.5,372.0,47.0,5.5,0,5,7,1,2026-07-16T20:33:38.831333+05:30
Ayodhya,Uttar Pradesh,26.7922,82.1998,28.8,91,0.0,990.6,7.2,22.3,176,76.6,52.4,11.4,516.0,108.0,5.3,7,5,7,1,2026-07-16T20:33:38.831340+05:30
Ratlam,Madhya Pradesh,23.3315,75.0367,28.3,66,0.0,952.3,7.8,32.8,72,40.4,25.1,5.8,172.0,81.0,4.9,7,5,7,1,2026-07-16T20:33:38.831367+05:30
Sagar,Madhya Pradesh,23.8388,78.7378,26.5,85,0.0,947.0,8.3,38.9,86,34.3,22.0,7.3,217.0,70.0,3.2,7,5,7,1,2026-07-16T20:33:38.831377+05:30
Satna,Madhya Pradesh,24.6005,80.8322,29.3,80,0.0,967.1,8.2,36.7,137,73.3,40.3,9.8,369.0,77.0,3.4,7,5,7,1,2026-07-16T20:33:38.831385+05:30
Akola,Maharashtra,20.7002,77.0082,30.8,60,0.0,972.9,8.7,43.6,64,32.1,18.2,8.1,164.0,74.0,6.8,0,5,7,1,2026-07-16T20:33:38.831393+05:30
Amravati,Maharashtra,20.9374,77.7796,30.8,58,0.0,964.8,8.75,42.5,66,34.2,19.0,9.0,191.0,69.0,6.9,0,5,7,1,2026-07-16T20:33:38.831401+05:30
Latur,Maharashtra,18.4088,76.5604,24.0,92,0.1,938.6,2.45,37.4,55,34.6,18.5,5.7,170.0,64.0,2.2,6,5,3,1,2026-07-16T20:33:38.831408+05:30
Nanded,Maharashtra,19.1383,77.3091,27.7,73,0.0,966.8,8.5,36.4,62,35.9,20.0,10.3,239.0,60.0,3.8,7,5,7,1,2026-07-16T20:33:38.831416+05:30
Gulbarga,Karnataka,17.3297,76.8343,29.2,56,0.0,957.7,7.85,47.9,55,28.0,14.1,6.2,160.0,62.0,2.6,4,5,7,1,2026-07-16T20:33:38.831423+05:30
Bidar,Karnataka,17.9104,77.5199,26.1,81,0.1,934.3,6.6,38.5,59,42.6,22.2,14.4,221.0,50.0,3.1,10,5,7,1,2026-07-16T20:33:38.831430+05:30
Hospet,Karnataka,15.2689,76.3909,24.8,85,0.0,956.0,8.3,46.4,56,18.1,11.1,8.0,152.0,48.0,1.7,3,5,7,1,2026-07-16T20:33:38.831437+05:30
Tirupur,Tamil Nadu,11.1085,77.3411,26.2,78,0.0,975.7,8.2,57.6,69,27.6,19.0,19.4,178.0,43.0,5.1,7,5,7,1,2026-07-16T20:33:38.831444+05:30
Alappuzha,Kerala,9.4981,76.3388,27.5,83,0.0,1011.0,7.9,32.8,71,35.5,18.9,13.8,92.0,40.0,3.6,7,0,4,1,2026-07-16T20:33:38.831450+05:30
Munnar,Kerala,10.0889,77.0595,17.2,99,0.0,858.1,8.65,31.7,56,16.9,11.9,11.8,122.0,37.0,2.5,3,10,7,1,2026-07-16T20:33:38.831458+05:30
Silchar,Assam,24.8333,92.7789,27.1,91,0.4,1003.2,8.15,27.4,60,22.4,16.8,6.4,226.0,69.0,3.6,10,5,4,1,2026-07-16T20:33:38.831465+05:30
Dibrugarh,Assam,27.4728,94.912,27.4,90,0.0,991.9,8.3,28.1,49,14.6,14.1,10.0,228.0,69.0,1.9,7,5,7,1,2026-07-16T20:33:38.831472+05:30
