city,state,latitude,longitude,temp,humidity,rain,pressure,uv_index,wind_gusts,aqi,pm10,pm2_5,mosquito_risk,arthritis_risk,migraine_risk,frizz_risk,updated_at
Delhi,Delhi,28.6139,77.209,32.5,22,0.0,978.3,7.4,48.6,538,758.1,124.3,0,5,7,0,2026-04-27T00:29:50.438169+05:30
Mumbai,Maharashtra,19.076,72.8777,28.5,87,0.0,1006.9,7.6,37.1,93,71.9,27.6,7,5,4,1,2026-04-27T00:29:50.438208+05:30
Bangalore,Karnataka,12.9716,77.5946,26.2,47,0.0,911.4,9.55,36.7,106,25.6,23.9,4,5,7,0,2026-04-27T00:29:50.438224+05:30
Hyderabad,Telangana,17.385,78.4867,31.9,36,0.0,952.1,9.25,33.5,95,55.4,49.2,0,5,7,0,2026-04-27T00:29:50.438234+05:30
Chennai,Tamil Nadu,13.0827,80.2707,28.5,89,0.0,1005.8,9.25,49.7,45,19.8,13.3,7,5,4,1,2026-04-27T00:29:50.438243+05:30
Kolkata,West Bengal,22.5726,88.3639,28.1,85,0.0,1002.5,8.9,40.0,59,19.6,14.2,7,5,4,1,2026-04-27T00:29:50.438256+05:30
Pune,Maharashtra,18.5204,73.8567,27.2,67,0.0,946.5,8.35,38.9,145,36.6,25.6,7,5,7,1,2026-04-27T00:29:50.438263+05:30
Ahmedabad,Gujarat,23.0225,72.5714,34.3,18,0.0,999.1,8.2,38.9,62,30.3,14.2,0,5,7,0,2026-04-27T00:29:50.438271+05:30
Jaipur,Rajasthan,26.9124,75.7873,32.2,22,0.0,956.1,8.05,41.8,148,170.4,38.1,0,5,7,0,2026-04-27T00:29:50.438279+05:30
Lucknow,Uttar Pradesh,26.8467,80.9462,32.0,32,0.0,988.5,7.9,52.6,173,437.7,85.0,0,5,7,0,2026-04-27T00:29:50.438286+05:30
Kanpur,Uttar Pradesh,26.4499,80.3319,33.2,24,0.0,986.3,7.9,54.7,547,542.0,83.6,0,5,7,0,2026-04-27T00:29:50.438293+05:30
Chandigarh,Chandigarh,30.7333,76.7794,29.5,24,0.0,963.9,7.4,45.7,79,23.9,18.1,4,5,7,0,2026-04-27T00:29:50.438301+05:30
Srinagar,Jammu and Kashmir,34.0837,74.7973,10.6,90,0.0,837.9,8.6,16.2,78,42.4,34.6,3,10,7,0,2026-04-27T00:29:50.438308+05:30
Jammu,Jammu and Kashmir,32.7266,74.857,26.2,31,0.0,967.3,8.15,33.8,66,40.3,32.0,4,5,7,0,2026-04-27T00:29:50.438315+05:30
Amritsar,Punjab,31.634,74.8723,29.1,30,0.0,975.8,8.1,36.7,79,35.4,20.3,4,5,7,0,2026-04-27T00:29:50.438322+05:30
Ludhiana,Punjab,30.901,75.8573,27.6,32,0.0,973.7,7.65,41.8,77,59.4,28.1,4,5,7,0,2026-04-27T00:29:50.438331+05:30
Jalandhar,Punjab,31.326,75.5762,27.4,33,0.0,974.8,7.85,37.4,83,44.9,32.0,4,5,7,0,2026-04-27T00:29:50.438337+05:30
Dehradun,Uttarakhand,30.6284,78.0322,13.3,53,0.0,824.6,7.8,49.0,69,27.0,14.6,0,5,7,0,2026-04-27T00:29:50.438344+05:30
Shimla,Himachal Pradesh,31.1048,77.1734,13.5,42,0.0,780.8,7.9,52.9,75,28.2,13.4,0,5,7,0,2026-04-27T00:29:50.438351+05:30
Manali,Himachal Pradesh,32.2396,77.1887,7.0,50,0.0,810.8,9.8,45.0,93,24.8,11.0,0,5,7,1,2026-04-27T00:29:50.438358+05:30
Gurgaon,Haryana,28.4595,77.0266,30.8,25,0.0,976.9,7.55,49.7,1427,935.0,132.2,0,5,7,0,2026-04-27T00:29:50.438364+05:30
Noida,Uttar Pradesh,28.5355,77.391,31.9,23,0.0,979.6,7.45,43.9,1427,935.0,132.2,0,5,7,0,2026-04-27T00:29:50.438371+05:30
Ghaziabad,Uttar Pradesh,28.6692,77.4538,31.4,23,0.0,977.8,7.4,47.9,444,739.5,122.0,0,5,7,0,2026-04-27T00:29:50.438377+05:30
Faridabad,Haryana,28.4089,77.3178,33.8,20,0.0,978.9,7.5,53.3,1427,935.0,132.2,0,5,7,0,2026-04-27T00:29:50.438383+05:30
Meerut,Uttar Pradesh,28.9845,77.7064,29.9,25,0.0,976.5,7.3,50.8,444,739.5,122.0,4,5,7,0,2026-04-27T00:29:50.438390+05:30
Agra,Uttar Pradesh,27.1767,78.0081,31.7,27,0.0,982.6,7.8,50.4,917,408.9,59.8,0,5,7,0,2026-04-27T00:29:50.438398+05:30
Varanasi,Uttar Pradesh,25.3176,82.9739,30.7,59,0.0,992.9,8.5,53.3,141,108.3,67.3,0,5,7,1,2026-04-27T00:29:50.438405+05:30
Prayagraj,Uttar Pradesh,25.4358,81.8463,31.4,30,0.0,991.0,8.4,50.8,135,112.5,47.7,0,5,7,0,2026-04-27T00:29:50.438411+05:30
Gorakhpur,Uttar Pradesh,26.7606,83.3732,26.3,69,0.0,994.4,8.35,40.7,152,70.8,54.2,7,5,7,1,2026-04-27T00:29:50.438418+05:30
Bareilly,Uttar Pradesh,28.367,79.4304,30.1,29,0.0,981.7,7.65,54.7,119,258.0,61.5,0,5,7,0,2026-04-27T00:29:50.438424+05:30
Aligarh,Uttar Pradesh,27.8974,78.088,30.8,29,0.0,980.4,7.6,51.8,1010,847.5,141.6,0,5,7,0,2026-04-27T00:29:50.438433+05:30
Moradabad,Uttar Pradesh,28.8386,78.7733,29.5,25,0.0,978.5,7.5,55.8,130,301.7,74.3,4,5,7,0,2026-04-27T00:29:50.438440+05:30
Saharanpur,Uttar Pradesh,29.9637,77.546,28.8,25,0.0,970.3,7.1,52.2,83,122.0,34.3,4,5,7,0,2026-04-27T00:29:50.438446+05:30
Jhansi,Uttar Pradesh,25.4484,78.5685,31.9,24,0.0,973.3,8.3,49.0,91,65.2,26.6,0,5,7,0,2026-04-27T00:29:53.750519+05:30
Surat,Gujarat,21.1702,72.8311,29.9,59,0.0,1003.7,7.85,36.0,117,52.0,29.0,4,5,4,1,2026-04-27T00:29:53.750549+05:30
Vadodara,Gujarat,22.3072,73.1812,32.7,32,0.0,1001.3,8.15,41.4,80,44.2,32.6,0,5,4,0,2026-04-27T00:29:53.750561+05:30
Rajkot,Gujarat,22.3039,70.8022,28.6,44,0.0,992.3,7.85,39.2,59,31.3,14.5,4,5,7,0,2026-04-27T00:29:53.750570+05:30
Thane,Maharashtra,19.2183,72.9781,28.8,85,0.0,1006.3,7.6,32.8,93,71.9,27.6,7,5,4,1,2026-04-27T00:29:53.750579+05:30
Nagpur,Maharashtra,21.1458,79.0882,34.0,22,0.0,969.6,8.9,34.6,107,80.6,40.7,0,5,7,0,2026-04-27T00:29:53.750588+05:30
Nashik,Maharashtra,19.9975,73.7898,29.2,26,0.0,943.9,8.1,36.0,110,50.8,33.9,4,5,7,0,2026-04-27T00:29:53.750595+05:30
Aurangabad,Maharashtra,19.8762,75.3433,33.7,20,0.0,942.9,9.05,32.4,83,24.6,19.6,0,5,7,0,2026-04-27T00:29:53.750603+05:30
Solapur,Maharashtra,17.6599,75.9064,32.6,24,0.0,955.1,9.05,25.2,108,52.6,46.4,0,5,7,0,2026-04-27T00:29:53.750611+05:30
Kolhapur,Maharashtra,16.705,74.2433,25.0,91,0.0,946.8,9.0,50.8,102,26.4,17.9,7,5,7,1,2026-04-27T00:29:53.750619+05:30
Goa,Goa,15.2993,74.124,29.6,81,0.0,996.6,8.95,34.9,88,39.0,28.5,7,5,7,1,2026-04-27T00:29:53.750627+05:30
Jodhpur,Rajasthan,26.2389,73.0243,33.8,19,0.0,979.1,8.3,34.2,81,171.4,27.6,0,5,7,0,2026-04-27T00:29:53.750634+05:30
Udaipur,Rajasthan,24.5854,73.7125,31.0,17,0.0,944.3,8.75,47.9,69,34.5,12.6,0,5,7,0,2026-04-27T00:29:53.750642+05:30
Kota,Rajasthan,25.2138,75.8648,32.2,27,0.0,974.6,8.3,46.8,88,87.3,43.8,0,5,7,0,2026-04-27T00:29:53.750649+05:30
Bikaner,Rajasthan,28.0229,73.3119,33.0,25,0.0,977.0,8.15,37.1,70,60.3,18.9,0,5,7,0,2026-04-27T00:29:53.750657+05:30
Ajmer,Rajasthan,26.4499,74.6399,33.0,22,0.0,951.8,8.25,41.4,66,57.7,20.5,0,5,7,0,2026-04-27T00:29:53.750665+05:30
Gwalior,Madhya Pradesh,26.2183,78.1828,32.9,22,0.0,978.3,8.0,45.4,118,95.5,26.0,0,5,7,0,2026-04-27T00:29:53.750672+05:30
Indore,Madhya Pradesh,22.7196,75.8577,31.3,20,0.0,946.1,8.65,37.4,69,64.0,34.8,0,5,7,0,2026-04-27T00:29:53.750679+05:30
Bhopal,Madhya Pradesh,23.2599,77.4126,31.4,25,0.0,950.2,8.65,37.8,81,71.0,36.1,0,5,7,0,2026-04-27T00:29:53.750686+05:30
Jabalpur,Madhya Pradesh,23.1815,79.9864,30.7,25,0.0,957.5,8.7,42.1,70,74.3,28.5,0,5,7,0,2026-04-27T00:29:53.750694+05:30
Ujjain,Madhya Pradesh,23.1765,75.7885,30.6,24,0.0,951.5,8.55,41.4,72,71.2,44.6,0,5,7,0,2026-04-27T00:29:53.750701+05:30
Visakhapatnam,Andhra Pradesh,17.6868,83.2185,27.6,90,0.0,1001.6,8.95,47.5,56,20.3,14.4,7,5,4,1,2026-04-27T00:29:53.750709+05:30
Vijayawada,Andhra Pradesh,16.5062,80.648,27.6,87,0.0,1001.2,8.9,37.4,58,21.7,15.9,7,5,4,1,2026-04-27T00:29:53.750716+05:30
Guntur,Andhra Pradesh,16.3067,80.4365,27.5,89,0.0,1002.5,8.95,40.7,59,21.1,15.3,7,5,4,1,2026-04-27T00:29:53.750723+05:30
Nellore,Andhra Pradesh,14.4426,79.9865,27.6,85,0.0,1004.3,9.1,43.9,54,16.2,12.5,7,5,4,1,2026-04-27T00:29:53.750731+05:30
Kurnool,Andhra Pradesh,15.8281,78.0373,32.3,38,0.0,975.1,9.2,33.8,95,46.1,40.3,0,5,7,1,2026-04-27T00:29:53.750764+05:30
Kakinada,Andhra Pradesh,16.9891,82.2475,27.8,88,0.0,1006.1,8.85,40.3,49,21.7,13.5,7,5,4,1,2026-04-27T00:29:53.750775+05:30
Tirupati,Andhra Pradesh,13.6288,79.4192,28.0,73,0.0,990.2,9.3,40.3,66,18.8,16.5,7,5,7,1,2026-04-27T00:29:53.750783+05:30
Warangal,Telangana,17.9689,79.5941,29.8,50,0.0,976.8,9.0,35.3,95,28.1,24.9,4,5,7,1,2026-04-27T00:29:53.750790+05:30
Nizamabad,Telangana,18.6725,78.0941,31.6,33,0.0,961.8,8.6,31.3,105,41.6,36.9,0,5,7,0,2026-04-27T00:29:53.750797+05:30
Mysore,Karnataka,12.2958,76.6396,24.0,87,0.0,928.0,9.45,40.0,88,37.1,33.4,3,5,7,1,2026-04-27T00:29:53.750804+05:30
Mangalore,Karnataka,12.9141,74.856,29.5,81,0.0,1005.6,9.05,39.2,82,42.8,33.9,7,5,4,1,2026-04-27T00:29:53.750811+05:30
Hubli-Dharwad,Karnataka,15.3647,75.124,25.0,92,0.0,939.3,8.85,45.7,94,33.1,29.0,7,5,7,1,2026-04-27T00:29:53.750819+05:30
Belgaum,Karnataka,15.8497,74.4977,23.8,95,0.0,924.8,8.85,48.2,105,34.6,29.2,3,5,7,1,2026-04-27T00:29:57.068441+05:30
Coimbatore,Tamil Nadu,11.0168,76.9558,27.6,72,0.0,961.1,9.35,39.6,81,38.3,35.5,7,5,7,1,2026-04-27T00:29:57.068467+05:30
Madurai,Tamil Nadu,9.9252,78.1198,28.9,70,0.0,992.8,9.25,37.4,49,9.0,8.8,7,5,7,1,2026-04-27T00:29:57.068475+05:30
Trichy,Tamil Nadu,10.7905,78.7047,27.8,84,0.0,998.8,9.25,30.6,49,15.0,13.5,7,5,7,1,2026-04-27T00:29:57.068482+05:30
Salem,Tamil Nadu,11.6643,78.146,28.5,65,0.0,976.1,9.35,41.8,72,22.2,21.1,7,5,7,1,2026-04-27T00:29:57.068489+05:30
Tirunelveli,Tamil Nadu,8.7139,77.7567,28.4,73,0.0,1002.6,9.2,37.4,51,12.2,11.7,7,5,4,1,2026-04-27T00:29:57.068496+05:30
Vellore,Tamil Nadu,12.9165,79.1325,27.1,77,0.0,983.3,9.3,34.6,84,34.8,32.5,7,5,7,1,2026-04-27T00:29:57.068502+05:30
Erode,Tamil Nadu,11.341,77.7172,30.1,50,0.0,987.9,9.3,39.2,61,13.0,12.5,0,5,7,1,2026-04-27T00:29:57.068507+05:30
Kochi,Kerala,9.9312,76.2673,28.1,89,0.0,1008.1,9.0,39.2,69,28.5,27.4,7,0,4,1,2026-04-27T00:29:57.068514+05:30
Thiruvananthapuram,Kerala,8.5241,76.9366,26.4,87,0.0,1007.6,8.8,32.4,47,11.9,9.6,7,5,4,1,2026-04-27T00:29:57.068519+05:30
Kozhikode,Kerala,11.2588,75.7804,27.4,87,0.0,1007.0,8.4,38.2,53,21.9,15.9,7,5,4,1,2026-04-27T00:29:57.068525+05:30
Thrissur,Kerala,10.5276,76.2144,27.6,90,0.0,1006.5,9.0,41.0,66,30.7,29.1,7,5,4,1,2026-04-27T00:29:57.068531+05:30
Kannur,Kerala,11.8745,75.3704,28.4,84,0.0,1006.1,9.0,39.6,69,32.7,26.8,7,5,4,1,2026-04-27T00:29:57.068537+05:30
Patna,Bihar,25.5941,85.1376,26.4,74,0.0,997.2,8.65,45.4,156,59.6,53.6,7,5,7,1,2026-04-27T00:29:57.068543+05:30
Gaya,Bihar,24.7914,85.0002,27.6,71,0.0,989.2,8.7,36.7,158,63.3,60.1,7,5,7,1,2026-04-27T00:29:57.068549+05:30
Muzaffarpur,Bihar,26.1209,85.3647,24.4,75,0.0,998.0,8.65,48.6,153,62.4,55.2,3,5,7,1,2026-04-27T00:29:57.068555+05:30
Bhagalpur,Bihar,25.2425,87.0117,25.4,78,0.0,998.6,8.6,40.3,133,23.5,19.5,7,5,7,1,2026-04-27T00:29:57.068560+05:30
Ranchi,Jharkhand,23.3441,85.3096,23.6,72,0.0,933.0,9.15,44.3,121,108.3,44.0,3,5,7,1,2026-04-27T00:29:57.068566+05:30
Jamshedpur,Jharkhand,22.8046,86.2029,28.6,75,0.0,986.6,8.85,37.8,132,46.2,39.5,7,5,7,1,2026-04-27T00:29:57.068571+05:30
Dhanbad,Jharkhand,23.7957,86.4304,26.8,93,0.0,975.8,8.95,42.5,153,84.3,65.9,7,5,7,1,2026-04-27T00:29:57.068577+05:30
Bokaro,Jharkhand,23.6693,86.1511,27.6,89,0.0,979.5,8.95,41.0,154,95.9,74.3,7,5,7,1,2026-04-27T00:29:57.068582+05:30
Bhubaneswar,Odisha,20.2961,85.8245,27.4,89,0.0,999.2,9.1,50.4,53,15.4,10.7,7,5,7,1,2026-04-27T00:29:57.068588+05:30
Cuttack,Odisha,20.4625,85.8828,27.5,89,0.0,1000.9,9.1,47.2,53,15.4,10.7,7,5,4,1,2026-04-27T00:29:57.068593+05:30
Rourkela,Odisha,22.2604,84.8536,28.4,74,0.0,980.7,8.65,46.4,166,50.6,38.1,7,5,7,1,2026-04-27T00:29:57.068599+05:30
Raipur,Chhattisgarh,21.2514,81.6296,31.8,23,0.0,970.6,8.95,41.0,115,53.8,49.4,0,5,7,0,2026-04-27T00:29:57.068604+05:30
Bhilai,Chhattisgarh,21.1938,81.3509,31.2,27,0.0,970.9,9.0,44.3,104,48.9,42.0,0,5,7,0,2026-04-27T00:29:57.068610+05:30
Guwahati,Assam,26.1158,91.7086,20.6,96,0.0,1001.1,3.7,40.3,131,59.4,40.0,3,5,0,1,2026-04-27T00:29:57.068615+05:30
Agartala,Tripura,23.8315,91.2868,22.5,100,0.0,1004.6,8.8,32.0,78,16.5,12.6,3,5,4,1,2026-04-27T00:29:57.068621+05:30
Shillong,Meghalaya,25.5788,91.8933,15.6,86,0.0,854.2,4.65,45.4,122,24.7,14.9,3,10,3,0,2026-04-27T00:29:57.068627+05:30
Imphal,Manipur,24.817,93.9368,19.0,92,0.0,922.0,5.7,24.1,153,90.3,60.1,3,10,3,1,2026-04-27T00:29:57.068633+05:30
Aizawl,Mizoram,23.7271,92.7176,16.5,99,0.0,890.2,9.0,34.9,102,34.3,21.7,3,10,7,1,2026-04-27T00:29:57.068639+05:30
Kohima,Nagaland,25.6701,94.1077,16.0,85,0.0,852.9,6.95,32.0,143,63.1,37.6,3,10,7,0,2026-04-27T00:29:57.068644+05:30
Gangtok,Sikkim,27.3314,88.6138,13.4,94,0.0,834.2,6.75,41.0,101,40.3,24.7,3,10,7,0,2026-04-27T00:29:57.068650+05:30
Siliguri,West Bengal,26.7271,88.3953,21.0,86,0.0,991.5,8.4,28.4,116,54.4,34.6,3,5,7,1,2026-04-27T00:30:44.030147+05:30
Durgapur,West Bengal,23.5204,87.3119,26.8,96,0.0,990.6,8.8,52.9,115,37.1,32.8,7,5,7,1,2026-04-27T00:30:44.030177+05:30
Asansol,West Bengal,23.6739,86.9524,26.6,95,0.0,989.3,8.75,34.9,127,35.7,32.9,7,5,7,1,2026-04-27T00:30:44.030187+05:30
Pondicherry,Puducherry,11.9139,79.8145,28.6,87,0.0,1007.1,9.2,49.0,40,17.8,11.8,7,5,4,1,2026-04-27T00:30:44.030195+05:30
Port Blair,Andaman and Nicobar Islands,11.6234,92.7265,27.1,87,0.0,1005.6,9.1,35.6,56,17.8,13.2,7,5,4,1,2026-04-27T00:30:44.030203+05:30
Haridwar,Uttarakhand,29.9457,78.1642,21.0,56,0.0,967.9,7.25,27.7,68,26.1,19.5,0,5,7,0,2026-04-27T00:30:44.030210+05:30
Rishikesh,Uttarakhand,30.0869,78.2676,18.2,62,0.0,960.5,7.35,27.7,82,28.6,18.8,3,5,7,0,2026-04-27T00:30:44.030219+05:30
Nainital,Uttarakhand,29.3919,79.4542,16.2,38,0.0,802.8,8.2,37.1,73,67.5,21.1,0,5,7,0,2026-04-27T00:30:44.030226+05:30
Mussoorie,Uttarakhand,30.4599,78.0664,15.7,38,0.0,799.3,7.75,51.8,76,28.0,21.4,0,5,7,0,2026-04-27T00:30:44.030233+05:30
Dharamshala,Himachal Pradesh,32.219,76.3234,22.3,34,0.0,866.5,8.0,49.0,51,22.1,11.1,0,5,7,0,2026-04-27T00:30:44.030240+05:30
Dalhousie,Himachal Pradesh,32.5387,75.971,12.5,65,0.0,799.3,8.25,43.9,60,29.2,21.0,3,5,7,0,2026-04-27T00:30:44.030248+05:30
Patiala,Punjab,30.3398,76.3869,28.6,29,0.0,973.2,7.25,43.6,389,529.0,76.4,4,5,7,0,2026-04-27T00:30:44.030255+05:30
Bhatinda,Punjab,30.211,74.9455,29.4,28,0.0,978.7,7.8,54.4,87,69.6,30.6,4,5,7,0,2026-04-27T00:30:44.030263+05:30
Rohtak,Haryana,28.8955,76.6066,30.2,24,0.0,976.9,7.5,40.3,682,787.9,119.7,0,5,7,0,2026-04-27T00:30:44.030270+05:30
Panipat,Haryana,29.3909,76.9635,30.5,23,0.0,975.5,7.3,45.4,1422,1464.0,185.8,0,5,7,0,2026-04-27T00:30:44.030276+05:30
Mathura,Uttar Pradesh,27.4924,77.6737,30.9,31,0.0,981.6,7.75,48.2,821,179.3,53.0,0,5,7,0,2026-04-27T00:30:44.030283+05:30
Vrindavan,Uttar Pradesh,27.5823,77.7027,31.0,31,0.0,982.0,7.7,48.6,821,179.3,53.0,0,5,7,0,2026-04-27T00:30:44.030289+05:30
Ayodhya,Uttar Pradesh,26.7922,82.1998,27.2,65,0.0,992.0,8.1,34.9,150,68.9,60.1,7,5,7,1,2026-04-27T00:30:44.030296+05:30
Ratlam,Madhya Pradesh,23.3315,75.0367,29.5,21,0.0,952.2,8.45,45.4,63,30.3,22.2,4,5,7,0,2026-04-27T00:30:44.030302+05:30
Sagar,Madhya Pradesh,23.8388,78.7378,29.9,28,0.0,947.3,8.65,37.1,76,64.7,27.9,4,5,7,0,2026-04-27T00:30:44.030308+05:30
Satna,Madhya Pradesh,24.6005,80.8322,31.0,26,0.0,966.8,8.65,50.4,95,59.5,22.5,0,5,7,0,2026-04-27T00:30:44.030314+05:30
Akola,Maharashtra,20.7002,77.0082,32.5,20,0.0,971.1,8.9,32.4,59,35.5,24.9,0,5,7,0,2026-04-27T00:30:44.030321+05:30
Amravati,Maharashtra,20.9374,77.7796,33.7,20,0.0,963.6,8.9,32.4,72,51.6,36.1,0,5,7,0,2026-04-27T00:30:44.030328+05:30
Latur,Maharashtra,18.4088,76.5604,30.3,27,0.0,937.5,9.1,42.5,97,47.4,39.7,0,5,7,0,2026-04-27T00:30:44.030334+05:30
Nanded,Maharashtra,19.1383,77.3091,30.5,29,0.0,965.1,9.0,27.0,91,32.6,27.2,0,5,7,0,2026-04-27T00:30:44.030340+05:30
Gulbarga,Karnataka,17.3297,76.8343,31.2,33,0.0,956.5,9.1,30.2,123,38.8,34.9,0,5,7,0,2026-04-27T00:30:44.030346+05:30
Bidar,Karnataka,17.9104,77.5199,29.7,35,0.0,933.1,9.1,36.4,105,43.2,39.3,4,5,7,0,2026-04-27T00:30:44.030353+05:30
Hospet,Karnataka,15.2689,76.3909,28.2,69,0.0,954.3,9.25,33.5,119,39.1,36.8,7,5,7,1,2026-04-27T00:30:44.030359+05:30
Tirupur,Tamil Nadu,11.1085,77.3411,28.3,74,0.0,974.2,9.35,31.0,65,24.4,23.2,7,5,7,1,2026-04-27T00:30:44.030365+05:30
Alappuzha,Kerala,9.4981,76.3388,26.5,98,0.0,1008.1,8.1,31.7,62,24.6,21.0,7,0,4,1,2026-04-27T00:30:44.030372+05:30
Munnar,Kerala,10.0889,77.0595,18.1,68,0.0,856.2,9.6,28.1,67,30.3,29.2,3,5,7,0,2026-04-27T00:30:44.030379+05:30
Silchar,Assam,24.8333,92.7789,22.8,92,0.1,1004.8,8.75,45.0,159,76.4,48.8,6,5,4,1,2026-04-27T00:30:44.030385+05:30
Dibrugarh,Assam,27.4728,94.912,20.9,97,0.0,995.4,4.3,20.9,91,64.0,40.3,3,5,3,1,2026-04-27T00:30:44.030392+05:30
