city,state,latitude,longitude,temp,humidity,rain,pressure,uv_index,wind_gusts,aqi,pm10,pm2_5,mosquito_risk,arthritis_risk,migraine_risk,frizz_risk,updated_at
Delhi,Delhi,28.6139,77.209,25.3,61,0.0,984.7,5.85,34.6,434,828.9,142.0,7,5,3,1,2026-03-05T21:24:00.833595+05:30
Mumbai,Maharashtra,19.076,72.8777,29.4,57,0.0,1009.4,7.4,26.6,179,33.2,30.9,4,0,4,1,2026-03-05T21:24:00.833639+05:30
Bangalore,Karnataka,12.9716,77.5946,24.1,44,0.0,912.5,9.15,31.3,133,41.3,39.7,0,5,7,0,2026-03-05T21:24:00.833654+05:30
Hyderabad,Telangana,17.385,78.4867,28.7,40,0.0,954.8,8.45,27.4,143,40.3,38.2,4,5,7,0,2026-03-05T21:24:00.833664+05:30
Chennai,Tamil Nadu,13.0827,80.2707,26.5,85,0.0,1008.6,8.85,31.3,98,27.8,24.0,7,0,4,1,2026-03-05T21:24:00.833673+05:30
Kolkata,West Bengal,22.5726,88.3639,25.4,57,0.0,1007.3,7.8,10.8,208,149.5,131.8,4,5,4,1,2026-03-05T21:24:00.833682+05:30
Pune,Maharashtra,18.5204,73.8567,27.5,44,0.0,950.1,7.95,31.3,116,22.9,21.7,4,5,7,0,2026-03-05T21:24:00.833694+05:30
Ahmedabad,Gujarat,23.0225,72.5714,26.5,43,0.0,1005.2,7.15,28.4,86,37.8,36.7,4,5,4,0,2026-03-05T21:24:00.833702+05:30
Jaipur,Rajasthan,26.9124,75.7873,27.7,28,0.0,962.3,6.65,34.9,96,124.8,35.4,4,5,7,0,2026-03-05T21:24:00.833709+05:30
Lucknow,Uttar Pradesh,26.8467,80.9462,24.8,70,0.0,995.4,6.4,15.1,166,220.7,98.5,3,5,7,1,2026-03-05T21:24:00.833717+05:30
Kanpur,Uttar Pradesh,26.4499,80.3319,23.6,71,0.0,993.4,6.4,28.4,177,297.1,86.1,3,5,7,1,2026-03-05T21:24:00.833725+05:30
Chandigarh,Chandigarh,30.7333,76.7794,21.8,75,0.0,969.8,5.75,31.0,124,53.0,45.2,3,5,3,1,2026-03-05T21:24:00.833732+05:30
Srinagar,Jammu and Kashmir,34.0837,74.7973,12.3,82,0.0,841.1,6.75,14.8,151,77.5,62.6,3,10,7,0,2026-03-05T21:24:00.833740+05:30
Jammu,Jammu and Kashmir,32.7266,74.857,23.6,68,0.0,973.6,6.4,23.8,106,81.0,57.5,3,5,7,1,2026-03-05T21:24:00.833747+05:30
Amritsar,Punjab,31.634,74.8723,22.6,64,0.0,981.9,6.35,22.7,145,61.0,47.0,3,5,7,0,2026-03-05T21:24:00.833771+05:30
Ludhiana,Punjab,30.901,75.8573,25.1,63,0.0,980.3,6.0,25.6,156,125.3,70.5,7,5,3,1,2026-03-05T21:24:00.833779+05:30
Jalandhar,Punjab,31.326,75.5762,23.6,69,0.0,981.3,6.2,24.1,156,79.9,57.3,3,5,7,1,2026-03-05T21:24:00.833788+05:30
Dehradun,Uttarakhand,30.6284,78.0322,14.3,94,0.0,830.4,6.15,31.7,88,39.8,29.6,3,10,7,0,2026-03-05T21:24:00.833795+05:30
Shimla,Himachal Pradesh,31.1048,77.1734,14.3,61,0.0,785.4,6.2,55.1,68,40.9,25.8,3,5,7,0,2026-03-05T21:24:00.833803+05:30
Manali,Himachal Pradesh,32.2396,77.1887,19.5,41,0.0,823.2,7.8,36.7,102,28.4,18.1,0,5,7,0,2026-03-05T21:24:00.833810+05:30
Gurgaon,Haryana,28.4595,77.0266,22.1,71,0.0,983.1,5.95,33.5,1526,1557.2,208.6,3,5,3,1,2026-03-05T21:24:00.833816+05:30
Noida,Uttar Pradesh,28.5355,77.391,25.3,60,0.0,986.2,5.85,34.6,1526,1557.2,208.6,4,5,3,1,2026-03-05T21:24:00.833823+05:30
Ghaziabad,Uttar Pradesh,28.6692,77.4538,24.9,64,0.0,984.3,5.8,31.7,292,683.6,129.0,3,5,3,1,2026-03-05T21:24:00.833830+05:30
Faridabad,Haryana,28.4089,77.3178,25.2,54,0.0,985.5,5.9,33.1,1526,1557.2,208.6,4,5,3,0,2026-03-05T21:24:00.833837+05:30
Meerut,Uttar Pradesh,28.9845,77.7064,23.3,70,0.0,982.9,5.7,30.6,292,683.6,129.0,3,5,3,1,2026-03-05T21:24:00.833843+05:30
Agra,Uttar Pradesh,27.1767,78.0081,23.6,58,0.0,989.6,6.2,37.8,502,851.2,123.4,0,5,7,0,2026-03-05T21:24:00.833850+05:30
Varanasi,Uttar Pradesh,25.3176,82.9739,23.1,72,0.0,999.2,7.05,16.6,157,180.7,98.5,3,5,7,1,2026-03-05T21:24:00.833859+05:30
Prayagraj,Uttar Pradesh,25.4358,81.8463,24.2,72,0.0,997.6,6.9,19.4,157,197.4,97.1,3,5,7,1,2026-03-05T21:24:00.833867+05:30
Gorakhpur,Uttar Pradesh,26.7606,83.3732,22.7,69,0.0,999.1,6.75,11.2,174,163.9,117.6,3,5,7,1,2026-03-05T21:24:00.833874+05:30
Bareilly,Uttar Pradesh,28.367,79.4304,22.1,81,0.0,988.6,6.05,14.0,171,136.9,97.6,3,5,7,1,2026-03-05T21:24:00.833883+05:30
Aligarh,Uttar Pradesh,27.8974,78.088,22.7,65,0.0,987.2,5.95,35.3,730,1113.9,183.0,3,5,3,0,2026-03-05T21:24:00.833890+05:30
Moradabad,Uttar Pradesh,28.8386,78.7733,22.1,79,0.0,985.4,5.85,18.0,175,115.9,87.1,3,5,3,1,2026-03-05T21:24:00.833896+05:30
Saharanpur,Uttar Pradesh,29.9637,77.546,23.6,64,0.0,977.0,5.5,23.4,157,364.1,96.6,3,5,3,1,2026-03-05T21:24:00.833902+05:30
Jhansi,Uttar Pradesh,25.4484,78.5685,25.8,44,0.0,979.7,6.85,35.3,62,36.9,24.4,4,5,7,0,2026-03-05T21:24:04.164411+05:30
Surat,Gujarat,21.1702,72.8311,27.4,48,0.0,1008.7,7.1,29.5,109,60.5,58.4,4,0,4,0,2026-03-05T21:24:04.164442+05:30
Vadodara,Gujarat,22.3072,73.1812,28.2,35,0.0,1006.8,7.2,24.5,115,43.2,41.7,4,5,4,0,2026-03-05T21:24:04.164453+05:30
Rajkot,Gujarat,22.3039,70.8022,26.1,44,0.0,997.9,7.05,36.4,106,16.6,16.0,4,5,7,0,2026-03-05T21:24:04.164462+05:30
Thane,Maharashtra,19.2183,72.9781,29.6,41,0.0,1008.8,7.4,41.4,179,33.2,30.9,4,0,4,0,2026-03-05T21:24:04.164470+05:30
Nagpur,Maharashtra,21.1458,79.0882,27.8,32,0.0,974.6,7.8,27.0,82,26.7,19.9,4,5,7,0,2026-03-05T21:24:04.164478+05:30
Nashik,Maharashtra,19.9975,73.7898,26.4,37,0.0,947.8,7.55,37.4,102,25.1,23.6,4,5,7,0,2026-03-05T21:24:04.164486+05:30
Aurangabad,Maharashtra,19.8762,75.3433,27.6,32,0.0,946.0,8.1,30.2,110,23.7,21.1,4,5,7,0,2026-03-05T21:24:04.164494+05:30
Solapur,Maharashtra,17.6599,75.9064,26.7,49,0.0,958.2,8.35,19.1,145,22.8,21.7,4,5,7,0,2026-03-05T21:24:04.164502+05:30
Kolhapur,Maharashtra,16.705,74.2433,25.2,55,0.0,949.3,8.5,34.6,151,55.6,54.6,4,5,7,0,2026-03-05T21:24:04.164510+05:30
Goa,Goa,15.2993,74.124,27.3,84,0.0,999.2,8.55,36.0,152,60.8,57.3,7,5,7,1,2026-03-05T21:24:04.164518+05:30
Jodhpur,Rajasthan,26.2389,73.0243,26.7,28,0.0,985.7,6.9,24.1,100,95.7,20.3,4,5,7,0,2026-03-05T21:24:04.164526+05:30
Udaipur,Rajasthan,24.5854,73.7125,23.9,29,0.0,949.6,7.55,25.9,86,14.5,13.7,0,5,7,0,2026-03-05T21:24:04.164534+05:30
Kota,Rajasthan,25.2138,75.8648,25.6,50,0.0,981.0,6.95,28.8,76,77.8,37.8,4,5,7,0,2026-03-05T21:24:04.164541+05:30
Bikaner,Rajasthan,28.0229,73.3119,27.4,34,0.0,984.3,6.6,20.9,85,22.9,13.9,4,5,7,0,2026-03-05T21:24:04.164550+05:30
Ajmer,Rajasthan,26.4499,74.6399,25.8,41,0.0,957.3,6.9,25.6,88,27.1,18.7,4,5,7,0,2026-03-05T21:24:04.164558+05:30
Gwalior,Madhya Pradesh,26.2183,78.1828,25.0,56,0.0,985.1,6.55,32.8,73,163.9,40.7,4,5,7,0,2026-03-05T21:24:04.164565+05:30
Indore,Madhya Pradesh,22.7196,75.8577,24.3,45,0.0,950.3,7.5,25.2,93,37.6,27.8,0,5,7,0,2026-03-05T21:24:04.164573+05:30
Bhopal,Madhya Pradesh,23.2599,77.4126,24.2,44,0.0,955.9,7.35,29.5,91,35.9,24.1,0,5,7,0,2026-03-05T21:24:04.164580+05:30
Jabalpur,Madhya Pradesh,23.1815,79.9864,26.7,41,0.0,962.8,7.5,30.2,67,36.4,20.9,4,5,7,0,2026-03-05T21:24:04.164588+05:30
Ujjain,Madhya Pradesh,23.1765,75.7885,24.1,50,0.0,956.1,7.4,23.0,107,46.3,36.7,0,5,7,0,2026-03-05T21:24:04.164596+05:30
Visakhapatnam,Andhra Pradesh,17.6868,83.2185,26.2,78,0.0,1004.0,8.45,33.1,137,44.1,40.3,7,5,4,1,2026-03-05T21:24:04.164604+05:30
Vijayawada,Andhra Pradesh,16.5062,80.648,29.8,47,0.0,1003.0,8.5,17.3,119,54.9,53.2,4,5,4,1,2026-03-05T21:24:04.164612+05:30
Guntur,Andhra Pradesh,16.3067,80.4365,26.9,69,0.0,1004.6,8.5,20.9,134,47.8,45.9,7,5,4,1,2026-03-05T21:24:04.164620+05:30
Nellore,Andhra Pradesh,14.4426,79.9865,26.5,72,0.0,1006.8,8.7,28.4,153,31.0,28.6,7,5,4,1,2026-03-05T21:24:04.164628+05:30
Kurnool,Andhra Pradesh,15.8281,78.0373,30.1,33,0.0,977.6,8.5,27.0,136,25.2,23.8,0,5,7,0,2026-03-05T21:24:04.164637+05:30
Kakinada,Andhra Pradesh,16.9891,82.2475,25.9,81,0.0,1007.6,8.45,27.4,100,35.6,32.5,7,5,4,1,2026-03-05T21:24:04.164645+05:30
Tirupati,Andhra Pradesh,13.6288,79.4192,27.3,54,0.0,993.1,8.8,29.5,125,46.4,43.4,4,5,7,1,2026-03-05T21:24:04.164653+05:30
Warangal,Telangana,17.9689,79.5941,29.2,36,0.0,979.8,8.3,27.4,133,32.5,30.3,4,5,7,0,2026-03-05T21:24:04.164661+05:30
Nizamabad,Telangana,18.6725,78.0941,26.1,47,0.0,966.1,8.15,22.3,98,32.0,30.4,4,5,7,0,2026-03-05T21:24:04.164668+05:30
Mysore,Karnataka,12.2958,76.6396,26.0,50,0.0,929.3,9.15,26.3,158,55.4,54.5,4,5,7,0,2026-03-05T21:24:04.164676+05:30
Mangalore,Karnataka,12.9141,74.856,29.1,78,0.0,1008.3,8.75,30.2,132,46.1,42.1,7,0,4,1,2026-03-05T21:24:04.164683+05:30
Hubli-Dharwad,Karnataka,15.3647,75.124,25.1,60,0.0,941.8,8.7,29.2,159,27.8,26.7,4,5,7,1,2026-03-05T21:24:04.164692+05:30
Belgaum,Karnataka,15.8497,74.4977,24.1,72,0.0,927.0,8.75,36.7,164,41.3,39.9,3,5,7,1,2026-03-05T21:24:07.499818+05:30
Coimbatore,Tamil Nadu,11.0168,76.9558,25.0,82,0.0,963.2,9.15,34.2,137,42.6,41.8,7,5,7,1,2026-03-05T21:24:07.499851+05:30
Madurai,Tamil Nadu,9.9252,78.1198,26.7,72,0.0,994.8,9.1,29.5,127,34.2,32.7,7,5,7,1,2026-03-05T21:24:07.499863+05:30
Trichy,Tamil Nadu,10.7905,78.7047,26.1,77,0.0,1001.3,9.0,33.8,106,29.8,28.5,7,5,4,1,2026-03-05T21:24:07.499873+05:30
Salem,Tamil Nadu,11.6643,78.146,27.5,51,0.0,978.2,9.05,15.1,146,33.3,31.2,4,5,7,1,2026-03-05T21:24:07.499883+05:30
Tirunelveli,Tamil Nadu,8.7139,77.7567,27.4,71,0.0,1005.0,9.15,44.6,89,18.3,17.5,7,5,4,1,2026-03-05T21:24:07.499892+05:30
Vellore,Tamil Nadu,12.9165,79.1325,25.9,50,0.0,985.8,8.9,29.2,123,45.2,42.5,4,5,7,0,2026-03-05T21:24:07.499902+05:30
Erode,Tamil Nadu,11.341,77.7172,28.8,53,0.0,989.8,9.05,19.8,160,37.8,36.6,4,5,7,1,2026-03-05T21:24:07.499912+05:30
Kochi,Kerala,9.9312,76.2673,28.9,75,0.0,1010.0,8.95,38.2,144,60.5,58.0,7,0,4,1,2026-03-05T21:24:07.499922+05:30
Thiruvananthapuram,Kerala,8.5241,76.9366,28.9,72,0.0,1009.5,9.0,32.8,112,31.7,28.4,7,0,4,1,2026-03-05T21:24:07.499932+05:30
Kozhikode,Kerala,11.2588,75.7804,29.0,79,0.0,1009.3,8.85,30.6,127,45.2,40.2,7,0,4,1,2026-03-05T21:24:07.499941+05:30
Thrissur,Kerala,10.5276,76.2144,27.7,85,0.0,1008.4,8.9,36.7,140,49.9,47.5,7,0,4,1,2026-03-05T21:24:07.499950+05:30
Kannur,Kerala,11.8745,75.3704,28.8,78,0.0,1008.7,8.85,37.4,133,44.5,40.0,7,0,4,1,2026-03-05T21:24:07.499960+05:30
Patna,Bihar,25.5941,85.1376,25.8,58,0.0,1002.4,7.2,14.4,169,119.7,87.5,4,5,4,1,2026-03-05T21:24:07.499968+05:30
Gaya,Bihar,24.7914,85.0002,23.4,67,0.0,995.5,7.3,12.6,152,110.6,66.1,3,5,7,1,2026-03-05T21:24:07.499977+05:30
Muzaffarpur,Bihar,26.1209,85.3647,24.0,63,0.0,1002.4,7.15,15.5,176,104.8,82.7,3,5,4,1,2026-03-05T21:24:07.499986+05:30
Bhagalpur,Bihar,25.2425,87.0117,24.7,55,0.0,1003.2,7.25,14.0,163,95.0,78.5,0,5,4,0,2026-03-05T21:24:07.499994+05:30
Ranchi,Jharkhand,23.3441,85.3096,21.2,53,0.0,938.6,7.95,19.1,133,100.8,51.1,0,5,7,0,2026-03-05T21:24:07.500003+05:30
Jamshedpur,Jharkhand,22.8046,86.2029,26.3,51,0.0,991.8,7.85,10.4,200,119.0,72.9,4,5,7,0,2026-03-05T21:24:07.500011+05:30
Dhanbad,Jharkhand,23.7957,86.4304,26.3,43,0.0,981.1,7.75,16.2,179,178.8,134.6,4,5,7,0,2026-03-05T21:24:07.500020+05:30
Bokaro,Jharkhand,23.6693,86.1511,25.7,47,0.0,985.3,7.75,13.3,189,173.7,134.1,4,5,7,0,2026-03-05T21:24:07.500030+05:30
Bhubaneswar,Odisha,20.2961,85.8245,25.7,83,0.0,1003.6,8.15,27.0,155,36.3,31.8,7,5,4,1,2026-03-05T21:24:07.500039+05:30
Cuttack,Odisha,20.4625,85.8828,26.3,80,0.0,1005.5,8.2,26.6,155,36.3,31.8,7,5,4,1,2026-03-05T21:24:07.500048+05:30
Rourkela,Odisha,22.2604,84.8536,26.6,50,0.0,985.5,7.75,23.0,119,125.7,59.3,4,5,7,0,2026-03-05T21:24:07.500056+05:30
Raipur,Chhattisgarh,21.2514,81.6296,27.7,34,0.0,975.4,7.85,27.7,116,74.3,60.5,4,5,7,0,2026-03-05T21:24:07.500065+05:30
Bhilai,Chhattisgarh,21.1938,81.3509,26.1,37,0.0,975.6,7.85,27.7,96,60.5,47.5,4,5,7,0,2026-03-05T21:24:07.500073+05:30
Guwahati,Assam,26.1158,91.7086,26.6,63,0.0,1002.9,7.15,18.0,135,56.0,52.2,7,5,4,1,2026-03-05T21:24:07.500082+05:30
Agartala,Tripura,23.8315,91.2868,23.7,65,0.0,1007.3,7.55,16.2,175,113.9,99.7,3,5,4,1,2026-03-05T21:24:07.500090+05:30
Shillong,Meghalaya,25.5788,91.8933,13.2,89,0.0,856.9,7.55,15.8,111,48.8,44.8,3,10,7,0,2026-03-05T21:24:07.500099+05:30
Imphal,Manipur,24.817,93.9368,16.9,63,0.0,924.2,7.75,23.0,146,54.9,50.3,3,5,7,0,2026-03-05T21:24:07.500108+05:30
Aizawl,Mizoram,23.7271,92.7176,18.2,62,0.0,892.9,7.7,23.8,156,73.8,64.5,3,5,7,0,2026-03-05T21:24:07.500117+05:30
Kohima,Nagaland,25.6701,94.1077,15.3,75,0.0,855.9,7.6,36.7,131,44.8,40.0,3,5,7,0,2026-03-05T21:24:07.500125+05:30
Gangtok,Sikkim,27.3314,88.6138,14.8,87,0.0,839.0,7.5,21.2,112,41.3,37.0,3,10,7,0,2026-03-05T21:24:07.500133+05:30
Siliguri,West Bengal,26.7271,88.3953,22.0,64,0.0,996.4,7.15,22.3,138,55.5,48.1,3,5,7,0,2026-03-05T21:24:10.859275+05:30
Durgapur,West Bengal,23.5204,87.3119,26.1,45,0.0,996.5,7.7,19.8,182,82.7,67.1,4,5,7,0,2026-03-05T21:24:10.859317+05:30
Asansol,West Bengal,23.6739,86.9524,26.5,44,0.0,995.0,7.7,15.1,184,111.1,78.5,4,5,7,0,2026-03-05T21:24:10.859329+05:30
Pondicherry,Puducherry,11.9139,79.8145,24.9,87,0.0,1009.9,8.85,24.5,79,20.0,17.1,3,0,4,1,2026-03-05T21:24:10.859340+05:30
Port Blair,Andaman and Nicobar Islands,11.6234,92.7265,27.2,73,0.0,1007.9,8.8,23.4,60,19.6,12.8,7,5,4,1,2026-03-05T21:24:10.859352+05:30
Haridwar,Uttarakhand,29.9457,78.1642,22.1,83,0.0,975.8,5.65,21.6,162,105.2,70.1,3,5,3,1,2026-03-05T21:24:10.859363+05:30
Rishikesh,Uttarakhand,30.0869,78.2676,21.1,81,0.0,968.7,5.7,20.9,169,82.9,55.1,3,5,3,1,2026-03-05T21:24:10.859373+05:30
Nainital,Uttarakhand,29.3919,79.4542,15.8,84,0.0,806.2,6.5,53.6,154,102.7,71.2,3,10,7,0,2026-03-05T21:24:10.859384+05:30
Mussoorie,Uttarakhand,30.4599,78.0664,15.8,79,0.0,803.1,6.0,37.1,182,77.1,53.9,3,5,3,0,2026-03-05T21:24:10.859394+05:30
Dharamshala,Himachal Pradesh,32.219,76.3234,22.5,43,0.0,871.3,6.3,24.5,84,35.6,23.3,0,5,7,0,2026-03-05T21:24:10.859404+05:30
Dalhousie,Himachal Pradesh,32.5387,75.971,18.2,64,0.0,805.3,6.45,21.2,105,62.6,47.4,3,5,7,0,2026-03-05T21:24:10.859416+05:30
Patiala,Punjab,30.3398,76.3869,22.8,75,0.0,979.5,5.65,28.4,343,404.2,91.5,3,5,3,1,2026-03-05T21:24:10.859426+05:30
Bhatinda,Punjab,30.211,74.9455,24.2,66,0.0,985.1,6.35,27.0,138,64.7,46.7,3,5,7,1,2026-03-05T21:24:10.859436+05:30
Rohtak,Haryana,28.8955,76.6066,22.8,70,0.0,983.4,5.85,33.1,590,864.3,141.6,3,5,3,1,2026-03-05T21:24:10.859446+05:30
Panipat,Haryana,29.3909,76.9635,22.7,75,0.0,981.7,5.65,32.4,1260,1329.9,189.1,3,5,3,1,2026-03-05T21:24:10.859456+05:30
Mathura,Uttar Pradesh,27.4924,77.6737,26.0,47,0.0,988.7,6.1,34.9,674,882.9,132.7,4,5,7,0,2026-03-05T21:24:10.859465+05:30
Vrindavan,Uttar Pradesh,27.5823,77.7027,22.5,65,0.0,989.0,6.1,37.1,674,882.9,132.7,3,5,7,0,2026-03-05T21:24:10.859475+05:30
Ayodhya,Uttar Pradesh,26.7922,82.1998,22.6,73,0.0,997.2,6.55,10.1,177,109.9,86.6,3,5,7,1,2026-03-05T21:24:10.859484+05:30
Ratlam,Madhya Pradesh,23.3315,75.0367,24.7,51,0.0,957.1,7.35,23.0,96,41.9,34.5,0,5,7,0,2026-03-05T21:24:10.859494+05:30
Sagar,Madhya Pradesh,23.8388,78.7378,26.6,40,0.0,951.9,7.3,31.7,74,37.1,18.7,4,5,7,0,2026-03-05T21:24:10.859503+05:30
Satna,Madhya Pradesh,24.6005,80.8322,24.4,46,0.0,972.7,7.3,40.0,101,40.4,25.5,0,5,7,0,2026-03-05T21:24:10.859512+05:30
Akola,Maharashtra,20.7002,77.0082,27.1,34,0.0,976.6,7.8,26.6,100,38.8,32.1,4,5,7,0,2026-03-05T21:24:10.859522+05:30
Amravati,Maharashtra,20.9374,77.7796,26.9,38,0.0,968.7,7.75,16.9,103,38.2,31.0,4,5,7,0,2026-03-05T21:24:10.859532+05:30
Latur,Maharashtra,18.4088,76.5604,26.3,41,0.0,941.1,8.25,32.0,135,30.7,28.3,4,5,7,0,2026-03-05T21:24:10.859541+05:30
Nanded,Maharashtra,19.1383,77.3091,27.0,47,0.0,969.8,8.05,25.2,115,32.9,31.3,4,5,7,0,2026-03-05T21:24:10.859551+05:30
Gulbarga,Karnataka,17.3297,76.8343,28.6,35,0.0,959.7,8.35,22.3,133,17.8,17.1,4,5,7,0,2026-03-05T21:24:10.859560+05:30
Bidar,Karnataka,17.9104,77.5199,26.8,44,0.0,936.8,8.3,24.8,113,24.0,22.2,4,5,7,0,2026-03-05T21:24:10.859568+05:30
Hospet,Karnataka,15.2689,76.3909,29.4,32,0.0,956.9,8.7,25.9,163,35.0,33.4,4,5,7,0,2026-03-05T21:24:10.859577+05:30
Tirupur,Tamil Nadu,11.1085,77.3411,28.6,37,0.0,976.0,9.15,29.2,155,46.7,45.6,4,5,7,0,2026-03-05T21:24:10.859585+05:30
Alappuzha,Kerala,9.4981,76.3388,29.0,75,0.0,1010.1,8.95,35.3,120,52.5,48.8,7,0,4,1,2026-03-05T21:24:10.859594+05:30
Munnar,Kerala,10.0889,77.0595,21.1,77,0.0,857.9,9.45,23.4,108,38.6,37.7,3,5,7,1,2026-03-05T21:24:10.859604+05:30
Silchar,Assam,24.8333,92.7789,25.4,59,0.0,1005.8,7.5,13.7,149,75.9,67.5,4,5,4,1,2026-03-05T21:24:10.859612+05:30
Dibrugarh,Assam,27.4728,94.912,22.8,85,0.0,996.8,7.2,14.4,110,48.4,44.5,3,5,7,1,2026-03-05T21:24:10.859621+05:30
