city,state,latitude,longitude,temp,humidity,rain,pressure,uv_index,wind_gusts,aqi,pm10,pm2_5,no2,co,o3,so2,mosquito_risk,arthritis_risk,migraine_risk,frizz_risk,updated_at
Delhi,Delhi,28.6139,77.209,35.8,31,0.0,984.6,7.6,40.0,158,414.4,73.3,6.3,396.0,223.0,27.6,0,5,10,0,2026-05-10T12:05:05.144703+05:30
Mumbai,Maharashtra,19.076,72.8777,36.3,49,0.0,1005.9,7.9,47.2,87,81.3,51.0,14.5,359.0,241.0,48.6,0,5,7,1,2026-05-10T12:05:05.144742+05:30
Bangalore,Karnataka,12.9716,77.5946,32.0,31,0.0,911.5,9.45,42.1,60,18.8,11.3,3.3,243.0,121.0,4.2,0,5,7,0,2026-05-10T12:05:05.144762+05:30
Hyderabad,Telangana,17.385,78.4867,35.1,33,0.0,952.9,9.25,36.0,59,27.8,16.6,2.1,274.0,135.0,5.4,0,5,10,1,2026-05-10T12:05:05.144773+05:30
Chennai,Tamil Nadu,13.0827,80.2707,32.0,63,0.0,1005.5,9.1,41.8,22,5.9,3.9,1.8,148.0,56.0,4.0,3,5,4,1,2026-05-10T12:05:05.144782+05:30
Kolkata,West Bengal,22.5726,88.3639,30.8,59,0.0,1007.4,8.9,19.1,156,31.5,26.1,2.8,463.0,150.0,13.5,0,5,4,1,2026-05-10T12:05:05.144790+05:30
Pune,Maharashtra,18.5204,73.8567,39.7,14,0.0,947.4,8.5,38.5,90,35.0,17.0,1.6,208.0,160.0,6.9,0,5,10,0,2026-05-10T12:05:05.144798+05:30
Ahmedabad,Gujarat,23.0225,72.5714,39.2,26,0.0,1001.1,8.1,38.9,57,53.4,19.4,2.5,242.0,130.0,5.6,0,5,7,1,2026-05-10T12:05:05.144808+05:30
Jaipur,Rajasthan,26.9124,75.7873,36.0,28,0.0,961.1,8.15,28.4,160,383.7,64.3,1.4,304.0,177.0,9.0,0,5,10,0,2026-05-10T12:05:05.144816+05:30
Lucknow,Uttar Pradesh,26.8467,80.9462,34.6,34,0.0,994.8,8.05,35.3,118,54.7,36.3,1.7,340.0,192.0,11.4,0,5,7,1,2026-05-10T12:05:05.144824+05:30
Kanpur,Uttar Pradesh,26.4499,80.3319,35.8,29,0.0,992.7,8.1,33.8,163,279.4,57.0,1.9,368.0,206.0,14.0,0,5,10,0,2026-05-10T12:05:05.144831+05:30
Chandigarh,Chandigarh,30.7333,76.7794,32.9,37,0.0,971.5,7.7,39.2,127,128.5,44.7,2.5,312.0,209.0,15.5,0,5,7,1,2026-05-10T12:05:05.144838+05:30
Srinagar,Jammu and Kashmir,34.0837,74.7973,24.2,40,0.0,845.4,8.45,18.0,92,58.8,21.3,2.4,406.0,160.0,4.0,0,5,7,0,2026-05-10T12:05:05.144846+05:30
Jammu,Jammu and Kashmir,32.7266,74.857,35.1,35,0.0,974.4,8.1,33.8,151,244.0,63.8,1.5,315.0,192.0,10.7,0,5,10,1,2026-05-10T12:05:05.144854+05:30
Amritsar,Punjab,31.634,74.8723,36.7,32,0.0,982.0,8.35,29.9,159,417.2,93.8,1.9,367.0,192.0,19.8,0,5,10,1,2026-05-10T12:05:05.144861+05:30
Ludhiana,Punjab,30.901,75.8573,36.2,30,0.0,980.3,7.95,34.9,161,484.3,82.2,2.4,348.0,205.0,19.4,0,5,10,0,2026-05-10T12:05:05.144868+05:30
Jalandhar,Punjab,31.326,75.5762,35.4,35,0.0,981.4,8.15,33.5,157,353.0,74.3,2.2,370.0,199.0,17.8,0,5,10,1,2026-05-10T12:05:05.144875+05:30
Dehradun,Uttarakhand,30.6284,78.0322,19.9,69,0.0,834.4,8.1,26.6,76,106.4,39.7,1.0,268.0,174.0,7.8,3,5,7,0,2026-05-10T12:05:05.144885+05:30
Shimla,Himachal Pradesh,31.1048,77.1734,19.3,55,0.0,789.2,8.15,42.5,108,139.2,51.6,1.2,266.0,190.0,13.7,0,5,7,0,2026-05-10T12:05:05.144892+05:30
Manali,Himachal Pradesh,32.2396,77.1887,22.5,53,0.0,821.7,9.8,44.6,63,36.1,9.7,3.4,213.0,164.0,0.7,0,5,7,0,2026-05-10T12:05:05.144899+05:30
Gurgaon,Haryana,28.4595,77.0266,35.0,34,0.0,983.0,7.7,31.0,728,1207.0,135.0,4.0,348.0,198.0,16.6,0,5,7,1,2026-05-10T12:05:05.144908+05:30
Noida,Uttar Pradesh,28.5355,77.391,34.9,36,0.0,986.0,7.65,29.2,728,1207.0,135.0,4.0,351.0,198.0,16.6,0,5,7,1,2026-05-10T12:05:05.144914+05:30
Ghaziabad,Uttar Pradesh,28.6692,77.4538,34.8,34,0.0,984.5,7.6,32.4,136,259.8,53.0,2.6,328.0,194.0,13.1,0,5,7,1,2026-05-10T12:05:05.144921+05:30
Faridabad,Haryana,28.4089,77.3178,34.4,35,0.0,985.3,7.65,30.2,728,1207.0,135.0,4.0,337.0,198.0,16.6,0,5,7,1,2026-05-10T12:05:05.144927+05:30
Meerut,Uttar Pradesh,28.9845,77.7064,33.3,40,0.0,983.7,7.55,31.0,136,259.8,53.0,2.6,350.0,194.0,13.1,0,5,7,1,2026-05-10T12:05:05.144933+05:30
Agra,Uttar Pradesh,27.1767,78.0081,35.2,35,0.0,988.8,7.95,26.3,663,506.6,73.6,1.8,356.0,195.0,13.4,0,5,10,1,2026-05-10T12:05:05.144941+05:30
Varanasi,Uttar Pradesh,25.3176,82.9739,35.7,30,0.0,997.8,8.6,32.8,132,53.6,38.1,2.7,333.0,226.0,17.7,0,5,10,0,2026-05-10T12:05:05.144948+05:30
Prayagraj,Uttar Pradesh,25.4358,81.8463,35.8,31,0.0,996.0,8.45,32.8,132,58.0,43.3,2.6,359.0,226.0,17.1,0,5,10,0,2026-05-10T12:05:05.144957+05:30
Gorakhpur,Uttar Pradesh,26.7606,83.3732,32.5,42,0.0,999.0,8.4,33.8,103,46.0,30.3,1.6,361.0,175.0,6.3,0,5,7,1,2026-05-10T12:05:05.144963+05:30
Bareilly,Uttar Pradesh,28.367,79.4304,33.0,40,0.0,989.2,7.9,29.5,113,110.1,33.9,2.1,332.0,189.0,11.9,0,5,7,1,2026-05-10T12:05:05.144970+05:30
Aligarh,Uttar Pradesh,27.8974,78.088,35.2,35,0.0,986.8,7.75,28.4,314,475.0,66.8,1.8,329.0,189.0,11.7,0,5,10,1,2026-05-10T12:05:05.144978+05:30
Moradabad,Uttar Pradesh,28.8386,78.7733,32.5,43,0.0,986.2,7.75,31.7,119,56.3,37.0,2.9,353.0,213.0,19.4,0,5,7,1,2026-05-10T12:05:05.144985+05:30
Saharanpur,Uttar Pradesh,29.9637,77.546,32.0,44,0.0,978.5,7.35,31.7,136,112.2,40.9,1.8,342.0,188.0,17.2,0,5,7,1,2026-05-10T12:05:05.144991+05:30
Jhansi,Uttar Pradesh,25.4484,78.5685,36.2,29,0.0,978.8,8.4,25.9,99,113.4,44.5,2.0,304.0,204.0,24.8,0,5,10,0,2026-05-10T12:05:08.416984+05:30
Surat,Gujarat,21.1702,72.8311,39.8,26,0.0,1005.0,7.7,34.2,102,67.3,41.4,36.7,176.0,89.0,97.6,0,5,7,1,2026-05-10T12:05:08.417017+05:30
Vadodara,Gujarat,22.3072,73.1812,40.7,23,0.0,1002.8,8.1,31.7,78,45.2,19.9,3.3,218.0,150.0,8.6,0,5,7,0,2026-05-10T12:05:08.417030+05:30
Rajkot,Gujarat,22.3039,70.8022,39.0,24,0.0,993.9,7.7,39.2,53,54.1,15.8,1.5,144.0,114.0,4.7,0,5,10,0,2026-05-10T12:05:08.417040+05:30
Thane,Maharashtra,19.2183,72.9781,41.0,23,0.0,1004.9,7.9,45.4,87,81.3,51.0,14.5,215.0,241.0,48.6,0,5,7,0,2026-05-10T12:05:08.417049+05:30
Nagpur,Maharashtra,21.1458,79.0882,38.3,25,0.0,972.4,8.9,32.8,100,45.1,33.2,5.9,236.0,190.0,26.1,0,5,10,0,2026-05-10T12:05:08.417058+05:30
Nashik,Maharashtra,19.9975,73.7898,39.8,14,0.0,945.3,8.2,43.9,72,25.1,11.4,1.8,185.0,154.0,9.0,0,5,10,0,2026-05-10T12:05:08.417066+05:30
Aurangabad,Maharashtra,19.8762,75.3433,39.3,14,0.0,944.0,9.05,43.9,77,27.5,12.8,1.5,181.0,151.0,9.7,0,5,10,0,2026-05-10T12:05:08.417074+05:30
Solapur,Maharashtra,17.6599,75.9064,37.9,22,0.0,956.6,9.1,36.4,79,32.2,20.7,1.9,198.0,160.0,6.9,0,5,10,0,2026-05-10T12:05:08.417083+05:30
Kolhapur,Maharashtra,16.705,74.2433,37.3,21,0.0,947.1,8.95,40.7,123,41.8,28.9,2.5,305.0,175.0,6.8,0,5,10,0,2026-05-10T12:05:08.417092+05:30
Goa,Goa,15.2993,74.124,38.7,36,0.0,994.9,7.25,46.8,81,33.6,22.1,1.1,219.0,129.0,2.7,0,5,10,1,2026-05-10T12:05:08.417100+05:30
Jodhpur,Rajasthan,26.2389,73.0243,41.2,15,0.0,982.4,8.4,32.8,89,241.2,44.0,1.2,199.0,144.0,3.3,0,5,10,0,2026-05-10T12:05:08.417108+05:30
Udaipur,Rajasthan,24.5854,73.7125,39.0,14,0.0,947.2,8.8,38.5,40,69.8,11.7,0.7,145.0,128.0,3.5,0,5,10,0,2026-05-10T12:05:08.417116+05:30
Kota,Rajasthan,25.2138,75.8648,39.3,21,0.0,978.7,8.35,33.5,71,82.9,32.7,3.2,282.0,192.0,32.8,0,5,10,0,2026-05-10T12:05:08.417125+05:30
Bikaner,Rajasthan,28.0229,73.3119,40.4,19,0.0,981.4,8.3,32.0,115,142.5,38.5,1.2,264.0,171.0,11.2,0,5,10,0,2026-05-10T12:05:08.417134+05:30
Ajmer,Rajasthan,26.4499,74.6399,37.6,22,0.0,955.7,8.3,33.1,94,121.5,34.6,1.2,267.0,172.0,12.8,0,5,10,0,2026-05-10T12:05:08.417141+05:30
Gwalior,Madhya Pradesh,26.2183,78.1828,35.6,30,0.0,984.1,8.15,26.3,129,146.7,42.4,1.0,312.0,184.0,11.5,0,5,10,0,2026-05-10T12:05:08.417147+05:30
Indore,Madhya Pradesh,22.7196,75.8577,39.8,13,0.0,948.2,8.65,46.1,60,58.0,19.1,1.0,227.0,161.0,7.5,0,5,10,0,2026-05-10T12:05:08.417153+05:30
Bhopal,Madhya Pradesh,23.2599,77.4126,39.1,15,0.0,953.5,8.65,46.4,57,88.7,24.9,0.7,253.0,163.0,5.6,0,5,10,0,2026-05-10T12:05:08.417159+05:30
Jabalpur,Madhya Pradesh,23.1815,79.9864,38.0,20,0.0,960.7,8.8,32.8,72,57.4,27.7,2.0,238.0,194.0,8.5,0,5,10,0,2026-05-10T12:05:08.417165+05:30
Ujjain,Madhya Pradesh,23.1765,75.7885,40.1,13,0.0,953.8,8.6,46.4,59,52.4,18.5,1.0,234.0,158.0,10.2,0,5,10,0,2026-05-10T12:05:08.417172+05:30
Visakhapatnam,Andhra Pradesh,17.6868,83.2185,33.7,51,0.0,1003.2,9.1,35.6,72,26.8,22.8,23.6,898.0,45.0,33.1,0,5,4,1,2026-05-10T12:05:08.417178+05:30
Vijayawada,Andhra Pradesh,16.5062,80.648,36.2,40,0.0,1001.0,9.05,41.0,49,19.2,12.1,1.6,167.0,98.0,5.7,0,5,7,1,2026-05-10T12:05:08.417183+05:30
Guntur,Andhra Pradesh,16.3067,80.4365,37.0,38,0.0,1002.0,8.85,41.0,46,21.4,14.1,1.6,176.0,108.0,6.1,0,5,7,1,2026-05-10T12:05:08.417189+05:30
Nellore,Andhra Pradesh,14.4426,79.9865,35.0,47,0.0,1004.1,8.95,40.0,25,10.7,6.5,0.9,135.0,71.0,1.9,0,5,4,1,2026-05-10T12:05:08.417196+05:30
Kurnool,Andhra Pradesh,15.8281,78.0373,38.3,27,0.0,975.3,9.0,40.0,36,18.2,10.9,1.0,166.0,112.0,2.8,0,5,10,1,2026-05-10T12:05:08.417203+05:30
Kakinada,Andhra Pradesh,16.9891,82.2475,32.5,53,0.0,1006.8,9.05,38.5,30,10.7,7.0,0.6,151.0,65.0,0.7,0,5,4,1,2026-05-10T12:05:08.417209+05:30
Tirupati,Andhra Pradesh,13.6288,79.4192,35.2,41,0.0,989.3,9.15,45.7,57,9.8,6.2,1.0,147.0,79.0,1.2,0,5,10,1,2026-05-10T12:05:08.417214+05:30
Warangal,Telangana,17.9689,79.5941,36.0,39,0.0,977.9,9.15,42.8,65,22.0,16.2,1.8,196.0,115.0,6.9,0,5,10,1,2026-05-10T12:05:08.417220+05:30
Nizamabad,Telangana,18.6725,78.0941,36.8,31,0.0,963.9,9.1,29.9,88,34.2,21.5,1.6,218.0,154.0,4.6,0,5,10,1,2026-05-10T12:05:08.417226+05:30
Mysore,Karnataka,12.2958,76.6396,32.0,37,0.0,927.9,9.3,36.4,54,16.9,12.7,2.6,172.0,122.0,5.8,0,5,7,0,2026-05-10T12:05:08.417232+05:30
Mangalore,Karnataka,12.9141,74.856,31.2,77,0.0,1004.3,9.0,39.6,67,24.9,17.2,2.0,248.0,139.0,3.0,3,5,4,1,2026-05-10T12:05:08.417238+05:30
Hubli-Dharwad,Karnataka,15.3647,75.124,35.0,31,0.0,940.5,7.95,38.9,64,27.0,17.8,2.0,204.0,143.0,2.4,0,5,7,0,2026-05-10T12:05:08.417244+05:30
Belgaum,Karnataka,15.8497,74.4977,35.5,24,0.0,925.8,8.25,37.1,100,35.5,23.2,2.4,215.0,172.0,7.2,0,5,10,0,2026-05-10T12:05:11.680310+05:30
Coimbatore,Tamil Nadu,11.0168,76.9558,30.2,61,0.0,960.6,8.65,30.6,58,10.8,8.4,1.6,172.0,111.0,4.4,3,5,7,1,2026-05-10T12:05:11.680338+05:30
Madurai,Tamil Nadu,9.9252,78.1198,33.5,51,0.0,991.2,5.2,31.7,58,7.4,7.1,2.3,167.0,96.0,6.9,0,5,3,1,2026-05-10T12:05:11.680348+05:30
Trichy,Tamil Nadu,10.7905,78.7047,33.6,52,0.0,997.8,2.8,36.4,48,9.9,9.5,3.9,154.0,90.0,13.6,0,5,3,1,2026-05-10T12:05:11.680355+05:30
Salem,Tamil Nadu,11.6643,78.146,32.5,55,0.0,975.5,9.05,41.0,56,11.3,9.8,3.0,160.0,100.0,10.7,0,5,7,1,2026-05-10T12:05:11.680362+05:30
Tirunelveli,Tamil Nadu,8.7139,77.7567,31.8,61,0.0,1002.0,4.3,29.5,58,6.6,6.4,1.9,155.0,88.0,5.9,3,5,0,1,2026-05-10T12:05:11.680369+05:30
Vellore,Tamil Nadu,12.9165,79.1325,34.2,47,0.0,982.7,9.25,41.4,71,10.3,7.7,1.6,155.0,88.0,3.5,0,5,7,1,2026-05-10T12:05:11.680376+05:30
Erode,Tamil Nadu,11.341,77.7172,32.3,56,0.0,987.3,7.2,37.8,67,11.7,10.7,2.7,177.0,112.0,8.5,0,5,7,1,2026-05-10T12:05:11.680382+05:30
Kochi,Kerala,9.9312,76.2673,31.3,71,0.0,1006.6,8.8,32.4,75,19.7,19.2,3.3,319.0,168.0,5.2,3,5,4,1,2026-05-10T12:05:11.680389+05:30
Thiruvananthapuram,Kerala,8.5241,76.9366,29.7,76,0.0,1006.6,5.4,21.2,47,13.6,12.7,2.0,308.0,159.0,4.2,7,5,0,1,2026-05-10T12:05:11.680396+05:30
Kozhikode,Kerala,11.2588,75.7804,31.7,69,0.0,1005.6,8.85,35.6,48,17.8,16.6,1.8,265.0,156.0,4.2,3,5,4,1,2026-05-10T12:05:11.680402+05:30
Thrissur,Kerala,10.5276,76.2144,34.0,54,0.0,1004.5,9.0,32.8,78,12.5,12.1,1.9,218.0,109.0,4.7,0,5,4,1,2026-05-10T12:05:11.680409+05:30
Kannur,Kerala,11.8745,75.3704,31.6,70,0.0,1004.8,7.5,39.6,57,16.0,13.6,2.3,236.0,141.0,2.3,3,5,4,1,2026-05-10T12:05:11.680415+05:30
Patna,Bihar,25.5941,85.1376,32.4,48,0.0,1001.6,8.65,28.8,124,63.6,50.1,3.0,358.0,223.0,26.3,0,5,4,1,2026-05-10T12:05:11.680421+05:30
Gaya,Bihar,24.7914,85.0002,34.1,36,0.0,994.7,8.7,26.3,112,52.6,33.2,2.4,267.0,218.0,16.8,0,5,7,1,2026-05-10T12:05:11.680427+05:30
Muzaffarpur,Bihar,26.1209,85.3647,31.8,49,0.0,1002.1,8.55,34.2,130,58.1,44.8,2.8,354.0,205.0,15.9,0,5,4,1,2026-05-10T12:05:11.680434+05:30
Bhagalpur,Bihar,25.2425,87.0117,32.5,41,0.0,1002.8,8.6,24.5,131,55.4,44.7,4.4,358.0,221.0,16.9,0,5,4,1,2026-05-10T12:05:11.680440+05:30
Ranchi,Jharkhand,23.3441,85.3096,29.9,40,0.0,939.6,9.15,38.2,92,43.8,27.5,1.8,252.0,173.0,23.3,4,5,7,0,2026-05-10T12:05:11.680446+05:30
Jamshedpur,Jharkhand,22.8046,86.2029,32.4,44,0.0,992.0,8.95,43.9,114,42.8,31.8,4.5,366.0,189.0,26.8,0,5,7,1,2026-05-10T12:05:11.680452+05:30
Dhanbad,Jharkhand,23.7957,86.4304,32.0,45,0.0,981.5,8.9,36.0,155,66.1,51.5,24.4,315.0,179.0,61.4,0,5,7,1,2026-05-10T12:05:11.680458+05:30
Bokaro,Jharkhand,23.6693,86.1511,33.0,39,0.0,984.9,8.9,45.7,154,64.3,46.9,22.8,285.0,187.0,63.1,0,5,7,1,2026-05-10T12:05:11.680486+05:30
Bhubaneswar,Odisha,20.2961,85.8245,32.2,59,0.0,1003.4,9.05,34.9,51,16.8,10.1,1.5,177.0,112.0,3.6,0,5,4,1,2026-05-10T12:05:11.680494+05:30
Cuttack,Odisha,20.4625,85.8828,32.5,59,0.0,1005.2,9.1,37.4,51,16.8,10.1,1.5,181.0,112.0,3.6,0,5,4,1,2026-05-10T12:05:11.680501+05:30
Rourkela,Odisha,22.2604,84.8536,34.0,40,0.0,985.8,8.9,55.8,114,46.3,30.0,2.4,223.0,179.0,36.2,0,5,7,1,2026-05-10T12:05:11.680507+05:30
Raipur,Chhattisgarh,21.2514,81.6296,36.5,26,0.0,974.7,8.9,29.5,96,63.8,39.9,16.6,635.0,223.0,8.9,0,5,10,0,2026-05-10T12:05:11.680513+05:30
Bhilai,Chhattisgarh,21.1938,81.3509,35.9,29,0.0,975.2,8.95,30.2,98,57.5,36.9,21.5,617.0,166.0,7.4,0,5,10,0,2026-05-10T12:05:11.680519+05:30
Guwahati,Assam,26.1158,91.7086,31.9,52,0.0,1001.5,8.65,27.7,88,42.5,27.6,1.1,293.0,143.0,2.5,0,5,4,1,2026-05-10T12:05:11.680525+05:30
Agartala,Tripura,23.8315,91.2868,29.5,69,0.0,1006.8,8.25,33.1,152,48.7,36.3,4.4,366.0,223.0,4.7,7,5,4,1,2026-05-10T12:05:11.680532+05:30
Shillong,Meghalaya,25.5788,91.8933,22.7,58,0.1,859.3,8.45,29.2,86,35.7,21.7,0.8,242.0,157.0,4.2,3,5,7,0,2026-05-10T12:05:11.680538+05:30
Imphal,Manipur,24.817,93.9368,27.5,49,0.0,924.8,7.85,29.5,99,34.7,19.2,1.4,261.0,122.0,3.2,4,5,7,0,2026-05-10T12:05:11.680546+05:30
Aizawl,Mizoram,23.7271,92.7176,25.9,42,0.0,894.5,6.35,24.5,94,50.3,32.6,0.9,246.0,154.0,5.4,4,5,7,0,2026-05-10T12:05:11.680554+05:30
Kohima,Nagaland,25.6701,94.1077,24.0,51,0.0,857.9,7.95,28.4,75,30.5,18.1,0.9,211.0,130.0,1.3,0,5,7,0,2026-05-10T12:05:11.680560+05:30
Gangtok,Sikkim,27.3314,88.6138,15.6,89,0.2,840.1,7.1,30.2,55,19.8,11.4,0.7,185.0,132.0,0.8,6,10,7,0,2026-05-10T12:05:11.680567+05:30
Siliguri,West Bengal,26.7271,88.3953,29.2,59,0.0,994.6,8.0,26.6,90,34.2,16.5,1.3,315.0,151.0,2.2,4,5,7,1,2026-05-10T12:05:14.950540+05:30
Durgapur,West Bengal,23.5204,87.3119,30.9,60,0.0,996.8,8.85,43.2,152,68.2,56.9,19.8,331.0,181.0,62.7,0,5,7,1,2026-05-10T12:05:14.950571+05:30
Asansol,West Bengal,23.6739,86.9524,31.4,55,0.0,995.2,8.9,51.5,151,65.2,52.7,20.0,465.0,180.0,62.1,0,5,7,1,2026-05-10T12:05:14.950581+05:30
Pondicherry,Puducherry,11.9139,79.8145,30.4,75,0.0,1006.6,8.55,43.6,23,8.0,6.0,1.8,196.0,76.0,3.5,3,5,4,1,2026-05-10T12:05:14.950588+05:30
Port Blair,Andaman and Nicobar Islands,11.6234,92.7265,30.0,74,0.0,1006.4,8.05,27.0,27,1.9,1.3,0.3,133.0,59.0,0.1,7,5,4,1,2026-05-10T12:05:14.950596+05:30
Haridwar,Uttarakhand,29.9457,78.1642,32.4,40,0.0,976.8,7.5,26.3,119,97.6,38.2,1.6,292.0,190.0,14.5,0,5,7,1,2026-05-10T12:05:14.950602+05:30
Rishikesh,Uttarakhand,30.0869,78.2676,30.3,48,0.0,969.6,7.55,20.9,106,89.2,39.3,1.7,296.0,182.0,9.9,0,5,7,1,2026-05-10T12:05:14.950609+05:30
Nainital,Uttarakhand,29.3919,79.4542,16.9,77,0.0,809.1,7.65,27.4,90,47.5,25.6,0.9,274.0,163.0,4.7,3,5,7,0,2026-05-10T12:05:14.950615+05:30
Mussoorie,Uttarakhand,30.4599,78.0664,18.2,72,0.0,806.9,7.95,38.5,106,93.8,41.3,1.9,276.0,180.0,8.1,3,5,7,0,2026-05-10T12:05:14.950621+05:30
Dharamshala,Himachal Pradesh,32.219,76.3234,23.4,65,0.0,873.1,7.75,35.6,85,93.8,35.0,0.6,292.0,170.0,5.2,3,5,7,1,2026-05-10T12:05:14.950628+05:30
Dalhousie,Himachal Pradesh,32.5387,75.971,19.9,68,0.0,809.2,8.1,37.1,137,164.8,51.2,1.1,300.0,188.0,9.9,3,5,7,0,2026-05-10T12:05:14.950634+05:30
Patiala,Punjab,30.3398,76.3869,34.5,35,0.0,980.4,7.6,34.9,299,979.8,122.9,3.0,330.0,218.0,25.5,0,5,7,1,2026-05-10T12:05:14.950641+05:30
Bhatinda,Punjab,30.211,74.9455,37.5,28,0.0,984.7,8.25,30.2,388,448.0,93.4,2.8,347.0,209.0,22.3,0,5,10,0,2026-05-10T12:05:14.950647+05:30
Rohtak,Haryana,28.8955,76.6066,35.7,31,0.0,983.5,7.65,30.6,363,657.5,98.0,3.6,356.0,220.0,20.9,0,5,10,1,2026-05-10T12:05:14.950653+05:30
Panipat,Haryana,29.3909,76.9635,34.6,35,0.0,982.6,7.5,32.4,656,1065.4,128.5,4.8,338.0,227.0,29.0,0,5,7,1,2026-05-10T12:05:14.950659+05:30
Mathura,Uttar Pradesh,27.4924,77.6737,35.0,36,0.0,987.9,7.9,24.8,554,629.6,80.1,1.6,335.0,187.0,9.5,0,5,7,1,2026-05-10T12:05:14.950665+05:30
Vrindavan,Uttar Pradesh,27.5823,77.7027,35.2,35,0.0,988.5,7.9,25.6,554,629.6,80.1,1.6,331.0,187.0,9.5,0,5,10,1,2026-05-10T12:05:14.950671+05:30
Ayodhya,Uttar Pradesh,26.7922,82.1998,33.6,37,0.0,996.7,8.2,37.1,105,49.0,32.4,1.5,350.0,182.0,8.2,0,5,7,1,2026-05-10T12:05:14.950677+05:30
Ratlam,Madhya Pradesh,23.3315,75.0367,40.0,14,0.0,954.9,8.5,42.1,51,40.6,14.2,0.8,195.0,145.0,7.6,0,5,10,0,2026-05-10T12:05:14.950684+05:30
Sagar,Madhya Pradesh,23.8388,78.7378,37.0,22,0.0,950.4,8.65,36.0,64,158.3,36.8,0.7,252.0,173.0,6.9,0,5,10,0,2026-05-10T12:05:14.950690+05:30
Satna,Madhya Pradesh,24.6005,80.8322,36.3,27,0.0,971.2,8.65,28.1,98,47.6,30.3,1.7,300.0,201.0,12.4,0,5,10,0,2026-05-10T12:05:14.950696+05:30
Akola,Maharashtra,20.7002,77.0082,40.2,17,0.0,973.8,8.85,36.0,86,43.0,21.0,3.1,237.0,180.0,20.5,0,5,10,0,2026-05-10T12:05:14.950703+05:30
Amravati,Maharashtra,20.9374,77.7796,39.3,18,0.0,966.4,8.85,46.4,89,47.1,23.3,3.9,209.0,186.0,12.2,0,5,10,0,2026-05-10T12:05:14.950710+05:30
Latur,Maharashtra,18.4088,76.5604,38.0,19,0.0,939.6,9.1,41.0,88,32.9,21.7,1.7,211.0,158.0,7.9,0,5,10,0,2026-05-10T12:05:14.950716+05:30
Nanded,Maharashtra,19.1383,77.3091,39.3,21,0.0,967.2,9.0,36.7,93,38.4,25.7,2.2,235.0,180.0,12.3,0,5,10,0,2026-05-10T12:05:14.950723+05:30
Gulbarga,Karnataka,17.3297,76.8343,37.2,27,0.0,958.0,9.1,35.3,64,30.5,17.7,2.2,191.0,147.0,8.8,0,5,10,0,2026-05-10T12:05:14.950728+05:30
Bidar,Karnataka,17.9104,77.5199,35.1,31,0.0,935.9,9.1,31.7,74,35.2,19.0,1.5,213.0,144.0,3.6,0,5,10,0,2026-05-10T12:05:14.950734+05:30
Hospet,Karnataka,15.2689,76.3909,34.5,37,0.0,955.2,8.8,34.2,54,21.4,14.1,5.0,190.0,126.0,8.8,0,5,7,1,2026-05-10T12:05:14.950740+05:30
Tirupur,Tamil Nadu,11.1085,77.3411,32.4,53,0.0,973.8,7.1,30.2,70,11.4,10.0,2.2,169.0,116.0,5.8,0,5,7,1,2026-05-10T12:05:14.950746+05:30
Alappuzha,Kerala,9.4981,76.3388,30.9,72,0.0,1007.0,8.2,25.9,61,19.0,18.4,3.0,215.0,176.0,6.7,3,5,4,1,2026-05-10T12:05:14.950752+05:30
Munnar,Kerala,10.0889,77.0595,22.1,72,0.0,857.1,8.2,24.8,42,5.1,4.8,1.0,151.0,85.0,1.6,3,5,7,1,2026-05-10T12:05:14.950759+05:30
Silchar,Assam,24.8333,92.7789,32.5,50,0.0,1004.7,8.55,27.4,137,56.9,36.9,1.7,347.0,171.0,8.7,0,5,4,1,2026-05-10T12:05:14.950765+05:30
Dibrugarh,Assam,27.4728,94.912,32.5,46,0.0,995.1,8.8,42.5,104,40.7,27.4,1.5,287.0,158.0,2.0,0,5,7,1,2026-05-10T12:05:14.950771+05:30
