city,state,latitude,longitude,temp,humidity,rain,pressure,uv_index,wind_gusts,aqi,pm10,pm2_5,no2,co,o3,so2,mosquito_risk,arthritis_risk,migraine_risk,frizz_risk,updated_at
Delhi,Delhi,28.6139,77.209,30.1,67,0.0,982.6,6.75,25.9,235,364.1,84.8,20.2,740.0,144.0,30.3,3,5,7,1,2026-06-13T09:33:32.985687+05:30
Mumbai,Maharashtra,19.076,72.8777,30.6,73,0.0,1009.4,7.55,50.4,81,49.9,24.2,4.6,175.0,63.0,3.9,3,0,4,1,2026-06-13T09:33:32.985729+05:30
Bangalore,Karnataka,12.9716,77.5946,23.3,79,0.0,914.4,8.35,36.4,41,10.9,6.7,11.5,328.0,44.0,4.3,3,5,7,1,2026-06-13T09:33:32.985744+05:30
Hyderabad,Telangana,17.385,78.4867,30.6,60,0.0,953.9,7.3,40.7,78,39.5,21.0,4.0,272.0,71.0,3.8,0,5,7,1,2026-06-13T09:33:32.985753+05:30
Chennai,Tamil Nadu,13.0827,80.2707,29.0,74,0.0,1008.3,6.7,31.7,62,18.7,14.0,14.4,335.0,68.0,13.7,7,0,4,1,2026-06-13T09:33:32.985761+05:30
Kolkata,West Bengal,22.5726,88.3639,29.8,79,0.0,1005.1,8.85,34.9,150,47.5,32.2,3.3,483.0,138.0,8.9,7,5,4,1,2026-06-13T09:33:32.985769+05:30
Pune,Maharashtra,18.5204,73.8567,30.5,54,0.0,949.7,8.2,49.3,69,38.0,15.7,3.5,144.0,66.0,5.1,0,5,7,1,2026-06-13T09:33:32.985775+05:30
Ahmedabad,Gujarat,23.0225,72.5714,33.2,53,0.0,1001.1,8.05,42.1,70,60.1,22.8,2.9,140.0,65.0,4.5,0,5,4,1,2026-06-13T09:33:32.985782+05:30
Jaipur,Rajasthan,26.9124,75.7873,30.7,55,0.0,958.2,8.2,61.9,138,90.1,28.3,3.9,208.0,98.0,5.8,0,5,7,1,2026-06-13T09:33:32.985792+05:30
Lucknow,Uttar Pradesh,26.8467,80.9462,29.6,70,0.0,992.7,8.3,32.4,132,75.7,52.4,7.8,421.0,150.0,14.8,7,5,7,1,2026-06-13T09:33:32.985799+05:30
Kanpur,Uttar Pradesh,26.4499,80.3319,31.5,58,0.0,990.9,8.3,52.2,154,135.0,61.5,7.6,360.0,151.0,14.5,0,5,7,1,2026-06-13T09:33:32.985806+05:30
Chandigarh,Chandigarh,30.7333,76.7794,28.9,55,0.0,969.0,7.8,45.4,98,48.0,25.7,6.4,427.0,152.0,9.1,4,5,7,1,2026-06-13T09:33:32.985812+05:30
Srinagar,Jammu and Kashmir,34.0837,74.7973,17.0,85,0.1,843.5,9.0,30.2,81,23.6,19.7,4.5,364.0,124.0,3.7,6,10,7,0,2026-06-13T09:33:32.985819+05:30
Jammu,Jammu and Kashmir,32.7266,74.857,23.2,89,0.2,973.9,8.4,38.2,93,37.3,19.0,7.2,312.0,136.0,3.8,6,5,7,1,2026-06-13T09:33:32.985825+05:30
Amritsar,Punjab,31.634,74.8723,22.7,89,0.6,981.8,8.45,51.5,173,301.7,62.6,5.6,413.0,121.0,10.1,6,5,7,1,2026-06-13T09:33:32.985832+05:30
Ludhiana,Punjab,30.901,75.8573,26.9,73,0.0,979.0,8.05,42.1,413,179.3,50.5,7.6,444.0,128.0,12.5,7,5,7,1,2026-06-13T09:33:32.985838+05:30
Jalandhar,Punjab,31.326,75.5762,24.6,80,0.0,980.2,8.25,49.7,169,149.5,42.1,6.6,418.0,133.0,13.2,3,5,7,1,2026-06-13T09:33:32.985844+05:30
Dehradun,Uttarakhand,30.6284,78.0322,23.0,46,0.0,833.3,8.05,36.7,63,32.5,12.4,0.2,167.0,128.0,0.6,0,5,7,0,2026-06-13T09:33:32.985850+05:30
Shimla,Himachal Pradesh,31.1048,77.1734,20.0,47,0.0,787.8,8.25,36.4,82,38.1,18.2,1.5,198.0,144.0,2.0,0,5,7,0,2026-06-13T09:33:32.985861+05:30
Manali,Himachal Pradesh,32.2396,77.1887,15.0,89,0.3,820.2,8.9,35.3,96,4.0,2.8,8.5,171.0,139.0,0.2,6,10,7,0,2026-06-13T09:33:32.985867+05:30
Gurgaon,Haryana,28.4595,77.0266,31.1,58,0.0,980.8,7.85,27.7,1423,1240.5,180.2,15.7,484.0,142.0,23.8,0,5,7,1,2026-06-13T09:33:32.985873+05:30
Noida,Uttar Pradesh,28.5355,77.391,31.3,61,0.0,984.0,7.55,27.4,1423,1240.5,180.2,15.7,468.0,142.0,23.8,3,5,7,1,2026-06-13T09:33:32.985880+05:30
Ghaziabad,Uttar Pradesh,28.6692,77.4538,31.0,63,0.0,982.2,7.1,29.5,135,240.3,64.7,9.0,340.0,145.0,17.9,3,5,7,1,2026-06-13T09:33:32.985888+05:30
Faridabad,Haryana,28.4089,77.3178,30.9,62,0.0,983.2,7.8,29.2,1423,1240.5,180.2,15.7,431.0,142.0,23.8,3,5,7,1,2026-06-13T09:33:32.985894+05:30
Meerut,Uttar Pradesh,28.9845,77.7064,30.1,69,0.0,981.1,7.15,29.9,135,240.3,64.7,9.0,347.0,145.0,17.9,3,5,7,1,2026-06-13T09:33:32.985900+05:30
Agra,Uttar Pradesh,27.1767,78.0081,31.4,61,0.0,986.7,8.1,23.8,688,685.5,116.9,7.7,339.0,145.0,14.0,3,5,7,1,2026-06-13T09:33:32.985906+05:30
Varanasi,Uttar Pradesh,25.3176,82.9739,33.7,56,0.1,996.3,8.8,31.3,158,81.3,64.5,6.3,499.0,175.0,23.2,3,5,7,1,2026-06-13T09:33:32.985912+05:30
Prayagraj,Uttar Pradesh,25.4358,81.8463,31.7,56,0.0,995.0,8.75,37.8,157,85.4,65.2,7.0,464.0,175.0,21.4,0,5,7,1,2026-06-13T09:33:32.985919+05:30
Gorakhpur,Uttar Pradesh,26.7606,83.3732,31.4,66,0.0,996.7,8.65,22.0,133,106.4,63.8,3.9,449.0,168.0,12.8,3,5,7,1,2026-06-13T09:33:32.985927+05:30
Bareilly,Uttar Pradesh,28.367,79.4304,30.0,64,0.0,986.6,8.15,21.6,131,125.7,48.8,6.1,347.0,147.0,17.8,7,5,7,1,2026-06-13T09:33:32.985933+05:30
Aligarh,Uttar Pradesh,27.8974,78.088,31.2,59,0.0,984.9,7.95,27.7,237,428.4,87.5,8.5,318.0,134.0,22.4,0,5,7,1,2026-06-13T09:33:32.985940+05:30
Moradabad,Uttar Pradesh,28.8386,78.7733,29.9,69,0.0,983.3,7.95,24.5,151,158.8,59.8,7.0,430.0,147.0,17.6,7,5,7,1,2026-06-13T09:33:32.985945+05:30
Saharanpur,Uttar Pradesh,29.9637,77.546,29.6,66,0.0,975.7,7.5,26.6,111,52.9,28.8,5.5,377.0,147.0,8.3,7,5,7,1,2026-06-13T09:33:32.985951+05:30
Jhansi,Uttar Pradesh,25.4484,78.5685,34.0,47,0.0,977.0,8.5,48.6,135,120.6,53.6,2.7,194.0,119.0,12.2,0,5,7,1,2026-06-13T09:33:36.319576+05:30
Surat,Gujarat,21.1702,72.8311,32.8,62,0.0,1006.3,7.6,54.7,79,53.2,23.4,11.4,259.0,53.0,31.0,3,5,4,1,2026-06-13T09:33:36.319609+05:30
Vadodara,Gujarat,22.3072,73.1812,33.2,54,0.0,1003.6,8.0,51.8,73,57.7,21.1,3.2,146.0,65.0,4.0,0,5,4,1,2026-06-13T09:33:36.319619+05:30
Rajkot,Gujarat,22.3039,70.8022,33.0,56,0.0,993.0,7.55,54.0,67,58.2,23.6,2.0,107.0,64.0,4.0,0,5,7,1,2026-06-13T09:33:36.319628+05:30
Thane,Maharashtra,19.2183,72.9781,31.3,67,0.1,1008.8,7.65,45.4,81,49.9,24.2,4.6,148.0,63.0,3.9,6,0,4,1,2026-06-13T09:33:36.319636+05:30
Nagpur,Maharashtra,21.1458,79.0882,34.9,38,0.0,972.6,8.9,42.5,102,67.5,34.6,13.6,228.0,111.0,31.8,0,5,7,1,2026-06-13T09:33:36.319643+05:30
Nashik,Maharashtra,19.9975,73.7898,29.5,62,0.0,946.8,8.05,50.4,76,34.9,15.7,4.0,123.0,57.0,2.3,7,5,7,1,2026-06-13T09:33:36.319651+05:30
Aurangabad,Maharashtra,19.8762,75.3433,30.6,55,0.0,945.3,8.95,51.5,84,45.6,18.1,3.0,124.0,66.0,6.0,0,5,7,1,2026-06-13T09:33:36.319658+05:30
Solapur,Maharashtra,17.6599,75.9064,31.1,54,0.0,958.7,8.85,49.3,63,34.0,14.3,1.8,121.0,68.0,2.3,0,5,7,1,2026-06-13T09:33:36.319665+05:30
Kolhapur,Maharashtra,16.705,74.2433,28.6,68,0.0,949.9,5.55,50.8,58,11.0,5.9,3.1,127.0,61.0,2.2,7,5,3,1,2026-06-13T09:33:36.319672+05:30
Goa,Goa,15.2993,74.124,29.1,80,0.0,1000.7,7.5,31.0,70,35.7,15.4,1.9,138.0,60.0,1.5,7,5,4,1,2026-06-13T09:33:36.319680+05:30
Jodhpur,Rajasthan,26.2389,73.0243,32.3,54,0.0,980.6,8.4,42.8,137,254.3,52.7,1.6,111.0,70.0,2.7,0,5,7,1,2026-06-13T09:33:36.319687+05:30
Udaipur,Rajasthan,24.5854,73.7125,29.7,57,0.0,945.7,8.8,39.2,73,78.0,24.1,1.4,112.0,69.0,3.6,4,5,7,1,2026-06-13T09:33:36.319695+05:30
Kota,Rajasthan,25.2138,75.8648,33.0,57,0.0,976.9,8.35,49.7,87,36.8,20.8,3.8,179.0,84.0,6.4,0,5,7,1,2026-06-13T09:33:36.319702+05:30
Bikaner,Rajasthan,28.0229,73.3119,35.2,43,0.0,978.7,8.5,54.4,128,336.2,91.5,1.4,148.0,76.0,3.8,0,5,10,1,2026-06-13T09:33:36.319709+05:30
Ajmer,Rajasthan,26.4499,74.6399,31.1,56,0.0,953.0,8.35,49.7,90,49.8,23.6,3.6,146.0,88.0,5.5,0,5,7,1,2026-06-13T09:33:36.319716+05:30
Gwalior,Madhya Pradesh,26.2183,78.1828,32.8,51,0.0,982.0,8.3,61.9,155,232.8,82.2,3.6,261.0,130.0,11.0,0,5,7,1,2026-06-13T09:33:36.319724+05:30
Indore,Madhya Pradesh,22.7196,75.8577,31.1,55,0.0,948.3,8.65,44.6,78,38.3,19.6,3.8,185.0,69.0,5.8,0,5,7,1,2026-06-13T09:33:36.319731+05:30
Bhopal,Madhya Pradesh,23.2599,77.4126,32.7,52,0.0,953.4,8.65,36.7,93,37.4,21.8,2.4,222.0,99.0,4.7,0,5,7,1,2026-06-13T09:33:36.319737+05:30
Jabalpur,Madhya Pradesh,23.1815,79.9864,32.8,45,0.0,960.9,8.85,33.5,98,83.4,37.6,2.8,190.0,108.0,3.9,0,5,7,1,2026-06-13T09:33:36.319744+05:30
Ujjain,Madhya Pradesh,23.1765,75.7885,31.3,56,0.0,953.8,8.6,42.8,78,42.3,20.8,2.7,149.0,64.0,6.2,0,5,7,1,2026-06-13T09:33:36.319752+05:30
Visakhapatnam,Andhra Pradesh,17.6868,83.2185,31.7,66,0.0,1002.7,9.0,43.2,115,49.7,38.1,20.1,326.0,109.0,46.2,3,5,4,1,2026-06-13T09:33:36.319759+05:30
Vijayawada,Andhra Pradesh,16.5062,80.648,33.2,54,0.0,1002.2,5.05,34.2,82,32.4,22.8,4.7,215.0,100.0,7.8,0,5,0,1,2026-06-13T09:33:36.319766+05:30
Guntur,Andhra Pradesh,16.3067,80.4365,33.3,54,0.0,1003.5,7.65,30.2,82,37.0,25.7,5.0,220.0,96.0,7.5,0,5,4,1,2026-06-13T09:33:36.319773+05:30
Nellore,Andhra Pradesh,14.4426,79.9865,30.5,63,0.0,1006.7,7.25,33.5,58,18.2,11.3,5.1,135.0,72.0,5.5,3,5,4,1,2026-06-13T09:33:36.319781+05:30
Kurnool,Andhra Pradesh,15.8281,78.0373,31.5,57,0.0,978.3,8.25,36.7,72,43.2,20.7,3.4,135.0,65.0,5.3,0,5,7,1,2026-06-13T09:33:36.319789+05:30
Kakinada,Andhra Pradesh,16.9891,82.2475,31.7,70,0.0,1006.9,9.0,38.5,84,31.8,22.7,5.2,242.0,95.0,5.7,3,5,4,1,2026-06-13T09:33:36.319796+05:30
Tirupati,Andhra Pradesh,13.6288,79.4192,29.5,62,0.0,992.2,8.6,31.7,54,17.9,11.9,6.8,149.0,69.0,3.5,7,5,7,1,2026-06-13T09:33:36.319803+05:30
Warangal,Telangana,17.9689,79.5941,31.9,54,0.0,978.2,8.85,32.0,100,53.2,34.3,5.2,232.0,97.0,6.8,0,5,7,1,2026-06-13T09:33:36.319809+05:30
Nizamabad,Telangana,18.6725,78.0941,32.9,51,0.0,965.1,5.45,40.7,88,67.8,34.2,2.7,149.0,91.0,7.3,0,5,3,1,2026-06-13T09:33:36.319816+05:30
Mysore,Karnataka,12.2958,76.6396,22.3,93,0.1,931.8,6.65,34.9,31,13.2,6.6,4.6,145.0,57.0,1.9,6,5,7,1,2026-06-13T09:33:36.319823+05:30
Mangalore,Karnataka,12.9141,74.856,26.0,84,0.0,1010.8,8.2,35.3,40,15.5,7.7,3.1,185.0,65.0,2.2,7,0,4,1,2026-06-13T09:33:36.319830+05:30
Hubli-Dharwad,Karnataka,15.3647,75.124,27.0,73,0.0,943.3,6.55,44.6,45,20.5,8.5,2.2,119.0,58.0,1.3,7,5,7,1,2026-06-13T09:33:36.319837+05:30
Belgaum,Karnataka,15.8497,74.4977,26.6,72,0.0,928.0,6.5,46.1,52,12.2,5.6,2.8,117.0,58.0,1.7,7,5,7,1,2026-06-13T09:33:39.652312+05:30
Coimbatore,Tamil Nadu,11.0168,76.9558,26.4,73,0.0,964.8,8.55,45.4,41,14.1,7.3,3.3,156.0,65.0,2.8,7,5,7,1,2026-06-13T09:33:39.652366+05:30
Madurai,Tamil Nadu,9.9252,78.1198,30.7,53,0.0,995.8,8.3,43.2,57,41.4,20.1,4.9,149.0,88.0,4.4,0,5,7,1,2026-06-13T09:33:39.652378+05:30
Trichy,Tamil Nadu,10.7905,78.7047,32.2,52,0.0,1002.0,7.9,56.9,48,35.6,17.9,3.3,142.0,69.0,3.1,0,5,4,1,2026-06-13T09:33:39.652387+05:30
Salem,Tamil Nadu,11.6643,78.146,25.5,83,0.1,980.3,7.95,28.4,59,31.7,18.0,7.9,202.0,77.0,11.4,10,5,7,1,2026-06-13T09:33:39.652396+05:30
Tirunelveli,Tamil Nadu,8.7139,77.7567,28.0,74,0.0,1006.6,8.15,41.4,19,4.2,2.9,3.3,146.0,53.0,1.3,7,5,4,1,2026-06-13T09:33:39.652405+05:30
Vellore,Tamil Nadu,12.9165,79.1325,29.0,64,0.0,986.2,7.05,39.2,53,12.7,8.8,7.4,180.0,52.0,4.7,7,5,7,1,2026-06-13T09:33:39.652413+05:30
Erode,Tamil Nadu,11.341,77.7172,28.8,67,0.0,992.2,7.8,42.5,56,23.3,13.4,6.0,186.0,71.0,3.8,7,5,7,1,2026-06-13T09:33:39.652420+05:30
Kochi,Kerala,9.9312,76.2673,26.9,84,0.1,1013.2,8.2,28.4,62,24.1,13.3,6.0,158.0,59.0,3.4,10,0,4,1,2026-06-13T09:33:39.652428+05:30
Thiruvananthapuram,Kerala,8.5241,76.9366,25.2,94,0.2,1012.3,6.7,40.3,25,15.8,7.2,2.4,126.0,55.0,0.8,10,0,4,1,2026-06-13T09:33:39.652435+05:30
Kozhikode,Kerala,11.2588,75.7804,24.4,99,0.1,1012.7,7.8,22.3,35,15.8,7.9,2.4,222.0,70.0,1.9,6,0,4,1,2026-06-13T09:33:39.652442+05:30
Thrissur,Kerala,10.5276,76.2144,26.0,90,0.1,1011.6,7.1,29.5,64,20.5,12.6,5.9,207.0,57.0,3.4,10,0,4,1,2026-06-13T09:33:39.652451+05:30
Kannur,Kerala,11.8745,75.3704,24.3,98,0.5,1011.6,8.05,28.1,38,13.5,7.0,4.6,166.0,60.0,2.2,6,0,4,1,2026-06-13T09:33:39.652457+05:30
Patna,Bihar,25.5941,85.1376,30.6,72,0.0,999.3,8.65,26.3,158,81.5,69.8,6.4,415.0,165.0,22.1,3,5,7,1,2026-06-13T09:33:39.652465+05:30
Gaya,Bihar,24.7914,85.0002,32.9,59,0.0,992.6,8.95,36.4,161,90.6,75.9,6.0,315.0,178.0,28.2,0,5,7,1,2026-06-13T09:33:39.652472+05:30
Muzaffarpur,Bihar,26.1209,85.3647,29.7,75,0.0,999.6,8.85,23.0,158,78.2,61.7,5.3,347.0,167.0,18.7,7,5,7,1,2026-06-13T09:33:39.652479+05:30
Bhagalpur,Bihar,25.2425,87.0117,27.2,89,0.1,1000.7,8.45,40.0,158,79.2,67.8,9.5,394.0,164.0,32.1,10,5,4,1,2026-06-13T09:33:39.652486+05:30
Ranchi,Jharkhand,23.3441,85.3096,30.8,50,0.0,937.6,9.3,31.0,146,62.4,45.5,3.2,272.0,138.0,21.5,0,5,7,1,2026-06-13T09:33:39.652493+05:30
Jamshedpur,Jharkhand,22.8046,86.2029,32.5,63,0.0,989.6,9.1,31.7,157,69.6,53.7,10.6,375.0,153.0,39.9,3,5,7,1,2026-06-13T09:33:39.652500+05:30
Dhanbad,Jharkhand,23.7957,86.4304,32.9,58,0.0,978.6,8.95,58.0,172,87.3,72.2,30.6,456.0,131.0,84.3,0,5,7,1,2026-06-13T09:33:39.652507+05:30
Bokaro,Jharkhand,23.6693,86.1511,33.3,58,0.0,982.4,8.9,48.6,170,75.2,59.4,15.4,372.0,142.0,49.2,0,5,7,1,2026-06-13T09:33:39.652514+05:30
Bhubaneswar,Odisha,20.2961,85.8245,32.1,73,0.0,1001.4,9.05,31.3,132,38.6,31.4,2.5,325.0,158.0,9.0,3,5,4,1,2026-06-13T09:33:39.652521+05:30
Cuttack,Odisha,20.4625,85.8828,32.3,74,0.0,1003.2,9.15,34.2,132,38.6,31.4,2.5,318.0,158.0,9.0,3,5,4,1,2026-06-13T09:33:39.652529+05:30
Rourkela,Odisha,22.2604,84.8536,31.6,65,0.0,984.0,9.0,25.6,148,60.8,45.8,3.7,339.0,152.0,28.3,3,5,7,1,2026-06-13T09:33:39.652536+05:30
Raipur,Chhattisgarh,21.2514,81.6296,34.7,41,0.0,973.6,9.0,55.1,116,60.3,40.4,25.9,403.0,109.0,56.9,0,5,7,1,2026-06-13T09:33:39.652543+05:30
Bhilai,Chhattisgarh,21.1938,81.3509,34.0,43,0.0,974.1,8.95,40.7,106,58.9,36.7,21.0,705.0,106.0,48.6,0,5,7,1,2026-06-13T09:33:39.652550+05:30
Guwahati,Assam,26.1158,91.7086,29.1,76,0.0,1001.1,8.15,37.1,88,38.0,24.4,0.9,304.0,128.0,1.5,7,5,4,1,2026-06-13T09:33:39.652557+05:30
Agartala,Tripura,23.8315,91.2868,29.1,80,0.0,1006.0,8.85,28.4,98,41.0,29.8,11.3,226.0,85.0,5.5,7,5,4,1,2026-06-13T09:33:39.652564+05:30
Shillong,Meghalaya,25.5788,91.8933,23.8,72,0.0,858.6,5.75,17.3,80,39.6,22.8,1.2,210.0,123.0,1.6,3,5,3,1,2026-06-13T09:33:39.652571+05:30
Imphal,Manipur,24.817,93.9368,23.5,94,0.0,923.0,6.6,32.4,34,3.4,3.3,5.7,256.0,59.0,0.9,3,5,7,1,2026-06-13T09:33:39.652578+05:30
Aizawl,Mizoram,23.7271,92.7176,20.2,97,0.0,892.6,6.5,28.4,43,6.7,4.6,2.5,181.0,82.0,1.2,3,5,7,1,2026-06-13T09:33:39.652585+05:30
Kohima,Nagaland,25.6701,94.1077,20.2,99,0.2,855.5,5.4,22.3,33,3.0,2.8,2.1,202.0,75.0,0.6,6,5,3,1,2026-06-13T09:33:39.652593+05:30
Gangtok,Sikkim,27.3314,88.6138,21.2,84,0.0,839.2,9.1,36.0,62,28.3,15.6,1.1,260.0,123.0,1.7,3,5,7,1,2026-06-13T09:33:39.652599+05:30
Siliguri,West Bengal,26.7271,88.3953,29.3,75,0.0,992.7,8.65,18.7,140,67.8,42.4,2.3,466.0,151.0,3.9,7,5,7,1,2026-06-13T09:33:42.984464+05:30
Durgapur,West Bengal,23.5204,87.3119,31.9,73,0.0,993.7,9.0,39.2,162,73.8,62.4,24.1,930.0,136.0,71.3,3,5,7,1,2026-06-13T09:33:42.984496+05:30
Asansol,West Bengal,23.6739,86.9524,32.4,71,0.0,992.2,9.05,26.6,158,79.9,66.6,25.2,613.0,132.0,74.3,3,5,7,1,2026-06-13T09:33:42.984507+05:30
Pondicherry,Puducherry,11.9139,79.8145,28.5,76,0.0,1010.1,6.05,41.0,60,25.4,17.5,13.5,250.0,67.0,17.3,7,0,4,1,2026-06-13T09:33:42.984516+05:30
Port Blair,Andaman and Nicobar Islands,11.6234,92.7265,29.9,77,0.1,1010.4,8.55,40.3,20,7.2,4.2,0.3,99.0,44.0,0.4,10,0,4,1,2026-06-13T09:33:42.984525+05:30
Haridwar,Uttarakhand,29.9457,78.1642,29.8,60,0.0,974.2,7.5,26.6,95,41.3,20.4,1.3,265.0,147.0,4.2,4,5,7,1,2026-06-13T09:33:42.984532+05:30
Rishikesh,Uttarakhand,30.0869,78.2676,30.0,50,0.0,966.8,7.55,30.2,68,37.7,15.2,1.1,236.0,134.0,1.8,4,5,7,1,2026-06-13T09:33:42.984540+05:30
Nainital,Uttarakhand,29.3919,79.4542,21.5,45,0.0,808.4,8.55,28.4,85,76.6,26.2,0.0,178.0,137.0,2.6,0,5,7,0,2026-06-13T09:33:42.984548+05:30
Mussoorie,Uttarakhand,30.4599,78.0664,21.8,39,0.0,806.2,7.85,42.8,82,45.1,19.1,1.1,174.0,144.0,2.9,0,5,7,0,2026-06-13T09:33:42.984556+05:30
Dharamshala,Himachal Pradesh,32.219,76.3234,21.0,60,0.0,870.4,8.45,31.0,54,25.6,13.6,0.7,226.0,140.0,0.8,0,5,7,0,2026-06-13T09:33:42.984564+05:30
Dalhousie,Himachal Pradesh,32.5387,75.971,15.6,94,0.0,805.1,8.7,27.7,94,57.5,26.3,1.4,213.0,159.0,3.0,3,10,7,0,2026-06-13T09:33:42.984572+05:30
Patiala,Punjab,30.3398,76.3869,31.0,57,0.0,978.4,7.7,32.4,1255,272.9,59.1,6.4,355.0,127.0,12.2,0,5,7,1,2026-06-13T09:33:42.984579+05:30
Bhatinda,Punjab,30.211,74.9455,30.4,58,0.0,983.4,8.2,30.2,1499,394.9,103.1,6.6,304.0,123.0,14.7,0,5,7,1,2026-06-13T09:33:42.984586+05:30
Rohtak,Haryana,28.8955,76.6066,31.1,56,0.0,981.4,7.8,27.4,928,800.9,135.5,16.1,372.0,143.0,26.4,0,5,7,1,2026-06-13T09:33:42.984593+05:30
Panipat,Haryana,29.3909,76.9635,30.8,62,0.0,980.2,7.55,25.9,1571,1139.9,152.3,14.5,336.0,123.0,23.2,3,5,7,1,2026-06-13T09:33:42.984600+05:30
Mathura,Uttar Pradesh,27.4924,77.6737,31.1,63,0.0,985.9,8.05,27.7,668,739.5,121.1,8.1,324.0,139.0,14.7,3,5,7,1,2026-06-13T09:33:42.984607+05:30
Vrindavan,Uttar Pradesh,27.5823,77.7027,31.4,61,0.0,986.4,8.05,28.4,668,739.5,121.1,8.1,320.0,139.0,14.7,3,5,7,1,2026-06-13T09:33:42.984613+05:30
Ayodhya,Uttar Pradesh,26.7922,82.1998,29.5,69,0.0,994.8,8.45,31.0,122,82.9,54.7,5.4,425.0,161.0,14.0,7,5,7,1,2026-06-13T09:33:42.984620+05:30
Ratlam,Madhya Pradesh,23.3315,75.0367,31.2,58,0.0,954.6,8.5,42.1,77,50.1,22.2,2.2,122.0,63.0,5.9,0,5,7,1,2026-06-13T09:33:42.984627+05:30
Sagar,Madhya Pradesh,23.8388,78.7378,32.7,46,0.0,949.7,8.75,38.9,95,58.9,27.4,3.2,146.0,96.0,3.2,0,5,7,1,2026-06-13T09:33:42.984634+05:30
Satna,Madhya Pradesh,24.6005,80.8322,31.6,54,0.0,970.5,8.8,20.9,108,81.7,36.4,1.4,178.0,112.0,3.3,0,5,7,1,2026-06-13T09:33:42.984641+05:30
Akola,Maharashtra,20.7002,77.0082,33.4,51,0.0,975.1,8.8,42.8,81,55.6,25.3,2.8,124.0,68.0,5.6,0,5,7,1,2026-06-13T09:33:42.984648+05:30
Amravati,Maharashtra,20.9374,77.7796,33.7,48,0.0,967.2,8.85,41.8,86,54.0,26.0,3.2,119.0,74.0,7.1,0,5,7,1,2026-06-13T09:33:42.984655+05:30
Latur,Maharashtra,18.4088,76.5604,30.3,59,0.0,941.2,8.4,36.7,72,49.1,20.1,2.2,133.0,66.0,3.5,0,5,7,1,2026-06-13T09:33:42.984662+05:30
Nanded,Maharashtra,19.1383,77.3091,33.4,47,0.0,969.1,8.85,38.2,85,61.5,29.3,3.1,145.0,80.0,6.9,0,5,7,1,2026-06-13T09:33:42.984670+05:30
Gulbarga,Karnataka,17.3297,76.8343,30.4,60,0.0,960.0,4.2,38.5,65,34.0,15.3,2.7,142.0,66.0,2.7,0,5,3,1,2026-06-13T09:33:42.984677+05:30
Bidar,Karnataka,17.9104,77.5199,30.5,59,0.0,936.7,2.35,36.4,74,51.2,24.0,3.0,135.0,72.0,3.9,0,5,3,1,2026-06-13T09:33:42.984683+05:30
Hospet,Karnataka,15.2689,76.3909,28.3,70,0.0,958.2,2.95,51.1,44,19.0,8.7,2.4,117.0,57.0,2.0,7,5,3,1,2026-06-13T09:33:42.984690+05:30
Tirupur,Tamil Nadu,11.1085,77.3411,29.4,61,0.0,978.2,8.7,47.2,58,21.3,12.6,6.2,169.0,71.0,4.1,7,5,7,1,2026-06-13T09:33:42.984696+05:30
Alappuzha,Kerala,9.4981,76.3388,26.8,86,0.0,1013.2,8.0,32.8,47,21.0,10.0,3.8,96.0,64.0,1.9,7,0,4,1,2026-06-13T09:33:42.984703+05:30
Munnar,Kerala,10.0889,77.0595,19.3,84,0.0,860.2,8.2,41.4,38,16.6,8.2,2.1,113.0,70.0,2.2,3,10,7,1,2026-06-13T09:33:42.984710+05:30
Silchar,Assam,24.8333,92.7789,27.0,89,0.0,1005.2,8.75,22.7,90,13.0,12.0,5.6,230.0,90.0,3.4,7,5,4,1,2026-06-13T09:33:42.984717+05:30
Dibrugarh,Assam,27.4728,94.912,29.5,71,0.0,993.9,8.5,27.4,85,16.9,15.5,1.1,200.0,119.0,1.8,7,5,7,1,2026-06-13T09:33:42.984724+05:30
