city,state,latitude,longitude,temp,humidity,rain,pressure,uv_index,wind_gusts,aqi,pm10,pm2_5,mosquito_risk,arthritis_risk,migraine_risk,frizz_risk,updated_at
Delhi,Delhi,28.6139,77.209,24.1,67,0.0,981.4,6.3,36.7,204,278.5,71.2,3,5,7,1,2026-03-30T02:07:10.351365+05:30
Mumbai,Maharashtra,19.076,72.8777,27.3,85,0.0,1007.2,8.0,22.7,56,29.4,12.6,7,5,4,1,2026-03-30T02:07:10.351404+05:30
Bangalore,Karnataka,12.9716,77.5946,23.2,75,0.0,910.3,9.45,32.0,133,80.3,72.6,3,5,7,1,2026-03-30T02:07:10.351420+05:30
Hyderabad,Telangana,17.385,78.4867,26.5,64,0.0,951.0,8.3,28.1,85,48.7,43.4,7,5,7,1,2026-03-30T02:07:10.351430+05:30
Chennai,Tamil Nadu,13.0827,80.2707,26.8,91,0.0,1005.7,9.3,30.2,54,16.4,11.8,7,5,4,1,2026-03-30T02:07:10.351438+05:30
Kolkata,West Bengal,22.5726,88.3639,25.2,94,0.0,1005.3,8.5,27.4,115,39.1,34.3,7,5,4,1,2026-03-30T02:07:10.351447+05:30
Pune,Maharashtra,18.5204,73.8567,22.6,96,0.0,946.5,8.55,38.5,69,30.9,22.9,3,5,7,1,2026-03-30T02:07:10.351458+05:30
Ahmedabad,Gujarat,23.0225,72.5714,27.0,67,0.0,1001.1,8.0,24.8,49,32.1,13.0,7,5,4,1,2026-03-30T02:07:10.351465+05:30
Jaipur,Rajasthan,26.9124,75.7873,24.9,39,0.0,958.2,5.2,39.2,102,140.6,25.1,0,5,3,0,2026-03-30T02:07:10.351473+05:30
Lucknow,Uttar Pradesh,26.8467,80.9462,23.8,64,0.0,992.1,7.3,20.5,104,81.5,38.1,3,5,7,1,2026-03-30T02:07:10.351480+05:30
Kanpur,Uttar Pradesh,26.4499,80.3319,23.3,67,0.0,990.1,7.3,17.6,102,79.6,32.0,3,5,7,1,2026-03-30T02:07:10.351487+05:30
Chandigarh,Chandigarh,30.7333,76.7794,21.3,81,0.0,967.7,5.85,21.2,93,50.5,26.7,3,5,3,1,2026-03-30T02:07:10.351495+05:30
Srinagar,Jammu and Kashmir,34.0837,74.7973,10.6,81,0.0,839.5,6.25,25.9,73,42.3,39.8,3,10,7,0,2026-03-30T02:07:10.351502+05:30
Jammu,Jammu and Kashmir,32.7266,74.857,20.1,78,0.0,971.2,5.45,44.6,89,36.2,29.3,3,5,3,1,2026-03-30T02:07:10.351509+05:30
Amritsar,Punjab,31.634,74.8723,20.7,80,0.0,980.2,5.05,41.8,79,60.1,27.1,3,5,3,1,2026-03-30T02:07:10.351515+05:30
Ludhiana,Punjab,30.901,75.8573,21.9,84,0.0,977.7,5.5,42.5,109,108.5,48.0,3,5,3,1,2026-03-30T02:07:10.351522+05:30
Jalandhar,Punjab,31.326,75.5762,20.9,78,0.0,979.3,4.9,42.5,88,68.7,28.4,3,5,3,1,2026-03-30T02:07:10.351532+05:30
Dehradun,Uttarakhand,30.6284,78.0322,14.2,70,0.0,829.0,6.95,25.2,59,18.3,10.1,3,5,7,0,2026-03-30T02:07:10.351539+05:30
Shimla,Himachal Pradesh,31.1048,77.1734,12.6,62,0.0,782.6,6.45,24.5,70,15.5,10.6,3,5,7,0,2026-03-30T02:07:10.351546+05:30
Manali,Himachal Pradesh,32.2396,77.1887,14.2,54,0.0,818.4,8.15,33.8,37,2.3,2.3,0,5,7,0,2026-03-30T02:07:10.351554+05:30
Gurgaon,Haryana,28.4595,77.0266,23.4,71,0.0,979.6,6.05,35.6,580,340.9,72.4,3,5,7,1,2026-03-30T02:07:10.351564+05:30
Noida,Uttar Pradesh,28.5355,77.391,23.8,70,0.0,983.0,6.2,36.0,580,340.9,72.4,3,5,7,1,2026-03-30T02:07:10.351572+05:30
Ghaziabad,Uttar Pradesh,28.6692,77.4538,23.3,67,0.0,981.1,5.15,36.7,155,156.5,59.0,3,5,3,1,2026-03-30T02:07:10.351578+05:30
Faridabad,Haryana,28.4089,77.3178,23.6,70,0.0,982.2,6.0,36.0,580,340.9,72.4,3,5,3,1,2026-03-30T02:07:10.351585+05:30
Meerut,Uttar Pradesh,28.9845,77.7064,22.4,71,0.0,980.0,6.2,30.6,155,156.5,59.0,3,5,7,1,2026-03-30T02:07:10.351592+05:30
Agra,Uttar Pradesh,27.1767,78.0081,24.5,67,0.0,985.9,6.45,47.9,271,499.2,74.7,3,5,7,1,2026-03-30T02:07:10.351598+05:30
Varanasi,Uttar Pradesh,25.3176,82.9739,22.1,73,0.0,995.8,7.95,19.1,89,67.1,44.1,3,5,7,1,2026-03-30T02:07:10.351609+05:30
Prayagraj,Uttar Pradesh,25.4358,81.8463,23.1,67,0.0,994.2,7.85,34.9,99,65.2,40.5,3,5,7,1,2026-03-30T02:07:10.351616+05:30
Gorakhpur,Uttar Pradesh,26.7606,83.3732,21.5,79,0.0,996.5,7.7,27.7,132,70.5,53.7,3,5,7,1,2026-03-30T02:07:10.351622+05:30
Bareilly,Uttar Pradesh,28.367,79.4304,22.1,79,0.0,985.5,6.55,21.6,97,49.0,37.8,3,5,7,1,2026-03-30T02:07:10.351629+05:30
Aligarh,Uttar Pradesh,27.8974,78.088,22.8,70,0.0,983.9,6.3,37.4,175,244.9,59.5,3,5,7,1,2026-03-30T02:07:10.351635+05:30
Moradabad,Uttar Pradesh,28.8386,78.7733,23.5,66,0.0,982.2,6.8,22.3,152,105.7,84.1,3,5,7,1,2026-03-30T02:07:10.351641+05:30
Saharanpur,Uttar Pradesh,29.9637,77.546,21.8,83,0.0,974.2,6.4,20.5,98,50.5,34.5,3,5,7,1,2026-03-30T02:07:10.351647+05:30
Jhansi,Uttar Pradesh,25.4484,78.5685,26.1,52,0.0,975.5,7.15,33.8,69,31.3,20.5,4,5,7,0,2026-03-30T02:07:13.711914+05:30
Surat,Gujarat,21.1702,72.8311,26.5,92,0.0,1005.5,7.8,24.8,76,39.7,28.3,7,5,4,1,2026-03-30T02:07:13.711943+05:30
Vadodara,Gujarat,22.3072,73.1812,27.0,86,0.0,1003.2,8.0,26.3,63,36.9,24.4,7,5,4,1,2026-03-30T02:07:13.711954+05:30
Rajkot,Gujarat,22.3039,70.8022,24.9,85,0.0,993.6,7.75,31.7,55,49.1,15.5,3,5,7,1,2026-03-30T02:07:13.711962+05:30
Thane,Maharashtra,19.2183,72.9781,26.4,87,0.0,1006.7,8.0,35.6,56,29.4,12.6,7,5,4,1,2026-03-30T02:07:13.711970+05:30
Nagpur,Maharashtra,21.1458,79.0882,27.0,55,0.0,970.7,8.55,25.9,66,47.3,31.7,4,5,7,1,2026-03-30T02:07:13.711978+05:30
Nashik,Maharashtra,19.9975,73.7898,21.9,76,0.0,944.0,8.25,28.1,43,22.1,14.1,3,5,7,1,2026-03-30T02:07:13.711985+05:30
Aurangabad,Maharashtra,19.8762,75.3433,26.3,48,0.0,942.4,8.75,42.8,43,22.8,18.2,4,5,7,0,2026-03-30T02:07:13.711992+05:30
Solapur,Maharashtra,17.6599,75.9064,26.5,55,0.0,954.5,8.9,27.4,56,30.4,25.1,4,5,7,1,2026-03-30T02:07:13.712000+05:30
Kolhapur,Maharashtra,16.705,74.2433,20.7,97,0.0,945.6,7.75,42.1,70,24.9,22.0,3,5,7,1,2026-03-30T02:07:13.712007+05:30
Goa,Goa,15.2993,74.124,26.6,84,0.0,995.5,8.9,31.3,68,22.8,15.9,7,5,7,1,2026-03-30T02:07:13.712014+05:30
Jodhpur,Rajasthan,26.2389,73.0243,25.8,62,0.0,981.1,7.8,41.4,126,163.4,29.0,7,5,7,1,2026-03-30T02:07:13.712022+05:30
Udaipur,Rajasthan,24.5854,73.7125,23.9,63,0.0,945.5,8.1,30.2,39,31.7,13.5,3,5,7,1,2026-03-30T02:07:13.712029+05:30
Kota,Rajasthan,25.2138,75.8648,25.7,42,0.0,977.1,6.9,27.4,39,11.3,7.5,4,5,7,0,2026-03-30T02:07:13.712036+05:30
Bikaner,Rajasthan,28.0229,73.3119,25.7,27,0.0,978.7,5.15,43.6,114,217.5,46.6,4,5,3,0,2026-03-30T02:07:13.712044+05:30
Ajmer,Rajasthan,26.4499,74.6399,23.4,66,0.0,953.0,7.25,32.0,44,35.9,12.5,3,5,7,1,2026-03-30T02:07:13.712051+05:30
Gwalior,Madhya Pradesh,26.2183,78.1828,25.9,62,0.0,981.2,6.4,37.1,76,44.9,24.4,7,5,7,1,2026-03-30T02:07:13.712057+05:30
Indore,Madhya Pradesh,22.7196,75.8577,23.3,71,0.0,946.6,7.75,22.7,51,33.1,17.8,3,5,7,1,2026-03-30T02:07:13.712064+05:30
Bhopal,Madhya Pradesh,23.2599,77.4126,24.8,52,0.0,952.2,8.2,31.0,37,21.9,11.9,0,5,7,0,2026-03-30T02:07:13.712071+05:30
Jabalpur,Madhya Pradesh,23.1815,79.9864,25.1,63,0.0,959.0,8.35,25.9,58,29.5,21.4,7,5,7,1,2026-03-30T02:07:13.712078+05:30
Ujjain,Madhya Pradesh,23.1765,75.7885,23.6,71,0.0,952.3,7.75,25.2,50,32.8,17.5,3,5,7,1,2026-03-30T02:07:13.712085+05:30
Visakhapatnam,Andhra Pradesh,17.6868,83.2185,26.9,87,0.0,1001.9,9.0,38.5,66,22.5,16.9,7,5,4,1,2026-03-30T02:07:13.712092+05:30
Vijayawada,Andhra Pradesh,16.5062,80.648,26.5,93,0.0,1000.8,9.1,29.5,81,18.5,15.4,7,5,4,1,2026-03-30T02:07:13.712100+05:30
Guntur,Andhra Pradesh,16.3067,80.4365,26.7,93,0.0,1001.8,9.1,31.3,89,19.8,16.9,7,5,4,1,2026-03-30T02:07:13.712107+05:30
Nellore,Andhra Pradesh,14.4426,79.9865,26.1,91,0.0,1003.8,9.25,31.7,67,14.2,11.4,7,5,4,1,2026-03-30T02:07:13.712115+05:30
Kurnool,Andhra Pradesh,15.8281,78.0373,29.1,54,0.0,974.2,8.35,25.2,99,54.9,49.6,4,5,7,1,2026-03-30T02:07:13.712122+05:30
Kakinada,Andhra Pradesh,16.9891,82.2475,25.8,95,0.0,1005.8,9.05,28.8,54,18.4,11.8,7,5,4,1,2026-03-30T02:07:13.712130+05:30
Tirupati,Andhra Pradesh,13.6288,79.4192,25.7,91,0.0,990.4,9.35,29.5,96,26.2,25.1,7,5,7,1,2026-03-30T02:07:13.712137+05:30
Warangal,Telangana,17.9689,79.5941,27.3,78,0.0,976.0,8.9,32.4,101,45.8,42.8,7,5,7,1,2026-03-30T02:07:13.712144+05:30
Nizamabad,Telangana,18.6725,78.0941,26.6,59,0.0,962.2,8.85,43.6,73,45.6,41.3,4,5,7,1,2026-03-30T02:07:13.712151+05:30
Mysore,Karnataka,12.2958,76.6396,23.5,89,0.0,926.7,8.9,22.0,124,57.2,51.2,3,5,7,1,2026-03-30T02:07:13.712158+05:30
Mangalore,Karnataka,12.9141,74.856,29.3,81,0.0,1004.0,9.05,24.1,78,34.0,22.0,7,5,4,1,2026-03-30T02:07:13.712165+05:30
Hubli-Dharwad,Karnataka,15.3647,75.124,23.6,77,0.0,938.2,9.15,30.2,78,29.9,20.3,3,5,7,1,2026-03-30T02:07:13.712172+05:30
Belgaum,Karnataka,15.8497,74.4977,21.7,81,0.0,922.9,9.2,30.2,63,22.3,18.3,3,5,7,1,2026-03-30T02:07:17.076157+05:30
Coimbatore,Tamil Nadu,11.0168,76.9558,24.5,86,0.0,960.2,9.45,27.7,98,55.6,50.3,3,5,7,1,2026-03-30T02:07:17.076190+05:30
Madurai,Tamil Nadu,9.9252,78.1198,25.9,85,0.0,991.5,9.4,34.9,79,28.3,26.8,7,5,7,1,2026-03-30T02:07:17.076200+05:30
Trichy,Tamil Nadu,10.7905,78.7047,26.1,94,0.0,998.5,9.35,22.0,71,22.2,20.1,7,5,7,1,2026-03-30T02:07:17.076209+05:30
Salem,Tamil Nadu,11.6643,78.146,27.3,80,0.0,976.0,9.4,19.8,81,29.8,28.1,7,5,7,1,2026-03-30T02:07:17.076218+05:30
Tirunelveli,Tamil Nadu,8.7139,77.7567,26.0,81,0.0,1001.4,9.4,50.8,72,34.5,32.5,7,5,4,1,2026-03-30T02:07:17.076227+05:30
Vellore,Tamil Nadu,12.9165,79.1325,26.0,88,0.0,983.2,8.6,30.2,106,35.3,33.8,7,5,7,1,2026-03-30T02:07:17.076235+05:30
Erode,Tamil Nadu,11.341,77.7172,27.9,75,0.0,987.6,9.4,19.8,91,17.5,16.5,7,5,7,1,2026-03-30T02:07:17.076244+05:30
Kochi,Kerala,9.9312,76.2673,28.5,82,0.0,1006.5,9.2,28.8,90,39.3,36.8,7,5,4,1,2026-03-30T02:07:17.076252+05:30
Thiruvananthapuram,Kerala,8.5241,76.9366,28.2,83,0.0,1005.9,9.25,30.6,75,30.4,24.6,7,5,4,1,2026-03-30T02:07:17.076260+05:30
Kozhikode,Kerala,11.2588,75.7804,27.8,85,0.0,1005.8,6.6,25.6,115,29.6,25.6,7,5,4,1,2026-03-30T02:07:17.076268+05:30
Thrissur,Kerala,10.5276,76.2144,27.2,88,0.0,1005.0,9.15,28.1,89,47.3,42.7,7,5,4,1,2026-03-30T02:07:17.076305+05:30
Kannur,Kerala,11.8745,75.3704,28.7,82,0.0,1005.0,7.9,23.0,83,28.4,25.1,7,5,4,1,2026-03-30T02:07:17.076319+05:30
Patna,Bihar,25.5941,85.1376,22.8,89,0.0,1000.1,8.1,31.7,140,73.8,66.6,3,5,4,1,2026-03-30T02:07:17.076328+05:30
Gaya,Bihar,24.7914,85.0002,22.9,85,0.0,992.8,8.2,21.2,108,56.9,47.6,3,5,7,1,2026-03-30T02:07:17.076336+05:30
Muzaffarpur,Bihar,26.1209,85.3647,21.3,90,0.0,1000.6,8.1,33.8,150,78.5,70.5,3,5,4,1,2026-03-30T02:07:17.076343+05:30
Bhagalpur,Bihar,25.2425,87.0117,21.8,96,0.0,1001.7,8.1,20.9,147,72.6,63.6,3,5,4,1,2026-03-30T02:07:17.076351+05:30
Ranchi,Jharkhand,23.3441,85.3096,22.3,87,0.0,936.4,8.7,35.3,102,38.5,21.5,3,5,7,1,2026-03-30T02:07:17.076358+05:30
Jamshedpur,Jharkhand,22.8046,86.2029,26.1,89,0.0,989.7,8.6,30.6,142,72.2,62.2,7,5,7,1,2026-03-30T02:07:17.076367+05:30
Dhanbad,Jharkhand,23.7957,86.4304,24.9,80,0.0,979.3,8.55,36.7,160,105.2,98.3,3,5,7,1,2026-03-30T02:07:17.076375+05:30
Bokaro,Jharkhand,23.6693,86.1511,24.4,86,0.0,983.3,8.55,27.7,157,92.9,82.7,3,5,7,1,2026-03-30T02:07:17.076383+05:30
Bhubaneswar,Odisha,20.2961,85.8245,26.7,85,0.0,1001.0,8.8,41.0,75,20.0,15.7,7,5,4,1,2026-03-30T02:07:17.076391+05:30
Cuttack,Odisha,20.4625,85.8828,26.7,86,0.0,1002.7,8.85,38.5,75,20.0,15.7,7,5,4,1,2026-03-30T02:07:17.076399+05:30
Rourkela,Odisha,22.2604,84.8536,27.3,75,0.0,983.2,8.5,27.4,123,47.0,37.3,7,5,7,1,2026-03-30T02:07:17.076406+05:30
Raipur,Chhattisgarh,21.2514,81.6296,27.4,43,0.0,971.5,8.6,26.3,105,46.9,43.5,4,5,7,0,2026-03-30T02:07:17.076414+05:30
Bhilai,Chhattisgarh,21.1938,81.3509,26.5,46,0.0,971.8,8.65,29.2,83,30.6,25.4,4,5,7,0,2026-03-30T02:07:17.076422+05:30
Guwahati,Assam,26.1158,91.7086,21.1,94,0.0,1002.7,7.55,20.9,117,56.8,46.4,3,5,4,1,2026-03-30T02:07:17.076430+05:30
Agartala,Tripura,23.8315,91.2868,22.2,93,0.0,1006.2,8.25,28.8,133,37.8,33.6,3,5,4,1,2026-03-30T02:07:17.076438+05:30
Shillong,Meghalaya,25.5788,91.8933,11.1,93,0.0,853.5,6.6,38.2,87,57.3,45.4,3,10,7,0,2026-03-30T02:07:17.076447+05:30
Imphal,Manipur,24.817,93.9368,15.9,90,0.0,922.3,7.95,58.3,138,86.8,70.3,3,10,7,0,2026-03-30T02:07:17.076455+05:30
Aizawl,Mizoram,23.7271,92.7176,16.1,95,0.0,891.4,8.45,52.2,152,50.6,44.5,3,10,7,0,2026-03-30T02:07:17.076463+05:30
Kohima,Nagaland,25.6701,94.1077,12.4,83,0.0,852.8,8.5,71.6,109,64.3,48.9,3,10,7,0,2026-03-30T02:07:17.076470+05:30
Gangtok,Sikkim,27.3314,88.6138,12.5,84,0.0,834.9,8.25,20.2,73,41.6,35.0,3,10,7,0,2026-03-30T02:07:17.076478+05:30
Siliguri,West Bengal,26.7271,88.3953,17.7,87,0.0,995.0,7.7,16.6,135,89.4,68.9,3,10,7,0,2026-03-30T02:07:20.436089+05:30
Durgapur,West Bengal,23.5204,87.3119,24.3,90,0.0,994.7,8.5,24.5,159,90.3,84.1,3,5,7,1,2026-03-30T02:07:20.436116+05:30
Asansol,West Bengal,23.6739,86.9524,24.6,85,0.0,993.3,8.5,25.6,157,90.3,84.8,3,5,7,1,2026-03-30T02:07:20.436125+05:30
Pondicherry,Puducherry,11.9139,79.8145,25.7,97,0.0,1007.0,9.25,28.1,51,14.8,10.6,7,5,4,1,2026-03-30T02:07:20.436133+05:30
Port Blair,Andaman and Nicobar Islands,11.6234,92.7265,28.1,77,0.0,1005.5,9.2,16.6,72,27.9,21.9,7,5,4,1,2026-03-30T02:07:20.436141+05:30
Haridwar,Uttarakhand,29.9457,78.1642,22.7,69,0.0,973.0,6.0,22.7,84,40.2,30.7,3,5,3,1,2026-03-30T02:07:20.436148+05:30
Rishikesh,Uttarakhand,30.0869,78.2676,21.7,68,0.0,966.1,5.9,20.9,69,46.6,24.9,3,5,3,0,2026-03-30T02:07:20.436155+05:30
Nainital,Uttarakhand,29.3919,79.4542,18.4,54,0.0,805.3,7.4,46.1,76,44.5,28.8,0,5,7,0,2026-03-30T02:07:20.436162+05:30
Mussoorie,Uttarakhand,30.4599,78.0664,16.5,57,0.0,801.8,6.95,35.3,82,39.7,27.0,0,5,7,0,2026-03-30T02:07:20.436169+05:30
Dharamshala,Himachal Pradesh,32.219,76.3234,19.7,45,0.0,867.8,5.2,40.3,43,9.9,9.3,0,5,3,0,2026-03-30T02:07:20.436176+05:30
Dalhousie,Himachal Pradesh,32.5387,75.971,15.8,51,0.0,801.8,6.05,46.4,81,40.0,26.8,0,5,7,0,2026-03-30T02:07:20.436184+05:30
Patiala,Punjab,30.3398,76.3869,21.9,76,0.0,976.9,5.65,24.1,199,304.5,50.8,3,5,3,1,2026-03-30T02:07:20.436191+05:30
Bhatinda,Punjab,30.211,74.9455,22.0,81,0.0,982.3,3.5,40.3,184,506.6,104.3,3,5,3,1,2026-03-30T02:07:20.436198+05:30
Rohtak,Haryana,28.8955,76.6066,21.9,77,0.0,979.9,6.8,23.0,297,369.7,85.2,3,5,7,1,2026-03-30T02:07:20.436205+05:30
Panipat,Haryana,29.3909,76.9635,21.5,77,0.0,978.8,6.4,24.5,430,213.3,66.4,3,5,7,1,2026-03-30T02:07:20.436212+05:30
Mathura,Uttar Pradesh,27.4924,77.6737,23.3,73,0.0,984.9,6.3,36.7,242,388.4,70.3,3,5,7,1,2026-03-30T02:07:20.436219+05:30
Vrindavan,Uttar Pradesh,27.5823,77.7027,23.6,71,0.0,985.5,6.3,36.7,242,388.4,70.3,3,5,7,1,2026-03-30T02:07:20.436226+05:30
Ayodhya,Uttar Pradesh,26.7922,82.1998,21.1,72,0.0,994.2,7.5,25.6,135,94.5,57.5,3,5,7,0,2026-03-30T02:07:20.436233+05:30
Ratlam,Madhya Pradesh,23.3315,75.0367,24.7,67,0.0,953.1,7.6,28.8,50,33.9,16.7,3,5,7,1,2026-03-30T02:07:20.436240+05:30
Sagar,Madhya Pradesh,23.8388,78.7378,26.8,51,0.0,948.1,8.2,40.0,35,18.9,11.0,4,5,7,0,2026-03-30T02:07:20.436247+05:30
Satna,Madhya Pradesh,24.6005,80.8322,25.1,51,0.0,969.4,8.2,41.4,61,41.1,18.6,4,5,7,0,2026-03-30T02:07:20.436254+05:30
Akola,Maharashtra,20.7002,77.0082,26.3,62,0.0,973.3,8.55,31.3,53,14.0,9.8,7,5,7,1,2026-03-30T02:07:20.436261+05:30
Amravati,Maharashtra,20.9374,77.7796,26.2,56,0.0,965.1,8.55,19.4,52,14.6,10.3,4,5,7,1,2026-03-30T02:07:20.436268+05:30
Latur,Maharashtra,18.4088,76.5604,25.2,47,0.0,937.3,8.4,36.7,51,35.2,21.8,4,5,7,0,2026-03-30T02:07:20.436275+05:30
Nanded,Maharashtra,19.1383,77.3091,26.6,57,0.0,966.0,7.2,52.9,56,32.4,21.9,4,5,7,1,2026-03-30T02:07:20.436312+05:30
Gulbarga,Karnataka,17.3297,76.8343,28.7,44,0.0,956.0,8.9,30.2,57,25.2,23.6,4,5,7,0,2026-03-30T02:07:20.436320+05:30
Bidar,Karnataka,17.9104,77.5199,27.4,54,0.0,932.9,8.1,29.5,68,32.6,29.2,4,5,7,1,2026-03-30T02:07:20.436327+05:30
Hospet,Karnataka,15.2689,76.3909,26.8,65,0.0,953.3,8.25,31.3,74,31.9,29.4,7,5,7,1,2026-03-30T02:07:20.436333+05:30
Tirupur,Tamil Nadu,11.1085,77.3411,26.4,82,0.0,973.8,9.5,19.1,112,38.5,35.4,7,5,7,1,2026-03-30T02:07:20.436341+05:30
Alappuzha,Kerala,9.4981,76.3388,28.2,85,0.0,1006.7,9.2,25.6,88,44.0,39.6,7,5,4,1,2026-03-30T02:07:20.436347+05:30
Munnar,Kerala,10.0889,77.0595,20.2,89,0.0,854.8,7.65,28.1,88,42.6,40.6,3,5,7,1,2026-03-30T02:07:20.436358+05:30
Silchar,Assam,24.8333,92.7789,21.4,89,0.0,1005.7,8.35,29.2,151,99.2,72.4,3,5,4,1,2026-03-30T02:07:20.436365+05:30
Dibrugarh,Assam,27.4728,94.912,20.0,91,0.0,997.3,6.75,11.2,70,24.4,21.9,3,5,7,1,2026-03-30T02:07:20.436372+05:30
