city,state,latitude,longitude,temp,humidity,rain,pressure,uv_index,wind_gusts,aqi,pm10,pm2_5,mosquito_risk,arthritis_risk,migraine_risk,frizz_risk,updated_at
Delhi,Delhi,28.6139,77.209,28.5,48,0.0,976.9,6.1,49.3,456,71.7,31.5,4,5,7,1,2026-04-29T01:49:01.854374+05:30
Mumbai,Maharashtra,19.076,72.8777,27.4,90,0.0,1006.1,8.05,40.3,83,30.2,19.3,7,5,4,1,2026-04-29T01:49:01.854420+05:30
Bangalore,Karnataka,12.9716,77.5946,26.8,43,0.0,909.9,9.55,47.9,93,20.1,18.4,4,5,7,0,2026-04-29T01:49:01.854436+05:30
Hyderabad,Telangana,17.385,78.4867,29.3,51,0.0,950.8,9.3,34.2,105,57.9,48.0,4,5,7,1,2026-04-29T01:49:01.854465+05:30
Chennai,Tamil Nadu,13.0827,80.2707,28.8,84,0.0,1004.6,8.75,55.8,49,14.0,10.1,7,5,4,1,2026-04-29T01:49:01.854477+05:30
Kolkata,West Bengal,22.5726,88.3639,27.9,90,0.0,1001.5,7.95,46.1,84,26.3,23.3,7,5,4,1,2026-04-29T01:49:01.854486+05:30
Pune,Maharashtra,18.5204,73.8567,26.2,51,0.0,945.6,8.65,42.8,82,34.6,23.8,4,5,7,0,2026-04-29T01:49:01.854499+05:30
Ahmedabad,Gujarat,23.0225,72.5714,30.6,28,0.0,998.0,8.2,46.4,49,25.3,10.7,0,5,7,0,2026-04-29T01:49:01.854508+05:30
Jaipur,Rajasthan,26.9124,75.7873,30.9,22,0.0,953.7,8.1,46.8,96,579.3,92.2,0,5,7,0,2026-04-29T01:49:01.854515+05:30
Lucknow,Uttar Pradesh,26.8467,80.9462,30.7,42,0.0,987.5,7.9,45.4,151,141.1,55.1,0,5,7,1,2026-04-29T01:49:01.854523+05:30
Kanpur,Uttar Pradesh,26.4499,80.3319,31.0,32,0.0,985.8,7.85,40.3,200,209.1,62.4,0,5,7,0,2026-04-29T01:49:01.854531+05:30
Chandigarh,Chandigarh,30.7333,76.7794,23.8,47,0.0,962.9,7.45,38.2,64,27.8,18.0,0,5,7,0,2026-04-29T01:49:01.854540+05:30
Srinagar,Jammu and Kashmir,34.0837,74.7973,10.6,97,0.0,838.7,5.6,34.2,90,60.5,56.8,3,10,3,0,2026-04-29T01:49:01.854548+05:30
Jammu,Jammu and Kashmir,32.7266,74.857,22.5,52,0.0,967.2,8.05,32.4,82,69.2,53.2,0,5,7,0,2026-04-29T01:49:01.854556+05:30
Amritsar,Punjab,31.634,74.8723,24.1,59,0.0,975.1,8.1,45.7,75,46.0,29.2,0,5,7,0,2026-04-29T01:49:01.854563+05:30
Ludhiana,Punjab,30.901,75.8573,24.5,58,0.0,972.7,7.7,35.6,83,67.1,41.0,0,5,7,0,2026-04-29T01:49:01.854570+05:30
Jalandhar,Punjab,31.326,75.5762,23.9,55,0.0,973.6,7.9,34.9,78,42.8,31.9,0,5,7,0,2026-04-29T01:49:01.854579+05:30
Dehradun,Uttarakhand,30.6284,78.0322,11.3,77,0.0,823.7,5.55,34.6,48,21.7,9.7,3,5,3,0,2026-04-29T01:49:01.854588+05:30
Shimla,Himachal Pradesh,31.1048,77.1734,8.0,82,0.0,776.5,7.65,33.5,49,18.9,8.1,3,10,7,0,2026-04-29T01:49:01.854596+05:30
Manali,Himachal Pradesh,32.2396,77.1887,9.7,77,0.0,812.3,7.7,35.3,98,5.8,4.1,3,5,7,0,2026-04-29T01:49:01.854603+05:30
Gurgaon,Haryana,28.4595,77.0266,27.4,48,0.0,975.3,7.35,55.1,1111,478.7,74.0,4,5,7,0,2026-04-29T01:49:01.854610+05:30
Noida,Uttar Pradesh,28.5355,77.391,26.4,54,0.0,978.3,6.15,47.2,1111,478.7,74.0,4,5,7,1,2026-04-29T01:49:01.854616+05:30
Ghaziabad,Uttar Pradesh,28.6692,77.4538,27.0,55,0.0,976.6,6.5,50.4,368,85.4,30.0,4,5,7,1,2026-04-29T01:49:01.854623+05:30
Faridabad,Haryana,28.4089,77.3178,28.1,46,0.0,977.6,5.5,49.3,1111,478.7,74.0,4,5,3,0,2026-04-29T01:49:01.854630+05:30
Meerut,Uttar Pradesh,28.9845,77.7064,25.9,58,0.0,975.3,6.4,49.0,368,85.4,30.0,4,5,7,1,2026-04-29T01:49:01.854636+05:30
Agra,Uttar Pradesh,27.1767,78.0081,28.9,38,0.0,981.1,6.85,38.2,749,1002.1,128.5,4,5,7,0,2026-04-29T01:49:01.854643+05:30
Varanasi,Uttar Pradesh,25.3176,82.9739,30.0,46,0.0,991.7,8.5,47.5,119,66.6,48.0,4,5,7,1,2026-04-29T01:49:01.854652+05:30
Prayagraj,Uttar Pradesh,25.4358,81.8463,30.0,41,0.0,989.7,8.35,44.3,122,66.1,46.7,4,5,7,0,2026-04-29T01:49:01.854659+05:30
Gorakhpur,Uttar Pradesh,26.7606,83.3732,27.2,71,0.0,993.0,8.3,41.4,108,64.3,44.8,7,5,7,1,2026-04-29T01:49:01.854666+05:30
Bareilly,Uttar Pradesh,28.367,79.4304,26.6,57,0.0,980.6,6.65,38.2,113,65.2,28.1,4,5,7,1,2026-04-29T01:49:01.854672+05:30
Aligarh,Uttar Pradesh,27.8974,78.088,27.1,44,0.0,979.3,7.05,41.8,717,407.9,57.4,4,5,7,0,2026-04-29T01:49:01.854679+05:30
Moradabad,Uttar Pradesh,28.8386,78.7733,25.4,65,0.0,977.6,4.65,41.8,152,77.8,34.6,7,5,3,1,2026-04-29T01:49:01.854685+05:30
Saharanpur,Uttar Pradesh,29.9637,77.546,23.4,73,0.0,969.8,7.05,33.8,76,66.1,35.6,3,5,7,1,2026-04-29T01:49:01.854691+05:30
Jhansi,Uttar Pradesh,25.4484,78.5685,29.5,26,0.0,972.1,8.05,52.2,62,52.7,23.9,4,5,7,0,2026-04-29T01:49:05.115703+05:30
Surat,Gujarat,21.1702,72.8311,27.6,88,0.0,1003.6,7.85,43.6,73,26.7,17.2,7,5,4,1,2026-04-29T01:49:05.115734+05:30
Vadodara,Gujarat,22.3072,73.1812,28.5,74,0.0,1000.7,8.15,46.1,62,19.2,14.2,7,5,4,1,2026-04-29T01:49:05.115744+05:30
Rajkot,Gujarat,22.3039,70.8022,26.9,66,0.0,990.7,7.9,51.5,48,31.1,12.4,7,5,7,1,2026-04-29T01:49:05.115752+05:30
Thane,Maharashtra,19.2183,72.9781,27.1,88,0.0,1005.5,8.05,40.3,83,30.2,19.3,7,5,4,1,2026-04-29T01:49:05.115759+05:30
Nagpur,Maharashtra,21.1458,79.0882,32.2,22,0.0,969.0,8.85,57.2,84,20.8,19.0,0,5,7,0,2026-04-29T01:49:05.115767+05:30
Nashik,Maharashtra,19.9975,73.7898,25.9,38,0.0,943.1,8.3,43.2,62,31.9,17.9,4,5,7,0,2026-04-29T01:49:05.115774+05:30
Aurangabad,Maharashtra,19.8762,75.3433,29.5,27,0.0,941.4,9.05,52.6,60,17.2,10.2,4,5,7,0,2026-04-29T01:49:05.115780+05:30
Solapur,Maharashtra,17.6599,75.9064,31.8,26,0.0,954.4,9.1,40.0,84,39.7,33.8,0,5,7,0,2026-04-29T01:49:05.115787+05:30
Kolhapur,Maharashtra,16.705,74.2433,24.0,92,0.0,946.0,9.0,46.8,73,31.8,20.8,3,5,7,1,2026-04-29T01:49:05.115794+05:30
Goa,Goa,15.2993,74.124,29.5,76,0.0,995.8,8.95,45.0,67,60.3,28.5,7,5,7,1,2026-04-29T01:49:05.115800+05:30
Jodhpur,Rajasthan,26.2389,73.0243,31.6,28,0.0,977.0,8.0,46.1,120,251.5,43.8,0,5,7,0,2026-04-29T01:49:05.115807+05:30
Udaipur,Rajasthan,24.5854,73.7125,28.5,30,0.0,942.1,8.75,46.8,42,14.3,6.9,4,5,7,0,2026-04-29T01:49:05.115814+05:30
Kota,Rajasthan,25.2138,75.8648,31.9,25,0.0,973.1,8.3,45.0,45,17.4,9.6,0,5,7,0,2026-04-29T01:49:05.115820+05:30
Bikaner,Rajasthan,28.0229,73.3119,29.6,28,0.0,975.6,8.15,43.6,64,89.2,26.3,4,5,7,0,2026-04-29T01:49:05.115826+05:30
Ajmer,Rajasthan,26.4499,74.6399,30.1,28,0.0,949.0,8.25,56.5,49,59.3,16.8,0,5,7,0,2026-04-29T01:49:05.115833+05:30
Gwalior,Madhya Pradesh,26.2183,78.1828,30.5,28,0.0,976.7,7.85,54.4,71,301.7,58.4,0,5,7,0,2026-04-29T01:49:05.115840+05:30
Indore,Madhya Pradesh,22.7196,75.8577,28.9,23,0.0,944.7,8.65,53.3,53,27.1,15.3,4,5,7,0,2026-04-29T01:49:05.115846+05:30
Bhopal,Madhya Pradesh,23.2599,77.4126,30.0,22,0.0,949.5,8.65,50.0,49,21.4,12.3,4,5,7,0,2026-04-29T01:49:05.115853+05:30
Jabalpur,Madhya Pradesh,23.1815,79.9864,28.6,21,0.0,957.0,8.75,41.4,57,17.6,15.7,4,5,7,0,2026-04-29T01:49:05.115859+05:30
Ujjain,Madhya Pradesh,23.1765,75.7885,29.1,23,0.0,950.2,8.55,51.1,54,26.3,16.0,4,5,7,0,2026-04-29T01:49:05.115866+05:30
Visakhapatnam,Andhra Pradesh,17.6868,83.2185,27.9,89,0.0,1000.9,8.2,53.6,65,20.0,15.2,7,5,4,1,2026-04-29T01:49:05.115872+05:30
Vijayawada,Andhra Pradesh,16.5062,80.648,28.9,82,0.0,999.9,8.4,36.4,62,15.0,11.7,7,5,7,1,2026-04-29T01:49:05.115879+05:30
Guntur,Andhra Pradesh,16.3067,80.4365,28.6,87,0.0,1001.1,8.4,39.2,65,14.7,11.6,7,5,4,1,2026-04-29T01:49:05.115885+05:30
Nellore,Andhra Pradesh,14.4426,79.9865,28.0,81,0.0,1003.2,9.25,40.3,55,11.6,9.9,7,5,4,1,2026-04-29T01:49:05.115892+05:30
Kurnool,Andhra Pradesh,15.8281,78.0373,30.1,45,0.0,973.4,8.85,44.3,108,47.5,41.0,0,5,7,1,2026-04-29T01:49:05.115899+05:30
Kakinada,Andhra Pradesh,16.9891,82.2475,28.6,83,0.0,1005.2,8.9,41.8,56,17.9,12.5,7,5,4,1,2026-04-29T01:49:05.115906+05:30
Tirupati,Andhra Pradesh,13.6288,79.4192,27.6,77,0.0,988.9,9.3,37.1,59,12.7,11.2,7,5,7,1,2026-04-29T01:49:05.115912+05:30
Warangal,Telangana,17.9689,79.5941,28.6,74,0.0,975.8,9.15,34.9,95,28.6,26.9,7,5,7,1,2026-04-29T01:49:05.115918+05:30
Nizamabad,Telangana,18.6725,78.0941,30.8,40,0.0,961.3,9.1,34.6,97,49.9,44.6,0,5,7,0,2026-04-29T01:49:05.115925+05:30
Mysore,Karnataka,12.2958,76.6396,23.5,92,0.0,926.2,9.35,42.5,96,33.2,30.9,3,5,7,1,2026-04-29T01:49:05.115932+05:30
Mangalore,Karnataka,12.9141,74.856,28.6,80,0.0,1004.4,9.1,37.8,71,47.1,21.7,7,5,4,1,2026-04-29T01:49:05.115938+05:30
Hubli-Dharwad,Karnataka,15.3647,75.124,24.1,95,0.0,938.7,9.1,62.6,68,31.4,14.9,3,5,7,1,2026-04-29T01:49:05.115945+05:30
Belgaum,Karnataka,15.8497,74.4977,23.1,97,0.0,924.0,9.25,49.7,70,35.7,18.9,3,5,7,1,2026-04-29T01:49:08.368948+05:30
Coimbatore,Tamil Nadu,11.0168,76.9558,26.1,83,0.0,959.4,9.15,52.2,70,21.1,19.2,7,5,7,1,2026-04-29T01:49:08.368978+05:30
Madurai,Tamil Nadu,9.9252,78.1198,29.0,71,0.0,990.9,7.65,47.5,62,17.5,16.9,7,5,7,1,2026-04-29T01:49:08.368988+05:30
Trichy,Tamil Nadu,10.7905,78.7047,28.6,72,0.0,997.4,8.45,45.7,47,10.9,10.1,7,5,7,1,2026-04-29T01:49:08.368996+05:30
Salem,Tamil Nadu,11.6643,78.146,28.8,61,0.0,975.0,8.85,42.5,59,11.1,10.7,7,5,7,1,2026-04-29T01:49:08.369004+05:30
Tirunelveli,Tamil Nadu,8.7139,77.7567,28.2,77,0.0,1000.9,5.9,42.5,61,16.9,15.7,7,5,0,1,2026-04-29T01:49:08.369012+05:30
Vellore,Tamil Nadu,12.9165,79.1325,27.4,80,0.0,981.9,9.2,38.5,65,18.8,17.6,7,5,7,1,2026-04-29T01:49:08.369019+05:30
Erode,Tamil Nadu,11.341,77.7172,28.8,73,0.0,986.7,8.7,37.1,72,18.2,17.1,7,5,7,1,2026-04-29T01:49:08.369027+05:30
Kochi,Kerala,9.9312,76.2673,26.9,91,0.0,1006.8,6.45,30.2,69,22.9,20.1,7,5,4,1,2026-04-29T01:49:08.369034+05:30
Thiruvananthapuram,Kerala,8.5241,76.9366,24.2,97,0.0,1006.6,5.7,26.3,53,11.6,8.7,3,5,0,1,2026-04-29T01:49:08.369042+05:30
Kozhikode,Kerala,11.2588,75.7804,26.8,96,0.0,1005.6,9.0,31.0,59,20.4,14.6,7,5,4,1,2026-04-29T01:49:08.369049+05:30
Thrissur,Kerala,10.5276,76.2144,26.6,95,0.0,1005.1,7.25,33.1,70,25.2,22.4,7,5,4,1,2026-04-29T01:49:08.369056+05:30
Kannur,Kerala,11.8745,75.3704,28.2,86,0.0,1004.7,8.85,37.1,72,26.2,17.4,7,5,4,1,2026-04-29T01:49:08.369063+05:30
Patna,Bihar,25.5941,85.1376,26.2,82,0.0,996.1,8.6,43.2,111,49.1,34.1,7,5,7,1,2026-04-29T01:49:08.369070+05:30
Gaya,Bihar,24.7914,85.0002,27.8,68,0.0,988.4,8.65,44.6,110,67.1,37.7,7,5,7,1,2026-04-29T01:49:08.369076+05:30
Muzaffarpur,Bihar,26.1209,85.3647,25.4,82,0.0,997.4,8.6,42.8,103,44.8,31.7,7,5,7,1,2026-04-29T01:49:08.369083+05:30
Bhagalpur,Bihar,25.2425,87.0117,23.8,95,0.0,997.9,8.6,37.8,92,28.1,17.6,3,5,7,1,2026-04-29T01:49:08.369089+05:30
Ranchi,Jharkhand,23.3441,85.3096,25.0,56,0.0,933.6,9.15,48.6,80,35.7,25.0,4,5,7,0,2026-04-29T01:49:08.369095+05:30
Jamshedpur,Jharkhand,22.8046,86.2029,26.2,86,0.0,986.4,9.0,46.8,117,57.7,46.2,7,5,7,1,2026-04-29T01:49:08.369101+05:30
Dhanbad,Jharkhand,23.7957,86.4304,25.9,93,0.0,975.6,8.9,55.1,153,98.3,82.7,7,5,7,1,2026-04-29T01:49:08.369108+05:30
Bokaro,Jharkhand,23.6693,86.1511,25.6,90,0.0,979.3,8.9,47.5,151,101.3,74.7,7,5,7,1,2026-04-29T01:49:08.369114+05:30
Bhubaneswar,Odisha,20.2961,85.8245,27.6,86,0.0,998.0,9.1,52.2,69,16.1,12.4,7,5,7,1,2026-04-29T01:49:08.369121+05:30
Cuttack,Odisha,20.4625,85.8828,27.9,86,0.0,999.7,9.1,48.2,69,16.1,12.4,7,5,7,1,2026-04-29T01:49:08.369127+05:30
Rourkela,Odisha,22.2604,84.8536,28.9,53,0.0,980.5,8.9,47.9,82,46.3,36.8,4,5,7,1,2026-04-29T01:49:08.369133+05:30
Raipur,Chhattisgarh,21.2514,81.6296,30.9,35,0.0,970.0,8.9,51.5,92,37.7,34.3,0,5,7,0,2026-04-29T01:49:08.369139+05:30
Bhilai,Chhattisgarh,21.1938,81.3509,29.5,39,0.0,970.9,8.9,52.6,92,37.1,33.9,4,5,7,0,2026-04-29T01:49:08.369145+05:30
Guwahati,Assam,26.1158,91.7086,21.0,98,0.1,1000.8,4.25,23.8,71,33.2,25.4,6,5,0,1,2026-04-29T01:49:08.369151+05:30
Agartala,Tripura,23.8315,91.2868,25.2,93,0.0,1003.7,5.45,40.0,71,26.3,19.8,7,5,0,1,2026-04-29T01:49:08.369158+05:30
Shillong,Meghalaya,25.5788,91.8933,16.2,97,0.0,853.9,2.7,34.9,33,12.9,9.0,3,10,3,0,2026-04-29T01:49:08.369165+05:30
Imphal,Manipur,24.817,93.9368,18.3,97,0.1,921.8,7.25,25.9,71,11.1,9.1,6,10,7,1,2026-04-29T01:49:08.369172+05:30
Aizawl,Mizoram,23.7271,92.7176,17.6,86,0.0,890.2,4.75,40.3,77,38.4,21.4,3,10,3,0,2026-04-29T01:49:08.369178+05:30
Kohima,Nagaland,25.6701,94.1077,15.2,97,0.1,852.3,5.7,22.0,40,5.5,3.6,6,10,3,0,2026-04-29T01:49:08.369185+05:30
Gangtok,Sikkim,27.3314,88.6138,13.6,95,0.3,834.1,1.8,31.3,74,15.6,11.7,6,10,3,0,2026-04-29T01:49:08.369191+05:30
Siliguri,West Bengal,26.7271,88.3953,20.9,98,0.1,991.6,4.5,36.4,93,48.9,33.2,6,5,3,1,2026-04-29T01:49:11.625865+05:30
Durgapur,West Bengal,23.5204,87.3119,26.2,97,0.0,990.5,8.75,31.0,146,82.2,68.7,7,5,7,1,2026-04-29T01:49:11.625896+05:30
Asansol,West Bengal,23.6739,86.9524,25.6,97,0.0,989.2,8.9,35.3,150,89.4,76.1,7,5,7,1,2026-04-29T01:49:11.625906+05:30
Pondicherry,Puducherry,11.9139,79.8145,29.2,80,0.0,1005.8,8.8,52.6,46,15.8,12.0,7,5,4,1,2026-04-29T01:49:11.625914+05:30
Port Blair,Andaman and Nicobar Islands,11.6234,92.7265,27.2,86,0.0,1006.6,8.55,27.7,50,12.7,9.7,7,5,4,1,2026-04-29T01:49:11.625922+05:30
Haridwar,Uttarakhand,29.9457,78.1642,21.2,61,0.0,967.9,7.25,54.7,72,48.9,25.5,3,5,7,0,2026-04-29T01:49:11.625931+05:30
Rishikesh,Uttarakhand,30.0869,78.2676,18.0,78,0.0,960.5,7.35,45.0,70,81.7,25.6,3,5,7,0,2026-04-29T01:49:11.625939+05:30
Nainital,Uttarakhand,29.3919,79.4542,12.8,64,0.0,800.3,7.25,46.1,79,88.0,27.1,3,5,7,0,2026-04-29T01:49:11.625946+05:30
Mussoorie,Uttarakhand,30.4599,78.0664,13.6,56,0.0,798.1,7.25,40.0,65,48.0,19.6,0,5,7,0,2026-04-29T01:49:11.625953+05:30
Dharamshala,Himachal Pradesh,32.219,76.3234,20.0,40,0.0,864.5,7.7,55.4,49,5.9,4.4,0,5,7,0,2026-04-29T01:49:11.625960+05:30
Dalhousie,Himachal Pradesh,32.5387,75.971,8.0,95,0.0,795.6,7.0,31.0,71,31.7,25.6,3,10,7,0,2026-04-29T01:49:11.625968+05:30
Patiala,Punjab,30.3398,76.3869,27.1,42,0.0,972.0,7.35,43.6,173,103.6,50.5,4,5,7,0,2026-04-29T01:49:11.625975+05:30
Bhatinda,Punjab,30.211,74.9455,27.9,41,0.0,976.9,8.05,59.8,90,151.3,39.1,4,5,7,0,2026-04-29T01:49:11.625982+05:30
Rohtak,Haryana,28.8955,76.6066,27.0,44,0.0,975.9,6.9,46.4,654,278.5,64.5,4,5,7,0,2026-04-29T01:49:11.625989+05:30
Panipat,Haryana,29.3909,76.9635,27.0,43,0.0,973.9,7.1,41.0,1215,348.3,70.8,4,5,7,0,2026-04-29T01:49:11.625996+05:30
Mathura,Uttar Pradesh,27.4924,77.6737,27.5,41,0.0,980.3,7.65,33.5,734,828.9,112.5,4,5,7,0,2026-04-29T01:49:11.626002+05:30
Vrindavan,Uttar Pradesh,27.5823,77.7027,27.0,43,0.0,980.7,7.55,40.3,734,828.9,112.5,4,5,7,0,2026-04-29T01:49:11.626009+05:30
Ayodhya,Uttar Pradesh,26.7922,82.1998,28.1,57,0.0,989.9,7.8,33.8,129,61.0,42.3,4,5,7,1,2026-04-29T01:49:11.626015+05:30
Ratlam,Madhya Pradesh,23.3315,75.0367,27.5,32,0.0,951.5,8.5,51.1,54,21.4,13.0,4,5,7,0,2026-04-29T01:49:11.626021+05:30
Sagar,Madhya Pradesh,23.8388,78.7378,28.2,21,0.0,945.7,8.4,48.6,55,13.9,9.7,4,5,7,0,2026-04-29T01:49:11.626028+05:30
Satna,Madhya Pradesh,24.6005,80.8322,28.8,32,0.0,965.4,8.35,50.8,60,72.2,28.9,4,5,7,0,2026-04-29T01:49:11.626034+05:30
Akola,Maharashtra,20.7002,77.0082,31.4,24,0.0,971.7,8.85,52.9,81,22.4,18.6,0,5,7,0,2026-04-29T01:49:11.626041+05:30
Amravati,Maharashtra,20.9374,77.7796,31.3,22,0.0,963.8,8.85,54.4,80,21.7,18.5,0,5,7,0,2026-04-29T01:49:11.626049+05:30
Latur,Maharashtra,18.4088,76.5604,30.0,29,0.0,937.9,9.1,30.6,82,37.3,30.0,4,5,7,0,2026-04-29T01:49:11.626055+05:30
Nanded,Maharashtra,19.1383,77.3091,29.5,34,0.0,965.6,9.0,33.8,80,34.2,29.0,4,5,7,0,2026-04-29T01:49:11.626062+05:30
Gulbarga,Karnataka,17.3297,76.8343,30.2,43,0.0,956.3,9.15,39.6,90,44.7,38.6,0,5,7,1,2026-04-29T01:49:11.626068+05:30
Bidar,Karnataka,17.9104,77.5199,28.4,45,0.0,932.9,9.15,29.9,95,45.8,40.9,4,5,7,0,2026-04-29T01:49:11.626074+05:30
Hospet,Karnataka,15.2689,76.3909,27.7,76,0.0,953.6,8.8,55.8,86,36.7,31.5,7,5,7,1,2026-04-29T01:49:11.626081+05:30
Tirupur,Tamil Nadu,11.1085,77.3411,26.9,84,0.0,972.7,8.9,52.6,84,26.1,24.1,7,5,7,1,2026-04-29T01:49:11.626087+05:30
Alappuzha,Kerala,9.4981,76.3388,25.6,96,0.0,1007.2,7.0,28.8,67,26.3,23.1,7,5,4,1,2026-04-29T01:49:11.626094+05:30
Munnar,Kerala,10.0889,77.0595,18.0,86,0.0,854.8,8.15,27.4,76,26.5,24.6,3,10,7,0,2026-04-29T01:49:11.626101+05:30
Silchar,Assam,24.8333,92.7789,21.5,97,0.1,1003.8,4.15,33.8,70,17.9,13.2,6,5,0,1,2026-04-29T01:49:11.626108+05:30
Dibrugarh,Assam,27.4728,94.912,21.7,93,0.0,995.4,5.5,26.6,102,49.9,43.2,3,5,3,1,2026-04-29T01:49:11.626114+05:30
