city,state,latitude,longitude,temp,humidity,rain,pressure,uv_index,wind_gusts,aqi,pm10,pm2_5,no2,co,o3,so2,mosquito_risk,arthritis_risk,migraine_risk,frizz_risk,updated_at
Delhi,Delhi,28.6139,77.209,32.4,67,0.0,975.0,7.0,20.9,138,96.9,82.0,66.5,1477.0,55.0,40.5,3,5,7,1,2026-07-04T23:33:54.204144+05:30
Mumbai,Maharashtra,19.076,72.8777,26.6,91,0.6,1001.5,0.3,46.1,29,11.9,6.2,3.7,168.0,51.0,2.4,10,5,0,1,2026-07-04T23:33:54.204182+05:30
Bangalore,Karnataka,12.9716,77.5946,21.7,85,0.0,910.6,5.8,66.2,22,3.3,3.0,10.1,227.0,37.0,3.1,3,5,3,1,2026-07-04T23:33:54.204197+05:30
Hyderabad,Telangana,17.385,78.4867,24.2,84,0.0,947.7,2.8,59.0,24,2.7,2.5,7.0,166.0,39.0,3.1,3,5,3,1,2026-07-04T23:33:54.204207+05:30
Chennai,Tamil Nadu,13.0827,80.2707,30.0,63,0.0,1004.1,2.15,41.4,38,15.0,11.8,18.3,349.0,42.0,10.3,7,5,0,1,2026-07-04T23:33:54.204215+05:30
Kolkata,West Bengal,22.5726,88.3639,27.8,88,0.0,994.5,7.5,50.4,42,11.1,10.2,9.0,223.0,58.0,7.6,7,5,7,1,2026-07-04T23:33:54.204223+05:30
Pune,Maharashtra,18.5204,73.8567,22.9,93,0.2,941.5,0.55,44.6,21,1.6,1.6,5.2,123.0,46.0,2.3,6,5,3,1,2026-07-04T23:33:54.204230+05:30
Ahmedabad,Gujarat,23.0225,72.5714,26.9,91,0.0,994.2,5.85,24.5,59,31.3,17.9,18.5,229.0,42.0,5.6,7,5,3,1,2026-07-04T23:33:54.204237+05:30
Jaipur,Rajasthan,26.9124,75.7873,29.0,77,0.0,952.2,7.4,21.6,111,56.2,38.2,29.1,439.0,58.0,10.1,7,5,7,1,2026-07-04T23:33:54.204243+05:30
Lucknow,Uttar Pradesh,26.8467,80.9462,30.9,78,0.0,985.1,7.7,25.2,92,40.6,39.9,27.2,406.0,54.0,11.8,3,5,7,1,2026-07-04T23:33:54.204254+05:30
Kanpur,Uttar Pradesh,26.4499,80.3319,31.3,75,0.0,983.3,8.05,24.5,91,33.3,32.4,23.7,291.0,62.0,8.4,3,5,7,1,2026-07-04T23:33:54.204261+05:30
Chandigarh,Chandigarh,30.7333,76.7794,28.2,90,0.0,960.9,7.1,23.0,97,86.1,85.0,64.2,1990.0,34.0,21.4,7,5,7,1,2026-07-04T23:33:54.204268+05:30
Srinagar,Jammu and Kashmir,34.0837,74.7973,22.0,70,0.0,835.7,9.0,22.7,79,54.9,48.7,45.4,1039.0,26.0,3.1,3,5,7,1,2026-07-04T23:33:54.204277+05:30
Jammu,Jammu and Kashmir,32.7266,74.857,30.4,66,0.0,964.2,8.6,29.9,108,68.2,64.5,70.4,594.0,29.0,9.1,3,5,7,1,2026-07-04T23:33:54.204283+05:30
Amritsar,Punjab,31.634,74.8723,31.0,74,0.0,971.9,8.45,29.2,116,51.3,46.4,20.3,508.0,93.0,7.0,3,5,7,1,2026-07-04T23:33:54.204289+05:30
Ludhiana,Punjab,30.901,75.8573,29.7,87,0.0,970.1,7.95,36.4,137,99.4,95.2,59.5,1202.0,43.0,14.3,7,5,7,1,2026-07-04T23:33:54.204295+05:30
Jalandhar,Punjab,31.326,75.5762,30.1,83,0.0,971.0,8.2,34.2,138,94.1,87.3,57.1,760.0,48.0,10.3,3,5,7,1,2026-07-04T23:33:54.204301+05:30
Dehradun,Uttarakhand,30.6284,78.0322,19.4,100,0.0,826.6,7.15,26.3,45,18.8,18.7,33.8,310.0,45.0,1.6,3,10,7,1,2026-07-04T23:33:54.204307+05:30
Shimla,Himachal Pradesh,31.1048,77.1734,16.0,96,0.0,780.0,7.4,28.1,47,28.4,28.2,29.7,504.0,44.0,0.0,3,10,7,0,2026-07-04T23:33:54.204313+05:30
Manali,Himachal Pradesh,32.2396,77.1887,20.1,89,0.0,815.8,9.45,33.5,52,9.0,9.0,104.8,345.0,17.0,0.0,3,5,7,1,2026-07-04T23:33:54.204324+05:30
Gurgaon,Haryana,28.4595,77.0266,30.6,79,0.0,973.4,6.4,21.2,145,75.7,55.1,44.4,1418.0,67.0,27.3,3,5,7,1,2026-07-04T23:33:54.204330+05:30
Noida,Uttar Pradesh,28.5355,77.391,30.2,85,0.0,976.3,6.8,22.0,145,75.7,55.1,44.4,2244.0,67.0,27.3,3,5,7,1,2026-07-04T23:33:54.204337+05:30
Ghaziabad,Uttar Pradesh,28.6692,77.4538,30.4,82,0.0,974.6,7.55,22.0,121,75.4,75.4,53.3,975.0,35.0,15.5,3,5,7,1,2026-07-04T23:33:54.204343+05:30
Faridabad,Haryana,28.4089,77.3178,32.0,70,0.0,975.8,6.75,26.3,145,75.7,55.1,44.4,888.0,67.0,27.3,3,5,7,1,2026-07-04T23:33:54.204349+05:30
Meerut,Uttar Pradesh,28.9845,77.7064,30.2,87,0.0,973.5,7.0,26.6,121,75.4,75.4,53.3,960.0,35.0,15.5,3,5,7,1,2026-07-04T23:33:54.204355+05:30
Agra,Uttar Pradesh,27.1767,78.0081,30.6,80,0.0,979.3,6.65,22.3,106,41.9,39.0,21.3,478.0,83.0,7.6,3,5,7,1,2026-07-04T23:33:54.204361+05:30
Varanasi,Uttar Pradesh,25.3176,82.9739,30.5,79,0.0,988.6,8.7,31.0,81,34.9,34.8,21.6,454.0,67.0,11.8,3,5,7,1,2026-07-04T23:33:54.204367+05:30
Prayagraj,Uttar Pradesh,25.4358,81.8463,31.2,74,0.0,987.1,8.15,30.2,87,32.0,31.8,19.9,255.0,74.0,10.1,3,5,7,1,2026-07-04T23:33:54.204374+05:30
Gorakhpur,Uttar Pradesh,26.7606,83.3732,31.2,72,0.0,988.9,8.55,28.8,90,34.5,34.3,18.5,425.0,80.0,9.3,3,5,7,1,2026-07-04T23:33:54.204380+05:30
Bareilly,Uttar Pradesh,28.367,79.4304,30.7,78,0.0,979.1,7.9,25.2,103,84.8,83.1,69.2,530.0,24.0,18.3,3,5,7,1,2026-07-04T23:33:54.204388+05:30
Aligarh,Uttar Pradesh,27.8974,78.088,30.5,82,0.0,977.4,7.8,25.2,118,58.9,54.7,31.4,654.0,82.0,15.2,3,5,7,1,2026-07-04T23:33:54.204394+05:30
Moradabad,Uttar Pradesh,28.8386,78.7733,30.5,84,0.0,976.0,7.7,22.7,118,78.5,78.2,52.9,1083.0,39.0,15.2,3,5,7,1,2026-07-04T23:33:54.204421+05:30
Saharanpur,Uttar Pradesh,29.9637,77.546,29.3,88,0.0,968.1,6.7,27.4,113,112.9,112.0,77.6,969.0,29.0,29.7,7,5,7,1,2026-07-04T23:33:54.204428+05:30
Jhansi,Uttar Pradesh,25.4484,78.5685,26.6,95,0.3,970.6,6.75,30.2,73,24.6,24.4,15.1,276.0,72.0,5.3,10,5,7,1,2026-07-04T23:33:57.488182+05:30
Surat,Gujarat,21.1702,72.8311,26.3,97,0.0,998.8,0.9,28.8,68,18.5,15.7,26.8,410.0,38.0,36.2,7,5,3,1,2026-07-04T23:33:57.488210+05:30
Vadodara,Gujarat,22.3072,73.1812,26.4,95,0.1,996.4,1.05,27.7,53,18.0,12.7,18.6,254.0,47.0,7.0,10,5,3,1,2026-07-04T23:33:57.488220+05:30
Rajkot,Gujarat,22.3039,70.8022,28.4,83,0.0,986.1,6.55,33.8,60,37.1,18.3,7.7,121.0,41.0,7.0,7,5,7,1,2026-07-04T23:33:57.488228+05:30
Thane,Maharashtra,19.2183,72.9781,25.6,96,0.3,1000.8,0.4,31.0,29,11.9,6.2,3.7,175.0,51.0,2.4,10,5,0,1,2026-07-04T23:33:57.488235+05:30
Nagpur,Maharashtra,21.1458,79.0882,25.2,96,0.0,965.6,8.3,29.5,47,10.8,10.4,16.7,217.0,50.0,13.1,7,5,7,1,2026-07-04T23:33:57.488242+05:30
Nashik,Maharashtra,19.9975,73.7898,22.9,97,0.1,938.1,1.15,40.7,22,4.3,3.2,7.6,195.0,48.0,1.3,6,5,3,1,2026-07-04T23:33:57.488249+05:30
Aurangabad,Maharashtra,19.8762,75.3433,23.1,98,0.2,937.4,1.7,40.0,28,8.0,7.9,16.8,212.0,32.0,8.2,6,5,3,1,2026-07-04T23:33:57.488256+05:30
Solapur,Maharashtra,17.6599,75.9064,23.4,92,0.1,952.3,1.05,45.0,21,2.2,2.1,4.7,127.0,43.0,1.5,6,5,3,1,2026-07-04T23:33:57.488263+05:30
Kolhapur,Maharashtra,16.705,74.2433,21.9,94,0.2,943.9,1.3,51.5,22,3.2,2.4,3.2,117.0,48.0,1.2,6,5,3,1,2026-07-04T23:33:57.488270+05:30
Goa,Goa,15.2993,74.124,24.2,99,0.3,997.3,3.8,37.8,47,21.1,10.2,1.3,155.0,53.0,0.5,6,5,3,1,2026-07-04T23:33:57.488277+05:30
Jodhpur,Rajasthan,26.2389,73.0243,30.0,69,0.0,973.9,7.85,27.4,151,184.4,49.9,9.5,211.0,59.0,5.5,7,5,7,1,2026-07-04T23:33:57.488283+05:30
Udaipur,Rajasthan,24.5854,73.7125,25.5,95,0.0,938.6,4.0,34.9,66,54.8,27.2,14.6,260.0,39.0,3.8,7,5,3,1,2026-07-04T23:33:57.488290+05:30
Kota,Rajasthan,25.2138,75.8648,27.4,92,0.0,970.5,7.2,30.6,87,74.3,52.4,35.9,302.0,35.0,9.0,7,5,7,1,2026-07-04T23:33:57.488296+05:30
Bikaner,Rajasthan,28.0229,73.3119,33.7,52,0.0,972.0,7.05,31.3,109,48.1,30.6,6.1,268.0,85.0,4.3,0,5,7,1,2026-07-04T23:33:57.488303+05:30
Ajmer,Rajasthan,26.4499,74.6399,27.6,83,0.0,947.0,7.25,33.5,120,78.2,38.8,13.2,260.0,60.0,4.6,7,5,7,1,2026-07-04T23:33:57.488310+05:30
Gwalior,Madhya Pradesh,26.2183,78.1828,26.3,95,0.2,975.8,7.65,35.6,74,23.9,23.3,13.4,237.0,73.0,4.0,10,5,7,1,2026-07-04T23:33:57.488317+05:30
Indore,Madhya Pradesh,22.7196,75.8577,23.8,97,0.3,940.6,7.45,31.3,50,32.4,24.3,16.7,372.0,48.0,5.8,6,5,7,1,2026-07-04T23:33:57.488323+05:30
Bhopal,Madhya Pradesh,23.2599,77.4126,25.2,96,0.2,946.0,8.5,29.9,54,15.0,14.5,12.1,409.0,63.0,3.0,10,5,7,1,2026-07-04T23:33:57.488330+05:30
Jabalpur,Madhya Pradesh,23.1815,79.9864,24.7,99,0.1,953.1,8.8,28.1,65,17.5,17.3,7.4,278.0,84.0,3.6,6,5,7,1,2026-07-04T23:33:57.488337+05:30
Ujjain,Madhya Pradesh,23.1765,75.7885,24.9,96,0.0,946.2,7.4,30.6,51,35.2,22.4,8.8,353.0,60.0,3.6,3,5,7,1,2026-07-04T23:33:57.488343+05:30
Visakhapatnam,Andhra Pradesh,17.6868,83.2185,25.7,92,0.1,994.1,2.7,61.9,37,7.7,6.5,11.5,203.0,44.0,16.5,10,5,3,1,2026-07-04T23:33:57.488350+05:30
Vijayawada,Andhra Pradesh,16.5062,80.648,29.5,64,0.0,996.9,2.0,57.6,32,7.7,6.0,6.6,146.0,46.0,4.4,7,5,3,1,2026-07-04T23:33:57.488357+05:30
Guntur,Andhra Pradesh,16.3067,80.4365,29.7,62,0.0,998.5,2.05,49.7,28,6.3,5.0,7.0,130.0,44.0,4.4,7,5,3,1,2026-07-04T23:33:57.488364+05:30
Nellore,Andhra Pradesh,14.4426,79.9865,31.2,50,0.0,1002.0,1.65,57.6,27,6.8,4.1,4.2,107.0,48.0,3.1,0,5,0,1,2026-07-04T23:33:57.488371+05:30
Kurnool,Andhra Pradesh,15.8281,78.0373,25.2,82,0.1,973.4,1.15,56.2,24,2.5,2.2,6.6,119.0,38.0,2.7,10,5,3,1,2026-07-04T23:33:57.488379+05:30
Kakinada,Andhra Pradesh,16.9891,82.2475,27.7,76,0.0,1000.4,1.75,79.9,33,10.3,7.5,6.6,174.0,52.0,4.8,7,5,0,1,2026-07-04T23:33:57.488385+05:30
Tirupati,Andhra Pradesh,13.6288,79.4192,29.7,54,0.0,988.3,2.6,50.4,26,6.8,4.9,7.0,134.0,44.0,2.1,4,5,3,1,2026-07-04T23:33:57.488392+05:30
Warangal,Telangana,17.9689,79.5941,26.7,75,0.0,972.4,2.25,53.6,25,4.0,3.8,6.8,136.0,41.0,2.6,7,5,3,1,2026-07-04T23:33:57.488398+05:30
Nizamabad,Telangana,18.6725,78.0941,25.0,85,0.0,958.8,1.9,52.9,25,3.8,3.7,7.1,147.0,39.0,3.1,7,5,3,1,2026-07-04T23:33:57.488426+05:30
Mysore,Karnataka,12.2958,76.6396,22.0,90,0.0,928.0,8.05,68.0,22,2.4,2.2,7.2,118.0,39.0,1.8,3,5,7,1,2026-07-04T23:33:57.488434+05:30
Mangalore,Karnataka,12.9141,74.856,24.3,94,0.2,1007.7,8.15,63.0,42,18.8,13.1,11.8,126.0,28.0,3.1,6,5,4,1,2026-07-04T23:33:57.488440+05:30
Hubli-Dharwad,Karnataka,15.3647,75.124,21.7,97,0.1,938.3,1.9,60.1,21,1.9,1.4,3.1,101.0,44.0,0.7,6,5,3,1,2026-07-04T23:33:57.488447+05:30
Belgaum,Karnataka,15.8497,74.4977,21.3,97,0.2,922.6,1.95,58.3,21,2.0,1.4,2.9,112.0,47.0,1.0,6,5,3,1,2026-07-04T23:34:00.737104+05:30
Coimbatore,Tamil Nadu,11.0168,76.9558,24.0,83,0.0,961.7,5.85,56.9,22,4.3,3.2,5.6,131.0,40.0,2.0,3,5,3,1,2026-07-04T23:34:00.737132+05:30
Madurai,Tamil Nadu,9.9252,78.1198,28.7,60,0.0,992.9,2.15,47.5,29,10.3,7.5,12.4,116.0,37.0,3.7,4,5,3,1,2026-07-04T23:34:00.737142+05:30
Trichy,Tamil Nadu,10.7905,78.7047,29.5,56,0.0,999.1,6.05,60.1,25,11.4,6.1,4.7,111.0,43.0,1.8,4,5,7,1,2026-07-04T23:34:00.737150+05:30
Salem,Tamil Nadu,11.6643,78.146,25.6,77,0.0,977.0,7.15,38.2,34,11.7,10.1,17.8,213.0,28.0,5.4,7,5,7,1,2026-07-04T23:34:00.737157+05:30
Tirunelveli,Tamil Nadu,8.7139,77.7567,29.0,61,0.0,1004.0,3.25,56.5,21,9.0,6.3,8.1,119.0,33.0,1.8,7,5,0,1,2026-07-04T23:34:00.737163+05:30
Vellore,Tamil Nadu,12.9165,79.1325,29.1,55,0.0,982.4,2.35,56.2,27,5.1,3.9,6.5,129.0,43.0,2.5,4,5,3,1,2026-07-04T23:34:00.737170+05:30
Erode,Tamil Nadu,11.341,77.7172,26.0,79,0.0,988.8,6.3,51.1,24,9.4,7.7,12.9,142.0,33.0,3.0,7,5,7,1,2026-07-04T23:34:00.737177+05:30
Kochi,Kerala,9.9312,76.2673,26.7,90,0.0,1010.6,6.9,44.6,41,25.4,16.7,19.4,105.0,19.0,5.0,7,0,4,1,2026-07-04T23:34:00.737183+05:30
Thiruvananthapuram,Kerala,8.5241,76.9366,24.5,96,0.1,1010.6,7.35,52.6,32,25.7,12.1,2.8,96.0,48.0,1.0,6,0,4,1,2026-07-04T23:34:00.737190+05:30
Kozhikode,Kerala,11.2588,75.7804,24.2,98,0.4,1009.9,5.85,37.1,31,18.3,8.9,1.2,168.0,53.0,0.7,6,0,0,1,2026-07-04T23:34:00.737196+05:30
Thrissur,Kerala,10.5276,76.2144,24.4,99,0.1,1009.1,7.8,43.6,39,18.7,12.5,11.1,138.0,30.0,3.5,6,0,4,1,2026-07-04T23:34:00.737203+05:30
Kannur,Kerala,11.8745,75.3704,24.2,96,0.0,1008.8,8.5,47.5,36,12.4,7.9,12.1,185.0,25.0,2.4,3,0,4,1,2026-07-04T23:34:00.737210+05:30
Patna,Bihar,25.5941,85.1376,30.8,77,0.0,991.5,8.5,37.8,69,22.5,22.3,15.2,390.0,86.0,10.6,3,5,7,1,2026-07-04T23:34:00.737216+05:30
Gaya,Bihar,24.7914,85.0002,30.2,77,0.0,984.6,8.5,38.5,60,22.5,22.1,14.7,261.0,65.0,9.3,3,5,7,1,2026-07-04T23:34:00.737223+05:30
Muzaffarpur,Bihar,26.1209,85.3647,30.5,79,0.0,991.8,8.1,31.0,77,26.4,26.1,17.6,415.0,78.0,8.9,3,5,7,1,2026-07-04T23:34:00.737229+05:30
Bhagalpur,Bihar,25.2425,87.0117,29.7,81,0.0,992.2,7.6,38.9,61,16.1,15.8,11.9,214.0,74.0,5.6,7,5,7,1,2026-07-04T23:34:00.737235+05:30
Ranchi,Jharkhand,23.3441,85.3096,24.0,95,0.1,928.7,7.15,52.9,64,17.0,16.9,10.4,230.0,71.0,15.6,6,5,7,1,2026-07-04T23:34:00.737242+05:30
Jamshedpur,Jharkhand,22.8046,86.2029,26.3,92,0.0,980.0,7.45,48.6,58,18.5,17.7,20.9,465.0,54.0,26.2,7,5,7,1,2026-07-04T23:34:00.737248+05:30
Dhanbad,Jharkhand,23.7957,86.4304,27.3,86,0.0,970.5,6.2,53.6,78,31.4,31.0,34.7,196.0,45.0,78.4,7,5,7,1,2026-07-04T23:34:00.737255+05:30
Bokaro,Jharkhand,23.6693,86.1511,26.8,88,0.0,974.2,5.1,51.1,80,34.2,33.8,37.1,223.0,44.0,87.4,7,5,3,1,2026-07-04T23:34:00.737261+05:30
Bhubaneswar,Odisha,20.2961,85.8245,25.8,98,0.1,990.0,2.95,31.0,57,14.6,14.1,15.5,231.0,46.0,5.3,10,5,3,1,2026-07-04T23:34:00.737267+05:30
Cuttack,Odisha,20.4625,85.8828,26.2,96,0.1,991.7,2.3,43.6,57,14.6,14.1,15.5,240.0,46.0,5.3,10,5,3,1,2026-07-04T23:34:00.737274+05:30
Rourkela,Odisha,22.2604,84.8536,26.6,91,0.0,974.2,6.7,51.8,58,14.4,14.3,10.4,282.0,77.0,10.5,7,5,7,1,2026-07-04T23:34:00.737280+05:30
Raipur,Chhattisgarh,21.2514,81.6296,25.0,98,0.1,965.8,7.3,29.5,69,19.3,19.2,27.0,275.0,62.0,39.3,10,5,7,1,2026-07-04T23:34:00.737286+05:30
Bhilai,Chhattisgarh,21.1938,81.3509,25.2,97,0.2,966.5,6.8,33.1,65,15.9,15.8,19.7,577.0,70.0,30.4,10,5,7,1,2026-07-04T23:34:00.737292+05:30
Guwahati,Assam,26.1158,91.7086,28.2,93,0.0,993.4,8.7,33.1,36,12.9,12.7,11.5,278.0,34.0,1.6,7,5,7,1,2026-07-04T23:34:00.737298+05:30
Agartala,Tripura,23.8315,91.2868,27.8,84,0.0,998.2,8.55,29.9,42,8.2,7.9,8.2,131.0,39.0,1.8,7,5,7,1,2026-07-04T23:34:00.737305+05:30
Shillong,Meghalaya,25.5788,91.8933,20.5,93,0.0,852.6,8.3,34.9,28,2.5,2.4,6.9,188.0,46.0,1.1,3,5,7,1,2026-07-04T23:34:00.737311+05:30
Imphal,Manipur,24.817,93.9368,24.1,88,0.0,918.9,7.75,31.3,24,7.5,7.4,8.3,375.0,35.0,1.5,3,5,7,1,2026-07-04T23:34:00.737317+05:30
Aizawl,Mizoram,23.7271,92.7176,21.4,99,0.1,886.6,8.7,26.3,21,3.3,3.2,6.8,271.0,26.0,0.5,6,5,7,1,2026-07-04T23:34:00.737323+05:30
Kohima,Nagaland,25.6701,94.1077,20.7,86,0.0,850.6,9.1,29.2,22,8.2,8.1,13.2,163.0,20.0,0.9,3,5,7,1,2026-07-04T23:34:00.737329+05:30
Gangtok,Sikkim,27.3314,88.6138,19.7,96,0.1,834.8,8.5,36.0,44,12.9,12.5,10.6,293.0,83.0,1.6,6,10,7,1,2026-07-04T23:34:00.737336+05:30
Siliguri,West Bengal,26.7271,88.3953,27.1,92,0.1,984.8,8.7,24.1,68,27.3,26.7,19.2,344.0,73.0,4.7,10,5,7,1,2026-07-04T23:34:04.083487+05:30
Durgapur,West Bengal,23.5204,87.3119,28.5,79,0.0,985.0,6.95,52.6,64,23.1,22.3,21.2,254.0,55.0,20.3,7,5,7,1,2026-07-04T23:34:04.083522+05:30
Asansol,West Bengal,23.6739,86.9524,27.4,89,0.0,983.8,5.6,52.9,62,19.6,19.1,21.6,315.0,55.0,19.9,7,5,3,1,2026-07-04T23:34:04.083533+05:30
Pondicherry,Puducherry,11.9139,79.8145,29.3,65,0.0,1006.4,5.25,41.0,42,11.7,9.3,14.7,248.0,43.0,10.8,7,5,0,1,2026-07-04T23:34:04.083541+05:30
Port Blair,Andaman and Nicobar Islands,11.6234,92.7265,26.1,94,0.1,1007.1,5.1,57.2,43,10.7,6.2,0.3,93.0,60.0,0.4,10,5,0,1,2026-07-04T23:34:04.083550+05:30
Haridwar,Uttarakhand,29.9457,78.1642,29.3,86,0.0,966.7,6.55,20.5,107,65.0,65.0,36.4,526.0,70.0,18.8,7,5,7,1,2026-07-04T23:34:04.083558+05:30
Rishikesh,Uttarakhand,30.0869,78.2676,28.4,84,0.0,959.7,6.7,24.8,97,36.0,35.9,14.0,457.0,108.0,10.0,7,5,7,1,2026-07-04T23:34:04.083566+05:30
Nainital,Uttarakhand,29.3919,79.4542,17.3,100,0.0,802.3,6.65,27.0,66,23.2,22.8,18.1,429.0,59.0,3.6,3,10,7,1,2026-07-04T23:34:04.083573+05:30
Mussoorie,Uttarakhand,30.4599,78.0664,17.8,100,0.0,799.6,6.75,33.5,83,44.5,44.4,38.2,443.0,74.0,13.8,3,10,7,1,2026-07-04T23:34:04.083581+05:30
Dharamshala,Himachal Pradesh,32.219,76.3234,23.6,89,0.0,864.6,8.45,29.2,50,15.8,15.7,19.8,417.0,28.0,0.2,3,5,7,1,2026-07-04T23:34:04.083588+05:30
Dalhousie,Himachal Pradesh,32.5387,75.971,17.6,98,0.0,800.1,8.65,33.1,118,50.2,48.4,42.5,662.0,54.0,2.7,3,10,7,1,2026-07-04T23:34:04.083596+05:30
Patiala,Punjab,30.3398,76.3869,29.3,88,0.0,969.8,7.25,28.4,123,118.7,118.0,80.0,1018.0,20.0,18.1,7,5,7,1,2026-07-04T23:34:04.083603+05:30
Bhatinda,Punjab,30.211,74.9455,31.4,70,0.0,974.8,7.95,26.3,128,63.6,51.6,30.7,554.0,65.0,14.1,3,5,7,1,2026-07-04T23:34:04.083609+05:30
Rohtak,Haryana,28.8955,76.6066,30.7,78,0.0,973.6,6.25,19.4,159,282.2,102.0,51.5,712.0,61.0,35.1,3,5,7,1,2026-07-04T23:34:04.083616+05:30
Panipat,Haryana,29.3909,76.9635,30.0,85,0.0,972.4,6.5,22.3,233,429.3,144.8,70.3,1140.0,36.0,30.3,7,5,7,1,2026-07-04T23:34:04.083623+05:30
Mathura,Uttar Pradesh,27.4924,77.6737,31.0,79,0.0,978.6,6.7,22.0,113,45.5,39.0,22.2,648.0,98.0,5.8,3,5,7,1,2026-07-04T23:34:04.083630+05:30
Vrindavan,Uttar Pradesh,27.5823,77.7027,31.1,77,0.0,979.0,7.05,22.7,113,45.5,39.0,22.2,577.0,98.0,5.8,3,5,7,1,2026-07-04T23:34:04.083637+05:30
Ayodhya,Uttar Pradesh,26.7922,82.1998,31.3,73,0.0,986.9,8.05,26.3,95,35.9,35.5,18.9,465.0,76.0,8.4,3,5,7,1,2026-07-04T23:34:04.083644+05:30
Ratlam,Madhya Pradesh,23.3315,75.0367,24.3,98,0.1,947.1,6.1,36.4,47,34.9,21.1,7.8,188.0,58.0,3.0,6,5,7,1,2026-07-04T23:34:04.083651+05:30
Sagar,Madhya Pradesh,23.8388,78.7378,24.3,99,0.0,943.2,8.0,24.8,58,18.3,18.1,7.6,253.0,86.0,3.0,3,5,7,1,2026-07-04T23:34:04.083658+05:30
Satna,Madhya Pradesh,24.6005,80.8322,27.3,89,0.0,963.0,7.15,31.3,75,20.5,20.1,15.3,294.0,71.0,4.7,7,5,7,1,2026-07-04T23:34:04.083666+05:30
Akola,Maharashtra,20.7002,77.0082,24.2,96,0.0,968.4,6.95,40.0,33,10.2,8.6,12.1,202.0,56.0,8.7,3,5,7,1,2026-07-04T23:34:04.083673+05:30
Amravati,Maharashtra,20.9374,77.7796,24.9,92,0.1,960.0,7.25,47.2,34,9.5,7.9,11.8,177.0,58.0,9.7,6,5,7,1,2026-07-04T23:34:04.083681+05:30
Latur,Maharashtra,18.4088,76.5604,23.2,92,0.0,934.0,2.4,47.5,22,2.3,2.2,4.6,131.0,43.0,1.5,3,5,3,1,2026-07-04T23:34:04.083688+05:30
Nanded,Maharashtra,19.1383,77.3091,25.5,84,0.0,962.4,1.75,46.1,26,3.7,3.6,7.6,147.0,39.0,3.2,7,5,3,1,2026-07-04T23:34:04.083695+05:30
Gulbarga,Karnataka,17.3297,76.8343,23.7,88,0.1,954.2,1.5,60.5,22,2.4,2.2,6.5,135.0,39.0,1.9,6,5,3,1,2026-07-04T23:34:04.083702+05:30
Bidar,Karnataka,17.9104,77.5199,23.1,90,0.0,930.2,1.35,55.1,22,2.3,2.2,6.5,128.0,39.0,2.0,3,5,3,1,2026-07-04T23:34:04.083710+05:30
Hospet,Karnataka,15.2689,76.3909,22.9,94,0.2,953.2,1.7,68.8,23,2.4,1.8,3.9,112.0,43.0,1.1,6,5,3,1,2026-07-04T23:34:04.083717+05:30
Tirupur,Tamil Nadu,11.1085,77.3411,24.9,84,0.0,975.0,7.75,59.4,26,10.1,8.8,15.5,126.0,29.0,3.8,3,5,7,1,2026-07-04T23:34:04.083723+05:30
Alappuzha,Kerala,9.4981,76.3388,27.2,85,0.0,1010.8,6.75,44.6,38,22.9,12.4,8.3,85.0,38.0,2.2,7,0,4,1,2026-07-04T23:34:04.083729+05:30
Munnar,Kerala,10.0889,77.0595,16.7,100,0.2,857.4,3.75,59.8,20,5.7,3.8,6.7,100.0,31.0,1.7,6,10,3,1,2026-07-04T23:34:04.083736+05:30
Silchar,Assam,24.8333,92.7789,27.0,96,0.0,998.3,8.65,29.9,48,16.7,16.6,9.8,257.0,36.0,3.9,7,5,7,1,2026-07-04T23:34:04.083743+05:30
Dibrugarh,Assam,27.4728,94.912,29.2,76,0.0,988.3,8.9,28.4,56,37.0,36.4,32.6,177.0,11.0,2.9,7,5,7,1,2026-07-04T23:34:04.083749+05:30
