city,state,latitude,longitude,temp,humidity,rain,pressure,uv_index,wind_gusts,aqi,pm10,pm2_5,mosquito_risk,arthritis_risk,migraine_risk,frizz_risk,updated_at
Delhi,Delhi,28.6139,77.209,21.9,70,0.0,983.3,5.9,18.0,460,341.8,89.9,3,5,3,1,2026-03-06T03:09:32.575624+05:30
Mumbai,Maharashtra,19.076,72.8777,27.4,71,0.0,1008.5,7.45,24.8,98,28.0,26.4,7,0,4,1,2026-03-06T03:09:32.575687+05:30
Bangalore,Karnataka,12.9716,77.5946,19.9,59,0.0,909.9,9.15,24.5,87,39.2,35.6,0,5,7,0,2026-03-06T03:09:32.575704+05:30
Hyderabad,Telangana,17.385,78.4867,23.3,50,0.0,952.5,8.45,25.6,93,36.3,34.8,0,5,7,0,2026-03-06T03:09:32.575715+05:30
Chennai,Tamil Nadu,13.0827,80.2707,24.3,93,0.0,1006.6,8.9,31.3,89,24.8,21.3,3,5,4,1,2026-03-06T03:09:32.575724+05:30
Kolkata,West Bengal,22.5726,88.3639,21.7,95,0.0,1006.8,7.8,14.8,169,115.9,102.2,3,5,4,1,2026-03-06T03:09:32.575733+05:30
Pune,Maharashtra,18.5204,73.8567,21.7,59,0.0,948.4,8.0,28.8,81,42.7,41.0,0,5,7,0,2026-03-06T03:09:32.575745+05:30
Ahmedabad,Gujarat,23.0225,72.5714,21.2,72,0.0,1004.0,7.25,21.2,73,38.5,37.3,3,5,4,0,2026-03-06T03:09:32.575753+05:30
Jaipur,Rajasthan,26.9124,75.7873,23.9,38,0.0,960.5,6.7,20.9,100,113.4,25.6,0,5,7,0,2026-03-06T03:09:32.575760+05:30
Lucknow,Uttar Pradesh,26.8467,80.9462,21.4,81,0.0,994.3,6.4,22.7,170,152.7,102.4,3,5,7,1,2026-03-06T03:09:32.575768+05:30
Kanpur,Uttar Pradesh,26.4499,80.3319,20.9,85,0.0,992.4,6.4,14.8,178,252.4,100.4,3,5,7,1,2026-03-06T03:09:32.575775+05:30
Chandigarh,Chandigarh,30.7333,76.7794,20.3,76,0.0,968.6,5.8,21.6,98,42.3,36.3,3,5,3,0,2026-03-06T03:09:32.575782+05:30
Srinagar,Jammu and Kashmir,34.0837,74.7973,6.6,74,0.0,838.6,6.5,16.6,145,79.2,61.0,3,5,7,0,2026-03-06T03:09:32.575789+05:30
Jammu,Jammu and Kashmir,32.7266,74.857,17.9,89,0.0,972.9,5.9,19.8,112,51.0,43.8,3,10,3,0,2026-03-06T03:09:32.575797+05:30
Amritsar,Punjab,31.634,74.8723,18.6,83,0.0,981.0,6.15,14.4,145,93.6,82.0,3,10,7,0,2026-03-06T03:09:32.575803+05:30
Ludhiana,Punjab,30.901,75.8573,21.4,78,0.0,979.0,6.05,14.4,156,94.3,78.2,3,5,7,1,2026-03-06T03:09:32.575810+05:30
Jalandhar,Punjab,31.326,75.5762,18.8,89,0.0,980.2,6.2,15.8,156,100.6,88.7,3,10,7,1,2026-03-06T03:09:32.575819+05:30
Dehradun,Uttarakhand,30.6284,78.0322,12.5,52,0.0,827.6,6.15,26.6,68,27.6,24.1,0,5,7,0,2026-03-06T03:09:32.575827+05:30
Shimla,Himachal Pradesh,31.1048,77.1734,12.4,49,0.0,783.0,6.25,30.6,66,41.9,24.8,0,5,7,0,2026-03-06T03:09:32.575833+05:30
Manali,Himachal Pradesh,32.2396,77.1887,18.2,20,0.0,821.3,7.0,37.4,57,28.2,19.6,0,5,7,1,2026-03-06T03:09:32.575839+05:30
Gurgaon,Haryana,28.4595,77.0266,19.5,74,0.0,981.5,6.05,16.2,1485,616.5,115.9,3,5,7,0,2026-03-06T03:09:32.575849+05:30
Noida,Uttar Pradesh,28.5355,77.391,21.8,71,0.0,984.8,5.95,17.3,1485,616.5,115.9,3,5,3,1,2026-03-06T03:09:32.575856+05:30
Ghaziabad,Uttar Pradesh,28.6692,77.4538,21.4,76,0.0,982.9,5.9,13.7,335,408.9,113.9,3,5,3,1,2026-03-06T03:09:32.575862+05:30
Faridabad,Haryana,28.4089,77.3178,22.6,58,0.0,983.9,5.95,16.9,1485,616.5,115.9,0,5,3,0,2026-03-06T03:09:32.575868+05:30
Meerut,Uttar Pradesh,28.9845,77.7064,20.3,87,0.0,981.6,5.75,11.2,335,408.9,113.9,3,5,3,1,2026-03-06T03:09:32.575874+05:30
Agra,Uttar Pradesh,27.1767,78.0081,19.9,69,0.0,988.1,6.3,20.2,535,517.8,100.1,3,5,7,0,2026-03-06T03:09:32.575880+05:30
Varanasi,Uttar Pradesh,25.3176,82.9739,21.0,80,0.0,998.7,7.1,16.6,160,159.3,95.7,3,5,7,1,2026-03-06T03:09:32.575889+05:30
Prayagraj,Uttar Pradesh,25.4358,81.8463,20.5,86,0.0,996.8,6.95,14.8,163,173.7,110.1,3,5,7,1,2026-03-06T03:09:32.575895+05:30
Gorakhpur,Uttar Pradesh,26.7606,83.3732,18.7,85,0.0,998.6,6.75,20.9,172,124.3,104.5,3,10,7,1,2026-03-06T03:09:32.575901+05:30
Bareilly,Uttar Pradesh,28.367,79.4304,19.4,93,0.0,987.4,6.1,20.9,169,102.7,79.4,3,10,7,1,2026-03-06T03:09:32.575910+05:30
Aligarh,Uttar Pradesh,27.8974,78.088,20.3,76,0.0,985.8,6.0,19.1,749,666.8,148.1,3,5,3,0,2026-03-06T03:09:32.575917+05:30
Moradabad,Uttar Pradesh,28.8386,78.7733,19.4,93,0.0,984.1,5.9,24.1,173,95.5,76.6,3,10,3,1,2026-03-06T03:09:32.575923+05:30
Saharanpur,Uttar Pradesh,29.9637,77.546,18.3,96,0.0,975.8,5.55,25.6,162,135.5,84.1,3,10,3,1,2026-03-06T03:09:32.575928+05:30
Jhansi,Uttar Pradesh,25.4484,78.5685,20.0,59,0.0,978.2,6.9,25.2,60,31.8,18.9,0,5,7,0,2026-03-06T03:09:35.855601+05:30
Surat,Gujarat,21.1702,72.8311,23.7,73,0.0,1007.9,7.15,22.7,112,40.7,40.0,3,5,4,1,2026-03-06T03:09:35.855633+05:30
Vadodara,Gujarat,22.3072,73.1812,22.4,62,0.0,1005.8,7.25,19.1,83,38.2,37.5,3,5,4,0,2026-03-06T03:09:35.855643+05:30
Rajkot,Gujarat,22.3039,70.8022,20.6,89,0.0,996.7,7.1,23.4,54,13.5,11.4,3,5,7,1,2026-03-06T03:09:35.855650+05:30
Thane,Maharashtra,19.2183,72.9781,25.4,62,0.0,1008.0,7.4,36.7,98,28.0,26.4,7,0,4,1,2026-03-06T03:09:35.855689+05:30
Nagpur,Maharashtra,21.1458,79.0882,19.2,60,0.0,973.0,7.8,25.6,54,22.4,15.6,0,5,7,0,2026-03-06T03:09:35.855696+05:30
Nashik,Maharashtra,19.9975,73.7898,22.0,51,0.0,946.1,7.6,34.2,70,23.1,21.0,0,5,7,0,2026-03-06T03:09:35.855704+05:30
Aurangabad,Maharashtra,19.8762,75.3433,23.5,44,0.0,944.5,8.15,24.5,70,29.9,25.7,0,5,7,0,2026-03-06T03:09:35.855711+05:30
Solapur,Maharashtra,17.6599,75.9064,21.8,58,0.0,956.3,8.4,19.8,74,26.0,24.3,0,5,7,0,2026-03-06T03:09:35.855718+05:30
Kolhapur,Maharashtra,16.705,74.2433,18.4,65,0.0,946.9,8.55,32.4,151,82.7,81.7,3,5,7,0,2026-03-06T03:09:35.855728+05:30
Goa,Goa,15.2993,74.124,24.1,98,0.0,997.2,8.6,31.3,152,71.2,68.9,3,5,7,1,2026-03-06T03:09:35.855735+05:30
Jodhpur,Rajasthan,26.2389,73.0243,20.9,40,0.0,984.4,6.95,21.6,75,86.1,20.3,0,5,7,0,2026-03-06T03:09:35.855744+05:30
Udaipur,Rajasthan,24.5854,73.7125,16.8,38,0.0,947.3,7.6,20.5,54,16.8,16.0,0,5,7,0,2026-03-06T03:09:35.855751+05:30
Kota,Rajasthan,25.2138,75.8648,19.8,65,0.0,979.3,7.0,17.6,77,30.5,23.9,3,5,7,0,2026-03-06T03:09:35.855758+05:30
Bikaner,Rajasthan,28.0229,73.3119,22.3,42,0.0,982.7,6.65,20.9,61,58.0,14.5,0,5,7,0,2026-03-06T03:09:35.855765+05:30
Ajmer,Rajasthan,26.4499,74.6399,20.9,47,0.0,955.5,6.95,23.8,68,40.0,14.3,0,5,7,0,2026-03-06T03:09:35.855771+05:30
Gwalior,Madhya Pradesh,26.2183,78.1828,21.4,65,0.0,983.4,6.6,22.0,78,84.8,30.2,3,5,7,0,2026-03-06T03:09:35.855779+05:30
Indore,Madhya Pradesh,22.7196,75.8577,16.8,68,0.0,948.2,7.55,22.7,78,45.1,36.2,3,5,7,0,2026-03-06T03:09:35.855785+05:30
Bhopal,Madhya Pradesh,23.2599,77.4126,18.5,58,0.0,953.7,7.4,24.8,65,38.8,27.9,0,5,7,0,2026-03-06T03:09:35.855792+05:30
Jabalpur,Madhya Pradesh,23.1815,79.9864,19.0,70,0.0,961.5,7.5,27.7,63,43.5,27.9,3,5,7,0,2026-03-06T03:09:35.855799+05:30
Ujjain,Madhya Pradesh,23.1765,75.7885,17.3,68,0.0,954.1,7.45,19.1,107,41.6,38.0,3,5,7,0,2026-03-06T03:09:35.855807+05:30
Visakhapatnam,Andhra Pradesh,17.6868,83.2185,24.4,91,0.0,1002.0,8.45,36.7,116,46.1,43.9,3,5,4,1,2026-03-06T03:09:35.855814+05:30
Vijayawada,Andhra Pradesh,16.5062,80.648,23.8,80,0.0,1001.2,8.55,18.4,115,50.1,48.5,3,5,4,1,2026-03-06T03:09:35.855820+05:30
Guntur,Andhra Pradesh,16.3067,80.4365,23.9,80,0.0,1002.5,8.55,16.9,107,47.3,45.5,3,5,4,1,2026-03-06T03:09:35.855826+05:30
Nellore,Andhra Pradesh,14.4426,79.9865,24.2,82,0.0,1004.7,8.75,29.9,94,33.5,31.8,3,5,4,1,2026-03-06T03:09:35.855834+05:30
Kurnool,Andhra Pradesh,15.8281,78.0373,24.4,47,0.0,975.7,8.55,23.8,75,18.5,17.0,0,5,7,0,2026-03-06T03:09:35.855841+05:30
Kakinada,Andhra Pradesh,16.9891,82.2475,22.8,93,0.0,1005.9,8.5,35.3,103,39.7,36.2,3,5,4,1,2026-03-06T03:09:35.855847+05:30
Tirupati,Andhra Pradesh,13.6288,79.4192,21.0,80,0.0,991.0,8.85,29.5,120,52.2,50.4,3,5,7,1,2026-03-06T03:09:35.855853+05:30
Warangal,Telangana,17.9689,79.5941,23.7,52,0.0,977.2,8.3,26.3,75,24.8,23.9,0,5,7,0,2026-03-06T03:09:35.855859+05:30
Nizamabad,Telangana,18.6725,78.0941,21.7,58,0.0,964.3,8.2,31.3,85,31.2,29.0,0,5,7,0,2026-03-06T03:09:35.855865+05:30
Mysore,Karnataka,12.2958,76.6396,21.0,96,0.0,927.0,9.2,35.6,117,56.1,54.6,3,5,7,1,2026-03-06T03:09:35.855872+05:30
Mangalore,Karnataka,12.9141,74.856,28.6,78,0.0,1005.9,8.8,24.5,131,50.5,46.8,7,5,4,1,2026-03-06T03:09:35.855879+05:30
Hubli-Dharwad,Karnataka,15.3647,75.124,19.4,98,0.0,939.4,8.75,35.3,80,38.6,37.7,3,10,7,1,2026-03-06T03:09:35.855886+05:30
Belgaum,Karnataka,15.8497,74.4977,20.6,73,0.0,924.4,8.8,38.9,117,59.3,57.6,3,5,7,0,2026-03-06T03:09:39.133147+05:30
Coimbatore,Tamil Nadu,11.0168,76.9558,21.9,93,0.0,960.9,9.15,37.8,107,57.6,56.1,3,5,7,1,2026-03-06T03:09:39.133180+05:30
Madurai,Tamil Nadu,9.9252,78.1198,24.4,88,0.0,992.4,9.15,27.4,88,43.9,42.4,3,5,7,1,2026-03-06T03:09:39.133191+05:30
Trichy,Tamil Nadu,10.7905,78.7047,23.2,97,0.0,999.1,9.05,25.2,96,33.8,32.4,3,5,7,1,2026-03-06T03:09:39.133199+05:30
Salem,Tamil Nadu,11.6643,78.146,23.5,75,0.0,976.5,9.05,15.5,99,47.3,44.6,3,5,7,1,2026-03-06T03:09:39.133206+05:30
Tirunelveli,Tamil Nadu,8.7139,77.7567,24.2,77,0.0,1002.6,9.15,49.0,76,48.4,47.5,3,5,4,1,2026-03-06T03:09:39.133214+05:30
Vellore,Tamil Nadu,12.9165,79.1325,20.7,90,0.0,984.1,8.95,32.8,120,46.1,44.1,3,5,7,1,2026-03-06T03:09:39.133220+05:30
Erode,Tamil Nadu,11.341,77.7172,24.9,72,0.0,988.4,9.05,19.8,88,31.7,29.6,3,5,7,1,2026-03-06T03:09:39.133228+05:30
Kochi,Kerala,9.9312,76.2673,27.7,82,0.0,1007.8,9.0,33.1,143,59.6,58.8,7,5,4,1,2026-03-06T03:09:39.133235+05:30
Thiruvananthapuram,Kerala,8.5241,76.9366,27.6,80,0.0,1007.1,9.05,32.4,91,32.4,29.3,7,5,4,1,2026-03-06T03:09:39.133242+05:30
Kozhikode,Kerala,11.2588,75.7804,28.3,82,0.0,1006.7,8.85,26.3,125,48.0,43.5,7,5,4,1,2026-03-06T03:09:39.133248+05:30
Thrissur,Kerala,10.5276,76.2144,26.1,92,0.0,1006.1,8.95,33.5,144,66.6,64.5,7,5,4,1,2026-03-06T03:09:39.133255+05:30
Kannur,Kerala,11.8745,75.3704,27.6,82,0.0,1006.1,8.85,29.5,128,46.1,43.5,7,5,4,1,2026-03-06T03:09:39.133262+05:30
Patna,Bihar,25.5941,85.1376,22.2,78,0.0,1001.9,7.25,23.4,164,120.6,93.4,3,5,4,1,2026-03-06T03:09:39.133269+05:30
Gaya,Bihar,24.7914,85.0002,18.9,86,0.0,994.8,7.35,22.7,151,90.8,73.3,3,10,7,1,2026-03-06T03:09:39.133276+05:30
Muzaffarpur,Bihar,26.1209,85.3647,19.6,82,0.0,1002.1,7.2,22.7,168,141.6,114.3,3,10,4,1,2026-03-06T03:09:39.133281+05:30
Bhagalpur,Bihar,25.2425,87.0117,20.9,81,0.0,1002.7,7.3,18.7,162,101.7,86.1,3,5,4,1,2026-03-06T03:09:39.133287+05:30
Ranchi,Jharkhand,23.3441,85.3096,18.3,72,0.0,937.3,8.0,28.4,132,136.4,75.7,3,5,7,0,2026-03-06T03:09:39.133294+05:30
Jamshedpur,Jharkhand,22.8046,86.2029,22.6,75,0.0,991.6,7.9,24.1,158,99.7,69.2,3,5,7,1,2026-03-06T03:09:39.133300+05:30
Dhanbad,Jharkhand,23.7957,86.4304,23.1,59,0.0,980.7,7.75,29.9,168,122.9,102.2,0,5,7,0,2026-03-06T03:09:39.133306+05:30
Bokaro,Jharkhand,23.6693,86.1511,21.6,67,0.0,984.9,7.75,30.2,172,159.7,124.3,3,5,7,0,2026-03-06T03:09:39.133312+05:30
Bhubaneswar,Odisha,20.2961,85.8245,24.3,95,0.0,1002.7,8.2,32.0,142,56.9,49.7,3,5,4,1,2026-03-06T03:09:39.133318+05:30
Cuttack,Odisha,20.4625,85.8828,24.3,92,0.0,1004.9,8.25,34.6,142,56.9,49.7,3,5,4,1,2026-03-06T03:09:39.133324+05:30
Rourkela,Odisha,22.2604,84.8536,23.5,63,0.0,985.0,7.8,13.0,124,76.8,49.1,3,5,7,1,2026-03-06T03:09:39.133330+05:30
Raipur,Chhattisgarh,21.2514,81.6296,23.8,43,0.0,974.2,7.9,22.7,110,37.7,28.3,0,5,7,0,2026-03-06T03:09:39.133336+05:30
Bhilai,Chhattisgarh,21.1938,81.3509,22.3,48,0.0,974.4,7.9,23.8,85,36.0,24.9,0,5,7,0,2026-03-06T03:09:39.133342+05:30
Guwahati,Assam,26.1158,91.7086,22.6,84,0.0,1003.0,7.25,20.5,132,59.3,55.9,3,5,4,1,2026-03-06T03:09:39.133347+05:30
Agartala,Tripura,23.8315,91.2868,20.3,86,0.0,1007.3,7.6,17.3,161,101.0,91.3,3,5,4,1,2026-03-06T03:09:39.133352+05:30
Shillong,Meghalaya,25.5788,91.8933,9.4,71,0.0,853.9,7.6,35.3,109,38.3,35.3,3,5,7,0,2026-03-06T03:09:39.133359+05:30
Imphal,Manipur,24.817,93.9368,14.3,82,0.0,923.5,7.8,33.8,138,60.3,56.3,3,10,7,0,2026-03-06T03:09:39.133365+05:30
Aizawl,Mizoram,23.7271,92.7176,16.1,75,0.0,892.1,7.7,33.8,154,79.4,71.7,3,5,7,0,2026-03-06T03:09:39.133371+05:30
Kohima,Nagaland,25.6701,94.1077,13.4,74,0.0,854.5,7.65,43.6,115,43.5,40.3,3,5,7,0,2026-03-06T03:09:39.133378+05:30
Gangtok,Sikkim,27.3314,88.6138,13.8,97,0.0,837.8,7.55,16.6,95,33.5,30.3,3,10,7,0,2026-03-06T03:09:39.133385+05:30
Siliguri,West Bengal,26.7271,88.3953,21.0,65,0.0,995.6,7.2,16.6,127,52.7,50.5,3,5,7,0,2026-03-06T03:09:42.411190+05:30
Durgapur,West Bengal,23.5204,87.3119,22.8,67,0.0,996.3,7.75,25.9,160,109.9,90.3,3,5,7,1,2026-03-06T03:09:42.411223+05:30
Asansol,West Bengal,23.6739,86.9524,23.3,64,0.0,994.9,7.75,22.3,158,100.6,83.8,3,5,7,1,2026-03-06T03:09:42.411232+05:30
Pondicherry,Puducherry,11.9139,79.8145,22.6,95,0.0,1007.9,8.9,24.5,74,20.8,17.8,3,5,4,1,2026-03-06T03:09:42.411240+05:30
Port Blair,Andaman and Nicobar Islands,11.6234,92.7265,26.4,73,0.0,1006.9,8.85,14.4,55,20.4,12.6,7,5,4,1,2026-03-06T03:09:42.411248+05:30
Haridwar,Uttarakhand,29.9457,78.1642,19.2,92,0.0,974.6,5.65,26.3,145,68.0,56.3,3,10,3,1,2026-03-06T03:09:42.411255+05:30
Rishikesh,Uttarakhand,30.0869,78.2676,19.1,82,0.0,967.3,5.7,23.0,126,89.9,63.8,3,10,3,0,2026-03-06T03:09:42.411263+05:30
Nainital,Uttarakhand,29.3919,79.4542,15.8,76,0.0,804.9,6.5,42.5,153,89.9,65.7,3,5,7,0,2026-03-06T03:09:42.411270+05:30
Mussoorie,Uttarakhand,30.4599,78.0664,14.7,72,0.0,801.3,6.05,36.0,118,84.5,56.5,3,5,7,0,2026-03-06T03:09:42.411277+05:30
Dharamshala,Himachal Pradesh,32.219,76.3234,21.3,27,0.0,869.7,5.75,22.0,51,16.2,9.3,0,5,3,0,2026-03-06T03:09:42.411285+05:30
Dalhousie,Himachal Pradesh,32.5387,75.971,17.1,37,0.0,803.7,5.85,23.4,84,35.9,30.7,0,5,3,0,2026-03-06T03:09:42.411292+05:30
Patiala,Punjab,30.3398,76.3869,20.5,85,0.0,978.3,5.75,13.0,322,270.1,77.3,3,5,3,1,2026-03-06T03:09:42.411300+05:30
Bhatinda,Punjab,30.211,74.9455,19.9,75,0.0,984.3,6.4,17.6,138,59.5,50.6,3,5,7,0,2026-03-06T03:09:42.411307+05:30
Rohtak,Haryana,28.8955,76.6066,19.7,75,0.0,982.0,5.9,16.9,592,378.1,84.1,3,5,3,0,2026-03-06T03:09:42.411314+05:30
Panipat,Haryana,29.3909,76.9635,19.8,89,0.0,980.5,5.7,11.2,1201,689.2,116.2,3,10,3,1,2026-03-06T03:09:42.411320+05:30
Mathura,Uttar Pradesh,27.4924,77.6737,21.9,54,0.0,987.0,6.2,19.8,691,504.8,101.0,0,5,7,0,2026-03-06T03:09:42.411327+05:30
Vrindavan,Uttar Pradesh,27.5823,77.7027,19.6,69,0.0,987.4,6.15,19.8,691,504.8,101.0,3,5,7,0,2026-03-06T03:09:42.411333+05:30
Ayodhya,Uttar Pradesh,26.7922,82.1998,19.8,82,0.0,996.4,6.55,21.6,172,130.4,102.7,3,10,7,1,2026-03-06T03:09:42.411339+05:30
Ratlam,Madhya Pradesh,23.3315,75.0367,22.7,47,0.0,955.4,7.4,19.1,95,24.7,23.6,0,5,7,0,2026-03-06T03:09:42.411345+05:30
Sagar,Madhya Pradesh,23.8388,78.7378,19.5,57,0.0,950.1,7.35,23.4,55,29.5,17.5,0,5,7,0,2026-03-06T03:09:42.411352+05:30
Satna,Madhya Pradesh,24.6005,80.8322,20.4,59,0.0,971.5,7.3,32.4,74,43.3,27.4,0,5,7,0,2026-03-06T03:09:42.411358+05:30
Akola,Maharashtra,20.7002,77.0082,20.6,58,0.0,975.5,7.85,19.8,75,40.4,33.6,0,5,7,0,2026-03-06T03:09:42.411365+05:30
Amravati,Maharashtra,20.9374,77.7796,20.7,57,0.0,967.3,7.8,15.8,76,44.0,36.3,0,5,7,0,2026-03-06T03:09:42.411372+05:30
Latur,Maharashtra,18.4088,76.5604,20.6,46,0.0,939.3,8.3,32.4,88,30.0,26.9,0,5,7,0,2026-03-06T03:09:42.411378+05:30
Nanded,Maharashtra,19.1383,77.3091,20.1,53,0.0,968.5,8.1,20.5,92,53.6,51.3,0,5,7,0,2026-03-06T03:09:42.411384+05:30
Gulbarga,Karnataka,17.3297,76.8343,23.3,45,0.0,958.1,8.4,34.2,70,19.4,18.3,0,5,7,0,2026-03-06T03:09:42.411390+05:30
Bidar,Karnataka,17.9104,77.5199,23.3,48,0.0,934.8,8.35,32.8,81,21.9,20.1,0,5,7,0,2026-03-06T03:09:42.411396+05:30
Hospet,Karnataka,15.2689,76.3909,22.6,64,0.0,954.4,8.75,22.7,88,36.2,34.2,3,5,7,0,2026-03-06T03:09:42.411402+05:30
Tirupur,Tamil Nadu,11.1085,77.3411,24.0,88,0.0,974.5,9.2,28.4,105,51.2,49.5,3,5,7,1,2026-03-06T03:09:42.411408+05:30
Alappuzha,Kerala,9.4981,76.3388,27.8,79,0.0,1007.9,9.0,30.6,121,57.4,55.3,7,5,4,1,2026-03-06T03:09:42.411415+05:30
Munnar,Kerala,10.0889,77.0595,16.1,72,0.0,853.8,9.5,29.2,83,39.7,38.5,3,5,7,0,2026-03-06T03:09:42.411422+05:30
Silchar,Assam,24.8333,92.7789,20.8,80,0.0,1006.2,7.55,12.6,147,65.4,59.0,3,5,4,1,2026-03-06T03:09:42.411429+05:30
Dibrugarh,Assam,27.4728,94.912,20.5,90,0.0,997.0,7.25,14.8,98,25.3,23.9,3,5,7,1,2026-03-06T03:09:42.411435+05:30
