city,state,latitude,longitude,temp,humidity,rain,pressure,uv_index,wind_gusts,aqi,pm10,pm2_5,mosquito_risk,arthritis_risk,migraine_risk,frizz_risk,updated_at
Delhi,Delhi,28.6139,77.209,30.1,33,0.0,984.0,6.4,28.1,200,317.6,46.6,0,5,7,0,2026-03-25T17:20:45.840800+05:30
Mumbai,Maharashtra,19.076,72.8777,28.3,75,0.0,1006.6,7.95,24.8,102,38.4,27.8,7,5,4,1,2026-03-25T17:20:45.840838+05:30
Bangalore,Karnataka,12.9716,77.5946,32.4,28,0.0,910.4,9.5,32.0,108,27.4,20.0,0,5,7,0,2026-03-25T17:20:45.840853+05:30
Hyderabad,Telangana,17.385,78.4867,27.6,61,0.0,953.5,9.0,19.1,108,43.7,33.1,7,5,7,1,2026-03-25T17:20:45.840862+05:30
Chennai,Tamil Nadu,13.0827,80.2707,29.7,62,0.0,1006.9,9.2,32.8,48,24.2,15.2,7,5,4,1,2026-03-25T17:20:45.840871+05:30
Kolkata,West Bengal,22.5726,88.3639,29.7,70,0.0,1006.5,8.4,25.2,89,46.6,37.0,7,5,4,1,2026-03-25T17:20:45.840879+05:30
Pune,Maharashtra,18.5204,73.8567,36.1,20,0.0,946.7,8.5,32.8,112,30.3,21.8,0,5,10,0,2026-03-25T17:20:45.840891+05:30
Ahmedabad,Gujarat,23.0225,72.5714,36.1,27,0.0,1001.2,7.85,22.3,66,28.3,13.5,0,5,7,0,2026-03-25T17:20:45.840899+05:30
Jaipur,Rajasthan,26.9124,75.7873,31.5,26,0.0,960.9,7.35,27.7,113,96.6,19.0,0,5,7,0,2026-03-25T17:20:45.840906+05:30
Lucknow,Uttar Pradesh,26.8467,80.9462,31.7,24,0.0,994.1,7.1,37.1,113,139.2,28.2,0,5,7,0,2026-03-25T17:20:45.840914+05:30
Kanpur,Uttar Pradesh,26.4499,80.3319,30.1,38,0.0,992.8,7.15,29.2,160,359.5,46.6,0,5,7,0,2026-03-25T17:20:45.840921+05:30
Chandigarh,Chandigarh,30.7333,76.7794,27.1,41,0.0,970.0,6.55,29.9,116,29.0,21.0,4,5,7,0,2026-03-25T17:20:45.840948+05:30
Srinagar,Jammu and Kashmir,34.0837,74.7973,18.2,39,0.0,841.8,7.65,13.3,111,24.3,10.0,0,5,7,0,2026-03-25T17:20:45.840957+05:30
Jammu,Jammu and Kashmir,32.7266,74.857,27.3,55,0.0,974.1,6.9,18.7,88,29.8,16.4,4,5,7,1,2026-03-25T17:20:45.840965+05:30
Amritsar,Punjab,31.634,74.8723,27.4,48,0.0,982.7,6.85,27.7,124,29.9,21.2,4,5,7,0,2026-03-25T17:20:45.840972+05:30
Ludhiana,Punjab,30.901,75.8573,28.0,45,0.0,980.5,6.6,23.8,117,38.0,18.7,4,5,7,0,2026-03-25T17:20:45.840979+05:30
Jalandhar,Punjab,31.326,75.5762,27.8,48,0.0,981.6,6.75,22.0,117,51.5,18.1,4,5,7,0,2026-03-25T17:20:45.840988+05:30
Dehradun,Uttarakhand,30.6284,78.0322,17.7,64,0.0,830.5,7.0,23.8,107,21.5,15.5,3,5,7,0,2026-03-25T17:20:45.840995+05:30
Shimla,Himachal Pradesh,31.1048,77.1734,15.5,61,0.0,785.4,7.05,42.8,110,21.0,13.3,3,5,7,0,2026-03-25T17:20:45.841001+05:30
Manali,Himachal Pradesh,32.2396,77.1887,18.2,50,0.0,820.2,9.05,30.6,152,18.2,7.7,0,5,7,0,2026-03-25T17:20:45.841008+05:30
Gurgaon,Haryana,28.4595,77.0266,29.7,39,0.0,982.6,6.3,24.1,648,929.5,95.7,4,5,7,0,2026-03-25T17:20:45.841015+05:30
Noida,Uttar Pradesh,28.5355,77.391,29.8,37,0.0,985.6,6.35,27.4,648,929.5,95.7,4,5,7,0,2026-03-25T17:20:45.841021+05:30
Ghaziabad,Uttar Pradesh,28.6692,77.4538,29.2,39,0.0,983.7,6.4,28.4,150,256.1,42.4,4,5,7,0,2026-03-25T17:20:45.841027+05:30
Faridabad,Haryana,28.4089,77.3178,29.8,36,0.0,984.9,6.35,25.6,648,929.5,95.7,4,5,7,0,2026-03-25T17:20:45.841033+05:30
Meerut,Uttar Pradesh,28.9845,77.7064,28.8,39,0.0,982.3,6.5,32.0,150,256.1,42.4,4,5,7,0,2026-03-25T17:20:45.841039+05:30
Agra,Uttar Pradesh,27.1767,78.0081,32.8,23,0.0,988.8,7.0,31.7,461,560.7,54.9,0,5,7,0,2026-03-25T17:20:45.841047+05:30
Varanasi,Uttar Pradesh,25.3176,82.9739,32.2,25,0.0,998.1,7.8,30.6,136,81.7,22.1,0,5,7,0,2026-03-25T17:20:45.841056+05:30
Prayagraj,Uttar Pradesh,25.4358,81.8463,31.8,27,0.0,996.6,7.65,25.2,126,95.5,24.6,0,5,7,0,2026-03-25T17:20:45.841062+05:30
Gorakhpur,Uttar Pradesh,26.7606,83.3732,31.3,25,0.0,997.2,7.5,27.7,118,58.2,18.0,0,5,7,0,2026-03-25T17:20:45.841069+05:30
Bareilly,Uttar Pradesh,28.367,79.4304,28.8,44,0.0,987.3,6.85,28.8,101,40.5,22.5,4,5,7,0,2026-03-25T17:20:45.841075+05:30
Aligarh,Uttar Pradesh,27.8974,78.088,30.2,34,0.0,986.5,6.75,29.9,391,752.5,84.8,0,5,7,0,2026-03-25T17:20:45.841083+05:30
Moradabad,Uttar Pradesh,28.8386,78.7733,28.9,43,0.0,984.2,6.55,29.9,97,39.9,21.4,4,5,7,0,2026-03-25T17:20:45.841090+05:30
Saharanpur,Uttar Pradesh,29.9637,77.546,28.1,31,0.0,976.4,6.3,31.3,114,126.2,29.1,4,5,7,0,2026-03-25T17:20:45.841096+05:30
Jhansi,Uttar Pradesh,25.4484,78.5685,32.7,24,0.0,978.8,7.65,32.4,115,126.2,26.1,0,5,7,0,2026-03-25T17:20:49.063207+05:30
Surat,Gujarat,21.1702,72.8311,31.8,55,0.0,1005.6,7.7,24.1,92,43.4,29.9,0,5,4,1,2026-03-25T17:20:49.063241+05:30
Vadodara,Gujarat,22.3072,73.1812,36.4,32,0.0,1003.1,7.5,18.0,87,28.6,16.5,0,5,7,1,2026-03-25T17:20:49.063253+05:30
Rajkot,Gujarat,22.3039,70.8022,35.4,28,0.0,993.5,7.7,31.3,44,30.5,12.2,0,5,10,0,2026-03-25T17:20:49.063263+05:30
Thane,Maharashtra,19.2183,72.9781,30.8,59,0.0,1006.2,7.95,34.9,102,38.4,27.8,0,5,4,1,2026-03-25T17:20:49.063272+05:30
Nagpur,Maharashtra,21.1458,79.0882,35.3,24,0.0,972.1,8.4,20.5,104,27.0,17.3,0,5,10,0,2026-03-25T17:20:49.063280+05:30
Nashik,Maharashtra,19.9975,73.7898,33.3,27,0.0,944.7,8.15,26.6,72,29.2,16.9,0,5,7,0,2026-03-25T17:20:49.063288+05:30
Aurangabad,Maharashtra,19.8762,75.3433,34.8,21,0.0,943.2,8.7,32.8,70,22.2,11.1,0,5,7,0,2026-03-25T17:20:49.063296+05:30
Solapur,Maharashtra,17.6599,75.9064,34.7,31,0.0,955.6,8.85,29.2,140,36.3,26.6,0,5,7,0,2026-03-25T17:20:49.063304+05:30
Kolhapur,Maharashtra,16.705,74.2433,30.2,54,0.0,946.7,8.95,38.2,130,40.3,31.5,0,5,7,1,2026-03-25T17:20:49.063312+05:30
Goa,Goa,15.2993,74.124,30.7,68,0.0,996.3,8.95,29.9,116,42.4,30.9,3,5,7,1,2026-03-25T17:20:49.063320+05:30
Jodhpur,Rajasthan,26.2389,73.0243,34.9,21,0.0,982.8,7.45,26.6,60,90.6,16.2,0,5,7,0,2026-03-25T17:20:49.063329+05:30
Udaipur,Rajasthan,24.5854,73.7125,31.8,27,0.0,947.2,7.95,25.6,56,24.5,8.3,0,5,7,0,2026-03-25T17:20:49.063336+05:30
Kota,Rajasthan,25.2138,75.8648,33.1,28,0.0,979.6,7.7,17.3,95,40.0,23.4,0,5,7,0,2026-03-25T17:20:49.063344+05:30
Bikaner,Rajasthan,28.0229,73.3119,33.8,20,0.0,981.7,6.65,31.0,81,28.9,9.6,0,5,7,0,2026-03-25T17:20:49.063353+05:30
Ajmer,Rajasthan,26.4499,74.6399,31.8,24,0.0,955.2,7.5,28.8,91,29.7,11.4,0,5,7,0,2026-03-25T17:20:49.063361+05:30
Gwalior,Madhya Pradesh,26.2183,78.1828,32.6,26,0.0,984.2,7.25,29.9,168,89.6,18.3,0,5,7,0,2026-03-25T17:20:49.063369+05:30
Indore,Madhya Pradesh,22.7196,75.8577,33.7,24,0.0,947.9,8.15,23.0,92,29.4,17.0,0,5,7,0,2026-03-25T17:20:49.063377+05:30
Bhopal,Madhya Pradesh,23.2599,77.4126,33.5,24,0.0,953.8,8.05,22.0,82,26.8,14.8,0,5,7,0,2026-03-25T17:20:49.063384+05:30
Jabalpur,Madhya Pradesh,23.1815,79.9864,32.5,27,0.0,961.8,8.2,30.2,89,34.8,14.6,0,5,7,0,2026-03-25T17:20:49.063390+05:30
Ujjain,Madhya Pradesh,23.1765,75.7885,33.5,25,0.0,953.5,8.05,17.6,79,27.0,11.7,0,5,7,0,2026-03-25T17:20:49.063396+05:30
Visakhapatnam,Andhra Pradesh,17.6868,83.2185,29.0,66,0.0,1004.0,8.9,38.5,67,30.4,19.6,7,5,4,1,2026-03-25T17:20:49.063402+05:30
Vijayawada,Andhra Pradesh,16.5062,80.648,33.0,51,0.0,1001.9,9.0,24.5,58,26.8,18.2,0,5,4,1,2026-03-25T17:20:49.063407+05:30
Guntur,Andhra Pradesh,16.3067,80.4365,32.6,50,0.0,1003.2,9.0,24.8,54,26.6,17.5,0,5,4,1,2026-03-25T17:20:49.063413+05:30
Nellore,Andhra Pradesh,14.4426,79.9865,30.7,57,0.0,1005.5,9.1,29.5,72,23.9,16.4,0,5,4,1,2026-03-25T17:20:49.063420+05:30
Kurnool,Andhra Pradesh,15.8281,78.0373,35.8,30,0.0,975.2,8.65,24.1,96,40.6,29.7,0,5,10,0,2026-03-25T17:20:49.063427+05:30
Kakinada,Andhra Pradesh,16.9891,82.2475,32.3,53,0.0,1007.1,8.95,28.4,54,25.5,13.8,0,5,4,1,2026-03-25T17:20:49.063433+05:30
Tirupati,Andhra Pradesh,13.6288,79.4192,33.5,38,0.0,990.3,9.2,28.8,70,28.9,20.9,0,5,7,1,2026-03-25T17:20:49.063439+05:30
Warangal,Telangana,17.9689,79.5941,33.3,41,0.0,978.2,8.7,24.8,85,37.7,28.9,0,5,7,1,2026-03-25T17:20:49.063444+05:30
Nizamabad,Telangana,18.6725,78.0941,35.3,28,0.0,963.3,8.75,33.5,109,30.6,21.4,0,5,10,0,2026-03-25T17:20:49.063450+05:30
Mysore,Karnataka,12.2958,76.6396,34.0,25,0.0,926.1,9.4,32.0,129,26.0,19.1,0,5,7,0,2026-03-25T17:20:49.063456+05:30
Mangalore,Karnataka,12.9141,74.856,29.3,82,0.0,1004.2,9.05,23.8,146,42.6,31.3,7,5,4,1,2026-03-25T17:20:49.063462+05:30
Hubli-Dharwad,Karnataka,15.3647,75.124,26.0,68,0.0,939.8,9.1,38.2,122,40.7,31.4,7,5,7,1,2026-03-25T17:20:49.063467+05:30
Belgaum,Karnataka,15.8497,74.4977,28.2,60,0.0,924.9,9.1,24.8,141,46.0,33.9,4,5,7,1,2026-03-25T17:20:52.280222+05:30
Coimbatore,Tamil Nadu,11.0168,76.9558,34.6,28,0.0,959.0,9.4,34.6,90,18.2,12.5,0,5,7,0,2026-03-25T17:20:52.280251+05:30
Madurai,Tamil Nadu,9.9252,78.1198,35.3,31,0.0,990.3,9.35,25.9,71,17.2,11.4,0,5,10,0,2026-03-25T17:20:52.280261+05:30
Trichy,Tamil Nadu,10.7905,78.7047,33.4,45,0.0,997.8,9.3,23.0,66,19.3,14.6,0,5,7,1,2026-03-25T17:20:52.280268+05:30
Salem,Tamil Nadu,11.6643,78.146,35.1,31,0.0,974.9,9.35,31.7,101,26.1,19.3,0,5,10,0,2026-03-25T17:20:52.280275+05:30
Tirunelveli,Tamil Nadu,8.7139,77.7567,36.3,33,0.0,1000.1,9.3,40.3,59,14.1,8.8,0,5,7,1,2026-03-25T17:20:52.280282+05:30
Vellore,Tamil Nadu,12.9165,79.1325,32.6,36,0.0,983.3,9.3,31.7,81,28.3,21.5,0,5,7,0,2026-03-25T17:20:52.280290+05:30
Erode,Tamil Nadu,11.341,77.7172,35.8,36,0.0,986.0,9.3,28.1,79,19.0,13.6,0,5,10,1,2026-03-25T17:20:52.280296+05:30
Kochi,Kerala,9.9312,76.2673,29.5,76,0.0,1005.2,9.15,33.1,116,28.8,23.3,7,5,4,1,2026-03-25T17:20:52.280304+05:30
Thiruvananthapuram,Kerala,8.5241,76.9366,29.4,79,0.0,1005.4,9.2,31.3,107,18.7,14.2,7,5,4,1,2026-03-25T17:20:52.280311+05:30
Kozhikode,Kerala,11.2588,75.7804,30.0,76,0.0,1004.7,9.1,28.4,103,45.9,33.2,7,5,4,1,2026-03-25T17:20:52.280317+05:30
Thrissur,Kerala,10.5276,76.2144,31.3,66,0.0,1003.5,9.15,39.2,98,26.5,19.2,3,5,4,1,2026-03-25T17:20:52.280325+05:30
Kannur,Kerala,11.8745,75.3704,31.0,68,0.0,1004.4,9.1,29.5,120,41.3,30.5,3,5,4,1,2026-03-25T17:20:52.280332+05:30
Patna,Bihar,25.5941,85.1376,31.5,29,0.0,1000.9,7.4,30.2,128,61.9,26.9,0,5,4,0,2026-03-25T17:20:52.280338+05:30
Gaya,Bihar,24.7914,85.0002,30.4,42,0.0,994.1,8.05,22.7,126,51.6,19.0,0,5,7,1,2026-03-25T17:20:52.280345+05:30
Muzaffarpur,Bihar,26.1209,85.3647,30.0,38,0.0,1000.8,7.9,24.1,122,58.1,27.4,4,5,4,0,2026-03-25T17:20:52.280351+05:30
Bhagalpur,Bihar,25.2425,87.0117,28.8,48,0.0,1001.8,8.0,24.1,151,45.3,25.9,4,5,4,1,2026-03-25T17:20:52.280358+05:30
Ranchi,Jharkhand,23.3441,85.3096,29.4,28,0.0,938.3,8.4,31.7,120,30.9,14.3,4,5,7,0,2026-03-25T17:20:52.280365+05:30
Jamshedpur,Jharkhand,22.8046,86.2029,33.7,30,0.0,990.4,8.55,30.2,159,61.9,39.0,0,5,7,0,2026-03-25T17:20:52.280371+05:30
Dhanbad,Jharkhand,23.7957,86.4304,33.0,24,0.0,979.7,8.45,27.0,154,41.0,21.2,0,5,7,0,2026-03-25T17:20:52.280378+05:30
Bokaro,Jharkhand,23.6693,86.1511,32.2,28,0.0,983.7,8.45,24.1,150,40.0,20.3,0,5,7,0,2026-03-25T17:20:52.280384+05:30
Bhubaneswar,Odisha,20.2961,85.8245,29.8,66,0.0,1002.7,8.75,28.1,72,37.4,28.9,7,5,4,1,2026-03-25T17:20:52.280391+05:30
Cuttack,Odisha,20.4625,85.8828,31.4,59,0.0,1004.6,8.8,27.4,72,37.4,28.9,0,5,4,1,2026-03-25T17:20:52.280397+05:30
Rourkela,Odisha,22.2604,84.8536,33.6,33,0.0,984.7,8.45,19.8,154,41.3,23.1,0,5,7,0,2026-03-25T17:20:52.280404+05:30
Raipur,Chhattisgarh,21.2514,81.6296,31.4,43,0.0,974.4,8.2,45.4,151,35.7,25.8,0,5,7,1,2026-03-25T17:20:52.280410+05:30
Bhilai,Chhattisgarh,21.1938,81.3509,31.5,44,0.0,974.7,8.2,40.0,121,29.4,20.1,0,5,7,1,2026-03-25T17:20:52.280416+05:30
Guwahati,Assam,26.1158,91.7086,26.0,69,0.0,1002.7,7.85,28.1,120,58.4,42.1,7,5,4,1,2026-03-25T17:20:52.280422+05:30
Agartala,Tripura,23.8315,91.2868,27.5,69,0.0,1007.2,8.15,27.4,155,60.3,51.2,7,5,4,1,2026-03-25T17:20:52.280428+05:30
Shillong,Meghalaya,25.5788,91.8933,15.4,67,0.0,856.5,8.25,67.0,106,44.8,29.2,3,5,7,0,2026-03-25T17:20:52.280434+05:30
Imphal,Manipur,24.817,93.9368,18.6,72,0.0,924.1,8.45,76.0,119,42.0,28.3,3,5,7,0,2026-03-25T17:20:52.280440+05:30
Aizawl,Mizoram,23.7271,92.7176,22.0,57,0.0,894.0,8.25,43.9,115,59.1,35.7,0,5,7,0,2026-03-25T17:20:52.280447+05:30
Kohima,Nagaland,25.6701,94.1077,14.8,93,0.0,855.2,7.8,76.7,111,43.1,30.3,3,10,7,0,2026-03-25T17:20:52.280453+05:30
Gangtok,Sikkim,27.3314,88.6138,14.5,86,0.0,837.0,8.1,18.7,105,32.9,25.1,3,10,7,0,2026-03-25T17:20:52.280459+05:30
Siliguri,West Bengal,26.7271,88.3953,22.6,65,0.0,994.7,7.8,25.2,152,56.7,39.5,3,5,7,0,2026-03-25T17:20:55.506190+05:30
Durgapur,West Bengal,23.5204,87.3119,32.1,40,0.0,995.1,8.4,22.7,152,38.4,21.2,0,5,7,1,2026-03-25T17:20:55.506218+05:30
Asansol,West Bengal,23.6739,86.9524,33.3,29,0.0,993.4,8.4,22.3,135,41.0,21.2,0,5,7,0,2026-03-25T17:20:55.506228+05:30
Pondicherry,Puducherry,11.9139,79.8145,29.9,61,0.0,1007.5,9.15,29.5,41,17.8,9.9,7,5,4,1,2026-03-25T17:20:55.506235+05:30
Port Blair,Andaman and Nicobar Islands,11.6234,92.7265,28.3,76,0.0,1007.0,9.1,25.2,71,18.4,14.4,7,5,4,1,2026-03-25T17:20:55.506242+05:30
Haridwar,Uttarakhand,29.9457,78.1642,28.9,44,0.0,974.8,6.45,25.2,117,48.8,23.7,4,5,7,0,2026-03-25T17:20:55.506249+05:30
Rishikesh,Uttarakhand,30.0869,78.2676,27.5,44,0.0,967.6,6.5,23.4,115,24.4,19.2,4,5,7,0,2026-03-25T17:20:55.506256+05:30
Nainital,Uttarakhand,29.3919,79.4542,19.5,59,0.0,806.7,7.35,27.7,129,27.4,20.8,0,5,7,0,2026-03-25T17:20:55.506261+05:30
Mussoorie,Uttarakhand,30.4599,78.0664,18.2,62,0.0,803.4,6.9,25.2,115,35.0,23.8,3,5,7,0,2026-03-25T17:20:55.506268+05:30
Dharamshala,Himachal Pradesh,32.219,76.3234,20.6,63,0.0,870.1,7.1,18.0,118,20.7,11.3,3,5,7,0,2026-03-25T17:20:55.506274+05:30
Dalhousie,Himachal Pradesh,32.5387,75.971,18.8,59,0.0,805.0,7.35,20.5,100,24.9,15.8,0,5,7,0,2026-03-25T17:20:55.506281+05:30
Patiala,Punjab,30.3398,76.3869,28.1,43,0.0,979.6,6.45,26.6,130,390.2,48.7,4,5,7,0,2026-03-25T17:20:55.506288+05:30
Bhatinda,Punjab,30.211,74.9455,29.2,39,0.0,985.4,6.35,22.3,135,38.8,25.8,4,5,7,0,2026-03-25T17:20:55.506294+05:30
Rohtak,Haryana,28.8955,76.6066,29.7,36,0.0,983.1,6.45,21.2,352,307.3,43.3,4,5,7,0,2026-03-25T17:20:55.506301+05:30
Panipat,Haryana,29.3909,76.9635,29.2,38,0.0,981.5,5.95,28.4,605,670.6,71.9,4,5,3,0,2026-03-25T17:20:55.506307+05:30
Mathura,Uttar Pradesh,27.4924,77.6737,31.4,34,0.0,987.9,6.85,20.9,510,398.6,46.2,0,5,7,0,2026-03-25T17:20:55.506313+05:30
Vrindavan,Uttar Pradesh,27.5823,77.7027,31.0,35,0.0,988.3,6.8,24.8,510,398.6,46.2,0,5,7,0,2026-03-25T17:20:55.506319+05:30
Ayodhya,Uttar Pradesh,26.7922,82.1998,32.1,19,0.0,995.5,7.3,35.3,109,27.1,17.1,0,5,7,0,2026-03-25T17:20:55.506325+05:30
Ratlam,Madhya Pradesh,23.3315,75.0367,33.4,27,0.0,954.4,8.05,24.5,68,25.3,8.9,0,5,7,0,2026-03-25T17:20:55.506331+05:30
Sagar,Madhya Pradesh,23.8388,78.7378,32.5,23,0.0,950.8,8.05,25.6,84,37.7,10.6,0,5,7,0,2026-03-25T17:20:55.506336+05:30
Satna,Madhya Pradesh,24.6005,80.8322,32.8,19,0.0,972.0,7.85,29.9,113,93.1,19.8,0,5,7,0,2026-03-25T17:20:55.506343+05:30
Akola,Maharashtra,20.7002,77.0082,36.2,24,0.0,973.8,8.45,23.8,70,19.6,10.8,0,5,10,0,2026-03-25T17:20:55.506349+05:30
Amravati,Maharashtra,20.9374,77.7796,36.0,24,0.0,966.1,8.45,22.7,67,19.5,10.8,0,5,10,0,2026-03-25T17:20:55.506356+05:30
Latur,Maharashtra,18.4088,76.5604,34.1,24,0.0,938.5,8.8,19.8,111,36.4,25.8,0,5,7,0,2026-03-25T17:20:55.506362+05:30
Nanded,Maharashtra,19.1383,77.3091,36.8,20,0.0,966.8,8.65,22.7,106,29.9,19.8,0,5,10,0,2026-03-25T17:20:55.506367+05:30
Gulbarga,Karnataka,17.3297,76.8343,29.2,53,0.0,958.5,8.85,26.3,117,36.2,26.5,4,5,7,1,2026-03-25T17:20:55.506373+05:30
Bidar,Karnataka,17.9104,77.5199,33.4,30,0.0,934.7,8.85,24.1,114,30.7,21.8,0,5,7,0,2026-03-25T17:20:55.506379+05:30
Hospet,Karnataka,15.2689,76.3909,32.6,41,0.0,954.5,9.05,21.2,123,39.1,32.1,0,5,7,1,2026-03-25T17:20:55.506385+05:30
Tirupur,Tamil Nadu,11.1085,77.3411,36.0,28,0.0,972.4,9.4,31.7,88,19.4,14.0,0,5,10,0,2026-03-25T17:20:55.506391+05:30
Alappuzha,Kerala,9.4981,76.3388,29.4,78,0.0,1005.5,9.15,29.2,126,25.3,20.3,7,5,4,1,2026-03-25T17:20:55.506397+05:30
Munnar,Kerala,10.0889,77.0595,27.2,63,0.0,856.7,9.65,30.6,72,18.7,11.7,7,5,7,1,2026-03-25T17:20:55.506403+05:30
Silchar,Assam,24.8333,92.7789,27.1,69,0.0,1006.3,8.15,36.0,160,80.3,54.1,7,5,4,1,2026-03-25T17:20:55.506409+05:30
Dibrugarh,Assam,27.4728,94.912,21.0,80,0.0,999.1,6.95,27.4,83,28.7,23.0,3,5,7,1,2026-03-25T17:20:55.506415+05:30
