city,state,latitude,longitude,temp,humidity,rain,pressure,uv_index,wind_gusts,aqi,pm10,pm2_5,no2,co,o3,so2,mosquito_risk,arthritis_risk,migraine_risk,frizz_risk,updated_at
Delhi,Delhi,28.6139,77.209,33.2,26,0.0,975.7,7.75,41.0,210,438.7,91.3,28.9,227.0,47.0,10.9,0,5,7,0,2026-05-21T03:27:57.662285+05:30
Mumbai,Maharashtra,19.076,72.8777,29.5,72,0.0,1005.4,7.85,38.2,58,19.0,10.9,7.2,142.0,45.0,5.4,7,5,4,1,2026-05-21T03:27:57.662344+05:30
Bangalore,Karnataka,12.9716,77.5946,22.1,94,0.0,909.6,9.2,34.9,37,8.0,7.6,13.3,282.0,42.0,4.8,3,5,7,1,2026-05-21T03:27:57.662359+05:30
Hyderabad,Telangana,17.385,78.4867,30.4,49,0.0,949.5,8.5,33.8,100,34.9,28.1,9.2,283.0,97.0,7.7,0,5,7,1,2026-05-21T03:27:57.662369+05:30
Chennai,Tamil Nadu,13.0827,80.2707,31.8,55,0.0,1001.3,8.4,40.3,64,21.5,19.3,19.1,307.0,51.0,8.1,0,5,4,1,2026-05-21T03:27:57.662377+05:30
Kolkata,West Bengal,22.5726,88.3639,28.6,95,0.0,999.3,8.95,26.3,95,34.6,28.8,9.3,333.0,69.0,6.1,7,5,7,1,2026-05-21T03:27:57.662385+05:30
Pune,Maharashtra,18.5204,73.8567,24.5,85,0.0,945.5,5.85,40.0,65,13.3,9.0,8.2,145.0,43.0,7.0,3,5,3,1,2026-05-21T03:27:57.662391+05:30
Ahmedabad,Gujarat,23.0225,72.5714,30.9,46,0.0,998.3,8.15,33.8,65,45.2,21.1,5.8,169.0,52.0,3.5,0,5,7,1,2026-05-21T03:27:57.662398+05:30
Jaipur,Rajasthan,26.9124,75.7873,32.1,28,0.0,954.5,8.3,47.9,132,359.5,69.6,5.6,209.0,66.0,4.8,0,5,7,0,2026-05-21T03:27:57.662412+05:30
Lucknow,Uttar Pradesh,26.8467,80.9462,32.4,50,0.0,986.3,8.2,32.0,152,267.3,72.4,24.2,315.0,72.0,10.4,0,5,7,1,2026-05-21T03:27:57.662418+05:30
Kanpur,Uttar Pradesh,26.4499,80.3319,33.8,28,0.0,984.6,8.25,36.7,193,402.3,86.8,23.6,297.0,57.0,11.0,0,5,7,0,2026-05-21T03:27:57.662424+05:30
Chandigarh,Chandigarh,30.7333,76.7794,25.5,50,0.0,960.3,7.75,34.2,107,54.7,36.1,29.1,448.0,44.0,12.6,4,5,7,0,2026-05-21T03:27:57.662430+05:30
Srinagar,Jammu and Kashmir,34.0837,74.7973,15.3,85,0.0,841.1,8.55,48.6,77,42.5,20.8,21.2,698.0,28.0,2.2,3,10,7,0,2026-05-21T03:27:57.662437+05:30
Jammu,Jammu and Kashmir,32.7266,74.857,29.2,31,0.0,965.1,8.55,70.2,85,25.1,17.3,12.7,280.0,53.0,2.5,4,5,7,0,2026-05-21T03:27:57.662443+05:30
Amritsar,Punjab,31.634,74.8723,29.9,36,0.0,972.8,8.45,61.6,116,52.9,38.3,26.1,350.0,51.0,11.1,4,5,7,0,2026-05-21T03:27:57.662449+05:30
Ludhiana,Punjab,30.901,75.8573,29.2,38,0.0,970.7,8.05,33.5,151,84.3,51.9,25.9,433.0,44.0,10.5,4,5,7,0,2026-05-21T03:27:57.662458+05:30
Jalandhar,Punjab,31.326,75.5762,29.8,34,0.0,971.8,8.2,42.8,120,69.8,44.2,23.1,482.0,51.0,10.5,4,5,7,0,2026-05-21T03:27:57.662464+05:30
Dehradun,Uttarakhand,30.6284,78.0322,14.8,59,0.0,824.6,8.1,44.6,71,31.2,18.0,28.8,212.0,21.0,1.5,0,5,7,0,2026-05-21T03:27:57.662472+05:30
Shimla,Himachal Pradesh,31.1048,77.1734,16.0,35,0.0,781.0,8.3,48.2,73,45.6,26.7,23.2,193.0,68.0,7.9,0,5,7,0,2026-05-21T03:27:57.662485+05:30
Manali,Himachal Pradesh,32.2396,77.1887,13.1,62,0.0,814.7,9.65,50.8,38,12.8,5.0,24.5,201.0,100.0,0.0,3,5,7,0,2026-05-21T03:27:57.662491+05:30
Gurgaon,Haryana,28.4595,77.0266,31.6,30,0.0,974.3,7.85,45.7,808,2138.3,305.5,19.6,209.0,53.0,8.7,0,5,7,0,2026-05-21T03:27:57.662497+05:30
Noida,Uttar Pradesh,28.5355,77.391,31.1,31,0.0,977.0,7.75,36.0,808,2138.3,305.5,19.6,211.0,53.0,8.7,0,5,7,0,2026-05-21T03:27:57.662503+05:30
Ghaziabad,Uttar Pradesh,28.6692,77.4538,32.5,27,0.0,975.3,7.75,38.9,189,345.5,85.9,41.0,569.0,34.0,19.1,0,5,7,0,2026-05-21T03:27:57.662509+05:30
Faridabad,Haryana,28.4089,77.3178,33.0,27,0.0,976.4,7.75,43.6,808,2138.3,305.5,19.6,195.0,53.0,8.7,0,5,7,0,2026-05-21T03:27:57.662515+05:30
Meerut,Uttar Pradesh,28.9845,77.7064,31.3,34,0.0,973.8,7.65,29.5,189,345.5,85.9,41.0,536.0,34.0,19.1,0,5,7,0,2026-05-21T03:27:57.662520+05:30
Agra,Uttar Pradesh,27.1767,78.0081,32.8,28,0.0,980.9,8.1,45.0,595,1106.4,138.3,8.5,174.0,64.0,4.6,0,5,7,0,2026-05-21T03:27:57.662526+05:30
Varanasi,Uttar Pradesh,25.3176,82.9739,31.8,63,0.0,990.0,8.75,41.0,153,109.7,60.8,41.7,745.0,34.0,15.8,3,5,7,1,2026-05-21T03:27:57.662532+05:30
Prayagraj,Uttar Pradesh,25.4358,81.8463,32.4,46,0.0,988.6,8.65,36.0,145,172.8,61.0,32.2,478.0,53.0,12.6,0,5,7,1,2026-05-21T03:27:57.662538+05:30
Gorakhpur,Uttar Pradesh,26.7606,83.3732,28.9,76,0.0,990.5,8.65,31.0,155,76.1,61.9,16.1,537.0,76.0,12.9,7,5,7,1,2026-05-21T03:27:57.662547+05:30
Bareilly,Uttar Pradesh,28.367,79.4304,28.6,54,0.0,979.2,8.05,21.2,152,280.3,83.6,29.5,369.0,46.0,10.2,4,5,7,1,2026-05-21T03:27:57.662553+05:30
Aligarh,Uttar Pradesh,27.8974,78.088,30.8,29,0.0,978.4,7.9,38.5,500,1039.4,151.3,12.1,209.0,58.0,4.5,0,5,7,0,2026-05-21T03:27:57.662558+05:30
Moradabad,Uttar Pradesh,28.8386,78.7733,30.5,40,0.0,976.2,7.75,20.2,170,268.2,133.2,83.8,497.0,12.0,23.8,0,5,7,0,2026-05-21T03:27:57.662564+05:30
Saharanpur,Uttar Pradesh,29.9637,77.546,29.8,46,0.0,968.2,7.2,27.0,157,178.3,94.1,64.0,589.0,2.0,13.9,4,5,7,1,2026-05-21T03:27:57.662570+05:30
Jhansi,Uttar Pradesh,25.4484,78.5685,32.2,22,0.0,972.1,8.5,51.8,53,24.9,16.5,5.5,170.0,65.0,3.5,0,5,7,0,2026-05-21T03:28:01.263174+05:30
Surat,Gujarat,21.1702,72.8311,29.0,80,0.0,1003.5,7.75,37.4,68,27.9,14.9,16.5,246.0,39.0,28.5,7,5,4,1,2026-05-21T03:28:01.263209+05:30
Vadodara,Gujarat,22.3072,73.1812,29.1,80,0.0,1000.7,8.1,36.7,67,21.9,15.0,18.7,187.0,28.0,21.1,7,5,4,1,2026-05-21T03:28:01.263220+05:30
Rajkot,Gujarat,22.3039,70.8022,27.0,85,0.0,990.8,7.75,45.7,61,32.9,14.5,5.6,130.0,45.0,6.1,7,5,7,1,2026-05-21T03:28:01.263229+05:30
Thane,Maharashtra,19.2183,72.9781,29.5,73,0.0,1004.9,7.85,33.5,58,19.0,10.9,7.2,162.0,45.0,5.4,7,5,4,1,2026-05-21T03:28:01.263237+05:30
Nagpur,Maharashtra,21.1458,79.0882,34.6,26,0.0,967.3,8.95,45.4,74,35.0,25.3,10.2,267.0,82.0,12.8,0,5,7,0,2026-05-21T03:28:01.263245+05:30
Nashik,Maharashtra,19.9975,73.7898,24.8,85,0.0,943.0,5.85,36.0,55,14.6,10.1,10.2,127.0,37.0,8.0,3,5,3,1,2026-05-21T03:28:01.263252+05:30
Aurangabad,Maharashtra,19.8762,75.3433,28.0,64,0.0,941.0,5.1,37.8,64,18.1,12.8,9.8,144.0,50.0,5.7,7,5,3,1,2026-05-21T03:28:01.263260+05:30
Solapur,Maharashtra,17.6599,75.9064,29.0,59,0.0,954.4,9.0,48.2,77,22.1,16.5,6.3,165.0,72.0,4.8,4,5,7,1,2026-05-21T03:28:01.263268+05:30
Kolhapur,Maharashtra,16.705,74.2433,23.5,90,0.0,945.5,8.6,43.9,71,20.5,12.7,5.8,143.0,45.0,2.5,3,5,7,1,2026-05-21T03:28:01.263275+05:30
Goa,Goa,15.2993,74.124,25.9,98,0.0,995.5,2.6,28.8,38,10.8,8.8,4.4,430.0,68.0,1.6,7,5,3,1,2026-05-21T03:28:01.263282+05:30
Jodhpur,Rajasthan,26.2389,73.0243,32.0,27,0.0,978.5,8.45,46.4,155,281.3,60.5,3.8,144.0,61.0,3.1,0,5,7,0,2026-05-21T03:28:01.263290+05:30
Udaipur,Rajasthan,24.5854,73.7125,28.1,36,0.0,943.0,8.85,40.7,68,47.4,21.0,3.4,146.0,67.0,2.9,4,5,7,0,2026-05-21T03:28:01.263297+05:30
Kota,Rajasthan,25.2138,75.8648,33.0,22,0.0,973.8,8.4,46.4,61,34.5,19.9,6.7,162.0,50.0,4.2,0,5,7,0,2026-05-21T03:28:01.263320+05:30
Bikaner,Rajasthan,28.0229,73.3119,32.9,25,0.0,975.6,8.4,34.9,113,393.0,111.1,2.0,134.0,76.0,2.2,0,5,7,0,2026-05-21T03:28:01.263328+05:30
Ajmer,Rajasthan,26.4499,74.6399,30.1,29,0.0,950.3,8.45,59.0,71,60.1,23.2,4.4,156.0,60.0,3.6,0,5,7,0,2026-05-21T03:28:01.263335+05:30
Gwalior,Madhya Pradesh,26.2183,78.1828,33.0,24,0.0,976.9,8.3,53.3,58,26.4,15.1,4.7,151.0,73.0,2.6,0,5,7,0,2026-05-21T03:28:01.263342+05:30
Indore,Madhya Pradesh,22.7196,75.8577,29.9,39,0.0,945.2,8.7,38.5,69,47.4,25.0,5.3,242.0,83.0,6.2,4,5,7,0,2026-05-21T03:28:01.263349+05:30
Bhopal,Madhya Pradesh,23.2599,77.4126,32.7,26,0.0,949.5,8.7,43.2,58,36.9,19.8,3.0,161.0,81.0,3.4,0,5,7,0,2026-05-21T03:28:01.263356+05:30
Jabalpur,Madhya Pradesh,23.1815,79.9864,33.0,24,0.0,956.0,8.9,39.2,84,26.6,19.5,16.1,221.0,53.0,4.6,0,5,7,0,2026-05-21T03:28:01.263363+05:30
Ujjain,Madhya Pradesh,23.1765,75.7885,29.8,43,0.0,950.7,8.6,37.1,71,45.2,25.1,4.8,193.0,79.0,7.6,4,5,7,0,2026-05-21T03:28:01.263370+05:30
Visakhapatnam,Andhra Pradesh,17.6868,83.2185,30.1,84,0.0,997.1,9.1,33.1,106,43.2,36.1,31.7,457.0,81.0,41.3,3,5,7,1,2026-05-21T03:28:01.263377+05:30
Vijayawada,Andhra Pradesh,16.5062,80.648,32.1,70,0.0,996.3,9.15,39.6,121,26.9,23.7,6.7,292.0,117.0,6.0,3,5,7,1,2026-05-21T03:28:01.263384+05:30
Guntur,Andhra Pradesh,16.3067,80.4365,32.6,59,0.0,997.5,9.15,40.3,116,33.4,29.5,11.9,271.0,92.0,6.0,0,5,7,1,2026-05-21T03:28:01.263390+05:30
Nellore,Andhra Pradesh,14.4426,79.9865,32.8,51,0.0,999.6,8.5,42.8,84,23.7,20.1,7.1,196.0,91.0,9.1,0,5,7,1,2026-05-21T03:28:01.263398+05:30
Kurnool,Andhra Pradesh,15.8281,78.0373,29.9,65,0.0,973.4,8.1,42.5,72,10.5,9.3,8.1,182.0,70.0,5.1,7,5,7,1,2026-05-21T03:28:01.263405+05:30
Kakinada,Andhra Pradesh,16.9891,82.2475,31.2,75,0.0,1001.1,9.1,36.0,91,36.4,27.3,3.6,347.0,128.0,4.1,3,5,4,1,2026-05-21T03:28:01.263412+05:30
Tirupati,Andhra Pradesh,13.6288,79.4192,30.9,55,0.0,985.9,8.55,41.8,58,18.8,17.1,13.3,183.0,53.0,2.5,0,5,7,1,2026-05-21T03:28:01.263418+05:30
Warangal,Telangana,17.9689,79.5941,31.9,41,0.0,973.2,8.4,41.0,132,55.3,46.9,25.3,385.0,47.0,6.6,0,5,7,1,2026-05-21T03:28:01.263424+05:30
Nizamabad,Telangana,18.6725,78.0941,32.3,40,0.0,960.2,9.1,34.2,89,41.6,31.7,16.2,307.0,58.0,7.2,0,5,7,1,2026-05-21T03:28:01.263430+05:30
Mysore,Karnataka,12.2958,76.6396,22.4,94,0.0,926.3,8.75,43.9,27,7.5,6.7,8.4,154.0,42.0,2.2,3,5,7,1,2026-05-21T03:28:01.263437+05:30
Mangalore,Karnataka,12.9141,74.856,27.2,91,0.0,1004.5,8.6,33.1,36,11.5,9.7,7.9,308.0,42.0,2.5,7,5,4,1,2026-05-21T03:28:01.263443+05:30
Hubli-Dharwad,Karnataka,15.3647,75.124,22.9,97,0.0,938.6,8.8,47.5,28,5.4,4.4,5.8,179.0,49.0,1.1,3,5,7,1,2026-05-21T03:28:01.263450+05:30
Belgaum,Karnataka,15.8497,74.4977,22.1,98,0.0,923.3,7.25,41.8,61,16.1,9.4,4.7,124.0,59.0,2.2,3,5,7,1,2026-05-21T03:28:04.500787+05:30
Coimbatore,Tamil Nadu,11.0168,76.9558,25.2,88,0.0,959.2,8.1,52.6,25,5.2,4.4,4.3,161.0,51.0,2.3,7,5,7,1,2026-05-21T03:28:04.500822+05:30
Madurai,Tamil Nadu,9.9252,78.1198,28.1,73,0.0,989.9,9.0,45.0,61,35.9,34.8,48.1,140.0,2.0,12.2,7,5,7,1,2026-05-21T03:28:04.500834+05:30
Trichy,Tamil Nadu,10.7905,78.7047,28.5,70,0.0,996.1,9.0,49.0,37,7.5,6.6,7.5,150.0,47.0,3.4,7,5,7,1,2026-05-21T03:28:04.500842+05:30
Salem,Tamil Nadu,11.6643,78.146,27.7,73,0.0,974.8,9.1,45.7,47,15.7,14.4,21.6,195.0,33.0,7.3,7,5,7,1,2026-05-21T03:28:04.500851+05:30
Tirunelveli,Tamil Nadu,8.7139,77.7567,28.3,75,0.0,1000.7,8.2,40.3,20,6.8,5.6,6.5,133.0,35.0,2.2,7,5,4,1,2026-05-21T03:28:04.500859+05:30
Vellore,Tamil Nadu,12.9165,79.1325,29.9,60,0.0,980.1,9.05,45.0,52,15.2,14.1,16.7,208.0,42.0,6.2,4,5,7,1,2026-05-21T03:28:04.500866+05:30
Erode,Tamil Nadu,11.341,77.7172,27.5,76,0.0,986.2,8.95,51.5,37,14.1,12.8,16.5,157.0,34.0,3.9,7,5,7,1,2026-05-21T03:28:04.500874+05:30
Kochi,Kerala,9.9312,76.2673,26.9,94,0.0,1006.9,8.2,36.4,54,19.2,17.8,21.9,223.0,17.0,5.2,7,5,4,1,2026-05-21T03:28:04.500881+05:30
Thiruvananthapuram,Kerala,8.5241,76.9366,25.9,97,0.1,1006.8,8.5,45.0,23,8.0,4.6,1.5,133.0,49.0,0.4,10,5,4,1,2026-05-21T03:28:04.500888+05:30
Kozhikode,Kerala,11.2588,75.7804,26.0,96,0.0,1006.0,8.75,25.9,29,6.7,4.4,1.7,398.0,57.0,0.7,7,5,4,1,2026-05-21T03:28:04.500895+05:30
Thrissur,Kerala,10.5276,76.2144,26.1,96,0.0,1005.2,8.6,31.3,51,18.5,17.1,18.7,198.0,19.0,5.4,7,5,4,1,2026-05-21T03:28:04.500903+05:30
Kannur,Kerala,11.8745,75.3704,26.5,95,0.1,1005.0,8.75,32.4,32,11.7,10.1,9.9,252.0,34.0,2.4,10,5,4,1,2026-05-21T03:28:04.500910+05:30
Patna,Bihar,25.5941,85.1376,28.9,80,0.0,993.6,8.85,29.5,156,65.4,56.1,14.6,409.0,87.0,16.8,7,5,7,1,2026-05-21T03:28:04.500917+05:30
Gaya,Bihar,24.7914,85.0002,29.1,73,0.0,987.0,8.9,32.4,158,84.8,68.0,16.4,402.0,78.0,14.7,7,5,7,1,2026-05-21T03:28:04.500923+05:30
Muzaffarpur,Bihar,26.1209,85.3647,28.4,78,0.0,993.7,8.85,31.7,155,66.1,56.3,15.9,502.0,80.0,13.8,7,5,7,1,2026-05-21T03:28:04.500930+05:30
Bhagalpur,Bihar,25.2425,87.0117,28.4,86,0.0,994.5,8.85,33.1,151,53.8,47.7,17.0,452.0,68.0,9.7,7,5,7,1,2026-05-21T03:28:04.500936+05:30
Ranchi,Jharkhand,23.3441,85.3096,24.9,66,0.0,931.5,9.3,34.9,148,191.4,70.8,24.3,489.0,85.0,13.5,3,5,7,1,2026-05-21T03:28:04.500943+05:30
Jamshedpur,Jharkhand,22.8046,86.2029,27.8,97,0.0,984.3,9.1,29.9,153,113.9,85.4,40.5,1244.0,40.0,33.6,7,5,7,1,2026-05-21T03:28:04.500950+05:30
Dhanbad,Jharkhand,23.7957,86.4304,28.7,89,0.0,973.5,9.1,30.2,169,187.2,150.4,50.1,463.0,39.0,158.4,7,5,7,1,2026-05-21T03:28:04.500957+05:30
Bokaro,Jharkhand,23.6693,86.1511,27.6,87,0.0,977.2,9.1,31.3,170,210.5,141.6,56.1,467.0,35.0,146.7,7,5,7,1,2026-05-21T03:28:04.500963+05:30
Bhubaneswar,Odisha,20.2961,85.8245,29.0,84,0.0,994.9,9.15,36.7,109,66.6,59.4,25.2,412.0,71.0,12.4,7,5,7,1,2026-05-21T03:28:04.500970+05:30
Cuttack,Odisha,20.4625,85.8828,28.7,86,0.0,996.8,9.2,28.4,109,66.6,59.4,25.2,473.0,71.0,12.4,7,5,7,1,2026-05-21T03:28:04.500977+05:30
Rourkela,Odisha,22.2604,84.8536,28.4,56,0.0,978.3,9.0,37.1,150,157.4,71.0,44.4,527.0,21.0,15.0,4,5,7,1,2026-05-21T03:28:04.500984+05:30
Raipur,Chhattisgarh,21.2514,81.6296,32.3,37,0.0,967.4,9.0,40.7,151,66.1,54.2,39.1,676.0,49.0,42.7,0,5,7,0,2026-05-21T03:28:04.500991+05:30
Bhilai,Chhattisgarh,21.1938,81.3509,32.0,39,0.0,967.9,9.0,42.5,136,56.5,45.5,33.2,908.0,60.0,42.2,0,5,7,1,2026-05-21T03:28:04.500998+05:30
Guwahati,Assam,26.1158,91.7086,25.1,97,0.0,996.3,8.75,22.0,124,43.0,37.6,16.6,424.0,25.0,2.3,7,5,7,1,2026-05-21T03:28:04.501004+05:30
Agartala,Tripura,23.8315,91.2868,26.5,94,0.0,1000.9,8.8,30.6,80,20.6,15.7,11.0,210.0,34.0,2.5,7,5,4,1,2026-05-21T03:28:04.501011+05:30
Shillong,Meghalaya,25.5788,91.8933,17.5,98,0.0,852.8,8.5,20.2,79,36.1,29.3,6.8,236.0,72.0,4.3,3,10,7,1,2026-05-21T03:28:04.501018+05:30
Imphal,Manipur,24.817,93.9368,21.5,97,0.0,919.2,9.25,28.4,111,72.4,55.3,23.1,616.0,30.0,5.3,3,5,7,1,2026-05-21T03:28:04.501024+05:30
Aizawl,Mizoram,23.7271,92.7176,19.3,97,0.0,888.1,9.1,24.1,86,36.4,27.4,6.0,255.0,50.0,2.3,3,10,7,1,2026-05-21T03:28:04.501031+05:30
Kohima,Nagaland,25.6701,94.1077,17.1,96,0.0,850.9,9.2,27.4,94,42.6,29.7,15.2,225.0,31.0,0.9,3,10,7,1,2026-05-21T03:28:04.501038+05:30
Gangtok,Sikkim,27.3314,88.6138,14.8,74,0.0,832.5,9.15,39.2,74,29.9,20.2,10.7,734.0,79.0,2.4,3,5,7,0,2026-05-21T03:28:04.501044+05:30
Siliguri,West Bengal,26.7271,88.3953,23.8,94,0.1,987.8,8.75,28.8,134,95.0,72.4,31.6,517.0,54.0,8.2,6,5,7,1,2026-05-21T03:28:07.751021+05:30
Durgapur,West Bengal,23.5204,87.3119,28.3,94,0.0,988.4,9.0,36.7,163,122.0,106.9,42.4,891.0,44.0,37.0,7,5,7,1,2026-05-21T03:28:07.751058+05:30
Asansol,West Bengal,23.6739,86.9524,28.4,92,0.0,986.8,9.05,29.2,163,125.7,109.2,42.3,643.0,46.0,45.9,7,5,7,1,2026-05-21T03:28:07.751069+05:30
Pondicherry,Puducherry,11.9139,79.8145,29.2,70,0.0,1003.5,7.35,32.0,65,17.5,15.8,17.0,337.0,51.0,7.4,7,5,4,1,2026-05-21T03:28:07.751079+05:30
Port Blair,Andaman and Nicobar Islands,11.6234,92.7265,25.7,97,0.0,1003.4,8.8,37.4,24,6.0,3.7,0.2,102.0,62.0,0.3,7,5,4,1,2026-05-21T03:28:07.751087+05:30
Haridwar,Uttarakhand,29.9457,78.1642,26.0,51,0.0,966.5,7.25,26.3,118,77.3,48.2,37.0,252.0,18.0,6.3,4,5,7,0,2026-05-21T03:28:07.751095+05:30
Rishikesh,Uttarakhand,30.0869,78.2676,22.2,61,0.0,959.2,7.4,29.5,91,57.5,31.7,22.1,303.0,43.0,4.8,3,5,7,0,2026-05-21T03:28:07.751103+05:30
Nainital,Uttarakhand,29.3919,79.4542,17.4,49,0.0,802.4,8.5,33.8,102,151.3,38.4,13.8,183.0,87.0,4.0,0,5,7,0,2026-05-21T03:28:07.751110+05:30
Mussoorie,Uttarakhand,30.4599,78.0664,18.8,41,0.0,800.4,8.0,51.1,96,57.0,38.8,45.7,204.0,19.0,6.5,0,5,7,0,2026-05-21T03:28:07.751117+05:30
Dharamshala,Himachal Pradesh,32.219,76.3234,25.1,31,0.0,865.9,8.45,47.5,56,20.4,10.0,12.4,192.0,33.0,0.1,4,5,7,0,2026-05-21T03:28:07.751125+05:30
Dalhousie,Himachal Pradesh,32.5387,75.971,15.9,55,0.0,800.3,8.7,41.0,75,29.3,20.6,40.5,290.0,2.0,1.1,0,5,7,0,2026-05-21T03:28:07.751133+05:30
Patiala,Punjab,30.3398,76.3869,30.0,30,0.0,970.4,7.65,34.6,325,100.8,70.1,35.9,434.0,39.0,14.6,4,5,7,0,2026-05-21T03:28:07.751141+05:30
Bhatinda,Punjab,30.211,74.9455,32.1,35,0.0,975.6,8.3,33.5,106,58.9,38.2,23.2,356.0,39.0,7.9,0,5,7,0,2026-05-21T03:28:07.751148+05:30
Rohtak,Haryana,28.8955,76.6066,32.3,29,0.0,974.3,7.7,43.6,366,713.4,116.6,19.9,203.0,47.0,3.6,0,5,7,0,2026-05-21T03:28:07.751155+05:30
Panipat,Haryana,29.3909,76.9635,30.8,33,0.0,972.5,7.45,32.8,762,571.8,110.4,31.6,650.0,25.0,4.8,0,5,7,0,2026-05-21T03:28:07.751161+05:30
Mathura,Uttar Pradesh,27.4924,77.6737,31.5,30,0.0,979.9,8.05,42.8,551,976.0,121.5,8.8,182.0,64.0,4.3,0,5,7,0,2026-05-21T03:28:07.751168+05:30
Vrindavan,Uttar Pradesh,27.5823,77.7027,31.2,31,0.0,980.3,8.0,41.8,551,976.0,121.5,8.8,186.0,64.0,4.3,0,5,7,0,2026-05-21T03:28:07.751175+05:30
Ayodhya,Uttar Pradesh,26.7922,82.1998,29.4,77,0.0,988.3,8.4,25.6,154,164.8,69.2,39.4,539.0,50.0,12.7,7,5,7,1,2026-05-21T03:28:07.751182+05:30
Ratlam,Madhya Pradesh,23.3315,75.0367,27.8,60,0.0,951.7,8.55,35.6,71,39.0,23.6,6.5,238.0,75.0,13.8,4,5,7,1,2026-05-21T03:28:07.751189+05:30
Sagar,Madhya Pradesh,23.8388,78.7378,32.0,22,0.0,945.8,8.75,46.4,52,26.3,16.5,4.8,158.0,83.0,3.8,0,5,7,0,2026-05-21T03:28:07.751196+05:30
Satna,Madhya Pradesh,24.6005,80.8322,31.7,33,0.0,965.0,8.8,43.9,99,55.9,24.6,24.0,190.0,44.0,4.0,0,5,7,0,2026-05-21T03:28:07.751202+05:30
Akola,Maharashtra,20.7002,77.0082,32.7,44,0.0,970.4,8.9,41.8,69,36.8,25.5,7.2,195.0,98.0,13.6,0,5,7,1,2026-05-21T03:28:07.751210+05:30
Amravati,Maharashtra,20.9374,77.7796,34.0,27,0.0,962.5,8.9,37.4,66,36.2,25.1,7.6,182.0,90.0,11.1,0,5,7,0,2026-05-21T03:28:07.751218+05:30
Latur,Maharashtra,18.4088,76.5604,29.6,51,0.0,936.5,9.05,32.0,86,26.8,23.1,6.3,179.0,110.0,8.7,4,5,7,1,2026-05-21T03:28:07.751226+05:30
Nanded,Maharashtra,19.1383,77.3091,33.3,38,0.0,964.3,9.0,40.7,82,34.3,26.3,12.3,322.0,71.0,6.6,0,5,7,1,2026-05-21T03:28:07.751233+05:30
Gulbarga,Karnataka,17.3297,76.8343,29.0,61,0.0,955.4,8.95,38.2,84,26.3,19.4,6.7,162.0,67.0,3.8,7,5,7,1,2026-05-21T03:28:07.751240+05:30
Bidar,Karnataka,17.9104,77.5199,28.9,54,0.0,932.0,9.1,39.2,90,37.6,31.3,14.5,209.0,76.0,5.3,4,5,7,1,2026-05-21T03:28:07.751247+05:30
Hospet,Karnataka,15.2689,76.3909,25.2,86,0.0,953.5,9.0,47.2,34,5.5,4.8,5.8,162.0,53.0,1.4,7,5,7,1,2026-05-21T03:28:07.751254+05:30
Tirupur,Tamil Nadu,11.1085,77.3411,26.5,80,0.0,972.7,9.1,55.8,40,15.8,14.6,19.2,149.0,31.0,4.3,7,5,7,1,2026-05-21T03:28:07.751261+05:30
Alappuzha,Kerala,9.4981,76.3388,27.4,91,0.0,1007.0,8.65,39.2,38,11.4,9.0,11.0,94.0,35.0,2.0,7,5,4,1,2026-05-21T03:28:07.751268+05:30
Munnar,Kerala,10.0889,77.0595,17.5,97,0.0,855.1,9.25,32.4,21,6.5,5.6,6.6,105.0,33.0,1.6,3,10,7,1,2026-05-21T03:28:07.751275+05:30
Silchar,Assam,24.8333,92.7789,25.0,96,0.1,1000.9,8.45,23.4,133,57.5,42.6,13.1,245.0,81.0,7.2,10,5,4,1,2026-05-21T03:28:07.751282+05:30
Dibrugarh,Assam,27.4728,94.912,25.0,96,0.2,991.0,8.9,24.1,72,10.9,8.3,9.8,347.0,53.0,0.6,10,5,7,1,2026-05-21T03:28:07.751289+05:30
