city,state,latitude,longitude,temp,humidity,rain,pressure,uv_index,wind_gusts,aqi,pm10,pm2_5,no2,co,o3,so2,mosquito_risk,arthritis_risk,migraine_risk,frizz_risk,updated_at
Delhi,Delhi,28.6139,77.209,29.0,85,0.0,976.5,6.3,38.2,115,41.7,40.3,47.0,1128.0,57.0,26.4,7,5,7,1,2026-07-22T20:35:34.547293+05:30
Mumbai,Maharashtra,19.076,72.8777,26.1,90,0.4,1004.6,0.75,61.6,56,34.0,14.5,6.0,181.0,41.0,4.4,10,5,0,1,2026-07-22T20:35:34.547336+05:30
Bangalore,Karnataka,12.9716,77.5946,21.4,95,0.0,912.4,7.45,49.7,35,8.2,7.1,22.5,433.0,23.0,5.8,3,5,7,1,2026-07-22T20:35:34.547351+05:30
Hyderabad,Telangana,17.385,78.4867,23.4,88,0.1,951.6,4.55,47.2,37,14.9,10.2,11.2,302.0,48.0,5.3,6,5,3,1,2026-07-22T20:35:34.547360+05:30
Chennai,Tamil Nadu,13.0827,80.2707,26.7,87,0.0,1008.2,8.4,35.6,76,29.5,21.9,15.6,397.0,88.0,9.7,7,0,4,1,2026-07-22T20:35:34.547368+05:30
Kolkata,West Bengal,22.5726,88.3639,26.1,94,0.0,1003.2,4.75,36.0,56,22.8,19.2,11.7,400.0,63.0,9.8,7,5,0,1,2026-07-22T20:35:34.547376+05:30
Pune,Maharashtra,18.5204,73.8567,22.4,90,0.1,944.1,1.5,60.5,23,35.2,15.1,6.2,138.0,51.0,3.7,6,5,3,1,2026-07-22T20:35:34.547382+05:30
Ahmedabad,Gujarat,23.0225,72.5714,28.2,86,0.0,994.1,6.15,27.0,61,31.8,20.0,26.4,222.0,28.0,7.0,7,5,7,1,2026-07-22T20:35:34.547389+05:30
Jaipur,Rajasthan,26.9124,75.7873,25.8,96,0.0,953.1,6.65,29.9,71,15.7,15.5,21.1,391.0,72.0,8.2,7,5,7,1,2026-07-22T20:35:34.547395+05:30
Lucknow,Uttar Pradesh,26.8467,80.9462,28.8,79,0.0,987.4,6.45,46.4,80,18.9,18.9,9.5,325.0,95.0,6.6,7,5,7,1,2026-07-22T20:35:34.547406+05:30
Kanpur,Uttar Pradesh,26.4499,80.3319,29.0,78,0.0,985.1,6.2,41.8,86,18.9,18.9,11.1,314.0,92.0,7.0,7,5,7,1,2026-07-22T20:35:34.547413+05:30
Chandigarh,Chandigarh,30.7333,76.7794,27.6,92,0.0,963.0,7.4,46.4,87,64.3,63.8,80.3,1870.0,27.0,13.6,7,5,7,1,2026-07-22T20:35:34.547420+05:30
Srinagar,Jammu and Kashmir,34.0837,74.7973,16.9,98,0.1,839.0,2.55,10.8,61,17.4,17.3,30.6,961.0,38.0,3.8,6,10,3,1,2026-07-22T20:35:34.547428+05:30
Jammu,Jammu and Kashmir,32.7266,74.857,25.0,89,0.1,966.9,4.75,40.7,61,25.8,25.5,33.2,576.0,62.0,5.7,10,5,3,1,2026-07-22T20:35:34.547434+05:30
Amritsar,Punjab,31.634,74.8723,26.1,93,0.1,974.7,1.95,45.0,81,30.3,29.9,19.8,502.0,55.0,7.1,10,5,3,1,2026-07-22T20:35:34.547440+05:30
Ludhiana,Punjab,30.901,75.8573,26.5,95,0.0,972.3,5.95,40.0,104,41.9,41.7,31.0,754.0,53.0,17.1,7,5,3,1,2026-07-22T20:35:34.547447+05:30
Jalandhar,Punjab,31.326,75.5762,25.8,96,0.1,973.7,5.5,42.5,105,37.5,37.1,29.7,1155.0,46.0,9.9,10,5,3,1,2026-07-22T20:35:34.547453+05:30
Dehradun,Uttarakhand,30.6284,78.0322,18.7,98,0.0,827.9,6.55,25.6,39,10.6,10.4,26.2,209.0,49.0,1.5,3,10,7,1,2026-07-22T20:35:34.547459+05:30
Shimla,Himachal Pradesh,31.1048,77.1734,15.4,99,0.0,781.3,5.2,31.0,48,9.1,9.0,24.9,549.0,54.0,0.8,3,10,3,0,2026-07-22T20:35:34.547466+05:30
Manali,Himachal Pradesh,32.2396,77.1887,21.1,91,0.1,817.7,3.75,21.6,46,4.1,4.0,32.2,260.0,41.0,0.7,6,5,3,1,2026-07-22T20:35:34.547475+05:30
Gurgaon,Haryana,28.4595,77.0266,28.1,90,0.0,974.7,6.1,43.2,104,52.5,39.8,49.9,1604.0,61.0,27.1,7,5,7,1,2026-07-22T20:35:34.547481+05:30
Noida,Uttar Pradesh,28.5355,77.391,29.0,84,0.0,978.0,6.7,38.5,104,52.5,39.8,49.9,627.0,61.0,27.1,7,5,7,1,2026-07-22T20:35:34.547490+05:30
Ghaziabad,Uttar Pradesh,28.6692,77.4538,28.9,82,0.0,976.4,6.8,42.1,85,39.1,39.0,27.4,445.0,57.0,10.1,7,5,7,1,2026-07-22T20:35:34.547496+05:30
Faridabad,Haryana,28.4089,77.3178,29.3,82,0.0,977.1,6.9,41.4,104,52.5,39.8,49.9,841.0,61.0,27.1,7,5,7,1,2026-07-22T20:35:34.547502+05:30
Meerut,Uttar Pradesh,28.9845,77.7064,28.6,88,0.0,975.5,6.9,45.7,85,39.1,39.0,27.4,412.0,57.0,10.1,7,5,7,1,2026-07-22T20:35:34.547508+05:30
Agra,Uttar Pradesh,27.1767,78.0081,28.8,79,0.0,980.6,6.85,36.4,90,24.4,24.3,23.4,355.0,77.0,9.2,7,5,7,1,2026-07-22T20:35:34.547515+05:30
Varanasi,Uttar Pradesh,25.3176,82.9739,27.0,93,0.1,991.3,8.15,46.8,67,18.0,18.0,13.3,576.0,84.0,10.1,10,5,7,1,2026-07-22T20:35:34.547521+05:30
Prayagraj,Uttar Pradesh,25.4358,81.8463,27.4,90,0.0,989.3,8.1,37.1,90,18.6,18.6,11.8,514.0,92.0,8.0,7,5,7,1,2026-07-22T20:35:34.547528+05:30
Gorakhpur,Uttar Pradesh,26.7606,83.3732,28.1,82,0.0,992.5,6.45,52.6,74,17.3,17.3,9.6,303.0,84.0,5.1,7,5,7,1,2026-07-22T20:35:34.547534+05:30
Bareilly,Uttar Pradesh,28.367,79.4304,29.1,80,0.0,981.3,6.55,43.6,77,22.6,22.5,14.2,309.0,68.0,4.7,7,5,7,1,2026-07-22T20:35:34.547544+05:30
Aligarh,Uttar Pradesh,27.8974,78.088,29.3,75,0.0,979.0,6.9,41.8,100,25.8,25.8,14.9,292.0,95.0,10.8,7,5,7,1,2026-07-22T20:35:34.547550+05:30
Moradabad,Uttar Pradesh,28.8386,78.7733,29.4,78,0.0,978.1,7.7,48.6,78,26.1,26.0,15.8,316.0,78.0,7.7,7,5,7,1,2026-07-22T20:35:34.547556+05:30
Saharanpur,Uttar Pradesh,29.9637,77.546,28.6,84,0.0,970.2,7.35,52.6,77,44.4,43.5,39.4,539.0,41.0,10.7,7,5,7,1,2026-07-22T20:35:34.547562+05:30
Jhansi,Uttar Pradesh,25.4484,78.5685,26.6,94,0.1,970.6,7.35,32.8,64,14.6,14.4,9.0,351.0,85.0,5.4,10,5,7,1,2026-07-22T20:35:37.961392+05:30
Surat,Gujarat,21.1702,72.8311,25.0,98,0.2,999.9,0.65,31.0,73,28.8,22.8,36.4,730.0,15.0,47.3,10,5,3,1,2026-07-22T20:35:37.961424+05:30
Vadodara,Gujarat,22.3072,73.1812,26.9,89,0.0,996.8,0.95,27.4,62,28.5,20.7,28.2,318.0,28.0,9.3,7,5,3,1,2026-07-22T20:35:37.961435+05:30
Rajkot,Gujarat,22.3039,70.8022,27.7,81,0.0,986.7,3.5,41.4,60,37.1,18.6,8.1,126.0,39.0,6.1,7,5,3,1,2026-07-22T20:35:37.961444+05:30
Thane,Maharashtra,19.2183,72.9781,25.3,95,0.4,1003.8,0.85,46.8,56,34.0,14.5,6.0,196.0,41.0,4.4,10,5,0,1,2026-07-22T20:35:37.961452+05:30
Nagpur,Maharashtra,21.1458,79.0882,24.7,92,0.1,968.3,0.65,41.0,32,5.7,5.3,12.0,206.0,41.0,11.0,6,5,3,1,2026-07-22T20:35:37.961460+05:30
Nashik,Maharashtra,19.9975,73.7898,22.6,96,0.2,939.7,0.55,64.4,20,1.1,1.1,7.9,128.0,36.0,3.6,6,5,3,1,2026-07-22T20:35:37.961468+05:30
Aurangabad,Maharashtra,19.8762,75.3433,23.9,83,0.0,939.2,1.25,67.0,24,3.0,2.7,7.7,150.0,38.0,5.1,3,5,3,1,2026-07-22T20:35:37.961475+05:30
Solapur,Maharashtra,17.6599,75.9064,25.1,77,0.0,955.3,5.8,55.4,25,4.4,3.5,5.6,132.0,38.0,2.3,7,5,3,1,2026-07-22T20:35:37.961482+05:30
Kolhapur,Maharashtra,16.705,74.2433,21.5,96,0.1,946.8,7.25,56.5,23,6.5,4.4,6.0,152.0,40.0,2.0,6,5,7,1,2026-07-22T20:35:37.961490+05:30
Goa,Goa,15.2993,74.124,24.0,99,0.4,999.3,6.5,31.7,56,27.0,13.2,2.8,239.0,42.0,0.9,6,5,7,1,2026-07-22T20:35:37.961498+05:30
Jodhpur,Rajasthan,26.2389,73.0243,26.7,97,0.1,974.9,5.25,20.9,81,111.3,36.0,12.3,223.0,70.0,2.4,10,5,3,1,2026-07-22T20:35:37.961504+05:30
Udaipur,Rajasthan,24.5854,73.7125,24.4,94,0.0,938.8,2.35,24.8,55,13.0,7.5,8.9,208.0,51.0,3.4,3,5,3,1,2026-07-22T20:35:37.961512+05:30
Kota,Rajasthan,25.2138,75.8648,27.1,90,0.2,971.0,8.0,23.8,56,13.1,12.1,13.2,380.0,79.0,4.1,10,5,7,1,2026-07-22T20:35:37.961519+05:30
Bikaner,Rajasthan,28.0229,73.3119,28.4,88,0.0,973.8,5.35,33.8,95,16.5,15.9,5.5,449.0,114.0,4.4,7,5,3,1,2026-07-22T20:35:37.961527+05:30
Ajmer,Rajasthan,26.4499,74.6399,25.5,95,0.2,947.2,7.3,27.0,56,12.6,12.3,14.3,312.0,80.0,2.4,10,5,7,1,2026-07-22T20:35:37.961534+05:30
Gwalior,Madhya Pradesh,26.2183,78.1828,27.9,86,0.0,975.7,7.0,35.6,65,25.3,17.6,10.4,329.0,90.0,5.1,7,5,7,1,2026-07-22T20:35:37.961542+05:30
Indore,Madhya Pradesh,22.7196,75.8577,23.7,96,0.0,940.9,4.3,33.8,46,11.2,10.4,13.2,374.0,55.0,4.5,3,5,3,1,2026-07-22T20:35:37.961549+05:30
Bhopal,Madhya Pradesh,23.2599,77.4126,24.0,97,0.1,946.2,8.05,38.2,41,9.3,9.1,8.4,336.0,70.0,2.7,6,5,7,1,2026-07-22T20:35:37.961556+05:30
Jabalpur,Madhya Pradesh,23.1815,79.9864,24.2,97,0.1,954.7,6.75,28.4,37,7.0,6.9,9.7,187.0,51.0,3.6,6,5,7,1,2026-07-22T20:35:37.961563+05:30
Ujjain,Madhya Pradesh,23.1765,75.7885,24.0,96,0.1,946.4,4.5,30.2,45,12.0,10.8,8.1,326.0,58.0,3.4,6,5,3,1,2026-07-22T20:35:37.961571+05:30
Visakhapatnam,Andhra Pradesh,17.6868,83.2185,27.9,72,0.0,1001.6,8.65,54.4,64,22.8,17.0,18.9,278.0,55.0,31.7,7,5,4,1,2026-07-22T20:35:37.961578+05:30
Vijayawada,Andhra Pradesh,16.5062,80.648,28.1,76,0.0,1001.8,5.75,46.4,60,19.5,14.8,12.0,165.0,42.0,6.0,7,5,0,1,2026-07-22T20:35:37.961585+05:30
Guntur,Andhra Pradesh,16.3067,80.4365,28.2,76,0.1,1003.1,5.75,51.1,56,18.3,13.5,11.8,163.0,42.0,5.9,10,5,0,1,2026-07-22T20:35:37.961591+05:30
Nellore,Andhra Pradesh,14.4426,79.9865,28.1,86,0.0,1005.9,8.05,39.6,65,32.2,21.3,10.6,239.0,74.0,5.9,7,5,4,1,2026-07-22T20:35:37.961599+05:30
Kurnool,Andhra Pradesh,15.8281,78.0373,25.2,88,0.1,976.7,5.2,49.3,39,10.8,7.1,8.2,144.0,48.0,4.3,10,5,3,1,2026-07-22T20:35:37.961607+05:30
Kakinada,Andhra Pradesh,16.9891,82.2475,28.3,82,0.0,1006.1,7.9,56.5,62,21.2,15.1,7.1,345.0,64.0,4.9,7,5,4,1,2026-07-22T20:35:37.961613+05:30
Tirupati,Andhra Pradesh,13.6288,79.4192,26.1,86,0.0,991.7,8.45,38.2,70,12.1,9.0,15.6,340.0,44.0,2.4,7,5,7,1,2026-07-22T20:35:37.961620+05:30
Warangal,Telangana,17.9689,79.5941,25.8,82,0.0,977.0,3.35,40.7,50,15.0,12.3,11.4,214.0,46.0,5.2,7,5,3,1,2026-07-22T20:35:37.961626+05:30
Nizamabad,Telangana,18.6725,78.0941,23.6,95,0.3,962.1,1.85,41.8,37,10.9,7.6,6.4,168.0,45.0,2.9,6,5,3,1,2026-07-22T20:35:37.961633+05:30
Mysore,Karnataka,12.2958,76.6396,22.6,86,0.0,929.9,7.5,51.5,26,6.8,5.3,12.0,156.0,32.0,2.4,3,5,7,1,2026-07-22T20:35:37.961639+05:30
Mangalore,Karnataka,12.9141,74.856,24.6,96,0.0,1008.9,8.2,32.8,50,20.2,11.0,8.3,346.0,32.0,2.3,3,0,4,1,2026-07-22T20:35:37.961646+05:30
Hubli-Dharwad,Karnataka,15.3647,75.124,21.5,98,0.1,940.7,6.5,58.0,23,3.1,2.2,6.0,137.0,36.0,1.2,6,5,7,1,2026-07-22T20:35:37.961653+05:30
Belgaum,Karnataka,15.8497,74.4977,20.8,96,0.1,924.7,8.05,59.0,19,4.2,2.8,4.8,116.0,37.0,1.3,6,5,7,1,2026-07-22T20:35:41.348505+05:30
Coimbatore,Tamil Nadu,11.0168,76.9558,25.0,83,0.0,962.8,8.05,53.3,37,7.8,6.5,9.3,232.0,36.0,3.3,7,5,7,1,2026-07-22T20:35:41.348537+05:30
Madurai,Tamil Nadu,9.9252,78.1198,30.6,61,0.0,993.6,8.2,43.2,73,35.2,20.8,9.6,378.0,83.0,4.7,3,5,7,1,2026-07-22T20:35:41.348548+05:30
Trichy,Tamil Nadu,10.7905,78.7047,29.4,76,0.0,1000.5,7.95,40.3,56,21.2,16.7,16.7,217.0,53.0,4.5,7,5,4,1,2026-07-22T20:35:41.348557+05:30
Salem,Tamil Nadu,11.6643,78.146,27.4,80,0.0,978.4,8.3,38.2,64,22.5,16.8,23.2,353.0,41.0,11.1,7,5,7,1,2026-07-22T20:35:41.348565+05:30
Tirunelveli,Tamil Nadu,8.7139,77.7567,30.6,58,0.0,1003.8,8.65,51.1,45,10.4,7.6,5.7,142.0,50.0,2.2,0,5,4,1,2026-07-22T20:35:41.348573+05:30
Vellore,Tamil Nadu,12.9165,79.1325,26.1,92,0.0,985.2,8.9,62.3,70,24.3,20.4,24.9,287.0,28.0,5.3,7,5,7,1,2026-07-22T20:35:41.348580+05:30
Erode,Tamil Nadu,11.341,77.7172,29.4,64,0.0,990.0,8.3,45.7,54,13.3,10.9,18.1,212.0,36.0,3.7,7,5,7,1,2026-07-22T20:35:41.348588+05:30
Kochi,Kerala,9.9312,76.2673,27.3,86,0.0,1011.2,7.75,27.7,62,17.3,14.9,20.3,170.0,23.0,5.2,7,0,4,1,2026-07-22T20:35:41.348596+05:30
Thiruvananthapuram,Kerala,8.5241,76.9366,26.5,83,0.0,1010.5,8.15,37.1,51,12.2,7.9,5.4,119.0,44.0,1.7,7,0,4,1,2026-07-22T20:35:41.348603+05:30
Kozhikode,Kerala,11.2588,75.7804,25.1,96,0.1,1010.7,7.8,29.2,35,9.9,6.1,2.9,361.0,45.0,1.7,10,0,4,1,2026-07-22T20:35:41.348610+05:30
Thrissur,Kerala,10.5276,76.2144,26.1,90,0.0,1009.7,7.65,33.5,60,15.5,13.3,13.4,344.0,31.0,4.0,7,0,4,1,2026-07-22T20:35:41.348618+05:30
Kannur,Kerala,11.8745,75.3704,24.3,97,0.0,1009.7,7.45,24.8,41,15.9,11.8,17.3,321.0,19.0,3.2,3,0,4,1,2026-07-22T20:35:41.348625+05:30
Patna,Bihar,25.5941,85.1376,28.3,82,0.0,996.1,8.2,47.9,60,15.5,15.5,12.7,298.0,90.0,10.8,7,5,7,1,2026-07-22T20:35:41.348631+05:30
Gaya,Bihar,24.7914,85.0002,28.9,73,0.0,988.8,8.85,44.6,53,13.2,13.2,15.7,521.0,66.0,18.3,7,5,7,1,2026-07-22T20:35:41.348639+05:30
Muzaffarpur,Bihar,26.1209,85.3647,27.4,86,0.0,996.8,7.15,53.3,65,16.9,16.9,13.7,265.0,76.0,8.9,7,5,7,1,2026-07-22T20:35:41.348647+05:30
Bhagalpur,Bihar,25.2425,87.0117,27.2,88,0.1,998.3,7.05,43.6,57,15.1,15.1,14.2,244.0,66.0,9.1,10,5,7,1,2026-07-22T20:35:41.348655+05:30
Ranchi,Jharkhand,23.3441,85.3096,22.9,93,0.0,933.6,6.05,40.7,41,5.2,5.2,9.5,188.0,48.0,9.3,3,5,7,1,2026-07-22T20:35:41.348663+05:30
Jamshedpur,Jharkhand,22.8046,86.2029,25.4,94,0.1,987.5,7.6,23.8,60,15.9,15.7,21.5,350.0,39.0,23.4,10,5,7,1,2026-07-22T20:35:41.348670+05:30
Dhanbad,Jharkhand,23.7957,86.4304,25.6,91,0.0,976.2,7.05,41.0,78,33.5,32.9,53.8,1187.0,11.0,96.2,7,5,7,1,2026-07-22T20:35:41.348678+05:30
Bokaro,Jharkhand,23.6693,86.1511,26.1,87,0.0,979.9,8.65,38.2,78,19.9,19.6,27.4,1822.0,36.0,60.5,7,5,7,1,2026-07-22T20:35:41.348686+05:30
Bhubaneswar,Odisha,20.2961,85.8245,26.3,96,0.1,999.8,7.5,38.9,60,25.2,22.7,11.6,409.0,87.0,9.0,10,5,7,1,2026-07-22T20:35:41.348693+05:30
Cuttack,Odisha,20.4625,85.8828,26.5,95,0.1,1001.4,7.3,32.8,60,25.2,22.7,11.6,503.0,87.0,9.0,10,5,4,1,2026-07-22T20:35:41.348701+05:30
Rourkela,Odisha,22.2604,84.8536,24.6,94,0.0,981.6,1.8,30.6,52,6.6,6.3,7.5,245.0,51.0,2.9,3,5,3,1,2026-07-22T20:35:41.348709+05:30
Raipur,Chhattisgarh,21.2514,81.6296,24.0,95,0.2,970.4,0.6,49.3,55,12.7,10.6,16.0,208.0,39.0,24.8,6,5,3,1,2026-07-22T20:35:41.348716+05:30
Bhilai,Chhattisgarh,21.1938,81.3509,24.0,94,0.2,970.8,0.75,49.0,53,11.5,9.8,15.6,321.0,39.0,23.9,6,5,3,1,2026-07-22T20:35:41.348723+05:30
Guwahati,Assam,26.1158,91.7086,26.3,98,0.0,1000.1,8.65,21.2,47,9.5,9.3,8.7,215.0,45.0,1.9,7,5,4,1,2026-07-22T20:35:41.348731+05:30
Agartala,Tripura,23.8315,91.2868,25.6,94,0.0,1004.9,8.5,39.6,37,9.3,8.8,9.9,189.0,46.0,1.7,7,5,4,1,2026-07-22T20:35:41.348738+05:30
Shillong,Meghalaya,25.5788,91.8933,20.2,90,0.0,856.9,8.45,32.8,31,7.0,6.3,7.6,226.0,51.0,2.7,3,5,7,1,2026-07-22T20:35:41.348744+05:30
Imphal,Manipur,24.817,93.9368,22.2,96,0.1,923.0,8.6,32.4,50,14.3,14.0,17.6,372.0,28.0,3.1,6,5,7,1,2026-07-22T20:35:41.348752+05:30
Aizawl,Mizoram,23.7271,92.7176,19.4,97,0.0,891.5,8.15,40.0,26,3.2,2.6,4.2,143.0,46.0,0.6,3,10,7,1,2026-07-22T20:35:41.348759+05:30
Kohima,Nagaland,25.6701,94.1077,20.1,98,0.1,855.7,7.95,24.1,28,6.5,6.3,11.5,290.0,30.0,1.0,6,5,7,1,2026-07-22T20:35:41.348766+05:30
Gangtok,Sikkim,27.3314,88.6138,18.1,98,0.3,837.9,6.8,32.0,36,3.8,3.8,6.8,228.0,78.0,1.0,6,10,7,1,2026-07-22T20:35:41.348773+05:30
Siliguri,West Bengal,26.7271,88.3953,26.0,96,0.0,991.8,8.6,36.7,58,10.6,10.4,9.9,362.0,79.0,2.9,7,5,7,1,2026-07-22T20:35:44.727137+05:30
Durgapur,West Bengal,23.5204,87.3119,26.4,90,0.0,991.9,8.7,35.6,69,31.9,31.4,38.9,335.0,24.0,41.2,7,5,7,1,2026-07-22T20:35:44.727170+05:30
Asansol,West Bengal,23.6739,86.9524,26.1,91,0.0,990.4,8.4,36.7,65,27.6,27.1,46.6,410.0,13.0,53.3,7,5,7,1,2026-07-22T20:35:44.727181+05:30
Pondicherry,Puducherry,11.9139,79.8145,26.3,94,0.2,1009.7,7.3,40.7,70,28.6,19.4,9.9,218.0,80.0,3.8,10,0,4,1,2026-07-22T20:35:44.727191+05:30
Port Blair,Andaman and Nicobar Islands,11.6234,92.7265,27.6,82,0.0,1008.9,8.6,40.3,48,14.4,8.4,0.3,101.0,45.0,0.5,7,0,4,1,2026-07-22T20:35:44.727199+05:30
Haridwar,Uttarakhand,29.9457,78.1642,28.2,86,0.0,968.7,7.4,39.6,71,35.5,35.2,29.5,458.0,47.0,8.2,7,5,7,1,2026-07-22T20:35:44.727208+05:30
Rishikesh,Uttarakhand,30.0869,78.2676,27.8,84,0.0,961.7,7.25,28.8,56,14.3,14.0,10.3,399.0,73.0,3.0,7,5,7,1,2026-07-22T20:35:44.727215+05:30
Nainital,Uttarakhand,29.3919,79.4542,17.8,90,0.0,803.8,6.45,49.7,54,16.8,16.6,12.6,327.0,63.0,2.4,3,10,7,1,2026-07-22T20:35:44.727222+05:30
Mussoorie,Uttarakhand,30.4599,78.0664,17.3,100,0.0,800.7,7.6,35.3,55,21.7,21.4,33.6,395.0,43.0,6.1,3,10,7,1,2026-07-22T20:35:44.727230+05:30
Dharamshala,Himachal Pradesh,32.219,76.3234,22.0,88,0.0,865.6,6.3,23.8,41,7.1,6.9,20.2,646.0,40.0,0.9,3,5,7,1,2026-07-22T20:35:44.727237+05:30
Dalhousie,Himachal Pradesh,32.5387,75.971,17.6,95,0.0,802.1,1.7,21.2,62,19.4,19.1,31.8,810.0,74.0,2.8,3,10,3,1,2026-07-22T20:35:44.727245+05:30
Patiala,Punjab,30.3398,76.3869,28.6,83,0.0,972.0,6.45,45.4,89,53.9,50.6,36.8,616.0,55.0,10.8,7,5,7,1,2026-07-22T20:35:44.727253+05:30
Bhatinda,Punjab,30.211,74.9455,28.9,81,0.0,976.8,7.65,43.6,92,40.0,39.8,19.4,415.0,82.0,10.2,7,5,7,1,2026-07-22T20:35:44.727259+05:30
Rohtak,Haryana,28.8955,76.6066,29.0,81,0.0,975.1,6.2,42.5,159,65.4,43.2,37.0,477.0,83.0,23.4,7,5,7,1,2026-07-22T20:35:44.727266+05:30
Panipat,Haryana,29.3909,76.9635,28.7,84,0.0,974.3,7.45,41.8,153,57.3,38.9,21.0,490.0,84.0,9.9,7,5,7,1,2026-07-22T20:35:44.727273+05:30
Mathura,Uttar Pradesh,27.4924,77.6737,29.6,77,0.0,979.7,7.2,38.9,89,41.0,27.8,29.5,334.0,70.0,7.3,7,5,7,1,2026-07-22T20:35:44.727280+05:30
Vrindavan,Uttar Pradesh,27.5823,77.7027,29.8,75,0.0,980.2,7.05,38.5,89,41.0,27.8,29.5,339.0,70.0,7.3,7,5,7,1,2026-07-22T20:35:44.727287+05:30
Ayodhya,Uttar Pradesh,26.7922,82.1998,27.2,87,0.0,990.1,8.0,48.6,76,17.0,17.0,9.6,328.0,83.0,4.7,7,5,7,1,2026-07-22T20:35:44.727294+05:30
Ratlam,Madhya Pradesh,23.3315,75.0367,24.0,97,0.0,947.2,0.8,31.7,44,12.4,10.5,7.5,189.0,58.0,3.7,3,5,3,1,2026-07-22T20:35:44.727301+05:30
Sagar,Madhya Pradesh,23.8388,78.7378,23.7,98,0.0,942.9,7.9,24.5,41,5.4,5.4,5.7,212.0,71.0,1.6,3,5,7,1,2026-07-22T20:35:44.727307+05:30
Satna,Madhya Pradesh,24.6005,80.8322,25.8,92,0.1,964.3,7.9,27.7,57,10.7,10.7,7.0,336.0,93.0,5.2,10,5,7,1,2026-07-22T20:35:44.727314+05:30
Akola,Maharashtra,20.7002,77.0082,24.9,93,0.1,969.8,0.8,50.0,24,4.1,3.9,7.8,171.0,44.0,4.8,6,5,3,1,2026-07-22T20:35:44.727322+05:30
Amravati,Maharashtra,20.9374,77.7796,24.1,96,0.2,962.5,1.2,42.1,23,3.6,3.5,8.0,160.0,43.0,4.8,6,5,3,1,2026-07-22T20:35:44.727331+05:30
Latur,Maharashtra,18.4088,76.5604,23.5,86,0.1,937.0,3.75,55.8,23,10.0,5.5,4.5,140.0,44.0,1.9,6,5,3,1,2026-07-22T20:35:44.727338+05:30
Nanded,Maharashtra,19.1383,77.3091,24.1,91,0.1,965.4,0.8,38.2,31,10.2,6.3,6.2,179.0,44.0,4.0,6,5,3,1,2026-07-22T20:35:44.727345+05:30
Gulbarga,Karnataka,17.3297,76.8343,24.1,85,0.0,957.3,2.85,52.6,29,5.6,4.1,7.6,130.0,35.0,2.7,3,5,3,1,2026-07-22T20:35:44.727351+05:30
Bidar,Karnataka,17.9104,77.5199,22.4,93,0.2,933.0,1.7,55.1,30,8.8,6.4,9.0,143.0,43.0,2.4,6,5,3,1,2026-07-22T20:35:44.727358+05:30
Hospet,Karnataka,15.2689,76.3909,24.6,79,0.0,956.1,4.9,58.7,25,5.6,3.7,6.3,122.0,38.0,1.6,3,5,3,1,2026-07-22T20:35:44.727365+05:30
Tirupur,Tamil Nadu,11.1085,77.3411,26.2,78,0.0,976.1,8.15,51.8,56,14.7,12.2,18.9,207.0,35.0,4.7,7,5,7,1,2026-07-22T20:35:44.727372+05:30
Alappuzha,Kerala,9.4981,76.3388,27.1,87,0.0,1011.3,7.25,29.5,59,14.4,10.6,11.9,89.0,39.0,3.6,7,0,4,1,2026-07-22T20:35:44.727379+05:30
Munnar,Kerala,10.0889,77.0595,17.0,99,0.0,858.3,8.05,34.6,42,9.4,7.8,9.2,124.0,41.0,2.2,3,10,7,1,2026-07-22T20:35:44.727386+05:30
Silchar,Assam,24.8333,92.7789,25.8,96,0.2,1004.4,8.75,25.9,52,19.6,18.0,8.4,223.0,63.0,6.5,10,5,4,1,2026-07-22T20:35:44.727392+05:30
Dibrugarh,Assam,27.4728,94.912,27.5,86,0.0,993.9,5.0,22.0,55,17.6,17.2,14.0,296.0,55.0,2.5,7,5,3,1,2026-07-22T20:35:44.727398+05:30
