city,state,latitude,longitude,temp,humidity,rain,pressure,uv_index,wind_gusts,aqi,pm10,pm2_5,mosquito_risk,arthritis_risk,migraine_risk,frizz_risk,updated_at
Delhi,Delhi,28.6139,77.209,27.8,44,0.0,985.3,5.95,26.6,191,233.3,55.6,4,5,3,0,2026-03-18T18:50:20.124088+05:30
Mumbai,Maharashtra,19.076,72.8777,27.6,65,0.0,1008.9,7.7,21.6,112,29.8,12.5,7,0,4,1,2026-03-18T18:50:20.124133+05:30
Bangalore,Karnataka,12.9716,77.5946,27.6,39,0.0,911.9,9.35,24.8,87,29.3,26.1,4,5,7,0,2026-03-18T18:50:20.124150+05:30
Hyderabad,Telangana,17.385,78.4867,27.3,50,0.0,954.9,7.45,22.0,112,42.4,36.2,4,5,7,0,2026-03-18T18:50:20.124160+05:30
Chennai,Tamil Nadu,13.0827,80.2707,27.8,73,0.0,1009.0,9.1,29.9,36,10.1,6.8,7,0,4,1,2026-03-18T18:50:20.124169+05:30
Kolkata,West Bengal,22.5726,88.3639,25.7,77,0.0,1009.4,7.85,33.8,87,31.2,27.9,7,0,4,1,2026-03-18T18:50:20.124179+05:30
Pune,Maharashtra,18.5204,73.8567,28.1,49,0.0,948.5,8.25,40.0,145,36.9,26.8,4,5,7,1,2026-03-18T18:50:20.124191+05:30
Ahmedabad,Gujarat,23.0225,72.5714,32.9,27,0.0,1001.6,7.6,24.1,99,28.6,14.5,0,5,4,0,2026-03-18T18:50:20.124199+05:30
Jaipur,Rajasthan,26.9124,75.7873,28.0,36,0.0,960.9,7.0,27.7,176,85.4,22.8,4,5,7,0,2026-03-18T18:50:20.124208+05:30
Lucknow,Uttar Pradesh,26.8467,80.9462,29.0,31,0.0,994.9,6.55,24.1,109,63.1,26.1,4,5,7,0,2026-03-18T18:50:20.124216+05:30
Kanpur,Uttar Pradesh,26.4499,80.3319,27.8,42,0.0,992.8,6.5,21.6,118,175.6,37.8,4,5,7,0,2026-03-18T18:50:20.124223+05:30
Chandigarh,Chandigarh,30.7333,76.7794,20.4,51,0.0,971.5,5.4,25.6,89,41.3,21.5,0,5,3,0,2026-03-18T18:50:20.124231+05:30
Srinagar,Jammu and Kashmir,34.0837,74.7973,6.9,82,0.2,841.2,3.85,19.8,151,40.0,25.7,6,10,3,0,2026-03-18T18:50:20.124239+05:30
Jammu,Jammu and Kashmir,32.7266,74.857,17.9,80,0.0,977.8,2.95,15.5,91,31.2,17.2,3,5,3,0,2026-03-18T18:50:20.124247+05:30
Amritsar,Punjab,31.634,74.8723,16.7,87,0.0,985.7,3.95,25.6,126,55.4,25.6,3,10,3,0,2026-03-18T18:50:20.124256+05:30
Ludhiana,Punjab,30.901,75.8573,18.4,70,0.0,982.7,5.35,37.8,142,33.2,20.1,3,5,3,0,2026-03-18T18:50:20.124266+05:30
Jalandhar,Punjab,31.326,75.5762,16.6,81,0.0,984.5,4.8,38.9,130,35.6,19.8,3,10,3,0,2026-03-18T18:50:20.124275+05:30
Dehradun,Uttarakhand,30.6284,78.0322,13.8,47,0.0,831.7,5.4,29.5,62,51.8,15.0,0,5,3,0,2026-03-18T18:50:20.124282+05:30
Shimla,Himachal Pradesh,31.1048,77.1734,10.3,73,0.5,784.6,4.9,45.0,64,38.5,17.9,6,5,3,0,2026-03-18T18:50:20.124288+05:30
Manali,Himachal Pradesh,32.2396,77.1887,9.2,97,0.5,818.5,6.1,24.5,57,21.1,6.2,6,10,7,0,2026-03-18T18:50:20.124296+05:30
Gurgaon,Haryana,28.4595,77.0266,24.7,57,0.0,983.7,6.3,24.8,658,1125.0,148.1,0,5,7,0,2026-03-18T18:50:20.124302+05:30
Noida,Uttar Pradesh,28.5355,77.391,27.5,45,0.0,986.8,6.2,19.4,658,1125.0,148.1,4,5,7,0,2026-03-18T18:50:20.124309+05:30
Ghaziabad,Uttar Pradesh,28.6692,77.4538,27.3,44,0.0,984.8,6.1,17.6,155,124.8,49.2,4,5,7,0,2026-03-18T18:50:20.124315+05:30
Faridabad,Haryana,28.4089,77.3178,26.5,46,0.0,986.1,6.25,20.9,658,1125.0,148.1,4,5,7,0,2026-03-18T18:50:20.124322+05:30
Meerut,Uttar Pradesh,28.9845,77.7064,25.9,46,0.0,983.4,5.55,17.6,155,124.8,49.2,4,5,3,0,2026-03-18T18:50:20.124329+05:30
Agra,Uttar Pradesh,27.1767,78.0081,28.3,43,0.0,989.3,6.55,26.3,328,1121.3,120.1,4,5,7,0,2026-03-18T18:50:20.124336+05:30
Varanasi,Uttar Pradesh,25.3176,82.9739,29.4,49,0.0,997.8,6.7,17.6,141,43.1,32.5,4,5,7,1,2026-03-18T18:50:20.124346+05:30
Prayagraj,Uttar Pradesh,25.4358,81.8463,29.4,47,0.0,996.4,6.5,14.8,138,38.6,24.9,4,5,7,1,2026-03-18T18:50:20.124354+05:30
Gorakhpur,Uttar Pradesh,26.7606,83.3732,27.0,59,0.0,998.0,6.45,22.0,122,45.6,24.2,4,5,7,1,2026-03-18T18:50:20.124363+05:30
Bareilly,Uttar Pradesh,28.367,79.4304,26.7,50,0.0,988.5,6.4,13.0,123,51.5,30.6,4,5,7,0,2026-03-18T18:50:20.124370+05:30
Aligarh,Uttar Pradesh,27.8974,78.088,26.7,46,0.0,987.5,6.35,15.5,154,132.7,47.8,4,5,7,0,2026-03-18T18:50:20.124377+05:30
Moradabad,Uttar Pradesh,28.8386,78.7733,27.3,47,0.0,985.5,5.95,11.2,149,97.3,50.6,4,5,3,0,2026-03-18T18:50:20.124386+05:30
Saharanpur,Uttar Pradesh,29.9637,77.546,22.6,50,0.0,978.3,5.35,21.2,118,65.2,44.5,0,5,3,0,2026-03-18T18:50:20.124392+05:30
Jhansi,Uttar Pradesh,25.4484,78.5685,27.6,41,0.0,978.2,7.2,41.0,114,40.6,18.0,4,5,7,0,2026-03-18T18:50:23.489675+05:30
Surat,Gujarat,21.1702,72.8311,26.2,71,0.0,1006.9,7.4,27.4,80,38.8,26.1,7,5,4,1,2026-03-18T18:50:23.489708+05:30
Vadodara,Gujarat,22.3072,73.1812,31.2,26,0.0,1003.9,7.55,26.6,111,28.0,20.4,0,5,4,0,2026-03-18T18:50:23.489718+05:30
Rajkot,Gujarat,22.3039,70.8022,33.2,28,0.0,993.4,7.05,40.3,62,17.1,7.9,0,5,7,0,2026-03-18T18:50:23.489727+05:30
Thane,Maharashtra,19.2183,72.9781,27.3,60,0.0,1008.4,7.7,34.9,112,29.8,12.5,4,0,4,1,2026-03-18T18:50:23.489734+05:30
Nagpur,Maharashtra,21.1458,79.0882,27.4,56,0.0,974.6,5.65,29.9,113,50.5,40.5,4,5,3,1,2026-03-18T18:50:23.489742+05:30
Nashik,Maharashtra,19.9975,73.7898,27.2,48,0.0,945.5,7.95,29.2,126,20.5,11.8,4,5,7,0,2026-03-18T18:50:23.489749+05:30
Aurangabad,Maharashtra,19.8762,75.3433,30.7,26,0.0,943.5,8.45,29.2,122,27.4,19.6,0,5,7,0,2026-03-18T18:50:23.489756+05:30
Solapur,Maharashtra,17.6599,75.9064,28.2,45,0.0,957.9,8.6,31.7,153,38.9,31.8,4,5,7,0,2026-03-18T18:50:23.489764+05:30
Kolhapur,Maharashtra,16.705,74.2433,25.6,55,0.0,948.4,8.75,36.0,157,39.0,33.2,4,5,7,0,2026-03-18T18:50:23.489772+05:30
Goa,Goa,15.2993,74.124,28.7,64,0.0,998.4,8.75,26.6,98,45.8,23.1,7,5,7,1,2026-03-18T18:50:23.489779+05:30
Jodhpur,Rajasthan,26.2389,73.0243,29.2,30,0.0,983.8,7.05,42.1,70,167.2,25.0,4,5,7,0,2026-03-18T18:50:23.489786+05:30
Udaipur,Rajasthan,24.5854,73.7125,27.0,32,0.0,947.1,7.95,23.4,76,15.1,6.5,4,5,7,0,2026-03-18T18:50:23.489793+05:30
Kota,Rajasthan,25.2138,75.8648,30.9,29,0.0,978.3,7.3,18.7,112,26.2,16.8,0,5,7,0,2026-03-18T18:50:23.489800+05:30
Bikaner,Rajasthan,28.0229,73.3119,23.1,52,0.0,983.9,5.6,42.8,54,30.9,9.4,0,5,3,0,2026-03-18T18:50:23.489808+05:30
Ajmer,Rajasthan,26.4499,74.6399,29.0,27,0.0,954.9,7.25,27.4,97,35.7,12.3,4,5,7,0,2026-03-18T18:50:23.489814+05:30
Gwalior,Madhya Pradesh,26.2183,78.1828,29.6,38,0.0,984.0,6.9,27.0,117,62.6,20.6,4,5,7,0,2026-03-18T18:50:23.489838+05:30
Indore,Madhya Pradesh,22.7196,75.8577,28.7,28,0.0,947.6,7.85,27.0,128,18.6,15.8,4,5,7,0,2026-03-18T18:50:23.489847+05:30
Bhopal,Madhya Pradesh,23.2599,77.4126,29.5,25,0.0,953.2,7.75,32.0,127,15.7,12.9,4,5,7,0,2026-03-18T18:50:23.489854+05:30
Jabalpur,Madhya Pradesh,23.1815,79.9864,29.0,35,0.0,962.1,6.5,29.9,119,23.7,18.9,4,5,7,0,2026-03-18T18:50:23.489861+05:30
Ujjain,Madhya Pradesh,23.1765,75.7885,28.0,32,0.0,953.4,7.75,23.4,106,19.0,16.3,4,5,7,0,2026-03-18T18:50:23.489869+05:30
Visakhapatnam,Andhra Pradesh,17.6868,83.2185,26.3,75,0.0,1006.6,8.0,32.0,48,11.2,9.7,7,5,4,1,2026-03-18T18:50:23.489877+05:30
Vijayawada,Andhra Pradesh,16.5062,80.648,29.1,55,0.0,1004.3,8.55,22.7,53,16.1,14.5,4,5,4,1,2026-03-18T18:50:23.489884+05:30
Guntur,Andhra Pradesh,16.3067,80.4365,28.8,59,0.0,1005.6,8.65,23.0,50,17.3,15.5,4,5,4,1,2026-03-18T18:50:23.489891+05:30
Nellore,Andhra Pradesh,14.4426,79.9865,27.7,69,0.0,1007.8,8.95,29.2,38,9.1,6.1,7,5,4,1,2026-03-18T18:50:23.489899+05:30
Kurnool,Andhra Pradesh,15.8281,78.0373,25.7,63,0.0,979.2,8.5,37.8,88,35.2,28.8,7,5,7,1,2026-03-18T18:50:23.489906+05:30
Kakinada,Andhra Pradesh,16.9891,82.2475,26.9,69,0.0,1010.0,8.45,28.1,43,7.3,5.4,7,0,4,1,2026-03-18T18:50:23.489913+05:30
Tirupati,Andhra Pradesh,13.6288,79.4192,27.9,57,0.0,992.8,9.1,36.4,62,18.6,16.5,4,5,7,1,2026-03-18T18:50:23.489920+05:30
Warangal,Telangana,17.9689,79.5941,28.4,55,0.0,980.4,8.15,27.0,64,47.6,39.5,4,5,7,1,2026-03-18T18:50:23.489927+05:30
Nizamabad,Telangana,18.6725,78.0941,27.4,51,0.0,966.3,7.5,38.2,116,47.6,42.0,4,5,7,1,2026-03-18T18:50:23.489934+05:30
Mysore,Karnataka,12.2958,76.6396,24.2,65,0.0,928.5,9.3,23.8,95,29.5,26.5,3,5,7,1,2026-03-18T18:50:23.489941+05:30
Mangalore,Karnataka,12.9141,74.856,28.9,75,0.0,1007.0,9.0,19.8,104,31.5,18.5,7,5,4,1,2026-03-18T18:50:23.489948+05:30
Hubli-Dharwad,Karnataka,15.3647,75.124,23.4,72,0.0,941.5,8.95,44.6,151,41.9,38.6,3,5,7,1,2026-03-18T18:50:23.489955+05:30
Belgaum,Karnataka,15.8497,74.4977,23.4,68,0.0,926.0,9.0,21.2,157,36.8,30.2,3,5,7,1,2026-03-18T18:50:26.844021+05:30
Coimbatore,Tamil Nadu,11.0168,76.9558,26.9,61,0.0,962.2,9.0,29.9,85,21.9,20.3,7,5,7,1,2026-03-18T18:50:26.844054+05:30
Madurai,Tamil Nadu,9.9252,78.1198,27.2,77,0.0,994.5,8.1,36.7,63,12.2,10.7,7,5,7,1,2026-03-18T18:50:26.844067+05:30
Trichy,Tamil Nadu,10.7905,78.7047,27.7,74,0.0,1001.0,8.4,28.8,54,14.5,12.9,7,5,4,1,2026-03-18T18:50:26.844077+05:30
Salem,Tamil Nadu,11.6643,78.146,29.1,52,0.0,977.7,8.15,31.7,77,18.0,15.7,4,5,7,1,2026-03-18T18:50:26.844087+05:30
Tirunelveli,Tamil Nadu,8.7139,77.7567,28.2,76,0.0,1004.3,8.25,33.5,80,19.3,18.6,7,5,4,1,2026-03-18T18:50:26.844097+05:30
Vellore,Tamil Nadu,12.9165,79.1325,27.1,63,0.0,986.0,9.15,32.4,58,13.2,11.0,7,5,7,1,2026-03-18T18:50:26.844106+05:30
Erode,Tamil Nadu,11.341,77.7172,32.3,41,0.0,989.0,9.2,31.3,60,17.1,15.0,0,5,7,1,2026-03-18T18:50:26.844115+05:30
Kochi,Kerala,9.9312,76.2673,28.5,77,0.0,1009.0,9.05,23.8,117,15.0,14.2,7,0,4,1,2026-03-18T18:50:26.844125+05:30
Thiruvananthapuram,Kerala,8.5241,76.9366,28.1,78,0.0,1008.6,8.7,17.6,90,11.2,9.7,7,0,4,1,2026-03-18T18:50:26.844134+05:30
Kozhikode,Kerala,11.2588,75.7804,29.0,76,0.0,1007.9,8.6,25.9,114,17.4,13.0,7,5,4,1,2026-03-18T18:50:26.844143+05:30
Thrissur,Kerala,10.5276,76.2144,28.6,77,0.0,1007.1,8.05,30.6,111,16.1,15.1,7,5,4,1,2026-03-18T18:50:26.844152+05:30
Kannur,Kerala,11.8745,75.3704,29.0,73,0.0,1007.2,9.05,26.6,97,19.4,14.4,7,5,4,1,2026-03-18T18:50:26.844161+05:30
Patna,Bihar,25.5941,85.1376,29.3,50,0.0,1001.4,6.75,20.2,171,74.3,55.1,4,5,4,1,2026-03-18T18:50:26.844170+05:30
Gaya,Bihar,24.7914,85.0002,27.3,57,0.0,994.6,6.55,19.4,144,52.0,39.5,4,5,7,1,2026-03-18T18:50:26.844178+05:30
Muzaffarpur,Bihar,26.1209,85.3647,28.2,56,0.0,1001.4,6.95,21.6,171,76.4,55.2,4,5,4,1,2026-03-18T18:50:26.844187+05:30
Bhagalpur,Bihar,25.2425,87.0117,27.8,62,0.0,1002.8,7.15,27.7,160,69.6,46.6,7,5,4,1,2026-03-18T18:50:26.844195+05:30
Ranchi,Jharkhand,23.3441,85.3096,25.7,45,0.0,940.1,7.6,34.2,124,33.9,30.2,4,5,7,0,2026-03-18T18:50:26.844204+05:30
Jamshedpur,Jharkhand,22.8046,86.2029,30.1,43,0.0,992.8,8.15,39.6,167,40.0,33.3,0,5,7,1,2026-03-18T18:50:26.844214+05:30
Dhanbad,Jharkhand,23.7957,86.4304,28.6,45,0.0,981.4,7.9,34.2,154,49.7,43.4,4,5,7,0,2026-03-18T18:50:26.844223+05:30
Bokaro,Jharkhand,23.6693,86.1511,27.8,49,0.0,985.8,7.85,39.6,150,37.7,31.7,4,5,7,1,2026-03-18T18:50:26.844232+05:30
Bhubaneswar,Odisha,20.2961,85.8245,26.0,78,0.0,1005.7,8.25,26.3,113,40.9,33.6,7,5,4,1,2026-03-18T18:50:26.844240+05:30
Cuttack,Odisha,20.4625,85.8828,26.9,75,0.0,1007.4,8.1,23.4,113,40.9,33.6,7,5,4,1,2026-03-18T18:50:26.844249+05:30
Rourkela,Odisha,22.2604,84.8536,30.2,42,0.0,987.3,7.85,25.9,175,52.2,45.2,0,5,7,0,2026-03-18T18:50:26.844258+05:30
Raipur,Chhattisgarh,21.2514,81.6296,28.6,49,0.0,977.3,6.95,48.2,114,37.1,33.2,4,5,7,1,2026-03-18T18:50:26.844266+05:30
Bhilai,Chhattisgarh,21.1938,81.3509,27.8,55,0.0,977.5,7.05,42.5,105,43.9,37.0,4,5,7,1,2026-03-18T18:50:26.844275+05:30
Guwahati,Assam,26.1158,91.7086,26.4,74,0.0,1003.8,7.45,38.9,112,48.4,41.1,7,5,4,1,2026-03-18T18:50:26.844284+05:30
Agartala,Tripura,23.8315,91.2868,22.9,85,0.0,1009.8,7.85,29.2,58,44.7,40.4,3,0,4,1,2026-03-18T18:50:26.844293+05:30
Shillong,Meghalaya,25.5788,91.8933,13.0,88,0.0,857.8,7.85,61.9,102,39.2,30.3,3,10,7,0,2026-03-18T18:50:26.844302+05:30
Imphal,Manipur,24.817,93.9368,17.3,81,0.0,926.3,8.1,66.2,84,34.6,25.0,3,10,7,0,2026-03-18T18:50:26.844310+05:30
Aizawl,Mizoram,23.7271,92.7176,19.4,77,0.0,895.5,8.05,44.3,71,25.5,19.7,3,5,7,0,2026-03-18T18:50:26.844319+05:30
Kohima,Nagaland,25.6701,94.1077,14.8,63,0.0,856.7,8.0,100.8,72,39.0,26.4,3,5,7,0,2026-03-18T18:50:26.844327+05:30
Gangtok,Sikkim,27.3314,88.6138,15.4,71,0.0,838.3,7.8,16.2,105,65.0,38.4,3,5,7,0,2026-03-18T18:50:26.844336+05:30
Siliguri,West Bengal,26.7271,88.3953,23.2,60,0.0,995.8,7.2,24.1,119,57.6,41.3,0,5,7,0,2026-03-18T18:50:30.197083+05:30
Durgapur,West Bengal,23.5204,87.3119,25.5,64,0.0,997.6,8.05,33.8,154,62.9,56.3,7,5,7,1,2026-03-18T18:50:30.197116+05:30
Asansol,West Bengal,23.6739,86.9524,27.2,55,0.0,996.3,8.05,40.0,153,54.4,47.6,4,5,7,1,2026-03-18T18:50:30.197127+05:30
Pondicherry,Puducherry,11.9139,79.8145,27.4,78,0.0,1010.0,9.1,27.4,40,10.2,7.0,7,0,4,1,2026-03-18T18:50:30.197136+05:30
Port Blair,Andaman and Nicobar Islands,11.6234,92.7265,27.6,80,0.0,1009.4,9.05,23.8,49,12.4,9.7,7,0,4,1,2026-03-18T18:50:30.197145+05:30
Haridwar,Uttarakhand,29.9457,78.1642,23.9,34,0.0,976.6,5.55,25.9,79,46.3,25.5,0,5,3,0,2026-03-18T18:50:30.197154+05:30
Rishikesh,Uttarakhand,30.0869,78.2676,22.6,44,0.0,969.2,5.1,26.3,73,36.2,14.1,0,5,3,0,2026-03-18T18:50:30.197162+05:30
Nainital,Uttarakhand,29.3919,79.4542,18.0,37,0.0,807.3,5.95,31.0,102,43.4,24.7,0,5,3,0,2026-03-18T18:50:30.197170+05:30
Mussoorie,Uttarakhand,30.4599,78.0664,16.1,35,0.0,804.3,5.35,32.4,76,40.3,18.0,0,5,3,0,2026-03-18T18:50:30.197179+05:30
Dharamshala,Himachal Pradesh,32.219,76.3234,14.8,53,0.1,870.4,4.15,38.5,49,27.0,9.6,3,5,3,0,2026-03-18T18:50:30.197187+05:30
Dalhousie,Himachal Pradesh,32.5387,75.971,10.9,60,0.2,803.9,4.75,31.0,77,36.3,19.1,3,5,3,0,2026-03-18T18:50:30.197196+05:30
Patiala,Punjab,30.3398,76.3869,20.7,72,0.0,981.2,4.65,29.5,144,41.8,29.8,3,5,3,0,2026-03-18T18:50:30.197204+05:30
Bhatinda,Punjab,30.211,74.9455,19.1,70,0.0,987.3,6.0,34.6,115,72.2,27.2,3,5,3,0,2026-03-18T18:50:30.197212+05:30
Rohtak,Haryana,28.8955,76.6066,23.3,68,0.0,985.0,6.1,28.8,315,364.1,75.0,3,5,7,1,2026-03-18T18:50:30.197221+05:30
Panipat,Haryana,29.3909,76.9635,24.5,56,0.0,983.0,5.8,19.1,298,295.2,53.2,0,5,3,0,2026-03-18T18:50:30.197229+05:30
Mathura,Uttar Pradesh,27.4924,77.6737,28.0,43,0.0,988.5,6.45,21.2,427,976.0,117.3,4,5,7,0,2026-03-18T18:50:30.197237+05:30
Vrindavan,Uttar Pradesh,27.5823,77.7027,27.5,44,0.0,988.9,6.45,20.5,427,976.0,117.3,4,5,7,0,2026-03-18T18:50:30.197245+05:30
Ayodhya,Uttar Pradesh,26.7922,82.1998,28.1,34,0.0,996.5,6.4,23.4,104,69.2,33.5,4,5,7,0,2026-03-18T18:50:30.197253+05:30
Ratlam,Madhya Pradesh,23.3315,75.0367,28.3,39,0.0,954.3,7.7,25.6,107,15.1,12.3,4,5,7,0,2026-03-18T18:50:30.197261+05:30
Sagar,Madhya Pradesh,23.8388,78.7378,28.9,32,0.0,950.0,7.6,35.3,100,10.6,8.3,4,5,7,0,2026-03-18T18:50:30.197269+05:30
Satna,Madhya Pradesh,24.6005,80.8322,31.2,21,0.0,971.6,7.0,28.1,101,16.0,10.2,0,5,7,0,2026-03-18T18:50:30.197277+05:30
Akola,Maharashtra,20.7002,77.0082,32.0,29,0.0,974.5,8.15,21.2,133,47.0,37.8,0,5,7,0,2026-03-18T18:50:30.197285+05:30
Amravati,Maharashtra,20.9374,77.7796,29.7,36,0.0,967.3,7.2,45.4,128,43.7,35.2,4,5,7,0,2026-03-18T18:50:30.197293+05:30
Latur,Maharashtra,18.4088,76.5604,26.7,47,0.0,940.6,8.55,27.7,128,39.1,32.9,4,5,7,0,2026-03-18T18:50:30.197301+05:30
Nanded,Maharashtra,19.1383,77.3091,29.2,41,0.0,969.5,7.9,24.5,112,32.0,26.5,4,5,7,0,2026-03-18T18:50:30.197309+05:30
Gulbarga,Karnataka,17.3297,76.8343,27.0,54,0.0,960.0,8.6,43.2,165,37.5,31.1,4,5,7,1,2026-03-18T18:50:30.197316+05:30
Bidar,Karnataka,17.9104,77.5199,25.5,56,0.0,936.8,8.6,30.2,129,37.4,32.4,4,5,7,1,2026-03-18T18:50:30.197324+05:30
Hospet,Karnataka,15.2689,76.3909,26.4,66,0.0,956.8,8.9,22.7,148,39.0,33.6,7,5,7,1,2026-03-18T18:50:30.197332+05:30
Tirupur,Tamil Nadu,11.1085,77.3411,31.3,41,0.0,975.4,9.2,31.7,75,20.5,18.3,0,5,7,1,2026-03-18T18:50:30.197339+05:30
Alappuzha,Kerala,9.4981,76.3388,28.2,79,0.0,1009.3,8.5,20.5,113,13.1,11.4,7,0,4,1,2026-03-18T18:50:30.197347+05:30
Munnar,Kerala,10.0889,77.0595,21.5,86,0.0,857.5,9.55,31.3,81,18.1,16.9,3,5,7,1,2026-03-18T18:50:30.197355+05:30
Silchar,Assam,24.8333,92.7789,24.6,80,0.0,1009.1,7.8,43.6,89,34.3,29.5,3,0,4,1,2026-03-18T18:50:30.197363+05:30
Dibrugarh,Assam,27.4728,94.912,21.1,85,0.0,1001.1,7.55,28.1,78,42.6,33.2,3,5,4,1,2026-03-18T18:50:30.197370+05:30
