city,state,latitude,longitude,temp,humidity,rain,pressure,uv_index,wind_gusts,aqi,pm10,pm2_5,no2,co,o3,so2,mosquito_risk,arthritis_risk,migraine_risk,frizz_risk,updated_at
Delhi,Delhi,28.6139,77.209,31.4,24,0.0,978.0,7.75,39.6,479,666.8,142.0,25.1,187.0,43.0,12.5,0,5,7,0,2026-05-25T05:33:19.161881+05:30
Mumbai,Maharashtra,19.076,72.8777,29.2,81,0.0,1008.6,7.8,44.6,46,21.8,14.9,7.2,229.0,42.0,5.5,7,0,4,1,2026-05-25T05:33:19.161930+05:30
Bangalore,Karnataka,12.9716,77.5946,21.1,97,0.0,911.7,8.1,27.0,57,20.5,18.7,12.1,266.0,50.0,4.6,3,5,7,1,2026-05-25T05:33:19.161947+05:30
Hyderabad,Telangana,17.385,78.4867,29.2,52,0.0,952.1,9.2,37.8,57,17.2,14.8,8.6,205.0,56.0,5.6,4,5,7,1,2026-05-25T05:33:19.161959+05:30
Chennai,Tamil Nadu,13.0827,80.2707,30.0,58,0.0,1004.5,9.05,46.8,77,22.7,21.0,12.5,296.0,62.0,7.3,4,5,4,1,2026-05-25T05:33:19.161968+05:30
Kolkata,West Bengal,22.5726,88.3639,29.5,89,0.0,1003.5,8.95,45.4,104,38.4,32.0,5.5,243.0,85.0,5.1,7,5,4,1,2026-05-25T05:33:19.161978+05:30
Pune,Maharashtra,18.5204,73.8567,23.6,96,0.0,948.3,8.45,42.8,34,10.7,8.8,10.8,147.0,30.0,9.3,3,5,7,1,2026-05-25T05:33:19.161986+05:30
Ahmedabad,Gujarat,23.0225,72.5714,28.5,76,0.0,1001.8,8.15,34.9,48,23.1,13.4,5.1,124.0,43.0,4.7,7,5,4,1,2026-05-25T05:33:19.161995+05:30
Jaipur,Rajasthan,26.9124,75.7873,30.9,35,0.0,956.8,8.25,47.2,248,339.9,64.5,2.6,140.0,63.0,2.8,0,5,7,0,2026-05-25T05:33:19.162003+05:30
Lucknow,Uttar Pradesh,26.8467,80.9462,31.5,36,0.0,988.1,8.2,65.2,218,429.3,113.6,47.0,286.0,29.0,16.8,0,5,7,0,2026-05-25T05:33:19.162010+05:30
Kanpur,Uttar Pradesh,26.4499,80.3319,32.2,27,0.0,986.8,8.2,50.8,489,360.4,76.6,20.9,197.0,41.0,7.8,0,5,7,0,2026-05-25T05:33:19.162025+05:30
Chandigarh,Chandigarh,30.7333,76.7794,24.5,51,0.0,962.3,7.75,32.4,83,55.1,33.3,30.6,282.0,11.0,4.1,0,5,7,0,2026-05-25T05:33:19.162033+05:30
Srinagar,Jammu and Kashmir,34.0837,74.7973,10.9,93,0.0,840.3,8.95,36.7,69,26.1,18.9,13.5,232.0,45.0,1.0,3,10,7,0,2026-05-25T05:33:19.162042+05:30
Jammu,Jammu and Kashmir,32.7266,74.857,24.1,44,0.0,967.5,8.55,40.0,80,28.3,22.1,15.1,195.0,29.0,0.8,0,5,7,0,2026-05-25T05:33:19.162049+05:30
Amritsar,Punjab,31.634,74.8723,27.0,42,0.0,976.0,8.4,27.4,81,55.6,35.5,20.8,518.0,50.0,5.0,4,5,7,0,2026-05-25T05:33:19.162056+05:30
Ludhiana,Punjab,30.901,75.8573,26.6,42,0.0,973.2,8.0,33.1,79,55.3,36.2,19.4,411.0,40.0,7.1,4,5,7,0,2026-05-25T05:33:19.162076+05:30
Jalandhar,Punjab,31.326,75.5762,26.8,42,0.0,974.4,8.2,36.0,80,49.9,28.3,15.1,425.0,54.0,4.1,4,5,7,0,2026-05-25T05:33:19.162084+05:30
Dehradun,Uttarakhand,30.6284,78.0322,12.5,62,0.0,824.4,7.8,50.8,61,21.2,9.6,13.9,185.0,29.0,0.1,3,5,7,0,2026-05-25T05:33:19.162090+05:30
Shimla,Himachal Pradesh,31.1048,77.1734,11.3,53,0.0,779.0,8.25,45.0,66,26.2,14.7,19.6,150.0,27.0,0.8,0,5,7,0,2026-05-25T05:33:19.162097+05:30
Manali,Himachal Pradesh,32.2396,77.1887,9.2,75,0.0,814.9,9.4,49.3,45,4.2,1.4,6.1,131.0,104.0,0.0,3,5,7,0,2026-05-25T05:33:19.162106+05:30
Gurgaon,Haryana,28.4595,77.0266,30.0,27,0.0,976.5,7.8,38.5,1526,2875.9,434.9,7.4,173.0,70.0,6.9,4,5,7,0,2026-05-25T05:33:19.162115+05:30
Noida,Uttar Pradesh,28.5355,77.391,31.7,23,0.0,979.2,7.75,37.4,1526,2875.9,434.9,7.4,174.0,70.0,6.9,0,5,7,0,2026-05-25T05:33:19.162121+05:30
Ghaziabad,Uttar Pradesh,28.6692,77.4538,30.4,30,0.0,977.4,7.75,42.5,422,631.4,139.2,28.9,205.0,42.0,18.3,0,5,7,0,2026-05-25T05:33:19.162128+05:30
Faridabad,Haryana,28.4089,77.3178,32.2,23,0.0,978.6,7.8,40.0,1526,2875.9,434.9,7.4,166.0,70.0,6.9,0,5,7,0,2026-05-25T05:33:19.162135+05:30
Meerut,Uttar Pradesh,28.9845,77.7064,28.1,44,0.0,975.7,7.65,36.7,422,631.4,139.2,28.9,480.0,42.0,18.3,4,5,7,0,2026-05-25T05:33:19.162141+05:30
Agra,Uttar Pradesh,27.1767,78.0081,32.7,31,0.0,983.2,8.05,43.2,1089,2034.0,252.4,4.8,152.0,67.0,3.6,0,5,7,0,2026-05-25T05:33:19.162147+05:30
Varanasi,Uttar Pradesh,25.3176,82.9739,31.5,31,0.0,992.4,8.75,49.3,152,122.9,55.4,41.8,434.0,27.0,11.7,0,5,7,0,2026-05-25T05:33:19.162154+05:30
Prayagraj,Uttar Pradesh,25.4358,81.8463,30.4,40,0.0,990.8,8.65,46.8,156,158.3,73.6,61.2,227.0,11.0,15.1,0,5,7,0,2026-05-25T05:33:19.162161+05:30
Gorakhpur,Uttar Pradesh,26.7606,83.3732,28.1,74,0.0,993.2,8.6,33.1,150,74.0,60.5,18.8,573.0,65.0,14.8,7,5,7,1,2026-05-25T05:33:19.162167+05:30
Bareilly,Uttar Pradesh,28.367,79.4304,27.1,56,0.0,981.1,8.05,22.7,131,254.3,70.8,34.1,337.0,39.0,10.7,4,5,7,1,2026-05-25T05:33:19.162173+05:30
Aligarh,Uttar Pradesh,27.8974,78.088,31.0,29,0.0,980.4,7.9,35.3,858,1397.0,244.9,8.7,162.0,61.0,4.0,0,5,7,0,2026-05-25T05:33:19.162186+05:30
Moradabad,Uttar Pradesh,28.8386,78.7733,27.0,46,0.0,978.3,7.85,38.2,150,315.7,92.0,40.4,496.0,26.0,11.6,4,5,7,0,2026-05-25T05:33:19.162192+05:30
Saharanpur,Uttar Pradesh,29.9637,77.546,26.6,43,0.0,970.0,7.35,25.9,100,69.6,53.0,43.1,580.0,8.0,8.2,4,5,7,0,2026-05-25T05:33:19.162198+05:30
Jhansi,Uttar Pradesh,25.4484,78.5685,33.0,29,0.0,974.5,8.45,47.9,75,24.1,14.8,4.7,168.0,64.0,5.3,0,5,7,0,2026-05-25T05:33:34.883779+05:30
Surat,Gujarat,21.1702,72.8311,29.4,83,0.0,1006.4,7.7,43.2,56,19.1,15.0,18.4,340.0,28.0,30.7,7,5,4,1,2026-05-25T05:33:34.883814+05:30
Vadodara,Gujarat,22.3072,73.1812,30.1,75,0.0,1003.6,8.1,40.3,52,14.7,11.9,10.8,217.0,28.0,9.8,3,5,4,1,2026-05-25T05:33:34.883825+05:30
Rajkot,Gujarat,22.3039,70.8022,27.4,82,0.0,994.0,7.75,49.3,49,12.7,8.8,3.6,115.0,45.0,3.9,7,5,7,1,2026-05-25T05:33:34.883834+05:30
Thane,Maharashtra,19.2183,72.9781,27.9,95,0.0,1008.0,7.8,39.6,46,21.8,14.9,7.2,234.0,42.0,5.5,7,0,4,1,2026-05-25T05:33:34.883842+05:30
Nagpur,Maharashtra,21.1458,79.0882,33.3,31,0.0,970.9,8.85,44.3,73,28.5,19.6,7.5,198.0,82.0,10.6,0,5,7,0,2026-05-25T05:33:34.883851+05:30
Nashik,Maharashtra,19.9975,73.7898,24.4,90,0.0,945.7,8.15,42.5,27,11.9,8.6,5.0,127.0,38.0,3.6,3,5,7,1,2026-05-25T05:33:34.883858+05:30
Aurangabad,Maharashtra,19.8762,75.3433,26.1,73,0.0,944.0,9.0,43.6,47,7.2,5.8,7.5,151.0,33.0,3.9,7,5,7,1,2026-05-25T05:33:34.883866+05:30
Solapur,Maharashtra,17.6599,75.9064,26.8,74,0.0,957.1,9.0,37.8,54,10.9,8.7,8.4,180.0,39.0,6.0,7,5,7,1,2026-05-25T05:33:34.883874+05:30
Kolhapur,Maharashtra,16.705,74.2433,23.2,97,0.0,948.3,8.8,44.3,38,9.1,7.4,6.3,173.0,35.0,2.3,3,5,7,1,2026-05-25T05:33:34.883881+05:30
Goa,Goa,15.2993,74.124,26.6,91,0.0,998.6,8.75,29.9,50,21.5,17.3,7.5,410.0,42.0,1.9,7,5,7,1,2026-05-25T05:33:34.883888+05:30
Jodhpur,Rajasthan,26.2389,73.0243,29.2,58,0.0,979.7,8.4,47.2,207,392.1,91.7,2.0,117.0,62.0,3.2,4,5,7,1,2026-05-25T05:33:34.883895+05:30
Udaipur,Rajasthan,24.5854,73.7125,26.6,65,0.0,945.2,8.8,47.2,59,29.3,15.5,2.6,124.0,53.0,2.1,7,5,7,1,2026-05-25T05:33:34.883902+05:30
Kota,Rajasthan,25.2138,75.8648,32.5,42,0.0,976.2,8.4,42.5,73,9.8,7.8,3.9,148.0,51.0,4.2,0,5,7,1,2026-05-25T05:33:34.883909+05:30
Bikaner,Rajasthan,28.0229,73.3119,31.7,37,0.0,977.5,8.4,40.0,174,379.0,150.9,1.0,123.0,78.0,2.7,0,5,7,0,2026-05-25T05:33:34.883916+05:30
Ajmer,Rajasthan,26.4499,74.6399,28.9,42,0.0,951.9,8.35,55.4,84,49.6,22.7,2.2,127.0,65.0,2.7,4,5,7,0,2026-05-25T05:33:34.883924+05:30
Gwalior,Madhya Pradesh,26.2183,78.1828,33.2,31,0.0,979.3,8.25,56.2,78,20.8,12.1,3.2,139.0,66.0,2.3,0,5,7,0,2026-05-25T05:33:34.883930+05:30
Indore,Madhya Pradesh,22.7196,75.8577,28.3,62,0.0,947.6,8.65,42.1,65,12.7,10.2,6.4,178.0,44.0,10.5,7,5,7,1,2026-05-25T05:33:34.883937+05:30
Bhopal,Madhya Pradesh,23.2599,77.4126,31.5,38,0.0,952.2,8.7,41.0,75,24.8,17.8,2.8,172.0,84.0,5.2,0,5,7,0,2026-05-25T05:33:34.883944+05:30
Jabalpur,Madhya Pradesh,23.1815,79.9864,31.0,27,0.0,959.2,8.85,30.6,84,44.1,25.7,14.7,229.0,47.0,4.0,0,5,7,0,2026-05-25T05:33:34.883951+05:30
Ujjain,Madhya Pradesh,23.1765,75.7885,28.5,62,0.0,953.0,8.6,45.4,64,12.4,9.9,6.8,192.0,39.0,11.0,7,5,7,1,2026-05-25T05:33:34.883958+05:30
Visakhapatnam,Andhra Pradesh,17.6868,83.2185,29.9,87,0.0,1000.6,8.7,35.6,136,61.2,54.1,33.6,555.0,73.0,47.0,7,5,4,1,2026-05-25T05:33:34.883966+05:30
Vijayawada,Andhra Pradesh,16.5062,80.648,31.5,51,0.0,999.1,9.1,40.7,91,37.3,35.7,20.3,287.0,52.0,7.6,0,5,7,1,2026-05-25T05:33:34.883972+05:30
Guntur,Andhra Pradesh,16.3067,80.4365,31.4,52,0.0,1000.3,9.1,42.8,78,15.4,14.3,9.0,229.0,69.0,8.3,0,5,4,1,2026-05-25T05:33:34.883979+05:30
Nellore,Andhra Pradesh,14.4426,79.9865,31.2,54,0.0,1002.9,9.05,40.0,73,14.8,13.6,4.9,169.0,88.0,4.9,0,5,4,1,2026-05-25T05:33:34.883987+05:30
Kurnool,Andhra Pradesh,15.8281,78.0373,27.7,70,0.0,976.4,9.05,52.6,51,10.2,9.6,9.9,179.0,44.0,3.3,7,5,7,1,2026-05-25T05:33:34.883995+05:30
Kakinada,Andhra Pradesh,16.9891,82.2475,30.5,79,0.0,1003.7,9.1,30.2,103,32.7,25.3,2.9,483.0,125.0,3.5,3,5,4,1,2026-05-25T05:33:34.884001+05:30
Tirupati,Andhra Pradesh,13.6288,79.4192,29.5,58,0.0,988.6,9.1,42.5,84,18.6,17.5,8.9,234.0,69.0,3.5,4,5,7,1,2026-05-25T05:33:34.884008+05:30
Warangal,Telangana,17.9689,79.5941,32.5,39,0.0,975.7,9.05,42.8,85,22.1,18.4,10.9,248.0,62.0,5.4,0,5,7,1,2026-05-25T05:33:34.884015+05:30
Nizamabad,Telangana,18.6725,78.0941,31.4,39,0.0,963.6,9.1,38.5,71,26.3,20.5,7.6,167.0,67.0,6.9,0,5,7,0,2026-05-25T05:33:34.884021+05:30
Mysore,Karnataka,12.2958,76.6396,21.5,98,0.0,928.6,8.9,40.3,46,10.4,9.6,8.4,321.0,41.0,2.2,3,5,7,1,2026-05-25T05:33:34.884027+05:30
Mangalore,Karnataka,12.9141,74.856,25.0,96,0.0,1007.7,7.4,29.5,55,25.9,23.1,16.8,233.0,18.0,4.2,7,5,4,1,2026-05-25T05:33:34.884034+05:30
Hubli-Dharwad,Karnataka,15.3647,75.124,23.4,94,0.0,941.3,9.0,52.6,29,7.0,5.3,2.5,143.0,45.0,1.2,3,5,7,1,2026-05-25T05:33:34.884041+05:30
Belgaum,Karnataka,15.8497,74.4977,22.1,99,0.0,925.7,9.0,48.2,32,8.4,6.3,3.4,160.0,42.0,1.1,3,5,7,1,2026-05-25T05:33:49.389888+05:30
Coimbatore,Tamil Nadu,11.0168,76.9558,24.4,88,0.0,961.9,8.45,50.4,26,7.1,5.5,7.2,169.0,37.0,2.2,3,5,7,1,2026-05-25T05:33:49.389923+05:30
Madurai,Tamil Nadu,9.9252,78.1198,27.6,67,0.0,992.6,8.95,33.8,64,28.8,26.9,29.5,192.0,2.0,5.7,7,5,7,1,2026-05-25T05:33:49.389934+05:30
Trichy,Tamil Nadu,10.7905,78.7047,28.2,70,0.0,998.9,8.85,38.5,48,5.7,5.1,7.4,163.0,42.0,3.0,7,5,7,1,2026-05-25T05:33:49.389942+05:30
Salem,Tamil Nadu,11.6643,78.146,26.8,72,0.0,977.5,8.95,37.8,66,36.0,30.6,23.3,197.0,27.0,9.2,7,5,7,1,2026-05-25T05:33:49.389951+05:30
Tirunelveli,Tamil Nadu,8.7139,77.7567,28.5,65,0.0,1002.9,8.85,34.9,23,8.5,7.4,6.7,191.0,31.0,2.0,7,5,4,1,2026-05-25T05:33:49.389959+05:30
Vellore,Tamil Nadu,12.9165,79.1325,27.7,65,0.0,982.9,9.1,42.8,68,20.4,18.9,10.3,220.0,59.0,4.6,7,5,7,1,2026-05-25T05:33:49.389966+05:30
Erode,Tamil Nadu,11.341,77.7172,26.6,76,0.0,989.3,8.95,40.7,47,11.9,10.0,12.5,262.0,34.0,3.1,7,5,7,1,2026-05-25T05:33:49.389974+05:30
Kochi,Kerala,9.9312,76.2673,25.6,95,0.0,1009.5,4.35,30.6,51,19.3,18.2,16.8,149.0,9.0,4.5,7,0,0,1,2026-05-25T05:33:49.389981+05:30
Thiruvananthapuram,Kerala,8.5241,76.9366,24.4,94,0.0,1008.9,7.6,36.0,33,10.3,7.4,4.4,137.0,49.0,2.5,3,0,4,1,2026-05-25T05:33:49.389988+05:30
Kozhikode,Kerala,11.2588,75.7804,24.7,98,0.0,1009.0,8.0,31.7,33,12.7,8.5,2.7,308.0,56.0,1.7,3,0,4,1,2026-05-25T05:33:49.389996+05:30
Thrissur,Kerala,10.5276,76.2144,24.0,99,0.0,1008.0,7.85,33.8,47,15.5,14.5,12.2,218.0,18.0,3.3,3,0,4,1,2026-05-25T05:33:49.390003+05:30
Kannur,Kerala,11.8745,75.3704,25.3,94,0.0,1008.1,8.2,28.4,49,19.4,16.9,14.0,241.0,18.0,2.9,7,0,4,1,2026-05-25T05:33:49.390010+05:30
Patna,Bihar,25.5941,85.1376,27.7,84,0.0,996.0,8.8,32.4,154,88.2,75.2,11.1,443.0,86.0,13.4,7,5,7,1,2026-05-25T05:33:49.390016+05:30
Gaya,Bihar,24.7914,85.0002,27.7,52,0.0,989.1,8.9,30.6,154,151.3,69.6,36.8,291.0,34.0,11.3,4,5,7,1,2026-05-25T05:33:49.390023+05:30
Muzaffarpur,Bihar,26.1209,85.3647,26.9,84,0.0,996.3,8.85,33.1,154,84.8,70.1,10.4,431.0,90.0,11.8,7,5,7,1,2026-05-25T05:33:49.390030+05:30
Bhagalpur,Bihar,25.2425,87.0117,28.8,88,0.0,997.2,8.8,36.4,154,71.7,49.1,8.7,462.0,98.0,10.3,7,5,7,1,2026-05-25T05:33:49.390036+05:30
Ranchi,Jharkhand,23.3441,85.3096,24.5,80,0.0,934.9,9.3,49.3,142,103.1,51.5,21.6,299.0,57.0,13.5,3,5,7,1,2026-05-25T05:33:49.390043+05:30
Jamshedpur,Jharkhand,22.8046,86.2029,28.4,89,0.0,988.1,9.1,40.3,125,32.7,30.5,14.5,277.0,64.0,19.3,7,5,7,1,2026-05-25T05:33:49.390050+05:30
Dhanbad,Jharkhand,23.7957,86.4304,28.0,81,0.0,976.4,9.05,40.3,155,60.3,51.0,37.2,348.0,49.0,82.0,7,5,7,1,2026-05-25T05:33:49.390056+05:30
Bokaro,Jharkhand,23.6693,86.1511,29.0,57,0.0,980.0,9.1,40.0,154,96.4,58.0,29.8,365.0,48.0,49.5,4,5,7,1,2026-05-25T05:33:49.390063+05:30
Bhubaneswar,Odisha,20.2961,85.8245,29.2,90,0.0,1000.2,9.1,43.2,90,39.7,33.6,4.5,227.0,98.0,3.8,7,5,4,1,2026-05-25T05:33:49.390070+05:30
Cuttack,Odisha,20.4625,85.8828,29.3,91,0.0,1002.1,9.15,38.2,90,39.7,33.6,4.5,247.0,98.0,3.8,7,5,4,1,2026-05-25T05:33:49.390076+05:30
Rourkela,Odisha,22.2604,84.8536,27.9,93,0.0,982.8,9.0,46.4,151,67.8,51.9,25.0,262.0,43.0,22.0,7,5,7,1,2026-05-25T05:33:49.390083+05:30
Raipur,Chhattisgarh,21.2514,81.6296,31.8,31,0.0,971.0,8.95,42.1,141,89.4,61.7,43.8,684.0,25.0,31.0,0,5,7,0,2026-05-25T05:33:49.390091+05:30
Bhilai,Chhattisgarh,21.1938,81.3509,30.0,44,0.0,971.5,8.95,27.0,120,72.6,51.5,47.5,1045.0,25.0,47.5,4,5,7,1,2026-05-25T05:33:49.390098+05:30
Guwahati,Assam,26.1158,91.7086,22.8,96,0.0,1001.2,8.8,32.4,77,25.0,18.7,5.7,286.0,76.0,2.1,3,5,4,1,2026-05-25T05:33:49.390105+05:30
Agartala,Tripura,23.8315,91.2868,27.1,87,0.0,1005.1,8.25,48.6,63,18.5,14.9,8.9,199.0,56.0,2.7,7,5,4,1,2026-05-25T05:33:49.390112+05:30
Shillong,Meghalaya,25.5788,91.8933,18.9,90,0.0,856.1,7.8,43.6,52,4.4,2.5,4.1,191.0,65.0,2.2,3,10,7,1,2026-05-25T05:33:49.390119+05:30
Imphal,Manipur,24.817,93.9368,21.5,94,0.0,923.6,9.3,30.2,86,48.9,33.6,7.3,376.0,47.0,1.8,3,5,7,1,2026-05-25T05:33:49.390126+05:30
Aizawl,Mizoram,23.7271,92.7176,19.4,90,0.0,892.0,9.15,43.2,57,22.9,14.1,3.1,165.0,42.0,0.8,3,10,7,1,2026-05-25T05:33:49.390133+05:30
Kohima,Nagaland,25.6701,94.1077,19.2,85,0.0,855.0,9.3,33.5,65,26.8,16.1,4.4,209.0,50.0,1.0,3,10,7,1,2026-05-25T05:33:49.390140+05:30
Gangtok,Sikkim,27.3314,88.6138,15.4,84,0.0,835.7,9.15,40.0,78,52.2,34.2,10.5,557.0,65.0,2.1,3,10,7,0,2026-05-25T05:33:49.390146+05:30
Siliguri,West Bengal,26.7271,88.3953,22.6,96,0.0,991.3,8.7,30.6,112,87.8,65.7,18.6,414.0,63.0,5.9,3,5,7,1,2026-05-25T05:34:01.610984+05:30
Durgapur,West Bengal,23.5204,87.3119,28.5,92,0.0,992.0,9.0,39.2,152,40.2,38.1,22.5,557.0,55.0,35.4,7,5,7,1,2026-05-25T05:34:01.611022+05:30
Asansol,West Bengal,23.6739,86.9524,28.0,95,0.0,990.2,9.05,33.1,152,43.1,40.9,27.9,387.0,49.0,44.9,7,5,7,1,2026-05-25T05:34:01.611033+05:30
Pondicherry,Puducherry,11.9139,79.8145,28.2,67,0.0,1006.5,8.95,41.0,75,25.2,22.4,12.1,348.0,55.0,5.4,7,5,4,1,2026-05-25T05:34:01.611042+05:30
Port Blair,Andaman and Nicobar Islands,11.6234,92.7265,25.4,97,0.0,1008.3,8.9,32.8,29,10.0,5.8,0.2,121.0,75.0,0.4,7,0,4,1,2026-05-25T05:34:01.611051+05:30
Haridwar,Uttarakhand,29.9457,78.1642,23.8,53,0.0,968.2,7.5,30.2,84,45.4,34.6,29.3,257.0,19.0,3.9,0,5,7,0,2026-05-25T05:34:01.611059+05:30
Rishikesh,Uttarakhand,30.0869,78.2676,21.4,61,0.0,961.0,7.6,36.4,78,57.2,35.4,16.2,273.0,49.0,3.2,3,5,7,0,2026-05-25T05:34:01.611066+05:30
Nainital,Uttarakhand,29.3919,79.4542,16.7,40,0.0,803.0,8.45,47.9,76,55.5,32.0,21.0,176.0,45.0,2.6,0,5,7,0,2026-05-25T05:34:01.611073+05:30
Mussoorie,Uttarakhand,30.4599,78.0664,17.4,40,0.0,800.4,8.05,54.7,76,44.0,24.9,28.5,163.0,18.0,2.9,0,5,7,0,2026-05-25T05:34:01.611081+05:30
Dharamshala,Himachal Pradesh,32.219,76.3234,22.0,36,0.0,866.2,8.45,43.2,44,7.1,4.4,10.7,148.0,37.0,0.1,0,5,7,0,2026-05-25T05:34:01.611089+05:30
Dalhousie,Himachal Pradesh,32.5387,75.971,12.8,57,0.0,799.9,8.7,43.6,63,18.9,13.8,23.6,178.0,9.0,0.3,0,5,7,0,2026-05-25T05:34:01.611096+05:30
Patiala,Punjab,30.3398,76.3869,28.0,38,0.0,972.1,7.6,31.7,190,109.0,52.6,24.6,442.0,40.0,11.6,4,5,7,0,2026-05-25T05:34:01.611104+05:30
Bhatinda,Punjab,30.211,74.9455,28.9,39,0.0,978.5,8.3,30.2,110,101.5,38.5,12.0,294.0,58.0,3.5,4,5,7,0,2026-05-25T05:34:01.611110+05:30
Rohtak,Haryana,28.8955,76.6066,28.2,42,0.0,976.2,7.75,36.7,530,672.4,143.4,15.6,178.0,43.0,2.8,4,5,7,0,2026-05-25T05:34:01.611117+05:30
Panipat,Haryana,29.3909,76.9635,28.6,35,0.0,974.6,7.6,28.1,1015,475.9,122.0,43.7,466.0,13.0,9.0,4,5,7,0,2026-05-25T05:34:01.611124+05:30
Mathura,Uttar Pradesh,27.4924,77.6737,31.5,31,0.0,982.0,8.0,38.2,989,1534.8,192.8,4.6,166.0,68.0,3.0,0,5,7,0,2026-05-25T05:34:01.611131+05:30
Vrindavan,Uttar Pradesh,27.5823,77.7027,31.2,31,0.0,982.3,8.0,36.7,989,1534.8,192.8,4.6,160.0,68.0,3.0,0,5,7,0,2026-05-25T05:34:01.611137+05:30
Ayodhya,Uttar Pradesh,26.7922,82.1998,27.6,70,0.0,990.7,8.35,31.0,155,53.8,44.1,20.1,618.0,66.0,11.9,7,5,7,1,2026-05-25T05:34:01.611144+05:30
Ratlam,Madhya Pradesh,23.3315,75.0367,27.4,69,0.0,954.1,8.55,47.9,61,12.0,9.5,7.6,157.0,35.0,11.4,7,5,7,1,2026-05-25T05:34:01.611150+05:30
Sagar,Madhya Pradesh,23.8388,78.7378,31.0,34,0.0,948.5,8.75,41.0,79,29.4,15.9,4.2,177.0,74.0,2.7,0,5,7,0,2026-05-25T05:34:01.611157+05:30
Satna,Madhya Pradesh,24.6005,80.8322,31.0,30,0.0,967.8,8.4,48.6,82,31.8,17.5,14.7,187.0,52.0,4.4,0,5,7,0,2026-05-25T05:34:01.611164+05:30
Akola,Maharashtra,20.7002,77.0082,30.4,53,0.0,974.0,7.75,47.5,65,19.3,14.6,5.9,144.0,66.0,9.5,0,5,7,1,2026-05-25T05:34:01.611171+05:30
Amravati,Maharashtra,20.9374,77.7796,31.8,42,0.0,965.9,8.85,42.8,67,24.2,18.3,5.2,167.0,80.0,9.2,0,5,7,1,2026-05-25T05:34:01.611180+05:30
Latur,Maharashtra,18.4088,76.5604,27.1,65,0.0,939.3,9.0,36.7,57,14.6,10.8,6.9,152.0,59.0,6.6,7,5,7,1,2026-05-25T05:34:01.611187+05:30
Nanded,Maharashtra,19.1383,77.3091,31.2,50,0.0,967.8,8.95,37.1,62,18.5,13.2,5.7,158.0,57.0,4.5,0,5,7,1,2026-05-25T05:34:01.611193+05:30
Gulbarga,Karnataka,17.3297,76.8343,26.8,72,0.0,958.2,9.05,37.4,53,11.0,8.8,7.6,166.0,47.0,5.4,7,5,7,1,2026-05-25T05:34:01.611199+05:30
Bidar,Karnataka,17.9104,77.5199,27.5,62,0.0,934.8,9.05,41.4,62,18.1,14.4,7.4,164.0,64.0,6.1,7,5,7,1,2026-05-25T05:34:01.611205+05:30
Hospet,Karnataka,15.2689,76.3909,24.4,93,0.0,956.3,9.1,49.7,39,6.1,5.4,4.8,163.0,45.0,1.5,3,5,7,1,2026-05-25T05:34:01.611211+05:30
Tirupur,Tamil Nadu,11.1085,77.3411,24.7,87,0.0,975.4,8.75,51.1,46,13.4,11.2,13.1,155.0,33.0,3.6,3,5,7,1,2026-05-25T05:34:01.611217+05:30
Alappuzha,Kerala,9.4981,76.3388,25.8,96,0.0,1009.6,7.55,29.9,40,12.4,9.9,8.1,106.0,40.0,3.6,7,0,4,1,2026-05-25T05:34:01.611223+05:30
Munnar,Kerala,10.0889,77.0595,17.2,83,0.0,856.4,8.85,28.4,15,4.5,4.0,5.4,143.0,28.0,0.5,3,10,7,0,2026-05-25T05:34:01.611230+05:30
Silchar,Assam,24.8333,92.7789,24.4,98,0.0,1004.8,8.85,36.4,80,28.5,13.9,6.7,298.0,59.0,2.4,3,5,4,1,2026-05-25T05:34:01.611237+05:30
Dibrugarh,Assam,27.4728,94.912,22.6,96,0.1,995.5,8.95,30.2,74,58.8,28.8,13.5,220.0,43.0,2.0,6,5,7,1,2026-05-25T05:34:01.611243+05:30
