city,state,latitude,longitude,temp,humidity,rain,pressure,uv_index,wind_gusts,aqi,pm10,pm2_5,no2,co,o3,so2,mosquito_risk,arthritis_risk,migraine_risk,frizz_risk,updated_at
Delhi,Delhi,28.6139,77.209,28.8,49,0.0,982.8,7.55,46.8,178,499.2,66.8,5.2,302.0,196.0,17.1,4,5,7,1,2026-05-07T15:05:18.753418+05:30
Mumbai,Maharashtra,19.076,72.8777,33.6,62,0.0,1004.9,7.9,44.3,99,99.0,33.3,4.9,223.0,135.0,17.0,3,5,4,1,2026-05-07T15:05:18.753461+05:30
Bangalore,Karnataka,12.9716,77.5946,33.0,31,0.0,909.7,9.35,29.5,83,29.5,18.9,3.5,297.0,142.0,5.5,0,5,7,0,2026-05-07T15:05:18.753475+05:30
Hyderabad,Telangana,17.385,78.4867,35.2,29,0.0,951.4,9.25,29.5,67,29.9,17.4,2.0,250.0,144.0,3.9,0,5,10,0,2026-05-07T15:05:18.753484+05:30
Chennai,Tamil Nadu,13.0827,80.2707,32.5,59,0.0,1003.8,9.25,40.0,33,6.7,5.4,1.9,138.0,59.0,6.5,0,5,4,1,2026-05-07T15:05:18.753495+05:30
Kolkata,West Bengal,22.5726,88.3639,30.3,71,0.0,1005.2,8.9,37.8,90,34.9,29.2,2.7,361.0,173.0,16.2,3,5,4,1,2026-05-07T15:05:18.753503+05:30
Pune,Maharashtra,18.5204,73.8567,37.5,18,0.0,945.6,8.45,32.0,82,47.4,17.5,1.8,197.0,160.0,4.9,0,5,10,0,2026-05-07T15:05:18.753510+05:30
Ahmedabad,Gujarat,23.0225,72.5714,41.6,15,0.0,998.0,8.1,29.5,91,80.8,22.9,1.7,178.0,149.0,5.9,0,5,10,0,2026-05-07T15:05:18.753518+05:30
Jaipur,Rajasthan,26.9124,75.7873,38.5,12,0.0,957.1,8.1,45.0,96,254.3,38.3,1.2,209.0,153.0,4.0,0,5,10,0,2026-05-07T15:05:18.753525+05:30
Lucknow,Uttar Pradesh,26.8467,80.9462,31.2,43,0.0,993.8,8.05,32.4,105,95.9,29.5,1.6,274.0,180.0,8.0,0,5,7,1,2026-05-07T15:05:18.753532+05:30
Kanpur,Uttar Pradesh,26.4499,80.3319,32.7,32,0.0,991.8,8.05,38.9,131,155.5,33.2,1.6,221.0,179.0,6.5,0,5,7,0,2026-05-07T15:05:18.753538+05:30
Chandigarh,Chandigarh,30.7333,76.7794,29.8,34,0.0,969.4,5.55,44.6,147,39.2,17.2,2.0,277.0,198.0,6.8,4,5,3,0,2026-05-07T15:05:18.753561+05:30
Srinagar,Jammu and Kashmir,34.0837,74.7973,23.7,30,0.0,841.2,8.7,35.3,74,45.5,10.7,1.2,281.0,139.0,1.4,0,5,7,0,2026-05-07T15:05:18.753571+05:30
Jammu,Jammu and Kashmir,32.7266,74.857,32.6,25,0.0,972.4,8.3,30.6,124,27.2,14.7,1.4,243.0,185.0,5.7,0,5,7,0,2026-05-07T15:05:18.753578+05:30
Amritsar,Punjab,31.634,74.8723,34.5,23,0.0,979.8,8.2,32.0,122,75.7,24.2,1.2,286.0,189.0,8.7,0,5,7,0,2026-05-07T15:05:18.753584+05:30
Ludhiana,Punjab,30.901,75.8573,32.8,32,0.0,977.8,7.8,34.6,125,299.9,48.0,1.5,284.0,195.0,6.2,0,5,7,0,2026-05-07T15:05:18.753589+05:30
Jalandhar,Punjab,31.326,75.5762,32.7,29,0.0,978.9,7.95,29.2,113,117.6,30.6,1.2,287.0,191.0,6.9,0,5,7,0,2026-05-07T15:05:18.753596+05:30
Dehradun,Uttarakhand,30.6284,78.0322,17.2,61,0.0,831.1,6.05,28.4,117,44.5,23.1,1.9,202.0,158.0,2.9,3,5,7,0,2026-05-07T15:05:18.753605+05:30
Shimla,Himachal Pradesh,31.1048,77.1734,15.3,53,0.0,785.0,5.5,33.5,123,37.4,20.5,1.3,190.0,175.0,4.3,0,5,3,0,2026-05-07T15:05:18.753612+05:30
Manali,Himachal Pradesh,32.2396,77.1887,15.3,63,0.0,817.3,9.15,28.8,97,49.9,9.3,0.8,152.0,145.0,0.4,3,5,7,0,2026-05-07T15:05:18.753618+05:30
Gurgaon,Haryana,28.4595,77.0266,33.2,31,0.0,980.3,7.65,51.5,1034,1840.3,183.5,3.9,271.0,191.0,12.7,0,5,7,0,2026-05-07T15:05:18.753625+05:30
Noida,Uttar Pradesh,28.5355,77.391,30.0,44,0.0,984.5,7.55,45.7,1034,1840.3,183.5,3.9,281.0,191.0,12.7,4,5,7,1,2026-05-07T15:05:18.753630+05:30
Ghaziabad,Uttar Pradesh,28.6692,77.4538,30.5,39,0.0,982.9,7.55,46.1,130,148.1,28.9,2.4,275.0,169.0,5.4,0,5,7,0,2026-05-07T15:05:18.753637+05:30
Faridabad,Haryana,28.4089,77.3178,30.5,44,0.0,983.4,7.6,48.6,1034,1840.3,183.5,3.9,260.0,191.0,12.7,0,5,7,1,2026-05-07T15:05:18.753642+05:30
Meerut,Uttar Pradesh,28.9845,77.7064,29.1,48,0.0,982.0,6.95,37.8,130,148.1,28.9,2.4,271.0,169.0,5.4,4,5,7,1,2026-05-07T15:05:18.753648+05:30
Agra,Uttar Pradesh,27.1767,78.0081,33.7,32,0.0,986.7,7.9,51.1,737,1009.6,100.6,1.5,242.0,176.0,7.7,0,5,7,0,2026-05-07T15:05:18.753653+05:30
Varanasi,Uttar Pradesh,25.3176,82.9739,32.2,36,0.0,997.3,8.6,28.8,124,75.0,27.9,1.8,334.0,184.0,8.7,0,5,7,0,2026-05-07T15:05:18.753659+05:30
Prayagraj,Uttar Pradesh,25.4358,81.8463,35.0,27,0.0,995.5,8.45,33.1,119,83.1,28.3,1.7,261.0,182.0,7.5,0,5,7,0,2026-05-07T15:05:18.753667+05:30
Gorakhpur,Uttar Pradesh,26.7606,83.3732,31.5,45,0.0,997.8,8.4,33.5,120,53.8,27.9,1.5,313.0,173.0,5.3,0,5,7,1,2026-05-07T15:05:18.753672+05:30
Bareilly,Uttar Pradesh,28.367,79.4304,30.0,48,0.0,987.3,7.45,41.8,108,103.6,32.1,1.6,284.0,190.0,10.9,4,5,7,1,2026-05-07T15:05:18.753677+05:30
Aligarh,Uttar Pradesh,27.8974,78.088,32.7,33,0.0,985.2,7.7,47.5,322,514.1,57.0,1.5,228.0,169.0,7.8,0,5,7,0,2026-05-07T15:05:18.753683+05:30
Moradabad,Uttar Pradesh,28.8386,78.7733,29.6,50,0.0,984.2,7.5,35.6,120,87.3,32.2,2.5,265.0,203.0,17.1,4,5,7,1,2026-05-07T15:05:18.753688+05:30
Saharanpur,Uttar Pradesh,29.9637,77.546,28.5,48,0.0,976.4,6.95,39.6,124,81.5,26.2,1.7,256.0,186.0,8.5,4,5,7,1,2026-05-07T15:05:18.753693+05:30
Jhansi,Uttar Pradesh,25.4484,78.5685,35.2,23,0.0,977.1,8.3,42.1,112,42.0,17.1,1.3,220.0,172.0,12.4,0,5,10,0,2026-05-07T15:05:22.129497+05:30
Surat,Gujarat,21.1702,72.8311,39.9,27,0.0,1002.6,7.7,33.8,129,110.1,58.9,55.7,925.0,108.0,117.2,0,5,7,1,2026-05-07T15:05:22.129529+05:30
Vadodara,Gujarat,22.3072,73.1812,41.7,15,0.0,1000.2,8.05,38.9,119,78.5,29.6,2.3,210.0,200.0,13.9,0,5,7,0,2026-05-07T15:05:22.129537+05:30
Rajkot,Gujarat,22.3039,70.8022,41.6,12,0.0,990.7,7.7,47.2,72,82.0,22.8,0.9,152.0,143.0,4.6,0,5,10,0,2026-05-07T15:05:22.129567+05:30
Thane,Maharashtra,19.2183,72.9781,37.8,33,0.0,1003.8,7.9,35.6,99,99.0,33.3,4.9,218.0,135.0,17.0,0,5,7,1,2026-05-07T15:05:22.129575+05:30
Nagpur,Maharashtra,21.1458,79.0882,39.0,19,0.0,971.3,8.9,49.7,159,54.6,34.2,5.0,220.0,229.0,25.5,0,5,10,0,2026-05-07T15:05:22.129581+05:30
Nashik,Maharashtra,19.9975,73.7898,37.2,20,0.0,943.5,8.15,45.4,103,63.8,21.8,1.2,191.0,156.0,5.9,0,5,10,0,2026-05-07T15:05:22.129587+05:30
Aurangabad,Maharashtra,19.8762,75.3433,37.7,17,0.0,942.1,9.05,32.0,121,49.2,17.8,1.3,195.0,167.0,8.0,0,5,10,0,2026-05-07T15:05:22.129594+05:30
Solapur,Maharashtra,17.6599,75.9064,38.0,23,0.0,954.1,9.05,43.9,94,40.6,20.9,1.3,201.0,162.0,5.1,0,5,10,0,2026-05-07T15:05:22.129600+05:30
Kolhapur,Maharashtra,16.705,74.2433,36.5,24,0.0,945.0,8.95,48.2,83,47.0,27.0,2.2,211.0,178.0,7.1,0,5,10,0,2026-05-07T15:05:22.129606+05:30
Goa,Goa,15.2993,74.124,33.7,52,0.1,994.7,8.9,35.6,73,59.5,27.6,0.8,169.0,113.0,3.1,3,5,7,1,2026-05-07T15:05:22.129613+05:30
Jodhpur,Rajasthan,26.2389,73.0243,41.0,11,0.0,979.4,8.3,38.5,107,192.8,32.0,0.7,167.0,149.0,4.0,0,5,10,0,2026-05-07T15:05:22.129618+05:30
Udaipur,Rajasthan,24.5854,73.7125,36.6,16,0.0,944.9,8.75,31.3,82,85.4,18.6,0.5,160.0,141.0,2.6,0,5,10,0,2026-05-07T15:05:22.129624+05:30
Kota,Rajasthan,25.2138,75.8648,40.0,14,0.0,976.0,8.3,39.6,93,91.5,19.8,1.1,171.0,156.0,3.9,0,5,10,0,2026-05-07T15:05:22.129630+05:30
Bikaner,Rajasthan,28.0229,73.3119,41.5,10,0.0,977.5,8.25,37.1,98,65.9,17.0,0.4,164.0,152.0,8.6,0,5,10,0,2026-05-07T15:05:22.129636+05:30
Ajmer,Rajasthan,26.4499,74.6399,37.9,13,0.0,952.5,8.25,46.4,69,71.7,20.8,0.6,161.0,144.0,3.3,0,5,10,0,2026-05-07T15:05:22.129642+05:30
Gwalior,Madhya Pradesh,26.2183,78.1828,32.2,34,0.0,982.3,7.9,44.6,106,54.0,19.2,0.8,254.0,168.0,7.8,0,5,7,0,2026-05-07T15:05:22.129648+05:30
Indore,Madhya Pradesh,22.7196,75.8577,38.5,12,0.0,946.5,8.65,37.1,116,20.0,8.9,1.1,205.0,165.0,4.0,0,5,10,0,2026-05-07T15:05:22.129654+05:30
Bhopal,Madhya Pradesh,23.2599,77.4126,38.5,12,0.0,952.2,8.65,34.2,105,18.0,6.9,0.7,193.0,160.0,3.5,0,5,10,0,2026-05-07T15:05:22.129660+05:30
Jabalpur,Madhya Pradesh,23.1815,79.9864,38.4,12,0.0,960.0,8.8,24.8,108,22.5,7.8,0.9,192.0,157.0,3.1,0,5,10,0,2026-05-07T15:05:22.129665+05:30
Ujjain,Madhya Pradesh,23.1765,75.7885,38.6,12,0.0,951.9,8.55,33.5,101,21.0,10.6,0.8,194.0,163.0,4.7,0,5,10,0,2026-05-07T15:05:22.129671+05:30
Visakhapatnam,Andhra Pradesh,17.6868,83.2185,32.8,58,0.0,1001.8,8.85,31.7,73,20.4,16.1,15.6,294.0,59.0,21.5,0,5,4,1,2026-05-07T15:05:22.129677+05:30
Vijayawada,Andhra Pradesh,16.5062,80.648,33.2,51,0.0,1000.2,9.15,42.1,53,21.4,15.0,2.0,158.0,91.0,5.1,0,5,4,1,2026-05-07T15:05:22.129683+05:30
Guntur,Andhra Pradesh,16.3067,80.4365,33.3,51,0.0,1001.2,9.2,44.3,54,23.8,16.4,1.8,191.0,102.0,3.8,0,5,4,1,2026-05-07T15:05:22.129689+05:30
Nellore,Andhra Pradesh,14.4426,79.9865,33.9,53,0.0,1002.5,9.2,40.3,38,9.2,6.9,1.0,122.0,72.0,3.1,0,5,4,1,2026-05-07T15:05:22.129696+05:30
Kurnool,Andhra Pradesh,15.8281,78.0373,39.3,21,0.0,973.2,9.2,45.4,63,26.8,16.6,1.0,199.0,139.0,4.0,0,5,10,0,2026-05-07T15:05:22.129702+05:30
Kakinada,Andhra Pradesh,16.9891,82.2475,32.2,63,0.0,1005.3,8.9,33.5,34,10.0,6.7,0.7,131.0,52.0,0.8,3,5,4,1,2026-05-07T15:05:22.129707+05:30
Tirupati,Andhra Pradesh,13.6288,79.4192,36.6,37,0.0,987.2,9.25,39.6,59,10.8,9.6,1.3,156.0,109.0,5.3,0,5,10,1,2026-05-07T15:05:22.129714+05:30
Warangal,Telangana,17.9689,79.5941,36.7,34,0.0,976.4,9.1,36.7,77,27.5,17.5,1.6,202.0,137.0,4.5,0,5,10,1,2026-05-07T15:05:22.129719+05:30
Nizamabad,Telangana,18.6725,78.0941,29.7,48,0.1,963.6,9.1,47.2,82,40.6,22.2,1.4,220.0,159.0,3.9,7,5,7,1,2026-05-07T15:05:22.129725+05:30
Mysore,Karnataka,12.2958,76.6396,33.0,37,0.0,925.5,9.2,27.7,85,33.2,22.4,2.0,236.0,147.0,5.6,0,5,7,1,2026-05-07T15:05:22.129731+05:30
Mangalore,Karnataka,12.9141,74.856,30.4,74,0.1,1003.1,8.2,36.0,64,37.8,19.6,1.0,154.0,108.0,2.0,6,5,4,1,2026-05-07T15:05:22.129737+05:30
Hubli-Dharwad,Karnataka,15.3647,75.124,36.8,20,0.0,937.9,9.2,50.8,82,49.4,29.3,1.8,195.0,174.0,4.3,0,5,10,0,2026-05-07T15:05:22.129743+05:30
Belgaum,Karnataka,15.8497,74.4977,31.1,42,0.0,924.0,8.35,48.2,92,41.7,24.6,2.0,214.0,175.0,6.9,0,5,7,1,2026-05-07T15:05:25.514016+05:30
Coimbatore,Tamil Nadu,11.0168,76.9558,33.0,48,0.0,957.8,7.2,29.2,74,27.3,17.3,1.5,236.0,122.0,2.0,0,5,7,1,2026-05-07T15:05:25.514050+05:30
Madurai,Tamil Nadu,9.9252,78.1198,34.7,44,0.0,988.4,6.0,34.9,70,19.8,13.4,1.9,195.0,131.0,2.1,0,5,3,1,2026-05-07T15:05:25.514060+05:30
Trichy,Tamil Nadu,10.7905,78.7047,35.5,44,0.0,995.0,8.5,29.2,64,16.7,13.4,1.9,182.0,132.0,5.4,0,5,10,1,2026-05-07T15:05:25.514068+05:30
Salem,Tamil Nadu,11.6643,78.146,34.8,45,0.0,973.0,8.75,34.6,81,27.8,21.6,2.5,203.0,152.0,13.8,0,5,7,1,2026-05-07T15:05:25.514075+05:30
Tirunelveli,Tamil Nadu,8.7139,77.7567,33.5,47,0.0,998.9,4.75,30.2,74,33.9,26.1,1.5,186.0,134.0,5.6,0,5,3,1,2026-05-07T15:05:25.514082+05:30
Vellore,Tamil Nadu,12.9165,79.1325,36.3,39,0.0,980.5,9.25,29.2,74,10.2,8.3,1.2,172.0,113.0,2.2,0,5,10,1,2026-05-07T15:05:25.514089+05:30
Erode,Tamil Nadu,11.341,77.7172,33.9,48,0.0,984.8,7.9,35.6,72,20.4,13.1,1.7,217.0,130.0,2.7,0,5,7,1,2026-05-07T15:05:25.514094+05:30
Kochi,Kerala,9.9312,76.2673,28.9,77,0.1,1004.6,5.45,24.1,75,27.6,21.3,3.0,218.0,171.0,3.4,10,5,0,1,2026-05-07T15:05:25.514101+05:30
Thiruvananthapuram,Kerala,8.5241,76.9366,29.4,78,0.0,1003.8,7.4,28.4,106,26.5,19.2,1.6,251.0,173.0,4.1,7,5,4,1,2026-05-07T15:05:25.514106+05:30
Kozhikode,Kerala,11.2588,75.7804,29.7,78,0.0,1003.7,6.6,36.0,72,20.2,11.8,0.7,219.0,124.0,1.6,7,5,4,1,2026-05-07T15:05:25.514111+05:30
Thrissur,Kerala,10.5276,76.2144,29.7,69,0.0,1002.9,4.2,27.0,76,35.4,26.1,2.0,283.0,156.0,3.5,7,5,0,1,2026-05-07T15:05:25.514118+05:30
Kannur,Kerala,11.8745,75.3704,31.1,68,0.0,1003.2,7.9,41.0,60,25.7,13.4,1.1,209.0,109.0,1.3,3,5,4,1,2026-05-07T15:05:25.514123+05:30
Patna,Bihar,25.5941,85.1376,29.1,62,0.0,1001.0,8.7,40.7,146,58.2,36.0,2.0,351.0,191.0,7.7,7,5,4,1,2026-05-07T15:05:25.514128+05:30
Gaya,Bihar,24.7914,85.0002,33.8,34,0.0,993.3,8.75,32.4,142,60.1,30.5,1.5,307.0,189.0,8.6,0,5,7,0,2026-05-07T15:05:25.514133+05:30
Muzaffarpur,Bihar,26.1209,85.3647,29.8,58,0.0,1000.9,8.65,39.2,140,53.8,33.6,2.2,334.0,189.0,8.4,4,5,4,1,2026-05-07T15:05:25.514138+05:30
Bhagalpur,Bihar,25.2425,87.0117,28.9,63,0.0,1001.3,8.7,38.5,169,65.0,46.1,3.1,382.0,213.0,9.2,7,5,4,1,2026-05-07T15:05:25.514143+05:30
Ranchi,Jharkhand,23.3441,85.3096,32.2,27,0.0,937.6,9.2,34.2,144,31.7,19.2,1.3,210.0,179.0,9.6,0,5,7,0,2026-05-07T15:05:25.514148+05:30
Jamshedpur,Jharkhand,22.8046,86.2029,34.8,30,0.0,989.5,9.05,42.5,137,55.6,40.9,3.1,290.0,218.0,24.3,0,5,7,0,2026-05-07T15:05:25.514152+05:30
Dhanbad,Jharkhand,23.7957,86.4304,29.8,59,0.0,979.6,8.95,39.2,162,69.2,57.6,13.1,310.0,242.0,51.6,4,5,7,1,2026-05-07T15:05:25.514158+05:30
Bokaro,Jharkhand,23.6693,86.1511,30.4,52,0.0,983.3,8.95,47.2,158,53.4,38.3,11.6,254.0,214.0,39.5,0,5,7,1,2026-05-07T15:05:25.514163+05:30
Bhubaneswar,Odisha,20.2961,85.8245,32.1,61,0.0,1001.3,9.1,50.4,51,24.4,17.2,1.7,199.0,126.0,6.0,3,5,4,1,2026-05-07T15:05:25.514169+05:30
Cuttack,Odisha,20.4625,85.8828,32.2,59,0.0,1003.1,9.15,43.6,51,24.4,17.2,1.7,222.0,126.0,6.0,0,5,4,1,2026-05-07T15:05:25.514173+05:30
Rourkela,Odisha,22.2604,84.8536,37.0,20,0.0,983.3,8.95,36.7,185,49.9,38.1,2.2,246.0,224.0,30.0,0,5,10,0,2026-05-07T15:05:25.514179+05:30
Raipur,Chhattisgarh,21.2514,81.6296,38.6,15,0.0,973.0,8.95,32.8,151,45.2,28.9,6.6,186.0,254.0,6.4,0,5,10,0,2026-05-07T15:05:25.514184+05:30
Bhilai,Chhattisgarh,21.1938,81.3509,38.3,16,0.0,973.4,9.0,26.6,140,46.2,29.5,7.6,275.0,249.0,6.4,0,5,10,0,2026-05-07T15:05:25.514189+05:30
Guwahati,Assam,26.1158,91.7086,29.4,56,0.0,1000.7,8.65,32.8,99,42.6,29.9,1.2,298.0,151.0,2.4,4,5,4,1,2026-05-07T15:05:25.514194+05:30
Agartala,Tripura,23.8315,91.2868,30.5,64,0.0,1005.6,8.85,32.0,100,17.8,15.9,4.5,226.0,157.0,2.2,3,5,4,1,2026-05-07T15:05:25.514199+05:30
Shillong,Meghalaya,25.5788,91.8933,22.1,50,0.0,857.7,7.75,24.8,96,27.5,19.8,1.2,240.0,141.0,1.5,0,5,7,0,2026-05-07T15:05:25.514204+05:30
Imphal,Manipur,24.817,93.9368,27.3,54,0.0,922.7,9.1,31.0,97,21.7,14.2,1.1,191.0,105.0,0.8,4,5,7,1,2026-05-07T15:05:25.514209+05:30
Aizawl,Mizoram,23.7271,92.7176,24.8,57,0.0,893.2,9.05,23.4,68,22.8,14.7,0.7,164.0,106.0,1.1,0,5,7,0,2026-05-07T15:05:25.514214+05:30
Kohima,Nagaland,25.6701,94.1077,21.0,74,0.0,855.8,9.15,27.4,65,21.4,13.9,1.1,248.0,109.0,0.5,3,5,7,0,2026-05-07T15:05:25.514219+05:30
Gangtok,Sikkim,27.3314,88.6138,19.9,49,0.0,838.5,8.55,39.2,91,29.8,19.4,1.1,215.0,144.0,1.1,0,5,7,0,2026-05-07T15:05:25.514225+05:30
Siliguri,West Bengal,26.7271,88.3953,29.6,52,0.0,992.8,8.6,23.8,107,44.4,30.7,1.6,356.0,164.0,3.1,4,5,7,1,2026-05-07T15:05:28.886567+05:30
Durgapur,West Bengal,23.5204,87.3119,27.8,75,0.1,994.7,8.9,45.4,162,79.2,69.6,13.8,426.0,237.0,52.3,10,5,7,1,2026-05-07T15:05:28.886601+05:30
Asansol,West Bengal,23.6739,86.9524,29.8,67,0.0,993.4,8.95,34.2,160,70.8,62.6,13.6,372.0,233.0,53.4,7,5,7,1,2026-05-07T15:05:28.886611+05:30
Pondicherry,Puducherry,11.9139,79.8145,30.7,68,0.0,1004.7,7.15,32.0,35,6.0,4.0,0.8,154.0,56.0,0.3,3,5,4,1,2026-05-07T15:05:28.886618+05:30
Port Blair,Andaman and Nicobar Islands,11.6234,92.7265,29.5,76,0.0,1004.1,8.45,34.2,34,5.6,4.3,0.5,148.0,74.0,0.1,7,5,4,1,2026-05-07T15:05:28.886625+05:30
Haridwar,Uttarakhand,29.9457,78.1642,29.0,44,0.0,975.0,6.9,40.0,133,78.9,25.3,1.4,218.0,188.0,9.0,4,5,7,0,2026-05-07T15:05:28.886631+05:30
Rishikesh,Uttarakhand,30.0869,78.2676,28.0,42,0.0,967.7,6.45,35.3,137,67.5,21.8,0.9,213.0,188.0,7.9,4,5,7,0,2026-05-07T15:05:28.886637+05:30
Nainital,Uttarakhand,29.3919,79.4542,15.3,65,0.0,806.2,7.4,29.5,123,71.7,23.5,0.9,199.0,175.0,6.9,3,5,7,0,2026-05-07T15:05:28.886643+05:30
Mussoorie,Uttarakhand,30.4599,78.0664,16.0,60,0.0,803.5,5.95,32.8,132,67.3,23.4,1.6,212.0,183.0,9.4,0,5,3,0,2026-05-07T15:05:28.886650+05:30
Dharamshala,Himachal Pradesh,32.219,76.3234,20.7,50,0.0,869.4,6.7,37.1,119,43.9,13.8,0.6,199.0,153.0,1.1,0,5,7,0,2026-05-07T15:05:28.886656+05:30
Dalhousie,Himachal Pradesh,32.5387,75.971,16.8,53,0.0,805.3,7.7,32.4,135,21.0,10.9,1.3,199.0,183.0,3.9,0,5,7,0,2026-05-07T15:05:28.886662+05:30
Patiala,Punjab,30.3398,76.3869,30.7,35,0.0,977.9,7.4,44.6,271,455.4,58.8,1.6,275.0,201.0,7.9,0,5,7,0,2026-05-07T15:05:28.886668+05:30
Bhatinda,Punjab,30.211,74.9455,36.8,22,0.0,981.2,8.1,39.2,150,646.3,85.2,1.8,236.0,195.0,13.1,0,5,10,0,2026-05-07T15:05:28.886674+05:30
Rohtak,Haryana,28.8955,76.6066,32.1,31,0.0,980.4,7.6,49.7,554,957.4,116.4,3.1,255.0,210.0,15.4,0,5,7,0,2026-05-07T15:05:28.886680+05:30
Panipat,Haryana,29.3909,76.9635,29.4,43,0.0,980.6,7.2,43.6,1026,787.9,88.2,3.1,261.0,197.0,16.0,4,5,7,0,2026-05-07T15:05:28.886686+05:30
Mathura,Uttar Pradesh,27.4924,77.6737,33.5,31,0.0,986.1,7.85,47.5,740,1344.8,129.9,1.4,244.0,177.0,7.1,0,5,7,0,2026-05-07T15:05:28.886692+05:30
Vrindavan,Uttar Pradesh,27.5823,77.7027,33.8,31,0.0,986.5,7.8,47.9,740,1344.8,129.9,1.4,245.0,177.0,7.1,0,5,7,0,2026-05-07T15:05:28.886697+05:30
Ayodhya,Uttar Pradesh,26.7922,82.1998,30.6,48,0.0,995.9,7.95,31.0,112,73.1,29.1,1.2,287.0,171.0,6.7,0,5,7,1,2026-05-07T15:05:28.886702+05:30
Ratlam,Madhya Pradesh,23.3315,75.0367,38.5,14,0.0,952.7,8.45,33.5,101,20.9,9.4,0.6,165.0,160.0,4.4,0,5,10,0,2026-05-07T15:05:28.886708+05:30
Sagar,Madhya Pradesh,23.8388,78.7378,38.0,12,0.0,949.1,8.65,35.3,106,23.0,7.5,0.6,161.0,156.0,3.0,0,5,10,0,2026-05-07T15:05:28.886713+05:30
Satna,Madhya Pradesh,24.6005,80.8322,34.2,25,0.0,971.5,8.65,40.3,128,88.0,24.9,1.0,221.0,172.0,6.0,0,5,7,0,2026-05-07T15:05:28.886719+05:30
Akola,Maharashtra,20.7002,77.0082,39.0,21,0.0,972.4,8.85,41.0,95,41.8,21.0,1.6,185.0,170.0,7.5,0,5,10,0,2026-05-07T15:05:28.886726+05:30
Amravati,Maharashtra,20.9374,77.7796,39.1,19,0.0,965.1,6.4,33.5,97,41.8,21.1,1.7,196.0,171.0,4.7,0,5,10,0,2026-05-07T15:05:28.886732+05:30
Latur,Maharashtra,18.4088,76.5604,37.2,23,0.0,937.9,8.4,35.3,89,38.5,19.0,1.3,188.0,152.0,4.1,0,5,10,0,2026-05-07T15:05:28.886738+05:30
Nanded,Maharashtra,19.1383,77.3091,36.7,26,0.0,966.5,8.3,42.1,89,40.2,20.0,1.1,187.0,156.0,4.0,0,5,10,0,2026-05-07T15:05:28.886743+05:30
Gulbarga,Karnataka,17.3297,76.8343,37.3,25,0.0,956.1,9.1,36.0,89,38.2,22.6,1.7,197.0,167.0,7.6,0,5,10,0,2026-05-07T15:05:28.886749+05:30
Bidar,Karnataka,17.9104,77.5199,30.0,44,0.0,934.2,8.45,41.8,80,35.7,19.2,1.5,192.0,151.0,3.4,4,5,7,1,2026-05-07T15:05:28.886753+05:30
Hospet,Karnataka,15.2689,76.3909,35.7,31,0.0,952.7,9.2,33.5,103,38.8,26.0,2.4,230.0,180.0,6.4,0,5,10,1,2026-05-07T15:05:28.886759+05:30
Tirupur,Tamil Nadu,11.1085,77.3411,35.0,42,0.0,971.0,6.65,28.1,82,23.3,14.0,1.8,216.0,130.0,2.2,0,5,7,1,2026-05-07T15:05:28.886763+05:30
Alappuzha,Kerala,9.4981,76.3388,28.9,80,0.0,1004.6,6.85,17.3,107,25.8,20.2,2.8,211.0,186.0,5.2,7,5,4,1,2026-05-07T15:05:28.886768+05:30
Munnar,Kerala,10.0889,77.0595,20.6,88,0.0,854.7,6.5,24.8,77,23.1,14.5,1.1,195.0,110.0,1.2,3,5,7,1,2026-05-07T15:05:28.886774+05:30
Silchar,Assam,24.8333,92.7789,31.2,59,0.0,1003.8,8.85,21.6,113,20.1,15.0,1.3,199.0,106.0,1.6,0,5,4,1,2026-05-07T15:05:28.886779+05:30
Dibrugarh,Assam,27.4728,94.912,28.3,62,0.0,994.8,8.8,27.0,77,46.0,28.6,1.4,236.0,136.0,1.7,7,5,7,1,2026-05-07T15:05:28.886784+05:30
