city,state,latitude,longitude,temp,humidity,rain,pressure,uv_index,wind_gusts,aqi,pm10,pm2_5,mosquito_risk,arthritis_risk,migraine_risk,frizz_risk,updated_at
Delhi,Delhi,28.6139,77.209,25.6,60,0.0,984.6,5.95,30.2,218,433.1,121.1,4,5,3,1,2026-03-12T21:31:45.979479+05:30
Mumbai,Maharashtra,19.076,72.8777,28.9,73,0.0,1008.3,7.6,27.7,241,43.3,41.3,7,0,4,1,2026-03-12T21:31:45.979521+05:30
Bangalore,Karnataka,12.9716,77.5946,25.1,41,0.0,912.7,9.3,32.8,73,23.2,21.2,4,5,7,0,2026-03-12T21:31:45.979536+05:30
Hyderabad,Telangana,17.385,78.4867,26.8,44,0.0,954.2,8.65,23.4,131,42.5,34.0,4,5,7,0,2026-03-12T21:31:45.979547+05:30
Chennai,Tamil Nadu,13.0827,80.2707,26.5,86,0.0,1009.1,9.0,29.5,78,24.9,21.0,7,0,4,1,2026-03-12T21:31:45.979556+05:30
Kolkata,West Bengal,22.5726,88.3639,24.6,84,0.0,1008.5,7.95,20.9,141,40.0,36.4,3,0,4,1,2026-03-12T21:31:45.979564+05:30
Pune,Maharashtra,18.5204,73.8567,29.0,46,0.0,949.6,8.15,25.9,141,44.2,41.7,4,5,7,1,2026-03-12T21:31:45.979576+05:30
Ahmedabad,Gujarat,23.0225,72.5714,28.5,30,0.0,1003.3,7.45,30.6,75,59.3,46.7,4,5,4,0,2026-03-12T21:31:45.979584+05:30
Jaipur,Rajasthan,26.9124,75.7873,27.5,21,0.0,961.3,6.4,42.8,104,87.5,36.4,4,5,7,0,2026-03-12T21:31:45.979591+05:30
Lucknow,Uttar Pradesh,26.8467,80.9462,26.9,51,0.0,994.8,6.5,28.1,154,312.9,75.7,4,5,7,0,2026-03-12T21:31:45.979600+05:30
Kanpur,Uttar Pradesh,26.4499,80.3319,26.6,60,0.0,992.9,6.0,18.0,201,405.1,85.7,4,5,3,1,2026-03-12T21:31:45.979608+05:30
Chandigarh,Chandigarh,30.7333,76.7794,21.5,69,0.0,970.3,5.95,32.0,96,68.0,51.3,3,5,3,0,2026-03-12T21:31:45.979615+05:30
Srinagar,Jammu and Kashmir,34.0837,74.7973,8.2,94,0.0,841.7,6.35,23.0,91,22.9,20.7,3,10,7,0,2026-03-12T21:31:45.979623+05:30
Jammu,Jammu and Kashmir,32.7266,74.857,20.3,83,0.0,975.8,6.05,39.6,81,67.3,49.4,3,5,7,1,2026-03-12T21:31:45.979631+05:30
Amritsar,Punjab,31.634,74.8723,20.9,80,0.0,983.9,6.65,32.4,153,56.7,34.5,3,5,7,1,2026-03-12T21:31:45.979637+05:30
Ludhiana,Punjab,30.901,75.8573,22.8,72,0.0,981.0,6.2,59.4,154,71.5,42.1,3,5,7,1,2026-03-12T21:31:45.979644+05:30
Jalandhar,Punjab,31.326,75.5762,22.2,75,0.0,982.5,6.4,31.7,143,90.3,35.4,3,5,7,1,2026-03-12T21:31:45.979653+05:30
Dehradun,Uttarakhand,30.6284,78.0322,14.2,65,0.0,830.9,5.85,37.1,57,36.2,15.0,3,5,3,0,2026-03-12T21:31:45.979660+05:30
Shimla,Himachal Pradesh,31.1048,77.1734,11.9,66,0.0,784.7,6.5,42.5,71,58.4,28.9,3,5,7,0,2026-03-12T21:31:45.979683+05:30
Manali,Himachal Pradesh,32.2396,77.1887,12.8,46,0.0,820.7,3.7,44.6,47,14.0,7.4,0,5,3,0,2026-03-12T21:31:45.979690+05:30
Gurgaon,Haryana,28.4595,77.0266,23.4,70,0.0,982.9,6.15,31.0,799,570.0,137.4,3,5,7,1,2026-03-12T21:31:45.979697+05:30
Noida,Uttar Pradesh,28.5355,77.391,25.5,59,0.0,986.0,6.0,29.9,799,570.0,137.4,4,5,3,1,2026-03-12T21:31:45.979704+05:30
Ghaziabad,Uttar Pradesh,28.6692,77.4538,24.2,66,0.0,984.2,5.95,26.3,170,395.8,108.5,3,5,3,1,2026-03-12T21:31:45.979711+05:30
Faridabad,Haryana,28.4089,77.3178,23.3,63,0.0,985.2,6.2,29.9,799,570.0,137.4,3,5,7,0,2026-03-12T21:31:45.979718+05:30
Meerut,Uttar Pradesh,28.9845,77.7064,23.4,70,0.0,982.9,5.95,24.5,170,395.8,108.5,3,5,3,1,2026-03-12T21:31:45.979724+05:30
Agra,Uttar Pradesh,27.1767,78.0081,25.8,38,0.0,988.9,6.2,31.7,390,366.0,104.1,4,5,7,0,2026-03-12T21:31:45.979731+05:30
Varanasi,Uttar Pradesh,25.3176,82.9739,24.5,61,0.0,999.1,7.3,23.8,116,63.6,37.3,3,5,7,1,2026-03-12T21:31:45.979741+05:30
Prayagraj,Uttar Pradesh,25.4358,81.8463,27.5,47,0.0,997.4,6.6,23.0,126,102.9,44.5,4,5,7,0,2026-03-12T21:31:45.979748+05:30
Gorakhpur,Uttar Pradesh,26.7606,83.3732,25.1,67,0.0,998.3,7.05,18.4,201,134.6,95.9,7,5,7,1,2026-03-12T21:31:45.979754+05:30
Bareilly,Uttar Pradesh,28.367,79.4304,22.9,64,0.0,987.8,6.25,23.4,128,385.6,86.1,3,5,7,0,2026-03-12T21:31:45.979763+05:30
Aligarh,Uttar Pradesh,27.8974,78.088,22.9,55,0.0,986.6,5.9,29.9,463,713.4,121.5,0,5,3,0,2026-03-12T21:31:45.979770+05:30
Moradabad,Uttar Pradesh,28.8386,78.7733,23.1,66,0.0,984.8,6.05,26.3,141,231.4,81.5,3,5,7,1,2026-03-12T21:31:45.979776+05:30
Saharanpur,Uttar Pradesh,29.9637,77.546,22.5,73,0.0,977.1,5.25,24.8,151,201.6,82.7,3,5,3,1,2026-03-12T21:31:45.979782+05:30
Jhansi,Uttar Pradesh,25.4484,78.5685,28.0,34,0.0,979.4,6.7,29.9,85,20.7,18.2,4,5,7,0,2026-03-12T21:31:49.198581+05:30
Surat,Gujarat,21.1702,72.8311,29.3,44,0.0,1006.6,7.3,26.3,143,58.4,56.9,4,5,4,0,2026-03-12T21:31:49.198612+05:30
Vadodara,Gujarat,22.3072,73.1812,30.5,30,0.0,1004.9,7.45,26.6,142,57.9,55.3,0,5,4,0,2026-03-12T21:31:49.198622+05:30
Rajkot,Gujarat,22.3039,70.8022,28.4,32,0.0,995.8,7.3,31.3,103,36.4,21.6,4,5,7,0,2026-03-12T21:31:49.198630+05:30
Thane,Maharashtra,19.2183,72.9781,27.9,71,0.0,1007.7,7.6,41.4,241,43.3,41.3,7,5,4,1,2026-03-12T21:31:49.198638+05:30
Nagpur,Maharashtra,21.1458,79.0882,29.5,31,0.0,973.5,8.0,16.6,128,53.1,42.3,4,5,7,0,2026-03-12T21:31:49.198645+05:30
Nashik,Maharashtra,19.9975,73.7898,28.4,31,0.0,946.7,7.8,33.8,115,31.7,30.3,4,5,7,0,2026-03-12T21:31:49.198652+05:30
Aurangabad,Maharashtra,19.8762,75.3433,28.1,30,0.0,945.0,8.3,20.5,111,24.4,23.3,4,5,7,0,2026-03-12T21:31:49.198659+05:30
Solapur,Maharashtra,17.6599,75.9064,27.2,52,0.0,957.3,8.5,18.0,133,38.3,35.2,4,5,7,1,2026-03-12T21:31:49.198685+05:30
Kolhapur,Maharashtra,16.705,74.2433,26.2,62,0.0,948.8,8.65,27.7,151,79.2,75.0,7,5,7,1,2026-03-12T21:31:49.198693+05:30
Goa,Goa,15.2993,74.124,28.2,83,0.0,998.4,8.7,33.5,142,55.6,49.0,7,5,7,1,2026-03-12T21:31:49.198701+05:30
Jodhpur,Rajasthan,26.2389,73.0243,27.7,29,0.0,984.2,6.55,25.9,71,112.2,28.6,4,5,7,0,2026-03-12T21:31:49.198709+05:30
Udaipur,Rajasthan,24.5854,73.7125,25.2,24,0.0,948.5,7.55,38.5,90,13.5,9.6,4,5,7,0,2026-03-12T21:31:49.198716+05:30
Kota,Rajasthan,25.2138,75.8648,25.3,38,0.0,979.8,6.75,34.2,76,30.9,29.9,4,5,7,0,2026-03-12T21:31:49.198723+05:30
Bikaner,Rajasthan,28.0229,73.3119,28.3,38,0.0,983.9,6.15,28.4,103,55.2,30.4,4,5,7,0,2026-03-12T21:31:49.198730+05:30
Ajmer,Rajasthan,26.4499,74.6399,26.5,28,0.0,956.1,6.75,34.2,76,49.8,23.2,4,5,7,0,2026-03-12T21:31:49.198737+05:30
Gwalior,Madhya Pradesh,26.2183,78.1828,27.5,29,0.0,984.5,6.3,33.8,75,14.4,14.3,4,5,7,0,2026-03-12T21:31:49.198743+05:30
Indore,Madhya Pradesh,22.7196,75.8577,22.9,41,0.0,949.3,7.75,29.2,90,32.7,31.9,0,5,7,0,2026-03-12T21:31:49.198751+05:30
Bhopal,Madhya Pradesh,23.2599,77.4126,26.3,36,0.0,955.2,7.6,28.8,101,29.0,24.4,4,5,7,0,2026-03-12T21:31:49.198758+05:30
Jabalpur,Madhya Pradesh,23.1815,79.9864,27.7,36,0.0,962.6,7.75,20.5,99,43.3,27.4,4,5,7,0,2026-03-12T21:31:49.198766+05:30
Ujjain,Madhya Pradesh,23.1765,75.7885,24.1,43,0.0,955.2,7.65,27.7,95,26.1,25.3,0,5,7,0,2026-03-12T21:31:49.198773+05:30
Visakhapatnam,Andhra Pradesh,17.6868,83.2185,26.1,89,0.0,1005.5,8.65,40.3,91,33.2,29.0,7,5,4,1,2026-03-12T21:31:49.198781+05:30
Vijayawada,Andhra Pradesh,16.5062,80.648,27.1,76,0.0,1003.8,8.7,28.4,83,24.8,23.2,7,5,4,1,2026-03-12T21:31:49.198787+05:30
Guntur,Andhra Pradesh,16.3067,80.4365,26.4,83,0.0,1005.3,8.7,36.0,97,26.0,24.1,7,5,4,1,2026-03-12T21:31:49.198795+05:30
Nellore,Andhra Pradesh,14.4426,79.9865,25.9,90,0.0,1007.7,8.9,28.1,72,20.4,18.0,7,5,4,1,2026-03-12T21:31:49.198803+05:30
Kurnool,Andhra Pradesh,15.8281,78.0373,30.6,33,0.0,977.7,8.65,25.9,98,32.4,28.3,0,5,7,0,2026-03-12T21:31:49.198812+05:30
Kakinada,Andhra Pradesh,16.9891,82.2475,25.2,91,0.0,1009.1,8.65,41.0,70,27.1,22.4,7,0,4,1,2026-03-12T21:31:49.198819+05:30
Tirupati,Andhra Pradesh,13.6288,79.4192,26.9,60,0.0,993.6,9.05,36.4,101,38.2,36.4,4,5,7,1,2026-03-12T21:31:49.198826+05:30
Warangal,Telangana,17.9689,79.5941,28.4,43,0.0,979.2,8.45,11.9,132,55.3,47.8,4,5,7,0,2026-03-12T21:31:49.198833+05:30
Nizamabad,Telangana,18.6725,78.0941,26.7,48,0.0,965.3,8.35,19.8,117,55.4,49.6,4,5,7,0,2026-03-12T21:31:49.198840+05:30
Mysore,Karnataka,12.2958,76.6396,25.3,45,0.0,928.9,9.3,34.9,69,20.4,18.9,4,5,7,0,2026-03-12T21:31:49.198847+05:30
Mangalore,Karnataka,12.9141,74.856,29.4,82,0.0,1007.3,8.9,32.8,103,48.9,42.0,7,5,4,1,2026-03-12T21:31:49.198854+05:30
Hubli-Dharwad,Karnataka,15.3647,75.124,26.7,32,0.0,941.4,8.85,35.6,128,21.9,19.4,4,5,7,0,2026-03-12T21:31:49.198861+05:30
Belgaum,Karnataka,15.8497,74.4977,26.0,53,0.0,926.7,8.9,37.4,136,39.5,36.4,4,5,7,0,2026-03-12T21:31:52.423932+05:30
Coimbatore,Tamil Nadu,11.0168,76.9558,23.2,58,0.0,962.6,9.3,44.3,73,27.0,26.1,0,5,7,0,2026-03-12T21:31:52.423964+05:30
Madurai,Tamil Nadu,9.9252,78.1198,28.1,68,0.0,994.3,9.2,32.0,71,22.0,21.1,7,5,7,1,2026-03-12T21:31:52.423974+05:30
Trichy,Tamil Nadu,10.7905,78.7047,27.3,76,0.0,1001.4,9.15,28.1,80,23.0,21.9,7,5,4,1,2026-03-12T21:31:52.423982+05:30
Salem,Tamil Nadu,11.6643,78.146,27.2,60,0.0,978.3,9.2,27.7,77,29.4,28.0,4,5,7,1,2026-03-12T21:31:52.423990+05:30
Tirunelveli,Tamil Nadu,8.7139,77.7567,27.7,72,0.0,1004.7,8.45,27.4,61,18.4,17.2,7,5,4,1,2026-03-12T21:31:52.423997+05:30
Vellore,Tamil Nadu,12.9165,79.1325,26.7,73,0.0,986.5,9.1,36.4,91,34.9,33.5,7,5,7,1,2026-03-12T21:31:52.424005+05:30
Erode,Tamil Nadu,11.341,77.7172,28.8,53,0.0,989.8,9.15,24.5,79,25.6,24.8,4,5,7,1,2026-03-12T21:31:52.424012+05:30
Kochi,Kerala,9.9312,76.2673,28.7,80,0.0,1009.6,9.05,35.6,128,40.5,38.2,7,0,4,1,2026-03-12T21:31:52.424020+05:30
Thiruvananthapuram,Kerala,8.5241,76.9366,28.4,76,0.0,1009.1,7.9,25.9,110,19.4,15.4,7,0,4,1,2026-03-12T21:31:52.424027+05:30
Kozhikode,Kerala,11.2588,75.7804,29.3,80,0.0,1008.5,9.0,31.7,100,34.3,28.8,7,0,4,1,2026-03-12T21:31:52.424034+05:30
Thrissur,Kerala,10.5276,76.2144,28.6,82,0.0,1007.7,9.05,39.2,95,32.7,30.5,7,5,4,1,2026-03-12T21:31:52.424041+05:30
Kannur,Kerala,11.8745,75.3704,28.9,79,0.0,1007.7,9.0,34.9,97,43.8,36.8,7,5,4,1,2026-03-12T21:31:52.424049+05:30
Patna,Bihar,25.5941,85.1376,28.1,54,0.0,1001.8,7.45,22.0,202,171.4,120.1,4,5,4,1,2026-03-12T21:31:52.424056+05:30
Gaya,Bihar,24.7914,85.0002,27.9,47,0.0,995.4,7.6,21.6,175,172.3,61.2,4,5,7,0,2026-03-12T21:31:52.424063+05:30
Muzaffarpur,Bihar,26.1209,85.3647,25.3,81,0.0,1001.9,7.4,25.6,227,163.9,154.1,7,5,4,1,2026-03-12T21:31:52.424070+05:30
Bhagalpur,Bihar,25.2425,87.0117,25.9,81,0.0,1003.2,7.5,33.5,187,115.9,108.7,7,5,4,1,2026-03-12T21:31:52.424077+05:30
Ranchi,Jharkhand,23.3441,85.3096,23.8,44,0.0,939.4,8.2,33.8,155,88.0,34.0,0,5,7,0,2026-03-12T21:31:52.424083+05:30
Jamshedpur,Jharkhand,22.8046,86.2029,26.9,77,0.0,992.2,8.05,18.7,168,87.5,79.6,7,5,7,1,2026-03-12T21:31:52.424090+05:30
Dhanbad,Jharkhand,23.7957,86.4304,27.3,45,0.0,981.5,8.0,20.9,188,147.1,119.7,4,5,7,0,2026-03-12T21:31:52.424097+05:30
Bokaro,Jharkhand,23.6693,86.1511,26.8,43,0.0,985.5,8.0,23.4,178,141.6,78.7,4,5,7,0,2026-03-12T21:31:52.424104+05:30
Bhubaneswar,Odisha,20.2961,85.8245,26.4,91,0.0,1004.3,8.35,33.5,121,46.3,41.1,7,5,4,1,2026-03-12T21:31:52.424111+05:30
Cuttack,Odisha,20.4625,85.8828,27.1,86,0.0,1006.1,8.35,29.5,121,46.3,41.1,7,5,4,1,2026-03-12T21:31:52.424118+05:30
Rourkela,Odisha,22.2604,84.8536,28.0,53,0.0,985.8,8.0,16.2,152,129.9,51.5,4,5,7,1,2026-03-12T21:31:52.424124+05:30
Raipur,Chhattisgarh,21.2514,81.6296,28.1,37,0.0,975.3,8.1,16.2,159,61.0,44.6,4,5,7,0,2026-03-12T21:31:52.424130+05:30
Bhilai,Chhattisgarh,21.1938,81.3509,26.3,46,0.0,975.6,8.1,11.9,153,62.4,46.4,4,5,7,0,2026-03-12T21:31:52.424136+05:30
Guwahati,Assam,26.1158,91.7086,23.9,91,0.0,1005.1,7.15,24.1,152,83.8,80.1,3,5,4,1,2026-03-12T21:31:52.424143+05:30
Agartala,Tripura,23.8315,91.2868,22.5,88,0.0,1009.2,7.7,19.1,155,64.0,60.1,3,0,4,1,2026-03-12T21:31:52.424150+05:30
Shillong,Meghalaya,25.5788,91.8933,12.2,93,0.0,856.8,6.65,26.3,145,78.9,71.9,3,10,7,0,2026-03-12T21:31:52.424157+05:30
Imphal,Manipur,24.817,93.9368,17.3,90,0.0,925.5,8.0,31.0,168,93.4,88.9,3,10,7,0,2026-03-12T21:31:52.424164+05:30
Aizawl,Mizoram,23.7271,92.7176,18.6,74,0.0,894.8,7.9,37.1,185,114.8,103.1,3,5,7,0,2026-03-12T21:31:52.424171+05:30
Kohima,Nagaland,25.6701,94.1077,15.0,87,0.0,856.5,7.1,41.4,151,72.2,69.2,3,10,7,0,2026-03-12T21:31:52.424177+05:30
Gangtok,Sikkim,27.3314,88.6138,15.1,93,0.0,839.0,7.15,20.2,95,28.9,26.8,3,10,7,0,2026-03-12T21:31:52.424184+05:30
Siliguri,West Bengal,26.7271,88.3953,20.8,81,0.0,997.0,7.4,23.8,164,62.6,57.6,3,5,7,1,2026-03-12T21:31:55.668310+05:30
Durgapur,West Bengal,23.5204,87.3119,26.2,83,0.0,996.8,7.95,26.3,187,121.1,112.7,7,5,7,1,2026-03-12T21:31:55.668341+05:30
Asansol,West Bengal,23.6739,86.9524,26.9,80,0.0,995.5,7.35,24.5,184,120.1,114.6,7,5,7,1,2026-03-12T21:31:55.668350+05:30
Pondicherry,Puducherry,11.9139,79.8145,25.6,93,0.0,1010.4,9.0,29.5,71,23.1,18.7,7,0,4,1,2026-03-12T21:31:55.668358+05:30
Port Blair,Andaman and Nicobar Islands,11.6234,92.7265,28.1,77,0.0,1008.7,8.95,20.5,45,15.8,13.0,7,0,4,1,2026-03-12T21:31:55.668366+05:30
Haridwar,Uttarakhand,29.9457,78.1642,22.6,74,0.0,975.8,5.35,30.2,103,85.4,49.0,3,5,3,1,2026-03-12T21:31:55.668373+05:30
Rishikesh,Uttarakhand,30.0869,78.2676,20.9,66,0.0,968.5,5.45,29.5,102,59.6,29.0,3,5,3,0,2026-03-12T21:31:55.668381+05:30
Nainital,Uttarakhand,29.3919,79.4542,19.0,55,0.0,807.3,6.55,55.1,120,94.5,41.1,0,5,7,0,2026-03-12T21:31:55.668389+05:30
Mussoorie,Uttarakhand,30.4599,78.0664,16.6,49,0.0,804.0,6.1,42.8,88,70.8,41.3,0,5,7,0,2026-03-12T21:31:55.668395+05:30
Dharamshala,Himachal Pradesh,32.219,76.3234,18.6,54,0.0,870.6,6.55,50.8,52,38.0,20.8,0,5,7,0,2026-03-12T21:31:55.668402+05:30
Dalhousie,Himachal Pradesh,32.5387,75.971,14.6,59,0.0,804.0,5.85,36.0,76,36.7,25.0,0,5,3,0,2026-03-12T21:31:55.668409+05:30
Patiala,Punjab,30.3398,76.3869,21.5,81,0.0,980.0,5.65,37.4,156,277.5,74.5,3,5,3,1,2026-03-12T21:31:55.668416+05:30
Bhatinda,Punjab,30.211,74.9455,22.8,80,0.0,986.4,6.4,28.1,154,85.0,57.7,3,5,7,1,2026-03-12T21:31:55.668423+05:30
Rohtak,Haryana,28.8955,76.6066,23.0,80,0.0,983.5,5.95,27.0,300,434.9,120.1,3,5,3,1,2026-03-12T21:31:55.668429+05:30
Panipat,Haryana,29.3909,76.9635,22.2,85,0.0,982.2,5.75,20.9,345,551.3,104.1,3,5,3,1,2026-03-12T21:31:55.668436+05:30
Mathura,Uttar Pradesh,27.4924,77.6737,22.9,46,0.0,987.7,5.8,30.6,300,425.6,85.2,0,5,3,0,2026-03-12T21:31:55.668442+05:30
Vrindavan,Uttar Pradesh,27.5823,77.7027,23.1,50,0.0,988.3,5.65,32.4,300,425.6,85.2,0,5,3,0,2026-03-12T21:31:55.668448+05:30
Ayodhya,Uttar Pradesh,26.7922,82.1998,23.9,61,0.0,996.7,6.55,26.3,153,98.7,54.0,3,5,7,0,2026-03-12T21:31:55.668454+05:30
Ratlam,Madhya Pradesh,23.3315,75.0367,27.8,27,0.0,956.1,7.6,33.1,93,19.3,18.6,4,5,7,0,2026-03-12T21:31:55.668461+05:30
Sagar,Madhya Pradesh,23.8388,78.7378,27.2,38,0.0,951.7,7.55,27.0,101,22.2,17.7,4,5,7,0,2026-03-12T21:31:55.668467+05:30
Satna,Madhya Pradesh,24.6005,80.8322,27.9,32,0.0,972.6,7.55,29.2,94,18.6,14.2,4,5,7,0,2026-03-12T21:31:55.668473+05:30
Akola,Maharashtra,20.7002,77.0082,28.4,35,0.0,975.5,8.05,22.7,139,42.7,33.6,4,5,7,0,2026-03-12T21:31:55.668480+05:30
Amravati,Maharashtra,20.9374,77.7796,28.4,45,0.0,967.9,8.0,16.9,145,44.6,34.8,4,5,7,0,2026-03-12T21:31:55.668487+05:30
Latur,Maharashtra,18.4088,76.5604,26.3,48,0.0,940.5,8.45,19.1,137,34.3,29.7,4,5,7,0,2026-03-12T21:31:55.668493+05:30
Nanded,Maharashtra,19.1383,77.3091,28.4,43,0.0,968.9,8.25,16.2,120,53.4,47.7,4,5,7,0,2026-03-12T21:31:55.668499+05:30
Gulbarga,Karnataka,17.3297,76.8343,30.6,44,0.0,959.4,8.5,18.0,144,33.2,29.2,0,5,7,1,2026-03-12T21:31:55.668505+05:30
Bidar,Karnataka,17.9104,77.5199,27.7,42,0.0,936.3,8.45,19.1,123,53.3,45.8,4,5,7,0,2026-03-12T21:31:55.668512+05:30
Hospet,Karnataka,15.2689,76.3909,29.5,35,0.0,956.5,8.8,32.4,120,34.8,30.4,4,5,7,0,2026-03-12T21:31:55.668518+05:30
Tirupur,Tamil Nadu,11.1085,77.3411,29.0,47,0.0,976.2,9.3,32.8,85,27.4,26.5,4,5,7,1,2026-03-12T21:31:55.668524+05:30
Alappuzha,Kerala,9.4981,76.3388,28.2,81,0.0,1009.9,8.4,32.0,121,35.6,32.2,7,0,4,1,2026-03-12T21:31:55.668530+05:30
Munnar,Kerala,10.0889,77.0595,22.3,73,0.0,857.8,9.5,23.0,71,28.8,27.8,3,5,7,1,2026-03-12T21:31:55.668537+05:30
Silchar,Assam,24.8333,92.7789,24.2,85,0.0,1008.2,7.7,23.8,179,150.4,139.7,3,0,4,1,2026-03-12T21:31:55.668543+05:30
Dibrugarh,Assam,27.4728,94.912,23.9,86,0.0,999.1,6.3,20.2,126,51.1,49.5,3,5,7,1,2026-03-12T21:31:55.668549+05:30
