city,state,latitude,longitude,temp,humidity,rain,pressure,uv_index,wind_gusts,aqi,pm10,pm2_5,mosquito_risk,arthritis_risk,migraine_risk,frizz_risk,updated_at
Delhi,Delhi,28.6139,77.209,26.4,50,0.0,987.5,5.95,20.2,168,194.6,104.1,4,5,3,0,2026-03-07T22:02:14.748731+05:30
Mumbai,Maharashtra,19.076,72.8777,27.4,78,0.0,1010.2,7.5,24.8,143,40.5,37.1,7,0,4,1,2026-03-07T22:02:14.748785+05:30
Bangalore,Karnataka,12.9716,77.5946,24.3,41,0.0,913.2,9.2,24.8,131,39.7,35.5,0,5,7,0,2026-03-07T22:02:14.748802+05:30
Hyderabad,Telangana,17.385,78.4867,26.3,44,0.0,955.4,8.5,27.0,118,43.9,36.1,4,5,7,0,2026-03-07T22:02:14.748813+05:30
Chennai,Tamil Nadu,13.0827,80.2707,27.3,77,0.0,1010.1,8.9,34.6,89,25.5,18.6,7,0,4,1,2026-03-07T22:02:14.748822+05:30
Kolkata,West Bengal,22.5726,88.3639,24.8,89,0.0,1011.1,7.8,18.0,144,61.0,53.8,3,0,4,1,2026-03-07T22:02:14.748832+05:30
Pune,Maharashtra,18.5204,73.8567,26.7,45,0.0,950.7,8.05,24.8,115,30.7,29.7,4,5,7,0,2026-03-07T22:02:14.748846+05:30
Ahmedabad,Gujarat,23.0225,72.5714,26.5,46,0.0,1004.8,7.3,13.7,107,58.6,52.3,4,5,4,0,2026-03-07T22:02:14.748855+05:30
Jaipur,Rajasthan,26.9124,75.7873,27.0,27,0.0,963.7,6.7,20.2,102,55.9,38.1,4,5,7,0,2026-03-07T22:02:14.748865+05:30
Lucknow,Uttar Pradesh,26.8467,80.9462,25.9,62,0.0,998.3,6.45,16.9,164,156.9,127.6,7,5,7,1,2026-03-07T22:02:14.748874+05:30
Kanpur,Uttar Pradesh,26.4499,80.3319,25.2,70,0.0,996.3,6.5,14.4,161,147.1,105.0,7,5,7,1,2026-03-07T22:02:14.748883+05:30
Chandigarh,Chandigarh,30.7333,76.7794,24.0,66,0.0,973.2,5.85,19.1,159,99.7,80.3,3,5,3,1,2026-03-07T22:02:14.748908+05:30
Srinagar,Jammu and Kashmir,34.0837,74.7973,11.0,77,0.0,845.5,5.45,18.4,113,86.1,71.0,3,5,3,0,2026-03-07T22:02:14.748917+05:30
Jammu,Jammu and Kashmir,32.7266,74.857,21.6,88,0.0,977.4,5.85,11.5,137,88.5,80.8,3,5,3,1,2026-03-07T22:02:14.748925+05:30
Amritsar,Punjab,31.634,74.8723,22.5,83,0.0,985.2,6.4,18.7,151,122.9,90.3,3,5,7,1,2026-03-07T22:02:14.748933+05:30
Ludhiana,Punjab,30.901,75.8573,24.6,65,0.0,983.3,6.1,16.2,170,170.9,134.6,3,5,7,1,2026-03-07T22:02:14.748941+05:30
Jalandhar,Punjab,31.326,75.5762,23.5,71,0.0,984.6,6.25,18.4,165,167.6,120.1,3,5,7,1,2026-03-07T22:02:14.748952+05:30
Dehradun,Uttarakhand,30.6284,78.0322,15.4,94,0.0,834.1,6.2,27.0,154,79.4,62.4,3,10,7,0,2026-03-07T22:02:14.748960+05:30
Shimla,Himachal Pradesh,31.1048,77.1734,13.6,83,0.0,788.0,6.3,35.6,150,79.2,65.9,3,10,7,0,2026-03-07T22:02:14.748968+05:30
Manali,Himachal Pradesh,32.2396,77.1887,17.2,41,0.0,825.7,7.3,42.1,83,25.7,15.0,0,5,7,0,2026-03-07T22:02:14.748976+05:30
Gurgaon,Haryana,28.4595,77.0266,23.6,60,0.0,985.6,6.05,13.7,187,208.2,93.1,0,5,7,0,2026-03-07T22:02:14.748983+05:30
Noida,Uttar Pradesh,28.5355,77.391,25.4,55,0.0,989.0,5.95,19.1,187,208.2,93.1,4,5,3,0,2026-03-07T22:02:14.748990+05:30
Ghaziabad,Uttar Pradesh,28.6692,77.4538,24.6,63,0.0,987.1,5.9,17.6,172,226.8,129.0,3,5,3,1,2026-03-07T22:02:14.748998+05:30
Faridabad,Haryana,28.4089,77.3178,24.3,52,0.0,988.1,6.0,14.4,187,208.2,93.1,0,5,3,0,2026-03-07T22:02:14.749005+05:30
Meerut,Uttar Pradesh,28.9845,77.7064,24.6,66,0.0,985.9,5.8,20.2,172,226.8,129.0,3,5,3,1,2026-03-07T22:02:14.749012+05:30
Agra,Uttar Pradesh,27.1767,78.0081,23.2,72,0.0,992.0,6.3,15.8,167,220.3,95.5,3,5,7,1,2026-03-07T22:02:14.749019+05:30
Varanasi,Uttar Pradesh,25.3176,82.9739,24.3,76,0.0,1002.0,7.1,16.9,175,128.1,116.4,3,5,4,1,2026-03-07T22:02:14.749029+05:30
Prayagraj,Uttar Pradesh,25.4358,81.8463,24.7,72,0.0,1000.7,7.0,14.0,172,103.1,92.7,3,5,4,1,2026-03-07T22:02:14.749036+05:30
Gorakhpur,Uttar Pradesh,26.7606,83.3732,24.0,74,0.0,1001.8,6.85,9.4,171,134.1,124.3,3,5,4,1,2026-03-07T22:02:14.749046+05:30
Bareilly,Uttar Pradesh,28.367,79.4304,23.9,77,0.0,991.5,6.15,10.1,163,126.2,106.6,3,5,7,1,2026-03-07T22:02:14.749055+05:30
Aligarh,Uttar Pradesh,27.8974,78.088,22.7,76,0.0,989.9,6.05,17.6,176,204.0,100.4,3,5,7,1,2026-03-07T22:02:14.749062+05:30
Moradabad,Uttar Pradesh,28.8386,78.7733,23.6,77,0.0,988.3,5.95,12.2,168,155.5,127.6,3,5,3,1,2026-03-07T22:02:14.749069+05:30
Saharanpur,Uttar Pradesh,29.9637,77.546,23.7,69,0.0,980.3,5.6,23.0,169,143.9,114.1,3,5,3,1,2026-03-07T22:02:14.749075+05:30
Jhansi,Uttar Pradesh,25.4484,78.5685,23.4,57,0.0,982.0,6.95,25.6,104,95.5,37.8,0,5,7,0,2026-03-07T22:02:17.964449+05:30
Surat,Gujarat,21.1702,72.8311,26.0,60,0.0,1008.9,7.2,24.5,154,73.1,71.7,4,0,4,1,2026-03-07T22:02:17.964479+05:30
Vadodara,Gujarat,22.3072,73.1812,27.1,57,0.0,1006.8,7.3,18.4,184,58.2,56.0,4,5,4,1,2026-03-07T22:02:17.964489+05:30
Rajkot,Gujarat,22.3039,70.8022,25.9,40,0.0,997.5,7.15,19.4,110,43.4,30.4,4,5,7,0,2026-03-07T22:02:17.964498+05:30
Thane,Maharashtra,19.2183,72.9781,26.1,77,0.0,1009.7,7.5,33.8,143,40.5,37.1,7,0,4,1,2026-03-07T22:02:17.964506+05:30
Nagpur,Maharashtra,21.1458,79.0882,26.7,50,0.0,975.7,7.85,21.2,92,32.7,24.6,4,5,7,0,2026-03-07T22:02:17.964513+05:30
Nashik,Maharashtra,19.9975,73.7898,26.4,45,0.0,948.0,7.65,33.8,117,40.4,39.6,4,5,7,0,2026-03-07T22:02:17.964520+05:30
Aurangabad,Maharashtra,19.8762,75.3433,26.9,37,0.0,946.2,8.15,22.7,130,36.2,34.7,4,5,7,0,2026-03-07T22:02:17.964528+05:30
Solapur,Maharashtra,17.6599,75.9064,26.6,50,0.0,958.4,8.4,19.8,126,23.6,21.1,4,5,7,0,2026-03-07T22:02:17.964535+05:30
Kolhapur,Maharashtra,16.705,74.2433,22.9,50,0.0,949.6,8.55,29.2,150,55.8,53.6,0,5,7,0,2026-03-07T22:02:17.964542+05:30
Goa,Goa,15.2993,74.124,27.6,77,0.0,999.8,8.6,31.7,152,49.1,45.6,7,5,7,1,2026-03-07T22:02:17.964550+05:30
Jodhpur,Rajasthan,26.2389,73.0243,28.8,32,0.0,986.6,7.0,20.2,65,98.7,24.9,4,5,7,0,2026-03-07T22:02:17.964557+05:30
Udaipur,Rajasthan,24.5854,73.7125,23.0,46,0.0,950.2,7.65,19.4,81,13.9,12.7,0,5,7,0,2026-03-07T22:02:17.964564+05:30
Kota,Rajasthan,25.2138,75.8648,26.5,43,0.0,982.4,7.05,14.8,98,40.4,38.3,4,5,7,0,2026-03-07T22:02:17.964571+05:30
Bikaner,Rajasthan,28.0229,73.3119,28.2,37,0.0,985.1,6.75,19.4,79,25.2,16.2,4,5,7,0,2026-03-07T22:02:17.964578+05:30
Ajmer,Rajasthan,26.4499,74.6399,25.6,32,0.0,958.2,7.0,16.9,78,30.2,28.9,4,5,7,0,2026-03-07T22:02:17.964584+05:30
Gwalior,Madhya Pradesh,26.2183,78.1828,24.7,58,0.0,987.5,6.65,20.5,115,124.3,40.6,0,5,7,0,2026-03-07T22:02:17.964591+05:30
Indore,Madhya Pradesh,22.7196,75.8577,22.4,54,0.0,950.6,7.6,18.0,84,34.0,31.4,0,5,7,0,2026-03-07T22:02:17.964597+05:30
Bhopal,Madhya Pradesh,23.2599,77.4126,24.2,47,0.0,956.7,7.5,20.9,88,38.1,23.3,0,5,7,0,2026-03-07T22:02:17.964604+05:30
Jabalpur,Madhya Pradesh,23.1815,79.9864,25.8,46,0.0,964.8,7.55,26.3,88,60.3,32.9,4,5,7,0,2026-03-07T22:02:17.964611+05:30
Ujjain,Madhya Pradesh,23.1765,75.7885,24.1,51,0.0,956.6,7.5,13.7,91,43.5,41.9,0,5,7,0,2026-03-07T22:02:17.964618+05:30
Visakhapatnam,Andhra Pradesh,17.6868,83.2185,26.6,83,0.0,1007.6,7.7,38.9,133,42.5,35.6,7,5,4,1,2026-03-07T22:02:17.964625+05:30
Vijayawada,Andhra Pradesh,16.5062,80.648,26.3,84,0.0,1005.6,8.6,29.2,142,36.3,32.8,7,5,4,1,2026-03-07T22:02:17.964632+05:30
Guntur,Andhra Pradesh,16.3067,80.4365,25.7,86,0.0,1006.9,8.6,32.4,145,39.1,36.1,7,5,4,1,2026-03-07T22:02:17.964639+05:30
Nellore,Andhra Pradesh,14.4426,79.9865,26.5,85,0.0,1009.2,8.75,33.8,119,26.4,22.0,7,0,4,1,2026-03-07T22:02:17.964646+05:30
Kurnool,Andhra Pradesh,15.8281,78.0373,29.4,33,0.0,978.3,8.6,24.1,107,22.0,17.9,4,5,7,0,2026-03-07T22:02:17.964654+05:30
Kakinada,Andhra Pradesh,16.9891,82.2475,26.1,84,0.0,1010.9,8.5,32.0,103,37.1,29.3,7,0,4,1,2026-03-07T22:02:17.964661+05:30
Tirupati,Andhra Pradesh,13.6288,79.4192,26.6,75,0.0,994.7,8.9,32.8,150,35.4,33.3,7,5,7,1,2026-03-07T22:02:17.964668+05:30
Warangal,Telangana,17.9689,79.5941,27.6,43,0.0,980.3,8.3,22.0,120,45.4,39.6,4,5,7,0,2026-03-07T22:02:17.964674+05:30
Nizamabad,Telangana,18.6725,78.0941,24.8,52,0.0,966.4,8.2,22.3,112,56.8,47.3,0,5,7,0,2026-03-07T22:02:17.964681+05:30
Mysore,Karnataka,12.2958,76.6396,24.7,70,0.0,929.8,9.2,32.0,125,62.6,59.3,3,5,7,1,2026-03-07T22:02:17.964688+05:30
Mangalore,Karnataka,12.9141,74.856,28.9,79,0.0,1008.7,8.8,26.6,151,48.4,44.4,7,0,4,1,2026-03-07T22:02:17.964694+05:30
Hubli-Dharwad,Karnataka,15.3647,75.124,24.4,81,0.0,942.6,8.75,26.3,160,30.6,27.5,3,5,7,1,2026-03-07T22:02:17.964701+05:30
Belgaum,Karnataka,15.8497,74.4977,22.8,82,0.0,927.3,8.8,41.0,153,51.6,49.7,3,5,7,1,2026-03-07T22:02:21.183498+05:30
Coimbatore,Tamil Nadu,11.0168,76.9558,24.8,81,0.0,963.5,9.2,33.8,125,40.0,39.1,3,5,7,1,2026-03-07T22:02:21.183527+05:30
Madurai,Tamil Nadu,9.9252,78.1198,26.7,82,0.0,995.7,9.15,28.1,138,33.4,31.1,7,5,7,1,2026-03-07T22:02:21.183537+05:30
Trichy,Tamil Nadu,10.7905,78.7047,27.0,79,0.0,1002.0,9.05,27.0,101,34.6,32.5,7,5,4,1,2026-03-07T22:02:21.183545+05:30
Salem,Tamil Nadu,11.6643,78.146,27.7,63,0.0,978.9,9.05,21.6,153,36.9,32.6,7,5,7,1,2026-03-07T22:02:21.183553+05:30
Tirunelveli,Tamil Nadu,8.7139,77.7567,27.5,68,0.0,1005.4,9.15,50.0,114,37.8,35.7,7,5,4,1,2026-03-07T22:02:21.183561+05:30
Vellore,Tamil Nadu,12.9165,79.1325,26.8,67,0.0,987.1,8.95,35.3,150,40.7,38.2,7,5,7,1,2026-03-07T22:02:21.183568+05:30
Erode,Tamil Nadu,11.341,77.7172,29.7,49,0.0,990.4,9.05,21.2,148,35.7,32.9,4,5,7,1,2026-03-07T22:02:21.183574+05:30
Kochi,Kerala,9.9312,76.2673,28.2,84,0.0,1010.5,9.0,30.6,127,39.0,38.2,7,0,4,1,2026-03-07T22:02:21.183582+05:30
Thiruvananthapuram,Kerala,8.5241,76.9366,28.4,80,0.0,1010.0,8.95,33.8,101,31.5,28.9,7,0,4,1,2026-03-07T22:02:21.183589+05:30
Kozhikode,Kerala,11.2588,75.7804,28.9,79,0.0,1009.8,8.9,27.4,134,40.4,36.9,7,0,4,1,2026-03-07T22:02:21.183596+05:30
Thrissur,Kerala,10.5276,76.2144,27.0,89,0.0,1008.7,8.85,31.3,123,41.3,40.3,7,0,4,1,2026-03-07T22:02:21.183603+05:30
Kannur,Kerala,11.8745,75.3704,28.5,78,0.0,1009.1,8.9,32.0,148,50.8,46.8,7,0,4,1,2026-03-07T22:02:21.183610+05:30
Patna,Bihar,25.5941,85.1376,25.8,71,0.0,1005.0,7.3,20.2,160,97.1,89.2,7,5,4,1,2026-03-07T22:02:21.183616+05:30
Gaya,Bihar,24.7914,85.0002,24.3,79,0.0,998.4,7.4,25.2,154,77.3,71.0,3,5,7,1,2026-03-07T22:02:21.183622+05:30
Muzaffarpur,Bihar,26.1209,85.3647,24.7,73,0.0,1004.9,7.25,17.6,169,101.0,93.6,3,5,4,1,2026-03-07T22:02:21.183628+05:30
Bhagalpur,Bihar,25.2425,87.0117,24.6,74,0.0,1006.0,7.3,14.8,163,86.8,77.5,3,5,4,1,2026-03-07T22:02:21.183634+05:30
Ranchi,Jharkhand,23.3441,85.3096,23.5,53,0.0,941.4,8.0,28.8,153,84.8,66.4,0,5,7,0,2026-03-07T22:02:21.183641+05:30
Jamshedpur,Jharkhand,22.8046,86.2029,25.6,81,0.0,995.3,7.9,23.8,150,67.8,60.8,7,5,7,1,2026-03-07T22:02:21.183648+05:30
Dhanbad,Jharkhand,23.7957,86.4304,27.6,53,0.0,984.4,7.8,26.3,165,86.1,75.9,4,5,7,1,2026-03-07T22:02:21.183654+05:30
Bokaro,Jharkhand,23.6693,86.1511,26.2,58,0.0,988.4,7.8,25.9,174,108.3,89.2,4,5,7,1,2026-03-07T22:02:21.183661+05:30
Bhubaneswar,Odisha,20.2961,85.8245,26.4,83,0.0,1007.2,8.2,32.4,144,46.1,41.6,7,5,4,1,2026-03-07T22:02:21.183668+05:30
Cuttack,Odisha,20.4625,85.8828,26.6,83,0.0,1009.2,8.25,29.9,144,46.1,41.6,7,0,4,1,2026-03-07T22:02:21.183676+05:30
Rourkela,Odisha,22.2604,84.8536,27.3,61,0.0,988.2,7.8,20.2,166,104.8,82.4,7,5,7,1,2026-03-07T22:02:21.183682+05:30
Raipur,Chhattisgarh,21.2514,81.6296,28.4,44,0.0,977.0,7.95,22.3,153,99.7,66.1,4,5,7,0,2026-03-07T22:02:21.183688+05:30
Bhilai,Chhattisgarh,21.1938,81.3509,27.5,50,0.0,977.3,7.95,18.4,136,100.4,66.8,4,5,7,1,2026-03-07T22:02:21.183694+05:30
Guwahati,Assam,26.1158,91.7086,25.3,71,0.0,1005.9,7.25,20.2,149,77.1,71.2,7,5,4,1,2026-03-07T22:02:21.183701+05:30
Agartala,Tripura,23.8315,91.2868,23.7,66,0.0,1010.9,7.6,19.1,152,102.2,90.1,3,0,4,1,2026-03-07T22:02:21.183707+05:30
Shillong,Meghalaya,25.5788,91.8933,10.7,78,0.0,857.9,7.6,42.1,99,51.8,47.5,3,5,7,0,2026-03-07T22:02:21.183714+05:30
Imphal,Manipur,24.817,93.9368,18.4,75,0.0,927.3,7.85,40.3,158,89.4,83.1,3,5,7,0,2026-03-07T22:02:21.183720+05:30
Aizawl,Mizoram,23.7271,92.7176,19.5,67,0.0,897.0,7.8,31.0,179,143.0,135.5,3,5,7,0,2026-03-07T22:02:21.183727+05:30
Kohima,Nagaland,25.6701,94.1077,15.9,79,0.0,858.6,7.7,51.1,156,86.4,80.3,3,5,7,0,2026-03-07T22:02:21.183733+05:30
Gangtok,Sikkim,27.3314,88.6138,13.9,80,0.0,840.9,7.25,17.6,154,66.1,58.1,3,5,7,0,2026-03-07T22:02:21.183739+05:30
Siliguri,West Bengal,26.7271,88.3953,22.4,59,0.0,999.2,7.25,17.3,153,76.4,65.2,0,5,7,0,2026-03-07T22:02:24.429062+05:30
Durgapur,West Bengal,23.5204,87.3119,26.0,68,0.0,1000.0,7.75,22.7,160,78.0,68.0,7,5,4,1,2026-03-07T22:02:24.429093+05:30
Asansol,West Bengal,23.6739,86.9524,26.6,64,0.0,998.5,7.75,19.1,159,76.4,66.6,7,5,7,1,2026-03-07T22:02:24.429103+05:30
Pondicherry,Puducherry,11.9139,79.8145,25.4,94,0.0,1011.0,8.9,33.1,81,27.4,19.1,7,0,4,1,2026-03-07T22:02:24.429111+05:30
Port Blair,Andaman and Nicobar Islands,11.6234,92.7265,28.0,68,0.0,1010.3,8.85,15.8,95,45.3,29.7,7,0,4,1,2026-03-07T22:02:24.429119+05:30
Haridwar,Uttarakhand,29.9457,78.1642,23.6,82,0.0,979.1,5.7,21.6,161,97.1,81.5,3,5,3,1,2026-03-07T22:02:24.429127+05:30
Rishikesh,Uttarakhand,30.0869,78.2676,22.5,84,0.0,972.0,5.75,23.8,160,99.2,75.9,3,5,3,1,2026-03-07T22:02:24.429135+05:30
Nainital,Uttarakhand,29.3919,79.4542,17.5,75,0.0,809.7,6.6,54.4,169,108.7,86.4,3,5,7,0,2026-03-07T22:02:24.429142+05:30
Mussoorie,Uttarakhand,30.4599,78.0664,16.3,87,0.0,806.6,6.1,41.8,173,115.9,90.3,3,10,7,0,2026-03-07T22:02:24.429150+05:30
Dharamshala,Himachal Pradesh,32.219,76.3234,22.1,39,0.0,874.1,6.2,21.6,74,36.0,23.1,0,5,7,0,2026-03-07T22:02:24.429157+05:30
Dalhousie,Himachal Pradesh,32.5387,75.971,18.1,63,0.0,807.9,6.6,17.3,97,66.6,53.3,3,5,7,0,2026-03-07T22:02:24.429165+05:30
Patiala,Punjab,30.3398,76.3869,23.6,72,0.0,982.7,5.75,16.9,169,158.3,108.7,3,5,3,1,2026-03-07T22:02:24.429172+05:30
Bhatinda,Punjab,30.211,74.9455,24.9,57,0.0,987.8,6.45,20.5,141,192.8,81.7,0,5,7,0,2026-03-07T22:02:24.429179+05:30
Rohtak,Haryana,28.8955,76.6066,24.0,57,0.0,986.0,5.95,13.3,169,205.8,104.1,0,5,3,0,2026-03-07T22:02:24.429186+05:30
Panipat,Haryana,29.3909,76.9635,24.0,64,0.0,984.8,5.75,18.7,173,269.2,125.3,3,5,3,1,2026-03-07T22:02:24.429193+05:30
Mathura,Uttar Pradesh,27.4924,77.6737,21.2,66,0.0,990.8,6.2,17.3,168,163.4,77.8,3,5,7,0,2026-03-07T22:02:24.429200+05:30
Vrindavan,Uttar Pradesh,27.5823,77.7027,22.3,66,0.0,991.5,6.2,18.0,168,163.4,77.8,3,5,7,0,2026-03-07T22:02:24.429207+05:30
Ayodhya,Uttar Pradesh,26.7922,82.1998,24.7,72,0.0,1000.1,6.65,18.4,173,124.3,110.6,3,5,4,1,2026-03-07T22:02:24.429214+05:30
Ratlam,Madhya Pradesh,23.3315,75.0367,25.0,54,0.0,957.4,7.45,13.7,83,36.9,35.9,4,5,7,0,2026-03-07T22:02:24.429221+05:30
Sagar,Madhya Pradesh,23.8388,78.7378,24.7,50,0.0,953.5,7.4,22.7,102,53.7,23.7,0,5,7,0,2026-03-07T22:02:24.429228+05:30
Satna,Madhya Pradesh,24.6005,80.8322,24.7,61,0.0,975.7,7.4,21.2,155,80.3,66.1,3,5,7,1,2026-03-07T22:02:24.429235+05:30
Akola,Maharashtra,20.7002,77.0082,27.5,42,0.0,977.1,7.9,18.0,123,40.5,35.6,4,5,7,0,2026-03-07T22:02:24.429243+05:30
Amravati,Maharashtra,20.9374,77.7796,27.6,45,0.0,969.2,7.85,13.3,119,43.2,35.4,4,5,7,0,2026-03-07T22:02:24.429251+05:30
Latur,Maharashtra,18.4088,76.5604,27.1,38,0.0,941.7,8.3,28.4,127,37.0,31.3,4,5,7,0,2026-03-07T22:02:24.429258+05:30
Nanded,Maharashtra,19.1383,77.3091,26.8,49,0.0,970.2,8.1,19.8,107,48.1,38.5,4,5,7,0,2026-03-07T22:02:24.429264+05:30
Gulbarga,Karnataka,17.3297,76.8343,28.9,37,0.0,960.2,8.45,21.2,125,24.4,21.2,4,5,7,0,2026-03-07T22:02:24.429271+05:30
Bidar,Karnataka,17.9104,77.5199,26.3,42,0.0,937.2,8.4,20.9,116,38.3,30.2,4,5,7,0,2026-03-07T22:02:24.429278+05:30
Hospet,Karnataka,15.2689,76.3909,28.5,40,0.0,957.3,8.7,19.4,165,37.4,30.7,4,5,7,0,2026-03-07T22:02:24.429284+05:30
Tirupur,Tamil Nadu,11.1085,77.3411,27.7,74,0.0,977.0,9.2,27.7,146,49.0,46.7,7,5,7,1,2026-03-07T22:02:24.429291+05:30
Alappuzha,Kerala,9.4981,76.3388,27.9,82,0.0,1010.9,8.15,28.1,121,43.0,41.2,7,0,4,1,2026-03-07T22:02:24.429298+05:30
Munnar,Kerala,10.0889,77.0595,21.3,79,0.0,858.5,9.5,37.4,92,43.5,40.9,3,5,7,1,2026-03-07T22:02:24.429305+05:30
Silchar,Assam,24.8333,92.7789,26.2,66,0.0,1009.1,7.55,21.2,160,103.6,99.2,7,0,4,1,2026-03-07T22:02:24.429312+05:30
Dibrugarh,Assam,27.4728,94.912,24.9,76,0.0,999.2,7.3,14.0,152,99.0,90.1,3,5,7,1,2026-03-07T22:02:24.429319+05:30
