city,state,latitude,longitude,temp,humidity,rain,pressure,uv_index,wind_gusts,aqi,pm10,pm2_5,no2,co,o3,so2,mosquito_risk,arthritis_risk,migraine_risk,frizz_risk,updated_at
Delhi,Delhi,28.6139,77.209,26.0,58,0.0,982.9,7.6,26.6,151,238.4,68.9,21.3,469.0,80.0,19.6,4,5,7,1,2026-05-10T04:20:34.076682+05:30
Mumbai,Maharashtra,19.076,72.8777,27.3,88,0.0,1005.9,7.9,52.2,81,56.1,26.7,20.5,556.0,62.0,23.6,7,5,4,1,2026-05-10T04:20:34.076727+05:30
Bangalore,Karnataka,12.9716,77.5946,21.1,95,0.0,909.4,9.45,37.8,54,25.4,25.0,34.1,217.0,14.0,10.6,3,5,7,1,2026-05-10T04:20:34.076742+05:30
Hyderabad,Telangana,17.385,78.4867,25.2,72,0.0,951.7,9.25,37.8,58,13.1,11.5,10.6,182.0,45.0,4.3,7,5,7,1,2026-05-10T04:20:34.076752+05:30
Chennai,Tamil Nadu,13.0827,80.2707,26.5,92,0.0,1005.0,8.0,35.6,21,7.6,5.8,7.8,207.0,44.0,1.6,7,5,4,1,2026-05-10T04:20:34.076762+05:30
Kolkata,West Bengal,22.5726,88.3639,24.9,91,0.0,1006.2,8.85,33.8,154,122.5,116.4,62.2,692.0,3.0,22.5,3,5,4,1,2026-05-10T04:20:34.076775+05:30
Pune,Maharashtra,18.5204,73.8567,27.0,39,0.0,946.2,8.5,37.1,97,51.2,33.5,19.7,267.0,88.0,25.5,4,5,7,0,2026-05-10T04:20:34.076784+05:30
Ahmedabad,Gujarat,23.0225,72.5714,30.5,41,0.0,999.2,8.1,33.8,57,21.1,10.3,3.5,183.0,65.0,3.7,0,5,7,0,2026-05-10T04:20:34.076795+05:30
Jaipur,Rajasthan,26.9124,75.7873,25.2,54,0.0,959.2,8.15,26.6,153,435.9,79.2,5.5,351.0,105.0,8.3,4,5,7,0,2026-05-10T04:20:34.076804+05:30
Lucknow,Uttar Pradesh,26.8467,80.9462,23.5,67,0.0,994.0,7.95,33.5,117,47.4,38.8,11.4,458.0,97.0,10.3,3,5,7,1,2026-05-10T04:20:34.076813+05:30
Kanpur,Uttar Pradesh,26.4499,80.3319,24.5,69,0.0,991.8,8.1,31.7,175,213.7,50.2,9.1,409.0,98.0,10.0,3,5,7,1,2026-05-10T04:20:34.076822+05:30
Chandigarh,Chandigarh,30.7333,76.7794,21.6,73,0.0,968.4,7.7,38.5,106,90.6,49.0,23.1,344.0,57.0,9.0,3,5,7,1,2026-05-10T04:20:34.076829+05:30
Srinagar,Jammu and Kashmir,34.0837,74.7973,8.6,77,0.0,838.6,8.35,16.2,89,88.0,46.6,20.4,198.0,54.0,4.5,3,5,7,0,2026-05-10T04:20:34.076838+05:30
Jammu,Jammu and Kashmir,32.7266,74.857,22.5,68,0.0,971.2,7.95,34.2,153,91.0,62.9,27.4,360.0,24.0,3.7,3,5,7,1,2026-05-10T04:20:34.076846+05:30
Amritsar,Punjab,31.634,74.8723,25.2,62,0.0,979.7,8.35,32.4,153,175.1,64.7,7.0,518.0,92.0,8.4,7,5,7,1,2026-05-10T04:20:34.076853+05:30
Ludhiana,Punjab,30.901,75.8573,24.0,67,0.0,977.8,7.95,34.2,152,239.3,72.6,10.9,487.0,81.0,9.0,3,5,7,1,2026-05-10T04:20:34.076861+05:30
Jalandhar,Punjab,31.326,75.5762,23.0,70,0.0,978.8,8.15,33.1,151,243.1,74.5,11.0,542.0,82.0,13.7,3,5,7,1,2026-05-10T04:20:34.076868+05:30
Dehradun,Uttarakhand,30.6284,78.0322,10.5,100,0.0,827.8,8.1,35.6,67,39.7,22.0,21.3,281.0,30.0,0.2,3,10,7,0,2026-05-10T04:20:34.076883+05:30
Shimla,Himachal Pradesh,31.1048,77.1734,10.0,82,0.0,781.6,8.2,42.1,89,106.9,41.1,24.9,311.0,54.0,5.9,3,10,7,0,2026-05-10T04:20:34.076892+05:30
Manali,Himachal Pradesh,32.2396,77.1887,6.9,37,0.0,811.3,9.2,42.8,47,38.8,11.3,27.5,178.0,96.0,0.5,0,5,7,1,2026-05-10T04:20:34.076900+05:30
Gurgaon,Haryana,28.4595,77.0266,24.5,64,0.0,981.1,7.75,30.2,804,371.6,84.8,16.0,425.0,76.0,14.7,3,5,7,1,2026-05-10T04:20:34.076908+05:30
Noida,Uttar Pradesh,28.5355,77.391,23.0,72,0.0,984.3,7.65,23.0,804,371.6,84.8,16.0,485.0,76.0,14.7,3,5,7,1,2026-05-10T04:20:34.076916+05:30
Ghaziabad,Uttar Pradesh,28.6692,77.4538,23.1,74,0.0,982.6,7.6,26.6,122,134.6,55.3,12.7,428.0,75.0,12.0,3,5,7,1,2026-05-10T04:20:34.076926+05:30
Faridabad,Haryana,28.4089,77.3178,24.7,65,0.0,983.7,7.7,23.8,804,371.6,84.8,16.0,449.0,76.0,14.7,3,5,7,1,2026-05-10T04:20:34.076933+05:30
Meerut,Uttar Pradesh,28.9845,77.7064,23.3,73,0.0,981.5,7.55,26.6,122,134.6,55.3,12.7,453.0,75.0,12.0,3,5,7,1,2026-05-10T04:20:34.076940+05:30
Agra,Uttar Pradesh,27.1767,78.0081,24.2,68,0.0,987.5,7.95,24.8,893,421.9,76.4,7.2,354.0,95.0,10.6,3,5,7,1,2026-05-10T04:20:34.076947+05:30
Varanasi,Uttar Pradesh,25.3176,82.9739,23.4,77,0.0,997.7,8.55,33.8,130,57.5,50.4,14.4,486.0,103.0,20.7,3,5,7,1,2026-05-10T04:20:34.076955+05:30
Prayagraj,Uttar Pradesh,25.4358,81.8463,24.6,67,0.0,995.6,8.45,32.4,131,59.1,52.2,13.4,512.0,104.0,18.7,3,5,7,1,2026-05-10T04:20:34.076965+05:30
Gorakhpur,Uttar Pradesh,26.7606,83.3732,23.5,71,0.0,998.7,8.4,32.4,108,45.2,38.6,15.7,510.0,78.0,8.9,3,5,7,1,2026-05-10T04:20:34.076972+05:30
Bareilly,Uttar Pradesh,28.367,79.4304,22.6,72,0.0,987.5,7.9,24.5,106,45.8,31.9,13.5,412.0,80.0,3.9,3,5,7,1,2026-05-10T04:20:34.076979+05:30
Aligarh,Uttar Pradesh,27.8974,78.088,23.4,71,0.0,985.4,7.75,24.1,430,229.1,61.5,9.1,421.0,86.0,13.3,3,5,7,1,2026-05-10T04:20:34.076986+05:30
Moradabad,Uttar Pradesh,28.8386,78.7733,22.5,72,0.0,984.2,7.75,27.7,105,71.9,52.2,22.0,468.0,61.0,8.2,3,5,7,1,2026-05-10T04:20:34.076992+05:30
Saharanpur,Uttar Pradesh,29.9637,77.546,22.9,74,0.0,976.0,7.4,30.6,118,85.7,64.5,32.2,463.0,28.0,8.7,3,5,7,1,2026-05-10T04:20:34.076998+05:30
Jhansi,Uttar Pradesh,25.4484,78.5685,23.6,70,0.0,976.9,8.4,26.6,85,65.2,39.6,4.8,356.0,100.0,9.7,3,5,7,1,2026-05-10T04:20:37.443610+05:30
Surat,Gujarat,21.1702,72.8311,29.8,47,0.0,1003.7,7.75,32.0,103,32.5,21.9,25.3,218.0,48.0,37.5,4,5,4,1,2026-05-10T04:20:37.443642+05:30
Vadodara,Gujarat,22.3072,73.1812,30.5,29,0.0,1001.2,8.1,30.2,73,34.8,27.1,22.7,280.0,39.0,11.4,0,5,4,0,2026-05-10T04:20:37.443652+05:30
Rajkot,Gujarat,22.3039,70.8022,24.9,98,0.0,992.8,7.7,40.0,54,34.6,11.7,6.8,162.0,52.0,5.2,3,5,7,1,2026-05-10T04:20:37.443660+05:30
Thane,Maharashtra,19.2183,72.9781,26.6,89,0.0,1005.3,7.9,48.6,81,56.1,26.7,20.5,472.0,62.0,23.6,7,5,4,1,2026-05-10T04:20:37.443668+05:30
Nagpur,Maharashtra,21.1458,79.0882,28.2,47,0.0,971.7,8.9,36.7,99,36.0,27.6,4.2,339.0,107.0,5.4,4,5,7,0,2026-05-10T04:20:37.443676+05:30
Nashik,Maharashtra,19.9975,73.7898,26.3,32,0.0,943.4,8.2,40.3,79,42.6,25.4,24.3,313.0,52.0,7.8,4,5,7,0,2026-05-10T04:20:37.443683+05:30
Aurangabad,Maharashtra,19.8762,75.3433,29.5,25,0.0,942.0,9.05,45.0,86,52.7,31.9,26.2,315.0,60.0,9.7,4,5,7,0,2026-05-10T04:20:37.443690+05:30
Solapur,Maharashtra,17.6599,75.9064,28.2,41,0.0,955.1,9.1,33.8,73,31.4,26.1,15.4,345.0,63.0,5.6,4,5,7,0,2026-05-10T04:20:37.443698+05:30
Kolhapur,Maharashtra,16.705,74.2433,25.2,65,0.0,945.3,8.9,44.6,103,68.9,61.2,36.8,293.0,25.0,8.5,7,5,7,1,2026-05-10T04:20:37.443705+05:30
Goa,Goa,15.2993,74.124,26.5,89,0.0,994.6,6.25,48.6,84,40.9,29.5,7.2,326.0,89.0,3.3,7,5,7,1,2026-05-10T04:20:37.443712+05:30
Jodhpur,Rajasthan,26.2389,73.0243,30.3,21,0.0,980.5,8.35,32.4,84,97.3,28.2,15.1,459.0,45.0,5.9,0,5,7,0,2026-05-10T04:20:37.443719+05:30
Udaipur,Rajasthan,24.5854,73.7125,29.5,23,0.0,944.5,8.8,40.0,42,13.3,6.5,3.1,169.0,71.0,2.8,4,5,7,0,2026-05-10T04:20:37.443726+05:30
Kota,Rajasthan,25.2138,75.8648,26.0,51,0.0,977.5,8.35,33.8,68,55.3,23.3,4.9,278.0,84.0,6.8,4,5,7,0,2026-05-10T04:20:37.443733+05:30
Bikaner,Rajasthan,28.0229,73.3119,28.1,41,0.0,980.1,8.35,28.8,115,173.7,50.5,2.3,281.0,109.0,6.6,4,5,7,0,2026-05-10T04:20:37.443739+05:30
Ajmer,Rajasthan,26.4499,74.6399,25.6,49,0.0,953.6,8.35,33.5,84,162.1,43.8,5.2,340.0,95.0,6.5,4,5,7,0,2026-05-10T04:20:37.443746+05:30
Gwalior,Madhya Pradesh,26.2183,78.1828,24.1,68,0.0,982.5,8.2,24.1,121,130.9,49.8,4.8,312.0,101.0,8.8,3,5,7,1,2026-05-10T04:20:37.443753+05:30
Indore,Madhya Pradesh,22.7196,75.8577,28.6,24,0.0,946.2,8.65,41.4,57,22.4,15.9,7.5,349.0,65.0,5.1,4,5,7,0,2026-05-10T04:20:37.443760+05:30
Bhopal,Madhya Pradesh,23.2599,77.4126,26.6,37,0.0,951.6,8.65,45.0,60,27.4,15.5,4.7,280.0,78.0,4.4,4,5,7,0,2026-05-10T04:20:37.443766+05:30
Jabalpur,Madhya Pradesh,23.1815,79.9864,25.5,55,0.0,959.2,8.8,32.4,65,39.3,27.0,15.8,294.0,75.0,5.0,4,5,7,0,2026-05-10T04:20:37.443773+05:30
Ujjain,Madhya Pradesh,23.1765,75.7885,27.0,27,0.0,951.5,8.6,43.2,53,19.6,14.8,5.6,361.0,64.0,4.0,4,5,7,0,2026-05-10T04:20:37.443781+05:30
Visakhapatnam,Andhra Pradesh,17.6868,83.2185,25.8,96,0.0,1003.4,8.95,35.3,75,31.8,28.6,20.4,1575.0,26.0,5.2,7,5,4,1,2026-05-10T04:20:37.443788+05:30
Vijayawada,Andhra Pradesh,16.5062,80.648,27.0,87,0.0,1001.6,9.05,38.9,46,18.5,16.2,12.5,190.0,23.0,4.6,7,5,4,1,2026-05-10T04:20:37.443795+05:30
Guntur,Andhra Pradesh,16.3067,80.4365,27.4,83,0.0,1002.7,8.9,39.6,45,14.7,13.0,12.4,188.0,23.0,5.5,7,5,4,1,2026-05-10T04:20:37.443803+05:30
Nellore,Andhra Pradesh,14.4426,79.9865,26.5,90,0.0,1004.8,9.2,37.1,21,10.4,7.7,6.8,182.0,35.0,2.9,7,5,4,1,2026-05-10T04:20:37.443810+05:30
Kurnool,Andhra Pradesh,15.8281,78.0373,26.9,68,0.0,975.5,8.8,42.1,34,5.7,4.8,5.8,139.0,33.0,2.2,7,5,7,1,2026-05-10T04:20:37.443818+05:30
Kakinada,Andhra Pradesh,16.9891,82.2475,26.1,92,0.0,1006.6,9.15,36.7,26,12.7,8.7,1.3,202.0,51.0,0.4,7,5,4,1,2026-05-10T04:20:37.443825+05:30
Tirupati,Andhra Pradesh,13.6288,79.4192,25.3,92,0.0,989.8,9.25,40.7,48,37.5,35.6,37.1,243.0,1.0,7.9,7,5,7,1,2026-05-10T04:20:37.443831+05:30
Warangal,Telangana,17.9689,79.5941,25.8,84,0.0,977.4,9.15,44.6,65,10.5,9.6,10.2,191.0,37.0,9.7,7,5,7,1,2026-05-10T04:20:37.443838+05:30
Nizamabad,Telangana,18.6725,78.0941,27.0,51,0.0,962.7,9.1,31.7,83,32.7,27.5,12.4,247.0,72.0,4.9,4,5,7,0,2026-05-10T04:20:37.443844+05:30
Mysore,Karnataka,12.2958,76.6396,21.9,91,0.0,925.7,9.1,36.4,55,14.5,14.2,16.0,216.0,44.0,7.3,3,5,7,1,2026-05-10T04:20:37.443851+05:30
Mangalore,Karnataka,12.9141,74.856,25.3,96,0.0,1003.5,8.95,41.4,65,24.4,20.7,10.8,225.0,51.0,3.9,7,5,4,1,2026-05-10T04:20:37.443858+05:30
Hubli-Dharwad,Karnataka,15.3647,75.124,23.0,95,0.0,937.7,7.2,47.9,55,28.2,24.7,8.8,326.0,53.0,0.4,3,5,7,1,2026-05-10T04:20:37.443865+05:30
Belgaum,Karnataka,15.8497,74.4977,23.6,72,0.0,922.8,8.3,40.0,83,66.6,57.4,52.5,262.0,20.0,11.5,3,5,7,1,2026-05-10T04:20:40.798891+05:30
Coimbatore,Tamil Nadu,11.0168,76.9558,23.4,96,0.0,958.4,9.15,34.6,61,14.3,13.8,16.9,271.0,33.0,4.6,3,5,7,1,2026-05-10T04:20:40.798922+05:30
Madurai,Tamil Nadu,9.9252,78.1198,25.2,94,0.0,989.8,3.4,39.2,62,18.0,17.8,23.4,312.0,20.0,9.6,7,5,3,1,2026-05-10T04:20:40.798933+05:30
Trichy,Tamil Nadu,10.7905,78.7047,25.8,93,0.0,997.0,4.85,40.0,41,12.5,11.7,21.0,254.0,19.0,9.6,7,5,3,1,2026-05-10T04:20:40.798941+05:30
Salem,Tamil Nadu,11.6643,78.146,24.8,89,0.0,974.7,8.5,50.8,54,21.4,21.0,21.9,268.0,29.0,11.0,3,5,7,1,2026-05-10T04:20:40.798949+05:30
Tirunelveli,Tamil Nadu,8.7139,77.7567,25.7,91,0.0,1000.1,3.85,34.9,61,18.0,17.6,12.5,256.0,41.0,4.8,7,5,0,1,2026-05-10T04:20:40.798956+05:30
Vellore,Tamil Nadu,12.9165,79.1325,24.8,94,0.0,982.9,9.25,34.9,60,41.4,39.3,30.4,287.0,11.0,12.5,3,5,7,1,2026-05-10T04:20:40.798963+05:30
Erode,Tamil Nadu,11.341,77.7172,24.9,90,0.0,986.4,6.2,33.5,63,25.3,24.6,23.1,302.0,32.0,6.2,3,5,7,1,2026-05-10T04:20:40.798970+05:30
Kochi,Kerala,9.9312,76.2673,26.0,93,0.0,1004.7,8.65,24.1,72,26.0,25.5,16.8,272.0,26.0,3.6,7,5,4,1,2026-05-10T04:20:40.798977+05:30
Thiruvananthapuram,Kerala,8.5241,76.9366,24.5,95,0.0,1004.6,2.8,25.2,41,11.7,10.9,6.3,381.0,82.0,4.4,3,5,0,1,2026-05-10T04:20:40.798985+05:30
Kozhikode,Kerala,11.2588,75.7804,25.1,94,0.0,1004.1,8.85,38.2,48,13.5,12.2,5.1,311.0,92.0,3.1,7,5,4,1,2026-05-10T04:20:40.798992+05:30
Thrissur,Kerala,10.5276,76.2144,24.5,96,0.0,1003.2,8.95,32.4,74,27.5,26.8,11.5,283.0,50.0,3.6,3,5,4,1,2026-05-10T04:20:40.799000+05:30
Kannur,Kerala,11.8745,75.3704,25.6,91,0.0,1003.5,8.75,45.4,58,18.2,16.1,11.4,270.0,51.0,1.9,7,5,4,1,2026-05-10T04:20:40.799006+05:30
Patna,Bihar,25.5941,85.1376,23.1,86,0.0,1001.4,8.65,34.2,131,49.1,42.7,13.5,372.0,99.0,15.5,3,5,4,1,2026-05-10T04:20:40.799012+05:30
Gaya,Bihar,24.7914,85.0002,21.3,81,0.0,993.9,8.7,33.5,114,46.3,39.3,15.1,369.0,91.0,23.1,3,5,7,1,2026-05-10T04:20:40.799019+05:30
Muzaffarpur,Bihar,26.1209,85.3647,23.1,82,0.0,1001.7,8.65,31.0,137,52.7,45.9,15.8,393.0,80.0,13.3,3,5,4,1,2026-05-10T04:20:40.799025+05:30
Bhagalpur,Bihar,25.2425,87.0117,23.0,90,0.0,1002.5,8.6,25.2,142,58.8,49.6,14.6,392.0,104.0,19.8,3,5,4,1,2026-05-10T04:20:40.799031+05:30
Ranchi,Jharkhand,23.3441,85.3096,20.9,75,0.0,937.0,9.15,46.1,91,52.2,38.5,12.6,278.0,109.0,28.3,3,5,7,1,2026-05-10T04:20:40.799038+05:30
Jamshedpur,Jharkhand,22.8046,86.2029,23.3,90,0.0,991.1,8.95,32.4,104,67.1,54.1,41.2,321.0,22.0,22.7,3,5,7,1,2026-05-10T04:20:40.799044+05:30
Dhanbad,Jharkhand,23.7957,86.4304,22.2,92,0.0,980.2,8.9,29.9,154,81.0,73.8,57.4,316.0,30.0,68.4,3,5,7,1,2026-05-10T04:20:40.799051+05:30
Bokaro,Jharkhand,23.6693,86.1511,21.6,91,0.0,983.9,8.9,27.0,154,88.2,78.9,66.7,1695.0,16.0,68.4,3,5,7,1,2026-05-10T04:20:40.799057+05:30
Bhubaneswar,Odisha,20.2961,85.8245,25.2,95,0.0,1002.6,9.05,32.4,53,14.4,12.2,9.2,279.0,49.0,3.4,7,5,4,1,2026-05-10T04:20:40.799064+05:30
Cuttack,Odisha,20.4625,85.8828,25.4,96,0.0,1004.4,9.1,28.1,53,14.4,12.2,9.2,295.0,49.0,3.4,7,5,4,1,2026-05-10T04:20:40.799071+05:30
Rourkela,Odisha,22.2604,84.8536,23.9,83,0.0,984.9,8.85,38.2,117,70.8,56.1,28.5,483.0,66.0,57.4,3,5,7,1,2026-05-10T04:20:40.799077+05:30
Raipur,Chhattisgarh,21.2514,81.6296,26.2,56,0.0,972.6,8.9,35.6,92,48.0,33.2,23.3,498.0,91.0,5.1,4,5,7,1,2026-05-10T04:20:40.799083+05:30
Bhilai,Chhattisgarh,21.1938,81.3509,26.4,57,0.0,973.1,8.95,33.1,93,47.8,34.2,31.6,453.0,85.0,5.6,4,5,7,1,2026-05-10T04:20:40.799090+05:30
Guwahati,Assam,26.1158,91.7086,21.2,86,0.0,1002.6,8.6,24.1,94,42.6,35.3,12.9,373.0,31.0,1.4,3,5,4,1,2026-05-10T04:20:40.799096+05:30
Agartala,Tripura,23.8315,91.2868,22.6,91,0.0,1006.6,7.65,32.0,155,66.4,62.9,37.0,489.0,40.0,11.3,3,5,4,1,2026-05-10T04:20:40.799102+05:30
Shillong,Meghalaya,25.5788,91.8933,16.4,71,0.0,857.1,9.05,24.8,81,43.5,32.6,12.1,293.0,41.0,2.3,3,5,7,0,2026-05-10T04:20:40.799109+05:30
Imphal,Manipur,24.817,93.9368,17.4,87,0.0,923.0,7.0,22.0,98,60.3,52.7,31.7,526.0,33.0,5.9,3,10,7,0,2026-05-10T04:20:40.799116+05:30
Aizawl,Mizoram,23.7271,92.7176,15.0,87,0.0,891.0,8.55,14.0,88,57.5,38.8,12.5,377.0,38.0,3.1,3,10,7,0,2026-05-10T04:20:40.799123+05:30
Kohima,Nagaland,25.6701,94.1077,13.9,94,0.0,854.1,7.95,24.1,75,36.1,27.1,13.1,276.0,38.0,1.5,3,10,7,0,2026-05-10T04:20:40.799129+05:30
Gangtok,Sikkim,27.3314,88.6138,12.3,84,0.2,837.8,7.1,34.9,58,19.0,13.3,11.1,291.0,72.0,0.8,6,10,7,0,2026-05-10T04:20:40.799136+05:30
Siliguri,West Bengal,26.7271,88.3953,21.0,67,0.0,994.2,8.1,20.9,98,42.5,35.3,23.4,378.0,50.0,3.4,3,5,7,0,2026-05-10T04:20:44.171735+05:30
Durgapur,West Bengal,23.5204,87.3119,23.0,94,0.0,995.5,8.85,32.8,149,85.9,79.9,41.4,539.0,45.0,45.7,3,5,7,1,2026-05-10T04:20:44.171766+05:30
Asansol,West Bengal,23.6739,86.9524,22.3,94,0.0,994.1,8.85,26.3,141,76.4,70.3,43.4,876.0,38.0,55.3,3,5,7,1,2026-05-10T04:20:44.171777+05:30
Pondicherry,Puducherry,11.9139,79.8145,25.9,95,0.1,1005.7,8.0,39.6,21,5.7,4.7,5.3,239.0,45.0,1.1,10,5,4,1,2026-05-10T04:20:44.171786+05:30
Port Blair,Andaman and Nicobar Islands,11.6234,92.7265,24.4,97,0.0,1005.9,9.0,29.9,27,1.3,0.9,0.2,158.0,60.0,0.1,3,5,4,1,2026-05-10T04:20:44.171794+05:30
Haridwar,Uttarakhand,29.9457,78.1642,20.5,82,0.0,974.2,7.45,28.8,105,69.2,52.7,32.6,332.0,20.0,5.0,3,5,7,1,2026-05-10T04:20:44.171801+05:30
Rishikesh,Uttarakhand,30.0869,78.2676,18.2,89,0.0,966.7,7.55,23.8,92,82.7,46.4,17.1,343.0,66.0,4.3,3,10,7,1,2026-05-10T04:20:44.171809+05:30
Nainital,Uttarakhand,29.3919,79.4542,11.3,85,0.0,804.5,8.1,32.8,82,51.7,38.2,20.4,280.0,57.0,3.7,3,10,7,0,2026-05-10T04:20:44.171816+05:30
Mussoorie,Uttarakhand,30.4599,78.0664,12.2,86,0.0,801.8,7.95,39.2,92,68.9,44.7,31.3,297.0,33.0,7.4,3,10,7,0,2026-05-10T04:20:44.171824+05:30
Dharamshala,Himachal Pradesh,32.219,76.3234,19.8,65,0.0,868.6,7.7,35.6,79,40.5,18.3,11.7,289.0,63.0,0.6,3,5,7,0,2026-05-10T04:20:44.171831+05:30
Dalhousie,Himachal Pradesh,32.5387,75.971,8.8,95,0.0,799.8,7.95,35.3,129,83.8,48.1,20.8,348.0,56.0,2.7,3,10,7,0,2026-05-10T04:20:44.171838+05:30
Patiala,Punjab,30.3398,76.3869,23.2,72,0.0,977.8,7.6,34.9,208,312.9,69.8,10.2,477.0,83.0,6.6,3,5,7,1,2026-05-10T04:20:44.171845+05:30
Bhatinda,Punjab,30.211,74.9455,26.1,55,0.0,982.5,8.25,29.2,356,534.6,112.7,7.1,426.0,96.0,10.8,4,5,7,1,2026-05-10T04:20:44.171852+05:30
Rohtak,Haryana,28.8955,76.6066,24.2,69,0.0,981.4,7.7,29.9,293,376.3,83.8,21.2,473.0,77.0,23.1,3,5,7,1,2026-05-10T04:20:44.171859+05:30
Panipat,Haryana,29.3909,76.9635,23.1,74,0.0,980.3,7.55,31.0,606,375.3,75.9,16.4,397.0,80.0,16.8,3,5,7,1,2026-05-10T04:20:44.171866+05:30
Mathura,Uttar Pradesh,27.4924,77.6737,23.9,68,0.0,986.4,7.9,22.0,708,420.0,83.6,7.2,386.0,93.0,8.9,3,5,7,1,2026-05-10T04:20:44.171873+05:30
Vrindavan,Uttar Pradesh,27.5823,77.7027,24.0,67,0.0,986.9,7.9,22.3,708,420.0,83.6,7.2,393.0,93.0,8.9,3,5,7,1,2026-05-10T04:20:44.171880+05:30
Ayodhya,Uttar Pradesh,26.7922,82.1998,23.1,70,0.0,996.4,8.2,32.0,103,49.6,42.8,18.4,449.0,69.0,8.8,3,5,7,1,2026-05-10T04:20:44.171888+05:30
Ratlam,Madhya Pradesh,23.3315,75.0367,26.4,31,0.0,952.1,8.5,43.6,49,13.6,9.3,3.3,213.0,81.0,3.1,4,5,7,0,2026-05-10T04:20:44.171895+05:30
Sagar,Madhya Pradesh,23.8388,78.7378,23.7,52,0.0,947.6,8.65,35.3,59,34.3,20.7,10.0,292.0,79.0,5.8,0,5,7,0,2026-05-10T04:20:44.171906+05:30
Satna,Madhya Pradesh,24.6005,80.8322,23.0,60,0.0,969.6,8.65,28.4,122,48.3,43.3,9.8,401.0,119.0,16.2,0,5,7,0,2026-05-10T04:20:44.171912+05:30
Akola,Maharashtra,20.7002,77.0082,28.1,37,0.0,972.7,8.9,39.6,85,66.8,34.9,24.3,299.0,47.0,9.3,4,5,7,0,2026-05-10T04:20:44.171920+05:30
Amravati,Maharashtra,20.9374,77.7796,27.8,40,0.0,965.4,8.85,38.2,84,69.6,35.7,25.3,323.0,46.0,7.2,4,5,7,0,2026-05-10T04:20:44.171928+05:30
Latur,Maharashtra,18.4088,76.5604,26.9,46,0.0,937.7,9.1,37.4,83,39.1,29.0,13.4,309.0,72.0,3.7,4,5,7,0,2026-05-10T04:20:44.171935+05:30
Nanded,Maharashtra,19.1383,77.3091,26.9,53,0.0,966.5,9.0,31.0,83,50.5,34.7,20.7,294.0,54.0,4.4,4,5,7,1,2026-05-10T04:20:44.171941+05:30
Gulbarga,Karnataka,17.3297,76.8343,27.0,51,0.0,956.7,9.1,35.3,62,26.8,22.3,13.9,245.0,65.0,5.8,4,5,7,0,2026-05-10T04:20:44.171948+05:30
Bidar,Karnataka,17.9104,77.5199,25.4,54,0.0,933.3,9.15,34.9,72,31.3,26.3,14.3,260.0,70.0,7.1,4,5,7,0,2026-05-10T04:20:44.171954+05:30
Hospet,Karnataka,15.2689,76.3909,24.7,73,0.0,953.8,9.2,39.2,50,14.3,13.0,14.8,152.0,38.0,5.3,3,5,7,1,2026-05-10T04:20:44.171960+05:30
Tirupur,Tamil Nadu,11.1085,77.3411,24.0,95,0.0,972.1,7.0,28.1,72,26.2,25.3,27.6,245.0,22.0,6.4,3,5,7,1,2026-05-10T04:20:44.171967+05:30
Alappuzha,Kerala,9.4981,76.3388,26.1,93,0.0,1005.0,7.55,30.2,59,18.9,18.2,12.8,294.0,63.0,4.5,7,5,4,1,2026-05-10T04:20:44.171973+05:30
Munnar,Kerala,10.0889,77.0595,16.1,99,0.0,851.7,5.4,22.7,44,5.9,5.8,10.2,150.0,32.0,2.0,3,10,3,0,2026-05-10T04:20:44.171980+05:30
Silchar,Assam,24.8333,92.7789,22.6,90,0.0,1005.4,8.1,15.8,127,78.0,61.7,28.5,657.0,18.0,5.4,3,5,4,1,2026-05-10T04:20:44.171987+05:30
Dibrugarh,Assam,27.4728,94.912,22.5,95,0.0,996.6,8.75,45.4,100,53.1,45.2,35.3,718.0,13.0,1.3,3,5,7,1,2026-05-10T04:20:44.171993+05:30
