city,state,latitude,longitude,temp,humidity,rain,pressure,uv_index,wind_gusts,aqi,pm10,pm2_5,mosquito_risk,arthritis_risk,migraine_risk,frizz_risk,updated_at
Delhi,Delhi,28.6139,77.209,28.0,35,0.0,983.1,7.2,34.6,369,892.2,117.1,4,5,7,0,2026-04-12T20:12:11.999265+05:30
Mumbai,Maharashtra,19.076,72.8777,29.1,78,0.0,1007.2,8.0,22.3,180,65.4,37.6,7,5,4,1,2026-04-12T20:12:11.999305+05:30
Bangalore,Karnataka,12.9716,77.5946,30.3,37,0.0,912.0,9.65,31.0,139,37.1,31.3,0,5,7,0,2026-04-12T20:12:11.999321+05:30
Hyderabad,Telangana,17.385,78.4867,34.6,31,0.0,952.3,9.25,29.2,156,38.6,31.2,0,5,7,0,2026-04-12T20:12:11.999332+05:30
Chennai,Tamil Nadu,13.0827,80.2707,28.7,74,0.0,1007.5,9.4,34.6,45,14.2,8.1,7,5,4,1,2026-04-12T20:12:11.999341+05:30
Kolkata,West Bengal,22.5726,88.3639,27.3,82,0.0,1004.9,8.8,22.3,150,43.0,30.9,7,5,4,1,2026-04-12T20:12:11.999349+05:30
Pune,Maharashtra,18.5204,73.8567,31.1,39,0.0,947.8,8.55,42.5,167,39.2,31.3,0,5,7,0,2026-04-12T20:12:11.999361+05:30
Ahmedabad,Gujarat,23.0225,72.5714,34.4,22,0.0,1000.1,8.1,22.3,120,58.9,26.1,0,5,4,0,2026-04-12T20:12:11.999369+05:30
Jaipur,Rajasthan,26.9124,75.7873,29.6,21,0.0,960.3,7.85,30.2,143,204.0,35.5,4,5,7,0,2026-04-12T20:12:11.999376+05:30
Lucknow,Uttar Pradesh,26.8467,80.9462,29.5,36,0.0,992.0,7.7,29.2,154,183.5,44.5,4,5,7,0,2026-04-12T20:12:11.999384+05:30
Kanpur,Uttar Pradesh,26.4499,80.3319,27.5,52,0.0,990.6,7.75,24.5,355,387.4,61.7,4,5,7,1,2026-04-12T20:12:11.999391+05:30
Chandigarh,Chandigarh,30.7333,76.7794,22.9,57,0.0,969.0,7.1,31.7,147,27.1,16.8,0,5,7,0,2026-04-12T20:12:11.999399+05:30
Srinagar,Jammu and Kashmir,34.0837,74.7973,13.9,65,0.0,840.3,8.05,17.3,138,27.0,21.2,3,5,7,0,2026-04-12T20:12:11.999406+05:30
Jammu,Jammu and Kashmir,32.7266,74.857,23.7,56,0.0,973.3,7.8,27.7,114,45.5,24.3,0,5,7,0,2026-04-12T20:12:11.999413+05:30
Amritsar,Punjab,31.634,74.8723,23.5,51,0.0,981.8,7.75,25.6,136,38.9,21.9,0,5,7,0,2026-04-12T20:12:11.999419+05:30
Ludhiana,Punjab,30.901,75.8573,25.2,45,0.0,979.7,7.4,30.2,119,33.6,19.8,4,5,7,0,2026-04-12T20:12:11.999426+05:30
Jalandhar,Punjab,31.326,75.5762,24.4,50,0.0,980.7,7.55,27.0,125,46.7,19.6,0,5,7,0,2026-04-12T20:12:11.999434+05:30
Dehradun,Uttarakhand,30.6284,78.0322,14.5,70,0.0,828.5,7.5,33.5,134,38.0,19.8,3,5,7,0,2026-04-12T20:12:11.999442+05:30
Shimla,Himachal Pradesh,31.1048,77.1734,12.5,71,0.0,783.1,7.65,41.0,138,37.7,14.2,3,5,7,0,2026-04-12T20:12:11.999449+05:30
Manali,Himachal Pradesh,32.2396,77.1887,14.0,75,0.0,818.9,9.85,29.2,168,22.5,8.7,3,5,7,0,2026-04-12T20:12:11.999456+05:30
Gurgaon,Haryana,28.4595,77.0266,26.0,44,0.0,981.5,7.3,33.5,1035,1717.4,200.2,4,5,7,0,2026-04-12T20:12:11.999462+05:30
Noida,Uttar Pradesh,28.5355,77.391,27.6,37,0.0,984.5,7.25,33.8,1035,1717.4,200.2,4,5,7,0,2026-04-12T20:12:11.999469+05:30
Ghaziabad,Uttar Pradesh,28.6692,77.4538,26.3,43,0.0,982.6,7.2,32.8,186,618.4,88.9,4,5,7,0,2026-04-12T20:12:11.999475+05:30
Faridabad,Haryana,28.4089,77.3178,27.1,38,0.0,983.8,7.3,33.1,1035,1717.4,200.2,4,5,7,0,2026-04-12T20:12:11.999481+05:30
Meerut,Uttar Pradesh,28.9845,77.7064,24.5,47,0.0,981.4,7.1,33.1,186,618.4,88.9,0,5,7,0,2026-04-12T20:12:11.999488+05:30
Agra,Uttar Pradesh,27.1767,78.0081,28.1,39,0.0,987.6,7.6,33.5,636,1125.0,126.7,4,5,7,0,2026-04-12T20:12:11.999494+05:30
Varanasi,Uttar Pradesh,25.3176,82.9739,30.0,34,0.0,995.3,8.35,25.9,160,34.8,20.7,4,5,7,0,2026-04-12T20:12:11.999502+05:30
Prayagraj,Uttar Pradesh,25.4358,81.8463,30.9,35,0.0,994.2,8.2,24.1,150,79.6,28.5,0,5,7,0,2026-04-12T20:12:11.999509+05:30
Gorakhpur,Uttar Pradesh,26.7606,83.3732,29.6,30,0.0,994.8,8.15,36.0,130,60.8,23.7,4,5,7,0,2026-04-12T20:12:11.999515+05:30
Bareilly,Uttar Pradesh,28.367,79.4304,25.5,51,0.0,986.0,7.45,34.9,135,36.1,23.1,4,5,7,0,2026-04-12T20:12:11.999524+05:30
Aligarh,Uttar Pradesh,27.8974,78.088,25.6,39,0.0,985.4,7.4,34.2,528,1106.4,144.4,4,5,7,0,2026-04-12T20:12:11.999530+05:30
Moradabad,Uttar Pradesh,28.8386,78.7733,24.7,51,0.0,983.0,7.3,36.0,131,123.4,37.3,0,5,7,0,2026-04-12T20:12:11.999537+05:30
Saharanpur,Uttar Pradesh,29.9637,77.546,22.8,59,0.0,975.4,6.9,32.0,142,109.2,29.6,0,5,7,0,2026-04-12T20:12:11.999545+05:30
Jhansi,Uttar Pradesh,25.4484,78.5685,29.1,32,0.0,977.7,8.15,36.0,111,91.0,29.2,4,5,7,0,2026-04-12T20:12:15.254275+05:30
Surat,Gujarat,21.1702,72.8311,29.1,69,0.0,1005.1,7.8,26.6,152,94.5,79.9,7,5,4,1,2026-04-12T20:12:15.254306+05:30
Vadodara,Gujarat,22.3072,73.1812,33.0,35,0.0,1002.1,8.05,22.3,170,76.8,43.9,0,5,4,0,2026-04-12T20:12:15.254316+05:30
Rajkot,Gujarat,22.3039,70.8022,33.8,26,0.0,992.6,7.8,23.4,78,47.6,21.4,0,5,7,0,2026-04-12T20:12:15.254325+05:30
Thane,Maharashtra,19.2183,72.9781,28.7,72,0.0,1006.7,8.0,34.6,180,65.4,37.6,7,5,4,1,2026-04-12T20:12:15.254333+05:30
Nagpur,Maharashtra,21.1458,79.0882,27.6,52,0.0,971.2,8.8,14.8,188,32.0,26.5,4,5,7,1,2026-04-12T20:12:15.254341+05:30
Nashik,Maharashtra,19.9975,73.7898,30.0,37,0.0,945.4,8.25,33.1,142,40.0,31.0,4,5,7,0,2026-04-12T20:12:15.254348+05:30
Aurangabad,Maharashtra,19.8762,75.3433,33.1,24,0.0,942.8,8.95,31.0,160,36.3,25.3,0,5,7,0,2026-04-12T20:12:15.254356+05:30
Solapur,Maharashtra,17.6599,75.9064,36.4,26,0.0,955.1,9.05,27.0,148,38.2,28.3,0,5,10,0,2026-04-12T20:12:15.254364+05:30
Kolhapur,Maharashtra,16.705,74.2433,27.6,57,0.0,947.2,9.05,49.3,145,36.1,31.9,4,5,7,1,2026-04-12T20:12:15.254372+05:30
Goa,Goa,15.2993,74.124,28.8,76,0.0,997.7,9.05,32.8,98,39.5,26.6,7,5,7,1,2026-04-12T20:12:15.254380+05:30
Jodhpur,Rajasthan,26.2389,73.0243,29.8,32,0.0,983.0,8.1,16.2,124,53.1,19.1,4,5,7,0,2026-04-12T20:12:15.254387+05:30
Udaipur,Rajasthan,24.5854,73.7125,28.6,21,0.0,946.8,8.7,28.4,104,27.0,10.5,4,5,7,0,2026-04-12T20:12:15.254394+05:30
Kota,Rajasthan,25.2138,75.8648,30.3,36,0.0,978.4,8.15,24.1,125,97.6,32.4,0,5,7,0,2026-04-12T20:12:15.254402+05:30
Bikaner,Rajasthan,28.0229,73.3119,32.1,19,0.0,982.1,7.95,21.2,115,32.8,12.1,0,5,7,0,2026-04-12T20:12:15.254409+05:30
Ajmer,Rajasthan,26.4499,74.6399,29.3,28,0.0,955.0,8.05,26.3,119,36.0,16.0,4,5,7,0,2026-04-12T20:12:15.254416+05:30
Gwalior,Madhya Pradesh,26.2183,78.1828,29.0,47,0.0,983.2,7.85,33.1,124,114.1,31.7,4,5,7,1,2026-04-12T20:12:15.254423+05:30
Indore,Madhya Pradesh,22.7196,75.8577,27.7,41,0.0,947.5,8.55,27.7,93,35.9,24.4,4,5,7,0,2026-04-12T20:12:15.254430+05:30
Bhopal,Madhya Pradesh,23.2599,77.4126,30.6,25,0.0,952.7,8.5,32.4,107,23.7,15.7,0,5,7,0,2026-04-12T20:12:15.254437+05:30
Jabalpur,Madhya Pradesh,23.1815,79.9864,29.0,37,0.0,960.1,8.65,33.8,134,22.6,18.9,4,5,7,0,2026-04-12T20:12:15.254444+05:30
Ujjain,Madhya Pradesh,23.1765,75.7885,28.2,36,0.0,953.5,8.45,27.4,78,56.5,31.2,4,5,7,0,2026-04-12T20:12:15.254452+05:30
Visakhapatnam,Andhra Pradesh,17.6868,83.2185,28.4,83,0.0,1004.3,9.15,38.9,77,24.7,15.6,7,5,4,1,2026-04-12T20:12:15.254460+05:30
Vijayawada,Andhra Pradesh,16.5062,80.648,29.5,69,0.0,1002.0,9.25,35.6,58,20.5,14.1,7,5,4,1,2026-04-12T20:12:15.254467+05:30
Guntur,Andhra Pradesh,16.3067,80.4365,28.5,76,0.0,1003.4,9.25,34.9,57,22.2,15.4,7,5,4,1,2026-04-12T20:12:15.254475+05:30
Nellore,Andhra Pradesh,14.4426,79.9865,28.4,76,0.0,1005.7,9.35,34.6,69,20.2,13.6,7,5,4,1,2026-04-12T20:12:15.254482+05:30
Kurnool,Andhra Pradesh,15.8281,78.0373,36.5,27,0.0,974.8,9.25,31.0,132,40.3,29.6,0,5,10,0,2026-04-12T20:12:15.254490+05:30
Kakinada,Andhra Pradesh,16.9891,82.2475,28.8,79,0.0,1007.8,9.2,36.7,55,20.8,10.9,7,5,4,1,2026-04-12T20:12:15.254498+05:30
Tirupati,Andhra Pradesh,13.6288,79.4192,31.2,53,0.0,991.8,9.45,32.0,91,27.1,21.5,0,5,7,1,2026-04-12T20:12:15.254505+05:30
Warangal,Telangana,17.9689,79.5941,33.6,43,0.0,976.6,9.1,29.5,133,37.3,31.0,0,5,7,1,2026-04-12T20:12:15.254512+05:30
Nizamabad,Telangana,18.6725,78.0941,32.6,33,0.0,963.3,9.05,26.3,172,52.3,39.3,0,5,7,0,2026-04-12T20:12:15.254519+05:30
Mysore,Karnataka,12.2958,76.6396,26.7,71,0.0,928.7,9.55,44.3,132,47.1,37.4,7,5,7,1,2026-04-12T20:12:15.254526+05:30
Mangalore,Karnataka,12.9141,74.856,29.6,78,0.0,1006.5,9.2,24.1,97,61.7,31.4,7,5,4,1,2026-04-12T20:12:15.254533+05:30
Hubli-Dharwad,Karnataka,15.3647,75.124,27.5,73,0.0,940.4,9.25,35.6,167,44.6,35.9,7,5,7,1,2026-04-12T20:12:15.254540+05:30
Belgaum,Karnataka,15.8497,74.4977,24.9,83,0.0,925.6,9.25,41.8,163,33.1,28.1,3,5,7,1,2026-04-12T20:12:18.506812+05:30
Coimbatore,Tamil Nadu,11.0168,76.9558,26.8,80,0.0,961.9,9.5,37.4,122,32.2,25.1,7,5,7,1,2026-04-12T20:12:18.506842+05:30
Madurai,Tamil Nadu,9.9252,78.1198,31.6,58,0.0,993.1,9.4,32.8,88,30.2,26.0,0,5,7,1,2026-04-12T20:12:18.506852+05:30
Trichy,Tamil Nadu,10.7905,78.7047,31.3,52,0.0,999.9,9.4,27.4,67,17.9,15.0,0,5,7,1,2026-04-12T20:12:18.506861+05:30
Salem,Tamil Nadu,11.6643,78.146,32.5,43,0.0,977.0,9.45,25.9,107,25.3,20.5,0,5,7,1,2026-04-12T20:12:18.506869+05:30
Tirunelveli,Tamil Nadu,8.7139,77.7567,30.1,67,0.0,1003.1,9.35,37.4,85,25.0,20.3,3,5,4,1,2026-04-12T20:12:18.506877+05:30
Vellore,Tamil Nadu,12.9165,79.1325,30.7,46,0.0,984.8,9.5,33.5,89,32.4,26.8,0,5,7,1,2026-04-12T20:12:18.506884+05:30
Erode,Tamil Nadu,11.341,77.7172,33.8,39,0.0,988.1,9.4,29.5,91,22.8,18.2,0,5,7,1,2026-04-12T20:12:18.506892+05:30
Kochi,Kerala,9.9312,76.2673,29.4,81,0.0,1008.7,8.9,28.1,98,42.7,28.2,7,0,4,1,2026-04-12T20:12:18.506899+05:30
Thiruvananthapuram,Kerala,8.5241,76.9366,28.9,80,0.0,1008.3,9.2,21.6,104,42.4,23.4,7,0,4,1,2026-04-12T20:12:18.506906+05:30
Kozhikode,Kerala,11.2588,75.7804,29.9,79,0.0,1007.6,9.1,32.4,91,63.1,30.5,7,5,4,1,2026-04-12T20:12:18.506913+05:30
Thrissur,Kerala,10.5276,76.2144,29.5,78,0.0,1006.8,9.15,32.0,91,40.6,25.7,7,5,4,1,2026-04-12T20:12:18.506921+05:30
Kannur,Kerala,11.8745,75.3704,29.7,75,0.0,1007.1,9.2,31.3,109,73.8,41.3,7,5,4,1,2026-04-12T20:12:18.506928+05:30
Patna,Bihar,25.5941,85.1376,30.6,35,0.0,998.0,8.45,36.4,138,80.8,33.2,0,5,7,0,2026-04-12T20:12:18.506935+05:30
Gaya,Bihar,24.7914,85.0002,31.1,35,0.0,991.9,8.55,26.3,155,78.2,31.5,0,5,7,0,2026-04-12T20:12:18.506942+05:30
Muzaffarpur,Bihar,26.1209,85.3647,28.1,47,0.0,998.1,8.45,34.6,151,74.7,36.6,4,5,7,0,2026-04-12T20:12:18.506949+05:30
Bhagalpur,Bihar,25.2425,87.0117,29.3,51,0.0,999.0,8.5,26.6,155,135.0,53.7,4,5,7,1,2026-04-12T20:12:18.506956+05:30
Ranchi,Jharkhand,23.3441,85.3096,29.0,34,0.0,937.5,9.1,30.6,123,28.9,18.3,4,5,7,0,2026-04-12T20:12:18.506963+05:30
Jamshedpur,Jharkhand,22.8046,86.2029,29.2,49,0.0,989.3,8.9,18.4,148,48.3,21.8,4,5,7,1,2026-04-12T20:12:18.506969+05:30
Dhanbad,Jharkhand,23.7957,86.4304,30.5,32,0.0,978.2,8.85,29.5,132,81.7,58.7,0,5,7,0,2026-04-12T20:12:18.506976+05:30
Bokaro,Jharkhand,23.6693,86.1511,29.7,36,0.0,982.3,8.85,30.2,138,67.8,50.8,4,5,7,0,2026-04-12T20:12:18.506983+05:30
Bhubaneswar,Odisha,20.2961,85.8245,27.5,87,0.0,1002.8,9.05,32.8,136,26.4,23.4,7,5,4,1,2026-04-12T20:12:18.506990+05:30
Cuttack,Odisha,20.4625,85.8828,28.3,82,0.0,1004.5,9.1,34.6,136,26.4,23.4,7,5,4,1,2026-04-12T20:12:18.506997+05:30
Rourkela,Odisha,22.2604,84.8536,30.2,36,0.0,983.7,8.85,17.6,169,62.4,34.8,0,5,7,0,2026-04-12T20:12:18.507003+05:30
Raipur,Chhattisgarh,21.2514,81.6296,32.6,27,0.0,972.8,8.9,19.8,193,45.2,38.0,0,5,7,0,2026-04-12T20:12:18.507010+05:30
Bhilai,Chhattisgarh,21.1938,81.3509,31.8,32,0.0,973.1,8.9,15.8,166,43.1,36.3,0,5,7,0,2026-04-12T20:12:18.507017+05:30
Guwahati,Assam,26.1158,91.7086,24.3,84,0.0,1001.2,8.4,30.2,133,71.7,47.5,3,5,4,1,2026-04-12T20:12:18.507023+05:30
Agartala,Tripura,23.8315,91.2868,25.6,79,0.0,1005.2,8.6,29.5,132,52.7,34.0,7,5,4,1,2026-04-12T20:12:18.507030+05:30
Shillong,Meghalaya,25.5788,91.8933,14.6,80,0.0,855.1,7.05,64.4,127,56.8,38.9,3,5,7,0,2026-04-12T20:12:18.507036+05:30
Imphal,Manipur,24.817,93.9368,17.9,78,0.0,922.5,9.0,62.6,114,74.7,42.3,3,5,7,0,2026-04-12T20:12:18.507043+05:30
Aizawl,Mizoram,23.7271,92.7176,19.8,73,0.0,892.4,8.85,44.3,108,68.9,34.3,3,5,7,0,2026-04-12T20:12:18.507050+05:30
Kohima,Nagaland,25.6701,94.1077,15.4,65,0.0,853.8,8.9,88.9,102,78.2,40.4,3,5,7,0,2026-04-12T20:12:18.507056+05:30
Gangtok,Sikkim,27.3314,88.6138,14.4,86,0.0,836.1,8.65,16.6,148,106.2,39.8,3,10,7,0,2026-04-12T20:12:18.507063+05:30
Siliguri,West Bengal,26.7271,88.3953,21.6,66,0.0,992.8,7.3,18.7,148,129.0,52.7,3,5,7,0,2026-04-12T20:12:21.761450+05:30
Durgapur,West Bengal,23.5204,87.3119,29.8,45,0.0,993.5,8.8,21.2,137,89.6,52.4,4,5,7,1,2026-04-12T20:12:21.761482+05:30
Asansol,West Bengal,23.6739,86.9524,30.0,47,0.0,992.0,8.85,23.4,139,72.4,42.1,4,5,7,1,2026-04-12T20:12:21.761494+05:30
Pondicherry,Puducherry,11.9139,79.8145,27.2,81,0.0,1008.8,9.35,29.5,42,10.3,5.8,7,0,4,1,2026-04-12T20:12:21.761503+05:30
Port Blair,Andaman and Nicobar Islands,11.6234,92.7265,29.5,76,0.0,1007.8,9.25,15.8,54,32.0,16.0,7,5,4,1,2026-04-12T20:12:21.761512+05:30
Haridwar,Uttarakhand,29.9457,78.1642,23.1,59,0.0,973.9,7.0,33.8,141,60.5,22.8,0,5,7,0,2026-04-12T20:12:21.761520+05:30
Rishikesh,Uttarakhand,30.0869,78.2676,22.2,60,0.0,966.7,7.1,34.2,137,36.3,17.8,0,5,7,0,2026-04-12T20:12:21.761529+05:30
Nainital,Uttarakhand,29.3919,79.4542,17.9,48,0.0,805.1,7.95,52.2,131,34.7,18.6,0,5,7,0,2026-04-12T20:12:21.761538+05:30
Mussoorie,Uttarakhand,30.4599,78.0664,15.5,61,0.0,801.4,7.35,37.8,139,39.7,22.1,3,5,7,0,2026-04-12T20:12:21.761547+05:30
Dharamshala,Himachal Pradesh,32.219,76.3234,18.4,62,0.0,868.7,7.7,23.4,123,35.5,12.8,3,5,7,0,2026-04-12T20:12:21.761555+05:30
Dalhousie,Himachal Pradesh,32.5387,75.971,16.4,61,0.0,803.2,7.95,20.5,121,44.7,20.1,3,5,7,0,2026-04-12T20:12:21.761564+05:30
Patiala,Punjab,30.3398,76.3869,24.1,47,0.0,978.7,7.0,32.0,310,568.1,68.7,0,5,7,0,2026-04-12T20:12:21.761573+05:30
Bhatinda,Punjab,30.211,74.9455,26.1,38,0.0,984.6,7.75,32.0,142,37.6,16.7,4,5,7,0,2026-04-12T20:12:21.761581+05:30
Rohtak,Haryana,28.8955,76.6066,25.9,39,0.0,981.9,7.25,36.0,666,1065.4,134.6,4,5,7,0,2026-04-12T20:12:21.761590+05:30
Panipat,Haryana,29.3909,76.9635,24.4,45,0.0,980.5,7.05,33.8,1101,1616.8,186.3,0,5,7,0,2026-04-12T20:12:21.761598+05:30
Mathura,Uttar Pradesh,27.4924,77.6737,27.2,39,0.0,986.6,7.55,28.8,708,1303.9,150.9,4,5,7,0,2026-04-12T20:12:21.761605+05:30
Vrindavan,Uttar Pradesh,27.5823,77.7027,25.8,39,0.0,987.1,7.5,32.0,708,1303.9,150.9,4,5,7,0,2026-04-12T20:12:21.761613+05:30
Ayodhya,Uttar Pradesh,26.7922,82.1998,29.4,32,0.0,993.2,7.9,36.0,125,78.7,27.6,4,5,7,0,2026-04-12T20:12:21.761620+05:30
Ratlam,Madhya Pradesh,23.3315,75.0367,28.3,50,0.0,954.1,8.35,26.6,80,47.1,20.5,4,5,7,1,2026-04-12T20:12:21.761628+05:30
Sagar,Madhya Pradesh,23.8388,78.7378,30.0,29,0.0,949.5,8.5,33.1,115,31.0,14.7,4,5,7,0,2026-04-12T20:12:21.761636+05:30
Satna,Madhya Pradesh,24.6005,80.8322,31.5,27,0.0,969.8,8.5,37.1,135,52.2,17.6,0,5,7,0,2026-04-12T20:12:21.761643+05:30
Akola,Maharashtra,20.7002,77.0082,32.0,31,0.0,973.2,8.75,27.4,168,29.5,19.8,0,5,7,0,2026-04-12T20:12:21.761652+05:30
Amravati,Maharashtra,20.9374,77.7796,30.5,37,0.0,965.5,8.75,20.5,171,34.6,24.7,0,5,7,0,2026-04-12T20:12:21.761661+05:30
Latur,Maharashtra,18.4088,76.5604,32.7,35,0.0,939.0,9.05,24.5,143,36.7,27.1,0,5,7,0,2026-04-12T20:12:21.761668+05:30
Nanded,Maharashtra,19.1383,77.3091,32.8,43,0.0,967.2,8.95,14.8,173,45.6,33.9,0,5,7,1,2026-04-12T20:12:21.761676+05:30
Gulbarga,Karnataka,17.3297,76.8343,36.0,30,0.0,957.0,9.1,28.4,158,36.3,28.5,0,5,10,0,2026-04-12T20:12:21.761684+05:30
Bidar,Karnataka,17.9104,77.5199,33.5,34,0.0,934.8,9.1,26.6,153,35.0,26.6,0,5,7,0,2026-04-12T20:12:21.761692+05:30
Hospet,Karnataka,15.2689,76.3909,33.2,54,0.0,954.7,9.3,26.6,173,46.3,37.4,0,5,7,1,2026-04-12T20:12:21.761699+05:30
Tirupur,Tamil Nadu,11.1085,77.3411,33.3,39,0.0,974.7,9.5,29.2,113,27.4,21.0,0,5,7,1,2026-04-12T20:12:21.761707+05:30
Alappuzha,Kerala,9.4981,76.3388,28.9,82,0.0,1009.0,8.8,24.5,103,45.1,25.4,7,0,4,1,2026-04-12T20:12:21.761714+05:30
Munnar,Kerala,10.0889,77.0595,23.4,86,0.0,857.9,9.75,30.6,91,35.2,28.6,3,5,7,1,2026-04-12T20:12:21.761722+05:30
Silchar,Assam,24.8333,92.7789,24.7,83,0.0,1004.7,8.65,38.2,144,96.6,71.5,3,5,4,1,2026-04-12T20:12:21.761731+05:30
Dibrugarh,Assam,27.4728,94.912,21.6,74,0.0,996.8,7.65,32.0,99,47.8,36.9,3,5,7,1,2026-04-12T20:12:21.761739+05:30
