city,state,latitude,longitude,temp,humidity,rain,pressure,uv_index,wind_gusts,aqi,pm10,pm2_5,no2,co,o3,so2,mosquito_risk,arthritis_risk,migraine_risk,frizz_risk,updated_at
Delhi,Delhi,28.6139,77.209,41.8,16,0.0,974.9,7.75,40.7,162,372.5,66.6,4.0,224.0,168.0,10.9,0,5,10,0,2026-06-08T14:54:47.955479+05:30
Mumbai,Maharashtra,19.076,72.8777,33.7,53,0.0,1005.5,7.6,45.7,82,65.0,24.1,4.4,156.0,98.0,7.0,0,5,4,1,2026-06-08T14:54:47.955525+05:30
Bangalore,Karnataka,12.9716,77.5946,28.5,58,0.1,910.6,7.2,52.6,31,5.9,4.1,3.0,280.0,90.0,2.1,7,5,7,1,2026-06-08T14:54:47.955540+05:30
Hyderabad,Telangana,17.385,78.4867,33.2,45,0.0,950.0,6.4,36.0,77,51.8,27.2,2.3,216.0,120.0,5.0,0,5,7,1,2026-06-08T14:54:47.955550+05:30
Chennai,Tamil Nadu,13.0827,80.2707,37.6,39,0.0,1002.7,8.9,44.3,53,20.0,15.2,3.4,233.0,118.0,4.9,0,5,7,1,2026-06-08T14:54:47.955558+05:30
Kolkata,West Bengal,22.5726,88.3639,36.1,50,0.1,997.4,8.95,36.4,145,62.6,48.2,4.9,457.0,186.0,17.6,3,5,10,1,2026-06-08T14:54:47.955566+05:30
Pune,Maharashtra,18.5204,73.8567,30.9,52,0.2,945.9,5.85,46.8,72,34.2,14.4,1.9,134.0,97.0,3.7,3,5,3,1,2026-06-08T14:54:47.955573+05:30
Ahmedabad,Gujarat,23.0225,72.5714,40.9,33,0.0,995.3,7.8,45.0,78,72.2,27.0,1.5,140.0,104.0,5.0,0,5,10,1,2026-06-08T14:54:47.955580+05:30
Jaipur,Rajasthan,26.9124,75.7873,40.5,23,0.0,953.9,8.2,43.2,142,262.6,53.7,1.0,145.0,115.0,3.2,0,5,10,0,2026-06-08T14:54:47.955592+05:30
Lucknow,Uttar Pradesh,26.8467,80.9462,40.6,25,0.0,984.6,8.3,36.4,150,204.0,46.9,1.3,182.0,131.0,3.8,0,5,10,1,2026-06-08T14:54:47.955599+05:30
Kanpur,Uttar Pradesh,26.4499,80.3319,41.5,25,0.0,983.1,8.3,38.9,178,512.2,74.0,1.3,151.0,127.0,4.1,0,5,10,1,2026-06-08T14:54:47.955605+05:30
Chandigarh,Chandigarh,30.7333,76.7794,37.8,24,0.0,961.4,7.8,31.3,144,22.8,17.3,2.0,286.0,193.0,9.9,0,5,10,0,2026-06-08T14:54:47.955612+05:30
Srinagar,Jammu and Kashmir,34.0837,74.7973,27.4,38,0.0,841.0,9.0,20.9,78,17.5,10.7,1.2,274.0,151.0,2.0,4,5,7,0,2026-06-08T14:54:47.955620+05:30
Jammu,Jammu and Kashmir,32.7266,74.857,40.0,17,0.0,965.3,8.6,34.9,91,17.3,10.6,1.5,163.0,165.0,2.3,0,5,10,0,2026-06-08T14:54:47.955626+05:30
Amritsar,Punjab,31.634,74.8723,40.9,18,0.0,972.8,8.45,33.8,129,29.8,17.9,1.8,254.0,180.0,6.3,0,5,10,0,2026-06-08T14:54:47.955633+05:30
Ludhiana,Punjab,30.901,75.8573,40.6,17,0.0,970.9,8.05,37.4,126,28.6,15.5,1.4,235.0,169.0,3.7,0,5,10,0,2026-06-08T14:54:47.955639+05:30
Jalandhar,Punjab,31.326,75.5762,40.8,17,0.0,971.8,8.25,33.8,118,35.9,16.1,1.3,254.0,169.0,3.9,0,5,10,0,2026-06-08T14:54:47.955645+05:30
Dehradun,Uttarakhand,30.6284,78.0322,25.5,41,0.0,828.9,8.25,39.2,99,18.2,11.9,0.9,250.0,163.0,3.6,4,5,7,0,2026-06-08T14:54:47.955652+05:30
Shimla,Himachal Pradesh,31.1048,77.1734,24.3,28,0.0,785.1,8.35,42.5,112,14.6,10.1,0.9,181.0,169.0,5.6,0,5,7,0,2026-06-08T14:54:47.955661+05:30
Manali,Himachal Pradesh,32.2396,77.1887,25.0,36,0.1,818.0,9.9,36.0,113,16.4,13.5,4.2,148.0,168.0,0.5,7,5,7,0,2026-06-08T14:54:47.955682+05:30
Gurgaon,Haryana,28.4595,77.0266,41.1,16,0.0,973.5,7.85,41.0,565,1736.0,211.9,3.8,192.0,148.0,8.2,0,5,10,0,2026-06-08T14:54:47.955690+05:30
Noida,Uttar Pradesh,28.5355,77.391,41.6,18,0.0,975.8,7.8,33.1,565,1736.0,211.9,3.8,222.0,148.0,8.2,0,5,10,0,2026-06-08T14:54:47.955699+05:30
Ghaziabad,Uttar Pradesh,28.6692,77.4538,40.2,21,0.0,974.4,7.75,35.6,159,222.6,52.5,3.3,234.0,190.0,13.9,0,5,10,0,2026-06-08T14:54:47.955705+05:30
Faridabad,Haryana,28.4089,77.3178,41.5,16,0.0,975.4,7.8,42.1,565,1736.0,211.9,3.8,190.0,148.0,8.2,0,5,10,0,2026-06-08T14:54:47.955712+05:30
Meerut,Uttar Pradesh,28.9845,77.7064,38.5,32,0.0,973.6,7.65,33.1,159,222.6,52.5,3.3,239.0,190.0,13.9,0,5,10,1,2026-06-08T14:54:47.955718+05:30
Agra,Uttar Pradesh,27.1767,78.0081,41.8,17,0.0,979.6,8.1,39.2,635,1236.8,144.4,1.6,137.0,118.0,3.7,0,5,10,0,2026-06-08T14:54:47.955724+05:30
Varanasi,Uttar Pradesh,25.3176,82.9739,41.4,23,0.0,988.3,8.8,36.7,138,79.6,29.2,1.4,191.0,142.0,5.3,0,5,10,0,2026-06-08T14:54:47.955731+05:30
Prayagraj,Uttar Pradesh,25.4358,81.8463,41.1,24,0.0,987.3,8.7,39.2,134,93.4,31.8,1.4,158.0,135.0,4.9,0,5,10,1,2026-06-08T14:54:47.955738+05:30
Gorakhpur,Uttar Pradesh,26.7606,83.3732,37.9,37,0.0,987.8,8.5,31.3,144,167.6,54.6,1.5,247.0,165.0,8.7,0,5,10,1,2026-06-08T14:54:47.955746+05:30
Bareilly,Uttar Pradesh,28.367,79.4304,38.7,34,0.0,978.1,8.1,27.7,152,125.7,44.8,1.4,240.0,164.0,10.3,0,5,10,1,2026-06-08T14:54:47.955752+05:30
Aligarh,Uttar Pradesh,27.8974,78.088,40.3,22,0.0,977.4,7.95,36.0,223,957.4,131.3,2.1,169.0,153.0,8.6,0,5,10,0,2026-06-08T14:54:47.955758+05:30
Moradabad,Uttar Pradesh,28.8386,78.7733,39.1,30,0.0,975.3,7.9,36.4,160,133.6,50.4,2.4,262.0,202.0,17.3,0,5,10,1,2026-06-08T14:54:47.955764+05:30
Saharanpur,Uttar Pradesh,29.9637,77.546,37.0,31,0.0,968.0,7.45,28.1,149,43.3,28.5,2.5,294.0,206.0,14.4,0,5,10,1,2026-06-08T14:54:47.955770+05:30
Jhansi,Uttar Pradesh,25.4484,78.5685,39.4,32,0.0,971.1,8.3,42.1,80,99.9,30.2,0.9,136.0,103.0,3.7,0,5,10,1,2026-06-08T14:54:51.220732+05:30
Surat,Gujarat,21.1702,72.8311,35.7,50,0.0,1002.1,7.55,55.1,85,67.3,27.8,9.3,208.0,68.0,32.0,0,5,7,1,2026-06-08T14:54:51.220764+05:30
Vadodara,Gujarat,22.3072,73.1812,38.8,38,0.0,998.4,8.0,50.4,83,67.1,29.1,1.6,134.0,117.0,5.8,0,5,10,1,2026-06-08T14:54:51.220774+05:30
Rajkot,Gujarat,22.3039,70.8022,40.6,33,0.0,988.0,7.6,48.6,74,76.4,28.0,1.0,117.0,108.0,4.6,0,5,10,1,2026-06-08T14:54:51.220782+05:30
Thane,Maharashtra,19.2183,72.9781,35.8,43,0.0,1004.4,7.6,42.5,82,65.0,24.1,4.4,150.0,98.0,7.0,0,5,7,1,2026-06-08T14:54:51.220790+05:30
Nagpur,Maharashtra,21.1458,79.0882,40.8,25,0.0,967.3,8.9,44.6,89,56.7,28.9,3.6,165.0,150.0,16.7,0,5,10,1,2026-06-08T14:54:51.220798+05:30
Nashik,Maharashtra,19.9975,73.7898,34.9,38,0.0,942.8,8.05,50.4,74,57.5,20.8,0.9,123.0,92.0,1.5,0,5,7,1,2026-06-08T14:54:51.220805+05:30
Aurangabad,Maharashtra,19.8762,75.3433,37.2,29,0.0,940.7,9.0,49.0,75,55.5,22.4,0.9,134.0,107.0,2.7,0,5,10,1,2026-06-08T14:54:51.220834+05:30
Solapur,Maharashtra,17.6599,75.9064,34.1,41,0.0,954.2,8.7,43.2,62,61.0,24.4,1.1,124.0,106.0,2.5,0,5,7,1,2026-06-08T14:54:51.220843+05:30
Kolhapur,Maharashtra,16.705,74.2433,30.1,57,0.0,946.5,8.35,42.8,36,15.7,8.3,2.4,143.0,73.0,1.5,0,5,7,1,2026-06-08T14:54:51.220850+05:30
Goa,Goa,15.2993,74.124,26.6,96,0.0,997.6,2.05,32.8,38,8.5,5.2,1.7,125.0,67.0,0.8,7,5,3,1,2026-06-08T14:54:51.220858+05:30
Jodhpur,Rajasthan,26.2389,73.0243,40.6,32,0.0,976.3,8.4,39.2,146,250.5,53.7,0.6,121.0,98.0,2.2,0,5,10,1,2026-06-08T14:54:51.220865+05:30
Udaipur,Rajasthan,24.5854,73.7125,36.8,37,0.0,942.2,8.8,38.9,73,69.6,26.3,0.6,123.0,94.0,3.1,0,5,10,1,2026-06-08T14:54:51.220871+05:30
Kota,Rajasthan,25.2138,75.8648,39.9,34,0.0,972.1,8.4,33.1,90,95.9,30.9,0.8,138.0,114.0,4.9,0,5,10,1,2026-06-08T14:54:51.220879+05:30
Bikaner,Rajasthan,28.0229,73.3119,43.4,15,0.0,974.2,8.45,32.0,154,134.1,47.4,0.3,129.0,107.0,3.2,0,5,10,0,2026-06-08T14:54:51.220886+05:30
Ajmer,Rajasthan,26.4499,74.6399,37.4,37,0.0,949.3,8.35,45.7,87,122.5,37.5,0.6,128.0,105.0,2.6,0,5,10,1,2026-06-08T14:54:51.220893+05:30
Gwalior,Madhya Pradesh,26.2183,78.1828,40.7,23,0.0,975.8,8.2,43.9,90,170.0,44.4,0.6,138.0,105.0,3.1,0,5,10,0,2026-06-08T14:54:51.220900+05:30
Indore,Madhya Pradesh,22.7196,75.8577,38.1,34,0.0,943.8,8.65,44.3,90,68.2,29.1,1.0,166.0,112.0,4.7,0,5,10,1,2026-06-08T14:54:51.220907+05:30
Bhopal,Madhya Pradesh,23.2599,77.4126,38.3,34,0.0,948.8,8.7,39.2,89,67.5,28.1,0.7,160.0,110.0,4.9,0,5,10,1,2026-06-08T14:54:51.220914+05:30
Jabalpur,Madhya Pradesh,23.1815,79.9864,40.4,22,0.0,955.4,8.95,34.2,90,73.8,28.1,0.8,148.0,121.0,4.6,0,5,10,0,2026-06-08T14:54:51.220921+05:30
Ujjain,Madhya Pradesh,23.1765,75.7885,36.9,38,0.0,949.1,8.6,42.1,87,68.2,28.9,0.6,144.0,108.0,4.4,0,5,10,1,2026-06-08T14:54:51.220929+05:30
Visakhapatnam,Andhra Pradesh,17.6868,83.2185,37.8,40,0.0,996.6,7.4,41.8,101,51.2,41.0,8.4,384.0,193.0,33.5,0,5,10,1,2026-06-08T14:54:51.220935+05:30
Vijayawada,Andhra Pradesh,16.5062,80.648,34.8,44,0.0,997.8,8.85,51.1,75,34.5,23.5,1.6,167.0,135.0,5.1,0,5,7,1,2026-06-08T14:54:51.220943+05:30
Guntur,Andhra Pradesh,16.3067,80.4365,37.4,38,0.0,998.6,8.4,44.6,75,34.5,21.9,1.3,163.0,129.0,4.2,0,5,10,1,2026-06-08T14:54:51.220950+05:30
Nellore,Andhra Pradesh,14.4426,79.9865,35.8,42,0.0,1001.5,6.8,45.4,43,19.1,13.6,2.4,143.0,128.0,5.1,0,5,7,1,2026-06-08T14:54:51.220958+05:30
Kurnool,Andhra Pradesh,15.8281,78.0373,35.0,41,0.0,973.4,8.9,38.2,57,46.0,22.1,1.4,135.0,110.0,6.0,0,5,7,1,2026-06-08T14:54:51.220965+05:30
Kakinada,Andhra Pradesh,16.9891,82.2475,36.4,44,0.0,1001.6,8.5,42.1,88,34.1,25.9,1.9,201.0,147.0,4.4,0,5,7,1,2026-06-08T14:54:51.220973+05:30
Tirupati,Andhra Pradesh,13.6288,79.4192,34.9,44,0.0,987.6,8.25,41.8,36,4.4,3.6,1.5,134.0,92.0,0.8,0,5,7,1,2026-06-08T14:54:51.220981+05:30
Warangal,Telangana,17.9689,79.5941,33.6,47,0.0,974.4,7.8,36.0,86,51.6,28.2,1.2,164.0,127.0,4.8,0,5,7,1,2026-06-08T14:54:51.220987+05:30
Nizamabad,Telangana,18.6725,78.0941,37.1,36,0.0,960.6,5.65,48.6,81,61.2,28.6,1.0,140.0,110.0,3.1,0,5,6,1,2026-06-08T14:54:51.220994+05:30
Mysore,Karnataka,12.2958,76.6396,28.1,62,0.0,927.8,6.3,56.2,29,3.8,2.5,1.6,121.0,74.0,1.2,7,5,7,1,2026-06-08T14:54:51.221001+05:30
Mangalore,Karnataka,12.9141,74.856,26.6,87,0.1,1006.9,5.1,47.2,32,8.0,4.3,1.0,111.0,61.0,1.1,10,5,0,1,2026-06-08T14:54:51.221008+05:30
Hubli-Dharwad,Karnataka,15.3647,75.124,28.5,61,0.0,939.8,2.15,47.2,26,4.1,2.6,3.3,130.0,61.0,0.7,7,5,3,1,2026-06-08T14:54:51.221016+05:30
Belgaum,Karnataka,15.8497,74.4977,25.5,75,0.2,924.6,7.35,42.1,26,4.9,3.4,3.4,127.0,68.0,1.6,10,5,7,1,2026-06-08T14:54:54.506530+05:30
Coimbatore,Tamil Nadu,11.0168,76.9558,26.8,74,0.0,961.0,5.5,52.2,26,4.1,3.2,1.8,145.0,68.0,1.5,7,5,3,1,2026-06-08T14:54:54.506561+05:30
Madurai,Tamil Nadu,9.9252,78.1198,29.7,65,0.0,991.8,5.25,56.9,30,4.8,3.2,1.6,109.0,83.0,1.4,7,5,3,1,2026-06-08T14:54:54.506572+05:30
Trichy,Tamil Nadu,10.7905,78.7047,34.1,43,0.0,997.4,8.35,63.4,26,4.7,3.5,1.4,110.0,84.0,1.6,0,5,7,1,2026-06-08T14:54:54.506580+05:30
Salem,Tamil Nadu,11.6643,78.146,35.0,41,0.0,975.1,7.35,44.3,32,6.1,5.0,2.3,141.0,101.0,4.8,0,5,7,1,2026-06-08T14:54:54.506588+05:30
Tirunelveli,Tamil Nadu,8.7139,77.7567,33.2,49,0.0,1002.4,5.0,48.2,23,5.7,3.2,1.1,101.0,52.0,0.7,0,5,0,1,2026-06-08T14:54:54.506596+05:30
Vellore,Tamil Nadu,12.9165,79.1325,37.3,34,0.0,980.6,8.95,48.6,35,8.1,5.6,1.5,158.0,103.0,1.9,0,5,10,1,2026-06-08T14:54:54.506603+05:30
Erode,Tamil Nadu,11.341,77.7172,31.9,52,0.0,987.1,8.65,58.0,28,4.2,3.4,1.9,135.0,84.0,1.7,0,5,7,1,2026-06-08T14:54:54.506611+05:30
Kochi,Kerala,9.9312,76.2673,27.9,83,0.2,1009.7,6.95,41.0,29,10.7,6.3,2.6,113.0,53.0,1.9,10,0,4,1,2026-06-08T14:54:54.506619+05:30
Thiruvananthapuram,Kerala,8.5241,76.9366,28.0,82,0.0,1009.2,7.5,49.0,30,11.5,6.1,0.8,93.0,51.0,0.5,7,0,4,1,2026-06-08T14:54:54.506626+05:30
Kozhikode,Kerala,11.2588,75.7804,26.2,91,0.0,1008.8,4.45,39.6,29,11.2,5.6,0.5,117.0,61.0,0.4,7,0,0,1,2026-06-08T14:54:54.506633+05:30
Thrissur,Kerala,10.5276,76.2144,25.9,97,0.2,1008.2,4.75,29.5,28,9.3,5.8,2.2,99.0,52.0,1.2,10,0,0,1,2026-06-08T14:54:54.506642+05:30
Kannur,Kerala,11.8745,75.3704,26.4,91,0.0,1008.0,6.9,46.8,25,8.7,4.4,1.4,133.0,57.0,0.7,7,0,4,1,2026-06-08T14:54:54.506648+05:30
Patna,Bihar,25.5941,85.1376,38.3,33,0.0,991.0,8.9,28.8,164,139.7,52.3,2.1,274.0,176.0,8.4,0,5,10,1,2026-06-08T14:54:54.506655+05:30
Gaya,Bihar,24.7914,85.0002,40.1,24,0.0,984.8,8.2,37.8,154,122.9,42.3,1.3,226.0,155.0,6.8,0,5,10,0,2026-06-08T14:54:54.506663+05:30
Muzaffarpur,Bihar,26.1209,85.3647,36.3,52,0.0,990.9,8.85,25.9,173,142.0,61.2,2.6,335.0,197.0,11.5,0,5,10,1,2026-06-08T14:54:54.506670+05:30
Bhagalpur,Bihar,25.2425,87.0117,37.4,43,0.0,991.8,8.75,25.6,152,107.8,53.8,2.5,276.0,185.0,13.7,0,5,10,1,2026-06-08T14:54:54.506677+05:30
Ranchi,Jharkhand,23.3441,85.3096,35.1,30,0.0,932.0,9.2,29.9,134,94.5,36.7,1.3,181.0,165.0,11.9,0,5,10,0,2026-06-08T14:54:54.506684+05:30
Jamshedpur,Jharkhand,22.8046,86.2029,37.3,35,0.0,983.1,9.1,32.0,154,118.7,47.6,2.6,217.0,184.0,17.1,0,5,10,1,2026-06-08T14:54:54.506691+05:30
Dhanbad,Jharkhand,23.7957,86.4304,40.3,21,0.0,971.7,9.05,33.5,164,129.0,50.6,6.0,215.0,190.0,29.8,0,5,10,0,2026-06-08T14:54:54.506698+05:30
Bokaro,Jharkhand,23.6693,86.1511,39.4,25,0.0,975.2,8.85,36.0,162,128.1,48.9,6.6,228.0,194.0,33.2,0,5,10,0,2026-06-08T14:54:54.506705+05:30
Bhubaneswar,Odisha,20.2961,85.8245,38.1,40,0.0,994.7,8.45,50.4,106,53.3,35.5,3.0,254.0,173.0,9.7,0,5,10,1,2026-06-08T14:54:54.506712+05:30
Cuttack,Odisha,20.4625,85.8828,37.1,47,0.0,996.3,8.4,58.0,106,53.3,35.5,3.0,311.0,173.0,9.7,0,5,10,1,2026-06-08T14:54:54.506718+05:30
Rourkela,Odisha,22.2604,84.8536,39.0,30,0.0,977.8,8.65,35.3,142,98.0,43.5,1.5,222.0,180.0,13.2,0,5,10,1,2026-06-08T14:54:54.506725+05:30
Raipur,Chhattisgarh,21.2514,81.6296,39.8,28,0.0,968.2,8.65,38.9,120,67.1,38.6,5.0,199.0,168.0,26.6,0,5,10,1,2026-06-08T14:54:54.506731+05:30
Bhilai,Chhattisgarh,21.1938,81.3509,39.4,30,0.0,968.7,8.2,41.8,109,58.2,32.4,5.4,455.0,151.0,22.7,0,5,10,1,2026-06-08T14:54:54.506737+05:30
Guwahati,Assam,26.1158,91.7086,31.5,68,0.0,992.7,8.8,29.5,89,20.8,17.8,2.0,314.0,125.0,3.1,3,5,7,1,2026-06-08T14:54:54.506744+05:30
Agartala,Tripura,23.8315,91.2868,31.8,69,0.0,998.5,7.55,37.4,68,17.6,15.4,5.9,188.0,117.0,3.9,3,5,7,1,2026-06-08T14:54:54.506751+05:30
Shillong,Meghalaya,25.5788,91.8933,24.0,70,0.1,852.8,8.9,28.4,50,6.4,6.0,3.4,271.0,95.0,1.6,6,5,7,1,2026-06-08T14:54:54.506757+05:30
Imphal,Manipur,24.817,93.9368,28.7,64,0.0,916.8,8.9,30.2,64,12.7,10.9,3.3,205.0,81.0,1.2,7,5,7,1,2026-06-08T14:54:54.506764+05:30
Aizawl,Mizoram,23.7271,92.7176,25.4,70,0.1,887.5,6.95,35.3,40,3.4,2.9,1.2,156.0,95.0,1.1,10,5,7,1,2026-06-08T14:54:54.506771+05:30
Kohima,Nagaland,25.6701,94.1077,21.8,99,0.1,850.3,7.55,24.1,45,10.5,8.8,1.5,187.0,85.0,0.8,6,5,7,1,2026-06-08T14:54:54.506778+05:30
Gangtok,Sikkim,27.3314,88.6138,24.2,69,0.1,834.2,8.7,37.8,95,24.3,21.3,1.5,297.0,139.0,2.1,6,5,7,1,2026-06-08T14:54:54.506784+05:30
Siliguri,West Bengal,26.7271,88.3953,28.1,81,0.1,984.6,8.7,28.4,139,56.0,45.4,2.5,442.0,155.0,6.0,10,5,7,1,2026-06-08T14:54:57.776366+05:30
Durgapur,West Bengal,23.5204,87.3119,37.5,36,0.0,986.5,9.0,30.2,169,138.3,70.8,7.9,349.0,229.0,41.2,0,5,10,1,2026-06-08T14:54:57.776403+05:30
Asansol,West Bengal,23.6739,86.9524,40.1,25,0.0,984.6,9.05,31.0,162,127.6,54.9,6.1,256.0,200.0,28.1,0,5,10,1,2026-06-08T14:54:57.776417+05:30
Pondicherry,Puducherry,11.9139,79.8145,37.4,39,0.0,1004.1,8.8,52.6,42,16.5,13.1,2.1,202.0,118.0,8.1,0,5,7,1,2026-06-08T14:54:57.776427+05:30
Port Blair,Andaman and Nicobar Islands,11.6234,92.7265,30.4,74,0.1,1005.0,8.75,50.8,29,12.2,7.1,0.4,83.0,40.0,0.4,6,5,4,1,2026-06-08T14:54:57.776437+05:30
Haridwar,Uttarakhand,29.9457,78.1642,37.5,29,0.0,966.1,7.6,31.0,138,29.5,22.7,1.4,307.0,187.0,8.2,0,5,10,1,2026-06-08T14:54:57.776446+05:30
Rishikesh,Uttarakhand,30.0869,78.2676,37.0,29,0.0,959.2,7.7,23.0,132,26.4,18.3,0.7,254.0,170.0,4.7,0,5,10,1,2026-06-08T14:54:57.776455+05:30
Nainital,Uttarakhand,29.3919,79.4542,23.5,45,0.1,804.6,8.55,42.1,127,66.6,28.5,1.1,217.0,175.0,9.8,3,5,7,0,2026-06-08T14:54:57.776464+05:30
Mussoorie,Uttarakhand,30.4599,78.0664,23.8,38,0.0,802.4,8.1,43.9,130,26.2,20.9,1.5,236.0,189.0,8.1,0,5,7,0,2026-06-08T14:54:57.776472+05:30
Dharamshala,Himachal Pradesh,32.219,76.3234,29.0,29,0.0,866.7,8.5,47.2,101,12.2,8.9,0.5,179.0,155.0,1.6,4,5,7,0,2026-06-08T14:54:57.776480+05:30
Dalhousie,Himachal Pradesh,32.5387,75.971,24.8,36,0.1,804.7,8.75,35.3,117,21.8,15.5,1.4,190.0,176.0,2.8,3,5,7,0,2026-06-08T14:54:57.776488+05:30
Patiala,Punjab,30.3398,76.3869,40.2,18,0.0,970.5,7.7,37.4,150,230.5,40.2,1.4,263.0,186.0,6.6,0,5,10,0,2026-06-08T14:54:57.776495+05:30
Bhatinda,Punjab,30.211,74.9455,41.7,17,0.0,975.9,8.3,27.7,112,39.5,20.8,2.1,259.0,182.0,9.7,0,5,10,0,2026-06-08T14:54:57.776502+05:30
Rohtak,Haryana,28.8955,76.6066,40.4,19,0.0,973.7,7.8,30.6,177,627.7,84.5,2.0,186.0,155.0,5.7,0,5,10,0,2026-06-08T14:54:57.776508+05:30
Panipat,Haryana,29.3909,76.9635,39.7,21,0.0,972.4,7.65,33.8,235,1177.2,134.1,2.5,230.0,170.0,10.2,0,5,10,0,2026-06-08T14:54:57.776515+05:30
Mathura,Uttar Pradesh,27.4924,77.6737,40.5,22,0.0,978.4,8.05,33.5,380,1233.1,147.6,1.6,145.0,121.0,3.5,0,5,10,0,2026-06-08T14:54:57.776522+05:30
Vrindavan,Uttar Pradesh,27.5823,77.7027,40.8,21,0.0,978.8,8.0,33.8,380,1233.1,147.6,1.6,141.0,121.0,3.5,0,5,10,0,2026-06-08T14:54:57.776529+05:30
Ayodhya,Uttar Pradesh,26.7922,82.1998,39.0,31,0.0,985.9,8.4,29.5,152,117.8,41.3,1.3,197.0,148.0,5.2,0,5,10,1,2026-06-08T14:54:57.776536+05:30
Ratlam,Madhya Pradesh,23.3315,75.0367,36.5,41,0.0,950.3,8.5,43.2,85,62.9,28.6,0.6,128.0,105.0,3.8,0,5,10,1,2026-06-08T14:54:57.776543+05:30
Sagar,Madhya Pradesh,23.8388,78.7378,38.1,29,0.0,945.1,8.75,43.2,83,72.2,25.9,0.6,149.0,113.0,3.8,0,5,10,1,2026-06-08T14:54:57.776549+05:30
Satna,Madhya Pradesh,24.6005,80.8322,39.8,24,0.0,964.4,8.85,42.5,91,90.8,30.4,0.6,140.0,120.0,3.6,0,5,10,0,2026-06-08T14:54:57.776556+05:30
Akola,Maharashtra,20.7002,77.0082,40.1,31,0.0,969.9,8.85,42.8,85,58.1,27.1,1.2,130.0,118.0,6.0,0,5,10,1,2026-06-08T14:54:57.776564+05:30
Amravati,Maharashtra,20.9374,77.7796,39.3,32,0.0,962.3,8.7,42.1,87,59.8,28.3,1.4,138.0,122.0,6.9,0,5,10,1,2026-06-08T14:54:57.776572+05:30
Latur,Maharashtra,18.4088,76.5604,32.8,50,0.0,936.9,8.0,45.4,75,63.8,25.8,0.9,127.0,103.0,2.9,0,5,7,1,2026-06-08T14:54:57.776579+05:30
Nanded,Maharashtra,19.1383,77.3091,38.1,33,0.0,964.1,8.95,52.2,84,62.2,26.9,0.9,138.0,108.0,2.7,0,5,10,1,2026-06-08T14:54:57.776586+05:30
Gulbarga,Karnataka,17.3297,76.8343,27.9,78,0.5,955.2,8.5,41.0,60,54.2,23.8,1.4,133.0,107.0,2.9,10,5,7,1,2026-06-08T14:54:57.776593+05:30
Bidar,Karnataka,17.9104,77.5199,28.6,68,0.2,932.8,6.9,39.2,75,60.5,28.6,1.3,140.0,117.0,4.9,10,5,7,1,2026-06-08T14:54:57.776600+05:30
Hospet,Karnataka,15.2689,76.3909,32.2,50,0.1,953.5,7.65,49.3,31,21.0,11.5,2.4,130.0,88.0,1.5,3,5,7,1,2026-06-08T14:54:57.776606+05:30
Tirupur,Tamil Nadu,11.1085,77.3411,29.0,64,0.0,973.7,5.8,61.2,29,5.0,3.9,2.1,130.0,81.0,2.1,7,5,3,1,2026-06-08T14:54:57.776613+05:30
Alappuzha,Kerala,9.4981,76.3388,28.3,82,0.1,1009.7,6.7,43.9,28,12.1,6.4,1.6,87.0,54.0,1.0,10,0,4,1,2026-06-08T14:54:57.776620+05:30
Munnar,Kerala,10.0889,77.0595,17.7,93,0.1,857.2,5.55,47.2,22,3.2,2.3,1.7,104.0,62.0,1.0,6,10,3,1,2026-06-08T14:54:57.776627+05:30
Silchar,Assam,24.8333,92.7789,30.1,79,0.1,997.2,7.85,31.0,76,8.0,7.4,2.1,232.0,95.0,2.3,6,5,7,1,2026-06-08T14:54:57.776634+05:30
Dibrugarh,Assam,27.4728,94.912,30.2,77,0.0,986.7,8.15,24.5,88,20.2,17.4,1.5,285.0,145.0,2.4,3,5,7,1,2026-06-08T14:54:57.776640+05:30
