city,state,latitude,longitude,temp,humidity,rain,pressure,uv_index,wind_gusts,aqi,pm10,pm2_5,mosquito_risk,arthritis_risk,migraine_risk,frizz_risk,updated_at
Delhi,Delhi,28.6139,77.209,30.1,36,0.0,984.8,6.15,25.6,182,410.7,67.5,0,5,7,0,2026-03-11T18:38:02.374600+05:30
Mumbai,Maharashtra,19.076,72.8777,27.5,92,0.0,1009.6,7.6,23.4,222,54.5,48.0,7,0,4,1,2026-03-11T18:38:02.374647+05:30
Bangalore,Karnataka,12.9716,77.5946,28.9,32,0.0,912.9,9.25,27.7,63,13.0,12.3,4,5,7,0,2026-03-11T18:38:02.374664+05:30
Hyderabad,Telangana,17.385,78.4867,31.1,27,0.0,955.2,8.6,24.8,103,36.3,29.0,0,5,7,0,2026-03-11T18:38:02.374675+05:30
Chennai,Tamil Nadu,13.0827,80.2707,27.8,70,0.0,1009.4,9.0,31.7,67,20.8,17.1,7,0,4,1,2026-03-11T18:38:02.374685+05:30
Kolkata,West Bengal,22.5726,88.3639,26.8,77,0.0,1008.0,7.5,22.0,147,43.1,39.3,7,0,4,1,2026-03-11T18:38:02.374694+05:30
Pune,Maharashtra,18.5204,73.8567,34.3,24,0.0,949.7,8.15,31.3,145,28.5,24.8,0,5,7,0,2026-03-11T18:38:02.374706+05:30
Ahmedabad,Gujarat,23.0225,72.5714,36.7,15,0.0,1003.3,7.4,25.9,159,21.2,19.2,0,5,7,0,2026-03-11T18:38:02.374715+05:30
Jaipur,Rajasthan,26.9124,75.7873,32.5,15,0.0,962.0,6.85,33.1,137,116.9,27.8,0,5,7,0,2026-03-11T18:38:02.374723+05:30
Lucknow,Uttar Pradesh,26.8467,80.9462,30.0,49,0.0,995.1,6.6,28.8,183,180.2,53.9,4,5,7,1,2026-03-11T18:38:02.374732+05:30
Kanpur,Uttar Pradesh,26.4499,80.3319,30.6,50,0.0,993.4,6.6,23.8,174,339.0,62.9,0,5,7,1,2026-03-11T18:38:02.374739+05:30
Chandigarh,Chandigarh,30.7333,76.7794,26.1,57,0.0,971.0,5.35,24.5,142,57.5,39.2,4,5,3,1,2026-03-11T18:38:02.374746+05:30
Srinagar,Jammu and Kashmir,34.0837,74.7973,10.3,94,0.0,845.3,4.55,28.1,115,40.7,34.3,3,10,3,0,2026-03-11T18:38:02.374754+05:30
Jammu,Jammu and Kashmir,32.7266,74.857,26.0,38,0.0,975.4,5.4,27.0,97,49.4,24.7,4,5,3,0,2026-03-11T18:38:02.374761+05:30
Amritsar,Punjab,31.634,74.8723,25.2,77,0.0,983.4,6.45,23.8,157,67.3,46.4,7,5,7,1,2026-03-11T18:38:02.374768+05:30
Ludhiana,Punjab,30.901,75.8573,28.7,53,0.0,981.1,6.25,14.8,175,99.7,64.0,4,5,7,1,2026-03-11T18:38:02.374775+05:30
Jalandhar,Punjab,31.326,75.5762,27.7,58,0.0,982.2,6.5,17.6,168,83.4,51.0,4,5,7,1,2026-03-11T18:38:02.374784+05:30
Dehradun,Uttarakhand,30.6284,78.0322,19.2,64,0.0,832.9,6.0,28.8,106,25.7,17.1,3,5,3,0,2026-03-11T18:38:02.374791+05:30
Shimla,Himachal Pradesh,31.1048,77.1734,16.5,62,0.0,787.8,5.95,46.8,112,29.8,21.2,3,5,3,0,2026-03-11T18:38:02.374798+05:30
Manali,Himachal Pradesh,32.2396,77.1887,16.8,38,0.0,824.0,6.55,42.5,82,18.9,7.9,0,5,7,0,2026-03-11T18:38:02.374805+05:30
Gurgaon,Haryana,28.4595,77.0266,28.4,41,0.0,983.2,6.25,24.5,586,1099.0,137.8,4,5,7,0,2026-03-11T18:38:02.374812+05:30
Noida,Uttar Pradesh,28.5355,77.391,30.2,36,0.0,986.3,6.15,25.9,586,1099.0,137.8,0,5,7,0,2026-03-11T18:38:02.374818+05:30
Ghaziabad,Uttar Pradesh,28.6692,77.4538,28.8,44,0.0,984.4,6.1,24.5,167,333.4,59.5,4,5,7,0,2026-03-11T18:38:02.374825+05:30
Faridabad,Haryana,28.4089,77.3178,29.1,37,0.0,985.5,6.15,23.0,586,1099.0,137.8,4,5,7,0,2026-03-11T18:38:02.374832+05:30
Meerut,Uttar Pradesh,28.9845,77.7064,27.3,51,0.0,983.2,5.75,29.2,167,333.4,59.5,4,5,3,1,2026-03-11T18:38:02.374837+05:30
Agra,Uttar Pradesh,27.1767,78.0081,31.1,38,0.0,989.1,6.5,18.4,311,508.5,75.4,0,5,7,0,2026-03-11T18:38:02.374844+05:30
Varanasi,Uttar Pradesh,25.3176,82.9739,27.3,67,0.0,999.4,7.3,23.0,188,93.1,74.3,7,5,7,1,2026-03-11T18:38:02.374853+05:30
Prayagraj,Uttar Pradesh,25.4358,81.8463,28.4,54,0.0,997.9,7.15,23.8,186,81.7,53.0,4,5,7,1,2026-03-11T18:38:02.374860+05:30
Gorakhpur,Uttar Pradesh,26.7606,83.3732,28.0,71,0.0,998.7,7.0,22.0,217,159.3,128.5,7,5,7,1,2026-03-11T18:38:02.374866+05:30
Bareilly,Uttar Pradesh,28.367,79.4304,26.8,55,0.0,988.0,6.35,30.6,199,122.9,53.6,4,5,7,1,2026-03-11T18:38:02.374876+05:30
Aligarh,Uttar Pradesh,27.8974,78.088,29.0,37,0.0,987.0,6.25,25.6,268,942.5,126.7,4,5,7,0,2026-03-11T18:38:02.374883+05:30
Moradabad,Uttar Pradesh,28.8386,78.7733,26.9,49,0.0,985.0,6.15,34.6,192,80.1,37.7,4,5,7,0,2026-03-11T18:38:02.374889+05:30
Saharanpur,Uttar Pradesh,29.9637,77.546,26.4,53,0.0,977.4,5.45,36.0,166,111.3,39.5,4,5,3,0,2026-03-11T18:38:02.374895+05:30
Jhansi,Uttar Pradesh,25.4484,78.5685,31.6,26,0.0,979.5,7.1,27.7,118,31.0,15.5,0,5,7,0,2026-03-11T18:38:05.591105+05:30
Surat,Gujarat,21.1702,72.8311,35.0,28,0.0,1006.7,7.3,27.4,130,88.0,86.6,0,5,4,0,2026-03-11T18:38:05.591140+05:30
Vadodara,Gujarat,22.3072,73.1812,37.9,17,0.0,1004.7,7.45,20.2,143,21.7,19.8,0,5,7,0,2026-03-11T18:38:05.591151+05:30
Rajkot,Gujarat,22.3039,70.8022,35.6,13,0.0,996.4,7.25,32.4,118,19.1,18.0,0,5,10,0,2026-03-11T18:38:05.591160+05:30
Thane,Maharashtra,19.2183,72.9781,28.8,76,0.0,1009.0,7.6,40.7,222,54.5,48.0,7,0,4,1,2026-03-11T18:38:05.591167+05:30
Nagpur,Maharashtra,21.1458,79.0882,32.1,31,0.0,974.3,8.0,12.6,147,44.0,26.8,0,5,7,0,2026-03-11T18:38:05.591175+05:30
Nashik,Maharashtra,19.9975,73.7898,33.2,25,0.0,947.3,7.75,25.6,160,30.3,27.6,0,5,7,0,2026-03-11T18:38:05.591183+05:30
Aurangabad,Maharashtra,19.8762,75.3433,33.6,27,0.0,945.7,8.3,18.4,154,31.3,26.7,0,5,7,0,2026-03-11T18:38:05.591189+05:30
Solapur,Maharashtra,17.6599,75.9064,32.3,44,0.0,958.5,8.5,20.5,140,34.8,28.6,0,5,7,1,2026-03-11T18:38:05.591197+05:30
Kolhapur,Maharashtra,16.705,74.2433,31.5,29,0.0,949.2,8.65,32.4,149,52.3,46.7,0,5,7,0,2026-03-11T18:38:05.591204+05:30
Goa,Goa,15.2993,74.124,28.7,76,0.0,999.1,8.65,39.6,151,51.1,44.5,7,5,7,1,2026-03-11T18:38:05.591211+05:30
Jodhpur,Rajasthan,26.2389,73.0243,32.8,18,0.0,985.1,7.15,31.7,126,97.1,20.3,0,5,7,0,2026-03-11T18:38:05.591219+05:30
Udaipur,Rajasthan,24.5854,73.7125,31.9,20,0.0,949.3,7.8,26.3,124,10.5,9.3,0,5,7,0,2026-03-11T18:38:05.591226+05:30
Kota,Rajasthan,25.2138,75.8648,33.0,23,0.0,980.4,7.2,18.7,125,44.1,20.2,0,5,7,0,2026-03-11T18:38:05.591234+05:30
Bikaner,Rajasthan,28.0229,73.3119,33.2,17,0.0,983.7,6.15,27.7,111,28.9,11.0,0,5,7,0,2026-03-11T18:38:05.591241+05:30
Ajmer,Rajasthan,26.4499,74.6399,30.4,23,0.0,957.0,7.2,27.7,129,23.8,14.4,0,5,7,0,2026-03-11T18:38:05.591248+05:30
Gwalior,Madhya Pradesh,26.2183,78.1828,31.0,35,0.0,984.8,6.8,29.9,113,71.2,22.5,0,5,7,0,2026-03-11T18:38:05.591255+05:30
Indore,Madhya Pradesh,22.7196,75.8577,29.2,28,0.0,950.1,7.7,20.9,120,20.8,15.3,4,5,7,0,2026-03-11T18:38:05.591261+05:30
Bhopal,Madhya Pradesh,23.2599,77.4126,28.7,27,0.0,955.8,7.55,24.8,119,26.6,15.0,4,5,7,0,2026-03-11T18:38:05.591268+05:30
Jabalpur,Madhya Pradesh,23.1815,79.9864,31.7,30,0.0,963.4,7.7,24.5,110,71.5,26.1,0,5,7,0,2026-03-11T18:38:05.591275+05:30
Ujjain,Madhya Pradesh,23.1765,75.7885,29.9,37,0.0,955.7,7.65,14.8,106,26.7,20.3,4,5,7,0,2026-03-11T18:38:05.591282+05:30
Visakhapatnam,Andhra Pradesh,17.6868,83.2185,27.3,67,0.0,1005.1,8.6,39.2,96,27.4,24.1,7,5,4,1,2026-03-11T18:38:05.591289+05:30
Vijayawada,Andhra Pradesh,16.5062,80.648,31.7,44,0.0,1004.0,8.7,19.1,90,32.1,30.2,0,5,4,1,2026-03-11T18:38:05.591295+05:30
Guntur,Andhra Pradesh,16.3067,80.4365,30.7,45,0.0,1005.4,8.7,20.2,75,30.9,27.3,0,5,4,1,2026-03-11T18:38:05.591302+05:30
Nellore,Andhra Pradesh,14.4426,79.9865,28.1,61,0.0,1008.1,8.85,28.4,66,16.2,13.9,7,0,4,1,2026-03-11T18:38:05.591310+05:30
Kurnool,Andhra Pradesh,15.8281,78.0373,33.3,26,0.0,978.1,8.7,25.2,59,29.1,22.8,0,5,7,0,2026-03-11T18:38:05.591317+05:30
Kakinada,Andhra Pradesh,16.9891,82.2475,29.2,51,0.0,1008.9,8.65,26.3,86,17.9,15.5,4,0,4,1,2026-03-11T18:38:05.591324+05:30
Tirupati,Andhra Pradesh,13.6288,79.4192,29.6,49,0.0,993.3,9.0,32.4,79,14.3,13.2,4,5,7,1,2026-03-11T18:38:05.591331+05:30
Warangal,Telangana,17.9689,79.5941,31.3,43,0.0,980.4,8.45,23.4,83,44.4,37.1,0,5,7,1,2026-03-11T18:38:05.591337+05:30
Nizamabad,Telangana,18.6725,78.0941,31.7,33,0.0,966.6,8.35,26.6,136,44.7,37.8,0,5,7,0,2026-03-11T18:38:05.591344+05:30
Mysore,Karnataka,12.2958,76.6396,29.0,35,0.0,929.2,9.25,28.8,67,15.2,14.0,4,5,7,0,2026-03-11T18:38:05.591350+05:30
Mangalore,Karnataka,12.9141,74.856,29.0,79,0.0,1007.1,8.9,29.5,119,40.0,34.5,7,5,4,1,2026-03-11T18:38:05.591357+05:30
Hubli-Dharwad,Karnataka,15.3647,75.124,31.8,25,0.0,941.9,8.85,37.1,112,17.2,15.4,0,5,7,0,2026-03-11T18:38:05.591364+05:30
Belgaum,Karnataka,15.8497,74.4977,31.5,27,0.0,927.1,8.9,41.0,146,36.7,30.7,0,5,7,0,2026-03-11T18:38:08.805364+05:30
Coimbatore,Tamil Nadu,11.0168,76.9558,30.4,35,0.0,962.0,9.25,35.6,79,21.0,18.8,0,5,7,0,2026-03-11T18:38:08.805398+05:30
Madurai,Tamil Nadu,9.9252,78.1198,30.2,55,0.0,993.3,8.4,32.8,63,16.6,15.3,0,5,7,1,2026-03-11T18:38:08.805408+05:30
Trichy,Tamil Nadu,10.7905,78.7047,29.8,60,0.0,1000.6,9.15,29.9,66,17.9,16.5,4,5,4,1,2026-03-11T18:38:08.805417+05:30
Salem,Tamil Nadu,11.6643,78.146,31.0,45,0.0,977.7,9.15,20.2,70,14.4,13.1,0,5,7,1,2026-03-11T18:38:08.805425+05:30
Tirunelveli,Tamil Nadu,8.7139,77.7567,30.9,55,0.0,1003.5,6.2,25.9,53,15.7,13.8,0,5,4,1,2026-03-11T18:38:08.805433+05:30
Vellore,Tamil Nadu,12.9165,79.1325,29.4,47,0.0,986.0,9.1,34.6,88,22.4,21.3,4,5,7,1,2026-03-11T18:38:08.805441+05:30
Erode,Tamil Nadu,11.341,77.7172,32.4,41,0.0,989.2,9.15,18.7,74,20.6,19.0,0,5,7,1,2026-03-11T18:38:08.805449+05:30
Kochi,Kerala,9.9312,76.2673,28.4,83,0.0,1008.1,8.25,38.9,133,36.6,32.1,7,0,4,1,2026-03-11T18:38:08.805457+05:30
Thiruvananthapuram,Kerala,8.5241,76.9366,28.6,74,0.0,1008.2,7.3,25.6,76,19.3,16.1,7,0,4,1,2026-03-11T18:38:08.805464+05:30
Kozhikode,Kerala,11.2588,75.7804,28.7,80,0.0,1008.0,8.95,31.3,119,37.6,31.3,7,0,4,1,2026-03-11T18:38:08.805471+05:30
Thrissur,Kerala,10.5276,76.2144,29.0,70,0.0,1006.7,9.05,39.2,92,27.0,24.9,7,5,4,1,2026-03-11T18:38:08.805479+05:30
Kannur,Kerala,11.8745,75.3704,28.5,80,0.0,1007.7,8.95,38.9,132,39.6,33.8,7,5,4,1,2026-03-11T18:38:08.805486+05:30
Patna,Bihar,25.5941,85.1376,28.5,67,0.0,1002.2,6.85,24.8,199,157.9,144.4,7,5,4,1,2026-03-11T18:38:08.805494+05:30
Gaya,Bihar,24.7914,85.0002,27.4,73,0.0,995.5,7.5,21.6,174,134.6,121.5,7,5,7,1,2026-03-11T18:38:08.805501+05:30
Muzaffarpur,Bihar,26.1209,85.3647,27.3,71,0.0,1002.1,7.35,22.0,217,157.4,144.4,7,5,4,1,2026-03-11T18:38:08.805507+05:30
Bhagalpur,Bihar,25.2425,87.0117,27.1,76,0.0,1003.0,7.15,18.4,175,113.4,105.9,7,5,4,1,2026-03-11T18:38:08.805514+05:30
Ranchi,Jharkhand,23.3441,85.3096,26.6,46,0.0,939.4,8.15,28.1,171,83.1,72.6,4,5,7,0,2026-03-11T18:38:08.805521+05:30
Jamshedpur,Jharkhand,22.8046,86.2029,28.2,70,0.0,992.3,8.05,24.1,162,99.0,86.8,7,5,7,1,2026-03-11T18:38:08.805527+05:30
Dhanbad,Jharkhand,23.7957,86.4304,26.3,71,0.0,981.8,7.6,23.8,194,170.9,154.1,7,5,7,1,2026-03-11T18:38:08.805534+05:30
Bokaro,Jharkhand,23.6693,86.1511,26.7,70,0.0,985.8,7.7,37.8,193,151.8,136.0,7,5,7,1,2026-03-11T18:38:08.805541+05:30
Bhubaneswar,Odisha,20.2961,85.8245,27.6,75,0.0,1004.2,8.35,28.4,112,28.3,25.6,7,5,4,1,2026-03-11T18:38:08.805548+05:30
Cuttack,Odisha,20.4625,85.8828,29.6,66,0.0,1005.7,8.4,27.4,112,28.3,25.6,7,5,4,1,2026-03-11T18:38:08.805555+05:30
Rourkela,Odisha,22.2604,84.8536,31.5,43,0.0,984.9,7.95,27.4,163,84.5,64.3,0,5,7,1,2026-03-11T18:38:08.805561+05:30
Raipur,Chhattisgarh,21.2514,81.6296,33.1,30,0.0,975.6,8.05,24.1,172,86.1,62.4,0,5,7,0,2026-03-11T18:38:08.805568+05:30
Bhilai,Chhattisgarh,21.1938,81.3509,32.7,33,0.0,975.8,8.05,19.1,152,86.4,60.3,0,5,7,0,2026-03-11T18:38:08.805574+05:30
Guwahati,Assam,26.1158,91.7086,28.1,68,0.0,1003.1,7.35,23.0,153,74.7,68.5,7,5,4,1,2026-03-11T18:38:08.805581+05:30
Agartala,Tripura,23.8315,91.2868,25.7,78,0.0,1008.2,7.7,15.8,176,96.2,88.9,7,0,4,1,2026-03-11T18:38:08.805587+05:30
Shillong,Meghalaya,25.5788,91.8933,15.1,82,0.0,858.0,6.65,19.1,125,48.9,45.2,3,10,7,0,2026-03-11T18:38:08.805594+05:30
Imphal,Manipur,24.817,93.9368,19.2,74,0.0,924.7,7.95,40.3,157,92.2,84.8,3,5,7,0,2026-03-11T18:38:08.805601+05:30
Aizawl,Mizoram,23.7271,92.7176,19.7,75,0.0,894.3,7.9,27.4,187,134.1,128.5,3,5,7,0,2026-03-11T18:38:08.805608+05:30
Kohima,Nagaland,25.6701,94.1077,15.6,96,0.0,856.2,7.05,32.8,150,74.7,68.0,3,10,7,0,2026-03-11T18:38:08.805615+05:30
Gangtok,Sikkim,27.3314,88.6138,16.7,86,0.0,839.3,6.3,19.8,124,61.7,55.6,3,10,7,0,2026-03-11T18:38:08.805621+05:30
Siliguri,West Bengal,26.7271,88.3953,22.0,83,0.0,996.2,7.35,21.2,169,106.4,94.8,3,5,7,1,2026-03-11T18:38:12.026196+05:30
Durgapur,West Bengal,23.5204,87.3119,25.3,78,0.0,997.5,7.6,20.5,165,89.2,82.7,7,5,7,1,2026-03-11T18:38:12.026234+05:30
Asansol,West Bengal,23.6739,86.9524,25.6,76,0.0,995.8,7.85,20.2,173,124.8,113.2,7,5,7,1,2026-03-11T18:38:12.026245+05:30
Pondicherry,Puducherry,11.9139,79.8145,27.6,75,0.0,1010.3,9.0,31.3,59,20.5,16.0,7,0,4,1,2026-03-11T18:38:12.026254+05:30
Port Blair,Andaman and Nicobar Islands,11.6234,92.7265,28.0,79,0.0,1008.3,8.95,20.2,58,15.2,12.7,7,0,4,1,2026-03-11T18:38:12.026264+05:30
Haridwar,Uttarakhand,29.9457,78.1642,27.2,45,0.0,975.9,5.85,38.5,154,60.3,31.8,4,5,3,0,2026-03-11T18:38:12.026273+05:30
Rishikesh,Uttarakhand,30.0869,78.2676,25.8,51,0.0,968.8,5.95,36.4,145,43.8,25.6,4,5,3,0,2026-03-11T18:38:12.026282+05:30
Nainital,Uttarakhand,29.3919,79.4542,21.1,45,0.0,808.5,6.8,64.4,166,31.7,25.5,0,5,7,0,2026-03-11T18:38:12.026291+05:30
Mussoorie,Uttarakhand,30.4599,78.0664,19.6,59,0.0,805.5,6.0,38.9,138,44.9,28.6,0,5,3,0,2026-03-11T18:38:12.026299+05:30
Dharamshala,Himachal Pradesh,32.219,76.3234,21.9,48,0.0,872.4,5.4,25.9,70,24.6,10.9,0,5,3,0,2026-03-11T18:38:12.026307+05:30
Dalhousie,Himachal Pradesh,32.5387,75.971,20.2,28,0.0,807.6,4.75,23.0,91,36.9,20.9,0,5,3,0,2026-03-11T18:38:12.026317+05:30
Patiala,Punjab,30.3398,76.3869,27.0,58,0.0,980.4,5.4,19.1,168,96.9,57.2,4,5,3,1,2026-03-11T18:38:12.026325+05:30
Bhatinda,Punjab,30.211,74.9455,29.1,52,0.0,985.6,6.6,25.2,150,66.4,42.3,4,5,7,1,2026-03-11T18:38:12.026332+05:30
Rohtak,Haryana,28.8955,76.6066,27.5,42,0.0,983.7,6.1,27.4,192,400.5,71.5,4,5,7,0,2026-03-11T18:38:12.026340+05:30
Panipat,Haryana,29.3909,76.9635,26.1,52,0.0,982.3,5.45,24.8,284,726.4,91.7,4,5,3,0,2026-03-11T18:38:12.026348+05:30
Mathura,Uttar Pradesh,27.4924,77.6737,30.5,38,0.0,988.1,6.4,21.2,280,586.7,85.0,0,5,7,0,2026-03-11T18:38:12.026356+05:30
Vrindavan,Uttar Pradesh,27.5823,77.7027,30.5,40,0.0,988.7,6.35,23.0,280,586.7,85.0,0,5,7,0,2026-03-11T18:38:12.026364+05:30
Ayodhya,Uttar Pradesh,26.7922,82.1998,27.7,63,0.0,996.7,6.8,25.2,192,67.3,51.2,7,5,7,1,2026-03-11T18:38:12.026372+05:30
Ratlam,Madhya Pradesh,23.3315,75.0367,32.1,24,0.0,956.7,7.55,19.8,120,21.0,15.5,0,5,7,0,2026-03-11T18:38:12.026380+05:30
Sagar,Madhya Pradesh,23.8388,78.7378,30.2,26,0.0,952.2,7.55,24.8,116,44.5,16.6,0,5,7,0,2026-03-11T18:38:12.026387+05:30
Satna,Madhya Pradesh,24.6005,80.8322,30.9,29,0.0,973.4,7.55,34.2,150,49.8,22.4,0,5,7,0,2026-03-11T18:38:12.026395+05:30
Akola,Maharashtra,20.7002,77.0082,34.5,22,0.0,976.2,8.0,18.4,171,28.9,22.4,0,5,7,0,2026-03-11T18:38:12.026403+05:30
Amravati,Maharashtra,20.9374,77.7796,33.5,30,0.0,968.2,8.0,11.9,166,29.3,18.0,0,5,7,0,2026-03-11T18:38:12.026412+05:30
Latur,Maharashtra,18.4088,76.5604,30.4,38,0.0,941.7,8.45,24.5,151,28.8,25.7,0,5,7,0,2026-03-11T18:38:12.026421+05:30
Nanded,Maharashtra,19.1383,77.3091,33.5,34,0.0,970.0,8.2,18.0,153,35.3,29.7,0,5,7,0,2026-03-11T18:38:12.026429+05:30
Gulbarga,Karnataka,17.3297,76.8343,34.0,27,0.0,960.0,8.5,21.6,118,30.5,23.8,0,5,7,0,2026-03-11T18:38:12.026436+05:30
Bidar,Karnataka,17.9104,77.5199,31.2,28,0.0,937.5,8.5,24.8,123,35.0,28.9,0,5,7,0,2026-03-11T18:38:12.026444+05:30
Hospet,Karnataka,15.2689,76.3909,32.8,25,0.0,957.0,8.8,28.4,96,14.3,13.3,0,5,7,0,2026-03-11T18:38:12.026451+05:30
Tirupur,Tamil Nadu,11.1085,77.3411,32.1,31,0.0,975.5,9.25,29.5,83,23.8,21.4,0,5,7,0,2026-03-11T18:38:12.026459+05:30
Alappuzha,Kerala,9.4981,76.3388,28.5,80,0.0,1008.3,8.25,37.8,117,34.3,28.9,7,0,4,1,2026-03-11T18:38:12.026467+05:30
Munnar,Kerala,10.0889,77.0595,25.4,56,0.0,858.2,8.0,27.4,60,20.1,18.5,4,5,7,0,2026-03-11T18:38:12.026475+05:30
Silchar,Assam,24.8333,92.7789,27.6,72,0.0,1006.7,7.65,13.7,173,115.7,104.3,7,5,4,1,2026-03-11T18:38:12.026483+05:30
Dibrugarh,Assam,27.4728,94.912,25.8,76,0.0,997.4,7.45,21.6,159,86.8,79.9,7,5,7,1,2026-03-11T18:38:12.026491+05:30
