city,state,latitude,longitude,temp,humidity,rain,pressure,uv_index,wind_gusts,aqi,pm10,pm2_5,mosquito_risk,arthritis_risk,migraine_risk,frizz_risk,updated_at
Delhi,Delhi,28.6139,77.209,18.8,73,0.0,986.8,5.5,33.1,151,61.9,32.5,3,5,3,0,2026-03-19T05:03:33.992523+05:30
Mumbai,Maharashtra,19.076,72.8777,27.2,73,0.0,1010.3,7.75,22.7,74,28.9,18.6,7,0,4,1,2026-03-19T05:03:33.992578+05:30
Bangalore,Karnataka,12.9716,77.5946,17.9,88,0.0,912.2,9.35,22.7,85,37.6,34.7,3,10,7,0,2026-03-19T05:03:33.992595+05:30
Hyderabad,Telangana,17.385,78.4867,20.8,84,0.0,955.0,8.75,16.6,90,27.8,23.1,3,5,7,1,2026-03-19T05:03:33.992606+05:30
Chennai,Tamil Nadu,13.0827,80.2707,24.2,92,0.0,1009.9,9.1,28.4,38,14.8,11.8,3,0,4,1,2026-03-19T05:03:33.992615+05:30
Kolkata,West Bengal,22.5726,88.3639,22.7,92,0.0,1009.2,7.55,36.0,63,16.2,13.5,3,0,4,1,2026-03-19T05:03:33.992625+05:30
Pune,Maharashtra,18.5204,73.8567,21.1,86,0.0,950.0,8.3,36.0,99,59.1,52.2,3,5,7,1,2026-03-19T05:03:33.992638+05:30
Ahmedabad,Gujarat,23.0225,72.5714,22.4,65,0.0,1003.7,7.6,51.1,66,16.6,14.2,3,5,4,0,2026-03-19T05:03:33.992647+05:30
Jaipur,Rajasthan,26.9124,75.7873,21.1,68,0.0,962.2,6.55,31.7,176,183.5,49.6,3,5,7,0,2026-03-19T05:03:33.992655+05:30
Lucknow,Uttar Pradesh,26.8467,80.9462,21.3,63,0.0,996.5,6.8,32.8,99,79.6,38.6,3,5,7,0,2026-03-19T05:03:33.992664+05:30
Kanpur,Uttar Pradesh,26.4499,80.3319,20.6,69,0.0,994.6,6.85,30.2,104,122.9,44.5,3,5,7,0,2026-03-19T05:03:33.992672+05:30
Chandigarh,Chandigarh,30.7333,76.7794,16.6,81,0.0,972.9,2.55,20.2,65,39.9,16.0,3,10,3,0,2026-03-19T05:03:33.992680+05:30
Srinagar,Jammu and Kashmir,34.0837,74.7973,5.1,91,0.1,842.0,1.0,19.8,105,32.9,27.1,6,10,3,0,2026-03-19T05:03:33.992689+05:30
Jammu,Jammu and Kashmir,32.7266,74.857,15.8,78,0.0,977.8,3.9,26.3,64,16.4,10.6,3,5,3,0,2026-03-19T05:03:33.992697+05:30
Amritsar,Punjab,31.634,74.8723,15.5,79,0.0,985.9,1.6,22.7,88,42.5,21.8,3,5,3,0,2026-03-19T05:03:33.992705+05:30
Ludhiana,Punjab,30.901,75.8573,16.8,76,0.0,983.4,1.75,18.4,96,58.1,25.7,3,5,3,0,2026-03-19T05:03:33.992712+05:30
Jalandhar,Punjab,31.326,75.5762,15.7,75,0.0,984.8,3.05,23.4,94,61.2,26.7,3,5,3,0,2026-03-19T05:03:33.992724+05:30
Dehradun,Uttarakhand,30.6284,78.0322,9.8,71,0.0,830.2,4.9,29.5,41,35.9,10.1,3,5,3,0,2026-03-19T05:03:33.992732+05:30
Shimla,Himachal Pradesh,31.1048,77.1734,8.4,68,0.0,783.1,3.1,32.4,42,20.8,6.7,3,5,3,0,2026-03-19T05:03:33.992740+05:30
Manali,Himachal Pradesh,32.2396,77.1887,9.6,97,0.3,817.5,4.15,23.0,41,7.2,3.7,6,10,3,0,2026-03-19T05:03:33.992748+05:30
Gurgaon,Haryana,28.4595,77.0266,18.1,79,0.0,985.1,6.25,29.9,248,74.0,39.3,3,5,7,0,2026-03-19T05:03:33.992756+05:30
Noida,Uttar Pradesh,28.5355,77.391,18.8,73,0.0,988.4,5.95,32.8,248,74.0,39.3,3,5,3,0,2026-03-19T05:03:33.992763+05:30
Ghaziabad,Uttar Pradesh,28.6692,77.4538,18.3,75,0.0,986.6,6.0,34.2,145,57.0,29.2,3,5,3,0,2026-03-19T05:03:33.992770+05:30
Faridabad,Haryana,28.4089,77.3178,18.7,73,0.0,987.4,6.3,33.5,248,74.0,39.3,3,5,7,0,2026-03-19T05:03:33.992778+05:30
Meerut,Uttar Pradesh,28.9845,77.7064,17.1,82,0.0,985.5,4.6,34.6,145,57.0,29.2,3,10,3,0,2026-03-19T05:03:33.992786+05:30
Agra,Uttar Pradesh,27.1767,78.0081,20.0,71,0.0,991.8,6.6,31.0,452,644.5,90.3,3,5,7,0,2026-03-19T05:03:33.992793+05:30
Varanasi,Uttar Pradesh,25.3176,82.9739,21.9,81,0.0,999.9,7.5,18.4,105,76.8,63.6,3,5,7,1,2026-03-19T05:03:33.992803+05:30
Prayagraj,Uttar Pradesh,25.4358,81.8463,22.3,75,0.0,998.5,7.35,13.3,108,78.0,55.2,3,5,7,1,2026-03-19T05:03:33.992811+05:30
Gorakhpur,Uttar Pradesh,26.7606,83.3732,16.3,80,0.0,1000.0,7.1,13.7,119,113.9,70.3,3,5,4,0,2026-03-19T05:03:33.992818+05:30
Bareilly,Uttar Pradesh,28.367,79.4304,19.7,56,0.0,990.5,6.1,34.9,108,54.1,28.3,0,5,7,0,2026-03-19T05:03:33.992825+05:30
Aligarh,Uttar Pradesh,27.8974,78.088,19.4,64,0.0,989.6,6.35,32.8,142,564.4,74.3,3,5,7,0,2026-03-19T05:03:33.992832+05:30
Moradabad,Uttar Pradesh,28.8386,78.7733,18.6,68,0.0,988.1,4.85,46.1,138,70.5,32.1,3,5,3,0,2026-03-19T05:03:33.992838+05:30
Saharanpur,Uttar Pradesh,29.9637,77.546,15.4,85,0.0,980.0,3.35,18.7,92,40.7,18.1,3,10,3,0,2026-03-19T05:03:33.992844+05:30
Jhansi,Uttar Pradesh,25.4484,78.5685,21.5,67,0.0,980.1,7.3,33.1,76,106.9,36.6,3,5,7,0,2026-03-19T05:03:37.353582+05:30
Surat,Gujarat,21.1702,72.8311,24.9,81,0.0,1008.6,7.45,38.5,78,26.5,20.5,3,0,4,1,2026-03-19T05:03:37.353613+05:30
Vadodara,Gujarat,22.3072,73.1812,21.8,92,0.0,1006.2,7.55,53.6,64,22.0,16.7,3,5,4,1,2026-03-19T05:03:37.353623+05:30
Rajkot,Gujarat,22.3039,70.8022,23.7,85,0.0,996.1,7.45,43.6,36,21.8,12.3,3,5,7,1,2026-03-19T05:03:37.353632+05:30
Thane,Maharashtra,19.2183,72.9781,24.4,85,0.0,1009.9,7.75,37.1,74,28.9,18.6,3,0,4,1,2026-03-19T05:03:37.353640+05:30
Nagpur,Maharashtra,21.1458,79.0882,22.3,75,0.0,975.8,8.2,28.1,96,41.0,36.6,3,5,7,1,2026-03-19T05:03:37.353648+05:30
Nashik,Maharashtra,19.9975,73.7898,20.9,91,0.0,947.0,7.95,38.5,58,28.1,19.6,3,5,7,1,2026-03-19T05:03:37.353656+05:30
Aurangabad,Maharashtra,19.8762,75.3433,21.1,68,0.0,945.5,8.25,27.7,73,29.6,24.3,3,5,7,0,2026-03-19T05:03:37.353664+05:30
Solapur,Maharashtra,17.6599,75.9064,20.9,78,0.0,958.9,8.65,18.0,88,32.5,29.3,3,5,7,1,2026-03-19T05:03:37.353672+05:30
Kolhapur,Maharashtra,16.705,74.2433,17.5,87,0.0,948.9,8.8,41.8,114,77.3,66.6,3,10,7,0,2026-03-19T05:03:37.353679+05:30
Goa,Goa,15.2993,74.124,23.5,87,0.0,1000.1,8.8,29.5,83,50.9,33.4,3,5,4,1,2026-03-19T05:03:37.353687+05:30
Jodhpur,Rajasthan,26.2389,73.0243,22.6,54,0.0,985.7,6.95,29.5,63,64.7,17.0,0,5,7,0,2026-03-19T05:03:37.353694+05:30
Udaipur,Rajasthan,24.5854,73.7125,20.0,55,0.0,947.8,6.9,40.7,35,30.2,10.2,0,5,7,0,2026-03-19T05:03:37.353702+05:30
Kota,Rajasthan,25.2138,75.8648,21.0,67,0.0,980.8,7.35,36.7,78,63.1,32.0,3,5,7,0,2026-03-19T05:03:37.353710+05:30
Bikaner,Rajasthan,28.0229,73.3119,20.3,85,0.0,984.5,4.6,27.4,66,45.1,20.8,3,5,3,1,2026-03-19T05:03:37.353717+05:30
Ajmer,Rajasthan,26.4499,74.6399,21.2,64,0.0,957.2,6.1,30.2,88,110.4,32.7,3,5,7,0,2026-03-19T05:03:37.353725+05:30
Gwalior,Madhya Pradesh,26.2183,78.1828,20.8,76,0.0,986.6,6.95,33.5,119,354.8,81.5,3,5,7,1,2026-03-19T05:03:37.353732+05:30
Indore,Madhya Pradesh,22.7196,75.8577,20.3,52,0.0,948.6,7.9,36.4,55,13.2,13.2,0,5,7,0,2026-03-19T05:03:37.353739+05:30
Bhopal,Madhya Pradesh,23.2599,77.4126,20.0,56,0.0,954.6,7.8,30.2,66,27.7,25.7,0,5,7,0,2026-03-19T05:03:37.353747+05:30
Jabalpur,Madhya Pradesh,23.1815,79.9864,22.8,60,0.0,963.0,7.9,28.8,69,34.3,29.2,0,5,7,0,2026-03-19T05:03:37.353754+05:30
Ujjain,Madhya Pradesh,23.1765,75.7885,20.1,62,0.0,954.5,7.8,29.2,55,13.1,13.0,3,5,7,0,2026-03-19T05:03:37.353762+05:30
Visakhapatnam,Andhra Pradesh,17.6868,83.2185,24.3,89,0.0,1006.8,8.45,33.1,55,29.9,26.5,3,5,4,1,2026-03-19T05:03:37.353769+05:30
Vijayawada,Andhra Pradesh,16.5062,80.648,24.0,93,0.0,1005.7,8.85,19.8,59,28.2,25.4,3,5,4,1,2026-03-19T05:03:37.353777+05:30
Guntur,Andhra Pradesh,16.3067,80.4365,24.2,94,0.0,1006.8,8.85,21.6,60,27.6,24.9,3,5,4,1,2026-03-19T05:03:37.353784+05:30
Nellore,Andhra Pradesh,14.4426,79.9865,24.4,89,0.0,1008.8,9.0,22.7,34,10.4,8.0,3,0,4,1,2026-03-19T05:03:37.353792+05:30
Kurnool,Andhra Pradesh,15.8281,78.0373,22.9,80,0.0,979.2,8.85,16.9,62,16.2,12.9,3,5,7,1,2026-03-19T05:03:37.353800+05:30
Kakinada,Andhra Pradesh,16.9891,82.2475,22.9,97,0.0,1010.6,8.7,24.1,40,15.3,12.0,3,0,4,1,2026-03-19T05:03:37.353807+05:30
Tirupati,Andhra Pradesh,13.6288,79.4192,22.0,89,0.0,994.5,9.1,28.1,62,22.2,20.3,3,5,7,1,2026-03-19T05:03:37.353814+05:30
Warangal,Telangana,17.9689,79.5941,22.7,87,0.0,981.4,8.5,22.0,124,82.4,72.9,3,5,7,1,2026-03-19T05:03:37.353822+05:30
Nizamabad,Telangana,18.6725,78.0941,21.4,80,0.0,967.2,8.5,34.2,120,56.5,48.4,3,5,7,1,2026-03-19T05:03:37.353828+05:30
Mysore,Karnataka,12.2958,76.6396,20.0,92,0.0,929.6,9.35,33.8,90,48.4,44.1,3,5,7,1,2026-03-19T05:03:37.353835+05:30
Mangalore,Karnataka,12.9141,74.856,26.8,83,0.0,1008.6,8.95,23.8,73,21.9,18.2,7,0,4,1,2026-03-19T05:03:37.353842+05:30
Hubli-Dharwad,Karnataka,15.3647,75.124,17.6,90,0.0,941.9,8.95,30.6,100,40.6,35.5,3,10,7,0,2026-03-19T05:03:37.353850+05:30
Belgaum,Karnataka,15.8497,74.4977,17.4,86,0.0,926.5,9.0,37.4,101,59.4,47.5,3,10,7,0,2026-03-19T05:03:40.700654+05:30
Coimbatore,Tamil Nadu,11.0168,76.9558,21.1,97,0.0,963.4,9.35,39.6,68,21.4,20.3,3,5,7,1,2026-03-19T05:03:40.700686+05:30
Madurai,Tamil Nadu,9.9252,78.1198,22.3,86,0.0,995.2,9.3,26.6,51,11.8,10.9,3,5,7,1,2026-03-19T05:03:40.700696+05:30
Trichy,Tamil Nadu,10.7905,78.7047,23.2,89,0.0,1002.7,9.2,25.6,52,13.9,13.2,3,5,4,1,2026-03-19T05:03:40.700705+05:30
Salem,Tamil Nadu,11.6643,78.146,22.1,87,0.0,980.0,9.25,20.2,75,25.1,23.2,3,5,7,1,2026-03-19T05:03:40.700715+05:30
Tirunelveli,Tamil Nadu,8.7139,77.7567,23.4,91,0.0,1005.2,9.0,21.6,66,20.0,19.5,3,5,4,1,2026-03-19T05:03:40.700724+05:30
Vellore,Tamil Nadu,12.9165,79.1325,21.7,94,0.0,987.4,9.15,25.2,57,21.2,19.2,3,5,7,1,2026-03-19T05:03:40.700732+05:30
Erode,Tamil Nadu,11.341,77.7172,22.5,84,0.0,991.8,9.25,28.8,54,16.2,15.0,3,5,7,1,2026-03-19T05:03:40.700740+05:30
Kochi,Kerala,9.9312,76.2673,26.4,85,0.0,1010.3,9.05,24.8,65,17.2,16.9,7,0,4,1,2026-03-19T05:03:40.700748+05:30
Thiruvananthapuram,Kerala,8.5241,76.9366,26.8,83,0.0,1009.2,8.7,24.1,48,9.2,7.3,7,0,4,1,2026-03-19T05:03:40.700756+05:30
Kozhikode,Kerala,11.2588,75.7804,26.1,84,0.0,1009.8,9.05,27.4,65,17.8,16.1,7,0,4,1,2026-03-19T05:03:40.700764+05:30
Thrissur,Kerala,10.5276,76.2144,24.3,94,0.0,1008.9,9.1,30.6,63,9.7,9.3,3,0,4,1,2026-03-19T05:03:40.700772+05:30
Kannur,Kerala,11.8745,75.3704,25.2,86,0.0,1009.1,9.0,31.3,68,21.3,19.5,7,0,4,1,2026-03-19T05:03:40.700780+05:30
Patna,Bihar,25.5941,85.1376,23.4,76,0.0,1002.9,7.65,27.7,154,128.5,103.8,3,5,4,1,2026-03-19T05:03:40.700787+05:30
Gaya,Bihar,24.7914,85.0002,22.1,81,0.0,996.1,6.5,34.6,108,51.6,43.0,3,5,7,1,2026-03-19T05:03:40.700795+05:30
Muzaffarpur,Bihar,26.1209,85.3647,19.7,89,0.0,1003.3,7.0,23.8,156,142.5,117.1,3,10,4,1,2026-03-19T05:03:40.700802+05:30
Bhagalpur,Bihar,25.2425,87.0117,22.4,89,0.0,1004.3,7.25,29.9,122,43.4,42.3,3,5,4,1,2026-03-19T05:03:40.700810+05:30
Ranchi,Jharkhand,23.3441,85.3096,20.7,68,0.0,939.8,5.5,40.7,95,44.4,36.4,3,5,3,0,2026-03-19T05:03:40.700818+05:30
Jamshedpur,Jharkhand,22.8046,86.2029,23.9,74,0.0,993.9,8.0,34.2,136,65.2,56.1,3,5,7,1,2026-03-19T05:03:40.700826+05:30
Dhanbad,Jharkhand,23.7957,86.4304,23.0,82,0.0,982.6,7.25,30.2,156,103.4,95.0,3,5,7,1,2026-03-19T05:03:40.700834+05:30
Bokaro,Jharkhand,23.6693,86.1511,22.0,64,0.0,986.8,6.85,27.7,147,74.3,67.1,3,5,7,0,2026-03-19T05:03:40.700842+05:30
Bhubaneswar,Odisha,20.2961,85.8245,24.0,95,0.0,1006.1,7.05,23.0,71,24.2,21.1,3,5,4,1,2026-03-19T05:03:40.700849+05:30
Cuttack,Odisha,20.4625,85.8828,23.7,94,0.0,1008.1,7.45,22.7,71,24.2,21.1,3,0,4,1,2026-03-19T05:03:40.700856+05:30
Rourkela,Odisha,22.2604,84.8536,23.3,80,0.0,988.4,6.8,27.0,126,54.1,46.0,3,5,7,1,2026-03-19T05:03:40.700863+05:30
Raipur,Chhattisgarh,21.2514,81.6296,22.7,67,0.0,977.3,7.35,29.9,112,62.2,56.3,3,5,7,1,2026-03-19T05:03:40.700870+05:30
Bhilai,Chhattisgarh,21.1938,81.3509,21.8,74,0.0,977.6,8.05,29.5,117,65.7,59.0,3,5,7,1,2026-03-19T05:03:40.700877+05:30
Guwahati,Assam,26.1158,91.7086,21.0,92,0.0,1007.3,7.55,27.0,124,39.9,34.0,3,5,4,1,2026-03-19T05:03:40.700883+05:30
Agartala,Tripura,23.8315,91.2868,21.7,96,0.0,1010.7,7.9,22.0,78,32.1,30.4,3,0,4,1,2026-03-19T05:03:40.700891+05:30
Shillong,Meghalaya,25.5788,91.8933,12.6,88,0.0,858.0,7.1,44.3,81,39.1,29.9,3,10,7,0,2026-03-19T05:03:40.700898+05:30
Imphal,Manipur,24.817,93.9368,14.8,80,0.0,926.0,8.25,48.2,88,50.5,42.5,3,5,7,0,2026-03-19T05:03:40.700905+05:30
Aizawl,Mizoram,23.7271,92.7176,15.7,90,0.0,894.8,8.05,34.2,72,28.8,26.0,3,10,7,0,2026-03-19T05:03:40.700912+05:30
Kohima,Nagaland,25.6701,94.1077,13.1,73,0.0,856.4,7.95,74.2,78,45.6,33.1,3,5,7,0,2026-03-19T05:03:40.700919+05:30
Gangtok,Sikkim,27.3314,88.6138,11.1,72,0.0,837.5,7.5,22.0,95,58.0,32.2,3,5,7,0,2026-03-19T05:03:40.700926+05:30
Siliguri,West Bengal,26.7271,88.3953,18.3,83,0.0,998.6,7.35,24.8,120,91.0,66.8,3,10,7,0,2026-03-19T05:03:44.053784+05:30
Durgapur,West Bengal,23.5204,87.3119,22.7,92,0.0,998.3,7.9,37.1,142,64.3,59.6,3,5,7,1,2026-03-19T05:03:44.053819+05:30
Asansol,West Bengal,23.6739,86.9524,23.3,90,0.0,996.7,7.6,31.7,151,82.9,75.4,3,5,7,1,2026-03-19T05:03:44.053831+05:30
Pondicherry,Puducherry,11.9139,79.8145,23.8,95,0.0,1011.4,9.1,29.5,37,12.7,9.7,3,0,4,1,2026-03-19T05:03:44.053841+05:30
Port Blair,Andaman and Nicobar Islands,11.6234,92.7265,27.4,82,0.0,1008.2,9.05,18.4,47,17.1,13.2,7,0,4,1,2026-03-19T05:03:44.053851+05:30
Haridwar,Uttarakhand,29.9457,78.1642,18.1,69,0.0,979.0,2.7,24.8,68,44.9,22.8,3,5,3,0,2026-03-19T05:03:44.053861+05:30
Rishikesh,Uttarakhand,30.0869,78.2676,17.0,73,0.1,971.6,2.25,28.8,62,60.8,23.0,6,5,3,0,2026-03-19T05:03:44.053870+05:30
Nainital,Uttarakhand,29.3919,79.4542,14.7,57,0.0,807.7,4.85,68.0,70,56.6,32.2,0,5,3,0,2026-03-19T05:03:44.053878+05:30
Mussoorie,Uttarakhand,30.4599,78.0664,11.4,59,0.0,802.8,2.55,36.4,61,47.4,17.0,0,5,3,0,2026-03-19T05:03:44.053885+05:30
Dharamshala,Himachal Pradesh,32.219,76.3234,14.9,53,0.2,870.7,4.4,29.9,41,6.5,3.5,3,5,3,0,2026-03-19T05:03:44.053893+05:30
Dalhousie,Himachal Pradesh,32.5387,75.971,10.2,67,0.0,803.6,4.55,29.5,59,22.4,11.7,3,5,3,0,2026-03-19T05:03:44.053902+05:30
Patiala,Punjab,30.3398,76.3869,16.3,82,0.0,982.6,2.6,17.3,118,49.0,20.5,3,10,3,0,2026-03-19T05:03:44.053909+05:30
Bhatinda,Punjab,30.211,74.9455,15.6,86,0.0,988.0,1.7,22.0,90,65.0,27.2,3,10,3,0,2026-03-19T05:03:44.053917+05:30
Rohtak,Haryana,28.8955,76.6066,16.9,87,0.0,985.5,4.55,24.8,153,73.3,39.9,3,10,3,0,2026-03-19T05:03:44.053925+05:30
Panipat,Haryana,29.3909,76.9635,16.5,87,0.0,984.5,4.3,23.4,156,48.9,26.3,3,10,3,0,2026-03-19T05:03:44.053932+05:30
Mathura,Uttar Pradesh,27.4924,77.6737,19.4,72,0.0,990.5,6.6,27.4,150,77.3,39.5,3,5,7,0,2026-03-19T05:03:44.053939+05:30
Vrindavan,Uttar Pradesh,27.5823,77.7027,19.3,70,0.0,991.1,6.55,29.5,150,77.3,39.5,3,5,7,0,2026-03-19T05:03:44.053946+05:30
Ayodhya,Uttar Pradesh,26.7922,82.1998,19.0,66,0.0,998.3,7.0,27.7,110,94.5,58.4,3,5,7,0,2026-03-19T05:03:44.053953+05:30
Ratlam,Madhya Pradesh,23.3315,75.0367,22.4,55,0.0,955.5,7.75,50.0,49,13.5,13.4,0,5,7,0,2026-03-19T05:03:44.053960+05:30
Sagar,Madhya Pradesh,23.8388,78.7378,23.4,44,0.0,951.1,7.75,36.4,44,17.5,15.4,0,5,7,0,2026-03-19T05:03:44.053968+05:30
Satna,Madhya Pradesh,24.6005,80.8322,22.1,57,0.0,972.9,7.7,29.9,57,56.3,33.2,0,5,7,0,2026-03-19T05:03:44.053975+05:30
Akola,Maharashtra,20.7002,77.0082,22.5,65,0.0,977.2,8.2,26.3,97,41.7,36.8,3,5,7,0,2026-03-19T05:03:44.053982+05:30
Amravati,Maharashtra,20.9374,77.7796,22.5,75,0.0,969.5,8.15,21.6,99,45.5,39.5,3,5,7,1,2026-03-19T05:03:44.053990+05:30
Latur,Maharashtra,18.4088,76.5604,19.8,81,0.0,941.9,8.55,29.9,98,30.7,28.6,3,10,7,1,2026-03-19T05:03:44.053998+05:30
Nanded,Maharashtra,19.1383,77.3091,21.9,75,0.0,971.4,8.4,39.2,102,44.2,39.5,3,5,7,1,2026-03-19T05:03:44.054006+05:30
Gulbarga,Karnataka,17.3297,76.8343,21.8,80,0.0,961.0,8.65,52.6,96,38.9,34.2,3,5,7,1,2026-03-19T05:03:44.054013+05:30
Bidar,Karnataka,17.9104,77.5199,20.4,79,0.0,937.6,8.6,28.1,100,40.0,35.3,3,5,7,1,2026-03-19T05:03:44.054019+05:30
Hospet,Karnataka,15.2689,76.3909,21.5,85,0.0,957.7,8.9,16.6,87,48.8,42.7,3,5,7,1,2026-03-19T05:03:44.054026+05:30
Tirupur,Tamil Nadu,11.1085,77.3411,22.4,84,0.0,977.5,9.35,27.4,61,17.8,16.6,3,5,7,1,2026-03-19T05:03:44.054034+05:30
Alappuzha,Kerala,9.4981,76.3388,26.2,85,0.0,1010.4,9.1,25.2,59,16.3,15.1,7,0,4,1,2026-03-19T05:03:44.054041+05:30
Munnar,Kerala,10.0889,77.0595,18.0,96,0.0,856.4,9.6,40.0,67,18.7,18.1,3,10,7,1,2026-03-19T05:03:44.054048+05:30
Silchar,Assam,24.8333,92.7789,20.5,93,0.0,1010.4,7.9,21.6,90,54.9,45.4,3,0,4,1,2026-03-19T05:03:44.054055+05:30
Dibrugarh,Assam,27.4728,94.912,19.0,89,0.0,1001.7,6.5,22.7,84,47.7,34.9,3,10,4,1,2026-03-19T05:03:44.054062+05:30
