city,state,latitude,longitude,temp,humidity,rain,pressure,uv_index,wind_gusts,aqi,pm10,pm2_5,no2,co,o3,so2,mosquito_risk,arthritis_risk,migraine_risk,frizz_risk,updated_at
Delhi,Delhi,28.6139,77.209,32.2,61,0.0,977.0,7.7,35.3,668,780.4,194.6,56.2,854.0,31.0,20.5,3,5,7,1,2026-07-18T21:30:09.956635+05:30
Mumbai,Maharashtra,19.076,72.8777,25.6,95,0.1,1007.5,6.3,51.8,63,25.2,14.3,14.7,415.0,36.0,9.5,10,5,4,1,2026-07-18T21:30:09.956682+05:30
Bangalore,Karnataka,12.9716,77.5946,21.7,87,0.1,912.5,3.35,45.0,49,13.3,10.2,22.2,428.0,38.0,5.5,6,5,3,1,2026-07-18T21:30:09.956698+05:30
Hyderabad,Telangana,17.385,78.4867,25.2,86,0.0,952.4,3.55,42.5,52,15.2,11.1,13.0,388.0,41.0,6.0,7,5,3,1,2026-07-18T21:30:09.956707+05:30
Chennai,Tamil Nadu,13.0827,80.2707,26.7,85,0.0,1006.9,5.3,35.6,67,41.7,28.4,19.8,390.0,84.0,11.7,7,5,0,1,2026-07-18T21:30:09.956716+05:30
Kolkata,West Bengal,22.5726,88.3639,27.8,86,0.0,1002.9,7.65,38.9,61,19.3,16.1,7.4,309.0,98.0,6.4,7,5,4,1,2026-07-18T21:30:09.956724+05:30
Pune,Maharashtra,18.5204,73.8567,23.0,94,0.1,946.9,8.05,49.0,35,6.5,5.3,15.4,206.0,25.0,7.5,6,5,7,1,2026-07-18T21:30:09.956736+05:30
Ahmedabad,Gujarat,23.0225,72.5714,29.6,76,0.0,998.0,6.6,33.8,66,30.7,18.2,15.1,221.0,48.0,5.3,7,5,7,1,2026-07-18T21:30:09.956742+05:30
Jaipur,Rajasthan,26.9124,75.7873,32.8,53,0.0,955.4,7.45,37.8,200,128.5,45.4,27.1,242.0,36.0,7.4,0,5,7,1,2026-07-18T21:30:09.956748+05:30
Lucknow,Uttar Pradesh,26.8467,80.9462,29.8,85,0.0,988.8,7.05,19.1,168,129.5,75.0,27.4,830.0,66.0,12.4,7,5,7,1,2026-07-18T21:30:09.956758+05:30
Kanpur,Uttar Pradesh,26.4499,80.3319,30.3,84,0.0,987.0,7.95,26.3,163,109.0,63.6,19.5,498.0,79.0,7.9,3,5,7,1,2026-07-18T21:30:09.956765+05:30
Chandigarh,Chandigarh,30.7333,76.7794,30.0,76,0.0,962.4,7.55,30.2,153,127.1,79.9,45.2,1619.0,76.0,17.2,7,5,7,1,2026-07-18T21:30:09.956772+05:30
Srinagar,Jammu and Kashmir,34.0837,74.7973,29.3,58,0.0,838.6,9.05,20.2,96,35.3,30.3,34.4,657.0,53.0,4.5,4,5,7,1,2026-07-18T21:30:09.956778+05:30
Jammu,Jammu and Kashmir,32.7266,74.857,30.0,79,0.0,965.6,8.15,23.0,143,70.5,54.1,37.8,507.0,48.0,6.1,7,5,7,1,2026-07-18T21:30:09.956785+05:30
Amritsar,Punjab,31.634,74.8723,32.6,69,0.0,973.2,6.45,18.4,170,124.8,79.6,42.2,464.0,46.0,8.6,3,5,7,1,2026-07-18T21:30:09.956790+05:30
Ludhiana,Punjab,30.901,75.8573,32.5,73,0.0,971.6,7.85,22.3,177,210.5,107.1,54.1,1216.0,37.0,9.4,3,5,7,1,2026-07-18T21:30:09.956797+05:30
Jalandhar,Punjab,31.326,75.5762,32.4,75,0.0,972.5,8.2,16.9,175,138.3,84.8,39.6,1509.0,50.0,6.4,3,5,7,1,2026-07-18T21:30:09.956802+05:30
Dehradun,Uttarakhand,30.6284,78.0322,20.3,99,0.0,828.5,7.1,25.2,87,48.1,26.5,10.9,237.0,111.0,5.8,3,5,7,1,2026-07-18T21:30:09.956817+05:30
Shimla,Himachal Pradesh,31.1048,77.1734,17.1,98,0.0,782.5,6.2,42.8,83,61.7,29.7,16.7,317.0,90.0,7.2,3,10,7,1,2026-07-18T21:30:09.956830+05:30
Manali,Himachal Pradesh,32.2396,77.1887,20.8,97,0.0,817.6,7.05,33.1,55,16.6,14.0,34.6,288.0,46.0,0.5,3,5,7,1,2026-07-18T21:30:09.956853+05:30
Gurgaon,Haryana,28.4595,77.0266,32.2,59,0.0,975.5,7.75,38.5,561,558.8,126.7,37.8,730.0,43.0,10.9,0,5,7,1,2026-07-18T21:30:09.956864+05:30
Noida,Uttar Pradesh,28.5355,77.391,31.9,61,0.0,978.4,7.65,30.6,561,558.8,126.7,37.8,647.0,43.0,10.9,3,5,7,1,2026-07-18T21:30:09.956874+05:30
Ghaziabad,Uttar Pradesh,28.6692,77.4538,31.7,60,0.0,976.6,7.7,30.6,619,923.9,236.1,65.3,931.0,28.0,21.6,0,5,7,1,2026-07-18T21:30:09.956884+05:30
Faridabad,Haryana,28.4089,77.3178,32.9,59,0.0,977.8,7.6,38.9,561,558.8,126.7,37.8,541.0,43.0,10.9,0,5,7,1,2026-07-18T21:30:09.956893+05:30
Meerut,Uttar Pradesh,28.9845,77.7064,29.9,85,0.0,975.7,7.65,32.0,619,923.9,236.1,65.3,546.0,28.0,21.6,7,5,7,1,2026-07-18T21:30:09.956903+05:30
Agra,Uttar Pradesh,27.1767,78.0081,33.2,62,0.0,982.4,7.05,40.0,153,126.7,59.6,46.8,407.0,29.0,11.2,3,5,7,1,2026-07-18T21:30:09.956915+05:30
Varanasi,Uttar Pradesh,25.3176,82.9739,28.2,94,0.0,993.3,7.15,18.7,140,95.0,62.6,18.8,555.0,85.0,10.6,7,5,7,1,2026-07-18T21:30:09.956925+05:30
Prayagraj,Uttar Pradesh,25.4358,81.8463,29.0,91,0.0,991.6,6.45,26.6,152,104.5,59.3,15.5,341.0,95.0,8.5,7,5,7,1,2026-07-18T21:30:09.956935+05:30
Gorakhpur,Uttar Pradesh,26.7606,83.3732,28.5,92,0.0,993.5,6.8,26.3,88,22.0,21.9,16.0,464.0,74.0,5.5,7,5,7,1,2026-07-18T21:30:09.956944+05:30
Bareilly,Uttar Pradesh,28.367,79.4304,28.4,94,0.0,981.8,7.7,30.6,157,76.6,49.7,14.8,413.0,90.0,11.9,7,5,7,1,2026-07-18T21:30:09.956957+05:30
Aligarh,Uttar Pradesh,27.8974,78.088,30.6,76,0.0,980.1,7.4,27.4,310,329.7,96.6,25.8,394.0,51.0,6.7,3,5,7,1,2026-07-18T21:30:09.956968+05:30
Moradabad,Uttar Pradesh,28.8386,78.7733,27.6,96,0.0,978.6,7.45,35.3,173,63.3,52.3,16.7,574.0,91.0,14.0,7,5,7,1,2026-07-18T21:30:09.956976+05:30
Saharanpur,Uttar Pradesh,29.9637,77.546,29.0,93,0.0,969.7,7.3,32.0,192,488.0,159.3,48.2,615.0,57.0,19.4,7,5,7,1,2026-07-18T21:30:09.956982+05:30
Jhansi,Uttar Pradesh,25.4484,78.5685,28.0,88,0.0,974.4,7.05,43.6,88,47.0,29.5,21.7,182.0,42.0,4.7,7,5,7,1,2026-07-18T21:30:13.309340+05:30
Surat,Gujarat,21.1702,72.8311,28.6,82,0.0,1003.7,7.15,43.2,70,23.1,17.1,20.1,274.0,30.0,30.3,7,5,4,1,2026-07-18T21:30:13.309375+05:30
Vadodara,Gujarat,22.3072,73.1812,29.0,80,0.0,1000.7,5.75,39.2,66,20.1,15.6,20.6,204.0,42.0,20.7,7,5,0,1,2026-07-18T21:30:13.309386+05:30
Rajkot,Gujarat,22.3039,70.8022,28.6,71,0.0,990.5,5.25,46.1,60,32.1,15.8,5.3,120.0,45.0,4.7,7,5,3,1,2026-07-18T21:30:13.309394+05:30
Thane,Maharashtra,19.2183,72.9781,25.2,97,0.2,1006.8,6.4,43.9,63,25.2,14.3,14.7,367.0,36.0,9.5,10,5,4,1,2026-07-18T21:30:13.309402+05:30
Nagpur,Maharashtra,21.1458,79.0882,26.3,90,0.0,970.9,1.0,27.0,67,20.7,16.3,16.5,247.0,43.0,10.3,7,5,3,1,2026-07-18T21:30:13.309412+05:30
Nashik,Maharashtra,19.9975,73.7898,23.0,92,0.0,943.8,6.9,45.0,32,4.6,3.5,11.8,169.0,37.0,7.6,3,5,7,1,2026-07-18T21:30:13.309421+05:30
Aurangabad,Maharashtra,19.8762,75.3433,23.0,96,0.1,942.7,6.7,38.5,40,12.0,9.2,11.1,175.0,45.0,6.4,6,5,7,1,2026-07-18T21:30:13.309428+05:30
Solapur,Maharashtra,17.6599,75.9064,24.2,95,0.1,957.1,3.15,34.9,41,12.4,7.9,5.9,201.0,44.0,2.6,6,5,3,1,2026-07-18T21:30:13.309435+05:30
Kolhapur,Maharashtra,16.705,74.2433,22.1,95,0.1,948.1,5.3,46.1,33,6.4,5.3,7.9,174.0,34.0,2.6,6,5,3,1,2026-07-18T21:30:13.309442+05:30
Goa,Goa,15.2993,74.124,24.8,99,0.3,999.7,6.25,35.6,64,26.6,15.4,6.1,439.0,38.0,1.7,6,5,7,1,2026-07-18T21:30:13.309449+05:30
Jodhpur,Rajasthan,26.2389,73.0243,32.5,50,0.0,977.5,8.4,42.8,129,194.2,43.9,8.0,165.0,53.0,2.2,0,5,7,1,2026-07-18T21:30:13.309456+05:30
Udaipur,Rajasthan,24.5854,73.7125,27.7,69,0.0,942.6,8.25,33.8,74,22.0,13.3,5.8,147.0,73.0,4.6,7,5,7,1,2026-07-18T21:30:13.309463+05:30
Kota,Rajasthan,25.2138,75.8648,33.4,49,0.0,974.5,8.25,32.4,84,32.6,22.5,11.9,203.0,64.0,6.0,0,5,7,1,2026-07-18T21:30:13.309470+05:30
Bikaner,Rajasthan,28.0229,73.3119,34.9,42,0.0,975.2,8.25,38.5,122,159.7,49.5,2.1,129.0,73.0,2.6,0,5,7,1,2026-07-18T21:30:13.309476+05:30
Ajmer,Rajasthan,26.4499,74.6399,30.7,54,0.0,950.3,8.0,43.2,76,35.4,21.2,11.6,155.0,51.0,3.6,0,5,7,1,2026-07-18T21:30:13.309483+05:30
Gwalior,Madhya Pradesh,26.2183,78.1828,32.2,62,0.0,978.6,3.4,37.1,97,47.4,27.2,19.9,219.0,42.0,4.5,3,5,3,1,2026-07-18T21:30:13.309490+05:30
Indore,Madhya Pradesh,22.7196,75.8577,26.5,77,0.0,945.7,6.0,38.5,71,34.3,25.0,15.8,284.0,57.0,7.5,7,5,3,1,2026-07-18T21:30:13.309496+05:30
Bhopal,Madhya Pradesh,23.2599,77.4126,27.7,77,0.0,950.8,6.3,36.7,80,26.3,18.4,8.1,391.0,64.0,3.9,7,5,7,1,2026-07-18T21:30:13.309503+05:30
Jabalpur,Madhya Pradesh,23.1815,79.9864,26.2,95,0.0,958.2,8.2,34.9,85,40.3,27.7,9.0,351.0,73.0,5.0,7,5,7,1,2026-07-18T21:30:13.309509+05:30
Ujjain,Madhya Pradesh,23.1765,75.7885,27.1,73,0.0,951.0,6.65,36.4,74,29.9,21.5,8.1,279.0,71.0,5.3,7,5,7,1,2026-07-18T21:30:13.309516+05:30
Visakhapatnam,Andhra Pradesh,17.6868,83.2185,27.7,88,0.0,1000.1,6.55,39.6,79,27.5,23.2,25.4,317.0,55.0,36.8,7,5,4,1,2026-07-18T21:30:13.309523+05:30
Vijayawada,Andhra Pradesh,16.5062,80.648,27.7,89,0.1,1001.2,5.25,38.9,65,23.7,16.7,9.8,283.0,53.0,5.1,10,5,0,1,2026-07-18T21:30:13.309529+05:30
Guntur,Andhra Pradesh,16.3067,80.4365,29.9,66,0.0,1002.5,3.95,43.6,63,20.3,13.9,9.4,181.0,49.0,4.6,7,5,0,1,2026-07-18T21:30:13.309536+05:30
Nellore,Andhra Pradesh,14.4426,79.9865,28.2,81,0.0,1005.1,2.55,42.8,54,18.6,11.9,9.0,198.0,48.0,3.7,7,5,0,1,2026-07-18T21:30:13.309543+05:30
Kurnool,Andhra Pradesh,15.8281,78.0373,26.0,80,0.0,977.1,4.85,42.8,52,23.3,14.0,13.2,201.0,49.0,11.4,7,5,3,1,2026-07-18T21:30:13.309551+05:30
Kakinada,Andhra Pradesh,16.9891,82.2475,27.3,89,0.0,1004.8,7.2,47.2,68,24.3,18.4,8.1,231.0,85.0,5.6,7,5,4,1,2026-07-18T21:30:13.309557+05:30
Tirupati,Andhra Pradesh,13.6288,79.4192,27.3,79,0.0,991.0,3.3,38.9,56,23.6,17.2,27.7,282.0,21.0,3.5,7,5,3,1,2026-07-18T21:30:13.309563+05:30
Warangal,Telangana,17.9689,79.5941,25.5,92,0.0,977.3,6.05,38.2,62,23.7,18.9,11.8,204.0,48.0,4.6,7,5,7,1,2026-07-18T21:30:13.309569+05:30
Nizamabad,Telangana,18.6725,78.0941,24.0,97,0.1,963.9,1.1,42.1,62,26.7,16.1,7.2,241.0,67.0,9.4,6,5,3,1,2026-07-18T21:30:13.309575+05:30
Mysore,Karnataka,12.2958,76.6396,22.2,87,0.0,929.8,3.75,49.3,35,8.1,5.8,10.1,156.0,43.0,2.5,3,5,3,1,2026-07-18T21:30:13.309581+05:30
Mangalore,Karnataka,12.9141,74.856,23.9,99,0.0,1009.0,4.25,35.3,58,22.4,13.9,13.9,282.0,26.0,3.2,3,0,0,1,2026-07-18T21:30:13.309587+05:30
Hubli-Dharwad,Karnataka,15.3647,75.124,22.2,95,0.0,941.4,7.7,49.3,25,5.1,3.9,7.5,135.0,35.0,1.6,3,5,7,1,2026-07-18T21:30:13.309594+05:30
Belgaum,Karnataka,15.8497,74.4977,21.4,96,0.0,926.0,6.85,50.4,22,4.1,3.3,5.9,118.0,38.0,1.6,3,5,7,1,2026-07-18T21:30:16.656593+05:30
Coimbatore,Tamil Nadu,11.0168,76.9558,23.5,89,0.0,962.8,7.1,44.6,44,10.8,8.4,10.6,203.0,35.0,3.6,3,5,7,1,2026-07-18T21:30:16.656628+05:30
Madurai,Tamil Nadu,9.9252,78.1198,29.4,64,0.0,993.5,8.0,26.3,64,33.8,17.4,12.6,270.0,63.0,4.5,7,5,7,1,2026-07-18T21:30:16.656640+05:30
Trichy,Tamil Nadu,10.7905,78.7047,29.2,74,0.0,1000.3,6.95,47.9,53,22.5,16.9,16.0,221.0,47.0,4.7,7,5,4,1,2026-07-18T21:30:16.656649+05:30
Salem,Tamil Nadu,11.6643,78.146,27.6,77,0.0,978.1,7.05,37.1,66,37.3,23.3,25.9,616.0,37.0,8.2,7,5,7,1,2026-07-18T21:30:16.656657+05:30
Tirunelveli,Tamil Nadu,8.7139,77.7567,29.7,57,0.0,1004.4,8.65,54.4,51,7.9,6.0,5.5,137.0,43.0,1.8,4,5,4,1,2026-07-18T21:30:16.656665+05:30
Vellore,Tamil Nadu,12.9165,79.1325,27.2,85,0.1,984.4,6.3,43.2,58,43.4,25.8,22.6,232.0,35.0,4.8,10,5,7,1,2026-07-18T21:30:16.656673+05:30
Erode,Tamil Nadu,11.341,77.7172,27.9,67,0.0,990.0,6.7,39.2,56,20.7,12.6,13.5,188.0,41.0,3.7,7,5,7,1,2026-07-18T21:30:16.656680+05:30
Kochi,Kerala,9.9312,76.2673,26.0,91,0.0,1011.3,7.75,36.7,56,21.8,17.5,19.5,170.0,21.0,4.6,7,0,4,1,2026-07-18T21:30:16.656687+05:30
Thiruvananthapuram,Kerala,8.5241,76.9366,26.2,85,0.0,1010.6,8.45,49.3,59,15.3,9.3,5.3,152.0,44.0,1.6,7,0,4,1,2026-07-18T21:30:16.656694+05:30
Kozhikode,Kerala,11.2588,75.7804,24.6,96,0.0,1010.5,7.8,34.2,53,15.5,8.0,1.8,176.0,51.0,1.2,3,0,4,1,2026-07-18T21:30:16.656700+05:30
Thrissur,Kerala,10.5276,76.2144,25.3,92,0.0,1009.6,7.55,37.8,57,15.2,12.1,11.4,186.0,30.0,3.4,7,0,4,1,2026-07-18T21:30:16.656707+05:30
Kannur,Kerala,11.8745,75.3704,24.2,97,0.1,1010.0,7.75,33.8,53,20.0,13.9,16.5,240.0,23.0,2.9,6,0,4,1,2026-07-18T21:30:16.656714+05:30
Patna,Bihar,25.5941,85.1376,27.4,96,0.3,996.5,6.7,26.3,81,28.7,28.6,16.0,420.0,87.0,12.6,10,5,7,1,2026-07-18T21:30:16.656721+05:30
Gaya,Bihar,24.7914,85.0002,26.8,98,0.1,989.7,6.65,25.9,113,35.0,34.7,13.4,473.0,82.0,8.0,10,5,7,1,2026-07-18T21:30:16.656727+05:30
Muzaffarpur,Bihar,26.1209,85.3647,26.9,96,0.3,996.5,7.25,29.2,76,27.2,27.1,15.4,445.0,87.0,10.2,10,5,7,1,2026-07-18T21:30:16.656733+05:30
Bhagalpur,Bihar,25.2425,87.0117,27.0,95,0.3,997.9,7.85,29.9,77,24.7,24.3,14.0,312.0,92.0,10.2,10,5,7,1,2026-07-18T21:30:16.656739+05:30
Ranchi,Jharkhand,23.3441,85.3096,24.2,96,0.1,933.7,9.2,26.6,70,24.3,24.1,12.8,394.0,71.0,5.1,6,5,7,1,2026-07-18T21:30:16.656746+05:30
Jamshedpur,Jharkhand,22.8046,86.2029,25.9,97,0.0,986.7,8.75,32.0,88,32.1,31.2,18.9,344.0,70.0,19.6,7,5,7,1,2026-07-18T21:30:16.656753+05:30
Dhanbad,Jharkhand,23.7957,86.4304,25.7,97,0.0,975.8,7.6,25.9,151,61.0,60.3,55.4,362.0,47.0,119.4,7,5,7,1,2026-07-18T21:30:16.656759+05:30
Bokaro,Jharkhand,23.6693,86.1511,26.2,97,0.0,979.8,7.7,19.1,128,57.7,57.2,48.9,1401.0,59.0,115.6,7,5,7,1,2026-07-18T21:30:16.656766+05:30
Bhubaneswar,Odisha,20.2961,85.8245,26.3,97,0.1,999.3,8.55,34.9,65,30.2,25.7,11.7,415.0,93.0,6.4,10,5,7,1,2026-07-18T21:30:16.656772+05:30
Cuttack,Odisha,20.4625,85.8828,26.3,98,0.1,1001.0,8.6,32.8,65,30.2,25.7,11.7,462.0,93.0,6.4,10,5,4,1,2026-07-18T21:30:16.656779+05:30
Rourkela,Odisha,22.2604,84.8536,26.1,97,0.0,981.4,7.55,42.8,81,26.0,24.6,11.3,377.0,89.0,7.6,7,5,7,1,2026-07-18T21:30:16.656786+05:30
Raipur,Chhattisgarh,21.2514,81.6296,25.0,97,0.4,971.7,7.05,42.8,88,36.3,26.7,26.0,591.0,59.0,29.2,10,5,7,1,2026-07-18T21:30:16.656792+05:30
Bhilai,Chhattisgarh,21.1938,81.3509,25.0,96,0.4,972.2,6.2,36.4,83,33.8,25.1,22.9,580.0,55.0,25.9,10,5,7,1,2026-07-18T21:30:16.656799+05:30
Guwahati,Assam,26.1158,91.7086,26.2,99,0.0,999.7,7.15,22.7,52,21.8,20.8,15.5,319.0,30.0,3.2,7,5,7,1,2026-07-18T21:30:16.656805+05:30
Agartala,Tripura,23.8315,91.2868,27.5,82,0.0,1005.1,7.4,42.1,55,23.1,17.6,8.3,154.0,48.0,2.0,7,5,4,1,2026-07-18T21:30:16.656812+05:30
Shillong,Meghalaya,25.5788,91.8933,21.0,91,0.0,857.1,2.9,41.4,35,3.0,2.8,7.0,175.0,58.0,2.0,3,5,3,1,2026-07-18T21:30:16.656818+05:30
Imphal,Manipur,24.817,93.9368,23.9,90,0.0,922.4,4.05,31.0,58,21.8,19.7,20.0,521.0,22.0,3.4,3,5,3,1,2026-07-18T21:30:16.656824+05:30
Aizawl,Mizoram,23.7271,92.7176,20.3,89,0.0,892.4,6.7,39.2,52,6.8,5.2,3.3,129.0,46.0,0.6,3,5,7,1,2026-07-18T21:30:16.656831+05:30
Kohima,Nagaland,25.6701,94.1077,20.5,96,0.0,855.3,2.55,24.8,36,13.1,10.9,12.6,295.0,34.0,1.8,3,5,3,1,2026-07-18T21:30:16.656837+05:30
Gangtok,Sikkim,27.3314,88.6138,19.1,100,0.2,837.7,4.15,25.6,36,3.8,3.7,6.3,258.0,85.0,1.5,6,10,3,1,2026-07-18T21:30:16.656844+05:30
Siliguri,West Bengal,26.7271,88.3953,25.9,92,0.0,991.0,6.35,31.0,59,17.6,16.9,11.4,426.0,82.0,3.6,7,5,7,1,2026-07-18T21:30:20.013901+05:30
Durgapur,West Bengal,23.5204,87.3119,26.9,93,0.0,991.3,8.55,30.2,101,39.1,38.2,25.3,373.0,71.0,29.5,7,5,7,1,2026-07-18T21:30:20.013937+05:30
Asansol,West Bengal,23.6739,86.9524,26.8,97,0.0,989.7,8.3,31.0,110,32.1,31.2,28.0,599.0,65.0,31.0,7,5,7,1,2026-07-18T21:30:20.013949+05:30
Pondicherry,Puducherry,11.9139,79.8145,26.9,84,0.1,1008.9,5.9,33.5,71,38.1,24.9,17.5,269.0,71.0,6.5,10,0,0,1,2026-07-18T21:30:20.013958+05:30
Port Blair,Andaman and Nicobar Islands,11.6234,92.7265,27.0,84,0.0,1009.1,8.6,35.6,50,23.0,10.9,0.3,98.0,49.0,0.5,7,0,4,1,2026-07-18T21:30:20.013967+05:30
Haridwar,Uttarakhand,29.9457,78.1642,28.2,96,0.2,968.8,7.5,28.1,170,104.1,70.3,20.4,424.0,68.0,11.1,10,5,7,1,2026-07-18T21:30:20.013974+05:30
Rishikesh,Uttarakhand,30.0869,78.2676,27.7,93,0.0,961.4,7.0,28.8,157,99.4,53.8,8.6,410.0,101.0,8.5,7,5,7,1,2026-07-18T21:30:20.013981+05:30
Nainital,Uttarakhand,29.3919,79.4542,18.1,100,0.0,803.9,7.0,25.6,101,51.3,25.4,8.3,305.0,114.0,6.5,3,10,7,1,2026-07-18T21:30:20.013989+05:30
Mussoorie,Uttarakhand,30.4599,78.0664,19.0,100,0.0,801.7,6.7,33.5,150,77.1,47.6,16.9,325.0,96.0,9.7,3,10,7,1,2026-07-18T21:30:20.013996+05:30
Dharamshala,Himachal Pradesh,32.219,76.3234,23.1,98,0.0,865.8,8.05,27.0,51,13.0,9.3,11.8,436.0,70.0,1.1,3,5,7,1,2026-07-18T21:30:20.014003+05:30
Dalhousie,Himachal Pradesh,32.5387,75.971,19.9,99,0.0,802.9,8.1,22.3,92,49.8,31.9,23.9,757.0,81.0,3.2,3,10,7,1,2026-07-18T21:30:20.014010+05:30
Patiala,Punjab,30.3398,76.3869,32.2,71,0.0,971.4,7.0,22.7,222,646.3,179.7,62.9,842.0,38.0,12.0,3,5,7,1,2026-07-18T21:30:20.014018+05:30
Bhatinda,Punjab,30.211,74.9455,35.6,47,0.0,976.2,8.05,32.4,176,228.6,122.9,64.3,335.0,22.0,9.5,0,5,10,1,2026-07-18T21:30:20.014024+05:30
Rohtak,Haryana,28.8955,76.6066,32.2,60,0.0,975.4,7.65,34.2,842,685.5,157.9,43.6,456.0,36.0,7.1,0,5,7,1,2026-07-18T21:30:20.014031+05:30
Panipat,Haryana,29.3909,76.9635,31.0,74,0.0,973.9,7.55,28.4,1192,1359.7,296.2,50.7,512.0,33.0,11.6,3,5,7,1,2026-07-18T21:30:20.014038+05:30
Mathura,Uttar Pradesh,27.4924,77.6737,31.4,72,0.0,981.1,7.85,31.0,432,236.1,66.8,51.9,564.0,24.0,6.7,3,5,7,1,2026-07-18T21:30:20.014045+05:30
Vrindavan,Uttar Pradesh,27.5823,77.7027,31.3,73,0.0,981.6,7.55,30.6,432,236.1,66.8,51.9,579.0,24.0,6.7,3,5,7,1,2026-07-18T21:30:20.014052+05:30
Ayodhya,Uttar Pradesh,26.7922,82.1998,28.9,87,0.0,990.9,6.85,20.9,94,34.1,33.8,22.9,616.0,58.0,6.6,7,5,7,1,2026-07-18T21:30:20.014058+05:30
Ratlam,Madhya Pradesh,23.3315,75.0367,26.5,84,0.0,951.7,7.4,37.8,71,21.5,15.6,5.8,168.0,81.0,5.7,7,5,7,1,2026-07-18T21:30:20.014065+05:30
Sagar,Madhya Pradesh,23.8388,78.7378,25.3,99,0.3,947.4,7.25,37.8,87,55.6,33.8,9.0,237.0,67.0,4.2,10,5,7,1,2026-07-18T21:30:20.014072+05:30
Satna,Madhya Pradesh,24.6005,80.8322,26.2,95,0.1,967.3,8.1,34.9,105,50.9,30.9,12.7,252.0,58.0,2.8,10,5,7,1,2026-07-18T21:30:20.014078+05:30
Akola,Maharashtra,20.7002,77.0082,26.2,90,0.2,973.5,5.35,32.8,56,13.6,9.8,9.2,193.0,53.0,9.1,10,5,3,1,2026-07-18T21:30:20.014086+05:30
Amravati,Maharashtra,20.9374,77.7796,25.1,94,0.1,965.3,2.85,39.6,58,18.4,12.4,10.3,190.0,54.0,11.0,10,5,3,1,2026-07-18T21:30:20.014093+05:30
Latur,Maharashtra,18.4088,76.5604,23.6,92,0.1,939.0,2.05,34.9,50,17.3,11.8,6.9,181.0,49.0,3.5,6,5,3,1,2026-07-18T21:30:20.014101+05:30
Nanded,Maharashtra,19.1383,77.3091,24.6,96,0.2,967.7,1.4,38.9,57,20.0,12.8,5.5,192.0,63.0,4.1,6,5,3,1,2026-07-18T21:30:20.014108+05:30
Gulbarga,Karnataka,17.3297,76.8343,23.7,94,0.0,958.3,2.35,38.2,44,11.2,8.0,11.9,190.0,36.0,3.4,3,5,3,1,2026-07-18T21:30:20.014130+05:30
Bidar,Karnataka,17.9104,77.5199,23.0,92,0.0,934.5,1.95,38.9,54,17.9,12.4,12.8,200.0,40.0,3.4,3,5,3,1,2026-07-18T21:30:20.014137+05:30
Hospet,Karnataka,15.2689,76.3909,23.5,94,0.0,956.3,5.8,48.6,32,8.0,6.1,8.5,171.0,36.0,1.9,3,5,3,1,2026-07-18T21:30:20.014144+05:30
Tirupur,Tamil Nadu,11.1085,77.3411,25.4,78,0.0,976.2,7.15,43.9,58,24.0,14.9,17.3,172.0,34.0,5.0,7,5,7,1,2026-07-18T21:30:20.014150+05:30
Alappuzha,Kerala,9.4981,76.3388,25.7,93,0.0,1011.4,7.9,40.7,56,16.8,10.9,11.6,87.0,36.0,3.0,7,0,4,1,2026-07-18T21:30:20.014157+05:30
Munnar,Kerala,10.0889,77.0595,16.4,98,0.0,857.8,7.15,42.5,27,9.3,7.1,9.0,129.0,34.0,2.2,3,10,7,1,2026-07-18T21:30:20.014164+05:30
Silchar,Assam,24.8333,92.7789,26.4,95,0.0,1004.4,8.4,29.2,65,21.1,17.0,6.6,294.0,61.0,4.4,7,5,4,1,2026-07-18T21:30:20.014171+05:30
Dibrugarh,Assam,27.4728,94.912,25.3,99,0.1,993.2,1.8,33.8,59,14.4,13.8,10.2,210.0,50.0,1.7,10,5,3,1,2026-07-18T21:30:20.014179+05:30
