city,state,latitude,longitude,temp,humidity,rain,pressure,uv_index,wind_gusts,aqi,pm10,pm2_5,mosquito_risk,arthritis_risk,migraine_risk,frizz_risk,updated_at
Delhi,Delhi,28.6139,77.209,26.1,49,0.0,984.5,6.25,30.2,287,404.2,89.9,4,5,7,0,2026-03-30T20:36:35.220070+05:30
Mumbai,Maharashtra,19.076,72.8777,27.9,84,0.0,1009.3,8.05,26.6,82,55.6,25.3,7,0,4,1,2026-03-30T20:36:35.220107+05:30
Bangalore,Karnataka,12.9716,77.5946,27.6,36,0.0,912.4,8.7,29.2,129,29.1,27.3,4,5,7,0,2026-03-30T20:36:35.220122+05:30
Hyderabad,Telangana,17.385,78.4867,25.9,82,0.0,954.2,8.25,34.2,119,77.5,67.1,7,5,7,1,2026-03-30T20:36:35.220132+05:30
Chennai,Tamil Nadu,13.0827,80.2707,28.0,77,0.0,1008.2,9.3,32.0,52,14.1,10.0,7,0,4,1,2026-03-30T20:36:35.220141+05:30
Kolkata,West Bengal,22.5726,88.3639,27.2,83,0.0,1007.7,8.5,27.7,94,36.8,32.4,7,5,4,1,2026-03-30T20:36:35.220150+05:30
Pune,Maharashtra,18.5204,73.8567,27.4,72,0.0,949.3,8.55,36.4,99,47.6,40.9,7,5,7,1,2026-03-30T20:36:35.220161+05:30
Ahmedabad,Gujarat,23.0225,72.5714,30.3,50,0.0,1002.7,8.0,31.7,55,37.4,17.9,0,5,4,1,2026-03-30T20:36:35.220169+05:30
Jaipur,Rajasthan,26.9124,75.7873,24.7,61,0.0,962.5,6.5,46.1,107,270.1,38.1,3,5,7,1,2026-03-30T20:36:35.220176+05:30
Lucknow,Uttar Pradesh,26.8467,80.9462,30.3,46,0.0,993.5,7.3,18.7,109,205.4,43.2,0,5,7,1,2026-03-30T20:36:35.220184+05:30
Kanpur,Uttar Pradesh,26.4499,80.3319,28.5,61,0.0,992.0,7.3,18.4,108,841.9,111.1,7,5,7,1,2026-03-30T20:36:35.220191+05:30
Chandigarh,Chandigarh,30.7333,76.7794,20.9,85,0.0,971.2,6.0,37.8,101,302.7,72.2,3,5,3,1,2026-03-30T20:36:35.220198+05:30
Srinagar,Jammu and Kashmir,34.0837,74.7973,11.6,90,0.2,843.1,5.35,30.2,84,61.5,35.9,6,10,3,0,2026-03-30T20:36:35.220205+05:30
Jammu,Jammu and Kashmir,32.7266,74.857,20.8,80,0.0,974.8,6.15,39.2,75,71.9,26.4,3,5,7,1,2026-03-30T20:36:35.220212+05:30
Amritsar,Punjab,31.634,74.8723,20.5,94,0.0,982.8,5.3,50.8,106,73.3,28.9,3,5,3,1,2026-03-30T20:36:35.220219+05:30
Ludhiana,Punjab,30.901,75.8573,23.1,80,0.0,980.9,5.95,41.8,152,134.1,44.1,3,5,3,1,2026-03-30T20:36:35.220226+05:30
Jalandhar,Punjab,31.326,75.5762,21.8,81,0.0,982.5,4.7,38.5,134,91.5,36.1,3,5,3,1,2026-03-30T20:36:35.220233+05:30
Dehradun,Uttarakhand,30.6284,78.0322,16.1,83,0.0,831.1,6.1,26.6,59,48.3,14.9,3,10,7,0,2026-03-30T20:36:35.220240+05:30
Shimla,Himachal Pradesh,31.1048,77.1734,13.8,80,0.0,785.3,6.35,23.4,65,27.6,15.4,3,5,7,0,2026-03-30T20:36:35.220247+05:30
Manali,Himachal Pradesh,32.2396,77.1887,14.6,67,0.0,820.2,8.4,30.2,73,7.5,4.4,3,5,7,0,2026-03-30T20:36:35.220253+05:30
Gurgaon,Haryana,28.4595,77.0266,24.5,58,0.0,983.0,6.1,27.0,1133,501.1,96.9,0,5,7,0,2026-03-30T20:36:35.220259+05:30
Noida,Uttar Pradesh,28.5355,77.391,25.8,52,0.0,986.0,6.1,32.0,1133,501.1,96.9,4,5,7,0,2026-03-30T20:36:35.220266+05:30
Ghaziabad,Uttar Pradesh,28.6692,77.4538,25.2,53,0.0,984.0,6.1,31.3,183,423.8,88.2,4,5,7,0,2026-03-30T20:36:35.220273+05:30
Faridabad,Haryana,28.4089,77.3178,24.2,57,0.0,985.3,5.9,32.4,1133,501.1,96.9,0,5,3,0,2026-03-30T20:36:35.220279+05:30
Meerut,Uttar Pradesh,28.9845,77.7064,24.5,58,0.0,982.7,5.9,25.2,183,423.8,88.2,0,5,3,0,2026-03-30T20:36:35.220285+05:30
Agra,Uttar Pradesh,27.1767,78.0081,28.2,42,0.0,989.9,6.85,42.5,573,545.8,86.1,4,5,7,0,2026-03-30T20:36:35.220291+05:30
Varanasi,Uttar Pradesh,25.3176,82.9739,28.9,53,0.0,997.4,7.95,24.8,95,61.7,44.5,4,5,7,1,2026-03-30T20:36:35.220300+05:30
Prayagraj,Uttar Pradesh,25.4358,81.8463,29.7,48,0.0,996.6,7.85,24.5,103,61.9,44.7,4,5,7,1,2026-03-30T20:36:35.220306+05:30
Gorakhpur,Uttar Pradesh,26.7606,83.3732,27.0,65,0.0,997.1,7.65,25.9,147,95.2,61.2,7,5,7,1,2026-03-30T20:36:35.220313+05:30
Bareilly,Uttar Pradesh,28.367,79.4304,26.8,55,0.0,987.9,6.3,20.9,115,123.9,46.2,4,5,7,1,2026-03-30T20:36:35.220319+05:30
Aligarh,Uttar Pradesh,27.8974,78.088,25.5,56,0.0,987.0,6.35,36.4,588,944.4,152.3,4,5,7,1,2026-03-30T20:36:35.220327+05:30
Moradabad,Uttar Pradesh,28.8386,78.7733,26.2,63,0.0,985.0,6.35,20.2,151,254.3,66.4,7,5,7,1,2026-03-30T20:36:35.220334+05:30
Saharanpur,Uttar Pradesh,29.9637,77.546,24.8,76,0.0,976.9,6.1,25.6,118,570.0,112.7,3,5,7,1,2026-03-30T20:36:35.220341+05:30
Jhansi,Uttar Pradesh,25.4484,78.5685,29.5,42,0.0,979.5,7.1,36.0,56,26.6,13.8,4,5,7,0,2026-03-30T20:36:38.436584+05:30
Surat,Gujarat,21.1702,72.8311,27.6,82,0.0,1007.4,7.8,27.0,102,63.3,45.9,7,5,4,1,2026-03-30T20:36:38.436615+05:30
Vadodara,Gujarat,22.3072,73.1812,31.6,51,0.0,1004.7,8.0,29.5,71,49.5,30.5,0,5,4,1,2026-03-30T20:36:38.436627+05:30
Rajkot,Gujarat,22.3039,70.8022,28.2,61,0.0,995.2,7.8,34.9,57,23.1,12.3,7,5,7,1,2026-03-30T20:36:38.436636+05:30
Thane,Maharashtra,19.2183,72.9781,27.5,83,0.0,1008.7,8.05,39.2,82,55.6,25.3,7,0,4,1,2026-03-30T20:36:38.436644+05:30
Nagpur,Maharashtra,21.1458,79.0882,28.6,56,0.0,974.6,8.55,31.0,84,42.0,34.2,4,5,7,1,2026-03-30T20:36:38.436652+05:30
Nashik,Maharashtra,19.9975,73.7898,26.5,69,0.0,946.6,8.25,32.0,84,31.8,24.4,7,5,7,1,2026-03-30T20:36:38.436660+05:30
Aurangabad,Maharashtra,19.8762,75.3433,26.8,64,0.0,945.6,8.75,48.6,78,17.2,13.6,7,5,7,1,2026-03-30T20:36:38.436668+05:30
Solapur,Maharashtra,17.6599,75.9064,31.2,41,0.0,958.4,8.85,39.2,121,37.6,33.9,0,5,7,1,2026-03-30T20:36:38.436676+05:30
Kolhapur,Maharashtra,16.705,74.2433,25.5,83,0.0,948.6,8.55,38.9,117,31.7,28.1,7,5,7,1,2026-03-30T20:36:38.436684+05:30
Goa,Goa,15.2993,74.124,28.7,77,0.0,998.5,8.95,30.2,57,25.6,18.6,7,5,7,1,2026-03-30T20:36:38.436692+05:30
Jodhpur,Rajasthan,26.2389,73.0243,25.5,65,0.0,984.5,7.8,37.4,111,131.8,23.6,7,5,7,1,2026-03-30T20:36:38.436700+05:30
Udaipur,Rajasthan,24.5854,73.7125,24.2,66,0.0,948.1,8.15,51.5,45,27.6,10.9,3,5,7,1,2026-03-30T20:36:38.436707+05:30
Kota,Rajasthan,25.2138,75.8648,26.5,58,0.0,981.1,7.1,40.3,46,26.1,12.3,4,5,7,1,2026-03-30T20:36:38.436715+05:30
Bikaner,Rajasthan,28.0229,73.3119,28.7,43,0.0,982.3,6.85,45.4,109,143.0,39.2,4,5,7,0,2026-03-30T20:36:38.436722+05:30
Ajmer,Rajasthan,26.4499,74.6399,24.1,61,0.0,956.5,7.25,37.4,49,23.5,12.6,3,5,7,1,2026-03-30T20:36:38.436730+05:30
Gwalior,Madhya Pradesh,26.2183,78.1828,29.0,43,0.0,985.7,6.25,38.9,67,43.5,20.9,4,5,7,0,2026-03-30T20:36:38.436738+05:30
Indore,Madhya Pradesh,22.7196,75.8577,27.2,54,0.0,949.4,8.1,24.1,52,22.8,13.0,4,5,7,1,2026-03-30T20:36:38.436745+05:30
Bhopal,Madhya Pradesh,23.2599,77.4126,28.8,41,0.0,955.1,8.2,29.2,71,18.5,10.1,4,5,7,0,2026-03-30T20:36:38.436752+05:30
Jabalpur,Madhya Pradesh,23.1815,79.9864,28.6,48,0.0,962.3,8.35,29.5,52,25.8,18.7,4,5,7,1,2026-03-30T20:36:38.436760+05:30
Ujjain,Madhya Pradesh,23.1765,75.7885,27.7,50,0.0,955.1,7.7,27.0,51,27.6,16.4,4,5,7,1,2026-03-30T20:36:38.436767+05:30
Visakhapatnam,Andhra Pradesh,17.6868,83.2185,27.3,82,0.0,1005.2,8.95,43.6,61,20.5,15.9,7,5,4,1,2026-03-30T20:36:38.436774+05:30
Vijayawada,Andhra Pradesh,16.5062,80.648,27.6,75,0.0,1003.8,9.05,32.0,65,17.5,15.1,7,5,4,1,2026-03-30T20:36:38.436782+05:30
Guntur,Andhra Pradesh,16.3067,80.4365,27.1,82,0.0,1004.8,9.05,34.2,76,19.8,17.7,7,5,4,1,2026-03-30T20:36:38.436789+05:30
Nellore,Andhra Pradesh,14.4426,79.9865,27.7,79,0.0,1006.5,9.2,32.4,80,13.9,10.4,7,5,4,1,2026-03-30T20:36:38.436797+05:30
Kurnool,Andhra Pradesh,15.8281,78.0373,32.9,38,0.0,976.6,9.05,24.5,121,49.6,42.1,0,5,7,1,2026-03-30T20:36:38.436805+05:30
Kakinada,Andhra Pradesh,16.9891,82.2475,26.8,81,0.0,1009.3,9.0,34.6,51,15.7,10.9,7,0,4,1,2026-03-30T20:36:38.436813+05:30
Tirupati,Andhra Pradesh,13.6288,79.4192,29.3,55,0.0,992.5,9.3,36.4,109,24.2,22.6,4,5,7,1,2026-03-30T20:36:38.436820+05:30
Warangal,Telangana,17.9689,79.5941,29.5,63,0.0,979.3,8.9,27.0,120,47.1,42.5,7,5,7,1,2026-03-30T20:36:38.436827+05:30
Nizamabad,Telangana,18.6725,78.0941,28.8,61,0.0,965.5,8.8,46.8,93,36.0,32.9,7,5,7,1,2026-03-30T20:36:38.436834+05:30
Mysore,Karnataka,12.2958,76.6396,25.9,74,0.0,928.8,9.45,23.8,130,37.5,34.9,7,5,7,1,2026-03-30T20:36:38.436842+05:30
Mangalore,Karnataka,12.9141,74.856,29.9,78,0.0,1006.9,4.85,23.4,62,19.7,15.2,7,5,0,1,2026-03-30T20:36:38.436849+05:30
Hubli-Dharwad,Karnataka,15.3647,75.124,27.0,70,0.0,941.4,8.1,30.6,135,14.1,13.1,7,5,7,1,2026-03-30T20:36:38.436856+05:30
Belgaum,Karnataka,15.8497,74.4977,24.3,87,0.0,926.3,9.2,31.7,132,21.2,18.8,3,5,7,1,2026-03-30T20:36:41.661118+05:30
Coimbatore,Tamil Nadu,11.0168,76.9558,26.9,76,0.0,962.0,9.45,36.4,99,45.8,42.7,7,5,7,1,2026-03-30T20:36:41.661148+05:30
Madurai,Tamil Nadu,9.9252,78.1198,30.5,62,0.0,993.5,9.4,36.0,84,17.3,16.2,3,5,7,1,2026-03-30T20:36:41.661159+05:30
Trichy,Tamil Nadu,10.7905,78.7047,29.7,67,0.0,1000.0,9.35,25.6,74,16.7,16.1,7,5,4,1,2026-03-30T20:36:41.661166+05:30
Salem,Tamil Nadu,11.6643,78.146,31.4,40,0.0,977.4,9.45,27.0,98,20.1,18.6,0,5,7,1,2026-03-30T20:36:41.661172+05:30
Tirunelveli,Tamil Nadu,8.7139,77.7567,29.4,66,0.0,1003.4,9.35,52.2,105,24.4,22.6,7,5,4,1,2026-03-30T20:36:41.661178+05:30
Vellore,Tamil Nadu,12.9165,79.1325,28.9,57,0.0,985.4,9.35,33.5,113,32.1,30.7,4,5,7,1,2026-03-30T20:36:41.661185+05:30
Erode,Tamil Nadu,11.341,77.7172,32.3,40,0.0,988.5,9.4,25.2,90,18.2,16.6,0,5,7,1,2026-03-30T20:36:41.661190+05:30
Kochi,Kerala,9.9312,76.2673,29.6,80,0.0,1008.5,9.2,31.7,135,44.5,41.7,7,0,4,1,2026-03-30T20:36:41.661197+05:30
Thiruvananthapuram,Kerala,8.5241,76.9366,29.0,80,0.0,1008.5,9.2,33.1,104,27.9,22.4,7,0,4,1,2026-03-30T20:36:41.661203+05:30
Kozhikode,Kerala,11.2588,75.7804,29.7,79,0.0,1007.6,9.1,28.4,103,29.2,20.4,7,5,4,1,2026-03-30T20:36:41.661209+05:30
Thrissur,Kerala,10.5276,76.2144,29.0,80,0.0,1006.7,9.15,30.6,117,49.4,45.8,7,5,4,1,2026-03-30T20:36:41.661215+05:30
Kannur,Kerala,11.8745,75.3704,29.7,74,0.0,1007.1,8.5,24.8,109,40.7,35.3,7,5,4,1,2026-03-30T20:36:41.661221+05:30
Patna,Bihar,25.5941,85.1376,27.8,70,0.0,1000.9,8.1,30.6,153,85.7,69.2,7,5,4,1,2026-03-30T20:36:41.661227+05:30
Gaya,Bihar,24.7914,85.0002,27.1,75,0.0,994.3,8.2,23.4,104,56.8,40.3,7,5,7,1,2026-03-30T20:36:41.661232+05:30
Muzaffarpur,Bihar,26.1209,85.3647,25.6,75,0.0,1001.2,8.05,29.2,156,106.4,86.8,7,5,4,1,2026-03-30T20:36:41.661238+05:30
Bhagalpur,Bihar,25.2425,87.0117,24.7,86,0.0,1002.6,8.05,19.4,171,78.0,70.5,3,5,4,1,2026-03-30T20:36:41.661244+05:30
Ranchi,Jharkhand,23.3441,85.3096,25.1,75,0.0,939.1,8.75,27.0,145,36.6,27.3,7,5,7,1,2026-03-30T20:36:41.661250+05:30
Jamshedpur,Jharkhand,22.8046,86.2029,27.3,78,0.0,991.9,8.6,27.7,160,43.2,36.7,7,5,7,1,2026-03-30T20:36:41.661256+05:30
Dhanbad,Jharkhand,23.7957,86.4304,27.4,74,0.0,981.4,8.5,29.5,164,76.1,69.8,7,5,7,1,2026-03-30T20:36:41.661262+05:30
Bokaro,Jharkhand,23.6693,86.1511,27.3,73,0.0,985.5,8.5,30.6,159,64.7,53.3,7,5,7,1,2026-03-30T20:36:41.661268+05:30
Bhubaneswar,Odisha,20.2961,85.8245,27.4,82,0.0,1003.5,8.8,38.9,66,19.5,16.4,7,5,4,1,2026-03-30T20:36:41.661274+05:30
Cuttack,Odisha,20.4625,85.8828,27.6,82,0.0,1005.3,8.8,32.8,66,19.5,16.4,7,5,4,1,2026-03-30T20:36:41.661280+05:30
Rourkela,Odisha,22.2604,84.8536,27.0,74,0.0,985.7,8.5,52.6,147,48.9,40.4,7,5,7,1,2026-03-30T20:36:41.661285+05:30
Raipur,Chhattisgarh,21.2514,81.6296,31.0,45,0.0,975.2,8.6,32.8,100,67.1,54.8,0,5,7,1,2026-03-30T20:36:41.661291+05:30
Bhilai,Chhattisgarh,21.1938,81.3509,30.4,47,0.0,975.5,8.65,31.3,75,47.4,36.6,0,5,7,1,2026-03-30T20:36:41.661297+05:30
Guwahati,Assam,26.1158,91.7086,23.5,88,0.0,1004.3,7.35,27.7,95,57.9,50.6,3,5,4,1,2026-03-30T20:36:41.661303+05:30
Agartala,Tripura,23.8315,91.2868,23.9,89,0.0,1008.8,8.3,29.9,121,49.9,43.3,3,0,4,1,2026-03-30T20:36:41.661308+05:30
Shillong,Meghalaya,25.5788,91.8933,13.4,93,0.0,856.9,6.25,42.1,95,43.1,38.4,3,10,7,0,2026-03-30T20:36:41.661315+05:30
Imphal,Manipur,24.817,93.9368,17.7,85,0.0,925.1,7.75,58.7,150,49.1,43.9,3,10,7,0,2026-03-30T20:36:41.661321+05:30
Aizawl,Mizoram,23.7271,92.7176,18.5,91,0.0,894.5,8.45,50.8,123,45.3,36.4,3,10,7,1,2026-03-30T20:36:41.661327+05:30
Kohima,Nagaland,25.6701,94.1077,14.4,99,0.0,856.1,8.45,77.8,124,37.5,28.3,3,10,7,0,2026-03-30T20:36:41.661333+05:30
Gangtok,Sikkim,27.3314,88.6138,14.6,90,0.0,837.9,7.55,21.2,94,45.5,37.8,3,10,7,0,2026-03-30T20:36:41.661339+05:30
Siliguri,West Bengal,26.7271,88.3953,20.1,83,0.0,996.2,7.45,14.8,155,88.9,70.3,3,5,7,1,2026-03-30T20:36:44.877383+05:30
Durgapur,West Bengal,23.5204,87.3119,26.6,83,0.0,997.0,8.5,25.2,159,50.9,46.2,7,5,7,1,2026-03-30T20:36:44.877410+05:30
Asansol,West Bengal,23.6739,86.9524,25.7,81,0.0,995.4,8.5,28.4,161,61.5,56.5,7,5,7,1,2026-03-30T20:36:44.877419+05:30
Pondicherry,Puducherry,11.9139,79.8145,26.3,85,0.0,1009.2,9.25,27.7,47,12.7,8.7,7,0,4,1,2026-03-30T20:36:44.877426+05:30
Port Blair,Andaman and Nicobar Islands,11.6234,92.7265,29.3,70,0.0,1008.4,9.2,15.1,62,12.5,9.3,7,0,4,1,2026-03-30T20:36:44.877433+05:30
Haridwar,Uttarakhand,29.9457,78.1642,24.9,73,0.0,975.7,5.75,21.2,90,305.5,72.2,3,5,3,1,2026-03-30T20:36:44.877439+05:30
Rishikesh,Uttarakhand,30.0869,78.2676,23.7,77,0.0,968.4,5.8,24.8,86,112.7,33.5,3,5,3,1,2026-03-30T20:36:44.877446+05:30
Nainital,Uttarakhand,29.3919,79.4542,19.7,60,0.0,807.8,7.3,47.9,111,104.8,35.0,0,5,7,0,2026-03-30T20:36:44.877496+05:30
Mussoorie,Uttarakhand,30.4599,78.0664,17.1,74,0.0,803.8,6.2,34.2,77,148.1,42.5,3,5,7,0,2026-03-30T20:36:44.877505+05:30
Dharamshala,Himachal Pradesh,32.219,76.3234,16.2,91,0.0,870.8,6.05,30.2,46,25.5,11.6,3,10,7,0,2026-03-30T20:36:44.877512+05:30
Dalhousie,Himachal Pradesh,32.5387,75.971,12.9,84,0.0,804.3,5.75,45.0,64,55.5,26.1,3,10,3,0,2026-03-30T20:36:44.877520+05:30
Patiala,Punjab,30.3398,76.3869,24.0,74,0.0,980.0,5.4,25.6,357,291.5,63.6,3,5,3,1,2026-03-30T20:36:44.877526+05:30
Bhatinda,Punjab,30.211,74.9455,24.9,64,0.0,984.9,4.15,38.9,177,41.4,19.3,3,5,3,1,2026-03-30T20:36:44.877532+05:30
Rohtak,Haryana,28.8955,76.6066,23.9,68,0.0,983.3,6.65,34.2,451,307.3,80.3,3,5,7,1,2026-03-30T20:36:44.877537+05:30
Panipat,Haryana,29.3909,76.9635,23.2,68,0.0,981.7,6.6,25.9,681,692.9,121.5,3,5,7,1,2026-03-30T20:36:44.877543+05:30
Mathura,Uttar Pradesh,27.4924,77.6737,26.3,53,0.0,988.5,6.2,39.6,497,525.3,93.8,4,5,7,0,2026-03-30T20:36:44.877549+05:30
Vrindavan,Uttar Pradesh,27.5823,77.7027,25.8,57,0.0,988.9,6.45,40.0,497,525.3,93.8,4,5,7,1,2026-03-30T20:36:44.877555+05:30
Ayodhya,Uttar Pradesh,26.7922,82.1998,28.7,56,0.0,995.2,7.45,25.2,144,65.4,34.9,4,5,7,1,2026-03-30T20:36:44.877563+05:30
Ratlam,Madhya Pradesh,23.3315,75.0367,26.5,62,0.0,955.9,8.15,38.2,50,31.3,18.0,7,5,7,1,2026-03-30T20:36:44.877571+05:30
Sagar,Madhya Pradesh,23.8388,78.7378,28.9,45,0.0,952.1,8.15,32.8,62,33.9,12.3,4,5,7,0,2026-03-30T20:36:44.877577+05:30
Satna,Madhya Pradesh,24.6005,80.8322,27.4,56,0.0,972.7,8.15,55.8,89,31.2,14.6,4,5,7,1,2026-03-30T20:36:44.877583+05:30
Akola,Maharashtra,20.7002,77.0082,29.4,52,0.0,976.4,8.5,38.5,71,22.8,17.9,4,5,7,1,2026-03-30T20:36:44.877589+05:30
Amravati,Maharashtra,20.9374,77.7796,30.7,43,0.0,968.3,8.5,27.7,69,29.5,23.1,0,5,7,1,2026-03-30T20:36:44.877596+05:30
Latur,Maharashtra,18.4088,76.5604,26.4,57,0.0,942.1,8.6,36.7,105,38.0,33.3,4,5,7,1,2026-03-30T20:36:44.877609+05:30
Nanded,Maharashtra,19.1383,77.3091,26.4,71,0.0,971.9,8.7,49.0,81,37.1,31.5,7,5,7,1,2026-03-30T20:36:44.877622+05:30
Gulbarga,Karnataka,17.3297,76.8343,31.7,38,0.0,958.9,8.85,38.9,144,61.7,53.6,0,5,7,0,2026-03-30T20:36:44.877633+05:30
Bidar,Karnataka,17.9104,77.5199,27.2,61,0.0,936.1,8.9,42.8,142,48.9,44.6,7,5,7,1,2026-03-30T20:36:44.877643+05:30
Hospet,Karnataka,15.2689,76.3909,29.2,63,0.0,956.3,9.1,23.8,131,56.9,50.8,7,5,7,1,2026-03-30T20:36:44.877652+05:30
Tirupur,Tamil Nadu,11.1085,77.3411,30.3,59,0.0,975.4,9.45,27.7,102,31.8,29.4,0,5,7,1,2026-03-30T20:36:44.877666+05:30
Alappuzha,Kerala,9.4981,76.3388,29.6,81,0.0,1008.6,9.2,27.4,119,38.1,33.9,7,0,4,1,2026-03-30T20:36:44.877677+05:30
Munnar,Kerala,10.0889,77.0595,22.8,94,0.0,857.6,8.7,31.7,84,36.4,34.3,3,5,7,1,2026-03-30T20:36:44.877688+05:30
Silchar,Assam,24.8333,92.7789,24.4,87,0.0,1007.7,8.3,25.9,150,51.3,43.2,3,5,4,1,2026-03-30T20:36:44.877699+05:30
Dibrugarh,Assam,27.4728,94.912,23.6,77,0.0,999.0,5.75,10.1,95,38.6,34.2,3,5,3,1,2026-03-30T20:36:44.877710+05:30
