city,state,latitude,longitude,temp,humidity,rain,pressure,uv_index,wind_gusts,aqi,pm10,pm2_5,no2,co,o3,so2,mosquito_risk,arthritis_risk,migraine_risk,frizz_risk,updated_at
Delhi,Delhi,28.6139,77.209,41.9,15,0.0,976.3,7.7,42.1,548,841.9,148.1,5.7,225.0,137.0,10.0,0,5,10,0,2026-05-25T15:43:51.974472+05:30
Mumbai,Maharashtra,19.076,72.8777,31.4,70,0.1,1007.4,7.8,45.7,52,16.5,11.6,4.1,170.0,66.0,3.8,6,5,4,1,2026-05-25T15:43:51.974507+05:30
Bangalore,Karnataka,12.9716,77.5946,24.6,83,0.2,910.6,6.6,44.3,62,20.7,16.9,8.4,378.0,138.0,4.2,6,5,7,1,2026-05-25T15:43:51.974522+05:30
Hyderabad,Telangana,17.385,78.4867,38.5,25,0.0,950.6,9.2,35.3,65,50.6,25.7,2.2,235.0,135.0,4.6,0,5,10,0,2026-05-25T15:43:51.974531+05:30
Chennai,Tamil Nadu,13.0827,80.2707,35.7,55,0.0,1003.2,9.05,42.1,104,32.8,26.7,4.3,315.0,174.0,8.1,0,5,7,1,2026-05-25T15:43:51.974539+05:30
Kolkata,West Bengal,22.5726,88.3639,33.8,65,0.0,1000.0,8.95,51.8,107,47.0,36.8,3.3,284.0,113.0,6.2,3,5,4,1,2026-05-25T15:43:51.974547+05:30
Pune,Maharashtra,18.5204,73.8567,30.2,63,0.1,947.6,8.45,52.2,43,25.1,16.5,2.4,179.0,120.0,6.3,6,5,7,1,2026-05-25T15:43:51.974554+05:30
Ahmedabad,Gujarat,23.0225,72.5714,42.1,17,0.0,998.0,8.15,35.6,54,68.2,25.1,1.5,147.0,96.0,2.3,0,5,10,0,2026-05-25T15:43:51.974560+05:30
Jaipur,Rajasthan,26.9124,75.7873,41.7,15,0.0,955.1,8.25,49.7,203,367.9,70.8,1.1,146.0,106.0,2.8,0,5,10,0,2026-05-25T15:43:51.974571+05:30
Lucknow,Uttar Pradesh,26.8467,80.9462,42.3,18,0.0,986.0,8.15,46.1,285,653.8,129.5,1.6,166.0,137.0,5.4,0,5,10,0,2026-05-25T15:43:51.974578+05:30
Kanpur,Uttar Pradesh,26.4499,80.3319,43.5,16,0.0,984.5,8.25,56.2,541,983.5,144.4,1.4,136.0,121.0,4.2,0,5,10,0,2026-05-25T15:43:51.974584+05:30
Chandigarh,Chandigarh,30.7333,76.7794,40.5,14,0.0,962.6,7.7,26.6,120,44.2,18.6,1.7,227.0,162.0,9.1,0,5,10,0,2026-05-25T15:43:51.974591+05:30
Srinagar,Jammu and Kashmir,34.0837,74.7973,21.0,53,0.1,842.3,8.4,34.2,65,21.0,10.2,2.0,239.0,128.0,1.6,3,5,7,0,2026-05-25T15:43:51.974598+05:30
Jammu,Jammu and Kashmir,32.7266,74.857,37.7,15,0.0,967.9,8.55,40.0,79,35.2,16.1,0.6,173.0,146.0,2.0,0,5,10,0,2026-05-25T15:43:51.974604+05:30
Amritsar,Punjab,31.634,74.8723,39.8,15,0.0,975.0,8.4,25.2,83,36.4,15.9,1.6,184.0,146.0,2.7,0,5,10,0,2026-05-25T15:43:51.974610+05:30
Ludhiana,Punjab,30.901,75.8573,40.5,14,0.0,972.5,8.0,35.3,87,58.0,19.4,1.1,206.0,140.0,3.0,0,5,10,0,2026-05-25T15:43:51.974618+05:30
Jalandhar,Punjab,31.326,75.5762,40.7,13,0.0,973.5,8.15,35.6,88,41.6,16.5,1.2,194.0,143.0,2.2,0,5,10,0,2026-05-25T15:43:51.974625+05:30
Dehradun,Uttarakhand,30.6284,78.0322,26.0,34,0.0,831.3,8.15,33.5,68,48.9,17.8,1.5,155.0,144.0,3.7,4,5,7,0,2026-05-25T15:43:51.974631+05:30
Shimla,Himachal Pradesh,31.1048,77.1734,25.1,18,0.0,786.9,8.25,45.4,78,31.4,12.7,0.7,170.0,150.0,5.9,4,5,7,1,2026-05-25T15:43:51.974640+05:30
Manali,Himachal Pradesh,32.2396,77.1887,22.2,42,0.0,820.1,9.9,49.3,73,23.0,8.1,2.7,123.0,139.0,0.6,0,5,7,0,2026-05-25T15:43:51.974648+05:30
Gurgaon,Haryana,28.4595,77.0266,41.2,17,0.0,974.9,7.8,46.4,1905,1583.2,210.9,4.1,171.0,124.0,7.5,0,5,10,0,2026-05-25T15:43:51.974654+05:30
Noida,Uttar Pradesh,28.5355,77.391,41.8,15,0.0,977.9,7.75,47.2,1905,1583.2,210.9,4.1,211.0,124.0,7.5,0,5,10,0,2026-05-25T15:43:51.974661+05:30
Ghaziabad,Uttar Pradesh,28.6692,77.4538,42.5,14,0.0,976.0,7.75,36.7,454,661.2,128.5,4.6,200.0,170.0,15.3,0,5,10,0,2026-05-25T15:43:51.974667+05:30
Faridabad,Haryana,28.4089,77.3178,41.2,16,0.0,977.2,7.8,47.5,1905,1583.2,210.9,4.1,181.0,124.0,7.5,0,5,10,0,2026-05-25T15:43:51.974673+05:30
Meerut,Uttar Pradesh,28.9845,77.7064,41.3,17,0.0,975.1,7.65,30.6,454,661.2,128.5,4.6,177.0,170.0,15.3,0,5,10,0,2026-05-25T15:43:51.974679+05:30
Agra,Uttar Pradesh,27.1767,78.0081,42.3,18,0.0,981.1,8.05,48.6,1405,197.0,43.1,2.8,142.0,113.0,3.1,0,5,10,0,2026-05-25T15:43:51.974685+05:30
Varanasi,Uttar Pradesh,25.3176,82.9739,43.5,14,0.0,989.8,8.7,49.3,131,146.7,38.1,2.2,167.0,126.0,4.3,0,5,10,0,2026-05-25T15:43:51.974691+05:30
Prayagraj,Uttar Pradesh,25.4358,81.8463,43.2,15,0.0,988.7,8.65,47.9,150,244.9,60.3,1.5,143.0,121.0,3.9,0,5,10,0,2026-05-25T15:43:51.974698+05:30
Gorakhpur,Uttar Pradesh,26.7606,83.3732,38.8,36,0.0,989.7,8.6,39.6,158,218.4,72.2,2.3,373.0,192.0,11.8,0,5,10,1,2026-05-25T15:43:51.974705+05:30
Bareilly,Uttar Pradesh,28.367,79.4304,39.2,28,0.0,979.8,8.05,23.8,166,322.2,81.3,2.1,252.0,196.0,9.9,0,5,10,1,2026-05-25T15:43:51.974711+05:30
Aligarh,Uttar Pradesh,27.8974,78.088,40.8,21,0.0,978.7,7.9,49.3,1061,1054.3,148.5,2.5,145.0,124.0,6.0,0,5,10,0,2026-05-25T15:43:51.974718+05:30
Moradabad,Uttar Pradesh,28.8386,78.7733,39.5,26,0.0,976.9,7.85,29.2,171,275.7,79.2,3.8,273.0,229.0,19.3,0,5,10,1,2026-05-25T15:43:51.974724+05:30
Saharanpur,Uttar Pradesh,29.9637,77.546,40.0,17,0.0,969.4,7.35,24.1,150,72.2,28.1,3.7,260.0,175.0,12.4,0,5,10,0,2026-05-25T15:43:51.974730+05:30
Jhansi,Uttar Pradesh,25.4484,78.5685,43.0,12,0.0,972.4,8.45,44.6,56,43.7,13.8,1.0,134.0,109.0,2.8,0,5,10,0,2026-05-25T15:43:55.267598+05:30
Surat,Gujarat,21.1702,72.8311,35.3,53,0.0,1004.4,7.7,46.8,58,23.6,18.5,12.9,321.0,57.0,39.8,0,5,7,1,2026-05-25T15:43:55.267625+05:30
Vadodara,Gujarat,22.3072,73.1812,40.4,28,0.0,1000.5,8.1,42.8,51,12.1,8.4,1.2,155.0,90.0,2.4,0,5,7,1,2026-05-25T15:43:55.267635+05:30
Rajkot,Gujarat,22.3039,70.8022,41.0,25,0.0,990.9,7.7,50.8,53,64.0,25.3,1.1,121.0,103.0,4.5,0,5,10,1,2026-05-25T15:43:55.267642+05:30
Thane,Maharashtra,19.2183,72.9781,32.8,64,0.1,1006.5,7.8,37.4,52,16.5,11.6,4.1,147.0,66.0,3.8,6,5,4,1,2026-05-25T15:43:55.267650+05:30
Nagpur,Maharashtra,21.1458,79.0882,43.2,11,0.0,968.3,8.9,45.4,92,78.0,27.2,4.9,153.0,148.0,15.9,0,5,10,0,2026-05-25T15:43:55.267657+05:30
Nashik,Maharashtra,19.9975,73.7898,32.7,47,0.1,944.6,8.15,44.3,34,14.8,9.1,1.0,124.0,73.0,0.7,3,5,7,1,2026-05-25T15:43:55.267664+05:30
Aurangabad,Maharashtra,19.8762,75.3433,39.0,26,0.0,942.2,9.0,38.9,48,36.9,18.4,1.0,144.0,112.0,2.5,0,5,10,0,2026-05-25T15:43:55.267671+05:30
Solapur,Maharashtra,17.6599,75.9064,37.5,33,0.0,955.1,9.0,32.0,55,44.5,22.4,0.6,139.0,129.0,4.0,0,5,10,1,2026-05-25T15:43:55.267678+05:30
Kolhapur,Maharashtra,16.705,74.2433,31.0,59,0.0,947.4,8.85,41.4,37,18.6,11.5,2.0,143.0,98.0,1.9,0,5,7,1,2026-05-25T15:43:55.267685+05:30
Goa,Goa,15.2993,74.124,31.8,70,0.1,997.1,6.35,25.9,48,11.4,7.5,0.7,141.0,61.0,0.9,6,5,7,1,2026-05-25T15:43:55.267693+05:30
Jodhpur,Rajasthan,26.2389,73.0243,39.2,33,0.0,978.4,8.4,47.5,254,527.1,94.8,0.6,127.0,89.0,2.7,0,5,10,1,2026-05-25T15:43:55.267700+05:30
Udaipur,Rajasthan,24.5854,73.7125,38.4,18,0.0,944.3,8.8,46.4,64,77.5,28.5,0.5,127.0,96.0,1.4,0,5,10,0,2026-05-25T15:43:55.267708+05:30
Kota,Rajasthan,25.2138,75.8648,43.9,10,0.0,973.8,8.4,41.8,57,49.1,20.1,1.1,133.0,111.0,3.7,0,5,10,0,2026-05-25T15:43:55.267714+05:30
Bikaner,Rajasthan,28.0229,73.3119,43.2,14,0.0,975.7,8.4,40.3,183,245.9,87.5,0.3,165.0,109.0,4.1,0,5,10,0,2026-05-25T15:43:55.267721+05:30
Ajmer,Rajasthan,26.4499,74.6399,38.3,26,0.0,951.0,8.35,56.2,84,115.9,40.0,0.8,130.0,101.0,2.3,0,5,10,0,2026-05-25T15:43:55.267728+05:30
Gwalior,Madhya Pradesh,26.2183,78.1828,43.0,13,0.0,976.9,8.25,55.8,58,57.6,18.4,0.7,129.0,105.0,1.5,0,5,10,0,2026-05-25T15:43:55.267735+05:30
Indore,Madhya Pradesh,22.7196,75.8577,40.3,18,0.0,945.8,8.65,45.4,62,38.3,19.3,1.1,175.0,121.0,4.8,0,5,10,0,2026-05-25T15:43:55.267741+05:30
Bhopal,Madhya Pradesh,23.2599,77.4126,41.8,13,0.0,950.3,8.7,39.2,69,68.5,21.7,0.7,152.0,114.0,3.3,0,5,10,0,2026-05-25T15:43:55.267748+05:30
Jabalpur,Madhya Pradesh,23.1815,79.9864,42.5,12,0.0,957.2,8.85,32.4,76,76.6,21.7,0.8,131.0,118.0,2.6,0,5,10,0,2026-05-25T15:43:55.267755+05:30
Ujjain,Madhya Pradesh,23.1765,75.7885,40.3,19,0.0,951.1,8.6,45.4,60,29.4,16.1,0.7,145.0,111.0,4.5,0,5,10,0,2026-05-25T15:43:55.267762+05:30
Visakhapatnam,Andhra Pradesh,17.6868,83.2185,36.2,57,0.0,997.9,9.1,32.8,145,50.4,44.4,18.2,493.0,147.0,50.2,0,5,10,1,2026-05-25T15:43:55.267769+05:30
Vijayawada,Andhra Pradesh,16.5062,80.648,42.8,23,0.0,996.2,9.1,40.0,97,51.0,31.3,3.5,190.0,162.0,9.5,0,5,10,1,2026-05-25T15:43:55.267776+05:30
Guntur,Andhra Pradesh,16.3067,80.4365,43.2,22,0.0,997.3,9.15,43.6,83,53.4,29.6,1.5,194.0,154.0,7.7,0,5,10,1,2026-05-25T15:43:55.267782+05:30
Nellore,Andhra Pradesh,14.4426,79.9865,40.0,36,0.0,1000.5,9.05,44.3,79,31.4,23.2,2.8,211.0,158.0,4.7,0,5,7,1,2026-05-25T15:43:55.267790+05:30
Kurnool,Andhra Pradesh,15.8281,78.0373,38.0,36,0.0,973.6,9.05,56.2,52,39.1,23.3,0.8,160.0,146.0,8.8,0,5,10,1,2026-05-25T15:43:55.267797+05:30
Kakinada,Andhra Pradesh,16.9891,82.2475,38.7,48,0.0,1001.1,9.1,31.3,119,33.4,25.4,2.7,311.0,148.0,3.1,0,5,7,1,2026-05-25T15:43:55.267804+05:30
Tirupati,Andhra Pradesh,13.6288,79.4192,36.6,39,0.1,987.7,9.1,35.6,83,26.2,20.6,5.6,339.0,137.0,3.8,3,5,10,1,2026-05-25T15:43:55.267811+05:30
Warangal,Telangana,17.9689,79.5941,41.2,21,0.0,974.0,7.65,41.4,91,61.0,33.4,3.0,245.0,164.0,10.8,0,5,10,0,2026-05-25T15:43:55.267818+05:30
Nizamabad,Telangana,18.6725,78.0941,40.8,20,0.0,961.5,9.1,36.7,71,50.4,22.7,0.4,147.0,123.0,3.9,0,5,10,0,2026-05-25T15:43:55.267824+05:30
Mysore,Karnataka,12.2958,76.6396,32.3,46,0.0,927.4,8.1,42.1,52,18.2,14.1,3.2,221.0,126.0,2.3,0,5,7,1,2026-05-25T15:43:55.267831+05:30
Mangalore,Karnataka,12.9141,74.856,30.0,72,0.1,1006.2,7.45,32.4,61,18.9,11.7,0.8,131.0,70.0,1.3,10,5,4,1,2026-05-25T15:43:55.267838+05:30
Hubli-Dharwad,Karnataka,15.3647,75.124,33.1,50,0.0,940.4,9.0,37.1,36,19.2,12.2,1.9,157.0,101.0,1.5,0,5,7,1,2026-05-25T15:43:55.267865+05:30
Belgaum,Karnataka,15.8497,74.4977,28.5,66,0.1,925.8,9.0,36.0,34,15.0,9.7,1.6,137.0,83.0,1.4,10,5,7,1,2026-05-25T15:43:58.553365+05:30
Coimbatore,Tamil Nadu,11.0168,76.9558,33.1,49,0.0,960.0,8.6,60.1,40,13.6,10.5,2.9,182.0,92.0,2.1,0,5,7,1,2026-05-25T15:43:58.553397+05:30
Madurai,Tamil Nadu,9.9252,78.1198,37.3,35,0.0,989.7,8.95,35.3,69,22.1,14.8,2.0,199.0,123.0,2.3,0,5,10,1,2026-05-25T15:43:58.553410+05:30
Trichy,Tamil Nadu,10.7905,78.7047,37.8,31,0.0,996.0,8.95,45.4,48,17.3,13.0,4.0,179.0,115.0,2.5,0,5,10,1,2026-05-25T15:43:58.553420+05:30
Salem,Tamil Nadu,11.6643,78.146,37.4,32,0.0,974.4,9.05,45.4,71,21.4,16.5,3.4,212.0,150.0,8.0,0,5,10,1,2026-05-25T15:43:58.553429+05:30
Tirunelveli,Tamil Nadu,8.7139,77.7567,37.0,36,0.0,1000.6,8.85,37.4,33,7.9,6.3,2.3,157.0,79.0,1.2,0,5,7,1,2026-05-25T15:43:58.553438+05:30
Vellore,Tamil Nadu,12.9165,79.1325,33.2,54,0.0,981.8,9.1,53.3,77,21.9,17.3,3.4,189.0,135.0,3.4,0,5,7,1,2026-05-25T15:43:58.553447+05:30
Erode,Tamil Nadu,11.341,77.7172,38.0,31,0.0,985.5,9.0,37.8,49,18.5,13.8,2.9,222.0,122.0,2.1,0,5,10,1,2026-05-25T15:43:58.553455+05:30
Kochi,Kerala,9.9312,76.2673,28.8,80,0.0,1008.7,7.85,29.9,57,12.9,9.7,5.4,149.0,75.0,4.2,7,0,4,1,2026-05-25T15:43:58.553464+05:30
Thiruvananthapuram,Kerala,8.5241,76.9366,27.1,87,0.2,1008.2,7.8,35.3,35,15.0,9.2,1.7,112.0,71.0,0.9,10,0,4,1,2026-05-25T15:43:58.553473+05:30
Kozhikode,Kerala,11.2588,75.7804,28.4,80,0.1,1007.3,8.6,33.5,40,18.6,11.6,0.6,133.0,77.0,1.1,10,5,4,1,2026-05-25T15:43:58.553482+05:30
Thrissur,Kerala,10.5276,76.2144,29.1,76,0.0,1006.9,8.65,31.0,52,12.8,9.7,3.7,122.0,72.0,2.2,7,5,4,1,2026-05-25T15:43:58.553490+05:30
Kannur,Kerala,11.8745,75.3704,30.0,72,0.1,1006.6,8.35,34.6,56,21.8,14.1,0.9,124.0,82.0,1.5,10,5,4,1,2026-05-25T15:43:58.553497+05:30
Patna,Bihar,25.5941,85.1376,38.5,43,0.0,992.8,8.85,32.0,168,143.4,70.8,5.6,405.0,206.0,17.4,0,5,10,1,2026-05-25T15:43:58.553504+05:30
Gaya,Bihar,24.7914,85.0002,41.8,20,0.0,986.3,8.9,29.2,168,227.2,70.8,4.0,250.0,198.0,11.7,0,5,10,0,2026-05-25T15:43:58.553511+05:30
Muzaffarpur,Bihar,26.1209,85.3647,35.2,56,0.0,993.4,8.85,44.3,165,114.3,73.8,6.2,407.0,198.0,19.0,0,5,10,1,2026-05-25T15:43:58.553518+05:30
Bhagalpur,Bihar,25.2425,87.0117,35.0,56,0.0,994.5,8.8,31.0,153,53.4,38.0,5.2,351.0,195.0,18.3,0,5,7,1,2026-05-25T15:43:58.553525+05:30
Ranchi,Jharkhand,23.3441,85.3096,37.2,21,0.0,933.9,9.3,38.9,132,65.4,23.5,2.7,172.0,150.0,7.6,0,5,10,0,2026-05-25T15:43:58.553532+05:30
Jamshedpur,Jharkhand,22.8046,86.2029,37.7,33,0.0,984.8,9.1,53.6,150,172.8,45.4,5.6,255.0,160.0,13.2,0,5,10,1,2026-05-25T15:43:58.553538+05:30
Dhanbad,Jharkhand,23.7957,86.4304,42.1,15,0.0,973.2,9.1,42.1,152,217.0,51.0,14.4,144.0,145.0,45.5,0,5,10,0,2026-05-25T15:43:58.553545+05:30
Bokaro,Jharkhand,23.6693,86.1511,42.0,15,0.0,977.0,9.1,37.1,152,187.2,48.2,12.4,148.0,156.0,51.5,0,5,10,0,2026-05-25T15:43:58.553553+05:30
Bhubaneswar,Odisha,20.2961,85.8245,35.5,58,0.0,997.0,9.1,45.4,103,50.9,43.4,2.7,234.0,125.0,5.6,0,5,10,1,2026-05-25T15:43:58.553560+05:30
Cuttack,Odisha,20.4625,85.8828,35.5,59,0.0,998.4,9.15,40.3,103,50.9,43.4,2.7,245.0,125.0,5.6,0,5,10,1,2026-05-25T15:43:58.553567+05:30
Rourkela,Odisha,22.2604,84.8536,36.5,44,0.0,979.6,9.0,43.2,138,65.0,25.7,4.9,258.0,158.0,7.7,0,5,10,1,2026-05-25T15:43:58.553574+05:30
Raipur,Chhattisgarh,21.2514,81.6296,43.1,13,0.0,969.8,9.0,33.8,149,95.7,33.5,6.1,149.0,146.0,21.3,0,5,10,0,2026-05-25T15:43:58.553581+05:30
Bhilai,Chhattisgarh,21.1938,81.3509,42.2,14,0.0,970.2,8.95,26.6,134,87.1,31.9,8.6,141.0,136.0,25.5,0,5,10,0,2026-05-25T15:43:58.553588+05:30
Guwahati,Assam,26.1158,91.7086,25.4,90,0.0,997.7,8.8,28.1,80,20.0,11.3,3.7,289.0,112.0,2.7,7,5,7,1,2026-05-25T15:43:58.553594+05:30
Agartala,Tripura,23.8315,91.2868,26.9,95,0.6,1002.8,8.2,58.0,65,29.1,20.4,7.7,201.0,88.0,1.9,10,5,4,1,2026-05-25T15:43:58.553601+05:30
Shillong,Meghalaya,25.5788,91.8933,19.7,97,0.6,854.7,7.55,44.3,53,12.3,6.4,3.6,211.0,98.0,2.7,6,10,7,1,2026-05-25T15:43:58.553609+05:30
Imphal,Manipur,24.817,93.9368,30.0,51,0.0,920.8,9.3,35.3,90,35.9,18.6,2.3,195.0,93.0,2.1,4,5,7,1,2026-05-25T15:43:58.553616+05:30
Aizawl,Mizoram,23.7271,92.7176,25.7,68,0.1,890.5,9.1,44.3,59,31.8,15.0,1.4,162.0,94.0,1.9,10,5,7,1,2026-05-25T15:43:58.553623+05:30
Kohima,Nagaland,25.6701,94.1077,21.4,94,0.2,854.1,9.3,32.4,64,25.5,11.8,1.9,209.0,94.0,1.4,6,5,7,1,2026-05-25T15:43:58.553629+05:30
Gangtok,Sikkim,27.3314,88.6138,19.0,89,0.1,835.1,9.15,39.2,109,42.6,25.4,1.7,297.0,145.0,3.3,6,10,7,1,2026-05-25T15:43:58.553636+05:30
Siliguri,West Bengal,26.7271,88.3953,29.8,64,0.1,988.2,8.7,32.8,134,55.9,35.2,3.3,445.0,151.0,6.0,10,5,7,1,2026-05-25T15:44:01.846334+05:30
Durgapur,West Bengal,23.5204,87.3119,35.2,61,0.0,988.3,9.0,40.0,164,188.1,62.2,14.0,511.0,209.0,37.0,3,5,10,1,2026-05-25T15:44:01.846365+05:30
Asansol,West Bengal,23.6739,86.9524,40.2,26,0.0,986.2,9.05,36.7,150,208.2,55.5,13.9,379.0,159.0,21.2,0,5,10,1,2026-05-25T15:44:01.846378+05:30
Pondicherry,Puducherry,11.9139,79.8145,35.2,57,0.0,1004.6,8.95,35.3,91,38.8,33.6,9.8,257.0,181.0,12.3,0,5,7,1,2026-05-25T15:44:01.846387+05:30
Port Blair,Andaman and Nicobar Islands,11.6234,92.7265,29.2,74,0.0,1006.2,8.8,31.7,35,11.6,6.6,0.4,120.0,70.0,0.4,7,5,4,1,2026-05-25T15:44:01.846396+05:30
Haridwar,Uttarakhand,29.9457,78.1642,40.0,19,0.0,967.7,7.5,28.4,122,61.5,24.1,1.1,243.0,165.0,6.9,0,5,10,0,2026-05-25T15:44:01.846406+05:30
Rishikesh,Uttarakhand,30.0869,78.2676,38.8,19,0.0,960.9,7.6,20.9,100,65.9,22.5,0.6,217.0,154.0,4.7,0,5,10,0,2026-05-25T15:44:01.846420+05:30
Nainital,Uttarakhand,29.3919,79.4542,24.2,30,0.0,806.5,8.5,48.2,126,116.4,33.2,1.2,242.0,174.0,8.3,0,5,7,0,2026-05-25T15:44:01.846429+05:30
Mussoorie,Uttarakhand,30.4599,78.0664,24.3,25,0.0,804.4,8.05,50.8,106,54.9,23.2,1.3,149.0,163.0,7.1,0,5,7,0,2026-05-25T15:44:01.846437+05:30
Dharamshala,Himachal Pradesh,32.219,76.3234,28.3,23,0.0,868.2,8.45,46.4,77,20.1,8.3,0.1,146.0,137.0,1.0,4,5,7,0,2026-05-25T15:44:01.846446+05:30
Dalhousie,Himachal Pradesh,32.5387,75.971,24.2,25,0.0,806.1,8.65,50.0,82,25.5,11.0,0.3,155.0,138.0,1.2,0,5,7,0,2026-05-25T15:44:01.846455+05:30
Patiala,Punjab,30.3398,76.3869,41.3,14,0.0,971.8,7.6,34.9,127,354.8,49.1,1.5,208.0,148.0,5.0,0,5,10,0,2026-05-25T15:44:01.846463+05:30
Bhatinda,Punjab,30.211,74.9455,41.7,15,0.0,977.4,8.25,28.4,99,88.7,27.1,2.0,178.0,162.0,10.8,0,5,10,0,2026-05-25T15:44:01.846472+05:30
Rohtak,Haryana,28.8955,76.6066,41.4,18,0.0,975.1,7.75,37.8,681,964.9,152.3,2.2,167.0,121.0,4.4,0,5,10,0,2026-05-25T15:44:01.846480+05:30
Panipat,Haryana,29.3909,76.9635,41.9,13,0.0,973.8,7.6,32.8,839,1207.0,177.0,3.8,165.0,148.0,17.1,0,5,10,0,2026-05-25T15:44:01.846488+05:30
Mathura,Uttar Pradesh,27.4924,77.6737,43.5,17,0.0,979.6,8.0,49.0,1176,773.0,93.6,1.7,162.0,113.0,2.7,0,5,10,0,2026-05-25T15:44:01.846495+05:30
Vrindavan,Uttar Pradesh,27.5823,77.7027,43.0,18,0.0,980.1,8.0,45.4,1176,773.0,93.6,1.7,153.0,113.0,2.7,0,5,10,0,2026-05-25T15:44:01.846503+05:30
Ayodhya,Uttar Pradesh,26.7922,82.1998,40.5,24,0.0,987.6,8.35,29.9,168,326.9,80.1,1.6,277.0,180.0,8.7,0,5,10,1,2026-05-25T15:44:01.846511+05:30
Ratlam,Madhya Pradesh,23.3315,75.0367,39.2,23,0.0,952.5,8.55,47.9,59,26.0,15.0,0.6,126.0,107.0,4.7,0,5,10,0,2026-05-25T15:44:01.846519+05:30
Sagar,Madhya Pradesh,23.8388,78.7378,41.0,14,0.0,947.2,8.7,46.1,65,75.0,20.4,0.4,133.0,110.0,2.2,0,5,10,0,2026-05-25T15:44:01.846526+05:30
Satna,Madhya Pradesh,24.6005,80.8322,42.2,12,0.0,966.5,8.75,48.6,67,63.6,20.7,0.7,131.0,117.0,2.2,0,5,10,0,2026-05-25T15:44:01.846534+05:30
Akola,Maharashtra,20.7002,77.0082,42.8,17,0.0,971.0,8.85,45.7,64,49.2,20.7,1.3,144.0,121.0,5.5,0,5,10,0,2026-05-25T15:44:01.846543+05:30
Amravati,Maharashtra,20.9374,77.7796,43.2,13,0.0,963.3,8.1,40.3,67,54.8,21.4,1.4,145.0,122.0,6.1,0,5,10,0,2026-05-25T15:44:01.846553+05:30
Latur,Maharashtra,18.4088,76.5604,36.5,28,0.0,938.2,9.0,46.4,60,46.0,22.2,0.5,146.0,120.0,3.4,0,5,10,0,2026-05-25T15:44:01.846561+05:30
Nanded,Maharashtra,19.1383,77.3091,41.1,22,0.0,965.1,8.95,36.4,63,45.5,21.9,0.6,144.0,122.0,3.6,0,5,10,0,2026-05-25T15:44:01.846569+05:30
Gulbarga,Karnataka,17.3297,76.8343,36.5,38,0.0,956.1,9.05,37.4,56,46.6,23.6,1.0,171.0,136.0,4.7,0,5,10,1,2026-05-25T15:44:01.846576+05:30
Bidar,Karnataka,17.9104,77.5199,37.7,29,0.0,933.7,9.1,38.9,63,49.9,24.4,0.8,154.0,128.0,3.8,0,5,10,1,2026-05-25T15:44:01.846584+05:30
Hospet,Karnataka,15.2689,76.3909,34.7,42,0.0,954.0,9.1,39.2,43,24.9,15.0,2.0,189.0,119.0,3.8,0,5,7,1,2026-05-25T15:44:01.846592+05:30
Tirupur,Tamil Nadu,11.1085,77.3411,35.0,40,0.0,972.8,8.75,64.1,50,16.3,12.2,3.1,176.0,114.0,2.7,0,5,7,1,2026-05-25T15:44:01.846600+05:30
Alappuzha,Kerala,9.4981,76.3388,28.0,86,0.1,1008.9,7.5,32.4,42,9.8,7.1,4.4,109.0,69.0,2.6,10,0,4,1,2026-05-25T15:44:01.846608+05:30
Munnar,Kerala,10.0889,77.0595,19.6,91,0.1,857.6,8.75,30.2,30,11.4,8.0,2.8,163.0,74.0,1.3,6,10,7,1,2026-05-25T15:44:01.846616+05:30
Silchar,Assam,24.8333,92.7789,28.4,84,0.0,1001.2,8.95,30.6,80,16.2,11.9,3.6,216.0,81.0,3.3,7,5,4,1,2026-05-25T15:44:01.846625+05:30
Dibrugarh,Assam,27.4728,94.912,25.1,94,0.2,992.8,8.95,29.2,86,46.4,23.3,2.5,250.0,115.0,2.2,10,5,7,1,2026-05-25T15:44:01.846633+05:30
