city,state,latitude,longitude,temp,humidity,rain,pressure,uv_index,wind_gusts,aqi,pm10,pm2_5,mosquito_risk,arthritis_risk,migraine_risk,frizz_risk,updated_at
Delhi,Delhi,28.6139,77.209,26.4,63,0.0,988.0,5.5,25.6,173,506.6,117.8,7,5,3,1,2026-03-09T23:18:48.610260+05:30
Mumbai,Maharashtra,19.076,72.8777,29.9,60,0.0,1009.3,7.55,24.5,206,29.6,28.9,4,0,4,1,2026-03-09T23:18:48.610304+05:30
Bangalore,Karnataka,12.9716,77.5946,22.4,72,0.0,914.5,9.2,38.2,101,39.8,35.9,3,5,7,1,2026-03-09T23:18:48.610319+05:30
Hyderabad,Telangana,17.385,78.4867,24.1,77,0.0,957.1,8.55,31.3,123,48.4,43.5,3,5,7,1,2026-03-09T23:18:48.610329+05:30
Chennai,Tamil Nadu,13.0827,80.2707,26.0,74,0.0,1012.4,8.95,34.6,89,36.3,26.6,7,0,4,1,2026-03-09T23:18:48.610342+05:30
Kolkata,West Bengal,22.5726,88.3639,24.4,93,0.0,1012.4,7.9,16.6,131,73.8,67.8,3,0,4,1,2026-03-09T23:18:48.610351+05:30
Pune,Maharashtra,18.5204,73.8567,23.8,44,0.0,950.6,8.1,31.0,101,20.3,18.2,0,5,7,0,2026-03-09T23:18:48.610361+05:30
Ahmedabad,Gujarat,23.0225,72.5714,26.9,38,0.0,1006.1,7.35,21.6,79,18.3,16.8,4,5,4,0,2026-03-09T23:18:48.610368+05:30
Jaipur,Rajasthan,26.9124,75.7873,27.2,20,0.0,964.5,6.75,27.7,77,83.1,32.0,4,5,7,0,2026-03-09T23:18:48.610393+05:30
Lucknow,Uttar Pradesh,26.8467,80.9462,25.0,81,0.0,999.4,6.55,22.0,175,166.2,101.5,7,5,7,1,2026-03-09T23:18:48.610401+05:30
Kanpur,Uttar Pradesh,26.4499,80.3319,26.1,63,0.0,997.0,6.55,18.0,163,212.8,84.8,7,5,7,1,2026-03-09T23:18:48.610408+05:30
Chandigarh,Chandigarh,30.7333,76.7794,23.6,70,0.0,973.7,5.95,24.1,104,68.2,59.1,3,5,3,1,2026-03-09T23:18:48.610416+05:30
Srinagar,Jammu and Kashmir,34.0837,74.7973,10.7,79,0.0,845.3,6.5,25.2,143,106.9,72.2,3,5,7,0,2026-03-09T23:18:48.610424+05:30
Jammu,Jammu and Kashmir,32.7266,74.857,21.3,80,0.0,977.5,6.55,18.0,93,54.0,45.5,3,5,7,1,2026-03-09T23:18:48.610431+05:30
Amritsar,Punjab,31.634,74.8723,24.0,76,0.0,985.5,6.5,13.3,163,150.4,128.5,3,5,7,1,2026-03-09T23:18:48.610437+05:30
Ludhiana,Punjab,30.901,75.8573,23.7,72,0.0,983.7,6.15,18.7,157,180.7,123.4,3,5,7,1,2026-03-09T23:18:48.610444+05:30
Jalandhar,Punjab,31.326,75.5762,22.9,83,0.0,985.0,6.35,16.2,159,143.9,109.9,3,5,7,1,2026-03-09T23:18:48.610453+05:30
Dehradun,Uttarakhand,30.6284,78.0322,14.8,95,0.0,834.4,6.3,28.4,94,49.5,35.6,3,10,7,0,2026-03-09T23:18:48.610461+05:30
Shimla,Himachal Pradesh,31.1048,77.1734,14.0,68,0.0,788.7,6.35,48.2,69,47.3,31.7,3,5,7,0,2026-03-09T23:18:48.610467+05:30
Manali,Himachal Pradesh,32.2396,77.1887,18.4,28,0.0,826.3,8.05,35.6,64,29.3,15.1,0,5,7,1,2026-03-09T23:18:48.610474+05:30
Gurgaon,Haryana,28.4595,77.0266,21.9,80,0.0,986.1,5.85,24.5,495,409.8,109.9,3,5,3,1,2026-03-09T23:18:48.610481+05:30
Noida,Uttar Pradesh,28.5355,77.391,25.6,65,0.0,989.6,5.45,24.8,495,409.8,109.9,7,5,3,1,2026-03-09T23:18:48.610488+05:30
Ghaziabad,Uttar Pradesh,28.6692,77.4538,24.5,74,0.0,987.9,5.3,24.1,162,403.3,111.1,3,5,3,1,2026-03-09T23:18:48.610494+05:30
Faridabad,Haryana,28.4089,77.3178,23.4,68,0.0,988.6,5.85,23.0,495,409.8,109.9,3,5,3,1,2026-03-09T23:18:48.610501+05:30
Meerut,Uttar Pradesh,28.9845,77.7064,22.8,83,0.0,986.7,5.7,25.2,162,403.3,111.1,3,5,3,1,2026-03-09T23:18:48.610508+05:30
Agra,Uttar Pradesh,27.1767,78.0081,24.9,69,0.0,992.8,6.4,19.8,184,235.6,102.2,3,5,7,1,2026-03-09T23:18:48.610515+05:30
Varanasi,Uttar Pradesh,25.3176,82.9739,23.3,89,0.0,1003.7,7.2,14.8,186,146.7,140.6,3,5,4,1,2026-03-09T23:18:48.610524+05:30
Prayagraj,Uttar Pradesh,25.4358,81.8463,24.2,77,0.0,1001.7,7.05,15.1,189,133.2,123.9,3,5,4,1,2026-03-09T23:18:48.610531+05:30
Gorakhpur,Uttar Pradesh,26.7606,83.3732,22.2,90,0.0,1004.0,6.9,27.0,205,143.0,134.1,3,5,4,1,2026-03-09T23:18:48.610537+05:30
Bareilly,Uttar Pradesh,28.367,79.4304,22.5,85,0.0,992.2,6.2,16.6,169,123.4,92.9,3,5,7,1,2026-03-09T23:18:48.610544+05:30
Aligarh,Uttar Pradesh,27.8974,78.088,22.6,77,0.0,990.4,6.15,23.8,185,249.6,130.4,3,5,7,1,2026-03-09T23:18:48.610550+05:30
Moradabad,Uttar Pradesh,28.8386,78.7733,22.8,82,0.0,989.0,6.05,18.0,175,143.4,110.4,3,5,7,1,2026-03-09T23:18:48.610557+05:30
Saharanpur,Uttar Pradesh,29.9637,77.546,21.6,85,0.0,980.9,5.65,23.8,160,232.4,109.2,3,5,3,1,2026-03-09T23:18:48.610563+05:30
Jhansi,Uttar Pradesh,25.4484,78.5685,24.2,55,0.0,982.5,7.0,25.6,71,55.4,27.6,0,5,7,0,2026-03-09T23:18:51.968011+05:30
Surat,Gujarat,21.1702,72.8311,28.8,41,0.0,1008.8,7.25,23.8,99,34.3,33.6,4,0,4,0,2026-03-09T23:18:51.968042+05:30
Vadodara,Gujarat,22.3072,73.1812,28.3,39,0.0,1007.3,7.4,17.3,96,31.9,30.7,4,5,4,0,2026-03-09T23:18:51.968052+05:30
Rajkot,Gujarat,22.3039,70.8022,25.6,49,0.0,998.3,7.2,23.0,97,25.6,23.2,4,5,7,0,2026-03-09T23:18:51.968060+05:30
Thane,Maharashtra,19.2183,72.9781,29.5,46,0.0,1008.8,7.55,37.1,206,29.6,28.9,4,0,4,1,2026-03-09T23:18:51.968068+05:30
Nagpur,Maharashtra,21.1458,79.0882,25.9,34,0.0,976.6,7.95,26.6,85,72.6,59.5,4,5,7,0,2026-03-09T23:18:51.968075+05:30
Nashik,Maharashtra,19.9975,73.7898,27.0,30,0.0,948.5,7.75,31.0,106,15.3,14.1,4,5,7,0,2026-03-09T23:18:51.968083+05:30
Aurangabad,Maharashtra,19.8762,75.3433,24.7,45,0.0,946.9,8.25,34.2,95,36.6,33.3,0,5,7,0,2026-03-09T23:18:51.968091+05:30
Solapur,Maharashtra,17.6599,75.9064,24.5,52,0.0,959.4,8.45,25.9,132,29.9,26.8,0,5,7,0,2026-03-09T23:18:51.968099+05:30
Kolhapur,Maharashtra,16.705,74.2433,24.6,39,0.0,949.8,8.6,38.5,132,62.6,60.3,0,5,7,0,2026-03-09T23:18:51.968106+05:30
Goa,Goa,15.2993,74.124,27.3,89,0.0,999.7,8.65,36.0,136,54.9,50.1,7,5,7,1,2026-03-09T23:18:51.968114+05:30
Jodhpur,Rajasthan,26.2389,73.0243,27.3,25,0.0,987.8,7.1,23.4,70,78.9,26.0,4,5,7,0,2026-03-09T23:18:51.968121+05:30
Udaipur,Rajasthan,24.5854,73.7125,22.1,32,0.0,951.4,7.7,17.3,74,15.0,12.4,0,5,7,0,2026-03-09T23:18:51.968129+05:30
Kota,Rajasthan,25.2138,75.8648,26.0,38,0.0,983.2,7.1,17.3,70,35.7,30.2,4,5,7,0,2026-03-09T23:18:51.968136+05:30
Bikaner,Rajasthan,28.0229,73.3119,26.4,29,0.0,986.6,6.7,22.7,59,22.4,11.7,4,5,7,0,2026-03-09T23:18:51.968142+05:30
Ajmer,Rajasthan,26.4499,74.6399,25.6,29,0.0,959.4,7.05,22.7,63,41.8,18.1,4,5,7,0,2026-03-09T23:18:51.968149+05:30
Gwalior,Madhya Pradesh,26.2183,78.1828,25.5,59,0.0,988.0,6.7,21.2,76,126.7,42.0,4,5,7,1,2026-03-09T23:18:51.968156+05:30
Indore,Madhya Pradesh,22.7196,75.8577,22.1,48,0.0,951.5,7.65,26.6,76,41.0,32.1,0,5,7,0,2026-03-09T23:18:51.968163+05:30
Bhopal,Madhya Pradesh,23.2599,77.4126,24.3,45,0.0,957.7,7.5,20.5,78,51.9,29.6,0,5,7,0,2026-03-09T23:18:51.968170+05:30
Jabalpur,Madhya Pradesh,23.1815,79.9864,24.8,46,0.0,965.2,7.65,21.6,94,56.0,34.1,0,5,7,0,2026-03-09T23:18:51.968177+05:30
Ujjain,Madhya Pradesh,23.1765,75.7885,24.0,51,0.0,957.8,7.55,18.4,92,54.0,49.0,0,5,7,0,2026-03-09T23:18:51.968184+05:30
Visakhapatnam,Andhra Pradesh,17.6868,83.2185,24.8,87,0.0,1009.4,8.2,33.5,104,58.6,47.3,3,0,4,1,2026-03-09T23:18:51.968192+05:30
Vijayawada,Andhra Pradesh,16.5062,80.648,25.1,83,0.0,1008.0,8.6,25.6,99,53.0,46.0,7,0,4,1,2026-03-09T23:18:51.968198+05:30
Guntur,Andhra Pradesh,16.3067,80.4365,24.7,85,0.0,1009.2,8.65,27.7,94,49.9,43.7,3,0,4,1,2026-03-09T23:18:51.968206+05:30
Nellore,Andhra Pradesh,14.4426,79.9865,24.5,84,0.0,1011.1,8.8,34.2,82,40.9,30.3,3,0,4,1,2026-03-09T23:18:51.968213+05:30
Kurnool,Andhra Pradesh,15.8281,78.0373,27.4,64,0.0,980.8,8.65,34.6,125,38.5,34.3,7,5,7,1,2026-03-09T23:18:51.968220+05:30
Kakinada,Andhra Pradesh,16.9891,82.2475,23.2,89,0.0,1013.1,8.55,30.2,95,55.2,40.4,3,0,4,1,2026-03-09T23:18:51.968228+05:30
Tirupati,Andhra Pradesh,13.6288,79.4192,22.9,81,0.0,996.8,8.95,36.7,98,57.6,47.6,3,5,7,1,2026-03-09T23:18:51.968234+05:30
Warangal,Telangana,17.9689,79.5941,25.6,82,0.0,982.8,8.4,28.1,112,54.5,50.3,7,5,7,1,2026-03-09T23:18:51.968241+05:30
Nizamabad,Telangana,18.6725,78.0941,25.4,55,0.0,968.1,8.3,31.3,123,57.9,51.8,4,5,7,0,2026-03-09T23:18:51.968248+05:30
Mysore,Karnataka,12.2958,76.6396,23.7,61,0.0,930.7,9.25,38.2,124,39.2,35.0,3,5,7,0,2026-03-09T23:18:51.968255+05:30
Mangalore,Karnataka,12.9141,74.856,28.5,82,0.0,1008.9,8.85,26.3,121,37.8,32.5,7,0,4,1,2026-03-09T23:18:51.968262+05:30
Hubli-Dharwad,Karnataka,15.3647,75.124,27.0,35,0.0,943.0,8.8,37.1,135,36.8,32.0,4,5,7,0,2026-03-09T23:18:51.968269+05:30
Belgaum,Karnataka,15.8497,74.4977,25.0,46,0.0,927.5,8.85,44.6,129,37.1,33.4,4,5,7,0,2026-03-09T23:18:55.325821+05:30
Coimbatore,Tamil Nadu,11.0168,76.9558,25.3,64,0.0,965.3,9.25,49.0,111,47.8,42.3,7,5,7,1,2026-03-09T23:18:55.325853+05:30
Madurai,Tamil Nadu,9.9252,78.1198,24.8,78,0.0,997.1,9.2,38.2,96,49.0,42.0,3,5,7,1,2026-03-09T23:18:55.325864+05:30
Trichy,Tamil Nadu,10.7905,78.7047,24.0,84,0.0,1004.2,9.1,35.6,90,48.3,41.8,3,5,4,1,2026-03-09T23:18:55.325872+05:30
Salem,Tamil Nadu,11.6643,78.146,24.6,72,0.0,981.2,9.15,34.9,113,56.3,48.7,3,5,7,1,2026-03-09T23:18:55.325880+05:30
Tirunelveli,Tamil Nadu,8.7139,77.7567,26.4,68,0.0,1007.0,9.15,37.8,97,48.4,38.2,7,5,4,1,2026-03-09T23:18:55.325888+05:30
Vellore,Tamil Nadu,12.9165,79.1325,23.3,76,0.0,989.6,9.0,41.8,109,63.8,54.2,3,5,7,1,2026-03-09T23:18:55.325895+05:30
Erode,Tamil Nadu,11.341,77.7172,26.5,69,0.0,993.0,9.15,31.3,119,49.4,44.1,7,5,7,1,2026-03-09T23:18:55.325903+05:30
Kochi,Kerala,9.9312,76.2673,26.8,85,0.0,1011.5,8.9,28.8,135,46.2,44.0,7,0,4,1,2026-03-09T23:18:55.325910+05:30
Thiruvananthapuram,Kerala,8.5241,76.9366,27.8,77,0.0,1010.2,9.05,27.4,110,35.4,23.7,7,0,4,1,2026-03-09T23:18:55.325917+05:30
Kozhikode,Kerala,11.2588,75.7804,27.5,85,0.0,1010.4,8.55,24.5,102,31.7,28.2,7,0,4,1,2026-03-09T23:18:55.325924+05:30
Thrissur,Kerala,10.5276,76.2144,26.1,90,0.0,1009.8,9.0,40.0,126,44.9,43.3,7,0,4,1,2026-03-09T23:18:55.325933+05:30
Kannur,Kerala,11.8745,75.3704,28.3,82,0.0,1009.2,8.9,27.0,120,33.3,30.9,7,0,4,1,2026-03-09T23:18:55.325940+05:30
Patna,Bihar,25.5941,85.1376,24.4,83,0.0,1007.1,7.4,29.5,183,124.3,118.0,3,5,4,1,2026-03-09T23:18:55.325947+05:30
Gaya,Bihar,24.7914,85.0002,22.9,93,0.0,1000.2,7.5,25.9,182,111.1,105.5,3,5,4,1,2026-03-09T23:18:55.325954+05:30
Muzaffarpur,Bihar,26.1209,85.3647,23.1,91,0.0,1007.2,7.3,34.2,185,125.3,118.0,3,5,4,1,2026-03-09T23:18:55.325961+05:30
Bhagalpur,Bihar,25.2425,87.0117,24.0,91,0.0,1007.8,3.9,25.9,172,120.6,110.8,3,5,0,1,2026-03-09T23:18:55.325968+05:30
Ranchi,Jharkhand,23.3441,85.3096,21.5,91,0.0,942.7,8.15,25.6,168,94.1,86.4,3,5,7,1,2026-03-09T23:18:55.325974+05:30
Jamshedpur,Jharkhand,22.8046,86.2029,23.1,85,0.0,997.3,8.0,31.3,158,45.3,41.4,3,5,7,1,2026-03-09T23:18:55.325981+05:30
Dhanbad,Jharkhand,23.7957,86.4304,22.9,85,0.0,986.3,7.75,28.8,173,102.0,91.3,3,5,7,1,2026-03-09T23:18:55.325987+05:30
Bokaro,Jharkhand,23.6693,86.1511,22.6,90,0.0,990.4,7.8,25.6,179,98.5,88.5,3,5,7,1,2026-03-09T23:18:55.325994+05:30
Bhubaneswar,Odisha,20.2961,85.8245,25.2,85,0.0,1008.6,8.3,32.8,91,38.3,33.9,7,0,4,1,2026-03-09T23:18:55.326001+05:30
Cuttack,Odisha,20.4625,85.8828,25.6,83,0.0,1010.5,8.35,30.6,91,38.3,33.9,7,0,4,1,2026-03-09T23:18:55.326007+05:30
Rourkela,Odisha,22.2604,84.8536,26.6,73,0.0,990.0,7.9,26.6,165,84.1,74.3,7,5,7,1,2026-03-09T23:18:55.326014+05:30
Raipur,Chhattisgarh,21.2514,81.6296,27.9,35,0.0,978.1,8.0,24.8,163,128.1,105.9,4,5,7,0,2026-03-09T23:18:55.326020+05:30
Bhilai,Chhattisgarh,21.1938,81.3509,26.5,40,0.0,978.4,8.05,24.5,156,112.2,92.2,4,5,7,0,2026-03-09T23:18:55.326027+05:30
Guwahati,Assam,26.1158,91.7086,23.8,81,0.0,1008.8,7.3,11.5,154,70.5,65.7,3,0,4,1,2026-03-09T23:18:55.326033+05:30
Agartala,Tripura,23.8315,91.2868,23.4,79,0.0,1012.9,7.7,12.2,162,114.6,103.1,3,0,4,1,2026-03-09T23:18:55.326040+05:30
Shillong,Meghalaya,25.5788,91.8933,11.1,97,0.0,860.2,6.45,22.0,154,77.5,71.0,3,10,7,0,2026-03-09T23:18:55.326047+05:30
Imphal,Manipur,24.817,93.9368,16.4,94,0.0,929.0,7.95,31.0,161,111.8,107.1,3,10,7,0,2026-03-09T23:18:55.326054+05:30
Aizawl,Mizoram,23.7271,92.7176,16.6,84,0.0,897.4,7.85,26.3,165,96.9,88.0,3,10,7,0,2026-03-09T23:18:55.326061+05:30
Kohima,Nagaland,25.6701,94.1077,14.7,78,0.0,859.7,7.0,53.3,154,76.1,72.4,3,5,7,0,2026-03-09T23:18:55.326067+05:30
Gangtok,Sikkim,27.3314,88.6138,13.6,73,0.0,842.3,4.8,16.9,158,94.8,78.2,3,5,3,0,2026-03-09T23:18:55.326074+05:30
Siliguri,West Bengal,26.7271,88.3953,21.5,57,0.0,1001.3,7.35,18.4,164,112.2,89.4,0,5,4,0,2026-03-09T23:18:58.681013+05:30
Durgapur,West Bengal,23.5204,87.3119,23.6,89,0.0,1002.2,7.8,25.2,163,84.5,76.1,3,5,4,1,2026-03-09T23:18:58.681043+05:30
Asansol,West Bengal,23.6739,86.9524,23.2,88,0.0,1000.7,7.55,25.6,165,92.4,82.2,3,5,4,1,2026-03-09T23:18:58.681053+05:30
Pondicherry,Puducherry,11.9139,79.8145,24.4,85,0.0,1013.4,8.95,33.1,84,34.3,24.5,3,0,4,1,2026-03-09T23:18:58.681061+05:30
Port Blair,Andaman and Nicobar Islands,11.6234,92.7265,27.6,81,0.0,1010.1,8.9,23.8,86,30.9,26.5,7,0,4,1,2026-03-09T23:18:58.681069+05:30
Haridwar,Uttarakhand,29.9457,78.1642,22.4,91,0.0,979.8,5.8,24.5,156,84.5,68.7,3,5,3,1,2026-03-09T23:18:58.681077+05:30
Rishikesh,Uttarakhand,30.0869,78.2676,21.6,88,0.0,972.7,5.85,24.8,152,80.3,57.9,3,5,3,1,2026-03-09T23:18:58.681085+05:30
Nainital,Uttarakhand,29.3919,79.4542,17.7,83,0.0,810.6,6.65,54.0,160,122.5,86.8,3,10,7,0,2026-03-09T23:18:58.681093+05:30
Mussoorie,Uttarakhand,30.4599,78.0664,16.1,80,0.0,806.9,6.2,40.7,150,91.0,66.1,3,5,7,0,2026-03-09T23:18:58.681100+05:30
Dharamshala,Himachal Pradesh,32.219,76.3234,21.7,46,0.0,874.4,6.4,23.0,54,37.6,21.5,0,5,7,0,2026-03-09T23:18:58.681107+05:30
Dalhousie,Himachal Pradesh,32.5387,75.971,18.1,51,0.0,808.4,6.65,22.0,79,57.6,44.4,0,5,7,0,2026-03-09T23:18:58.681115+05:30
Patiala,Punjab,30.3398,76.3869,22.7,75,0.0,983.2,5.25,20.9,167,220.3,109.9,3,5,3,1,2026-03-09T23:18:58.681122+05:30
Bhatinda,Punjab,30.211,74.9455,23.8,65,0.0,988.3,6.35,20.5,155,113.9,88.9,3,5,7,1,2026-03-09T23:18:58.681129+05:30
Rohtak,Haryana,28.8955,76.6066,21.9,77,0.0,986.6,6.05,25.9,185,543.9,124.8,3,5,7,1,2026-03-09T23:18:58.681136+05:30
Panipat,Haryana,29.3909,76.9635,21.9,84,0.0,985.5,5.75,25.6,548,605.4,130.4,3,5,3,1,2026-03-09T23:18:58.681143+05:30
Mathura,Uttar Pradesh,27.4924,77.6737,22.2,71,0.0,991.9,6.3,23.8,165,231.0,100.6,3,5,7,1,2026-03-09T23:18:58.681149+05:30
Vrindavan,Uttar Pradesh,27.5823,77.7027,22.8,71,0.0,992.2,6.25,25.2,165,231.0,100.6,3,5,7,1,2026-03-09T23:18:58.681156+05:30
Ayodhya,Uttar Pradesh,26.7922,82.1998,23.5,89,0.0,1001.9,6.7,18.7,198,156.5,148.5,3,5,4,1,2026-03-09T23:18:58.681163+05:30
Ratlam,Madhya Pradesh,23.3315,75.0367,21.4,67,0.0,958.0,7.5,12.2,78,33.2,32.0,3,5,7,0,2026-03-09T23:18:58.681169+05:30
Sagar,Madhya Pradesh,23.8388,78.7378,25.4,38,0.0,954.2,7.5,17.3,71,29.3,15.0,4,5,7,0,2026-03-09T23:18:58.681176+05:30
Satna,Madhya Pradesh,24.6005,80.8322,24.2,65,0.0,976.3,7.45,18.7,129,85.9,31.9,3,5,7,1,2026-03-09T23:18:58.681182+05:30
Akola,Maharashtra,20.7002,77.0082,27.7,49,0.0,978.0,7.95,16.9,85,33.3,28.8,4,5,7,0,2026-03-09T23:18:58.681190+05:30
Amravati,Maharashtra,20.9374,77.7796,25.6,46,0.0,970.5,7.9,24.8,72,39.5,33.4,4,5,7,0,2026-03-09T23:18:58.681197+05:30
Latur,Maharashtra,18.4088,76.5604,23.7,47,0.0,942.8,8.4,29.5,116,43.4,35.4,0,5,7,0,2026-03-09T23:18:58.681204+05:30
Nanded,Maharashtra,19.1383,77.3091,27.1,43,0.0,971.8,8.15,29.5,92,56.0,46.0,4,5,7,0,2026-03-09T23:18:58.681211+05:30
Gulbarga,Karnataka,17.3297,76.8343,27.6,41,0.0,962.2,8.5,34.6,140,37.1,33.8,4,5,7,0,2026-03-09T23:18:58.681216+05:30
Bidar,Karnataka,17.9104,77.5199,24.8,56,0.0,938.8,8.45,33.5,115,45.2,40.4,0,5,7,0,2026-03-09T23:18:58.681223+05:30
Hospet,Karnataka,15.2689,76.3909,28.1,47,0.0,958.8,8.75,35.3,128,47.6,41.6,4,5,7,0,2026-03-09T23:18:58.681229+05:30
Tirupur,Tamil Nadu,11.1085,77.3411,26.2,63,0.0,979.1,9.25,39.2,122,49.7,44.9,7,5,7,1,2026-03-09T23:18:58.681235+05:30
Alappuzha,Kerala,9.4981,76.3388,26.9,85,0.0,1011.5,8.95,25.9,126,47.0,44.4,7,0,4,1,2026-03-09T23:18:58.681242+05:30
Munnar,Kerala,10.0889,77.0595,20.4,78,0.0,858.3,9.55,24.8,98,47.8,40.6,3,5,7,1,2026-03-09T23:18:58.681249+05:30
Silchar,Assam,24.8333,92.7789,23.0,92,0.0,1012.0,7.65,14.0,171,134.1,123.4,3,0,4,1,2026-03-09T23:18:58.681255+05:30
Dibrugarh,Assam,27.4728,94.912,23.7,88,0.0,1002.9,7.4,15.8,162,88.7,81.3,3,5,4,1,2026-03-09T23:18:58.681262+05:30
