city,state,latitude,longitude,temp,humidity,rain,pressure,uv_index,wind_gusts,aqi,pm10,pm2_5,no2,co,o3,so2,mosquito_risk,arthritis_risk,migraine_risk,frizz_risk,updated_at
Delhi,Delhi,28.6139,77.209,33.3,22,0.0,977.4,7.7,39.6,562,543.9,125.3,28.7,578.0,52.0,13.5,0,5,7,0,2026-05-26T02:42:03.778188+05:30
Mumbai,Maharashtra,19.076,72.8777,29.8,75,0.0,1007.7,7.85,38.5,53,17.2,11.6,5.1,275.0,43.0,4.0,7,5,4,1,2026-05-26T02:42:03.778230+05:30
Bangalore,Karnataka,12.9716,77.5946,22.4,89,0.0,911.1,9.25,26.6,61,21.2,19.3,16.6,348.0,67.0,5.6,3,5,7,1,2026-05-26T02:42:03.778245+05:30
Hyderabad,Telangana,17.385,78.4867,29.6,51,0.0,951.3,8.95,33.8,93,42.4,30.9,18.3,211.0,66.0,10.0,4,5,7,1,2026-05-26T02:42:03.778255+05:30
Chennai,Tamil Nadu,13.0827,80.2707,30.4,67,0.0,1004.3,9.05,41.8,73,23.5,20.5,14.1,347.0,69.0,11.1,3,5,4,1,2026-05-26T02:42:03.778263+05:30
Kolkata,West Bengal,22.5726,88.3639,29.2,88,0.0,1002.1,8.95,39.6,97,27.1,22.7,5.2,236.0,82.0,4.5,7,5,4,1,2026-05-26T02:42:03.778270+05:30
Pune,Maharashtra,18.5204,73.8567,24.9,90,0.0,947.5,8.45,38.5,51,12.2,10.1,12.7,144.0,35.0,13.9,3,5,7,1,2026-05-26T02:42:03.778277+05:30
Ahmedabad,Gujarat,23.0225,72.5714,29.9,68,0.0,1000.6,8.15,36.4,77,47.1,21.3,4.3,130.0,47.0,3.8,7,5,4,1,2026-05-26T02:42:03.778284+05:30
Jaipur,Rajasthan,26.9124,75.7873,32.7,44,0.0,956.5,8.25,37.1,235,445.2,96.4,3.6,144.0,64.0,4.8,0,5,7,1,2026-05-26T02:42:03.778295+05:30
Lucknow,Uttar Pradesh,26.8467,80.9462,32.4,27,0.0,987.7,8.2,45.0,420,482.4,148.1,53.3,314.0,15.0,15.8,0,5,7,0,2026-05-26T02:42:03.778303+05:30
Kanpur,Uttar Pradesh,26.4499,80.3319,33.0,29,0.0,985.7,8.2,48.2,439,228.2,67.1,34.7,286.0,19.0,9.0,0,5,7,0,2026-05-26T02:42:03.778310+05:30
Chandigarh,Chandigarh,30.7333,76.7794,25.4,34,0.0,962.7,7.75,43.9,87,37.6,32.6,35.4,481.0,25.0,7.2,4,5,7,0,2026-05-26T02:42:03.778317+05:30
Srinagar,Jammu and Kashmir,34.0837,74.7973,10.6,100,0.0,842.1,9.0,18.7,63,44.9,42.6,30.2,642.0,15.0,0.2,3,10,7,0,2026-05-26T02:42:03.778324+05:30
Jammu,Jammu and Kashmir,32.7266,74.857,26.6,34,0.0,967.8,8.55,37.4,67,21.7,19.4,19.8,154.0,34.0,2.2,4,5,7,0,2026-05-26T02:42:03.778331+05:30
Amritsar,Punjab,31.634,74.8723,27.6,29,0.0,975.2,8.4,31.0,81,28.1,20.4,11.7,350.0,78.0,3.7,4,5,7,0,2026-05-26T02:42:03.778337+05:30
Ludhiana,Punjab,30.901,75.8573,29.6,26,0.0,973.1,8.0,38.9,83,24.6,21.5,13.7,366.0,66.0,5.7,4,5,7,0,2026-05-26T02:42:03.778343+05:30
Jalandhar,Punjab,31.326,75.5762,28.4,28,0.0,974.0,8.2,37.1,80,25.7,18.8,12.2,524.0,77.0,3.8,4,5,7,0,2026-05-26T02:42:03.778349+05:30
Dehradun,Uttarakhand,30.6284,78.0322,13.6,68,0.0,825.0,8.2,40.3,61,36.0,17.1,27.2,172.0,25.0,0.4,3,5,7,0,2026-05-26T02:42:03.778356+05:30
Shimla,Himachal Pradesh,31.1048,77.1734,12.8,35,0.0,780.0,8.3,56.9,61,28.7,16.0,13.9,202.0,77.0,1.9,0,5,7,1,2026-05-26T02:42:03.778364+05:30
Manali,Himachal Pradesh,32.2396,77.1887,11.1,57,0.0,814.2,9.3,42.8,58,1.7,1.0,8.9,186.0,111.0,0.0,0,5,7,0,2026-05-26T02:42:03.778372+05:30
Gurgaon,Haryana,28.4595,77.0266,29.4,36,0.0,976.1,7.8,34.9,1565,726.4,153.7,33.8,614.0,50.0,20.4,4,5,7,0,2026-05-26T02:42:03.778381+05:30
Noida,Uttar Pradesh,28.5355,77.391,32.6,27,0.0,978.5,7.75,34.9,1565,726.4,153.7,33.8,600.0,50.0,20.4,0,5,7,0,2026-05-26T02:42:03.778387+05:30
Ghaziabad,Uttar Pradesh,28.6692,77.4538,30.6,29,0.0,976.7,7.7,37.1,461,555.1,157.4,50.4,761.0,30.0,25.9,0,5,7,0,2026-05-26T02:42:03.778394+05:30
Faridabad,Haryana,28.4089,77.3178,33.3,24,0.0,977.9,7.75,39.6,1565,726.4,153.7,33.8,629.0,50.0,20.4,0,5,7,0,2026-05-26T02:42:03.778400+05:30
Meerut,Uttar Pradesh,28.9845,77.7064,31.4,26,0.0,975.8,7.65,37.8,461,555.1,157.4,50.4,630.0,30.0,25.9,0,5,7,0,2026-05-26T02:42:03.778406+05:30
Agra,Uttar Pradesh,27.1767,78.0081,33.7,29,0.0,982.3,8.05,37.4,1082,1333.7,185.3,14.6,202.0,46.0,6.8,0,5,7,0,2026-05-26T02:42:03.778414+05:30
Varanasi,Uttar Pradesh,25.3176,82.9739,31.3,62,0.0,991.7,8.75,45.7,120,60.5,34.7,25.2,675.0,39.0,7.5,3,5,7,1,2026-05-26T02:42:03.778423+05:30
Prayagraj,Uttar Pradesh,25.4358,81.8463,31.8,31,0.0,989.3,8.6,43.9,144,107.1,52.7,32.6,346.0,28.0,8.3,0,5,7,0,2026-05-26T02:42:03.778430+05:30
Gorakhpur,Uttar Pradesh,26.7606,83.3732,26.2,74,0.0,993.5,8.6,41.8,157,77.8,66.4,9.7,326.0,112.0,17.4,7,5,7,1,2026-05-26T02:42:03.778438+05:30
Bareilly,Uttar Pradesh,28.367,79.4304,29.1,36,0.0,980.5,8.0,30.6,168,203.0,81.3,23.3,790.0,77.0,11.3,4,5,7,0,2026-05-26T02:42:03.778444+05:30
Aligarh,Uttar Pradesh,27.8974,78.088,30.9,34,0.0,979.4,7.85,37.8,1033,491.7,150.9,44.6,598.0,18.0,12.9,0,5,7,0,2026-05-26T02:42:03.778451+05:30
Moradabad,Uttar Pradesh,28.8386,78.7733,30.1,32,0.0,977.3,7.85,36.7,167,273.8,120.1,53.4,937.0,57.0,23.5,0,5,7,0,2026-05-26T02:42:03.778457+05:30
Saharanpur,Uttar Pradesh,29.9637,77.546,28.4,28,0.0,969.7,7.4,45.4,118,59.8,41.0,33.0,395.0,31.0,8.9,4,5,7,0,2026-05-26T02:42:03.778463+05:30
Jhansi,Uttar Pradesh,25.4484,78.5685,34.8,22,0.0,973.5,8.45,46.1,55,30.2,20.1,5.5,153.0,75.0,8.1,0,5,7,0,2026-05-26T02:42:07.149049+05:30
Surat,Gujarat,21.1702,72.8311,29.6,80,0.0,1005.6,7.7,43.2,61,23.8,15.8,16.8,262.0,34.0,28.0,7,5,4,1,2026-05-26T02:42:07.149080+05:30
Vadodara,Gujarat,22.3072,73.1812,30.4,78,0.0,1002.7,8.1,39.6,52,16.9,13.6,16.8,227.0,28.0,17.6,3,5,4,1,2026-05-26T02:42:07.149090+05:30
Rajkot,Gujarat,22.3039,70.8022,28.0,78,0.0,992.7,7.7,45.0,66,34.8,15.9,4.5,118.0,43.0,5.2,7,5,7,1,2026-05-26T02:42:07.149099+05:30
Thane,Maharashtra,19.2183,72.9781,28.6,87,0.0,1007.1,7.85,33.8,53,17.2,11.6,5.1,429.0,43.0,4.0,7,5,4,1,2026-05-26T02:42:07.149107+05:30
Nagpur,Maharashtra,21.1458,79.0882,34.8,25,0.0,969.6,8.9,42.1,79,62.9,30.5,12.8,304.0,64.0,8.4,0,5,7,0,2026-05-26T02:42:07.149115+05:30
Nashik,Maharashtra,19.9975,73.7898,25.1,91,0.0,945.1,8.15,36.7,35,10.9,7.9,4.7,129.0,39.0,2.0,7,5,7,1,2026-05-26T02:42:07.149122+05:30
Aurangabad,Maharashtra,19.8762,75.3433,27.5,76,0.0,943.2,9.0,34.6,50,12.2,8.8,8.7,158.0,41.0,6.0,7,5,7,1,2026-05-26T02:42:07.149129+05:30
Solapur,Maharashtra,17.6599,75.9064,28.6,69,0.0,956.6,8.95,40.0,61,14.6,13.3,7.4,183.0,81.0,7.3,7,5,7,1,2026-05-26T02:42:07.149137+05:30
Kolhapur,Maharashtra,16.705,74.2433,24.4,94,0.0,947.6,6.95,42.8,36,9.1,7.2,5.4,140.0,39.0,2.2,3,5,7,1,2026-05-26T02:42:07.149144+05:30
Goa,Goa,15.2993,74.124,26.9,95,0.0,997.6,7.2,25.9,37,14.0,10.9,4.7,457.0,42.0,1.5,7,5,7,1,2026-05-26T02:42:07.149151+05:30
Jodhpur,Rajasthan,26.2389,73.0243,32.8,48,0.0,979.6,8.4,39.2,261,291.5,70.1,2.6,130.0,57.0,2.6,0,5,7,1,2026-05-26T02:42:07.149159+05:30
Udaipur,Rajasthan,24.5854,73.7125,28.7,54,0.0,944.6,8.85,36.4,82,45.4,25.5,3.0,134.0,60.0,2.7,4,5,7,1,2026-05-26T02:42:07.149167+05:30
Kota,Rajasthan,25.2138,75.8648,33.7,28,0.0,975.7,8.4,36.7,60,39.3,25.6,5.5,167.0,63.0,5.3,0,5,7,0,2026-05-26T02:42:07.149175+05:30
Bikaner,Rajasthan,28.0229,73.3119,32.7,33,0.0,977.2,8.4,41.0,176,243.1,82.9,4.1,172.0,65.0,2.8,0,5,7,0,2026-05-26T02:42:07.149182+05:30
Ajmer,Rajasthan,26.4499,74.6399,31.2,46,0.0,951.9,8.4,46.4,117,90.1,37.6,3.0,134.0,59.0,3.6,0,5,7,1,2026-05-26T02:42:07.149189+05:30
Gwalior,Madhya Pradesh,26.2183,78.1828,34.4,31,0.0,978.2,8.25,45.7,64,78.5,38.1,4.4,149.0,66.0,3.2,0,5,7,0,2026-05-26T02:42:07.149196+05:30
Indore,Madhya Pradesh,22.7196,75.8577,30.4,48,0.0,946.8,8.65,41.8,61,15.4,13.4,5.1,195.0,82.0,9.4,0,5,7,1,2026-05-26T02:42:07.149204+05:30
Bhopal,Madhya Pradesh,23.2599,77.4126,33.0,31,0.0,951.1,8.7,40.0,69,24.6,18.9,4.0,183.0,80.0,5.6,0,5,7,0,2026-05-26T02:42:07.149211+05:30
Jabalpur,Madhya Pradesh,23.1815,79.9864,33.8,24,0.0,958.1,8.85,39.2,75,48.4,24.3,6.3,213.0,79.0,3.6,0,5,7,0,2026-05-26T02:42:07.149219+05:30
Ujjain,Madhya Pradesh,23.1765,75.7885,30.4,48,0.0,952.3,8.6,39.6,58,14.7,12.6,5.0,193.0,74.0,10.8,0,5,7,1,2026-05-26T02:42:07.149227+05:30
Visakhapatnam,Andhra Pradesh,17.6868,83.2185,30.7,85,0.0,1000.4,9.05,37.4,112,37.1,29.6,29.1,408.0,88.0,44.6,3,5,4,1,2026-05-26T02:42:07.149234+05:30
Vijayawada,Andhra Pradesh,16.5062,80.648,31.9,70,0.0,998.6,9.1,38.9,95,27.7,25.1,7.0,372.0,118.0,9.2,3,5,7,1,2026-05-26T02:42:07.149241+05:30
Guntur,Andhra Pradesh,16.3067,80.4365,32.1,58,0.0,999.8,9.1,40.7,88,29.0,26.4,9.7,263.0,101.0,8.7,0,5,7,1,2026-05-26T02:42:07.149249+05:30
Nellore,Andhra Pradesh,14.4426,79.9865,30.5,56,0.0,1002.3,9.0,35.3,75,20.0,17.3,6.1,258.0,89.0,4.7,0,5,4,1,2026-05-26T02:42:07.149257+05:30
Kurnool,Andhra Pradesh,15.8281,78.0373,29.1,65,0.0,975.2,9.05,62.3,66,13.8,11.9,9.9,187.0,56.0,5.2,7,5,7,1,2026-05-26T02:42:07.149266+05:30
Kakinada,Andhra Pradesh,16.9891,82.2475,32.2,69,0.0,1003.7,9.0,40.3,76,31.3,23.3,2.5,233.0,121.0,2.8,3,5,4,1,2026-05-26T02:42:07.149273+05:30
Tirupati,Andhra Pradesh,13.6288,79.4192,27.9,60,0.0,988.4,9.1,25.9,62,18.3,16.2,9.4,213.0,70.0,2.4,4,5,7,1,2026-05-26T02:42:07.149280+05:30
Warangal,Telangana,17.9689,79.5941,32.0,45,0.0,975.2,9.1,43.9,97,46.6,32.7,12.3,326.0,71.0,5.6,0,5,7,1,2026-05-26T02:42:07.149287+05:30
Nizamabad,Telangana,18.6725,78.0941,31.5,46,0.0,962.6,9.05,35.3,80,44.0,28.8,9.4,200.0,86.0,9.0,0,5,7,1,2026-05-26T02:42:07.149294+05:30
Mysore,Karnataka,12.2958,76.6396,23.1,88,0.0,928.0,9.15,41.8,54,16.9,14.7,12.7,241.0,45.0,3.0,3,5,7,1,2026-05-26T02:42:07.149300+05:30
Mangalore,Karnataka,12.9141,74.856,26.2,91,0.0,1006.6,8.05,32.0,65,32.6,27.3,20.3,369.0,24.0,5.6,7,5,4,1,2026-05-26T02:42:07.149307+05:30
Hubli-Dharwad,Karnataka,15.3647,75.124,24.0,96,0.0,940.6,8.5,47.9,28,4.6,3.8,4.6,155.0,39.0,1.2,3,5,7,1,2026-05-26T02:42:07.149314+05:30
Belgaum,Karnataka,15.8497,74.4977,22.9,98,0.0,925.4,9.0,41.4,27,4.8,3.7,3.6,144.0,41.0,1.2,3,5,7,1,2026-05-26T02:42:10.527533+05:30
Coimbatore,Tamil Nadu,11.0168,76.9558,25.1,84,0.0,961.1,8.85,52.2,37,10.6,8.3,5.7,164.0,50.0,3.2,7,5,7,1,2026-05-26T02:42:10.527565+05:30
Madurai,Tamil Nadu,9.9252,78.1198,28.1,72,0.0,991.8,8.5,40.0,70,42.1,39.8,45.7,218.0,2.0,8.0,7,5,7,1,2026-05-26T02:42:10.527575+05:30
Trichy,Tamil Nadu,10.7905,78.7047,28.1,71,0.0,998.4,8.95,32.4,54,8.1,7.4,10.9,203.0,42.0,3.9,7,5,7,1,2026-05-26T02:42:10.527585+05:30
Salem,Tamil Nadu,11.6643,78.146,27.6,71,0.0,976.7,9.0,40.0,71,26.9,24.1,20.2,197.0,54.0,9.0,7,5,7,1,2026-05-26T02:42:10.527593+05:30
Tirunelveli,Tamil Nadu,8.7139,77.7567,28.8,69,0.0,1002.4,8.45,26.3,36,13.4,10.9,8.9,210.0,34.0,2.4,7,5,4,1,2026-05-26T02:42:10.527601+05:30
Vellore,Tamil Nadu,12.9165,79.1325,28.0,65,0.0,982.4,9.0,36.4,68,24.9,23.2,13.2,270.0,57.0,4.2,7,5,7,1,2026-05-26T02:42:10.527609+05:30
Erode,Tamil Nadu,11.341,77.7172,27.2,75,0.0,988.2,8.9,43.9,49,13.1,11.7,15.3,226.0,36.0,4.1,7,5,7,1,2026-05-26T02:42:10.527617+05:30
Kochi,Kerala,9.9312,76.2673,25.8,91,0.0,1009.6,8.15,29.9,58,21.4,19.9,22.0,389.0,11.0,5.6,7,0,4,1,2026-05-26T02:42:10.527624+05:30
Thiruvananthapuram,Kerala,8.5241,76.9366,24.9,97,0.0,1009.1,7.65,33.1,36,10.9,7.0,2.5,273.0,66.0,1.2,3,0,4,1,2026-05-26T02:42:10.527631+05:30
Kozhikode,Kerala,11.2588,75.7804,26.0,92,0.0,1007.9,7.6,31.0,36,11.1,7.2,1.7,570.0,62.0,0.9,7,5,4,1,2026-05-26T02:42:10.527638+05:30
Thrissur,Kerala,10.5276,76.2144,24.9,96,0.0,1007.3,8.6,30.2,56,16.6,15.6,15.8,300.0,20.0,4.5,3,5,4,1,2026-05-26T02:42:10.527646+05:30
Kannur,Kerala,11.8745,75.3704,26.6,87,0.0,1007.1,8.25,32.8,63,31.2,26.5,23.7,357.0,19.0,3.5,7,5,4,1,2026-05-26T02:42:10.527653+05:30
Patna,Bihar,25.5941,85.1376,27.4,85,0.0,995.5,8.8,38.2,157,34.3,30.2,11.1,413.0,101.0,16.0,7,5,7,1,2026-05-26T02:42:10.527660+05:30
Gaya,Bihar,24.7914,85.0002,28.6,83,0.0,988.5,8.9,37.4,157,105.7,67.3,38.4,475.0,33.0,14.0,7,5,7,1,2026-05-26T02:42:10.527667+05:30
Muzaffarpur,Bihar,26.1209,85.3647,26.0,82,0.0,996.6,8.8,45.7,157,35.0,30.5,10.3,328.0,95.0,12.3,7,5,7,1,2026-05-26T02:42:10.527673+05:30
Bhagalpur,Bihar,25.2425,87.0117,25.2,92,0.0,998.3,8.8,41.0,110,41.4,38.0,14.7,379.0,72.0,9.0,7,5,7,1,2026-05-26T02:42:10.527702+05:30
Ranchi,Jharkhand,23.3441,85.3096,26.1,60,0.0,933.9,9.1,43.6,109,59.6,37.0,16.9,312.0,78.0,11.9,4,5,7,1,2026-05-26T02:42:10.527711+05:30
Jamshedpur,Jharkhand,22.8046,86.2029,29.3,70,0.0,986.6,9.05,43.2,114,53.3,48.7,15.8,281.0,88.0,22.0,7,5,7,1,2026-05-26T02:42:10.527718+05:30
Dhanbad,Jharkhand,23.7957,86.4304,29.2,56,0.0,975.1,9.05,31.3,158,95.5,70.1,65.7,277.0,40.0,101.3,4,5,7,1,2026-05-26T02:42:10.527726+05:30
Bokaro,Jharkhand,23.6693,86.1511,29.4,52,0.0,978.7,9.0,34.6,156,86.8,65.0,46.8,302.0,27.0,62.3,4,5,7,1,2026-05-26T02:42:10.527733+05:30
Bhubaneswar,Odisha,20.2961,85.8245,29.5,89,0.0,998.7,9.1,39.6,98,21.9,18.0,3.7,198.0,87.0,3.7,7,5,7,1,2026-05-26T02:42:10.527739+05:30
Cuttack,Odisha,20.4625,85.8828,29.5,90,0.0,1000.6,9.15,36.0,98,21.9,18.0,3.7,202.0,87.0,3.7,7,5,4,1,2026-05-26T02:42:10.527746+05:30
Rourkela,Odisha,22.2604,84.8536,29.2,70,0.0,981.1,8.75,40.3,116,86.4,64.7,36.2,276.0,68.0,25.3,7,5,7,1,2026-05-26T02:42:10.527752+05:30
Raipur,Chhattisgarh,21.2514,81.6296,32.9,33,0.0,970.4,8.95,35.6,129,66.8,46.9,38.5,605.0,37.0,39.3,0,5,7,0,2026-05-26T02:42:10.527760+05:30
Bhilai,Chhattisgarh,21.1938,81.3509,32.2,36,0.0,970.7,8.95,40.0,121,60.5,40.9,35.5,841.0,35.0,38.1,0,5,7,0,2026-05-26T02:42:10.527766+05:30
Guwahati,Assam,26.1158,91.7086,22.6,98,0.0,1000.5,8.75,25.9,57,19.4,12.4,5.7,298.0,86.0,2.5,3,5,4,1,2026-05-26T02:42:10.527774+05:30
Agartala,Tripura,23.8315,91.2868,25.4,98,0.0,1004.7,8.75,34.9,69,20.8,18.2,8.1,193.0,60.0,3.1,7,5,4,1,2026-05-26T02:42:10.527781+05:30
Shillong,Meghalaya,25.5788,91.8933,18.5,93,0.0,855.1,8.85,36.0,34,5.4,3.2,4.9,203.0,76.0,3.8,3,10,7,1,2026-05-26T02:42:10.527789+05:30
Imphal,Manipur,24.817,93.9368,20.5,100,0.0,922.2,9.25,32.4,74,4.8,4.1,5.4,276.0,58.0,2.1,3,5,7,1,2026-05-26T02:42:10.527796+05:30
Aizawl,Mizoram,23.7271,92.7176,17.8,96,0.0,890.5,9.05,36.0,54,13.3,8.8,2.1,162.0,58.0,1.1,3,10,7,1,2026-05-26T02:42:10.527803+05:30
Kohima,Nagaland,25.6701,94.1077,16.6,91,0.0,853.0,8.65,32.0,59,13.6,7.5,3.9,248.0,64.0,1.4,3,10,7,0,2026-05-26T02:42:10.527810+05:30
Gangtok,Sikkim,27.3314,88.6138,14.3,96,0.1,834.7,9.2,40.3,86,22.1,15.4,6.1,330.0,120.0,3.4,6,10,7,0,2026-05-26T02:42:10.527817+05:30
Siliguri,West Bengal,26.7271,88.3953,22.3,97,0.1,991.8,8.7,27.7,122,48.4,33.1,11.5,336.0,102.0,3.6,6,5,7,1,2026-05-26T02:42:13.921852+05:30
Durgapur,West Bengal,23.5204,87.3119,28.6,94,0.0,990.4,8.95,33.8,149,56.3,53.8,23.4,574.0,70.0,34.3,7,5,7,1,2026-05-26T02:42:13.921885+05:30
Asansol,West Bengal,23.6739,86.9524,28.4,95,0.0,988.8,9.0,35.6,149,64.3,54.6,36.9,437.0,62.0,48.7,7,5,7,1,2026-05-26T02:42:13.921896+05:30
Pondicherry,Puducherry,11.9139,79.8145,28.8,82,0.0,1006.1,8.8,45.0,69,12.8,10.8,13.4,237.0,46.0,10.0,7,5,4,1,2026-05-26T02:42:13.921904+05:30
Port Blair,Andaman and Nicobar Islands,11.6234,92.7265,23.5,100,0.1,1007.5,4.65,38.5,30,13.2,7.1,0.2,103.0,65.0,0.4,6,5,0,1,2026-05-26T02:42:13.921913+05:30
Haridwar,Uttarakhand,29.9457,78.1642,25.1,44,0.0,967.5,7.55,32.8,99,47.3,34.1,25.9,224.0,35.0,5.3,4,5,7,0,2026-05-26T02:42:13.921921+05:30
Rishikesh,Uttarakhand,30.0869,78.2676,21.8,52,0.0,960.5,7.65,29.9,88,58.0,32.1,11.6,294.0,82.0,3.8,0,5,7,0,2026-05-26T02:42:13.921929+05:30
Nainital,Uttarakhand,29.3919,79.4542,16.5,50,0.0,802.8,8.5,35.6,104,89.4,45.2,30.3,219.0,43.0,6.0,0,5,7,0,2026-05-26T02:42:13.921937+05:30
Mussoorie,Uttarakhand,30.4599,78.0664,17.5,40,0.0,800.4,8.05,54.0,81,54.8,28.9,27.9,183.0,44.0,4.0,0,5,7,0,2026-05-26T02:42:13.921944+05:30
Dharamshala,Himachal Pradesh,32.219,76.3234,21.3,25,0.0,865.5,8.45,45.0,33,7.6,5.6,6.9,151.0,67.0,0.2,0,5,7,0,2026-05-26T02:42:13.921952+05:30
Dalhousie,Himachal Pradesh,32.5387,75.971,11.6,49,0.0,798.8,8.7,42.1,54,14.1,12.1,17.3,226.0,44.0,0.5,0,5,7,0,2026-05-26T02:42:13.921960+05:30
Patiala,Punjab,30.3398,76.3869,30.0,24,0.0,972.6,7.65,42.5,238,501.1,89.2,11.1,338.0,71.0,5.9,4,5,7,0,2026-05-26T02:42:13.921967+05:30
Bhatinda,Punjab,30.211,74.9455,30.6,35,0.0,978.8,8.3,27.4,90,52.7,36.1,20.3,292.0,66.0,9.6,0,5,7,0,2026-05-26T02:42:13.921974+05:30
Rohtak,Haryana,28.8955,76.6066,30.5,29,0.0,976.4,7.75,32.4,691,976.0,178.8,19.3,371.0,65.0,7.4,0,5,7,0,2026-05-26T02:42:13.921980+05:30
Panipat,Haryana,29.3909,76.9635,30.6,23,0.0,974.8,7.55,37.4,838,1620.5,267.3,14.6,409.0,65.0,6.1,0,5,7,0,2026-05-26T02:42:13.921987+05:30
Mathura,Uttar Pradesh,27.4924,77.6737,33.0,29,0.0,981.1,8.0,35.6,885,592.3,120.1,27.0,269.0,30.0,6.9,0,5,7,0,2026-05-26T02:42:13.921994+05:30
Vrindavan,Uttar Pradesh,27.5823,77.7027,32.7,28,0.0,981.6,7.95,33.5,885,592.3,120.1,27.0,329.0,30.0,6.9,0,5,7,0,2026-05-26T02:42:13.922001+05:30
Ayodhya,Uttar Pradesh,26.7922,82.1998,27.5,67,0.0,991.1,8.3,39.2,159,149.5,77.3,17.4,352.0,81.0,12.8,7,5,7,1,2026-05-26T02:42:13.922008+05:30
Ratlam,Madhya Pradesh,23.3315,75.0367,28.9,66,0.0,953.5,8.55,40.0,56,13.7,11.4,6.4,206.0,61.0,13.6,7,5,7,1,2026-05-26T02:42:13.922015+05:30
Sagar,Madhya Pradesh,23.8388,78.7378,32.2,26,0.0,947.4,8.75,42.5,63,30.3,19.3,5.6,198.0,70.0,4.0,0,5,7,0,2026-05-26T02:42:13.922021+05:30
Satna,Madhya Pradesh,24.6005,80.8322,32.3,24,0.0,966.3,8.8,53.6,63,48.5,21.5,11.6,176.0,62.0,3.7,0,5,7,0,2026-05-26T02:42:13.922028+05:30
Akola,Maharashtra,20.7002,77.0082,32.8,47,0.0,972.9,8.4,42.5,64,20.5,17.6,6.8,151.0,93.0,13.7,0,5,7,1,2026-05-26T02:42:13.922036+05:30
Amravati,Maharashtra,20.9374,77.7796,34.0,33,0.0,964.9,8.85,40.3,70,22.1,18.6,6.7,203.0,92.0,11.7,0,5,7,0,2026-05-26T02:42:13.922043+05:30
Latur,Maharashtra,18.4088,76.5604,27.6,60,0.0,938.4,8.85,31.7,68,19.8,16.6,5.8,179.0,90.0,5.1,4,5,7,1,2026-05-26T02:42:13.922050+05:30
Nanded,Maharashtra,19.1383,77.3091,31.4,47,0.0,966.6,7.3,34.2,72,27.6,20.4,5.2,163.0,82.0,2.7,0,5,7,1,2026-05-26T02:42:13.922057+05:30
Gulbarga,Karnataka,17.3297,76.8343,29.1,61,0.0,957.8,9.0,34.2,63,15.0,13.1,9.2,188.0,64.0,4.8,7,5,7,1,2026-05-26T02:42:13.922064+05:30
Bidar,Karnataka,17.9104,77.5199,28.0,57,0.0,934.3,9.05,33.5,86,37.7,27.8,13.2,188.0,72.0,4.3,4,5,7,1,2026-05-26T02:42:13.922070+05:30
Hospet,Karnataka,15.2689,76.3909,25.4,89,0.0,955.7,6.8,53.3,42,5.0,4.3,5.2,149.0,40.0,1.5,7,5,7,1,2026-05-26T02:42:13.922077+05:30
Tirupur,Tamil Nadu,11.1085,77.3411,25.9,82,0.0,974.4,9.05,54.0,51,16.9,14.8,17.5,147.0,36.0,4.9,7,5,7,1,2026-05-26T02:42:13.922084+05:30
Alappuzha,Kerala,9.4981,76.3388,24.6,100,0.0,1010.1,8.25,28.8,45,13.8,11.6,12.6,187.0,40.0,4.3,3,0,4,1,2026-05-26T02:42:13.922091+05:30
Munnar,Kerala,10.0889,77.0595,17.2,97,0.0,856.3,9.05,28.4,29,7.2,6.9,6.4,164.0,34.0,1.5,3,10,7,1,2026-05-26T02:42:13.922098+05:30
Silchar,Assam,24.8333,92.7789,24.2,96,0.5,1003.7,8.9,29.9,70,16.6,10.8,4.4,211.0,77.0,2.0,6,5,4,1,2026-05-26T02:42:13.922106+05:30
Dibrugarh,Assam,27.4728,94.912,22.2,98,0.0,994.7,8.95,25.2,71,26.8,21.6,22.1,233.0,27.0,2.1,3,5,7,1,2026-05-26T02:42:13.922113+05:30
