city,state,latitude,longitude,temp,humidity,rain,pressure,uv_index,wind_gusts,aqi,pm10,pm2_5,mosquito_risk,arthritis_risk,migraine_risk,frizz_risk,updated_at
Delhi,Delhi,28.6139,77.209,17.7,71,0.0,986.4,5.85,36.4,216,291.5,76.6,3,5,3,0,2026-03-03T02:11:13.711264+05:30
Mumbai,Maharashtra,19.076,72.8777,26.5,80,0.0,1010.6,7.35,27.0,89,40.3,33.6,7,0,4,1,2026-03-03T02:11:13.711307+05:30
Bangalore,Karnataka,12.9716,77.5946,21.1,67,0.0,911.8,9.1,39.6,130,46.7,45.8,3,5,7,0,2026-03-03T02:11:13.711322+05:30
Hyderabad,Telangana,17.385,78.4867,23.7,68,0.0,954.2,8.35,25.2,140,65.4,64.5,3,5,7,1,2026-03-03T02:11:13.711331+05:30
Chennai,Tamil Nadu,13.0827,80.2707,23.9,86,0.0,1008.7,8.8,29.2,122,49.4,45.4,3,0,4,1,2026-03-03T02:11:13.711341+05:30
Kolkata,West Bengal,22.5726,88.3639,22.0,71,0.0,1008.2,7.7,17.3,160,128.5,118.0,3,0,4,1,2026-03-03T02:11:13.711349+05:30
Pune,Maharashtra,18.5204,73.8567,22.3,72,0.0,949.8,7.9,31.0,95,46.8,43.9,3,5,7,1,2026-03-03T02:11:13.711361+05:30
Ahmedabad,Gujarat,23.0225,72.5714,24.1,61,0.0,1005.7,7.15,19.4,101,63.8,52.9,3,5,4,1,2026-03-03T02:11:13.711369+05:30
Jaipur,Rajasthan,26.9124,75.7873,21.6,45,0.0,963.4,6.6,32.4,101,110.1,42.3,0,5,7,0,2026-03-03T02:11:13.711377+05:30
Lucknow,Uttar Pradesh,26.8467,80.9462,18.5,73,0.0,996.4,6.3,35.3,153,294.3,76.1,3,5,7,0,2026-03-03T02:11:13.711385+05:30
Kanpur,Uttar Pradesh,26.4499,80.3319,17.8,81,0.0,995.0,6.3,28.4,162,383.7,77.1,3,10,7,0,2026-03-03T02:11:13.711393+05:30
Chandigarh,Chandigarh,30.7333,76.7794,17.0,65,0.0,971.4,5.7,34.9,80,28.4,25.6,3,5,3,0,2026-03-03T02:11:13.711401+05:30
Srinagar,Jammu and Kashmir,34.0837,74.7973,3.5,65,0.0,839.7,6.6,17.3,146,85.2,73.3,3,5,7,1,2026-03-03T02:11:13.711408+05:30
Jammu,Jammu and Kashmir,32.7266,74.857,18.2,57,0.0,975.7,6.3,24.8,99,51.8,49.6,0,5,7,0,2026-03-03T02:11:13.711415+05:30
Amritsar,Punjab,31.634,74.8723,15.7,75,0.0,984.2,6.25,26.3,130,36.6,29.9,3,5,7,0,2026-03-03T02:11:13.711423+05:30
Ludhiana,Punjab,30.901,75.8573,17.6,65,0.0,982.1,5.9,29.2,154,69.4,55.8,3,5,3,0,2026-03-03T02:11:13.711429+05:30
Jalandhar,Punjab,31.326,75.5762,18.4,63,0.0,983.3,6.1,25.6,154,78.9,58.0,3,5,7,0,2026-03-03T02:11:13.711438+05:30
Dehradun,Uttarakhand,30.6284,78.0322,11.0,60,0.0,828.6,6.05,31.3,59,23.3,20.5,0,5,7,0,2026-03-03T02:11:13.711445+05:30
Shimla,Himachal Pradesh,31.1048,77.1734,7.7,62,0.0,782.0,6.1,45.0,73,37.5,29.6,3,5,7,0,2026-03-03T02:11:13.711452+05:30
Manali,Himachal Pradesh,32.2396,77.1887,14.1,12,0.0,819.1,7.45,39.2,55,18.4,15.3,0,5,7,1,2026-03-03T02:11:13.711459+05:30
Gurgaon,Haryana,28.4595,77.0266,15.2,80,0.0,984.7,5.95,33.8,919,951.8,139.2,3,5,3,0,2026-03-03T02:11:13.711465+05:30
Noida,Uttar Pradesh,28.5355,77.391,17.9,70,0.0,987.9,5.85,35.6,919,951.8,139.2,3,5,3,0,2026-03-03T02:11:13.711472+05:30
Ghaziabad,Uttar Pradesh,28.6692,77.4538,17.6,71,0.0,985.9,5.8,34.9,184,266.4,72.9,3,5,3,0,2026-03-03T02:11:13.711479+05:30
Faridabad,Haryana,28.4089,77.3178,17.6,66,0.0,987.2,5.85,32.4,919,951.8,139.2,3,5,3,0,2026-03-03T02:11:13.711487+05:30
Meerut,Uttar Pradesh,28.9845,77.7064,15.8,75,0.0,984.3,5.7,40.7,184,266.4,72.9,3,5,3,0,2026-03-03T02:11:13.711496+05:30
Agra,Uttar Pradesh,27.1767,78.0081,18.0,73,0.0,991.3,6.15,31.7,378,599.8,105.5,3,5,7,0,2026-03-03T02:11:13.711502+05:30
Varanasi,Uttar Pradesh,25.3176,82.9739,17.5,74,0.0,1000.8,6.95,24.8,92,45.8,30.5,3,5,4,0,2026-03-03T02:11:13.711511+05:30
Prayagraj,Uttar Pradesh,25.4358,81.8463,19.0,65,0.0,999.1,6.8,24.1,101,81.5,38.5,3,5,7,0,2026-03-03T02:11:13.711518+05:30
Gorakhpur,Uttar Pradesh,26.7606,83.3732,16.1,66,0.0,999.4,6.7,21.6,127,101.7,52.4,3,5,7,0,2026-03-03T02:11:13.711540+05:30
Bareilly,Uttar Pradesh,28.367,79.4304,16.0,73,0.0,989.3,6.0,30.6,136,173.2,61.5,3,5,3,0,2026-03-03T02:11:13.711548+05:30
Aligarh,Uttar Pradesh,27.8974,78.088,16.5,75,0.0,988.8,5.9,35.6,552,596.0,112.9,3,5,3,0,2026-03-03T02:11:13.711555+05:30
Moradabad,Uttar Pradesh,28.8386,78.7733,15.8,72,0.0,986.1,5.85,30.2,142,162.5,65.9,3,5,3,0,2026-03-03T02:11:13.711561+05:30
Saharanpur,Uttar Pradesh,29.9637,77.546,15.8,73,0.0,977.9,5.45,45.7,111,72.4,48.4,3,5,3,0,2026-03-03T02:11:13.711567+05:30
Jhansi,Uttar Pradesh,25.4484,78.5685,18.1,70,0.0,981.4,6.75,26.6,75,34.7,26.0,3,5,7,0,2026-03-03T02:11:16.923600+05:30
Surat,Gujarat,21.1702,72.8311,23.7,77,0.0,1009.6,7.05,23.4,154,78.5,71.9,3,0,4,1,2026-03-03T02:11:16.923635+05:30
Vadodara,Gujarat,22.3072,73.1812,23.1,55,0.0,1007.4,7.15,13.7,151,97.6,89.6,0,5,4,0,2026-03-03T02:11:16.923649+05:30
Rajkot,Gujarat,22.3039,70.8022,22.1,77,0.0,998.0,7.0,19.8,67,36.9,24.6,3,5,7,1,2026-03-03T02:11:16.923658+05:30
Thane,Maharashtra,19.2183,72.9781,24.2,88,0.0,1010.1,7.35,37.4,89,40.3,33.6,3,0,4,1,2026-03-03T02:11:16.923667+05:30
Nagpur,Maharashtra,21.1458,79.0882,22.5,64,0.0,975.3,7.75,19.8,71,25.0,21.4,3,5,7,0,2026-03-03T02:11:16.923675+05:30
Nashik,Maharashtra,19.9975,73.7898,23.2,61,0.0,947.7,7.55,29.5,90,43.0,39.0,3,5,7,0,2026-03-03T02:11:16.923684+05:30
Aurangabad,Maharashtra,19.8762,75.3433,23.8,56,0.0,945.8,8.05,25.2,79,39.8,38.5,0,5,7,0,2026-03-03T02:11:16.923692+05:30
Solapur,Maharashtra,17.6599,75.9064,24.7,69,0.0,957.8,8.3,20.9,126,33.5,33.2,3,5,7,1,2026-03-03T02:11:16.923701+05:30
Kolhapur,Maharashtra,16.705,74.2433,19.4,94,0.0,948.5,8.4,35.6,111,38.5,36.3,3,10,7,1,2026-03-03T02:11:16.923709+05:30
Goa,Goa,15.2993,74.124,26.1,80,0.0,999.1,8.45,34.2,74,37.4,27.8,7,5,7,1,2026-03-03T02:11:16.923718+05:30
Jodhpur,Rajasthan,26.2389,73.0243,21.3,53,0.0,986.8,6.85,15.8,88,68.5,33.2,0,5,7,0,2026-03-03T02:11:16.923726+05:30
Udaipur,Rajasthan,24.5854,73.7125,19.8,57,0.0,950.0,7.45,12.6,73,35.7,26.4,0,5,7,0,2026-03-03T02:11:16.923734+05:30
Kota,Rajasthan,25.2138,75.8648,19.4,72,0.0,982.1,6.85,19.1,91,47.5,34.2,3,5,7,0,2026-03-03T02:11:16.923742+05:30
Bikaner,Rajasthan,28.0229,73.3119,23.0,54,0.0,986.0,6.55,20.5,72,40.0,23.3,0,5,7,0,2026-03-03T02:11:16.923750+05:30
Ajmer,Rajasthan,26.4499,74.6399,21.6,45,0.0,957.9,6.8,27.0,80,68.2,26.7,0,5,7,0,2026-03-03T02:11:16.923758+05:30
Gwalior,Madhya Pradesh,26.2183,78.1828,20.8,63,0.0,986.9,6.45,28.4,97,217.0,56.2,3,5,7,0,2026-03-03T02:11:16.923766+05:30
Indore,Madhya Pradesh,22.7196,75.8577,19.2,67,0.0,950.6,7.45,14.8,90,43.5,33.6,3,5,7,0,2026-03-03T02:11:16.923773+05:30
Bhopal,Madhya Pradesh,23.2599,77.4126,22.2,51,0.0,956.6,7.3,23.0,79,43.9,34.3,0,5,7,0,2026-03-03T02:11:16.923781+05:30
Jabalpur,Madhya Pradesh,23.1815,79.9864,20.9,46,0.0,964.2,7.4,20.5,73,37.1,25.4,0,5,7,0,2026-03-03T02:11:16.923789+05:30
Ujjain,Madhya Pradesh,23.1765,75.7885,21.8,56,0.0,956.7,7.3,13.7,110,52.6,44.0,0,5,7,0,2026-03-03T02:11:16.923797+05:30
Visakhapatnam,Andhra Pradesh,17.6868,83.2185,24.7,79,0.0,1004.8,8.35,33.8,137,43.8,41.6,3,5,4,1,2026-03-03T02:11:16.923805+05:30
Vijayawada,Andhra Pradesh,16.5062,80.648,23.9,84,0.0,1004.0,8.4,26.3,140,44.7,42.7,3,5,4,1,2026-03-03T02:11:16.923813+05:30
Guntur,Andhra Pradesh,16.3067,80.4365,23.2,86,0.0,1005.3,8.45,28.8,134,41.4,39.8,3,5,4,1,2026-03-03T02:11:16.923821+05:30
Nellore,Andhra Pradesh,14.4426,79.9865,23.2,84,0.0,1006.8,8.65,29.2,120,39.9,38.0,3,5,4,1,2026-03-03T02:11:16.923829+05:30
Kurnool,Andhra Pradesh,15.8281,78.0373,26.5,51,0.0,977.6,8.45,29.5,125,42.5,41.9,4,5,7,0,2026-03-03T02:11:16.923838+05:30
Kakinada,Andhra Pradesh,16.9891,82.2475,22.2,91,0.0,1008.8,8.4,36.7,128,44.9,41.1,3,0,4,1,2026-03-03T02:11:16.923846+05:30
Tirupati,Andhra Pradesh,13.6288,79.4192,22.5,66,0.0,993.1,8.8,37.8,144,73.3,71.5,3,5,7,0,2026-03-03T02:11:16.923853+05:30
Warangal,Telangana,17.9689,79.5941,25.6,60,0.0,979.7,8.2,19.1,128,39.9,39.3,4,5,7,1,2026-03-03T02:11:16.923859+05:30
Nizamabad,Telangana,18.6725,78.0941,21.7,70,0.0,965.8,8.1,28.1,102,43.1,41.8,3,5,7,0,2026-03-03T02:11:16.923865+05:30
Mysore,Karnataka,12.2958,76.6396,21.7,89,0.0,928.5,9.15,34.2,143,54.1,53.4,3,5,7,1,2026-03-03T02:11:16.923871+05:30
Mangalore,Karnataka,12.9141,74.856,28.1,79,0.0,1007.4,8.75,28.1,58,24.4,17.1,7,5,4,1,2026-03-03T02:11:16.923878+05:30
Hubli-Dharwad,Karnataka,15.3647,75.124,21.6,86,0.0,941.1,8.6,25.6,83,21.9,19.4,3,5,7,1,2026-03-03T02:11:16.923884+05:30
Belgaum,Karnataka,15.8497,74.4977,20.8,87,0.0,925.9,8.65,33.8,82,26.7,22.4,3,5,7,1,2026-03-03T02:11:20.136700+05:30
Coimbatore,Tamil Nadu,11.0168,76.9558,23.0,86,0.0,962.5,9.15,45.4,142,56.5,55.3,3,5,7,1,2026-03-03T02:11:20.136733+05:30
Madurai,Tamil Nadu,9.9252,78.1198,23.9,82,0.0,994.3,9.1,32.4,121,56.0,54.8,3,5,7,1,2026-03-03T02:11:20.136745+05:30
Trichy,Tamil Nadu,10.7905,78.7047,21.9,90,0.0,1001.2,9.0,31.0,138,45.4,43.2,3,5,4,1,2026-03-03T02:11:20.136755+05:30
Salem,Tamil Nadu,11.6643,78.146,23.4,72,0.0,978.3,9.0,40.3,141,62.6,61.5,3,5,7,1,2026-03-03T02:11:20.136764+05:30
Tirunelveli,Tamil Nadu,8.7139,77.7567,23.3,90,0.0,1004.3,9.1,41.0,130,57.7,56.1,3,5,4,1,2026-03-03T02:11:20.136772+05:30
Vellore,Tamil Nadu,12.9165,79.1325,21.4,81,0.0,986.1,8.9,38.2,150,75.9,74.0,3,5,7,1,2026-03-03T02:11:20.136780+05:30
Erode,Tamil Nadu,11.341,77.7172,25.0,74,0.0,990.3,9.05,24.8,124,45.9,44.7,7,5,7,1,2026-03-03T02:11:20.136789+05:30
Kochi,Kerala,9.9312,76.2673,27.4,81,0.0,1009.2,9.0,32.8,100,48.3,47.7,7,0,4,1,2026-03-03T02:11:20.136797+05:30
Thiruvananthapuram,Kerala,8.5241,76.9366,27.5,81,0.0,1008.2,8.95,28.1,95,29.7,27.6,7,0,4,1,2026-03-03T02:11:20.136805+05:30
Kozhikode,Kerala,11.2588,75.7804,28.1,78,0.0,1008.4,8.8,34.6,59,23.2,18.6,7,0,4,1,2026-03-03T02:11:20.136813+05:30
Thrissur,Kerala,10.5276,76.2144,25.7,91,0.0,1007.5,8.95,37.1,95,49.5,48.3,7,5,4,1,2026-03-03T02:11:20.136822+05:30
Kannur,Kerala,11.8745,75.3704,26.9,81,0.0,1007.6,8.85,38.9,59,18.5,15.0,7,5,4,1,2026-03-03T02:11:20.136831+05:30
Patna,Bihar,25.5941,85.1376,18.3,62,0.0,1003.2,7.15,18.0,119,66.1,52.7,3,5,4,0,2026-03-03T02:11:20.136839+05:30
Gaya,Bihar,24.7914,85.0002,18.5,50,0.0,996.7,7.25,21.2,104,50.6,34.1,0,5,7,0,2026-03-03T02:11:20.136847+05:30
Muzaffarpur,Bihar,26.1209,85.3647,17.0,65,0.0,1002.9,7.1,14.8,122,79.4,65.4,3,5,4,0,2026-03-03T02:11:20.136855+05:30
Bhagalpur,Bihar,25.2425,87.0117,18.0,64,0.0,1003.6,7.15,11.5,131,68.9,39.8,3,5,4,0,2026-03-03T02:11:20.136862+05:30
Ranchi,Jharkhand,23.3441,85.3096,17.7,37,0.0,939.6,7.9,43.6,77,44.4,22.9,0,5,7,0,2026-03-03T02:11:20.136870+05:30
Jamshedpur,Jharkhand,22.8046,86.2029,19.6,59,0.0,993.4,7.75,16.2,111,72.4,45.4,0,5,7,0,2026-03-03T02:11:20.136879+05:30
Dhanbad,Jharkhand,23.7957,86.4304,19.9,43,0.0,982.4,7.65,27.7,116,63.6,43.0,0,5,7,0,2026-03-03T02:11:20.136886+05:30
Bokaro,Jharkhand,23.6693,86.1511,17.5,55,0.0,986.7,7.65,32.8,118,65.0,46.8,0,5,7,0,2026-03-03T02:11:20.136893+05:30
Bhubaneswar,Odisha,20.2961,85.8245,23.7,92,0.0,1003.6,8.1,26.6,151,77.1,73.3,3,5,4,1,2026-03-03T02:11:20.136900+05:30
Cuttack,Odisha,20.4625,85.8828,23.5,91,0.0,1005.7,8.1,23.0,151,77.1,73.3,3,5,4,1,2026-03-03T02:11:20.136906+05:30
Rourkela,Odisha,22.2604,84.8536,20.5,53,0.0,987.4,7.7,23.4,89,48.3,32.8,0,5,7,0,2026-03-03T02:11:20.136912+05:30
Raipur,Chhattisgarh,21.2514,81.6296,22.5,54,0.0,976.5,7.8,16.6,102,85.2,75.7,0,5,7,0,2026-03-03T02:11:20.136917+05:30
Bhilai,Chhattisgarh,21.1938,81.3509,21.4,58,0.0,976.8,7.8,14.4,101,77.1,68.9,0,5,7,0,2026-03-03T02:11:20.136924+05:30
Guwahati,Assam,26.1158,91.7086,20.5,87,0.0,1004.3,7.1,21.6,151,71.2,60.1,3,5,4,1,2026-03-03T02:11:20.136930+05:30
Agartala,Tripura,23.8315,91.2868,20.6,93,0.0,1007.9,7.45,19.4,156,101.5,95.9,3,5,4,1,2026-03-03T02:11:20.136936+05:30
Shillong,Meghalaya,25.5788,91.8933,7.7,84,0.0,853.6,7.45,24.1,112,55.5,45.3,3,10,7,0,2026-03-03T02:11:20.136942+05:30
Imphal,Manipur,24.817,93.9368,14.1,74,0.0,923.2,7.5,29.5,154,116.2,99.0,3,5,7,0,2026-03-03T02:11:20.136949+05:30
Aizawl,Mizoram,23.7271,92.7176,14.7,90,0.0,892.5,7.65,33.5,153,94.3,88.5,3,10,7,0,2026-03-03T02:11:20.136956+05:30
Kohima,Nagaland,25.6701,94.1077,11.2,81,0.0,853.8,7.15,45.4,146,79.4,71.0,3,10,7,0,2026-03-03T02:11:20.136962+05:30
Gangtok,Sikkim,27.3314,88.6138,10.6,82,0.0,835.6,7.4,19.8,126,78.7,60.1,3,10,7,0,2026-03-03T02:11:20.136968+05:30
Siliguri,West Bengal,26.7271,88.3953,18.0,69,0.0,996.1,7.1,19.8,167,130.4,102.7,3,5,7,0,2026-03-03T02:11:23.354007+05:30
Durgapur,West Bengal,23.5204,87.3119,21.2,37,0.0,997.6,7.65,29.9,105,49.9,26.5,0,5,7,0,2026-03-03T02:11:23.354036+05:30
Asansol,West Bengal,23.6739,86.9524,21.7,38,0.0,996.3,7.65,23.4,94,46.4,26.9,0,5,7,0,2026-03-03T02:11:23.354046+05:30
Pondicherry,Puducherry,11.9139,79.8145,20.6,99,0.0,1010.0,8.85,28.4,116,40.0,36.0,3,0,4,1,2026-03-03T02:11:23.354054+05:30
Port Blair,Andaman and Nicobar Islands,11.6234,92.7265,27.1,75,0.0,1007.3,8.8,16.2,81,32.8,25.3,7,5,4,1,2026-03-03T02:11:23.354062+05:30
Haridwar,Uttarakhand,29.9457,78.1642,14.7,85,0.0,976.2,5.55,24.8,97,54.7,51.7,3,10,3,0,2026-03-03T02:11:23.354070+05:30
Rishikesh,Uttarakhand,30.0869,78.2676,15.8,72,0.0,968.8,5.65,23.8,77,34.0,32.5,3,5,3,0,2026-03-03T02:11:23.354077+05:30
Nainital,Uttarakhand,29.3919,79.4542,14.4,60,0.0,804.9,6.45,56.9,78,36.8,30.3,0,5,7,0,2026-03-03T02:11:23.354085+05:30
Mussoorie,Uttarakhand,30.4599,78.0664,12.9,65,0.0,801.5,5.95,37.1,81,36.0,34.8,3,5,3,0,2026-03-03T02:11:23.354092+05:30
Dharamshala,Himachal Pradesh,32.219,76.3234,17.4,36,0.0,870.1,6.2,23.4,66,12.8,9.6,0,5,7,0,2026-03-03T02:11:23.354098+05:30
Dalhousie,Himachal Pradesh,32.5387,75.971,14.0,31,0.0,803.9,6.4,22.0,96,40.7,37.7,0,5,7,1,2026-03-03T02:11:23.354106+05:30
Patiala,Punjab,30.3398,76.3869,15.9,74,0.0,981.3,5.6,35.3,157,276.6,67.3,3,5,3,0,2026-03-03T02:11:23.354113+05:30
Bhatinda,Punjab,30.211,74.9455,16.9,73,0.0,987.4,6.3,27.4,155,76.8,62.4,3,5,7,0,2026-03-03T02:11:23.354120+05:30
Rohtak,Haryana,28.8955,76.6066,16.3,74,0.0,985.2,5.85,34.2,288,395.8,81.7,3,5,3,0,2026-03-03T02:11:23.354126+05:30
Panipat,Haryana,29.3909,76.9635,15.3,76,0.0,983.6,5.65,37.1,754,918.3,133.2,3,5,3,0,2026-03-03T02:11:23.354132+05:30
Mathura,Uttar Pradesh,27.4924,77.6737,19.1,67,0.0,990.4,6.1,29.9,432,566.2,105.9,3,5,7,0,2026-03-03T02:11:23.354139+05:30
Vrindavan,Uttar Pradesh,27.5823,77.7027,17.2,75,0.0,990.8,6.05,33.1,432,566.2,105.9,3,5,7,0,2026-03-03T02:11:23.354146+05:30
Ayodhya,Uttar Pradesh,26.7922,82.1998,17.0,66,0.0,997.8,6.45,27.4,134,210.5,67.5,3,5,7,0,2026-03-03T02:11:23.354151+05:30
Ratlam,Madhya Pradesh,23.3315,75.0367,19.2,82,0.0,957.1,7.3,11.2,102,56.6,50.4,3,10,7,1,2026-03-03T02:11:23.354158+05:30
Sagar,Madhya Pradesh,23.8388,78.7378,21.8,48,0.0,953.1,7.25,29.2,67,34.2,23.6,0,5,7,0,2026-03-03T02:11:23.354164+05:30
Satna,Madhya Pradesh,24.6005,80.8322,20.7,42,0.0,974.3,7.2,35.3,64,34.3,20.6,0,5,7,0,2026-03-03T02:11:23.354171+05:30
Akola,Maharashtra,20.7002,77.0082,23.7,60,0.0,977.2,7.8,22.0,76,33.6,31.5,0,5,7,0,2026-03-03T02:11:23.354178+05:30
Amravati,Maharashtra,20.9374,77.7796,22.8,54,0.0,969.2,7.75,18.0,77,37.0,34.1,0,5,7,0,2026-03-03T02:11:23.354185+05:30
Latur,Maharashtra,18.4088,76.5604,23.7,53,0.0,940.6,8.2,33.8,90,38.8,38.2,0,5,7,0,2026-03-03T02:11:23.354191+05:30
Nanded,Maharashtra,19.1383,77.3091,25.3,58,0.0,970.1,8.0,21.6,91,58.2,56.9,4,5,7,1,2026-03-03T02:11:23.354197+05:30
Gulbarga,Karnataka,17.3297,76.8343,25.6,54,0.0,959.6,8.3,23.4,140,43.7,43.4,4,5,7,0,2026-03-03T02:11:23.354203+05:30
Bidar,Karnataka,17.9104,77.5199,23.4,66,0.0,936.4,8.25,24.5,135,34.7,34.0,3,5,7,1,2026-03-03T02:11:23.354209+05:30
Hospet,Karnataka,15.2689,76.3909,27.8,52,0.0,956.3,8.6,28.8,119,51.1,50.5,4,5,7,1,2026-03-03T02:11:23.354215+05:30
Tirupur,Tamil Nadu,11.1085,77.3411,25.3,73,0.0,976.3,9.15,33.5,146,54.2,53.2,7,5,7,1,2026-03-03T02:11:23.354221+05:30
Alappuzha,Kerala,9.4981,76.3388,27.1,83,0.0,1009.3,8.95,28.8,96,41.3,40.0,7,0,4,1,2026-03-03T02:11:23.354227+05:30
Munnar,Kerala,10.0889,77.0595,18.3,80,0.0,855.6,9.45,20.5,121,49.6,48.5,3,5,7,0,2026-03-03T02:11:23.354234+05:30
Silchar,Assam,24.8333,92.7789,19.9,86,0.0,1007.4,7.4,15.5,156,99.7,80.8,3,10,4,1,2026-03-03T02:11:23.354240+05:30
Dibrugarh,Assam,27.4728,94.912,19.6,85,0.0,999.2,7.1,8.3,153,62.9,55.4,3,10,7,1,2026-03-03T02:11:23.354246+05:30
