city,state,latitude,longitude,temp,humidity,rain,pressure,uv_index,wind_gusts,aqi,pm10,pm2_5,no2,co,o3,so2,mosquito_risk,arthritis_risk,migraine_risk,frizz_risk,updated_at
Delhi,Delhi,28.6139,77.209,31.9,76,0.0,974.6,7.4,36.7,141,70.8,66.4,58.7,1179.0,45.0,36.9,3,5,7,1,2026-07-05T01:40:45.025509+05:30
Mumbai,Maharashtra,19.076,72.8777,25.8,95,0.4,1000.7,0.6,68.0,28,12.7,6.2,2.9,125.0,52.0,2.2,10,5,0,1,2026-07-05T01:40:45.025556+05:30
Bangalore,Karnataka,12.9716,77.5946,21.3,88,0.0,909.4,7.95,67.0,19,2.1,1.8,6.8,159.0,39.0,2.7,3,5,7,1,2026-07-05T01:40:45.025572+05:30
Hyderabad,Telangana,17.385,78.4867,23.8,87,0.0,946.7,4.4,73.4,22,2.1,1.9,6.0,136.0,39.0,2.9,3,5,3,1,2026-07-05T01:40:45.025582+05:30
Chennai,Tamil Nadu,13.0827,80.2707,30.6,50,0.0,1003.2,8.4,59.0,38,9.4,7.3,13.0,218.0,38.0,7.5,0,5,4,1,2026-07-05T01:40:45.025591+05:30
Kolkata,West Bengal,22.5726,88.3639,26.0,97,0.0,993.9,8.4,44.6,41,10.8,9.7,8.2,216.0,61.0,6.4,7,5,7,1,2026-07-05T01:40:45.025599+05:30
Pune,Maharashtra,18.5204,73.8567,23.4,93,0.1,940.3,0.8,57.6,21,1.1,1.1,4.2,105.0,46.0,2.4,6,5,3,1,2026-07-05T01:40:45.025606+05:30
Ahmedabad,Gujarat,23.0225,72.5714,26.4,94,0.0,994.0,5.7,22.0,60,27.7,14.9,12.3,219.0,50.0,4.0,7,5,3,1,2026-07-05T01:40:45.025612+05:30
Jaipur,Rajasthan,26.9124,75.7873,28.2,85,0.0,951.3,7.95,25.2,110,46.4,32.1,25.5,319.0,54.0,7.7,7,5,7,1,2026-07-05T01:40:45.025619+05:30
Lucknow,Uttar Pradesh,26.8467,80.9462,30.3,80,1.0,984.5,7.65,35.3,94,35.7,35.3,21.9,347.0,57.0,8.5,6,5,7,1,2026-07-05T01:40:45.025629+05:30
Kanpur,Uttar Pradesh,26.4499,80.3319,30.6,80,0.1,982.8,8.1,31.7,91,30.7,29.9,22.4,299.0,54.0,6.4,6,5,7,1,2026-07-05T01:40:45.025636+05:30
Chandigarh,Chandigarh,30.7333,76.7794,28.0,89,0.0,961.3,7.05,23.8,107,87.5,86.8,56.7,1367.0,28.0,16.1,7,5,7,1,2026-07-05T01:40:45.025642+05:30
Srinagar,Jammu and Kashmir,34.0837,74.7973,19.6,86,0.0,835.3,9.05,23.0,80,51.3,46.1,35.4,750.0,11.0,2.1,3,10,7,1,2026-07-05T01:40:45.025648+05:30
Jammu,Jammu and Kashmir,32.7266,74.857,29.6,80,0.0,964.2,8.6,30.2,111,64.3,62.4,64.8,525.0,9.0,5.8,7,5,7,1,2026-07-05T01:40:45.025657+05:30
Amritsar,Punjab,31.634,74.8723,30.7,74,0.0,972.0,8.45,22.3,116,49.7,44.5,17.9,485.0,93.0,9.4,3,5,7,1,2026-07-05T01:40:45.025663+05:30
Ludhiana,Punjab,30.901,75.8573,29.2,88,0.0,970.2,7.9,17.6,144,84.8,81.3,44.8,802.0,47.0,11.4,7,5,7,1,2026-07-05T01:40:45.025669+05:30
Jalandhar,Punjab,31.326,75.5762,29.4,87,0.0,971.2,7.45,19.4,146,79.9,70.3,39.4,739.0,57.0,8.2,7,5,7,1,2026-07-05T01:40:45.025674+05:30
Dehradun,Uttarakhand,30.6284,78.0322,18.5,100,0.0,826.5,7.4,28.4,38,15.2,15.1,17.3,294.0,73.0,1.1,3,10,7,1,2026-07-05T01:40:45.025680+05:30
Shimla,Himachal Pradesh,31.1048,77.1734,15.6,97,0.0,779.9,7.1,36.0,50,23.2,23.1,23.7,405.0,42.0,0.0,3,10,7,0,2026-07-05T01:40:45.025686+05:30
Manali,Himachal Pradesh,32.2396,77.1887,19.6,84,0.0,815.1,9.25,36.7,39,5.4,5.3,51.8,261.0,67.0,0.0,3,10,7,1,2026-07-05T01:40:45.025695+05:30
Gurgaon,Haryana,28.4595,77.0266,29.9,85,0.0,972.9,6.35,23.8,136,63.6,50.5,39.4,975.0,58.0,22.3,7,5,7,1,2026-07-05T01:40:45.025701+05:30
Noida,Uttar Pradesh,28.5355,77.391,29.8,86,0.0,976.0,7.3,27.7,136,63.6,50.5,39.4,1971.0,58.0,22.3,7,5,7,1,2026-07-05T01:40:45.025707+05:30
Ghaziabad,Uttar Pradesh,28.6692,77.4538,29.9,88,0.0,974.2,6.8,30.6,124,67.1,67.1,54.5,943.0,23.0,12.9,7,5,7,1,2026-07-05T01:40:45.025713+05:30
Faridabad,Haryana,28.4089,77.3178,31.3,78,0.0,975.3,6.2,28.8,136,63.6,50.5,39.4,881.0,58.0,22.3,3,5,7,1,2026-07-05T01:40:45.025721+05:30
Meerut,Uttar Pradesh,28.9845,77.7064,29.7,89,0.0,973.3,7.4,41.0,124,67.1,67.1,54.5,843.0,23.0,12.9,7,5,7,1,2026-07-05T01:40:45.025727+05:30
Agra,Uttar Pradesh,27.1767,78.0081,27.1,99,0.0,978.9,7.25,25.2,105,43.5,40.5,19.7,413.0,77.0,7.3,7,5,7,1,2026-07-05T01:40:45.025733+05:30
Varanasi,Uttar Pradesh,25.3176,82.9739,30.1,75,0.0,987.9,6.5,41.4,80,35.7,35.5,20.0,552.0,62.0,10.6,3,5,7,1,2026-07-05T01:40:45.025739+05:30
Prayagraj,Uttar Pradesh,25.4358,81.8463,30.5,77,0.0,986.3,7.9,31.7,85,33.1,32.9,19.0,323.0,71.0,9.6,3,5,7,1,2026-07-05T01:40:45.025746+05:30
Gorakhpur,Uttar Pradesh,26.7606,83.3732,30.5,78,0.0,988.3,8.5,42.5,90,34.1,34.0,18.2,462.0,75.0,8.8,3,5,7,1,2026-07-05T01:40:45.025751+05:30
Bareilly,Uttar Pradesh,28.367,79.4304,30.1,86,0.1,978.4,5.7,33.5,113,53.1,52.4,33.7,380.0,57.0,9.1,6,5,3,1,2026-07-05T01:40:45.025759+05:30
Aligarh,Uttar Pradesh,27.8974,78.088,30.2,83,0.0,977.0,7.2,23.0,110,54.2,49.7,25.3,511.0,77.0,12.3,3,5,7,1,2026-07-05T01:40:45.025765+05:30
Moradabad,Uttar Pradesh,28.8386,78.7733,29.9,85,0.0,975.6,5.95,32.4,125,77.1,76.8,36.2,1065.0,64.0,12.5,7,5,3,1,2026-07-05T01:40:45.025771+05:30
Saharanpur,Uttar Pradesh,29.9637,77.546,29.0,88,0.0,968.2,7.1,30.6,130,124.3,123.4,89.9,909.0,8.0,28.3,7,5,7,1,2026-07-05T01:40:45.025777+05:30
Jhansi,Uttar Pradesh,25.4484,78.5685,26.8,97,0.0,969.7,7.75,25.6,72,28.3,28.1,17.4,250.0,59.0,5.1,7,5,7,1,2026-07-05T01:40:48.388932+05:30
Surat,Gujarat,21.1702,72.8311,25.8,99,0.0,998.1,6.35,16.2,68,17.1,13.4,23.6,516.0,35.0,33.2,7,5,7,1,2026-07-05T01:40:48.388975+05:30
Vadodara,Gujarat,22.3072,73.1812,26.2,97,0.2,995.6,4.8,24.5,54,15.0,9.8,12.0,203.0,56.0,4.3,10,5,3,1,2026-07-05T01:40:48.388987+05:30
Rajkot,Gujarat,22.3039,70.8022,28.1,89,0.2,985.5,5.95,42.1,61,27.8,13.1,6.8,101.0,39.0,6.4,10,5,3,1,2026-07-05T01:40:48.388998+05:30
Thane,Maharashtra,19.2183,72.9781,25.3,97,1.1,1000.0,0.55,52.2,28,12.7,6.2,2.9,140.0,52.0,2.2,10,5,0,1,2026-07-05T01:40:48.389007+05:30
Nagpur,Maharashtra,21.1458,79.0882,25.0,93,0.0,964.1,7.9,31.3,47,11.0,10.3,15.6,196.0,45.0,13.3,7,5,7,1,2026-07-05T01:40:48.389018+05:30
Nashik,Maharashtra,19.9975,73.7898,23.0,95,0.3,937.0,2.85,48.2,21,1.6,1.5,4.5,144.0,46.0,0.9,6,5,3,1,2026-07-05T01:40:48.389030+05:30
Aurangabad,Maharashtra,19.8762,75.3433,23.0,96,0.1,936.3,5.55,49.3,22,5.6,5.4,12.6,175.0,41.0,7.2,6,5,3,1,2026-07-05T01:40:48.389056+05:30
Solapur,Maharashtra,17.6599,75.9064,23.5,90,0.2,951.4,1.25,66.6,20,1.7,1.4,3.3,112.0,45.0,1.2,6,5,3,1,2026-07-05T01:40:48.389066+05:30
Kolhapur,Maharashtra,16.705,74.2433,21.9,97,0.1,942.8,1.6,66.6,22,1.5,1.2,2.3,103.0,49.0,1.1,6,5,3,1,2026-07-05T01:40:48.389076+05:30
Goa,Goa,15.2993,74.124,24.3,99,0.9,995.6,3.9,44.3,45,23.2,10.8,1.1,136.0,53.0,0.5,6,5,3,1,2026-07-05T01:40:48.389086+05:30
Jodhpur,Rajasthan,26.2389,73.0243,29.4,75,0.0,973.3,8.4,25.2,150,154.6,44.1,7.3,183.0,50.0,4.6,7,5,7,1,2026-07-05T01:40:48.389095+05:30
Udaipur,Rajasthan,24.5854,73.7125,24.3,98,0.0,938.5,8.5,30.2,69,35.9,17.1,9.3,180.0,50.0,2.6,3,5,7,1,2026-07-05T01:40:48.389105+05:30
Kota,Rajasthan,25.2138,75.8648,27.1,93,0.0,969.5,8.25,29.9,90,47.1,35.0,20.8,313.0,54.0,6.5,7,5,7,1,2026-07-05T01:40:48.389114+05:30
Bikaner,Rajasthan,28.0229,73.3119,33.4,55,0.0,971.8,8.45,27.4,105,102.2,47.3,5.1,257.0,77.0,4.3,0,5,7,1,2026-07-05T01:40:48.389123+05:30
Ajmer,Rajasthan,26.4499,74.6399,27.3,82,0.0,946.1,8.35,31.7,119,95.7,41.3,11.2,217.0,54.0,5.8,7,5,7,1,2026-07-05T01:40:48.389132+05:30
Gwalior,Madhya Pradesh,26.2183,78.1828,26.6,99,0.0,974.5,7.5,23.4,74,27.2,26.3,14.2,228.0,66.0,3.9,7,5,7,1,2026-07-05T01:40:48.389141+05:30
Indore,Madhya Pradesh,22.7196,75.8577,24.0,97,0.0,939.0,7.45,26.6,53,30.5,21.5,12.6,303.0,52.0,4.6,3,5,7,1,2026-07-05T01:40:48.389150+05:30
Bhopal,Madhya Pradesh,23.2599,77.4126,24.8,100,0.0,944.5,8.6,26.3,52,14.7,14.3,13.8,369.0,51.0,2.9,3,5,7,1,2026-07-05T01:40:48.389158+05:30
Jabalpur,Madhya Pradesh,23.1815,79.9864,24.3,100,0.0,953.0,7.45,27.4,64,18.6,18.4,8.6,252.0,83.0,3.9,3,5,7,1,2026-07-05T01:40:48.389167+05:30
Ujjain,Madhya Pradesh,23.1765,75.7885,24.4,97,0.0,944.5,8.5,21.6,53,30.9,18.3,6.6,274.0,65.0,2.8,3,5,7,1,2026-07-05T01:40:48.389176+05:30
Visakhapatnam,Andhra Pradesh,17.6868,83.2185,25.4,94,0.4,992.7,2.8,65.2,37,8.5,7.1,11.5,196.0,42.0,16.1,10,5,3,1,2026-07-05T01:40:48.389185+05:30
Vijayawada,Andhra Pradesh,16.5062,80.648,28.2,70,0.0,996.2,2.4,59.0,30,4.5,3.9,6.7,129.0,41.0,4.4,7,5,3,1,2026-07-05T01:40:48.389193+05:30
Guntur,Andhra Pradesh,16.3067,80.4365,28.1,68,0.0,997.7,2.85,54.0,26,3.7,3.2,6.8,120.0,40.0,4.4,7,5,3,1,2026-07-05T01:40:48.389204+05:30
Nellore,Andhra Pradesh,14.4426,79.9865,30.1,57,0.0,1001.3,1.45,47.5,25,3.7,2.6,4.1,104.0,44.0,2.7,0,5,0,1,2026-07-05T01:40:48.389213+05:30
Kurnool,Andhra Pradesh,15.8281,78.0373,24.8,81,0.0,972.5,3.0,81.4,21,2.4,1.9,5.2,109.0,39.0,2.7,3,5,3,1,2026-07-05T01:40:48.389222+05:30
Kakinada,Andhra Pradesh,16.9891,82.2475,27.6,77,0.0,999.1,2.05,80.3,32,8.1,5.9,6.8,154.0,47.0,4.6,7,5,3,1,2026-07-05T01:40:48.389231+05:30
Tirupati,Andhra Pradesh,13.6288,79.4192,28.7,59,0.0,987.4,4.55,49.7,25,4.8,3.3,5.3,114.0,42.0,1.8,4,5,3,1,2026-07-05T01:40:48.389239+05:30
Warangal,Telangana,17.9689,79.5941,24.4,89,0.2,971.7,1.0,44.6,22,3.2,3.1,6.8,127.0,37.0,2.6,6,5,3,1,2026-07-05T01:40:48.389247+05:30
Nizamabad,Telangana,18.6725,78.0941,24.9,84,0.0,957.8,1.65,62.6,22,2.7,2.7,5.8,134.0,39.0,2.4,3,5,3,1,2026-07-05T01:40:48.389255+05:30
Mysore,Karnataka,12.2958,76.6396,21.7,89,0.0,926.7,8.25,67.3,20,1.6,1.5,4.9,102.0,40.0,1.5,3,5,7,1,2026-07-05T01:40:48.389261+05:30
Mangalore,Karnataka,12.9141,74.856,25.7,83,0.5,1006.3,5.55,62.6,43,13.6,8.8,9.7,100.0,29.0,2.7,10,5,0,1,2026-07-05T01:40:48.389268+05:30
Hubli-Dharwad,Karnataka,15.3647,75.124,21.7,98,0.1,936.9,8.35,67.0,21,1.2,0.8,1.9,92.0,46.0,0.6,6,5,7,1,2026-07-05T01:40:48.389277+05:30
Belgaum,Karnataka,15.8497,74.4977,21.2,99,0.1,921.2,3.15,67.0,21,1.5,1.1,2.3,98.0,48.0,0.9,6,5,3,1,2026-07-05T01:40:51.782840+05:30
Coimbatore,Tamil Nadu,11.0168,76.9558,23.2,90,0.0,960.6,6.45,59.8,20,4.0,2.4,3.9,111.0,41.0,1.7,3,5,7,1,2026-07-05T01:40:51.782877+05:30
Madurai,Tamil Nadu,9.9252,78.1198,28.7,62,0.0,991.7,8.0,67.0,30,13.7,10.9,19.1,102.0,21.0,4.0,7,5,7,1,2026-07-05T01:40:51.782888+05:30
Trichy,Tamil Nadu,10.7905,78.7047,28.8,60,0.0,997.8,6.45,74.5,22,10.6,5.8,4.1,110.0,43.0,1.7,4,5,7,1,2026-07-05T01:40:51.782896+05:30
Salem,Tamil Nadu,11.6643,78.146,24.8,83,0.0,975.9,7.7,44.3,34,11.6,10.0,17.7,178.0,25.0,5.4,3,5,7,1,2026-07-05T01:40:51.782906+05:30
Tirunelveli,Tamil Nadu,8.7139,77.7567,28.4,67,0.0,1002.7,8.6,51.8,19,7.6,5.1,7.2,127.0,31.0,1.8,7,5,4,1,2026-07-05T01:40:51.782914+05:30
Vellore,Tamil Nadu,12.9165,79.1325,28.2,60,0.0,981.3,8.25,59.8,23,3.5,2.8,5.8,120.0,41.0,2.4,4,5,7,1,2026-07-05T01:40:51.782921+05:30
Erode,Tamil Nadu,11.341,77.7172,25.9,78,0.0,987.8,8.35,61.2,24,9.3,7.7,12.6,122.0,31.0,2.9,7,5,7,1,2026-07-05T01:40:51.782928+05:30
Kochi,Kerala,9.9312,76.2673,26.4,87,0.1,1009.5,8.2,44.6,42,20.4,13.0,14.9,90.0,21.0,3.8,10,0,4,1,2026-07-05T01:40:51.782936+05:30
Thiruvananthapuram,Kerala,8.5241,76.9366,24.5,96,0.1,1009.2,8.1,47.5,33,29.2,13.5,2.0,87.0,49.0,0.9,6,0,4,1,2026-07-05T01:40:51.782943+05:30
Kozhikode,Kerala,11.2588,75.7804,23.5,98,0.0,1008.9,8.05,45.4,31,17.2,8.2,1.2,145.0,51.0,0.8,3,0,4,1,2026-07-05T01:40:51.782949+05:30
Thrissur,Kerala,10.5276,76.2144,23.5,96,0.0,1008.0,6.05,47.5,39,9.4,6.4,9.0,120.0,31.0,3.1,3,0,4,1,2026-07-05T01:40:51.782957+05:30
Kannur,Kerala,11.8745,75.3704,23.0,100,0.1,1007.8,8.0,51.8,35,9.5,5.2,7.6,164.0,33.0,1.9,6,5,4,1,2026-07-05T01:40:51.782964+05:30
Patna,Bihar,25.5941,85.1376,30.1,78,0.0,990.8,8.0,49.0,68,21.9,21.8,13.8,338.0,83.0,10.2,3,5,7,1,2026-07-05T01:40:51.782970+05:30
Gaya,Bihar,24.7914,85.0002,29.2,77,0.0,984.1,5.6,49.0,60,15.3,15.1,12.7,270.0,64.0,7.3,7,5,3,1,2026-07-05T01:40:51.782977+05:30
Muzaffarpur,Bihar,26.1209,85.3647,29.7,80,0.0,991.1,7.5,48.6,76,26.4,26.0,16.1,354.0,74.0,8.5,7,5,7,1,2026-07-05T01:40:51.782984+05:30
Bhagalpur,Bihar,25.2425,87.0117,28.3,84,0.0,992.5,8.5,50.0,60,15.8,15.4,12.9,241.0,68.0,5.8,7,5,7,1,2026-07-05T01:40:51.782991+05:30
Ranchi,Jharkhand,23.3441,85.3096,23.6,94,0.0,927.9,8.65,48.6,62,10.2,10.2,9.8,201.0,63.0,15.0,3,5,7,1,2026-07-05T01:40:51.782998+05:30
Jamshedpur,Jharkhand,22.8046,86.2029,26.5,89,0.0,979.0,7.2,46.4,56,20.6,19.8,26.8,348.0,41.0,34.4,7,5,7,1,2026-07-05T01:40:51.783005+05:30
Dhanbad,Jharkhand,23.7957,86.4304,27.3,82,0.0,969.6,7.9,54.4,74,23.8,23.5,24.8,220.0,55.0,51.2,7,5,7,1,2026-07-05T01:40:51.783012+05:30
Bokaro,Jharkhand,23.6693,86.1511,26.3,90,0.0,973.4,7.5,52.9,75,25.6,25.2,25.6,209.0,56.0,54.6,7,5,7,1,2026-07-05T01:40:51.783019+05:30
Bhubaneswar,Odisha,20.2961,85.8245,25.3,98,0.0,989.2,7.05,59.0,54,15.4,14.8,14.0,248.0,47.0,6.2,7,5,7,1,2026-07-05T01:40:51.783026+05:30
Cuttack,Odisha,20.4625,85.8828,25.6,97,0.7,990.7,8.2,42.5,54,15.4,14.8,14.0,231.0,47.0,6.2,10,5,7,1,2026-07-05T01:40:51.783032+05:30
Rourkela,Odisha,22.2604,84.8536,26.1,95,0.0,973.1,7.15,43.9,55,13.7,13.7,10.3,364.0,68.0,11.7,7,5,7,1,2026-07-05T01:40:51.783055+05:30
Raipur,Chhattisgarh,21.2514,81.6296,24.7,98,0.0,964.4,4.5,35.6,69,16.1,16.0,23.0,225.0,61.0,36.6,3,5,3,1,2026-07-05T01:40:51.783062+05:30
Bhilai,Chhattisgarh,21.1938,81.3509,24.7,97,0.1,965.0,6.45,36.0,64,13.4,13.3,18.6,452.0,62.0,30.1,6,5,7,1,2026-07-05T01:40:51.783069+05:30
Guwahati,Assam,26.1158,91.7086,28.0,89,0.0,993.3,7.7,34.6,35,14.8,14.6,10.3,261.0,32.0,1.2,7,5,7,1,2026-07-05T01:40:51.783075+05:30
Agartala,Tripura,23.8315,91.2868,27.4,87,0.0,997.8,5.55,43.2,38,5.3,5.0,6.3,128.0,43.0,1.5,7,5,3,1,2026-07-05T01:40:51.783083+05:30
Shillong,Meghalaya,25.5788,91.8933,19.9,97,0.0,852.1,6.05,37.4,24,1.7,1.7,5.3,165.0,48.0,1.4,3,10,7,1,2026-07-05T01:40:51.783089+05:30
Imphal,Manipur,24.817,93.9368,24.0,88,0.1,918.4,3.25,28.8,20,5.3,5.2,5.9,304.0,37.0,1.3,6,5,3,1,2026-07-05T01:40:51.783096+05:30
Aizawl,Mizoram,23.7271,92.7176,21.1,98,0.1,886.0,3.85,35.3,18,3.4,3.3,6.6,172.0,18.0,0.4,6,5,3,1,2026-07-05T01:40:51.783103+05:30
Kohima,Nagaland,25.6701,94.1077,20.3,89,0.0,850.9,6.95,23.0,21,6.2,6.1,9.0,152.0,27.0,0.8,3,5,7,1,2026-07-05T01:40:51.783110+05:30
Gangtok,Sikkim,27.3314,88.6138,18.5,96,0.0,833.0,9.0,33.5,42,9.2,8.9,7.9,287.0,80.0,1.1,3,10,7,1,2026-07-05T01:40:51.783118+05:30
Siliguri,West Bengal,26.7271,88.3953,26.3,86,0.0,984.8,8.2,37.8,69,21.5,21.1,14.9,226.0,76.0,3.7,7,5,7,1,2026-07-05T01:40:55.114173+05:30
Durgapur,West Bengal,23.5204,87.3119,28.2,81,0.0,984.2,7.85,53.6,62,19.8,19.2,18.8,241.0,49.0,17.8,7,5,7,1,2026-07-05T01:40:55.114212+05:30
Asansol,West Bengal,23.6739,86.9524,27.8,81,0.0,982.9,7.05,49.3,60,17.1,16.8,18.1,269.0,55.0,17.8,7,5,7,1,2026-07-05T01:40:55.114224+05:30
Pondicherry,Puducherry,11.9139,79.8145,28.7,62,0.0,1005.4,8.6,47.9,40,10.9,8.9,14.4,178.0,37.0,9.2,7,5,4,1,2026-07-05T01:40:55.114234+05:30
Port Blair,Andaman and Nicobar Islands,11.6234,92.7265,26.3,93,0.0,1005.9,3.9,45.4,41,12.0,6.9,0.2,90.0,58.0,0.4,7,5,0,1,2026-07-05T01:40:55.114242+05:30
Haridwar,Uttarakhand,29.9457,78.1642,28.6,90,0.0,966.7,6.95,27.0,95,67.1,67.1,35.2,490.0,55.0,15.5,7,5,7,1,2026-07-05T01:40:55.114250+05:30
Rishikesh,Uttarakhand,30.0869,78.2676,27.5,86,0.0,959.6,7.05,27.7,78,32.0,31.9,11.2,458.0,103.0,8.2,7,5,7,1,2026-07-05T01:40:55.114259+05:30
Nainital,Uttarakhand,29.3919,79.4542,16.6,100,0.0,801.5,5.9,29.2,65,18.0,17.7,11.1,294.0,75.0,2.4,3,10,3,1,2026-07-05T01:40:55.114268+05:30
Mussoorie,Uttarakhand,30.4599,78.0664,17.9,98,0.0,799.9,7.65,37.1,66,37.0,36.9,22.8,355.0,89.0,9.8,3,10,7,1,2026-07-05T01:40:55.114275+05:30
Dharamshala,Himachal Pradesh,32.219,76.3234,23.2,84,0.0,864.3,7.7,31.7,37,12.1,12.0,16.2,451.0,38.0,0.1,3,5,7,1,2026-07-05T01:40:55.114283+05:30
Dalhousie,Himachal Pradesh,32.5387,75.971,17.0,90,0.0,799.7,7.85,28.4,72,46.1,45.1,32.9,596.0,48.0,1.7,3,10,7,0,2026-07-05T01:40:55.114292+05:30
Patiala,Punjab,30.3398,76.3869,28.9,91,0.0,970.2,6.95,28.1,137,109.0,106.4,61.5,997.0,27.0,13.1,7,5,7,1,2026-07-05T01:40:55.114300+05:30
Bhatinda,Punjab,30.211,74.9455,30.8,80,0.0,974.9,7.5,22.0,130,92.9,50.6,24.7,503.0,69.0,11.0,3,5,7,1,2026-07-05T01:40:55.114307+05:30
Rohtak,Haryana,28.8955,76.6066,30.2,85,0.0,973.3,6.95,30.2,159,198.8,76.6,47.2,740.0,52.0,34.5,3,5,7,1,2026-07-05T01:40:55.114315+05:30
Panipat,Haryana,29.3909,76.9635,29.5,89,0.0,972.3,6.95,32.0,273,310.1,112.0,54.5,841.0,39.0,25.1,7,5,7,1,2026-07-05T01:40:55.114322+05:30
Mathura,Uttar Pradesh,27.4924,77.6737,29.0,87,0.0,978.6,7.7,20.5,111,41.8,38.5,20.0,461.0,84.0,5.4,7,5,7,1,2026-07-05T01:40:55.114329+05:30
Vrindavan,Uttar Pradesh,27.5823,77.7027,29.9,82,0.0,978.8,7.65,20.5,111,41.8,38.5,20.0,445.0,84.0,5.4,7,5,7,1,2026-07-05T01:40:55.114337+05:30
Ayodhya,Uttar Pradesh,26.7922,82.1998,30.5,78,0.0,986.3,6.6,33.5,93,38.1,37.8,19.3,432.0,68.0,8.6,3,5,7,1,2026-07-05T01:40:55.114345+05:30
Ratlam,Madhya Pradesh,23.3315,75.0367,24.2,95,0.2,945.5,8.5,23.4,51,24.2,15.6,5.3,180.0,68.0,2.0,6,5,7,1,2026-07-05T01:40:55.114352+05:30
Sagar,Madhya Pradesh,23.8388,78.7378,23.6,100,0.0,942.1,8.6,27.4,58,18.6,18.5,9.2,241.0,73.0,2.8,3,5,7,1,2026-07-05T01:40:55.114359+05:30
Satna,Madhya Pradesh,24.6005,80.8322,25.6,92,0.0,962.5,7.85,35.6,73,15.4,15.1,9.4,281.0,84.0,2.9,7,5,7,1,2026-07-05T01:40:55.114366+05:30
Akola,Maharashtra,20.7002,77.0082,24.4,94,0.0,967.0,7.9,50.0,30,9.3,7.9,11.8,171.0,52.0,7.8,3,5,7,1,2026-07-05T01:40:55.114375+05:30
Amravati,Maharashtra,20.9374,77.7796,24.4,94,0.0,958.9,6.15,36.4,31,8.7,7.1,11.2,166.0,55.0,8.6,3,5,7,1,2026-07-05T01:40:55.114382+05:30
Latur,Maharashtra,18.4088,76.5604,22.9,94,0.0,933.3,1.2,58.7,21,1.4,1.4,3.5,115.0,46.0,1.0,3,5,3,1,2026-07-05T01:40:55.114390+05:30
Nanded,Maharashtra,19.1383,77.3091,25.3,83,0.0,961.6,2.8,50.0,22,2.5,2.5,6.3,136.0,40.0,3.1,7,5,3,1,2026-07-05T01:40:55.114397+05:30
Gulbarga,Karnataka,17.3297,76.8343,23.4,89,0.0,953.3,1.0,70.6,20,2.1,1.7,4.7,118.0,41.0,1.8,3,5,3,1,2026-07-05T01:40:55.114404+05:30
Bidar,Karnataka,17.9104,77.5199,22.5,95,0.2,929.0,1.75,63.7,20,1.6,1.5,5.2,120.0,40.0,1.9,6,5,3,1,2026-07-05T01:40:55.114411+05:30
Hospet,Karnataka,15.2689,76.3909,22.4,96,0.1,952.1,4.7,71.6,21,1.5,1.1,2.7,101.0,44.0,1.0,6,5,3,1,2026-07-05T01:40:55.114420+05:30
Tirupur,Tamil Nadu,11.1085,77.3411,24.4,86,0.0,973.8,8.55,75.2,26,10.2,8.8,15.2,111.0,27.0,3.5,3,5,7,1,2026-07-05T01:40:55.114426+05:30
Alappuzha,Kerala,9.4981,76.3388,26.6,89,0.0,1009.6,8.1,43.9,39,20.9,11.0,6.1,83.0,39.0,1.8,7,0,4,1,2026-07-05T01:40:55.114433+05:30
Munnar,Kerala,10.0889,77.0595,16.7,99,0.3,856.1,3.75,52.9,17,3.4,2.2,4.7,90.0,30.0,1.4,6,10,3,1,2026-07-05T01:40:55.114441+05:30
Silchar,Assam,24.8333,92.7789,26.4,98,0.1,997.9,7.8,34.9,46,13.7,13.6,7.6,229.0,42.0,3.3,10,5,7,1,2026-07-05T01:40:55.114449+05:30
Dibrugarh,Assam,27.4728,94.912,28.3,77,0.0,988.2,8.95,30.2,59,33.4,32.8,33.5,169.0,0.0,2.0,7,5,7,1,2026-07-05T01:40:55.114455+05:30
