city,state,latitude,longitude,temp,humidity,rain,pressure,uv_index,wind_gusts,aqi,pm10,pm2_5,mosquito_risk,arthritis_risk,migraine_risk,frizz_risk,updated_at
Delhi,Delhi,28.6139,77.209,18.7,81,0.0,985.8,3.1,20.2,140,49.7,30.3,3,10,3,0,2026-03-20T17:04:37.082314+05:30
Mumbai,Maharashtra,19.076,72.8777,27.1,75,0.0,1008.2,7.8,24.5,112,42.6,21.5,7,0,4,1,2026-03-20T17:04:37.082359+05:30
Bangalore,Karnataka,12.9716,77.5946,30.1,34,0.0,910.4,9.4,18.0,158,30.7,21.3,0,5,7,0,2026-03-20T17:04:37.082374+05:30
Hyderabad,Telangana,17.385,78.4867,31.6,28,0.0,951.9,8.8,22.3,109,33.5,19.7,0,5,7,0,2026-03-20T17:04:37.082383+05:30
Chennai,Tamil Nadu,13.0827,80.2707,30.5,63,0.0,1006.4,9.15,31.0,43,13.1,10.5,3,5,4,1,2026-03-20T17:04:37.082391+05:30
Kolkata,West Bengal,22.5726,88.3639,24.1,82,0.0,1007.8,7.5,36.0,81,21.0,17.5,3,5,4,1,2026-03-20T17:04:37.082399+05:30
Pune,Maharashtra,18.5204,73.8567,31.8,31,0.0,947.4,8.35,36.7,90,49.9,20.0,0,5,7,0,2026-03-20T17:04:37.082409+05:30
Ahmedabad,Gujarat,23.0225,72.5714,30.7,33,0.0,1002.7,7.6,33.1,74,47.3,16.4,0,5,4,0,2026-03-20T17:04:37.082415+05:30
Jaipur,Rajasthan,26.9124,75.7873,22.3,56,0.0,960.8,6.7,25.6,82,18.3,8.4,0,5,7,0,2026-03-20T17:04:37.082422+05:30
Lucknow,Uttar Pradesh,26.8467,80.9462,23.8,67,0.1,994.7,4.95,36.0,101,85.4,34.5,6,5,3,1,2026-03-20T17:04:37.082429+05:30
Kanpur,Uttar Pradesh,26.4499,80.3319,23.1,73,0.0,992.9,2.95,37.8,128,107.1,40.3,3,5,3,1,2026-03-20T17:04:37.082435+05:30
Chandigarh,Chandigarh,30.7333,76.7794,18.2,84,0.0,971.4,1.3,25.2,90,54.7,26.9,3,10,3,0,2026-03-20T17:04:37.082442+05:30
Srinagar,Jammu and Kashmir,34.0837,74.7973,11.2,68,0.0,838.8,4.8,18.4,98,15.4,14.2,3,5,3,0,2026-03-20T17:04:37.082449+05:30
Jammu,Jammu and Kashmir,32.7266,74.857,19.1,83,0.0,975.6,4.95,14.4,94,27.9,12.5,3,10,3,1,2026-03-20T17:04:37.082455+05:30
Amritsar,Punjab,31.634,74.8723,19.8,73,0.0,983.9,5.35,16.9,96,42.7,18.6,3,5,3,0,2026-03-20T17:04:37.082461+05:30
Ludhiana,Punjab,30.901,75.8573,18.9,82,0.0,982.0,3.1,16.9,97,55.2,25.1,3,10,3,0,2026-03-20T17:04:37.082466+05:30
Jalandhar,Punjab,31.326,75.5762,18.3,84,0.0,983.2,4.2,16.9,84,38.8,15.5,3,10,3,0,2026-03-20T17:04:37.082474+05:30
Dehradun,Uttarakhand,30.6284,78.0322,9.3,76,0.4,827.2,0.35,34.6,56,7.0,5.8,6,5,3,0,2026-03-20T17:04:37.082479+05:30
Shimla,Himachal Pradesh,31.1048,77.1734,8.5,82,0.3,781.0,0.5,33.5,51,5.4,3.4,6,10,3,0,2026-03-20T17:04:37.082485+05:30
Manali,Himachal Pradesh,32.2396,77.1887,9.8,97,0.4,814.1,3.15,26.6,58,0.7,0.7,6,10,3,0,2026-03-20T17:04:37.082491+05:30
Gurgaon,Haryana,28.4595,77.0266,18.1,87,0.1,984.2,3.25,17.3,154,53.8,37.8,6,10,3,0,2026-03-20T17:04:37.082496+05:30
Noida,Uttar Pradesh,28.5355,77.391,19.0,81,0.0,987.3,2.6,21.2,154,53.8,37.8,3,10,3,0,2026-03-20T17:04:37.082502+05:30
Ghaziabad,Uttar Pradesh,28.6692,77.4538,18.5,85,0.0,985.5,2.35,19.1,135,61.0,34.2,3,10,3,0,2026-03-20T17:04:37.082507+05:30
Faridabad,Haryana,28.4089,77.3178,18.8,81,0.0,986.5,3.1,19.8,154,53.8,37.8,3,10,3,0,2026-03-20T17:04:37.082514+05:30
Meerut,Uttar Pradesh,28.9845,77.7064,17.8,89,0.0,984.4,1.9,24.8,135,61.0,34.2,3,10,3,0,2026-03-20T17:04:37.082519+05:30
Agra,Uttar Pradesh,27.1767,78.0081,21.7,69,0.0,989.9,5.15,25.2,513,71.5,29.5,3,5,3,0,2026-03-20T17:04:37.082525+05:30
Varanasi,Uttar Pradesh,25.3176,82.9739,26.1,64,0.0,998.5,7.25,50.0,95,27.6,21.1,7,5,7,1,2026-03-20T17:04:37.082534+05:30
Prayagraj,Uttar Pradesh,25.4358,81.8463,25.8,64,0.0,996.6,4.75,56.9,86,38.6,24.0,7,5,3,1,2026-03-20T17:04:37.082540+05:30
Gorakhpur,Uttar Pradesh,26.7606,83.3732,25.7,63,0.0,998.3,7.0,32.4,143,59.6,33.1,7,5,7,1,2026-03-20T17:04:37.082545+05:30
Bareilly,Uttar Pradesh,28.367,79.4304,20.0,81,0.0,989.3,2.85,29.9,84,43.1,27.8,3,5,3,1,2026-03-20T17:04:37.082551+05:30
Aligarh,Uttar Pradesh,27.8974,78.088,20.2,80,0.0,987.8,3.8,23.4,129,67.8,36.0,3,5,3,1,2026-03-20T17:04:37.082556+05:30
Moradabad,Uttar Pradesh,28.8386,78.7733,18.6,87,0.0,986.4,2.3,25.6,93,60.1,36.3,3,10,3,1,2026-03-20T17:04:37.082561+05:30
Saharanpur,Uttar Pradesh,29.9637,77.546,16.9,93,0.2,978.7,0.6,15.8,144,44.6,24.4,6,10,3,0,2026-03-20T17:04:37.082566+05:30
Jhansi,Uttar Pradesh,25.4484,78.5685,22.8,69,0.0,978.9,5.8,30.6,98,118.7,44.8,3,5,3,1,2026-03-20T17:04:40.332594+05:30
Surat,Gujarat,21.1702,72.8311,28.4,57,0.0,1007.5,7.5,24.8,107,64.7,33.9,4,5,4,1,2026-03-20T17:04:40.332625+05:30
Vadodara,Gujarat,22.3072,73.1812,31.4,39,0.0,1004.6,7.6,28.1,76,88.0,27.9,0,5,4,0,2026-03-20T17:04:40.332635+05:30
Rajkot,Gujarat,22.3039,70.8022,30.2,41,0.0,995.0,7.45,30.2,83,82.7,25.2,0,5,7,0,2026-03-20T17:04:40.332644+05:30
Thane,Maharashtra,19.2183,72.9781,28.4,63,0.0,1007.8,7.8,36.4,112,42.6,21.5,7,5,4,1,2026-03-20T17:04:40.332652+05:30
Nagpur,Maharashtra,21.1458,79.0882,24.7,63,0.0,973.8,8.15,37.8,95,40.0,16.9,3,5,7,1,2026-03-20T17:04:40.332660+05:30
Nashik,Maharashtra,19.9975,73.7898,28.5,41,0.0,945.2,8.0,33.8,55,46.9,14.6,4,5,7,0,2026-03-20T17:04:40.332667+05:30
Aurangabad,Maharashtra,19.8762,75.3433,32.0,19,0.0,942.8,8.5,33.8,74,83.6,21.8,0,5,7,0,2026-03-20T17:04:40.332674+05:30
Solapur,Maharashtra,17.6599,75.9064,33.9,21,0.0,955.4,8.65,23.8,130,37.1,22.3,0,5,7,0,2026-03-20T17:04:40.332682+05:30
Kolhapur,Maharashtra,16.705,74.2433,30.3,35,0.0,946.6,8.8,43.2,79,25.1,19.4,0,5,7,0,2026-03-20T17:04:40.332688+05:30
Goa,Goa,15.2993,74.124,29.6,64,0.0,996.6,8.8,35.6,60,29.0,17.3,7,5,7,1,2026-03-20T17:04:40.332695+05:30
Jodhpur,Rajasthan,26.2389,73.0243,27.7,36,0.0,984.5,7.25,19.8,68,67.5,18.6,4,5,7,0,2026-03-20T17:04:40.332702+05:30
Udaipur,Rajasthan,24.5854,73.7125,25.5,38,0.0,946.7,4.7,30.6,61,37.1,11.6,4,5,3,0,2026-03-20T17:04:40.332709+05:30
Kota,Rajasthan,25.2138,75.8648,26.0,47,0.0,979.7,6.4,34.6,62,39.2,13.4,4,5,7,0,2026-03-20T17:04:40.332716+05:30
Bikaner,Rajasthan,28.0229,73.3119,26.6,38,0.0,983.7,6.95,17.6,62,36.9,15.1,4,5,7,0,2026-03-20T17:04:40.332722+05:30
Ajmer,Rajasthan,26.4499,74.6399,23.8,50,0.0,955.4,7.2,27.4,60,27.9,10.7,0,5,7,0,2026-03-20T17:04:40.332729+05:30
Gwalior,Madhya Pradesh,26.2183,78.1828,22.1,71,0.0,984.9,6.3,31.0,120,84.5,31.8,3,5,7,1,2026-03-20T17:04:40.332736+05:30
Indore,Madhya Pradesh,22.7196,75.8577,25.8,46,0.0,947.7,7.85,38.5,67,70.1,22.5,4,5,7,0,2026-03-20T17:04:40.332743+05:30
Bhopal,Madhya Pradesh,23.2599,77.4126,23.6,58,0.0,953.7,7.75,46.1,72,67.8,22.9,0,5,7,0,2026-03-20T17:04:40.332749+05:30
Jabalpur,Madhya Pradesh,23.1815,79.9864,26.9,45,0.0,961.1,4.9,36.0,69,23.6,12.8,4,5,3,0,2026-03-20T17:04:40.332756+05:30
Ujjain,Madhya Pradesh,23.1765,75.7885,25.5,46,0.0,953.6,7.75,39.6,66,58.6,19.1,4,5,7,0,2026-03-20T17:04:40.332764+05:30
Visakhapatnam,Andhra Pradesh,17.6868,83.2185,28.6,62,0.0,1003.6,8.8,39.2,64,21.1,16.1,7,5,4,1,2026-03-20T17:04:40.332770+05:30
Vijayawada,Andhra Pradesh,16.5062,80.648,31.6,45,0.0,1001.5,8.85,19.1,62,21.8,15.8,0,5,4,1,2026-03-20T17:04:40.332804+05:30
Guntur,Andhra Pradesh,16.3067,80.4365,31.6,45,0.0,1002.5,8.85,19.1,57,21.0,14.9,0,5,4,1,2026-03-20T17:04:40.332814+05:30
Nellore,Andhra Pradesh,14.4426,79.9865,31.3,56,0.0,1004.7,9.0,27.4,54,13.8,10.0,0,5,4,1,2026-03-20T17:04:40.332822+05:30
Kurnool,Andhra Pradesh,15.8281,78.0373,34.6,27,0.0,974.8,8.85,19.4,76,21.5,12.4,0,5,7,0,2026-03-20T17:04:40.332831+05:30
Kakinada,Andhra Pradesh,16.9891,82.2475,28.7,64,0.0,1007.0,8.8,27.7,48,12.9,9.7,7,5,4,1,2026-03-20T17:04:40.332837+05:30
Tirupati,Andhra Pradesh,13.6288,79.4192,31.9,45,0.0,990.1,9.1,22.0,51,19.3,14.0,0,5,7,1,2026-03-20T17:04:40.332845+05:30
Warangal,Telangana,17.9689,79.5941,29.0,51,0.0,978.6,8.65,28.4,89,41.6,30.6,4,5,7,1,2026-03-20T17:04:40.332852+05:30
Nizamabad,Telangana,18.6725,78.0941,31.8,29,0.0,963.7,8.55,25.9,99,40.0,23.3,0,5,7,0,2026-03-20T17:04:40.332858+05:30
Mysore,Karnataka,12.2958,76.6396,31.8,31,0.0,926.6,9.35,26.6,144,22.5,14.1,0,5,7,0,2026-03-20T17:04:40.332865+05:30
Mangalore,Karnataka,12.9141,74.856,29.0,75,0.0,1004.7,9.0,27.7,84,22.4,14.7,7,5,4,1,2026-03-20T17:04:40.332872+05:30
Hubli-Dharwad,Karnataka,15.3647,75.124,32.0,28,0.0,939.2,9.0,35.3,114,31.0,16.6,0,5,7,0,2026-03-20T17:04:40.332879+05:30
Belgaum,Karnataka,15.8497,74.4977,29.8,34,0.0,924.4,9.05,41.4,86,26.3,19.4,4,5,7,0,2026-03-20T17:04:43.581413+05:30
Coimbatore,Tamil Nadu,11.0168,76.9558,32.1,41,0.0,959.6,9.35,36.7,98,18.9,14.2,0,5,7,1,2026-03-20T17:04:43.581442+05:30
Madurai,Tamil Nadu,9.9252,78.1198,33.8,40,0.0,990.7,9.3,23.0,105,21.5,13.6,0,5,7,1,2026-03-20T17:04:43.581451+05:30
Trichy,Tamil Nadu,10.7905,78.7047,33.3,47,0.0,997.6,9.25,24.8,108,21.4,17.0,0,5,7,1,2026-03-20T17:04:43.581460+05:30
Salem,Tamil Nadu,11.6643,78.146,33.4,40,0.0,975.2,9.3,20.9,142,32.2,22.7,0,5,7,1,2026-03-20T17:04:43.581467+05:30
Tirunelveli,Tamil Nadu,8.7139,77.7567,32.3,53,0.0,1001.0,9.25,34.2,71,18.4,13.9,0,5,4,1,2026-03-20T17:04:43.581475+05:30
Vellore,Tamil Nadu,12.9165,79.1325,31.8,43,0.0,983.2,9.2,21.6,66,17.5,13.5,0,5,7,1,2026-03-20T17:04:43.581482+05:30
Erode,Tamil Nadu,11.341,77.7172,34.5,39,0.0,986.5,9.25,26.6,120,21.9,16.0,0,5,7,1,2026-03-20T17:04:43.581489+05:30
Kochi,Kerala,9.9312,76.2673,28.8,74,0.0,1006.0,9.15,38.2,69,17.2,12.6,7,5,4,1,2026-03-20T17:04:43.581496+05:30
Thiruvananthapuram,Kerala,8.5241,76.9366,28.8,77,0.0,1005.9,9.15,30.6,82,19.6,14.2,7,5,4,1,2026-03-20T17:04:43.581503+05:30
Kozhikode,Kerala,11.2588,75.7804,29.6,72,0.0,1005.7,9.05,32.0,71,25.1,16.1,7,5,4,1,2026-03-20T17:04:43.581510+05:30
Thrissur,Kerala,10.5276,76.2144,30.9,63,0.0,1004.4,9.1,39.6,70,17.3,12.2,3,5,4,1,2026-03-20T17:04:43.581517+05:30
Kannur,Kerala,11.8745,75.3704,30.3,65,0.0,1005.1,9.05,40.3,76,18.2,12.5,3,5,4,1,2026-03-20T17:04:43.581524+05:30
Patna,Bihar,25.5941,85.1376,29.6,52,0.0,1000.4,7.65,44.3,157,61.9,55.2,4,5,4,1,2026-03-20T17:04:43.581531+05:30
Gaya,Bihar,24.7914,85.0002,29.4,47,0.0,993.7,7.8,30.6,150,47.5,40.6,4,5,7,1,2026-03-20T17:04:43.581538+05:30
Muzaffarpur,Bihar,26.1209,85.3647,27.9,62,0.0,1000.2,7.65,31.7,160,61.9,54.6,7,5,4,1,2026-03-20T17:04:43.581545+05:30
Bhagalpur,Bihar,25.2425,87.0117,25.4,73,0.0,1002.5,7.7,44.6,154,54.1,48.3,7,5,4,1,2026-03-20T17:04:43.581551+05:30
Ranchi,Jharkhand,23.3441,85.3096,25.1,53,0.0,937.6,7.7,27.4,146,55.1,40.7,4,5,7,0,2026-03-20T17:04:43.581559+05:30
Jamshedpur,Jharkhand,22.8046,86.2029,27.0,61,0.0,990.9,7.9,28.4,160,55.8,43.2,7,5,7,1,2026-03-20T17:04:43.581565+05:30
Dhanbad,Jharkhand,23.7957,86.4304,28.6,44,0.0,979.7,7.6,51.8,154,60.1,51.3,4,5,7,0,2026-03-20T17:04:43.581571+05:30
Bokaro,Jharkhand,23.6693,86.1511,28.7,43,0.0,983.6,7.7,51.8,144,47.6,38.1,4,5,7,0,2026-03-20T17:04:43.581578+05:30
Bhubaneswar,Odisha,20.2961,85.8245,29.7,50,0.0,1002.5,8.55,33.5,65,22.1,18.2,4,5,4,1,2026-03-20T17:04:43.581585+05:30
Cuttack,Odisha,20.4625,85.8828,29.4,55,0.0,1004.3,8.35,34.2,65,22.1,18.2,4,5,4,1,2026-03-20T17:04:43.581592+05:30
Rourkela,Odisha,22.2604,84.8536,28.5,54,0.0,984.8,7.55,37.1,177,47.3,36.1,4,5,7,1,2026-03-20T17:04:43.581599+05:30
Raipur,Chhattisgarh,21.2514,81.6296,27.5,51,0.0,974.6,7.4,45.0,119,39.5,30.5,4,5,7,1,2026-03-20T17:04:43.581605+05:30
Bhilai,Chhattisgarh,21.1938,81.3509,26.8,56,0.0,974.9,6.9,35.3,112,36.2,26.3,4,5,7,1,2026-03-20T17:04:43.581612+05:30
Guwahati,Assam,26.1158,91.7086,26.7,66,0.0,1003.9,7.1,27.4,101,39.9,30.6,7,5,4,1,2026-03-20T17:04:43.581618+05:30
Agartala,Tripura,23.8315,91.2868,24.9,85,0.1,1008.5,6.4,29.2,100,40.5,34.7,6,0,4,1,2026-03-20T17:04:43.581626+05:30
Shillong,Meghalaya,25.5788,91.8933,15.1,72,0.0,857.2,7.5,32.4,113,35.3,25.4,3,5,7,0,2026-03-20T17:04:43.581632+05:30
Imphal,Manipur,24.817,93.9368,20.2,68,0.0,924.8,7.9,44.6,103,29.3,20.7,3,5,7,0,2026-03-20T17:04:43.581640+05:30
Aizawl,Mizoram,23.7271,92.7176,22.7,49,0.0,894.5,7.6,23.8,107,45.5,34.1,0,5,7,0,2026-03-20T17:04:43.581647+05:30
Kohima,Nagaland,25.6701,94.1077,15.3,91,0.0,856.0,7.7,62.3,102,36.1,23.6,3,10,7,0,2026-03-20T17:04:43.581654+05:30
Gangtok,Sikkim,27.3314,88.6138,14.7,87,0.0,837.4,7.9,20.2,99,38.9,26.1,3,10,7,0,2026-03-20T17:04:43.581660+05:30
Siliguri,West Bengal,26.7271,88.3953,19.5,88,0.0,996.4,7.6,23.0,151,83.6,59.6,3,10,7,1,2026-03-20T17:04:46.838870+05:30
Durgapur,West Bengal,23.5204,87.3119,27.0,64,0.0,996.0,7.0,41.0,154,56.2,50.3,7,5,7,1,2026-03-20T17:04:46.838899+05:30
Asansol,West Bengal,23.6739,86.9524,27.2,61,0.0,994.7,5.4,37.4,152,53.9,48.1,7,5,3,1,2026-03-20T17:04:46.838909+05:30
Pondicherry,Puducherry,11.9139,79.8145,31.5,62,0.0,1006.9,9.1,23.0,49,16.1,14.8,3,5,4,1,2026-03-20T17:04:46.838917+05:30
Port Blair,Andaman and Nicobar Islands,11.6234,92.7265,28.3,75,0.0,1007.4,6.3,13.7,43,13.5,9.9,7,5,4,1,2026-03-20T17:04:46.838925+05:30
Haridwar,Uttarakhand,29.9457,78.1642,17.2,92,0.1,977.0,0.7,27.7,81,47.1,25.6,6,10,3,0,2026-03-20T17:04:46.838933+05:30
Rishikesh,Uttarakhand,30.0869,78.2676,16.9,91,0.1,969.2,0.9,27.7,67,36.8,21.7,6,10,3,0,2026-03-20T17:04:46.838940+05:30
Nainital,Uttarakhand,29.3919,79.4542,13.3,88,0.1,803.8,1.9,67.0,68,38.5,23.2,6,10,3,0,2026-03-20T17:04:46.838947+05:30
Mussoorie,Uttarakhand,30.4599,78.0664,9.9,86,0.7,799.5,0.45,46.8,67,25.1,19.4,6,10,3,0,2026-03-20T17:04:46.838955+05:30
Dharamshala,Himachal Pradesh,32.219,76.3234,13.7,87,0.0,867.5,2.15,27.0,54,8.2,3.8,3,10,3,0,2026-03-20T17:04:46.838962+05:30
Dalhousie,Himachal Pradesh,32.5387,75.971,11.4,70,0.0,801.1,1.7,25.9,63,28.5,11.4,3,5,3,0,2026-03-20T17:04:46.838970+05:30
Patiala,Punjab,30.3398,76.3869,18.5,85,0.0,981.2,2.2,17.6,97,54.7,27.0,3,10,3,0,2026-03-20T17:04:46.838977+05:30
Bhatinda,Punjab,30.211,74.9455,21.3,69,0.0,986.7,5.95,25.6,107,52.2,33.3,3,5,3,0,2026-03-20T17:04:46.838984+05:30
Rohtak,Haryana,28.8955,76.6066,18.5,85,0.0,984.6,3.75,18.4,132,44.2,26.3,3,10,3,0,2026-03-20T17:04:46.838990+05:30
Panipat,Haryana,29.3909,76.9635,17.5,90,0.0,983.3,2.6,15.8,150,47.4,24.6,3,10,3,0,2026-03-20T17:04:46.838997+05:30
Mathura,Uttar Pradesh,27.4924,77.6737,20.9,73,0.0,989.2,5.25,22.0,136,38.1,25.3,3,5,3,0,2026-03-20T17:04:46.839004+05:30
Vrindavan,Uttar Pradesh,27.5823,77.7027,20.3,76,0.0,989.8,5.25,22.3,136,38.1,25.3,3,5,3,0,2026-03-20T17:04:46.839011+05:30
Ayodhya,Uttar Pradesh,26.7922,82.1998,24.3,71,0.0,996.9,6.25,34.9,130,58.3,31.2,3,5,7,1,2026-03-20T17:04:46.839017+05:30
Ratlam,Madhya Pradesh,23.3315,75.0367,26.6,42,0.0,954.6,7.7,41.4,65,52.6,17.8,4,5,7,0,2026-03-20T17:04:46.839024+05:30
Sagar,Madhya Pradesh,23.8388,78.7378,25.1,52,0.0,949.7,7.6,36.0,71,45.8,17.0,4,5,7,0,2026-03-20T17:04:46.839031+05:30
Satna,Madhya Pradesh,24.6005,80.8322,27.6,41,0.0,971.1,4.75,50.4,73,27.9,14.3,4,5,3,0,2026-03-20T17:04:46.839038+05:30
Akola,Maharashtra,20.7002,77.0082,32.1,25,0.0,974.2,8.2,29.5,94,68.9,20.4,0,5,7,0,2026-03-20T17:04:46.839045+05:30
Amravati,Maharashtra,20.9374,77.7796,31.0,28,0.0,966.6,8.15,35.6,99,65.0,20.2,0,5,7,0,2026-03-20T17:04:46.839053+05:30
Latur,Maharashtra,18.4088,76.5604,31.1,25,0.0,938.6,8.6,24.1,123,37.3,23.7,0,5,7,0,2026-03-20T17:04:46.839060+05:30
Nanded,Maharashtra,19.1383,77.3091,32.2,31,0.0,967.5,8.4,23.8,101,31.2,20.0,0,5,7,0,2026-03-20T17:04:46.839067+05:30
Gulbarga,Karnataka,17.3297,76.8343,33.6,21,0.0,957.1,8.7,24.5,129,37.8,19.0,0,5,7,0,2026-03-20T17:04:46.839073+05:30
Bidar,Karnataka,17.9104,77.5199,30.9,28,0.0,934.6,8.65,26.3,108,41.7,25.4,0,5,7,0,2026-03-20T17:04:46.839080+05:30
Hospet,Karnataka,15.2689,76.3909,33.0,28,0.0,954.1,8.95,11.5,123,27.1,18.4,0,5,7,0,2026-03-20T17:04:46.839086+05:30
Tirupur,Tamil Nadu,11.1085,77.3411,34.0,34,0.0,972.8,9.35,28.1,115,22.1,15.5,0,5,7,0,2026-03-20T17:04:46.839093+05:30
Alappuzha,Kerala,9.4981,76.3388,28.9,74,0.0,1006.3,9.1,32.8,95,26.5,18.5,7,5,4,1,2026-03-20T17:04:46.839099+05:30
Munnar,Kerala,10.0889,77.0595,27.3,49,0.0,857.0,9.6,37.4,52,16.2,10.5,4,5,7,0,2026-03-20T17:04:46.839106+05:30
Silchar,Assam,24.8333,92.7789,28.3,64,0.0,1006.6,7.55,19.1,110,35.6,26.8,7,5,4,1,2026-03-20T17:04:46.839113+05:30
Dibrugarh,Assam,27.4728,94.912,25.3,65,0.0,998.4,7.75,14.0,96,48.8,32.7,7,5,7,1,2026-03-20T17:04:46.839120+05:30
