city,state,latitude,longitude,temp,humidity,rain,pressure,uv_index,wind_gusts,aqi,pm10,pm2_5,mosquito_risk,arthritis_risk,migraine_risk,frizz_risk,updated_at
Delhi,Delhi,28.6139,77.209,22.0,66,0.0,990.6,5.7,25.2,160,100.6,71.9,3,5,3,0,2026-03-21T11:13:05.223461+05:30
Mumbai,Maharashtra,19.076,72.8777,28.3,59,0.0,1012.2,7.85,29.5,79,49.2,25.2,4,0,4,1,2026-03-21T11:13:05.223500+05:30
Bangalore,Karnataka,12.9716,77.5946,28.0,54,0.0,915.3,8.55,37.1,90,28.4,22.4,4,5,7,1,2026-03-21T11:13:05.223516+05:30
Hyderabad,Telangana,17.385,78.4867,31.1,40,0.0,957.1,8.85,24.1,83,21.7,13.3,0,5,7,0,2026-03-21T11:13:05.223526+05:30
Chennai,Tamil Nadu,13.0827,80.2707,32.4,56,0.0,1011.0,9.15,34.6,39,13.0,8.6,0,0,4,1,2026-03-21T11:13:05.223535+05:30
Kolkata,West Bengal,22.5726,88.3639,24.5,77,0.0,1011.6,7.5,25.9,66,8.9,8.5,3,0,4,1,2026-03-21T11:13:05.223544+05:30
Pune,Maharashtra,18.5204,73.8567,29.5,41,0.0,952.5,8.4,28.8,90,45.3,17.8,4,5,7,0,2026-03-21T11:13:05.223556+05:30
Ahmedabad,Gujarat,23.0225,72.5714,30.2,37,0.0,1008.2,7.7,14.0,69,27.1,13.7,0,0,4,0,2026-03-21T11:13:05.223565+05:30
Jaipur,Rajasthan,26.9124,75.7873,23.8,60,0.0,966.7,6.5,24.1,72,53.4,18.9,0,5,7,0,2026-03-21T11:13:05.223572+05:30
Lucknow,Uttar Pradesh,26.8467,80.9462,20.9,75,0.0,1001.1,6.25,24.5,121,73.8,35.9,3,5,4,1,2026-03-21T11:13:05.223579+05:30
Kanpur,Uttar Pradesh,26.4499,80.3319,22.3,72,0.0,999.2,6.7,23.8,120,95.7,33.3,3,5,7,1,2026-03-21T11:13:05.223586+05:30
Chandigarh,Chandigarh,30.7333,76.7794,21.1,66,0.0,976.0,6.35,28.8,79,15.1,10.0,3,5,7,0,2026-03-21T11:13:05.223593+05:30
Srinagar,Jammu and Kashmir,34.0837,74.7973,10.4,72,0.0,844.1,6.55,13.7,58,17.7,15.5,3,5,7,0,2026-03-21T11:13:05.223600+05:30
Jammu,Jammu and Kashmir,32.7266,74.857,20.9,63,0.0,979.6,6.8,18.7,85,26.7,18.5,3,5,7,0,2026-03-21T11:13:05.223607+05:30
Amritsar,Punjab,31.634,74.8723,21.6,71,0.0,988.3,6.2,13.7,98,61.2,38.4,3,5,7,1,2026-03-21T11:13:05.223613+05:30
Ludhiana,Punjab,30.901,75.8573,20.7,73,0.0,986.4,5.75,22.3,131,38.0,25.6,3,5,3,0,2026-03-21T11:13:05.223620+05:30
Jalandhar,Punjab,31.326,75.5762,20.8,70,0.0,987.4,6.1,18.4,114,44.0,25.7,3,5,7,0,2026-03-21T11:13:05.223629+05:30
Dehradun,Uttarakhand,30.6284,78.0322,13.9,62,0.0,832.3,6.7,22.3,43,2.3,1.2,3,5,7,0,2026-03-21T11:13:05.223637+05:30
Shimla,Himachal Pradesh,31.1048,77.1734,12.3,62,0.0,786.5,6.35,32.0,42,8.7,3.3,3,5,7,0,2026-03-21T11:13:05.223644+05:30
Manali,Himachal Pradesh,32.2396,77.1887,14.1,42,0.0,819.4,8.55,22.0,43,4.5,2.5,0,5,7,0,2026-03-21T11:13:05.223651+05:30
Gurgaon,Haryana,28.4595,77.0266,21.1,77,0.0,989.1,5.85,21.6,165,103.8,78.9,3,5,3,1,2026-03-21T11:13:05.223657+05:30
Noida,Uttar Pradesh,28.5355,77.391,21.9,69,0.0,992.2,6.0,23.8,165,103.8,78.9,3,5,3,0,2026-03-21T11:13:05.223666+05:30
Ghaziabad,Uttar Pradesh,28.6692,77.4538,20.8,76,0.0,990.4,5.7,22.7,161,82.2,67.5,3,5,3,1,2026-03-21T11:13:05.223672+05:30
Faridabad,Haryana,28.4089,77.3178,21.7,73,0.0,991.5,6.3,23.8,165,103.8,78.9,3,5,7,1,2026-03-21T11:13:05.223678+05:30
Meerut,Uttar Pradesh,28.9845,77.7064,21.2,77,0.0,989.0,6.05,23.0,161,82.2,67.5,3,5,7,1,2026-03-21T11:13:05.223684+05:30
Agra,Uttar Pradesh,27.1767,78.0081,23.6,62,0.0,995.7,6.8,29.5,151,187.7,58.4,3,5,7,0,2026-03-21T11:13:05.223691+05:30
Varanasi,Uttar Pradesh,25.3176,82.9739,20.5,80,0.0,1005.3,5.1,25.9,96,50.1,29.2,3,5,0,1,2026-03-21T11:13:05.223700+05:30
Prayagraj,Uttar Pradesh,25.4358,81.8463,22.1,78,0.0,1003.5,7.35,26.3,97,77.5,31.3,3,5,4,1,2026-03-21T11:13:05.223706+05:30
Gorakhpur,Uttar Pradesh,26.7606,83.3732,20.4,82,0.0,1005.2,5.65,21.2,122,66.1,38.1,3,5,0,1,2026-03-21T11:13:05.223713+05:30
Bareilly,Uttar Pradesh,28.367,79.4304,22.0,70,0.0,994.0,6.55,19.8,150,56.6,40.0,3,5,7,1,2026-03-21T11:13:05.223720+05:30
Aligarh,Uttar Pradesh,27.8974,78.088,21.4,76,0.0,993.2,6.4,24.8,160,86.6,71.2,3,5,7,1,2026-03-21T11:13:05.223728+05:30
Moradabad,Uttar Pradesh,28.8386,78.7733,21.6,69,0.0,990.9,6.45,19.4,153,59.6,43.4,3,5,7,0,2026-03-21T11:13:05.223735+05:30
Saharanpur,Uttar Pradesh,29.9637,77.546,20.7,73,0.0,983.0,6.1,27.4,157,61.5,57.4,3,5,7,0,2026-03-21T11:13:05.223740+05:30
Jhansi,Uttar Pradesh,25.4484,78.5685,24.1,56,0.0,985.2,7.4,26.3,121,53.7,27.7,0,5,7,0,2026-03-21T11:13:08.542709+05:30
Surat,Gujarat,21.1702,72.8311,29.9,48,0.0,1011.9,7.55,27.4,114,41.1,33.9,4,0,4,1,2026-03-21T11:13:08.542742+05:30
Vadodara,Gujarat,22.3072,73.1812,31.4,35,0.0,1010.0,7.35,14.0,72,28.2,15.1,0,0,4,0,2026-03-21T11:13:08.542754+05:30
Rajkot,Gujarat,22.3039,70.8022,28.7,54,0.0,999.9,7.0,22.7,64,17.7,7.0,4,5,7,1,2026-03-21T11:13:08.542764+05:30
Thane,Maharashtra,19.2183,72.9781,31.9,37,0.0,1011.7,7.85,42.8,79,49.2,25.2,0,0,4,0,2026-03-21T11:13:08.542772+05:30
Nagpur,Maharashtra,21.1458,79.0882,28.2,44,0.0,978.9,8.3,24.8,69,48.0,20.0,4,5,7,0,2026-03-21T11:13:08.542781+05:30
Nashik,Maharashtra,19.9975,73.7898,27.2,41,0.0,949.9,8.05,24.1,66,19.6,8.6,4,5,7,0,2026-03-21T11:13:08.542790+05:30
Aurangabad,Maharashtra,19.8762,75.3433,28.8,35,0.0,948.6,8.6,24.5,62,16.2,9.1,4,5,7,0,2026-03-21T11:13:08.542798+05:30
Solapur,Maharashtra,17.6599,75.9064,30.8,38,0.0,961.4,8.75,27.7,67,36.2,16.4,0,5,7,0,2026-03-21T11:13:08.542807+05:30
Kolhapur,Maharashtra,16.705,74.2433,28.2,46,0.0,952.0,8.85,28.1,79,37.5,20.7,4,5,7,0,2026-03-21T11:13:08.542815+05:30
Goa,Goa,15.2993,74.124,31.6,47,0.0,1001.3,8.85,35.6,72,25.2,15.8,0,5,4,1,2026-03-21T11:13:08.542823+05:30
Jodhpur,Rajasthan,26.2389,73.0243,26.9,51,0.0,989.5,6.65,20.5,67,141.6,24.7,4,5,7,0,2026-03-21T11:13:08.542832+05:30
Udaipur,Rajasthan,24.5854,73.7125,26.1,39,0.0,952.3,6.9,11.9,53,42.3,11.9,4,5,7,0,2026-03-21T11:13:08.542840+05:30
Kota,Rajasthan,25.2138,75.8648,27.5,46,0.0,985.9,7.5,19.1,82,45.3,19.4,4,5,7,0,2026-03-21T11:13:08.542848+05:30
Bikaner,Rajasthan,28.0229,73.3119,27.2,46,0.0,987.9,6.25,23.4,56,54.0,15.6,4,5,7,0,2026-03-21T11:13:08.542856+05:30
Ajmer,Rajasthan,26.4499,74.6399,25.8,51,0.0,960.7,7.25,21.6,66,29.5,13.0,4,5,7,0,2026-03-21T11:13:08.542864+05:30
Gwalior,Madhya Pradesh,26.2183,78.1828,24.4,54,0.0,990.7,7.1,27.0,88,43.1,21.5,0,5,7,0,2026-03-21T11:13:08.542871+05:30
Indore,Madhya Pradesh,22.7196,75.8577,26.7,44,0.0,953.6,7.95,22.7,67,25.6,12.6,4,5,7,0,2026-03-21T11:13:08.542879+05:30
Bhopal,Madhya Pradesh,23.2599,77.4126,26.6,41,0.0,959.8,7.9,25.6,72,31.2,12.8,4,5,7,0,2026-03-21T11:13:08.542888+05:30
Jabalpur,Madhya Pradesh,23.1815,79.9864,24.8,54,0.0,967.6,8.0,36.0,65,42.5,21.3,0,5,7,0,2026-03-21T11:13:08.542895+05:30
Ujjain,Madhya Pradesh,23.1765,75.7885,26.2,51,0.0,959.6,7.65,19.4,67,29.0,13.9,4,5,7,0,2026-03-21T11:13:08.542922+05:30
Visakhapatnam,Andhra Pradesh,17.6868,83.2185,31.0,54,0.0,1008.2,8.8,33.1,73,32.4,26.6,0,0,4,1,2026-03-21T11:13:08.542932+05:30
Vijayawada,Andhra Pradesh,16.5062,80.648,31.1,58,0.0,1006.6,8.85,32.4,58,16.1,10.9,0,5,4,1,2026-03-21T11:13:08.542941+05:30
Guntur,Andhra Pradesh,16.3067,80.4365,32.0,55,0.0,1007.5,8.85,23.8,53,15.5,10.1,0,5,4,1,2026-03-21T11:13:08.542949+05:30
Nellore,Andhra Pradesh,14.4426,79.9865,33.2,54,0.0,1009.2,9.05,37.8,34,18.2,13.6,0,0,4,1,2026-03-21T11:13:08.542958+05:30
Kurnool,Andhra Pradesh,15.8281,78.0373,33.6,37,0.0,980.2,8.9,18.7,70,20.7,16.1,0,5,7,1,2026-03-21T11:13:08.542967+05:30
Kakinada,Andhra Pradesh,16.9891,82.2475,31.3,58,0.0,1011.8,8.85,23.8,46,13.0,9.4,0,0,4,1,2026-03-21T11:13:08.542975+05:30
Tirupati,Andhra Pradesh,13.6288,79.4192,30.9,58,0.0,995.4,9.15,26.3,70,18.6,15.7,0,5,7,1,2026-03-21T11:13:08.542983+05:30
Warangal,Telangana,17.9689,79.5941,28.3,63,0.0,983.5,8.65,22.0,117,18.0,15.3,7,5,7,1,2026-03-21T11:13:08.542991+05:30
Nizamabad,Telangana,18.6725,78.0941,30.8,39,0.0,969.2,8.6,34.9,101,37.5,26.4,0,5,7,0,2026-03-21T11:13:08.542998+05:30
Mysore,Karnataka,12.2958,76.6396,29.4,47,0.0,931.8,9.4,40.3,81,23.4,19.0,4,5,7,1,2026-03-21T11:13:08.543007+05:30
Mangalore,Karnataka,12.9141,74.856,28.8,74,0.0,1009.6,9.05,30.2,66,27.7,18.9,7,0,4,1,2026-03-21T11:13:08.543014+05:30
Hubli-Dharwad,Karnataka,15.3647,75.124,30.1,36,0.0,944.5,9.05,28.8,64,29.5,15.3,0,5,7,0,2026-03-21T11:13:08.543022+05:30
Belgaum,Karnataka,15.8497,74.4977,28.8,33,0.0,929.7,9.1,36.7,69,32.8,16.0,4,5,7,0,2026-03-21T11:13:11.864302+05:30
Coimbatore,Tamil Nadu,11.0168,76.9558,30.7,51,0.0,965.1,9.35,43.6,74,21.9,17.2,0,5,7,1,2026-03-21T11:13:11.864331+05:30
Madurai,Tamil Nadu,9.9252,78.1198,32.2,50,0.0,996.4,9.35,38.5,70,19.2,15.8,0,5,7,1,2026-03-21T11:13:11.864340+05:30
Trichy,Tamil Nadu,10.7905,78.7047,32.3,52,0.0,1003.2,9.15,27.4,63,11.2,9.7,0,5,4,1,2026-03-21T11:13:11.864347+05:30
Salem,Tamil Nadu,11.6643,78.146,31.9,51,0.0,980.7,9.3,26.6,82,19.2,16.4,0,5,7,1,2026-03-21T11:13:11.864354+05:30
Tirunelveli,Tamil Nadu,8.7139,77.7567,33.2,47,0.0,1006.3,9.3,46.8,93,25.0,21.2,0,5,4,1,2026-03-21T11:13:11.864361+05:30
Vellore,Tamil Nadu,12.9165,79.1325,31.0,55,0.0,988.3,9.2,30.2,97,31.7,29.4,0,5,7,1,2026-03-21T11:13:11.864368+05:30
Erode,Tamil Nadu,11.341,77.7172,32.4,52,0.0,992.4,9.3,27.0,61,15.3,12.3,0,5,7,1,2026-03-21T11:13:11.864374+05:30
Kochi,Kerala,9.9312,76.2673,28.7,73,0.0,1011.3,9.15,31.7,76,20.7,15.9,7,0,4,1,2026-03-21T11:13:11.864381+05:30
Thiruvananthapuram,Kerala,8.5241,76.9366,28.3,75,0.0,1010.5,8.3,24.8,66,28.5,21.9,7,0,4,1,2026-03-21T11:13:11.864387+05:30
Kozhikode,Kerala,11.2588,75.7804,30.3,68,0.0,1010.5,9.05,29.9,59,25.3,18.7,3,0,4,1,2026-03-21T11:13:11.864394+05:30
Thrissur,Kerala,10.5276,76.2144,33.6,48,0.0,1009.3,9.15,37.4,73,18.8,14.2,0,0,4,1,2026-03-21T11:13:11.864400+05:30
Kannur,Kerala,11.8745,75.3704,31.7,57,0.0,1009.9,9.1,33.8,66,25.2,18.3,0,0,4,1,2026-03-21T11:13:11.864407+05:30
Patna,Bihar,25.5941,85.1376,22.3,77,0.0,1007.8,6.7,24.5,150,66.4,49.8,3,5,4,1,2026-03-21T11:13:11.864413+05:30
Gaya,Bihar,24.7914,85.0002,23.1,74,0.0,1000.5,7.7,26.6,118,53.7,36.7,3,5,4,1,2026-03-21T11:13:11.864419+05:30
Muzaffarpur,Bihar,26.1209,85.3647,20.9,84,0.0,1008.0,3.65,23.8,151,61.5,47.4,3,0,0,1,2026-03-21T11:13:11.864426+05:30
Bhagalpur,Bihar,25.2425,87.0117,23.4,73,0.0,1008.2,5.85,24.5,134,39.2,35.4,3,0,0,1,2026-03-21T11:13:11.864432+05:30
Ranchi,Jharkhand,23.3441,85.3096,25.0,53,0.0,941.9,8.35,39.6,95,37.4,26.5,4,5,7,0,2026-03-21T11:13:11.864438+05:30
Jamshedpur,Jharkhand,22.8046,86.2029,27.2,60,0.0,996.1,8.15,35.3,148,52.4,46.7,4,5,7,1,2026-03-21T11:13:11.864444+05:30
Dhanbad,Jharkhand,23.7957,86.4304,24.8,62,0.0,985.3,7.6,33.8,151,48.1,43.3,3,5,7,1,2026-03-21T11:13:11.864451+05:30
Bokaro,Jharkhand,23.6693,86.1511,25.7,60,0.0,989.3,5.8,37.8,135,47.4,40.4,4,5,3,1,2026-03-21T11:13:11.864457+05:30
Bhubaneswar,Odisha,20.2961,85.8245,29.7,56,0.0,1007.6,8.55,26.6,69,49.9,41.7,4,5,4,1,2026-03-21T11:13:11.864463+05:30
Cuttack,Odisha,20.4625,85.8828,29.6,56,0.0,1009.6,8.6,22.7,69,49.9,41.7,4,0,4,1,2026-03-21T11:13:11.864469+05:30
Rourkela,Odisha,22.2604,84.8536,28.6,51,0.0,990.1,8.15,31.7,107,51.6,39.8,4,5,7,1,2026-03-21T11:13:11.864475+05:30
Raipur,Chhattisgarh,21.2514,81.6296,28.6,45,0.0,980.0,8.35,28.1,126,52.9,31.5,4,5,7,0,2026-03-21T11:13:11.864480+05:30
Bhilai,Chhattisgarh,21.1938,81.3509,28.8,46,0.0,980.5,8.35,28.8,115,60.8,29.8,4,5,7,0,2026-03-21T11:13:11.864486+05:30
Guwahati,Assam,26.1158,91.7086,23.9,78,0.0,1009.3,2.65,17.3,94,40.5,29.2,3,0,0,1,2026-03-21T11:13:11.864492+05:30
Agartala,Tripura,23.8315,91.2868,25.7,70,0.0,1012.6,5.1,21.6,112,50.5,38.8,7,0,0,1,2026-03-21T11:13:11.864498+05:30
Shillong,Meghalaya,25.5788,91.8933,15.8,60,0.0,860.4,3.35,21.2,76,42.7,27.1,0,5,3,0,2026-03-21T11:13:11.864505+05:30
Imphal,Manipur,24.817,93.9368,22.5,50,0.0,928.1,7.45,25.2,86,38.0,21.2,0,5,7,0,2026-03-21T11:13:11.864511+05:30
Aizawl,Mizoram,23.7271,92.7176,23.6,48,0.0,897.8,5.8,28.1,108,61.5,43.2,0,5,3,0,2026-03-21T11:13:11.864517+05:30
Kohima,Nagaland,25.6701,94.1077,17.8,76,0.0,859.8,7.0,60.8,75,44.2,24.3,3,5,7,0,2026-03-21T11:13:11.864525+05:30
Gangtok,Sikkim,27.3314,88.6138,12.1,88,0.4,840.6,1.95,16.6,103,18.6,14.1,6,10,3,0,2026-03-21T11:13:11.864535+05:30
Siliguri,West Bengal,26.7271,88.3953,18.3,86,0.0,1001.8,0.45,29.2,83,37.7,29.5,3,10,0,0,2026-03-21T11:13:15.180727+05:30
Durgapur,West Bengal,23.5204,87.3119,24.5,70,0.0,1000.9,7.65,24.5,151,40.5,37.6,3,5,4,1,2026-03-21T11:13:15.180756+05:30
Asansol,West Bengal,23.6739,86.9524,24.7,69,0.0,999.5,6.2,27.4,151,44.6,40.7,3,5,7,1,2026-03-21T11:13:15.180765+05:30
Pondicherry,Puducherry,11.9139,79.8145,31.2,63,0.0,1012.2,9.15,28.8,44,11.6,7.5,3,0,4,1,2026-03-21T11:13:15.180774+05:30
Port Blair,Andaman and Nicobar Islands,11.6234,92.7265,28.9,73,0.0,1010.6,9.1,15.5,54,18.5,14.3,7,0,4,1,2026-03-21T11:13:15.180782+05:30
Haridwar,Uttarakhand,29.9457,78.1642,22.6,64,0.0,980.9,6.15,22.7,100,18.0,14.6,3,5,7,0,2026-03-21T11:13:15.180789+05:30
Rishikesh,Uttarakhand,30.0869,78.2676,22.0,62,0.0,973.1,6.15,22.0,63,7.9,5.0,3,5,7,0,2026-03-21T11:13:15.180797+05:30
Nainital,Uttarakhand,29.3919,79.4542,13.1,87,0.0,807.4,6.9,34.2,71,15.0,8.9,3,10,7,0,2026-03-21T11:13:15.180804+05:30
Mussoorie,Uttarakhand,30.4599,78.0664,14.4,63,0.0,805.0,6.55,27.4,57,6.5,4.2,3,5,7,0,2026-03-21T11:13:15.180811+05:30
Dharamshala,Himachal Pradesh,32.219,76.3234,15.7,69,0.0,872.1,6.2,18.0,42,9.2,3.2,3,5,7,0,2026-03-21T11:13:15.180818+05:30
Dalhousie,Himachal Pradesh,32.5387,75.971,13.8,53,0.0,805.9,6.35,19.8,72,15.2,8.6,0,5,7,0,2026-03-21T11:13:15.180826+05:30
Patiala,Punjab,30.3398,76.3869,20.5,76,0.0,985.7,5.65,22.3,145,54.2,47.4,3,5,3,1,2026-03-21T11:13:15.180833+05:30
Bhatinda,Punjab,30.211,74.9455,22.3,67,0.0,991.4,5.5,18.0,138,71.0,46.4,3,5,3,0,2026-03-21T11:13:15.180839+05:30
Rohtak,Haryana,28.8955,76.6066,21.0,79,0.0,989.5,5.75,23.0,160,84.5,66.6,3,5,3,1,2026-03-21T11:13:15.180846+05:30
Panipat,Haryana,29.3909,76.9635,20.8,80,0.0,988.0,6.15,25.6,158,81.7,68.9,3,5,7,1,2026-03-21T11:13:15.180852+05:30
Mathura,Uttar Pradesh,27.4924,77.6737,22.7,67,0.0,994.8,6.7,25.6,145,81.7,61.9,3,5,7,1,2026-03-21T11:13:15.180859+05:30
Vrindavan,Uttar Pradesh,27.5823,77.7027,22.2,70,0.0,995.2,6.65,26.6,145,81.7,61.9,3,5,7,1,2026-03-21T11:13:15.180865+05:30
Ayodhya,Uttar Pradesh,26.7922,82.1998,20.0,84,0.0,1003.2,6.9,22.0,108,73.1,41.0,3,5,4,1,2026-03-21T11:13:15.180872+05:30
Ratlam,Madhya Pradesh,23.3315,75.0367,27.2,47,0.0,960.3,7.35,21.2,62,27.2,12.5,4,5,7,0,2026-03-21T11:13:15.180879+05:30
Sagar,Madhya Pradesh,23.8388,78.7378,25.0,47,0.0,956.4,7.9,27.7,94,40.0,17.8,4,5,7,0,2026-03-21T11:13:15.180885+05:30
Satna,Madhya Pradesh,24.6005,80.8322,22.4,65,0.0,977.9,7.8,32.8,78,43.0,18.5,3,5,7,0,2026-03-21T11:13:15.180892+05:30
Akola,Maharashtra,20.7002,77.0082,30.0,38,0.0,980.5,8.25,22.3,65,31.0,16.1,4,5,7,0,2026-03-21T11:13:15.180899+05:30
Amravati,Maharashtra,20.9374,77.7796,29.9,35,0.0,972.7,8.3,25.2,66,32.5,15.7,4,5,7,0,2026-03-21T11:13:15.180925+05:30
Latur,Maharashtra,18.4088,76.5604,28.9,38,0.0,944.3,8.65,34.2,74,34.7,15.9,4,5,7,0,2026-03-21T11:13:15.180932+05:30
Nanded,Maharashtra,19.1383,77.3091,31.2,34,0.0,973.4,8.5,28.1,67,33.1,13.8,0,5,7,0,2026-03-21T11:13:15.180939+05:30
Gulbarga,Karnataka,17.3297,76.8343,31.6,35,0.0,962.6,8.75,42.1,69,30.6,21.5,0,5,7,0,2026-03-21T11:13:15.180945+05:30
Bidar,Karnataka,17.9104,77.5199,29.8,34,0.0,939.7,8.75,40.3,86,34.3,22.4,4,5,7,0,2026-03-21T11:13:15.180951+05:30
Hospet,Karnataka,15.2689,76.3909,30.0,45,0.0,959.5,9.0,19.4,77,33.6,20.5,4,5,7,1,2026-03-21T11:13:15.180958+05:30
Tirupur,Tamil Nadu,11.1085,77.3411,31.9,51,0.0,978.6,9.4,33.1,79,19.9,16.8,0,5,7,1,2026-03-21T11:13:15.180964+05:30
Alappuzha,Kerala,9.4981,76.3388,29.0,71,0.0,1011.3,9.1,28.1,78,29.0,22.5,7,0,4,1,2026-03-21T11:13:15.180971+05:30
Munnar,Kerala,10.0889,77.0595,28.8,46,0.0,861.4,9.65,29.2,65,18.3,13.1,4,5,7,0,2026-03-21T11:13:15.180978+05:30
Silchar,Assam,24.8333,92.7789,27.1,58,0.0,1011.0,6.8,19.8,87,40.0,27.0,4,0,4,1,2026-03-21T11:13:15.180984+05:30
Dibrugarh,Assam,27.4728,94.912,25.6,68,0.0,1002.0,6.3,16.2,94,49.0,28.9,7,5,4,1,2026-03-21T11:13:15.180991+05:30
