city,state,latitude,longitude,temp,humidity,rain,pressure,uv_index,aqi,mosquito_risk,arthritis_risk,migraine_risk,frizz_risk,updated_at
Delhi,Delhi,28.6139,77.209,30.1,25,0.0,981.7,5.65,163,0,5,3,0,2026-02-28T16:53:03.451159+05:30
Mumbai,Maharashtra,19.076,72.8777,26.4,67,0.0,1007.0,7.4,69,7,5,4,1,2026-02-28T16:53:03.451217+05:30
Bangalore,Karnataka,12.9716,77.5946,29.9,34,0.0,909.6,9.0,133,4,5,7,0,2026-02-28T16:53:03.451232+05:30
Hyderabad,Telangana,17.385,78.4867,31.6,34,0.0,951.2,8.2,115,0,5,7,0,2026-02-28T16:53:03.451241+05:30
Chennai,Tamil Nadu,13.0827,80.2707,30.0,55,0.0,1005.9,8.75,125,4,5,4,1,2026-02-28T16:53:03.451249+05:30
Kolkata,West Bengal,22.5726,88.3639,29.4,41,0.0,1004.4,7.55,152,4,5,4,0,2026-02-28T16:53:03.451261+05:30
Pune,Maharashtra,18.5204,73.8567,30.8,31,0.0,946.1,7.9,77,0,5,7,0,2026-02-28T16:53:03.451268+05:30
Ahmedabad,Gujarat,23.0225,72.5714,32.5,27,0.0,1000.5,7.15,67,0,5,4,0,2026-02-28T16:53:03.451275+05:30
Jaipur,Rajasthan,26.9124,75.7873,31.0,19,0.0,957.9,6.45,79,0,5,7,0,2026-02-28T16:53:03.451285+05:30
Lucknow,Uttar Pradesh,26.8467,80.9462,30.0,25,0.0,992.3,6.1,151,4,5,7,0,2026-02-28T16:53:03.451291+05:30
Kanpur,Uttar Pradesh,26.4499,80.3319,30.1,30,0.0,990.4,6.1,141,0,5,7,0,2026-02-28T16:53:03.451299+05:30
Chandigarh,Chandigarh,30.7333,76.7794,26.1,43,0.0,967.6,5.5,100,4,5,3,0,2026-02-28T16:53:03.451307+05:30
Srinagar,Jammu and Kashmir,34.0837,74.7973,16.5,21,0.0,840.5,6.4,115,0,5,7,1,2026-02-28T16:53:03.451314+05:30
Jammu,Jammu and Kashmir,32.7266,74.857,26.7,41,0.0,971.9,6.1,104,4,5,7,0,2026-02-28T16:53:03.451322+05:30
Amritsar,Punjab,31.634,74.8723,26.2,46,0.0,980.5,6.1,160,4,5,7,0,2026-02-28T16:53:03.451329+05:30
Ludhiana,Punjab,30.901,75.8573,27.2,43,0.0,978.0,5.75,166,4,5,3,0,2026-02-28T16:53:03.451336+05:30
Jalandhar,Punjab,31.326,75.5762,27.0,41,0.0,979.3,5.95,153,4,5,3,0,2026-02-28T16:53:03.451342+05:30
Dehradun,Uttarakhand,30.6284,78.0322,16.8,42,0.0,827.5,5.85,70,0,5,3,0,2026-02-28T16:53:03.451348+05:30
Shimla,Himachal Pradesh,31.1048,77.1734,14.9,38,0.0,782.5,5.9,69,0,5,3,0,2026-02-28T16:53:03.451357+05:30
Manali,Himachal Pradesh,32.2396,77.1887,17.2,20,0.0,816.2,7.55,104,0,5,7,1,2026-02-28T16:53:03.451364+05:30
Gurgaon,Haryana,28.4595,77.0266,29.9,27,0.0,980.1,5.75,163,4,5,3,0,2026-02-28T16:53:03.451370+05:30
Noida,Uttar Pradesh,28.5355,77.391,30.4,25,0.0,983.2,5.65,163,0,5,3,0,2026-02-28T16:53:03.451377+05:30
Ghaziabad,Uttar Pradesh,28.6692,77.4538,29.3,29,0.0,981.4,5.6,161,4,5,3,0,2026-02-28T16:53:03.451383+05:30
Faridabad,Haryana,28.4089,77.3178,29.7,26,0.0,982.3,5.65,163,4,5,3,0,2026-02-28T16:53:03.451389+05:30
Meerut,Uttar Pradesh,28.9845,77.7064,28.7,31,0.0,980.2,5.45,161,4,5,3,0,2026-02-28T16:53:03.451395+05:30
Agra,Uttar Pradesh,27.1767,78.0081,30.6,34,0.0,986.1,5.95,136,0,5,3,0,2026-02-28T16:53:03.451401+05:30
Varanasi,Uttar Pradesh,25.3176,82.9739,29.5,37,0.0,996.1,6.8,97,4,5,7,0,2026-02-28T16:53:03.451408+05:30
Prayagraj,Uttar Pradesh,25.4358,81.8463,29.0,38,0.0,994.7,6.65,120,4,5,7,0,2026-02-28T16:53:03.451415+05:30
Gorakhpur,Uttar Pradesh,26.7606,83.3732,28.5,37,0.0,994.9,6.5,136,4,5,7,0,2026-02-28T16:53:03.451423+05:30
Bareilly,Uttar Pradesh,28.367,79.4304,28.3,41,0.0,985.2,5.75,154,4,5,3,0,2026-02-28T16:53:03.451429+05:30
Aligarh,Uttar Pradesh,27.8974,78.088,30.0,30,0.0,984.0,5.75,156,4,5,3,0,2026-02-28T16:53:03.451436+05:30
Moradabad,Uttar Pradesh,28.8386,78.7733,28.1,37,0.0,982.0,5.6,155,4,5,3,0,2026-02-28T16:53:03.451441+05:30
Saharanpur,Uttar Pradesh,29.9637,77.546,26.7,39,0.0,974.2,5.25,151,4,5,3,0,2026-02-28T16:53:03.451448+05:30
Jhansi,Uttar Pradesh,25.4484,78.5685,31.4,23,0.0,976.4,6.6,102,0,5,7,0,2026-02-28T16:53:06.751604+05:30
Surat,Gujarat,21.1702,72.8311,28.1,51,0.0,1005.8,7.1,85,4,5,4,1,2026-02-28T16:53:06.751639+05:30
Vadodara,Gujarat,22.3072,73.1812,32.7,31,0.0,1002.4,7.15,71,0,5,4,0,2026-02-28T16:53:06.751650+05:30
Rajkot,Gujarat,22.3039,70.8022,31.7,29,0.0,992.7,7.1,70,0,5,7,0,2026-02-28T16:53:06.751660+05:30
Thane,Maharashtra,19.2183,72.9781,28.0,52,0.0,1006.4,7.4,69,4,5,4,1,2026-02-28T16:53:06.751668+05:30
Nagpur,Maharashtra,21.1458,79.0882,32.3,33,0.0,971.0,7.55,155,0,5,7,0,2026-02-28T16:53:06.751676+05:30
Nashik,Maharashtra,19.9975,73.7898,28.4,36,0.0,943.5,7.55,54,4,5,7,0,2026-02-28T16:53:06.751684+05:30
Aurangabad,Maharashtra,19.8762,75.3433,31.3,25,0.0,941.8,7.9,63,0,5,7,0,2026-02-28T16:53:06.751692+05:30
Solapur,Maharashtra,17.6599,75.9064,32.1,32,0.0,954.5,8.15,73,0,5,7,0,2026-02-28T16:53:06.751701+05:30
Kolhapur,Maharashtra,16.705,74.2433,29.1,37,0.0,945.7,8.35,60,4,5,7,0,2026-02-28T16:53:06.751708+05:30
Goa,Goa,15.2993,74.124,29.1,54,0.0,995.9,8.35,44,4,5,7,1,2026-02-28T16:53:06.751716+05:30
Jodhpur,Rajasthan,26.2389,73.0243,32.4,24,0.0,980.9,6.7,64,0,5,7,0,2026-02-28T16:53:06.751724+05:30
Udaipur,Rajasthan,24.5854,73.7125,28.6,29,0.0,945.0,7.4,63,4,5,7,0,2026-02-28T16:53:06.751732+05:30
Kota,Rajasthan,25.2138,75.8648,31.1,25,0.0,977.2,6.8,82,0,5,7,0,2026-02-28T16:53:06.751740+05:30
Bikaner,Rajasthan,28.0229,73.3119,32.2,14,0.0,980.2,6.4,61,0,5,7,0,2026-02-28T16:53:06.751749+05:30
Ajmer,Rajasthan,26.4499,74.6399,30.4,24,0.0,952.8,6.7,59,0,5,7,0,2026-02-28T16:53:06.751757+05:30
Gwalior,Madhya Pradesh,26.2183,78.1828,29.9,31,0.0,981.5,6.3,78,4,5,7,0,2026-02-28T16:53:06.751765+05:30
Indore,Madhya Pradesh,22.7196,75.8577,29.0,29,0.0,946.1,7.3,71,4,5,7,0,2026-02-28T16:53:06.751772+05:30
Bhopal,Madhya Pradesh,23.2599,77.4126,29.2,37,0.0,952.0,7.15,112,4,5,7,0,2026-02-28T16:53:06.751780+05:30
Jabalpur,Madhya Pradesh,23.1815,79.9864,31.2,29,0.0,959.9,7.2,120,0,5,7,0,2026-02-28T16:53:06.751788+05:30
Ujjain,Madhya Pradesh,23.1765,75.7885,28.2,35,0.0,952.1,7.2,64,4,5,7,0,2026-02-28T16:53:06.751796+05:30
Visakhapatnam,Andhra Pradesh,17.6868,83.2185,28.6,65,0.0,1002.6,8.25,75,7,5,4,1,2026-02-28T16:53:06.751804+05:30
Vijayawada,Andhra Pradesh,16.5062,80.648,33.1,40,0.0,1000.5,8.3,107,0,5,4,1,2026-02-28T16:53:06.751812+05:30
Guntur,Andhra Pradesh,16.3067,80.4365,32.3,44,0.0,1002.0,8.3,104,0,5,4,1,2026-02-28T16:53:06.751821+05:30
Nellore,Andhra Pradesh,14.4426,79.9865,31.2,48,0.0,1004.0,8.55,107,0,5,4,1,2026-02-28T16:53:06.751829+05:30
Kurnool,Andhra Pradesh,15.8281,78.0373,35.1,25,0.0,973.9,8.3,114,0,5,10,0,2026-02-28T16:53:06.751837+05:30
Kakinada,Andhra Pradesh,16.9891,82.2475,30.3,55,0.0,1005.9,8.25,81,0,5,4,1,2026-02-28T16:53:06.751844+05:30
Tirupati,Andhra Pradesh,13.6288,79.4192,32.6,31,0.0,989.3,8.7,112,0,5,7,0,2026-02-28T16:53:06.751850+05:30
Warangal,Telangana,17.9689,79.5941,32.0,41,0.0,976.8,8.05,137,0,5,7,1,2026-02-28T16:53:06.751857+05:30
Nizamabad,Telangana,18.6725,78.0941,33.2,27,0.0,962.6,7.95,121,0,5,7,0,2026-02-28T16:53:06.751862+05:30
Mysore,Karnataka,12.2958,76.6396,31.8,31,0.0,925.6,8.65,141,0,5,7,0,2026-02-28T16:53:06.751868+05:30
Mangalore,Karnataka,12.9141,74.856,28.2,73,0.0,1004.0,8.6,50,7,5,4,1,2026-02-28T16:53:06.751875+05:30
Hubli-Dharwad,Karnataka,15.3647,75.124,32.5,24,0.0,938.0,8.5,71,0,5,7,0,2026-02-28T16:53:06.751881+05:30
Belgaum,Karnataka,15.8497,74.4977,29.1,36,0.0,923.5,8.6,71,4,5,7,0,2026-02-28T16:53:10.047659+05:30
Coimbatore,Tamil Nadu,11.0168,76.9558,31.6,38,0.0,959.0,9.05,140,0,5,7,0,2026-02-28T16:53:10.047691+05:30
Madurai,Tamil Nadu,9.9252,78.1198,34.0,34,0.0,989.9,9.0,145,0,5,7,0,2026-02-28T16:53:10.047703+05:30
Trichy,Tamil Nadu,10.7905,78.7047,34.3,32,0.0,996.8,8.9,135,0,5,7,0,2026-02-28T16:53:10.047713+05:30
Salem,Tamil Nadu,11.6643,78.146,35.2,25,0.0,974.0,8.9,120,0,5,10,0,2026-02-28T16:53:10.047722+05:30
Tirunelveli,Tamil Nadu,8.7139,77.7567,30.7,54,0.0,1001.0,9.05,147,0,5,4,1,2026-02-28T16:53:10.047730+05:30
Vellore,Tamil Nadu,12.9165,79.1325,32.5,30,0.0,982.3,8.8,118,0,5,7,0,2026-02-28T16:53:10.047738+05:30
Erode,Tamil Nadu,11.341,77.7172,35.5,26,0.0,985.4,8.95,118,0,5,10,0,2026-02-28T16:53:10.047746+05:30
Kochi,Kerala,9.9312,76.2673,28.2,78,0.0,1006.3,8.75,126,7,5,4,1,2026-02-28T16:53:10.047754+05:30
Thiruvananthapuram,Kerala,8.5241,76.9366,27.3,80,0.0,1006.1,8.8,163,7,5,4,1,2026-02-28T16:53:10.047762+05:30
Kozhikode,Kerala,11.2588,75.7804,29.5,65,0.0,1005.3,8.75,88,7,5,4,1,2026-02-28T16:53:10.047770+05:30
Thrissur,Kerala,10.5276,76.2144,30.9,59,0.0,1004.4,8.8,125,0,5,4,1,2026-02-28T16:53:10.047778+05:30
Kannur,Kerala,11.8745,75.3704,29.8,62,0.0,1004.7,8.7,55,7,5,4,1,2026-02-28T16:53:10.047786+05:30
Patna,Bihar,25.5941,85.1376,29.9,33,0.0,998.4,6.95,132,4,5,7,0,2026-02-28T16:53:10.047794+05:30
Gaya,Bihar,24.7914,85.0002,28.5,45,0.0,992.1,7.05,82,4,5,7,0,2026-02-28T16:53:10.047802+05:30
Muzaffarpur,Bihar,26.1209,85.3647,29.1,35,0.0,998.3,6.9,149,4,5,7,0,2026-02-28T16:53:10.047809+05:30
Bhagalpur,Bihar,25.2425,87.0117,27.3,44,0.0,999.3,7.0,115,4,5,7,0,2026-02-28T16:53:10.047816+05:30
Ranchi,Jharkhand,23.3441,85.3096,28.0,22,0.0,936.7,7.65,84,4,5,7,0,2026-02-28T16:53:10.047824+05:30
Jamshedpur,Jharkhand,22.8046,86.2029,32.0,25,0.0,988.9,7.6,107,0,5,7,0,2026-02-28T16:53:10.047831+05:30
Dhanbad,Jharkhand,23.7957,86.4304,32.3,16,0.0,977.9,7.4,110,0,5,7,0,2026-02-28T16:53:10.047838+05:30
Bokaro,Jharkhand,23.6693,86.1511,31.8,17,0.0,981.9,7.45,102,0,5,7,0,2026-02-28T16:53:10.047846+05:30
Bhubaneswar,Odisha,20.2961,85.8245,33.3,26,0.0,1000.8,7.95,151,0,5,4,0,2026-02-28T16:53:10.047854+05:30
Cuttack,Odisha,20.4625,85.8828,33.4,22,0.0,1002.5,7.95,151,0,5,4,0,2026-02-28T16:53:10.047862+05:30
Rourkela,Odisha,22.2604,84.8536,33.3,20,0.0,983.0,7.5,99,0,5,7,0,2026-02-28T16:53:10.047869+05:30
Raipur,Chhattisgarh,21.2514,81.6296,32.8,25,0.0,973.1,7.65,151,0,5,7,0,2026-02-28T16:53:10.047876+05:30
Bhilai,Chhattisgarh,21.1938,81.3509,32.7,27,0.0,973.4,7.65,142,0,5,7,0,2026-02-28T16:53:10.047884+05:30
Guwahati,Assam,26.1158,91.7086,26.3,52,0.0,999.4,6.95,159,4,5,7,0,2026-02-28T16:53:10.047891+05:30
Agartala,Tripura,23.8315,91.2868,27.4,42,0.0,1004.3,7.3,165,4,5,4,0,2026-02-28T16:53:10.047899+05:30
Shillong,Meghalaya,25.5788,91.8933,13.1,62,0.0,852.3,6.65,152,3,5,7,0,2026-02-28T16:53:10.047907+05:30
Imphal,Manipur,24.817,93.9368,18.4,46,0.0,920.3,7.5,152,0,5,7,0,2026-02-28T16:53:10.047914+05:30
Aizawl,Mizoram,23.7271,92.7176,20.8,41,0.0,890.6,7.45,141,0,5,7,0,2026-02-28T16:53:10.047926+05:30
Kohima,Nagaland,25.6701,94.1077,14.4,62,0.0,851.2,7.35,149,3,5,7,0,2026-02-28T16:53:10.047934+05:30
Gangtok,Sikkim,27.3314,88.6138,11.5,88,0.1,832.6,5.35,135,6,10,3,0,2026-02-28T16:53:10.047942+05:30
Siliguri,West Bengal,26.7271,88.3953,22.0,53,0.0,991.4,6.85,165,0,5,7,0,2026-02-28T16:53:13.348320+05:30
Durgapur,West Bengal,23.5204,87.3119,32.5,17,0.0,992.9,7.45,109,0,5,7,0,2026-02-28T16:53:13.348350+05:30
Asansol,West Bengal,23.6739,86.9524,32.5,18,0.0,991.3,7.4,93,0,5,7,0,2026-02-28T16:53:13.348360+05:30
Pondicherry,Puducherry,11.9139,79.8145,30.6,61,0.0,1006.6,8.75,111,3,5,4,1,2026-02-28T16:53:13.348367+05:30
Port Blair,Andaman and Nicobar Islands,11.6234,92.7265,27.8,67,0.0,1005.1,7.8,81,7,5,4,1,2026-02-28T16:53:13.348374+05:30
Haridwar,Uttarakhand,29.9457,78.1642,27.1,34,0.0,972.6,5.3,116,4,5,3,0,2026-02-28T16:53:13.348381+05:30
Rishikesh,Uttarakhand,30.0869,78.2676,26.1,35,0.0,965.3,5.4,100,4,5,3,0,2026-02-28T16:53:13.348387+05:30
Nainital,Uttarakhand,29.3919,79.4542,18.7,45,0.0,804.1,6.25,95,0,5,7,0,2026-02-28T16:53:13.348394+05:30
Mussoorie,Uttarakhand,30.4599,78.0664,17.1,47,0.0,800.6,5.75,98,0,5,3,0,2026-02-28T16:53:13.348400+05:30
Dharamshala,Himachal Pradesh,32.219,76.3234,20.7,38,0.0,867.4,6.0,86,0,5,3,0,2026-02-28T16:53:13.348407+05:30
Dalhousie,Himachal Pradesh,32.5387,75.971,19.7,29,0.0,802.8,6.25,84,0,5,7,0,2026-02-28T16:53:13.348413+05:30
Patiala,Punjab,30.3398,76.3869,26.9,39,0.0,977.3,5.45,161,4,5,3,0,2026-02-28T16:53:13.348420+05:30
Bhatinda,Punjab,30.211,74.9455,28.8,31,0.0,983.1,6.15,152,4,5,7,0,2026-02-28T16:53:13.348426+05:30
Rohtak,Haryana,28.8955,76.6066,29.7,22,0.0,980.7,5.65,164,4,5,3,0,2026-02-28T16:53:13.348432+05:30
Panipat,Haryana,29.3909,76.9635,28.2,31,0.0,979.2,5.4,167,4,5,3,0,2026-02-28T16:53:13.348439+05:30
Mathura,Uttar Pradesh,27.4924,77.6737,30.1,36,0.0,985.3,4.6,126,0,5,3,0,2026-02-28T16:53:13.348446+05:30
Vrindavan,Uttar Pradesh,27.5823,77.7027,30.3,33,0.0,985.7,5.5,126,0,5,3,0,2026-02-28T16:53:13.348452+05:30
Ayodhya,Uttar Pradesh,26.7922,82.1998,29.4,29,0.0,993.6,6.25,140,4,5,7,0,2026-02-28T16:53:13.348458+05:30
Ratlam,Madhya Pradesh,23.3315,75.0367,27.9,38,0.0,953.1,7.2,69,4,5,7,0,2026-02-28T16:53:13.348465+05:30
Sagar,Madhya Pradesh,23.8388,78.7378,29.7,32,0.0,948.7,7.1,86,4,5,7,0,2026-02-28T16:53:13.348471+05:30
Satna,Madhya Pradesh,24.6005,80.8322,31.3,26,0.0,969.7,7.0,73,0,5,7,0,2026-02-28T16:53:13.348477+05:30
Akola,Maharashtra,20.7002,77.0082,33.9,27,0.0,972.4,7.65,121,0,5,7,0,2026-02-28T16:53:13.348483+05:30
Amravati,Maharashtra,20.9374,77.7796,34.1,23,0.0,964.8,7.55,144,0,5,7,0,2026-02-28T16:53:13.348490+05:30
Latur,Maharashtra,18.4088,76.5604,31.2,28,0.0,937.7,8.05,74,0,5,7,0,2026-02-28T16:53:13.348496+05:30
Nanded,Maharashtra,19.1383,77.3091,33.6,28,0.0,966.2,7.85,114,0,5,7,0,2026-02-28T16:53:13.348502+05:30
Gulbarga,Karnataka,17.3297,76.8343,33.0,29,0.0,956.2,8.2,91,0,5,7,0,2026-02-28T16:53:13.348508+05:30
Bidar,Karnataka,17.9104,77.5199,31.1,34,0.0,933.5,8.1,104,0,5,7,0,2026-02-28T16:53:13.348514+05:30
Hospet,Karnataka,15.2689,76.3909,33.6,27,0.0,952.8,8.5,108,0,5,7,0,2026-02-28T16:53:13.348520+05:30
Tirupur,Tamil Nadu,11.1085,77.3411,34.4,28,0.0,971.9,9.05,151,0,5,7,0,2026-02-28T16:53:13.348526+05:30
Alappuzha,Kerala,9.4981,76.3388,28.0,79,0.0,1006.5,8.75,145,7,5,4,1,2026-02-28T16:53:13.348533+05:30
Munnar,Kerala,10.0889,77.0595,23.2,78,0.0,855.4,7.95,125,3,5,7,1,2026-02-28T16:53:13.348539+05:30
Silchar,Assam,24.8333,92.7789,26.6,45,0.0,1002.8,7.25,159,4,5,4,0,2026-02-28T16:53:13.348545+05:30
Dibrugarh,Assam,27.4728,94.912,20.4,81,0.0,995.1,6.6,150,3,5,7,1,2026-02-28T16:53:13.348552+05:30
