city,state,latitude,longitude,temp,humidity,rain,pressure,uv_index,wind_gusts,aqi,pm10,pm2_5,mosquito_risk,arthritis_risk,migraine_risk,frizz_risk,updated_at
Delhi,Delhi,28.6139,77.209,21.9,64,0.0,983.3,6.1,41.4,420,502.9,82.2,3,5,7,0,2026-03-16T20:33:41.431262+05:30
Mumbai,Maharashtra,19.076,72.8777,26.8,81,0.0,1009.0,7.7,18.0,103,108.5,32.9,7,0,4,1,2026-03-16T20:33:41.431314+05:30
Bangalore,Karnataka,12.9716,77.5946,24.1,62,0.0,912.7,9.35,22.0,164,37.4,35.0,3,5,7,1,2026-03-16T20:33:41.431330+05:30
Hyderabad,Telangana,17.385,78.4867,26.1,63,0.0,954.7,8.65,22.3,105,57.2,50.6,7,5,7,1,2026-03-16T20:33:41.431340+05:30
Chennai,Tamil Nadu,13.0827,80.2707,26.4,80,0.0,1009.3,9.05,31.0,41,8.4,6.2,7,0,4,1,2026-03-16T20:33:41.431348+05:30
Kolkata,West Bengal,22.5726,88.3639,23.9,88,0.0,1008.8,8.15,33.8,76,22.6,19.1,3,0,4,1,2026-03-16T20:33:41.431355+05:30
Pune,Maharashtra,18.5204,73.8567,25.0,53,0.0,948.7,8.25,42.8,123,37.1,27.9,4,5,7,0,2026-03-16T20:33:41.431367+05:30
Ahmedabad,Gujarat,23.0225,72.5714,29.3,23,0.0,1001.6,7.45,28.4,72,44.4,26.5,4,5,4,0,2026-03-16T20:33:41.431375+05:30
Jaipur,Rajasthan,26.9124,75.7873,27.9,17,0.0,958.8,6.9,31.3,159,101.3,30.6,4,5,7,0,2026-03-16T20:33:41.431382+05:30
Lucknow,Uttar Pradesh,26.8467,80.9462,26.3,44,0.0,994.2,6.65,48.6,103,55.2,42.6,4,5,7,0,2026-03-16T20:33:41.431389+05:30
Kanpur,Uttar Pradesh,26.4499,80.3319,24.8,49,0.0,991.9,6.7,35.3,115,141.6,53.7,0,5,7,0,2026-03-16T20:33:41.431395+05:30
Chandigarh,Chandigarh,30.7333,76.7794,15.3,81,0.0,969.8,5.25,43.2,66,41.1,28.7,3,10,3,0,2026-03-16T20:33:41.431402+05:30
Srinagar,Jammu and Kashmir,34.0837,74.7973,5.8,90,0.0,838.7,5.0,21.6,78,31.0,28.9,3,10,3,0,2026-03-16T20:33:41.431408+05:30
Jammu,Jammu and Kashmir,32.7266,74.857,16.3,77,0.0,975.7,6.5,34.2,63,56.5,39.2,3,5,7,0,2026-03-16T20:33:41.431415+05:30
Amritsar,Punjab,31.634,74.8723,13.9,89,0.0,984.0,6.45,34.2,78,56.3,34.9,3,10,7,0,2026-03-16T20:33:41.431421+05:30
Ludhiana,Punjab,30.901,75.8573,14.9,72,0.0,980.9,6.15,42.8,82,38.2,24.9,3,5,7,0,2026-03-16T20:33:41.431426+05:30
Jalandhar,Punjab,31.326,75.5762,14.5,84,0.0,982.4,6.3,43.2,72,46.8,27.5,3,10,7,0,2026-03-16T20:33:41.431434+05:30
Dehradun,Uttarakhand,30.6284,78.0322,9.9,68,0.0,828.3,5.25,31.0,82,40.5,12.8,3,5,3,0,2026-03-16T20:33:41.431440+05:30
Shimla,Himachal Pradesh,31.1048,77.1734,8.2,66,0.0,780.5,4.4,35.6,83,43.5,12.5,3,5,3,0,2026-03-16T20:33:41.431447+05:30
Manali,Himachal Pradesh,32.2396,77.1887,7.5,96,0.5,814.7,5.2,43.2,101,20.1,6.9,6,10,3,0,2026-03-16T20:33:41.431453+05:30
Gurgaon,Haryana,28.4595,77.0266,21.4,67,0.0,981.6,6.2,45.7,1881,892.2,136.4,3,5,7,0,2026-03-16T20:33:41.431459+05:30
Noida,Uttar Pradesh,28.5355,77.391,21.6,64,0.0,984.9,6.1,42.1,1881,892.2,136.4,3,5,7,0,2026-03-16T20:33:41.431465+05:30
Ghaziabad,Uttar Pradesh,28.6692,77.4538,20.7,71,0.0,983.1,6.1,45.7,112,117.6,34.1,3,5,7,0,2026-03-16T20:33:41.431470+05:30
Faridabad,Haryana,28.4089,77.3178,21.8,61,0.0,983.8,6.15,41.0,1881,892.2,136.4,3,5,7,0,2026-03-16T20:33:41.431475+05:30
Meerut,Uttar Pradesh,28.9845,77.7064,19.5,76,0.0,981.7,6.0,53.6,112,117.6,34.1,3,5,3,0,2026-03-16T20:33:41.431481+05:30
Agra,Uttar Pradesh,27.1767,78.0081,22.9,52,0.0,986.9,6.5,34.9,940,534.6,91.3,0,5,7,0,2026-03-16T20:33:41.431486+05:30
Varanasi,Uttar Pradesh,25.3176,82.9739,24.3,68,0.0,997.9,7.35,29.9,147,64.5,52.3,3,5,7,1,2026-03-16T20:33:41.431494+05:30
Prayagraj,Uttar Pradesh,25.4358,81.8463,23.9,80,0.0,996.1,7.2,33.8,154,63.1,53.2,3,5,7,1,2026-03-16T20:33:41.431500+05:30
Gorakhpur,Uttar Pradesh,26.7606,83.3732,23.8,59,0.0,998.1,6.85,27.4,126,64.5,44.2,0,5,7,0,2026-03-16T20:33:41.431505+05:30
Bareilly,Uttar Pradesh,28.367,79.4304,20.6,74,0.0,987.7,6.3,60.8,91,99.4,52.3,3,5,7,0,2026-03-16T20:33:41.431512+05:30
Aligarh,Uttar Pradesh,27.8974,78.088,22.6,60,0.0,985.6,6.25,37.1,577,1121.3,120.6,0,5,7,0,2026-03-16T20:33:41.431517+05:30
Moradabad,Uttar Pradesh,28.8386,78.7733,21.0,69,0.0,984.1,6.15,69.1,100,81.3,35.0,3,5,7,0,2026-03-16T20:33:41.431522+05:30
Saharanpur,Uttar Pradesh,29.9637,77.546,18.7,71,0.0,976.7,5.7,40.7,80,63.3,39.5,3,5,3,0,2026-03-16T20:33:41.431528+05:30
Jhansi,Uttar Pradesh,25.4484,78.5685,26.9,39,0.0,977.8,7.15,27.4,86,168.1,43.5,4,5,7,0,2026-03-16T20:33:44.748408+05:30
Surat,Gujarat,21.1702,72.8311,25.6,88,0.0,1006.9,7.35,28.1,99,58.0,34.7,7,5,4,1,2026-03-16T20:33:44.748439+05:30
Vadodara,Gujarat,22.3072,73.1812,28.8,42,0.0,1003.9,7.0,28.4,92,51.0,28.4,4,5,4,0,2026-03-16T20:33:44.748447+05:30
Rajkot,Gujarat,22.3039,70.8022,29.0,45,0.0,994.3,7.3,25.6,83,49.2,20.8,4,5,7,0,2026-03-16T20:33:44.748455+05:30
Thane,Maharashtra,19.2183,72.9781,25.8,82,0.0,1008.5,7.7,31.3,103,108.5,32.9,7,0,4,1,2026-03-16T20:33:44.748462+05:30
Nagpur,Maharashtra,21.1458,79.0882,28.2,38,0.0,972.3,7.95,20.5,109,44.7,36.9,4,5,7,0,2026-03-16T20:33:44.748468+05:30
Nashik,Maharashtra,19.9975,73.7898,24.2,59,0.0,945.6,7.9,26.6,80,49.0,20.0,0,5,7,0,2026-03-16T20:33:44.748474+05:30
Aurangabad,Maharashtra,19.8762,75.3433,27.7,30,0.0,943.7,8.45,28.1,79,27.9,19.0,4,5,7,0,2026-03-16T20:33:44.748480+05:30
Solapur,Maharashtra,17.6599,75.9064,27.7,42,0.0,956.9,8.65,26.6,125,40.4,35.6,4,5,7,0,2026-03-16T20:33:44.748486+05:30
Kolhapur,Maharashtra,16.705,74.2433,23.5,62,0.0,948.4,8.75,41.0,96,34.6,28.5,3,5,7,0,2026-03-16T20:33:44.748492+05:30
Goa,Goa,15.2993,74.124,27.7,72,0.0,999.3,8.75,33.1,93,45.1,23.0,7,5,7,1,2026-03-16T20:33:44.748498+05:30
Jodhpur,Rajasthan,26.2389,73.0243,28.1,17,0.0,981.0,7.2,34.2,105,115.7,23.8,4,5,7,0,2026-03-16T20:33:44.748504+05:30
Udaipur,Rajasthan,24.5854,73.7125,25.6,20,0.0,946.1,7.8,33.5,79,21.1,10.0,4,5,7,0,2026-03-16T20:33:44.748510+05:30
Kota,Rajasthan,25.2138,75.8648,27.4,25,0.0,977.2,7.2,23.0,73,101.3,42.1,4,5,7,0,2026-03-16T20:33:44.748515+05:30
Bikaner,Rajasthan,28.0229,73.3119,26.2,25,0.0,981.5,6.9,28.4,82,80.1,28.2,4,5,7,0,2026-03-16T20:33:44.748521+05:30
Ajmer,Rajasthan,26.4499,74.6399,27.1,23,0.0,953.4,7.15,32.4,67,42.0,17.1,4,5,7,0,2026-03-16T20:33:44.748527+05:30
Gwalior,Madhya Pradesh,26.2183,78.1828,25.7,45,0.0,982.9,6.8,31.0,101,97.6,36.1,4,5,7,0,2026-03-16T20:33:44.748533+05:30
Indore,Madhya Pradesh,22.7196,75.8577,26.1,33,0.0,947.8,7.75,33.1,75,45.3,29.9,4,5,7,0,2026-03-16T20:33:44.748538+05:30
Bhopal,Madhya Pradesh,23.2599,77.4126,25.7,29,0.0,953.2,7.65,32.4,71,27.1,18.6,4,5,7,0,2026-03-16T20:33:44.748544+05:30
Jabalpur,Madhya Pradesh,23.1815,79.9864,25.4,41,0.0,960.7,7.8,37.4,78,15.9,12.9,4,5,7,0,2026-03-16T20:33:44.748549+05:30
Ujjain,Madhya Pradesh,23.1765,75.7885,25.6,38,0.0,953.7,7.65,32.4,66,42.5,28.9,4,5,7,0,2026-03-16T20:33:44.748556+05:30
Visakhapatnam,Andhra Pradesh,17.6868,83.2185,25.6,81,0.0,1007.5,8.7,40.0,58,16.6,14.3,7,5,4,1,2026-03-16T20:33:44.748561+05:30
Vijayawada,Andhra Pradesh,16.5062,80.648,25.9,70,0.0,1005.4,8.75,26.6,47,13.6,12.3,7,5,4,1,2026-03-16T20:33:44.748567+05:30
Guntur,Andhra Pradesh,16.3067,80.4365,25.5,76,0.0,1006.4,8.75,28.4,44,13.0,11.5,7,5,4,1,2026-03-16T20:33:44.748573+05:30
Nellore,Andhra Pradesh,14.4426,79.9865,25.6,79,0.0,1008.2,8.95,32.4,62,7.7,5.7,7,0,4,1,2026-03-16T20:33:44.748579+05:30
Kurnool,Andhra Pradesh,15.8281,78.0373,28.5,55,0.0,978.0,8.8,26.3,118,44.6,36.3,4,5,7,1,2026-03-16T20:33:44.748585+05:30
Kakinada,Andhra Pradesh,16.9891,82.2475,24.7,79,0.0,1010.8,8.7,31.0,40,8.6,6.4,3,0,4,1,2026-03-16T20:33:44.748591+05:30
Tirupati,Andhra Pradesh,13.6288,79.4192,26.7,57,0.0,993.4,9.05,28.4,82,17.9,17.1,4,5,7,1,2026-03-16T20:33:44.748596+05:30
Warangal,Telangana,17.9689,79.5941,26.8,71,0.0,980.3,8.5,32.0,74,37.6,32.2,7,5,7,1,2026-03-16T20:33:44.748602+05:30
Nizamabad,Telangana,18.6725,78.0941,26.1,58,0.0,965.5,8.45,33.5,142,49.4,45.9,4,5,7,1,2026-03-16T20:33:44.748607+05:30
Mysore,Karnataka,12.2958,76.6396,24.4,76,0.0,929.5,9.35,33.5,166,45.6,41.6,3,5,7,1,2026-03-16T20:33:44.748613+05:30
Mangalore,Karnataka,12.9141,74.856,29.4,75,0.0,1007.9,9.0,23.8,101,43.7,33.8,7,5,4,1,2026-03-16T20:33:44.748618+05:30
Hubli-Dharwad,Karnataka,15.3647,75.124,25.0,71,0.0,941.9,8.95,44.6,150,34.6,29.0,7,5,7,1,2026-03-16T20:33:44.748625+05:30
Belgaum,Karnataka,15.8497,74.4977,23.4,74,0.0,926.4,9.0,36.7,111,28.3,19.7,3,5,7,1,2026-03-16T20:33:48.064153+05:30
Coimbatore,Tamil Nadu,11.0168,76.9558,24.2,77,0.0,963.0,9.3,40.0,115,39.6,37.7,3,5,7,1,2026-03-16T20:33:48.064184+05:30
Madurai,Tamil Nadu,9.9252,78.1198,29.0,63,0.0,994.3,9.25,25.6,66,13.4,12.2,7,5,7,1,2026-03-16T20:33:48.064193+05:30
Trichy,Tamil Nadu,10.7905,78.7047,28.0,68,0.0,1000.9,9.2,22.7,81,19.6,18.4,7,5,4,1,2026-03-16T20:33:48.064201+05:30
Salem,Tamil Nadu,11.6643,78.146,29.3,55,0.0,978.1,9.25,16.6,124,29.7,28.0,4,5,7,1,2026-03-16T20:33:48.064209+05:30
Tirunelveli,Tamil Nadu,8.7139,77.7567,28.2,70,0.0,1004.5,9.25,38.9,61,16.5,15.4,7,5,4,1,2026-03-16T20:33:48.064217+05:30
Vellore,Tamil Nadu,12.9165,79.1325,26.8,59,0.0,986.2,9.15,29.9,83,20.4,18.9,4,5,7,1,2026-03-16T20:33:48.064224+05:30
Erode,Tamil Nadu,11.341,77.7172,30.8,49,0.0,989.6,9.2,23.8,79,26.5,24.4,0,5,7,1,2026-03-16T20:33:48.064231+05:30
Kochi,Kerala,9.9312,76.2673,28.7,79,0.0,1009.7,9.1,32.0,88,28.6,26.1,7,0,4,1,2026-03-16T20:33:48.064239+05:30
Thiruvananthapuram,Kerala,8.5241,76.9366,28.7,75,0.0,1009.0,9.15,28.4,94,16.7,13.5,7,0,4,1,2026-03-16T20:33:48.064246+05:30
Kozhikode,Kerala,11.2588,75.7804,29.1,78,0.0,1008.7,9.0,31.7,76,30.6,25.5,7,0,4,1,2026-03-16T20:33:48.064253+05:30
Thrissur,Kerala,10.5276,76.2144,28.1,80,0.0,1008.1,9.05,35.6,82,30.7,27.9,7,0,4,1,2026-03-16T20:33:48.064260+05:30
Kannur,Kerala,11.8745,75.3704,28.9,73,0.0,1008.1,8.9,29.9,89,43.4,38.2,7,0,4,1,2026-03-16T20:33:48.064268+05:30
Patna,Bihar,25.5941,85.1376,27.1,61,0.0,1000.9,7.5,24.5,153,79.6,60.1,7,5,4,1,2026-03-16T20:33:48.064274+05:30
Gaya,Bihar,24.7914,85.0002,25.1,62,0.0,994.4,7.25,33.5,133,61.7,45.6,7,5,7,1,2026-03-16T20:33:48.064281+05:30
Muzaffarpur,Bihar,26.1209,85.3647,24.8,62,0.0,1001.2,7.5,21.6,158,86.8,67.3,3,5,4,1,2026-03-16T20:33:48.064288+05:30
Bhagalpur,Bihar,25.2425,87.0117,26.3,67,0.0,1002.2,7.55,31.7,168,84.8,71.2,7,5,4,1,2026-03-16T20:33:48.064294+05:30
Ranchi,Jharkhand,23.3441,85.3096,22.8,68,0.0,939.1,8.0,35.3,137,43.1,38.0,3,5,7,1,2026-03-16T20:33:48.064301+05:30
Jamshedpur,Jharkhand,22.8046,86.2029,24.0,77,0.0,993.1,8.0,39.6,146,54.4,46.9,3,5,7,1,2026-03-16T20:33:48.064307+05:30
Dhanbad,Jharkhand,23.7957,86.4304,26.1,62,0.0,981.4,7.6,35.6,161,70.1,61.2,7,5,7,1,2026-03-16T20:33:48.064314+05:30
Bokaro,Jharkhand,23.6693,86.1511,24.9,66,0.0,985.4,7.8,28.4,155,59.8,52.0,3,5,7,1,2026-03-16T20:33:48.064320+05:30
Bhubaneswar,Odisha,20.2961,85.8245,24.4,89,0.3,1006.0,8.5,37.4,74,24.6,21.5,6,5,4,1,2026-03-16T20:33:48.064328+05:30
Cuttack,Odisha,20.4625,85.8828,24.4,88,0.0,1007.5,8.5,39.6,74,24.6,21.5,3,5,4,1,2026-03-16T20:33:48.064335+05:30
Rourkela,Odisha,22.2604,84.8536,25.4,67,0.0,987.0,8.0,42.1,156,56.1,51.0,7,5,7,1,2026-03-16T20:33:48.064342+05:30
Raipur,Chhattisgarh,21.2514,81.6296,27.3,54,0.0,975.0,8.2,36.0,135,47.7,44.1,4,5,7,1,2026-03-16T20:33:48.064348+05:30
Bhilai,Chhattisgarh,21.1938,81.3509,27.3,54,0.0,975.2,8.2,34.2,129,49.5,45.8,4,5,7,1,2026-03-16T20:33:48.064355+05:30
Guwahati,Assam,26.1158,91.7086,24.1,85,0.0,1003.0,7.2,36.7,81,33.1,30.0,3,5,4,1,2026-03-16T20:33:48.064362+05:30
Agartala,Tripura,23.8315,91.2868,22.6,84,0.0,1010.8,5.55,31.7,69,35.0,30.5,3,0,0,1,2026-03-16T20:33:48.064368+05:30
Shillong,Meghalaya,25.5788,91.8933,13.1,93,0.0,856.3,7.85,74.2,62,14.1,13.0,3,10,7,0,2026-03-16T20:33:48.064375+05:30
Imphal,Manipur,24.817,93.9368,15.6,88,0.0,925.2,8.2,70.2,87,44.4,37.5,3,10,7,0,2026-03-16T20:33:48.064382+05:30
Aizawl,Mizoram,23.7271,92.7176,17.7,80,0.0,895.0,8.05,60.1,89,54.8,44.5,3,5,7,0,2026-03-16T20:33:48.064389+05:30
Kohima,Nagaland,25.6701,94.1077,14.7,70,0.0,855.6,7.9,110.5,71,36.1,29.3,3,5,7,0,2026-03-16T20:33:48.064395+05:30
Gangtok,Sikkim,27.3314,88.6138,11.7,88,0.0,836.8,7.85,18.7,82,38.0,24.0,3,10,7,0,2026-03-16T20:33:48.064402+05:30
Siliguri,West Bengal,26.7271,88.3953,19.2,79,0.0,996.4,7.5,28.8,128,58.6,42.8,3,5,7,0,2026-03-16T20:33:51.371177+05:30
Durgapur,West Bengal,23.5204,87.3119,24.3,80,0.0,997.3,7.75,41.4,154,61.5,55.8,3,5,7,1,2026-03-16T20:33:51.371208+05:30
Asansol,West Bengal,23.6739,86.9524,25.0,75,0.0,995.6,7.75,46.1,154,59.6,52.6,7,5,7,1,2026-03-16T20:33:51.371218+05:30
Pondicherry,Puducherry,11.9139,79.8145,25.3,90,0.0,1010.2,9.05,32.4,34,8.4,5.9,7,0,4,1,2026-03-16T20:33:51.371226+05:30
Port Blair,Andaman and Nicobar Islands,11.6234,92.7265,27.7,79,0.0,1009.4,9.0,20.2,66,16.0,13.3,7,0,4,1,2026-03-16T20:33:51.371234+05:30
Haridwar,Uttarakhand,29.9457,78.1642,19.9,57,0.0,975.3,5.85,51.8,82,52.4,33.1,0,5,3,0,2026-03-16T20:33:51.371242+05:30
Rishikesh,Uttarakhand,30.0869,78.2676,18.3,58,0.0,968.1,5.9,32.8,91,38.4,18.1,0,5,3,0,2026-03-16T20:33:51.371249+05:30
Nainital,Uttarakhand,29.3919,79.4542,15.4,47,0.0,805.5,6.75,68.8,72,60.1,27.1,0,5,7,0,2026-03-16T20:33:51.371257+05:30
Mussoorie,Uttarakhand,30.4599,78.0664,11.6,61,0.0,800.8,5.3,33.8,75,56.9,31.2,3,5,3,0,2026-03-16T20:33:51.371264+05:30
Dharamshala,Himachal Pradesh,32.219,76.3234,12.7,52,0.0,867.2,4.9,37.8,78,24.2,11.5,0,5,3,0,2026-03-16T20:33:51.371271+05:30
Dalhousie,Himachal Pradesh,32.5387,75.971,9.6,59,0.0,800.6,5.2,26.3,68,37.3,20.2,0,5,3,0,2026-03-16T20:33:51.371278+05:30
Patiala,Punjab,30.3398,76.3869,15.4,79,0.0,979.9,5.8,52.6,74,36.4,25.2,3,5,3,0,2026-03-16T20:33:51.371285+05:30
Bhatinda,Punjab,30.211,74.9455,16.6,74,0.0,986.4,6.55,36.0,86,50.4,30.2,3,5,7,0,2026-03-16T20:33:51.371292+05:30
Rohtak,Haryana,28.8955,76.6066,21.4,65,0.0,982.2,6.15,48.2,656,860.5,123.4,3,5,7,0,2026-03-16T20:33:51.371299+05:30
Panipat,Haryana,29.3909,76.9635,19.4,74,0.0,981.3,5.9,41.4,238,476.8,76.4,3,5,3,0,2026-03-16T20:33:51.371306+05:30
Mathura,Uttar Pradesh,27.4924,77.6737,23.8,45,0.0,985.8,6.4,34.2,1036,765.5,103.8,0,5,7,0,2026-03-16T20:33:51.371313+05:30
Vrindavan,Uttar Pradesh,27.5823,77.7027,23.5,45,0.0,986.7,6.35,37.1,1036,765.5,103.8,0,5,7,0,2026-03-16T20:33:51.371320+05:30
Ayodhya,Uttar Pradesh,26.7922,82.1998,24.3,56,0.0,996.1,6.75,33.1,102,64.5,44.2,0,5,7,0,2026-03-16T20:33:51.371326+05:30
Ratlam,Madhya Pradesh,23.3315,75.0367,27.3,38,0.0,954.6,7.55,34.2,78,28.1,18.3,4,5,7,0,2026-03-16T20:33:51.371333+05:30
Sagar,Madhya Pradesh,23.8388,78.7378,26.2,36,0.0,949.9,7.6,29.2,77,24.6,10.9,4,5,7,0,2026-03-16T20:33:51.371340+05:30
Satna,Madhya Pradesh,24.6005,80.8322,27.3,32,0.0,971.0,7.6,38.9,87,25.8,17.1,4,5,7,0,2026-03-16T20:33:51.371347+05:30
Akola,Maharashtra,20.7002,77.0082,29.5,27,0.0,974.3,8.1,23.4,105,38.1,26.0,4,5,7,0,2026-03-16T20:33:51.371355+05:30
Amravati,Maharashtra,20.9374,77.7796,28.8,34,0.0,966.4,8.05,31.0,110,40.0,29.1,4,5,7,0,2026-03-16T20:33:51.371362+05:30
Latur,Maharashtra,18.4088,76.5604,25.7,47,0.0,939.8,8.55,24.5,108,43.2,36.8,4,5,7,0,2026-03-16T20:33:51.371369+05:30
Nanded,Maharashtra,19.1383,77.3091,28.2,43,0.0,968.3,8.35,23.8,107,49.7,42.1,4,5,7,0,2026-03-16T20:33:51.371376+05:30
Gulbarga,Karnataka,17.3297,76.8343,27.5,53,0.0,959.6,8.65,32.4,157,42.5,38.9,4,5,7,1,2026-03-16T20:33:51.371383+05:30
Bidar,Karnataka,17.9104,77.5199,24.5,62,0.0,936.4,8.6,37.1,158,47.7,44.1,3,5,7,1,2026-03-16T20:33:51.371389+05:30
Hospet,Karnataka,15.2689,76.3909,26.3,65,0.0,957.2,8.9,28.8,175,49.4,43.7,7,5,7,1,2026-03-16T20:33:51.371396+05:30
Tirupur,Tamil Nadu,11.1085,77.3411,27.0,57,0.0,976.3,9.3,33.1,104,34.9,32.6,4,5,7,1,2026-03-16T20:33:51.371403+05:30
Alappuzha,Kerala,9.4981,76.3388,28.4,80,0.0,1010.0,9.1,30.2,89,27.1,23.1,7,0,4,1,2026-03-16T20:33:51.371409+05:30
Munnar,Kerala,10.0889,77.0595,20.5,90,0.0,857.6,9.6,33.1,77,32.6,31.4,3,5,7,1,2026-03-16T20:33:51.371417+05:30
Silchar,Assam,24.8333,92.7789,20.3,87,0.0,1009.6,7.85,44.6,70,28.5,25.1,3,0,4,1,2026-03-16T20:33:51.371424+05:30
Dibrugarh,Assam,27.4728,94.912,19.0,91,0.0,998.4,3.25,40.7,79,35.6,31.4,3,10,3,1,2026-03-16T20:33:51.371430+05:30
