city,state,latitude,longitude,temp,humidity,rain,pressure,uv_index,wind_gusts,aqi,pm10,pm2_5,mosquito_risk,arthritis_risk,migraine_risk,frizz_risk,updated_at
Delhi,Delhi,28.6139,77.209,17.8,78,0.0,986.7,5.85,37.1,350,292.4,75.2,3,5,3,0,2026-03-04T03:07:16.769705+05:30
Mumbai,Maharashtra,19.076,72.8777,28.0,64,0.0,1009.6,7.4,25.6,117,39.8,39.2,7,0,4,1,2026-03-04T03:07:16.769749+05:30
Bangalore,Karnataka,12.9716,77.5946,20.0,70,0.0,912.2,9.1,36.7,97,31.2,30.2,3,5,7,0,2026-03-04T03:07:16.769764+05:30
Hyderabad,Telangana,17.385,78.4867,23.6,59,0.0,955.1,8.4,24.5,122,48.8,47.7,0,5,7,0,2026-03-04T03:07:16.769774+05:30
Chennai,Tamil Nadu,13.0827,80.2707,23.8,88,0.0,1009.2,8.8,28.4,102,36.6,32.7,3,0,4,1,2026-03-04T03:07:16.769783+05:30
Kolkata,West Bengal,22.5726,88.3639,20.6,75,0.0,1009.6,7.75,18.7,166,138.8,106.9,3,0,4,0,2026-03-04T03:07:16.769792+05:30
Pune,Maharashtra,18.5204,73.8567,22.1,73,0.0,949.7,7.95,31.3,83,33.3,32.4,3,5,7,1,2026-03-04T03:07:16.769804+05:30
Ahmedabad,Gujarat,23.0225,72.5714,22.9,63,0.0,1006.0,7.2,19.1,90,49.7,40.4,3,5,4,0,2026-03-04T03:07:16.769812+05:30
Jaipur,Rajasthan,26.9124,75.7873,21.0,36,0.0,963.8,6.6,33.5,110,77.5,45.9,0,5,7,0,2026-03-04T03:07:16.769820+05:30
Lucknow,Uttar Pradesh,26.8467,80.9462,18.0,76,0.0,997.1,6.35,26.3,153,286.8,66.8,3,5,7,0,2026-03-04T03:07:16.769828+05:30
Kanpur,Uttar Pradesh,26.4499,80.3319,16.6,84,0.0,995.5,6.35,29.9,181,320.4,63.1,3,10,7,0,2026-03-04T03:07:16.769836+05:30
Chandigarh,Chandigarh,30.7333,76.7794,16.6,77,0.0,971.8,5.75,36.0,88,33.8,30.5,3,5,3,0,2026-03-04T03:07:16.769843+05:30
Srinagar,Jammu and Kashmir,34.0837,74.7973,4.5,79,0.0,841.2,6.45,15.8,140,80.3,69.6,3,5,7,0,2026-03-04T03:07:16.769850+05:30
Jammu,Jammu and Kashmir,32.7266,74.857,15.2,84,0.0,976.5,6.35,27.0,109,48.7,44.9,3,10,7,0,2026-03-04T03:07:16.769857+05:30
Amritsar,Punjab,31.634,74.8723,17.0,70,0.0,984.8,6.3,22.7,110,99.0,84.1,3,5,7,0,2026-03-04T03:07:16.769864+05:30
Ludhiana,Punjab,30.901,75.8573,18.7,70,0.0,982.6,6.0,32.4,148,95.0,86.6,3,5,3,0,2026-03-04T03:07:16.769871+05:30
Jalandhar,Punjab,31.326,75.5762,15.3,88,0.0,983.7,6.15,29.2,146,103.4,91.7,3,10,7,0,2026-03-04T03:07:16.769880+05:30
Dehradun,Uttarakhand,30.6284,78.0322,10.7,47,0.0,829.0,6.1,32.0,62,19.0,17.8,0,5,7,1,2026-03-04T03:07:16.769887+05:30
Shimla,Himachal Pradesh,31.1048,77.1734,9.6,51,0.0,783.6,6.15,55.1,72,35.9,29.7,0,5,7,0,2026-03-04T03:07:16.769895+05:30
Manali,Himachal Pradesh,32.2396,77.1887,16.9,15,0.0,821.8,7.35,32.4,50,18.3,14.3,0,5,7,1,2026-03-04T03:07:16.769904+05:30
Gurgaon,Haryana,28.4595,77.0266,15.1,87,0.0,985.2,5.95,36.0,1221,1002.1,138.3,3,10,3,0,2026-03-04T03:07:16.769911+05:30
Noida,Uttar Pradesh,28.5355,77.391,18.3,75,0.0,988.2,5.85,36.4,1221,1002.1,138.3,3,5,3,0,2026-03-04T03:07:16.769918+05:30
Ghaziabad,Uttar Pradesh,28.6692,77.4538,17.7,79,0.0,986.3,5.85,33.8,268,255.2,75.9,3,5,3,0,2026-03-04T03:07:16.769924+05:30
Faridabad,Haryana,28.4089,77.3178,17.2,73,0.0,987.4,5.9,34.6,1221,1002.1,138.3,3,5,3,0,2026-03-04T03:07:16.769931+05:30
Meerut,Uttar Pradesh,28.9845,77.7064,16.0,88,0.0,984.8,5.7,36.4,268,255.2,75.9,3,10,3,0,2026-03-04T03:07:16.769937+05:30
Agra,Uttar Pradesh,27.1767,78.0081,16.0,70,0.0,991.6,6.2,37.4,410,377.2,70.1,3,5,7,0,2026-03-04T03:07:16.769943+05:30
Varanasi,Uttar Pradesh,25.3176,82.9739,17.2,76,0.0,1001.6,7.0,19.8,138,97.8,69.4,3,5,4,0,2026-03-04T03:07:16.769952+05:30
Prayagraj,Uttar Pradesh,25.4358,81.8463,17.5,81,0.0,1000.1,6.9,26.6,141,157.4,71.5,3,10,4,0,2026-03-04T03:07:16.769960+05:30
Gorakhpur,Uttar Pradesh,26.7606,83.3732,16.7,88,0.0,1000.7,6.75,7.9,158,129.0,105.9,3,10,4,0,2026-03-04T03:07:16.769966+05:30
Bareilly,Uttar Pradesh,28.367,79.4304,15.3,92,0.0,989.9,6.05,16.2,157,390.2,121.5,3,10,7,0,2026-03-04T03:07:16.769975+05:30
Aligarh,Uttar Pradesh,27.8974,78.088,15.6,73,0.0,989.2,5.95,32.8,689,558.8,108.5,3,5,3,0,2026-03-04T03:07:16.769981+05:30
Moradabad,Uttar Pradesh,28.8386,78.7733,15.6,87,0.0,986.7,5.9,19.8,153,338.1,102.4,3,10,3,0,2026-03-04T03:07:16.769988+05:30
Saharanpur,Uttar Pradesh,29.9637,77.546,15.9,80,0.0,978.7,5.5,40.3,150,118.7,81.7,3,5,3,0,2026-03-04T03:07:16.769994+05:30
Jhansi,Uttar Pradesh,25.4484,78.5685,17.1,75,0.0,981.8,6.8,33.8,78,30.3,22.6,3,5,7,0,2026-03-04T03:07:19.997071+05:30
Surat,Gujarat,21.1702,72.8311,23.8,66,0.0,1009.6,7.1,27.7,157,48.7,46.3,3,0,4,1,2026-03-04T03:07:19.997103+05:30
Vadodara,Gujarat,22.3072,73.1812,22.8,66,0.0,1007.7,7.2,19.1,151,82.0,78.2,3,5,4,1,2026-03-04T03:07:19.997117+05:30
Rajkot,Gujarat,22.3039,70.8022,21.9,76,0.0,998.4,7.0,20.5,62,27.6,22.1,3,5,7,1,2026-03-04T03:07:19.997128+05:30
Thane,Maharashtra,19.2183,72.9781,25.9,59,0.0,1009.2,7.4,36.4,117,39.8,39.2,4,0,4,1,2026-03-04T03:07:19.997139+05:30
Nagpur,Maharashtra,21.1458,79.0882,21.6,65,0.0,976.3,7.75,22.3,71,25.3,20.6,3,5,7,0,2026-03-04T03:07:19.997150+05:30
Nashik,Maharashtra,19.9975,73.7898,23.1,50,0.0,947.7,7.55,24.1,91,28.0,27.2,0,5,7,0,2026-03-04T03:07:19.997160+05:30
Aurangabad,Maharashtra,19.8762,75.3433,22.1,49,0.0,946.0,8.1,29.5,79,37.0,36.0,0,5,7,0,2026-03-04T03:07:19.997170+05:30
Solapur,Maharashtra,17.6599,75.9064,22.8,71,0.0,958.2,8.35,18.7,90,23.0,22.3,3,5,7,1,2026-03-04T03:07:19.997180+05:30
Kolhapur,Maharashtra,16.705,74.2433,21.2,81,0.0,948.6,8.45,35.6,153,91.0,90.1,3,5,7,1,2026-03-04T03:07:19.997189+05:30
Goa,Goa,15.2993,74.124,26.1,89,0.0,998.8,8.5,36.7,82,42.1,38.6,7,5,7,1,2026-03-04T03:07:19.997199+05:30
Jodhpur,Rajasthan,26.2389,73.0243,20.6,60,0.0,987.4,6.9,13.3,75,69.4,36.7,0,5,7,0,2026-03-04T03:07:19.997209+05:30
Udaipur,Rajasthan,24.5854,73.7125,18.4,52,0.0,950.4,7.5,13.3,65,46.2,23.1,0,5,7,0,2026-03-04T03:07:19.997219+05:30
Kota,Rajasthan,25.2138,75.8648,15.7,88,0.0,982.8,6.9,15.5,90,56.0,40.6,3,10,7,0,2026-03-04T03:07:19.997228+05:30
Bikaner,Rajasthan,28.0229,73.3119,21.2,50,0.0,986.2,6.6,23.8,68,37.0,19.7,0,5,7,0,2026-03-04T03:07:19.997238+05:30
Ajmer,Rajasthan,26.4499,74.6399,20.5,33,0.0,958.6,6.85,21.2,77,55.1,31.8,0,5,7,0,2026-03-04T03:07:19.997247+05:30
Gwalior,Madhya Pradesh,26.2183,78.1828,17.8,60,0.0,987.0,6.55,31.7,115,51.0,36.8,0,5,7,0,2026-03-04T03:07:19.997257+05:30
Indore,Madhya Pradesh,22.7196,75.8577,19.7,60,0.0,951.0,7.45,18.4,90,41.0,33.6,0,5,7,0,2026-03-04T03:07:19.997267+05:30
Bhopal,Madhya Pradesh,23.2599,77.4126,20.1,52,0.0,956.8,7.35,22.7,81,47.3,34.8,0,5,7,0,2026-03-04T03:07:19.997276+05:30
Jabalpur,Madhya Pradesh,23.1815,79.9864,19.0,64,0.0,964.7,7.4,24.5,78,49.1,34.1,3,5,7,0,2026-03-04T03:07:19.997285+05:30
Ujjain,Madhya Pradesh,23.1765,75.7885,19.0,64,0.0,957.0,7.35,16.2,111,51.6,45.5,3,5,7,0,2026-03-04T03:07:19.997295+05:30
Visakhapatnam,Andhra Pradesh,17.6868,83.2185,23.2,94,0.0,1006.4,8.4,35.3,134,60.8,56.6,3,5,4,1,2026-03-04T03:07:19.997305+05:30
Vijayawada,Andhra Pradesh,16.5062,80.648,23.6,88,0.0,1005.3,8.45,19.8,132,40.3,36.7,3,5,4,1,2026-03-04T03:07:19.997314+05:30
Guntur,Andhra Pradesh,16.3067,80.4365,23.0,88,0.0,1006.5,8.45,24.8,122,32.9,30.0,3,5,4,1,2026-03-04T03:07:19.997324+05:30
Nellore,Andhra Pradesh,14.4426,79.9865,23.1,91,0.0,1008.1,8.65,28.8,98,29.9,28.1,3,0,4,1,2026-03-04T03:07:19.997335+05:30
Kurnool,Andhra Pradesh,15.8281,78.0373,25.9,51,0.0,978.4,8.45,28.4,107,36.7,35.7,4,5,7,0,2026-03-04T03:07:19.997346+05:30
Kakinada,Andhra Pradesh,16.9891,82.2475,22.4,90,0.0,1010.2,8.4,33.1,116,42.5,36.3,3,0,4,1,2026-03-04T03:07:19.997355+05:30
Tirupati,Andhra Pradesh,13.6288,79.4192,21.5,64,0.0,993.9,8.8,36.4,144,67.1,65.4,3,5,7,0,2026-03-04T03:07:19.997365+05:30
Warangal,Telangana,17.9689,79.5941,23.9,57,0.0,980.8,8.2,23.0,121,46.4,45.3,0,5,7,0,2026-03-04T03:07:19.997374+05:30
Nizamabad,Telangana,18.6725,78.0941,21.4,69,0.0,966.8,8.1,25.2,87,27.1,23.9,3,5,7,0,2026-03-04T03:07:19.997384+05:30
Mysore,Karnataka,12.2958,76.6396,20.8,68,0.0,928.6,9.15,40.7,108,31.1,30.3,3,5,7,0,2026-03-04T03:07:19.997393+05:30
Mangalore,Karnataka,12.9141,74.856,28.1,80,0.0,1007.4,8.75,30.2,68,27.9,23.8,7,5,4,1,2026-03-04T03:07:19.997403+05:30
Hubli-Dharwad,Karnataka,15.3647,75.124,21.9,92,0.0,941.2,8.65,24.5,98,36.1,35.4,3,5,7,1,2026-03-04T03:07:19.997413+05:30
Belgaum,Karnataka,15.8497,74.4977,21.3,93,0.0,926.1,8.7,28.8,115,58.6,56.8,3,5,7,1,2026-03-04T03:07:23.223567+05:30
Coimbatore,Tamil Nadu,11.0168,76.9558,21.4,60,0.0,962.5,9.15,42.5,114,37.3,36.7,0,5,7,0,2026-03-04T03:07:23.223602+05:30
Madurai,Tamil Nadu,9.9252,78.1198,22.9,78,0.0,994.5,9.1,25.6,103,42.5,41.7,3,5,7,1,2026-03-04T03:07:23.223617+05:30
Trichy,Tamil Nadu,10.7905,78.7047,21.7,95,0.0,1001.6,9.0,30.2,97,39.8,37.7,3,5,4,1,2026-03-04T03:07:23.223628+05:30
Salem,Tamil Nadu,11.6643,78.146,22.2,78,0.0,978.5,9.05,35.6,128,53.3,52.3,3,5,7,1,2026-03-04T03:07:23.223661+05:30
Tirunelveli,Tamil Nadu,8.7139,77.7567,20.5,90,0.0,1004.5,9.15,33.5,90,35.6,34.9,3,5,4,1,2026-03-04T03:07:23.223673+05:30
Vellore,Tamil Nadu,12.9165,79.1325,20.8,88,0.0,986.7,8.9,40.0,132,66.4,64.7,3,5,7,1,2026-03-04T03:07:23.223683+05:30
Erode,Tamil Nadu,11.341,77.7172,23.0,89,0.0,990.5,9.05,29.2,109,38.1,37.1,3,5,7,1,2026-03-04T03:07:23.223694+05:30
Kochi,Kerala,9.9312,76.2673,26.6,81,0.0,1009.5,8.95,33.5,96,23.3,22.8,7,0,4,1,2026-03-04T03:07:23.223705+05:30
Thiruvananthapuram,Kerala,8.5241,76.9366,27.9,70,0.0,1008.6,9.0,26.6,116,34.9,32.7,7,0,4,1,2026-03-04T03:07:23.223716+05:30
Kozhikode,Kerala,11.2588,75.7804,27.8,81,0.0,1008.4,8.85,30.6,66,29.0,22.6,7,0,4,1,2026-03-04T03:07:23.223727+05:30
Thrissur,Kerala,10.5276,76.2144,24.7,92,0.0,1007.8,8.9,38.5,99,38.9,38.0,3,5,4,1,2026-03-04T03:07:23.223739+05:30
Kannur,Kerala,11.8745,75.3704,26.9,83,0.0,1007.7,8.85,34.6,65,23.3,19.8,7,5,4,1,2026-03-04T03:07:23.223750+05:30
Patna,Bihar,25.5941,85.1376,19.8,72,0.0,1004.2,7.2,16.6,152,125.3,97.1,3,5,4,0,2026-03-04T03:07:23.223761+05:30
Gaya,Bihar,24.7914,85.0002,16.9,65,0.0,997.8,7.3,19.4,120,115.5,76.4,3,5,7,0,2026-03-04T03:07:23.223772+05:30
Muzaffarpur,Bihar,26.1209,85.3647,18.6,71,0.0,1004.2,7.15,13.7,158,146.2,115.5,3,5,4,0,2026-03-04T03:07:23.223782+05:30
Bhagalpur,Bihar,25.2425,87.0117,18.2,77,0.0,1005.1,7.2,10.1,152,139.7,99.4,3,5,4,0,2026-03-04T03:07:23.223793+05:30
Ranchi,Jharkhand,23.3441,85.3096,18.4,52,0.0,940.5,7.95,30.6,79,75.0,42.8,0,5,7,0,2026-03-04T03:07:23.223803+05:30
Jamshedpur,Jharkhand,22.8046,86.2029,18.1,72,0.0,994.4,7.85,22.3,106,79.4,55.3,3,5,7,0,2026-03-04T03:07:23.223814+05:30
Dhanbad,Jharkhand,23.7957,86.4304,17.2,64,0.0,983.4,7.7,24.5,113,81.5,56.8,3,5,7,0,2026-03-04T03:07:23.223824+05:30
Bokaro,Jharkhand,23.6693,86.1511,17.7,54,0.0,987.7,7.7,27.4,117,89.6,62.6,0,5,7,0,2026-03-04T03:07:23.223833+05:30
Bhubaneswar,Odisha,20.2961,85.8245,23.0,96,0.0,1005.3,8.1,29.5,139,50.4,46.1,3,5,4,1,2026-03-04T03:07:23.223841+05:30
Cuttack,Odisha,20.4625,85.8828,22.3,98,0.0,1007.5,8.15,28.8,139,50.4,46.1,3,5,4,1,2026-03-04T03:07:23.223850+05:30
Rourkela,Odisha,22.2604,84.8536,19.1,66,0.0,988.4,7.75,19.4,93,56.6,38.1,3,5,7,0,2026-03-04T03:07:23.223858+05:30
Raipur,Chhattisgarh,21.2514,81.6296,21.3,53,0.0,977.6,7.8,23.0,136,84.3,75.7,0,5,7,0,2026-03-04T03:07:23.223866+05:30
Bhilai,Chhattisgarh,21.1938,81.3509,20.5,54,0.0,977.8,7.8,20.9,130,72.4,65.4,0,5,7,0,2026-03-04T03:07:23.223875+05:30
Guwahati,Assam,26.1158,91.7086,20.7,80,0.0,1005.1,7.1,16.6,157,93.1,82.0,3,5,4,1,2026-03-04T03:07:23.223883+05:30
Agartala,Tripura,23.8315,91.2868,19.2,89,0.0,1009.4,7.5,22.7,168,106.9,96.2,3,5,4,1,2026-03-04T03:07:23.223891+05:30
Shillong,Meghalaya,25.5788,91.8933,10.1,77,0.0,855.6,7.5,25.2,156,77.8,66.1,3,5,7,0,2026-03-04T03:07:23.223900+05:30
Imphal,Manipur,24.817,93.9368,12.4,82,0.0,924.7,7.7,23.4,156,88.9,80.8,3,10,7,0,2026-03-04T03:07:23.223909+05:30
Aizawl,Mizoram,23.7271,92.7176,15.3,72,0.0,893.5,7.7,27.0,156,73.8,64.3,3,5,7,0,2026-03-04T03:07:23.223917+05:30
Kohima,Nagaland,25.6701,94.1077,10.8,65,0.0,854.5,7.55,36.0,153,82.2,71.7,3,5,7,0,2026-03-04T03:07:23.223925+05:30
Gangtok,Sikkim,27.3314,88.6138,10.7,93,0.0,837.4,7.45,20.9,152,52.0,41.1,3,10,7,0,2026-03-04T03:07:23.223934+05:30
Siliguri,West Bengal,26.7271,88.3953,19.4,67,0.0,997.6,7.15,21.6,163,101.0,86.8,3,5,7,0,2026-03-04T03:07:26.449047+05:30
Durgapur,West Bengal,23.5204,87.3119,21.0,62,0.0,998.8,7.7,24.1,95,83.6,51.5,3,5,7,0,2026-03-04T03:07:26.449076+05:30
Asansol,West Bengal,23.6739,86.9524,21.9,61,0.0,997.5,7.7,22.3,91,65.2,36.0,3,5,7,0,2026-03-04T03:07:26.449088+05:30
Pondicherry,Puducherry,11.9139,79.8145,21.9,97,0.0,1010.5,8.85,27.7,96,28.3,24.6,3,0,4,1,2026-03-04T03:07:26.449097+05:30
Port Blair,Andaman and Nicobar Islands,11.6234,92.7265,26.9,76,0.0,1008.4,8.8,27.0,77,36.6,27.3,7,0,4,1,2026-03-04T03:07:26.449106+05:30
Haridwar,Uttarakhand,29.9457,78.1642,15.6,89,0.0,977.2,5.6,19.8,128,74.3,63.3,3,10,3,0,2026-03-04T03:07:26.449115+05:30
Rishikesh,Uttarakhand,30.0869,78.2676,16.6,86,0.0,969.9,5.65,23.8,92,43.2,40.2,3,10,3,0,2026-03-04T03:07:26.449124+05:30
Nainital,Uttarakhand,29.3919,79.4542,14.2,59,0.0,805.7,6.5,53.3,114,63.3,51.9,0,5,7,0,2026-03-04T03:07:26.449132+05:30
Mussoorie,Uttarakhand,30.4599,78.0664,13.4,62,0.0,802.7,6.0,40.3,94,45.1,40.9,3,5,3,0,2026-03-04T03:07:26.449140+05:30
Dharamshala,Himachal Pradesh,32.219,76.3234,19.3,28,0.0,871.5,6.25,29.5,50,11.3,7.1,0,5,7,0,2026-03-04T03:07:26.449148+05:30
Dalhousie,Himachal Pradesh,32.5387,75.971,14.6,27,0.0,805.0,6.45,23.8,86,32.0,29.6,0,5,7,1,2026-03-04T03:07:26.449158+05:30
Patiala,Punjab,30.3398,76.3869,16.6,83,0.0,981.7,5.65,34.2,238,182.1,70.8,3,10,3,0,2026-03-04T03:07:26.449166+05:30
Bhatinda,Punjab,30.211,74.9455,18.0,81,0.0,987.8,6.3,25.9,142,88.7,64.0,3,10,7,0,2026-03-04T03:07:26.449175+05:30
Rohtak,Haryana,28.8955,76.6066,16.6,86,0.0,985.6,5.85,35.6,473,310.1,72.2,3,10,3,0,2026-03-04T03:07:26.449184+05:30
Panipat,Haryana,29.3909,76.9635,16.6,86,0.0,983.8,5.65,35.3,1076,722.7,116.2,3,10,3,0,2026-03-04T03:07:26.449192+05:30
Mathura,Uttar Pradesh,27.4924,77.6737,21.4,44,0.0,990.7,6.1,34.6,459,397.7,71.7,0,5,7,0,2026-03-04T03:07:26.449200+05:30
Vrindavan,Uttar Pradesh,27.5823,77.7027,16.6,66,0.0,991.0,6.1,36.4,459,397.7,71.7,3,5,7,0,2026-03-04T03:07:26.449208+05:30
Ayodhya,Uttar Pradesh,26.7922,82.1998,17.1,88,0.0,998.9,6.5,10.1,152,182.5,82.7,3,10,7,0,2026-03-04T03:07:26.449217+05:30
Ratlam,Madhya Pradesh,23.3315,75.0367,17.2,90,0.0,957.4,7.35,13.0,95,51.7,45.5,3,10,7,0,2026-03-04T03:07:26.449225+05:30
Sagar,Madhya Pradesh,23.8388,78.7378,19.2,62,0.0,953.3,7.3,24.5,69,37.7,27.6,3,5,7,0,2026-03-04T03:07:26.449233+05:30
Satna,Madhya Pradesh,24.6005,80.8322,17.5,62,0.0,974.8,7.25,36.4,78,41.7,25.6,3,5,7,0,2026-03-04T03:07:26.449241+05:30
Akola,Maharashtra,20.7002,77.0082,20.6,66,0.0,978.0,7.8,15.1,77,31.2,26.4,3,5,7,0,2026-03-04T03:07:26.449250+05:30
Amravati,Maharashtra,20.9374,77.7796,21.7,51,0.0,969.9,7.75,20.2,73,28.9,22.6,0,5,7,0,2026-03-04T03:07:26.449259+05:30
Latur,Maharashtra,18.4088,76.5604,23.3,53,0.0,941.5,8.25,23.8,84,33.6,31.5,0,5,7,0,2026-03-04T03:07:26.449267+05:30
Nanded,Maharashtra,19.1383,77.3091,22.5,61,0.0,970.9,8.0,17.3,79,33.5,31.2,3,5,7,0,2026-03-04T03:07:26.449275+05:30
Gulbarga,Karnataka,17.3297,76.8343,23.8,52,0.0,960.3,8.35,20.9,100,26.7,26.1,0,5,7,0,2026-03-04T03:07:26.449283+05:30
Bidar,Karnataka,17.9104,77.5199,22.0,63,0.0,936.9,8.3,26.6,99,42.7,40.6,3,5,7,0,2026-03-04T03:07:26.449292+05:30
Hospet,Karnataka,15.2689,76.3909,26.5,50,0.0,956.9,8.65,25.9,114,44.9,44.2,4,5,7,0,2026-03-04T03:07:26.449300+05:30
Tirupur,Tamil Nadu,11.1085,77.3411,23.1,78,0.0,976.6,9.15,32.0,122,42.7,42.0,3,5,7,1,2026-03-04T03:07:26.449308+05:30
Alappuzha,Kerala,9.4981,76.3388,26.6,81,0.0,1009.6,8.95,32.8,93,38.6,36.9,7,0,4,1,2026-03-04T03:07:26.449316+05:30
Munnar,Kerala,10.0889,77.0595,17.6,56,0.0,855.4,9.45,22.7,100,35.2,34.2,0,5,7,0,2026-03-04T03:07:26.449325+05:30
Silchar,Assam,24.8333,92.7789,20.2,78,0.0,1008.2,7.45,16.2,161,86.4,75.9,3,0,4,1,2026-03-04T03:07:26.449333+05:30
Dibrugarh,Assam,27.4728,94.912,20.1,92,0.0,999.6,7.15,9.7,131,44.9,38.4,3,5,7,1,2026-03-04T03:07:26.449341+05:30
