city,state,latitude,longitude,temp,humidity,rain,pressure,uv_index,wind_gusts,aqi,pm10,pm2_5,no2,co,o3,so2,mosquito_risk,arthritis_risk,migraine_risk,frizz_risk,updated_at
Delhi,Delhi,28.6139,77.209,41.8,17,0.0,974.9,7.75,42.5,738,840.1,128.1,12.0,255.0,126.0,11.9,0,5,10,0,2026-05-18T18:04:38.958956+05:30
Mumbai,Maharashtra,19.076,72.8777,31.5,68,0.0,1003.1,7.55,43.6,69,39.8,20.9,10.0,227.0,83.0,5.0,3,5,4,1,2026-05-18T18:04:38.958996+05:30
Bangalore,Karnataka,12.9716,77.5946,25.2,84,0.3,909.6,8.55,30.6,116,32.5,26.7,29.6,546.0,100.0,6.3,10,5,7,1,2026-05-18T18:04:38.959012+05:30
Hyderabad,Telangana,17.385,78.4867,36.2,31,0.0,949.0,9.25,25.6,88,22.9,16.6,4.3,344.0,135.0,4.2,0,5,10,1,2026-05-18T18:04:38.959021+05:30
Chennai,Tamil Nadu,13.0827,80.2707,31.6,70,0.0,1002.1,9.05,43.2,110,23.6,18.7,5.3,305.0,141.0,8.6,3,5,4,1,2026-05-18T18:04:38.959030+05:30
Kolkata,West Bengal,22.5726,88.3639,29.9,87,0.0,999.4,8.95,37.4,82,36.1,28.7,10.4,614.0,91.0,8.9,7,5,7,1,2026-05-18T18:04:38.959038+05:30
Pune,Maharashtra,18.5204,73.8567,34.3,40,0.0,943.5,8.4,48.6,117,34.6,20.8,3.7,233.0,160.0,10.4,0,5,7,1,2026-05-18T18:04:38.959044+05:30
Ahmedabad,Gujarat,23.0225,72.5714,41.8,14,0.0,995.7,8.05,34.9,63,50.8,17.3,2.4,166.0,112.0,2.3,0,5,10,0,2026-05-18T18:04:38.959051+05:30
Jaipur,Rajasthan,26.9124,75.7873,41.0,12,0.0,954.7,8.25,43.6,157,245.9,44.8,1.9,171.0,113.0,2.8,0,5,10,0,2026-05-18T18:04:38.959063+05:30
Lucknow,Uttar Pradesh,26.8467,80.9462,39.5,22,0.0,984.9,8.2,37.1,177,239.3,71.0,6.6,294.0,140.0,10.5,0,5,10,0,2026-05-18T18:04:38.959070+05:30
Kanpur,Uttar Pradesh,26.4499,80.3319,40.2,19,0.0,983.6,8.25,43.2,286,838.2,130.4,4.0,216.0,136.0,8.6,0,5,10,0,2026-05-18T18:04:38.959077+05:30
Chandigarh,Chandigarh,30.7333,76.7794,37.3,25,0.0,961.5,7.75,36.0,158,16.9,14.5,3.9,375.0,165.0,9.2,0,5,10,0,2026-05-18T18:04:38.959084+05:30
Srinagar,Jammu and Kashmir,34.0837,74.7973,27.0,40,0.0,841.4,8.95,20.5,92,30.7,12.7,5.4,399.0,112.0,2.4,4,5,7,0,2026-05-18T18:04:38.959091+05:30
Jammu,Jammu and Kashmir,32.7266,74.857,38.9,27,0.0,965.6,8.55,29.2,159,22.9,13.6,3.9,270.0,175.0,4.1,0,5,10,1,2026-05-18T18:04:38.959098+05:30
Amritsar,Punjab,31.634,74.8723,39.2,30,0.0,972.9,8.45,24.5,150,52.5,23.1,4.9,366.0,158.0,9.3,0,5,10,1,2026-05-18T18:04:38.959105+05:30
Ludhiana,Punjab,30.901,75.8573,39.1,28,0.0,970.8,8.0,26.3,123,106.2,29.9,3.0,406.0,134.0,5.4,0,5,10,1,2026-05-18T18:04:38.959111+05:30
Jalandhar,Punjab,31.326,75.5762,38.8,27,0.0,971.9,8.2,27.7,143,75.4,27.9,4.7,398.0,143.0,6.7,0,5,10,1,2026-05-18T18:04:38.959120+05:30
Dehradun,Uttarakhand,30.6284,78.0322,24.0,55,0.0,828.4,8.2,37.8,134,10.3,8.7,1.7,227.0,168.0,5.6,0,5,7,0,2026-05-18T18:04:38.959129+05:30
Shimla,Himachal Pradesh,31.1048,77.1734,22.3,40,0.0,784.7,8.3,44.6,138,12.8,9.6,1.7,198.0,165.0,5.4,0,5,7,0,2026-05-18T18:04:38.959137+05:30
Manali,Himachal Pradesh,32.2396,77.1887,21.9,54,0.0,818.1,9.9,54.0,99,8.4,6.2,26.5,169.0,109.0,0.4,0,5,7,0,2026-05-18T18:04:38.959143+05:30
Gurgaon,Haryana,28.4595,77.0266,40.2,20,0.0,973.6,7.85,40.0,1190,1937.2,255.2,11.0,288.0,124.0,10.2,0,5,10,0,2026-05-18T18:04:38.959150+05:30
Noida,Uttar Pradesh,28.5355,77.391,39.7,23,0.0,975.9,7.75,33.1,1190,1937.2,255.2,11.0,331.0,124.0,10.2,0,5,10,0,2026-05-18T18:04:38.959156+05:30
Ghaziabad,Uttar Pradesh,28.6692,77.4538,38.2,33,0.0,974.3,7.75,35.6,587,651.9,110.1,8.7,309.0,140.0,14.9,0,5,10,1,2026-05-18T18:04:38.959162+05:30
Faridabad,Haryana,28.4089,77.3178,41.5,18,0.0,975.6,7.8,40.7,1190,1937.2,255.2,11.0,254.0,124.0,10.2,0,5,10,0,2026-05-18T18:04:38.959168+05:30
Meerut,Uttar Pradesh,28.9845,77.7064,38.8,29,0.0,973.3,7.65,37.4,587,651.9,110.1,8.7,288.0,140.0,14.9,0,5,10,1,2026-05-18T18:04:38.959174+05:30
Agra,Uttar Pradesh,27.1767,78.0081,41.0,20,0.0,979.7,8.1,42.1,582,1244.2,168.1,7.9,219.0,118.0,7.4,0,5,10,0,2026-05-18T18:04:38.959180+05:30
Varanasi,Uttar Pradesh,25.3176,82.9739,40.7,19,0.0,988.3,8.7,42.8,110,39.6,19.2,7.5,226.0,118.0,7.0,0,5,10,0,2026-05-18T18:04:38.959187+05:30
Prayagraj,Uttar Pradesh,25.4358,81.8463,41.0,18,0.0,987.0,8.6,45.0,123,115.9,36.2,4.6,191.0,125.0,7.0,0,5,10,0,2026-05-18T18:04:38.959194+05:30
Gorakhpur,Uttar Pradesh,26.7606,83.3732,35.2,60,0.0,988.8,8.6,27.4,179,249.6,80.3,9.0,391.0,147.0,11.6,0,5,10,1,2026-05-18T18:04:38.959203+05:30
Bareilly,Uttar Pradesh,28.367,79.4304,34.8,46,0.0,978.2,8.0,36.4,167,49.2,37.6,5.3,319.0,168.0,11.0,0,5,7,1,2026-05-18T18:04:38.959210+05:30
Aligarh,Uttar Pradesh,27.8974,78.088,38.4,30,0.0,977.4,7.9,39.6,760,1121.3,163.0,6.7,269.0,153.0,12.5,0,5,10,1,2026-05-18T18:04:38.959216+05:30
Moradabad,Uttar Pradesh,28.8386,78.7733,36.5,37,0.0,975.3,7.85,38.5,166,113.9,44.8,7.6,371.0,143.0,8.9,0,5,10,1,2026-05-18T18:04:38.959222+05:30
Saharanpur,Uttar Pradesh,29.9637,77.546,36.1,37,0.0,967.4,7.4,35.3,168,157.9,41.6,9.7,363.0,134.0,10.4,0,5,10,1,2026-05-18T18:04:38.959228+05:30
Jhansi,Uttar Pradesh,25.4484,78.5685,40.3,18,0.0,971.2,8.45,45.7,72,46.7,19.6,2.0,160.0,110.0,4.9,0,5,10,0,2026-05-18T18:04:42.325304+05:30
Surat,Gujarat,21.1702,72.8311,34.7,44,0.0,1000.9,7.25,33.5,93,48.9,33.4,32.9,800.0,82.0,59.6,0,5,4,1,2026-05-18T18:04:42.325339+05:30
Vadodara,Gujarat,22.3072,73.1812,42.5,15,0.0,997.2,7.85,33.8,102,49.7,21.2,3.3,187.0,146.0,8.1,0,5,10,0,2026-05-18T18:04:42.325352+05:30
Rajkot,Gujarat,22.3039,70.8022,37.9,15,0.0,989.1,7.1,40.0,63,90.1,28.0,1.8,130.0,111.0,4.6,0,5,10,0,2026-05-18T18:04:42.325362+05:30
Thane,Maharashtra,19.2183,72.9781,33.2,58,0.0,1002.1,7.6,39.6,69,39.8,20.9,10.0,201.0,83.0,5.0,0,5,4,1,2026-05-18T18:04:42.325372+05:30
Nagpur,Maharashtra,21.1458,79.0882,41.3,16,0.0,966.6,8.95,36.7,137,25.1,15.5,8.0,197.0,158.0,20.5,0,5,10,0,2026-05-18T18:04:42.325381+05:30
Nashik,Maharashtra,19.9975,73.7898,35.7,31,0.0,941.5,6.7,43.9,79,33.5,18.0,2.0,159.0,134.0,4.3,0,5,10,0,2026-05-18T18:04:42.325390+05:30
Aurangabad,Maharashtra,19.8762,75.3433,38.7,13,0.0,939.2,9.0,29.2,86,30.0,14.0,1.6,160.0,128.0,3.4,0,5,10,0,2026-05-18T18:04:42.325399+05:30
Solapur,Maharashtra,17.6599,75.9064,38.2,23,0.0,951.5,8.6,39.2,131,23.3,17.1,2.3,197.0,156.0,5.7,0,5,10,0,2026-05-18T18:04:42.325408+05:30
Kolhapur,Maharashtra,16.705,74.2433,30.6,64,0.0,943.8,8.45,51.1,102,28.5,18.7,3.7,167.0,140.0,5.4,3,5,7,1,2026-05-18T18:04:42.325417+05:30
Goa,Goa,15.2993,74.124,30.9,80,0.1,994.3,7.15,32.8,66,43.9,17.2,1.5,136.0,67.0,1.2,6,5,7,1,2026-05-18T18:04:42.325426+05:30
Jodhpur,Rajasthan,26.2389,73.0243,41.0,11,0.0,977.0,8.35,41.0,130,210.5,34.2,1.3,136.0,113.0,2.3,0,5,10,0,2026-05-18T18:04:42.325435+05:30
Udaipur,Rajasthan,24.5854,73.7125,38.3,13,0.0,942.2,8.85,45.4,66,40.9,14.6,0.8,142.0,115.0,2.8,0,5,10,0,2026-05-18T18:04:42.325444+05:30
Kota,Rajasthan,25.2138,75.8648,42.6,12,0.0,972.3,8.4,36.0,83,74.5,21.0,1.6,149.0,117.0,3.8,0,5,10,0,2026-05-18T18:04:42.325453+05:30
Bikaner,Rajasthan,28.0229,73.3119,42.5,12,0.0,974.8,8.4,42.1,81,49.9,19.5,0.5,138.0,109.0,1.8,0,5,10,0,2026-05-18T18:04:42.325461+05:30
Ajmer,Rajasthan,26.4499,74.6399,38.7,16,0.0,950.2,8.4,42.5,81,51.1,17.6,1.1,149.0,117.0,3.0,0,5,10,0,2026-05-18T18:04:42.325470+05:30
Gwalior,Madhya Pradesh,26.2183,78.1828,41.4,16,0.0,975.9,8.25,46.4,81,62.9,22.1,2.1,173.0,114.0,4.8,0,5,10,0,2026-05-18T18:04:42.325478+05:30
Indore,Madhya Pradesh,22.7196,75.8577,40.5,12,0.0,942.8,8.65,50.4,89,62.6,20.2,2.1,216.0,131.0,4.0,0,5,10,0,2026-05-18T18:04:42.325487+05:30
Bhopal,Madhya Pradesh,23.2599,77.4126,40.0,12,0.0,948.3,8.7,42.1,80,49.0,17.2,1.8,180.0,122.0,4.0,0,5,10,0,2026-05-18T18:04:42.325496+05:30
Jabalpur,Madhya Pradesh,23.1815,79.9864,40.8,15,0.0,955.1,8.85,34.6,108,51.9,17.5,3.1,179.0,121.0,2.7,0,5,10,0,2026-05-18T18:04:42.325503+05:30
Ujjain,Madhya Pradesh,23.1765,75.7885,40.0,14,0.0,948.3,8.4,34.2,82,50.9,17.5,1.1,166.0,129.0,3.8,0,5,10,0,2026-05-18T18:04:42.325511+05:30
Visakhapatnam,Andhra Pradesh,17.6868,83.2185,31.1,76,0.0,998.8,9.05,49.3,64,24.5,18.0,13.6,334.0,79.0,27.2,3,5,7,1,2026-05-18T18:04:42.325518+05:30
Vijayawada,Andhra Pradesh,16.5062,80.648,35.7,47,0.0,996.9,8.6,33.1,104,26.8,22.9,3.9,230.0,135.0,10.7,0,5,10,1,2026-05-18T18:04:42.325525+05:30
Guntur,Andhra Pradesh,16.3067,80.4365,34.0,51,0.0,998.3,9.2,36.0,109,27.2,23.4,2.7,260.0,138.0,8.0,0,5,7,1,2026-05-18T18:04:42.325532+05:30
Nellore,Andhra Pradesh,14.4426,79.9865,32.7,65,0.0,1000.1,9.1,40.7,125,24.6,19.7,2.5,256.0,154.0,6.8,3,5,4,1,2026-05-18T18:04:42.325540+05:30
Kurnool,Andhra Pradesh,15.8281,78.0373,37.5,29,0.0,971.6,8.8,33.8,79,20.0,13.7,1.3,205.0,115.0,2.6,0,5,10,1,2026-05-18T18:04:42.325547+05:30
Kakinada,Andhra Pradesh,16.9891,82.2475,33.7,58,0.0,1002.1,9.1,38.2,54,18.4,12.6,2.0,211.0,88.0,2.0,0,5,4,1,2026-05-18T18:04:42.325555+05:30
Tirupati,Andhra Pradesh,13.6288,79.4192,34.2,46,0.0,985.9,8.6,29.9,109,25.1,21.0,5.2,285.0,134.0,3.3,0,5,7,1,2026-05-18T18:04:42.325562+05:30
Warangal,Telangana,17.9689,79.5941,35.5,41,0.0,973.9,9.15,36.4,69,29.3,23.1,3.1,268.0,134.0,4.8,0,5,10,1,2026-05-18T18:04:42.325569+05:30
Nizamabad,Telangana,18.6725,78.0941,38.5,25,0.0,959.6,9.1,28.1,128,35.7,27.1,1.9,200.0,153.0,5.7,0,5,10,0,2026-05-18T18:04:42.325577+05:30
Mysore,Karnataka,12.2958,76.6396,25.8,77,0.0,925.9,4.5,33.1,91,24.3,18.5,8.0,250.0,122.0,3.5,7,5,3,1,2026-05-18T18:04:42.325584+05:30
Mangalore,Karnataka,12.9141,74.856,26.0,95,0.3,1004.6,3.45,25.2,57,15.7,11.2,6.3,182.0,80.0,3.7,10,5,0,1,2026-05-18T18:04:42.325591+05:30
Hubli-Dharwad,Karnataka,15.3647,75.124,27.6,78,0.0,937.2,8.6,44.3,95,25.6,18.1,3.8,206.0,108.0,2.6,7,5,7,1,2026-05-18T18:04:42.325598+05:30
Belgaum,Karnataka,15.8497,74.4977,27.1,80,0.0,922.8,7.95,46.8,77,27.5,16.5,4.8,155.0,94.0,2.9,7,5,7,1,2026-05-18T18:04:45.698672+05:30
Coimbatore,Tamil Nadu,11.0168,76.9558,27.3,75,0.0,958.9,5.9,45.7,45,5.5,5.3,6.1,212.0,82.0,2.3,7,5,3,1,2026-05-18T18:04:45.698707+05:30
Madurai,Tamil Nadu,9.9252,78.1198,30.8,72,0.0,989.7,8.8,39.2,67,7.9,6.8,8.0,322.0,85.0,2.1,3,5,7,1,2026-05-18T18:04:45.698720+05:30
Trichy,Tamil Nadu,10.7905,78.7047,30.8,68,0.1,995.8,9.0,29.5,80,12.8,10.8,5.5,269.0,120.0,3.0,6,5,7,1,2026-05-18T18:04:45.698731+05:30
Salem,Tamil Nadu,11.6643,78.146,30.8,72,0.0,974.0,8.9,26.3,98,13.2,10.8,5.4,258.0,131.0,7.0,3,5,7,1,2026-05-18T18:04:45.698741+05:30
Tirunelveli,Tamil Nadu,8.7139,77.7567,32.3,55,0.0,1000.0,8.4,17.6,38,8.1,6.0,3.2,166.0,74.0,1.0,0,5,4,1,2026-05-18T18:04:45.698749+05:30
Vellore,Tamil Nadu,12.9165,79.1325,33.2,52,0.0,979.6,9.15,30.6,106,24.6,19.3,3.3,248.0,138.0,4.1,0,5,7,1,2026-05-18T18:04:45.698757+05:30
Erode,Tamil Nadu,11.341,77.7172,31.6,57,0.0,985.4,7.4,38.2,55,8.1,7.5,6.5,282.0,104.0,2.2,0,5,7,1,2026-05-18T18:04:45.698765+05:30
Kochi,Kerala,9.9312,76.2673,26.9,90,0.0,1006.6,6.85,34.2,41,10.7,8.8,10.3,210.0,56.0,2.6,7,5,4,1,2026-05-18T18:04:45.698773+05:30
Thiruvananthapuram,Kerala,8.5241,76.9366,26.1,94,0.0,1006.6,7.6,33.1,36,16.1,9.6,1.8,176.0,72.0,0.6,7,5,4,1,2026-05-18T18:04:45.698780+05:30
Kozhikode,Kerala,11.2588,75.7804,27.0,88,0.0,1005.7,4.2,23.4,38,4.7,3.4,1.9,205.0,78.0,0.8,7,5,0,1,2026-05-18T18:04:45.698787+05:30
Thrissur,Kerala,10.5276,76.2144,26.3,93,0.1,1004.9,5.6,30.6,39,9.4,8.1,8.0,241.0,59.0,2.6,10,5,0,1,2026-05-18T18:04:45.698795+05:30
Kannur,Kerala,11.8745,75.3704,27.2,85,0.0,1004.9,3.05,32.4,51,6.8,5.3,5.1,214.0,77.0,1.9,7,5,0,1,2026-05-18T18:04:45.698801+05:30
Patna,Bihar,25.5941,85.1376,34.2,61,0.0,992.4,8.8,29.5,191,110.1,70.5,12.0,484.0,180.0,15.4,3,5,7,1,2026-05-18T18:04:45.698836+05:30
Gaya,Bihar,24.7914,85.0002,36.7,33,0.0,985.7,8.85,38.9,137,173.7,58.8,11.2,351.0,126.0,10.3,0,5,10,1,2026-05-18T18:04:45.698852+05:30
Muzaffarpur,Bihar,26.1209,85.3647,33.2,64,0.0,992.9,8.8,32.0,184,110.4,73.3,15.6,496.0,158.0,16.2,3,5,7,1,2026-05-18T18:04:45.698860+05:30
Bhagalpur,Bihar,25.2425,87.0117,31.5,71,0.0,994.2,8.8,37.4,174,50.2,39.8,9.0,426.0,174.0,18.6,3,5,7,1,2026-05-18T18:04:45.698868+05:30
Ranchi,Jharkhand,23.3441,85.3096,30.6,42,0.0,932.4,9.25,42.8,146,59.3,33.3,7.0,312.0,122.0,6.7,0,5,7,1,2026-05-18T18:04:45.698875+05:30
Jamshedpur,Jharkhand,22.8046,86.2029,34.2,46,0.0,984.0,9.05,47.9,173,65.4,47.7,10.0,360.0,147.0,16.2,0,5,7,1,2026-05-18T18:04:45.698882+05:30
Dhanbad,Jharkhand,23.7957,86.4304,35.9,33,0.0,972.9,9.0,38.9,161,122.9,63.1,37.6,286.0,100.0,100.0,0,5,10,1,2026-05-18T18:04:45.698889+05:30
Bokaro,Jharkhand,23.6693,86.1511,33.8,48,0.0,976.5,9.05,34.9,154,117.1,57.4,29.9,360.0,107.0,94.7,0,5,7,1,2026-05-18T18:04:45.698896+05:30
Bhubaneswar,Odisha,20.2961,85.8245,33.0,65,0.0,997.1,9.1,42.8,90,26.1,20.7,5.6,275.0,108.0,6.3,3,5,7,1,2026-05-18T18:04:45.698903+05:30
Cuttack,Odisha,20.4625,85.8828,34.5,68,0.0,998.7,9.15,41.4,90,26.1,20.7,5.6,294.0,108.0,6.3,3,5,7,1,2026-05-18T18:04:45.698910+05:30
Rourkela,Odisha,22.2604,84.8536,34.0,43,0.0,978.4,8.95,38.5,179,62.9,40.3,8.2,427.0,158.0,10.9,0,5,7,1,2026-05-18T18:04:45.698917+05:30
Raipur,Chhattisgarh,21.2514,81.6296,39.1,23,0.0,968.6,8.95,42.8,150,38.5,32.9,16.4,201.0,139.0,34.2,0,5,10,0,2026-05-18T18:04:45.698923+05:30
Bhilai,Chhattisgarh,21.1938,81.3509,38.2,26,0.0,969.1,8.95,43.2,136,32.6,27.5,16.7,218.0,128.0,32.2,0,5,10,0,2026-05-18T18:04:45.698930+05:30
Guwahati,Assam,26.1158,91.7086,26.0,84,0.0,997.8,8.3,27.7,77,16.8,14.4,5.6,406.0,102.0,3.3,7,5,7,1,2026-05-18T18:04:45.698937+05:30
Agartala,Tripura,23.8315,91.2868,26.0,92,0.1,1001.6,8.9,47.5,81,40.5,28.8,10.6,263.0,98.0,2.7,10,5,4,1,2026-05-18T18:04:45.698945+05:30
Shillong,Meghalaya,25.5788,91.8933,19.6,84,0.0,854.5,7.8,44.3,52,17.9,12.6,5.7,339.0,105.0,3.6,3,10,7,1,2026-05-18T18:04:45.698952+05:30
Imphal,Manipur,24.817,93.9368,25.5,70,0.0,920.6,9.2,41.4,92,43.1,27.7,6.5,336.0,90.0,5.3,7,5,7,1,2026-05-18T18:04:45.698959+05:30
Aizawl,Mizoram,23.7271,92.7176,19.0,98,0.0,888.1,9.1,33.1,74,42.1,27.0,3.6,211.0,98.0,3.9,3,10,7,1,2026-05-18T18:04:45.698966+05:30
Kohima,Nagaland,25.6701,94.1077,19.1,98,0.0,853.0,8.8,34.2,61,37.5,21.1,7.0,261.0,83.0,3.1,3,10,7,1,2026-05-18T18:04:45.698974+05:30
Gangtok,Sikkim,27.3314,88.6138,18.1,90,0.1,834.5,9.05,35.6,105,25.0,19.9,4.6,344.0,128.0,2.5,6,10,7,1,2026-05-18T18:04:45.698981+05:30
Siliguri,West Bengal,26.7271,88.3953,26.9,83,0.0,988.6,8.75,31.3,127,47.3,34.6,6.8,683.0,137.0,5.6,7,5,7,1,2026-05-18T18:04:49.070174+05:30
Durgapur,West Bengal,23.5204,87.3119,35.2,48,0.0,987.9,8.95,35.6,203,138.3,75.9,29.4,816.0,132.0,41.2,0,5,10,1,2026-05-18T18:04:49.070207+05:30
Asansol,West Bengal,23.6739,86.9524,34.5,51,0.0,986.2,8.95,37.4,181,122.5,60.8,30.0,461.0,116.0,37.4,0,5,7,1,2026-05-18T18:04:49.070218+05:30
Pondicherry,Puducherry,11.9139,79.8145,30.4,85,0.0,1003.4,8.85,41.4,129,25.6,20.7,9.7,254.0,141.0,6.9,3,5,4,1,2026-05-18T18:04:49.070227+05:30
Port Blair,Andaman and Nicobar Islands,11.6234,92.7265,25.6,93,0.0,1005.6,8.55,46.1,23,15.0,8.8,0.6,138.0,49.0,0.4,7,5,4,1,2026-05-18T18:04:49.070235+05:30
Haridwar,Uttarakhand,29.9457,78.1642,35.0,43,0.0,965.8,7.55,27.0,175,52.3,19.3,3.8,310.0,164.0,10.0,0,5,7,1,2026-05-18T18:04:49.070242+05:30
Rishikesh,Uttarakhand,30.0869,78.2676,34.2,46,0.0,958.9,7.65,28.8,160,18.0,13.9,1.5,281.0,180.0,8.4,0,5,7,1,2026-05-18T18:04:49.070249+05:30
Nainital,Uttarakhand,29.3919,79.4542,21.2,64,0.0,803.3,8.5,28.4,166,25.0,20.7,2.3,282.0,183.0,9.1,3,5,7,0,2026-05-18T18:04:49.070257+05:30
Mussoorie,Uttarakhand,30.4599,78.0664,21.9,56,0.0,801.7,8.05,44.6,165,13.4,11.8,2.5,234.0,166.0,7.2,0,5,7,0,2026-05-18T18:04:49.070265+05:30
Dharamshala,Himachal Pradesh,32.219,76.3234,27.3,48,0.0,867.1,8.45,37.1,102,12.5,6.8,1.1,214.0,143.0,1.4,4,5,7,0,2026-05-18T18:04:49.070272+05:30
Dalhousie,Himachal Pradesh,32.5387,75.971,23.5,56,0.0,804.9,8.7,40.0,138,14.3,11.3,3.1,223.0,174.0,2.7,0,5,7,0,2026-05-18T18:04:49.070280+05:30
Patiala,Punjab,30.3398,76.3869,39.7,26,0.0,970.3,7.65,31.7,584,767.4,100.4,3.1,281.0,135.0,8.0,0,5,10,1,2026-05-18T18:04:49.070287+05:30
Bhatinda,Punjab,30.211,74.9455,40.8,19,0.0,976.0,8.3,37.8,116,85.2,25.3,3.0,189.0,128.0,6.6,0,5,10,0,2026-05-18T18:04:49.070294+05:30
Rohtak,Haryana,28.8955,76.6066,39.5,20,0.0,973.6,7.75,40.0,918,1225.6,165.8,7.9,216.0,122.0,7.2,0,5,10,0,2026-05-18T18:04:49.070301+05:30
Panipat,Haryana,29.3909,76.9635,39.3,25,0.0,972.0,7.6,33.8,1902,2220.3,285.0,6.4,248.0,124.0,10.3,0,5,10,0,2026-05-18T18:04:49.070308+05:30
Mathura,Uttar Pradesh,27.4924,77.6737,40.7,23,0.0,978.8,8.0,38.5,664,1352.3,169.0,5.6,212.0,116.0,5.1,0,5,10,0,2026-05-18T18:04:49.070315+05:30
Vrindavan,Uttar Pradesh,27.5823,77.7027,39.0,32,0.0,979.0,8.0,36.4,664,1352.3,169.0,5.6,230.0,116.0,5.1,0,5,10,1,2026-05-18T18:04:49.070321+05:30
Ayodhya,Uttar Pradesh,26.7922,82.1998,36.1,39,0.0,986.8,8.35,25.6,181,241.2,73.3,5.0,339.0,157.0,10.5,0,5,10,1,2026-05-18T18:04:49.070328+05:30
Ratlam,Madhya Pradesh,23.3315,75.0367,39.2,17,0.0,949.7,8.55,47.2,72,49.9,17.0,0.8,152.0,125.0,3.6,0,5,10,0,2026-05-18T18:04:49.070335+05:30
Sagar,Madhya Pradesh,23.8388,78.7378,40.0,14,0.0,944.9,8.75,45.0,78,60.3,19.0,0.9,152.0,120.0,3.0,0,5,10,0,2026-05-18T18:04:49.070341+05:30
Satna,Madhya Pradesh,24.6005,80.8322,39.6,17,0.0,964.2,8.75,50.8,80,33.6,14.3,1.9,159.0,117.0,3.2,0,5,10,0,2026-05-18T18:04:49.070348+05:30
Akola,Maharashtra,20.7002,77.0082,42.3,13,0.0,968.1,8.85,31.7,111,27.6,12.8,2.5,163.0,134.0,5.8,0,5,10,0,2026-05-18T18:04:49.070356+05:30
Amravati,Maharashtra,20.9374,77.7796,41.5,12,0.0,961.0,8.9,29.9,113,25.4,12.4,3.2,173.0,139.0,7.3,0,5,10,0,2026-05-18T18:04:49.070364+05:30
Latur,Maharashtra,18.4088,76.5604,38.5,18,0.0,935.0,9.05,34.9,125,21.2,14.3,2.0,180.0,160.0,7.4,0,5,10,0,2026-05-18T18:04:49.070372+05:30
Nanded,Maharashtra,19.1383,77.3091,40.5,17,0.0,962.6,9.0,30.6,129,23.1,14.7,2.1,189.0,152.0,5.1,0,5,10,0,2026-05-18T18:04:49.070379+05:30
Gulbarga,Karnataka,17.3297,76.8343,29.4,45,0.0,952.6,9.05,36.4,128,35.6,27.6,3.8,206.0,154.0,6.4,4,5,7,1,2026-05-18T18:04:49.070386+05:30
Bidar,Karnataka,17.9104,77.5199,27.7,46,0.0,929.6,9.1,35.6,131,33.4,25.7,2.5,208.0,152.0,5.1,4,5,7,0,2026-05-18T18:04:49.070393+05:30
Hospet,Karnataka,15.2689,76.3909,33.2,46,0.0,951.3,8.45,42.1,128,39.1,28.7,4.1,227.0,164.0,11.9,0,5,7,1,2026-05-18T18:04:49.070400+05:30
Tirupur,Tamil Nadu,11.1085,77.3411,29.6,64,0.0,972.0,8.25,49.3,59,8.6,8.0,5.9,219.0,104.0,3.2,7,5,7,1,2026-05-18T18:04:49.070406+05:30
Alappuzha,Kerala,9.4981,76.3388,26.8,86,0.0,1006.5,7.3,35.3,36,10.9,7.3,5.0,133.0,66.0,1.0,7,5,4,1,2026-05-18T18:04:49.070413+05:30
Munnar,Kerala,10.0889,77.0595,18.0,98,0.3,854.9,5.25,25.9,36,3.9,3.7,5.1,176.0,70.0,1.2,6,10,3,1,2026-05-18T18:04:49.070420+05:30
Silchar,Assam,24.8333,92.7789,25.0,87,0.0,1001.2,6.05,28.4,87,35.4,23.7,4.6,241.0,100.0,5.2,7,5,4,1,2026-05-18T18:04:49.070427+05:30
Dibrugarh,Assam,27.4728,94.912,25.0,79,0.0,993.4,7.85,23.8,83,34.6,24.9,5.6,266.0,101.0,2.2,7,5,7,1,2026-05-18T18:04:49.070434+05:30
