city,state,latitude,longitude,temp,humidity,rain,pressure,uv_index,wind_gusts,aqi,pm10,pm2_5,mosquito_risk,arthritis_risk,migraine_risk,frizz_risk,updated_at
Delhi,Delhi,28.6139,77.209,29.5,44,0.0,976.9,7.25,42.5,548,665.0,140.2,4,5,7,0,2026-04-28T04:26:08.400589+05:30
Mumbai,Maharashtra,19.076,72.8777,26.8,94,0.0,1005.5,8.05,38.9,86,61.5,30.6,7,5,4,1,2026-04-28T04:26:08.400630+05:30
Bangalore,Karnataka,12.9716,77.5946,23.5,82,0.0,909.6,9.05,40.3,87,37.4,32.5,3,5,7,1,2026-04-28T04:26:08.400647+05:30
Hyderabad,Telangana,17.385,78.4867,28.9,59,0.0,950.2,7.2,49.3,98,38.1,32.2,4,5,7,1,2026-04-28T04:26:08.400657+05:30
Chennai,Tamil Nadu,13.0827,80.2707,28.2,86,0.0,1005.0,7.55,56.5,55,15.4,10.5,7,5,4,1,2026-04-28T04:26:08.400666+05:30
Kolkata,West Bengal,22.5726,88.3639,27.6,87,0.0,1000.3,8.85,63.4,56,25.4,20.3,7,5,4,1,2026-04-28T04:26:08.400675+05:30
Pune,Maharashtra,18.5204,73.8567,25.0,68,0.0,945.2,8.6,41.0,70,37.4,21.8,7,5,7,1,2026-04-28T04:26:08.400687+05:30
Ahmedabad,Gujarat,23.0225,72.5714,29.2,34,0.0,998.3,8.2,47.9,43,18.4,7.7,4,5,7,0,2026-04-28T04:26:08.400694+05:30
Jaipur,Rajasthan,26.9124,75.7873,28.1,34,0.0,954.1,8.05,39.6,153,189.5,40.3,4,5,7,0,2026-04-28T04:26:08.400702+05:30
Lucknow,Uttar Pradesh,26.8467,80.9462,27.5,59,0.0,988.3,7.9,40.0,138,68.9,45.8,4,5,7,1,2026-04-28T04:26:08.400710+05:30
Kanpur,Uttar Pradesh,26.4499,80.3319,28.7,28,0.0,986.2,7.95,43.9,187,162.5,46.3,4,5,7,0,2026-04-28T04:26:08.400717+05:30
Chandigarh,Chandigarh,30.7333,76.7794,25.1,33,0.0,962.3,6.6,53.3,46,11.0,10.5,4,5,7,0,2026-04-28T04:26:08.400725+05:30
Srinagar,Jammu and Kashmir,34.0837,74.7973,9.1,94,0.0,835.9,6.25,31.7,68,44.9,38.6,3,10,7,0,2026-04-28T04:26:08.400733+05:30
Jammu,Jammu and Kashmir,32.7266,74.857,24.2,36,0.0,965.4,7.2,44.3,57,15.7,13.9,0,5,7,0,2026-04-28T04:26:08.400741+05:30
Amritsar,Punjab,31.634,74.8723,27.1,43,0.0,974.3,5.65,48.6,74,50.4,38.8,4,5,3,0,2026-04-28T04:26:08.400748+05:30
Ludhiana,Punjab,30.901,75.8573,26.9,39,0.0,972.1,6.45,32.4,71,24.5,24.1,4,5,7,0,2026-04-28T04:26:08.400756+05:30
Jalandhar,Punjab,31.326,75.5762,25.4,45,0.0,973.0,5.6,36.0,79,37.0,28.8,4,5,3,0,2026-04-28T04:26:08.400764+05:30
Dehradun,Uttarakhand,30.6284,78.0322,11.9,58,0.0,823.0,5.75,53.3,44,12.2,12.1,0,5,3,0,2026-04-28T04:26:08.400771+05:30
Shimla,Himachal Pradesh,31.1048,77.1734,12.4,41,0.0,778.8,7.45,47.9,52,11.6,10.9,0,5,7,1,2026-04-28T04:26:08.400778+05:30
Manali,Himachal Pradesh,32.2396,77.1887,9.4,63,0.0,811.7,8.7,40.0,48,40.2,28.1,3,5,7,0,2026-04-28T04:26:08.400785+05:30
Gurgaon,Haryana,28.4595,77.0266,26.9,51,0.0,975.3,7.25,48.6,1200,838.2,126.2,4,5,7,0,2026-04-28T04:26:08.400793+05:30
Noida,Uttar Pradesh,28.5355,77.391,29.4,37,0.0,978.2,7.4,42.1,1200,838.2,126.2,4,5,7,0,2026-04-28T04:26:08.400801+05:30
Ghaziabad,Uttar Pradesh,28.6692,77.4538,29.0,36,0.0,976.5,7.35,59.8,418,724.6,151.3,4,5,7,0,2026-04-28T04:26:08.400807+05:30
Faridabad,Haryana,28.4089,77.3178,30.8,33,0.0,977.5,7.4,47.5,1200,838.2,126.2,0,5,7,0,2026-04-28T04:26:08.400813+05:30
Meerut,Uttar Pradesh,28.9845,77.7064,28.5,37,0.0,975.4,7.15,52.6,418,724.6,151.3,4,5,7,0,2026-04-28T04:26:08.400820+05:30
Agra,Uttar Pradesh,27.1767,78.0081,31.9,26,0.0,981.1,7.8,41.0,685,532.7,70.1,0,5,7,0,2026-04-28T04:26:08.400826+05:30
Varanasi,Uttar Pradesh,25.3176,82.9739,26.7,73,0.0,991.8,8.5,40.7,129,56.5,44.1,7,5,7,1,2026-04-28T04:26:08.400835+05:30
Prayagraj,Uttar Pradesh,25.4358,81.8463,27.7,66,0.0,989.5,8.4,37.4,130,64.0,48.5,7,5,7,1,2026-04-28T04:26:08.400842+05:30
Gorakhpur,Uttar Pradesh,26.7606,83.3732,23.7,80,0.0,993.1,8.3,35.3,136,40.6,36.6,3,5,7,1,2026-04-28T04:26:08.400849+05:30
Bareilly,Uttar Pradesh,28.367,79.4304,26.4,40,0.0,981.5,7.65,50.4,103,82.4,43.8,4,5,7,0,2026-04-28T04:26:08.400855+05:30
Aligarh,Uttar Pradesh,27.8974,78.088,32.8,25,0.0,978.7,7.5,59.0,689,877.3,154.6,0,5,7,0,2026-04-28T04:26:08.400862+05:30
Moradabad,Uttar Pradesh,28.8386,78.7733,27.3,37,0.0,978.0,7.3,48.2,123,285.9,75.4,4,5,7,0,2026-04-28T04:26:08.400874+05:30
Saharanpur,Uttar Pradesh,29.9637,77.546,27.0,36,0.0,969.5,6.55,42.1,77,40.0,24.8,4,5,7,0,2026-04-28T04:26:08.400880+05:30
Jhansi,Uttar Pradesh,25.4484,78.5685,29.5,28,0.0,972.4,8.3,42.8,58,20.8,15.1,4,5,7,0,2026-04-28T04:26:11.649830+05:30
Surat,Gujarat,21.1702,72.8311,27.2,82,0.0,1003.0,7.9,44.3,85,40.4,24.9,7,5,4,1,2026-04-28T04:26:11.649863+05:30
Vadodara,Gujarat,22.3072,73.1812,27.8,67,0.0,1000.6,8.15,48.6,66,30.9,20.8,7,5,4,1,2026-04-28T04:26:11.649875+05:30
Rajkot,Gujarat,22.3039,70.8022,25.9,56,0.0,990.3,7.9,53.3,47,13.3,7.2,4,5,7,1,2026-04-28T04:26:11.649884+05:30
Thane,Maharashtra,19.2183,72.9781,26.4,97,0.0,1004.9,8.05,36.4,86,61.5,30.6,7,5,4,1,2026-04-28T04:26:11.649893+05:30
Nagpur,Maharashtra,21.1458,79.0882,33.2,20,0.0,968.6,8.85,50.8,98,45.5,38.5,0,5,7,0,2026-04-28T04:26:11.649902+05:30
Nashik,Maharashtra,19.9975,73.7898,25.8,40,0.0,942.5,8.3,43.6,78,47.4,25.9,4,5,7,0,2026-04-28T04:26:11.649910+05:30
Aurangabad,Maharashtra,19.8762,75.3433,29.1,32,0.0,940.8,9.0,43.6,70,38.2,24.5,4,5,7,0,2026-04-28T04:26:11.649918+05:30
Solapur,Maharashtra,17.6599,75.9064,28.8,61,0.0,953.9,9.1,40.7,81,24.3,19.8,7,5,7,1,2026-04-28T04:26:11.649926+05:30
Kolhapur,Maharashtra,16.705,74.2433,23.0,94,0.0,945.3,9.0,50.8,72,40.4,21.9,3,5,7,1,2026-04-28T04:26:11.649935+05:30
Goa,Goa,15.2993,74.124,27.4,89,0.0,995.2,9.0,35.3,66,44.8,16.6,7,5,7,1,2026-04-28T04:26:11.649943+05:30
Jodhpur,Rajasthan,26.2389,73.0243,29.4,27,0.0,977.6,8.3,46.8,128,199.3,30.4,4,5,7,0,2026-04-28T04:26:11.649951+05:30
Udaipur,Rajasthan,24.5854,73.7125,26.6,33,0.0,942.3,8.75,49.3,42,16.8,8.1,4,5,7,0,2026-04-28T04:26:11.649960+05:30
Kota,Rajasthan,25.2138,75.8648,28.5,25,0.0,973.6,8.3,38.5,53,12.2,10.2,4,5,7,0,2026-04-28T04:26:11.649968+05:30
Bikaner,Rajasthan,28.0229,73.3119,28.6,37,0.0,975.5,8.15,59.0,57,36.1,13.7,4,5,7,0,2026-04-28T04:26:11.649976+05:30
Ajmer,Rajasthan,26.4499,74.6399,27.5,35,0.0,949.6,8.25,43.6,61,13.2,7.5,4,5,7,0,2026-04-28T04:26:11.649983+05:30
Gwalior,Madhya Pradesh,26.2183,78.1828,29.9,31,0.0,977.2,8.05,43.9,74,25.1,14.9,4,5,7,0,2026-04-28T04:26:11.649991+05:30
Indore,Madhya Pradesh,22.7196,75.8577,28.7,28,0.0,944.8,8.6,54.7,50,24.9,17.9,4,5,7,0,2026-04-28T04:26:11.649999+05:30
Bhopal,Madhya Pradesh,23.2599,77.4126,30.4,19,0.0,949.8,8.6,46.4,50,13.9,10.7,0,5,7,0,2026-04-28T04:26:11.650006+05:30
Jabalpur,Madhya Pradesh,23.1815,79.9864,26.8,46,0.0,956.4,8.75,42.5,64,32.1,22.9,4,5,7,0,2026-04-28T04:26:11.650014+05:30
Ujjain,Madhya Pradesh,23.1765,75.7885,28.3,29,0.0,950.4,8.55,56.9,50,25.4,18.6,4,5,7,0,2026-04-28T04:26:11.650022+05:30
Visakhapatnam,Andhra Pradesh,17.6868,83.2185,27.2,91,0.0,1000.8,9.2,58.3,67,31.2,23.3,7,5,4,1,2026-04-28T04:26:11.650030+05:30
Vijayawada,Andhra Pradesh,16.5062,80.648,28.0,89,0.0,999.7,8.75,41.4,66,20.2,15.4,7,5,7,1,2026-04-28T04:26:11.650037+05:30
Guntur,Andhra Pradesh,16.3067,80.4365,28.0,89,0.0,1000.8,9.25,45.4,68,19.6,15.0,7,5,4,1,2026-04-28T04:26:11.650044+05:30
Nellore,Andhra Pradesh,14.4426,79.9865,27.0,85,0.0,1002.9,9.25,48.2,62,13.3,10.4,7,5,4,1,2026-04-28T04:26:11.650051+05:30
Kurnool,Andhra Pradesh,15.8281,78.0373,32.0,42,0.0,973.0,9.2,40.7,94,31.8,28.6,0,5,7,1,2026-04-28T04:26:11.650058+05:30
Kakinada,Andhra Pradesh,16.9891,82.2475,27.5,90,0.0,1005.0,9.2,45.7,62,30.0,18.9,7,5,4,1,2026-04-28T04:26:11.650064+05:30
Tirupati,Andhra Pradesh,13.6288,79.4192,26.4,83,0.0,989.4,9.2,38.2,70,13.3,11.0,7,5,7,1,2026-04-28T04:26:11.650070+05:30
Warangal,Telangana,17.9689,79.5941,27.2,76,0.0,975.3,8.75,38.2,81,28.6,26.5,7,5,7,1,2026-04-28T04:26:11.650076+05:30
Nizamabad,Telangana,18.6725,78.0941,29.5,41,0.0,961.2,9.1,36.0,96,53.4,46.4,4,5,7,0,2026-04-28T04:26:11.650083+05:30
Mysore,Karnataka,12.2958,76.6396,22.9,97,0.0,926.1,8.8,40.7,100,38.4,35.7,3,5,7,1,2026-04-28T04:26:11.650090+05:30
Mangalore,Karnataka,12.9141,74.856,28.6,81,0.0,1004.0,8.0,37.4,76,31.9,26.8,7,5,4,1,2026-04-28T04:26:11.650095+05:30
Hubli-Dharwad,Karnataka,15.3647,75.124,24.0,90,0.0,938.4,9.2,40.3,81,14.5,11.9,3,5,7,1,2026-04-28T04:26:11.650102+05:30
Belgaum,Karnataka,15.8497,74.4977,22.4,97,0.0,923.0,9.2,47.9,78,30.4,18.7,3,5,7,1,2026-04-28T04:26:14.894105+05:30
Coimbatore,Tamil Nadu,11.0168,76.9558,25.3,91,0.0,959.6,8.2,49.0,74,23.6,21.7,7,5,7,1,2026-04-28T04:26:14.894139+05:30
Madurai,Tamil Nadu,9.9252,78.1198,27.4,74,0.0,991.1,8.7,50.8,52,17.8,17.1,7,5,7,1,2026-04-28T04:26:14.894151+05:30
Trichy,Tamil Nadu,10.7905,78.7047,27.4,83,0.0,998.0,8.75,45.7,52,10.4,9.7,7,5,7,1,2026-04-28T04:26:14.894161+05:30
Salem,Tamil Nadu,11.6643,78.146,27.0,70,0.0,975.5,7.35,31.7,63,12.4,11.8,7,5,7,1,2026-04-28T04:26:14.894170+05:30
Tirunelveli,Tamil Nadu,8.7139,77.7567,26.6,82,0.0,1001.1,9.15,45.0,64,25.1,22.8,7,5,4,1,2026-04-28T04:26:14.894179+05:30
Vellore,Tamil Nadu,12.9165,79.1325,25.9,85,0.0,982.8,8.8,38.9,83,21.2,19.9,7,5,7,1,2026-04-28T04:26:14.894188+05:30
Erode,Tamil Nadu,11.341,77.7172,28.4,70,0.0,986.9,8.4,50.0,65,19.2,18.3,7,5,7,1,2026-04-28T04:26:14.894196+05:30
Kochi,Kerala,9.9312,76.2673,26.1,90,0.1,1007.0,7.1,36.4,80,25.2,21.5,10,5,4,1,2026-04-28T04:26:14.894203+05:30
Thiruvananthapuram,Kerala,8.5241,76.9366,24.4,96,0.0,1006.2,8.15,36.4,60,23.1,18.9,3,5,4,1,2026-04-28T04:26:14.894210+05:30
Kozhikode,Kerala,11.2588,75.7804,25.6,96,0.0,1005.9,7.5,36.0,65,25.9,19.2,7,5,4,1,2026-04-28T04:26:14.894216+05:30
Thrissur,Kerala,10.5276,76.2144,25.1,96,0.0,1005.4,7.9,36.7,75,23.6,20.7,7,5,4,1,2026-04-28T04:26:14.894224+05:30
Kannur,Kerala,11.8745,75.3704,27.2,90,0.0,1004.6,7.7,37.8,74,29.7,24.5,7,5,4,1,2026-04-28T04:26:14.894231+05:30
Patna,Bihar,25.5941,85.1376,22.1,91,0.0,996.3,8.6,33.8,111,28.5,23.7,3,5,7,1,2026-04-28T04:26:14.894242+05:30
Gaya,Bihar,24.7914,85.0002,23.9,84,0.0,989.0,8.7,35.3,116,29.3,27.2,3,5,7,1,2026-04-28T04:26:14.894249+05:30
Muzaffarpur,Bihar,26.1209,85.3647,22.0,87,0.0,996.4,8.1,36.7,110,25.1,22.4,3,5,7,1,2026-04-28T04:26:14.894255+05:30
Bhagalpur,Bihar,25.2425,87.0117,22.0,92,0.0,997.2,8.6,31.7,94,28.6,24.1,3,5,7,1,2026-04-28T04:26:14.894261+05:30
Ranchi,Jharkhand,23.3441,85.3096,23.5,69,0.0,931.8,8.95,47.2,92,76.1,48.0,3,5,7,1,2026-04-28T04:26:14.894267+05:30
Jamshedpur,Jharkhand,22.8046,86.2029,26.6,73,0.0,985.2,8.85,55.4,98,49.7,40.7,7,5,7,1,2026-04-28T04:26:14.894273+05:30
Dhanbad,Jharkhand,23.7957,86.4304,24.0,87,0.0,974.8,8.95,37.8,127,53.4,47.8,3,5,7,1,2026-04-28T04:26:14.894280+05:30
Bokaro,Jharkhand,23.6693,86.1511,24.6,87,0.0,978.8,8.95,36.4,124,52.7,48.1,3,5,7,1,2026-04-28T04:26:14.894286+05:30
Bhubaneswar,Odisha,20.2961,85.8245,27.2,87,0.0,997.4,9.1,48.6,57,24.5,19.8,7,5,7,1,2026-04-28T04:26:14.894293+05:30
Cuttack,Odisha,20.4625,85.8828,27.0,88,0.0,999.3,9.15,42.8,57,24.5,19.8,7,5,7,1,2026-04-28T04:26:14.894299+05:30
Rourkela,Odisha,22.2604,84.8536,26.9,79,0.0,979.3,8.9,64.1,92,52.4,34.6,7,5,7,1,2026-04-28T04:26:14.894305+05:30
Raipur,Chhattisgarh,21.2514,81.6296,30.0,40,0.0,969.8,8.9,46.8,90,41.2,33.5,4,5,7,0,2026-04-28T04:26:14.894312+05:30
Bhilai,Chhattisgarh,21.1938,81.3509,29.7,43,0.0,970.4,8.95,46.1,90,47.3,37.0,4,5,7,0,2026-04-28T04:26:14.894317+05:30
Guwahati,Assam,26.1158,91.7086,20.4,93,0.0,999.1,7.9,32.8,98,29.6,24.2,3,5,7,1,2026-04-28T04:26:14.894323+05:30
Agartala,Tripura,23.8315,91.2868,26.4,88,0.0,1001.4,7.1,44.6,67,21.1,12.4,7,5,4,1,2026-04-28T04:26:14.894329+05:30
Shillong,Meghalaya,25.5788,91.8933,15.6,99,0.0,852.5,8.7,28.4,69,0.5,0.4,3,10,7,0,2026-04-28T04:26:14.894336+05:30
Imphal,Manipur,24.817,93.9368,18.1,97,0.0,919.8,8.9,20.9,120,57.5,35.9,3,10,7,1,2026-04-28T04:26:14.894343+05:30
Aizawl,Mizoram,23.7271,92.7176,19.1,77,0.0,888.4,7.75,74.5,82,56.9,27.1,3,5,7,0,2026-04-28T04:26:14.894349+05:30
Kohima,Nagaland,25.6701,94.1077,15.5,98,0.1,851.5,6.65,29.9,103,7.5,5.6,6,10,7,0,2026-04-28T04:26:14.894356+05:30
Gangtok,Sikkim,27.3314,88.6138,11.8,90,0.0,831.2,8.2,42.5,77,43.9,31.2,3,10,7,0,2026-04-28T04:26:14.894362+05:30
Siliguri,West Bengal,26.7271,88.3953,20.6,87,0.0,989.8,7.6,28.4,100,58.2,40.0,3,5,7,1,2026-04-28T04:26:18.138402+05:30
Durgapur,West Bengal,23.5204,87.3119,25.9,88,0.0,989.6,8.85,37.1,115,60.1,51.7,7,5,7,1,2026-04-28T04:26:18.138431+05:30
Asansol,West Bengal,23.6739,86.9524,25.0,87,0.0,988.4,8.9,32.8,107,48.3,41.7,7,5,7,1,2026-04-28T04:26:18.138440+05:30
Pondicherry,Puducherry,11.9139,79.8145,28.0,86,0.0,1006.4,8.8,46.8,49,13.0,8.7,7,5,4,1,2026-04-28T04:26:18.138483+05:30
Port Blair,Andaman and Nicobar Islands,11.6234,92.7265,26.2,85,0.0,1005.6,9.05,27.0,48,18.5,14.0,7,5,4,1,2026-04-28T04:26:18.138504+05:30
Haridwar,Uttarakhand,29.9457,78.1642,21.0,56,0.0,967.5,6.6,28.1,56,22.4,22.1,0,5,7,0,2026-04-28T04:26:18.138514+05:30
Rishikesh,Uttarakhand,30.0869,78.2676,18.6,62,0.0,959.9,6.3,29.5,71,24.6,21.4,3,5,7,0,2026-04-28T04:26:18.138522+05:30
Nainital,Uttarakhand,29.3919,79.4542,14.3,48,0.0,800.9,7.45,54.4,64,39.8,17.8,0,5,7,0,2026-04-28T04:26:18.138529+05:30
Mussoorie,Uttarakhand,30.4599,78.0664,16.6,36,0.0,798.9,5.25,51.8,47,18.1,17.9,0,5,3,0,2026-04-28T04:26:18.138536+05:30
Dharamshala,Himachal Pradesh,32.219,76.3234,22.0,29,0.0,864.9,7.5,53.3,35,12.5,7.4,0,5,7,0,2026-04-28T04:26:18.138542+05:30
Dalhousie,Himachal Pradesh,32.5387,75.971,11.4,60,0.0,797.5,6.15,36.7,41,14.4,12.4,0,5,7,0,2026-04-28T04:26:18.138550+05:30
Patiala,Punjab,30.3398,76.3869,28.2,35,0.0,971.7,6.15,49.3,389,258.9,49.4,4,5,7,0,2026-04-28T04:26:18.138557+05:30
Bhatinda,Punjab,30.211,74.9455,28.6,39,0.0,977.0,7.45,44.6,79,66.1,49.1,4,5,7,0,2026-04-28T04:26:18.138566+05:30
Rohtak,Haryana,28.8955,76.6066,27.0,46,0.0,975.4,7.25,53.3,673,540.2,107.6,4,5,7,0,2026-04-28T04:26:18.138572+05:30
Panipat,Haryana,29.3909,76.9635,27.9,38,0.0,973.9,6.95,56.2,1135,780.4,149.9,4,5,7,0,2026-04-28T04:26:18.138579+05:30
Mathura,Uttar Pradesh,27.4924,77.6737,30.8,28,0.0,980.3,7.75,63.7,689,488.0,74.5,0,5,7,0,2026-04-28T04:26:18.138585+05:30
Vrindavan,Uttar Pradesh,27.5823,77.7027,30.4,29,0.0,980.5,7.75,67.3,689,488.0,74.5,0,5,7,0,2026-04-28T04:26:18.138592+05:30
Ayodhya,Uttar Pradesh,26.7922,82.1998,25.4,73,0.0,990.5,8.1,52.2,126,62.4,53.7,7,5,7,1,2026-04-28T04:26:18.138598+05:30
Ratlam,Madhya Pradesh,23.3315,75.0367,26.5,37,0.0,951.2,8.45,51.1,50,26.9,18.6,4,5,7,0,2026-04-28T04:26:18.138605+05:30
Sagar,Madhya Pradesh,23.8388,78.7378,28.3,24,0.0,945.4,8.6,45.4,53,11.3,10.0,4,5,7,0,2026-04-28T04:26:18.138611+05:30
Satna,Madhya Pradesh,24.6005,80.8322,30.5,30,0.0,965.1,8.2,46.8,56,39.0,14.6,0,5,7,0,2026-04-28T04:26:18.138617+05:30
Akola,Maharashtra,20.7002,77.0082,30.5,24,0.0,970.8,8.4,42.8,63,23.7,19.8,0,5,7,0,2026-04-28T04:26:18.138624+05:30
Amravati,Maharashtra,20.9374,77.7796,32.1,19,0.0,962.8,8.2,46.8,63,21.5,18.3,0,5,7,0,2026-04-28T04:26:18.138631+05:30
Latur,Maharashtra,18.4088,76.5604,28.0,35,0.0,936.1,9.1,36.4,81,44.1,31.7,4,5,7,0,2026-04-28T04:26:18.138638+05:30
Nanded,Maharashtra,19.1383,77.3091,29.5,27,0.0,964.7,8.95,31.0,78,25.4,23.2,4,5,7,0,2026-04-28T04:26:18.138644+05:30
Gulbarga,Karnataka,17.3297,76.8343,29.0,53,0.0,955.2,9.0,35.6,97,23.5,18.8,4,5,7,1,2026-04-28T04:26:18.138650+05:30
Bidar,Karnataka,17.9104,77.5199,28.1,43,0.0,932.0,8.1,34.6,94,46.4,41.3,4,5,7,0,2026-04-28T04:26:18.138656+05:30
Hospet,Karnataka,15.2689,76.3909,26.5,82,0.0,952.9,9.25,34.2,94,26.4,25.4,7,5,7,1,2026-04-28T04:26:18.138662+05:30
Tirupur,Tamil Nadu,11.1085,77.3411,26.3,88,0.0,973.0,8.3,33.8,78,32.8,31.0,7,5,7,1,2026-04-28T04:26:18.138668+05:30
Alappuzha,Kerala,9.4981,76.3388,25.8,95,0.0,1007.0,7.5,36.0,77,27.4,23.1,7,5,4,1,2026-04-28T04:26:18.138674+05:30
Munnar,Kerala,10.0889,77.0595,18.4,80,0.0,855.2,8.65,26.6,78,34.2,31.8,3,5,7,0,2026-04-28T04:26:18.138681+05:30
Silchar,Assam,24.8333,92.7789,22.0,92,0.1,1001.6,7.95,34.2,142,29.1,21.2,6,5,4,1,2026-04-28T04:26:18.138687+05:30
Dibrugarh,Assam,27.4728,94.912,20.5,97,0.1,994.1,8.25,18.0,108,43.8,34.1,6,5,7,1,2026-04-28T04:26:18.138693+05:30
