city,state,latitude,longitude,temp,humidity,rain,pressure,uv_index,wind_gusts,aqi,pm10,pm2_5,mosquito_risk,arthritis_risk,migraine_risk,frizz_risk,updated_at
Delhi,Delhi,28.6139,77.209,33.3,31,0.0,980.6,7.3,24.5,220,231.4,39.8,0,5,7,0,2026-04-16T19:23:34.131258+05:30
Mumbai,Maharashtra,19.076,72.8777,29.0,72,0.0,1006.7,8.0,19.1,102,53.2,23.4,7,5,4,1,2026-04-16T19:23:34.131301+05:30
Bangalore,Karnataka,12.9716,77.5946,31.2,31,0.0,910.6,9.6,32.8,163,28.3,24.9,0,5,7,0,2026-04-16T19:23:34.131316+05:30
Hyderabad,Telangana,17.385,78.4867,33.7,38,0.0,951.3,9.2,41.8,168,41.6,35.3,0,5,7,1,2026-04-16T19:23:34.131326+05:30
Chennai,Tamil Nadu,13.0827,80.2707,30.2,76,0.0,1005.5,9.3,34.2,41,10.0,6.9,3,5,4,1,2026-04-16T19:23:34.131336+05:30
Kolkata,West Bengal,22.5726,88.3639,27.4,87,0.0,1005.8,8.85,30.6,79,29.2,25.0,7,5,4,1,2026-04-16T19:23:34.131344+05:30
Pune,Maharashtra,18.5204,73.8567,31.0,42,0.0,946.7,8.6,46.4,152,25.4,21.4,0,5,7,1,2026-04-16T19:23:34.131357+05:30
Ahmedabad,Gujarat,23.0225,72.5714,36.1,30,0.0,999.1,8.15,18.0,120,53.3,23.0,0,5,10,0,2026-04-16T19:23:34.131365+05:30
Jaipur,Rajasthan,26.9124,75.7873,36.2,15,0.0,957.6,7.95,26.6,148,115.3,23.2,0,5,10,0,2026-04-16T19:23:34.131393+05:30
Lucknow,Uttar Pradesh,26.8467,80.9462,34.3,27,0.0,991.0,7.8,23.8,153,68.2,20.9,0,5,7,0,2026-04-16T19:23:34.131402+05:30
Kanpur,Uttar Pradesh,26.4499,80.3319,31.2,38,0.0,989.4,7.8,21.2,153,236.6,34.7,0,5,7,0,2026-04-16T19:23:34.131410+05:30
Chandigarh,Chandigarh,30.7333,76.7794,29.0,37,0.0,966.9,7.1,25.6,147,13.8,10.4,4,5,7,0,2026-04-16T19:23:34.131417+05:30
Srinagar,Jammu and Kashmir,34.0837,74.7973,16.1,65,0.0,843.2,8.0,21.6,117,40.2,20.4,3,5,7,0,2026-04-16T19:23:34.131424+05:30
Jammu,Jammu and Kashmir,32.7266,74.857,28.6,57,0.0,971.6,7.6,39.2,126,24.8,15.1,4,5,7,1,2026-04-16T19:23:34.131431+05:30
Amritsar,Punjab,31.634,74.8723,28.2,52,0.0,979.4,7.65,34.9,139,32.9,16.5,4,5,7,1,2026-04-16T19:23:34.131439+05:30
Ludhiana,Punjab,30.901,75.8573,32.2,29,0.0,977.2,7.15,24.8,133,23.8,14.4,0,5,7,0,2026-04-16T19:23:34.131445+05:30
Jalandhar,Punjab,31.326,75.5762,30.5,37,0.0,978.5,7.2,25.6,128,28.6,14.1,0,5,7,0,2026-04-16T19:23:34.131456+05:30
Dehradun,Uttarakhand,30.6284,78.0322,19.8,57,0.0,831.0,7.1,31.0,137,14.2,7.5,0,5,7,0,2026-04-16T19:23:34.131463+05:30
Shimla,Himachal Pradesh,31.1048,77.1734,16.8,45,0.0,785.5,7.4,41.0,142,11.2,6.9,0,5,7,0,2026-04-16T19:23:34.131470+05:30
Manali,Himachal Pradesh,32.2396,77.1887,18.2,75,0.0,823.3,8.7,32.0,158,11.3,6.2,3,5,7,0,2026-04-16T19:23:34.131477+05:30
Gurgaon,Haryana,28.4595,77.0266,31.1,37,0.0,978.9,7.45,20.9,475,659.4,81.3,0,5,7,0,2026-04-16T19:23:34.131484+05:30
Noida,Uttar Pradesh,28.5355,77.391,32.9,35,0.0,982.1,7.35,25.6,475,659.4,81.3,0,5,7,0,2026-04-16T19:23:34.131490+05:30
Ghaziabad,Uttar Pradesh,28.6692,77.4538,31.6,35,0.0,980.4,7.35,22.7,156,129.0,32.9,0,5,7,0,2026-04-16T19:23:34.131496+05:30
Faridabad,Haryana,28.4089,77.3178,33.1,32,0.0,981.3,7.4,29.9,475,659.4,81.3,0,5,7,0,2026-04-16T19:23:34.131503+05:30
Meerut,Uttar Pradesh,28.9845,77.7064,30.6,33,0.0,979.3,7.2,28.1,156,129.0,32.9,0,5,7,0,2026-04-16T19:23:34.131509+05:30
Agra,Uttar Pradesh,27.1767,78.0081,33.9,31,0.0,985.0,7.7,25.6,446,344.6,59.3,0,5,7,0,2026-04-16T19:23:34.131516+05:30
Varanasi,Uttar Pradesh,25.3176,82.9739,33.0,22,0.0,994.6,8.4,20.5,162,123.9,35.5,0,5,7,0,2026-04-16T19:23:34.131524+05:30
Prayagraj,Uttar Pradesh,25.4358,81.8463,33.0,29,0.0,993.3,8.3,29.5,163,134.6,32.0,0,5,7,0,2026-04-16T19:23:34.131532+05:30
Gorakhpur,Uttar Pradesh,26.7606,83.3732,31.9,37,0.0,994.7,8.25,31.3,184,110.4,40.7,0,5,7,0,2026-04-16T19:23:34.131539+05:30
Bareilly,Uttar Pradesh,28.367,79.4304,30.6,37,0.0,984.3,7.6,25.6,151,25.1,15.6,0,5,7,0,2026-04-16T19:23:34.131545+05:30
Aligarh,Uttar Pradesh,27.8974,78.088,31.9,25,0.0,983.0,7.5,28.8,196,272.9,52.4,0,5,7,0,2026-04-16T19:23:34.131552+05:30
Moradabad,Uttar Pradesh,28.8386,78.7733,31.0,35,0.0,981.4,7.45,27.0,163,31.9,19.0,0,5,7,0,2026-04-16T19:23:34.131559+05:30
Saharanpur,Uttar Pradesh,29.9637,77.546,30.0,38,0.0,973.7,7.0,26.3,145,51.8,21.0,4,5,7,0,2026-04-16T19:23:34.131566+05:30
Jhansi,Uttar Pradesh,25.4484,78.5685,33.7,21,0.0,975.3,8.2,32.4,156,114.3,24.0,0,5,7,0,2026-04-16T19:23:37.482895+05:30
Surat,Gujarat,21.1702,72.8311,28.1,70,0.0,1004.6,7.8,27.7,82,45.5,29.9,7,5,4,1,2026-04-16T19:23:37.482927+05:30
Vadodara,Gujarat,22.3072,73.1812,34.1,39,0.0,1001.4,7.9,23.8,145,40.4,24.5,0,5,4,1,2026-04-16T19:23:37.482936+05:30
Rajkot,Gujarat,22.3039,70.8022,31.6,34,0.0,992.7,7.75,33.1,106,52.3,17.3,0,5,7,0,2026-04-16T19:23:37.482944+05:30
Thane,Maharashtra,19.2183,72.9781,28.1,71,0.0,1006.1,8.0,31.0,102,53.2,23.4,7,5,4,1,2026-04-16T19:23:37.482951+05:30
Nagpur,Maharashtra,21.1458,79.0882,34.2,33,0.0,969.2,8.85,22.7,139,16.5,11.6,0,5,7,0,2026-04-16T19:23:37.482958+05:30
Nashik,Maharashtra,19.9975,73.7898,30.0,42,0.0,944.4,8.3,32.0,86,14.4,8.1,4,5,7,0,2026-04-16T19:23:37.482965+05:30
Aurangabad,Maharashtra,19.8762,75.3433,34.6,17,0.0,941.7,8.95,31.3,99,6.6,5.1,0,5,7,0,2026-04-16T19:23:37.482972+05:30
Solapur,Maharashtra,17.6599,75.9064,36.0,17,0.0,954.1,9.05,27.0,126,19.5,11.5,0,5,10,0,2026-04-16T19:23:37.482980+05:30
Kolhapur,Maharashtra,16.705,74.2433,27.9,59,0.0,946.2,9.0,43.2,123,19.5,16.1,4,5,7,1,2026-04-16T19:23:37.482987+05:30
Goa,Goa,15.2993,74.124,28.7,76,0.0,996.4,9.0,28.4,74,26.1,14.1,7,5,7,1,2026-04-16T19:23:37.482994+05:30
Jodhpur,Rajasthan,26.2389,73.0243,34.9,26,0.0,980.1,7.55,31.7,115,87.1,18.8,0,5,7,0,2026-04-16T19:23:37.483001+05:30
Udaipur,Rajasthan,24.5854,73.7125,33.6,28,0.0,945.5,8.7,26.6,95,56.5,18.2,0,5,7,0,2026-04-16T19:23:37.483008+05:30
Kota,Rajasthan,25.2138,75.8648,37.1,22,0.0,975.4,8.2,14.8,161,67.8,25.0,0,5,10,0,2026-04-16T19:23:37.483015+05:30
Bikaner,Rajasthan,28.0229,73.3119,36.7,20,0.0,978.8,7.5,23.0,114,70.1,14.3,0,5,10,0,2026-04-16T19:23:37.483022+05:30
Ajmer,Rajasthan,26.4499,74.6399,34.4,24,0.0,952.8,8.15,26.6,143,55.5,15.0,0,5,7,0,2026-04-16T19:23:37.483028+05:30
Gwalior,Madhya Pradesh,26.2183,78.1828,34.4,26,0.0,981.1,7.95,34.6,147,111.8,24.6,0,5,7,0,2026-04-16T19:23:37.483035+05:30
Indore,Madhya Pradesh,22.7196,75.8577,32.8,37,0.0,946.1,8.55,25.9,115,43.4,19.6,0,5,7,1,2026-04-16T19:23:37.483042+05:30
Bhopal,Madhya Pradesh,23.2599,77.4126,35.8,26,0.0,951.0,8.55,20.9,120,34.0,16.5,0,5,10,0,2026-04-16T19:23:37.483049+05:30
Jabalpur,Madhya Pradesh,23.1815,79.9864,32.8,33,0.0,958.8,8.7,22.7,155,38.9,20.7,0,5,7,0,2026-04-16T19:23:37.483055+05:30
Ujjain,Madhya Pradesh,23.1765,75.7885,33.3,36,0.0,951.9,8.5,27.0,105,46.7,25.2,0,5,7,1,2026-04-16T19:23:37.483062+05:30
Visakhapatnam,Andhra Pradesh,17.6868,83.2185,28.6,81,0.0,1002.0,9.15,43.9,47,13.4,10.5,7,5,4,1,2026-04-16T19:23:37.483069+05:30
Vijayawada,Andhra Pradesh,16.5062,80.648,30.9,64,0.0,1000.4,9.2,29.5,49,16.6,14.3,3,5,4,1,2026-04-16T19:23:37.483075+05:30
Guntur,Andhra Pradesh,16.3067,80.4365,29.7,73,0.0,1001.7,9.2,32.4,83,20.4,18.2,7,5,4,1,2026-04-16T19:23:37.483082+05:30
Nellore,Andhra Pradesh,14.4426,79.9865,30.1,76,0.0,1003.4,9.25,34.2,105,17.1,14.0,3,5,4,1,2026-04-16T19:23:37.483089+05:30
Kurnool,Andhra Pradesh,15.8281,78.0373,36.6,31,0.0,974.1,9.2,31.0,173,36.3,30.0,0,5,10,1,2026-04-16T19:23:37.483096+05:30
Kakinada,Andhra Pradesh,16.9891,82.2475,29.9,72,0.0,1005.7,9.15,34.9,29,9.5,6.2,7,5,4,1,2026-04-16T19:23:37.483103+05:30
Tirupati,Andhra Pradesh,13.6288,79.4192,32.6,53,0.0,989.8,9.35,33.8,113,20.1,18.5,0,5,7,1,2026-04-16T19:23:37.483110+05:30
Warangal,Telangana,17.9689,79.5941,33.0,50,0.0,975.5,9.1,34.2,132,38.9,34.6,0,5,7,1,2026-04-16T19:23:37.483116+05:30
Nizamabad,Telangana,18.6725,78.0941,36.0,26,0.0,961.8,9.05,25.9,132,31.1,22.4,0,5,10,0,2026-04-16T19:23:37.483122+05:30
Mysore,Karnataka,12.2958,76.6396,28.3,62,0.0,927.2,9.5,43.6,143,28.3,24.4,7,5,7,1,2026-04-16T19:23:37.483128+05:30
Mangalore,Karnataka,12.9141,74.856,29.9,79,0.0,1004.9,8.7,21.6,88,53.6,26.5,7,5,4,1,2026-04-16T19:23:37.483135+05:30
Hubli-Dharwad,Karnataka,15.3647,75.124,29.5,62,0.0,939.1,9.2,33.5,130,28.8,21.4,7,5,7,1,2026-04-16T19:23:37.483141+05:30
Belgaum,Karnataka,15.8497,74.4977,26.2,78,0.0,924.4,9.25,36.0,123,18.8,13.6,7,5,7,1,2026-04-16T19:23:40.840006+05:30
Coimbatore,Tamil Nadu,11.0168,76.9558,27.4,75,0.0,960.4,9.45,46.4,140,29.6,25.7,7,5,7,1,2026-04-16T19:23:40.840040+05:30
Madurai,Tamil Nadu,9.9252,78.1198,32.5,56,0.0,991.2,9.25,52.6,103,18.6,14.9,0,5,7,1,2026-04-16T19:23:40.840052+05:30
Trichy,Tamil Nadu,10.7905,78.7047,33.4,55,0.0,997.6,9.35,26.6,72,16.3,14.2,0,5,7,1,2026-04-16T19:23:40.840063+05:30
Salem,Tamil Nadu,11.6643,78.146,33.9,37,0.0,975.1,9.45,26.6,110,23.3,18.9,0,5,7,1,2026-04-16T19:23:40.840072+05:30
Tirunelveli,Tamil Nadu,8.7139,77.7567,32.5,53,0.0,1001.2,8.85,52.2,102,26.1,22.5,0,5,4,1,2026-04-16T19:23:40.840081+05:30
Vellore,Tamil Nadu,12.9165,79.1325,32.1,52,0.0,983.0,9.4,32.4,112,24.7,23.4,0,5,7,1,2026-04-16T19:23:40.840089+05:30
Erode,Tamil Nadu,11.341,77.7172,35.6,29,0.0,986.3,9.4,30.2,124,18.8,15.0,0,5,10,0,2026-04-16T19:23:40.840098+05:30
Kochi,Kerala,9.9312,76.2673,29.8,80,0.0,1007.0,9.2,29.9,102,36.0,26.7,7,5,4,1,2026-04-16T19:23:40.840107+05:30
Thiruvananthapuram,Kerala,8.5241,76.9366,29.5,81,0.0,1006.5,9.15,32.8,79,41.6,27.2,7,5,4,1,2026-04-16T19:23:40.840116+05:30
Kozhikode,Kerala,11.2588,75.7804,30.6,76,0.0,1006.1,9.15,31.7,89,46.4,27.7,3,5,4,1,2026-04-16T19:23:40.840122+05:30
Thrissur,Kerala,10.5276,76.2144,30.3,76,0.0,1005.1,9.15,34.6,104,34.9,26.3,3,5,4,1,2026-04-16T19:23:40.840130+05:30
Kannur,Kerala,11.8745,75.3704,30.4,76,0.0,1005.5,9.15,32.4,91,51.8,31.7,3,5,4,1,2026-04-16T19:23:40.840136+05:30
Patna,Bihar,25.5941,85.1376,31.7,61,0.0,998.6,8.55,34.2,190,71.5,54.8,3,5,7,1,2026-04-16T19:23:40.840143+05:30
Gaya,Bihar,24.7914,85.0002,30.3,63,0.0,991.5,8.65,23.0,163,68.5,30.2,3,5,7,1,2026-04-16T19:23:40.840149+05:30
Muzaffarpur,Bihar,26.1209,85.3647,29.5,69,0.0,998.9,8.5,35.3,185,79.6,61.0,7,5,7,1,2026-04-16T19:23:40.840156+05:30
Bhagalpur,Bihar,25.2425,87.0117,28.0,81,0.0,1000.0,8.55,30.6,152,45.4,41.9,7,5,4,1,2026-04-16T19:23:40.840162+05:30
Ranchi,Jharkhand,23.3441,85.3096,25.8,79,0.0,936.8,9.15,39.6,201,48.4,30.0,7,5,7,1,2026-04-16T19:23:40.840169+05:30
Jamshedpur,Jharkhand,22.8046,86.2029,28.2,82,0.0,990.0,8.95,31.0,211,53.6,49.9,7,5,7,1,2026-04-16T19:23:40.840175+05:30
Dhanbad,Jharkhand,23.7957,86.4304,29.8,70,0.0,978.8,8.9,29.2,218,100.4,87.8,7,5,7,1,2026-04-16T19:23:40.840182+05:30
Bokaro,Jharkhand,23.6693,86.1511,28.3,77,0.0,983.1,8.95,24.5,223,95.2,69.8,7,5,7,1,2026-04-16T19:23:40.840188+05:30
Bhubaneswar,Odisha,20.2961,85.8245,27.9,83,0.0,1001.8,9.1,39.6,54,12.2,9.7,7,5,4,1,2026-04-16T19:23:40.840195+05:30
Cuttack,Odisha,20.4625,85.8828,28.9,78,0.0,1003.9,9.15,37.1,54,12.2,9.7,7,5,4,1,2026-04-16T19:23:40.840201+05:30
Rourkela,Odisha,22.2604,84.8536,30.1,64,0.0,982.7,8.9,50.4,199,44.4,33.8,3,5,7,1,2026-04-16T19:23:40.840207+05:30
Raipur,Chhattisgarh,21.2514,81.6296,36.0,23,0.0,970.4,8.95,32.0,180,35.9,28.8,0,5,10,0,2026-04-16T19:23:40.840213+05:30
Bhilai,Chhattisgarh,21.1938,81.3509,34.0,29,0.0,970.6,8.95,29.2,158,28.2,21.4,0,5,7,0,2026-04-16T19:23:40.840220+05:30
Guwahati,Assam,26.1158,91.7086,28.5,70,0.0,1002.2,8.45,24.5,136,83.8,58.6,7,5,4,1,2026-04-16T19:23:40.840226+05:30
Agartala,Tripura,23.8315,91.2868,26.3,86,0.0,1006.6,8.7,27.4,132,94.1,76.6,7,5,4,1,2026-04-16T19:23:40.840233+05:30
Shillong,Meghalaya,25.5788,91.8933,15.5,89,0.0,857.1,7.75,43.2,126,65.9,46.9,3,10,7,0,2026-04-16T19:23:40.840240+05:30
Imphal,Manipur,24.817,93.9368,19.7,82,0.0,924.4,9.05,69.5,122,67.5,45.6,3,10,7,1,2026-04-16T19:23:40.840246+05:30
Aizawl,Mizoram,23.7271,92.7176,20.5,88,0.0,893.5,8.95,37.4,134,92.9,64.0,3,5,7,1,2026-04-16T19:23:40.840253+05:30
Kohima,Nagaland,25.6701,94.1077,15.9,93,0.0,855.8,8.5,57.2,111,76.4,47.3,3,10,7,0,2026-04-16T19:23:40.840259+05:30
Gangtok,Sikkim,27.3314,88.6138,17.2,86,0.0,838.8,8.8,19.4,138,55.1,37.6,3,10,7,0,2026-04-16T19:23:40.840265+05:30
Siliguri,West Bengal,26.7271,88.3953,23.1,76,0.0,994.7,8.45,24.8,164,84.3,57.2,3,5,7,1,2026-04-16T19:23:44.196364+05:30
Durgapur,West Bengal,23.5204,87.3119,26.9,80,0.0,994.4,8.85,27.4,146,57.2,52.5,7,5,7,1,2026-04-16T19:23:44.196441+05:30
Asansol,West Bengal,23.6739,86.9524,28.3,74,0.0,992.7,8.9,26.6,191,79.9,74.3,7,5,7,1,2026-04-16T19:23:44.196452+05:30
Pondicherry,Puducherry,11.9139,79.8145,29.8,78,0.0,1006.5,9.25,25.9,41,9.1,6.2,7,5,4,1,2026-04-16T19:23:44.196459+05:30
Port Blair,Andaman and Nicobar Islands,11.6234,92.7265,29.3,75,0.0,1006.3,9.2,15.1,63,25.4,17.8,7,5,4,1,2026-04-16T19:23:44.196467+05:30
Haridwar,Uttarakhand,29.9457,78.1642,28.9,43,0.0,972.5,7.05,30.6,125,23.3,14.3,4,5,7,0,2026-04-16T19:23:44.196474+05:30
Rishikesh,Uttarakhand,30.0869,78.2676,26.6,54,0.0,965.7,7.1,31.7,115,15.3,8.4,4,5,7,1,2026-04-16T19:23:44.196482+05:30
Nainital,Uttarakhand,29.3919,79.4542,23.4,23,0.0,807.7,8.1,43.2,152,21.8,13.2,0,5,7,0,2026-04-16T19:23:44.196489+05:30
Mussoorie,Uttarakhand,30.4599,78.0664,20.0,51,0.0,803.6,6.7,39.2,132,20.3,11.3,0,5,7,0,2026-04-16T19:23:44.196496+05:30
Dharamshala,Himachal Pradesh,32.219,76.3234,24.0,38,0.0,870.1,7.55,24.8,138,13.1,5.6,0,5,7,0,2026-04-16T19:23:44.196503+05:30
Dalhousie,Himachal Pradesh,32.5387,75.971,22.3,34,0.0,805.8,7.8,25.6,153,15.7,8.6,0,5,7,0,2026-04-16T19:23:44.196511+05:30
Patiala,Punjab,30.3398,76.3869,31.1,31,0.0,976.3,7.2,23.0,132,333.4,39.9,0,5,7,0,2026-04-16T19:23:44.196519+05:30
Bhatinda,Punjab,30.211,74.9455,34.5,20,0.0,981.2,7.25,33.5,146,37.8,15.4,0,5,7,0,2026-04-16T19:23:44.196527+05:30
Rohtak,Haryana,28.8955,76.6066,29.3,45,0.0,979.2,7.3,26.6,383,246.8,42.1,4,5,7,1,2026-04-16T19:23:44.196534+05:30
Panipat,Haryana,29.3909,76.9635,30.1,36,0.0,978.1,7.15,25.9,381,476.8,60.5,0,5,7,0,2026-04-16T19:23:44.196541+05:30
Mathura,Uttar Pradesh,27.4924,77.6737,33.2,30,0.0,984.2,7.65,27.0,409,303.6,57.3,0,5,7,0,2026-04-16T19:23:44.196548+05:30
Vrindavan,Uttar Pradesh,27.5823,77.7027,31.5,31,0.0,984.7,7.6,24.8,409,303.6,57.3,0,5,7,0,2026-04-16T19:23:44.196554+05:30
Ayodhya,Uttar Pradesh,26.7922,82.1998,32.3,20,0.0,992.6,8.0,23.8,162,86.6,25.6,0,5,7,0,2026-04-16T19:23:44.196560+05:30
Ratlam,Madhya Pradesh,23.3315,75.0367,29.6,58,0.0,952.6,8.45,29.5,105,49.9,20.6,4,5,7,1,2026-04-16T19:23:44.196567+05:30
Sagar,Madhya Pradesh,23.8388,78.7378,34.4,25,0.0,948.1,8.55,19.4,147,62.4,17.8,0,5,7,0,2026-04-16T19:23:44.196574+05:30
Satna,Madhya Pradesh,24.6005,80.8322,34.6,16,0.0,969.1,8.6,25.6,156,89.4,19.7,0,5,7,0,2026-04-16T19:23:44.196581+05:30
Akola,Maharashtra,20.7002,77.0082,35.8,19,0.0,971.8,8.8,26.3,116,17.6,11.5,0,5,10,0,2026-04-16T19:23:44.196588+05:30
Amravati,Maharashtra,20.9374,77.7796,34.1,26,0.0,963.7,8.8,22.0,120,17.5,11.1,0,5,7,0,2026-04-16T19:23:44.196596+05:30
Latur,Maharashtra,18.4088,76.5604,32.0,27,0.0,937.7,9.05,23.0,97,18.5,12.2,0,5,7,0,2026-04-16T19:23:44.196603+05:30
Nanded,Maharashtra,19.1383,77.3091,34.4,28,0.0,965.7,8.95,17.3,102,22.3,14.1,0,5,7,0,2026-04-16T19:23:44.196609+05:30
Gulbarga,Karnataka,17.3297,76.8343,37.2,24,0.0,955.8,9.1,22.3,180,34.8,29.0,0,5,10,0,2026-04-16T19:23:44.196616+05:30
Bidar,Karnataka,17.9104,77.5199,35.0,28,0.0,933.4,9.1,34.2,156,32.4,26.1,0,5,7,0,2026-04-16T19:23:44.196622+05:30
Hospet,Karnataka,15.2689,76.3909,34.7,34,0.0,953.8,9.25,27.4,145,37.8,29.9,0,5,7,1,2026-04-16T19:23:44.196628+05:30
Tirupur,Tamil Nadu,11.1085,77.3411,35.0,26,0.0,973.0,9.45,32.4,138,21.5,16.9,0,5,7,0,2026-04-16T19:23:44.196635+05:30
Alappuzha,Kerala,9.4981,76.3388,29.3,81,0.0,1007.4,9.05,28.8,96,40.0,27.8,7,5,4,1,2026-04-16T19:23:44.196641+05:30
Munnar,Kerala,10.0889,77.0595,23.7,94,0.0,856.6,9.05,37.1,91,25.8,21.3,3,5,7,1,2026-04-16T19:23:44.196648+05:30
Silchar,Assam,24.8333,92.7789,26.3,80,0.0,1006.2,8.7,24.5,128,112.7,75.7,7,5,4,1,2026-04-16T19:23:44.196654+05:30
Dibrugarh,Assam,27.4728,94.912,25.8,72,0.0,996.7,8.55,7.9,140,97.1,59.1,7,5,7,1,2026-04-16T19:23:44.196661+05:30
