city,state,latitude,longitude,temp,humidity,rain,pressure,uv_index,wind_gusts,aqi,pm10,pm2_5,no2,co,o3,so2,mosquito_risk,arthritis_risk,migraine_risk,frizz_risk,updated_at
Delhi,Delhi,28.6139,77.209,36.2,25,0.0,977.3,7.7,49.0,642,968.6,187.7,22.9,333.0,72.0,16.0,0,5,10,0,2026-05-17T21:34:58.052157+05:30
Mumbai,Maharashtra,19.076,72.8777,29.8,83,0.0,1005.4,7.55,46.1,63,42.0,18.7,8.4,230.0,65.0,5.4,7,5,4,1,2026-05-17T21:34:58.052199+05:30
Bangalore,Karnataka,12.9716,77.5946,26.3,64,0.0,910.9,9.45,30.2,95,35.5,29.3,34.0,387.0,78.0,10.8,7,5,7,1,2026-05-17T21:34:58.052214+05:30
Hyderabad,Telangana,17.385,78.4867,32.2,47,0.0,951.5,9.3,29.9,88,34.8,25.7,13.7,299.0,84.0,6.8,0,5,7,1,2026-05-17T21:34:58.052224+05:30
Chennai,Tamil Nadu,13.0827,80.2707,30.1,80,0.0,1005.2,9.15,41.8,108,29.6,19.4,4.1,169.0,103.0,5.4,3,5,4,1,2026-05-17T21:34:58.052231+05:30
Kolkata,West Bengal,22.5726,88.3639,28.8,89,0.0,1002.1,8.95,35.3,62,23.9,18.4,8.8,244.0,54.0,7.2,7,5,4,1,2026-05-17T21:34:58.052239+05:30
Pune,Maharashtra,18.5204,73.8567,29.3,69,0.0,945.8,8.45,39.6,112,32.9,23.3,10.2,241.0,122.0,18.9,7,5,7,1,2026-05-17T21:34:58.052246+05:30
Ahmedabad,Gujarat,23.0225,72.5714,38.5,23,0.0,997.4,8.15,29.9,63,37.5,20.0,8.9,243.0,68.0,4.9,0,5,10,0,2026-05-17T21:34:58.052253+05:30
Jaipur,Rajasthan,26.9124,75.7873,36.3,19,0.0,955.8,8.25,41.8,127,151.8,41.7,14.2,276.0,59.0,7.2,0,5,10,0,2026-05-17T21:34:58.052265+05:30
Lucknow,Uttar Pradesh,26.8467,80.9462,34.7,33,0.0,987.3,8.2,47.5,155,421.0,107.3,13.8,281.0,85.0,11.7,0,5,7,0,2026-05-17T21:34:58.052272+05:30
Kanpur,Uttar Pradesh,26.4499,80.3319,35.5,27,0.0,985.8,8.2,46.1,280,571.8,120.1,11.1,281.0,83.0,10.5,0,5,10,0,2026-05-17T21:34:58.052278+05:30
Chandigarh,Chandigarh,30.7333,76.7794,30.0,38,0.0,963.0,7.7,43.2,121,27.4,23.9,13.8,487.0,101.0,10.5,4,5,7,0,2026-05-17T21:34:58.052285+05:30
Srinagar,Jammu and Kashmir,34.0837,74.7973,17.8,74,0.0,839.3,8.9,18.0,80,39.6,34.8,28.4,884.0,73.0,4.7,3,5,7,0,2026-05-17T21:34:58.052292+05:30
Jammu,Jammu and Kashmir,32.7266,74.857,31.0,39,0.0,967.1,8.5,40.0,90,36.6,32.5,30.7,388.0,53.0,6.1,0,5,7,0,2026-05-17T21:34:58.052298+05:30
Amritsar,Punjab,31.634,74.8723,31.5,37,0.0,974.8,8.4,33.1,103,42.4,32.2,22.0,429.0,76.0,9.2,0,5,7,0,2026-05-17T21:34:58.052305+05:30
Ludhiana,Punjab,30.901,75.8573,31.6,37,0.0,973.0,7.95,42.8,94,93.8,40.5,11.7,491.0,91.0,7.9,0,5,7,0,2026-05-17T21:34:58.052311+05:30
Jalandhar,Punjab,31.326,75.5762,31.0,41,0.0,973.7,8.15,36.7,102,88.9,41.3,15.4,643.0,85.0,8.5,0,5,7,1,2026-05-17T21:34:58.052318+05:30
Dehradun,Uttarakhand,30.6284,78.0322,17.1,67,0.0,825.5,8.15,43.9,110,18.8,15.9,20.9,243.0,98.0,4.0,3,5,7,0,2026-05-17T21:34:58.052324+05:30
Shimla,Himachal Pradesh,31.1048,77.1734,16.4,49,0.0,782.2,8.25,49.0,113,24.7,16.2,10.4,217.0,117.0,4.0,0,5,7,0,2026-05-17T21:34:58.052333+05:30
Manali,Himachal Pradesh,32.2396,77.1887,11.5,70,0.0,813.4,9.85,40.0,104,6.8,5.6,19.1,276.0,116.0,0.2,3,5,7,0,2026-05-17T21:34:58.052339+05:30
Gurgaon,Haryana,28.4595,77.0266,33.7,30,0.0,975.7,7.8,47.2,1041,1043.1,184.4,24.9,460.0,68.0,16.6,0,5,7,0,2026-05-17T21:34:58.052350+05:30
Noida,Uttar Pradesh,28.5355,77.391,33.5,34,0.0,978.4,7.75,43.2,1041,1043.1,184.4,24.9,364.0,68.0,16.6,0,5,7,0,2026-05-17T21:34:58.052356+05:30
Ghaziabad,Uttar Pradesh,28.6692,77.4538,32.5,36,0.0,976.7,7.7,50.4,497,871.7,181.1,19.1,332.0,74.0,17.1,0,5,7,0,2026-05-17T21:34:58.052362+05:30
Faridabad,Haryana,28.4089,77.3178,36.5,24,0.0,978.0,7.75,50.0,1041,1043.1,184.4,24.9,393.0,68.0,16.6,0,5,10,0,2026-05-17T21:34:58.052368+05:30
Meerut,Uttar Pradesh,28.9845,77.7064,33.3,28,0.0,975.4,7.65,50.8,497,871.7,181.1,19.1,337.0,74.0,17.1,0,5,7,0,2026-05-17T21:34:58.052374+05:30
Agra,Uttar Pradesh,27.1767,78.0081,34.9,27,0.0,981.8,8.05,38.9,681,517.8,101.7,22.2,314.0,51.0,11.9,0,5,7,0,2026-05-17T21:34:58.052381+05:30
Varanasi,Uttar Pradesh,25.3176,82.9739,35.3,25,0.0,991.4,8.7,45.7,150,116.6,53.6,25.1,471.0,66.0,13.8,0,5,10,0,2026-05-17T21:34:58.052387+05:30
Prayagraj,Uttar Pradesh,25.4358,81.8463,34.2,29,0.0,990.0,8.6,39.6,148,134.6,52.9,20.6,312.0,64.0,11.9,0,5,7,0,2026-05-17T21:34:58.052394+05:30
Gorakhpur,Uttar Pradesh,26.7606,83.3732,30.5,52,0.0,990.5,8.6,35.6,146,64.7,42.7,15.7,436.0,91.0,11.8,0,5,7,1,2026-05-17T21:34:58.052402+05:30
Bareilly,Uttar Pradesh,28.367,79.4304,30.2,50,0.0,979.8,8.0,37.1,119,144.8,53.7,16.2,380.0,86.0,11.8,0,5,7,1,2026-05-17T21:34:58.052408+05:30
Aligarh,Uttar Pradesh,27.8974,78.088,32.5,37,0.0,979.2,7.85,49.7,640,1013.3,186.3,15.2,306.0,76.0,11.5,0,5,7,0,2026-05-17T21:34:58.052414+05:30
Moradabad,Uttar Pradesh,28.8386,78.7733,31.5,43,0.0,976.9,7.85,45.7,152,267.3,84.5,21.4,432.0,64.0,10.3,0,5,7,1,2026-05-17T21:34:58.052420+05:30
Saharanpur,Uttar Pradesh,29.9637,77.546,31.6,33,0.0,969.2,7.35,42.8,106,66.1,28.9,9.3,305.0,108.0,9.3,0,5,7,0,2026-05-17T21:34:58.052426+05:30
Jhansi,Uttar Pradesh,25.4484,78.5685,34.2,24,0.0,972.9,8.45,34.6,121,111.1,37.5,7.6,281.0,73.0,5.4,0,5,7,0,2026-05-17T21:35:01.843433+05:30
Surat,Gujarat,21.1702,72.8311,31.5,73,0.0,1002.2,7.75,41.4,87,37.0,24.0,25.8,408.0,46.0,39.9,3,5,4,1,2026-05-17T21:35:01.843466+05:30
Vadodara,Gujarat,22.3072,73.1812,38.2,24,0.0,998.9,8.1,31.0,85,50.9,31.2,18.8,296.0,79.0,12.9,0,5,10,0,2026-05-17T21:35:01.843477+05:30
Rajkot,Gujarat,22.3039,70.8022,31.0,48,0.0,991.5,7.2,38.5,58,37.1,17.3,6.4,149.0,69.0,6.6,0,5,7,1,2026-05-17T21:35:01.843487+05:30
Thane,Maharashtra,19.2183,72.9781,29.8,81,0.0,1004.7,7.6,39.2,63,42.0,18.7,8.4,231.0,65.0,5.4,7,5,4,1,2026-05-17T21:35:01.843496+05:30
Nagpur,Maharashtra,21.1458,79.0882,36.8,26,0.0,969.0,8.95,31.7,102,25.7,21.5,21.0,367.0,67.0,13.1,0,5,10,0,2026-05-17T21:35:01.843504+05:30
Nashik,Maharashtra,19.9975,73.7898,30.6,33,0.0,943.1,8.2,42.5,90,34.2,20.8,10.3,209.0,97.0,7.2,0,5,7,0,2026-05-17T21:35:01.843512+05:30
Aurangabad,Maharashtra,19.8762,75.3433,33.5,23,0.0,941.3,9.05,40.7,80,17.5,12.1,6.3,184.0,101.0,4.6,0,5,7,0,2026-05-17T21:35:01.843520+05:30
Solapur,Maharashtra,17.6599,75.9064,34.8,27,0.0,953.6,9.1,33.5,102,27.3,24.0,18.4,297.0,77.0,7.4,0,5,7,0,2026-05-17T21:35:01.843528+05:30
Kolhapur,Maharashtra,16.705,74.2433,27.0,81,0.0,945.2,8.8,45.0,85,24.4,16.5,5.9,185.0,72.0,5.4,7,5,7,1,2026-05-17T21:35:01.843535+05:30
Goa,Goa,15.2993,74.124,29.0,84,0.0,996.2,8.9,34.9,56,38.3,16.8,2.5,241.0,58.0,1.5,7,5,7,1,2026-05-17T21:35:01.843543+05:30
Jodhpur,Rajasthan,26.2389,73.0243,37.2,21,0.0,978.7,8.45,33.5,77,126.2,30.6,7.8,220.0,71.0,4.2,0,5,10,0,2026-05-17T21:35:01.843551+05:30
Udaipur,Rajasthan,24.5854,73.7125,33.5,26,0.0,943.9,8.85,33.5,53,52.7,21.7,7.1,186.0,70.0,4.7,0,5,7,0,2026-05-17T21:35:01.843558+05:30
Kota,Rajasthan,25.2138,75.8648,37.2,17,0.0,974.1,8.4,31.0,100,156.9,44.0,12.5,224.0,81.0,5.9,0,5,10,0,2026-05-17T21:35:01.843565+05:30
Bikaner,Rajasthan,28.0229,73.3119,37.0,20,0.0,977.1,8.4,37.8,76,61.2,22.2,2.3,194.0,78.0,2.2,0,5,10,0,2026-05-17T21:35:01.843573+05:30
Ajmer,Rajasthan,26.4499,74.6399,34.8,23,0.0,951.5,8.4,46.8,83,79.2,27.7,7.1,226.0,70.0,3.7,0,5,7,0,2026-05-17T21:35:01.843580+05:30
Gwalior,Madhya Pradesh,26.2183,78.1828,36.1,21,0.0,977.9,8.25,40.7,270,73.8,30.6,7.6,274.0,71.0,5.5,0,5,10,0,2026-05-17T21:35:01.843588+05:30
Indore,Madhya Pradesh,22.7196,75.8577,36.5,20,0.0,944.6,8.7,43.6,72,55.4,33.2,15.4,454.0,85.0,10.4,0,5,10,0,2026-05-17T21:35:01.843594+05:30
Bhopal,Madhya Pradesh,23.2599,77.4126,35.4,22,0.0,949.9,8.7,38.9,65,32.7,23.5,12.9,531.0,73.0,6.8,0,5,10,0,2026-05-17T21:35:01.843602+05:30
Jabalpur,Madhya Pradesh,23.1815,79.9864,33.0,29,0.0,957.4,8.9,39.2,87,51.2,28.5,15.9,317.0,77.0,6.3,0,5,7,0,2026-05-17T21:35:01.843609+05:30
Ujjain,Madhya Pradesh,23.1765,75.7885,35.8,18,0.0,949.8,8.65,39.6,77,59.8,29.5,5.0,274.0,93.0,6.3,0,5,10,0,2026-05-17T21:35:01.843616+05:30
Visakhapatnam,Andhra Pradesh,17.6868,83.2185,29.9,81,0.0,1001.8,8.75,43.2,60,24.5,17.6,15.5,270.0,64.0,27.9,7,5,4,1,2026-05-17T21:35:01.843624+05:30
Vijayawada,Andhra Pradesh,16.5062,80.648,30.6,72,0.0,1000.4,9.2,32.8,51,21.5,16.4,6.4,218.0,68.0,7.0,3,5,4,1,2026-05-17T21:35:01.843632+05:30
Guntur,Andhra Pradesh,16.3067,80.4365,30.4,75,0.0,1001.7,9.2,33.5,48,20.4,16.4,5.7,214.0,72.0,5.2,3,5,4,1,2026-05-17T21:35:01.843639+05:30
Nellore,Andhra Pradesh,14.4426,79.9865,30.4,74,0.0,1003.8,9.15,37.1,98,33.1,24.5,3.6,200.0,123.0,8.2,3,5,4,1,2026-05-17T21:35:01.843647+05:30
Kurnool,Andhra Pradesh,15.8281,78.0373,34.5,39,0.0,974.2,9.15,32.4,58,40.2,25.5,9.9,248.0,72.0,3.4,0,5,7,1,2026-05-17T21:35:01.843655+05:30
Kakinada,Andhra Pradesh,16.9891,82.2475,30.3,76,0.0,1005.3,8.7,36.0,45,25.3,15.9,1.8,215.0,77.0,1.5,3,5,4,1,2026-05-17T21:35:01.843662+05:30
Tirupati,Andhra Pradesh,13.6288,79.4192,28.0,80,0.0,989.5,9.25,29.5,101,32.8,28.4,10.0,317.0,115.0,13.7,7,5,7,1,2026-05-17T21:35:01.843669+05:30
Warangal,Telangana,17.9689,79.5941,31.9,57,0.0,976.3,8.8,31.0,66,36.2,30.9,13.3,380.0,88.0,7.8,0,5,7,1,2026-05-17T21:35:01.843676+05:30
Nizamabad,Telangana,18.6725,78.0941,32.2,49,0.0,961.5,9.15,31.7,99,41.3,34.8,14.7,293.0,84.0,6.3,0,5,7,1,2026-05-17T21:35:01.843682+05:30
Mysore,Karnataka,12.2958,76.6396,24.5,89,0.1,927.3,9.1,36.4,71,24.7,19.9,15.4,252.0,70.0,4.4,6,5,7,1,2026-05-17T21:35:01.843690+05:30
Mangalore,Karnataka,12.9141,74.856,26.5,93,0.0,1005.5,8.75,36.7,62,23.5,15.9,9.1,347.0,44.0,2.8,7,5,4,1,2026-05-17T21:35:01.843696+05:30
Hubli-Dharwad,Karnataka,15.3647,75.124,24.8,98,0.3,939.7,9.15,52.9,68,15.5,10.3,5.8,178.0,50.0,1.6,6,5,7,1,2026-05-17T21:35:01.843704+05:30
Belgaum,Karnataka,15.8497,74.4977,24.5,93,0.0,924.5,9.15,44.6,54,22.8,13.9,5.6,148.0,57.0,2.7,3,5,7,1,2026-05-17T21:35:05.126236+05:30
Coimbatore,Tamil Nadu,11.0168,76.9558,24.6,91,0.0,960.3,8.7,48.2,53,4.9,4.4,7.1,203.0,62.0,3.2,3,5,7,1,2026-05-17T21:35:05.126266+05:30
Madurai,Tamil Nadu,9.9252,78.1198,27.1,94,0.0,991.3,8.5,32.4,90,33.3,27.5,33.7,279.0,38.0,8.5,7,5,7,1,2026-05-17T21:35:05.126278+05:30
Trichy,Tamil Nadu,10.7905,78.7047,28.0,92,0.0,998.0,8.45,40.0,80,22.9,20.6,14.0,302.0,75.0,5.1,7,5,7,1,2026-05-17T21:35:05.126286+05:30
Salem,Tamil Nadu,11.6643,78.146,27.1,80,0.0,975.9,8.5,43.2,121,32.2,25.4,12.1,342.0,101.0,5.9,7,5,7,1,2026-05-17T21:35:05.126295+05:30
Tirunelveli,Tamil Nadu,8.7139,77.7567,29.1,70,0.0,1001.8,8.95,28.8,38,7.3,6.4,5.4,231.0,63.0,1.5,7,5,4,1,2026-05-17T21:35:05.126303+05:30
Vellore,Tamil Nadu,12.9165,79.1325,26.9,98,0.0,982.7,9.2,23.4,97,35.3,29.5,10.1,332.0,93.0,9.0,7,5,7,1,2026-05-17T21:35:05.126310+05:30
Erode,Tamil Nadu,11.341,77.7172,27.5,78,0.0,987.5,8.55,34.6,75,17.6,14.3,13.0,217.0,63.0,3.1,7,5,7,1,2026-05-17T21:35:05.126317+05:30
Kochi,Kerala,9.9312,76.2673,25.8,92,0.1,1008.4,8.7,28.4,51,19.2,16.4,17.0,222.0,41.0,5.6,10,0,4,1,2026-05-17T21:35:05.126325+05:30
Thiruvananthapuram,Kerala,8.5241,76.9366,25.3,99,0.0,1007.8,8.3,33.5,40,12.4,7.8,1.8,242.0,76.0,0.7,7,5,4,1,2026-05-17T21:35:05.126333+05:30
Kozhikode,Kerala,11.2588,75.7804,25.9,99,0.0,1006.4,8.65,40.7,51,17.3,10.1,1.4,349.0,77.0,1.0,7,5,4,1,2026-05-17T21:35:05.126341+05:30
Thrissur,Kerala,10.5276,76.2144,24.9,99,0.3,1006.5,8.75,30.2,53,18.9,16.3,13.3,276.0,44.0,4.2,6,5,4,1,2026-05-17T21:35:05.126349+05:30
Kannur,Kerala,11.8745,75.3704,27.1,95,0.0,1005.4,8.9,37.1,58,23.6,17.2,13.2,346.0,45.0,3.2,7,5,4,1,2026-05-17T21:35:05.126356+05:30
Patna,Bihar,25.5941,85.1376,30.1,75,0.0,994.5,8.8,39.2,149,112.2,67.1,48.1,482.0,45.0,21.5,3,5,7,1,2026-05-17T21:35:05.126363+05:30
Gaya,Bihar,24.7914,85.0002,31.6,32,0.0,987.9,8.85,40.0,151,108.0,47.6,18.5,429.0,75.0,10.0,0,5,7,0,2026-05-17T21:35:05.126370+05:30
Muzaffarpur,Bihar,26.1209,85.3647,29.2,75,0.0,994.7,8.8,24.8,151,139.7,93.8,55.9,466.0,48.0,25.5,7,5,7,1,2026-05-17T21:35:05.126377+05:30
Bhagalpur,Bihar,25.2425,87.0117,29.1,83,0.0,995.7,8.8,25.6,151,55.4,49.2,11.4,457.0,118.0,12.7,7,5,7,1,2026-05-17T21:35:05.126383+05:30
Ranchi,Jharkhand,23.3441,85.3096,25.9,64,0.0,934.0,9.3,41.8,129,72.2,54.8,15.6,335.0,85.0,9.8,7,5,7,1,2026-05-17T21:35:05.126390+05:30
Jamshedpur,Jharkhand,22.8046,86.2029,29.7,66,0.0,986.7,9.1,34.6,114,82.0,64.7,21.1,739.0,99.0,23.8,7,5,7,1,2026-05-17T21:35:05.126397+05:30
Dhanbad,Jharkhand,23.7957,86.4304,29.5,59,0.0,974.9,9.05,38.9,145,90.3,75.4,52.1,642.0,57.0,121.9,4,5,7,1,2026-05-17T21:35:05.126404+05:30
Bokaro,Jharkhand,23.6693,86.1511,30.4,53,0.0,978.7,9.05,48.6,150,83.6,64.0,39.3,349.0,63.0,85.9,0,5,7,1,2026-05-17T21:35:05.126411+05:30
Bhubaneswar,Odisha,20.2961,85.8245,29.6,83,0.0,1000.1,8.8,45.4,55,15.9,12.3,5.0,202.0,71.0,4.5,7,5,4,1,2026-05-17T21:35:05.126418+05:30
Cuttack,Odisha,20.4625,85.8828,30.0,80,0.0,1001.6,8.95,45.4,55,15.9,12.3,5.0,226.0,71.0,4.5,7,5,4,1,2026-05-17T21:35:05.126425+05:30
Rourkela,Odisha,22.2604,84.8536,30.4,69,0.0,981.2,9.0,33.5,149,108.7,84.1,22.9,419.0,119.0,17.6,3,5,7,1,2026-05-17T21:35:05.126431+05:30
Raipur,Chhattisgarh,21.2514,81.6296,32.7,48,0.0,970.7,9.0,32.4,113,55.6,48.9,34.3,433.0,70.0,37.8,0,5,7,1,2026-05-17T21:35:05.126438+05:30
Bhilai,Chhattisgarh,21.1938,81.3509,32.5,50,0.0,970.9,9.0,31.7,101,49.6,44.9,40.1,388.0,56.0,42.8,0,5,7,1,2026-05-17T21:35:05.126444+05:30
Guwahati,Assam,26.1158,91.7086,22.8,99,0.1,999.5,8.75,25.2,79,23.3,18.6,6.7,389.0,78.0,3.4,6,5,7,1,2026-05-17T21:35:05.126452+05:30
Agartala,Tripura,23.8315,91.2868,27.6,84,0.0,1003.0,8.9,28.8,69,33.2,29.3,22.5,256.0,30.0,4.0,7,5,4,1,2026-05-17T21:35:05.126459+05:30
Shillong,Meghalaya,25.5788,91.8933,17.4,97,0.0,854.5,9.15,45.4,59,14.9,12.0,6.6,268.0,81.0,4.0,3,10,7,1,2026-05-17T21:35:05.126467+05:30
Imphal,Manipur,24.817,93.9368,21.6,97,0.0,920.8,9.0,31.0,71,52.9,42.1,21.7,709.0,44.0,6.9,3,5,7,1,2026-05-17T21:35:05.126473+05:30
Aizawl,Mizoram,23.7271,92.7176,20.5,88,0.0,890.4,9.05,28.8,53,28.6,17.9,5.2,219.0,72.0,3.1,3,5,7,1,2026-05-17T21:35:05.126480+05:30
Kohima,Nagaland,25.6701,94.1077,17.3,93,0.0,852.6,8.7,29.9,61,32.0,20.8,12.2,336.0,43.0,2.6,3,10,7,1,2026-05-17T21:35:05.126488+05:30
Gangtok,Sikkim,27.3314,88.6138,15.4,98,0.2,834.1,9.1,38.2,70,27.2,23.0,15.2,403.0,80.0,2.3,6,10,7,0,2026-05-17T21:35:05.126494+05:30
Siliguri,West Bengal,26.7271,88.3953,23.9,96,0.0,989.4,8.7,31.0,92,37.1,31.7,14.7,502.0,98.0,5.5,3,5,7,1,2026-05-17T21:35:08.406235+05:30
Durgapur,West Bengal,23.5204,87.3119,29.2,81,0.0,990.3,8.95,35.6,125,68.7,60.5,22.2,452.0,120.0,44.7,7,5,7,1,2026-05-17T21:35:08.406266+05:30
Asansol,West Bengal,23.6739,86.9524,29.8,67,0.0,988.5,9.0,38.2,126,65.0,56.5,27.8,376.0,91.0,48.8,7,5,7,1,2026-05-17T21:35:08.406277+05:30
Pondicherry,Puducherry,11.9139,79.8145,29.2,82,0.0,1006.4,9.05,43.2,92,21.1,15.4,7.0,268.0,98.0,7.0,7,5,4,1,2026-05-17T21:35:08.406286+05:30
Port Blair,Andaman and Nicobar Islands,11.6234,92.7265,26.5,95,0.0,1006.7,2.0,41.0,26,4.4,2.6,0.3,103.0,46.0,0.2,7,5,0,1,2026-05-17T21:35:08.406294+05:30
Haridwar,Uttarakhand,29.9457,78.1642,29.2,42,0.0,967.1,7.5,34.6,122,21.4,19.8,10.4,352.0,106.0,9.4,4,5,7,0,2026-05-17T21:35:08.406303+05:30
Rishikesh,Uttarakhand,30.0869,78.2676,27.5,49,0.0,959.9,7.65,32.4,137,34.1,18.6,9.2,332.0,126.0,8.2,4,5,7,0,2026-05-17T21:35:08.406311+05:30
Nainital,Uttarakhand,29.3919,79.4542,16.2,66,0.0,801.7,8.5,38.9,136,73.6,23.5,6.4,275.0,129.0,6.3,3,5,7,0,2026-05-17T21:35:08.406319+05:30
Mussoorie,Uttarakhand,30.4599,78.0664,16.2,64,0.0,798.8,8.05,55.1,129,23.7,20.0,16.9,341.0,110.0,9.0,3,5,7,0,2026-05-17T21:35:08.406327+05:30
Dharamshala,Himachal Pradesh,32.219,76.3234,21.8,50,0.0,865.7,8.4,44.3,81,19.0,15.8,11.6,269.0,61.0,1.4,0,5,7,0,2026-05-17T21:35:08.406334+05:30
Dalhousie,Himachal Pradesh,32.5387,75.971,16.4,62,0.0,801.9,8.65,38.5,118,33.3,26.3,24.1,417.0,87.0,3.5,3,5,7,0,2026-05-17T21:35:08.406342+05:30
Patiala,Punjab,30.3398,76.3869,31.9,33,0.0,972.5,7.6,45.7,585,735.7,124.8,8.1,360.0,94.0,7.2,0,5,7,0,2026-05-17T21:35:08.406349+05:30
Bhatinda,Punjab,30.211,74.9455,32.2,43,0.0,978.4,8.25,38.2,85,49.1,30.9,9.6,361.0,85.0,7.4,0,5,7,1,2026-05-17T21:35:08.406356+05:30
Rohtak,Haryana,28.8955,76.6066,32.5,33,0.0,975.8,7.75,46.8,811,888.5,165.8,17.9,408.0,73.0,8.3,0,5,7,0,2026-05-17T21:35:08.406364+05:30
Panipat,Haryana,29.3909,76.9635,32.5,31,0.0,974.4,7.6,50.0,1746,1791.9,291.5,11.4,335.0,84.0,8.3,0,5,7,0,2026-05-17T21:35:08.406371+05:30
Mathura,Uttar Pradesh,27.4924,77.6737,34.0,30,0.0,980.7,8.0,43.6,662,750.6,136.0,13.5,344.0,69.0,6.4,0,5,7,0,2026-05-17T21:35:08.406378+05:30
Vrindavan,Uttar Pradesh,27.5823,77.7027,32.7,34,0.0,981.1,7.95,41.4,662,750.6,136.0,13.5,357.0,69.0,6.4,0,5,7,0,2026-05-17T21:35:08.406385+05:30
Ayodhya,Uttar Pradesh,26.7922,82.1998,30.5,56,0.0,988.7,8.35,39.2,145,151.3,57.5,13.0,420.0,89.0,10.3,0,5,7,1,2026-05-17T21:35:08.406391+05:30
Ratlam,Madhya Pradesh,23.3315,75.0367,33.7,23,0.0,950.8,8.55,36.4,67,48.9,24.4,3.8,188.0,85.0,4.6,0,5,7,0,2026-05-17T21:35:08.406398+05:30
Sagar,Madhya Pradesh,23.8388,78.7378,34.0,24,0.0,946.5,8.75,44.6,80,100.1,29.7,7.5,239.0,91.0,4.1,0,5,7,0,2026-05-17T21:35:08.406406+05:30
Satna,Madhya Pradesh,24.6005,80.8322,33.4,26,0.0,966.8,8.75,47.9,103,117.3,33.8,13.4,282.0,77.0,3.6,0,5,7,0,2026-05-17T21:35:08.406413+05:30
Akola,Maharashtra,20.7002,77.0082,36.8,17,0.0,970.7,8.9,33.8,84,20.3,15.9,11.8,236.0,84.0,6.2,0,5,10,0,2026-05-17T21:35:08.406421+05:30
Amravati,Maharashtra,20.9374,77.7796,36.9,19,0.0,963.3,8.95,28.1,86,30.3,25.1,25.2,288.0,67.0,8.0,0,5,10,0,2026-05-17T21:35:08.406430+05:30
Latur,Maharashtra,18.4088,76.5604,33.5,25,0.0,936.6,9.1,37.8,98,28.4,23.2,15.4,320.0,84.0,8.4,0,5,7,0,2026-05-17T21:35:08.406437+05:30
Nanded,Maharashtra,19.1383,77.3091,34.7,29,0.0,964.6,8.95,32.8,90,36.3,32.6,23.7,286.0,77.0,7.9,0,5,7,0,2026-05-17T21:35:08.406445+05:30
Gulbarga,Karnataka,17.3297,76.8343,32.3,48,0.0,956.0,9.1,42.5,118,39.8,31.5,13.8,271.0,99.0,9.7,0,5,7,1,2026-05-17T21:35:08.406452+05:30
Bidar,Karnataka,17.9104,77.5199,31.4,46,0.0,933.3,9.15,33.1,106,45.3,37.3,15.1,316.0,91.0,7.0,0,5,7,1,2026-05-17T21:35:08.406459+05:30
Hospet,Karnataka,15.2689,76.3909,24.5,94,0.5,955.4,9.2,62.6,104,32.2,26.1,17.9,232.0,80.0,10.1,6,5,7,1,2026-05-17T21:35:08.406466+05:30
Tirupur,Tamil Nadu,11.1085,77.3411,25.2,93,0.0,973.5,8.6,52.9,72,17.2,13.9,11.9,196.0,65.0,4.5,7,5,7,1,2026-05-17T21:35:08.406473+05:30
Alappuzha,Kerala,9.4981,76.3388,25.8,98,0.1,1008.2,8.5,24.5,51,15.3,11.8,9.2,127.0,61.0,2.6,10,0,4,1,2026-05-17T21:35:08.406480+05:30
Munnar,Kerala,10.0889,77.0595,18.1,99,0.0,855.9,7.8,25.6,38,6.2,6.1,7.4,159.0,54.0,1.9,3,10,7,1,2026-05-17T21:35:08.406487+05:30
Silchar,Assam,24.8333,92.7789,25.0,100,0.1,1002.8,8.9,27.7,65,13.2,9.9,6.9,401.0,77.0,3.9,10,5,4,1,2026-05-17T21:35:08.406494+05:30
Dibrugarh,Assam,27.4728,94.912,22.5,94,0.0,993.7,5.7,30.2,72,31.4,29.4,18.2,264.0,37.0,2.4,3,5,3,1,2026-05-17T21:35:08.406501+05:30
