city,state,latitude,longitude,temp,humidity,rain,pressure,uv_index,wind_gusts,aqi,pm10,pm2_5,mosquito_risk,arthritis_risk,migraine_risk,frizz_risk,updated_at
Delhi,Delhi,28.6139,77.209,21.8,60,0.0,984.4,6.15,38.9,162,136.4,41.4,0,5,7,0,2026-04-07T02:10:22.297534+05:30
Mumbai,Maharashtra,19.076,72.8777,27.5,68,0.0,1010.9,7.95,22.0,63,31.1,16.6,7,0,4,1,2026-04-07T02:10:22.297576+05:30
Bangalore,Karnataka,12.9716,77.5946,23.7,76,0.0,912.3,9.6,28.1,61,17.1,14.8,3,5,7,1,2026-04-07T02:10:22.297591+05:30
Hyderabad,Telangana,17.385,78.4867,25.9,79,0.0,953.0,9.2,32.8,89,32.1,26.8,7,5,7,1,2026-04-07T02:10:22.297600+05:30
Chennai,Tamil Nadu,13.0827,80.2707,28.2,90,0.0,1007.5,9.35,34.9,61,23.3,17.5,7,5,4,1,2026-04-07T02:10:22.297608+05:30
Kolkata,West Bengal,22.5726,88.3639,24.8,90,0.0,1006.1,8.45,20.5,147,60.1,57.3,3,5,4,1,2026-04-07T02:10:22.297615+05:30
Pune,Maharashtra,18.5204,73.8567,21.0,88,0.0,949.7,8.55,37.4,110,25.6,21.2,3,5,7,1,2026-04-07T02:10:22.297625+05:30
Ahmedabad,Gujarat,23.0225,72.5714,24.8,64,0.0,1003.7,7.9,45.7,57,39.3,16.1,3,5,4,1,2026-04-07T02:10:22.297632+05:30
Jaipur,Rajasthan,26.9124,75.7873,21.2,59,0.0,960.3,4.6,43.2,110,249.6,45.4,0,5,3,0,2026-04-07T02:10:22.297639+05:30
Lucknow,Uttar Pradesh,26.8467,80.9462,22.5,59,0.0,994.9,7.4,24.8,99,218.9,47.6,0,5,7,0,2026-04-07T02:10:22.297645+05:30
Kanpur,Uttar Pradesh,26.4499,80.3319,21.8,71,0.0,992.9,7.25,19.4,139,232.8,51.1,3,5,7,1,2026-04-07T02:10:22.297651+05:30
Chandigarh,Chandigarh,30.7333,76.7794,20.8,55,0.0,969.9,6.65,52.2,61,17.5,16.4,0,5,7,0,2026-04-07T02:10:22.297657+05:30
Srinagar,Jammu and Kashmir,34.0837,74.7973,7.5,92,0.0,837.5,7.7,28.4,88,57.3,53.2,3,10,7,0,2026-04-07T02:10:22.297664+05:30
Jammu,Jammu and Kashmir,32.7266,74.857,19.8,63,0.0,972.8,7.05,51.1,79,30.7,28.5,3,5,7,0,2026-04-07T02:10:22.297671+05:30
Amritsar,Punjab,31.634,74.8723,19.5,67,0.0,980.7,5.85,47.9,97,37.5,33.5,3,5,3,0,2026-04-07T02:10:22.297676+05:30
Ludhiana,Punjab,30.901,75.8573,21.4,54,0.0,979.5,6.15,55.8,104,41.8,38.3,0,5,7,0,2026-04-07T02:10:22.297682+05:30
Jalandhar,Punjab,31.326,75.5762,19.5,66,0.0,980.3,6.5,61.9,94,59.0,51.3,3,5,7,0,2026-04-07T02:10:22.297689+05:30
Dehradun,Uttarakhand,30.6284,78.0322,11.0,73,0.0,829.3,6.75,34.9,42,16.5,12.1,3,5,7,0,2026-04-07T02:10:22.297695+05:30
Shimla,Himachal Pradesh,31.1048,77.1734,9.6,67,0.0,782.4,6.75,57.2,52,13.2,9.9,3,5,7,0,2026-04-07T02:10:22.297700+05:30
Manali,Himachal Pradesh,32.2396,77.1887,10.7,71,0.0,817.1,9.4,31.0,61,9.7,8.6,3,5,7,0,2026-04-07T02:10:22.297706+05:30
Gurgaon,Haryana,28.4595,77.0266,20.0,69,0.0,982.7,5.7,40.3,425,162.1,50.5,3,5,3,0,2026-04-07T02:10:22.297712+05:30
Noida,Uttar Pradesh,28.5355,77.391,21.9,59,0.0,985.9,6.25,40.7,425,162.1,50.5,0,5,7,0,2026-04-07T02:10:22.297718+05:30
Ghaziabad,Uttar Pradesh,28.6692,77.4538,21.3,62,0.0,983.9,6.05,41.4,150,173.2,48.3,3,5,7,0,2026-04-07T02:10:22.297723+05:30
Faridabad,Haryana,28.4089,77.3178,20.8,62,0.0,985.1,6.6,37.8,425,162.1,50.5,3,5,7,0,2026-04-07T02:10:22.297728+05:30
Meerut,Uttar Pradesh,28.9845,77.7064,20.0,69,0.0,982.9,6.15,41.0,150,173.2,48.3,3,5,7,0,2026-04-07T02:10:22.297734+05:30
Agra,Uttar Pradesh,27.1767,78.0081,20.7,74,0.0,989.0,6.3,32.4,351,387.4,69.4,3,5,7,0,2026-04-07T02:10:22.297739+05:30
Varanasi,Uttar Pradesh,25.3176,82.9739,22.4,58,0.0,998.7,8.05,28.4,84,68.5,33.2,0,5,7,0,2026-04-07T02:10:22.297747+05:30
Prayagraj,Uttar Pradesh,25.4358,81.8463,24.3,55,0.0,997.1,7.9,22.7,87,100.8,44.1,0,5,7,0,2026-04-07T02:10:22.297753+05:30
Gorakhpur,Uttar Pradesh,26.7606,83.3732,21.8,63,0.0,998.6,7.85,23.4,70,48.8,27.1,3,5,7,0,2026-04-07T02:10:22.297758+05:30
Bareilly,Uttar Pradesh,28.367,79.4304,19.5,70,0.0,988.7,7.2,28.8,88,142.5,55.5,3,5,7,0,2026-04-07T02:10:22.297763+05:30
Aligarh,Uttar Pradesh,27.8974,78.088,19.9,68,0.0,986.6,6.6,45.0,304,284.1,58.8,3,5,7,0,2026-04-07T02:10:22.297769+05:30
Moradabad,Uttar Pradesh,28.8386,78.7733,20.1,67,0.0,985.3,7.0,42.5,117,170.4,74.5,3,5,7,0,2026-04-07T02:10:22.297774+05:30
Saharanpur,Uttar Pradesh,29.9637,77.546,19.6,62,0.0,977.3,6.45,47.2,103,95.2,57.2,3,5,7,0,2026-04-07T02:10:22.297779+05:30
Jhansi,Uttar Pradesh,25.4484,78.5685,20.2,71,0.0,979.0,7.8,39.2,79,67.5,26.5,3,5,7,0,2026-04-07T02:10:25.599975+05:30
Surat,Gujarat,21.1702,72.8311,26.2,74,0.0,1008.8,7.75,38.2,73,26.7,18.6,7,0,4,1,2026-04-07T02:10:25.600003+05:30
Vadodara,Gujarat,22.3072,73.1812,25.9,70,0.0,1006.0,8.0,41.4,61,16.2,11.9,7,5,4,1,2026-04-07T02:10:25.600012+05:30
Rajkot,Gujarat,22.3039,70.8022,23.5,79,0.0,996.0,7.7,51.1,53,29.7,15.1,3,5,7,1,2026-04-07T02:10:25.600021+05:30
Thane,Maharashtra,19.2183,72.9781,26.0,74,0.0,1010.3,7.95,37.8,63,31.1,16.6,7,0,4,1,2026-04-07T02:10:25.600028+05:30
Nagpur,Maharashtra,21.1458,79.0882,24.4,52,0.0,972.5,8.75,24.8,55,20.7,17.7,0,5,7,0,2026-04-07T02:10:25.600036+05:30
Nashik,Maharashtra,19.9975,73.7898,19.9,86,0.0,946.9,8.2,38.9,52,24.2,13.3,3,10,7,1,2026-04-07T02:10:25.600043+05:30
Aurangabad,Maharashtra,19.8762,75.3433,23.0,64,0.0,945.0,8.9,36.4,54,19.0,14.5,3,5,7,0,2026-04-07T02:10:25.600050+05:30
Solapur,Maharashtra,17.6599,75.9064,25.2,55,0.0,957.9,9.0,25.2,51,15.7,14.2,4,5,7,0,2026-04-07T02:10:25.600057+05:30
Kolhapur,Maharashtra,16.705,74.2433,17.7,91,0.0,948.8,9.05,39.6,61,21.0,17.5,3,10,7,1,2026-04-07T02:10:25.600064+05:30
Goa,Goa,15.2993,74.124,25.6,77,0.0,999.9,9.0,34.2,63,28.9,20.3,7,5,7,1,2026-04-07T02:10:25.600071+05:30
Jodhpur,Rajasthan,26.2389,73.0243,22.6,55,0.0,983.5,7.9,61.9,92,134.1,23.7,0,5,7,0,2026-04-07T02:10:25.600078+05:30
Udaipur,Rajasthan,24.5854,73.7125,21.4,51,0.0,946.2,8.5,56.5,57,23.2,10.1,0,5,7,0,2026-04-07T02:10:25.600084+05:30
Kota,Rajasthan,25.2138,75.8648,24.1,47,0.0,979.4,7.15,46.1,72,82.7,41.8,0,5,7,0,2026-04-07T02:10:25.600091+05:30
Bikaner,Rajasthan,28.0229,73.3119,22.2,54,0.0,980.6,7.65,40.3,58,267.3,55.6,0,5,7,0,2026-04-07T02:10:25.600098+05:30
Ajmer,Rajasthan,26.4499,74.6399,22.2,47,0.0,954.4,7.25,54.4,60,27.9,15.6,0,5,7,0,2026-04-07T02:10:25.600105+05:30
Gwalior,Madhya Pradesh,26.2183,78.1828,20.8,73,0.0,984.8,7.25,47.5,82,283.1,51.8,3,5,7,0,2026-04-07T02:10:25.600111+05:30
Indore,Madhya Pradesh,22.7196,75.8577,21.5,55,0.0,948.5,8.4,39.6,56,20.5,16.5,0,5,7,0,2026-04-07T02:10:25.600118+05:30
Bhopal,Madhya Pradesh,23.2599,77.4126,23.2,43,0.0,954.2,8.4,38.2,51,37.7,23.2,0,5,7,0,2026-04-07T02:10:25.600125+05:30
Jabalpur,Madhya Pradesh,23.1815,79.9864,24.7,46,0.0,961.7,8.5,36.7,59,44.6,32.6,0,5,7,0,2026-04-07T02:10:25.600131+05:30
Ujjain,Madhya Pradesh,23.1765,75.7885,21.7,55,0.0,954.4,8.3,40.0,51,19.3,15.1,0,5,7,0,2026-04-07T02:10:25.600138+05:30
Visakhapatnam,Andhra Pradesh,17.6868,83.2185,26.5,91,0.0,1003.8,9.1,37.8,96,31.2,27.3,7,5,4,1,2026-04-07T02:10:25.600145+05:30
Vijayawada,Andhra Pradesh,16.5062,80.648,26.9,90,0.0,1002.8,9.2,33.1,69,21.1,18.8,7,5,4,1,2026-04-07T02:10:25.600151+05:30
Guntur,Andhra Pradesh,16.3067,80.4365,27.2,91,0.0,1003.9,9.2,29.9,79,21.8,19.8,7,5,4,1,2026-04-07T02:10:25.600158+05:30
Nellore,Andhra Pradesh,14.4426,79.9865,27.6,90,0.0,1005.9,9.3,37.8,75,21.0,17.5,7,5,4,1,2026-04-07T02:10:25.600166+05:30
Kurnool,Andhra Pradesh,15.8281,78.0373,27.9,34,0.0,976.4,9.2,25.2,72,27.9,22.1,4,5,7,0,2026-04-07T02:10:25.600173+05:30
Kakinada,Andhra Pradesh,16.9891,82.2475,26.3,94,0.0,1007.6,9.15,28.1,57,19.9,14.9,7,5,4,1,2026-04-07T02:10:25.600180+05:30
Tirupati,Andhra Pradesh,13.6288,79.4192,26.7,91,0.0,992.2,9.4,29.2,97,33.5,32.0,7,5,7,1,2026-04-07T02:10:25.600187+05:30
Warangal,Telangana,17.9689,79.5941,27.0,83,0.0,978.6,9.05,29.5,112,53.6,48.7,7,5,7,1,2026-04-07T02:10:25.600193+05:30
Nizamabad,Telangana,18.6725,78.0941,26.1,52,0.0,964.6,9.0,29.9,67,26.0,21.3,4,5,7,0,2026-04-07T02:10:25.600199+05:30
Mysore,Karnataka,12.2958,76.6396,22.1,89,0.0,929.3,9.55,38.5,62,17.9,14.9,3,5,7,1,2026-04-07T02:10:25.600205+05:30
Mangalore,Karnataka,12.9141,74.856,28.8,73,0.0,1008.5,9.15,34.6,60,31.4,17.9,7,0,4,1,2026-04-07T02:10:25.600210+05:30
Hubli-Dharwad,Karnataka,15.3647,75.124,19.4,87,0.0,941.4,9.2,36.7,46,21.2,13.7,3,10,7,1,2026-04-07T02:10:25.600216+05:30
Belgaum,Karnataka,15.8497,74.4977,17.9,90,0.0,925.9,9.25,33.5,57,22.9,18.3,3,10,7,1,2026-04-07T02:10:28.902625+05:30
Coimbatore,Tamil Nadu,11.0168,76.9558,24.6,78,0.0,962.5,9.35,56.5,68,28.8,21.9,3,5,7,1,2026-04-07T02:10:28.902652+05:30
Madurai,Tamil Nadu,9.9252,78.1198,27.7,89,0.0,993.5,8.05,31.0,85,28.5,26.8,7,5,7,1,2026-04-07T02:10:28.902661+05:30
Trichy,Tamil Nadu,10.7905,78.7047,26.8,87,0.0,1000.0,9.05,30.2,86,34.9,33.1,7,5,4,1,2026-04-07T02:10:28.902678+05:30
Salem,Tamil Nadu,11.6643,78.146,27.8,74,0.0,978.1,9.45,32.0,69,25.0,21.8,7,5,7,1,2026-04-07T02:10:28.902685+05:30
Tirunelveli,Tamil Nadu,8.7139,77.7567,27.5,78,0.0,1003.4,8.75,24.1,59,28.0,21.6,7,5,4,1,2026-04-07T02:10:28.902691+05:30
Vellore,Tamil Nadu,12.9165,79.1325,26.9,85,0.0,985.2,9.45,28.8,108,40.7,38.9,7,5,7,1,2026-04-07T02:10:28.902698+05:30
Erode,Tamil Nadu,11.341,77.7172,28.5,66,0.0,989.6,9.45,38.9,66,23.2,18.7,7,5,7,1,2026-04-07T02:10:28.902704+05:30
Kochi,Kerala,9.9312,76.2673,29.2,74,0.0,1010.1,8.9,42.1,68,29.6,22.0,7,0,4,1,2026-04-07T02:10:28.902710+05:30
Thiruvananthapuram,Kerala,8.5241,76.9366,29.0,80,0.0,1008.8,8.8,52.9,60,30.9,18.1,7,0,4,1,2026-04-07T02:10:28.902716+05:30
Kozhikode,Kerala,11.2588,75.7804,28.7,76,0.0,1009.5,9.15,38.2,61,27.4,15.3,7,0,4,1,2026-04-07T02:10:28.902722+05:30
Thrissur,Kerala,10.5276,76.2144,27.5,80,0.0,1008.5,9.2,41.8,68,31.8,21.5,7,0,4,1,2026-04-07T02:10:28.902729+05:30
Kannur,Kerala,11.8745,75.3704,27.6,79,0.0,1009.0,9.15,40.3,58,24.4,14.5,7,0,4,1,2026-04-07T02:10:28.902735+05:30
Patna,Bihar,25.5941,85.1376,24.1,62,0.0,1001.3,8.2,24.5,73,41.3,32.6,3,5,4,1,2026-04-07T02:10:28.902741+05:30
Gaya,Bihar,24.7914,85.0002,23.4,72,0.0,994.9,8.3,23.4,69,40.5,32.2,3,5,7,1,2026-04-07T02:10:28.902746+05:30
Muzaffarpur,Bihar,26.1209,85.3647,22.5,67,0.0,1001.3,8.15,22.0,76,52.4,41.8,3,5,4,1,2026-04-07T02:10:28.902751+05:30
Bhagalpur,Bihar,25.2425,87.0117,22.6,76,0.0,1002.2,8.05,25.2,64,26.5,20.1,3,5,4,1,2026-04-07T02:10:28.902757+05:30
Ranchi,Jharkhand,23.3441,85.3096,20.2,83,0.0,938.1,8.9,36.0,74,32.6,23.1,3,5,7,1,2026-04-07T02:10:28.902762+05:30
Jamshedpur,Jharkhand,22.8046,86.2029,22.9,86,0.1,992.0,8.75,25.2,110,43.3,36.3,6,5,7,1,2026-04-07T02:10:28.902768+05:30
Dhanbad,Jharkhand,23.7957,86.4304,23.6,73,0.0,980.5,8.65,32.8,125,96.4,85.9,3,5,7,1,2026-04-07T02:10:28.902774+05:30
Bokaro,Jharkhand,23.6693,86.1511,22.8,80,0.0,984.8,8.65,33.1,109,75.4,65.0,3,5,7,1,2026-04-07T02:10:28.902780+05:30
Bhubaneswar,Odisha,20.2961,85.8245,24.5,95,0.0,1002.7,8.95,39.6,74,43.0,40.5,3,5,4,1,2026-04-07T02:10:28.902786+05:30
Cuttack,Odisha,20.4625,85.8828,24.1,95,0.0,1004.5,9.0,34.9,74,43.0,40.5,3,5,4,1,2026-04-07T02:10:28.902815+05:30
Rourkela,Odisha,22.2604,84.8536,21.2,87,0.0,987.6,8.7,25.2,106,43.5,37.4,3,5,7,1,2026-04-07T02:10:28.902828+05:30
Raipur,Chhattisgarh,21.2514,81.6296,25.2,72,0.0,974.2,8.8,26.3,116,58.8,51.1,7,5,7,1,2026-04-07T02:10:28.902834+05:30
Bhilai,Chhattisgarh,21.1938,81.3509,25.2,75,0.0,974.5,8.8,24.1,115,61.5,55.5,7,5,7,1,2026-04-07T02:10:28.902849+05:30
Guwahati,Assam,26.1158,91.7086,23.7,83,0.0,1001.7,6.8,29.2,98,40.4,37.3,3,5,4,1,2026-04-07T02:10:28.902855+05:30
Agartala,Tripura,23.8315,91.2868,25.5,84,0.0,1005.9,8.0,30.2,160,103.6,98.3,7,5,4,1,2026-04-07T02:10:28.902861+05:30
Shillong,Meghalaya,25.5788,91.8933,13.6,84,0.0,855.3,5.0,36.7,89,41.2,37.0,3,10,3,0,2026-04-07T02:10:28.902867+05:30
Imphal,Manipur,24.817,93.9368,18.5,75,0.0,923.2,3.6,42.5,119,55.2,49.8,3,5,3,0,2026-04-07T02:10:28.902873+05:30
Aizawl,Mizoram,23.7271,92.7176,18.9,78,0.0,892.1,5.35,52.2,130,58.8,52.6,3,5,3,0,2026-04-07T02:10:28.902879+05:30
Kohima,Nagaland,25.6701,94.1077,16.3,69,0.0,854.8,3.8,61.6,84,38.8,33.3,3,5,3,0,2026-04-07T02:10:28.902884+05:30
Gangtok,Sikkim,27.3314,88.6138,11.9,68,0.0,836.0,8.45,24.1,59,25.6,21.8,3,5,7,0,2026-04-07T02:10:28.902890+05:30
Siliguri,West Bengal,26.7271,88.3953,21.2,60,0.0,994.5,8.1,24.1,79,37.4,33.5,0,5,7,0,2026-04-07T02:10:32.217949+05:30
Durgapur,West Bengal,23.5204,87.3119,24.0,86,0.0,995.8,8.6,28.4,128,76.6,68.0,3,5,7,1,2026-04-07T02:10:32.217975+05:30
Asansol,West Bengal,23.6739,86.9524,25.2,80,0.0,994.3,8.65,14.8,120,73.3,64.7,7,5,7,1,2026-04-07T02:10:32.217984+05:30
Pondicherry,Puducherry,11.9139,79.8145,26.6,94,0.0,1008.8,8.85,26.6,71,26.7,21.8,7,0,4,1,2026-04-07T02:10:32.217991+05:30
Port Blair,Andaman and Nicobar Islands,11.6234,92.7265,28.5,73,0.0,1007.7,9.2,13.3,28,9.2,5.9,7,5,4,1,2026-04-07T02:10:32.217998+05:30
Haridwar,Uttarakhand,29.9457,78.1642,19.7,67,0.0,976.3,6.2,44.6,65,32.9,27.8,3,5,7,0,2026-04-07T02:10:32.218004+05:30
Rishikesh,Uttarakhand,30.0869,78.2676,20.0,61,0.0,969.2,6.25,31.0,52,25.6,17.9,3,5,7,0,2026-04-07T02:10:32.218010+05:30
Nainital,Uttarakhand,29.3919,79.4542,15.1,57,0.0,805.8,5.9,34.6,55,15.4,11.4,0,5,3,0,2026-04-07T02:10:32.218016+05:30
Mussoorie,Uttarakhand,30.4599,78.0664,13.4,59,0.0,802.2,6.6,38.9,60,29.6,25.0,0,5,7,0,2026-04-07T02:10:32.218022+05:30
Dharamshala,Himachal Pradesh,32.219,76.3234,16.7,53,0.0,868.3,7.4,43.2,47,8.6,6.8,0,5,7,0,2026-04-07T02:10:32.218028+05:30
Dalhousie,Himachal Pradesh,32.5387,75.971,12.8,57,0.0,801.7,5.85,43.2,60,24.9,23.2,0,5,3,0,2026-04-07T02:10:32.218034+05:30
Patiala,Punjab,30.3398,76.3869,19.9,59,0.0,979.2,5.9,47.5,108,52.9,44.8,0,5,3,0,2026-04-07T02:10:32.218039+05:30
Bhatinda,Punjab,30.211,74.9455,20.1,74,0.0,984.0,6.3,63.7,89,34.0,27.0,3,5,7,0,2026-04-07T02:10:32.218044+05:30
Rohtak,Haryana,28.8955,76.6066,19.9,70,0.0,982.9,5.0,45.4,183,122.9,41.4,3,5,3,0,2026-04-07T02:10:32.218050+05:30
Panipat,Haryana,29.3909,76.9635,19.3,69,0.0,981.6,5.85,42.8,322,369.7,62.9,3,5,3,0,2026-04-07T02:10:32.218055+05:30
Mathura,Uttar Pradesh,27.4924,77.6737,22.0,64,0.0,987.9,6.1,36.7,329,184.9,52.0,3,5,7,0,2026-04-07T02:10:32.218061+05:30
Vrindavan,Uttar Pradesh,27.5823,77.7027,20.4,69,0.0,988.3,5.7,36.0,329,184.9,52.0,3,5,3,0,2026-04-07T02:10:32.218066+05:30
Ayodhya,Uttar Pradesh,26.7922,82.1998,21.8,57,0.0,996.7,7.6,26.6,84,139.2,35.3,0,5,7,0,2026-04-07T02:10:32.218071+05:30
Ratlam,Madhya Pradesh,23.3315,75.0367,22.6,56,0.0,955.5,8.25,41.8,69,18.7,13.6,0,5,7,0,2026-04-07T02:10:32.218077+05:30
Sagar,Madhya Pradesh,23.8388,78.7378,23.2,57,0.0,950.5,8.35,33.8,51,41.3,16.5,0,5,7,0,2026-04-07T02:10:32.218082+05:30
Satna,Madhya Pradesh,24.6005,80.8322,24.2,48,0.0,972.3,8.0,18.7,72,71.7,24.2,0,5,7,0,2026-04-07T02:10:32.218087+05:30
Akola,Maharashtra,20.7002,77.0082,25.3,50,0.0,975.6,8.7,31.0,74,21.4,17.3,4,5,7,0,2026-04-07T02:10:32.218093+05:30
Amravati,Maharashtra,20.9374,77.7796,24.8,54,0.0,967.4,8.7,28.8,71,22.8,18.6,0,5,7,0,2026-04-07T02:10:32.218099+05:30
Latur,Maharashtra,18.4088,76.5604,22.7,54,0.0,939.7,9.0,27.4,58,32.4,25.4,0,5,7,0,2026-04-07T02:10:32.218105+05:30
Nanded,Maharashtra,19.1383,77.3091,23.8,56,0.0,968.5,8.85,24.8,57,29.0,23.7,0,5,7,0,2026-04-07T02:10:32.218110+05:30
Gulbarga,Karnataka,17.3297,76.8343,27.0,36,0.0,959.0,9.05,28.1,50,11.1,9.4,4,5,7,0,2026-04-07T02:10:32.218115+05:30
Bidar,Karnataka,17.9104,77.5199,25.2,40,0.0,935.2,9.05,33.1,67,26.4,21.8,4,5,7,0,2026-04-07T02:10:32.218120+05:30
Hospet,Karnataka,15.2689,76.3909,25.0,67,0.0,956.8,9.25,29.5,43,16.5,11.9,7,5,7,1,2026-04-07T02:10:32.218126+05:30
Tirupur,Tamil Nadu,11.1085,77.3411,26.0,76,0.0,975.7,9.5,47.5,71,27.0,22.3,7,5,7,1,2026-04-07T02:10:32.218131+05:30
Alappuzha,Kerala,9.4981,76.3388,29.4,75,0.0,1010.1,8.65,41.8,68,31.9,20.1,7,0,4,1,2026-04-07T02:10:32.218136+05:30
Munnar,Kerala,10.0889,77.0595,20.6,99,0.0,857.8,9.75,39.2,60,31.5,24.6,3,5,7,1,2026-04-07T02:10:32.218142+05:30
Silchar,Assam,24.8333,92.7789,24.1,82,0.0,1004.7,6.7,27.4,153,68.7,60.1,3,5,4,1,2026-04-07T02:10:32.218147+05:30
Dibrugarh,Assam,27.4728,94.912,21.8,88,0.0,996.5,5.55,25.2,89,13.0,11.1,3,5,3,1,2026-04-07T02:10:32.218152+05:30
