city,state,latitude,longitude,temp,humidity,rain,pressure,uv_index,wind_gusts,aqi,pm10,pm2_5,mosquito_risk,arthritis_risk,migraine_risk,frizz_risk,updated_at
Delhi,Delhi,28.6139,77.209,23.3,58,0.0,987.6,5.85,23.8,160,114.8,53.2,0,5,3,0,2026-03-21T19:17:11.234599+05:30
Mumbai,Maharashtra,19.076,72.8777,27.8,67,0.0,1009.2,7.9,28.8,118,35.7,23.6,7,0,4,1,2026-03-21T19:17:11.234646+05:30
Bangalore,Karnataka,12.9716,77.5946,28.4,44,0.0,912.2,9.4,21.2,169,41.6,32.5,4,5,7,0,2026-03-21T19:17:11.234664+05:30
Hyderabad,Telangana,17.385,78.4867,29.6,44,0.0,954.0,8.85,31.0,169,36.3,26.1,4,5,7,1,2026-03-21T19:17:11.234675+05:30
Chennai,Tamil Nadu,13.0827,80.2707,28.2,76,0.0,1008.2,9.1,35.6,37,13.6,8.8,7,0,4,1,2026-03-21T19:17:11.234685+05:30
Kolkata,West Bengal,22.5726,88.3639,22.9,82,0.0,1009.7,7.5,19.8,63,29.0,27.4,3,0,4,1,2026-03-21T19:17:11.234694+05:30
Pune,Maharashtra,18.5204,73.8567,28.4,48,0.0,948.9,8.4,28.8,93,36.3,16.5,4,5,7,1,2026-03-21T19:17:11.234706+05:30
Ahmedabad,Gujarat,23.0225,72.5714,30.8,30,0.0,1004.3,7.6,15.1,125,25.7,15.5,0,5,4,0,2026-03-21T19:17:11.234715+05:30
Jaipur,Rajasthan,26.9124,75.7873,24.4,54,0.0,963.7,6.75,36.4,94,78.9,22.6,0,5,7,0,2026-03-21T19:17:11.234723+05:30
Lucknow,Uttar Pradesh,26.8467,80.9462,22.7,67,0.0,998.6,6.25,24.5,108,48.5,26.9,3,5,7,1,2026-03-21T19:17:11.234732+05:30
Kanpur,Uttar Pradesh,26.4499,80.3319,21.8,67,0.0,996.7,6.7,25.6,112,278.5,46.4,3,5,7,0,2026-03-21T19:17:11.234740+05:30
Chandigarh,Chandigarh,30.7333,76.7794,19.5,72,0.0,973.1,6.35,28.4,101,33.6,28.8,3,5,7,0,2026-03-21T19:17:11.234747+05:30
Srinagar,Jammu and Kashmir,34.0837,74.7973,12.5,52,0.0,842.1,6.7,14.0,144,35.5,31.3,0,5,7,0,2026-03-21T19:17:11.234754+05:30
Jammu,Jammu and Kashmir,32.7266,74.857,21.8,62,0.0,977.7,6.45,16.9,93,41.9,29.7,3,5,7,0,2026-03-21T19:17:11.234761+05:30
Amritsar,Punjab,31.634,74.8723,21.0,63,0.0,986.0,6.1,15.8,105,56.7,44.9,3,5,7,0,2026-03-21T19:17:11.234768+05:30
Ludhiana,Punjab,30.901,75.8573,20.8,65,0.0,983.7,6.0,23.0,154,47.0,38.8,3,5,3,0,2026-03-21T19:17:11.234776+05:30
Jalandhar,Punjab,31.326,75.5762,20.9,65,0.0,985.0,6.3,20.5,138,46.0,33.4,3,5,7,0,2026-03-21T19:17:11.234785+05:30
Dehradun,Uttarakhand,30.6284,78.0322,12.2,79,0.0,830.4,6.7,22.7,93,17.8,13.6,3,5,7,0,2026-03-21T19:17:11.234792+05:30
Shimla,Himachal Pradesh,31.1048,77.1734,9.7,84,0.0,783.8,6.6,33.5,87,26.9,20.8,3,10,7,0,2026-03-21T19:17:11.234800+05:30
Manali,Himachal Pradesh,32.2396,77.1887,12.8,63,0.0,818.4,8.65,22.0,113,11.8,7.5,3,5,7,0,2026-03-21T19:17:11.234807+05:30
Gurgaon,Haryana,28.4595,77.0266,22.0,69,0.0,986.0,6.1,20.5,171,279.4,76.4,3,5,7,1,2026-03-21T19:17:11.234814+05:30
Noida,Uttar Pradesh,28.5355,77.391,23.2,59,0.0,989.1,6.15,22.7,171,279.4,76.4,0,5,7,0,2026-03-21T19:17:11.234821+05:30
Ghaziabad,Uttar Pradesh,28.6692,77.4538,22.2,64,0.0,987.2,5.85,21.6,158,82.9,43.5,3,5,3,0,2026-03-21T19:17:11.234827+05:30
Faridabad,Haryana,28.4089,77.3178,22.3,63,0.0,988.3,6.4,20.9,171,279.4,76.4,3,5,7,0,2026-03-21T19:17:11.234833+05:30
Meerut,Uttar Pradesh,28.9845,77.7064,20.9,68,0.0,985.8,6.15,22.0,158,82.9,43.5,3,5,7,0,2026-03-21T19:17:11.234839+05:30
Agra,Uttar Pradesh,27.1767,78.0081,23.5,49,0.0,992.4,6.8,28.1,161,692.9,92.0,0,5,7,0,2026-03-21T19:17:11.234846+05:30
Varanasi,Uttar Pradesh,25.3176,82.9739,21.8,72,0.0,1002.6,5.1,26.3,103,48.1,32.5,3,5,0,1,2026-03-21T19:17:11.234860+05:30
Prayagraj,Uttar Pradesh,25.4358,81.8463,21.9,75,0.0,1001.1,7.35,25.2,100,38.1,26.5,3,5,4,1,2026-03-21T19:17:11.234867+05:30
Gorakhpur,Uttar Pradesh,26.7606,83.3732,19.4,90,0.0,1002.7,5.7,17.3,113,36.4,33.4,3,10,0,1,2026-03-21T19:17:11.234874+05:30
Bareilly,Uttar Pradesh,28.367,79.4304,20.6,77,0.0,991.6,6.6,18.0,140,22.6,19.0,3,5,7,1,2026-03-21T19:17:11.234882+05:30
Aligarh,Uttar Pradesh,27.8974,78.088,21.6,66,0.0,990.1,6.5,20.2,161,320.4,62.9,3,5,7,0,2026-03-21T19:17:11.234889+05:30
Moradabad,Uttar Pradesh,28.8386,78.7733,21.9,68,0.0,988.2,6.45,18.4,149,36.7,29.7,3,5,7,0,2026-03-21T19:17:11.234895+05:30
Saharanpur,Uttar Pradesh,29.9637,77.546,20.3,67,0.0,979.9,6.1,27.0,150,63.6,36.3,3,5,7,0,2026-03-21T19:17:11.234901+05:30
Jhansi,Uttar Pradesh,25.4484,78.5685,24.4,45,0.0,982.3,7.4,24.5,89,32.2,18.9,0,5,7,0,2026-03-21T19:17:14.448113+05:30
Surat,Gujarat,21.1702,72.8311,27.6,48,0.0,1008.3,7.55,28.1,110,34.2,30.5,4,0,4,0,2026-03-21T19:17:14.448150+05:30
Vadodara,Gujarat,22.3072,73.1812,30.3,33,0.0,1006.0,7.55,15.5,101,19.6,13.1,0,5,4,0,2026-03-21T19:17:14.448160+05:30
Rajkot,Gujarat,22.3039,70.8022,30.0,39,0.0,996.1,7.05,20.5,87,34.8,13.0,4,5,7,0,2026-03-21T19:17:14.448169+05:30
Thane,Maharashtra,19.2183,72.9781,27.5,59,0.0,1008.6,7.85,42.8,118,35.7,23.6,4,0,4,1,2026-03-21T19:17:14.448176+05:30
Nagpur,Maharashtra,21.1458,79.0882,29.3,29,0.0,974.8,8.3,24.8,89,20.5,13.6,4,5,7,0,2026-03-21T19:17:14.448183+05:30
Nashik,Maharashtra,19.9975,73.7898,27.5,32,0.0,946.4,8.05,22.7,95,10.9,7.7,4,5,7,0,2026-03-21T19:17:14.448191+05:30
Aurangabad,Maharashtra,19.8762,75.3433,28.9,27,0.0,945.0,8.6,24.5,102,16.0,11.8,4,5,7,0,2026-03-21T19:17:14.448198+05:30
Solapur,Maharashtra,17.6599,75.9064,31.1,30,0.0,957.2,8.75,27.7,119,32.0,17.8,0,5,7,0,2026-03-21T19:17:14.448205+05:30
Kolhapur,Maharashtra,16.705,74.2433,26.6,40,0.0,948.2,8.85,28.8,86,38.0,25.7,4,5,7,0,2026-03-21T19:17:14.448212+05:30
Goa,Goa,15.2993,74.124,28.3,72,0.0,998.3,8.85,35.3,110,43.9,24.2,7,5,7,1,2026-03-21T19:17:14.448219+05:30
Jodhpur,Rajasthan,26.2389,73.0243,27.1,40,0.0,986.7,6.6,24.1,87,55.3,13.9,4,5,7,0,2026-03-21T19:17:14.448226+05:30
Udaipur,Rajasthan,24.5854,73.7125,25.7,37,0.0,949.3,7.1,11.9,83,22.9,7.8,4,5,7,0,2026-03-21T19:17:14.448232+05:30
Kota,Rajasthan,25.2138,75.8648,26.4,32,0.0,982.2,7.5,22.0,95,28.8,16.9,4,5,7,0,2026-03-21T19:17:14.448239+05:30
Bikaner,Rajasthan,28.0229,73.3119,25.8,44,0.0,986.7,6.25,28.4,59,30.5,9.3,4,5,7,0,2026-03-21T19:17:14.448245+05:30
Ajmer,Rajasthan,26.4499,74.6399,25.1,41,0.0,957.9,7.4,25.2,90,38.6,13.4,4,5,7,0,2026-03-21T19:17:14.448251+05:30
Gwalior,Madhya Pradesh,26.2183,78.1828,25.2,51,0.0,987.6,7.1,25.6,109,97.1,29.9,4,5,7,0,2026-03-21T19:17:14.448257+05:30
Indore,Madhya Pradesh,22.7196,75.8577,24.8,39,0.0,950.4,7.95,22.7,82,20.1,12.4,0,5,7,0,2026-03-21T19:17:14.448264+05:30
Bhopal,Madhya Pradesh,23.2599,77.4126,24.6,34,0.0,956.6,7.9,23.8,83,17.3,10.3,0,5,7,0,2026-03-21T19:17:14.448270+05:30
Jabalpur,Madhya Pradesh,23.1815,79.9864,24.4,42,0.0,964.9,8.0,31.3,75,18.3,11.8,0,5,7,0,2026-03-21T19:17:14.448276+05:30
Ujjain,Madhya Pradesh,23.1765,75.7885,25.8,42,0.0,956.4,7.75,19.4,79,27.4,17.2,4,5,7,0,2026-03-21T19:17:14.448283+05:30
Visakhapatnam,Andhra Pradesh,17.6868,83.2185,26.1,81,0.0,1005.6,8.8,35.3,74,15.4,12.3,7,5,4,1,2026-03-21T19:17:14.448289+05:30
Vijayawada,Andhra Pradesh,16.5062,80.648,28.8,67,0.0,1004.0,8.85,24.8,60,26.1,20.9,7,5,4,1,2026-03-21T19:17:14.448296+05:30
Guntur,Andhra Pradesh,16.3067,80.4365,27.9,72,0.0,1005.1,8.85,23.8,55,29.1,21.8,7,5,4,1,2026-03-21T19:17:14.448303+05:30
Nellore,Andhra Pradesh,14.4426,79.9865,27.8,76,0.0,1007.1,9.0,35.3,58,16.1,11.4,7,5,4,1,2026-03-21T19:17:14.448310+05:30
Kurnool,Andhra Pradesh,15.8281,78.0373,33.3,29,0.0,976.5,8.9,19.4,151,29.2,20.5,0,5,7,0,2026-03-21T19:17:14.448318+05:30
Kakinada,Andhra Pradesh,16.9891,82.2475,27.3,73,0.0,1009.0,8.85,26.6,40,10.4,7.2,7,0,4,1,2026-03-21T19:17:14.448324+05:30
Tirupati,Andhra Pradesh,13.6288,79.4192,29.2,62,0.0,992.5,8.85,26.3,97,26.2,21.9,7,5,7,1,2026-03-21T19:17:14.448331+05:30
Warangal,Telangana,17.9689,79.5941,26.4,69,0.0,980.2,8.65,28.4,109,44.8,35.6,7,5,7,1,2026-03-21T19:17:14.448337+05:30
Nizamabad,Telangana,18.6725,78.0941,30.4,40,0.0,965.4,8.6,34.9,88,39.3,23.4,0,5,7,0,2026-03-21T19:17:14.448344+05:30
Mysore,Karnataka,12.2958,76.6396,28.2,51,0.0,928.9,9.4,44.3,168,36.8,27.2,4,5,7,1,2026-03-21T19:17:14.448350+05:30
Mangalore,Karnataka,12.9141,74.856,29.5,73,0.0,1006.8,9.05,29.2,87,30.7,16.4,7,5,4,1,2026-03-21T19:17:14.448356+05:30
Hubli-Dharwad,Karnataka,15.3647,75.124,28.6,38,0.0,940.8,9.05,28.8,133,27.4,18.4,4,5,7,0,2026-03-21T19:17:14.448363+05:30
Belgaum,Karnataka,15.8497,74.4977,26.1,49,0.0,926.0,9.1,36.4,125,23.5,17.2,4,5,7,0,2026-03-21T19:17:17.717667+05:30
Coimbatore,Tamil Nadu,11.0168,76.9558,27.2,65,0.0,961.9,9.35,47.2,152,25.3,18.2,7,5,7,1,2026-03-21T19:17:17.717702+05:30
Madurai,Tamil Nadu,9.9252,78.1198,30.6,60,0.0,993.2,9.3,38.9,108,13.5,9.2,0,5,7,1,2026-03-21T19:17:17.717713+05:30
Trichy,Tamil Nadu,10.7905,78.7047,29.8,66,0.0,1000.0,9.25,29.5,90,15.9,13.5,7,5,4,1,2026-03-21T19:17:17.717721+05:30
Salem,Tamil Nadu,11.6643,78.146,31.1,49,0.0,977.0,9.3,26.6,140,30.3,24.3,0,5,7,1,2026-03-21T19:17:17.717729+05:30
Tirunelveli,Tamil Nadu,8.7139,77.7567,29.3,68,0.0,1003.5,9.3,42.8,138,17.2,15.1,7,5,4,1,2026-03-21T19:17:17.717737+05:30
Vellore,Tamil Nadu,12.9165,79.1325,29.9,53,0.0,985.0,9.2,37.1,103,16.0,13.8,4,5,7,1,2026-03-21T19:17:17.717744+05:30
Erode,Tamil Nadu,11.341,77.7172,32.6,47,0.0,988.3,9.3,24.5,116,21.4,15.8,0,5,7,1,2026-03-21T19:17:17.717750+05:30
Kochi,Kerala,9.9312,76.2673,29.3,71,0.0,1008.9,9.15,33.8,106,24.5,18.8,7,0,4,1,2026-03-21T19:17:17.717758+05:30
Thiruvananthapuram,Kerala,8.5241,76.9366,28.0,80,0.0,1008.7,8.55,24.8,107,25.3,17.9,7,0,4,1,2026-03-21T19:17:17.717765+05:30
Kozhikode,Kerala,11.2588,75.7804,29.4,76,0.0,1008.2,9.05,31.3,78,21.6,14.7,7,0,4,1,2026-03-21T19:17:17.717772+05:30
Thrissur,Kerala,10.5276,76.2144,29.2,68,0.0,1007.3,9.15,38.9,92,17.8,13.5,7,5,4,1,2026-03-21T19:17:17.717780+05:30
Kannur,Kerala,11.8745,75.3704,29.1,76,0.0,1007.4,9.1,34.9,99,24.7,15.2,7,5,4,1,2026-03-21T19:17:17.717788+05:30
Patna,Bihar,25.5941,85.1376,21.0,81,0.0,1005.7,7.2,24.5,141,52.4,48.5,3,5,4,1,2026-03-21T19:17:17.717795+05:30
Gaya,Bihar,24.7914,85.0002,20.9,81,0.0,998.9,7.65,24.8,120,42.4,37.8,3,5,7,1,2026-03-21T19:17:17.717801+05:30
Muzaffarpur,Bihar,26.1209,85.3647,19.1,91,0.0,1005.7,5.2,23.8,147,47.1,44.9,3,10,0,1,2026-03-21T19:17:17.717808+05:30
Bhagalpur,Bihar,25.2425,87.0117,20.3,90,0.1,1006.5,5.85,24.5,123,35.9,33.5,6,5,0,1,2026-03-21T19:17:17.717815+05:30
Ranchi,Jharkhand,23.3441,85.3096,20.2,68,0.0,940.2,8.35,32.0,122,28.2,25.0,3,5,7,0,2026-03-21T19:17:17.717821+05:30
Jamshedpur,Jharkhand,22.8046,86.2029,23.2,71,0.0,994.7,7.75,29.9,122,32.7,29.6,3,5,7,1,2026-03-21T19:17:17.717827+05:30
Dhanbad,Jharkhand,23.7957,86.4304,21.5,73,0.0,984.1,7.6,27.0,151,49.5,46.4,3,5,7,1,2026-03-21T19:17:17.717833+05:30
Bokaro,Jharkhand,23.6693,86.1511,20.7,77,0.0,988.2,5.8,37.4,144,53.8,51.9,3,5,3,1,2026-03-21T19:17:17.717839+05:30
Bhubaneswar,Odisha,20.2961,85.8245,26.0,71,0.0,1004.7,8.55,28.1,158,48.0,42.0,7,5,4,1,2026-03-21T19:17:17.717846+05:30
Cuttack,Odisha,20.4625,85.8828,29.2,48,0.0,1006.0,8.6,25.9,158,48.0,42.0,4,5,4,1,2026-03-21T19:17:17.717852+05:30
Rourkela,Odisha,22.2604,84.8536,27.7,45,0.0,987.0,8.15,29.9,156,49.8,38.1,4,5,7,0,2026-03-21T19:17:17.717858+05:30
Raipur,Chhattisgarh,21.2514,81.6296,28.7,19,0.0,976.4,8.35,31.7,115,38.8,28.3,4,5,7,0,2026-03-21T19:17:17.717864+05:30
Bhilai,Chhattisgarh,21.1938,81.3509,27.5,23,0.0,976.8,8.35,33.8,109,24.3,18.3,4,5,7,0,2026-03-21T19:17:17.717869+05:30
Guwahati,Assam,26.1158,91.7086,22.7,90,0.0,1006.0,2.65,18.7,86,42.1,36.9,3,5,0,1,2026-03-21T19:17:17.717875+05:30
Agartala,Tripura,23.8315,91.2868,22.9,77,0.0,1009.5,5.1,18.4,117,45.8,37.8,3,0,0,1,2026-03-21T19:17:17.717881+05:30
Shillong,Meghalaya,25.5788,91.8933,12.0,92,0.1,856.9,5.05,23.8,81,41.7,29.2,6,10,3,0,2026-03-21T19:17:17.717887+05:30
Imphal,Manipur,24.817,93.9368,17.2,85,0.0,924.9,7.45,35.3,88,46.6,37.4,3,10,7,0,2026-03-21T19:17:17.717894+05:30
Aizawl,Mizoram,23.7271,92.7176,17.2,86,0.0,893.9,5.35,34.6,113,53.6,41.3,3,10,3,0,2026-03-21T19:17:17.717900+05:30
Kohima,Nagaland,25.6701,94.1077,14.0,95,0.0,856.3,7.0,57.2,72,34.0,25.1,3,10,7,0,2026-03-21T19:17:17.717906+05:30
Gangtok,Sikkim,27.3314,88.6138,10.4,96,0.5,838.0,1.95,16.6,108,33.5,25.9,6,10,3,0,2026-03-21T19:17:17.717912+05:30
Siliguri,West Bengal,26.7271,88.3953,17.5,69,0.3,998.7,0.45,29.2,108,65.0,49.5,6,5,3,0,2026-03-21T19:17:20.930487+05:30
Durgapur,West Bengal,23.5204,87.3119,22.6,73,0.3,999.4,7.8,19.1,129,35.3,32.0,6,5,7,1,2026-03-21T19:17:20.930521+05:30
Asansol,West Bengal,23.6739,86.9524,22.5,72,0.0,998.1,6.55,21.2,136,37.5,33.6,3,5,7,1,2026-03-21T19:17:20.930533+05:30
Pondicherry,Puducherry,11.9139,79.8145,27.6,79,0.0,1009.3,9.15,30.6,34,12.5,7.9,7,0,4,1,2026-03-21T19:17:20.930542+05:30
Port Blair,Andaman and Nicobar Islands,11.6234,92.7265,28.7,76,0.0,1008.5,9.1,14.8,51,13.3,9.9,7,0,4,1,2026-03-21T19:17:20.930550+05:30
Haridwar,Uttarakhand,29.9457,78.1642,21.1,68,0.0,978.3,6.2,21.6,103,30.0,25.6,3,5,7,0,2026-03-21T19:17:20.930557+05:30
Rishikesh,Uttarakhand,30.0869,78.2676,21.1,66,0.0,970.9,6.25,20.9,95,19.0,15.5,3,5,7,0,2026-03-21T19:17:20.930564+05:30
Nainital,Uttarakhand,29.3919,79.4542,12.7,89,0.0,806.1,6.9,34.2,71,15.7,12.7,3,10,7,0,2026-03-21T19:17:20.930571+05:30
Mussoorie,Uttarakhand,30.4599,78.0664,12.5,76,0.0,802.7,6.6,26.3,101,25.6,22.2,3,5,7,0,2026-03-21T19:17:20.930578+05:30
Dharamshala,Himachal Pradesh,32.219,76.3234,15.1,78,0.0,870.5,6.6,17.6,91,23.8,15.4,3,5,7,0,2026-03-21T19:17:20.930584+05:30
Dalhousie,Himachal Pradesh,32.5387,75.971,12.7,76,0.0,804.2,6.25,17.3,75,33.2,24.9,3,5,7,0,2026-03-21T19:17:20.930591+05:30
Patiala,Punjab,30.3398,76.3869,20.0,68,0.0,982.8,5.85,23.8,153,215.1,47.0,3,5,3,0,2026-03-21T19:17:20.930598+05:30
Bhatinda,Punjab,30.211,74.9455,21.7,67,0.0,989.0,5.55,18.0,129,78.5,53.2,3,5,3,0,2026-03-21T19:17:20.930605+05:30
Rohtak,Haryana,28.8955,76.6066,21.5,69,0.0,986.4,5.9,22.7,164,125.7,56.9,3,5,3,0,2026-03-21T19:17:20.930611+05:30
Panipat,Haryana,29.3909,76.9635,20.5,73,0.0,984.8,6.0,24.8,164,227.2,56.7,3,5,3,0,2026-03-21T19:17:20.930618+05:30
Mathura,Uttar Pradesh,27.4924,77.6737,23.1,58,0.0,991.6,6.7,23.8,158,375.3,73.1,0,5,7,0,2026-03-21T19:17:20.930624+05:30
Vrindavan,Uttar Pradesh,27.5823,77.7027,22.6,64,0.0,991.9,6.65,21.6,158,375.3,73.1,3,5,7,0,2026-03-21T19:17:20.930630+05:30
Ayodhya,Uttar Pradesh,26.7922,82.1998,21.4,76,0.0,1000.5,6.95,22.0,93,38.1,29.0,3,5,4,1,2026-03-21T19:17:20.930636+05:30
Ratlam,Madhya Pradesh,23.3315,75.0367,26.0,42,0.0,956.9,7.55,21.2,79,24.6,13.4,4,5,7,0,2026-03-21T19:17:20.930642+05:30
Sagar,Madhya Pradesh,23.8388,78.7378,24.3,42,0.0,953.5,7.9,28.4,86,18.5,11.4,0,5,7,0,2026-03-21T19:17:20.930648+05:30
Satna,Madhya Pradesh,24.6005,80.8322,22.4,61,0.0,975.4,7.8,32.8,77,19.8,10.9,3,5,7,0,2026-03-21T19:17:20.930653+05:30
Akola,Maharashtra,20.7002,77.0082,29.1,25,0.0,976.6,8.25,23.0,102,20.7,14.6,4,5,7,0,2026-03-21T19:17:20.930660+05:30
Amravati,Maharashtra,20.9374,77.7796,29.5,34,0.0,968.4,8.3,25.2,96,18.3,12.4,4,5,7,0,2026-03-21T19:17:20.930666+05:30
Latur,Maharashtra,18.4088,76.5604,28.6,32,0.0,940.1,8.65,34.2,109,31.5,19.3,4,5,7,0,2026-03-21T19:17:20.930672+05:30
Nanded,Maharashtra,19.1383,77.3091,30.8,30,0.0,969.3,8.5,28.1,88,36.0,17.3,0,5,7,0,2026-03-21T19:17:20.930678+05:30
Gulbarga,Karnataka,17.3297,76.8343,32.3,25,0.0,958.8,8.75,42.1,142,25.3,14.8,0,5,7,0,2026-03-21T19:17:20.930683+05:30
Bidar,Karnataka,17.9104,77.5199,30.0,32,0.0,936.0,8.75,40.3,95,27.9,17.7,4,5,7,0,2026-03-21T19:17:20.930689+05:30
Hospet,Karnataka,15.2689,76.3909,31.6,37,0.0,955.9,9.0,19.4,172,28.8,21.3,0,5,7,0,2026-03-21T19:17:20.930695+05:30
Tirupur,Tamil Nadu,11.1085,77.3411,32.8,37,0.0,974.8,9.4,33.5,144,24.9,16.6,0,5,7,1,2026-03-21T19:17:20.930701+05:30
Alappuzha,Kerala,9.4981,76.3388,29.0,74,0.0,1009.3,9.1,29.2,102,19.6,14.5,7,0,4,1,2026-03-21T19:17:20.930706+05:30
Munnar,Kerala,10.0889,77.0595,21.4,85,0.0,857.4,9.65,30.6,109,23.8,18.0,3,5,7,1,2026-03-21T19:17:20.930712+05:30
Silchar,Assam,24.8333,92.7789,23.5,74,0.0,1007.7,6.8,22.3,99,47.0,38.6,3,5,4,1,2026-03-21T19:17:20.930719+05:30
Dibrugarh,Assam,27.4728,94.912,24.1,81,0.0,998.8,7.6,20.5,97,54.1,42.3,3,5,7,1,2026-03-21T19:17:20.930724+05:30
