city,state,latitude,longitude,temp,humidity,rain,pressure,uv_index,wind_gusts,aqi,pm10,pm2_5,no2,co,o3,so2,mosquito_risk,arthritis_risk,migraine_risk,frizz_risk,updated_at
Delhi,Delhi,28.6139,77.209,29.3,83,0.0,976.9,6.7,29.9,288,202.6,86.1,39.1,344.0,43.0,25.0,7,5,7,1,2026-07-20T02:23:17.326806+05:30
Mumbai,Maharashtra,19.076,72.8777,25.5,93,0.2,1005.7,7.7,45.0,58,21.6,9.2,5.4,141.0,47.0,4.5,10,5,4,1,2026-07-20T02:23:17.326860+05:30
Bangalore,Karnataka,12.9716,77.5946,21.1,91,0.0,911.1,8.5,51.1,47,6.3,5.0,7.7,174.0,39.0,3.7,3,5,7,1,2026-07-20T02:23:17.326877+05:30
Hyderabad,Telangana,17.385,78.4867,23.4,89,0.0,950.6,5.05,49.0,37,10.4,7.4,6.5,147.0,43.0,3.8,3,5,3,1,2026-07-20T02:23:17.326887+05:30
Chennai,Tamil Nadu,13.0827,80.2707,28.4,77,0.0,1005.2,7.75,37.1,74,31.7,20.4,12.5,263.0,66.0,10.8,7,5,4,1,2026-07-20T02:23:17.326895+05:30
Kolkata,West Bengal,22.5726,88.3639,27.1,92,0.0,1001.4,3.5,29.9,61,24.2,18.9,6.9,218.0,78.0,5.1,7,5,0,1,2026-07-20T02:23:17.326903+05:30
Pune,Maharashtra,18.5204,73.8567,23.1,89,0.0,945.0,8.05,47.2,21,2.2,2.0,6.8,127.0,34.0,5.3,3,5,7,1,2026-07-20T02:23:17.326919+05:30
Ahmedabad,Gujarat,23.0225,72.5714,27.0,89,0.1,996.9,6.1,34.6,64,22.2,12.5,7.5,150.0,42.0,4.2,10,5,7,1,2026-07-20T02:23:17.326926+05:30
Jaipur,Rajasthan,26.9124,75.7873,30.0,66,0.0,954.6,5.35,29.5,120,49.4,24.1,14.6,190.0,49.0,5.1,7,5,3,1,2026-07-20T02:23:17.326933+05:30
Lucknow,Uttar Pradesh,26.8467,80.9462,26.0,99,0.2,988.7,6.15,26.6,143,57.6,35.2,17.8,306.0,54.0,5.8,10,5,7,1,2026-07-20T02:23:17.326939+05:30
Kanpur,Uttar Pradesh,26.4499,80.3319,27.5,94,0.2,986.5,5.45,32.4,128,45.8,24.4,14.2,306.0,57.0,3.7,10,5,3,1,2026-07-20T02:23:17.326946+05:30
Chandigarh,Chandigarh,30.7333,76.7794,27.0,91,0.0,963.3,1.6,29.9,153,94.3,56.7,34.0,330.0,44.0,12.7,7,5,3,1,2026-07-20T02:23:17.326952+05:30
Srinagar,Jammu and Kashmir,34.0837,74.7973,21.5,100,0.0,838.1,8.7,20.9,69,24.3,23.8,22.0,588.0,25.0,1.7,3,5,7,1,2026-07-20T02:23:17.326958+05:30
Jammu,Jammu and Kashmir,32.7266,74.857,27.3,92,0.0,966.4,6.85,22.3,136,64.0,33.5,13.9,298.0,71.0,3.7,7,5,7,1,2026-07-20T02:23:17.326964+05:30
Amritsar,Punjab,31.634,74.8723,29.5,83,0.0,973.6,6.85,36.7,171,117.8,70.1,19.9,635.0,57.0,12.8,7,5,7,1,2026-07-20T02:23:17.326969+05:30
Ludhiana,Punjab,30.901,75.8573,29.1,86,0.0,972.4,7.0,35.3,179,153.2,76.6,29.0,505.0,48.0,15.8,7,5,7,1,2026-07-20T02:23:17.326974+05:30
Jalandhar,Punjab,31.326,75.5762,29.9,82,0.0,973.1,7.9,36.0,168,97.8,63.3,30.0,532.0,36.0,17.5,7,5,7,1,2026-07-20T02:23:17.326980+05:30
Dehradun,Uttarakhand,30.6284,78.0322,18.6,100,0.1,827.3,2.65,19.4,61,30.9,15.1,11.9,246.0,69.0,1.7,6,10,3,1,2026-07-20T02:23:17.326986+05:30
Shimla,Himachal Pradesh,31.1048,77.1734,17.4,91,0.0,782.5,2.75,26.6,68,33.1,19.9,18.7,242.0,47.0,2.3,3,10,3,0,2026-07-20T02:23:17.326991+05:30
Manali,Himachal Pradesh,32.2396,77.1887,20.4,97,0.0,817.0,7.8,31.0,45,7.9,7.2,29.5,230.0,18.0,0.5,3,5,7,1,2026-07-20T02:23:17.326998+05:30
Gurgaon,Haryana,28.4595,77.0266,29.5,81,0.0,975.1,6.75,25.2,262,726.4,152.3,32.8,267.0,30.0,13.0,7,5,7,1,2026-07-20T02:23:17.327006+05:30
Noida,Uttar Pradesh,28.5355,77.391,28.1,92,0.0,978.5,6.95,35.6,262,726.4,152.3,32.8,328.0,30.0,13.0,7,5,7,1,2026-07-20T02:23:17.327011+05:30
Ghaziabad,Uttar Pradesh,28.6692,77.4538,28.3,94,0.0,976.9,7.4,32.0,187,108.5,57.7,13.9,380.0,73.0,8.9,7,5,7,1,2026-07-20T02:23:17.327016+05:30
Faridabad,Haryana,28.4089,77.3178,28.4,90,0.0,977.7,6.85,36.7,262,726.4,152.3,32.8,311.0,30.0,13.0,7,5,7,1,2026-07-20T02:23:17.327022+05:30
Meerut,Uttar Pradesh,28.9845,77.7064,26.1,98,0.3,975.8,5.25,30.6,187,108.5,57.7,13.9,435.0,73.0,8.9,10,5,3,1,2026-07-20T02:23:17.327027+05:30
Agra,Uttar Pradesh,27.1767,78.0081,28.6,87,0.0,982.1,4.35,30.2,151,39.6,29.9,17.0,202.0,48.0,6.1,7,5,3,1,2026-07-20T02:23:17.327033+05:30
Varanasi,Uttar Pradesh,25.3176,82.9739,26.0,97,0.1,992.6,6.9,25.9,105,56.8,45.2,20.7,588.0,52.0,9.9,10,5,7,1,2026-07-20T02:23:17.327039+05:30
Prayagraj,Uttar Pradesh,25.4358,81.8463,28.0,91,0.0,991.0,7.6,29.9,124,65.0,48.5,22.4,259.0,43.0,10.0,7,5,7,1,2026-07-20T02:23:17.327044+05:30
Gorakhpur,Uttar Pradesh,26.7606,83.3732,25.4,98,0.0,992.9,7.65,24.1,66,25.0,25.0,12.4,373.0,71.0,7.9,7,5,7,1,2026-07-20T02:23:17.327049+05:30
Bareilly,Uttar Pradesh,28.367,79.4304,25.6,97,0.1,981.8,7.05,27.4,128,53.7,31.8,17.4,298.0,60.0,8.2,10,5,7,1,2026-07-20T02:23:17.327056+05:30
Aligarh,Uttar Pradesh,27.8974,78.088,27.7,92,0.1,980.1,5.85,21.6,178,106.6,64.3,32.9,249.0,27.0,9.0,10,5,3,1,2026-07-20T02:23:17.327061+05:30
Moradabad,Uttar Pradesh,28.8386,78.7733,26.1,97,0.1,978.6,5.3,24.8,145,53.0,28.0,10.5,325.0,86.0,6.4,10,5,3,1,2026-07-20T02:23:17.327066+05:30
Saharanpur,Uttar Pradesh,29.9637,77.546,25.8,97,0.2,970.4,5.3,27.0,168,75.7,41.6,8.1,310.0,108.0,9.6,10,5,3,1,2026-07-20T02:23:17.327071+05:30
Jhansi,Uttar Pradesh,25.4484,78.5685,27.2,95,0.1,973.0,1.55,29.5,83,30.3,23.1,11.4,207.0,56.0,7.0,10,5,3,1,2026-07-20T02:23:20.598214+05:30
Surat,Gujarat,21.1702,72.8311,25.7,94,0.1,1002.7,7.3,49.3,67,20.0,13.0,18.1,255.0,29.0,28.8,10,5,4,1,2026-07-20T02:23:20.598249+05:30
Vadodara,Gujarat,22.3072,73.1812,25.3,97,0.1,999.8,7.65,45.0,63,14.7,10.7,14.3,142.0,28.0,13.6,10,5,7,1,2026-07-20T02:23:20.598258+05:30
Rajkot,Gujarat,22.3039,70.8022,26.7,87,0.0,989.0,6.8,51.1,59,16.9,8.8,5.2,106.0,38.0,4.6,7,5,7,1,2026-07-20T02:23:20.598265+05:30
Thane,Maharashtra,19.2183,72.9781,24.5,98,0.1,1005.0,7.35,42.8,58,21.6,9.2,5.4,163.0,47.0,4.5,6,5,4,1,2026-07-20T02:23:20.598272+05:30
Nagpur,Maharashtra,21.1458,79.0882,26.3,93,0.0,968.7,6.95,34.6,63,21.9,16.5,16.0,211.0,39.0,10.5,7,5,7,1,2026-07-20T02:23:20.598278+05:30
Nashik,Maharashtra,19.9975,73.7898,22.3,96,0.0,941.8,7.95,51.8,23,3.6,2.5,9.0,135.0,33.0,8.1,3,5,7,1,2026-07-20T02:23:20.598284+05:30
Aurangabad,Maharashtra,19.8762,75.3433,22.9,93,0.0,940.8,7.2,48.2,31,4.4,3.1,8.3,162.0,34.0,8.7,3,5,7,1,2026-07-20T02:23:20.598291+05:30
Solapur,Maharashtra,17.6599,75.9064,23.9,93,0.0,955.0,5.45,53.3,38,5.6,4.2,5.6,145.0,33.0,2.3,3,5,3,1,2026-07-20T02:23:20.598298+05:30
Kolhapur,Maharashtra,16.705,74.2433,22.6,93,0.0,946.2,7.05,53.6,26,2.6,2.3,3.9,133.0,38.0,1.9,3,5,7,1,2026-07-20T02:23:20.598303+05:30
Goa,Goa,15.2993,74.124,24.1,97,0.0,997.4,7.75,36.0,61,26.4,14.1,4.0,232.0,41.0,1.4,3,5,7,1,2026-07-20T02:23:20.598309+05:30
Jodhpur,Rajasthan,26.2389,73.0243,30.9,58,0.0,976.7,7.8,40.0,96,79.9,24.4,8.0,124.0,47.0,2.4,0,5,7,1,2026-07-20T02:23:20.598315+05:30
Udaipur,Rajasthan,24.5854,73.7125,25.3,83,0.0,941.7,7.2,29.5,65,22.2,14.5,9.5,148.0,56.0,13.3,7,5,7,1,2026-07-20T02:23:20.598321+05:30
Kota,Rajasthan,25.2138,75.8648,29.6,70,0.1,973.6,2.25,21.6,74,19.8,15.2,8.9,219.0,64.0,4.7,10,5,3,1,2026-07-20T02:23:20.598327+05:30
Bikaner,Rajasthan,28.0229,73.3119,32.8,47,0.0,974.9,7.7,39.6,117,176.0,45.4,2.1,113.0,61.0,1.6,0,5,7,1,2026-07-20T02:23:20.598332+05:30
Ajmer,Rajasthan,26.4499,74.6399,28.8,67,0.0,949.4,7.25,37.4,69,21.7,15.7,11.8,168.0,46.0,5.0,7,5,7,1,2026-07-20T02:23:20.598337+05:30
Gwalior,Madhya Pradesh,26.2183,78.1828,27.4,95,0.3,978.1,0.5,24.1,86,30.4,21.5,8.5,171.0,66.0,8.4,10,5,3,1,2026-07-20T02:23:20.598343+05:30
Indore,Madhya Pradesh,22.7196,75.8577,25.0,87,0.0,944.0,6.0,37.1,60,14.8,12.0,9.1,235.0,51.0,7.1,7,5,3,1,2026-07-20T02:23:20.598349+05:30
Bhopal,Madhya Pradesh,23.2599,77.4126,26.3,86,0.0,949.1,4.75,29.2,67,22.3,18.6,10.8,269.0,48.0,4.1,7,5,3,1,2026-07-20T02:23:20.598355+05:30
Jabalpur,Madhya Pradesh,23.1815,79.9864,25.3,94,0.0,956.6,4.7,25.9,81,35.6,27.0,9.3,290.0,61.0,3.6,7,5,3,1,2026-07-20T02:23:20.598360+05:30
Ujjain,Madhya Pradesh,23.1765,75.7885,25.0,90,0.1,949.4,4.25,34.2,60,15.3,12.6,8.1,244.0,55.0,7.5,10,5,3,1,2026-07-20T02:23:20.598365+05:30
Visakhapatnam,Andhra Pradesh,17.6868,83.2185,26.8,99,0.1,998.8,8.0,38.2,83,20.7,18.2,20.7,294.0,49.0,30.4,10,5,7,1,2026-07-20T02:23:20.598371+05:30
Vijayawada,Andhra Pradesh,16.5062,80.648,28.0,78,0.0,999.6,6.5,41.4,63,13.8,11.6,10.3,194.0,51.0,3.8,7,5,7,1,2026-07-20T02:23:20.598376+05:30
Guntur,Andhra Pradesh,16.3067,80.4365,29.3,65,0.0,1001.0,7.1,51.8,58,14.2,11.2,10.8,192.0,44.0,3.9,7,5,4,1,2026-07-20T02:23:20.598382+05:30
Nellore,Andhra Pradesh,14.4426,79.9865,27.6,73,0.0,1004.3,8.1,34.9,61,24.8,15.3,11.0,268.0,40.0,4.7,7,5,4,1,2026-07-20T02:23:20.598389+05:30
Kurnool,Andhra Pradesh,15.8281,78.0373,24.7,93,0.0,975.6,7.1,70.2,49,15.1,9.6,6.6,149.0,41.0,2.9,3,5,7,1,2026-07-20T02:23:20.598396+05:30
Kakinada,Andhra Pradesh,16.9891,82.2475,27.2,84,0.0,1003.6,8.55,46.8,62,24.5,19.2,5.6,216.0,86.0,4.7,7,5,4,1,2026-07-20T02:23:20.598402+05:30
Tirupati,Andhra Pradesh,13.6288,79.4192,25.9,87,0.0,989.7,3.6,34.9,62,23.8,16.8,16.9,158.0,25.0,2.4,7,5,3,1,2026-07-20T02:23:20.598408+05:30
Warangal,Telangana,17.9689,79.5941,25.4,86,0.0,975.5,4.85,40.7,54,16.1,11.8,7.4,146.0,48.0,2.5,7,5,3,1,2026-07-20T02:23:20.598412+05:30
Nizamabad,Telangana,18.6725,78.0941,23.2,95,0.0,961.9,4.15,45.4,52,12.3,9.4,8.1,152.0,40.0,4.9,3,5,3,1,2026-07-20T02:23:20.598418+05:30
Mysore,Karnataka,12.2958,76.6396,21.5,91,0.0,928.4,8.85,49.3,37,3.6,2.9,5.2,122.0,35.0,2.0,3,5,7,1,2026-07-20T02:23:20.598423+05:30
Mangalore,Karnataka,12.9141,74.856,23.6,99,0.1,1007.7,8.6,39.6,55,21.3,10.3,4.7,169.0,37.0,1.6,6,5,4,1,2026-07-20T02:23:20.598429+05:30
Hubli-Dharwad,Karnataka,15.3647,75.124,21.8,96,0.0,939.6,5.85,57.6,25,1.9,1.4,3.2,106.0,38.0,1.1,3,5,3,1,2026-07-20T02:23:20.598435+05:30
Belgaum,Karnataka,15.8497,74.4977,21.1,98,0.0,924.2,7.95,54.0,22,1.5,1.3,4.0,113.0,37.0,1.6,3,5,7,1,2026-07-20T02:23:23.855501+05:30
Coimbatore,Tamil Nadu,11.0168,76.9558,22.9,94,0.0,961.6,8.75,51.5,39,3.9,3.0,5.1,157.0,34.0,2.7,3,5,7,1,2026-07-20T02:23:23.855534+05:30
Madurai,Tamil Nadu,9.9252,78.1198,28.0,66,0.0,992.6,5.65,37.4,71,29.5,23.8,32.4,134.0,9.0,7.1,7,5,3,1,2026-07-20T02:23:23.855543+05:30
Trichy,Tamil Nadu,10.7905,78.7047,27.8,69,0.0,999.5,6.85,51.5,53,8.8,5.9,6.4,115.0,39.0,2.9,7,5,7,1,2026-07-20T02:23:23.855550+05:30
Salem,Tamil Nadu,11.6643,78.146,24.6,95,0.0,977.2,7.7,31.7,60,17.3,13.4,16.1,431.0,28.0,5.6,3,5,7,1,2026-07-20T02:23:23.855558+05:30
Tirunelveli,Tamil Nadu,8.7139,77.7567,28.2,68,0.0,1003.6,7.8,44.3,33,4.3,3.2,4.4,143.0,38.0,2.0,7,5,4,1,2026-07-20T02:23:23.855564+05:30
Vellore,Tamil Nadu,12.9165,79.1325,27.9,70,0.0,983.2,8.05,43.9,66,25.6,17.1,14.1,185.0,36.0,3.5,7,5,7,1,2026-07-20T02:23:23.855571+05:30
Erode,Tamil Nadu,11.341,77.7172,25.7,80,0.0,989.0,8.05,33.8,54,13.0,10.7,14.4,146.0,27.0,3.9,7,5,7,1,2026-07-20T02:23:23.855577+05:30
Kochi,Kerala,9.9312,76.2673,24.2,98,0.1,1010.7,8.35,35.3,52,11.2,7.2,7.4,153.0,29.0,3.0,6,0,4,1,2026-07-20T02:23:23.855583+05:30
Thiruvananthapuram,Kerala,8.5241,76.9366,23.7,99,0.1,1010.0,7.1,45.0,48,14.8,7.6,2.2,112.0,50.0,0.8,6,0,4,1,2026-07-20T02:23:23.855588+05:30
Kozhikode,Kerala,11.2588,75.7804,23.7,99,0.0,1009.5,8.3,32.4,39,15.2,6.4,1.1,129.0,50.0,0.9,3,0,4,1,2026-07-20T02:23:23.855594+05:30
Thrissur,Kerala,10.5276,76.2144,24.3,98,0.1,1008.8,8.25,37.4,50,3.4,2.8,5.4,185.0,34.0,2.1,6,0,4,1,2026-07-20T02:23:23.855600+05:30
Kannur,Kerala,11.8745,75.3704,23.0,99,0.1,1008.6,8.75,28.8,50,16.0,8.3,4.8,161.0,34.0,1.6,6,0,4,1,2026-07-20T02:23:23.855606+05:30
Patna,Bihar,25.5941,85.1376,25.9,98,0.1,995.8,8.35,23.4,81,33.4,33.2,16.2,340.0,66.0,10.7,10,5,7,1,2026-07-20T02:23:23.855611+05:30
Gaya,Bihar,24.7914,85.0002,26.0,97,0.2,988.7,3.4,21.6,69,20.6,20.0,13.5,423.0,61.0,6.3,10,5,3,1,2026-07-20T02:23:23.855616+05:30
Muzaffarpur,Bihar,26.1209,85.3647,26.0,98,0.2,996.5,7.15,27.7,72,24.8,24.7,12.6,375.0,79.0,9.2,10,5,7,1,2026-07-20T02:23:23.855621+05:30
Bhagalpur,Bihar,25.2425,87.0117,26.9,94,0.2,997.2,1.55,33.8,77,23.8,23.3,11.3,312.0,74.0,9.9,10,5,3,1,2026-07-20T02:23:23.855626+05:30
Ranchi,Jharkhand,23.3441,85.3096,23.3,98,0.0,933.3,4.1,26.3,74,32.1,28.9,7.9,299.0,93.0,14.4,3,5,3,1,2026-07-20T02:23:23.855632+05:30
Jamshedpur,Jharkhand,22.8046,86.2029,25.8,98,0.0,986.6,3.65,24.1,88,27.7,27.2,22.9,516.0,46.0,22.5,7,5,3,1,2026-07-20T02:23:23.855637+05:30
Dhanbad,Jharkhand,23.7957,86.4304,25.5,98,0.1,975.5,3.25,27.4,142,58.1,57.0,50.1,574.0,26.0,132.4,10,5,3,1,2026-07-20T02:23:23.855642+05:30
Bokaro,Jharkhand,23.6693,86.1511,25.4,97,0.2,979.2,3.15,23.8,142,62.2,61.2,42.9,3165.0,41.0,125.1,10,5,3,1,2026-07-20T02:23:23.855648+05:30
Bhubaneswar,Odisha,20.2961,85.8245,26.9,99,0.0,997.1,8.5,27.7,85,48.3,41.6,10.7,352.0,103.0,8.1,7,5,7,1,2026-07-20T02:23:23.855653+05:30
Cuttack,Odisha,20.4625,85.8828,27.3,97,0.0,998.8,8.6,22.0,85,48.3,41.6,10.7,379.0,103.0,8.1,7,5,7,1,2026-07-20T02:23:23.855658+05:30
Rourkela,Odisha,22.2604,84.8536,25.5,97,0.1,980.7,8.05,28.8,80,31.5,25.8,6.7,281.0,89.0,6.4,10,5,7,1,2026-07-20T02:23:23.855663+05:30
Raipur,Chhattisgarh,21.2514,81.6296,25.8,91,0.0,969.6,7.3,31.7,92,38.5,33.4,33.1,596.0,48.0,44.9,7,5,7,1,2026-07-20T02:23:23.855669+05:30
Bhilai,Chhattisgarh,21.1938,81.3509,25.6,94,0.0,970.2,7.9,32.4,84,32.9,27.7,27.1,791.0,51.0,35.5,7,5,7,1,2026-07-20T02:23:23.855674+05:30
Guwahati,Assam,26.1158,91.7086,24.6,98,0.0,999.0,1.7,22.0,58,11.8,11.5,8.9,208.0,38.0,2.3,3,5,3,1,2026-07-20T02:23:23.855679+05:30
Agartala,Tripura,23.8315,91.2868,25.1,97,0.1,1003.6,7.6,35.6,52,11.5,9.8,10.2,159.0,35.0,3.2,10,5,4,1,2026-07-20T02:23:23.855684+05:30
Shillong,Meghalaya,25.5788,91.8933,19.2,97,0.2,855.3,1.8,19.1,24,1.0,1.0,5.9,186.0,38.0,2.0,6,10,3,1,2026-07-20T02:23:23.855689+05:30
Imphal,Manipur,24.817,93.9368,21.5,100,0.0,921.4,1.1,26.3,42,8.7,7.9,8.0,303.0,28.0,1.6,3,5,3,1,2026-07-20T02:23:23.855694+05:30
Aizawl,Mizoram,23.7271,92.7176,18.6,98,0.1,890.3,0.65,20.2,46,15.6,9.7,3.1,120.0,36.0,0.5,6,10,3,1,2026-07-20T02:23:23.855700+05:30
Kohima,Nagaland,25.6701,94.1077,19.8,95,0.7,853.9,2.15,21.2,20,2.4,2.4,4.4,189.0,38.0,0.2,6,10,3,1,2026-07-20T02:23:23.855705+05:30
Gangtok,Sikkim,27.3314,88.6138,18.3,98,0.1,836.4,3.8,28.8,35,3.7,3.6,3.9,197.0,83.0,0.7,6,10,3,1,2026-07-20T02:23:23.855710+05:30
Siliguri,West Bengal,26.7271,88.3953,24.5,99,0.2,990.7,2.5,24.1,51,10.1,10.0,8.4,233.0,68.0,1.7,6,5,3,1,2026-07-20T02:23:27.143898+05:30
Durgapur,West Bengal,23.5204,87.3119,25.6,97,0.3,990.6,5.5,30.2,107,27.9,26.5,21.0,291.0,51.0,27.5,10,5,3,1,2026-07-20T02:23:27.143951+05:30
Asansol,West Bengal,23.6739,86.9524,25.7,98,0.1,989.2,1.6,24.8,105,24.2,23.3,22.6,486.0,50.0,29.6,10,5,3,1,2026-07-20T02:23:27.143961+05:30
Pondicherry,Puducherry,11.9139,79.8145,28.4,70,0.0,1007.0,8.0,38.5,72,23.5,15.5,13.1,182.0,55.0,13.4,7,5,4,1,2026-07-20T02:23:27.143968+05:30
Port Blair,Andaman and Nicobar Islands,11.6234,92.7265,27.0,84,0.0,1006.9,8.35,44.3,55,19.1,10.4,0.1,80.0,43.0,0.4,7,5,4,1,2026-07-20T02:23:27.143975+05:30
Haridwar,Uttarakhand,29.9457,78.1642,25.3,98,0.0,969.3,2.2,25.2,160,75.2,40.2,6.6,236.0,108.0,9.2,7,5,3,1,2026-07-20T02:23:27.143982+05:30
Rishikesh,Uttarakhand,30.0869,78.2676,24.9,98,0.1,961.8,0.6,17.3,152,87.1,33.4,4.4,222.0,111.0,8.7,6,5,3,1,2026-07-20T02:23:27.143990+05:30
Nainital,Uttarakhand,29.3919,79.4542,17.2,100,0.5,802.9,6.4,34.6,63,12.9,8.1,5.2,236.0,97.0,1.3,6,10,7,1,2026-07-20T02:23:27.143996+05:30
Mussoorie,Uttarakhand,30.4599,78.0664,17.2,100,0.5,800.2,0.8,28.4,123,88.5,39.1,7.2,256.0,107.0,8.0,6,10,3,1,2026-07-20T02:23:27.144002+05:30
Dharamshala,Himachal Pradesh,32.219,76.3234,22.0,99,0.0,865.4,5.95,27.7,39,10.6,7.0,7.5,325.0,68.0,0.9,3,5,3,1,2026-07-20T02:23:27.144007+05:30
Dalhousie,Himachal Pradesh,32.5387,75.971,18.6,98,0.3,802.3,3.05,25.6,87,58.1,24.3,8.6,306.0,84.0,2.2,6,10,3,1,2026-07-20T02:23:27.144015+05:30
Patiala,Punjab,30.3398,76.3869,28.0,93,0.0,972.3,5.05,35.6,197,102.0,80.8,23.2,428.0,75.0,15.1,7,5,3,1,2026-07-20T02:23:27.144020+05:30
Bhatinda,Punjab,30.211,74.9455,32.0,67,0.0,976.5,5.9,34.2,182,376.3,129.5,22.6,316.0,57.0,7.9,3,5,3,1,2026-07-20T02:23:27.144026+05:30
Rohtak,Haryana,28.8955,76.6066,29.9,75,0.0,975.3,4.55,23.4,488,661.2,139.2,44.9,465.0,19.0,11.5,7,5,3,1,2026-07-20T02:23:27.144031+05:30
Panipat,Haryana,29.3909,76.9635,28.5,91,0.0,974.2,6.8,32.8,979,2980.2,397.7,26.0,506.0,61.0,14.5,7,5,7,1,2026-07-20T02:23:27.144037+05:30
Mathura,Uttar Pradesh,27.4924,77.6737,28.8,86,0.0,981.1,1.1,25.6,193,423.8,74.3,18.1,195.0,50.0,3.8,7,5,3,1,2026-07-20T02:23:27.144043+05:30
Vrindavan,Uttar Pradesh,27.5823,77.7027,28.8,86,0.0,981.5,1.8,28.8,193,423.8,74.3,18.1,198.0,50.0,3.8,7,5,3,1,2026-07-20T02:23:27.144049+05:30
Ayodhya,Uttar Pradesh,26.7922,82.1998,25.5,96,0.0,990.7,7.75,23.4,73,21.1,20.8,14.3,364.0,77.0,5.2,7,5,7,1,2026-07-20T02:23:27.144054+05:30
Ratlam,Madhya Pradesh,23.3315,75.0367,24.9,89,0.0,950.3,5.25,35.3,59,13.3,10.4,8.1,173.0,52.0,9.1,3,5,3,1,2026-07-20T02:23:27.144059+05:30
Sagar,Madhya Pradesh,23.8388,78.7378,25.1,92,0.0,945.5,5.95,29.5,75,22.1,16.8,7.0,270.0,63.0,2.4,7,5,3,1,2026-07-20T02:23:27.144065+05:30
Satna,Madhya Pradesh,24.6005,80.8322,25.7,98,0.0,966.3,1.75,29.9,85,40.5,27.0,13.5,240.0,49.0,4.6,7,5,3,1,2026-07-20T02:23:27.144070+05:30
Akola,Maharashtra,20.7002,77.0082,26.0,87,0.0,971.7,8.3,42.5,46,7.3,6.3,9.5,138.0,40.0,8.3,7,5,7,1,2026-07-20T02:23:27.144077+05:30
Amravati,Maharashtra,20.9374,77.7796,25.1,92,0.1,963.6,7.65,41.8,48,7.1,5.9,9.3,149.0,42.0,8.5,10,5,7,1,2026-07-20T02:23:27.144083+05:30
Latur,Maharashtra,18.4088,76.5604,23.0,94,0.0,937.0,1.0,50.8,36,3.7,3.2,5.4,121.0,35.0,2.2,3,5,3,1,2026-07-20T02:23:27.144089+05:30
Nanded,Maharashtra,19.1383,77.3091,23.5,96,0.0,965.7,2.2,41.8,50,7.3,6.0,6.9,157.0,37.0,3.3,3,5,3,1,2026-07-20T02:23:27.144094+05:30
Gulbarga,Karnataka,17.3297,76.8343,23.4,96,0.0,956.7,5.3,54.4,36,7.0,4.6,6.0,131.0,33.0,2.7,3,5,3,1,2026-07-20T02:23:27.144099+05:30
Bidar,Karnataka,17.9104,77.5199,22.2,97,0.0,932.8,2.4,48.6,46,7.6,5.9,5.9,128.0,39.0,1.9,3,5,3,1,2026-07-20T02:23:27.144105+05:30
Hospet,Karnataka,15.2689,76.3909,23.2,89,0.0,954.8,6.8,54.7,35,2.6,1.9,3.9,113.0,36.0,1.6,3,5,7,1,2026-07-20T02:23:27.144110+05:30
Tirupur,Tamil Nadu,11.1085,77.3411,23.7,90,0.0,975.2,7.35,51.8,57,15.3,12.7,17.8,130.0,23.0,5.1,3,5,7,1,2026-07-20T02:23:27.144115+05:30
Alappuzha,Kerala,9.4981,76.3388,25.0,94,0.1,1010.8,8.4,37.8,51,13.6,7.8,4.6,90.0,40.0,2.2,10,0,4,1,2026-07-20T02:23:27.144121+05:30
Munnar,Kerala,10.0889,77.0595,16.2,99,0.1,856.9,8.0,41.0,26,3.2,2.6,4.3,97.0,31.0,1.5,6,10,7,1,2026-07-20T02:23:27.144127+05:30
Silchar,Assam,24.8333,92.7789,25.3,96,0.4,1003.3,1.15,21.2,60,17.9,13.5,5.6,206.0,45.0,3.0,10,5,0,1,2026-07-20T02:23:27.144132+05:30
Dibrugarh,Assam,27.4728,94.912,24.4,97,0.0,993.5,8.35,27.0,52,12.1,11.7,13.2,220.0,32.0,1.8,3,5,7,1,2026-07-20T02:23:27.144138+05:30
