city,state,latitude,longitude,temp,humidity,rain,pressure,uv_index,wind_gusts,aqi,pm10,pm2_5,mosquito_risk,arthritis_risk,migraine_risk,frizz_risk,updated_at
Delhi,Delhi,28.6139,77.209,17.7,84,0.0,984.5,6.1,53.6,155,382.8,61.0,3,10,7,0,2026-03-16T03:01:10.548808+05:30
Mumbai,Maharashtra,19.076,72.8777,26.8,86,0.0,1008.4,7.7,18.4,102,62.9,28.7,7,0,4,1,2026-03-16T03:01:10.548842+05:30
Bangalore,Karnataka,12.9716,77.5946,20.5,73,0.0,911.1,9.35,28.4,82,28.9,28.3,3,5,7,0,2026-03-16T03:01:10.548857+05:30
Hyderabad,Telangana,17.385,78.4867,22.7,73,0.0,952.8,8.75,29.5,90,23.0,19.6,3,5,7,1,2026-03-16T03:01:10.548866+05:30
Chennai,Tamil Nadu,13.0827,80.2707,25.2,83,0.0,1008.0,9.1,33.1,41,11.5,8.5,7,0,4,1,2026-03-16T03:01:10.548874+05:30
Kolkata,West Bengal,22.5726,88.3639,24.8,91,0.0,1005.0,8.05,32.8,60,20.5,17.1,3,5,4,1,2026-03-16T03:01:10.548882+05:30
Pune,Maharashtra,18.5204,73.8567,18.1,77,0.0,947.3,8.25,40.3,88,53.1,37.1,3,5,7,0,2026-03-16T03:01:10.548892+05:30
Ahmedabad,Gujarat,23.0225,72.5714,23.2,63,0.0,1002.2,7.15,27.0,72,46.9,23.9,3,5,4,0,2026-03-16T03:01:10.548899+05:30
Jaipur,Rajasthan,26.9124,75.7873,22.9,24,0.0,958.5,6.9,34.9,123,85.2,29.0,0,5,7,0,2026-03-16T03:01:10.548906+05:30
Lucknow,Uttar Pradesh,26.8467,80.9462,18.6,75,0.0,993.0,6.65,65.9,103,37.1,29.0,3,5,7,0,2026-03-16T03:01:10.548913+05:30
Kanpur,Uttar Pradesh,26.4499,80.3319,18.4,78,0.0,991.4,6.7,41.0,153,106.2,32.8,3,5,7,0,2026-03-16T03:01:10.548919+05:30
Chandigarh,Chandigarh,30.7333,76.7794,14.6,80,0.0,969.6,5.9,51.8,70,23.3,14.9,3,5,3,0,2026-03-16T03:01:10.548926+05:30
Srinagar,Jammu and Kashmir,34.0837,74.7973,5.2,92,0.0,837.2,4.2,25.6,75,3.2,3.2,3,10,3,0,2026-03-16T03:01:10.548933+05:30
Jammu,Jammu and Kashmir,32.7266,74.857,14.1,88,0.0,973.6,4.9,41.8,88,33.3,22.6,3,10,3,0,2026-03-16T03:01:10.548940+05:30
Amritsar,Punjab,31.634,74.8723,13.6,94,0.0,982.0,6.45,31.3,97,44.4,20.3,3,10,7,0,2026-03-16T03:01:10.548946+05:30
Ludhiana,Punjab,30.901,75.8573,14.3,96,0.0,980.1,6.2,43.9,102,32.1,26.3,3,10,7,0,2026-03-16T03:01:10.548952+05:30
Jalandhar,Punjab,31.326,75.5762,13.6,91,0.0,981.4,6.3,42.1,95,32.8,17.1,3,10,7,0,2026-03-16T03:01:10.548961+05:30
Dehradun,Uttarakhand,30.6284,78.0322,8.6,81,0.0,827.0,6.3,40.3,51,18.4,6.8,3,10,7,0,2026-03-16T03:01:10.548967+05:30
Shimla,Himachal Pradesh,31.1048,77.1734,6.3,81,0.0,779.5,6.3,50.4,55,15.7,7.2,3,10,7,0,2026-03-16T03:01:10.548973+05:30
Manali,Himachal Pradesh,32.2396,77.1887,8.5,69,0.0,814.0,7.1,37.1,50,14.7,5.0,3,5,7,0,2026-03-16T03:01:10.548979+05:30
Gurgaon,Haryana,28.4595,77.0266,17.0,89,0.0,982.6,6.2,42.5,1361,1762.1,201.6,3,10,7,0,2026-03-16T03:01:10.548986+05:30
Noida,Uttar Pradesh,28.5355,77.391,17.9,85,0.0,986.1,6.15,45.4,1361,1762.1,201.6,3,10,7,0,2026-03-16T03:01:10.548992+05:30
Ghaziabad,Uttar Pradesh,28.6692,77.4538,17.0,85,0.0,984.3,6.1,58.7,129,258.9,42.0,3,10,7,0,2026-03-16T03:01:10.548998+05:30
Faridabad,Haryana,28.4089,77.3178,17.7,86,0.0,985.2,6.15,39.2,1361,1762.1,201.6,3,10,7,0,2026-03-16T03:01:10.549004+05:30
Meerut,Uttar Pradesh,28.9845,77.7064,16.3,87,0.0,983.5,6.0,59.4,129,258.9,42.0,3,10,3,0,2026-03-16T03:01:10.549010+05:30
Agra,Uttar Pradesh,27.1767,78.0081,17.2,92,0.0,988.1,6.5,38.2,910,1076.6,129.0,3,10,7,0,2026-03-16T03:01:10.549021+05:30
Varanasi,Uttar Pradesh,25.3176,82.9739,20.1,78,0.0,997.7,7.35,37.1,140,67.5,54.6,3,5,7,1,2026-03-16T03:01:10.549031+05:30
Prayagraj,Uttar Pradesh,25.4358,81.8463,19.9,79,0.0,995.8,7.2,36.0,115,40.3,32.0,3,5,7,1,2026-03-16T03:01:10.549038+05:30
Gorakhpur,Uttar Pradesh,26.7606,83.3732,18.4,74,0.0,997.0,6.85,33.5,151,71.0,60.5,3,5,7,0,2026-03-16T03:01:10.549044+05:30
Bareilly,Uttar Pradesh,28.367,79.4304,18.3,84,0.0,988.6,6.3,74.5,119,33.8,19.2,3,10,7,0,2026-03-16T03:01:10.549054+05:30
Aligarh,Uttar Pradesh,27.8974,78.088,16.9,89,0.0,987.1,6.25,37.8,189,722.7,88.5,3,10,7,0,2026-03-16T03:01:10.549060+05:30
Moradabad,Uttar Pradesh,28.8386,78.7733,17.1,85,0.0,986.6,6.15,85.0,118,40.6,23.2,3,10,7,0,2026-03-16T03:01:10.549066+05:30
Saharanpur,Uttar Pradesh,29.9637,77.546,15.0,87,0.0,977.1,5.75,37.8,120,32.1,19.4,3,10,3,0,2026-03-16T03:01:10.549072+05:30
Jhansi,Uttar Pradesh,25.4484,78.5685,21.3,71,0.0,976.9,7.15,34.9,78,52.2,26.4,3,5,7,0,2026-03-16T03:01:13.849273+05:30
Surat,Gujarat,21.1702,72.8311,25.7,88,0.0,1006.8,7.4,26.3,124,43.4,26.3,7,5,4,1,2026-03-16T03:01:13.849303+05:30
Vadodara,Gujarat,22.3072,73.1812,23.9,89,0.0,1004.4,7.1,23.4,87,37.3,24.7,3,5,4,1,2026-03-16T03:01:13.849314+05:30
Rajkot,Gujarat,22.3039,70.8022,23.2,82,0.0,994.8,7.3,31.3,68,37.6,18.6,3,5,7,1,2026-03-16T03:01:13.849323+05:30
Thane,Maharashtra,19.2183,72.9781,24.6,95,0.0,1008.0,7.7,31.3,102,62.9,28.7,3,0,4,1,2026-03-16T03:01:13.849332+05:30
Nagpur,Maharashtra,21.1458,79.0882,25.6,68,0.0,972.1,7.95,22.0,105,41.0,37.0,7,5,7,1,2026-03-16T03:01:13.849340+05:30
Nashik,Maharashtra,19.9975,73.7898,19.5,63,0.0,944.6,7.7,29.5,74,68.0,32.1,3,5,7,0,2026-03-16T03:01:13.849348+05:30
Aurangabad,Maharashtra,19.8762,75.3433,22.1,56,0.0,943.2,8.05,27.0,75,44.2,27.8,0,5,7,0,2026-03-16T03:01:13.849357+05:30
Solapur,Maharashtra,17.6599,75.9064,22.9,60,0.0,956.6,8.65,23.0,106,43.9,40.6,0,5,7,0,2026-03-16T03:01:13.849366+05:30
Kolhapur,Maharashtra,16.705,74.2433,20.3,75,0.0,947.2,8.75,38.2,122,45.3,34.7,3,5,7,0,2026-03-16T03:01:13.849374+05:30
Goa,Goa,15.2993,74.124,26.9,83,0.0,998.0,8.8,31.7,113,55.2,37.1,7,5,7,1,2026-03-16T03:01:13.849383+05:30
Jodhpur,Rajasthan,26.2389,73.0243,24.0,26,0.0,982.3,7.2,36.7,104,242.1,37.4,0,5,7,0,2026-03-16T03:01:13.849391+05:30
Udaipur,Rajasthan,24.5854,73.7125,21.4,32,0.0,945.9,7.85,34.6,63,43.3,14.5,0,5,7,0,2026-03-16T03:01:13.849399+05:30
Kota,Rajasthan,25.2138,75.8648,21.4,37,0.0,977.2,7.2,29.2,66,30.3,16.2,0,5,7,0,2026-03-16T03:01:13.849407+05:30
Bikaner,Rajasthan,28.0229,73.3119,23.1,41,0.0,980.7,6.9,25.9,51,26.0,8.8,0,5,7,0,2026-03-16T03:01:13.849415+05:30
Ajmer,Rajasthan,26.4499,74.6399,22.3,38,0.0,953.2,7.15,39.2,76,64.3,22.1,0,5,7,0,2026-03-16T03:01:13.849463+05:30
Gwalior,Madhya Pradesh,26.2183,78.1828,21.7,67,0.0,982.2,6.85,32.4,104,99.0,37.4,3,5,7,0,2026-03-16T03:01:13.849476+05:30
Indore,Madhya Pradesh,22.7196,75.8577,21.2,49,0.0,947.0,7.75,32.4,66,33.4,19.0,0,5,7,0,2026-03-16T03:01:13.849485+05:30
Bhopal,Madhya Pradesh,23.2599,77.4126,20.1,53,0.0,952.3,7.65,32.0,62,34.0,20.3,0,5,7,0,2026-03-16T03:01:13.849493+05:30
Jabalpur,Madhya Pradesh,23.1815,79.9864,23.3,54,0.0,959.9,7.8,38.2,66,31.8,23.3,0,5,7,0,2026-03-16T03:01:13.849501+05:30
Ujjain,Madhya Pradesh,23.1765,75.7885,21.6,48,0.0,952.8,7.65,31.0,69,34.3,18.9,0,5,7,0,2026-03-16T03:01:13.849509+05:30
Visakhapatnam,Andhra Pradesh,17.6868,83.2185,24.8,88,0.0,1005.3,8.7,42.1,63,20.8,17.3,3,5,4,1,2026-03-16T03:01:13.849518+05:30
Vijayawada,Andhra Pradesh,16.5062,80.648,23.8,90,0.0,1004.1,8.8,27.7,56,14.6,12.3,3,5,4,1,2026-03-16T03:01:13.849526+05:30
Guntur,Andhra Pradesh,16.3067,80.4365,23.7,90,0.0,1005.2,8.8,29.2,53,13.2,11.1,3,5,4,1,2026-03-16T03:01:13.849534+05:30
Nellore,Andhra Pradesh,14.4426,79.9865,24.0,91,0.0,1006.6,8.95,32.8,50,8.9,7.4,3,5,4,1,2026-03-16T03:01:13.849543+05:30
Kurnool,Andhra Pradesh,15.8281,78.0373,25.7,59,0.0,977.3,8.55,21.6,83,21.0,19.2,4,5,7,1,2026-03-16T03:01:13.849551+05:30
Kakinada,Andhra Pradesh,16.9891,82.2475,23.2,91,0.0,1009.2,8.7,29.9,56,16.9,12.2,3,0,4,1,2026-03-16T03:01:13.849559+05:30
Tirupati,Andhra Pradesh,13.6288,79.4192,22.3,88,0.0,992.5,9.1,24.5,65,22.2,20.7,3,5,7,1,2026-03-16T03:01:13.849567+05:30
Warangal,Telangana,17.9689,79.5941,24.0,80,0.0,978.7,8.6,33.1,74,13.0,11.9,3,5,7,1,2026-03-16T03:01:13.849575+05:30
Nizamabad,Telangana,18.6725,78.0941,25.5,57,0.0,963.9,8.45,27.0,125,33.5,30.4,4,5,7,1,2026-03-16T03:01:13.849583+05:30
Mysore,Karnataka,12.2958,76.6396,21.3,91,0.0,928.3,9.35,32.8,91,43.4,40.9,3,5,7,1,2026-03-16T03:01:13.849591+05:30
Mangalore,Karnataka,12.9141,74.856,28.7,78,0.0,1006.6,9.0,24.5,82,30.0,26.5,7,5,4,1,2026-03-16T03:01:13.849599+05:30
Hubli-Dharwad,Karnataka,15.3647,75.124,22.3,83,0.0,940.6,8.95,37.4,107,37.7,35.6,3,5,7,1,2026-03-16T03:01:13.849607+05:30
Belgaum,Karnataka,15.8497,74.4977,21.3,97,0.0,925.2,9.0,37.4,114,50.9,34.6,3,5,7,1,2026-03-16T03:01:17.144810+05:30
Coimbatore,Tamil Nadu,11.0168,76.9558,22.6,94,0.0,961.8,9.3,42.5,71,34.3,32.2,3,5,7,1,2026-03-16T03:01:17.144840+05:30
Madurai,Tamil Nadu,9.9252,78.1198,24.5,84,0.0,993.7,9.3,19.1,53,18.1,16.9,3,5,7,1,2026-03-16T03:01:17.144851+05:30
Trichy,Tamil Nadu,10.7905,78.7047,24.3,95,0.0,1000.7,9.2,21.2,51,15.1,13.5,3,5,4,1,2026-03-16T03:01:17.144860+05:30
Salem,Tamil Nadu,11.6643,78.146,23.4,85,0.0,978.0,9.25,13.7,69,23.2,22.6,3,5,7,1,2026-03-16T03:01:17.144869+05:30
Tirunelveli,Tamil Nadu,8.7139,77.7567,24.1,90,0.0,1003.6,9.3,46.1,50,19.2,17.7,3,5,4,1,2026-03-16T03:01:17.144878+05:30
Vellore,Tamil Nadu,12.9165,79.1325,21.3,84,0.0,985.3,9.15,36.7,86,35.3,33.2,3,5,7,1,2026-03-16T03:01:17.144887+05:30
Erode,Tamil Nadu,11.341,77.7172,24.8,88,0.0,989.9,9.25,24.5,50,10.7,9.8,3,5,7,1,2026-03-16T03:01:17.144894+05:30
Kochi,Kerala,9.9312,76.2673,27.2,82,0.0,1009.0,9.1,34.6,78,39.9,39.5,7,0,4,1,2026-03-16T03:01:17.144902+05:30
Thiruvananthapuram,Kerala,8.5241,76.9366,27.4,82,0.0,1007.7,9.15,30.6,54,10.6,8.6,7,5,4,1,2026-03-16T03:01:17.144910+05:30
Kozhikode,Kerala,11.2588,75.7804,27.1,84,0.0,1008.2,9.0,29.2,66,25.3,21.4,7,0,4,1,2026-03-16T03:01:17.144917+05:30
Thrissur,Kerala,10.5276,76.2144,26.2,88,0.0,1007.3,9.05,37.8,76,43.0,41.3,7,5,4,1,2026-03-16T03:01:17.144925+05:30
Kannur,Kerala,11.8745,75.3704,26.6,86,0.0,1007.4,9.0,31.7,78,25.4,22.7,7,5,4,1,2026-03-16T03:01:17.144934+05:30
Patna,Bihar,25.5941,85.1376,22.4,86,0.0,999.9,7.55,38.2,158,83.1,66.8,3,5,7,1,2026-03-16T03:01:17.144940+05:30
Gaya,Bihar,24.7914,85.0002,20.9,91,0.0,993.4,7.65,68.0,132,65.4,53.0,3,5,7,1,2026-03-16T03:01:17.144946+05:30
Muzaffarpur,Bihar,26.1209,85.3647,20.1,80,0.0,1000.0,7.5,29.9,158,94.3,79.9,3,5,4,1,2026-03-16T03:01:17.144952+05:30
Bhagalpur,Bihar,25.2425,87.0117,22.2,93,0.0,1001.0,7.55,41.8,151,69.2,59.6,3,5,4,1,2026-03-16T03:01:17.144958+05:30
Ranchi,Jharkhand,23.3441,85.3096,20.3,84,0.0,936.9,7.7,62.6,122,50.5,46.1,3,5,7,1,2026-03-16T03:01:17.144964+05:30
Jamshedpur,Jharkhand,22.8046,86.2029,23.2,85,0.0,990.3,8.05,55.4,131,62.6,55.8,3,5,7,1,2026-03-16T03:01:17.144970+05:30
Dhanbad,Jharkhand,23.7957,86.4304,23.1,80,0.0,978.2,7.55,32.0,160,75.2,68.9,3,5,7,1,2026-03-16T03:01:17.144976+05:30
Bokaro,Jharkhand,23.6693,86.1511,24.1,75,0.0,982.3,7.25,31.7,154,65.7,59.3,3,5,7,1,2026-03-16T03:01:17.144982+05:30
Bhubaneswar,Odisha,20.2961,85.8245,24.7,89,0.0,1002.9,8.5,37.8,57,14.4,11.8,3,5,4,1,2026-03-16T03:01:17.144988+05:30
Cuttack,Odisha,20.4625,85.8828,24.5,91,0.0,1004.9,8.5,40.7,57,14.4,11.8,3,5,4,1,2026-03-16T03:01:17.144994+05:30
Rourkela,Odisha,22.2604,84.8536,24.4,83,0.0,984.8,8.0,52.2,138,67.5,59.0,3,5,7,1,2026-03-16T03:01:17.144999+05:30
Raipur,Chhattisgarh,21.2514,81.6296,23.2,70,0.0,973.3,8.25,46.4,130,56.5,51.5,3,5,7,1,2026-03-16T03:01:17.145005+05:30
Bhilai,Chhattisgarh,21.1938,81.3509,24.3,62,0.0,973.7,8.25,45.0,126,56.7,50.9,3,5,7,1,2026-03-16T03:01:17.145010+05:30
Guwahati,Assam,26.1158,91.7086,20.4,90,0.0,1002.6,7.15,34.2,64,12.0,9.4,3,5,4,1,2026-03-16T03:01:17.145016+05:30
Agartala,Tripura,23.8315,91.2868,21.5,95,0.0,1006.4,7.85,45.0,57,15.3,13.1,3,5,4,1,2026-03-16T03:01:17.145022+05:30
Shillong,Meghalaya,25.5788,91.8933,12.6,92,0.0,854.3,7.9,69.8,50,5.3,3.8,3,10,7,0,2026-03-16T03:01:17.145028+05:30
Imphal,Manipur,24.817,93.9368,14.8,91,0.0,923.5,8.15,77.4,86,44.5,37.1,3,10,7,0,2026-03-16T03:01:17.145034+05:30
Aizawl,Mizoram,23.7271,92.7176,15.2,90,0.0,892.3,8.1,63.0,77,28.4,19.5,3,10,7,0,2026-03-16T03:01:17.145040+05:30
Kohima,Nagaland,25.6701,94.1077,13.8,81,0.0,853.7,7.05,96.5,70,31.8,26.0,3,10,7,0,2026-03-16T03:01:17.145046+05:30
Gangtok,Sikkim,27.3314,88.6138,11.3,74,0.0,832.8,7.8,20.9,104,58.9,38.5,3,5,7,0,2026-03-16T03:01:17.145051+05:30
Siliguri,West Bengal,26.7271,88.3953,18.6,85,0.0,993.0,6.75,30.6,133,77.5,55.9,3,10,7,0,2026-03-16T03:01:20.441803+05:30
Durgapur,West Bengal,23.5204,87.3119,23.5,93,0.0,993.4,7.85,42.5,145,51.1,49.5,3,5,7,1,2026-03-16T03:01:20.441836+05:30
Asansol,West Bengal,23.6739,86.9524,23.4,91,0.0,992.0,7.8,35.6,151,66.1,61.9,3,5,7,1,2026-03-16T03:01:20.441849+05:30
Pondicherry,Puducherry,11.9139,79.8145,23.6,97,0.0,1009.3,9.05,32.0,31,9.7,6.7,3,0,4,1,2026-03-16T03:01:20.441859+05:30
Port Blair,Andaman and Nicobar Islands,11.6234,92.7265,27.5,82,0.0,1007.0,9.0,20.2,79,16.1,13.0,7,5,4,1,2026-03-16T03:01:20.441868+05:30
Haridwar,Uttarakhand,29.9457,78.1642,17.0,80,0.0,976.6,5.85,36.0,76,26.9,14.5,3,5,3,0,2026-03-16T03:01:20.441878+05:30
Rishikesh,Uttarakhand,30.0869,78.2676,16.5,80,0.0,969.7,5.95,29.5,64,26.7,12.8,3,5,3,0,2026-03-16T03:01:20.441887+05:30
Nainital,Uttarakhand,29.3919,79.4542,12.7,60,0.2,804.8,6.75,83.9,68,22.6,14.1,3,5,7,0,2026-03-16T03:01:20.441896+05:30
Mussoorie,Uttarakhand,30.4599,78.0664,9.9,70,0.0,799.6,6.25,47.9,68,24.7,12.4,3,5,7,0,2026-03-16T03:01:20.441905+05:30
Dharamshala,Himachal Pradesh,32.219,76.3234,12.5,62,0.0,866.0,6.05,32.8,46,13.5,5.3,3,5,7,0,2026-03-16T03:01:20.441914+05:30
Dalhousie,Himachal Pradesh,32.5387,75.971,8.2,69,0.0,798.6,3.9,31.7,70,34.5,19.4,3,5,3,0,2026-03-16T03:01:20.441923+05:30
Patiala,Punjab,30.3398,76.3869,13.6,94,0.0,979.4,5.9,43.6,98,165.3,36.6,3,10,3,0,2026-03-16T03:01:20.441932+05:30
Bhatinda,Punjab,30.211,74.9455,15.2,94,0.0,983.3,6.6,32.0,109,288.7,66.4,3,10,7,0,2026-03-16T03:01:20.441941+05:30
Rohtak,Haryana,28.8955,76.6066,15.9,88,0.0,982.9,6.15,46.4,325,609.1,89.9,3,10,7,0,2026-03-16T03:01:20.441950+05:30
Panipat,Haryana,29.3909,76.9635,15.4,88,0.0,981.7,5.9,45.0,189,635.2,78.9,3,10,3,0,2026-03-16T03:01:20.441959+05:30
Mathura,Uttar Pradesh,27.4924,77.6737,17.1,90,0.0,987.8,6.4,34.6,374,849.4,109.2,3,10,7,0,2026-03-16T03:01:20.441968+05:30
Vrindavan,Uttar Pradesh,27.5823,77.7027,16.7,91,0.0,988.6,6.35,37.1,374,849.4,109.2,3,10,7,0,2026-03-16T03:01:20.441977+05:30
Ayodhya,Uttar Pradesh,26.7922,82.1998,18.4,74,0.0,995.1,6.6,51.5,109,43.9,32.6,3,5,7,0,2026-03-16T03:01:20.441986+05:30
Ratlam,Madhya Pradesh,23.3315,75.0367,22.6,45,0.0,954.0,7.6,34.9,67,38.0,19.6,0,5,7,0,2026-03-16T03:01:20.441995+05:30
Sagar,Madhya Pradesh,23.8388,78.7378,24.8,39,0.0,948.6,7.6,30.2,57,30.2,18.2,0,5,7,0,2026-03-16T03:01:20.442003+05:30
Satna,Madhya Pradesh,24.6005,80.8322,21.7,67,0.0,970.3,7.6,42.1,76,53.3,37.6,3,5,7,0,2026-03-16T03:01:20.442012+05:30
Akola,Maharashtra,20.7002,77.0082,24.7,53,0.0,974.1,8.0,24.8,78,32.8,21.4,0,5,7,0,2026-03-16T03:01:20.442021+05:30
Amravati,Maharashtra,20.9374,77.7796,23.8,58,0.0,966.0,7.8,30.2,83,32.5,23.5,0,5,7,0,2026-03-16T03:01:20.442030+05:30
Latur,Maharashtra,18.4088,76.5604,22.1,59,0.0,939.2,8.55,20.2,101,49.9,42.7,0,5,7,0,2026-03-16T03:01:20.442039+05:30
Nanded,Maharashtra,19.1383,77.3091,23.0,61,0.0,967.5,8.25,20.2,123,67.1,59.8,3,5,7,0,2026-03-16T03:01:20.442048+05:30
Gulbarga,Karnataka,17.3297,76.8343,24.7,64,0.0,958.4,8.65,34.6,109,44.9,38.3,3,5,7,1,2026-03-16T03:01:20.442056+05:30
Bidar,Karnataka,17.9104,77.5199,23.3,68,0.0,934.7,8.65,32.0,101,37.0,32.4,3,5,7,1,2026-03-16T03:01:20.442065+05:30
Hospet,Karnataka,15.2689,76.3909,25.0,81,0.0,956.4,8.9,21.2,117,50.5,47.4,7,5,7,1,2026-03-16T03:01:20.442073+05:30
Tirupur,Tamil Nadu,11.1085,77.3411,24.6,88,0.0,975.7,9.3,46.1,59,21.9,20.7,3,5,7,1,2026-03-16T03:01:20.442082+05:30
Alappuzha,Kerala,9.4981,76.3388,26.6,85,0.0,1009.0,9.1,30.6,71,29.2,27.6,7,0,4,1,2026-03-16T03:01:20.442091+05:30
Munnar,Kerala,10.0889,77.0595,18.4,93,0.0,855.4,9.6,32.4,60,25.1,23.2,3,10,7,1,2026-03-16T03:01:20.442100+05:30
Silchar,Assam,24.8333,92.7789,19.6,93,0.0,1007.3,7.9,42.5,89,33.4,31.1,3,10,4,1,2026-03-16T03:01:20.442109+05:30
Dibrugarh,Assam,27.4728,94.912,18.1,93,0.9,997.2,5.0,29.5,73,29.8,23.1,6,10,3,1,2026-03-16T03:01:20.442118+05:30
