city,state,latitude,longitude,temp,humidity,rain,pressure,uv_index,wind_gusts,aqi,pm10,pm2_5,no2,co,o3,so2,mosquito_risk,arthritis_risk,migraine_risk,frizz_risk,updated_at
Delhi,Delhi,28.6139,77.209,30.4,49,0.0,981.9,7.65,36.4,202,272.9,83.8,29.9,603.0,117.0,24.8,0,5,7,1,2026-05-11T23:26:55.078090+05:30
Mumbai,Maharashtra,19.076,72.8777,30.0,74,0.0,1006.0,7.9,53.6,87,55.3,22.1,13.4,441.0,68.0,9.8,7,5,4,1,2026-05-11T23:26:55.078136+05:30
Bangalore,Karnataka,12.9716,77.5946,27.1,43,0.0,911.8,8.0,46.1,68,30.0,23.9,40.4,377.0,51.0,11.2,4,5,7,0,2026-05-11T23:26:55.078159+05:30
Hyderabad,Telangana,17.385,78.4867,30.3,44,0.0,952.9,9.25,32.0,91,37.0,25.1,14.2,415.0,96.0,8.8,0,5,7,1,2026-05-11T23:26:55.078170+05:30
Chennai,Tamil Nadu,13.0827,80.2707,28.9,76,0.0,1006.6,8.8,39.6,25,8.4,6.6,8.4,121.0,37.0,2.1,7,5,4,1,2026-05-11T23:26:55.078181+05:30
Kolkata,West Bengal,22.5726,88.3639,25.7,84,0.0,1008.2,8.6,42.8,137,43.2,39.2,22.3,375.0,32.0,11.2,7,0,4,1,2026-05-11T23:26:55.078192+05:30
Pune,Maharashtra,18.5204,73.8567,29.1,40,0.0,946.5,8.5,46.8,109,28.9,20.5,18.4,328.0,104.0,16.5,4,5,7,0,2026-05-11T23:26:55.078201+05:30
Ahmedabad,Gujarat,23.0225,72.5714,37.5,17,0.0,999.3,8.15,33.5,63,44.4,26.8,19.4,287.0,73.0,9.1,0,5,10,0,2026-05-11T23:26:55.078212+05:30
Jaipur,Rajasthan,26.9124,75.7873,31.4,38,0.0,958.6,8.2,30.6,156,144.8,52.6,28.0,477.0,75.0,13.4,0,5,7,0,2026-05-11T23:26:55.078220+05:30
Lucknow,Uttar Pradesh,26.8467,80.9462,29.9,44,0.0,993.5,8.15,29.2,101,45.9,38.5,18.0,492.0,89.0,11.7,4,5,7,1,2026-05-11T23:26:55.078228+05:30
Kanpur,Uttar Pradesh,26.4499,80.3319,29.9,46,0.0,991.5,8.15,40.3,132,155.1,42.7,12.2,398.0,101.0,8.3,4,5,7,1,2026-05-11T23:26:55.078236+05:30
Chandigarh,Chandigarh,30.7333,76.7794,22.2,82,0.0,967.4,7.7,41.8,168,86.1,62.6,27.1,1135.0,88.0,16.8,3,5,7,1,2026-05-11T23:26:55.078244+05:30
Srinagar,Jammu and Kashmir,34.0837,74.7973,13.9,87,0.0,840.9,8.85,26.3,98,59.0,45.4,30.4,948.0,39.0,3.8,3,10,7,0,2026-05-11T23:26:55.078253+05:30
Jammu,Jammu and Kashmir,32.7266,74.857,24.0,76,0.0,971.9,8.45,44.3,147,61.2,46.0,19.2,847.0,77.0,4.9,3,5,7,1,2026-05-11T23:26:55.078260+05:30
Amritsar,Punjab,31.634,74.8723,24.6,80,0.0,979.8,8.35,69.1,159,151.3,74.7,16.1,746.0,98.0,11.3,3,5,7,1,2026-05-11T23:26:55.078268+05:30
Ludhiana,Punjab,30.901,75.8573,24.4,85,0.0,977.5,7.9,60.5,167,142.5,85.4,23.9,739.0,82.0,18.1,3,5,7,1,2026-05-11T23:26:55.078275+05:30
Jalandhar,Punjab,31.326,75.5762,23.5,88,0.0,978.6,8.1,50.4,158,149.9,78.0,19.2,1109.0,96.0,13.1,3,5,7,1,2026-05-11T23:26:55.078282+05:30
Dehradun,Uttarakhand,30.6284,78.0322,12.5,99,0.0,828.3,5.2,33.1,112,64.7,43.2,29.3,327.0,87.0,3.0,3,10,3,0,2026-05-11T23:26:55.078292+05:30
Shimla,Himachal Pradesh,31.1048,77.1734,10.4,88,0.0,781.6,6.35,44.3,151,75.2,50.4,20.2,499.0,103.0,7.5,3,10,7,0,2026-05-11T23:26:55.078300+05:30
Manali,Himachal Pradesh,32.2396,77.1887,9.3,78,0.0,814.2,9.85,39.2,122,30.4,19.2,44.7,369.0,93.0,0.4,3,5,7,0,2026-05-11T23:26:55.078307+05:30
Gurgaon,Haryana,28.4595,77.0266,29.5,51,0.0,979.9,7.75,30.2,603,1326.2,178.8,31.3,660.0,116.0,24.8,4,5,7,1,2026-05-11T23:26:55.078315+05:30
Noida,Uttar Pradesh,28.5355,77.391,27.1,60,0.0,983.2,7.65,25.2,603,1326.2,178.8,31.3,586.0,116.0,24.8,4,5,7,1,2026-05-11T23:26:55.078322+05:30
Ghaziabad,Uttar Pradesh,28.6692,77.4538,27.5,60,0.0,981.7,7.65,28.1,188,204.9,68.5,13.7,470.0,113.0,12.2,4,5,7,1,2026-05-11T23:26:55.078329+05:30
Faridabad,Haryana,28.4089,77.3178,29.0,53,0.0,982.6,7.7,26.3,603,1326.2,178.8,31.3,674.0,116.0,24.8,4,5,7,1,2026-05-11T23:26:55.078336+05:30
Meerut,Uttar Pradesh,28.9845,77.7064,26.0,72,0.0,980.5,7.55,27.4,188,204.9,68.5,13.7,510.0,113.0,12.2,7,5,7,1,2026-05-11T23:26:55.078343+05:30
Agra,Uttar Pradesh,27.1767,78.0081,30.0,48,0.0,986.6,8.0,25.2,376,990.9,127.6,11.9,525.0,116.0,14.8,4,5,7,1,2026-05-11T23:26:55.078350+05:30
Varanasi,Uttar Pradesh,25.3176,82.9739,29.3,50,0.0,997.5,8.65,27.0,155,55.6,49.5,16.9,493.0,124.0,20.4,4,5,7,1,2026-05-11T23:26:55.078357+05:30
Prayagraj,Uttar Pradesh,25.4358,81.8463,30.4,40,0.0,995.8,8.5,32.0,135,41.9,36.8,17.3,390.0,96.0,11.9,0,5,7,0,2026-05-11T23:26:55.078367+05:30
Gorakhpur,Uttar Pradesh,26.7606,83.3732,26.9,59,0.0,998.0,8.5,32.0,120,42.6,39.6,15.7,426.0,114.0,13.4,4,5,7,1,2026-05-11T23:26:55.078375+05:30
Bareilly,Uttar Pradesh,28.367,79.4304,26.4,66,0.0,986.4,7.95,27.0,137,64.3,47.6,13.8,449.0,104.0,8.6,7,5,7,1,2026-05-11T23:26:55.078382+05:30
Aligarh,Uttar Pradesh,27.8974,78.088,28.2,56,0.0,984.8,7.8,29.9,181,480.6,87.1,12.4,558.0,112.0,14.9,4,5,7,1,2026-05-11T23:26:55.078390+05:30
Moradabad,Uttar Pradesh,28.8386,78.7733,26.5,71,0.0,983.1,7.25,29.9,149,71.0,56.6,15.4,554.0,132.0,14.5,7,5,7,1,2026-05-11T23:26:55.078396+05:30
Saharanpur,Uttar Pradesh,29.9637,77.546,24.3,83,0.0,975.0,7.35,31.7,146,81.7,68.5,30.0,554.0,84.0,15.2,3,5,7,1,2026-05-11T23:26:55.078425+05:30
Jhansi,Uttar Pradesh,25.4484,78.5685,29.9,47,0.0,977.0,8.45,40.7,143,79.9,40.3,4.0,330.0,123.0,8.6,4,5,7,1,2026-05-11T23:26:58.390812+05:30
Surat,Gujarat,21.1702,72.8311,32.3,57,0.0,1003.0,7.75,38.2,100,41.7,29.0,40.5,483.0,56.0,53.1,0,5,4,1,2026-05-11T23:26:58.390846+05:30
Vadodara,Gujarat,22.3072,73.1812,35.7,22,0.0,1000.7,8.1,33.5,127,53.8,34.2,26.4,484.0,104.0,21.8,0,5,7,0,2026-05-11T23:26:58.390857+05:30
Rajkot,Gujarat,22.3039,70.8022,29.4,52,0.0,993.2,7.7,49.3,66,31.8,13.1,6.5,178.0,69.0,7.1,4,5,7,1,2026-05-11T23:26:58.390866+05:30
Thane,Maharashtra,19.2183,72.9781,29.7,76,0.0,1005.5,7.9,54.0,87,55.3,22.1,13.4,323.0,68.0,9.8,7,5,4,1,2026-05-11T23:26:58.390874+05:30
Nagpur,Maharashtra,21.1458,79.0882,33.1,36,0.0,971.9,8.9,36.7,109,97.8,61.0,48.4,461.0,52.0,27.9,0,5,7,0,2026-05-11T23:26:58.390882+05:30
Nashik,Maharashtra,19.9975,73.7898,28.6,40,0.0,944.0,8.2,50.4,121,41.9,28.7,20.9,264.0,104.0,19.1,4,5,7,0,2026-05-11T23:26:58.390890+05:30
Aurangabad,Maharashtra,19.8762,75.3433,33.3,19,0.0,942.4,9.05,40.0,131,49.4,29.9,20.5,435.0,107.0,12.2,0,5,7,0,2026-05-11T23:26:58.390897+05:30
Solapur,Maharashtra,17.6599,75.9064,33.3,29,0.0,955.5,9.05,33.8,120,33.1,24.9,11.6,362.0,98.0,7.9,0,5,7,0,2026-05-11T23:26:58.390905+05:30
Kolhapur,Maharashtra,16.705,74.2433,26.1,79,0.0,946.8,8.85,56.2,96,30.7,20.3,9.3,240.0,85.0,6.2,7,5,7,1,2026-05-11T23:26:58.390912+05:30
Goa,Goa,15.2993,74.124,28.5,89,0.0,997.1,8.85,28.4,80,52.0,24.3,8.9,287.0,63.0,2.6,7,5,7,1,2026-05-11T23:26:58.390920+05:30
Jodhpur,Rajasthan,26.2389,73.0243,35.7,16,0.0,980.2,8.4,38.2,119,190.9,28.8,5.5,225.0,97.0,3.5,0,5,10,0,2026-05-11T23:26:58.390927+05:30
Udaipur,Rajasthan,24.5854,73.7125,31.8,22,0.0,945.2,8.8,38.9,72,31.7,13.9,7.3,357.0,80.0,4.2,0,5,7,0,2026-05-11T23:26:58.390935+05:30
Kota,Rajasthan,25.2138,75.8648,31.6,36,0.0,976.9,8.4,36.7,98,152.3,49.5,16.5,586.0,81.0,11.9,0,5,7,0,2026-05-11T23:26:58.390942+05:30
Bikaner,Rajasthan,28.0229,73.3119,33.0,34,0.0,979.1,8.3,43.6,87,66.8,21.4,6.9,309.0,73.0,5.6,0,5,7,0,2026-05-11T23:26:58.390949+05:30
Ajmer,Rajasthan,26.4499,74.6399,31.2,33,0.0,953.1,8.35,32.4,90,111.5,37.7,19.0,364.0,63.0,6.9,0,5,7,0,2026-05-11T23:26:58.390956+05:30
Gwalior,Madhya Pradesh,26.2183,78.1828,30.4,43,0.0,982.1,8.2,29.9,138,103.1,44.1,5.1,449.0,123.0,8.9,0,5,7,1,2026-05-11T23:26:58.390963+05:30
Indore,Madhya Pradesh,22.7196,75.8577,33.0,20,0.0,946.8,8.7,46.4,83,51.6,32.6,15.3,408.0,78.0,10.0,0,5,7,0,2026-05-11T23:26:58.390970+05:30
Bhopal,Madhya Pradesh,23.2599,77.4126,31.8,31,0.0,952.9,8.7,41.4,89,82.0,40.0,17.0,365.0,78.0,8.6,0,5,7,0,2026-05-11T23:26:58.390978+05:30
Jabalpur,Madhya Pradesh,23.1815,79.9864,29.9,37,0.0,960.8,8.85,43.9,120,63.1,35.6,8.7,284.0,116.0,6.0,4,5,7,0,2026-05-11T23:26:58.390985+05:30
Ujjain,Madhya Pradesh,23.1765,75.7885,32.7,22,0.0,952.0,8.65,49.3,80,58.8,33.5,11.8,292.0,78.0,8.3,0,5,7,0,2026-05-11T23:26:58.390992+05:30
Visakhapatnam,Andhra Pradesh,17.6868,83.2185,27.9,82,0.0,1004.2,9.1,34.9,69,16.9,15.1,20.0,669.0,29.0,5.7,7,5,4,1,2026-05-11T23:26:58.391000+05:30
Vijayawada,Andhra Pradesh,16.5062,80.648,28.8,77,0.0,1002.5,8.45,33.8,50,11.2,9.5,7.6,164.0,39.0,6.1,7,5,4,1,2026-05-11T23:26:58.391007+05:30
Guntur,Andhra Pradesh,16.3067,80.4365,28.5,78,0.0,1003.7,8.45,34.6,51,10.6,8.7,8.2,159.0,45.0,7.9,7,5,4,1,2026-05-11T23:26:58.391014+05:30
Nellore,Andhra Pradesh,14.4426,79.9865,27.4,84,0.0,1005.6,9.15,37.1,25,7.9,5.9,3.9,204.0,42.0,2.3,7,5,4,1,2026-05-11T23:26:58.391022+05:30
Kurnool,Andhra Pradesh,15.8281,78.0373,31.2,45,0.0,976.0,8.65,40.3,59,36.0,22.8,8.5,188.0,82.0,3.3,0,5,7,1,2026-05-11T23:26:58.391030+05:30
Kakinada,Andhra Pradesh,16.9891,82.2475,28.0,81,0.0,1007.6,9.1,37.8,26,5.9,3.5,1.0,164.0,54.0,0.4,7,5,4,1,2026-05-11T23:26:58.391037+05:30
Tirupati,Andhra Pradesh,13.6288,79.4192,26.6,83,0.0,991.1,9.05,43.2,47,17.5,15.1,18.9,229.0,22.0,3.0,7,5,7,1,2026-05-11T23:26:58.391045+05:30
Warangal,Telangana,17.9689,79.5941,30.5,52,0.0,978.0,9.15,43.6,90,37.3,28.9,9.4,332.0,108.0,9.8,0,5,7,1,2026-05-11T23:26:58.391052+05:30
Nizamabad,Telangana,18.6725,78.0941,30.0,46,0.0,963.2,9.1,32.0,87,64.0,48.0,25.8,294.0,69.0,7.8,4,5,7,1,2026-05-11T23:26:58.391059+05:30
Mysore,Karnataka,12.2958,76.6396,24.4,78,0.0,927.6,8.6,31.7,81,43.4,34.1,33.2,338.0,69.0,6.4,3,5,7,1,2026-05-11T23:26:58.391067+05:30
Mangalore,Karnataka,12.9141,74.856,26.1,96,0.0,1006.0,8.45,36.4,70,46.3,34.9,18.4,613.0,64.0,6.8,7,5,4,1,2026-05-11T23:26:58.391074+05:30
Hubli-Dharwad,Karnataka,15.3647,75.124,25.6,85,0.0,940.2,8.8,41.4,107,22.7,15.8,8.5,217.0,70.0,2.1,7,5,7,1,2026-05-11T23:26:58.391081+05:30
Belgaum,Karnataka,15.8497,74.4977,24.2,93,0.0,925.2,8.85,46.8,84,30.0,16.7,8.1,183.0,59.0,3.1,3,5,7,1,2026-05-11T23:27:01.709695+05:30
Coimbatore,Tamil Nadu,11.0168,76.9558,25.0,89,0.0,960.6,9.2,28.4,85,33.1,25.7,16.6,387.0,66.0,5.1,7,5,7,1,2026-05-11T23:27:01.709727+05:30
Madurai,Tamil Nadu,9.9252,78.1198,26.6,91,0.0,992.4,8.95,29.9,83,38.3,34.0,30.3,332.0,61.0,11.7,7,5,7,1,2026-05-11T23:27:01.709737+05:30
Trichy,Tamil Nadu,10.7905,78.7047,27.0,87,0.0,999.1,9.15,28.1,77,21.8,21.3,24.9,359.0,38.0,16.1,7,5,7,1,2026-05-11T23:27:01.709746+05:30
Salem,Tamil Nadu,11.6643,78.146,26.8,79,0.0,976.5,9.15,32.4,80,33.9,28.3,32.5,344.0,45.0,9.1,7,5,7,1,2026-05-11T23:27:01.709754+05:30
Tirunelveli,Tamil Nadu,8.7139,77.7567,28.3,74,0.0,1001.7,9.05,42.1,56,23.6,21.8,20.0,475.0,37.0,2.7,7,5,4,1,2026-05-11T23:27:01.709762+05:30
Vellore,Tamil Nadu,12.9165,79.1325,26.2,86,0.0,984.4,8.75,30.6,58,30.3,27.8,28.4,327.0,29.0,12.7,7,5,7,1,2026-05-11T23:27:01.709770+05:30
Erode,Tamil Nadu,11.341,77.7172,27.1,75,0.0,988.3,9.15,22.7,82,47.6,39.2,42.9,524.0,52.0,7.0,7,5,7,1,2026-05-11T23:27:01.709777+05:30
Kochi,Kerala,9.9312,76.2673,25.6,91,0.0,1008.2,8.95,33.5,64,23.0,21.5,31.7,554.0,47.0,6.5,7,0,4,1,2026-05-11T23:27:01.709785+05:30
Thiruvananthapuram,Kerala,8.5241,76.9366,25.2,90,0.0,1007.2,8.75,32.8,47,12.0,8.3,4.2,382.0,94.0,2.1,7,5,4,1,2026-05-11T23:27:01.709792+05:30
Kozhikode,Kerala,11.2588,75.7804,25.6,92,0.0,1007.2,8.8,33.5,51,16.7,12.9,3.7,548.0,104.0,2.5,7,5,4,1,2026-05-11T23:27:01.709800+05:30
Thrissur,Kerala,10.5276,76.2144,24.5,97,0.0,1006.5,8.95,31.7,66,26.4,24.2,16.4,577.0,63.0,3.8,3,5,4,1,2026-05-11T23:27:01.709808+05:30
Kannur,Kerala,11.8745,75.3704,25.8,88,0.0,1006.1,8.65,34.9,55,27.2,24.2,26.1,604.0,43.0,4.4,7,5,4,1,2026-05-11T23:27:01.709816+05:30
Patna,Bihar,25.5941,85.1376,27.2,65,0.0,1001.5,8.7,26.3,182,49.5,46.2,13.8,431.0,136.0,18.8,7,5,4,1,2026-05-11T23:27:01.709824+05:30
Gaya,Bihar,24.7914,85.0002,28.0,57,0.0,994.5,8.75,27.4,172,44.9,41.1,12.4,315.0,134.0,30.8,4,5,7,1,2026-05-11T23:27:01.709831+05:30
Muzaffarpur,Bihar,26.1209,85.3647,26.1,69,0.0,1002.0,8.7,27.4,155,45.5,42.7,15.9,465.0,122.0,17.0,7,5,4,1,2026-05-11T23:27:01.709839+05:30
Bhagalpur,Bihar,25.2425,87.0117,27.4,68,0.0,1003.5,8.6,27.0,164,48.7,45.2,16.3,293.0,118.0,15.6,7,5,4,1,2026-05-11T23:27:01.709846+05:30
Ranchi,Jharkhand,23.3441,85.3096,23.0,78,0.0,938.9,9.2,30.6,126,50.2,37.4,7.5,261.0,120.0,12.5,3,5,7,1,2026-05-11T23:27:01.709853+05:30
Jamshedpur,Jharkhand,22.8046,86.2029,25.5,82,0.0,992.5,9.0,32.4,92,32.6,29.3,21.7,215.0,63.0,21.5,7,5,7,1,2026-05-11T23:27:01.709860+05:30
Dhanbad,Jharkhand,23.7957,86.4304,25.5,82,0.0,981.9,8.95,40.3,152,52.0,50.1,59.7,220.0,40.0,69.1,7,5,7,1,2026-05-11T23:27:01.709867+05:30
Bokaro,Jharkhand,23.6693,86.1511,26.0,80,0.0,985.5,8.95,36.4,152,53.0,51.0,52.5,1301.0,55.0,64.3,7,5,7,1,2026-05-11T23:27:01.709874+05:30
Bhubaneswar,Odisha,20.2961,85.8245,26.4,88,0.0,1004.3,9.1,31.7,72,27.8,25.3,21.0,362.0,28.0,6.5,7,5,4,1,2026-05-11T23:27:01.709881+05:30
Cuttack,Odisha,20.4625,85.8828,26.6,88,0.0,1006.3,9.15,40.7,72,27.8,25.3,21.0,293.0,28.0,6.5,7,5,4,1,2026-05-11T23:27:01.709888+05:30
Rourkela,Odisha,22.2604,84.8536,26.1,78,0.0,986.0,8.95,29.5,126,71.5,51.7,15.0,495.0,107.0,45.8,7,5,7,1,2026-05-11T23:27:01.709895+05:30
Raipur,Chhattisgarh,21.2514,81.6296,32.1,38,0.0,972.8,9.0,31.7,147,64.3,43.9,25.6,419.0,98.0,7.7,0,5,7,1,2026-05-11T23:27:01.709902+05:30
Bhilai,Chhattisgarh,21.1938,81.3509,30.5,46,0.0,973.3,9.0,32.0,110,60.1,42.4,32.8,451.0,79.0,8.2,0,5,7,1,2026-05-11T23:27:01.709909+05:30
Guwahati,Assam,26.1158,91.7086,21.5,89,0.0,1005.4,8.6,32.4,74,42.7,40.2,19.8,503.0,42.0,3.9,3,5,4,1,2026-05-11T23:27:01.709916+05:30
Agartala,Tripura,23.8315,91.2868,22.0,95,0.0,1009.6,8.8,27.7,126,33.9,29.9,14.6,457.0,89.0,2.4,3,0,4,1,2026-05-11T23:27:01.709923+05:30
Shillong,Meghalaya,25.5788,91.8933,13.7,94,0.0,857.7,8.85,22.7,71,26.4,23.3,18.2,583.0,46.0,1.3,3,10,7,0,2026-05-11T23:27:01.709931+05:30
Imphal,Manipur,24.817,93.9368,17.1,96,0.0,925.5,8.55,28.4,76,32.0,29.7,26.9,827.0,36.0,4.1,3,10,7,1,2026-05-11T23:27:01.709939+05:30
Aizawl,Mizoram,23.7271,92.7176,15.8,91,0.0,893.7,9.0,25.2,76,18.5,16.5,11.8,356.0,34.0,0.6,3,10,7,0,2026-05-11T23:27:01.709947+05:30
Kohima,Nagaland,25.6701,94.1077,13.3,96,0.0,855.4,8.65,20.9,51,17.1,15.1,10.5,382.0,51.0,1.2,3,10,7,0,2026-05-11T23:27:01.709955+05:30
Gangtok,Sikkim,27.3314,88.6138,12.5,96,0.0,838.6,8.95,46.4,66,42.6,33.2,23.4,492.0,63.0,1.7,3,10,7,0,2026-05-11T23:27:01.709962+05:30
Siliguri,West Bengal,26.7271,88.3953,22.1,90,0.1,997.6,8.55,26.3,93,57.5,43.2,22.7,489.0,96.0,5.5,6,5,7,1,2026-05-11T23:27:05.032980+05:30
Durgapur,West Bengal,23.5204,87.3119,25.2,87,0.0,997.2,8.85,40.0,154,49.9,47.6,31.8,273.0,66.0,36.0,7,5,7,1,2026-05-11T23:27:05.033014+05:30
Asansol,West Bengal,23.6739,86.9524,25.2,84,0.0,995.7,8.9,38.5,147,40.6,38.3,34.6,606.0,60.0,46.6,7,5,7,1,2026-05-11T23:27:05.033025+05:30
Pondicherry,Puducherry,11.9139,79.8145,27.9,87,0.0,1007.6,8.85,33.5,31,8.1,5.9,4.6,200.0,37.0,0.8,7,5,4,1,2026-05-11T23:27:05.033034+05:30
Port Blair,Andaman and Nicobar Islands,11.6234,92.7265,25.9,94,0.0,1007.4,8.35,34.2,26,2.0,1.6,0.5,198.0,57.0,0.1,7,5,4,1,2026-05-11T23:27:05.033044+05:30
Haridwar,Uttarakhand,29.9457,78.1642,23.6,80,0.0,973.3,6.3,30.6,147,75.9,56.6,20.1,427.0,95.0,10.5,3,5,7,1,2026-05-11T23:27:05.033052+05:30
Rishikesh,Uttarakhand,30.0869,78.2676,21.4,84,0.0,965.9,5.95,27.4,143,78.0,50.4,15.8,424.0,96.0,6.6,3,5,3,1,2026-05-11T23:27:05.033061+05:30
Nainital,Uttarakhand,29.3919,79.4542,12.5,92,0.0,804.6,6.15,32.4,142,70.8,53.1,20.8,373.0,89.0,8.4,3,10,7,0,2026-05-11T23:27:05.033068+05:30
Mussoorie,Uttarakhand,30.4599,78.0664,12.3,95,0.0,801.3,6.15,45.0,153,70.8,51.6,21.5,457.0,119.0,13.5,3,10,7,0,2026-05-11T23:27:05.033077+05:30
Dharamshala,Himachal Pradesh,32.219,76.3234,18.7,64,0.0,868.4,8.35,38.9,93,47.0,29.4,12.8,375.0,62.0,0.7,3,5,7,0,2026-05-11T23:27:05.033085+05:30
Dalhousie,Himachal Pradesh,32.5387,75.971,10.8,81,0.0,801.2,8.55,36.4,152,105.7,60.1,38.0,692.0,60.0,3.6,3,10,7,0,2026-05-11T23:27:05.033093+05:30
Patiala,Punjab,30.3398,76.3869,24.2,79,0.0,976.8,7.55,67.3,461,183.5,74.7,14.3,601.0,118.0,22.8,3,5,7,1,2026-05-11T23:27:05.033101+05:30
Bhatinda,Punjab,30.211,74.9455,26.5,65,0.0,981.9,8.2,43.6,436,271.0,84.5,10.0,516.0,117.0,13.5,7,5,7,1,2026-05-11T23:27:05.033109+05:30
Rohtak,Haryana,28.8955,76.6066,27.8,57,0.0,980.4,7.65,33.8,258,435.9,97.1,28.2,511.0,127.0,27.9,4,5,7,1,2026-05-11T23:27:05.033117+05:30
Panipat,Haryana,29.3909,76.9635,25.0,73,0.0,979.1,7.5,33.8,536,410.7,100.6,21.4,574.0,125.0,20.0,7,5,7,1,2026-05-11T23:27:05.033124+05:30
Mathura,Uttar Pradesh,27.4924,77.6737,28.5,56,0.0,985.6,7.95,27.0,373,815.8,115.5,13.7,517.0,112.0,12.3,4,5,7,1,2026-05-11T23:27:05.033132+05:30
Vrindavan,Uttar Pradesh,27.5823,77.7027,28.5,55,0.0,986.0,7.9,27.7,373,815.8,115.5,13.7,498.0,112.0,12.3,4,5,7,1,2026-05-11T23:27:05.033140+05:30
Ayodhya,Uttar Pradesh,26.7922,82.1998,26.6,57,0.0,995.7,8.25,33.5,103,65.9,56.9,45.7,466.0,64.0,13.9,4,5,7,1,2026-05-11T23:27:05.033148+05:30
Ratlam,Madhya Pradesh,23.3315,75.0367,31.0,25,0.0,952.5,8.55,43.2,79,46.7,22.5,5.2,313.0,92.0,7.7,0,5,7,0,2026-05-11T23:27:05.033155+05:30
Sagar,Madhya Pradesh,23.8388,78.7378,29.2,41,0.0,949.7,8.7,44.6,116,68.9,37.3,5.6,337.0,122.0,7.3,4,5,7,0,2026-05-11T23:27:05.033163+05:30
Satna,Madhya Pradesh,24.6005,80.8322,29.1,41,0.0,970.9,8.75,46.4,160,50.8,34.8,8.0,310.0,134.0,10.1,4,5,7,0,2026-05-11T23:27:05.033170+05:30
Akola,Maharashtra,20.7002,77.0082,33.5,28,0.0,972.5,8.85,43.6,96,60.8,36.4,22.0,311.0,71.0,8.4,0,5,7,0,2026-05-11T23:27:05.033179+05:30
Amravati,Maharashtra,20.9374,77.7796,34.0,27,0.0,965.1,8.9,39.2,102,71.5,40.0,25.8,275.0,72.0,8.9,0,5,7,0,2026-05-11T23:27:05.033188+05:30
Latur,Maharashtra,18.4088,76.5604,30.6,32,0.0,938.4,9.05,39.6,118,49.6,34.6,15.2,329.0,97.0,10.9,0,5,7,0,2026-05-11T23:27:05.033196+05:30
Nanded,Maharashtra,19.1383,77.3091,31.6,35,0.0,966.8,9.0,32.0,100,56.1,37.5,23.8,313.0,72.0,7.3,0,5,7,0,2026-05-11T23:27:05.033204+05:30
Gulbarga,Karnataka,17.3297,76.8343,31.0,40,0.0,957.4,9.05,30.2,114,30.5,21.0,12.6,325.0,95.0,8.7,0,5,7,0,2026-05-11T23:27:05.033211+05:30
Bidar,Karnataka,17.9104,77.5199,29.1,43,0.0,934.5,9.1,32.8,93,44.7,31.8,19.0,311.0,79.0,6.2,4,5,7,0,2026-05-11T23:27:05.033218+05:30
Hospet,Karnataka,15.2689,76.3909,29.1,40,0.0,954.2,8.75,32.4,121,36.2,24.3,17.0,293.0,88.0,9.9,4,5,7,0,2026-05-11T23:27:05.033226+05:30
Tirupur,Tamil Nadu,11.1085,77.3411,26.1,84,0.0,974.1,9.25,32.0,90,37.3,30.4,26.3,331.0,65.0,7.0,7,5,7,1,2026-05-11T23:27:05.033233+05:30
Alappuzha,Kerala,9.4981,76.3388,26.5,92,0.0,1008.2,8.65,33.1,53,23.1,20.0,17.0,156.0,78.0,5.0,7,0,4,1,2026-05-11T23:27:05.033241+05:30
Munnar,Kerala,10.0889,77.0595,17.9,77,0.0,855.5,9.45,24.5,61,30.5,27.0,16.7,331.0,38.0,2.7,3,5,7,0,2026-05-11T23:27:05.033249+05:30
Silchar,Assam,24.8333,92.7789,22.2,95,0.0,1008.5,8.8,19.1,113,44.1,37.5,6.6,614.0,111.0,5.6,3,0,4,1,2026-05-11T23:27:05.033257+05:30
Dibrugarh,Assam,27.4728,94.912,19.6,95,0.0,999.3,6.15,22.3,69,52.4,47.6,35.4,489.0,26.0,4.3,3,10,7,1,2026-05-11T23:27:05.033265+05:30
