city,state,latitude,longitude,temp,humidity,rain,pressure,uv_index,wind_gusts,aqi,pm10,pm2_5,mosquito_risk,arthritis_risk,migraine_risk,frizz_risk,updated_at
Delhi,Delhi,28.6139,77.209,29.6,44,0.0,984.2,5.9,32.8,269,389.3,53.4,4,5,3,1,2026-04-03T16:25:58.950604+05:30
Mumbai,Maharashtra,19.076,72.8777,28.2,73,0.0,1008.5,7.6,25.2,78,51.7,23.1,7,0,4,1,2026-04-03T16:25:58.950654+05:30
Bangalore,Karnataka,12.9716,77.5946,33.0,32,0.0,910.7,9.6,26.6,135,21.5,18.2,0,5,7,0,2026-04-03T16:25:58.950670+05:30
Hyderabad,Telangana,17.385,78.4867,36.0,25,0.0,952.1,8.85,19.8,68,25.1,17.8,0,5,10,0,2026-04-03T16:25:58.950681+05:30
Chennai,Tamil Nadu,13.0827,80.2707,32.5,47,0.0,1006.0,9.3,36.7,44,13.6,10.9,0,5,4,1,2026-04-03T16:25:58.950690+05:30
Kolkata,West Bengal,22.5726,88.3639,35.5,45,0.0,1003.3,8.7,20.2,95,41.0,33.1,0,5,7,1,2026-04-03T16:25:58.950699+05:30
Pune,Maharashtra,18.5204,73.8567,33.0,38,0.0,948.0,8.5,36.4,132,42.6,34.2,0,5,7,1,2026-04-03T16:25:58.950710+05:30
Ahmedabad,Gujarat,23.0225,72.5714,32.7,31,0.0,1001.9,7.25,42.1,64,68.2,18.0,0,5,4,0,2026-04-03T16:25:58.950718+05:30
Jaipur,Rajasthan,26.9124,75.7873,25.7,62,0.0,960.6,7.5,55.8,125,204.9,30.7,7,5,7,1,2026-04-03T16:25:58.950726+05:30
Lucknow,Uttar Pradesh,26.8467,80.9462,34.3,36,0.0,992.8,6.85,28.8,97,181.1,39.0,0,5,7,1,2026-04-03T16:25:58.950734+05:30
Kanpur,Uttar Pradesh,26.4499,80.3319,33.9,40,0.0,991.0,5.2,26.3,151,252.4,36.0,0,5,3,1,2026-04-03T16:25:58.950743+05:30
Chandigarh,Chandigarh,30.7333,76.7794,26.3,57,0.0,970.1,5.85,49.3,70,74.3,26.1,4,5,3,1,2026-04-03T16:25:58.950750+05:30
Srinagar,Jammu and Kashmir,34.0837,74.7973,14.6,63,0.0,840.7,6.45,35.3,100,20.5,13.4,3,5,7,0,2026-04-03T16:25:58.950757+05:30
Jammu,Jammu and Kashmir,32.7266,74.857,21.7,82,0.0,974.5,6.05,35.3,73,44.9,18.6,3,5,7,1,2026-04-03T16:25:58.950767+05:30
Amritsar,Punjab,31.634,74.8723,21.1,85,0.0,982.3,4.15,57.6,91,38.8,13.8,3,5,3,1,2026-04-03T16:25:58.950774+05:30
Ludhiana,Punjab,30.901,75.8573,24.4,63,0.0,981.3,4.9,45.4,104,67.8,21.4,3,5,3,1,2026-04-03T16:25:58.950780+05:30
Jalandhar,Punjab,31.326,75.5762,22.7,79,0.0,982.2,5.2,41.8,87,52.2,16.6,3,5,3,1,2026-04-03T16:25:58.950789+05:30
Dehradun,Uttarakhand,30.6284,78.0322,20.8,54,0.0,832.4,5.4,34.2,47,24.6,9.8,0,5,3,0,2026-04-03T16:25:58.950796+05:30
Shimla,Himachal Pradesh,31.1048,77.1734,18.0,61,0.0,786.0,6.15,51.5,53,25.2,12.6,3,5,7,0,2026-04-03T16:25:58.950803+05:30
Manali,Himachal Pradesh,32.2396,77.1887,17.9,69,0.0,821.4,7.1,46.1,57,9.4,4.3,3,5,7,0,2026-04-03T16:25:58.950810+05:30
Gurgaon,Haryana,28.4595,77.0266,30.1,39,0.0,982.5,6.3,32.0,733,451.7,55.4,0,5,7,0,2026-04-03T16:25:58.950817+05:30
Noida,Uttar Pradesh,28.5355,77.391,30.1,42,0.0,985.7,6.0,29.5,733,451.7,55.4,0,5,3,0,2026-04-03T16:25:58.950824+05:30
Ghaziabad,Uttar Pradesh,28.6692,77.4538,29.3,47,0.0,983.9,5.85,30.6,175,390.2,64.5,4,5,3,1,2026-04-03T16:25:58.950830+05:30
Faridabad,Haryana,28.4089,77.3178,31.0,36,0.0,984.7,6.25,30.2,733,451.7,55.4,0,5,7,0,2026-04-03T16:25:58.950836+05:30
Meerut,Uttar Pradesh,28.9845,77.7064,28.3,55,0.0,982.7,6.3,26.3,175,390.2,64.5,4,5,7,1,2026-04-03T16:25:58.950843+05:30
Agra,Uttar Pradesh,27.1767,78.0081,34.0,27,0.0,987.8,7.35,35.6,545,486.2,56.9,0,5,7,0,2026-04-03T16:25:58.950849+05:30
Varanasi,Uttar Pradesh,25.3176,82.9739,35.1,36,0.0,996.4,7.7,32.0,92,20.7,15.0,0,5,10,1,2026-04-03T16:25:58.950859+05:30
Prayagraj,Uttar Pradesh,25.4358,81.8463,34.8,35,0.0,995.2,7.25,36.7,85,32.2,15.5,0,5,7,1,2026-04-03T16:25:58.950866+05:30
Gorakhpur,Uttar Pradesh,26.7606,83.3732,35.8,25,0.0,995.4,7.1,39.6,87,29.5,16.0,0,5,10,0,2026-04-03T16:25:58.950872+05:30
Bareilly,Uttar Pradesh,28.367,79.4304,32.6,36,0.0,986.8,6.1,19.1,84,108.3,38.5,0,5,7,0,2026-04-03T16:25:58.950879+05:30
Aligarh,Uttar Pradesh,27.8974,78.088,31.9,36,0.0,986.0,7.0,28.1,466,653.8,85.0,0,5,7,0,2026-04-03T16:25:58.950888+05:30
Moradabad,Uttar Pradesh,28.8386,78.7733,30.8,46,0.0,984.3,6.25,20.5,124,201.2,61.9,0,5,7,1,2026-04-03T16:25:58.950894+05:30
Saharanpur,Uttar Pradesh,29.9637,77.546,28.1,55,0.0,976.6,6.55,29.9,112,213.3,50.2,4,5,7,1,2026-04-03T16:25:58.950900+05:30
Jhansi,Uttar Pradesh,25.4484,78.5685,33.0,34,0.0,977.4,7.8,40.3,68,43.2,19.2,0,5,7,0,2026-04-03T16:26:02.213506+05:30
Surat,Gujarat,21.1702,72.8311,30.3,54,0.0,1007.1,7.65,30.6,96,47.8,30.9,0,5,4,1,2026-04-03T16:26:02.213540+05:30
Vadodara,Gujarat,22.3072,73.1812,34.0,34,0.0,1003.9,7.85,33.1,77,44.7,19.7,0,5,4,0,2026-04-03T16:26:02.213585+05:30
Rajkot,Gujarat,22.3039,70.8022,27.7,61,0.0,995.3,7.25,45.4,65,30.2,9.6,7,5,7,1,2026-04-03T16:26:02.213595+05:30
Thane,Maharashtra,19.2183,72.9781,29.9,62,0.0,1008.0,7.7,37.1,78,51.7,23.1,7,0,4,1,2026-04-03T16:26:02.213602+05:30
Nagpur,Maharashtra,21.1458,79.0882,34.9,36,0.0,972.0,8.7,23.4,110,36.8,29.6,0,5,7,1,2026-04-03T16:26:02.213609+05:30
Nashik,Maharashtra,19.9975,73.7898,30.5,39,0.0,945.7,8.15,40.0,70,24.2,10.8,0,5,7,0,2026-04-03T16:26:02.213617+05:30
Aurangabad,Maharashtra,19.8762,75.3433,33.4,33,0.0,943.4,8.75,29.5,100,35.5,27.2,0,5,7,0,2026-04-03T16:26:02.213623+05:30
Solapur,Maharashtra,17.6599,75.9064,36.4,27,0.0,955.5,8.95,50.8,105,26.5,21.2,0,5,10,0,2026-04-03T16:26:02.213631+05:30
Kolhapur,Maharashtra,16.705,74.2433,30.3,54,0.0,947.5,8.95,34.6,137,40.2,34.3,0,5,7,1,2026-04-03T16:26:02.213639+05:30
Goa,Goa,15.2993,74.124,31.2,66,0.0,997.2,9.0,31.7,75,21.7,18.0,3,5,7,1,2026-04-03T16:26:02.213647+05:30
Jodhpur,Rajasthan,26.2389,73.0243,29.3,33,0.0,982.7,7.45,44.6,134,221.7,29.7,4,5,7,0,2026-04-03T16:26:02.213654+05:30
Udaipur,Rajasthan,24.5854,73.7125,27.6,36,0.0,946.4,7.95,54.7,47,59.8,16.6,4,5,7,0,2026-04-03T16:26:02.213661+05:30
Kota,Rajasthan,25.2138,75.8648,35.3,22,0.0,977.2,7.85,48.2,56,34.5,12.6,0,5,10,0,2026-04-03T16:26:02.213668+05:30
Bikaner,Rajasthan,28.0229,73.3119,24.5,56,0.0,983.1,7.25,54.7,62,45.6,15.0,0,5,7,0,2026-04-03T16:26:02.213676+05:30
Ajmer,Rajasthan,26.4499,74.6399,29.1,36,0.0,954.2,7.55,59.8,77,58.7,15.7,4,5,7,0,2026-04-03T16:26:02.213682+05:30
Gwalior,Madhya Pradesh,26.2183,78.1828,28.9,51,0.0,984.0,7.65,42.1,64,75.9,21.4,4,5,7,1,2026-04-03T16:26:02.213689+05:30
Indore,Madhya Pradesh,22.7196,75.8577,33.9,22,0.0,947.6,8.3,37.1,85,24.6,15.2,0,5,7,0,2026-04-03T16:26:02.213696+05:30
Bhopal,Madhya Pradesh,23.2599,77.4126,29.9,47,0.0,954.0,8.1,31.7,84,24.0,19.0,4,5,7,1,2026-04-03T16:26:02.213703+05:30
Jabalpur,Madhya Pradesh,23.1815,79.9864,34.7,30,0.0,960.7,7.65,22.3,86,27.2,21.0,0,5,7,0,2026-04-03T16:26:02.213709+05:30
Ujjain,Madhya Pradesh,23.1765,75.7885,33.5,28,0.0,953.0,8.2,36.0,75,29.3,13.0,0,5,7,0,2026-04-03T16:26:02.213717+05:30
Visakhapatnam,Andhra Pradesh,17.6868,83.2185,31.4,64,0.0,1002.6,8.95,41.8,57,26.3,24.2,3,5,4,1,2026-04-03T16:26:02.213724+05:30
Vijayawada,Andhra Pradesh,16.5062,80.648,36.7,36,0.0,1000.5,8.5,31.0,48,10.9,9.0,0,5,7,1,2026-04-03T16:26:02.213731+05:30
Guntur,Andhra Pradesh,16.3067,80.4365,36.2,38,0.0,1002.0,8.45,32.8,44,9.3,6.9,0,5,7,1,2026-04-03T16:26:02.213738+05:30
Nellore,Andhra Pradesh,14.4426,79.9865,33.8,50,0.0,1004.2,9.25,34.2,48,15.3,13.1,0,5,4,1,2026-04-03T16:26:02.213745+05:30
Kurnool,Andhra Pradesh,15.8281,78.0373,38.1,23,0.0,974.5,8.75,20.5,52,21.6,14.8,0,5,10,0,2026-04-03T16:26:02.213753+05:30
Kakinada,Andhra Pradesh,16.9891,82.2475,34.7,49,0.0,1005.6,8.85,39.6,35,6.1,4.3,0,5,4,1,2026-04-03T16:26:02.213760+05:30
Tirupati,Andhra Pradesh,13.6288,79.4192,35.8,33,0.0,989.3,9.35,31.7,52,12.5,9.7,0,5,10,1,2026-04-03T16:26:02.213766+05:30
Warangal,Telangana,17.9689,79.5941,36.3,35,0.0,977.2,8.75,17.6,73,21.5,15.8,0,5,10,1,2026-04-03T16:26:02.213773+05:30
Nizamabad,Telangana,18.6725,78.0941,35.3,34,0.0,963.5,8.55,25.9,111,30.5,23.3,0,5,10,1,2026-04-03T16:26:02.213779+05:30
Mysore,Karnataka,12.2958,76.6396,34.0,27,0.0,927.1,9.5,45.7,116,19.0,15.5,0,5,7,0,2026-04-03T16:26:02.213786+05:30
Mangalore,Karnataka,12.9141,74.856,29.5,82,0.0,1005.4,9.15,24.5,84,22.7,17.8,7,5,4,1,2026-04-03T16:26:02.213793+05:30
Hubli-Dharwad,Karnataka,15.3647,75.124,32.0,45,0.0,940.1,9.2,38.9,124,28.7,23.2,0,5,7,1,2026-04-03T16:26:02.213800+05:30
Belgaum,Karnataka,15.8497,74.4977,28.4,63,0.0,925.7,9.25,33.1,142,35.4,30.2,7,5,7,1,2026-04-03T16:26:05.467425+05:30
Coimbatore,Tamil Nadu,11.0168,76.9558,31.8,51,0.0,960.6,9.45,45.0,113,21.3,18.5,0,5,7,1,2026-04-03T16:26:05.467460+05:30
Madurai,Tamil Nadu,9.9252,78.1198,33.7,47,0.0,991.6,9.1,34.6,65,13.4,11.8,0,5,7,1,2026-04-03T16:26:05.467471+05:30
Trichy,Tamil Nadu,10.7905,78.7047,36.8,35,0.0,997.3,9.4,34.6,57,14.8,13.4,0,5,10,1,2026-04-03T16:26:05.467479+05:30
Salem,Tamil Nadu,11.6643,78.146,37.4,28,0.0,974.8,9.45,33.1,62,16.1,14.3,0,5,10,0,2026-04-03T16:26:05.467488+05:30
Tirunelveli,Tamil Nadu,8.7139,77.7567,31.7,63,0.0,1002.3,9.35,37.1,78,19.0,17.2,3,5,4,1,2026-04-03T16:26:05.467495+05:30
Vellore,Tamil Nadu,12.9165,79.1325,35.5,35,0.0,982.5,9.4,37.1,67,25.2,22.0,0,5,10,1,2026-04-03T16:26:05.467502+05:30
Erode,Tamil Nadu,11.341,77.7172,38.2,26,0.0,985.9,9.4,29.2,54,14.3,12.5,0,5,10,0,2026-04-03T16:26:05.467510+05:30
Kochi,Kerala,9.9312,76.2673,29.4,77,0.0,1007.3,9.2,24.1,84,18.7,16.4,7,5,4,1,2026-04-03T16:26:05.467517+05:30
Thiruvananthapuram,Kerala,8.5241,76.9366,29.0,79,0.0,1007.2,8.95,23.8,74,22.0,17.6,7,5,4,1,2026-04-03T16:26:05.467524+05:30
Kozhikode,Kerala,11.2588,75.7804,30.4,76,0.0,1006.4,9.15,25.2,69,16.8,13.9,3,5,4,1,2026-04-03T16:26:05.467530+05:30
Thrissur,Kerala,10.5276,76.2144,32.3,62,0.0,1005.5,9.2,30.2,66,20.9,18.3,3,5,4,1,2026-04-03T16:26:05.467537+05:30
Kannur,Kerala,11.8745,75.3704,31.2,69,0.0,1005.9,9.15,27.4,71,19.4,15.7,3,5,4,1,2026-04-03T16:26:05.467544+05:30
Patna,Bihar,25.5941,85.1376,38.0,24,0.0,997.6,8.3,36.4,122,37.5,22.2,0,5,10,0,2026-04-03T16:26:05.467569+05:30
Gaya,Bihar,24.7914,85.0002,37.3,28,0.0,991.5,8.4,27.0,131,30.5,21.0,0,5,10,0,2026-04-03T16:26:05.467575+05:30
Muzaffarpur,Bihar,26.1209,85.3647,38.0,21,0.0,997.2,8.25,39.2,113,40.5,21.8,0,5,10,0,2026-04-03T16:26:05.467581+05:30
Bhagalpur,Bihar,25.2425,87.0117,35.7,34,0.0,998.2,8.3,23.8,120,36.4,20.7,0,5,10,1,2026-04-03T16:26:05.467588+05:30
Ranchi,Jharkhand,23.3441,85.3096,34.4,24,0.0,937.3,8.95,26.6,121,24.6,18.6,0,5,7,0,2026-04-03T16:26:05.467594+05:30
Jamshedpur,Jharkhand,22.8046,86.2029,37.6,30,0.0,988.1,8.8,23.4,176,32.4,25.0,0,5,10,1,2026-04-03T16:26:05.467601+05:30
Dhanbad,Jharkhand,23.7957,86.4304,38.8,20,0.0,977.0,8.7,21.6,150,34.8,27.9,0,5,10,0,2026-04-03T16:26:05.467607+05:30
Bokaro,Jharkhand,23.6693,86.1511,37.9,20,0.0,981.2,8.7,19.8,148,33.4,26.8,0,5,10,0,2026-04-03T16:26:05.467614+05:30
Bhubaneswar,Odisha,20.2961,85.8245,34.1,54,0.0,1000.9,8.95,30.2,72,30.2,23.1,0,5,4,1,2026-04-03T16:26:05.467620+05:30
Cuttack,Odisha,20.4625,85.8828,35.0,47,0.0,1002.6,9.0,37.8,72,30.2,23.1,0,5,4,1,2026-04-03T16:26:05.467626+05:30
Rourkela,Odisha,22.2604,84.8536,38.1,26,0.0,982.9,8.7,26.6,170,37.4,30.4,0,5,10,0,2026-04-03T16:26:05.467633+05:30
Raipur,Chhattisgarh,21.2514,81.6296,36.7,32,0.0,973.0,8.8,26.3,143,31.9,26.7,0,5,10,1,2026-04-03T16:26:05.467639+05:30
Bhilai,Chhattisgarh,21.1938,81.3509,36.9,30,0.0,973.4,8.8,27.7,121,29.2,23.7,0,5,10,1,2026-04-03T16:26:05.467645+05:30
Guwahati,Assam,26.1158,91.7086,29.4,69,0.0,999.6,8.25,43.6,136,56.7,45.6,7,5,7,1,2026-04-03T16:26:05.467651+05:30
Agartala,Tripura,23.8315,91.2868,33.3,59,0.0,1003.7,8.45,23.8,76,37.1,27.8,0,5,4,1,2026-04-03T16:26:05.467657+05:30
Shillong,Meghalaya,25.5788,91.8933,20.0,59,0.0,856.5,8.55,55.1,113,38.4,29.3,0,5,7,0,2026-04-03T16:26:05.467663+05:30
Imphal,Manipur,24.817,93.9368,22.7,69,0.0,922.6,8.85,60.8,112,45.8,35.9,3,5,7,1,2026-04-03T16:26:05.467669+05:30
Aizawl,Mizoram,23.7271,92.7176,26.4,56,0.0,893.1,8.7,52.9,120,53.4,37.7,4,5,7,1,2026-04-03T16:26:05.467675+05:30
Kohima,Nagaland,25.6701,94.1077,19.0,80,0.0,855.2,8.75,80.3,107,52.6,38.4,3,5,7,0,2026-04-03T16:26:05.467681+05:30
Gangtok,Sikkim,27.3314,88.6138,20.2,74,0.0,837.8,7.55,19.1,114,54.9,41.6,3,5,7,0,2026-04-03T16:26:05.467686+05:30
Siliguri,West Bengal,26.7271,88.3953,27.2,62,0.0,991.8,8.25,18.7,152,63.8,48.1,7,5,7,1,2026-04-03T16:26:08.722932+05:30
Durgapur,West Bengal,23.5204,87.3119,38.4,25,0.0,992.0,8.65,17.3,157,46.1,38.0,0,5,10,0,2026-04-03T16:26:08.722967+05:30
Asansol,West Bengal,23.6739,86.9524,38.0,27,0.0,990.6,8.65,16.9,139,40.2,32.7,0,5,10,0,2026-04-03T16:26:08.722978+05:30
Pondicherry,Puducherry,11.9139,79.8145,33.3,55,0.0,1006.6,9.3,34.6,43,17.5,13.9,0,5,4,1,2026-04-03T16:26:08.722987+05:30
Port Blair,Andaman and Nicobar Islands,11.6234,92.7265,28.7,75,0.0,1006.5,9.2,22.7,42,19.4,10.2,7,5,4,1,2026-04-03T16:26:08.722996+05:30
Haridwar,Uttarakhand,29.9457,78.1642,29.3,48,0.0,975.1,6.4,22.0,65,118.5,40.5,4,5,7,1,2026-04-03T16:26:08.723003+05:30
Rishikesh,Uttarakhand,30.0869,78.2676,29.7,38,0.0,967.8,5.85,23.8,51,61.7,24.4,4,5,3,0,2026-04-03T16:26:08.723010+05:30
Nainital,Uttarakhand,29.3919,79.4542,23.6,50,0.0,809.2,4.8,36.4,69,36.2,15.3,0,5,3,0,2026-04-03T16:26:08.723018+05:30
Mussoorie,Uttarakhand,30.4599,78.0664,21.4,51,0.0,805.2,5.3,45.4,54,49.2,19.7,0,5,3,0,2026-04-03T16:26:08.723025+05:30
Dharamshala,Himachal Pradesh,32.219,76.3234,22.1,64,0.0,869.0,5.1,51.5,48,14.9,8.2,3,5,3,0,2026-04-03T16:26:08.723032+05:30
Dalhousie,Himachal Pradesh,32.5387,75.971,20.1,48,0.0,804.2,5.85,50.4,56,26.7,15.1,0,5,3,0,2026-04-03T16:26:08.723039+05:30
Patiala,Punjab,30.3398,76.3869,26.7,54,0.0,979.7,6.25,42.8,108,391.2,48.7,4,5,7,1,2026-04-03T16:26:08.723047+05:30
Bhatinda,Punjab,30.211,74.9455,22.5,76,0.0,985.5,5.45,44.6,88,84.3,20.6,3,5,3,1,2026-04-03T16:26:08.723054+05:30
Rohtak,Haryana,28.8955,76.6066,28.2,48,0.0,983.3,5.9,31.7,432,322.2,38.5,4,5,3,1,2026-04-03T16:26:08.723060+05:30
Panipat,Haryana,29.3909,76.9635,27.8,50,0.0,981.9,5.9,43.9,705,830.7,80.1,4,5,3,1,2026-04-03T16:26:08.723066+05:30
Mathura,Uttar Pradesh,27.4924,77.6737,31.8,33,0.0,987.3,7.25,31.7,636,387.4,50.8,0,5,7,0,2026-04-03T16:26:08.723073+05:30
Vrindavan,Uttar Pradesh,27.5823,77.7027,32.0,33,0.0,988.0,7.2,34.9,636,387.4,50.8,0,5,7,0,2026-04-03T16:26:08.723079+05:30
Ayodhya,Uttar Pradesh,26.7922,82.1998,34.4,32,0.0,994.3,6.85,36.0,72,49.0,19.8,0,5,7,0,2026-04-03T16:26:08.723085+05:30
Ratlam,Madhya Pradesh,23.3315,75.0367,31.8,35,0.0,954.3,8.15,42.8,70,31.9,12.5,0,5,7,0,2026-04-03T16:26:08.723091+05:30
Sagar,Madhya Pradesh,23.8388,78.7378,34.2,29,0.0,949.7,7.35,26.6,85,21.9,17.2,0,5,7,0,2026-04-03T16:26:08.723097+05:30
Satna,Madhya Pradesh,24.6005,80.8322,34.6,31,0.0,971.3,7.2,36.0,80,24.1,18.7,0,5,7,0,2026-04-03T16:26:08.723103+05:30
Akola,Maharashtra,20.7002,77.0082,34.7,35,0.0,974.2,8.6,31.3,104,41.4,34.7,0,5,7,1,2026-04-03T16:26:08.723111+05:30
Amravati,Maharashtra,20.9374,77.7796,35.7,32,0.0,966.1,8.65,43.6,101,41.7,34.3,0,5,10,1,2026-04-03T16:26:08.723117+05:30
Latur,Maharashtra,18.4088,76.5604,34.0,30,0.0,938.8,8.8,33.5,102,26.4,20.4,0,5,7,0,2026-04-03T16:26:08.723123+05:30
Nanded,Maharashtra,19.1383,77.3091,36.1,31,0.0,967.0,8.3,29.5,99,31.7,24.8,0,5,10,1,2026-04-03T16:26:08.723129+05:30
Gulbarga,Karnataka,17.3297,76.8343,37.5,19,0.0,956.8,8.6,36.7,119,24.0,19.5,0,5,10,0,2026-04-03T16:26:08.723135+05:30
Bidar,Karnataka,17.9104,77.5199,35.3,24,0.0,934.5,8.45,33.5,93,21.7,16.1,0,5,10,0,2026-04-03T16:26:08.723141+05:30
Hospet,Karnataka,15.2689,76.3909,36.0,20,0.0,954.2,9.2,36.4,136,22.6,18.4,0,5,10,0,2026-04-03T16:26:08.723146+05:30
Tirupur,Tamil Nadu,11.1085,77.3411,36.9,26,0.0,972.8,9.5,43.6,103,18.7,16.4,0,5,10,0,2026-04-03T16:26:08.723152+05:30
Alappuzha,Kerala,9.4981,76.3388,29.4,79,0.0,1007.6,9.2,23.0,90,19.6,16.7,7,5,4,1,2026-04-03T16:26:08.723158+05:30
Munnar,Kerala,10.0889,77.0595,24.1,79,0.0,857.3,8.0,29.2,65,12.2,11.1,3,5,7,1,2026-04-03T16:26:08.723164+05:30
Silchar,Assam,24.8333,92.7789,30.7,63,0.0,1003.1,8.5,29.2,151,62.2,48.0,3,5,4,1,2026-04-03T16:26:08.723170+05:30
Dibrugarh,Assam,27.4728,94.912,26.9,70,0.0,994.6,8.3,12.6,97,31.4,25.4,7,5,7,1,2026-04-03T16:26:08.723177+05:30
