city,state,latitude,longitude,temp,humidity,rain,pressure,uv_index,wind_gusts,aqi,pm10,pm2_5,mosquito_risk,arthritis_risk,migraine_risk,frizz_risk,updated_at
Delhi,Delhi,28.6139,77.209,28.2,35,0.0,981.6,6.15,24.5,166,246.8,59.8,4,5,7,0,2026-04-17T00:50:30.760767+05:30
Mumbai,Maharashtra,19.076,72.8777,28.7,74,0.0,1007.9,7.05,21.2,80,56.9,22.4,7,5,4,1,2026-04-17T00:50:30.760815+05:30
Bangalore,Karnataka,12.9716,77.5946,25.8,67,0.0,911.8,9.55,34.9,81,28.7,26.6,7,5,7,1,2026-04-17T00:50:30.760831+05:30
Hyderabad,Telangana,17.385,78.4867,29.0,59,0.0,952.4,9.2,45.7,87,26.1,25.0,4,5,7,1,2026-04-17T00:50:30.760847+05:30
Chennai,Tamil Nadu,13.0827,80.2707,28.0,88,0.0,1006.1,8.7,33.8,31,11.5,7.9,7,5,4,1,2026-04-17T00:50:30.760856+05:30
Kolkata,West Bengal,22.5726,88.3639,26.0,94,0.0,1006.1,8.9,22.7,74,21.1,17.0,7,5,4,1,2026-04-17T00:50:30.760870+05:30
Pune,Maharashtra,18.5204,73.8567,24.1,75,0.0,947.7,7.75,44.3,139,36.0,28.3,3,5,7,1,2026-04-17T00:50:30.760879+05:30
Ahmedabad,Gujarat,23.0225,72.5714,29.5,54,0.0,1000.7,7.75,21.2,75,38.1,22.5,4,5,4,1,2026-04-17T00:50:30.760887+05:30
Jaipur,Rajasthan,26.9124,75.7873,29.6,31,0.0,958.5,6.4,31.0,122,124.8,37.6,4,5,7,0,2026-04-17T00:50:30.760896+05:30
Lucknow,Uttar Pradesh,26.8467,80.9462,26.8,39,0.0,992.1,7.05,24.1,103,141.1,41.3,4,5,7,0,2026-04-17T00:50:30.760905+05:30
Kanpur,Uttar Pradesh,26.4499,80.3319,28.2,41,0.0,990.2,7.4,15.8,144,229.6,55.5,4,5,7,0,2026-04-17T00:50:30.760913+05:30
Chandigarh,Chandigarh,30.7333,76.7794,21.6,51,0.0,967.4,7.2,51.8,75,20.8,18.3,0,5,7,0,2026-04-17T00:50:30.760921+05:30
Srinagar,Jammu and Kashmir,34.0837,74.7973,11.0,88,0.0,843.5,5.1,25.2,73,47.6,35.4,3,10,3,0,2026-04-17T00:50:30.760929+05:30
Jammu,Jammu and Kashmir,32.7266,74.857,25.1,46,0.0,972.4,5.2,42.1,57,19.0,14.9,4,5,3,0,2026-04-17T00:50:30.760937+05:30
Amritsar,Punjab,31.634,74.8723,24.1,58,0.0,979.5,7.1,47.9,80,22.2,18.1,0,5,7,0,2026-04-17T00:50:30.760944+05:30
Ludhiana,Punjab,30.901,75.8573,25.8,39,0.0,977.4,6.7,42.1,74,28.1,25.2,4,5,7,0,2026-04-17T00:50:30.760954+05:30
Jalandhar,Punjab,31.326,75.5762,23.4,53,0.0,978.5,6.1,41.0,65,22.7,15.9,0,5,7,0,2026-04-17T00:50:30.760961+05:30
Dehradun,Uttarakhand,30.6284,78.0322,15.9,53,0.0,831.1,6.6,40.7,59,16.1,13.0,0,5,7,0,2026-04-17T00:50:30.760968+05:30
Shimla,Himachal Pradesh,31.1048,77.1734,13.9,46,0.0,784.9,6.85,42.5,96,19.7,15.1,0,5,7,0,2026-04-17T00:50:30.760975+05:30
Manali,Himachal Pradesh,32.2396,77.1887,15.9,48,0.0,822.2,8.05,29.5,94,17.7,14.3,0,5,7,0,2026-04-17T00:50:30.760982+05:30
Gurgaon,Haryana,28.4595,77.0266,25.0,48,0.0,979.8,6.1,29.5,405,325.0,85.9,4,5,7,0,2026-04-17T00:50:30.760989+05:30
Noida,Uttar Pradesh,28.5355,77.391,27.4,39,0.0,983.1,6.0,23.4,405,325.0,85.9,4,5,3,0,2026-04-17T00:50:30.760998+05:30
Ghaziabad,Uttar Pradesh,28.6692,77.4538,25.6,43,0.0,981.3,5.95,25.6,125,196.5,56.6,4,5,3,0,2026-04-17T00:50:30.761004+05:30
Faridabad,Haryana,28.4089,77.3178,28.2,36,0.0,982.5,6.25,22.3,405,325.0,85.9,4,5,7,0,2026-04-17T00:50:30.761011+05:30
Meerut,Uttar Pradesh,28.9845,77.7064,24.9,43,0.0,980.0,6.05,28.4,125,196.5,56.6,0,5,7,0,2026-04-17T00:50:30.761018+05:30
Agra,Uttar Pradesh,27.1767,78.0081,26.4,45,0.0,986.1,6.25,26.3,410,303.6,81.0,4,5,7,0,2026-04-17T00:50:30.761026+05:30
Varanasi,Uttar Pradesh,25.3176,82.9739,26.3,69,0.0,996.6,8.4,22.0,108,146.2,56.5,7,5,7,1,2026-04-17T00:50:30.761034+05:30
Prayagraj,Uttar Pradesh,25.4358,81.8463,27.5,44,0.0,994.7,8.25,23.4,94,71.7,31.8,4,5,7,0,2026-04-17T00:50:30.761041+05:30
Gorakhpur,Uttar Pradesh,26.7606,83.3732,26.3,74,0.0,997.2,7.65,28.4,136,75.0,58.8,7,5,7,1,2026-04-17T00:50:30.761051+05:30
Bareilly,Uttar Pradesh,28.367,79.4304,24.9,48,0.0,985.8,7.45,24.8,74,48.8,40.4,0,5,7,0,2026-04-17T00:50:30.761058+05:30
Aligarh,Uttar Pradesh,27.8974,78.088,25.2,45,0.0,984.4,7.15,25.2,155,204.0,78.7,4,5,7,0,2026-04-17T00:50:30.761064+05:30
Moradabad,Uttar Pradesh,28.8386,78.7733,24.7,52,0.0,982.5,6.65,26.3,89,62.4,51.9,0,5,7,0,2026-04-17T00:50:30.761071+05:30
Saharanpur,Uttar Pradesh,29.9637,77.546,21.1,64,0.0,974.7,6.3,24.5,74,38.0,32.1,3,5,7,0,2026-04-17T00:50:30.761077+05:30
Jhansi,Uttar Pradesh,25.4484,78.5685,29.9,36,0.0,976.4,8.15,32.0,95,96.6,24.4,4,5,7,0,2026-04-17T00:50:34.120946+05:30
Surat,Gujarat,21.1702,72.8311,27.0,89,0.0,1005.8,7.5,19.4,84,41.8,27.5,7,5,4,1,2026-04-17T00:50:34.120978+05:30
Vadodara,Gujarat,22.3072,73.1812,26.5,77,0.0,1003.3,7.25,18.7,74,30.4,25.4,7,5,4,1,2026-04-17T00:50:34.120988+05:30
Rajkot,Gujarat,22.3039,70.8022,25.4,72,0.0,993.6,7.65,25.2,63,71.2,20.0,7,5,7,1,2026-04-17T00:50:34.120996+05:30
Thane,Maharashtra,19.2183,72.9781,26.6,80,0.0,1007.4,7.05,33.5,80,56.9,22.4,7,5,4,1,2026-04-17T00:50:34.121003+05:30
Nagpur,Maharashtra,21.1458,79.0882,27.9,51,0.0,970.6,8.85,18.4,69,27.8,20.8,4,5,7,1,2026-04-17T00:50:34.121011+05:30
Nashik,Maharashtra,19.9975,73.7898,23.2,72,0.0,944.9,7.4,31.3,57,37.3,22.9,3,5,7,1,2026-04-17T00:50:34.121018+05:30
Aurangabad,Maharashtra,19.8762,75.3433,28.5,41,0.0,943.2,8.25,28.8,53,20.1,15.1,4,5,7,0,2026-04-17T00:50:34.121026+05:30
Solapur,Maharashtra,17.6599,75.9064,29.3,40,0.0,956.0,8.6,19.1,60,32.6,29.2,4,5,7,0,2026-04-17T00:50:34.121034+05:30
Kolhapur,Maharashtra,16.705,74.2433,22.1,92,0.0,946.8,8.5,40.3,69,23.5,18.4,3,5,7,1,2026-04-17T00:50:34.121041+05:30
Goa,Goa,15.2993,74.124,28.0,81,0.0,997.6,8.5,31.3,72,33.8,25.1,7,5,7,1,2026-04-17T00:50:34.121048+05:30
Jodhpur,Rajasthan,26.2389,73.0243,29.0,47,0.0,981.0,8.05,28.8,74,200.7,37.1,4,5,7,1,2026-04-17T00:50:34.121055+05:30
Udaipur,Rajasthan,24.5854,73.7125,27.8,48,0.0,946.2,8.0,25.6,68,57.3,20.4,4,5,7,0,2026-04-17T00:50:34.121062+05:30
Kota,Rajasthan,25.2138,75.8648,30.5,45,0.0,976.9,7.4,25.2,94,98.7,37.1,0,5,7,1,2026-04-17T00:50:34.121069+05:30
Bikaner,Rajasthan,28.0229,73.3119,30.5,32,0.0,979.0,8.0,26.3,59,45.4,16.2,0,5,7,0,2026-04-17T00:50:34.121076+05:30
Ajmer,Rajasthan,26.4499,74.6399,29.6,37,0.0,953.2,7.55,31.0,64,87.8,36.4,4,5,7,0,2026-04-17T00:50:34.121083+05:30
Gwalior,Madhya Pradesh,26.2183,78.1828,28.1,40,0.0,981.4,7.15,27.4,136,127.1,29.0,4,5,7,0,2026-04-17T00:50:34.121090+05:30
Indore,Madhya Pradesh,22.7196,75.8577,26.6,60,0.0,946.8,7.7,26.6,74,39.6,28.8,4,5,7,1,2026-04-17T00:50:34.121097+05:30
Bhopal,Madhya Pradesh,23.2599,77.4126,30.1,42,0.0,951.9,7.8,25.6,72,60.8,36.6,0,5,7,0,2026-04-17T00:50:34.121104+05:30
Jabalpur,Madhya Pradesh,23.1815,79.9864,28.2,44,0.0,959.6,8.25,26.6,95,48.4,22.0,4,5,7,0,2026-04-17T00:50:34.121111+05:30
Ujjain,Madhya Pradesh,23.1765,75.7885,27.1,58,0.0,952.5,7.8,25.2,80,40.0,29.2,4,5,7,1,2026-04-17T00:50:34.121118+05:30
Visakhapatnam,Andhra Pradesh,17.6868,83.2185,27.6,87,0.0,1002.7,9.2,39.2,46,13.1,10.4,7,5,4,1,2026-04-17T00:50:34.121125+05:30
Vijayawada,Andhra Pradesh,16.5062,80.648,27.0,91,0.0,1001.8,9.2,25.2,46,11.8,9.8,7,5,4,1,2026-04-17T00:50:34.121132+05:30
Guntur,Andhra Pradesh,16.3067,80.4365,27.3,90,0.0,1002.7,9.2,28.4,51,11.8,9.8,7,5,4,1,2026-04-17T00:50:34.121139+05:30
Nellore,Andhra Pradesh,14.4426,79.9865,27.9,85,0.0,1004.3,9.3,31.0,51,10.1,8.4,7,5,4,1,2026-04-17T00:50:34.121146+05:30
Kurnool,Andhra Pradesh,15.8281,78.0373,31.4,52,0.0,975.4,9.15,27.0,87,25.0,23.6,0,5,7,1,2026-04-17T00:50:34.121153+05:30
Kakinada,Andhra Pradesh,16.9891,82.2475,27.4,88,0.0,1006.7,9.2,29.9,29,11.1,7.5,7,5,4,1,2026-04-17T00:50:34.121161+05:30
Tirupati,Andhra Pradesh,13.6288,79.4192,27.2,85,0.0,991.1,9.25,33.1,67,14.7,13.1,7,5,7,1,2026-04-17T00:50:34.121168+05:30
Warangal,Telangana,17.9689,79.5941,29.3,73,0.0,977.2,9.1,25.2,88,20.2,19.3,7,5,7,1,2026-04-17T00:50:34.121175+05:30
Nizamabad,Telangana,18.6725,78.0941,31.5,46,0.0,963.1,8.95,25.9,81,50.5,40.9,0,5,7,1,2026-04-17T00:50:34.121181+05:30
Mysore,Karnataka,12.2958,76.6396,24.6,85,0.0,928.5,9.3,38.9,82,32.1,29.2,3,5,7,1,2026-04-17T00:50:34.121188+05:30
Mangalore,Karnataka,12.9141,74.856,30.1,79,0.0,1006.4,8.95,26.6,86,52.0,22.8,3,5,4,1,2026-04-17T00:50:34.121194+05:30
Hubli-Dharwad,Karnataka,15.3647,75.124,24.3,87,0.0,940.3,9.2,37.1,62,22.2,13.8,3,5,7,1,2026-04-17T00:50:34.121201+05:30
Belgaum,Karnataka,15.8497,74.4977,21.5,98,0.0,924.8,8.75,35.6,61,23.7,18.5,3,5,7,1,2026-04-17T00:50:37.467705+05:30
Coimbatore,Tamil Nadu,11.0168,76.9558,25.6,86,0.0,961.5,9.05,38.9,98,53.7,48.3,7,5,7,1,2026-04-17T00:50:37.467774+05:30
Madurai,Tamil Nadu,9.9252,78.1198,27.8,84,0.0,992.7,8.8,29.2,64,26.2,24.0,7,5,7,1,2026-04-17T00:50:37.467788+05:30
Trichy,Tamil Nadu,10.7905,78.7047,27.6,86,0.0,999.0,8.45,18.7,53,18.8,17.3,7,5,7,1,2026-04-17T00:50:37.467798+05:30
Salem,Tamil Nadu,11.6643,78.146,26.3,80,0.0,976.5,8.35,20.9,63,25.8,23.3,7,5,7,1,2026-04-17T00:50:37.467808+05:30
Tirunelveli,Tamil Nadu,8.7139,77.7567,27.7,73,0.0,1002.7,8.85,45.0,72,32.7,27.5,7,5,4,1,2026-04-17T00:50:37.467817+05:30
Vellore,Tamil Nadu,12.9165,79.1325,26.7,90,0.0,984.0,9.4,31.7,81,30.6,29.6,7,5,7,1,2026-04-17T00:50:37.467827+05:30
Erode,Tamil Nadu,11.341,77.7172,29.4,67,0.0,988.4,8.7,27.4,68,16.5,15.1,7,5,7,1,2026-04-17T00:50:37.467836+05:30
Kochi,Kerala,9.9312,76.2673,28.6,81,0.0,1008.2,8.35,32.4,102,41.8,36.6,7,0,4,1,2026-04-17T00:50:37.467846+05:30
Thiruvananthapuram,Kerala,8.5241,76.9366,28.7,83,0.0,1007.4,8.75,35.6,81,40.5,28.8,7,5,4,1,2026-04-17T00:50:37.467855+05:30
Kozhikode,Kerala,11.2588,75.7804,30.0,80,0.0,1007.2,9.05,29.2,89,55.4,32.4,7,5,4,1,2026-04-17T00:50:37.467865+05:30
Thrissur,Kerala,10.5276,76.2144,28.5,86,0.0,1006.6,8.6,38.2,105,50.3,38.6,7,5,4,1,2026-04-17T00:50:37.467874+05:30
Kannur,Kerala,11.8745,75.3704,29.5,79,0.0,1006.7,8.85,31.7,94,61.0,38.6,7,5,4,1,2026-04-17T00:50:37.467884+05:30
Patna,Bihar,25.5941,85.1376,27.0,81,0.0,1001.2,8.55,29.5,151,51.2,48.7,7,5,4,1,2026-04-17T00:50:37.467893+05:30
Gaya,Bihar,24.7914,85.0002,26.4,87,0.0,993.8,8.65,22.3,120,57.6,54.7,7,5,7,1,2026-04-17T00:50:37.467903+05:30
Muzaffarpur,Bihar,26.1209,85.3647,25.3,86,0.0,1001.6,8.3,27.4,153,52.5,49.7,7,5,4,1,2026-04-17T00:50:37.467912+05:30
Bhagalpur,Bihar,25.2425,87.0117,25.5,90,0.0,1002.5,8.6,23.8,147,40.4,36.1,7,5,4,1,2026-04-17T00:50:37.467920+05:30
Ranchi,Jharkhand,23.3441,85.3096,23.3,96,0.0,938.1,9.15,30.6,115,50.4,48.8,3,5,7,1,2026-04-17T00:50:37.467930+05:30
Jamshedpur,Jharkhand,22.8046,86.2029,27.1,92,0.0,990.9,8.95,27.0,133,17.3,15.8,7,5,7,1,2026-04-17T00:50:37.467938+05:30
Dhanbad,Jharkhand,23.7957,86.4304,26.1,84,0.0,980.6,8.9,23.0,160,76.4,73.3,7,5,7,1,2026-04-17T00:50:37.467945+05:30
Bokaro,Jharkhand,23.6693,86.1511,25.4,93,0.0,984.7,8.95,24.1,160,86.6,84.5,7,5,7,1,2026-04-17T00:50:37.467952+05:30
Bhubaneswar,Odisha,20.2961,85.8245,27.0,87,0.0,1001.3,9.1,30.6,48,11.1,8.2,7,5,4,1,2026-04-17T00:50:37.467959+05:30
Cuttack,Odisha,20.4625,85.8828,27.2,89,0.0,1003.3,9.15,30.2,48,11.1,8.2,7,5,4,1,2026-04-17T00:50:37.467967+05:30
Rourkela,Odisha,22.2604,84.8536,27.8,81,0.0,984.5,8.9,39.2,116,45.6,43.9,7,5,7,1,2026-04-17T00:50:37.467973+05:30
Raipur,Chhattisgarh,21.2514,81.6296,29.7,43,0.0,972.3,8.95,29.2,88,47.0,40.6,4,5,7,0,2026-04-17T00:50:37.467981+05:30
Bhilai,Chhattisgarh,21.1938,81.3509,28.6,51,0.0,972.7,8.95,28.8,71,36.4,28.9,4,5,7,1,2026-04-17T00:50:37.467987+05:30
Guwahati,Assam,26.1158,91.7086,26.6,75,0.0,1003.4,8.55,24.5,138,93.1,68.7,7,5,4,1,2026-04-17T00:50:37.467994+05:30
Agartala,Tripura,23.8315,91.2868,23.6,92,0.0,1007.8,8.75,19.4,146,74.7,61.5,3,5,4,1,2026-04-17T00:50:37.468001+05:30
Shillong,Meghalaya,25.5788,91.8933,13.8,92,0.0,856.7,6.65,25.6,115,48.3,36.4,3,10,7,0,2026-04-17T00:50:37.468008+05:30
Imphal,Manipur,24.817,93.9368,18.3,79,0.0,924.5,9.1,38.2,128,82.2,62.6,3,5,7,0,2026-04-17T00:50:37.468015+05:30
Aizawl,Mizoram,23.7271,92.7176,18.8,85,0.0,893.6,9.0,36.0,142,81.0,60.5,3,10,7,1,2026-04-17T00:50:37.468023+05:30
Kohima,Nagaland,25.6701,94.1077,15.9,79,0.0,856.1,8.25,49.7,111,73.1,50.4,3,5,7,0,2026-04-17T00:50:37.468030+05:30
Gangtok,Sikkim,27.3314,88.6138,15.4,94,0.0,839.0,8.85,20.9,101,50.3,37.5,3,10,7,0,2026-04-17T00:50:37.468037+05:30
Siliguri,West Bengal,26.7271,88.3953,21.5,76,0.0,996.5,8.5,20.9,159,93.4,64.3,3,5,7,1,2026-04-17T00:50:40.818280+05:30
Durgapur,West Bengal,23.5204,87.3119,25.8,91,0.0,995.6,8.85,20.9,137,53.1,49.5,7,5,7,1,2026-04-17T00:50:40.818311+05:30
Asansol,West Bengal,23.6739,86.9524,26.5,87,0.0,994.2,8.85,21.2,151,55.2,51.9,7,5,7,1,2026-04-17T00:50:40.818322+05:30
Pondicherry,Puducherry,11.9139,79.8145,27.2,95,0.0,1007.5,8.85,29.5,30,9.5,6.2,7,5,4,1,2026-04-17T00:50:40.818330+05:30
Port Blair,Andaman and Nicobar Islands,11.6234,92.7265,29.4,72,0.0,1006.5,9.2,24.8,63,25.2,17.1,7,5,4,1,2026-04-17T00:50:40.818337+05:30
Haridwar,Uttarakhand,29.9457,78.1642,21.5,64,0.0,973.6,6.1,22.3,57,29.5,24.0,3,5,7,0,2026-04-17T00:50:40.818345+05:30
Rishikesh,Uttarakhand,30.0869,78.2676,21.6,63,0.0,966.8,6.3,22.7,72,27.8,16.5,3,5,7,0,2026-04-17T00:50:40.818353+05:30
Nainital,Uttarakhand,29.3919,79.4542,21.7,21,0.0,807.7,7.4,47.5,82,19.0,12.7,0,5,7,1,2026-04-17T00:50:40.818360+05:30
Mussoorie,Uttarakhand,30.4599,78.0664,18.6,55,0.0,804.2,6.7,44.6,71,29.4,23.2,0,5,7,0,2026-04-17T00:50:40.818367+05:30
Dharamshala,Himachal Pradesh,32.219,76.3234,23.2,30,0.0,870.6,7.35,29.2,82,14.6,9.2,0,5,7,0,2026-04-17T00:50:40.818373+05:30
Dalhousie,Himachal Pradesh,32.5387,75.971,19.8,32,0.0,805.6,6.85,34.2,48,21.8,19.1,0,5,7,0,2026-04-17T00:50:40.818381+05:30
Patiala,Punjab,30.3398,76.3869,23.0,51,0.0,976.9,7.1,47.2,104,210.5,43.9,0,5,7,0,2026-04-17T00:50:40.818387+05:30
Bhatinda,Punjab,30.211,74.9455,26.4,41,0.0,982.1,7.75,53.3,70,101.5,25.1,4,5,7,0,2026-04-17T00:50:40.818394+05:30
Rohtak,Haryana,28.8955,76.6066,21.7,58,0.0,980.0,6.4,34.2,266,430.3,77.8,0,5,7,0,2026-04-17T00:50:40.818401+05:30
Panipat,Haryana,29.3909,76.9635,23.6,48,0.0,978.7,6.45,26.6,283,564.4,81.7,0,5,7,0,2026-04-17T00:50:40.818407+05:30
Mathura,Uttar Pradesh,27.4924,77.6737,25.3,45,0.0,985.1,7.1,25.2,303,259.8,82.0,4,5,7,0,2026-04-17T00:50:40.818414+05:30
Vrindavan,Uttar Pradesh,27.5823,77.7027,25.8,43,0.0,985.8,7.05,24.1,303,259.8,82.0,4,5,7,0,2026-04-17T00:50:40.818421+05:30
Ayodhya,Uttar Pradesh,26.7922,82.1998,24.4,65,0.0,994.9,7.25,31.0,93,72.4,40.6,3,5,7,1,2026-04-17T00:50:40.818428+05:30
Ratlam,Madhya Pradesh,23.3315,75.0367,26.9,60,0.0,953.3,7.9,29.2,72,35.5,23.6,4,5,7,1,2026-04-17T00:50:40.818434+05:30
Sagar,Madhya Pradesh,23.8388,78.7378,29.6,45,0.0,948.6,7.8,23.4,101,62.2,18.3,4,5,7,1,2026-04-17T00:50:40.818440+05:30
Satna,Madhya Pradesh,24.6005,80.8322,28.6,37,0.0,970.4,8.6,23.4,92,147.6,25.8,4,5,7,0,2026-04-17T00:50:40.818446+05:30
Akola,Maharashtra,20.7002,77.0082,29.2,42,0.0,972.9,7.9,19.4,66,26.8,19.4,4,5,7,0,2026-04-17T00:50:40.818453+05:30
Amravati,Maharashtra,20.9374,77.7796,28.7,49,0.0,965.0,8.1,17.6,58,25.3,18.9,4,5,7,1,2026-04-17T00:50:40.818461+05:30
Latur,Maharashtra,18.4088,76.5604,28.7,37,0.0,938.1,8.7,29.5,55,25.6,20.1,4,5,7,0,2026-04-17T00:50:40.818468+05:30
Nanded,Maharashtra,19.1383,77.3091,28.8,40,0.0,965.8,8.9,17.3,64,37.8,29.0,4,5,7,0,2026-04-17T00:50:40.818474+05:30
Gulbarga,Karnataka,17.3297,76.8343,31.3,43,0.0,957.3,8.55,28.1,146,33.2,30.3,0,5,7,1,2026-04-17T00:50:40.818480+05:30
Bidar,Karnataka,17.9104,77.5199,29.6,48,0.0,934.3,9.05,21.2,96,47.8,43.3,4,5,7,1,2026-04-17T00:50:40.818487+05:30
Hospet,Karnataka,15.2689,76.3909,28.2,72,0.0,955.8,9.25,26.6,84,46.1,40.3,7,5,7,1,2026-04-17T00:50:40.818493+05:30
Tirupur,Tamil Nadu,11.1085,77.3411,27.5,78,0.0,974.8,8.95,29.9,77,29.1,25.4,7,5,7,1,2026-04-17T00:50:40.818499+05:30
Alappuzha,Kerala,9.4981,76.3388,29.1,81,0.0,1008.2,8.15,33.5,95,45.9,35.6,7,0,4,1,2026-04-17T00:50:40.818505+05:30
Munnar,Kerala,10.0889,77.0595,21.7,90,0.0,856.7,9.3,23.8,74,39.7,35.3,3,5,7,1,2026-04-17T00:50:40.818511+05:30
Silchar,Assam,24.8333,92.7789,24.1,90,0.0,1006.6,8.75,19.4,149,78.2,61.0,3,5,4,1,2026-04-17T00:50:40.818518+05:30
Dibrugarh,Assam,27.4728,94.912,23.5,82,0.0,997.8,8.65,10.8,135,78.2,54.0,3,5,7,1,2026-04-17T00:50:40.818524+05:30
