city,state,latitude,longitude,temp,humidity,rain,pressure,uv_index,wind_gusts,aqi,pm10,pm2_5,mosquito_risk,arthritis_risk,migraine_risk,frizz_risk,updated_at
Delhi,Delhi,28.6139,77.209,23.8,41,0.0,983.2,7.25,18.0,298,464.7,90.3,0,5,7,0,2026-04-14T01:38:20.274767+05:30
Mumbai,Maharashtra,19.076,72.8777,28.2,84,0.0,1008.8,8.0,22.0,113,78.2,40.4,7,0,4,1,2026-04-14T01:38:20.274812+05:30
Bangalore,Karnataka,12.9716,77.5946,24.7,60,0.0,911.9,9.65,28.8,84,28.9,25.1,0,5,7,1,2026-04-14T01:38:20.274828+05:30
Hyderabad,Telangana,17.385,78.4867,29.2,51,0.0,953.2,9.25,24.5,100,29.2,25.1,4,5,7,1,2026-04-14T01:38:20.274837+05:30
Chennai,Tamil Nadu,13.0827,80.2707,27.5,84,0.0,1007.6,9.35,34.2,40,13.0,8.2,7,5,4,1,2026-04-14T01:38:20.274846+05:30
Kolkata,West Bengal,22.5726,88.3639,26.9,89,0.0,1005.0,8.85,28.1,76,25.3,19.0,7,5,4,1,2026-04-14T01:38:20.274855+05:30
Pune,Maharashtra,18.5204,73.8567,22.7,94,0.0,948.6,8.6,38.5,82,39.0,26.5,3,5,7,1,2026-04-14T01:38:20.274867+05:30
Ahmedabad,Gujarat,23.0225,72.5714,28.3,36,0.0,1001.9,8.15,29.5,84,36.1,22.6,4,5,4,0,2026-04-14T01:38:20.274875+05:30
Jaipur,Rajasthan,26.9124,75.7873,26.5,41,0.0,960.0,7.9,32.8,151,129.9,36.2,4,5,7,0,2026-04-14T01:38:20.274883+05:30
Lucknow,Uttar Pradesh,26.8467,80.9462,23.9,58,0.0,993.6,7.75,30.6,121,416.3,73.8,0,5,7,0,2026-04-14T01:38:20.274890+05:30
Kanpur,Uttar Pradesh,26.4499,80.3319,22.8,64,0.0,991.9,7.8,26.3,305,433.1,72.6,3,5,7,0,2026-04-14T01:38:20.274897+05:30
Chandigarh,Chandigarh,30.7333,76.7794,21.4,64,0.0,969.5,7.2,27.4,61,19.9,16.4,3,5,7,0,2026-04-14T01:38:20.274905+05:30
Srinagar,Jammu and Kashmir,34.0837,74.7973,8.9,81,0.0,840.2,8.2,15.1,93,53.3,45.9,3,10,7,0,2026-04-14T01:38:20.274912+05:30
Jammu,Jammu and Kashmir,32.7266,74.857,19.3,77,0.0,973.8,7.85,28.8,70,32.4,29.2,3,5,7,0,2026-04-14T01:38:20.274920+05:30
Amritsar,Punjab,31.634,74.8723,21.4,65,0.0,982.0,7.8,23.0,72,41.2,37.8,3,5,7,0,2026-04-14T01:38:20.274926+05:30
Ludhiana,Punjab,30.901,75.8573,22.4,55,0.0,979.9,7.4,26.6,68,29.7,27.9,0,5,7,0,2026-04-14T01:38:20.274933+05:30
Jalandhar,Punjab,31.326,75.5762,20.9,60,0.0,981.1,7.6,23.0,74,40.7,34.8,0,5,7,0,2026-04-14T01:38:20.274942+05:30
Dehradun,Uttarakhand,30.6284,78.0322,14.5,74,0.0,830.1,7.65,34.9,73,16.8,14.5,3,5,7,0,2026-04-14T01:38:20.274948+05:30
Shimla,Himachal Pradesh,31.1048,77.1734,12.0,71,0.0,784.0,7.7,42.1,69,22.5,14.4,3,5,7,0,2026-04-14T01:38:20.274955+05:30
Manali,Himachal Pradesh,32.2396,77.1887,13.7,52,0.0,819.9,9.15,29.5,88,19.7,15.1,0,5,7,0,2026-04-14T01:38:20.274962+05:30
Gurgaon,Haryana,28.4595,77.0266,20.8,52,0.0,981.4,7.4,11.5,883,542.0,87.3,0,5,7,0,2026-04-14T01:38:20.274968+05:30
Noida,Uttar Pradesh,28.5355,77.391,23.4,43,0.0,984.7,7.3,17.3,883,542.0,87.3,0,5,7,0,2026-04-14T01:38:20.274977+05:30
Ghaziabad,Uttar Pradesh,28.6692,77.4538,21.9,48,0.0,983.0,7.25,20.9,190,499.2,91.3,0,5,7,0,2026-04-14T01:38:20.274983+05:30
Faridabad,Haryana,28.4089,77.3178,22.3,45,0.0,983.9,7.35,13.0,883,542.0,87.3,0,5,7,0,2026-04-14T01:38:20.274990+05:30
Meerut,Uttar Pradesh,28.9845,77.7064,21.1,56,0.0,981.7,7.15,28.1,190,499.2,91.3,0,5,7,0,2026-04-14T01:38:20.274996+05:30
Agra,Uttar Pradesh,27.1767,78.0081,23.6,55,0.0,987.9,7.65,21.2,685,704.1,107.1,0,5,7,0,2026-04-14T01:38:20.275002+05:30
Varanasi,Uttar Pradesh,25.3176,82.9739,23.0,50,0.0,997.4,8.4,33.8,98,96.2,34.9,0,5,7,0,2026-04-14T01:38:20.275011+05:30
Prayagraj,Uttar Pradesh,25.4358,81.8463,25.3,46,0.0,996.2,8.3,28.1,94,169.5,40.6,4,5,7,0,2026-04-14T01:38:20.275018+05:30
Gorakhpur,Uttar Pradesh,26.7606,83.3732,22.0,36,0.0,996.7,8.2,23.8,76,171.8,37.0,0,5,7,0,2026-04-14T01:38:20.275025+05:30
Bareilly,Uttar Pradesh,28.367,79.4304,20.9,59,0.0,986.7,7.55,31.7,75,158.3,42.0,0,5,7,0,2026-04-14T01:38:20.275033+05:30
Aligarh,Uttar Pradesh,27.8974,78.088,21.6,48,0.0,985.8,7.45,23.8,607,597.9,96.4,0,5,7,0,2026-04-14T01:38:20.275062+05:30
Moradabad,Uttar Pradesh,28.8386,78.7733,20.9,58,0.0,983.9,7.35,31.0,81,192.3,55.3,0,5,7,0,2026-04-14T01:38:20.275070+05:30
Saharanpur,Uttar Pradesh,29.9637,77.546,21.8,64,0.0,976.0,6.95,30.2,70,34.7,32.4,3,5,7,0,2026-04-14T01:38:20.275077+05:30
Jhansi,Uttar Pradesh,25.4484,78.5685,26.2,39,0.0,978.0,8.2,21.6,174,87.8,30.2,4,5,7,0,2026-04-14T01:38:23.538828+05:30
Surat,Gujarat,21.1702,72.8311,27.4,89,0.0,1006.6,7.8,23.8,125,59.6,38.5,7,5,4,1,2026-04-14T01:38:23.538857+05:30
Vadodara,Gujarat,22.3072,73.1812,27.6,71,0.0,1004.2,8.1,27.4,120,53.3,43.8,7,5,4,1,2026-04-14T01:38:23.538867+05:30
Rajkot,Gujarat,22.3039,70.8022,25.7,68,0.0,994.8,7.85,33.8,69,55.1,20.0,7,5,7,1,2026-04-14T01:38:23.538874+05:30
Thane,Maharashtra,19.2183,72.9781,26.9,90,0.0,1008.3,8.0,35.3,113,78.2,40.4,7,0,4,1,2026-04-14T01:38:23.538882+05:30
Nagpur,Maharashtra,21.1458,79.0882,27.4,50,0.0,972.1,8.85,15.5,109,51.0,32.9,4,5,7,1,2026-04-14T01:38:23.538889+05:30
Nashik,Maharashtra,19.9975,73.7898,24.2,79,0.0,946.0,8.3,32.4,82,48.8,32.6,3,5,7,1,2026-04-14T01:38:23.538897+05:30
Aurangabad,Maharashtra,19.8762,75.3433,29.6,34,0.0,944.3,8.95,32.8,73,35.6,26.3,4,5,7,0,2026-04-14T01:38:23.538903+05:30
Solapur,Maharashtra,17.6599,75.9064,30.0,54,0.0,956.6,9.05,29.5,91,30.2,26.7,4,5,7,1,2026-04-14T01:38:23.538911+05:30
Kolhapur,Maharashtra,16.705,74.2433,21.3,94,0.0,947.6,9.05,52.6,83,38.8,27.4,3,5,7,1,2026-04-14T01:38:23.538918+05:30
Goa,Goa,15.2993,74.124,27.2,82,0.0,998.2,9.05,31.0,87,62.9,32.1,7,5,7,1,2026-04-14T01:38:23.538925+05:30
Jodhpur,Rajasthan,26.2389,73.0243,26.8,39,0.0,982.1,8.15,29.5,67,97.8,26.3,4,5,7,0,2026-04-14T01:38:23.538932+05:30
Udaipur,Rajasthan,24.5854,73.7125,24.7,36,0.0,947.0,8.7,41.4,54,43.3,16.3,0,5,7,0,2026-04-14T01:38:23.538939+05:30
Kota,Rajasthan,25.2138,75.8648,24.2,63,0.0,978.6,8.2,23.4,77,116.4,34.8,3,5,7,1,2026-04-14T01:38:23.538946+05:30
Bikaner,Rajasthan,28.0229,73.3119,29.3,29,0.0,980.9,7.95,16.6,51,26.0,11.4,4,5,7,0,2026-04-14T01:38:23.538952+05:30
Ajmer,Rajasthan,26.4499,74.6399,27.4,32,0.0,954.3,8.1,37.4,59,77.8,29.0,4,5,7,0,2026-04-14T01:38:23.538959+05:30
Gwalior,Madhya Pradesh,26.2183,78.1828,25.2,52,0.0,983.2,7.9,36.4,246,134.1,38.8,4,5,7,0,2026-04-14T01:38:23.538965+05:30
Indore,Madhya Pradesh,22.7196,75.8577,24.3,48,0.0,948.0,8.55,28.8,88,61.2,45.1,0,5,7,0,2026-04-14T01:38:23.538972+05:30
Bhopal,Madhya Pradesh,23.2599,77.4126,25.8,45,0.0,953.8,8.55,27.7,84,90.3,34.1,4,5,7,0,2026-04-14T01:38:23.538978+05:30
Jabalpur,Madhya Pradesh,23.1815,79.9864,25.6,59,0.0,961.2,8.65,15.5,93,103.8,28.2,4,5,7,1,2026-04-14T01:38:23.538984+05:30
Ujjain,Madhya Pradesh,23.1765,75.7885,25.2,45,0.0,953.8,8.45,31.0,112,66.6,55.8,4,5,7,0,2026-04-14T01:38:23.538991+05:30
Visakhapatnam,Andhra Pradesh,17.6868,83.2185,27.9,85,0.0,1003.6,9.15,41.8,67,22.1,14.2,7,5,4,1,2026-04-14T01:38:23.538998+05:30
Vijayawada,Andhra Pradesh,16.5062,80.648,26.7,89,0.0,1002.8,9.2,28.8,59,16.2,11.0,7,5,4,1,2026-04-14T01:38:23.539004+05:30
Guntur,Andhra Pradesh,16.3067,80.4365,27.3,87,0.0,1003.7,9.25,32.4,62,17.1,11.6,7,5,4,1,2026-04-14T01:38:23.539010+05:30
Nellore,Andhra Pradesh,14.4426,79.9865,26.4,88,0.0,1005.6,9.3,34.9,53,12.5,8.8,7,5,4,1,2026-04-14T01:38:23.539018+05:30
Kurnool,Andhra Pradesh,15.8281,78.0373,32.0,42,0.0,976.0,9.2,22.3,95,25.4,21.7,0,5,7,1,2026-04-14T01:38:23.539025+05:30
Kakinada,Andhra Pradesh,16.9891,82.2475,27.1,88,0.0,1007.5,9.2,32.4,54,19.4,10.7,7,5,4,1,2026-04-14T01:38:23.539032+05:30
Tirupati,Andhra Pradesh,13.6288,79.4192,25.5,79,0.0,992.3,9.4,33.1,67,22.1,18.9,7,5,7,1,2026-04-14T01:38:23.539038+05:30
Warangal,Telangana,17.9689,79.5941,28.9,63,0.0,977.9,9.1,24.1,83,27.5,23.7,7,5,7,1,2026-04-14T01:38:23.539065+05:30
Nizamabad,Telangana,18.6725,78.0941,28.6,55,0.0,963.6,9.05,27.4,96,59.5,50.4,4,5,7,1,2026-04-14T01:38:23.539073+05:30
Mysore,Karnataka,12.2958,76.6396,24.3,85,0.0,928.9,9.55,39.2,90,41.8,34.8,3,5,7,1,2026-04-14T01:38:23.539080+05:30
Mangalore,Karnataka,12.9141,74.856,29.4,82,0.0,1006.7,9.15,24.8,97,44.5,33.3,7,5,4,1,2026-04-14T01:38:23.539087+05:30
Hubli-Dharwad,Karnataka,15.3647,75.124,23.6,89,0.0,941.0,9.25,40.3,89,27.5,19.3,3,5,7,1,2026-04-14T01:38:23.539094+05:30
Belgaum,Karnataka,15.8497,74.4977,21.1,96,0.0,925.3,9.3,44.3,83,48.1,28.2,3,5,7,1,2026-04-14T01:38:26.797841+05:30
Coimbatore,Tamil Nadu,11.0168,76.9558,25.3,90,0.0,962.3,9.25,34.9,91,51.5,42.4,7,5,7,1,2026-04-14T01:38:26.797873+05:30
Madurai,Tamil Nadu,9.9252,78.1198,27.8,84,0.0,993.7,8.95,38.9,73,25.0,22.7,7,5,7,1,2026-04-14T01:38:26.797883+05:30
Trichy,Tamil Nadu,10.7905,78.7047,27.3,88,0.0,1000.4,8.9,22.0,56,17.8,15.6,7,5,4,1,2026-04-14T01:38:26.797891+05:30
Salem,Tamil Nadu,11.6643,78.146,27.3,76,0.0,977.9,9.45,23.0,70,27.3,24.5,7,5,7,1,2026-04-14T01:38:26.797898+05:30
Tirunelveli,Tamil Nadu,8.7139,77.7567,28.0,79,0.0,1003.6,9.1,46.4,80,34.5,27.2,7,5,4,1,2026-04-14T01:38:26.797906+05:30
Vellore,Tamil Nadu,12.9165,79.1325,25.5,75,0.0,985.2,9.45,29.2,83,37.3,34.6,7,5,7,1,2026-04-14T01:38:26.797913+05:30
Erode,Tamil Nadu,11.341,77.7172,28.4,75,0.0,989.8,9.1,28.1,60,15.3,14.0,7,5,7,1,2026-04-14T01:38:26.797920+05:30
Kochi,Kerala,9.9312,76.2673,29.0,82,0.0,1008.8,9.2,30.2,92,43.4,38.6,7,0,4,1,2026-04-14T01:38:26.797927+05:30
Thiruvananthapuram,Kerala,8.5241,76.9366,28.3,85,0.0,1008.1,9.15,34.6,80,40.7,23.5,7,0,4,1,2026-04-14T01:38:26.797934+05:30
Kozhikode,Kerala,11.2588,75.7804,29.5,82,0.0,1007.9,9.15,29.2,90,49.5,27.5,7,5,4,1,2026-04-14T01:38:26.797941+05:30
Thrissur,Kerala,10.5276,76.2144,28.3,86,0.0,1007.3,9.2,38.9,89,50.3,39.2,7,5,4,1,2026-04-14T01:38:26.797949+05:30
Kannur,Kerala,11.8745,75.3704,28.9,84,0.0,1007.1,9.15,31.7,103,49.4,36.4,7,5,4,1,2026-04-14T01:38:26.797956+05:30
Patna,Bihar,25.5941,85.1376,24.0,53,0.0,1000.0,8.55,26.6,94,43.7,27.1,0,5,4,0,2026-04-14T01:38:26.797963+05:30
Gaya,Bihar,24.7914,85.0002,24.1,51,0.0,993.8,8.6,22.7,100,58.0,27.2,0,5,7,0,2026-04-14T01:38:26.797970+05:30
Muzaffarpur,Bihar,26.1209,85.3647,23.4,70,0.0,999.9,8.5,19.1,118,79.6,53.7,3,5,7,1,2026-04-14T01:38:26.797976+05:30
Bhagalpur,Bihar,25.2425,87.0117,25.1,76,0.0,1000.6,8.55,16.6,137,96.2,67.3,7,5,4,1,2026-04-14T01:38:26.797982+05:30
Ranchi,Jharkhand,23.3441,85.3096,23.9,38,0.0,937.8,9.15,37.1,81,99.9,31.1,0,5,7,0,2026-04-14T01:38:26.797988+05:30
Jamshedpur,Jharkhand,22.8046,86.2029,26.9,77,0.0,990.0,8.95,15.8,122,98.3,78.0,7,5,7,1,2026-04-14T01:38:26.797994+05:30
Dhanbad,Jharkhand,23.7957,86.4304,24.0,64,0.0,979.5,8.9,22.3,158,142.0,77.3,3,5,7,1,2026-04-14T01:38:26.798001+05:30
Bokaro,Jharkhand,23.6693,86.1511,24.9,58,0.0,983.9,8.9,30.6,155,139.2,74.3,0,5,7,0,2026-04-14T01:38:26.798007+05:30
Bhubaneswar,Odisha,20.2961,85.8245,26.9,88,0.0,1002.0,9.05,28.8,65,20.5,14.3,7,5,4,1,2026-04-14T01:38:26.798013+05:30
Cuttack,Odisha,20.4625,85.8828,26.9,89,0.0,1003.9,9.1,23.4,65,20.5,14.3,7,5,4,1,2026-04-14T01:38:26.798019+05:30
Rourkela,Odisha,22.2604,84.8536,26.7,79,0.0,984.2,8.85,19.4,110,78.9,43.5,7,5,7,1,2026-04-14T01:38:26.798026+05:30
Raipur,Chhattisgarh,21.2514,81.6296,27.8,47,0.0,973.7,8.95,16.9,131,82.4,62.9,4,5,7,0,2026-04-14T01:38:26.798032+05:30
Bhilai,Chhattisgarh,21.1938,81.3509,27.0,52,0.0,974.3,8.9,12.6,107,63.6,40.7,4,5,7,1,2026-04-14T01:38:26.798038+05:30
Guwahati,Assam,26.1158,91.7086,22.9,89,0.0,1002.6,8.45,29.2,139,45.2,36.0,3,5,4,1,2026-04-14T01:38:26.798064+05:30
Agartala,Tripura,23.8315,91.2868,24.2,94,0.0,1006.6,8.7,25.6,89,37.6,33.2,3,5,4,1,2026-04-14T01:38:26.798072+05:30
Shillong,Meghalaya,25.5788,91.8933,13.7,85,0.0,855.4,8.9,46.1,102,44.4,31.2,3,10,7,0,2026-04-14T01:38:26.798080+05:30
Imphal,Manipur,24.817,93.9368,18.6,85,0.0,923.7,8.85,67.3,118,68.5,47.8,3,10,7,0,2026-04-14T01:38:26.798087+05:30
Aizawl,Mizoram,23.7271,92.7176,18.5,74,0.0,892.5,8.95,46.1,99,65.0,37.4,3,5,7,0,2026-04-14T01:38:26.798093+05:30
Kohima,Nagaland,25.6701,94.1077,15.1,89,0.0,854.9,8.3,69.8,89,35.3,19.9,3,10,7,0,2026-04-14T01:38:26.798100+05:30
Gangtok,Sikkim,27.3314,88.6138,13.6,83,0.0,836.4,8.8,18.7,113,73.1,40.2,3,10,7,0,2026-04-14T01:38:26.798106+05:30
Siliguri,West Bengal,26.7271,88.3953,20.6,72,0.0,994.3,8.45,39.6,151,119.7,70.3,3,5,7,0,2026-04-14T01:38:30.059787+05:30
Durgapur,West Bengal,23.5204,87.3119,26.6,91,0.0,994.3,8.8,16.9,155,118.5,95.7,7,5,7,1,2026-04-14T01:38:30.059818+05:30
Asansol,West Bengal,23.6739,86.9524,27.7,66,0.0,993.0,8.85,18.7,146,103.1,58.0,7,5,7,1,2026-04-14T01:38:30.059828+05:30
Pondicherry,Puducherry,11.9139,79.8145,25.7,95,0.0,1009.1,9.3,25.2,33,10.1,6.3,7,0,4,1,2026-04-14T01:38:30.059836+05:30
Port Blair,Andaman and Nicobar Islands,11.6234,92.7265,28.6,80,0.0,1007.1,9.2,22.0,62,25.0,15.0,7,5,4,1,2026-04-14T01:38:30.059844+05:30
Haridwar,Uttarakhand,29.9457,78.1642,20.3,77,0.0,974.6,7.0,33.8,64,31.4,29.0,3,5,7,1,2026-04-14T01:38:30.059851+05:30
Rishikesh,Uttarakhand,30.0869,78.2676,20.6,65,0.0,967.5,7.1,36.4,101,21.0,17.5,3,5,7,0,2026-04-14T01:38:30.059858+05:30
Nainital,Uttarakhand,29.3919,79.4542,18.6,31,0.0,806.4,8.0,63.7,94,15.1,12.6,0,5,7,0,2026-04-14T01:38:30.059865+05:30
Mussoorie,Uttarakhand,30.4599,78.0664,15.8,59,0.0,802.6,7.5,41.8,79,25.9,25.0,0,5,7,0,2026-04-14T01:38:30.059872+05:30
Dharamshala,Himachal Pradesh,32.219,76.3234,19.0,43,0.0,869.9,7.75,25.6,68,13.2,8.5,0,5,7,0,2026-04-14T01:38:30.059878+05:30
Dalhousie,Himachal Pradesh,32.5387,75.971,15.4,50,0.0,803.9,8.0,22.7,59,29.8,25.0,0,5,7,0,2026-04-14T01:38:30.059886+05:30
Patiala,Punjab,30.3398,76.3869,21.3,57,0.0,979.0,7.1,29.9,268,277.5,45.1,0,5,7,0,2026-04-14T01:38:30.059893+05:30
Bhatinda,Punjab,30.211,74.9455,23.4,46,0.0,984.2,7.6,28.4,63,53.8,23.1,0,5,7,0,2026-04-14T01:38:30.059900+05:30
Rohtak,Haryana,28.8955,76.6066,21.9,47,0.0,981.8,7.3,22.0,440,446.1,82.7,0,5,7,0,2026-04-14T01:38:30.059906+05:30
Panipat,Haryana,29.3909,76.9635,21.6,52,0.0,980.9,7.1,28.4,886,514.1,89.6,0,5,7,0,2026-04-14T01:38:30.059913+05:30
Mathura,Uttar Pradesh,27.4924,77.6737,25.1,40,0.0,987.1,7.6,22.3,690,564.4,89.9,4,5,7,0,2026-04-14T01:38:30.059920+05:30
Vrindavan,Uttar Pradesh,27.5823,77.7027,21.8,49,0.0,987.5,7.55,19.8,690,564.4,89.9,0,5,7,0,2026-04-14T01:38:30.059926+05:30
Ayodhya,Uttar Pradesh,26.7922,82.1998,23.4,50,0.0,995.1,7.95,36.4,78,238.0,46.2,0,5,7,0,2026-04-14T01:38:30.059933+05:30
Ratlam,Madhya Pradesh,23.3315,75.0367,25.2,46,0.0,954.4,8.4,29.2,86,34.0,25.4,4,5,7,0,2026-04-14T01:38:30.059939+05:30
Sagar,Madhya Pradesh,23.8388,78.7378,26.4,46,0.0,950.5,8.55,28.4,107,167.2,32.8,4,5,7,0,2026-04-14T01:38:30.059946+05:30
Satna,Madhya Pradesh,24.6005,80.8322,26.2,39,0.0,971.6,8.6,23.4,130,92.0,22.9,4,5,7,0,2026-04-14T01:38:30.059952+05:30
Akola,Maharashtra,20.7002,77.0082,27.2,61,0.0,974.7,8.8,27.0,73,29.2,21.2,7,5,7,1,2026-04-14T01:38:30.059959+05:30
Amravati,Maharashtra,20.9374,77.7796,26.7,48,0.0,966.4,8.8,24.5,75,29.5,21.7,4,5,7,0,2026-04-14T01:38:30.059966+05:30
Latur,Maharashtra,18.4088,76.5604,27.5,49,0.0,939.0,9.05,29.9,87,45.2,32.7,4,5,7,0,2026-04-14T01:38:30.059973+05:30
Nanded,Maharashtra,19.1383,77.3091,28.5,57,0.0,967.7,8.95,17.3,91,43.1,35.2,4,5,7,1,2026-04-14T01:38:30.059980+05:30
Gulbarga,Karnataka,17.3297,76.8343,31.8,47,0.0,958.0,9.1,23.8,105,46.9,39.5,0,5,7,1,2026-04-14T01:38:30.059985+05:30
Bidar,Karnataka,17.9104,77.5199,30.2,53,0.0,935.0,9.1,30.2,109,64.3,53.4,0,5,7,1,2026-04-14T01:38:30.059991+05:30
Hospet,Karnataka,15.2689,76.3909,29.0,70,0.0,955.7,9.25,29.5,104,37.3,34.0,7,5,7,1,2026-04-14T01:38:30.059997+05:30
Tirupur,Tamil Nadu,11.1085,77.3411,27.8,80,0.0,975.8,9.1,32.0,82,34.9,29.3,7,5,7,1,2026-04-14T01:38:30.060004+05:30
Alappuzha,Kerala,9.4981,76.3388,28.7,83,0.0,1009.0,8.95,26.3,91,52.2,40.4,7,0,4,1,2026-04-14T01:38:30.060010+05:30
Munnar,Kerala,10.0889,77.0595,21.2,94,0.0,857.2,9.7,33.1,85,39.1,34.2,3,5,7,1,2026-04-14T01:38:30.060017+05:30
Silchar,Assam,24.8333,92.7789,23.3,90,0.0,1005.8,8.7,33.5,135,55.3,39.2,3,5,4,1,2026-04-14T01:38:30.060023+05:30
Dibrugarh,Assam,27.4728,94.912,20.8,88,0.0,998.0,8.55,16.2,114,50.6,35.4,3,5,7,1,2026-04-14T01:38:30.060029+05:30
