city,state,latitude,longitude,temp,humidity,rain,pressure,uv_index,wind_gusts,aqi,pm10,pm2_5,mosquito_risk,arthritis_risk,migraine_risk,frizz_risk,updated_at
Delhi,Delhi,28.6139,77.209,28.3,56,0.0,984.5,5.5,34.9,145,211.9,40.6,4,5,3,1,2026-04-04T15:11:54.639927+05:30
Mumbai,Maharashtra,19.076,72.8777,28.0,75,0.0,1009.1,7.9,19.8,70,43.5,20.7,7,0,4,1,2026-04-04T15:11:54.639976+05:30
Bangalore,Karnataka,12.9716,77.5946,29.7,50,0.0,911.4,9.1,25.9,82,26.1,22.8,4,5,7,1,2026-04-04T15:11:54.639991+05:30
Hyderabad,Telangana,17.385,78.4867,35.0,26,0.0,951.5,7.85,30.6,72,27.6,21.1,0,5,7,0,2026-04-04T15:11:54.640002+05:30
Chennai,Tamil Nadu,13.0827,80.2707,34.2,61,0.0,1005.3,8.8,33.8,50,21.4,17.3,3,5,4,1,2026-04-04T15:11:54.640012+05:30
Kolkata,West Bengal,22.5726,88.3639,34.7,53,0.0,1002.5,8.55,20.2,149,30.4,26.2,0,5,4,1,2026-04-04T15:11:54.640021+05:30
Pune,Maharashtra,18.5204,73.8567,34.2,32,0.0,948.5,8.5,40.0,90,27.0,15.1,0,5,7,0,2026-04-04T15:11:54.640033+05:30
Ahmedabad,Gujarat,23.0225,72.5714,33.7,22,0.0,1002.5,7.6,24.5,53,25.1,10.0,0,5,4,0,2026-04-04T15:11:54.640041+05:30
Jaipur,Rajasthan,26.9124,75.7873,30.2,36,0.0,960.2,7.4,30.6,84,151.8,28.3,0,5,7,0,2026-04-04T15:11:54.640049+05:30
Lucknow,Uttar Pradesh,26.8467,80.9462,34.0,31,0.0,992.5,6.35,37.1,153,134.6,36.7,0,5,7,0,2026-04-04T15:11:54.640057+05:30
Kanpur,Uttar Pradesh,26.4499,80.3319,33.0,41,0.0,991.1,6.5,31.0,234,326.9,57.3,0,5,7,1,2026-04-04T15:11:54.640065+05:30
Chandigarh,Chandigarh,30.7333,76.7794,24.2,57,0.0,970.7,5.9,36.7,102,137.8,35.4,0,5,3,0,2026-04-04T15:11:54.640072+05:30
Srinagar,Jammu and Kashmir,34.0837,74.7973,10.7,85,0.1,840.6,5.35,26.3,65,7.3,6.7,6,10,3,0,2026-04-04T15:11:54.640080+05:30
Jammu,Jammu and Kashmir,32.7266,74.857,20.4,84,0.0,975.9,6.8,30.6,54,44.2,11.6,3,5,7,1,2026-04-04T15:11:54.640088+05:30
Amritsar,Punjab,31.634,74.8723,23.8,72,0.0,983.5,6.15,21.2,83,81.3,23.2,3,5,7,1,2026-04-04T15:11:54.640095+05:30
Ludhiana,Punjab,30.901,75.8573,22.4,49,0.0,980.3,5.9,28.1,139,95.5,29.0,0,5,3,0,2026-04-04T15:11:54.640103+05:30
Jalandhar,Punjab,31.326,75.5762,23.1,55,0.0,981.5,6.45,25.2,110,106.9,28.4,0,5,7,0,2026-04-04T15:11:54.640112+05:30
Dehradun,Uttarakhand,30.6284,78.0322,17.8,58,0.0,831.4,4.35,35.3,45,17.9,5.6,0,5,3,0,2026-04-04T15:11:54.640119+05:30
Shimla,Himachal Pradesh,31.1048,77.1734,15.0,65,0.0,784.9,4.5,50.4,55,34.0,10.9,3,5,3,0,2026-04-04T15:11:54.640126+05:30
Manali,Himachal Pradesh,32.2396,77.1887,14.0,77,0.0,819.0,7.3,30.2,61,10.7,4.4,3,5,7,0,2026-04-04T15:11:54.640134+05:30
Gurgaon,Haryana,28.4595,77.0266,28.3,53,0.0,982.6,5.45,34.2,326,317.6,49.2,4,5,3,1,2026-04-04T15:11:54.640141+05:30
Noida,Uttar Pradesh,28.5355,77.391,28.5,51,0.0,986.0,5.5,31.7,326,317.6,49.2,4,5,3,1,2026-04-04T15:11:54.640147+05:30
Ghaziabad,Uttar Pradesh,28.6692,77.4538,28.5,69,0.0,984.7,5.55,27.0,160,173.2,38.3,7,5,3,1,2026-04-04T15:11:54.640154+05:30
Faridabad,Haryana,28.4089,77.3178,28.1,53,0.0,985.3,5.7,35.3,326,317.6,49.2,4,5,3,1,2026-04-04T15:11:54.640161+05:30
Meerut,Uttar Pradesh,28.9845,77.7064,25.2,68,0.0,983.3,5.85,32.4,160,173.2,38.3,7,5,3,1,2026-04-04T15:11:54.640167+05:30
Agra,Uttar Pradesh,27.1767,78.0081,29.9,43,0.0,988.4,6.55,34.6,565,397.7,56.3,4,5,7,0,2026-04-04T15:11:54.640175+05:30
Varanasi,Uttar Pradesh,25.3176,82.9739,34.8,40,0.0,996.0,6.05,33.1,83,62.6,25.0,0,5,7,1,2026-04-04T15:11:54.640184+05:30
Prayagraj,Uttar Pradesh,25.4358,81.8463,34.4,41,0.0,995.3,5.45,32.8,86,106.6,34.7,0,5,3,1,2026-04-04T15:11:54.640192+05:30
Gorakhpur,Uttar Pradesh,26.7606,83.3732,37.5,25,0.0,994.5,6.8,45.7,95,47.0,20.8,0,5,10,0,2026-04-04T15:11:54.640199+05:30
Bareilly,Uttar Pradesh,28.367,79.4304,30.5,36,0.0,986.8,5.3,30.6,119,56.5,20.1,0,5,3,0,2026-04-04T15:11:54.640206+05:30
Aligarh,Uttar Pradesh,27.8974,78.088,28.0,55,0.0,986.7,5.3,29.2,469,244.0,44.0,4,5,3,1,2026-04-04T15:11:54.640213+05:30
Moradabad,Uttar Pradesh,28.8386,78.7733,29.0,53,0.0,984.3,5.75,30.6,142,78.7,26.0,4,5,3,1,2026-04-04T15:11:54.640220+05:30
Saharanpur,Uttar Pradesh,29.9637,77.546,24.2,67,0.0,977.5,6.15,38.5,156,103.1,30.5,3,5,7,1,2026-04-04T15:11:54.640227+05:30
Jhansi,Uttar Pradesh,25.4484,78.5685,31.6,43,0.0,978.2,6.6,38.2,72,70.1,26.0,0,5,7,1,2026-04-04T15:11:57.935225+05:30
Surat,Gujarat,21.1702,72.8311,30.4,49,0.0,1007.7,7.6,25.6,78,66.1,31.4,0,5,4,1,2026-04-04T15:11:57.935256+05:30
Vadodara,Gujarat,22.3072,73.1812,33.5,35,0.0,1004.6,7.6,25.9,73,46.7,18.3,0,5,4,0,2026-04-04T15:11:57.935266+05:30
Rajkot,Gujarat,22.3039,70.8022,32.9,30,0.0,994.7,7.55,32.0,48,24.9,11.8,0,5,7,0,2026-04-04T15:11:57.935296+05:30
Thane,Maharashtra,19.2183,72.9781,31.0,60,0.0,1008.7,7.9,35.6,70,43.5,20.7,0,0,4,1,2026-04-04T15:11:57.935304+05:30
Nagpur,Maharashtra,21.1458,79.0882,33.1,43,0.0,972.7,8.15,29.5,94,40.3,33.6,0,5,7,1,2026-04-04T15:11:57.935312+05:30
Nashik,Maharashtra,19.9975,73.7898,29.9,43,0.0,946.0,8.15,37.8,56,20.4,8.7,4,5,7,0,2026-04-04T15:11:57.935319+05:30
Aurangabad,Maharashtra,19.8762,75.3433,34.8,21,0.0,943.8,8.85,35.6,66,30.2,14.5,0,5,7,0,2026-04-04T15:11:57.935326+05:30
Solapur,Maharashtra,17.6599,75.9064,34.6,32,0.0,956.3,8.9,22.7,103,37.4,30.0,0,5,7,0,2026-04-04T15:11:57.935333+05:30
Kolhapur,Maharashtra,16.705,74.2433,32.8,34,0.0,947.8,8.95,41.0,97,23.7,19.2,0,5,7,0,2026-04-04T15:11:57.935340+05:30
Goa,Goa,15.2993,74.124,31.1,61,0.0,997.7,8.25,33.8,70,24.6,15.8,3,5,7,1,2026-04-04T15:11:57.935347+05:30
Jodhpur,Rajasthan,26.2389,73.0243,30.7,28,0.0,983.9,7.35,28.8,99,85.7,14.7,0,5,7,0,2026-04-04T15:11:57.935354+05:30
Udaipur,Rajasthan,24.5854,73.7125,29.2,25,0.0,947.0,7.6,37.4,55,20.0,7.6,4,5,7,0,2026-04-04T15:11:57.935361+05:30
Kota,Rajasthan,25.2138,75.8648,32.0,34,0.0,979.2,7.8,40.7,65,43.3,14.8,0,5,7,0,2026-04-04T15:11:57.935368+05:30
Bikaner,Rajasthan,28.0229,73.3119,29.7,26,0.0,983.1,7.0,29.9,73,45.8,12.3,4,5,7,0,2026-04-04T15:11:57.935375+05:30
Ajmer,Rajasthan,26.4499,74.6399,29.2,30,0.0,954.9,7.45,36.7,74,31.3,11.4,4,5,7,0,2026-04-04T15:11:57.935381+05:30
Gwalior,Madhya Pradesh,26.2183,78.1828,29.2,49,0.0,983.7,7.15,33.1,109,121.1,29.2,4,5,7,1,2026-04-04T15:11:57.935388+05:30
Indore,Madhya Pradesh,22.7196,75.8577,29.0,39,0.0,948.2,8.3,43.9,63,35.5,19.8,4,5,7,0,2026-04-04T15:11:57.935394+05:30
Bhopal,Madhya Pradesh,23.2599,77.4126,33.0,32,0.0,953.6,8.25,40.0,65,29.3,17.3,0,5,7,0,2026-04-04T15:11:57.935400+05:30
Jabalpur,Madhya Pradesh,23.1815,79.9864,32.2,48,0.0,962.3,6.45,30.6,78,17.6,14.1,0,5,7,1,2026-04-04T15:11:57.935407+05:30
Ujjain,Madhya Pradesh,23.1765,75.7885,28.3,51,0.0,954.4,8.2,37.4,63,30.2,14.3,4,5,7,1,2026-04-04T15:11:57.935414+05:30
Visakhapatnam,Andhra Pradesh,17.6868,83.2185,32.7,58,0.0,1001.6,8.25,38.2,63,34.7,31.8,0,5,4,1,2026-04-04T15:11:57.935420+05:30
Vijayawada,Andhra Pradesh,16.5062,80.648,35.1,44,0.0,1000.5,9.0,19.8,47,26.5,21.4,0,5,7,1,2026-04-04T15:11:57.935427+05:30
Guntur,Andhra Pradesh,16.3067,80.4365,35.3,41,0.0,1001.7,8.85,26.3,45,26.1,20.5,0,5,7,1,2026-04-04T15:11:57.935434+05:30
Nellore,Andhra Pradesh,14.4426,79.9865,37.4,36,0.0,1003.4,8.55,31.3,48,21.0,18.7,0,5,7,1,2026-04-04T15:11:57.935440+05:30
Kurnool,Andhra Pradesh,15.8281,78.0373,37.5,30,0.0,974.9,8.0,22.0,61,17.1,12.8,0,5,10,1,2026-04-04T15:11:57.935448+05:30
Kakinada,Andhra Pradesh,16.9891,82.2475,37.5,42,0.0,1004.7,8.8,33.5,32,11.4,8.0,0,5,7,1,2026-04-04T15:11:57.935455+05:30
Tirupati,Andhra Pradesh,13.6288,79.4192,36.0,32,0.0,989.0,8.5,23.4,59,20.3,17.8,0,5,10,1,2026-04-04T15:11:57.935462+05:30
Warangal,Telangana,17.9689,79.5941,34.2,44,0.0,976.9,8.05,28.8,80,35.2,28.1,0,5,7,1,2026-04-04T15:11:57.935468+05:30
Nizamabad,Telangana,18.6725,78.0941,33.2,43,0.0,964.0,8.55,27.0,122,38.9,30.6,0,5,7,1,2026-04-04T15:11:57.935474+05:30
Mysore,Karnataka,12.2958,76.6396,28.7,59,0.0,928.1,9.05,31.7,84,23.3,20.1,4,5,7,1,2026-04-04T15:11:57.935480+05:30
Mangalore,Karnataka,12.9141,74.856,28.7,81,0.0,1006.1,8.2,19.8,61,15.8,12.0,7,5,4,1,2026-04-04T15:11:57.935487+05:30
Hubli-Dharwad,Karnataka,15.3647,75.124,33.5,34,0.0,940.2,8.6,37.1,70,24.9,20.3,0,5,7,0,2026-04-04T15:11:57.935493+05:30
Belgaum,Karnataka,15.8497,74.4977,30.3,50,0.0,926.0,9.15,35.6,77,23.5,18.8,0,5,7,1,2026-04-04T15:12:01.227612+05:30
Coimbatore,Tamil Nadu,11.0168,76.9558,31.8,53,0.0,961.1,9.15,48.6,84,16.5,15.1,0,5,7,1,2026-04-04T15:12:01.227643+05:30
Madurai,Tamil Nadu,9.9252,78.1198,36.6,32,0.0,990.3,8.7,26.3,81,18.9,17.6,0,5,10,1,2026-04-04T15:12:01.227654+05:30
Trichy,Tamil Nadu,10.7905,78.7047,35.6,40,0.0,997.0,9.3,18.7,52,20.0,18.7,0,5,10,1,2026-04-04T15:12:01.227663+05:30
Salem,Tamil Nadu,11.6643,78.146,34.8,42,0.0,975.3,8.65,29.9,98,26.0,23.9,0,5,7,1,2026-04-04T15:12:01.227671+05:30
Tirunelveli,Tamil Nadu,8.7139,77.7567,35.5,38,0.0,1000.8,8.45,21.2,63,10.9,10.0,0,5,7,1,2026-04-04T15:12:01.227679+05:30
Vellore,Tamil Nadu,12.9165,79.1325,35.1,40,0.0,982.4,8.7,26.6,70,24.3,21.6,0,5,10,1,2026-04-04T15:12:01.227686+05:30
Erode,Tamil Nadu,11.341,77.7172,36.5,41,0.0,986.4,8.95,24.1,93,22.2,20.4,0,5,10,1,2026-04-04T15:12:01.227694+05:30
Kochi,Kerala,9.9312,76.2673,28.8,78,0.0,1007.9,8.9,20.5,68,16.0,14.7,7,5,4,1,2026-04-04T15:12:01.227701+05:30
Thiruvananthapuram,Kerala,8.5241,76.9366,28.9,79,0.0,1007.0,8.05,26.3,61,14.9,11.3,7,5,4,1,2026-04-04T15:12:01.227708+05:30
Kozhikode,Kerala,11.2588,75.7804,29.9,78,0.0,1007.6,8.25,24.5,54,9.8,7.8,7,5,4,1,2026-04-04T15:12:01.227714+05:30
Thrissur,Kerala,10.5276,76.2144,31.6,66,0.0,1006.4,8.3,28.1,59,13.9,12.8,3,5,4,1,2026-04-04T15:12:01.227721+05:30
Kannur,Kerala,11.8745,75.3704,29.9,73,0.0,1007.0,7.6,23.0,58,14.3,11.5,7,5,4,1,2026-04-04T15:12:01.227728+05:30
Patna,Bihar,25.5941,85.1376,37.0,30,0.0,997.5,7.95,39.6,88,68.2,24.7,0,5,10,1,2026-04-04T15:12:01.227735+05:30
Gaya,Bihar,24.7914,85.0002,36.3,30,0.0,991.5,8.45,27.4,79,48.7,18.3,0,5,10,0,2026-04-04T15:12:01.227741+05:30
Muzaffarpur,Bihar,26.1209,85.3647,37.6,26,0.0,997.1,7.9,40.3,86,48.5,20.8,0,5,10,0,2026-04-04T15:12:01.227747+05:30
Bhagalpur,Bihar,25.2425,87.0117,36.2,32,0.0,997.8,8.25,31.7,102,48.5,24.0,0,5,10,1,2026-04-04T15:12:01.227754+05:30
Ranchi,Jharkhand,23.3441,85.3096,32.6,30,0.0,936.7,8.2,41.0,86,26.7,22.5,0,5,7,0,2026-04-04T15:12:01.227760+05:30
Jamshedpur,Jharkhand,22.8046,86.2029,37.1,31,0.0,987.8,8.5,20.5,103,28.8,24.2,0,5,10,1,2026-04-04T15:12:01.227766+05:30
Dhanbad,Jharkhand,23.7957,86.4304,38.0,24,0.0,977.0,8.65,25.9,96,25.3,16.4,0,5,10,0,2026-04-04T15:12:01.227773+05:30
Bokaro,Jharkhand,23.6693,86.1511,37.4,22,0.0,980.9,8.55,28.8,99,26.5,19.0,0,5,10,0,2026-04-04T15:12:01.227780+05:30
Bhubaneswar,Odisha,20.2961,85.8245,35.6,49,0.0,999.7,8.95,25.2,116,60.5,52.6,0,5,10,1,2026-04-04T15:12:01.227787+05:30
Cuttack,Odisha,20.4625,85.8828,37.1,38,0.0,1000.9,9.0,32.8,116,60.5,52.6,0,5,7,1,2026-04-04T15:12:01.227793+05:30
Rourkela,Odisha,22.2604,84.8536,36.7,28,0.0,982.3,8.35,39.6,115,39.1,32.4,0,5,10,0,2026-04-04T15:12:01.227800+05:30
Raipur,Chhattisgarh,21.2514,81.6296,35.5,34,0.0,973.3,8.15,41.4,116,44.1,36.0,0,5,10,1,2026-04-04T15:12:01.227806+05:30
Bhilai,Chhattisgarh,21.1938,81.3509,35.4,35,0.0,973.7,8.2,37.8,98,46.1,36.9,0,5,10,1,2026-04-04T15:12:01.227812+05:30
Guwahati,Assam,26.1158,91.7086,30.5,68,0.0,997.5,8.25,38.2,126,44.7,35.4,3,5,7,1,2026-04-04T15:12:01.227818+05:30
Agartala,Tripura,23.8315,91.2868,33.6,52,0.0,1002.6,8.45,28.1,71,45.9,39.9,0,5,4,1,2026-04-04T15:12:01.227824+05:30
Shillong,Meghalaya,25.5788,91.8933,21.3,47,0.0,855.5,8.4,56.5,100,34.5,28.3,0,5,7,0,2026-04-04T15:12:01.227831+05:30
Imphal,Manipur,24.817,93.9368,23.4,67,0.0,920.9,8.75,78.1,131,41.2,32.2,3,5,7,1,2026-04-04T15:12:01.227837+05:30
Aizawl,Mizoram,23.7271,92.7176,27.7,55,0.0,892.4,8.6,55.1,104,42.1,31.4,4,5,7,1,2026-04-04T15:12:01.227843+05:30
Kohima,Nagaland,25.6701,94.1077,20.5,69,0.0,853.5,8.3,79.9,115,35.9,26.4,3,5,7,0,2026-04-04T15:12:01.227850+05:30
Gangtok,Sikkim,27.3314,88.6138,21.5,70,0.0,836.7,8.4,17.6,132,57.2,45.8,3,5,7,0,2026-04-04T15:12:01.227856+05:30
Siliguri,West Bengal,26.7271,88.3953,27.3,68,0.0,990.6,8.2,27.0,161,71.0,54.1,7,5,7,1,2026-04-04T15:12:04.534419+05:30
Durgapur,West Bengal,23.5204,87.3119,37.6,26,0.0,991.8,8.55,16.2,122,23.2,13.4,0,5,10,0,2026-04-04T15:12:04.534452+05:30
Asansol,West Bengal,23.6739,86.9524,37.4,26,0.0,990.4,8.7,17.6,96,23.7,14.2,0,5,10,0,2026-04-04T15:12:04.534464+05:30
Pondicherry,Puducherry,11.9139,79.8145,34.7,52,0.0,1005.7,8.8,21.6,48,17.5,14.6,0,5,4,1,2026-04-04T15:12:04.534473+05:30
Port Blair,Andaman and Nicobar Islands,11.6234,92.7265,29.1,71,0.0,1005.5,8.75,16.9,42,19.4,10.7,7,5,4,1,2026-04-04T15:12:04.534482+05:30
Haridwar,Uttarakhand,29.9457,78.1642,27.8,43,0.0,975.1,5.0,34.6,103,95.7,29.5,4,5,3,0,2026-04-04T15:12:04.534490+05:30
Rishikesh,Uttarakhand,30.0869,78.2676,28.2,37,0.0,968.1,4.5,31.0,68,36.1,9.8,4,5,3,0,2026-04-04T15:12:04.534498+05:30
Nainital,Uttarakhand,29.3919,79.4542,21.2,45,0.0,807.4,4.25,39.2,63,30.3,10.2,0,5,3,0,2026-04-04T15:12:04.534506+05:30
Mussoorie,Uttarakhand,30.4599,78.0664,19.2,47,0.0,804.5,4.95,46.4,69,42.4,12.9,0,5,3,0,2026-04-04T15:12:04.534514+05:30
Dharamshala,Himachal Pradesh,32.219,76.3234,18.1,68,0.0,869.4,5.8,49.3,47,13.9,5.1,3,5,3,0,2026-04-04T15:12:04.534522+05:30
Dalhousie,Himachal Pradesh,32.5387,75.971,15.2,64,0.0,803.6,5.65,52.6,61,44.4,12.1,3,5,3,0,2026-04-04T15:12:04.534532+05:30
Patiala,Punjab,30.3398,76.3869,23.8,53,0.0,980.2,4.7,25.2,186,194.2,36.7,0,5,3,0,2026-04-04T15:12:04.534540+05:30
Bhatinda,Punjab,30.211,74.9455,26.9,56,0.0,985.1,6.9,45.0,78,99.7,25.1,4,5,7,1,2026-04-04T15:12:04.534547+05:30
Rohtak,Haryana,28.8955,76.6066,27.7,46,0.0,983.0,6.3,31.0,113,218.4,33.5,4,5,7,0,2026-04-04T15:12:04.534555+05:30
Panipat,Haryana,29.3909,76.9635,25.6,49,0.0,981.8,5.2,28.8,181,324.1,40.6,4,5,3,0,2026-04-04T15:12:04.534562+05:30
Mathura,Uttar Pradesh,27.4924,77.6737,29.1,56,0.0,988.3,5.15,38.5,272,215.6,36.4,4,5,3,1,2026-04-04T15:12:04.534569+05:30
Vrindavan,Uttar Pradesh,27.5823,77.7027,29.1,62,0.0,989.3,5.25,29.5,272,215.6,36.4,7,5,3,1,2026-04-04T15:12:04.534577+05:30
Ayodhya,Uttar Pradesh,26.7922,82.1998,35.6,31,0.0,993.7,7.2,40.3,108,69.6,25.3,0,5,10,0,2026-04-04T15:12:04.534585+05:30
Ratlam,Madhya Pradesh,23.3315,75.0367,28.4,48,0.0,955.5,8.1,36.7,58,30.7,11.6,4,5,7,1,2026-04-04T15:12:04.534593+05:30
Sagar,Madhya Pradesh,23.8388,78.7378,34.2,42,0.0,951.3,7.2,39.6,64,24.4,17.4,0,5,7,1,2026-04-04T15:12:04.534600+05:30
Satna,Madhya Pradesh,24.6005,80.8322,30.3,39,0.0,971.1,5.05,37.1,73,24.2,17.6,0,5,3,0,2026-04-04T15:12:04.534608+05:30
Akola,Maharashtra,20.7002,77.0082,35.5,36,0.0,974.9,7.95,25.6,89,38.9,29.9,0,5,10,1,2026-04-04T15:12:04.534616+05:30
Amravati,Maharashtra,20.9374,77.7796,34.4,38,0.0,967.2,7.7,24.5,90,32.5,26.0,0,5,7,1,2026-04-04T15:12:04.534624+05:30
Latur,Maharashtra,18.4088,76.5604,31.8,41,0.0,940.0,8.85,29.5,101,46.8,37.7,0,5,7,1,2026-04-04T15:12:04.534632+05:30
Nanded,Maharashtra,19.1383,77.3091,33.6,38,0.0,968.4,8.15,19.8,98,39.0,30.9,0,5,7,1,2026-04-04T15:12:04.534639+05:30
Gulbarga,Karnataka,17.3297,76.8343,34.8,36,0.0,957.7,8.9,32.0,85,26.3,21.5,0,5,7,1,2026-04-04T15:12:04.534645+05:30
Bidar,Karnataka,17.9104,77.5199,32.9,41,0.0,935.1,8.55,31.3,94,34.0,26.6,0,5,7,1,2026-04-04T15:12:04.534653+05:30
Hospet,Karnataka,15.2689,76.3909,33.6,39,0.0,954.7,7.95,33.5,92,29.3,24.9,0,5,7,1,2026-04-04T15:12:04.534659+05:30
Tirupur,Tamil Nadu,11.1085,77.3411,34.9,41,0.0,973.4,8.8,39.6,91,20.7,19.1,0,5,7,1,2026-04-04T15:12:04.534667+05:30
Alappuzha,Kerala,9.4981,76.3388,28.7,81,0.0,1008.0,9.05,22.0,64,14.8,13.5,7,0,4,1,2026-04-04T15:12:04.534674+05:30
Munnar,Kerala,10.0889,77.0595,25.8,78,0.0,858.1,6.2,32.8,58,14.7,13.6,7,5,7,1,2026-04-04T15:12:04.534682+05:30
Silchar,Assam,24.8333,92.7789,29.7,67,0.0,1001.9,8.45,37.4,131,44.7,37.4,7,5,4,1,2026-04-04T15:12:04.534689+05:30
Dibrugarh,Assam,27.4728,94.912,27.7,73,0.0,992.3,8.3,14.4,111,43.3,33.9,7,5,7,1,2026-04-04T15:12:04.534697+05:30
