city,state,latitude,longitude,temp,humidity,rain,pressure,uv_index,wind_gusts,aqi,pm10,pm2_5,mosquito_risk,arthritis_risk,migraine_risk,frizz_risk,updated_at
Delhi,Delhi,28.6139,77.209,23.3,61,0.0,987.3,6.45,28.4,167,519.7,104.3,3,5,7,0,2026-03-22T22:05:14.104676+05:30
Mumbai,Maharashtra,19.076,72.8777,29.5,58,0.0,1010.1,7.9,28.4,170,56.6,39.9,4,0,4,1,2026-03-22T22:05:14.104716+05:30
Bangalore,Karnataka,12.9716,77.5946,25.8,58,0.0,913.4,9.45,25.2,109,77.5,65.9,4,5,7,1,2026-03-22T22:05:14.104731+05:30
Hyderabad,Telangana,17.385,78.4867,25.8,70,0.0,956.1,8.9,24.5,127,44.7,36.1,7,5,7,1,2026-03-22T22:05:14.104741+05:30
Chennai,Tamil Nadu,13.0827,80.2707,27.5,76,0.0,1010.2,9.15,32.4,37,12.4,7.9,7,0,4,1,2026-03-22T22:05:14.104750+05:30
Kolkata,West Bengal,22.5726,88.3639,23.5,72,0.0,1011.3,8.25,16.6,132,81.3,78.7,3,0,4,1,2026-03-22T22:05:14.104759+05:30
Pune,Maharashtra,18.5204,73.8567,26.8,50,0.0,950.8,8.45,26.6,110,30.7,23.1,4,5,7,0,2026-03-22T22:05:14.104771+05:30
Ahmedabad,Gujarat,23.0225,72.5714,27.0,44,0.0,1005.4,7.65,22.7,74,67.3,40.6,4,5,4,0,2026-03-22T22:05:14.104778+05:30
Jaipur,Rajasthan,26.9124,75.7873,25.4,43,0.0,963.1,7.25,29.9,88,113.9,46.0,4,5,7,0,2026-03-22T22:05:14.104786+05:30
Lucknow,Uttar Pradesh,26.8467,80.9462,23.3,56,0.0,998.1,6.95,26.6,118,284.1,60.8,0,5,7,0,2026-03-22T22:05:14.104793+05:30
Kanpur,Uttar Pradesh,26.4499,80.3319,22.3,71,0.0,996.4,7.0,27.7,147,464.7,78.2,3,5,7,1,2026-03-22T22:05:14.104800+05:30
Chandigarh,Chandigarh,30.7333,76.7794,19.0,79,0.0,972.7,6.4,33.1,113,49.2,46.3,3,5,7,0,2026-03-22T22:05:14.104807+05:30
Srinagar,Jammu and Kashmir,34.0837,74.7973,9.8,79,0.0,839.9,7.5,14.0,118,83.4,72.2,3,5,7,0,2026-03-22T22:05:14.104813+05:30
Jammu,Jammu and Kashmir,32.7266,74.857,21.1,71,0.0,976.7,6.85,22.0,103,59.3,54.8,3,5,7,0,2026-03-22T22:05:14.104820+05:30
Amritsar,Punjab,31.634,74.8723,20.5,70,0.0,985.3,7.05,20.5,156,82.7,60.8,3,5,7,0,2026-03-22T22:05:14.104827+05:30
Ludhiana,Punjab,30.901,75.8573,21.2,70,0.0,983.4,6.6,26.6,135,122.9,68.7,3,5,7,0,2026-03-22T22:05:14.104833+05:30
Jalandhar,Punjab,31.326,75.5762,20.5,72,0.0,984.4,6.85,21.6,151,101.7,72.6,3,5,7,0,2026-03-22T22:05:14.104842+05:30
Dehradun,Uttarakhand,30.6284,78.0322,11.4,89,0.0,830.2,6.8,24.1,118,37.8,33.2,3,10,7,0,2026-03-22T22:05:14.104848+05:30
Shimla,Himachal Pradesh,31.1048,77.1734,9.6,90,0.0,783.9,6.85,41.0,106,38.6,34.2,3,10,7,0,2026-03-22T22:05:14.104855+05:30
Manali,Himachal Pradesh,32.2396,77.1887,13.1,37,0.0,818.8,8.9,33.8,131,23.9,15.0,0,5,7,1,2026-03-22T22:05:14.104862+05:30
Gurgaon,Haryana,28.4595,77.0266,21.5,70,0.0,985.6,6.55,23.8,452,484.3,102.7,3,5,7,0,2026-03-22T22:05:14.104871+05:30
Noida,Uttar Pradesh,28.5355,77.391,23.0,62,0.0,988.9,6.45,27.7,452,484.3,102.7,3,5,7,0,2026-03-22T22:05:14.104877+05:30
Ghaziabad,Uttar Pradesh,28.6692,77.4538,21.8,67,0.0,987.0,6.45,28.1,153,468.5,95.7,3,5,7,0,2026-03-22T22:05:14.104884+05:30
Faridabad,Haryana,28.4089,77.3178,21.9,64,0.0,988.0,6.5,24.8,452,484.3,102.7,3,5,7,0,2026-03-22T22:05:14.104890+05:30
Meerut,Uttar Pradesh,28.9845,77.7064,19.9,74,0.0,985.6,6.3,31.7,153,468.5,95.7,3,5,7,0,2026-03-22T22:05:14.104897+05:30
Agra,Uttar Pradesh,27.1767,78.0081,22.9,58,0.0,992.0,6.45,29.9,511,373.5,82.4,0,5,7,0,2026-03-22T22:05:14.104903+05:30
Varanasi,Uttar Pradesh,25.3176,82.9739,22.4,67,0.0,1002.6,7.1,28.4,103,67.8,59.8,3,5,4,0,2026-03-22T22:05:14.104912+05:30
Prayagraj,Uttar Pradesh,25.4358,81.8463,23.3,56,0.0,1000.9,7.5,24.8,117,84.8,41.4,0,5,4,0,2026-03-22T22:05:14.104918+05:30
Gorakhpur,Uttar Pradesh,26.7606,83.3732,20.1,80,0.0,1002.3,7.25,11.2,158,45.2,43.0,3,5,4,1,2026-03-22T22:05:14.104927+05:30
Bareilly,Uttar Pradesh,28.367,79.4304,19.7,78,0.0,991.1,6.65,29.5,114,144.8,51.3,3,5,7,0,2026-03-22T22:05:14.104934+05:30
Aligarh,Uttar Pradesh,27.8974,78.088,21.1,68,0.0,989.8,6.6,27.7,340,620.3,109.7,3,5,7,0,2026-03-22T22:05:14.104940+05:30
Moradabad,Uttar Pradesh,28.8386,78.7733,19.6,76,0.0,987.8,6.5,30.6,134,156.9,53.1,3,5,7,0,2026-03-22T22:05:14.104946+05:30
Saharanpur,Uttar Pradesh,29.9637,77.546,19.4,76,0.0,979.7,6.15,34.2,151,296.2,74.3,3,5,7,0,2026-03-22T22:05:14.104952+05:30
Jhansi,Uttar Pradesh,25.4484,78.5685,24.3,50,0.0,982.1,7.45,32.4,78,55.8,24.9,0,5,7,0,2026-03-22T22:05:17.451904+05:30
Surat,Gujarat,21.1702,72.8311,27.4,51,0.0,1009.6,7.65,24.5,109,72.9,56.0,4,0,4,1,2026-03-22T22:05:17.451933+05:30
Vadodara,Gujarat,22.3072,73.1812,27.5,54,0.0,1007.4,7.8,20.5,114,54.5,38.8,4,5,4,1,2026-03-22T22:05:17.451943+05:30
Rajkot,Gujarat,22.3039,70.8022,26.0,54,0.0,997.9,7.6,25.9,65,39.3,22.5,4,5,7,0,2026-03-22T22:05:17.451952+05:30
Thane,Maharashtra,19.2183,72.9781,29.6,42,0.0,1009.6,7.85,41.0,170,56.6,39.9,4,0,4,0,2026-03-22T22:05:17.451959+05:30
Nagpur,Maharashtra,21.1458,79.0882,27.2,38,0.0,976.7,8.35,19.4,91,48.8,38.1,4,5,7,0,2026-03-22T22:05:17.451966+05:30
Nashik,Maharashtra,19.9975,73.7898,24.8,50,0.0,948.4,8.1,24.8,89,31.8,23.0,0,5,7,0,2026-03-22T22:05:17.451974+05:30
Aurangabad,Maharashtra,19.8762,75.3433,25.9,43,0.0,946.7,8.6,27.0,96,34.8,26.4,4,5,7,0,2026-03-22T22:05:17.451981+05:30
Solapur,Maharashtra,17.6599,75.9064,27.2,41,0.0,958.8,8.75,24.5,94,31.3,23.5,4,5,7,0,2026-03-22T22:05:17.451989+05:30
Kolhapur,Maharashtra,16.705,74.2433,22.8,64,0.0,949.7,8.85,29.2,89,40.4,35.7,3,5,7,0,2026-03-22T22:05:17.451997+05:30
Goa,Goa,15.2993,74.124,28.3,81,0.0,999.8,8.85,35.3,112,48.5,37.4,7,5,7,1,2026-03-22T22:05:17.452004+05:30
Jodhpur,Rajasthan,26.2389,73.0243,25.2,63,0.0,987.2,7.55,33.8,70,88.0,22.3,7,5,7,1,2026-03-22T22:05:17.452011+05:30
Udaipur,Rajasthan,24.5854,73.7125,24.4,44,0.0,950.0,8.15,27.0,59,35.7,14.4,0,5,7,0,2026-03-22T22:05:17.452018+05:30
Kota,Rajasthan,25.2138,75.8648,26.3,45,0.0,982.1,7.4,12.6,94,43.1,29.8,4,5,7,0,2026-03-22T22:05:17.452025+05:30
Bikaner,Rajasthan,28.0229,73.3119,24.9,56,0.0,986.6,7.1,27.4,68,50.9,18.0,0,5,7,0,2026-03-22T22:05:17.452032+05:30
Ajmer,Rajasthan,26.4499,74.6399,25.8,42,0.0,958.2,7.35,25.9,70,40.7,17.8,4,5,7,0,2026-03-22T22:05:17.452039+05:30
Gwalior,Madhya Pradesh,26.2183,78.1828,24.8,57,0.0,987.3,7.15,29.9,134,132.2,35.3,0,5,7,0,2026-03-22T22:05:17.452046+05:30
Indore,Madhya Pradesh,22.7196,75.8577,24.2,47,0.0,951.1,8.05,17.6,65,37.0,26.7,0,5,7,0,2026-03-22T22:05:17.452053+05:30
Bhopal,Madhya Pradesh,23.2599,77.4126,24.5,40,0.0,957.0,7.9,25.9,75,30.9,21.2,0,5,7,0,2026-03-22T22:05:17.452059+05:30
Jabalpur,Madhya Pradesh,23.1815,79.9864,24.2,53,0.0,965.2,8.05,29.9,69,52.4,23.3,0,5,7,0,2026-03-22T22:05:17.452066+05:30
Ujjain,Madhya Pradesh,23.1765,75.7885,24.3,51,0.0,956.9,8.0,13.3,68,48.0,36.6,0,5,7,0,2026-03-22T22:05:17.452073+05:30
Visakhapatnam,Andhra Pradesh,17.6868,83.2185,25.9,86,0.0,1007.6,8.85,36.7,80,25.6,20.7,7,5,4,1,2026-03-22T22:05:17.452080+05:30
Vijayawada,Andhra Pradesh,16.5062,80.648,27.0,80,0.0,1006.3,8.9,18.7,65,30.6,26.4,7,5,4,1,2026-03-22T22:05:17.452087+05:30
Guntur,Andhra Pradesh,16.3067,80.4365,26.2,86,0.0,1007.4,8.9,19.4,67,33.4,29.2,7,5,4,1,2026-03-22T22:05:17.452094+05:30
Nellore,Andhra Pradesh,14.4426,79.9865,26.5,84,0.0,1009.2,9.05,27.7,48,10.9,6.9,7,0,4,1,2026-03-22T22:05:17.452102+05:30
Kurnool,Andhra Pradesh,15.8281,78.0373,30.6,48,0.0,979.0,8.9,22.0,89,51.0,35.7,0,5,7,1,2026-03-22T22:05:17.452109+05:30
Kakinada,Andhra Pradesh,16.9891,82.2475,25.8,83,0.0,1011.3,8.8,28.8,42,16.4,11.1,7,0,4,1,2026-03-22T22:05:17.452116+05:30
Tirupati,Andhra Pradesh,13.6288,79.4192,26.5,74,0.0,995.0,9.2,30.2,70,20.4,17.3,7,5,7,1,2026-03-22T22:05:17.452123+05:30
Warangal,Telangana,17.9689,79.5941,26.6,72,0.0,981.8,8.75,19.8,116,88.0,73.3,7,5,7,1,2026-03-22T22:05:17.452130+05:30
Nizamabad,Telangana,18.6725,78.0941,27.2,52,0.0,967.3,8.65,27.4,99,59.3,52.7,4,5,7,1,2026-03-22T22:05:17.452137+05:30
Mysore,Karnataka,12.2958,76.6396,25.1,72,0.0,930.1,9.4,29.2,100,43.9,34.3,7,5,7,1,2026-03-22T22:05:17.452144+05:30
Mangalore,Karnataka,12.9141,74.856,29.6,76,0.0,1008.7,9.05,28.4,77,32.8,20.7,7,0,4,1,2026-03-22T22:05:17.452151+05:30
Hubli-Dharwad,Karnataka,15.3647,75.124,25.2,68,0.0,942.5,9.05,25.2,129,33.3,28.1,7,5,7,1,2026-03-22T22:05:17.452158+05:30
Belgaum,Karnataka,15.8497,74.4977,23.7,67,0.0,927.6,9.1,33.1,121,31.9,27.0,3,5,7,1,2026-03-22T22:05:20.799514+05:30
Coimbatore,Tamil Nadu,11.0168,76.9558,26.1,73,0.0,963.8,9.3,33.5,82,50.8,43.4,7,5,7,1,2026-03-22T22:05:20.799578+05:30
Madurai,Tamil Nadu,9.9252,78.1198,27.9,66,0.0,995.3,9.35,25.9,63,21.7,18.2,7,5,7,1,2026-03-22T22:05:20.799590+05:30
Trichy,Tamil Nadu,10.7905,78.7047,27.7,78,0.0,1002.1,9.25,23.8,65,21.1,18.5,7,5,4,1,2026-03-22T22:05:20.799600+05:30
Salem,Tamil Nadu,11.6643,78.146,28.2,63,0.0,979.2,9.3,20.9,101,33.1,27.5,7,5,7,1,2026-03-22T22:05:20.799608+05:30
Tirunelveli,Tamil Nadu,8.7139,77.7567,27.6,70,0.0,1005.3,9.3,32.8,67,20.0,17.3,7,5,4,1,2026-03-22T22:05:20.799615+05:30
Vellore,Tamil Nadu,12.9165,79.1325,26.9,67,0.0,987.7,9.25,32.8,88,23.8,20.4,7,5,7,1,2026-03-22T22:05:20.799623+05:30
Erode,Tamil Nadu,11.341,77.7172,29.2,59,0.0,990.6,9.3,32.8,77,27.1,22.5,4,5,7,1,2026-03-22T22:05:20.799629+05:30
Kochi,Kerala,9.9312,76.2673,27.4,82,0.0,1011.1,9.15,34.9,75,44.4,40.7,7,0,4,1,2026-03-22T22:05:20.799636+05:30
Thiruvananthapuram,Kerala,8.5241,76.9366,27.7,82,0.0,1010.0,9.15,26.3,108,18.5,13.4,7,0,4,1,2026-03-22T22:05:20.799643+05:30
Kozhikode,Kerala,11.2588,75.7804,29.9,74,0.0,1009.3,9.1,31.0,64,35.2,18.6,7,0,4,1,2026-03-22T22:05:20.799649+05:30
Thrissur,Kerala,10.5276,76.2144,28.3,79,0.0,1009.0,9.1,38.2,71,50.4,44.7,7,0,4,1,2026-03-22T22:05:20.799657+05:30
Kannur,Kerala,11.8745,75.3704,29.5,76,0.0,1008.9,9.05,34.9,69,37.1,20.0,7,0,4,1,2026-03-22T22:05:20.799664+05:30
Patna,Bihar,25.5941,85.1376,21.8,75,0.0,1006.1,7.55,19.1,160,71.0,68.2,3,5,4,1,2026-03-22T22:05:20.799670+05:30
Gaya,Bihar,24.7914,85.0002,20.8,82,0.0,999.4,7.5,21.6,138,62.2,54.9,3,5,7,1,2026-03-22T22:05:20.799677+05:30
Muzaffarpur,Bihar,26.1209,85.3647,20.5,75,0.0,1005.9,6.15,11.5,163,79.2,75.7,3,5,4,0,2026-03-22T22:05:20.799683+05:30
Bhagalpur,Bihar,25.2425,87.0117,21.2,77,0.0,1007.0,7.05,17.3,156,79.4,72.9,3,5,4,1,2026-03-22T22:05:20.799690+05:30
Ranchi,Jharkhand,23.3441,85.3096,19.6,60,0.0,941.6,8.45,29.5,107,64.3,31.4,0,5,7,0,2026-03-22T22:05:20.799697+05:30
Jamshedpur,Jharkhand,22.8046,86.2029,25.5,50,0.0,995.5,8.35,19.1,119,64.5,45.4,4,5,7,0,2026-03-22T22:05:20.799703+05:30
Dhanbad,Jharkhand,23.7957,86.4304,22.1,66,0.0,984.9,8.2,23.8,137,70.8,59.6,3,5,7,0,2026-03-22T22:05:20.799710+05:30
Bokaro,Jharkhand,23.6693,86.1511,21.9,67,0.0,989.1,8.2,24.5,136,77.8,58.9,3,5,7,0,2026-03-22T22:05:20.799718+05:30
Bhubaneswar,Odisha,20.2961,85.8245,25.1,85,0.0,1007.1,8.65,26.3,123,35.0,30.5,7,5,4,1,2026-03-22T22:05:20.799724+05:30
Cuttack,Odisha,20.4625,85.8828,25.3,84,0.0,1009.2,8.65,21.2,123,35.0,30.5,7,0,4,1,2026-03-22T22:05:20.799731+05:30
Rourkela,Odisha,22.2604,84.8536,23.1,67,0.0,989.4,8.2,20.5,109,43.5,32.7,3,5,7,1,2026-03-22T22:05:20.799737+05:30
Raipur,Chhattisgarh,21.2514,81.6296,25.8,37,0.0,978.5,8.4,23.0,90,48.3,41.9,4,5,7,0,2026-03-22T22:05:20.799743+05:30
Bhilai,Chhattisgarh,21.1938,81.3509,24.3,42,0.0,978.6,8.4,16.9,76,68.0,58.3,0,5,7,0,2026-03-22T22:05:20.799750+05:30
Guwahati,Assam,26.1158,91.7086,21.8,87,0.0,1006.5,7.6,20.5,83,23.9,22.3,3,5,4,1,2026-03-22T22:05:20.799756+05:30
Agartala,Tripura,23.8315,91.2868,21.3,83,0.0,1011.6,7.85,22.0,136,86.1,81.5,3,0,4,1,2026-03-22T22:05:20.799762+05:30
Shillong,Meghalaya,25.5788,91.8933,9.8,91,0.0,856.7,6.7,26.3,60,25.1,22.5,3,10,7,0,2026-03-22T22:05:20.799769+05:30
Imphal,Manipur,24.817,93.9368,14.3,92,0.0,926.2,8.15,51.5,62,24.3,23.1,3,10,7,0,2026-03-22T22:05:20.799776+05:30
Aizawl,Mizoram,23.7271,92.7176,15.2,86,0.0,895.2,8.2,44.6,52,20.1,18.6,3,10,7,0,2026-03-22T22:05:20.799783+05:30
Kohima,Nagaland,25.6701,94.1077,11.1,86,0.0,855.5,7.8,56.9,55,17.6,16.3,3,10,7,0,2026-03-22T22:05:20.799790+05:30
Gangtok,Sikkim,27.3314,88.6138,11.4,92,0.1,837.6,7.85,19.4,72,21.0,20.3,6,10,7,0,2026-03-22T22:05:20.799796+05:30
Siliguri,West Bengal,26.7271,88.3953,17.9,75,0.0,998.5,7.45,17.3,100,51.2,49.8,3,5,7,0,2026-03-22T22:05:24.150788+05:30
Durgapur,West Bengal,23.5204,87.3119,23.1,68,0.0,1000.2,8.1,18.4,126,74.0,70.1,3,5,4,1,2026-03-22T22:05:24.150817+05:30
Asansol,West Bengal,23.6739,86.9524,23.4,64,0.0,998.7,8.2,20.5,117,51.5,46.3,3,5,7,1,2026-03-22T22:05:24.150827+05:30
Pondicherry,Puducherry,11.9139,79.8145,25.6,90,0.0,1011.3,9.15,28.8,35,13.4,7.9,7,0,4,1,2026-03-22T22:05:24.150835+05:30
Port Blair,Andaman and Nicobar Islands,11.6234,92.7265,28.5,79,0.0,1009.5,9.1,20.9,43,11.4,8.4,7,0,4,1,2026-03-22T22:05:24.150843+05:30
Haridwar,Uttarakhand,29.9457,78.1642,18.9,80,0.0,978.1,6.25,25.9,115,203.0,61.9,3,5,7,0,2026-03-22T22:05:24.150851+05:30
Rishikesh,Uttarakhand,30.0869,78.2676,17.9,81,0.0,970.6,6.3,25.6,128,90.3,43.5,3,10,7,0,2026-03-22T22:05:24.150859+05:30
Nainital,Uttarakhand,29.3919,79.4542,14.0,71,0.0,806.3,7.15,37.8,125,43.2,34.1,3,5,7,0,2026-03-22T22:05:24.150866+05:30
Mussoorie,Uttarakhand,30.4599,78.0664,12.3,79,0.0,802.7,6.65,25.9,121,92.0,52.3,3,5,7,0,2026-03-22T22:05:24.150873+05:30
Dharamshala,Himachal Pradesh,32.219,76.3234,15.9,72,0.0,870.5,6.75,20.9,124,33.9,27.4,3,5,7,0,2026-03-22T22:05:24.150880+05:30
Dalhousie,Himachal Pradesh,32.5387,75.971,12.4,81,0.0,803.7,7.0,19.1,104,59.4,54.8,3,10,7,0,2026-03-22T22:05:24.150888+05:30
Patiala,Punjab,30.3398,76.3869,19.4,79,0.0,982.7,6.3,31.3,161,251.5,74.0,3,5,7,0,2026-03-22T22:05:24.150895+05:30
Bhatinda,Punjab,30.211,74.9455,21.5,74,0.0,988.4,6.9,19.4,151,127.6,65.9,3,5,7,1,2026-03-22T22:05:24.150903+05:30
Rohtak,Haryana,28.8955,76.6066,21.0,73,0.0,986.1,6.45,24.8,191,530.9,102.4,3,5,7,0,2026-03-22T22:05:24.150910+05:30
Panipat,Haryana,29.3909,76.9635,19.4,77,0.0,984.5,6.25,29.5,446,715.3,121.5,3,5,7,0,2026-03-22T22:05:24.150917+05:30
Mathura,Uttar Pradesh,27.4924,77.6737,21.4,69,0.0,991.0,6.6,28.1,356,423.8,81.3,3,5,7,0,2026-03-22T22:05:24.150923+05:30
Vrindavan,Uttar Pradesh,27.5823,77.7027,21.7,68,0.0,991.5,6.45,28.1,356,423.8,81.3,3,5,7,0,2026-03-22T22:05:24.150930+05:30
Ayodhya,Uttar Pradesh,26.7922,82.1998,21.6,73,0.0,1000.0,7.0,18.7,103,52.7,40.3,3,5,4,1,2026-03-22T22:05:24.150936+05:30
Ratlam,Madhya Pradesh,23.3315,75.0367,25.6,49,0.0,957.6,7.95,14.4,63,47.8,36.0,4,5,7,0,2026-03-22T22:05:24.150943+05:30
Sagar,Madhya Pradesh,23.8388,78.7378,24.5,48,0.0,953.8,7.95,29.9,85,44.4,21.7,0,5,7,0,2026-03-22T22:05:24.150949+05:30
Satna,Madhya Pradesh,24.6005,80.8322,23.6,49,0.0,975.9,7.9,32.4,84,67.1,23.0,0,5,7,0,2026-03-22T22:05:24.150956+05:30
Akola,Maharashtra,20.7002,77.0082,26.0,47,0.0,978.3,8.3,21.2,110,30.6,25.6,4,5,7,0,2026-03-22T22:05:24.150963+05:30
Amravati,Maharashtra,20.9374,77.7796,25.7,50,0.0,970.4,8.3,22.3,109,26.3,21.0,4,5,7,0,2026-03-22T22:05:24.150970+05:30
Latur,Maharashtra,18.4088,76.5604,25.0,50,0.0,941.9,8.7,28.8,109,21.4,16.5,4,5,7,0,2026-03-22T22:05:24.150977+05:30
Nanded,Maharashtra,19.1383,77.3091,27.1,43,0.0,971.2,8.5,28.4,94,33.3,29.5,4,5,7,0,2026-03-22T22:05:24.150983+05:30
Gulbarga,Karnataka,17.3297,76.8343,30.0,33,0.0,960.6,8.75,18.4,112,42.3,32.7,4,5,7,0,2026-03-22T22:05:24.150989+05:30
Bidar,Karnataka,17.9104,77.5199,27.6,42,0.0,937.8,8.75,20.5,109,25.6,21.2,4,5,7,0,2026-03-22T22:05:24.150995+05:30
Hospet,Karnataka,15.2689,76.3909,28.6,55,0.0,957.3,9.0,15.1,172,35.5,29.6,4,5,7,1,2026-03-22T22:05:24.151002+05:30
Tirupur,Tamil Nadu,11.1085,77.3411,29.4,48,0.0,977.1,9.4,31.0,82,50.1,42.1,4,5,7,1,2026-03-22T22:05:24.151008+05:30
Alappuzha,Kerala,9.4981,76.3388,28.4,80,0.0,1010.8,9.15,33.5,75,36.2,29.0,7,0,4,1,2026-03-22T22:05:24.151014+05:30
Munnar,Kerala,10.0889,77.0595,21.2,89,0.0,858.7,8.65,26.6,70,38.1,29.8,3,5,7,1,2026-03-22T22:05:24.151021+05:30
Silchar,Assam,24.8333,92.7789,20.3,91,0.0,1010.9,7.95,22.3,82,60.1,55.5,3,0,4,1,2026-03-22T22:05:24.151028+05:30
Dibrugarh,Assam,27.4728,94.912,21.1,92,0.0,1000.5,4.5,28.4,120,36.3,34.0,3,5,0,1,2026-03-22T22:05:24.151035+05:30
