city,state,latitude,longitude,temp,humidity,rain,pressure,uv_index,wind_gusts,aqi,pm10,pm2_5,mosquito_risk,arthritis_risk,migraine_risk,frizz_risk,updated_at
Delhi,Delhi,28.6139,77.209,26.4,46,0.0,986.6,5.8,36.7,327,694.8,107.6,4,5,3,0,2026-03-03T18:34:46.885006+05:30
Mumbai,Maharashtra,19.076,72.8777,28.0,68,0.0,1009.5,7.35,25.9,177,58.4,54.4,7,0,4,1,2026-03-03T18:34:46.885039+05:30
Bangalore,Karnataka,12.9716,77.5946,28.7,31,0.0,913.2,9.1,36.0,123,34.5,33.9,4,5,7,0,2026-03-03T18:34:46.885053+05:30
Hyderabad,Telangana,17.385,78.4867,30.2,40,0.0,955.3,8.35,23.4,161,34.9,34.2,0,5,7,0,2026-03-03T18:34:46.885062+05:30
Chennai,Tamil Nadu,13.0827,80.2707,27.8,61,0.0,1009.9,8.8,30.2,112,34.0,30.3,7,0,4,1,2026-03-03T18:34:46.885069+05:30
Kolkata,West Bengal,22.5726,88.3639,28.0,45,0.0,1009.0,7.7,16.2,171,109.0,77.5,4,0,4,0,2026-03-03T18:34:46.885076+05:30
Pune,Maharashtra,18.5204,73.8567,34.0,27,0.0,949.7,7.9,32.8,140,21.0,20.7,0,5,7,0,2026-03-03T18:34:46.885085+05:30
Ahmedabad,Gujarat,23.0225,72.5714,34.7,27,0.0,1004.6,7.15,14.4,115,25.7,18.9,0,5,4,0,2026-03-03T18:34:46.885092+05:30
Jaipur,Rajasthan,26.9124,75.7873,30.3,14,0.0,964.1,6.55,29.9,108,89.9,28.8,0,5,7,1,2026-03-03T18:34:46.885098+05:30
Lucknow,Uttar Pradesh,26.8467,80.9462,27.2,42,0.0,997.1,6.3,35.6,152,200.2,53.0,4,5,7,0,2026-03-03T18:34:46.885104+05:30
Kanpur,Uttar Pradesh,26.4499,80.3319,26.5,46,0.0,995.2,6.3,28.4,185,272.9,58.3,4,5,7,0,2026-03-03T18:34:46.885110+05:30
Chandigarh,Chandigarh,30.7333,76.7794,23.0,55,0.0,971.9,5.7,33.5,141,32.7,30.4,0,5,3,0,2026-03-03T18:34:46.885117+05:30
Srinagar,Jammu and Kashmir,34.0837,74.7973,17.4,27,0.0,844.3,6.6,18.0,152,50.1,41.9,0,5,7,1,2026-03-03T18:34:46.885123+05:30
Jammu,Jammu and Kashmir,32.7266,74.857,24.7,61,0.0,975.6,6.3,20.9,104,44.5,35.4,3,5,7,1,2026-03-03T18:34:46.885128+05:30
Amritsar,Punjab,31.634,74.8723,24.4,51,0.0,984.1,6.25,25.9,109,33.2,27.0,0,5,7,0,2026-03-03T18:34:46.885134+05:30
Ludhiana,Punjab,30.901,75.8573,25.4,51,0.0,982.3,5.9,29.9,139,82.2,43.4,4,5,3,0,2026-03-03T18:34:46.885139+05:30
Jalandhar,Punjab,31.326,75.5762,25.9,51,0.0,983.4,6.05,25.9,138,48.5,30.6,4,5,7,0,2026-03-03T18:34:46.885147+05:30
Dehradun,Uttarakhand,30.6284,78.0322,16.0,74,0.0,831.8,6.05,31.0,110,23.5,20.5,3,5,7,0,2026-03-03T18:34:46.885169+05:30
Shimla,Himachal Pradesh,31.1048,77.1734,14.6,59,0.0,786.7,6.1,44.6,112,22.8,17.7,0,5,7,0,2026-03-03T18:34:46.885175+05:30
Manali,Himachal Pradesh,32.2396,77.1887,19.2,49,0.0,823.3,7.7,34.6,102,15.3,11.9,0,5,7,0,2026-03-03T18:34:46.885181+05:30
Gurgaon,Haryana,28.4595,77.0266,24.0,54,0.0,985.1,5.9,33.8,1152,1467.8,179.7,0,5,3,0,2026-03-03T18:34:46.885186+05:30
Noida,Uttar Pradesh,28.5355,77.391,26.9,43,0.0,988.2,5.8,36.4,1152,1467.8,179.7,4,5,3,0,2026-03-03T18:34:46.885192+05:30
Ghaziabad,Uttar Pradesh,28.6692,77.4538,25.7,50,0.0,986.2,5.75,36.0,233,607.2,100.4,4,5,3,0,2026-03-03T18:34:46.885198+05:30
Faridabad,Haryana,28.4089,77.3178,25.2,46,0.0,987.5,5.85,32.8,1152,1467.8,179.7,4,5,3,0,2026-03-03T18:34:46.885203+05:30
Meerut,Uttar Pradesh,28.9845,77.7064,24.5,56,0.0,984.6,5.65,41.4,233,607.2,100.4,0,5,3,0,2026-03-03T18:34:46.885208+05:30
Agra,Uttar Pradesh,27.1767,78.0081,26.5,39,0.0,991.5,6.15,30.6,478,463.8,71.2,4,5,7,0,2026-03-03T18:34:46.885214+05:30
Varanasi,Uttar Pradesh,25.3176,82.9739,25.3,55,0.0,1001.6,6.95,23.0,135,69.8,46.9,4,5,4,0,2026-03-03T18:34:46.885223+05:30
Prayagraj,Uttar Pradesh,25.4358,81.8463,26.0,53,0.0,999.9,6.8,23.0,123,65.7,41.8,4,5,7,0,2026-03-03T18:34:46.885229+05:30
Gorakhpur,Uttar Pradesh,26.7606,83.3732,24.9,55,0.0,1001.0,6.65,16.9,145,85.2,55.4,0,5,4,0,2026-03-03T18:34:46.885234+05:30
Bareilly,Uttar Pradesh,28.367,79.4304,24.8,65,0.0,989.9,6.0,28.8,134,181.1,67.5,3,5,3,1,2026-03-03T18:34:46.885240+05:30
Aligarh,Uttar Pradesh,27.8974,78.088,24.8,47,0.0,989.1,5.9,34.9,659,1028.2,144.8,0,5,3,0,2026-03-03T18:34:46.885245+05:30
Moradabad,Uttar Pradesh,28.8386,78.7733,24.5,52,0.0,986.7,5.8,28.8,136,164.8,57.4,0,5,3,0,2026-03-03T18:34:46.885251+05:30
Saharanpur,Uttar Pradesh,29.9637,77.546,23.8,46,0.0,978.1,5.45,43.2,131,193.2,55.9,0,5,3,0,2026-03-03T18:34:46.885256+05:30
Jhansi,Uttar Pradesh,25.4484,78.5685,29.0,37,0.0,981.8,6.7,26.6,80,37.6,21.9,4,5,7,0,2026-03-03T18:34:50.218271+05:30
Surat,Gujarat,21.1702,72.8311,29.9,52,0.0,1009.0,7.05,27.0,160,67.3,65.2,4,0,4,1,2026-03-03T18:34:50.218295+05:30
Vadodara,Gujarat,22.3072,73.1812,34.1,31,0.0,1006.6,7.15,13.3,156,36.8,34.2,0,5,4,0,2026-03-03T18:34:50.218306+05:30
Rajkot,Gujarat,22.3039,70.8022,34.5,22,0.0,996.8,7.0,17.6,87,17.1,13.6,0,5,7,0,2026-03-03T18:34:50.218314+05:30
Thane,Maharashtra,19.2183,72.9781,29.5,50,0.0,1009.1,7.35,36.7,177,58.4,54.4,4,0,4,1,2026-03-03T18:34:50.218322+05:30
Nagpur,Maharashtra,21.1458,79.0882,30.8,35,0.0,975.6,7.7,17.6,105,34.1,26.2,0,5,7,0,2026-03-03T18:34:50.218330+05:30
Nashik,Maharashtra,19.9975,73.7898,31.7,26,0.0,947.7,7.55,31.0,147,24.0,23.3,0,5,7,0,2026-03-03T18:34:50.218337+05:30
Aurangabad,Maharashtra,19.8762,75.3433,32.4,29,0.0,946.3,8.05,25.2,133,21.2,20.3,0,5,7,0,2026-03-03T18:34:50.218345+05:30
Solapur,Maharashtra,17.6599,75.9064,31.4,41,0.0,958.6,8.25,18.0,153,30.7,30.3,0,5,7,1,2026-03-03T18:34:50.218352+05:30
Kolhapur,Maharashtra,16.705,74.2433,31.5,33,0.0,949.0,8.4,39.2,169,60.1,59.5,0,5,7,0,2026-03-03T18:34:50.218360+05:30
Goa,Goa,15.2993,74.124,28.0,75,0.0,998.9,8.45,34.2,86,30.4,24.2,7,5,7,1,2026-03-03T18:34:50.218367+05:30
Jodhpur,Rajasthan,26.2389,73.0243,33.3,26,0.0,986.8,6.85,15.8,82,53.9,18.7,0,5,7,0,2026-03-03T18:34:50.218374+05:30
Udaipur,Rajasthan,24.5854,73.7125,29.9,28,0.0,950.4,7.45,18.4,104,29.7,17.2,4,5,7,0,2026-03-03T18:34:50.218382+05:30
Kota,Rajasthan,25.2138,75.8648,31.2,34,0.0,982.4,6.85,19.4,86,39.0,24.5,0,5,7,0,2026-03-03T18:34:50.218389+05:30
Bikaner,Rajasthan,28.0229,73.3119,31.1,26,0.0,986.2,6.55,21.6,85,35.9,17.1,0,5,7,0,2026-03-03T18:34:50.218397+05:30
Ajmer,Rajasthan,26.4499,74.6399,29.3,20,0.0,958.8,6.8,25.9,89,35.0,18.3,4,5,7,0,2026-03-03T18:34:50.218404+05:30
Gwalior,Madhya Pradesh,26.2183,78.1828,26.7,57,0.0,987.2,6.45,29.5,124,46.8,27.0,4,5,7,1,2026-03-03T18:34:50.218411+05:30
Indore,Madhya Pradesh,22.7196,75.8577,27.4,46,0.0,951.3,7.4,16.9,105,23.1,20.8,4,5,7,0,2026-03-03T18:34:50.218418+05:30
Bhopal,Madhya Pradesh,23.2599,77.4126,27.5,45,0.0,957.2,7.3,22.3,106,28.6,20.2,4,5,7,0,2026-03-03T18:34:50.218425+05:30
Jabalpur,Madhya Pradesh,23.1815,79.9864,28.7,37,0.0,965.1,7.4,17.6,88,32.4,20.5,4,5,7,0,2026-03-03T18:34:50.218433+05:30
Ujjain,Madhya Pradesh,23.1765,75.7885,27.9,46,0.0,957.2,7.3,15.5,106,30.3,27.2,4,5,7,0,2026-03-03T18:34:50.218440+05:30
Visakhapatnam,Andhra Pradesh,17.6868,83.2185,27.3,68,0.0,1006.5,8.35,34.2,130,46.0,41.3,7,5,4,1,2026-03-03T18:34:50.218447+05:30
Vijayawada,Andhra Pradesh,16.5062,80.648,31.5,44,0.0,1004.3,8.4,27.7,142,57.9,56.5,0,5,4,1,2026-03-03T18:34:50.218454+05:30
Guntur,Andhra Pradesh,16.3067,80.4365,29.9,43,0.0,1006.0,8.4,28.8,131,54.6,53.8,4,5,4,0,2026-03-03T18:34:50.218462+05:30
Nellore,Andhra Pradesh,14.4426,79.9865,28.9,47,0.0,1008.5,8.6,29.2,133,31.2,28.0,4,0,4,1,2026-03-03T18:34:50.218469+05:30
Kurnool,Andhra Pradesh,15.8281,78.0373,34.2,27,0.0,978.1,8.45,29.2,119,32.4,31.4,0,5,7,0,2026-03-03T18:34:50.218478+05:30
Kakinada,Andhra Pradesh,16.9891,82.2475,28.0,58,0.0,1009.7,8.35,34.9,127,37.3,31.7,4,0,4,1,2026-03-03T18:34:50.218485+05:30
Tirupati,Andhra Pradesh,13.6288,79.4192,29.8,34,0.0,993.8,8.75,37.1,151,40.5,38.8,4,5,7,0,2026-03-03T18:34:50.218492+05:30
Warangal,Telangana,17.9689,79.5941,31.5,40,0.0,980.7,8.2,14.0,145,34.8,33.9,0,5,7,1,2026-03-03T18:34:50.218499+05:30
Nizamabad,Telangana,18.6725,78.0941,31.3,38,0.0,966.9,8.1,24.5,118,28.5,26.3,0,5,7,0,2026-03-03T18:34:50.218506+05:30
Mysore,Karnataka,12.2958,76.6396,30.4,26,0.0,929.0,9.15,32.8,140,31.4,30.9,0,5,7,0,2026-03-03T18:34:50.218513+05:30
Mangalore,Karnataka,12.9141,74.856,28.5,78,0.0,1007.5,8.7,29.2,75,24.7,18.1,7,5,4,1,2026-03-03T18:34:50.218521+05:30
Hubli-Dharwad,Karnataka,15.3647,75.124,32.0,31,0.0,941.7,8.6,25.6,161,40.9,40.3,0,5,7,0,2026-03-03T18:34:50.218528+05:30
Belgaum,Karnataka,15.8497,74.4977,29.3,51,0.0,926.8,8.65,32.0,178,46.0,45.3,4,5,7,1,2026-03-03T18:34:53.555407+05:30
Coimbatore,Tamil Nadu,11.0168,76.9558,30.9,29,0.0,962.3,9.15,43.6,131,38.1,37.4,0,5,7,0,2026-03-03T18:34:53.555429+05:30
Madurai,Tamil Nadu,9.9252,78.1198,32.2,29,0.0,993.6,9.1,33.8,118,24.9,24.2,0,5,7,0,2026-03-03T18:34:53.555438+05:30
Trichy,Tamil Nadu,10.7905,78.7047,30.8,46,0.0,1001.0,9.0,31.0,126,29.6,28.7,0,5,4,1,2026-03-03T18:34:53.555445+05:30
Salem,Tamil Nadu,11.6643,78.146,32.2,28,0.0,978.2,9.0,40.7,147,31.0,30.2,0,5,7,0,2026-03-03T18:34:53.555451+05:30
Tirunelveli,Tamil Nadu,8.7139,77.7567,28.9,53,0.0,1004.3,9.1,42.5,105,17.2,16.6,4,5,4,1,2026-03-03T18:34:53.555457+05:30
Vellore,Tamil Nadu,12.9165,79.1325,29.7,42,0.0,986.4,8.85,38.5,142,31.0,29.5,4,5,7,0,2026-03-03T18:34:53.555464+05:30
Erode,Tamil Nadu,11.341,77.7172,33.7,26,0.0,989.3,9.05,36.0,134,33.8,32.8,0,5,7,0,2026-03-03T18:34:53.555470+05:30
Kochi,Kerala,9.9312,76.2673,28.3,79,0.0,1009.2,8.95,33.1,122,30.0,28.2,7,0,4,1,2026-03-03T18:34:53.555476+05:30
Thiruvananthapuram,Kerala,8.5241,76.9366,28.2,71,0.0,1008.9,8.95,27.0,136,32.4,29.8,7,0,4,1,2026-03-03T18:34:53.555482+05:30
Kozhikode,Kerala,11.2588,75.7804,28.7,77,0.0,1008.3,8.85,36.4,72,25.3,18.2,7,0,4,1,2026-03-03T18:34:53.555487+05:30
Thrissur,Kerala,10.5276,76.2144,29.0,73,0.0,1007.4,8.9,38.9,125,28.8,27.4,7,5,4,1,2026-03-03T18:34:53.555494+05:30
Kannur,Kerala,11.8745,75.3704,29.0,71,0.0,1008.0,8.8,38.2,77,26.2,19.2,7,0,4,1,2026-03-03T18:34:53.555500+05:30
Patna,Bihar,25.5941,85.1376,27.0,45,0.0,1004.6,7.1,16.9,143,82.2,48.3,4,5,4,0,2026-03-03T18:34:53.555505+05:30
Gaya,Bihar,24.7914,85.0002,24.4,48,0.0,997.9,7.2,23.0,122,63.8,39.0,0,5,7,0,2026-03-03T18:34:53.555511+05:30
Muzaffarpur,Bihar,26.1209,85.3647,25.1,49,0.0,1004.6,7.05,10.4,153,100.6,55.8,4,5,4,0,2026-03-03T18:34:53.555517+05:30
Bhagalpur,Bihar,25.2425,87.0117,24.2,55,0.0,1005.4,7.15,13.0,152,85.2,55.6,0,5,4,0,2026-03-03T18:34:53.555522+05:30
Ranchi,Jharkhand,23.3441,85.3096,24.4,34,0.0,940.9,7.9,40.7,108,43.7,24.4,0,5,7,0,2026-03-03T18:34:53.555527+05:30
Jamshedpur,Jharkhand,22.8046,86.2029,28.1,41,0.0,993.5,7.75,14.4,117,59.3,31.2,4,5,7,0,2026-03-03T18:34:53.555542+05:30
Dhanbad,Jharkhand,23.7957,86.4304,28.9,21,0.0,983.2,7.65,27.7,111,56.3,34.5,4,5,7,0,2026-03-03T18:34:53.555555+05:30
Bokaro,Jharkhand,23.6693,86.1511,27.1,25,0.0,987.3,7.65,32.8,109,61.0,36.1,4,5,7,0,2026-03-03T18:34:53.555568+05:30
Bhubaneswar,Odisha,20.2961,85.8245,30.3,33,0.0,1005.0,8.1,26.6,152,55.4,45.1,0,5,4,0,2026-03-03T18:34:53.555578+05:30
Cuttack,Odisha,20.4625,85.8828,31.0,27,0.0,1006.5,8.1,26.3,152,55.4,45.1,0,5,4,0,2026-03-03T18:34:53.555587+05:30
Rourkela,Odisha,22.2604,84.8536,30.4,33,0.0,987.5,7.7,27.4,107,58.3,31.4,0,5,7,0,2026-03-03T18:34:53.555596+05:30
Raipur,Chhattisgarh,21.2514,81.6296,30.4,28,0.0,977.5,7.8,14.4,124,54.2,44.2,0,5,7,0,2026-03-03T18:34:53.555606+05:30
Bhilai,Chhattisgarh,21.1938,81.3509,30.2,31,0.0,977.7,7.8,13.7,122,52.3,43.3,0,5,7,0,2026-03-03T18:34:53.555615+05:30
Guwahati,Assam,26.1158,91.7086,26.1,51,0.0,1005.6,7.1,22.0,154,88.7,71.7,4,5,4,0,2026-03-03T18:34:53.555624+05:30
Agartala,Tripura,23.8315,91.2868,24.5,71,0.0,1009.6,7.45,15.8,177,99.9,87.1,3,0,4,1,2026-03-03T18:34:53.555633+05:30
Shillong,Meghalaya,25.5788,91.8933,12.5,80,0.0,857.7,7.45,28.4,152,105.9,85.7,3,5,7,0,2026-03-03T18:34:53.555642+05:30
Imphal,Manipur,24.817,93.9368,16.0,70,0.0,925.2,7.65,32.8,157,63.1,55.5,3,5,7,0,2026-03-03T18:34:53.555652+05:30
Aizawl,Mizoram,23.7271,92.7176,17.8,61,0.0,894.2,7.65,32.8,162,64.7,54.6,3,5,7,0,2026-03-03T18:34:53.555660+05:30
Kohima,Nagaland,25.6701,94.1077,12.9,100,0.0,856.2,6.65,45.0,152,75.4,62.9,3,10,7,0,2026-03-03T18:34:53.555670+05:30
Gangtok,Sikkim,27.3314,88.6138,13.7,85,0.0,839.4,7.4,19.4,153,101.3,71.0,3,10,7,0,2026-03-03T18:34:53.555679+05:30
Siliguri,West Bengal,26.7271,88.3953,19.8,75,0.0,998.3,7.1,20.2,164,97.1,63.8,3,5,7,0,2026-03-03T18:34:56.898782+05:30
Durgapur,West Bengal,23.5204,87.3119,28.8,30,0.0,998.0,7.65,26.6,117,60.5,30.3,4,5,7,0,2026-03-03T18:34:56.898809+05:30
Asansol,West Bengal,23.6739,86.9524,29.0,31,0.0,996.5,7.65,22.7,114,53.2,28.1,4,5,7,0,2026-03-03T18:34:56.898821+05:30
Pondicherry,Puducherry,11.9139,79.8145,26.7,67,0.0,1010.8,8.85,28.1,105,28.9,25.7,7,0,4,1,2026-03-03T18:34:56.898830+05:30
Port Blair,Andaman and Nicobar Islands,11.6234,92.7265,27.5,74,0.0,1009.1,8.8,15.5,84,32.5,24.2,7,0,4,1,2026-03-03T18:34:56.898838+05:30
Haridwar,Uttarakhand,29.9457,78.1642,25.1,44,0.0,977.1,5.55,22.3,149,124.3,47.3,4,5,3,0,2026-03-03T18:34:56.898845+05:30
Rishikesh,Uttarakhand,30.0869,78.2676,24.8,56,0.0,969.8,5.6,23.8,149,53.3,34.0,0,5,3,0,2026-03-03T18:34:56.898853+05:30
Nainital,Uttarakhand,29.3919,79.4542,15.8,77,0.0,807.2,6.4,54.7,151,64.3,49.6,3,5,7,0,2026-03-03T18:34:56.898860+05:30
Mussoorie,Uttarakhand,30.4599,78.0664,16.3,69,0.0,804.2,5.95,41.8,158,48.2,35.4,3,5,3,0,2026-03-03T18:34:56.898867+05:30
Dharamshala,Himachal Pradesh,32.219,76.3234,20.3,55,0.0,871.9,6.2,23.4,107,24.4,19.7,0,5,7,0,2026-03-03T18:34:56.898874+05:30
Dalhousie,Himachal Pradesh,32.5387,75.971,18.4,48,0.0,806.6,6.4,19.8,120,39.2,34.6,0,5,7,0,2026-03-03T18:34:56.898881+05:30
Patiala,Punjab,30.3398,76.3869,24.0,54,0.0,981.6,5.6,34.2,246,473.1,80.8,0,5,3,0,2026-03-03T18:34:56.898888+05:30
Bhatinda,Punjab,30.211,74.9455,25.1,56,0.0,987.5,6.25,28.1,134,61.7,45.2,4,5,7,0,2026-03-03T18:34:56.898896+05:30
Rohtak,Haryana,28.8955,76.6066,24.5,55,0.0,985.6,5.8,33.8,460,784.2,112.9,0,5,3,0,2026-03-03T18:34:56.898903+05:30
Panipat,Haryana,29.3909,76.9635,24.1,56,0.0,983.8,5.6,37.4,1033,1534.8,190.0,0,5,3,0,2026-03-03T18:34:56.898910+05:30
Mathura,Uttar Pradesh,27.4924,77.6737,27.0,40,0.0,990.6,6.1,29.9,530,568.1,80.8,4,5,7,0,2026-03-03T18:34:56.898919+05:30
Vrindavan,Uttar Pradesh,27.5823,77.7027,25.8,45,0.0,991.0,6.05,32.4,530,568.1,80.8,4,5,7,0,2026-03-03T18:34:56.898928+05:30
Ayodhya,Uttar Pradesh,26.7922,82.1998,26.0,52,0.0,998.9,6.45,25.6,144,69.8,47.1,4,5,7,0,2026-03-03T18:34:56.898935+05:30
Ratlam,Madhya Pradesh,23.3315,75.0367,29.5,42,0.0,957.8,7.25,13.0,103,22.8,20.4,4,5,7,0,2026-03-03T18:34:56.898942+05:30
Sagar,Madhya Pradesh,23.8388,78.7378,28.6,44,0.0,953.8,7.2,25.6,99,31.5,19.2,4,5,7,0,2026-03-03T18:34:56.898949+05:30
Satna,Madhya Pradesh,24.6005,80.8322,27.5,34,0.0,975.1,7.2,30.2,93,39.0,20.6,4,5,7,0,2026-03-03T18:34:56.898956+05:30
Akola,Maharashtra,20.7002,77.0082,32.3,26,0.0,977.2,7.75,20.2,122,25.6,23.1,0,5,7,0,2026-03-03T18:34:56.898964+05:30
Amravati,Maharashtra,20.9374,77.7796,31.8,37,0.0,969.3,7.75,16.6,120,26.3,23.0,0,5,7,0,2026-03-03T18:34:56.898971+05:30
Latur,Maharashtra,18.4088,76.5604,30.3,36,0.0,941.8,8.2,31.0,151,23.4,22.5,0,5,7,0,2026-03-03T18:34:56.898979+05:30
Nanded,Maharashtra,19.1383,77.3091,32.4,33,0.0,970.5,8.0,19.4,112,21.3,19.4,0,5,7,0,2026-03-03T18:34:56.898985+05:30
Gulbarga,Karnataka,17.3297,76.8343,33.1,30,0.0,960.2,8.3,17.3,156,28.1,27.6,0,5,7,0,2026-03-03T18:34:56.898992+05:30
Bidar,Karnataka,17.9104,77.5199,30.8,29,0.0,937.5,8.25,19.8,130,25.2,24.4,0,5,7,0,2026-03-03T18:34:56.898999+05:30
Hospet,Karnataka,15.2689,76.3909,33.6,29,0.0,956.9,8.6,25.6,159,38.4,37.7,0,5,7,0,2026-03-03T18:34:56.899006+05:30
Tirupur,Tamil Nadu,11.1085,77.3411,32.7,31,0.0,975.7,9.15,33.8,140,42.7,41.7,0,5,7,0,2026-03-03T18:34:56.899012+05:30
Alappuzha,Kerala,9.4981,76.3388,28.4,77,0.0,1009.2,8.95,30.6,128,26.6,24.0,7,0,4,1,2026-03-03T18:34:56.899021+05:30
Munnar,Kerala,10.0889,77.0595,25.6,45,0.0,858.6,9.45,20.9,102,34.3,33.2,4,5,7,0,2026-03-03T18:34:56.899028+05:30
Silchar,Assam,24.8333,92.7789,26.0,56,0.0,1008.0,7.4,20.2,163,79.9,65.9,4,0,4,1,2026-03-03T18:34:56.899035+05:30
Dibrugarh,Assam,27.4728,94.912,24.5,69,0.0,999.1,7.1,11.2,151,75.4,58.6,3,5,7,1,2026-03-03T18:34:56.899042+05:30
