city,state,latitude,longitude,temp,humidity,rain,pressure,uv_index,wind_gusts,aqi,pm10,pm2_5,no2,co,o3,so2,mosquito_risk,arthritis_risk,migraine_risk,frizz_risk,updated_at
Delhi,Delhi,28.6139,77.209,29.8,62,0.0,979.0,7.65,34.6,414,484.3,163.9,89.8,1438.0,15.0,46.3,7,5,7,1,2026-06-18T02:39:57.176157+05:30
Mumbai,Maharashtra,19.076,72.8777,29.7,66,0.0,1007.8,7.7,41.8,55,26.6,12.6,4.2,129.0,46.0,3.5,7,5,4,1,2026-06-18T02:39:57.176203+05:30
Bangalore,Karnataka,12.9716,77.5946,21.5,94,0.0,911.3,8.5,42.1,64,13.8,10.8,16.7,322.0,42.0,5.3,3,5,7,1,2026-06-18T02:39:57.176219+05:30
Hyderabad,Telangana,17.385,78.4867,28.1,57,0.0,950.9,9.05,34.2,91,48.1,32.0,19.1,617.0,66.0,7.3,4,5,7,1,2026-06-18T02:39:57.176228+05:30
Chennai,Tamil Nadu,13.0827,80.2707,28.7,74,0.0,1005.1,6.7,44.6,84,34.5,25.7,13.0,224.0,86.0,11.1,7,5,4,1,2026-06-18T02:39:57.176237+05:30
Kolkata,West Bengal,22.5726,88.3639,29.5,90,0.1,1002.5,9.0,46.8,119,47.0,38.4,10.0,292.0,82.0,8.5,10,5,4,1,2026-06-18T02:39:57.176245+05:30
Pune,Maharashtra,18.5204,73.8567,23.4,85,0.0,947.6,8.35,48.2,47,12.2,7.9,8.5,130.0,37.0,7.8,3,5,7,1,2026-06-18T02:39:57.176252+05:30
Ahmedabad,Gujarat,23.0225,72.5714,28.0,79,0.0,1000.3,8.05,43.2,63,32.0,15.1,4.0,171.0,43.0,3.9,7,5,4,1,2026-06-18T02:39:57.176259+05:30
Jaipur,Rajasthan,26.9124,75.7873,28.4,63,0.0,956.6,8.2,33.1,116,49.4,24.0,5.6,153.0,61.0,3.9,7,5,7,1,2026-06-18T02:39:57.176266+05:30
Lucknow,Uttar Pradesh,26.8467,80.9462,31.1,57,0.0,989.6,8.35,32.8,157,215.1,71.2,36.6,358.0,27.0,9.0,0,5,7,1,2026-06-18T02:39:57.176277+05:30
Kanpur,Uttar Pradesh,26.4499,80.3319,32.3,49,0.0,988.1,7.85,32.0,175,188.6,68.2,41.8,372.0,16.0,8.8,0,5,7,1,2026-06-18T02:39:57.176283+05:30
Chandigarh,Chandigarh,30.7333,76.7794,25.6,77,0.0,964.7,7.8,23.8,155,126.2,86.1,49.5,838.0,16.0,6.7,7,5,7,1,2026-06-18T02:39:57.176292+05:30
Srinagar,Jammu and Kashmir,34.0837,74.7973,15.0,100,0.0,840.1,7.5,24.5,77,35.4,32.6,27.5,745.0,15.0,0.0,3,10,7,0,2026-06-18T02:39:57.176300+05:30
Jammu,Jammu and Kashmir,32.7266,74.857,25.3,66,0.0,968.2,8.6,32.4,114,41.2,38.3,50.9,416.0,8.0,2.9,7,5,7,1,2026-06-18T02:39:57.176306+05:30
Amritsar,Punjab,31.634,74.8723,27.2,79,0.0,976.4,8.45,20.5,149,95.7,79.4,46.3,900.0,61.0,13.7,7,5,7,1,2026-06-18T02:39:57.176313+05:30
Ludhiana,Punjab,30.901,75.8573,27.9,80,0.0,974.5,8.05,27.7,154,78.0,60.8,32.9,1092.0,49.0,7.0,7,5,7,1,2026-06-18T02:39:57.176320+05:30
Jalandhar,Punjab,31.326,75.5762,27.1,81,0.0,975.5,8.25,24.8,151,78.9,61.0,32.9,1343.0,57.0,6.2,7,5,7,1,2026-06-18T02:39:57.176332+05:30
Dehradun,Uttarakhand,30.6284,78.0322,16.0,92,0.0,828.1,7.5,32.8,70,29.5,24.0,29.9,245.0,14.0,0.3,3,10,7,0,2026-06-18T02:39:57.176339+05:30
Shimla,Himachal Pradesh,31.1048,77.1734,12.2,90,0.0,780.9,7.65,34.6,97,75.9,46.4,25.1,295.0,37.0,0.0,3,10,7,0,2026-06-18T02:39:57.176346+05:30
Manali,Himachal Pradesh,32.2396,77.1887,15.4,60,0.0,815.8,9.6,34.2,47,7.4,7.0,27.3,205.0,93.0,0.0,0,5,7,0,2026-06-18T02:39:57.176354+05:30
Gurgaon,Haryana,28.4595,77.0266,28.2,65,0.0,977.5,7.85,31.3,433,382.8,134.1,82.0,1368.0,18.0,32.0,7,5,7,1,2026-06-18T02:39:57.176361+05:30
Noida,Uttar Pradesh,28.5355,77.391,28.1,70,0.0,980.5,7.7,24.5,433,382.8,134.1,82.0,1416.0,18.0,32.0,7,5,7,1,2026-06-18T02:39:57.176367+05:30
Ghaziabad,Uttar Pradesh,28.6692,77.4538,26.1,82,0.0,978.5,7.6,20.9,427,555.1,179.3,69.8,832.0,28.0,25.7,7,5,7,1,2026-06-18T02:39:57.176373+05:30
Faridabad,Haryana,28.4089,77.3178,29.8,57,0.0,979.8,7.75,32.8,433,382.8,134.1,82.0,1091.0,18.0,32.0,4,5,7,1,2026-06-18T02:39:57.176380+05:30
Meerut,Uttar Pradesh,28.9845,77.7064,28.2,68,0.0,977.6,6.0,27.0,427,555.1,179.3,69.8,822.0,28.0,25.7,7,5,3,1,2026-06-18T02:39:57.176387+05:30
Agra,Uttar Pradesh,27.1767,78.0081,30.6,55,0.0,983.8,8.15,28.8,191,393.0,121.5,67.9,516.0,2.0,23.1,0,5,7,1,2026-06-18T02:39:57.176393+05:30
Varanasi,Uttar Pradesh,25.3176,82.9739,29.6,66,0.0,994.1,8.4,37.4,154,65.0,40.0,12.9,293.0,71.0,6.5,7,5,7,1,2026-06-18T02:39:57.176400+05:30
Prayagraj,Uttar Pradesh,25.4358,81.8463,32.2,59,0.0,992.3,8.25,29.9,155,64.7,43.4,16.5,186.0,65.0,8.4,0,5,7,1,2026-06-18T02:39:57.176406+05:30
Gorakhpur,Uttar Pradesh,26.7606,83.3732,28.9,71,0.0,993.3,8.35,31.7,163,99.4,63.3,31.4,368.0,41.0,10.5,7,5,7,1,2026-06-18T02:39:57.176413+05:30
Bareilly,Uttar Pradesh,28.367,79.4304,27.1,78,0.0,982.9,8.1,29.2,162,320.4,114.3,36.0,577.0,63.0,17.9,7,5,7,1,2026-06-18T02:39:57.176421+05:30
Aligarh,Uttar Pradesh,27.8974,78.088,28.4,65,0.0,981.6,7.85,25.9,302,448.9,144.8,76.8,708.0,18.0,19.9,7,5,7,1,2026-06-18T02:39:57.176427+05:30
Moradabad,Uttar Pradesh,28.8386,78.7733,27.6,75,0.0,979.8,7.9,33.5,185,447.0,151.3,58.0,795.0,21.0,14.9,7,5,7,1,2026-06-18T02:39:57.176433+05:30
Saharanpur,Uttar Pradesh,29.9637,77.546,27.6,72,0.0,972.0,7.55,25.9,325,372.5,164.8,90.1,672.0,2.0,27.0,7,5,7,1,2026-06-18T02:39:57.176440+05:30
Jhansi,Uttar Pradesh,25.4484,78.5685,30.1,51,0.0,975.0,7.9,36.0,93,43.0,27.9,7.9,162.0,66.0,7.7,0,5,7,1,2026-06-18T02:40:00.586099+05:30
Surat,Gujarat,21.1702,72.8311,29.1,74,0.0,1005.5,7.6,51.8,65,36.7,20.6,17.4,283.0,30.0,30.1,7,5,4,1,2026-06-18T02:40:00.586135+05:30
Vadodara,Gujarat,22.3072,73.1812,29.6,62,0.0,1002.4,8.05,53.6,58,24.8,15.0,9.1,136.0,34.0,7.4,7,5,4,1,2026-06-18T02:40:00.586147+05:30
Rajkot,Gujarat,22.3039,70.8022,27.7,81,0.0,992.6,7.0,49.7,55,27.2,13.1,4.8,97.0,39.0,5.0,7,5,7,1,2026-06-18T02:40:00.586157+05:30
Thane,Maharashtra,19.2183,72.9781,29.7,69,0.0,1007.1,7.7,40.7,55,26.6,12.6,4.2,146.0,46.0,3.5,7,5,4,1,2026-06-18T02:40:00.586166+05:30
Nagpur,Maharashtra,21.1458,79.0882,28.0,64,0.0,970.8,8.9,36.7,98,37.6,28.3,16.3,224.0,49.0,9.9,7,5,7,1,2026-06-18T02:40:00.586176+05:30
Nashik,Maharashtra,19.9975,73.7898,23.8,87,0.0,945.0,8.05,43.6,43,18.4,9.0,4.1,109.0,42.0,2.3,3,5,7,1,2026-06-18T02:40:00.586185+05:30
Aurangabad,Maharashtra,19.8762,75.3433,25.8,68,0.0,943.4,8.95,48.6,49,14.0,8.4,5.9,123.0,44.0,5.2,7,5,7,1,2026-06-18T02:40:00.586194+05:30
Solapur,Maharashtra,17.6599,75.9064,27.5,63,0.0,956.7,8.85,41.8,57,13.6,9.0,6.0,137.0,49.0,4.3,7,5,7,1,2026-06-18T02:40:00.586203+05:30
Kolhapur,Maharashtra,16.705,74.2433,22.9,88,0.0,947.6,8.75,45.7,49,15.7,9.9,6.4,130.0,37.0,2.9,3,5,7,1,2026-06-18T02:40:00.586212+05:30
Goa,Goa,15.2993,74.124,25.6,90,0.0,998.4,8.65,28.8,57,37.0,22.0,7.8,406.0,42.0,2.5,7,5,7,1,2026-06-18T02:40:00.586221+05:30
Jodhpur,Rajasthan,26.2389,73.0243,31.0,59,0.0,979.8,8.4,36.0,105,95.2,28.1,4.6,135.0,55.0,1.8,0,5,7,1,2026-06-18T02:40:00.586230+05:30
Udaipur,Rajasthan,24.5854,73.7125,26.0,66,0.0,944.5,8.85,33.1,68,48.8,24.0,5.8,115.0,59.0,3.4,7,5,7,1,2026-06-18T02:40:00.586239+05:30
Kota,Rajasthan,25.2138,75.8648,30.4,53,0.0,975.9,8.35,34.6,84,30.5,19.2,6.5,172.0,62.0,4.7,0,5,7,1,2026-06-18T02:40:00.586248+05:30
Bikaner,Rajasthan,28.0229,73.3119,30.1,61,0.0,978.3,8.45,29.9,131,149.9,44.8,2.9,121.0,55.0,2.4,3,5,7,1,2026-06-18T02:40:00.586256+05:30
Ajmer,Rajasthan,26.4499,74.6399,28.0,63,0.0,952.0,8.35,40.0,89,31.8,17.6,7.0,151.0,50.0,3.6,7,5,7,1,2026-06-18T02:40:00.586266+05:30
Gwalior,Madhya Pradesh,26.2183,78.1828,30.5,50,0.0,979.7,8.25,37.8,110,44.2,25.3,6.6,134.0,59.0,3.2,0,5,7,1,2026-06-18T02:40:00.586274+05:30
Indore,Madhya Pradesh,22.7196,75.8577,26.8,60,0.0,946.8,8.65,40.0,78,29.0,20.0,8.7,200.0,62.0,10.8,4,5,7,1,2026-06-18T02:40:00.586283+05:30
Bhopal,Madhya Pradesh,23.2599,77.4126,26.7,71,0.0,951.6,8.7,38.5,88,33.2,23.7,7.9,275.0,61.0,3.5,7,5,7,1,2026-06-18T02:40:00.586292+05:30
Jabalpur,Madhya Pradesh,23.1815,79.9864,26.0,70,0.0,959.3,6.35,28.1,98,33.1,24.9,12.9,234.0,56.0,3.4,7,5,7,1,2026-06-18T02:40:00.586301+05:30
Ujjain,Madhya Pradesh,23.1765,75.7885,27.0,59,0.0,952.3,8.6,39.6,73,25.0,16.1,5.8,169.0,58.0,9.9,4,5,7,1,2026-06-18T02:40:00.586310+05:30
Visakhapatnam,Andhra Pradesh,17.6868,83.2185,29.1,79,0.0,1000.6,8.95,47.2,141,57.4,42.0,41.1,387.0,62.0,47.3,7,5,4,1,2026-06-18T02:40:00.586318+05:30
Vijayawada,Andhra Pradesh,16.5062,80.648,30.3,79,0.0,999.5,8.95,28.1,117,41.0,31.9,7.7,277.0,104.0,6.1,3,5,7,1,2026-06-18T02:40:00.586327+05:30
Guntur,Andhra Pradesh,16.3067,80.4365,29.8,83,0.0,1000.6,8.95,31.3,123,42.0,33.6,10.7,259.0,97.0,6.9,7,5,4,1,2026-06-18T02:40:00.586336+05:30
Nellore,Andhra Pradesh,14.4426,79.9865,30.1,73,0.0,1002.9,8.0,38.5,91,51.6,34.3,10.6,258.0,75.0,6.7,3,5,4,1,2026-06-18T02:40:00.586345+05:30
Kurnool,Andhra Pradesh,15.8281,78.0373,27.2,58,0.0,975.8,6.0,44.3,81,21.8,16.9,13.0,237.0,46.0,3.6,4,5,3,1,2026-06-18T02:40:00.586354+05:30
Kakinada,Andhra Pradesh,16.9891,82.2475,29.8,82,0.0,1004.3,8.2,30.2,100,46.2,30.4,3.1,324.0,117.0,4.6,7,5,4,1,2026-06-18T02:40:00.586363+05:30
Tirupati,Andhra Pradesh,13.6288,79.4192,26.9,85,0.0,989.3,8.15,29.2,91,40.7,29.0,17.8,185.0,49.0,4.2,7,5,7,1,2026-06-18T02:40:00.586372+05:30
Warangal,Telangana,17.9689,79.5941,28.6,67,0.0,975.6,9.0,31.0,140,69.6,54.8,36.9,454.0,16.0,6.2,7,5,7,1,2026-06-18T02:40:00.586381+05:30
Nizamabad,Telangana,18.6725,78.0941,28.4,43,0.0,963.1,8.85,31.0,89,44.9,29.7,18.1,392.0,47.0,4.9,4,5,7,0,2026-06-18T02:40:00.586390+05:30
Mysore,Karnataka,12.2958,76.6396,21.0,100,0.3,928.0,8.6,28.8,53,14.1,11.1,14.6,173.0,34.0,2.8,6,5,7,1,2026-06-18T02:40:00.586399+05:30
Mangalore,Karnataka,12.9141,74.856,26.4,84,0.0,1007.2,8.15,28.8,60,33.9,27.0,23.8,278.0,15.0,4.2,7,5,4,1,2026-06-18T02:40:00.586408+05:30
Hubli-Dharwad,Karnataka,15.3647,75.124,22.4,93,0.0,940.9,8.85,40.7,42,17.0,9.8,5.5,135.0,40.0,2.0,3,5,7,1,2026-06-18T02:40:00.586416+05:30
Belgaum,Karnataka,15.8497,74.4977,21.0,98,0.0,925.2,8.9,40.0,47,21.8,13.6,7.6,131.0,33.0,1.3,3,5,7,1,2026-06-18T02:40:09.375747+05:30
Coimbatore,Tamil Nadu,11.0168,76.9558,23.5,93,0.0,961.7,3.45,35.3,35,11.7,10.0,16.0,229.0,19.0,3.7,3,5,3,1,2026-06-18T02:40:09.375784+05:30
Madurai,Tamil Nadu,9.9252,78.1198,26.9,72,0.0,992.3,8.0,37.1,82,16.8,12.9,17.0,161.0,39.0,3.7,7,5,7,1,2026-06-18T02:40:09.375796+05:30
Trichy,Tamil Nadu,10.7905,78.7047,26.8,77,0.0,999.0,4.95,44.6,68,13.8,10.1,9.2,165.0,46.0,3.7,7,5,3,1,2026-06-18T02:40:09.375805+05:30
Salem,Tamil Nadu,11.6643,78.146,24.7,95,0.0,977.2,8.7,26.6,72,26.0,18.6,16.5,275.0,54.0,8.6,3,5,7,1,2026-06-18T02:40:09.375815+05:30
Tirunelveli,Tamil Nadu,8.7139,77.7567,29.8,59,0.0,1002.6,8.15,38.5,39,18.8,12.4,9.4,198.0,34.0,2.8,4,5,4,1,2026-06-18T02:40:09.375825+05:30
Vellore,Tamil Nadu,12.9165,79.1325,26.7,70,0.0,982.9,6.95,37.4,93,24.5,17.5,11.4,231.0,64.0,4.4,7,5,7,1,2026-06-18T02:40:09.375834+05:30
Erode,Tamil Nadu,11.341,77.7172,25.8,88,0.4,988.9,7.75,27.0,56,19.1,14.5,16.6,260.0,34.0,3.7,10,5,7,1,2026-06-18T02:40:09.375844+05:30
Kochi,Kerala,9.9312,76.2673,26.2,97,0.0,1009.1,8.25,29.9,62,39.0,35.4,28.3,330.0,2.0,7.4,7,0,4,1,2026-06-18T02:40:09.375854+05:30
Thiruvananthapuram,Kerala,8.5241,76.9366,25.1,92,0.0,1008.8,7.65,36.0,47,28.4,14.5,6.2,236.0,49.0,3.3,7,0,4,1,2026-06-18T02:40:09.375862+05:30
Kozhikode,Kerala,11.2588,75.7804,25.7,91,0.0,1008.3,8.05,36.0,49,28.9,14.3,3.3,159.0,52.0,2.0,7,0,4,1,2026-06-18T02:40:09.375871+05:30
Thrissur,Kerala,10.5276,76.2144,25.0,91,0.0,1007.6,6.9,30.6,68,59.0,52.5,24.9,318.0,4.0,7.6,7,5,4,1,2026-06-18T02:40:09.375880+05:30
Kannur,Kerala,11.8745,75.3704,25.5,93,0.1,1007.7,5.1,37.4,53,25.7,20.1,22.4,508.0,13.0,3.0,10,5,0,1,2026-06-18T02:40:09.375889+05:30
Patna,Bihar,25.5941,85.1376,30.0,66,0.0,996.5,8.6,27.0,166,187.7,140.6,87.7,623.0,1.0,29.0,7,5,7,1,2026-06-18T02:40:09.375897+05:30
Gaya,Bihar,24.7914,85.0002,30.2,60,0.0,990.3,8.95,28.1,157,140.2,88.0,39.0,465.0,35.0,12.7,0,5,7,1,2026-06-18T02:40:09.375907+05:30
Muzaffarpur,Bihar,26.1209,85.3647,28.4,81,0.0,996.8,8.6,27.0,166,143.9,119.2,56.5,932.0,24.0,21.4,7,5,7,1,2026-06-18T02:40:09.375915+05:30
Bhagalpur,Bihar,25.2425,87.0117,28.3,87,0.0,997.5,8.6,29.5,163,96.9,87.5,12.2,815.0,100.0,19.4,7,5,7,1,2026-06-18T02:40:09.375924+05:30
Ranchi,Jharkhand,23.3441,85.3096,25.5,65,0.0,934.9,9.0,28.1,151,84.1,58.8,12.3,316.0,91.0,7.9,7,5,7,1,2026-06-18T02:40:09.375933+05:30
Jamshedpur,Jharkhand,22.8046,86.2029,28.4,75,0.0,987.7,9.05,26.6,167,85.7,71.5,17.5,436.0,99.0,30.3,7,5,7,1,2026-06-18T02:40:09.375941+05:30
Dhanbad,Jharkhand,23.7957,86.4304,29.1,73,0.0,976.3,9.05,28.4,174,174.6,137.4,71.5,594.0,21.0,194.6,7,5,7,1,2026-06-18T02:40:09.375950+05:30
Bokaro,Jharkhand,23.6693,86.1511,28.3,81,0.0,980.0,9.1,25.9,168,143.9,113.4,54.9,470.0,9.0,144.8,7,5,7,1,2026-06-18T02:40:09.375958+05:30
Bhubaneswar,Odisha,20.2961,85.8245,27.9,95,0.0,999.3,9.05,29.9,109,42.5,36.2,10.8,397.0,100.0,11.0,7,5,7,1,2026-06-18T02:40:09.375967+05:30
Cuttack,Odisha,20.4625,85.8828,28.2,92,0.0,1001.1,9.1,23.4,109,42.5,36.2,10.8,334.0,100.0,11.0,7,5,4,1,2026-06-18T02:40:09.375976+05:30
Rourkela,Odisha,22.2604,84.8536,27.4,80,0.0,982.2,9.0,26.3,158,87.5,66.8,12.4,615.0,91.0,9.1,7,5,7,1,2026-06-18T02:40:09.375984+05:30
Raipur,Chhattisgarh,21.2514,81.6296,27.7,72,0.0,971.8,8.95,54.4,157,81.5,57.5,49.6,580.0,36.0,67.3,7,5,7,1,2026-06-18T02:40:09.375993+05:30
Bhilai,Chhattisgarh,21.1938,81.3509,27.6,74,0.0,972.2,8.95,49.3,154,83.1,56.0,45.6,860.0,42.0,61.2,7,5,7,1,2026-06-18T02:40:09.376001+05:30
Guwahati,Assam,26.1158,91.7086,25.0,99,0.0,999.2,8.8,27.0,75,25.2,22.5,7.4,362.0,72.0,3.1,7,5,7,1,2026-06-18T02:40:09.376010+05:30
Agartala,Tripura,23.8315,91.2868,26.0,94,0.0,1004.1,8.55,29.9,71,27.7,22.9,11.7,249.0,57.0,2.5,7,5,4,1,2026-06-18T02:40:09.376018+05:30
Shillong,Meghalaya,25.5788,91.8933,16.9,94,0.0,854.5,6.5,22.7,51,7.3,6.1,3.8,243.0,89.0,2.9,3,10,7,0,2026-06-18T02:40:09.376026+05:30
Imphal,Manipur,24.817,93.9368,22.6,96,0.0,921.4,8.75,28.1,51,15.9,15.1,12.5,395.0,30.0,2.3,3,5,7,1,2026-06-18T02:40:09.376034+05:30
Aizawl,Mizoram,23.7271,92.7176,19.2,97,0.0,890.9,9.0,26.6,34,6.2,5.7,4.1,147.0,38.0,0.6,3,10,7,1,2026-06-18T02:40:09.376042+05:30
Kohima,Nagaland,25.6701,94.1077,17.8,99,0.0,853.1,6.9,28.4,49,10.2,9.1,7.5,235.0,34.0,0.8,3,10,7,1,2026-06-18T02:40:09.376053+05:30
Gangtok,Sikkim,27.3314,88.6138,17.7,90,0.0,836.0,8.3,38.9,55,8.4,7.6,7.2,747.0,114.0,3.3,3,10,7,0,2026-06-18T02:40:09.376061+05:30
Siliguri,West Bengal,26.7271,88.3953,23.4,100,0.1,990.6,8.75,21.6,126,49.4,42.7,10.2,484.0,112.0,7.4,6,5,7,1,2026-06-18T02:40:12.756614+05:30
Durgapur,West Bengal,23.5204,87.3119,28.4,94,0.0,991.2,9.0,28.8,175,106.6,96.2,32.1,649.0,62.0,46.1,7,5,7,1,2026-06-18T02:40:12.756651+05:30
Asansol,West Bengal,23.6739,86.9524,28.4,90,0.0,989.8,9.0,24.8,171,123.4,103.4,43.1,531.0,52.0,67.3,7,5,7,1,2026-06-18T02:40:12.756663+05:30
Pondicherry,Puducherry,11.9139,79.8145,27.0,86,0.0,1006.9,4.1,63.7,76,28.3,21.0,12.5,347.0,75.0,9.8,7,5,0,1,2026-06-18T02:40:12.756673+05:30
Port Blair,Andaman and Nicobar Islands,11.6234,92.7265,26.2,90,0.0,1007.7,8.6,37.1,23,7.2,3.9,0.2,87.0,43.0,0.2,7,5,4,1,2026-06-18T02:40:12.756683+05:30
Haridwar,Uttarakhand,29.9457,78.1642,26.5,83,0.0,970.4,7.1,21.6,169,137.8,87.1,45.3,359.0,27.0,10.3,7,5,7,1,2026-06-18T02:40:12.756692+05:30
Rishikesh,Uttarakhand,30.0869,78.2676,23.5,92,0.0,963.1,6.35,25.9,151,90.1,43.8,13.0,332.0,90.0,3.9,3,5,7,1,2026-06-18T02:40:12.756700+05:30
Nainital,Uttarakhand,29.3919,79.4542,14.5,97,0.0,803.5,5.25,27.0,144,108.5,59.8,26.2,373.0,64.0,7.5,3,10,3,0,2026-06-18T02:40:12.756731+05:30
Mussoorie,Uttarakhand,30.4599,78.0664,16.0,87,0.0,801.7,6.15,32.0,127,87.1,55.8,47.1,242.0,29.0,7.8,3,10,7,0,2026-06-18T02:40:12.756741+05:30
Dharamshala,Himachal Pradesh,32.219,76.3234,21.1,67,0.0,867.0,8.25,40.0,59,14.1,13.4,12.8,361.0,66.0,0.0,3,5,7,0,2026-06-18T02:40:12.756749+05:30
Dalhousie,Himachal Pradesh,32.5387,75.971,13.1,87,0.0,800.7,8.25,33.8,94,34.5,31.0,30.5,315.0,30.0,0.6,3,10,7,0,2026-06-18T02:40:12.756758+05:30
Patiala,Punjab,30.3398,76.3869,27.9,69,0.0,974.1,7.7,27.7,182,143.9,76.8,35.5,513.0,36.0,9.4,7,5,7,1,2026-06-18T02:40:12.756767+05:30
Bhatinda,Punjab,30.211,74.9455,29.5,60,0.0,979.7,8.35,35.6,119,82.9,61.0,47.2,445.0,35.0,7.3,4,5,7,1,2026-06-18T02:40:12.756775+05:30
Rohtak,Haryana,28.8955,76.6066,28.1,72,0.0,977.7,7.65,28.8,364,420.0,137.8,90.0,557.0,0.0,30.4,7,5,7,1,2026-06-18T02:40:12.756783+05:30
Panipat,Haryana,29.3909,76.9635,28.0,72,0.0,976.4,7.25,22.7,647,553.2,150.9,69.5,877.0,2.0,14.7,7,5,7,1,2026-06-18T02:40:12.756790+05:30
Mathura,Uttar Pradesh,27.4924,77.6737,28.6,68,0.0,982.9,8.1,25.6,192,306.4,105.5,70.7,705.0,1.0,11.9,7,5,7,1,2026-06-18T02:40:12.756798+05:30
Vrindavan,Uttar Pradesh,27.5823,77.7027,28.8,67,0.0,983.3,8.05,25.9,192,306.4,105.5,70.7,831.0,1.0,11.9,7,5,7,1,2026-06-18T02:40:12.756806+05:30
Ayodhya,Uttar Pradesh,26.7922,82.1998,29.1,72,0.0,991.3,8.4,29.5,157,109.2,61.5,34.8,656.0,33.0,8.5,7,5,7,1,2026-06-18T02:40:12.756814+05:30
Ratlam,Madhya Pradesh,23.3315,75.0367,26.5,67,0.0,953.4,8.55,38.2,66,21.7,13.9,7.1,141.0,45.0,11.0,7,5,7,1,2026-06-18T02:40:12.756823+05:30
Sagar,Madhya Pradesh,23.8388,78.7378,27.1,66,0.0,948.2,8.75,35.3,89,34.0,24.7,10.4,183.0,57.0,2.9,7,5,7,1,2026-06-18T02:40:12.756831+05:30
Satna,Madhya Pradesh,24.6005,80.8322,29.4,56,0.0,968.5,8.8,30.2,94,36.6,26.6,7.3,174.0,75.0,3.9,4,5,7,1,2026-06-18T02:40:12.756839+05:30
Akola,Maharashtra,20.7002,77.0082,30.2,48,0.0,973.8,8.8,41.0,69,28.6,17.2,8.5,116.0,64.0,9.1,0,5,7,1,2026-06-18T02:40:12.756848+05:30
Amravati,Maharashtra,20.9374,77.7796,28.3,61,0.0,965.6,8.7,34.6,75,33.4,21.7,11.9,354.0,58.0,7.0,7,5,7,1,2026-06-18T02:40:12.756856+05:30
Latur,Maharashtra,18.4088,76.5604,27.5,57,0.0,939.0,8.9,39.6,68,19.8,13.6,5.5,139.0,81.0,6.9,4,5,7,1,2026-06-18T02:40:12.756865+05:30
Nanded,Maharashtra,19.1383,77.3091,29.7,48,0.0,967.1,8.85,33.5,69,21.9,13.4,5.7,210.0,61.0,2.5,4,5,7,1,2026-06-18T02:40:12.756874+05:30
Gulbarga,Karnataka,17.3297,76.8343,28.0,55,0.0,957.5,8.9,40.0,65,13.2,9.3,6.1,136.0,53.0,3.7,4,5,7,1,2026-06-18T02:40:12.756881+05:30
Bidar,Karnataka,17.9104,77.5199,27.6,45,0.0,934.1,8.9,32.0,86,39.6,26.6,16.6,199.0,61.0,5.4,4,5,7,0,2026-06-18T02:40:12.756890+05:30
Hospet,Karnataka,15.2689,76.3909,25.0,81,0.0,955.6,8.9,37.8,51,14.3,9.4,6.3,137.0,42.0,2.0,7,5,7,1,2026-06-18T02:40:12.756898+05:30
Tirupur,Tamil Nadu,11.1085,77.3411,24.2,91,0.0,975.2,8.7,41.0,58,21.9,18.0,23.4,161.0,19.0,5.1,3,5,7,1,2026-06-18T02:40:12.756906+05:30
Alappuzha,Kerala,9.4981,76.3388,26.4,97,0.0,1009.3,7.9,29.2,57,27.6,19.2,18.9,207.0,27.0,6.6,7,0,4,1,2026-06-18T02:40:12.756914+05:30
Munnar,Kerala,10.0889,77.0595,16.0,98,0.0,855.7,5.4,25.9,21,10.2,6.5,8.1,121.0,25.0,1.1,3,10,3,0,2026-06-18T02:40:12.756922+05:30
Silchar,Assam,24.8333,92.7789,25.0,100,0.0,1003.6,8.95,31.0,77,27.1,22.6,6.8,253.0,87.0,3.8,7,5,4,1,2026-06-18T02:40:12.756930+05:30
Dibrugarh,Assam,27.4728,94.912,25.5,98,0.0,993.0,9.0,22.3,57,10.6,10.1,6.7,275.0,80.0,1.3,7,5,7,1,2026-06-18T02:40:12.756938+05:30
