city,state,latitude,longitude,temp,humidity,rain,pressure,uv_index,wind_gusts,aqi,pm10,pm2_5,mosquito_risk,arthritis_risk,migraine_risk,frizz_risk,updated_at
Delhi,Delhi,28.6139,77.209,32.4,28,0.0,983.1,7.3,28.4,153,136.9,36.9,0,5,7,0,2026-04-15T10:57:18.799233+05:30
Mumbai,Maharashtra,19.076,72.8777,29.0,77,0.0,1008.7,8.0,18.0,99,83.6,40.3,7,0,4,1,2026-04-15T10:57:18.799270+05:30
Bangalore,Karnataka,12.9716,77.5946,30.7,49,0.0,913.7,9.65,28.1,66,25.7,20.6,0,5,7,1,2026-04-15T10:57:18.799286+05:30
Hyderabad,Telangana,17.385,78.4867,37.5,25,0.0,954.1,9.25,31.3,90,30.7,24.3,0,5,10,0,2026-04-15T10:57:18.799296+05:30
Chennai,Tamil Nadu,13.0827,80.2707,34.4,56,0.0,1007.6,9.35,32.8,31,13.1,10.2,0,5,4,1,2026-04-15T10:57:18.799305+05:30
Kolkata,West Bengal,22.5726,88.3639,33.6,69,0.0,1005.5,8.85,28.1,95,45.8,35.4,3,5,4,1,2026-04-15T10:57:18.799313+05:30
Pune,Maharashtra,18.5204,73.8567,36.1,18,0.0,949.7,8.6,42.5,71,29.4,11.9,0,5,10,0,2026-04-15T10:57:18.799325+05:30
Ahmedabad,Gujarat,23.0225,72.5714,34.3,42,0.0,1001.6,8.15,19.4,65,91.5,28.9,0,5,4,1,2026-04-15T10:57:18.799333+05:30
Jaipur,Rajasthan,26.9124,75.7873,35.6,19,0.0,959.8,7.95,34.9,169,501.1,64.7,0,5,10,0,2026-04-15T10:57:18.799341+05:30
Lucknow,Uttar Pradesh,26.8467,80.9462,34.9,32,0.0,992.7,7.8,29.2,89,239.3,39.6,0,5,7,0,2026-04-15T10:57:18.799348+05:30
Kanpur,Uttar Pradesh,26.4499,80.3319,33.1,43,0.0,991.0,7.8,24.8,149,244.0,41.3,0,5,7,1,2026-04-15T10:57:18.799355+05:30
Chandigarh,Chandigarh,30.7333,76.7794,31.0,36,0.0,968.8,7.25,30.2,51,9.7,7.9,0,5,7,0,2026-04-15T10:57:18.799362+05:30
Srinagar,Jammu and Kashmir,34.0837,74.7973,18.7,49,0.0,844.0,7.7,15.8,76,23.1,12.6,0,5,7,0,2026-04-15T10:57:18.799369+05:30
Jammu,Jammu and Kashmir,32.7266,74.857,30.5,38,0.0,972.2,7.95,32.0,60,19.5,12.9,0,5,7,0,2026-04-15T10:57:18.799376+05:30
Amritsar,Punjab,31.634,74.8723,30.2,40,0.0,980.9,7.85,27.7,88,15.7,12.9,0,5,7,0,2026-04-15T10:57:18.799382+05:30
Ludhiana,Punjab,30.901,75.8573,31.1,36,0.0,978.8,7.5,27.4,69,9.7,9.4,0,5,7,0,2026-04-15T10:57:18.799389+05:30
Jalandhar,Punjab,31.326,75.5762,30.3,40,0.0,979.9,7.65,26.3,62,16.0,10.2,0,5,7,0,2026-04-15T10:57:18.799399+05:30
Dehradun,Uttarakhand,30.6284,78.0322,22.2,36,0.0,831.6,7.65,31.3,35,12.0,4.9,0,5,7,0,2026-04-15T10:57:18.799406+05:30
Shimla,Himachal Pradesh,31.1048,77.1734,20.8,35,0.0,787.1,7.75,47.2,38,10.0,3.5,0,5,7,0,2026-04-15T10:57:18.799413+05:30
Manali,Himachal Pradesh,32.2396,77.1887,23.8,20,0.0,822.2,9.15,31.0,95,11.8,5.2,0,5,7,1,2026-04-15T10:57:18.799420+05:30
Gurgaon,Haryana,28.4595,77.0266,32.2,32,0.0,981.5,7.4,25.9,420,234.7,47.3,0,5,7,0,2026-04-15T10:57:18.799427+05:30
Noida,Uttar Pradesh,28.5355,77.391,32.9,28,0.0,984.5,7.35,29.2,420,234.7,47.3,0,5,7,0,2026-04-15T10:57:18.799433+05:30
Ghaziabad,Uttar Pradesh,28.6692,77.4538,32.1,32,0.0,982.6,7.3,27.4,112,72.9,23.4,0,5,7,0,2026-04-15T10:57:18.799439+05:30
Faridabad,Haryana,28.4089,77.3178,33.4,28,0.0,983.8,7.35,28.8,420,234.7,47.3,0,5,7,0,2026-04-15T10:57:18.799445+05:30
Meerut,Uttar Pradesh,28.9845,77.7064,32.1,33,0.0,981.4,7.2,29.5,112,72.9,23.4,0,5,7,0,2026-04-15T10:57:18.799452+05:30
Agra,Uttar Pradesh,27.1767,78.0081,34.7,29,0.0,987.5,7.65,25.9,244,250.5,51.0,0,5,7,0,2026-04-15T10:57:18.799458+05:30
Varanasi,Uttar Pradesh,25.3176,82.9739,36.8,22,0.0,996.5,8.4,24.1,97,106.9,21.9,0,5,10,0,2026-04-15T10:57:18.799467+05:30
Prayagraj,Uttar Pradesh,25.4358,81.8463,35.8,27,0.0,995.1,8.25,24.1,108,130.4,27.1,0,5,10,0,2026-04-15T10:57:18.799474+05:30
Gorakhpur,Uttar Pradesh,26.7606,83.3732,33.5,33,0.0,996.6,8.2,27.0,85,69.4,29.0,0,5,7,0,2026-04-15T10:57:18.799481+05:30
Bareilly,Uttar Pradesh,28.367,79.4304,32.2,32,0.0,986.4,7.55,27.7,63,24.0,14.4,0,5,7,0,2026-04-15T10:57:18.799487+05:30
Aligarh,Uttar Pradesh,27.8974,78.088,34.7,25,0.0,985.2,7.45,30.6,164,113.6,26.4,0,5,7,0,2026-04-15T10:57:18.799493+05:30
Moradabad,Uttar Pradesh,28.8386,78.7733,31.4,35,0.0,983.3,7.35,30.2,74,16.8,15.5,0,5,7,0,2026-04-15T10:57:18.799499+05:30
Saharanpur,Uttar Pradesh,29.9637,77.546,30.3,38,0.0,975.5,6.95,32.0,75,16.8,14.3,0,5,7,0,2026-04-15T10:57:18.799505+05:30
Jhansi,Uttar Pradesh,25.4484,78.5685,37.8,19,0.0,977.1,8.2,40.7,65,121.1,23.9,0,5,10,0,2026-04-15T10:57:22.016115+05:30
Surat,Gujarat,21.1702,72.8311,32.0,62,0.0,1006.7,7.8,31.0,99,106.9,50.3,3,5,4,1,2026-04-15T10:57:22.016144+05:30
Vadodara,Gujarat,22.3072,73.1812,34.4,38,0.0,1004.1,8.1,28.1,73,92.2,30.6,0,5,4,1,2026-04-15T10:57:22.016154+05:30
Rajkot,Gujarat,22.3039,70.8022,31.5,46,0.0,994.2,7.85,30.6,66,54.4,19.9,0,5,7,1,2026-04-15T10:57:22.016163+05:30
Thane,Maharashtra,19.2183,72.9781,32.7,56,0.0,1008.2,8.0,32.0,99,83.6,40.3,0,0,4,1,2026-04-15T10:57:22.016170+05:30
Nagpur,Maharashtra,21.1458,79.0882,35.3,30,0.0,973.5,8.85,34.2,81,22.6,21.0,0,5,10,0,2026-04-15T10:57:22.016178+05:30
Nashik,Maharashtra,19.9975,73.7898,33.5,25,0.0,946.9,8.3,37.4,62,45.8,13.6,0,5,7,0,2026-04-15T10:57:22.016185+05:30
Aurangabad,Maharashtra,19.8762,75.3433,36.1,18,0.0,945.3,8.95,36.4,57,26.5,10.9,0,5,10,0,2026-04-15T10:57:22.016192+05:30
Solapur,Maharashtra,17.6599,75.9064,36.8,20,0.0,958.1,9.05,28.8,63,33.2,23.6,0,5,10,0,2026-04-15T10:57:22.016198+05:30
Kolhapur,Maharashtra,16.705,74.2433,31.3,51,0.0,949.2,9.05,42.8,90,64.0,26.5,0,5,7,1,2026-04-15T10:57:22.016205+05:30
Goa,Goa,15.2993,74.124,32.3,63,0.0,998.9,9.0,31.0,89,58.4,22.5,3,5,7,1,2026-04-15T10:57:22.016212+05:30
Jodhpur,Rajasthan,26.2389,73.0243,35.7,27,0.0,982.7,8.15,26.3,76,115.7,25.7,0,5,10,0,2026-04-15T10:57:22.016218+05:30
Udaipur,Rajasthan,24.5854,73.7125,34.9,25,0.0,947.0,8.7,25.6,61,122.5,23.6,0,5,7,0,2026-04-15T10:57:22.016225+05:30
Kota,Rajasthan,25.2138,75.8648,35.9,27,0.0,978.1,8.2,26.6,54,75.0,24.9,0,5,10,0,2026-04-15T10:57:22.016231+05:30
Bikaner,Rajasthan,28.0229,73.3119,34.5,26,0.0,982.2,7.9,12.6,71,257.0,31.0,0,5,7,0,2026-04-15T10:57:22.016238+05:30
Ajmer,Rajasthan,26.4499,74.6399,35.6,24,0.0,954.7,8.15,26.3,61,278.5,44.7,0,5,10,0,2026-04-15T10:57:22.016244+05:30
Gwalior,Madhya Pradesh,26.2183,78.1828,36.2,24,0.0,982.4,7.95,36.0,97,194.6,36.9,0,5,10,0,2026-04-15T10:57:22.016251+05:30
Indore,Madhya Pradesh,22.7196,75.8577,34.1,33,0.0,948.8,8.55,31.7,54,57.3,19.1,0,5,7,0,2026-04-15T10:57:22.016257+05:30
Bhopal,Madhya Pradesh,23.2599,77.4126,35.9,23,0.0,954.2,8.55,32.4,57,58.8,16.0,0,5,10,0,2026-04-15T10:57:22.016263+05:30
Jabalpur,Madhya Pradesh,23.1815,79.9864,34.2,33,0.0,961.5,8.7,36.4,68,20.9,12.6,0,5,7,0,2026-04-15T10:57:22.016270+05:30
Ujjain,Madhya Pradesh,23.1765,75.7885,34.0,37,0.0,954.4,8.45,29.9,57,76.1,23.9,0,5,7,1,2026-04-15T10:57:22.016277+05:30
Visakhapatnam,Andhra Pradesh,17.6868,83.2185,32.8,57,0.0,1004.4,9.15,42.8,68,23.1,16.1,0,5,4,1,2026-04-15T10:57:22.016284+05:30
Vijayawada,Andhra Pradesh,16.5062,80.648,33.8,60,0.0,1003.1,9.2,31.7,51,15.3,11.0,0,5,4,1,2026-04-15T10:57:22.016290+05:30
Guntur,Andhra Pradesh,16.3067,80.4365,32.6,63,0.0,1004.4,9.2,31.7,52,14.2,11.6,3,5,4,1,2026-04-15T10:57:22.016297+05:30
Nellore,Andhra Pradesh,14.4426,79.9865,34.4,55,0.0,1006.1,9.3,34.2,47,17.9,16.8,0,5,4,1,2026-04-15T10:57:22.016305+05:30
Kurnool,Andhra Pradesh,15.8281,78.0373,37.4,39,0.0,977.1,9.2,25.2,85,28.3,22.6,0,5,10,1,2026-04-15T10:57:22.016312+05:30
Kakinada,Andhra Pradesh,16.9891,82.2475,34.3,57,0.0,1008.0,9.15,36.4,54,16.1,10.1,0,0,4,1,2026-04-15T10:57:22.016318+05:30
Tirupati,Andhra Pradesh,13.6288,79.4192,33.2,55,0.0,992.6,9.4,32.0,69,17.2,16.1,0,5,7,1,2026-04-15T10:57:22.016325+05:30
Warangal,Telangana,17.9689,79.5941,33.3,58,0.0,979.3,9.1,29.2,72,19.2,16.1,0,5,7,1,2026-04-15T10:57:22.016331+05:30
Nizamabad,Telangana,18.6725,78.0941,36.7,27,0.0,965.8,9.05,25.2,79,25.2,17.2,0,5,10,0,2026-04-15T10:57:22.016338+05:30
Mysore,Karnataka,12.2958,76.6396,31.4,48,0.0,930.2,9.55,46.1,68,18.4,14.0,0,5,7,1,2026-04-15T10:57:22.016344+05:30
Mangalore,Karnataka,12.9141,74.856,29.8,79,0.0,1007.5,9.15,23.8,68,32.5,21.0,7,5,4,1,2026-04-15T10:57:22.016350+05:30
Hubli-Dharwad,Karnataka,15.3647,75.124,29.9,62,0.0,942.5,9.2,43.6,67,29.8,18.8,7,5,7,1,2026-04-15T10:57:22.016358+05:30
Belgaum,Karnataka,15.8497,74.4977,29.6,62,0.0,927.7,9.25,38.2,76,54.5,19.7,7,5,7,1,2026-04-15T10:57:25.232210+05:30
Coimbatore,Tamil Nadu,11.0168,76.9558,32.8,53,0.0,963.1,9.45,48.2,74,27.0,19.4,0,5,7,1,2026-04-15T10:57:25.232237+05:30
Madurai,Tamil Nadu,9.9252,78.1198,34.1,50,0.0,993.7,9.35,39.6,64,15.5,13.2,0,5,7,1,2026-04-15T10:57:25.232246+05:30
Trichy,Tamil Nadu,10.7905,78.7047,34.1,51,0.0,1000.4,9.4,22.7,53,10.5,8.6,0,5,4,1,2026-04-15T10:57:25.232253+05:30
Salem,Tamil Nadu,11.6643,78.146,33.4,51,0.0,978.4,9.45,19.8,61,18.2,15.1,0,5,7,1,2026-04-15T10:57:25.232259+05:30
Tirunelveli,Tamil Nadu,8.7139,77.7567,35.7,42,0.0,1003.6,9.3,53.6,69,22.4,16.0,0,5,7,1,2026-04-15T10:57:25.232265+05:30
Vellore,Tamil Nadu,12.9165,79.1325,33.7,51,0.0,985.3,9.45,29.5,97,17.5,15.7,0,5,7,1,2026-04-15T10:57:25.232271+05:30
Erode,Tamil Nadu,11.341,77.7172,34.7,51,0.0,989.8,9.4,28.1,57,30.6,24.5,0,5,7,1,2026-04-15T10:57:25.232277+05:30
Kochi,Kerala,9.9312,76.2673,29.2,81,0.0,1009.1,9.2,30.2,95,34.9,25.9,7,0,4,1,2026-04-15T10:57:25.232283+05:30
Thiruvananthapuram,Kerala,8.5241,76.9366,29.0,83,0.0,1008.3,9.15,30.6,70,33.8,23.8,7,0,4,1,2026-04-15T10:57:25.232289+05:30
Kozhikode,Kerala,11.2588,75.7804,31.0,74,0.0,1008.3,9.15,29.9,79,32.0,20.1,3,0,4,1,2026-04-15T10:57:25.232295+05:30
Thrissur,Kerala,10.5276,76.2144,33.4,61,0.0,1007.5,9.2,35.3,97,32.4,24.0,3,5,4,1,2026-04-15T10:57:25.232301+05:30
Kannur,Kerala,11.8745,75.3704,32.2,65,0.0,1007.8,9.15,32.8,75,36.8,22.4,3,5,4,1,2026-04-15T10:57:25.232307+05:30
Patna,Bihar,25.5941,85.1376,33.0,38,0.0,999.8,8.55,22.0,132,72.2,37.0,0,5,7,1,2026-04-15T10:57:25.232313+05:30
Gaya,Bihar,24.7914,85.0002,35.9,27,0.0,992.8,8.6,20.2,89,79.6,19.1,0,5,10,0,2026-04-15T10:57:25.232319+05:30
Muzaffarpur,Bihar,26.1209,85.3647,31.6,59,0.0,999.9,8.55,21.2,150,85.2,49.4,0,5,7,1,2026-04-15T10:57:25.232325+05:30
Bhagalpur,Bihar,25.2425,87.0117,31.0,67,0.0,1000.8,8.55,17.3,147,101.0,54.1,3,5,4,1,2026-04-15T10:57:25.232331+05:30
Ranchi,Jharkhand,23.3441,85.3096,32.4,22,0.0,939.2,9.15,30.2,75,57.3,13.4,0,5,7,0,2026-04-15T10:57:25.232337+05:30
Jamshedpur,Jharkhand,22.8046,86.2029,34.4,54,0.0,990.8,8.95,21.2,109,91.7,41.1,0,5,7,1,2026-04-15T10:57:25.232342+05:30
Dhanbad,Jharkhand,23.7957,86.4304,36.4,18,0.0,979.8,8.9,25.2,150,100.6,40.4,0,5,10,0,2026-04-15T10:57:25.232348+05:30
Bokaro,Jharkhand,23.6693,86.1511,35.6,22,0.0,983.8,8.9,37.1,134,87.5,29.0,0,5,10,0,2026-04-15T10:57:25.232353+05:30
Bhubaneswar,Odisha,20.2961,85.8245,32.5,69,0.0,1002.9,9.1,32.4,82,34.6,26.2,3,5,4,1,2026-04-15T10:57:25.232359+05:30
Cuttack,Odisha,20.4625,85.8828,33.7,65,0.0,1004.6,9.15,27.4,82,34.6,26.2,3,5,4,1,2026-04-15T10:57:25.232364+05:30
Rourkela,Odisha,22.2604,84.8536,35.3,52,0.0,985.1,8.9,32.0,90,96.2,46.7,0,5,10,1,2026-04-15T10:57:25.232370+05:30
Raipur,Chhattisgarh,21.2514,81.6296,36.0,41,0.0,974.4,8.95,41.4,140,37.4,33.8,0,5,10,1,2026-04-15T10:57:25.232375+05:30
Bhilai,Chhattisgarh,21.1938,81.3509,35.4,47,0.0,974.8,8.95,41.8,147,33.3,29.8,0,5,10,1,2026-04-15T10:57:25.232381+05:30
Guwahati,Assam,26.1158,91.7086,27.1,75,0.0,1003.0,8.45,33.5,130,50.4,32.4,7,5,4,1,2026-04-15T10:57:25.232386+05:30
Agartala,Tripura,23.8315,91.2868,31.2,66,0.0,1006.8,8.7,43.6,105,53.3,36.3,3,5,4,1,2026-04-15T10:57:25.232392+05:30
Shillong,Meghalaya,25.5788,91.8933,19.8,58,0.0,858.2,8.1,58.0,107,58.0,25.0,0,5,7,0,2026-04-15T10:57:25.232397+05:30
Imphal,Manipur,24.817,93.9368,21.9,81,0.0,924.9,9.05,68.0,132,54.7,33.2,3,5,7,1,2026-04-15T10:57:25.232403+05:30
Aizawl,Mizoram,23.7271,92.7176,25.7,59,0.0,895.4,8.9,49.7,120,53.6,30.2,4,5,7,1,2026-04-15T10:57:25.232408+05:30
Kohima,Nagaland,25.6701,94.1077,20.4,65,0.0,857.1,8.95,68.8,113,44.4,25.4,3,5,7,0,2026-04-15T10:57:25.232414+05:30
Gangtok,Sikkim,27.3314,88.6138,18.4,81,0.0,838.4,8.25,19.4,118,76.6,44.7,3,10,7,0,2026-04-15T10:57:25.232420+05:30
Siliguri,West Bengal,26.7271,88.3953,23.1,82,0.0,995.0,8.3,29.2,157,108.0,60.5,3,5,7,1,2026-04-15T10:57:28.455045+05:30
Durgapur,West Bengal,23.5204,87.3119,35.2,46,0.0,994.6,8.85,23.0,132,98.5,53.0,0,5,10,1,2026-04-15T10:57:28.455078+05:30
Asansol,West Bengal,23.6739,86.9524,35.6,36,0.0,993.0,8.85,19.8,121,101.0,45.2,0,5,10,1,2026-04-15T10:57:28.455089+05:30
Pondicherry,Puducherry,11.9139,79.8145,34.0,58,0.0,1008.9,9.3,25.2,31,16.4,13.4,0,0,4,1,2026-04-15T10:57:28.455096+05:30
Port Blair,Andaman and Nicobar Islands,11.6234,92.7265,29.6,68,0.0,1008.5,9.2,20.2,73,29.2,20.3,7,0,4,1,2026-04-15T10:57:28.455103+05:30
Haridwar,Uttarakhand,29.9457,78.1642,31.4,38,0.0,973.9,7.05,31.3,55,7.4,7.2,0,5,7,0,2026-04-15T10:57:28.455110+05:30
Rishikesh,Uttarakhand,30.0869,78.2676,31.2,38,0.0,966.7,7.15,30.6,39,6.8,5.7,0,5,7,0,2026-04-15T10:57:28.455116+05:30
Nainital,Uttarakhand,29.3919,79.4542,25.7,30,0.0,808.9,8.05,45.7,43,18.2,6.5,4,5,7,0,2026-04-15T10:57:28.455123+05:30
Mussoorie,Uttarakhand,30.4599,78.0664,23.1,38,0.0,804.9,7.55,35.6,53,5.9,5.4,0,5,7,0,2026-04-15T10:57:28.455130+05:30
Dharamshala,Himachal Pradesh,32.219,76.3234,24.9,39,0.0,869.9,7.8,22.7,49,12.2,3.9,0,5,7,0,2026-04-15T10:57:28.455136+05:30
Dalhousie,Himachal Pradesh,32.5387,75.971,23.7,31,0.0,805.6,8.0,21.6,52,11.9,6.2,0,5,7,0,2026-04-15T10:57:28.455143+05:30
Patiala,Punjab,30.3398,76.3869,31.8,32,0.0,978.1,7.15,28.1,165,342.7,38.8,0,5,7,0,2026-04-15T10:57:28.455148+05:30
Bhatinda,Punjab,30.211,74.9455,34.0,28,0.0,983.7,7.85,32.8,55,16.0,8.8,0,5,7,0,2026-04-15T10:57:28.455155+05:30
Rohtak,Haryana,28.8955,76.6066,33.6,26,0.0,981.9,7.3,30.2,291,212.3,41.4,0,5,7,0,2026-04-15T10:57:28.455160+05:30
Panipat,Haryana,29.3909,76.9635,32.3,32,0.0,980.4,7.15,27.7,672,364.1,49.7,0,5,7,0,2026-04-15T10:57:28.455166+05:30
Mathura,Uttar Pradesh,27.4924,77.6737,34.2,27,0.0,986.8,7.6,26.3,184,92.9,31.0,0,5,7,0,2026-04-15T10:57:28.455172+05:30
Vrindavan,Uttar Pradesh,27.5823,77.7027,33.7,29,0.0,987.1,7.6,28.1,184,92.9,31.0,0,5,7,0,2026-04-15T10:57:28.455178+05:30
Ayodhya,Uttar Pradesh,26.7922,82.1998,35.5,26,0.0,994.5,7.95,33.5,76,188.6,33.4,0,5,10,0,2026-04-15T10:57:28.455183+05:30
Ratlam,Madhya Pradesh,23.3315,75.0367,31.7,51,0.0,955.0,8.4,24.8,54,85.0,23.5,0,5,7,1,2026-04-15T10:57:28.455189+05:30
Sagar,Madhya Pradesh,23.8388,78.7378,35.6,26,0.0,950.3,8.6,29.2,55,30.3,11.0,0,5,10,0,2026-04-15T10:57:28.455195+05:30
Satna,Madhya Pradesh,24.6005,80.8322,37.3,18,0.0,971.0,8.6,27.0,57,55.1,14.4,0,5,10,0,2026-04-15T10:57:28.455201+05:30
Akola,Maharashtra,20.7002,77.0082,36.3,30,0.0,975.5,8.75,34.6,54,28.6,12.5,0,5,10,0,2026-04-15T10:57:28.455208+05:30
Amravati,Maharashtra,20.9374,77.7796,35.9,30,0.0,967.8,8.8,31.3,55,22.5,10.2,0,5,10,0,2026-04-15T10:57:28.455214+05:30
Latur,Maharashtra,18.4088,76.5604,33.5,32,0.0,941.4,9.05,25.2,61,27.7,15.3,0,5,7,0,2026-04-15T10:57:28.455220+05:30
Nanded,Maharashtra,19.1383,77.3091,34.6,34,0.0,969.5,8.95,14.8,60,32.2,14.3,0,5,7,1,2026-04-15T10:57:28.455226+05:30
Gulbarga,Karnataka,17.3297,76.8343,38.2,26,0.0,959.1,9.1,24.1,97,34.1,28.9,0,5,10,0,2026-04-15T10:57:28.455232+05:30
Bidar,Karnataka,17.9104,77.5199,36.3,25,0.0,936.9,9.1,23.4,95,38.2,32.1,0,5,10,0,2026-04-15T10:57:28.455237+05:30
Hospet,Karnataka,15.2689,76.3909,30.8,62,0.0,956.9,9.25,28.4,100,23.6,17.9,3,5,7,1,2026-04-15T10:57:28.455243+05:30
Tirupur,Tamil Nadu,11.1085,77.3411,34.0,48,0.0,976.2,9.5,32.8,70,29.3,22.9,0,5,7,1,2026-04-15T10:57:28.455249+05:30
Alappuzha,Kerala,9.4981,76.3388,29.2,81,0.0,1009.2,9.2,29.5,96,37.5,27.6,7,0,4,1,2026-04-15T10:57:28.455254+05:30
Munnar,Kerala,10.0889,77.0595,28.5,56,0.0,860.0,9.75,35.3,77,23.6,17.4,4,5,7,1,2026-04-15T10:57:28.455260+05:30
Silchar,Assam,24.8333,92.7789,25.1,84,0.0,1007.6,8.7,32.0,148,49.9,35.3,7,5,4,1,2026-04-15T10:57:28.455266+05:30
Dibrugarh,Assam,27.4728,94.912,22.2,83,0.0,998.7,8.5,30.6,96,115.5,52.9,3,5,7,1,2026-04-15T10:57:28.455272+05:30
