city,state,latitude,longitude,temp,humidity,rain,pressure,uv_index,wind_gusts,aqi,pm10,pm2_5,no2,co,o3,so2,mosquito_risk,arthritis_risk,migraine_risk,frizz_risk,updated_at
Delhi,Delhi,28.6139,77.209,28.2,77,0.0,973.2,7.7,25.9,736,519.7,137.8,34.2,204.0,27.0,13.1,7,5,7,1,2026-07-13T05:27:27.755499+05:30
Mumbai,Maharashtra,19.076,72.8777,27.6,83,0.0,1005.3,7.55,49.7,52,17.5,9.8,4.1,101.0,45.0,4.1,7,5,4,1,2026-07-13T05:27:27.755550+05:30
Bangalore,Karnataka,12.9716,77.5946,19.5,95,0.0,909.6,9.0,48.6,51,14.0,7.6,6.6,129.0,33.0,3.7,3,10,7,1,2026-07-13T05:27:27.755566+05:30
Hyderabad,Telangana,17.385,78.4867,24.8,72,0.0,949.3,8.9,47.5,60,25.7,13.8,5.9,123.0,37.0,3.9,3,5,7,1,2026-07-13T05:27:27.755582+05:30
Chennai,Tamil Nadu,13.0827,80.2707,29.8,61,0.0,1002.9,8.35,40.7,68,29.3,21.2,16.3,175.0,37.0,8.5,7,5,4,1,2026-07-13T05:27:27.755611+05:30
Kolkata,West Bengal,22.5726,88.3639,28.0,90,0.0,997.0,7.05,22.0,142,72.9,58.7,17.5,384.0,54.0,10.3,7,5,7,1,2026-07-13T05:27:27.755622+05:30
Pune,Maharashtra,18.5204,73.8567,23.1,89,0.0,944.6,8.35,53.3,35,7.1,4.1,4.0,92.0,38.0,4.1,3,5,7,1,2026-07-13T05:27:27.755629+05:30
Ahmedabad,Gujarat,23.0225,72.5714,27.2,80,0.0,995.9,8.15,48.6,66,21.5,11.3,5.5,108.0,37.0,3.7,7,5,7,1,2026-07-13T05:27:27.755637+05:30
Jaipur,Rajasthan,26.9124,75.7873,27.5,69,0.0,951.3,8.2,36.7,365,514.1,94.5,7.7,124.0,50.0,4.6,7,5,7,1,2026-07-13T05:27:27.755649+05:30
Lucknow,Uttar Pradesh,26.8467,80.9462,28.7,75,0.0,983.3,8.2,36.4,118,72.4,38.8,12.5,190.0,55.0,7.7,7,5,7,1,2026-07-13T05:27:27.755658+05:30
Kanpur,Uttar Pradesh,26.4499,80.3319,29.5,70,0.0,982.0,8.2,37.8,108,89.6,37.5,12.5,174.0,51.0,8.8,7,5,7,1,2026-07-13T05:27:27.755666+05:30
Chandigarh,Chandigarh,30.7333,76.7794,26.4,71,0.0,958.5,7.7,24.8,157,100.6,65.4,37.9,410.0,21.0,8.9,7,5,7,1,2026-07-13T05:27:27.755672+05:30
Srinagar,Jammu and Kashmir,34.0837,74.7973,15.5,99,0.0,836.3,9.0,22.0,58,46.2,42.7,18.1,366.0,42.0,1.5,3,10,7,0,2026-07-13T05:27:27.755680+05:30
Jammu,Jammu and Kashmir,32.7266,74.857,25.4,84,0.0,962.9,8.55,24.1,137,66.6,52.3,40.5,452.0,0.0,2.8,7,5,7,1,2026-07-13T05:27:27.755687+05:30
Amritsar,Punjab,31.634,74.8723,25.9,92,0.0,970.8,8.4,18.4,166,175.1,118.7,52.9,640.0,15.0,7.5,7,5,7,1,2026-07-13T05:27:27.755694+05:30
Ludhiana,Punjab,30.901,75.8573,25.9,95,0.0,968.4,7.9,23.0,168,135.0,93.6,46.0,491.0,30.0,9.8,7,5,7,1,2026-07-13T05:27:27.755701+05:30
Jalandhar,Punjab,31.326,75.5762,26.0,90,0.0,969.4,8.15,20.9,162,133.2,93.4,47.9,509.0,25.0,7.2,7,5,7,1,2026-07-13T05:27:27.755710+05:30
Dehradun,Uttarakhand,30.6284,78.0322,17.5,95,0.0,822.9,8.15,28.8,83,45.5,27.6,13.2,237.0,61.0,1.2,3,10,7,1,2026-07-13T05:27:27.755717+05:30
Shimla,Himachal Pradesh,31.1048,77.1734,16.0,72,0.0,778.0,8.25,35.6,95,57.4,33.5,13.0,227.0,56.0,2.7,3,5,7,0,2026-07-13T05:27:27.755724+05:30
Manali,Himachal Pradesh,32.2396,77.1887,16.6,79,0.1,811.6,9.4,32.4,47,2.4,2.2,7.0,169.0,102.0,0.0,6,5,7,0,2026-07-13T05:27:27.755732+05:30
Gurgaon,Haryana,28.4595,77.0266,27.9,77,0.0,971.8,7.7,30.2,746,754.4,155.1,18.4,222.0,41.0,7.8,7,5,7,1,2026-07-13T05:27:27.755739+05:30
Noida,Uttar Pradesh,28.5355,77.391,28.6,76,0.0,974.5,7.7,24.8,746,754.4,155.1,18.4,224.0,41.0,7.8,7,5,7,1,2026-07-13T05:27:27.755746+05:30
Ghaziabad,Uttar Pradesh,28.6692,77.4538,28.6,76,0.0,972.7,7.7,26.6,590,472.2,165.3,51.1,237.0,13.0,20.6,7,5,7,1,2026-07-13T05:27:27.755753+05:30
Faridabad,Haryana,28.4089,77.3178,28.5,75,0.0,973.9,7.75,27.7,746,754.4,155.1,18.4,211.0,41.0,7.8,7,5,7,1,2026-07-13T05:27:27.755760+05:30
Meerut,Uttar Pradesh,28.9845,77.7064,27.6,84,0.0,971.4,7.65,28.1,590,472.2,165.3,51.1,463.0,13.0,20.6,7,5,7,1,2026-07-13T05:27:27.755767+05:30
Agra,Uttar Pradesh,27.1767,78.0081,29.0,70,0.0,978.3,7.55,38.9,134,189.1,46.2,14.9,191.0,42.0,5.2,7,5,7,1,2026-07-13T05:27:27.755774+05:30
Varanasi,Uttar Pradesh,25.3176,82.9739,28.8,70,0.0,988.0,8.55,36.0,99,53.8,35.0,11.2,192.0,50.0,7.1,7,5,7,1,2026-07-13T05:27:27.755781+05:30
Prayagraj,Uttar Pradesh,25.4358,81.8463,29.3,70,0.0,986.8,8.6,40.7,96,52.5,33.8,11.1,173.0,49.0,5.5,7,5,7,1,2026-07-13T05:27:27.755788+05:30
Gorakhpur,Uttar Pradesh,26.7606,83.3732,26.9,95,0.0,987.1,6.7,28.8,135,61.2,47.5,32.8,262.0,12.0,6.2,7,5,7,1,2026-07-13T05:27:27.755795+05:30
Bareilly,Uttar Pradesh,28.367,79.4304,27.7,89,0.0,976.4,8.0,29.2,175,178.3,77.5,27.7,366.0,21.0,6.3,7,5,7,1,2026-07-13T05:27:27.755805+05:30
Aligarh,Uttar Pradesh,27.8974,78.088,28.7,73,0.0,975.7,7.85,32.8,581,717.1,172.3,15.2,207.0,44.0,5.0,7,5,7,1,2026-07-13T05:27:27.755812+05:30
Moradabad,Uttar Pradesh,28.8386,78.7733,27.5,90,0.0,973.4,7.85,38.2,335,431.2,170.4,33.7,427.0,21.0,14.6,7,5,7,1,2026-07-13T05:27:27.755818+05:30
Saharanpur,Uttar Pradesh,29.9637,77.546,25.5,84,0.0,965.4,7.35,28.1,179,324.1,147.6,60.6,337.0,5.0,15.6,7,5,7,1,2026-07-13T05:27:27.755825+05:30
Jhansi,Uttar Pradesh,25.4484,78.5685,28.6,71,0.0,970.0,8.4,43.6,90,53.6,32.9,7.8,142.0,61.0,10.0,7,5,7,1,2026-07-13T05:27:31.210230+05:30
Surat,Gujarat,21.1702,72.8311,28.1,82,0.0,1001.8,6.8,61.2,57,17.2,11.5,12.6,188.0,35.0,21.7,7,5,4,1,2026-07-13T05:27:31.210262+05:30
Vadodara,Gujarat,22.3072,73.1812,27.3,83,0.0,998.6,7.95,56.5,58,13.5,7.8,5.5,93.0,39.0,5.2,7,5,7,1,2026-07-13T05:27:31.210274+05:30
Rajkot,Gujarat,22.3039,70.8022,26.5,82,0.0,987.5,7.65,56.9,56,21.1,10.0,3.0,88.0,43.0,2.4,7,5,7,1,2026-07-13T05:27:31.210282+05:30
Thane,Maharashtra,19.2183,72.9781,26.7,88,0.0,1004.5,7.8,45.4,52,17.5,9.8,4.1,114.0,45.0,4.1,7,5,4,1,2026-07-13T05:27:31.210290+05:30
Nagpur,Maharashtra,21.1458,79.0882,26.6,77,0.0,967.6,7.5,41.4,81,43.2,25.3,9.4,177.0,39.0,7.0,7,5,7,1,2026-07-13T05:27:31.210297+05:30
Nashik,Maharashtra,19.9975,73.7898,22.6,92,0.0,940.9,8.1,57.2,35,7.8,5.2,6.6,100.0,31.0,5.0,3,5,7,1,2026-07-13T05:27:31.210305+05:30
Aurangabad,Maharashtra,19.8762,75.3433,22.5,92,0.0,939.8,8.9,50.0,53,16.3,8.2,7.4,121.0,33.0,8.8,3,5,7,1,2026-07-13T05:27:31.210312+05:30
Solapur,Maharashtra,17.6599,75.9064,23.6,84,0.0,954.1,8.9,44.6,50,12.8,7.2,5.8,116.0,30.0,2.4,3,5,7,1,2026-07-13T05:27:31.210320+05:30
Kolhapur,Maharashtra,16.705,74.2433,22.8,93,0.0,945.6,8.9,50.4,34,7.3,4.1,2.3,98.0,40.0,1.7,3,5,7,1,2026-07-13T05:27:31.210327+05:30
Goa,Goa,15.2993,74.124,24.9,98,0.1,996.9,7.45,39.6,51,23.3,12.6,3.2,259.0,38.0,1.1,6,5,7,1,2026-07-13T05:27:31.210335+05:30
Jodhpur,Rajasthan,26.2389,73.0243,27.5,74,0.0,974.4,8.3,47.2,155,285.9,62.4,2.9,99.0,47.0,2.4,7,5,7,1,2026-07-13T05:27:31.210342+05:30
Udaipur,Rajasthan,24.5854,73.7125,23.7,85,0.0,939.4,8.45,48.6,75,38.1,15.7,4.2,102.0,42.0,3.8,3,5,7,1,2026-07-13T05:27:31.210350+05:30
Kota,Rajasthan,25.2138,75.8648,27.7,79,0.0,971.2,8.3,42.8,87,34.7,21.4,8.1,128.0,41.0,8.2,7,5,7,1,2026-07-13T05:27:31.210357+05:30
Bikaner,Rajasthan,28.0229,73.3119,30.1,64,0.0,972.1,8.2,36.7,160,227.7,81.5,2.4,95.0,51.0,4.0,3,5,7,1,2026-07-13T05:27:31.210364+05:30
Ajmer,Rajasthan,26.4499,74.6399,25.4,79,0.0,946.4,8.35,52.6,84,40.6,22.1,4.5,103.0,53.0,3.8,7,5,7,1,2026-07-13T05:27:31.210372+05:30
Gwalior,Madhya Pradesh,26.2183,78.1828,28.1,74,0.0,974.6,8.2,43.2,87,50.6,31.4,7.0,140.0,62.0,6.9,7,5,7,1,2026-07-13T05:27:31.210379+05:30
Indore,Madhya Pradesh,22.7196,75.8577,23.8,90,0.0,942.5,8.55,55.4,69,18.2,10.3,7.5,140.0,33.0,8.3,3,5,7,1,2026-07-13T05:27:31.210386+05:30
Bhopal,Madhya Pradesh,23.2599,77.4126,25.0,86,0.0,947.4,8.6,44.3,77,23.1,12.6,6.0,148.0,40.0,5.8,7,5,7,1,2026-07-13T05:27:31.210392+05:30
Jabalpur,Madhya Pradesh,23.1815,79.9864,25.7,84,0.0,955.1,6.55,36.4,80,51.7,33.1,6.9,196.0,58.0,5.3,7,5,7,1,2026-07-13T05:27:31.210399+05:30
Ujjain,Madhya Pradesh,23.1765,75.7885,24.2,89,0.0,947.9,8.45,52.9,68,19.1,10.9,7.3,152.0,34.0,8.1,3,5,7,1,2026-07-13T05:27:31.210407+05:30
Visakhapatnam,Andhra Pradesh,17.6868,83.2185,28.5,67,0.0,996.7,8.55,31.7,96,56.0,34.1,23.3,313.0,35.0,34.8,7,5,7,1,2026-07-13T05:27:31.210414+05:30
Vijayawada,Andhra Pradesh,16.5062,80.648,31.3,50,0.0,996.9,8.35,49.7,82,37.4,26.1,12.8,265.0,44.0,6.0,0,5,7,1,2026-07-13T05:27:31.210421+05:30
Guntur,Andhra Pradesh,16.3067,80.4365,31.4,48,0.0,998.3,8.8,47.9,78,33.9,22.1,11.4,223.0,39.0,6.4,0,5,7,1,2026-07-13T05:27:31.210428+05:30
Nellore,Andhra Pradesh,14.4426,79.9865,30.1,56,0.0,1001.5,8.7,49.7,65,28.2,15.8,8.0,141.0,43.0,6.0,0,5,4,1,2026-07-13T05:27:31.210436+05:30
Kurnool,Andhra Pradesh,15.8281,78.0373,26.0,74,0.0,974.3,8.65,49.3,57,22.1,11.7,6.9,116.0,32.0,3.5,7,5,7,1,2026-07-13T05:27:31.210443+05:30
Kakinada,Andhra Pradesh,16.9891,82.2475,28.2,73,0.0,1001.0,6.8,44.6,85,41.2,24.7,6.7,253.0,75.0,4.2,7,5,4,1,2026-07-13T05:27:31.210451+05:30
Tirupati,Andhra Pradesh,13.6288,79.4192,27.7,62,0.0,987.3,8.4,39.6,78,27.5,14.5,7.4,97.0,36.0,1.6,7,5,7,1,2026-07-13T05:27:31.210458+05:30
Warangal,Telangana,17.9689,79.5941,27.7,63,0.0,973.8,8.7,45.0,79,27.0,16.8,6.9,125.0,44.0,3.4,7,5,7,1,2026-07-13T05:27:31.210465+05:30
Nizamabad,Telangana,18.6725,78.0941,25.4,74,0.0,960.7,8.9,46.1,66,23.2,12.7,7.2,123.0,36.0,6.0,7,5,7,1,2026-07-13T05:27:31.210472+05:30
Mysore,Karnataka,12.2958,76.6396,20.4,96,0.0,927.0,8.65,44.6,44,12.1,6.0,4.6,102.0,34.0,2.0,3,5,7,1,2026-07-13T05:27:31.210479+05:30
Mangalore,Karnataka,12.9141,74.856,25.8,96,0.0,1006.5,8.35,47.2,46,21.5,11.0,4.4,98.0,29.0,2.0,7,5,4,1,2026-07-13T05:27:31.210486+05:30
Hubli-Dharwad,Karnataka,15.3647,75.124,21.8,96,0.0,938.8,8.95,50.8,32,11.3,5.8,2.6,96.0,36.0,1.5,3,5,7,1,2026-07-13T05:27:31.210493+05:30
Belgaum,Karnataka,15.8497,74.4977,21.2,94,0.0,923.5,8.85,50.8,29,10.0,5.2,2.8,91.0,38.0,1.6,3,5,7,1,2026-07-13T05:27:34.532585+05:30
Coimbatore,Tamil Nadu,11.0168,76.9558,23.2,95,0.0,959.9,8.2,54.4,43,18.8,9.3,6.9,131.0,23.0,2.7,3,5,7,1,2026-07-13T05:27:34.532638+05:30
Madurai,Tamil Nadu,9.9252,78.1198,26.4,69,0.0,990.6,8.3,43.2,61,13.9,11.8,16.7,105.0,9.0,4.2,7,5,7,1,2026-07-13T05:27:34.532650+05:30
Trichy,Tamil Nadu,10.7905,78.7047,27.2,72,0.0,996.8,8.05,52.6,58,19.8,9.4,3.9,94.0,38.0,2.5,7,5,7,1,2026-07-13T05:27:34.532659+05:30
Salem,Tamil Nadu,11.6643,78.146,23.7,90,0.0,975.5,8.2,34.6,64,31.5,20.5,19.9,117.0,15.0,5.6,3,5,7,1,2026-07-13T05:27:34.532667+05:30
Tirunelveli,Tamil Nadu,8.7139,77.7567,27.4,68,0.0,1000.7,8.45,50.8,32,13.8,7.1,4.2,115.0,32.0,1.9,7,5,4,1,2026-07-13T05:27:34.532676+05:30
Vellore,Tamil Nadu,12.9165,79.1325,27.5,62,0.0,981.1,8.65,47.2,67,23.9,12.9,6.7,132.0,38.0,3.6,7,5,7,1,2026-07-13T05:27:34.532683+05:30
Erode,Tamil Nadu,11.341,77.7172,25.1,82,0.0,987.3,7.95,52.6,54,22.4,12.9,11.0,143.0,25.0,3.4,7,5,7,1,2026-07-13T05:27:34.532691+05:30
Kochi,Kerala,9.9312,76.2673,26.5,88,0.0,1008.5,8.3,46.1,46,18.0,10.4,6.6,91.0,24.0,2.7,7,0,4,1,2026-07-13T05:27:34.532699+05:30
Thiruvananthapuram,Kerala,8.5241,76.9366,24.4,95,0.0,1007.7,8.4,51.5,41,17.8,9.0,3.1,143.0,39.0,1.5,3,5,4,1,2026-07-13T05:27:34.532706+05:30
Kozhikode,Kerala,11.2588,75.7804,24.5,97,0.0,1007.8,8.55,45.4,40,22.2,9.3,1.5,122.0,44.0,1.1,3,5,4,1,2026-07-13T05:27:34.532712+05:30
Thrissur,Kerala,10.5276,76.2144,25.0,91,0.0,1006.9,8.15,46.4,44,18.6,10.2,5.1,159.0,29.0,2.3,7,5,4,1,2026-07-13T05:27:34.532720+05:30
Kannur,Kerala,11.8745,75.3704,24.9,98,0.0,1007.1,8.6,46.4,43,21.9,10.9,3.6,128.0,31.0,1.8,3,5,4,1,2026-07-13T05:27:34.532727+05:30
Patna,Bihar,25.5941,85.1376,26.6,96,0.0,991.3,7.5,21.2,148,123.9,86.4,36.8,235.0,18.0,11.6,7,5,7,1,2026-07-13T05:27:34.532734+05:30
Gaya,Bihar,24.7914,85.0002,28.7,77,0.0,984.7,6.25,28.1,125,70.3,50.5,19.6,212.0,32.0,11.6,7,5,7,1,2026-07-13T05:27:34.532741+05:30
Muzaffarpur,Bihar,26.1209,85.3647,26.9,98,0.1,991.0,7.95,26.3,145,91.0,62.4,25.4,317.0,36.0,8.5,10,5,7,1,2026-07-13T05:27:34.532748+05:30
Bhagalpur,Bihar,25.2425,87.0117,27.0,95,0.0,992.2,8.0,25.6,131,78.9,56.5,29.2,369.0,17.0,7.4,7,5,7,1,2026-07-13T05:27:34.532755+05:30
Ranchi,Jharkhand,23.3441,85.3096,25.5,79,0.0,930.1,8.1,31.0,101,76.8,46.4,15.5,212.0,42.0,16.6,7,5,7,1,2026-07-13T05:27:34.532762+05:30
Jamshedpur,Jharkhand,22.8046,86.2029,26.6,91,0.0,982.3,8.65,27.4,121,61.9,43.9,18.9,209.0,49.0,26.3,7,5,7,1,2026-07-13T05:27:34.532769+05:30
Dhanbad,Jharkhand,23.7957,86.4304,27.1,91,0.0,971.2,3.9,20.9,156,125.3,92.9,53.4,274.0,11.0,139.5,7,5,3,1,2026-07-13T05:27:34.532776+05:30
Bokaro,Jharkhand,23.6693,86.1511,27.5,83,0.0,975.1,4.6,24.8,153,106.4,78.9,35.0,205.0,24.0,115.6,7,5,3,1,2026-07-13T05:27:34.532783+05:30
Bhubaneswar,Odisha,20.2961,85.8245,28.4,82,0.0,994.3,4.0,26.6,108,53.8,34.2,9.0,265.0,57.0,5.6,7,5,3,1,2026-07-13T05:27:34.532789+05:30
Cuttack,Odisha,20.4625,85.8828,28.7,83,0.0,996.1,4.9,27.7,108,53.8,34.2,9.0,256.0,57.0,5.6,7,5,3,1,2026-07-13T05:27:34.532797+05:30
Rourkela,Odisha,22.2604,84.8536,27.2,80,0.0,977.2,8.45,23.4,100,54.7,35.4,18.7,276.0,32.0,17.1,7,5,7,1,2026-07-13T05:27:34.532803+05:30
Raipur,Chhattisgarh,21.2514,81.6296,26.5,79,0.0,968.1,8.05,37.8,98,65.0,40.9,33.5,484.0,26.0,51.8,7,5,7,1,2026-07-13T05:27:34.532810+05:30
Bhilai,Chhattisgarh,21.1938,81.3509,26.2,80,0.0,968.6,8.5,39.2,93,64.0,38.2,25.6,645.0,31.0,38.5,7,5,7,1,2026-07-13T05:27:34.532816+05:30
Guwahati,Assam,26.1158,91.7086,25.9,99,0.2,993.0,2.7,23.8,50,10.2,9.6,5.7,264.0,52.0,2.2,10,5,3,1,2026-07-13T05:27:34.532823+05:30
Agartala,Tripura,23.8315,91.2868,25.3,97,0.0,998.3,2.85,31.0,78,20.4,17.0,6.8,185.0,83.0,2.6,7,5,3,1,2026-07-13T05:27:34.532830+05:30
Shillong,Meghalaya,25.5788,91.8933,20.1,98,0.0,851.0,3.6,26.3,33,1.3,1.1,2.9,242.0,69.0,3.7,3,5,3,1,2026-07-13T05:27:34.532836+05:30
Imphal,Manipur,24.817,93.9368,23.0,98,0.0,917.2,5.1,20.2,52,13.6,13.0,7.9,284.0,34.0,2.3,3,5,3,1,2026-07-13T05:27:34.532842+05:30
Aizawl,Mizoram,23.7271,92.7176,20.2,95,0.0,886.0,3.65,22.0,56,22.8,15.4,5.4,160.0,20.0,1.6,3,5,3,1,2026-07-13T05:27:34.532849+05:30
Kohima,Nagaland,25.6701,94.1077,20.9,97,0.1,850.4,7.6,24.5,29,7.5,6.9,6.7,202.0,29.0,1.1,6,5,7,1,2026-07-13T05:27:34.532855+05:30
Gangtok,Sikkim,27.3314,88.6138,19.2,97,0.3,831.7,2.7,25.2,49,2.4,2.4,2.9,324.0,102.0,0.4,6,10,3,1,2026-07-13T05:27:34.532862+05:30
Siliguri,West Bengal,26.7271,88.3953,25.5,97,0.1,983.8,1.25,31.3,44,7.6,7.5,8.2,334.0,77.0,2.4,10,5,3,1,2026-07-13T05:27:37.870406+05:30
Durgapur,West Bengal,23.5204,87.3119,27.0,95,0.0,986.1,8.0,27.4,152,65.4,54.5,35.8,382.0,29.0,44.5,7,5,7,1,2026-07-13T05:27:37.870438+05:30
Asansol,West Bengal,23.6739,86.9524,27.3,96,0.0,984.8,7.25,24.8,145,84.3,62.4,47.4,1081.0,12.0,55.2,7,5,7,1,2026-07-13T05:27:37.870450+05:30
Pondicherry,Puducherry,11.9139,79.8145,29.2,61,0.0,1004.7,8.15,48.2,64,19.2,13.6,12.7,146.0,37.0,5.8,7,5,4,1,2026-07-13T05:27:37.870458+05:30
Port Blair,Andaman and Nicobar Islands,11.6234,92.7265,26.0,89,0.1,1004.3,8.75,58.0,49,23.0,9.7,0.1,87.0,51.0,0.3,10,5,4,1,2026-07-13T05:27:37.870467+05:30
Haridwar,Uttarakhand,29.9457,78.1642,25.2,99,0.0,963.6,7.5,23.8,172,315.7,155.1,61.0,305.0,22.0,20.6,7,5,7,1,2026-07-13T05:27:37.870475+05:30
Rishikesh,Uttarakhand,30.0869,78.2676,24.3,95,0.0,956.2,7.6,27.7,160,200.2,77.3,6.3,257.0,115.0,11.7,3,5,7,1,2026-07-13T05:27:37.870482+05:30
Nainital,Uttarakhand,29.3919,79.4542,14.8,98,0.0,797.1,8.5,35.6,159,156.9,63.1,14.5,277.0,75.0,5.1,3,10,7,0,2026-07-13T05:27:37.870490+05:30
Mussoorie,Uttarakhand,30.4599,78.0664,14.8,100,0.0,794.8,8.0,43.2,157,163.9,74.3,12.5,247.0,97.0,11.8,3,10,7,0,2026-07-13T05:27:37.870498+05:30
Dharamshala,Himachal Pradesh,32.219,76.3234,21.4,72,0.0,861.7,8.25,36.0,63,21.3,16.2,10.4,218.0,34.0,0.2,3,5,7,1,2026-07-13T05:27:37.870505+05:30
Dalhousie,Himachal Pradesh,32.5387,75.971,15.0,89,0.0,796.7,8.65,31.7,96,43.8,35.6,29.1,260.0,5.0,0.8,3,10,7,0,2026-07-13T05:27:37.870513+05:30
Patiala,Punjab,30.3398,76.3869,27.0,92,0.0,968.0,7.55,24.5,171,156.0,104.3,49.3,501.0,21.0,8.6,7,5,7,1,2026-07-13T05:27:37.870520+05:30
Bhatinda,Punjab,30.211,74.9455,28.0,82,0.0,973.2,8.25,22.3,251,152.3,87.8,24.8,448.0,54.0,8.1,7,5,7,1,2026-07-13T05:27:37.870527+05:30
Rohtak,Haryana,28.8955,76.6066,28.0,77,0.0,971.8,7.65,28.1,1154,1020.7,169.5,17.4,259.0,38.0,2.8,7,5,7,1,2026-07-13T05:27:37.870535+05:30
Panipat,Haryana,29.3909,76.9635,27.4,82,0.0,970.3,7.55,25.2,1534,791.6,191.4,46.8,428.0,13.0,6.4,7,5,7,1,2026-07-13T05:27:37.870542+05:30
Mathura,Uttar Pradesh,27.4924,77.6737,29.0,69,0.0,977.1,7.85,34.2,875,739.5,111.8,18.2,212.0,37.0,4.8,7,5,7,1,2026-07-13T05:27:37.870549+05:30
Vrindavan,Uttar Pradesh,27.5823,77.7027,29.2,68,0.0,977.4,7.9,33.1,875,739.5,111.8,18.2,206.0,37.0,4.8,7,5,7,1,2026-07-13T05:27:37.870556+05:30
Ayodhya,Uttar Pradesh,26.7922,82.1998,27.7,88,0.0,985.2,8.35,33.8,125,66.4,40.2,16.1,513.0,47.0,7.6,7,5,7,1,2026-07-13T05:27:37.870562+05:30
Ratlam,Madhya Pradesh,23.3315,75.0367,23.7,94,0.0,948.7,8.45,52.2,65,18.2,10.6,7.2,117.0,35.0,7.9,3,5,7,1,2026-07-13T05:27:37.870570+05:30
Sagar,Madhya Pradesh,23.8388,78.7378,25.4,83,0.0,944.0,8.6,47.5,82,37.6,24.2,5.8,165.0,57.0,5.5,7,5,7,1,2026-07-13T05:27:37.870576+05:30
Satna,Madhya Pradesh,24.6005,80.8322,27.2,76,0.0,963.6,8.65,41.8,85,50.1,30.2,6.1,173.0,60.0,4.0,7,5,7,1,2026-07-13T05:27:37.870583+05:30
Akola,Maharashtra,20.7002,77.0082,26.1,79,0.0,970.5,8.3,48.2,65,20.4,10.7,8.0,109.0,35.0,8.3,7,5,7,1,2026-07-13T05:27:37.870611+05:30
Amravati,Maharashtra,20.9374,77.7796,25.8,78,0.0,962.3,8.05,54.4,67,20.8,11.3,8.1,122.0,37.0,8.9,7,5,7,1,2026-07-13T05:27:37.870622+05:30
Latur,Maharashtra,18.4088,76.5604,22.7,87,0.0,936.0,8.85,43.6,52,19.0,8.7,5.1,118.0,33.0,3.0,3,5,7,1,2026-07-13T05:27:37.870629+05:30
Nanded,Maharashtra,19.1383,77.3091,25.3,78,0.0,964.7,8.85,41.4,61,20.5,10.7,5.9,115.0,33.0,3.2,7,5,7,1,2026-07-13T05:27:37.870636+05:30
Gulbarga,Karnataka,17.3297,76.8343,23.5,84,0.0,955.5,8.8,49.3,52,16.8,9.0,5.9,112.0,31.0,2.9,3,5,7,1,2026-07-13T05:27:37.870643+05:30
Bidar,Karnataka,17.9104,77.5199,23.0,83,0.0,931.6,8.9,45.4,57,22.9,11.2,5.0,112.0,34.0,2.1,3,5,7,1,2026-07-13T05:27:37.870649+05:30
Hospet,Karnataka,15.2689,76.3909,22.9,88,0.0,953.7,8.9,50.8,39,12.6,6.2,3.6,98.0,35.0,1.7,3,5,7,1,2026-07-13T05:27:37.870655+05:30
Tirupur,Tamil Nadu,11.1085,77.3411,24.4,87,0.0,973.7,8.3,59.4,57,26.2,15.3,13.6,121.0,18.0,3.8,3,5,7,1,2026-07-13T05:27:37.870662+05:30
Alappuzha,Kerala,9.4981,76.3388,25.8,96,0.1,1008.5,8.0,46.1,46,22.6,10.7,4.2,79.0,36.0,2.4,10,0,4,1,2026-07-13T05:27:37.870669+05:30
Munnar,Kerala,10.0889,77.0595,16.6,99,0.0,855.3,8.6,37.1,29,6.2,3.4,4.8,85.0,22.0,1.3,3,10,7,1,2026-07-13T05:27:37.870676+05:30
Silchar,Assam,24.8333,92.7789,26.6,97,0.1,997.5,0.9,17.6,77,48.0,33.4,11.9,230.0,53.0,8.3,10,5,3,1,2026-07-13T05:27:37.870683+05:30
Dibrugarh,Assam,27.4728,94.912,26.0,98,0.0,988.5,8.9,20.2,48,6.6,6.4,7.8,251.0,54.0,0.8,7,5,7,1,2026-07-13T05:27:37.870689+05:30
