city,state,latitude,longitude,temp,humidity,rain,pressure,uv_index,wind_gusts,aqi,pm10,pm2_5,no2,co,o3,so2,mosquito_risk,arthritis_risk,migraine_risk,frizz_risk,updated_at
Delhi,Delhi,28.6139,77.209,33.8,33,0.0,984.0,7.55,36.7,406,543.9,78.5,5.2,347.0,217.0,23.0,0,5,7,0,2026-05-08T13:23:09.352180+05:30
Mumbai,Maharashtra,19.076,72.8777,35.0,52,0.0,1006.6,7.85,47.2,91,94.3,48.1,9.3,322.0,209.0,37.6,0,5,4,1,2026-05-08T13:23:09.352236+05:30
Bangalore,Karnataka,12.9716,77.5946,33.1,33,0.0,911.5,9.45,45.0,55,8.6,7.7,2.7,229.0,95.0,4.6,0,5,7,0,2026-05-08T13:23:09.352253+05:30
Hyderabad,Telangana,17.385,78.4867,33.8,37,0.0,953.8,9.25,31.3,53,16.4,11.1,1.5,216.0,135.0,3.2,0,5,7,1,2026-05-08T13:23:09.352264+05:30
Chennai,Tamil Nadu,13.0827,80.2707,31.4,64,0.0,1006.1,7.6,36.7,22,3.9,2.8,2.0,138.0,53.0,5.1,3,5,4,1,2026-05-08T13:23:09.352275+05:30
Kolkata,West Bengal,22.5726,88.3639,31.9,69,0.0,1007.2,8.9,41.4,147,40.7,35.5,2.2,339.0,209.0,18.1,3,5,4,1,2026-05-08T13:23:09.352285+05:30
Pune,Maharashtra,18.5204,73.8567,36.2,21,0.0,947.7,8.45,34.6,115,65.7,31.1,1.0,193.0,178.0,9.7,0,5,10,0,2026-05-08T13:23:09.352294+05:30
Ahmedabad,Gujarat,23.0225,72.5714,41.5,13,0.0,1000.6,8.1,29.2,86,45.9,14.1,1.8,218.0,137.0,4.8,0,5,7,0,2026-05-08T13:23:09.352313+05:30
Jaipur,Rajasthan,26.9124,75.7873,36.0,25,0.0,959.7,8.1,40.3,153,204.0,39.8,1.4,238.0,155.0,5.2,0,5,10,0,2026-05-08T13:23:09.352322+05:30
Lucknow,Uttar Pradesh,26.8467,80.9462,32.7,40,0.0,995.1,8.05,28.4,97,60.3,24.7,1.1,311.0,184.0,7.8,0,5,7,1,2026-05-08T13:23:09.352331+05:30
Kanpur,Uttar Pradesh,26.4499,80.3319,33.8,35,0.0,993.1,8.05,27.4,141,277.5,42.5,1.3,286.0,192.0,9.1,0,5,7,1,2026-05-08T13:23:09.352339+05:30
Chandigarh,Chandigarh,30.7333,76.7794,32.3,30,0.0,971.2,7.6,38.2,90,191.4,40.2,1.6,253.0,202.0,7.6,0,5,7,0,2026-05-08T13:23:09.352348+05:30
Srinagar,Jammu and Kashmir,34.0837,74.7973,24.0,42,0.0,843.8,8.8,22.0,81,57.6,12.3,1.2,300.0,135.0,1.7,0,5,7,0,2026-05-08T13:23:09.352356+05:30
Jammu,Jammu and Kashmir,32.7266,74.857,31.9,35,0.0,975.1,8.35,34.9,100,212.8,45.1,0.8,270.0,189.0,10.0,0,5,7,0,2026-05-08T13:23:09.352365+05:30
Amritsar,Punjab,31.634,74.8723,34.0,31,0.0,982.6,8.25,31.3,142,488.0,78.0,1.1,275.0,185.0,11.2,0,5,7,0,2026-05-08T13:23:09.352374+05:30
Ludhiana,Punjab,30.901,75.8573,33.0,33,0.0,980.4,7.8,30.2,215,618.4,82.7,1.2,272.0,194.0,8.6,0,5,7,0,2026-05-08T13:23:09.352382+05:30
Jalandhar,Punjab,31.326,75.5762,32.7,35,0.0,981.8,8.0,31.3,144,448.0,69.8,1.1,278.0,191.0,10.4,0,5,7,0,2026-05-08T13:23:09.352390+05:30
Dehradun,Uttarakhand,30.6284,78.0322,20.2,54,0.0,834.0,5.7,22.7,64,28.6,13.1,1.0,198.0,162.0,1.3,0,5,3,0,2026-05-08T13:23:09.352400+05:30
Shimla,Himachal Pradesh,31.1048,77.1734,16.2,59,0.0,787.7,7.45,25.9,93,75.9,25.6,1.0,203.0,175.0,4.5,0,5,7,0,2026-05-08T13:23:09.352407+05:30
Manali,Himachal Pradesh,32.2396,77.1887,16.4,65,0.0,820.1,9.9,34.6,66,33.8,6.5,0.4,166.0,155.0,0.3,3,5,7,0,2026-05-08T13:23:09.352415+05:30
Gurgaon,Haryana,28.4595,77.0266,33.8,32,0.0,982.2,7.65,40.3,1868,1937.2,195.6,3.2,299.0,201.0,17.5,0,5,7,0,2026-05-08T13:23:09.352422+05:30
Noida,Uttar Pradesh,28.5355,77.391,33.2,36,0.0,985.6,7.6,34.9,1868,1937.2,195.6,3.2,295.0,201.0,17.5,0,5,7,1,2026-05-08T13:23:09.352429+05:30
Ghaziabad,Uttar Pradesh,28.6692,77.4538,33.2,36,0.0,984.1,7.55,37.4,166,348.3,50.9,2.1,257.0,189.0,8.3,0,5,7,0,2026-05-08T13:23:09.352436+05:30
Faridabad,Haryana,28.4089,77.3178,33.0,36,0.0,984.6,7.6,37.4,1868,1937.2,195.6,3.2,285.0,201.0,17.5,0,5,7,0,2026-05-08T13:23:09.352443+05:30
Meerut,Uttar Pradesh,28.9845,77.7064,31.5,43,0.0,983.4,7.5,38.2,166,348.3,50.9,2.1,280.0,189.0,8.3,0,5,7,1,2026-05-08T13:23:09.352451+05:30
Agra,Uttar Pradesh,27.1767,78.0081,33.8,34,0.0,988.0,7.9,32.4,1197,1099.0,109.2,1.1,287.0,185.0,10.6,0,5,7,0,2026-05-08T13:23:09.352457+05:30
Varanasi,Uttar Pradesh,25.3176,82.9739,35.2,31,0.0,998.6,8.55,28.1,95,52.9,27.5,1.3,327.0,201.0,10.2,0,5,10,0,2026-05-08T13:23:09.352465+05:30
Prayagraj,Uttar Pradesh,25.4358,81.8463,35.8,29,0.0,997.1,8.45,32.0,88,52.2,26.2,1.7,295.0,196.0,8.6,0,5,10,0,2026-05-08T13:23:09.352474+05:30
Gorakhpur,Uttar Pradesh,26.7606,83.3732,32.0,41,0.0,999.9,8.4,28.1,102,54.4,24.8,1.3,349.0,183.0,5.3,0,5,7,1,2026-05-08T13:23:09.352481+05:30
Bareilly,Uttar Pradesh,28.367,79.4304,32.0,41,0.0,989.0,7.85,34.9,85,149.9,34.1,2.1,270.0,189.0,10.8,0,5,7,1,2026-05-08T13:23:09.352488+05:30
Aligarh,Uttar Pradesh,27.8974,78.088,33.8,33,0.0,986.7,7.75,36.4,720,871.7,90.6,1.3,250.0,185.0,10.5,0,5,7,0,2026-05-08T13:23:09.352494+05:30
Moradabad,Uttar Pradesh,28.8386,78.7733,31.4,43,0.0,986.1,7.65,37.1,89,60.3,23.2,2.0,274.0,195.0,12.3,0,5,7,1,2026-05-08T13:23:09.352501+05:30
Saharanpur,Uttar Pradesh,29.9637,77.546,30.6,42,0.0,978.3,7.25,36.0,109,105.2,26.7,1.2,274.0,187.0,6.5,0,5,7,0,2026-05-08T13:23:09.352507+05:30
Jhansi,Uttar Pradesh,25.4484,78.5685,37.2,24,0.0,978.3,8.35,24.1,80,38.3,25.2,2.0,236.0,190.0,22.0,0,5,10,0,2026-05-08T13:23:12.582177+05:30
Surat,Gujarat,21.1702,72.8311,37.3,42,0.0,1005.6,7.7,33.5,128,82.9,49.1,47.5,558.0,75.0,118.7,0,5,7,1,2026-05-08T13:23:12.582213+05:30
Vadodara,Gujarat,22.3072,73.1812,40.8,15,0.0,1003.0,8.05,28.8,93,51.9,21.2,3.6,269.0,176.0,14.8,0,5,7,0,2026-05-08T13:23:12.582223+05:30
Rajkot,Gujarat,22.3039,70.8022,40.8,14,0.0,993.3,7.7,47.5,57,54.8,18.2,1.8,157.0,138.0,8.5,0,5,10,0,2026-05-08T13:23:12.582232+05:30
Thane,Maharashtra,19.2183,72.9781,40.7,22,0.0,1005.4,7.85,43.2,91,94.3,48.1,9.3,206.0,209.0,37.6,0,5,7,0,2026-05-08T13:23:12.582240+05:30
Nagpur,Maharashtra,21.1458,79.0882,38.3,22,0.0,973.6,8.9,32.0,139,35.9,25.7,5.1,221.0,239.0,22.6,0,5,10,0,2026-05-08T13:23:12.582247+05:30
Nashik,Maharashtra,19.9975,73.7898,36.5,19,0.0,945.8,8.15,42.8,97,69.6,22.2,1.0,180.0,144.0,3.2,0,5,10,0,2026-05-08T13:23:12.582255+05:30
Aurangabad,Maharashtra,19.8762,75.3433,37.6,20,0.0,944.7,9.05,31.7,85,59.0,27.2,1.0,212.0,171.0,11.2,0,5,10,0,2026-05-08T13:23:12.582262+05:30
Solapur,Maharashtra,17.6599,75.9064,37.9,25,0.0,956.9,9.05,37.4,88,30.3,18.7,1.1,199.0,150.0,4.3,0,5,10,0,2026-05-08T13:23:12.582270+05:30
Kolhapur,Maharashtra,16.705,74.2433,36.8,26,0.0,947.3,8.95,51.8,135,47.6,30.7,0.7,235.0,167.0,4.9,0,5,10,0,2026-05-08T13:23:12.582277+05:30
Goa,Goa,15.2993,74.124,39.8,29,0.0,994.3,8.85,42.8,111,51.1,28.5,1.7,245.0,158.0,5.3,0,5,10,1,2026-05-08T13:23:12.582284+05:30
Jodhpur,Rajasthan,26.2389,73.0243,40.3,15,0.0,981.9,8.3,38.9,130,178.8,32.0,0.7,157.0,131.0,2.9,0,5,10,0,2026-05-08T13:23:12.582291+05:30
Udaipur,Rajasthan,24.5854,73.7125,38.5,11,0.0,946.7,8.75,32.4,65,58.2,14.1,0.4,155.0,134.0,2.7,0,5,10,0,2026-05-08T13:23:12.582298+05:30
Kota,Rajasthan,25.2138,75.8648,40.3,15,0.0,977.7,8.35,38.9,73,54.2,18.7,1.1,184.0,153.0,4.1,0,5,10,0,2026-05-08T13:23:12.582305+05:30
Bikaner,Rajasthan,28.0229,73.3119,38.9,17,0.0,981.0,8.25,32.4,63,126.2,33.3,0.9,206.0,167.0,11.0,0,5,10,0,2026-05-08T13:23:12.582312+05:30
Ajmer,Rajasthan,26.4499,74.6399,38.3,15,0.0,954.3,8.25,55.8,64,75.7,21.2,0.6,153.0,131.0,3.4,0,5,10,0,2026-05-08T13:23:12.582318+05:30
Gwalior,Madhya Pradesh,26.2183,78.1828,34.3,35,0.0,983.1,8.15,62.3,88,35.4,23.6,1.2,227.0,179.0,11.5,0,5,7,1,2026-05-08T13:23:12.582325+05:30
Indore,Madhya Pradesh,22.7196,75.8577,39.2,12,0.0,948.6,8.65,31.0,76,51.0,17.0,0.8,200.0,162.0,4.5,0,5,10,0,2026-05-08T13:23:12.582331+05:30
Bhopal,Madhya Pradesh,23.2599,77.4126,39.3,16,0.0,954.1,8.65,38.9,79,38.0,20.4,0.7,194.0,163.0,6.3,0,5,10,0,2026-05-08T13:23:12.582338+05:30
Jabalpur,Madhya Pradesh,23.1815,79.9864,38.5,16,0.0,962.2,8.8,35.3,92,31.2,17.9,0.9,216.0,179.0,6.9,0,5,10,0,2026-05-08T13:23:12.582344+05:30
Ujjain,Madhya Pradesh,23.1765,75.7885,39.9,12,0.0,953.8,8.55,26.6,75,55.5,18.8,0.6,193.0,158.0,4.6,0,5,10,0,2026-05-08T13:23:12.582351+05:30
Visakhapatnam,Andhra Pradesh,17.6868,83.2185,33.4,55,0.0,1003.6,9.15,35.6,64,19.4,14.9,14.2,704.0,50.0,19.5,0,5,4,1,2026-05-08T13:23:12.582357+05:30
Vijayawada,Andhra Pradesh,16.5062,80.648,37.8,39,0.0,1001.5,9.2,39.6,51,12.1,8.0,1.1,163.0,79.0,4.0,0,5,7,1,2026-05-08T13:23:12.582364+05:30
Guntur,Andhra Pradesh,16.3067,80.4365,38.2,37,0.0,1002.6,9.2,41.4,51,12.6,8.9,1.1,191.0,89.0,4.1,0,5,7,1,2026-05-08T13:23:12.582370+05:30
Nellore,Andhra Pradesh,14.4426,79.9865,34.0,54,0.0,1004.9,9.1,42.5,23,6.1,4.3,0.8,123.0,64.0,1.7,0,5,4,1,2026-05-08T13:23:12.582378+05:30
Kurnool,Andhra Pradesh,15.8281,78.0373,38.5,26,0.0,975.8,9.15,52.6,37,11.4,7.1,0.7,162.0,100.0,0.9,0,5,10,0,2026-05-08T13:23:12.582385+05:30
Kakinada,Andhra Pradesh,16.9891,82.2475,32.0,63,0.0,1007.4,9.15,40.7,27,9.1,6.2,0.6,133.0,54.0,0.5,3,5,4,1,2026-05-08T13:23:12.582392+05:30
Tirupati,Andhra Pradesh,13.6288,79.4192,35.8,42,0.0,989.6,8.4,49.0,33,3.3,2.5,0.5,134.0,58.0,0.4,0,5,10,1,2026-05-08T13:23:12.582398+05:30
Warangal,Telangana,17.9689,79.5941,36.3,36,0.0,978.9,9.15,27.7,63,18.0,13.6,1.5,200.0,139.0,6.4,0,5,10,1,2026-05-08T13:23:12.582405+05:30
Nizamabad,Telangana,18.6725,78.0941,37.2,29,0.0,964.9,9.1,26.3,85,29.0,18.5,1.0,203.0,159.0,4.6,0,5,10,1,2026-05-08T13:23:12.582411+05:30
Mysore,Karnataka,12.2958,76.6396,32.5,42,0.0,927.5,8.9,32.4,77,14.3,11.6,1.4,213.0,119.0,3.7,0,5,7,1,2026-05-08T13:23:12.582418+05:30
Mangalore,Karnataka,12.9141,74.856,32.7,66,0.0,1003.4,9.0,37.8,77,45.4,28.4,1.5,210.0,156.0,3.3,3,5,4,1,2026-05-08T13:23:12.582424+05:30
Hubli-Dharwad,Karnataka,15.3647,75.124,36.0,28,0.0,940.2,9.1,39.6,86,17.5,12.1,1.1,182.0,143.0,3.2,0,5,10,0,2026-05-08T13:23:12.582431+05:30
Belgaum,Karnataka,15.8497,74.4977,34.9,27,0.0,925.7,9.15,39.6,97,27.4,19.0,1.4,225.0,154.0,4.7,0,5,7,0,2026-05-08T13:23:15.801197+05:30
Coimbatore,Tamil Nadu,11.0168,76.9558,31.4,56,0.0,960.1,9.15,31.0,66,15.4,13.7,1.3,220.0,120.0,6.4,0,5,7,1,2026-05-08T13:23:15.801234+05:30
Madurai,Tamil Nadu,9.9252,78.1198,34.7,47,0.0,990.5,8.5,36.0,52,9.4,9.2,2.1,189.0,96.0,4.7,0,5,7,1,2026-05-08T13:23:15.801246+05:30
Trichy,Tamil Nadu,10.7905,78.7047,35.8,45,0.0,997.2,8.55,43.2,47,9.7,9.4,5.3,170.0,71.0,15.6,0,5,10,1,2026-05-08T13:23:15.801255+05:30
Salem,Tamil Nadu,11.6643,78.146,33.7,49,0.0,975.3,7.6,35.3,66,10.2,9.8,2.6,189.0,100.0,11.7,0,5,7,1,2026-05-08T13:23:15.801262+05:30
Tirunelveli,Tamil Nadu,8.7139,77.7567,37.3,37,0.0,1000.3,8.55,37.4,55,5.3,4.9,0.9,192.0,95.0,1.6,0,5,7,1,2026-05-08T13:23:15.801270+05:30
Vellore,Tamil Nadu,12.9165,79.1325,35.7,42,0.0,982.8,7.05,47.2,41,7.0,6.6,2.0,141.0,87.0,5.8,0,5,10,1,2026-05-08T13:23:15.801278+05:30
Erode,Tamil Nadu,11.341,77.7172,33.5,52,0.0,987.0,9.0,33.8,55,19.7,19.1,2.3,227.0,118.0,9.9,0,5,7,1,2026-05-08T13:23:15.801285+05:30
Kochi,Kerala,9.9312,76.2673,30.8,73,0.0,1005.7,7.4,26.6,60,17.6,16.2,3.2,309.0,169.0,4.6,3,5,4,1,2026-05-08T13:23:15.801293+05:30
Thiruvananthapuram,Kerala,8.5241,76.9366,31.5,69,0.0,1005.5,8.3,21.6,51,14.7,12.4,1.7,245.0,150.0,3.9,3,5,4,1,2026-05-08T13:23:15.801300+05:30
Kozhikode,Kerala,11.2588,75.7804,31.5,74,0.0,1004.8,9.0,31.0,76,33.8,24.0,1.0,279.0,154.0,3.8,3,5,4,1,2026-05-08T13:23:15.801307+05:30
Thrissur,Kerala,10.5276,76.2144,33.4,58,0.1,1003.9,9.0,27.4,68,15.3,14.9,1.9,268.0,122.0,5.4,3,5,4,1,2026-05-08T13:23:15.801315+05:30
Kannur,Kerala,11.8745,75.3704,31.9,66,0.0,1004.3,8.95,40.0,76,44.2,27.5,1.4,249.0,144.0,2.4,3,5,4,1,2026-05-08T13:23:15.801322+05:30
Patna,Bihar,25.5941,85.1376,30.0,53,0.0,1002.8,8.45,25.6,120,63.8,33.5,1.7,337.0,210.0,11.1,4,5,4,1,2026-05-08T13:23:15.801329+05:30
Gaya,Bihar,24.7914,85.0002,33.5,38,0.0,995.4,8.75,31.7,118,60.3,39.5,2.2,392.0,217.0,16.8,0,5,7,1,2026-05-08T13:23:15.801336+05:30
Muzaffarpur,Bihar,26.1209,85.3647,31.1,48,0.0,1002.7,8.45,26.3,123,59.0,38.0,2.0,368.0,218.0,14.3,0,5,4,1,2026-05-08T13:23:15.801342+05:30
Bhagalpur,Bihar,25.2425,87.0117,32.9,40,0.0,1003.1,8.6,25.6,156,58.9,49.5,3.5,326.0,225.0,12.7,0,5,4,1,2026-05-08T13:23:15.801348+05:30
Ranchi,Jharkhand,23.3441,85.3096,31.2,34,0.0,939.7,9.2,40.7,100,45.3,25.4,1.4,227.0,194.0,17.3,0,5,7,0,2026-05-08T13:23:15.801355+05:30
Jamshedpur,Jharkhand,22.8046,86.2029,35.3,35,0.0,991.8,9.0,47.5,128,44.9,33.6,2.1,498.0,196.0,21.3,0,5,10,1,2026-05-08T13:23:15.801361+05:30
Dhanbad,Jharkhand,23.7957,86.4304,33.3,42,0.0,981.4,8.95,28.1,168,62.4,48.7,16.1,785.0,191.0,50.0,0,5,7,1,2026-05-08T13:23:15.801368+05:30
Bokaro,Jharkhand,23.6693,86.1511,32.9,43,0.0,985.0,8.95,36.4,162,58.6,36.7,10.4,1119.0,186.0,37.5,0,5,7,1,2026-05-08T13:23:15.801375+05:30
Bhubaneswar,Odisha,20.2961,85.8245,35.2,46,0.0,1002.8,9.1,36.0,47,16.9,11.8,1.3,175.0,104.0,4.7,0,5,7,1,2026-05-08T13:23:15.801381+05:30
Cuttack,Odisha,20.4625,85.8828,35.5,45,0.0,1004.6,9.15,33.1,47,16.9,11.8,1.3,188.0,104.0,4.7,0,5,7,1,2026-05-08T13:23:15.801388+05:30
Rourkela,Odisha,22.2604,84.8536,34.5,43,0.0,986.3,8.9,38.5,110,42.5,31.8,1.6,185.0,221.0,35.3,0,5,7,1,2026-05-08T13:23:15.801395+05:30
Raipur,Chhattisgarh,21.2514,81.6296,38.3,18,0.0,974.9,8.95,26.6,117,31.2,23.2,7.5,236.0,238.0,7.0,0,5,10,0,2026-05-08T13:23:15.801401+05:30
Bhilai,Chhattisgarh,21.1938,81.3509,38.0,18,0.0,975.4,8.95,28.1,98,30.3,22.0,8.0,449.0,217.0,5.4,0,5,10,0,2026-05-08T13:23:15.801407+05:30
Guwahati,Assam,26.1158,91.7086,31.0,51,0.0,1003.0,8.65,23.8,101,43.2,30.0,0.9,318.0,160.0,2.5,0,5,4,1,2026-05-08T13:23:15.801413+05:30
Agartala,Tripura,23.8315,91.2868,31.8,55,0.0,1007.3,8.85,19.8,155,42.3,31.9,3.0,304.0,215.0,3.5,0,5,4,1,2026-05-08T13:23:15.801420+05:30
Shillong,Meghalaya,25.5788,91.8933,23.0,47,0.0,859.9,7.7,20.2,81,39.0,23.5,0.8,250.0,153.0,1.8,0,5,7,0,2026-05-08T13:23:15.801426+05:30
Imphal,Manipur,24.817,93.9368,29.1,40,0.0,924.6,9.2,31.7,112,20.1,12.2,0.5,213.0,150.0,1.7,4,5,7,0,2026-05-08T13:23:15.801433+05:30
Aizawl,Mizoram,23.7271,92.7176,26.7,44,0.0,894.9,8.5,23.0,78,27.5,17.2,0.4,193.0,136.0,1.7,4,5,7,0,2026-05-08T13:23:15.801440+05:30
Kohima,Nagaland,25.6701,94.1077,22.4,72,0.1,858.1,9.15,29.5,87,27.3,18.3,0.5,243.0,141.0,1.4,6,5,7,1,2026-05-08T13:23:15.801446+05:30
Gangtok,Sikkim,27.3314,88.6138,18.3,61,0.0,840.4,8.95,35.3,72,22.8,16.0,0.4,239.0,137.0,1.1,3,5,7,0,2026-05-08T13:23:15.801453+05:30
Siliguri,West Bengal,26.7271,88.3953,29.6,49,0.1,995.8,8.6,23.8,115,37.4,25.8,0.8,317.0,156.0,2.4,7,5,7,1,2026-05-08T13:23:19.028227+05:30
Durgapur,West Bengal,23.5204,87.3119,31.8,62,0.0,996.5,8.85,31.7,164,65.2,57.7,13.1,354.0,203.0,54.9,3,5,7,1,2026-05-08T13:23:19.028264+05:30
Asansol,West Bengal,23.6739,86.9524,32.8,54,0.0,995.1,8.85,29.2,162,61.5,52.6,12.9,472.0,192.0,50.3,0,5,7,1,2026-05-08T13:23:19.028275+05:30
Pondicherry,Puducherry,11.9139,79.8145,29.5,75,0.0,1007.0,7.7,38.5,22,4.1,2.9,1.5,129.0,55.0,0.4,7,5,4,1,2026-05-08T13:23:19.028284+05:30
Port Blair,Andaman and Nicobar Islands,11.6234,92.7265,29.9,74,0.1,1005.3,9.1,38.2,34,7.4,5.8,0.4,127.0,72.0,1.3,10,5,4,1,2026-05-08T13:23:19.028292+05:30
Haridwar,Uttarakhand,29.9457,78.1642,31.3,36,0.0,976.6,7.4,29.9,97,69.6,21.3,1.1,227.0,185.0,4.9,0,5,7,0,2026-05-08T13:23:19.028300+05:30
Rishikesh,Uttarakhand,30.0869,78.2676,30.2,37,0.0,969.3,7.45,19.1,83,51.0,17.3,0.8,218.0,178.0,3.3,0,5,7,0,2026-05-08T13:23:19.028308+05:30
Nainital,Uttarakhand,29.3919,79.4542,18.4,50,0.0,808.9,8.2,30.2,75,31.1,10.4,0.6,213.0,153.0,1.1,0,5,7,0,2026-05-08T13:23:19.028315+05:30
Mussoorie,Uttarakhand,30.4599,78.0664,18.2,55,0.0,806.4,6.15,24.8,92,44.8,19.8,1.1,219.0,176.0,3.4,0,5,7,0,2026-05-08T13:23:19.028322+05:30
Dharamshala,Himachal Pradesh,32.219,76.3234,20.7,65,0.0,871.8,8.2,30.2,56,44.9,18.5,0.6,243.0,154.0,4.2,3,5,7,0,2026-05-08T13:23:19.028329+05:30
Dalhousie,Himachal Pradesh,32.5387,75.971,17.7,67,0.0,807.7,8.45,37.8,81,78.0,31.2,1.3,252.0,195.0,12.0,3,5,7,0,2026-05-08T13:23:19.028337+05:30
Patiala,Punjab,30.3398,76.3869,32.0,36,0.0,980.2,7.5,38.5,784,935.0,104.3,1.7,250.0,200.0,10.4,0,5,7,0,2026-05-08T13:23:19.028345+05:30
Bhatinda,Punjab,30.211,74.9455,35.7,27,0.0,984.7,8.1,35.3,851,646.3,100.6,2.6,280.0,202.0,21.3,0,5,10,0,2026-05-08T13:23:19.028352+05:30
Rohtak,Haryana,28.8955,76.6066,34.1,34,0.0,982.8,7.6,37.4,818,864.3,109.9,3.2,381.0,224.0,21.9,0,5,7,0,2026-05-08T13:23:19.028358+05:30
Panipat,Haryana,29.3909,76.9635,32.4,38,0.0,982.4,7.45,38.5,1415,1270.3,129.0,3.7,279.0,217.0,21.2,0,5,7,1,2026-05-08T13:23:19.028365+05:30
Mathura,Uttar Pradesh,27.4924,77.6737,34.2,31,0.0,987.3,7.85,35.6,1240,1274.0,125.7,1.0,275.0,183.0,8.8,0,5,7,0,2026-05-08T13:23:19.028372+05:30
Vrindavan,Uttar Pradesh,27.5823,77.7027,34.2,31,0.0,987.8,7.85,36.0,1240,1274.0,125.7,1.0,266.0,183.0,8.8,0,5,7,0,2026-05-08T13:23:19.028379+05:30
Ayodhya,Uttar Pradesh,26.7922,82.1998,31.6,40,0.0,998.0,8.2,28.8,97,67.5,24.1,0.7,266.0,175.0,5.1,0,5,7,1,2026-05-08T13:23:19.028387+05:30
Ratlam,Madhya Pradesh,23.3315,75.0367,39.3,14,0.0,954.8,8.5,26.3,74,51.0,17.8,0.6,168.0,162.0,6.5,0,5,10,0,2026-05-08T13:23:19.028394+05:30
Sagar,Madhya Pradesh,23.8388,78.7378,36.3,19,0.0,951.7,8.65,36.4,82,37.8,16.5,0.6,169.0,168.0,6.5,0,5,10,0,2026-05-08T13:23:19.028401+05:30
Satna,Madhya Pradesh,24.6005,80.8322,34.8,23,0.0,972.8,8.7,42.8,78,39.8,22.6,1.7,224.0,197.0,13.7,0,5,7,0,2026-05-08T13:23:19.028407+05:30
Akola,Maharashtra,20.7002,77.0082,39.0,21,0.0,975.0,8.85,26.3,87,44.5,24.5,1.2,201.0,169.0,8.7,0,5,10,0,2026-05-08T13:23:19.028415+05:30
Amravati,Maharashtra,20.9374,77.7796,38.2,23,0.0,967.7,8.85,27.0,90,37.8,22.2,1.4,201.0,169.0,6.4,0,5,10,0,2026-05-08T13:23:19.028422+05:30
Latur,Maharashtra,18.4088,76.5604,36.9,25,0.0,940.4,9.05,27.0,89,34.0,19.8,0.9,198.0,150.0,3.0,0,5,10,0,2026-05-08T13:23:19.028428+05:30
Nanded,Maharashtra,19.1383,77.3091,38.0,27,0.0,968.6,8.95,25.9,85,32.5,19.7,0.7,205.0,156.0,4.2,0,5,10,0,2026-05-08T13:23:19.028435+05:30
Gulbarga,Karnataka,17.3297,76.8343,37.0,28,0.0,958.7,9.05,32.8,67,23.9,15.5,1.3,192.0,143.0,4.2,0,5,10,0,2026-05-08T13:23:19.028440+05:30
Bidar,Karnataka,17.9104,77.5199,35.2,32,0.0,936.4,9.1,27.4,79,27.6,17.1,1.1,192.0,152.0,3.6,0,5,10,0,2026-05-08T13:23:19.028447+05:30
Hospet,Karnataka,15.2689,76.3909,33.2,39,0.0,955.2,9.2,36.4,66,16.3,11.9,3.6,168.0,122.0,8.7,0,5,7,1,2026-05-08T13:23:19.028453+05:30
Tirupur,Tamil Nadu,11.1085,77.3411,32.5,52,0.0,973.5,9.05,40.7,65,19.7,18.9,2.0,212.0,130.0,9.7,0,5,7,1,2026-05-08T13:23:19.028460+05:30
Alappuzha,Kerala,9.4981,76.3388,31.4,70,0.0,1006.0,8.95,31.3,55,21.0,18.2,3.1,213.0,174.0,7.1,3,5,4,1,2026-05-08T13:23:19.028467+05:30
Munnar,Kerala,10.0889,77.0595,21.9,75,0.1,856.4,9.45,24.5,46,7.3,6.9,1.0,169.0,89.0,2.5,6,5,7,1,2026-05-08T13:23:19.028474+05:30
Silchar,Assam,24.8333,92.7789,32.8,47,0.0,1005.3,6.75,22.7,123,32.1,21.2,0.9,249.0,159.0,3.2,0,5,4,1,2026-05-08T13:23:19.028481+05:30
Dibrugarh,Assam,27.4728,94.912,30.6,54,0.0,996.7,8.8,50.0,82,36.2,23.6,1.0,254.0,147.0,1.4,0,5,7,1,2026-05-08T13:23:19.028487+05:30
