city,state,latitude,longitude,temp,humidity,rain,pressure,uv_index,wind_gusts,aqi,pm10,pm2_5,mosquito_risk,arthritis_risk,migraine_risk,frizz_risk,updated_at
Delhi,Delhi,28.6139,77.209,26.1,45,0.0,982.7,7.3,27.4,154,125.3,53.6,4,5,7,0,2026-04-15T08:17:52.925604+05:30
Mumbai,Maharashtra,19.076,72.8777,28.9,80,0.0,1008.3,8.0,20.2,108,65.0,28.6,7,0,4,1,2026-04-15T08:17:52.925637+05:30
Bangalore,Karnataka,12.9716,77.5946,25.4,79,0.0,912.9,9.65,27.7,69,29.7,26.4,7,5,7,1,2026-04-15T08:17:52.925651+05:30
Hyderabad,Telangana,17.385,78.4867,31.4,48,0.0,953.6,9.25,33.1,91,20.9,19.1,0,5,7,1,2026-04-15T08:17:52.925660+05:30
Chennai,Tamil Nadu,13.0827,80.2707,30.5,73,0.0,1007.8,9.35,33.5,32,9.5,7.1,3,5,4,1,2026-04-15T08:17:52.925667+05:30
Kolkata,West Bengal,22.5726,88.3639,29.5,81,0.0,1006.0,8.85,28.8,95,35.7,28.4,7,5,4,1,2026-04-15T08:17:52.925675+05:30
Pune,Maharashtra,18.5204,73.8567,28.9,37,0.0,948.8,8.6,40.3,72,77.5,38.4,4,5,7,0,2026-04-15T08:17:52.925685+05:30
Ahmedabad,Gujarat,23.0225,72.5714,27.8,63,0.0,1001.7,8.15,22.3,63,54.0,24.2,7,5,4,1,2026-04-15T08:17:52.925692+05:30
Jaipur,Rajasthan,26.9124,75.7873,29.8,32,0.0,959.3,7.95,28.4,141,542.0,78.5,4,5,7,0,2026-04-15T08:17:52.925699+05:30
Lucknow,Uttar Pradesh,26.8467,80.9462,27.0,52,0.0,992.4,7.8,24.8,97,129.5,43.7,4,5,7,1,2026-04-15T08:17:52.925706+05:30
Kanpur,Uttar Pradesh,26.4499,80.3319,26.2,60,0.0,990.7,7.8,21.6,159,166.2,44.4,4,5,7,1,2026-04-15T08:17:52.925712+05:30
Chandigarh,Chandigarh,30.7333,76.7794,23.2,58,0.0,967.8,7.25,31.0,53,18.0,17.6,0,5,7,0,2026-04-15T08:17:52.925719+05:30
Srinagar,Jammu and Kashmir,34.0837,74.7973,12.9,84,0.0,842.2,7.7,16.2,76,36.6,29.9,3,10,7,0,2026-04-15T08:17:52.925725+05:30
Jammu,Jammu and Kashmir,32.7266,74.857,23.4,69,0.0,971.9,7.95,33.1,60,24.3,21.9,3,5,7,1,2026-04-15T08:17:52.925732+05:30
Amritsar,Punjab,31.634,74.8723,22.4,63,0.0,980.3,7.85,26.6,90,55.9,53.6,3,5,7,0,2026-04-15T08:17:52.925738+05:30
Ludhiana,Punjab,30.901,75.8573,23.2,56,0.0,978.2,7.5,27.0,71,26.7,25.7,0,5,7,0,2026-04-15T08:17:52.925744+05:30
Jalandhar,Punjab,31.326,75.5762,22.3,63,0.0,979.3,7.65,25.9,63,36.6,29.4,3,5,7,0,2026-04-15T08:17:52.925752+05:30
Dehradun,Uttarakhand,30.6284,78.0322,16.7,49,0.0,829.9,7.65,29.2,35,8.6,7.2,0,5,7,0,2026-04-15T08:17:52.925758+05:30
Shimla,Himachal Pradesh,31.1048,77.1734,15.8,61,0.0,784.8,7.75,47.5,37,12.8,11.5,3,5,7,0,2026-04-15T08:17:52.925764+05:30
Manali,Himachal Pradesh,32.2396,77.1887,18.8,26,0.0,820.5,9.15,32.4,72,11.1,5.7,0,5,7,1,2026-04-15T08:17:52.925770+05:30
Gurgaon,Haryana,28.4595,77.0266,24.3,58,0.0,981.0,7.4,25.2,445,191.9,80.3,0,5,7,0,2026-04-15T08:17:52.925777+05:30
Noida,Uttar Pradesh,28.5355,77.391,26.5,46,0.0,984.1,7.35,27.7,445,191.9,80.3,4,5,7,0,2026-04-15T08:17:52.925783+05:30
Ghaziabad,Uttar Pradesh,28.6692,77.4538,25.0,51,0.0,982.1,7.3,26.6,115,44.1,36.4,4,5,7,0,2026-04-15T08:17:52.925791+05:30
Faridabad,Haryana,28.4089,77.3178,26.5,49,0.0,983.4,7.35,26.6,445,191.9,80.3,4,5,7,0,2026-04-15T08:17:52.925798+05:30
Meerut,Uttar Pradesh,28.9845,77.7064,23.8,57,0.0,980.7,7.2,30.2,115,44.1,36.4,0,5,7,0,2026-04-15T08:17:52.925803+05:30
Agra,Uttar Pradesh,27.1767,78.0081,27.0,50,0.0,987.0,7.65,19.4,299,299.9,85.0,4,5,7,0,2026-04-15T08:17:52.925809+05:30
Varanasi,Uttar Pradesh,25.3176,82.9739,28.4,41,0.0,996.3,8.4,21.2,101,63.3,31.5,4,5,7,0,2026-04-15T08:17:52.925817+05:30
Prayagraj,Uttar Pradesh,25.4358,81.8463,28.0,46,0.0,994.8,8.25,20.2,110,86.8,49.2,4,5,7,0,2026-04-15T08:17:52.925824+05:30
Gorakhpur,Uttar Pradesh,26.7606,83.3732,25.9,64,0.0,996.5,8.2,26.6,85,80.1,48.8,7,5,7,1,2026-04-15T08:17:52.925830+05:30
Bareilly,Uttar Pradesh,28.367,79.4304,23.6,63,0.0,985.9,7.55,29.2,64,35.6,24.5,3,5,7,1,2026-04-15T08:17:52.925838+05:30
Aligarh,Uttar Pradesh,27.8974,78.088,26.3,50,0.0,984.8,7.45,28.8,172,144.4,43.4,4,5,7,0,2026-04-15T08:17:52.925844+05:30
Moradabad,Uttar Pradesh,28.8386,78.7733,23.0,60,0.0,982.6,7.35,29.9,76,25.7,24.2,0,5,7,0,2026-04-15T08:17:52.925849+05:30
Saharanpur,Uttar Pradesh,29.9637,77.546,22.4,64,0.0,974.9,6.95,33.8,76,46.9,44.7,3,5,7,0,2026-04-15T08:17:52.925855+05:30
Jhansi,Uttar Pradesh,25.4484,78.5685,30.0,36,0.0,977.1,8.2,41.4,64,96.9,25.8,4,5,7,0,2026-04-15T08:17:56.137190+05:30
Surat,Gujarat,21.1702,72.8311,29.4,67,0.0,1006.5,7.8,28.4,101,67.5,39.2,7,5,4,1,2026-04-15T08:17:56.137218+05:30
Vadodara,Gujarat,22.3072,73.1812,28.5,55,0.0,1004.1,8.1,27.0,73,63.6,31.9,4,5,4,1,2026-04-15T08:17:56.137230+05:30
Rajkot,Gujarat,22.3039,70.8022,25.2,76,0.0,994.1,7.85,28.8,65,35.0,17.3,7,5,7,1,2026-04-15T08:17:56.137239+05:30
Thane,Maharashtra,19.2183,72.9781,28.2,81,0.0,1007.9,8.0,32.4,108,65.0,28.6,7,5,4,1,2026-04-15T08:17:56.137247+05:30
Nagpur,Maharashtra,21.1458,79.0882,28.8,48,0.0,972.9,8.85,32.4,83,36.6,32.6,4,5,7,1,2026-04-15T08:17:56.137255+05:30
Nashik,Maharashtra,19.9975,73.7898,27.0,36,0.0,945.9,8.3,35.3,64,66.1,25.8,4,5,7,0,2026-04-15T08:17:56.137263+05:30
Aurangabad,Maharashtra,19.8762,75.3433,28.4,40,0.0,944.5,8.95,32.0,60,46.8,19.7,4,5,7,0,2026-04-15T08:17:56.137271+05:30
Solapur,Maharashtra,17.6599,75.9064,30.1,42,0.0,957.6,9.05,28.4,64,22.2,17.5,0,5,7,0,2026-04-15T08:17:56.137279+05:30
Kolhapur,Maharashtra,16.705,74.2433,24.8,80,0.0,948.4,9.05,42.8,88,70.3,55.4,3,5,7,1,2026-04-15T08:17:56.137288+05:30
Goa,Goa,15.2993,74.124,29.3,79,0.0,998.4,9.0,31.3,89,57.9,31.5,7,5,7,1,2026-04-15T08:17:56.137296+05:30
Jodhpur,Rajasthan,26.2389,73.0243,30.2,30,0.0,982.0,8.15,23.8,74,89.4,22.9,0,5,7,0,2026-04-15T08:17:56.137303+05:30
Udaipur,Rajasthan,24.5854,73.7125,28.6,38,0.0,946.3,8.7,26.6,59,76.4,22.9,4,5,7,0,2026-04-15T08:17:56.137311+05:30
Kota,Rajasthan,25.2138,75.8648,28.4,41,0.0,977.5,8.2,27.0,54,32.4,15.4,4,5,7,0,2026-04-15T08:17:56.137318+05:30
Bikaner,Rajasthan,28.0229,73.3119,27.5,41,0.0,981.6,7.9,14.0,66,146.7,23.8,4,5,7,0,2026-04-15T08:17:56.137326+05:30
Ajmer,Rajasthan,26.4499,74.6399,28.3,40,0.0,953.8,8.15,27.7,53,249.6,40.9,4,5,7,0,2026-04-15T08:17:56.137333+05:30
Gwalior,Madhya Pradesh,26.2183,78.1828,29.5,43,0.0,981.9,7.95,32.4,109,135.0,36.6,4,5,7,0,2026-04-15T08:17:56.137340+05:30
Indore,Madhya Pradesh,22.7196,75.8577,27.0,51,0.0,948.1,8.55,28.4,57,32.0,19.0,4,5,7,0,2026-04-15T08:17:56.137348+05:30
Bhopal,Madhya Pradesh,23.2599,77.4126,28.4,43,0.0,953.8,8.55,29.5,60,18.9,13.2,4,5,7,0,2026-04-15T08:17:56.137356+05:30
Jabalpur,Madhya Pradesh,23.1815,79.9864,27.8,51,0.0,961.1,8.7,33.8,71,34.6,20.2,4,5,7,1,2026-04-15T08:17:56.137363+05:30
Ujjain,Madhya Pradesh,23.1765,75.7885,26.9,54,0.0,953.7,8.45,29.2,60,34.1,22.2,4,5,7,1,2026-04-15T08:17:56.137371+05:30
Visakhapatnam,Andhra Pradesh,17.6868,83.2185,29.1,76,0.0,1004.6,9.15,42.1,69,25.9,19.7,7,5,4,1,2026-04-15T08:17:56.137378+05:30
Vijayawada,Andhra Pradesh,16.5062,80.648,29.3,79,0.0,1003.1,9.2,29.5,52,10.7,8.1,7,5,4,1,2026-04-15T08:17:56.137385+05:30
Guntur,Andhra Pradesh,16.3067,80.4365,29.2,80,0.0,1004.3,9.2,31.7,53,10.5,8.2,7,5,4,1,2026-04-15T08:17:56.137392+05:30
Nellore,Andhra Pradesh,14.4426,79.9865,29.5,75,0.0,1006.1,9.3,34.2,46,12.3,11.6,7,5,4,1,2026-04-15T08:17:56.137400+05:30
Kurnool,Andhra Pradesh,15.8281,78.0373,33.4,34,0.0,977.2,9.2,25.9,85,22.4,20.8,0,5,7,0,2026-04-15T08:17:56.137409+05:30
Kakinada,Andhra Pradesh,16.9891,82.2475,29.8,74,0.0,1008.6,9.15,34.9,55,17.9,11.8,7,0,4,1,2026-04-15T08:17:56.137416+05:30
Tirupati,Andhra Pradesh,13.6288,79.4192,28.0,80,0.0,993.0,9.4,31.0,68,22.2,21.5,7,5,7,1,2026-04-15T08:17:56.137423+05:30
Warangal,Telangana,17.9689,79.5941,28.7,71,0.0,978.6,9.1,29.9,74,13.2,12.2,7,5,7,1,2026-04-15T08:17:56.137431+05:30
Nizamabad,Telangana,18.6725,78.0941,31.1,49,0.0,965.3,9.05,28.1,79,36.9,34.5,0,5,7,1,2026-04-15T08:17:56.137438+05:30
Mysore,Karnataka,12.2958,76.6396,25.7,78,0.0,929.5,9.55,42.1,75,17.3,15.5,7,5,7,1,2026-04-15T08:17:56.137445+05:30
Mangalore,Karnataka,12.9141,74.856,30.0,77,0.0,1006.8,9.15,24.8,71,31.3,19.2,7,5,4,1,2026-04-15T08:17:56.137453+05:30
Hubli-Dharwad,Karnataka,15.3647,75.124,25.2,83,0.0,941.7,9.2,41.0,67,29.6,21.4,7,5,7,1,2026-04-15T08:17:56.137461+05:30
Belgaum,Karnataka,15.8497,74.4977,23.9,88,0.0,926.3,9.25,39.6,75,50.8,32.7,3,5,7,1,2026-04-15T08:17:59.349346+05:30
Coimbatore,Tamil Nadu,11.0168,76.9558,28.1,73,0.0,963.0,9.45,49.7,78,25.0,21.0,7,5,7,1,2026-04-15T08:17:59.349373+05:30
Madurai,Tamil Nadu,9.9252,78.1198,29.1,76,0.0,994.3,9.35,39.6,64,31.1,28.9,7,5,7,1,2026-04-15T08:17:59.349385+05:30
Trichy,Tamil Nadu,10.7905,78.7047,29.4,77,0.0,1000.8,9.4,18.7,53,19.0,17.3,7,5,4,1,2026-04-15T08:17:59.349395+05:30
Salem,Tamil Nadu,11.6643,78.146,28.7,68,0.0,978.5,9.45,19.1,62,17.2,16.4,7,5,7,1,2026-04-15T08:17:59.349403+05:30
Tirunelveli,Tamil Nadu,8.7139,77.7567,30.0,67,0.0,1004.3,9.3,51.1,71,32.6,25.6,7,5,4,1,2026-04-15T08:17:59.349411+05:30
Vellore,Tamil Nadu,12.9165,79.1325,27.6,79,0.0,985.6,9.45,29.5,96,44.8,44.0,7,5,7,1,2026-04-15T08:17:59.349419+05:30
Erode,Tamil Nadu,11.341,77.7172,29.5,74,0.0,990.2,9.4,25.6,55,23.7,21.8,7,5,7,1,2026-04-15T08:17:59.349428+05:30
Kochi,Kerala,9.9312,76.2673,28.9,82,0.0,1009.0,9.2,32.8,96,43.9,37.5,7,0,4,1,2026-04-15T08:17:59.349435+05:30
Thiruvananthapuram,Kerala,8.5241,76.9366,28.5,86,0.0,1008.3,9.15,30.2,70,32.5,22.9,7,0,4,1,2026-04-15T08:17:59.349443+05:30
Kozhikode,Kerala,11.2588,75.7804,30.0,78,0.0,1008.2,9.15,29.5,82,31.5,19.8,7,0,4,1,2026-04-15T08:17:59.349451+05:30
Thrissur,Kerala,10.5276,76.2144,29.9,77,0.0,1007.4,9.2,35.3,97,46.0,37.4,7,5,4,1,2026-04-15T08:17:59.349460+05:30
Kannur,Kerala,11.8745,75.3704,29.7,81,0.0,1007.5,9.15,32.4,78,30.0,19.7,7,5,4,1,2026-04-15T08:17:59.349468+05:30
Patna,Bihar,25.5941,85.1376,26.2,66,0.0,999.7,8.55,22.7,128,67.8,51.1,7,5,7,1,2026-04-15T08:17:59.349476+05:30
Gaya,Bihar,24.7914,85.0002,27.8,52,0.0,992.8,8.6,18.0,91,46.7,20.9,4,5,7,1,2026-04-15T08:17:59.349484+05:30
Muzaffarpur,Bihar,26.1209,85.3647,26.0,81,0.0,1000.0,8.55,22.7,149,85.9,68.0,7,5,4,1,2026-04-15T08:17:59.349492+05:30
Bhagalpur,Bihar,25.2425,87.0117,27.0,82,0.0,1000.5,8.55,20.5,145,95.9,82.0,7,5,4,1,2026-04-15T08:17:59.349499+05:30
Ranchi,Jharkhand,23.3441,85.3096,26.6,38,0.0,938.4,9.15,31.3,65,73.8,23.9,4,5,7,0,2026-04-15T08:17:59.349508+05:30
Jamshedpur,Jharkhand,22.8046,86.2029,28.7,81,0.0,990.9,8.95,23.0,113,73.1,55.3,7,5,7,1,2026-04-15T08:17:59.349516+05:30
Dhanbad,Jharkhand,23.7957,86.4304,28.9,37,0.0,979.7,8.9,31.0,143,115.3,74.0,4,5,7,0,2026-04-15T08:17:59.349525+05:30
Bokaro,Jharkhand,23.6693,86.1511,29.1,40,0.0,983.7,8.9,37.1,132,90.6,54.7,4,5,7,0,2026-04-15T08:17:59.349533+05:30
Bhubaneswar,Odisha,20.2961,85.8245,29.6,78,0.0,1003.0,9.1,34.2,82,29.0,21.1,7,5,4,1,2026-04-15T08:17:59.349541+05:30
Cuttack,Odisha,20.4625,85.8828,29.4,80,0.0,1005.0,9.15,28.8,82,29.0,21.1,7,5,4,1,2026-04-15T08:17:59.349549+05:30
Rourkela,Odisha,22.2604,84.8536,29.4,76,0.0,985.4,8.9,25.2,85,78.9,41.3,7,5,7,1,2026-04-15T08:17:59.349557+05:30
Raipur,Chhattisgarh,21.2514,81.6296,30.5,43,0.0,974.5,8.95,42.8,143,68.0,59.4,0,5,7,1,2026-04-15T08:17:59.349565+05:30
Bhilai,Chhattisgarh,21.1938,81.3509,29.7,54,0.0,974.7,8.95,41.8,150,64.7,58.0,4,5,7,1,2026-04-15T08:17:59.349574+05:30
Guwahati,Assam,26.1158,91.7086,24.6,86,0.0,1003.0,8.45,30.2,131,47.5,37.3,3,5,4,1,2026-04-15T08:17:59.349582+05:30
Agartala,Tripura,23.8315,91.2868,27.9,84,0.0,1007.1,8.7,41.0,105,39.3,34.7,7,5,4,1,2026-04-15T08:17:59.349590+05:30
Shillong,Meghalaya,25.5788,91.8933,18.3,67,0.0,857.4,8.1,63.0,108,28.7,21.2,3,5,7,0,2026-04-15T08:17:59.349597+05:30
Imphal,Manipur,24.817,93.9368,19.8,87,0.0,924.9,9.05,70.2,131,55.6,45.6,3,10,7,1,2026-04-15T08:17:59.349603+05:30
Aizawl,Mizoram,23.7271,92.7176,22.6,74,0.0,894.8,8.9,51.8,119,48.4,37.1,3,5,7,1,2026-04-15T08:17:59.349610+05:30
Kohima,Nagaland,25.6701,94.1077,19.4,68,0.0,856.6,8.95,74.2,114,44.4,32.7,3,5,7,0,2026-04-15T08:17:59.349616+05:30
Gangtok,Sikkim,27.3314,88.6138,15.1,88,0.0,837.3,8.25,21.2,118,68.2,39.1,3,10,7,0,2026-04-15T08:17:59.349622+05:30
Siliguri,West Bengal,26.7271,88.3953,21.6,81,0.0,995.0,8.3,31.7,156,95.0,56.3,3,5,7,1,2026-04-15T08:18:02.564976+05:30
Durgapur,West Bengal,23.5204,87.3119,29.2,74,0.0,994.6,8.85,22.3,138,70.8,58.3,7,5,7,1,2026-04-15T08:18:02.565003+05:30
Asansol,West Bengal,23.6739,86.9524,29.3,65,0.0,993.1,8.85,21.6,116,88.5,60.1,7,5,7,1,2026-04-15T08:18:02.565012+05:30
Pondicherry,Puducherry,11.9139,79.8145,29.4,82,0.0,1009.4,9.3,26.6,31,10.5,8.1,7,0,4,1,2026-04-15T08:18:02.565019+05:30
Port Blair,Andaman and Nicobar Islands,11.6234,92.7265,29.2,71,0.0,1009.0,9.2,17.6,72,32.1,22.4,7,0,4,1,2026-04-15T08:18:02.565026+05:30
Haridwar,Uttarakhand,29.9457,78.1642,25.5,56,0.0,973.4,7.05,30.6,55,22.6,22.2,4,5,7,1,2026-04-15T08:18:02.565032+05:30
Rishikesh,Uttarakhand,30.0869,78.2676,25.3,52,0.0,966.3,7.15,31.0,40,14.0,13.3,4,5,7,0,2026-04-15T08:18:02.565039+05:30
Nainital,Uttarakhand,29.3919,79.4542,22.7,35,0.0,807.3,8.05,47.9,41,17.4,12.3,0,5,7,0,2026-04-15T08:18:02.565045+05:30
Mussoorie,Uttarakhand,30.4599,78.0664,18.7,47,0.0,802.8,7.55,34.9,53,20.2,19.7,0,5,7,0,2026-04-15T08:18:02.565051+05:30
Dharamshala,Himachal Pradesh,32.219,76.3234,21.9,52,0.0,868.6,7.8,22.7,43,7.9,5.1,0,5,7,0,2026-04-15T08:18:02.565056+05:30
Dalhousie,Himachal Pradesh,32.5387,75.971,18.7,42,0.0,803.4,8.0,23.8,53,13.5,9.9,0,5,7,0,2026-04-15T08:18:02.565063+05:30
Patiala,Punjab,30.3398,76.3869,23.3,55,0.0,977.7,7.15,28.8,164,335.3,53.1,0,5,7,0,2026-04-15T08:18:02.565069+05:30
Bhatinda,Punjab,30.211,74.9455,25.5,47,0.0,983.7,7.85,30.2,57,27.0,21.8,4,5,7,0,2026-04-15T08:18:02.565075+05:30
Rohtak,Haryana,28.8955,76.6066,24.5,54,0.0,981.4,7.3,28.8,284,312.9,80.8,0,5,7,0,2026-04-15T08:18:02.565081+05:30
Panipat,Haryana,29.3909,76.9635,23.4,58,0.0,979.9,7.15,28.1,674,374.4,70.1,0,5,7,0,2026-04-15T08:18:02.565086+05:30
Mathura,Uttar Pradesh,27.4924,77.6737,26.7,50,0.0,986.1,7.6,24.1,220,227.7,63.6,4,5,7,0,2026-04-15T08:18:02.565092+05:30
Vrindavan,Uttar Pradesh,27.5823,77.7027,26.3,53,0.0,986.5,7.6,27.0,220,227.7,63.6,4,5,7,0,2026-04-15T08:18:02.565097+05:30
Ayodhya,Uttar Pradesh,26.7922,82.1998,27.9,37,0.0,994.6,7.95,30.2,80,115.0,36.4,4,5,7,0,2026-04-15T08:18:02.565103+05:30
Ratlam,Madhya Pradesh,23.3315,75.0367,25.7,69,0.0,954.1,8.4,28.8,52,40.3,22.2,7,5,7,1,2026-04-15T08:18:02.565109+05:30
Sagar,Madhya Pradesh,23.8388,78.7378,29.4,39,0.0,949.8,8.6,28.4,59,12.9,9.8,4,5,7,0,2026-04-15T08:18:02.565114+05:30
Satna,Madhya Pradesh,24.6005,80.8322,29.7,41,0.0,970.4,8.6,24.1,57,45.1,18.5,4,5,7,0,2026-04-15T08:18:02.565120+05:30
Akola,Maharashtra,20.7002,77.0082,28.7,52,0.0,975.3,8.75,32.8,56,24.1,16.6,4,5,7,1,2026-04-15T08:18:02.565126+05:30
Amravati,Maharashtra,20.9374,77.7796,27.9,55,0.0,967.3,8.8,28.1,59,20.0,15.2,4,5,7,1,2026-04-15T08:18:02.565132+05:30
Latur,Maharashtra,18.4088,76.5604,27.2,50,0.0,940.7,9.05,25.6,63,29.6,17.9,4,5,7,0,2026-04-15T08:18:02.565138+05:30
Nanded,Maharashtra,19.1383,77.3091,27.7,55,0.0,969.3,8.95,16.9,61,24.6,20.4,4,5,7,1,2026-04-15T08:18:02.565144+05:30
Gulbarga,Karnataka,17.3297,76.8343,32.2,44,0.0,959.1,9.1,20.2,97,34.1,31.5,0,5,7,1,2026-04-15T08:18:02.565149+05:30
Bidar,Karnataka,17.9104,77.5199,30.6,39,0.0,936.5,9.1,22.7,97,46.6,40.6,0,5,7,0,2026-04-15T08:18:02.565155+05:30
Hospet,Karnataka,15.2689,76.3909,26.8,78,0.0,956.6,9.25,28.4,101,19.9,16.2,7,5,7,1,2026-04-15T08:18:02.565161+05:30
Tirupur,Tamil Nadu,11.1085,77.3411,29.0,73,0.0,976.5,9.5,33.8,71,35.9,31.5,7,5,7,1,2026-04-15T08:18:02.565166+05:30
Alappuzha,Kerala,9.4981,76.3388,28.8,84,0.0,1009.1,9.2,29.5,97,49.0,40.3,7,0,4,1,2026-04-15T08:18:02.565172+05:30
Munnar,Kerala,10.0889,77.0595,24.8,60,0.0,858.6,9.75,36.7,78,28.1,25.0,0,5,7,1,2026-04-15T08:18:02.565178+05:30
Silchar,Assam,24.8333,92.7789,23.7,89,0.0,1007.6,8.7,37.1,151,44.9,35.6,3,5,4,1,2026-04-15T08:18:02.565183+05:30
Dibrugarh,Assam,27.4728,94.912,21.4,80,0.0,998.6,8.5,29.2,88,101.7,46.8,3,5,7,1,2026-04-15T08:18:02.565189+05:30
