city,state,latitude,longitude,temp,humidity,rain,pressure,uv_index,wind_gusts,aqi,pm10,pm2_5,mosquito_risk,arthritis_risk,migraine_risk,frizz_risk,updated_at
Delhi,Delhi,28.6139,77.209,31.8,37,0.0,983.7,5.9,40.0,153,469.4,65.9,0,5,3,0,2026-04-03T14:28:53.333050+05:30
Mumbai,Maharashtra,19.076,72.8777,28.2,74,0.0,1009.5,7.6,25.2,75,53.7,25.8,7,0,4,1,2026-04-03T14:28:53.333094+05:30
Bangalore,Karnataka,12.9716,77.5946,32.6,34,0.0,912.6,9.6,27.7,72,19.3,17.0,0,5,7,0,2026-04-03T14:28:53.333109+05:30
Hyderabad,Telangana,17.385,78.4867,36.0,28,0.0,953.7,8.85,22.7,70,25.4,18.1,0,5,10,0,2026-04-03T14:28:53.333119+05:30
Chennai,Tamil Nadu,13.0827,80.2707,34.4,44,0.0,1007.7,9.3,36.0,45,15.3,12.2,0,5,4,1,2026-04-03T14:28:53.333128+05:30
Kolkata,West Bengal,22.5726,88.3639,36.2,45,0.0,1004.3,8.7,20.9,67,39.0,31.3,0,5,7,1,2026-04-03T14:28:53.333137+05:30
Pune,Maharashtra,18.5204,73.8567,34.5,35,0.0,948.9,8.5,37.1,132,44.2,35.4,0,5,7,1,2026-04-03T14:28:53.333149+05:30
Ahmedabad,Gujarat,23.0225,72.5714,33.4,30,0.0,1002.8,7.25,42.5,63,65.7,18.2,0,5,4,0,2026-04-03T14:28:53.333157+05:30
Jaipur,Rajasthan,26.9124,75.7873,28.0,48,0.0,961.6,7.5,63.0,127,259.8,37.5,4,5,7,0,2026-04-03T14:28:53.333165+05:30
Lucknow,Uttar Pradesh,26.8467,80.9462,33.7,41,0.0,993.5,6.85,32.4,81,65.9,22.6,0,5,7,1,2026-04-03T14:28:53.333173+05:30
Kanpur,Uttar Pradesh,26.4499,80.3319,34.1,47,0.0,991.9,5.2,26.3,106,280.3,40.0,0,5,3,1,2026-04-03T14:28:53.333179+05:30
Chandigarh,Chandigarh,30.7333,76.7794,23.8,73,0.0,970.5,5.85,43.9,76,138.3,41.6,3,5,3,1,2026-04-03T14:28:53.333187+05:30
Srinagar,Jammu and Kashmir,34.0837,74.7973,15.3,74,0.0,840.6,6.45,42.8,100,25.1,13.4,3,5,7,0,2026-04-03T14:28:53.333194+05:30
Jammu,Jammu and Kashmir,32.7266,74.857,23.1,72,0.0,973.3,6.05,40.3,68,42.6,18.1,3,5,7,1,2026-04-03T14:28:53.333201+05:30
Amritsar,Punjab,31.634,74.8723,23.6,73,0.0,981.0,4.15,49.7,93,44.2,18.0,3,5,3,1,2026-04-03T14:28:53.333207+05:30
Ludhiana,Punjab,30.901,75.8573,26.9,56,0.0,979.0,4.9,47.5,115,60.3,22.3,4,5,3,1,2026-04-03T14:28:53.333214+05:30
Jalandhar,Punjab,31.326,75.5762,24.0,70,0.0,980.2,5.2,51.5,94,60.5,20.1,3,5,3,1,2026-04-03T14:28:53.333222+05:30
Dehradun,Uttarakhand,30.6284,78.0322,20.5,55,0.0,833.4,5.4,46.8,36,22.4,7.4,0,5,3,0,2026-04-03T14:28:53.333231+05:30
Shimla,Himachal Pradesh,31.1048,77.1734,18.0,63,0.0,787.0,6.15,59.0,53,21.0,8.4,3,5,7,0,2026-04-03T14:28:53.333238+05:30
Manali,Himachal Pradesh,32.2396,77.1887,19.7,59,0.0,821.7,7.1,50.0,58,13.6,5.7,0,5,7,0,2026-04-03T14:28:53.333244+05:30
Gurgaon,Haryana,28.4595,77.0266,31.9,32,0.0,982.4,6.3,41.4,656,1292.7,130.4,0,5,7,0,2026-04-03T14:28:53.333251+05:30
Noida,Uttar Pradesh,28.5355,77.391,32.2,37,0.0,985.2,6.0,40.0,656,1292.7,130.4,0,5,3,0,2026-04-03T14:28:53.333257+05:30
Ghaziabad,Uttar Pradesh,28.6692,77.4538,31.1,42,0.0,983.4,5.85,33.5,145,392.1,70.1,0,5,3,1,2026-04-03T14:28:53.333263+05:30
Faridabad,Haryana,28.4089,77.3178,33.2,29,0.0,984.4,6.25,37.8,656,1292.7,130.4,0,5,7,0,2026-04-03T14:28:53.333270+05:30
Meerut,Uttar Pradesh,28.9845,77.7064,32.0,43,0.0,982.0,6.3,29.9,145,392.1,70.1,0,5,7,1,2026-04-03T14:28:53.333276+05:30
Agra,Uttar Pradesh,27.1767,78.0081,37.9,21,0.0,987.4,7.35,48.2,351,817.7,79.2,0,5,10,0,2026-04-03T14:28:53.333282+05:30
Varanasi,Uttar Pradesh,25.3176,82.9739,37.2,32,0.0,996.8,7.7,37.1,91,36.8,21.7,0,5,10,1,2026-04-03T14:28:53.333291+05:30
Prayagraj,Uttar Pradesh,25.4358,81.8463,37.0,27,0.0,995.5,7.25,36.7,91,33.4,21.7,0,5,10,0,2026-04-03T14:28:53.333298+05:30
Gorakhpur,Uttar Pradesh,26.7606,83.3732,38.7,21,0.0,995.4,7.1,42.8,61,26.1,15.3,0,5,10,0,2026-04-03T14:28:53.333304+05:30
Bareilly,Uttar Pradesh,28.367,79.4304,34.0,39,0.0,987.2,6.1,25.2,69,36.4,16.2,0,5,7,1,2026-04-03T14:28:53.333311+05:30
Aligarh,Uttar Pradesh,27.8974,78.088,36.2,25,0.0,985.4,7.0,36.7,147,983.5,114.8,0,5,10,0,2026-04-03T14:28:53.333317+05:30
Moradabad,Uttar Pradesh,28.8386,78.7733,33.5,38,0.0,984.2,6.25,22.0,96,68.5,28.9,0,5,7,1,2026-04-03T14:28:53.333323+05:30
Saharanpur,Uttar Pradesh,29.9637,77.546,26.8,59,0.0,976.9,6.55,42.5,87,207.7,56.6,4,5,7,1,2026-04-03T14:28:53.333329+05:30
Jhansi,Uttar Pradesh,25.4484,78.5685,37.0,24,0.0,978.0,7.8,33.5,61,48.8,16.2,0,5,10,0,2026-04-03T14:28:56.636242+05:30
Surat,Gujarat,21.1702,72.8311,30.8,54,0.0,1008.1,7.65,29.9,98,58.7,40.2,0,0,4,1,2026-04-03T14:28:56.636271+05:30
Vadodara,Gujarat,22.3072,73.1812,32.7,38,0.0,1005.3,7.85,27.7,78,44.9,22.2,0,5,4,1,2026-04-03T14:28:56.636280+05:30
Rajkot,Gujarat,22.3039,70.8022,29.1,52,0.0,995.8,7.25,39.2,66,37.1,10.5,4,5,7,1,2026-04-03T14:28:56.636288+05:30
Thane,Maharashtra,19.2183,72.9781,30.9,58,0.0,1009.1,7.7,37.8,75,53.7,25.8,0,0,4,1,2026-04-03T14:28:56.636295+05:30
Nagpur,Maharashtra,21.1458,79.0882,36.1,36,0.0,973.4,8.7,23.4,82,34.0,28.6,0,5,10,1,2026-04-03T14:28:56.636302+05:30
Nashik,Maharashtra,19.9975,73.7898,32.3,32,0.0,946.7,8.15,41.4,72,21.4,10.7,0,5,7,0,2026-04-03T14:28:56.636309+05:30
Aurangabad,Maharashtra,19.8762,75.3433,33.8,35,0.0,944.9,8.75,25.6,104,49.5,38.2,0,5,7,1,2026-04-03T14:28:56.636315+05:30
Solapur,Maharashtra,17.6599,75.9064,37.3,26,0.0,956.7,8.95,34.9,102,27.9,22.4,0,5,10,0,2026-04-03T14:28:56.636323+05:30
Kolhapur,Maharashtra,16.705,74.2433,31.6,51,0.0,948.5,8.95,37.1,144,34.3,29.5,0,5,7,1,2026-04-03T14:28:56.636330+05:30
Goa,Goa,15.2993,74.124,32.3,64,0.0,998.0,9.0,31.3,76,26.4,22.5,3,5,7,1,2026-04-03T14:28:56.636337+05:30
Jodhpur,Rajasthan,26.2389,73.0243,29.9,35,0.0,983.2,7.45,46.8,131,202.6,28.0,4,5,7,0,2026-04-03T14:28:56.636344+05:30
Udaipur,Rajasthan,24.5854,73.7125,28.0,38,0.0,947.5,7.95,56.5,45,48.7,14.1,4,5,7,0,2026-04-03T14:28:56.636350+05:30
Kota,Rajasthan,25.2138,75.8648,37.5,20,0.0,977.8,7.85,47.2,59,56.3,20.1,0,5,10,0,2026-04-03T14:28:56.636356+05:30
Bikaner,Rajasthan,28.0229,73.3119,25.4,55,0.0,982.9,7.25,54.7,63,62.2,19.8,4,5,7,0,2026-04-03T14:28:56.636363+05:30
Ajmer,Rajasthan,26.4499,74.6399,29.8,34,0.0,955.0,7.55,62.6,74,54.8,16.6,4,5,7,0,2026-04-03T14:28:56.636370+05:30
Gwalior,Madhya Pradesh,26.2183,78.1828,36.3,27,0.0,983.1,7.65,34.9,63,68.9,20.3,0,5,10,0,2026-04-03T14:28:56.636376+05:30
Indore,Madhya Pradesh,22.7196,75.8577,34.7,22,0.0,948.7,8.3,38.9,79,29.9,23.1,0,5,7,0,2026-04-03T14:28:56.636383+05:30
Bhopal,Madhya Pradesh,23.2599,77.4126,35.4,30,0.0,954.2,8.1,34.9,71,24.0,19.7,0,5,10,0,2026-04-03T14:28:56.636389+05:30
Jabalpur,Madhya Pradesh,23.1815,79.9864,35.3,28,0.0,962.2,7.65,31.3,72,25.5,19.6,0,5,10,0,2026-04-03T14:28:56.636396+05:30
Ujjain,Madhya Pradesh,23.1765,75.7885,34.8,24,0.0,954.2,8.2,40.3,77,28.2,20.8,0,5,7,0,2026-04-03T14:28:56.636402+05:30
Visakhapatnam,Andhra Pradesh,17.6868,83.2185,34.1,49,0.0,1003.5,8.95,42.1,58,26.2,22.6,0,5,4,1,2026-04-03T14:28:56.636408+05:30
Vijayawada,Andhra Pradesh,16.5062,80.648,36.5,38,0.0,1002.3,8.5,29.9,51,16.4,12.4,0,5,7,1,2026-04-03T14:28:56.636415+05:30
Guntur,Andhra Pradesh,16.3067,80.4365,36.7,37,0.0,1003.5,8.45,30.2,48,15.6,11.1,0,5,7,1,2026-04-03T14:28:56.636421+05:30
Nellore,Andhra Pradesh,14.4426,79.9865,36.6,39,0.0,1005.4,9.25,34.2,41,15.8,14.2,0,5,7,1,2026-04-03T14:28:56.636427+05:30
Kurnool,Andhra Pradesh,15.8281,78.0373,37.7,27,0.0,976.4,8.75,19.8,53,20.0,14.7,0,5,10,0,2026-04-03T14:28:56.636434+05:30
Kakinada,Andhra Pradesh,16.9891,82.2475,38.3,34,0.0,1006.8,8.85,39.6,41,11.5,8.5,0,5,7,1,2026-04-03T14:28:56.636440+05:30
Tirupati,Andhra Pradesh,13.6288,79.4192,36.4,32,0.0,991.1,9.35,31.7,54,12.3,10.1,0,5,10,1,2026-04-03T14:28:56.636446+05:30
Warangal,Telangana,17.9689,79.5941,36.0,39,0.0,978.9,8.75,18.4,74,28.3,21.5,0,5,10,1,2026-04-03T14:28:56.636452+05:30
Nizamabad,Telangana,18.6725,78.0941,35.7,34,0.0,965.0,8.55,25.9,116,34.6,27.4,0,5,10,1,2026-04-03T14:28:56.636464+05:30
Mysore,Karnataka,12.2958,76.6396,33.6,33,0.0,929.0,9.5,42.8,82,22.1,19.2,0,5,7,0,2026-04-03T14:28:56.636471+05:30
Mangalore,Karnataka,12.9141,74.856,29.5,79,0.0,1006.6,9.15,24.8,70,28.3,22.8,7,5,4,1,2026-04-03T14:28:56.636478+05:30
Hubli-Dharwad,Karnataka,15.3647,75.124,33.4,40,0.0,941.2,9.2,40.7,80,27.5,22.7,0,5,7,1,2026-04-03T14:28:56.636485+05:30
Belgaum,Karnataka,15.8497,74.4977,29.9,58,0.0,926.6,9.25,35.3,90,32.1,26.5,4,5,7,1,2026-04-03T14:28:59.940462+05:30
Coimbatore,Tamil Nadu,11.0168,76.9558,33.8,40,0.0,962.2,9.45,45.4,73,22.8,19.9,0,5,7,1,2026-04-03T14:28:59.940525+05:30
Madurai,Tamil Nadu,9.9252,78.1198,35.0,44,0.0,992.9,9.1,31.3,51,14.4,13.2,0,5,7,1,2026-04-03T14:28:59.940538+05:30
Trichy,Tamil Nadu,10.7905,78.7047,36.1,39,0.0,999.3,9.4,30.6,57,13.8,12.6,0,5,10,1,2026-04-03T14:28:59.940546+05:30
Salem,Tamil Nadu,11.6643,78.146,36.2,35,0.0,977.1,9.45,24.8,63,16.2,14.5,0,5,10,1,2026-04-03T14:28:59.940554+05:30
Tirunelveli,Tamil Nadu,8.7139,77.7567,33.6,52,0.0,1003.4,9.35,29.5,60,18.5,16.0,0,5,4,1,2026-04-03T14:28:59.940562+05:30
Vellore,Tamil Nadu,12.9165,79.1325,36.3,30,0.0,984.2,9.4,30.2,65,19.4,17.1,0,5,10,0,2026-04-03T14:28:59.940572+05:30
Erode,Tamil Nadu,11.341,77.7172,37.5,33,0.0,988.3,9.4,20.2,48,16.9,15.1,0,5,10,1,2026-04-03T14:28:59.940579+05:30
Kochi,Kerala,9.9312,76.2673,29.1,75,0.0,1008.8,9.2,22.3,66,16.7,14.5,7,0,4,1,2026-04-03T14:28:59.940587+05:30
Thiruvananthapuram,Kerala,8.5241,76.9366,28.9,78,0.0,1008.3,8.95,17.6,63,22.5,18.9,7,0,4,1,2026-04-03T14:28:59.940594+05:30
Kozhikode,Kerala,11.2588,75.7804,30.3,71,0.0,1007.9,9.15,25.6,61,14.3,12.0,3,5,4,1,2026-04-03T14:28:59.940601+05:30
Thrissur,Kerala,10.5276,76.2144,33.0,58,0.0,1007.1,9.2,29.2,63,18.2,15.8,0,5,4,1,2026-04-03T14:28:59.940609+05:30
Kannur,Kerala,11.8745,75.3704,31.2,67,0.0,1007.3,9.15,27.4,72,16.8,14.1,3,5,4,1,2026-04-03T14:28:59.940616+05:30
Patna,Bihar,25.5941,85.1376,38.4,26,0.0,998.3,8.3,36.0,77,33.9,19.3,0,5,10,0,2026-04-03T14:28:59.940622+05:30
Gaya,Bihar,24.7914,85.0002,38.5,28,0.0,992.0,8.4,31.3,73,29.1,18.5,0,5,10,1,2026-04-03T14:28:59.940629+05:30
Muzaffarpur,Bihar,26.1209,85.3647,38.9,22,0.0,997.7,8.25,36.4,73,29.4,18.5,0,5,10,0,2026-04-03T14:28:59.940635+05:30
Bhagalpur,Bihar,25.2425,87.0117,36.5,32,0.0,999.1,8.3,25.9,79,37.3,19.6,0,5,10,1,2026-04-03T14:28:59.940641+05:30
Ranchi,Jharkhand,23.3441,85.3096,35.6,23,0.0,938.1,8.95,29.9,94,26.5,19.6,0,5,10,0,2026-04-03T14:28:59.940648+05:30
Jamshedpur,Jharkhand,22.8046,86.2029,38.7,29,0.0,989.2,8.8,24.5,106,34.6,28.2,0,5,10,1,2026-04-03T14:28:59.940653+05:30
Dhanbad,Jharkhand,23.7957,86.4304,39.4,20,0.0,978.0,8.7,22.7,147,38.8,31.3,0,5,10,0,2026-04-03T14:28:59.940660+05:30
Bokaro,Jharkhand,23.6693,86.1511,39.1,19,0.0,982.0,8.7,25.2,146,35.7,28.8,0,5,10,0,2026-04-03T14:28:59.940666+05:30
Bhubaneswar,Odisha,20.2961,85.8245,36.8,44,0.0,1001.6,8.95,27.4,53,31.0,22.9,0,5,7,1,2026-04-03T14:28:59.940673+05:30
Cuttack,Odisha,20.4625,85.8828,39.2,32,0.0,1002.8,9.0,39.6,53,31.0,22.9,0,5,7,1,2026-04-03T14:28:59.940679+05:30
Rourkela,Odisha,22.2604,84.8536,38.9,27,0.0,984.1,8.7,27.0,123,40.6,33.8,0,5,10,1,2026-04-03T14:28:59.940685+05:30
Raipur,Chhattisgarh,21.2514,81.6296,37.7,30,0.0,974.6,8.8,34.9,145,34.1,28.7,0,5,10,1,2026-04-03T14:28:59.940691+05:30
Bhilai,Chhattisgarh,21.1938,81.3509,37.8,30,0.0,974.8,8.8,24.5,124,30.5,25.0,0,5,10,1,2026-04-03T14:28:59.940698+05:30
Guwahati,Assam,26.1158,91.7086,30.3,68,0.0,999.8,8.25,43.6,124,48.4,39.3,3,5,7,1,2026-04-03T14:28:59.940704+05:30
Agartala,Tripura,23.8315,91.2868,34.1,58,0.0,1004.3,8.45,24.1,78,34.5,27.2,0,5,4,1,2026-04-03T14:28:59.940710+05:30
Shillong,Meghalaya,25.5788,91.8933,21.6,54,0.0,857.4,8.55,55.1,112,36.4,28.2,0,5,7,0,2026-04-03T14:28:59.940717+05:30
Imphal,Manipur,24.817,93.9368,24.1,64,0.0,923.0,8.85,60.8,108,37.3,27.3,3,5,7,1,2026-04-03T14:28:59.940723+05:30
Aizawl,Mizoram,23.7271,92.7176,27.3,54,0.0,894.0,8.7,52.9,112,37.8,26.6,4,5,7,1,2026-04-03T14:28:59.940730+05:30
Kohima,Nagaland,25.6701,94.1077,21.9,56,0.0,855.8,8.75,80.6,104,36.4,26.2,0,5,7,0,2026-04-03T14:28:59.940736+05:30
Gangtok,Sikkim,27.3314,88.6138,22.3,64,0.0,838.8,7.55,19.1,92,36.1,28.1,3,5,7,0,2026-04-03T14:28:59.940742+05:30
Siliguri,West Bengal,26.7271,88.3953,28.2,58,0.0,992.2,8.25,18.7,143,55.4,42.4,4,5,7,1,2026-04-03T14:29:03.252522+05:30
Durgapur,West Bengal,23.5204,87.3119,39.4,25,0.0,992.9,8.65,18.7,154,40.7,32.7,0,5,10,0,2026-04-03T14:29:03.252553+05:30
Asansol,West Bengal,23.6739,86.9524,38.9,26,0.0,991.5,8.65,18.7,127,38.5,30.7,0,5,10,0,2026-04-03T14:29:03.252563+05:30
Pondicherry,Puducherry,11.9139,79.8145,35.2,45,0.0,1008.1,9.3,34.2,42,20.8,17.0,0,0,7,1,2026-04-03T14:29:03.252571+05:30
Port Blair,Andaman and Nicobar Islands,11.6234,92.7265,28.6,80,0.0,1006.6,9.2,23.8,39,17.5,9.0,7,5,4,1,2026-04-03T14:29:03.252579+05:30
Haridwar,Uttarakhand,29.9457,78.1642,33.2,34,0.0,975.0,6.4,40.0,57,37.6,16.5,0,5,7,0,2026-04-03T14:29:03.252588+05:30
Rishikesh,Uttarakhand,30.0869,78.2676,33.4,32,0.0,967.8,5.85,31.7,40,30.3,8.9,0,5,3,0,2026-04-03T14:29:03.252597+05:30
Nainital,Uttarakhand,29.3919,79.4542,25.5,40,0.0,810.1,4.8,36.4,50,22.0,8.1,4,5,3,0,2026-04-03T14:29:03.252604+05:30
Mussoorie,Uttarakhand,30.4599,78.0664,22.2,47,0.0,806.5,5.3,60.5,53,32.8,10.7,0,5,3,0,2026-04-03T14:29:03.252610+05:30
Dharamshala,Himachal Pradesh,32.219,76.3234,21.1,71,0.0,870.6,5.1,56.9,48,19.5,11.2,3,5,3,0,2026-04-03T14:29:03.252617+05:30
Dalhousie,Himachal Pradesh,32.5387,75.971,18.0,62,0.0,805.2,5.85,53.6,57,29.9,12.9,3,5,3,0,2026-04-03T14:29:03.252624+05:30
Patiala,Punjab,30.3398,76.3869,25.7,62,0.0,979.0,6.25,51.1,180,532.7,66.6,7,5,7,1,2026-04-03T14:29:03.252630+05:30
Bhatinda,Punjab,30.211,74.9455,23.2,74,0.0,985.1,5.45,42.8,84,78.5,23.4,3,5,3,1,2026-04-03T14:29:03.252637+05:30
Rohtak,Haryana,28.8955,76.6066,30.4,41,0.0,982.7,5.9,37.1,189,516.0,57.4,0,5,3,0,2026-04-03T14:29:03.252643+05:30
Panipat,Haryana,29.3909,76.9635,29.1,53,0.0,981.2,5.9,43.9,311,968.6,96.4,4,5,3,1,2026-04-03T14:29:03.252649+05:30
Mathura,Uttar Pradesh,27.4924,77.6737,35.6,25,0.0,986.7,7.25,43.6,439,782.3,82.4,0,5,10,0,2026-04-03T14:29:03.252656+05:30
Vrindavan,Uttar Pradesh,27.5823,77.7027,35.7,25,0.0,987.2,7.2,36.7,439,782.3,82.4,0,5,10,0,2026-04-03T14:29:03.252662+05:30
Ayodhya,Uttar Pradesh,26.7922,82.1998,37.1,28,0.0,994.6,6.85,35.3,65,36.9,17.6,0,5,10,0,2026-04-03T14:29:03.252669+05:30
Ratlam,Madhya Pradesh,23.3315,75.0367,32.1,39,0.0,955.5,8.15,45.0,71,25.7,17.5,0,5,7,1,2026-04-03T14:29:03.252675+05:30
Sagar,Madhya Pradesh,23.8388,78.7378,35.4,25,0.0,951.2,7.35,26.6,67,20.1,15.7,0,5,10,0,2026-04-03T14:29:03.252682+05:30
Satna,Madhya Pradesh,24.6005,80.8322,36.0,25,0.0,972.0,7.2,36.0,66,20.0,16.2,0,5,10,0,2026-04-03T14:29:03.252688+05:30
Akola,Maharashtra,20.7002,77.0082,36.4,34,0.0,975.2,8.6,33.8,87,44.0,36.7,0,5,10,1,2026-04-03T14:29:03.252695+05:30
Amravati,Maharashtra,20.9374,77.7796,36.2,35,0.0,967.7,8.65,55.4,82,40.7,32.8,0,5,10,1,2026-04-03T14:29:03.252702+05:30
Latur,Maharashtra,18.4088,76.5604,34.7,29,0.0,940.1,8.8,26.6,104,27.1,21.0,0,5,7,0,2026-04-03T14:29:03.252709+05:30
Nanded,Maharashtra,19.1383,77.3091,36.8,33,0.0,968.7,8.3,19.4,102,31.9,25.2,0,5,10,1,2026-04-03T14:29:03.252715+05:30
Gulbarga,Karnataka,17.3297,76.8343,37.6,22,0.0,958.6,8.6,45.0,82,22.2,18.0,0,5,10,0,2026-04-03T14:29:03.252721+05:30
Bidar,Karnataka,17.9104,77.5199,35.4,26,0.0,935.9,8.45,32.8,93,24.0,17.9,0,5,10,0,2026-04-03T14:29:03.252727+05:30
Hospet,Karnataka,15.2689,76.3909,35.7,28,0.0,955.8,9.2,37.8,75,18.5,15.2,0,5,10,0,2026-04-03T14:29:03.252733+05:30
Tirupur,Tamil Nadu,11.1085,77.3411,36.6,33,0.0,974.9,9.5,39.2,66,22.6,20.4,0,5,10,1,2026-04-03T14:29:03.252739+05:30
Alappuzha,Kerala,9.4981,76.3388,28.9,76,0.0,1008.9,9.2,19.8,66,19.5,16.9,7,0,4,1,2026-04-03T14:29:03.252745+05:30
Munnar,Kerala,10.0889,77.0595,26.5,69,0.0,859.1,8.0,32.0,68,13.3,12.2,7,5,7,1,2026-04-03T14:29:03.252751+05:30
Silchar,Assam,24.8333,92.7789,30.5,66,0.0,1004.1,8.5,29.5,143,46.4,34.3,3,5,4,1,2026-04-03T14:29:03.252758+05:30
Dibrugarh,Assam,27.4728,94.912,27.3,68,0.0,994.4,8.3,12.6,96,28.2,23.1,7,5,7,1,2026-04-03T14:29:03.252764+05:30
