city,state,latitude,longitude,temp,humidity,rain,pressure,uv_index,wind_gusts,aqi,pm10,pm2_5,mosquito_risk,arthritis_risk,migraine_risk,frizz_risk,updated_at
Delhi,Delhi,28.6139,77.209,26.7,47,0.0,988.8,5.75,36.0,184,222.1,76.6,4,5,3,0,2026-03-02T11:25:04.420586+05:30
Mumbai,Maharashtra,19.076,72.8777,26.0,75,0.0,1012.7,7.35,26.6,86,58.7,37.8,7,0,4,1,2026-03-02T11:25:04.420631+05:30
Bangalore,Karnataka,12.9716,77.5946,28.1,46,0.0,915.2,9.05,25.2,137,45.5,44.0,4,5,7,0,2026-03-02T11:25:04.420648+05:30
Hyderabad,Telangana,17.385,78.4867,32.6,32,0.0,957.1,8.3,22.0,149,47.8,46.8,0,5,7,0,2026-03-02T11:25:04.420657+05:30
Chennai,Tamil Nadu,13.0827,80.2707,31.4,52,0.0,1011.1,8.8,30.6,133,54.8,50.4,0,0,4,1,2026-03-02T11:25:04.420666+05:30
Kolkata,West Bengal,22.5726,88.3639,29.6,69,0.0,1009.0,7.65,19.8,137,59.6,56.9,7,0,4,1,2026-03-02T11:25:04.420674+05:30
Pune,Maharashtra,18.5204,73.8567,31.6,34,0.0,952.6,7.85,26.6,92,23.5,21.6,0,5,7,0,2026-03-02T11:25:04.420686+05:30
Ahmedabad,Gujarat,23.0225,72.5714,30.6,38,0.0,1008.0,7.1,16.2,105,45.5,31.4,0,0,4,0,2026-03-02T11:25:04.420694+05:30
Jaipur,Rajasthan,26.9124,75.7873,31.1,22,0.0,965.7,6.55,30.6,94,103.1,34.7,0,5,7,0,2026-03-02T11:25:04.420701+05:30
Lucknow,Uttar Pradesh,26.8467,80.9462,27.1,40,0.0,998.3,6.25,37.1,122,193.2,68.9,4,5,7,0,2026-03-02T11:25:04.420726+05:30
Kanpur,Uttar Pradesh,26.4499,80.3319,27.3,51,0.0,997.1,6.25,32.4,143,323.2,76.4,4,5,7,1,2026-03-02T11:25:04.420734+05:30
Chandigarh,Chandigarh,30.7333,76.7794,25.0,50,0.0,973.9,5.65,39.6,87,39.3,27.0,4,5,3,0,2026-03-02T11:25:04.420741+05:30
Srinagar,Jammu and Kashmir,34.0837,74.7973,14.8,34,0.0,846.6,6.55,18.4,143,53.8,40.3,0,5,7,1,2026-03-02T11:25:04.420749+05:30
Jammu,Jammu and Kashmir,32.7266,74.857,25.0,51,0.0,978.2,6.25,28.4,104,44.1,36.4,4,5,7,0,2026-03-02T11:25:04.420756+05:30
Amritsar,Punjab,31.634,74.8723,25.1,63,0.0,986.7,5.95,26.6,138,66.1,52.7,7,5,3,1,2026-03-02T11:25:04.420763+05:30
Ludhiana,Punjab,30.901,75.8573,25.2,57,0.0,984.6,5.85,33.8,159,85.0,69.2,4,5,3,1,2026-03-02T11:25:04.420770+05:30
Jalandhar,Punjab,31.326,75.5762,24.8,59,0.0,985.6,6.05,31.3,160,83.1,68.2,0,5,7,1,2026-03-02T11:25:04.420780+05:30
Dehradun,Uttarakhand,30.6284,78.0322,18.4,39,0.0,832.6,6.0,26.6,59,22.4,12.8,0,5,3,0,2026-03-02T11:25:04.420787+05:30
Shimla,Himachal Pradesh,31.1048,77.1734,15.7,43,0.0,787.6,6.05,58.0,73,29.0,16.4,0,5,7,0,2026-03-02T11:25:04.420794+05:30
Manali,Himachal Pradesh,32.2396,77.1887,19.1,12,0.0,822.0,7.7,36.7,56,14.4,10.0,0,5,7,1,2026-03-02T11:25:04.420801+05:30
Gurgaon,Haryana,28.4595,77.0266,27.0,51,0.0,987.3,5.85,33.1,719,856.8,137.8,4,5,3,0,2026-03-02T11:25:04.420808+05:30
Noida,Uttar Pradesh,28.5355,77.391,27.4,45,0.0,990.2,5.75,35.6,719,856.8,137.8,4,5,3,0,2026-03-02T11:25:04.420815+05:30
Ghaziabad,Uttar Pradesh,28.6692,77.4538,25.8,52,0.0,988.2,5.75,35.3,162,223.1,77.5,4,5,3,0,2026-03-02T11:25:04.420821+05:30
Faridabad,Haryana,28.4089,77.3178,26.6,52,0.0,989.5,5.8,32.0,719,856.8,137.8,4,5,3,0,2026-03-02T11:25:04.420827+05:30
Meerut,Uttar Pradesh,28.9845,77.7064,25.6,52,0.0,986.7,5.6,38.9,162,223.1,77.5,4,5,3,0,2026-03-02T11:25:04.420834+05:30
Agra,Uttar Pradesh,27.1767,78.0081,28.2,46,0.0,993.9,6.1,28.8,321,363.2,77.3,4,5,7,0,2026-03-02T11:25:04.420841+05:30
Varanasi,Uttar Pradesh,25.3176,82.9739,27.5,51,0.0,1002.4,6.9,33.1,95,99.2,32.4,4,5,4,1,2026-03-02T11:25:04.420850+05:30
Prayagraj,Uttar Pradesh,25.4358,81.8463,28.3,43,0.0,1001.2,6.75,31.0,97,162.1,45.9,4,5,4,0,2026-03-02T11:25:04.420857+05:30
Gorakhpur,Uttar Pradesh,26.7606,83.3732,25.6,55,0.0,1001.6,6.6,25.9,105,162.5,57.2,4,5,4,0,2026-03-02T11:25:04.420864+05:30
Bareilly,Uttar Pradesh,28.367,79.4304,24.6,51,0.0,991.6,5.95,31.7,128,69.2,51.8,0,5,3,0,2026-03-02T11:25:04.420871+05:30
Aligarh,Uttar Pradesh,27.8974,78.088,27.0,51,0.0,991.2,5.85,32.8,419,508.5,111.5,4,5,3,0,2026-03-02T11:25:04.420880+05:30
Moradabad,Uttar Pradesh,28.8386,78.7733,24.6,50,0.0,988.5,5.75,35.3,137,75.9,52.9,0,5,3,0,2026-03-02T11:25:04.420886+05:30
Saharanpur,Uttar Pradesh,29.9637,77.546,24.8,52,0.0,980.1,5.4,52.9,116,55.4,38.8,0,5,3,0,2026-03-02T11:25:04.420892+05:30
Jhansi,Uttar Pradesh,25.4484,78.5685,30.1,33,0.0,983.9,6.7,28.1,80,64.3,23.6,0,5,7,0,2026-03-02T11:25:07.687614+05:30
Surat,Gujarat,21.1702,72.8311,28.9,61,0.0,1012.0,7.0,23.4,137,95.2,75.0,7,0,4,1,2026-03-02T11:25:07.687644+05:30
Vadodara,Gujarat,22.3072,73.1812,31.2,42,0.0,1009.9,7.1,11.9,144,58.3,44.1,0,0,4,1,2026-03-02T11:25:07.687655+05:30
Rajkot,Gujarat,22.3039,70.8022,28.6,49,0.0,1000.0,6.95,21.2,69,50.5,20.8,4,5,4,1,2026-03-02T11:25:07.687663+05:30
Thane,Maharashtra,19.2183,72.9781,29.2,55,0.0,1012.2,7.3,37.4,86,58.7,37.8,4,0,4,1,2026-03-02T11:25:07.687669+05:30
Nagpur,Maharashtra,21.1458,79.0882,31.3,33,0.0,978.3,7.7,22.7,63,32.5,22.2,0,5,7,0,2026-03-02T11:25:07.687677+05:30
Nashik,Maharashtra,19.9975,73.7898,29.9,36,0.0,950.1,7.5,28.1,88,30.9,28.1,4,5,7,0,2026-03-02T11:25:07.687685+05:30
Aurangabad,Maharashtra,19.8762,75.3433,30.9,32,0.0,948.8,8.0,21.2,74,20.3,18.6,0,5,7,0,2026-03-02T11:25:07.687692+05:30
Solapur,Maharashtra,17.6599,75.9064,30.2,46,0.0,961.1,8.2,14.0,111,45.5,44.9,0,5,7,1,2026-03-02T11:25:07.687699+05:30
Kolhapur,Maharashtra,16.705,74.2433,30.3,38,0.0,951.7,8.35,37.1,86,32.2,28.3,0,5,7,0,2026-03-02T11:25:07.687735+05:30
Goa,Goa,15.2993,74.124,30.0,52,0.0,1001.8,8.45,30.6,68,29.7,20.4,4,5,4,1,2026-03-02T11:25:07.687745+05:30
Jodhpur,Rajasthan,26.2389,73.0243,30.0,37,0.0,989.0,6.8,12.6,83,95.9,31.3,4,5,7,0,2026-03-02T11:25:07.687753+05:30
Udaipur,Rajasthan,24.5854,73.7125,29.5,30,0.0,952.3,7.4,15.5,65,30.0,18.0,4,5,7,0,2026-03-02T11:25:07.687760+05:30
Kota,Rajasthan,25.2138,75.8648,30.0,40,0.0,984.8,6.8,18.7,85,37.4,28.0,4,5,7,0,2026-03-02T11:25:07.687767+05:30
Bikaner,Rajasthan,28.0229,73.3119,30.1,30,0.0,987.8,6.5,19.4,68,45.1,22.4,0,5,7,0,2026-03-02T11:25:07.687773+05:30
Ajmer,Rajasthan,26.4499,74.6399,29.8,33,0.0,960.5,6.75,22.7,80,41.3,19.7,4,5,7,0,2026-03-02T11:25:07.687780+05:30
Gwalior,Madhya Pradesh,26.2183,78.1828,30.0,36,0.0,989.0,6.4,31.0,92,154.6,40.6,4,5,7,0,2026-03-02T11:25:07.687786+05:30
Indore,Madhya Pradesh,22.7196,75.8577,29.4,36,0.0,953.5,7.4,12.6,92,39.2,28.7,4,5,7,0,2026-03-02T11:25:07.687792+05:30
Bhopal,Madhya Pradesh,23.2599,77.4126,29.8,37,0.0,959.3,7.25,18.4,81,27.8,21.0,4,5,7,0,2026-03-02T11:25:07.687799+05:30
Jabalpur,Madhya Pradesh,23.1815,79.9864,29.6,32,0.0,967.1,7.35,19.4,69,35.6,18.7,4,5,7,0,2026-03-02T11:25:07.687806+05:30
Ujjain,Madhya Pradesh,23.1765,75.7885,28.7,46,0.0,959.5,7.3,11.5,117,42.3,33.4,4,5,7,0,2026-03-02T11:25:07.687814+05:30
Visakhapatnam,Andhra Pradesh,17.6868,83.2185,33.0,42,0.0,1007.0,8.35,41.0,151,62.6,59.6,0,5,4,1,2026-03-02T11:25:07.687821+05:30
Vijayawada,Andhra Pradesh,16.5062,80.648,30.8,60,0.0,1006.7,8.4,25.9,145,57.2,53.2,0,5,4,1,2026-03-02T11:25:07.687828+05:30
Guntur,Andhra Pradesh,16.3067,80.4365,31.3,54,0.0,1007.9,8.4,31.0,136,53.9,50.9,0,5,4,1,2026-03-02T11:25:07.687835+05:30
Nellore,Andhra Pradesh,14.4426,79.9865,32.6,40,0.0,1009.6,8.65,29.5,128,49.1,46.2,0,0,4,1,2026-03-02T11:25:07.687842+05:30
Kurnool,Andhra Pradesh,15.8281,78.0373,33.5,37,0.0,980.7,8.45,22.3,121,49.0,47.7,0,5,7,1,2026-03-02T11:25:07.687849+05:30
Kakinada,Andhra Pradesh,16.9891,82.2475,32.6,47,0.0,1011.3,8.35,30.6,149,59.0,54.8,0,0,4,1,2026-03-02T11:25:07.687856+05:30
Tirupati,Andhra Pradesh,13.6288,79.4192,32.5,33,0.0,995.3,8.75,27.7,133,44.4,41.7,0,5,7,0,2026-03-02T11:25:07.687862+05:30
Warangal,Telangana,17.9689,79.5941,30.8,54,0.0,983.1,8.15,17.3,144,50.2,48.4,0,5,7,1,2026-03-02T11:25:07.687869+05:30
Nizamabad,Telangana,18.6725,78.0941,31.5,43,0.0,969.3,8.05,27.0,126,44.9,44.4,0,5,7,1,2026-03-02T11:25:07.687875+05:30
Mysore,Karnataka,12.2958,76.6396,29.1,46,0.0,931.9,9.1,27.0,152,49.7,48.1,4,5,7,1,2026-03-02T11:25:07.687881+05:30
Mangalore,Karnataka,12.9141,74.856,27.7,76,0.0,1010.2,8.7,30.2,52,18.0,14.7,7,0,4,1,2026-03-02T11:25:07.687888+05:30
Hubli-Dharwad,Karnataka,15.3647,75.124,29.1,47,0.0,944.5,8.6,27.0,64,20.4,19.2,4,5,7,1,2026-03-02T11:25:07.687895+05:30
Belgaum,Karnataka,15.8497,74.4977,30.6,31,0.0,929.6,8.65,39.2,68,19.4,17.3,0,5,7,0,2026-03-02T11:25:10.948382+05:30
Coimbatore,Tamil Nadu,11.0168,76.9558,30.5,48,0.0,965.2,9.1,27.4,150,46.6,44.9,0,5,7,1,2026-03-02T11:25:10.948416+05:30
Madurai,Tamil Nadu,9.9252,78.1198,31.9,41,0.0,996.2,9.05,32.4,127,45.3,42.4,0,5,7,1,2026-03-02T11:25:10.948428+05:30
Trichy,Tamil Nadu,10.7905,78.7047,32.5,43,0.0,1003.0,8.95,29.9,134,42.5,39.6,0,5,4,1,2026-03-02T11:25:10.948438+05:30
Salem,Tamil Nadu,11.6643,78.146,32.8,40,0.0,980.4,9.0,31.7,135,50.6,47.7,0,5,7,1,2026-03-02T11:25:10.948447+05:30
Tirunelveli,Tamil Nadu,8.7139,77.7567,32.8,36,0.0,1006.5,9.1,39.6,141,40.7,37.8,0,5,4,0,2026-03-02T11:25:10.948456+05:30
Vellore,Tamil Nadu,12.9165,79.1325,32.6,33,0.0,988.1,8.85,34.6,145,48.0,45.3,0,5,7,0,2026-03-02T11:25:10.948464+05:30
Erode,Tamil Nadu,11.341,77.7172,33.1,43,0.0,992.1,9.0,30.2,123,46.2,43.4,0,5,7,1,2026-03-02T11:25:10.948472+05:30
Kochi,Kerala,9.9312,76.2673,27.4,81,0.0,1011.6,8.9,32.4,89,31.4,29.8,7,0,4,1,2026-03-02T11:25:10.948481+05:30
Thiruvananthapuram,Kerala,8.5241,76.9366,27.3,79,0.0,1010.8,8.9,27.0,65,25.2,24.0,7,0,4,1,2026-03-02T11:25:10.948490+05:30
Kozhikode,Kerala,11.2588,75.7804,29.3,68,0.0,1011.2,8.8,28.8,55,23.5,18.7,7,0,4,1,2026-03-02T11:25:10.948498+05:30
Thrissur,Kerala,10.5276,76.2144,30.8,62,0.0,1010.1,8.9,36.7,97,30.2,27.9,3,0,4,1,2026-03-02T11:25:10.948506+05:30
Kannur,Kerala,11.8745,75.3704,30.7,58,0.0,1010.5,8.75,33.8,52,17.2,13.3,0,0,4,1,2026-03-02T11:25:10.948514+05:30
Patna,Bihar,25.5941,85.1376,28.2,42,0.0,1004.7,7.05,29.2,130,102.2,42.3,4,5,4,0,2026-03-02T11:25:10.948523+05:30
Gaya,Bihar,24.7914,85.0002,29.7,36,0.0,998.0,7.15,27.4,130,108.0,32.6,4,5,7,0,2026-03-02T11:25:10.948530+05:30
Muzaffarpur,Bihar,26.1209,85.3647,28.2,42,0.0,1004.6,7.0,27.0,124,108.7,48.8,4,5,4,0,2026-03-02T11:25:10.948538+05:30
Bhagalpur,Bihar,25.2425,87.0117,28.0,57,0.0,1005.4,7.1,22.7,150,79.6,51.6,4,5,4,1,2026-03-02T11:25:10.948547+05:30
Ranchi,Jharkhand,23.3441,85.3096,28.8,22,0.0,941.9,7.8,42.8,97,69.4,19.2,4,5,7,0,2026-03-02T11:25:10.948555+05:30
Jamshedpur,Jharkhand,22.8046,86.2029,32.0,31,0.0,994.5,7.75,26.3,153,77.8,35.9,0,5,7,0,2026-03-02T11:25:10.948562+05:30
Dhanbad,Jharkhand,23.7957,86.4304,32.6,22,0.0,983.7,7.6,36.4,142,85.7,28.8,0,5,7,0,2026-03-02T11:25:10.948568+05:30
Bokaro,Jharkhand,23.6693,86.1511,32.0,26,0.0,987.7,7.6,40.7,146,100.8,32.2,0,5,7,0,2026-03-02T11:25:10.948575+05:30
Bhubaneswar,Odisha,20.2961,85.8245,32.4,53,0.0,1005.6,8.05,29.9,137,71.9,67.8,0,5,4,1,2026-03-02T11:25:10.948582+05:30
Cuttack,Odisha,20.4625,85.8828,32.7,55,0.0,1007.5,8.1,20.9,137,71.9,67.8,0,5,4,1,2026-03-02T11:25:10.948588+05:30
Rourkela,Odisha,22.2604,84.8536,32.1,31,0.0,989.3,7.65,27.4,150,74.5,25.3,0,5,7,0,2026-03-02T11:25:10.948594+05:30
Raipur,Chhattisgarh,21.2514,81.6296,31.8,32,0.0,979.6,7.8,24.1,108,54.0,29.7,0,5,7,0,2026-03-02T11:25:10.948600+05:30
Bhilai,Chhattisgarh,21.1938,81.3509,32.0,33,0.0,979.9,7.8,22.7,89,55.3,34.2,0,5,7,0,2026-03-02T11:25:10.948608+05:30
Guwahati,Assam,26.1158,91.7086,25.2,65,0.0,1006.1,7.0,28.4,155,77.8,58.8,7,5,4,1,2026-03-02T11:25:10.948614+05:30
Agartala,Tripura,23.8315,91.2868,28.6,64,0.0,1009.6,7.4,18.0,111,63.1,56.7,7,0,4,1,2026-03-02T11:25:10.948621+05:30
Shillong,Meghalaya,25.5788,91.8933,17.7,38,0.0,858.6,7.35,66.2,120,60.3,40.6,0,5,7,0,2026-03-02T11:25:10.948627+05:30
Imphal,Manipur,24.817,93.9368,20.8,55,0.0,926.2,7.6,72.4,150,61.7,43.7,0,5,7,0,2026-03-02T11:25:10.948634+05:30
Aizawl,Mizoram,23.7271,92.7176,22.7,55,0.0,896.5,7.45,41.8,125,65.9,53.9,0,5,7,0,2026-03-02T11:25:10.948640+05:30
Kohima,Nagaland,25.6701,94.1077,17.3,54,0.0,857.8,7.45,86.0,151,59.4,39.6,0,5,7,0,2026-03-02T11:25:10.948647+05:30
Gangtok,Sikkim,27.3314,88.6138,16.4,61,0.0,839.1,5.8,19.4,138,58.1,38.9,3,5,3,0,2026-03-02T11:25:10.948653+05:30
Siliguri,West Bengal,26.7271,88.3953,22.1,64,0.0,997.9,7.0,20.5,172,121.1,79.9,3,5,7,0,2026-03-02T11:25:14.215778+05:30
Durgapur,West Bengal,23.5204,87.3119,33.3,27,0.0,998.4,7.6,26.6,142,70.3,34.8,0,5,7,0,2026-03-02T11:25:14.215807+05:30
Asansol,West Bengal,23.6739,86.9524,33.3,27,0.0,997.2,7.6,29.2,119,70.3,28.1,0,5,7,0,2026-03-02T11:25:14.215816+05:30
Pondicherry,Puducherry,11.9139,79.8145,30.5,62,0.0,1012.2,8.8,27.7,130,55.6,51.5,3,0,4,1,2026-03-02T11:25:14.215824+05:30
Port Blair,Andaman and Nicobar Islands,11.6234,92.7265,27.9,72,0.0,1009.3,8.75,18.0,73,29.1,23.4,7,0,4,1,2026-03-02T11:25:14.215832+05:30
Haridwar,Uttarakhand,29.9457,78.1642,25.3,53,0.0,978.4,5.55,43.9,96,35.5,27.0,4,5,3,0,2026-03-02T11:25:14.215840+05:30
Rishikesh,Uttarakhand,30.0869,78.2676,25.8,47,0.0,970.7,5.6,34.2,78,29.8,19.4,4,5,3,0,2026-03-02T11:25:14.215847+05:30
Nainital,Uttarakhand,29.3919,79.4542,19.7,55,0.0,808.8,6.4,48.6,79,31.5,23.5,0,5,7,0,2026-03-02T11:25:14.215855+05:30
Mussoorie,Uttarakhand,30.4599,78.0664,18.3,48,0.0,805.4,5.9,32.8,81,29.5,19.5,0,5,3,0,2026-03-02T11:25:14.215861+05:30
Dharamshala,Himachal Pradesh,32.219,76.3234,20.7,54,0.0,872.7,6.1,27.4,58,12.1,6.6,0,5,7,0,2026-03-02T11:25:14.215869+05:30
Dalhousie,Himachal Pradesh,32.5387,75.971,20.2,26,0.0,808.0,6.35,23.8,101,34.1,21.8,0,5,7,0,2026-03-02T11:25:14.215876+05:30
Patiala,Punjab,30.3398,76.3869,25.4,55,0.0,983.7,5.55,37.1,157,73.6,59.8,4,5,3,0,2026-03-02T11:25:14.215883+05:30
Bhatinda,Punjab,30.211,74.9455,27.2,53,0.0,989.8,6.2,24.8,158,102.9,75.4,4,5,7,1,2026-03-02T11:25:14.215890+05:30
Rohtak,Haryana,28.8955,76.6066,26.8,51,0.0,987.6,5.75,33.8,207,244.0,75.0,4,5,3,0,2026-03-02T11:25:14.215896+05:30
Panipat,Haryana,29.3909,76.9635,25.5,54,0.0,985.9,5.55,34.6,537,624.0,113.9,4,5,3,0,2026-03-02T11:25:14.215903+05:30
Mathura,Uttar Pradesh,27.4924,77.6737,27.9,49,0.0,992.9,6.0,26.3,347,362.3,75.2,4,5,3,1,2026-03-02T11:25:14.215909+05:30
Vrindavan,Uttar Pradesh,27.5823,77.7027,27.5,51,0.0,993.2,6.0,29.9,347,362.3,75.2,4,5,3,1,2026-03-02T11:25:14.215915+05:30
Ayodhya,Uttar Pradesh,26.7922,82.1998,26.4,45,0.0,999.8,6.4,35.6,105,169.0,62.9,4,5,7,0,2026-03-02T11:25:14.215922+05:30
Ratlam,Madhya Pradesh,23.3315,75.0367,28.9,42,0.0,960.2,7.25,7.6,106,34.6,26.4,4,5,7,0,2026-03-02T11:25:14.215929+05:30
Sagar,Madhya Pradesh,23.8388,78.7378,29.8,28,0.0,955.9,7.2,24.5,66,26.0,18.3,4,5,7,0,2026-03-02T11:25:14.215935+05:30
Satna,Madhya Pradesh,24.6005,80.8322,30.6,23,0.0,976.9,7.15,36.7,63,57.7,18.2,0,5,7,0,2026-03-02T11:25:14.215941+05:30
Akola,Maharashtra,20.7002,77.0082,32.8,29,0.0,980.2,7.75,23.8,69,23.3,20.9,0,5,7,0,2026-03-02T11:25:14.215948+05:30
Amravati,Maharashtra,20.9374,77.7796,33.2,27,0.0,972.4,7.7,22.7,68,23.9,20.4,0,5,7,0,2026-03-02T11:25:14.215955+05:30
Latur,Maharashtra,18.4088,76.5604,31.0,33,0.0,944.2,8.15,26.3,79,21.4,21.0,0,5,7,0,2026-03-02T11:25:14.215961+05:30
Nanded,Maharashtra,19.1383,77.3091,32.1,33,0.0,973.6,7.95,18.7,77,24.3,23.6,0,5,7,0,2026-03-02T11:25:14.215968+05:30
Gulbarga,Karnataka,17.3297,76.8343,32.4,35,0.0,962.7,8.25,19.4,123,46.8,46.1,0,5,7,0,2026-03-02T11:25:14.215973+05:30
Bidar,Karnataka,17.9104,77.5199,30.4,43,0.0,939.6,8.2,17.3,151,53.8,53.0,0,5,7,1,2026-03-02T11:25:14.215979+05:30
Hospet,Karnataka,15.2689,76.3909,29.2,51,0.0,959.7,8.6,21.2,112,30.4,29.7,4,5,7,1,2026-03-02T11:25:14.215985+05:30
Tirupur,Tamil Nadu,11.1085,77.3411,31.7,44,0.0,978.5,9.1,32.0,151,48.5,46.4,0,5,7,1,2026-03-02T11:25:14.215992+05:30
Alappuzha,Kerala,9.4981,76.3388,27.4,80,0.0,1011.6,8.95,29.5,87,34.0,32.5,7,0,4,1,2026-03-02T11:25:14.215998+05:30
Munnar,Kerala,10.0889,77.0595,27.7,42,0.0,861.0,9.4,23.8,132,39.0,37.0,4,5,7,0,2026-03-02T11:25:14.216005+05:30
Silchar,Assam,24.8333,92.7789,26.2,65,0.0,1009.3,7.35,18.7,153,74.0,55.2,7,0,4,1,2026-03-02T11:25:14.216011+05:30
Dibrugarh,Assam,27.4728,94.912,23.5,66,0.0,1000.4,7.05,11.9,152,97.6,70.5,3,5,4,1,2026-03-02T11:25:14.216017+05:30
