city,state,latitude,longitude,temp,humidity,rain,pressure,uv_index,wind_gusts,aqi,pm10,pm2_5,no2,co,o3,so2,mosquito_risk,arthritis_risk,migraine_risk,frizz_risk,updated_at
Delhi,Delhi,28.6139,77.209,35.6,33,0.0,976.8,7.8,27.7,202,113.9,60.1,38.9,442.0,134.0,25.8,0,5,10,1,2026-06-03T20:13:44.703266+05:30
Mumbai,Maharashtra,19.076,72.8777,29.6,74,0.0,1005.2,7.7,38.9,74,28.2,12.4,7.0,320.0,48.0,5.7,7,5,4,1,2026-06-03T20:13:44.703324+05:30
Bangalore,Karnataka,12.9716,77.5946,22.6,90,0.0,910.3,8.95,41.4,50,8.7,7.8,22.8,693.0,44.0,5.1,3,5,7,1,2026-06-03T20:13:44.703340+05:30
Hyderabad,Telangana,17.385,78.4867,31.9,45,0.0,950.3,6.75,36.0,109,41.0,29.2,26.2,482.0,86.0,8.0,0,5,7,1,2026-06-03T20:13:44.703350+05:30
Chennai,Tamil Nadu,13.0827,80.2707,31.1,66,0.0,1004.3,8.4,39.2,140,25.8,21.4,12.3,305.0,124.0,9.3,3,5,4,1,2026-06-03T20:13:44.703358+05:30
Kolkata,West Bengal,22.5726,88.3639,30.8,83,0.0,1001.0,8.95,32.8,134,63.8,60.8,21.5,462.0,79.0,14.0,3,5,4,1,2026-06-03T20:13:44.703366+05:30
Pune,Maharashtra,18.5204,73.8567,27.5,67,0.0,945.4,8.3,42.5,66,20.2,10.0,5.5,182.0,67.0,4.4,7,5,7,1,2026-06-03T20:13:44.703378+05:30
Ahmedabad,Gujarat,23.0225,72.5714,37.0,37,0.0,996.2,8.05,29.9,93,77.1,36.1,20.9,242.0,67.0,8.4,0,5,10,1,2026-06-03T20:13:44.703392+05:30
Jaipur,Rajasthan,26.9124,75.7873,34.7,31,0.0,953.7,8.25,32.0,118,151.8,45.5,16.1,436.0,94.0,7.1,0,5,7,0,2026-06-03T20:13:44.703410+05:30
Lucknow,Uttar Pradesh,26.8467,80.9462,31.1,62,0.0,987.4,8.3,29.2,127,84.1,42.6,22.6,381.0,88.0,11.0,3,5,7,1,2026-06-03T20:13:44.703423+05:30
Kanpur,Uttar Pradesh,26.4499,80.3319,31.8,57,0.0,985.4,8.3,33.8,132,82.7,36.9,21.1,436.0,90.0,9.6,0,5,7,1,2026-06-03T20:13:44.703436+05:30
Chandigarh,Chandigarh,30.7333,76.7794,30.2,51,0.0,962.7,7.8,28.1,163,77.1,43.3,23.1,864.0,130.0,14.1,0,5,7,1,2026-06-03T20:13:44.703447+05:30
Srinagar,Jammu and Kashmir,34.0837,74.7973,19.8,71,0.0,839.7,7.5,24.8,103,39.1,25.3,16.5,666.0,90.0,3.4,3,5,7,0,2026-06-03T20:13:44.703455+05:30
Jammu,Jammu and Kashmir,32.7266,74.857,32.3,42,0.0,966.3,8.6,25.9,134,79.4,44.6,31.3,459.0,112.0,6.3,0,5,7,1,2026-06-03T20:13:44.703467+05:30
Amritsar,Punjab,31.634,74.8723,32.6,43,0.0,974.0,8.45,23.4,164,76.6,49.1,20.0,584.0,126.0,9.8,0,5,7,1,2026-06-03T20:13:44.703476+05:30
Ludhiana,Punjab,30.901,75.8573,32.3,45,0.0,972.5,8.05,31.7,150,101.5,47.4,18.2,569.0,109.0,6.9,0,5,7,1,2026-06-03T20:13:44.703486+05:30
Jalandhar,Punjab,31.326,75.5762,31.6,52,0.0,973.3,8.25,25.6,154,84.8,49.2,21.9,512.0,115.0,6.9,0,5,7,1,2026-06-03T20:13:44.703498+05:30
Dehradun,Uttarakhand,30.6284,78.0322,16.3,97,0.0,826.2,8.25,33.1,117,25.1,19.6,14.7,241.0,118.0,1.9,3,10,7,0,2026-06-03T20:13:44.703517+05:30
Shimla,Himachal Pradesh,31.1048,77.1734,15.3,74,0.0,781.2,7.75,40.0,144,63.6,34.2,15.7,385.0,121.0,7.9,3,5,7,0,2026-06-03T20:13:44.703531+05:30
Manali,Himachal Pradesh,32.2396,77.1887,16.8,89,0.0,815.5,9.9,34.9,102,9.6,6.7,68.4,226.0,65.0,0.5,3,10,7,0,2026-06-03T20:13:44.703539+05:30
Gurgaon,Haryana,28.4595,77.0266,33.7,39,0.0,975.2,7.9,29.9,212,182.5,76.4,52.3,477.0,153.0,30.2,0,5,7,1,2026-06-03T20:13:44.703546+05:30
Noida,Uttar Pradesh,28.5355,77.391,32.5,48,0.0,978.1,7.85,23.0,212,182.5,76.4,52.3,710.0,153.0,30.2,0,5,7,1,2026-06-03T20:13:44.703552+05:30
Ghaziabad,Uttar Pradesh,28.6692,77.4538,31.4,55,0.0,976.4,7.8,19.4,169,87.1,59.4,30.5,400.0,115.0,18.1,0,5,7,1,2026-06-03T20:13:44.703559+05:30
Faridabad,Haryana,28.4089,77.3178,34.3,39,0.0,977.5,7.85,24.8,212,182.5,76.4,52.3,589.0,153.0,30.2,0,5,7,1,2026-06-03T20:13:44.703565+05:30
Meerut,Uttar Pradesh,28.9845,77.7064,32.5,54,0.0,975.5,7.7,23.0,169,87.1,59.4,30.5,563.0,115.0,18.1,0,5,7,1,2026-06-03T20:13:44.703571+05:30
Agra,Uttar Pradesh,27.1767,78.0081,33.1,45,0.0,981.1,8.15,25.6,168,698.5,104.8,14.4,395.0,111.0,9.2,0,5,7,1,2026-06-03T20:13:44.703577+05:30
Varanasi,Uttar Pradesh,25.3176,82.9739,33.8,43,0.0,991.5,8.75,37.1,151,56.6,44.6,28.5,419.0,90.0,13.4,0,5,7,1,2026-06-03T20:13:44.703584+05:30
Prayagraj,Uttar Pradesh,25.4358,81.8463,33.2,46,0.0,990.1,8.65,36.4,129,51.8,39.0,25.7,326.0,92.0,13.0,0,5,7,1,2026-06-03T20:13:44.703594+05:30
Gorakhpur,Uttar Pradesh,26.7606,83.3732,31.1,57,0.0,990.9,8.65,39.2,155,44.2,36.4,16.1,338.0,100.0,7.7,0,5,7,1,2026-06-03T20:13:44.703608+05:30
Bareilly,Uttar Pradesh,28.367,79.4304,31.4,62,0.0,980.6,8.1,21.6,152,86.4,50.4,27.6,543.0,82.0,9.3,3,5,7,1,2026-06-03T20:13:44.703617+05:30
Aligarh,Uttar Pradesh,27.8974,78.088,32.0,48,0.0,979.2,7.95,19.4,155,124.3,55.2,26.7,422.0,107.0,14.0,0,5,7,1,2026-06-03T20:13:44.703626+05:30
Moradabad,Uttar Pradesh,28.8386,78.7733,32.1,50,0.0,977.5,7.95,28.1,160,112.2,70.5,33.3,376.0,104.0,17.7,0,5,7,1,2026-06-03T20:13:44.703635+05:30
Saharanpur,Uttar Pradesh,29.9637,77.546,30.6,57,0.0,969.6,7.55,24.8,163,84.3,54.9,34.4,529.0,117.0,20.2,0,5,7,1,2026-06-03T20:13:44.703645+05:30
Jhansi,Uttar Pradesh,25.4484,78.5685,31.7,54,0.0,971.9,8.2,25.6,79,64.7,28.3,9.3,244.0,91.0,6.7,0,5,7,1,2026-06-03T20:13:48.062271+05:30
Surat,Gujarat,21.1702,72.8311,30.1,78,0.0,1002.4,7.55,41.8,89,45.3,25.1,21.6,275.0,36.0,39.7,3,5,4,1,2026-06-03T20:13:48.062304+05:30
Vadodara,Gujarat,22.3072,73.1812,33.2,55,0.0,998.9,8.0,37.4,86,51.9,30.5,10.5,165.0,80.0,11.5,0,5,7,1,2026-06-03T20:13:48.062315+05:30
Rajkot,Gujarat,22.3039,70.8022,33.2,61,0.0,989.0,7.55,34.9,76,44.7,21.9,3.5,132.0,79.0,3.7,3,5,7,1,2026-06-03T20:13:48.062323+05:30
Thane,Maharashtra,19.2183,72.9781,29.7,72,0.0,1004.7,7.6,36.0,74,28.2,12.4,7.0,320.0,48.0,5.7,7,5,4,1,2026-06-03T20:13:48.062331+05:30
Nagpur,Maharashtra,21.1458,79.0882,36.0,32,0.0,968.3,8.9,35.6,91,27.3,18.7,15.3,206.0,84.0,16.0,0,5,10,1,2026-06-03T20:13:48.062340+05:30
Nashik,Maharashtra,19.9975,73.7898,26.9,73,0.0,942.5,8.05,42.1,70,33.9,17.1,3.8,171.0,80.0,3.3,7,5,7,1,2026-06-03T20:13:48.062348+05:30
Aurangabad,Maharashtra,19.8762,75.3433,31.8,39,0.0,940.1,9.0,50.4,70,64.7,29.6,5.2,169.0,101.0,4.5,0,5,7,1,2026-06-03T20:13:48.062355+05:30
Solapur,Maharashtra,17.6599,75.9064,30.0,51,0.0,954.5,2.75,44.6,65,38.9,20.3,8.6,156.0,88.0,3.4,4,5,3,1,2026-06-03T20:13:48.062363+05:30
Kolhapur,Maharashtra,16.705,74.2433,26.1,70,0.0,945.6,3.6,35.6,49,13.8,8.9,5.9,165.0,58.0,2.1,7,5,3,1,2026-06-03T20:13:48.062370+05:30
Goa,Goa,15.2993,74.124,27.2,81,0.0,996.0,2.4,21.2,35,11.6,6.1,3.4,216.0,51.0,0.9,7,5,3,1,2026-06-03T20:13:48.062377+05:30
Jodhpur,Rajasthan,26.2389,73.0243,36.3,35,0.0,976.6,8.45,32.0,102,108.7,38.2,5.2,231.0,83.0,3.7,0,5,10,1,2026-06-03T20:13:48.062385+05:30
Udaipur,Rajasthan,24.5854,73.7125,31.3,48,0.0,941.9,8.85,33.1,89,67.1,32.1,2.8,233.0,89.0,3.5,0,5,7,1,2026-06-03T20:13:48.062392+05:30
Kota,Rajasthan,25.2138,75.8648,31.4,55,0.0,972.4,8.4,31.0,106,102.9,41.0,10.1,342.0,85.0,5.7,0,5,7,1,2026-06-03T20:13:48.062400+05:30
Bikaner,Rajasthan,28.0229,73.3119,36.7,28,0.0,974.8,8.45,28.4,108,118.0,39.7,4.6,180.0,86.0,3.8,0,5,10,0,2026-06-03T20:13:48.062407+05:30
Ajmer,Rajasthan,26.4499,74.6399,32.0,45,0.0,948.9,8.35,38.2,96,73.8,32.2,5.9,291.0,91.0,3.7,0,5,7,1,2026-06-03T20:13:48.062415+05:30
Gwalior,Madhya Pradesh,26.2183,78.1828,30.5,60,0.0,976.7,7.75,36.4,96,81.7,34.0,14.5,348.0,85.0,6.5,0,5,7,1,2026-06-03T20:13:48.062423+05:30
Indore,Madhya Pradesh,22.7196,75.8577,32.5,44,0.0,943.7,8.6,27.7,82,62.6,35.0,8.9,472.0,91.0,6.0,0,5,7,1,2026-06-03T20:13:48.062430+05:30
Bhopal,Madhya Pradesh,23.2599,77.4126,32.1,45,0.0,948.6,8.4,47.5,77,48.5,27.6,11.6,522.0,84.0,5.2,0,5,7,1,2026-06-03T20:13:48.062437+05:30
Jabalpur,Madhya Pradesh,23.1815,79.9864,33.0,41,0.0,956.3,8.35,30.6,91,37.3,24.0,10.4,259.0,98.0,5.9,0,5,7,1,2026-06-03T20:13:48.062445+05:30
Ujjain,Madhya Pradesh,23.1765,75.7885,31.2,51,0.0,949.1,8.55,28.1,82,58.3,30.6,4.0,284.0,99.0,6.4,0,5,7,1,2026-06-03T20:13:48.062453+05:30
Visakhapatnam,Andhra Pradesh,17.6868,83.2185,30.8,87,0.0,998.8,9.05,44.6,130,40.6,33.2,28.7,363.0,103.0,52.8,3,5,7,1,2026-06-03T20:13:48.062460+05:30
Vijayawada,Andhra Pradesh,16.5062,80.648,33.2,57,0.0,998.1,9.0,43.6,128,68.2,58.9,21.9,334.0,87.0,9.4,0,5,7,1,2026-06-03T20:13:48.062468+05:30
Guntur,Andhra Pradesh,16.3067,80.4365,32.8,56,0.0,999.5,9.05,45.0,128,58.8,47.6,24.9,223.0,93.0,10.1,0,5,7,1,2026-06-03T20:13:48.062475+05:30
Nellore,Andhra Pradesh,14.4426,79.9865,26.6,94,0.5,1003.1,9.0,37.4,134,25.2,21.2,5.7,271.0,130.0,4.8,10,5,4,1,2026-06-03T20:13:48.062484+05:30
Kurnool,Andhra Pradesh,15.8281,78.0373,27.5,73,0.0,974.9,2.65,47.5,90,30.6,21.9,13.2,174.0,105.0,9.4,7,5,3,1,2026-06-03T20:13:48.062492+05:30
Kakinada,Andhra Pradesh,16.9891,82.2475,30.8,81,0.0,1002.5,9.05,36.0,105,32.4,23.6,3.8,278.0,127.0,4.0,3,5,4,1,2026-06-03T20:13:48.062500+05:30
Tirupati,Andhra Pradesh,13.6288,79.4192,26.1,93,0.3,989.4,9.0,28.4,79,15.8,13.9,13.0,312.0,87.0,2.0,10,5,7,1,2026-06-03T20:13:48.062508+05:30
Warangal,Telangana,17.9689,79.5941,33.3,45,0.0,974.6,9.0,30.2,98,53.9,42.4,20.2,292.0,76.0,7.2,0,5,7,1,2026-06-03T20:13:48.062515+05:30
Nizamabad,Telangana,18.6725,78.0941,32.2,46,0.0,960.9,8.3,38.9,72,45.8,27.0,8.0,224.0,103.0,5.6,0,5,7,1,2026-06-03T20:13:48.062523+05:30
Mysore,Karnataka,12.2958,76.6396,23.0,80,0.0,927.3,8.8,49.7,34,8.1,6.5,9.6,169.0,57.0,2.1,3,5,7,1,2026-06-03T20:13:48.062530+05:30
Mangalore,Karnataka,12.9141,74.856,25.1,94,0.4,1006.1,8.6,32.4,39,10.8,7.2,7.8,277.0,40.0,2.6,10,5,4,1,2026-06-03T20:13:48.062538+05:30
Hubli-Dharwad,Karnataka,15.3647,75.124,23.8,90,0.0,938.8,6.35,38.9,36,7.2,4.5,4.4,138.0,62.0,0.9,3,5,7,1,2026-06-03T20:13:48.062545+05:30
Belgaum,Karnataka,15.8497,74.4977,23.2,85,0.0,923.7,1.4,30.6,38,10.2,6.0,4.9,132.0,62.0,2.0,3,5,3,1,2026-06-03T20:13:51.337417+05:30
Coimbatore,Tamil Nadu,11.0168,76.9558,25.7,75,0.0,960.5,8.85,48.6,34,7.4,6.0,6.5,180.0,59.0,2.5,7,5,7,1,2026-06-03T20:13:51.337451+05:30
Madurai,Tamil Nadu,9.9252,78.1198,30.0,56,0.0,991.3,8.65,55.1,68,15.7,12.3,17.9,167.0,54.0,4.4,4,5,7,1,2026-06-03T20:13:51.337463+05:30
Trichy,Tamil Nadu,10.7905,78.7047,31.5,51,0.0,997.7,8.85,60.8,45,12.2,9.2,9.4,172.0,70.0,3.7,0,5,7,1,2026-06-03T20:13:51.337472+05:30
Salem,Tamil Nadu,11.6643,78.146,27.8,84,0.0,975.8,8.1,44.3,48,10.6,7.9,11.2,361.0,63.0,5.8,7,5,7,1,2026-06-03T20:13:51.337481+05:30
Tirunelveli,Tamil Nadu,8.7139,77.7567,30.4,59,0.0,1002.5,8.3,50.0,29,6.6,5.1,4.9,137.0,47.0,1.3,0,5,4,1,2026-06-03T20:13:51.337490+05:30
Vellore,Tamil Nadu,12.9165,79.1325,26.7,91,0.1,982.9,9.0,38.9,91,13.4,13.0,15.8,264.0,75.0,4.3,10,5,7,1,2026-06-03T20:13:51.337498+05:30
Erode,Tamil Nadu,11.341,77.7172,28.9,63,0.0,987.4,8.55,49.3,41,10.0,8.0,10.0,213.0,61.0,2.6,7,5,7,1,2026-06-03T20:13:51.337505+05:30
Kochi,Kerala,9.9312,76.2673,27.7,85,0.1,1008.8,8.2,26.3,37,18.9,16.1,20.6,143.0,27.0,4.2,10,0,4,1,2026-06-03T20:13:51.337514+05:30
Thiruvananthapuram,Kerala,8.5241,76.9366,26.0,89,0.1,1008.4,8.1,45.0,27,11.6,6.5,1.9,116.0,47.0,0.6,10,0,4,1,2026-06-03T20:13:51.337521+05:30
Kozhikode,Kerala,11.2588,75.7804,25.6,99,0.0,1008.1,8.6,30.6,28,9.8,5.8,1.7,329.0,55.0,0.7,7,0,4,1,2026-06-03T20:13:51.337529+05:30
Thrissur,Kerala,10.5276,76.2144,26.4,90,0.1,1007.2,8.55,25.9,35,18.5,15.8,20.7,307.0,26.0,4.6,10,5,4,1,2026-06-03T20:13:51.337537+05:30
Kannur,Kerala,11.8745,75.3704,25.6,95,0.1,1007.1,8.5,27.4,33,12.3,9.7,13.8,324.0,34.0,2.3,10,5,4,1,2026-06-03T20:13:51.337545+05:30
Patna,Bihar,25.5941,85.1376,30.7,68,0.0,994.5,8.85,29.9,164,80.8,67.1,39.0,520.0,80.0,17.4,3,5,7,1,2026-06-03T20:13:51.337571+05:30
Gaya,Bihar,24.7914,85.0002,31.7,61,0.0,988.2,8.9,28.8,152,84.5,70.5,21.8,780.0,108.0,16.4,3,5,7,1,2026-06-03T20:13:51.337582+05:30
Muzaffarpur,Bihar,26.1209,85.3647,30.5,74,0.0,994.3,8.85,33.1,167,87.3,71.7,42.9,615.0,80.0,17.0,3,5,7,1,2026-06-03T20:13:51.337591+05:30
Bhagalpur,Bihar,25.2425,87.0117,32.2,70,0.0,995.2,8.8,28.1,169,65.0,52.0,17.4,535.0,123.0,12.4,3,5,7,1,2026-06-03T20:13:51.337601+05:30
Ranchi,Jharkhand,23.3441,85.3096,27.3,69,0.0,933.5,9.3,32.8,158,86.6,63.8,12.7,431.0,122.0,9.2,7,5,7,1,2026-06-03T20:13:51.337611+05:30
Jamshedpur,Jharkhand,22.8046,86.2029,29.1,74,0.0,986.0,8.9,39.6,201,71.0,63.3,17.9,549.0,132.0,30.6,7,5,7,1,2026-06-03T20:13:51.337621+05:30
Dhanbad,Jharkhand,23.7957,86.4304,31.3,62,0.0,975.1,9.05,33.8,183,110.4,97.1,52.3,391.0,107.0,130.0,3,5,7,1,2026-06-03T20:13:51.337632+05:30
Bokaro,Jharkhand,23.6693,86.1511,30.9,65,0.0,978.9,9.1,31.3,200,102.0,84.1,40.4,432.0,109.0,102.8,3,5,7,1,2026-06-03T20:13:51.337640+05:30
Bhubaneswar,Odisha,20.2961,85.8245,30.2,85,0.0,997.6,9.0,28.8,151,47.1,42.5,14.0,485.0,115.0,10.7,3,5,7,1,2026-06-03T20:13:51.337647+05:30
Cuttack,Odisha,20.4625,85.8828,30.4,87,0.0,999.5,9.1,35.6,151,47.1,42.5,14.0,438.0,115.0,10.7,3,5,7,1,2026-06-03T20:13:51.337654+05:30
Rourkela,Odisha,22.2604,84.8536,31.8,58,0.0,980.0,9.0,26.3,170,103.4,76.1,18.0,296.0,132.0,18.0,0,5,7,1,2026-06-03T20:13:51.337661+05:30
Raipur,Chhattisgarh,21.2514,81.6296,35.8,29,0.0,969.6,8.95,35.3,149,53.6,41.3,30.1,457.0,98.0,46.5,0,5,10,0,2026-06-03T20:13:51.337669+05:30
Bhilai,Chhattisgarh,21.1938,81.3509,34.2,32,0.0,969.9,8.95,34.6,131,55.9,42.3,30.1,665.0,97.0,41.3,0,5,7,0,2026-06-03T20:13:51.337676+05:30
Guwahati,Assam,26.1158,91.7086,28.4,87,0.0,996.9,8.8,39.2,113,45.6,43.4,7.6,563.0,97.0,6.0,7,5,7,1,2026-06-03T20:13:51.337683+05:30
Agartala,Tripura,23.8315,91.2868,29.6,75,0.0,1001.6,8.85,20.5,101,55.9,49.5,23.6,376.0,73.0,7.1,7,5,4,1,2026-06-03T20:13:51.337691+05:30
Shillong,Meghalaya,25.5788,91.8933,19.3,95,0.0,854.6,7.15,29.2,86,29.8,27.6,9.0,599.0,91.0,3.8,3,10,7,1,2026-06-03T20:13:51.337720+05:30
Imphal,Manipur,24.817,93.9368,24.1,86,0.0,919.9,9.25,30.2,92,38.2,32.1,17.6,606.0,60.0,4.5,3,5,7,1,2026-06-03T20:13:51.337730+05:30
Aizawl,Mizoram,23.7271,92.7176,22.2,86,0.0,890.0,9.1,23.0,78,35.2,25.5,8.4,251.0,67.0,2.1,3,5,7,1,2026-06-03T20:13:51.337740+05:30
Kohima,Nagaland,25.6701,94.1077,20.0,95,0.0,852.8,9.25,29.2,85,31.7,27.1,12.8,450.0,72.0,2.6,3,5,7,1,2026-06-03T20:13:51.337750+05:30
Gangtok,Sikkim,27.3314,88.6138,18.3,92,0.4,834.9,9.15,40.7,114,40.2,33.8,9.0,507.0,130.0,2.9,6,10,7,1,2026-06-03T20:13:51.337759+05:30
Siliguri,West Bengal,26.7271,88.3953,26.6,94,0.1,987.7,8.7,31.3,156,81.7,64.7,17.9,658.0,120.0,7.1,10,5,7,1,2026-06-03T20:13:54.612522+05:30
Durgapur,West Bengal,23.5204,87.3119,30.8,75,0.0,989.8,9.0,23.8,217,103.4,97.3,28.2,1344.0,144.0,51.0,3,5,7,1,2026-06-03T20:13:54.612554+05:30
Asansol,West Bengal,23.6739,86.9524,31.0,69,0.0,988.4,8.9,24.5,193,101.0,91.0,35.1,715.0,129.0,56.4,3,5,7,1,2026-06-03T20:13:54.612565+05:30
Pondicherry,Puducherry,11.9139,79.8145,31.2,68,0.0,1005.4,8.85,39.6,102,21.0,17.5,17.7,288.0,98.0,5.7,3,5,4,1,2026-06-03T20:13:54.612574+05:30
Port Blair,Andaman and Nicobar Islands,11.6234,92.7265,26.2,91,0.0,1006.1,2.1,36.0,36,6.2,3.8,0.5,134.0,71.0,0.5,7,5,0,1,2026-06-03T20:13:54.612583+05:30
Haridwar,Uttarakhand,29.9457,78.1642,29.4,67,0.0,967.8,7.6,24.1,158,46.0,35.3,15.7,435.0,132.0,11.8,7,5,7,1,2026-06-03T20:13:54.612591+05:30
Rishikesh,Uttarakhand,30.0869,78.2676,26.7,83,0.0,960.7,7.7,23.8,136,32.0,22.8,9.2,373.0,126.0,4.9,7,5,7,1,2026-06-03T20:13:54.612599+05:30
Nainital,Uttarakhand,29.3919,79.4542,15.2,100,0.0,801.8,7.4,31.3,123,66.8,40.7,10.4,323.0,128.0,6.0,3,10,7,0,2026-06-03T20:13:54.612607+05:30
Mussoorie,Uttarakhand,30.4599,78.0664,15.5,95,0.0,799.5,7.9,40.7,159,39.1,29.0,18.0,353.0,141.0,10.4,3,10,7,0,2026-06-03T20:13:54.612615+05:30
Dharamshala,Himachal Pradesh,32.219,76.3234,20.9,81,0.0,865.2,8.5,36.0,102,37.4,20.1,9.5,339.0,100.0,1.0,3,5,7,1,2026-06-03T20:13:54.612622+05:30
Dalhousie,Himachal Pradesh,32.5387,75.971,16.8,79,0.0,801.3,8.6,31.7,138,56.6,29.0,14.7,592.0,137.0,2.7,3,5,7,0,2026-06-03T20:13:54.612629+05:30
Patiala,Punjab,30.3398,76.3869,30.9,54,0.0,971.8,7.7,34.2,147,237.5,61.9,13.0,378.0,119.0,8.5,0,5,7,1,2026-06-03T20:13:54.612637+05:30
Bhatinda,Punjab,30.211,74.9455,33.5,40,0.0,977.3,8.35,28.4,162,90.8,41.8,10.9,408.0,123.0,10.4,0,5,7,1,2026-06-03T20:13:54.612644+05:30
Rohtak,Haryana,28.8955,76.6066,32.7,54,0.0,975.2,7.8,20.5,201,163.4,67.8,45.1,644.0,111.0,15.7,0,5,7,1,2026-06-03T20:13:54.612650+05:30
Panipat,Haryana,29.3909,76.9635,31.5,46,0.0,974.2,7.65,23.0,186,222.6,76.8,36.5,411.0,115.0,22.0,0,5,7,1,2026-06-03T20:13:54.612657+05:30
Mathura,Uttar Pradesh,27.4924,77.6737,31.6,53,0.0,980.3,8.1,18.4,132,228.6,61.5,23.3,608.0,97.0,6.3,0,5,7,1,2026-06-03T20:13:54.612664+05:30
Vrindavan,Uttar Pradesh,27.5823,77.7027,31.9,50,0.0,980.7,8.05,18.4,132,228.6,61.5,23.3,349.0,97.0,6.3,0,5,7,1,2026-06-03T20:13:54.612671+05:30
Ayodhya,Uttar Pradesh,26.7922,82.1998,31.0,60,0.0,989.0,8.4,47.2,125,55.8,43.3,20.9,320.0,87.0,8.4,0,5,7,1,2026-06-03T20:13:54.612677+05:30
Ratlam,Madhya Pradesh,23.3315,75.0367,31.9,46,0.0,950.1,8.5,29.9,85,56.3,30.0,3.0,187.0,98.0,5.9,0,5,7,1,2026-06-03T20:13:54.612685+05:30
Sagar,Madhya Pradesh,23.8388,78.7378,30.5,51,0.0,945.0,7.6,25.9,77,50.8,26.6,7.3,299.0,93.0,4.4,0,5,7,1,2026-06-03T20:13:54.612692+05:30
Satna,Madhya Pradesh,24.6005,80.8322,29.9,58,0.0,965.7,8.75,28.1,92,34.0,20.9,8.2,363.0,96.0,3.5,4,5,7,1,2026-06-03T20:13:54.612700+05:30
Akola,Maharashtra,20.7002,77.0082,33.6,43,0.0,969.7,8.85,33.5,65,46.8,23.6,7.5,203.0,97.0,6.8,0,5,7,1,2026-06-03T20:13:54.612708+05:30
Amravati,Maharashtra,20.9374,77.7796,34.8,33,0.0,962.5,8.85,34.6,71,39.6,21.7,10.0,179.0,89.0,7.0,0,5,7,1,2026-06-03T20:13:54.612715+05:30
Latur,Maharashtra,18.4088,76.5604,29.5,56,0.0,937.0,8.75,39.2,67,39.6,21.2,6.5,183.0,84.0,2.5,4,5,7,1,2026-06-03T20:13:54.612723+05:30
Nanded,Maharashtra,19.1383,77.3091,34.0,40,0.0,964.2,8.95,40.7,73,51.5,26.9,7.5,198.0,102.0,5.4,0,5,7,1,2026-06-03T20:13:54.612730+05:30
Gulbarga,Karnataka,17.3297,76.8343,27.4,70,0.0,956.3,6.45,50.4,66,36.0,20.1,11.4,193.0,87.0,3.5,7,5,7,1,2026-06-03T20:13:54.612737+05:30
Bidar,Karnataka,17.9104,77.5199,26.6,69,0.0,932.4,8.95,32.8,90,50.5,32.0,23.2,271.0,80.0,5.1,7,5,7,1,2026-06-03T20:13:54.612743+05:30
Hospet,Karnataka,15.2689,76.3909,25.4,85,0.0,954.1,8.75,33.1,44,10.0,7.7,7.7,194.0,76.0,1.7,7,5,7,1,2026-06-03T20:13:54.612750+05:30
Tirupur,Tamil Nadu,11.1085,77.3411,26.7,72,0.0,973.8,8.95,50.8,39,10.2,8.3,10.7,185.0,59.0,3.4,7,5,7,1,2026-06-03T20:13:54.612757+05:30
Alappuzha,Kerala,9.4981,76.3388,28.0,80,0.2,1008.7,8.1,38.9,29,11.5,8.1,8.6,94.0,42.0,1.9,10,0,4,1,2026-06-03T20:13:54.612764+05:30
Munnar,Kerala,10.0889,77.0595,16.6,100,0.0,856.4,8.4,45.0,34,8.7,6.5,5.7,129.0,55.0,1.7,3,10,7,1,2026-06-03T20:13:54.612772+05:30
Silchar,Assam,24.8333,92.7789,29.2,87,0.0,1000.4,8.8,22.3,113,51.8,41.6,11.5,946.0,109.0,7.7,7,5,4,1,2026-06-03T20:13:54.612779+05:30
Dibrugarh,Assam,27.4728,94.912,25.8,91,0.2,991.3,8.95,33.8,106,30.5,28.5,12.9,409.0,77.0,3.5,10,5,7,1,2026-06-03T20:13:54.612786+05:30
