city,state,latitude,longitude,temp,humidity,rain,pressure,uv_index,wind_gusts,aqi,pm10,pm2_5,mosquito_risk,arthritis_risk,migraine_risk,frizz_risk,updated_at
Delhi,Delhi,28.6139,77.209,32.9,27,0.0,984.7,7.25,31.7,426,428.4,49.9,0,5,7,0,2026-04-13T13:39:43.979738+05:30
Mumbai,Maharashtra,19.076,72.8777,27.9,81,0.0,1009.1,8.0,19.8,113,85.2,45.4,7,0,4,1,2026-04-13T13:39:43.979788+05:30
Bangalore,Karnataka,12.9716,77.5946,35.5,28,0.0,913.6,9.6,31.3,94,44.2,27.6,0,5,10,0,2026-04-13T13:39:43.979805+05:30
Hyderabad,Telangana,17.385,78.4867,39.3,24,0.0,953.7,9.25,32.0,90,46.3,33.4,0,5,10,0,2026-04-13T13:39:43.979816+05:30
Chennai,Tamil Nadu,13.0827,80.2707,35.9,47,0.0,1008.0,9.3,35.3,46,18.5,11.3,0,0,7,1,2026-04-13T13:39:43.979825+05:30
Kolkata,West Bengal,22.5726,88.3639,34.8,55,0.0,1005.6,8.85,28.1,73,37.4,25.0,0,5,4,1,2026-04-13T13:39:43.979834+05:30
Pune,Maharashtra,18.5204,73.8567,39.5,18,0.0,949.5,8.6,40.0,91,26.9,12.8,0,5,10,0,2026-04-13T13:39:43.979845+05:30
Ahmedabad,Gujarat,23.0225,72.5714,41.2,13,0.0,1002.0,8.1,27.7,69,53.9,17.7,0,5,7,0,2026-04-13T13:39:43.979852+05:30
Jaipur,Rajasthan,26.9124,75.7873,35.1,20,0.0,961.9,7.9,23.8,151,225.8,30.3,0,5,10,0,2026-04-13T13:39:43.979860+05:30
Lucknow,Uttar Pradesh,26.8467,80.9462,35.9,18,0.0,994.0,7.75,40.0,105,62.9,12.9,0,5,10,0,2026-04-13T13:39:43.979868+05:30
Kanpur,Uttar Pradesh,26.4499,80.3319,34.2,25,0.0,993.1,7.75,29.9,276,361.4,37.1,0,5,7,0,2026-04-13T13:39:43.979876+05:30
Chandigarh,Chandigarh,30.7333,76.7794,31.9,28,0.0,970.2,7.2,28.1,84,12.7,9.3,0,5,7,0,2026-04-13T13:39:43.979886+05:30
Srinagar,Jammu and Kashmir,34.0837,74.7973,20.0,38,0.0,844.4,8.1,14.4,100,20.5,8.5,0,5,7,0,2026-04-13T13:39:43.979893+05:30
Jammu,Jammu and Kashmir,32.7266,74.857,31.9,34,0.0,974.2,7.4,31.7,65,25.2,12.5,0,5,7,0,2026-04-13T13:39:43.979900+05:30
Amritsar,Punjab,31.634,74.8723,31.6,30,0.0,982.8,7.8,22.3,71,24.0,12.5,0,5,7,0,2026-04-13T13:39:43.979907+05:30
Ludhiana,Punjab,30.901,75.8573,32.4,25,0.0,980.6,7.45,26.3,64,17.1,9.3,0,5,7,0,2026-04-13T13:39:43.979913+05:30
Jalandhar,Punjab,31.326,75.5762,31.7,29,0.0,981.7,7.6,24.5,71,32.6,11.0,0,5,7,0,2026-04-13T13:39:43.979922+05:30
Dehradun,Uttarakhand,30.6284,78.0322,21.5,51,0.0,832.5,7.5,30.2,81,12.5,5.6,0,5,7,0,2026-04-13T13:39:43.979929+05:30
Shimla,Himachal Pradesh,31.1048,77.1734,19.6,48,0.0,787.7,7.7,36.7,65,11.5,4.5,0,5,7,0,2026-04-13T13:39:43.979936+05:30
Manali,Himachal Pradesh,32.2396,77.1887,23.2,25,0.0,822.6,9.8,28.1,128,13.9,7.6,0,5,7,0,2026-04-13T13:39:43.979942+05:30
Gurgaon,Haryana,28.4595,77.0266,33.1,28,0.0,983.3,7.35,25.9,1076,1270.3,119.0,0,5,7,0,2026-04-13T13:39:43.979949+05:30
Noida,Uttar Pradesh,28.5355,77.391,33.3,26,0.0,986.3,7.3,32.0,1076,1270.3,119.0,0,5,7,0,2026-04-13T13:39:43.979956+05:30
Ghaziabad,Uttar Pradesh,28.6692,77.4538,32.8,28,0.0,984.4,7.25,31.7,197,299.0,40.5,0,5,7,0,2026-04-13T13:39:43.979962+05:30
Faridabad,Haryana,28.4089,77.3178,33.6,25,0.0,985.6,7.3,29.2,1076,1270.3,119.0,0,5,7,0,2026-04-13T13:39:43.979969+05:30
Meerut,Uttar Pradesh,28.9845,77.7064,33.0,23,0.0,982.8,7.15,34.6,197,299.0,40.5,0,5,7,0,2026-04-13T13:39:43.979975+05:30
Agra,Uttar Pradesh,27.1767,78.0081,35.0,25,0.0,989.5,7.65,25.2,900,543.9,58.4,0,5,7,0,2026-04-13T13:39:43.979982+05:30
Varanasi,Uttar Pradesh,25.3176,82.9739,37.7,15,0.0,998.0,8.35,36.4,96,163.0,28.3,0,5,10,0,2026-04-13T13:39:43.979994+05:30
Prayagraj,Uttar Pradesh,25.4358,81.8463,36.8,17,0.0,997.2,8.25,36.4,91,66.1,16.1,0,5,10,0,2026-04-13T13:39:43.980001+05:30
Gorakhpur,Uttar Pradesh,26.7606,83.3732,36.6,20,0.0,997.0,8.15,24.5,94,123.9,25.0,0,5,10,0,2026-04-13T13:39:43.980007+05:30
Bareilly,Uttar Pradesh,28.367,79.4304,34.4,17,0.0,987.5,7.5,36.7,73,6.7,5.7,0,5,7,0,2026-04-13T13:39:43.980013+05:30
Aligarh,Uttar Pradesh,27.8974,78.088,35.0,23,0.0,987.0,7.45,33.8,610,773.0,80.8,0,5,7,0,2026-04-13T13:39:43.980020+05:30
Moradabad,Uttar Pradesh,28.8386,78.7733,33.2,21,0.0,984.7,7.35,34.6,75,13.8,7.5,0,5,7,0,2026-04-13T13:39:43.980025+05:30
Saharanpur,Uttar Pradesh,29.9637,77.546,32.4,25,0.0,976.9,6.95,29.9,70,38.8,12.0,0,5,7,0,2026-04-13T13:39:43.980031+05:30
Jhansi,Uttar Pradesh,25.4484,78.5685,37.5,16,0.0,979.6,8.15,26.6,159,243.1,36.6,0,5,10,0,2026-04-13T13:39:47.203360+05:30
Surat,Gujarat,21.1702,72.8311,31.9,69,0.0,1007.6,7.8,25.9,139,82.4,64.7,3,5,4,1,2026-04-13T13:39:47.203394+05:30
Vadodara,Gujarat,22.3072,73.1812,40.7,18,0.0,1004.1,8.05,23.4,129,35.3,15.9,0,5,7,0,2026-04-13T13:39:47.203404+05:30
Rajkot,Gujarat,22.3039,70.8022,38.9,21,0.0,995.2,7.8,37.1,72,66.4,21.0,0,5,10,0,2026-04-13T13:39:47.203412+05:30
Thane,Maharashtra,19.2183,72.9781,33.3,54,0.0,1008.7,8.0,33.1,113,85.2,45.4,0,0,4,1,2026-04-13T13:39:47.203458+05:30
Nagpur,Maharashtra,21.1458,79.0882,37.6,27,0.0,973.4,8.85,25.2,113,72.2,47.3,0,5,10,0,2026-04-13T13:39:47.203468+05:30
Nashik,Maharashtra,19.9975,73.7898,36.9,23,0.0,947.0,8.25,33.8,92,35.6,16.7,0,5,10,0,2026-04-13T13:39:47.203474+05:30
Aurangabad,Maharashtra,19.8762,75.3433,39.1,18,0.0,945.2,8.95,31.0,83,32.5,16.6,0,5,10,0,2026-04-13T13:39:47.203481+05:30
Solapur,Maharashtra,17.6599,75.9064,40.2,20,0.0,957.3,9.05,30.2,99,42.5,29.0,0,5,10,0,2026-04-13T13:39:47.203488+05:30
Kolhapur,Maharashtra,16.705,74.2433,34.9,41,0.0,949.5,9.05,43.9,92,37.6,19.6,0,5,7,1,2026-04-13T13:39:47.203495+05:30
Goa,Goa,15.2993,74.124,31.9,66,0.0,998.9,9.05,29.5,94,40.6,24.3,3,5,7,1,2026-04-13T13:39:47.203501+05:30
Jodhpur,Rajasthan,26.2389,73.0243,37.3,18,0.0,984.2,8.15,26.3,54,88.2,13.1,0,5,10,0,2026-04-13T13:39:47.203508+05:30
Udaipur,Rajasthan,24.5854,73.7125,36.6,14,0.0,948.5,8.7,26.3,74,83.8,14.7,0,5,10,0,2026-04-13T13:39:47.203514+05:30
Kota,Rajasthan,25.2138,75.8648,36.7,23,0.0,980.1,8.15,18.4,75,83.6,19.3,0,5,10,0,2026-04-13T13:39:47.203521+05:30
Bikaner,Rajasthan,28.0229,73.3119,37.0,17,0.0,982.9,7.95,19.4,61,55.9,11.7,0,5,10,0,2026-04-13T13:39:47.203527+05:30
Ajmer,Rajasthan,26.4499,74.6399,35.9,18,0.0,956.4,8.1,31.3,71,51.0,11.3,0,5,10,0,2026-04-13T13:39:47.203532+05:30
Gwalior,Madhya Pradesh,26.2183,78.1828,36.0,21,0.0,985.2,7.9,30.6,292,218.9,33.3,0,5,10,0,2026-04-13T13:39:47.203538+05:30
Indore,Madhya Pradesh,22.7196,75.8577,36.7,21,0.0,949.5,8.55,31.3,79,44.2,15.7,0,5,10,0,2026-04-13T13:39:47.203545+05:30
Bhopal,Madhya Pradesh,23.2599,77.4126,37.5,20,0.0,955.1,8.5,22.3,79,104.1,24.1,0,5,10,0,2026-04-13T13:39:47.203552+05:30
Jabalpur,Madhya Pradesh,23.1815,79.9864,36.6,22,0.0,962.7,8.65,27.4,80,189.1,36.1,0,5,10,0,2026-04-13T13:39:47.203558+05:30
Ujjain,Madhya Pradesh,23.1765,75.7885,37.1,21,0.0,955.1,8.45,29.2,91,40.7,17.9,0,5,10,0,2026-04-13T13:39:47.203564+05:30
Visakhapatnam,Andhra Pradesh,17.6868,83.2185,34.0,50,0.0,1004.2,9.15,42.1,72,41.4,25.7,0,5,4,1,2026-04-13T13:39:47.203571+05:30
Vijayawada,Andhra Pradesh,16.5062,80.648,37.4,39,0.0,1002.6,9.2,31.0,61,35.4,21.8,0,5,7,1,2026-04-13T13:39:47.203577+05:30
Guntur,Andhra Pradesh,16.3067,80.4365,37.7,40,0.0,1003.9,9.25,32.4,63,38.1,25.0,0,5,7,1,2026-04-13T13:39:47.203583+05:30
Nellore,Andhra Pradesh,14.4426,79.9865,39.4,32,0.0,1005.5,9.3,35.6,57,31.8,22.4,0,5,7,1,2026-04-13T13:39:47.203590+05:30
Kurnool,Andhra Pradesh,15.8281,78.0373,40.2,26,0.0,976.5,9.25,26.6,88,47.5,33.5,0,5,10,1,2026-04-13T13:39:47.203597+05:30
Kakinada,Andhra Pradesh,16.9891,82.2475,36.8,46,0.0,1007.6,9.2,34.6,59,32.5,15.1,0,5,7,1,2026-04-13T13:39:47.203603+05:30
Tirupati,Andhra Pradesh,13.6288,79.4192,38.1,27,0.0,992.1,9.4,31.0,69,34.0,25.7,0,5,10,0,2026-04-13T13:39:47.203609+05:30
Warangal,Telangana,17.9689,79.5941,39.4,30,0.0,978.7,9.15,33.8,83,43.4,30.7,0,5,10,1,2026-04-13T13:39:47.203615+05:30
Nizamabad,Telangana,18.6725,78.0941,39.8,26,0.0,964.9,9.05,32.0,112,49.7,38.2,0,5,10,1,2026-04-13T13:39:47.203621+05:30
Mysore,Karnataka,12.2958,76.6396,36.1,30,0.0,929.7,9.5,46.1,96,45.4,28.3,0,5,10,0,2026-04-13T13:39:47.203628+05:30
Mangalore,Karnataka,12.9141,74.856,29.3,88,0.0,1007.1,9.15,23.4,101,56.1,32.5,7,5,4,1,2026-04-13T13:39:47.203634+05:30
Hubli-Dharwad,Karnataka,15.3647,75.124,32.8,44,0.0,942.5,9.25,36.4,88,45.1,31.4,0,5,7,1,2026-04-13T13:39:47.203641+05:30
Belgaum,Karnataka,15.8497,74.4977,33.7,39,0.0,927.6,9.3,37.8,91,34.6,20.5,0,5,7,1,2026-04-13T13:39:50.430951+05:30
Coimbatore,Tamil Nadu,11.0168,76.9558,37.5,29,0.0,962.4,9.45,36.4,94,41.3,25.7,0,5,10,1,2026-04-13T13:39:50.430986+05:30
Madurai,Tamil Nadu,9.9252,78.1198,37.7,30,0.0,993.1,9.35,40.0,81,30.6,21.1,0,5,10,1,2026-04-13T13:39:50.430997+05:30
Trichy,Tamil Nadu,10.7905,78.7047,37.4,32,0.0,999.9,9.35,27.4,57,24.4,15.5,0,5,10,1,2026-04-13T13:39:50.431005+05:30
Salem,Tamil Nadu,11.6643,78.146,36.9,38,0.0,977.8,9.45,17.6,73,33.1,20.8,0,5,10,1,2026-04-13T13:39:50.431013+05:30
Tirunelveli,Tamil Nadu,8.7139,77.7567,38.8,32,0.0,1002.8,9.2,47.9,83,31.5,21.9,0,5,7,1,2026-04-13T13:39:50.431021+05:30
Vellore,Tamil Nadu,12.9165,79.1325,37.7,30,0.0,985.1,9.45,31.3,87,34.0,25.6,0,5,10,1,2026-04-13T13:39:50.431028+05:30
Erode,Tamil Nadu,11.341,77.7172,38.8,31,0.0,988.9,9.4,26.3,62,30.3,19.5,0,5,10,1,2026-04-13T13:39:50.431035+05:30
Kochi,Kerala,9.9312,76.2673,29.9,77,0.0,1008.6,9.1,29.9,101,41.1,26.1,7,0,4,1,2026-04-13T13:39:50.431042+05:30
Thiruvananthapuram,Kerala,8.5241,76.9366,29.5,81,0.0,1007.9,8.9,29.2,86,44.1,27.5,7,5,4,1,2026-04-13T13:39:50.431049+05:30
Kozhikode,Kerala,11.2588,75.7804,31.5,72,0.0,1007.8,9.15,30.2,96,51.0,28.1,3,5,4,1,2026-04-13T13:39:50.431055+05:30
Thrissur,Kerala,10.5276,76.2144,34.5,58,0.0,1007.0,9.15,37.8,93,42.5,25.4,0,5,4,1,2026-04-13T13:39:50.431062+05:30
Kannur,Kerala,11.8745,75.3704,33.1,60,0.0,1007.4,9.1,33.5,110,58.6,32.9,0,5,4,1,2026-04-13T13:39:50.431069+05:30
Patna,Bihar,25.5941,85.1376,36.6,22,0.0,1000.1,8.5,32.0,98,112.0,23.9,0,5,7,0,2026-04-13T13:39:50.431076+05:30
Gaya,Bihar,24.7914,85.0002,35.8,28,0.0,994.1,8.55,23.4,99,151.8,30.7,0,5,10,0,2026-04-13T13:39:50.431082+05:30
Muzaffarpur,Bihar,26.1209,85.3647,35.9,28,0.0,1000.0,8.45,23.0,107,88.7,23.9,0,5,7,0,2026-04-13T13:39:50.431088+05:30
Bhagalpur,Bihar,25.2425,87.0117,34.1,44,0.0,1000.8,8.5,16.6,141,92.0,35.9,0,5,4,1,2026-04-13T13:39:50.431093+05:30
Ranchi,Jharkhand,23.3441,85.3096,34.2,26,0.0,939.2,9.1,22.0,127,72.6,20.4,0,5,7,0,2026-04-13T13:39:50.431099+05:30
Jamshedpur,Jharkhand,22.8046,86.2029,36.1,41,0.0,990.4,8.95,16.9,118,61.7,34.9,0,5,10,1,2026-04-13T13:39:50.431105+05:30
Dhanbad,Jharkhand,23.7957,86.4304,38.1,20,0.0,979.5,8.9,21.6,151,98.3,32.9,0,5,10,0,2026-04-13T13:39:50.431112+05:30
Bokaro,Jharkhand,23.6693,86.1511,37.0,24,0.0,983.6,8.9,16.6,142,97.3,33.8,0,5,10,0,2026-04-13T13:39:50.431118+05:30
Bhubaneswar,Odisha,20.2961,85.8245,34.1,58,0.0,1002.6,9.1,34.6,67,36.8,27.3,0,5,4,1,2026-04-13T13:39:50.431124+05:30
Cuttack,Odisha,20.4625,85.8828,36.8,51,0.0,1004.1,9.1,33.5,67,36.8,27.3,0,5,7,1,2026-04-13T13:39:50.431131+05:30
Rourkela,Odisha,22.2604,84.8536,38.2,36,0.0,984.5,8.85,24.5,151,50.8,36.6,0,5,10,1,2026-04-13T13:39:50.431136+05:30
Raipur,Chhattisgarh,21.2514,81.6296,39.6,28,0.0,974.5,8.9,34.2,123,53.8,38.3,0,5,10,1,2026-04-13T13:39:50.431142+05:30
Bhilai,Chhattisgarh,21.1938,81.3509,39.4,29,0.0,974.7,8.9,32.8,119,49.8,36.9,0,5,10,1,2026-04-13T13:39:50.431147+05:30
Guwahati,Assam,26.1158,91.7086,28.6,64,0.0,1001.4,8.4,40.3,142,117.3,62.6,7,5,4,1,2026-04-13T13:39:50.431153+05:30
Agartala,Tripura,23.8315,91.2868,33.4,55,0.0,1005.7,8.65,32.0,80,41.4,23.6,0,5,4,1,2026-04-13T13:39:50.431159+05:30
Shillong,Meghalaya,25.5788,91.8933,19.9,64,0.0,857.6,8.8,75.2,118,72.2,41.4,3,5,7,0,2026-04-13T13:39:50.431165+05:30
Imphal,Manipur,24.817,93.9368,23.5,58,0.0,924.4,9.0,79.2,118,76.1,29.9,0,5,7,0,2026-04-13T13:39:50.431171+05:30
Aizawl,Mizoram,23.7271,92.7176,27.9,40,0.0,895.1,8.9,46.8,97,80.3,27.6,4,5,7,0,2026-04-13T13:39:50.431177+05:30
Kohima,Nagaland,25.6701,94.1077,19.6,72,0.0,856.1,8.95,107.6,101,76.8,34.0,3,5,7,0,2026-04-13T13:39:50.431183+05:30
Gangtok,Sikkim,27.3314,88.6138,18.9,61,0.0,838.4,8.65,14.4,128,74.5,31.5,3,5,7,0,2026-04-13T13:39:50.431189+05:30
Siliguri,West Bengal,26.7271,88.3953,26.7,58,0.0,993.8,8.4,25.9,151,104.8,43.3,4,5,7,1,2026-04-13T13:39:53.656702+05:30
Durgapur,West Bengal,23.5204,87.3119,37.2,34,0.0,994.1,8.85,19.4,117,102.4,46.9,0,5,10,1,2026-04-13T13:39:53.656736+05:30
Asansol,West Bengal,23.6739,86.9524,37.1,31,0.0,992.7,8.85,18.0,108,99.2,36.2,0,5,10,1,2026-04-13T13:39:53.656747+05:30
Pondicherry,Puducherry,11.9139,79.8145,36.6,46,0.0,1008.7,9.3,31.0,36,15.1,10.0,0,0,7,1,2026-04-13T13:39:53.656755+05:30
Port Blair,Andaman and Nicobar Islands,11.6234,92.7265,29.2,80,0.0,1007.7,9.2,11.9,57,27.6,15.1,7,5,4,1,2026-04-13T13:39:53.656763+05:30
Haridwar,Uttarakhand,29.9457,78.1642,32.3,28,0.0,975.1,7.0,29.9,64,9.9,7.7,0,5,7,0,2026-04-13T13:39:53.656771+05:30
Rishikesh,Uttarakhand,30.0869,78.2676,31.9,29,0.0,967.8,6.95,32.0,57,11.8,6.3,0,5,7,0,2026-04-13T13:39:53.656778+05:30
Nainital,Uttarakhand,29.3919,79.4542,24.9,36,0.0,809.5,7.95,34.6,103,14.1,9.4,0,5,7,0,2026-04-13T13:39:53.656786+05:30
Mussoorie,Uttarakhand,30.4599,78.0664,22.3,46,0.0,805.6,7.45,34.6,60,13.4,8.6,0,5,7,0,2026-04-13T13:39:53.656793+05:30
Dharamshala,Himachal Pradesh,32.219,76.3234,24.4,49,0.0,871.4,7.75,24.5,93,14.8,5.1,0,5,7,0,2026-04-13T13:39:53.656799+05:30
Dalhousie,Himachal Pradesh,32.5387,75.971,22.6,39,0.0,806.8,7.5,22.3,58,19.7,8.5,0,5,7,0,2026-04-13T13:39:53.656807+05:30
Patiala,Punjab,30.3398,76.3869,32.9,23,0.0,979.9,7.1,27.0,361,497.3,48.0,0,5,7,0,2026-04-13T13:39:53.656814+05:30
Bhatinda,Punjab,30.211,74.9455,34.7,18,0.0,985.6,7.75,22.0,64,17.9,8.5,0,5,7,0,2026-04-13T13:39:53.656820+05:30
Rohtak,Haryana,28.8955,76.6066,34.2,22,0.0,983.7,7.25,31.3,656,551.3,53.7,0,5,7,0,2026-04-13T13:39:53.656827+05:30
Panipat,Haryana,29.3909,76.9635,33.6,18,0.0,982.0,7.1,32.4,1143,1128.8,99.0,0,5,7,0,2026-04-13T13:39:53.656833+05:30
Mathura,Uttar Pradesh,27.4924,77.6737,35.0,24,0.0,988.5,7.6,24.5,818,558.8,58.7,0,5,7,0,2026-04-13T13:39:53.656839+05:30
Vrindavan,Uttar Pradesh,27.5823,77.7027,34.7,24,0.0,988.8,7.55,28.1,818,558.8,58.7,0,5,7,0,2026-04-13T13:39:53.656845+05:30
Ayodhya,Uttar Pradesh,26.7922,82.1998,37.6,8,0.0,995.4,7.95,35.3,83,15.5,7.6,0,5,10,1,2026-04-13T13:39:53.656851+05:30
Ratlam,Madhya Pradesh,23.3315,75.0367,35.8,26,0.0,956.0,8.4,25.9,76,34.9,13.9,0,5,10,0,2026-04-13T13:39:53.656857+05:30
Sagar,Madhya Pradesh,23.8388,78.7378,37.0,20,0.0,951.9,8.5,22.0,80,200.7,29.0,0,5,10,0,2026-04-13T13:39:53.656864+05:30
Satna,Madhya Pradesh,24.6005,80.8322,36.7,17,0.0,973.0,8.55,25.2,113,124.3,20.5,0,5,10,0,2026-04-13T13:39:53.656870+05:30
Akola,Maharashtra,20.7002,77.0082,40.4,20,0.0,975.0,8.8,26.6,76,51.2,24.0,0,5,10,0,2026-04-13T13:39:53.656877+05:30
Amravati,Maharashtra,20.9374,77.7796,39.8,20,0.0,967.5,8.8,23.4,79,44.7,21.2,0,5,10,0,2026-04-13T13:39:53.656884+05:30
Latur,Maharashtra,18.4088,76.5604,37.2,24,0.0,941.1,9.05,33.1,85,44.7,33.2,0,5,10,0,2026-04-13T13:39:53.656890+05:30
Nanded,Maharashtra,19.1383,77.3091,38.9,25,0.0,969.0,8.95,18.0,97,34.0,22.3,0,5,10,0,2026-04-13T13:39:53.656897+05:30
Gulbarga,Karnataka,17.3297,76.8343,39.6,24,0.0,958.4,9.1,18.7,90,47.7,34.5,0,5,10,0,2026-04-13T13:39:53.656903+05:30
Bidar,Karnataka,17.9104,77.5199,38.5,26,0.0,936.3,9.15,27.7,95,48.8,35.3,0,5,10,0,2026-04-13T13:39:53.656909+05:30
Hospet,Karnataka,15.2689,76.3909,37.0,33,0.0,956.5,9.3,24.5,101,47.8,34.7,0,5,10,1,2026-04-13T13:39:53.656915+05:30
Tirupur,Tamil Nadu,11.1085,77.3411,38.2,32,0.0,975.5,9.45,29.9,82,38.0,24.9,0,5,10,1,2026-04-13T13:39:53.656921+05:30
Alappuzha,Kerala,9.4981,76.3388,29.6,82,0.0,1008.7,9.15,25.9,96,43.4,28.6,7,0,4,1,2026-04-13T13:39:53.656927+05:30
Munnar,Kerala,10.0889,77.0595,31.8,39,0.0,860.4,9.7,28.8,85,34.5,21.5,0,5,7,1,2026-04-13T13:39:53.656934+05:30
Silchar,Assam,24.8333,92.7789,28.5,70,0.0,1005.9,8.65,46.4,151,70.5,36.7,7,5,4,1,2026-04-13T13:39:53.656940+05:30
Dibrugarh,Assam,27.4728,94.912,24.8,70,0.0,997.1,6.9,25.9,126,94.8,42.4,3,5,7,1,2026-04-13T13:39:53.656945+05:30
