city,state,latitude,longitude,temp,humidity,rain,pressure,uv_index,wind_gusts,aqi,pm10,pm2_5,no2,co,o3,so2,mosquito_risk,arthritis_risk,migraine_risk,frizz_risk,updated_at
Delhi,Delhi,28.6139,77.209,31.0,46,0.0,978.2,7.8,49.0,582,935.0,191.9,26.8,404.0,67.0,15.9,0,5,7,1,2026-06-23T01:02:10.984604+05:30
Mumbai,Maharashtra,19.076,72.8777,25.9,98,0.2,1005.9,1.3,32.8,35,8.1,6.5,12.8,218.0,40.0,10.5,10,5,0,1,2026-06-23T01:02:10.984652+05:30
Bangalore,Karnataka,12.9716,77.5946,20.9,95,0.0,911.3,5.5,49.0,28,5.5,5.1,11.2,296.0,37.0,4.4,3,5,3,1,2026-06-23T01:02:10.984667+05:30
Hyderabad,Telangana,17.385,78.4867,25.6,69,0.0,952.1,3.1,47.9,43,6.0,5.8,8.6,210.0,58.0,4.5,7,5,3,1,2026-06-23T01:02:10.984677+05:30
Chennai,Tamil Nadu,13.0827,80.2707,26.3,95,0.0,1006.0,6.35,39.6,64,13.3,13.0,15.0,252.0,72.0,9.2,7,5,4,1,2026-06-23T01:02:10.984686+05:30
Kolkata,West Bengal,22.5726,88.3639,27.3,94,0.0,1000.6,8.5,30.2,123,43.4,41.9,13.8,378.0,85.0,11.7,7,5,4,1,2026-06-23T01:02:10.984693+05:30
Pune,Maharashtra,18.5204,73.8567,23.7,88,0.0,946.3,3.1,35.3,24,6.0,5.7,13.2,143.0,30.0,7.9,3,5,3,1,2026-06-23T01:02:10.984701+05:30
Ahmedabad,Gujarat,23.0225,72.5714,30.7,71,0.0,998.3,8.05,37.4,69,25.4,15.0,9.8,166.0,46.0,6.0,3,5,7,1,2026-06-23T01:02:10.984709+05:30
Jaipur,Rajasthan,26.9124,75.7873,28.8,60,0.0,955.4,8.2,34.9,132,169.0,74.7,45.0,260.0,12.0,17.0,4,5,7,1,2026-06-23T01:02:10.984716+05:30
Lucknow,Uttar Pradesh,26.8467,80.9462,31.9,44,0.0,987.9,8.3,43.6,165,370.7,87.8,14.9,250.0,71.0,6.9,0,5,7,1,2026-06-23T01:02:10.984727+05:30
Kanpur,Uttar Pradesh,26.4499,80.3319,32.4,42,0.0,986.4,8.25,43.2,251,497.3,103.6,15.7,264.0,63.0,6.5,0,5,7,1,2026-06-23T01:02:10.984734+05:30
Chandigarh,Chandigarh,30.7333,76.7794,26.6,55,0.0,963.6,7.8,33.8,97,44.2,40.4,27.8,780.0,71.0,11.1,4,5,7,1,2026-06-23T01:02:10.984741+05:30
Srinagar,Jammu and Kashmir,34.0837,74.7973,16.4,91,0.0,839.2,9.1,19.4,70,40.3,38.2,27.5,1100.0,15.0,2.8,3,10,7,0,2026-06-23T01:02:10.984749+05:30
Jammu,Jammu and Kashmir,32.7266,74.857,27.8,46,0.0,967.3,8.65,30.2,82,49.4,39.9,46.8,465.0,27.0,5.4,4,5,7,0,2026-06-23T01:02:10.984755+05:30
Amritsar,Punjab,31.634,74.8723,27.0,71,0.0,975.3,8.5,22.7,122,70.1,46.7,30.8,548.0,55.0,12.1,7,5,7,1,2026-06-23T01:02:10.984762+05:30
Ludhiana,Punjab,30.901,75.8573,27.5,63,0.0,973.5,8.05,31.7,124,99.0,50.3,17.1,513.0,81.0,7.6,7,5,7,1,2026-06-23T01:02:10.984771+05:30
Jalandhar,Punjab,31.326,75.5762,27.5,65,0.0,974.5,8.25,29.2,127,98.5,50.4,20.6,654.0,80.0,10.8,7,5,7,1,2026-06-23T01:02:10.984777+05:30
Dehradun,Uttarakhand,30.6284,78.0322,16.2,87,0.0,825.9,6.4,33.1,62,43.8,28.2,36.1,296.0,41.0,1.8,3,10,7,0,2026-06-23T01:02:10.984784+05:30
Shimla,Himachal Pradesh,31.1048,77.1734,13.2,75,0.0,779.7,8.35,43.6,72,48.2,38.8,26.6,274.0,52.0,2.2,3,5,7,0,2026-06-23T01:02:10.984793+05:30
Manali,Himachal Pradesh,32.2396,77.1887,16.5,61,0.0,815.4,9.65,34.6,45,5.6,5.4,31.3,290.0,102.0,0.0,3,5,7,0,2026-06-23T01:02:10.984802+05:30
Gurgaon,Haryana,28.4595,77.0266,29.0,55,0.0,976.5,7.85,55.4,855,692.9,142.0,43.1,446.0,46.0,18.5,4,5,7,1,2026-06-23T01:02:10.984808+05:30
Noida,Uttar Pradesh,28.5355,77.391,30.4,53,0.0,979.4,7.8,43.9,855,692.9,142.0,43.1,534.0,46.0,18.5,0,5,7,1,2026-06-23T01:02:10.984815+05:30
Ghaziabad,Uttar Pradesh,28.6692,77.4538,29.5,54,0.0,977.6,7.8,31.3,470,864.3,186.3,25.1,374.0,69.0,17.1,4,5,7,1,2026-06-23T01:02:10.984822+05:30
Faridabad,Haryana,28.4089,77.3178,31.5,47,0.0,978.8,7.85,54.4,855,692.9,142.0,43.1,489.0,46.0,18.5,0,5,7,1,2026-06-23T01:02:10.984828+05:30
Meerut,Uttar Pradesh,28.9845,77.7064,28.5,56,0.0,976.4,7.7,37.8,470,864.3,186.3,25.1,395.0,69.0,17.1,4,5,7,1,2026-06-23T01:02:10.984834+05:30
Agra,Uttar Pradesh,27.1767,78.0081,30.7,53,0.0,982.8,8.1,74.2,657,547.6,96.6,23.9,471.0,43.0,6.7,0,5,7,1,2026-06-23T01:02:10.984841+05:30
Varanasi,Uttar Pradesh,25.3176,82.9739,32.7,63,0.0,991.5,8.75,41.0,99,41.7,29.5,13.9,518.0,60.0,6.9,3,5,7,1,2026-06-23T01:02:10.984847+05:30
Prayagraj,Uttar Pradesh,25.4358,81.8463,32.9,45,0.0,990.4,8.7,38.5,100,62.4,32.4,14.0,225.0,56.0,6.7,0,5,7,1,2026-06-23T01:02:10.984854+05:30
Gorakhpur,Uttar Pradesh,26.7606,83.3732,28.8,86,0.0,991.2,8.3,37.8,160,252.4,122.5,61.8,586.0,31.0,23.1,7,5,7,1,2026-06-23T01:02:10.984861+05:30
Bareilly,Uttar Pradesh,28.367,79.4304,29.0,56,0.0,981.3,8.1,35.6,163,191.9,73.3,19.6,360.0,85.0,13.5,4,5,7,1,2026-06-23T01:02:10.984869+05:30
Aligarh,Uttar Pradesh,27.8974,78.088,29.0,58,0.0,980.5,7.95,46.1,598,527.1,119.7,32.1,315.0,43.0,9.7,4,5,7,1,2026-06-23T01:02:10.984875+05:30
Moradabad,Uttar Pradesh,28.8386,78.7733,28.8,58,0.0,978.3,7.95,37.4,168,532.7,130.9,19.0,375.0,73.0,10.9,4,5,7,1,2026-06-23T01:02:10.984882+05:30
Saharanpur,Uttar Pradesh,29.9637,77.546,27.1,62,0.0,970.6,7.45,34.9,161,596.0,149.5,18.5,370.0,82.0,9.7,7,5,7,1,2026-06-23T01:02:10.984888+05:30
Jhansi,Uttar Pradesh,25.4484,78.5685,30.5,55,0.0,973.6,8.45,34.9,89,60.1,31.1,10.3,186.0,47.0,2.7,0,5,7,1,2026-06-23T01:02:14.308454+05:30
Surat,Gujarat,21.1702,72.8311,28.9,81,0.0,1003.7,6.35,37.4,58,17.6,13.8,21.7,260.0,26.0,34.0,7,5,4,1,2026-06-23T01:02:14.308484+05:30
Vadodara,Gujarat,22.3072,73.1812,29.4,78,0.0,1001.0,8.0,46.4,52,14.3,11.6,20.1,183.0,23.0,21.2,7,5,4,1,2026-06-23T01:02:14.308494+05:30
Rajkot,Gujarat,22.3039,70.8022,28.5,74,0.0,990.8,7.55,44.3,66,40.6,16.6,5.3,110.0,43.0,4.3,7,5,7,1,2026-06-23T01:02:14.308503+05:30
Thane,Maharashtra,19.2183,72.9781,25.3,98,0.1,1005.7,1.25,28.1,35,8.1,6.5,12.8,179.0,40.0,10.5,10,5,0,1,2026-06-23T01:02:14.308511+05:30
Nagpur,Maharashtra,21.1458,79.0882,28.1,68,0.0,970.6,7.3,38.9,71,25.3,21.9,17.7,224.0,57.0,15.6,7,5,7,1,2026-06-23T01:02:14.308519+05:30
Nashik,Maharashtra,19.9975,73.7898,23.5,93,0.1,943.6,7.45,39.6,31,8.6,7.0,12.3,154.0,39.0,9.9,6,5,7,1,2026-06-23T01:02:14.308527+05:30
Aurangabad,Maharashtra,19.8762,75.3433,25.2,80,0.0,942.2,7.55,47.2,37,9.0,8.9,9.9,183.0,62.0,7.9,7,5,7,1,2026-06-23T01:02:14.308534+05:30
Solapur,Maharashtra,17.6599,75.9064,25.6,76,0.0,955.9,6.55,54.7,28,5.8,5.5,8.5,138.0,40.0,2.6,7,5,7,1,2026-06-23T01:02:14.308541+05:30
Kolhapur,Maharashtra,16.705,74.2433,24.0,86,0.0,946.9,6.0,57.6,22,4.6,4.1,5.1,141.0,40.0,1.9,3,5,3,1,2026-06-23T01:02:14.308548+05:30
Goa,Goa,15.2993,74.124,24.3,100,0.0,998.1,3.8,34.2,24,9.6,6.0,2.3,158.0,47.0,0.5,3,5,3,1,2026-06-23T01:02:14.308555+05:30
Jodhpur,Rajasthan,26.2389,73.0243,31.7,46,0.0,977.9,8.4,38.2,126,168.6,42.1,12.3,319.0,44.0,2.8,0,5,7,1,2026-06-23T01:02:14.308562+05:30
Udaipur,Rajasthan,24.5854,73.7125,26.8,50,0.0,943.4,8.8,33.1,71,58.2,24.3,8.1,171.0,58.0,4.9,4,5,7,0,2026-06-23T01:02:14.308570+05:30
Kota,Rajasthan,25.2138,75.8648,29.6,58,0.0,974.4,8.3,33.1,90,41.6,25.0,9.2,177.0,58.0,5.6,4,5,7,1,2026-06-23T01:02:14.308577+05:30
Bikaner,Rajasthan,28.0229,73.3119,31.1,40,0.0,976.0,8.5,35.6,147,118.3,38.1,7.0,138.0,53.0,2.6,0,5,7,0,2026-06-23T01:02:14.308584+05:30
Ajmer,Rajasthan,26.4499,74.6399,28.3,51,0.0,950.5,8.35,44.3,91,49.9,24.3,10.2,249.0,54.0,4.7,4,5,7,1,2026-06-23T01:02:14.308591+05:30
Gwalior,Madhya Pradesh,26.2183,78.1828,30.5,47,0.0,978.4,8.25,37.4,98,105.0,44.4,13.7,160.0,43.0,3.6,0,5,7,1,2026-06-23T01:02:14.308597+05:30
Indore,Madhya Pradesh,22.7196,75.8577,27.1,69,0.0,945.6,7.85,37.8,66,19.6,17.3,12.4,330.0,47.0,6.1,7,5,7,1,2026-06-23T01:02:14.308604+05:30
Bhopal,Madhya Pradesh,23.2599,77.4126,26.9,71,0.0,950.5,7.6,32.4,76,26.2,19.4,9.5,277.0,52.0,3.8,7,5,7,1,2026-06-23T01:02:14.308612+05:30
Jabalpur,Madhya Pradesh,23.1815,79.9864,28.9,60,0.0,958.2,8.3,32.0,91,30.4,23.0,14.2,211.0,53.0,5.2,4,5,7,1,2026-06-23T01:02:14.308618+05:30
Ujjain,Madhya Pradesh,23.1765,75.7885,25.2,76,0.0,950.7,6.7,36.7,68,21.4,18.0,7.4,332.0,54.0,4.5,7,5,7,1,2026-06-23T01:02:14.308625+05:30
Visakhapatnam,Andhra Pradesh,17.6868,83.2185,28.4,90,0.0,1000.3,8.5,43.6,86,32.9,27.7,19.0,373.0,89.0,33.7,7,5,4,1,2026-06-23T01:02:14.308632+05:30
Vijayawada,Andhra Pradesh,16.5062,80.648,25.7,91,0.0,1001.2,3.45,42.8,78,27.1,24.9,7.8,218.0,98.0,6.0,7,5,0,1,2026-06-23T01:02:14.308639+05:30
Guntur,Andhra Pradesh,16.3067,80.4365,26.0,89,0.0,1002.1,1.5,45.0,73,24.6,23.3,8.1,236.0,94.0,5.4,7,5,0,1,2026-06-23T01:02:14.308646+05:30
Nellore,Andhra Pradesh,14.4426,79.9865,25.6,94,0.1,1004.7,5.6,37.1,71,11.8,11.4,8.4,195.0,71.0,3.6,10,5,0,1,2026-06-23T01:02:14.308654+05:30
Kurnool,Andhra Pradesh,15.8281,78.0373,25.2,78,0.0,976.4,4.55,44.3,29,7.9,7.4,11.4,173.0,44.0,3.9,7,5,3,1,2026-06-23T01:02:14.308662+05:30
Kakinada,Andhra Pradesh,16.9891,82.2475,29.0,82,0.0,1004.5,8.05,54.7,82,29.6,22.9,3.4,267.0,111.0,4.4,7,5,4,1,2026-06-23T01:02:14.308669+05:30
Tirupati,Andhra Pradesh,13.6288,79.4192,25.1,89,0.0,990.1,6.55,36.4,66,11.0,10.7,15.7,157.0,43.0,1.9,7,5,7,1,2026-06-23T01:02:14.308676+05:30
Warangal,Telangana,17.9689,79.5941,25.4,83,0.0,977.4,3.9,33.5,59,12.9,12.3,8.6,258.0,68.0,4.1,7,5,3,1,2026-06-23T01:02:14.308683+05:30
Nizamabad,Telangana,18.6725,78.0941,26.6,81,0.0,963.1,8.8,38.2,40,5.0,4.8,5.5,167.0,64.0,1.3,7,5,7,1,2026-06-23T01:02:14.308690+05:30
Mysore,Karnataka,12.2958,76.6396,21.1,96,0.0,928.4,7.1,49.0,23,3.7,3.5,6.6,143.0,39.0,2.1,3,5,7,1,2026-06-23T01:02:14.308697+05:30
Mangalore,Karnataka,12.9141,74.856,24.2,100,0.6,1007.9,7.85,36.7,27,11.8,8.2,6.1,140.0,35.0,1.9,6,5,4,1,2026-06-23T01:02:14.308704+05:30
Hubli-Dharwad,Karnataka,15.3647,75.124,22.4,96,0.1,940.8,7.95,60.5,21,1.3,1.0,4.2,106.0,41.0,1.0,6,5,7,1,2026-06-23T01:02:14.308711+05:30
Belgaum,Karnataka,15.8497,74.4977,21.9,97,0.1,924.8,2.7,52.2,21,2.6,2.2,3.9,116.0,42.0,1.4,6,5,3,1,2026-06-23T01:02:17.623307+05:30
Coimbatore,Tamil Nadu,11.0168,76.9558,22.8,93,0.0,961.5,8.0,56.9,22,3.1,2.8,5.4,147.0,40.0,2.6,3,5,7,1,2026-06-23T01:02:17.623339+05:30
Madurai,Tamil Nadu,9.9252,78.1198,27.2,67,0.0,992.9,8.35,42.5,51,26.3,25.3,47.6,139.0,2.0,9.6,7,5,7,1,2026-06-23T01:02:17.623350+05:30
Trichy,Tamil Nadu,10.7905,78.7047,26.8,69,0.0,999.5,8.35,52.6,37,13.3,12.4,19.0,253.0,32.0,4.9,7,5,7,1,2026-06-23T01:02:17.623359+05:30
Salem,Tamil Nadu,11.6643,78.146,24.5,86,0.0,977.4,7.85,33.5,41,15.7,14.5,21.4,454.0,36.0,7.7,3,5,7,1,2026-06-23T01:02:17.623369+05:30
Tirunelveli,Tamil Nadu,8.7139,77.7567,27.7,68,0.0,1003.5,1.75,38.9,23,6.7,5.9,8.4,162.0,34.0,2.2,7,5,0,1,2026-06-23T01:02:17.623377+05:30
Vellore,Tamil Nadu,12.9165,79.1325,24.9,81,0.0,983.5,8.2,38.2,61,15.2,14.8,17.9,220.0,35.0,3.6,3,5,7,1,2026-06-23T01:02:17.623385+05:30
Erode,Tamil Nadu,11.341,77.7172,25.2,80,0.0,989.3,7.6,36.4,31,11.4,10.5,17.0,156.0,30.0,4.2,7,5,7,1,2026-06-23T01:02:17.623393+05:30
Kochi,Kerala,9.9312,76.2673,25.5,92,0.1,1010.2,7.9,38.5,36,13.3,11.6,13.6,100.0,27.0,4.5,10,0,4,1,2026-06-23T01:02:17.623402+05:30
Thiruvananthapuram,Kerala,8.5241,76.9366,24.4,97,0.0,1009.7,5.55,45.0,26,8.4,5.0,2.2,103.0,50.0,0.9,3,0,0,1,2026-06-23T01:02:17.623409+05:30
Kozhikode,Kerala,11.2588,75.7804,24.3,96,0.0,1009.4,7.5,33.1,26,8.1,4.4,1.0,180.0,50.0,0.5,3,0,4,1,2026-06-23T01:02:17.623416+05:30
Thrissur,Kerala,10.5276,76.2144,24.1,100,0.1,1008.6,8.1,36.7,33,11.6,10.3,11.6,327.0,27.0,3.6,6,0,4,1,2026-06-23T01:02:17.623424+05:30
Kannur,Kerala,11.8745,75.3704,23.8,100,0.1,1008.7,6.85,36.0,21,10.1,6.7,7.4,212.0,33.0,1.6,6,0,4,1,2026-06-23T01:02:17.623431+05:30
Patna,Bihar,25.5941,85.1376,29.6,80,0.0,994.4,8.6,37.8,134,84.1,62.9,36.1,506.0,43.0,14.5,7,5,7,1,2026-06-23T01:02:17.623439+05:30
Gaya,Bihar,24.7914,85.0002,30.4,67,0.0,987.9,8.65,32.4,93,54.1,34.6,12.5,294.0,66.0,11.7,3,5,7,1,2026-06-23T01:02:17.623446+05:30
Muzaffarpur,Bihar,26.1209,85.3647,26.8,86,0.0,994.6,8.7,26.6,151,99.7,76.4,23.5,499.0,78.0,16.8,7,5,7,1,2026-06-23T01:02:17.623453+05:30
Bhagalpur,Bihar,25.2425,87.0117,27.9,88,0.2,995.5,8.85,27.4,147,71.5,53.2,19.0,285.0,70.0,11.9,10,5,7,1,2026-06-23T01:02:17.623460+05:30
Ranchi,Jharkhand,23.3441,85.3096,24.7,82,0.0,933.5,8.95,36.4,92,33.3,27.7,6.6,221.0,95.0,4.5,3,5,7,1,2026-06-23T01:02:17.623468+05:30
Jamshedpur,Jharkhand,22.8046,86.2029,27.5,78,0.0,985.9,9.05,28.1,111,44.0,39.5,14.5,409.0,102.0,25.8,7,5,7,1,2026-06-23T01:02:17.623475+05:30
Dhanbad,Jharkhand,23.7957,86.4304,27.7,79,0.0,974.4,9.1,27.4,148,64.3,58.0,48.3,536.0,52.0,92.6,7,5,7,1,2026-06-23T01:02:17.623482+05:30
Bokaro,Jharkhand,23.6693,86.1511,28.0,77,0.0,978.2,8.85,33.8,118,47.5,40.7,26.8,229.0,70.0,54.8,7,5,7,1,2026-06-23T01:02:17.623488+05:30
Bhubaneswar,Odisha,20.2961,85.8245,27.2,96,0.0,998.1,9.05,36.7,79,28.9,28.1,11.0,310.0,80.0,6.5,7,5,7,1,2026-06-23T01:02:17.623495+05:30
Cuttack,Odisha,20.4625,85.8828,27.5,93,0.0,999.8,9.15,34.6,79,28.9,28.1,11.0,304.0,80.0,6.5,7,5,7,1,2026-06-23T01:02:17.623502+05:30
Rourkela,Odisha,22.2604,84.8536,26.6,84,0.0,981.0,9.0,39.6,105,38.8,34.7,11.8,366.0,78.0,5.4,7,5,7,1,2026-06-23T01:02:17.623509+05:30
Raipur,Chhattisgarh,21.2514,81.6296,28.1,71,0.0,971.3,8.95,33.5,90,37.7,36.2,33.2,599.0,54.0,49.3,7,5,7,1,2026-06-23T01:02:17.623516+05:30
Bhilai,Chhattisgarh,21.1938,81.3509,29.0,67,0.0,971.9,8.95,34.9,88,38.3,36.6,30.9,758.0,53.0,45.2,7,5,7,1,2026-06-23T01:02:17.623523+05:30
Guwahati,Assam,26.1158,91.7086,25.0,100,0.0,996.6,8.05,26.6,69,36.3,30.7,13.0,307.0,56.0,4.6,7,5,7,1,2026-06-23T01:02:17.623530+05:30
Agartala,Tripura,23.8315,91.2868,25.2,98,0.0,1001.9,7.6,32.4,62,17.1,16.4,13.2,246.0,53.0,3.6,7,5,4,1,2026-06-23T01:02:17.623537+05:30
Shillong,Meghalaya,25.5788,91.8933,19.4,92,0.0,853.4,7.35,33.1,40,8.3,7.0,5.7,208.0,82.0,2.3,3,10,7,1,2026-06-23T01:02:17.623544+05:30
Imphal,Manipur,24.817,93.9368,22.3,94,0.0,919.4,8.1,27.4,66,27.2,26.1,18.9,336.0,23.0,3.2,3,5,7,1,2026-06-23T01:02:17.623552+05:30
Aizawl,Mizoram,23.7271,92.7176,19.4,97,0.0,888.8,7.65,33.1,25,2.7,2.6,4.3,161.0,44.0,0.5,3,10,7,1,2026-06-23T01:02:17.623559+05:30
Kohima,Nagaland,25.6701,94.1077,18.3,98,0.0,851.3,7.05,24.8,50,14.1,12.3,10.5,363.0,34.0,1.1,3,10,7,1,2026-06-23T01:02:17.623566+05:30
Gangtok,Sikkim,27.3314,88.6138,18.2,92,0.3,833.6,9.2,33.5,47,5.1,4.7,8.7,370.0,108.0,1.6,6,10,7,1,2026-06-23T01:02:17.623573+05:30
Siliguri,West Bengal,26.7271,88.3953,24.3,97,0.0,987.9,8.8,21.2,73,30.6,25.4,10.1,452.0,101.0,4.8,3,5,7,1,2026-06-23T01:02:20.946253+05:30
Durgapur,West Bengal,23.5204,87.3119,27.0,93,0.0,989.5,9.0,28.8,153,59.8,57.9,34.5,1004.0,63.0,53.9,7,5,7,1,2026-06-23T01:02:20.946286+05:30
Asansol,West Bengal,23.6739,86.9524,27.2,89,0.0,988.0,9.05,29.5,150,61.5,57.6,39.9,457.0,53.0,62.6,7,5,7,1,2026-06-23T01:02:20.946297+05:30
Pondicherry,Puducherry,11.9139,79.8145,27.2,79,0.0,1007.6,7.5,37.8,55,14.4,13.0,16.6,265.0,50.0,11.9,7,5,4,1,2026-06-23T01:02:20.946306+05:30
Port Blair,Andaman and Nicobar Islands,11.6234,92.7265,25.6,90,0.0,1007.0,8.75,45.4,28,6.1,3.6,0.2,83.0,42.0,0.2,7,5,4,1,2026-06-23T01:02:20.946314+05:30
Haridwar,Uttarakhand,29.9457,78.1642,26.9,69,0.0,968.8,7.6,27.0,126,348.3,96.9,30.3,528.0,61.0,12.4,7,5,7,1,2026-06-23T01:02:20.946322+05:30
Rishikesh,Uttarakhand,30.0869,78.2676,26.3,65,0.0,961.7,7.7,24.8,100,137.8,42.6,14.8,429.0,106.0,11.1,7,5,7,1,2026-06-23T01:02:20.946329+05:30
Nainital,Uttarakhand,29.3919,79.4542,14.4,100,0.0,801.8,6.6,30.2,113,58.7,35.6,19.2,399.0,68.0,4.1,3,10,7,0,2026-06-23T01:02:20.946337+05:30
Mussoorie,Uttarakhand,30.4599,78.0664,14.8,83,0.0,798.6,6.8,36.0,79,50.2,38.2,41.7,377.0,57.0,11.7,3,10,7,0,2026-06-23T01:02:20.946345+05:30
Dharamshala,Himachal Pradesh,32.219,76.3234,20.5,59,0.0,865.3,8.55,33.1,47,13.0,11.4,18.7,232.0,37.0,0.2,0,5,7,0,2026-06-23T01:02:20.946352+05:30
Dalhousie,Himachal Pradesh,32.5387,75.971,12.8,87,0.0,799.0,8.8,35.6,72,36.7,29.8,45.3,383.0,26.0,2.2,3,10,7,0,2026-06-23T01:02:20.946360+05:30
Patiala,Punjab,30.3398,76.3869,27.2,65,0.0,973.0,7.7,32.4,497,942.5,173.2,14.2,312.0,81.0,9.0,7,5,7,1,2026-06-23T01:02:20.946366+05:30
Bhatinda,Punjab,30.211,74.9455,28.2,63,0.0,978.5,8.3,29.2,112,102.7,65.0,53.0,464.0,16.0,6.8,7,5,7,1,2026-06-23T01:02:20.946373+05:30
Rohtak,Haryana,28.8955,76.6066,27.1,68,0.0,976.6,7.75,50.8,660,851.2,172.3,26.8,352.0,59.0,7.5,7,5,7,1,2026-06-23T01:02:20.946380+05:30
Panipat,Haryana,29.3909,76.9635,27.6,62,0.0,975.4,7.65,32.0,1693,1858.9,299.9,20.4,353.0,73.0,9.1,7,5,7,1,2026-06-23T01:02:20.946387+05:30
Mathura,Uttar Pradesh,27.4924,77.6737,29.1,59,0.0,981.8,8.05,66.6,606,545.8,100.1,26.1,363.0,39.0,4.9,4,5,7,1,2026-06-23T01:02:20.946394+05:30
Vrindavan,Uttar Pradesh,27.5823,77.7027,28.7,61,0.0,982.2,8.05,59.4,606,545.8,100.1,26.1,331.0,39.0,4.9,7,5,7,1,2026-06-23T01:02:20.946400+05:30
Ayodhya,Uttar Pradesh,26.7922,82.1998,30.2,73,0.0,989.1,8.4,40.0,157,150.4,54.8,13.8,719.0,76.0,7.1,3,5,7,1,2026-06-23T01:02:20.946407+05:30
Ratlam,Madhya Pradesh,23.3315,75.0367,27.1,68,0.0,951.8,8.45,35.6,63,17.5,14.9,5.6,259.0,63.0,5.8,7,5,7,1,2026-06-23T01:02:20.946414+05:30
Sagar,Madhya Pradesh,23.8388,78.7378,27.1,69,0.0,946.8,6.85,37.4,94,34.2,22.5,8.6,193.0,63.0,4.3,7,5,7,1,2026-06-23T01:02:20.946421+05:30
Satna,Madhya Pradesh,24.6005,80.8322,29.8,55,0.0,967.1,8.8,36.7,81,44.0,26.2,11.8,186.0,53.0,3.8,4,5,7,1,2026-06-23T01:02:20.946427+05:30
Akola,Maharashtra,20.7002,77.0082,26.3,88,0.0,973.0,7.95,37.4,54,12.3,11.3,9.0,175.0,66.0,4.2,7,5,7,1,2026-06-23T01:02:20.946435+05:30
Amravati,Maharashtra,20.9374,77.7796,27.9,80,0.1,964.9,7.85,41.0,58,12.4,11.3,9.4,188.0,64.0,3.6,10,5,7,1,2026-06-23T01:02:20.946443+05:30
Latur,Maharashtra,18.4088,76.5604,23.8,93,0.4,938.1,7.95,56.5,30,4.3,4.1,5.6,141.0,51.0,1.1,6,5,7,1,2026-06-23T01:02:20.946451+05:30
Nanded,Maharashtra,19.1383,77.3091,25.2,83,0.0,967.0,8.15,46.8,47,5.0,4.8,5.7,175.0,56.0,1.9,7,5,7,1,2026-06-23T01:02:20.946458+05:30
Gulbarga,Karnataka,17.3297,76.8343,24.7,80,0.0,957.7,8.35,57.2,30,7.9,7.6,13.1,138.0,42.0,3.2,3,5,7,1,2026-06-23T01:02:20.946465+05:30
Bidar,Karnataka,17.9104,77.5199,25.0,76,0.0,934.2,7.5,50.8,34,5.7,5.5,7.8,141.0,55.0,1.5,7,5,7,1,2026-06-23T01:02:20.946472+05:30
Hospet,Karnataka,15.2689,76.3909,23.9,86,0.0,955.8,7.1,59.0,25,2.9,2.6,5.3,124.0,40.0,1.5,3,5,7,1,2026-06-23T01:02:20.946479+05:30
Tirupur,Tamil Nadu,11.1085,77.3411,24.0,89,0.0,975.3,7.9,50.0,34,12.1,11.4,19.4,151.0,25.0,4.9,3,5,7,1,2026-06-23T01:02:20.946486+05:30
Alappuzha,Kerala,9.4981,76.3388,25.3,94,0.0,1010.4,5.55,38.5,30,11.2,8.5,7.1,83.0,39.0,2.2,7,0,0,1,2026-06-23T01:02:20.946493+05:30
Munnar,Kerala,10.0889,77.0595,16.4,94,0.0,856.8,8.15,38.9,22,4.6,4.2,6.3,94.0,36.0,2.4,3,10,7,0,2026-06-23T01:02:20.946500+05:30
Silchar,Assam,24.8333,92.7789,25.3,96,0.0,1001.1,8.3,26.6,71,23.9,21.4,9.3,274.0,51.0,4.6,7,5,4,1,2026-06-23T01:02:20.946507+05:30
Dibrugarh,Assam,27.4728,94.912,24.1,100,0.0,990.9,8.15,22.7,68,21.9,18.1,9.7,238.0,76.0,1.6,3,5,7,1,2026-06-23T01:02:20.946513+05:30
