city,state,latitude,longitude,temp,humidity,rain,pressure,uv_index,wind_gusts,aqi,pm10,pm2_5,mosquito_risk,arthritis_risk,migraine_risk,frizz_risk,updated_at
Delhi,Delhi,28.6139,77.209,34.6,19,0.0,981.6,6.15,30.2,215,478.7,66.8,0,5,7,0,2026-03-12T16:12:37.101405+05:30
Mumbai,Maharashtra,19.076,72.8777,28.1,83,0.0,1006.0,7.6,27.7,217,95.2,90.6,7,5,4,1,2026-03-12T16:12:37.101455+05:30
Bangalore,Karnataka,12.9716,77.5946,32.5,21,0.0,910.9,9.3,32.8,68,23.9,18.8,0,5,7,0,2026-03-12T16:12:37.101471+05:30
Hyderabad,Telangana,17.385,78.4867,35.7,20,0.0,952.4,8.65,23.4,139,33.5,23.5,0,5,10,0,2026-03-12T16:12:37.101481+05:30
Chennai,Tamil Nadu,13.0827,80.2707,32.1,54,0.0,1006.4,9.0,29.5,76,27.5,23.3,0,5,4,1,2026-03-12T16:12:37.101490+05:30
Kolkata,West Bengal,22.5726,88.3639,28.9,70,0.0,1005.4,8.0,20.9,143,83.6,72.2,7,5,4,1,2026-03-12T16:12:37.101504+05:30
Pune,Maharashtra,18.5204,73.8567,37.9,18,0.0,947.2,8.15,25.9,143,25.2,21.5,0,5,10,0,2026-03-12T16:12:37.101516+05:30
Ahmedabad,Gujarat,23.0225,72.5714,38.8,11,0.0,1001.0,7.45,30.6,69,21.7,12.7,0,5,7,0,2026-03-12T16:12:37.101524+05:30
Jaipur,Rajasthan,26.9124,75.7873,35.0,9,0.0,959.4,5.95,42.8,105,180.7,25.6,0,5,3,1,2026-03-12T16:12:37.101531+05:30
Lucknow,Uttar Pradesh,26.8467,80.9462,34.8,27,0.0,992.0,6.5,28.1,154,169.5,41.7,0,5,7,0,2026-03-12T16:12:37.101539+05:30
Kanpur,Uttar Pradesh,26.4499,80.3319,34.2,37,0.0,990.3,5.9,18.0,195,362.3,48.0,0,5,3,1,2026-03-12T16:12:37.101546+05:30
Chandigarh,Chandigarh,30.7333,76.7794,30.2,44,0.0,967.8,6.05,32.0,97,58.4,23.2,0,5,7,1,2026-03-12T16:12:37.101554+05:30
Srinagar,Jammu and Kashmir,34.0837,74.7973,12.9,80,0.0,840.0,6.35,22.3,104,5.7,5.3,3,5,7,0,2026-03-12T16:12:37.101561+05:30
Jammu,Jammu and Kashmir,32.7266,74.857,26.4,58,0.0,973.8,6.35,39.6,80,61.9,21.7,4,5,7,1,2026-03-12T16:12:37.101568+05:30
Amritsar,Punjab,31.634,74.8723,27.8,53,0.0,981.2,6.65,32.4,156,60.8,27.9,4,5,7,1,2026-03-12T16:12:37.101576+05:30
Ludhiana,Punjab,30.901,75.8573,30.6,39,0.0,978.3,6.2,59.4,156,74.3,36.2,0,5,7,0,2026-03-12T16:12:37.101583+05:30
Jalandhar,Punjab,31.326,75.5762,29.6,43,0.0,979.8,6.45,31.7,151,65.7,28.6,4,5,7,0,2026-03-12T16:12:37.101592+05:30
Dehradun,Uttarakhand,30.6284,78.0322,20.8,44,0.0,831.3,5.7,37.1,59,36.3,11.9,0,5,3,0,2026-03-12T16:12:37.101599+05:30
Shimla,Himachal Pradesh,31.1048,77.1734,19.3,42,0.0,786.2,6.5,42.5,71,42.0,13.2,0,5,7,0,2026-03-12T16:12:37.101606+05:30
Manali,Himachal Pradesh,32.2396,77.1887,14.0,84,0.0,819.2,4.0,44.6,46,13.7,4.3,3,10,3,0,2026-03-12T16:12:37.101614+05:30
Gurgaon,Haryana,28.4595,77.0266,34.6,19,0.0,980.0,6.15,31.0,876,1464.0,138.8,0,5,7,0,2026-03-12T16:12:37.101621+05:30
Noida,Uttar Pradesh,28.5355,77.391,35.2,18,0.0,982.9,6.05,29.9,876,1464.0,138.8,0,5,10,0,2026-03-12T16:12:37.101628+05:30
Ghaziabad,Uttar Pradesh,28.6692,77.4538,33.9,23,0.0,981.2,6.1,26.3,169,396.7,62.2,0,5,7,0,2026-03-12T16:12:37.101634+05:30
Faridabad,Haryana,28.4089,77.3178,35.1,14,0.0,982.1,6.2,29.9,876,1464.0,138.8,0,5,10,0,2026-03-12T16:12:37.101641+05:30
Meerut,Uttar Pradesh,28.9845,77.7064,33.6,27,0.0,980.1,6.0,24.5,169,396.7,62.2,0,5,3,0,2026-03-12T16:12:37.101650+05:30
Agra,Uttar Pradesh,27.1767,78.0081,37.4,10,0.0,985.7,6.15,31.7,430,651.9,58.0,0,5,10,0,2026-03-12T16:12:37.101656+05:30
Varanasi,Uttar Pradesh,25.3176,82.9739,34.2,31,0.0,996.0,7.3,23.8,146,75.9,23.1,0,5,7,0,2026-03-12T16:12:37.101665+05:30
Prayagraj,Uttar Pradesh,25.4358,81.8463,34.5,31,0.0,994.5,6.6,23.0,146,59.6,21.1,0,5,7,0,2026-03-12T16:12:37.101672+05:30
Gorakhpur,Uttar Pradesh,26.7606,83.3732,32.3,39,0.0,995.3,7.0,18.4,226,144.4,66.1,0,5,7,1,2026-03-12T16:12:37.101679+05:30
Bareilly,Uttar Pradesh,28.367,79.4304,33.3,34,0.0,985.0,6.25,23.4,125,106.4,42.1,0,5,7,0,2026-03-12T16:12:37.101686+05:30
Aligarh,Uttar Pradesh,27.8974,78.088,36.2,15,0.0,983.5,5.95,29.9,508,752.5,87.3,0,5,6,0,2026-03-12T16:12:37.101693+05:30
Moradabad,Uttar Pradesh,28.8386,78.7733,33.4,28,0.0,981.9,6.05,26.3,125,192.3,54.1,0,5,7,0,2026-03-12T16:12:37.101699+05:30
Saharanpur,Uttar Pradesh,29.9637,77.546,31.4,38,0.0,974.5,5.3,24.8,144,106.2,35.4,0,5,3,0,2026-03-12T16:12:37.101706+05:30
Jhansi,Uttar Pradesh,25.4484,78.5685,38.1,15,0.0,976.5,6.65,29.9,78,18.2,10.2,0,5,10,0,2026-03-12T16:12:40.333069+05:30
Surat,Gujarat,21.1702,72.8311,34.9,35,0.0,1005.4,7.3,26.3,151,45.3,43.7,0,5,4,1,2026-03-12T16:12:40.333130+05:30
Vadodara,Gujarat,22.3072,73.1812,39.9,15,0.0,1002.7,7.45,26.6,89,27.0,24.8,0,5,7,0,2026-03-12T16:12:40.333141+05:30
Rajkot,Gujarat,22.3039,70.8022,37.8,11,0.0,993.6,7.3,31.3,58,29.1,16.8,0,5,10,0,2026-03-12T16:12:40.333149+05:30
Thane,Maharashtra,19.2183,72.9781,31.4,61,0.0,1005.8,7.6,41.4,217,95.2,90.6,3,5,4,1,2026-03-12T16:12:40.333156+05:30
Nagpur,Maharashtra,21.1458,79.0882,37.5,13,0.0,971.8,8.0,16.6,108,34.5,22.5,0,5,10,0,2026-03-12T16:12:40.333163+05:30
Nashik,Maharashtra,19.9975,73.7898,36.9,16,0.0,944.7,7.8,33.8,111,13.2,11.0,0,5,10,0,2026-03-12T16:12:40.333170+05:30
Aurangabad,Maharashtra,19.8762,75.3433,37.2,17,0.0,943.1,8.35,20.5,108,13.7,10.9,0,5,10,0,2026-03-12T16:12:40.333177+05:30
Solapur,Maharashtra,17.6599,75.9064,35.7,24,0.0,956.0,8.5,18.0,109,28.7,23.2,0,5,10,0,2026-03-12T16:12:40.333184+05:30
Kolhapur,Maharashtra,16.705,74.2433,35.5,20,0.0,946.8,8.65,27.7,151,33.2,27.4,0,5,10,0,2026-03-12T16:12:40.333192+05:30
Goa,Goa,15.2993,74.124,31.3,66,0.0,995.5,8.7,33.5,145,45.5,39.2,3,5,7,1,2026-03-12T16:12:40.333198+05:30
Jodhpur,Rajasthan,26.2389,73.0243,37.1,18,0.0,982.2,6.65,25.9,69,98.3,22.4,0,5,10,0,2026-03-12T16:12:40.333206+05:30
Udaipur,Rajasthan,24.5854,73.7125,34.6,8,0.0,946.9,7.5,38.5,79,8.0,7.0,0,5,7,1,2026-03-12T16:12:40.333214+05:30
Kota,Rajasthan,25.2138,75.8648,37.5,8,0.0,977.7,6.75,34.2,78,9.7,9.3,0,5,10,1,2026-03-12T16:12:40.333221+05:30
Bikaner,Rajasthan,28.0229,73.3119,35.6,22,0.0,981.1,6.2,28.4,94,85.4,27.0,0,5,10,0,2026-03-12T16:12:40.333228+05:30
Ajmer,Rajasthan,26.4499,74.6399,34.9,12,0.0,954.5,6.7,34.2,65,29.0,11.5,0,5,7,0,2026-03-12T16:12:40.333234+05:30
Gwalior,Madhya Pradesh,26.2183,78.1828,35.5,15,0.0,982.1,6.25,33.8,65,15.9,9.5,0,5,10,0,2026-03-12T16:12:40.333240+05:30
Indore,Madhya Pradesh,22.7196,75.8577,36.0,15,0.0,947.8,7.75,29.2,79,12.2,10.2,0,5,10,0,2026-03-12T16:12:40.333247+05:30
Bhopal,Madhya Pradesh,23.2599,77.4126,35.8,17,0.0,953.4,7.6,28.8,95,19.8,12.3,0,5,10,0,2026-03-12T16:12:40.333254+05:30
Jabalpur,Madhya Pradesh,23.1815,79.9864,35.7,20,0.0,960.7,7.65,20.5,87,29.2,12.0,0,5,10,0,2026-03-12T16:12:40.333260+05:30
Ujjain,Madhya Pradesh,23.1765,75.7885,35.4,17,0.0,953.6,7.65,27.7,96,11.3,10.2,0,5,10,0,2026-03-12T16:12:40.333267+05:30
Visakhapatnam,Andhra Pradesh,17.6868,83.2185,30.7,62,0.0,1002.4,8.65,40.3,90,39.0,34.5,3,5,4,1,2026-03-12T16:12:40.333273+05:30
Vijayawada,Andhra Pradesh,16.5062,80.648,37.4,23,0.0,1000.3,8.7,33.1,73,36.7,28.3,0,5,7,0,2026-03-12T16:12:40.333280+05:30
Guntur,Andhra Pradesh,16.3067,80.4365,36.9,33,0.0,1001.6,8.7,36.0,70,35.3,26.0,0,5,7,1,2026-03-12T16:12:40.333287+05:30
Nellore,Andhra Pradesh,14.4426,79.9865,35.5,35,0.0,1004.4,8.9,28.1,69,30.7,25.7,0,5,7,1,2026-03-12T16:12:40.333294+05:30
Kurnool,Andhra Pradesh,15.8281,78.0373,37.8,19,0.0,975.1,8.65,25.9,79,27.9,21.4,0,5,10,0,2026-03-12T16:12:40.333301+05:30
Kakinada,Andhra Pradesh,16.9891,82.2475,34.7,47,0.0,1005.2,8.65,41.0,69,27.9,22.8,0,5,4,1,2026-03-12T16:12:40.333308+05:30
Tirupati,Andhra Pradesh,13.6288,79.4192,35.2,26,0.0,989.9,9.05,36.4,92,35.6,28.9,0,5,10,0,2026-03-12T16:12:40.333314+05:30
Warangal,Telangana,17.9689,79.5941,36.3,24,0.0,977.4,8.45,11.9,119,36.9,24.5,0,5,10,0,2026-03-12T16:12:40.333320+05:30
Nizamabad,Telangana,18.6725,78.0941,36.1,22,0.0,963.5,8.35,19.8,105,33.9,26.1,0,5,10,0,2026-03-12T16:12:40.333326+05:30
Mysore,Karnataka,12.2958,76.6396,32.5,25,0.0,927.3,9.3,34.9,66,18.9,15.4,0,5,7,0,2026-03-12T16:12:40.333332+05:30
Mangalore,Karnataka,12.9141,74.856,29.1,82,0.0,1003.1,8.95,32.8,101,39.3,33.3,7,5,4,1,2026-03-12T16:12:40.333338+05:30
Hubli-Dharwad,Karnataka,15.3647,75.124,35.7,18,0.0,939.5,8.85,35.6,86,19.3,16.0,0,5,10,0,2026-03-12T16:12:40.333344+05:30
Belgaum,Karnataka,15.8497,74.4977,34.7,19,0.0,924.9,8.9,37.4,113,25.3,21.5,0,5,7,0,2026-03-12T16:12:43.558479+05:30
Coimbatore,Tamil Nadu,11.0168,76.9558,34.4,24,0.0,959.7,9.3,44.3,74,16.1,15.0,0,5,7,0,2026-03-12T16:12:43.558508+05:30
Madurai,Tamil Nadu,9.9252,78.1198,35.5,33,0.0,990.3,9.2,32.0,71,18.0,16.2,0,5,10,1,2026-03-12T16:12:43.558519+05:30
Trichy,Tamil Nadu,10.7905,78.7047,34.6,41,0.0,997.6,9.15,28.1,80,24.1,22.7,0,5,7,1,2026-03-12T16:12:43.558527+05:30
Salem,Tamil Nadu,11.6643,78.146,34.9,33,0.0,975.2,9.2,27.7,76,18.2,16.2,0,5,7,1,2026-03-12T16:12:43.558535+05:30
Tirunelveli,Tamil Nadu,8.7139,77.7567,33.9,47,0.0,1000.9,8.3,27.4,63,14.5,12.6,0,5,4,1,2026-03-12T16:12:43.558542+05:30
Vellore,Tamil Nadu,12.9165,79.1325,34.5,28,0.0,983.2,9.1,36.4,91,20.4,17.1,0,5,7,0,2026-03-12T16:12:43.558549+05:30
Erode,Tamil Nadu,11.341,77.7172,35.8,33,0.0,986.6,9.2,24.5,75,21.9,20.3,0,5,10,1,2026-03-12T16:12:43.558555+05:30
Kochi,Kerala,9.9312,76.2673,29.1,78,0.0,1005.5,9.05,35.6,108,32.1,30.2,7,5,4,1,2026-03-12T16:12:43.558562+05:30
Thiruvananthapuram,Kerala,8.5241,76.9366,28.7,75,0.0,1005.7,8.95,25.9,109,23.3,21.1,7,5,4,1,2026-03-12T16:12:43.558569+05:30
Kozhikode,Kerala,11.2588,75.7804,30.5,69,0.0,1004.7,9.0,31.7,100,36.4,32.4,3,5,4,1,2026-03-12T16:12:43.558575+05:30
Thrissur,Kerala,10.5276,76.2144,32.1,63,0.0,1003.9,9.05,39.2,97,17.5,15.9,3,5,4,1,2026-03-12T16:12:43.558582+05:30
Kannur,Kerala,11.8745,75.3704,31.1,68,0.0,1004.2,9.0,34.9,98,33.9,29.5,3,5,4,1,2026-03-12T16:12:43.558589+05:30
Patna,Bihar,25.5941,85.1376,33.5,35,0.0,998.5,7.45,22.0,228,178.8,60.8,0,5,7,0,2026-03-12T16:12:43.558596+05:30
Gaya,Bihar,24.7914,85.0002,32.9,33,0.0,992.3,7.6,21.6,189,170.0,39.7,0,5,7,0,2026-03-12T16:12:43.558602+05:30
Muzaffarpur,Bihar,26.1209,85.3647,32.6,41,0.0,998.4,7.45,25.6,241,181.6,99.9,0,5,7,1,2026-03-12T16:12:43.558608+05:30
Bhagalpur,Bihar,25.2425,87.0117,29.6,64,0.0,1000.1,7.5,33.5,187,139.7,120.6,7,5,4,1,2026-03-12T16:12:43.558615+05:30
Ranchi,Jharkhand,23.3441,85.3096,31.6,22,0.0,937.4,8.2,33.8,161,123.4,30.2,0,5,7,0,2026-03-12T16:12:43.558622+05:30
Jamshedpur,Jharkhand,22.8046,86.2029,33.9,36,0.0,989.0,8.1,25.6,168,114.6,64.0,0,5,7,1,2026-03-12T16:12:43.558628+05:30
Dhanbad,Jharkhand,23.7957,86.4304,33.9,29,0.0,978.2,8.0,20.9,194,115.9,61.0,0,5,7,0,2026-03-12T16:12:43.558634+05:30
Bokaro,Jharkhand,23.6693,86.1511,34.1,28,0.0,982.2,8.0,23.4,186,127.6,43.4,0,5,7,0,2026-03-12T16:12:43.558641+05:30
Bhubaneswar,Odisha,20.2961,85.8245,35.7,32,0.0,1000.4,8.35,34.2,117,73.1,50.3,0,5,7,1,2026-03-12T16:12:43.558647+05:30
Cuttack,Odisha,20.4625,85.8828,35.9,32,0.0,1002.2,8.35,31.7,117,73.1,50.3,0,5,7,1,2026-03-12T16:12:43.558653+05:30
Rourkela,Odisha,22.2604,84.8536,35.4,28,0.0,983.0,8.0,16.2,155,130.9,30.5,0,5,10,0,2026-03-12T16:12:43.558659+05:30
Raipur,Chhattisgarh,21.2514,81.6296,37.2,16,0.0,973.2,8.1,16.2,163,50.1,22.6,0,5,10,0,2026-03-12T16:12:43.558665+05:30
Bhilai,Chhattisgarh,21.1938,81.3509,37.5,18,0.0,973.4,8.1,11.9,156,52.2,23.4,0,5,10,0,2026-03-12T16:12:43.558671+05:30
Guwahati,Assam,26.1158,91.7086,26.2,77,0.0,1001.7,7.05,24.1,153,78.7,69.4,7,5,4,1,2026-03-12T16:12:43.558677+05:30
Agartala,Tripura,23.8315,91.2868,28.0,71,0.0,1006.1,7.7,19.1,159,65.9,54.2,7,5,4,1,2026-03-12T16:12:43.558684+05:30
Shillong,Meghalaya,25.5788,91.8933,17.2,68,0.0,856.4,6.65,26.3,134,67.3,59.0,3,5,7,0,2026-03-12T16:12:43.558690+05:30
Imphal,Manipur,24.817,93.9368,21.3,72,0.0,923.3,8.0,31.0,170,66.4,60.5,3,5,7,0,2026-03-12T16:12:43.558696+05:30
Aizawl,Mizoram,23.7271,92.7176,22.1,65,0.0,892.9,7.9,37.1,187,112.0,98.5,3,5,7,0,2026-03-12T16:12:43.558703+05:30
Kohima,Nagaland,25.6701,94.1077,16.8,89,0.0,854.8,7.1,41.4,151,62.6,56.6,3,10,7,0,2026-03-12T16:12:43.558709+05:30
Gangtok,Sikkim,27.3314,88.6138,19.7,66,0.0,837.7,7.15,20.2,113,32.8,29.6,3,5,7,0,2026-03-12T16:12:43.558716+05:30
Siliguri,West Bengal,26.7271,88.3953,22.9,83,0.0,993.7,7.35,23.8,170,69.2,61.7,3,5,7,1,2026-03-12T16:12:46.785607+05:30
Durgapur,West Bengal,23.5204,87.3119,31.5,52,0.0,993.7,7.8,26.6,188,127.6,106.4,0,5,7,1,2026-03-12T16:12:46.785641+05:30
Asansol,West Bengal,23.6739,86.9524,31.9,52,0.0,992.1,7.35,29.5,186,112.7,82.2,0,5,7,1,2026-03-12T16:12:46.785654+05:30
Pondicherry,Puducherry,11.9139,79.8145,33.1,52,0.0,1007.1,9.0,29.5,71,25.3,20.6,0,5,4,1,2026-03-12T16:12:46.785664+05:30
Port Blair,Andaman and Nicobar Islands,11.6234,92.7265,28.2,77,0.0,1006.0,8.95,20.5,46,13.1,10.6,7,5,4,1,2026-03-12T16:12:46.785673+05:30
Haridwar,Uttarakhand,29.9457,78.1642,31.9,38,0.0,973.0,5.25,30.2,100,70.5,26.3,0,5,3,0,2026-03-12T16:12:46.785682+05:30
Rishikesh,Uttarakhand,30.0869,78.2676,31.4,36,0.0,966.0,5.4,29.5,81,46.8,20.7,0,5,3,0,2026-03-12T16:12:46.785691+05:30
Nainital,Uttarakhand,29.3919,79.4542,23.9,46,0.0,807.6,6.5,55.1,85,54.1,30.6,0,5,7,0,2026-03-12T16:12:46.785700+05:30
Mussoorie,Uttarakhand,30.4599,78.0664,22.3,41,0.0,804.3,5.95,42.8,85,46.1,18.9,0,5,3,0,2026-03-12T16:12:46.785708+05:30
Dharamshala,Himachal Pradesh,32.219,76.3234,21.9,55,0.0,869.6,6.55,50.8,55,39.2,12.8,0,5,7,0,2026-03-12T16:12:46.785716+05:30
Dalhousie,Himachal Pradesh,32.5387,75.971,19.2,51,0.0,804.5,5.95,36.0,81,53.1,19.1,0,5,3,0,2026-03-12T16:12:46.785725+05:30
Patiala,Punjab,30.3398,76.3869,30.5,44,0.0,977.4,5.75,37.4,156,137.4,41.0,0,5,3,1,2026-03-12T16:12:46.785734+05:30
Bhatinda,Punjab,30.211,74.9455,30.3,49,0.0,983.6,6.45,28.1,152,131.3,50.6,0,5,7,1,2026-03-12T16:12:46.785742+05:30
Rohtak,Haryana,28.8955,76.6066,33.4,25,0.0,980.5,6.1,27.0,321,501.1,65.2,0,5,7,0,2026-03-12T16:12:46.785750+05:30
Panipat,Haryana,29.3909,76.9635,32.7,31,0.0,979.1,5.45,22.3,438,607.2,82.2,0,5,3,0,2026-03-12T16:12:46.785758+05:30
Mathura,Uttar Pradesh,27.4924,77.6737,37.6,9,0.0,984.8,5.35,30.6,407,430.3,42.5,0,5,6,1,2026-03-12T16:12:46.785766+05:30
Vrindavan,Uttar Pradesh,27.5823,77.7027,36.8,11,0.0,985.2,5.25,32.4,407,430.3,42.5,0,5,6,0,2026-03-12T16:12:46.785774+05:30
Ayodhya,Uttar Pradesh,26.7922,82.1998,33.8,29,0.0,993.5,6.45,26.3,156,119.7,42.1,0,5,7,0,2026-03-12T16:12:46.785782+05:30
Ratlam,Madhya Pradesh,23.3315,75.0367,35.9,14,0.0,954.7,7.6,33.1,83,11.4,10.2,0,5,10,0,2026-03-12T16:12:46.785790+05:30
Sagar,Madhya Pradesh,23.8388,78.7378,35.6,15,0.0,949.9,7.5,27.0,89,18.7,8.4,0,5,10,0,2026-03-12T16:12:46.785798+05:30
Satna,Madhya Pradesh,24.6005,80.8322,37.6,11,0.0,969.9,7.55,29.2,88,28.0,9.8,0,5,10,0,2026-03-12T16:12:46.785806+05:30
Akola,Maharashtra,20.7002,77.0082,38.8,16,0.0,973.3,8.05,22.7,120,28.5,18.2,0,5,10,0,2026-03-12T16:12:46.785814+05:30
Amravati,Maharashtra,20.9374,77.7796,38.3,16,0.0,965.8,8.0,16.9,115,27.5,17.2,0,5,10,0,2026-03-12T16:12:46.785823+05:30
Latur,Maharashtra,18.4088,76.5604,35.0,22,0.0,939.1,8.45,19.1,98,27.5,22.1,0,5,7,0,2026-03-12T16:12:46.785830+05:30
Nanded,Maharashtra,19.1383,77.3091,38.4,16,0.0,966.9,8.25,16.2,109,28.2,21.3,0,5,10,0,2026-03-12T16:12:46.785836+05:30
Gulbarga,Karnataka,17.3297,76.8343,36.8,21,0.0,957.2,8.55,18.0,109,30.5,24.8,0,5,10,0,2026-03-12T16:12:46.785842+05:30
Bidar,Karnataka,17.9104,77.5199,35.5,21,0.0,934.7,8.5,19.1,106,30.6,23.7,0,5,10,0,2026-03-12T16:12:46.785850+05:30
Hospet,Karnataka,15.2689,76.3909,35.6,22,0.0,954.3,8.8,32.4,76,21.9,17.3,0,5,10,0,2026-03-12T16:12:46.785856+05:30
Tirupur,Tamil Nadu,11.1085,77.3411,35.7,23,0.0,973.1,9.3,32.8,80,22.5,21.0,0,5,10,0,2026-03-12T16:12:46.785862+05:30
Alappuzha,Kerala,9.4981,76.3388,28.8,80,0.0,1005.9,8.9,32.0,123,29.7,27.3,7,5,4,1,2026-03-12T16:12:46.785869+05:30
Munnar,Kerala,10.0889,77.0595,30.3,36,0.0,857.3,9.5,23.0,73,12.6,11.0,0,5,7,0,2026-03-12T16:12:46.785876+05:30
Silchar,Assam,24.8333,92.7789,28.7,66,0.0,1004.7,7.7,23.8,179,88.2,76.4,7,5,4,1,2026-03-12T16:12:46.785883+05:30
Dibrugarh,Assam,27.4728,94.912,25.3,73,0.0,996.5,6.3,20.2,147,39.3,36.1,7,5,7,1,2026-03-12T16:12:46.785889+05:30
