city,state,latitude,longitude,temp,humidity,rain,pressure,uv_index,wind_gusts,aqi,pm10,pm2_5,no2,co,o3,so2,mosquito_risk,arthritis_risk,migraine_risk,frizz_risk,updated_at
Delhi,Delhi,28.6139,77.209,39.1,29,0.0,975.7,7.8,46.8,396,581.1,95.5,3.7,211.0,137.0,10.2,0,5,10,1,2026-06-21T16:02:06.224787+05:30
Mumbai,Maharashtra,19.076,72.8777,32.7,55,0.0,1004.8,7.7,35.3,50,21.4,14.3,4.3,128.0,93.0,7.2,0,5,4,1,2026-06-21T16:02:06.224830+05:30
Bangalore,Karnataka,12.9716,77.5946,28.0,64,0.0,909.5,7.55,27.0,66,11.4,8.4,6.5,311.0,83.0,3.0,7,5,7,1,2026-06-21T16:02:06.224843+05:30
Hyderabad,Telangana,17.385,78.4867,33.7,42,0.0,950.3,9.0,31.3,73,29.5,20.5,2.3,236.0,124.0,4.2,0,5,7,1,2026-06-21T16:02:06.224852+05:30
Chennai,Tamil Nadu,13.0827,80.2707,32.3,71,0.0,1003.6,6.05,38.5,86,30.3,22.3,4.4,222.0,135.0,8.5,3,5,4,1,2026-06-21T16:02:06.224860+05:30
Kolkata,West Bengal,22.5726,88.3639,29.7,85,0.0,1000.1,7.0,31.7,112,35.9,29.9,5.3,304.0,136.0,9.8,7,5,4,1,2026-06-21T16:02:06.224867+05:30
Pune,Maharashtra,18.5204,73.8567,30.6,53,0.1,945.3,8.25,45.7,49,15.9,10.3,1.7,121.0,90.0,4.4,3,5,7,1,2026-06-21T16:02:06.224873+05:30
Ahmedabad,Gujarat,23.0225,72.5714,39.4,30,0.0,995.9,8.05,42.8,74,57.9,21.0,1.0,122.0,86.0,3.0,0,5,10,1,2026-06-21T16:02:06.224878+05:30
Jaipur,Rajasthan,26.9124,75.7873,35.7,39,0.0,954.3,7.45,38.9,116,176.0,44.5,0.6,123.0,87.0,2.0,0,5,10,1,2026-06-21T16:02:06.224883+05:30
Lucknow,Uttar Pradesh,26.8467,80.9462,39.3,32,0.0,984.8,8.0,39.2,210,290.6,75.7,1.2,149.0,140.0,6.6,0,5,10,1,2026-06-21T16:02:06.224892+05:30
Kanpur,Uttar Pradesh,26.4499,80.3319,39.6,29,0.0,983.6,8.15,44.6,388,343.7,70.3,1.3,135.0,123.0,4.8,0,5,10,1,2026-06-21T16:02:06.224898+05:30
Chandigarh,Chandigarh,30.7333,76.7794,34.9,34,0.0,962.4,7.8,43.9,144,23.2,17.4,1.8,318.0,171.0,8.0,0,5,7,1,2026-06-21T16:02:06.224903+05:30
Srinagar,Jammu and Kashmir,34.0837,74.7973,25.2,45,0.0,840.5,8.55,24.8,80,16.5,10.6,1.1,233.0,137.0,1.4,4,5,7,0,2026-06-21T16:02:06.224909+05:30
Jammu,Jammu and Kashmir,32.7266,74.857,36.6,24,0.0,966.8,8.6,46.1,87,14.0,9.3,0.6,218.0,153.0,2.0,0,5,10,0,2026-06-21T16:02:06.224915+05:30
Amritsar,Punjab,31.634,74.8723,33.6,47,0.0,974.3,8.45,30.2,110,62.2,31.0,2.0,329.0,158.0,6.9,0,5,7,1,2026-06-21T16:02:06.224923+05:30
Ludhiana,Punjab,30.901,75.8573,34.4,40,0.0,972.3,8.05,58.3,144,52.9,26.8,1.5,276.0,154.0,4.6,0,5,7,1,2026-06-21T16:02:06.224927+05:30
Jalandhar,Punjab,31.326,75.5762,34.9,40,0.0,973.3,8.2,39.6,143,62.2,28.3,1.8,290.0,158.0,4.8,0,5,7,1,2026-06-21T16:02:06.224931+05:30
Dehradun,Uttarakhand,30.6284,78.0322,23.7,56,0.1,828.7,8.25,28.1,106,30.5,21.9,1.7,262.0,150.0,3.4,3,5,7,0,2026-06-21T16:02:06.224939+05:30
Shimla,Himachal Pradesh,31.1048,77.1734,21.6,42,0.1,784.2,8.35,44.6,103,26.1,17.6,0.4,192.0,151.0,4.9,3,5,7,0,2026-06-21T16:02:06.224944+05:30
Manali,Himachal Pradesh,32.2396,77.1887,23.1,45,0.0,818.0,9.75,37.1,117,14.4,9.0,3.1,131.0,158.0,0.4,0,5,7,0,2026-06-21T16:02:06.224951+05:30
Gurgaon,Haryana,28.4595,77.0266,38.2,31,0.0,974.5,7.85,54.0,988,1065.4,137.4,2.7,159.0,122.0,7.1,0,5,10,1,2026-06-21T16:02:06.224957+05:30
Noida,Uttar Pradesh,28.5355,77.391,38.1,33,0.0,977.0,7.85,26.6,988,1065.4,137.4,2.7,222.0,122.0,7.1,0,5,10,1,2026-06-21T16:02:06.224962+05:30
Ghaziabad,Uttar Pradesh,28.6692,77.4538,37.4,35,0.0,975.3,7.8,30.2,328,415.4,86.8,3.3,200.0,162.0,13.9,0,5,10,1,2026-06-21T16:02:06.224967+05:30
Faridabad,Haryana,28.4089,77.3178,38.2,31,0.0,976.4,7.85,51.1,988,1065.4,137.4,2.7,182.0,122.0,7.1,0,5,10,1,2026-06-21T16:02:06.224971+05:30
Meerut,Uttar Pradesh,28.9845,77.7064,36.8,36,0.0,974.4,7.7,34.6,328,415.4,86.8,3.3,243.0,162.0,13.9,0,5,10,1,2026-06-21T16:02:06.224976+05:30
Agra,Uttar Pradesh,27.1767,78.0081,38.2,30,0.0,980.6,8.15,37.8,882,855.0,104.5,2.9,127.0,99.0,2.5,0,5,10,1,2026-06-21T16:02:06.224982+05:30
Varanasi,Uttar Pradesh,25.3176,82.9739,38.1,38,0.0,988.8,8.75,38.5,117,174.2,52.0,1.7,173.0,136.0,6.8,0,5,10,1,2026-06-21T16:02:06.224987+05:30
Prayagraj,Uttar Pradesh,25.4358,81.8463,39.7,33,0.0,987.5,8.7,41.0,118,224.4,61.5,1.5,140.0,136.0,7.3,0,5,10,1,2026-06-21T16:02:06.224991+05:30
Gorakhpur,Uttar Pradesh,26.7606,83.3732,37.7,41,0.0,987.8,8.7,37.1,158,242.1,74.0,2.9,180.0,166.0,8.3,0,5,10,1,2026-06-21T16:02:06.224997+05:30
Bareilly,Uttar Pradesh,28.367,79.4304,37.3,35,0.0,978.5,8.15,36.4,158,104.8,49.4,1.4,207.0,163.0,8.1,0,5,10,1,2026-06-21T16:02:06.225004+05:30
Aligarh,Uttar Pradesh,27.8974,78.088,37.0,38,0.0,978.4,8.0,31.0,621,882.9,122.9,2.1,161.0,125.0,6.5,0,5,10,1,2026-06-21T16:02:06.225009+05:30
Moradabad,Uttar Pradesh,28.8386,78.7733,36.9,39,0.0,975.8,7.95,40.0,170,102.4,51.9,1.7,271.0,165.0,9.1,0,5,10,1,2026-06-21T16:02:06.225014+05:30
Saharanpur,Uttar Pradesh,29.9637,77.546,36.1,32,0.0,968.5,7.45,43.9,166,107.6,34.8,2.5,278.0,176.0,11.0,0,5,10,1,2026-06-21T16:02:06.225018+05:30
Jhansi,Uttar Pradesh,25.4484,78.5685,37.2,37,0.0,971.7,6.5,42.1,91,60.1,24.9,0.9,121.0,95.0,3.1,0,5,10,1,2026-06-21T16:02:09.572976+05:30
Surat,Gujarat,21.1702,72.8311,34.0,52,0.0,1002.4,7.6,44.3,59,25.7,16.9,9.0,208.0,54.0,30.0,0,5,4,1,2026-06-21T16:02:09.573008+05:30
Vadodara,Gujarat,22.3072,73.1812,38.4,35,0.0,998.6,8.0,45.0,57,25.7,13.0,1.3,118.0,90.0,2.8,0,5,10,1,2026-06-21T16:02:09.573016+05:30
Rajkot,Gujarat,22.3039,70.8022,39.5,24,0.0,988.1,7.5,40.3,65,80.6,26.0,0.9,106.0,90.0,3.3,0,5,10,0,2026-06-21T16:02:09.573023+05:30
Thane,Maharashtra,19.2183,72.9781,34.6,47,0.0,1003.8,7.7,33.5,50,21.4,14.3,4.3,127.0,93.0,7.2,0,5,4,1,2026-06-21T16:02:09.573030+05:30
Nagpur,Maharashtra,21.1458,79.0882,38.2,31,0.0,968.1,8.7,45.0,68,48.8,24.8,4.0,126.0,116.0,11.7,0,5,10,1,2026-06-21T16:02:09.573036+05:30
Nashik,Maharashtra,19.9975,73.7898,31.5,49,0.0,942.5,8.05,46.8,34,14.8,9.6,1.3,108.0,81.0,2.5,0,5,7,1,2026-06-21T16:02:09.573042+05:30
Aurangabad,Maharashtra,19.8762,75.3433,36.6,27,0.0,940.5,8.95,35.3,43,20.5,12.9,1.0,132.0,106.0,3.1,0,5,10,0,2026-06-21T16:02:09.573048+05:30
Solapur,Maharashtra,17.6599,75.9064,35.5,37,0.0,953.4,8.9,39.2,55,19.4,11.8,1.2,116.0,109.0,1.8,0,5,10,1,2026-06-21T16:02:09.573054+05:30
Kolhapur,Maharashtra,16.705,74.2433,28.9,67,0.1,944.9,8.6,36.0,40,6.0,4.9,1.5,134.0,72.0,1.0,10,5,7,1,2026-06-21T16:02:09.573060+05:30
Goa,Goa,15.2993,74.124,29.6,78,0.0,995.0,6.3,34.9,34,5.8,4.1,0.7,107.0,52.0,0.6,7,5,7,1,2026-06-21T16:02:09.573066+05:30
Jodhpur,Rajasthan,26.2389,73.0243,38.0,33,0.0,976.6,8.4,44.6,135,245.9,48.1,0.4,107.0,78.0,1.3,0,5,10,1,2026-06-21T16:02:09.573072+05:30
Udaipur,Rajasthan,24.5854,73.7125,32.7,44,0.0,942.5,8.8,41.4,75,49.4,18.9,0.5,108.0,78.0,1.7,0,5,7,1,2026-06-21T16:02:09.573077+05:30
Kota,Rajasthan,25.2138,75.8648,36.4,40,0.0,973.3,8.35,37.4,98,71.9,28.5,0.6,115.0,99.0,3.6,0,5,10,1,2026-06-21T16:02:09.573099+05:30
Bikaner,Rajasthan,28.0229,73.3119,39.3,27,0.0,974.8,8.45,70.9,152,196.5,54.0,0.2,105.0,84.0,1.8,0,5,10,1,2026-06-21T16:02:09.573105+05:30
Ajmer,Rajasthan,26.4499,74.6399,34.5,38,0.0,949.5,8.3,48.2,87,128.5,36.0,0.3,109.0,84.0,2.0,0,5,7,1,2026-06-21T16:02:09.573111+05:30
Gwalior,Madhya Pradesh,26.2183,78.1828,37.6,33,0.0,976.6,4.75,46.4,95,136.0,37.3,0.7,124.0,93.0,2.0,0,5,6,1,2026-06-21T16:02:09.573117+05:30
Indore,Madhya Pradesh,22.7196,75.8577,33.0,47,0.0,944.4,8.5,37.1,76,85.0,36.7,1.0,137.0,97.0,2.9,0,5,7,1,2026-06-21T16:02:09.573122+05:30
Bhopal,Madhya Pradesh,23.2599,77.4126,33.9,45,0.0,949.3,8.0,32.4,76,73.1,30.4,0.6,140.0,101.0,3.6,0,5,7,1,2026-06-21T16:02:09.573127+05:30
Jabalpur,Madhya Pradesh,23.1815,79.9864,32.6,51,0.0,957.3,8.4,36.7,75,69.4,31.2,1.0,145.0,106.0,2.6,0,5,7,1,2026-06-21T16:02:09.573133+05:30
Ujjain,Madhya Pradesh,23.1765,75.7885,34.8,40,0.0,949.9,7.8,40.3,77,65.0,27.7,0.6,122.0,97.0,3.4,0,5,7,1,2026-06-21T16:02:09.573138+05:30
Visakhapatnam,Andhra Pradesh,17.6868,83.2185,31.9,64,0.0,998.6,5.55,39.2,111,39.5,35.2,12.5,382.0,167.0,36.2,3,5,3,1,2026-06-21T16:02:09.573144+05:30
Vijayawada,Andhra Pradesh,16.5062,80.648,29.8,77,0.0,998.9,6.05,40.3,91,31.1,23.5,4.1,175.0,125.0,8.7,7,5,7,1,2026-06-21T16:02:09.573149+05:30
Guntur,Andhra Pradesh,16.3067,80.4365,32.7,59,0.0,999.9,5.55,24.1,94,30.4,21.4,3.9,173.0,119.0,6.9,0,5,3,1,2026-06-21T16:02:09.573155+05:30
Nellore,Andhra Pradesh,14.4426,79.9865,32.7,64,0.0,1002.0,4.55,31.7,76,33.2,24.5,2.8,167.0,153.0,4.7,3,5,0,1,2026-06-21T16:02:09.573160+05:30
Kurnool,Andhra Pradesh,15.8281,78.0373,35.7,39,0.0,972.8,8.15,40.7,58,21.4,13.1,1.2,130.0,109.0,3.3,0,5,10,1,2026-06-21T16:02:09.573167+05:30
Kakinada,Andhra Pradesh,16.9891,82.2475,31.9,69,0.0,1003.5,2.85,42.8,81,31.1,26.2,2.9,238.0,149.0,5.5,3,5,0,1,2026-06-21T16:02:09.573172+05:30
Tirupati,Andhra Pradesh,13.6288,79.4192,28.4,86,0.3,988.1,7.65,37.4,74,26.3,17.6,2.6,158.0,127.0,2.1,10,5,7,1,2026-06-21T16:02:09.573178+05:30
Warangal,Telangana,17.9689,79.5941,32.5,56,0.0,975.3,8.7,34.2,79,38.4,27.0,1.5,154.0,141.0,5.3,0,5,7,1,2026-06-21T16:02:09.573183+05:30
Nizamabad,Telangana,18.6725,78.0941,36.7,36,0.0,960.9,8.95,36.0,64,23.3,16.7,1.2,135.0,117.0,4.8,0,5,10,1,2026-06-21T16:02:09.573189+05:30
Mysore,Karnataka,12.2958,76.6396,27.8,67,0.2,926.0,8.35,39.2,40,4.1,3.4,2.5,133.0,67.0,1.3,10,5,7,1,2026-06-21T16:02:09.573194+05:30
Mangalore,Karnataka,12.9141,74.856,26.9,87,0.1,1004.9,7.4,31.0,27,4.3,2.9,1.2,100.0,55.0,1.2,10,5,4,1,2026-06-21T16:02:09.573199+05:30
Hubli-Dharwad,Karnataka,15.3647,75.124,27.5,71,0.0,938.6,8.65,49.0,26,2.9,2.2,1.6,107.0,63.0,0.7,7,5,7,1,2026-06-21T16:02:09.573204+05:30
Belgaum,Karnataka,15.8497,74.4977,26.4,78,0.1,923.4,8.85,35.6,40,3.2,2.6,1.2,115.0,68.0,1.3,10,5,7,1,2026-06-21T16:02:12.918560+05:30
Coimbatore,Tamil Nadu,11.0168,76.9558,28.1,71,0.1,960.1,8.15,52.6,37,4.3,3.9,1.9,130.0,66.0,1.7,10,5,7,1,2026-06-21T16:02:12.918593+05:30
Madurai,Tamil Nadu,9.9252,78.1198,29.5,69,0.2,991.3,8.2,44.3,69,25.3,16.2,3.8,143.0,111.0,2.7,10,5,7,1,2026-06-21T16:02:12.918602+05:30
Trichy,Tamil Nadu,10.7905,78.7047,33.6,51,0.0,996.4,8.5,28.8,65,30.0,18.2,3.0,154.0,122.0,3.3,0,5,7,1,2026-06-21T16:02:12.918609+05:30
Salem,Tamil Nadu,11.6643,78.146,34.3,45,0.0,974.1,7.8,34.2,68,11.3,8.7,2.6,130.0,106.0,5.7,0,5,7,1,2026-06-21T16:02:12.918616+05:30
Tirunelveli,Tamil Nadu,8.7139,77.7567,27.8,86,0.2,1001.5,8.65,35.6,37,4.1,3.4,1.8,113.0,61.0,0.7,10,5,4,1,2026-06-21T16:02:12.918623+05:30
Vellore,Tamil Nadu,12.9165,79.1325,31.7,57,0.1,981.2,6.25,28.8,92,27.0,18.0,3.6,159.0,135.0,3.8,3,5,7,1,2026-06-21T16:02:12.918628+05:30
Erode,Tamil Nadu,11.341,77.7172,33.8,48,0.1,985.5,8.3,47.5,54,5.7,4.9,2.0,123.0,85.0,1.7,3,5,7,1,2026-06-21T16:02:12.918634+05:30
Kochi,Kerala,9.9312,76.2673,26.7,86,0.1,1008.3,8.35,36.7,51,6.2,4.7,2.5,94.0,59.0,2.3,10,0,4,1,2026-06-21T16:02:12.918640+05:30
Thiruvananthapuram,Kerala,8.5241,76.9366,26.7,87,0.1,1007.7,7.6,34.9,29,6.4,3.9,1.3,89.0,61.0,0.6,10,5,4,1,2026-06-21T16:02:12.918646+05:30
Kozhikode,Kerala,11.2588,75.7804,25.6,94,0.2,1007.4,7.65,44.6,26,5.3,3.1,0.5,92.0,58.0,0.5,10,5,4,1,2026-06-21T16:02:12.918651+05:30
Thrissur,Kerala,10.5276,76.2144,25.9,91,0.1,1006.6,7.85,32.0,48,5.9,5.0,2.2,92.0,51.0,1.4,10,5,4,1,2026-06-21T16:02:12.918657+05:30
Kannur,Kerala,11.8745,75.3704,26.0,94,0.1,1006.1,8.35,34.2,24,4.5,3.0,1.2,90.0,55.0,0.8,10,5,4,1,2026-06-21T16:02:12.918663+05:30
Patna,Bihar,25.5941,85.1376,37.8,39,0.0,991.3,8.6,31.3,165,178.3,59.3,3.9,232.0,171.0,8.4,0,5,10,1,2026-06-21T16:02:12.918668+05:30
Gaya,Bihar,24.7914,85.0002,36.7,41,0.0,985.6,8.6,33.8,125,214.2,56.6,2.9,208.0,142.0,6.4,0,5,10,1,2026-06-21T16:02:12.918674+05:30
Muzaffarpur,Bihar,26.1209,85.3647,34.5,61,0.0,991.2,8.45,39.6,165,150.9,58.9,4.4,264.0,184.0,10.4,3,5,7,1,2026-06-21T16:02:12.918679+05:30
Bhagalpur,Bihar,25.2425,87.0117,34.4,67,0.0,992.3,8.4,24.5,145,129.9,47.4,4.7,224.0,168.0,13.3,3,5,7,1,2026-06-21T16:02:12.918683+05:30
Ranchi,Jharkhand,23.3441,85.3096,31.4,55,0.0,932.8,6.9,33.5,105,58.7,27.1,2.6,165.0,133.0,6.4,0,5,7,1,2026-06-21T16:02:12.918689+05:30
Jamshedpur,Jharkhand,22.8046,86.2029,33.5,59,0.0,984.7,8.6,22.3,130,49.5,44.8,4.9,251.0,181.0,23.5,0,5,7,1,2026-06-21T16:02:12.918694+05:30
Dhanbad,Jharkhand,23.7957,86.4304,33.5,58,0.1,973.2,5.9,37.8,150,70.3,59.1,14.9,228.0,196.0,59.6,3,5,3,1,2026-06-21T16:02:12.918699+05:30
Bokaro,Jharkhand,23.6693,86.1511,33.6,63,0.1,976.8,5.0,36.0,120,72.4,42.4,12.8,223.0,163.0,45.2,6,5,3,1,2026-06-21T16:02:12.918704+05:30
Bhubaneswar,Odisha,20.2961,85.8245,27.1,95,0.0,998.2,8.55,38.9,95,41.1,35.4,7.0,276.0,118.0,10.7,7,5,7,1,2026-06-21T16:02:12.918709+05:30
Cuttack,Odisha,20.4625,85.8828,29.1,83,0.0,999.9,8.5,38.5,95,41.1,35.4,7.0,318.0,118.0,10.7,7,5,7,1,2026-06-21T16:02:12.918714+05:30
Rourkela,Odisha,22.2604,84.8536,33.9,54,0.0,979.3,8.7,42.8,142,44.6,38.5,3.1,195.0,174.0,13.0,0,5,7,1,2026-06-21T16:02:12.918719+05:30
Raipur,Chhattisgarh,21.2514,81.6296,38.8,32,0.0,968.7,8.85,43.9,84,29.6,20.8,4.1,140.0,134.0,17.5,0,5,10,1,2026-06-21T16:02:12.918724+05:30
Bhilai,Chhattisgarh,21.1938,81.3509,37.8,34,0.0,969.4,8.5,49.3,78,31.2,19.3,4.4,302.0,118.0,14.3,0,5,10,1,2026-06-21T16:02:12.918729+05:30
Guwahati,Assam,26.1158,91.7086,28.7,85,0.1,994.4,7.95,25.6,118,14.8,13.3,3.5,299.0,90.0,2.5,10,5,7,1,2026-06-21T16:02:12.918734+05:30
Agartala,Tripura,23.8315,91.2868,27.7,91,0.1,1001.1,8.7,40.0,63,17.0,14.2,4.2,192.0,109.0,2.0,10,5,4,1,2026-06-21T16:02:12.918739+05:30
Shillong,Meghalaya,25.5788,91.8933,22.9,82,0.2,853.7,6.8,37.8,54,12.7,10.3,3.0,210.0,97.0,2.0,6,5,7,1,2026-06-21T16:02:12.918744+05:30
Imphal,Manipur,24.817,93.9368,28.2,68,0.0,918.4,8.75,28.1,81,16.5,12.3,2.9,186.0,80.0,1.2,7,5,7,1,2026-06-21T16:02:12.918748+05:30
Aizawl,Mizoram,23.7271,92.7176,25.5,69,0.1,888.8,9.0,33.1,40,9.7,7.2,1.2,162.0,75.0,0.5,10,5,7,1,2026-06-21T16:02:12.918753+05:30
Kohima,Nagaland,25.6701,94.1077,21.5,96,0.0,851.8,8.6,24.1,54,10.0,7.5,1.4,200.0,81.0,0.8,3,5,7,1,2026-06-21T16:02:12.918758+05:30
Gangtok,Sikkim,27.3314,88.6138,20.2,93,0.1,833.1,8.25,22.3,108,7.3,6.3,2.0,330.0,132.0,3.6,6,5,7,1,2026-06-21T16:02:12.918763+05:30
Siliguri,West Bengal,26.7271,88.3953,26.6,95,0.3,985.9,7.35,25.9,116,11.1,9.5,3.9,455.0,133.0,7.1,10,5,7,1,2026-06-21T16:02:16.264070+05:30
Durgapur,West Bengal,23.5204,87.3119,33.0,62,0.0,988.2,8.65,34.2,154,75.4,58.6,18.3,425.0,171.0,62.9,3,5,7,1,2026-06-21T16:02:16.264123+05:30
Asansol,West Bengal,23.6739,86.9524,33.5,56,0.0,986.8,8.05,40.7,149,69.8,58.0,14.9,382.0,187.0,52.0,0,5,7,1,2026-06-21T16:02:16.264132+05:30
Pondicherry,Puducherry,11.9139,79.8145,30.5,81,0.0,1004.9,7.9,38.9,71,30.4,21.7,2.8,169.0,139.0,8.2,3,5,4,1,2026-06-21T16:02:16.264139+05:30
Port Blair,Andaman and Nicobar Islands,11.6234,92.7265,29.4,73,0.0,1006.7,7.8,33.8,57,25.6,10.5,0.3,95.0,43.0,0.5,7,5,4,1,2026-06-21T16:02:16.264145+05:30
Haridwar,Uttarakhand,29.9457,78.1642,36.5,33,0.0,966.4,7.6,33.5,157,44.8,28.1,1.3,296.0,179.0,9.0,0,5,10,1,2026-06-21T16:02:16.264151+05:30
Rishikesh,Uttarakhand,30.0869,78.2676,35.6,34,0.0,959.3,7.7,24.1,135,31.4,24.8,0.8,258.0,173.0,7.0,0,5,10,1,2026-06-21T16:02:16.264157+05:30
Nainital,Uttarakhand,29.3919,79.4542,23.7,49,0.0,804.5,8.6,32.4,131,53.0,29.5,1.1,240.0,163.0,5.9,0,5,7,0,2026-06-21T16:02:16.264163+05:30
Mussoorie,Uttarakhand,30.4599,78.0664,21.6,58,0.0,801.6,8.15,42.5,139,28.8,23.2,1.0,233.0,175.0,7.4,0,5,7,0,2026-06-21T16:02:16.264169+05:30
Dharamshala,Himachal Pradesh,32.219,76.3234,25.0,52,0.0,866.3,8.5,45.7,90,13.1,7.9,0.4,202.0,137.0,0.6,4,5,7,0,2026-06-21T16:02:16.264175+05:30
Dalhousie,Himachal Pradesh,32.5387,75.971,20.3,64,0.0,803.7,8.75,40.0,93,14.3,9.0,0.6,180.0,140.0,1.4,3,5,7,0,2026-06-21T16:02:16.264183+05:30
Patiala,Punjab,30.3398,76.3869,34.0,43,0.0,971.9,7.7,60.5,349,464.7,69.2,1.6,265.0,160.0,6.5,0,5,7,1,2026-06-21T16:02:16.264191+05:30
Bhatinda,Punjab,30.211,74.9455,31.7,56,0.0,976.8,8.3,69.5,152,117.8,46.6,1.9,149.0,158.0,10.2,0,5,7,1,2026-06-21T16:02:16.264196+05:30
Rohtak,Haryana,28.8955,76.6066,36.3,37,0.1,975.0,7.75,37.8,433,689.2,94.3,1.1,148.0,115.0,3.4,3,5,10,1,2026-06-21T16:02:16.264202+05:30
Panipat,Haryana,29.3909,76.9635,34.5,44,0.0,973.4,7.65,38.5,1298,964.9,129.9,2.7,214.0,138.0,10.5,0,5,7,1,2026-06-21T16:02:16.264207+05:30
Mathura,Uttar Pradesh,27.4924,77.6737,36.7,38,0.0,979.9,8.1,34.6,713,501.1,78.5,1.4,133.0,97.0,2.0,0,5,10,1,2026-06-21T16:02:16.264213+05:30
Vrindavan,Uttar Pradesh,27.5823,77.7027,36.7,39,0.0,980.2,8.05,33.5,713,501.1,78.5,1.4,138.0,97.0,2.0,0,5,10,1,2026-06-21T16:02:16.264218+05:30
Ayodhya,Uttar Pradesh,26.7922,82.1998,37.9,38,0.0,986.1,8.45,37.8,162,206.3,66.1,1.5,167.0,144.0,6.8,0,5,10,1,2026-06-21T16:02:16.264224+05:30
Ratlam,Madhya Pradesh,23.3315,75.0367,34.5,41,0.0,950.7,8.45,40.7,72,51.9,22.8,0.5,113.0,94.0,3.2,0,5,7,1,2026-06-21T16:02:16.264230+05:30
Sagar,Madhya Pradesh,23.8388,78.7378,31.6,54,0.0,946.1,6.75,42.1,82,68.7,29.6,0.8,130.0,104.0,2.9,0,5,7,1,2026-06-21T16:02:16.264236+05:30
Satna,Madhya Pradesh,24.6005,80.8322,36.4,38,0.0,965.3,8.3,43.9,83,104.8,37.1,0.5,139.0,106.0,3.1,0,5,10,1,2026-06-21T16:02:16.264242+05:30
Akola,Maharashtra,20.7002,77.0082,38.5,30,0.0,970.2,8.8,42.8,58,25.6,14.6,1.0,108.0,107.0,5.2,0,5,10,1,2026-06-21T16:02:16.264248+05:30
Amravati,Maharashtra,20.9374,77.7796,37.5,32,0.0,962.7,8.4,42.5,60,24.6,14.6,1.3,109.0,112.0,6.4,0,5,10,1,2026-06-21T16:02:16.264254+05:30
Latur,Maharashtra,18.4088,76.5604,35.8,34,0.0,936.4,6.85,27.4,68,32.4,21.6,0.9,116.0,107.0,2.4,0,5,10,1,2026-06-21T16:02:16.264259+05:30
Nanded,Maharashtra,19.1383,77.3091,36.2,35,0.0,964.4,8.0,35.3,61,19.8,12.9,1.0,128.0,102.0,2.2,0,5,10,1,2026-06-21T16:02:16.264264+05:30
Gulbarga,Karnataka,17.3297,76.8343,35.9,35,0.0,955.0,8.55,47.9,56,21.5,13.4,1.2,121.0,114.0,2.3,0,5,10,1,2026-06-21T16:02:16.264269+05:30
Bidar,Karnataka,17.9104,77.5199,32.8,45,0.1,932.6,8.85,30.2,68,25.4,19.1,1.8,133.0,117.0,3.8,3,5,7,1,2026-06-21T16:02:16.264274+05:30
Hospet,Karnataka,15.2689,76.3909,32.6,50,0.0,952.3,8.6,43.6,38,9.1,6.1,1.5,115.0,80.0,1.8,0,5,7,1,2026-06-21T16:02:16.264279+05:30
Tirupur,Tamil Nadu,11.1085,77.3411,30.1,64,0.0,972.7,8.1,56.2,55,5.9,5.1,2.0,117.0,85.0,2.3,3,5,7,1,2026-06-21T16:02:16.264284+05:30
Alappuzha,Kerala,9.4981,76.3388,26.6,87,0.0,1008.2,8.15,38.9,35,6.8,4.6,2.0,85.0,57.0,1.4,7,0,4,1,2026-06-21T16:02:16.264290+05:30
Munnar,Kerala,10.0889,77.0595,17.6,95,0.5,855.8,8.4,31.0,52,2.8,2.6,1.9,104.0,56.0,0.8,6,10,7,1,2026-06-21T16:02:16.264295+05:30
Silchar,Assam,24.8333,92.7789,27.7,92,0.4,999.4,8.85,34.2,85,15.7,12.2,2.1,207.0,87.0,2.4,10,5,7,1,2026-06-21T16:02:16.264301+05:30
Dibrugarh,Assam,27.4728,94.912,26.5,97,0.1,988.5,4.65,35.3,80,24.7,19.3,2.7,230.0,112.0,1.9,10,5,3,1,2026-06-21T16:02:16.264306+05:30
