city,state,latitude,longitude,temp,humidity,rain,pressure,uv_index,wind_gusts,aqi,pm10,pm2_5,no2,co,o3,so2,mosquito_risk,arthritis_risk,migraine_risk,frizz_risk,updated_at
Delhi,Delhi,28.6139,77.209,26.5,83,0.0,975.7,7.8,47.9,632,201.6,68.2,12.4,348.0,101.0,15.0,7,5,7,1,2026-06-12T02:52:52.653855+05:30
Mumbai,Maharashtra,19.076,72.8777,30.3,70,0.0,1005.3,7.75,44.6,77,64.7,25.4,3.3,117.0,57.0,3.4,3,5,4,1,2026-06-12T02:52:52.653890+05:30
Bangalore,Karnataka,12.9716,77.5946,21.2,98,0.0,910.2,8.8,42.8,44,8.8,6.0,10.1,252.0,36.0,4.3,3,5,7,1,2026-06-12T02:52:52.653905+05:30
Hyderabad,Telangana,17.385,78.4867,25.9,76,0.0,950.3,8.95,54.4,76,34.8,22.6,11.9,174.0,72.0,10.0,7,5,7,1,2026-06-12T02:52:52.653914+05:30
Chennai,Tamil Nadu,13.0827,80.2707,27.0,88,0.0,1004.7,8.05,40.3,62,24.9,17.2,13.8,271.0,60.0,8.1,7,5,4,1,2026-06-12T02:52:52.653922+05:30
Kolkata,West Bengal,22.5726,88.3639,26.8,96,0.0,1001.2,8.8,37.1,116,69.8,57.6,23.4,401.0,45.0,9.2,7,5,4,1,2026-06-12T02:52:52.653930+05:30
Pune,Maharashtra,18.5204,73.8567,24.5,86,0.0,945.6,8.35,47.5,60,28.0,14.7,7.4,113.0,41.0,5.6,3,5,7,1,2026-06-12T02:52:52.653936+05:30
Ahmedabad,Gujarat,23.0225,72.5714,31.1,60,0.0,996.3,8.1,49.7,75,43.4,19.2,4.1,122.0,54.0,3.6,0,5,7,1,2026-06-12T02:52:52.653942+05:30
Jaipur,Rajasthan,26.9124,75.7873,27.7,60,0.0,953.2,8.25,51.5,133,140.2,48.1,11.6,195.0,52.0,6.7,4,5,7,1,2026-06-12T02:52:52.653953+05:30
Lucknow,Uttar Pradesh,26.8467,80.9462,25.6,91,0.0,989.7,8.35,53.3,147,64.3,35.6,7.8,328.0,116.0,9.4,7,5,7,1,2026-06-12T02:52:52.653960+05:30
Kanpur,Uttar Pradesh,26.4499,80.3319,25.9,88,0.0,987.3,8.3,51.1,157,462.9,85.2,8.2,358.0,122.0,11.5,7,5,7,1,2026-06-12T02:52:52.653966+05:30
Chandigarh,Chandigarh,30.7333,76.7794,27.8,58,0.0,962.2,7.15,57.2,131,88.2,43.8,13.0,231.0,93.0,7.3,4,5,7,1,2026-06-12T02:52:52.653972+05:30
Srinagar,Jammu and Kashmir,34.0837,74.7973,15.1,94,0.0,835.5,8.25,30.6,78,44.9,42.7,37.3,369.0,5.0,1.2,3,10,7,0,2026-06-12T02:52:52.653979+05:30
Jammu,Jammu and Kashmir,32.7266,74.857,28.2,58,0.0,964.5,7.25,51.1,96,63.8,53.9,56.2,400.0,12.0,6.1,4,5,7,1,2026-06-12T02:52:52.653986+05:30
Amritsar,Punjab,31.634,74.8723,28.0,73,0.0,972.7,5.2,61.2,176,149.0,69.4,11.8,361.0,94.0,10.3,7,5,3,1,2026-06-12T02:52:52.653992+05:30
Ludhiana,Punjab,30.901,75.8573,26.7,73,0.0,970.8,4.5,55.8,654,118.3,55.5,8.2,281.0,111.0,9.7,7,5,3,1,2026-06-12T02:52:52.653998+05:30
Jalandhar,Punjab,31.326,75.5762,27.4,69,0.0,971.9,4.35,55.1,460,156.9,63.3,11.1,279.0,97.0,10.0,7,5,3,1,2026-06-12T02:52:52.654004+05:30
Dehradun,Uttarakhand,30.6284,78.0322,14.7,96,0.0,824.9,8.25,34.9,80,43.4,26.6,28.8,222.0,34.0,1.4,3,10,7,0,2026-06-12T02:52:52.654011+05:30
Shimla,Himachal Pradesh,31.1048,77.1734,13.2,82,0.0,778.3,7.7,27.4,86,53.1,34.6,20.7,260.0,62.0,1.9,3,10,7,0,2026-06-12T02:52:52.654021+05:30
Manali,Himachal Pradesh,32.2396,77.1887,13.7,68,0.0,812.9,6.8,45.4,38,4.2,2.5,77.8,278.0,22.0,0.0,3,5,7,0,2026-06-12T02:52:52.654029+05:30
Gurgaon,Haryana,28.4595,77.0266,26.7,80,0.0,974.1,7.9,55.8,1373,543.9,125.3,12.4,336.0,103.0,14.5,7,5,7,1,2026-06-12T02:52:52.654035+05:30
Noida,Uttar Pradesh,28.5355,77.391,26.1,84,0.0,977.5,7.85,47.9,1373,543.9,125.3,12.4,333.0,103.0,14.5,7,5,7,1,2026-06-12T02:52:52.654041+05:30
Ghaziabad,Uttar Pradesh,28.6692,77.4538,25.8,87,0.0,975.9,7.8,49.0,479,123.4,51.8,9.1,299.0,102.0,7.9,7,5,7,1,2026-06-12T02:52:52.654047+05:30
Faridabad,Haryana,28.4089,77.3178,26.6,82,0.0,976.6,7.85,50.0,1373,543.9,125.3,12.4,334.0,103.0,14.5,7,5,7,1,2026-06-12T02:52:52.654053+05:30
Meerut,Uttar Pradesh,28.9845,77.7064,25.6,86,0.0,975.3,7.7,53.3,479,123.4,51.8,9.1,309.0,102.0,7.9,7,5,7,1,2026-06-12T02:52:52.654059+05:30
Agra,Uttar Pradesh,27.1767,78.0081,25.4,96,0.1,982.1,8.15,75.2,620,106.9,55.8,7.4,162.0,112.0,6.2,10,5,7,1,2026-06-12T02:52:52.654066+05:30
Varanasi,Uttar Pradesh,25.3176,82.9739,30.5,68,0.0,992.0,8.8,53.6,154,67.3,57.3,12.9,511.0,106.0,16.7,3,5,7,1,2026-06-12T02:52:52.654072+05:30
Prayagraj,Uttar Pradesh,25.4358,81.8463,30.6,66,0.0,991.2,8.4,65.5,154,63.6,49.7,11.6,475.0,116.0,16.3,3,5,7,1,2026-06-12T02:52:52.654079+05:30
Gorakhpur,Uttar Pradesh,26.7606,83.3732,25.8,82,0.2,994.1,8.7,37.8,108,55.6,36.9,13.0,481.0,98.0,11.1,10,5,7,1,2026-06-12T02:52:52.654087+05:30
Bareilly,Uttar Pradesh,28.367,79.4304,24.8,86,0.0,982.6,8.15,37.4,155,87.8,46.3,11.3,282.0,90.0,5.7,3,5,7,1,2026-06-12T02:52:52.654093+05:30
Aligarh,Uttar Pradesh,27.8974,78.088,25.7,98,0.0,979.4,8.0,49.3,793,402.3,73.1,9.7,329.0,114.0,10.1,7,5,7,1,2026-06-12T02:52:52.654099+05:30
Moradabad,Uttar Pradesh,28.8386,78.7733,25.2,82,0.0,978.6,7.95,46.4,153,98.7,47.7,10.5,266.0,93.0,6.4,7,5,7,1,2026-06-12T02:52:52.654105+05:30
Saharanpur,Uttar Pradesh,29.9637,77.546,25.4,76,0.0,970.0,7.55,54.7,150,116.4,56.6,9.0,263.0,102.0,8.2,7,5,7,1,2026-06-12T02:52:52.654111+05:30
Jhansi,Uttar Pradesh,25.4484,78.5685,27.3,77,0.0,972.5,8.5,68.0,72,52.2,29.0,7.4,167.0,60.0,4.6,7,5,7,1,2026-06-12T02:52:56.005126+05:30
Surat,Gujarat,21.1702,72.8311,30.2,73,0.0,1001.7,7.5,60.1,84,49.7,26.2,12.1,202.0,46.0,21.7,3,5,4,1,2026-06-12T02:52:56.005158+05:30
Vadodara,Gujarat,22.3072,73.1812,30.0,73,0.0,998.6,8.05,59.4,80,40.3,22.5,8.8,105.0,46.0,10.2,7,5,7,1,2026-06-12T02:52:56.005171+05:30
Rajkot,Gujarat,22.3039,70.8022,28.5,80,0.0,988.5,7.6,54.4,66,24.2,12.0,3.2,95.0,51.0,2.5,7,5,7,1,2026-06-12T02:52:56.005181+05:30
Thane,Maharashtra,19.2183,72.9781,29.8,72,0.0,1004.8,7.7,41.8,77,64.7,25.4,3.3,136.0,57.0,3.4,7,5,4,1,2026-06-12T02:52:56.005191+05:30
Nagpur,Maharashtra,21.1458,79.0882,33.2,42,0.0,968.1,8.9,41.0,90,50.6,36.7,26.9,279.0,46.0,12.0,0,5,7,1,2026-06-12T02:52:56.005200+05:30
Nashik,Maharashtra,19.9975,73.7898,24.4,90,0.0,942.3,8.1,50.8,63,32.4,16.3,7.8,114.0,43.0,6.3,3,5,7,1,2026-06-12T02:52:56.005210+05:30
Aurangabad,Maharashtra,19.8762,75.3433,25.8,76,0.0,940.8,9.0,46.1,65,30.0,16.8,9.6,133.0,45.0,11.1,7,5,7,1,2026-06-12T02:52:56.005219+05:30
Solapur,Maharashtra,17.6599,75.9064,27.3,71,0.0,955.1,8.95,41.8,59,28.5,16.3,5.4,132.0,46.0,2.3,7,5,7,1,2026-06-12T02:52:56.005228+05:30
Kolhapur,Maharashtra,16.705,74.2433,23.6,93,0.0,946.1,8.7,50.0,54,29.7,15.7,5.3,139.0,42.0,2.2,3,5,7,1,2026-06-12T02:52:56.005238+05:30
Goa,Goa,15.2993,74.124,25.0,98,0.0,996.9,7.3,29.9,65,39.0,18.9,3.8,164.0,45.0,1.2,7,5,7,1,2026-06-12T02:52:56.005247+05:30
Jodhpur,Rajasthan,26.2389,73.0243,31.7,62,0.0,973.9,8.4,51.1,159,195.6,47.6,3.3,116.0,73.0,2.9,3,5,7,1,2026-06-12T02:52:56.005257+05:30
Udaipur,Rajasthan,24.5854,73.7125,27.0,76,0.0,940.4,8.85,53.3,81,37.5,23.8,10.2,132.0,48.0,13.9,7,5,7,1,2026-06-12T02:52:56.005266+05:30
Kota,Rajasthan,25.2138,75.8648,32.0,57,0.0,971.6,8.4,71.6,87,43.8,26.6,4.8,165.0,83.0,7.6,0,5,7,1,2026-06-12T02:52:56.005275+05:30
Bikaner,Rajasthan,28.0229,73.3119,34.6,41,0.0,971.1,8.45,59.0,158,127.6,47.8,1.9,133.0,72.0,2.5,0,5,7,1,2026-06-12T02:52:56.005284+05:30
Ajmer,Rajasthan,26.4499,74.6399,30.7,55,0.0,947.3,8.35,69.1,79,39.0,23.5,5.7,133.0,67.0,5.5,0,5,7,1,2026-06-12T02:52:56.005293+05:30
Gwalior,Madhya Pradesh,26.2183,78.1828,25.3,94,0.8,978.3,8.3,71.6,84,106.9,51.5,8.2,142.0,82.0,3.9,10,5,7,1,2026-06-12T02:52:56.005303+05:30
Indore,Madhya Pradesh,22.7196,75.8577,27.8,69,0.0,943.1,8.65,49.0,80,41.8,24.9,5.3,147.0,71.0,8.9,7,5,7,1,2026-06-12T02:52:56.005312+05:30
Bhopal,Madhya Pradesh,23.2599,77.4126,30.3,55,0.0,948.6,8.7,38.5,74,47.3,29.9,7.0,192.0,65.0,6.0,0,5,7,1,2026-06-12T02:52:56.005321+05:30
Jabalpur,Madhya Pradesh,23.1815,79.9864,30.6,56,0.0,956.2,8.9,47.5,68,28.5,20.4,10.1,243.0,61.0,3.5,0,5,7,1,2026-06-12T02:52:56.005329+05:30
Ujjain,Madhya Pradesh,23.1765,75.7885,27.6,71,0.0,948.4,8.6,50.0,82,39.7,23.3,4.5,142.0,65.0,8.3,7,5,7,1,2026-06-12T02:52:56.005339+05:30
Visakhapatnam,Andhra Pradesh,17.6868,83.2185,29.9,86,0.0,999.2,9.0,58.7,150,37.4,28.8,25.5,420.0,65.0,35.0,7,5,7,1,2026-06-12T02:52:56.005348+05:30
Vijayawada,Andhra Pradesh,16.5062,80.648,30.0,64,0.0,998.8,2.85,45.7,91,22.2,16.4,5.8,181.0,92.0,3.6,7,5,3,1,2026-06-12T02:52:56.005357+05:30
Guntur,Andhra Pradesh,16.3067,80.4365,28.9,66,0.0,999.8,7.4,47.5,88,21.6,16.1,6.5,181.0,82.0,3.1,7,5,7,1,2026-06-12T02:52:56.005366+05:30
Nellore,Andhra Pradesh,14.4426,79.9865,27.1,85,0.0,1002.7,5.9,38.2,58,19.9,13.6,5.1,215.0,71.0,1.9,7,5,0,1,2026-06-12T02:52:56.005376+05:30
Kurnool,Andhra Pradesh,15.8281,78.0373,26.9,74,0.0,974.9,7.7,48.2,63,16.9,12.3,9.4,149.0,43.0,5.6,7,5,7,1,2026-06-12T02:52:56.005386+05:30
Kakinada,Andhra Pradesh,16.9891,82.2475,29.4,83,0.1,1003.3,8.9,46.8,88,23.8,15.0,2.4,199.0,107.0,2.9,10,5,4,1,2026-06-12T02:52:56.005396+05:30
Tirupati,Andhra Pradesh,13.6288,79.4192,26.1,83,0.0,988.5,7.3,28.4,55,15.3,12.6,13.5,208.0,42.0,1.8,7,5,7,1,2026-06-12T02:52:56.005405+05:30
Warangal,Telangana,17.9689,79.5941,28.7,62,0.0,974.9,7.55,38.5,99,41.3,32.7,12.2,274.0,76.0,11.5,7,5,7,1,2026-06-12T02:52:56.005414+05:30
Nizamabad,Telangana,18.6725,78.0941,30.8,44,0.0,960.3,6.7,38.9,86,36.6,27.0,15.8,217.0,57.0,4.3,0,5,7,1,2026-06-12T02:52:56.005423+05:30
Mysore,Karnataka,12.2958,76.6396,21.6,96,0.0,927.4,7.65,45.7,32,7.4,5.0,6.7,146.0,38.0,1.9,3,5,7,1,2026-06-12T02:52:56.005432+05:30
Mangalore,Karnataka,12.9141,74.856,23.9,99,0.1,1006.8,7.7,34.6,39,15.7,8.8,5.3,179.0,42.0,2.3,6,5,4,1,2026-06-12T02:52:56.005441+05:30
Hubli-Dharwad,Karnataka,15.3647,75.124,22.6,97,0.0,939.3,8.9,42.5,40,4.1,2.4,2.6,103.0,48.0,1.2,3,5,7,1,2026-06-12T02:52:56.005451+05:30
Belgaum,Karnataka,15.8497,74.4977,22.1,97,0.0,924.0,8.9,44.3,54,25.8,13.3,4.6,112.0,42.0,1.7,3,5,7,1,2026-06-12T02:52:59.373184+05:30
Coimbatore,Tamil Nadu,11.0168,76.9558,23.0,93,0.0,961.0,5.65,52.6,26,4.2,3.0,4.3,136.0,44.0,2.0,3,5,3,1,2026-06-12T02:52:59.373212+05:30
Madurai,Tamil Nadu,9.9252,78.1198,28.6,64,0.0,991.7,8.75,59.8,32,7.6,7.2,11.2,142.0,36.0,4.3,7,5,7,1,2026-06-12T02:52:59.373222+05:30
Trichy,Tamil Nadu,10.7905,78.7047,27.9,71,0.0,998.4,8.35,53.6,35,5.4,5.1,9.5,140.0,36.0,3.6,7,5,7,1,2026-06-12T02:52:59.373231+05:30
Salem,Tamil Nadu,11.6643,78.146,24.7,90,0.0,976.5,8.4,45.0,55,17.2,13.8,18.6,224.0,32.0,6.5,3,5,7,1,2026-06-12T02:52:59.373238+05:30
Tirunelveli,Tamil Nadu,8.7139,77.7567,27.9,72,0.0,1003.0,7.4,41.8,20,3.2,2.6,5.3,143.0,40.0,1.6,7,5,4,1,2026-06-12T02:52:59.373246+05:30
Vellore,Tamil Nadu,12.9165,79.1325,25.7,84,0.0,982.5,8.35,46.8,57,14.1,11.3,14.5,222.0,36.0,3.0,7,5,7,1,2026-06-12T02:52:59.373253+05:30
Erode,Tamil Nadu,11.341,77.7172,25.1,83,0.0,988.4,7.6,51.1,39,8.8,7.8,12.9,148.0,35.0,3.3,7,5,7,1,2026-06-12T02:52:59.373260+05:30
Kochi,Kerala,9.9312,76.2673,25.3,93,0.3,1009.6,7.35,30.2,38,10.4,9.5,16.3,145.0,17.0,4.4,10,0,4,1,2026-06-12T02:52:59.373268+05:30
Thiruvananthapuram,Kerala,8.5241,76.9366,24.3,98,0.6,1009.2,8.2,37.4,26,11.4,5.4,1.4,85.0,51.0,0.5,6,0,4,1,2026-06-12T02:52:59.373275+05:30
Kozhikode,Kerala,11.2588,75.7804,23.4,100,0.2,1008.8,7.45,29.5,27,10.7,4.7,0.9,200.0,58.0,0.5,6,0,4,1,2026-06-12T02:52:59.373281+05:30
Thrissur,Kerala,10.5276,76.2144,23.6,99,0.5,1008.1,7.7,28.8,35,6.8,6.2,10.4,140.0,26.0,2.8,6,0,4,1,2026-06-12T02:52:59.373289+05:30
Kannur,Kerala,11.8745,75.3704,24.0,99,0.2,1007.7,5.2,34.9,35,14.6,8.6,5.9,121.0,41.0,1.8,6,5,0,1,2026-06-12T02:52:59.373296+05:30
Patna,Bihar,25.5941,85.1376,27.8,86,0.0,996.2,8.6,33.1,129,66.1,55.2,16.7,443.0,82.0,16.3,7,5,7,1,2026-06-12T02:52:59.373303+05:30
Gaya,Bihar,24.7914,85.0002,28.0,79,0.0,988.7,8.95,33.1,154,80.6,65.2,14.4,576.0,102.0,28.6,7,5,7,1,2026-06-12T02:52:59.373310+05:30
Muzaffarpur,Bihar,26.1209,85.3647,25.3,86,0.0,996.9,8.85,43.2,115,57.0,46.0,15.8,367.0,82.0,14.5,7,5,7,1,2026-06-12T02:52:59.373316+05:30
Bhagalpur,Bihar,25.2425,87.0117,25.8,95,0.0,997.8,8.8,29.9,145,61.9,48.2,11.2,305.0,95.0,11.2,7,5,7,1,2026-06-12T02:52:59.373323+05:30
Ranchi,Jharkhand,23.3441,85.3096,24.0,77,0.0,933.5,9.25,31.3,126,89.4,63.6,12.2,317.0,94.0,15.7,3,5,7,1,2026-06-12T02:52:59.373330+05:30
Jamshedpur,Jharkhand,22.8046,86.2029,25.7,92,0.0,986.6,9.1,29.5,153,76.4,60.5,22.6,556.0,62.0,21.2,7,5,7,1,2026-06-12T02:52:59.373337+05:30
Dhanbad,Jharkhand,23.7957,86.4304,25.8,97,0.0,975.5,9.05,32.0,160,109.9,92.7,57.3,930.0,32.0,143.2,7,5,7,1,2026-06-12T02:52:59.373343+05:30
Bokaro,Jharkhand,23.6693,86.1511,26.0,93,0.0,979.3,9.05,31.0,165,120.6,100.8,53.1,1971.0,40.0,149.1,7,5,7,1,2026-06-12T02:52:59.373350+05:30
Bhubaneswar,Odisha,20.2961,85.8245,26.5,94,0.0,997.5,8.75,42.5,148,64.3,50.8,18.2,308.0,56.0,7.3,7,5,7,1,2026-06-12T02:52:59.373356+05:30
Cuttack,Odisha,20.4625,85.8828,27.1,91,0.0,999.2,8.8,32.4,148,64.3,50.8,18.2,340.0,56.0,7.3,7,5,7,1,2026-06-12T02:52:59.373363+05:30
Rourkela,Odisha,22.2604,84.8536,27.3,81,0.0,980.9,8.75,46.1,154,108.0,87.5,35.7,287.0,45.0,21.2,7,5,7,1,2026-06-12T02:52:59.373370+05:30
Raipur,Chhattisgarh,21.2514,81.6296,30.6,52,0.0,969.7,7.2,45.4,119,48.4,40.3,32.4,247.0,55.0,45.0,0,5,7,1,2026-06-12T02:52:59.373376+05:30
Bhilai,Chhattisgarh,21.1938,81.3509,30.7,54,0.0,970.2,8.6,40.3,115,43.4,35.7,26.0,273.0,67.0,41.0,0,5,7,1,2026-06-12T02:52:59.373383+05:30
Guwahati,Assam,26.1158,91.7086,24.3,99,0.0,999.5,8.6,20.9,69,20.5,16.6,9.1,522.0,54.0,1.4,3,5,7,1,2026-06-12T02:52:59.373390+05:30
Agartala,Tripura,23.8315,91.2868,25.5,98,0.1,1003.3,4.55,33.8,98,38.9,31.4,16.6,288.0,53.0,2.9,10,5,0,1,2026-06-12T02:52:59.373397+05:30
Shillong,Meghalaya,25.5788,91.8933,18.1,99,0.0,854.9,5.7,20.5,58,28.9,22.1,7.4,228.0,53.0,1.4,3,10,3,1,2026-06-12T02:52:59.373404+05:30
Imphal,Manipur,24.817,93.9368,21.6,99,0.2,921.4,2.85,21.2,71,11.0,10.0,6.8,272.0,50.0,1.9,6,5,3,1,2026-06-12T02:52:59.373411+05:30
Aizawl,Mizoram,23.7271,92.7176,19.1,100,0.0,889.8,8.9,21.6,70,19.2,13.8,4.8,275.0,50.0,0.9,3,10,7,1,2026-06-12T02:52:59.373418+05:30
Kohima,Nagaland,25.6701,94.1077,19.0,92,0.1,853.6,7.75,23.4,62,19.3,14.2,9.1,221.0,40.0,1.1,6,10,7,1,2026-06-12T02:52:59.373425+05:30
Gangtok,Sikkim,27.3314,88.6138,15.1,92,0.0,835.6,9.25,38.2,72,34.1,26.0,9.9,380.0,106.0,4.2,3,10,7,0,2026-06-12T02:52:59.373432+05:30
Siliguri,West Bengal,26.7271,88.3953,23.1,98,0.2,991.6,8.75,23.4,97,50.5,37.3,10.6,317.0,100.0,4.8,6,5,7,1,2026-06-12T02:53:02.748963+05:30
Durgapur,West Bengal,23.5204,87.3119,26.6,95,0.0,990.9,8.75,42.8,156,88.7,79.6,33.9,594.0,47.0,33.7,7,5,7,1,2026-06-12T02:53:02.748998+05:30
Asansol,West Bengal,23.6739,86.9524,26.6,94,0.0,989.3,9.0,43.2,154,88.2,74.3,36.7,414.0,42.0,42.0,7,5,7,1,2026-06-12T02:53:02.749012+05:30
Pondicherry,Puducherry,11.9139,79.8145,27.6,79,0.0,1006.7,8.45,38.5,60,29.3,18.9,13.0,264.0,60.0,8.2,7,5,4,1,2026-06-12T02:53:02.749023+05:30
Port Blair,Andaman and Nicobar Islands,11.6234,92.7265,27.0,86,0.0,1007.0,8.4,45.7,23,12.3,6.8,0.2,83.0,48.0,0.2,7,5,4,1,2026-06-12T02:53:02.749033+05:30
Haridwar,Uttarakhand,29.9457,78.1642,24.1,85,0.0,968.8,7.65,33.8,135,126.7,56.0,8.6,228.0,98.0,7.1,3,5,7,1,2026-06-12T02:53:02.749044+05:30
Rishikesh,Uttarakhand,30.0869,78.2676,22.1,94,0.0,961.2,7.7,48.2,120,138.3,47.3,6.3,240.0,111.0,5.4,3,5,7,1,2026-06-12T02:53:02.749054+05:30
Nainital,Uttarakhand,29.3919,79.4542,13.0,100,0.0,800.8,7.35,27.4,118,43.0,21.8,9.4,284.0,96.0,1.6,3,10,7,0,2026-06-12T02:53:02.749064+05:30
Mussoorie,Uttarakhand,30.4599,78.0664,13.5,97,0.0,797.2,7.25,30.6,125,135.5,48.3,13.5,259.0,96.0,6.9,3,10,7,0,2026-06-12T02:53:02.749074+05:30
Dharamshala,Himachal Pradesh,32.219,76.3234,23.4,50,0.0,864.1,7.45,38.2,55,10.8,9.3,18.2,351.0,20.0,0.1,0,5,7,0,2026-06-12T02:53:02.749084+05:30
Dalhousie,Himachal Pradesh,32.5387,75.971,14.2,79,0.0,798.1,7.7,31.7,88,44.8,41.0,47.2,439.0,20.0,2.5,3,5,7,0,2026-06-12T02:53:02.749094+05:30
Patiala,Punjab,30.3398,76.3869,26.2,76,0.0,971.1,7.15,60.8,1519,133.2,58.6,5.9,305.0,122.0,10.2,7,5,7,1,2026-06-12T02:53:02.749104+05:30
Bhatinda,Punjab,30.211,74.9455,30.0,61,0.0,974.1,7.65,62.3,201,901.5,201.2,8.7,243.0,112.0,10.4,7,5,7,1,2026-06-12T02:53:02.749114+05:30
Rohtak,Haryana,28.8955,76.6066,27.9,73,0.0,974.3,7.8,57.2,819,674.3,126.7,12.3,303.0,107.0,17.4,7,5,7,1,2026-06-12T02:53:02.749124+05:30
Panipat,Haryana,29.3909,76.9635,26.5,83,0.0,973.3,7.65,44.3,1497,499.2,92.4,9.6,295.0,109.0,13.1,7,5,7,1,2026-06-12T02:53:02.749134+05:30
Mathura,Uttar Pradesh,27.4924,77.6737,25.8,91,0.0,980.4,8.1,55.1,567,1292.7,185.3,8.2,171.0,111.0,7.1,7,5,7,1,2026-06-12T02:53:02.749144+05:30
Vrindavan,Uttar Pradesh,27.5823,77.7027,25.9,90,0.0,980.7,8.1,49.0,567,1292.7,185.3,8.2,184.0,111.0,7.1,7,5,7,1,2026-06-12T02:53:02.749154+05:30
Ayodhya,Uttar Pradesh,26.7922,82.1998,25.0,96,0.5,992.1,8.4,30.6,134,49.4,31.8,10.3,442.0,102.0,7.5,10,5,7,1,2026-06-12T02:53:02.749164+05:30
Ratlam,Madhya Pradesh,23.3315,75.0367,26.7,78,0.0,949.7,8.55,51.8,81,37.4,21.1,4.9,121.0,54.0,8.0,7,5,7,1,2026-06-12T02:53:02.749174+05:30
Sagar,Madhya Pradesh,23.8388,78.7378,31.1,50,0.0,944.9,8.75,52.2,66,21.7,15.8,6.9,145.0,68.0,2.4,0,5,7,1,2026-06-12T02:53:02.749184+05:30
Satna,Madhya Pradesh,24.6005,80.8322,27.9,67,0.0,965.9,8.55,61.2,75,34.2,27.9,10.7,260.0,84.0,10.8,7,5,7,1,2026-06-12T02:53:02.749193+05:30
Akola,Maharashtra,20.7002,77.0082,31.7,53,0.0,970.7,8.85,40.7,74,40.3,21.5,7.1,128.0,57.0,8.0,0,5,7,1,2026-06-12T02:53:02.749204+05:30
Amravati,Maharashtra,20.9374,77.7796,32.3,47,0.0,962.8,8.85,46.8,78,39.5,25.9,18.1,240.0,48.0,6.5,0,5,7,1,2026-06-12T02:53:02.749215+05:30
Latur,Maharashtra,18.4088,76.5604,27.0,68,0.0,936.9,8.95,33.5,64,33.9,20.2,5.8,149.0,58.0,5.2,7,5,7,1,2026-06-12T02:53:02.749225+05:30
Nanded,Maharashtra,19.1383,77.3091,31.8,42,0.0,964.4,8.9,40.3,80,41.8,31.5,23.0,194.0,45.0,6.3,0,5,7,1,2026-06-12T02:53:02.749235+05:30
Gulbarga,Karnataka,17.3297,76.8343,27.0,73,0.0,956.2,8.95,37.8,60,24.2,15.1,6.2,132.0,44.0,2.9,7,5,7,1,2026-06-12T02:53:02.749244+05:30
Bidar,Karnataka,17.9104,77.5199,27.2,70,0.0,932.6,8.2,41.0,70,27.8,18.9,13.0,195.0,61.0,5.7,7,5,7,1,2026-06-12T02:53:02.749253+05:30
Hospet,Karnataka,15.2689,76.3909,23.9,90,0.0,954.5,8.95,55.8,49,8.0,5.1,4.0,122.0,44.0,1.3,3,5,7,1,2026-06-12T02:53:02.749262+05:30
Tirupur,Tamil Nadu,11.1085,77.3411,23.6,90,0.0,974.6,5.95,62.6,44,11.0,9.9,15.7,125.0,29.0,3.8,3,5,3,1,2026-06-12T02:53:02.749271+05:30
Alappuzha,Kerala,9.4981,76.3388,25.4,94,0.1,1009.2,6.75,33.8,31,14.8,8.1,5.8,87.0,48.0,1.9,10,0,4,1,2026-06-12T02:53:02.749281+05:30
Munnar,Kerala,10.0889,77.0595,17.2,100,0.1,856.3,8.15,37.4,19,2.3,2.3,5.9,94.0,27.0,1.2,6,10,7,1,2026-06-12T02:53:02.749291+05:30
Silchar,Assam,24.8333,92.7789,24.8,98,0.2,1003.2,8.7,28.8,107,75.9,64.7,25.0,444.0,29.0,7.1,6,5,4,1,2026-06-12T02:53:02.749301+05:30
Dibrugarh,Assam,27.4728,94.912,24.4,94,0.0,993.8,8.5,22.0,64,22.6,21.4,19.8,277.0,17.0,1.1,3,5,7,1,2026-06-12T02:53:02.749310+05:30
