city,state,latitude,longitude,temp,humidity,rain,pressure,uv_index,wind_gusts,aqi,pm10,pm2_5,mosquito_risk,arthritis_risk,migraine_risk,frizz_risk,updated_at
Delhi,Delhi,28.6139,77.209,26.3,55,0.0,986.2,6.0,28.8,385,453.6,105.5,4,5,3,1,2026-03-13T10:16:58.126225+05:30
Mumbai,Maharashtra,19.076,72.8777,28.1,75,0.0,1009.6,7.65,26.6,156,61.7,59.5,7,0,4,1,2026-03-13T10:16:58.126279+05:30
Bangalore,Karnataka,12.9716,77.5946,28.7,34,0.0,914.8,9.3,28.4,76,49.5,38.1,4,5,7,0,2026-03-13T10:16:58.126296+05:30
Hyderabad,Telangana,17.385,78.4867,32.7,30,0.0,956.3,8.65,18.7,99,43.8,37.0,0,5,7,0,2026-03-13T10:16:58.126306+05:30
Chennai,Tamil Nadu,13.0827,80.2707,31.3,59,0.0,1010.2,9.05,30.6,71,22.4,18.3,0,0,4,1,2026-03-13T10:16:58.126319+05:30
Kolkata,West Bengal,22.5726,88.3639,30.2,71,0.0,1008.6,8.0,28.4,150,52.4,41.9,3,0,4,1,2026-03-13T10:16:58.126328+05:30
Pune,Maharashtra,18.5204,73.8567,33.0,25,0.0,951.0,8.2,26.6,151,30.0,28.1,0,5,7,0,2026-03-13T10:16:58.126339+05:30
Ahmedabad,Gujarat,23.0225,72.5714,29.1,48,0.0,1005.1,7.45,21.6,87,68.5,43.1,4,5,4,1,2026-03-13T10:16:58.126347+05:30
Jaipur,Rajasthan,26.9124,75.7873,30.4,38,0.0,963.2,6.85,24.5,118,205.8,56.8,0,5,7,0,2026-03-13T10:16:58.126356+05:30
Lucknow,Uttar Pradesh,26.8467,80.9462,29.1,51,0.0,995.9,6.0,26.6,173,365.1,94.1,4,5,3,1,2026-03-13T10:16:58.126365+05:30
Kanpur,Uttar Pradesh,26.4499,80.3319,28.6,60,0.0,994.4,6.35,21.2,283,449.8,92.2,4,5,7,1,2026-03-13T10:16:58.126372+05:30
Chandigarh,Chandigarh,30.7333,76.7794,24.8,56,0.0,971.5,5.25,30.6,85,42.1,22.5,0,5,3,0,2026-03-13T10:16:58.126381+05:30
Srinagar,Jammu and Kashmir,34.0837,74.7973,10.8,78,0.0,845.2,6.9,14.0,66,27.9,22.2,3,5,7,0,2026-03-13T10:16:58.126388+05:30
Jammu,Jammu and Kashmir,32.7266,74.857,25.2,55,0.0,976.6,6.65,23.0,83,22.1,19.6,4,5,7,0,2026-03-13T10:16:58.126396+05:30
Amritsar,Punjab,31.634,74.8723,24.1,65,0.0,984.8,6.65,23.8,113,46.9,35.2,3,5,7,1,2026-03-13T10:16:58.126403+05:30
Ludhiana,Punjab,30.901,75.8573,24.6,53,0.0,982.3,6.25,28.8,113,51.6,42.3,0,5,7,0,2026-03-13T10:16:58.126410+05:30
Jalandhar,Punjab,31.326,75.5762,24.3,64,0.0,983.6,6.0,26.6,112,80.3,51.6,3,5,3,1,2026-03-13T10:16:58.126419+05:30
Dehradun,Uttarakhand,30.6284,78.0322,19.4,29,0.0,832.7,5.35,28.1,42,35.9,11.4,0,5,3,0,2026-03-13T10:16:58.126426+05:30
Shimla,Himachal Pradesh,31.1048,77.1734,17.9,43,0.0,787.6,5.8,38.5,57,30.4,10.3,0,5,3,0,2026-03-13T10:16:58.126432+05:30
Manali,Himachal Pradesh,32.2396,77.1887,17.4,14,0.0,822.2,8.4,38.5,44,13.5,5.7,0,5,7,1,2026-03-13T10:16:58.126439+05:30
Gurgaon,Haryana,28.4595,77.0266,26.4,59,0.0,984.9,6.15,26.6,1209,1307.6,186.7,4,5,7,1,2026-03-13T10:16:58.126447+05:30
Noida,Uttar Pradesh,28.5355,77.391,27.0,53,0.0,987.7,6.1,28.4,1209,1307.6,186.7,4,5,7,1,2026-03-13T10:16:58.126453+05:30
Ghaziabad,Uttar Pradesh,28.6692,77.4538,25.9,60,0.0,985.7,5.85,27.7,232,326.9,88.9,4,5,3,1,2026-03-13T10:16:58.126461+05:30
Faridabad,Haryana,28.4089,77.3178,26.7,56,0.0,987.0,6.1,27.0,1209,1307.6,186.7,4,5,7,1,2026-03-13T10:16:58.126469+05:30
Meerut,Uttar Pradesh,28.9845,77.7064,25.9,58,0.0,984.2,5.35,28.8,232,326.9,88.9,4,5,3,1,2026-03-13T10:16:58.126476+05:30
Agra,Uttar Pradesh,27.1767,78.0081,28.8,54,0.0,991.2,6.1,22.0,530,763.7,149.5,4,5,7,1,2026-03-13T10:16:58.126483+05:30
Varanasi,Uttar Pradesh,25.3176,82.9739,30.0,51,0.0,1000.1,7.3,26.6,124,200.2,59.3,4,5,4,1,2026-03-13T10:16:58.126493+05:30
Prayagraj,Uttar Pradesh,25.4358,81.8463,29.9,50,0.0,998.6,6.8,22.0,146,323.2,78.0,4,5,7,1,2026-03-13T10:16:58.126501+05:30
Gorakhpur,Uttar Pradesh,26.7606,83.3732,28.2,75,0.0,999.4,6.65,28.1,182,127.1,116.4,7,5,7,1,2026-03-13T10:16:58.126508+05:30
Bareilly,Uttar Pradesh,28.367,79.4304,26.6,66,0.0,989.2,5.9,26.6,153,111.1,66.1,7,5,3,1,2026-03-13T10:16:58.126515+05:30
Aligarh,Uttar Pradesh,27.8974,78.088,28.9,53,0.0,988.6,5.95,29.2,635,622.1,127.6,4,5,3,1,2026-03-13T10:16:58.126524+05:30
Moradabad,Uttar Pradesh,28.8386,78.7733,26.2,62,0.0,986.0,5.8,27.0,152,83.1,59.8,7,5,3,1,2026-03-13T10:16:58.126530+05:30
Saharanpur,Uttar Pradesh,29.9637,77.546,24.7,62,0.0,978.3,4.85,28.1,147,61.2,41.0,3,5,3,1,2026-03-13T10:16:58.126537+05:30
Jhansi,Uttar Pradesh,25.4484,78.5685,30.8,29,0.0,981.2,6.4,18.7,52,144.4,34.7,0,5,7,0,2026-03-13T10:17:01.375686+05:30
Surat,Gujarat,21.1702,72.8311,29.9,49,0.0,1009.1,7.35,23.8,148,54.0,51.7,4,0,4,1,2026-03-13T10:17:01.375721+05:30
Vadodara,Gujarat,22.3072,73.1812,31.4,35,0.0,1007.0,7.5,22.0,106,39.7,32.5,0,5,4,0,2026-03-13T10:17:01.375731+05:30
Rajkot,Gujarat,22.3039,70.8022,29.0,46,0.0,997.2,7.3,30.2,81,88.7,35.2,4,5,7,1,2026-03-13T10:17:01.375739+05:30
Thane,Maharashtra,19.2183,72.9781,31.8,44,0.0,1009.3,7.65,38.9,156,61.7,59.5,0,0,4,1,2026-03-13T10:17:01.375746+05:30
Nagpur,Maharashtra,21.1458,79.0882,33.3,26,0.0,976.3,8.05,18.7,91,26.1,21.3,0,5,7,0,2026-03-13T10:17:01.375753+05:30
Nashik,Maharashtra,19.9975,73.7898,31.6,24,0.0,948.4,7.85,32.4,74,21.9,17.9,0,5,7,0,2026-03-13T10:17:01.375760+05:30
Aurangabad,Maharashtra,19.8762,75.3433,32.5,23,0.0,946.9,8.35,29.5,65,24.0,21.8,0,5,7,0,2026-03-13T10:17:01.375767+05:30
Solapur,Maharashtra,17.6599,75.9064,31.1,41,0.0,960.0,8.6,24.8,91,38.4,32.2,0,5,7,1,2026-03-13T10:17:01.375775+05:30
Kolhapur,Maharashtra,16.705,74.2433,30.3,42,0.0,950.2,8.7,44.6,152,81.0,76.6,0,5,7,0,2026-03-13T10:17:01.375800+05:30
Goa,Goa,15.2993,74.124,30.3,68,0.0,999.9,8.7,32.8,141,56.7,48.7,3,5,7,1,2026-03-13T10:17:01.375808+05:30
Jodhpur,Rajasthan,26.2389,73.0243,29.5,34,0.0,986.0,6.25,19.4,72,81.0,27.3,4,5,7,0,2026-03-13T10:17:01.375815+05:30
Udaipur,Rajasthan,24.5854,73.7125,31.4,24,0.0,949.6,7.7,32.8,43,71.0,24.4,0,5,7,0,2026-03-13T10:17:01.375821+05:30
Kota,Rajasthan,25.2138,75.8648,30.5,24,0.0,982.1,7.1,16.6,70,24.2,16.6,0,5,7,0,2026-03-13T10:17:01.375828+05:30
Bikaner,Rajasthan,28.0229,73.3119,27.3,57,0.0,985.7,6.4,24.8,84,65.7,34.0,4,5,7,1,2026-03-13T10:17:01.375835+05:30
Ajmer,Rajasthan,26.4499,74.6399,30.0,35,0.0,957.6,7.05,19.4,59,155.5,42.5,4,5,7,0,2026-03-13T10:17:01.375842+05:30
Gwalior,Madhya Pradesh,26.2183,78.1828,28.6,45,0.0,986.6,6.45,20.2,72,368.8,91.7,4,5,7,0,2026-03-13T10:17:01.375848+05:30
Indore,Madhya Pradesh,22.7196,75.8577,30.9,24,0.0,951.5,7.75,32.4,62,12.3,10.4,0,5,7,0,2026-03-13T10:17:01.375855+05:30
Bhopal,Madhya Pradesh,23.2599,77.4126,30.5,26,0.0,957.1,7.65,29.9,74,25.6,24.3,0,5,7,0,2026-03-13T10:17:01.375861+05:30
Jabalpur,Madhya Pradesh,23.1815,79.9864,30.5,35,0.0,964.7,7.75,18.7,78,35.7,27.4,0,5,7,0,2026-03-13T10:17:01.375868+05:30
Ujjain,Madhya Pradesh,23.1765,75.7885,29.1,34,0.0,956.9,7.7,25.2,60,17.1,13.4,4,5,7,0,2026-03-13T10:17:01.375875+05:30
Visakhapatnam,Andhra Pradesh,17.6868,83.2185,30.5,65,0.0,1007.1,8.65,39.6,93,39.3,34.8,3,5,4,1,2026-03-13T10:17:01.375882+05:30
Vijayawada,Andhra Pradesh,16.5062,80.648,29.8,69,0.0,1005.9,8.7,29.9,92,25.4,22.5,7,5,4,1,2026-03-13T10:17:01.375889+05:30
Guntur,Andhra Pradesh,16.3067,80.4365,30.7,59,0.0,1006.9,8.75,31.0,84,24.4,21.9,0,5,4,1,2026-03-13T10:17:01.375896+05:30
Nellore,Andhra Pradesh,14.4426,79.9865,31.5,56,0.0,1008.8,8.9,28.8,75,27.9,25.5,0,0,4,1,2026-03-13T10:17:01.375903+05:30
Kurnool,Andhra Pradesh,15.8281,78.0373,33.4,34,0.0,979.6,8.75,23.8,88,42.4,36.7,0,5,7,0,2026-03-13T10:17:01.375909+05:30
Kakinada,Andhra Pradesh,16.9891,82.2475,31.0,63,0.0,1010.9,8.7,31.3,80,28.6,24.9,3,0,4,1,2026-03-13T10:17:01.375916+05:30
Tirupati,Andhra Pradesh,13.6288,79.4192,30.9,52,0.0,994.8,9.05,32.4,102,28.9,26.7,0,5,7,1,2026-03-13T10:17:01.375922+05:30
Warangal,Telangana,17.9689,79.5941,30.6,57,0.0,981.5,8.5,29.5,116,34.3,31.4,0,5,7,1,2026-03-13T10:17:01.375928+05:30
Nizamabad,Telangana,18.6725,78.0941,31.3,42,0.0,967.7,8.4,23.4,119,51.1,44.5,0,5,7,1,2026-03-13T10:17:01.375934+05:30
Mysore,Karnataka,12.2958,76.6396,28.3,48,0.0,931.2,9.3,32.0,72,32.8,28.9,4,5,7,1,2026-03-13T10:17:01.375940+05:30
Mangalore,Karnataka,12.9141,74.856,29.0,78,0.0,1008.6,8.95,24.8,117,44.8,40.3,7,0,4,1,2026-03-13T10:17:01.375946+05:30
Hubli-Dharwad,Karnataka,15.3647,75.124,29.7,43,0.0,943.6,8.9,29.9,73,33.3,28.8,4,5,7,0,2026-03-13T10:17:01.375953+05:30
Belgaum,Karnataka,15.8497,74.4977,31.5,25,0.0,928.5,8.95,43.6,114,41.0,35.0,0,5,7,0,2026-03-13T10:17:04.621289+05:30
Coimbatore,Tamil Nadu,11.0168,76.9558,29.3,60,0.0,964.8,9.25,41.0,75,32.4,26.7,4,5,7,1,2026-03-13T10:17:04.621325+05:30
Madurai,Tamil Nadu,9.9252,78.1198,29.9,57,0.0,996.1,9.25,26.6,83,24.9,19.5,4,5,7,1,2026-03-13T10:17:04.621336+05:30
Trichy,Tamil Nadu,10.7905,78.7047,29.2,63,0.0,1003.1,9.15,23.8,90,27.2,23.6,7,5,4,1,2026-03-13T10:17:04.621345+05:30
Salem,Tamil Nadu,11.6643,78.146,28.9,65,0.0,980.5,9.2,24.1,96,36.8,34.1,7,5,7,1,2026-03-13T10:17:04.621352+05:30
Tirunelveli,Tamil Nadu,8.7139,77.7567,30.8,58,0.0,1006.0,9.2,29.9,65,17.1,14.1,0,5,4,1,2026-03-13T10:17:04.621360+05:30
Vellore,Tamil Nadu,12.9165,79.1325,30.2,52,0.0,987.9,9.1,32.8,103,34.5,31.9,0,5,7,1,2026-03-13T10:17:04.621367+05:30
Erode,Tamil Nadu,11.341,77.7172,29.5,64,0.0,992.3,9.15,22.3,84,28.8,26.0,7,5,7,1,2026-03-13T10:17:04.621374+05:30
Kochi,Kerala,9.9312,76.2673,28.0,82,0.0,1010.5,9.1,33.5,98,33.3,31.7,7,0,4,1,2026-03-13T10:17:04.621381+05:30
Thiruvananthapuram,Kerala,8.5241,76.9366,27.8,82,0.0,1009.8,9.1,24.1,59,22.8,18.9,7,0,4,1,2026-03-13T10:17:04.621388+05:30
Kozhikode,Kerala,11.2588,75.7804,29.1,78,0.0,1009.9,9.0,30.6,99,36.4,33.6,7,0,4,1,2026-03-13T10:17:04.621394+05:30
Thrissur,Kerala,10.5276,76.2144,32.2,60,0.0,1008.8,9.05,37.8,96,39.0,36.4,0,0,4,1,2026-03-13T10:17:04.621402+05:30
Kannur,Kerala,11.8745,75.3704,30.8,67,0.0,1009.1,9.0,29.5,106,41.2,36.9,3,0,4,1,2026-03-13T10:17:04.621409+05:30
Patna,Bihar,25.5941,85.1376,28.8,70,0.0,1002.6,7.3,25.2,181,115.9,100.6,7,5,4,1,2026-03-13T10:17:04.621416+05:30
Gaya,Bihar,24.7914,85.0002,30.5,49,0.0,996.2,7.45,23.0,153,144.4,57.3,0,5,7,1,2026-03-13T10:17:04.621423+05:30
Muzaffarpur,Bihar,26.1209,85.3647,28.0,72,0.0,1002.8,7.4,24.8,189,90.8,81.5,7,5,4,1,2026-03-13T10:17:04.621430+05:30
Bhagalpur,Bihar,25.2425,87.0117,29.8,69,0.0,1003.2,7.5,26.6,178,98.3,87.8,7,5,4,1,2026-03-13T10:17:04.621437+05:30
Ranchi,Jharkhand,23.3441,85.3096,30.6,23,0.0,941.2,8.2,29.9,94,81.0,26.6,0,5,7,0,2026-03-13T10:17:04.621444+05:30
Jamshedpur,Jharkhand,22.8046,86.2029,30.8,65,0.0,993.8,8.1,16.6,162,108.0,88.0,3,5,7,1,2026-03-13T10:17:04.621451+05:30
Dhanbad,Jharkhand,23.7957,86.4304,32.0,36,0.0,982.5,8.0,29.9,176,143.0,117.8,0,5,7,0,2026-03-13T10:17:04.621459+05:30
Bokaro,Jharkhand,23.6693,86.1511,32.4,30,0.0,986.6,8.0,31.0,158,127.6,85.2,0,5,7,0,2026-03-13T10:17:04.621466+05:30
Bhubaneswar,Odisha,20.2961,85.8245,30.4,68,0.0,1005.8,8.4,34.9,119,38.9,31.7,3,5,4,1,2026-03-13T10:17:04.621473+05:30
Cuttack,Odisha,20.4625,85.8828,31.0,68,0.0,1007.5,8.45,30.6,119,38.9,31.7,3,5,4,1,2026-03-13T10:17:04.621480+05:30
Rourkela,Odisha,22.2604,84.8536,32.5,40,0.0,988.1,8.0,26.3,110,103.6,47.6,0,5,7,1,2026-03-13T10:17:04.621486+05:30
Raipur,Chhattisgarh,21.2514,81.6296,33.1,31,0.0,977.7,8.15,17.6,142,101.7,75.4,0,5,7,0,2026-03-13T10:17:04.621493+05:30
Bhilai,Chhattisgarh,21.1938,81.3509,33.2,29,0.0,978.0,8.15,13.3,141,102.0,75.7,0,5,7,0,2026-03-13T10:17:04.621500+05:30
Guwahati,Assam,26.1158,91.7086,25.3,81,0.0,1004.5,7.3,32.8,160,66.8,60.3,7,5,4,1,2026-03-13T10:17:04.621506+05:30
Agartala,Tripura,23.8315,91.2868,24.9,86,0.0,1010.1,7.7,28.1,151,37.4,32.1,3,0,4,1,2026-03-13T10:17:04.621512+05:30
Shillong,Meghalaya,25.5788,91.8933,15.5,81,0.0,858.0,7.1,54.0,154,35.7,30.2,3,10,7,0,2026-03-13T10:17:04.621519+05:30
Imphal,Manipur,24.817,93.9368,21.0,76,0.0,926.2,7.0,62.6,156,66.8,56.8,3,5,7,1,2026-03-13T10:17:04.621526+05:30
Aizawl,Mizoram,23.7271,92.7176,23.8,49,0.0,896.3,7.15,72.4,156,63.1,50.2,0,5,7,0,2026-03-13T10:17:04.621532+05:30
Kohima,Nagaland,25.6701,94.1077,18.6,75,0.0,857.4,5.65,81.4,139,47.3,40.3,3,5,3,0,2026-03-13T10:17:04.621538+05:30
Gangtok,Sikkim,27.3314,88.6138,15.4,88,0.1,839.1,3.35,17.3,110,41.8,37.6,6,10,3,0,2026-03-13T10:17:04.621545+05:30
Siliguri,West Bengal,26.7271,88.3953,21.9,81,0.0,997.1,6.8,30.6,159,71.0,63.1,3,5,7,1,2026-03-13T10:17:07.870874+05:30
Durgapur,West Bengal,23.5204,87.3119,31.2,64,0.0,997.6,7.95,29.2,178,102.2,87.3,3,5,7,1,2026-03-13T10:17:07.870908+05:30
Asansol,West Bengal,23.6739,86.9524,31.2,62,0.0,996.1,7.95,27.0,178,104.8,86.4,3,5,7,1,2026-03-13T10:17:07.870918+05:30
Pondicherry,Puducherry,11.9139,79.8145,30.8,62,0.0,1011.6,9.0,27.7,67,19.8,14.8,3,0,4,1,2026-03-13T10:17:07.870926+05:30
Port Blair,Andaman and Nicobar Islands,11.6234,92.7265,28.9,70,0.0,1009.0,8.95,23.4,57,14.7,11.9,7,0,4,1,2026-03-13T10:17:07.870933+05:30
Haridwar,Uttarakhand,29.9457,78.1642,27.5,42,0.0,976.5,5.25,28.4,97,24.1,16.5,4,5,3,0,2026-03-13T10:17:07.870941+05:30
Rishikesh,Uttarakhand,30.0869,78.2676,28.2,34,0.0,969.1,5.25,28.4,71,21.7,13.3,4,5,3,0,2026-03-13T10:17:07.870947+05:30
Nainital,Uttarakhand,29.3919,79.4542,22.1,44,0.0,809.3,6.65,44.3,93,36.0,17.8,0,5,7,0,2026-03-13T10:17:07.870955+05:30
Mussoorie,Uttarakhand,30.4599,78.0664,21.0,31,0.0,805.8,5.35,30.2,73,28.2,15.3,0,5,3,0,2026-03-13T10:17:07.870961+05:30
Dharamshala,Himachal Pradesh,32.219,76.3234,22.9,30,0.0,871.9,6.15,26.6,46,18.9,6.1,0,5,7,0,2026-03-13T10:17:07.870968+05:30
Dalhousie,Himachal Pradesh,32.5387,75.971,19.6,28,0.0,806.7,6.7,31.0,75,21.2,10.8,0,5,7,0,2026-03-13T10:17:07.870976+05:30
Patiala,Punjab,30.3398,76.3869,24.7,58,0.0,981.3,5.25,29.2,195,382.8,71.0,0,5,3,0,2026-03-13T10:17:07.870983+05:30
Bhatinda,Punjab,30.211,74.9455,25.0,64,0.0,987.9,5.9,27.7,140,59.8,42.1,7,5,3,1,2026-03-13T10:17:07.870990+05:30
Rohtak,Haryana,28.8955,76.6066,26.0,59,0.0,985.2,5.95,24.8,529,555.1,114.6,4,5,3,1,2026-03-13T10:17:07.870997+05:30
Panipat,Haryana,29.3909,76.9635,25.6,62,0.0,983.5,5.15,25.9,872,827.0,134.1,7,5,3,1,2026-03-13T10:17:07.871003+05:30
Mathura,Uttar Pradesh,27.4924,77.6737,28.7,53,0.0,990.2,6.1,26.3,586,862.4,156.0,4,5,7,1,2026-03-13T10:17:07.871009+05:30
Vrindavan,Uttar Pradesh,27.5823,77.7027,29.0,52,0.0,990.5,5.9,29.2,586,862.4,156.0,4,5,3,1,2026-03-13T10:17:07.871016+05:30
Ayodhya,Uttar Pradesh,26.7922,82.1998,28.3,59,0.0,997.5,5.95,28.8,156,168.6,124.8,4,5,3,1,2026-03-13T10:17:07.871023+05:30
Ratlam,Madhya Pradesh,23.3315,75.0367,30.2,25,0.0,957.6,7.65,29.2,52,21.7,12.8,0,5,7,0,2026-03-13T10:17:07.871030+05:30
Sagar,Madhya Pradesh,23.8388,78.7378,31.8,26,0.0,953.4,7.4,28.1,57,13.2,12.7,0,5,7,0,2026-03-13T10:17:07.871036+05:30
Satna,Madhya Pradesh,24.6005,80.8322,32.7,29,0.0,974.1,7.45,29.9,64,70.1,20.0,0,5,7,0,2026-03-13T10:17:07.871043+05:30
Akola,Maharashtra,20.7002,77.0082,33.5,28,0.0,977.9,8.05,20.2,82,29.9,24.8,0,5,7,0,2026-03-13T10:17:07.871050+05:30
Amravati,Maharashtra,20.9374,77.7796,33.6,25,0.0,970.6,8.0,14.0,89,33.1,27.2,0,5,7,0,2026-03-13T10:17:07.871057+05:30
Latur,Maharashtra,18.4088,76.5604,30.6,37,0.0,942.7,8.5,21.2,94,47.0,37.7,0,5,7,0,2026-03-13T10:17:07.871064+05:30
Nanded,Maharashtra,19.1383,77.3091,33.1,34,0.0,971.6,8.3,20.9,110,37.1,34.5,0,5,7,0,2026-03-13T10:17:07.871070+05:30
Gulbarga,Karnataka,17.3297,76.8343,32.3,34,0.0,961.6,8.6,32.0,89,41.0,36.0,0,5,7,0,2026-03-13T10:17:07.871076+05:30
Bidar,Karnataka,17.9104,77.5199,31.5,32,0.0,938.7,8.55,26.6,101,42.7,35.6,0,5,7,0,2026-03-13T10:17:07.871082+05:30
Hospet,Karnataka,15.2689,76.3909,29.2,48,0.0,958.5,8.9,24.1,84,37.3,32.6,4,5,7,1,2026-03-13T10:17:07.871088+05:30
Tirupur,Tamil Nadu,11.1085,77.3411,29.1,60,0.0,978.5,9.25,29.9,88,30.4,27.2,4,5,7,1,2026-03-13T10:17:07.871093+05:30
Alappuzha,Kerala,9.4981,76.3388,28.1,80,0.0,1010.6,9.1,27.7,90,32.5,31.0,7,0,4,1,2026-03-13T10:17:07.871099+05:30
Munnar,Kerala,10.0889,77.0595,28.1,39,0.0,860.4,9.55,24.1,72,20.7,17.8,4,5,7,0,2026-03-13T10:17:07.871106+05:30
Silchar,Assam,24.8333,92.7789,27.1,72,0.0,1008.7,7.75,36.4,165,90.1,78.9,7,0,4,1,2026-03-13T10:17:07.871112+05:30
Dibrugarh,Assam,27.4728,94.912,22.8,84,0.0,999.2,5.55,24.8,136,49.6,44.7,3,5,3,1,2026-03-13T10:17:07.871118+05:30
