city,state,latitude,longitude,temp,humidity,rain,pressure,uv_index,wind_gusts,aqi,pm10,pm2_5,mosquito_risk,arthritis_risk,migraine_risk,frizz_risk,updated_at
Delhi,Delhi,28.6139,77.209,31.0,29,0.0,984.2,6.0,28.8,382,290.6,60.1,0,5,3,0,2026-03-13T14:15:55.121876+05:30
Mumbai,Maharashtra,19.076,72.8777,29.1,71,0.0,1007.1,7.65,26.6,153,68.9,66.4,7,5,4,1,2026-03-13T14:15:55.121918+05:30
Bangalore,Karnataka,12.9716,77.5946,32.6,23,0.0,912.1,9.3,28.4,83,43.5,33.6,0,5,7,0,2026-03-13T14:15:55.121933+05:30
Hyderabad,Telangana,17.385,78.4867,37.2,14,0.0,953.2,8.65,18.7,101,47.8,32.5,0,5,10,0,2026-03-13T14:15:55.121943+05:30
Chennai,Tamil Nadu,13.0827,80.2707,33.0,50,0.0,1007.5,9.05,30.6,68,18.5,14.1,0,5,4,1,2026-03-13T14:15:55.121953+05:30
Kolkata,West Bengal,22.5726,88.3639,34.0,48,0.0,1004.5,8.0,28.4,142,63.1,43.4,0,5,4,1,2026-03-13T14:15:55.121961+05:30
Pune,Maharashtra,18.5204,73.8567,38.4,16,0.0,948.2,8.2,26.6,147,24.7,20.5,0,5,10,0,2026-03-13T14:15:55.121973+05:30
Ahmedabad,Gujarat,23.0225,72.5714,37.8,20,0.0,1001.8,7.5,21.6,95,67.5,29.3,0,5,7,0,2026-03-13T14:15:55.121981+05:30
Jaipur,Rajasthan,26.9124,75.7873,35.4,21,0.0,960.7,6.95,24.5,115,118.7,31.8,0,5,10,0,2026-03-13T14:15:55.121988+05:30
Lucknow,Uttar Pradesh,26.8467,80.9462,33.7,34,0.0,993.4,5.95,26.6,173,158.8,54.0,0,5,3,0,2026-03-13T14:15:55.121995+05:30
Kanpur,Uttar Pradesh,26.4499,80.3319,33.6,37,0.0,992.0,6.35,21.2,292,258.9,62.2,0,5,7,1,2026-03-13T14:15:55.122003+05:30
Chandigarh,Chandigarh,30.7333,76.7794,29.8,38,0.0,969.6,5.15,30.6,84,44.7,22.8,4,5,3,0,2026-03-13T14:15:55.122010+05:30
Srinagar,Jammu and Kashmir,34.0837,74.7973,15.6,55,0.0,844.0,6.85,14.0,69,23.9,12.9,0,5,7,0,2026-03-13T14:15:55.122017+05:30
Jammu,Jammu and Kashmir,32.7266,74.857,30.5,28,0.0,974.0,6.45,23.0,80,22.0,9.4,0,5,7,0,2026-03-13T14:15:55.122025+05:30
Amritsar,Punjab,31.634,74.8723,28.2,44,0.0,982.6,6.05,23.8,102,26.3,13.7,4,5,7,0,2026-03-13T14:15:55.122032+05:30
Ludhiana,Punjab,30.901,75.8573,29.3,38,0.0,980.2,5.75,28.8,113,43.9,27.5,4,5,3,0,2026-03-13T14:15:55.122038+05:30
Jalandhar,Punjab,31.326,75.5762,28.3,41,0.0,981.4,5.65,26.6,114,57.5,22.1,4,5,3,0,2026-03-13T14:15:55.122047+05:30
Dehradun,Uttarakhand,30.6284,78.0322,22.1,33,0.0,832.1,6.0,28.1,42,34.8,10.9,0,5,3,0,2026-03-13T14:15:55.122054+05:30
Shimla,Himachal Pradesh,31.1048,77.1734,19.6,39,0.0,787.0,5.2,38.5,55,31.2,9.5,0,5,3,0,2026-03-13T14:15:55.122062+05:30
Manali,Himachal Pradesh,32.2396,77.1887,20.2,17,0.0,821.7,8.15,38.5,48,22.0,7.1,0,5,7,1,2026-03-13T14:15:55.122069+05:30
Gurgaon,Haryana,28.4595,77.0266,31.2,29,0.0,982.9,6.1,26.6,1171,1084.1,124.8,0,5,7,0,2026-03-13T14:15:55.122076+05:30
Noida,Uttar Pradesh,28.5355,77.391,31.7,26,0.0,985.7,5.95,28.4,1171,1084.1,124.8,0,5,3,0,2026-03-13T14:15:55.122082+05:30
Ghaziabad,Uttar Pradesh,28.6692,77.4538,30.7,32,0.0,983.9,5.85,27.7,226,177.4,46.1,0,5,3,0,2026-03-13T14:15:55.122089+05:30
Faridabad,Haryana,28.4089,77.3178,31.4,27,0.0,985.1,6.0,27.0,1171,1084.1,124.8,0,5,3,0,2026-03-13T14:15:55.122095+05:30
Meerut,Uttar Pradesh,28.9845,77.7064,30.3,37,0.0,982.3,5.3,28.8,226,177.4,46.1,0,5,3,0,2026-03-13T14:15:55.122102+05:30
Agra,Uttar Pradesh,27.1767,78.0081,34.7,31,0.0,988.5,6.2,22.0,564,625.8,94.1,0,5,7,0,2026-03-13T14:15:55.122110+05:30
Varanasi,Uttar Pradesh,25.3176,82.9739,34.9,27,0.0,997.1,7.35,26.6,136,295.2,55.3,0,5,7,0,2026-03-13T14:15:55.122119+05:30
Prayagraj,Uttar Pradesh,25.4358,81.8463,34.9,31,0.0,995.7,7.05,22.0,152,331.6,65.4,0,5,7,0,2026-03-13T14:15:55.122126+05:30
Gorakhpur,Uttar Pradesh,26.7606,83.3732,32.6,46,0.0,996.1,7.0,28.1,180,174.2,95.9,0,5,7,1,2026-03-13T14:15:55.122133+05:30
Bareilly,Uttar Pradesh,28.367,79.4304,32.1,34,0.0,986.8,6.4,26.6,154,79.4,46.6,0,5,7,0,2026-03-13T14:15:55.122140+05:30
Aligarh,Uttar Pradesh,27.8974,78.088,33.6,23,0.0,986.4,6.0,29.2,653,586.7,88.2,0,5,3,0,2026-03-13T14:15:55.122149+05:30
Moradabad,Uttar Pradesh,28.8386,78.7733,31.3,33,0.0,983.8,5.65,27.0,152,69.2,39.8,0,5,3,0,2026-03-13T14:15:55.122156+05:30
Saharanpur,Uttar Pradesh,29.9637,77.546,29.8,41,0.0,976.2,4.85,28.1,140,62.9,29.0,4,5,3,0,2026-03-13T14:15:55.122165+05:30
Jhansi,Uttar Pradesh,25.4484,78.5685,35.7,22,0.0,978.6,6.85,18.7,66,160.7,42.0,0,5,10,0,2026-03-13T14:15:58.334619+05:30
Surat,Gujarat,21.1702,72.8311,35.3,33,0.0,1006.5,7.35,23.8,147,58.0,50.1,0,5,7,1,2026-03-13T14:15:58.334645+05:30
Vadodara,Gujarat,22.3072,73.1812,39.1,16,0.0,1003.9,7.5,22.0,108,29.2,17.1,0,5,7,0,2026-03-13T14:15:58.334655+05:30
Rajkot,Gujarat,22.3039,70.8022,36.8,18,0.0,994.3,7.3,30.2,86,51.3,20.4,0,5,10,0,2026-03-13T14:15:58.334662+05:30
Thane,Maharashtra,19.2183,72.9781,33.9,46,0.0,1007.0,7.65,38.9,153,68.9,66.4,0,5,4,1,2026-03-13T14:15:58.334669+05:30
Nagpur,Maharashtra,21.1458,79.0882,37.6,16,0.0,973.0,8.05,18.7,89,27.0,19.0,0,5,10,0,2026-03-13T14:15:58.334676+05:30
Nashik,Maharashtra,19.9975,73.7898,36.6,15,0.0,945.8,7.85,32.4,74,18.2,15.6,0,5,10,0,2026-03-13T14:15:58.334682+05:30
Aurangabad,Maharashtra,19.8762,75.3433,36.4,17,0.0,944.4,8.35,29.5,112,19.9,17.9,0,5,10,0,2026-03-13T14:15:58.334689+05:30
Solapur,Maharashtra,17.6599,75.9064,36.4,23,0.0,956.9,8.6,24.8,91,33.2,27.1,0,5,10,0,2026-03-13T14:15:58.334696+05:30
Kolhapur,Maharashtra,16.705,74.2433,35.1,22,0.0,947.6,8.7,44.6,153,31.7,26.5,0,5,10,0,2026-03-13T14:15:58.334703+05:30
Goa,Goa,15.2993,74.124,31.8,63,0.0,997.2,8.7,32.8,140,43.3,37.1,3,5,7,1,2026-03-13T14:15:58.334710+05:30
Jodhpur,Rajasthan,26.2389,73.0243,36.5,24,0.0,983.2,6.9,19.4,75,156.0,33.4,0,5,10,0,2026-03-13T14:15:58.334716+05:30
Udaipur,Rajasthan,24.5854,73.7125,35.6,12,0.0,947.5,7.85,32.8,51,33.2,14.5,0,5,10,0,2026-03-13T14:15:58.334723+05:30
Kota,Rajasthan,25.2138,75.8648,37.1,14,0.0,979.2,7.1,16.6,71,73.1,21.7,0,5,10,0,2026-03-13T14:15:58.334729+05:30
Bikaner,Rajasthan,28.0229,73.3119,33.7,20,0.0,983.5,6.6,24.8,82,35.5,20.0,0,5,7,0,2026-03-13T14:15:58.334734+05:30
Ajmer,Rajasthan,26.4499,74.6399,34.1,24,0.0,955.4,7.05,19.4,69,136.9,36.6,0,5,7,0,2026-03-13T14:15:58.334741+05:30
Gwalior,Madhya Pradesh,26.2183,78.1828,33.1,37,0.0,984.3,6.8,20.2,95,145.3,48.2,0,5,7,1,2026-03-13T14:15:58.334747+05:30
Indore,Madhya Pradesh,22.7196,75.8577,36.6,11,0.0,949.0,7.75,32.4,59,9.7,8.7,0,5,10,0,2026-03-13T14:15:58.334752+05:30
Bhopal,Madhya Pradesh,23.2599,77.4126,36.4,12,0.0,954.7,7.55,29.9,77,16.9,15.5,0,5,10,0,2026-03-13T14:15:58.334758+05:30
Jabalpur,Madhya Pradesh,23.1815,79.9864,35.6,19,0.0,962.1,7.75,18.7,79,18.4,13.8,0,5,10,0,2026-03-13T14:15:58.334764+05:30
Ujjain,Madhya Pradesh,23.1765,75.7885,35.9,11,0.0,954.8,7.7,25.2,55,10.6,6.8,0,5,10,0,2026-03-13T14:15:58.334770+05:30
Visakhapatnam,Andhra Pradesh,17.6868,83.2185,32.2,56,0.0,1003.7,8.65,39.6,91,30.7,25.8,0,5,4,1,2026-03-13T14:15:58.334776+05:30
Vijayawada,Andhra Pradesh,16.5062,80.648,35.6,42,0.0,1002.1,8.75,29.9,92,29.0,23.4,0,5,7,1,2026-03-13T14:15:58.334782+05:30
Guntur,Andhra Pradesh,16.3067,80.4365,35.6,37,0.0,1003.5,8.75,31.0,85,34.2,26.7,0,5,7,1,2026-03-13T14:15:58.334788+05:30
Nellore,Andhra Pradesh,14.4426,79.9865,35.8,38,0.0,1005.5,8.9,28.8,75,30.0,25.7,0,5,7,1,2026-03-13T14:15:58.334795+05:30
Kurnool,Andhra Pradesh,15.8281,78.0373,38.7,14,0.0,976.2,8.75,23.8,93,46.7,33.6,0,5,10,0,2026-03-13T14:15:58.334802+05:30
Kakinada,Andhra Pradesh,16.9891,82.2475,35.0,46,0.0,1007.1,8.7,31.3,80,21.4,16.5,0,5,4,1,2026-03-13T14:15:58.334809+05:30
Tirupati,Andhra Pradesh,13.6288,79.4192,35.2,29,0.0,991.2,9.05,32.4,100,26.3,21.7,0,5,10,0,2026-03-13T14:15:58.334815+05:30
Warangal,Telangana,17.9689,79.5941,36.5,32,0.0,978.3,8.5,29.5,115,46.3,36.2,0,5,10,1,2026-03-13T14:15:58.334821+05:30
Nizamabad,Telangana,18.6725,78.0941,36.3,23,0.0,964.7,8.4,23.4,121,32.2,25.5,0,5,10,0,2026-03-13T14:15:58.334827+05:30
Mysore,Karnataka,12.2958,76.6396,33.2,20,0.0,928.4,9.3,32.0,76,39.6,30.6,0,5,7,0,2026-03-13T14:15:58.334833+05:30
Mangalore,Karnataka,12.9141,74.856,28.7,83,0.0,1005.2,8.95,24.8,116,42.4,36.1,7,5,4,1,2026-03-13T14:15:58.334840+05:30
Hubli-Dharwad,Karnataka,15.3647,75.124,35.2,25,0.0,940.7,8.9,29.9,75,31.3,25.7,0,5,10,0,2026-03-13T14:15:58.334846+05:30
Belgaum,Karnataka,15.8497,74.4977,35.8,21,0.0,926.0,8.95,43.6,113,29.0,24.3,0,5,10,0,2026-03-13T14:16:01.550820+05:30
Coimbatore,Tamil Nadu,11.0168,76.9558,34.4,24,0.0,961.0,9.25,41.0,79,34.5,26.4,0,5,7,0,2026-03-13T14:16:01.550850+05:30
Madurai,Tamil Nadu,9.9252,78.1198,35.3,38,0.0,991.7,9.25,26.6,83,15.2,11.4,0,5,10,1,2026-03-13T14:16:01.550861+05:30
Trichy,Tamil Nadu,10.7905,78.7047,34.3,43,0.0,998.9,9.15,23.8,88,19.0,15.2,0,5,7,1,2026-03-13T14:16:01.550869+05:30
Salem,Tamil Nadu,11.6643,78.146,34.7,34,0.0,976.6,9.2,24.1,99,42.7,34.5,0,5,7,1,2026-03-13T14:16:01.550876+05:30
Tirunelveli,Tamil Nadu,8.7139,77.7567,34.3,44,0.0,1002.0,9.2,29.9,64,12.9,9.9,0,5,4,1,2026-03-13T14:16:01.550883+05:30
Vellore,Tamil Nadu,12.9165,79.1325,35.1,28,0.0,984.2,9.1,32.8,106,30.9,26.3,0,5,10,0,2026-03-13T14:16:01.550890+05:30
Erode,Tamil Nadu,11.341,77.7172,35.6,33,0.0,988.2,9.15,22.3,84,33.6,27.1,0,5,10,1,2026-03-13T14:16:01.550897+05:30
Kochi,Kerala,9.9312,76.2673,28.4,81,0.0,1007.0,9.1,33.5,98,31.2,27.7,7,5,4,1,2026-03-13T14:16:01.550904+05:30
Thiruvananthapuram,Kerala,8.5241,76.9366,28.6,77,0.0,1006.3,9.1,24.1,58,22.2,19.3,7,5,4,1,2026-03-13T14:16:01.550912+05:30
Kozhikode,Kerala,11.2588,75.7804,29.8,77,0.0,1006.4,8.95,30.6,95,31.0,28.3,7,5,4,1,2026-03-13T14:16:01.550918+05:30
Thrissur,Kerala,10.5276,76.2144,32.3,64,0.0,1005.3,9.05,37.8,98,33.6,27.8,3,5,4,1,2026-03-13T14:16:01.550926+05:30
Kannur,Kerala,11.8745,75.3704,30.9,68,0.0,1006.0,9.0,29.5,106,38.0,32.6,3,5,4,1,2026-03-13T14:16:01.550933+05:30
Patna,Bihar,25.5941,85.1376,33.1,42,0.0,999.5,7.5,25.2,178,149.9,96.2,0,5,7,1,2026-03-13T14:16:01.550940+05:30
Gaya,Bihar,24.7914,85.0002,33.6,32,0.0,993.2,7.6,23.0,152,193.7,47.1,0,5,7,0,2026-03-13T14:16:01.550947+05:30
Muzaffarpur,Bihar,26.1209,85.3647,32.5,46,0.0,999.3,7.45,24.8,183,135.5,95.0,0,5,7,1,2026-03-13T14:16:01.550953+05:30
Bhagalpur,Bihar,25.2425,87.0117,33.4,43,0.0,999.4,7.5,26.6,176,130.4,90.3,0,5,7,1,2026-03-13T14:16:01.550959+05:30
Ranchi,Jharkhand,23.3441,85.3096,33.7,15,0.0,938.3,8.2,29.9,86,28.4,11.9,0,5,7,0,2026-03-13T14:16:01.550965+05:30
Jamshedpur,Jharkhand,22.8046,86.2029,35.9,28,0.0,989.8,8.1,16.6,162,58.8,30.4,0,5,10,0,2026-03-13T14:16:01.550972+05:30
Dhanbad,Jharkhand,23.7957,86.4304,36.4,19,0.0,978.9,8.0,29.9,176,80.1,37.5,0,5,10,0,2026-03-13T14:16:01.550978+05:30
Bokaro,Jharkhand,23.6693,86.1511,36.1,19,0.0,982.9,8.0,31.0,157,61.2,23.6,0,5,10,0,2026-03-13T14:16:01.550985+05:30
Bhubaneswar,Odisha,20.2961,85.8245,33.3,53,0.0,1002.4,8.4,34.9,109,43.3,34.5,0,5,4,1,2026-03-13T14:16:01.550991+05:30
Cuttack,Odisha,20.4625,85.8828,36.0,41,0.0,1003.5,8.45,30.6,109,43.3,34.5,0,5,7,1,2026-03-13T14:16:01.550997+05:30
Rourkela,Odisha,22.2604,84.8536,37.7,17,0.0,984.1,8.0,26.3,104,50.2,19.8,0,5,10,0,2026-03-13T14:16:01.551004+05:30
Raipur,Chhattisgarh,21.2514,81.6296,38.3,14,0.0,974.1,8.15,17.6,146,45.4,28.0,0,5,10,0,2026-03-13T14:16:01.551010+05:30
Bhilai,Chhattisgarh,21.1938,81.3509,38.8,15,0.0,974.4,8.15,13.3,145,42.0,27.5,0,5,10,0,2026-03-13T14:16:01.551017+05:30
Guwahati,Assam,26.1158,91.7086,23.6,87,0.0,1001.6,6.9,32.8,160,61.0,55.9,3,5,4,1,2026-03-13T14:16:01.551023+05:30
Agartala,Tripura,23.8315,91.2868,28.1,74,0.0,1005.9,7.6,28.1,145,44.6,39.2,7,5,4,1,2026-03-13T14:16:01.551030+05:30
Shillong,Meghalaya,25.5788,91.8933,16.8,74,0.0,855.2,7.0,54.0,151,39.1,35.0,3,5,7,0,2026-03-13T14:16:01.551036+05:30
Imphal,Manipur,24.817,93.9368,20.8,74,0.0,922.1,7.4,62.6,156,76.6,63.3,3,5,7,0,2026-03-13T14:16:01.551043+05:30
Aizawl,Mizoram,23.7271,92.7176,22.1,67,0.0,893.0,7.15,72.4,153,67.3,57.3,3,5,7,0,2026-03-13T14:16:01.551049+05:30
Kohima,Nagaland,25.6701,94.1077,17.1,85,0.0,853.3,6.25,81.4,136,68.2,58.8,3,10,7,0,2026-03-13T14:16:01.551056+05:30
Gangtok,Sikkim,27.3314,88.6138,17.3,81,0.0,836.3,4.55,17.3,114,31.3,28.4,3,10,3,0,2026-03-13T14:16:01.551062+05:30
Siliguri,West Bengal,26.7271,88.3953,22.7,77,0.0,993.5,7.3,30.6,160,54.5,50.1,3,5,7,1,2026-03-13T14:16:04.763337+05:30
Durgapur,West Bengal,23.5204,87.3119,36.8,16,0.0,993.5,7.95,29.2,176,109.2,56.9,0,5,10,0,2026-03-13T14:16:04.763370+05:30
Asansol,West Bengal,23.6739,86.9524,36.4,18,0.0,992.2,7.95,27.0,175,97.8,48.1,0,5,10,0,2026-03-13T14:16:04.763382+05:30
Pondicherry,Puducherry,11.9139,79.8145,33.9,50,0.0,1008.0,9.0,27.7,64,17.6,12.4,0,0,4,1,2026-03-13T14:16:04.763391+05:30
Port Blair,Andaman and Nicobar Islands,11.6234,92.7265,28.9,70,0.0,1006.4,8.95,23.4,64,10.6,8.3,7,5,4,1,2026-03-13T14:16:04.763399+05:30
Haridwar,Uttarakhand,29.9457,78.1642,30.5,38,0.0,974.5,5.45,28.4,93,45.9,19.9,0,5,3,0,2026-03-13T14:16:04.763407+05:30
Rishikesh,Uttarakhand,30.0869,78.2676,30.6,34,0.0,967.2,5.7,28.4,69,38.1,14.7,0,5,3,0,2026-03-13T14:16:04.763415+05:30
Nainital,Uttarakhand,29.3919,79.4542,22.9,48,0.0,808.2,6.7,44.3,91,45.2,23.7,0,5,7,0,2026-03-13T14:16:04.763423+05:30
Mussoorie,Uttarakhand,30.4599,78.0664,22.5,35,0.0,805.1,5.45,30.2,72,38.9,14.2,0,5,3,0,2026-03-13T14:16:04.763431+05:30
Dharamshala,Himachal Pradesh,32.219,76.3234,24.5,33,0.0,871.0,6.0,26.6,44,21.5,6.5,0,5,3,0,2026-03-13T14:16:04.763439+05:30
Dalhousie,Himachal Pradesh,32.5387,75.971,22.8,29,0.0,806.5,6.45,31.0,74,25.6,11.4,0,5,7,0,2026-03-13T14:16:04.763447+05:30
Patiala,Punjab,30.3398,76.3869,29.5,34,0.0,979.3,5.2,29.2,253,501.1,66.4,4,5,3,0,2026-03-13T14:16:04.763455+05:30
Bhatinda,Punjab,30.211,74.9455,29.1,39,0.0,986.0,6.05,27.7,134,49.9,25.1,4,5,7,0,2026-03-13T14:16:04.763463+05:30
Rohtak,Haryana,28.8955,76.6066,30.1,33,0.0,983.4,5.35,24.8,526,438.7,67.5,0,5,3,0,2026-03-13T14:16:04.763471+05:30
Panipat,Haryana,29.3909,76.9635,29.7,38,0.0,981.7,5.15,25.9,895,760.0,89.9,4,5,3,0,2026-03-13T14:16:04.763479+05:30
Mathura,Uttar Pradesh,27.4924,77.6737,34.2,23,0.0,987.9,5.8,26.3,655,773.0,104.5,0,5,3,0,2026-03-13T14:16:04.763487+05:30
Vrindavan,Uttar Pradesh,27.5823,77.7027,34.0,21,0.0,988.2,5.85,29.2,655,773.0,104.5,0,5,3,0,2026-03-13T14:16:04.763494+05:30
Ayodhya,Uttar Pradesh,26.7922,82.1998,33.2,40,0.0,994.8,6.4,28.8,161,267.3,84.8,0,5,7,1,2026-03-13T14:16:04.763502+05:30
Ratlam,Madhya Pradesh,23.3315,75.0367,35.8,15,0.0,955.7,7.6,29.2,51,15.5,8.7,0,5,10,0,2026-03-13T14:16:04.763509+05:30
Sagar,Madhya Pradesh,23.8388,78.7378,36.3,11,0.0,951.1,7.5,28.1,67,12.6,10.3,0,5,10,0,2026-03-13T14:16:04.763515+05:30
Satna,Madhya Pradesh,24.6005,80.8322,37.3,14,0.0,971.3,7.15,29.9,66,79.4,17.9,0,5,10,0,2026-03-13T14:16:04.763521+05:30
Akola,Maharashtra,20.7002,77.0082,39.0,16,0.0,974.6,8.05,20.2,79,21.0,15.5,0,5,10,0,2026-03-13T14:16:04.763528+05:30
Amravati,Maharashtra,20.9374,77.7796,38.6,14,0.0,967.3,8.0,14.0,85,23.1,16.2,0,5,10,0,2026-03-13T14:16:04.763535+05:30
Latur,Maharashtra,18.4088,76.5604,34.7,24,0.0,940.2,8.5,21.2,97,36.1,28.1,0,5,7,0,2026-03-13T14:16:04.763541+05:30
Nanded,Maharashtra,19.1383,77.3091,38.3,18,0.0,968.5,8.3,20.9,108,22.3,18.6,0,5,10,0,2026-03-13T14:16:04.763548+05:30
Gulbarga,Karnataka,17.3297,76.8343,37.6,19,0.0,958.4,8.6,32.0,91,29.9,23.9,0,5,10,0,2026-03-13T14:16:04.763554+05:30
Bidar,Karnataka,17.9104,77.5199,35.4,21,0.0,935.7,8.55,26.6,102,27.6,21.4,0,5,10,0,2026-03-13T14:16:04.763560+05:30
Hospet,Karnataka,15.2689,76.3909,35.6,25,0.0,955.2,8.9,24.1,88,34.0,26.8,0,5,10,0,2026-03-13T14:16:04.763566+05:30
Tirupur,Tamil Nadu,11.1085,77.3411,35.6,27,0.0,974.5,9.25,29.9,89,37.7,29.7,0,5,10,0,2026-03-13T14:16:04.763572+05:30
Alappuzha,Kerala,9.4981,76.3388,28.5,79,0.0,1007.3,9.1,27.7,90,27.8,26.0,7,5,4,1,2026-03-13T14:16:04.763578+05:30
Munnar,Kerala,10.0889,77.0595,31.6,24,0.0,858.5,9.55,24.1,72,17.7,13.7,0,5,7,0,2026-03-13T14:16:04.763584+05:30
Silchar,Assam,24.8333,92.7789,25.7,78,0.0,1004.8,7.75,36.4,166,93.4,78.2,7,5,4,1,2026-03-13T14:16:04.763590+05:30
Dibrugarh,Assam,27.4728,94.912,23.3,81,0.0,995.4,5.5,24.8,143,69.8,63.3,3,5,3,1,2026-03-13T14:16:04.763597+05:30
