city,state,latitude,longitude,temp,humidity,rain,pressure,uv_index,wind_gusts,aqi,pm10,pm2_5,no2,co,o3,so2,mosquito_risk,arthritis_risk,migraine_risk,frizz_risk,updated_at
Delhi,Delhi,28.6139,77.209,34.4,54,0.0,977.2,6.6,27.4,405,827.0,182.5,10.0,508.0,131.0,15.7,0,5,7,1,2026-07-14T11:03:30.362401+05:30
Mumbai,Maharashtra,19.076,72.8777,29.7,70,0.0,1009.0,7.0,45.7,68,48.0,21.8,5.2,171.0,68.0,6.6,7,0,4,1,2026-07-14T11:03:30.362449+05:30
Bangalore,Karnataka,12.9716,77.5946,28.3,47,0.0,913.0,8.55,41.8,60,21.5,13.5,7.0,286.0,71.0,4.4,4,5,7,0,2026-07-14T11:03:30.362466+05:30
Hyderabad,Telangana,17.385,78.4867,30.9,45,0.0,952.7,7.8,45.0,56,22.9,14.7,2.8,231.0,83.0,3.8,0,5,7,1,2026-07-14T11:03:30.362477+05:30
Chennai,Tamil Nadu,13.0827,80.2707,36.2,38,0.0,1004.9,8.25,38.5,77,28.6,19.0,12.3,235.0,86.0,12.5,0,5,7,1,2026-07-14T11:03:30.362486+05:30
Kolkata,West Bengal,22.5726,88.3639,30.7,75,0.0,1000.0,8.7,21.6,152,44.7,31.3,6.1,441.0,169.0,18.5,3,5,4,1,2026-07-14T11:03:30.362494+05:30
Pune,Maharashtra,18.5204,73.8567,28.1,60,0.0,948.6,8.4,49.0,52,27.9,15.4,2.9,132.0,66.0,4.5,4,5,7,1,2026-07-14T11:03:30.362501+05:30
Ahmedabad,Gujarat,23.0225,72.5714,32.4,57,0.0,1000.1,5.85,43.6,66,29.8,14.1,3.3,126.0,56.0,4.0,0,5,0,1,2026-07-14T11:03:30.362508+05:30
Jaipur,Rajasthan,26.9124,75.7873,32.6,52,0.0,956.2,8.1,43.6,437,754.4,129.9,2.3,141.0,71.0,4.0,0,5,7,1,2026-07-14T11:03:30.362515+05:30
Lucknow,Uttar Pradesh,26.8467,80.9462,34.4,61,0.0,987.8,8.0,26.6,150,180.2,68.7,4.3,228.0,130.0,8.2,3,5,7,1,2026-07-14T11:03:30.362525+05:30
Kanpur,Uttar Pradesh,26.4499,80.3319,34.4,57,0.0,986.1,7.3,28.1,129,122.5,49.4,3.7,179.0,119.0,7.4,0,5,7,1,2026-07-14T11:03:30.362531+05:30
Chandigarh,Chandigarh,30.7333,76.7794,31.9,65,0.0,962.9,7.7,24.5,173,196.5,75.4,4.5,612.0,155.0,18.0,3,5,7,1,2026-07-14T11:03:30.362538+05:30
Srinagar,Jammu and Kashmir,34.0837,74.7973,25.4,53,0.0,839.9,8.95,20.2,85,34.5,21.4,3.7,469.0,146.0,5.6,4,5,7,0,2026-07-14T11:03:30.362545+05:30
Jammu,Jammu and Kashmir,32.7266,74.857,32.0,63,0.0,966.3,8.35,28.1,155,103.6,53.1,5.2,412.0,173.0,5.8,3,5,7,1,2026-07-14T11:03:30.362551+05:30
Amritsar,Punjab,31.634,74.8723,32.2,67,0.0,974.2,8.3,15.8,190,183.5,85.4,8.8,509.0,178.0,16.1,3,5,7,1,2026-07-14T11:03:30.362557+05:30
Ludhiana,Punjab,30.901,75.8573,33.2,61,0.0,972.4,7.9,21.2,190,165.8,82.2,7.0,442.0,161.0,9.8,3,5,7,1,2026-07-14T11:03:30.362564+05:30
Jalandhar,Punjab,31.326,75.5762,32.6,65,0.0,973.3,7.9,19.8,196,151.8,78.7,8.2,521.0,165.0,9.8,3,5,7,1,2026-07-14T11:03:30.362570+05:30
Dehradun,Uttarakhand,30.6284,78.0322,23.1,73,0.0,828.9,8.1,23.0,112,79.6,34.6,0.7,200.0,140.0,3.8,3,5,7,1,2026-07-14T11:03:30.362577+05:30
Shimla,Himachal Pradesh,31.1048,77.1734,23.1,52,0.0,784.7,7.4,31.0,152,87.1,34.2,0.9,207.0,122.0,6.4,0,5,7,0,2026-07-14T11:03:30.362584+05:30
Manali,Himachal Pradesh,32.2396,77.1887,26.0,57,0.0,818.1,9.55,32.8,54,13.2,6.1,3.9,181.0,143.0,0.8,4,5,7,1,2026-07-14T11:03:30.362596+05:30
Gurgaon,Haryana,28.4595,77.0266,34.8,50,0.0,975.8,7.05,33.5,457,1031.9,200.7,9.5,310.0,119.0,12.8,0,5,7,1,2026-07-14T11:03:30.362602+05:30
Noida,Uttar Pradesh,28.5355,77.391,34.7,55,0.0,978.6,6.6,24.1,457,1031.9,200.7,9.5,421.0,119.0,12.8,0,5,7,1,2026-07-14T11:03:30.362609+05:30
Ghaziabad,Uttar Pradesh,28.6692,77.4538,34.0,58,0.0,977.0,6.7,22.7,273,638.9,168.1,9.6,337.0,157.0,21.9,0,5,7,1,2026-07-14T11:03:30.362615+05:30
Faridabad,Haryana,28.4089,77.3178,34.8,52,0.0,977.9,6.7,28.1,457,1031.9,200.7,9.5,298.0,119.0,12.8,0,5,7,1,2026-07-14T11:03:30.362622+05:30
Meerut,Uttar Pradesh,28.9845,77.7064,32.8,61,0.0,975.7,7.6,27.7,273,638.9,168.1,9.6,220.0,157.0,21.9,3,5,7,1,2026-07-14T11:03:30.362629+05:30
Agra,Uttar Pradesh,27.1767,78.0081,34.3,54,0.0,982.6,7.95,34.2,149,271.9,70.5,4.5,171.0,108.0,5.5,0,5,7,1,2026-07-14T11:03:30.362636+05:30
Varanasi,Uttar Pradesh,25.3176,82.9739,33.9,61,0.0,992.1,6.5,25.2,143,111.5,54.2,5.2,243.0,120.0,11.7,3,5,7,1,2026-07-14T11:03:30.362642+05:30
Prayagraj,Uttar Pradesh,25.4358,81.8463,34.5,58,0.0,990.7,7.7,29.9,126,93.8,48.4,3.7,186.0,121.0,10.3,0,5,7,1,2026-07-14T11:03:30.362649+05:30
Gorakhpur,Uttar Pradesh,26.7606,83.3732,30.3,76,0.0,992.5,7.85,31.7,158,112.9,64.5,5.6,275.0,142.0,10.3,3,5,7,1,2026-07-14T11:03:30.362655+05:30
Bareilly,Uttar Pradesh,28.367,79.4304,33.5,64,0.0,981.0,8.0,29.2,172,322.2,105.9,6.5,341.0,163.0,13.3,3,5,7,1,2026-07-14T11:03:30.362664+05:30
Aligarh,Uttar Pradesh,27.8974,78.088,34.3,56,0.0,980.0,7.85,31.7,431,644.5,144.8,5.2,219.0,114.0,8.3,0,5,7,1,2026-07-14T11:03:30.362670+05:30
Moradabad,Uttar Pradesh,28.8386,78.7733,32.9,64,0.0,977.7,7.6,29.2,192,489.9,147.6,11.6,413.0,197.0,21.9,3,5,7,1,2026-07-14T11:03:30.362676+05:30
Saharanpur,Uttar Pradesh,29.9637,77.546,31.3,73,0.0,969.9,7.35,30.6,190,312.0,101.0,5.3,521.0,162.0,20.3,3,5,7,1,2026-07-14T11:03:30.362685+05:30
Jhansi,Uttar Pradesh,25.4484,78.5685,33.4,57,0.0,974.0,8.4,41.8,102,74.0,31.8,2.8,134.0,92.0,7.7,0,5,7,1,2026-07-14T11:03:33.621386+05:30
Surat,Gujarat,21.1702,72.8311,29.9,74,0.1,1005.8,6.35,55.1,72,39.3,22.0,11.7,282.0,42.0,33.3,10,5,4,1,2026-07-14T11:03:33.621424+05:30
Vadodara,Gujarat,22.3072,73.1812,31.8,61,0.0,1002.8,4.35,46.4,64,32.9,15.6,3.7,139.0,52.0,3.5,3,5,0,1,2026-07-14T11:03:33.621434+05:30
Rajkot,Gujarat,22.3039,70.8022,31.7,57,0.0,992.2,7.15,51.5,61,33.6,15.0,1.9,103.0,56.0,3.1,0,5,7,1,2026-07-14T11:03:33.621442+05:30
Thane,Maharashtra,19.2183,72.9781,30.2,69,0.1,1008.3,7.1,38.9,68,48.0,21.8,5.2,176.0,68.0,6.6,6,0,4,1,2026-07-14T11:03:33.621450+05:30
Nagpur,Maharashtra,21.1458,79.0882,31.4,54,0.0,971.4,7.8,49.7,84,41.1,20.7,5.3,132.0,69.0,14.2,0,5,7,1,2026-07-14T11:03:33.621458+05:30
Nashik,Maharashtra,19.9975,73.7898,27.8,64,0.0,945.4,7.25,51.1,56,30.7,15.3,2.6,113.0,60.0,2.6,7,5,7,1,2026-07-14T11:03:33.621465+05:30
Aurangabad,Maharashtra,19.8762,75.3433,28.3,58,0.0,944.2,7.55,47.5,59,25.0,13.9,2.0,119.0,71.0,5.2,4,5,7,1,2026-07-14T11:03:33.621473+05:30
Solapur,Maharashtra,17.6599,75.9064,29.6,56,0.0,957.8,8.55,38.9,54,17.6,10.4,1.6,120.0,69.0,2.1,4,5,7,1,2026-07-14T11:03:33.621480+05:30
Kolhapur,Maharashtra,16.705,74.2433,27.1,67,0.0,949.2,8.9,45.7,51,23.2,13.9,2.5,123.0,60.0,2.2,7,5,7,1,2026-07-14T11:03:33.621487+05:30
Goa,Goa,15.2993,74.124,30.5,67,0.0,1000.1,8.0,32.4,66,34.1,17.9,1.2,115.0,58.0,1.7,3,5,4,1,2026-07-14T11:03:33.621494+05:30
Jodhpur,Rajasthan,26.2389,73.0243,31.7,54,0.0,979.2,8.0,49.0,224,232.8,56.9,1.5,106.0,58.0,2.8,0,5,7,1,2026-07-14T11:03:33.621501+05:30
Udaipur,Rajasthan,24.5854,73.7125,28.7,62,0.0,944.2,8.15,47.9,74,39.1,16.1,1.8,108.0,55.0,3.4,7,5,7,1,2026-07-14T11:03:33.621509+05:30
Kota,Rajasthan,25.2138,75.8648,32.4,51,0.0,976.0,8.3,40.0,95,81.7,30.6,2.1,120.0,70.0,5.4,0,5,7,1,2026-07-14T11:03:33.621516+05:30
Bikaner,Rajasthan,28.0229,73.3119,33.8,50,0.0,976.8,8.4,41.8,175,320.4,106.2,0.7,104.0,63.0,3.2,0,5,7,1,2026-07-14T11:03:33.621523+05:30
Ajmer,Rajasthan,26.4499,74.6399,29.6,59,0.0,951.5,8.2,53.6,110,146.2,44.0,1.5,110.0,62.0,2.9,4,5,7,1,2026-07-14T11:03:33.621530+05:30
Gwalior,Madhya Pradesh,26.2183,78.1828,32.9,59,0.0,978.8,8.05,41.4,107,97.8,35.5,2.2,132.0,90.0,3.7,0,5,7,1,2026-07-14T11:03:33.621537+05:30
Indore,Madhya Pradesh,22.7196,75.8577,28.9,59,0.0,946.9,8.4,53.3,72,55.9,22.4,3.1,158.0,59.0,4.9,4,5,7,1,2026-07-14T11:03:33.621543+05:30
Bhopal,Madhya Pradesh,23.2599,77.4126,29.3,61,0.0,952.1,8.6,44.3,80,52.3,21.7,2.6,162.0,65.0,5.7,7,5,7,1,2026-07-14T11:03:33.621549+05:30
Jabalpur,Madhya Pradesh,23.1815,79.9864,29.8,69,0.1,958.7,8.55,41.4,92,45.2,25.4,2.3,157.0,84.0,6.2,10,5,7,1,2026-07-14T11:03:33.621556+05:30
Ujjain,Madhya Pradesh,23.1765,75.7885,28.9,62,0.0,952.3,8.5,50.0,71,43.2,18.1,2.2,138.0,59.0,4.2,7,5,7,1,2026-07-14T11:03:33.621563+05:30
Visakhapatnam,Andhra Pradesh,17.6868,83.2185,33.2,59,0.0,997.9,8.55,24.5,134,93.4,49.2,18.7,549.0,108.0,44.8,0,5,7,1,2026-07-14T11:03:33.621569+05:30
Vijayawada,Andhra Pradesh,16.5062,80.648,34.5,46,0.0,999.5,5.8,45.4,81,32.1,21.7,3.5,150.0,95.0,6.4,0,5,3,1,2026-07-14T11:03:33.621575+05:30
Guntur,Andhra Pradesh,16.3067,80.4365,35.4,40,0.0,1000.8,6.35,46.4,73,31.4,20.5,3.1,148.0,89.0,5.4,0,5,7,1,2026-07-14T11:03:33.621582+05:30
Nellore,Andhra Pradesh,14.4426,79.9865,35.3,42,0.0,1003.5,8.1,47.2,67,24.6,15.1,2.8,121.0,89.0,7.2,0,5,7,1,2026-07-14T11:03:33.621589+05:30
Kurnool,Andhra Pradesh,15.8281,78.0373,32.9,44,0.0,976.8,7.3,43.2,54,18.0,11.9,3.3,132.0,73.0,8.3,0,5,7,1,2026-07-14T11:03:33.621597+05:30
Kakinada,Andhra Pradesh,16.9891,82.2475,34.0,55,0.0,1002.3,7.15,54.7,95,36.7,26.6,4.1,187.0,129.0,7.9,0,5,4,1,2026-07-14T11:03:33.621603+05:30
Tirupati,Andhra Pradesh,13.6288,79.4192,35.2,35,0.0,989.3,8.25,38.5,77,22.3,12.9,2.2,118.0,82.0,2.6,0,5,10,1,2026-07-14T11:03:33.621609+05:30
Warangal,Telangana,17.9689,79.5941,30.2,58,0.0,977.1,7.25,40.0,70,30.5,19.9,2.5,145.0,86.0,5.7,0,5,7,1,2026-07-14T11:03:33.621616+05:30
Nizamabad,Telangana,18.6725,78.0941,29.2,61,0.0,964.6,5.0,42.1,62,23.3,15.6,2.1,137.0,78.0,5.7,7,5,3,1,2026-07-14T11:03:33.621622+05:30
Mysore,Karnataka,12.2958,76.6396,28.8,56,0.0,930.0,8.95,40.0,56,18.2,11.4,3.6,135.0,74.0,2.4,4,5,7,1,2026-07-14T11:03:33.621628+05:30
Mangalore,Karnataka,12.9141,74.856,29.3,70,0.0,1009.2,8.25,34.6,59,25.4,14.9,3.1,113.0,62.0,3.2,7,0,4,1,2026-07-14T11:03:33.621634+05:30
Hubli-Dharwad,Karnataka,15.3647,75.124,28.1,60,0.0,942.3,8.75,48.2,47,19.4,11.7,1.8,114.0,66.0,1.6,4,5,7,1,2026-07-14T11:03:33.621641+05:30
Belgaum,Karnataka,15.8497,74.4977,26.2,65,0.0,927.6,8.45,45.7,49,22.9,13.4,1.9,109.0,60.0,1.6,7,5,7,1,2026-07-14T11:03:36.884983+05:30
Coimbatore,Tamil Nadu,11.0168,76.9558,31.7,51,0.0,962.4,8.35,53.3,54,24.8,12.5,2.3,150.0,77.0,2.8,0,5,7,1,2026-07-14T11:03:36.885022+05:30
Madurai,Tamil Nadu,9.9252,78.1198,35.7,39,0.0,992.3,8.65,29.2,70,35.7,16.8,4.1,135.0,100.0,4.6,0,5,10,1,2026-07-14T11:03:36.885033+05:30
Trichy,Tamil Nadu,10.7905,78.7047,35.5,39,0.0,998.6,8.5,46.8,65,26.4,13.4,2.7,139.0,79.0,3.6,0,5,10,1,2026-07-14T11:03:36.885042+05:30
Salem,Tamil Nadu,11.6643,78.146,31.4,54,0.0,977.4,8.35,29.9,72,39.5,21.2,6.2,130.0,102.0,12.2,0,5,7,1,2026-07-14T11:03:36.885051+05:30
Tirunelveli,Tamil Nadu,8.7139,77.7567,37.3,33,0.0,1002.2,7.6,43.2,51,19.1,10.0,1.8,126.0,68.0,1.7,0,5,7,1,2026-07-14T11:03:36.885059+05:30
Vellore,Tamil Nadu,12.9165,79.1325,35.4,33,0.0,983.0,8.9,43.2,74,24.0,14.6,3.8,146.0,83.0,3.7,0,5,10,1,2026-07-14T11:03:36.885067+05:30
Erode,Tamil Nadu,11.341,77.7172,34.5,37,0.0,988.8,8.5,45.4,61,29.4,14.5,3.5,160.0,83.0,2.9,0,5,7,1,2026-07-14T11:03:36.885075+05:30
Kochi,Kerala,9.9312,76.2673,29.5,70,0.0,1010.6,8.4,41.4,57,19.9,13.0,3.4,117.0,64.0,3.3,7,0,4,1,2026-07-14T11:03:36.885082+05:30
Thiruvananthapuram,Kerala,8.5241,76.9366,29.4,72,0.0,1009.2,7.9,52.2,54,21.2,13.0,3.0,124.0,64.0,1.9,7,0,4,1,2026-07-14T11:03:36.885089+05:30
Kozhikode,Kerala,11.2588,75.7804,29.8,71,0.0,1009.7,8.15,44.3,53,17.5,10.5,1.4,118.0,68.0,2.3,7,0,4,1,2026-07-14T11:03:36.885095+05:30
Thrissur,Kerala,10.5276,76.2144,29.4,74,0.0,1008.8,7.9,40.0,55,17.0,12.0,2.7,135.0,66.0,3.0,7,0,4,1,2026-07-14T11:03:36.885103+05:30
Kannur,Kerala,11.8745,75.3704,30.0,69,0.0,1009.2,8.75,41.8,54,19.4,11.9,2.5,123.0,67.0,2.6,7,0,4,1,2026-07-14T11:03:36.885110+05:30
Patna,Bihar,25.5941,85.1376,31.4,77,0.0,995.3,7.6,20.9,153,125.3,62.6,5.3,275.0,151.0,15.2,3,5,7,1,2026-07-14T11:03:36.885117+05:30
Gaya,Bihar,24.7914,85.0002,31.9,70,0.0,988.9,8.45,26.6,156,142.5,66.1,4.4,257.0,134.0,10.6,3,5,7,1,2026-07-14T11:03:36.885124+05:30
Muzaffarpur,Bihar,26.1209,85.3647,31.2,73,0.0,995.4,7.55,20.9,154,92.2,49.2,6.2,278.0,144.0,14.5,3,5,7,1,2026-07-14T11:03:36.885131+05:30
Bhagalpur,Bihar,25.2425,87.0117,32.0,71,0.0,995.8,7.8,20.9,128,20.2,14.6,6.8,276.0,123.0,15.6,3,5,7,1,2026-07-14T11:03:36.885137+05:30
Ranchi,Jharkhand,23.3441,85.3096,27.4,78,0.0,934.2,8.65,36.4,153,105.9,50.4,4.7,175.0,112.0,15.1,7,5,7,1,2026-07-14T11:03:36.885144+05:30
Jamshedpur,Jharkhand,22.8046,86.2029,31.2,73,0.0,985.9,5.8,28.1,161,103.6,64.7,28.1,383.0,75.0,51.4,3,5,3,1,2026-07-14T11:03:36.885150+05:30
Dhanbad,Jharkhand,23.7957,86.4304,28.5,88,0.0,975.3,7.7,28.4,170,110.1,72.9,36.6,408.0,77.0,77.1,7,5,7,1,2026-07-14T11:03:36.885157+05:30
Bokaro,Jharkhand,23.6693,86.1511,27.0,93,0.3,979.3,8.65,29.2,171,128.1,76.6,34.0,292.0,73.0,80.9,10,5,7,1,2026-07-14T11:03:36.885164+05:30
Bhubaneswar,Odisha,20.2961,85.8245,27.9,89,0.0,997.0,5.85,41.0,126,98.3,55.5,14.6,360.0,89.0,15.9,7,5,3,1,2026-07-14T11:03:36.885171+05:30
Cuttack,Odisha,20.4625,85.8828,28.4,86,0.0,998.8,2.2,45.7,126,98.3,55.5,14.6,278.0,89.0,15.9,7,5,3,1,2026-07-14T11:03:36.885178+05:30
Rourkela,Odisha,22.2604,84.8536,31.8,66,0.2,979.9,7.8,29.2,147,125.3,61.7,10.4,324.0,90.0,17.2,6,5,7,1,2026-07-14T11:03:36.885185+05:30
Raipur,Chhattisgarh,21.2514,81.6296,32.3,57,0.0,971.1,8.8,48.6,131,59.0,37.5,17.3,154.0,82.0,42.8,0,5,7,1,2026-07-14T11:03:36.885193+05:30
Bhilai,Chhattisgarh,21.1938,81.3509,31.6,58,0.0,971.7,8.75,41.0,120,53.7,32.6,12.3,224.0,89.0,33.1,0,5,7,1,2026-07-14T11:03:36.885199+05:30
Guwahati,Assam,26.1158,91.7086,32.2,72,0.0,995.6,8.1,25.2,56,11.6,10.1,1.1,246.0,106.0,2.2,3,5,7,1,2026-07-14T11:03:36.885206+05:30
Agartala,Tripura,23.8315,91.2868,32.0,70,0.0,1000.3,8.65,23.4,79,19.8,16.8,2.8,159.0,120.0,2.1,3,5,4,1,2026-07-14T11:03:36.885229+05:30
Shillong,Meghalaya,25.5788,91.8933,21.7,95,0.4,854.2,8.45,27.7,60,9.7,8.0,1.0,174.0,91.0,1.7,6,5,7,1,2026-07-14T11:03:36.885235+05:30
Imphal,Manipur,24.817,93.9368,29.4,66,0.0,919.4,9.2,25.9,55,2.2,1.9,1.3,181.0,83.0,1.2,7,5,7,1,2026-07-14T11:03:36.885242+05:30
Aizawl,Mizoram,23.7271,92.7176,26.1,72,0.1,888.4,8.95,19.4,54,8.5,6.4,0.6,136.0,86.0,1.0,10,5,7,1,2026-07-14T11:03:36.885249+05:30
Kohima,Nagaland,25.6701,94.1077,23.6,91,0.1,852.7,8.25,22.7,43,6.2,5.8,1.3,178.0,79.0,0.7,6,5,7,1,2026-07-14T11:03:36.885256+05:30
Gangtok,Sikkim,27.3314,88.6138,20.6,93,0.1,836.5,8.25,26.6,43,5.7,5.4,4.0,269.0,90.0,0.8,6,5,7,1,2026-07-14T11:03:36.885263+05:30
Siliguri,West Bengal,26.7271,88.3953,28.2,86,0.0,988.9,7.95,28.4,69,11.7,10.4,3.6,403.0,113.0,2.6,7,5,7,1,2026-07-14T11:03:40.164517+05:30
Durgapur,West Bengal,23.5204,87.3119,30.5,79,0.0,989.9,8.85,27.0,165,75.7,56.8,30.4,661.0,90.0,64.0,3,5,7,1,2026-07-14T11:03:40.164554+05:30
Asansol,West Bengal,23.6739,86.9524,30.1,78,0.0,988.7,6.5,24.8,161,92.2,63.3,33.2,405.0,81.0,63.4,3,5,7,1,2026-07-14T11:03:40.164566+05:30
Pondicherry,Puducherry,11.9139,79.8145,35.0,44,0.0,1006.6,8.2,43.2,70,34.2,22.2,7.1,179.0,99.0,5.9,0,5,4,1,2026-07-14T11:03:40.164575+05:30
Port Blair,Andaman and Nicobar Islands,11.6234,92.7265,30.9,72,0.0,1005.1,8.2,61.9,49,21.1,9.1,0.3,94.0,44.0,0.4,3,5,4,1,2026-07-14T11:03:40.164583+05:30
Haridwar,Uttarakhand,29.9457,78.1642,32.1,68,0.0,968.2,7.45,32.8,179,257.0,82.7,1.2,299.0,139.0,10.9,3,5,7,1,2026-07-14T11:03:40.164592+05:30
Rishikesh,Uttarakhand,30.0869,78.2676,31.8,66,0.0,961.0,7.6,28.4,166,186.7,64.0,1.1,246.0,126.0,6.0,3,5,7,1,2026-07-14T11:03:40.164599+05:30
Nainital,Uttarakhand,29.3919,79.4542,24.1,57,0.1,805.7,8.5,28.1,161,190.9,66.4,1.5,189.0,128.0,6.9,3,5,7,0,2026-07-14T11:03:40.164607+05:30
Mussoorie,Uttarakhand,30.4599,78.0664,22.2,63,0.0,802.4,8.0,27.4,161,149.0,56.3,1.1,208.0,135.0,6.3,3,5,7,0,2026-07-14T11:03:40.164614+05:30
Dharamshala,Himachal Pradesh,32.219,76.3234,24.8,72,0.0,866.3,8.4,28.1,74,46.6,21.0,0.7,240.0,134.0,1.6,3,5,7,1,2026-07-14T11:03:40.164622+05:30
Dalhousie,Himachal Pradesh,32.5387,75.971,20.4,80,0.1,803.1,8.65,28.8,144,104.3,48.5,2.3,276.0,171.0,3.6,6,5,7,1,2026-07-14T11:03:40.164629+05:30
Patiala,Punjab,30.3398,76.3869,33.0,63,0.0,972.2,7.5,45.7,188,211.4,91.5,5.6,324.0,158.0,15.7,3,5,7,1,2026-07-14T11:03:40.164637+05:30
Bhatinda,Punjab,30.211,74.9455,36.7,41,0.0,977.2,8.2,29.9,189,296.2,104.8,5.1,254.0,138.0,14.8,0,5,10,1,2026-07-14T11:03:40.164643+05:30
Rohtak,Haryana,28.8955,76.6066,34.5,54,0.0,975.8,7.3,36.7,602,1668.9,249.6,4.7,207.0,111.0,6.1,0,5,7,1,2026-07-14T11:03:40.164650+05:30
Panipat,Haryana,29.3909,76.9635,33.3,60,0.0,974.4,7.3,42.1,650,1527.4,240.3,10.2,233.0,127.0,14.1,0,5,7,1,2026-07-14T11:03:40.164658+05:30
Mathura,Uttar Pradesh,27.4924,77.6737,34.2,55,0.0,981.6,7.9,31.3,723,1106.4,158.8,5.1,187.0,99.0,4.3,0,5,7,1,2026-07-14T11:03:40.164665+05:30
Vrindavan,Uttar Pradesh,27.5823,77.7027,34.4,53,0.0,982.0,7.9,31.3,723,1106.4,158.8,5.1,180.0,99.0,4.3,0,5,7,1,2026-07-14T11:03:40.164672+05:30
Ayodhya,Uttar Pradesh,26.7922,82.1998,30.6,77,0.0,990.4,7.8,34.2,156,161.6,72.2,4.4,352.0,146.0,8.5,3,5,7,1,2026-07-14T11:03:40.164679+05:30
Ratlam,Madhya Pradesh,23.3315,75.0367,28.9,63,0.0,953.3,8.25,48.6,68,38.5,16.6,2.0,111.0,59.0,4.2,7,5,7,1,2026-07-14T11:03:40.164686+05:30
Sagar,Madhya Pradesh,23.8388,78.7378,30.2,65,0.0,947.7,8.6,47.2,91,59.6,26.1,2.1,143.0,76.0,6.0,3,5,7,1,2026-07-14T11:03:40.164693+05:30
Satna,Madhya Pradesh,24.6005,80.8322,31.9,62,0.0,967.5,6.9,44.6,102,76.1,35.5,1.8,139.0,102.0,5.7,3,5,7,1,2026-07-14T11:03:40.164700+05:30
Akola,Maharashtra,20.7002,77.0082,31.1,53,0.0,974.6,5.85,50.4,62,28.6,14.5,2.6,112.0,63.0,5.8,0,5,3,1,2026-07-14T11:03:40.164708+05:30
Amravati,Maharashtra,20.9374,77.7796,30.4,55,0.0,966.4,7.5,52.2,63,33.2,15.7,2.7,113.0,65.0,6.3,0,5,7,1,2026-07-14T11:03:40.164715+05:30
Latur,Maharashtra,18.4088,76.5604,29.0,58,0.0,940.1,7.55,42.8,55,18.8,11.2,1.3,120.0,65.0,2.1,4,5,7,1,2026-07-14T11:03:40.164722+05:30
Nanded,Maharashtra,19.1383,77.3091,29.7,60,0.0,968.4,8.05,39.6,61,22.6,14.9,2.3,138.0,76.0,5.5,4,5,7,1,2026-07-14T11:03:40.164729+05:30
Gulbarga,Karnataka,17.3297,76.8343,29.8,55,0.0,959.1,8.15,43.6,53,17.1,10.5,2.2,122.0,71.0,2.8,4,5,7,1,2026-07-14T11:03:40.164736+05:30
Bidar,Karnataka,17.9104,77.5199,28.7,61,0.0,935.6,7.25,39.6,56,19.1,12.3,2.1,131.0,76.0,3.1,7,5,7,1,2026-07-14T11:03:40.164742+05:30
Hospet,Karnataka,15.2689,76.3909,30.2,52,0.0,956.7,7.5,45.7,51,15.7,9.7,1.9,118.0,71.0,2.4,0,5,7,1,2026-07-14T11:03:40.164748+05:30
Tirupur,Tamil Nadu,11.1085,77.3411,33.2,49,0.0,975.5,8.3,57.2,62,29.7,14.4,3.3,149.0,84.0,3.2,0,5,7,1,2026-07-14T11:03:40.164755+05:30
Alappuzha,Kerala,9.4981,76.3388,29.7,69,0.0,1010.6,8.0,42.8,56,23.9,14.9,3.7,89.0,66.0,3.4,7,0,4,1,2026-07-14T11:03:40.164762+05:30
Munnar,Kerala,10.0889,77.0595,22.2,69,0.0,859.2,8.4,34.2,47,18.6,8.8,1.2,106.0,65.0,1.5,3,5,7,1,2026-07-14T11:03:40.164768+05:30
Silchar,Assam,24.8333,92.7789,33.1,71,0.0,998.0,8.85,22.3,92,19.2,15.4,1.3,190.0,123.0,4.3,3,5,7,1,2026-07-14T11:03:40.164775+05:30
Dibrugarh,Assam,27.4728,94.912,33.3,69,0.0,988.7,8.6,23.4,72,14.8,14.7,1.1,183.0,133.0,1.7,3,5,7,1,2026-07-14T11:03:40.164781+05:30
