city,state,latitude,longitude,temp,humidity,rain,pressure,uv_index,wind_gusts,aqi,pm10,pm2_5,mosquito_risk,arthritis_risk,migraine_risk,frizz_risk,updated_at
Delhi,Delhi,28.6139,77.209,24.7,53,0.0,984.6,5.9,23.4,152,242.1,68.0,0,5,3,0,2026-03-17T20:30:55.032795+05:30
Mumbai,Maharashtra,19.076,72.8777,27.4,71,0.0,1009.1,7.7,18.7,113,46.7,19.0,7,0,4,1,2026-03-17T20:30:55.032841+05:30
Bangalore,Karnataka,12.9716,77.5946,22.0,71,0.0,913.1,9.35,42.5,140,52.9,47.1,3,5,7,1,2026-03-17T20:30:55.032857+05:30
Hyderabad,Telangana,17.385,78.4867,24.1,74,0.0,955.1,8.4,19.4,106,38.0,33.1,3,5,7,1,2026-03-17T20:30:55.032866+05:30
Chennai,Tamil Nadu,13.0827,80.2707,27.2,78,0.0,1009.3,9.1,33.1,36,8.6,6.1,7,0,4,1,2026-03-17T20:30:55.032875+05:30
Kolkata,West Bengal,22.5726,88.3639,24.5,84,0.0,1009.1,7.9,53.6,70,17.5,14.8,3,0,4,1,2026-03-17T20:30:55.032884+05:30
Pune,Maharashtra,18.5204,73.8567,24.8,63,0.0,948.6,8.25,36.7,132,50.5,31.8,3,5,7,1,2026-03-17T20:30:55.032896+05:30
Ahmedabad,Gujarat,23.0225,72.5714,30.2,28,0.0,1001.7,7.5,21.2,64,70.3,36.4,0,5,4,0,2026-03-17T20:30:55.032905+05:30
Jaipur,Rajasthan,26.9124,75.7873,26.1,39,0.0,960.6,6.75,38.5,216,165.8,42.3,4,5,7,0,2026-03-17T20:30:55.032914+05:30
Lucknow,Uttar Pradesh,26.8467,80.9462,27.4,40,0.0,993.9,6.65,24.8,101,73.1,37.3,4,5,7,0,2026-03-17T20:30:55.032923+05:30
Kanpur,Uttar Pradesh,26.4499,80.3319,26.2,43,0.0,991.9,6.7,23.8,118,213.7,43.7,4,5,7,0,2026-03-17T20:30:55.032931+05:30
Chandigarh,Chandigarh,30.7333,76.7794,19.4,71,0.0,970.7,5.65,17.3,99,134.6,51.9,3,5,3,0,2026-03-17T20:30:55.032939+05:30
Srinagar,Jammu and Kashmir,34.0837,74.7973,8.1,75,0.0,840.3,7.05,13.7,200,78.2,64.3,3,5,7,0,2026-03-17T20:30:55.032946+05:30
Jammu,Jammu and Kashmir,32.7266,74.857,20.5,57,0.0,975.1,6.7,15.8,79,66.8,41.7,0,5,7,0,2026-03-17T20:30:55.032954+05:30
Amritsar,Punjab,31.634,74.8723,19.7,55,0.0,983.2,6.5,16.9,88,127.1,63.6,0,5,7,0,2026-03-17T20:30:55.032961+05:30
Ludhiana,Punjab,30.901,75.8573,20.3,62,0.0,981.0,6.2,16.2,86,160.2,77.3,3,5,7,0,2026-03-17T20:30:55.032969+05:30
Jalandhar,Punjab,31.326,75.5762,19.3,65,0.0,982.1,6.5,16.9,81,120.1,61.5,3,5,7,0,2026-03-17T20:30:55.032980+05:30
Dehradun,Uttarakhand,30.6284,78.0322,11.7,61,0.0,829.1,4.95,23.8,71,78.9,20.7,3,5,3,0,2026-03-17T20:30:55.032988+05:30
Shimla,Himachal Pradesh,31.1048,77.1734,10.4,74,0.0,783.0,5.45,23.0,77,92.7,28.9,3,5,3,0,2026-03-17T20:30:55.032995+05:30
Manali,Himachal Pradesh,32.2396,77.1887,10.4,49,0.0,819.0,7.35,38.2,111,44.1,13.9,0,5,7,0,2026-03-17T20:30:55.033002+05:30
Gurgaon,Haryana,28.4595,77.0266,22.1,64,0.0,982.9,6.05,22.7,595,579.3,104.1,3,5,7,0,2026-03-17T20:30:55.033008+05:30
Noida,Uttar Pradesh,28.5355,77.391,24.3,55,0.0,986.0,6.0,23.0,595,579.3,104.1,0,5,3,0,2026-03-17T20:30:55.033015+05:30
Ghaziabad,Uttar Pradesh,28.6692,77.4538,23.1,60,0.0,984.2,5.85,20.5,137,104.5,54.4,0,5,3,0,2026-03-17T20:30:55.033022+05:30
Faridabad,Haryana,28.4089,77.3178,22.8,58,0.0,985.1,6.05,21.6,595,579.3,104.1,0,5,7,0,2026-03-17T20:30:55.033029+05:30
Meerut,Uttar Pradesh,28.9845,77.7064,21.5,62,0.0,983.0,5.9,17.3,137,104.5,54.4,3,5,3,0,2026-03-17T20:30:55.033036+05:30
Agra,Uttar Pradesh,27.1767,78.0081,25.6,48,0.0,987.9,6.35,16.6,464,961.1,119.2,4,5,7,0,2026-03-17T20:30:55.033043+05:30
Varanasi,Uttar Pradesh,25.3176,82.9739,27.1,46,0.0,997.8,7.35,20.2,140,61.9,42.4,4,5,7,0,2026-03-17T20:30:55.033054+05:30
Prayagraj,Uttar Pradesh,25.4358,81.8463,26.8,46,0.0,995.9,7.2,20.9,122,52.4,33.4,4,5,7,0,2026-03-17T20:30:55.033063+05:30
Gorakhpur,Uttar Pradesh,26.7606,83.3732,25.0,51,0.0,997.7,7.05,23.4,89,81.3,50.5,4,5,7,0,2026-03-17T20:30:55.033070+05:30
Bareilly,Uttar Pradesh,28.367,79.4304,22.1,58,0.0,988.1,5.4,16.9,97,69.4,42.5,0,5,3,0,2026-03-17T20:30:55.033078+05:30
Aligarh,Uttar Pradesh,27.8974,78.088,23.8,51,0.0,986.4,6.15,16.9,174,182.1,58.0,0,5,7,0,2026-03-17T20:30:55.033084+05:30
Moradabad,Uttar Pradesh,28.8386,78.7733,21.3,60,0.0,985.1,5.45,16.9,119,103.6,56.1,0,5,3,0,2026-03-17T20:30:55.033090+05:30
Saharanpur,Uttar Pradesh,29.9637,77.546,20.7,60,0.0,977.7,4.7,14.8,116,106.2,49.1,0,5,3,0,2026-03-17T20:30:55.033097+05:30
Jhansi,Uttar Pradesh,25.4484,78.5685,27.0,39,0.0,978.1,7.2,24.5,81,47.7,23.5,4,5,7,0,2026-03-17T20:30:58.305360+05:30
Surat,Gujarat,21.1702,72.8311,25.2,86,0.0,1007.0,7.35,29.5,90,49.8,30.5,7,5,4,1,2026-03-17T20:30:58.305391+05:30
Vadodara,Gujarat,22.3072,73.1812,28.7,41,0.0,1004.0,7.5,28.1,87,56.5,36.3,4,5,4,0,2026-03-17T20:30:58.305401+05:30
Rajkot,Gujarat,22.3039,70.8022,30.0,42,0.0,994.3,7.35,24.1,76,38.4,18.0,4,5,7,0,2026-03-17T20:30:58.305409+05:30
Thane,Maharashtra,19.2183,72.9781,26.1,73,0.0,1008.5,7.7,31.3,113,46.7,19.0,7,0,4,1,2026-03-17T20:30:58.305416+05:30
Nagpur,Maharashtra,21.1458,79.0882,29.1,42,0.0,973.8,8.05,19.8,107,31.3,25.7,4,5,7,0,2026-03-17T20:30:58.305468+05:30
Nashik,Maharashtra,19.9975,73.7898,23.9,65,0.0,945.8,7.9,30.6,75,30.2,14.3,3,5,7,1,2026-03-17T20:30:58.305482+05:30
Aurangabad,Maharashtra,19.8762,75.3433,27.9,31,0.0,944.0,8.4,29.5,96,34.0,23.4,4,5,7,0,2026-03-17T20:30:58.305490+05:30
Solapur,Maharashtra,17.6599,75.9064,26.9,48,0.0,957.7,8.6,33.5,158,40.4,37.4,4,5,7,0,2026-03-17T20:30:58.305497+05:30
Kolhapur,Maharashtra,16.705,74.2433,23.7,62,0.0,948.2,8.7,39.2,101,36.4,27.4,3,5,7,0,2026-03-17T20:30:58.305504+05:30
Goa,Goa,15.2993,74.124,27.9,71,0.0,998.8,8.75,33.8,72,57.3,22.6,7,5,7,1,2026-03-17T20:30:58.305510+05:30
Jodhpur,Rajasthan,26.2389,73.0243,28.5,22,0.0,983.0,6.15,30.6,117,142.5,35.6,4,5,7,0,2026-03-17T20:30:58.305518+05:30
Udaipur,Rajasthan,24.5854,73.7125,25.9,25,0.0,946.7,7.85,34.6,76,18.5,9.1,4,5,7,0,2026-03-17T20:30:58.305525+05:30
Kota,Rajasthan,25.2138,75.8648,27.5,30,0.0,978.1,7.25,27.7,71,59.4,30.7,4,5,7,0,2026-03-17T20:30:58.305531+05:30
Bikaner,Rajasthan,28.0229,73.3119,25.9,33,0.0,983.1,6.55,20.9,105,39.8,18.8,4,5,7,0,2026-03-17T20:30:58.305537+05:30
Ajmer,Rajasthan,26.4499,74.6399,27.2,22,0.0,955.0,6.5,37.4,135,85.9,26.2,4,5,7,0,2026-03-17T20:30:58.305544+05:30
Gwalior,Madhya Pradesh,26.2183,78.1828,26.3,61,0.0,983.4,6.9,38.5,98,101.3,32.5,7,5,7,1,2026-03-17T20:30:58.305550+05:30
Indore,Madhya Pradesh,22.7196,75.8577,25.7,39,0.0,948.0,7.75,33.1,88,35.5,26.1,4,5,7,0,2026-03-17T20:30:58.305556+05:30
Bhopal,Madhya Pradesh,23.2599,77.4126,26.1,32,0.0,953.5,7.65,31.3,82,23.9,17.1,4,5,7,0,2026-03-17T20:30:58.305563+05:30
Jabalpur,Madhya Pradesh,23.1815,79.9864,27.8,34,0.0,961.3,7.75,28.4,86,18.1,13.4,4,5,7,0,2026-03-17T20:30:58.305570+05:30
Ujjain,Madhya Pradesh,23.1765,75.7885,25.2,41,0.0,953.7,7.65,27.7,79,30.5,24.0,4,5,7,0,2026-03-17T20:30:58.305577+05:30
Visakhapatnam,Andhra Pradesh,17.6868,83.2185,25.4,79,0.0,1007.4,8.7,36.4,56,15.1,12.7,7,5,4,1,2026-03-17T20:30:58.305584+05:30
Vijayawada,Andhra Pradesh,16.5062,80.648,24.8,79,0.0,1006.2,8.8,27.0,51,13.4,11.9,3,5,4,1,2026-03-17T20:30:58.305590+05:30
Guntur,Andhra Pradesh,16.3067,80.4365,26.5,75,0.0,1006.6,8.8,29.9,47,12.3,10.9,7,5,4,1,2026-03-17T20:30:58.305596+05:30
Nellore,Andhra Pradesh,14.4426,79.9865,26.3,79,0.0,1008.0,8.95,32.4,50,8.7,6.2,7,0,4,1,2026-03-17T20:30:58.305604+05:30
Kurnool,Andhra Pradesh,15.8281,78.0373,27.6,64,0.0,978.4,8.45,26.6,113,46.2,39.2,7,5,7,1,2026-03-17T20:30:58.305611+05:30
Kakinada,Andhra Pradesh,16.9891,82.2475,24.7,81,0.0,1011.0,8.75,31.0,39,9.3,6.9,3,0,4,1,2026-03-17T20:30:58.305618+05:30
Tirupati,Andhra Pradesh,13.6288,79.4192,27.1,67,0.0,993.7,9.1,30.2,86,16.0,15.1,7,5,7,1,2026-03-17T20:30:58.305624+05:30
Warangal,Telangana,17.9689,79.5941,26.8,69,0.0,980.8,8.5,29.9,60,31.0,27.2,7,5,7,1,2026-03-17T20:30:58.305630+05:30
Nizamabad,Telangana,18.6725,78.0941,27.0,53,0.0,965.6,8.45,37.8,129,52.0,45.8,4,5,7,1,2026-03-17T20:30:58.305636+05:30
Mysore,Karnataka,12.2958,76.6396,23.4,78,0.0,929.3,9.35,33.8,145,45.2,41.8,3,5,7,1,2026-03-17T20:30:58.305642+05:30
Mangalore,Karnataka,12.9141,74.856,29.0,76,0.0,1007.3,8.95,19.4,89,32.1,21.0,7,5,4,1,2026-03-17T20:30:58.305649+05:30
Hubli-Dharwad,Karnataka,15.3647,75.124,25.1,61,0.0,941.7,8.7,27.7,132,38.9,34.0,7,5,7,1,2026-03-17T20:30:58.305655+05:30
Belgaum,Karnataka,15.8497,74.4977,23.1,77,0.0,926.4,8.95,38.2,107,34.2,19.8,3,5,7,1,2026-03-17T20:31:01.614173+05:30
Coimbatore,Tamil Nadu,11.0168,76.9558,25.0,76,0.0,963.3,9.3,27.4,110,39.5,37.3,7,5,7,1,2026-03-17T20:31:01.614204+05:30
Madurai,Tamil Nadu,9.9252,78.1198,24.9,82,0.0,995.1,7.55,32.4,51,15.0,13.9,3,5,7,1,2026-03-17T20:31:01.614214+05:30
Trichy,Tamil Nadu,10.7905,78.7047,28.3,71,0.0,1001.2,9.2,22.0,50,12.3,10.7,7,5,4,1,2026-03-17T20:31:01.614223+05:30
Salem,Tamil Nadu,11.6643,78.146,27.6,63,0.0,978.6,9.25,21.2,125,36.8,34.1,7,5,7,1,2026-03-17T20:31:01.614230+05:30
Tirunelveli,Tamil Nadu,8.7139,77.7567,24.2,83,0.0,1005.4,7.05,33.8,78,22.2,21.0,3,5,4,1,2026-03-17T20:31:01.614237+05:30
Vellore,Tamil Nadu,12.9165,79.1325,26.8,65,0.0,986.5,9.15,33.8,72,12.1,10.6,7,5,7,1,2026-03-17T20:31:01.614244+05:30
Erode,Tamil Nadu,11.341,77.7172,27.2,70,0.0,990.5,9.25,25.6,82,21.3,19.6,7,5,7,1,2026-03-17T20:31:01.614251+05:30
Kochi,Kerala,9.9312,76.2673,27.8,81,0.0,1009.9,9.0,30.6,92,43.4,41.8,7,0,4,1,2026-03-17T20:31:01.614257+05:30
Thiruvananthapuram,Kerala,8.5241,76.9366,27.3,83,0.0,1009.4,8.3,23.4,84,18.5,16.4,7,0,4,1,2026-03-17T20:31:01.614264+05:30
Kozhikode,Kerala,11.2588,75.7804,28.6,78,0.0,1008.6,8.95,26.6,110,34.6,27.5,7,0,4,1,2026-03-17T20:31:01.614270+05:30
Thrissur,Kerala,10.5276,76.2144,27.2,84,0.0,1007.9,8.75,33.1,92,39.2,36.8,7,5,4,1,2026-03-17T20:31:01.614277+05:30
Kannur,Kerala,11.8745,75.3704,28.4,77,0.0,1007.8,9.0,25.9,112,34.2,26.4,7,5,4,1,2026-03-17T20:31:01.614284+05:30
Patna,Bihar,25.5941,85.1376,28.5,46,0.0,1001.3,7.45,23.8,147,72.6,52.4,4,5,4,0,2026-03-17T20:31:01.614291+05:30
Gaya,Bihar,24.7914,85.0002,25.6,51,0.0,994.7,7.6,27.7,93,57.3,38.2,4,5,7,0,2026-03-17T20:31:01.614297+05:30
Muzaffarpur,Bihar,26.1209,85.3647,25.9,55,0.0,1001.3,7.45,20.9,153,73.1,54.8,4,5,4,1,2026-03-17T20:31:01.614303+05:30
Bhagalpur,Bihar,25.2425,87.0117,27.5,52,0.0,1002.3,7.5,20.2,133,87.1,64.5,4,5,4,1,2026-03-17T20:31:01.614309+05:30
Ranchi,Jharkhand,23.3441,85.3096,23.3,62,0.0,939.8,8.2,54.7,150,65.2,56.2,3,5,7,0,2026-03-17T20:31:01.614315+05:30
Jamshedpur,Jharkhand,22.8046,86.2029,26.6,58,0.0,993.4,8.15,42.1,150,72.2,59.8,4,5,7,1,2026-03-17T20:31:01.614321+05:30
Dhanbad,Jharkhand,23.7957,86.4304,28.5,46,0.0,981.8,8.0,35.3,148,77.1,69.4,4,5,7,0,2026-03-17T20:31:01.614328+05:30
Bokaro,Jharkhand,23.6693,86.1511,27.4,51,0.0,986.0,8.0,40.7,127,70.8,63.3,4,5,7,1,2026-03-17T20:31:01.614334+05:30
Bhubaneswar,Odisha,20.2961,85.8245,24.9,82,0.0,1005.7,7.95,37.4,55,14.8,12.8,3,5,4,1,2026-03-17T20:31:01.614341+05:30
Cuttack,Odisha,20.4625,85.8828,23.1,87,0.0,1008.4,7.95,36.4,55,14.8,12.8,3,0,4,1,2026-03-17T20:31:01.614347+05:30
Rourkela,Odisha,22.2604,84.8536,25.6,62,0.0,988.0,8.05,65.2,177,64.0,53.6,7,5,7,1,2026-03-17T20:31:01.614354+05:30
Raipur,Chhattisgarh,21.2514,81.6296,27.9,47,0.0,976.0,8.15,36.4,140,53.9,47.1,4,5,7,0,2026-03-17T20:31:01.614360+05:30
Bhilai,Chhattisgarh,21.1938,81.3509,27.1,50,0.0,976.1,8.15,37.4,132,52.7,46.8,4,5,7,0,2026-03-17T20:31:01.614366+05:30
Guwahati,Assam,26.1158,91.7086,22.5,86,0.0,1004.5,7.5,43.2,97,44.7,39.2,3,5,4,1,2026-03-17T20:31:01.614371+05:30
Agartala,Tripura,23.8315,91.2868,25.4,70,0.0,1009.2,7.8,43.6,77,28.6,26.3,7,0,4,1,2026-03-17T20:31:01.614378+05:30
Shillong,Meghalaya,25.5788,91.8933,12.8,73,0.0,856.3,7.9,77.8,90,40.4,35.2,3,5,7,0,2026-03-17T20:31:01.614384+05:30
Imphal,Manipur,24.817,93.9368,16.6,83,0.0,925.2,8.05,91.4,101,43.7,38.2,3,10,7,0,2026-03-17T20:31:01.614391+05:30
Aizawl,Mizoram,23.7271,92.7176,18.2,72,0.0,894.8,8.1,61.9,95,46.9,40.2,3,5,7,0,2026-03-17T20:31:01.614398+05:30
Kohima,Nagaland,25.6701,94.1077,15.0,70,0.0,855.7,7.95,97.6,85,37.0,29.7,3,5,7,0,2026-03-17T20:31:01.614404+05:30
Gangtok,Sikkim,27.3314,88.6138,13.0,79,0.0,837.1,7.7,20.2,89,35.9,22.1,3,5,7,0,2026-03-17T20:31:01.614410+05:30
Siliguri,West Bengal,26.7271,88.3953,20.2,65,0.0,995.3,7.4,41.8,134,63.1,44.2,3,5,7,0,2026-03-17T20:31:04.896983+05:30
Durgapur,West Bengal,23.5204,87.3119,26.1,63,0.0,997.3,8.0,33.1,151,68.0,61.7,7,5,7,1,2026-03-17T20:31:04.897016+05:30
Asansol,West Bengal,23.6739,86.9524,27.2,58,0.0,995.6,8.0,32.8,140,70.1,63.1,4,5,7,1,2026-03-17T20:31:04.897028+05:30
Pondicherry,Puducherry,11.9139,79.8145,25.5,87,0.0,1010.3,8.2,29.5,28,8.7,5.8,7,0,4,1,2026-03-17T20:31:04.897037+05:30
Port Blair,Andaman and Nicobar Islands,11.6234,92.7265,28.2,76,0.0,1009.6,9.0,18.4,53,18.2,15.0,7,0,4,1,2026-03-17T20:31:04.897046+05:30
Haridwar,Uttarakhand,29.9457,78.1642,18.9,70,0.0,976.2,4.35,18.4,91,90.6,39.6,3,5,3,0,2026-03-17T20:31:04.897054+05:30
Rishikesh,Uttarakhand,30.0869,78.2676,17.2,70,0.0,968.9,4.55,19.8,100,74.5,25.3,3,5,3,0,2026-03-17T20:31:04.897063+05:30
Nainital,Uttarakhand,29.3919,79.4542,16.4,44,0.0,806.2,5.6,37.8,97,88.9,31.7,0,5,3,0,2026-03-17T20:31:04.897071+05:30
Mussoorie,Uttarakhand,30.4599,78.0664,12.9,58,0.0,801.9,4.9,29.5,84,99.4,31.5,0,5,3,0,2026-03-17T20:31:04.897079+05:30
Dharamshala,Himachal Pradesh,32.219,76.3234,16.3,34,0.0,869.1,5.2,26.3,96,82.7,23.2,0,5,3,0,2026-03-17T20:31:04.897087+05:30
Dalhousie,Himachal Pradesh,32.5387,75.971,13.3,45,0.0,802.7,5.15,24.1,82,115.0,39.5,0,5,3,0,2026-03-17T20:31:04.897096+05:30
Patiala,Punjab,30.3398,76.3869,19.0,74,0.0,980.3,5.35,16.9,107,187.2,62.9,3,5,3,0,2026-03-17T20:31:04.897103+05:30
Bhatinda,Punjab,30.211,74.9455,19.8,58,0.0,986.0,6.45,19.4,93,149.9,49.1,0,5,7,0,2026-03-17T20:31:04.897111+05:30
Rohtak,Haryana,28.8955,76.6066,20.7,71,0.0,983.5,6.15,20.9,191,349.2,76.4,3,5,7,0,2026-03-17T20:31:04.897119+05:30
Panipat,Haryana,29.3909,76.9635,19.9,66,0.0,982.2,6.0,17.6,175,534.6,95.2,3,5,3,0,2026-03-17T20:31:04.897127+05:30
Mathura,Uttar Pradesh,27.4924,77.6737,24.7,47,0.0,987.4,6.25,19.8,449,521.5,78.5,0,5,7,0,2026-03-17T20:31:04.897134+05:30
Vrindavan,Uttar Pradesh,27.5823,77.7027,24.1,49,0.0,988.0,6.2,19.1,449,521.5,78.5,0,5,7,0,2026-03-17T20:31:04.897142+05:30
Ayodhya,Uttar Pradesh,26.7922,82.1998,25.8,46,0.0,995.9,6.85,33.8,96,93.4,52.2,4,5,7,0,2026-03-17T20:31:04.897150+05:30
Ratlam,Madhya Pradesh,23.3315,75.0367,27.0,32,0.0,954.7,7.55,34.2,88,18.7,14.5,4,5,7,0,2026-03-17T20:31:04.897158+05:30
Sagar,Madhya Pradesh,23.8388,78.7378,26.9,33,0.0,950.2,7.65,30.6,84,14.2,9.1,4,5,7,0,2026-03-17T20:31:04.897165+05:30
Satna,Madhya Pradesh,24.6005,80.8322,29.1,31,0.0,971.2,7.55,28.8,85,18.5,12.3,4,5,7,0,2026-03-17T20:31:04.897173+05:30
Akola,Maharashtra,20.7002,77.0082,29.2,30,0.0,974.8,8.05,24.1,116,32.7,25.8,4,5,7,0,2026-03-17T20:31:04.897181+05:30
Amravati,Maharashtra,20.9374,77.7796,28.8,37,0.0,967.2,8.05,29.2,110,40.4,31.2,4,5,7,0,2026-03-17T20:31:04.897190+05:30
Latur,Maharashtra,18.4088,76.5604,24.0,59,0.0,940.3,8.5,29.9,140,49.0,43.4,0,5,7,0,2026-03-17T20:31:04.897198+05:30
Nanded,Maharashtra,19.1383,77.3091,28.7,41,0.0,969.1,8.3,21.6,128,55.1,48.0,4,5,7,0,2026-03-17T20:31:04.897206+05:30
Gulbarga,Karnataka,17.3297,76.8343,24.8,68,0.0,960.3,8.15,38.5,156,42.1,38.1,3,5,7,1,2026-03-17T20:31:04.897214+05:30
Bidar,Karnataka,17.9104,77.5199,23.2,72,0.0,936.6,8.3,49.0,134,48.3,42.7,3,5,7,1,2026-03-17T20:31:04.897220+05:30
Hospet,Karnataka,15.2689,76.3909,25.4,69,0.0,957.7,8.8,32.8,161,47.5,44.0,7,5,7,1,2026-03-17T20:31:04.897226+05:30
Tirupur,Tamil Nadu,11.1085,77.3411,25.7,74,0.0,976.9,9.3,36.7,98,30.7,28.1,7,5,7,1,2026-03-17T20:31:04.897232+05:30
Alappuzha,Kerala,9.4981,76.3388,27.2,84,0.0,1010.2,9.05,27.4,85,32.5,30.0,7,0,4,1,2026-03-17T20:31:04.897239+05:30
Munnar,Kerala,10.0889,77.0595,20.1,91,0.0,857.5,9.6,31.7,77,25.9,25.0,3,5,7,1,2026-03-17T20:31:04.897246+05:30
Silchar,Assam,24.8333,92.7789,23.1,80,0.0,1007.8,7.9,46.8,87,53.1,45.6,3,5,4,1,2026-03-17T20:31:04.897253+05:30
Dibrugarh,Assam,27.4728,94.912,19.2,91,0.0,999.2,7.45,45.0,101,35.9,29.1,3,10,7,1,2026-03-17T20:31:04.897259+05:30
