city,state,latitude,longitude,temp,humidity,rain,pressure,uv_index,wind_gusts,aqi,pm10,pm2_5,no2,co,o3,so2,mosquito_risk,arthritis_risk,migraine_risk,frizz_risk,updated_at
Delhi,Delhi,28.6139,77.209,33.2,58,0.0,974.4,6.65,37.8,157,343.7,96.6,4.0,507.0,239.0,23.7,0,5,7,1,2026-07-10T13:54:40.045635+05:30
Mumbai,Maharashtra,19.076,72.8777,29.6,75,0.1,1008.0,5.45,46.1,60,33.1,16.4,4.1,140.0,68.0,5.7,10,0,0,1,2026-07-10T13:54:40.045676+05:30
Bangalore,Karnataka,12.9716,77.5946,28.0,57,0.1,912.5,7.7,50.8,37,13.5,7.0,2.2,183.0,77.0,2.4,7,5,7,1,2026-07-10T13:54:40.045691+05:30
Hyderabad,Telangana,17.385,78.4867,31.8,44,0.0,952.2,8.35,44.3,60,32.5,14.3,2.1,183.0,72.0,3.3,0,5,7,1,2026-07-10T13:54:40.045701+05:30
Chennai,Tamil Nadu,13.0827,80.2707,34.7,52,0.0,1005.6,7.35,35.3,67,41.0,26.5,4.7,200.0,134.0,8.6,0,5,4,1,2026-07-10T13:54:40.045709+05:30
Kolkata,West Bengal,22.5726,88.3639,29.1,89,0.0,998.2,8.0,32.4,68,19.2,15.8,4.4,415.0,112.0,9.5,7,5,7,1,2026-07-10T13:54:40.045717+05:30
Pune,Maharashtra,18.5204,73.8567,28.5,66,0.0,947.8,7.85,50.8,29,31.5,12.3,1.6,119.0,67.0,3.8,7,5,7,1,2026-07-10T13:54:40.045724+05:30
Ahmedabad,Gujarat,23.0225,72.5714,34.8,48,0.0,997.5,8.15,43.2,73,62.6,23.4,1.8,123.0,83.0,3.6,0,5,7,1,2026-07-10T13:54:40.045731+05:30
Jaipur,Rajasthan,26.9124,75.7873,34.6,53,0.0,953.2,8.2,37.8,152,138.8,45.9,1.1,140.0,98.0,4.0,0,5,7,1,2026-07-10T13:54:40.045737+05:30
Lucknow,Uttar Pradesh,26.8467,80.9462,29.3,85,0.2,984.9,7.55,38.9,78,89.4,42.0,5.5,188.0,129.0,9.7,10,5,7,1,2026-07-10T13:54:40.045748+05:30
Kanpur,Uttar Pradesh,26.4499,80.3319,33.5,63,0.0,982.9,7.1,42.1,89,173.7,60.5,4.1,158.0,116.0,8.1,3,5,7,1,2026-07-10T13:54:40.045755+05:30
Chandigarh,Chandigarh,30.7333,76.7794,28.0,84,0.0,961.3,0.6,16.2,152,53.3,47.0,2.9,474.0,219.0,17.4,7,5,3,1,2026-07-10T13:54:40.045762+05:30
Srinagar,Jammu and Kashmir,34.0837,74.7973,31.0,38,0.0,837.8,9.05,27.4,84,21.6,17.3,1.3,375.0,169.0,3.8,0,5,7,0,2026-07-10T13:54:40.045769+05:30
Jammu,Jammu and Kashmir,32.7266,74.857,35.5,50,0.0,964.3,8.55,44.6,158,103.1,71.7,1.8,430.0,201.0,8.7,0,5,10,1,2026-07-10T13:54:40.045778+05:30
Amritsar,Punjab,31.634,74.8723,33.9,63,0.0,972.1,8.4,34.2,160,126.7,64.0,2.1,407.0,183.0,10.3,3,5,7,1,2026-07-10T13:54:40.045785+05:30
Ludhiana,Punjab,30.901,75.8573,32.7,61,0.0,970.9,7.85,24.8,161,117.1,62.2,2.1,403.0,185.0,8.3,3,5,7,1,2026-07-10T13:54:40.045793+05:30
Jalandhar,Punjab,31.326,75.5762,33.0,63,0.0,971.6,8.2,24.1,162,110.1,70.3,2.4,392.0,195.0,9.0,3,5,7,1,2026-07-10T13:54:40.045799+05:30
Dehradun,Uttarakhand,30.6284,78.0322,20.1,96,0.5,826.0,2.15,26.6,61,7.0,6.7,0.1,191.0,121.0,1.2,6,5,3,1,2026-07-10T13:54:40.045806+05:30
Shimla,Himachal Pradesh,31.1048,77.1734,16.8,97,0.3,780.8,1.2,16.2,63,41.7,35.5,1.5,265.0,162.0,7.3,6,10,3,1,2026-07-10T13:54:40.045812+05:30
Manali,Himachal Pradesh,32.2396,77.1887,22.3,94,0.0,816.1,8.25,31.0,34,9.8,9.4,2.5,211.0,145.0,1.2,3,5,7,1,2026-07-10T13:54:40.045820+05:30
Gurgaon,Haryana,28.4595,77.0266,34.0,61,0.0,972.9,7.45,41.4,166,730.2,145.3,3.7,347.0,200.0,17.5,3,5,7,1,2026-07-10T13:54:40.045828+05:30
Noida,Uttar Pradesh,28.5355,77.391,33.8,55,0.0,975.7,6.8,40.0,166,730.2,145.3,3.7,493.0,200.0,17.5,0,5,7,1,2026-07-10T13:54:40.045834+05:30
Ghaziabad,Uttar Pradesh,28.6692,77.4538,32.5,61,0.0,974.0,6.45,35.3,147,125.7,67.8,4.8,331.0,259.0,28.8,3,5,7,1,2026-07-10T13:54:40.045841+05:30
Faridabad,Haryana,28.4089,77.3178,33.4,59,0.0,974.9,7.1,43.6,166,730.2,145.3,3.7,437.0,200.0,17.5,0,5,7,1,2026-07-10T13:54:40.045847+05:30
Meerut,Uttar Pradesh,28.9845,77.7064,31.3,68,0.0,972.8,3.2,36.7,147,125.7,67.8,4.8,343.0,259.0,28.8,3,5,3,1,2026-07-10T13:54:40.045853+05:30
Agra,Uttar Pradesh,27.1767,78.0081,28.6,92,0.3,979.9,7.85,54.0,166,670.6,114.1,2.4,165.0,116.0,4.8,10,5,7,1,2026-07-10T13:54:40.045860+05:30
Varanasi,Uttar Pradesh,25.3176,82.9739,31.3,71,0.0,989.7,7.5,42.8,75,75.0,39.1,3.0,264.0,116.0,8.6,3,5,7,1,2026-07-10T13:54:40.045866+05:30
Prayagraj,Uttar Pradesh,25.4358,81.8463,31.0,74,0.0,988.2,8.3,36.0,80,92.4,47.1,2.9,165.0,114.0,8.6,3,5,7,1,2026-07-10T13:54:40.045873+05:30
Gorakhpur,Uttar Pradesh,26.7606,83.3732,28.6,89,0.2,989.1,7.0,25.2,87,15.1,14.7,2.6,277.0,130.0,5.5,10,5,7,1,2026-07-10T13:54:40.045879+05:30
Bareilly,Uttar Pradesh,28.367,79.4304,29.6,84,0.2,977.2,6.95,35.6,79,80.1,34.1,4.8,327.0,141.0,9.1,10,5,7,1,2026-07-10T13:54:40.045887+05:30
Aligarh,Uttar Pradesh,27.8974,78.088,33.3,65,0.0,976.4,7.35,49.3,154,756.2,150.4,3.6,307.0,205.0,17.1,3,5,7,1,2026-07-10T13:54:40.045893+05:30
Moradabad,Uttar Pradesh,28.8386,78.7733,31.1,77,0.0,974.2,3.95,36.7,77,48.4,25.8,5.2,348.0,158.0,18.3,3,5,3,1,2026-07-10T13:54:40.045899+05:30
Saharanpur,Uttar Pradesh,29.9637,77.546,25.9,92,0.6,968.0,2.15,32.4,95,24.8,23.1,2.4,302.0,174.0,12.5,10,5,3,1,2026-07-10T13:54:40.045905+05:30
Jhansi,Uttar Pradesh,25.4484,78.5685,34.6,58,0.0,970.8,8.45,44.3,103,91.0,40.2,2.2,138.0,110.0,8.6,0,5,7,1,2026-07-10T13:54:43.429510+05:30
Surat,Gujarat,21.1702,72.8311,31.5,70,0.0,1004.3,7.0,58.0,66,46.7,22.8,7.6,242.0,49.0,26.3,3,5,4,1,2026-07-10T13:54:43.429543+05:30
Vadodara,Gujarat,22.3072,73.1812,33.3,57,0.0,1000.6,6.9,49.7,67,54.1,21.1,1.6,133.0,80.0,3.3,0,5,4,1,2026-07-10T13:54:43.429554+05:30
Rajkot,Gujarat,22.3039,70.8022,35.1,48,0.0,990.1,7.7,55.8,63,58.7,22.5,1.0,100.0,78.0,3.6,0,5,10,1,2026-07-10T13:54:43.429563+05:30
Thane,Maharashtra,19.2183,72.9781,30.8,70,0.0,1007.1,5.45,38.5,60,33.1,16.4,4.1,136.0,68.0,5.7,3,5,0,1,2026-07-10T13:54:43.429572+05:30
Nagpur,Maharashtra,21.1458,79.0882,32.5,54,0.1,969.3,7.3,46.1,77,64.3,26.3,4.9,132.0,82.0,15.2,3,5,7,1,2026-07-10T13:54:43.429580+05:30
Nashik,Maharashtra,19.9975,73.7898,29.3,60,0.0,944.5,7.95,55.4,34,37.7,14.6,0.9,104.0,59.0,1.4,4,5,7,1,2026-07-10T13:54:43.429588+05:30
Aurangabad,Maharashtra,19.8762,75.3433,31.2,48,0.0,942.6,8.9,54.0,47,45.4,16.8,1.1,111.0,85.0,4.5,0,5,7,1,2026-07-10T13:54:43.429595+05:30
Solapur,Maharashtra,17.6599,75.9064,31.9,52,0.0,956.4,6.9,40.0,46,34.9,12.3,1.1,111.0,71.0,1.8,0,5,7,1,2026-07-10T13:54:43.429602+05:30
Kolhapur,Maharashtra,16.705,74.2433,28.3,66,0.0,948.5,7.7,49.7,36,26.6,11.0,1.5,112.0,59.0,1.8,7,5,7,1,2026-07-10T13:54:43.429610+05:30
Goa,Goa,15.2993,74.124,30.1,74,0.0,999.2,7.9,37.1,60,25.8,11.9,0.7,100.0,52.0,1.3,3,5,7,1,2026-07-10T13:54:43.429617+05:30
Jodhpur,Rajasthan,26.2389,73.0243,34.6,48,0.0,976.4,7.95,47.9,178,287.8,57.2,0.8,109.0,84.0,2.7,0,5,7,1,2026-07-10T13:54:43.429624+05:30
Udaipur,Rajasthan,24.5854,73.7125,30.7,57,0.0,942.1,8.7,48.2,80,70.8,25.7,1.0,109.0,78.0,3.2,0,5,7,1,2026-07-10T13:54:43.429631+05:30
Kota,Rajasthan,25.2138,75.8648,35.2,48,0.0,972.6,8.3,37.8,101,95.5,33.8,1.0,125.0,102.0,5.4,0,5,10,1,2026-07-10T13:54:43.429638+05:30
Bikaner,Rajasthan,28.0229,73.3119,37.7,40,0.0,973.5,8.45,38.2,154,168.6,59.0,0.5,116.0,89.0,3.9,0,5,10,1,2026-07-10T13:54:43.429645+05:30
Ajmer,Rajasthan,26.4499,74.6399,32.5,55,0.0,948.8,8.4,50.4,101,103.1,35.6,0.8,121.0,91.0,3.2,0,5,7,1,2026-07-10T13:54:43.429652+05:30
Gwalior,Madhya Pradesh,26.2183,78.1828,34.6,58,0.0,975.1,8.1,46.4,94,118.7,45.2,1.0,135.0,107.0,3.7,0,5,7,1,2026-07-10T13:54:43.429659+05:30
Indore,Madhya Pradesh,22.7196,75.8577,30.6,56,0.0,944.8,7.7,55.1,78,64.5,24.9,1.4,155.0,88.0,3.8,0,5,7,1,2026-07-10T13:54:43.429666+05:30
Bhopal,Madhya Pradesh,23.2599,77.4126,30.7,63,0.0,949.4,7.95,52.6,85,67.8,25.3,1.0,149.0,88.0,4.1,3,5,7,1,2026-07-10T13:54:43.429673+05:30
Jabalpur,Madhya Pradesh,23.1815,79.9864,30.4,70,0.2,956.3,6.4,42.5,85,58.1,27.8,2.1,152.0,91.0,6.5,6,5,7,1,2026-07-10T13:54:43.429680+05:30
Ujjain,Madhya Pradesh,23.1765,75.7885,30.8,57,0.0,950.1,7.85,56.2,79,66.4,25.0,0.9,132.0,87.0,3.7,0,5,7,1,2026-07-10T13:54:43.429688+05:30
Visakhapatnam,Andhra Pradesh,17.6868,83.2185,30.6,77,0.1,1000.2,8.65,52.6,77,43.9,29.2,6.5,311.0,132.0,23.6,6,5,4,1,2026-07-10T13:54:43.429695+05:30
Vijayawada,Andhra Pradesh,16.5062,80.648,35.9,43,0.0,999.9,7.15,43.2,68,56.7,24.1,1.4,128.0,92.0,4.7,0,5,10,1,2026-07-10T13:54:43.429702+05:30
Guntur,Andhra Pradesh,16.3067,80.4365,37.1,37,0.0,1001.1,7.15,43.9,71,53.9,21.9,1.2,127.0,86.0,4.0,0,5,7,1,2026-07-10T13:54:43.429709+05:30
Nellore,Andhra Pradesh,14.4426,79.9865,35.2,44,0.0,1004.0,5.2,45.4,56,39.9,17.8,2.2,108.0,88.0,5.2,0,5,3,1,2026-07-10T13:54:43.429717+05:30
Kurnool,Andhra Pradesh,15.8281,78.0373,33.8,44,0.0,976.0,8.1,43.9,53,34.3,13.8,1.8,111.0,70.0,4.6,0,5,7,1,2026-07-10T13:54:43.429724+05:30
Kakinada,Andhra Pradesh,16.9891,82.2475,32.3,67,0.0,1004.5,7.8,46.1,64,39.1,25.4,2.4,170.0,116.0,4.0,3,5,4,1,2026-07-10T13:54:43.429731+05:30
Tirupati,Andhra Pradesh,13.6288,79.4192,36.2,38,0.0,989.5,6.1,41.0,55,36.7,13.5,0.4,100.0,75.0,1.3,0,5,10,1,2026-07-10T13:54:43.429738+05:30
Warangal,Telangana,17.9689,79.5941,32.6,52,0.0,976.6,8.45,41.0,73,48.3,19.2,1.1,126.0,81.0,2.7,0,5,7,1,2026-07-10T13:54:43.429744+05:30
Nizamabad,Telangana,18.6725,78.0941,31.8,52,0.0,963.1,8.5,42.5,69,44.4,17.6,1.2,117.0,80.0,5.3,0,5,7,1,2026-07-10T13:54:43.429751+05:30
Mysore,Karnataka,12.2958,76.6396,28.0,67,0.2,929.4,7.45,45.4,28,10.2,4.9,1.4,123.0,68.0,1.4,10,5,7,1,2026-07-10T13:54:43.429758+05:30
Mangalore,Karnataka,12.9141,74.856,28.5,75,0.1,1008.7,8.2,35.6,59,24.4,11.2,0.8,98.0,55.0,1.4,10,0,4,1,2026-07-10T13:54:43.429765+05:30
Hubli-Dharwad,Karnataka,15.3647,75.124,29.8,58,0.1,941.4,8.2,53.3,28,19.3,8.0,1.0,103.0,59.0,1.2,7,5,7,1,2026-07-10T13:54:43.429772+05:30
Belgaum,Karnataka,15.8497,74.4977,27.4,67,0.0,926.6,8.3,47.2,28,21.0,8.4,1.1,97.0,53.0,1.3,7,5,7,1,2026-07-10T13:54:46.827554+05:30
Coimbatore,Tamil Nadu,11.0168,76.9558,30.6,59,0.0,962.4,8.35,47.5,36,13.0,6.9,1.4,126.0,74.0,1.9,0,5,7,1,2026-07-10T13:54:46.827585+05:30
Madurai,Tamil Nadu,9.9252,78.1198,35.7,42,0.1,992.5,8.75,39.6,56,23.4,11.9,1.7,141.0,93.0,2.4,3,5,10,1,2026-07-10T13:54:46.827596+05:30
Trichy,Tamil Nadu,10.7905,78.7047,36.0,40,0.2,998.5,6.95,53.6,43,19.8,9.8,1.0,111.0,84.0,1.8,3,5,10,1,2026-07-10T13:54:46.827605+05:30
Salem,Tamil Nadu,11.6643,78.146,32.6,58,0.1,977.0,8.5,31.0,61,27.4,15.2,2.1,157.0,110.0,6.4,3,5,7,1,2026-07-10T13:54:46.827614+05:30
Tirunelveli,Tamil Nadu,8.7139,77.7567,36.1,41,0.0,1003.3,8.55,42.5,36,12.2,6.4,1.0,103.0,73.0,1.2,0,5,7,1,2026-07-10T13:54:46.827623+05:30
Vellore,Tamil Nadu,12.9165,79.1325,36.8,37,0.0,982.9,7.95,38.9,65,29.5,13.6,0.9,129.0,98.0,2.5,0,5,10,1,2026-07-10T13:54:46.827631+05:30
Erode,Tamil Nadu,11.341,77.7172,36.2,40,0.0,988.2,8.25,39.6,51,20.5,11.0,1.6,135.0,97.0,2.1,0,5,10,1,2026-07-10T13:54:46.827638+05:30
Kochi,Kerala,9.9312,76.2673,27.6,82,0.0,1011.1,8.4,31.7,53,17.5,9.3,1.9,125.0,68.0,2.3,7,0,4,1,2026-07-10T13:54:46.827645+05:30
Thiruvananthapuram,Kerala,8.5241,76.9366,28.2,78,0.0,1010.3,7.35,41.4,50,19.6,11.0,1.7,106.0,79.0,1.4,7,0,4,1,2026-07-10T13:54:46.827653+05:30
Kozhikode,Kerala,11.2588,75.7804,28.5,79,0.0,1010.0,7.9,34.6,45,20.7,9.1,0.5,115.0,60.0,1.0,7,0,4,1,2026-07-10T13:54:46.827660+05:30
Thrissur,Kerala,10.5276,76.2144,28.9,80,0.1,1009.3,8.05,34.6,52,15.0,8.1,1.2,100.0,64.0,1.5,10,0,4,1,2026-07-10T13:54:46.827667+05:30
Kannur,Kerala,11.8745,75.3704,29.1,75,0.0,1009.2,8.15,33.8,53,17.7,8.2,0.8,101.0,58.0,1.0,7,0,4,1,2026-07-10T13:54:46.827674+05:30
Patna,Bihar,25.5941,85.1376,29.6,90,0.2,992.1,8.05,31.3,84,12.6,12.0,4.7,307.0,124.0,9.1,10,5,7,1,2026-07-10T13:54:46.827681+05:30
Gaya,Bihar,24.7914,85.0002,30.9,79,0.0,985.9,5.75,36.7,68,11.5,10.2,2.1,249.0,118.0,5.5,3,5,3,1,2026-07-10T13:54:46.827688+05:30
Muzaffarpur,Bihar,26.1209,85.3647,28.7,90,0.4,992.0,8.05,30.2,99,19.3,19.1,3.9,288.0,158.0,13.9,10,5,7,1,2026-07-10T13:54:46.827695+05:30
Bhagalpur,Bihar,25.2425,87.0117,32.0,75,0.0,992.2,8.15,24.8,105,29.0,28.6,5.6,245.0,164.0,29.0,3,5,7,1,2026-07-10T13:54:46.827702+05:30
Ranchi,Jharkhand,23.3441,85.3096,29.5,63,0.0,931.6,7.4,41.8,63,28.3,17.9,4.3,186.0,90.0,4.7,7,5,7,1,2026-07-10T13:54:46.827709+05:30
Jamshedpur,Jharkhand,22.8046,86.2029,31.4,74,0.0,983.5,8.6,40.7,69,23.9,18.3,4.7,210.0,120.0,15.1,3,5,7,1,2026-07-10T13:54:46.827716+05:30
Dhanbad,Jharkhand,23.7957,86.4304,29.2,85,0.1,972.1,8.0,32.8,101,25.6,24.0,13.7,218.0,115.0,48.6,10,5,7,1,2026-07-10T13:54:46.827723+05:30
Bokaro,Jharkhand,23.6693,86.1511,31.0,75,0.0,976.0,7.55,36.0,82,14.6,13.0,14.1,215.0,91.0,41.7,3,5,7,1,2026-07-10T13:54:46.827730+05:30
Bhubaneswar,Odisha,20.2961,85.8245,28.2,88,0.4,997.9,7.55,35.3,73,26.8,20.5,3.4,262.0,115.0,5.9,10,5,7,1,2026-07-10T13:54:46.827738+05:30
Cuttack,Odisha,20.4625,85.8828,27.9,94,0.5,999.3,8.05,37.1,73,26.8,20.5,3.4,238.0,115.0,5.9,10,5,7,1,2026-07-10T13:54:46.827745+05:30
Rourkela,Odisha,22.2604,84.8536,28.1,88,0.0,979.2,7.4,37.1,83,39.3,31.9,10.9,240.0,79.0,17.7,7,5,7,1,2026-07-10T13:54:46.827752+05:30
Raipur,Chhattisgarh,21.2514,81.6296,33.7,52,0.0,969.6,8.6,42.5,97,86.8,39.0,10.8,117.0,98.0,34.0,0,5,7,1,2026-07-10T13:54:46.827758+05:30
Bhilai,Chhattisgarh,21.1938,81.3509,33.3,53,0.0,970.3,8.6,42.1,96,82.2,35.5,9.3,306.0,94.0,27.4,0,5,7,1,2026-07-10T13:54:46.827765+05:30
Guwahati,Assam,26.1158,91.7086,28.9,95,0.0,992.7,6.9,17.3,54,10.7,10.1,1.1,243.0,109.0,2.7,7,5,7,1,2026-07-10T13:54:46.827772+05:30
Agartala,Tripura,23.8315,91.2868,30.3,81,0.3,998.3,8.0,55.4,45,11.3,10.8,3.7,186.0,89.0,2.0,6,5,7,1,2026-07-10T13:54:46.827779+05:30
Shillong,Meghalaya,25.5788,91.8933,24.2,80,0.1,852.4,3.65,42.8,35,5.8,5.3,1.2,163.0,97.0,1.9,6,5,3,1,2026-07-10T13:54:46.827786+05:30
Imphal,Manipur,24.817,93.9368,28.4,68,0.0,917.6,4.05,30.2,41,3.1,2.2,1.1,130.0,70.0,1.3,7,5,3,1,2026-07-10T13:54:46.827794+05:30
Aizawl,Mizoram,23.7271,92.7176,23.8,78,0.1,888.0,3.25,51.8,29,3.6,2.3,0.6,114.0,72.0,1.1,6,5,3,1,2026-07-10T13:54:46.827801+05:30
Kohima,Nagaland,25.6701,94.1077,23.4,90,0.1,850.6,4.4,23.8,33,2.2,2.0,0.7,127.0,79.0,1.0,6,5,3,1,2026-07-10T13:54:46.827808+05:30
Gangtok,Sikkim,27.3314,88.6138,21.4,91,0.1,833.7,5.5,30.6,45,4.0,3.9,2.4,193.0,107.0,2.2,6,5,3,1,2026-07-10T13:54:46.827814+05:30
Siliguri,West Bengal,26.7271,88.3953,26.7,95,0.3,985.2,8.4,37.1,69,14.6,14.3,2.3,336.0,126.0,3.3,10,5,7,1,2026-07-10T13:54:50.226554+05:30
Durgapur,West Bengal,23.5204,87.3119,31.3,75,0.0,986.9,6.75,34.6,91,37.8,35.9,11.9,512.0,164.0,54.0,3,5,7,1,2026-07-10T13:54:50.226598+05:30
Asansol,West Bengal,23.6739,86.9524,30.8,77,0.0,985.5,7.15,41.8,86,33.8,31.8,11.1,219.0,143.0,45.6,3,5,7,1,2026-07-10T13:54:50.226613+05:30
Pondicherry,Puducherry,11.9139,79.8145,32.8,68,0.0,1006.9,5.85,39.2,65,35.4,24.2,3.3,200.0,137.0,11.0,3,5,0,1,2026-07-10T13:54:50.226623+05:30
Port Blair,Andaman and Nicobar Islands,11.6234,92.7265,30.9,69,0.0,1006.7,8.75,45.7,51,13.3,7.2,0.2,87.0,42.0,0.4,3,5,4,1,2026-07-10T13:54:50.226633+05:30
Haridwar,Uttarakhand,29.9457,78.1642,30.0,72,0.0,966.1,2.9,22.7,65,8.1,8.0,1.1,247.0,143.0,2.6,7,5,3,1,2026-07-10T13:54:50.226642+05:30
Rishikesh,Uttarakhand,30.0869,78.2676,28.3,75,0.0,959.0,3.1,20.9,50,5.9,5.9,1.9,239.0,104.0,0.9,7,5,3,1,2026-07-10T13:54:50.226651+05:30
Nainital,Uttarakhand,29.3919,79.4542,19.5,98,0.2,801.0,1.8,35.6,46,4.0,3.8,3.2,240.0,105.0,1.8,6,10,3,1,2026-07-10T13:54:50.226661+05:30
Mussoorie,Uttarakhand,30.4599,78.0664,18.8,92,0.1,798.9,1.55,32.4,67,8.6,8.6,0.7,200.0,136.0,3.4,6,10,3,1,2026-07-10T13:54:50.226670+05:30
Dharamshala,Himachal Pradesh,32.219,76.3234,24.0,85,0.0,864.5,8.35,32.8,83,23.9,20.8,0.9,303.0,156.0,2.0,3,5,7,1,2026-07-10T13:54:50.226679+05:30
Dalhousie,Himachal Pradesh,32.5387,75.971,19.9,96,0.0,801.6,8.3,29.2,151,62.9,53.8,1.8,368.0,194.0,6.0,3,10,7,1,2026-07-10T13:54:50.226689+05:30
Patiala,Punjab,30.3398,76.3869,31.8,64,0.0,970.5,7.55,22.0,155,122.0,49.7,2.2,285.0,183.0,11.0,3,5,7,1,2026-07-10T13:54:50.226698+05:30
Bhatinda,Punjab,30.211,74.9455,36.2,52,0.1,975.0,8.2,23.4,168,327.8,99.9,2.4,303.0,160.0,11.8,3,5,10,1,2026-07-10T13:54:50.226706+05:30
Rohtak,Haryana,28.8955,76.6066,33.6,60,0.0,973.6,7.0,33.1,160,700.4,128.1,1.0,301.0,162.0,7.6,0,5,7,1,2026-07-10T13:54:50.226715+05:30
Panipat,Haryana,29.3909,76.9635,31.4,65,0.0,972.4,3.35,25.9,163,1266.6,179.7,3.9,275.0,207.0,24.6,3,5,3,1,2026-07-10T13:54:50.226723+05:30
Mathura,Uttar Pradesh,27.4924,77.6737,31.8,73,0.1,978.4,7.95,48.6,597,979.8,162.5,1.5,221.0,111.0,4.4,6,5,7,1,2026-07-10T13:54:50.226732+05:30
Vrindavan,Uttar Pradesh,27.5823,77.7027,31.5,76,0.1,978.6,7.85,45.4,597,979.8,162.5,1.5,237.0,111.0,4.4,6,5,7,1,2026-07-10T13:54:50.226741+05:30
Ayodhya,Uttar Pradesh,26.7922,82.1998,30.8,77,0.0,987.0,6.8,24.1,84,17.3,13.3,3.4,233.0,119.0,3.9,3,5,7,1,2026-07-10T13:54:50.226749+05:30
Ratlam,Madhya Pradesh,23.3315,75.0367,30.8,56,0.0,951.3,8.5,50.8,77,62.2,23.6,1.0,116.0,86.0,3.9,0,5,7,1,2026-07-10T13:54:50.226758+05:30
Sagar,Madhya Pradesh,23.8388,78.7378,27.0,89,0.1,945.2,8.65,48.2,89,57.0,26.4,1.2,139.0,97.0,5.3,10,5,7,1,2026-07-10T13:54:50.226768+05:30
Satna,Madhya Pradesh,24.6005,80.8322,31.7,65,0.0,964.7,8.7,35.6,79,85.0,37.6,1.4,155.0,108.0,5.2,3,5,7,1,2026-07-10T13:54:50.226775+05:30
Akola,Maharashtra,20.7002,77.0082,32.5,54,0.0,972.4,8.5,49.7,61,50.8,18.7,1.4,110.0,84.0,6.0,0,5,7,1,2026-07-10T13:54:50.226783+05:30
Amravati,Maharashtra,20.9374,77.7796,32.2,52,0.0,964.2,5.85,51.5,63,57.2,20.7,1.5,115.0,86.0,6.6,0,5,3,1,2026-07-10T13:54:50.226791+05:30
Latur,Maharashtra,18.4088,76.5604,31.0,51,0.1,938.9,8.55,42.8,51,38.1,13.0,1.0,110.0,68.0,2.0,3,5,7,1,2026-07-10T13:54:50.226798+05:30
Nanded,Maharashtra,19.1383,77.3091,32.2,52,0.0,966.7,8.25,40.7,62,44.8,16.0,0.9,116.0,75.0,3.1,0,5,7,1,2026-07-10T13:54:50.226805+05:30
Gulbarga,Karnataka,17.3297,76.8343,32.2,49,0.0,957.9,6.9,41.8,51,36.8,12.7,1.3,108.0,72.0,2.1,0,5,7,1,2026-07-10T13:54:50.226811+05:30
Bidar,Karnataka,17.9104,77.5199,30.9,51,0.0,934.8,8.65,43.2,57,37.1,13.6,1.3,116.0,72.0,1.8,0,5,7,1,2026-07-10T13:54:50.226818+05:30
Hospet,Karnataka,15.2689,76.3909,32.4,47,0.1,955.5,6.65,44.6,33,22.8,8.5,1.3,107.0,66.0,1.8,3,5,7,1,2026-07-10T13:54:50.226825+05:30
Tirupur,Tamil Nadu,11.1085,77.3411,32.3,52,0.0,975.6,8.5,45.7,54,19.3,10.7,1.6,131.0,94.0,2.5,0,5,7,1,2026-07-10T13:54:50.226832+05:30
Alappuzha,Kerala,9.4981,76.3388,28.6,76,0.0,1011.0,8.35,34.9,51,20.3,11.8,2.2,90.0,82.0,3.0,7,0,4,1,2026-07-10T13:54:50.226839+05:30
Munnar,Kerala,10.0889,77.0595,19.8,87,0.2,858.9,8.2,37.4,26,11.5,5.0,0.9,90.0,57.0,1.0,6,10,7,1,2026-07-10T13:54:50.226846+05:30
Silchar,Assam,24.8333,92.7789,31.5,76,0.0,997.5,3.75,31.0,37,5.9,5.1,1.5,159.0,78.0,2.4,3,5,3,1,2026-07-10T13:54:50.226853+05:30
Dibrugarh,Assam,27.4728,94.912,31.0,77,0.0,986.8,4.9,29.9,65,10.3,9.5,1.2,178.0,113.0,1.9,3,5,3,1,2026-07-10T13:54:50.226859+05:30
