city,state,latitude,longitude,temp,humidity,rain,pressure,uv_index,wind_gusts,aqi,pm10,pm2_5,no2,co,o3,so2,mosquito_risk,arthritis_risk,migraine_risk,frizz_risk,updated_at
Delhi,Delhi,28.6139,77.209,26.2,92,0.0,974.9,6.45,36.0,84,20.1,20.1,16.6,288.0,71.0,17.8,7,5,7,1,2026-07-24T03:36:16.453966+05:30
Mumbai,Maharashtra,19.076,72.8777,27.6,83,0.1,1002.0,7.75,64.4,57,27.0,12.1,2.5,94.0,41.0,2.3,10,5,4,1,2026-07-24T03:36:16.454009+05:30
Bangalore,Karnataka,12.9716,77.5946,20.0,97,0.0,910.1,8.45,51.1,35,21.0,9.7,7.9,149.0,28.0,3.9,3,5,7,1,2026-07-24T03:36:16.454024+05:30
Hyderabad,Telangana,17.385,78.4867,24.3,77,0.0,949.2,5.95,62.3,63,48.1,26.0,5.4,136.0,46.0,3.6,3,5,3,1,2026-07-24T03:36:16.454033+05:30
Chennai,Tamil Nadu,13.0827,80.2707,25.7,93,0.0,1005.5,7.2,43.9,71,23.2,17.3,15.9,239.0,54.0,13.3,7,5,4,1,2026-07-24T03:36:16.454041+05:30
Kolkata,West Bengal,22.5726,88.3639,26.0,95,0.1,999.8,7.8,31.3,68,22.2,18.1,9.0,233.0,64.0,8.3,10,5,7,1,2026-07-24T03:36:16.454049+05:30
Pune,Maharashtra,18.5204,73.8567,22.4,92,0.2,942.0,7.1,67.3,35,3.3,1.8,2.4,95.0,38.0,2.0,6,5,7,1,2026-07-24T03:36:16.454057+05:30
Ahmedabad,Gujarat,23.0225,72.5714,25.4,98,0.1,991.0,4.7,58.3,60,17.9,8.6,5.5,111.0,41.0,3.1,10,5,3,1,2026-07-24T03:36:16.454064+05:30
Jaipur,Rajasthan,26.9124,75.7873,25.3,94,0.0,950.4,6.55,28.4,63,15.0,15.0,11.3,292.0,78.0,7.0,7,5,7,1,2026-07-24T03:36:16.454070+05:30
Lucknow,Uttar Pradesh,26.8467,80.9462,25.4,97,0.2,986.8,4.6,26.3,66,13.0,13.0,9.9,255.0,70.0,7.8,10,5,3,1,2026-07-24T03:36:16.454081+05:30
Kanpur,Uttar Pradesh,26.4499,80.3319,25.0,98,0.1,984.5,7.2,27.4,63,10.3,10.2,12.0,228.0,51.0,6.0,10,5,7,1,2026-07-24T03:36:16.454088+05:30
Chandigarh,Chandigarh,30.7333,76.7794,27.3,80,0.0,962.7,7.65,28.1,85,38.4,38.3,34.5,253.0,24.0,6.3,7,5,7,1,2026-07-24T03:36:16.454095+05:30
Srinagar,Jammu and Kashmir,34.0837,74.7973,17.7,91,0.0,838.4,6.05,22.3,69,32.4,32.2,30.0,186.0,5.0,1.2,3,10,7,1,2026-07-24T03:36:16.454103+05:30
Jammu,Jammu and Kashmir,32.7266,74.857,23.9,91,0.3,966.3,8.0,28.1,80,46.2,45.5,49.8,201.0,0.0,3.8,6,5,7,1,2026-07-24T03:36:16.454110+05:30
Amritsar,Punjab,31.634,74.8723,25.3,93,0.4,974.3,8.05,30.2,101,59.4,57.9,41.3,424.0,14.0,7.1,10,5,7,1,2026-07-24T03:36:16.454116+05:30
Ludhiana,Punjab,30.901,75.8573,27.5,86,0.0,971.6,7.85,36.7,137,54.2,53.9,30.4,559.0,46.0,13.3,7,5,7,1,2026-07-24T03:36:16.454123+05:30
Jalandhar,Punjab,31.326,75.5762,26.4,93,0.0,972.6,7.95,28.8,118,65.4,65.0,44.2,471.0,22.0,11.8,7,5,7,1,2026-07-24T03:36:16.454129+05:30
Dehradun,Uttarakhand,30.6284,78.0322,17.3,99,0.0,825.9,7.25,27.4,48,5.9,5.8,15.4,168.0,35.0,0.5,3,10,7,1,2026-07-24T03:36:16.454135+05:30
Shimla,Himachal Pradesh,31.1048,77.1734,13.6,98,0.0,779.2,7.0,24.8,51,6.3,6.2,12.0,294.0,50.0,0.6,3,10,7,0,2026-07-24T03:36:16.454144+05:30
Manali,Himachal Pradesh,32.2396,77.1887,19.5,82,0.0,815.1,9.25,30.2,16,1.6,1.6,17.0,216.0,24.0,0.3,3,10,7,1,2026-07-24T03:36:16.454152+05:30
Gurgaon,Haryana,28.4595,77.0266,26.0,95,0.0,973.2,6.6,37.1,95,20.8,20.7,14.8,296.0,73.0,15.4,7,5,7,1,2026-07-24T03:36:16.454161+05:30
Noida,Uttar Pradesh,28.5355,77.391,26.3,92,0.0,976.4,6.25,38.9,95,20.8,20.7,14.8,280.0,73.0,15.4,7,5,7,1,2026-07-24T03:36:16.454167+05:30
Ghaziabad,Uttar Pradesh,28.6692,77.4538,26.3,91,0.0,974.7,6.0,43.9,71,17.9,17.9,11.4,294.0,75.0,9.8,7,5,3,1,2026-07-24T03:36:16.454173+05:30
Faridabad,Haryana,28.4089,77.3178,26.2,93,0.0,975.6,6.6,42.8,95,20.8,20.7,14.8,276.0,73.0,15.4,7,5,7,1,2026-07-24T03:36:16.454179+05:30
Meerut,Uttar Pradesh,28.9845,77.7064,26.0,93,0.0,974.0,6.95,49.3,71,17.9,17.9,11.4,305.0,75.0,9.8,7,5,7,1,2026-07-24T03:36:16.454185+05:30
Agra,Uttar Pradesh,27.1767,78.0081,25.8,98,0.1,978.8,6.2,32.8,72,16.4,16.4,11.4,231.0,74.0,8.3,10,5,7,1,2026-07-24T03:36:16.454191+05:30
Varanasi,Uttar Pradesh,25.3176,82.9739,26.3,98,0.2,991.2,7.9,22.7,66,15.9,15.8,26.5,300.0,28.0,19.5,10,5,7,1,2026-07-24T03:36:16.454197+05:30
Prayagraj,Uttar Pradesh,25.4358,81.8463,26.1,98,0.1,989.4,8.1,19.8,66,15.3,15.1,19.4,267.0,33.0,9.8,10,5,7,1,2026-07-24T03:36:16.454204+05:30
Gorakhpur,Uttar Pradesh,26.7606,83.3732,25.4,98,0.0,991.4,6.5,28.8,71,21.8,21.8,13.4,304.0,65.0,7.3,7,5,7,1,2026-07-24T03:36:16.454210+05:30
Bareilly,Uttar Pradesh,28.367,79.4304,25.9,92,0.0,980.1,7.3,43.2,64,20.2,20.1,11.4,350.0,73.0,7.7,7,5,7,1,2026-07-24T03:36:16.454218+05:30
Aligarh,Uttar Pradesh,27.8974,78.088,26.2,90,0.0,977.2,6.2,35.6,71,18.0,18.0,10.6,258.0,80.0,9.0,7,5,7,1,2026-07-24T03:36:16.454224+05:30
Moradabad,Uttar Pradesh,28.8386,78.7733,26.6,86,0.0,976.8,6.55,50.0,65,18.2,18.2,10.5,307.0,77.0,7.8,7,5,7,1,2026-07-24T03:36:16.454230+05:30
Saharanpur,Uttar Pradesh,29.9637,77.546,27.0,83,0.0,969.1,7.3,46.8,71,35.4,34.9,28.2,285.0,19.0,6.4,7,5,7,1,2026-07-24T03:36:16.454236+05:30
Jhansi,Uttar Pradesh,25.4484,78.5685,26.2,83,0.0,969.4,7.05,36.0,59,9.4,9.3,14.9,192.0,35.0,4.6,7,5,7,1,2026-07-24T03:36:19.835829+05:30
Surat,Gujarat,21.1702,72.8311,25.3,93,0.1,997.5,7.2,63.7,57,14.1,9.1,9.6,206.0,34.0,17.2,10,5,7,1,2026-07-24T03:36:19.835864+05:30
Vadodara,Gujarat,22.3072,73.1812,25.5,95,0.1,993.9,5.95,59.4,53,6.6,4.9,7.0,102.0,38.0,3.0,10,5,3,1,2026-07-24T03:36:19.835877+05:30
Rajkot,Gujarat,22.3039,70.8022,25.4,96,0.7,983.4,0.65,51.5,57,16.3,7.6,3.7,91.0,40.0,4.0,10,5,3,1,2026-07-24T03:36:19.835888+05:30
Thane,Maharashtra,19.2183,72.9781,24.2,96,0.0,1001.6,7.7,52.6,57,27.0,12.1,2.5,101.0,41.0,2.3,3,5,4,1,2026-07-24T03:36:19.835897+05:30
Nagpur,Maharashtra,21.1458,79.0882,25.4,80,0.0,967.1,6.9,46.1,56,6.8,5.9,9.1,138.0,29.0,6.4,7,5,7,1,2026-07-24T03:36:19.835907+05:30
Nashik,Maharashtra,19.9975,73.7898,21.9,96,0.1,937.8,6.55,68.0,19,8.2,4.0,2.5,95.0,40.0,1.6,6,5,7,1,2026-07-24T03:36:19.835916+05:30
Aurangabad,Maharashtra,19.8762,75.3433,22.5,94,0.0,937.2,7.55,66.6,19,3.3,2.1,4.9,107.0,36.0,5.2,3,5,7,1,2026-07-24T03:36:19.835925+05:30
Solapur,Maharashtra,17.6599,75.9064,24.5,77,0.0,953.2,6.95,66.2,63,8.2,5.2,3.1,104.0,41.0,1.6,3,5,7,1,2026-07-24T03:36:19.835934+05:30
Kolhapur,Maharashtra,16.705,74.2433,21.9,94,0.0,944.1,8.7,68.4,66,11.3,5.4,1.9,97.0,45.0,1.2,3,5,7,1,2026-07-24T03:36:19.835943+05:30
Goa,Goa,15.2993,74.124,22.9,99,0.5,996.3,8.65,48.6,95,115.5,39.5,2.3,221.0,49.0,0.8,6,5,7,1,2026-07-24T03:36:19.835952+05:30
Jodhpur,Rajasthan,26.2389,73.0243,27.0,98,0.0,972.2,7.15,23.4,56,12.5,12.2,10.4,232.0,67.0,2.1,7,5,7,1,2026-07-24T03:36:19.835961+05:30
Udaipur,Rajasthan,24.5854,73.7125,23.7,97,0.0,935.6,8.1,42.1,34,6.0,5.9,6.1,219.0,78.0,2.1,3,5,7,1,2026-07-24T03:36:19.835970+05:30
Kota,Rajasthan,25.2138,75.8648,26.1,92,0.0,968.6,6.95,40.0,66,14.0,13.8,15.2,270.0,38.0,6.0,7,5,7,1,2026-07-24T03:36:19.835978+05:30
Bikaner,Rajasthan,28.0229,73.3119,28.4,83,0.0,971.8,8.2,28.8,63,29.5,22.5,6.0,289.0,98.0,11.4,7,5,7,1,2026-07-24T03:36:19.835985+05:30
Ajmer,Rajasthan,26.4499,74.6399,25.3,92,0.0,944.8,8.0,32.8,56,15.9,15.4,8.5,302.0,82.0,3.6,7,5,7,1,2026-07-24T03:36:19.835992+05:30
Gwalior,Madhya Pradesh,26.2183,78.1828,26.0,97,0.0,974.1,7.9,32.0,64,6.0,6.0,8.7,223.0,70.0,4.5,7,5,7,1,2026-07-24T03:36:19.835999+05:30
Indore,Madhya Pradesh,22.7196,75.8577,23.6,92,0.0,939.1,6.7,51.8,33,2.9,2.8,8.0,125.0,32.0,6.5,3,5,7,1,2026-07-24T03:36:19.836006+05:30
Bhopal,Madhya Pradesh,23.2599,77.4126,23.5,92,0.0,945.2,4.0,46.8,30,2.9,2.7,7.6,146.0,31.0,4.6,3,5,3,1,2026-07-24T03:36:19.836013+05:30
Jabalpur,Madhya Pradesh,23.1815,79.9864,24.3,89,0.0,954.9,7.8,37.1,45,17.5,15.3,8.8,158.0,44.0,7.9,3,5,7,1,2026-07-24T03:36:19.836020+05:30
Ujjain,Madhya Pradesh,23.1765,75.7885,23.3,94,0.4,944.1,6.65,54.0,45,4.1,3.9,9.1,167.0,30.0,6.3,6,5,7,1,2026-07-24T03:36:19.836028+05:30
Visakhapatnam,Andhra Pradesh,17.6868,83.2185,27.0,82,0.0,999.8,8.4,47.9,71,26.7,19.9,14.3,279.0,81.0,26.3,7,5,7,1,2026-07-24T03:36:19.836035+05:30
Vijayawada,Andhra Pradesh,16.5062,80.648,29.2,71,0.0,999.3,8.85,45.4,62,23.1,17.6,8.6,205.0,68.0,5.7,7,5,7,1,2026-07-24T03:36:19.836042+05:30
Guntur,Andhra Pradesh,16.3067,80.4365,29.9,56,0.0,1000.5,8.95,45.0,60,23.1,17.2,10.7,161.0,56.0,5.2,4,5,4,1,2026-07-24T03:36:19.836050+05:30
Nellore,Andhra Pradesh,14.4426,79.9865,24.2,93,0.4,1004.1,8.1,43.2,60,26.7,15.9,10.6,201.0,42.0,4.3,6,5,4,1,2026-07-24T03:36:19.836058+05:30
Kurnool,Andhra Pradesh,15.8281,78.0373,25.8,74,0.0,974.5,8.1,56.5,60,57.4,28.3,6.2,118.0,41.0,4.2,7,5,7,1,2026-07-24T03:36:19.836066+05:30
Kakinada,Andhra Pradesh,16.9891,82.2475,28.9,79,0.0,1003.7,8.4,57.6,65,24.9,15.8,2.5,190.0,101.0,4.4,7,5,4,1,2026-07-24T03:36:19.836073+05:30
Tirupati,Andhra Pradesh,13.6288,79.4192,25.9,84,0.0,989.5,8.4,36.7,60,28.2,19.9,24.5,120.0,12.0,3.2,7,5,7,1,2026-07-24T03:36:19.836081+05:30
Warangal,Telangana,17.9689,79.5941,25.6,71,0.0,974.7,7.4,48.6,65,41.3,23.4,6.8,138.0,42.0,3.4,7,5,7,1,2026-07-24T03:36:19.836088+05:30
Nizamabad,Telangana,18.6725,78.0941,24.8,78,0.0,960.0,7.6,54.7,60,11.3,7.6,4.7,122.0,35.0,2.0,3,5,7,1,2026-07-24T03:36:19.836096+05:30
Mysore,Karnataka,12.2958,76.6396,20.7,96,0.0,927.2,8.2,46.4,25,13.2,5.9,4.7,100.0,30.0,1.6,3,5,7,1,2026-07-24T03:36:19.836103+05:30
Mangalore,Karnataka,12.9141,74.856,23.9,98,0.0,1006.5,8.6,43.2,52,26.6,12.9,5.2,156.0,31.0,1.6,3,5,4,1,2026-07-24T03:36:19.836110+05:30
Hubli-Dharwad,Karnataka,15.3647,75.124,21.4,98,0.1,938.4,8.95,64.1,63,61.2,26.8,2.8,96.0,45.0,1.0,6,5,7,1,2026-07-24T03:36:19.836117+05:30
Belgaum,Karnataka,15.8497,74.4977,20.4,97,0.0,922.3,8.85,67.7,72,28.6,12.3,2.2,93.0,54.0,1.5,3,5,7,1,2026-07-24T03:36:23.199379+05:30
Coimbatore,Tamil Nadu,11.0168,76.9558,22.6,93,0.0,960.5,8.95,51.1,35,6.2,4.9,6.9,175.0,23.0,2.4,3,5,7,1,2026-07-24T03:36:23.199410+05:30
Madurai,Tamil Nadu,9.9252,78.1198,27.8,63,0.0,991.4,8.75,33.1,64,22.4,19.7,34.5,143.0,2.0,6.0,7,5,7,1,2026-07-24T03:36:23.199421+05:30
Trichy,Tamil Nadu,10.7905,78.7047,27.8,67,0.0,998.3,8.25,44.6,55,6.3,4.7,7.1,111.0,28.0,3.3,7,5,7,1,2026-07-24T03:36:23.199430+05:30
Salem,Tamil Nadu,11.6643,78.146,25.2,80,0.0,976.3,7.65,33.8,59,15.0,12.0,17.3,309.0,22.0,6.7,7,5,7,1,2026-07-24T03:36:23.199439+05:30
Tirunelveli,Tamil Nadu,8.7139,77.7567,27.8,71,0.0,1002.1,8.7,50.8,37,7.6,6.0,7.3,148.0,27.0,2.3,7,5,4,1,2026-07-24T03:36:23.199447+05:30
Vellore,Tamil Nadu,12.9165,79.1325,27.1,65,0.0,983.0,6.8,39.6,59,11.9,9.1,12.9,116.0,24.0,3.8,7,5,7,1,2026-07-24T03:36:23.199455+05:30
Erode,Tamil Nadu,11.341,77.7172,25.5,77,0.0,988.1,8.05,40.7,53,12.5,10.5,15.4,143.0,23.0,4.0,7,5,7,1,2026-07-24T03:36:23.199463+05:30
Kochi,Kerala,9.9312,76.2673,25.2,94,0.0,1008.7,8.25,35.6,55,17.3,15.2,17.3,185.0,8.0,5.2,7,0,4,1,2026-07-24T03:36:23.199471+05:30
Thiruvananthapuram,Kerala,8.5241,76.9366,24.4,97,0.1,1008.3,8.55,41.4,50,11.4,7.6,5.4,156.0,36.0,3.2,6,0,4,1,2026-07-24T03:36:23.199479+05:30
Kozhikode,Kerala,11.2588,75.7804,23.5,99,0.0,1008.3,8.3,35.6,33,7.4,4.1,2.6,261.0,38.0,1.5,3,0,4,1,2026-07-24T03:36:23.199486+05:30
Thrissur,Kerala,10.5276,76.2144,23.7,100,0.0,1007.3,8.6,36.7,52,16.7,14.5,13.9,358.0,11.0,3.7,3,5,4,1,2026-07-24T03:36:23.199494+05:30
Kannur,Kerala,11.8745,75.3704,23.2,97,0.0,1007.4,7.9,38.9,34,5.4,3.0,5.1,161.0,28.0,1.6,3,5,4,1,2026-07-24T03:36:23.199500+05:30
Patna,Bihar,25.5941,85.1376,25.9,97,0.0,994.3,5.7,24.5,72,23.2,23.2,15.8,299.0,56.0,14.3,7,5,3,1,2026-07-24T03:36:23.199507+05:30
Gaya,Bihar,24.7914,85.0002,26.3,97,0.0,987.8,6.45,25.2,62,18.4,18.2,18.0,219.0,38.0,8.5,7,5,7,1,2026-07-24T03:36:23.199515+05:30
Muzaffarpur,Bihar,26.1209,85.3647,25.9,97,0.0,994.5,6.95,27.7,72,25.9,25.9,16.2,363.0,56.0,14.4,7,5,7,1,2026-07-24T03:36:23.199521+05:30
Bhagalpur,Bihar,25.2425,87.0117,26.5,93,0.0,994.9,7.85,26.3,67,30.3,30.0,23.9,315.0,24.0,20.5,7,5,7,1,2026-07-24T03:36:23.199528+05:30
Ranchi,Jharkhand,23.3441,85.3096,21.8,94,0.0,932.0,6.6,28.8,39,15.3,13.8,11.7,185.0,44.0,19.4,3,5,7,1,2026-07-24T03:36:23.199535+05:30
Jamshedpur,Jharkhand,22.8046,86.2029,25.8,85,0.0,985.2,7.1,38.9,57,19.2,16.3,21.0,192.0,31.0,25.3,7,5,7,1,2026-07-24T03:36:23.199542+05:30
Dhanbad,Jharkhand,23.7957,86.4304,25.1,90,0.0,973.7,6.7,27.4,77,30.3,28.9,37.3,203.0,22.0,84.7,7,5,7,1,2026-07-24T03:36:23.199549+05:30
Bokaro,Jharkhand,23.6693,86.1511,24.7,93,0.1,977.7,4.65,29.5,64,24.9,23.5,25.2,157.0,31.0,58.2,6,5,3,1,2026-07-24T03:36:23.199556+05:30
Bhubaneswar,Odisha,20.2961,85.8245,26.1,95,0.0,997.7,8.7,37.1,67,18.7,14.8,8.6,198.0,60.0,9.7,7,5,7,1,2026-07-24T03:36:23.199562+05:30
Cuttack,Odisha,20.4625,85.8828,26.3,95,0.0,999.4,8.65,38.9,67,18.7,14.8,8.6,214.0,60.0,9.7,7,5,7,1,2026-07-24T03:36:23.199568+05:30
Rourkela,Odisha,22.2604,84.8536,24.9,92,0.1,980.0,8.4,36.0,51,19.5,15.8,11.2,237.0,38.0,5.6,6,5,7,1,2026-07-24T03:36:23.199575+05:30
Raipur,Chhattisgarh,21.2514,81.6296,24.5,87,0.0,969.4,7.1,47.2,64,25.4,19.7,15.1,195.0,44.0,24.2,3,5,7,1,2026-07-24T03:36:23.199581+05:30
Bhilai,Chhattisgarh,21.1938,81.3509,24.4,87,0.0,969.8,6.1,52.2,63,21.2,17.2,13.8,311.0,42.0,22.4,3,5,7,1,2026-07-24T03:36:23.199588+05:30
Guwahati,Assam,26.1158,91.7086,25.5,99,0.1,996.7,8.4,19.4,44,12.3,11.8,10.7,232.0,33.0,3.0,10,5,7,1,2026-07-24T03:36:23.199595+05:30
Agartala,Tripura,23.8315,91.2868,24.3,98,0.0,1001.9,7.05,35.3,44,9.6,8.1,8.7,178.0,44.0,2.1,3,5,4,1,2026-07-24T03:36:23.199602+05:30
Shillong,Meghalaya,25.5788,91.8933,19.7,96,0.0,853.8,7.85,25.6,25,1.1,1.1,4.5,177.0,47.0,1.9,3,10,7,1,2026-07-24T03:36:23.199609+05:30
Imphal,Manipur,24.817,93.9368,22.2,98,0.0,919.5,6.65,17.3,37,7.3,7.0,7.0,270.0,28.0,1.7,3,5,7,1,2026-07-24T03:36:23.199616+05:30
Aizawl,Mizoram,23.7271,92.7176,19.4,95,0.0,888.7,8.8,27.7,23,1.2,1.0,2.5,134.0,40.0,0.9,3,10,7,1,2026-07-24T03:36:23.199623+05:30
Kohima,Nagaland,25.6701,94.1077,19.5,95,0.0,852.3,5.9,22.0,23,6.3,6.0,8.3,233.0,22.0,0.8,3,10,3,1,2026-07-24T03:36:23.199630+05:30
Gangtok,Sikkim,27.3314,88.6138,16.7,97,0.0,833.6,6.7,32.4,38,4.5,4.5,5.2,357.0,75.0,1.8,3,10,7,1,2026-07-24T03:36:23.199637+05:30
Siliguri,West Bengal,26.7271,88.3953,24.6,95,0.0,988.2,7.75,27.7,54,15.8,15.7,10.7,198.0,71.0,4.3,3,5,7,1,2026-07-24T03:36:26.557772+05:30
Durgapur,West Bengal,23.5204,87.3119,25.8,96,0.1,988.8,6.7,30.6,74,25.8,24.4,33.0,678.0,22.0,45.9,10,5,7,1,2026-07-24T03:36:26.557802+05:30
Asansol,West Bengal,23.6739,86.9524,25.5,93,0.0,987.4,6.75,26.3,68,22.9,21.7,33.9,371.0,22.0,53.9,7,5,7,1,2026-07-24T03:36:26.557812+05:30
Pondicherry,Puducherry,11.9139,79.8145,27.9,79,0.0,1006.6,7.9,50.4,67,14.8,10.9,11.1,196.0,52.0,9.6,7,5,4,1,2026-07-24T03:36:26.557820+05:30
Port Blair,Andaman and Nicobar Islands,11.6234,92.7265,26.8,83,0.0,1005.6,7.1,45.7,34,9.8,5.7,0.1,91.0,46.0,0.4,7,5,4,1,2026-07-24T03:36:26.557828+05:30
Haridwar,Uttarakhand,29.9457,78.1642,26.2,91,0.0,967.6,6.7,38.2,67,31.2,30.7,27.9,245.0,18.0,4.2,7,5,7,1,2026-07-24T03:36:26.557837+05:30
Rishikesh,Uttarakhand,30.0869,78.2676,25.3,91,0.0,960.4,6.7,24.8,51,10.2,10.1,9.0,364.0,64.0,2.8,7,5,7,1,2026-07-24T03:36:26.557844+05:30
Nainital,Uttarakhand,29.3919,79.4542,14.9,100,0.0,801.0,7.85,44.3,50,8.6,8.5,7.2,216.0,66.0,1.9,3,10,7,0,2026-07-24T03:36:26.557852+05:30
Mussoorie,Uttarakhand,30.4599,78.0664,15.9,100,0.0,798.6,6.4,33.5,54,11.8,11.7,30.7,212.0,17.0,3.0,3,10,7,0,2026-07-24T03:36:26.557860+05:30
Dharamshala,Himachal Pradesh,32.219,76.3234,20.9,84,0.0,864.6,7.05,31.3,44,11.0,10.9,17.0,341.0,26.0,0.5,3,5,7,1,2026-07-24T03:36:26.557868+05:30
Dalhousie,Himachal Pradesh,32.5387,75.971,17.0,90,0.0,800.7,8.4,30.2,63,20.5,20.0,22.1,292.0,61.0,3.5,3,10,7,0,2026-07-24T03:36:26.557876+05:30
Patiala,Punjab,30.3398,76.3869,27.4,84,0.0,971.3,7.5,46.1,79,24.8,24.6,20.9,349.0,49.0,8.1,7,5,7,1,2026-07-24T03:36:26.557883+05:30
Bhatinda,Punjab,30.211,74.9455,28.2,83,0.0,975.9,7.35,33.8,86,44.9,44.4,26.3,419.0,40.0,7.6,7,5,7,1,2026-07-24T03:36:26.557890+05:30
Rohtak,Haryana,28.8955,76.6066,26.4,90,0.0,973.7,6.15,40.0,87,21.2,21.1,17.9,368.0,70.0,19.1,7,5,7,1,2026-07-24T03:36:26.557897+05:30
Panipat,Haryana,29.3909,76.9635,27.0,85,0.0,973.1,6.45,43.9,77,20.4,20.4,15.4,304.0,69.0,13.4,7,5,7,1,2026-07-24T03:36:26.557904+05:30
Mathura,Uttar Pradesh,27.4924,77.6737,26.0,96,0.0,978.0,5.95,34.2,71,16.7,16.7,10.1,235.0,83.0,5.7,7,5,3,1,2026-07-24T03:36:26.557911+05:30
Vrindavan,Uttar Pradesh,27.5823,77.7027,26.1,95,0.0,978.6,5.75,33.8,71,16.7,16.7,10.1,238.0,83.0,5.7,7,5,3,1,2026-07-24T03:36:26.557918+05:30
Ayodhya,Uttar Pradesh,26.7922,82.1998,25.7,96,0.1,989.4,5.8,26.6,70,20.0,19.9,9.7,376.0,78.0,6.4,10,5,3,1,2026-07-24T03:36:26.557925+05:30
Ratlam,Madhya Pradesh,23.3315,75.0367,23.4,99,0.3,944.6,6.45,54.7,39,3.7,3.5,9.3,168.0,30.0,6.2,6,5,7,1,2026-07-24T03:36:26.557931+05:30
Sagar,Madhya Pradesh,23.8388,78.7378,24.5,81,0.0,942.4,8.2,41.0,30,10.6,9.7,8.7,142.0,36.0,6.2,3,5,7,1,2026-07-24T03:36:26.557938+05:30
Satna,Madhya Pradesh,24.6005,80.8322,24.9,87,0.0,964.6,6.8,32.0,43,12.8,11.0,9.6,167.0,40.0,7.4,3,5,7,1,2026-07-24T03:36:26.557945+05:30
Akola,Maharashtra,20.7002,77.0082,24.3,93,0.0,968.4,6.9,51.5,33,7.2,4.4,6.4,124.0,33.0,5.1,3,5,7,1,2026-07-24T03:36:26.557953+05:30
Amravati,Maharashtra,20.9374,77.7796,24.1,90,0.1,961.1,6.25,50.8,41,7.7,4.6,6.5,127.0,32.0,4.8,6,5,7,1,2026-07-24T03:36:26.557961+05:30
Latur,Maharashtra,18.4088,76.5604,22.8,86,0.0,934.6,6.7,59.8,57,4.3,3.0,3.4,106.0,36.0,1.4,3,5,7,1,2026-07-24T03:36:26.557969+05:30
Nanded,Maharashtra,19.1383,77.3091,24.9,80,0.0,963.5,7.35,54.0,57,4.9,3.1,4.7,117.0,34.0,3.1,3,5,7,1,2026-07-24T03:36:26.557975+05:30
Gulbarga,Karnataka,17.3297,76.8343,24.2,78,0.0,955.0,6.4,61.6,67,38.0,21.0,4.6,107.0,47.0,2.3,3,5,7,1,2026-07-24T03:36:26.557982+05:30
Bidar,Karnataka,17.9104,77.5199,22.5,87,0.0,930.9,7.4,61.2,64,24.0,14.3,4.5,113.0,42.0,2.2,3,5,7,1,2026-07-24T03:36:26.557989+05:30
Hospet,Karnataka,15.2689,76.3909,23.3,86,0.0,953.6,8.9,65.9,55,19.6,9.1,4.0,110.0,35.0,1.6,3,5,7,1,2026-07-24T03:36:26.557995+05:30
Tirupur,Tamil Nadu,11.1085,77.3411,23.8,86,0.0,974.2,8.9,52.6,55,16.2,13.7,20.0,141.0,17.0,5.0,3,5,7,1,2026-07-24T03:36:26.558001+05:30
Alappuzha,Kerala,9.4981,76.3388,25.4,97,0.0,1008.8,8.55,33.5,56,13.9,10.5,12.0,171.0,27.0,5.4,7,0,4,1,2026-07-24T03:36:26.558008+05:30
Munnar,Kerala,10.0889,77.0595,16.0,97,0.0,855.6,8.45,39.6,34,6.9,5.6,8.0,85.0,20.0,1.7,3,10,7,0,2026-07-24T03:36:26.558015+05:30
Silchar,Assam,24.8333,92.7789,25.4,97,0.0,1001.3,8.5,23.4,49,6.6,6.1,6.9,242.0,51.0,3.6,7,5,4,1,2026-07-24T03:36:26.558022+05:30
Dibrugarh,Assam,27.4728,94.912,24.8,98,0.2,991.7,7.15,22.0,45,5.7,5.6,5.5,186.0,63.0,0.9,6,5,7,1,2026-07-24T03:36:26.558029+05:30
