city,state,latitude,longitude,temp,humidity,rain,pressure,uv_index,wind_gusts,aqi,pm10,pm2_5,no2,co,o3,so2,mosquito_risk,arthritis_risk,migraine_risk,frizz_risk,updated_at
Delhi,Delhi,28.6139,77.209,32.4,26,0.0,976.9,7.75,31.3,377,504.8,115.3,52.0,361.0,18.0,13.6,0,5,7,0,2026-05-20T02:52:04.911059+05:30
Mumbai,Maharashtra,19.076,72.8777,28.9,74,0.0,1005.3,6.6,39.6,74,38.2,19.0,5.6,140.0,54.0,4.2,7,5,4,1,2026-05-20T02:52:04.911107+05:30
Bangalore,Karnataka,12.9716,77.5946,21.2,97,0.0,909.6,5.5,41.4,36,6.6,6.3,13.5,251.0,42.0,4.5,3,5,3,1,2026-05-20T02:52:04.911122+05:30
Hyderabad,Telangana,17.385,78.4867,30.0,55,0.0,949.4,8.7,33.5,93,27.7,24.4,9.0,247.0,99.0,7.5,4,5,7,1,2026-05-20T02:52:04.911132+05:30
Chennai,Tamil Nadu,13.0827,80.2707,28.6,75,0.0,1002.6,9.0,39.6,63,13.1,12.5,12.1,300.0,79.0,9.7,7,5,4,1,2026-05-20T02:52:04.911140+05:30
Kolkata,West Bengal,22.5726,88.3639,28.8,92,0.0,999.5,8.95,24.5,69,20.7,17.2,8.5,246.0,48.0,5.8,7,5,7,1,2026-05-20T02:52:04.911148+05:30
Pune,Maharashtra,18.5204,73.8567,24.5,84,0.0,944.9,8.45,40.0,76,33.3,19.0,11.9,146.0,50.0,11.4,3,5,7,1,2026-05-20T02:52:04.911155+05:30
Ahmedabad,Gujarat,23.0225,72.5714,30.8,39,0.0,997.7,8.15,35.3,65,40.7,16.8,5.5,168.0,48.0,3.6,0,5,7,0,2026-05-20T02:52:04.911163+05:30
Jaipur,Rajasthan,26.9124,75.7873,32.2,22,0.0,955.0,8.3,37.8,130,167.6,36.0,8.2,204.0,61.0,4.1,0,5,7,0,2026-05-20T02:52:04.911186+05:30
Lucknow,Uttar Pradesh,26.8467,80.9462,30.9,67,0.0,986.3,8.25,35.6,165,280.3,112.5,66.7,311.0,11.0,19.9,3,5,7,1,2026-05-20T02:52:04.911196+05:30
Kanpur,Uttar Pradesh,26.4499,80.3319,32.0,46,0.0,984.8,8.25,39.6,362,455.4,121.1,44.8,364.0,41.0,18.7,0,5,7,1,2026-05-20T02:52:04.911204+05:30
Chandigarh,Chandigarh,30.7333,76.7794,24.9,55,0.0,961.7,7.8,23.4,82,108.0,43.0,29.4,491.0,46.0,11.4,0,5,7,0,2026-05-20T02:52:04.911211+05:30
Srinagar,Jammu and Kashmir,34.0837,74.7973,13.0,89,0.0,840.3,9.0,25.9,68,32.2,23.6,29.1,511.0,8.0,2.1,3,10,7,0,2026-05-20T02:52:04.911219+05:30
Jammu,Jammu and Kashmir,32.7266,74.857,25.8,43,0.0,966.2,8.6,33.1,70,24.4,19.9,21.2,250.0,34.0,2.8,4,5,7,0,2026-05-20T02:52:04.911226+05:30
Amritsar,Punjab,31.634,74.8723,27.9,43,0.0,973.7,8.5,22.0,113,79.9,68.2,48.9,462.0,16.0,9.9,4,5,7,0,2026-05-20T02:52:04.911235+05:30
Ludhiana,Punjab,30.901,75.8573,30.6,31,0.0,971.6,8.05,20.9,141,231.4,85.4,36.5,417.0,36.0,12.3,0,5,7,0,2026-05-20T02:52:04.911242+05:30
Jalandhar,Punjab,31.326,75.5762,29.2,36,0.0,972.7,8.25,26.6,133,150.4,77.8,53.7,763.0,16.0,9.4,4,5,7,0,2026-05-20T02:52:04.911248+05:30
Dehradun,Uttarakhand,30.6284,78.0322,14.5,68,0.0,824.9,8.25,41.0,56,19.6,17.8,29.9,316.0,16.0,1.3,3,5,7,0,2026-05-20T02:52:04.911255+05:30
Shimla,Himachal Pradesh,31.1048,77.1734,14.4,48,0.0,780.9,8.3,44.6,60,42.5,21.0,21.3,224.0,57.0,5.8,0,5,7,0,2026-05-20T02:52:04.911263+05:30
Manali,Himachal Pradesh,32.2396,77.1887,11.4,57,0.0,814.5,9.65,37.4,42,2.6,2.4,35.6,204.0,77.0,0.0,0,5,7,0,2026-05-20T02:52:04.911270+05:30
Gurgaon,Haryana,28.4595,77.0266,30.0,30,0.0,975.3,7.85,29.9,803,1382.1,207.7,37.0,358.0,37.0,13.4,4,5,7,0,2026-05-20T02:52:04.911276+05:30
Noida,Uttar Pradesh,28.5355,77.391,30.4,32,0.0,978.0,7.8,26.6,803,1382.1,207.7,37.0,355.0,37.0,13.4,0,5,7,0,2026-05-20T02:52:04.911283+05:30
Ghaziabad,Uttar Pradesh,28.6692,77.4538,31.9,27,0.0,976.2,7.75,27.4,357,530.9,128.1,43.1,521.0,23.0,15.0,0,5,7,0,2026-05-20T02:52:04.911291+05:30
Faridabad,Haryana,28.4089,77.3178,32.8,25,0.0,977.5,7.8,34.9,803,1382.1,207.7,37.0,315.0,37.0,13.4,0,5,7,0,2026-05-20T02:52:04.911297+05:30
Meerut,Uttar Pradesh,28.9845,77.7064,30.4,34,0.0,974.9,7.7,25.6,357,530.9,128.1,43.1,473.0,23.0,15.0,0,5,7,0,2026-05-20T02:52:04.911304+05:30
Agra,Uttar Pradesh,27.1767,78.0081,32.0,37,0.0,981.0,8.1,34.2,533,480.6,99.4,41.7,243.0,23.0,12.7,0,5,7,0,2026-05-20T02:52:04.911310+05:30
Varanasi,Uttar Pradesh,25.3176,82.9739,31.4,64,0.0,990.8,8.75,46.8,154,94.8,71.0,26.3,689.0,60.0,15.4,3,5,7,1,2026-05-20T02:52:04.911317+05:30
Prayagraj,Uttar Pradesh,25.4358,81.8463,32.0,62,0.0,988.7,8.6,39.6,156,145.3,93.1,54.4,349.0,26.0,19.7,3,5,7,1,2026-05-20T02:52:04.911324+05:30
Gorakhpur,Uttar Pradesh,26.7606,83.3732,28.9,78,0.0,991.1,8.65,30.2,152,77.8,59.6,17.4,628.0,77.0,13.5,7,5,7,1,2026-05-20T02:52:04.911332+05:30
Bareilly,Uttar Pradesh,28.367,79.4304,27.1,79,0.0,979.5,8.05,26.3,143,176.5,93.4,46.3,399.0,50.0,19.1,7,5,7,1,2026-05-20T02:52:04.911339+05:30
Aligarh,Uttar Pradesh,27.8974,78.088,30.5,35,0.0,978.8,7.95,32.0,535,472.2,118.3,46.5,288.0,19.0,15.2,0,5,7,0,2026-05-20T02:52:04.911345+05:30
Moradabad,Uttar Pradesh,28.8386,78.7733,29.0,60,0.0,976.4,7.9,28.4,161,311.1,100.4,38.7,434.0,31.0,12.3,4,5,7,1,2026-05-20T02:52:04.911351+05:30
Saharanpur,Uttar Pradesh,29.9637,77.546,28.9,36,0.0,968.7,7.4,21.6,138,152.7,48.9,22.4,524.0,64.0,9.6,4,5,7,0,2026-05-20T02:52:04.911357+05:30
Jhansi,Uttar Pradesh,25.4484,78.5685,31.6,34,0.0,971.5,8.5,46.1,75,50.8,26.3,10.7,190.0,47.0,4.3,0,5,7,0,2026-05-20T02:52:08.174758+05:30
Surat,Gujarat,21.1702,72.8311,28.8,85,0.0,1002.7,7.7,42.8,97,27.5,18.0,20.6,268.0,34.0,35.0,7,5,4,1,2026-05-20T02:52:08.174796+05:30
Vadodara,Gujarat,22.3072,73.1812,29.2,82,0.0,1000.0,8.1,48.2,74,21.5,15.8,14.4,203.0,37.0,16.0,7,5,4,1,2026-05-20T02:52:08.174809+05:30
Rajkot,Gujarat,22.3039,70.8022,26.9,84,0.0,990.4,7.75,42.8,61,25.0,12.4,5.5,129.0,41.0,5.5,7,5,7,1,2026-05-20T02:52:08.174820+05:30
Thane,Maharashtra,19.2183,72.9781,28.5,78,0.0,1004.7,7.85,37.1,74,38.2,19.0,5.6,153.0,54.0,4.2,7,5,4,1,2026-05-20T02:52:08.174831+05:30
Nagpur,Maharashtra,21.1458,79.0882,33.9,32,0.0,967.5,8.95,46.4,90,82.0,48.4,40.5,271.0,33.0,13.7,0,5,7,0,2026-05-20T02:52:08.174842+05:30
Nashik,Maharashtra,19.9975,73.7898,23.8,84,0.0,942.4,8.15,39.6,70,37.6,17.3,6.0,124.0,52.0,2.2,3,5,7,1,2026-05-20T02:52:08.174853+05:30
Aurangabad,Maharashtra,19.8762,75.3433,29.2,46,0.0,940.1,9.05,40.0,73,31.4,20.3,8.8,201.0,76.0,6.1,4,5,7,1,2026-05-20T02:52:08.174862+05:30
Solapur,Maharashtra,17.6599,75.9064,29.0,60,0.0,953.7,9.0,34.6,74,25.4,18.5,8.3,152.0,57.0,3.2,4,5,7,1,2026-05-20T02:52:08.174873+05:30
Kolhapur,Maharashtra,16.705,74.2433,23.6,81,0.0,945.2,8.9,39.6,69,39.0,18.7,6.0,149.0,49.0,2.6,3,5,7,1,2026-05-20T02:52:08.174883+05:30
Goa,Goa,15.2993,74.124,26.1,96,0.0,995.8,7.85,29.5,57,15.5,13.1,6.8,272.0,57.0,1.6,7,5,7,1,2026-05-20T02:52:08.174892+05:30
Jodhpur,Rajasthan,26.2389,73.0243,32.1,33,0.0,977.6,8.45,40.3,121,196.5,45.4,4.5,135.0,57.0,2.4,0,5,7,0,2026-05-20T02:52:08.174902+05:30
Udaipur,Rajasthan,24.5854,73.7125,29.0,37,0.0,942.7,8.85,45.7,57,52.4,22.8,3.4,155.0,67.0,2.8,4,5,7,0,2026-05-20T02:52:08.174911+05:30
Kota,Rajasthan,25.2138,75.8648,33.2,19,0.0,973.6,8.4,33.8,59,19.0,12.1,3.9,163.0,81.0,4.9,0,5,7,0,2026-05-20T02:52:08.174922+05:30
Bikaner,Rajasthan,28.0229,73.3119,32.4,34,0.0,975.4,8.4,37.1,134,122.5,36.1,2.7,133.0,68.0,2.2,0,5,7,0,2026-05-20T02:52:08.174932+05:30
Ajmer,Rajasthan,26.4499,74.6399,29.5,32,0.0,950.0,8.4,42.5,63,37.0,18.0,6.1,184.0,62.0,4.5,4,5,7,0,2026-05-20T02:52:08.174941+05:30
Gwalior,Madhya Pradesh,26.2183,78.1828,32.1,33,0.0,976.8,8.3,42.8,86,19.0,15.8,8.0,178.0,57.0,3.7,0,5,7,0,2026-05-20T02:52:08.174951+05:30
Indore,Madhya Pradesh,22.7196,75.8577,31.1,22,0.0,944.2,8.0,41.8,63,26.7,17.1,3.4,215.0,108.0,6.1,0,5,7,0,2026-05-20T02:52:08.174961+05:30
Bhopal,Madhya Pradesh,23.2599,77.4126,32.6,19,0.0,948.7,8.7,46.1,76,24.2,18.8,5.2,191.0,80.0,5.3,0,5,7,0,2026-05-20T02:52:08.174971+05:30
Jabalpur,Madhya Pradesh,23.1815,79.9864,30.5,38,0.0,955.3,8.9,29.9,75,70.5,29.5,18.7,276.0,58.0,5.5,0,5,7,0,2026-05-20T02:52:08.174981+05:30
Ujjain,Madhya Pradesh,23.1765,75.7885,31.1,22,0.0,949.7,8.5,41.0,62,28.3,18.2,3.8,221.0,101.0,7.3,0,5,7,0,2026-05-20T02:52:08.174993+05:30
Visakhapatnam,Andhra Pradesh,17.6868,83.2185,29.0,94,0.0,997.9,8.65,40.0,72,32.8,27.0,17.3,390.0,114.0,33.8,7,5,7,1,2026-05-20T02:52:08.175003+05:30
Vijayawada,Andhra Pradesh,16.5062,80.648,31.0,77,0.0,997.0,9.1,37.4,81,29.3,27.4,8.7,301.0,110.0,6.5,3,5,7,1,2026-05-20T02:52:08.175012+05:30
Guntur,Andhra Pradesh,16.3067,80.4365,30.8,80,0.0,998.2,9.05,37.1,73,29.3,27.6,8.9,283.0,113.0,6.6,3,5,7,1,2026-05-20T02:52:08.175022+05:30
Nellore,Andhra Pradesh,14.4426,79.9865,32.1,57,0.0,1000.4,8.45,52.9,86,14.6,13.4,5.5,191.0,93.0,4.6,0,5,4,1,2026-05-20T02:52:08.175032+05:30
Kurnool,Andhra Pradesh,15.8281,78.0373,30.2,60,0.0,973.4,8.7,43.6,69,11.6,10.0,10.4,197.0,64.0,5.4,0,5,7,1,2026-05-20T02:52:08.175042+05:30
Kakinada,Andhra Pradesh,16.9891,82.2475,30.0,86,0.0,1001.9,8.95,54.4,99,30.9,23.9,2.0,321.0,143.0,3.8,7,5,4,1,2026-05-20T02:52:08.175052+05:30
Tirupati,Andhra Pradesh,13.6288,79.4192,29.4,62,0.0,986.7,9.05,34.9,64,14.3,13.4,8.8,210.0,73.0,1.9,7,5,7,1,2026-05-20T02:52:08.175061+05:30
Warangal,Telangana,17.9689,79.5941,30.8,58,0.0,973.4,8.6,28.8,94,38.3,34.1,14.7,334.0,72.0,9.4,0,5,7,1,2026-05-20T02:52:08.175071+05:30
Nizamabad,Telangana,18.6725,78.0941,30.8,53,0.0,960.0,8.95,33.5,100,43.8,39.0,15.7,244.0,80.0,4.8,0,5,7,1,2026-05-20T02:52:08.175080+05:30
Mysore,Karnataka,12.2958,76.6396,21.8,96,0.0,926.3,7.75,43.6,22,5.8,5.3,8.0,173.0,43.0,1.8,3,5,7,1,2026-05-20T02:52:08.175089+05:30
Mangalore,Karnataka,12.9141,74.856,24.6,98,0.1,1005.0,2.05,32.8,29,9.1,7.5,7.0,195.0,46.0,2.1,6,5,0,1,2026-05-20T02:52:08.175099+05:30
Hubli-Dharwad,Karnataka,15.3647,75.124,23.4,94,0.0,938.5,8.0,43.2,32,3.6,3.3,4.7,138.0,64.0,1.1,3,5,7,1,2026-05-20T02:52:08.175108+05:30
Belgaum,Karnataka,15.8497,74.4977,21.7,93,0.0,923.2,8.75,37.4,56,21.1,10.3,3.7,135.0,56.0,2.1,3,5,7,1,2026-05-20T02:52:11.431906+05:30
Coimbatore,Tamil Nadu,11.0168,76.9558,24.0,88,0.0,959.8,8.55,54.7,25,4.1,3.5,4.5,143.0,51.0,2.2,3,5,7,1,2026-05-20T02:52:11.431942+05:30
Madurai,Tamil Nadu,9.9252,78.1198,27.6,74,0.0,990.7,8.65,47.9,55,29.3,28.3,42.0,204.0,2.0,7.7,7,5,7,1,2026-05-20T02:52:11.431956+05:30
Trichy,Tamil Nadu,10.7905,78.7047,27.0,79,0.0,997.1,7.5,49.0,41,10.0,9.2,14.3,178.0,37.0,4.5,7,5,7,1,2026-05-20T02:52:11.431968+05:30
Salem,Tamil Nadu,11.6643,78.146,25.7,89,0.0,975.1,5.15,36.0,48,16.4,15.5,23.5,252.0,32.0,7.6,7,5,3,1,2026-05-20T02:52:11.431979+05:30
Tirunelveli,Tamil Nadu,8.7139,77.7567,27.7,76,0.0,1001.5,8.0,43.6,24,5.3,4.4,5.5,189.0,38.0,1.7,7,5,4,1,2026-05-20T02:52:11.431991+05:30
Vellore,Tamil Nadu,12.9165,79.1325,27.3,74,0.0,980.6,7.75,46.1,56,10.1,9.9,12.1,227.0,56.0,4.1,7,5,7,1,2026-05-20T02:52:11.432001+05:30
Erode,Tamil Nadu,11.341,77.7172,26.5,78,0.0,987.1,8.05,41.4,32,11.5,10.7,16.7,160.0,35.0,4.0,7,5,7,1,2026-05-20T02:52:11.432011+05:30
Kochi,Kerala,9.9312,76.2673,25.8,94,0.3,1008.0,3.3,31.7,43,14.3,13.3,16.4,140.0,20.0,3.4,10,0,0,1,2026-05-20T02:52:11.432022+05:30
Thiruvananthapuram,Kerala,8.5241,76.9366,24.8,96,0.2,1007.6,7.65,45.4,26,6.9,3.9,1.1,102.0,53.0,0.3,6,5,4,1,2026-05-20T02:52:11.432031+05:30
Kozhikode,Kerala,11.2588,75.7804,24.2,99,0.1,1006.9,7.6,29.9,30,7.3,4.7,1.1,232.0,63.0,0.4,6,5,4,1,2026-05-20T02:52:11.432041+05:30
Thrissur,Kerala,10.5276,76.2144,24.0,99,0.1,1006.3,3.8,32.8,37,12.4,11.5,13.7,251.0,26.0,4.1,6,5,0,1,2026-05-20T02:52:11.432052+05:30
Kannur,Kerala,11.8745,75.3704,25.1,97,0.2,1005.8,7.9,32.0,24,7.0,5.7,5.4,225.0,44.0,1.7,10,5,4,1,2026-05-20T02:52:11.432062+05:30
Patna,Bihar,25.5941,85.1376,27.5,81,0.0,994.8,8.85,24.5,151,50.1,44.5,14.8,414.0,83.0,16.5,7,5,7,1,2026-05-20T02:52:11.432071+05:30
Gaya,Bihar,24.7914,85.0002,28.4,74,0.0,988.0,8.9,34.2,152,57.9,53.4,14.7,515.0,85.0,16.9,7,5,7,1,2026-05-20T02:52:11.432081+05:30
Muzaffarpur,Bihar,26.1209,85.3647,27.4,82,0.0,995.0,8.85,28.4,150,54.0,45.8,16.3,403.0,75.0,15.3,7,5,7,1,2026-05-20T02:52:11.432091+05:30
Bhagalpur,Bihar,25.2425,87.0117,27.2,85,0.0,995.7,8.7,26.6,123,48.7,43.9,14.7,425.0,71.0,8.9,7,5,7,1,2026-05-20T02:52:11.432101+05:30
Ranchi,Jharkhand,23.3441,85.3096,25.2,72,0.0,932.1,9.3,41.8,130,148.5,67.8,23.6,348.0,93.0,16.1,7,5,7,1,2026-05-20T02:52:11.432110+05:30
Jamshedpur,Jharkhand,22.8046,86.2029,27.6,96,0.0,984.6,9.1,34.2,146,105.2,103.4,71.1,638.0,17.0,67.1,7,5,7,1,2026-05-20T02:52:11.432120+05:30
Dhanbad,Jharkhand,23.7957,86.4304,28.7,79,0.0,974.1,9.1,39.6,168,148.1,140.6,53.3,510.0,50.0,199.5,7,5,7,1,2026-05-20T02:52:11.432130+05:30
Bokaro,Jharkhand,23.6693,86.1511,27.6,88,0.0,977.8,9.1,40.0,163,145.3,134.6,54.0,630.0,60.0,196.5,7,5,7,1,2026-05-20T02:52:11.432141+05:30
Bhubaneswar,Odisha,20.2961,85.8245,28.9,91,0.0,995.7,9.1,33.5,62,17.5,15.3,6.4,231.0,68.0,6.0,7,5,7,1,2026-05-20T02:52:11.432151+05:30
Cuttack,Odisha,20.4625,85.8828,29.0,91,0.0,997.5,9.15,32.4,62,17.5,15.3,6.4,255.0,68.0,6.0,7,5,7,1,2026-05-20T02:52:11.432160+05:30
Rourkela,Odisha,22.2604,84.8536,26.9,79,0.0,978.7,9.0,30.2,153,260.8,106.2,56.9,331.0,21.0,26.1,7,5,7,1,2026-05-20T02:52:11.432170+05:30
Raipur,Chhattisgarh,21.2514,81.6296,31.8,49,0.0,968.8,8.95,34.9,114,49.2,44.8,35.2,476.0,56.0,46.7,0,5,7,1,2026-05-20T02:52:11.432179+05:30
Bhilai,Chhattisgarh,21.1938,81.3509,31.3,51,0.0,969.4,9.0,37.1,104,45.3,40.9,28.6,713.0,69.0,40.6,0,5,7,1,2026-05-20T02:52:11.432188+05:30
Guwahati,Assam,26.1158,91.7086,24.5,91,0.0,997.1,8.7,19.1,81,58.9,47.5,24.1,363.0,23.0,5.5,3,5,7,1,2026-05-20T02:52:11.432198+05:30
Agartala,Tripura,23.8315,91.2868,26.5,97,0.0,1001.3,8.9,23.8,73,17.7,14.3,13.0,208.0,40.0,2.7,7,5,4,1,2026-05-20T02:52:11.432208+05:30
Shillong,Meghalaya,25.5788,91.8933,16.1,97,0.0,852.7,8.4,19.4,65,33.4,23.3,7.4,261.0,60.0,4.3,3,10,7,0,2026-05-20T02:52:11.432217+05:30
Imphal,Manipur,24.817,93.9368,20.1,96,0.0,919.1,9.25,29.9,70,47.6,36.7,17.9,556.0,40.0,5.0,3,5,7,1,2026-05-20T02:52:11.432228+05:30
Aizawl,Mizoram,23.7271,92.7176,18.2,98,0.0,888.1,9.1,22.3,86,41.8,23.3,7.6,234.0,34.0,1.6,3,10,7,1,2026-05-20T02:52:11.432237+05:30
Kohima,Nagaland,25.6701,94.1077,15.8,96,0.0,850.7,8.7,28.4,57,36.1,29.8,14.5,255.0,44.0,1.0,3,10,7,0,2026-05-20T02:52:11.432247+05:30
Gangtok,Sikkim,27.3314,88.6138,15.8,78,0.1,833.9,8.75,34.6,74,22.6,19.2,13.4,634.0,39.0,0.5,6,5,7,0,2026-05-20T02:52:11.432257+05:30
Siliguri,West Bengal,26.7271,88.3953,26.1,80,0.0,988.3,8.7,21.6,133,84.5,64.3,21.9,482.0,67.0,7.1,7,5,7,1,2026-05-20T02:52:14.691055+05:30
Durgapur,West Bengal,23.5204,87.3119,27.7,92,0.0,988.8,9.0,23.0,156,77.8,73.1,37.1,392.0,38.0,35.3,7,5,7,1,2026-05-20T02:52:14.691093+05:30
Asansol,West Bengal,23.6739,86.9524,27.6,90,0.0,987.6,9.05,31.7,157,87.3,81.7,36.8,548.0,44.0,38.5,7,5,7,1,2026-05-20T02:52:14.691106+05:30
Pondicherry,Puducherry,11.9139,79.8145,27.7,80,0.0,1004.7,8.9,37.1,55,12.0,11.1,14.4,218.0,58.0,9.7,7,5,4,1,2026-05-20T02:52:14.691119+05:30
Port Blair,Andaman and Nicobar Islands,11.6234,92.7265,25.9,95,0.0,1003.3,8.95,50.0,28,11.1,6.8,0.2,132.0,64.0,0.5,7,5,4,1,2026-05-20T02:52:14.691130+05:30
Haridwar,Uttarakhand,29.9457,78.1642,25.1,51,0.0,966.6,7.6,24.5,105,126.2,36.0,13.8,382.0,84.0,8.7,4,5,7,0,2026-05-20T02:52:14.691141+05:30
Rishikesh,Uttarakhand,30.0869,78.2676,23.2,57,0.0,959.5,7.7,29.2,104,204.0,48.0,11.1,391.0,107.0,10.2,0,5,7,0,2026-05-20T02:52:14.691152+05:30
Nainital,Uttarakhand,29.3919,79.4542,17.5,46,0.0,802.2,8.55,60.8,109,174.2,41.6,11.8,259.0,111.0,7.8,0,5,7,0,2026-05-20T02:52:14.691162+05:30
Mussoorie,Uttarakhand,30.4599,78.0664,19.7,37,0.0,801.5,8.1,53.6,90,93.1,41.7,33.7,283.0,45.0,7.8,0,5,7,0,2026-05-20T02:52:14.691172+05:30
Dharamshala,Himachal Pradesh,32.219,76.3234,24.0,29,0.0,866.3,8.5,44.3,49,14.2,10.4,14.1,200.0,32.0,0.1,0,5,7,0,2026-05-20T02:52:14.691182+05:30
Dalhousie,Himachal Pradesh,32.5387,75.971,14.2,56,0.0,800.3,8.75,41.0,62,19.7,16.4,32.4,291.0,15.0,0.7,0,5,7,0,2026-05-20T02:52:14.691193+05:30
Patiala,Punjab,30.3398,76.3869,30.6,32,0.0,971.4,7.65,26.3,430,583.0,132.7,36.3,428.0,39.0,11.7,0,5,7,0,2026-05-20T02:52:14.691203+05:30
Bhatinda,Punjab,30.211,74.9455,29.2,26,0.0,976.6,8.35,25.9,100,59.8,45.8,40.7,545.0,32.0,9.7,4,5,7,0,2026-05-20T02:52:14.691212+05:30
Rohtak,Haryana,28.8955,76.6066,30.5,25,0.0,975.3,7.8,29.2,423,573.7,98.3,26.0,231.0,43.0,3.8,0,5,7,0,2026-05-20T02:52:14.691223+05:30
Panipat,Haryana,29.3909,76.9635,29.5,36,0.0,973.8,7.65,27.7,985,949.9,168.1,30.1,388.0,32.0,5.7,4,5,7,0,2026-05-20T02:52:14.691233+05:30
Mathura,Uttar Pradesh,27.4924,77.6737,31.2,36,0.0,980.0,8.05,31.3,529,482.4,93.1,34.6,270.0,26.0,6.3,0,5,7,0,2026-05-20T02:52:14.691243+05:30
Vrindavan,Uttar Pradesh,27.5823,77.7027,29.6,41,0.0,980.5,8.05,29.9,529,482.4,93.1,34.6,290.0,26.0,6.3,4,5,7,0,2026-05-20T02:52:14.691252+05:30
Ayodhya,Uttar Pradesh,26.7922,82.1998,29.6,73,0.0,988.6,8.4,23.8,152,81.3,63.1,17.6,738.0,75.0,13.6,7,5,7,1,2026-05-20T02:52:14.691262+05:30
Ratlam,Madhya Pradesh,23.3315,75.0367,28.1,41,0.0,950.7,8.55,45.4,63,33.8,21.4,6.0,189.0,88.0,12.2,4,5,7,0,2026-05-20T02:52:14.691272+05:30
Sagar,Madhya Pradesh,23.8388,78.7378,31.5,27,0.0,944.6,8.75,40.3,67,64.5,23.0,14.4,208.0,79.0,4.8,0,5,7,0,2026-05-20T02:52:14.691282+05:30
Satna,Madhya Pradesh,24.6005,80.8322,31.1,41,0.0,964.8,8.8,45.0,118,268.2,59.1,20.2,259.0,79.0,6.8,0,5,7,1,2026-05-20T02:52:14.691292+05:30
Akola,Maharashtra,20.7002,77.0082,33.8,23,0.0,970.0,8.9,42.1,73,25.9,16.9,5.3,182.0,95.0,5.2,0,5,7,0,2026-05-20T02:52:14.691302+05:30
Amravati,Maharashtra,20.9374,77.7796,33.3,25,0.0,962.1,8.9,46.1,77,25.4,17.3,5.6,338.0,95.0,5.7,0,5,7,0,2026-05-20T02:52:14.691313+05:30
Latur,Maharashtra,18.4088,76.5604,29.9,53,0.0,936.0,8.45,34.9,80,29.5,23.5,6.8,213.0,99.0,10.0,4,5,7,1,2026-05-20T02:52:14.691323+05:30
Nanded,Maharashtra,19.1383,77.3091,32.7,44,0.0,963.6,9.0,35.6,91,43.0,34.6,19.2,216.0,64.0,7.2,0,5,7,1,2026-05-20T02:52:14.691332+05:30
Gulbarga,Karnataka,17.3297,76.8343,28.6,63,0.0,955.1,8.8,40.7,76,26.3,19.2,11.9,207.0,53.0,3.9,7,5,7,1,2026-05-20T02:52:14.691341+05:30
Bidar,Karnataka,17.9104,77.5199,28.2,61,0.0,931.6,8.7,31.3,90,26.0,21.8,9.7,214.0,89.0,5.4,7,5,7,1,2026-05-20T02:52:14.691351+05:30
Hospet,Karnataka,15.2689,76.3909,24.9,87,0.0,953.4,7.25,43.9,34,5.3,5.0,7.7,160.0,59.0,1.7,3,5,7,1,2026-05-20T02:52:14.691360+05:30
Tirupur,Tamil Nadu,11.1085,77.3411,24.8,86,0.0,973.0,7.4,50.4,34,12.9,12.0,18.8,138.0,32.0,4.3,3,5,7,1,2026-05-20T02:52:14.691369+05:30
Alappuzha,Kerala,9.4981,76.3388,25.2,95,0.3,1008.5,3.35,33.8,35,8.7,6.7,7.1,110.0,46.0,1.5,10,0,0,1,2026-05-20T02:52:14.691379+05:30
Munnar,Kerala,10.0889,77.0595,17.7,100,0.1,855.4,5.85,38.9,19,4.9,4.5,5.8,115.0,32.0,0.9,6,10,3,1,2026-05-20T02:52:14.691390+05:30
Silchar,Assam,24.8333,92.7789,24.6,97,0.1,1000.9,8.95,23.8,99,86.6,60.5,24.7,287.0,54.0,10.0,6,5,4,1,2026-05-20T02:52:14.691400+05:30
Dibrugarh,Assam,27.4728,94.912,24.1,92,0.0,991.3,8.85,16.2,98,37.8,35.9,27.4,452.0,15.0,1.6,3,5,7,1,2026-05-20T02:52:14.691409+05:30
