city,state,latitude,longitude,temp,humidity,rain,pressure,uv_index,wind_gusts,aqi,pm10,pm2_5,mosquito_risk,arthritis_risk,migraine_risk,frizz_risk,updated_at
Delhi,Delhi,28.6139,77.209,19.8,69,0.0,983.8,6.0,24.5,193,239.3,84.1,3,5,3,0,2026-03-12T04:00:15.589713+05:30
Mumbai,Maharashtra,19.076,72.8777,27.6,87,0.0,1009.0,7.6,28.1,154,69.6,64.5,7,0,4,1,2026-03-12T04:00:15.589754+05:30
Bangalore,Karnataka,12.9716,77.5946,19.5,81,0.0,911.8,9.3,32.4,60,30.2,28.9,3,10,7,1,2026-03-12T04:00:15.589769+05:30
Hyderabad,Telangana,17.385,78.4867,21.6,66,0.0,954.2,8.65,22.0,84,55.6,43.4,3,5,7,0,2026-03-12T04:00:15.589779+05:30
Chennai,Tamil Nadu,13.0827,80.2707,23.5,93,0.0,1008.9,9.05,28.8,70,33.6,29.0,3,0,4,1,2026-03-12T04:00:15.589788+05:30
Kolkata,West Bengal,22.5726,88.3639,24.4,96,0.0,1007.6,8.0,19.4,140,46.6,42.4,3,5,4,1,2026-03-12T04:00:15.589800+05:30
Pune,Maharashtra,18.5204,73.8567,20.8,85,0.0,949.0,8.15,27.0,124,85.2,80.1,3,5,7,1,2026-03-12T04:00:15.589812+05:30
Ahmedabad,Gujarat,23.0225,72.5714,23.6,38,0.0,1003.8,7.45,30.2,71,19.8,19.2,0,5,4,0,2026-03-12T04:00:15.589819+05:30
Jaipur,Rajasthan,26.9124,75.7873,24.5,34,0.0,961.0,5.9,37.8,94,199.8,33.1,0,5,3,0,2026-03-12T04:00:15.589827+05:30
Lucknow,Uttar Pradesh,26.8467,80.9462,22.4,75,0.0,994.1,6.5,25.9,166,286.8,63.6,3,5,7,1,2026-03-12T04:00:15.589836+05:30
Kanpur,Uttar Pradesh,26.4499,80.3319,21.3,79,0.0,992.5,6.05,20.9,165,379.0,69.8,3,5,7,1,2026-03-12T04:00:15.589844+05:30
Chandigarh,Chandigarh,30.7333,76.7794,21.4,63,0.0,969.1,5.75,25.6,112,40.6,34.5,3,5,3,0,2026-03-12T04:00:15.589852+05:30
Srinagar,Jammu and Kashmir,34.0837,74.7973,8.2,95,0.2,841.1,6.95,22.7,116,50.4,42.4,6,10,7,0,2026-03-12T04:00:15.589865+05:30
Jammu,Jammu and Kashmir,32.7266,74.857,20.7,52,0.0,973.5,6.65,34.6,84,27.8,22.2,0,5,7,0,2026-03-12T04:00:15.589874+05:30
Amritsar,Punjab,31.634,74.8723,20.4,86,0.0,981.7,6.65,57.2,159,117.6,90.1,3,5,7,1,2026-03-12T04:00:15.589880+05:30
Ludhiana,Punjab,30.901,75.8573,22.3,61,0.0,979.3,5.95,31.3,168,107.8,83.8,3,5,3,0,2026-03-12T04:00:15.589887+05:30
Jalandhar,Punjab,31.326,75.5762,20.9,75,0.0,980.6,6.35,53.3,162,93.6,73.3,3,5,7,1,2026-03-12T04:00:15.589896+05:30
Dehradun,Uttarakhand,30.6284,78.0322,13.9,58,0.0,829.6,5.25,31.7,63,17.8,14.3,0,5,3,0,2026-03-12T04:00:15.589902+05:30
Shimla,Himachal Pradesh,31.1048,77.1734,11.4,78,0.0,783.4,5.85,40.3,87,30.5,21.6,3,5,3,0,2026-03-12T04:00:15.589911+05:30
Manali,Himachal Pradesh,32.2396,77.1887,14.8,64,0.0,821.3,3.55,43.6,48,14.6,5.4,3,5,3,0,2026-03-12T04:00:15.589918+05:30
Gurgaon,Haryana,28.4595,77.0266,17.3,78,0.0,982.2,6.05,22.3,668,356.7,104.8,3,5,7,0,2026-03-12T04:00:15.589926+05:30
Noida,Uttar Pradesh,28.5355,77.391,19.6,70,0.0,985.3,6.1,24.5,668,356.7,104.8,3,5,7,0,2026-03-12T04:00:15.589932+05:30
Ghaziabad,Uttar Pradesh,28.6692,77.4538,19.3,74,0.0,983.3,6.05,24.1,162,170.0,64.0,3,5,7,0,2026-03-12T04:00:15.589939+05:30
Faridabad,Haryana,28.4089,77.3178,21.1,54,0.0,984.5,5.75,23.4,668,356.7,104.8,0,5,3,0,2026-03-12T04:00:15.589945+05:30
Meerut,Uttar Pradesh,28.9845,77.7064,18.0,83,0.0,981.8,5.65,27.7,162,170.0,64.0,3,10,3,0,2026-03-12T04:00:15.589953+05:30
Agra,Uttar Pradesh,27.1767,78.0081,19.4,73,0.0,988.5,6.05,20.5,396,407.0,87.8,3,5,7,0,2026-03-12T04:00:15.589960+05:30
Varanasi,Uttar Pradesh,25.3176,82.9739,21.2,80,0.0,998.6,7.3,21.6,171,97.8,51.5,3,5,7,1,2026-03-12T04:00:15.589969+05:30
Prayagraj,Uttar Pradesh,25.4358,81.8463,22.3,68,0.0,997.0,6.75,22.3,172,124.3,61.2,3,5,7,1,2026-03-12T04:00:15.589976+05:30
Gorakhpur,Uttar Pradesh,26.7606,83.3732,21.5,91,0.0,997.9,6.85,18.0,226,231.4,210.9,3,5,7,1,2026-03-12T04:00:15.589983+05:30
Bareilly,Uttar Pradesh,28.367,79.4304,18.7,86,0.0,986.9,5.65,28.4,176,81.0,38.1,3,10,3,1,2026-03-12T04:00:15.589990+05:30
Aligarh,Uttar Pradesh,27.8974,78.088,17.7,73,0.0,986.3,5.35,27.0,416,378.1,105.7,3,5,3,0,2026-03-12T04:00:15.589996+05:30
Moradabad,Uttar Pradesh,28.8386,78.7733,19.2,82,0.0,983.7,5.55,32.8,172,78.7,40.6,3,10,3,0,2026-03-12T04:00:15.590003+05:30
Saharanpur,Uttar Pradesh,29.9637,77.546,19.1,74,0.0,976.0,5.6,29.2,156,89.6,69.2,3,5,3,0,2026-03-12T04:00:15.590009+05:30
Jhansi,Uttar Pradesh,25.4484,78.5685,20.2,63,0.0,978.7,6.75,28.1,87,24.9,14.2,3,5,7,0,2026-03-12T04:00:18.905725+05:30
Surat,Gujarat,21.1702,72.8311,26.1,54,0.0,1007.7,7.35,27.4,148,46.0,44.4,4,5,4,0,2026-03-12T04:00:18.905757+05:30
Vadodara,Gujarat,22.3072,73.1812,24.4,42,0.0,1005.6,7.5,23.8,74,23.6,22.7,0,5,4,0,2026-03-12T04:00:18.905767+05:30
Rajkot,Gujarat,22.3039,70.8022,22.5,57,0.0,996.4,7.3,32.0,64,12.4,11.4,0,5,7,0,2026-03-12T04:00:18.905774+05:30
Thane,Maharashtra,19.2183,72.9781,24.4,99,0.0,1008.6,7.6,39.6,154,69.6,64.5,3,0,4,1,2026-03-12T04:00:18.905782+05:30
Nagpur,Maharashtra,21.1458,79.0882,19.3,81,0.0,974.2,8.05,16.2,89,40.5,27.1,3,10,7,0,2026-03-12T04:00:18.905789+05:30
Nashik,Maharashtra,19.9975,73.7898,23.4,49,0.0,946.5,7.8,33.1,104,55.4,51.8,0,5,7,0,2026-03-12T04:00:18.905796+05:30
Aurangabad,Maharashtra,19.8762,75.3433,21.3,60,0.0,944.6,8.35,24.8,107,56.9,50.1,0,5,7,0,2026-03-12T04:00:18.905802+05:30
Solapur,Maharashtra,17.6599,75.9064,24.2,71,0.0,958.0,8.55,16.9,100,47.4,40.3,3,5,7,1,2026-03-12T04:00:18.905810+05:30
Kolhapur,Maharashtra,16.705,74.2433,20.8,99,0.0,948.4,8.65,25.9,145,83.6,78.7,3,5,7,1,2026-03-12T04:00:18.905817+05:30
Goa,Goa,15.2993,74.124,26.8,89,0.0,998.7,8.7,34.9,150,70.5,61.0,7,5,7,1,2026-03-12T04:00:18.905825+05:30
Jodhpur,Rajasthan,26.2389,73.0243,23.6,29,0.0,984.6,6.4,25.2,88,105.2,23.7,0,5,7,0,2026-03-12T04:00:18.905832+05:30
Udaipur,Rajasthan,24.5854,73.7125,18.8,40,0.0,948.2,7.4,29.5,50,15.1,14.4,0,5,7,0,2026-03-12T04:00:18.905839+05:30
Kota,Rajasthan,25.2138,75.8648,20.0,58,0.0,979.9,6.7,29.5,82,52.2,29.5,0,5,7,0,2026-03-12T04:00:18.905845+05:30
Bikaner,Rajasthan,28.0229,73.3119,23.1,31,0.0,982.7,5.95,20.2,78,201.2,50.9,0,5,3,0,2026-03-12T04:00:18.905852+05:30
Ajmer,Rajasthan,26.4499,74.6399,21.4,42,0.0,955.7,6.05,34.9,67,61.0,17.9,0,5,7,0,2026-03-12T04:00:18.905859+05:30
Gwalior,Madhya Pradesh,26.2183,78.1828,23.3,46,0.0,984.2,6.45,31.3,87,21.5,13.3,0,5,7,0,2026-03-12T04:00:18.905865+05:30
Indore,Madhya Pradesh,22.7196,75.8577,20.0,47,0.0,948.8,7.75,22.7,65,41.4,24.9,0,5,7,0,2026-03-12T04:00:18.905872+05:30
Bhopal,Madhya Pradesh,23.2599,77.4126,19.9,47,0.0,954.3,7.6,28.1,67,36.9,20.5,0,5,7,0,2026-03-12T04:00:18.905879+05:30
Jabalpur,Madhya Pradesh,23.1815,79.9864,21.1,49,0.0,962.5,7.75,19.8,97,78.9,39.8,0,5,7,0,2026-03-12T04:00:18.905885+05:30
Ujjain,Madhya Pradesh,23.1765,75.7885,20.0,49,0.0,954.4,7.65,18.7,80,63.6,51.9,0,5,7,0,2026-03-12T04:00:18.905893+05:30
Visakhapatnam,Andhra Pradesh,17.6868,83.2185,24.5,79,0.0,1005.0,8.65,39.6,90,29.5,26.9,3,5,4,1,2026-03-12T04:00:18.905899+05:30
Vijayawada,Andhra Pradesh,16.5062,80.648,23.7,80,0.0,1004.2,8.7,27.0,80,18.9,17.8,3,5,4,1,2026-03-12T04:00:18.905906+05:30
Guntur,Andhra Pradesh,16.3067,80.4365,22.8,83,0.0,1005.4,8.7,30.2,72,16.6,15.9,3,5,4,1,2026-03-12T04:00:18.905913+05:30
Nellore,Andhra Pradesh,14.4426,79.9865,23.0,91,0.0,1007.5,8.9,27.4,64,22.9,20.4,3,5,4,1,2026-03-12T04:00:18.905920+05:30
Kurnool,Andhra Pradesh,15.8281,78.0373,25.6,52,0.0,978.0,8.7,22.3,71,22.0,20.7,4,5,7,0,2026-03-12T04:00:18.905927+05:30
Kakinada,Andhra Pradesh,16.9891,82.2475,22.5,85,0.0,1009.2,8.65,34.6,79,23.9,20.5,3,0,4,1,2026-03-12T04:00:18.905934+05:30
Tirupati,Andhra Pradesh,13.6288,79.4192,19.8,90,0.0,993.4,9.05,34.6,80,46.4,44.4,3,10,7,1,2026-03-12T04:00:18.905941+05:30
Warangal,Telangana,17.9689,79.5941,24.2,58,0.0,979.6,8.5,17.3,88,39.5,35.2,0,5,7,0,2026-03-12T04:00:18.905948+05:30
Nizamabad,Telangana,18.6725,78.0941,23.3,58,0.0,965.5,8.35,22.0,116,42.1,37.4,0,5,7,0,2026-03-12T04:00:18.905955+05:30
Mysore,Karnataka,12.2958,76.6396,19.8,76,0.0,928.3,9.3,34.6,62,21.1,20.0,3,5,7,0,2026-03-12T04:00:18.905961+05:30
Mangalore,Karnataka,12.9141,74.856,28.8,81,0.0,1007.1,8.95,33.8,99,40.4,35.9,7,5,4,1,2026-03-12T04:00:18.905967+05:30
Hubli-Dharwad,Karnataka,15.3647,75.124,20.3,79,0.0,941.0,8.85,32.0,62,28.9,24.4,3,5,7,1,2026-03-12T04:00:18.905974+05:30
Belgaum,Karnataka,15.8497,74.4977,21.1,89,0.0,925.9,8.95,33.1,102,65.0,56.5,3,5,7,1,2026-03-12T04:00:22.220439+05:30
Coimbatore,Tamil Nadu,11.0168,76.9558,22.9,81,0.0,962.8,9.3,43.2,73,29.3,27.9,3,5,7,1,2026-03-12T04:00:22.220470+05:30
Madurai,Tamil Nadu,9.9252,78.1198,25.1,90,0.0,994.3,9.25,29.2,66,28.2,26.4,7,5,7,1,2026-03-12T04:00:22.220482+05:30
Trichy,Tamil Nadu,10.7905,78.7047,24.4,95,0.0,1001.3,9.15,26.3,69,31.8,28.2,3,5,4,1,2026-03-12T04:00:22.220490+05:30
Salem,Tamil Nadu,11.6643,78.146,23.4,88,0.0,978.6,9.2,28.8,70,30.4,28.8,3,5,7,1,2026-03-12T04:00:22.220498+05:30
Tirunelveli,Tamil Nadu,8.7139,77.7567,24.4,84,0.0,1004.3,9.05,40.0,59,20.6,19.1,3,5,4,1,2026-03-12T04:00:22.220506+05:30
Vellore,Tamil Nadu,12.9165,79.1325,21.1,99,0.0,986.4,9.1,33.8,88,50.6,48.1,3,5,7,1,2026-03-12T04:00:22.220515+05:30
Erode,Tamil Nadu,11.341,77.7172,24.6,89,0.0,990.5,9.2,23.0,75,25.8,24.3,3,5,7,1,2026-03-12T04:00:22.220525+05:30
Kochi,Kerala,9.9312,76.2673,26.8,84,0.0,1009.2,9.1,35.3,101,31.5,30.4,7,0,4,1,2026-03-12T04:00:22.220534+05:30
Thiruvananthapuram,Kerala,8.5241,76.9366,26.2,82,0.0,1008.3,9.1,26.6,76,13.2,11.5,7,0,4,1,2026-03-12T04:00:22.220541+05:30
Kozhikode,Kerala,11.2588,75.7804,28.2,84,0.0,1008.1,9.0,31.3,108,39.9,35.0,7,0,4,1,2026-03-12T04:00:22.220548+05:30
Thrissur,Kerala,10.5276,76.2144,25.6,91,0.0,1007.6,9.05,36.7,87,50.1,47.4,7,5,4,1,2026-03-12T04:00:22.220555+05:30
Kannur,Kerala,11.8745,75.3704,27.3,84,0.0,1007.3,9.0,31.7,111,37.0,33.5,7,5,4,1,2026-03-12T04:00:22.220563+05:30
Patna,Bihar,25.5941,85.1376,24.4,89,0.0,1001.7,7.5,22.3,222,228.2,212.3,3,5,4,1,2026-03-12T04:00:22.220570+05:30
Gaya,Bihar,24.7914,85.0002,24.0,91,0.0,995.1,7.35,21.2,190,165.8,150.4,3,5,7,1,2026-03-12T04:00:22.220576+05:30
Muzaffarpur,Bihar,26.1209,85.3647,22.4,92,0.0,1001.6,7.45,23.4,231,244.0,227.2,3,5,4,1,2026-03-12T04:00:22.220583+05:30
Bhagalpur,Bihar,25.2425,87.0117,22.4,94,0.0,1002.6,7.5,33.5,184,146.2,132.2,3,5,4,1,2026-03-12T04:00:22.220590+05:30
Ranchi,Jharkhand,23.3441,85.3096,20.0,78,0.0,938.5,8.2,35.6,170,131.8,112.7,3,5,7,0,2026-03-12T04:00:22.220596+05:30
Jamshedpur,Jharkhand,22.8046,86.2029,24.0,91,0.0,992.3,8.05,32.0,165,113.9,99.9,3,5,7,1,2026-03-12T04:00:22.220603+05:30
Dhanbad,Jharkhand,23.7957,86.4304,23.3,85,0.0,981.1,6.9,31.3,198,204.0,190.0,3,5,7,1,2026-03-12T04:00:22.220610+05:30
Bokaro,Jharkhand,23.6693,86.1511,23.3,93,0.0,985.4,8.0,22.3,195,185.8,171.8,3,5,7,1,2026-03-12T04:00:22.220616+05:30
Bhubaneswar,Odisha,20.2961,85.8245,24.4,93,0.0,1003.7,8.35,33.8,96,31.8,27.6,3,5,4,1,2026-03-12T04:00:22.220623+05:30
Cuttack,Odisha,20.4625,85.8828,25.0,87,0.0,1005.7,8.4,33.5,96,31.8,27.6,7,5,4,1,2026-03-12T04:00:22.220631+05:30
Rourkela,Odisha,22.2604,84.8536,23.3,82,0.0,986.5,8.0,18.4,160,88.7,78.2,3,5,7,1,2026-03-12T04:00:22.220638+05:30
Raipur,Chhattisgarh,21.2514,81.6296,21.6,49,0.0,975.7,8.1,18.0,161,121.5,104.3,0,5,7,0,2026-03-12T04:00:22.220644+05:30
Bhilai,Chhattisgarh,21.1938,81.3509,21.6,46,0.0,976.2,8.1,14.4,156,95.5,76.6,0,5,7,0,2026-03-12T04:00:22.220651+05:30
Guwahati,Assam,26.1158,91.7086,24.0,85,0.0,1003.1,6.95,18.7,153,62.4,57.7,3,5,4,1,2026-03-12T04:00:22.220657+05:30
Agartala,Tripura,23.8315,91.2868,22.1,92,0.0,1008.2,7.75,20.5,171,72.2,68.2,3,0,4,1,2026-03-12T04:00:22.220664+05:30
Shillong,Meghalaya,25.5788,91.8933,11.5,94,0.0,855.5,7.55,27.7,116,47.7,42.4,3,10,7,0,2026-03-12T04:00:22.220670+05:30
Imphal,Manipur,24.817,93.9368,16.8,90,0.0,924.7,8.0,31.0,164,126.2,119.2,3,10,7,0,2026-03-12T04:00:22.220677+05:30
Aizawl,Mizoram,23.7271,92.7176,16.5,87,0.0,893.3,7.9,31.3,187,171.8,163.4,3,10,7,0,2026-03-12T04:00:22.220684+05:30
Kohima,Nagaland,25.6701,94.1077,14.2,90,0.0,855.4,7.1,45.4,151,58.6,54.1,3,10,7,0,2026-03-12T04:00:22.220690+05:30
Gangtok,Sikkim,27.3314,88.6138,13.6,76,0.0,836.5,7.4,23.0,122,58.9,53.9,3,5,7,0,2026-03-12T04:00:22.220697+05:30
Siliguri,West Bengal,26.7271,88.3953,19.8,77,0.0,995.7,7.15,20.5,175,133.2,120.6,3,5,7,0,2026-03-12T04:00:25.537145+05:30
Durgapur,West Bengal,23.5204,87.3119,22.9,86,0.0,996.5,7.65,28.4,179,138.8,128.1,3,5,7,1,2026-03-12T04:00:25.537176+05:30
Asansol,West Bengal,23.6739,86.9524,23.4,87,0.0,994.9,7.65,27.7,180,150.4,136.4,3,5,7,1,2026-03-12T04:00:25.537186+05:30
Pondicherry,Puducherry,11.9139,79.8145,24.1,96,0.0,1010.0,9.0,27.7,63,27.9,22.8,3,0,4,1,2026-03-12T04:00:25.537194+05:30
Port Blair,Andaman and Nicobar Islands,11.6234,92.7265,27.0,83,0.0,1007.8,8.95,22.0,52,11.5,9.1,7,5,4,1,2026-03-12T04:00:25.537201+05:30
Haridwar,Uttarakhand,29.9457,78.1642,19.0,83,0.0,974.5,5.45,24.5,127,47.7,41.4,3,10,3,0,2026-03-12T04:00:25.537209+05:30
Rishikesh,Uttarakhand,30.0869,78.2676,19.5,74,0.0,967.3,5.1,19.4,108,34.5,27.9,3,5,3,0,2026-03-12T04:00:25.537217+05:30
Nainital,Uttarakhand,29.3919,79.4542,19.2,47,0.0,806.2,5.95,55.1,138,39.0,27.4,0,5,3,0,2026-03-12T04:00:25.537224+05:30
Mussoorie,Uttarakhand,30.4599,78.0664,16.9,45,0.0,802.9,5.0,38.9,98,33.3,29.7,0,5,3,0,2026-03-12T04:00:25.537231+05:30
Dharamshala,Himachal Pradesh,32.219,76.3234,20.4,37,0.0,870.2,5.95,27.7,59,15.8,8.3,0,5,3,0,2026-03-12T04:00:25.537239+05:30
Dalhousie,Himachal Pradesh,32.5387,75.971,17.0,39,0.0,804.8,6.05,31.3,88,22.1,18.1,0,5,7,0,2026-03-12T04:00:25.537247+05:30
Patiala,Punjab,30.3398,76.3869,21.1,62,0.0,978.6,5.75,32.0,162,141.6,83.4,3,5,3,0,2026-03-12T04:00:25.537254+05:30
Bhatinda,Punjab,30.211,74.9455,21.2,75,0.0,984.3,6.6,33.1,151,109.9,89.9,3,5,7,1,2026-03-12T04:00:25.537260+05:30
Rohtak,Haryana,28.8955,76.6066,18.1,78,0.0,982.4,5.75,22.7,256,370.7,109.2,3,5,3,0,2026-03-12T04:00:25.537267+05:30
Panipat,Haryana,29.3909,76.9635,17.8,79,0.0,980.8,5.85,24.5,356,252.4,90.8,3,5,3,0,2026-03-12T04:00:25.537274+05:30
Mathura,Uttar Pradesh,27.4924,77.6737,19.8,66,0.0,987.6,5.7,26.3,398,385.6,99.4,3,5,3,0,2026-03-12T04:00:25.537280+05:30
Vrindavan,Uttar Pradesh,27.5823,77.7027,18.2,74,0.0,988.1,5.45,28.1,398,385.6,99.4,3,5,3,0,2026-03-12T04:00:25.537287+05:30
Ayodhya,Uttar Pradesh,26.7922,82.1998,20.6,87,0.0,995.9,6.65,25.2,175,164.8,79.2,3,5,7,1,2026-03-12T04:00:25.537293+05:30
Ratlam,Madhya Pradesh,23.3315,75.0367,23.4,38,0.0,955.5,7.6,29.9,77,51.0,41.4,0,5,7,0,2026-03-12T04:00:25.537300+05:30
Sagar,Madhya Pradesh,23.8388,78.7378,21.7,42,0.0,951.2,7.6,26.6,73,40.3,19.3,0,5,7,0,2026-03-12T04:00:25.537306+05:30
Satna,Madhya Pradesh,24.6005,80.8322,21.5,54,0.0,972.4,7.55,31.0,117,49.9,24.3,0,5,7,0,2026-03-12T04:00:25.537313+05:30
Akola,Maharashtra,20.7002,77.0082,23.5,54,0.0,976.0,8.05,20.5,93,53.9,43.4,0,5,7,0,2026-03-12T04:00:25.537320+05:30
Amravati,Maharashtra,20.9374,77.7796,21.2,68,0.0,968.0,8.0,16.6,92,56.7,45.2,3,5,7,0,2026-03-12T04:00:25.537327+05:30
Latur,Maharashtra,18.4088,76.5604,22.4,56,0.0,940.5,8.45,18.4,99,37.7,32.2,0,5,7,0,2026-03-12T04:00:25.537334+05:30
Nanded,Maharashtra,19.1383,77.3091,22.9,66,0.0,969.5,8.25,17.6,110,39.9,35.4,3,5,7,1,2026-03-12T04:00:25.537340+05:30
Gulbarga,Karnataka,17.3297,76.8343,25.5,54,0.0,960.1,8.55,22.0,89,57.3,47.1,4,5,7,0,2026-03-12T04:00:25.537365+05:30
Bidar,Karnataka,17.9104,77.5199,23.3,55,0.0,936.5,8.5,23.8,98,47.1,39.7,0,5,7,0,2026-03-12T04:00:25.537374+05:30
Hospet,Karnataka,15.2689,76.3909,24.9,60,0.0,956.7,8.85,32.4,62,43.9,37.1,0,5,7,1,2026-03-12T04:00:25.537381+05:30
Tirupur,Tamil Nadu,11.1085,77.3411,24.5,82,0.0,976.6,9.3,32.8,82,28.6,27.4,3,5,7,1,2026-03-12T04:00:25.537388+05:30
Alappuzha,Kerala,9.4981,76.3388,26.1,88,0.0,1009.4,9.0,30.2,96,30.5,28.1,7,0,4,1,2026-03-12T04:00:25.537394+05:30
Munnar,Kerala,10.0889,77.0595,18.3,77,0.0,855.7,9.55,21.2,67,27.9,26.9,3,5,7,0,2026-03-12T04:00:25.537401+05:30
Silchar,Assam,24.8333,92.7789,21.7,92,0.0,1007.9,7.7,23.8,179,151.3,142.0,3,5,4,1,2026-03-12T04:00:25.537407+05:30
Dibrugarh,Assam,27.4728,94.912,21.5,91,0.0,999.1,7.45,20.2,156,49.9,46.1,3,5,7,1,2026-03-12T04:00:25.537413+05:30
