city,state,latitude,longitude,temp,humidity,rain,pressure,uv_index,wind_gusts,aqi,pm10,pm2_5,mosquito_risk,arthritis_risk,migraine_risk,frizz_risk,updated_at
Delhi,Delhi,28.6139,77.209,20.7,65,0.0,985.2,6.15,34.9,182,418.2,81.7,3,5,7,0,2026-03-15T08:12:32.635483+05:30
Mumbai,Maharashtra,19.076,72.8777,27.0,84,0.0,1011.5,7.7,23.8,111,70.5,34.1,7,0,4,1,2026-03-15T08:12:32.635524+05:30
Bangalore,Karnataka,12.9716,77.5946,20.9,72,0.0,914.7,9.3,18.4,86,51.2,49.5,3,5,7,0,2026-03-15T08:12:32.635539+05:30
Hyderabad,Telangana,17.385,78.4867,23.4,82,0.0,957.6,8.7,23.0,96,39.0,30.5,3,5,7,1,2026-03-15T08:12:32.635549+05:30
Chennai,Tamil Nadu,13.0827,80.2707,27.0,77,0.0,1012.3,9.05,30.6,50,19.3,16.0,7,0,4,1,2026-03-15T08:12:32.635557+05:30
Kolkata,West Bengal,22.5726,88.3639,26.2,82,0.0,1010.7,8.1,36.7,70,20.2,14.8,7,0,4,1,2026-03-15T08:12:32.635565+05:30
Pune,Maharashtra,18.5204,73.8567,25.0,27,0.0,950.9,8.25,40.3,97,54.9,45.5,4,5,7,0,2026-03-15T08:12:32.635576+05:30
Ahmedabad,Gujarat,23.0225,72.5714,22.5,83,0.0,1005.1,7.45,24.8,77,50.9,23.6,3,5,4,1,2026-03-15T08:12:32.635584+05:30
Jaipur,Rajasthan,26.9124,75.7873,23.1,50,0.0,961.3,7.0,44.6,120,285.0,54.7,0,5,7,0,2026-03-15T08:12:32.635591+05:30
Lucknow,Uttar Pradesh,26.8467,80.9462,20.6,76,0.0,998.1,6.7,49.3,154,105.5,47.4,3,5,7,1,2026-03-15T08:12:32.635599+05:30
Kanpur,Uttar Pradesh,26.4499,80.3319,21.0,74,0.0,995.7,6.65,45.0,180,222.6,71.5,3,5,7,1,2026-03-15T08:12:32.635606+05:30
Chandigarh,Chandigarh,30.7333,76.7794,16.9,74,0.0,970.2,5.95,47.5,79,26.7,25.1,3,5,3,0,2026-03-15T08:12:32.635614+05:30
Srinagar,Jammu and Kashmir,34.0837,74.7973,7.0,87,0.0,838.0,4.95,31.0,94,62.9,39.1,3,10,3,0,2026-03-15T08:12:32.635621+05:30
Jammu,Jammu and Kashmir,32.7266,74.857,17.9,63,0.0,972.5,3.35,59.4,82,40.3,33.9,3,5,3,0,2026-03-15T08:12:32.635629+05:30
Amritsar,Punjab,31.634,74.8723,16.8,78,0.0,982.0,3.5,42.8,101,37.1,31.1,3,5,3,0,2026-03-15T08:12:32.635635+05:30
Ludhiana,Punjab,30.901,75.8573,16.4,77,0.0,980.3,6.25,36.4,119,56.5,36.9,3,5,7,0,2026-03-15T08:12:32.635657+05:30
Jalandhar,Punjab,31.326,75.5762,16.0,78,0.0,980.9,5.4,35.6,111,80.6,43.5,3,5,3,0,2026-03-15T08:12:32.635667+05:30
Dehradun,Uttarakhand,30.6284,78.0322,9.7,72,0.0,829.2,6.1,31.3,52,27.9,12.6,3,5,7,0,2026-03-15T08:12:32.635674+05:30
Shimla,Himachal Pradesh,31.1048,77.1734,11.0,53,0.0,782.9,5.9,46.8,62,35.3,22.0,0,5,3,0,2026-03-15T08:12:32.635681+05:30
Manali,Himachal Pradesh,32.2396,77.1887,12.5,44,0.0,818.2,5.85,32.0,47,19.8,8.1,0,5,3,0,2026-03-15T08:12:32.635688+05:30
Gurgaon,Haryana,28.4595,77.0266,19.8,71,0.0,983.3,6.25,37.4,450,365.1,85.7,3,5,7,0,2026-03-15T08:12:32.635694+05:30
Noida,Uttar Pradesh,28.5355,77.391,20.4,70,0.0,987.0,6.15,36.0,450,365.1,85.7,3,5,7,0,2026-03-15T08:12:32.635701+05:30
Ghaziabad,Uttar Pradesh,28.6692,77.4538,19.5,72,0.0,985.0,6.15,30.6,169,252.4,66.6,3,5,7,0,2026-03-15T08:12:32.635707+05:30
Faridabad,Haryana,28.4089,77.3178,19.7,74,0.0,986.1,6.2,35.3,450,365.1,85.7,3,5,7,0,2026-03-15T08:12:32.635713+05:30
Meerut,Uttar Pradesh,28.9845,77.7064,18.2,81,0.0,984.1,6.05,28.8,169,252.4,66.6,3,10,7,0,2026-03-15T08:12:32.635720+05:30
Agra,Uttar Pradesh,27.1767,78.0081,20.5,65,0.0,990.5,6.6,35.6,426,1598.1,170.0,3,5,7,0,2026-03-15T08:12:32.635726+05:30
Varanasi,Uttar Pradesh,25.3176,82.9739,22.6,78,0.0,1001.1,7.35,38.9,151,123.4,80.8,3,5,4,1,2026-03-15T08:12:32.635735+05:30
Prayagraj,Uttar Pradesh,25.4358,81.8463,22.6,79,0.0,999.3,7.25,37.8,142,86.8,59.1,3,5,7,1,2026-03-15T08:12:32.635742+05:30
Gorakhpur,Uttar Pradesh,26.7606,83.3732,21.0,77,0.0,1001.3,7.1,37.1,154,100.6,80.1,3,5,4,1,2026-03-15T08:12:32.635748+05:30
Bareilly,Uttar Pradesh,28.367,79.4304,19.0,85,0.0,990.4,6.15,23.4,148,145.8,69.4,3,10,7,1,2026-03-15T08:12:32.635753+05:30
Aligarh,Uttar Pradesh,27.8974,78.088,18.9,79,0.0,988.3,6.25,37.1,216,100.1,56.2,3,5,7,0,2026-03-15T08:12:32.635760+05:30
Moradabad,Uttar Pradesh,28.8386,78.7733,17.6,82,0.0,987.1,5.4,23.4,155,117.3,64.0,3,10,3,0,2026-03-15T08:12:32.635766+05:30
Saharanpur,Uttar Pradesh,29.9637,77.546,16.1,80,0.0,978.1,5.8,33.5,143,47.7,33.6,3,5,3,0,2026-03-15T08:12:32.635774+05:30
Jhansi,Uttar Pradesh,25.4484,78.5685,22.3,64,0.0,980.5,7.2,38.2,129,108.3,38.3,3,5,7,0,2026-03-15T08:12:35.973315+05:30
Surat,Gujarat,21.1702,72.8311,25.9,85,0.0,1009.9,7.4,23.4,138,85.9,52.4,7,0,4,1,2026-03-15T08:12:35.973342+05:30
Vadodara,Gujarat,22.3072,73.1812,24.5,62,0.0,1007.6,7.5,22.7,94,79.6,36.9,3,5,4,1,2026-03-15T08:12:35.973351+05:30
Rajkot,Gujarat,22.3039,70.8022,23.2,83,0.0,997.3,7.35,34.9,79,44.1,19.7,3,5,7,1,2026-03-15T08:12:35.973358+05:30
Thane,Maharashtra,19.2183,72.9781,24.9,88,0.0,1010.9,7.7,35.6,111,70.5,34.1,3,0,4,1,2026-03-15T08:12:35.973365+05:30
Nagpur,Maharashtra,21.1458,79.0882,24.6,68,0.0,976.3,8.15,29.5,129,54.4,49.0,3,5,7,1,2026-03-15T08:12:35.973371+05:30
Nashik,Maharashtra,19.9975,73.7898,21.8,47,0.0,948.0,7.9,40.3,78,61.2,30.2,0,5,7,0,2026-03-15T08:12:35.973378+05:30
Aurangabad,Maharashtra,19.8762,75.3433,23.2,38,0.0,946.4,8.4,26.6,74,33.2,23.7,0,5,7,0,2026-03-15T08:12:35.973385+05:30
Solapur,Maharashtra,17.6599,75.9064,23.4,58,0.0,960.3,8.65,27.7,118,52.9,50.4,0,5,7,0,2026-03-15T08:12:35.973392+05:30
Kolhapur,Maharashtra,16.705,74.2433,22.5,87,0.0,950.5,8.75,41.8,153,94.5,90.1,3,5,7,1,2026-03-15T08:12:35.973399+05:30
Goa,Goa,15.2993,74.124,27.4,85,0.0,1001.1,8.75,32.8,124,58.4,53.9,7,5,4,1,2026-03-15T08:12:35.973405+05:30
Jodhpur,Rajasthan,26.2389,73.0243,23.3,41,0.0,984.2,7.25,30.2,112,187.7,56.3,0,5,7,0,2026-03-15T08:12:35.973412+05:30
Udaipur,Rajasthan,24.5854,73.7125,22.8,51,0.0,948.3,7.85,34.6,62,61.2,23.2,0,5,7,0,2026-03-15T08:12:35.973419+05:30
Kota,Rajasthan,25.2138,75.8648,22.2,61,0.0,980.7,7.3,32.4,70,35.7,20.7,3,5,7,0,2026-03-15T08:12:35.973427+05:30
Bikaner,Rajasthan,28.0229,73.3119,22.6,55,0.0,982.8,6.9,46.1,74,26.5,14.8,0,5,7,0,2026-03-15T08:12:35.973434+05:30
Ajmer,Rajasthan,26.4499,74.6399,21.4,54,0.0,955.7,7.25,38.2,75,99.0,32.7,0,5,7,0,2026-03-15T08:12:35.973440+05:30
Gwalior,Madhya Pradesh,26.2183,78.1828,22.3,68,0.0,986.0,6.9,34.9,143,122.5,40.0,3,5,7,1,2026-03-15T08:12:35.973446+05:30
Indore,Madhya Pradesh,22.7196,75.8577,21.9,55,0.0,950.4,7.8,33.5,67,38.4,22.7,0,5,7,0,2026-03-15T08:12:35.973453+05:30
Bhopal,Madhya Pradesh,23.2599,77.4126,22.2,51,0.0,956.0,7.7,39.2,71,22.8,17.1,0,5,7,0,2026-03-15T08:12:35.973459+05:30
Jabalpur,Madhya Pradesh,23.1815,79.9864,24.7,52,0.0,963.8,7.8,32.0,67,25.0,23.6,0,5,7,0,2026-03-15T08:12:35.973465+05:30
Ujjain,Madhya Pradesh,23.1765,75.7885,21.2,63,0.0,956.1,7.7,30.6,67,40.9,24.7,3,5,7,0,2026-03-15T08:12:35.973472+05:30
Visakhapatnam,Andhra Pradesh,17.6868,83.2185,26.2,78,0.0,1009.6,8.65,39.2,61,27.5,23.1,7,0,4,1,2026-03-15T08:12:35.973478+05:30
Vijayawada,Andhra Pradesh,16.5062,80.648,25.6,83,0.0,1008.1,8.75,27.0,60,23.3,20.4,7,0,4,1,2026-03-15T08:12:35.973485+05:30
Guntur,Andhra Pradesh,16.3067,80.4365,26.1,83,0.0,1009.1,8.75,27.7,57,18.0,15.0,7,0,4,1,2026-03-15T08:12:35.973491+05:30
Nellore,Andhra Pradesh,14.4426,79.9865,25.6,83,0.0,1011.2,8.95,28.4,55,17.3,14.7,7,0,4,1,2026-03-15T08:12:35.973498+05:30
Kurnool,Andhra Pradesh,15.8281,78.0373,26.7,64,0.0,980.8,8.75,20.2,87,26.6,23.9,7,5,7,1,2026-03-15T08:12:35.973505+05:30
Kakinada,Andhra Pradesh,16.9891,82.2475,26.2,82,0.0,1013.4,8.7,27.7,54,29.3,23.9,7,0,4,1,2026-03-15T08:12:35.973511+05:30
Tirupati,Andhra Pradesh,13.6288,79.4192,23.7,86,0.0,996.8,9.05,27.7,70,37.8,37.0,3,5,7,1,2026-03-15T08:12:35.973518+05:30
Warangal,Telangana,17.9689,79.5941,23.7,85,0.0,983.5,8.55,33.8,80,16.4,14.8,3,5,7,1,2026-03-15T08:12:35.973524+05:30
Nizamabad,Telangana,18.6725,78.0941,25.9,68,0.0,968.8,8.45,29.9,122,39.6,35.7,7,5,7,1,2026-03-15T08:12:35.973530+05:30
Mysore,Karnataka,12.2958,76.6396,22.2,87,0.0,931.7,9.3,30.6,94,53.4,51.0,3,5,7,1,2026-03-15T08:12:35.973537+05:30
Mangalore,Karnataka,12.9141,74.856,27.2,82,0.0,1010.4,8.95,27.7,93,34.7,30.4,7,0,4,1,2026-03-15T08:12:35.973543+05:30
Hubli-Dharwad,Karnataka,15.3647,75.124,23.2,89,0.0,944.4,8.95,41.0,111,48.2,44.9,3,5,7,1,2026-03-15T08:12:35.973550+05:30
Belgaum,Karnataka,15.8497,74.4977,22.3,87,0.0,928.3,9.0,45.4,135,71.7,66.4,3,5,7,1,2026-03-15T08:12:39.311311+05:30
Coimbatore,Tamil Nadu,11.0168,76.9558,23.7,70,0.0,965.8,9.3,33.5,68,29.9,28.6,3,5,7,1,2026-03-15T08:12:39.311342+05:30
Madurai,Tamil Nadu,9.9252,78.1198,25.6,82,0.0,997.7,9.25,24.1,52,34.6,32.6,7,5,7,1,2026-03-15T08:12:39.311355+05:30
Trichy,Tamil Nadu,10.7905,78.7047,25.7,87,0.0,1004.8,9.15,19.8,58,22.7,20.5,7,5,4,1,2026-03-15T08:12:39.311365+05:30
Salem,Tamil Nadu,11.6643,78.146,24.1,89,0.0,982.0,9.2,12.6,73,36.3,34.6,3,5,7,1,2026-03-15T08:12:39.311374+05:30
Tirunelveli,Tamil Nadu,8.7139,77.7567,25.9,78,0.0,1007.7,9.25,35.3,50,21.7,21.5,7,5,4,1,2026-03-15T08:12:39.311383+05:30
Vellore,Tamil Nadu,12.9165,79.1325,22.9,87,0.0,989.6,9.1,29.9,93,56.7,55.8,3,5,7,1,2026-03-15T08:12:39.311392+05:30
Erode,Tamil Nadu,11.341,77.7172,25.4,84,0.0,993.9,9.2,19.4,50,19.2,17.2,7,5,7,1,2026-03-15T08:12:39.311400+05:30
Kochi,Kerala,9.9312,76.2673,27.0,82,0.0,1012.3,9.1,34.2,79,32.4,31.9,7,0,4,1,2026-03-15T08:12:39.311409+05:30
Thiruvananthapuram,Kerala,8.5241,76.9366,27.1,84,0.0,1011.3,9.1,28.1,42,14.1,12.8,7,0,4,1,2026-03-15T08:12:39.311417+05:30
Kozhikode,Kerala,11.2588,75.7804,26.8,81,0.0,1011.6,9.0,29.2,77,31.7,28.9,7,0,4,1,2026-03-15T08:12:39.311425+05:30
Thrissur,Kerala,10.5276,76.2144,26.2,87,0.0,1010.8,9.05,38.5,76,38.9,38.1,7,0,4,1,2026-03-15T08:12:39.311434+05:30
Kannur,Kerala,11.8745,75.3704,26.9,87,0.0,1010.8,9.0,31.0,86,32.0,29.8,7,0,4,1,2026-03-15T08:12:39.311442+05:30
Patna,Bihar,25.5941,85.1376,23.9,71,0.0,1003.9,7.4,32.8,157,124.8,99.0,3,5,4,1,2026-03-15T08:12:39.311450+05:30
Gaya,Bihar,24.7914,85.0002,23.7,81,0.0,997.2,7.65,33.1,134,85.4,60.5,3,5,7,1,2026-03-15T08:12:39.311458+05:30
Muzaffarpur,Bihar,26.1209,85.3647,22.0,84,0.0,1004.6,7.5,34.2,160,99.7,83.4,3,5,4,1,2026-03-15T08:12:39.311466+05:30
Bhagalpur,Bihar,25.2425,87.0117,23.9,90,0.0,1005.8,7.6,33.5,150,81.0,71.0,3,5,4,1,2026-03-15T08:12:39.311476+05:30
Ranchi,Jharkhand,23.3441,85.3096,24.0,52,0.0,941.1,8.3,49.0,73,53.4,38.4,0,5,7,0,2026-03-15T08:12:39.311484+05:30
Jamshedpur,Jharkhand,22.8046,86.2029,26.1,74,0.0,995.1,8.2,49.7,132,44.9,40.4,7,5,7,1,2026-03-15T08:12:39.311491+05:30
Dhanbad,Jharkhand,23.7957,86.4304,25.8,79,0.0,983.4,8.05,43.6,157,103.8,96.9,7,5,7,1,2026-03-15T08:12:39.311499+05:30
Bokaro,Jharkhand,23.6693,86.1511,25.6,71,0.0,987.4,8.05,43.6,150,94.3,74.5,7,5,7,1,2026-03-15T08:12:39.311507+05:30
Bhubaneswar,Odisha,20.2961,85.8245,27.0,80,0.0,1007.6,8.5,41.8,58,20.5,15.1,7,5,4,1,2026-03-15T08:12:39.311514+05:30
Cuttack,Odisha,20.4625,85.8828,26.9,79,0.0,1009.6,8.5,33.8,58,20.5,15.1,7,0,4,1,2026-03-15T08:12:39.311522+05:30
Rourkela,Odisha,22.2604,84.8536,26.7,76,0.0,989.2,8.1,47.9,126,63.6,56.2,7,5,7,1,2026-03-15T08:12:39.311530+05:30
Raipur,Chhattisgarh,21.2514,81.6296,24.9,70,0.0,979.4,8.2,44.3,151,54.5,51.6,3,5,7,1,2026-03-15T08:12:39.311537+05:30
Bhilai,Chhattisgarh,21.1938,81.3509,24.4,74,0.0,979.5,8.2,41.4,139,46.8,44.0,3,5,7,1,2026-03-15T08:12:39.311545+05:30
Guwahati,Assam,26.1158,91.7086,21.1,91,0.0,1007.7,7.45,34.9,77,27.8,20.6,3,5,4,1,2026-03-15T08:12:39.311552+05:30
Agartala,Tripura,23.8315,91.2868,22.9,86,0.0,1012.3,7.9,41.4,67,13.2,9.9,3,0,4,1,2026-03-15T08:12:39.311560+05:30
Shillong,Meghalaya,25.5788,91.8933,14.3,83,0.0,859.4,7.8,78.5,64,9.3,7.5,3,10,7,0,2026-03-15T08:12:39.311568+05:30
Imphal,Manipur,24.817,93.9368,17.9,83,0.0,928.4,8.15,79.6,99,22.7,17.1,3,10,7,0,2026-03-15T08:12:39.311576+05:30
Aizawl,Mizoram,23.7271,92.7176,18.7,79,0.0,897.8,8.1,64.1,98,42.4,27.7,3,5,7,0,2026-03-15T08:12:39.311584+05:30
Kohima,Nagaland,25.6701,94.1077,16.8,70,0.0,858.7,7.3,106.6,81,20.3,15.3,3,5,7,0,2026-03-15T08:12:39.311592+05:30
Gangtok,Sikkim,27.3314,88.6138,14.7,84,0.0,839.3,7.5,19.4,98,81.7,45.3,3,10,7,0,2026-03-15T08:12:39.311600+05:30
Siliguri,West Bengal,26.7271,88.3953,19.6,86,0.0,999.0,7.45,28.8,124,71.0,48.4,3,10,7,1,2026-03-15T08:12:42.652984+05:30
Durgapur,West Bengal,23.5204,87.3119,26.0,80,0.0,999.0,8.05,45.7,126,43.0,40.5,7,5,7,1,2026-03-15T08:12:42.653012+05:30
Asansol,West Bengal,23.6739,86.9524,26.0,83,0.0,997.5,8.05,48.2,132,60.5,57.5,7,5,7,1,2026-03-15T08:12:42.653022+05:30
Pondicherry,Puducherry,11.9139,79.8145,26.4,86,0.0,1013.6,9.0,27.4,43,16.3,12.7,7,0,4,1,2026-03-15T08:12:42.653030+05:30
Port Blair,Andaman and Nicobar Islands,11.6234,92.7265,27.9,77,0.0,1012.0,8.95,23.4,58,15.1,11.4,7,0,4,1,2026-03-15T08:12:42.653037+05:30
Haridwar,Uttarakhand,29.9457,78.1642,19.0,81,0.0,977.2,5.75,33.1,92,45.5,32.9,3,10,3,0,2026-03-15T08:12:42.653045+05:30
Rishikesh,Uttarakhand,30.0869,78.2676,19.9,67,0.0,969.5,5.55,26.3,65,31.7,25.6,3,5,3,0,2026-03-15T08:12:42.653052+05:30
Nainital,Uttarakhand,29.3919,79.4542,16.3,56,0.0,807.0,4.8,36.4,85,50.3,34.5,0,5,3,0,2026-03-15T08:12:42.653059+05:30
Mussoorie,Uttarakhand,30.4599,78.0664,11.8,68,0.0,801.9,5.8,46.4,74,27.1,23.2,3,5,3,0,2026-03-15T08:12:42.653066+05:30
Dharamshala,Himachal Pradesh,32.219,76.3234,18.9,32,0.0,868.1,5.15,44.3,48,38.6,11.7,0,5,3,0,2026-03-15T08:12:42.653072+05:30
Dalhousie,Himachal Pradesh,32.5387,75.971,15.5,32,0.0,802.0,5.05,42.5,68,33.3,18.6,0,5,3,1,2026-03-15T08:12:42.653081+05:30
Patiala,Punjab,30.3398,76.3869,16.4,86,0.0,979.9,5.95,30.6,133,58.7,37.4,3,10,3,0,2026-03-15T08:12:42.653088+05:30
Bhatinda,Punjab,30.211,74.9455,18.1,88,0.0,985.5,6.5,36.7,91,36.6,25.1,3,10,7,1,2026-03-15T08:12:42.653094+05:30
Rohtak,Haryana,28.8955,76.6066,18.6,82,0.0,983.8,6.15,39.2,181,204.4,60.5,3,10,7,0,2026-03-15T08:12:42.653101+05:30
Panipat,Haryana,29.3909,76.9635,18.3,83,0.0,982.2,5.95,29.5,366,91.3,40.0,3,10,3,0,2026-03-15T08:12:42.653109+05:30
Mathura,Uttar Pradesh,27.4924,77.6737,20.3,63,0.0,989.1,6.5,38.5,209,968.6,115.9,3,5,7,0,2026-03-15T08:12:42.653115+05:30
Vrindavan,Uttar Pradesh,27.5823,77.7027,20.1,66,0.0,989.8,6.45,33.5,209,968.6,115.9,3,5,7,0,2026-03-15T08:12:42.653122+05:30
Ayodhya,Uttar Pradesh,26.7922,82.1998,20.7,74,0.0,1000.1,6.9,38.9,151,105.5,62.4,3,5,4,0,2026-03-15T08:12:42.653128+05:30
Ratlam,Madhya Pradesh,23.3315,75.0367,22.2,60,0.0,956.9,7.65,33.8,64,45.6,25.8,0,5,7,0,2026-03-15T08:12:42.653135+05:30
Sagar,Madhya Pradesh,23.8388,78.7378,22.4,49,0.0,952.2,7.65,33.8,60,15.7,11.8,0,5,7,0,2026-03-15T08:12:42.653141+05:30
Satna,Madhya Pradesh,24.6005,80.8322,23.7,62,0.0,973.5,7.6,26.6,96,78.7,36.1,3,5,7,0,2026-03-15T08:12:42.653148+05:30
Akola,Maharashtra,20.7002,77.0082,24.7,49,0.0,978.2,8.15,23.4,81,35.3,30.9,0,5,7,0,2026-03-15T08:12:42.653155+05:30
Amravati,Maharashtra,20.9374,77.7796,23.5,56,0.0,970.2,8.1,23.8,93,34.0,31.5,0,5,7,0,2026-03-15T08:12:42.653163+05:30
Latur,Maharashtra,18.4088,76.5604,25.0,46,0.0,943.0,8.55,27.0,133,53.2,48.5,4,5,7,0,2026-03-15T08:12:42.653170+05:30
Nanded,Maharashtra,19.1383,77.3091,25.7,62,0.0,972.1,8.35,22.3,140,66.6,61.2,7,5,7,1,2026-03-15T08:12:42.653176+05:30
Gulbarga,Karnataka,17.3297,76.8343,25.9,61,0.0,962.0,8.6,23.0,102,35.7,32.7,7,5,7,1,2026-03-15T08:12:42.653183+05:30
Bidar,Karnataka,17.9104,77.5199,24.4,67,0.0,939.0,8.6,28.1,105,34.0,29.9,3,5,7,1,2026-03-15T08:12:42.653189+05:30
Hospet,Karnataka,15.2689,76.3909,24.5,83,0.0,959.8,8.9,27.4,113,43.4,41.3,3,5,7,1,2026-03-15T08:12:42.653195+05:30
Tirupur,Tamil Nadu,11.1085,77.3411,24.1,81,0.0,979.9,9.3,27.0,56,25.8,24.2,3,5,7,1,2026-03-15T08:12:42.653201+05:30
Alappuzha,Kerala,9.4981,76.3388,26.6,82,0.0,1012.4,9.1,29.2,70,24.6,23.7,7,0,4,1,2026-03-15T08:12:42.653207+05:30
Munnar,Kerala,10.0889,77.0595,21.4,65,0.0,859.6,9.55,33.5,57,23.3,22.5,3,5,7,0,2026-03-15T08:12:42.653214+05:30
Silchar,Assam,24.8333,92.7789,20.9,90,0.0,1012.9,7.85,40.3,117,30.6,26.1,3,0,4,1,2026-03-15T08:12:42.653220+05:30
Dibrugarh,Assam,27.4728,94.912,19.4,94,0.0,1001.6,4.65,27.4,71,24.5,18.9,3,10,0,1,2026-03-15T08:12:42.653227+05:30
