city,state,latitude,longitude,temp,humidity,rain,pressure,uv_index,wind_gusts,aqi,pm10,pm2_5,mosquito_risk,arthritis_risk,migraine_risk,frizz_risk,updated_at
Delhi,Delhi,28.6139,77.209,20.9,71,0.0,986.3,6.45,23.8,186,418.2,101.0,3,5,7,0,2026-03-23T03:00:38.527408+05:30
Mumbai,Maharashtra,19.076,72.8777,29.0,57,0.0,1008.9,7.95,27.0,94,47.6,34.2,4,0,4,1,2026-03-23T03:00:38.527466+05:30
Bangalore,Karnataka,12.9716,77.5946,22.7,80,0.0,912.2,9.45,25.9,122,39.9,34.8,3,5,7,1,2026-03-23T03:00:38.527484+05:30
Hyderabad,Telangana,17.385,78.4867,23.4,83,0.0,954.6,8.95,22.7,99,30.9,24.3,3,5,7,1,2026-03-23T03:00:38.527495+05:30
Chennai,Tamil Nadu,13.0827,80.2707,26.3,83,0.0,1008.9,9.2,32.8,36,12.7,8.6,7,0,4,1,2026-03-23T03:00:38.527509+05:30
Kolkata,West Bengal,22.5726,88.3639,21.5,88,0.0,1009.9,8.3,19.1,151,93.4,89.9,3,0,4,1,2026-03-23T03:00:38.527519+05:30
Pune,Maharashtra,18.5204,73.8567,24.4,58,0.0,949.4,8.45,38.5,73,46.8,33.4,0,5,7,0,2026-03-23T03:00:38.527528+05:30
Ahmedabad,Gujarat,23.0225,72.5714,23.5,70,0.0,1004.4,7.85,29.2,80,86.6,52.5,3,5,4,1,2026-03-23T03:00:38.527537+05:30
Jaipur,Rajasthan,26.9124,75.7873,21.4,59,0.0,961.9,6.8,24.5,92,70.5,31.5,0,5,7,0,2026-03-23T03:00:38.527545+05:30
Lucknow,Uttar Pradesh,26.8467,80.9462,20.2,69,0.0,996.8,6.3,37.8,131,457.3,80.6,3,5,7,0,2026-03-23T03:00:38.527553+05:30
Kanpur,Uttar Pradesh,26.4499,80.3319,20.5,76,0.0,995.0,6.4,28.4,182,532.7,90.8,3,5,7,1,2026-03-23T03:00:38.527560+05:30
Chandigarh,Chandigarh,30.7333,76.7794,17.4,83,0.0,971.6,6.4,25.9,99,52.4,48.0,3,10,7,0,2026-03-23T03:00:38.527569+05:30
Srinagar,Jammu and Kashmir,34.0837,74.7973,7.4,91,0.0,839.6,5.85,17.3,118,53.4,48.9,3,10,3,0,2026-03-23T03:00:38.527578+05:30
Jammu,Jammu and Kashmir,32.7266,74.857,17.1,91,0.0,975.7,7.05,20.5,105,50.4,47.6,3,10,7,0,2026-03-23T03:00:38.527587+05:30
Amritsar,Punjab,31.634,74.8723,18.1,77,0.0,984.0,7.05,22.0,153,106.4,80.6,3,5,7,0,2026-03-23T03:00:38.527598+05:30
Ludhiana,Punjab,30.901,75.8573,19.0,75,0.0,982.0,6.65,25.2,144,113.4,70.8,3,5,7,0,2026-03-23T03:00:38.527606+05:30
Jalandhar,Punjab,31.326,75.5762,18.6,78,0.0,983.1,6.85,27.0,152,100.4,75.0,3,5,7,0,2026-03-23T03:00:38.527614+05:30
Dehradun,Uttarakhand,30.6284,78.0322,10.8,92,0.0,829.0,6.8,23.4,61,28.5,24.6,3,10,7,0,2026-03-23T03:00:38.527622+05:30
Shimla,Himachal Pradesh,31.1048,77.1734,8.3,89,0.0,782.0,6.9,31.7,72,41.1,35.9,3,10,7,0,2026-03-23T03:00:38.527630+05:30
Manali,Himachal Pradesh,32.2396,77.1887,11.1,41,0.0,817.1,8.25,26.6,48,26.5,17.4,0,5,7,1,2026-03-23T03:00:38.527638+05:30
Gurgaon,Haryana,28.4595,77.0266,18.9,82,0.0,984.6,6.55,20.2,488,532.7,113.4,3,10,7,0,2026-03-23T03:00:38.527646+05:30
Noida,Uttar Pradesh,28.5355,77.391,20.6,72,0.0,987.8,6.45,22.7,488,532.7,113.4,3,5,7,0,2026-03-23T03:00:38.527653+05:30
Ghaziabad,Uttar Pradesh,28.6692,77.4538,19.2,79,0.0,985.9,6.35,23.8,168,400.5,95.5,3,5,7,0,2026-03-23T03:00:38.527660+05:30
Faridabad,Haryana,28.4089,77.3178,19.0,79,0.0,987.0,6.45,19.4,488,532.7,113.4,3,5,7,0,2026-03-23T03:00:38.527667+05:30
Meerut,Uttar Pradesh,28.9845,77.7064,17.7,83,0.0,984.5,6.35,24.8,168,400.5,95.5,3,10,7,0,2026-03-23T03:00:38.527676+05:30
Agra,Uttar Pradesh,27.1767,78.0081,20.6,66,0.0,990.9,5.2,28.1,441,502.9,92.4,3,5,3,0,2026-03-23T03:00:38.527684+05:30
Varanasi,Uttar Pradesh,25.3176,82.9739,19.3,78,0.0,1001.1,7.65,25.9,107,93.8,45.1,3,5,4,0,2026-03-23T03:00:38.527692+05:30
Prayagraj,Uttar Pradesh,25.4358,81.8463,20.9,62,0.0,999.5,7.55,20.5,113,244.0,58.7,3,5,7,0,2026-03-23T03:00:38.527702+05:30
Gorakhpur,Uttar Pradesh,26.7606,83.3732,18.3,88,0.0,1000.9,7.4,20.5,152,57.3,52.2,3,10,4,1,2026-03-23T03:00:38.527710+05:30
Bareilly,Uttar Pradesh,28.367,79.4304,17.5,85,0.0,989.7,6.5,28.1,120,206.8,59.3,3,10,7,0,2026-03-23T03:00:38.527720+05:30
Aligarh,Uttar Pradesh,27.8974,78.088,18.3,79,0.0,988.6,6.0,23.8,377,453.6,97.8,3,5,3,0,2026-03-23T03:00:38.527728+05:30
Moradabad,Uttar Pradesh,28.8386,78.7733,17.6,83,0.0,986.5,6.5,27.0,142,309.2,81.5,3,10,7,0,2026-03-23T03:00:38.527735+05:30
Saharanpur,Uttar Pradesh,29.9637,77.546,16.8,86,0.0,978.5,6.15,28.1,153,201.2,82.9,3,10,7,0,2026-03-23T03:00:38.527741+05:30
Jhansi,Uttar Pradesh,25.4484,78.5685,22.2,55,0.0,980.6,7.4,20.2,81,52.0,29.3,0,5,7,0,2026-03-23T03:00:41.871955+05:30
Surat,Gujarat,21.1702,72.8311,24.5,79,0.0,1008.4,7.65,25.2,119,66.8,49.4,3,0,4,1,2026-03-23T03:00:41.871987+05:30
Vadodara,Gujarat,22.3072,73.1812,25.3,54,0.0,1006.4,7.8,23.0,83,56.5,33.5,4,5,4,0,2026-03-23T03:00:41.871999+05:30
Rajkot,Gujarat,22.3039,70.8022,23.4,89,0.0,996.8,7.65,30.6,65,30.6,18.3,3,5,7,1,2026-03-23T03:00:41.872009+05:30
Thane,Maharashtra,19.2183,72.9781,27.0,50,0.0,1008.4,7.9,41.4,94,47.6,34.2,4,0,4,0,2026-03-23T03:00:41.872019+05:30
Nagpur,Maharashtra,21.1458,79.0882,24.0,51,0.0,975.4,7.95,22.7,60,31.5,22.4,0,5,7,0,2026-03-23T03:00:41.872029+05:30
Nashik,Maharashtra,19.9975,73.7898,22.4,61,0.0,946.7,8.15,35.6,71,36.6,20.5,3,5,7,0,2026-03-23T03:00:41.872038+05:30
Aurangabad,Maharashtra,19.8762,75.3433,22.3,54,0.0,945.2,8.6,19.8,61,45.1,33.1,0,5,7,0,2026-03-23T03:00:41.872046+05:30
Solapur,Maharashtra,17.6599,75.9064,23.2,59,0.0,957.4,8.75,22.0,58,17.2,14.7,0,5,7,0,2026-03-23T03:00:41.872055+05:30
Kolhapur,Maharashtra,16.705,74.2433,18.8,74,0.0,947.8,8.9,38.5,87,39.8,35.3,3,5,7,0,2026-03-23T03:00:41.872064+05:30
Goa,Goa,15.2993,74.124,26.5,89,0.0,998.1,8.9,34.2,89,52.7,44.2,7,5,7,1,2026-03-23T03:00:41.872073+05:30
Jodhpur,Rajasthan,26.2389,73.0243,23.1,75,0.0,986.0,7.4,18.7,69,136.9,26.1,3,5,7,1,2026-03-23T03:00:41.872082+05:30
Udaipur,Rajasthan,24.5854,73.7125,21.3,58,0.0,948.5,8.05,30.6,57,53.6,18.8,0,5,7,0,2026-03-23T03:00:41.872090+05:30
Kota,Rajasthan,25.2138,75.8648,23.6,55,0.0,980.8,7.45,22.7,88,40.5,27.6,0,5,7,0,2026-03-23T03:00:41.872099+05:30
Bikaner,Rajasthan,28.0229,73.3119,21.9,73,0.0,985.4,7.25,15.1,69,44.2,20.3,3,5,7,1,2026-03-23T03:00:41.872107+05:30
Ajmer,Rajasthan,26.4499,74.6399,22.5,59,0.0,957.2,7.2,25.2,66,46.9,17.4,0,5,7,0,2026-03-23T03:00:41.872116+05:30
Gwalior,Madhya Pradesh,26.2183,78.1828,21.9,64,0.0,985.9,6.95,25.6,120,120.6,33.3,3,5,7,0,2026-03-23T03:00:41.872124+05:30
Indore,Madhya Pradesh,22.7196,75.8577,21.3,58,0.0,949.3,8.1,22.3,63,36.8,25.3,0,5,7,0,2026-03-23T03:00:41.872132+05:30
Bhopal,Madhya Pradesh,23.2599,77.4126,21.4,51,0.0,955.2,8.0,30.2,55,25.6,14.4,0,5,7,0,2026-03-23T03:00:41.872141+05:30
Jabalpur,Madhya Pradesh,23.1815,79.9864,21.5,56,0.0,963.6,8.1,21.2,63,64.0,29.2,0,5,7,0,2026-03-23T03:00:41.872150+05:30
Ujjain,Madhya Pradesh,23.1765,75.7885,20.8,59,0.0,955.1,8.0,20.5,78,64.3,53.7,0,5,7,0,2026-03-23T03:00:41.872159+05:30
Visakhapatnam,Andhra Pradesh,17.6868,83.2185,24.2,90,0.0,1006.0,8.9,36.0,74,28.1,23.7,3,5,4,1,2026-03-23T03:00:41.872168+05:30
Vijayawada,Andhra Pradesh,16.5062,80.648,25.2,90,0.0,1004.7,8.95,25.6,66,21.9,18.6,7,5,4,1,2026-03-23T03:00:41.872176+05:30
Guntur,Andhra Pradesh,16.3067,80.4365,24.8,94,0.0,1005.9,8.95,29.2,67,22.1,18.9,3,5,4,1,2026-03-23T03:00:41.872185+05:30
Nellore,Andhra Pradesh,14.4426,79.9865,25.2,90,0.0,1007.7,9.1,28.8,46,10.5,6.9,7,5,4,1,2026-03-23T03:00:41.872195+05:30
Kurnool,Andhra Pradesh,15.8281,78.0373,26.5,72,0.0,978.3,8.95,25.2,78,20.5,17.3,7,5,7,1,2026-03-23T03:00:41.872204+05:30
Kakinada,Andhra Pradesh,16.9891,82.2475,22.6,97,0.0,1009.6,8.9,31.3,45,18.9,13.4,3,0,4,1,2026-03-23T03:00:41.872213+05:30
Tirupati,Andhra Pradesh,13.6288,79.4192,23.2,84,0.0,993.5,9.2,30.6,67,28.2,24.4,3,5,7,1,2026-03-23T03:00:41.872221+05:30
Warangal,Telangana,17.9689,79.5941,24.6,83,0.0,980.3,8.8,22.3,123,41.3,36.1,3,5,7,1,2026-03-23T03:00:41.872230+05:30
Nizamabad,Telangana,18.6725,78.0941,24.1,79,0.0,966.2,8.7,20.9,83,56.0,49.5,3,5,7,1,2026-03-23T03:00:41.872238+05:30
Mysore,Karnataka,12.2958,76.6396,22.9,85,0.0,928.7,9.4,33.5,99,65.4,53.6,3,5,7,1,2026-03-23T03:00:41.872247+05:30
Mangalore,Karnataka,12.9141,74.856,29.2,77,0.0,1007.1,9.1,24.5,76,39.5,29.6,7,5,4,1,2026-03-23T03:00:41.872255+05:30
Hubli-Dharwad,Karnataka,15.3647,75.124,21.6,81,0.0,940.9,9.1,40.3,70,33.8,25.4,3,5,7,1,2026-03-23T03:00:41.872264+05:30
Belgaum,Karnataka,15.8497,74.4977,22.1,67,0.0,925.5,9.15,38.9,75,36.7,29.2,3,5,7,0,2026-03-23T03:00:45.215290+05:30
Coimbatore,Tamil Nadu,11.0168,76.9558,23.6,76,0.0,963.0,9.4,34.6,87,42.1,34.6,3,5,7,1,2026-03-23T03:00:45.215343+05:30
Madurai,Tamil Nadu,9.9252,78.1198,25.3,88,0.0,994.5,9.35,26.3,65,30.7,26.9,7,5,7,1,2026-03-23T03:00:45.215357+05:30
Trichy,Tamil Nadu,10.7905,78.7047,25.0,94,0.0,1001.5,9.3,22.7,65,22.8,18.7,7,5,4,1,2026-03-23T03:00:45.215368+05:30
Salem,Tamil Nadu,11.6643,78.146,25.2,77,0.0,978.7,9.35,22.3,84,37.3,32.1,7,5,7,1,2026-03-23T03:00:45.215379+05:30
Tirunelveli,Tamil Nadu,8.7139,77.7567,25.3,78,0.0,1004.2,9.3,34.2,71,39.8,37.0,7,5,4,1,2026-03-23T03:00:45.215389+05:30
Vellore,Tamil Nadu,12.9165,79.1325,22.6,88,0.0,986.3,9.3,34.2,81,38.8,34.0,3,5,7,1,2026-03-23T03:00:45.215400+05:30
Erode,Tamil Nadu,11.341,77.7172,26.1,83,0.0,990.6,9.35,20.9,66,19.7,16.9,7,5,7,1,2026-03-23T03:00:45.215409+05:30
Kochi,Kerala,9.9312,76.2673,26.9,83,0.0,1009.3,9.15,28.8,79,39.3,36.4,7,0,4,1,2026-03-23T03:00:45.215419+05:30
Thiruvananthapuram,Kerala,8.5241,76.9366,27.6,80,0.0,1008.2,9.15,26.3,78,21.3,17.5,7,0,4,1,2026-03-23T03:00:45.215429+05:30
Kozhikode,Kerala,11.2588,75.7804,27.0,85,0.0,1008.6,9.05,25.2,67,37.3,19.6,7,0,4,1,2026-03-23T03:00:45.215439+05:30
Thrissur,Kerala,10.5276,76.2144,26.1,86,0.0,1007.9,9.15,35.6,81,44.1,37.5,7,5,4,1,2026-03-23T03:00:45.215448+05:30
Kannur,Kerala,11.8745,75.3704,28.3,79,0.0,1007.5,9.1,27.0,70,37.6,26.0,7,5,4,1,2026-03-23T03:00:45.215457+05:30
Patna,Bihar,25.5941,85.1376,19.7,83,0.0,1004.6,7.85,22.0,159,64.7,61.5,3,10,4,1,2026-03-23T03:00:45.215466+05:30
Gaya,Bihar,24.7914,85.0002,18.6,89,0.0,998.0,7.95,18.7,134,55.2,48.8,3,10,7,1,2026-03-23T03:00:45.215475+05:30
Muzaffarpur,Bihar,26.1209,85.3647,18.2,84,0.0,1004.7,7.8,19.8,160,65.9,63.3,3,10,4,0,2026-03-23T03:00:45.215484+05:30
Bhagalpur,Bihar,25.2425,87.0117,19.3,84,0.0,1005.6,7.85,12.6,156,86.6,80.6,3,10,4,1,2026-03-23T03:00:45.215493+05:30
Ranchi,Jharkhand,23.3441,85.3096,17.4,70,0.0,940.0,8.55,27.0,86,55.4,30.6,3,5,7,0,2026-03-23T03:00:45.215502+05:30
Jamshedpur,Jharkhand,22.8046,86.2029,22.2,71,0.0,994.5,8.4,16.6,125,91.5,77.8,3,5,7,1,2026-03-23T03:00:45.215510+05:30
Dhanbad,Jharkhand,23.7957,86.4304,19.7,82,0.0,983.6,8.3,19.1,149,94.8,84.5,3,10,7,1,2026-03-23T03:00:45.215519+05:30
Bokaro,Jharkhand,23.6693,86.1511,19.7,78,0.0,987.8,8.3,16.2,150,107.8,88.2,3,5,7,0,2026-03-23T03:00:45.215528+05:30
Bhubaneswar,Odisha,20.2961,85.8245,23.6,95,0.0,1005.7,8.7,31.3,95,55.2,45.4,3,5,4,1,2026-03-23T03:00:45.215537+05:30
Cuttack,Odisha,20.4625,85.8828,23.5,94,0.0,1007.7,8.75,27.4,95,55.2,45.4,3,5,4,1,2026-03-23T03:00:45.215546+05:30
Rourkela,Odisha,22.2604,84.8536,19.4,82,0.0,988.0,8.3,20.5,84,51.8,34.3,3,10,7,1,2026-03-23T03:00:45.215554+05:30
Raipur,Chhattisgarh,21.2514,81.6296,21.3,49,0.0,977.4,8.45,21.6,91,93.6,79.4,0,5,7,0,2026-03-23T03:00:45.215564+05:30
Bhilai,Chhattisgarh,21.1938,81.3509,20.9,53,0.0,977.7,8.45,20.5,99,87.1,70.5,0,5,7,0,2026-03-23T03:00:45.215572+05:30
Guwahati,Assam,26.1158,91.7086,20.0,95,0.0,1005.4,7.6,19.8,79,34.5,30.0,3,5,4,1,2026-03-23T03:00:45.215581+05:30
Agartala,Tripura,23.8315,91.2868,19.5,89,0.0,1010.4,8.05,16.6,150,91.3,86.6,3,5,4,1,2026-03-23T03:00:45.215590+05:30
Shillong,Meghalaya,25.5788,91.8933,7.8,93,0.0,854.0,7.25,25.6,61,23.4,21.0,3,10,7,0,2026-03-23T03:00:45.215599+05:30
Imphal,Manipur,24.817,93.9368,13.9,91,0.0,924.5,8.35,31.0,59,26.4,24.6,3,10,7,0,2026-03-23T03:00:45.215608+05:30
Aizawl,Mizoram,23.7271,92.7176,14.1,85,0.0,893.4,8.3,30.6,45,23.0,21.3,3,10,7,0,2026-03-23T03:00:45.215617+05:30
Kohima,Nagaland,25.6701,94.1077,10.6,90,0.0,853.9,6.85,41.4,52,18.9,17.5,3,10,7,0,2026-03-23T03:00:45.215625+05:30
Gangtok,Sikkim,27.3314,88.6138,10.9,91,0.0,836.3,7.35,19.4,55,21.2,20.7,3,10,7,0,2026-03-23T03:00:45.215634+05:30
Siliguri,West Bengal,26.7271,88.3953,16.9,76,0.0,997.5,7.05,22.3,101,49.8,48.1,3,5,7,0,2026-03-23T03:00:48.571438+05:30
Durgapur,West Bengal,23.5204,87.3119,21.3,77,0.0,999.2,8.25,16.6,146,100.8,97.1,3,5,7,1,2026-03-23T03:00:48.571471+05:30
Asansol,West Bengal,23.6739,86.9524,21.5,74,0.0,997.7,8.3,16.9,123,61.9,58.7,3,5,7,1,2026-03-23T03:00:48.571483+05:30
Pondicherry,Puducherry,11.9139,79.8145,23.6,99,0.0,1010.1,9.2,29.9,33,11.8,7.2,3,0,4,1,2026-03-23T03:00:48.571493+05:30
Port Blair,Andaman and Nicobar Islands,11.6234,92.7265,27.7,82,0.0,1008.0,9.1,25.2,40,8.1,5.9,7,0,4,1,2026-03-23T03:00:48.571504+05:30
Haridwar,Uttarakhand,29.9457,78.1642,16.3,89,0.0,976.8,6.3,26.3,124,109.2,63.6,3,10,7,0,2026-03-23T03:00:48.571514+05:30
Rishikesh,Uttarakhand,30.0869,78.2676,17.3,77,0.0,969.4,6.4,22.7,82,78.2,44.0,3,5,7,0,2026-03-23T03:00:48.571523+05:30
Nainital,Uttarakhand,29.3919,79.4542,13.7,71,0.0,805.1,7.2,37.1,79,48.7,35.9,3,5,7,0,2026-03-23T03:00:48.571532+05:30
Mussoorie,Uttarakhand,30.4599,78.0664,12.2,77,0.0,801.6,6.75,27.7,95,87.8,52.4,3,5,7,0,2026-03-23T03:00:48.571541+05:30
Dharamshala,Himachal Pradesh,32.219,76.3234,15.9,63,0.0,869.2,6.95,19.1,87,21.8,13.3,3,5,7,0,2026-03-23T03:00:48.571550+05:30
Dalhousie,Himachal Pradesh,32.5387,75.971,11.9,73,0.0,802.4,7.1,21.2,92,45.1,41.6,3,5,7,0,2026-03-23T03:00:48.571560+05:30
Patiala,Punjab,30.3398,76.3869,17.6,85,0.0,981.2,6.3,24.5,162,138.8,70.8,3,10,7,0,2026-03-23T03:00:48.571569+05:30
Bhatinda,Punjab,30.211,74.9455,18.3,85,0.0,987.3,7.0,20.9,151,147.1,76.6,3,10,7,0,2026-03-23T03:00:48.571578+05:30
Rohtak,Haryana,28.8955,76.6066,18.4,82,0.0,985.1,6.5,21.2,199,445.2,100.1,3,10,7,0,2026-03-23T03:00:48.571586+05:30
Panipat,Haryana,29.3909,76.9635,17.1,85,0.0,983.4,6.3,22.7,461,346.5,91.5,3,10,7,0,2026-03-23T03:00:48.571595+05:30
Mathura,Uttar Pradesh,27.4924,77.6737,18.6,77,0.0,989.9,4.7,20.5,284,407.0,91.7,3,5,3,0,2026-03-23T03:00:48.571604+05:30
Vrindavan,Uttar Pradesh,27.5823,77.7027,19.0,75,0.0,990.3,5.05,20.5,284,407.0,91.7,3,5,3,0,2026-03-23T03:00:48.571612+05:30
Ayodhya,Uttar Pradesh,26.7922,82.1998,18.7,85,0.0,998.8,6.8,27.0,105,216.5,52.5,3,10,7,1,2026-03-23T03:00:48.571621+05:30
Ratlam,Madhya Pradesh,23.3315,75.0367,23.7,48,0.0,956.1,7.95,24.1,72,43.0,30.6,0,5,7,0,2026-03-23T03:00:48.571630+05:30
Sagar,Madhya Pradesh,23.8388,78.7378,21.6,54,0.0,952.1,8.0,28.8,60,43.7,20.9,0,5,7,0,2026-03-23T03:00:48.571638+05:30
Satna,Madhya Pradesh,24.6005,80.8322,20.3,57,0.0,974.2,7.95,19.1,77,93.8,32.2,0,5,7,0,2026-03-23T03:00:48.571647+05:30
Akola,Maharashtra,20.7002,77.0082,23.7,52,0.0,977.0,8.0,16.6,57,34.0,27.0,0,5,7,0,2026-03-23T03:00:48.571657+05:30
Amravati,Maharashtra,20.9374,77.7796,22.3,56,0.0,968.9,8.35,16.9,53,32.8,24.6,0,5,7,0,2026-03-23T03:00:48.571666+05:30
Latur,Maharashtra,18.4088,76.5604,21.7,57,0.0,940.5,8.5,18.4,58,27.4,21.2,0,5,7,0,2026-03-23T03:00:48.571675+05:30
Nanded,Maharashtra,19.1383,77.3091,24.6,50,0.0,970.1,8.55,18.7,56,20.4,18.5,0,5,7,0,2026-03-23T03:00:48.571684+05:30
Gulbarga,Karnataka,17.3297,76.8343,25.8,62,0.0,959.6,8.8,31.7,81,32.6,27.6,7,5,7,1,2026-03-23T03:00:48.571692+05:30
Bidar,Karnataka,17.9104,77.5199,24.0,75,0.0,936.5,8.8,21.2,83,37.0,30.4,3,5,7,1,2026-03-23T03:00:48.571700+05:30
Hospet,Karnataka,15.2689,76.3909,25.7,72,0.0,956.4,9.05,43.2,84,42.1,33.8,7,5,7,1,2026-03-23T03:00:48.571709+05:30
Tirupur,Tamil Nadu,11.1085,77.3411,24.3,80,0.0,976.9,9.45,32.4,84,38.1,32.2,3,5,7,1,2026-03-23T03:00:48.571717+05:30
Alappuzha,Kerala,9.4981,76.3388,26.7,82,0.0,1009.3,9.15,29.5,69,42.6,35.0,7,0,4,1,2026-03-23T03:00:48.571726+05:30
Munnar,Kerala,10.0889,77.0595,20.0,86,0.0,856.6,9.65,25.6,70,34.2,27.6,3,5,7,1,2026-03-23T03:00:48.571735+05:30
Silchar,Assam,24.8333,92.7789,19.1,94,0.0,1009.4,8.0,13.7,86,46.3,41.6,3,5,4,1,2026-03-23T03:00:48.571744+05:30
Dibrugarh,Assam,27.4728,94.912,19.6,94,0.0,999.5,7.6,14.4,99,10.7,10.0,3,10,7,1,2026-03-23T03:00:48.571752+05:30
