city,state,latitude,longitude,temp,humidity,rain,pressure,uv_index,wind_gusts,aqi,pm10,pm2_5,mosquito_risk,arthritis_risk,migraine_risk,frizz_risk,updated_at
Delhi,Delhi,28.6139,77.209,24.0,53,0.0,980.6,6.05,22.7,138,192.8,90.6,0,5,7,0,2026-03-29T01:02:23.165271+05:30
Mumbai,Maharashtra,19.076,72.8777,27.4,80,0.0,1008.0,8.0,23.0,68,58.1,17.3,7,0,4,1,2026-03-29T01:02:23.165320+05:30
Bangalore,Karnataka,12.9716,77.5946,22.8,75,0.0,911.1,9.5,31.3,114,46.7,42.4,3,5,7,1,2026-03-29T01:02:23.165335+05:30
Hyderabad,Telangana,17.385,78.4867,27.6,51,0.0,951.3,9.05,24.1,108,55.4,50.8,4,5,7,1,2026-03-29T01:02:23.165345+05:30
Chennai,Tamil Nadu,13.0827,80.2707,26.5,87,0.0,1006.2,9.3,36.0,65,20.6,14.6,7,5,4,1,2026-03-29T01:02:23.165354+05:30
Kolkata,West Bengal,22.5726,88.3639,22.8,91,0.0,1006.1,8.45,27.0,139,39.3,35.3,3,5,4,1,2026-03-29T01:02:23.165363+05:30
Pune,Maharashtra,18.5204,73.8567,23.3,46,0.0,947.2,8.55,32.4,70,25.3,21.5,0,5,7,0,2026-03-29T01:02:23.165375+05:30
Ahmedabad,Gujarat,23.0225,72.5714,27.0,62,0.0,1000.4,7.85,25.9,34,15.6,6.8,7,5,4,1,2026-03-29T01:02:23.165383+05:30
Jaipur,Rajasthan,26.9124,75.7873,27.3,40,0.0,957.2,7.15,33.1,86,156.5,32.7,4,5,7,0,2026-03-29T01:02:23.165390+05:30
Lucknow,Uttar Pradesh,26.8467,80.9462,24.3,58,0.0,991.7,7.25,18.7,125,235.6,55.1,0,5,7,0,2026-03-29T01:02:23.165398+05:30
Kanpur,Uttar Pradesh,26.4499,80.3319,23.8,63,0.0,989.8,7.1,18.0,186,312.9,62.9,3,5,7,1,2026-03-29T01:02:23.165407+05:30
Chandigarh,Chandigarh,30.7333,76.7794,21.9,75,0.0,966.6,6.6,27.4,74,39.5,38.3,3,5,7,1,2026-03-29T01:02:23.165414+05:30
Srinagar,Jammu and Kashmir,34.0837,74.7973,11.8,83,0.0,836.4,7.4,15.8,92,70.5,59.5,3,10,7,0,2026-03-29T01:02:23.165422+05:30
Jammu,Jammu and Kashmir,32.7266,74.857,21.7,84,0.0,971.1,7.35,20.5,80,48.4,44.9,3,5,7,1,2026-03-29T01:02:23.165430+05:30
Amritsar,Punjab,31.634,74.8723,22.3,71,0.0,978.2,7.3,36.7,121,53.2,40.5,3,5,7,1,2026-03-29T01:02:23.165437+05:30
Ludhiana,Punjab,30.901,75.8573,22.8,69,0.0,976.4,6.95,34.6,112,66.4,58.7,3,5,7,1,2026-03-29T01:02:23.165443+05:30
Jalandhar,Punjab,31.326,75.5762,22.4,72,0.0,977.5,7.15,33.8,109,82.9,63.6,3,5,7,1,2026-03-29T01:02:23.165452+05:30
Dehradun,Uttarakhand,30.6284,78.0322,13.4,86,0.0,827.4,4.8,20.9,71,32.7,24.8,3,10,3,0,2026-03-29T01:02:23.165461+05:30
Shimla,Himachal Pradesh,31.1048,77.1734,12.5,82,0.0,781.7,6.8,25.2,80,36.8,32.2,3,10,7,0,2026-03-29T01:02:23.165468+05:30
Manali,Himachal Pradesh,32.2396,77.1887,15.4,60,0.0,816.9,8.45,24.5,86,33.1,16.1,0,5,7,0,2026-03-29T01:02:23.165475+05:30
Gurgaon,Haryana,28.4595,77.0266,21.7,62,0.0,978.8,6.1,24.5,278,259.8,93.8,3,5,7,0,2026-03-29T01:02:23.165481+05:30
Noida,Uttar Pradesh,28.5355,77.391,23.3,56,0.0,982.1,6.05,20.5,278,259.8,93.8,0,5,7,0,2026-03-29T01:02:23.165488+05:30
Ghaziabad,Uttar Pradesh,28.6692,77.4538,22.2,60,0.0,980.3,6.4,20.5,133,192.3,91.0,0,5,7,0,2026-03-29T01:02:23.165494+05:30
Faridabad,Haryana,28.4089,77.3178,22.9,55,0.0,981.3,6.15,20.9,278,259.8,93.8,0,5,7,0,2026-03-29T01:02:23.165501+05:30
Meerut,Uttar Pradesh,28.9845,77.7064,21.3,69,0.0,979.1,5.75,17.6,133,192.3,91.0,3,5,3,0,2026-03-29T01:02:23.165508+05:30
Agra,Uttar Pradesh,27.1767,78.0081,22.6,62,0.0,985.3,6.95,26.3,400,438.7,86.6,3,5,7,0,2026-03-29T01:02:23.165514+05:30
Varanasi,Uttar Pradesh,25.3176,82.9739,21.9,67,0.0,995.7,7.95,24.5,90,97.3,53.7,3,5,7,0,2026-03-29T01:02:23.165522+05:30
Prayagraj,Uttar Pradesh,25.4358,81.8463,23.1,65,0.0,994.3,7.8,21.6,94,119.2,64.3,3,5,7,1,2026-03-29T01:02:23.165529+05:30
Gorakhpur,Uttar Pradesh,26.7606,83.3732,21.6,84,0.0,996.2,7.3,26.3,93,87.3,59.1,3,5,7,1,2026-03-29T01:02:23.165536+05:30
Bareilly,Uttar Pradesh,28.367,79.4304,21.7,72,0.0,984.9,7.0,17.3,83,124.8,52.6,3,5,7,1,2026-03-29T01:02:23.165542+05:30
Aligarh,Uttar Pradesh,27.8974,78.088,20.8,67,0.0,983.1,6.8,16.9,270,517.8,109.4,3,5,7,0,2026-03-29T01:02:23.165549+05:30
Moradabad,Uttar Pradesh,28.8386,78.7733,22.1,69,0.0,981.7,6.55,16.9,100,95.7,75.0,3,5,7,1,2026-03-29T01:02:23.165556+05:30
Saharanpur,Uttar Pradesh,29.9637,77.546,20.8,79,0.0,973.7,5.7,20.5,115,88.5,74.0,3,5,3,1,2026-03-29T01:02:23.165563+05:30
Jhansi,Uttar Pradesh,25.4484,78.5685,24.3,54,0.0,975.4,7.75,27.7,87,87.3,26.6,0,5,7,0,2026-03-29T01:02:26.469457+05:30
Surat,Gujarat,21.1702,72.8311,27.2,85,0.0,1005.3,7.75,25.2,78,19.4,16.2,7,5,4,1,2026-03-29T01:02:26.469483+05:30
Vadodara,Gujarat,22.3072,73.1812,26.7,80,0.0,1002.8,7.95,25.6,57,29.3,18.6,7,5,4,1,2026-03-29T01:02:26.469492+05:30
Rajkot,Gujarat,22.3039,70.8022,24.9,81,0.0,993.5,7.75,32.4,33,25.6,8.6,3,5,7,1,2026-03-29T01:02:26.469499+05:30
Thane,Maharashtra,19.2183,72.9781,26.1,84,0.0,1007.5,8.0,35.6,68,58.1,17.3,7,5,4,1,2026-03-29T01:02:26.469506+05:30
Nagpur,Maharashtra,21.1458,79.0882,26.1,41,0.0,970.4,8.55,15.1,65,56.2,45.1,4,5,7,0,2026-03-29T01:02:26.469513+05:30
Nashik,Maharashtra,19.9975,73.7898,21.4,65,0.0,944.3,8.25,28.4,53,47.8,15.0,3,5,7,0,2026-03-29T01:02:26.469520+05:30
Aurangabad,Maharashtra,19.8762,75.3433,25.4,33,0.0,942.6,8.75,28.1,46,20.5,10.0,4,5,7,0,2026-03-29T01:02:26.469526+05:30
Solapur,Maharashtra,17.6599,75.9064,27.6,39,0.0,955.6,8.9,23.8,75,20.8,19.6,4,5,7,0,2026-03-29T01:02:26.469533+05:30
Kolhapur,Maharashtra,16.705,74.2433,20.7,77,0.0,946.6,9.0,30.6,114,23.2,22.4,3,5,7,1,2026-03-29T01:02:26.469540+05:30
Goa,Goa,15.2993,74.124,27.7,79,0.0,997.2,8.95,37.1,100,51.8,46.2,7,5,7,1,2026-03-29T01:02:26.469547+05:30
Jodhpur,Rajasthan,26.2389,73.0243,27.0,61,0.0,979.6,7.8,39.2,87,154.1,23.4,7,5,7,1,2026-03-29T01:02:26.469554+05:30
Udaipur,Rajasthan,24.5854,73.7125,23.7,62,0.0,944.5,8.4,31.0,37,21.0,7.3,3,5,7,0,2026-03-29T01:02:26.469560+05:30
Kota,Rajasthan,25.2138,75.8648,28.2,41,0.0,976.4,7.45,28.1,58,48.9,25.0,4,5,7,0,2026-03-29T01:02:26.469566+05:30
Bikaner,Rajasthan,28.0229,73.3119,28.4,38,0.0,977.2,7.55,31.3,41,211.4,42.1,4,5,7,0,2026-03-29T01:02:26.469573+05:30
Ajmer,Rajasthan,26.4499,74.6399,23.9,56,0.0,951.6,7.75,40.0,42,45.3,11.7,0,5,7,0,2026-03-29T01:02:26.469579+05:30
Gwalior,Madhya Pradesh,26.2183,78.1828,24.5,62,0.0,980.8,7.45,22.0,135,254.3,44.8,3,5,7,1,2026-03-29T01:02:26.469585+05:30
Indore,Madhya Pradesh,22.7196,75.8577,24.0,65,0.0,946.3,8.25,28.4,45,21.1,13.9,3,5,7,1,2026-03-29T01:02:26.469591+05:30
Bhopal,Madhya Pradesh,23.2599,77.4126,25.3,49,0.0,951.6,8.2,31.7,45,17.7,13.0,4,5,7,0,2026-03-29T01:02:26.469598+05:30
Jabalpur,Madhya Pradesh,23.1815,79.9864,25.2,56,0.0,958.6,8.3,28.8,59,37.7,23.2,4,5,7,0,2026-03-29T01:02:26.469604+05:30
Ujjain,Madhya Pradesh,23.1765,75.7885,24.2,61,0.0,951.9,8.15,27.7,43,23.0,13.2,3,5,7,1,2026-03-29T01:02:26.469610+05:30
Visakhapatnam,Andhra Pradesh,17.6868,83.2185,27.1,85,0.0,1002.0,9.0,41.4,90,29.3,20.8,7,5,4,1,2026-03-29T01:02:26.469616+05:30
Vijayawada,Andhra Pradesh,16.5062,80.648,26.2,91,0.0,1001.1,9.05,25.6,85,24.1,18.6,7,5,4,1,2026-03-29T01:02:26.469622+05:30
Guntur,Andhra Pradesh,16.3067,80.4365,26.3,91,0.0,1002.1,9.05,29.5,87,26.6,21.1,7,5,4,1,2026-03-29T01:02:26.469628+05:30
Nellore,Andhra Pradesh,14.4426,79.9865,26.0,90,0.0,1004.3,8.9,33.1,75,19.3,15.1,7,5,4,1,2026-03-29T01:02:26.469634+05:30
Kurnool,Andhra Pradesh,15.8281,78.0373,29.8,49,0.0,975.4,9.1,24.1,120,56.6,48.8,4,5,7,1,2026-03-29T01:02:26.469641+05:30
Kakinada,Andhra Pradesh,16.9891,82.2475,26.0,93,0.0,1006.1,9.0,29.2,71,26.4,16.2,7,5,4,1,2026-03-29T01:02:26.469647+05:30
Tirupati,Andhra Pradesh,13.6288,79.4192,25.3,85,0.0,991.0,9.1,25.9,105,45.8,43.0,7,5,7,1,2026-03-29T01:02:26.469653+05:30
Warangal,Telangana,17.9689,79.5941,27.7,69,0.0,976.2,8.9,25.9,116,66.6,61.2,7,5,7,1,2026-03-29T01:02:26.469659+05:30
Nizamabad,Telangana,18.6725,78.0941,26.7,54,0.0,961.8,8.85,27.4,79,35.6,32.6,4,5,7,1,2026-03-29T01:02:26.469665+05:30
Mysore,Karnataka,12.2958,76.6396,23.3,87,0.0,928.1,9.45,35.3,104,42.4,38.8,3,5,7,1,2026-03-29T01:02:26.469671+05:30
Mangalore,Karnataka,12.9141,74.856,29.2,81,0.0,1005.5,9.15,32.4,96,46.2,41.0,7,5,4,1,2026-03-29T01:02:26.469677+05:30
Hubli-Dharwad,Karnataka,15.3647,75.124,23.8,93,0.0,939.8,9.15,34.9,103,36.6,33.5,3,5,7,1,2026-03-29T01:02:26.469683+05:30
Belgaum,Karnataka,15.8497,74.4977,21.2,91,0.0,924.5,9.2,37.1,116,47.6,43.8,3,5,7,1,2026-03-29T01:02:29.773377+05:30
Coimbatore,Tamil Nadu,11.0168,76.9558,24.6,84,0.0,961.4,9.45,42.1,89,37.4,35.7,3,5,7,1,2026-03-29T01:02:29.773403+05:30
Madurai,Tamil Nadu,9.9252,78.1198,26.3,84,0.0,992.0,9.4,38.5,75,24.9,23.5,7,5,7,1,2026-03-29T01:02:29.773412+05:30
Trichy,Tamil Nadu,10.7905,78.7047,26.0,82,0.0,999.0,9.15,27.7,66,15.5,14.2,7,5,7,1,2026-03-29T01:02:29.773419+05:30
Salem,Tamil Nadu,11.6643,78.146,27.4,73,0.0,976.9,9.4,30.2,107,31.2,27.6,7,5,7,1,2026-03-29T01:02:29.773425+05:30
Tirunelveli,Tamil Nadu,8.7139,77.7567,27.1,72,0.0,1001.7,9.35,51.5,71,30.3,28.1,7,5,4,1,2026-03-29T01:02:29.773431+05:30
Vellore,Tamil Nadu,12.9165,79.1325,25.5,86,0.0,983.7,9.35,34.9,132,59.1,55.9,7,5,7,1,2026-03-29T01:02:29.773437+05:30
Erode,Tamil Nadu,11.341,77.7172,27.7,80,0.0,988.4,8.85,31.3,95,41.9,38.5,7,5,7,1,2026-03-29T01:02:29.773443+05:30
Kochi,Kerala,9.9312,76.2673,28.0,81,0.0,1008.2,9.15,33.1,95,45.5,44.1,7,0,4,1,2026-03-29T01:02:29.773449+05:30
Thiruvananthapuram,Kerala,8.5241,76.9366,28.4,82,0.0,1006.9,9.05,37.4,66,28.3,23.5,7,5,4,1,2026-03-29T01:02:29.773459+05:30
Kozhikode,Kerala,11.2588,75.7804,27.6,84,0.0,1007.6,9.15,30.2,78,33.4,27.2,7,5,4,1,2026-03-29T01:02:29.773465+05:30
Thrissur,Kerala,10.5276,76.2144,26.5,91,0.0,1006.8,9.15,37.4,92,53.0,50.5,7,5,4,1,2026-03-29T01:02:29.773472+05:30
Kannur,Kerala,11.8745,75.3704,28.4,83,0.0,1006.2,9.15,33.1,90,44.5,39.3,7,5,4,1,2026-03-29T01:02:29.773478+05:30
Patna,Bihar,25.5941,85.1376,22.6,84,0.0,1000.0,8.1,23.8,96,51.0,39.2,3,5,4,1,2026-03-29T01:02:29.773484+05:30
Gaya,Bihar,24.7914,85.0002,22.0,84,0.0,992.8,8.15,17.3,83,55.1,36.3,3,5,7,1,2026-03-29T01:02:29.773490+05:30
Muzaffarpur,Bihar,26.1209,85.3647,21.7,89,0.0,1000.3,8.05,29.5,110,49.2,38.8,3,5,4,1,2026-03-29T01:02:29.773496+05:30
Bhagalpur,Bihar,25.2425,87.0117,21.7,90,0.0,1001.4,8.1,18.7,96,30.6,25.2,3,5,4,1,2026-03-29T01:02:29.773502+05:30
Ranchi,Jharkhand,23.3441,85.3096,21.3,87,0.0,936.3,8.75,34.6,92,52.5,38.6,3,5,7,1,2026-03-29T01:02:29.773508+05:30
Jamshedpur,Jharkhand,22.8046,86.2029,24.6,82,0.0,989.8,8.55,25.9,143,57.3,52.9,3,5,7,1,2026-03-29T01:02:29.773513+05:30
Dhanbad,Jharkhand,23.7957,86.4304,23.4,78,0.0,979.5,8.5,25.9,155,81.5,76.1,3,5,7,1,2026-03-29T01:02:29.773519+05:30
Bokaro,Jharkhand,23.6693,86.1511,22.8,83,0.0,983.5,8.5,22.0,150,84.1,79.4,3,5,7,1,2026-03-29T01:02:29.773525+05:30
Bhubaneswar,Odisha,20.2961,85.8245,26.7,85,0.0,1000.7,8.8,32.0,114,33.4,25.6,7,5,4,1,2026-03-29T01:02:29.773530+05:30
Cuttack,Odisha,20.4625,85.8828,26.5,85,0.0,1002.7,8.85,29.5,114,33.4,25.6,7,5,4,1,2026-03-29T01:02:29.773536+05:30
Rourkela,Odisha,22.2604,84.8536,26.5,76,0.0,982.9,8.5,48.2,110,49.7,40.0,7,5,7,1,2026-03-29T01:02:29.773542+05:30
Raipur,Chhattisgarh,21.2514,81.6296,29.1,43,0.0,971.6,8.6,23.4,84,34.0,30.5,4,5,7,0,2026-03-29T01:02:29.773547+05:30
Bhilai,Chhattisgarh,21.1938,81.3509,27.8,49,0.0,971.9,8.6,28.1,74,30.5,27.0,4,5,7,1,2026-03-29T01:02:29.773553+05:30
Guwahati,Assam,26.1158,91.7086,20.6,95,0.0,1002.0,7.1,25.9,121,37.5,33.5,3,5,4,1,2026-03-29T01:02:29.773558+05:30
Agartala,Tripura,23.8315,91.2868,20.5,96,0.0,1006.3,8.2,35.6,137,81.5,75.0,3,5,4,1,2026-03-29T01:02:29.773564+05:30
Shillong,Meghalaya,25.5788,91.8933,10.3,90,0.0,852.5,4.1,37.8,75,21.6,15.3,3,10,3,0,2026-03-29T01:02:29.773570+05:30
Imphal,Manipur,24.817,93.9368,15.1,92,0.0,921.6,7.3,67.3,147,47.5,40.2,3,10,7,0,2026-03-29T01:02:29.773575+05:30
Aizawl,Mizoram,23.7271,92.7176,14.7,93,0.0,890.5,7.9,55.8,117,59.8,47.4,3,10,7,0,2026-03-29T01:02:29.773581+05:30
Kohima,Nagaland,25.6701,94.1077,12.3,86,0.0,851.6,6.6,79.9,102,31.0,23.1,3,10,7,0,2026-03-29T01:02:29.773587+05:30
Gangtok,Sikkim,27.3314,88.6138,10.6,87,0.0,833.1,8.15,19.8,69,24.8,23.2,3,10,7,0,2026-03-29T01:02:29.773592+05:30
Siliguri,West Bengal,26.7271,88.3953,17.1,83,0.0,994.2,6.35,16.6,127,40.5,32.9,3,10,7,0,2026-03-29T01:02:33.079071+05:30
Durgapur,West Bengal,23.5204,87.3119,23.2,86,0.0,994.7,8.45,22.3,145,67.8,61.2,3,5,7,1,2026-03-29T01:02:33.079102+05:30
Asansol,West Bengal,23.6739,86.9524,23.7,81,0.0,993.2,8.45,23.0,150,72.2,66.4,3,5,7,1,2026-03-29T01:02:33.079112+05:30
Pondicherry,Puducherry,11.9139,79.8145,25.3,96,0.0,1007.8,9.15,33.5,59,16.5,11.6,7,5,4,1,2026-03-29T01:02:33.079120+05:30
Port Blair,Andaman and Nicobar Islands,11.6234,92.7265,28.5,77,0.0,1005.3,9.15,18.0,68,25.0,20.3,7,5,4,1,2026-03-29T01:02:33.079128+05:30
Haridwar,Uttarakhand,29.9457,78.1642,21.8,76,0.0,972.5,4.2,23.8,81,43.9,41.1,3,5,3,1,2026-03-29T01:02:33.079135+05:30
Rishikesh,Uttarakhand,30.0869,78.2676,20.8,74,0.0,965.4,4.15,22.0,70,34.2,29.8,3,5,3,0,2026-03-29T01:02:33.079183+05:30
Nainital,Uttarakhand,29.3919,79.4542,16.4,69,0.0,803.5,7.25,48.6,73,26.9,23.6,3,5,7,0,2026-03-29T01:02:33.079195+05:30
Mussoorie,Uttarakhand,30.4599,78.0664,14.9,76,0.0,800.2,4.7,35.3,82,48.4,43.5,3,5,3,0,2026-03-29T01:02:33.079202+05:30
Dharamshala,Himachal Pradesh,32.219,76.3234,18.6,65,0.0,866.9,7.05,31.0,63,28.3,18.6,3,5,7,0,2026-03-29T01:02:33.079209+05:30
Dalhousie,Himachal Pradesh,32.5387,75.971,14.9,69,0.0,800.7,7.1,22.3,65,41.4,37.0,3,5,7,0,2026-03-29T01:02:33.079217+05:30
Patiala,Punjab,30.3398,76.3869,21.3,75,0.0,975.8,6.6,31.7,103,205.8,45.9,3,5,7,1,2026-03-29T01:02:33.079224+05:30
Bhatinda,Punjab,30.211,74.9455,22.7,65,0.0,980.2,6.65,34.6,76,43.3,26.0,3,5,7,0,2026-03-29T01:02:33.079231+05:30
Rohtak,Haryana,28.8955,76.6066,20.8,69,0.0,979.0,6.8,28.1,128,176.5,89.4,3,5,7,0,2026-03-29T01:02:33.079238+05:30
Panipat,Haryana,29.3909,76.9635,20.7,69,0.0,977.9,6.55,22.7,152,231.0,92.7,3,5,7,0,2026-03-29T01:02:33.079244+05:30
Mathura,Uttar Pradesh,27.4924,77.6737,22.1,65,0.0,984.3,6.95,19.1,227,393.9,86.8,3,5,7,0,2026-03-29T01:02:33.079250+05:30
Vrindavan,Uttar Pradesh,27.5823,77.7027,21.7,66,0.0,984.9,6.85,19.8,227,393.9,86.8,3,5,7,0,2026-03-29T01:02:33.079257+05:30
Ayodhya,Uttar Pradesh,26.7922,82.1998,21.6,73,0.0,993.7,7.45,23.4,96,132.2,47.0,3,5,7,1,2026-03-29T01:02:33.079263+05:30
Ratlam,Madhya Pradesh,23.3315,75.0367,25.2,58,0.0,952.7,8.1,31.3,45,25.0,12.6,4,5,7,1,2026-03-29T01:02:33.079269+05:30
Sagar,Madhya Pradesh,23.8388,78.7378,27.4,44,0.0,947.6,8.2,31.0,56,43.3,17.8,4,5,7,0,2026-03-29T01:02:33.079276+05:30
Satna,Madhya Pradesh,24.6005,80.8322,24.6,55,0.0,969.4,8.15,22.3,69,63.8,23.2,0,5,7,0,2026-03-29T01:02:33.079282+05:30
Akola,Maharashtra,20.7002,77.0082,25.8,56,0.0,973.2,8.55,25.9,49,21.2,14.3,4,5,7,1,2026-03-29T01:02:33.079289+05:30
Amravati,Maharashtra,20.9374,77.7796,26.1,49,0.0,965.0,8.5,23.4,47,20.7,13.6,4,5,7,0,2026-03-29T01:02:33.079297+05:30
Latur,Maharashtra,18.4088,76.5604,26.5,42,0.0,938.2,8.85,26.6,72,32.7,31.0,4,5,7,0,2026-03-29T01:02:33.079303+05:30
Nanded,Maharashtra,19.1383,77.3091,26.8,46,0.0,966.4,8.7,18.4,61,23.5,21.8,4,5,7,0,2026-03-29T01:02:33.079309+05:30
Gulbarga,Karnataka,17.3297,76.8343,28.8,40,0.0,956.8,8.9,32.4,85,30.2,27.4,4,5,7,0,2026-03-29T01:02:33.079315+05:30
Bidar,Karnataka,17.9104,77.5199,29.1,38,0.0,933.4,8.9,29.2,80,25.4,23.2,4,5,7,0,2026-03-29T01:02:33.079321+05:30
Hospet,Karnataka,15.2689,76.3909,27.1,76,0.0,954.6,9.15,18.7,115,39.8,36.2,7,5,7,1,2026-03-29T01:02:33.079327+05:30
Tirupur,Tamil Nadu,11.1085,77.3411,26.4,79,0.0,974.7,9.4,31.7,102,43.3,40.2,7,5,7,1,2026-03-29T01:02:33.079333+05:30
Alappuzha,Kerala,9.4981,76.3388,27.7,84,0.0,1008.2,9.15,29.2,87,36.2,32.1,7,0,4,1,2026-03-29T01:02:33.079339+05:30
Munnar,Kerala,10.0889,77.0595,19.9,96,0.0,855.8,8.85,35.6,82,43.0,40.4,3,10,7,1,2026-03-29T01:02:33.079346+05:30
Silchar,Assam,24.8333,92.7789,20.1,92,0.0,1005.3,8.0,31.0,152,59.8,48.5,3,5,4,1,2026-03-29T01:02:33.079353+05:30
Dibrugarh,Assam,27.4728,94.912,19.6,86,0.0,995.9,6.55,13.0,97,41.8,32.8,3,10,7,1,2026-03-29T01:02:33.079359+05:30
