city,state,latitude,longitude,temp,humidity,rain,pressure,uv_index,wind_gusts,aqi,pm10,pm2_5,no2,co,o3,so2,mosquito_risk,arthritis_risk,migraine_risk,frizz_risk,updated_at
Delhi,Delhi,28.6139,77.209,28.6,69,0.0,978.0,7.75,39.2,168,317.6,101.7,53.4,852.0,37.0,32.6,7,5,7,1,2026-06-06T03:46:38.140259+05:30
Mumbai,Maharashtra,19.076,72.8777,27.7,90,0.0,1004.7,7.75,41.8,72,40.6,17.5,5.7,155.0,46.0,5.3,7,5,4,1,2026-06-06T03:46:38.140298+05:30
Bangalore,Karnataka,12.9716,77.5946,20.6,94,0.0,909.0,8.45,38.2,18,3.2,2.8,6.6,165.0,38.0,3.7,3,5,7,1,2026-06-06T03:46:38.140314+05:30
Hyderabad,Telangana,17.385,78.4867,27.0,70,0.0,949.2,9.15,38.9,67,19.2,14.3,9.6,208.0,71.0,5.5,7,5,7,1,2026-06-06T03:46:38.140323+05:30
Chennai,Tamil Nadu,13.0827,80.2707,31.0,55,0.0,1003.0,8.95,42.1,52,12.9,11.1,19.3,260.0,36.0,8.9,0,5,4,1,2026-06-06T03:46:38.140331+05:30
Kolkata,West Bengal,22.5726,88.3639,27.4,96,0.0,1000.0,8.1,28.4,137,47.3,43.3,14.1,592.0,73.0,7.2,7,5,4,1,2026-06-06T03:46:38.140339+05:30
Pune,Maharashtra,18.5204,73.8567,25.3,85,0.0,944.7,8.35,42.5,44,18.6,11.4,11.1,124.0,32.0,8.3,7,5,7,1,2026-06-06T03:46:38.140346+05:30
Ahmedabad,Gujarat,23.0225,72.5714,31.2,65,0.0,997.3,8.05,35.3,84,50.9,24.0,5.1,155.0,50.0,4.0,3,5,7,1,2026-06-06T03:46:38.140353+05:30
Jaipur,Rajasthan,26.9124,75.7873,27.5,53,0.0,954.9,8.25,28.8,124,125.7,53.3,23.4,211.0,35.0,9.6,4,5,7,1,2026-06-06T03:46:38.140364+05:30
Lucknow,Uttar Pradesh,26.8467,80.9462,29.6,64,0.0,988.1,8.3,41.4,156,228.2,94.8,25.5,462.0,55.0,14.5,7,5,7,1,2026-06-06T03:46:38.140371+05:30
Kanpur,Uttar Pradesh,26.4499,80.3319,30.1,62,0.0,986.5,8.3,34.6,162,279.4,93.6,29.7,375.0,32.0,9.6,3,5,7,1,2026-06-06T03:46:38.140378+05:30
Chandigarh,Chandigarh,30.7333,76.7794,24.2,76,0.0,963.4,7.8,28.8,140,92.2,61.9,47.7,797.0,19.0,7.0,3,5,7,1,2026-06-06T03:46:38.140385+05:30
Srinagar,Jammu and Kashmir,34.0837,74.7973,12.7,99,0.0,839.6,9.0,20.2,82,35.5,33.5,16.0,613.0,34.0,0.0,3,10,7,0,2026-06-06T03:46:38.140393+05:30
Jammu,Jammu and Kashmir,32.7266,74.857,22.4,70,0.0,966.8,8.6,28.4,104,35.5,29.6,36.5,378.0,10.0,1.9,3,5,7,1,2026-06-06T03:46:38.140400+05:30
Amritsar,Punjab,31.634,74.8723,27.1,55,0.0,975.2,8.45,20.9,145,107.3,92.2,70.5,697.0,2.0,11.8,4,5,7,1,2026-06-06T03:46:38.140407+05:30
Ludhiana,Punjab,30.901,75.8573,27.4,65,0.0,973.2,8.05,26.6,152,138.3,93.1,50.5,683.0,37.0,13.9,7,5,7,1,2026-06-06T03:46:38.140413+05:30
Jalandhar,Punjab,31.326,75.5762,26.7,64,0.0,974.2,8.25,22.3,150,103.4,86.8,69.2,870.0,8.0,8.9,7,5,7,1,2026-06-06T03:46:38.140422+05:30
Dehradun,Uttarakhand,30.6284,78.0322,12.6,92,0.0,824.4,8.2,36.7,70,26.0,20.1,25.7,244.0,22.0,0.1,3,10,7,0,2026-06-06T03:46:38.140429+05:30
Shimla,Himachal Pradesh,31.1048,77.1734,11.3,77,0.0,779.2,8.35,41.8,94,59.3,32.9,15.7,238.0,82.0,2.8,3,5,7,0,2026-06-06T03:46:38.140437+05:30
Manali,Himachal Pradesh,32.2396,77.1887,12.7,76,0.0,814.3,9.45,37.1,48,2.2,2.2,12.2,183.0,121.0,0.0,3,5,7,0,2026-06-06T03:46:38.140444+05:30
Gurgaon,Haryana,28.4595,77.0266,27.1,70,0.0,976.2,7.85,33.5,361,938.8,162.5,22.3,625.0,57.0,10.6,7,5,7,1,2026-06-06T03:46:38.140452+05:30
Noida,Uttar Pradesh,28.5355,77.391,26.7,83,0.0,979.3,7.8,18.7,361,938.8,162.5,22.3,1169.0,57.0,10.6,7,5,7,1,2026-06-06T03:46:38.140459+05:30
Ghaziabad,Uttar Pradesh,28.6692,77.4538,25.6,90,0.0,977.5,7.75,25.9,167,211.9,92.4,41.3,807.0,42.0,16.1,7,5,7,1,2026-06-06T03:46:38.140465+05:30
Faridabad,Haryana,28.4089,77.3178,27.6,79,0.0,978.7,7.8,34.2,361,938.8,162.5,22.3,879.0,57.0,10.6,7,5,7,1,2026-06-06T03:46:38.140471+05:30
Meerut,Uttar Pradesh,28.9845,77.7064,25.7,87,0.0,976.2,7.7,28.1,167,211.9,92.4,41.3,892.0,42.0,16.1,7,5,7,1,2026-06-06T03:46:38.140477+05:30
Agra,Uttar Pradesh,27.1767,78.0081,26.9,78,0.0,982.5,8.1,26.6,156,303.6,89.9,40.1,460.0,41.0,14.5,7,5,7,1,2026-06-06T03:46:38.140484+05:30
Varanasi,Uttar Pradesh,25.3176,82.9739,27.7,79,0.0,991.4,7.2,58.0,131,86.1,51.6,14.7,747.0,87.0,14.0,7,5,7,1,2026-06-06T03:46:38.140491+05:30
Prayagraj,Uttar Pradesh,25.4358,81.8463,30.1,63,0.0,990.5,8.35,43.6,141,106.4,54.1,17.9,364.0,72.0,9.4,3,5,7,1,2026-06-06T03:46:38.140498+05:30
Gorakhpur,Uttar Pradesh,26.7606,83.3732,28.4,74,0.0,991.3,8.7,25.9,158,109.4,87.8,40.3,835.0,35.0,11.6,7,5,7,1,2026-06-06T03:46:38.140506+05:30
Bareilly,Uttar Pradesh,28.367,79.4304,26.5,86,0.0,981.5,8.1,21.2,136,97.6,80.6,35.3,555.0,57.0,18.7,7,5,7,1,2026-06-06T03:46:38.140513+05:30
Aligarh,Uttar Pradesh,27.8974,78.088,26.8,86,0.0,980.3,7.95,25.2,368,305.5,105.2,32.6,803.0,54.0,15.6,7,5,7,1,2026-06-06T03:46:38.140520+05:30
Moradabad,Uttar Pradesh,28.8386,78.7733,26.2,85,0.0,978.5,7.9,29.9,161,198.8,152.3,90.1,746.0,15.0,25.4,7,5,7,1,2026-06-06T03:46:38.140526+05:30
Saharanpur,Uttar Pradesh,29.9637,77.546,25.0,85,0.0,970.7,7.5,25.2,156,144.8,104.8,56.3,750.0,13.0,11.5,7,5,7,1,2026-06-06T03:46:38.140533+05:30
Jhansi,Uttar Pradesh,25.4484,78.5685,28.5,61,0.0,973.1,8.45,29.9,76,45.3,26.8,19.1,213.0,29.0,4.2,7,5,7,1,2026-06-06T03:46:41.400312+05:30
Surat,Gujarat,21.1702,72.8311,29.3,85,0.0,1002.3,7.6,45.4,87,48.3,25.1,17.3,297.0,34.0,29.4,7,5,4,1,2026-06-06T03:46:41.400343+05:30
Vadodara,Gujarat,22.3072,73.1812,30.3,71,0.0,999.7,8.0,40.0,80,38.4,23.2,11.2,118.0,36.0,12.0,3,5,7,1,2026-06-06T03:46:41.400353+05:30
Rajkot,Gujarat,22.3039,70.8022,29.0,76,0.0,989.4,7.6,43.6,78,39.9,18.3,4.4,103.0,44.0,4.0,7,5,7,1,2026-06-06T03:46:41.400362+05:30
Thane,Maharashtra,19.2183,72.9781,27.7,90,0.1,1004.1,7.75,40.0,72,40.6,17.5,5.7,165.0,46.0,5.3,10,5,4,1,2026-06-06T03:46:41.400370+05:30
Nagpur,Maharashtra,21.1458,79.0882,30.9,41,0.0,967.9,8.9,45.4,96,52.6,34.0,18.4,295.0,40.0,7.8,0,5,7,1,2026-06-06T03:46:41.400378+05:30
Nashik,Maharashtra,19.9975,73.7898,25.0,89,0.0,942.2,8.05,37.8,58,25.5,13.8,7.1,112.0,40.0,5.0,7,5,7,1,2026-06-06T03:46:41.400384+05:30
Aurangabad,Maharashtra,19.8762,75.3433,26.9,72,0.0,941.0,8.95,40.7,62,25.1,15.1,7.9,128.0,40.0,6.4,7,5,7,1,2026-06-06T03:46:41.400391+05:30
Solapur,Maharashtra,17.6599,75.9064,24.4,92,0.0,953.7,8.95,51.5,56,13.5,10.9,13.7,179.0,32.0,2.9,3,5,7,1,2026-06-06T03:46:41.400399+05:30
Kolhapur,Maharashtra,16.705,74.2433,24.6,85,0.0,945.0,8.75,45.7,31,6.3,4.8,4.9,111.0,42.0,2.0,3,5,7,1,2026-06-06T03:46:41.400406+05:30
Goa,Goa,15.2993,74.124,26.1,95,0.0,995.0,7.7,26.6,29,15.4,9.5,4.6,289.0,49.0,1.0,7,5,7,1,2026-06-06T03:46:41.400414+05:30
Jodhpur,Rajasthan,26.2389,73.0243,30.6,57,0.0,977.3,8.45,32.8,148,105.2,33.6,5.8,125.0,51.0,2.3,0,5,7,1,2026-06-06T03:46:41.400421+05:30
Udaipur,Rajasthan,24.5854,73.7125,27.0,68,0.0,941.8,8.8,28.4,82,68.9,31.5,9.5,197.0,48.0,4.6,7,5,7,1,2026-06-06T03:46:41.400428+05:30
Kota,Rajasthan,25.2138,75.8648,27.9,60,0.0,973.7,8.4,29.9,100,74.0,37.7,8.8,210.0,59.0,6.3,4,5,7,1,2026-06-06T03:46:41.400436+05:30
Bikaner,Rajasthan,28.0229,73.3119,29.2,50,0.0,975.4,8.5,27.7,141,127.6,42.4,3.5,160.0,56.0,2.4,4,5,7,1,2026-06-06T03:46:41.400443+05:30
Ajmer,Rajasthan,26.4499,74.6399,26.7,64,0.0,949.4,8.35,33.8,99,92.2,41.0,14.3,174.0,37.0,3.6,7,5,7,1,2026-06-06T03:46:41.400450+05:30
Gwalior,Madhya Pradesh,26.2183,78.1828,26.9,67,0.0,977.9,8.25,47.2,86,82.7,34.0,18.5,171.0,43.0,5.9,7,5,7,1,2026-06-06T03:46:41.400457+05:30
Indore,Madhya Pradesh,22.7196,75.8577,26.4,77,0.0,944.1,8.65,31.7,97,53.6,39.2,16.4,321.0,41.0,9.5,7,5,7,1,2026-06-06T03:46:41.400463+05:30
Bhopal,Madhya Pradesh,23.2599,77.4126,26.2,67,0.0,949.1,8.65,36.0,95,71.2,40.6,17.5,332.0,41.0,5.1,7,5,7,1,2026-06-06T03:46:41.400470+05:30
Jabalpur,Madhya Pradesh,23.1815,79.9864,27.6,63,0.0,956.4,8.85,37.8,87,70.8,38.1,15.6,267.0,40.0,3.8,7,5,7,1,2026-06-06T03:46:41.400477+05:30
Ujjain,Madhya Pradesh,23.1765,75.7885,27.3,71,0.0,949.7,8.6,34.2,91,46.9,32.5,7.0,287.0,56.0,8.0,7,5,7,1,2026-06-06T03:46:41.400484+05:30
Visakhapatnam,Andhra Pradesh,17.6868,83.2185,29.9,79,0.0,997.1,9.0,39.2,91,19.7,17.1,22.8,468.0,66.0,33.0,7,5,7,1,2026-06-06T03:46:41.400491+05:30
Vijayawada,Andhra Pradesh,16.5062,80.648,30.6,62,0.0,996.6,9.0,34.6,61,12.8,11.8,8.8,241.0,59.0,3.3,3,5,7,1,2026-06-06T03:46:41.400498+05:30
Guntur,Andhra Pradesh,16.3067,80.4365,29.9,63,0.0,997.9,9.0,33.8,57,14.3,13.0,9.1,188.0,62.0,3.6,7,5,7,1,2026-06-06T03:46:41.400505+05:30
Nellore,Andhra Pradesh,14.4426,79.9865,29.5,62,0.0,1001.5,8.6,38.9,36,8.6,7.0,9.3,181.0,41.0,3.4,7,5,4,1,2026-06-06T03:46:41.400513+05:30
Kurnool,Andhra Pradesh,15.8281,78.0373,27.7,72,0.0,973.1,7.9,57.2,30,6.1,5.8,14.8,180.0,27.0,5.0,7,5,7,1,2026-06-06T03:46:41.400521+05:30
Kakinada,Andhra Pradesh,16.9891,82.2475,29.6,76,0.0,1001.2,9.05,39.2,65,12.8,9.8,3.7,198.0,92.0,3.4,7,5,4,1,2026-06-06T03:46:41.400528+05:30
Tirupati,Andhra Pradesh,13.6288,79.4192,27.5,70,0.0,987.6,8.8,31.0,41,14.7,13.7,22.3,158.0,16.0,3.1,7,5,7,1,2026-06-06T03:46:41.400535+05:30
Warangal,Telangana,17.9689,79.5941,29.2,64,0.0,973.3,7.55,31.7,100,38.5,30.2,13.5,227.0,64.0,5.3,7,5,7,1,2026-06-06T03:46:41.400543+05:30
Nizamabad,Telangana,18.6725,78.0941,28.9,60,0.0,960.5,8.95,36.0,95,37.6,27.8,11.6,229.0,66.0,4.2,4,5,7,1,2026-06-06T03:46:41.400550+05:30
Mysore,Karnataka,12.2958,76.6396,22.0,88,0.0,926.2,7.7,41.8,19,2.7,2.5,5.5,139.0,36.0,1.8,3,5,7,1,2026-06-06T03:46:41.400556+05:30
Mangalore,Karnataka,12.9141,74.856,24.0,98,0.3,1004.9,0.9,30.2,24,8.7,5.0,2.0,121.0,52.0,0.9,6,5,0,1,2026-06-06T03:46:41.400564+05:30
Hubli-Dharwad,Karnataka,15.3647,75.124,23.7,89,0.0,938.0,8.0,36.7,22,2.5,1.6,2.2,110.0,50.0,0.7,3,5,7,1,2026-06-06T03:46:41.400571+05:30
Belgaum,Karnataka,15.8497,74.4977,22.4,96,0.0,922.8,8.9,37.8,23,3.8,2.8,3.2,108.0,49.0,1.8,3,5,7,1,2026-06-06T03:46:44.646703+05:30
Coimbatore,Tamil Nadu,11.0168,76.9558,23.7,90,0.0,959.7,8.85,59.0,16,2.3,1.9,4.3,149.0,36.0,2.0,3,5,7,1,2026-06-06T03:46:44.646732+05:30
Madurai,Tamil Nadu,9.9252,78.1198,28.7,59,0.0,990.9,8.4,68.0,18,4.3,4.1,9.4,165.0,24.0,3.7,4,5,7,1,2026-06-06T03:46:44.646744+05:30
Trichy,Tamil Nadu,10.7905,78.7047,29.4,58,0.0,997.2,8.7,47.5,17,4.8,4.2,9.1,115.0,26.0,3.2,4,5,7,1,2026-06-06T03:46:44.646753+05:30
Salem,Tamil Nadu,11.6643,78.146,26.4,74,0.0,975.3,8.85,42.1,30,9.2,8.4,16.2,191.0,21.0,6.4,7,5,7,1,2026-06-06T03:46:44.646762+05:30
Tirunelveli,Tamil Nadu,8.7139,77.7567,27.5,74,0.0,1002.1,8.25,49.0,14,5.4,4.2,7.1,115.0,25.0,1.8,7,5,4,1,2026-06-06T03:46:44.646770+05:30
Vellore,Tamil Nadu,12.9165,79.1325,27.8,63,0.0,981.1,8.95,50.0,41,9.6,8.8,13.6,149.0,27.0,4.2,7,5,7,1,2026-06-06T03:46:44.646778+05:30
Erode,Tamil Nadu,11.341,77.7172,26.2,78,0.0,987.1,8.8,55.4,17,6.5,5.6,10.1,138.0,28.0,3.5,7,5,7,1,2026-06-06T03:46:44.646785+05:30
Kochi,Kerala,9.9312,76.2673,25.2,95,0.0,1008.1,7.95,36.7,42,14.1,8.3,9.2,89.0,29.0,2.4,7,0,4,1,2026-06-06T03:46:44.646793+05:30
Thiruvananthapuram,Kerala,8.5241,76.9366,24.3,97,0.1,1008.1,7.5,46.1,25,15.9,6.7,1.3,92.0,44.0,0.4,6,0,4,1,2026-06-06T03:46:44.646800+05:30
Kozhikode,Kerala,11.2588,75.7804,23.4,100,0.2,1007.3,0.9,29.9,25,16.1,6.5,0.7,114.0,59.0,0.4,6,5,0,1,2026-06-06T03:46:44.646808+05:30
Thrissur,Kerala,10.5276,76.2144,23.9,99,0.4,1006.4,7.85,31.7,37,13.2,8.2,8.4,171.0,32.0,2.3,6,5,4,1,2026-06-06T03:46:44.646817+05:30
Kannur,Kerala,11.8745,75.3704,24.4,97,0.4,1006.2,0.55,22.7,26,12.0,6.1,2.6,116.0,47.0,0.7,6,5,0,1,2026-06-06T03:46:44.646823+05:30
Patna,Bihar,25.5941,85.1376,28.6,79,0.0,994.6,8.9,23.8,171,82.4,78.2,12.6,411.0,108.0,17.4,7,5,7,1,2026-06-06T03:46:44.646831+05:30
Gaya,Bihar,24.7914,85.0002,28.1,74,0.0,987.6,8.7,31.0,159,97.3,85.2,34.9,410.0,34.0,11.4,7,5,7,1,2026-06-06T03:46:44.646837+05:30
Muzaffarpur,Bihar,26.1209,85.3647,27.2,81,0.0,995.0,8.9,28.4,169,78.0,74.0,12.8,487.0,102.0,14.2,7,5,7,1,2026-06-06T03:46:44.646844+05:30
Bhagalpur,Bihar,25.2425,87.0117,26.8,90,0.0,996.0,8.9,33.1,164,69.8,67.3,15.0,425.0,77.0,13.1,7,5,7,1,2026-06-06T03:46:44.646851+05:30
Ranchi,Jharkhand,23.3441,85.3096,25.1,78,0.0,932.3,8.8,25.9,116,65.7,49.7,16.4,313.0,75.0,5.7,7,5,7,1,2026-06-06T03:46:44.646858+05:30
Jamshedpur,Jharkhand,22.8046,86.2029,28.1,90,0.0,984.9,7.55,36.4,153,78.0,71.5,28.5,481.0,57.0,23.3,7,5,7,1,2026-06-06T03:46:44.646865+05:30
Dhanbad,Jharkhand,23.7957,86.4304,28.0,88,0.0,974.4,7.2,33.8,168,110.8,104.8,66.5,1129.0,33.0,192.0,7,5,7,1,2026-06-06T03:46:44.646872+05:30
Bokaro,Jharkhand,23.6693,86.1511,27.3,95,0.0,978.0,8.55,34.6,161,114.6,102.2,57.9,757.0,26.0,148.3,7,5,7,1,2026-06-06T03:46:44.646880+05:30
Bhubaneswar,Odisha,20.2961,85.8245,29.2,91,0.0,995.7,9.1,29.9,109,38.0,35.7,10.1,333.0,102.0,8.5,7,5,7,1,2026-06-06T03:46:44.646887+05:30
Cuttack,Odisha,20.4625,85.8828,29.4,88,0.0,997.7,9.15,29.2,109,38.0,35.7,10.1,394.0,102.0,8.5,7,5,7,1,2026-06-06T03:46:44.646894+05:30
Rourkela,Odisha,22.2604,84.8536,28.9,70,0.0,979.4,8.8,42.5,150,105.5,86.1,32.5,491.0,51.0,19.6,7,5,7,1,2026-06-06T03:46:44.646900+05:30
Raipur,Chhattisgarh,21.2514,81.6296,31.7,43,0.0,968.9,9.0,38.5,114,61.2,39.2,37.1,357.0,40.0,51.2,0,5,7,1,2026-06-06T03:46:44.646907+05:30
Bhilai,Chhattisgarh,21.1938,81.3509,30.6,47,0.0,969.3,9.0,43.6,110,61.2,37.4,29.2,550.0,43.0,41.8,0,5,7,1,2026-06-06T03:46:44.646913+05:30
Guwahati,Assam,26.1158,91.7086,24.1,99,0.2,998.2,8.8,24.5,93,28.6,26.0,7.3,496.0,67.0,1.9,6,5,7,1,2026-06-06T03:46:44.646920+05:30
Agartala,Tripura,23.8315,91.2868,24.9,98,0.0,1001.4,8.85,19.1,108,31.8,29.2,11.8,562.0,69.0,2.6,3,5,4,1,2026-06-06T03:46:44.646927+05:30
Shillong,Meghalaya,25.5788,91.8933,16.4,100,0.0,852.7,8.85,21.6,71,23.2,21.1,5.7,251.0,69.0,2.3,3,10,7,1,2026-06-06T03:46:44.646934+05:30
Imphal,Manipur,24.817,93.9368,21.6,95,0.0,919.2,9.25,30.6,132,70.1,67.8,24.2,794.0,10.0,1.7,3,5,7,1,2026-06-06T03:46:44.646941+05:30
Aizawl,Mizoram,23.7271,92.7176,19.2,100,0.0,888.1,8.35,26.6,101,9.8,8.5,4.2,322.0,62.0,1.4,3,10,7,1,2026-06-06T03:46:44.646948+05:30
Kohima,Nagaland,25.6701,94.1077,17.5,95,0.0,851.4,9.05,25.2,69,22.5,21.2,11.1,266.0,24.0,0.5,3,10,7,1,2026-06-06T03:46:44.646955+05:30
Gangtok,Sikkim,27.3314,88.6138,17.2,90,0.0,834.2,9.2,36.7,57,8.1,7.6,10.3,368.0,77.0,2.0,3,10,7,0,2026-06-06T03:46:44.646962+05:30
Siliguri,West Bengal,26.7271,88.3953,23.4,98,0.0,989.3,8.8,22.0,129,38.5,33.4,12.9,364.0,105.0,4.3,3,5,7,1,2026-06-06T03:46:47.905242+05:30
Durgapur,West Bengal,23.5204,87.3119,27.5,93,0.0,989.5,9.05,34.9,166,71.7,69.2,30.2,793.0,53.0,40.0,7,5,7,1,2026-06-06T03:46:47.905279+05:30
Asansol,West Bengal,23.6739,86.9524,27.4,95,0.0,988.0,8.9,35.3,164,59.3,56.9,27.0,764.0,69.0,38.0,7,5,7,1,2026-06-06T03:46:47.905292+05:30
Pondicherry,Puducherry,11.9139,79.8145,29.2,62,0.0,1004.9,8.85,44.3,51,16.3,14.6,19.3,314.0,36.0,6.9,7,5,4,1,2026-06-06T03:46:47.905303+05:30
Port Blair,Andaman and Nicobar Islands,11.6234,92.7265,26.1,95,0.0,1004.1,5.65,47.5,27,5.1,3.2,0.2,95.0,58.0,0.2,7,5,0,1,2026-06-06T03:46:47.905314+05:30
Haridwar,Uttarakhand,29.9457,78.1642,23.4,81,0.0,968.8,7.6,23.4,145,113.9,75.9,43.9,325.0,32.0,8.6,3,5,7,1,2026-06-06T03:46:47.905324+05:30
Rishikesh,Uttarakhand,30.0869,78.2676,21.1,85,0.0,961.6,7.7,28.1,107,66.6,37.0,15.4,351.0,84.0,3.8,3,5,7,1,2026-06-06T03:46:47.905334+05:30
Nainital,Uttarakhand,29.3919,79.4542,12.8,89,0.0,800.8,8.05,25.6,89,43.7,34.7,28.7,288.0,37.0,1.9,3,10,7,0,2026-06-06T03:46:47.905343+05:30
Mussoorie,Uttarakhand,30.4599,78.0664,14.2,68,0.0,798.5,8.1,42.8,97,58.2,40.6,45.3,228.0,21.0,5.4,3,5,7,0,2026-06-06T03:46:47.905353+05:30
Dharamshala,Himachal Pradesh,32.219,76.3234,20.6,57,0.0,865.5,8.5,38.5,51,8.9,7.7,9.1,228.0,62.0,0.0,0,5,7,0,2026-06-06T03:46:47.905362+05:30
Dalhousie,Himachal Pradesh,32.5387,75.971,10.4,89,0.0,798.4,8.75,32.4,73,28.5,25.6,32.6,251.0,12.0,0.3,3,10,7,0,2026-06-06T03:46:47.905372+05:30
Patiala,Punjab,30.3398,76.3869,27.2,67,0.0,972.8,7.7,30.6,156,246.8,87.3,20.3,749.0,48.0,8.5,7,5,7,1,2026-06-06T03:46:47.905381+05:30
Bhatinda,Punjab,30.211,74.9455,30.3,50,0.0,978.0,8.35,21.6,160,145.3,84.3,66.6,416.0,18.0,10.7,0,5,7,1,2026-06-06T03:46:47.905389+05:30
Rohtak,Haryana,28.8955,76.6066,27.2,72,0.0,976.4,7.8,26.6,173,529.0,101.5,21.4,674.0,53.0,6.3,7,5,7,1,2026-06-06T03:46:47.905397+05:30
Panipat,Haryana,29.3909,76.9635,26.3,85,0.0,975.0,7.65,35.6,434,396.7,105.9,47.8,654.0,20.0,9.9,7,5,7,1,2026-06-06T03:46:47.905404+05:30
Mathura,Uttar Pradesh,27.4924,77.6737,26.6,80,0.0,981.7,8.05,24.5,193,341.8,85.4,29.4,596.0,48.0,7.8,7,5,7,1,2026-06-06T03:46:47.905412+05:30
Vrindavan,Uttar Pradesh,27.5823,77.7027,26.7,79,0.0,982.2,8.05,24.8,193,341.8,85.4,29.4,818.0,48.0,7.8,7,5,7,1,2026-06-06T03:46:47.905419+05:30
Ayodhya,Uttar Pradesh,26.7922,82.1998,27.8,83,0.0,989.6,8.35,30.2,155,101.0,62.2,20.5,510.0,74.0,12.7,7,5,7,1,2026-06-06T03:46:47.905426+05:30
Ratlam,Madhya Pradesh,23.3315,75.0367,26.8,78,0.0,950.7,8.55,37.4,86,39.1,26.7,6.4,203.0,55.0,10.4,7,5,7,1,2026-06-06T03:46:47.905434+05:30
Sagar,Madhya Pradesh,23.8388,78.7378,26.4,65,0.0,945.7,8.7,40.7,82,39.6,24.2,13.5,198.0,45.0,2.8,7,5,7,1,2026-06-06T03:46:47.905441+05:30
Satna,Madhya Pradesh,24.6005,80.8322,28.7,59,0.0,966.2,8.6,31.7,105,53.1,31.5,13.2,155.0,49.0,3.3,4,5,7,1,2026-06-06T03:46:47.905448+05:30
Akola,Maharashtra,20.7002,77.0082,24.1,85,0.3,971.9,8.8,54.7,82,37.0,25.0,10.2,137.0,61.0,9.3,6,5,7,1,2026-06-06T03:46:47.905457+05:30
Amravati,Maharashtra,20.9374,77.7796,29.4,50,0.0,962.9,8.85,47.2,89,38.9,26.5,14.3,265.0,48.0,6.0,4,5,7,1,2026-06-06T03:46:47.905469+05:30
Latur,Maharashtra,18.4088,76.5604,23.1,94,0.3,937.1,7.0,45.4,65,22.1,16.3,10.1,207.0,58.0,5.5,6,5,7,1,2026-06-06T03:46:47.905477+05:30
Nanded,Maharashtra,19.1383,77.3091,30.0,49,0.0,964.4,8.9,34.6,87,38.6,25.6,10.5,171.0,73.0,8.6,4,5,7,1,2026-06-06T03:46:47.905484+05:30
Gulbarga,Karnataka,17.3297,76.8343,26.2,77,0.0,955.2,9.0,60.1,57,12.1,9.9,12.7,197.0,43.0,3.5,7,5,7,1,2026-06-06T03:46:47.905491+05:30
Bidar,Karnataka,17.9104,77.5199,25.8,71,0.0,931.9,8.7,44.6,79,26.7,19.8,11.5,182.0,68.0,3.4,7,5,7,1,2026-06-06T03:46:47.905498+05:30
Hospet,Karnataka,15.2689,76.3909,24.7,84,0.0,953.0,6.9,46.1,19,4.4,3.6,6.8,139.0,41.0,1.4,3,5,7,1,2026-06-06T03:46:47.905505+05:30
Tirupur,Tamil Nadu,11.1085,77.3411,25.2,81,0.0,973.2,8.9,65.5,20,6.9,6.1,11.3,133.0,27.0,3.9,7,5,7,1,2026-06-06T03:46:47.905512+05:30
Alappuzha,Kerala,9.4981,76.3388,25.7,95,0.0,1008.3,8.0,40.7,34,15.3,6.8,4.1,84.0,41.0,1.0,7,0,4,1,2026-06-06T03:46:47.905520+05:30
Munnar,Kerala,10.0889,77.0595,16.9,100,0.3,855.2,8.45,46.8,13,1.0,0.9,4.7,103.0,28.0,1.6,6,10,7,1,2026-06-06T03:46:47.905528+05:30
Silchar,Assam,24.8333,92.7789,24.7,99,0.0,1000.3,8.95,21.6,103,70.5,63.6,21.7,776.0,54.0,7.6,3,5,4,1,2026-06-06T03:46:47.905535+05:30
Dibrugarh,Assam,27.4728,94.912,25.1,92,0.0,991.3,8.95,28.8,92,43.5,40.7,22.1,610.0,31.0,2.2,7,5,7,1,2026-06-06T03:46:47.905542+05:30
