city,state,latitude,longitude,temp,humidity,rain,pressure,uv_index,wind_gusts,aqi,pm10,pm2_5,mosquito_risk,arthritis_risk,migraine_risk,frizz_risk,updated_at
Delhi,Delhi,28.6139,77.209,29.3,33,0.0,981.3,6.85,40.7,153,271.9,38.5,4,5,7,0,2026-04-05T17:03:37.820361+05:30
Mumbai,Maharashtra,19.076,72.8777,27.8,69,0.0,1008.1,7.9,23.4,68,31.0,16.0,7,0,4,1,2026-04-05T17:03:37.820402+05:30
Bangalore,Karnataka,12.9716,77.5946,31.6,38,0.0,910.1,9.65,28.8,110,28.7,23.4,0,5,7,0,2026-04-05T17:03:37.820418+05:30
Hyderabad,Telangana,17.385,78.4867,34.8,33,0.0,950.5,9.15,26.3,128,50.9,41.1,0,5,7,1,2026-04-05T17:03:37.820428+05:30
Chennai,Tamil Nadu,13.0827,80.2707,32.3,67,0.0,1004.2,9.3,37.8,94,27.6,22.1,3,5,4,1,2026-04-05T17:03:37.820436+05:30
Kolkata,West Bengal,22.5726,88.3639,29.8,63,0.0,1004.0,8.7,29.2,151,46.4,39.9,7,5,4,1,2026-04-05T17:03:37.820445+05:30
Pune,Maharashtra,18.5204,73.8567,31.0,44,0.0,947.5,8.5,39.6,72,32.1,15.2,0,5,7,1,2026-04-05T17:03:37.820457+05:30
Ahmedabad,Gujarat,23.0225,72.5714,33.8,22,0.0,1000.8,7.9,28.1,85,29.6,9.5,0,5,4,0,2026-04-05T17:03:37.820464+05:30
Jaipur,Rajasthan,26.9124,75.7873,30.2,19,0.0,958.0,7.55,34.6,95,190.5,24.3,0,5,7,0,2026-04-05T17:03:37.820472+05:30
Lucknow,Uttar Pradesh,26.8467,80.9462,30.7,35,0.0,991.5,7.45,44.3,115,103.4,25.0,0,5,7,0,2026-04-05T17:03:37.820480+05:30
Kanpur,Uttar Pradesh,26.4499,80.3319,29.9,40,0.0,989.9,7.45,40.7,141,248.7,36.0,4,5,7,0,2026-04-05T17:03:37.820487+05:30
Chandigarh,Chandigarh,30.7333,76.7794,27.6,32,0.0,967.6,6.85,34.6,94,43.0,17.6,4,5,7,0,2026-04-05T17:03:37.820494+05:30
Srinagar,Jammu and Kashmir,34.0837,74.7973,15.1,59,0.0,838.7,7.45,18.4,69,26.0,10.2,0,5,7,0,2026-04-05T17:03:37.820502+05:30
Jammu,Jammu and Kashmir,32.7266,74.857,26.2,42,0.0,972.1,7.5,24.5,64,45.4,14.7,4,5,7,0,2026-04-05T17:03:37.820509+05:30
Amritsar,Punjab,31.634,74.8723,27.2,35,0.0,979.9,7.45,29.5,95,49.0,19.6,4,5,7,0,2026-04-05T17:03:37.820516+05:30
Ludhiana,Punjab,30.901,75.8573,28.1,32,0.0,977.6,7.05,29.5,96,81.5,22.0,4,5,7,0,2026-04-05T17:03:37.820523+05:30
Jalandhar,Punjab,31.326,75.5762,28.1,32,0.0,978.7,7.25,25.6,87,77.8,20.8,4,5,7,0,2026-04-05T17:03:37.820531+05:30
Dehradun,Uttarakhand,30.6284,78.0322,17.0,53,0.0,827.9,6.65,39.2,68,20.2,8.1,0,5,7,0,2026-04-05T17:03:37.820538+05:30
Shimla,Himachal Pradesh,31.1048,77.1734,13.2,69,0.0,782.2,5.35,29.5,67,32.6,17.1,3,5,3,0,2026-04-05T17:03:37.820545+05:30
Manali,Himachal Pradesh,32.2396,77.1887,14.1,86,0.0,816.2,9.45,29.2,90,13.9,6.0,3,10,7,0,2026-04-05T17:03:37.820553+05:30
Gurgaon,Haryana,28.4595,77.0266,28.5,38,0.0,979.9,6.5,35.6,194,776.7,78.9,4,5,7,0,2026-04-05T17:03:37.820560+05:30
Noida,Uttar Pradesh,28.5355,77.391,29.5,33,0.0,982.9,6.95,39.2,194,776.7,78.9,4,5,7,0,2026-04-05T17:03:37.820566+05:30
Ghaziabad,Uttar Pradesh,28.6692,77.4538,29.6,32,0.0,980.9,6.85,42.1,151,151.3,33.1,4,5,7,0,2026-04-05T17:03:37.820573+05:30
Faridabad,Haryana,28.4089,77.3178,28.7,36,0.0,982.3,6.1,36.4,194,776.7,78.9,4,5,7,0,2026-04-05T17:03:37.820579+05:30
Meerut,Uttar Pradesh,28.9845,77.7064,29.3,32,0.0,979.4,6.2,34.6,151,151.3,33.1,4,5,7,0,2026-04-05T17:03:37.820586+05:30
Agra,Uttar Pradesh,27.1767,78.0081,27.8,53,0.0,986.8,7.3,34.2,289,421.9,53.1,4,5,7,1,2026-04-05T17:03:37.820593+05:30
Varanasi,Uttar Pradesh,25.3176,82.9739,32.0,38,0.0,995.0,8.1,32.4,93,33.3,16.8,0,5,7,0,2026-04-05T17:03:37.820602+05:30
Prayagraj,Uttar Pradesh,25.4358,81.8463,31.6,38,0.0,993.6,7.95,30.2,95,34.3,16.0,0,5,7,0,2026-04-05T17:03:37.820609+05:30
Gorakhpur,Uttar Pradesh,26.7606,83.3732,32.7,22,0.0,994.1,7.85,45.4,89,36.6,14.5,0,5,7,0,2026-04-05T17:03:37.820615+05:30
Bareilly,Uttar Pradesh,28.367,79.4304,28.8,39,0.0,984.9,7.2,40.7,91,61.7,23.6,4,5,7,0,2026-04-05T17:03:37.820622+05:30
Aligarh,Uttar Pradesh,27.8974,78.088,27.5,46,0.0,984.6,7.1,31.0,164,216.5,44.1,4,5,7,0,2026-04-05T17:03:37.820630+05:30
Moradabad,Uttar Pradesh,28.8386,78.7733,28.6,36,0.0,981.6,7.0,29.2,102,66.1,23.0,4,5,7,0,2026-04-05T17:03:37.820636+05:30
Saharanpur,Uttar Pradesh,29.9637,77.546,29.3,27,0.0,973.4,6.6,33.8,88,70.3,17.4,4,5,7,0,2026-04-05T17:03:37.820642+05:30
Jhansi,Uttar Pradesh,25.4484,78.5685,31.8,29,0.0,975.1,7.85,33.1,60,19.3,8.7,0,5,7,0,2026-04-05T17:03:41.114695+05:30
Surat,Gujarat,21.1702,72.8311,29.4,52,0.0,1006.3,7.7,27.7,78,47.0,35.2,4,5,4,1,2026-04-05T17:03:41.114726+05:30
Vadodara,Gujarat,22.3072,73.1812,33.3,28,0.0,1002.9,7.9,19.8,93,25.1,13.6,0,5,4,0,2026-04-05T17:03:41.114736+05:30
Rajkot,Gujarat,22.3039,70.8022,33.3,24,0.0,993.5,7.65,34.6,85,28.9,10.1,0,5,7,0,2026-04-05T17:03:41.114745+05:30
Thane,Maharashtra,19.2183,72.9781,28.9,58,0.0,1007.6,7.9,34.9,68,31.0,16.0,4,5,4,1,2026-04-05T17:03:41.114752+05:30
Nagpur,Maharashtra,21.1458,79.0882,34.6,25,0.0,969.9,8.7,29.5,104,30.4,16.0,0,5,7,0,2026-04-05T17:03:41.114759+05:30
Nashik,Maharashtra,19.9975,73.7898,28.7,45,0.0,944.6,8.05,36.0,56,27.2,11.4,4,5,7,0,2026-04-05T17:03:41.114766+05:30
Aurangabad,Maharashtra,19.8762,75.3433,33.1,26,0.0,942.2,8.85,37.1,56,37.4,14.6,0,5,7,0,2026-04-05T17:03:41.114814+05:30
Solapur,Maharashtra,17.6599,75.9064,35.9,21,0.0,954.7,8.6,29.9,78,27.7,15.2,0,5,10,0,2026-04-05T17:03:41.114826+05:30
Kolhapur,Maharashtra,16.705,74.2433,30.1,42,0.0,947.0,9.05,45.0,67,25.3,13.2,0,5,7,0,2026-04-05T17:03:41.114834+05:30
Goa,Goa,15.2993,74.124,30.3,67,0.0,996.8,9.05,38.5,63,54.8,19.0,3,5,7,1,2026-04-05T17:03:41.114841+05:30
Jodhpur,Rajasthan,26.2389,73.0243,31.6,21,0.0,981.8,7.65,26.3,84,84.5,13.0,0,5,7,0,2026-04-05T17:03:41.114848+05:30
Udaipur,Rajasthan,24.5854,73.7125,27.6,26,0.0,946.0,8.3,34.2,91,24.6,7.8,4,5,7,0,2026-04-05T17:03:41.114855+05:30
Kota,Rajasthan,25.2138,75.8648,32.2,20,0.0,976.6,7.85,31.7,91,76.1,15.1,0,5,7,0,2026-04-05T17:03:41.114861+05:30
Bikaner,Rajasthan,28.0229,73.3119,30.4,26,0.0,981.1,7.6,26.6,74,18.4,8.4,0,5,7,0,2026-04-05T17:03:41.114868+05:30
Ajmer,Rajasthan,26.4499,74.6399,29.0,26,0.0,953.2,7.75,31.0,75,73.6,12.9,4,5,7,0,2026-04-05T17:03:41.114875+05:30
Gwalior,Madhya Pradesh,26.2183,78.1828,28.6,47,0.0,981.4,7.6,50.8,61,35.0,11.8,4,5,7,1,2026-04-05T17:03:41.114881+05:30
Indore,Madhya Pradesh,22.7196,75.8577,30.5,23,0.0,946.6,8.35,31.0,97,17.5,11.0,0,5,7,0,2026-04-05T17:03:41.114887+05:30
Bhopal,Madhya Pradesh,23.2599,77.4126,31.7,22,0.0,951.4,8.3,33.8,85,19.4,6.9,0,5,7,0,2026-04-05T17:03:41.114894+05:30
Jabalpur,Madhya Pradesh,23.1815,79.9864,32.1,31,0.0,959.0,8.45,31.0,73,34.5,14.5,0,5,7,0,2026-04-05T17:03:41.114900+05:30
Ujjain,Madhya Pradesh,23.1765,75.7885,30.5,22,0.0,952.3,8.25,32.8,82,14.1,6.4,0,5,7,0,2026-04-05T17:03:41.114907+05:30
Visakhapatnam,Andhra Pradesh,17.6868,83.2185,30.8,71,0.0,1001.6,9.1,36.0,75,41.0,36.1,3,5,4,1,2026-04-05T17:03:41.114914+05:30
Vijayawada,Andhra Pradesh,16.5062,80.648,34.5,49,0.0,999.3,8.75,24.1,78,38.8,31.2,0,5,7,1,2026-04-05T17:03:41.114921+05:30
Guntur,Andhra Pradesh,16.3067,80.4365,33.4,57,0.0,1000.5,8.9,31.7,79,37.3,29.7,0,5,4,1,2026-04-05T17:03:41.114927+05:30
Nellore,Andhra Pradesh,14.4426,79.9865,33.6,60,0.0,1002.3,9.3,32.0,107,28.9,23.8,0,5,4,1,2026-04-05T17:03:41.114934+05:30
Kurnool,Andhra Pradesh,15.8281,78.0373,37.8,27,0.0,973.1,9.2,33.8,157,51.0,42.8,0,5,10,0,2026-04-05T17:03:41.114941+05:30
Kakinada,Andhra Pradesh,16.9891,82.2475,34.0,53,0.0,1004.5,9.15,29.5,57,22.7,16.9,0,5,4,1,2026-04-05T17:03:41.114948+05:30
Tirupati,Andhra Pradesh,13.6288,79.4192,35.4,39,0.0,987.9,8.6,36.0,121,37.3,31.5,0,5,10,1,2026-04-05T17:03:41.114954+05:30
Warangal,Telangana,17.9689,79.5941,32.9,53,0.0,976.2,8.8,37.4,148,61.0,49.8,0,5,7,1,2026-04-05T17:03:41.114960+05:30
Nizamabad,Telangana,18.6725,78.0941,34.9,25,0.0,962.3,8.9,55.1,114,31.8,17.9,0,5,7,0,2026-04-05T17:03:41.114967+05:30
Mysore,Karnataka,12.2958,76.6396,28.6,56,0.0,927.1,8.65,36.7,93,26.2,21.4,4,5,7,1,2026-04-05T17:03:41.114973+05:30
Mangalore,Karnataka,12.9141,74.856,29.6,77,0.0,1004.8,9.2,34.6,65,20.6,13.2,7,5,4,1,2026-04-05T17:03:41.114980+05:30
Hubli-Dharwad,Karnataka,15.3647,75.124,33.0,31,0.0,939.2,9.25,38.5,76,20.4,15.4,0,5,7,0,2026-04-05T17:03:41.114987+05:30
Belgaum,Karnataka,15.8497,74.4977,29.6,46,0.0,924.9,9.3,38.5,60,22.2,11.1,4,5,7,1,2026-04-05T17:03:44.413375+05:30
Coimbatore,Tamil Nadu,11.0168,76.9558,30.6,56,0.0,959.9,9.5,45.0,96,28.9,25.5,0,5,7,1,2026-04-05T17:03:44.413403+05:30
Madurai,Tamil Nadu,9.9252,78.1198,30.4,62,0.0,991.2,5.45,23.8,135,25.3,22.5,3,5,3,1,2026-04-05T17:03:44.413413+05:30
Trichy,Tamil Nadu,10.7905,78.7047,35.8,43,0.0,996.0,9.25,36.7,131,40.5,35.4,0,5,10,1,2026-04-05T17:03:44.413421+05:30
Salem,Tamil Nadu,11.6643,78.146,37.0,33,0.0,973.7,8.7,25.9,141,35.6,30.7,0,5,10,1,2026-04-05T17:03:44.413429+05:30
Tirunelveli,Tamil Nadu,8.7139,77.7567,36.0,36,0.0,999.7,9.4,27.4,64,17.2,15.3,0,5,10,1,2026-04-05T17:03:44.413436+05:30
Vellore,Tamil Nadu,12.9165,79.1325,35.6,36,0.0,980.8,9.45,32.8,140,41.8,35.3,0,5,10,1,2026-04-05T17:03:44.413443+05:30
Erode,Tamil Nadu,11.341,77.7172,36.9,38,0.0,985.0,9.45,27.0,126,31.3,26.5,0,5,10,1,2026-04-05T17:03:44.413449+05:30
Kochi,Kerala,9.9312,76.2673,29.6,79,0.0,1006.6,8.2,31.7,65,17.2,13.8,7,5,4,1,2026-04-05T17:03:44.413456+05:30
Thiruvananthapuram,Kerala,8.5241,76.9366,29.6,80,0.0,1005.8,9.2,38.5,59,18.5,13.0,7,5,4,1,2026-04-05T17:03:44.413462+05:30
Kozhikode,Kerala,11.2588,75.7804,30.2,76,0.0,1005.9,9.15,33.8,57,28.7,16.0,3,5,4,1,2026-04-05T17:03:44.413469+05:30
Thrissur,Kerala,10.5276,76.2144,31.6,67,0.0,1005.0,8.4,36.7,64,19.5,15.8,3,5,4,1,2026-04-05T17:03:44.413476+05:30
Kannur,Kerala,11.8745,75.3704,31.2,63,0.0,1005.1,9.2,38.5,68,25.4,15.2,3,5,4,1,2026-04-05T17:03:44.413483+05:30
Patna,Bihar,25.5941,85.1376,33.7,33,0.0,996.7,8.25,45.0,74,25.1,14.3,0,5,7,0,2026-04-05T17:03:44.413489+05:30
Gaya,Bihar,24.7914,85.0002,33.7,33,0.0,990.5,8.35,41.4,83,32.2,18.0,0,5,7,0,2026-04-05T17:03:44.413496+05:30
Muzaffarpur,Bihar,26.1209,85.3647,33.7,29,0.0,996.4,8.2,33.5,74,21.6,11.6,0,5,7,0,2026-04-05T17:03:44.413503+05:30
Bhagalpur,Bihar,25.2425,87.0117,32.5,43,0.0,997.4,8.35,30.2,88,21.2,15.1,0,5,7,1,2026-04-05T17:03:44.413509+05:30
Ranchi,Jharkhand,23.3441,85.3096,27.1,52,0.0,936.7,8.95,45.7,103,38.8,23.2,4,5,7,1,2026-04-05T17:03:44.413515+05:30
Jamshedpur,Jharkhand,22.8046,86.2029,33.4,40,0.0,988.5,8.4,18.0,127,40.3,28.5,0,5,7,1,2026-04-05T17:03:44.413522+05:30
Dhanbad,Jharkhand,23.7957,86.4304,33.4,33,0.0,977.1,8.7,37.4,97,34.7,25.2,0,5,7,0,2026-04-05T17:03:44.413529+05:30
Bokaro,Jharkhand,23.6693,86.1511,32.5,36,0.0,981.4,8.7,38.2,102,41.1,27.0,0,5,7,0,2026-04-05T17:03:44.413536+05:30
Bhubaneswar,Odisha,20.2961,85.8245,29.3,76,0.0,1001.0,8.65,26.3,165,46.0,41.2,7,5,4,1,2026-04-05T17:03:44.413542+05:30
Cuttack,Odisha,20.4625,85.8828,29.8,71,0.0,1002.8,8.7,25.2,165,46.0,41.2,7,5,4,1,2026-04-05T17:03:44.413549+05:30
Rourkela,Odisha,22.2604,84.8536,32.5,43,0.0,983.1,8.7,29.9,114,43.4,31.5,0,5,7,1,2026-04-05T17:03:44.413555+05:30
Raipur,Chhattisgarh,21.2514,81.6296,33.6,37,0.0,972.2,8.75,30.2,148,52.4,42.5,0,5,7,1,2026-04-05T17:03:44.413561+05:30
Bhilai,Chhattisgarh,21.1938,81.3509,33.2,39,0.0,972.6,8.7,32.0,143,46.9,36.7,0,5,7,1,2026-04-05T17:03:44.413567+05:30
Guwahati,Assam,26.1158,91.7086,29.6,51,0.0,996.9,7.45,44.6,139,22.1,14.1,4,5,7,1,2026-04-05T17:03:44.413574+05:30
Agartala,Tripura,23.8315,91.2868,30.0,68,0.0,1003.6,8.4,31.7,150,43.7,32.9,7,5,4,1,2026-04-05T17:03:44.413580+05:30
Shillong,Meghalaya,25.5788,91.8933,17.4,69,0.0,854.2,8.1,67.0,108,31.7,23.9,3,5,7,0,2026-04-05T17:03:44.413587+05:30
Imphal,Manipur,24.817,93.9368,21.4,73,0.0,921.2,8.85,83.9,147,48.1,42.4,3,5,7,1,2026-04-05T17:03:44.413593+05:30
Aizawl,Mizoram,23.7271,92.7176,22.8,71,0.0,891.9,8.5,51.8,150,45.6,39.9,3,5,7,1,2026-04-05T17:03:44.413600+05:30
Kohima,Nagaland,25.6701,94.1077,20.0,63,0.0,853.3,8.2,95.0,114,38.8,32.4,3,5,7,0,2026-04-05T17:03:44.413606+05:30
Gangtok,Sikkim,27.3314,88.6138,16.4,86,0.0,835.2,8.25,24.5,109,37.4,27.5,3,10,7,0,2026-04-05T17:03:44.413612+05:30
Siliguri,West Bengal,26.7271,88.3953,26.3,56,0.0,990.0,8.2,36.4,156,35.0,24.0,4,5,7,1,2026-04-05T17:03:47.708436+05:30
Durgapur,West Bengal,23.5204,87.3119,32.3,43,0.0,992.5,7.7,38.2,109,33.5,25.7,0,5,7,1,2026-04-05T17:03:47.708469+05:30
Asansol,West Bengal,23.6739,86.9524,32.5,44,0.0,990.9,8.05,36.0,87,34.6,25.9,0,5,7,1,2026-04-05T17:03:47.708480+05:30
Pondicherry,Puducherry,11.9139,79.8145,34.5,59,0.0,1004.3,9.35,27.0,103,27.2,22.9,0,5,4,1,2026-04-05T17:03:47.708490+05:30
Port Blair,Andaman and Nicobar Islands,11.6234,92.7265,29.2,72,0.0,1005.8,9.25,22.7,38,9.0,6.4,7,5,4,1,2026-04-05T17:03:47.708500+05:30
Haridwar,Uttarakhand,29.9457,78.1642,30.2,25,0.0,971.5,6.7,27.7,74,35.6,12.5,0,5,7,0,2026-04-05T17:03:47.708506+05:30
Rishikesh,Uttarakhand,30.0869,78.2676,29.2,27,0.0,964.4,6.7,27.7,68,26.7,10.3,4,5,7,0,2026-04-05T17:03:47.708514+05:30
Nainital,Uttarakhand,29.3919,79.4542,19.5,49,0.0,804.6,6.8,31.7,74,34.3,15.7,0,5,7,0,2026-04-05T17:03:47.708522+05:30
Mussoorie,Uttarakhand,30.4599,78.0664,18.3,43,0.0,800.8,6.3,45.7,72,25.6,9.8,0,5,7,0,2026-04-05T17:03:47.708529+05:30
Dharamshala,Himachal Pradesh,32.219,76.3234,18.7,67,0.0,867.3,7.3,32.8,73,9.3,3.2,3,5,7,0,2026-04-05T17:03:47.708535+05:30
Dalhousie,Himachal Pradesh,32.5387,75.971,16.6,59,0.0,802.0,7.55,25.2,65,40.6,13.0,0,5,7,0,2026-04-05T17:03:47.708543+05:30
Patiala,Punjab,30.3398,76.3869,28.6,31,0.0,976.7,6.75,33.5,112,410.7,50.8,4,5,7,0,2026-04-05T17:03:47.708549+05:30
Bhatinda,Punjab,30.211,74.9455,28.2,33,0.0,982.7,7.35,30.2,89,65.4,21.1,4,5,7,0,2026-04-05T17:03:47.708556+05:30
Rohtak,Haryana,28.8955,76.6066,29.3,32,0.0,979.9,3.9,36.7,150,393.9,43.0,4,5,3,0,2026-04-05T17:03:47.708563+05:30
Panipat,Haryana,29.3909,76.9635,28.8,34,0.0,978.8,6.75,32.0,193,534.6,55.8,4,5,7,0,2026-04-05T17:03:47.708570+05:30
Mathura,Uttar Pradesh,27.4924,77.6737,26.9,52,0.0,986.0,5.8,31.3,231,279.4,41.1,4,5,3,1,2026-04-05T17:03:47.708576+05:30
Vrindavan,Uttar Pradesh,27.5823,77.7027,26.8,53,0.0,986.5,6.05,31.0,231,279.4,41.1,4,5,7,1,2026-04-05T17:03:47.708582+05:30
Ayodhya,Uttar Pradesh,26.7922,82.1998,31.6,35,0.0,992.6,7.6,46.1,105,45.1,17.7,0,5,7,0,2026-04-05T17:03:47.708589+05:30
Ratlam,Madhya Pradesh,23.3315,75.0367,30.2,25,0.0,953.6,7.85,33.5,83,15.3,6.2,0,5,7,0,2026-04-05T17:03:47.708595+05:30
Sagar,Madhya Pradesh,23.8388,78.7378,31.6,21,0.0,947.9,7.9,33.1,78,25.7,7.7,0,5,7,0,2026-04-05T17:03:47.708601+05:30
Satna,Madhya Pradesh,24.6005,80.8322,32.0,30,0.0,968.5,8.35,30.6,73,27.3,12.2,0,5,7,0,2026-04-05T17:03:47.708608+05:30
Akola,Maharashtra,20.7002,77.0082,35.3,25,0.0,972.2,8.65,36.4,70,31.3,15.5,0,5,10,0,2026-04-05T17:03:47.708615+05:30
Amravati,Maharashtra,20.9374,77.7796,35.3,22,0.0,964.3,8.65,34.9,77,31.3,15.5,0,5,10,0,2026-04-05T17:03:47.708622+05:30
Latur,Maharashtra,18.4088,76.5604,33.7,23,0.0,937.6,9.0,30.2,89,27.1,13.8,0,5,7,0,2026-04-05T17:03:47.708628+05:30
Nanded,Maharashtra,19.1383,77.3091,35.6,23,0.0,965.9,8.85,28.4,100,31.9,15.4,0,5,10,0,2026-04-05T17:03:47.708635+05:30
Gulbarga,Karnataka,17.3297,76.8343,36.0,23,0.0,956.1,9.0,34.6,95,24.1,15.1,0,5,10,0,2026-04-05T17:03:47.708641+05:30
Bidar,Karnataka,17.9104,77.5199,34.5,24,0.0,933.4,9.0,33.5,117,30.2,17.6,0,5,7,0,2026-04-05T17:03:47.708648+05:30
Hospet,Karnataka,15.2689,76.3909,35.2,28,0.0,953.4,9.2,29.2,82,19.6,16.0,0,5,10,0,2026-04-05T17:03:47.708654+05:30
Tirupur,Tamil Nadu,11.1085,77.3411,33.0,49,0.0,972.5,9.55,32.0,122,34.2,29.6,0,5,7,1,2026-04-05T17:03:47.708660+05:30
Alappuzha,Kerala,9.4981,76.3388,29.7,79,0.0,1006.7,8.9,30.6,69,18.4,13.6,7,5,4,1,2026-04-05T17:03:47.708666+05:30
Munnar,Kerala,10.0889,77.0595,24.2,80,0.0,856.7,9.75,38.5,59,21.0,18.6,3,5,7,1,2026-04-05T17:03:47.708673+05:30
Silchar,Assam,24.8333,92.7789,25.9,81,0.0,1003.3,8.4,33.1,156,53.9,46.9,7,5,4,1,2026-04-05T17:03:47.708679+05:30
Dibrugarh,Assam,27.4728,94.912,23.4,88,0.0,991.7,7.5,49.3,147,45.5,36.1,3,5,7,1,2026-04-05T17:03:47.708685+05:30
