city,state,latitude,longitude,temp,humidity,rain,pressure,uv_index,wind_gusts,aqi,pm10,pm2_5,mosquito_risk,arthritis_risk,migraine_risk,frizz_risk,updated_at
Delhi,Delhi,28.6139,77.209,28.6,32,0.0,986.0,7.15,38.5,514,1385.8,176.5,4,5,7,0,2026-04-10T18:48:42.838792+05:30
Mumbai,Maharashtra,19.076,72.8777,28.5,74,0.0,1009.3,7.95,25.2,96,66.1,34.3,7,0,4,1,2026-04-10T18:48:42.838858+05:30
Bangalore,Karnataka,12.9716,77.5946,30.2,49,0.0,913.1,9.65,42.8,188,39.6,33.1,0,5,7,1,2026-04-10T18:48:42.838876+05:30
Hyderabad,Telangana,17.385,78.4867,35.4,25,0.0,954.1,9.15,19.4,153,58.8,30.3,0,5,10,0,2026-04-10T18:48:42.838887+05:30
Chennai,Tamil Nadu,13.0827,80.2707,30.1,74,0.0,1008.4,9.4,36.4,66,22.4,16.3,3,0,4,1,2026-04-10T18:48:42.838896+05:30
Kolkata,West Bengal,22.5726,88.3639,27.8,68,0.0,1007.4,8.7,21.2,161,104.1,74.0,7,5,4,1,2026-04-10T18:48:42.838906+05:30
Pune,Maharashtra,18.5204,73.8567,33.4,43,0.0,949.4,8.5,31.3,123,38.6,19.4,0,5,7,1,2026-04-10T18:48:42.838917+05:30
Ahmedabad,Gujarat,23.0225,72.5714,35.5,16,0.0,1004.7,8.0,36.7,138,39.6,16.6,0,5,7,0,2026-04-10T18:48:42.838926+05:30
Jaipur,Rajasthan,26.9124,75.7873,30.5,22,0.0,964.0,7.75,28.4,158,232.8,35.4,0,5,7,0,2026-04-10T18:48:42.838933+05:30
Lucknow,Uttar Pradesh,26.8467,80.9462,28.6,29,0.0,995.7,7.65,40.0,132,527.1,80.6,4,5,7,0,2026-04-10T18:48:42.838941+05:30
Kanpur,Uttar Pradesh,26.4499,80.3319,27.0,43,0.0,994.4,7.65,35.3,217,856.8,107.1,4,5,7,0,2026-04-10T18:48:42.838949+05:30
Chandigarh,Chandigarh,30.7333,76.7794,25.8,38,0.0,972.1,7.15,42.1,136,12.3,10.9,4,5,7,0,2026-04-10T18:48:42.838957+05:30
Srinagar,Jammu and Kashmir,34.0837,74.7973,16.0,52,0.0,843.5,8.1,12.6,127,38.9,20.5,0,5,7,0,2026-04-10T18:48:42.838964+05:30
Jammu,Jammu and Kashmir,32.7266,74.857,26.1,36,0.0,976.6,7.75,34.2,109,23.8,15.0,4,5,7,0,2026-04-10T18:48:42.838972+05:30
Amritsar,Punjab,31.634,74.8723,26.2,38,0.0,985.2,7.7,29.2,140,20.5,15.9,4,5,7,0,2026-04-10T18:48:42.838979+05:30
Ludhiana,Punjab,30.901,75.8573,27.9,31,0.0,982.7,7.3,32.8,118,52.9,19.1,4,5,7,0,2026-04-10T18:48:42.838987+05:30
Jalandhar,Punjab,31.326,75.5762,27.3,32,0.0,983.9,7.5,29.9,130,66.4,20.5,4,5,7,0,2026-04-10T18:48:42.838996+05:30
Dehradun,Uttarakhand,30.6284,78.0322,16.3,52,0.0,830.3,7.55,29.5,142,8.1,6.0,0,5,7,0,2026-04-10T18:48:42.839003+05:30
Shimla,Himachal Pradesh,31.1048,77.1734,13.2,47,0.0,785.6,7.6,50.8,123,9.5,7.1,0,5,7,0,2026-04-10T18:48:42.839011+05:30
Manali,Himachal Pradesh,32.2396,77.1887,15.2,78,0.0,820.8,9.9,32.4,176,13.3,6.6,3,5,7,0,2026-04-10T18:48:42.839018+05:30
Gurgaon,Haryana,28.4595,77.0266,26.8,41,0.0,984.6,7.25,35.6,1564,3211.2,349.2,4,5,7,0,2026-04-10T18:48:42.839026+05:30
Noida,Uttar Pradesh,28.5355,77.391,28.3,33,0.0,987.4,7.15,37.8,1564,3211.2,349.2,4,5,7,0,2026-04-10T18:48:42.839033+05:30
Ghaziabad,Uttar Pradesh,28.6692,77.4538,27.5,36,0.0,985.5,7.15,37.8,320,1173.5,157.9,4,5,7,0,2026-04-10T18:48:42.839040+05:30
Faridabad,Haryana,28.4089,77.3178,27.9,34,0.0,986.8,7.2,36.4,1564,3211.2,349.2,4,5,7,0,2026-04-10T18:48:42.839046+05:30
Meerut,Uttar Pradesh,28.9845,77.7064,26.3,38,0.0,983.9,7.05,42.5,320,1173.5,157.9,4,5,7,0,2026-04-10T18:48:42.839053+05:30
Agra,Uttar Pradesh,27.1767,78.0081,27.7,35,0.0,991.0,7.5,36.0,847,1687.6,176.0,4,5,7,0,2026-04-10T18:48:42.839060+05:30
Varanasi,Uttar Pradesh,25.3176,82.9739,28.4,32,0.0,999.6,8.2,39.2,158,63.6,23.7,4,5,7,0,2026-04-10T18:48:42.839070+05:30
Prayagraj,Uttar Pradesh,25.4358,81.8463,29.0,34,0.0,998.4,8.05,31.7,152,92.2,27.5,4,5,7,0,2026-04-10T18:48:42.839080+05:30
Gorakhpur,Uttar Pradesh,26.7606,83.3732,28.8,20,0.0,998.2,8.05,43.2,136,42.3,16.2,4,5,7,0,2026-04-10T18:48:42.839087+05:30
Bareilly,Uttar Pradesh,28.367,79.4304,25.7,43,0.0,988.7,7.4,38.2,130,172.3,43.0,4,5,7,0,2026-04-10T18:48:42.839094+05:30
Aligarh,Uttar Pradesh,27.8974,78.088,27.1,35,0.0,988.3,7.3,38.9,750,2071.3,252.4,4,5,7,0,2026-04-10T18:48:42.839100+05:30
Moradabad,Uttar Pradesh,28.8386,78.7733,25.4,43,0.0,985.6,7.25,38.2,116,367.9,71.0,4,5,7,0,2026-04-10T18:48:42.839106+05:30
Saharanpur,Uttar Pradesh,29.9637,77.546,26.0,34,0.0,977.8,6.85,50.4,126,205.4,37.1,4,5,7,0,2026-04-10T18:48:42.839113+05:30
Jhansi,Uttar Pradesh,25.4484,78.5685,29.7,24,0.0,981.9,8.0,33.5,139,22.4,12.0,4,5,7,0,2026-04-10T18:48:46.055635+05:30
Surat,Gujarat,21.1702,72.8311,31.9,53,0.0,1008.0,7.75,19.4,137,67.3,51.8,0,0,4,1,2026-04-10T18:48:46.055668+05:30
Vadodara,Gujarat,22.3072,73.1812,35.1,22,0.0,1006.1,8.0,31.7,131,32.7,17.6,0,5,7,0,2026-04-10T18:48:46.055678+05:30
Rajkot,Gujarat,22.3039,70.8022,36.1,20,0.0,996.3,7.7,25.9,146,36.3,16.8,0,5,10,0,2026-04-10T18:48:46.055686+05:30
Thane,Maharashtra,19.2183,72.9781,28.9,67,0.0,1008.6,7.95,37.8,96,66.1,34.3,7,0,4,1,2026-04-10T18:48:46.055693+05:30
Nagpur,Maharashtra,21.1458,79.0882,31.3,47,0.0,974.5,8.75,24.1,160,55.2,26.1,0,5,7,1,2026-04-10T18:48:46.055701+05:30
Nashik,Maharashtra,19.9975,73.7898,32.6,29,0.0,947.2,8.2,28.1,156,35.5,24.0,0,5,7,0,2026-04-10T18:48:46.055708+05:30
Aurangabad,Maharashtra,19.8762,75.3433,34.4,24,0.0,945.5,8.85,28.4,143,31.7,19.3,0,5,7,0,2026-04-10T18:48:46.055715+05:30
Solapur,Maharashtra,17.6599,75.9064,36.6,23,0.0,957.4,9.0,23.4,128,40.7,19.4,0,5,10,0,2026-04-10T18:48:46.055722+05:30
Kolhapur,Maharashtra,16.705,74.2433,30.4,53,0.0,948.6,9.0,34.6,103,44.7,27.4,0,5,7,1,2026-04-10T18:48:46.055729+05:30
Goa,Goa,15.2993,74.124,29.0,73,0.0,998.2,9.0,37.1,75,99.4,36.3,7,5,7,1,2026-04-10T18:48:46.055737+05:30
Jodhpur,Rajasthan,26.2389,73.0243,31.8,24,0.0,986.9,8.0,22.7,116,68.5,15.7,0,5,7,0,2026-04-10T18:48:46.055744+05:30
Udaipur,Rajasthan,24.5854,73.7125,30.4,19,0.0,950.7,8.55,29.9,115,26.8,9.3,0,5,7,0,2026-04-10T18:48:46.055750+05:30
Kota,Rajasthan,25.2138,75.8648,29.9,35,0.0,983.2,8.0,23.8,121,49.6,19.5,4,5,7,0,2026-04-10T18:48:46.055757+05:30
Bikaner,Rajasthan,28.0229,73.3119,32.8,20,0.0,985.9,7.8,19.8,134,57.7,14.5,0,5,7,0,2026-04-10T18:48:46.055764+05:30
Ajmer,Rajasthan,26.4499,74.6399,29.8,28,0.0,958.8,7.95,20.2,111,41.2,13.4,4,5,7,0,2026-04-10T18:48:46.055770+05:30
Gwalior,Madhya Pradesh,26.2183,78.1828,28.4,34,0.0,987.0,7.75,33.1,129,37.3,12.9,4,5,7,0,2026-04-10T18:48:46.055777+05:30
Indore,Madhya Pradesh,22.7196,75.8577,30.3,28,0.0,951.1,8.45,31.0,138,21.9,11.1,0,5,7,0,2026-04-10T18:48:46.055784+05:30
Bhopal,Madhya Pradesh,23.2599,77.4126,31.8,16,0.0,956.8,8.45,30.2,128,18.7,8.2,0,5,7,0,2026-04-10T18:48:46.055792+05:30
Jabalpur,Madhya Pradesh,23.1815,79.9864,31.0,28,0.0,964.0,8.55,24.5,129,54.8,20.0,0,5,7,0,2026-04-10T18:48:46.055798+05:30
Ujjain,Madhya Pradesh,23.1765,75.7885,31.0,26,0.0,957.1,8.35,29.5,132,28.8,13.3,0,5,7,0,2026-04-10T18:48:46.055805+05:30
Visakhapatnam,Andhra Pradesh,17.6868,83.2185,28.8,81,0.0,1005.4,9.1,37.1,98,30.5,23.8,7,5,4,1,2026-04-10T18:48:46.055811+05:30
Vijayawada,Andhra Pradesh,16.5062,80.648,32.7,60,0.0,1003.1,9.2,35.6,89,30.2,26.4,0,5,4,1,2026-04-10T18:48:46.055818+05:30
Guntur,Andhra Pradesh,16.3067,80.4365,30.6,69,0.0,1004.5,9.2,33.8,97,37.7,30.0,3,5,4,1,2026-04-10T18:48:46.055825+05:30
Nellore,Andhra Pradesh,14.4426,79.9865,30.0,74,0.0,1006.9,9.3,34.9,105,25.3,20.1,7,5,4,1,2026-04-10T18:48:46.055832+05:30
Kurnool,Andhra Pradesh,15.8281,78.0373,37.6,30,0.0,976.3,9.15,25.2,129,41.8,26.3,0,5,10,1,2026-04-10T18:48:46.055860+05:30
Kakinada,Andhra Pradesh,16.9891,82.2475,30.2,72,0.0,1008.4,9.15,37.1,75,23.7,16.8,3,0,4,1,2026-04-10T18:48:46.055869+05:30
Tirupati,Andhra Pradesh,13.6288,79.4192,32.4,52,0.0,992.4,9.05,30.6,140,37.1,32.9,0,5,7,1,2026-04-10T18:48:46.055876+05:30
Warangal,Telangana,17.9689,79.5941,35.2,35,0.0,979.0,9.0,23.4,144,58.4,34.8,0,5,10,1,2026-04-10T18:48:46.055883+05:30
Nizamabad,Telangana,18.6725,78.0941,33.4,35,0.0,965.8,8.95,29.5,143,42.4,25.5,0,5,7,0,2026-04-10T18:48:46.055890+05:30
Mysore,Karnataka,12.2958,76.6396,33.0,35,0.0,928.9,9.55,37.4,156,49.6,37.0,0,5,7,0,2026-04-10T18:48:46.055896+05:30
Mangalore,Karnataka,12.9141,74.856,29.4,80,0.0,1006.6,9.15,32.4,66,70.1,23.1,7,5,4,1,2026-04-10T18:48:46.055903+05:30
Hubli-Dharwad,Karnataka,15.3647,75.124,34.5,28,0.0,941.0,9.2,36.0,127,48.0,23.8,0,5,7,0,2026-04-10T18:48:46.055910+05:30
Belgaum,Karnataka,15.8497,74.4977,29.5,58,0.0,926.6,9.25,35.3,124,50.9,26.4,4,5,7,1,2026-04-10T18:48:49.273217+05:30
Coimbatore,Tamil Nadu,11.0168,76.9558,29.4,70,0.0,962.1,9.5,36.7,145,29.4,23.1,7,5,7,1,2026-04-10T18:48:49.273249+05:30
Madurai,Tamil Nadu,9.9252,78.1198,33.1,51,0.0,993.3,9.4,41.0,134,23.9,21.1,0,5,7,1,2026-04-10T18:48:49.273259+05:30
Trichy,Tamil Nadu,10.7905,78.7047,33.5,52,0.0,999.8,9.4,31.7,110,22.5,19.5,0,5,7,1,2026-04-10T18:48:49.273266+05:30
Salem,Tamil Nadu,11.6643,78.146,33.9,50,0.0,977.4,9.3,24.1,162,35.5,31.5,0,5,7,1,2026-04-10T18:48:49.273273+05:30
Tirunelveli,Tamil Nadu,8.7139,77.7567,31.3,63,0.0,1003.9,9.35,38.2,143,26.2,22.8,3,5,4,1,2026-04-10T18:48:49.273280+05:30
Vellore,Tamil Nadu,12.9165,79.1325,32.1,51,0.0,985.4,9.45,35.3,139,34.0,31.1,0,5,7,1,2026-04-10T18:48:49.273288+05:30
Erode,Tamil Nadu,11.341,77.7172,35.3,42,0.0,988.7,9.45,34.9,152,33.6,29.0,0,5,10,1,2026-04-10T18:48:49.273295+05:30
Kochi,Kerala,9.9312,76.2673,29.8,80,0.0,1008.9,9.25,31.7,87,43.1,23.7,7,0,4,1,2026-04-10T18:48:49.273302+05:30
Thiruvananthapuram,Kerala,8.5241,76.9366,27.8,85,0.0,1009.2,9.2,28.1,73,38.9,19.3,7,0,4,1,2026-04-10T18:48:49.273310+05:30
Kozhikode,Kerala,11.2588,75.7804,30.0,78,0.0,1007.9,9.15,30.2,68,51.9,16.4,7,5,4,1,2026-04-10T18:48:49.273318+05:30
Thrissur,Kerala,10.5276,76.2144,30.1,77,0.0,1007.2,9.2,36.0,97,39.0,20.0,3,5,4,1,2026-04-10T18:48:49.273325+05:30
Kannur,Kerala,11.8745,75.3704,29.8,76,0.0,1007.2,9.15,36.4,68,59.0,18.8,7,5,4,1,2026-04-10T18:48:49.273333+05:30
Patna,Bihar,25.5941,85.1376,29.3,29,0.0,1001.4,8.35,38.9,138,45.1,20.6,4,5,4,0,2026-04-10T18:48:49.273340+05:30
Gaya,Bihar,24.7914,85.0002,27.8,35,0.0,995.4,8.45,37.8,150,43.8,20.8,4,5,7,0,2026-04-10T18:48:49.273347+05:30
Muzaffarpur,Bihar,26.1209,85.3647,28.1,33,0.0,1001.0,8.35,36.0,134,39.6,19.2,4,5,4,0,2026-04-10T18:48:49.273354+05:30
Bhagalpur,Bihar,25.2425,87.0117,27.1,46,0.0,1002.1,8.35,34.2,150,30.6,18.1,4,5,4,0,2026-04-10T18:48:49.273360+05:30
Ranchi,Jharkhand,23.3441,85.3096,27.4,28,0.0,939.8,9.0,37.4,125,39.2,18.1,4,5,7,0,2026-04-10T18:48:49.273366+05:30
Jamshedpur,Jharkhand,22.8046,86.2029,28.4,52,0.0,992.1,8.85,16.9,149,63.8,27.4,4,5,7,1,2026-04-10T18:48:49.273373+05:30
Dhanbad,Jharkhand,23.7957,86.4304,28.6,32,0.0,981.2,8.75,31.0,150,51.3,30.5,4,5,7,0,2026-04-10T18:48:49.273381+05:30
Bokaro,Jharkhand,23.6693,86.1511,28.2,30,0.0,985.3,8.8,32.8,138,52.5,28.5,4,5,7,0,2026-04-10T18:48:49.273387+05:30
Bhubaneswar,Odisha,20.2961,85.8245,29.0,79,0.0,1004.4,9.0,24.5,154,61.0,46.2,7,5,4,1,2026-04-10T18:48:49.273394+05:30
Cuttack,Odisha,20.4625,85.8828,31.2,61,0.0,1005.7,9.0,22.7,154,61.0,46.2,3,5,4,1,2026-04-10T18:48:49.273400+05:30
Rourkela,Odisha,22.2604,84.8536,29.4,45,0.0,986.4,8.75,20.2,122,58.4,27.4,4,5,7,1,2026-04-10T18:48:49.273407+05:30
Raipur,Chhattisgarh,21.2514,81.6296,34.2,28,0.0,975.7,8.8,24.1,174,83.8,48.9,0,5,7,0,2026-04-10T18:48:49.273413+05:30
Bhilai,Chhattisgarh,21.1938,81.3509,33.7,30,0.0,975.8,8.8,22.3,172,80.3,46.9,0,5,7,0,2026-04-10T18:48:49.273420+05:30
Guwahati,Assam,26.1158,91.7086,24.0,78,0.0,1002.9,8.2,32.4,114,40.6,33.6,3,5,4,1,2026-04-10T18:48:49.273428+05:30
Agartala,Tripura,23.8315,91.2868,25.6,75,0.0,1007.1,8.55,28.8,174,63.3,48.7,7,5,4,1,2026-04-10T18:48:49.273435+05:30
Shillong,Meghalaya,25.5788,91.8933,12.1,83,0.0,854.7,7.05,50.4,114,34.0,27.0,3,10,7,0,2026-04-10T18:48:49.273442+05:30
Imphal,Manipur,24.817,93.9368,16.1,74,0.0,923.1,8.9,57.6,106,37.0,26.0,3,5,7,0,2026-04-10T18:48:49.273449+05:30
Aizawl,Mizoram,23.7271,92.7176,18.3,73,0.0,893.1,8.8,58.0,88,49.8,26.2,3,5,7,0,2026-04-10T18:48:49.273455+05:30
Kohima,Nagaland,25.6701,94.1077,12.9,90,0.0,853.8,8.4,72.0,96,29.2,21.5,3,10,7,0,2026-04-10T18:48:49.273462+05:30
Gangtok,Sikkim,27.3314,88.6138,13.3,89,0.1,836.0,8.5,15.1,103,39.2,28.9,6,10,7,0,2026-04-10T18:48:49.273470+05:30
Siliguri,West Bengal,26.7271,88.3953,21.3,63,0.0,994.7,8.2,26.6,115,49.0,38.3,3,5,7,0,2026-04-10T18:48:52.489475+05:30
Durgapur,West Bengal,23.5204,87.3119,27.7,54,0.0,996.4,8.7,20.9,149,47.6,27.2,4,5,7,1,2026-04-10T18:48:52.489505+05:30
Asansol,West Bengal,23.6739,86.9524,29.0,41,0.0,994.9,8.75,23.0,136,45.2,24.4,4,5,7,0,2026-04-10T18:48:52.489515+05:30
Pondicherry,Puducherry,11.9139,79.8145,29.9,76,0.0,1009.3,8.85,33.8,62,20.7,14.6,7,0,4,1,2026-04-10T18:48:52.489523+05:30
Port Blair,Andaman and Nicobar Islands,11.6234,92.7265,29.0,76,0.0,1009.1,9.15,16.6,39,3.2,2.6,7,0,4,1,2026-04-10T18:48:52.489531+05:30
Haridwar,Uttarakhand,29.9457,78.1642,25.4,37,0.0,975.7,6.95,45.4,140,86.6,21.9,4,5,7,0,2026-04-10T18:48:52.489538+05:30
Rishikesh,Uttarakhand,30.0869,78.2676,24.1,44,0.0,968.5,7.0,37.1,149,25.3,12.4,0,5,7,0,2026-04-10T18:48:52.489545+05:30
Nainital,Uttarakhand,29.3919,79.4542,17.9,47,0.0,806.8,7.9,57.2,139,53.1,19.6,0,5,7,0,2026-04-10T18:48:52.489551+05:30
Mussoorie,Uttarakhand,30.4599,78.0664,16.1,55,0.0,802.7,7.4,37.8,145,13.1,11.3,0,5,7,0,2026-04-10T18:48:52.489558+05:30
Dharamshala,Himachal Pradesh,32.219,76.3234,19.1,53,0.0,871.8,7.6,24.8,153,14.4,9.6,0,5,7,0,2026-04-10T18:48:52.489564+05:30
Dalhousie,Himachal Pradesh,32.5387,75.971,17.1,48,0.0,805.9,7.85,19.4,133,15.9,12.3,0,5,7,0,2026-04-10T18:48:52.489572+05:30
Patiala,Punjab,30.3398,76.3869,27.8,30,0.0,981.7,7.0,38.5,633,1102.7,112.2,4,5,7,0,2026-04-10T18:48:52.489579+05:30
Bhatinda,Punjab,30.211,74.9455,28.4,32,0.0,988.0,7.65,31.7,142,48.4,16.6,4,5,7,0,2026-04-10T18:48:52.489586+05:30
Rohtak,Haryana,28.8955,76.6066,28.2,31,0.0,985.1,7.15,38.5,848,1799.3,203.0,4,5,7,0,2026-04-10T18:48:52.489593+05:30
Panipat,Haryana,29.3909,76.9635,27.3,32,0.0,983.3,7.0,41.0,1659,2913.2,304.5,4,5,7,0,2026-04-10T18:48:52.489600+05:30
Mathura,Uttar Pradesh,27.4924,77.6737,28.4,33,0.0,990.1,7.45,34.2,914,1944.6,207.7,4,5,7,0,2026-04-10T18:48:52.489606+05:30
Vrindavan,Uttar Pradesh,27.5823,77.7027,27.2,37,0.0,990.3,7.4,37.4,914,1944.6,207.7,4,5,7,0,2026-04-10T18:48:52.489613+05:30
Ayodhya,Uttar Pradesh,26.7922,82.1998,28.5,29,0.0,996.9,7.8,49.7,129,146.7,31.0,4,5,7,0,2026-04-10T18:48:52.489619+05:30
Ratlam,Madhya Pradesh,23.3315,75.0367,30.2,35,0.0,957.9,8.3,32.4,129,25.9,11.1,0,5,7,0,2026-04-10T18:48:52.489626+05:30
Sagar,Madhya Pradesh,23.8388,78.7378,31.0,18,0.0,953.3,8.4,29.9,126,26.0,9.6,0,5,7,0,2026-04-10T18:48:52.489632+05:30
Satna,Madhya Pradesh,24.6005,80.8322,30.4,22,0.0,974.2,8.45,34.6,132,31.1,13.7,0,5,7,0,2026-04-10T18:48:52.489639+05:30
Akola,Maharashtra,20.7002,77.0082,36.2,20,0.0,975.9,8.7,24.5,151,56.6,27.1,0,5,10,0,2026-04-10T18:48:52.489647+05:30
Amravati,Maharashtra,20.9374,77.7796,34.2,34,0.0,968.3,8.7,28.4,145,54.0,25.2,0,5,7,1,2026-04-10T18:48:52.489654+05:30
Latur,Maharashtra,18.4088,76.5604,32.2,39,0.0,941.2,8.95,30.2,133,36.7,22.6,0,5,7,1,2026-04-10T18:48:52.489660+05:30
Nanded,Maharashtra,19.1383,77.3091,33.9,33,0.0,969.7,8.85,19.4,136,37.5,21.4,0,5,7,0,2026-04-10T18:48:52.489667+05:30
Gulbarga,Karnataka,17.3297,76.8343,36.4,25,0.0,959.2,9.05,26.3,132,38.1,19.6,0,5,10,0,2026-04-10T18:48:52.489673+05:30
Bidar,Karnataka,17.9104,77.5199,33.7,29,0.0,936.9,9.05,28.8,133,34.7,20.9,0,5,7,0,2026-04-10T18:48:52.489679+05:30
Hospet,Karnataka,15.2689,76.3909,36.5,28,0.0,955.7,9.25,23.4,171,38.3,26.4,0,5,10,0,2026-04-10T18:48:52.489685+05:30
Tirupur,Tamil Nadu,11.1085,77.3411,35.5,34,0.0,975.0,9.5,30.2,166,35.9,29.3,0,5,10,1,2026-04-10T18:48:52.489691+05:30
Alappuzha,Kerala,9.4981,76.3388,28.6,80,0.0,1009.2,9.2,26.6,75,45.5,22.2,7,0,4,1,2026-04-10T18:48:52.489698+05:30
Munnar,Kerala,10.0889,77.0595,25.1,76,0.0,858.7,8.1,31.3,121,34.3,31.0,7,5,7,1,2026-04-10T18:48:52.489704+05:30
Silchar,Assam,24.8333,92.7789,23.8,73,0.0,1006.3,8.55,25.9,128,63.3,50.6,3,5,4,1,2026-04-10T18:48:52.489711+05:30
Dibrugarh,Assam,27.4728,94.912,21.2,86,0.0,997.7,8.35,16.2,97,41.1,34.3,3,5,7,1,2026-04-10T18:48:52.489717+05:30
