city,state,latitude,longitude,temp,humidity,rain,pressure,uv_index,wind_gusts,aqi,pm10,pm2_5,mosquito_risk,arthritis_risk,migraine_risk,frizz_risk,updated_at
Delhi,Delhi,28.6139,77.209,34.7,29,0.0,979.4,7.2,28.4,165,255.2,49.8,0,5,7,0,2026-04-19T18:38:17.336372+05:30
Mumbai,Maharashtra,19.076,72.8777,30.1,69,0.0,1006.4,7.9,25.9,123,34.0,20.5,3,5,4,1,2026-04-19T18:38:17.336414+05:30
Bangalore,Karnataka,12.9716,77.5946,32.6,25,0.0,910.3,9.55,29.2,161,30.9,26.5,0,5,7,0,2026-04-19T18:38:17.336429+05:30
Hyderabad,Telangana,17.385,78.4867,30.3,52,0.0,952.6,9.25,27.0,151,51.3,40.7,0,5,7,1,2026-04-19T18:38:17.336439+05:30
Chennai,Tamil Nadu,13.0827,80.2707,30.4,70,0.0,1004.9,9.3,36.0,36,11.8,7.8,3,5,4,1,2026-04-19T18:38:17.336448+05:30
Kolkata,West Bengal,22.5726,88.3639,29.4,80,0.0,1002.9,8.9,32.4,78,30.5,25.4,7,5,4,1,2026-04-19T18:38:17.336473+05:30
Pune,Maharashtra,18.5204,73.8567,33.4,45,0.0,947.2,8.6,37.1,164,47.4,40.7,0,5,7,1,2026-04-19T18:38:17.336481+05:30
Ahmedabad,Gujarat,23.0225,72.5714,37.5,16,0.0,999.1,8.0,25.6,90,20.9,10.1,0,5,10,0,2026-04-19T18:38:17.336489+05:30
Jaipur,Rajasthan,26.9124,75.7873,37.1,10,0.0,957.2,7.8,40.3,119,204.0,32.1,0,5,10,0,2026-04-19T18:38:17.336497+05:30
Lucknow,Uttar Pradesh,26.8467,80.9462,37.5,21,0.0,988.4,7.9,37.4,149,123.9,32.8,0,5,10,0,2026-04-19T18:38:17.336504+05:30
Kanpur,Uttar Pradesh,26.4499,80.3319,34.4,36,0.0,987.3,7.9,23.4,193,306.4,46.3,0,5,7,1,2026-04-19T18:38:17.336512+05:30
Chandigarh,Chandigarh,30.7333,76.7794,29.6,40,0.0,967.2,6.05,33.8,122,44.2,16.7,4,5,7,0,2026-04-19T18:38:17.336520+05:30
Srinagar,Jammu and Kashmir,34.0837,74.7973,14.8,74,0.0,843.7,7.35,21.2,69,27.7,12.1,3,5,7,0,2026-04-19T18:38:17.336528+05:30
Jammu,Jammu and Kashmir,32.7266,74.857,31.1,38,0.0,972.1,5.65,32.4,70,67.5,25.6,0,5,3,0,2026-04-19T18:38:17.336535+05:30
Amritsar,Punjab,31.634,74.8723,30.5,44,0.0,979.9,7.45,25.9,103,59.1,20.8,0,5,7,1,2026-04-19T18:38:17.336542+05:30
Ludhiana,Punjab,30.901,75.8573,32.3,32,0.0,977.5,7.35,42.5,118,61.7,21.1,0,5,7,0,2026-04-19T18:38:17.336551+05:30
Jalandhar,Punjab,31.326,75.5762,31.0,36,0.0,978.9,6.6,28.1,109,71.9,19.6,0,5,7,0,2026-04-19T18:38:17.336558+05:30
Dehradun,Uttarakhand,30.6284,78.0322,20.3,52,0.0,831.5,6.3,46.1,95,44.4,14.2,0,5,7,0,2026-04-19T18:38:17.336565+05:30
Shimla,Himachal Pradesh,31.1048,77.1734,19.9,38,0.0,786.8,6.7,45.7,106,44.6,12.9,0,5,7,0,2026-04-19T18:38:17.336574+05:30
Manali,Himachal Pradesh,32.2396,77.1887,15.9,60,0.0,822.7,6.95,40.7,83,14.4,5.2,0,5,7,0,2026-04-19T18:38:17.336581+05:30
Gurgaon,Haryana,28.4595,77.0266,32.7,35,0.0,978.0,7.35,25.2,522,758.1,93.6,0,5,7,0,2026-04-19T18:38:17.336587+05:30
Noida,Uttar Pradesh,28.5355,77.391,34.9,31,0.0,980.8,7.35,26.6,522,758.1,93.6,0,5,7,0,2026-04-19T18:38:17.336594+05:30
Ghaziabad,Uttar Pradesh,28.6692,77.4538,34.1,33,0.0,979.1,7.3,29.2,164,137.4,41.9,0,5,7,0,2026-04-19T18:38:17.336601+05:30
Faridabad,Haryana,28.4089,77.3178,34.7,27,0.0,980.2,7.3,28.8,522,758.1,93.6,0,5,7,0,2026-04-19T18:38:17.336607+05:30
Meerut,Uttar Pradesh,28.9845,77.7064,33.9,29,0.0,977.8,7.05,31.7,164,137.4,41.9,0,5,7,0,2026-04-19T18:38:17.336613+05:30
Agra,Uttar Pradesh,27.1767,78.0081,35.9,28,0.0,983.5,7.55,27.7,403,648.2,76.8,0,5,10,0,2026-04-19T18:38:17.336622+05:30
Varanasi,Uttar Pradesh,25.3176,82.9739,37.3,20,0.0,992.2,8.45,29.5,157,82.2,29.3,0,5,10,0,2026-04-19T18:38:17.336629+05:30
Prayagraj,Uttar Pradesh,25.4358,81.8463,37.2,22,0.0,990.9,8.35,29.9,153,85.0,27.8,0,5,10,0,2026-04-19T18:38:17.336635+05:30
Gorakhpur,Uttar Pradesh,26.7606,83.3732,37.2,27,0.0,991.5,8.3,32.4,169,62.6,30.3,0,5,10,0,2026-04-19T18:38:17.336642+05:30
Bareilly,Uttar Pradesh,28.367,79.4304,34.1,33,0.0,982.3,7.35,32.8,145,41.7,17.9,0,5,7,0,2026-04-19T18:38:17.336648+05:30
Aligarh,Uttar Pradesh,27.8974,78.088,35.7,22,0.0,981.6,7.5,39.6,227,551.3,75.7,0,5,10,0,2026-04-19T18:38:17.336657+05:30
Moradabad,Uttar Pradesh,28.8386,78.7733,33.9,32,0.0,979.5,7.35,37.1,147,47.3,21.0,0,5,7,0,2026-04-19T18:38:17.336663+05:30
Saharanpur,Uttar Pradesh,29.9637,77.546,31.7,32,0.0,973.4,6.5,36.0,131,82.7,28.8,0,5,7,0,2026-04-19T18:38:17.336669+05:30
Jhansi,Uttar Pradesh,25.4484,78.5685,35.0,34,0.0,974.0,8.25,32.0,108,28.3,12.9,0,5,7,1,2026-04-19T18:38:20.558025+05:30
Surat,Gujarat,21.1702,72.8311,30.2,61,0.0,1004.5,7.75,25.2,99,54.6,48.3,3,5,4,1,2026-04-19T18:38:20.558053+05:30
Vadodara,Gujarat,22.3072,73.1812,37.7,19,0.0,1001.0,8.15,29.9,130,29.6,19.7,0,5,7,0,2026-04-19T18:38:20.558064+05:30
Rajkot,Gujarat,22.3039,70.8022,35.1,20,0.0,992.5,7.25,27.0,92,12.7,8.1,0,5,10,0,2026-04-19T18:38:20.558072+05:30
Thane,Maharashtra,19.2183,72.9781,30.5,57,0.0,1006.0,8.05,37.4,123,34.0,20.5,0,5,4,1,2026-04-19T18:38:20.558079+05:30
Nagpur,Maharashtra,21.1458,79.0882,37.3,24,0.0,968.8,8.9,21.6,155,26.9,24.4,0,5,10,0,2026-04-19T18:38:20.558086+05:30
Nashik,Maharashtra,19.9975,73.7898,31.8,35,0.0,945.1,8.05,33.5,133,39.1,31.3,0,5,7,0,2026-04-19T18:38:20.558093+05:30
Aurangabad,Maharashtra,19.8762,75.3433,33.1,34,0.0,943.3,9.0,46.8,145,35.9,30.2,0,5,7,0,2026-04-19T18:38:20.558100+05:30
Solapur,Maharashtra,17.6599,75.9064,30.1,51,0.0,956.8,8.75,52.6,165,63.1,54.7,0,5,7,1,2026-04-19T18:38:20.558107+05:30
Kolhapur,Maharashtra,16.705,74.2433,28.3,73,0.0,947.4,9.0,45.7,166,37.0,31.5,7,5,7,1,2026-04-19T18:38:20.558114+05:30
Goa,Goa,15.2993,74.124,29.9,72,0.0,996.7,9.0,28.8,86,49.5,25.1,7,5,7,1,2026-04-19T18:38:20.558121+05:30
Jodhpur,Rajasthan,26.2389,73.0243,36.7,16,0.0,980.6,8.15,28.4,99,124.3,18.7,0,5,10,0,2026-04-19T18:38:20.558128+05:30
Udaipur,Rajasthan,24.5854,73.7125,34.3,17,0.0,945.1,8.6,40.3,93,14.0,7.0,0,5,7,0,2026-04-19T18:38:20.558136+05:30
Kota,Rajasthan,25.2138,75.8648,39.0,13,0.0,974.9,8.2,36.7,105,14.8,12.7,0,5,10,0,2026-04-19T18:38:20.558143+05:30
Bikaner,Rajasthan,28.0229,73.3119,37.5,16,0.0,979.0,7.9,25.2,128,68.9,13.7,0,5,10,0,2026-04-19T18:38:20.558151+05:30
Ajmer,Rajasthan,26.4499,74.6399,34.9,14,0.0,952.7,7.65,32.4,105,26.2,10.7,0,5,7,0,2026-04-19T18:38:20.558157+05:30
Gwalior,Madhya Pradesh,26.2183,78.1828,37.3,21,0.0,979.4,7.6,29.9,121,24.2,12.2,0,5,10,0,2026-04-19T18:38:20.558164+05:30
Indore,Madhya Pradesh,22.7196,75.8577,35.4,23,0.0,946.3,8.6,31.0,111,27.9,23.5,0,5,10,0,2026-04-19T18:38:20.558170+05:30
Bhopal,Madhya Pradesh,23.2599,77.4126,36.6,20,0.0,951.3,8.6,34.9,141,28.2,18.2,0,5,10,0,2026-04-19T18:38:20.558176+05:30
Jabalpur,Madhya Pradesh,23.1815,79.9864,37.1,22,0.0,957.7,8.75,21.2,137,31.1,19.0,0,5,10,0,2026-04-19T18:38:20.558182+05:30
Ujjain,Madhya Pradesh,23.1765,75.7885,35.9,22,0.0,951.9,8.5,33.5,104,27.9,24.0,0,5,10,0,2026-04-19T18:38:20.558190+05:30
Visakhapatnam,Andhra Pradesh,17.6868,83.2185,29.1,77,0.0,1002.4,9.15,36.7,63,21.4,15.1,7,5,4,1,2026-04-19T18:38:20.558197+05:30
Vijayawada,Andhra Pradesh,16.5062,80.648,32.7,51,0.0,999.9,9.2,31.0,55,18.9,14.4,0,5,7,1,2026-04-19T18:38:20.558204+05:30
Guntur,Andhra Pradesh,16.3067,80.4365,31.1,59,0.0,1001.2,9.25,34.6,71,22.5,17.7,0,5,4,1,2026-04-19T18:38:20.558210+05:30
Nellore,Andhra Pradesh,14.4426,79.9865,30.8,67,0.0,1002.8,9.25,33.8,85,16.6,13.0,3,5,4,1,2026-04-19T18:38:20.558218+05:30
Kurnool,Andhra Pradesh,15.8281,78.0373,38.0,28,0.0,973.5,9.2,32.4,147,49.9,39.6,0,5,10,1,2026-04-19T18:38:20.558225+05:30
Kakinada,Andhra Pradesh,16.9891,82.2475,30.7,66,0.0,1005.8,9.2,32.0,50,16.4,9.4,3,5,4,1,2026-04-19T18:38:20.558231+05:30
Tirupati,Andhra Pradesh,13.6288,79.4192,33.7,40,0.0,989.1,9.35,34.6,97,24.3,21.2,0,5,7,1,2026-04-19T18:38:20.558238+05:30
Warangal,Telangana,17.9689,79.5941,37.1,36,0.0,975.5,9.15,30.6,108,47.3,39.6,0,5,10,1,2026-04-19T18:38:20.558244+05:30
Nizamabad,Telangana,18.6725,78.0941,38.1,20,0.0,961.8,8.95,41.0,171,48.8,40.4,0,5,10,0,2026-04-19T18:38:20.558250+05:30
Mysore,Karnataka,12.2958,76.6396,32.2,36,0.0,927.0,9.45,43.6,145,36.2,30.2,0,5,7,0,2026-04-19T18:38:20.558257+05:30
Mangalore,Karnataka,12.9141,74.856,29.9,81,0.0,1005.0,9.1,22.3,71,43.0,25.3,7,5,4,1,2026-04-19T18:38:20.558264+05:30
Hubli-Dharwad,Karnataka,15.3647,75.124,30.6,57,0.0,940.1,9.2,32.0,133,34.9,28.2,0,5,7,1,2026-04-19T18:38:20.558271+05:30
Belgaum,Karnataka,15.8497,74.4977,26.9,77,0.0,924.6,9.25,32.4,131,39.6,29.2,7,5,7,1,2026-04-19T18:38:23.772095+05:30
Coimbatore,Tamil Nadu,11.0168,76.9558,28.4,75,0.0,960.1,9.4,55.4,146,38.6,33.9,7,5,7,1,2026-04-19T18:38:23.772126+05:30
Madurai,Tamil Nadu,9.9252,78.1198,33.7,51,0.0,990.5,9.3,41.8,117,19.1,16.1,0,5,7,1,2026-04-19T18:38:23.772137+05:30
Trichy,Tamil Nadu,10.7905,78.7047,34.4,48,0.0,997.0,9.3,28.4,77,18.2,15.3,0,5,7,1,2026-04-19T18:38:23.772145+05:30
Salem,Tamil Nadu,11.6643,78.146,35.1,35,0.0,974.6,9.35,21.6,116,23.2,18.2,0,5,10,1,2026-04-19T18:38:23.772152+05:30
Tirunelveli,Tamil Nadu,8.7139,77.7567,32.7,52,0.0,1000.8,9.25,51.5,105,17.2,14.8,0,5,4,1,2026-04-19T18:38:23.772161+05:30
Vellore,Tamil Nadu,12.9165,79.1325,32.7,43,0.0,982.1,9.4,29.9,100,25.0,22.2,0,5,7,1,2026-04-19T18:38:23.772168+05:30
Erode,Tamil Nadu,11.341,77.7172,36.8,26,0.0,985.8,9.35,28.4,140,26.1,21.0,0,5,10,0,2026-04-19T18:38:23.772175+05:30
Kochi,Kerala,9.9312,76.2673,29.7,81,0.0,1007.0,9.1,25.2,89,20.2,15.8,7,5,4,1,2026-04-19T18:38:23.772183+05:30
Thiruvananthapuram,Kerala,8.5241,76.9366,29.1,81,0.0,1006.6,9.1,27.4,68,25.7,16.8,7,5,4,1,2026-04-19T18:38:23.772190+05:30
Kozhikode,Kerala,11.2588,75.7804,30.3,77,0.0,1006.2,9.1,31.3,64,29.6,18.5,3,5,4,1,2026-04-19T18:38:23.772197+05:30
Thrissur,Kerala,10.5276,76.2144,29.9,75,0.0,1005.1,9.15,33.8,73,21.1,16.7,7,5,4,1,2026-04-19T18:38:23.772204+05:30
Kannur,Kerala,11.8745,75.3704,31.4,67,0.0,1005.3,9.1,34.2,68,35.5,22.8,3,5,4,1,2026-04-19T18:38:23.772211+05:30
Patna,Bihar,25.5941,85.1376,35.8,44,0.0,994.8,8.6,27.0,180,77.5,49.2,0,5,10,1,2026-04-19T18:38:23.772218+05:30
Gaya,Bihar,24.7914,85.0002,36.3,23,0.0,988.7,8.7,34.9,164,84.5,31.9,0,5,10,0,2026-04-19T18:38:23.772224+05:30
Muzaffarpur,Bihar,26.1209,85.3647,33.0,52,0.0,995.4,8.6,29.5,171,78.0,55.3,0,5,7,1,2026-04-19T18:38:23.772230+05:30
Bhagalpur,Bihar,25.2425,87.0117,31.4,66,0.0,997.1,8.6,27.0,196,62.2,53.1,3,5,7,1,2026-04-19T18:38:23.772237+05:30
Ranchi,Jharkhand,23.3441,85.3096,33.9,17,0.0,935.2,9.15,45.0,177,53.4,28.1,0,5,7,0,2026-04-19T18:38:23.772244+05:30
Jamshedpur,Jharkhand,22.8046,86.2029,33.0,60,0.0,986.8,9.0,37.1,204,68.0,53.2,0,5,7,1,2026-04-19T18:38:23.772250+05:30
Dhanbad,Jharkhand,23.7957,86.4304,37.8,24,0.0,975.8,8.95,33.8,181,98.5,51.2,0,5,10,0,2026-04-19T18:38:23.772256+05:30
Bokaro,Jharkhand,23.6693,86.1511,37.2,18,0.0,979.5,8.95,42.1,166,92.4,46.7,0,5,10,0,2026-04-19T18:38:23.772263+05:30
Bhubaneswar,Odisha,20.2961,85.8245,28.4,84,0.0,1001.2,9.1,34.2,69,25.4,20.7,7,5,4,1,2026-04-19T18:38:23.772269+05:30
Cuttack,Odisha,20.4625,85.8828,30.5,74,0.0,1003.3,9.15,34.6,69,25.4,20.7,3,5,4,1,2026-04-19T18:38:23.772275+05:30
Rourkela,Odisha,22.2604,84.8536,35.2,53,0.0,981.1,8.9,43.2,213,76.6,56.2,0,5,10,1,2026-04-19T18:38:23.772280+05:30
Raipur,Chhattisgarh,21.2514,81.6296,37.7,26,0.0,970.7,8.95,33.8,192,44.8,41.3,0,5,10,0,2026-04-19T18:38:23.772287+05:30
Bhilai,Chhattisgarh,21.1938,81.3509,36.9,27,0.0,970.7,8.95,31.7,164,38.8,34.9,0,5,10,0,2026-04-19T18:38:23.772292+05:30
Guwahati,Assam,26.1158,91.7086,26.8,85,0.0,999.4,8.55,29.2,120,41.0,33.8,7,5,7,1,2026-04-19T18:38:23.772299+05:30
Agartala,Tripura,23.8315,91.2868,30.0,75,0.0,1003.5,8.75,25.2,120,46.2,39.1,7,5,4,1,2026-04-19T18:38:23.772304+05:30
Shillong,Meghalaya,25.5788,91.8933,17.0,89,0.0,855.2,8.15,48.2,111,27.8,21.8,3,10,7,0,2026-04-19T18:38:23.772311+05:30
Imphal,Manipur,24.817,93.9368,20.6,84,0.0,922.0,8.85,61.2,150,57.6,45.5,3,5,7,1,2026-04-19T18:38:23.772318+05:30
Aizawl,Mizoram,23.7271,92.7176,21.8,81,0.0,891.8,8.3,40.0,155,84.3,70.1,3,5,7,1,2026-04-19T18:38:23.772325+05:30
Kohima,Nagaland,25.6701,94.1077,17.6,90,0.0,853.9,8.7,50.8,119,57.3,44.4,3,10,7,0,2026-04-19T18:38:23.772331+05:30
Gangtok,Sikkim,27.3314,88.6138,18.4,87,0.0,836.6,8.9,23.4,100,16.2,13.8,3,10,7,1,2026-04-19T18:38:23.772338+05:30
Siliguri,West Bengal,26.7271,88.3953,22.8,91,0.0,991.7,8.4,21.2,124,35.2,29.3,3,5,7,1,2026-04-19T18:38:26.994099+05:30
Durgapur,West Bengal,23.5204,87.3119,29.6,78,0.0,991.5,8.9,28.1,215,74.0,64.5,7,5,7,1,2026-04-19T18:38:26.994125+05:30
Asansol,West Bengal,23.6739,86.9524,30.9,73,0.0,990.0,8.9,33.8,204,85.2,48.9,3,5,7,1,2026-04-19T18:38:26.994135+05:30
Pondicherry,Puducherry,11.9139,79.8145,30.5,71,0.0,1006.1,9.25,31.0,38,12.0,8.0,3,5,4,1,2026-04-19T18:38:26.994142+05:30
Port Blair,Andaman and Nicobar Islands,11.6234,92.7265,29.5,74,0.0,1006.6,9.15,13.0,53,13.8,11.6,7,5,4,1,2026-04-19T18:38:26.994150+05:30
Haridwar,Uttarakhand,29.9457,78.1642,32.5,33,0.0,971.7,6.25,28.8,120,51.1,20.0,0,5,7,0,2026-04-19T18:38:26.994158+05:30
Rishikesh,Uttarakhand,30.0869,78.2676,30.3,44,0.0,964.6,6.55,31.7,109,47.4,16.1,0,5,7,1,2026-04-19T18:38:26.994165+05:30
Nainital,Uttarakhand,29.3919,79.4542,26.2,25,0.0,807.8,7.8,70.9,123,33.2,13.4,4,5,7,0,2026-04-19T18:38:26.994172+05:30
Mussoorie,Uttarakhand,30.4599,78.0664,22.7,40,0.0,804.4,6.6,45.7,113,57.0,19.0,0,5,7,0,2026-04-19T18:38:26.994179+05:30
Dharamshala,Himachal Pradesh,32.219,76.3234,23.5,40,0.0,869.8,6.1,38.5,80,29.7,8.8,0,5,7,0,2026-04-19T18:38:26.994185+05:30
Dalhousie,Himachal Pradesh,32.5387,75.971,20.7,40,0.0,805.4,6.8,35.3,82,42.6,17.4,0,5,7,0,2026-04-19T18:38:26.994192+05:30
Patiala,Punjab,30.3398,76.3869,30.8,39,0.0,976.6,6.65,45.0,179,482.4,57.4,0,5,7,0,2026-04-19T18:38:26.994198+05:30
Bhatinda,Punjab,30.211,74.9455,33.7,26,0.0,982.2,7.85,41.0,138,64.5,18.5,0,5,7,0,2026-04-19T18:38:26.994205+05:30
Rohtak,Haryana,28.8955,76.6066,31.5,40,0.0,978.6,7.05,28.4,191,287.8,49.6,0,5,7,1,2026-04-19T18:38:26.994211+05:30
Panipat,Haryana,29.3909,76.9635,31.7,33,0.0,978.4,6.3,51.5,388,457.3,66.4,0,5,7,0,2026-04-19T18:38:26.994217+05:30
Mathura,Uttar Pradesh,27.4924,77.6737,35.8,24,0.0,982.6,7.65,44.3,323,414.4,57.2,0,5,10,0,2026-04-19T18:38:26.994223+05:30
Vrindavan,Uttar Pradesh,27.5823,77.7027,35.3,25,0.0,983.1,7.65,43.9,323,414.4,57.2,0,5,10,0,2026-04-19T18:38:26.994230+05:30
Ayodhya,Uttar Pradesh,26.7922,82.1998,37.6,18,0.0,989.8,8.05,40.0,162,67.8,25.8,0,5,10,0,2026-04-19T18:38:26.994236+05:30
Ratlam,Madhya Pradesh,23.3315,75.0367,33.1,39,0.0,952.7,8.45,27.4,111,22.5,18.7,0,5,7,1,2026-04-19T18:38:26.994242+05:30
Sagar,Madhya Pradesh,23.8388,78.7378,36.7,22,0.0,947.3,8.6,38.2,133,25.7,15.5,0,5,10,0,2026-04-19T18:38:26.994248+05:30
Satna,Madhya Pradesh,24.6005,80.8322,37.6,17,0.0,967.4,8.6,32.8,135,39.5,14.3,0,5,10,0,2026-04-19T18:38:26.994254+05:30
Akola,Maharashtra,20.7002,77.0082,37.0,25,0.0,972.3,8.85,32.0,129,40.4,34.2,0,5,10,0,2026-04-19T18:38:26.994261+05:30
Amravati,Maharashtra,20.9374,77.7796,36.0,31,0.0,963.9,8.85,15.8,130,34.8,28.5,0,5,10,1,2026-04-19T18:38:26.994268+05:30
Latur,Maharashtra,18.4088,76.5604,32.6,37,0.0,938.6,9.1,32.0,157,39.0,34.3,0,5,7,1,2026-04-19T18:38:26.994275+05:30
Nanded,Maharashtra,19.1383,77.3091,36.2,30,0.0,965.5,9.0,20.5,145,38.9,31.8,0,5,10,0,2026-04-19T18:38:26.994280+05:30
Gulbarga,Karnataka,17.3297,76.8343,29.9,55,0.0,957.4,9.1,56.5,165,45.2,37.7,4,5,7,1,2026-04-19T18:38:26.994287+05:30
Bidar,Karnataka,17.9104,77.5199,30.9,48,0.0,933.9,9.15,40.7,168,48.0,41.2,0,5,7,1,2026-04-19T18:38:26.994292+05:30
Hospet,Karnataka,15.2689,76.3909,34.9,41,0.0,953.2,9.25,36.4,172,49.7,41.6,0,5,7,1,2026-04-19T18:38:26.994299+05:30
Tirupur,Tamil Nadu,11.1085,77.3411,36.5,22,0.0,972.5,9.4,32.4,154,31.9,25.5,0,5,10,0,2026-04-19T18:38:26.994305+05:30
Alappuzha,Kerala,9.4981,76.3388,29.7,81,0.0,1007.0,9.1,22.7,97,24.9,18.0,7,5,4,1,2026-04-19T18:38:26.994311+05:30
Munnar,Kerala,10.0889,77.0595,25.0,83,0.0,856.7,9.65,39.6,97,26.4,21.9,7,5,7,1,2026-04-19T18:38:26.994317+05:30
Silchar,Assam,24.8333,92.7789,27.7,79,0.0,1003.1,8.8,28.1,154,57.4,47.5,7,5,4,1,2026-04-19T18:38:26.994324+05:30
Dibrugarh,Assam,27.4728,94.912,28.3,75,0.0,992.8,8.65,19.4,143,74.3,53.9,7,5,7,1,2026-04-19T18:38:26.994330+05:30
