city,state,latitude,longitude,temp,humidity,rain,pressure,uv_index,wind_gusts,aqi,pm10,pm2_5,mosquito_risk,arthritis_risk,migraine_risk,frizz_risk,updated_at
Delhi,Delhi,28.6139,77.209,32.4,38,0.0,988.3,6.0,24.8,167,167.6,60.1,0,5,3,1,2026-03-08T12:19:44.537454+05:30
Mumbai,Maharashtra,19.076,72.8777,27.7,78,0.0,1010.5,7.5,25.9,103,56.8,55.4,7,0,4,1,2026-03-08T12:19:44.537495+05:30
Bangalore,Karnataka,12.9716,77.5946,31.3,31,0.0,914.4,9.25,27.4,109,42.1,33.4,0,5,7,0,2026-03-08T12:19:44.537510+05:30
Hyderabad,Telangana,17.385,78.4867,35.0,22,0.0,956.1,8.55,25.6,102,43.0,30.7,0,5,7,0,2026-03-08T12:19:44.537520+05:30
Chennai,Tamil Nadu,13.0827,80.2707,32.1,52,0.0,1010.3,8.95,32.4,80,40.6,27.2,0,0,4,1,2026-03-08T12:19:44.537529+05:30
Kolkata,West Bengal,22.5726,88.3639,29.8,61,0.0,1010.7,7.25,15.8,152,61.5,50.8,7,0,4,1,2026-03-08T12:19:44.537538+05:30
Pune,Maharashtra,18.5204,73.8567,36.6,21,0.0,951.6,8.05,29.5,109,15.6,14.6,0,5,10,0,2026-03-08T12:19:44.537549+05:30
Ahmedabad,Gujarat,23.0225,72.5714,34.5,33,0.0,1006.9,7.35,16.6,103,23.5,18.3,0,5,4,0,2026-03-08T12:19:44.537557+05:30
Jaipur,Rajasthan,26.9124,75.7873,36.0,15,0.0,965.6,6.8,23.0,84,64.7,18.5,0,5,10,0,2026-03-08T12:19:44.537565+05:30
Lucknow,Uttar Pradesh,26.8467,80.9462,31.7,45,0.0,998.5,6.5,21.6,181,118.5,78.0,0,5,7,1,2026-03-08T12:19:44.537573+05:30
Kanpur,Uttar Pradesh,26.4499,80.3319,31.3,51,0.0,997.0,6.5,16.9,175,136.9,73.6,0,5,7,1,2026-03-08T12:19:44.537580+05:30
Chandigarh,Chandigarh,30.7333,76.7794,31.1,48,0.0,973.9,5.9,30.2,155,65.2,45.2,0,5,3,1,2026-03-08T12:19:44.537587+05:30
Srinagar,Jammu and Kashmir,34.0837,74.7973,19.1,42,0.0,850.1,6.8,16.2,134,50.5,31.4,0,5,7,0,2026-03-08T12:19:44.537593+05:30
Jammu,Jammu and Kashmir,32.7266,74.857,30.4,42,0.0,978.2,6.4,29.5,133,42.1,27.8,0,5,7,0,2026-03-08T12:19:44.537600+05:30
Amritsar,Punjab,31.634,74.8723,30.4,53,0.0,986.6,6.4,23.4,165,72.9,51.7,0,5,7,1,2026-03-08T12:19:44.537607+05:30
Ludhiana,Punjab,30.901,75.8573,31.6,45,0.0,984.2,6.15,27.7,173,92.4,73.6,0,5,7,1,2026-03-08T12:19:44.537614+05:30
Jalandhar,Punjab,31.326,75.5762,30.9,48,0.0,985.4,6.3,26.3,171,90.6,71.0,0,5,7,1,2026-03-08T12:19:44.537622+05:30
Dehradun,Uttarakhand,30.6284,78.0322,23.7,40,0.0,836.6,6.3,37.8,105,31.4,15.7,0,5,7,0,2026-03-08T12:19:44.537629+05:30
Shimla,Himachal Pradesh,31.1048,77.1734,22.5,32,0.0,792.5,6.35,51.8,124,35.5,14.5,0,5,7,0,2026-03-08T12:19:44.537636+05:30
Manali,Himachal Pradesh,32.2396,77.1887,24.7,21,0.0,828.0,8.05,30.6,55,18.6,8.5,0,5,7,0,2026-03-08T12:19:44.537642+05:30
Gurgaon,Haryana,28.4595,77.0266,32.2,41,0.0,987.0,6.1,19.8,180,393.0,80.8,0,5,7,1,2026-03-08T12:19:44.537648+05:30
Noida,Uttar Pradesh,28.5355,77.391,32.9,37,0.0,989.8,6.0,24.8,180,393.0,80.8,0,5,3,1,2026-03-08T12:19:44.537655+05:30
Ghaziabad,Uttar Pradesh,28.6692,77.4538,31.5,44,0.0,987.9,6.0,24.5,169,128.1,60.1,0,5,3,1,2026-03-08T12:19:44.537661+05:30
Faridabad,Haryana,28.4089,77.3178,32.0,42,0.0,989.3,6.05,21.6,180,393.0,80.8,0,5,7,1,2026-03-08T12:19:44.537666+05:30
Meerut,Uttar Pradesh,28.9845,77.7064,31.6,46,0.0,986.6,5.85,29.2,169,128.1,60.1,0,5,3,1,2026-03-08T12:19:44.537672+05:30
Agra,Uttar Pradesh,27.1767,78.0081,34.0,37,0.0,993.1,6.4,20.5,158,245.9,62.2,0,5,7,1,2026-03-08T12:19:44.537679+05:30
Varanasi,Uttar Pradesh,25.3176,82.9739,31.4,52,0.0,1002.5,7.2,11.5,173,86.6,74.3,0,5,4,1,2026-03-08T12:19:44.537688+05:30
Prayagraj,Uttar Pradesh,25.4358,81.8463,30.5,55,0.0,1001.1,7.05,14.8,179,94.1,79.6,0,5,4,1,2026-03-08T12:19:44.537695+05:30
Gorakhpur,Uttar Pradesh,26.7606,83.3732,30.9,52,0.0,1002.3,6.9,16.2,173,86.4,78.0,0,5,4,1,2026-03-08T12:19:44.537703+05:30
Bareilly,Uttar Pradesh,28.367,79.4304,30.4,58,0.0,992.1,6.2,19.8,173,143.9,70.1,0,5,7,1,2026-03-08T12:19:44.537710+05:30
Aligarh,Uttar Pradesh,27.8974,78.088,32.6,43,0.0,990.8,6.1,23.4,171,215.6,79.4,0,5,7,1,2026-03-08T12:19:44.537716+05:30
Moradabad,Uttar Pradesh,28.8386,78.7733,30.3,57,0.0,988.8,6.05,23.8,182,141.6,83.6,0,5,7,1,2026-03-08T12:19:44.537722+05:30
Saharanpur,Uttar Pradesh,29.9637,77.546,29.9,60,0.0,980.7,5.65,36.7,173,110.6,75.7,4,5,3,1,2026-03-08T12:19:44.537728+05:30
Jhansi,Uttar Pradesh,25.4484,78.5685,33.8,33,0.0,983.2,7.0,26.3,109,84.3,36.0,0,5,7,0,2026-03-08T12:19:47.747279+05:30
Surat,Gujarat,21.1702,72.8311,34.0,37,0.0,1010.0,7.25,24.5,153,51.1,48.9,0,0,4,1,2026-03-08T12:19:47.747311+05:30
Vadodara,Gujarat,22.3072,73.1812,36.3,29,0.0,1008.4,7.35,16.6,111,18.2,15.7,0,0,7,0,2026-03-08T12:19:47.747323+05:30
Rajkot,Gujarat,22.3039,70.8022,32.2,42,0.0,999.1,7.15,20.9,74,43.9,20.0,0,5,7,1,2026-03-08T12:19:47.747334+05:30
Thane,Maharashtra,19.2183,72.9781,33.8,45,0.0,1010.0,7.5,33.1,103,56.8,55.4,0,0,4,1,2026-03-08T12:19:47.747342+05:30
Nagpur,Maharashtra,21.1458,79.0882,35.2,25,0.0,977.0,7.9,27.0,75,50.8,31.4,0,5,10,0,2026-03-08T12:19:47.747351+05:30
Nashik,Maharashtra,19.9975,73.7898,35.2,22,0.0,949.4,7.7,28.4,87,12.9,12.3,0,5,10,0,2026-03-08T12:19:47.747360+05:30
Aurangabad,Maharashtra,19.8762,75.3433,35.7,19,0.0,947.8,8.2,32.0,77,19.0,12.6,0,5,10,0,2026-03-08T12:19:47.747368+05:30
Solapur,Maharashtra,17.6599,75.9064,34.6,28,0.0,960.0,8.45,19.4,66,26.5,18.9,0,5,7,0,2026-03-08T12:19:47.747376+05:30
Kolhapur,Maharashtra,16.705,74.2433,34.5,24,0.0,950.5,8.6,34.6,126,36.7,31.9,0,5,7,0,2026-03-08T12:19:47.747384+05:30
Goa,Goa,15.2993,74.124,31.2,63,0.0,999.5,8.65,36.0,136,42.4,39.8,3,5,7,1,2026-03-08T12:19:47.747391+05:30
Jodhpur,Rajasthan,26.2389,73.0243,34.9,28,0.0,988.7,7.05,17.6,64,39.6,13.1,0,5,7,0,2026-03-08T12:19:47.747399+05:30
Udaipur,Rajasthan,24.5854,73.7125,34.5,22,0.0,952.4,7.7,17.6,36,6.3,5.2,0,5,7,0,2026-03-08T12:19:47.747407+05:30
Kota,Rajasthan,25.2138,75.8648,34.9,25,0.0,984.4,7.1,9.4,91,23.3,20.1,0,5,7,0,2026-03-08T12:19:47.747414+05:30
Bikaner,Rajasthan,28.0229,73.3119,33.7,34,0.0,987.4,6.75,18.0,57,44.9,17.0,0,5,7,0,2026-03-08T12:19:47.747422+05:30
Ajmer,Rajasthan,26.4499,74.6399,34.4,20,0.0,960.6,7.05,20.5,69,48.7,14.0,0,5,7,0,2026-03-08T12:19:47.747430+05:30
Gwalior,Madhya Pradesh,26.2183,78.1828,33.4,36,0.0,988.5,6.7,23.8,103,79.2,28.7,0,5,7,1,2026-03-08T12:19:47.747438+05:30
Indore,Madhya Pradesh,22.7196,75.8577,34.4,22,0.0,953.3,7.65,20.2,77,21.3,18.8,0,5,7,0,2026-03-08T12:19:47.747445+05:30
Bhopal,Madhya Pradesh,23.2599,77.4126,34.4,23,0.0,959.0,7.5,21.2,68,53.2,23.2,0,5,7,0,2026-03-08T12:19:47.747452+05:30
Jabalpur,Madhya Pradesh,23.1815,79.9864,32.1,35,0.0,966.3,7.6,25.2,116,78.7,44.6,0,5,7,0,2026-03-08T12:19:47.747460+05:30
Ujjain,Madhya Pradesh,23.1765,75.7885,33.7,25,0.0,959.0,7.55,15.8,99,21.4,20.7,0,5,7,0,2026-03-08T12:19:47.747467+05:30
Visakhapatnam,Andhra Pradesh,17.6868,83.2185,30.5,61,0.0,1007.0,8.2,37.4,101,39.3,31.5,3,5,4,1,2026-03-08T12:19:47.747476+05:30
Vijayawada,Andhra Pradesh,16.5062,80.648,32.4,53,0.0,1005.5,8.6,29.5,103,38.1,29.2,0,5,4,1,2026-03-08T12:19:47.747483+05:30
Guntur,Andhra Pradesh,16.3067,80.4365,32.5,53,0.0,1006.5,8.6,28.8,100,37.4,28.9,0,5,4,1,2026-03-08T12:19:47.747491+05:30
Nellore,Andhra Pradesh,14.4426,79.9865,33.4,47,0.0,1008.2,8.8,32.8,92,42.6,32.7,0,0,4,1,2026-03-08T12:19:47.747499+05:30
Kurnool,Andhra Pradesh,15.8281,78.0373,36.4,26,0.0,979.1,8.6,25.6,94,50.1,39.6,0,5,10,0,2026-03-08T12:19:47.747508+05:30
Kakinada,Andhra Pradesh,16.9891,82.2475,32.4,50,0.0,1010.5,8.55,34.6,84,35.0,24.6,0,0,4,1,2026-03-08T12:19:47.747516+05:30
Tirupati,Andhra Pradesh,13.6288,79.4192,34.1,34,0.0,994.0,8.95,33.1,121,43.0,32.2,0,5,7,0,2026-03-08T12:19:47.747522+05:30
Warangal,Telangana,17.9689,79.5941,31.7,56,0.0,981.8,8.35,27.7,113,53.3,46.7,0,5,7,1,2026-03-08T12:19:47.747528+05:30
Nizamabad,Telangana,18.6725,78.0941,34.9,25,0.0,968.0,8.25,33.8,88,42.6,25.3,0,5,7,0,2026-03-08T12:19:47.747534+05:30
Mysore,Karnataka,12.2958,76.6396,31.8,39,0.0,930.9,9.25,33.5,131,40.7,34.8,0,5,7,1,2026-03-08T12:19:47.747540+05:30
Mangalore,Karnataka,12.9141,74.856,28.6,79,0.0,1008.0,8.85,24.8,115,43.5,40.9,7,0,4,1,2026-03-08T12:19:47.747546+05:30
Hubli-Dharwad,Karnataka,15.3647,75.124,35.3,21,0.0,943.1,8.8,25.6,96,39.0,31.0,0,5,10,0,2026-03-08T12:19:47.747552+05:30
Belgaum,Karnataka,15.8497,74.4977,34.6,20,0.0,928.4,8.85,33.8,108,28.2,22.6,0,5,7,0,2026-03-08T12:19:50.957546+05:30
Coimbatore,Tamil Nadu,11.0168,76.9558,32.7,40,0.0,964.1,9.2,38.5,130,40.7,34.1,0,5,7,1,2026-03-08T12:19:50.957573+05:30
Madurai,Tamil Nadu,9.9252,78.1198,33.4,43,0.0,995.5,9.15,32.0,99,45.2,36.8,0,5,7,1,2026-03-08T12:19:50.957582+05:30
Trichy,Tamil Nadu,10.7905,78.7047,33.2,47,0.0,1002.2,9.05,27.4,97,41.1,31.1,0,5,4,1,2026-03-08T12:19:50.957591+05:30
Salem,Tamil Nadu,11.6643,78.146,33.4,43,0.0,979.5,9.1,21.2,106,50.5,42.0,0,5,7,1,2026-03-08T12:19:50.957599+05:30
Tirunelveli,Tamil Nadu,8.7139,77.7567,35.5,35,0.0,1005.1,9.15,36.0,105,45.2,36.6,0,5,7,1,2026-03-08T12:19:50.957606+05:30
Vellore,Tamil Nadu,12.9165,79.1325,33.8,35,0.0,987.1,9.0,37.8,139,49.2,37.6,0,5,7,1,2026-03-08T12:19:50.957613+05:30
Erode,Tamil Nadu,11.341,77.7172,34.2,42,0.0,991.1,9.1,20.9,90,42.8,34.8,0,5,7,1,2026-03-08T12:19:50.957619+05:30
Kochi,Kerala,9.9312,76.2673,28.3,81,0.0,1010.1,8.9,35.6,138,47.6,44.5,7,0,4,1,2026-03-08T12:19:50.957626+05:30
Thiruvananthapuram,Kerala,8.5241,76.9366,28.2,79,0.0,1009.7,9.05,27.7,85,33.4,31.7,7,0,4,1,2026-03-08T12:19:50.957633+05:30
Kozhikode,Kerala,11.2588,75.7804,30.1,73,0.0,1009.2,8.95,28.1,97,28.4,27.0,3,0,4,1,2026-03-08T12:19:50.957639+05:30
Thrissur,Kerala,10.5276,76.2144,33.7,54,0.0,1008.2,9.0,37.8,131,42.1,38.9,0,0,4,1,2026-03-08T12:19:50.957646+05:30
Kannur,Kerala,11.8745,75.3704,31.5,64,0.0,1008.7,8.9,28.8,117,35.3,32.9,3,0,4,1,2026-03-08T12:19:50.957653+05:30
Patna,Bihar,25.5941,85.1376,31.4,49,0.0,1005.5,7.35,18.0,171,104.8,90.6,0,5,4,1,2026-03-08T12:19:50.957659+05:30
Gaya,Bihar,24.7914,85.0002,31.0,59,0.0,998.4,7.45,18.7,158,92.4,78.0,0,5,7,1,2026-03-08T12:19:50.957665+05:30
Muzaffarpur,Bihar,26.1209,85.3647,30.7,51,0.0,1005.8,7.3,19.1,174,108.0,94.1,0,5,4,1,2026-03-08T12:19:50.957671+05:30
Bhagalpur,Bihar,25.2425,87.0117,30.5,51,0.0,1006.5,7.35,15.8,161,94.8,74.0,0,5,4,1,2026-03-08T12:19:50.957677+05:30
Ranchi,Jharkhand,23.3441,85.3096,30.4,38,0.0,941.9,8.1,23.0,160,98.7,70.8,0,5,7,0,2026-03-08T12:19:50.957683+05:30
Jamshedpur,Jharkhand,22.8046,86.2029,31.0,55,0.0,995.1,8.0,23.8,154,97.8,76.8,0,5,7,1,2026-03-08T12:19:50.957690+05:30
Dhanbad,Jharkhand,23.7957,86.4304,31.7,42,0.0,984.5,7.85,22.7,166,104.5,85.0,0,5,7,1,2026-03-08T12:19:50.957696+05:30
Bokaro,Jharkhand,23.6693,86.1511,31.3,46,0.0,988.3,7.85,20.5,169,104.3,83.1,0,5,7,1,2026-03-08T12:19:50.957703+05:30
Bhubaneswar,Odisha,20.2961,85.8245,31.8,53,0.0,1006.3,8.2,33.1,131,51.1,37.7,0,5,4,1,2026-03-08T12:19:50.957709+05:30
Cuttack,Odisha,20.4625,85.8828,32.9,49,0.0,1008.0,8.3,28.4,131,51.1,37.7,0,0,4,1,2026-03-08T12:19:50.957715+05:30
Rourkela,Odisha,22.2604,84.8536,33.8,43,0.0,988.6,7.9,28.4,164,114.1,84.1,0,5,7,1,2026-03-08T12:19:50.957721+05:30
Raipur,Chhattisgarh,21.2514,81.6296,34.4,31,0.0,978.1,8.0,23.4,153,95.2,77.1,0,5,7,0,2026-03-08T12:19:50.957727+05:30
Bhilai,Chhattisgarh,21.1938,81.3509,34.8,31,0.0,978.6,8.0,23.4,151,91.7,71.7,0,5,7,0,2026-03-08T12:19:50.957733+05:30
Guwahati,Assam,26.1158,91.7086,31.4,45,0.0,1005.8,7.3,22.3,153,72.9,52.7,0,5,4,1,2026-03-08T12:19:50.957738+05:30
Agartala,Tripura,23.8315,91.2868,30.0,55,0.0,1010.9,7.6,18.7,153,64.5,49.7,4,0,4,1,2026-03-08T12:19:50.957744+05:30
Shillong,Meghalaya,25.5788,91.8933,19.4,41,0.0,860.7,7.35,26.6,126,53.4,40.0,0,5,7,0,2026-03-08T12:19:50.957750+05:30
Imphal,Manipur,24.817,93.9368,25.0,49,0.0,927.2,7.9,35.6,161,60.5,52.6,4,5,7,0,2026-03-08T12:19:50.957757+05:30
Aizawl,Mizoram,23.7271,92.7176,25.3,48,0.0,897.2,7.85,31.3,156,63.3,53.0,4,5,7,0,2026-03-08T12:19:50.957763+05:30
Kohima,Nagaland,25.6701,94.1077,19.9,59,0.0,859.4,7.0,49.3,160,79.6,69.6,0,5,7,0,2026-03-08T12:19:50.957769+05:30
Gangtok,Sikkim,27.3314,88.6138,17.8,71,0.0,842.6,5.1,15.1,158,61.7,49.9,3,5,3,0,2026-03-08T12:19:50.957775+05:30
Siliguri,West Bengal,26.7271,88.3953,24.6,57,0.0,999.7,7.3,16.6,158,71.2,52.0,0,5,7,0,2026-03-08T12:19:54.171611+05:30
Durgapur,West Bengal,23.5204,87.3119,32.2,42,0.0,999.8,7.85,20.9,160,92.2,78.7,0,5,7,1,2026-03-08T12:19:54.171638+05:30
Asansol,West Bengal,23.6739,86.9524,32.0,41,0.0,998.2,7.85,19.8,158,93.1,77.3,0,5,7,1,2026-03-08T12:19:54.171648+05:30
Pondicherry,Puducherry,11.9139,79.8145,33.0,52,0.0,1011.0,8.95,32.0,77,35.7,23.7,0,0,4,1,2026-03-08T12:19:54.171655+05:30
Port Blair,Andaman and Nicobar Islands,11.6234,92.7265,27.4,75,0.0,1009.3,8.9,27.0,91,37.1,27.0,7,0,4,1,2026-03-08T12:19:54.171662+05:30
Haridwar,Uttarakhand,29.9457,78.1642,30.0,60,0.0,979.2,5.8,28.4,161,97.6,67.8,4,5,3,1,2026-03-08T12:19:54.171669+05:30
Rishikesh,Uttarakhand,30.0869,78.2676,30.0,55,0.0,971.9,5.85,24.8,159,86.8,60.1,4,5,3,1,2026-03-08T12:19:54.171676+05:30
Nainital,Uttarakhand,29.3919,79.4542,22.0,69,0.0,811.8,6.65,67.3,157,85.9,58.8,3,5,7,1,2026-03-08T12:19:54.171683+05:30
Mussoorie,Uttarakhand,30.4599,78.0664,22.5,63,0.0,809.2,6.2,47.5,158,73.8,49.9,3,5,7,0,2026-03-08T12:19:54.171691+05:30
Dharamshala,Himachal Pradesh,32.219,76.3234,26.7,32,0.0,875.7,6.4,27.4,60,32.9,11.2,4,5,7,0,2026-03-08T12:19:54.171697+05:30
Dalhousie,Himachal Pradesh,32.5387,75.971,26.7,21,0.0,811.9,6.65,26.3,106,48.5,24.4,4,5,7,0,2026-03-08T12:19:54.171704+05:30
Patiala,Punjab,30.3398,76.3869,31.7,46,0.0,983.4,5.65,29.2,167,88.9,68.7,0,5,3,1,2026-03-08T12:19:54.171711+05:30
Bhatinda,Punjab,30.211,74.9455,32.1,45,0.0,989.4,6.5,17.3,152,75.9,40.9,0,5,7,1,2026-03-08T12:19:54.171717+05:30
Rohtak,Haryana,28.8955,76.6066,32.1,41,0.0,987.3,6.05,20.9,170,187.7,55.6,0,5,7,1,2026-03-08T12:19:54.171722+05:30
Panipat,Haryana,29.3909,76.9635,31.8,46,0.0,985.6,5.8,28.1,169,129.0,55.3,0,5,3,1,2026-03-08T12:19:54.171728+05:30
Mathura,Uttar Pradesh,27.4924,77.6737,33.8,37,0.0,992.1,6.3,22.3,157,200.7,55.6,0,5,7,1,2026-03-08T12:19:54.171734+05:30
Vrindavan,Uttar Pradesh,27.5823,77.7027,33.2,40,0.0,992.6,6.25,23.0,157,200.7,55.6,0,5,7,1,2026-03-08T12:19:54.171740+05:30
Ayodhya,Uttar Pradesh,26.7922,82.1998,31.1,48,0.0,1000.5,6.65,10.4,183,95.0,78.9,0,5,4,1,2026-03-08T12:19:54.171746+05:30
Ratlam,Madhya Pradesh,23.3315,75.0367,33.9,27,0.0,959.8,7.5,19.1,91,16.1,15.5,0,5,7,0,2026-03-08T12:19:54.171752+05:30
Sagar,Madhya Pradesh,23.8388,78.7378,33.4,29,0.0,955.5,7.45,21.6,80,54.2,25.0,0,5,7,0,2026-03-08T12:19:54.171759+05:30
Satna,Madhya Pradesh,24.6005,80.8322,32.9,33,0.0,976.2,7.4,27.4,160,89.4,60.1,0,5,7,0,2026-03-08T12:19:54.171765+05:30
Akola,Maharashtra,20.7002,77.0082,36.5,22,0.0,978.9,7.95,15.5,78,37.1,19.2,0,5,10,0,2026-03-08T12:19:54.171771+05:30
Amravati,Maharashtra,20.9374,77.7796,36.6,21,0.0,971.1,7.9,21.6,80,39.1,20.1,0,5,10,0,2026-03-08T12:19:54.171778+05:30
Latur,Maharashtra,18.4088,76.5604,34.9,22,0.0,943.1,8.4,23.8,82,24.5,19.3,0,5,7,0,2026-03-08T12:19:54.171784+05:30
Nanded,Maharashtra,19.1383,77.3091,37.2,23,0.0,971.7,8.15,25.2,89,37.5,22.1,0,5,10,0,2026-03-08T12:19:54.171790+05:30
Gulbarga,Karnataka,17.3297,76.8343,36.5,19,0.0,961.5,8.5,28.8,74,41.7,31.4,0,5,10,0,2026-03-08T12:19:54.171796+05:30
Bidar,Karnataka,17.9104,77.5199,35.1,22,0.0,938.7,8.4,29.2,88,33.3,22.2,0,5,10,0,2026-03-08T12:19:54.171803+05:30
Hospet,Karnataka,15.2689,76.3909,33.4,35,0.0,958.2,8.75,24.5,89,41.9,34.5,0,5,7,0,2026-03-08T12:19:54.171808+05:30
Tirupur,Tamil Nadu,11.1085,77.3411,34.0,38,0.0,977.6,9.2,30.2,118,42.1,34.9,0,5,7,1,2026-03-08T12:19:54.171814+05:30
Alappuzha,Kerala,9.4981,76.3388,28.3,82,0.0,1010.3,8.95,29.2,123,48.2,45.5,7,0,4,1,2026-03-08T12:19:54.171820+05:30
Munnar,Kerala,10.0889,77.0595,29.1,37,0.0,860.5,9.5,24.5,104,40.5,30.4,4,5,7,0,2026-03-08T12:19:54.171827+05:30
Silchar,Assam,24.8333,92.7789,31.0,55,0.0,1009.0,7.6,20.9,163,74.7,60.8,0,0,4,1,2026-03-08T12:19:54.171833+05:30
Dibrugarh,Assam,27.4728,94.912,27.9,61,0.0,1000.0,6.3,20.5,162,98.3,80.3,7,5,4,1,2026-03-08T12:19:54.171839+05:30
