city,state,latitude,longitude,temp,humidity,rain,pressure,uv_index,wind_gusts,aqi,pm10,pm2_5,no2,co,o3,so2,mosquito_risk,arthritis_risk,migraine_risk,frizz_risk,updated_at
Delhi,Delhi,28.6139,77.209,32.3,29,0.0,979.5,7.7,47.9,490,795.3,180.7,32.3,600.0,51.0,15.7,0,5,7,0,2026-05-17T00:46:27.449914+05:30
Mumbai,Maharashtra,19.076,72.8777,29.1,81,0.0,1005.5,7.85,46.4,59,36.4,15.0,6.9,185.0,51.0,4.2,7,5,4,1,2026-05-17T00:46:27.449959+05:30
Bangalore,Karnataka,12.9716,77.5946,22.8,86,0.0,908.6,9.4,43.6,155,133.6,98.5,88.1,645.0,19.0,25.8,3,5,7,1,2026-05-17T00:46:27.449974+05:30
Hyderabad,Telangana,17.385,78.4867,29.6,58,0.0,950.3,9.3,27.0,132,32.9,23.6,11.9,377.0,66.0,4.7,4,5,7,1,2026-05-17T00:46:27.449982+05:30
Chennai,Tamil Nadu,13.0827,80.2707,29.0,82,0.0,1003.6,9.15,39.2,38,12.5,9.8,9.5,247.0,74.0,6.2,7,5,4,1,2026-05-17T00:46:27.449990+05:30
Kolkata,West Bengal,22.5726,88.3639,28.3,89,0.0,1002.8,8.95,34.2,57,19.2,12.6,6.5,198.0,41.0,3.7,7,5,4,1,2026-05-17T00:46:27.449998+05:30
Pune,Maharashtra,18.5204,73.8567,27.8,74,0.0,945.4,8.5,43.2,68,34.6,24.4,19.4,231.0,70.0,22.0,7,5,7,1,2026-05-17T00:46:27.450004+05:30
Ahmedabad,Gujarat,23.0225,72.5714,34.3,33,0.0,998.5,8.15,31.3,61,35.4,18.7,12.1,238.0,49.0,4.8,0,5,7,0,2026-05-17T00:46:27.450010+05:30
Jaipur,Rajasthan,26.9124,75.7873,30.9,31,0.0,957.2,8.25,33.5,161,208.2,54.2,21.2,327.0,50.0,8.5,0,5,7,0,2026-05-17T00:46:27.450020+05:30
Lucknow,Uttar Pradesh,26.8467,80.9462,31.2,38,0.0,988.9,8.2,45.4,154,226.8,71.2,26.4,372.0,56.0,13.6,0,5,7,0,2026-05-17T00:46:27.450027+05:30
Kanpur,Uttar Pradesh,26.4499,80.3319,31.5,38,0.0,987.8,8.2,42.8,154,296.2,79.4,27.6,377.0,47.0,12.4,0,5,7,0,2026-05-17T00:46:27.450033+05:30
Chandigarh,Chandigarh,30.7333,76.7794,26.0,46,0.0,964.9,7.7,46.8,83,38.5,29.8,20.9,459.0,69.0,9.4,4,5,7,0,2026-05-17T00:46:27.450039+05:30
Srinagar,Jammu and Kashmir,34.0837,74.7973,12.5,95,0.0,840.8,8.9,16.2,86,48.1,43.8,36.6,849.0,28.0,2.8,3,10,7,0,2026-05-17T00:46:27.450046+05:30
Jammu,Jammu and Kashmir,32.7266,74.857,22.2,68,0.0,968.9,8.55,40.7,82,33.8,31.3,42.7,432.0,10.0,3.7,3,5,7,0,2026-05-17T00:46:27.450052+05:30
Amritsar,Punjab,31.634,74.8723,27.1,52,0.0,977.2,8.4,32.4,106,83.4,63.1,62.3,607.0,15.0,11.7,4,5,7,1,2026-05-17T00:46:27.450058+05:30
Ludhiana,Punjab,30.901,75.8573,28.0,42,0.0,975.2,8.0,38.2,108,64.3,40.5,17.3,636.0,73.0,8.2,4,5,7,0,2026-05-17T00:46:27.450066+05:30
Jalandhar,Punjab,31.326,75.5762,26.0,59,0.0,976.0,8.2,35.6,124,76.6,53.6,31.4,1314.0,48.0,9.8,4,5,7,1,2026-05-17T00:46:27.450081+05:30
Dehradun,Uttarakhand,30.6284,78.0322,14.0,72,0.0,826.0,8.15,44.3,55,40.2,20.0,38.7,170.0,22.0,0.9,3,5,7,0,2026-05-17T00:46:27.450089+05:30
Shimla,Himachal Pradesh,31.1048,77.1734,13.5,54,0.0,781.8,8.25,52.6,66,47.4,23.1,24.5,246.0,59.0,2.1,0,5,7,0,2026-05-17T00:46:27.450097+05:30
Manali,Himachal Pradesh,32.2396,77.1887,7.6,66,0.0,812.1,9.7,33.8,56,10.1,7.4,46.0,344.0,79.0,0.0,3,5,7,0,2026-05-17T00:46:27.450103+05:30
Gurgaon,Haryana,28.4595,77.0266,29.6,38,0.0,978.0,7.8,46.4,699,927.6,182.1,39.4,704.0,43.0,19.3,4,5,7,0,2026-05-17T00:46:27.450109+05:30
Noida,Uttar Pradesh,28.5355,77.391,30.6,38,0.0,980.7,7.75,37.8,699,927.6,182.1,39.4,807.0,43.0,19.3,0,5,7,0,2026-05-17T00:46:27.450115+05:30
Ghaziabad,Uttar Pradesh,28.6692,77.4538,28.1,46,0.0,978.7,7.7,43.2,316,676.1,160.2,25.0,436.0,58.0,15.5,4,5,7,0,2026-05-17T00:46:27.450121+05:30
Faridabad,Haryana,28.4089,77.3178,31.9,31,0.0,980.2,7.75,47.9,699,927.6,182.1,39.4,673.0,43.0,19.3,0,5,7,0,2026-05-17T00:46:27.450127+05:30
Meerut,Uttar Pradesh,28.9845,77.7064,29.3,36,0.0,977.6,7.65,49.3,316,676.1,160.2,25.0,369.0,58.0,15.5,4,5,7,0,2026-05-17T00:46:27.450133+05:30
Agra,Uttar Pradesh,27.1767,78.0081,31.6,32,0.0,984.0,8.05,39.2,455,618.4,125.7,22.8,359.0,56.0,12.1,0,5,7,0,2026-05-17T00:46:27.450139+05:30
Varanasi,Uttar Pradesh,25.3176,82.9739,32.2,37,0.0,993.2,8.7,49.7,157,197.4,91.5,61.0,633.0,37.0,23.7,0,5,7,0,2026-05-17T00:46:27.450145+05:30
Prayagraj,Uttar Pradesh,25.4358,81.8463,32.0,40,0.0,991.7,8.6,39.6,154,146.2,69.4,46.6,445.0,31.0,15.8,0,5,7,1,2026-05-17T00:46:27.450151+05:30
Gorakhpur,Uttar Pradesh,26.7606,83.3732,26.8,72,0.0,992.9,8.6,40.0,148,121.1,73.3,44.9,620.0,37.0,15.7,7,5,7,1,2026-05-17T00:46:27.450158+05:30
Bareilly,Uttar Pradesh,28.367,79.4304,26.9,49,0.0,982.3,8.0,43.2,139,89.6,56.3,27.2,352.0,59.0,12.9,4,5,7,0,2026-05-17T00:46:27.450164+05:30
Aligarh,Uttar Pradesh,27.8974,78.088,28.0,43,0.0,981.7,7.85,44.6,369,784.2,155.5,30.4,452.0,45.0,14.7,4,5,7,0,2026-05-17T00:46:27.450170+05:30
Moradabad,Uttar Pradesh,28.8386,78.7733,27.9,48,0.0,979.4,7.85,48.6,154,177.0,86.8,47.4,454.0,21.0,13.0,4,5,7,0,2026-05-17T00:46:27.450176+05:30
Saharanpur,Uttar Pradesh,29.9637,77.546,27.9,42,0.0,971.4,7.35,51.5,130,58.0,33.1,16.1,331.0,85.0,10.2,4,5,7,0,2026-05-17T00:46:27.450182+05:30
Jhansi,Uttar Pradesh,25.4484,78.5685,31.6,34,0.0,974.3,8.45,32.4,91,89.4,35.7,12.1,268.0,70.0,7.3,0,5,7,0,2026-05-17T00:46:30.731801+05:30
Surat,Gujarat,21.1702,72.8311,29.9,83,0.0,1003.2,7.75,40.0,85,28.9,18.6,27.8,336.0,30.0,42.4,7,5,4,1,2026-05-17T00:46:30.731835+05:30
Vadodara,Gujarat,22.3072,73.1812,31.5,61,0.0,1000.9,8.1,30.6,70,46.9,28.8,26.1,241.0,36.0,14.1,3,5,4,1,2026-05-17T00:46:30.731846+05:30
Rajkot,Gujarat,22.3039,70.8022,27.5,81,0.0,991.9,7.7,39.6,53,25.6,10.4,7.5,139.0,42.0,4.9,7,5,7,1,2026-05-17T00:46:30.731854+05:30
Thane,Maharashtra,19.2183,72.9781,28.5,85,0.0,1004.9,7.85,40.7,59,36.4,15.0,6.9,170.0,51.0,4.2,7,5,4,1,2026-05-17T00:46:30.731863+05:30
Nagpur,Maharashtra,21.1458,79.0882,32.8,46,0.0,969.8,8.95,31.7,113,71.0,55.8,30.1,262.0,77.0,23.4,0,5,7,1,2026-05-17T00:46:30.731871+05:30
Nashik,Maharashtra,19.9975,73.7898,28.1,45,0.0,942.9,8.2,40.0,55,40.7,22.4,18.9,274.0,43.0,4.1,4,5,7,0,2026-05-17T00:46:30.731878+05:30
Aurangabad,Maharashtra,19.8762,75.3433,32.0,28,0.0,941.4,9.05,33.5,55,29.0,18.3,8.6,211.0,87.0,5.1,0,5,7,0,2026-05-17T00:46:30.731886+05:30
Solapur,Maharashtra,17.6599,75.9064,30.8,45,0.0,954.2,9.1,36.4,72,46.3,40.4,45.8,398.0,31.0,10.2,0,5,7,1,2026-05-17T00:46:30.731893+05:30
Kolhapur,Maharashtra,16.705,74.2433,25.0,91,0.0,945.4,8.95,45.0,68,22.4,16.9,9.8,198.0,59.0,5.5,7,5,7,1,2026-05-17T00:46:30.731901+05:30
Goa,Goa,15.2993,74.124,28.8,82,0.0,995.0,8.9,35.3,63,33.4,19.4,5.5,273.0,44.0,1.4,7,5,7,1,2026-05-17T00:46:30.731908+05:30
Jodhpur,Rajasthan,26.2389,73.0243,33.8,28,0.0,980.0,8.4,32.4,111,138.8,31.5,8.2,236.0,64.0,3.8,0,5,7,0,2026-05-17T00:46:30.731915+05:30
Udaipur,Rajasthan,24.5854,73.7125,31.1,34,0.0,944.1,8.85,29.9,56,36.7,16.9,5.4,189.0,55.0,3.0,0,5,7,0,2026-05-17T00:46:30.731923+05:30
Kota,Rajasthan,25.2138,75.8648,32.9,28,0.0,975.3,8.4,30.2,72,100.8,38.5,15.8,317.0,54.0,5.3,0,5,7,0,2026-05-17T00:46:30.731930+05:30
Bikaner,Rajasthan,28.0229,73.3119,33.5,25,0.0,978.7,8.4,34.2,102,104.5,32.8,5.3,266.0,49.0,1.8,0,5,7,0,2026-05-17T00:46:30.731937+05:30
Ajmer,Rajasthan,26.4499,74.6399,31.2,32,0.0,952.4,8.4,33.1,86,100.6,39.7,20.2,248.0,43.0,5.5,0,5,7,0,2026-05-17T00:46:30.731944+05:30
Gwalior,Madhya Pradesh,26.2183,78.1828,31.4,32,0.0,979.8,8.25,41.0,120,362.3,78.7,13.6,313.0,68.0,9.2,0,5,7,0,2026-05-17T00:46:30.731951+05:30
Indore,Madhya Pradesh,22.7196,75.8577,30.9,31,0.0,945.6,8.7,34.2,51,26.8,16.6,5.5,265.0,77.0,3.8,0,5,7,0,2026-05-17T00:46:30.731958+05:30
Bhopal,Madhya Pradesh,23.2599,77.4126,32.7,23,0.0,950.5,8.75,33.5,55,34.2,25.3,12.7,286.0,55.0,5.9,0,5,7,0,2026-05-17T00:46:30.731965+05:30
Jabalpur,Madhya Pradesh,23.1815,79.9864,31.0,38,0.0,958.3,8.9,33.1,108,61.9,40.3,33.5,256.0,47.0,9.1,0,5,7,0,2026-05-17T00:46:30.731972+05:30
Ujjain,Madhya Pradesh,23.1765,75.7885,30.8,28,0.0,951.1,8.65,40.3,52,29.5,17.4,3.6,238.0,79.0,3.2,0,5,7,0,2026-05-17T00:46:30.731979+05:30
Visakhapatnam,Andhra Pradesh,17.6868,83.2185,28.8,87,0.0,1001.0,9.15,41.0,61,17.5,13.6,22.3,257.0,45.0,36.9,7,5,4,1,2026-05-17T00:46:30.731987+05:30
Vijayawada,Andhra Pradesh,16.5062,80.648,29.4,83,0.0,999.5,9.15,36.7,46,12.5,10.7,8.6,182.0,52.0,5.7,7,5,7,1,2026-05-17T00:46:30.731994+05:30
Guntur,Andhra Pradesh,16.3067,80.4365,29.3,84,0.0,1000.7,9.2,33.1,48,11.1,9.4,7.4,168.0,52.0,2.8,7,5,4,1,2026-05-17T00:46:30.732001+05:30
Nellore,Andhra Pradesh,14.4426,79.9865,28.7,85,0.0,1002.5,9.2,37.4,41,13.9,9.7,3.2,207.0,79.0,1.8,7,5,4,1,2026-05-17T00:46:30.732009+05:30
Kurnool,Andhra Pradesh,15.8281,78.0373,30.0,62,0.0,973.3,8.2,37.1,115,21.2,13.6,5.6,228.0,68.0,2.4,7,5,7,1,2026-05-17T00:46:30.732017+05:30
Kakinada,Andhra Pradesh,16.9891,82.2475,29.0,85,0.0,1004.6,9.15,41.4,32,8.6,5.6,1.9,224.0,69.0,1.4,7,5,4,1,2026-05-17T00:46:30.732024+05:30
Tirupati,Andhra Pradesh,13.6288,79.4192,27.4,85,0.0,988.0,9.2,29.9,52,19.2,16.7,27.3,303.0,35.0,16.3,7,5,7,1,2026-05-17T00:46:30.732032+05:30
Warangal,Telangana,17.9689,79.5941,29.1,71,0.0,975.3,9.2,28.8,92,24.7,20.7,11.0,258.0,68.0,9.0,7,5,7,1,2026-05-17T00:46:30.732038+05:30
Nizamabad,Telangana,18.6725,78.0941,30.4,56,0.0,961.3,9.15,34.6,92,53.4,44.5,27.7,291.0,56.0,7.7,0,5,7,1,2026-05-17T00:46:30.732045+05:30
Mysore,Karnataka,12.2958,76.6396,22.1,92,0.0,925.4,9.1,40.3,114,41.7,33.6,17.0,430.0,74.0,4.4,3,5,7,1,2026-05-17T00:46:30.732052+05:30
Mangalore,Karnataka,12.9141,74.856,25.8,98,0.0,1004.1,7.9,36.7,62,28.2,20.4,12.1,464.0,30.0,3.1,7,5,4,1,2026-05-17T00:46:30.732059+05:30
Hubli-Dharwad,Karnataka,15.3647,75.124,24.2,94,0.0,937.7,9.1,42.1,62,15.1,10.9,7.5,180.0,44.0,2.0,3,5,7,1,2026-05-17T00:46:30.732067+05:30
Belgaum,Karnataka,15.8497,74.4977,23.6,94,0.0,923.0,9.15,44.6,67,19.8,14.8,10.8,162.0,37.0,2.5,3,5,7,1,2026-05-17T00:46:34.008744+05:30
Coimbatore,Tamil Nadu,11.0168,76.9558,23.6,91,0.0,958.6,9.15,49.3,94,35.9,27.9,8.6,294.0,79.0,5.1,3,5,7,1,2026-05-17T00:46:34.008778+05:30
Madurai,Tamil Nadu,9.9252,78.1198,27.9,73,0.0,989.9,8.8,40.0,80,49.9,46.0,52.3,821.0,19.0,9.2,7,5,7,1,2026-05-17T00:46:34.008789+05:30
Trichy,Tamil Nadu,10.7905,78.7047,27.0,83,0.0,996.5,8.1,29.9,80,34.2,30.5,31.1,379.0,38.0,6.5,7,5,7,1,2026-05-17T00:46:34.008798+05:30
Salem,Tamil Nadu,11.6643,78.146,26.9,75,0.0,974.2,8.4,25.2,137,76.1,53.3,34.7,373.0,53.0,16.9,7,5,7,1,2026-05-17T00:46:34.008806+05:30
Tirunelveli,Tamil Nadu,8.7139,77.7567,28.1,70,0.0,999.7,6.55,29.9,54,11.7,10.3,8.2,303.0,62.0,1.8,7,5,7,1,2026-05-17T00:46:34.008814+05:30
Vellore,Tamil Nadu,12.9165,79.1325,26.9,87,0.0,981.2,9.1,25.9,76,23.5,21.5,18.0,356.0,45.0,5.1,7,5,7,1,2026-05-17T00:46:34.008822+05:30
Erode,Tamil Nadu,11.341,77.7172,26.5,80,0.0,985.8,8.95,31.7,109,74.7,53.6,61.8,408.0,18.0,8.1,7,5,7,1,2026-05-17T00:46:34.008829+05:30
Kochi,Kerala,9.9312,76.2673,25.8,93,0.0,1006.2,8.85,33.8,67,27.5,23.6,31.7,379.0,12.0,7.1,7,5,4,1,2026-05-17T00:46:34.008837+05:30
Thiruvananthapuram,Kerala,8.5241,76.9366,24.7,93,0.0,1005.6,8.1,33.8,47,18.3,12.2,6.0,327.0,87.0,3.2,3,5,4,1,2026-05-17T00:46:34.008844+05:30
Kozhikode,Kerala,11.2588,75.7804,24.3,97,0.0,1004.9,8.3,32.0,61,23.3,15.6,2.7,430.0,77.0,1.6,3,5,4,1,2026-05-17T00:46:34.008851+05:30
Thrissur,Kerala,10.5276,76.2144,24.6,93,0.0,1004.4,8.45,33.1,74,34.5,28.5,26.3,400.0,24.0,5.8,3,5,4,1,2026-05-17T00:46:34.008859+05:30
Kannur,Kerala,11.8745,75.3704,24.8,98,0.0,1004.4,7.85,37.4,63,26.3,22.1,17.1,400.0,39.0,3.1,3,5,4,1,2026-05-17T00:46:34.008867+05:30
Patna,Bihar,25.5941,85.1376,28.8,76,0.0,996.2,8.8,38.9,153,87.3,72.9,44.7,482.0,49.0,20.8,7,5,7,1,2026-05-17T00:46:34.008874+05:30
Gaya,Bihar,24.7914,85.0002,28.0,62,0.0,989.6,8.9,45.0,151,163.4,73.1,42.0,586.0,49.0,15.1,7,5,7,1,2026-05-17T00:46:34.008881+05:30
Muzaffarpur,Bihar,26.1209,85.3647,27.9,77,0.0,996.4,8.8,28.4,152,65.0,58.9,18.3,532.0,82.0,14.0,7,5,7,1,2026-05-17T00:46:34.008888+05:30
Bhagalpur,Bihar,25.2425,87.0117,28.0,84,0.0,997.0,8.8,25.2,144,51.0,46.8,14.2,439.0,87.0,11.2,7,5,7,1,2026-05-17T00:46:34.008894+05:30
Ranchi,Jharkhand,23.3441,85.3096,25.1,67,0.0,935.2,9.3,34.2,136,83.1,62.6,31.2,315.0,62.0,13.3,7,5,7,1,2026-05-17T00:46:34.008901+05:30
Jamshedpur,Jharkhand,22.8046,86.2029,28.5,72,0.0,987.9,8.95,24.8,130,44.1,36.0,16.0,380.0,74.0,20.8,7,5,7,1,2026-05-17T00:46:34.008908+05:30
Dhanbad,Jharkhand,23.7957,86.4304,27.4,78,0.0,976.2,9.05,33.5,161,88.7,75.9,66.7,974.0,30.0,124.7,7,5,7,1,2026-05-17T00:46:34.008915+05:30
Bokaro,Jharkhand,23.6693,86.1511,27.5,72,0.0,980.0,9.05,34.9,157,125.7,87.1,67.9,1315.0,18.0,90.8,7,5,7,1,2026-05-17T00:46:34.008922+05:30
Bhubaneswar,Odisha,20.2961,85.8245,28.5,87,0.0,999.8,9.15,40.0,42,12.2,8.3,5.7,177.0,45.0,2.2,7,5,7,1,2026-05-17T00:46:34.008929+05:30
Cuttack,Odisha,20.4625,85.8828,28.7,86,0.0,1001.7,9.2,42.8,42,12.2,8.3,5.7,190.0,45.0,2.2,7,5,4,1,2026-05-17T00:46:34.008936+05:30
Rourkela,Odisha,22.2604,84.8536,28.0,80,0.0,982.4,9.0,38.2,152,59.3,45.3,13.5,208.0,95.0,17.4,7,5,7,1,2026-05-17T00:46:34.008943+05:30
Raipur,Chhattisgarh,21.2514,81.6296,29.2,65,0.0,971.6,9.0,29.9,157,51.6,42.8,17.7,300.0,76.0,25.8,7,5,7,1,2026-05-17T00:46:34.008950+05:30
Bhilai,Chhattisgarh,21.1938,81.3509,28.6,69,0.0,971.9,9.0,30.2,157,52.7,44.0,22.9,310.0,74.0,39.0,7,5,7,1,2026-05-17T00:46:34.008957+05:30
Guwahati,Assam,26.1158,91.7086,22.6,99,0.1,999.4,8.65,30.6,65,22.5,19.3,9.3,348.0,66.0,3.0,6,5,7,1,2026-05-17T00:46:34.008964+05:30
Agartala,Tripura,23.8315,91.2868,26.0,96,0.0,1003.7,8.9,38.2,69,22.3,16.2,12.0,193.0,22.0,2.0,7,5,4,1,2026-05-17T00:46:34.008971+05:30
Shillong,Meghalaya,25.5788,91.8933,18.5,94,0.0,854.6,9.1,37.4,47,11.8,8.9,6.4,252.0,76.0,3.1,3,10,7,1,2026-05-17T00:46:34.008979+05:30
Imphal,Manipur,24.817,93.9368,20.5,96,0.0,920.8,9.25,36.4,80,19.4,16.3,17.2,419.0,38.0,2.8,3,5,7,1,2026-05-17T00:46:34.008986+05:30
Aizawl,Mizoram,23.7271,92.7176,19.3,94,0.0,890.8,9.05,34.2,55,9.1,5.8,4.3,163.0,59.0,2.2,3,10,7,1,2026-05-17T00:46:34.008993+05:30
Kohima,Nagaland,25.6701,94.1077,14.9,94,0.0,850.6,9.2,32.4,56,16.9,12.8,11.5,273.0,36.0,1.3,3,10,7,0,2026-05-17T00:46:34.009000+05:30
Gangtok,Sikkim,27.3314,88.6138,14.2,92,0.0,833.6,9.15,39.6,54,16.4,14.9,15.7,654.0,82.0,2.0,3,10,7,0,2026-05-17T00:46:34.009007+05:30
Siliguri,West Bengal,26.7271,88.3953,21.6,99,0.1,990.4,8.7,24.5,76,26.8,22.1,15.1,397.0,97.0,3.3,6,5,7,1,2026-05-17T00:46:37.282958+05:30
Durgapur,West Bengal,23.5204,87.3119,28.0,88,0.0,991.4,9.0,31.7,152,30.4,27.2,22.7,400.0,48.0,28.8,7,5,7,1,2026-05-17T00:46:37.282992+05:30
Asansol,West Bengal,23.6739,86.9524,27.9,88,0.0,989.9,8.95,32.4,153,38.9,34.6,25.7,292.0,57.0,34.7,7,5,7,1,2026-05-17T00:46:37.283004+05:30
Pondicherry,Puducherry,11.9139,79.8145,28.4,87,0.0,1004.7,8.3,43.6,68,21.3,15.5,8.8,383.0,94.0,7.3,7,5,4,1,2026-05-17T00:46:37.283015+05:30
Port Blair,Andaman and Nicobar Islands,11.6234,92.7265,27.6,85,0.0,1004.9,2.65,42.8,26,13.5,8.0,0.3,109.0,52.0,0.3,7,5,0,1,2026-05-17T00:46:37.283025+05:30
Haridwar,Uttarakhand,29.9457,78.1642,24.4,64,0.0,969.6,7.55,42.1,90,55.9,44.7,31.4,449.0,50.0,10.5,3,5,7,1,2026-05-17T00:46:37.283035+05:30
Rishikesh,Uttarakhand,30.0869,78.2676,22.0,63,0.0,962.1,7.65,35.6,91,59.0,39.5,20.2,355.0,86.0,7.7,3,5,7,0,2026-05-17T00:46:37.283044+05:30
Nainital,Uttarakhand,29.3919,79.4542,14.6,61,0.0,802.5,8.5,37.8,84,49.0,30.0,13.8,290.0,102.0,6.1,3,5,7,0,2026-05-17T00:46:37.283052+05:30
Mussoorie,Uttarakhand,30.4599,78.0664,16.2,55,0.0,800.5,8.05,54.0,80,64.0,44.8,47.3,246.0,38.0,9.5,0,5,7,0,2026-05-17T00:46:37.283059+05:30
Dharamshala,Himachal Pradesh,32.219,76.3234,20.0,51,0.0,866.6,8.4,45.7,48,18.7,14.0,16.1,229.0,36.0,0.3,0,5,7,0,2026-05-17T00:46:37.283066+05:30
Dalhousie,Himachal Pradesh,32.5387,75.971,11.5,72,0.0,799.9,8.65,38.9,68,39.6,28.9,48.0,352.0,19.0,2.2,3,5,7,0,2026-05-17T00:46:37.283094+05:30
Patiala,Punjab,30.3398,76.3869,27.8,42,0.0,974.5,7.6,46.8,368,556.9,102.9,12.1,490.0,81.0,7.4,4,5,7,0,2026-05-17T00:46:37.283102+05:30
Bhatinda,Punjab,30.211,74.9455,29.1,49,0.0,980.1,8.25,39.6,97,62.9,33.4,10.3,391.0,76.0,6.5,4,5,7,1,2026-05-17T00:46:37.283110+05:30
Rohtak,Haryana,28.8955,76.6066,28.4,46,0.0,978.2,7.75,44.6,580,843.8,170.4,25.3,374.0,54.0,7.9,4,5,7,0,2026-05-17T00:46:37.283117+05:30
Panipat,Haryana,29.3909,76.9635,28.2,41,0.0,976.7,7.6,54.4,1181,1482.7,254.3,15.1,432.0,70.0,7.6,4,5,7,0,2026-05-17T00:46:37.283123+05:30
Mathura,Uttar Pradesh,27.4924,77.6737,30.4,35,0.0,982.9,8.0,41.4,467,681.7,127.1,21.9,311.0,55.0,8.5,0,5,7,0,2026-05-17T00:46:37.283129+05:30
Vrindavan,Uttar Pradesh,27.5823,77.7027,29.4,38,0.0,983.3,7.95,39.6,467,681.7,127.1,21.9,316.0,55.0,8.5,4,5,7,0,2026-05-17T00:46:37.283135+05:30
Ayodhya,Uttar Pradesh,26.7922,82.1998,28.0,55,0.0,990.7,8.35,41.8,157,140.2,59.6,23.5,367.0,59.0,11.4,4,5,7,1,2026-05-17T00:46:37.283141+05:30
Ratlam,Madhya Pradesh,23.3315,75.0367,29.2,33,0.0,951.6,8.55,31.0,55,33.8,18.7,3.6,184.0,77.0,3.3,4,5,7,0,2026-05-17T00:46:37.283147+05:30
Sagar,Madhya Pradesh,23.8388,78.7378,31.6,31,0.0,947.0,8.75,37.8,75,36.7,21.0,21.9,245.0,47.0,4.4,0,5,7,0,2026-05-17T00:46:37.283152+05:30
Satna,Madhya Pradesh,24.6005,80.8322,31.1,35,0.0,967.6,8.8,46.4,115,81.0,33.8,22.4,414.0,66.0,5.2,0,5,7,0,2026-05-17T00:46:37.283158+05:30
Akola,Maharashtra,20.7002,77.0082,34.7,26,0.0,971.1,8.9,31.3,53,24.6,18.5,11.3,257.0,71.0,5.8,0,5,7,0,2026-05-17T00:46:37.283165+05:30
Amravati,Maharashtra,20.9374,77.7796,33.6,27,0.0,963.7,8.95,32.8,53,25.3,19.9,16.9,310.0,58.0,4.8,0,5,7,0,2026-05-17T00:46:37.283172+05:30
Latur,Maharashtra,18.4088,76.5604,29.9,46,0.0,936.9,9.0,36.7,63,36.8,25.6,23.4,535.0,75.0,13.0,4,5,7,1,2026-05-17T00:46:37.283178+05:30
Nanded,Maharashtra,19.1383,77.3091,30.8,43,0.0,964.4,9.0,34.6,71,43.1,33.8,33.8,741.0,42.0,8.6,0,5,7,1,2026-05-17T00:46:37.283184+05:30
Gulbarga,Karnataka,17.3297,76.8343,28.8,61,0.0,955.8,9.1,32.8,83,55.2,41.9,14.8,322.0,80.0,12.6,7,5,7,1,2026-05-17T00:46:37.283190+05:30
Bidar,Karnataka,17.9104,77.5199,28.0,60,0.0,932.6,9.15,37.1,91,47.5,38.1,17.4,372.0,76.0,5.7,4,5,7,1,2026-05-17T00:46:37.283195+05:30
Hospet,Karnataka,15.2689,76.3909,26.2,84,0.0,953.1,9.2,41.4,97,17.3,15.1,9.5,301.0,73.0,2.7,7,5,7,1,2026-05-17T00:46:37.283201+05:30
Tirupur,Tamil Nadu,11.1085,77.3411,24.9,85,0.0,971.9,9.05,49.3,113,57.9,42.6,35.8,263.0,58.0,7.5,3,5,7,1,2026-05-17T00:46:37.283207+05:30
Alappuzha,Kerala,9.4981,76.3388,26.0,97,0.0,1006.3,8.5,27.4,59,26.1,18.7,16.4,288.0,66.0,6.6,7,5,4,1,2026-05-17T00:46:37.283212+05:30
Munnar,Kerala,10.0889,77.0595,17.5,90,0.0,853.6,8.6,23.8,66,26.9,21.2,18.0,336.0,19.0,1.8,3,10,7,0,2026-05-17T00:46:37.283219+05:30
Silchar,Assam,24.8333,92.7789,24.1,99,0.1,1003.4,8.7,28.8,71,26.7,18.0,4.6,241.0,90.0,3.0,6,5,4,1,2026-05-17T00:46:37.283224+05:30
Dibrugarh,Assam,27.4728,94.912,21.9,98,0.0,993.2,7.35,22.7,76,18.1,15.4,15.4,269.0,37.0,1.0,3,5,7,1,2026-05-17T00:46:37.283230+05:30
