city,state,latitude,longitude,temp,humidity,rain,pressure,uv_index,wind_gusts,aqi,pm10,pm2_5,mosquito_risk,arthritis_risk,migraine_risk,frizz_risk,updated_at
Delhi,Delhi,28.6139,77.209,42.2,14,0.0,975.6,7.45,47.2,481,390.2,47.1,0,5,10,0,2026-04-27T14:51:22.900293+05:30
Mumbai,Maharashtra,19.076,72.8777,33.0,62,0.0,1005.0,8.05,39.6,92,54.0,29.5,3,5,4,1,2026-04-27T14:51:22.900338+05:30
Bangalore,Karnataka,12.9716,77.5946,37.6,18,0.0,909.9,9.55,37.4,118,47.8,26.6,0,5,10,0,2026-04-27T14:51:22.900354+05:30
Hyderabad,Telangana,17.385,78.4867,40.2,17,0.0,949.5,9.25,33.8,99,41.8,32.7,0,5,10,0,2026-04-27T14:51:22.900366+05:30
Chennai,Tamil Nadu,13.0827,80.2707,34.2,51,0.0,1002.9,9.25,55.1,54,22.0,15.8,0,5,4,1,2026-04-27T14:51:22.900375+05:30
Kolkata,West Bengal,22.5726,88.3639,34.2,58,0.0,998.6,8.85,58.7,61,25.1,19.7,0,5,7,1,2026-04-27T14:51:22.900384+05:30
Pune,Maharashtra,18.5204,73.8567,40.1,14,0.0,945.3,8.55,41.4,70,34.5,19.3,0,5,10,0,2026-04-27T14:51:22.900396+05:30
Ahmedabad,Gujarat,23.0225,72.5714,43.2,11,0.0,996.5,8.2,48.6,50,27.1,10.3,0,5,10,0,2026-04-27T14:51:22.900403+05:30
Jaipur,Rajasthan,26.9124,75.7873,42.8,12,0.0,954.2,8.05,37.8,119,281.3,34.1,0,5,10,0,2026-04-27T14:51:22.900411+05:30
Lucknow,Uttar Pradesh,26.8467,80.9462,42.2,17,0.0,984.9,7.9,46.4,149,183.0,36.0,0,5,10,0,2026-04-27T14:51:22.900419+05:30
Kanpur,Uttar Pradesh,26.4499,80.3319,43.5,13,0.0,983.4,7.95,49.0,274,476.8,56.8,0,5,10,0,2026-04-27T14:51:22.900427+05:30
Chandigarh,Chandigarh,30.7333,76.7794,38.5,12,0.0,962.3,7.45,46.1,99,10.4,6.8,0,5,10,0,2026-04-27T14:51:22.900434+05:30
Srinagar,Jammu and Kashmir,34.0837,74.7973,24.8,38,0.0,840.7,8.4,18.7,54,13.4,5.9,0,5,7,0,2026-04-27T14:51:22.900442+05:30
Jammu,Jammu and Kashmir,32.7266,74.857,36.6,20,0.0,966.7,8.25,33.5,75,5.8,4.1,0,5,10,0,2026-04-27T14:51:22.900449+05:30
Amritsar,Punjab,31.634,74.8723,39.7,16,0.0,974.2,8.05,43.9,77,36.0,15.2,0,5,10,0,2026-04-27T14:51:22.900455+05:30
Ludhiana,Punjab,30.901,75.8573,39.5,15,0.0,972.1,7.7,40.0,68,30.3,10.0,0,5,10,0,2026-04-27T14:51:22.900462+05:30
Jalandhar,Punjab,31.326,75.5762,38.9,16,0.0,973.0,7.5,33.5,74,53.3,14.3,0,5,10,0,2026-04-27T14:51:22.900471+05:30
Dehradun,Uttarakhand,30.6284,78.0322,26.6,28,0.0,829.4,7.9,44.6,85,9.4,4.9,4,5,7,0,2026-04-27T14:51:22.900477+05:30
Shimla,Himachal Pradesh,31.1048,77.1734,24.4,18,0.0,785.2,7.8,45.7,90,9.1,4.3,0,5,7,1,2026-04-27T14:51:22.900484+05:30
Manali,Himachal Pradesh,32.2396,77.1887,22.6,29,0.0,816.7,9.95,38.9,120,14.0,6.3,0,5,7,0,2026-04-27T14:51:22.900490+05:30
Gurgaon,Haryana,28.4595,77.0266,41.0,16,0.0,974.6,7.55,47.9,1016,1743.4,159.3,0,5,10,0,2026-04-27T14:51:22.900496+05:30
Noida,Uttar Pradesh,28.5355,77.391,42.2,14,0.0,976.8,7.45,41.4,1016,1743.4,159.3,0,5,10,0,2026-04-27T14:51:22.900503+05:30
Ghaziabad,Uttar Pradesh,28.6692,77.4538,42.5,13,0.0,975.1,7.4,47.2,425,297.1,38.3,0,5,10,0,2026-04-27T14:51:22.900509+05:30
Faridabad,Haryana,28.4089,77.3178,41.6,14,0.0,976.4,7.5,50.8,1016,1743.4,159.3,0,5,10,0,2026-04-27T14:51:22.900516+05:30
Meerut,Uttar Pradesh,28.9845,77.7064,40.6,14,0.0,973.9,7.35,38.2,425,297.1,38.3,0,5,10,0,2026-04-27T14:51:22.900524+05:30
Agra,Uttar Pradesh,27.1767,78.0081,42.8,14,0.0,980.5,7.8,45.4,470,784.2,78.9,0,5,10,0,2026-04-27T14:51:22.900531+05:30
Varanasi,Uttar Pradesh,25.3176,82.9739,42.8,15,0.0,988.6,8.5,51.5,147,88.2,28.5,0,5,10,0,2026-04-27T14:51:22.900539+05:30
Prayagraj,Uttar Pradesh,25.4358,81.8463,42.9,16,0.0,987.6,8.4,44.3,130,117.8,31.5,0,5,10,0,2026-04-27T14:51:22.900546+05:30
Gorakhpur,Uttar Pradesh,26.7606,83.3732,36.7,34,0.0,989.6,8.35,38.9,133,112.2,54.0,0,5,10,1,2026-04-27T14:51:22.900552+05:30
Bareilly,Uttar Pradesh,28.367,79.4304,40.1,18,0.0,978.8,7.7,46.4,118,30.5,17.9,0,5,10,0,2026-04-27T14:51:22.900558+05:30
Aligarh,Uttar Pradesh,27.8974,78.088,42.8,13,0.0,977.8,7.6,50.0,695,877.3,89.2,0,5,10,0,2026-04-27T14:51:22.900564+05:30
Moradabad,Uttar Pradesh,28.8386,78.7733,39.4,17,0.0,976.2,7.55,49.3,137,34.9,18.9,0,5,10,0,2026-04-27T14:51:22.900571+05:30
Saharanpur,Uttar Pradesh,29.9637,77.546,39.0,14,0.0,968.4,7.1,47.2,109,39.2,10.3,0,5,10,0,2026-04-27T14:51:22.900579+05:30
Jhansi,Uttar Pradesh,25.4484,78.5685,43.8,11,0.0,971.0,8.3,49.3,73,122.5,23.9,0,5,10,0,2026-04-27T14:51:26.137158+05:30
Surat,Gujarat,21.1702,72.8311,38.2,34,0.0,1002.1,7.8,37.8,108,50.8,35.6,0,5,7,1,2026-04-27T14:51:26.137191+05:30
Vadodara,Gujarat,22.3072,73.1812,43.5,12,0.0,998.6,8.15,48.6,77,34.5,15.5,0,5,10,0,2026-04-27T14:51:26.137201+05:30
Rajkot,Gujarat,22.3039,70.8022,41.8,13,0.0,989.7,7.9,52.2,50,36.0,12.9,0,5,10,0,2026-04-27T14:51:26.137209+05:30
Thane,Maharashtra,19.2183,72.9781,36.8,45,0.0,1003.7,8.05,37.1,92,54.0,29.5,0,5,7,1,2026-04-27T14:51:26.137216+05:30
Nagpur,Maharashtra,21.1458,79.0882,44.0,11,0.0,967.5,8.7,40.7,153,48.9,24.9,0,5,10,0,2026-04-27T14:51:26.137223+05:30
Nashik,Maharashtra,19.9975,73.7898,38.8,18,0.0,943.1,8.3,38.2,83,36.9,21.9,0,5,10,0,2026-04-27T14:51:26.137230+05:30
Aurangabad,Maharashtra,19.8762,75.3433,40.6,12,0.0,941.2,9.0,33.8,88,25.9,16.1,0,5,10,0,2026-04-27T14:51:26.137237+05:30
Solapur,Maharashtra,17.6599,75.9064,42.2,13,0.0,952.7,9.05,29.5,108,29.2,20.4,0,5,10,0,2026-04-27T14:51:26.137243+05:30
Kolhapur,Maharashtra,16.705,74.2433,34.2,39,0.0,945.8,9.0,46.4,80,32.1,21.0,0,5,7,1,2026-04-27T14:51:26.137250+05:30
Goa,Goa,15.2993,74.124,35.6,51,0.0,994.4,8.95,37.4,75,33.4,15.5,0,5,10,1,2026-04-27T14:51:26.137256+05:30
Jodhpur,Rajasthan,26.2389,73.0243,42.8,11,0.0,976.7,8.3,43.9,101,175.6,22.9,0,5,10,0,2026-04-27T14:51:26.137262+05:30
Udaipur,Rajasthan,24.5854,73.7125,39.2,12,0.0,943.0,8.75,45.0,44,25.8,7.7,0,5,10,0,2026-04-27T14:51:26.137268+05:30
Kota,Rajasthan,25.2138,75.8648,43.3,13,0.0,972.6,8.3,33.1,69,44.4,15.9,0,5,10,0,2026-04-27T14:51:26.137275+05:30
Bikaner,Rajasthan,28.0229,73.3119,43.7,12,0.0,974.3,8.1,58.3,64,59.8,15.3,0,5,10,0,2026-04-27T14:51:26.137281+05:30
Ajmer,Rajasthan,26.4499,74.6399,40.8,13,0.0,949.9,8.25,49.0,54,79.6,15.0,0,5,10,0,2026-04-27T14:51:26.137287+05:30
Gwalior,Madhya Pradesh,26.2183,78.1828,43.5,12,0.0,976.1,8.05,49.7,94,222.1,39.3,0,5,10,0,2026-04-27T14:51:26.137294+05:30
Indore,Madhya Pradesh,22.7196,75.8577,41.2,9,0.0,944.6,8.6,51.5,70,22.2,9.7,0,5,10,0,2026-04-27T14:51:26.137300+05:30
Bhopal,Madhya Pradesh,23.2599,77.4126,42.8,9,0.0,948.9,8.6,44.3,70,16.9,9.0,0,5,10,0,2026-04-27T14:51:26.137306+05:30
Jabalpur,Madhya Pradesh,23.1815,79.9864,41.0,14,0.0,956.4,8.65,49.7,81,42.8,13.6,0,5,10,0,2026-04-27T14:51:26.137312+05:30
Ujjain,Madhya Pradesh,23.1765,75.7885,41.3,9,0.0,949.9,8.55,49.0,65,23.9,8.8,0,5,10,0,2026-04-27T14:51:26.137319+05:30
Visakhapatnam,Andhra Pradesh,17.6868,83.2185,33.5,59,0.0,998.9,9.2,54.0,56,27.2,19.9,0,5,7,1,2026-04-27T14:51:26.137325+05:30
Vijayawada,Andhra Pradesh,16.5062,80.648,39.9,31,0.0,997.4,9.2,36.4,57,27.3,20.7,0,5,10,1,2026-04-27T14:51:26.137332+05:30
Guntur,Andhra Pradesh,16.3067,80.4365,39.2,38,0.0,998.5,9.15,38.2,58,29.3,22.2,0,5,10,1,2026-04-27T14:51:26.137338+05:30
Nellore,Andhra Pradesh,14.4426,79.9865,36.9,51,0.0,1000.4,9.3,47.9,58,32.0,23.6,0,5,7,1,2026-04-27T14:51:26.137346+05:30
Kurnool,Andhra Pradesh,15.8281,78.0373,42.8,17,0.0,971.9,9.2,34.9,102,39.0,29.7,0,5,10,0,2026-04-27T14:51:26.137353+05:30
Kakinada,Andhra Pradesh,16.9891,82.2475,38.4,36,0.0,1002.4,9.05,40.7,52,25.0,15.5,0,5,7,1,2026-04-27T14:51:26.137360+05:30
Tirupati,Andhra Pradesh,13.6288,79.4192,41.2,18,0.0,985.9,9.25,50.0,66,32.4,26.7,0,5,10,0,2026-04-27T14:51:26.137366+05:30
Warangal,Telangana,17.9689,79.5941,41.7,18,0.0,973.8,8.8,37.8,73,36.7,28.3,0,5,10,0,2026-04-27T14:51:26.137372+05:30
Nizamabad,Telangana,18.6725,78.0941,41.1,14,0.0,960.4,9.1,33.8,128,42.1,26.7,0,5,10,0,2026-04-27T14:51:26.137378+05:30
Mysore,Karnataka,12.2958,76.6396,36.1,24,0.0,926.1,9.45,41.8,104,44.1,26.3,0,5,10,0,2026-04-27T14:51:26.137385+05:30
Mangalore,Karnataka,12.9141,74.856,33.0,62,0.0,1003.3,8.2,38.9,74,29.2,21.4,3,5,4,1,2026-04-27T14:51:26.137391+05:30
Hubli-Dharwad,Karnataka,15.3647,75.124,35.5,35,0.0,938.4,9.2,48.2,83,41.1,33.5,0,5,10,1,2026-04-27T14:51:26.137398+05:30
Belgaum,Karnataka,15.8497,74.4977,33.2,41,0.0,924.1,9.2,52.9,91,40.2,29.5,0,5,7,1,2026-04-27T14:51:29.370401+05:30
Coimbatore,Tamil Nadu,11.0168,76.9558,38.2,20,0.0,958.1,9.35,46.8,90,32.1,20.4,0,5,10,0,2026-04-27T14:51:29.370434+05:30
Madurai,Tamil Nadu,9.9252,78.1198,40.5,22,0.0,988.3,8.85,52.6,49,17.5,14.1,0,5,10,0,2026-04-27T14:51:29.370445+05:30
Trichy,Tamil Nadu,10.7905,78.7047,38.4,25,0.0,995.3,9.1,48.6,56,17.5,14.3,0,5,10,0,2026-04-27T14:51:29.370453+05:30
Salem,Tamil Nadu,11.6643,78.146,39.9,21,0.0,972.9,9.2,34.6,63,25.3,18.7,0,5,10,0,2026-04-27T14:51:29.370460+05:30
Tirunelveli,Tamil Nadu,8.7139,77.7567,38.0,30,0.0,998.7,8.95,52.2,56,11.7,10.9,0,5,10,1,2026-04-27T14:51:29.370467+05:30
Vellore,Tamil Nadu,12.9165,79.1325,40.5,18,0.0,979.9,9.3,43.6,86,28.9,23.3,0,5,10,0,2026-04-27T14:51:29.370474+05:30
Erode,Tamil Nadu,11.341,77.7172,40.8,18,0.0,984.1,9.3,50.8,63,25.1,18.6,0,5,10,0,2026-04-27T14:51:29.370482+05:30
Kochi,Kerala,9.9312,76.2673,32.2,66,0.0,1005.2,9.0,37.1,86,20.1,17.2,3,5,4,1,2026-04-27T14:51:29.370489+05:30
Thiruvananthapuram,Kerala,8.5241,76.9366,30.4,71,0.2,1005.0,8.4,38.5,51,16.6,13.6,6,5,4,1,2026-04-27T14:51:29.370496+05:30
Kozhikode,Kerala,11.2588,75.7804,31.6,72,0.0,1004.5,8.5,41.4,58,16.2,12.6,3,5,4,1,2026-04-27T14:51:29.370503+05:30
Thrissur,Kerala,10.5276,76.2144,33.0,62,0.0,1003.3,8.9,39.6,80,21.7,16.9,3,5,4,1,2026-04-27T14:51:29.370509+05:30
Kannur,Kerala,11.8745,75.3704,32.5,64,0.0,1003.8,9.0,45.0,68,23.8,17.8,3,5,4,1,2026-04-27T14:51:29.370517+05:30
Patna,Bihar,25.5941,85.1376,35.2,42,0.0,993.0,8.6,35.6,134,108.0,53.6,0,5,10,1,2026-04-27T14:51:29.370523+05:30
Gaya,Bihar,24.7914,85.0002,39.0,26,0.0,986.1,8.65,42.1,131,129.9,49.6,0,5,10,0,2026-04-27T14:51:29.370530+05:30
Muzaffarpur,Bihar,26.1209,85.3647,32.0,52,0.0,993.8,8.6,39.2,138,117.3,56.7,0,5,7,1,2026-04-27T14:51:29.370537+05:30
Bhagalpur,Bihar,25.2425,87.0117,32.2,53,0.0,994.4,7.9,43.2,112,56.6,31.5,0,5,7,1,2026-04-27T14:51:29.370543+05:30
Ranchi,Jharkhand,23.3441,85.3096,38.5,15,0.0,932.6,9.15,50.0,105,91.0,24.6,0,5,10,0,2026-04-27T14:51:29.370550+05:30
Jamshedpur,Jharkhand,22.8046,86.2029,40.2,20,0.0,983.5,9.0,44.3,158,163.4,38.1,0,5,10,0,2026-04-27T14:51:29.370557+05:30
Dhanbad,Jharkhand,23.7957,86.4304,38.7,28,0.0,972.1,8.95,44.6,137,171.4,42.4,0,5,10,1,2026-04-27T14:51:29.370564+05:30
Bokaro,Jharkhand,23.6693,86.1511,42.3,13,0.0,975.2,8.95,46.8,141,137.8,33.5,0,5,10,0,2026-04-27T14:51:29.370570+05:30
Bhubaneswar,Odisha,20.2961,85.8245,34.7,55,0.0,996.7,9.05,54.0,54,22.8,17.7,0,5,7,1,2026-04-27T14:51:29.370576+05:30
Cuttack,Odisha,20.4625,85.8828,36.0,51,0.0,998.1,9.0,49.0,54,22.8,17.7,0,5,10,1,2026-04-27T14:51:29.370583+05:30
Rourkela,Odisha,22.2604,84.8536,42.1,15,0.0,978.1,8.9,51.1,167,75.9,24.6,0,5,10,0,2026-04-27T14:51:29.370588+05:30
Raipur,Chhattisgarh,21.2514,81.6296,40.5,18,0.0,969.6,8.55,59.8,136,44.5,24.4,0,5,10,0,2026-04-27T14:51:29.370595+05:30
Bhilai,Chhattisgarh,21.1938,81.3509,40.3,17,0.0,970.2,9.0,56.2,121,44.2,22.5,0,5,10,0,2026-04-27T14:51:29.370601+05:30
Guwahati,Assam,26.1158,91.7086,22.2,89,0.1,996.9,3.15,23.4,104,17.6,14.2,6,5,3,1,2026-04-27T14:51:29.370607+05:30
Agartala,Tripura,23.8315,91.2868,29.2,71,0.0,997.9,6.95,71.6,93,41.9,25.7,7,5,7,1,2026-04-27T14:51:29.370613+05:30
Shillong,Meghalaya,25.5788,91.8933,18.2,87,0.1,851.4,2.9,48.2,100,11.0,9.2,6,10,3,0,2026-04-27T14:51:29.370619+05:30
Imphal,Manipur,24.817,93.9368,22.9,75,0.0,918.6,8.55,28.8,158,62.6,37.7,3,5,7,1,2026-04-27T14:51:29.370625+05:30
Aizawl,Mizoram,23.7271,92.7176,25.3,54,0.0,888.0,8.95,60.5,94,50.1,27.3,4,5,7,0,2026-04-27T14:51:29.370632+05:30
Kohima,Nagaland,25.6701,94.1077,21.4,65,0.0,851.2,3.2,39.2,139,42.7,26.5,3,5,3,0,2026-04-27T14:51:29.370638+05:30
Gangtok,Sikkim,27.3314,88.6138,18.4,77,0.1,833.0,8.9,42.5,94,38.8,26.2,6,5,7,0,2026-04-27T14:51:29.370644+05:30
Siliguri,West Bengal,26.7271,88.3953,26.1,66,0.0,988.1,8.4,34.6,127,51.1,31.9,7,5,7,1,2026-04-27T14:51:32.623664+05:30
Durgapur,West Bengal,23.5204,87.3119,35.9,53,0.0,986.9,8.85,42.8,123,147.1,76.1,0,5,10,1,2026-04-27T14:51:32.623697+05:30
Asansol,West Bengal,23.6739,86.9524,37.4,39,0.0,985.5,8.9,43.9,116,183.9,58.0,0,5,10,1,2026-04-27T14:51:32.623708+05:30
Pondicherry,Puducherry,11.9139,79.8145,32.7,63,0.0,1004.8,9.2,52.6,52,22.1,15.8,3,5,4,1,2026-04-27T14:51:32.623717+05:30
Port Blair,Andaman and Nicobar Islands,11.6234,92.7265,32.2,62,0.0,1004.6,9.1,33.1,54,18.5,14.1,3,5,4,1,2026-04-27T14:51:32.623725+05:30
Haridwar,Uttarakhand,29.9457,78.1642,37.2,21,0.0,966.9,7.25,28.8,109,8.8,7.4,0,5,10,0,2026-04-27T14:51:32.623732+05:30
Rishikesh,Uttarakhand,30.0869,78.2676,36.1,22,0.0,959.9,7.35,27.4,102,7.5,5.9,0,5,10,0,2026-04-27T14:51:32.623739+05:30
Nainital,Uttarakhand,29.3919,79.4542,24.3,37,0.0,804.5,8.2,37.8,117,24.6,16.4,0,5,7,0,2026-04-27T14:51:32.623746+05:30
Mussoorie,Uttarakhand,30.4599,78.0664,24.0,32,0.0,802.5,7.75,51.8,105,8.6,7.5,0,5,7,0,2026-04-27T14:51:32.623753+05:30
Dharamshala,Himachal Pradesh,32.219,76.3234,29.1,23,0.0,867.3,8.1,52.2,95,8.6,3.2,4,5,7,0,2026-04-27T14:51:32.623760+05:30
Dalhousie,Himachal Pradesh,32.5387,75.971,24.8,22,0.0,805.0,8.3,42.1,91,7.0,3.2,0,5,7,0,2026-04-27T14:51:32.623767+05:30
Patiala,Punjab,30.3398,76.3869,40.9,12,0.0,971.1,7.35,47.9,329,627.7,55.1,0,5,10,0,2026-04-27T14:51:32.623774+05:30
Bhatinda,Punjab,30.211,74.9455,42.5,13,0.0,976.8,8.0,46.4,77,67.5,18.7,0,5,10,0,2026-04-27T14:51:32.623780+05:30
Rohtak,Haryana,28.8955,76.6066,41.8,14,0.0,974.8,7.5,42.8,597,612.8,60.8,0,5,10,0,2026-04-27T14:51:32.623804+05:30
Panipat,Haryana,29.3909,76.9635,42.5,10,0.0,972.7,7.3,49.7,1103,1337.4,112.9,0,5,10,0,2026-04-27T14:51:32.623812+05:30
Mathura,Uttar Pradesh,27.4924,77.6737,42.0,15,0.0,979.6,7.75,38.2,640,782.3,75.2,0,5,10,0,2026-04-27T14:51:32.623817+05:30
Vrindavan,Uttar Pradesh,27.5823,77.7027,42.2,15,0.0,980.0,7.65,41.4,640,782.3,75.2,0,5,10,0,2026-04-27T14:51:32.623824+05:30
Ayodhya,Uttar Pradesh,26.7922,82.1998,39.6,25,0.0,987.2,8.1,36.4,133,145.3,44.8,0,5,10,0,2026-04-27T14:51:32.623830+05:30
Ratlam,Madhya Pradesh,23.3315,75.0367,40.7,11,0.0,951.2,8.45,48.6,56,21.8,8.1,0,5,10,0,2026-04-27T14:51:32.623837+05:30
Sagar,Madhya Pradesh,23.8388,78.7378,40.5,14,0.0,946.1,8.6,44.3,68,39.9,11.2,0,5,10,0,2026-04-27T14:51:32.623842+05:30
Satna,Madhya Pradesh,24.6005,80.8322,41.8,13,0.0,965.0,8.65,54.4,67,43.2,13.7,0,5,10,0,2026-04-27T14:51:32.623849+05:30
Akola,Maharashtra,20.7002,77.0082,43.0,12,0.0,970.0,8.85,34.2,85,21.8,13.1,0,5,10,0,2026-04-27T14:51:32.623856+05:30
Amravati,Maharashtra,20.9374,77.7796,43.0,10,0.0,962.4,8.9,34.6,87,23.9,13.1,0,5,10,0,2026-04-27T14:51:32.623863+05:30
Latur,Maharashtra,18.4088,76.5604,40.8,13,0.0,936.7,9.05,40.3,101,29.5,17.8,0,5,10,0,2026-04-27T14:51:32.623869+05:30
Nanded,Maharashtra,19.1383,77.3091,42.8,12,0.0,963.8,9.0,40.7,106,37.3,18.6,0,5,10,0,2026-04-27T14:51:32.623875+05:30
Gulbarga,Karnataka,17.3297,76.8343,42.1,13,0.0,954.1,9.05,31.3,106,43.1,33.1,0,5,10,0,2026-04-27T14:51:32.623881+05:30
Bidar,Karnataka,17.9104,77.5199,40.0,15,0.0,932.6,9.05,30.6,125,40.2,29.7,0,5,10,0,2026-04-27T14:51:32.623887+05:30
Hospet,Karnataka,15.2689,76.3909,37.5,28,0.0,952.6,9.25,36.4,97,46.1,37.0,0,5,10,0,2026-04-27T14:51:32.623893+05:30
Tirupur,Tamil Nadu,11.1085,77.3411,39.7,19,0.0,970.8,9.35,37.1,76,26.5,18.7,0,5,10,0,2026-04-27T14:51:32.623899+05:30
Alappuzha,Kerala,9.4981,76.3388,31.0,73,0.0,1005.3,7.95,37.4,76,20.0,16.8,3,5,4,1,2026-04-27T14:51:32.623906+05:30
Munnar,Kerala,10.0889,77.0595,24.0,65,0.1,856.5,9.6,27.0,71,21.0,15.4,6,5,7,1,2026-04-27T14:51:32.623913+05:30
Silchar,Assam,24.8333,92.7789,26.1,76,0.2,999.5,8.75,32.8,156,59.4,41.6,10,5,7,1,2026-04-27T14:51:32.623919+05:30
Dibrugarh,Assam,27.4728,94.912,24.4,80,0.1,991.9,1.6,28.8,94,69.8,43.1,6,5,3,1,2026-04-27T14:51:32.623926+05:30
