city,state,latitude,longitude,temp,humidity,rain,pressure,uv_index,wind_gusts,aqi,pm10,pm2_5,no2,co,o3,so2,mosquito_risk,arthritis_risk,migraine_risk,frizz_risk,updated_at
Delhi,Delhi,28.6139,77.209,37.0,29,0.0,974.0,7.8,35.3,171,315.7,66.8,9.5,248.0,122.0,9.2,0,5,10,1,2026-06-23T18:04:58.180481+05:30
Mumbai,Maharashtra,19.076,72.8777,26.5,94,0.5,1003.3,6.35,35.3,36,9.7,8.5,13.7,317.0,62.0,8.1,10,5,4,1,2026-06-23T18:04:58.180536+05:30
Bangalore,Karnataka,12.9716,77.5946,23.7,83,0.1,909.6,8.15,52.2,33,8.6,6.5,11.3,440.0,61.0,2.9,6,5,7,1,2026-06-23T18:04:58.180552+05:30
Hyderabad,Telangana,17.385,78.4867,27.0,75,0.2,949.1,8.75,48.2,34,6.3,5.5,3.0,314.0,81.0,2.6,10,5,7,1,2026-06-23T18:04:58.180563+05:30
Chennai,Tamil Nadu,13.0827,80.2707,31.5,70,0.0,1002.8,8.35,37.1,69,20.1,15.7,7.1,347.0,115.0,5.6,3,5,4,1,2026-06-23T18:04:58.180571+05:30
Kolkata,West Bengal,22.5726,88.3639,29.6,85,0.0,998.3,8.8,26.3,159,61.5,52.6,14.9,621.0,113.0,12.4,7,5,7,1,2026-06-23T18:04:58.180580+05:30
Pune,Maharashtra,18.5204,73.8567,24.8,83,0.0,942.9,7.1,36.4,22,4.6,4.5,9.6,166.0,47.0,4.8,3,5,7,1,2026-06-23T18:04:58.180588+05:30
Ahmedabad,Gujarat,23.0225,72.5714,39.0,29,0.0,993.0,8.0,42.1,67,128.5,31.4,2.8,150.0,84.0,2.7,0,5,10,1,2026-06-23T18:04:58.180596+05:30
Jaipur,Rajasthan,26.9124,75.7873,31.7,49,0.1,952.6,8.2,35.6,150,133.6,36.8,3.0,158.0,95.0,3.1,3,5,7,1,2026-06-23T18:04:58.180603+05:30
Lucknow,Uttar Pradesh,26.8467,80.9462,38.2,28,0.0,983.4,8.25,40.3,146,173.2,39.1,2.8,179.0,135.0,5.2,0,5,10,1,2026-06-23T18:04:58.180622+05:30
Kanpur,Uttar Pradesh,26.4499,80.3319,38.3,27,0.0,982.0,8.25,43.6,190,265.4,45.1,2.8,161.0,123.0,4.2,0,5,10,1,2026-06-23T18:04:58.180629+05:30
Chandigarh,Chandigarh,30.7333,76.7794,34.8,33,0.0,959.9,7.8,36.0,157,22.3,19.8,4.3,349.0,168.0,8.1,0,5,7,1,2026-06-23T18:04:58.180636+05:30
Srinagar,Jammu and Kashmir,34.0837,74.7973,26.6,43,0.0,837.3,9.1,18.7,120,17.4,12.4,2.6,332.0,145.0,2.7,4,5,7,0,2026-06-23T18:04:58.180643+05:30
Jammu,Jammu and Kashmir,32.7266,74.857,36.3,26,0.0,963.6,8.65,35.6,126,15.2,12.3,3.0,217.0,150.0,2.1,0,5,10,0,2026-06-23T18:04:58.180650+05:30
Amritsar,Punjab,31.634,74.8723,34.6,42,0.0,971.2,8.5,18.4,160,54.2,30.0,4.1,412.0,185.0,9.6,0,5,7,1,2026-06-23T18:04:58.180657+05:30
Ludhiana,Punjab,30.901,75.8573,36.7,28,0.0,969.2,8.05,32.4,153,78.0,29.9,4.1,277.0,146.0,4.7,0,5,10,0,2026-06-23T18:04:58.180666+05:30
Jalandhar,Punjab,31.326,75.5762,35.9,32,0.0,970.4,8.25,27.7,152,68.9,29.6,3.4,298.0,157.0,5.1,0,5,10,1,2026-06-23T18:04:58.180673+05:30
Dehradun,Uttarakhand,30.6284,78.0322,20.4,74,0.0,825.9,7.7,32.4,110,18.2,13.6,2.0,225.0,147.0,2.4,3,5,7,0,2026-06-23T18:04:58.180680+05:30
Shimla,Himachal Pradesh,31.1048,77.1734,19.9,47,0.0,781.4,8.35,40.3,105,15.4,12.0,1.8,219.0,147.0,4.8,0,5,7,0,2026-06-23T18:04:58.180687+05:30
Manali,Himachal Pradesh,32.2396,77.1887,20.3,68,0.0,815.1,9.75,36.4,96,16.4,15.5,22.6,131.0,121.0,0.5,3,5,7,0,2026-06-23T18:04:58.180699+05:30
Gurgaon,Haryana,28.4595,77.0266,33.3,42,0.0,972.7,7.85,47.9,307,301.7,65.7,9.9,203.0,114.0,6.8,0,5,7,1,2026-06-23T18:04:58.180706+05:30
Noida,Uttar Pradesh,28.5355,77.391,36.8,30,0.0,975.0,7.8,27.7,307,301.7,65.7,9.9,301.0,114.0,6.8,0,5,10,1,2026-06-23T18:04:58.180714+05:30
Ghaziabad,Uttar Pradesh,28.6692,77.4538,35.5,37,0.1,973.3,7.8,29.2,165,308.3,70.5,8.4,193.0,139.0,13.1,3,5,10,1,2026-06-23T18:04:58.180720+05:30
Faridabad,Haryana,28.4089,77.3178,36.6,30,0.0,974.6,7.85,41.0,307,301.7,65.7,9.9,211.0,114.0,6.8,0,5,10,1,2026-06-23T18:04:58.180727+05:30
Meerut,Uttar Pradesh,28.9845,77.7064,35.8,36,0.0,972.3,7.7,34.9,165,308.3,70.5,8.4,173.0,139.0,13.1,0,5,10,1,2026-06-23T18:04:58.180734+05:30
Agra,Uttar Pradesh,27.1767,78.0081,38.0,28,0.0,978.6,8.1,33.1,406,149.5,43.2,4.5,153.0,112.0,3.5,0,5,10,1,2026-06-23T18:04:58.180740+05:30
Varanasi,Uttar Pradesh,25.3176,82.9739,38.3,28,0.0,987.5,8.75,41.8,124,111.5,41.4,5.5,217.0,130.0,6.4,0,5,10,1,2026-06-23T18:04:58.180747+05:30
Prayagraj,Uttar Pradesh,25.4358,81.8463,38.5,28,0.0,986.1,8.45,41.4,131,101.5,34.0,3.4,158.0,126.0,5.1,0,5,10,1,2026-06-23T18:04:58.180754+05:30
Gorakhpur,Uttar Pradesh,26.7606,83.3732,34.9,47,0.0,987.0,8.65,37.1,161,94.1,36.7,5.6,207.0,133.0,6.6,0,5,7,1,2026-06-23T18:04:58.180760+05:30
Bareilly,Uttar Pradesh,28.367,79.4304,35.8,35,0.0,977.3,8.1,32.8,154,101.0,38.4,3.4,215.0,170.0,8.8,0,5,10,1,2026-06-23T18:04:58.180784+05:30
Aligarh,Uttar Pradesh,27.8974,78.088,36.5,34,0.0,976.4,7.95,31.7,275,379.0,77.8,6.8,165.0,129.0,7.3,0,5,10,1,2026-06-23T18:04:58.180790+05:30
Moradabad,Uttar Pradesh,28.8386,78.7733,35.7,38,0.0,974.4,7.95,37.8,159,75.7,34.3,4.5,227.0,161.0,9.2,0,5,10,1,2026-06-23T18:04:58.180797+05:30
Saharanpur,Uttar Pradesh,29.9637,77.546,34.1,41,0.0,966.4,7.45,34.2,170,144.8,40.4,5.6,262.0,164.0,10.3,0,5,7,1,2026-06-23T18:04:58.180804+05:30
Jhansi,Uttar Pradesh,25.4484,78.5685,36.7,31,0.0,969.6,8.4,37.1,93,81.5,27.2,2.0,131.0,99.0,3.4,0,5,10,1,2026-06-23T18:05:01.405286+05:30
Surat,Gujarat,21.1702,72.8311,29.8,76,0.0,1000.2,6.8,41.8,65,30.5,18.0,17.7,249.0,40.0,38.7,7,5,4,1,2026-06-23T18:05:01.405333+05:30
Vadodara,Gujarat,22.3072,73.1812,37.3,34,0.0,995.9,6.45,44.3,62,77.1,28.6,3.7,160.0,97.0,4.2,0,5,10,1,2026-06-23T18:05:01.405349+05:30
Rajkot,Gujarat,22.3039,70.8022,34.1,52,0.0,986.4,7.55,44.3,72,83.1,26.8,1.9,109.0,94.0,4.8,0,5,7,1,2026-06-23T18:05:01.405362+05:30
Thane,Maharashtra,19.2183,72.9781,26.1,95,0.3,1002.6,6.5,31.0,36,9.7,8.5,13.7,347.0,62.0,8.1,10,5,4,1,2026-06-23T18:05:01.405374+05:30
Nagpur,Maharashtra,21.1458,79.0882,31.1,62,0.0,967.0,8.15,54.0,70,14.7,14.1,8.3,254.0,119.0,17.9,3,5,7,1,2026-06-23T18:05:01.405385+05:30
Nashik,Maharashtra,19.9975,73.7898,24.3,92,0.1,940.0,7.65,38.2,31,3.1,3.1,11.4,150.0,66.0,3.8,6,5,7,1,2026-06-23T18:05:01.405397+05:30
Aurangabad,Maharashtra,19.8762,75.3433,24.5,89,0.3,939.0,8.1,32.0,32,4.4,4.2,3.1,171.0,71.0,1.6,6,5,7,1,2026-06-23T18:05:01.405409+05:30
Solapur,Maharashtra,17.6599,75.9064,29.4,61,0.0,952.2,7.5,56.9,30,2.5,2.4,3.1,140.0,59.0,1.5,7,5,7,1,2026-06-23T18:05:01.405421+05:30
Kolhapur,Maharashtra,16.705,74.2433,22.9,96,0.2,943.7,8.2,56.9,25,4.7,3.5,4.5,175.0,48.0,1.2,6,5,7,1,2026-06-23T18:05:01.405432+05:30
Goa,Goa,15.2993,74.124,25.0,98,0.2,996.3,7.0,35.3,31,12.5,7.1,1.9,174.0,51.0,0.5,10,5,7,1,2026-06-23T18:05:01.405443+05:30
Jodhpur,Rajasthan,26.2389,73.0243,37.4,33,0.0,974.0,8.4,37.1,128,256.1,49.1,1.3,118.0,86.0,1.3,0,5,10,1,2026-06-23T18:05:01.405455+05:30
Udaipur,Rajasthan,24.5854,73.7125,33.9,36,0.0,939.6,8.8,35.6,68,72.4,22.5,1.0,120.0,88.0,2.0,0,5,7,1,2026-06-23T18:05:01.405466+05:30
Kota,Rajasthan,25.2138,75.8648,36.0,38,0.0,970.5,8.3,34.6,84,77.3,28.5,1.8,143.0,104.0,3.7,0,5,10,1,2026-06-23T18:05:01.405477+05:30
Bikaner,Rajasthan,28.0229,73.3119,37.8,30,0.0,972.6,8.5,35.3,131,166.2,42.6,0.6,115.0,83.0,1.4,0,5,10,1,2026-06-23T18:05:01.405489+05:30
Ajmer,Rajasthan,26.4499,74.6399,33.4,39,0.0,947.3,8.35,45.7,93,76.1,27.1,1.4,128.0,101.0,2.0,0,5,7,1,2026-06-23T18:05:01.405501+05:30
Gwalior,Madhya Pradesh,26.2183,78.1828,37.5,28,0.0,974.4,8.25,42.1,110,134.1,35.9,1.4,139.0,101.0,2.2,0,5,10,0,2026-06-23T18:05:01.405512+05:30
Indore,Madhya Pradesh,22.7196,75.8577,30.3,57,0.0,942.1,6.7,38.2,59,27.4,18.1,5.4,258.0,88.0,3.0,0,5,7,1,2026-06-23T18:05:01.405524+05:30
Bhopal,Madhya Pradesh,23.2599,77.4126,29.7,65,0.0,947.2,5.85,38.2,58,25.8,16.6,5.4,250.0,78.0,2.2,7,5,3,1,2026-06-23T18:05:01.405536+05:30
Jabalpur,Madhya Pradesh,23.1815,79.9864,27.1,92,0.1,955.3,7.1,34.6,72,44.0,22.2,1.9,197.0,112.0,3.8,10,5,7,1,2026-06-23T18:05:01.405547+05:30
Ujjain,Madhya Pradesh,23.1765,75.7885,29.4,63,0.1,947.5,7.8,35.6,64,49.2,24.3,1.9,183.0,97.0,3.3,10,5,7,1,2026-06-23T18:05:01.405559+05:30
Visakhapatnam,Andhra Pradesh,17.6868,83.2185,30.2,76,0.0,997.1,8.6,32.4,84,21.5,21.3,33.8,378.0,42.0,52.8,3,5,7,1,2026-06-23T18:05:01.405570+05:30
Vijayawada,Andhra Pradesh,16.5062,80.648,33.3,57,0.0,996.3,8.65,38.5,75,11.8,10.6,5.2,179.0,81.0,5.1,0,5,7,1,2026-06-23T18:05:01.405581+05:30
Guntur,Andhra Pradesh,16.3067,80.4365,31.8,67,0.0,997.8,8.4,39.2,66,9.2,8.1,4.0,179.0,77.0,5.1,3,5,7,1,2026-06-23T18:05:01.405593+05:30
Nellore,Andhra Pradesh,14.4426,79.9865,30.4,73,0.1,1001.0,8.9,37.1,41,12.4,9.8,3.9,165.0,93.0,3.6,6,5,4,1,2026-06-23T18:05:01.405605+05:30
Kurnool,Andhra Pradesh,15.8281,78.0373,28.9,71,0.0,972.6,8.45,46.1,28,5.1,4.1,2.5,134.0,71.0,1.6,7,5,7,1,2026-06-23T18:05:01.405618+05:30
Kakinada,Andhra Pradesh,16.9891,82.2475,30.4,78,0.0,1001.3,8.35,42.1,66,16.1,15.4,7.0,231.0,112.0,8.0,3,5,4,1,2026-06-23T18:05:01.405628+05:30
Tirupati,Andhra Pradesh,13.6288,79.4192,26.9,89,0.3,987.8,8.35,37.8,35,11.4,10.4,18.3,194.0,50.0,1.8,10,5,7,1,2026-06-23T18:05:01.405639+05:30
Warangal,Telangana,17.9689,79.5941,29.9,71,0.0,973.3,8.3,37.1,49,10.6,8.8,2.7,204.0,100.0,2.7,7,5,7,1,2026-06-23T18:05:01.405650+05:30
Nizamabad,Telangana,18.6725,78.0941,24.9,95,0.4,959.8,7.6,59.0,39,6.4,5.2,1.9,153.0,79.0,1.5,6,5,7,1,2026-06-23T18:05:01.405661+05:30
Mysore,Karnataka,12.2958,76.6396,24.1,81,0.0,926.8,8.35,47.2,31,5.7,4.3,5.6,142.0,60.0,1.3,3,5,7,1,2026-06-23T18:05:01.405672+05:30
Mangalore,Karnataka,12.9141,74.856,25.3,94,0.3,1006.3,8.4,36.7,28,13.5,7.7,3.9,149.0,49.0,1.2,10,5,4,1,2026-06-23T18:05:01.405682+05:30
Hubli-Dharwad,Karnataka,15.3647,75.124,24.5,82,0.1,937.6,7.4,63.4,25,1.7,1.3,3.7,122.0,49.0,0.7,6,5,7,1,2026-06-23T18:05:01.405694+05:30
Belgaum,Karnataka,15.8497,74.4977,21.5,99,0.2,922.0,8.05,51.5,24,4.0,2.8,4.6,148.0,44.0,1.0,6,5,7,1,2026-06-23T18:05:04.636996+05:30
Coimbatore,Tamil Nadu,11.0168,76.9558,25.9,81,0.0,960.1,7.8,51.5,31,6.7,5.1,4.1,182.0,57.0,1.7,7,5,7,1,2026-06-23T18:05:04.637038+05:30
Madurai,Tamil Nadu,9.9252,78.1198,33.3,45,0.0,990.1,8.2,44.6,64,11.6,8.1,6.1,231.0,82.0,2.3,0,5,7,1,2026-06-23T18:05:04.637049+05:30
Trichy,Tamil Nadu,10.7905,78.7047,30.3,72,0.0,996.5,7.85,52.9,36,7.9,5.6,4.0,181.0,74.0,1.8,3,5,7,1,2026-06-23T18:05:04.637060+05:30
Salem,Tamil Nadu,11.6643,78.146,28.2,78,0.0,975.0,8.5,43.9,42,10.9,7.9,5.5,191.0,86.0,4.8,7,5,7,1,2026-06-23T18:05:04.637069+05:30
Tirunelveli,Tamil Nadu,8.7139,77.7567,31.3,56,0.0,1001.5,5.9,43.9,34,10.0,7.0,2.9,120.0,72.0,1.4,0,5,0,1,2026-06-23T18:05:04.637078+05:30
Vellore,Tamil Nadu,12.9165,79.1325,28.4,80,0.1,981.3,8.35,41.4,41,9.3,7.8,8.4,216.0,76.0,2.3,10,5,7,1,2026-06-23T18:05:04.637086+05:30
Erode,Tamil Nadu,11.341,77.7172,28.7,79,0.0,986.7,7.9,32.8,38,9.3,6.8,4.9,178.0,77.0,2.1,7,5,7,1,2026-06-23T18:05:04.637094+05:30
Kochi,Kerala,9.9312,76.2673,27.0,82,0.0,1008.7,8.2,37.4,42,13.3,8.6,4.6,132.0,60.0,2.5,7,0,4,1,2026-06-23T18:05:04.637103+05:30
Thiruvananthapuram,Kerala,8.5241,76.9366,27.0,83,0.0,1007.9,8.1,46.8,30,14.6,8.0,2.0,110.0,57.0,0.8,7,5,4,1,2026-06-23T18:05:04.637110+05:30
Kozhikode,Kerala,11.2588,75.7804,25.1,95,0.1,1007.9,7.25,35.6,27,11.1,6.3,1.0,139.0,57.0,0.5,10,5,4,1,2026-06-23T18:05:04.637118+05:30
Thrissur,Kerala,10.5276,76.2144,24.6,96,0.1,1007.4,7.55,35.3,39,10.8,7.2,3.2,166.0,55.0,1.5,6,5,4,1,2026-06-23T18:05:04.637126+05:30
Kannur,Kerala,11.8745,75.3704,25.3,94,0.3,1007.1,3.8,34.9,25,9.5,6.0,4.2,139.0,48.0,0.9,10,5,0,1,2026-06-23T18:05:04.637133+05:30
Patna,Bihar,25.5941,85.1376,35.0,50,0.0,990.1,8.6,32.0,154,90.8,47.4,12.8,314.0,131.0,8.1,0,5,7,1,2026-06-23T18:05:04.637141+05:30
Gaya,Bihar,24.7914,85.0002,34.6,49,0.0,984.3,8.9,37.4,112,109.9,45.6,7.6,295.0,119.0,6.6,0,5,7,1,2026-06-23T18:05:04.637148+05:30
Muzaffarpur,Bihar,26.1209,85.3647,33.7,70,0.0,990.0,8.85,26.3,168,92.9,53.2,15.0,319.0,127.0,8.7,3,5,7,1,2026-06-23T18:05:04.637155+05:30
Bhagalpur,Bihar,25.2425,87.0117,33.6,67,0.0,991.5,8.85,22.3,145,136.9,58.8,7.4,304.0,162.0,15.2,3,5,7,1,2026-06-23T18:05:04.637162+05:30
Ranchi,Jharkhand,23.3441,85.3096,30.1,60,0.0,931.0,8.95,37.8,87,65.9,31.7,5.0,241.0,119.0,6.5,0,5,7,1,2026-06-23T18:05:04.637169+05:30
Jamshedpur,Jharkhand,22.8046,86.2029,29.5,77,0.0,983.1,9.05,43.2,149,52.4,41.8,9.2,351.0,153.0,21.1,7,5,7,1,2026-06-23T18:05:04.637177+05:30
Dhanbad,Jharkhand,23.7957,86.4304,32.9,57,0.0,971.4,9.0,27.0,154,118.0,52.3,23.0,203.0,109.0,41.3,0,5,7,1,2026-06-23T18:05:04.637184+05:30
Bokaro,Jharkhand,23.6693,86.1511,34.0,52,0.0,975.1,8.85,29.9,137,123.4,49.7,17.2,272.0,126.0,46.1,0,5,7,1,2026-06-23T18:05:04.637191+05:30
Bhubaneswar,Odisha,20.2961,85.8245,30.0,76,0.0,995.7,6.3,33.1,77,22.4,20.2,9.0,389.0,92.0,4.3,7,5,7,1,2026-06-23T18:05:04.637198+05:30
Cuttack,Odisha,20.4625,85.8828,30.5,76,0.0,997.3,7.25,36.7,77,22.4,20.2,9.0,384.0,92.0,4.3,3,5,7,1,2026-06-23T18:05:04.637205+05:30
Rourkela,Odisha,22.2604,84.8536,28.2,86,0.1,978.1,8.95,38.5,139,53.9,43.2,5.9,382.0,177.0,16.2,10,5,7,1,2026-06-23T18:05:04.637212+05:30
Raipur,Chhattisgarh,21.2514,81.6296,33.7,48,0.0,968.4,8.9,45.0,90,23.3,22.8,23.2,298.0,102.0,50.5,0,5,7,1,2026-06-23T18:05:04.637219+05:30
Bhilai,Chhattisgarh,21.1938,81.3509,32.3,56,0.0,968.9,8.9,44.3,78,20.5,19.8,22.0,763.0,97.0,47.2,0,5,7,1,2026-06-23T18:05:04.637226+05:30
Guwahati,Assam,26.1158,91.7086,26.8,94,0.0,993.5,8.75,29.9,74,15.3,13.6,6.2,348.0,85.0,2.3,7,5,7,1,2026-06-23T18:05:04.637233+05:30
Agartala,Tripura,23.8315,91.2868,28.9,83,0.0,998.8,8.05,38.2,99,28.9,25.3,10.6,209.0,100.0,3.8,7,5,7,1,2026-06-23T18:05:04.637240+05:30
Shillong,Meghalaya,25.5788,91.8933,21.4,89,0.0,851.9,7.9,29.2,54,12.3,9.7,7.1,238.0,94.0,2.1,3,5,7,1,2026-06-23T18:05:04.637247+05:30
Imphal,Manipur,24.817,93.9368,23.6,96,0.4,917.3,8.65,29.2,65,8.3,7.1,5.9,259.0,76.0,1.5,6,5,7,1,2026-06-23T18:05:04.637254+05:30
Aizawl,Mizoram,23.7271,92.7176,20.7,97,0.0,886.7,8.3,28.1,42,2.8,2.7,3.0,162.0,84.0,0.9,3,5,7,1,2026-06-23T18:05:04.637261+05:30
Kohima,Nagaland,25.6701,94.1077,20.7,97,0.0,850.2,8.3,22.3,51,9.8,7.6,5.5,211.0,72.0,0.9,3,5,7,1,2026-06-23T18:05:04.637268+05:30
Gangtok,Sikkim,27.3314,88.6138,18.9,97,0.3,831.6,9.1,34.9,102,4.1,3.4,4.0,341.0,129.0,3.8,6,10,7,1,2026-06-23T18:05:04.637275+05:30
Siliguri,West Bengal,26.7271,88.3953,28.6,79,0.1,983.9,8.75,20.9,96,29.5,19.7,7.8,762.0,135.0,7.2,10,5,7,1,2026-06-23T18:05:07.863032+05:30
Durgapur,West Bengal,23.5204,87.3119,28.2,92,0.0,987.1,9.0,29.2,169,106.2,80.1,26.9,582.0,161.0,55.8,7,5,7,1,2026-06-23T18:05:07.863073+05:30
Asansol,West Bengal,23.6739,86.9524,31.6,71,0.0,985.1,9.05,30.6,155,103.8,59.1,26.7,421.0,109.0,30.6,3,5,7,1,2026-06-23T18:05:07.863086+05:30
Pondicherry,Puducherry,11.9139,79.8145,30.1,76,0.1,1004.5,7.15,40.3,71,31.7,24.6,14.6,233.0,120.0,8.1,6,5,4,1,2026-06-23T18:05:07.863095+05:30
Port Blair,Andaman and Nicobar Islands,11.6234,92.7265,27.9,82,0.0,1005.1,8.75,45.0,24,11.3,6.7,0.4,95.0,40.0,0.4,7,5,4,1,2026-06-23T18:05:07.863104+05:30
Haridwar,Uttarakhand,29.9457,78.1642,33.8,45,0.0,964.7,7.6,28.4,156,58.3,25.7,3.1,270.0,175.0,9.1,0,5,7,1,2026-06-23T18:05:07.863112+05:30
Rishikesh,Uttarakhand,30.0869,78.2676,32.3,50,0.0,957.8,7.7,23.4,133,25.4,19.8,1.7,234.0,170.0,7.1,0,5,7,1,2026-06-23T18:05:07.863120+05:30
Nainital,Uttarakhand,29.3919,79.4542,18.5,76,0.0,801.7,7.35,33.8,127,20.4,16.9,1.8,256.0,151.0,4.4,3,5,7,0,2026-06-23T18:05:07.863128+05:30
Mussoorie,Uttarakhand,30.4599,78.0664,17.7,94,0.0,798.4,8.1,40.0,146,25.0,20.5,2.7,238.0,170.0,6.8,3,10,7,1,2026-06-23T18:05:07.863137+05:30
Dharamshala,Himachal Pradesh,32.219,76.3234,23.6,68,0.0,863.4,8.55,40.7,92,13.9,11.0,2.2,209.0,128.0,1.0,3,5,7,1,2026-06-23T18:05:07.863144+05:30
Dalhousie,Himachal Pradesh,32.5387,75.971,20.7,55,0.0,801.2,8.8,37.8,125,20.9,16.2,3.0,210.0,160.0,2.2,0,5,7,0,2026-06-23T18:05:07.863153+05:30
Patiala,Punjab,30.3398,76.3869,35.6,33,0.0,969.0,7.65,32.4,180,253.3,49.1,3.5,233.0,150.0,5.8,0,5,10,1,2026-06-23T18:05:07.863161+05:30
Bhatinda,Punjab,30.211,74.9455,36.0,36,0.0,974.6,8.3,28.8,153,118.7,41.6,3.9,156.0,137.0,9.4,0,5,10,1,2026-06-23T18:05:07.863169+05:30
Rohtak,Haryana,28.8955,76.6066,35.3,39,0.0,972.7,7.8,33.1,174,380.0,68.9,6.3,179.0,119.0,4.6,0,5,10,1,2026-06-23T18:05:07.863176+05:30
Panipat,Haryana,29.3909,76.9635,35.4,36,0.0,971.1,7.65,32.4,801,1769.5,203.5,6.0,166.0,115.0,8.0,0,5,10,1,2026-06-23T18:05:07.863183+05:30
Mathura,Uttar Pradesh,27.4924,77.6737,36.5,35,0.0,977.7,8.05,39.2,212,270.1,62.2,8.7,197.0,98.0,3.0,0,5,10,1,2026-06-23T18:05:07.863191+05:30
Vrindavan,Uttar Pradesh,27.5823,77.7027,35.6,39,0.0,978.1,8.05,38.5,212,270.1,62.2,8.7,187.0,98.0,3.0,0,5,10,1,2026-06-23T18:05:07.863198+05:30
Ayodhya,Uttar Pradesh,26.7922,82.1998,34.9,42,0.0,985.1,8.4,36.0,152,113.9,37.5,3.5,193.0,134.0,5.7,0,5,7,1,2026-06-23T18:05:07.863205+05:30
Ratlam,Madhya Pradesh,23.3315,75.0367,32.8,46,0.0,948.0,7.65,34.2,63,56.0,25.7,1.3,137.0,98.0,3.0,0,5,7,1,2026-06-23T18:05:07.863212+05:30
Sagar,Madhya Pradesh,23.8388,78.7378,28.7,66,0.0,944.0,6.3,38.9,72,42.6,22.4,1.9,168.0,106.0,2.9,7,5,7,1,2026-06-23T18:05:07.863219+05:30
Satna,Madhya Pradesh,24.6005,80.8322,35.7,34,0.0,963.5,8.8,39.2,93,79.6,35.2,1.4,146.0,112.0,3.2,0,5,10,1,2026-06-23T18:05:07.863225+05:30
Akola,Maharashtra,20.7002,77.0082,30.6,62,0.0,968.1,8.8,37.1,45,9.1,8.5,3.2,142.0,101.0,6.9,3,5,7,1,2026-06-23T18:05:07.863235+05:30
Amravati,Maharashtra,20.9374,77.7796,31.2,64,0.0,960.8,8.7,38.9,46,8.5,8.1,4.2,148.0,94.0,6.1,3,5,7,1,2026-06-23T18:05:07.863243+05:30
Latur,Maharashtra,18.4088,76.5604,27.8,69,0.0,934.5,5.5,47.9,30,3.3,2.9,2.4,134.0,61.0,0.7,7,5,3,1,2026-06-23T18:05:07.863251+05:30
Nanded,Maharashtra,19.1383,77.3091,28.3,79,0.0,963.2,7.5,43.2,38,7.3,6.3,2.5,128.0,81.0,3.0,7,5,7,1,2026-06-23T18:05:07.863258+05:30
Gulbarga,Karnataka,17.3297,76.8343,28.6,67,0.0,953.9,6.1,64.4,30,2.9,2.5,5.1,161.0,59.0,1.6,7,5,7,1,2026-06-23T18:05:07.863265+05:30
Bidar,Karnataka,17.9104,77.5199,27.3,73,0.0,930.7,7.7,59.0,36,5.4,4.7,3.7,144.0,78.0,1.2,7,5,7,1,2026-06-23T18:05:07.863272+05:30
Hospet,Karnataka,15.2689,76.3909,28.6,60,0.0,952.3,7.7,55.4,29,4.0,2.6,3.0,113.0,57.0,1.3,4,5,7,1,2026-06-23T18:05:07.863279+05:30
Tirupur,Tamil Nadu,11.1085,77.3411,27.8,71,0.0,973.0,7.9,51.1,36,9.3,6.9,4.7,152.0,72.0,2.4,7,5,7,1,2026-06-23T18:05:07.863286+05:30
Alappuzha,Kerala,9.4981,76.3388,27.0,84,0.0,1008.7,6.1,38.9,34,15.1,9.1,4.1,88.0,59.0,2.0,7,0,4,1,2026-06-23T18:05:07.863293+05:30
Munnar,Kerala,10.0889,77.0595,17.7,97,0.1,856.0,8.8,41.0,29,7.3,5.4,4.5,105.0,56.0,1.3,6,10,7,1,2026-06-23T18:05:07.863300+05:30
Silchar,Assam,24.8333,92.7789,28.1,87,0.6,997.3,8.8,23.4,76,15.9,12.9,4.6,254.0,81.0,2.8,10,5,7,1,2026-06-23T18:05:07.863307+05:30
Dibrugarh,Assam,27.4728,94.912,28.5,86,0.1,987.2,7.7,20.5,76,28.6,20.8,5.1,302.0,109.0,1.7,10,5,7,1,2026-06-23T18:05:07.863313+05:30
