city,state,latitude,longitude,temp,humidity,rain,pressure,uv_index,wind_gusts,aqi,pm10,pm2_5,no2,co,o3,so2,mosquito_risk,arthritis_risk,migraine_risk,frizz_risk,updated_at
Delhi,Delhi,28.6139,77.209,36.8,29,0.0,977.5,7.75,32.4,165,360.4,84.3,37.1,449.0,91.0,17.5,0,5,10,0,2026-06-06T20:13:03.297986+05:30
Mumbai,Maharashtra,19.076,72.8777,31.3,69,0.0,1006.1,7.2,39.6,75,42.6,19.5,8.7,187.0,51.0,5.8,3,5,4,1,2026-06-06T20:13:03.298035+05:30
Bangalore,Karnataka,12.9716,77.5946,23.1,81,0.0,911.2,8.4,51.5,32,7.5,7.1,21.6,477.0,42.0,4.6,3,5,7,1,2026-06-06T20:13:03.298051+05:30
Hyderabad,Telangana,17.385,78.4867,32.5,43,0.0,950.5,9.05,37.8,92,67.8,43.1,31.8,418.0,69.0,10.1,0,5,7,1,2026-06-06T20:13:03.298062+05:30
Chennai,Tamil Nadu,13.0827,80.2707,34.6,54,0.0,1003.6,8.5,42.1,76,21.8,15.7,9.0,362.0,93.0,6.5,0,5,4,1,2026-06-06T20:13:03.298072+05:30
Kolkata,West Bengal,22.5726,88.3639,29.5,92,0.0,1001.2,9.0,29.5,127,42.6,37.7,13.3,856.0,69.0,9.2,7,5,4,1,2026-06-06T20:13:03.298082+05:30
Pune,Maharashtra,18.5204,73.8567,27.0,73,0.0,946.5,8.35,46.8,51,18.4,11.2,9.8,163.0,61.0,6.0,7,5,7,1,2026-06-06T20:13:03.298090+05:30
Ahmedabad,Gujarat,23.0225,72.5714,35.9,48,0.0,996.7,8.1,34.2,92,70.3,31.5,16.0,172.0,65.0,6.4,0,5,10,1,2026-06-06T20:13:03.298098+05:30
Jaipur,Rajasthan,26.9124,75.7873,30.5,52,0.0,955.4,8.25,32.8,111,138.8,52.6,35.3,292.0,45.0,11.0,0,5,7,1,2026-06-06T20:13:03.298111+05:30
Lucknow,Uttar Pradesh,26.8467,80.9462,34.9,39,0.0,987.9,8.3,27.7,161,78.5,56.1,24.0,394.0,111.0,13.5,0,5,7,1,2026-06-06T20:13:03.298119+05:30
Kanpur,Uttar Pradesh,26.4499,80.3319,35.7,34,0.0,986.0,8.3,36.0,206,304.5,77.8,23.3,307.0,107.0,13.0,0,5,10,1,2026-06-06T20:13:03.298126+05:30
Chandigarh,Chandigarh,30.7333,76.7794,29.3,47,0.0,963.0,7.8,31.3,173,32.9,27.1,15.0,771.0,135.0,11.2,4,5,7,1,2026-06-06T20:13:03.298134+05:30
Srinagar,Jammu and Kashmir,34.0837,74.7973,20.6,62,0.0,840.8,9.0,25.9,100,14.2,12.2,16.9,1067.0,88.0,2.4,3,5,7,0,2026-06-06T20:13:03.298142+05:30
Jammu,Jammu and Kashmir,32.7266,74.857,32.0,33,0.0,967.1,8.6,29.5,132,40.4,28.6,30.2,328.0,107.0,5.3,0,5,7,0,2026-06-06T20:13:03.298150+05:30
Amritsar,Punjab,31.634,74.8723,35.3,30,0.0,974.8,8.45,22.0,179,51.2,42.5,33.2,586.0,108.0,10.8,0,5,10,0,2026-06-06T20:13:03.298157+05:30
Ludhiana,Punjab,30.901,75.8573,34.3,32,0.0,972.8,8.05,30.6,155,58.9,35.9,19.1,306.0,109.0,6.5,0,5,7,0,2026-06-06T20:13:03.298164+05:30
Jalandhar,Punjab,31.326,75.5762,34.2,29,0.0,973.9,8.25,24.5,162,53.0,35.7,22.7,549.0,121.0,8.0,0,5,7,0,2026-06-06T20:13:03.298171+05:30
Dehradun,Uttarakhand,30.6284,78.0322,18.8,56,0.0,827.5,8.25,33.1,131,23.6,17.0,16.7,270.0,122.0,5.1,0,5,7,0,2026-06-06T20:13:03.298178+05:30
Shimla,Himachal Pradesh,31.1048,77.1734,16.4,46,0.0,782.4,8.35,41.8,113,19.5,11.2,8.2,262.0,126.0,3.5,0,5,7,0,2026-06-06T20:13:03.298194+05:30
Manali,Himachal Pradesh,32.2396,77.1887,17.1,55,0.0,816.6,9.9,37.1,145,10.2,8.6,51.3,191.0,104.0,0.4,0,5,7,0,2026-06-06T20:13:03.298201+05:30
Gurgaon,Haryana,28.4595,77.0266,33.5,45,0.0,975.9,7.85,32.8,258,439.6,97.1,39.1,862.0,84.0,15.0,0,5,7,1,2026-06-06T20:13:03.298208+05:30
Noida,Uttar Pradesh,28.5355,77.391,32.5,48,0.0,978.8,7.8,19.8,258,439.6,97.1,39.1,1489.0,84.0,15.0,0,5,7,1,2026-06-06T20:13:03.298217+05:30
Ghaziabad,Uttar Pradesh,28.6692,77.4538,31.5,58,0.0,977.0,7.8,28.8,182,232.8,74.3,30.5,586.0,113.0,20.6,0,5,7,1,2026-06-06T20:13:03.298224+05:30
Faridabad,Haryana,28.4089,77.3178,34.7,34,0.0,978.2,7.85,23.8,258,439.6,97.1,39.1,889.0,84.0,15.0,0,5,7,1,2026-06-06T20:13:03.298231+05:30
Meerut,Uttar Pradesh,28.9845,77.7064,32.2,51,0.0,975.7,7.7,25.9,182,232.8,74.3,30.5,418.0,113.0,20.6,0,5,7,1,2026-06-06T20:13:03.298238+05:30
Agra,Uttar Pradesh,27.1767,78.0081,33.9,38,0.0,982.1,8.1,31.0,451,294.3,72.6,30.6,277.0,73.0,10.9,0,5,7,1,2026-06-06T20:13:03.298244+05:30
Varanasi,Uttar Pradesh,25.3176,82.9739,34.2,44,0.0,992.0,8.8,32.0,159,96.4,61.5,23.5,608.0,101.0,13.7,0,5,7,1,2026-06-06T20:13:03.298251+05:30
Prayagraj,Uttar Pradesh,25.4358,81.8463,34.3,43,0.0,990.4,8.7,40.3,152,183.0,78.0,26.7,487.0,100.0,17.6,0,5,7,1,2026-06-06T20:13:03.298259+05:30
Gorakhpur,Uttar Pradesh,26.7606,83.3732,30.3,69,0.0,991.8,8.7,36.7,164,100.1,61.2,23.5,484.0,87.0,9.6,3,5,7,1,2026-06-06T20:13:03.298268+05:30
Bareilly,Uttar Pradesh,28.367,79.4304,31.1,54,0.0,980.9,8.1,25.9,156,95.7,48.3,17.4,376.0,120.0,12.4,0,5,7,1,2026-06-06T20:13:03.298275+05:30
Aligarh,Uttar Pradesh,27.8974,78.088,32.3,49,0.0,979.9,7.95,26.3,198,314.8,89.6,32.2,451.0,119.0,17.9,0,5,7,1,2026-06-06T20:13:03.298282+05:30
Moradabad,Uttar Pradesh,28.8386,78.7733,32.5,49,0.0,977.9,7.9,28.8,163,177.9,75.9,38.7,486.0,93.0,16.9,0,5,7,1,2026-06-06T20:13:03.298289+05:30
Saharanpur,Uttar Pradesh,29.9637,77.546,30.7,42,0.0,969.7,7.5,28.1,166,122.5,47.1,20.6,540.0,121.0,14.6,0,5,7,1,2026-06-06T20:13:03.298295+05:30
Jhansi,Uttar Pradesh,25.4484,78.5685,33.1,49,0.0,972.9,8.45,35.3,73,62.6,28.5,10.6,262.0,89.0,7.1,0,5,7,1,2026-06-06T20:13:06.569988+05:30
Surat,Gujarat,21.1702,72.8311,30.8,74,0.0,1003.1,7.6,44.6,90,47.5,24.9,17.7,219.0,37.0,32.3,3,5,4,1,2026-06-06T20:13:06.570021+05:30
Vadodara,Gujarat,22.3072,73.1812,33.6,54,0.0,999.7,8.0,40.7,86,72.9,37.1,9.6,149.0,81.0,13.1,0,5,7,1,2026-06-06T20:13:06.570032+05:30
Rajkot,Gujarat,22.3039,70.8022,33.4,57,0.0,990.0,7.55,46.1,83,45.6,20.4,2.9,116.0,76.0,4.3,0,5,7,1,2026-06-06T20:13:06.570041+05:30
Thane,Maharashtra,19.2183,72.9781,31.7,66,0.0,1005.4,7.6,40.3,75,42.6,19.5,8.7,172.0,51.0,5.8,3,5,4,1,2026-06-06T20:13:06.570050+05:30
Nagpur,Maharashtra,21.1458,79.0882,36.8,28,0.0,968.7,8.35,42.8,87,28.5,16.0,9.2,215.0,101.0,11.5,0,5,10,0,2026-06-06T20:13:06.570059+05:30
Nashik,Maharashtra,19.9975,73.7898,28.7,59,0.0,943.6,8.05,41.0,62,43.8,19.8,2.9,138.0,65.0,1.2,4,5,7,1,2026-06-06T20:13:06.570068+05:30
Aurangabad,Maharashtra,19.8762,75.3433,34.7,27,0.0,941.1,8.95,41.0,64,43.0,20.8,5.0,152.0,90.0,2.4,0,5,7,0,2026-06-06T20:13:06.570076+05:30
Solapur,Maharashtra,17.6599,75.9064,31.0,49,0.0,954.6,8.95,47.2,68,46.4,27.3,10.1,249.0,87.0,4.0,0,5,7,1,2026-06-06T20:13:06.570084+05:30
Kolhapur,Maharashtra,16.705,74.2433,24.9,86,0.0,947.2,7.95,47.2,41,11.9,9.0,7.8,146.0,59.0,2.5,3,5,7,1,2026-06-06T20:13:06.570092+05:30
Goa,Goa,15.2993,74.124,26.5,98,0.0,997.4,7.0,29.5,32,13.2,9.3,5.4,202.0,50.0,1.1,7,5,7,1,2026-06-06T20:13:06.570101+05:30
Jodhpur,Rajasthan,26.2389,73.0243,34.3,47,0.0,978.0,8.45,33.8,124,172.3,42.6,5.2,154.0,82.0,2.4,0,5,7,1,2026-06-06T20:13:06.570109+05:30
Udaipur,Rajasthan,24.5854,73.7125,32.2,46,0.0,942.8,8.85,32.4,95,61.0,30.7,3.3,155.0,96.0,4.8,0,5,7,1,2026-06-06T20:13:06.570118+05:30
Kota,Rajasthan,25.2138,75.8648,31.2,53,0.0,974.1,8.4,42.5,81,84.8,37.1,11.9,250.0,84.0,5.0,0,5,7,1,2026-06-06T20:13:06.570126+05:30
Bikaner,Rajasthan,28.0229,73.3119,38.1,23,0.0,975.5,8.5,28.4,105,121.1,44.0,2.9,203.0,86.0,3.1,0,5,10,0,2026-06-06T20:13:06.570135+05:30
Ajmer,Rajasthan,26.4499,74.6399,32.4,49,0.0,950.0,8.35,36.0,100,153.2,49.6,9.3,166.0,74.0,3.9,0,5,7,1,2026-06-06T20:13:06.570143+05:30
Gwalior,Madhya Pradesh,26.2183,78.1828,34.1,41,0.0,977.9,8.25,32.4,158,77.5,32.2,9.1,196.0,85.0,4.8,0,5,7,1,2026-06-06T20:13:06.570152+05:30
Indore,Madhya Pradesh,22.7196,75.8577,32.1,49,0.0,944.5,8.6,33.8,90,53.3,31.1,11.7,419.0,82.0,6.1,0,5,7,1,2026-06-06T20:13:06.570159+05:30
Bhopal,Madhya Pradesh,23.2599,77.4126,27.1,74,0.1,950.2,8.7,38.9,89,43.3,28.7,10.3,341.0,70.0,4.4,10,5,7,1,2026-06-06T20:13:06.570168+05:30
Jabalpur,Madhya Pradesh,23.1815,79.9864,31.7,48,0.0,957.0,8.35,39.6,92,107.6,38.2,10.8,228.0,100.0,5.4,0,5,7,1,2026-06-06T20:13:06.570176+05:30
Ujjain,Madhya Pradesh,23.1765,75.7885,32.0,48,0.0,950.0,8.6,33.5,89,58.9,31.2,3.7,283.0,94.0,4.9,0,5,7,1,2026-06-06T20:13:06.570184+05:30
Visakhapatnam,Andhra Pradesh,17.6868,83.2185,32.2,66,0.0,999.0,8.6,35.6,161,52.4,41.3,30.0,326.0,95.0,40.6,3,5,7,1,2026-06-06T20:13:06.570192+05:30
Vijayawada,Andhra Pradesh,16.5062,80.648,32.9,58,0.0,998.3,8.8,33.1,105,60.8,46.0,10.0,238.0,102.0,6.9,0,5,7,1,2026-06-06T20:13:06.570200+05:30
Guntur,Andhra Pradesh,16.3067,80.4365,33.6,56,0.0,999.6,9.0,32.8,97,65.7,47.4,10.1,249.0,100.0,6.1,0,5,7,1,2026-06-06T20:13:06.570208+05:30
Nellore,Andhra Pradesh,14.4426,79.9865,28.1,89,0.3,1003.5,8.45,37.8,80,26.7,21.7,5.1,191.0,104.0,3.4,10,5,4,1,2026-06-06T20:13:06.570217+05:30
Kurnool,Andhra Pradesh,15.8281,78.0373,26.5,89,0.0,974.9,5.95,44.6,108,33.9,24.7,10.1,210.0,107.0,12.0,7,5,3,1,2026-06-06T20:13:06.570225+05:30
Kakinada,Andhra Pradesh,16.9891,82.2475,32.1,70,0.0,1002.7,8.7,38.5,119,29.9,21.8,3.6,280.0,113.0,3.9,3,5,4,1,2026-06-06T20:13:06.570233+05:30
Tirupati,Andhra Pradesh,13.6288,79.4192,27.6,77,0.0,988.8,8.6,35.3,46,8.1,7.3,8.7,261.0,67.0,1.6,7,5,7,1,2026-06-06T20:13:06.570241+05:30
Warangal,Telangana,17.9689,79.5941,32.7,54,0.0,974.5,9.05,44.6,95,58.8,39.9,21.3,475.0,75.0,8.0,0,5,7,1,2026-06-06T20:13:06.570248+05:30
Nizamabad,Telangana,18.6725,78.0941,32.0,47,0.0,960.8,9.05,42.5,90,46.6,27.4,13.8,259.0,83.0,4.5,0,5,7,1,2026-06-06T20:13:06.570256+05:30
Mysore,Karnataka,12.2958,76.6396,22.3,95,0.1,927.9,6.45,55.1,31,4.1,4.1,12.4,213.0,41.0,1.9,6,5,7,1,2026-06-06T20:13:06.570264+05:30
Mangalore,Karnataka,12.9141,74.856,24.9,99,0.3,1006.5,1.45,27.4,25,10.5,9.3,12.4,282.0,40.0,2.4,6,5,0,1,2026-06-06T20:13:06.570272+05:30
Hubli-Dharwad,Karnataka,15.3647,75.124,24.7,85,0.0,939.9,8.4,37.8,36,3.5,3.3,8.2,156.0,55.0,1.1,3,5,7,1,2026-06-06T20:13:06.570280+05:30
Belgaum,Karnataka,15.8497,74.4977,23.1,96,0.1,924.7,8.95,42.5,36,6.0,4.9,7.3,136.0,57.0,2.1,6,5,7,1,2026-06-06T20:13:09.827299+05:30
Coimbatore,Tamil Nadu,11.0168,76.9558,23.5,92,0.0,961.4,8.9,47.5,24,3.2,3.0,7.3,220.0,37.0,2.1,3,5,7,1,2026-06-06T20:13:09.827331+05:30
Madurai,Tamil Nadu,9.9252,78.1198,30.5,54,0.0,992.3,8.75,67.7,35,9.0,4.9,5.3,133.0,57.0,1.9,0,5,7,1,2026-06-06T20:13:09.827343+05:30
Trichy,Tamil Nadu,10.7905,78.7047,30.4,54,0.0,998.4,8.85,60.5,37,9.1,6.0,8.1,156.0,45.0,2.7,0,5,7,1,2026-06-06T20:13:09.827352+05:30
Salem,Tamil Nadu,11.6643,78.146,29.1,56,0.0,976.9,8.65,54.0,40,6.7,5.8,11.1,260.0,59.0,6.6,4,5,7,1,2026-06-06T20:13:09.827360+05:30
Tirunelveli,Tamil Nadu,8.7139,77.7567,30.0,61,0.0,1003.1,8.7,46.8,26,6.5,4.5,5.2,143.0,43.0,1.1,7,5,4,1,2026-06-06T20:13:09.827369+05:30
Vellore,Tamil Nadu,12.9165,79.1325,32.4,47,0.0,982.1,8.95,39.6,40,9.2,9.1,11.6,199.0,59.0,3.2,0,5,7,1,2026-06-06T20:13:09.827377+05:30
Erode,Tamil Nadu,11.341,77.7172,27.5,70,0.0,988.6,8.8,60.5,33,4.0,3.7,8.8,176.0,44.0,2.4,7,5,7,1,2026-06-06T20:13:09.827385+05:30
Kochi,Kerala,9.9312,76.2673,26.5,90,0.1,1010.2,7.85,44.3,48,16.9,11.0,12.2,156.0,33.0,2.9,10,0,4,1,2026-06-06T20:13:09.827392+05:30
Thiruvananthapuram,Kerala,8.5241,76.9366,26.8,86,0.0,1009.3,8.3,46.1,25,13.2,6.0,2.0,120.0,49.0,0.5,7,0,4,1,2026-06-06T20:13:09.827400+05:30
Kozhikode,Kerala,11.2588,75.7804,24.9,97,0.5,1008.9,2.0,28.4,25,7.4,3.8,1.2,208.0,57.0,0.4,6,0,0,1,2026-06-06T20:13:09.827408+05:30
Thrissur,Kerala,10.5276,76.2144,24.7,98,0.1,1008.5,6.8,34.9,46,14.1,9.6,10.8,261.0,30.0,2.1,6,0,4,1,2026-06-06T20:13:09.827416+05:30
Kannur,Kerala,11.8745,75.3704,25.3,95,0.5,1007.4,0.8,31.7,23,6.1,4.9,9.5,255.0,44.0,1.3,10,5,0,1,2026-06-06T20:13:09.827424+05:30
Patna,Bihar,25.5941,85.1376,31.2,74,0.0,995.4,8.9,27.4,203,84.1,71.5,11.4,465.0,157.0,11.9,3,5,7,1,2026-06-06T20:13:09.827432+05:30
Gaya,Bihar,24.7914,85.0002,32.0,63,0.0,988.8,8.7,22.0,171,87.8,75.7,12.1,364.0,117.0,9.8,3,5,7,1,2026-06-06T20:13:09.827439+05:30
Muzaffarpur,Bihar,26.1209,85.3647,29.7,75,0.0,995.6,8.9,39.6,202,73.3,65.7,12.2,438.0,152.0,12.5,7,5,7,1,2026-06-06T20:13:09.827447+05:30
Bhagalpur,Bihar,25.2425,87.0117,31.4,71,0.0,996.4,8.75,31.7,207,70.8,64.7,21.3,527.0,133.0,19.8,3,5,7,1,2026-06-06T20:13:09.827454+05:30
Ranchi,Jharkhand,23.3441,85.3096,24.0,93,0.3,933.5,9.3,33.1,135,60.5,50.9,14.1,622.0,97.0,7.2,6,5,7,1,2026-06-06T20:13:09.827462+05:30
Jamshedpur,Jharkhand,22.8046,86.2029,30.4,80,0.0,986.4,9.1,34.9,201,91.5,75.2,22.0,394.0,129.0,34.7,3,5,7,1,2026-06-06T20:13:09.827469+05:30
Dhanbad,Jharkhand,23.7957,86.4304,30.1,79,0.0,975.4,8.65,27.4,210,111.5,98.5,50.2,735.0,130.0,161.9,3,5,7,1,2026-06-06T20:13:09.827477+05:30
Bokaro,Jharkhand,23.6693,86.1511,29.0,85,0.0,979.3,8.5,30.6,188,97.6,85.0,42.5,1438.0,116.0,144.4,7,5,7,1,2026-06-06T20:13:09.827484+05:30
Bhubaneswar,Odisha,20.2961,85.8245,32.0,78,0.0,997.5,8.9,29.5,150,42.7,38.1,14.5,450.0,103.0,9.0,3,5,7,1,2026-06-06T20:13:09.827492+05:30
Cuttack,Odisha,20.4625,85.8828,32.2,79,0.0,999.2,8.95,36.0,150,42.7,38.1,14.5,469.0,103.0,9.0,3,5,7,1,2026-06-06T20:13:09.827499+05:30
Rourkela,Odisha,22.2604,84.8536,28.0,82,0.0,980.8,8.4,43.9,155,91.5,64.5,13.4,1041.0,120.0,14.7,7,5,7,1,2026-06-06T20:13:09.827507+05:30
Raipur,Chhattisgarh,21.2514,81.6296,35.7,33,0.0,969.7,8.8,33.5,121,45.9,32.7,29.4,209.0,77.0,35.8,0,5,10,1,2026-06-06T20:13:09.827514+05:30
Bhilai,Chhattisgarh,21.1938,81.3509,34.5,38,0.0,970.3,8.95,43.6,111,46.2,32.9,29.6,270.0,69.0,29.6,0,5,7,1,2026-06-06T20:13:09.827523+05:30
Guwahati,Assam,26.1158,91.7086,27.8,89,0.0,997.3,8.7,26.6,88,29.0,27.2,8.2,433.0,70.0,2.4,7,5,7,1,2026-06-06T20:13:09.827531+05:30
Agartala,Tripura,23.8315,91.2868,29.7,77,0.0,1001.7,8.8,19.4,157,45.3,42.6,19.0,357.0,86.0,7.5,7,5,4,1,2026-06-06T20:13:09.827539+05:30
Shillong,Meghalaya,25.5788,91.8933,19.7,91,0.0,854.9,8.65,20.5,82,32.1,29.8,7.9,474.0,96.0,3.6,3,10,7,1,2026-06-06T20:13:09.827546+05:30
Imphal,Manipur,24.817,93.9368,24.4,82,0.0,919.8,9.05,27.7,113,41.1,37.5,16.4,544.0,60.0,4.2,3,5,7,1,2026-06-06T20:13:09.827555+05:30
Aizawl,Mizoram,23.7271,92.7176,22.4,86,0.0,889.8,8.45,22.3,113,47.3,40.3,7.3,224.0,86.0,3.8,3,5,7,1,2026-06-06T20:13:09.827562+05:30
Kohima,Nagaland,25.6701,94.1077,19.9,96,0.1,853.3,9.2,25.9,70,27.1,24.3,12.2,411.0,65.0,1.9,6,10,7,1,2026-06-06T20:13:09.827571+05:30
Gangtok,Sikkim,27.3314,88.6138,18.2,89,0.7,835.6,9.1,33.8,108,24.8,21.5,10.7,440.0,123.0,3.5,6,10,7,1,2026-06-06T20:13:09.827579+05:30
Siliguri,West Bengal,26.7271,88.3953,27.3,84,0.0,988.7,8.75,21.2,131,62.6,55.2,17.7,1255.0,128.0,9.1,7,5,7,1,2026-06-06T20:13:13.109611+05:30
Durgapur,West Bengal,23.5204,87.3119,29.2,89,0.0,990.4,9.05,36.7,197,82.4,74.5,27.4,488.0,122.0,36.8,7,5,7,1,2026-06-06T20:13:13.109648+05:30
Asansol,West Bengal,23.6739,86.9524,29.8,84,0.0,988.8,9.05,27.4,207,86.1,76.1,29.9,895.0,127.0,40.5,7,5,7,1,2026-06-06T20:13:13.109660+05:30
Pondicherry,Puducherry,11.9139,79.8145,32.9,48,0.0,1005.5,8.7,50.4,61,17.5,14.0,16.4,274.0,72.0,6.5,0,5,4,1,2026-06-06T20:13:13.109669+05:30
Port Blair,Andaman and Nicobar Islands,11.6234,92.7265,26.6,93,0.1,1007.6,7.85,42.1,27,8.7,5.5,0.5,107.0,57.0,0.4,10,5,4,1,2026-06-06T20:13:13.109679+05:30
Haridwar,Uttarakhand,29.9457,78.1642,30.2,58,0.0,968.2,7.6,26.3,167,53.6,35.0,14.8,448.0,136.0,13.4,0,5,7,1,2026-06-06T20:13:13.109688+05:30
Rishikesh,Uttarakhand,30.0869,78.2676,28.8,56,0.0,961.2,7.7,26.3,157,36.6,25.8,8.3,368.0,152.0,9.7,4,5,7,1,2026-06-06T20:13:13.109696+05:30
Nainital,Uttarakhand,29.3919,79.4542,16.5,76,0.0,802.8,8.3,25.9,154,58.7,30.4,11.9,352.0,127.0,6.5,3,5,7,0,2026-06-06T20:13:13.109705+05:30
Mussoorie,Uttarakhand,30.4599,78.0664,16.5,62,0.0,800.2,8.1,40.3,168,41.4,30.4,18.6,328.0,139.0,12.5,3,5,7,0,2026-06-06T20:13:13.109714+05:30
Dharamshala,Himachal Pradesh,32.219,76.3234,21.6,52,0.0,865.7,8.5,42.8,107,12.8,9.7,9.2,296.0,99.0,1.2,0,5,7,0,2026-06-06T20:13:13.109722+05:30
Dalhousie,Himachal Pradesh,32.5387,75.971,17.1,57,0.0,802.3,8.75,31.3,137,29.5,21.3,17.0,403.0,139.0,3.3,0,5,7,0,2026-06-06T20:13:13.109731+05:30
Patiala,Punjab,30.3398,76.3869,33.4,41,0.0,972.3,7.7,33.1,196,262.6,63.1,12.7,336.0,107.0,7.0,0,5,7,1,2026-06-06T20:13:13.109740+05:30
Bhatinda,Punjab,30.211,74.9455,35.4,29,0.0,977.7,8.35,29.5,175,85.4,51.9,26.0,289.0,119.0,17.4,0,5,10,0,2026-06-06T20:13:13.109748+05:30
Rohtak,Haryana,28.8955,76.6066,33.8,35,0.0,975.9,7.8,18.7,193,328.8,78.0,42.0,486.0,73.0,9.0,0,5,7,1,2026-06-06T20:13:13.109756+05:30
Panipat,Haryana,29.3909,76.9635,32.3,41,0.0,974.5,7.65,24.1,304,570.0,107.3,24.9,407.0,86.0,9.3,0,5,7,1,2026-06-06T20:13:13.109764+05:30
Mathura,Uttar Pradesh,27.4924,77.6737,31.6,53,0.0,981.1,8.05,24.5,303,298.0,75.2,31.4,239.0,75.0,7.0,0,5,7,1,2026-06-06T20:13:13.109772+05:30
Vrindavan,Uttar Pradesh,27.5823,77.7027,32.0,53,0.0,981.4,8.05,24.5,303,298.0,75.2,31.4,257.0,75.0,7.0,0,5,7,1,2026-06-06T20:13:13.109780+05:30
Ayodhya,Uttar Pradesh,26.7922,82.1998,30.4,74,0.0,989.9,8.45,26.6,153,122.9,65.4,24.6,627.0,94.0,11.1,3,5,7,1,2026-06-06T20:13:13.109788+05:30
Ratlam,Madhya Pradesh,23.3315,75.0367,32.0,49,0.0,951.2,8.5,38.2,87,58.7,31.1,2.5,188.0,94.0,4.4,0,5,7,1,2026-06-06T20:13:13.109796+05:30
Sagar,Madhya Pradesh,23.8388,78.7378,31.9,37,0.0,946.3,8.7,41.4,71,42.4,20.4,7.9,201.0,96.0,4.1,0,5,7,0,2026-06-06T20:13:13.109804+05:30
Satna,Madhya Pradesh,24.6005,80.8322,33.3,37,0.0,966.9,8.8,33.5,122,164.8,57.6,7.5,226.0,113.0,5.4,0,5,7,1,2026-06-06T20:13:13.109813+05:30
Akola,Maharashtra,20.7002,77.0082,31.8,54,0.0,971.4,8.8,57.6,77,50.8,27.0,5.1,188.0,94.0,4.3,0,5,7,1,2026-06-06T20:13:13.109822+05:30
Amravati,Maharashtra,20.9374,77.7796,32.5,45,0.0,964.0,8.85,43.6,79,47.3,26.3,6.0,178.0,92.0,5.0,0,5,7,1,2026-06-06T20:13:13.109856+05:30
Latur,Maharashtra,18.4088,76.5604,30.4,46,0.0,936.5,8.75,37.4,74,59.6,31.3,15.5,486.0,70.0,3.7,0,5,7,1,2026-06-06T20:13:13.109866+05:30
Nanded,Maharashtra,19.1383,77.3091,34.7,31,0.0,964.6,8.9,32.8,81,46.8,27.0,13.4,408.0,80.0,3.7,0,5,7,0,2026-06-06T20:13:13.109874+05:30
Gulbarga,Karnataka,17.3297,76.8343,29.4,62,0.0,955.8,8.95,40.7,72,35.7,21.8,18.0,197.0,77.0,4.6,7,5,7,1,2026-06-06T20:13:13.109882+05:30
Bidar,Karnataka,17.9104,77.5199,29.4,59,0.0,932.6,8.35,35.3,91,56.3,34.9,29.2,240.0,71.0,6.5,4,5,7,1,2026-06-06T20:13:13.109890+05:30
Hospet,Karnataka,15.2689,76.3909,27.3,73,0.0,954.6,8.9,35.3,37,6.7,5.3,7.2,195.0,69.0,1.6,7,5,7,1,2026-06-06T20:13:13.109898+05:30
Tirupur,Tamil Nadu,11.1085,77.3411,25.2,82,0.0,974.7,8.95,63.4,32,5.0,4.8,9.5,174.0,43.0,3.2,7,5,7,1,2026-06-06T20:13:13.109904+05:30
Alappuzha,Kerala,9.4981,76.3388,26.4,92,0.1,1010.3,8.15,43.9,39,19.0,10.2,6.7,89.0,46.0,1.6,10,0,4,1,2026-06-06T20:13:13.109912+05:30
Munnar,Kerala,10.0889,77.0595,16.9,100,0.3,856.8,8.75,47.5,25,4.6,3.7,6.3,127.0,42.0,1.4,6,10,7,1,2026-06-06T20:13:13.109920+05:30
Silchar,Assam,24.8333,92.7789,30.1,81,0.0,1000.3,8.9,20.5,142,62.4,54.7,14.0,342.0,106.0,9.0,3,5,4,1,2026-06-06T20:13:13.109928+05:30
Dibrugarh,Assam,27.4728,94.912,28.6,81,0.0,990.8,8.95,35.6,117,55.1,51.0,25.2,344.0,66.0,5.6,7,5,7,1,2026-06-06T20:13:13.109936+05:30
