city,state,latitude,longitude,temp,humidity,rain,pressure,uv_index,wind_gusts,aqi,pm10,pm2_5,no2,co,o3,so2,mosquito_risk,arthritis_risk,migraine_risk,frizz_risk,updated_at
Delhi,Delhi,28.6139,77.209,31.1,41,0.0,983.1,7.55,28.4,206,179.7,51.5,20.8,506.0,152.0,23.8,0,5,7,1,2026-05-09T20:24:22.163122+05:30
Mumbai,Maharashtra,19.076,72.8777,31.0,65,0.0,1006.3,7.85,48.2,117,45.4,23.0,14.8,325.0,96.0,9.9,3,5,4,1,2026-05-09T20:24:22.163169+05:30
Bangalore,Karnataka,12.9716,77.5946,23.6,81,0.0,911.4,9.45,44.3,49,12.0,11.9,27.7,381.0,40.0,7.2,3,5,7,1,2026-05-09T20:24:22.163201+05:30
Hyderabad,Telangana,17.385,78.4867,32.5,35,0.0,953.7,9.05,28.1,115,22.8,18.2,13.1,364.0,111.0,6.8,0,5,7,0,2026-05-09T20:24:22.163212+05:30
Chennai,Tamil Nadu,13.0827,80.2707,28.0,82,0.0,1007.3,8.35,34.9,24,6.2,4.4,6.1,251.0,42.0,3.0,7,5,4,1,2026-05-09T20:24:22.163222+05:30
Kolkata,West Bengal,22.5726,88.3639,26.2,86,0.0,1008.2,8.9,49.3,188,70.3,65.2,23.6,721.0,119.0,18.6,7,0,4,1,2026-05-09T20:24:22.163235+05:30
Pune,Maharashtra,18.5204,73.8567,31.9,34,0.0,947.4,8.5,32.4,154,47.5,31.0,14.2,306.0,137.0,9.9,0,5,7,0,2026-05-09T20:24:22.163243+05:30
Ahmedabad,Gujarat,23.0225,72.5714,40.0,12,0.0,999.2,8.1,32.0,87,37.0,20.7,17.2,285.0,93.0,6.3,0,5,10,0,2026-05-09T20:24:22.163253+05:30
Jaipur,Rajasthan,26.9124,75.7873,32.1,32,0.0,959.4,8.15,29.9,157,143.0,40.7,17.8,472.0,111.0,7.3,0,5,7,0,2026-05-09T20:24:22.163264+05:30
Lucknow,Uttar Pradesh,26.8467,80.9462,27.0,59,0.0,994.5,8.0,35.3,162,58.4,41.0,15.3,433.0,123.0,14.0,4,5,7,1,2026-05-09T20:24:22.163272+05:30
Kanpur,Uttar Pradesh,26.4499,80.3319,28.1,57,0.0,992.3,8.05,37.1,195,253.3,54.7,8.1,345.0,142.0,9.8,4,5,7,1,2026-05-09T20:24:22.163279+05:30
Chandigarh,Chandigarh,30.7333,76.7794,28.5,43,0.0,969.0,7.6,28.4,184,160.2,47.4,23.1,1090.0,141.0,14.5,4,5,7,0,2026-05-09T20:24:22.163288+05:30
Srinagar,Jammu and Kashmir,34.0837,74.7973,16.6,72,0.0,839.6,8.85,18.0,122,54.7,22.5,23.9,1026.0,111.0,5.2,3,5,7,0,2026-05-09T20:24:22.163295+05:30
Jammu,Jammu and Kashmir,32.7266,74.857,30.0,40,0.0,972.1,8.4,32.4,172,126.2,53.9,24.6,573.0,128.0,8.4,4,5,7,0,2026-05-09T20:24:22.163303+05:30
Amritsar,Punjab,31.634,74.8723,31.0,44,0.0,980.0,8.3,24.8,188,263.6,73.6,14.6,561.0,145.0,12.1,0,5,7,1,2026-05-09T20:24:22.163311+05:30
Ludhiana,Punjab,30.901,75.8573,29.8,49,0.0,978.4,7.9,34.2,169,206.3,64.7,16.2,421.0,117.0,7.0,4,5,7,1,2026-05-09T20:24:22.163317+05:30
Jalandhar,Punjab,31.326,75.5762,29.4,50,0.0,979.1,8.05,25.9,173,243.1,71.5,19.8,710.0,122.0,9.3,4,5,7,1,2026-05-09T20:24:22.163324+05:30
Dehradun,Uttarakhand,30.6284,78.0322,15.1,81,0.0,830.7,8.0,28.8,135,52.7,26.4,12.0,257.0,143.0,3.4,3,10,7,0,2026-05-09T20:24:22.163335+05:30
Shimla,Himachal Pradesh,31.1048,77.1734,13.6,74,0.0,784.8,8.05,37.1,163,122.0,43.7,10.1,307.0,167.0,16.6,3,5,7,0,2026-05-09T20:24:22.163343+05:30
Manali,Himachal Pradesh,32.2396,77.1887,12.3,86,0.0,817.6,10.1,39.2,144,40.3,11.2,19.8,354.0,139.0,1.0,3,10,7,0,2026-05-09T20:24:22.163350+05:30
Gurgaon,Haryana,28.4595,77.0266,30.0,46,0.0,981.3,7.65,27.4,904,562.5,90.3,23.5,552.0,152.0,24.8,4,5,7,1,2026-05-09T20:24:22.163357+05:30
Noida,Uttar Pradesh,28.5355,77.391,28.1,54,0.0,984.5,7.6,25.9,904,562.5,90.3,23.5,488.0,152.0,24.8,4,5,7,1,2026-05-09T20:24:22.163363+05:30
Ghaziabad,Uttar Pradesh,28.6692,77.4538,28.2,55,0.0,982.9,7.55,28.1,169,163.0,45.6,9.5,390.0,137.0,9.5,4,5,7,1,2026-05-09T20:24:22.163369+05:30
Faridabad,Haryana,28.4089,77.3178,29.9,48,0.0,983.7,7.6,27.4,904,562.5,90.3,23.5,607.0,152.0,24.8,4,5,7,1,2026-05-09T20:24:22.163376+05:30
Meerut,Uttar Pradesh,28.9845,77.7064,26.4,65,0.0,981.7,7.45,30.2,169,163.0,45.6,9.5,433.0,137.0,9.5,7,5,7,1,2026-05-09T20:24:22.163383+05:30
Agra,Uttar Pradesh,27.1767,78.0081,28.8,48,0.0,987.8,7.9,25.6,946,1050.5,126.2,9.0,474.0,138.0,11.5,4,5,7,1,2026-05-09T20:24:22.163389+05:30
Varanasi,Uttar Pradesh,25.3176,82.9739,26.8,63,0.0,998.4,8.55,41.4,203,63.8,50.1,12.2,627.0,158.0,19.8,7,5,7,1,2026-05-09T20:24:22.163396+05:30
Prayagraj,Uttar Pradesh,25.4358,81.8463,27.3,59,0.0,996.5,8.35,38.2,199,59.1,46.9,11.1,432.0,150.0,14.0,4,5,7,1,2026-05-09T20:24:22.163406+05:30
Gorakhpur,Uttar Pradesh,26.7606,83.3732,25.6,67,0.0,998.9,8.4,37.4,174,60.3,48.3,13.4,433.0,132.0,10.4,7,5,7,1,2026-05-09T20:24:22.163412+05:30
Bareilly,Uttar Pradesh,28.367,79.4304,26.5,57,0.0,987.6,7.75,33.5,160,67.5,34.9,17.6,446.0,116.0,10.9,4,5,7,1,2026-05-09T20:24:22.163419+05:30
Aligarh,Uttar Pradesh,27.8974,78.088,28.5,53,0.0,985.9,7.7,32.0,447,435.9,71.9,7.6,369.0,145.0,11.8,4,5,7,1,2026-05-09T20:24:22.163425+05:30
Moradabad,Uttar Pradesh,28.8386,78.7733,27.0,58,0.0,984.5,7.65,32.8,178,115.9,48.2,18.2,478.0,128.0,13.6,4,5,7,1,2026-05-09T20:24:22.163432+05:30
Saharanpur,Uttar Pradesh,29.9637,77.546,26.6,57,0.0,976.0,7.3,33.5,163,64.3,44.4,25.8,639.0,108.0,13.2,4,5,7,1,2026-05-09T20:24:22.163438+05:30
Jhansi,Uttar Pradesh,25.4484,78.5685,28.9,48,0.0,977.2,8.35,47.5,167,110.1,36.0,4.4,275.0,133.0,10.2,4,5,7,1,2026-05-09T20:24:25.446671+05:30
Surat,Gujarat,21.1702,72.8311,31.0,65,0.0,1004.3,7.7,37.4,106,60.1,42.3,63.3,504.0,48.0,77.1,3,5,4,1,2026-05-09T20:24:25.446706+05:30
Vadodara,Gujarat,22.3072,73.1812,39.2,14,0.0,1001.1,8.05,32.4,138,45.1,29.3,29.5,662.0,113.0,11.6,0,5,7,0,2026-05-09T20:24:25.446717+05:30
Rajkot,Gujarat,22.3039,70.8022,33.3,27,0.0,992.9,7.7,40.7,92,34.8,14.1,4.7,189.0,108.0,6.9,0,5,7,0,2026-05-09T20:24:25.446726+05:30
Thane,Maharashtra,19.2183,72.9781,31.3,61,0.0,1005.8,7.85,46.8,117,45.4,23.0,14.8,271.0,96.0,9.9,3,5,4,1,2026-05-09T20:24:25.446734+05:30
Nagpur,Maharashtra,21.1458,79.0882,30.1,41,0.0,972.8,8.9,73.4,159,62.6,35.9,27.8,283.0,106.0,22.6,0,5,7,0,2026-05-09T20:24:25.446742+05:30
Nashik,Maharashtra,19.9975,73.7898,32.9,23,0.0,944.5,8.15,50.4,122,32.6,22.0,4.6,208.0,146.0,9.9,0,5,7,0,2026-05-09T20:24:25.446749+05:30
Aurangabad,Maharashtra,19.8762,75.3433,33.5,18,0.0,943.4,9.05,34.2,136,29.8,15.2,4.8,355.0,130.0,5.5,0,5,7,0,2026-05-09T20:24:25.446756+05:30
Solapur,Maharashtra,17.6599,75.9064,34.7,23,0.0,956.1,9.05,32.0,141,35.9,24.3,4.8,306.0,143.0,6.1,0,5,7,0,2026-05-09T20:24:25.446764+05:30
Kolhapur,Maharashtra,16.705,74.2433,29.5,54,0.0,947.0,8.9,40.0,123,54.1,46.7,28.9,300.0,98.0,7.6,4,5,7,1,2026-05-09T20:24:25.446771+05:30
Goa,Goa,15.2993,74.124,30.2,73,0.0,995.9,8.75,42.1,82,38.2,24.3,4.3,227.0,113.0,4.2,3,5,7,1,2026-05-09T20:24:25.446779+05:30
Jodhpur,Rajasthan,26.2389,73.0243,38.3,15,0.0,980.6,8.35,42.8,127,93.1,25.4,12.6,238.0,106.0,4.9,0,5,10,0,2026-05-09T20:24:25.446786+05:30
Udaipur,Rajasthan,24.5854,73.7125,32.8,19,0.0,945.7,8.8,44.3,75,34.5,11.7,4.0,178.0,111.0,3.0,0,5,7,0,2026-05-09T20:24:25.446793+05:30
Kota,Rajasthan,25.2138,75.8648,33.0,31,0.0,976.8,8.35,46.1,134,51.3,24.0,6.1,422.0,127.0,5.9,0,5,7,0,2026-05-09T20:24:25.446800+05:30
Bikaner,Rajasthan,28.0229,73.3119,35.4,20,0.0,980.1,8.25,26.3,155,122.0,36.2,3.4,449.0,134.0,8.2,0,5,10,0,2026-05-09T20:24:25.446807+05:30
Ajmer,Rajasthan,26.4499,74.6399,32.5,22,0.0,953.7,8.3,45.7,141,66.4,24.9,5.2,295.0,129.0,4.2,0,5,7,0,2026-05-09T20:24:25.446814+05:30
Gwalior,Madhya Pradesh,26.2183,78.1828,29.6,40,0.0,982.7,8.1,25.9,161,230.5,53.6,4.1,303.0,142.0,7.5,4,5,7,0,2026-05-09T20:24:25.446821+05:30
Indore,Madhya Pradesh,22.7196,75.8577,34.7,14,0.0,947.2,8.6,45.4,97,29.3,12.1,4.7,278.0,113.0,3.8,0,5,7,0,2026-05-09T20:24:25.446827+05:30
Bhopal,Madhya Pradesh,23.2599,77.4126,33.7,22,0.0,952.9,8.65,43.6,103,34.5,13.2,3.6,294.0,114.0,3.9,0,5,7,0,2026-05-09T20:24:25.446834+05:30
Jabalpur,Madhya Pradesh,23.1815,79.9864,30.1,33,0.0,961.2,8.8,39.2,135,37.3,21.2,7.1,206.0,120.0,5.7,0,5,7,0,2026-05-09T20:24:25.446841+05:30
Ujjain,Madhya Pradesh,23.1765,75.7885,33.0,19,0.0,952.7,8.55,45.7,88,34.2,15.3,4.1,259.0,105.0,3.8,0,5,7,0,2026-05-09T20:24:25.446848+05:30
Visakhapatnam,Andhra Pradesh,17.6868,83.2185,29.0,72,0.0,1005.1,9.1,33.8,76,14.3,12.6,20.3,383.0,27.0,9.9,7,5,4,1,2026-05-09T20:24:25.446854+05:30
Vijayawada,Andhra Pradesh,16.5062,80.648,29.8,71,0.0,1003.2,9.2,40.3,46,8.0,6.8,5.4,151.0,52.0,6.3,7,5,4,1,2026-05-09T20:24:25.446861+05:30
Guntur,Andhra Pradesh,16.3067,80.4365,30.2,67,0.0,1004.4,9.2,33.1,45,10.2,9.0,5.4,162.0,66.0,6.5,3,5,4,1,2026-05-09T20:24:25.446868+05:30
Nellore,Andhra Pradesh,14.4426,79.9865,28.8,76,0.0,1006.3,9.2,39.6,27,5.6,3.9,2.5,131.0,46.0,1.9,7,5,4,1,2026-05-09T20:24:25.446875+05:30
Kurnool,Andhra Pradesh,15.8281,78.0373,33.5,37,0.0,976.3,9.15,36.0,54,15.3,11.7,6.3,170.0,93.0,2.3,0,5,7,1,2026-05-09T20:24:25.446883+05:30
Kakinada,Andhra Pradesh,16.9891,82.2475,28.5,79,0.0,1008.6,9.15,36.7,25,6.3,4.3,1.2,180.0,47.0,0.5,7,0,4,1,2026-05-09T20:24:25.446889+05:30
Tirupati,Andhra Pradesh,13.6288,79.4192,27.9,72,0.0,991.4,7.35,40.3,26,9.2,8.2,12.2,202.0,35.0,2.2,7,5,7,1,2026-05-09T20:24:25.446896+05:30
Warangal,Telangana,17.9689,79.5941,32.0,42,0.0,978.4,9.15,32.0,110,42.0,33.3,14.0,257.0,106.0,7.8,0,5,7,1,2026-05-09T20:24:25.446902+05:30
Nizamabad,Telangana,18.6725,78.0941,31.7,34,0.0,964.1,9.1,31.0,136,54.7,35.7,19.7,226.0,116.0,7.0,0,5,7,0,2026-05-09T20:24:25.446909+05:30
Mysore,Karnataka,12.2958,76.6396,22.6,92,0.1,928.3,9.4,42.8,59,14.1,13.3,8.3,229.0,79.0,3.9,6,5,7,1,2026-05-09T20:24:25.446916+05:30
Mangalore,Karnataka,12.9141,74.856,27.5,93,0.0,1005.6,8.0,37.4,74,31.3,18.7,8.7,319.0,85.0,3.0,7,5,4,1,2026-05-09T20:24:25.446923+05:30
Hubli-Dharwad,Karnataka,15.3647,75.124,29.0,52,0.0,939.7,9.15,45.0,117,16.1,12.8,11.8,267.0,124.0,3.5,4,5,7,1,2026-05-09T20:24:25.446930+05:30
Belgaum,Karnataka,15.8497,74.4977,26.4,62,0.1,924.9,9.15,36.4,128,40.3,30.7,17.9,226.0,109.0,5.5,10,5,7,1,2026-05-09T20:24:28.730853+05:30
Coimbatore,Tamil Nadu,11.0168,76.9558,24.5,89,0.0,961.7,7.75,28.8,63,16.8,16.0,11.1,507.0,80.0,4.9,3,5,7,1,2026-05-09T20:24:28.730887+05:30
Madurai,Tamil Nadu,9.9252,78.1198,26.2,92,0.0,992.7,4.7,44.3,66,15.5,15.3,19.8,381.0,62.0,10.9,7,5,3,1,2026-05-09T20:24:28.730899+05:30
Trichy,Tamil Nadu,10.7905,78.7047,26.2,89,0.0,999.4,3.2,33.8,39,13.1,12.9,23.3,399.0,48.0,25.9,7,5,3,1,2026-05-09T20:24:28.730908+05:30
Salem,Tamil Nadu,11.6643,78.146,25.9,83,0.0,977.1,8.25,33.1,49,13.8,13.6,14.0,523.0,73.0,9.2,7,5,7,1,2026-05-09T20:24:28.730916+05:30
Tirunelveli,Tamil Nadu,8.7139,77.7567,26.9,90,0.0,1002.5,4.75,29.2,58,13.4,13.0,11.7,190.0,64.0,4.3,7,5,0,1,2026-05-09T20:24:28.730925+05:30
Vellore,Tamil Nadu,12.9165,79.1325,24.4,94,0.0,984.6,6.85,37.4,45,15.4,15.1,17.2,223.0,55.0,11.8,3,5,7,1,2026-05-09T20:24:28.730932+05:30
Erode,Tamil Nadu,11.341,77.7172,25.2,93,0.0,989.4,8.1,41.8,59,15.9,15.4,16.4,571.0,66.0,6.2,7,5,7,1,2026-05-09T20:24:28.730941+05:30
Kochi,Kerala,9.9312,76.2673,25.8,93,0.0,1008.4,7.85,29.9,74,25.4,24.3,18.5,328.0,65.0,3.7,7,0,4,1,2026-05-09T20:24:28.730948+05:30
Thiruvananthapuram,Kerala,8.5241,76.9366,26.4,88,0.1,1006.9,4.7,28.4,68,10.6,8.1,4.3,351.0,109.0,1.9,10,5,0,1,2026-05-09T20:24:28.730955+05:30
Kozhikode,Kerala,11.2588,75.7804,25.2,97,0.1,1007.8,8.5,34.9,60,13.8,8.9,1.9,550.0,105.0,1.0,10,5,4,1,2026-05-09T20:24:28.730963+05:30
Thrissur,Kerala,10.5276,76.2144,25.1,99,0.1,1007.0,8.25,25.9,72,25.8,24.8,12.8,778.0,75.0,3.0,10,5,4,1,2026-05-09T20:24:28.730971+05:30
Kannur,Kerala,11.8745,75.3704,26.2,91,0.0,1006.7,8.95,34.2,66,26.5,19.2,18.1,449.0,70.0,2.9,7,5,4,1,2026-05-09T20:24:28.730978+05:30
Patna,Bihar,25.5941,85.1376,26.0,77,0.0,1002.2,8.4,35.6,201,64.5,57.7,15.9,492.0,150.0,20.1,7,5,4,1,2026-05-09T20:24:28.730985+05:30
Gaya,Bihar,24.7914,85.0002,24.7,68,0.0,995.2,8.55,34.2,201,58.6,44.5,8.2,504.0,153.0,17.1,3,5,7,1,2026-05-09T20:24:28.730993+05:30
Muzaffarpur,Bihar,26.1209,85.3647,26.0,70,0.0,1002.3,8.65,34.9,187,71.2,63.3,19.1,428.0,129.0,17.6,7,5,4,1,2026-05-09T20:24:28.731000+05:30
Bhagalpur,Bihar,25.2425,87.0117,23.0,91,0.0,1003.9,8.7,43.2,202,71.9,55.4,10.8,405.0,164.0,13.7,3,5,4,1,2026-05-09T20:24:28.731007+05:30
Ranchi,Jharkhand,23.3441,85.3096,21.5,84,0.0,938.8,9.2,45.0,153,74.7,46.2,17.1,303.0,108.0,9.9,3,5,7,1,2026-05-09T20:24:28.731013+05:30
Jamshedpur,Jharkhand,22.8046,86.2029,24.3,85,0.0,993.0,8.85,37.1,183,53.7,43.0,16.2,392.0,139.0,31.3,3,5,7,1,2026-05-09T20:24:28.731019+05:30
Dhanbad,Jharkhand,23.7957,86.4304,23.0,93,0.0,982.6,8.95,29.5,193,82.2,67.5,31.9,893.0,156.0,56.6,3,5,7,1,2026-05-09T20:24:28.731026+05:30
Bokaro,Jharkhand,23.6693,86.1511,23.0,92,0.0,986.3,9.0,52.2,203,88.7,68.2,29.0,457.0,144.0,50.6,3,5,7,1,2026-05-09T20:24:28.731032+05:30
Bhubaneswar,Odisha,20.2961,85.8245,27.6,82,0.0,1004.7,9.1,33.8,49,23.5,19.5,16.0,241.0,60.0,6.2,7,5,4,1,2026-05-09T20:24:28.731039+05:30
Cuttack,Odisha,20.4625,85.8828,28.4,78,0.0,1006.5,9.15,42.5,49,23.5,19.5,16.0,259.0,60.0,6.2,7,5,4,1,2026-05-09T20:24:28.731045+05:30
Rourkela,Odisha,22.2604,84.8536,27.1,64,0.0,986.5,8.7,38.9,183,75.7,50.3,21.9,388.0,127.0,29.2,7,5,7,1,2026-05-09T20:24:28.731051+05:30
Raipur,Chhattisgarh,21.2514,81.6296,30.2,39,0.0,975.1,8.95,40.0,179,47.4,34.2,29.6,355.0,112.0,8.7,0,5,7,0,2026-05-09T20:24:28.731058+05:30
Bhilai,Chhattisgarh,21.1938,81.3509,30.8,39,0.0,975.4,8.95,42.8,155,48.4,34.8,35.5,285.0,98.0,8.0,0,5,7,0,2026-05-09T20:24:28.731063+05:30
Guwahati,Assam,26.1158,91.7086,24.0,88,0.0,1003.7,8.65,24.1,103,31.9,27.5,9.1,391.0,76.0,2.3,3,5,4,1,2026-05-09T20:24:28.731070+05:30
Agartala,Tripura,23.8315,91.2868,26.5,79,0.0,1007.9,8.8,20.2,190,87.3,76.1,33.7,705.0,108.0,7.6,7,5,4,1,2026-05-09T20:24:28.731076+05:30
Shillong,Meghalaya,25.5788,91.8933,17.4,73,0.0,858.9,8.4,24.1,103,35.7,26.6,12.7,529.0,83.0,2.7,3,5,7,0,2026-05-09T20:24:28.731082+05:30
Imphal,Manipur,24.817,93.9368,21.1,77,0.0,924.7,9.2,28.1,96,43.1,33.3,20.0,728.0,72.0,4.8,3,5,7,1,2026-05-09T20:24:28.731088+05:30
Aizawl,Mizoram,23.7271,92.7176,20.3,64,0.0,894.0,9.0,27.4,103,54.8,35.9,9.4,373.0,98.0,4.9,3,5,7,0,2026-05-09T20:24:28.731095+05:30
Kohima,Nagaland,25.6701,94.1077,16.2,87,0.0,856.6,9.15,32.4,87,36.8,27.4,13.0,445.0,75.0,2.2,3,10,7,0,2026-05-09T20:24:28.731102+05:30
Gangtok,Sikkim,27.3314,88.6138,13.5,82,0.0,837.9,8.95,41.8,87,31.7,21.1,12.8,351.0,103.0,2.0,3,10,7,0,2026-05-09T20:24:28.731108+05:30
Siliguri,West Bengal,26.7271,88.3953,24.0,72,0.0,995.4,8.55,29.5,118,58.3,42.4,18.5,1787.0,120.0,5.6,3,5,7,1,2026-05-09T20:24:32.017109+05:30
Durgapur,West Bengal,23.5204,87.3119,22.5,94,0.4,998.7,8.9,43.9,155,61.9,52.7,24.6,597.0,135.0,44.4,6,5,7,1,2026-05-09T20:24:32.017145+05:30
Asansol,West Bengal,23.6739,86.9524,22.7,92,0.1,996.7,8.9,38.9,152,65.4,55.6,25.4,567.0,140.0,48.0,6,5,7,1,2026-05-09T20:24:32.017156+05:30
Pondicherry,Puducherry,11.9139,79.8145,26.5,93,0.1,1008.2,2.2,38.2,25,4.9,3.4,2.9,230.0,46.0,0.4,10,0,0,1,2026-05-09T20:24:32.017166+05:30
Port Blair,Andaman and Nicobar Islands,11.6234,92.7265,25.2,96,0.0,1008.0,8.1,43.6,26,2.4,1.7,0.6,305.0,55.0,0.1,7,0,4,1,2026-05-09T20:24:32.017174+05:30
Haridwar,Uttarakhand,29.9457,78.1642,26.1,63,0.0,974.7,7.4,28.1,162,70.5,41.6,18.3,357.0,127.0,10.3,7,5,7,1,2026-05-09T20:24:32.017201+05:30
Rishikesh,Uttarakhand,30.0869,78.2676,24.3,65,0.0,967.3,7.5,26.6,163,59.5,29.3,7.1,366.0,155.0,7.0,3,5,7,1,2026-05-09T20:24:32.017208+05:30
Nainital,Uttarakhand,29.3919,79.4542,12.3,90,0.0,805.1,7.9,31.3,136,43.0,25.8,10.8,309.0,126.0,5.0,3,10,7,0,2026-05-09T20:24:32.017216+05:30
Mussoorie,Uttarakhand,30.4599,78.0664,12.7,91,0.0,802.5,7.85,41.4,159,51.7,29.8,11.8,327.0,155.0,11.4,3,10,7,0,2026-05-09T20:24:32.017223+05:30
Dharamshala,Himachal Pradesh,32.219,76.3234,20.0,69,0.0,869.8,8.25,36.7,150,68.0,37.7,8.5,330.0,148.0,4.9,3,5,7,0,2026-05-09T20:24:32.017230+05:30
Dalhousie,Himachal Pradesh,32.5387,75.971,14.3,83,0.0,804.6,8.5,36.7,171,99.7,51.1,19.7,545.0,140.0,7.0,3,10,7,0,2026-05-09T20:24:32.017238+05:30
Patiala,Punjab,30.3398,76.3869,29.4,45,0.0,977.9,7.5,29.2,199,354.8,65.9,9.5,332.0,137.0,6.9,4,5,7,1,2026-05-09T20:24:32.017245+05:30
Bhatinda,Punjab,30.211,74.9455,32.5,35,0.0,982.6,8.2,25.6,444,356.7,83.4,14.1,380.0,154.0,19.1,0,5,7,0,2026-05-09T20:24:32.017252+05:30
Rohtak,Haryana,28.8955,76.6066,29.1,46,0.0,981.5,7.6,27.4,290,418.2,73.6,16.7,428.0,170.0,23.5,4,5,7,1,2026-05-09T20:24:32.017259+05:30
Panipat,Haryana,29.3909,76.9635,27.5,62,0.0,980.3,7.45,33.1,543,743.2,96.6,10.0,450.0,163.0,16.6,7,5,7,1,2026-05-09T20:24:32.017265+05:30
Mathura,Uttar Pradesh,27.4924,77.6737,29.0,45,0.0,986.6,7.85,27.0,768,750.6,96.9,9.7,355.0,142.0,9.8,4,5,7,0,2026-05-09T20:24:32.017271+05:30
Vrindavan,Uttar Pradesh,27.5823,77.7027,29.0,43,0.0,987.0,7.8,27.4,768,750.6,96.9,9.7,382.0,142.0,9.8,4,5,7,0,2026-05-09T20:24:32.017278+05:30
Ayodhya,Uttar Pradesh,26.7922,82.1998,26.3,60,0.0,996.6,8.15,38.9,152,75.9,51.7,22.3,405.0,116.0,11.1,4,5,7,1,2026-05-09T20:24:32.017285+05:30
Ratlam,Madhya Pradesh,23.3315,75.0367,32.3,22,0.0,953.0,8.5,38.2,88,29.3,12.6,2.9,232.0,106.0,3.5,0,5,7,0,2026-05-09T20:24:32.017292+05:30
Sagar,Madhya Pradesh,23.8388,78.7378,30.8,28,0.0,949.3,8.65,43.9,127,39.2,19.6,2.0,230.0,151.0,7.1,0,5,7,0,2026-05-09T20:24:32.017299+05:30
Satna,Madhya Pradesh,24.6005,80.8322,28.3,44,0.0,971.2,8.65,55.8,178,45.8,32.1,4.5,287.0,180.0,10.2,4,5,7,0,2026-05-09T20:24:32.017305+05:30
Akola,Maharashtra,20.7002,77.0082,33.7,21,0.0,973.1,8.85,36.0,152,66.4,27.8,15.5,223.0,122.0,13.1,0,5,7,0,2026-05-09T20:24:32.017313+05:30
Amravati,Maharashtra,20.9374,77.7796,34.2,25,0.0,965.9,8.85,32.8,149,65.7,28.5,19.8,261.0,118.0,8.4,0,5,7,0,2026-05-09T20:24:32.017321+05:30
Latur,Maharashtra,18.4088,76.5604,31.2,28,0.0,939.4,9.05,35.3,146,45.4,31.3,9.1,221.0,134.0,14.4,0,5,7,0,2026-05-09T20:24:32.017328+05:30
Nanded,Maharashtra,19.1383,77.3091,32.8,29,0.0,967.5,9.0,25.9,145,55.8,31.9,7.8,313.0,135.0,5.8,0,5,7,0,2026-05-09T20:24:32.017334+05:30
Gulbarga,Karnataka,17.3297,76.8343,33.5,28,0.0,958.0,8.9,36.0,130,22.4,16.1,8.7,243.0,134.0,4.4,0,5,7,0,2026-05-09T20:24:32.017341+05:30
Bidar,Karnataka,17.9104,77.5199,30.8,34,0.0,935.3,8.75,35.3,128,32.0,22.9,13.9,278.0,116.0,3.9,0,5,7,0,2026-05-09T20:24:32.017347+05:30
Hospet,Karnataka,15.2689,76.3909,31.2,35,0.0,954.4,9.2,36.0,99,15.9,13.0,12.7,367.0,114.0,7.0,0,5,7,0,2026-05-09T20:24:32.017353+05:30
Tirupur,Tamil Nadu,11.1085,77.3411,24.9,91,0.2,975.2,7.95,39.2,79,20.8,20.1,14.1,440.0,84.0,6.7,6,5,7,1,2026-05-09T20:24:32.017360+05:30
Alappuzha,Kerala,9.4981,76.3388,26.8,86,0.0,1008.2,7.8,30.6,99,20.0,17.5,13.5,179.0,91.0,4.0,7,0,4,1,2026-05-09T20:24:32.017367+05:30
Munnar,Kerala,10.0889,77.0595,18.1,95,0.0,855.9,5.9,21.2,51,13.4,12.9,7.8,287.0,68.0,2.2,3,10,3,1,2026-05-09T20:24:32.017373+05:30
Silchar,Assam,24.8333,92.7789,25.2,78,0.0,1006.4,8.7,16.9,125,73.8,55.6,16.2,523.0,93.0,11.3,7,5,4,1,2026-05-09T20:24:32.017380+05:30
Dibrugarh,Assam,27.4728,94.912,25.4,81,0.0,997.4,8.7,19.4,107,56.1,48.9,20.6,548.0,100.0,5.5,7,5,7,1,2026-05-09T20:24:32.017386+05:30
