city,state,latitude,longitude,temp,humidity,rain,pressure,uv_index,wind_gusts,aqi,pm10,pm2_5,mosquito_risk,arthritis_risk,migraine_risk,frizz_risk,updated_at
Delhi,Delhi,28.6139,77.209,23.5,70,0.0,981.0,6.3,36.7,211,235.6,67.1,3,5,7,1,2026-03-30T03:05:59.821657+05:30
Mumbai,Maharashtra,19.076,72.8777,27.2,84,0.0,1006.7,8.0,22.7,56,33.1,13.1,7,5,4,1,2026-03-30T03:05:59.821708+05:30
Bangalore,Karnataka,12.9716,77.5946,22.9,78,0.0,909.7,9.45,32.0,135,78.2,71.2,3,5,7,1,2026-03-30T03:05:59.821724+05:30
Hyderabad,Telangana,17.385,78.4867,26.3,66,0.0,950.4,8.3,28.1,85,50.6,44.6,7,5,7,1,2026-03-30T03:05:59.821734+05:30
Chennai,Tamil Nadu,13.0827,80.2707,26.7,91,0.0,1005.3,9.3,30.2,54,16.2,11.8,7,5,4,1,2026-03-30T03:05:59.821743+05:30
Kolkata,West Bengal,22.5726,88.3639,25.2,95,0.0,1005.2,8.5,27.4,114,38.4,33.5,7,5,4,1,2026-03-30T03:05:59.821752+05:30
Pune,Maharashtra,18.5204,73.8567,22.0,99,0.0,946.0,8.55,38.5,69,32.8,24.2,3,5,7,1,2026-03-30T03:05:59.821766+05:30
Ahmedabad,Gujarat,23.0225,72.5714,26.5,71,0.0,1000.7,8.0,24.8,50,33.1,12.9,7,5,4,1,2026-03-30T03:05:59.821774+05:30
Jaipur,Rajasthan,26.9124,75.7873,24.4,43,0.0,957.8,5.2,39.2,104,119.7,22.9,0,5,3,0,2026-03-30T03:05:59.821782+05:30
Lucknow,Uttar Pradesh,26.8467,80.9462,23.6,64,0.0,991.8,7.3,20.5,103,89.4,41.9,3,5,7,1,2026-03-30T03:05:59.821791+05:30
Kanpur,Uttar Pradesh,26.4499,80.3319,22.8,69,0.0,989.8,7.3,17.6,100,73.3,32.1,3,5,7,1,2026-03-30T03:05:59.821799+05:30
Chandigarh,Chandigarh,30.7333,76.7794,20.8,80,0.0,967.2,5.85,21.2,92,41.3,20.4,3,5,3,1,2026-03-30T03:05:59.821806+05:30
Srinagar,Jammu and Kashmir,34.0837,74.7973,10.2,82,0.0,839.0,6.25,25.9,73,39.6,37.6,3,10,7,0,2026-03-30T03:05:59.821813+05:30
Jammu,Jammu and Kashmir,32.7266,74.857,19.9,79,0.0,971.1,5.45,44.6,88,29.9,24.0,3,5,3,1,2026-03-30T03:05:59.821821+05:30
Amritsar,Punjab,31.634,74.8723,20.2,84,0.0,979.6,5.05,41.8,79,61.2,25.6,3,5,3,1,2026-03-30T03:05:59.821828+05:30
Ludhiana,Punjab,30.901,75.8573,21.6,85,0.0,977.4,5.5,42.5,109,123.9,46.0,3,5,3,1,2026-03-30T03:05:59.821835+05:30
Jalandhar,Punjab,31.326,75.5762,20.7,81,0.0,978.8,4.9,42.5,87,74.0,28.3,3,5,3,1,2026-03-30T03:05:59.821844+05:30
Dehradun,Uttarakhand,30.6284,78.0322,14.2,68,0.0,828.6,6.95,25.2,58,14.0,8.1,3,5,7,0,2026-03-30T03:05:59.821851+05:30
Shimla,Himachal Pradesh,31.1048,77.1734,12.3,61,0.0,782.3,6.45,24.5,68,13.1,9.8,3,5,7,0,2026-03-30T03:05:59.821859+05:30
Manali,Himachal Pradesh,32.2396,77.1887,14.7,47,0.0,818.2,8.15,33.8,35,2.3,2.2,0,5,7,0,2026-03-30T03:05:59.821866+05:30
Gurgaon,Haryana,28.4595,77.0266,22.9,73,0.0,979.3,6.05,35.6,580,343.7,74.7,3,5,7,1,2026-03-30T03:05:59.821875+05:30
Noida,Uttar Pradesh,28.5355,77.391,23.2,72,0.0,982.5,6.2,36.0,580,343.7,74.7,3,5,7,1,2026-03-30T03:05:59.821883+05:30
Ghaziabad,Uttar Pradesh,28.6692,77.4538,22.9,68,0.0,980.6,5.15,36.7,155,146.7,56.1,3,5,3,1,2026-03-30T03:05:59.821890+05:30
Faridabad,Haryana,28.4089,77.3178,22.8,73,0.0,981.8,6.0,36.0,580,343.7,74.7,3,5,3,1,2026-03-30T03:05:59.821897+05:30
Meerut,Uttar Pradesh,28.9845,77.7064,22.1,72,0.0,979.6,6.2,30.6,155,146.7,56.1,3,5,7,1,2026-03-30T03:05:59.821904+05:30
Agra,Uttar Pradesh,27.1767,78.0081,23.6,70,0.0,985.6,6.45,47.9,274,431.2,70.5,3,5,7,1,2026-03-30T03:05:59.821911+05:30
Varanasi,Uttar Pradesh,25.3176,82.9739,21.7,81,0.0,995.5,7.95,19.1,90,66.8,43.9,3,5,7,1,2026-03-30T03:05:59.821922+05:30
Prayagraj,Uttar Pradesh,25.4358,81.8463,22.5,69,0.0,994.0,7.85,34.9,98,70.3,44.1,3,5,7,1,2026-03-30T03:05:59.821930+05:30
Gorakhpur,Uttar Pradesh,26.7606,83.3732,21.1,83,0.0,996.4,7.7,27.7,131,72.2,57.7,3,5,7,1,2026-03-30T03:05:59.821937+05:30
Bareilly,Uttar Pradesh,28.367,79.4304,21.8,78,0.0,984.9,6.55,21.6,96,47.7,36.2,3,5,7,1,2026-03-30T03:05:59.821943+05:30
Aligarh,Uttar Pradesh,27.8974,78.088,22.1,72,0.0,983.5,6.3,37.4,175,203.0,55.3,3,5,7,1,2026-03-30T03:05:59.821950+05:30
Moradabad,Uttar Pradesh,28.8386,78.7733,22.8,71,0.0,981.8,6.8,22.3,152,100.4,77.8,3,5,7,1,2026-03-30T03:05:59.821956+05:30
Saharanpur,Uttar Pradesh,29.9637,77.546,21.6,82,0.0,974.0,6.4,20.5,96,46.9,31.3,3,5,7,1,2026-03-30T03:05:59.821962+05:30
Jhansi,Uttar Pradesh,25.4484,78.5685,25.9,52,0.0,975.0,7.15,33.8,68,29.3,19.0,4,5,7,0,2026-03-30T03:06:03.180383+05:30
Surat,Gujarat,21.1702,72.8311,26.3,93,0.0,1005.0,7.8,24.8,77,43.5,31.0,7,5,4,1,2026-03-30T03:06:03.180447+05:30
Vadodara,Gujarat,22.3072,73.1812,26.8,89,0.0,1002.8,8.0,26.3,64,36.6,24.3,7,5,4,1,2026-03-30T03:06:03.180461+05:30
Rajkot,Gujarat,22.3039,70.8022,24.6,88,0.0,993.2,7.75,31.7,56,52.7,16.2,3,5,7,1,2026-03-30T03:06:03.180469+05:30
Thane,Maharashtra,19.2183,72.9781,26.3,86,0.0,1006.2,8.0,35.6,56,33.1,13.1,7,5,4,1,2026-03-30T03:06:03.180477+05:30
Nagpur,Maharashtra,21.1458,79.0882,26.4,57,0.0,970.5,8.55,25.9,67,46.6,31.9,4,5,7,1,2026-03-30T03:06:03.180484+05:30
Nashik,Maharashtra,19.9975,73.7898,21.3,78,0.0,943.5,8.25,28.1,42,22.6,14.2,3,5,7,1,2026-03-30T03:06:03.180491+05:30
Aurangabad,Maharashtra,19.8762,75.3433,25.6,50,0.0,941.9,8.75,42.8,45,24.3,19.0,4,5,7,0,2026-03-30T03:06:03.180498+05:30
Solapur,Maharashtra,17.6599,75.9064,26.0,60,0.0,954.3,8.9,27.4,57,32.2,27.1,4,5,7,1,2026-03-30T03:06:03.180505+05:30
Kolhapur,Maharashtra,16.705,74.2433,20.5,98,0.0,945.0,7.75,42.1,70,27.2,24.0,3,5,7,1,2026-03-30T03:06:03.180515+05:30
Goa,Goa,15.2993,74.124,26.4,85,0.0,995.0,8.9,31.3,67,22.6,15.5,7,5,7,1,2026-03-30T03:06:03.180524+05:30
Jodhpur,Rajasthan,26.2389,73.0243,25.4,64,0.0,980.8,7.8,41.4,127,145.3,27.8,7,5,7,1,2026-03-30T03:06:03.180531+05:30
Udaipur,Rajasthan,24.5854,73.7125,23.8,65,0.0,944.9,8.1,30.2,40,30.9,13.2,3,5,7,1,2026-03-30T03:06:03.180538+05:30
Kota,Rajasthan,25.2138,75.8648,25.1,47,0.0,976.7,6.9,27.4,38,13.6,8.2,4,5,7,0,2026-03-30T03:06:03.180545+05:30
Bikaner,Rajasthan,28.0229,73.3119,25.4,30,0.0,978.6,5.15,43.6,116,258.0,57.0,4,5,3,0,2026-03-30T03:06:03.180552+05:30
Ajmer,Rajasthan,26.4499,74.6399,23.1,69,0.0,952.5,7.25,32.0,42,29.6,11.6,3,5,7,1,2026-03-30T03:06:03.180559+05:30
Gwalior,Madhya Pradesh,26.2183,78.1828,25.2,66,0.0,980.8,6.4,37.1,75,33.5,20.7,7,5,7,1,2026-03-30T03:06:03.180566+05:30
Indore,Madhya Pradesh,22.7196,75.8577,22.9,73,0.0,946.1,7.75,22.7,51,33.3,17.7,3,5,7,1,2026-03-30T03:06:03.180572+05:30
Bhopal,Madhya Pradesh,23.2599,77.4126,24.2,56,0.0,951.8,8.2,31.0,38,22.4,12.4,0,5,7,0,2026-03-30T03:06:03.180579+05:30
Jabalpur,Madhya Pradesh,23.1815,79.9864,24.5,64,0.0,958.7,8.35,25.9,58,30.4,22.0,3,5,7,1,2026-03-30T03:06:03.180585+05:30
Ujjain,Madhya Pradesh,23.1765,75.7885,23.4,72,0.0,951.8,7.75,25.2,51,32.8,17.2,3,5,7,1,2026-03-30T03:06:03.180593+05:30
Visakhapatnam,Andhra Pradesh,17.6868,83.2185,26.6,89,0.0,1001.6,9.0,38.5,66,22.6,17.2,7,5,4,1,2026-03-30T03:06:03.180599+05:30
Vijayawada,Andhra Pradesh,16.5062,80.648,26.4,93,0.0,1000.5,9.1,29.5,81,19.2,15.5,7,5,4,1,2026-03-30T03:06:03.180606+05:30
Guntur,Andhra Pradesh,16.3067,80.4365,26.5,93,0.0,1001.5,9.1,31.3,89,19.3,16.1,7,5,4,1,2026-03-30T03:06:03.180613+05:30
Nellore,Andhra Pradesh,14.4426,79.9865,25.8,92,0.0,1003.4,9.25,31.7,67,14.7,12.0,7,5,4,1,2026-03-30T03:06:03.180621+05:30
Kurnool,Andhra Pradesh,15.8281,78.0373,28.6,59,0.0,974.0,8.35,25.2,99,55.6,49.8,4,5,7,1,2026-03-30T03:06:03.180628+05:30
Kakinada,Andhra Pradesh,16.9891,82.2475,25.8,96,0.0,1005.6,9.05,28.8,53,18.9,12.4,7,5,4,1,2026-03-30T03:06:03.180635+05:30
Tirupati,Andhra Pradesh,13.6288,79.4192,25.1,93,0.0,990.0,9.35,29.5,95,26.4,25.3,7,5,7,1,2026-03-30T03:06:03.180641+05:30
Warangal,Telangana,17.9689,79.5941,26.7,82,0.0,975.8,8.9,32.4,101,46.2,43.0,7,5,7,1,2026-03-30T03:06:03.180647+05:30
Nizamabad,Telangana,18.6725,78.0941,26.3,61,0.0,962.2,8.85,43.6,74,48.3,43.8,7,5,7,1,2026-03-30T03:06:03.180654+05:30
Mysore,Karnataka,12.2958,76.6396,23.2,89,0.0,926.4,8.9,22.0,126,59.3,53.0,3,5,7,1,2026-03-30T03:06:03.180660+05:30
Mangalore,Karnataka,12.9141,74.856,29.4,78,0.0,1003.7,9.05,24.1,77,32.7,23.0,7,5,4,1,2026-03-30T03:06:03.180667+05:30
Hubli-Dharwad,Karnataka,15.3647,75.124,23.2,79,0.0,937.7,9.15,30.2,77,31.3,22.2,3,5,7,1,2026-03-30T03:06:03.180674+05:30
Belgaum,Karnataka,15.8497,74.4977,21.6,79,0.0,922.4,9.2,30.2,62,21.1,17.0,3,5,7,1,2026-03-30T03:06:06.532502+05:30
Coimbatore,Tamil Nadu,11.0168,76.9558,24.2,88,0.0,959.9,9.45,27.7,99,46.4,41.9,3,5,7,1,2026-03-30T03:06:06.532539+05:30
Madurai,Tamil Nadu,9.9252,78.1198,25.5,87,0.0,991.2,9.4,34.9,78,29.5,27.9,7,5,7,1,2026-03-30T03:06:06.532552+05:30
Trichy,Tamil Nadu,10.7905,78.7047,26.0,94,0.0,998.2,9.35,22.0,71,23.7,21.0,7,5,7,1,2026-03-30T03:06:06.532563+05:30
Salem,Tamil Nadu,11.6643,78.146,26.9,83,0.0,975.6,9.4,19.8,82,29.7,28.0,7,5,7,1,2026-03-30T03:06:06.532572+05:30
Tirunelveli,Tamil Nadu,8.7139,77.7567,25.6,82,0.0,1001.2,9.4,50.8,73,35.9,33.8,7,5,4,1,2026-03-30T03:06:06.532582+05:30
Vellore,Tamil Nadu,12.9165,79.1325,25.6,89,0.0,982.9,8.6,30.2,104,35.5,33.8,7,5,7,1,2026-03-30T03:06:06.532591+05:30
Erode,Tamil Nadu,11.341,77.7172,27.4,76,0.0,987.3,9.4,19.8,89,17.3,16.2,7,5,7,1,2026-03-30T03:06:06.532601+05:30
Kochi,Kerala,9.9312,76.2673,28.4,83,0.0,1006.2,9.2,28.8,90,35.3,33.2,7,5,4,1,2026-03-30T03:06:06.532610+05:30
Thiruvananthapuram,Kerala,8.5241,76.9366,28.1,83,0.0,1005.5,9.25,30.6,75,31.4,25.6,7,5,4,1,2026-03-30T03:06:06.532619+05:30
Kozhikode,Kerala,11.2588,75.7804,27.2,86,0.0,1005.6,6.6,25.6,112,31.5,27.6,7,5,4,1,2026-03-30T03:06:06.532625+05:30
Thrissur,Kerala,10.5276,76.2144,26.7,89,0.0,1004.6,9.15,28.1,90,50.8,46.6,7,5,4,1,2026-03-30T03:06:06.532632+05:30
Kannur,Kerala,11.8745,75.3704,28.5,83,0.0,1004.6,7.9,23.0,83,31.1,28.1,7,5,4,1,2026-03-30T03:06:06.532640+05:30
Patna,Bihar,25.5941,85.1376,22.4,91,0.0,1000.0,8.1,31.7,142,73.8,67.3,3,5,4,1,2026-03-30T03:06:06.532646+05:30
Gaya,Bihar,24.7914,85.0002,22.6,87,0.0,992.3,8.2,21.2,109,55.5,46.9,3,5,7,1,2026-03-30T03:06:06.532652+05:30
Muzaffarpur,Bihar,26.1209,85.3647,21.0,92,0.0,1000.4,8.1,33.8,150,76.8,69.8,3,5,4,1,2026-03-30T03:06:06.532659+05:30
Bhagalpur,Bihar,25.2425,87.0117,21.7,96,0.0,1001.5,8.1,20.9,149,75.9,66.6,3,5,4,1,2026-03-30T03:06:06.532665+05:30
Ranchi,Jharkhand,23.3441,85.3096,22.1,90,0.0,936.1,8.7,35.3,99,44.4,26.7,3,5,7,1,2026-03-30T03:06:06.532672+05:30
Jamshedpur,Jharkhand,22.8046,86.2029,25.9,89,0.0,989.6,8.6,30.6,143,72.4,63.3,7,5,7,1,2026-03-30T03:06:06.532678+05:30
Dhanbad,Jharkhand,23.7957,86.4304,24.5,82,0.0,979.0,8.55,36.7,161,111.1,104.1,3,5,7,1,2026-03-30T03:06:06.532684+05:30
Bokaro,Jharkhand,23.6693,86.1511,23.9,87,0.0,983.0,8.55,27.7,157,104.1,94.8,3,5,7,1,2026-03-30T03:06:06.532691+05:30
Bhubaneswar,Odisha,20.2961,85.8245,26.4,86,0.0,1000.6,8.8,41.0,75,19.2,15.0,7,5,4,1,2026-03-30T03:06:06.532697+05:30
Cuttack,Odisha,20.4625,85.8828,26.5,86,0.0,1002.4,8.85,38.5,75,19.2,15.0,7,5,4,1,2026-03-30T03:06:06.532703+05:30
Rourkela,Odisha,22.2604,84.8536,26.7,79,0.0,982.9,8.5,27.4,123,43.4,33.6,7,5,7,1,2026-03-30T03:06:06.532709+05:30
Raipur,Chhattisgarh,21.2514,81.6296,27.3,43,0.0,971.2,8.6,26.3,105,46.6,42.3,4,5,7,0,2026-03-30T03:06:06.532716+05:30
Bhilai,Chhattisgarh,21.1938,81.3509,26.5,46,0.0,971.5,8.65,29.2,83,32.1,25.5,4,5,7,0,2026-03-30T03:06:06.532723+05:30
Guwahati,Assam,26.1158,91.7086,21.2,93,0.0,1002.5,7.55,20.9,117,53.7,43.5,3,5,4,1,2026-03-30T03:06:06.532729+05:30
Agartala,Tripura,23.8315,91.2868,22.1,93,0.0,1005.9,8.25,28.8,132,36.8,33.1,3,5,4,1,2026-03-30T03:06:06.532736+05:30
Shillong,Meghalaya,25.5788,91.8933,11.2,93,0.0,853.2,6.6,38.2,90,57.4,45.3,3,10,7,0,2026-03-30T03:06:06.532743+05:30
Imphal,Manipur,24.817,93.9368,15.9,90,0.0,922.1,7.95,58.3,140,82.2,65.2,3,10,7,0,2026-03-30T03:06:06.532750+05:30
Aizawl,Mizoram,23.7271,92.7176,16.0,96,0.0,891.2,8.45,52.2,152,52.2,45.8,3,10,7,0,2026-03-30T03:06:06.532756+05:30
Kohima,Nagaland,25.6701,94.1077,12.3,83,0.0,852.5,8.5,71.6,110,64.0,48.3,3,10,7,0,2026-03-30T03:06:06.532762+05:30
Gangtok,Sikkim,27.3314,88.6138,12.4,84,0.0,834.6,8.25,20.2,74,41.1,32.8,3,10,7,0,2026-03-30T03:06:06.532769+05:30
Siliguri,West Bengal,26.7271,88.3953,17.5,87,0.0,994.8,7.7,16.6,137,88.2,67.8,3,10,7,0,2026-03-30T03:06:09.885991+05:30
Durgapur,West Bengal,23.5204,87.3119,24.1,90,0.0,994.5,8.5,24.5,160,90.6,84.1,3,5,7,1,2026-03-30T03:06:09.886023+05:30
Asansol,West Bengal,23.6739,86.9524,24.4,86,0.0,992.9,8.5,25.6,158,90.8,85.0,3,5,7,1,2026-03-30T03:06:09.886033+05:30
Pondicherry,Puducherry,11.9139,79.8145,25.5,97,0.0,1006.7,9.25,28.1,51,14.8,10.7,7,5,4,1,2026-03-30T03:06:09.886041+05:30
Port Blair,Andaman and Nicobar Islands,11.6234,92.7265,28.0,78,0.0,1005.4,9.2,16.6,72,28.2,22.3,7,5,4,1,2026-03-30T03:06:09.886049+05:30
Haridwar,Uttarakhand,29.9457,78.1642,22.4,70,0.0,972.6,6.0,22.7,83,37.7,27.9,3,5,3,1,2026-03-30T03:06:09.886057+05:30
Rishikesh,Uttarakhand,30.0869,78.2676,21.7,64,0.0,965.5,5.9,20.9,68,37.1,23.7,3,5,3,0,2026-03-30T03:06:09.886065+05:30
Nainital,Uttarakhand,29.3919,79.4542,18.3,53,0.0,804.9,7.4,46.1,76,40.9,26.6,0,5,7,0,2026-03-30T03:06:09.886072+05:30
Mussoorie,Uttarakhand,30.4599,78.0664,16.7,54,0.0,801.5,6.95,35.3,81,34.0,23.8,0,5,7,0,2026-03-30T03:06:09.886079+05:30
Dharamshala,Himachal Pradesh,32.219,76.3234,19.7,43,0.0,867.5,5.2,40.3,41,7.6,7.0,0,5,3,0,2026-03-30T03:06:09.886086+05:30
Dalhousie,Himachal Pradesh,32.5387,75.971,15.7,48,0.0,801.4,6.05,46.4,80,33.3,24.9,0,5,7,0,2026-03-30T03:06:09.886093+05:30
Patiala,Punjab,30.3398,76.3869,21.1,81,0.0,977.0,5.65,24.1,209,338.1,52.3,3,5,3,1,2026-03-30T03:06:09.886101+05:30
Bhatinda,Punjab,30.211,74.9455,21.4,83,0.0,981.9,3.5,40.3,191,551.3,113.4,3,5,3,1,2026-03-30T03:06:09.886108+05:30
Rohtak,Haryana,28.8955,76.6066,21.4,80,0.0,979.5,6.8,23.0,301,347.4,85.4,3,5,7,1,2026-03-30T03:06:09.886114+05:30
Panipat,Haryana,29.3909,76.9635,20.9,79,0.0,978.6,6.4,24.5,411,190.9,64.7,3,5,7,1,2026-03-30T03:06:09.886120+05:30
Mathura,Uttar Pradesh,27.4924,77.6737,23.0,75,0.0,984.5,6.3,36.7,238,355.8,69.8,3,5,7,1,2026-03-30T03:06:09.886127+05:30
Vrindavan,Uttar Pradesh,27.5823,77.7027,23.1,73,0.0,985.1,6.3,36.7,238,355.8,69.8,3,5,7,1,2026-03-30T03:06:09.886134+05:30
Ayodhya,Uttar Pradesh,26.7922,82.1998,20.6,76,0.0,993.9,7.5,25.6,134,93.6,59.8,3,5,7,1,2026-03-30T03:06:09.886141+05:30
Ratlam,Madhya Pradesh,23.3315,75.0367,24.1,70,0.0,952.5,7.6,28.8,50,33.9,16.7,3,5,7,1,2026-03-30T03:06:09.886147+05:30
Sagar,Madhya Pradesh,23.8388,78.7378,26.1,52,0.0,948.0,8.2,40.0,34,16.9,10.7,4,5,7,0,2026-03-30T03:06:09.886153+05:30
Satna,Madhya Pradesh,24.6005,80.8322,24.9,52,0.0,969.1,8.2,41.4,61,43.9,20.1,0,5,7,0,2026-03-30T03:06:09.886160+05:30
Akola,Maharashtra,20.7002,77.0082,25.5,66,0.0,973.0,8.55,31.3,52,14.5,9.8,7,5,7,1,2026-03-30T03:06:09.886167+05:30
Amravati,Maharashtra,20.9374,77.7796,25.4,58,0.0,964.7,8.55,19.4,52,13.8,9.8,4,5,7,1,2026-03-30T03:06:09.886174+05:30
Latur,Maharashtra,18.4088,76.5604,24.4,52,0.0,937.1,8.4,36.7,51,38.3,24.1,0,5,7,0,2026-03-30T03:06:09.886181+05:30
Nanded,Maharashtra,19.1383,77.3091,26.1,60,0.0,966.1,7.2,52.9,56,29.5,20.3,4,5,7,1,2026-03-30T03:06:09.886187+05:30
Gulbarga,Karnataka,17.3297,76.8343,27.9,43,0.0,955.4,8.9,30.2,58,27.4,25.8,4,5,7,0,2026-03-30T03:06:09.886193+05:30
Bidar,Karnataka,17.9104,77.5199,27.3,56,0.0,932.6,8.1,29.5,67,32.8,29.5,4,5,7,1,2026-03-30T03:06:09.886199+05:30
Hospet,Karnataka,15.2689,76.3909,26.0,71,0.0,952.9,8.25,31.3,74,39.7,36.8,7,5,7,1,2026-03-30T03:06:09.886205+05:30
Tirupur,Tamil Nadu,11.1085,77.3411,26.2,84,0.0,973.5,9.5,19.1,111,35.4,32.6,7,5,7,1,2026-03-30T03:06:09.886212+05:30
Alappuzha,Kerala,9.4981,76.3388,28.2,85,0.0,1006.3,9.2,25.6,89,41.8,37.4,7,5,4,1,2026-03-30T03:06:09.886219+05:30
Munnar,Kerala,10.0889,77.0595,19.8,91,0.0,854.3,7.65,28.1,89,41.1,39.3,3,10,7,1,2026-03-30T03:06:09.886225+05:30
Silchar,Assam,24.8333,92.7789,21.2,90,0.0,1005.5,8.35,29.2,151,106.2,74.0,3,5,4,1,2026-03-30T03:06:09.886232+05:30
Dibrugarh,Assam,27.4728,94.912,19.9,91,0.0,997.1,6.75,11.2,71,22.2,19.6,3,10,7,1,2026-03-30T03:06:09.886238+05:30
