city,state,latitude,longitude,temp,humidity,rain,pressure,uv_index,wind_gusts,aqi,pm10,pm2_5,no2,co,o3,so2,mosquito_risk,arthritis_risk,migraine_risk,frizz_risk,updated_at
Delhi,Delhi,28.6139,77.209,36.8,35,0.0,976.4,7.75,27.4,185,212.8,71.9,21.0,331.0,115.0,13.7,0,5,10,1,2026-06-25T18:51:31.274781+05:30
Mumbai,Maharashtra,19.076,72.8777,28.7,80,0.0,1005.0,7.2,42.1,54,18.7,10.3,11.1,268.0,54.0,8.7,7,5,4,1,2026-06-25T18:51:31.274830+05:30
Bangalore,Karnataka,12.9716,77.5946,24.9,73,0.0,909.7,8.45,52.9,30,14.0,10.2,20.2,535.0,46.0,4.8,3,5,7,1,2026-06-25T18:51:31.274846+05:30
Hyderabad,Telangana,17.385,78.4867,28.7,61,0.0,949.2,6.05,43.6,41,20.9,15.4,17.3,418.0,65.0,5.3,7,5,7,1,2026-06-25T18:51:31.274857+05:30
Chennai,Tamil Nadu,13.0827,80.2707,31.1,70,0.0,1003.1,7.9,38.9,72,29.7,21.9,9.9,362.0,109.0,7.4,3,5,4,1,2026-06-25T18:51:31.274866+05:30
Kolkata,West Bengal,22.5726,88.3639,29.2,89,0.0,1000.9,8.7,33.8,123,31.0,28.1,8.8,643.0,104.0,10.3,7,5,4,1,2026-06-25T18:51:31.274874+05:30
Pune,Maharashtra,18.5204,73.8567,25.7,76,0.0,945.0,8.3,38.5,34,11.2,6.9,8.9,170.0,62.0,6.4,7,5,7,1,2026-06-25T18:51:31.274882+05:30
Ahmedabad,Gujarat,23.0225,72.5714,34.8,46,0.1,995.8,8.0,36.4,72,69.2,25.1,5.2,154.0,86.0,3.2,3,5,7,1,2026-06-25T18:51:31.274895+05:30
Jaipur,Rajasthan,26.9124,75.7873,32.9,50,0.0,954.4,8.2,33.5,135,132.2,45.3,6.5,186.0,83.0,3.5,0,5,7,1,2026-06-25T18:51:31.274902+05:30
Lucknow,Uttar Pradesh,26.8467,80.9462,37.7,34,0.0,986.8,8.3,34.2,157,205.4,59.8,8.4,238.0,125.0,6.2,0,5,10,1,2026-06-25T18:51:31.274915+05:30
Kanpur,Uttar Pradesh,26.4499,80.3319,37.8,29,0.0,985.0,8.05,45.0,151,181.1,49.9,9.8,207.0,114.0,6.1,0,5,10,1,2026-06-25T18:51:31.274922+05:30
Chandigarh,Chandigarh,30.7333,76.7794,32.7,54,0.0,963.2,7.8,27.4,201,88.2,49.7,19.6,565.0,164.0,14.8,0,5,7,1,2026-06-25T18:51:31.274929+05:30
Srinagar,Jammu and Kashmir,34.0837,74.7973,27.3,47,0.0,839.9,9.1,27.0,129,18.2,15.1,9.6,642.0,125.0,2.2,4,5,7,0,2026-06-25T18:51:31.274936+05:30
Jammu,Jammu and Kashmir,32.7266,74.857,30.6,52,0.0,967.4,8.65,31.3,132,53.1,31.2,11.4,309.0,136.0,5.2,0,5,7,1,2026-06-25T18:51:31.274942+05:30
Amritsar,Punjab,31.634,74.8723,29.2,70,0.0,975.2,8.45,31.3,169,66.4,43.2,18.8,384.0,150.0,8.4,7,5,7,1,2026-06-25T18:51:31.274948+05:30
Ludhiana,Punjab,30.901,75.8573,34.6,43,0.0,972.7,8.05,34.6,171,127.6,53.3,15.4,480.0,156.0,7.9,0,5,7,1,2026-06-25T18:51:31.274955+05:30
Jalandhar,Punjab,31.326,75.5762,32.5,46,0.0,974.0,7.55,33.5,169,84.3,49.5,18.1,376.0,147.0,8.3,0,5,7,1,2026-06-25T18:51:31.274960+05:30
Dehradun,Uttarakhand,30.6284,78.0322,21.6,76,0.0,828.9,7.65,28.4,148,36.9,30.2,10.6,252.0,145.0,3.8,3,5,7,1,2026-06-25T18:51:31.274969+05:30
Shimla,Himachal Pradesh,31.1048,77.1734,17.8,83,0.0,783.3,6.5,34.2,153,56.8,39.2,10.7,371.0,144.0,5.7,3,10,7,0,2026-06-25T18:51:31.274976+05:30
Manali,Himachal Pradesh,32.2396,77.1887,20.8,85,0.0,818.1,8.85,39.2,44,26.7,25.3,51.4,214.0,54.0,0.3,3,5,7,1,2026-06-25T18:51:31.274984+05:30
Gurgaon,Haryana,28.4595,77.0266,35.0,39,0.0,975.0,7.8,26.3,199,267.3,70.1,21.6,473.0,101.0,10.1,0,5,7,1,2026-06-25T18:51:31.274990+05:30
Noida,Uttar Pradesh,28.5355,77.391,34.0,51,0.0,977.8,7.8,20.9,199,267.3,70.1,21.6,422.0,101.0,10.1,0,5,7,1,2026-06-25T18:51:31.274996+05:30
Ghaziabad,Uttar Pradesh,28.6692,77.4538,33.9,48,0.0,976.4,7.2,23.4,207,237.5,85.7,19.3,345.0,177.0,24.6,0,5,7,1,2026-06-25T18:51:31.275003+05:30
Faridabad,Haryana,28.4089,77.3178,36.3,34,0.0,977.2,7.8,28.4,199,267.3,70.1,21.6,411.0,101.0,10.1,0,5,10,1,2026-06-25T18:51:31.275010+05:30
Meerut,Uttar Pradesh,28.9845,77.7064,34.2,46,0.0,975.2,7.25,35.6,207,237.5,85.7,19.3,283.0,177.0,24.6,0,5,7,1,2026-06-25T18:51:31.275017+05:30
Agra,Uttar Pradesh,27.1767,78.0081,36.9,33,0.0,981.2,8.1,31.0,161,210.0,58.2,17.9,214.0,92.0,6.3,0,5,10,1,2026-06-25T18:51:31.275024+05:30
Varanasi,Uttar Pradesh,25.3176,82.9739,37.8,36,0.0,990.9,8.75,37.4,115,105.2,50.4,14.7,364.0,121.0,10.9,0,5,10,1,2026-06-25T18:51:31.275031+05:30
Prayagraj,Uttar Pradesh,25.4358,81.8463,37.6,36,0.0,989.3,8.6,34.6,131,124.8,53.1,11.7,198.0,127.0,9.8,0,5,10,1,2026-06-25T18:51:31.275038+05:30
Gorakhpur,Uttar Pradesh,26.7606,83.3732,35.3,50,0.0,990.8,8.65,24.8,182,135.5,70.8,18.1,279.0,120.0,10.2,0,5,10,1,2026-06-25T18:51:31.275045+05:30
Bareilly,Uttar Pradesh,28.367,79.4304,35.2,43,0.0,980.1,8.1,20.5,175,172.3,65.4,8.8,244.0,143.0,9.9,0,5,10,1,2026-06-25T18:51:31.275053+05:30
Aligarh,Uttar Pradesh,27.8974,78.088,35.0,42,0.0,979.2,7.95,24.8,270,318.5,81.7,17.4,263.0,102.0,8.5,0,5,7,1,2026-06-25T18:51:31.275059+05:30
Moradabad,Uttar Pradesh,28.8386,78.7733,35.0,42,0.0,977.4,7.9,30.6,176,208.2,71.7,11.0,352.0,137.0,10.6,0,5,7,1,2026-06-25T18:51:31.275066+05:30
Saharanpur,Uttar Pradesh,29.9637,77.546,33.4,48,0.0,969.9,7.45,37.8,189,186.3,66.8,15.5,297.0,158.0,19.2,0,5,7,1,2026-06-25T18:51:31.275071+05:30
Jhansi,Uttar Pradesh,25.4484,78.5685,35.7,36,0.0,972.2,8.45,39.2,83,67.8,30.3,5.9,195.0,92.0,5.7,0,5,10,1,2026-06-25T18:51:34.515888+05:30
Surat,Gujarat,21.1702,72.8311,30.6,72,0.0,1001.7,7.6,40.7,73,32.9,18.5,17.7,204.0,36.0,37.3,3,5,4,1,2026-06-25T18:51:34.515926+05:30
Vadodara,Gujarat,22.3072,73.1812,35.8,40,0.0,998.0,8.0,41.8,73,73.1,28.5,7.2,164.0,85.0,8.1,0,5,10,1,2026-06-25T18:51:34.515938+05:30
Rajkot,Gujarat,22.3039,70.8022,34.0,47,0.0,988.6,7.55,51.8,68,61.5,23.2,2.7,111.0,81.0,4.2,0,5,7,1,2026-06-25T18:51:34.515946+05:30
Thane,Maharashtra,19.2183,72.9781,28.2,82,0.0,1004.3,7.5,32.4,54,18.7,10.3,11.1,259.0,54.0,8.7,7,5,4,1,2026-06-25T18:51:34.515954+05:30
Nagpur,Maharashtra,21.1458,79.0882,30.1,70,0.0,968.6,8.0,25.6,75,33.3,24.6,14.5,278.0,103.0,24.4,3,5,7,1,2026-06-25T18:51:34.515964+05:30
Nashik,Maharashtra,19.9975,73.7898,27.2,67,0.0,942.0,7.35,44.3,43,14.6,8.8,5.3,156.0,79.0,4.6,7,5,7,1,2026-06-25T18:51:34.515971+05:30
Aurangabad,Maharashtra,19.8762,75.3433,27.1,73,0.0,940.5,1.8,42.1,56,20.3,11.8,6.5,235.0,73.0,2.9,7,5,3,1,2026-06-25T18:51:34.515979+05:30
Solapur,Maharashtra,17.6599,75.9064,28.5,68,0.0,953.5,7.45,36.4,39,33.5,14.5,3.9,147.0,77.0,2.2,7,5,7,1,2026-06-25T18:51:34.515988+05:30
Kolhapur,Maharashtra,16.705,74.2433,24.2,85,0.0,945.5,6.75,45.4,30,6.0,4.5,5.4,141.0,53.0,2.0,3,5,7,1,2026-06-25T18:51:34.515996+05:30
Goa,Goa,15.2993,74.124,24.2,99,0.1,997.0,5.55,27.7,44,14.1,8.6,4.1,178.0,50.0,1.2,6,5,3,1,2026-06-25T18:51:34.516003+05:30
Jodhpur,Rajasthan,26.2389,73.0243,35.5,39,0.0,976.6,8.35,36.4,145,180.7,40.7,3.6,126.0,76.0,1.6,0,5,10,1,2026-06-25T18:51:34.516010+05:30
Udaipur,Rajasthan,24.5854,73.7125,31.5,47,0.1,941.7,8.75,35.6,71,75.9,23.6,2.3,139.0,78.0,1.7,3,5,7,1,2026-06-25T18:51:34.516018+05:30
Kota,Rajasthan,25.2138,75.8648,30.1,70,0.0,973.8,8.3,42.5,86,63.8,29.1,4.5,226.0,93.0,4.9,3,5,7,1,2026-06-25T18:51:34.516026+05:30
Bikaner,Rajasthan,28.0229,73.3119,36.3,39,0.0,975.2,8.4,31.7,154,230.5,60.5,1.6,140.0,82.0,2.0,0,5,10,1,2026-06-25T18:51:34.516033+05:30
Ajmer,Rajasthan,26.4499,74.6399,31.6,52,0.0,949.6,8.3,42.1,100,119.7,37.7,5.2,171.0,76.0,2.3,0,5,7,1,2026-06-25T18:51:34.516040+05:30
Gwalior,Madhya Pradesh,26.2183,78.1828,36.5,32,0.0,977.1,8.25,34.6,87,82.7,33.9,4.6,180.0,92.0,2.8,0,5,10,1,2026-06-25T18:51:34.516048+05:30
Indore,Madhya Pradesh,22.7196,75.8577,27.8,75,0.0,943.9,7.35,38.9,75,61.7,33.4,9.6,708.0,83.0,4.3,7,5,7,1,2026-06-25T18:51:34.516055+05:30
Bhopal,Madhya Pradesh,23.2599,77.4126,26.3,86,0.3,949.5,7.85,31.3,78,51.8,29.6,7.7,286.0,82.0,5.5,10,5,7,1,2026-06-25T18:51:34.516061+05:30
Jabalpur,Madhya Pradesh,23.1815,79.9864,29.6,67,0.0,956.8,8.85,24.8,70,50.4,29.8,6.5,206.0,91.0,3.2,7,5,7,1,2026-06-25T18:51:34.516069+05:30
Ujjain,Madhya Pradesh,23.1765,75.7885,27.5,72,0.0,949.7,8.3,42.1,78,69.6,30.5,3.7,260.0,88.0,4.0,7,5,7,1,2026-06-25T18:51:34.516076+05:30
Visakhapatnam,Andhra Pradesh,17.6868,83.2185,31.4,70,0.0,997.9,8.5,30.2,108,30.5,27.1,26.6,628.0,101.0,43.5,3,5,7,1,2026-06-25T18:51:34.516083+05:30
Vijayawada,Andhra Pradesh,16.5062,80.648,32.2,66,0.0,996.9,8.5,40.0,60,20.5,17.6,7.4,382.0,87.0,4.9,3,5,7,1,2026-06-25T18:51:34.516090+05:30
Guntur,Andhra Pradesh,16.3067,80.4365,32.5,58,0.0,998.2,8.55,38.5,55,19.1,16.0,7.6,295.0,82.0,5.5,0,5,7,1,2026-06-25T18:51:34.516097+05:30
Nellore,Andhra Pradesh,14.4426,79.9865,33.5,52,0.1,1000.9,8.55,46.8,43,24.9,16.4,6.3,175.0,99.0,4.2,3,5,4,1,2026-06-25T18:51:34.516105+05:30
Kurnool,Andhra Pradesh,15.8281,78.0373,30.4,54,0.0,973.0,6.5,49.0,40,34.5,16.1,4.2,153.0,83.0,5.3,0,5,7,1,2026-06-25T18:51:34.516113+05:30
Kakinada,Andhra Pradesh,16.9891,82.2475,31.2,66,0.0,1001.7,8.7,43.9,88,20.1,15.5,5.3,362.0,115.0,4.7,3,5,4,1,2026-06-25T18:51:34.516120+05:30
Tirupati,Andhra Pradesh,13.6288,79.4192,27.2,85,0.2,987.7,8.25,41.8,39,16.6,13.0,14.8,219.0,58.0,1.8,10,5,7,1,2026-06-25T18:51:34.516127+05:30
Warangal,Telangana,17.9689,79.5941,30.2,68,0.0,973.7,4.25,34.9,57,22.4,17.1,6.9,254.0,94.0,4.8,3,5,3,1,2026-06-25T18:51:34.516134+05:30
Nizamabad,Telangana,18.6725,78.0941,25.4,96,0.0,960.9,8.1,47.5,63,22.1,15.7,4.4,212.0,91.0,2.1,7,5,7,1,2026-06-25T18:51:34.516140+05:30
Mysore,Karnataka,12.2958,76.6396,25.3,70,0.0,927.1,8.2,45.0,33,11.8,7.3,5.8,155.0,66.0,1.7,7,5,7,1,2026-06-25T18:51:34.516147+05:30
Mangalore,Karnataka,12.9141,74.856,25.6,94,0.0,1006.1,8.65,31.3,43,14.6,8.4,3.8,137.0,50.0,1.8,7,5,4,1,2026-06-25T18:51:34.516154+05:30
Hubli-Dharwad,Karnataka,15.3647,75.124,24.7,81,0.0,939.0,8.8,49.3,25,4.2,2.9,5.6,131.0,49.0,1.2,3,5,7,1,2026-06-25T18:51:34.516161+05:30
Belgaum,Karnataka,15.8497,74.4977,23.3,85,0.0,923.7,8.0,50.8,26,2.5,1.9,4.8,121.0,48.0,1.2,3,5,7,1,2026-06-25T18:51:37.745510+05:30
Coimbatore,Tamil Nadu,11.0168,76.9558,26.6,76,0.0,959.8,8.35,54.7,32,8.2,6.3,5.9,170.0,62.0,2.8,7,5,7,1,2026-06-25T18:51:37.745550+05:30
Madurai,Tamil Nadu,9.9252,78.1198,34.4,41,0.0,989.6,8.65,24.5,67,12.9,10.5,19.1,292.0,63.0,4.1,0,5,7,1,2026-06-25T18:51:37.745562+05:30
Trichy,Tamil Nadu,10.7905,78.7047,30.4,75,0.2,996.7,8.3,45.0,37,8.8,6.5,6.5,285.0,68.0,2.6,6,5,7,1,2026-06-25T18:51:37.745571+05:30
Salem,Tamil Nadu,11.6643,78.146,29.1,75,0.0,974.7,8.85,37.8,51,11.7,8.9,7.3,337.0,76.0,4.8,7,5,7,1,2026-06-25T18:51:37.745580+05:30
Tirunelveli,Tamil Nadu,8.7139,77.7567,32.4,47,0.0,1000.9,8.6,44.3,32,7.5,5.9,4.1,132.0,64.0,1.7,0,5,4,1,2026-06-25T18:51:37.745588+05:30
Vellore,Tamil Nadu,12.9165,79.1325,25.8,92,0.0,981.1,8.3,43.9,42,17.9,13.6,17.0,264.0,53.0,3.5,7,5,7,1,2026-06-25T18:51:37.745596+05:30
Erode,Tamil Nadu,11.341,77.7172,33.1,45,0.0,986.2,8.85,41.0,40,9.7,7.9,9.5,188.0,66.0,2.6,0,5,7,1,2026-06-25T18:51:37.745603+05:30
Kochi,Kerala,9.9312,76.2673,28.5,77,0.0,1008.1,8.55,32.4,37,14.1,11.8,15.1,145.0,37.0,4.4,7,0,4,1,2026-06-25T18:51:37.745612+05:30
Thiruvananthapuram,Kerala,8.5241,76.9366,27.7,80,0.0,1007.3,8.4,43.9,30,9.7,6.4,2.9,115.0,59.0,1.3,7,5,4,1,2026-06-25T18:51:37.745619+05:30
Kozhikode,Kerala,11.2588,75.7804,26.7,89,0.0,1007.4,8.5,32.8,28,10.8,6.0,0.9,177.0,58.0,0.8,7,5,4,1,2026-06-25T18:51:37.745626+05:30
Thrissur,Kerala,10.5276,76.2144,27.6,83,0.0,1006.5,8.55,33.8,39,11.8,9.9,8.4,169.0,46.0,2.9,7,5,4,1,2026-06-25T18:51:37.745634+05:30
Kannur,Kerala,11.8745,75.3704,25.8,96,0.1,1006.7,8.55,26.3,28,12.8,7.9,4.2,160.0,51.0,1.3,10,5,4,1,2026-06-25T18:51:37.745642+05:30
Patna,Bihar,25.5941,85.1376,34.7,58,0.0,994.2,8.85,26.3,169,102.9,58.3,25.7,374.0,114.0,14.3,0,5,7,1,2026-06-25T18:51:37.745649+05:30
Gaya,Bihar,24.7914,85.0002,35.0,44,0.0,987.4,8.9,23.0,139,96.9,49.8,10.9,295.0,121.0,10.6,0,5,7,1,2026-06-25T18:51:37.745656+05:30
Muzaffarpur,Bihar,26.1209,85.3647,33.0,75,0.0,994.1,8.85,33.5,199,120.6,74.7,24.7,581.0,125.0,14.6,3,5,7,1,2026-06-25T18:51:37.745662+05:30
Bhagalpur,Bihar,25.2425,87.0117,33.8,69,0.0,995.0,8.8,24.5,196,77.8,48.1,9.0,388.0,155.0,13.2,3,5,7,1,2026-06-25T18:51:37.745669+05:30
Ranchi,Jharkhand,23.3441,85.3096,26.8,85,0.0,933.7,9.05,27.4,110,27.6,27.3,6.8,252.0,109.0,7.3,7,5,7,1,2026-06-25T18:51:37.745676+05:30
Jamshedpur,Jharkhand,22.8046,86.2029,30.5,76,0.0,985.6,9.0,27.4,158,38.6,37.5,10.3,553.0,142.0,22.5,3,5,7,1,2026-06-25T18:51:37.745682+05:30
Dhanbad,Jharkhand,23.7957,86.4304,32.2,65,0.0,974.8,9.0,32.4,189,62.4,62.2,27.4,1140.0,156.0,77.8,3,5,7,1,2026-06-25T18:51:37.745689+05:30
Bokaro,Jharkhand,23.6693,86.1511,31.7,67,0.0,978.4,9.05,45.7,173,56.6,55.6,22.0,989.0,149.0,64.9,3,5,7,1,2026-06-25T18:51:37.745697+05:30
Bhubaneswar,Odisha,20.2961,85.8245,30.5,82,0.0,996.9,9.0,34.2,119,26.1,24.8,9.7,404.0,99.0,6.8,3,5,7,1,2026-06-25T18:51:37.745704+05:30
Cuttack,Odisha,20.4625,85.8828,30.4,85,0.0,998.7,9.1,32.4,119,26.1,24.8,9.7,378.0,99.0,6.8,3,5,7,1,2026-06-25T18:51:37.745711+05:30
Rourkela,Odisha,22.2604,84.8536,29.3,76,0.0,980.3,8.85,50.8,120,32.2,32.1,8.2,523.0,127.0,10.3,7,5,7,1,2026-06-25T18:51:37.745717+05:30
Raipur,Chhattisgarh,21.2514,81.6296,32.1,57,0.0,970.1,8.85,31.0,88,33.9,33.6,19.5,359.0,111.0,45.9,0,5,7,1,2026-06-25T18:51:37.745724+05:30
Bhilai,Chhattisgarh,21.1938,81.3509,28.4,79,0.1,970.9,8.4,41.0,74,24.4,23.9,22.4,800.0,96.0,47.0,10,5,7,1,2026-06-25T18:51:37.745730+05:30
Guwahati,Assam,26.1158,91.7086,29.2,83,0.0,996.1,8.8,21.2,93,25.0,21.5,8.9,411.0,84.0,5.9,7,5,7,1,2026-06-25T18:51:37.745736+05:30
Agartala,Tripura,23.8315,91.2868,29.0,79,0.0,1001.8,8.75,30.2,102,31.3,28.2,13.3,243.0,79.0,4.9,7,5,4,1,2026-06-25T18:51:37.745743+05:30
Shillong,Meghalaya,25.5788,91.8933,20.9,94,0.0,855.2,7.05,18.7,84,9.8,8.5,5.5,338.0,109.0,3.5,3,5,7,1,2026-06-25T18:51:37.745749+05:30
Imphal,Manipur,24.817,93.9368,24.4,95,0.0,919.9,9.0,24.8,56,33.5,23.5,10.9,292.0,76.0,4.0,3,5,7,1,2026-06-25T18:51:37.745755+05:30
Aizawl,Mizoram,23.7271,92.7176,21.2,91,0.0,889.6,8.3,19.4,57,27.0,17.6,5.0,208.0,67.0,1.4,3,5,7,1,2026-06-25T18:51:37.745761+05:30
Kohima,Nagaland,25.6701,94.1077,21.3,98,0.0,853.0,9.25,23.4,49,16.4,12.1,4.5,308.0,84.0,2.6,3,5,7,1,2026-06-25T18:51:37.745768+05:30
Gangtok,Sikkim,27.3314,88.6138,19.4,98,0.1,835.9,8.8,38.5,113,9.1,7.6,6.5,379.0,138.0,2.7,6,10,7,1,2026-06-25T18:51:37.745775+05:30
Siliguri,West Bengal,26.7271,88.3953,29.0,79,0.0,987.9,8.75,21.2,147,49.5,39.6,10.4,802.0,140.0,9.0,7,5,7,1,2026-06-25T18:51:40.978063+05:30
Durgapur,West Bengal,23.5204,87.3119,30.5,78,0.0,989.7,8.85,28.4,198,58.9,58.6,23.5,363.0,139.0,47.9,3,5,7,1,2026-06-25T18:51:40.978101+05:30
Asansol,West Bengal,23.6739,86.9524,31.3,74,0.0,988.3,8.85,25.2,186,52.3,52.0,23.0,528.0,139.0,44.0,3,5,7,1,2026-06-25T18:51:40.978113+05:30
Pondicherry,Puducherry,11.9139,79.8145,28.5,84,0.0,1005.2,8.0,42.5,87,25.6,19.9,12.2,275.0,109.0,8.5,7,5,4,1,2026-06-25T18:51:40.978123+05:30
Port Blair,Andaman and Nicobar Islands,11.6234,92.7265,26.4,88,0.0,1006.4,7.95,39.2,26,4.7,3.0,0.5,118.0,54.0,0.3,7,5,4,1,2026-06-25T18:51:40.978132+05:30
Haridwar,Uttarakhand,29.9457,78.1642,32.4,65,0.0,968.0,7.4,31.0,182,136.0,51.7,6.4,319.0,177.0,14.1,3,5,7,1,2026-06-25T18:51:40.978140+05:30
Rishikesh,Uttarakhand,30.0869,78.2676,30.7,65,0.0,961.0,7.15,23.4,165,89.9,38.3,5.1,338.0,159.0,7.9,3,5,7,1,2026-06-25T18:51:40.978147+05:30
Nainital,Uttarakhand,29.3919,79.4542,20.0,75,0.0,804.4,6.85,28.4,166,113.6,43.2,4.5,261.0,163.0,8.8,3,5,7,0,2026-06-25T18:51:40.978154+05:30
Mussoorie,Uttarakhand,30.4599,78.0664,18.4,98,0.0,801.4,7.15,30.6,184,72.9,40.9,5.9,309.0,186.0,12.3,3,10,7,1,2026-06-25T18:51:40.978162+05:30
Dharamshala,Himachal Pradesh,32.219,76.3234,23.5,72,0.0,866.7,8.45,37.1,111,20.9,16.8,7.8,320.0,108.0,1.1,3,5,7,1,2026-06-25T18:51:40.978170+05:30
Dalhousie,Himachal Pradesh,32.5387,75.971,19.4,83,0.0,803.4,8.25,26.3,155,38.1,26.4,8.3,441.0,156.0,3.2,3,10,7,1,2026-06-25T18:51:40.978178+05:30
Patiala,Punjab,30.3398,76.3869,34.6,43,0.0,972.2,7.7,26.6,184,175.1,65.9,12.3,304.0,153.0,10.0,0,5,7,1,2026-06-25T18:51:40.978185+05:30
Bhatinda,Punjab,30.211,74.9455,34.9,44,0.0,977.4,8.3,39.2,159,153.7,60.1,16.0,255.0,150.0,16.1,0,5,7,1,2026-06-25T18:51:40.978192+05:30
Rohtak,Haryana,28.8955,76.6066,34.5,48,0.0,975.1,7.75,19.1,178,193.2,61.2,22.2,477.0,87.0,4.7,0,5,7,1,2026-06-25T18:51:40.978199+05:30
Panipat,Haryana,29.3909,76.9635,33.5,52,0.0,974.1,7.65,29.5,288,248.7,79.2,18.4,329.0,119.0,13.8,0,5,7,1,2026-06-25T18:51:40.978205+05:30
Mathura,Uttar Pradesh,27.4924,77.6737,35.0,49,0.0,980.3,8.05,24.8,208,274.7,67.1,26.9,315.0,75.0,4.3,0,5,7,1,2026-06-25T18:51:40.978212+05:30
Vrindavan,Uttar Pradesh,27.5823,77.7027,34.3,59,0.0,980.7,8.0,22.7,208,274.7,67.1,26.9,306.0,75.0,4.3,0,5,7,1,2026-06-25T18:51:40.978218+05:30
Ayodhya,Uttar Pradesh,26.7922,82.1998,34.6,51,0.0,988.7,8.4,26.6,164,184.9,65.9,11.8,269.0,126.0,8.1,0,5,7,1,2026-06-25T18:51:40.978225+05:30
Ratlam,Madhya Pradesh,23.3315,75.0367,26.1,90,0.0,949.7,8.35,40.0,76,76.4,31.2,2.0,137.0,92.0,3.9,7,5,7,1,2026-06-25T18:51:40.978232+05:30
Sagar,Madhya Pradesh,23.8388,78.7378,27.8,73,0.0,946.0,8.5,31.0,78,60.3,29.1,3.7,180.0,103.0,5.0,7,5,7,1,2026-06-25T18:51:40.978239+05:30
Satna,Madhya Pradesh,24.6005,80.8322,33.8,47,0.0,966.1,8.5,26.3,80,69.2,31.5,4.3,198.0,102.0,2.7,0,5,7,1,2026-06-25T18:51:40.978245+05:30
Akola,Maharashtra,20.7002,77.0082,28.8,74,0.0,971.1,8.65,40.7,64,40.0,22.7,8.4,194.0,79.0,6.9,7,5,7,1,2026-06-25T18:51:40.978252+05:30
Amravati,Maharashtra,20.9374,77.7796,26.3,92,0.0,963.3,8.65,33.8,63,32.4,20.0,10.8,221.0,67.0,4.6,7,5,7,1,2026-06-25T18:51:40.978260+05:30
Latur,Maharashtra,18.4088,76.5604,23.3,97,0.1,936.1,7.8,37.1,45,32.9,17.0,5.2,208.0,72.0,1.8,6,5,7,1,2026-06-25T18:51:40.978267+05:30
Nanded,Maharashtra,19.1383,77.3091,26.0,91,0.1,965.0,8.0,40.7,61,16.3,11.9,7.1,243.0,72.0,1.9,10,5,7,1,2026-06-25T18:51:40.978274+05:30
Gulbarga,Karnataka,17.3297,76.8343,30.2,51,0.0,954.8,6.25,41.8,39,34.0,16.4,6.8,182.0,76.0,2.4,0,5,7,1,2026-06-25T18:51:40.978281+05:30
Bidar,Karnataka,17.9104,77.5199,24.2,95,0.3,931.7,7.15,38.5,46,19.0,13.7,9.5,212.0,81.0,3.1,6,5,7,1,2026-06-25T18:51:40.978288+05:30
Hospet,Karnataka,15.2689,76.3909,28.1,60,0.0,953.1,8.1,44.6,29,5.0,3.4,5.2,133.0,50.0,1.8,4,5,7,1,2026-06-25T18:51:40.978295+05:30
Tirupur,Tamil Nadu,11.1085,77.3411,27.8,70,0.0,972.9,8.15,54.7,44,10.4,8.7,11.1,166.0,64.0,3.6,7,5,7,1,2026-06-25T18:51:40.978317+05:30
Alappuzha,Kerala,9.4981,76.3388,29.0,75,0.0,1008.0,8.45,33.1,32,13.0,9.7,9.7,87.0,50.0,3.4,7,0,4,1,2026-06-25T18:51:40.978325+05:30
Munnar,Kerala,10.0889,77.0595,17.3,99,0.1,856.0,9.1,37.4,25,6.7,5.1,7.4,103.0,40.0,1.4,6,10,7,1,2026-06-25T18:51:40.978332+05:30
Silchar,Assam,24.8333,92.7789,29.0,89,0.0,1000.3,8.75,19.4,77,40.3,27.4,4.9,311.0,108.0,5.1,7,5,4,1,2026-06-25T18:51:40.978339+05:30
Dibrugarh,Assam,27.4728,94.912,29.8,86,0.1,989.7,8.55,22.7,82,25.5,23.1,10.9,291.0,98.0,3.3,10,5,7,1,2026-06-25T18:51:40.978345+05:30
