city,state,latitude,longitude,temp,humidity,rain,pressure,uv_index,wind_gusts,aqi,pm10,pm2_5,no2,co,o3,so2,mosquito_risk,arthritis_risk,migraine_risk,frizz_risk,updated_at
Delhi,Delhi,28.6139,77.209,23.4,80,0.0,985.1,7.05,41.0,179,123.4,56.3,41.7,631.0,107.0,34.0,3,5,7,1,2026-05-05T21:29:32.930863+05:30
Mumbai,Maharashtra,19.076,72.8777,28.8,75,0.0,1008.6,7.85,40.7,71,70.3,23.2,8.9,242.0,65.0,21.1,7,0,4,1,2026-05-05T21:29:32.930909+05:30
Bangalore,Karnataka,12.9716,77.5946,27.5,45,0.0,912.3,8.85,34.2,116,94.8,64.7,110.4,463.0,24.0,23.3,4,5,7,0,2026-05-05T21:29:32.930926+05:30
Hyderabad,Telangana,17.385,78.4867,30.0,45,0.0,953.2,9.25,38.2,133,63.6,40.5,45.5,327.0,69.0,15.8,4,5,7,1,2026-05-05T21:29:32.930938+05:30
Chennai,Tamil Nadu,13.0827,80.2707,29.1,82,0.0,1007.7,8.7,36.7,72,21.5,13.6,6.8,198.0,72.0,5.1,7,5,4,1,2026-05-05T21:29:32.930948+05:30
Kolkata,West Bengal,22.5726,88.3639,26.1,88,0.0,1008.1,8.65,45.7,78,27.3,24.9,15.7,495.0,53.0,10.5,7,0,4,1,2026-05-05T21:29:32.930962+05:30
Pune,Maharashtra,18.5204,73.8567,26.2,74,0.0,948.1,8.45,45.0,56,38.3,17.2,7.9,216.0,86.0,7.3,7,5,7,1,2026-05-05T21:29:32.930971+05:30
Ahmedabad,Gujarat,23.0225,72.5714,35.8,23,0.0,1000.8,8.1,29.9,85,141.6,48.7,37.8,355.0,70.0,13.1,0,5,7,0,2026-05-05T21:29:32.930982+05:30
Jaipur,Rajasthan,26.9124,75.7873,24.7,61,0.0,961.1,8.05,35.3,146,151.3,42.0,22.2,340.0,84.0,6.9,3,5,7,1,2026-05-05T21:29:32.930992+05:30
Lucknow,Uttar Pradesh,26.8467,80.9462,24.3,83,0.0,995.3,6.25,28.4,145,78.2,62.6,29.7,538.0,97.0,21.3,3,5,7,1,2026-05-05T21:29:32.931001+05:30
Kanpur,Uttar Pradesh,26.4499,80.3319,24.7,83,0.0,993.5,8.05,31.3,151,101.3,51.5,17.3,447.0,116.0,13.1,3,5,7,1,2026-05-05T21:29:32.931009+05:30
Chandigarh,Chandigarh,30.7333,76.7794,21.5,66,0.0,971.3,7.3,42.1,122,64.5,33.6,34.8,527.0,84.0,6.2,3,5,7,0,2026-05-05T21:29:32.931018+05:30
Srinagar,Jammu and Kashmir,34.0837,74.7973,12.3,81,0.0,842.3,8.7,25.2,89,21.0,17.8,21.5,1539.0,79.0,4.6,3,10,7,0,2026-05-05T21:29:32.931026+05:30
Jammu,Jammu and Kashmir,32.7266,74.857,23.0,50,0.0,974.4,8.3,30.2,124,42.1,20.3,18.5,361.0,97.0,3.1,0,5,7,0,2026-05-05T21:29:32.931034+05:30
Amritsar,Punjab,31.634,74.8723,24.6,56,0.0,982.8,8.2,45.0,136,74.3,31.9,6.3,529.0,129.0,6.7,0,5,7,0,2026-05-05T21:29:32.931041+05:30
Ludhiana,Punjab,30.901,75.8573,23.6,64,0.0,981.0,7.8,33.8,128,96.9,47.0,17.2,765.0,105.0,16.3,3,5,7,1,2026-05-05T21:29:32.931049+05:30
Jalandhar,Punjab,31.326,75.5762,23.6,57,0.0,981.7,7.95,41.8,142,109.0,41.1,11.0,1224.0,120.0,11.5,0,5,7,0,2026-05-05T21:29:32.931056+05:30
Dehradun,Uttarakhand,30.6284,78.0322,9.4,97,0.0,828.3,7.35,35.3,106,77.3,22.4,21.7,202.0,107.0,1.9,3,10,7,0,2026-05-05T21:29:32.931066+05:30
Shimla,Himachal Pradesh,31.1048,77.1734,9.5,72,0.0,783.3,4.75,37.8,102,58.9,22.2,21.1,356.0,91.0,2.4,3,5,3,0,2026-05-05T21:29:32.931073+05:30
Manali,Himachal Pradesh,32.2396,77.1887,8.4,75,0.0,815.9,9.65,43.2,140,20.0,7.1,16.4,331.0,137.0,0.6,3,5,7,0,2026-05-05T21:29:32.931080+05:30
Gurgaon,Haryana,28.4595,77.0266,23.4,78,0.0,983.3,7.55,32.4,292,124.3,60.3,42.6,801.0,103.0,30.7,3,5,7,1,2026-05-05T21:29:32.931088+05:30
Noida,Uttar Pradesh,28.5355,77.391,21.9,81,0.0,986.3,7.25,40.7,292,124.3,60.3,42.6,917.0,103.0,30.7,3,5,7,1,2026-05-05T21:29:32.931096+05:30
Ghaziabad,Uttar Pradesh,28.6692,77.4538,21.9,80,0.0,984.6,6.95,47.5,143,109.9,46.7,18.3,415.0,107.0,13.7,3,5,7,1,2026-05-05T21:29:32.931103+05:30
Faridabad,Haryana,28.4089,77.3178,22.8,79,0.0,985.6,7.0,35.6,292,124.3,60.3,42.6,771.0,103.0,30.7,3,5,7,1,2026-05-05T21:29:32.931110+05:30
Meerut,Uttar Pradesh,28.9845,77.7064,22.1,81,0.0,983.6,4.2,50.0,143,109.9,46.7,18.3,431.0,107.0,13.7,3,5,3,1,2026-05-05T21:29:32.931116+05:30
Agra,Uttar Pradesh,27.1767,78.0081,24.9,75,0.0,989.7,7.9,35.6,299,289.6,69.4,16.7,645.0,103.0,16.6,3,5,7,1,2026-05-05T21:29:32.931122+05:30
Varanasi,Uttar Pradesh,25.3176,82.9739,25.9,76,0.0,999.0,8.4,33.8,179,61.7,45.6,10.3,952.0,130.0,14.6,7,5,7,1,2026-05-05T21:29:32.931129+05:30
Prayagraj,Uttar Pradesh,25.4358,81.8463,26.5,73,0.0,997.5,8.2,29.9,141,60.5,46.0,13.5,465.0,106.0,12.9,7,5,7,1,2026-05-05T21:29:32.931138+05:30
Gorakhpur,Uttar Pradesh,26.7606,83.3732,24.2,80,0.0,998.6,7.8,22.7,144,47.7,41.9,22.0,590.0,84.0,10.4,3,5,7,1,2026-05-05T21:29:32.931145+05:30
Bareilly,Uttar Pradesh,28.367,79.4304,22.5,71,0.0,988.5,7.5,37.8,141,75.0,57.0,28.3,392.0,97.0,14.9,3,5,7,1,2026-05-05T21:29:32.931172+05:30
Aligarh,Uttar Pradesh,27.8974,78.088,24.5,72,0.0,987.7,7.15,41.8,178,134.1,56.0,16.4,438.0,100.0,16.0,3,5,7,1,2026-05-05T21:29:32.931180+05:30
Moradabad,Uttar Pradesh,28.8386,78.7733,21.5,81,0.0,985.6,6.4,46.4,150,76.1,56.7,24.1,502.0,111.0,21.2,3,5,7,1,2026-05-05T21:29:32.931187+05:30
Saharanpur,Uttar Pradesh,29.9637,77.546,21.5,77,0.0,978.0,6.85,45.7,117,48.3,26.9,8.1,688.0,127.0,7.0,3,5,7,1,2026-05-05T21:29:32.931194+05:30
Jhansi,Uttar Pradesh,25.4484,78.5685,27.4,50,0.0,979.3,7.9,34.6,139,82.2,35.4,3.4,327.0,124.0,8.3,4,5,7,0,2026-05-05T21:29:36.208113+05:30
Surat,Gujarat,21.1702,72.8311,28.6,78,0.0,1006.2,7.7,41.4,79,52.6,27.8,30.0,302.0,46.0,46.1,7,5,4,1,2026-05-05T21:29:36.208165+05:30
Vadodara,Gujarat,22.3072,73.1812,31.8,53,0.0,1003.0,8.05,36.7,81,57.7,30.5,18.6,619.0,83.0,13.2,0,5,4,1,2026-05-05T21:29:36.208177+05:30
Rajkot,Gujarat,22.3039,70.8022,29.2,68,0.0,993.2,7.7,43.6,91,57.2,21.0,5.8,173.0,98.0,7.2,7,5,7,1,2026-05-05T21:29:36.208186+05:30
Thane,Maharashtra,19.2183,72.9781,28.8,73,0.0,1008.0,7.85,38.2,71,70.3,23.2,8.9,220.0,65.0,21.1,7,0,4,1,2026-05-05T21:29:36.208194+05:30
Nagpur,Maharashtra,21.1458,79.0882,34.4,21,0.0,972.5,8.9,33.1,128,49.4,27.3,18.4,261.0,88.0,15.3,0,5,7,0,2026-05-05T21:29:36.208202+05:30
Nashik,Maharashtra,19.9975,73.7898,27.0,70,0.0,945.9,8.2,40.0,62,39.0,17.0,5.0,171.0,73.0,1.0,7,5,7,1,2026-05-05T21:29:36.208209+05:30
Aurangabad,Maharashtra,19.8762,75.3433,32.1,23,0.0,943.6,9.0,38.2,73,47.4,19.9,6.4,178.0,96.0,3.5,0,5,7,0,2026-05-05T21:29:36.208216+05:30
Solapur,Maharashtra,17.6599,75.9064,33.5,16,0.0,955.3,9.1,35.6,78,58.6,23.2,15.6,334.0,78.0,3.9,0,5,7,0,2026-05-05T21:29:36.208223+05:30
Kolhapur,Maharashtra,16.705,74.2433,25.3,80,0.0,947.9,8.95,46.8,61,32.7,16.2,8.3,178.0,66.0,2.9,7,5,7,1,2026-05-05T21:29:36.208230+05:30
Goa,Goa,15.2993,74.124,29.5,75,0.0,998.2,8.9,35.6,67,35.7,17.2,3.4,167.0,58.0,1.3,7,5,7,1,2026-05-05T21:29:36.208237+05:30
Jodhpur,Rajasthan,26.2389,73.0243,33.1,27,0.0,983.4,8.3,47.5,109,243.1,44.0,19.4,355.0,98.0,5.8,0,5,7,0,2026-05-05T21:29:36.208244+05:30
Udaipur,Rajasthan,24.5854,73.7125,25.7,52,0.0,946.5,8.75,40.7,95,90.6,30.4,2.4,288.0,121.0,5.1,4,5,7,0,2026-05-05T21:29:36.208251+05:30
Kota,Rajasthan,25.2138,75.8648,28.6,46,0.0,979.4,8.3,28.8,121,70.1,29.7,9.2,309.0,95.0,5.2,4,5,7,0,2026-05-05T21:29:36.208258+05:30
Bikaner,Rajasthan,28.0229,73.3119,30.3,32,0.0,983.7,8.2,30.6,123,94.5,33.6,2.1,342.0,143.0,6.3,0,5,7,0,2026-05-05T21:29:36.208265+05:30
Ajmer,Rajasthan,26.4499,74.6399,27.6,34,0.0,955.7,8.2,37.4,106,70.1,26.3,10.3,273.0,104.0,5.0,4,5,7,0,2026-05-05T21:29:36.208272+05:30
Gwalior,Madhya Pradesh,26.2183,78.1828,24.5,74,0.0,984.9,8.1,42.8,116,165.8,47.0,5.7,471.0,120.0,5.7,3,5,7,1,2026-05-05T21:29:36.208278+05:30
Indore,Madhya Pradesh,22.7196,75.8577,30.1,31,0.0,948.6,8.6,44.3,92,30.7,17.6,8.5,251.0,97.0,4.9,0,5,7,0,2026-05-05T21:29:36.208285+05:30
Bhopal,Madhya Pradesh,23.2599,77.4126,29.0,40,0.0,953.7,8.65,37.8,90,39.8,17.5,4.3,244.0,107.0,3.3,4,5,7,0,2026-05-05T21:29:36.208292+05:30
Jabalpur,Madhya Pradesh,23.1815,79.9864,28.9,42,0.0,962.3,8.3,33.5,132,41.9,27.8,6.2,232.0,124.0,6.1,4,5,7,0,2026-05-05T21:29:36.208298+05:30
Ujjain,Madhya Pradesh,23.1765,75.7885,29.1,38,0.0,954.3,8.55,46.1,88,34.6,18.2,4.3,217.0,103.0,3.6,4,5,7,0,2026-05-05T21:29:36.208306+05:30
Visakhapatnam,Andhra Pradesh,17.6868,83.2185,27.1,86,0.0,1005.7,9.2,37.4,78,37.1,28.3,35.5,375.0,38.0,9.7,7,5,4,1,2026-05-05T21:29:36.208313+05:30
Vijayawada,Andhra Pradesh,16.5062,80.648,30.0,74,0.0,1003.2,9.2,35.3,77,28.6,23.9,8.2,215.0,75.0,7.9,7,5,4,1,2026-05-05T21:29:36.208319+05:30
Guntur,Andhra Pradesh,16.3067,80.4365,29.7,76,0.0,1004.3,9.2,37.8,92,38.6,31.5,7.3,213.0,89.0,8.1,7,5,4,1,2026-05-05T21:29:36.208326+05:30
Nellore,Andhra Pradesh,14.4426,79.9865,28.5,88,0.0,1006.4,9.0,39.6,85,24.3,17.5,4.3,199.0,84.0,5.4,7,5,4,1,2026-05-05T21:29:36.208333+05:30
Kurnool,Andhra Pradesh,15.8281,78.0373,31.2,43,0.0,976.1,9.2,45.0,138,51.3,27.9,15.0,236.0,102.0,7.8,0,5,7,1,2026-05-05T21:29:36.208340+05:30
Kakinada,Andhra Pradesh,16.9891,82.2475,27.9,88,0.0,1008.9,9.15,29.9,63,25.3,16.6,3.0,282.0,69.0,1.5,7,0,4,1,2026-05-05T21:29:36.208346+05:30
Tirupati,Andhra Pradesh,13.6288,79.4192,30.5,57,0.0,991.6,8.8,29.9,147,67.3,54.9,27.8,297.0,79.0,12.2,0,5,7,1,2026-05-05T21:29:36.208353+05:30
Warangal,Telangana,17.9689,79.5941,30.2,52,0.0,978.5,9.15,47.9,112,43.0,31.7,9.6,287.0,113.0,8.8,0,5,7,1,2026-05-05T21:29:36.208359+05:30
Nizamabad,Telangana,18.6725,78.0941,33.4,25,0.0,963.9,9.1,32.8,106,62.6,32.1,16.7,300.0,89.0,7.2,0,5,7,0,2026-05-05T21:29:36.208365+05:30
Mysore,Karnataka,12.2958,76.6396,24.7,71,0.0,928.7,9.35,29.5,97,63.1,38.6,48.2,224.0,63.0,7.6,3,5,7,1,2026-05-05T21:29:36.208372+05:30
Mangalore,Karnataka,12.9141,74.856,29.6,75,0.0,1006.7,8.85,48.2,64,33.5,15.7,2.8,157.0,60.0,1.2,7,5,4,1,2026-05-05T21:29:36.208378+05:30
Hubli-Dharwad,Karnataka,15.3647,75.124,26.1,73,0.0,940.5,9.2,52.9,59,25.8,14.3,6.9,195.0,73.0,2.2,7,5,7,1,2026-05-05T21:29:36.208385+05:30
Belgaum,Karnataka,15.8497,74.4977,24.2,82,0.0,925.8,9.2,55.1,60,27.9,14.7,7.8,182.0,56.0,2.2,3,5,7,1,2026-05-05T21:29:39.501245+05:30
Coimbatore,Tamil Nadu,11.0168,76.9558,24.2,96,0.0,962.2,9.0,39.2,71,34.7,21.9,15.2,282.0,70.0,5.6,3,5,7,1,2026-05-05T21:29:39.501281+05:30
Madurai,Tamil Nadu,9.9252,78.1198,27.1,88,0.0,993.5,5.7,50.8,125,39.5,28.6,13.2,299.0,101.0,5.0,7,5,3,1,2026-05-05T21:29:39.501293+05:30
Trichy,Tamil Nadu,10.7905,78.7047,27.4,75,0.0,1000.4,8.75,34.6,136,63.1,43.4,19.9,279.0,103.0,7.1,7,5,4,1,2026-05-05T21:29:39.501302+05:30
Salem,Tamil Nadu,11.6643,78.146,25.9,76,0.0,978.1,9.2,39.6,152,63.3,39.6,15.4,309.0,108.0,10.0,7,5,7,1,2026-05-05T21:29:39.501310+05:30
Tirunelveli,Tamil Nadu,8.7139,77.7567,29.2,67,0.0,1003.4,8.75,46.4,76,41.1,24.5,11.2,347.0,83.0,6.0,7,5,4,1,2026-05-05T21:29:39.501317+05:30
Vellore,Tamil Nadu,12.9165,79.1325,28.6,71,0.0,984.9,9.05,37.8,152,58.3,48.3,16.1,290.0,97.0,9.5,7,5,7,1,2026-05-05T21:29:39.501325+05:30
Erode,Tamil Nadu,11.341,77.7172,28.0,69,0.0,989.7,9.0,37.8,139,50.3,27.1,11.6,283.0,113.0,2.9,7,5,7,1,2026-05-05T21:29:39.501332+05:30
Kochi,Kerala,9.9312,76.2673,26.7,92,0.0,1009.2,2.85,27.0,58,34.7,25.6,29.3,354.0,36.0,6.2,7,0,0,1,2026-05-05T21:29:39.501339+05:30
Thiruvananthapuram,Kerala,8.5241,76.9366,25.7,91,0.0,1008.6,8.4,29.9,62,22.0,10.2,3.2,339.0,95.0,1.9,7,0,4,1,2026-05-05T21:29:39.501347+05:30
Kozhikode,Kerala,11.2588,75.7804,27.0,88,0.0,1008.2,8.7,35.6,57,37.7,16.6,3.1,363.0,68.0,1.9,7,0,4,1,2026-05-05T21:29:39.501353+05:30
Thrissur,Kerala,10.5276,76.2144,25.4,99,0.0,1007.5,2.75,27.4,55,43.8,32.1,24.8,383.0,43.0,5.1,7,5,0,1,2026-05-05T21:29:39.501361+05:30
Kannur,Kerala,11.8745,75.3704,29.4,73,0.0,1007.3,8.9,43.9,64,43.1,19.8,6.8,196.0,52.0,1.7,7,5,4,1,2026-05-05T21:29:39.501369+05:30
Patna,Bihar,25.5941,85.1376,26.1,76,0.0,1001.7,8.7,29.2,177,95.5,77.3,37.5,736.0,102.0,23.6,7,5,4,1,2026-05-05T21:29:39.501376+05:30
Gaya,Bihar,24.7914,85.0002,26.2,69,0.0,995.5,8.75,31.7,166,65.9,47.5,11.4,571.0,124.0,12.1,7,5,7,1,2026-05-05T21:29:39.501383+05:30
Muzaffarpur,Bihar,26.1209,85.3647,25.0,77,0.0,1001.6,8.5,30.6,160,105.2,88.5,44.5,758.0,90.0,26.4,7,5,4,1,2026-05-05T21:29:39.501389+05:30
Bhagalpur,Bihar,25.2425,87.0117,26.3,79,0.0,1002.7,8.6,25.9,172,57.2,50.1,17.3,377.0,114.0,13.2,7,5,4,1,2026-05-05T21:29:39.501394+05:30
Ranchi,Jharkhand,23.3441,85.3096,21.9,79,0.0,939.6,9.2,31.7,147,61.5,42.6,6.8,295.0,130.0,8.0,3,5,7,1,2026-05-05T21:29:39.501401+05:30
Jamshedpur,Jharkhand,22.8046,86.2029,25.5,76,0.0,993.2,8.95,29.5,161,41.6,35.7,15.1,712.0,109.0,20.1,7,5,7,1,2026-05-05T21:29:39.501408+05:30
Dhanbad,Jharkhand,23.7957,86.4304,25.4,82,0.0,981.8,8.8,28.8,170,75.0,67.1,46.4,835.0,104.0,64.9,7,5,7,1,2026-05-05T21:29:39.501414+05:30
Bokaro,Jharkhand,23.6693,86.1511,26.1,76,0.0,985.6,9.0,28.4,204,73.1,62.6,34.0,2200.0,129.0,47.4,7,5,7,1,2026-05-05T21:29:39.501422+05:30
Bhubaneswar,Odisha,20.2961,85.8245,24.4,92,0.0,1005.0,9.1,33.8,42,14.8,12.0,8.7,423.0,46.0,3.5,3,5,4,1,2026-05-05T21:29:39.501430+05:30
Cuttack,Odisha,20.4625,85.8828,24.9,91,0.0,1006.8,9.15,29.5,42,14.8,12.0,8.7,224.0,46.0,3.5,3,5,4,1,2026-05-05T21:29:39.501436+05:30
Rourkela,Odisha,22.2604,84.8536,24.0,77,0.0,988.7,8.95,42.5,150,50.2,37.1,7.8,878.0,140.0,29.3,3,5,7,1,2026-05-05T21:29:39.501444+05:30
Raipur,Chhattisgarh,21.2514,81.6296,28.5,53,0.0,974.9,8.95,50.4,146,54.6,41.1,26.2,304.0,84.0,9.4,4,5,7,1,2026-05-05T21:29:39.501452+05:30
Bhilai,Chhattisgarh,21.1938,81.3509,28.1,55,0.0,974.9,8.95,43.9,127,60.8,47.0,37.7,360.0,69.0,10.2,4,5,7,1,2026-05-05T21:29:39.501458+05:30
Guwahati,Assam,26.1158,91.7086,23.6,83,0.0,1003.1,8.65,28.1,73,31.8,26.7,9.5,357.0,67.0,2.0,3,5,4,1,2026-05-05T21:29:39.501464+05:30
Agartala,Tripura,23.8315,91.2868,24.5,92,0.0,1008.5,8.75,23.0,122,34.8,32.2,22.1,374.0,58.0,5.8,3,0,4,1,2026-05-05T21:29:39.501471+05:30
Shillong,Meghalaya,25.5788,91.8933,14.8,97,0.0,857.0,8.6,29.9,73,27.8,23.3,12.8,600.0,72.0,2.2,3,10,7,0,2026-05-05T21:29:39.501477+05:30
Imphal,Manipur,24.817,93.9368,21.0,86,0.0,924.4,9.2,25.9,94,38.3,29.3,14.2,695.0,59.0,3.7,3,5,7,1,2026-05-05T21:29:39.501484+05:30
Aizawl,Mizoram,23.7271,92.7176,19.3,81,0.0,894.1,9.05,33.8,71,22.1,17.2,9.2,278.0,44.0,0.8,3,10,7,0,2026-05-05T21:29:39.501491+05:30
Kohima,Nagaland,25.6701,94.1077,16.0,97,0.0,855.6,9.15,30.6,64,41.0,24.9,14.1,419.0,71.0,2.3,3,10,7,0,2026-05-05T21:29:39.501498+05:30
Gangtok,Sikkim,27.3314,88.6138,12.6,99,0.0,837.0,9.0,33.5,74,19.9,16.4,16.8,416.0,85.0,1.4,3,10,7,0,2026-05-05T21:29:39.501504+05:30
Siliguri,West Bengal,26.7271,88.3953,24.5,76,0.0,994.7,8.6,29.5,86,48.3,39.9,23.2,1528.0,90.0,5.3,3,5,7,1,2026-05-05T21:29:42.785871+05:30
Durgapur,West Bengal,23.5204,87.3119,25.0,86,0.0,996.9,7.65,28.1,136,51.3,48.8,30.5,901.0,87.0,41.5,7,5,7,1,2026-05-05T21:29:42.786013+05:30
Asansol,West Bengal,23.6739,86.9524,25.0,84,0.0,995.4,8.5,32.0,142,52.7,48.4,34.3,525.0,86.0,53.7,7,5,7,1,2026-05-05T21:29:42.786025+05:30
Pondicherry,Puducherry,11.9139,79.8145,28.4,84,0.0,1008.9,8.9,46.8,73,24.3,14.4,2.0,197.0,79.0,0.4,7,0,4,1,2026-05-05T21:29:42.786034+05:30
Port Blair,Andaman and Nicobar Islands,11.6234,92.7265,26.9,89,0.0,1008.3,8.4,38.9,29,5.2,4.5,0.9,414.0,60.0,1.5,7,0,4,1,2026-05-05T21:29:42.786043+05:30
Haridwar,Uttarakhand,29.9457,78.1642,20.4,81,0.0,976.1,5.9,35.3,114,60.5,27.1,6.3,394.0,123.0,4.9,3,5,3,1,2026-05-05T21:29:42.786052+05:30
Rishikesh,Uttarakhand,30.0869,78.2676,18.2,82,0.0,968.4,6.15,33.1,99,56.9,24.2,9.6,372.0,98.0,2.4,3,10,7,0,2026-05-05T21:29:42.786061+05:30
Nainital,Uttarakhand,29.3919,79.4542,9.2,91,0.0,803.5,6.55,32.4,112,56.9,32.6,17.8,307.0,96.0,5.6,3,10,7,0,2026-05-05T21:29:42.786068+05:30
Mussoorie,Uttarakhand,30.4599,78.0664,8.2,91,0.0,800.2,7.35,37.1,114,68.7,24.0,11.8,324.0,115.0,6.4,3,10,7,0,2026-05-05T21:29:42.786077+05:30
Dharamshala,Himachal Pradesh,32.219,76.3234,15.5,60,0.0,869.2,7.5,45.0,114,46.3,15.8,11.5,269.0,115.0,1.5,0,5,7,0,2026-05-05T21:29:42.786084+05:30
Dalhousie,Himachal Pradesh,32.5387,75.971,9.9,74,0.0,802.9,6.15,41.4,120,56.7,24.3,31.0,570.0,105.0,3.3,3,5,7,0,2026-05-05T21:29:42.786092+05:30
Patiala,Punjab,30.3398,76.3869,23.9,61,0.0,980.9,6.95,66.6,433,264.5,48.8,10.3,342.0,114.0,7.8,3,5,7,0,2026-05-05T21:29:42.786124+05:30
Bhatinda,Punjab,30.211,74.9455,26.4,44,0.0,986.1,8.1,37.4,300,137.8,48.1,9.0,330.0,124.0,9.9,4,5,7,0,2026-05-05T21:29:42.786134+05:30
Rohtak,Haryana,28.8955,76.6066,24.0,65,0.0,983.9,7.55,37.1,193,482.4,82.4,26.6,427.0,140.0,34.7,3,5,7,1,2026-05-05T21:29:42.786142+05:30
Panipat,Haryana,29.3909,76.9635,22.0,81,0.0,982.7,6.65,42.8,629,1214.4,140.2,14.4,406.0,124.0,16.4,3,5,7,1,2026-05-05T21:29:42.786213+05:30
Mathura,Uttar Pradesh,27.4924,77.6737,24.8,67,0.0,988.6,7.6,33.8,202,181.6,53.3,20.2,441.0,101.0,11.6,3,5,7,1,2026-05-05T21:29:42.786220+05:30
Vrindavan,Uttar Pradesh,27.5823,77.7027,25.1,64,0.0,989.1,7.45,32.8,202,181.6,53.3,20.2,430.0,101.0,11.6,7,5,7,1,2026-05-05T21:29:42.786228+05:30
Ayodhya,Uttar Pradesh,26.7922,82.1998,23.2,85,0.0,997.2,4.65,23.4,122,43.8,36.7,17.0,657.0,94.0,7.9,3,5,3,1,2026-05-05T21:29:42.786236+05:30
Ratlam,Madhya Pradesh,23.3315,75.0367,27.7,48,0.0,955.0,8.45,47.2,87,42.5,18.7,2.1,196.0,113.0,3.2,4,5,7,0,2026-05-05T21:29:42.786243+05:30
Sagar,Madhya Pradesh,23.8388,78.7378,27.0,48,0.0,951.2,8.65,42.1,112,58.7,40.4,2.3,271.0,146.0,7.3,4,5,7,0,2026-05-05T21:29:42.786250+05:30
Satna,Madhya Pradesh,24.6005,80.8322,25.8,68,0.0,972.7,8.7,39.2,167,52.4,39.1,7.3,304.0,129.0,8.8,7,5,7,1,2026-05-05T21:29:42.786257+05:30
Akola,Maharashtra,20.7002,77.0082,33.5,27,0.0,974.3,8.9,38.5,93,35.2,18.2,7.8,187.0,98.0,8.5,0,5,7,0,2026-05-05T21:29:42.786266+05:30
Amravati,Maharashtra,20.9374,77.7796,33.0,24,0.0,966.8,8.85,38.2,98,38.5,19.9,11.2,204.0,94.0,8.4,0,5,7,0,2026-05-05T21:29:42.786274+05:30
Latur,Maharashtra,18.4088,76.5604,31.6,23,0.0,938.9,9.05,38.5,84,52.0,24.1,11.9,217.0,88.0,10.7,0,5,7,0,2026-05-05T21:29:42.786281+05:30
Nanded,Maharashtra,19.1383,77.3091,33.4,24,0.0,967.4,8.95,33.1,80,68.9,31.1,21.7,502.0,73.0,5.3,0,5,7,0,2026-05-05T21:29:42.786301+05:30
Gulbarga,Karnataka,17.3297,76.8343,33.7,20,0.0,957.4,9.1,36.7,104,46.8,22.8,19.8,208.0,87.0,7.0,0,5,7,0,2026-05-05T21:29:42.786311+05:30
Bidar,Karnataka,17.9104,77.5199,31.5,24,0.0,935.0,9.15,32.4,103,67.1,38.6,30.6,297.0,82.0,7.4,0,5,7,0,2026-05-05T21:29:42.786321+05:30
Hospet,Karnataka,15.2689,76.3909,29.7,30,0.0,953.9,9.25,28.4,83,71.2,38.3,42.4,603.0,65.0,7.8,4,5,7,0,2026-05-05T21:29:42.786331+05:30
Tirupur,Tamil Nadu,11.1085,77.3411,25.9,83,0.0,975.5,9.3,55.4,118,36.3,23.8,16.6,298.0,81.0,5.7,7,5,7,1,2026-05-05T21:29:42.786341+05:30
Alappuzha,Kerala,9.4981,76.3388,26.1,94,0.0,1009.1,7.75,31.0,54,31.5,17.2,12.9,136.0,65.0,4.2,7,0,4,1,2026-05-05T21:29:42.786350+05:30
Munnar,Kerala,10.0889,77.0595,17.4,98,0.0,856.5,6.95,24.5,68,31.8,23.6,13.7,338.0,58.0,2.8,3,10,7,1,2026-05-05T21:29:42.786360+05:30
Silchar,Assam,24.8333,92.7789,24.0,87,0.1,1007.3,8.85,25.9,99,41.8,33.9,10.7,279.0,72.0,5.9,6,5,4,1,2026-05-05T21:29:42.786369+05:30
Dibrugarh,Assam,27.4728,94.912,21.9,95,0.1,997.2,8.35,34.9,56,39.0,35.2,26.4,259.0,26.0,2.9,6,5,7,1,2026-05-05T21:29:42.786380+05:30
