city,state,latitude,longitude,temp,humidity,rain,pressure,uv_index,wind_gusts,aqi,pm10,pm2_5,no2,co,o3,so2,mosquito_risk,arthritis_risk,migraine_risk,frizz_risk,updated_at
Delhi,Delhi,28.6139,77.209,35.0,51,0.0,975.6,6.1,33.1,645,700.4,149.0,20.3,467.0,97.0,12.2,0,5,7,1,2026-07-17T19:13:24.204709+05:30
Mumbai,Maharashtra,19.076,72.8777,27.8,78,0.0,1006.2,7.65,41.4,69,37.7,20.2,16.3,366.0,51.0,13.6,7,5,4,1,2026-07-17T19:13:24.204766+05:30
Bangalore,Karnataka,12.9716,77.5946,22.8,83,0.0,911.4,3.75,49.7,51,13.9,10.0,22.8,413.0,34.0,4.3,3,5,3,1,2026-07-17T19:13:24.204780+05:30
Hyderabad,Telangana,17.385,78.4867,25.3,94,0.0,950.9,6.4,35.3,69,22.9,15.0,11.4,306.0,62.0,5.5,7,5,7,1,2026-07-17T19:13:24.204789+05:30
Chennai,Tamil Nadu,13.0827,80.2707,30.8,66,0.0,1005.2,7.85,42.1,84,31.8,20.5,10.3,333.0,101.0,8.2,3,5,4,1,2026-07-17T19:13:24.204797+05:30
Kolkata,West Bengal,22.5726,88.3639,28.9,82,0.0,999.5,7.45,31.3,71,29.7,22.5,7.3,428.0,93.0,6.0,7,5,7,1,2026-07-17T19:13:24.204807+05:30
Pune,Maharashtra,18.5204,73.8567,24.2,84,0.0,946.0,6.95,48.2,41,19.1,10.8,9.3,162.0,47.0,6.2,3,5,7,1,2026-07-17T19:13:24.204812+05:30
Ahmedabad,Gujarat,23.0225,72.5714,32.0,60,0.0,996.7,7.9,42.5,71,39.5,18.7,7.2,164.0,73.0,4.1,0,5,7,1,2026-07-17T19:13:24.204818+05:30
Jaipur,Rajasthan,26.9124,75.7873,34.0,47,0.0,954.3,8.05,40.0,310,338.1,65.9,8.0,180.0,90.0,4.1,0,5,7,1,2026-07-17T19:13:24.204823+05:30
Lucknow,Uttar Pradesh,26.8467,80.9462,29.9,86,0.0,987.3,7.55,28.4,161,228.6,95.0,14.8,434.0,122.0,11.8,7,5,7,1,2026-07-17T19:13:24.204830+05:30
Kanpur,Uttar Pradesh,26.4499,80.3319,31.3,75,0.0,985.4,8.1,25.6,170,204.9,80.3,13.8,381.0,110.0,8.9,3,5,7,1,2026-07-17T19:13:24.204835+05:30
Chandigarh,Chandigarh,30.7333,76.7794,31.6,68,0.0,961.3,7.35,34.9,194,67.3,49.5,11.0,761.0,176.0,12.5,3,5,7,1,2026-07-17T19:13:24.204840+05:30
Srinagar,Jammu and Kashmir,34.0837,74.7973,31.3,45,0.0,837.4,9.05,18.4,134,19.7,14.5,12.4,531.0,122.0,3.1,0,5,7,1,2026-07-17T19:13:24.204845+05:30
Jammu,Jammu and Kashmir,32.7266,74.857,30.6,77,0.0,964.5,7.7,34.6,156,96.2,54.9,10.9,378.0,134.0,6.7,3,5,7,1,2026-07-17T19:13:24.204851+05:30
Amritsar,Punjab,31.634,74.8723,33.3,67,0.0,972.3,8.4,20.9,183,92.7,56.2,20.9,517.0,129.0,9.3,3,5,7,1,2026-07-17T19:13:24.204857+05:30
Ludhiana,Punjab,30.901,75.8573,34.5,54,0.0,970.7,7.2,34.6,180,76.4,49.1,14.9,619.0,122.0,5.6,0,5,7,1,2026-07-17T19:13:24.204862+05:30
Jalandhar,Punjab,31.326,75.5762,33.5,67,0.0,971.6,8.15,24.1,183,89.6,59.1,20.6,671.0,119.0,6.6,3,5,7,1,2026-07-17T19:13:24.204867+05:30
Dehradun,Uttarakhand,30.6284,78.0322,20.3,97,0.0,827.1,6.8,27.0,140,46.3,37.8,6.2,365.0,149.0,6.5,3,5,7,1,2026-07-17T19:13:24.204872+05:30
Shimla,Himachal Pradesh,31.1048,77.1734,18.1,90,0.0,782.2,6.85,41.8,131,45.6,32.4,6.5,298.0,146.0,7.4,3,10,7,1,2026-07-17T19:13:24.204877+05:30
Manali,Himachal Pradesh,32.2396,77.1887,21.6,89,0.0,816.9,7.05,33.1,107,16.1,11.5,12.1,209.0,118.0,1.3,3,5,7,1,2026-07-17T19:13:24.204883+05:30
Gurgaon,Haryana,28.4595,77.0266,34.5,51,0.0,974.2,5.85,39.2,505,637.0,149.5,27.1,685.0,86.0,10.3,0,5,3,1,2026-07-17T19:13:24.204888+05:30
Noida,Uttar Pradesh,28.5355,77.391,34.3,55,0.0,977.0,7.7,26.3,505,637.0,149.5,27.1,912.0,86.0,10.3,0,5,7,1,2026-07-17T19:13:24.204892+05:30
Ghaziabad,Uttar Pradesh,28.6692,77.4538,33.4,63,0.0,975.2,7.7,29.2,525,517.8,134.6,20.1,378.0,105.0,15.0,3,5,7,1,2026-07-17T19:13:24.204897+05:30
Faridabad,Haryana,28.4089,77.3178,35.1,49,0.0,976.4,6.0,33.8,505,637.0,149.5,27.1,436.0,86.0,10.3,0,5,6,1,2026-07-17T19:13:24.204902+05:30
Meerut,Uttar Pradesh,28.9845,77.7064,32.5,71,0.0,974.0,7.0,33.1,525,517.8,134.6,20.1,314.0,105.0,15.0,3,5,7,1,2026-07-17T19:13:24.204908+05:30
Agra,Uttar Pradesh,27.1767,78.0081,34.8,51,0.0,980.9,6.8,36.7,154,279.4,88.5,19.4,236.0,80.0,6.7,0,5,7,1,2026-07-17T19:13:24.204912+05:30
Varanasi,Uttar Pradesh,25.3176,82.9739,28.3,94,0.3,991.8,5.65,28.8,151,39.6,33.8,11.6,499.0,113.0,6.6,10,5,3,1,2026-07-17T19:13:24.204917+05:30
Prayagraj,Uttar Pradesh,25.4358,81.8463,29.7,87,0.0,990.2,7.8,28.1,158,87.1,52.2,12.1,318.0,105.0,8.5,7,5,7,1,2026-07-17T19:13:24.204922+05:30
Gorakhpur,Uttar Pradesh,26.7606,83.3732,29.4,89,0.1,991.4,6.8,22.0,128,32.6,31.9,11.5,444.0,124.0,6.4,10,5,7,1,2026-07-17T19:13:24.204927+05:30
Bareilly,Uttar Pradesh,28.367,79.4304,27.2,96,0.2,980.4,7.2,34.2,166,142.0,71.9,11.5,407.0,134.0,9.2,10,5,7,1,2026-07-17T19:13:24.204933+05:30
Aligarh,Uttar Pradesh,27.8974,78.088,32.5,70,0.0,978.2,7.6,26.6,336,549.5,148.1,20.6,308.0,81.0,8.5,3,5,7,1,2026-07-17T19:13:24.204938+05:30
Moradabad,Uttar Pradesh,28.8386,78.7733,32.2,75,0.0,976.5,7.6,32.8,189,204.9,99.2,16.6,463.0,151.0,14.6,3,5,7,1,2026-07-17T19:13:24.204942+05:30
Saharanpur,Uttar Pradesh,29.9637,77.546,31.5,72,0.0,967.9,6.8,37.8,190,165.8,71.0,13.8,526.0,131.0,12.4,3,5,7,1,2026-07-17T19:13:24.204947+05:30
Jhansi,Uttar Pradesh,25.4484,78.5685,29.6,76,0.0,972.1,7.45,33.5,93,92.9,41.4,5.6,207.0,82.0,3.8,7,5,7,1,2026-07-17T19:13:27.550179+05:30
Surat,Gujarat,21.1702,72.8311,29.0,79,0.0,1002.9,7.7,43.9,75,29.2,19.2,18.2,269.0,36.0,36.2,7,5,4,1,2026-07-17T19:13:27.550214+05:30
Vadodara,Gujarat,22.3072,73.1812,29.7,76,0.0,999.7,5.55,44.6,70,33.9,21.1,11.2,170.0,70.0,11.8,7,5,3,1,2026-07-17T19:13:27.550223+05:30
Rajkot,Gujarat,22.3039,70.8022,31.0,61,0.0,989.4,7.65,41.8,63,31.1,15.4,3.4,110.0,67.0,4.9,3,5,7,1,2026-07-17T19:13:27.550230+05:30
Thane,Maharashtra,19.2183,72.9781,26.6,93,0.1,1005.6,7.05,34.6,69,37.7,20.2,16.3,374.0,51.0,13.6,10,5,4,1,2026-07-17T19:13:27.550236+05:30
Nagpur,Maharashtra,21.1458,79.0882,26.8,87,0.2,969.9,1.7,23.8,94,31.2,23.0,20.4,252.0,49.0,14.4,10,5,3,1,2026-07-17T19:13:27.550242+05:30
Nashik,Maharashtra,19.9975,73.7898,23.7,92,0.0,942.8,7.95,42.8,49,18.3,10.2,5.3,134.0,57.0,3.6,3,5,7,1,2026-07-17T19:13:27.550247+05:30
Aurangabad,Maharashtra,19.8762,75.3433,25.2,84,0.0,941.6,7.95,45.4,59,14.3,8.9,6.0,178.0,61.0,3.9,7,5,7,1,2026-07-17T19:13:27.550253+05:30
Solapur,Maharashtra,17.6599,75.9064,25.0,88,0.2,955.4,6.0,45.0,55,20.3,10.4,3.8,147.0,63.0,2.0,10,5,3,1,2026-07-17T19:13:27.550259+05:30
Kolhapur,Maharashtra,16.705,74.2433,23.0,91,0.0,946.8,8.3,46.4,39,15.0,8.6,5.3,157.0,50.0,2.1,3,5,7,1,2026-07-17T19:13:27.550264+05:30
Goa,Goa,15.2993,74.124,23.8,99,0.2,998.6,7.6,28.8,61,26.7,13.0,3.2,218.0,52.0,1.3,6,5,7,1,2026-07-17T19:13:27.550270+05:30
Jodhpur,Rajasthan,26.2389,73.0243,35.0,40,0.0,976.5,8.4,43.6,123,282.2,51.9,3.0,128.0,74.0,1.7,0,5,7,1,2026-07-17T19:13:27.550275+05:30
Udaipur,Rajasthan,24.5854,73.7125,29.5,60,0.0,941.7,8.6,34.2,75,44.1,19.3,2.4,124.0,81.0,2.8,4,5,7,1,2026-07-17T19:13:27.550280+05:30
Kota,Rajasthan,25.2138,75.8648,34.3,48,0.0,972.9,7.35,32.4,88,60.5,28.2,6.0,163.0,97.0,6.5,0,5,7,1,2026-07-17T19:13:27.550285+05:30
Bikaner,Rajasthan,28.0229,73.3119,37.7,33,0.0,974.1,8.4,39.2,122,95.7,33.4,1.1,115.0,79.0,2.3,0,5,10,1,2026-07-17T19:13:27.550290+05:30
Ajmer,Rajasthan,26.4499,74.6399,31.8,51,0.0,949.3,8.25,45.7,80,50.4,24.2,4.7,135.0,84.0,2.9,0,5,7,1,2026-07-17T19:13:27.550295+05:30
Gwalior,Madhya Pradesh,26.2183,78.1828,32.0,69,0.0,977.0,6.85,44.6,105,122.9,49.7,6.6,206.0,82.0,3.4,3,5,7,1,2026-07-17T19:13:27.550299+05:30
Indore,Madhya Pradesh,22.7196,75.8577,30.3,56,0.0,944.1,8.55,39.2,75,45.5,25.0,7.9,241.0,78.0,5.0,0,5,7,1,2026-07-17T19:13:27.550305+05:30
Bhopal,Madhya Pradesh,23.2599,77.4126,30.3,60,0.0,949.3,8.4,33.5,85,41.6,23.5,6.8,268.0,77.0,4.9,0,5,7,1,2026-07-17T19:13:27.550309+05:30
Jabalpur,Madhya Pradesh,23.1815,79.9864,26.2,97,0.1,957.2,3.6,38.9,82,36.2,26.3,6.6,316.0,83.0,5.3,10,5,3,1,2026-07-17T19:13:27.550314+05:30
Ujjain,Madhya Pradesh,23.1765,75.7885,29.7,64,0.0,949.4,8.1,38.9,76,43.9,24.9,4.2,198.0,83.0,4.2,7,5,7,1,2026-07-17T19:13:27.550319+05:30
Visakhapatnam,Andhra Pradesh,17.6868,83.2185,29.8,76,0.0,999.0,7.6,43.2,92,38.5,28.5,20.5,385.0,91.0,36.6,7,5,7,1,2026-07-17T19:13:27.550324+05:30
Vijayawada,Andhra Pradesh,16.5062,80.648,28.9,77,0.0,999.7,2.6,40.7,87,38.2,25.0,7.8,196.0,83.0,7.3,7,5,3,1,2026-07-17T19:13:27.550329+05:30
Guntur,Andhra Pradesh,16.3067,80.4365,29.5,72,0.0,1001.1,3.65,43.9,82,36.6,23.5,7.0,238.0,81.0,6.6,7,5,0,1,2026-07-17T19:13:27.550334+05:30
Nellore,Andhra Pradesh,14.4426,79.9865,28.3,74,0.2,1003.6,5.0,45.4,63,14.1,7.9,4.1,180.0,74.0,2.9,10,5,0,1,2026-07-17T19:13:27.550340+05:30
Kurnool,Andhra Pradesh,15.8281,78.0373,25.2,90,0.1,975.5,5.55,41.4,62,25.0,12.7,5.6,172.0,67.0,4.5,10,5,3,1,2026-07-17T19:13:27.550346+05:30
Kakinada,Andhra Pradesh,16.9891,82.2475,29.7,78,0.0,1003.6,7.75,49.3,82,48.9,30.2,6.0,262.0,106.0,6.8,7,5,4,1,2026-07-17T19:13:27.550350+05:30
Tirupati,Andhra Pradesh,13.6288,79.4192,25.1,94,0.2,990.2,6.0,40.3,81,13.0,10.1,14.9,205.0,52.0,2.2,10,5,3,1,2026-07-17T19:13:27.550355+05:30
Warangal,Telangana,17.9689,79.5941,25.5,94,0.0,976.1,5.95,38.2,90,30.9,21.8,8.6,242.0,60.0,5.7,7,5,3,1,2026-07-17T19:13:27.550360+05:30
Nizamabad,Telangana,18.6725,78.0941,26.7,81,0.1,962.4,1.6,31.7,79,36.9,22.6,8.6,172.0,71.0,7.0,10,5,3,1,2026-07-17T19:13:27.550365+05:30
Mysore,Karnataka,12.2958,76.6396,22.7,84,0.0,928.7,2.95,42.1,34,11.9,7.1,8.9,153.0,49.0,1.8,3,5,3,1,2026-07-17T19:13:27.550369+05:30
Mangalore,Karnataka,12.9141,74.856,24.1,98,0.0,1008.4,1.25,28.4,55,26.2,12.8,4.5,218.0,51.0,2.2,3,0,0,1,2026-07-17T19:13:27.550374+05:30
Hubli-Dharwad,Karnataka,15.3647,75.124,22.4,93,0.1,940.3,8.65,46.1,26,8.7,5.0,3.6,126.0,52.0,1.2,6,5,7,1,2026-07-17T19:13:27.550379+05:30
Belgaum,Karnataka,15.8497,74.4977,21.3,95,0.1,924.9,8.9,49.0,29,5.5,3.7,5.0,124.0,45.0,1.7,6,5,7,1,2026-07-17T19:13:30.872748+05:30
Coimbatore,Tamil Nadu,11.0168,76.9558,24.1,87,0.0,961.4,8.45,49.3,49,13.5,7.7,6.3,170.0,51.0,2.6,3,5,7,1,2026-07-17T19:13:30.872812+05:30
Madurai,Tamil Nadu,9.9252,78.1198,31.1,48,0.0,992.0,8.65,47.5,74,25.0,11.7,7.8,239.0,64.0,2.8,0,5,7,1,2026-07-17T19:13:30.872821+05:30
Trichy,Tamil Nadu,10.7905,78.7047,31.3,49,0.0,998.8,8.75,62.6,60,12.3,7.8,7.3,181.0,58.0,3.1,0,5,7,1,2026-07-17T19:13:30.872828+05:30
Salem,Tamil Nadu,11.6643,78.146,26.7,83,0.0,976.5,7.25,42.1,70,21.0,14.7,14.6,227.0,61.0,8.7,7,5,7,1,2026-07-17T19:13:30.872834+05:30
Tirunelveli,Tamil Nadu,8.7139,77.7567,31.2,52,0.0,1003.1,8.25,46.4,52,12.5,8.1,4.0,126.0,65.0,1.6,0,5,4,1,2026-07-17T19:13:30.872840+05:30
Vellore,Tamil Nadu,12.9165,79.1325,30.2,59,0.0,983.0,8.15,46.4,68,8.6,6.5,6.9,192.0,63.0,2.9,0,5,7,1,2026-07-17T19:13:30.872845+05:30
Erode,Tamil Nadu,11.341,77.7172,28.3,63,0.0,988.6,8.8,42.8,57,13.2,8.7,10.4,221.0,58.0,3.0,7,5,7,1,2026-07-17T19:13:30.872850+05:30
Kochi,Kerala,9.9312,76.2673,27.1,82,0.0,1010.1,7.2,29.9,59,18.7,12.0,11.1,171.0,49.0,3.9,7,0,4,1,2026-07-17T19:13:30.872856+05:30
Thiruvananthapuram,Kerala,8.5241,76.9366,26.2,87,0.0,1009.6,8.35,46.1,61,21.2,11.8,4.0,117.0,60.0,1.3,7,0,4,1,2026-07-17T19:13:30.872861+05:30
Kozhikode,Kerala,11.2588,75.7804,25.7,90,0.0,1009.4,1.8,28.4,54,21.8,9.5,1.1,177.0,60.0,1.0,7,0,0,1,2026-07-17T19:13:30.872866+05:30
Thrissur,Kerala,10.5276,76.2144,25.5,93,0.0,1008.5,4.7,27.7,55,15.0,9.4,7.6,239.0,48.0,2.5,7,0,0,1,2026-07-17T19:13:30.872871+05:30
Kannur,Kerala,11.8745,75.3704,25.7,90,0.0,1008.6,2.05,33.5,52,23.9,11.6,7.2,181.0,46.0,1.6,7,0,0,1,2026-07-17T19:13:30.872876+05:30
Patna,Bihar,25.5941,85.1376,30.4,82,0.1,993.7,8.4,27.4,115,27.0,26.4,12.1,358.0,103.0,6.8,6,5,7,1,2026-07-17T19:13:30.872881+05:30
Gaya,Bihar,24.7914,85.0002,29.1,92,0.1,987.3,7.4,28.1,104,19.4,19.1,8.1,326.0,101.0,5.8,10,5,7,1,2026-07-17T19:13:30.872886+05:30
Muzaffarpur,Bihar,26.1209,85.3647,28.9,90,0.1,994.2,7.4,30.6,99,25.1,24.6,11.2,341.0,99.0,6.1,10,5,7,1,2026-07-17T19:13:30.872890+05:30
Bhagalpur,Bihar,25.2425,87.0117,30.2,79,0.0,994.4,7.7,30.6,88,19.0,18.3,11.9,298.0,88.0,7.9,3,5,7,1,2026-07-17T19:13:30.872896+05:30
Ranchi,Jharkhand,23.3441,85.3096,24.1,97,0.1,931.9,8.85,27.4,72,21.2,20.5,12.1,316.0,81.0,5.5,6,5,7,1,2026-07-17T19:13:30.872901+05:30
Jamshedpur,Jharkhand,22.8046,86.2029,27.5,93,0.0,984.0,8.85,23.4,92,32.2,31.9,16.8,403.0,102.0,24.1,7,5,7,1,2026-07-17T19:13:30.872906+05:30
Dhanbad,Jharkhand,23.7957,86.4304,27.9,88,0.1,973.1,7.15,20.2,96,53.3,53.0,50.7,331.0,69.0,99.2,10,5,7,1,2026-07-17T19:13:30.872911+05:30
Bokaro,Jharkhand,23.6693,86.1511,28.1,89,0.0,976.9,6.85,22.0,95,39.6,39.3,39.0,322.0,60.0,81.2,7,5,7,1,2026-07-17T19:13:30.872916+05:30
Bhubaneswar,Odisha,20.2961,85.8245,27.1,90,0.0,996.5,6.6,35.6,74,14.0,12.1,7.2,271.0,90.0,4.1,7,5,7,1,2026-07-17T19:13:30.872920+05:30
Cuttack,Odisha,20.4625,85.8828,27.4,89,0.0,998.2,6.55,34.2,74,14.0,12.1,7.2,278.0,90.0,4.1,7,5,7,1,2026-07-17T19:13:30.872925+05:30
Rourkela,Odisha,22.2604,84.8536,27.2,95,0.0,978.4,6.85,28.4,81,22.8,20.7,10.0,347.0,85.0,3.1,7,5,7,1,2026-07-17T19:13:30.872929+05:30
Raipur,Chhattisgarh,21.2514,81.6296,26.8,83,0.0,970.4,2.8,36.7,99,34.6,26.3,28.7,627.0,59.0,48.6,7,5,3,1,2026-07-17T19:13:30.872934+05:30
Bhilai,Chhattisgarh,21.1938,81.3509,26.4,82,0.0,971.0,4.65,34.2,93,32.2,23.9,20.2,890.0,67.0,33.5,7,5,3,1,2026-07-17T19:13:30.872938+05:30
Guwahati,Assam,26.1158,91.7086,26.6,98,0.0,997.2,7.35,24.5,56,12.1,11.0,7.1,299.0,64.0,1.6,7,5,7,1,2026-07-17T19:13:30.872943+05:30
Agartala,Tripura,23.8315,91.2868,27.3,86,0.0,1002.4,7.55,53.3,59,14.7,12.1,6.5,158.0,68.0,2.0,7,5,4,1,2026-07-17T19:13:30.872947+05:30
Shillong,Meghalaya,25.5788,91.8933,20.4,97,0.2,854.8,4.65,44.6,41,3.1,2.8,6.4,186.0,69.0,1.9,6,5,3,1,2026-07-17T19:13:30.872951+05:30
Imphal,Manipur,24.817,93.9368,23.6,92,0.0,921.1,4.55,12.6,62,22.8,17.0,9.1,418.0,62.0,2.6,3,5,3,1,2026-07-17T19:13:30.872956+05:30
Aizawl,Mizoram,23.7271,92.7176,21.1,85,0.0,890.6,6.45,42.5,59,9.7,7.0,2.8,131.0,59.0,0.9,3,5,7,1,2026-07-17T19:13:30.872961+05:30
Kohima,Nagaland,25.6701,94.1077,21.0,93,0.0,854.0,2.85,19.4,51,18.0,12.2,4.9,260.0,62.0,1.4,3,5,3,1,2026-07-17T19:13:30.872966+05:30
Gangtok,Sikkim,27.3314,88.6138,19.9,99,0.0,836.0,6.15,33.1,47,4.9,4.1,4.7,237.0,98.0,1.4,3,10,7,1,2026-07-17T19:13:30.872971+05:30
Siliguri,West Bengal,26.7271,88.3953,26.8,95,0.1,988.4,7.9,29.2,69,20.7,16.5,6.4,397.0,109.0,3.0,10,5,7,1,2026-07-17T19:13:34.212332+05:30
Durgapur,West Bengal,23.5204,87.3119,27.9,92,0.0,988.1,8.1,30.2,83,35.7,35.5,31.5,503.0,80.0,38.7,7,5,7,1,2026-07-17T19:13:34.212365+05:30
Asansol,West Bengal,23.6739,86.9524,27.9,93,0.0,986.5,8.05,28.4,95,33.8,33.5,34.7,419.0,81.0,42.7,7,5,7,1,2026-07-17T19:13:34.212373+05:30
Pondicherry,Puducherry,11.9139,79.8145,28.8,73,0.1,1006.9,8.7,38.5,75,33.8,22.8,12.6,269.0,110.0,11.6,10,5,4,1,2026-07-17T19:13:34.212380+05:30
Port Blair,Andaman and Nicobar Islands,11.6234,92.7265,27.4,82,0.0,1008.0,7.0,37.8,44,15.4,7.5,0.5,102.0,43.0,0.5,7,0,4,1,2026-07-17T19:13:34.212387+05:30
Haridwar,Uttarakhand,29.9457,78.1642,31.3,78,0.0,966.6,7.2,25.2,187,78.9,60.8,11.4,460.0,157.0,13.6,3,5,7,1,2026-07-17T19:13:34.212392+05:30
Rishikesh,Uttarakhand,30.0869,78.2676,29.8,82,0.0,959.6,7.35,27.0,167,72.2,54.6,3.9,465.0,178.0,11.7,7,5,7,1,2026-07-17T19:13:34.212399+05:30
Nainital,Uttarakhand,29.3919,79.4542,19.0,95,0.0,802.9,6.15,28.8,147,103.6,57.2,6.3,320.0,156.0,11.4,3,10,7,1,2026-07-17T19:13:34.212404+05:30
Mussoorie,Uttarakhand,30.4599,78.0664,18.9,97,0.0,800.4,6.65,40.3,172,62.2,52.0,12.4,400.0,147.0,10.4,3,10,7,1,2026-07-17T19:13:34.212409+05:30
Dharamshala,Himachal Pradesh,32.219,76.3234,23.1,98,0.1,864.8,7.75,31.0,117,12.4,9.0,5.2,370.0,130.0,1.8,6,5,7,1,2026-07-17T19:13:34.212414+05:30
Dalhousie,Himachal Pradesh,32.5387,75.971,19.7,98,0.1,802.0,7.8,24.1,151,59.5,36.6,9.0,415.0,141.0,3.9,6,10,7,1,2026-07-17T19:13:34.212421+05:30
Patiala,Punjab,30.3398,76.3869,32.6,64,0.0,970.3,7.35,34.9,192,421.0,100.8,12.3,420.0,122.0,7.5,3,5,7,1,2026-07-17T19:13:34.212426+05:30
Bhatinda,Punjab,30.211,74.9455,36.7,37,0.0,975.6,8.25,33.8,174,138.8,61.5,17.7,175.0,87.0,6.0,0,5,10,1,2026-07-17T19:13:34.212430+05:30
Rohtak,Haryana,28.8955,76.6066,33.9,63,0.0,974.2,6.55,33.8,817,646.3,143.9,22.8,510.0,85.0,6.2,3,5,7,1,2026-07-17T19:13:34.212435+05:30
Panipat,Haryana,29.3909,76.9635,32.7,73,0.0,972.8,7.5,32.4,1175,1490.1,239.3,17.5,415.0,88.0,7.9,3,5,7,1,2026-07-17T19:13:34.212440+05:30
Mathura,Uttar Pradesh,27.4924,77.6737,33.1,66,0.0,979.7,7.25,32.0,616,451.7,116.4,27.8,327.0,54.0,4.8,3,5,7,1,2026-07-17T19:13:34.212445+05:30
Vrindavan,Uttar Pradesh,27.5823,77.7027,33.2,66,0.0,980.1,7.05,31.7,616,451.7,116.4,27.8,306.0,54.0,4.8,3,5,7,1,2026-07-17T19:13:34.212449+05:30
Ayodhya,Uttar Pradesh,26.7922,82.1998,28.6,94,0.1,989.3,7.75,26.3,135,45.2,36.9,10.7,435.0,128.0,5.4,10,5,7,1,2026-07-17T19:13:34.212454+05:30
Ratlam,Madhya Pradesh,23.3315,75.0367,29.3,65,0.0,950.3,8.45,33.8,73,38.5,21.8,3.4,144.0,86.0,4.2,7,5,7,1,2026-07-17T19:13:34.212458+05:30
Sagar,Madhya Pradesh,23.8388,78.7378,26.5,93,0.0,945.7,7.0,39.2,87,54.8,30.2,4.2,196.0,93.0,5.8,7,5,7,1,2026-07-17T19:13:34.212463+05:30
Satna,Madhya Pradesh,24.6005,80.8322,26.9,89,0.0,966.4,8.05,37.4,120,63.1,34.5,4.7,189.0,105.0,3.7,7,5,7,1,2026-07-17T19:13:34.212467+05:30
Akola,Maharashtra,20.7002,77.0082,29.7,62,0.0,971.9,8.55,42.1,68,32.7,17.0,6.4,134.0,75.0,7.4,7,5,7,1,2026-07-17T19:13:34.212472+05:30
Amravati,Maharashtra,20.9374,77.7796,29.4,61,0.0,964.3,7.9,39.6,70,41.2,21.5,7.5,159.0,70.0,8.5,7,5,7,1,2026-07-17T19:13:34.212478+05:30
Latur,Maharashtra,18.4088,76.5604,24.2,91,0.1,937.3,7.35,35.3,60,26.3,13.9,4.0,148.0,64.0,2.2,6,5,7,1,2026-07-17T19:13:34.212483+05:30
Nanded,Maharashtra,19.1383,77.3091,27.1,77,0.0,965.7,8.3,33.8,74,34.8,19.0,7.4,222.0,69.0,4.5,7,5,7,1,2026-07-17T19:13:34.212487+05:30
Gulbarga,Karnataka,17.3297,76.8343,27.0,71,0.0,956.9,6.95,40.0,56,19.7,10.4,8.4,160.0,59.0,2.6,7,5,7,1,2026-07-17T19:13:34.212492+05:30
Bidar,Karnataka,17.9104,77.5199,24.6,94,0.0,933.1,7.5,31.0,73,45.6,22.0,11.6,179.0,52.0,2.9,3,5,7,1,2026-07-17T19:13:34.212496+05:30
Hospet,Karnataka,15.2689,76.3909,24.4,83,0.1,955.1,6.3,45.4,34,17.1,9.2,4.2,129.0,58.0,1.7,6,5,7,1,2026-07-17T19:13:34.212501+05:30
Tirupur,Tamil Nadu,11.1085,77.3411,25.4,80,0.0,974.8,8.65,54.0,60,15.5,10.2,11.0,167.0,57.0,4.0,7,5,7,1,2026-07-17T19:13:34.212505+05:30
Alappuzha,Kerala,9.4981,76.3388,26.9,82,0.0,1010.2,8.45,37.8,60,20.4,11.7,8.2,93.0,59.0,3.1,7,0,4,1,2026-07-17T19:13:34.212510+05:30
Munnar,Kerala,10.0889,77.0595,15.7,98,0.0,856.7,8.6,34.9,39,4.6,3.9,6.6,110.0,48.0,1.4,3,10,7,0,2026-07-17T19:13:34.212515+05:30
Silchar,Assam,24.8333,92.7789,27.7,91,0.0,1002.0,8.7,28.8,71,30.4,22.2,5.7,299.0,78.0,4.1,7,5,4,1,2026-07-17T19:13:34.212520+05:30
Dibrugarh,Assam,27.4728,94.912,26.5,97,0.2,991.8,4.75,36.0,52,26.5,21.6,7.1,212.0,70.0,2.4,10,5,3,1,2026-07-17T19:13:34.212525+05:30
