city,state,latitude,longitude,temp,humidity,rain,pressure,uv_index,wind_gusts,aqi,pm10,pm2_5,mosquito_risk,arthritis_risk,migraine_risk,frizz_risk,updated_at
Delhi,Delhi,28.6139,77.209,20.7,85,0.0,985.9,4.25,33.1,129,119.2,41.3,3,5,3,1,2026-03-19T20:22:27.507715+05:30
Mumbai,Maharashtra,19.076,72.8777,27.4,71,0.0,1011.8,7.75,20.2,82,37.4,15.9,7,0,4,1,2026-03-19T20:22:27.507751+05:30
Bangalore,Karnataka,12.9716,77.5946,24.1,58,0.0,912.9,9.35,24.1,162,55.9,51.3,0,5,7,0,2026-03-19T20:22:27.507766+05:30
Hyderabad,Telangana,17.385,78.4867,23.0,78,0.0,955.9,8.75,33.5,98,36.7,29.1,3,5,7,1,2026-03-19T20:22:27.507776+05:30
Chennai,Tamil Nadu,13.0827,80.2707,26.9,82,0.0,1010.4,9.1,28.8,43,7.0,5.2,7,0,4,1,2026-03-19T20:22:27.507789+05:30
Kolkata,West Bengal,22.5726,88.3639,26.1,83,0.0,1009.6,7.7,25.2,93,31.2,27.8,7,0,4,1,2026-03-19T20:22:27.507797+05:30
Pune,Maharashtra,18.5204,73.8567,24.9,70,0.0,950.7,8.3,34.9,158,28.3,22.5,3,5,7,1,2026-03-19T20:22:27.507807+05:30
Ahmedabad,Gujarat,23.0225,72.5714,26.9,50,0.0,1005.6,7.35,49.7,67,43.4,18.1,4,5,4,0,2026-03-19T20:22:27.507816+05:30
Jaipur,Rajasthan,26.9124,75.7873,20.2,82,0.0,962.7,7.05,34.2,147,143.4,34.1,3,5,7,1,2026-03-19T20:22:27.507823+05:30
Lucknow,Uttar Pradesh,26.8467,80.9462,27.2,40,0.0,995.3,6.8,28.1,119,58.4,37.0,4,5,7,0,2026-03-19T20:22:27.507830+05:30
Kanpur,Uttar Pradesh,26.4499,80.3319,26.1,46,0.0,993.2,6.85,26.6,136,193.2,45.6,4,5,7,0,2026-03-19T20:22:27.507838+05:30
Chandigarh,Chandigarh,30.7333,76.7794,17.0,96,0.1,972.1,3.9,15.8,69,51.1,32.8,6,10,3,1,2026-03-19T20:22:27.507845+05:30
Srinagar,Jammu and Kashmir,34.0837,74.7973,7.5,92,0.0,839.7,0.95,15.1,105,13.5,13.4,3,10,3,0,2026-03-19T20:22:27.507852+05:30
Jammu,Jammu and Kashmir,32.7266,74.857,17.5,93,0.0,976.5,2.55,35.3,62,46.6,29.1,3,10,3,1,2026-03-19T20:22:27.507860+05:30
Amritsar,Punjab,31.634,74.8723,16.3,94,0.0,984.6,2.25,24.8,79,38.2,25.6,3,10,3,0,2026-03-19T20:22:27.507866+05:30
Ludhiana,Punjab,30.901,75.8573,16.7,95,0.3,982.6,2.0,20.9,84,53.0,34.6,6,10,3,0,2026-03-19T20:22:27.507872+05:30
Jalandhar,Punjab,31.326,75.5762,16.7,96,0.2,983.7,2.7,20.2,80,53.8,34.2,6,10,3,1,2026-03-19T20:22:27.507880+05:30
Dehradun,Uttarakhand,30.6284,78.0322,10.5,84,0.6,829.8,5.35,28.8,50,28.3,11.0,6,10,3,0,2026-03-19T20:22:27.507887+05:30
Shimla,Himachal Pradesh,31.1048,77.1734,9.1,86,0.2,782.4,3.7,36.4,48,9.8,7.5,6,10,3,0,2026-03-19T20:22:27.507893+05:30
Manali,Himachal Pradesh,32.2396,77.1887,10.0,97,0.4,815.7,3.8,23.8,56,2.9,2.6,6,10,3,0,2026-03-19T20:22:27.507900+05:30
Gurgaon,Haryana,28.4595,77.0266,20.0,90,0.0,984.4,5.35,29.9,140,103.4,52.7,3,5,3,1,2026-03-19T20:22:27.507906+05:30
Noida,Uttar Pradesh,28.5355,77.391,20.7,87,0.0,987.4,4.5,32.8,140,103.4,52.7,3,5,3,1,2026-03-19T20:22:27.507913+05:30
Ghaziabad,Uttar Pradesh,28.6692,77.4538,20.1,89,0.0,985.7,4.15,34.2,117,48.8,26.3,3,5,3,1,2026-03-19T20:22:27.507918+05:30
Faridabad,Haryana,28.4089,77.3178,20.2,88,0.0,986.6,4.8,33.5,140,103.4,52.7,3,5,3,1,2026-03-19T20:22:27.507924+05:30
Meerut,Uttar Pradesh,28.9845,77.7064,19.6,89,0.0,984.5,3.9,34.6,117,48.8,26.3,3,10,3,1,2026-03-19T20:22:27.507930+05:30
Agra,Uttar Pradesh,27.1767,78.0081,23.2,63,0.0,990.3,6.65,37.8,685,314.8,70.8,3,5,7,0,2026-03-19T20:22:27.507937+05:30
Varanasi,Uttar Pradesh,25.3176,82.9739,25.2,65,0.0,999.4,7.5,19.8,150,47.1,41.9,7,5,7,1,2026-03-19T20:22:27.507946+05:30
Prayagraj,Uttar Pradesh,25.4358,81.8463,25.6,65,0.0,997.9,7.35,22.0,153,43.9,31.8,7,5,7,1,2026-03-19T20:22:27.507954+05:30
Gorakhpur,Uttar Pradesh,26.7606,83.3732,23.6,60,0.0,998.5,7.2,20.9,119,56.6,39.7,0,5,7,0,2026-03-19T20:22:27.507960+05:30
Bareilly,Uttar Pradesh,28.367,79.4304,21.7,70,0.0,989.2,6.45,34.9,90,35.6,23.5,3,5,7,0,2026-03-19T20:22:27.507966+05:30
Aligarh,Uttar Pradesh,27.8974,78.088,21.0,83,0.0,988.2,6.4,37.1,153,396.7,65.4,3,5,7,1,2026-03-19T20:22:27.507974+05:30
Moradabad,Uttar Pradesh,28.8386,78.7733,21.2,68,0.0,986.4,5.0,46.1,110,42.6,24.2,3,5,3,0,2026-03-19T20:22:27.507980+05:30
Saharanpur,Uttar Pradesh,29.9637,77.546,17.4,88,0.0,979.0,4.05,22.7,82,54.4,32.8,3,10,3,0,2026-03-19T20:22:27.507986+05:30
Jhansi,Uttar Pradesh,25.4484,78.5685,26.1,56,0.0,980.0,7.3,38.9,122,32.5,23.9,4,5,7,1,2026-03-19T20:22:30.788772+05:30
Surat,Gujarat,21.1702,72.8311,25.5,77,0.0,1010.1,7.45,28.1,79,27.1,22.9,7,0,4,1,2026-03-19T20:22:30.788802+05:30
Vadodara,Gujarat,22.3072,73.1812,25.8,68,0.0,1008.3,7.45,47.9,84,26.4,17.1,7,0,4,1,2026-03-19T20:22:30.788811+05:30
Rajkot,Gujarat,22.3039,70.8022,24.0,73,0.0,997.4,7.35,51.5,57,45.6,20.1,3,5,7,1,2026-03-19T20:22:30.788819+05:30
Thane,Maharashtra,19.2183,72.9781,26.4,70,0.0,1011.3,7.75,33.5,82,37.4,15.9,7,0,4,1,2026-03-19T20:22:30.788827+05:30
Nagpur,Maharashtra,21.1458,79.0882,24.4,63,0.0,975.8,7.85,26.3,149,54.8,44.0,3,5,7,1,2026-03-19T20:22:30.788834+05:30
Nashik,Maharashtra,19.9975,73.7898,23.8,66,0.0,948.3,7.95,28.8,95,12.2,8.9,3,5,7,1,2026-03-19T20:22:30.788841+05:30
Aurangabad,Maharashtra,19.8762,75.3433,26.3,50,0.0,946.6,8.45,41.8,131,32.7,24.3,4,5,7,0,2026-03-19T20:22:30.788849+05:30
Solapur,Maharashtra,17.6599,75.9064,25.8,62,0.0,959.1,8.65,39.6,139,32.9,22.6,7,5,7,1,2026-03-19T20:22:30.788857+05:30
Kolhapur,Maharashtra,16.705,74.2433,23.1,74,0.0,950.1,8.6,49.0,116,30.2,24.8,3,5,7,1,2026-03-19T20:22:30.788864+05:30
Goa,Goa,15.2993,74.124,27.8,71,0.0,1000.5,8.8,33.1,73,20.8,12.4,7,5,4,1,2026-03-19T20:22:30.788871+05:30
Jodhpur,Rajasthan,26.2389,73.0243,21.2,82,0.0,985.8,6.55,44.6,71,60.5,19.9,3,5,7,1,2026-03-19T20:22:30.788877+05:30
Udaipur,Rajasthan,24.5854,73.7125,19.8,79,0.0,948.8,6.65,49.3,59,44.2,16.1,3,5,7,1,2026-03-19T20:22:30.788884+05:30
Kota,Rajasthan,25.2138,75.8648,25.1,53,0.0,981.3,7.35,32.8,128,45.1,27.0,4,5,7,0,2026-03-19T20:22:30.788891+05:30
Bikaner,Rajasthan,28.0229,73.3119,20.9,75,0.0,984.9,5.1,31.0,69,61.9,21.7,3,5,3,1,2026-03-19T20:22:30.788898+05:30
Ajmer,Rajasthan,26.4499,74.6399,20.5,83,0.0,957.0,5.2,30.2,72,60.5,19.5,3,5,3,1,2026-03-19T20:22:30.788904+05:30
Gwalior,Madhya Pradesh,26.2183,78.1828,24.6,61,0.0,985.6,7.0,30.2,131,98.5,34.8,3,5,7,1,2026-03-19T20:22:30.788911+05:30
Indore,Madhya Pradesh,22.7196,75.8577,25.4,45,0.0,950.1,7.9,33.5,97,24.7,18.6,4,5,7,0,2026-03-19T20:22:30.788917+05:30
Bhopal,Madhya Pradesh,23.2599,77.4126,26.7,36,0.0,955.2,7.8,35.6,124,34.2,25.9,4,5,7,0,2026-03-19T20:22:30.788924+05:30
Jabalpur,Madhya Pradesh,23.1815,79.9864,26.3,45,0.0,963.5,7.9,34.6,121,25.3,21.7,4,5,7,0,2026-03-19T20:22:30.788931+05:30
Ujjain,Madhya Pradesh,23.1765,75.7885,23.9,45,0.0,955.3,7.8,29.2,82,18.7,15.7,0,5,7,0,2026-03-19T20:22:30.788938+05:30
Visakhapatnam,Andhra Pradesh,17.6868,83.2185,26.1,80,0.0,1007.5,8.2,32.8,64,14.1,11.6,7,5,4,1,2026-03-19T20:22:30.788945+05:30
Vijayawada,Andhra Pradesh,16.5062,80.648,24.5,84,0.0,1006.4,8.5,28.8,61,17.2,15.8,3,5,4,1,2026-03-19T20:22:30.788952+05:30
Guntur,Andhra Pradesh,16.3067,80.4365,24.6,83,0.0,1007.5,8.5,31.3,60,24.2,21.0,3,5,4,1,2026-03-19T20:22:30.788959+05:30
Nellore,Andhra Pradesh,14.4426,79.9865,26.2,83,0.0,1009.6,9.0,27.0,42,7.9,5.5,7,0,4,1,2026-03-19T20:22:30.788966+05:30
Kurnool,Andhra Pradesh,15.8281,78.0373,26.5,62,0.0,979.6,8.85,33.1,96,27.5,21.1,7,5,7,1,2026-03-19T20:22:30.788974+05:30
Kakinada,Andhra Pradesh,16.9891,82.2475,25.2,84,0.0,1011.6,8.7,23.0,43,8.6,6.0,7,0,4,1,2026-03-19T20:22:30.788981+05:30
Tirupati,Andhra Pradesh,13.6288,79.4192,24.1,83,0.0,995.0,9.1,21.6,57,18.1,15.8,3,5,7,1,2026-03-19T20:22:30.788987+05:30
Warangal,Telangana,17.9689,79.5941,25.2,75,0.0,981.8,8.1,19.8,140,49.0,42.8,7,5,7,1,2026-03-19T20:22:30.788993+05:30
Nizamabad,Telangana,18.6725,78.0941,24.6,65,0.0,967.9,8.5,19.4,108,52.2,41.7,3,5,7,1,2026-03-19T20:22:30.788999+05:30
Mysore,Karnataka,12.2958,76.6396,24.8,66,0.0,929.7,9.35,36.4,136,35.6,32.4,3,5,7,1,2026-03-19T20:22:30.789006+05:30
Mangalore,Karnataka,12.9141,74.856,28.6,77,0.0,1008.9,8.95,26.6,130,27.7,18.0,7,0,4,1,2026-03-19T20:22:30.789012+05:30
Hubli-Dharwad,Karnataka,15.3647,75.124,24.6,62,0.0,942.7,8.95,32.4,135,31.8,24.8,3,5,7,1,2026-03-19T20:22:30.789019+05:30
Belgaum,Karnataka,15.8497,74.4977,22.5,74,0.0,927.5,9.0,37.4,114,20.5,16.1,3,5,7,1,2026-03-19T20:22:34.070572+05:30
Coimbatore,Tamil Nadu,11.0168,76.9558,25.6,71,0.0,963.2,9.3,47.9,113,26.0,22.5,7,5,7,1,2026-03-19T20:22:34.070601+05:30
Madurai,Tamil Nadu,9.9252,78.1198,26.7,80,0.0,995.2,9.3,23.0,125,24.9,21.9,7,5,7,1,2026-03-19T20:22:34.070611+05:30
Trichy,Tamil Nadu,10.7905,78.7047,26.3,76,0.0,1002.1,9.2,29.5,88,26.8,23.9,7,5,4,1,2026-03-19T20:22:34.070619+05:30
Salem,Tamil Nadu,11.6643,78.146,29.4,56,0.0,978.3,9.25,25.6,158,27.6,24.6,4,5,7,1,2026-03-19T20:22:34.070627+05:30
Tirunelveli,Tamil Nadu,8.7139,77.7567,26.5,84,0.0,1005.7,9.15,23.0,87,19.8,19.0,7,5,4,1,2026-03-19T20:22:34.070634+05:30
Vellore,Tamil Nadu,12.9165,79.1325,24.3,79,0.0,987.9,9.15,28.1,68,44.2,37.1,3,5,7,1,2026-03-19T20:22:34.070642+05:30
Erode,Tamil Nadu,11.341,77.7172,30.8,49,0.0,989.5,9.25,36.7,144,34.5,30.0,0,5,7,1,2026-03-19T20:22:34.070649+05:30
Kochi,Kerala,9.9312,76.2673,28.7,78,0.0,1010.5,9.1,29.2,64,23.3,20.6,7,0,4,1,2026-03-19T20:22:34.070656+05:30
Thiruvananthapuram,Kerala,8.5241,76.9366,28.6,78,0.0,1010.0,8.6,27.7,92,13.6,11.0,7,0,4,1,2026-03-19T20:22:34.070663+05:30
Kozhikode,Kerala,11.2588,75.7804,28.7,78,0.0,1009.8,9.05,31.0,70,14.0,9.2,7,0,4,1,2026-03-19T20:22:34.070670+05:30
Thrissur,Kerala,10.5276,76.2144,27.7,81,0.0,1008.9,9.1,34.6,54,18.0,16.4,7,0,4,1,2026-03-19T20:22:34.070677+05:30
Kannur,Kerala,11.8745,75.3704,28.0,77,0.0,1009.3,9.0,35.3,77,22.0,13.9,7,0,4,1,2026-03-19T20:22:34.070684+05:30
Patna,Bihar,25.5941,85.1376,27.7,57,0.0,1002.8,7.2,21.6,203,68.9,55.6,4,5,4,1,2026-03-19T20:22:34.070690+05:30
Gaya,Bihar,24.7914,85.0002,25.4,69,0.0,996.4,7.1,20.5,160,55.1,50.5,7,5,7,1,2026-03-19T20:22:34.070696+05:30
Muzaffarpur,Bihar,26.1209,85.3647,24.7,67,0.0,1002.6,7.05,23.4,182,87.8,70.1,3,5,4,1,2026-03-19T20:22:34.070703+05:30
Bhagalpur,Bihar,25.2425,87.0117,26.5,70,0.0,1004.2,7.4,27.4,192,88.7,76.8,7,5,4,1,2026-03-19T20:22:34.070710+05:30
Ranchi,Jharkhand,23.3441,85.3096,22.5,65,0.0,941.4,7.35,38.5,117,41.6,32.6,3,5,7,0,2026-03-19T20:22:34.070716+05:30
Jamshedpur,Jharkhand,22.8046,86.2029,27.3,55,0.0,994.9,7.9,30.6,139,39.0,32.5,4,5,7,1,2026-03-19T20:22:34.070723+05:30
Dhanbad,Jharkhand,23.7957,86.4304,26.2,55,0.0,983.5,7.15,20.5,157,80.8,69.2,4,5,7,1,2026-03-19T20:22:34.070730+05:30
Bokaro,Jharkhand,23.6693,86.1511,25.3,58,0.0,987.7,7.15,41.0,143,65.9,54.0,4,5,7,1,2026-03-19T20:22:34.070737+05:30
Bhubaneswar,Odisha,20.2961,85.8245,25.2,86,0.0,1006.5,7.8,20.9,113,17.2,15.5,7,5,4,1,2026-03-19T20:22:34.070744+05:30
Cuttack,Odisha,20.4625,85.8828,24.6,81,0.0,1008.5,7.9,24.8,113,17.2,15.5,3,0,4,1,2026-03-19T20:22:34.070751+05:30
Rourkela,Odisha,22.2604,84.8536,25.1,63,0.0,989.5,7.1,24.8,140,64.7,51.3,7,5,7,1,2026-03-19T20:22:34.070758+05:30
Raipur,Chhattisgarh,21.2514,81.6296,27.7,49,0.0,977.1,7.95,25.9,179,68.5,60.5,4,5,7,1,2026-03-19T20:22:34.070765+05:30
Bhilai,Chhattisgarh,21.1938,81.3509,28.6,46,0.0,977.4,7.6,24.8,150,69.4,60.5,4,5,7,0,2026-03-19T20:22:34.070771+05:30
Guwahati,Assam,26.1158,91.7086,23.7,79,0.0,1006.3,7.5,25.2,99,42.3,34.9,3,5,4,1,2026-03-19T20:22:34.070778+05:30
Agartala,Tripura,23.8315,91.2868,25.3,69,0.0,1009.7,7.85,23.0,111,61.7,58.8,7,0,4,1,2026-03-19T20:22:34.070784+05:30
Shillong,Meghalaya,25.5788,91.8933,12.8,92,0.0,858.0,7.15,47.2,120,34.7,29.9,3,10,7,0,2026-03-19T20:22:34.070791+05:30
Imphal,Manipur,24.817,93.9368,17.6,78,0.0,926.3,8.25,60.8,102,45.2,35.9,3,5,7,0,2026-03-19T20:22:34.070798+05:30
Aizawl,Mizoram,23.7271,92.7176,18.3,76,0.0,895.3,8.05,38.5,108,38.9,32.1,3,5,7,0,2026-03-19T20:22:34.070805+05:30
Kohima,Nagaland,25.6701,94.1077,13.9,87,0.0,856.8,7.95,86.8,83,54.0,31.3,3,10,7,0,2026-03-19T20:22:34.070811+05:30
Gangtok,Sikkim,27.3314,88.6138,13.6,94,0.0,838.9,7.7,20.2,102,53.8,39.9,3,10,7,0,2026-03-19T20:22:34.070818+05:30
Siliguri,West Bengal,26.7271,88.3953,19.4,87,0.0,998.4,7.35,24.8,135,70.1,56.7,3,10,7,1,2026-03-19T20:22:37.350224+05:30
Durgapur,West Bengal,23.5204,87.3119,26.6,72,0.0,998.5,7.6,26.3,156,60.8,54.5,7,5,7,1,2026-03-19T20:22:37.350255+05:30
Asansol,West Bengal,23.6739,86.9524,27.1,66,0.0,997.1,7.65,31.0,153,60.5,51.7,7,5,7,1,2026-03-19T20:22:37.350267+05:30
Pondicherry,Puducherry,11.9139,79.8145,25.6,89,0.0,1011.4,9.1,28.4,44,5.7,4.0,7,0,4,1,2026-03-19T20:22:37.350276+05:30
Port Blair,Andaman and Nicobar Islands,11.6234,92.7265,27.9,77,0.0,1010.3,9.05,22.0,50,13.3,10.1,7,0,4,1,2026-03-19T20:22:37.350284+05:30
Haridwar,Uttarakhand,29.9457,78.1642,20.4,81,0.0,977.5,3.75,24.8,72,49.0,30.9,3,5,3,1,2026-03-19T20:22:37.350293+05:30
Rishikesh,Uttarakhand,30.0869,78.2676,19.8,71,0.0,970.2,4.8,24.5,67,48.7,22.9,3,5,3,0,2026-03-19T20:22:37.350302+05:30
Nainital,Uttarakhand,29.3919,79.4542,16.4,56,0.0,806.7,5.8,55.4,74,33.2,19.3,0,5,3,0,2026-03-19T20:22:37.350310+05:30
Mussoorie,Uttarakhand,30.4599,78.0664,12.1,74,0.2,802.3,5.25,38.9,66,50.3,26.5,6,5,3,0,2026-03-19T20:22:37.350318+05:30
Dharamshala,Himachal Pradesh,32.219,76.3234,13.8,78,0.3,868.4,3.8,29.9,49,5.0,4.9,6,5,3,0,2026-03-19T20:22:37.350326+05:30
Dalhousie,Himachal Pradesh,32.5387,75.971,10.9,75,0.1,801.8,4.35,25.2,61,45.5,26.9,6,5,3,0,2026-03-19T20:22:37.350335+05:30
Patiala,Punjab,30.3398,76.3869,17.4,95,0.0,981.9,3.85,21.6,84,48.3,27.8,3,10,3,1,2026-03-19T20:22:37.350343+05:30
Bhatinda,Punjab,30.211,74.9455,18.2,94,0.0,986.9,1.4,20.9,85,63.3,34.6,3,10,3,1,2026-03-19T20:22:37.350351+05:30
Rohtak,Haryana,28.8955,76.6066,19.2,93,0.0,985.0,4.05,28.1,132,90.3,49.7,3,10,3,1,2026-03-19T20:22:37.350358+05:30
Panipat,Haryana,29.3909,76.9635,17.9,91,0.0,983.7,3.8,32.8,130,72.6,37.4,3,10,3,1,2026-03-19T20:22:37.350366+05:30
Mathura,Uttar Pradesh,27.4924,77.6737,20.9,80,0.0,989.5,6.6,37.4,122,146.2,60.3,3,5,7,1,2026-03-19T20:22:37.350373+05:30
Vrindavan,Uttar Pradesh,27.5823,77.7027,20.6,84,0.0,990.0,6.55,40.7,122,146.2,60.3,3,5,7,1,2026-03-19T20:22:37.350381+05:30
Ayodhya,Uttar Pradesh,26.7922,82.1998,26.0,44,0.0,997.0,7.0,32.4,116,63.8,40.0,4,5,7,0,2026-03-19T20:22:37.350388+05:30
Ratlam,Madhya Pradesh,23.3315,75.0367,25.2,46,0.0,956.9,7.75,31.7,82,15.3,10.6,4,5,7,0,2026-03-19T20:22:37.350396+05:30
Sagar,Madhya Pradesh,23.8388,78.7378,26.2,42,0.0,951.5,7.75,45.0,112,24.9,18.8,4,5,7,0,2026-03-19T20:22:37.350403+05:30
Satna,Madhya Pradesh,24.6005,80.8322,27.0,37,0.0,972.8,7.7,42.5,112,20.3,15.3,4,5,7,0,2026-03-19T20:22:37.350411+05:30
Akola,Maharashtra,20.7002,77.0082,27.7,49,0.0,977.7,8.15,26.3,127,42.3,32.7,4,5,7,0,2026-03-19T20:22:37.350419+05:30
Amravati,Maharashtra,20.9374,77.7796,25.2,62,0.0,969.9,8.05,33.8,132,42.0,33.1,7,5,7,1,2026-03-19T20:22:37.350428+05:30
Latur,Maharashtra,18.4088,76.5604,23.4,67,0.0,941.9,8.55,45.7,108,48.0,37.4,3,5,7,1,2026-03-19T20:22:37.350436+05:30
Nanded,Maharashtra,19.1383,77.3091,24.2,69,0.0,971.6,8.4,48.6,131,36.3,28.8,3,5,7,1,2026-03-19T20:22:37.350443+05:30
Gulbarga,Karnataka,17.3297,76.8343,27.0,48,0.0,961.2,8.65,23.4,121,38.0,29.3,4,5,7,0,2026-03-19T20:22:37.350450+05:30
Bidar,Karnataka,17.9104,77.5199,25.1,58,0.0,938.0,8.6,31.3,112,39.0,30.5,4,5,7,1,2026-03-19T20:22:37.350458+05:30
Hospet,Karnataka,15.2689,76.3909,28.6,50,0.0,957.3,8.9,21.2,147,36.0,28.2,4,5,7,1,2026-03-19T20:22:37.350465+05:30
Tirupur,Tamil Nadu,11.1085,77.3411,28.6,59,0.0,976.3,9.35,34.9,147,34.2,28.8,4,5,7,1,2026-03-19T20:22:37.350472+05:30
Alappuzha,Kerala,9.4981,76.3388,28.8,76,0.0,1010.6,9.1,27.4,76,22.8,18.6,7,0,4,1,2026-03-19T20:22:37.350479+05:30
Munnar,Kerala,10.0889,77.0595,21.5,86,0.0,858.7,9.6,38.9,57,18.1,16.6,3,5,7,1,2026-03-19T20:22:37.350487+05:30
Silchar,Assam,24.8333,92.7789,24.5,73,0.0,1008.6,7.9,21.2,114,48.2,45.2,3,0,4,1,2026-03-19T20:22:37.350495+05:30
Dibrugarh,Assam,27.4728,94.912,20.8,85,0.0,1001.0,7.0,23.4,84,55.8,44.2,3,5,4,1,2026-03-19T20:22:37.350502+05:30
