city,state,latitude,longitude,temp,humidity,rain,pressure,uv_index,wind_gusts,aqi,pm10,pm2_5,no2,co,o3,so2,mosquito_risk,arthritis_risk,migraine_risk,frizz_risk,updated_at
Delhi,Delhi,28.6139,77.209,35.3,19,0.0,978.6,7.7,47.5,478,817.7,160.7,32.9,500.0,69.0,18.0,0,5,10,0,2026-05-26T23:58:43.474095+05:30
Mumbai,Maharashtra,19.076,72.8777,30.5,71,0.0,1009.6,7.8,38.2,41,14.3,9.9,7.4,246.0,43.0,5.0,3,0,4,1,2026-05-26T23:58:43.474152+05:30
Bangalore,Karnataka,12.9716,77.5946,21.4,98,0.0,913.2,9.3,45.7,83,39.3,36.1,50.7,871.0,34.0,10.9,3,5,7,1,2026-05-26T23:58:43.474170+05:30
Hyderabad,Telangana,17.385,78.4867,30.0,59,0.0,953.6,9.15,39.2,95,97.1,75.7,68.7,581.0,21.0,17.6,4,5,7,1,2026-05-26T23:58:43.474181+05:30
Chennai,Tamil Nadu,13.0827,80.2707,30.2,69,0.0,1007.1,9.05,43.2,113,27.5,22.5,12.9,206.0,85.0,8.8,3,5,4,1,2026-05-26T23:58:43.474191+05:30
Kolkata,West Bengal,22.5726,88.3639,29.4,87,0.0,1003.4,8.95,39.2,118,44.8,37.7,5.6,270.0,89.0,5.2,7,5,4,1,2026-05-26T23:58:43.474200+05:30
Pune,Maharashtra,18.5204,73.8567,25.5,85,0.0,949.5,8.15,36.7,46,13.0,10.2,11.2,194.0,47.0,11.5,7,5,7,1,2026-05-26T23:58:43.474207+05:30
Ahmedabad,Gujarat,23.0225,72.5714,32.0,69,0.0,1000.9,8.15,36.4,85,35.7,19.7,6.9,195.0,66.0,5.8,3,5,4,1,2026-05-26T23:58:43.474216+05:30
Jaipur,Rajasthan,26.9124,75.7873,34.8,23,0.0,957.2,8.25,36.7,167,269.2,56.8,9.6,196.0,69.0,5.6,0,5,7,0,2026-05-26T23:58:43.474233+05:30
Lucknow,Uttar Pradesh,26.8467,80.9462,32.7,30,0.0,988.7,8.2,49.0,173,444.2,98.3,21.8,456.0,83.0,11.1,0,5,7,0,2026-05-26T23:58:43.474242+05:30
Kanpur,Uttar Pradesh,26.4499,80.3319,34.0,29,0.0,987.2,8.2,54.4,424,717.1,133.6,19.4,462.0,83.0,10.5,0,5,7,0,2026-05-26T23:58:43.474251+05:30
Chandigarh,Chandigarh,30.7333,76.7794,30.0,21,0.0,964.5,7.75,54.0,81,24.4,20.8,23.8,534.0,72.0,9.0,4,5,7,0,2026-05-26T23:58:43.474260+05:30
Srinagar,Jammu and Kashmir,34.0837,74.7973,12.9,88,0.0,840.5,8.95,19.1,78,49.2,43.0,38.9,869.0,54.0,5.6,3,10,7,0,2026-05-26T23:58:43.474269+05:30
Jammu,Jammu and Kashmir,32.7266,74.857,28.2,34,0.0,968.8,8.5,40.3,66,34.7,30.0,39.0,599.0,29.0,4.8,4,5,7,0,2026-05-26T23:58:43.474277+05:30
Amritsar,Punjab,31.634,74.8723,31.0,29,0.0,976.5,8.4,33.8,81,70.5,61.9,70.7,575.0,30.0,15.7,0,5,7,0,2026-05-26T23:58:43.474284+05:30
Ludhiana,Punjab,30.901,75.8573,30.8,27,0.0,974.7,8.0,47.9,69,38.3,32.2,23.5,563.0,71.0,7.8,0,5,7,0,2026-05-26T23:58:43.474292+05:30
Jalandhar,Punjab,31.326,75.5762,30.7,26,0.0,975.5,8.2,42.5,76,59.3,46.1,35.8,509.0,63.0,9.7,0,5,7,0,2026-05-26T23:58:43.474300+05:30
Dehradun,Uttarakhand,30.6284,78.0322,16.3,46,0.0,826.9,8.2,45.4,82,22.3,14.7,32.3,174.0,61.0,1.6,0,5,7,0,2026-05-26T23:58:43.474307+05:30
Shimla,Himachal Pradesh,31.1048,77.1734,16.5,31,0.0,783.8,8.25,54.4,95,25.9,14.6,20.0,195.0,97.0,2.5,0,5,7,1,2026-05-26T23:58:43.474317+05:30
Manali,Himachal Pradesh,32.2396,77.1887,11.3,55,0.0,815.0,9.95,45.7,101,21.4,18.0,55.2,293.0,84.0,0.5,0,5,7,0,2026-05-26T23:58:43.474324+05:30
Gurgaon,Haryana,28.4595,77.0266,33.6,22,0.0,976.9,7.8,38.5,1000,596.0,122.9,53.3,613.0,55.0,29.0,0,5,7,0,2026-05-26T23:58:43.474332+05:30
Noida,Uttar Pradesh,28.5355,77.391,34.2,23,0.0,979.7,7.75,43.6,1000,596.0,122.9,53.3,722.0,55.0,29.0,0,5,7,0,2026-05-26T23:58:43.474341+05:30
Ghaziabad,Uttar Pradesh,28.6692,77.4538,33.0,24,0.0,978.0,7.7,42.8,318,676.1,141.6,23.6,408.0,78.0,16.6,0,5,7,0,2026-05-26T23:58:43.474349+05:30
Faridabad,Haryana,28.4089,77.3178,35.7,18,0.0,979.2,7.75,47.2,1000,596.0,122.9,53.3,1052.0,55.0,29.0,0,5,10,0,2026-05-26T23:58:43.474356+05:30
Meerut,Uttar Pradesh,28.9845,77.7064,33.5,21,0.0,976.9,7.65,47.5,318,676.1,141.6,23.6,303.0,78.0,16.6,0,5,7,0,2026-05-26T23:58:43.474363+05:30
Agra,Uttar Pradesh,27.1767,78.0081,34.3,23,0.0,983.5,8.05,41.8,951,354.8,105.0,56.6,402.0,36.0,22.9,0,5,7,0,2026-05-26T23:58:43.474371+05:30
Varanasi,Uttar Pradesh,25.3176,82.9739,33.0,49,0.0,993.1,8.75,36.0,139,95.7,59.0,30.8,515.0,62.0,15.8,0,5,7,1,2026-05-26T23:58:43.474379+05:30
Prayagraj,Uttar Pradesh,25.4358,81.8463,32.5,25,0.0,991.7,8.6,52.2,151,148.1,63.6,31.8,441.0,72.0,14.6,0,5,7,0,2026-05-26T23:58:43.474387+05:30
Gorakhpur,Uttar Pradesh,26.7606,83.3732,26.1,68,0.0,994.1,8.6,43.2,128,54.6,34.6,10.1,354.0,112.0,6.8,7,5,7,1,2026-05-26T23:58:43.474396+05:30
Bareilly,Uttar Pradesh,28.367,79.4304,29.9,32,0.0,981.9,8.0,39.6,151,184.4,59.5,25.4,372.0,75.0,12.3,4,5,7,0,2026-05-26T23:58:43.474404+05:30
Aligarh,Uttar Pradesh,27.8974,78.088,31.9,29,0.0,980.8,7.85,43.6,677,489.9,120.1,47.3,426.0,36.0,14.2,0,5,7,0,2026-05-26T23:58:43.474411+05:30
Moradabad,Uttar Pradesh,28.8386,78.7733,31.8,25,0.0,978.7,7.85,41.8,158,280.3,78.9,24.5,305.0,66.0,10.8,0,5,7,0,2026-05-26T23:58:43.474418+05:30
Saharanpur,Uttar Pradesh,29.9637,77.546,30.8,21,0.0,971.2,7.4,62.3,103,46.2,20.6,12.3,275.0,94.0,8.4,0,5,7,0,2026-05-26T23:58:43.474427+05:30
Jhansi,Uttar Pradesh,25.4484,78.5685,33.2,27,0.0,974.4,8.45,43.9,81,85.4,39.2,19.4,217.0,61.0,8.1,0,5,7,0,2026-05-26T23:58:46.729945+05:30
Surat,Gujarat,21.1702,72.8311,29.6,80,0.0,1007.3,7.75,43.6,64,37.1,19.2,16.6,225.0,37.0,27.8,7,5,4,1,2026-05-26T23:58:46.729981+05:30
Vadodara,Gujarat,22.3072,73.1812,30.1,76,0.0,1003.6,8.1,40.3,69,31.5,18.9,21.8,257.0,27.0,23.8,3,5,4,1,2026-05-26T23:58:46.729991+05:30
Rajkot,Gujarat,22.3039,70.8022,29.6,70,0.0,994.1,7.7,49.3,69,39.8,19.3,5.3,128.0,47.0,5.7,7,5,7,1,2026-05-26T23:58:46.730000+05:30
Thane,Maharashtra,19.2183,72.9781,29.3,82,0.0,1008.9,7.85,31.0,41,14.3,9.9,7.4,378.0,43.0,5.0,7,0,4,1,2026-05-26T23:58:46.730008+05:30
Nagpur,Maharashtra,21.1458,79.0882,35.8,31,0.0,970.9,8.9,41.0,80,48.1,29.9,12.9,344.0,75.0,9.4,0,5,10,1,2026-05-26T23:58:46.730015+05:30
Nashik,Maharashtra,19.9975,73.7898,25.2,89,0.0,946.7,8.15,35.6,29,7.9,5.9,5.0,160.0,41.0,1.7,7,5,7,1,2026-05-26T23:58:46.730023+05:30
Aurangabad,Maharashtra,19.8762,75.3433,30.4,56,0.0,944.8,9.05,37.4,43,11.1,8.5,6.7,180.0,56.0,4.3,0,5,7,1,2026-05-26T23:58:46.730030+05:30
Solapur,Maharashtra,17.6599,75.9064,28.6,69,0.0,958.0,8.5,41.8,51,15.8,13.1,10.1,255.0,60.0,3.3,7,5,7,1,2026-05-26T23:58:46.730038+05:30
Kolhapur,Maharashtra,16.705,74.2433,25.2,89,0.0,949.8,8.85,38.2,32,10.8,9.1,8.2,173.0,42.0,3.1,7,5,7,1,2026-05-26T23:58:46.730045+05:30
Goa,Goa,15.2993,74.124,27.0,93,0.0,1000.3,6.7,28.1,43,18.0,15.9,9.0,451.0,39.0,2.2,7,5,4,1,2026-05-26T23:58:46.730052+05:30
Jodhpur,Rajasthan,26.2389,73.0243,34.5,34,0.0,980.0,8.4,38.9,164,216.5,49.0,7.8,160.0,68.0,3.2,0,5,7,1,2026-05-26T23:58:46.730060+05:30
Udaipur,Rajasthan,24.5854,73.7125,31.1,40,0.0,945.9,8.8,38.9,90,66.6,25.4,3.5,178.0,79.0,2.8,0,5,7,0,2026-05-26T23:58:46.730067+05:30
Kota,Rajasthan,25.2138,75.8648,35.8,26,0.0,976.3,8.4,33.1,95,60.5,32.7,6.5,164.0,72.0,5.6,0,5,10,0,2026-05-26T23:58:46.730075+05:30
Bikaner,Rajasthan,28.0229,73.3119,35.7,21,0.0,978.0,8.4,41.0,154,150.9,56.8,3.7,144.0,69.0,2.5,0,5,10,0,2026-05-26T23:58:46.730082+05:30
Ajmer,Rajasthan,26.4499,74.6399,32.6,34,0.0,952.7,8.35,46.4,95,93.4,30.2,5.7,182.0,81.0,5.0,0,5,7,0,2026-05-26T23:58:46.730089+05:30
Gwalior,Madhya Pradesh,26.2183,78.1828,35.5,23,0.0,979.4,8.25,47.2,100,149.0,49.1,17.1,223.0,76.0,8.7,0,5,10,0,2026-05-26T23:58:46.730097+05:30
Indore,Madhya Pradesh,22.7196,75.8577,32.5,37,0.0,947.9,8.65,42.1,68,46.0,28.3,6.1,275.0,86.0,6.9,0,5,7,0,2026-05-26T23:58:46.730104+05:30
Bhopal,Madhya Pradesh,23.2599,77.4126,34.2,23,0.0,952.3,8.7,39.2,68,39.7,25.3,7.0,243.0,64.0,4.4,0,5,7,0,2026-05-26T23:58:46.730111+05:30
Jabalpur,Madhya Pradesh,23.1815,79.9864,32.7,22,0.0,959.1,8.85,42.5,78,71.9,35.7,22.8,367.0,61.0,6.7,0,5,7,0,2026-05-26T23:58:46.730118+05:30
Ujjain,Madhya Pradesh,23.1765,75.7885,32.3,38,0.0,953.3,8.6,42.1,71,51.0,30.7,4.3,299.0,87.0,7.0,0,5,7,1,2026-05-26T23:58:46.730126+05:30
Visakhapatnam,Andhra Pradesh,17.6868,83.2185,30.1,85,0.0,1001.9,9.0,40.7,131,55.2,42.1,35.7,344.0,98.0,55.5,3,5,4,1,2026-05-26T23:58:46.730132+05:30
Vijayawada,Andhra Pradesh,16.5062,80.648,29.5,74,0.0,1001.0,9.1,41.0,141,72.4,59.8,23.8,267.0,65.0,8.4,7,5,4,1,2026-05-26T23:58:46.730139+05:30
Guntur,Andhra Pradesh,16.3067,80.4365,28.0,80,0.0,1002.8,9.1,43.2,135,73.3,60.1,26.1,303.0,58.0,8.1,7,5,4,1,2026-05-26T23:58:46.730145+05:30
Nellore,Andhra Pradesh,14.4426,79.9865,29.8,69,0.0,1005.5,9.05,42.1,116,28.3,24.0,7.0,383.0,103.0,5.6,7,5,4,1,2026-05-26T23:58:46.730153+05:30
Kurnool,Andhra Pradesh,15.8281,78.0373,27.3,79,0.0,978.6,9.0,67.0,75,16.8,14.5,8.4,216.0,89.0,5.0,7,5,7,1,2026-05-26T23:58:46.730161+05:30
Kakinada,Andhra Pradesh,16.9891,82.2475,32.2,69,0.0,1005.3,8.95,36.0,133,43.8,32.7,7.1,299.0,122.0,5.3,3,5,4,1,2026-05-26T23:58:46.730167+05:30
Tirupati,Andhra Pradesh,13.6288,79.4192,27.7,72,0.0,991.8,9.1,29.9,83,35.0,31.5,29.3,233.0,40.0,4.6,7,5,7,1,2026-05-26T23:58:46.730174+05:30
Warangal,Telangana,17.9689,79.5941,33.1,47,0.0,977.7,9.1,38.2,110,91.5,68.5,33.5,305.0,36.0,7.5,0,5,7,1,2026-05-26T23:58:46.730180+05:30
Nizamabad,Telangana,18.6725,78.0941,32.5,46,0.0,964.3,9.1,34.9,91,68.7,42.1,14.6,502.0,72.0,5.8,0,5,7,1,2026-05-26T23:58:46.730187+05:30
Mysore,Karnataka,12.2958,76.6396,22.6,92,0.0,931.6,9.15,42.8,57,15.9,14.8,17.9,239.0,54.0,3.5,3,5,7,1,2026-05-26T23:58:46.730193+05:30
Mangalore,Karnataka,12.9141,74.856,25.8,97,0.0,1009.6,7.55,24.1,62,17.4,14.6,12.0,547.0,41.0,4.4,7,0,4,1,2026-05-26T23:58:46.730199+05:30
Hubli-Dharwad,Karnataka,15.3647,75.124,24.2,94,0.0,943.2,9.0,47.2,32,6.9,6.3,7.8,181.0,45.0,1.6,3,5,7,1,2026-05-26T23:58:46.730206+05:30
Belgaum,Karnataka,15.8497,74.4977,23.1,98,0.0,927.9,9.05,43.2,26,10.2,8.8,8.7,134.0,41.0,1.9,3,5,7,1,2026-05-26T23:58:49.962790+05:30
Coimbatore,Tamil Nadu,11.0168,76.9558,25.5,83,0.0,964.1,9.05,50.0,45,7.5,6.8,7.8,193.0,56.0,3.8,7,5,7,1,2026-05-26T23:58:49.962842+05:30
Madurai,Tamil Nadu,9.9252,78.1198,28.5,72,0.0,994.5,8.9,34.2,102,44.2,39.2,37.2,322.0,30.0,7.6,7,5,7,1,2026-05-26T23:58:49.962853+05:30
Trichy,Tamil Nadu,10.7905,78.7047,28.8,70,0.0,1000.9,8.95,42.1,63,27.3,24.5,20.9,390.0,53.0,5.5,7,5,4,1,2026-05-26T23:58:49.962862+05:30
Salem,Tamil Nadu,11.6643,78.146,26.7,73,0.0,978.9,9.05,40.0,75,28.0,23.9,20.8,414.0,57.0,7.7,7,5,7,1,2026-05-26T23:58:49.962870+05:30
Tirunelveli,Tamil Nadu,8.7139,77.7567,29.5,66,0.0,1005.0,8.8,34.2,31,9.7,8.4,9.6,201.0,41.0,2.1,7,5,4,1,2026-05-26T23:58:49.962878+05:30
Vellore,Tamil Nadu,12.9165,79.1325,27.4,68,0.0,985.6,8.75,38.9,99,39.3,36.3,19.6,309.0,62.0,6.3,7,5,7,1,2026-05-26T23:58:49.962885+05:30
Erode,Tamil Nadu,11.341,77.7172,26.5,91,0.0,990.9,9.0,51.8,57,15.1,13.9,19.3,261.0,44.0,4.7,7,5,7,1,2026-05-26T23:58:49.962893+05:30
Kochi,Kerala,9.9312,76.2673,26.7,96,0.1,1011.7,8.75,34.6,56,28.0,26.0,30.1,316.0,12.0,7.1,10,0,4,1,2026-05-26T23:58:49.962900+05:30
Thiruvananthapuram,Kerala,8.5241,76.9366,25.4,96,0.0,1011.5,8.4,38.2,30,8.0,4.8,2.5,416.0,58.0,0.8,7,0,4,1,2026-05-26T23:58:49.962907+05:30
Kozhikode,Kerala,11.2588,75.7804,25.1,99,0.0,1010.9,8.0,34.9,30,9.3,6.4,2.6,445.0,61.0,1.2,7,0,4,1,2026-05-26T23:58:49.962915+05:30
Thrissur,Kerala,10.5276,76.2144,25.5,98,0.0,1010.1,8.05,32.8,55,24.9,23.5,23.0,298.0,17.0,6.0,7,0,4,1,2026-05-26T23:58:49.962923+05:30
Kannur,Kerala,11.8745,75.3704,25.9,98,0.0,1010.1,8.6,40.0,66,22.2,20.1,23.2,240.0,24.0,4.5,7,0,4,1,2026-05-26T23:58:49.962930+05:30
Patna,Bihar,25.5941,85.1376,29.1,71,0.0,996.6,8.8,33.8,135,48.4,38.0,15.4,427.0,96.0,15.8,7,5,7,1,2026-05-26T23:58:49.962936+05:30
Gaya,Bihar,24.7914,85.0002,30.0,65,0.0,989.6,8.85,33.1,156,53.6,46.2,12.8,434.0,117.0,16.9,7,5,7,1,2026-05-26T23:58:49.962943+05:30
Muzaffarpur,Bihar,26.1209,85.3647,27.2,76,0.2,997.7,8.8,33.8,98,51.2,39.9,18.8,416.0,81.0,14.6,10,5,7,1,2026-05-26T23:58:49.962950+05:30
Bhagalpur,Bihar,25.2425,87.0117,27.9,84,0.0,998.7,8.8,34.9,90,46.3,40.2,13.3,392.0,75.0,7.2,7,5,7,1,2026-05-26T23:58:49.962957+05:30
Ranchi,Jharkhand,23.3441,85.3096,25.9,49,0.0,935.0,9.15,33.1,99,67.5,38.1,17.1,345.0,79.0,10.5,4,5,7,0,2026-05-26T23:58:49.962964+05:30
Jamshedpur,Jharkhand,22.8046,86.2029,29.4,91,0.0,987.6,9.05,29.2,153,84.3,65.0,22.2,757.0,86.0,26.4,7,5,7,1,2026-05-26T23:58:49.962971+05:30
Dhanbad,Jharkhand,23.7957,86.4304,30.4,83,0.0,977.0,9.05,29.9,163,85.7,76.6,47.4,380.0,64.0,108.4,3,5,7,1,2026-05-26T23:58:49.962978+05:30
Bokaro,Jharkhand,23.6693,86.1511,30.2,84,0.0,980.5,9.05,27.4,156,114.3,83.4,55.5,1483.0,37.0,82.7,3,5,7,1,2026-05-26T23:58:49.962985+05:30
Bhubaneswar,Odisha,20.2961,85.8245,29.9,91,0.0,999.7,9.1,38.9,118,31.3,26.3,5.2,214.0,87.0,5.3,7,5,7,1,2026-05-26T23:58:49.962991+05:30
Cuttack,Odisha,20.4625,85.8828,29.8,92,0.0,1001.3,9.15,34.6,118,31.3,26.3,5.2,240.0,87.0,5.3,7,5,4,1,2026-05-26T23:58:49.962998+05:30
Rourkela,Odisha,22.2604,84.8536,31.4,61,0.0,981.7,9.0,40.0,152,94.5,61.5,30.9,296.0,64.0,15.5,3,5,7,1,2026-05-26T23:58:49.963005+05:30
Raipur,Chhattisgarh,21.2514,81.6296,33.2,32,0.0,971.7,8.95,36.7,119,53.8,37.5,32.1,663.0,66.0,48.0,0,5,7,0,2026-05-26T23:58:49.963012+05:30
Bhilai,Chhattisgarh,21.1938,81.3509,33.2,33,0.0,971.9,8.95,41.0,108,53.0,35.9,23.7,679.0,79.0,36.0,0,5,7,0,2026-05-26T23:58:49.963018+05:30
Guwahati,Assam,26.1158,91.7086,23.9,98,0.0,1001.3,8.75,24.1,63,21.6,10.9,6.2,486.0,81.0,2.3,3,5,4,1,2026-05-26T23:58:49.963024+05:30
Agartala,Tripura,23.8315,91.2868,23.0,100,0.2,1006.5,8.8,37.4,82,29.5,23.9,12.3,215.0,50.0,2.1,6,5,4,1,2026-05-26T23:58:49.963031+05:30
Shillong,Meghalaya,25.5788,91.8933,18.2,94,0.0,856.6,8.75,39.6,41,5.5,2.7,4.5,233.0,90.0,2.3,3,10,7,1,2026-05-26T23:58:49.963038+05:30
Imphal,Manipur,24.817,93.9368,19.8,94,0.0,922.7,7.35,36.7,77,68.9,53.9,35.2,401.0,19.0,5.7,3,10,7,1,2026-05-26T23:58:49.963045+05:30
Aizawl,Mizoram,23.7271,92.7176,16.9,100,0.0,891.1,9.05,33.8,66,38.8,23.9,5.3,173.0,62.0,1.8,3,10,7,1,2026-05-26T23:58:49.963052+05:30
Kohima,Nagaland,25.6701,94.1077,16.0,93,0.0,853.6,8.0,38.2,46,30.6,16.5,7.4,265.0,68.0,1.9,3,10,7,0,2026-05-26T23:58:49.963059+05:30
Gangtok,Sikkim,27.3314,88.6138,14.3,97,0.1,836.1,9.2,34.9,79,20.8,8.9,4.9,479.0,130.0,2.2,6,10,7,0,2026-05-26T23:58:49.963065+05:30
Siliguri,West Bengal,26.7271,88.3953,21.9,99,0.0,992.8,8.7,30.2,93,32.7,21.4,15.2,438.0,86.0,3.6,3,5,7,1,2026-05-26T23:58:53.211711+05:30
Durgapur,West Bengal,23.5204,87.3119,29.0,90,0.0,992.0,9.0,32.4,158,55.1,51.3,21.2,334.0,64.0,29.3,7,5,7,1,2026-05-26T23:58:53.211746+05:30
Asansol,West Bengal,23.6739,86.9524,29.5,89,0.0,990.5,9.0,28.8,160,59.6,54.9,21.1,675.0,79.0,31.7,7,5,7,1,2026-05-26T23:58:53.211758+05:30
Pondicherry,Puducherry,11.9139,79.8145,28.4,78,0.0,1009.1,8.65,37.1,78,9.9,7.9,11.3,193.0,54.0,8.6,7,0,4,1,2026-05-26T23:58:53.211766+05:30
Port Blair,Andaman and Nicobar Islands,11.6234,92.7265,25.7,96,0.0,1007.5,7.55,29.2,31,11.8,6.9,0.3,103.0,64.0,0.3,7,5,4,1,2026-05-26T23:58:53.211774+05:30
Haridwar,Uttarakhand,29.9457,78.1642,26.7,33,0.0,969.0,7.55,41.4,106,14.1,12.0,9.5,267.0,106.0,8.0,4,5,7,0,2026-05-26T23:58:53.211782+05:30
Rishikesh,Uttarakhand,30.0869,78.2676,24.1,36,0.0,961.6,7.65,34.6,124,11.2,10.0,7.9,303.0,122.0,6.6,0,5,7,0,2026-05-26T23:58:53.211790+05:30
Nainital,Uttarakhand,29.3919,79.4542,16.3,38,0.0,803.0,8.5,52.2,132,116.9,26.2,10.9,242.0,118.0,5.6,0,5,7,0,2026-05-26T23:58:53.211798+05:30
Mussoorie,Uttarakhand,30.4599,78.0664,18.5,33,0.0,801.8,8.05,57.6,106,16.6,14.1,18.4,181.0,96.0,6.3,0,5,7,0,2026-05-26T23:58:53.211805+05:30
Dharamshala,Himachal Pradesh,32.219,76.3234,22.7,34,0.0,867.7,8.45,48.6,65,17.5,13.8,15.4,233.0,55.0,0.7,0,5,7,0,2026-05-26T23:58:53.211829+05:30
Dalhousie,Himachal Pradesh,32.5387,75.971,14.4,55,0.0,801.8,8.7,44.6,59,32.7,27.7,52.9,478.0,18.0,2.5,0,5,7,0,2026-05-26T23:58:53.211837+05:30
Patiala,Punjab,30.3398,76.3869,32.4,21,0.0,974.0,7.65,56.2,451,464.7,78.7,14.5,301.0,78.0,6.2,0,5,7,0,2026-05-26T23:58:53.211845+05:30
Bhatinda,Punjab,30.211,74.9455,33.1,26,0.0,979.5,8.3,31.7,95,37.6,31.0,16.6,339.0,93.0,9.6,0,5,7,0,2026-05-26T23:58:53.211852+05:30
Rohtak,Haryana,28.8955,76.6066,31.6,27,0.0,977.2,7.75,41.0,638,901.5,163.4,32.1,332.0,66.0,11.0,0,5,7,0,2026-05-26T23:58:53.211859+05:30
Panipat,Haryana,29.3909,76.9635,33.0,20,0.0,975.8,7.6,48.6,1512,1665.2,265.4,17.6,301.0,81.0,7.6,0,5,7,0,2026-05-26T23:58:53.211868+05:30
Mathura,Uttar Pradesh,27.4924,77.6737,35.3,20,0.0,982.3,8.0,37.1,659,287.8,92.2,74.6,513.0,14.0,14.9,0,5,10,0,2026-05-26T23:58:53.211875+05:30
Vrindavan,Uttar Pradesh,27.5823,77.7027,33.8,23,0.0,982.6,8.0,31.3,659,287.8,92.2,74.6,441.0,14.0,14.9,0,5,7,0,2026-05-26T23:58:53.211883+05:30
Ayodhya,Uttar Pradesh,26.7922,82.1998,30.2,60,0.0,991.4,8.35,37.4,147,60.1,41.3,12.1,434.0,112.0,9.7,0,5,7,1,2026-05-26T23:58:53.211890+05:30
Ratlam,Madhya Pradesh,23.3315,75.0367,31.5,40,0.0,954.2,8.55,41.4,71,49.1,29.6,4.2,209.0,82.0,6.4,0,5,7,1,2026-05-26T23:58:53.211897+05:30
Sagar,Madhya Pradesh,23.8388,78.7378,33.2,22,0.0,948.1,8.75,42.5,79,85.2,38.2,22.9,200.0,46.0,4.7,0,5,7,0,2026-05-26T23:58:53.211903+05:30
Satna,Madhya Pradesh,24.6005,80.8322,32.3,28,0.0,967.8,8.8,52.2,77,92.7,30.3,20.7,267.0,78.0,4.5,0,5,7,0,2026-05-26T23:58:53.211910+05:30
Akola,Maharashtra,20.7002,77.0082,34.9,38,0.0,973.9,8.5,42.1,59,28.8,20.0,10.6,266.0,80.0,8.1,0,5,7,1,2026-05-26T23:58:53.211918+05:30
Amravati,Maharashtra,20.9374,77.7796,34.5,36,0.0,966.1,8.85,42.5,62,30.4,21.4,13.2,253.0,69.0,7.9,0,5,7,1,2026-05-26T23:58:53.211926+05:30
Latur,Maharashtra,18.4088,76.5604,26.6,69,0.1,940.0,8.8,34.2,76,27.9,23.1,13.9,212.0,68.0,4.2,10,5,7,1,2026-05-26T23:58:53.211933+05:30
Nanded,Maharashtra,19.1383,77.3091,34.3,40,0.0,967.9,8.85,33.8,79,44.5,29.0,12.9,377.0,71.0,5.9,0,5,7,1,2026-05-26T23:58:53.211941+05:30
Gulbarga,Karnataka,17.3297,76.8343,28.8,62,0.0,959.8,7.5,37.4,57,17.8,14.7,11.5,261.0,75.0,3.9,7,5,7,1,2026-05-26T23:58:53.211948+05:30
Bidar,Karnataka,17.9104,77.5199,29.5,55,0.0,935.9,8.95,33.1,90,68.7,53.0,43.6,253.0,30.0,6.6,4,5,7,1,2026-05-26T23:58:53.211955+05:30
Hospet,Karnataka,15.2689,76.3909,26.4,83,0.0,958.2,7.95,41.4,42,12.2,11.5,13.1,192.0,51.0,2.0,7,5,7,1,2026-05-26T23:58:53.211961+05:30
Tirupur,Tamil Nadu,11.1085,77.3411,26.5,82,0.0,977.5,9.1,58.0,58,19.0,17.5,23.1,191.0,40.0,5.7,7,5,7,1,2026-05-26T23:58:53.211967+05:30
Alappuzha,Kerala,9.4981,76.3388,26.6,93,0.1,1011.8,8.55,37.1,43,23.2,20.9,13.1,114.0,44.0,4.1,10,0,4,1,2026-05-26T23:58:53.211975+05:30
Munnar,Kerala,10.0889,77.0595,17.7,98,0.0,859.0,9.2,28.4,44,11.5,11.2,11.1,165.0,35.0,1.8,3,10,7,1,2026-05-26T23:58:53.211983+05:30
Silchar,Assam,24.8333,92.7789,24.7,96,0.1,1004.7,8.9,23.8,78,52.7,31.9,8.0,246.0,81.0,4.0,6,5,4,1,2026-05-26T23:58:53.211989+05:30
Dibrugarh,Assam,27.4728,94.912,23.8,92,0.0,995.0,8.2,23.4,86,23.8,19.4,15.9,208.0,38.0,1.6,3,5,7,1,2026-05-26T23:58:53.211996+05:30
