city,state,latitude,longitude,temp,humidity,rain,pressure,uv_index,wind_gusts,aqi,pm10,pm2_5,mosquito_risk,arthritis_risk,migraine_risk,frizz_risk,updated_at
Delhi,Delhi,28.6139,77.209,26.9,45,0.0,988.7,7.15,33.8,765,562.5,93.4,4,5,7,0,2026-04-11T10:27:48.886993+05:30
Mumbai,Maharashtra,19.076,72.8777,28.3,83,0.0,1011.6,7.95,24.1,107,73.3,43.1,7,0,4,1,2026-04-11T10:27:48.887040+05:30
Bangalore,Karnataka,12.9716,77.5946,28.8,58,0.0,915.9,9.65,27.4,86,29.2,21.8,4,5,7,1,2026-04-11T10:27:48.887055+05:30
Hyderabad,Telangana,17.385,78.4867,35.2,36,0.0,957.6,9.25,19.1,103,41.9,31.2,0,5,10,1,2026-04-11T10:27:48.887064+05:30
Chennai,Tamil Nadu,13.0827,80.2707,33.4,55,0.0,1010.6,8.95,36.4,59,20.7,14.4,0,0,4,1,2026-04-11T10:27:48.887073+05:30
Kolkata,West Bengal,22.5726,88.3639,30.8,64,0.0,1010.3,8.75,20.2,143,59.0,40.2,3,0,4,1,2026-04-11T10:27:48.887083+05:30
Pune,Maharashtra,18.5204,73.8567,33.6,37,0.0,952.8,8.55,39.6,96,52.3,32.9,0,5,7,1,2026-04-11T10:27:48.887092+05:30
Ahmedabad,Gujarat,23.0225,72.5714,33.6,26,0.0,1007.2,8.05,18.4,72,31.4,22.9,0,5,4,0,2026-04-11T10:27:48.887098+05:30
Jaipur,Rajasthan,26.9124,75.7873,29.9,32,0.0,965.3,7.8,37.4,102,125.7,29.2,4,5,7,0,2026-04-11T10:27:48.887105+05:30
Lucknow,Uttar Pradesh,26.8467,80.9462,29.6,36,0.0,997.7,7.65,46.1,237,244.0,67.5,4,5,7,0,2026-04-11T10:27:48.887111+05:30
Kanpur,Uttar Pradesh,26.4499,80.3319,28.3,45,0.0,996.8,7.65,40.7,585,638.9,109.2,4,5,7,0,2026-04-11T10:27:48.887117+05:30
Chandigarh,Chandigarh,30.7333,76.7794,26.8,44,0.0,973.5,6.6,33.8,44,16.9,9.9,4,5,7,0,2026-04-11T10:27:48.887124+05:30
Srinagar,Jammu and Kashmir,34.0837,74.7973,11.7,75,0.0,842.7,6.85,18.0,84,36.3,18.4,3,5,7,0,2026-04-11T10:27:48.887130+05:30
Jammu,Jammu and Kashmir,32.7266,74.857,23.0,66,0.0,977.3,7.4,17.6,61,30.5,19.8,3,5,7,1,2026-04-11T10:27:48.887136+05:30
Amritsar,Punjab,31.634,74.8723,25.2,55,0.0,985.9,7.7,20.9,55,80.6,24.2,4,5,7,0,2026-04-11T10:27:48.887142+05:30
Ludhiana,Punjab,30.901,75.8573,26.5,40,0.0,983.9,7.3,33.8,57,21.1,16.4,4,5,7,0,2026-04-11T10:27:48.887148+05:30
Jalandhar,Punjab,31.326,75.5762,25.3,47,0.0,985.1,7.45,27.0,59,45.4,20.0,4,5,7,0,2026-04-11T10:27:48.887155+05:30
Dehradun,Uttarakhand,30.6284,78.0322,19.0,41,0.0,833.3,7.15,48.6,34,13.9,3.5,0,5,7,0,2026-04-11T10:27:48.887161+05:30
Shimla,Himachal Pradesh,31.1048,77.1734,16.7,47,0.0,788.1,7.35,46.1,47,32.1,7.3,0,5,7,0,2026-04-11T10:27:48.887167+05:30
Manali,Himachal Pradesh,32.2396,77.1887,15.0,49,0.0,821.5,9.3,33.1,74,17.5,6.4,0,5,7,0,2026-04-11T10:27:48.887173+05:30
Gurgaon,Haryana,28.4595,77.0266,26.3,50,0.0,987.3,7.3,26.3,2008,1482.7,175.1,4,5,7,0,2026-04-11T10:27:48.887179+05:30
Noida,Uttar Pradesh,28.5355,77.391,27.4,44,0.0,990.2,7.2,33.5,2008,1482.7,175.1,4,5,7,0,2026-04-11T10:27:48.887185+05:30
Ghaziabad,Uttar Pradesh,28.6692,77.4538,26.3,49,0.0,988.2,7.15,32.4,580,399.5,70.1,4,5,7,0,2026-04-11T10:27:48.887190+05:30
Faridabad,Haryana,28.4089,77.3178,27.4,45,0.0,989.5,7.25,33.1,2008,1482.7,175.1,4,5,7,0,2026-04-11T10:27:48.887195+05:30
Meerut,Uttar Pradesh,28.9845,77.7064,26.8,46,0.0,986.4,7.05,33.5,580,399.5,70.1,4,5,7,0,2026-04-11T10:27:48.887201+05:30
Agra,Uttar Pradesh,27.1767,78.0081,29.5,40,0.0,993.6,7.55,29.9,1283,910.8,136.4,4,5,7,0,2026-04-11T10:27:48.887206+05:30
Varanasi,Uttar Pradesh,25.3176,82.9739,31.3,32,0.0,1002.3,8.3,41.4,93,392.1,65.7,0,5,4,0,2026-04-11T10:27:48.887213+05:30
Prayagraj,Uttar Pradesh,25.4358,81.8463,31.1,31,0.0,1001.3,8.15,43.9,117,396.7,73.8,0,5,4,0,2026-04-11T10:27:48.887219+05:30
Gorakhpur,Uttar Pradesh,26.7606,83.3732,29.4,36,0.0,1001.0,8.1,34.9,93,275.7,70.5,4,5,4,0,2026-04-11T10:27:48.887225+05:30
Bareilly,Uttar Pradesh,28.367,79.4304,27.3,45,0.0,991.0,7.45,50.0,91,17.5,14.5,4,5,7,0,2026-04-11T10:27:48.887231+05:30
Aligarh,Uttar Pradesh,27.8974,78.088,29.3,38,0.0,991.0,7.35,38.9,1270,754.4,104.5,4,5,7,0,2026-04-11T10:27:48.887236+05:30
Moradabad,Uttar Pradesh,28.8386,78.7733,27.0,46,0.0,988.0,7.25,42.5,105,23.9,15.1,4,5,7,0,2026-04-11T10:27:48.887241+05:30
Saharanpur,Uttar Pradesh,29.9637,77.546,27.3,45,0.0,980.1,6.8,40.7,72,41.4,18.8,4,5,7,0,2026-04-11T10:27:48.887246+05:30
Jhansi,Uttar Pradesh,25.4484,78.5685,31.0,34,0.0,983.9,8.1,28.8,58,290.6,38.3,0,5,7,0,2026-04-11T10:27:52.155665+05:30
Surat,Gujarat,21.1702,72.8311,31.6,45,0.0,1010.6,7.75,28.4,113,61.5,54.7,0,0,4,1,2026-04-11T10:27:52.155715+05:30
Vadodara,Gujarat,22.3072,73.1812,32.7,35,0.0,1008.8,8.05,16.6,55,27.3,18.1,0,0,4,0,2026-04-11T10:27:52.155727+05:30
Rajkot,Gujarat,22.3039,70.8022,31.4,45,0.0,999.6,7.75,31.7,70,47.5,24.4,0,5,7,1,2026-04-11T10:27:52.155737+05:30
Thane,Maharashtra,19.2183,72.9781,32.2,57,0.0,1011.2,7.95,37.8,107,73.3,43.1,0,0,4,1,2026-04-11T10:27:52.155747+05:30
Nagpur,Maharashtra,21.1458,79.0882,31.1,36,0.0,978.9,8.75,22.7,65,42.7,14.9,0,5,7,0,2026-04-11T10:27:52.155756+05:30
Nashik,Maharashtra,19.9975,73.7898,31.8,31,0.0,950.1,8.25,37.8,107,47.3,33.6,0,5,7,0,2026-04-11T10:27:52.155765+05:30
Aurangabad,Maharashtra,19.8762,75.3433,33.5,22,0.0,949.1,8.9,29.5,74,17.4,11.1,0,5,7,0,2026-04-11T10:27:52.155774+05:30
Solapur,Maharashtra,17.6599,75.9064,35.5,29,0.0,961.1,9.0,18.7,66,26.1,17.6,0,5,10,0,2026-04-11T10:27:52.155784+05:30
Kolhapur,Maharashtra,16.705,74.2433,32.3,43,0.0,951.8,8.6,43.9,103,65.2,41.2,0,5,7,1,2026-04-11T10:27:52.155793+05:30
Goa,Goa,15.2993,74.124,31.1,63,0.0,1001.6,9.05,33.8,106,96.6,38.1,3,5,4,1,2026-04-11T10:27:52.155802+05:30
Jodhpur,Rajasthan,26.2389,73.0243,30.7,34,0.0,988.1,8.05,28.4,62,66.8,17.1,0,5,7,0,2026-04-11T10:27:52.155811+05:30
Udaipur,Rajasthan,24.5854,73.7125,31.3,25,0.0,952.1,8.6,33.8,50,30.0,10.1,0,5,7,0,2026-04-11T10:27:52.155819+05:30
Kota,Rajasthan,25.2138,75.8648,29.8,40,0.0,984.6,8.1,17.6,77,41.1,20.7,4,5,7,0,2026-04-11T10:27:52.155827+05:30
Bikaner,Rajasthan,28.0229,73.3119,28.7,40,0.0,987.3,7.9,32.8,53,20.3,12.6,4,5,7,0,2026-04-11T10:27:52.155835+05:30
Ajmer,Rajasthan,26.4499,74.6399,30.6,28,0.0,959.8,8.0,37.8,68,41.2,14.5,0,5,7,0,2026-04-11T10:27:52.155843+05:30
Gwalior,Madhya Pradesh,26.2183,78.1828,30.3,39,0.0,989.0,7.8,28.1,99,331.6,54.2,0,5,7,0,2026-04-11T10:27:52.155852+05:30
Indore,Madhya Pradesh,22.7196,75.8577,30.7,26,0.0,953.6,8.5,21.6,58,47.6,14.7,0,5,7,0,2026-04-11T10:27:52.155860+05:30
Bhopal,Madhya Pradesh,23.2599,77.4126,31.9,22,0.0,959.6,8.5,22.3,53,35.0,12.1,0,5,7,0,2026-04-11T10:27:52.155868+05:30
Jabalpur,Madhya Pradesh,23.1815,79.9864,30.5,27,0.0,967.6,8.6,20.5,71,25.1,16.2,0,5,7,0,2026-04-11T10:27:52.155877+05:30
Ujjain,Madhya Pradesh,23.1765,75.7885,30.7,27,0.0,959.5,8.4,20.5,63,50.2,18.1,0,5,7,0,2026-04-11T10:27:52.155887+05:30
Visakhapatnam,Andhra Pradesh,17.6868,83.2185,33.4,55,0.0,1007.7,9.15,40.3,85,32.9,27.0,0,5,4,1,2026-04-11T10:27:52.155895+05:30
Vijayawada,Andhra Pradesh,16.5062,80.648,32.7,61,0.0,1006.8,9.2,26.3,76,25.0,20.3,3,5,4,1,2026-04-11T10:27:52.155904+05:30
Guntur,Andhra Pradesh,16.3067,80.4365,33.5,57,0.0,1007.7,9.25,33.8,75,25.3,21.4,0,5,4,1,2026-04-11T10:27:52.155912+05:30
Nellore,Andhra Pradesh,14.4426,79.9865,34.1,51,0.0,1009.2,9.25,41.8,66,23.9,19.6,0,0,4,1,2026-04-11T10:27:52.155921+05:30
Kurnool,Andhra Pradesh,15.8281,78.0373,35.9,41,0.0,980.3,9.25,26.6,84,32.1,28.3,0,5,10,1,2026-04-11T10:27:52.155930+05:30
Kakinada,Andhra Pradesh,16.9891,82.2475,33.3,58,0.0,1011.4,9.2,35.6,64,25.6,18.0,0,0,4,1,2026-04-11T10:27:52.155939+05:30
Tirupati,Andhra Pradesh,13.6288,79.4192,32.1,53,0.0,995.5,9.45,29.9,77,29.3,24.7,0,5,7,1,2026-04-11T10:27:52.155947+05:30
Warangal,Telangana,17.9689,79.5941,33.4,55,0.0,982.9,9.1,25.2,104,41.2,35.7,0,5,7,1,2026-04-11T10:27:52.155954+05:30
Nizamabad,Telangana,18.6725,78.0941,33.8,40,0.0,969.4,9.0,24.8,82,30.9,19.6,0,5,7,1,2026-04-11T10:27:52.155961+05:30
Mysore,Karnataka,12.2958,76.6396,27.8,64,0.0,932.5,9.1,34.2,82,30.7,20.5,7,5,7,1,2026-04-11T10:27:52.155968+05:30
Mangalore,Karnataka,12.9141,74.856,29.1,79,0.0,1010.4,8.75,24.5,80,72.2,27.6,7,0,4,1,2026-04-11T10:27:52.155975+05:30
Hubli-Dharwad,Karnataka,15.3647,75.124,30.5,57,0.0,944.9,9.25,41.4,94,68.9,34.9,0,5,7,1,2026-04-11T10:27:52.155982+05:30
Belgaum,Karnataka,15.8497,74.4977,31.4,37,0.0,930.0,9.3,41.0,96,66.4,30.5,0,5,7,0,2026-04-11T10:27:55.424223+05:30
Coimbatore,Tamil Nadu,11.0168,76.9558,31.2,54,0.0,965.8,6.9,32.0,72,28.1,19.3,0,5,7,1,2026-04-11T10:27:55.424251+05:30
Madurai,Tamil Nadu,9.9252,78.1198,32.9,55,0.0,996.2,8.85,40.3,75,28.0,20.9,0,5,7,1,2026-04-11T10:27:55.424261+05:30
Trichy,Tamil Nadu,10.7905,78.7047,32.4,60,0.0,1003.2,9.4,26.6,70,23.4,18.2,0,5,4,1,2026-04-11T10:27:55.424269+05:30
Salem,Tamil Nadu,11.6643,78.146,32.3,51,0.0,981.0,8.8,20.2,71,27.8,20.4,0,5,7,1,2026-04-11T10:27:55.424277+05:30
Tirunelveli,Tamil Nadu,8.7139,77.7567,32.7,55,0.0,1006.4,9.2,41.4,74,22.7,16.4,0,5,4,1,2026-04-11T10:27:55.424284+05:30
Vellore,Tamil Nadu,12.9165,79.1325,32.4,50,0.0,988.3,9.5,34.9,85,34.2,28.3,0,5,7,1,2026-04-11T10:27:55.424291+05:30
Erode,Tamil Nadu,11.341,77.7172,33.0,56,0.0,992.5,8.1,32.0,62,22.9,18.0,0,5,7,1,2026-04-11T10:27:55.424298+05:30
Kochi,Kerala,9.9312,76.2673,28.1,82,0.0,1012.0,9.15,28.4,69,22.0,15.5,7,0,4,1,2026-04-11T10:27:55.424305+05:30
Thiruvananthapuram,Kerala,8.5241,76.9366,28.1,82,0.0,1010.9,9.05,33.8,64,18.9,12.3,7,0,4,1,2026-04-11T10:27:55.424313+05:30
Kozhikode,Kerala,11.2588,75.7804,29.3,77,0.0,1011.6,8.95,27.4,65,25.0,12.9,7,0,4,1,2026-04-11T10:27:55.424320+05:30
Thrissur,Kerala,10.5276,76.2144,30.9,69,0.0,1010.5,8.05,31.7,68,26.3,14.3,3,0,4,1,2026-04-11T10:27:55.424327+05:30
Kannur,Kerala,11.8745,75.3704,28.2,72,0.0,1011.2,8.25,29.2,65,14.5,8.4,7,0,4,1,2026-04-11T10:27:55.424334+05:30
Patna,Bihar,25.5941,85.1376,29.9,37,0.0,1004.7,8.45,31.3,77,445.2,72.4,4,5,4,0,2026-04-11T10:27:55.424341+05:30
Gaya,Bihar,24.7914,85.0002,31.0,31,0.0,998.3,8.5,35.3,70,491.7,68.0,0,5,7,0,2026-04-11T10:27:55.424348+05:30
Muzaffarpur,Bihar,26.1209,85.3647,28.9,39,0.0,1004.6,8.4,20.2,74,431.2,70.8,4,5,4,0,2026-04-11T10:27:55.424354+05:30
Bhagalpur,Bihar,25.2425,87.0117,28.5,47,0.0,1005.6,8.45,23.0,61,102.0,32.9,4,5,4,1,2026-04-11T10:27:55.424361+05:30
Ranchi,Jharkhand,23.3441,85.3096,27.9,29,0.0,942.9,9.05,35.6,64,352.0,47.6,4,5,7,0,2026-04-11T10:27:55.424368+05:30
Jamshedpur,Jharkhand,22.8046,86.2029,30.4,40,0.0,996.0,8.85,17.6,111,84.8,38.9,0,5,7,0,2026-04-11T10:27:55.424374+05:30
Dhanbad,Jharkhand,23.7957,86.4304,30.4,29,0.0,984.7,8.8,26.3,116,210.0,42.3,0,5,7,0,2026-04-11T10:27:55.424381+05:30
Bokaro,Jharkhand,23.6693,86.1511,29.8,30,0.0,988.8,8.8,29.5,113,332.5,52.9,4,5,7,0,2026-04-11T10:27:55.424389+05:30
Bhubaneswar,Odisha,20.2961,85.8245,32.2,66,0.0,1006.8,9.0,23.0,118,75.9,49.9,3,5,4,1,2026-04-11T10:27:55.424395+05:30
Cuttack,Odisha,20.4625,85.8828,32.9,61,0.0,1008.8,9.05,18.4,118,75.9,49.9,3,0,4,1,2026-04-11T10:27:55.424402+05:30
Rourkela,Odisha,22.2604,84.8536,31.4,31,0.0,990.5,8.75,18.7,86,154.6,32.9,0,5,7,0,2026-04-11T10:27:55.424409+05:30
Raipur,Chhattisgarh,21.2514,81.6296,33.0,25,0.0,980.4,8.85,21.6,110,29.8,21.0,0,5,7,0,2026-04-11T10:27:55.424416+05:30
Bhilai,Chhattisgarh,21.1938,81.3509,32.8,27,0.0,980.8,8.85,19.8,107,35.3,21.4,0,5,7,0,2026-04-11T10:27:55.424422+05:30
Guwahati,Assam,26.1158,91.7086,26.2,69,0.0,1006.4,8.35,20.2,109,35.2,26.9,7,5,4,1,2026-04-11T10:27:55.424429+05:30
Agartala,Tripura,23.8315,91.2868,30.0,62,0.0,1010.1,8.6,23.0,143,69.8,49.7,7,0,4,1,2026-04-11T10:27:55.424436+05:30
Shillong,Meghalaya,25.5788,91.8933,17.4,44,0.0,859.3,8.75,52.2,86,26.7,17.1,0,5,7,0,2026-04-11T10:27:55.424442+05:30
Imphal,Manipur,24.817,93.9368,20.8,53,0.0,926.3,8.95,51.1,95,30.3,19.7,0,5,7,0,2026-04-11T10:27:55.424449+05:30
Aizawl,Mizoram,23.7271,92.7176,24.1,40,0.0,897.4,8.8,42.1,88,43.7,22.2,0,5,7,0,2026-04-11T10:27:55.424456+05:30
Kohima,Nagaland,25.6701,94.1077,17.0,53,0.0,857.9,8.3,66.2,71,21.5,15.5,0,5,7,0,2026-04-11T10:27:55.424462+05:30
Gangtok,Sikkim,27.3314,88.6138,16.1,72,0.0,840.0,8.55,18.4,81,24.6,17.9,3,5,7,0,2026-04-11T10:27:55.424469+05:30
Siliguri,West Bengal,26.7271,88.3953,22.3,69,0.0,998.5,8.3,18.0,121,42.8,31.4,3,5,7,1,2026-04-11T10:27:58.690324+05:30
Durgapur,West Bengal,23.5204,87.3119,30.6,41,0.0,999.7,8.75,21.2,106,58.7,36.6,0,5,7,0,2026-04-11T10:27:58.690355+05:30
Asansol,West Bengal,23.6739,86.9524,30.6,36,0.0,998.3,8.8,22.7,88,108.7,35.2,0,5,7,0,2026-04-11T10:27:58.690365+05:30
Pondicherry,Puducherry,11.9139,79.8145,32.8,62,0.0,1011.7,9.35,36.7,56,20.9,14.5,3,0,4,1,2026-04-11T10:27:58.690373+05:30
Port Blair,Andaman and Nicobar Islands,11.6234,92.7265,29.0,73,0.0,1010.5,9.25,25.2,24,8.7,5.5,7,0,4,1,2026-04-11T10:27:58.690381+05:30
Haridwar,Uttarakhand,29.9457,78.1642,26.4,51,0.0,978.4,6.9,49.0,62,16.6,11.4,4,5,7,0,2026-04-11T10:27:58.690389+05:30
Rishikesh,Uttarakhand,30.0869,78.2676,27.1,46,0.0,970.8,6.95,48.6,50,28.8,8.3,4,5,7,0,2026-04-11T10:27:58.690397+05:30
Nainital,Uttarakhand,29.3919,79.4542,20.8,54,0.0,809.4,7.75,69.8,54,27.1,9.4,0,5,7,0,2026-04-11T10:27:58.690404+05:30
Mussoorie,Uttarakhand,30.4599,78.0664,19.3,45,0.0,806.2,6.85,65.2,53,21.1,7.7,0,5,7,0,2026-04-11T10:27:58.690411+05:30
Dharamshala,Himachal Pradesh,32.219,76.3234,19.7,60,0.0,871.9,7.6,30.2,95,27.0,6.4,0,5,7,0,2026-04-11T10:27:58.690418+05:30
Dalhousie,Himachal Pradesh,32.5387,75.971,16.6,60,0.0,805.9,7.7,20.9,48,34.5,11.5,0,5,7,0,2026-04-11T10:27:58.690426+05:30
Patiala,Punjab,30.3398,76.3869,28.1,34,0.0,983.3,6.95,34.6,778,400.5,50.5,4,5,7,0,2026-04-11T10:27:58.690433+05:30
Bhatinda,Punjab,30.211,74.9455,27.6,40,0.0,989.2,7.7,28.4,58,82.2,22.6,4,5,7,0,2026-04-11T10:27:58.690439+05:30
Rohtak,Haryana,28.8955,76.6066,25.4,50,0.0,987.6,7.2,26.6,1114,771.1,108.5,4,5,7,0,2026-04-11T10:27:58.690446+05:30
Panipat,Haryana,29.3909,76.9635,26.6,46,0.0,985.7,7.0,29.9,2085,1352.3,155.1,4,5,7,0,2026-04-11T10:27:58.690452+05:30
Mathura,Uttar Pradesh,27.4924,77.6737,29.2,40,0.0,992.8,7.5,27.7,1363,834.5,120.1,4,5,7,0,2026-04-11T10:27:58.690459+05:30
Vrindavan,Uttar Pradesh,27.5823,77.7027,28.9,41,0.0,993.1,7.45,32.0,1363,834.5,120.1,4,5,7,0,2026-04-11T10:27:58.690465+05:30
Ayodhya,Uttar Pradesh,26.7922,82.1998,30.5,31,0.0,999.0,7.85,46.4,125,184.4,59.6,0,5,7,0,2026-04-11T10:27:58.690471+05:30
Ratlam,Madhya Pradesh,23.3315,75.0367,29.9,35,0.0,959.9,8.35,17.3,55,44.4,15.2,4,5,7,0,2026-04-11T10:27:58.690478+05:30
Sagar,Madhya Pradesh,23.8388,78.7378,31.9,23,0.0,956.1,8.5,28.1,49,34.2,11.0,0,5,7,0,2026-04-11T10:27:58.690485+05:30
Satna,Madhya Pradesh,24.6005,80.8322,30.9,30,0.0,977.2,8.5,33.5,57,425.6,53.8,0,5,7,0,2026-04-11T10:27:58.690491+05:30
Akola,Maharashtra,20.7002,77.0082,33.6,28,0.0,980.3,8.75,25.6,79,18.4,12.2,0,5,7,0,2026-04-11T10:27:58.690499+05:30
Amravati,Maharashtra,20.9374,77.7796,33.8,23,0.0,972.7,8.75,23.4,70,15.8,10.1,0,5,7,0,2026-04-11T10:27:58.690506+05:30
Latur,Maharashtra,18.4088,76.5604,32.1,33,0.0,944.5,9.0,21.2,75,25.8,16.8,0,5,7,0,2026-04-11T10:27:58.690513+05:30
Nanded,Maharashtra,19.1383,77.3091,33.9,41,0.0,973.2,8.9,17.3,87,28.5,18.1,0,5,7,1,2026-04-11T10:27:58.690519+05:30
Gulbarga,Karnataka,17.3297,76.8343,35.4,34,0.0,962.8,9.1,19.4,63,36.6,30.5,0,5,10,1,2026-04-11T10:27:58.690525+05:30
Bidar,Karnataka,17.9104,77.5199,33.8,36,0.0,939.9,9.05,23.0,71,26.7,18.2,0,5,7,1,2026-04-11T10:27:58.690531+05:30
Hospet,Karnataka,15.2689,76.3909,30.8,56,0.0,959.6,9.3,26.3,84,45.4,30.5,0,5,7,1,2026-04-11T10:27:58.690538+05:30
Tirupur,Tamil Nadu,11.1085,77.3411,32.2,55,0.0,978.9,8.65,26.6,73,31.2,22.8,0,5,7,1,2026-04-11T10:27:58.690544+05:30
Alappuzha,Kerala,9.4981,76.3388,28.2,82,0.0,1012.1,8.0,29.2,69,20.5,15.8,7,0,4,1,2026-04-11T10:27:58.690550+05:30
Munnar,Kerala,10.0889,77.0595,26.6,62,0.0,861.5,9.0,36.7,83,28.2,19.0,7,5,7,1,2026-04-11T10:27:58.690557+05:30
Silchar,Assam,24.8333,92.7789,27.7,64,0.0,1009.9,8.6,22.3,135,65.7,39.9,7,0,4,1,2026-04-11T10:27:58.690564+05:30
Dibrugarh,Assam,27.4728,94.912,22.8,78,0.0,1000.5,8.4,24.5,89,36.0,25.6,3,5,4,1,2026-04-11T10:27:58.690570+05:30
