city,state,latitude,longitude,temp,humidity,rain,pressure,uv_index,wind_gusts,aqi,pm10,pm2_5,no2,co,o3,so2,mosquito_risk,arthritis_risk,migraine_risk,frizz_risk,updated_at
Delhi,Delhi,28.6139,77.209,37.7,30,0.0,976.2,7.8,44.6,157,300.8,78.5,4.6,367.0,240.0,24.3,0,5,10,1,2026-06-04T14:21:07.666357+05:30
Mumbai,Maharashtra,19.076,72.8777,33.5,58,0.1,1004.1,7.65,42.8,64,34.1,18.6,4.4,159.0,97.0,9.1,3,5,4,1,2026-06-04T14:21:07.666403+05:30
Bangalore,Karnataka,12.9716,77.5946,28.5,56,0.1,909.7,9.15,45.4,30,3.2,3.0,2.0,204.0,89.0,2.3,7,5,7,1,2026-06-04T14:21:07.666419+05:30
Hyderabad,Telangana,17.385,78.4867,35.7,35,0.0,949.4,9.1,37.1,67,29.0,16.9,1.2,229.0,131.0,3.0,0,5,10,1,2026-06-04T14:21:07.666429+05:30
Chennai,Tamil Nadu,13.0827,80.2707,38.0,34,0.1,1001.7,8.7,41.8,65,25.3,19.3,3.0,237.0,145.0,6.1,3,5,7,1,2026-06-04T14:21:07.666437+05:30
Kolkata,West Bengal,22.5726,88.3639,30.7,79,0.4,998.7,8.95,38.2,143,48.5,41.4,3.0,367.0,166.0,10.8,6,5,7,1,2026-06-04T14:21:07.666445+05:30
Pune,Maharashtra,18.5204,73.8567,36.8,32,0.0,944.4,8.35,48.2,59,39.5,17.8,1.5,144.0,116.0,3.9,0,5,10,1,2026-06-04T14:21:07.666452+05:30
Ahmedabad,Gujarat,23.0225,72.5714,39.6,33,0.0,995.6,8.05,40.7,86,52.6,26.5,1.5,148.0,102.0,4.9,0,5,10,1,2026-06-04T14:21:07.666458+05:30
Jaipur,Rajasthan,26.9124,75.7873,29.5,65,0.3,954.9,8.25,54.4,123,129.9,35.5,0.8,149.0,108.0,3.8,10,5,7,1,2026-06-04T14:21:07.666469+05:30
Lucknow,Uttar Pradesh,26.8467,80.9462,38.3,31,0.0,986.4,8.0,25.2,155,86.8,37.1,0.7,232.0,172.0,7.2,0,5,10,1,2026-06-04T14:21:07.666476+05:30
Kanpur,Uttar Pradesh,26.4499,80.3319,39.0,28,0.0,984.5,8.3,30.6,151,98.0,34.3,0.8,202.0,166.0,8.4,0,5,10,1,2026-06-04T14:21:07.666482+05:30
Chandigarh,Chandigarh,30.7333,76.7794,35.2,37,0.0,962.9,7.8,51.5,117,90.1,39.8,1.8,373.0,196.0,11.8,0,5,10,1,2026-06-04T14:21:07.666489+05:30
Srinagar,Jammu and Kashmir,34.0837,74.7973,24.1,49,0.1,840.1,9.05,34.9,83,24.4,12.1,1.0,280.0,149.0,2.2,3,5,7,0,2026-06-04T14:21:07.666495+05:30
Jammu,Jammu and Kashmir,32.7266,74.857,31.9,45,0.0,967.5,8.3,55.1,88,33.5,17.9,1.7,366.0,164.0,2.9,0,5,7,1,2026-06-04T14:21:07.666501+05:30
Amritsar,Punjab,31.634,74.8723,30.4,62,0.0,975.0,8.4,55.1,151,62.9,34.6,2.6,353.0,161.0,6.3,3,5,7,1,2026-06-04T14:21:07.666507+05:30
Ludhiana,Punjab,30.901,75.8573,31.4,48,0.1,973.2,8.05,62.3,153,73.8,42.8,2.3,346.0,194.0,11.4,3,5,7,1,2026-06-04T14:21:07.666517+05:30
Jalandhar,Punjab,31.326,75.5762,32.3,47,0.0,974.2,8.25,67.7,154,74.0,37.8,1.7,337.0,179.0,5.9,0,5,7,1,2026-06-04T14:21:07.666525+05:30
Dehradun,Uttarakhand,30.6284,78.0322,25.7,44,0.0,829.6,7.7,26.3,82,78.2,27.5,0.7,260.0,158.0,5.7,4,5,7,0,2026-06-04T14:21:07.666532+05:30
Shimla,Himachal Pradesh,31.1048,77.1734,17.7,73,0.0,782.6,6.65,39.2,90,53.8,35.2,1.6,250.0,175.0,7.1,3,5,7,0,2026-06-04T14:21:07.666540+05:30
Manali,Himachal Pradesh,32.2396,77.1887,21.8,57,0.1,817.6,9.35,34.2,76,7.9,6.8,1.8,156.0,154.0,0.3,3,5,7,0,2026-06-04T14:21:07.666546+05:30
Gurgaon,Haryana,28.4595,77.0266,37.7,28,0.0,974.7,7.9,41.0,161,441.4,85.0,3.0,298.0,202.0,14.8,0,5,10,1,2026-06-04T14:21:07.666552+05:30
Noida,Uttar Pradesh,28.5355,77.391,36.0,35,0.1,977.7,7.85,37.4,161,441.4,85.0,3.0,366.0,202.0,14.8,3,5,10,1,2026-06-04T14:21:07.666558+05:30
Ghaziabad,Uttar Pradesh,28.6692,77.4538,35.7,38,0.1,976.0,7.8,37.4,156,265.4,72.9,3.2,373.0,243.0,25.7,3,5,10,1,2026-06-04T14:21:07.666564+05:30
Faridabad,Haryana,28.4089,77.3178,36.7,32,0.0,977.0,7.85,45.0,161,441.4,85.0,3.0,318.0,202.0,14.8,0,5,10,1,2026-06-04T14:21:07.666570+05:30
Meerut,Uttar Pradesh,28.9845,77.7064,36.0,39,0.0,975.1,7.7,37.4,156,265.4,72.9,3.2,352.0,243.0,25.7,0,5,10,1,2026-06-04T14:21:07.666577+05:30
Agra,Uttar Pradesh,27.1767,78.0081,39.5,26,0.0,980.4,8.15,32.0,196,364.1,62.6,1.1,294.0,177.0,7.0,0,5,10,1,2026-06-04T14:21:07.666583+05:30
Varanasi,Uttar Pradesh,25.3176,82.9739,39.3,29,0.0,989.9,8.45,36.0,142,71.7,37.4,1.8,199.0,167.0,12.5,0,5,10,1,2026-06-04T14:21:07.666589+05:30
Prayagraj,Uttar Pradesh,25.4358,81.8463,39.2,29,0.0,988.5,8.45,26.6,142,73.6,31.0,0.9,204.0,153.0,5.2,0,5,10,1,2026-06-04T14:21:07.666596+05:30
Gorakhpur,Uttar Pradesh,26.7606,83.3732,37.8,32,0.0,989.4,8.35,26.6,152,70.3,39.2,1.1,260.0,170.0,6.9,0,5,10,1,2026-06-04T14:21:07.666604+05:30
Bareilly,Uttar Pradesh,28.367,79.4304,35.2,43,0.0,980.0,8.15,47.2,151,86.6,41.6,1.0,272.0,177.0,8.6,0,5,10,1,2026-06-04T14:21:07.666610+05:30
Aligarh,Uttar Pradesh,27.8974,78.088,36.7,36,0.0,978.8,8.0,33.5,151,212.3,54.6,1.5,282.0,191.0,11.9,0,5,10,1,2026-06-04T14:21:07.666615+05:30
Moradabad,Uttar Pradesh,28.8386,78.7733,35.2,41,0.0,977.1,7.95,50.8,152,78.5,39.1,1.6,294.0,200.0,14.7,0,5,10,1,2026-06-04T14:21:07.666621+05:30
Saharanpur,Uttar Pradesh,29.9637,77.546,34.5,44,0.0,969.5,7.5,39.6,125,190.0,56.3,1.7,303.0,209.0,18.3,0,5,7,1,2026-06-04T14:21:07.666627+05:30
Jhansi,Uttar Pradesh,25.4484,78.5685,38.5,27,0.0,971.3,8.5,49.3,84,89.2,29.5,0.8,218.0,139.0,5.8,0,5,10,1,2026-06-04T14:21:10.928157+05:30
Surat,Gujarat,21.1702,72.8311,34.3,57,0.1,1001.9,7.6,50.0,81,55.8,25.6,8.4,229.0,64.0,30.1,3,5,4,1,2026-06-04T14:21:10.928192+05:30
Vadodara,Gujarat,22.3072,73.1812,38.8,35,0.0,998.3,8.0,45.7,85,62.2,30.7,1.6,138.0,112.0,6.4,0,5,10,1,2026-06-04T14:21:10.928202+05:30
Rajkot,Gujarat,22.3039,70.8022,39.7,33,0.0,988.1,7.55,49.7,73,41.2,19.4,0.7,116.0,85.0,1.9,0,5,10,1,2026-06-04T14:21:10.928211+05:30
Thane,Maharashtra,19.2183,72.9781,35.2,48,0.1,1003.1,7.7,37.4,64,34.1,18.6,4.4,161.0,97.0,9.1,3,5,7,1,2026-06-04T14:21:10.928218+05:30
Nagpur,Maharashtra,21.1458,79.0882,40.8,23,0.0,966.7,8.6,38.2,70,54.1,28.8,3.8,175.0,160.0,20.8,0,5,10,0,2026-06-04T14:21:10.928243+05:30
Nashik,Maharashtra,19.9975,73.7898,35.5,37,0.0,941.9,8.1,43.9,68,50.3,24.1,1.5,145.0,124.0,8.0,0,5,10,1,2026-06-04T14:21:10.928252+05:30
Aurangabad,Maharashtra,19.8762,75.3433,38.0,27,0.0,940.2,9.0,45.0,72,61.7,25.8,0.9,146.0,128.0,5.4,0,5,10,0,2026-06-04T14:21:10.928260+05:30
Solapur,Maharashtra,17.6599,75.9064,35.9,36,0.0,953.4,9.0,51.8,61,36.4,17.8,1.1,129.0,119.0,2.3,0,5,10,1,2026-06-04T14:21:10.928267+05:30
Kolhapur,Maharashtra,16.705,74.2433,27.9,69,0.0,944.1,8.8,47.5,53,23.1,11.1,1.1,130.0,93.0,1.6,7,5,7,1,2026-06-04T14:21:10.928274+05:30
Goa,Goa,15.2993,74.124,27.6,84,0.1,995.6,8.25,36.7,38,9.8,4.8,0.5,110.0,60.0,0.6,10,5,7,1,2026-06-04T14:21:10.928281+05:30
Jodhpur,Rajasthan,26.2389,73.0243,39.8,27,0.0,974.9,8.45,55.1,119,219.3,43.7,0.5,126.0,96.0,2.0,0,5,10,1,2026-06-04T14:21:10.928288+05:30
Udaipur,Rajasthan,24.5854,73.7125,35.5,38,0.0,941.7,8.8,53.3,84,50.5,23.4,0.5,123.0,99.0,3.6,0,5,10,1,2026-06-04T14:21:10.928296+05:30
Kota,Rajasthan,25.2138,75.8648,40.2,29,0.0,971.9,8.4,48.2,90,61.0,24.2,0.7,149.0,112.0,4.7,0,5,10,1,2026-06-04T14:21:10.928302+05:30
Bikaner,Rajasthan,28.0229,73.3119,39.1,26,0.0,974.0,8.45,63.7,126,92.4,35.9,0.4,131.0,99.0,2.6,0,5,10,1,2026-06-04T14:21:10.928309+05:30
Ajmer,Rajasthan,26.4499,74.6399,29.2,59,0.0,949.9,8.35,61.6,88,99.9,30.6,0.5,129.0,96.0,3.3,4,5,7,1,2026-06-04T14:21:10.928315+05:30
Gwalior,Madhya Pradesh,26.2183,78.1828,39.1,26,0.0,976.3,8.3,55.8,102,126.7,36.2,0.4,250.0,155.0,5.2,0,5,10,1,2026-06-04T14:21:10.928322+05:30
Indore,Madhya Pradesh,22.7196,75.8577,37.8,33,0.0,943.6,8.65,58.3,87,58.7,27.8,0.9,251.0,112.0,5.3,0,5,10,1,2026-06-04T14:21:10.928328+05:30
Bhopal,Madhya Pradesh,23.2599,77.4126,38.2,24,0.0,948.4,8.7,56.2,84,69.4,28.5,0.6,181.0,114.0,5.5,0,5,10,0,2026-06-04T14:21:10.928335+05:30
Jabalpur,Madhya Pradesh,23.1815,79.9864,37.5,30,0.0,955.7,8.65,28.1,74,77.8,29.0,0.6,189.0,128.0,4.1,0,5,10,1,2026-06-04T14:21:10.928341+05:30
Ujjain,Madhya Pradesh,23.1765,75.7885,37.4,34,0.0,949.0,8.6,68.4,85,55.2,27.0,0.6,187.0,108.0,5.5,0,5,10,1,2026-06-04T14:21:10.928348+05:30
Visakhapatnam,Andhra Pradesh,17.6868,83.2185,38.0,40,0.0,996.7,9.05,45.7,94,37.1,31.8,5.2,367.0,182.0,27.6,0,5,10,1,2026-06-04T14:21:10.928354+05:30
Vijayawada,Andhra Pradesh,16.5062,80.648,38.7,36,0.0,996.6,9.05,46.1,84,31.5,22.4,1.1,186.0,150.0,7.6,0,5,10,1,2026-06-04T14:21:10.928361+05:30
Guntur,Andhra Pradesh,16.3067,80.4365,38.5,37,0.0,997.7,9.05,39.2,80,30.7,21.0,0.9,188.0,145.0,6.2,0,5,10,1,2026-06-04T14:21:10.928367+05:30
Nellore,Andhra Pradesh,14.4426,79.9865,37.2,40,0.0,1000.3,8.95,40.0,57,17.2,15.0,2.9,149.0,138.0,5.2,0,5,7,1,2026-06-04T14:21:10.928375+05:30
Kurnool,Andhra Pradesh,15.8281,78.0373,36.0,39,0.0,972.7,8.9,45.7,55,25.7,15.3,1.0,143.0,126.0,5.5,0,5,10,1,2026-06-04T14:21:10.928383+05:30
Kakinada,Andhra Pradesh,16.9891,82.2475,35.8,50,0.0,1000.8,9.05,52.2,109,26.9,22.2,2.2,241.0,166.0,4.5,0,5,7,1,2026-06-04T14:21:10.928390+05:30
Tirupati,Andhra Pradesh,13.6288,79.4192,37.2,35,0.0,985.9,8.45,31.7,52,7.3,4.9,0.8,128.0,94.0,0.9,0,5,10,1,2026-06-04T14:21:10.928396+05:30
Warangal,Telangana,17.9689,79.5941,36.5,39,0.0,973.5,9.0,36.4,74,40.4,23.1,1.0,172.0,134.0,3.8,0,5,10,1,2026-06-04T14:21:10.928403+05:30
Nizamabad,Telangana,18.6725,78.0941,36.0,38,0.0,960.4,8.25,38.9,72,46.3,26.4,1.1,155.0,134.0,7.1,0,5,10,1,2026-06-04T14:21:10.928409+05:30
Mysore,Karnataka,12.2958,76.6396,30.9,46,0.0,926.2,8.1,54.7,27,4.6,2.8,1.3,121.0,78.0,1.0,0,5,7,1,2026-06-04T14:21:10.928415+05:30
Mangalore,Karnataka,12.9141,74.856,27.1,86,0.0,1005.4,8.65,37.1,31,12.1,5.7,1.2,108.0,61.0,1.1,7,5,4,1,2026-06-04T14:21:10.928421+05:30
Hubli-Dharwad,Karnataka,15.3647,75.124,28.1,65,0.1,938.5,8.85,45.4,25,8.6,3.8,1.2,112.0,68.0,0.6,10,5,7,1,2026-06-04T14:21:10.928429+05:30
Belgaum,Karnataka,15.8497,74.4977,25.6,79,0.1,923.1,8.95,38.2,38,12.2,5.7,1.1,113.0,72.0,1.3,10,5,7,1,2026-06-04T14:21:14.171065+05:30
Coimbatore,Tamil Nadu,11.0168,76.9558,30.5,58,0.0,959.2,8.35,63.0,25,2.9,2.3,2.0,142.0,68.0,1.3,0,5,7,1,2026-06-04T14:21:14.171101+05:30
Madurai,Tamil Nadu,9.9252,78.1198,35.0,43,0.1,989.2,8.0,52.2,43,5.0,4.0,1.4,114.0,91.0,1.7,3,5,7,1,2026-06-04T14:21:14.171112+05:30
Trichy,Tamil Nadu,10.7905,78.7047,36.7,40,0.0,995.3,8.15,49.7,40,4.7,3.8,1.0,114.0,94.0,1.7,0,5,10,1,2026-06-04T14:21:14.171121+05:30
Salem,Tamil Nadu,11.6643,78.146,35.2,43,0.0,973.8,8.2,33.1,42,7.4,6.5,1.9,158.0,115.0,5.5,0,5,10,1,2026-06-04T14:21:14.171129+05:30
Tirunelveli,Tamil Nadu,8.7139,77.7567,36.1,41,0.0,1000.3,8.15,42.5,19,3.2,2.5,1.3,107.0,53.0,0.7,0,5,7,1,2026-06-04T14:21:14.171136+05:30
Vellore,Tamil Nadu,12.9165,79.1325,37.2,35,0.0,979.7,8.3,47.2,52,10.6,6.2,1.0,152.0,100.0,1.9,0,5,10,1,2026-06-04T14:21:14.171143+05:30
Erode,Tamil Nadu,11.341,77.7172,36.5,40,0.0,984.9,8.8,49.3,30,3.6,2.9,1.8,139.0,88.0,1.5,0,5,10,1,2026-06-04T14:21:14.171150+05:30
Kochi,Kerala,9.9312,76.2673,26.8,86,0.0,1008.4,7.65,39.6,43,10.7,6.7,3.3,110.0,62.0,2.4,7,0,4,1,2026-06-04T14:21:14.171158+05:30
Thiruvananthapuram,Kerala,8.5241,76.9366,26.0,91,0.1,1007.8,7.35,46.8,27,9.9,5.4,1.1,97.0,55.0,0.4,10,5,4,1,2026-06-04T14:21:14.171165+05:30
Kozhikode,Kerala,11.2588,75.7804,27.8,82,0.1,1007.0,8.5,39.6,29,12.8,5.5,0.6,122.0,62.0,0.4,10,5,4,1,2026-06-04T14:21:14.171172+05:30
Thrissur,Kerala,10.5276,76.2144,27.2,87,0.1,1006.5,8.55,35.6,43,8.1,5.0,2.9,104.0,55.0,1.4,10,5,4,1,2026-06-04T14:21:14.171180+05:30
Kannur,Kerala,11.8745,75.3704,28.4,78,0.0,1005.9,8.65,34.9,27,12.4,6.2,1.3,108.0,59.0,0.7,7,5,4,1,2026-06-04T14:21:14.171187+05:30
Patna,Bihar,25.5941,85.1376,37.0,40,0.0,992.6,8.9,19.8,164,78.0,51.9,0.6,283.0,193.0,7.7,0,5,10,1,2026-06-04T14:21:14.171194+05:30
Gaya,Bihar,24.7914,85.0002,37.9,34,0.0,986.2,8.8,28.4,151,73.3,47.7,0.7,232.0,167.0,8.8,0,5,10,1,2026-06-04T14:21:14.171201+05:30
Muzaffarpur,Bihar,26.1209,85.3647,36.2,43,0.0,992.6,8.85,22.0,168,86.8,60.1,1.0,278.0,215.0,11.2,0,5,10,1,2026-06-04T14:21:14.171207+05:30
Bhagalpur,Bihar,25.2425,87.0117,38.3,33,0.0,992.6,8.75,41.0,156,81.0,60.1,2.5,264.0,213.0,18.8,0,5,10,1,2026-06-04T14:21:14.171213+05:30
Ranchi,Jharkhand,23.3441,85.3096,33.9,41,0.0,932.4,9.05,29.2,123,56.6,38.9,0.8,181.0,172.0,12.7,0,5,7,1,2026-06-04T14:21:14.171220+05:30
Jamshedpur,Jharkhand,22.8046,86.2029,38.0,34,0.0,983.0,8.9,29.2,157,83.6,61.7,1.9,239.0,228.0,25.3,0,5,10,1,2026-06-04T14:21:14.171240+05:30
Dhanbad,Jharkhand,23.7957,86.4304,37.5,31,0.0,972.8,8.9,37.4,162,78.0,60.3,6.3,192.0,235.0,46.4,0,5,10,1,2026-06-04T14:21:14.171247+05:30
Bokaro,Jharkhand,23.6693,86.1511,34.3,47,0.1,976.8,8.9,33.5,155,71.9,53.1,7.2,186.0,215.0,43.0,3,5,7,1,2026-06-04T14:21:14.171253+05:30
Bhubaneswar,Odisha,20.2961,85.8245,34.0,60,0.2,995.4,8.4,38.2,103,43.9,34.1,1.7,248.0,173.0,10.6,3,5,7,1,2026-06-04T14:21:14.171261+05:30
Cuttack,Odisha,20.4625,85.8828,35.2,58,0.1,997.0,9.1,38.5,103,43.9,34.1,1.7,258.0,173.0,10.6,3,5,10,1,2026-06-04T14:21:14.171267+05:30
Rourkela,Odisha,22.2604,84.8536,39.0,30,0.0,977.7,9.05,35.3,156,45.8,32.1,1.1,238.0,189.0,12.0,0,5,10,1,2026-06-04T14:21:14.171274+05:30
Raipur,Chhattisgarh,21.2514,81.6296,40.4,26,0.0,967.8,8.55,37.8,110,42.6,31.8,4.5,257.0,163.0,27.0,0,5,10,1,2026-06-04T14:21:14.171281+05:30
Bhilai,Chhattisgarh,21.1938,81.3509,39.0,28,0.0,968.3,8.4,38.2,103,39.0,26.7,4.5,378.0,149.0,21.8,0,5,10,1,2026-06-04T14:21:14.171288+05:30
Guwahati,Assam,26.1158,91.7086,31.7,70,0.0,993.4,8.85,33.1,120,43.9,37.4,1.1,344.0,151.0,4.9,3,5,7,1,2026-06-04T14:21:14.171295+05:30
Agartala,Tripura,23.8315,91.2868,34.2,60,0.1,998.5,8.85,29.5,97,39.1,31.9,3.7,250.0,160.0,3.6,3,5,7,1,2026-06-04T14:21:14.171302+05:30
Shillong,Meghalaya,25.5788,91.8933,25.1,65,0.1,854.1,7.15,28.8,91,27.8,23.9,1.1,293.0,143.0,3.9,10,5,7,1,2026-06-04T14:21:14.171308+05:30
Imphal,Manipur,24.817,93.9368,29.9,58,0.0,917.9,9.25,32.4,97,24.4,19.0,0.7,238.0,117.0,2.1,4,5,7,1,2026-06-04T14:21:14.171315+05:30
Aizawl,Mizoram,23.7271,92.7176,28.0,58,0.0,888.6,9.1,26.3,80,35.3,24.0,0.3,217.0,109.0,2.3,4,5,7,1,2026-06-04T14:21:14.171321+05:30
Kohima,Nagaland,25.6701,94.1077,22.6,90,0.0,851.5,8.65,30.6,82,39.3,29.9,0.5,270.0,126.0,2.4,3,5,7,1,2026-06-04T14:21:14.171328+05:30
Gangtok,Sikkim,27.3314,88.6138,22.9,69,0.1,834.2,9.25,38.9,99,32.8,25.8,1.5,273.0,145.0,2.7,6,5,7,1,2026-06-04T14:21:14.171335+05:30
Siliguri,West Bengal,26.7271,88.3953,30.8,74,0.0,985.1,8.8,28.4,156,64.0,53.4,2.6,367.0,168.0,8.6,3,5,7,1,2026-06-04T14:21:17.394305+05:30
Durgapur,West Bengal,23.5204,87.3119,36.8,49,0.0,986.9,9.0,31.0,172,92.4,79.4,8.2,424.0,283.0,61.3,0,5,10,1,2026-06-04T14:21:17.394341+05:30
Asansol,West Bengal,23.6739,86.9524,36.8,45,0.0,985.7,8.85,31.7,163,80.8,65.4,6.1,377.0,255.0,48.2,0,5,10,1,2026-06-04T14:21:17.394353+05:30
Pondicherry,Puducherry,11.9139,79.8145,33.9,63,0.1,1003.5,7.95,52.2,61,27.0,21.5,4.0,174.0,149.0,11.8,6,5,4,1,2026-06-04T14:21:17.394362+05:30
Port Blair,Andaman and Nicobar Islands,11.6234,92.7265,25.4,93,0.1,1003.8,1.45,45.4,31,8.0,5.0,0.4,109.0,61.0,0.6,10,5,0,1,2026-06-04T14:21:17.394371+05:30
Haridwar,Uttarakhand,29.9457,78.1642,34.5,47,0.0,967.9,7.65,40.0,101,124.8,40.3,1.0,273.0,184.0,12.4,0,5,7,1,2026-06-04T14:21:17.394378+05:30
Rishikesh,Uttarakhand,30.0869,78.2676,34.4,38,0.0,960.9,7.75,35.6,106,99.0,32.5,0.6,263.0,173.0,9.2,0,5,7,1,2026-06-04T14:21:17.394386+05:30
Nainital,Uttarakhand,29.3919,79.4542,22.0,60,0.1,804.6,7.2,28.4,85,41.4,24.2,1.2,230.0,162.0,5.0,3,5,7,0,2026-06-04T14:21:17.394393+05:30
Mussoorie,Uttarakhand,30.4599,78.0664,23.4,54,0.0,802.7,7.6,31.7,93,112.0,35.0,0.9,264.0,166.0,8.3,0,5,7,0,2026-06-04T14:21:17.394401+05:30
Dharamshala,Himachal Pradesh,32.219,76.3234,24.6,56,0.1,866.8,8.45,47.5,83,35.6,20.4,0.8,252.0,148.0,1.9,3,5,7,0,2026-06-04T14:21:17.394408+05:30
Dalhousie,Himachal Pradesh,32.5387,75.971,16.9,92,0.2,802.5,6.7,34.9,82,47.3,24.2,1.6,295.0,166.0,3.1,6,10,7,0,2026-06-04T14:21:17.394416+05:30
Patiala,Punjab,30.3398,76.3869,33.8,41,0.1,972.0,7.7,36.4,156,201.2,57.7,1.4,300.0,202.0,12.1,3,5,7,1,2026-06-04T14:21:17.394423+05:30
Bhatinda,Punjab,30.211,74.9455,33.6,42,0.0,977.3,8.3,55.8,138,141.1,54.7,3.6,241.0,197.0,18.3,0,5,7,1,2026-06-04T14:21:17.394430+05:30
Rohtak,Haryana,28.8955,76.6066,37.8,31,0.0,974.9,7.8,37.4,157,355.8,68.7,1.0,267.0,176.0,6.4,0,5,10,1,2026-06-04T14:21:17.394436+05:30
Panipat,Haryana,29.3909,76.9635,36.2,37,0.1,973.6,7.65,40.0,188,514.1,90.6,2.0,299.0,210.0,18.5,3,5,10,1,2026-06-04T14:21:17.394443+05:30
Mathura,Uttar Pradesh,27.4924,77.6737,36.2,41,0.1,979.8,8.1,34.6,154,285.9,59.0,1.1,317.0,181.0,7.6,3,5,10,1,2026-06-04T14:21:17.394449+05:30
Vrindavan,Uttar Pradesh,27.5823,77.7027,35.1,42,0.1,980.5,8.05,36.7,154,285.9,59.0,1.1,310.0,181.0,7.6,3,5,10,1,2026-06-04T14:21:17.394456+05:30
Ayodhya,Uttar Pradesh,26.7922,82.1998,36.8,36,0.0,988.1,8.05,21.6,154,90.6,37.1,0.3,243.0,156.0,6.8,0,5,10,1,2026-06-04T14:21:17.394463+05:30
Ratlam,Madhya Pradesh,23.3315,75.0367,36.2,43,0.0,950.3,8.5,47.9,84,52.3,26.9,0.5,135.0,106.0,5.3,0,5,10,1,2026-06-04T14:21:17.394471+05:30
Sagar,Madhya Pradesh,23.8388,78.7378,37.2,27,0.0,945.0,8.75,32.4,79,67.3,26.0,0.5,188.0,123.0,4.7,0,5,10,0,2026-06-04T14:21:17.394478+05:30
Satna,Madhya Pradesh,24.6005,80.8322,37.0,30,0.0,965.2,8.35,24.8,82,71.5,26.4,0.4,186.0,131.0,3.5,0,5,10,1,2026-06-04T14:21:17.394485+05:30
Akola,Maharashtra,20.7002,77.0082,39.3,31,0.0,969.3,8.85,38.9,70,51.8,26.5,1.1,161.0,132.0,7.4,0,5,10,1,2026-06-04T14:21:17.394493+05:30
Amravati,Maharashtra,20.9374,77.7796,39.4,26,0.0,961.9,8.85,48.2,72,49.9,26.7,1.3,173.0,136.0,8.7,0,5,10,1,2026-06-04T14:21:17.394501+05:30
Latur,Maharashtra,18.4088,76.5604,34.7,38,0.0,936.4,8.9,42.1,62,50.3,22.7,1.1,139.0,107.0,3.2,0,5,7,1,2026-06-04T14:21:17.394508+05:30
Nanded,Maharashtra,19.1383,77.3091,37.5,35,0.0,963.7,8.35,36.7,76,47.3,25.0,1.2,154.0,130.0,6.4,0,5,10,1,2026-06-04T14:21:17.394514+05:30
Gulbarga,Karnataka,17.3297,76.8343,35.7,35,0.0,954.9,9.0,37.1,63,31.8,16.4,1.1,142.0,118.0,2.3,0,5,10,1,2026-06-04T14:21:17.394522+05:30
Bidar,Karnataka,17.9104,77.5199,34.7,39,0.0,932.1,8.65,36.0,68,41.3,21.5,1.4,151.0,118.0,4.2,0,5,7,1,2026-06-04T14:21:17.394528+05:30
Hospet,Karnataka,15.2689,76.3909,32.6,47,0.0,952.7,9.0,50.0,31,15.5,7.7,1.0,125.0,86.0,1.6,0,5,7,1,2026-06-04T14:21:17.394535+05:30
Tirupur,Tamil Nadu,11.1085,77.3411,32.5,52,0.1,971.8,8.2,61.9,32,3.7,3.2,2.0,133.0,86.0,1.9,3,5,7,1,2026-06-04T14:21:17.394542+05:30
Alappuzha,Kerala,9.4981,76.3388,26.9,90,0.2,1008.5,5.7,40.3,32,10.1,5.6,2.8,93.0,55.0,1.3,10,0,0,1,2026-06-04T14:21:17.394549+05:30
Munnar,Kerala,10.0889,77.0595,19.5,96,0.2,856.3,7.35,41.0,21,2.7,2.0,1.3,108.0,60.0,0.8,6,10,7,1,2026-06-04T14:21:17.394556+05:30
Silchar,Assam,24.8333,92.7789,32.8,63,0.0,997.7,8.95,32.4,117,30.7,22.2,1.1,248.0,123.0,3.9,3,5,7,1,2026-06-04T14:21:17.394562+05:30
Dibrugarh,Assam,27.4728,94.912,30.1,72,0.0,989.0,7.35,33.5,91,32.5,26.9,0.8,290.0,149.0,3.0,3,5,7,1,2026-06-04T14:21:17.394569+05:30
