city,state,latitude,longitude,temp,humidity,rain,pressure,uv_index,wind_gusts,aqi,pm10,pm2_5,no2,co,o3,so2,mosquito_risk,arthritis_risk,migraine_risk,frizz_risk,updated_at
Delhi,Delhi,28.6139,77.209,29.2,48,0.0,979.2,7.55,29.9,296,321.3,66.6,20.7,575.0,106.0,20.7,4,5,7,1,2026-05-01T23:31:00.092792+05:30
Mumbai,Maharashtra,19.076,72.8777,29.0,76,0.0,1008.7,7.9,46.4,66,54.4,17.7,8.6,218.0,65.0,17.8,7,0,4,1,2026-05-01T23:31:00.092838+05:30
Bangalore,Karnataka,12.9716,77.5946,23.0,77,0.0,912.2,9.55,35.6,103,41.0,35.5,35.8,563.0,77.0,13.7,3,5,7,1,2026-05-01T23:31:00.092855+05:30
Hyderabad,Telangana,17.385,78.4867,30.6,32,0.0,951.5,9.25,36.7,73,77.3,50.4,58.1,1103.0,33.0,20.6,0,5,7,0,2026-05-01T23:31:00.092867+05:30
Chennai,Tamil Nadu,13.0827,80.2707,30.5,77,0.0,1006.1,9.25,49.0,111,15.0,10.4,5.2,206.0,73.0,3.1,3,5,4,1,2026-05-01T23:31:00.092880+05:30
Kolkata,West Bengal,22.5726,88.3639,26.0,88,0.0,1003.9,7.9,25.2,80,58.2,53.0,26.4,830.0,48.0,12.6,7,5,4,1,2026-05-01T23:31:00.092890+05:30
Pune,Maharashtra,18.5204,73.8567,24.2,81,0.0,948.4,8.5,49.3,55,32.2,13.5,9.8,238.0,55.0,8.8,3,5,7,1,2026-05-01T23:31:00.092898+05:30
Ahmedabad,Gujarat,23.0225,72.5714,30.1,76,0.0,998.6,8.1,42.5,54,31.5,14.1,5.4,259.0,74.0,6.3,3,5,7,1,2026-05-01T23:31:00.092907+05:30
Jaipur,Rajasthan,26.9124,75.7873,29.6,31,0.0,956.3,8.1,42.5,160,133.2,37.3,19.3,345.0,63.0,5.5,4,5,7,0,2026-05-01T23:31:00.092915+05:30
Lucknow,Uttar Pradesh,26.8467,80.9462,26.6,59,0.0,991.0,8.0,29.5,97,57.5,33.5,10.7,377.0,100.0,11.0,4,5,7,1,2026-05-01T23:31:00.092923+05:30
Kanpur,Uttar Pradesh,26.4499,80.3319,28.1,56,0.0,988.7,8.05,31.0,125,284.1,55.3,9.0,343.0,110.0,11.5,4,5,7,1,2026-05-01T23:31:00.092931+05:30
Chandigarh,Chandigarh,30.7333,76.7794,23.9,58,0.0,964.2,7.55,37.4,123,58.4,41.3,31.5,720.0,59.0,16.1,0,5,7,0,2026-05-01T23:31:00.092939+05:30
Srinagar,Jammu and Kashmir,34.0837,74.7973,10.9,95,0.0,837.1,8.75,25.9,82,56.6,51.9,42.6,1079.0,16.0,3.9,3,10,7,0,2026-05-01T23:31:00.092948+05:30
Jammu,Jammu and Kashmir,32.7266,74.857,22.0,68,0.0,967.7,8.35,32.0,67,22.8,20.1,23.5,465.0,61.0,3.9,3,5,7,0,2026-05-01T23:31:00.092956+05:30
Amritsar,Punjab,31.634,74.8723,26.9,47,0.0,975.9,8.25,31.7,125,50.2,37.6,17.9,534.0,86.0,9.2,4,5,7,0,2026-05-01T23:31:00.092968+05:30
Ludhiana,Punjab,30.901,75.8573,27.5,47,0.0,974.1,7.85,33.5,155,117.3,59.8,21.5,682.0,73.0,18.8,4,5,7,0,2026-05-01T23:31:00.092976+05:30
Jalandhar,Punjab,31.326,75.5762,25.2,54,0.0,975.0,8.0,33.8,153,127.6,65.0,27.6,839.0,72.0,13.2,4,5,7,0,2026-05-01T23:31:00.092983+05:30
Dehradun,Uttarakhand,30.6284,78.0322,11.7,94,0.0,825.3,7.95,34.2,72,52.7,36.2,33.3,274.0,55.0,1.7,3,10,7,0,2026-05-01T23:31:00.092991+05:30
Shimla,Himachal Pradesh,31.1048,77.1734,10.7,75,0.0,779.5,8.1,47.2,116,49.4,30.5,23.3,344.0,92.0,8.0,3,5,7,0,2026-05-01T23:31:00.092997+05:30
Manali,Himachal Pradesh,32.2396,77.1887,9.5,76,0.0,811.9,10.1,42.5,86,13.0,11.6,46.7,329.0,81.0,0.8,3,5,7,0,2026-05-01T23:31:00.093004+05:30
Gurgaon,Haryana,28.4595,77.0266,28.2,51,0.0,977.5,7.7,31.7,1379,1605.6,197.0,17.4,723.0,110.0,18.0,4,5,7,1,2026-05-01T23:31:00.093011+05:30
Noida,Uttar Pradesh,28.5355,77.391,26.4,60,0.0,980.7,7.6,29.2,1379,1605.6,197.0,17.4,550.0,110.0,18.0,4,5,7,1,2026-05-01T23:31:00.093018+05:30
Ghaziabad,Uttar Pradesh,28.6692,77.4538,26.9,56,0.0,978.9,7.55,32.8,179,207.2,49.4,7.2,395.0,119.0,12.8,4,5,7,1,2026-05-01T23:31:00.093024+05:30
Faridabad,Haryana,28.4089,77.3178,27.5,55,0.0,980.0,7.65,29.5,1379,1605.6,197.0,17.4,587.0,110.0,18.0,4,5,7,1,2026-05-01T23:31:00.093031+05:30
Meerut,Uttar Pradesh,28.9845,77.7064,26.5,56,0.0,977.9,7.5,34.9,179,207.2,49.4,7.2,406.0,119.0,12.8,4,5,7,1,2026-05-01T23:31:00.093041+05:30
Agra,Uttar Pradesh,27.1767,78.0081,29.2,45,0.0,983.7,7.9,27.7,636,1449.1,170.9,9.0,414.0,105.0,11.3,4,5,7,1,2026-05-01T23:31:00.093048+05:30
Varanasi,Uttar Pradesh,25.3176,82.9739,25.3,65,0.0,995.8,8.55,25.9,109,60.1,39.5,13.7,444.0,107.0,13.8,7,5,7,1,2026-05-01T23:31:00.093055+05:30
Prayagraj,Uttar Pradesh,25.4358,81.8463,27.6,58,0.0,993.4,8.4,25.6,111,61.2,41.1,15.5,431.0,101.0,12.9,4,5,7,1,2026-05-01T23:31:00.093062+05:30
Gorakhpur,Uttar Pradesh,26.7606,83.3732,21.5,90,0.0,996.6,8.35,37.1,102,33.9,23.0,9.1,427.0,100.0,5.3,3,5,7,1,2026-05-01T23:31:00.093069+05:30
Bareilly,Uttar Pradesh,28.367,79.4304,24.8,67,0.0,984.4,7.85,34.6,103,86.8,40.6,10.6,347.0,90.0,8.2,3,5,7,1,2026-05-01T23:31:00.093076+05:30
Aligarh,Uttar Pradesh,27.8974,78.088,28.0,52,0.0,981.9,7.75,28.8,683,663.1,94.8,8.1,402.0,119.0,13.0,4,5,7,1,2026-05-01T23:31:00.093082+05:30
Moradabad,Uttar Pradesh,28.8386,78.7733,25.0,66,0.0,980.9,7.7,35.6,111,93.4,50.4,16.6,352.0,106.0,16.0,7,5,7,1,2026-05-01T23:31:00.093088+05:30
Saharanpur,Uttar Pradesh,29.9637,77.546,24.2,69,0.0,972.0,7.3,36.4,122,84.1,50.1,19.0,503.0,80.0,12.0,3,5,7,1,2026-05-01T23:31:00.093094+05:30
Jhansi,Uttar Pradesh,25.4484,78.5685,29.0,44,0.0,973.5,8.35,28.4,75,72.9,32.6,10.0,377.0,69.0,10.7,4,5,7,0,2026-05-01T23:31:14.625727+05:30
Surat,Gujarat,21.1702,72.8311,29.2,81,0.0,1005.4,7.7,55.4,62,28.4,15.3,15.0,241.0,59.0,25.3,7,5,4,1,2026-05-01T23:31:14.625762+05:30
Vadodara,Gujarat,22.3072,73.1812,29.5,78,0.0,1001.7,8.05,52.6,55,21.7,13.6,13.5,260.0,54.0,17.6,7,5,4,1,2026-05-01T23:31:14.625774+05:30
Rajkot,Gujarat,22.3039,70.8022,29.3,69,0.0,991.7,7.7,54.0,48,23.9,11.4,4.4,172.0,65.0,5.6,7,5,7,1,2026-05-01T23:31:14.625782+05:30
Thane,Maharashtra,19.2183,72.9781,29.1,74,0.0,1008.0,7.9,42.1,66,54.4,17.7,8.6,220.0,65.0,17.8,7,0,4,1,2026-05-01T23:31:14.625789+05:30
Nagpur,Maharashtra,21.1458,79.0882,33.7,25,0.0,970.5,8.9,36.7,82,62.9,32.5,18.1,425.0,70.0,12.8,0,5,7,0,2026-05-01T23:31:14.625796+05:30
Nashik,Maharashtra,19.9975,73.7898,24.1,86,0.0,945.1,8.2,51.1,60,33.9,15.1,10.3,213.0,59.0,11.1,3,5,7,1,2026-05-01T23:31:14.625802+05:30
Aurangabad,Maharashtra,19.8762,75.3433,28.1,50,0.0,943.7,9.05,46.1,54,25.7,12.7,7.5,184.0,72.0,9.6,4,5,7,1,2026-05-01T23:31:14.625809+05:30
Solapur,Maharashtra,17.6599,75.9064,30.6,41,0.0,956.8,9.05,47.5,51,21.5,11.2,4.5,169.0,79.0,3.2,0,5,7,0,2026-05-01T23:31:14.625817+05:30
Kolhapur,Maharashtra,16.705,74.2433,24.0,74,0.0,948.2,8.95,46.8,60,33.1,17.3,11.5,245.0,49.0,3.4,3,5,7,1,2026-05-01T23:31:14.625824+05:30
Goa,Goa,15.2993,74.124,27.0,83,0.0,998.9,8.9,36.4,64,38.2,26.9,13.1,342.0,57.0,3.3,7,5,7,1,2026-05-01T23:31:14.625831+05:30
Jodhpur,Rajasthan,26.2389,73.0243,32.2,35,0.0,978.0,8.3,52.6,136,161.1,29.2,4.4,205.0,82.0,2.8,0,5,7,0,2026-05-01T23:31:14.625837+05:30
Udaipur,Rajasthan,24.5854,73.7125,30.0,34,0.0,943.3,8.75,45.7,56,34.3,15.5,3.6,191.0,100.0,5.7,4,5,7,0,2026-05-01T23:31:14.625844+05:30
Kota,Rajasthan,25.2138,75.8648,33.5,26,0.0,974.5,8.3,38.2,64,35.4,18.3,6.9,198.0,73.0,4.5,0,5,7,0,2026-05-01T23:31:14.625850+05:30
Bikaner,Rajasthan,28.0229,73.3119,32.5,23,0.0,976.8,8.25,39.6,80,63.6,24.3,7.6,337.0,73.0,7.2,0,5,7,0,2026-05-01T23:31:14.625856+05:30
Ajmer,Rajasthan,26.4499,74.6399,30.8,32,0.0,950.7,8.25,51.5,66,98.5,23.6,4.9,202.0,77.0,4.0,0,5,7,0,2026-05-01T23:31:14.625862+05:30
Gwalior,Madhya Pradesh,26.2183,78.1828,29.9,39,0.0,979.0,8.15,33.1,77,146.2,40.7,9.2,292.0,76.0,7.3,4,5,7,0,2026-05-01T23:31:14.625869+05:30
Indore,Madhya Pradesh,22.7196,75.8577,31.1,30,0.0,945.8,8.65,41.0,60,27.5,16.4,4.6,296.0,99.0,6.4,0,5,7,0,2026-05-01T23:31:14.625875+05:30
Bhopal,Madhya Pradesh,23.2599,77.4126,32.2,23,0.0,950.5,8.65,39.2,75,76.4,28.9,8.7,299.0,65.0,5.5,0,5,7,0,2026-05-01T23:31:14.625881+05:30
Jabalpur,Madhya Pradesh,23.1815,79.9864,28.9,33,0.0,958.1,8.8,38.2,78,65.9,24.2,9.0,332.0,81.0,4.8,4,5,7,0,2026-05-01T23:31:14.625887+05:30
Ujjain,Madhya Pradesh,23.1765,75.7885,31.0,32,0.0,951.1,8.55,40.0,58,27.2,16.6,2.9,242.0,100.0,5.9,0,5,7,0,2026-05-01T23:31:14.625894+05:30
Visakhapatnam,Andhra Pradesh,17.6868,83.2185,28.0,96,0.0,1002.8,9.15,51.8,55,23.1,18.1,24.6,274.0,58.0,4.4,7,5,4,1,2026-05-01T23:31:14.625901+05:30
Vijayawada,Andhra Pradesh,16.5062,80.648,29.6,80,0.0,1000.9,9.2,39.6,124,28.4,25.0,5.8,245.0,126.0,6.1,7,5,4,1,2026-05-01T23:31:14.625907+05:30
Guntur,Andhra Pradesh,16.3067,80.4365,30.2,77,0.0,1002.1,9.2,40.0,113,31.1,27.9,5.6,252.0,142.0,7.1,3,5,4,1,2026-05-01T23:31:14.625913+05:30
Nellore,Andhra Pradesh,14.4426,79.9865,31.8,63,0.0,1004.0,9.25,49.0,149,35.3,32.8,7.9,270.0,134.0,13.6,3,5,4,1,2026-05-01T23:31:14.625920+05:30
Kurnool,Andhra Pradesh,15.8281,78.0373,32.0,24,0.0,974.7,9.2,40.0,68,39.7,23.2,15.3,224.0,67.0,4.7,0,5,7,0,2026-05-01T23:31:14.625926+05:30
Kakinada,Andhra Pradesh,16.9891,82.2475,28.3,91,0.0,1006.6,9.15,45.7,49,19.2,13.0,2.2,258.0,78.0,1.1,7,5,4,1,2026-05-01T23:31:14.625933+05:30
Tirupati,Andhra Pradesh,13.6288,79.4192,30.5,51,0.0,990.5,9.3,42.8,114,41.9,39.5,13.4,310.0,121.0,16.1,0,5,7,1,2026-05-01T23:31:14.625940+05:30
Warangal,Telangana,17.9689,79.5941,29.7,37,0.0,976.3,9.15,41.0,85,69.6,50.9,34.8,398.0,36.0,8.4,4,5,7,0,2026-05-01T23:31:14.625946+05:30
Nizamabad,Telangana,18.6725,78.0941,31.0,30,0.0,962.2,9.1,33.5,71,57.3,34.5,20.8,484.0,60.0,5.0,0,5,7,0,2026-05-01T23:31:14.625952+05:30
Mysore,Karnataka,12.2958,76.6396,23.8,86,0.0,929.3,9.35,52.9,103,26.2,23.6,18.0,314.0,75.0,3.4,3,5,7,1,2026-05-01T23:31:14.625959+05:30
Mangalore,Karnataka,12.9141,74.856,28.9,82,0.0,1007.5,9.0,40.7,66,25.7,16.2,5.8,307.0,57.0,2.2,7,5,4,1,2026-05-01T23:31:14.625965+05:30
Hubli-Dharwad,Karnataka,15.3647,75.124,23.5,85,0.0,941.1,9.2,45.0,55,22.1,16.2,9.0,202.0,57.0,2.2,3,5,7,1,2026-05-01T23:31:14.625972+05:30
Belgaum,Karnataka,15.8497,74.4977,22.2,86,0.0,925.6,9.15,44.6,55,29.3,18.2,15.2,185.0,44.0,3.0,3,5,7,1,2026-05-01T23:31:23.912071+05:30
Coimbatore,Tamil Nadu,11.0168,76.9558,26.0,87,0.0,962.4,9.2,41.4,69,27.9,25.0,11.1,296.0,68.0,4.0,7,5,7,1,2026-05-01T23:31:23.912107+05:30
Madurai,Tamil Nadu,9.9252,78.1198,28.9,64,0.0,993.6,8.9,57.6,74,29.1,27.0,27.3,347.0,56.0,8.8,7,5,7,1,2026-05-01T23:31:23.912118+05:30
Trichy,Tamil Nadu,10.7905,78.7047,30.8,52,0.0,1000.1,8.9,36.0,73,9.0,8.6,9.3,333.0,67.0,3.8,0,5,4,1,2026-05-01T23:31:23.912128+05:30
Salem,Tamil Nadu,11.6643,78.146,28.3,65,0.0,977.9,9.25,61.9,126,59.0,51.7,32.4,593.0,85.0,14.8,7,5,7,1,2026-05-01T23:31:23.912136+05:30
Tirunelveli,Tamil Nadu,8.7139,77.7567,30.0,63,0.0,1003.6,8.85,36.7,47,22.5,21.3,13.6,366.0,50.0,2.9,7,5,4,1,2026-05-01T23:31:23.912143+05:30
Vellore,Tamil Nadu,12.9165,79.1325,29.8,52,0.0,983.9,9.3,44.3,108,50.1,46.3,18.2,321.0,86.0,20.1,4,5,7,1,2026-05-01T23:31:23.912150+05:30
Erode,Tamil Nadu,11.341,77.7172,29.4,64,0.0,989.7,9.25,54.4,85,38.3,34.8,31.6,346.0,51.0,4.9,7,5,7,1,2026-05-01T23:31:23.912158+05:30
Kochi,Kerala,9.9312,76.2673,27.0,93,0.0,1009.6,8.8,33.8,64,47.1,44.1,51.0,390.0,10.0,9.1,7,0,4,1,2026-05-01T23:31:23.912165+05:30
Thiruvananthapuram,Kerala,8.5241,76.9366,25.2,95,0.0,1009.1,8.85,34.9,47,20.2,13.4,3.3,435.0,88.0,1.7,7,0,4,1,2026-05-01T23:31:23.912172+05:30
Kozhikode,Kerala,11.2588,75.7804,26.8,94,0.0,1008.5,7.7,39.2,61,30.3,18.0,3.7,846.0,77.0,1.5,7,0,4,1,2026-05-01T23:31:23.912179+05:30
Thrissur,Kerala,10.5276,76.2144,26.0,92,0.0,1007.8,8.7,39.2,69,51.0,44.0,33.3,467.0,27.0,6.2,7,5,4,1,2026-05-01T23:31:23.912187+05:30
Kannur,Kerala,11.8745,75.3704,27.6,90,0.0,1007.8,8.9,43.2,68,29.6,21.4,16.5,424.0,43.0,2.8,7,5,4,1,2026-05-01T23:31:23.912194+05:30
Patna,Bihar,25.5941,85.1376,21.7,91,0.0,999.7,8.4,33.5,115,38.4,32.4,13.5,416.0,97.0,10.1,3,5,7,1,2026-05-01T23:31:23.912201+05:30
Gaya,Bihar,24.7914,85.0002,22.9,80,0.0,992.5,8.7,32.8,116,49.6,38.0,11.6,349.0,111.0,12.5,3,5,7,1,2026-05-01T23:31:23.912226+05:30
Muzaffarpur,Bihar,26.1209,85.3647,21.2,89,0.0,1000.0,6.55,31.3,102,39.7,33.1,14.1,437.0,87.0,9.2,3,5,4,1,2026-05-01T23:31:23.912233+05:30
Bhagalpur,Bihar,25.2425,87.0117,21.6,95,0.2,1001.3,8.5,49.3,96,42.8,37.0,12.7,333.0,87.0,7.8,6,5,4,1,2026-05-01T23:31:23.912240+05:30
Ranchi,Jharkhand,23.3441,85.3096,20.6,74,0.0,935.0,9.05,48.2,112,87.1,36.1,12.5,490.0,100.0,5.6,3,5,7,0,2026-05-01T23:31:23.912247+05:30
Jamshedpur,Jharkhand,22.8046,86.2029,23.8,89,0.0,989.2,9.0,24.8,113,97.8,57.5,32.2,691.0,66.0,23.9,3,5,7,1,2026-05-01T23:31:23.912254+05:30
Dhanbad,Jharkhand,23.7957,86.4304,22.5,90,0.0,978.4,8.9,22.3,153,111.3,86.1,58.3,405.0,55.0,57.9,3,5,7,1,2026-05-01T23:31:23.912260+05:30
Bokaro,Jharkhand,23.6693,86.1511,23.5,82,0.0,982.0,8.95,27.4,147,125.7,81.7,61.6,2839.0,38.0,47.1,3,5,7,1,2026-05-01T23:31:23.912267+05:30
Bhubaneswar,Odisha,20.2961,85.8245,26.6,95,0.0,1001.0,8.4,47.2,62,28.1,25.6,10.3,258.0,76.0,5.4,7,5,4,1,2026-05-01T23:31:23.912273+05:30
Cuttack,Odisha,20.4625,85.8828,26.5,94,0.0,1002.8,8.85,36.0,62,28.1,25.6,10.3,403.0,76.0,5.4,7,5,4,1,2026-05-01T23:31:23.912279+05:30
Rourkela,Odisha,22.2604,84.8536,23.5,90,0.0,983.0,8.9,36.7,141,108.3,65.4,29.8,251.0,74.0,34.0,3,5,7,1,2026-05-01T23:31:23.912285+05:30
Raipur,Chhattisgarh,21.2514,81.6296,29.5,40,0.0,971.6,8.95,42.8,101,115.9,54.9,45.3,980.0,64.0,10.9,4,5,7,0,2026-05-01T23:31:23.912292+05:30
Bhilai,Chhattisgarh,21.1938,81.3509,30.5,35,0.0,972.0,8.95,54.7,99,131.8,60.3,38.7,1009.0,76.0,11.2,0,5,7,0,2026-05-01T23:31:23.912299+05:30
Guwahati,Assam,26.1158,91.7086,20.6,97,0.0,1001.8,7.7,28.8,74,35.5,32.5,14.8,466.0,59.0,3.8,3,5,4,1,2026-05-01T23:31:23.912306+05:30
Agartala,Tripura,23.8315,91.2868,22.2,93,0.0,1006.2,5.1,38.2,77,30.6,29.2,19.2,223.0,39.0,2.7,3,5,0,1,2026-05-01T23:31:23.912312+05:30
Shillong,Meghalaya,25.5788,91.8933,13.4,92,0.0,853.9,7.5,36.7,56,22.8,22.4,11.8,302.0,57.0,1.1,3,10,7,0,2026-05-01T23:31:23.912319+05:30
Imphal,Manipur,24.817,93.9368,17.8,98,0.0,922.2,4.0,18.7,73,31.9,31.1,22.5,491.0,24.0,2.3,3,10,3,1,2026-05-01T23:31:23.912326+05:30
Aizawl,Mizoram,23.7271,92.7176,15.5,93,0.0,890.8,4.95,50.4,47,8.4,6.9,4.8,200.0,51.0,0.7,3,10,3,0,2026-05-01T23:31:23.912332+05:30
Kohima,Nagaland,25.6701,94.1077,15.1,100,0.5,853.5,4.45,23.0,52,19.0,16.2,16.2,351.0,47.0,0.9,6,10,3,0,2026-05-01T23:31:23.912338+05:30
Gangtok,Sikkim,27.3314,88.6138,11.8,91,0.0,833.5,8.9,42.5,65,17.5,11.8,6.5,546.0,108.0,0.6,3,10,7,0,2026-05-01T23:31:23.912344+05:30
Siliguri,West Bengal,26.7271,88.3953,19.6,98,0.0,993.5,6.6,26.6,70,38.6,29.1,11.6,451.0,102.0,3.6,3,10,7,1,2026-05-01T23:31:32.045335+05:30
Durgapur,West Bengal,23.5204,87.3119,23.6,88,0.0,993.6,8.85,29.2,152,79.9,66.6,24.9,519.0,110.0,44.8,3,5,7,1,2026-05-01T23:31:32.045372+05:30
Asansol,West Bengal,23.6739,86.9524,23.0,90,0.0,992.1,8.75,24.5,139,82.7,68.9,29.8,508.0,98.0,55.5,3,5,7,1,2026-05-01T23:31:32.045383+05:30
Pondicherry,Puducherry,11.9139,79.8145,30.0,76,0.0,1008.0,8.7,43.6,76,12.4,9.6,7.6,234.0,73.0,3.9,7,0,4,1,2026-05-01T23:31:32.045393+05:30
Port Blair,Andaman and Nicobar Islands,11.6234,92.7265,26.5,91,0.0,1008.7,9.1,24.8,28,6.7,4.6,0.6,280.0,59.0,1.9,7,0,4,1,2026-05-01T23:31:32.045401+05:30
Haridwar,Uttarakhand,29.9457,78.1642,21.2,85,0.0,970.4,7.4,28.8,106,79.4,44.4,13.2,340.0,82.0,8.0,3,5,7,1,2026-05-01T23:31:32.045409+05:30
Rishikesh,Uttarakhand,30.0869,78.2676,19.8,84,0.0,963.2,7.5,25.9,97,82.9,39.5,9.3,303.0,90.0,4.1,3,10,7,1,2026-05-01T23:31:32.045415+05:30
Nainital,Uttarakhand,29.3919,79.4542,10.2,96,0.0,800.8,8.3,39.6,89,86.6,36.3,16.5,325.0,76.0,6.3,3,10,7,0,2026-05-01T23:31:32.045422+05:30
Mussoorie,Uttarakhand,30.4599,78.0664,11.2,88,0.0,798.1,7.9,42.1,116,109.9,56.6,26.6,319.0,79.0,11.4,3,10,7,0,2026-05-01T23:31:32.045429+05:30
Dharamshala,Himachal Pradesh,32.219,76.3234,18.3,60,0.0,865.1,8.2,46.8,69,12.6,11.4,12.6,239.0,63.0,0.5,0,5,7,0,2026-05-01T23:31:32.045436+05:30
Dalhousie,Himachal Pradesh,32.5387,75.971,9.5,84,0.0,797.7,8.5,37.8,82,31.3,26.8,40.1,565.0,45.0,2.9,3,10,7,0,2026-05-01T23:31:32.045444+05:30
Patiala,Punjab,30.3398,76.3869,26.8,49,0.0,973.8,7.5,38.5,470,195.6,53.3,11.3,435.0,112.0,24.1,4,5,7,0,2026-05-01T23:31:32.045451+05:30
Bhatinda,Punjab,30.211,74.9455,28.2,39,0.0,979.0,8.1,36.7,294,49.0,27.3,10.6,402.0,92.0,7.3,4,5,7,0,2026-05-01T23:31:32.045457+05:30
Rohtak,Haryana,28.8955,76.6066,27.4,53,0.0,977.3,7.6,29.2,568,543.9,94.1,21.1,784.0,112.0,27.4,4,5,7,1,2026-05-01T23:31:32.045464+05:30
Panipat,Haryana,29.3909,76.9635,26.2,60,0.0,976.5,7.45,33.8,993,558.8,95.2,13.2,493.0,112.0,16.6,4,5,7,1,2026-05-01T23:31:32.045471+05:30
Mathura,Uttar Pradesh,27.4924,77.6737,27.8,52,0.0,982.9,7.85,28.1,644,1199.5,149.0,9.6,389.0,112.0,11.7,4,5,7,1,2026-05-01T23:31:32.045478+05:30
Vrindavan,Uttar Pradesh,27.5823,77.7027,27.9,52,0.0,983.3,7.8,28.4,644,1199.5,149.0,9.6,391.0,112.0,11.7,4,5,7,1,2026-05-01T23:31:32.045485+05:30
Ayodhya,Uttar Pradesh,26.7922,82.1998,24.1,69,0.0,993.8,8.15,28.4,86,48.8,32.2,11.2,409.0,97.0,7.2,3,5,7,1,2026-05-01T23:31:32.045492+05:30
Ratlam,Madhya Pradesh,23.3315,75.0367,30.1,36,0.0,952.2,8.45,40.7,62,22.3,14.4,2.5,199.0,103.0,6.8,0,5,7,0,2026-05-01T23:31:32.045499+05:30
Sagar,Madhya Pradesh,23.8388,78.7378,27.6,38,0.0,946.4,8.65,40.7,69,38.6,17.1,6.3,207.0,72.0,3.1,4,5,7,0,2026-05-01T23:31:32.045506+05:30
Satna,Madhya Pradesh,24.6005,80.8322,26.5,47,0.0,968.2,8.65,52.6,75,56.5,28.6,9.0,318.0,119.0,8.9,4,5,7,0,2026-05-01T23:31:32.045512+05:30
Akola,Maharashtra,20.7002,77.0082,33.0,30,0.0,972.7,8.9,40.0,54,25.4,13.8,6.6,203.0,86.0,15.1,0,5,7,0,2026-05-01T23:31:32.045520+05:30
Amravati,Maharashtra,20.9374,77.7796,33.0,26,0.0,965.1,8.85,38.9,55,24.5,13.4,6.7,234.0,87.0,14.6,0,5,7,0,2026-05-01T23:31:32.045527+05:30
Latur,Maharashtra,18.4088,76.5604,31.1,29,0.0,938.9,9.1,38.9,58,26.7,17.2,9.0,205.0,83.0,5.1,0,5,7,0,2026-05-01T23:31:32.045534+05:30
Nanded,Maharashtra,19.1383,77.3091,31.4,24,0.0,966.4,9.0,32.8,60,28.5,18.5,11.1,210.0,70.0,4.3,0,5,7,0,2026-05-01T23:31:32.045540+05:30
Gulbarga,Karnataka,17.3297,76.8343,32.8,27,0.0,957.6,9.1,44.6,56,19.6,13.1,12.7,196.0,58.0,3.3,0,5,7,0,2026-05-01T23:31:32.045546+05:30
Bidar,Karnataka,17.9104,77.5199,28.4,31,0.0,933.8,9.15,37.4,66,55.2,31.4,23.5,264.0,63.0,5.5,4,5,7,0,2026-05-01T23:31:32.045552+05:30
Hospet,Karnataka,15.2689,76.3909,27.8,64,0.0,956.2,9.25,38.5,56,21.3,15.0,7.2,203.0,67.0,2.2,7,5,7,1,2026-05-01T23:31:32.045559+05:30
Tirupur,Tamil Nadu,11.1085,77.3411,27.8,77,0.0,975.7,9.2,53.3,81,32.4,28.6,19.4,274.0,64.0,5.2,7,5,7,1,2026-05-01T23:31:32.045565+05:30
Alappuzha,Kerala,9.4981,76.3388,26.5,96,0.0,1009.7,8.95,33.8,57,41.1,33.3,25.9,350.0,58.0,5.8,7,0,4,1,2026-05-01T23:31:32.045572+05:30
Munnar,Kerala,10.0889,77.0595,17.2,88,0.0,856.8,8.3,28.4,42,22.3,20.0,15.0,371.0,30.0,2.2,3,10,7,0,2026-05-01T23:31:32.045579+05:30
Silchar,Assam,24.8333,92.7789,21.0,98,0.0,1006.0,0.8,24.1,98,47.6,46.9,18.6,314.0,36.0,5.4,3,5,0,1,2026-05-01T23:31:32.045586+05:30
Dibrugarh,Assam,27.4728,94.912,20.1,96,0.3,995.6,5.65,33.5,68,43.8,36.8,28.6,390.0,16.0,2.6,6,5,3,1,2026-05-01T23:31:32.045593+05:30
