city,state,latitude,longitude,temp,humidity,rain,pressure,uv_index,wind_gusts,aqi,pm10,pm2_5,mosquito_risk,arthritis_risk,migraine_risk,frizz_risk,updated_at
Delhi,Delhi,28.6139,77.209,32.5,42,0.0,981.3,5.95,32.4,152,562.5,78.0,0,5,3,1,2026-03-29T14:15:06.080499+05:30
Mumbai,Maharashtra,19.076,72.8777,28.3,78,0.0,1007.5,8.0,24.5,59,47.0,22.9,7,5,4,1,2026-03-29T14:15:06.080540+05:30
Bangalore,Karnataka,12.9716,77.5946,31.2,44,0.0,910.6,9.55,28.8,138,60.3,49.9,0,5,7,1,2026-03-29T14:15:06.080555+05:30
Hyderabad,Telangana,17.385,78.4867,36.9,26,0.0,951.2,9.05,31.0,105,30.7,25.7,0,5,10,0,2026-03-29T14:15:06.080565+05:30
Chennai,Tamil Nadu,13.0827,80.2707,33.0,62,0.0,1005.3,9.25,37.4,59,23.0,17.3,3,5,4,1,2026-03-29T14:15:06.080575+05:30
Kolkata,West Bengal,22.5726,88.3639,31.6,69,0.0,1003.9,8.45,27.7,115,45.6,32.9,3,5,4,1,2026-03-29T14:15:06.080584+05:30
Pune,Maharashtra,18.5204,73.8567,35.9,28,0.0,947.5,8.55,33.8,67,32.4,13.0,0,5,10,0,2026-03-29T14:15:06.080595+05:30
Ahmedabad,Gujarat,23.0225,72.5714,35.7,35,0.0,1000.5,7.85,30.6,36,58.0,14.9,0,5,7,1,2026-03-29T14:15:06.080603+05:30
Jaipur,Rajasthan,26.9124,75.7873,35.9,24,0.0,957.4,7.2,38.2,73,161.6,21.5,0,5,10,0,2026-03-29T14:15:06.080611+05:30
Lucknow,Uttar Pradesh,26.8467,80.9462,34.1,34,0.0,991.9,7.25,16.6,120,129.9,29.9,0,5,7,0,2026-03-29T14:15:06.080618+05:30
Kanpur,Uttar Pradesh,26.4499,80.3319,33.6,39,0.0,990.0,7.25,16.9,128,127.6,27.5,0,5,7,1,2026-03-29T14:15:06.080625+05:30
Chandigarh,Chandigarh,30.7333,76.7794,25.0,64,0.0,969.0,6.5,28.1,86,60.8,16.5,7,5,7,1,2026-03-29T14:15:06.080633+05:30
Srinagar,Jammu and Kashmir,34.0837,74.7973,14.9,67,0.0,841.6,7.35,22.3,84,7.6,4.6,3,5,7,0,2026-03-29T14:15:06.080641+05:30
Jammu,Jammu and Kashmir,32.7266,74.857,23.9,63,0.0,973.7,6.75,28.1,85,37.6,12.0,3,5,7,1,2026-03-29T14:15:06.080649+05:30
Amritsar,Punjab,31.634,74.8723,26.2,62,0.0,980.7,7.3,35.3,72,56.8,15.9,7,5,7,1,2026-03-29T14:15:06.080656+05:30
Ludhiana,Punjab,30.901,75.8573,27.5,52,0.0,978.6,6.95,31.7,98,77.8,24.4,4,5,7,1,2026-03-29T14:15:06.080663+05:30
Jalandhar,Punjab,31.326,75.5762,24.3,75,0.0,980.1,7.1,29.2,91,73.8,22.9,3,5,7,1,2026-03-29T14:15:06.080671+05:30
Dehradun,Uttarakhand,30.6284,78.0322,16.9,85,0.0,830.2,3.05,19.4,72,59.4,21.9,3,10,3,0,2026-03-29T14:15:06.080678+05:30
Shimla,Himachal Pradesh,31.1048,77.1734,16.6,78,0.0,784.9,1.8,22.3,81,54.0,17.2,3,5,3,0,2026-03-29T14:15:06.080685+05:30
Manali,Himachal Pradesh,32.2396,77.1887,15.7,87,0.4,819.6,7.45,28.1,69,2.4,1.7,6,10,7,0,2026-03-29T14:15:06.080692+05:30
Gurgaon,Haryana,28.4595,77.0266,32.5,43,0.0,979.6,5.7,27.0,453,1441.7,143.4,0,5,3,1,2026-03-29T14:15:06.080701+05:30
Noida,Uttar Pradesh,28.5355,77.391,32.9,40,0.0,982.8,6.05,24.8,453,1441.7,143.4,0,5,7,1,2026-03-29T14:15:06.080707+05:30
Ghaziabad,Uttar Pradesh,28.6692,77.4538,32.1,43,0.0,981.2,6.1,24.1,152,312.9,49.5,0,5,7,1,2026-03-29T14:15:06.080713+05:30
Faridabad,Haryana,28.4089,77.3178,33.4,38,0.0,981.7,6.15,28.8,453,1441.7,143.4,0,5,7,1,2026-03-29T14:15:06.080719+05:30
Meerut,Uttar Pradesh,28.9845,77.7064,31.2,41,0.0,980.4,5.6,20.5,152,312.9,49.5,0,5,3,1,2026-03-29T14:15:06.080725+05:30
Agra,Uttar Pradesh,27.1767,78.0081,37.7,24,0.0,984.9,7.1,36.0,395,474.0,52.7,0,5,10,0,2026-03-29T14:15:06.080731+05:30
Varanasi,Uttar Pradesh,25.3176,82.9739,36.3,27,0.0,995.6,7.95,26.6,90,58.1,19.0,0,5,10,0,2026-03-29T14:15:06.080740+05:30
Prayagraj,Uttar Pradesh,25.4358,81.8463,35.3,34,0.0,993.9,7.8,22.7,110,66.6,21.7,0,5,10,1,2026-03-29T14:15:06.080749+05:30
Gorakhpur,Uttar Pradesh,26.7606,83.3732,32.8,38,0.0,995.9,7.65,26.3,126,87.8,36.6,0,5,7,1,2026-03-29T14:15:06.080755+05:30
Bareilly,Uttar Pradesh,28.367,79.4304,32.8,39,0.0,985.7,7.0,15.8,97,58.9,27.4,0,5,7,1,2026-03-29T14:15:06.080762+05:30
Aligarh,Uttar Pradesh,27.8974,78.088,34.2,37,0.0,983.5,6.9,26.3,187,407.9,52.4,0,5,7,1,2026-03-29T14:15:06.080768+05:30
Moradabad,Uttar Pradesh,28.8386,78.7733,31.9,40,0.0,982.7,6.6,18.0,142,65.4,32.2,0,5,7,1,2026-03-29T14:15:06.080774+05:30
Saharanpur,Uttar Pradesh,29.9637,77.546,26.7,55,0.0,975.9,5.4,25.6,108,80.3,23.2,4,5,3,1,2026-03-29T14:15:06.080780+05:30
Jhansi,Uttar Pradesh,25.4484,78.5685,38.6,21,0.0,975.0,7.8,27.4,64,25.5,12.5,0,5,10,0,2026-03-29T14:15:09.354581+05:30
Surat,Gujarat,21.1702,72.8311,30.7,62,0.0,1006.2,7.75,25.9,71,54.8,31.9,3,5,4,1,2026-03-29T14:15:09.354612+05:30
Vadodara,Gujarat,22.3072,73.1812,35.1,46,0.0,1003.1,7.85,31.3,54,69.2,23.6,0,5,7,1,2026-03-29T14:15:09.354622+05:30
Rajkot,Gujarat,22.3039,70.8022,32.5,52,0.0,993.7,7.6,32.8,37,54.9,17.6,0,5,7,1,2026-03-29T14:15:09.354630+05:30
Thane,Maharashtra,19.2183,72.9781,31.5,59,0.0,1007.2,8.0,35.3,59,47.0,22.9,0,5,4,1,2026-03-29T14:15:09.354637+05:30
Nagpur,Maharashtra,21.1458,79.0882,37.8,21,0.0,970.7,8.55,25.2,64,15.9,12.6,0,5,10,0,2026-03-29T14:15:09.354645+05:30
Nashik,Maharashtra,19.9975,73.7898,32.3,44,0.0,945.1,8.25,28.8,50,13.4,6.7,0,5,7,1,2026-03-29T14:15:09.354651+05:30
Aurangabad,Maharashtra,19.8762,75.3433,35.6,29,0.0,943.1,8.75,31.0,41,20.1,7.7,0,5,10,0,2026-03-29T14:15:09.354658+05:30
Solapur,Maharashtra,17.6599,75.9064,38.1,18,0.0,955.7,8.9,23.0,56,17.5,10.7,0,5,10,0,2026-03-29T14:15:09.354665+05:30
Kolhapur,Maharashtra,16.705,74.2433,34.0,27,0.0,947.2,9.0,36.7,76,23.6,10.7,0,5,7,0,2026-03-29T14:15:09.354672+05:30
Goa,Goa,15.2993,74.124,31.9,57,0.0,996.5,8.95,36.4,89,41.6,14.4,0,5,7,1,2026-03-29T14:15:09.354679+05:30
Jodhpur,Rajasthan,26.2389,73.0243,35.2,23,0.0,980.5,7.4,43.2,116,208.2,23.9,0,5,10,0,2026-03-29T14:15:09.354686+05:30
Udaipur,Rajasthan,24.5854,73.7125,33.7,27,0.0,945.7,8.2,35.3,30,19.8,6.4,0,5,7,0,2026-03-29T14:15:09.354693+05:30
Kota,Rajasthan,25.2138,75.8648,38.4,21,0.0,975.8,7.5,34.9,54,29.0,8.8,0,5,10,0,2026-03-29T14:15:09.354699+05:30
Bikaner,Rajasthan,28.0229,73.3119,35.1,26,0.0,978.6,7.55,34.6,92,113.2,28.9,0,5,10,0,2026-03-29T14:15:09.354706+05:30
Ajmer,Rajasthan,26.4499,74.6399,34.7,23,0.0,952.6,7.55,42.8,33,30.3,8.5,0,5,7,0,2026-03-29T14:15:09.354712+05:30
Gwalior,Madhya Pradesh,26.2183,78.1828,36.9,26,0.0,980.7,7.35,30.6,83,38.4,10.6,0,5,10,0,2026-03-29T14:15:09.354719+05:30
Indore,Madhya Pradesh,22.7196,75.8577,34.2,34,0.0,947.1,8.25,32.0,39,16.2,7.0,0,5,7,1,2026-03-29T14:15:09.354726+05:30
Bhopal,Madhya Pradesh,23.2599,77.4126,35.3,29,0.0,952.4,8.2,35.6,38,32.5,10.4,0,5,10,0,2026-03-29T14:15:09.354732+05:30
Jabalpur,Madhya Pradesh,23.1815,79.9864,36.5,23,0.0,959.6,8.3,33.8,61,7.9,5.0,0,5,10,0,2026-03-29T14:15:09.354739+05:30
Ujjain,Madhya Pradesh,23.1765,75.7885,33.9,36,0.0,952.8,8.15,34.9,38,17.3,6.8,0,5,7,1,2026-03-29T14:15:09.354746+05:30
Visakhapatnam,Andhra Pradesh,17.6868,83.2185,34.2,52,0.0,1001.1,9.0,40.3,75,34.5,25.5,0,5,4,1,2026-03-29T14:15:09.354752+05:30
Vijayawada,Andhra Pradesh,16.5062,80.648,37.0,40,0.0,999.5,9.05,29.9,74,35.0,27.1,0,5,10,1,2026-03-29T14:15:09.354759+05:30
Guntur,Andhra Pradesh,16.3067,80.4365,35.8,41,0.0,1000.9,9.05,31.3,80,43.1,34.8,0,5,7,1,2026-03-29T14:15:09.354766+05:30
Nellore,Andhra Pradesh,14.4426,79.9865,37.9,34,0.0,1002.6,8.75,33.8,70,34.5,28.8,0,5,7,1,2026-03-29T14:15:09.354773+05:30
Kurnool,Andhra Pradesh,15.8281,78.0373,38.6,23,0.0,974.2,9.1,29.2,113,26.5,22.6,0,5,10,0,2026-03-29T14:15:09.354781+05:30
Kakinada,Andhra Pradesh,16.9891,82.2475,36.7,44,0.0,1004.6,9.0,30.2,61,27.0,16.8,0,5,7,1,2026-03-29T14:15:09.354788+05:30
Tirupati,Andhra Pradesh,13.6288,79.4192,36.1,38,0.0,988.8,9.2,34.6,94,37.6,31.4,0,5,10,1,2026-03-29T14:15:09.354793+05:30
Warangal,Telangana,17.9689,79.5941,37.0,40,0.0,976.2,8.9,28.4,109,43.8,38.0,0,5,10,1,2026-03-29T14:15:09.354800+05:30
Nizamabad,Telangana,18.6725,78.0941,37.0,25,0.0,963.1,8.8,29.2,73,14.9,13.2,0,5,10,0,2026-03-29T14:15:09.354806+05:30
Mysore,Karnataka,12.2958,76.6396,33.0,40,0.0,926.7,8.55,36.0,112,58.3,47.4,0,5,7,1,2026-03-29T14:15:09.354835+05:30
Mangalore,Karnataka,12.9141,74.856,29.2,87,0.0,1003.9,9.1,29.2,101,39.9,32.8,7,5,4,1,2026-03-29T14:15:09.354843+05:30
Hubli-Dharwad,Karnataka,15.3647,75.124,35.9,20,0.0,939.6,9.15,27.7,95,11.4,9.3,0,5,10,0,2026-03-29T14:15:09.354850+05:30
Belgaum,Karnataka,15.8497,74.4977,33.2,28,0.0,925.1,9.2,36.4,80,19.0,7.9,0,5,7,0,2026-03-29T14:15:12.626500+05:30
Coimbatore,Tamil Nadu,11.0168,76.9558,37.3,25,0.0,959.0,9.4,53.6,97,45.6,37.1,0,5,10,0,2026-03-29T14:15:12.626533+05:30
Madurai,Tamil Nadu,9.9252,78.1198,35.7,37,0.0,990.2,9.0,26.3,83,23.5,19.4,0,5,10,1,2026-03-29T14:15:12.626546+05:30
Trichy,Tamil Nadu,10.7905,78.7047,36.7,39,0.0,996.8,8.85,29.5,69,20.8,16.9,0,5,10,1,2026-03-29T14:15:12.626556+05:30
Salem,Tamil Nadu,11.6643,78.146,37.3,30,0.0,974.3,9.4,35.6,80,37.0,29.6,0,5,10,1,2026-03-29T14:15:12.626565+05:30
Tirunelveli,Tamil Nadu,8.7139,77.7567,38.2,29,0.0,1000.1,9.4,43.9,73,21.2,17.7,0,5,7,1,2026-03-29T14:15:12.626575+05:30
Vellore,Tamil Nadu,12.9165,79.1325,37.0,29,0.0,981.7,9.35,37.4,123,37.4,31.5,0,5,10,0,2026-03-29T14:15:12.626584+05:30
Erode,Tamil Nadu,11.341,77.7172,39.1,26,0.0,985.4,9.35,38.9,97,35.3,28.6,0,5,10,1,2026-03-29T14:15:12.626592+05:30
Kochi,Kerala,9.9312,76.2673,29.6,78,0.0,1005.6,8.8,27.4,91,34.1,29.6,7,5,4,1,2026-03-29T14:15:12.626602+05:30
Thiruvananthapuram,Kerala,8.5241,76.9366,29.5,79,0.0,1005.2,9.2,31.3,76,26.8,22.9,7,5,4,1,2026-03-29T14:15:12.626611+05:30
Kozhikode,Kerala,11.2588,75.7804,30.5,78,0.0,1004.9,9.1,28.4,79,31.0,25.8,3,5,4,1,2026-03-29T14:15:12.626620+05:30
Thrissur,Kerala,10.5276,76.2144,33.4,61,0.0,1003.8,9.15,34.6,90,36.1,30.7,3,5,4,1,2026-03-29T14:15:12.626629+05:30
Kannur,Kerala,11.8745,75.3704,31.7,68,0.0,1004.2,9.15,34.6,91,41.6,35.2,3,5,4,1,2026-03-29T14:15:12.626638+05:30
Patna,Bihar,25.5941,85.1376,32.2,46,0.0,999.1,8.05,23.8,117,77.3,41.8,0,5,7,1,2026-03-29T14:15:12.626647+05:30
Gaya,Bihar,24.7914,85.0002,33.6,43,0.0,992.0,8.15,17.6,98,68.9,27.2,0,5,7,1,2026-03-29T14:15:12.626655+05:30
Muzaffarpur,Bihar,26.1209,85.3647,31.6,48,0.0,999.3,8.05,28.1,123,72.9,45.4,0,5,7,1,2026-03-29T14:15:12.626663+05:30
Bhagalpur,Bihar,25.2425,87.0117,30.0,61,0.0,1000.2,7.85,19.8,120,70.1,52.9,7,5,4,1,2026-03-29T14:15:12.626672+05:30
Ranchi,Jharkhand,23.3441,85.3096,32.7,34,0.0,936.4,8.75,33.5,109,34.9,17.2,0,5,7,0,2026-03-29T14:15:12.626680+05:30
Jamshedpur,Jharkhand,22.8046,86.2029,36.2,37,0.0,988.0,8.55,33.8,127,54.4,41.8,0,5,10,1,2026-03-29T14:15:12.626688+05:30
Dhanbad,Jharkhand,23.7957,86.4304,34.1,38,0.0,977.9,8.5,18.7,155,75.4,58.0,0,5,7,1,2026-03-29T14:15:12.626697+05:30
Bokaro,Jharkhand,23.6693,86.1511,33.4,44,0.0,981.8,8.5,23.0,155,65.4,44.9,0,5,7,1,2026-03-29T14:15:12.626705+05:30
Bhubaneswar,Odisha,20.2961,85.8245,34.6,53,0.0,999.8,8.8,31.3,77,31.3,24.9,0,5,7,1,2026-03-29T14:15:12.626714+05:30
Cuttack,Odisha,20.4625,85.8828,36.7,47,0.0,1001.0,8.85,34.6,77,31.3,24.9,0,5,7,1,2026-03-29T14:15:12.626721+05:30
Rourkela,Odisha,22.2604,84.8536,38.1,24,0.0,982.1,8.5,32.4,120,38.4,27.2,0,5,10,0,2026-03-29T14:15:12.626728+05:30
Raipur,Chhattisgarh,21.2514,81.6296,39.2,19,0.0,971.9,8.6,29.9,103,22.5,19.3,0,5,10,0,2026-03-29T14:15:12.626735+05:30
Bhilai,Chhattisgarh,21.1938,81.3509,39.3,20,0.0,972.2,8.6,32.8,83,18.9,16.4,0,5,10,0,2026-03-29T14:15:12.626741+05:30
Guwahati,Assam,26.1158,91.7086,26.8,64,0.0,1001.4,7.15,14.4,102,56.5,30.9,7,5,4,1,2026-03-29T14:15:12.626748+05:30
Agartala,Tripura,23.8315,91.2868,26.5,76,0.0,1005.7,8.2,37.4,121,58.7,44.1,7,5,4,1,2026-03-29T14:15:12.626755+05:30
Shillong,Meghalaya,25.5788,91.8933,16.6,68,0.0,855.2,5.65,43.9,73,45.3,27.6,3,5,3,0,2026-03-29T14:15:12.626762+05:30
Imphal,Manipur,24.817,93.9368,19.8,78,0.0,922.5,7.35,61.9,121,60.8,42.0,3,5,7,0,2026-03-29T14:15:12.626770+05:30
Aizawl,Mizoram,23.7271,92.7176,23.1,69,0.0,892.6,6.95,52.9,129,66.1,47.8,3,5,7,1,2026-03-29T14:15:12.626776+05:30
Kohima,Nagaland,25.6701,94.1077,16.8,85,0.0,854.1,7.15,86.4,102,54.4,31.9,3,10,7,0,2026-03-29T14:15:12.626782+05:30
Gangtok,Sikkim,27.3314,88.6138,18.2,61,0.0,836.4,8.1,19.8,65,23.4,18.0,3,5,7,0,2026-03-29T14:15:12.626789+05:30
Siliguri,West Bengal,26.7271,88.3953,20.9,84,0.0,994.2,6.7,12.6,124,51.0,34.5,3,5,7,1,2026-03-29T14:15:15.904089+05:30
Durgapur,West Bengal,23.5204,87.3119,33.5,51,0.0,992.7,8.45,22.3,150,79.9,70.1,0,5,7,1,2026-03-29T14:15:15.904120+05:30
Asansol,West Bengal,23.6739,86.9524,33.4,51,0.0,991.4,8.45,23.4,150,79.9,67.5,0,5,7,1,2026-03-29T14:15:15.904130+05:30
Pondicherry,Puducherry,11.9139,79.8145,35.0,51,0.0,1005.8,9.0,32.4,57,19.4,14.6,0,5,4,1,2026-03-29T14:15:15.904137+05:30
Port Blair,Andaman and Nicobar Islands,11.6234,92.7265,28.2,79,0.0,1005.2,8.85,15.5,63,23.9,19.1,7,5,4,1,2026-03-29T14:15:15.904144+05:30
Haridwar,Uttarakhand,29.9457,78.1642,27.2,52,0.0,974.7,6.05,34.6,89,82.4,21.0,4,5,7,1,2026-03-29T14:15:15.904151+05:30
Rishikesh,Uttarakhand,30.0869,78.2676,28.3,50,0.0,967.4,4.45,29.5,75,48.5,15.0,4,5,3,1,2026-03-29T14:15:15.904158+05:30
Nainital,Uttarakhand,29.3919,79.4542,21.5,67,0.0,807.1,7.1,58.7,78,36.3,16.4,3,5,7,0,2026-03-29T14:15:15.904165+05:30
Mussoorie,Uttarakhand,30.4599,78.0664,17.9,80,0.0,803.1,4.4,23.8,89,38.3,20.8,3,5,3,0,2026-03-29T14:15:15.904173+05:30
Dharamshala,Himachal Pradesh,32.219,76.3234,19.8,72,0.0,868.9,6.95,26.6,53,8.5,2.6,3,5,7,0,2026-03-29T14:15:15.904180+05:30
Dalhousie,Himachal Pradesh,32.5387,75.971,17.3,62,0.0,803.5,7.4,27.0,80,22.6,7.3,3,5,7,0,2026-03-29T14:15:15.904187+05:30
Patiala,Punjab,30.3398,76.3869,27.3,55,0.0,977.9,6.6,35.6,113,186.7,37.8,4,5,7,1,2026-03-29T14:15:15.904194+05:30
Bhatinda,Punjab,30.211,74.9455,31.7,44,0.0,981.5,7.25,38.5,89,239.3,49.0,0,5,7,1,2026-03-29T14:15:15.904201+05:30
Rohtak,Haryana,28.8955,76.6066,31.5,45,0.0,980.1,6.25,31.7,171,597.9,76.6,0,5,7,1,2026-03-29T14:15:15.904207+05:30
Panipat,Haryana,29.3909,76.9635,29.6,47,0.0,979.3,6.1,30.2,294,730.2,88.7,4,5,7,1,2026-03-29T14:15:15.904214+05:30
Mathura,Uttar Pradesh,27.4924,77.6737,36.1,28,0.0,984.1,7.0,26.6,301,562.5,65.2,0,5,10,0,2026-03-29T14:15:15.904220+05:30
Vrindavan,Uttar Pradesh,27.5823,77.7027,35.7,31,0.0,984.5,6.9,29.5,301,562.5,65.2,0,5,10,0,2026-03-29T14:15:15.904227+05:30
Ayodhya,Uttar Pradesh,26.7922,82.1998,33.7,35,0.0,994.1,7.35,20.9,139,100.1,33.8,0,5,7,1,2026-03-29T14:15:15.904234+05:30
Ratlam,Madhya Pradesh,23.3315,75.0367,32.8,39,0.0,953.9,8.1,33.8,36,20.2,6.9,0,5,7,1,2026-03-29T14:15:15.904240+05:30
Sagar,Madhya Pradesh,23.8388,78.7378,36.4,23,0.0,948.6,8.2,33.1,42,15.3,4.7,0,5,10,0,2026-03-29T14:15:15.904247+05:30
Satna,Madhya Pradesh,24.6005,80.8322,37.7,22,0.0,968.8,8.15,36.0,64,35.6,11.5,0,5,10,0,2026-03-29T14:15:15.904254+05:30
Akola,Maharashtra,20.7002,77.0082,37.3,30,0.0,973.4,8.5,27.4,45,26.5,9.9,0,5,10,1,2026-03-29T14:15:15.904261+05:30
Amravati,Maharashtra,20.9374,77.7796,37.7,26,0.0,965.5,8.5,27.4,41,23.1,10.2,0,5,10,0,2026-03-29T14:15:15.904267+05:30
Latur,Maharashtra,18.4088,76.5604,35.6,21,0.0,938.6,8.85,28.4,54,20.6,13.8,0,5,10,0,2026-03-29T14:15:15.904274+05:30
Nanded,Maharashtra,19.1383,77.3091,38.8,19,0.0,966.8,8.7,18.4,58,18.9,13.2,0,5,10,0,2026-03-29T14:15:15.904281+05:30
Gulbarga,Karnataka,17.3297,76.8343,38.3,18,0.0,956.7,8.9,32.0,65,24.6,19.6,0,5,10,0,2026-03-29T14:15:15.904287+05:30
Bidar,Karnataka,17.9104,77.5199,36.5,20,0.0,934.2,8.9,30.2,78,24.8,20.5,0,5,10,0,2026-03-29T14:15:15.904293+05:30
Hospet,Karnataka,15.2689,76.3909,35.7,23,0.0,954.3,9.1,18.7,98,15.6,11.7,0,5,10,0,2026-03-29T14:15:15.904299+05:30
Tirupur,Tamil Nadu,11.1085,77.3411,38.5,23,0.0,972.2,9.45,39.2,108,42.1,34.7,0,5,10,0,2026-03-29T14:15:15.904306+05:30
Alappuzha,Kerala,9.4981,76.3388,29.5,80,0.0,1005.9,8.85,25.6,87,32.0,27.7,7,5,4,1,2026-03-29T14:15:15.904312+05:30
Munnar,Kerala,10.0889,77.0595,27.0,60,0.0,856.9,8.8,33.1,87,27.9,22.1,4,5,7,1,2026-03-29T14:15:15.904319+05:30
Silchar,Assam,24.8333,92.7789,24.7,80,0.0,1005.3,8.2,34.9,145,72.2,44.8,3,5,4,1,2026-03-29T14:15:15.904325+05:30
Dibrugarh,Assam,27.4728,94.912,23.3,75,0.0,996.4,7.45,16.9,84,29.6,21.8,3,5,7,1,2026-03-29T14:15:15.904332+05:30
