city,state,latitude,longitude,temp,humidity,rain,pressure,uv_index,wind_gusts,aqi,pm10,pm2_5,mosquito_risk,arthritis_risk,migraine_risk,frizz_risk,updated_at
Delhi,Delhi,28.6139,77.209,19.1,72,0.0,986.8,6.2,33.1,153,72.4,37.4,3,5,7,0,2026-03-19T04:06:02.312150+05:30
Mumbai,Maharashtra,19.076,72.8777,27.2,75,0.0,1010.0,7.75,22.7,74,30.4,19.6,7,0,4,1,2026-03-19T04:06:02.312188+05:30
Bangalore,Karnataka,12.9716,77.5946,18.3,86,0.0,912.0,9.35,22.7,85,38.5,35.6,3,10,7,0,2026-03-19T04:06:02.312204+05:30
Hyderabad,Telangana,17.385,78.4867,21.0,82,0.0,954.8,8.3,16.6,89,29.2,24.4,3,5,7,1,2026-03-19T04:06:02.312214+05:30
Chennai,Tamil Nadu,13.0827,80.2707,24.7,90,0.0,1009.4,9.1,28.4,37,14.5,11.6,3,0,4,1,2026-03-19T04:06:02.312223+05:30
Kolkata,West Bengal,22.5726,88.3639,22.7,91,0.0,1008.6,8.15,36.0,62,15.2,12.6,3,0,4,1,2026-03-19T04:06:02.312232+05:30
Pune,Maharashtra,18.5204,73.8567,21.4,86,0.0,949.7,8.3,36.0,99,55.5,49.0,3,5,7,1,2026-03-19T04:06:02.312244+05:30
Ahmedabad,Gujarat,23.0225,72.5714,23.0,62,0.0,1003.3,7.15,51.1,67,15.8,13.9,3,5,4,0,2026-03-19T04:06:02.312251+05:30
Jaipur,Rajasthan,26.9124,75.7873,21.1,69,0.0,961.8,6.95,31.7,179,222.6,53.7,3,5,7,0,2026-03-19T04:06:02.312259+05:30
Lucknow,Uttar Pradesh,26.8467,80.9462,21.8,62,0.0,996.0,6.8,32.8,99,91.3,42.4,3,5,7,0,2026-03-19T04:06:02.312266+05:30
Kanpur,Uttar Pradesh,26.4499,80.3319,20.9,69,0.0,994.2,6.85,30.2,103,106.9,43.3,3,5,7,0,2026-03-19T04:06:02.312273+05:30
Chandigarh,Chandigarh,30.7333,76.7794,16.5,85,0.0,972.8,3.35,20.2,66,49.2,19.0,3,10,3,0,2026-03-19T04:06:02.312281+05:30
Srinagar,Jammu and Kashmir,34.0837,74.7973,5.2,90,0.1,841.9,1.25,19.8,110,35.2,29.1,6,10,3,0,2026-03-19T04:06:02.312288+05:30
Jammu,Jammu and Kashmir,32.7266,74.857,16.0,77,0.0,977.9,2.55,26.3,67,16.3,11.3,3,5,3,0,2026-03-19T04:06:02.312295+05:30
Amritsar,Punjab,31.634,74.8723,15.4,79,0.0,985.6,2.05,22.7,92,40.4,21.5,3,5,3,0,2026-03-19T04:06:02.312302+05:30
Ludhiana,Punjab,30.901,75.8573,16.9,73,0.0,983.4,1.65,18.4,99,60.1,25.7,3,5,3,0,2026-03-19T04:06:02.312308+05:30
Jalandhar,Punjab,31.326,75.5762,15.9,74,0.0,984.7,2.1,23.4,97,65.4,27.0,3,5,3,0,2026-03-19T04:06:02.312317+05:30
Dehradun,Uttarakhand,30.6284,78.0322,10.3,67,0.0,830.4,3.75,29.5,41,36.8,10.4,3,5,3,0,2026-03-19T04:06:02.312324+05:30
Shimla,Himachal Pradesh,31.1048,77.1734,8.5,68,0.0,783.3,3.4,32.4,43,19.9,6.8,3,5,3,0,2026-03-19T04:06:02.312330+05:30
Manali,Himachal Pradesh,32.2396,77.1887,9.4,97,0.3,817.6,5.65,23.0,42,7.8,4.1,6,10,3,0,2026-03-19T04:06:02.312337+05:30
Gurgaon,Haryana,28.4595,77.0266,18.5,78,0.0,984.8,6.05,29.9,273,82.4,43.1,3,5,7,0,2026-03-19T04:06:02.312344+05:30
Noida,Uttar Pradesh,28.5355,77.391,19.1,72,0.0,988.4,6.3,32.8,273,82.4,43.1,3,5,7,0,2026-03-19T04:06:02.312350+05:30
Ghaziabad,Uttar Pradesh,28.6692,77.4538,18.6,73,0.0,986.7,6.25,34.2,149,66.4,33.3,3,5,7,0,2026-03-19T04:06:02.312357+05:30
Faridabad,Haryana,28.4089,77.3178,19.3,71,0.0,987.4,6.35,33.5,273,82.4,43.1,3,5,7,0,2026-03-19T04:06:02.312366+05:30
Meerut,Uttar Pradesh,28.9845,77.7064,17.4,81,0.0,985.5,5.7,34.6,149,66.4,33.3,3,10,3,0,2026-03-19T04:06:02.312372+05:30
Agra,Uttar Pradesh,27.1767,78.0081,20.0,76,0.0,991.4,6.65,31.0,447,476.8,79.2,3,5,7,0,2026-03-19T04:06:02.312381+05:30
Varanasi,Uttar Pradesh,25.3176,82.9739,22.3,79,0.0,999.5,7.5,18.4,102,79.6,65.9,3,5,7,1,2026-03-19T04:06:02.312391+05:30
Prayagraj,Uttar Pradesh,25.4358,81.8463,22.3,75,0.0,998.2,7.35,13.3,108,74.0,52.9,3,5,7,1,2026-03-19T04:06:02.312397+05:30
Gorakhpur,Uttar Pradesh,26.7606,83.3732,17.0,77,0.0,999.4,7.2,13.7,118,111.8,68.2,3,5,7,0,2026-03-19T04:06:02.312403+05:30
Bareilly,Uttar Pradesh,28.367,79.4304,19.7,65,0.0,990.0,5.75,34.9,109,71.2,34.2,3,5,3,0,2026-03-19T04:06:02.312410+05:30
Aligarh,Uttar Pradesh,27.8974,78.088,19.9,65,0.0,989.6,6.35,32.8,142,590.5,76.4,3,5,7,0,2026-03-19T04:06:02.312416+05:30
Moradabad,Uttar Pradesh,28.8386,78.7733,19.4,58,0.0,987.8,5.5,46.1,142,81.5,34.8,0,5,3,0,2026-03-19T04:06:02.312421+05:30
Saharanpur,Uttar Pradesh,29.9637,77.546,15.7,86,0.0,980.1,2.15,18.7,96,37.1,20.1,3,10,3,0,2026-03-19T04:06:02.312427+05:30
Jhansi,Uttar Pradesh,25.4484,78.5685,21.8,67,0.0,979.7,7.3,33.1,76,81.7,32.0,3,5,7,0,2026-03-19T04:06:05.560427+05:30
Surat,Gujarat,21.1702,72.8311,25.0,81,0.0,1008.2,7.45,38.5,78,25.6,19.6,7,0,4,1,2026-03-19T04:06:05.560461+05:30
Vadodara,Gujarat,22.3072,73.1812,22.0,90,0.0,1005.6,7.4,53.6,65,22.6,17.2,3,5,4,1,2026-03-19T04:06:05.560473+05:30
Rajkot,Gujarat,22.3039,70.8022,24.0,83,0.0,995.6,7.2,43.6,36,18.9,11.2,3,5,7,1,2026-03-19T04:06:05.560483+05:30
Thane,Maharashtra,19.2183,72.9781,24.9,82,0.0,1009.6,7.75,37.1,74,30.4,19.6,3,0,4,1,2026-03-19T04:06:05.560492+05:30
Nagpur,Maharashtra,21.1458,79.0882,22.5,73,0.0,975.4,8.05,28.1,95,39.8,35.7,3,5,7,1,2026-03-19T04:06:05.560501+05:30
Nashik,Maharashtra,19.9975,73.7898,20.9,92,0.0,946.7,7.95,38.5,58,27.1,19.3,3,5,7,1,2026-03-19T04:06:05.560509+05:30
Aurangabad,Maharashtra,19.8762,75.3433,22.1,64,0.0,945.4,8.45,27.7,73,29.3,24.3,3,5,7,0,2026-03-19T04:06:05.560517+05:30
Solapur,Maharashtra,17.6599,75.9064,21.5,74,0.0,958.6,8.65,18.0,89,30.3,27.6,3,5,7,1,2026-03-19T04:06:05.560525+05:30
Kolhapur,Maharashtra,16.705,74.2433,17.8,87,0.0,948.5,8.8,41.8,114,71.2,61.0,3,10,7,0,2026-03-19T04:06:05.560534+05:30
Goa,Goa,15.2993,74.124,24.3,86,0.0,999.4,8.6,29.5,84,49.8,32.1,3,5,7,1,2026-03-19T04:06:05.560542+05:30
Jodhpur,Rajasthan,26.2389,73.0243,23.1,50,0.0,985.1,6.5,29.5,63,55.3,16.6,0,5,7,0,2026-03-19T04:06:05.560550+05:30
Udaipur,Rajasthan,24.5854,73.7125,20.4,53,0.0,947.4,7.6,40.7,39,25.5,8.8,0,5,7,0,2026-03-19T04:06:05.560558+05:30
Kota,Rajasthan,25.2138,75.8648,21.8,61,0.0,980.2,7.25,36.7,77,54.1,30.2,3,5,7,0,2026-03-19T04:06:05.560567+05:30
Bikaner,Rajasthan,28.0229,73.3119,20.6,83,0.0,984.1,6.7,27.4,65,44.0,20.8,3,5,7,1,2026-03-19T04:06:05.560575+05:30
Ajmer,Rajasthan,26.4499,74.6399,22.2,58,0.0,956.3,5.55,30.2,89,100.1,30.5,0,5,3,0,2026-03-19T04:06:05.560583+05:30
Gwalior,Madhya Pradesh,26.2183,78.1828,21.5,76,0.0,986.1,6.75,33.5,117,415.4,88.9,3,5,7,1,2026-03-19T04:06:05.560591+05:30
Indore,Madhya Pradesh,22.7196,75.8577,20.8,51,0.0,948.6,7.8,36.4,55,12.5,12.5,0,5,7,0,2026-03-19T04:06:05.560609+05:30
Bhopal,Madhya Pradesh,23.2599,77.4126,20.7,52,0.0,954.4,7.8,30.2,66,28.1,26.5,0,5,7,0,2026-03-19T04:06:05.560628+05:30
Jabalpur,Madhya Pradesh,23.1815,79.9864,22.9,59,0.0,962.8,7.9,28.8,68,33.2,28.5,0,5,7,0,2026-03-19T04:06:05.560645+05:30
Ujjain,Madhya Pradesh,23.1765,75.7885,20.4,61,0.0,954.4,7.75,29.2,55,12.7,12.7,3,5,7,0,2026-03-19T04:06:05.560659+05:30
Visakhapatnam,Andhra Pradesh,17.6868,83.2185,24.4,89,0.0,1006.5,8.3,33.1,54,26.5,23.0,3,5,4,1,2026-03-19T04:06:05.560673+05:30
Vijayawada,Andhra Pradesh,16.5062,80.648,24.1,92,0.0,1005.3,8.8,19.8,59,25.9,23.2,3,5,4,1,2026-03-19T04:06:05.560687+05:30
Guntur,Andhra Pradesh,16.3067,80.4365,24.3,94,0.0,1006.4,8.7,21.6,59,26.0,23.3,3,5,4,1,2026-03-19T04:06:05.560701+05:30
Nellore,Andhra Pradesh,14.4426,79.9865,24.8,88,0.0,1008.5,9.0,22.7,34,9.9,7.6,3,0,4,1,2026-03-19T04:06:05.560718+05:30
Kurnool,Andhra Pradesh,15.8281,78.0373,23.3,78,0.0,978.8,8.8,16.9,62,16.2,13.1,3,5,7,1,2026-03-19T04:06:05.560732+05:30
Kakinada,Andhra Pradesh,16.9891,82.2475,22.8,97,0.0,1010.2,8.55,24.1,39,14.8,11.4,3,0,4,1,2026-03-19T04:06:05.560739+05:30
Tirupati,Andhra Pradesh,13.6288,79.4192,22.0,90,0.0,994.0,9.1,28.1,63,20.4,18.6,3,5,7,1,2026-03-19T04:06:05.560744+05:30
Warangal,Telangana,17.9689,79.5941,23.0,84,0.0,981.1,8.3,22.0,116,99.4,86.1,3,5,7,1,2026-03-19T04:06:05.560751+05:30
Nizamabad,Telangana,18.6725,78.0941,21.8,78,0.0,966.8,8.5,34.2,119,56.6,48.7,3,5,7,1,2026-03-19T04:06:05.560757+05:30
Mysore,Karnataka,12.2958,76.6396,20.2,91,0.0,929.3,9.35,33.8,90,45.6,41.3,3,5,7,1,2026-03-19T04:06:05.560763+05:30
Mangalore,Karnataka,12.9141,74.856,27.3,81,0.0,1008.0,8.95,23.8,73,22.7,20.0,7,0,4,1,2026-03-19T04:06:05.560769+05:30
Hubli-Dharwad,Karnataka,15.3647,75.124,17.9,89,0.0,942.0,8.95,30.6,101,39.3,34.3,3,10,7,0,2026-03-19T04:06:05.560776+05:30
Belgaum,Karnataka,15.8497,74.4977,18.6,86,0.0,926.8,9.05,37.4,100,59.1,48.4,3,10,7,1,2026-03-19T04:06:08.813261+05:30
Coimbatore,Tamil Nadu,11.0168,76.9558,21.4,95,0.0,963.1,9.3,39.6,69,21.2,20.1,3,5,7,1,2026-03-19T04:06:08.813293+05:30
Madurai,Tamil Nadu,9.9252,78.1198,22.3,85,0.0,994.7,9.05,26.6,53,11.1,9.9,3,5,7,1,2026-03-19T04:06:08.813303+05:30
Trichy,Tamil Nadu,10.7905,78.7047,23.5,90,0.0,1002.1,9.2,25.6,53,14.0,13.1,3,5,4,1,2026-03-19T04:06:08.813311+05:30
Salem,Tamil Nadu,11.6643,78.146,22.0,87,0.0,979.7,9.25,20.2,75,27.1,25.0,3,5,7,1,2026-03-19T04:06:08.813318+05:30
Tirunelveli,Tamil Nadu,8.7139,77.7567,23.4,95,0.0,1004.6,9.2,21.6,67,21.6,21.1,3,5,4,1,2026-03-19T04:06:08.813326+05:30
Vellore,Tamil Nadu,12.9165,79.1325,21.9,94,0.0,987.1,9.2,25.2,58,18.7,16.8,3,5,7,1,2026-03-19T04:06:08.813333+05:30
Erode,Tamil Nadu,11.341,77.7172,22.4,85,0.0,991.4,9.25,28.8,54,14.9,13.5,3,5,7,1,2026-03-19T04:06:08.813339+05:30
Kochi,Kerala,9.9312,76.2673,26.5,83,0.0,1009.9,9.15,24.8,66,21.1,20.8,7,0,4,1,2026-03-19T04:06:08.813347+05:30
Thiruvananthapuram,Kerala,8.5241,76.9366,27.0,82,0.0,1008.9,8.1,24.1,49,8.3,6.4,7,0,4,1,2026-03-19T04:06:08.813354+05:30
Kozhikode,Kerala,11.2588,75.7804,26.3,83,0.0,1009.5,9.05,27.4,66,18.2,16.3,7,0,4,1,2026-03-19T04:06:08.813361+05:30
Thrissur,Kerala,10.5276,76.2144,24.7,92,0.0,1008.6,9.1,30.6,64,14.5,13.8,3,0,4,1,2026-03-19T04:06:08.813368+05:30
Kannur,Kerala,11.8745,75.3704,25.6,86,0.0,1008.7,9.05,31.3,70,20.9,18.8,7,0,4,1,2026-03-19T04:06:08.813376+05:30
Patna,Bihar,25.5941,85.1376,23.3,77,0.0,1002.5,7.25,27.7,153,130.4,105.5,3,5,4,1,2026-03-19T04:06:08.813383+05:30
Gaya,Bihar,24.7914,85.0002,22.3,81,0.0,995.7,7.1,34.6,107,51.5,42.0,3,5,7,1,2026-03-19T04:06:08.813390+05:30
Muzaffarpur,Bihar,26.1209,85.3647,20.5,84,0.0,1002.8,7.15,23.8,155,143.4,116.6,3,5,4,1,2026-03-19T04:06:08.813396+05:30
Bhagalpur,Bihar,25.2425,87.0117,22.6,90,0.0,1003.6,7.7,29.9,125,39.3,38.3,3,5,4,1,2026-03-19T04:06:08.813402+05:30
Ranchi,Jharkhand,23.3441,85.3096,20.9,67,0.0,939.5,7.15,40.7,96,43.7,36.9,3,5,7,0,2026-03-19T04:06:08.813408+05:30
Jamshedpur,Jharkhand,22.8046,86.2029,24.2,74,0.0,993.4,7.0,34.2,136,66.8,58.3,3,5,7,1,2026-03-19T04:06:08.813414+05:30
Dhanbad,Jharkhand,23.7957,86.4304,23.4,80,0.0,982.2,7.3,30.2,155,102.0,94.1,3,5,7,1,2026-03-19T04:06:08.813421+05:30
Bokaro,Jharkhand,23.6693,86.1511,22.9,63,0.0,986.3,7.15,27.7,148,73.6,66.6,3,5,7,0,2026-03-19T04:06:08.813427+05:30
Bhubaneswar,Odisha,20.2961,85.8245,24.1,95,0.0,1005.5,7.65,23.0,70,22.8,20.0,3,5,4,1,2026-03-19T04:06:08.813434+05:30
Cuttack,Odisha,20.4625,85.8828,23.7,94,0.0,1007.5,7.8,22.7,70,22.8,20.0,3,5,4,1,2026-03-19T04:06:08.813440+05:30
Rourkela,Odisha,22.2604,84.8536,23.7,76,0.0,988.0,5.4,27.0,127,52.7,44.7,3,5,3,1,2026-03-19T04:06:08.813446+05:30
Raipur,Chhattisgarh,21.2514,81.6296,23.0,64,0.0,977.1,7.6,29.9,111,59.6,53.9,3,5,7,0,2026-03-19T04:06:08.813452+05:30
Bhilai,Chhattisgarh,21.1938,81.3509,21.9,72,0.0,977.3,8.1,29.5,116,65.0,58.3,3,5,7,1,2026-03-19T04:06:08.813458+05:30
Guwahati,Assam,26.1158,91.7086,21.1,90,0.0,1006.5,7.55,27.0,125,43.2,36.6,3,5,4,1,2026-03-19T04:06:08.813464+05:30
Agartala,Tripura,23.8315,91.2868,21.8,95,0.0,1009.8,7.95,22.0,76,32.8,31.0,3,0,4,1,2026-03-19T04:06:08.813471+05:30
Shillong,Meghalaya,25.5788,91.8933,12.7,90,0.0,857.4,7.05,44.3,81,38.6,29.5,3,10,7,0,2026-03-19T04:06:08.813477+05:30
Imphal,Manipur,24.817,93.9368,14.8,82,0.0,925.3,8.25,48.2,87,51.8,42.8,3,10,7,0,2026-03-19T04:06:08.813484+05:30
Aizawl,Mizoram,23.7271,92.7176,15.7,88,0.0,893.9,8.15,34.2,72,28.9,26.1,3,10,7,0,2026-03-19T04:06:08.813491+05:30
Kohima,Nagaland,25.6701,94.1077,13.0,75,0.0,855.9,8.0,74.2,78,48.8,33.8,3,5,7,0,2026-03-19T04:06:08.813497+05:30
Gangtok,Sikkim,27.3314,88.6138,11.1,75,0.0,837.1,7.65,22.0,93,65.9,38.2,3,5,7,0,2026-03-19T04:06:08.813503+05:30
Siliguri,West Bengal,26.7271,88.3953,18.3,86,0.0,997.9,7.6,24.8,119,87.1,64.7,3,10,7,0,2026-03-19T04:06:12.069638+05:30
Durgapur,West Bengal,23.5204,87.3119,22.9,92,0.0,997.7,7.55,37.1,141,57.5,53.4,3,5,7,1,2026-03-19T04:06:12.069672+05:30
Asansol,West Bengal,23.6739,86.9524,23.5,88,0.0,996.4,7.35,31.7,151,75.4,68.9,3,5,7,1,2026-03-19T04:06:12.069684+05:30
Pondicherry,Puducherry,11.9139,79.8145,23.9,94,0.0,1011.2,9.1,29.5,37,12.5,9.4,3,0,4,1,2026-03-19T04:06:12.069693+05:30
Port Blair,Andaman and Nicobar Islands,11.6234,92.7265,27.3,82,0.0,1007.6,9.05,18.4,47,16.9,13.0,7,5,4,1,2026-03-19T04:06:12.069703+05:30
Haridwar,Uttarakhand,29.9457,78.1642,17.5,77,0.2,979.5,2.2,24.8,68,42.3,22.1,6,5,3,0,2026-03-19T04:06:12.069713+05:30
Rishikesh,Uttarakhand,30.0869,78.2676,16.7,76,0.0,972.4,3.4,28.8,61,64.3,24.2,3,5,3,0,2026-03-19T04:06:12.069722+05:30
Nainital,Uttarakhand,29.3919,79.4542,15.9,49,0.0,807.3,4.25,68.0,69,62.2,33.1,0,5,3,0,2026-03-19T04:06:12.069730+05:30
Mussoorie,Uttarakhand,30.4599,78.0664,11.5,60,0.0,803.0,4.0,36.4,61,48.0,18.2,0,5,3,0,2026-03-19T04:06:12.069739+05:30
Dharamshala,Himachal Pradesh,32.219,76.3234,13.9,62,0.4,870.8,4.5,29.9,42,8.0,3.8,6,5,3,0,2026-03-19T04:06:12.069747+05:30
Dalhousie,Himachal Pradesh,32.5387,75.971,10.2,68,0.0,803.5,2.1,29.5,60,20.8,11.1,3,5,3,0,2026-03-19T04:06:12.069757+05:30
Patiala,Punjab,30.3398,76.3869,16.9,80,0.0,982.4,1.7,17.3,121,58.9,23.5,3,5,3,0,2026-03-19T04:06:12.069765+05:30
Bhatinda,Punjab,30.211,74.9455,15.8,84,0.0,987.9,1.8,22.0,93,68.7,27.0,3,10,3,0,2026-03-19T04:06:12.069773+05:30
Rohtak,Haryana,28.8955,76.6066,17.3,85,0.0,985.3,3.3,24.8,159,88.2,44.2,3,10,3,0,2026-03-19T04:06:12.069781+05:30
Panipat,Haryana,29.3909,76.9635,16.8,85,0.0,984.2,3.3,23.4,161,60.3,31.7,3,10,3,0,2026-03-19T04:06:12.069789+05:30
Mathura,Uttar Pradesh,27.4924,77.6737,19.6,75,0.0,990.7,6.55,27.4,152,56.5,40.3,3,5,7,0,2026-03-19T04:06:12.069797+05:30
Vrindavan,Uttar Pradesh,27.5823,77.7027,19.7,72,0.0,991.3,6.55,29.5,152,56.5,40.3,3,5,7,0,2026-03-19T04:06:12.069805+05:30
Ayodhya,Uttar Pradesh,26.7922,82.1998,19.5,63,0.0,997.9,7.0,27.7,108,97.8,60.5,3,5,7,0,2026-03-19T04:06:12.069813+05:30
Ratlam,Madhya Pradesh,23.3315,75.0367,22.6,57,0.0,955.2,7.7,50.0,49,12.6,12.5,0,5,7,0,2026-03-19T04:06:12.069821+05:30
Sagar,Madhya Pradesh,23.8388,78.7378,23.8,43,0.0,951.0,7.75,36.4,47,15.4,14.1,0,5,7,0,2026-03-19T04:06:12.069829+05:30
Satna,Madhya Pradesh,24.6005,80.8322,22.8,56,0.0,972.8,7.7,29.9,58,52.7,30.4,0,5,7,0,2026-03-19T04:06:12.069838+05:30
Akola,Maharashtra,20.7002,77.0082,23.0,64,0.0,977.0,8.2,26.3,97,39.5,34.9,3,5,7,0,2026-03-19T04:06:12.069846+05:30
Amravati,Maharashtra,20.9374,77.7796,22.9,73,0.0,969.4,8.15,21.6,99,42.7,37.3,3,5,7,1,2026-03-19T04:06:12.069855+05:30
Latur,Maharashtra,18.4088,76.5604,20.1,79,0.0,941.3,8.55,29.9,98,30.4,28.6,3,5,7,1,2026-03-19T04:06:12.069863+05:30
Nanded,Maharashtra,19.1383,77.3091,22.4,73,0.0,970.7,8.4,39.2,102,44.5,39.9,3,5,7,1,2026-03-19T04:06:12.069871+05:30
Gulbarga,Karnataka,17.3297,76.8343,22.2,78,0.0,960.7,8.65,52.6,97,37.7,33.2,3,5,7,1,2026-03-19T04:06:12.069878+05:30
Bidar,Karnataka,17.9104,77.5199,21.3,76,0.0,936.8,8.6,28.1,100,41.9,36.8,3,5,7,1,2026-03-19T04:06:12.069886+05:30
Hospet,Karnataka,15.2689,76.3909,21.8,85,0.0,957.5,8.9,16.6,88,48.9,42.8,3,5,7,1,2026-03-19T04:06:12.069893+05:30
Tirupur,Tamil Nadu,11.1085,77.3411,22.6,83,0.0,977.1,9.35,27.4,62,17.9,16.5,3,5,7,1,2026-03-19T04:06:12.069901+05:30
Alappuzha,Kerala,9.4981,76.3388,26.5,84,0.0,1009.9,9.1,25.2,60,16.5,15.3,7,0,4,1,2026-03-19T04:06:12.069909+05:30
Munnar,Kerala,10.0889,77.0595,18.4,96,0.0,856.2,9.6,40.0,69,19.3,18.7,3,10,7,1,2026-03-19T04:06:12.069918+05:30
Silchar,Assam,24.8333,92.7789,20.7,92,0.0,1008.9,7.9,21.6,90,54.4,44.5,3,0,4,1,2026-03-19T04:06:12.069926+05:30
Dibrugarh,Assam,27.4728,94.912,19.0,90,0.0,1001.3,7.45,22.7,84,47.4,35.0,3,10,4,1,2026-03-19T04:06:12.069934+05:30
