city,state,latitude,longitude,temp,humidity,rain,pressure,uv_index,wind_gusts,aqi,pm10,pm2_5,mosquito_risk,arthritis_risk,migraine_risk,frizz_risk,updated_at
Delhi,Delhi,28.6139,77.209,26.4,60,0.0,986.8,5.5,34.9,179,161.1,40.3,4,5,3,1,2026-04-04T11:29:06.890666+05:30
Mumbai,Maharashtra,19.076,72.8777,27.9,70,0.0,1011.5,7.9,19.8,74,36.7,20.3,7,0,4,1,2026-04-04T11:29:06.890705+05:30
Bangalore,Karnataka,12.9716,77.5946,26.9,62,0.0,914.1,9.1,25.9,80,25.3,22.9,7,5,7,1,2026-04-04T11:29:06.890718+05:30
Hyderabad,Telangana,17.385,78.4867,32.9,41,0.0,955.8,7.85,30.6,71,16.9,13.6,0,5,7,1,2026-04-04T11:29:06.890727+05:30
Chennai,Tamil Nadu,13.0827,80.2707,34.4,49,0.0,1008.8,8.8,33.8,47,20.3,16.1,0,0,4,1,2026-04-04T11:29:06.890734+05:30
Kolkata,West Bengal,22.5726,88.3639,33.9,62,0.0,1006.1,8.55,20.2,79,51.3,46.1,3,5,4,1,2026-04-04T11:29:06.890741+05:30
Pune,Maharashtra,18.5204,73.8567,32.5,31,0.0,951.2,8.5,40.0,97,37.1,17.1,0,5,7,0,2026-04-04T11:29:06.890749+05:30
Ahmedabad,Gujarat,23.0225,72.5714,30.5,34,0.0,1006.0,7.6,24.5,56,28.6,12.5,0,5,4,0,2026-04-04T11:29:06.890755+05:30
Jaipur,Rajasthan,26.9124,75.7873,27.9,46,0.0,962.8,7.4,30.6,88,87.8,24.9,4,5,7,0,2026-04-04T11:29:06.890762+05:30
Lucknow,Uttar Pradesh,26.8467,80.9462,33.8,37,0.0,995.7,6.35,37.1,153,235.2,70.3,0,5,7,1,2026-04-04T11:29:06.890768+05:30
Kanpur,Uttar Pradesh,26.4499,80.3319,30.8,56,0.0,994.5,6.5,31.0,265,439.6,96.9,0,5,7,1,2026-04-04T11:29:06.890773+05:30
Chandigarh,Chandigarh,30.7333,76.7794,27.1,51,0.0,972.7,5.9,36.7,100,132.7,30.5,4,5,3,1,2026-04-04T11:29:06.890779+05:30
Srinagar,Jammu and Kashmir,34.0837,74.7973,11.0,89,0.0,841.7,5.35,26.3,69,9.3,8.2,3,10,3,0,2026-04-04T11:29:06.890785+05:30
Jammu,Jammu and Kashmir,32.7266,74.857,20.1,80,0.0,977.6,6.8,30.6,59,35.7,10.7,3,5,7,1,2026-04-04T11:29:06.890791+05:30
Amritsar,Punjab,31.634,74.8723,21.6,77,0.0,985.5,6.15,21.2,80,149.9,31.9,3,5,7,1,2026-04-04T11:29:06.890796+05:30
Ludhiana,Punjab,30.901,75.8573,25.2,60,0.0,983.3,5.9,28.1,136,172.3,45.1,4,5,3,1,2026-04-04T11:29:06.890802+05:30
Jalandhar,Punjab,31.326,75.5762,23.2,71,0.0,984.7,6.45,25.2,104,161.1,40.3,3,5,7,1,2026-04-04T11:29:06.890809+05:30
Dehradun,Uttarakhand,30.6284,78.0322,17.0,65,0.0,833.9,4.35,35.3,45,16.2,5.1,3,5,3,0,2026-04-04T11:29:06.890815+05:30
Shimla,Himachal Pradesh,31.1048,77.1734,15.5,67,0.0,787.4,4.5,50.4,57,17.9,5.5,3,5,3,0,2026-04-04T11:29:06.890821+05:30
Manali,Himachal Pradesh,32.2396,77.1887,15.2,66,0.0,820.9,7.3,30.2,48,11.5,3.8,3,5,7,0,2026-04-04T11:29:06.890826+05:30
Gurgaon,Haryana,28.4595,77.0266,27.0,59,0.0,985.2,5.45,34.2,491,431.2,64.5,4,5,3,1,2026-04-04T11:29:06.890832+05:30
Noida,Uttar Pradesh,28.5355,77.391,26.3,62,0.0,988.2,5.5,31.7,491,431.2,64.5,7,5,3,1,2026-04-04T11:29:06.890837+05:30
Ghaziabad,Uttar Pradesh,28.6692,77.4538,25.6,66,0.0,986.4,5.55,27.0,195,182.5,44.0,7,5,3,1,2026-04-04T11:29:06.890844+05:30
Faridabad,Haryana,28.4089,77.3178,27.1,58,0.0,987.4,5.7,35.3,491,431.2,64.5,4,5,3,1,2026-04-04T11:29:06.890849+05:30
Meerut,Uttar Pradesh,28.9845,77.7064,25.5,72,0.0,985.2,5.85,32.4,195,182.5,44.0,7,5,3,1,2026-04-04T11:29:06.890854+05:30
Agra,Uttar Pradesh,27.1767,78.0081,29.1,49,0.0,991.2,6.55,34.6,636,462.9,66.6,4,5,7,1,2026-04-04T11:29:06.890860+05:30
Varanasi,Uttar Pradesh,25.3176,82.9739,34.1,48,0.0,999.0,6.05,33.1,77,97.3,32.7,0,5,7,1,2026-04-04T11:29:06.890867+05:30
Prayagraj,Uttar Pradesh,25.4358,81.8463,34.2,43,0.0,997.8,5.45,32.8,74,278.5,63.8,0,5,3,1,2026-04-04T11:29:06.890872+05:30
Gorakhpur,Uttar Pradesh,26.7606,83.3732,36.5,27,0.0,997.6,6.8,45.7,80,73.3,31.2,0,5,10,0,2026-04-04T11:29:06.890877+05:30
Bareilly,Uttar Pradesh,28.367,79.4304,27.6,61,0.0,990.6,5.3,30.6,128,61.5,36.3,7,5,3,1,2026-04-04T11:29:06.890882+05:30
Aligarh,Uttar Pradesh,27.8974,78.088,27.7,56,0.0,989.2,5.3,29.2,593,351.1,57.7,4,5,3,1,2026-04-04T11:29:06.890888+05:30
Moradabad,Uttar Pradesh,28.8386,78.7733,26.1,72,0.0,987.6,5.75,30.6,152,93.6,46.2,7,5,3,1,2026-04-04T11:29:06.890893+05:30
Saharanpur,Uttar Pradesh,29.9637,77.546,27.7,55,0.0,980.0,6.15,38.5,157,206.8,54.1,4,5,7,1,2026-04-04T11:29:06.890898+05:30
Jhansi,Uttar Pradesh,25.4484,78.5685,30.7,46,0.0,981.0,6.6,38.2,64,283.1,52.7,0,5,7,1,2026-04-04T11:29:10.182877+05:30
Surat,Gujarat,21.1702,72.8311,28.8,63,0.0,1010.3,7.6,25.6,82,45.4,24.9,7,0,4,1,2026-04-04T11:29:10.182907+05:30
Vadodara,Gujarat,22.3072,73.1812,30.9,45,0.0,1008.0,7.6,25.9,74,37.7,16.7,0,0,4,1,2026-04-04T11:29:10.182915+05:30
Rajkot,Gujarat,22.3039,70.8022,28.7,52,0.0,998.1,7.55,32.0,48,39.2,15.1,4,5,7,1,2026-04-04T11:29:10.182921+05:30
Thane,Maharashtra,19.2183,72.9781,30.5,58,0.0,1010.9,7.9,35.6,74,36.7,20.3,0,0,4,1,2026-04-04T11:29:10.182927+05:30
Nagpur,Maharashtra,21.1458,79.0882,28.9,54,0.0,976.8,8.15,29.5,87,39.6,32.5,4,5,7,1,2026-04-04T11:29:10.182933+05:30
Nashik,Maharashtra,19.9975,73.7898,27.8,55,0.0,948.8,8.15,37.8,58,25.5,11.1,4,5,7,1,2026-04-04T11:29:10.182938+05:30
Aurangabad,Maharashtra,19.8762,75.3433,31.6,36,0.0,947.1,8.85,35.6,70,44.0,17.0,0,5,7,0,2026-04-04T11:29:10.182944+05:30
Solapur,Maharashtra,17.6599,75.9064,31.7,48,0.0,959.8,8.9,22.7,80,47.8,39.9,0,5,7,1,2026-04-04T11:29:10.182950+05:30
Kolhapur,Maharashtra,16.705,74.2433,30.9,39,0.0,950.7,8.95,41.0,102,32.5,28.0,0,5,7,0,2026-04-04T11:29:10.182955+05:30
Goa,Goa,15.2993,74.124,31.8,51,0.0,1000.4,8.25,33.8,71,24.5,19.3,0,5,4,1,2026-04-04T11:29:10.182960+05:30
Jodhpur,Rajasthan,26.2389,73.0243,28.6,38,0.0,986.3,7.35,28.8,105,69.8,15.5,4,5,7,0,2026-04-04T11:29:10.182965+05:30
Udaipur,Rajasthan,24.5854,73.7125,26.3,45,0.0,949.4,7.6,37.4,56,29.8,9.7,4,5,7,0,2026-04-04T11:29:10.182971+05:30
Kota,Rajasthan,25.2138,75.8648,31.1,40,0.0,981.7,7.8,40.7,65,56.1,21.0,0,5,7,0,2026-04-04T11:29:10.182977+05:30
Bikaner,Rajasthan,28.0229,73.3119,28.2,32,0.0,985.2,7.0,29.9,73,155.1,25.0,4,5,7,0,2026-04-04T11:29:10.182982+05:30
Ajmer,Rajasthan,26.4499,74.6399,26.1,58,0.0,957.7,7.45,36.7,75,59.6,18.8,4,5,7,1,2026-04-04T11:29:10.182987+05:30
Gwalior,Madhya Pradesh,26.2183,78.1828,29.3,49,0.0,986.3,7.15,33.1,98,342.7,58.4,4,5,7,1,2026-04-04T11:29:10.182993+05:30
Indore,Madhya Pradesh,22.7196,75.8577,29.2,47,0.0,951.4,8.3,43.9,64,46.7,18.1,4,5,7,1,2026-04-04T11:29:10.182998+05:30
Bhopal,Madhya Pradesh,23.2599,77.4126,32.0,37,0.0,956.8,8.25,40.0,65,31.8,16.3,0,5,7,0,2026-04-04T11:29:10.183003+05:30
Jabalpur,Madhya Pradesh,23.1815,79.9864,29.3,50,0.0,965.4,6.45,30.6,79,28.3,24.5,4,5,7,1,2026-04-04T11:29:10.183008+05:30
Ujjain,Madhya Pradesh,23.1765,75.7885,28.7,49,0.0,957.1,8.2,37.4,64,40.9,15.4,4,5,7,1,2026-04-04T11:29:10.183014+05:30
Visakhapatnam,Andhra Pradesh,17.6868,83.2185,33.4,56,0.0,1005.2,8.25,38.2,61,23.1,20.1,0,5,4,1,2026-04-04T11:29:10.183020+05:30
Vijayawada,Andhra Pradesh,16.5062,80.648,32.1,60,0.0,1004.9,9.0,19.8,44,15.0,11.2,0,5,4,1,2026-04-04T11:29:10.183025+05:30
Guntur,Andhra Pradesh,16.3067,80.4365,32.5,55,0.0,1006.0,8.85,26.3,41,12.5,9.9,0,5,4,1,2026-04-04T11:29:10.183030+05:30
Nellore,Andhra Pradesh,14.4426,79.9865,33.5,51,0.0,1007.3,8.55,31.3,44,18.2,16.5,0,5,4,1,2026-04-04T11:29:10.183036+05:30
Kurnool,Andhra Pradesh,15.8281,78.0373,34.5,42,0.0,978.5,8.0,22.0,61,15.6,14.6,0,5,7,1,2026-04-04T11:29:10.183042+05:30
Kakinada,Andhra Pradesh,16.9891,82.2475,33.6,53,0.0,1009.1,8.8,33.5,27,11.5,9.2,0,0,4,1,2026-04-04T11:29:10.183047+05:30
Tirupati,Andhra Pradesh,13.6288,79.4192,34.5,47,0.0,993.1,8.5,23.4,55,22.4,21.2,0,5,7,1,2026-04-04T11:29:10.183052+05:30
Warangal,Telangana,17.9689,79.5941,32.1,54,0.0,981.4,8.05,28.8,75,29.2,25.0,0,5,7,1,2026-04-04T11:29:10.183056+05:30
Nizamabad,Telangana,18.6725,78.0941,29.1,57,0.0,968.1,8.55,27.0,120,46.8,37.5,4,5,7,1,2026-04-04T11:29:10.183061+05:30
Mysore,Karnataka,12.2958,76.6396,28.6,58,0.0,930.9,9.05,31.7,67,22.6,20.1,4,5,7,1,2026-04-04T11:29:10.183065+05:30
Mangalore,Karnataka,12.9141,74.856,28.4,78,0.0,1009.3,8.2,19.8,63,17.5,14.1,7,0,4,1,2026-04-04T11:29:10.183070+05:30
Hubli-Dharwad,Karnataka,15.3647,75.124,30.9,48,0.0,943.5,8.6,37.1,72,25.1,21.1,0,5,7,1,2026-04-04T11:29:10.183075+05:30
Belgaum,Karnataka,15.8497,74.4977,29.7,46,0.0,928.6,9.15,35.6,82,23.5,18.7,4,5,7,1,2026-04-04T11:29:13.476066+05:30
Coimbatore,Tamil Nadu,11.0168,76.9558,30.4,57,0.0,964.2,9.15,48.6,71,17.9,16.4,0,5,7,1,2026-04-04T11:29:13.476096+05:30
Madurai,Tamil Nadu,9.9252,78.1198,33.7,49,0.0,994.8,8.7,26.3,61,22.8,21.1,0,5,7,1,2026-04-04T11:29:13.476105+05:30
Trichy,Tamil Nadu,10.7905,78.7047,33.2,54,0.0,1001.5,9.3,18.7,50,19.0,17.8,0,5,4,1,2026-04-04T11:29:13.476111+05:30
Salem,Tamil Nadu,11.6643,78.146,32.9,52,0.0,979.3,8.65,29.9,55,25.5,23.6,0,5,7,1,2026-04-04T11:29:13.476117+05:30
Tirunelveli,Tamil Nadu,8.7139,77.7567,33.8,48,0.0,1004.7,8.45,21.2,65,13.3,11.9,0,5,4,1,2026-04-04T11:29:13.476122+05:30
Vellore,Tamil Nadu,12.9165,79.1325,32.3,53,0.0,986.4,8.7,26.6,69,21.7,20.2,0,5,7,1,2026-04-04T11:29:13.476128+05:30
Erode,Tamil Nadu,11.341,77.7172,34.3,48,0.0,990.6,8.95,24.1,67,25.5,23.3,0,5,7,1,2026-04-04T11:29:13.476134+05:30
Kochi,Kerala,9.9312,76.2673,27.9,83,0.0,1011.0,8.9,20.5,68,18.0,16.5,7,0,4,1,2026-04-04T11:29:13.476140+05:30
Thiruvananthapuram,Kerala,8.5241,76.9366,28.3,82,0.0,1010.0,8.05,26.3,60,18.5,15.7,7,0,4,1,2026-04-04T11:29:13.476146+05:30
Kozhikode,Kerala,11.2588,75.7804,29.0,73,0.0,1010.1,8.25,24.5,48,10.9,9.6,7,0,4,1,2026-04-04T11:29:13.476151+05:30
Thrissur,Kerala,10.5276,76.2144,30.9,65,0.0,1009.2,8.3,28.1,61,13.3,12.1,3,0,4,1,2026-04-04T11:29:13.476157+05:30
Kannur,Kerala,11.8745,75.3704,29.4,73,0.0,1009.6,7.6,23.0,59,16.5,13.6,7,0,4,1,2026-04-04T11:29:13.476163+05:30
Patna,Bihar,25.5941,85.1376,35.7,36,0.0,1000.7,7.95,39.6,77,84.1,31.4,0,5,7,1,2026-04-04T11:29:13.476168+05:30
Gaya,Bihar,24.7914,85.0002,35.8,32,0.0,994.8,8.45,27.4,78,90.8,26.9,0,5,10,1,2026-04-04T11:29:13.476173+05:30
Muzaffarpur,Bihar,26.1209,85.3647,35.5,37,0.0,1000.2,7.9,40.3,77,69.8,32.2,0,5,7,1,2026-04-04T11:29:13.476179+05:30
Bhagalpur,Bihar,25.2425,87.0117,33.8,47,0.0,1001.2,8.25,31.7,82,64.0,28.3,0,5,4,1,2026-04-04T11:29:13.476184+05:30
Ranchi,Jharkhand,23.3441,85.3096,33.1,32,0.0,940.4,8.2,41.0,80,24.9,20.4,0,5,7,0,2026-04-04T11:29:13.476190+05:30
Jamshedpur,Jharkhand,22.8046,86.2029,35.7,36,0.0,991.9,8.5,20.5,108,37.5,32.6,0,5,10,1,2026-04-04T11:29:13.476195+05:30
Dhanbad,Jharkhand,23.7957,86.4304,36.6,24,0.0,980.9,8.65,25.9,103,26.4,18.7,0,5,10,0,2026-04-04T11:29:13.476206+05:30
Bokaro,Jharkhand,23.6693,86.1511,35.8,30,0.0,985.0,8.55,28.8,103,28.2,20.2,0,5,10,0,2026-04-04T11:29:13.476212+05:30
Bhubaneswar,Odisha,20.2961,85.8245,36.0,48,0.0,1003.3,8.95,25.2,69,45.2,38.5,0,5,7,1,2026-04-04T11:29:13.476218+05:30
Cuttack,Odisha,20.4625,85.8828,36.5,47,0.0,1005.1,9.0,32.8,69,45.2,38.5,0,5,7,1,2026-04-04T11:29:13.476223+05:30
Rourkela,Odisha,22.2604,84.8536,36.1,36,0.0,986.5,8.35,39.6,114,45.6,39.5,0,5,10,1,2026-04-04T11:29:13.476229+05:30
Raipur,Chhattisgarh,21.2514,81.6296,32.6,43,0.0,977.9,8.15,41.4,114,41.3,35.4,0,5,7,1,2026-04-04T11:29:13.476234+05:30
Bhilai,Chhattisgarh,21.1938,81.3509,32.2,46,0.0,978.2,8.2,37.8,95,38.3,32.4,0,5,7,1,2026-04-04T11:29:13.476240+05:30
Guwahati,Assam,26.1158,91.7086,28.4,74,0.0,1001.2,8.25,38.2,132,50.2,40.2,7,5,4,1,2026-04-04T11:29:13.476245+05:30
Agartala,Tripura,23.8315,91.2868,32.5,65,0.0,1006.2,8.45,28.1,66,31.0,26.3,3,5,4,1,2026-04-04T11:29:13.476250+05:30
Shillong,Meghalaya,25.5788,91.8933,22.4,49,0.0,858.4,8.4,56.5,93,38.0,29.2,0,5,7,0,2026-04-04T11:29:13.476255+05:30
Imphal,Manipur,24.817,93.9368,22.7,77,0.0,924.7,8.75,78.1,133,32.9,25.0,3,5,7,1,2026-04-04T11:29:13.476261+05:30
Aizawl,Mizoram,23.7271,92.7176,26.5,62,0.0,895.4,8.6,55.1,109,33.1,23.6,7,5,7,1,2026-04-04T11:29:13.476266+05:30
Kohima,Nagaland,25.6701,94.1077,22.6,57,0.0,857.1,8.3,79.9,116,35.9,26.5,0,5,7,0,2026-04-04T11:29:13.476271+05:30
Gangtok,Sikkim,27.3314,88.6138,21.0,75,0.0,838.9,8.4,17.6,129,46.2,34.3,3,5,7,1,2026-04-04T11:29:13.476288+05:30
Siliguri,West Bengal,26.7271,88.3953,26.4,73,0.0,993.6,8.2,27.0,161,83.4,61.0,7,5,7,1,2026-04-04T11:29:16.769315+05:30
Durgapur,West Bengal,23.5204,87.3119,36.0,31,0.0,995.8,8.55,16.2,136,28.5,20.7,0,5,10,1,2026-04-04T11:29:16.769348+05:30
Asansol,West Bengal,23.6739,86.9524,35.9,31,0.0,994.2,8.7,17.6,105,27.2,19.0,0,5,10,1,2026-04-04T11:29:16.769356+05:30
Pondicherry,Puducherry,11.9139,79.8145,33.9,56,0.0,1009.9,8.8,21.6,48,13.0,11.9,0,0,4,1,2026-04-04T11:29:16.769363+05:30
Port Blair,Andaman and Nicobar Islands,11.6234,92.7265,28.6,73,0.0,1007.9,8.75,16.9,42,18.9,10.4,7,5,4,1,2026-04-04T11:29:16.769369+05:30
Haridwar,Uttarakhand,29.9457,78.1642,25.8,62,0.0,978.7,5.0,34.6,101,118.3,34.7,7,5,3,1,2026-04-04T11:29:16.769375+05:30
Rishikesh,Uttarakhand,30.0869,78.2676,26.2,56,0.0,971.6,4.5,31.0,70,19.1,6.1,4,5,3,1,2026-04-04T11:29:16.769381+05:30
Nainital,Uttarakhand,29.3919,79.4542,21.2,48,0.0,811.0,4.25,39.2,65,26.8,12.2,0,5,3,0,2026-04-04T11:29:16.769387+05:30
Mussoorie,Uttarakhand,30.4599,78.0664,17.9,61,0.0,806.7,4.95,46.4,69,22.9,9.5,3,5,3,0,2026-04-04T11:29:16.769393+05:30
Dharamshala,Himachal Pradesh,32.219,76.3234,16.6,85,0.7,871.7,5.8,49.3,44,15.5,4.6,6,10,3,0,2026-04-04T11:29:16.769399+05:30
Dalhousie,Himachal Pradesh,32.5387,75.971,12.1,86,0.0,804.4,5.65,52.6,60,32.9,13.1,3,10,3,0,2026-04-04T11:29:16.769405+05:30
Patiala,Punjab,30.3398,76.3869,27.2,50,0.0,982.4,4.7,25.2,189,378.1,60.3,4,5,3,0,2026-04-04T11:29:16.769411+05:30
Bhatinda,Punjab,30.211,74.9455,24.6,67,0.0,987.9,6.9,45.0,77,65.7,21.5,3,5,7,1,2026-04-04T11:29:16.769416+05:30
Rohtak,Haryana,28.8955,76.6066,27.8,53,0.0,985.7,6.3,31.0,148,137.4,33.6,4,5,7,1,2026-04-04T11:29:16.769422+05:30
Panipat,Haryana,29.3909,76.9635,28.2,49,0.0,984.4,5.2,28.8,367,271.9,43.7,4,5,3,1,2026-04-04T11:29:16.769427+05:30
Mathura,Uttar Pradesh,27.4924,77.6737,28.0,53,0.0,990.5,5.15,38.5,389,380.9,54.5,4,5,3,1,2026-04-04T11:29:16.769432+05:30
Vrindavan,Uttar Pradesh,27.5823,77.7027,28.6,51,0.0,991.0,5.25,29.5,389,380.9,54.5,4,5,3,1,2026-04-04T11:29:16.769437+05:30
Ayodhya,Uttar Pradesh,26.7922,82.1998,35.3,33,0.0,996.5,7.2,40.3,101,145.8,53.3,0,5,10,1,2026-04-04T11:29:16.769442+05:30
Ratlam,Madhya Pradesh,23.3315,75.0367,27.2,56,0.0,957.8,8.1,36.7,59,37.1,14.5,4,5,7,1,2026-04-04T11:29:16.769447+05:30
Sagar,Madhya Pradesh,23.8388,78.7378,32.9,30,0.0,953.5,7.2,39.6,59,25.1,18.9,0,5,7,0,2026-04-04T11:29:16.769452+05:30
Satna,Madhya Pradesh,24.6005,80.8322,33.8,41,0.0,973.9,5.05,37.1,72,45.1,26.4,0,5,3,1,2026-04-04T11:29:16.769457+05:30
Akola,Maharashtra,20.7002,77.0082,32.4,42,0.0,978.1,7.95,25.6,89,33.8,26.5,0,5,7,1,2026-04-04T11:29:16.769463+05:30
Amravati,Maharashtra,20.9374,77.7796,32.9,38,0.0,970.5,7.7,24.5,93,29.6,24.9,0,5,7,1,2026-04-04T11:29:16.769469+05:30
Latur,Maharashtra,18.4088,76.5604,29.7,49,0.0,942.9,8.85,29.5,93,43.7,37.3,4,5,7,1,2026-04-04T11:29:16.769474+05:30
Nanded,Maharashtra,19.1383,77.3091,31.0,52,0.0,971.9,8.15,19.8,90,40.3,32.7,0,5,7,1,2026-04-04T11:29:16.769479+05:30
Gulbarga,Karnataka,17.3297,76.8343,32.8,44,0.0,961.2,8.9,32.0,76,29.0,23.6,0,5,7,1,2026-04-04T11:29:16.769483+05:30
Bidar,Karnataka,17.9104,77.5199,30.1,49,0.0,938.5,8.55,31.3,90,41.1,33.4,0,5,7,1,2026-04-04T11:29:16.769488+05:30
Hospet,Karnataka,15.2689,76.3909,30.3,55,0.0,958.1,7.95,33.5,71,29.7,25.9,0,5,7,1,2026-04-04T11:29:16.769492+05:30
Tirupur,Tamil Nadu,11.1085,77.3411,33.4,47,0.0,977.1,8.8,39.6,75,24.9,23.0,0,5,7,1,2026-04-04T11:29:16.769497+05:30
Alappuzha,Kerala,9.4981,76.3388,28.3,80,0.0,1011.1,9.05,22.0,65,18.8,17.2,7,0,4,1,2026-04-04T11:29:16.769502+05:30
Munnar,Kerala,10.0889,77.0595,25.9,68,0.0,860.3,6.2,32.8,57,14.4,13.3,7,5,7,1,2026-04-04T11:29:16.769507+05:30
Silchar,Assam,24.8333,92.7789,27.1,80,0.0,1006.3,8.45,37.4,136,40.6,30.0,7,5,4,1,2026-04-04T11:29:16.769512+05:30
Dibrugarh,Assam,27.4728,94.912,26.6,78,0.0,995.9,8.3,14.4,108,46.4,34.7,7,5,7,1,2026-04-04T11:29:16.769517+05:30
