city,state,latitude,longitude,temp,humidity,rain,pressure,uv_index,wind_gusts,aqi,pm10,pm2_5,mosquito_risk,arthritis_risk,migraine_risk,frizz_risk,updated_at
Delhi,Delhi,28.6139,77.209,18.8,69,0.0,987.2,5.75,37.4,225,347.4,88.9,3,5,3,0,2026-03-03T00:24:27.611704+05:30
Mumbai,Maharashtra,19.076,72.8777,26.7,77,0.0,1011.3,7.3,25.6,89,38.2,31.3,7,0,4,1,2026-03-03T00:24:27.611738+05:30
Bangalore,Karnataka,12.9716,77.5946,22.2,57,0.0,913.0,9.05,28.8,130,47.0,46.3,0,5,7,0,2026-03-03T00:24:27.611753+05:30
Hyderabad,Telangana,17.385,78.4867,24.9,65,0.0,955.5,8.3,14.8,141,61.9,61.2,3,5,7,1,2026-03-03T00:24:27.611762+05:30
Chennai,Tamil Nadu,13.0827,80.2707,24.8,82,0.0,1009.8,8.8,30.2,124,46.9,42.8,3,0,4,1,2026-03-03T00:24:27.611770+05:30
Kolkata,West Bengal,22.5726,88.3639,24.3,69,0.0,1008.7,7.65,16.6,157,136.9,125.3,3,0,4,1,2026-03-03T00:24:27.611778+05:30
Pune,Maharashtra,18.5204,73.8567,23.0,72,0.0,950.7,7.85,26.3,104,42.3,40.0,3,5,7,1,2026-03-03T00:24:27.611790+05:30
Ahmedabad,Gujarat,23.0225,72.5714,25.4,57,0.0,1006.4,7.1,15.5,100,67.1,56.2,4,5,4,1,2026-03-03T00:24:27.611797+05:30
Jaipur,Rajasthan,26.9124,75.7873,23.0,42,0.0,964.2,6.5,30.2,101,80.6,47.1,0,5,7,0,2026-03-03T00:24:27.611806+05:30
Lucknow,Uttar Pradesh,26.8467,80.9462,19.7,70,0.0,997.2,6.25,37.4,151,263.6,71.5,3,5,7,0,2026-03-03T00:24:27.611814+05:30
Kanpur,Uttar Pradesh,26.4499,80.3319,18.8,82,0.0,995.6,6.25,32.0,158,328.8,68.9,3,10,7,0,2026-03-03T00:24:27.611821+05:30
Chandigarh,Chandigarh,30.7333,76.7794,17.7,62,0.0,972.3,5.65,38.9,82,31.2,29.3,3,5,3,0,2026-03-03T00:24:27.611829+05:30
Srinagar,Jammu and Kashmir,34.0837,74.7973,4.5,61,0.0,840.6,6.55,18.4,147,102.7,90.6,3,5,7,1,2026-03-03T00:24:27.611835+05:30
Jammu,Jammu and Kashmir,32.7266,74.857,19.1,60,0.0,976.5,6.25,26.3,99,56.2,53.0,0,5,7,0,2026-03-03T00:24:27.611842+05:30
Amritsar,Punjab,31.634,74.8723,16.7,73,0.0,985.0,6.1,25.2,135,34.7,28.2,3,5,7,0,2026-03-03T00:24:27.611848+05:30
Ludhiana,Punjab,30.901,75.8573,18.7,62,0.0,983.1,5.85,32.4,156,73.1,58.8,3,5,3,0,2026-03-03T00:24:27.611854+05:30
Jalandhar,Punjab,31.326,75.5762,19.5,60,0.0,984.2,6.0,30.2,157,82.9,55.5,0,5,3,0,2026-03-03T00:24:27.611862+05:30
Dehradun,Uttarakhand,30.6284,78.0322,11.5,67,0.0,829.8,6.0,27.0,59,30.4,25.7,3,5,3,0,2026-03-03T00:24:27.611869+05:30
Shimla,Himachal Pradesh,31.1048,77.1734,8.0,60,0.0,783.0,6.0,56.5,73,37.8,30.3,0,5,3,0,2026-03-03T00:24:27.611875+05:30
Manali,Himachal Pradesh,32.2396,77.1887,14.0,16,0.0,819.9,7.7,36.7,72,20.0,16.6,0,5,7,1,2026-03-03T00:24:27.611882+05:30
Gurgaon,Haryana,28.4595,77.0266,16.4,79,0.0,985.6,5.85,35.3,907,925.7,142.0,3,5,3,0,2026-03-03T00:24:27.611889+05:30
Noida,Uttar Pradesh,28.5355,77.391,19.0,68,0.0,988.8,5.75,37.1,907,925.7,142.0,3,5,3,0,2026-03-03T00:24:27.611896+05:30
Ghaziabad,Uttar Pradesh,28.6692,77.4538,18.8,69,0.0,986.8,5.75,36.0,187,357.6,88.9,3,5,3,0,2026-03-03T00:24:27.611902+05:30
Faridabad,Haryana,28.4089,77.3178,19.2,62,0.0,988.0,5.8,33.1,907,925.7,142.0,3,5,3,0,2026-03-03T00:24:27.611909+05:30
Meerut,Uttar Pradesh,28.9845,77.7064,16.7,74,0.0,985.3,5.6,38.9,187,357.6,88.9,3,5,3,0,2026-03-03T00:24:27.611914+05:30
Agra,Uttar Pradesh,27.1767,78.0081,19.0,72,0.0,992.0,6.1,35.3,368,676.1,112.9,3,5,7,0,2026-03-03T00:24:27.611921+05:30
Varanasi,Uttar Pradesh,25.3176,82.9739,18.8,67,0.0,1001.3,6.9,31.7,92,51.2,34.7,3,5,4,0,2026-03-03T00:24:27.611929+05:30
Prayagraj,Uttar Pradesh,25.4358,81.8463,18.9,69,0.0,999.9,6.75,29.9,102,68.5,39.2,3,5,7,0,2026-03-03T00:24:27.611936+05:30
Gorakhpur,Uttar Pradesh,26.7606,83.3732,17.2,63,0.0,1000.3,6.6,25.2,124,71.2,46.1,3,5,4,0,2026-03-03T00:24:27.611942+05:30
Bareilly,Uttar Pradesh,28.367,79.4304,17.0,70,0.0,990.1,5.9,31.3,134,192.8,57.7,3,5,3,0,2026-03-03T00:24:27.611948+05:30
Aligarh,Uttar Pradesh,27.8974,78.088,17.5,73,0.0,989.7,5.85,34.2,549,704.1,126.2,3,5,3,0,2026-03-03T00:24:27.611955+05:30
Moradabad,Uttar Pradesh,28.8386,78.7733,16.7,69,0.0,987.0,5.75,35.6,143,202.6,66.6,3,5,3,0,2026-03-03T00:24:27.611960+05:30
Saharanpur,Uttar Pradesh,29.9637,77.546,16.7,70,0.0,978.7,5.4,52.9,112,73.6,43.1,3,5,3,0,2026-03-03T00:24:27.611966+05:30
Jhansi,Uttar Pradesh,25.4484,78.5685,19.6,64,0.0,981.9,6.7,29.2,76,40.7,30.6,3,5,7,0,2026-03-03T00:24:30.957606+05:30
Surat,Gujarat,21.1702,72.8311,24.0,75,0.0,1010.1,7.0,23.0,153,91.7,85.0,3,0,4,1,2026-03-03T00:24:30.957634+05:30
Vadodara,Gujarat,22.3072,73.1812,24.4,53,0.0,1008.0,7.1,13.0,151,86.6,78.7,0,0,4,0,2026-03-03T00:24:30.957642+05:30
Rajkot,Gujarat,22.3039,70.8022,23.4,69,0.0,998.7,6.9,21.2,65,40.6,28.3,3,5,7,1,2026-03-03T00:24:30.957650+05:30
Thane,Maharashtra,19.2183,72.9781,24.7,85,0.0,1010.8,7.3,35.6,89,38.2,31.3,3,0,4,1,2026-03-03T00:24:30.957657+05:30
Nagpur,Maharashtra,21.1458,79.0882,23.8,59,0.0,976.2,7.7,20.9,70,28.8,25.6,0,5,7,0,2026-03-03T00:24:30.957663+05:30
Nashik,Maharashtra,19.9975,73.7898,23.5,64,0.0,948.5,7.5,28.1,91,37.7,33.8,3,5,7,1,2026-03-03T00:24:30.957669+05:30
Aurangabad,Maharashtra,19.8762,75.3433,24.6,56,0.0,946.5,8.0,21.2,92,39.8,38.9,0,5,7,0,2026-03-03T00:24:30.957676+05:30
Solapur,Maharashtra,17.6599,75.9064,25.3,64,0.0,958.6,8.25,14.0,128,45.4,45.2,7,5,7,1,2026-03-03T00:24:30.957682+05:30
Kolhapur,Maharashtra,16.705,74.2433,20.7,87,0.0,949.6,8.35,37.4,107,47.0,45.5,3,5,7,1,2026-03-03T00:24:30.957688+05:30
Goa,Goa,15.2993,74.124,26.6,79,0.0,1000.1,8.4,29.9,73,37.3,27.2,7,5,4,1,2026-03-03T00:24:30.957694+05:30
Jodhpur,Rajasthan,26.2389,73.0243,23.8,46,0.0,987.7,6.75,12.6,89,74.3,35.3,0,5,7,0,2026-03-03T00:24:30.957700+05:30
Udaipur,Rajasthan,24.5854,73.7125,21.4,56,0.0,951.0,7.4,15.5,73,37.1,28.0,0,5,7,0,2026-03-03T00:24:30.957706+05:30
Kota,Rajasthan,25.2138,75.8648,20.6,69,0.0,982.9,6.8,17.6,91,55.3,39.6,3,5,7,0,2026-03-03T00:24:30.957711+05:30
Bikaner,Rajasthan,28.0229,73.3119,23.8,54,0.0,986.9,6.5,20.2,72,45.5,25.3,0,5,7,0,2026-03-03T00:24:30.957717+05:30
Ajmer,Rajasthan,26.4499,74.6399,22.5,44,0.0,958.9,6.75,22.0,82,69.8,28.8,0,5,7,0,2026-03-03T00:24:30.957723+05:30
Gwalior,Madhya Pradesh,26.2183,78.1828,22.2,61,0.0,987.6,6.4,31.0,95,180.7,54.0,3,5,7,0,2026-03-03T00:24:30.957728+05:30
Indore,Madhya Pradesh,22.7196,75.8577,20.5,59,0.0,951.3,7.4,14.4,91,42.8,34.6,0,5,7,0,2026-03-03T00:24:30.957734+05:30
Bhopal,Madhya Pradesh,23.2599,77.4126,23.0,51,0.0,957.3,7.25,20.5,79,40.6,31.0,0,5,7,0,2026-03-03T00:24:30.957740+05:30
Jabalpur,Madhya Pradesh,23.1815,79.9864,22.2,43,0.0,964.8,7.35,20.9,73,34.8,24.6,0,5,7,0,2026-03-03T00:24:30.957745+05:30
Ujjain,Madhya Pradesh,23.1765,75.7885,22.4,56,0.0,957.2,7.25,11.5,113,47.6,40.4,0,5,7,0,2026-03-03T00:24:30.957751+05:30
Visakhapatnam,Andhra Pradesh,17.6868,83.2185,25.0,79,0.0,1005.7,8.35,37.8,141,42.4,39.3,7,5,4,1,2026-03-03T00:24:30.957757+05:30
Vijayawada,Andhra Pradesh,16.5062,80.648,24.4,81,0.0,1005.1,8.4,24.1,142,43.2,41.6,3,5,4,1,2026-03-03T00:24:30.957763+05:30
Guntur,Andhra Pradesh,16.3067,80.4365,23.9,86,0.0,1006.4,8.4,30.2,136,40.6,39.2,3,5,4,1,2026-03-03T00:24:30.957769+05:30
Nellore,Andhra Pradesh,14.4426,79.9865,23.7,87,0.0,1008.5,8.65,29.5,123,38.5,36.1,3,0,4,1,2026-03-03T00:24:30.957775+05:30
Kurnool,Andhra Pradesh,15.8281,78.0373,28.1,46,0.0,978.4,8.45,26.3,127,45.5,45.2,4,5,7,0,2026-03-03T00:24:30.957781+05:30
Kakinada,Andhra Pradesh,16.9891,82.2475,22.8,91,0.0,1009.9,8.35,29.2,131,44.4,40.3,3,0,4,1,2026-03-03T00:24:30.957787+05:30
Tirupati,Andhra Pradesh,13.6288,79.4192,24.1,61,0.0,994.2,8.75,32.4,141,68.9,67.1,3,5,7,1,2026-03-03T00:24:30.957793+05:30
Warangal,Telangana,17.9689,79.5941,26.9,55,0.0,980.7,8.15,17.3,131,48.9,48.3,4,5,7,1,2026-03-03T00:24:30.957799+05:30
Nizamabad,Telangana,18.6725,78.0941,23.9,58,0.0,966.8,8.05,25.6,104,50.2,49.1,0,5,7,0,2026-03-03T00:24:30.957805+05:30
Mysore,Karnataka,12.2958,76.6396,23.0,80,0.0,929.3,9.1,25.6,145,57.6,56.8,3,5,7,1,2026-03-03T00:24:30.957810+05:30
Mangalore,Karnataka,12.9141,74.856,28.4,78,0.0,1008.5,8.65,27.4,57,23.6,16.5,7,0,4,1,2026-03-03T00:24:30.957816+05:30
Hubli-Dharwad,Karnataka,15.3647,75.124,22.1,85,0.0,942.1,8.6,27.0,83,33.5,31.7,3,5,7,1,2026-03-03T00:24:30.957822+05:30
Belgaum,Karnataka,15.8497,74.4977,21.0,85,0.0,927.0,8.65,38.2,87,23.5,19.0,3,5,7,1,2026-03-03T00:24:34.300396+05:30
Coimbatore,Tamil Nadu,11.0168,76.9558,23.8,87,0.0,963.7,9.1,29.5,143,60.3,59.1,3,5,7,1,2026-03-03T00:24:34.300419+05:30
Madurai,Tamil Nadu,9.9252,78.1198,24.9,77,0.0,995.4,9.05,32.8,122,49.4,48.2,3,5,7,1,2026-03-03T00:24:34.300429+05:30
Trichy,Tamil Nadu,10.7905,78.7047,22.8,85,0.0,1002.0,8.95,32.0,140,45.2,43.4,3,5,4,1,2026-03-03T00:24:34.300438+05:30
Salem,Tamil Nadu,11.6643,78.146,25.3,64,0.0,979.0,9.0,31.0,139,58.4,57.4,7,5,7,1,2026-03-03T00:24:34.300446+05:30
Tirunelveli,Tamil Nadu,8.7139,77.7567,24.0,87,0.0,1005.4,9.05,38.2,132,50.5,48.9,3,5,4,1,2026-03-03T00:24:34.300454+05:30
Vellore,Tamil Nadu,12.9165,79.1325,22.7,76,0.0,987.2,8.85,36.7,149,71.0,69.2,3,5,7,1,2026-03-03T00:24:34.300461+05:30
Erode,Tamil Nadu,11.341,77.7172,26.4,69,0.0,990.9,9.0,23.0,123,45.9,45.1,7,5,7,1,2026-03-03T00:24:34.300468+05:30
Kochi,Kerala,9.9312,76.2673,27.7,81,0.0,1010.4,8.9,35.6,96,54.1,53.6,7,0,4,1,2026-03-03T00:24:34.300476+05:30
Thiruvananthapuram,Kerala,8.5241,76.9366,27.6,80,0.0,1009.5,8.85,27.7,108,31.3,28.8,7,0,4,1,2026-03-03T00:24:34.300483+05:30
Kozhikode,Kerala,11.2588,75.7804,28.4,77,0.0,1009.2,8.75,31.7,58,22.9,18.1,7,0,4,1,2026-03-03T00:24:34.300490+05:30
Thrissur,Kerala,10.5276,76.2144,26.1,90,0.0,1008.7,8.85,38.5,94,53.7,51.0,7,0,4,1,2026-03-03T00:24:34.300498+05:30
Kannur,Kerala,11.8745,75.3704,27.3,79,0.0,1008.6,8.75,34.9,59,19.3,15.8,7,0,4,1,2026-03-03T00:24:34.300506+05:30
Patna,Bihar,25.5941,85.1376,19.5,56,0.0,1003.8,7.05,28.8,120,67.3,52.6,0,5,4,0,2026-03-03T00:24:34.300514+05:30
Gaya,Bihar,24.7914,85.0002,19.1,53,0.0,997.3,7.15,23.8,110,54.6,36.3,0,5,7,0,2026-03-03T00:24:34.300522+05:30
Muzaffarpur,Bihar,26.1209,85.3647,18.0,62,0.0,1003.5,7.0,27.0,119,76.6,61.2,3,5,4,0,2026-03-03T00:24:34.300529+05:30
Bhagalpur,Bihar,25.2425,87.0117,20.2,57,0.0,1004.5,7.1,19.4,135,89.4,45.4,0,5,4,0,2026-03-03T00:24:34.300536+05:30
Ranchi,Jharkhand,23.3441,85.3096,18.2,37,0.0,940.3,7.8,40.3,78,44.4,24.3,0,5,7,0,2026-03-03T00:24:34.300544+05:30
Jamshedpur,Jharkhand,22.8046,86.2029,21.6,50,0.0,993.8,7.75,18.7,117,66.8,41.1,0,5,7,0,2026-03-03T00:24:34.300551+05:30
Dhanbad,Jharkhand,23.7957,86.4304,21.6,36,0.0,983.2,7.6,33.8,117,61.9,39.9,0,5,7,0,2026-03-03T00:24:34.300558+05:30
Bokaro,Jharkhand,23.6693,86.1511,18.9,51,0.0,987.5,7.6,37.1,120,63.6,43.8,0,5,7,0,2026-03-03T00:24:34.300566+05:30
Bhubaneswar,Odisha,20.2961,85.8245,24.6,88,0.0,1004.4,8.05,25.2,150,71.5,67.5,3,5,4,1,2026-03-03T00:24:34.300573+05:30
Cuttack,Odisha,20.4625,85.8828,24.8,86,0.0,1006.4,8.1,21.2,150,71.5,67.5,3,5,4,1,2026-03-03T00:24:34.300580+05:30
Rourkela,Odisha,22.2604,84.8536,22.9,44,0.0,988.0,7.65,24.8,96,50.1,36.4,0,5,7,0,2026-03-03T00:24:34.300587+05:30
Raipur,Chhattisgarh,21.2514,81.6296,23.9,53,0.0,977.3,7.75,24.1,96,77.8,66.8,0,5,7,0,2026-03-03T00:24:34.300594+05:30
Bhilai,Chhattisgarh,21.1938,81.3509,22.5,62,0.0,977.5,7.8,22.7,93,79.9,69.8,3,5,7,0,2026-03-03T00:24:34.300601+05:30
Guwahati,Assam,26.1158,91.7086,21.3,83,0.0,1005.3,7.0,28.4,151,74.0,63.1,3,5,4,1,2026-03-03T00:24:34.300608+05:30
Agartala,Tripura,23.8315,91.2868,21.1,92,0.0,1008.7,7.3,18.0,153,115.3,105.2,3,0,4,1,2026-03-03T00:24:34.300616+05:30
Shillong,Meghalaya,25.5788,91.8933,7.7,87,0.0,854.5,7.35,66.2,112,51.6,44.0,3,10,7,0,2026-03-03T00:24:34.300623+05:30
Imphal,Manipur,24.817,93.9368,13.9,75,0.0,924.2,7.6,72.4,153,113.9,95.5,3,5,7,0,2026-03-03T00:24:34.300631+05:30
Aizawl,Mizoram,23.7271,92.7176,15.0,91,0.0,893.3,7.6,42.8,151,89.2,83.1,3,10,7,0,2026-03-03T00:24:34.300638+05:30
Kohima,Nagaland,25.6701,94.1077,12.0,83,0.0,855.1,7.45,82.8,146,80.3,72.6,3,10,7,0,2026-03-03T00:24:34.300645+05:30
Gangtok,Sikkim,27.3314,88.6138,10.7,81,0.0,836.5,5.8,19.4,125,85.2,65.4,3,10,3,0,2026-03-03T00:24:34.300653+05:30
Siliguri,West Bengal,26.7271,88.3953,18.5,69,0.0,997.0,7.0,20.5,167,127.1,98.5,3,5,7,0,2026-03-03T00:24:37.649910+05:30
Durgapur,West Bengal,23.5204,87.3119,22.5,34,0.0,998.3,7.6,26.3,109,57.4,30.2,0,5,7,0,2026-03-03T00:24:37.649937+05:30
Asansol,West Bengal,23.6739,86.9524,23.4,32,0.0,996.9,7.6,28.4,96,49.0,27.5,0,5,7,0,2026-03-03T00:24:37.649949+05:30
Pondicherry,Puducherry,11.9139,79.8145,22.0,94,0.0,1011.0,8.8,29.5,118,39.8,35.6,3,0,4,1,2026-03-03T00:24:37.649958+05:30
Port Blair,Andaman and Nicobar Islands,11.6234,92.7265,27.4,74,0.0,1008.2,8.75,16.2,80,33.1,25.6,7,0,4,1,2026-03-03T00:24:37.649967+05:30
Haridwar,Uttarakhand,29.9457,78.1642,15.5,82,0.0,977.1,5.55,41.8,96,54.5,50.6,3,10,3,0,2026-03-03T00:24:37.649975+05:30
Rishikesh,Uttarakhand,30.0869,78.2676,16.5,68,0.0,969.7,5.6,31.3,84,37.4,35.0,3,5,3,0,2026-03-03T00:24:37.649983+05:30
Nainital,Uttarakhand,29.3919,79.4542,14.4,59,0.0,805.7,6.4,45.7,91,37.6,28.6,0,5,7,0,2026-03-03T00:24:37.649991+05:30
Mussoorie,Uttarakhand,30.4599,78.0664,13.2,62,0.0,802.5,5.9,33.8,81,45.4,43.0,3,5,3,0,2026-03-03T00:24:37.649999+05:30
Dharamshala,Himachal Pradesh,32.219,76.3234,17.6,38,0.0,871.2,6.1,26.3,89,22.4,18.3,0,5,7,0,2026-03-03T00:24:37.650007+05:30
Dalhousie,Himachal Pradesh,32.5387,75.971,14.1,39,0.0,804.9,6.35,22.3,98,55.8,51.3,0,5,7,0,2026-03-03T00:24:37.650015+05:30
Patiala,Punjab,30.3398,76.3869,16.7,71,0.0,982.3,5.55,37.4,158,267.3,69.2,3,5,3,0,2026-03-03T00:24:37.650022+05:30
Bhatinda,Punjab,30.211,74.9455,18.1,71,0.0,988.3,6.2,24.8,156,71.7,60.1,3,5,7,0,2026-03-03T00:24:37.650030+05:30
Rohtak,Haryana,28.8955,76.6066,17.2,74,0.0,986.1,5.75,34.9,295,395.8,88.7,3,5,3,0,2026-03-03T00:24:37.650038+05:30
Panipat,Haryana,29.3909,76.9635,16.3,74,0.0,984.4,5.55,35.3,736,845.6,131.8,3,5,3,0,2026-03-03T00:24:37.650045+05:30
Mathura,Uttar Pradesh,27.4924,77.6737,19.9,66,0.0,991.1,6.0,29.2,429,646.3,115.5,3,5,3,0,2026-03-03T00:24:37.650053+05:30
Vrindavan,Uttar Pradesh,27.5823,77.7027,18.1,74,0.0,991.6,5.95,31.3,429,646.3,115.5,3,5,3,0,2026-03-03T00:24:37.650060+05:30
Ayodhya,Uttar Pradesh,26.7922,82.1998,18.5,58,0.0,998.6,6.4,34.6,129,160.7,59.6,0,5,7,0,2026-03-03T00:24:37.650068+05:30
Ratlam,Madhya Pradesh,23.3315,75.0367,20.8,73,0.0,958.0,7.25,7.2,103,49.1,43.3,3,5,7,0,2026-03-03T00:24:37.650075+05:30
Sagar,Madhya Pradesh,23.8388,78.7378,22.5,43,0.0,953.6,7.2,25.2,67,34.7,21.9,0,5,7,0,2026-03-03T00:24:37.650082+05:30
Satna,Madhya Pradesh,24.6005,80.8322,21.7,41,0.0,975.0,7.15,38.2,63,34.6,20.7,0,5,7,0,2026-03-03T00:24:37.650090+05:30
Akola,Maharashtra,20.7002,77.0082,23.8,59,0.0,978.0,7.75,25.9,74,34.1,32.7,0,5,7,0,2026-03-03T00:24:37.650098+05:30
Amravati,Maharashtra,20.9374,77.7796,22.8,54,0.0,969.9,7.7,24.5,75,39.2,37.5,0,5,7,0,2026-03-03T00:24:37.650107+05:30
Latur,Maharashtra,18.4088,76.5604,24.1,56,0.0,941.7,8.15,26.3,124,37.4,36.9,0,5,7,0,2026-03-03T00:24:37.650114+05:30
Nanded,Maharashtra,19.1383,77.3091,27.3,52,0.0,970.8,7.95,17.3,85,59.8,58.8,4,5,7,1,2026-03-03T00:24:37.650122+05:30
Gulbarga,Karnataka,17.3297,76.8343,26.8,54,0.0,960.6,8.25,19.4,137,60.5,60.1,4,5,7,1,2026-03-03T00:24:37.650129+05:30
Bidar,Karnataka,17.9104,77.5199,24.2,56,0.0,937.4,8.2,16.2,144,30.7,30.2,0,5,7,0,2026-03-03T00:24:37.650137+05:30
Hospet,Karnataka,15.2689,76.3909,28.7,44,0.0,957.2,8.6,21.2,147,51.6,51.0,4,5,7,0,2026-03-03T00:24:37.650144+05:30
Tirupur,Tamil Nadu,11.1085,77.3411,26.3,68,0.0,977.4,9.1,33.5,147,56.2,55.3,7,5,7,1,2026-03-03T00:24:37.650152+05:30
Alappuzha,Kerala,9.4981,76.3388,27.5,82,0.0,1010.6,8.9,32.8,95,40.2,38.4,7,0,4,1,2026-03-03T00:24:37.650160+05:30
Munnar,Kerala,10.0889,77.0595,19.2,83,0.0,857.1,9.4,22.0,123,51.6,50.5,3,10,7,1,2026-03-03T00:24:37.650168+05:30
Silchar,Assam,24.8333,92.7789,20.3,85,0.0,1007.8,7.35,18.7,155,105.9,86.1,3,5,4,1,2026-03-03T00:24:37.650176+05:30
Dibrugarh,Assam,27.4728,94.912,19.9,88,0.0,1000.2,7.05,12.6,152,80.6,71.0,3,10,4,1,2026-03-03T00:24:37.650183+05:30
