city,state,latitude,longitude,temp,humidity,rain,pressure,uv_index,wind_gusts,aqi,pm10,pm2_5,no2,co,o3,so2,mosquito_risk,arthritis_risk,migraine_risk,frizz_risk,updated_at
Delhi,Delhi,28.6139,77.209,21.2,88,0.0,983.0,7.55,22.0,125,128.5,76.4,56.9,1023.0,36.0,26.0,3,5,7,1,2026-05-06T03:32:17.269234+05:30
Mumbai,Maharashtra,19.076,72.8777,27.4,81,0.0,1007.4,7.85,46.8,76,58.9,22.2,7.2,392.0,70.0,24.3,7,5,4,1,2026-05-06T03:32:17.269282+05:30
Bangalore,Karnataka,12.9716,77.5946,22.4,75,0.0,909.3,9.55,32.8,102,63.1,44.8,18.5,385.0,89.0,12.7,3,5,7,1,2026-05-06T03:32:17.269304+05:30
Hyderabad,Telangana,17.385,78.4867,26.0,72,0.0,951.3,9.3,37.8,82,39.0,32.7,8.7,272.0,84.0,7.1,7,5,7,1,2026-05-06T03:32:17.269316+05:30
Chennai,Tamil Nadu,13.0827,80.2707,28.3,83,0.0,1004.8,9.25,42.1,66,19.8,13.2,6.1,190.0,72.0,2.2,7,5,4,1,2026-05-06T03:32:17.269326+05:30
Kolkata,West Bengal,22.5726,88.3639,24.6,96,0.0,1006.4,8.9,29.5,75,23.8,21.6,16.9,304.0,30.0,6.2,3,5,4,1,2026-05-06T03:32:17.269335+05:30
Pune,Maharashtra,18.5204,73.8567,22.1,93,0.0,946.7,8.5,58.3,62,45.8,22.9,15.8,212.0,49.0,16.6,3,5,7,1,2026-05-06T03:32:17.269343+05:30
Ahmedabad,Gujarat,23.0225,72.5714,28.4,75,0.0,1000.9,8.1,26.6,91,75.4,34.8,20.1,210.0,31.0,12.1,7,5,4,1,2026-05-06T03:32:17.269354+05:30
Jaipur,Rajasthan,26.9124,75.7873,21.8,76,0.0,959.0,8.1,31.7,127,190.5,50.9,6.1,449.0,94.0,5.9,3,5,7,1,2026-05-06T03:32:17.269362+05:30
Lucknow,Uttar Pradesh,26.8467,80.9462,21.6,93,0.0,993.3,8.05,27.4,124,78.5,66.6,40.4,686.0,33.0,16.5,3,5,7,1,2026-05-06T03:32:17.269370+05:30
Kanpur,Uttar Pradesh,26.4499,80.3319,22.4,92,0.0,991.6,8.05,19.8,131,102.4,74.3,37.5,664.0,43.0,16.0,3,5,7,1,2026-05-06T03:32:17.269378+05:30
Chandigarh,Chandigarh,30.7333,76.7794,19.9,61,0.0,968.6,7.55,36.4,76,45.5,31.2,43.3,463.0,5.0,1.9,3,5,7,0,2026-05-06T03:32:17.269386+05:30
Srinagar,Jammu and Kashmir,34.0837,74.7973,7.1,98,0.0,839.6,8.65,27.0,65,36.3,33.9,24.1,440.0,27.0,1.3,3,10,7,0,2026-05-06T03:32:17.269395+05:30
Jammu,Jammu and Kashmir,32.7266,74.857,18.3,62,0.0,972.5,8.25,29.9,63,23.3,19.0,19.7,264.0,33.0,1.8,3,5,7,0,2026-05-06T03:32:17.269403+05:30
Amritsar,Punjab,31.634,74.8723,20.6,65,0.0,981.3,8.15,31.3,90,89.4,44.8,9.3,469.0,89.0,9.8,3,5,7,0,2026-05-06T03:32:17.269410+05:30
Ludhiana,Punjab,30.901,75.8573,19.1,85,0.0,979.1,7.8,29.9,135,113.6,79.2,34.5,392.0,31.0,16.4,3,10,7,1,2026-05-06T03:32:17.269417+05:30
Jalandhar,Punjab,31.326,75.5762,18.3,85,0.0,980.2,7.95,32.0,110,110.1,66.4,27.4,669.0,41.0,13.8,3,10,7,0,2026-05-06T03:32:17.269425+05:30
Dehradun,Uttarakhand,30.6284,78.0322,7.2,95,0.0,825.0,7.45,34.9,56,29.6,15.1,21.8,231.0,31.0,0.0,3,10,7,0,2026-05-06T03:32:17.269435+05:30
Shimla,Himachal Pradesh,31.1048,77.1734,6.1,77,0.0,778.9,7.5,42.5,61,46.3,24.3,27.8,215.0,29.0,0.0,3,5,7,0,2026-05-06T03:32:17.269443+05:30
Manali,Himachal Pradesh,32.2396,77.1887,5.0,64,0.0,811.9,9.5,40.7,69,7.3,5.0,20.4,252.0,112.0,0.0,3,5,7,1,2026-05-06T03:32:17.269452+05:30
Gurgaon,Haryana,28.4595,77.0266,20.4,93,0.0,981.5,7.65,24.8,163,153.7,78.2,38.0,1330.0,40.0,24.9,3,5,7,1,2026-05-06T03:32:17.269459+05:30
Noida,Uttar Pradesh,28.5355,77.391,20.0,92,0.0,984.4,7.55,20.5,163,153.7,78.2,38.0,951.0,40.0,24.9,3,5,7,1,2026-05-06T03:32:17.269467+05:30
Ghaziabad,Uttar Pradesh,28.6692,77.4538,19.8,95,0.0,982.7,7.55,24.1,106,130.9,66.6,31.4,624.0,59.0,13.5,3,10,7,1,2026-05-06T03:32:17.269473+05:30
Faridabad,Haryana,28.4089,77.3178,20.5,91,0.0,983.8,7.6,19.4,163,153.7,78.2,38.0,906.0,40.0,24.9,3,5,7,1,2026-05-06T03:32:17.269480+05:30
Meerut,Uttar Pradesh,28.9845,77.7064,19.1,93,0.0,981.4,7.45,23.4,106,130.9,66.6,31.4,509.0,59.0,13.5,3,10,7,1,2026-05-06T03:32:17.269487+05:30
Agra,Uttar Pradesh,27.1767,78.0081,21.7,91,0.0,987.9,7.9,20.9,283,195.6,73.6,21.7,544.0,45.0,18.1,3,5,7,1,2026-05-06T03:32:17.269495+05:30
Varanasi,Uttar Pradesh,25.3176,82.9739,23.3,82,0.0,997.6,8.55,26.3,135,66.8,55.9,21.8,382.0,70.0,18.7,3,5,7,1,2026-05-06T03:32:17.269503+05:30
Prayagraj,Uttar Pradesh,25.4358,81.8463,23.3,92,0.0,995.7,8.45,31.0,126,78.0,63.6,31.1,527.0,45.0,16.3,3,5,7,1,2026-05-06T03:32:17.269513+05:30
Gorakhpur,Uttar Pradesh,26.7606,83.3732,21.5,91,0.0,997.1,8.45,29.2,92,36.3,31.8,18.0,433.0,66.0,6.9,3,5,7,1,2026-05-06T03:32:17.269521+05:30
Bareilly,Uttar Pradesh,28.367,79.4304,19.1,88,0.0,986.3,7.85,24.1,123,78.2,65.2,27.1,422.0,48.0,12.4,3,10,7,1,2026-05-06T03:32:17.269528+05:30
Aligarh,Uttar Pradesh,27.8974,78.088,20.5,91,0.0,985.5,7.7,24.5,152,173.7,68.2,24.9,496.0,58.0,15.7,3,5,7,1,2026-05-06T03:32:17.269535+05:30
Moradabad,Uttar Pradesh,28.8386,78.7733,19.5,87,0.0,983.4,7.65,24.1,112,74.3,53.2,24.2,477.0,50.0,9.7,3,10,7,1,2026-05-06T03:32:17.269542+05:30
Saharanpur,Uttar Pradesh,29.9637,77.546,18.1,88,0.0,975.5,7.25,24.5,85,77.3,50.4,37.9,507.0,21.0,10.5,3,10,7,0,2026-05-06T03:32:17.269548+05:30
Jhansi,Uttar Pradesh,25.4484,78.5685,23.0,79,0.0,977.5,8.35,30.6,116,188.1,49.4,7.4,380.0,79.0,5.0,3,5,7,1,2026-05-06T03:32:20.606791+05:30
Surat,Gujarat,21.1702,72.8311,27.5,89,0.0,1005.4,7.7,34.9,82,47.8,24.7,25.0,285.0,45.0,38.2,7,5,4,1,2026-05-06T03:32:20.606827+05:30
Vadodara,Gujarat,22.3072,73.1812,27.2,88,0.0,1002.9,8.05,25.9,77,33.8,20.7,19.5,261.0,39.0,25.4,7,5,4,1,2026-05-06T03:32:20.606838+05:30
Rajkot,Gujarat,22.3039,70.8022,25.5,91,0.0,992.9,7.7,47.5,68,42.1,16.4,6.4,180.0,50.0,7.1,7,5,7,1,2026-05-06T03:32:20.606847+05:30
Thane,Maharashtra,19.2183,72.9781,26.4,87,0.0,1006.9,7.9,42.5,76,58.9,22.2,7.2,352.0,70.0,24.3,7,5,4,1,2026-05-06T03:32:20.606855+05:30
Nagpur,Maharashtra,21.1458,79.0882,29.2,37,0.0,971.7,8.9,35.6,78,35.4,23.2,6.9,260.0,89.0,7.1,4,5,7,0,2026-05-06T03:32:20.606863+05:30
Nashik,Maharashtra,19.9975,73.7898,22.1,77,0.0,944.0,8.2,41.4,65,57.3,23.2,10.5,189.0,45.0,1.1,3,5,7,1,2026-05-06T03:32:20.606870+05:30
Aurangabad,Maharashtra,19.8762,75.3433,26.7,45,0.0,942.6,9.05,36.7,64,31.3,17.2,9.2,207.0,52.0,2.4,4,5,7,0,2026-05-06T03:32:20.606878+05:30
Solapur,Maharashtra,17.6599,75.9064,27.9,48,0.0,955.2,9.05,42.5,60,25.5,17.5,6.0,189.0,87.0,7.2,4,5,7,0,2026-05-06T03:32:20.606885+05:30
Kolhapur,Maharashtra,16.705,74.2433,22.5,90,0.0,945.9,8.95,45.0,63,36.8,19.2,11.1,180.0,36.0,1.6,3,5,7,1,2026-05-06T03:32:20.606892+05:30
Goa,Goa,15.2993,74.124,26.5,89,0.0,995.6,8.9,39.2,67,50.4,24.1,8.7,184.0,47.0,1.7,7,5,7,1,2026-05-06T03:32:20.606899+05:30
Jodhpur,Rajasthan,26.2389,73.0243,26.5,39,0.0,982.5,8.3,28.1,116,135.0,36.4,6.2,272.0,79.0,5.1,4,5,7,0,2026-05-06T03:32:20.606907+05:30
Udaipur,Rajasthan,24.5854,73.7125,23.8,55,0.0,945.1,8.75,22.0,81,158.8,39.3,5.7,191.0,80.0,4.3,0,5,7,0,2026-05-06T03:32:20.606914+05:30
Kota,Rajasthan,25.2138,75.8648,23.0,77,0.0,978.3,8.3,27.7,91,94.8,41.8,14.2,375.0,49.0,5.7,3,5,7,1,2026-05-06T03:32:20.606922+05:30
Bikaner,Rajasthan,28.0229,73.3119,24.4,52,0.0,981.7,8.25,28.8,83,71.7,31.2,3.7,325.0,94.0,9.6,0,5,7,0,2026-05-06T03:32:20.606929+05:30
Ajmer,Rajasthan,26.4499,74.6399,21.5,67,0.0,953.9,8.25,36.7,77,86.8,33.4,6.8,302.0,70.0,3.9,3,5,7,0,2026-05-06T03:32:20.606936+05:30
Gwalior,Madhya Pradesh,26.2183,78.1828,22.0,88,0.0,982.8,8.15,22.3,118,270.1,64.0,13.4,386.0,65.0,7.7,3,5,7,1,2026-05-06T03:32:20.606943+05:30
Indore,Madhya Pradesh,22.7196,75.8577,25.4,51,0.0,946.9,8.6,34.6,73,74.7,29.3,5.9,265.0,85.0,4.8,4,5,7,0,2026-05-06T03:32:20.606950+05:30
Bhopal,Madhya Pradesh,23.2599,77.4126,25.4,52,0.0,952.4,8.65,36.0,76,54.8,38.3,3.1,293.0,112.0,7.7,4,5,7,0,2026-05-06T03:32:20.606957+05:30
Jabalpur,Madhya Pradesh,23.1815,79.9864,24.4,64,0.0,960.2,8.8,35.6,86,54.2,37.3,13.9,244.0,96.0,9.1,3,5,7,1,2026-05-06T03:32:20.606964+05:30
Ujjain,Madhya Pradesh,23.1765,75.7885,25.0,48,0.0,952.6,8.55,32.4,74,83.8,35.3,8.8,277.0,71.0,6.0,4,5,7,0,2026-05-06T03:32:20.606972+05:30
Visakhapatnam,Andhra Pradesh,17.6868,83.2185,25.8,92,0.0,1002.5,9.15,28.4,84,39.5,31.8,39.1,621.0,25.0,4.3,7,5,4,1,2026-05-06T03:32:20.606979+05:30
Vijayawada,Andhra Pradesh,16.5062,80.648,28.0,87,0.0,1000.7,9.2,43.2,77,21.7,18.2,8.4,202.0,55.0,3.5,7,5,4,1,2026-05-06T03:32:20.606986+05:30
Guntur,Andhra Pradesh,16.3067,80.4365,28.1,86,0.0,1002.0,9.25,39.2,82,21.8,18.0,6.9,189.0,61.0,3.3,7,5,4,1,2026-05-06T03:32:20.606993+05:30
Nellore,Andhra Pradesh,14.4426,79.9865,27.6,90,0.0,1003.5,9.25,39.2,78,16.9,12.4,8.1,179.0,58.0,7.1,7,5,4,1,2026-05-06T03:32:20.607001+05:30
Kurnool,Andhra Pradesh,15.8281,78.0373,27.9,71,0.0,974.5,8.95,40.7,80,37.5,32.5,5.5,248.0,96.0,8.5,7,5,7,1,2026-05-06T03:32:20.607008+05:30
Kakinada,Andhra Pradesh,16.9891,82.2475,26.8,93,0.0,1006.0,9.15,31.7,62,24.8,16.1,3.6,223.0,62.0,0.9,7,5,4,1,2026-05-06T03:32:20.607015+05:30
Tirupati,Andhra Pradesh,13.6288,79.4192,26.9,84,0.0,989.1,9.3,30.2,121,38.5,33.8,28.1,206.0,20.0,9.2,7,5,7,1,2026-05-06T03:32:20.607021+05:30
Warangal,Telangana,17.9689,79.5941,26.9,80,0.0,977.0,9.2,41.0,82,32.4,27.9,8.9,242.0,67.0,11.1,7,5,7,1,2026-05-06T03:32:20.607028+05:30
Nizamabad,Telangana,18.6725,78.0941,27.0,55,0.0,962.4,9.05,35.6,85,45.4,35.4,15.9,276.0,72.0,6.4,4,5,7,1,2026-05-06T03:32:20.607034+05:30
Mysore,Karnataka,12.2958,76.6396,21.7,93,0.0,925.8,9.4,29.2,74,30.5,21.0,15.9,231.0,44.0,2.8,3,5,7,1,2026-05-06T03:32:20.607040+05:30
Mangalore,Karnataka,12.9141,74.856,26.9,86,0.0,1004.2,9.05,53.6,63,35.6,17.2,3.1,202.0,59.0,1.3,7,5,4,1,2026-05-06T03:32:20.607047+05:30
Hubli-Dharwad,Karnataka,15.3647,75.124,22.0,95,0.0,938.4,8.8,41.8,59,29.7,15.8,10.6,180.0,35.0,2.1,3,5,7,1,2026-05-06T03:32:20.607054+05:30
Belgaum,Karnataka,15.8497,74.4977,21.4,85,0.0,922.8,8.6,48.6,60,46.6,21.5,12.0,154.0,36.0,1.0,3,5,7,1,2026-05-06T03:32:24.008610+05:30
Coimbatore,Tamil Nadu,11.0168,76.9558,23.5,99,0.0,958.7,9.35,26.3,65,26.5,15.4,17.2,264.0,48.0,3.1,3,5,7,1,2026-05-06T03:32:24.008644+05:30
Madurai,Tamil Nadu,9.9252,78.1198,25.3,98,0.0,990.0,8.8,36.0,84,54.2,39.0,29.2,362.0,21.0,5.8,7,5,7,1,2026-05-06T03:32:24.008682+05:30
Trichy,Tamil Nadu,10.7905,78.7047,26.1,84,0.0,996.9,9.15,27.0,98,45.2,33.5,18.4,343.0,57.0,5.0,7,5,7,1,2026-05-06T03:32:24.008692+05:30
Salem,Tamil Nadu,11.6643,78.146,25.8,78,0.0,974.8,9.25,42.8,105,62.4,42.0,19.4,349.0,63.0,8.7,7,5,7,1,2026-05-06T03:32:24.008701+05:30
Tirunelveli,Tamil Nadu,8.7139,77.7567,27.0,76,0.0,1000.3,7.95,40.3,72,22.5,19.0,9.6,233.0,48.0,3.8,7,5,4,1,2026-05-06T03:32:24.008708+05:30
Vellore,Tamil Nadu,12.9165,79.1325,25.8,90,0.0,982.3,9.3,34.9,121,56.8,49.7,26.1,222.0,26.0,7.7,7,5,7,1,2026-05-06T03:32:24.008716+05:30
Erode,Tamil Nadu,11.341,77.7172,26.8,75,0.0,986.5,9.25,30.6,78,34.8,23.7,22.2,344.0,36.0,4.0,7,5,7,1,2026-05-06T03:32:24.008724+05:30
Kochi,Kerala,9.9312,76.2673,25.8,97,0.0,1005.7,6.25,31.3,65,40.9,34.9,35.5,186.0,6.0,4.9,7,5,4,1,2026-05-06T03:32:24.008733+05:30
Thiruvananthapuram,Kerala,8.5241,76.9366,24.6,94,0.0,1005.1,8.7,31.0,56,32.6,15.8,5.9,206.0,70.0,3.2,3,5,4,1,2026-05-06T03:32:24.008741+05:30
Kozhikode,Kerala,11.2588,75.7804,25.2,96,0.0,1005.0,9.05,39.6,57,40.9,18.6,3.8,355.0,64.0,2.0,7,5,4,1,2026-05-06T03:32:24.008748+05:30
Thrissur,Kerala,10.5276,76.2144,24.1,99,0.0,1004.2,8.9,31.3,70,60.3,50.1,39.1,347.0,5.0,4.3,3,5,4,1,2026-05-06T03:32:24.008757+05:30
Kannur,Kerala,11.8745,75.3704,26.6,86,0.0,1004.3,9.05,55.8,64,34.5,18.7,8.9,270.0,39.0,2.0,7,5,4,1,2026-05-06T03:32:24.008764+05:30
Patna,Bihar,25.5941,85.1376,23.6,81,0.0,1000.3,8.7,35.6,150,63.8,55.6,13.8,628.0,93.0,11.9,3,5,4,1,2026-05-06T03:32:24.008772+05:30
Gaya,Bihar,24.7914,85.0002,23.0,82,0.0,993.5,8.75,38.9,111,41.2,34.3,7.4,264.0,113.0,7.7,3,5,7,1,2026-05-06T03:32:24.008779+05:30
Muzaffarpur,Bihar,26.1209,85.3647,21.5,89,0.0,1001.3,8.7,45.7,151,76.4,67.1,19.0,285.0,87.0,13.3,3,5,4,1,2026-05-06T03:32:24.008785+05:30
Bhagalpur,Bihar,25.2425,87.0117,22.9,87,0.0,1001.1,8.7,38.9,115,54.6,47.0,11.5,405.0,97.0,17.4,3,5,4,1,2026-05-06T03:32:24.008792+05:30
Ranchi,Jharkhand,23.3441,85.3096,20.8,85,0.0,936.5,9.2,34.9,102,40.9,34.0,4.5,226.0,146.0,11.0,3,5,7,1,2026-05-06T03:32:24.008799+05:30
Jamshedpur,Jharkhand,22.8046,86.2029,24.0,80,0.0,991.1,9.0,41.8,98,38.0,31.3,22.2,290.0,62.0,22.8,3,5,7,1,2026-05-06T03:32:24.008805+05:30
Dhanbad,Jharkhand,23.7957,86.4304,23.2,81,0.0,979.1,8.95,32.8,152,72.9,61.2,40.8,1305.0,75.0,51.2,3,5,7,1,2026-05-06T03:32:24.008812+05:30
Bokaro,Jharkhand,23.6693,86.1511,22.5,81,0.0,982.9,9.0,42.8,150,60.3,49.0,28.3,655.0,97.0,29.5,3,5,7,1,2026-05-06T03:32:24.008819+05:30
Bhubaneswar,Odisha,20.2961,85.8245,24.3,92,0.0,1002.2,9.1,35.3,43,21.5,17.6,12.5,215.0,34.0,4.1,3,5,4,1,2026-05-06T03:32:24.008826+05:30
Cuttack,Odisha,20.4625,85.8828,25.1,91,0.0,1004.1,9.15,33.8,43,21.5,17.6,12.5,212.0,34.0,4.1,7,5,4,1,2026-05-06T03:32:24.008833+05:30
Rourkela,Odisha,22.2604,84.8536,22.9,94,0.0,985.8,8.95,43.6,103,50.6,40.3,10.1,499.0,103.0,36.6,3,5,7,1,2026-05-06T03:32:24.008840+05:30
Raipur,Chhattisgarh,21.2514,81.6296,24.7,75,0.0,974.7,9.0,34.6,107,62.2,47.0,23.0,287.0,70.0,6.3,3,5,7,1,2026-05-06T03:32:24.008846+05:30
Bhilai,Chhattisgarh,21.1938,81.3509,25.5,72,0.0,975.7,9.0,27.7,112,60.1,46.9,39.9,413.0,45.0,7.8,7,5,7,1,2026-05-06T03:32:24.008852+05:30
Guwahati,Assam,26.1158,91.7086,21.5,93,0.0,1002.2,8.65,31.7,72,35.0,30.3,11.3,249.0,46.0,1.9,3,5,4,1,2026-05-06T03:32:24.008858+05:30
Agartala,Tripura,23.8315,91.2868,22.8,98,0.0,1006.9,8.8,19.8,92,28.2,24.9,19.8,332.0,27.0,2.6,3,5,4,1,2026-05-06T03:32:24.008865+05:30
Shillong,Meghalaya,25.5788,91.8933,14.6,93,0.0,855.1,8.9,27.7,68,30.6,27.2,5.4,249.0,89.0,0.2,3,10,7,0,2026-05-06T03:32:24.008872+05:30
Imphal,Manipur,24.817,93.9368,18.9,97,0.1,922.8,9.2,28.4,87,46.9,38.5,16.5,291.0,31.0,3.0,6,10,7,1,2026-05-06T03:32:24.008879+05:30
Aizawl,Mizoram,23.7271,92.7176,15.8,98,0.0,891.9,9.05,25.2,64,23.9,18.9,10.3,272.0,27.0,0.3,3,10,7,0,2026-05-06T03:32:24.008885+05:30
Kohima,Nagaland,25.6701,94.1077,14.2,90,0.0,853.3,9.15,30.6,64,30.2,21.3,8.9,227.0,48.0,0.1,3,10,7,0,2026-05-06T03:32:24.008892+05:30
Gangtok,Sikkim,27.3314,88.6138,10.8,95,0.0,835.2,8.85,38.9,50,20.0,15.9,20.1,384.0,32.0,0.6,3,10,7,0,2026-05-06T03:32:24.008899+05:30
Siliguri,West Bengal,26.7271,88.3953,20.8,93,0.0,992.9,8.6,21.2,78,51.0,41.9,27.2,1035.0,63.0,4.4,3,5,7,1,2026-05-06T03:32:27.356873+05:30
Durgapur,West Bengal,23.5204,87.3119,23.5,93,0.0,994.7,8.9,29.2,119,50.5,46.7,39.2,829.0,41.0,55.5,3,5,7,1,2026-05-06T03:32:27.356910+05:30
Asansol,West Bengal,23.6739,86.9524,23.6,89,0.0,993.1,8.95,35.6,125,66.4,58.2,38.0,274.0,57.0,56.6,3,5,7,1,2026-05-06T03:32:27.356921+05:30
Pondicherry,Puducherry,11.9139,79.8145,27.5,87,0.0,1005.8,8.75,37.8,64,19.1,11.6,2.5,220.0,77.0,0.6,7,5,4,1,2026-05-06T03:32:27.356930+05:30
Port Blair,Andaman and Nicobar Islands,11.6234,92.7265,27.0,87,0.0,1005.1,8.35,36.0,28,5.6,4.8,0.4,177.0,59.0,3.4,7,5,4,1,2026-05-06T03:32:27.356938+05:30
Haridwar,Uttarakhand,29.9457,78.1642,17.5,80,0.0,973.4,7.35,24.5,70,53.2,34.8,27.4,231.0,13.0,3.0,3,5,7,0,2026-05-06T03:32:27.356947+05:30
Rishikesh,Uttarakhand,30.0869,78.2676,15.4,87,0.0,965.9,7.45,23.4,59,62.6,23.4,10.2,278.0,70.0,1.0,3,10,7,0,2026-05-06T03:32:27.356955+05:30
Nainital,Uttarakhand,29.3919,79.4542,9.9,64,0.0,801.7,6.8,35.3,67,43.5,22.9,15.8,186.0,53.0,1.9,3,5,7,0,2026-05-06T03:32:27.356964+05:30
Mussoorie,Uttarakhand,30.4599,78.0664,9.9,67,0.0,798.9,7.3,33.1,64,68.5,32.4,32.1,190.0,24.0,5.2,3,5,7,0,2026-05-06T03:32:27.356974+05:30
Dharamshala,Himachal Pradesh,32.219,76.3234,15.9,56,0.0,867.6,8.15,42.5,39,14.2,8.1,9.0,201.0,61.0,0.1,0,5,7,0,2026-05-06T03:32:27.356982+05:30
Dalhousie,Himachal Pradesh,32.5387,75.971,5.1,88,0.0,798.1,8.3,39.2,64,26.5,18.7,31.1,292.0,23.0,0.9,3,10,7,0,2026-05-06T03:32:27.356990+05:30
Patiala,Punjab,30.3398,76.3869,20.0,84,0.0,978.5,7.45,40.0,223,107.8,45.8,16.2,454.0,54.0,6.2,3,5,7,1,2026-05-06T03:32:27.356997+05:30
Bhatinda,Punjab,30.211,74.9455,21.4,70,0.0,984.3,8.1,24.5,160,358.6,81.0,10.3,466.0,74.0,9.3,3,5,7,0,2026-05-06T03:32:27.357003+05:30
Rohtak,Haryana,28.8955,76.6066,20.5,88,0.0,981.9,7.55,29.2,168,136.9,82.0,41.8,696.0,40.0,32.6,3,5,7,1,2026-05-06T03:32:27.357011+05:30
Panipat,Haryana,29.3909,76.9635,19.0,93,0.0,980.4,7.4,25.2,601,359.5,95.2,28.6,665.0,57.0,15.6,3,10,7,1,2026-05-06T03:32:27.357018+05:30
Mathura,Uttar Pradesh,27.4924,77.6737,21.1,87,0.0,986.9,7.85,24.1,178,202.6,68.9,24.4,516.0,57.0,13.3,3,5,7,1,2026-05-06T03:32:27.357027+05:30
Vrindavan,Uttar Pradesh,27.5823,77.7027,21.3,86,0.0,987.4,7.8,23.8,178,202.6,68.9,24.4,507.0,57.0,13.3,3,5,7,1,2026-05-06T03:32:27.357033+05:30
Ayodhya,Uttar Pradesh,26.7922,82.1998,21.0,94,0.0,995.2,8.2,19.4,91,58.3,50.4,27.5,504.0,47.0,8.6,3,5,7,1,2026-05-06T03:32:27.357041+05:30
Ratlam,Madhya Pradesh,23.3315,75.0367,24.4,56,0.0,953.5,8.5,31.7,70,80.3,33.4,7.2,287.0,69.0,5.8,0,5,7,0,2026-05-06T03:32:27.357048+05:30
Sagar,Madhya Pradesh,23.8388,78.7378,23.4,62,0.0,948.6,8.65,34.2,91,50.9,36.7,8.0,259.0,89.0,7.0,3,5,7,0,2026-05-06T03:32:27.357055+05:30
Satna,Madhya Pradesh,24.6005,80.8322,22.0,83,0.0,970.6,8.7,42.5,115,54.0,43.5,19.7,347.0,54.0,8.5,3,5,7,1,2026-05-06T03:32:27.357061+05:30
Akola,Maharashtra,20.7002,77.0082,28.9,35,0.0,973.1,8.85,33.1,62,41.4,19.7,7.5,187.0,62.0,7.7,4,5,7,0,2026-05-06T03:32:27.357069+05:30
Amravati,Maharashtra,20.9374,77.7796,29.0,34,0.0,965.7,8.85,37.4,62,41.7,19.9,8.8,180.0,60.0,6.9,4,5,7,0,2026-05-06T03:32:27.357076+05:30
Latur,Maharashtra,18.4088,76.5604,28.0,35,0.0,937.9,8.95,44.3,72,35.4,20.7,16.5,184.0,53.0,7.2,4,5,7,0,2026-05-06T03:32:27.357083+05:30
Nanded,Maharashtra,19.1383,77.3091,28.5,33,0.0,966.0,9.0,28.4,75,47.4,26.0,20.3,185.0,51.0,9.0,4,5,7,0,2026-05-06T03:32:27.357090+05:30
Gulbarga,Karnataka,17.3297,76.8343,28.1,45,0.0,956.2,9.15,26.6,65,28.1,18.6,17.7,239.0,42.0,4.7,4,5,7,0,2026-05-06T03:32:27.357096+05:30
Bidar,Karnataka,17.9104,77.5199,25.8,51,0.0,933.1,8.7,29.2,78,42.7,32.4,19.5,236.0,66.0,6.9,4,5,7,0,2026-05-06T03:32:27.357103+05:30
Hospet,Karnataka,15.2689,76.3909,25.1,80,0.0,953.7,8.95,30.2,71,29.2,17.2,15.8,200.0,37.0,3.2,7,5,7,1,2026-05-06T03:32:27.357110+05:30
Tirupur,Tamil Nadu,11.1085,77.3411,24.0,93,0.0,972.4,9.35,23.8,78,39.2,26.0,28.9,224.0,27.0,4.9,3,5,7,1,2026-05-06T03:32:27.357116+05:30
Alappuzha,Kerala,9.4981,76.3388,26.0,94,0.0,1005.8,8.95,32.0,54,35.9,23.6,17.3,132.0,45.0,5.2,7,5,4,1,2026-05-06T03:32:27.357123+05:30
Munnar,Kerala,10.0889,77.0595,16.1,96,0.0,852.6,6.5,21.6,64,34.1,24.2,12.3,229.0,29.0,1.5,3,10,7,0,2026-05-06T03:32:27.357130+05:30
Silchar,Assam,24.8333,92.7789,22.0,97,0.1,1006.6,8.85,25.9,87,35.2,27.0,9.2,232.0,68.0,2.6,6,5,4,1,2026-05-06T03:32:27.357136+05:30
Dibrugarh,Assam,27.4728,94.912,20.4,98,0.0,996.8,8.8,25.2,59,9.7,7.3,8.0,234.0,58.0,0.3,3,5,7,1,2026-05-06T03:32:27.357143+05:30
