city,state,latitude,longitude,temp,humidity,rain,pressure,uv_index,wind_gusts,aqi,pm10,pm2_5,no2,co,o3,so2,mosquito_risk,arthritis_risk,migraine_risk,frizz_risk,updated_at
Delhi,Delhi,28.6139,77.209,31.6,43,0.0,976.9,7.6,34.2,211,258.9,79.6,38.3,506.0,128.0,29.7,0,5,7,1,2026-05-02T20:22:00.524189+05:30
Mumbai,Maharashtra,19.076,72.8777,29.8,72,0.0,1006.6,7.9,42.1,74,46.2,19.3,9.9,226.0,69.0,17.5,7,5,4,1,2026-05-02T20:22:00.524233+05:30
Bangalore,Karnataka,12.9716,77.5946,28.9,46,0.0,910.5,9.5,34.6,135,46.2,35.2,40.4,829.0,94.0,11.0,4,5,7,0,2026-05-02T20:22:00.524250+05:30
Hyderabad,Telangana,17.385,78.4867,35.6,19,0.0,950.5,9.25,34.6,85,50.8,31.0,36.9,438.0,67.0,11.5,0,5,10,0,2026-05-02T20:22:00.524261+05:30
Chennai,Tamil Nadu,13.0827,80.2707,30.8,78,0.0,1004.4,9.2,55.8,94,16.4,12.0,7.2,227.0,88.0,4.0,3,5,4,1,2026-05-02T20:22:00.524271+05:30
Kolkata,West Bengal,22.5726,88.3639,25.6,87,0.0,1003.1,8.85,49.3,75,29.7,25.6,13.9,475.0,85.0,8.7,7,5,4,1,2026-05-02T20:22:00.524280+05:30
Pune,Maharashtra,18.5204,73.8567,27.0,68,0.0,946.9,8.5,48.6,61,35.5,14.6,6.4,206.0,82.0,5.2,7,5,7,1,2026-05-02T20:22:00.524288+05:30
Ahmedabad,Gujarat,23.0225,72.5714,32.9,60,0.0,996.3,8.1,52.2,69,84.1,23.9,4.7,203.0,104.0,4.6,0,5,7,1,2026-05-02T20:22:00.524298+05:30
Jaipur,Rajasthan,26.9124,75.7873,34.5,23,0.0,954.3,8.15,39.2,115,149.9,34.9,22.8,216.0,76.0,5.9,0,5,7,0,2026-05-02T20:22:00.524307+05:30
Lucknow,Uttar Pradesh,26.8467,80.9462,27.5,62,0.0,989.9,8.1,35.3,166,88.2,44.2,14.5,338.0,123.0,11.7,7,5,7,1,2026-05-02T20:22:00.524336+05:30
Kanpur,Uttar Pradesh,26.4499,80.3319,29.6,50,0.0,987.3,8.1,35.3,173,202.1,51.0,15.2,407.0,122.0,10.9,4,5,7,1,2026-05-02T20:22:00.524345+05:30
Chandigarh,Chandigarh,30.7333,76.7794,27.9,42,0.0,962.9,7.6,33.8,161,39.8,26.5,14.0,585.0,137.0,17.9,4,5,7,0,2026-05-02T20:22:00.524353+05:30
Srinagar,Jammu and Kashmir,34.0837,74.7973,14.8,80,0.0,838.6,8.8,36.4,99,20.5,15.9,14.1,605.0,101.0,3.9,3,5,7,0,2026-05-02T20:22:00.524362+05:30
Jammu,Jammu and Kashmir,32.7266,74.857,26.8,46,0.0,967.5,8.4,31.7,137,32.1,22.2,15.6,454.0,113.0,4.8,4,5,7,0,2026-05-02T20:22:00.524369+05:30
Amritsar,Punjab,31.634,74.8723,30.4,33,0.0,974.7,8.25,32.8,171,34.9,21.7,5.0,423.0,164.0,7.9,0,5,7,0,2026-05-02T20:22:00.524377+05:30
Ludhiana,Punjab,30.901,75.8573,30.8,36,0.0,972.4,7.85,31.7,151,50.5,31.1,16.8,641.0,106.0,7.6,0,5,7,0,2026-05-02T20:22:00.524384+05:30
Jalandhar,Punjab,31.326,75.5762,29.2,41,0.0,973.5,8.05,27.0,144,52.3,30.2,12.5,481.0,125.0,7.2,4,5,7,0,2026-05-02T20:22:00.524391+05:30
Dehradun,Uttarakhand,30.6284,78.0322,13.7,92,0.0,824.8,8.05,38.2,143,41.2,25.5,18.2,288.0,122.0,5.8,3,10,7,0,2026-05-02T20:22:00.524402+05:30
Shimla,Himachal Pradesh,31.1048,77.1734,13.0,62,0.0,779.8,8.1,46.8,152,37.6,21.2,10.5,270.0,140.0,9.2,3,5,7,0,2026-05-02T20:22:00.524410+05:30
Manali,Himachal Pradesh,32.2396,77.1887,9.8,83,0.0,812.3,10.3,42.8,151,13.5,9.3,23.2,231.0,137.0,0.7,3,10,7,0,2026-05-02T20:22:00.524417+05:30
Gurgaon,Haryana,28.4595,77.0266,31.1,38,0.0,975.2,7.7,36.4,805,453.6,102.0,48.1,587.0,127.0,29.9,0,5,7,0,2026-05-02T20:22:00.524425+05:30
Noida,Uttar Pradesh,28.5355,77.391,29.8,48,0.0,978.3,7.65,26.3,805,453.6,102.0,48.1,547.0,127.0,29.9,4,5,7,1,2026-05-02T20:22:00.524432+05:30
Ghaziabad,Uttar Pradesh,28.6692,77.4538,30.1,47,0.0,976.6,7.6,33.1,193,231.0,73.1,14.6,376.0,149.0,14.8,0,5,7,1,2026-05-02T20:22:00.524439+05:30
Faridabad,Haryana,28.4089,77.3178,31.9,37,0.0,977.6,7.65,32.4,805,453.6,102.0,48.1,470.0,127.0,29.9,0,5,7,0,2026-05-02T20:22:00.524447+05:30
Meerut,Uttar Pradesh,28.9845,77.7064,29.1,55,0.0,975.5,7.5,29.5,193,231.0,73.1,14.6,385.0,149.0,14.8,4,5,7,1,2026-05-02T20:22:00.524456+05:30
Agra,Uttar Pradesh,27.1767,78.0081,32.0,36,0.0,981.8,7.95,43.6,729,560.7,83.6,14.5,503.0,112.0,12.9,0,5,7,0,2026-05-02T20:22:00.524463+05:30
Varanasi,Uttar Pradesh,25.3176,82.9739,30.3,49,0.0,992.9,8.6,34.2,199,66.4,42.6,11.5,408.0,149.0,15.9,0,5,7,1,2026-05-02T20:22:00.524470+05:30
Prayagraj,Uttar Pradesh,25.4358,81.8463,25.3,90,0.3,991.2,8.5,51.5,196,66.1,42.0,12.2,413.0,135.0,12.3,10,5,7,1,2026-05-02T20:22:00.524479+05:30
Gorakhpur,Uttar Pradesh,26.7606,83.3732,26.4,61,0.0,994.2,8.45,31.3,164,65.7,37.3,8.9,372.0,139.0,7.6,7,5,7,1,2026-05-02T20:22:00.524487+05:30
Bareilly,Uttar Pradesh,28.367,79.4304,29.0,48,0.0,981.7,7.9,29.2,180,164.8,55.5,12.2,374.0,131.0,12.1,4,5,7,1,2026-05-02T20:22:00.524494+05:30
Aligarh,Uttar Pradesh,27.8974,78.088,30.0,47,0.0,979.6,7.75,28.4,412,290.6,74.0,18.0,357.0,112.0,17.3,4,5,7,1,2026-05-02T20:22:00.524501+05:30
Moradabad,Uttar Pradesh,28.8386,78.7733,28.3,54,0.0,978.3,7.7,31.0,188,164.4,64.0,13.5,604.0,149.0,21.4,4,5,7,1,2026-05-02T20:22:00.524508+05:30
Saharanpur,Uttar Pradesh,29.9637,77.546,26.5,64,0.0,969.7,7.35,31.7,163,161.6,58.7,26.2,461.0,123.0,16.0,7,5,7,1,2026-05-02T20:22:00.524514+05:30
Jhansi,Uttar Pradesh,25.4484,78.5685,29.7,51,0.0,972.9,8.4,49.0,82,80.6,26.8,5.7,226.0,99.0,7.5,4,5,7,1,2026-05-02T20:22:03.766275+05:30
Surat,Gujarat,21.1702,72.8311,29.4,81,0.0,1002.8,7.7,52.2,65,29.8,18.0,17.0,208.0,60.0,30.5,7,5,4,1,2026-05-02T20:22:03.766336+05:30
Vadodara,Gujarat,22.3072,73.1812,31.4,62,0.0,999.1,8.05,50.8,67,20.3,15.7,12.2,247.0,81.0,18.4,3,5,7,1,2026-05-02T20:22:03.766354+05:30
Rajkot,Gujarat,22.3039,70.8022,33.0,39,0.0,989.4,7.75,56.5,61,45.5,17.6,4.4,164.0,91.0,7.0,0,5,7,1,2026-05-02T20:22:03.766367+05:30
Thane,Maharashtra,19.2183,72.9781,30.0,70,0.0,1006.0,7.9,40.0,74,46.2,19.3,9.9,237.0,69.0,17.5,7,5,4,1,2026-05-02T20:22:03.766379+05:30
Nagpur,Maharashtra,21.1458,79.0882,37.2,16,0.0,969.3,8.95,46.4,92,40.7,19.9,12.6,327.0,85.0,11.9,0,5,10,0,2026-05-02T20:22:03.766390+05:30
Nashik,Maharashtra,19.9975,73.7898,27.2,67,0.0,943.6,8.25,45.7,65,32.4,14.7,4.4,178.0,85.0,5.6,7,5,7,1,2026-05-02T20:22:03.766402+05:30
Aurangabad,Maharashtra,19.8762,75.3433,34.1,24,0.0,941.5,9.05,39.2,58,36.7,14.5,3.7,174.0,89.0,2.6,0,5,7,0,2026-05-02T20:22:03.766412+05:30
Solapur,Maharashtra,17.6599,75.9064,35.8,14,0.0,953.1,9.05,43.6,59,40.9,16.2,7.7,261.0,88.0,2.6,0,5,10,0,2026-05-02T20:22:03.766422+05:30
Kolhapur,Maharashtra,16.705,74.2433,25.9,75,0.0,946.5,8.95,49.0,66,40.9,16.9,6.5,175.0,70.0,2.3,7,5,7,1,2026-05-02T20:22:03.766431+05:30
Goa,Goa,15.2993,74.124,29.3,74,0.0,997.2,8.95,38.5,72,65.2,18.0,2.5,169.0,66.0,1.1,7,5,7,1,2026-05-02T20:22:03.766439+05:30
Jodhpur,Rajasthan,26.2389,73.0243,37.5,17,0.0,975.6,8.3,37.8,122,286.8,43.0,3.2,281.0,108.0,2.7,0,5,10,0,2026-05-02T20:22:03.766448+05:30
Udaipur,Rajasthan,24.5854,73.7125,33.6,19,0.0,941.5,8.8,38.2,74,106.4,25.3,1.9,194.0,122.0,3.5,0,5,7,0,2026-05-02T20:22:03.766457+05:30
Kota,Rajasthan,25.2138,75.8648,34.6,27,0.0,972.7,8.35,40.3,76,68.7,25.6,9.9,197.0,88.0,4.3,0,5,7,0,2026-05-02T20:22:03.766465+05:30
Bikaner,Rajasthan,28.0229,73.3119,35.5,20,0.0,974.1,8.25,34.6,72,85.0,22.8,3.8,183.0,101.0,5.7,0,5,10,0,2026-05-02T20:22:03.766472+05:30
Ajmer,Rajasthan,26.4499,74.6399,35.0,20,0.0,949.5,8.3,55.8,66,77.8,22.1,7.1,179.0,91.0,3.9,0,5,7,0,2026-05-02T20:22:03.766479+05:30
Gwalior,Madhya Pradesh,26.2183,78.1828,32.6,27,0.0,977.4,8.15,45.4,115,131.8,35.4,3.8,277.0,128.0,5.8,0,5,7,0,2026-05-02T20:22:03.766486+05:30
Indore,Madhya Pradesh,22.7196,75.8577,34.5,20,0.0,944.4,8.65,53.6,59,34.1,15.0,6.1,248.0,91.0,3.7,0,5,7,0,2026-05-02T20:22:03.766493+05:30
Bhopal,Madhya Pradesh,23.2599,77.4126,32.3,29,0.0,949.3,8.7,60.8,65,49.9,20.3,5.3,339.0,91.0,3.6,0,5,7,0,2026-05-02T20:22:03.766500+05:30
Jabalpur,Madhya Pradesh,23.1815,79.9864,27.6,60,0.0,957.8,8.85,72.0,74,71.2,25.4,10.7,278.0,86.0,4.6,4,5,7,1,2026-05-02T20:22:03.766507+05:30
Ujjain,Madhya Pradesh,23.1765,75.7885,34.2,21,0.0,949.5,8.6,51.5,57,39.1,16.2,3.3,193.0,95.0,2.9,0,5,7,0,2026-05-02T20:22:03.766514+05:30
Visakhapatnam,Andhra Pradesh,17.6868,83.2185,28.9,86,0.0,1001.3,8.85,55.4,61,23.6,19.0,18.5,301.0,76.0,5.6,7,5,4,1,2026-05-02T20:22:03.766521+05:30
Vijayawada,Andhra Pradesh,16.5062,80.648,32.2,63,0.0,999.3,9.2,40.0,142,33.2,28.3,6.1,308.0,141.0,8.6,3,5,7,1,2026-05-02T20:22:03.766528+05:30
Guntur,Andhra Pradesh,16.3067,80.4365,31.1,71,0.0,1000.5,9.2,41.0,128,48.8,36.3,11.0,291.0,119.0,8.5,3,5,4,1,2026-05-02T20:22:03.766535+05:30
Nellore,Andhra Pradesh,14.4426,79.9865,31.5,71,0.0,1002.0,9.2,50.0,146,21.8,16.7,4.7,260.0,123.0,6.1,3,5,4,1,2026-05-02T20:22:03.766542+05:30
Kurnool,Andhra Pradesh,15.8281,78.0373,35.0,20,0.0,973.0,9.2,32.8,113,46.3,25.1,14.6,295.0,106.0,8.4,0,5,7,0,2026-05-02T20:22:03.766549+05:30
Kakinada,Andhra Pradesh,16.9891,82.2475,29.5,83,0.0,1004.8,9.15,43.6,52,19.6,14.3,3.2,274.0,92.0,2.6,7,5,4,1,2026-05-02T20:22:03.766556+05:30
Tirupati,Andhra Pradesh,13.6288,79.4192,32.8,49,0.0,988.5,9.3,48.2,138,32.9,25.4,12.0,279.0,129.0,6.8,0,5,7,1,2026-05-02T20:22:03.766563+05:30
Warangal,Telangana,17.9689,79.5941,33.9,28,0.0,974.5,9.15,31.0,107,71.2,44.2,23.0,443.0,82.0,9.8,0,5,7,0,2026-05-02T20:22:03.766570+05:30
Nizamabad,Telangana,18.6725,78.0941,34.2,19,0.0,960.5,9.1,31.7,81,48.9,26.5,12.7,199.0,93.0,4.2,0,5,7,0,2026-05-02T20:22:03.766577+05:30
Mysore,Karnataka,12.2958,76.6396,26.4,73,0.0,928.0,9.4,45.7,102,22.7,18.5,9.3,208.0,99.0,2.3,7,5,7,1,2026-05-02T20:22:03.766584+05:30
Mangalore,Karnataka,12.9141,74.856,29.5,73,0.0,1006.4,9.05,44.3,65,32.9,14.6,2.4,156.0,72.0,1.2,7,5,4,1,2026-05-02T20:22:03.766590+05:30
Hubli-Dharwad,Karnataka,15.3647,75.124,26.3,72,0.0,939.3,9.2,51.5,60,37.8,16.3,4.9,176.0,79.0,1.7,7,5,7,1,2026-05-02T20:22:03.766597+05:30
Belgaum,Karnataka,15.8497,74.4977,24.1,82,0.0,924.4,9.2,48.6,63,40.0,15.5,5.3,162.0,63.0,2.0,3,5,7,1,2026-05-02T20:22:07.015519+05:30
Coimbatore,Tamil Nadu,11.0168,76.9558,27.0,79,0.0,960.8,9.1,48.6,86,22.1,19.3,8.4,270.0,85.0,3.2,7,5,7,1,2026-05-02T20:22:07.015557+05:30
Madurai,Tamil Nadu,9.9252,78.1198,31.1,57,0.0,992.1,9.2,40.0,144,24.4,21.0,9.8,626.0,118.0,5.5,0,5,7,1,2026-05-02T20:22:07.015574+05:30
Trichy,Tamil Nadu,10.7905,78.7047,29.2,63,0.0,998.6,9.2,44.3,129,17.8,16.1,7.1,385.0,113.0,4.2,7,5,7,1,2026-05-02T20:22:07.015586+05:30
Salem,Tamil Nadu,11.6643,78.146,31.3,48,0.0,976.5,9.25,44.3,174,35.7,29.2,9.4,339.0,141.0,9.5,0,5,7,1,2026-05-02T20:22:07.015597+05:30
Tirunelveli,Tamil Nadu,8.7139,77.7567,31.7,56,0.0,1001.8,9.1,34.6,61,16.9,15.3,6.4,271.0,82.0,1.6,0,5,4,1,2026-05-02T20:22:07.015608+05:30
Vellore,Tamil Nadu,12.9165,79.1325,32.8,51,0.0,982.0,9.3,46.1,142,38.1,32.6,9.0,250.0,141.0,7.0,0,5,7,1,2026-05-02T20:22:07.015618+05:30
Erode,Tamil Nadu,11.341,77.7172,31.4,58,0.0,987.9,9.25,54.4,138,25.6,22.5,12.9,307.0,110.0,2.6,0,5,7,1,2026-05-02T20:22:07.015629+05:30
Kochi,Kerala,9.9312,76.2673,27.6,89,0.0,1008.8,8.1,31.7,74,33.5,27.0,24.0,242.0,45.0,4.7,7,0,4,1,2026-05-02T20:22:07.015640+05:30
Thiruvananthapuram,Kerala,8.5241,76.9366,26.0,93,0.0,1008.3,7.1,35.3,53,15.2,10.2,2.8,270.0,84.0,1.1,7,0,4,1,2026-05-02T20:22:07.015650+05:30
Kozhikode,Kerala,11.2588,75.7804,27.9,86,0.0,1007.7,8.7,40.0,58,29.5,17.1,1.6,218.0,70.0,0.7,7,5,4,1,2026-05-02T20:22:07.015660+05:30
Thrissur,Kerala,10.5276,76.2144,27.0,92,0.0,1007.2,7.8,38.2,68,26.4,20.9,15.1,418.0,55.0,3.0,7,5,4,1,2026-05-02T20:22:07.015672+05:30
Kannur,Kerala,11.8745,75.3704,29.7,75,0.0,1007.0,9.0,50.0,75,29.2,17.1,4.9,182.0,64.0,1.1,7,5,4,1,2026-05-02T20:22:07.015682+05:30
Patna,Bihar,25.5941,85.1376,26.6,64,0.0,997.4,8.65,30.2,180,67.5,46.4,10.8,393.0,148.0,14.1,7,5,7,1,2026-05-02T20:22:07.015692+05:30
Gaya,Bihar,24.7914,85.0002,27.9,60,0.0,989.9,8.75,29.5,182,72.4,42.3,7.3,413.0,154.0,14.8,4,5,7,1,2026-05-02T20:22:07.015702+05:30
Muzaffarpur,Bihar,26.1209,85.3647,25.1,70,0.0,998.1,8.65,30.6,168,62.4,45.2,11.3,394.0,137.0,11.0,7,5,7,1,2026-05-02T20:22:07.015712+05:30
Bhagalpur,Bihar,25.2425,87.0117,25.0,72,0.0,999.0,8.65,31.0,177,56.8,43.9,10.3,394.0,138.0,6.3,7,5,7,1,2026-05-02T20:22:07.015723+05:30
Ranchi,Jharkhand,23.3441,85.3096,24.4,60,0.0,933.9,9.2,45.4,152,76.8,42.1,14.0,473.0,116.0,11.2,0,5,7,1,2026-05-02T20:22:07.015733+05:30
Jamshedpur,Jharkhand,22.8046,86.2029,27.4,69,0.0,987.5,9.0,60.1,196,91.0,70.1,20.7,421.0,163.0,50.7,7,5,7,1,2026-05-02T20:22:07.015744+05:30
Dhanbad,Jharkhand,23.7957,86.4304,25.3,80,0.0,976.8,9.0,29.9,209,105.2,87.8,39.5,466.0,171.0,73.4,7,5,7,1,2026-05-02T20:22:07.015754+05:30
Bokaro,Jharkhand,23.6693,86.1511,25.9,73,0.0,980.5,8.85,25.6,178,98.7,75.0,40.7,1218.0,157.0,78.9,7,5,7,1,2026-05-02T20:22:07.015765+05:30
Bhubaneswar,Odisha,20.2961,85.8245,28.4,84,0.0,999.3,9.05,54.7,91,15.1,13.7,6.2,265.0,96.0,4.5,7,5,7,1,2026-05-02T20:22:07.015775+05:30
Cuttack,Odisha,20.4625,85.8828,28.9,81,0.0,1000.9,9.1,52.2,91,15.1,13.7,6.2,373.0,96.0,4.5,7,5,4,1,2026-05-02T20:22:07.015786+05:30
Rourkela,Odisha,22.2604,84.8536,29.6,45,0.0,980.4,8.95,51.1,167,65.7,38.8,10.3,553.0,129.0,24.5,4,5,7,1,2026-05-02T20:22:07.015796+05:30
Raipur,Chhattisgarh,21.2514,81.6296,32.8,32,0.0,970.2,9.0,51.1,156,52.6,34.8,25.2,253.0,105.0,7.9,0,5,7,0,2026-05-02T20:22:07.015807+05:30
Bhilai,Chhattisgarh,21.1938,81.3509,33.8,25,0.0,970.8,9.0,51.5,144,49.2,30.3,15.5,312.0,119.0,5.9,0,5,7,0,2026-05-02T20:22:07.015817+05:30
Guwahati,Assam,26.1158,91.7086,20.1,99,0.5,1001.7,4.3,21.6,63,27.6,24.1,9.9,372.0,81.0,2.7,6,5,0,1,2026-05-02T20:22:07.015828+05:30
Agartala,Tripura,23.8315,91.2868,24.1,86,0.0,1004.9,8.8,36.0,44,13.8,12.7,9.7,243.0,53.0,1.9,3,5,4,1,2026-05-02T20:22:07.015838+05:30
Shillong,Meghalaya,25.5788,91.8933,14.6,94,0.0,854.2,5.85,31.0,49,8.5,5.8,5.6,403.0,93.0,1.4,3,10,3,0,2026-05-02T20:22:07.015848+05:30
Imphal,Manipur,24.817,93.9368,16.9,97,0.0,921.8,6.3,25.2,54,20.0,17.2,13.4,756.0,52.0,2.5,3,10,7,1,2026-05-02T20:22:07.015859+05:30
Aizawl,Mizoram,23.7271,92.7176,15.8,91,0.0,890.4,9.0,46.8,37,10.3,7.5,4.6,210.0,57.0,0.4,3,10,7,0,2026-05-02T20:22:07.015869+05:30
Kohima,Nagaland,25.6701,94.1077,14.4,90,0.0,852.4,6.0,28.4,42,12.9,9.7,7.7,388.0,65.0,1.1,3,10,3,0,2026-05-02T20:22:07.015880+05:30
Gangtok,Sikkim,27.3314,88.6138,12.5,88,0.0,833.6,4.0,25.9,66,12.9,11.7,11.4,483.0,103.0,1.4,3,10,3,0,2026-05-02T20:22:07.015890+05:30
Siliguri,West Bengal,26.7271,88.3953,20.7,94,0.0,992.5,2.75,22.0,78,21.7,20.7,16.9,577.0,99.0,3.5,3,5,3,1,2026-05-02T20:22:10.269196+05:30
Durgapur,West Bengal,23.5204,87.3119,24.5,87,0.0,992.5,8.9,26.3,209,75.2,65.2,22.8,654.0,152.0,38.3,3,5,7,1,2026-05-02T20:22:10.269231+05:30
Asansol,West Bengal,23.6739,86.9524,24.8,83,0.0,990.9,8.95,27.7,215,88.2,76.1,24.7,737.0,176.0,50.9,3,5,7,1,2026-05-02T20:22:10.269246+05:30
Pondicherry,Puducherry,11.9139,79.8145,31.4,73,0.0,1005.8,9.15,52.2,98,19.0,14.0,6.8,279.0,95.0,3.5,3,5,4,1,2026-05-02T20:22:10.269258+05:30
Port Blair,Andaman and Nicobar Islands,11.6234,92.7265,29.2,72,0.0,1008.0,9.0,32.4,35,12.9,9.3,0.5,223.0,59.0,0.3,7,0,4,1,2026-05-02T20:22:10.269270+05:30
Haridwar,Uttarakhand,29.9457,78.1642,24.9,64,0.0,968.3,7.4,27.4,163,98.0,43.4,12.1,334.0,134.0,8.2,3,5,7,1,2026-05-02T20:22:10.269281+05:30
Rishikesh,Uttarakhand,30.0869,78.2676,22.9,70,0.0,961.0,7.5,24.5,162,80.8,35.4,6.7,394.0,145.0,5.8,3,5,7,1,2026-05-02T20:22:10.269292+05:30
Nainital,Uttarakhand,29.3919,79.4542,12.1,92,0.0,800.5,8.1,38.5,157,100.8,40.3,9.3,351.0,139.0,8.0,3,10,7,0,2026-05-02T20:22:10.269303+05:30
Mussoorie,Uttarakhand,30.4599,78.0664,11.9,95,0.0,797.0,7.9,52.6,172,84.8,32.2,14.8,358.0,148.0,12.6,3,10,7,0,2026-05-02T20:22:10.269344+05:30
Dharamshala,Himachal Pradesh,32.219,76.3234,18.5,53,0.0,864.0,8.25,50.0,123,19.3,13.1,7.7,284.0,122.0,1.6,0,5,7,0,2026-05-02T20:22:10.269365+05:30
Dalhousie,Himachal Pradesh,32.5387,75.971,11.6,82,0.0,798.7,8.5,37.4,139,29.3,19.6,25.1,379.0,117.0,3.3,3,10,7,0,2026-05-02T20:22:10.269378+05:30
Patiala,Punjab,30.3398,76.3869,30.2,36,0.0,971.9,7.5,30.6,237,348.3,54.6,7.4,338.0,127.0,12.3,0,5,7,0,2026-05-02T20:22:10.269389+05:30
Bhatinda,Punjab,30.211,74.9455,32.8,25,0.0,976.8,8.15,38.9,172,58.4,25.6,8.0,302.0,121.0,9.2,0,5,7,0,2026-05-02T20:22:10.269400+05:30
Rohtak,Haryana,28.8955,76.6066,31.0,34,0.0,975.2,7.65,28.1,380,361.4,89.9,40.9,402.0,108.0,22.6,0,5,7,0,2026-05-02T20:22:10.269411+05:30
Panipat,Haryana,29.3909,76.9635,29.4,50,0.0,974.0,7.45,25.9,470,472.2,97.8,28.1,454.0,122.0,21.6,4,5,7,1,2026-05-02T20:22:10.269421+05:30
Mathura,Uttar Pradesh,27.4924,77.6737,30.0,41,0.0,980.5,7.9,30.2,678,555.1,78.7,13.2,587.0,121.0,8.6,4,5,7,0,2026-05-02T20:22:10.269431+05:30
Vrindavan,Uttar Pradesh,27.5823,77.7027,30.7,40,0.0,980.9,7.85,29.9,678,555.1,78.7,13.2,498.0,121.0,8.6,0,5,7,0,2026-05-02T20:22:10.269441+05:30
Ayodhya,Uttar Pradesh,26.7922,82.1998,28.4,55,0.0,991.3,8.25,41.0,160,104.5,44.0,15.3,341.0,123.0,8.6,4,5,7,1,2026-05-02T20:22:10.269452+05:30
Ratlam,Madhya Pradesh,23.3315,75.0367,33.3,25,0.0,950.2,8.55,50.0,55,58.8,18.4,1.5,157.0,109.0,3.3,0,5,7,0,2026-05-02T20:22:10.269462+05:30
Sagar,Madhya Pradesh,23.8388,78.7378,26.4,57,0.0,945.3,8.7,73.1,75,58.9,20.7,5.6,165.0,97.0,3.9,4,5,7,1,2026-05-02T20:22:10.269472+05:30
Satna,Madhya Pradesh,24.6005,80.8322,27.3,60,0.0,966.8,8.7,51.5,108,37.6,16.6,7.9,208.0,109.0,4.5,4,5,7,1,2026-05-02T20:22:10.269482+05:30
Akola,Maharashtra,20.7002,77.0082,36.2,21,0.0,970.6,8.9,46.8,57,50.9,19.7,5.1,218.0,92.0,7.6,0,5,10,0,2026-05-02T20:22:10.269493+05:30
Amravati,Maharashtra,20.9374,77.7796,35.0,21,0.0,963.0,8.9,42.8,61,64.3,22.3,7.5,199.0,85.0,6.5,0,5,7,0,2026-05-02T20:22:10.269504+05:30
Latur,Maharashtra,18.4088,76.5604,35.0,16,0.0,936.5,9.05,32.8,57,41.1,17.6,8.0,279.0,88.0,6.4,0,5,7,0,2026-05-02T20:22:10.269515+05:30
Nanded,Maharashtra,19.1383,77.3091,34.8,18,0.0,964.0,8.95,31.3,72,54.0,21.6,10.3,259.0,85.0,2.7,0,5,7,0,2026-05-02T20:22:10.269525+05:30
Gulbarga,Karnataka,17.3297,76.8343,35.9,15,0.0,954.5,9.1,41.8,68,51.0,22.1,28.1,207.0,71.0,4.7,0,5,10,0,2026-05-02T20:22:10.269535+05:30
Bidar,Karnataka,17.9104,77.5199,32.2,19,0.0,932.1,9.1,34.6,74,45.8,24.9,15.9,534.0,86.0,4.8,0,5,7,0,2026-05-02T20:22:10.269545+05:30
Hospet,Karnataka,15.2689,76.3909,31.5,34,0.0,952.9,9.2,41.8,79,51.0,25.8,15.1,189.0,93.0,2.5,0,5,7,0,2026-05-02T20:22:10.269555+05:30
Tirupur,Tamil Nadu,11.1085,77.3411,27.9,76,0.0,973.8,9.3,55.8,124,26.3,22.5,14.2,254.0,94.0,4.3,7,5,7,1,2026-05-02T20:22:10.269565+05:30
Alappuzha,Kerala,9.4981,76.3388,27.0,90,0.0,1008.9,8.2,29.9,72,29.2,20.3,11.8,153.0,69.0,4.1,7,0,4,1,2026-05-02T20:22:10.269575+05:30
Munnar,Kerala,10.0889,77.0595,18.0,98,0.0,856.8,9.2,24.8,57,15.9,13.9,8.5,459.0,71.0,1.6,3,10,7,1,2026-05-02T20:22:10.269585+05:30
Silchar,Assam,24.8333,92.7789,20.9,98,0.0,1004.5,6.75,32.8,54,27.0,20.5,10.5,257.0,54.0,5.2,3,5,4,1,2026-05-02T20:22:10.269596+05:30
Dibrugarh,Assam,27.4728,94.912,21.5,91,0.1,996.0,7.3,22.7,67,22.7,19.4,9.9,303.0,76.0,1.8,6,5,7,1,2026-05-02T20:22:10.269606+05:30
