city,state,latitude,longitude,temp,humidity,rain,pressure,uv_index,wind_gusts,aqi,pm10,pm2_5,no2,co,o3,so2,mosquito_risk,arthritis_risk,migraine_risk,frizz_risk,updated_at
Delhi,Delhi,28.6139,77.209,27.1,60,0.0,982.9,6.85,38.9,152,127.6,56.3,34.3,879.0,80.0,28.4,4,5,7,1,2026-06-02T00:11:14.111889+05:30
Mumbai,Maharashtra,19.076,72.8777,30.5,70,0.0,1009.2,7.7,41.0,51,29.7,12.4,6.3,172.0,49.0,4.8,3,0,4,1,2026-06-02T00:11:14.111933+05:30
Bangalore,Karnataka,12.9716,77.5946,22.7,86,0.0,913.2,8.95,29.5,66,24.6,21.7,32.1,789.0,59.0,8.1,3,5,7,1,2026-06-02T00:11:14.111949+05:30
Hyderabad,Telangana,17.385,78.4867,30.4,43,0.0,953.6,9.1,28.4,73,70.5,58.6,73.8,807.0,22.0,23.0,0,5,7,1,2026-06-02T00:11:14.111959+05:30
Chennai,Tamil Nadu,13.0827,80.2707,30.2,77,0.0,1006.9,8.75,46.4,113,24.6,18.2,10.0,259.0,88.0,6.2,3,5,4,1,2026-06-02T00:11:14.111968+05:30
Kolkata,West Bengal,22.5726,88.3639,28.8,86,0.0,1005.9,8.9,33.8,127,58.6,52.5,18.0,503.0,57.0,9.5,7,5,4,1,2026-06-02T00:11:14.111975+05:30
Pune,Maharashtra,18.5204,73.8567,25.5,81,0.0,949.2,8.3,42.1,52,15.4,8.5,7.0,170.0,52.0,6.8,7,5,7,1,2026-06-02T00:11:14.111983+05:30
Ahmedabad,Gujarat,23.0225,72.5714,31.5,67,0.0,1001.5,8.0,32.8,73,41.9,25.3,17.6,182.0,36.0,8.1,3,5,4,1,2026-06-02T00:11:14.111989+05:30
Jaipur,Rajasthan,26.9124,75.7873,26.4,70,0.0,958.7,8.15,49.0,118,75.7,33.2,9.2,210.0,68.0,5.3,7,5,7,1,2026-06-02T00:11:14.112001+05:30
Lucknow,Uttar Pradesh,26.8467,80.9462,27.6,75,0.0,993.7,8.25,31.0,99,58.4,45.9,37.8,561.0,46.0,14.2,7,5,7,1,2026-06-02T00:11:14.112007+05:30
Kanpur,Uttar Pradesh,26.4499,80.3319,28.5,69,0.0,991.7,8.25,25.9,100,74.7,47.4,40.7,467.0,50.0,13.9,7,5,7,1,2026-06-02T00:11:14.112014+05:30
Chandigarh,Chandigarh,30.7333,76.7794,23.6,84,0.0,969.4,6.95,43.6,84,61.5,51.9,58.9,1370.0,33.0,12.1,3,5,7,1,2026-06-02T00:11:14.112020+05:30
Srinagar,Jammu and Kashmir,34.0837,74.7973,17.7,68,0.0,841.3,9.0,20.2,120,57.3,47.7,32.5,921.0,18.0,1.3,3,5,7,0,2026-06-02T00:11:14.112027+05:30
Jammu,Jammu and Kashmir,32.7266,74.857,26.6,57,0.0,973.0,8.55,21.2,129,113.6,64.7,44.7,676.0,55.0,8.4,4,5,7,1,2026-06-02T00:11:14.112033+05:30
Amritsar,Punjab,31.634,74.8723,28.0,54,0.0,981.0,8.45,20.2,111,77.5,55.1,25.7,1126.0,61.0,7.1,4,5,7,1,2026-06-02T00:11:14.112040+05:30
Ludhiana,Punjab,30.901,75.8573,27.2,54,0.0,979.1,8.0,25.2,142,208.2,65.2,25.4,478.0,77.0,12.0,4,5,7,1,2026-06-02T00:11:14.112046+05:30
Jalandhar,Punjab,31.326,75.5762,26.8,61,0.0,980.2,8.2,22.7,129,90.1,74.7,57.7,520.0,29.0,11.1,7,5,7,1,2026-06-02T00:11:14.112052+05:30
Dehradun,Uttarakhand,30.6284,78.0322,14.1,92,0.0,830.0,7.8,26.3,66,17.9,12.6,24.5,230.0,67.0,1.1,3,10,7,0,2026-06-02T00:11:14.112059+05:30
Shimla,Himachal Pradesh,31.1048,77.1734,12.1,82,0.0,784.2,7.7,28.8,86,30.2,24.6,29.7,453.0,59.0,4.7,3,10,7,0,2026-06-02T00:11:14.112068+05:30
Manali,Himachal Pradesh,32.2396,77.1887,11.0,80,0.0,817.6,8.8,42.8,45,6.0,5.4,32.3,385.0,62.0,0.0,3,5,7,0,2026-06-02T00:11:14.112077+05:30
Gurgaon,Haryana,28.4595,77.0266,26.9,59,0.0,981.2,7.75,37.8,324,290.6,79.9,40.1,915.0,68.0,28.5,4,5,7,1,2026-06-02T00:11:14.112083+05:30
Noida,Uttar Pradesh,28.5355,77.391,26.0,66,0.0,984.2,7.45,42.5,324,290.6,79.9,40.1,941.0,68.0,28.5,7,5,7,1,2026-06-02T00:11:14.112089+05:30
Ghaziabad,Uttar Pradesh,28.6692,77.4538,25.8,65,0.0,982.6,7.55,52.2,118,50.5,39.8,17.9,602.0,87.0,12.8,7,5,7,1,2026-06-02T00:11:14.112095+05:30
Faridabad,Haryana,28.4089,77.3178,26.5,62,0.0,983.6,7.65,42.5,324,290.6,79.9,40.1,707.0,68.0,28.5,7,5,7,1,2026-06-02T00:11:14.112108+05:30
Meerut,Uttar Pradesh,28.9845,77.7064,25.1,74,0.0,981.5,7.6,60.1,118,50.5,39.8,17.9,513.0,87.0,12.8,7,5,7,1,2026-06-02T00:11:14.112114+05:30
Agra,Uttar Pradesh,27.1767,78.0081,25.2,82,0.0,987.6,8.05,38.5,145,154.6,53.3,16.7,634.0,79.0,9.5,7,5,7,1,2026-06-02T00:11:14.112120+05:30
Varanasi,Uttar Pradesh,25.3176,82.9739,28.3,74,0.0,997.6,8.75,43.2,148,83.6,74.3,40.6,1869.0,72.0,20.4,7,5,7,1,2026-06-02T00:11:14.112127+05:30
Prayagraj,Uttar Pradesh,25.4358,81.8463,28.8,63,0.0,996.0,8.65,30.2,114,91.3,82.4,53.9,524.0,57.0,21.6,7,5,7,1,2026-06-02T00:11:14.112134+05:30
Gorakhpur,Uttar Pradesh,26.7606,83.3732,27.4,73,0.0,997.3,8.6,36.7,156,79.2,68.0,48.1,530.0,35.0,13.1,7,5,7,1,2026-06-02T00:11:14.112142+05:30
Bareilly,Uttar Pradesh,28.367,79.4304,25.3,79,0.0,987.1,8.0,43.6,119,53.1,41.1,27.2,506.0,65.0,6.8,7,5,7,1,2026-06-02T00:11:14.112149+05:30
Aligarh,Uttar Pradesh,27.8974,78.088,27.0,66,0.0,985.8,7.9,42.8,110,166.7,53.1,17.8,442.0,76.0,8.7,7,5,7,1,2026-06-02T00:11:14.112155+05:30
Moradabad,Uttar Pradesh,28.8386,78.7733,25.0,77,0.0,984.1,7.75,56.9,146,94.1,73.8,45.2,562.0,51.0,16.1,7,5,7,1,2026-06-02T00:11:14.112161+05:30
Saharanpur,Uttar Pradesh,29.9637,77.546,24.9,70,0.0,976.4,7.05,34.2,127,96.9,78.7,62.9,908.0,30.0,18.2,3,5,7,1,2026-06-02T00:11:14.112167+05:30
Jhansi,Uttar Pradesh,25.4484,78.5685,27.9,62,0.0,977.7,8.45,26.3,92,51.0,31.2,6.7,328.0,94.0,5.2,7,5,7,1,2026-06-02T00:11:17.357257+05:30
Surat,Gujarat,21.1702,72.8311,30.0,77,0.0,1006.9,7.55,41.8,71,28.1,16.9,18.7,237.0,33.0,30.7,7,5,4,1,2026-06-02T00:11:17.357290+05:30
Vadodara,Gujarat,22.3072,73.1812,30.2,73,0.0,1004.0,8.0,43.6,69,35.7,21.8,22.4,195.0,29.0,25.3,3,5,4,1,2026-06-02T00:11:17.357301+05:30
Rajkot,Gujarat,22.3039,70.8022,30.0,66,0.0,993.9,7.55,44.6,60,29.7,16.5,5.4,123.0,46.0,5.5,7,5,7,1,2026-06-02T00:11:17.357309+05:30
Thane,Maharashtra,19.2183,72.9781,30.1,73,0.0,1008.6,7.7,39.6,51,29.7,12.4,6.3,165.0,49.0,4.8,3,0,4,1,2026-06-02T00:11:17.357316+05:30
Nagpur,Maharashtra,21.1458,79.0882,32.2,46,0.0,973.3,8.85,31.7,79,52.6,34.6,31.6,236.0,55.0,18.3,0,5,7,1,2026-06-02T00:11:17.357324+05:30
Nashik,Maharashtra,19.9975,73.7898,25.5,81,0.0,946.9,8.0,37.1,46,22.5,11.1,4.3,139.0,46.0,1.5,7,5,7,1,2026-06-02T00:11:17.357332+05:30
Aurangabad,Maharashtra,19.8762,75.3433,24.9,79,0.0,945.6,8.9,50.0,55,29.3,17.1,8.7,160.0,64.0,4.4,3,5,7,1,2026-06-02T00:11:17.357339+05:30
Solapur,Maharashtra,17.6599,75.9064,30.2,48,0.0,957.7,8.9,33.8,60,28.8,17.6,9.5,226.0,83.0,3.8,0,5,7,1,2026-06-02T00:11:17.357347+05:30
Kolhapur,Maharashtra,16.705,74.2433,25.1,83,0.0,949.4,8.75,52.2,42,12.0,8.4,7.1,185.0,47.0,3.1,7,5,7,1,2026-06-02T00:11:17.357354+05:30
Goa,Goa,15.2993,74.124,27.0,96,0.0,999.3,8.7,29.9,48,21.1,17.0,9.5,440.0,41.0,2.7,7,5,7,1,2026-06-02T00:11:17.357361+05:30
Jodhpur,Rajasthan,26.2389,73.0243,27.8,74,0.0,981.6,8.4,53.3,94,105.0,38.8,19.9,206.0,35.0,4.4,7,5,7,1,2026-06-02T00:11:17.357369+05:30
Udaipur,Rajasthan,24.5854,73.7125,28.2,59,0.0,945.7,8.8,42.8,69,45.8,22.1,4.7,139.0,71.0,3.3,4,5,7,1,2026-06-02T00:11:17.357377+05:30
Kota,Rajasthan,25.2138,75.8648,27.0,78,0.0,978.1,8.3,52.9,86,75.4,33.6,7.6,201.0,72.0,4.5,7,5,7,1,2026-06-02T00:11:17.357384+05:30
Bikaner,Rajasthan,28.0229,73.3119,27.0,79,0.0,980.4,8.4,38.9,123,132.7,48.3,5.6,217.0,53.0,3.2,7,5,7,1,2026-06-02T00:11:17.357391+05:30
Ajmer,Rajasthan,26.4499,74.6399,27.2,60,0.0,953.9,8.3,44.6,85,77.8,31.8,7.6,191.0,60.0,3.1,4,5,7,1,2026-06-02T00:11:17.357398+05:30
Gwalior,Madhya Pradesh,26.2183,78.1828,25.5,84,0.0,983.0,8.2,30.6,101,71.9,36.2,9.5,323.0,77.0,4.9,7,5,7,1,2026-06-02T00:11:17.357405+05:30
Indore,Madhya Pradesh,22.7196,75.8577,27.5,70,0.0,948.2,8.6,40.0,78,55.5,39.8,21.3,616.0,48.0,9.8,7,5,7,1,2026-06-02T00:11:17.357411+05:30
Bhopal,Madhya Pradesh,23.2599,77.4126,27.8,69,0.0,953.7,8.65,35.6,66,40.3,23.7,5.2,260.0,84.0,4.2,7,5,7,1,2026-06-02T00:11:17.357418+05:30
Jabalpur,Madhya Pradesh,23.1815,79.9864,29.3,52,0.0,961.4,8.8,26.6,91,48.9,30.3,18.4,342.0,62.0,5.6,4,5,7,1,2026-06-02T00:11:17.357424+05:30
Ujjain,Madhya Pradesh,23.1765,75.7885,27.8,68,0.0,953.4,8.55,46.8,75,45.8,30.2,6.6,460.0,70.0,6.1,7,5,7,1,2026-06-02T00:11:17.357431+05:30
Visakhapatnam,Andhra Pradesh,17.6868,83.2185,29.7,85,0.0,1003.2,8.95,31.3,97,43.0,34.2,31.5,439.0,85.0,44.0,7,5,4,1,2026-06-02T00:11:17.357438+05:30
Vijayawada,Andhra Pradesh,16.5062,80.648,29.9,76,0.0,1001.8,9.0,25.2,91,45.6,37.4,16.2,826.0,72.0,6.8,7,5,4,1,2026-06-02T00:11:17.357445+05:30
Guntur,Andhra Pradesh,16.3067,80.4365,29.5,77,0.0,1003.1,9.0,28.4,92,72.4,58.2,33.3,664.0,52.0,10.5,7,5,4,1,2026-06-02T00:11:17.357451+05:30
Nellore,Andhra Pradesh,14.4426,79.9865,29.5,74,0.0,1005.6,8.8,30.2,116,29.9,27.1,8.6,385.0,127.0,12.0,7,5,4,1,2026-06-02T00:11:17.357459+05:30
Kurnool,Andhra Pradesh,15.8281,78.0373,30.0,56,0.0,977.1,8.95,37.1,75,70.3,45.4,35.1,240.0,60.0,10.6,4,5,7,1,2026-06-02T00:11:17.357466+05:30
Kakinada,Andhra Pradesh,16.9891,82.2475,28.7,82,0.0,1006.7,8.95,34.6,94,38.3,27.0,3.8,253.0,121.0,4.0,7,5,4,1,2026-06-02T00:11:17.357472+05:30
Tirupati,Andhra Pradesh,13.6288,79.4192,28.5,70,0.0,991.6,8.85,34.6,73,32.0,28.5,21.8,191.0,68.0,7.2,7,5,7,1,2026-06-02T00:11:17.357478+05:30
Warangal,Telangana,17.9689,79.5941,30.0,54,0.0,978.2,9.0,26.3,116,111.8,82.2,46.2,717.0,67.0,20.1,4,5,7,1,2026-06-02T00:11:17.357485+05:30
Nizamabad,Telangana,18.6725,78.0941,29.1,57,0.0,965.2,9.0,34.6,69,98.0,53.3,22.1,546.0,70.0,7.2,4,5,7,1,2026-06-02T00:11:17.357491+05:30
Mysore,Karnataka,12.2958,76.6396,23.1,93,0.0,929.8,8.95,26.6,45,15.5,14.3,18.3,425.0,56.0,3.1,3,5,7,1,2026-06-02T00:11:17.357497+05:30
Mangalore,Karnataka,12.9141,74.856,26.0,94,0.1,1009.2,8.75,36.7,43,28.6,26.0,24.9,395.0,28.0,6.6,10,0,4,1,2026-06-02T00:11:17.357504+05:30
Hubli-Dharwad,Karnataka,15.3647,75.124,24.9,84,0.0,942.2,8.9,45.4,40,8.1,6.1,6.2,162.0,50.0,1.9,3,5,7,1,2026-06-02T00:11:17.357511+05:30
Belgaum,Karnataka,15.8497,74.4977,23.1,94,0.0,927.0,8.95,42.8,45,15.2,11.8,11.9,156.0,39.0,1.8,3,5,7,1,2026-06-02T00:11:20.592871+05:30
Coimbatore,Tamil Nadu,11.0168,76.9558,25.5,87,0.0,963.2,8.75,41.8,42,7.2,6.7,7.7,213.0,67.0,3.4,7,5,7,1,2026-06-02T00:11:20.592906+05:30
Madurai,Tamil Nadu,9.9252,78.1198,27.3,90,0.0,994.3,8.85,30.2,75,44.4,36.1,53.2,569.0,4.0,9.8,7,5,7,1,2026-06-02T00:11:20.592918+05:30
Trichy,Tamil Nadu,10.7905,78.7047,29.2,70,0.0,1000.9,8.6,32.0,56,23.2,19.0,19.5,283.0,48.0,5.5,7,5,4,1,2026-06-02T00:11:20.592927+05:30
Salem,Tamil Nadu,11.6643,78.146,26.7,81,0.0,978.5,8.45,30.2,99,25.2,22.5,21.6,287.0,68.0,9.2,7,5,7,1,2026-06-02T00:11:20.592936+05:30
Tirunelveli,Tamil Nadu,8.7139,77.7567,29.6,67,0.0,1004.7,8.75,44.3,30,13.4,11.3,10.9,171.0,39.0,2.1,7,5,4,1,2026-06-02T00:11:20.592944+05:30
Vellore,Tamil Nadu,12.9165,79.1325,26.0,97,0.0,984.9,9.0,35.6,78,34.3,29.4,18.0,228.0,73.0,8.0,7,5,7,1,2026-06-02T00:11:20.592951+05:30
Erode,Tamil Nadu,11.341,77.7172,28.8,68,0.0,990.4,8.3,25.6,60,10.7,10.2,14.6,337.0,56.0,4.9,7,5,7,1,2026-06-02T00:11:20.592959+05:30
Kochi,Kerala,9.9312,76.2673,25.5,94,0.0,1010.9,7.7,31.7,51,20.9,19.6,22.9,287.0,19.0,6.4,7,0,4,1,2026-06-02T00:11:20.592966+05:30
Thiruvananthapuram,Kerala,8.5241,76.9366,25.2,96,0.0,1010.7,7.2,36.4,31,7.6,4.4,1.7,569.0,44.0,0.6,7,0,4,1,2026-06-02T00:11:20.592974+05:30
Kozhikode,Kerala,11.2588,75.7804,25.9,96,0.0,1010.0,7.75,31.0,35,11.1,8.2,4.7,594.0,69.0,2.8,7,0,4,1,2026-06-02T00:11:20.592982+05:30
Thrissur,Kerala,10.5276,76.2144,24.8,97,0.0,1009.2,8.1,23.0,48,14.0,13.1,16.9,295.0,26.0,5.1,3,0,4,1,2026-06-02T00:11:20.592990+05:30
Kannur,Kerala,11.8745,75.3704,26.2,98,0.1,1009.3,8.35,27.7,32,22.2,20.6,24.0,395.0,27.0,4.7,10,0,4,1,2026-06-02T00:11:20.592997+05:30
Patna,Bihar,25.5941,85.1376,28.6,72,0.0,1000.5,8.85,14.0,158,98.5,89.6,53.4,594.0,44.0,22.5,7,5,4,1,2026-06-02T00:11:20.593004+05:30
Gaya,Bihar,24.7914,85.0002,28.6,72,0.0,993.9,8.9,24.5,153,85.2,75.9,35.8,746.0,73.0,16.0,7,5,7,1,2026-06-02T00:11:20.593012+05:30
Muzaffarpur,Bihar,26.1209,85.3647,28.3,70,0.0,1000.3,8.85,15.5,162,105.7,95.7,55.1,918.0,44.0,22.1,7,5,4,1,2026-06-02T00:11:20.593019+05:30
Bhagalpur,Bihar,25.2425,87.0117,28.6,82,0.0,1000.8,8.8,18.7,153,115.5,103.8,41.3,587.0,66.0,24.0,7,5,4,1,2026-06-02T00:11:20.593026+05:30
Ranchi,Jharkhand,23.3441,85.3096,24.4,76,0.0,938.0,9.2,37.4,121,81.7,65.4,32.9,834.0,59.0,11.4,3,5,7,1,2026-06-02T00:11:20.593033+05:30
Jamshedpur,Jharkhand,22.8046,86.2029,28.2,83,0.0,990.9,9.05,27.0,154,67.1,59.5,24.6,709.0,65.0,17.3,7,5,7,1,2026-06-02T00:11:20.593040+05:30
Dhanbad,Jharkhand,23.7957,86.4304,28.0,81,0.0,979.9,9.0,17.6,174,113.9,106.9,68.0,476.0,39.0,157.5,7,5,7,1,2026-06-02T00:11:20.593047+05:30
Bokaro,Jharkhand,23.6693,86.1511,27.2,84,0.0,983.7,9.05,25.9,176,145.3,132.7,73.4,567.0,39.0,142.3,7,5,7,1,2026-06-02T00:11:20.593054+05:30
Bhubaneswar,Odisha,20.2961,85.8245,28.5,97,0.0,1002.3,9.0,35.3,110,45.8,42.0,12.3,317.0,87.0,8.8,7,5,4,1,2026-06-02T00:11:20.593061+05:30
Cuttack,Odisha,20.4625,85.8828,28.8,95,0.0,1004.1,9.1,30.6,110,45.8,42.0,12.3,350.0,87.0,8.8,7,5,4,1,2026-06-02T00:11:20.593067+05:30
Rourkela,Odisha,22.2604,84.8536,28.4,81,0.0,985.1,8.95,51.8,149,111.5,97.6,46.5,414.0,53.0,23.4,7,5,7,1,2026-06-02T00:11:20.593074+05:30
Raipur,Chhattisgarh,21.2514,81.6296,31.9,46,0.0,974.1,8.3,23.8,135,74.7,56.7,35.6,569.0,77.0,34.5,0,5,7,1,2026-06-02T00:11:20.593081+05:30
Bhilai,Chhattisgarh,21.1938,81.3509,30.5,52,0.0,974.4,8.45,29.2,146,104.1,76.1,67.9,857.0,40.0,68.4,0,5,7,1,2026-06-02T00:11:20.593087+05:30
Guwahati,Assam,26.1158,91.7086,27.4,76,0.0,1001.1,8.55,25.9,86,61.5,54.6,24.2,367.0,24.0,3.9,7,5,4,1,2026-06-02T00:11:20.593094+05:30
Agartala,Tripura,23.8315,91.2868,26.9,91,0.0,1006.4,8.85,29.5,124,54.6,48.4,16.5,268.0,74.0,4.2,7,5,4,1,2026-06-02T00:11:20.593100+05:30
Shillong,Meghalaya,25.5788,91.8933,18.4,98,0.0,857.9,8.3,24.1,52,25.7,21.3,9.5,356.0,59.0,2.0,3,10,7,1,2026-06-02T00:11:20.593107+05:30
Imphal,Manipur,24.817,93.9368,22.5,99,0.0,923.4,9.05,15.1,52,21.7,21.4,18.2,1027.0,26.0,1.8,3,5,7,1,2026-06-02T00:11:20.593114+05:30
Aizawl,Mizoram,23.7271,92.7176,19.3,99,0.0,892.6,9.05,19.8,45,15.0,12.4,8.0,238.0,40.0,1.5,3,10,7,1,2026-06-02T00:11:20.593120+05:30
Kohima,Nagaland,25.6701,94.1077,19.0,98,0.0,855.7,8.5,24.1,25,10.3,9.7,8.4,263.0,47.0,1.1,3,10,7,1,2026-06-02T00:11:20.593127+05:30
Gangtok,Sikkim,27.3314,88.6138,14.6,81,0.0,837.6,9.2,38.9,60,29.0,26.5,22.3,505.0,19.0,0.7,3,10,7,0,2026-06-02T00:11:20.593133+05:30
Siliguri,West Bengal,26.7271,88.3953,27.4,73,0.0,992.9,8.75,25.2,108,71.7,67.3,49.9,1190.0,15.0,5.4,7,5,7,1,2026-06-02T00:11:23.828834+05:30
Durgapur,West Bengal,23.5204,87.3119,28.2,81,0.0,994.9,8.95,32.0,159,88.0,82.7,52.1,710.0,33.0,65.2,7,5,7,1,2026-06-02T00:11:23.828868+05:30
Asansol,West Bengal,23.6739,86.9524,28.3,82,0.0,993.4,9.0,28.8,157,75.4,69.2,45.5,1451.0,48.0,56.6,7,5,7,1,2026-06-02T00:11:23.828878+05:30
Pondicherry,Puducherry,11.9139,79.8145,29.5,75,0.0,1009.0,8.85,32.8,67,12.0,9.1,12.1,224.0,43.0,9.2,7,0,4,1,2026-06-02T00:11:23.828886+05:30
Port Blair,Andaman and Nicobar Islands,11.6234,92.7265,25.1,97,0.0,1008.2,8.85,37.1,31,11.1,5.9,0.3,115.0,65.0,0.4,7,0,4,1,2026-06-02T00:11:23.828895+05:30
Haridwar,Uttarakhand,29.9457,78.1642,23.0,81,0.0,974.7,7.55,31.7,92,66.8,51.8,35.1,424.0,82.0,12.0,3,5,7,1,2026-06-02T00:11:23.828903+05:30
Rishikesh,Uttarakhand,30.0869,78.2676,22.4,72,0.0,967.4,7.55,32.0,105,39.1,26.3,15.7,503.0,110.0,5.1,3,5,7,1,2026-06-02T00:11:23.828910+05:30
Nainital,Uttarakhand,29.3919,79.4542,12.4,82,0.0,804.7,6.9,51.1,67,29.3,23.1,23.6,329.0,57.0,2.7,3,10,7,0,2026-06-02T00:11:23.828918+05:30
Mussoorie,Uttarakhand,30.4599,78.0664,14.0,83,0.0,803.1,8.0,33.1,76,30.6,27.4,40.7,316.0,52.0,7.9,3,10,7,0,2026-06-02T00:11:23.828926+05:30
Dharamshala,Himachal Pradesh,32.219,76.3234,19.8,62,0.0,870.6,8.35,37.8,44,17.6,15.8,18.9,210.0,26.0,0.0,3,5,7,0,2026-06-02T00:11:23.828934+05:30
Dalhousie,Himachal Pradesh,32.5387,75.971,12.9,86,0.0,804.5,8.3,34.2,82,37.5,29.2,41.0,465.0,58.0,2.9,3,10,7,0,2026-06-02T00:11:23.828941+05:30
Patiala,Punjab,30.3398,76.3869,25.7,58,0.0,978.6,7.45,33.8,150,694.8,105.7,11.5,446.0,95.0,9.3,4,5,7,1,2026-06-02T00:11:23.828949+05:30
Bhatinda,Punjab,30.211,74.9455,28.4,46,0.0,983.7,8.3,33.8,251,343.7,83.8,26.8,322.0,65.0,11.0,4,5,7,0,2026-06-02T00:11:23.828956+05:30
Rohtak,Haryana,28.8955,76.6066,26.2,61,0.0,981.6,7.1,33.5,193,354.8,81.7,31.7,495.0,85.0,26.6,7,5,7,1,2026-06-02T00:11:23.828963+05:30
Panipat,Haryana,29.3909,76.9635,25.5,66,0.0,980.5,7.3,37.4,461,676.1,117.1,16.6,716.0,97.0,8.7,7,5,7,1,2026-06-02T00:11:23.828970+05:30
Mathura,Uttar Pradesh,27.4924,77.6737,25.9,79,0.0,986.8,8.0,37.1,159,187.7,55.8,22.5,467.0,73.0,8.3,7,5,7,1,2026-06-02T00:11:23.828977+05:30
Vrindavan,Uttar Pradesh,27.5823,77.7027,25.8,83,0.0,987.1,7.95,34.2,159,187.7,55.8,22.5,429.0,73.0,8.3,7,5,7,1,2026-06-02T00:11:23.828984+05:30
Ayodhya,Uttar Pradesh,26.7922,82.1998,26.9,75,0.0,995.5,8.35,38.9,113,90.8,72.6,62.6,583.0,27.0,14.9,7,5,7,1,2026-06-02T00:11:23.828991+05:30
Ratlam,Madhya Pradesh,23.3315,75.0367,29.6,58,0.0,954.7,8.45,39.2,73,46.6,29.8,5.7,303.0,68.0,5.9,4,5,7,1,2026-06-02T00:11:23.828998+05:30
Sagar,Madhya Pradesh,23.8388,78.7378,26.3,65,0.0,950.0,8.15,38.2,72,59.1,27.2,11.9,168.0,60.0,2.9,7,5,7,1,2026-06-02T00:11:23.829005+05:30
Satna,Madhya Pradesh,24.6005,80.8322,27.2,67,0.0,971.4,8.75,48.2,93,34.0,30.0,18.2,414.0,69.0,5.1,7,5,7,1,2026-06-02T00:11:23.829013+05:30
Akola,Maharashtra,20.7002,77.0082,27.6,71,0.0,975.7,8.75,64.1,66,44.4,23.7,10.8,207.0,73.0,5.0,7,5,7,1,2026-06-02T00:11:23.829020+05:30
Amravati,Maharashtra,20.9374,77.7796,27.5,75,0.0,967.5,8.8,42.8,66,44.8,23.7,10.4,274.0,74.0,5.3,7,5,7,1,2026-06-02T00:11:23.829028+05:30
Latur,Maharashtra,18.4088,76.5604,27.7,59,0.0,940.4,8.95,50.4,62,44.9,28.8,19.2,170.0,63.0,6.9,4,5,7,1,2026-06-02T00:11:23.829035+05:30
Nanded,Maharashtra,19.1383,77.3091,27.4,69,0.0,969.0,8.85,40.3,64,41.1,23.7,10.1,223.0,80.0,4.2,7,5,7,1,2026-06-02T00:11:23.829043+05:30
Gulbarga,Karnataka,17.3297,76.8343,29.4,52,0.0,959.5,8.85,34.6,63,36.7,23.5,22.0,204.0,71.0,4.8,4,5,7,1,2026-06-02T00:11:23.829049+05:30
Bidar,Karnataka,17.9104,77.5199,28.9,48,0.0,936.0,9.0,35.6,69,65.2,48.8,45.0,635.0,35.0,6.6,4,5,7,1,2026-06-02T00:11:23.829057+05:30
Hospet,Karnataka,15.2689,76.3909,25.4,77,0.0,957.2,8.95,42.8,53,11.8,9.6,8.4,197.0,62.0,2.1,7,5,7,1,2026-06-02T00:11:23.829063+05:30
Tirupur,Tamil Nadu,11.1085,77.3411,26.1,84,0.0,976.5,8.75,34.9,49,12.3,11.6,14.8,179.0,63.0,5.8,7,5,7,1,2026-06-02T00:11:23.829070+05:30
Alappuzha,Kerala,9.4981,76.3388,25.2,99,0.0,1010.8,7.1,30.6,39,17.5,15.2,14.6,211.0,37.0,4.1,7,0,4,1,2026-06-02T00:11:23.829076+05:30
Munnar,Kerala,10.0889,77.0595,17.8,91,0.0,857.9,8.35,27.7,43,9.6,9.3,10.1,273.0,39.0,1.6,3,10,7,1,2026-06-02T00:11:23.829083+05:30
Silchar,Assam,24.8333,92.7789,26.0,97,0.3,1005.5,8.9,23.0,82,39.3,34.3,12.7,340.0,77.0,5.5,10,5,4,1,2026-06-02T00:11:23.829089+05:30
Dibrugarh,Assam,27.4728,94.912,26.1,95,0.0,995.1,8.8,14.4,70,31.8,30.4,23.8,220.0,23.0,2.2,7,5,7,1,2026-06-02T00:11:23.829096+05:30
