city,state,latitude,longitude,temp,humidity,rain,pressure,uv_index,wind_gusts,aqi,pm10,pm2_5,no2,co,o3,so2,mosquito_risk,arthritis_risk,migraine_risk,frizz_risk,updated_at
Delhi,Delhi,28.6139,77.209,29.6,50,0.0,980.9,7.6,43.6,478,136.4,52.7,17.5,525.0,124.0,20.0,4,5,7,1,2026-05-03T22:25:22.244527+05:30
Mumbai,Maharashtra,19.076,72.8777,29.0,78,0.0,1008.0,7.85,41.0,69,35.4,17.2,11.2,238.0,62.0,17.7,7,0,4,1,2026-05-03T22:25:22.244572+05:30
Bangalore,Karnataka,12.9716,77.5946,26.4,50,0.0,911.2,7.85,29.2,77,75.0,48.4,91.4,1198.0,20.0,22.3,4,5,7,0,2026-05-03T22:25:22.244594+05:30
Hyderabad,Telangana,17.385,78.4867,32.6,32,0.0,952.3,9.25,33.8,69,77.8,51.2,63.2,652.0,31.0,19.5,0,5,7,0,2026-05-03T22:25:22.244605+05:30
Chennai,Tamil Nadu,13.0827,80.2707,30.4,84,0.0,1005.9,8.65,51.1,156,33.2,27.0,7.4,248.0,139.0,4.1,3,5,4,1,2026-05-03T22:25:22.244614+05:30
Kolkata,West Bengal,22.5726,88.3639,25.4,90,0.0,1005.8,8.95,42.8,143,70.1,59.5,22.1,617.0,76.0,19.3,7,5,4,1,2026-05-03T22:25:22.244623+05:30
Pune,Maharashtra,18.5204,73.8567,25.5,73,0.0,948.1,8.5,47.9,61,27.0,12.6,10.2,236.0,67.0,7.8,7,5,7,1,2026-05-03T22:25:22.244630+05:30
Ahmedabad,Gujarat,23.0225,72.5714,30.9,70,0.0,997.8,8.1,47.5,70,36.1,15.7,7.5,253.0,92.0,6.8,3,5,7,1,2026-05-03T22:25:22.244640+05:30
Jaipur,Rajasthan,26.9124,75.7873,29.2,41,0.0,956.5,8.15,43.2,114,86.8,36.9,34.6,394.0,55.0,8.6,4,5,7,0,2026-05-03T22:25:22.244649+05:30
Lucknow,Uttar Pradesh,26.8467,80.9462,27.7,60,0.0,992.9,8.1,36.4,150,51.8,38.9,9.1,358.0,132.0,10.2,4,5,7,1,2026-05-03T22:25:22.244657+05:30
Kanpur,Uttar Pradesh,26.4499,80.3319,28.6,57,0.0,990.4,8.1,38.2,170,448.0,70.3,8.2,337.0,135.0,10.1,4,5,7,1,2026-05-03T22:25:22.244664+05:30
Chandigarh,Chandigarh,30.7333,76.7794,24.2,54,0.0,966.5,7.6,62.3,138,128.1,43.8,20.4,594.0,100.0,11.0,0,5,7,0,2026-05-03T22:25:22.244672+05:30
Srinagar,Jammu and Kashmir,34.0837,74.7973,10.8,95,0.0,840.7,8.75,38.9,72,31.0,21.2,14.4,1180.0,100.0,3.9,3,10,7,0,2026-05-03T22:25:22.244680+05:30
Jammu,Jammu and Kashmir,32.7266,74.857,23.6,58,0.0,971.5,8.25,32.4,132,46.1,30.0,16.5,317.0,109.0,6.3,0,5,7,0,2026-05-03T22:25:22.244688+05:30
Amritsar,Punjab,31.634,74.8723,23.5,62,0.0,978.9,8.1,51.5,152,152.3,46.1,5.5,427.0,137.0,8.2,3,5,7,0,2026-05-03T22:25:22.244695+05:30
Ludhiana,Punjab,30.901,75.8573,26.2,48,0.0,976.7,7.85,47.9,187,430.3,80.3,10.3,559.0,121.0,9.1,4,5,7,0,2026-05-03T22:25:22.244702+05:30
Jalandhar,Punjab,31.326,75.5762,24.5,55,0.0,978.5,8.05,49.7,147,281.3,70.5,9.5,493.0,127.0,8.0,0,5,7,0,2026-05-03T22:25:22.244709+05:30
Dehradun,Uttarakhand,30.6284,78.0322,13.4,86,0.0,828.7,7.45,42.5,98,61.5,30.4,26.7,318.0,83.0,2.4,3,10,7,0,2026-05-03T22:25:22.244718+05:30
Shimla,Himachal Pradesh,31.1048,77.1734,10.7,73,0.0,781.4,7.65,42.1,132,103.6,33.5,20.6,375.0,116.0,10.5,3,5,7,0,2026-05-03T22:25:22.244726+05:30
Manali,Himachal Pradesh,32.2396,77.1887,8.8,77,0.1,814.7,9.7,40.7,121,10.9,7.1,17.5,259.0,127.0,0.5,6,5,7,0,2026-05-03T22:25:22.244733+05:30
Gurgaon,Haryana,28.4595,77.0266,28.8,51,0.0,979.1,7.7,45.7,1438,340.9,80.1,19.4,599.0,119.0,20.8,4,5,7,1,2026-05-03T22:25:22.244740+05:30
Noida,Uttar Pradesh,28.5355,77.391,27.0,60,0.0,982.1,7.6,45.4,1438,340.9,80.1,19.4,518.0,119.0,20.8,4,5,7,1,2026-05-03T22:25:22.244747+05:30
Ghaziabad,Uttar Pradesh,28.6692,77.4538,27.6,56,0.0,980.5,7.6,50.4,305,232.4,54.5,7.3,409.0,138.0,14.7,4,5,7,1,2026-05-03T22:25:22.244754+05:30
Faridabad,Haryana,28.4089,77.3178,28.0,56,0.0,981.4,7.65,49.0,1438,340.9,80.1,19.4,537.0,119.0,20.8,4,5,7,1,2026-05-03T22:25:22.244760+05:30
Meerut,Uttar Pradesh,28.9845,77.7064,25.9,65,0.0,979.6,7.45,47.5,305,232.4,54.5,7.3,458.0,138.0,14.7,7,5,7,1,2026-05-03T22:25:22.244767+05:30
Agra,Uttar Pradesh,27.1767,78.0081,29.4,48,0.0,984.7,7.95,69.8,792,394.9,86.8,20.6,359.0,98.0,16.7,4,5,7,1,2026-05-03T22:25:22.244773+05:30
Varanasi,Uttar Pradesh,25.3176,82.9739,28.8,57,0.0,997.0,8.65,36.4,194,71.9,63.6,12.6,431.0,154.0,20.7,4,5,7,1,2026-05-03T22:25:22.244780+05:30
Prayagraj,Uttar Pradesh,25.4358,81.8463,28.7,59,0.0,994.9,8.5,36.0,184,58.6,51.7,11.4,417.0,139.0,13.4,4,5,7,1,2026-05-03T22:25:22.244790+05:30
Gorakhpur,Uttar Pradesh,26.7606,83.3732,24.8,75,0.0,998.2,7.95,37.8,148,43.8,34.2,8.5,403.0,130.0,6.3,3,5,7,1,2026-05-03T22:25:22.244796+05:30
Bareilly,Uttar Pradesh,28.367,79.4304,26.9,59,0.0,986.0,7.9,42.1,151,94.1,40.9,10.5,340.0,110.0,10.2,4,5,7,1,2026-05-03T22:25:22.244805+05:30
Aligarh,Uttar Pradesh,27.8974,78.088,27.5,59,0.0,983.0,7.75,50.4,778,1218.2,142.5,6.7,387.0,136.0,12.8,4,5,7,1,2026-05-03T22:25:22.244812+05:30
Moradabad,Uttar Pradesh,28.8386,78.7733,26.4,60,0.0,982.5,7.7,46.8,144,119.2,49.7,16.4,384.0,104.0,11.8,4,5,7,1,2026-05-03T22:25:22.244819+05:30
Saharanpur,Uttar Pradesh,29.9637,77.546,25.3,68,0.0,974.2,7.3,45.4,147,99.4,49.6,16.7,496.0,112.0,14.3,7,5,7,1,2026-05-03T22:25:22.244826+05:30
Jhansi,Uttar Pradesh,25.4484,78.5685,30.5,42,0.0,975.0,8.4,29.5,119,58.6,25.7,5.4,300.0,108.0,15.3,0,5,7,1,2026-05-03T22:25:25.503226+05:30
Surat,Gujarat,21.1702,72.8311,29.1,81,0.0,1004.5,7.7,55.8,61,23.7,14.9,16.0,238.0,59.0,26.4,7,5,4,1,2026-05-03T22:25:25.503257+05:30
Vadodara,Gujarat,22.3072,73.1812,29.2,77,0.0,1000.8,8.05,51.8,53,18.9,12.4,13.2,266.0,62.0,18.1,7,5,4,1,2026-05-03T22:25:25.503267+05:30
Rajkot,Gujarat,22.3039,70.8022,30.4,59,0.0,990.4,7.7,51.1,51,29.6,13.5,5.1,173.0,79.0,6.8,0,5,7,1,2026-05-03T22:25:25.503275+05:30
Thane,Maharashtra,19.2183,72.9781,28.9,78,0.0,1007.3,7.9,39.6,69,35.4,17.2,11.2,258.0,62.0,17.7,7,5,4,1,2026-05-03T22:25:25.503283+05:30
Nagpur,Maharashtra,21.1458,79.0882,33.7,21,0.0,970.1,8.9,37.1,76,83.8,32.2,20.1,391.0,71.0,13.7,0,5,7,0,2026-05-03T22:25:25.503291+05:30
Nashik,Maharashtra,19.9975,73.7898,24.7,76,0.0,944.9,8.15,49.0,62,23.7,12.4,8.5,206.0,70.0,9.0,3,5,7,1,2026-05-03T22:25:25.503299+05:30
Aurangabad,Maharashtra,19.8762,75.3433,30.1,30,0.0,943.4,9.05,50.8,62,25.6,11.9,5.5,181.0,93.0,6.8,0,5,7,0,2026-05-03T22:25:25.503306+05:30
Solapur,Maharashtra,17.6599,75.9064,33.0,23,0.0,955.7,9.1,40.7,57,33.5,16.4,8.4,205.0,83.0,3.3,0,5,7,0,2026-05-03T22:25:25.503316+05:30
Kolhapur,Maharashtra,16.705,74.2433,24.2,85,0.0,948.1,8.95,47.2,62,29.2,14.9,8.8,201.0,64.0,3.1,3,5,7,1,2026-05-03T22:25:25.503323+05:30
Goa,Goa,15.2993,74.124,28.6,76,0.0,998.7,8.9,36.7,67,51.2,19.2,5.4,200.0,60.0,1.5,7,5,7,1,2026-05-03T22:25:25.503330+05:30
Jodhpur,Rajasthan,26.2389,73.0243,29.4,49,0.0,977.7,8.3,69.8,119,268.2,41.6,4.6,463.0,106.0,3.5,4,5,7,1,2026-05-03T22:25:25.503337+05:30
Udaipur,Rajasthan,24.5854,73.7125,28.1,39,0.0,942.4,8.8,39.2,83,37.5,14.4,3.6,194.0,105.0,3.4,4,5,7,0,2026-05-03T22:25:25.503345+05:30
Kota,Rajasthan,25.2138,75.8648,32.8,27,0.0,974.7,8.35,37.8,74,27.9,15.0,7.3,223.0,93.0,5.6,0,5,7,0,2026-05-03T22:25:25.503352+05:30
Bikaner,Rajasthan,28.0229,73.3119,32.2,26,0.0,977.4,8.25,44.3,87,107.3,28.8,2.8,179.0,106.0,4.9,0,5,7,0,2026-05-03T22:25:25.503360+05:30
Ajmer,Rajasthan,26.4499,74.6399,30.6,30,0.0,951.2,8.3,45.4,76,54.2,19.8,8.2,216.0,88.0,4.4,0,5,7,0,2026-05-03T22:25:25.503367+05:30
Gwalior,Madhya Pradesh,26.2183,78.1828,31.1,38,0.0,980.2,8.15,42.8,87,70.3,25.4,6.8,290.0,93.0,6.5,0,5,7,0,2026-05-03T22:25:25.503374+05:30
Indore,Madhya Pradesh,22.7196,75.8577,31.4,29,0.0,945.9,8.7,41.8,77,16.1,12.9,7.0,269.0,105.0,6.6,0,5,7,0,2026-05-03T22:25:25.503381+05:30
Bhopal,Madhya Pradesh,23.2599,77.4126,31.6,20,0.0,950.6,8.65,32.4,68,65.2,26.3,11.9,435.0,67.0,4.6,0,5,7,0,2026-05-03T22:25:25.503388+05:30
Jabalpur,Madhya Pradesh,23.1815,79.9864,30.2,24,0.0,958.5,8.85,29.2,69,70.5,26.1,17.7,319.0,71.0,5.4,0,5,7,0,2026-05-03T22:25:25.503395+05:30
Ujjain,Madhya Pradesh,23.1765,75.7885,31.5,29,0.0,951.3,8.6,42.5,79,17.1,12.9,3.9,216.0,105.0,4.9,0,5,7,0,2026-05-03T22:25:25.503402+05:30
Visakhapatnam,Andhra Pradesh,17.6868,83.2185,28.1,93,0.0,1003.3,9.15,47.5,67,30.4,24.0,23.1,329.0,75.0,4.6,7,5,4,1,2026-05-03T22:25:25.503409+05:30
Vijayawada,Andhra Pradesh,16.5062,80.648,30.0,78,0.0,1001.4,9.15,29.2,152,35.3,29.7,6.1,396.0,134.0,6.7,7,5,4,1,2026-05-03T22:25:25.503417+05:30
Guntur,Andhra Pradesh,16.3067,80.4365,30.9,69,0.0,1002.6,9.2,34.6,116,38.9,32.9,12.8,309.0,116.0,8.7,3,5,4,1,2026-05-03T22:25:25.503424+05:30
Nellore,Andhra Pradesh,14.4426,79.9865,30.7,67,0.0,1004.1,9.2,37.1,155,33.8,30.7,6.3,285.0,150.0,8.4,3,5,4,1,2026-05-03T22:25:25.503432+05:30
Kurnool,Andhra Pradesh,15.8281,78.0373,33.6,25,0.0,974.3,9.15,41.4,76,60.8,32.7,19.7,473.0,82.0,8.5,0,5,7,0,2026-05-03T22:25:25.503439+05:30
Kakinada,Andhra Pradesh,16.9891,82.2475,28.6,91,0.0,1006.8,9.15,33.1,61,31.2,22.5,2.1,360.0,109.0,2.6,7,5,4,1,2026-05-03T22:25:25.503447+05:30
Tirupati,Andhra Pradesh,13.6288,79.4192,31.0,54,0.0,990.2,7.25,27.4,96,33.4,27.7,14.9,367.0,115.0,7.2,0,5,7,1,2026-05-03T22:25:25.503454+05:30
Warangal,Telangana,17.9689,79.5941,30.8,54,0.0,976.7,9.15,38.9,83,82.9,53.1,25.2,356.0,78.0,14.2,0,5,7,1,2026-05-03T22:25:25.503461+05:30
Nizamabad,Telangana,18.6725,78.0941,30.6,25,0.0,961.6,9.1,44.6,74,111.1,41.6,25.6,384.0,64.0,6.9,0,5,7,0,2026-05-03T22:25:25.503468+05:30
Mysore,Karnataka,12.2958,76.6396,24.6,81,0.0,929.2,8.95,36.7,67,35.4,20.3,14.9,222.0,73.0,3.2,3,5,7,1,2026-05-03T22:25:25.503475+05:30
Mangalore,Karnataka,12.9141,74.856,29.4,71,0.0,1007.5,9.0,42.8,68,52.5,16.5,3.4,197.0,63.0,1.7,7,5,4,1,2026-05-03T22:25:25.503482+05:30
Hubli-Dharwad,Karnataka,15.3647,75.124,24.6,84,0.0,940.9,9.15,44.6,58,27.0,13.2,6.6,192.0,62.0,1.8,3,5,7,1,2026-05-03T22:25:25.503488+05:30
Belgaum,Karnataka,15.8497,74.4977,22.5,94,0.0,925.8,9.15,45.0,59,28.4,14.4,9.5,182.0,51.0,2.5,3,5,7,1,2026-05-03T22:25:28.750382+05:30
Coimbatore,Tamil Nadu,11.0168,76.9558,26.8,75,0.0,962.4,9.25,49.0,63,32.0,21.5,10.2,213.0,62.0,3.7,7,5,7,1,2026-05-03T22:25:28.750423+05:30
Madurai,Tamil Nadu,9.9252,78.1198,31.8,54,0.0,993.2,8.9,33.1,117,29.1,25.1,18.8,375.0,77.0,5.7,0,5,7,1,2026-05-03T22:25:28.750435+05:30
Trichy,Tamil Nadu,10.7905,78.7047,31.1,51,0.0,999.4,9.2,40.0,119,28.6,24.9,11.5,288.0,101.0,4.0,0,5,7,1,2026-05-03T22:25:28.750444+05:30
Salem,Tamil Nadu,11.6643,78.146,31.3,54,0.0,977.3,9.25,42.1,140,33.3,26.7,18.7,346.0,96.0,11.0,0,5,7,1,2026-05-03T22:25:28.750452+05:30
Tirunelveli,Tamil Nadu,8.7139,77.7567,30.9,61,0.0,1003.4,8.15,36.0,73,22.8,19.4,8.3,253.0,66.0,2.5,3,5,4,1,2026-05-03T22:25:28.750460+05:30
Vellore,Tamil Nadu,12.9165,79.1325,32.0,53,0.0,983.7,9.3,38.9,95,39.8,35.0,12.4,277.0,120.0,8.4,0,5,7,1,2026-05-03T22:25:28.750467+05:30
Erode,Tamil Nadu,11.341,77.7172,29.9,60,0.0,989.2,9.25,46.1,90,25.9,20.8,14.1,235.0,71.0,3.2,4,5,7,1,2026-05-03T22:25:28.750475+05:30
Kochi,Kerala,9.9312,76.2673,27.9,92,0.0,1010.3,9.05,32.0,96,65.4,50.8,49.1,410.0,8.0,10.1,7,0,4,1,2026-05-03T22:25:28.750483+05:30
Thiruvananthapuram,Kerala,8.5241,76.9366,26.4,93,0.0,1009.8,8.65,36.0,56,27.1,17.1,2.7,325.0,69.0,1.1,7,0,4,1,2026-05-03T22:25:28.750491+05:30
Kozhikode,Kerala,11.2588,75.7804,28.3,81,0.0,1009.1,9.0,42.1,65,64.5,19.4,1.8,226.0,70.0,0.8,7,0,4,1,2026-05-03T22:25:28.750498+05:30
Thrissur,Kerala,10.5276,76.2144,27.4,81,0.0,1008.7,8.75,36.7,94,59.8,38.4,26.5,486.0,37.0,4.9,7,0,4,1,2026-05-03T22:25:28.750506+05:30
Kannur,Kerala,11.8745,75.3704,29.5,69,0.0,1008.3,9.0,46.8,66,51.7,16.9,3.5,217.0,60.0,1.0,7,0,4,1,2026-05-03T22:25:28.750512+05:30
Patna,Bihar,25.5941,85.1376,25.5,80,0.0,1001.5,8.55,41.8,174,58.9,51.2,11.9,469.0,134.0,10.8,7,5,4,1,2026-05-03T22:25:28.750519+05:30
Gaya,Bihar,24.7914,85.0002,26.9,70,0.0,994.3,8.7,41.0,191,67.8,59.1,8.7,367.0,146.0,10.3,7,5,7,1,2026-05-03T22:25:28.750526+05:30
Muzaffarpur,Bihar,26.1209,85.3647,24.8,78,0.0,1002.0,8.7,41.4,134,51.5,44.4,15.3,429.0,105.0,9.4,3,5,4,1,2026-05-03T22:25:28.750533+05:30
Bhagalpur,Bihar,25.2425,87.0117,23.6,90,0.1,1003.1,8.65,41.8,143,56.7,45.6,13.3,362.0,104.0,8.8,6,5,4,1,2026-05-03T22:25:28.750540+05:30
Ranchi,Jharkhand,23.3441,85.3096,23.2,76,0.0,937.8,9.25,29.2,105,51.3,38.0,12.5,517.0,114.0,19.8,3,5,7,1,2026-05-03T22:25:28.750548+05:30
Jamshedpur,Jharkhand,22.8046,86.2029,25.6,76,0.0,991.0,9.05,38.5,184,50.1,37.8,7.9,344.0,114.0,12.7,7,5,7,1,2026-05-03T22:25:28.750554+05:30
Dhanbad,Jharkhand,23.7957,86.4304,24.1,87,0.0,980.6,9.0,30.2,183,71.9,62.9,37.2,721.0,96.0,69.2,3,5,7,1,2026-05-03T22:25:28.750561+05:30
Bokaro,Jharkhand,23.6693,86.1511,24.0,88,0.0,984.5,9.0,39.2,213,78.2,67.8,38.9,684.0,107.0,84.1,3,5,7,1,2026-05-03T22:25:28.750569+05:30
Bhubaneswar,Odisha,20.2961,85.8245,26.2,95,0.0,1002.7,9.1,41.4,75,20.0,17.1,7.5,250.0,74.0,4.4,7,5,4,1,2026-05-03T22:25:28.750576+05:30
Cuttack,Odisha,20.4625,85.8828,26.4,93,0.0,1004.4,9.15,41.0,75,20.0,17.1,7.5,303.0,74.0,4.4,7,5,4,1,2026-05-03T22:25:28.750582+05:30
Rourkela,Odisha,22.2604,84.8536,27.6,69,0.0,984.2,8.95,38.5,129,92.9,61.0,34.0,368.0,80.0,34.5,7,5,7,1,2026-05-03T22:25:28.750589+05:30
Raipur,Chhattisgarh,21.2514,81.6296,32.6,23,0.0,972.1,9.0,32.4,114,99.9,73.6,51.5,687.0,53.0,15.7,0,5,7,0,2026-05-03T22:25:28.750596+05:30
Bhilai,Chhattisgarh,21.1938,81.3509,31.4,26,0.0,972.3,9.0,35.6,88,82.9,52.4,44.8,1009.0,51.0,11.7,0,5,7,0,2026-05-03T22:25:28.750603+05:30
Guwahati,Assam,26.1158,91.7086,21.3,97,0.1,1004.9,7.2,19.1,58,19.3,17.3,11.7,389.0,55.0,2.1,6,5,4,1,2026-05-03T22:25:28.750610+05:30
Agartala,Tripura,23.8315,91.2868,21.8,96,0.0,1009.0,8.7,36.7,60,16.2,13.7,15.2,224.0,61.0,2.3,3,0,4,1,2026-05-03T22:25:28.750616+05:30
Shillong,Meghalaya,25.5788,91.8933,13.6,94,0.0,856.9,6.5,24.8,48,20.7,18.2,14.3,465.0,59.0,1.5,3,10,7,0,2026-05-03T22:25:28.750623+05:30
Imphal,Manipur,24.817,93.9368,17.9,95,0.0,925.5,9.15,37.8,63,48.2,38.0,29.5,762.0,35.0,5.6,3,10,7,1,2026-05-03T22:25:28.750630+05:30
Aizawl,Mizoram,23.7271,92.7176,16.4,95,0.1,893.3,8.5,55.1,41,18.6,14.8,9.6,315.0,39.0,0.7,6,10,7,0,2026-05-03T22:25:28.750636+05:30
Kohima,Nagaland,25.6701,94.1077,14.2,92,0.0,855.7,4.25,24.8,43,10.7,8.6,9.2,322.0,58.0,0.8,3,10,3,0,2026-05-03T22:25:28.750643+05:30
Gangtok,Sikkim,27.3314,88.6138,12.8,99,0.1,838.1,7.95,42.1,82,13.7,12.7,8.7,475.0,113.0,1.7,6,10,7,0,2026-05-03T22:25:28.750650+05:30
Siliguri,West Bengal,26.7271,88.3953,22.8,77,0.0,995.7,8.15,28.1,85,27.0,24.6,14.7,382.0,106.0,4.1,3,5,7,1,2026-05-03T22:25:32.013417+05:30
Durgapur,West Bengal,23.5204,87.3119,23.8,95,0.0,995.6,8.9,32.8,142,64.5,57.6,25.0,404.0,88.0,28.3,3,5,7,1,2026-05-03T22:25:32.013453+05:30
Asansol,West Bengal,23.6739,86.9524,23.8,92,0.0,994.3,8.95,29.2,152,68.0,60.5,30.1,465.0,94.0,48.9,3,5,7,1,2026-05-03T22:25:32.013466+05:30
Pondicherry,Puducherry,11.9139,79.8145,30.6,81,0.0,1007.5,8.55,44.3,161,24.8,19.1,5.3,214.0,107.0,2.7,3,5,4,1,2026-05-03T22:25:32.013477+05:30
Port Blair,Andaman and Nicobar Islands,11.6234,92.7265,27.7,87,0.0,1009.3,8.9,25.6,27,5.3,3.8,0.7,374.0,54.0,0.3,7,0,4,1,2026-05-03T22:25:32.013487+05:30
Haridwar,Uttarakhand,29.9457,78.1642,23.6,74,0.0,973.0,7.35,40.0,132,120.1,48.9,12.9,421.0,113.0,10.5,3,5,7,1,2026-05-03T22:25:32.013497+05:30
Rishikesh,Uttarakhand,30.0869,78.2676,21.8,78,0.0,965.8,7.45,37.4,127,145.3,45.1,10.8,473.0,115.0,6.9,3,5,7,1,2026-05-03T22:25:32.013506+05:30
Nainital,Uttarakhand,29.3919,79.4542,11.4,96,0.0,803.4,8.4,34.9,126,84.3,36.9,7.2,384.0,111.0,3.7,3,10,7,0,2026-05-03T22:25:32.013516+05:30
Mussoorie,Uttarakhand,30.4599,78.0664,11.6,90,0.0,800.7,7.3,53.3,119,133.2,48.8,24.3,397.0,99.0,13.0,3,10,7,0,2026-05-03T22:25:32.013525+05:30
Dharamshala,Himachal Pradesh,32.219,76.3234,15.5,74,0.0,866.7,6.85,41.4,116,48.9,23.2,12.3,236.0,108.0,3.2,3,5,7,0,2026-05-03T22:25:32.013533+05:30
Dalhousie,Himachal Pradesh,32.5387,75.971,9.6,96,0.0,800.9,7.95,48.2,124,53.1,27.2,25.8,307.0,104.0,4.7,3,10,7,0,2026-05-03T22:25:32.013540+05:30
Patiala,Punjab,30.3398,76.3869,27.4,55,0.0,976.1,7.5,63.0,773,752.5,111.1,10.3,398.0,115.0,10.2,4,5,7,1,2026-05-03T22:25:32.013548+05:30
Bhatinda,Punjab,30.211,74.9455,26.0,56,0.0,980.9,8.15,56.5,404,530.9,99.9,5.0,348.0,143.0,11.3,4,5,7,1,2026-05-03T22:25:32.013556+05:30
Rohtak,Haryana,28.8955,76.6066,27.7,57,0.0,979.1,7.65,52.6,760,694.8,100.8,12.5,493.0,138.0,19.5,4,5,7,1,2026-05-03T22:25:32.013563+05:30
Panipat,Haryana,29.3909,76.9635,26.5,64,0.0,978.2,7.45,54.0,1237,1959.5,203.5,8.0,469.0,135.0,11.3,7,5,7,1,2026-05-03T22:25:32.013570+05:30
Mathura,Uttar Pradesh,27.4924,77.6737,28.0,55,0.0,983.9,7.9,60.8,897,1817.9,204.0,12.2,342.0,107.0,9.4,4,5,7,1,2026-05-03T22:25:32.013577+05:30
Vrindavan,Uttar Pradesh,27.5823,77.7027,27.6,57,0.0,984.3,7.9,59.4,897,1817.9,204.0,12.2,362.0,107.0,9.4,4,5,7,1,2026-05-03T22:25:32.013584+05:30
Ayodhya,Uttar Pradesh,26.7922,82.1998,26.0,63,0.0,995.6,8.25,40.7,150,50.4,37.7,10.0,325.0,123.0,6.0,7,5,7,1,2026-05-03T22:25:32.013591+05:30
Ratlam,Madhya Pradesh,23.3315,75.0367,29.5,36,0.0,952.0,8.5,47.2,88,16.3,11.1,2.3,192.0,110.0,5.0,4,5,7,0,2026-05-03T22:25:32.013598+05:30
Sagar,Madhya Pradesh,23.8388,78.7378,29.8,35,0.0,947.2,8.7,39.6,70,63.1,23.1,4.5,259.0,91.0,3.1,4,5,7,0,2026-05-03T22:25:32.013605+05:30
Satna,Madhya Pradesh,24.6005,80.8322,28.8,52,0.0,969.2,8.7,27.7,102,47.7,25.9,10.8,273.0,102.0,6.1,4,5,7,1,2026-05-03T22:25:32.013612+05:30
Akola,Maharashtra,20.7002,77.0082,33.1,16,0.0,972.4,8.85,41.4,68,25.8,12.3,7.3,195.0,97.0,9.9,0,5,7,0,2026-05-03T22:25:32.013620+05:30
Amravati,Maharashtra,20.9374,77.7796,32.8,15,0.0,964.5,8.85,42.1,66,30.0,13.1,7.8,221.0,95.0,10.0,0,5,7,0,2026-05-03T22:25:32.013628+05:30
Latur,Maharashtra,18.4088,76.5604,31.8,17,0.0,938.3,9.05,40.0,63,54.5,24.8,12.8,367.0,75.0,6.0,0,5,7,0,2026-05-03T22:25:32.013635+05:30
Nanded,Maharashtra,19.1383,77.3091,32.2,19,0.0,965.9,9.0,36.0,63,48.9,21.6,13.1,276.0,72.0,3.6,0,5,7,0,2026-05-03T22:25:32.013642+05:30
Gulbarga,Karnataka,17.3297,76.8343,33.7,14,0.0,956.3,9.1,41.4,60,61.0,26.0,23.6,245.0,57.0,4.4,0,5,7,0,2026-05-03T22:25:32.013649+05:30
Bidar,Karnataka,17.9104,77.5199,30.0,28,0.0,933.9,9.15,37.4,70,71.5,33.8,22.5,489.0,62.0,5.4,4,5,7,0,2026-05-03T22:25:32.013655+05:30
Hospet,Karnataka,15.2689,76.3909,28.9,60,0.0,955.6,9.2,36.7,62,41.8,23.9,31.9,237.0,53.0,4.4,4,5,7,1,2026-05-03T22:25:32.013662+05:30
Tirupur,Tamil Nadu,11.1085,77.3411,27.7,71,0.0,975.5,9.35,51.8,71,29.2,21.4,15.9,205.0,66.0,5.3,7,5,7,1,2026-05-03T22:25:32.013669+05:30
Alappuzha,Kerala,9.4981,76.3388,27.9,87,0.0,1010.3,9.0,36.0,83,51.2,32.6,21.4,132.0,51.0,4.2,7,0,4,1,2026-05-03T22:25:32.013675+05:30
Munnar,Kerala,10.0889,77.0595,17.4,99,0.0,858.1,9.3,28.1,68,28.3,23.1,9.4,308.0,66.0,1.7,3,10,7,1,2026-05-03T22:25:32.013682+05:30
Silchar,Assam,24.8333,92.7789,20.8,98,0.0,1008.9,8.35,36.4,57,42.6,29.3,10.1,355.0,79.0,5.7,3,0,4,1,2026-05-03T22:25:32.013689+05:30
Dibrugarh,Assam,27.4728,94.912,22.0,90,0.0,999.4,8.2,21.6,60,22.8,22.4,19.6,661.0,28.0,1.9,3,5,7,1,2026-05-03T22:25:32.013696+05:30
