city,state,latitude,longitude,temp,humidity,rain,pressure,uv_index,wind_gusts,aqi,pm10,pm2_5,no2,co,o3,so2,mosquito_risk,arthritis_risk,migraine_risk,frizz_risk,updated_at
Delhi,Delhi,28.6139,77.209,29.5,67,0.0,978.2,7.55,30.2,165,239.3,103.6,71.8,812.0,40.0,36.5,7,5,7,1,2026-06-05T23:29:15.957859+05:30
Mumbai,Maharashtra,19.076,72.8777,29.4,82,0.0,1005.5,7.55,40.3,72,38.4,18.8,9.0,175.0,45.0,6.8,7,5,4,1,2026-06-05T23:29:15.957913+05:30
Bangalore,Karnataka,12.9716,77.5946,21.5,90,0.0,910.7,8.9,54.0,25,5.2,4.8,14.6,378.0,34.0,4.6,3,5,7,1,2026-06-05T23:29:15.957930+05:30
Hyderabad,Telangana,17.385,78.4867,28.4,62,0.0,950.8,7.65,37.8,69,41.4,31.9,18.8,427.0,73.0,6.1,7,5,7,1,2026-06-05T23:29:15.957941+05:30
Chennai,Tamil Nadu,13.0827,80.2707,30.8,68,0.0,1004.8,8.55,46.8,54,11.0,10.0,21.2,453.0,48.0,10.1,3,5,4,1,2026-06-05T23:29:15.957951+05:30
Kolkata,West Bengal,22.5726,88.3639,29.2,88,0.0,1001.3,8.65,31.3,135,57.7,54.1,17.0,648.0,74.0,11.2,7,5,4,1,2026-06-05T23:29:15.957962+05:30
Pune,Maharashtra,18.5204,73.8567,25.6,83,0.0,946.0,8.25,42.8,42,18.2,11.0,10.6,180.0,40.0,6.8,7,5,7,1,2026-06-05T23:29:15.957970+05:30
Ahmedabad,Gujarat,23.0225,72.5714,32.4,68,0.0,997.1,8.1,36.0,83,54.2,30.2,12.6,184.0,58.0,7.4,3,5,7,1,2026-06-05T23:29:15.957979+05:30
Jaipur,Rajasthan,26.9124,75.7873,28.1,57,0.0,955.5,8.2,34.9,108,116.9,52.4,32.8,569.0,38.0,12.9,4,5,7,1,2026-06-05T23:29:15.957994+05:30
Lucknow,Uttar Pradesh,26.8467,80.9462,30.6,62,0.0,988.6,8.35,34.2,155,183.0,83.4,22.3,413.0,89.0,16.4,3,5,7,1,2026-06-05T23:29:15.958003+05:30
Kanpur,Uttar Pradesh,26.4499,80.3319,30.3,56,0.0,987.2,8.35,58.0,159,258.9,85.9,26.4,450.0,60.0,11.4,0,5,7,1,2026-06-05T23:29:15.958011+05:30
Chandigarh,Chandigarh,30.7333,76.7794,25.3,79,0.0,963.5,7.7,27.0,122,121.1,79.9,61.1,1500.0,50.0,16.5,7,5,7,1,2026-06-05T23:29:15.958020+05:30
Srinagar,Jammu and Kashmir,34.0837,74.7973,14.6,94,0.0,840.3,9.0,32.8,74,55.9,52.3,43.1,1059.0,28.0,1.5,3,10,7,0,2026-06-05T23:29:15.958031+05:30
Jammu,Jammu and Kashmir,32.7266,74.857,25.4,64,0.0,967.1,8.55,29.9,115,63.6,50.2,54.3,646.0,29.0,6.6,7,5,7,1,2026-06-05T23:29:15.958039+05:30
Amritsar,Punjab,31.634,74.8723,29.7,50,0.0,975.3,8.45,28.1,125,99.0,79.9,66.8,796.0,44.0,13.7,4,5,7,1,2026-06-05T23:29:15.958068+05:30
Ludhiana,Punjab,30.901,75.8573,29.7,56,0.0,973.3,8.0,37.8,142,106.4,72.6,45.1,767.0,73.0,13.1,4,5,7,1,2026-06-05T23:29:15.958077+05:30
Jalandhar,Punjab,31.326,75.5762,29.2,54,0.0,974.3,8.2,27.7,129,100.6,78.2,59.5,1216.0,48.0,11.7,4,5,7,1,2026-06-05T23:29:15.958086+05:30
Dehradun,Uttarakhand,30.6284,78.0322,14.3,86,0.0,825.5,4.45,25.6,90,45.8,27.8,26.3,258.0,73.0,1.6,3,10,3,0,2026-06-05T23:29:15.958094+05:30
Shimla,Himachal Pradesh,31.1048,77.1734,13.6,71,0.0,781.0,6.55,33.1,121,91.0,46.4,27.5,350.0,92.0,5.8,3,5,7,0,2026-06-05T23:29:15.958105+05:30
Manali,Himachal Pradesh,32.2396,77.1887,14.5,82,0.0,815.1,7.45,42.5,84,6.4,5.4,33.6,283.0,99.0,0.1,3,10,7,0,2026-06-05T23:29:15.958115+05:30
Gurgaon,Haryana,28.4595,77.0266,28.1,72,0.0,976.7,7.8,32.8,583,188.6,92.7,81.6,1670.0,29.0,25.2,7,5,7,1,2026-06-05T23:29:15.958122+05:30
Noida,Uttar Pradesh,28.5355,77.391,27.2,80,0.0,979.6,7.35,29.9,583,188.6,92.7,81.6,1487.0,29.0,25.2,7,5,7,1,2026-06-05T23:29:15.958130+05:30
Ghaziabad,Uttar Pradesh,28.6692,77.4538,26.5,85,0.0,977.9,6.9,35.3,162,199.8,96.9,42.8,803.0,67.0,20.8,7,5,7,1,2026-06-05T23:29:15.958138+05:30
Faridabad,Haryana,28.4089,77.3178,28.1,75,0.0,979.0,7.0,34.2,583,188.6,92.7,81.6,1150.0,29.0,25.2,7,5,7,1,2026-06-05T23:29:15.958144+05:30
Meerut,Uttar Pradesh,28.9845,77.7064,26.3,86,0.0,976.5,7.3,31.7,162,199.8,96.9,42.8,719.0,67.0,20.8,7,5,7,1,2026-06-05T23:29:15.958152+05:30
Agra,Uttar Pradesh,27.1767,78.0081,28.9,67,0.0,983.2,7.75,32.0,151,392.1,123.9,71.7,905.0,31.0,28.6,7,5,7,1,2026-06-05T23:29:15.958159+05:30
Varanasi,Uttar Pradesh,25.3176,82.9739,33.4,51,0.0,992.0,8.8,25.9,145,95.2,68.9,30.6,1192.0,79.0,18.3,0,5,7,1,2026-06-05T23:29:15.958167+05:30
Prayagraj,Uttar Pradesh,25.4358,81.8463,31.7,52,0.0,991.0,8.35,36.0,150,88.2,48.5,12.0,343.0,109.0,11.6,0,5,7,1,2026-06-05T23:29:15.958175+05:30
Gorakhpur,Uttar Pradesh,26.7606,83.3732,29.9,69,0.0,992.1,8.7,23.8,160,101.3,71.9,29.9,542.0,75.0,14.1,7,5,7,1,2026-06-05T23:29:15.958184+05:30
Bareilly,Uttar Pradesh,28.367,79.4304,27.6,71,0.0,982.2,4.7,34.6,132,59.8,49.4,19.9,393.0,103.0,17.1,7,5,3,1,2026-06-05T23:29:15.958191+05:30
Aligarh,Uttar Pradesh,27.8974,78.088,27.6,77,0.0,980.9,7.4,40.7,314,364.1,140.2,61.7,631.0,56.0,29.9,7,5,7,1,2026-06-05T23:29:15.958199+05:30
Moradabad,Uttar Pradesh,28.8386,78.7733,27.1,73,0.0,979.1,5.65,34.6,153,139.2,109.0,53.2,537.0,79.0,26.4,7,5,3,1,2026-06-05T23:29:15.958206+05:30
Saharanpur,Uttar Pradesh,29.9637,77.546,26.1,74,0.0,970.7,6.95,35.6,151,128.1,79.2,35.4,689.0,77.0,14.6,7,5,7,1,2026-06-05T23:29:15.958213+05:30
Jhansi,Uttar Pradesh,25.4484,78.5685,29.5,57,0.0,974.1,8.5,34.6,72,60.5,30.4,17.6,193.0,54.0,6.7,4,5,7,1,2026-06-05T23:29:19.249028+05:30
Surat,Gujarat,21.1702,72.8311,30.2,80,0.0,1002.9,7.55,47.5,89,45.1,26.0,18.4,243.0,35.0,30.6,3,5,4,1,2026-06-05T23:29:19.249090+05:30
Vadodara,Gujarat,22.3072,73.1812,30.4,78,0.0,999.9,8.0,45.7,81,37.5,24.9,20.9,189.0,33.0,22.0,3,5,7,1,2026-06-05T23:29:19.249102+05:30
Rajkot,Gujarat,22.3039,70.8022,30.3,67,0.0,989.9,7.55,44.6,80,49.9,22.8,4.5,116.0,52.0,4.5,3,5,7,1,2026-06-05T23:29:19.249111+05:30
Thane,Maharashtra,19.2183,72.9781,29.6,79,0.0,1005.0,7.35,39.2,72,38.4,18.8,9.0,188.0,45.0,6.8,7,5,4,1,2026-06-05T23:29:19.249119+05:30
Nagpur,Maharashtra,21.1458,79.0882,32.7,41,0.0,969.5,8.9,43.6,91,66.4,42.7,26.8,276.0,45.0,14.3,0,5,7,1,2026-06-05T23:29:19.249126+05:30
Nashik,Maharashtra,19.9975,73.7898,25.9,85,0.0,943.1,8.0,46.4,57,29.2,15.8,5.5,144.0,45.0,1.8,7,5,7,1,2026-06-05T23:29:19.249134+05:30
Aurangabad,Maharashtra,19.8762,75.3433,29.7,59,0.0,941.6,8.95,39.2,65,28.5,17.1,4.7,152.0,65.0,3.6,4,5,7,1,2026-06-05T23:29:19.249142+05:30
Solapur,Maharashtra,17.6599,75.9064,27.9,71,0.0,955.1,8.95,43.6,53,23.7,16.5,10.0,259.0,66.0,3.3,7,5,7,1,2026-06-05T23:29:19.249151+05:30
Kolhapur,Maharashtra,16.705,74.2433,24.5,88,0.0,946.2,8.3,48.6,35,9.7,8.1,8.9,141.0,43.0,3.0,3,5,7,1,2026-06-05T23:29:19.249159+05:30
Goa,Goa,15.2993,74.124,26.8,86,0.0,996.5,7.15,25.2,29,13.6,9.4,5.7,529.0,50.0,1.4,7,5,7,1,2026-06-05T23:29:19.249166+05:30
Jodhpur,Rajasthan,26.2389,73.0243,33.2,48,0.0,977.4,8.45,38.2,150,172.3,46.3,9.9,168.0,56.0,3.0,0,5,7,1,2026-06-05T23:29:19.249173+05:30
Udaipur,Rajasthan,24.5854,73.7125,29.2,60,0.0,942.7,8.85,41.0,80,55.4,27.6,4.6,240.0,69.0,3.1,4,5,7,1,2026-06-05T23:29:19.249181+05:30
Kota,Rajasthan,25.2138,75.8648,29.1,55,0.0,974.8,8.2,33.1,94,101.5,49.4,21.6,436.0,55.0,6.7,4,5,7,1,2026-06-05T23:29:19.249188+05:30
Bikaner,Rajasthan,28.0229,73.3119,30.6,52,0.0,975.7,8.45,42.8,151,113.4,44.2,6.3,287.0,62.0,4.0,0,5,7,1,2026-06-05T23:29:19.249195+05:30
Ajmer,Rajasthan,26.4499,74.6399,29.5,58,0.0,950.2,8.35,47.9,91,94.3,42.8,14.2,321.0,50.0,4.1,4,5,7,1,2026-06-05T23:29:19.249202+05:30
Gwalior,Madhya Pradesh,26.2183,78.1828,28.6,60,0.0,979.0,8.35,41.4,79,111.3,43.2,22.5,249.0,68.0,8.3,4,5,7,1,2026-06-05T23:29:19.249209+05:30
Indore,Madhya Pradesh,22.7196,75.8577,27.9,65,0.0,944.7,8.65,45.7,92,58.0,39.6,18.0,703.0,52.0,8.5,7,5,7,1,2026-06-05T23:29:19.249216+05:30
Bhopal,Madhya Pradesh,23.2599,77.4126,27.8,67,0.0,950.2,8.7,45.4,92,53.6,35.0,13.6,296.0,52.0,4.5,7,5,7,1,2026-06-05T23:29:19.249223+05:30
Jabalpur,Madhya Pradesh,23.1815,79.9864,27.7,71,0.0,957.6,8.9,33.5,85,88.9,37.8,11.1,227.0,62.0,3.3,7,5,7,1,2026-06-05T23:29:19.249230+05:30
Ujjain,Madhya Pradesh,23.1765,75.7885,27.8,65,0.0,950.2,8.6,44.3,89,58.9,38.6,8.0,302.0,71.0,6.6,7,5,7,1,2026-06-05T23:29:19.249238+05:30
Visakhapatnam,Andhra Pradesh,17.6868,83.2185,31.1,75,0.0,999.0,8.7,42.1,92,46.0,39.9,38.5,827.0,73.0,39.6,3,5,7,1,2026-06-05T23:29:19.249246+05:30
Vijayawada,Andhra Pradesh,16.5062,80.648,31.6,60,0.0,998.5,8.95,47.2,62,27.0,25.0,13.5,314.0,67.0,5.1,0,5,7,1,2026-06-05T23:29:19.249253+05:30
Guntur,Andhra Pradesh,16.3067,80.4365,30.7,61,0.0,1000.0,9.0,45.7,57,22.6,20.2,13.3,303.0,68.0,4.9,3,5,4,1,2026-06-05T23:29:19.249260+05:30
Nellore,Andhra Pradesh,14.4426,79.9865,29.2,69,0.0,1003.2,8.55,44.6,45,8.4,6.2,6.1,189.0,54.0,1.6,7,5,4,1,2026-06-05T23:29:19.249268+05:30
Kurnool,Andhra Pradesh,15.8281,78.0373,29.1,69,0.0,974.7,9.0,41.0,47,7.0,6.0,9.5,199.0,65.0,5.0,7,5,7,1,2026-06-05T23:29:19.249276+05:30
Kakinada,Andhra Pradesh,16.9891,82.2475,31.0,65,0.0,1003.0,9.05,46.4,94,21.5,17.1,5.4,589.0,103.0,4.7,3,5,4,1,2026-06-05T23:29:19.249283+05:30
Tirupati,Andhra Pradesh,13.6288,79.4192,28.7,68,0.0,989.2,8.5,43.9,50,16.3,14.6,22.0,434.0,26.0,2.9,7,5,7,1,2026-06-05T23:29:19.249290+05:30
Warangal,Telangana,17.9689,79.5941,30.5,64,0.0,974.9,7.6,31.3,91,65.9,47.4,20.7,450.0,61.0,7.3,3,5,7,1,2026-06-05T23:29:19.249296+05:30
Nizamabad,Telangana,18.6725,78.0941,30.2,55,0.0,961.1,8.7,37.1,89,96.6,59.4,20.0,278.0,64.0,6.2,0,5,7,1,2026-06-05T23:29:19.249303+05:30
Mysore,Karnataka,12.2958,76.6396,22.2,89,0.0,927.9,8.3,62.6,25,3.8,3.1,6.3,163.0,40.0,1.7,3,5,7,1,2026-06-05T23:29:19.249310+05:30
Mangalore,Karnataka,12.9141,74.856,24.9,96,0.5,1006.5,2.1,33.5,25,8.0,5.7,4.3,222.0,50.0,1.5,6,5,0,1,2026-06-05T23:29:19.249318+05:30
Hubli-Dharwad,Karnataka,15.3647,75.124,23.5,90,0.0,939.3,8.4,42.5,26,3.7,2.8,5.0,141.0,46.0,0.9,3,5,7,1,2026-06-05T23:29:19.249325+05:30
Belgaum,Karnataka,15.8497,74.4977,23.3,89,0.0,924.1,8.85,36.0,29,5.8,4.4,5.9,133.0,48.0,2.2,3,5,7,1,2026-06-05T23:29:22.527982+05:30
Coimbatore,Tamil Nadu,11.0168,76.9558,23.7,93,0.0,961.3,6.45,56.5,20,4.6,3.9,7.4,212.0,32.0,2.3,3,5,7,1,2026-06-05T23:29:22.528013+05:30
Madurai,Tamil Nadu,9.9252,78.1198,29.4,57,0.0,992.7,8.25,62.3,26,4.4,4.0,8.6,145.0,32.0,3.0,4,5,7,1,2026-06-05T23:29:22.528025+05:30
Trichy,Tamil Nadu,10.7905,78.7047,29.7,57,0.0,999.2,8.35,62.3,26,6.0,4.6,8.4,140.0,31.0,3.0,4,5,7,1,2026-06-05T23:29:22.528034+05:30
Salem,Tamil Nadu,11.6643,78.146,27.5,66,0.0,977.2,7.85,39.2,31,10.8,10.1,17.9,215.0,30.0,5.3,7,5,7,1,2026-06-05T23:29:22.528042+05:30
Tirunelveli,Tamil Nadu,8.7139,77.7567,29.2,63,0.0,1003.8,8.5,42.8,18,6.0,5.2,8.3,140.0,30.0,1.7,7,5,4,1,2026-06-05T23:29:22.528071+05:30
Vellore,Tamil Nadu,12.9165,79.1325,29.6,58,0.0,983.1,8.5,60.1,36,23.8,22.5,28.8,171.0,18.0,6.1,4,5,7,1,2026-06-05T23:29:22.528082+05:30
Erode,Tamil Nadu,11.341,77.7172,26.5,76,0.0,988.8,8.6,54.7,25,6.5,5.8,11.1,193.0,32.0,3.2,7,5,7,1,2026-06-05T23:29:22.528090+05:30
Kochi,Kerala,9.9312,76.2673,25.3,94,0.0,1010.0,3.6,25.2,39,20.7,16.4,24.4,201.0,10.0,5.0,7,0,0,1,2026-06-05T23:29:22.528098+05:30
Thiruvananthapuram,Kerala,8.5241,76.9366,24.2,99,0.3,1010.1,4.7,48.2,25,14.3,6.5,1.4,106.0,44.0,0.4,6,0,0,1,2026-06-05T23:29:22.528106+05:30
Kozhikode,Kerala,11.2588,75.7804,24.7,98,0.2,1009.0,8.45,27.0,24,17.9,7.5,1.1,347.0,52.0,0.5,6,0,4,1,2026-06-05T23:29:22.528113+05:30
Thrissur,Kerala,10.5276,76.2144,24.6,99,0.1,1008.1,7.35,27.0,35,19.2,15.1,17.4,364.0,18.0,4.0,6,0,4,1,2026-06-05T23:29:22.528122+05:30
Kannur,Kerala,11.8745,75.3704,24.5,98,0.0,1007.7,5.7,41.0,25,13.8,8.3,8.1,384.0,41.0,1.8,3,5,0,1,2026-06-05T23:29:22.528129+05:30
Patna,Bihar,25.5941,85.1376,30.2,76,0.0,995.5,8.9,37.4,172,114.8,99.7,31.8,502.0,95.0,20.8,3,5,7,1,2026-06-05T23:29:22.528136+05:30
Gaya,Bihar,24.7914,85.0002,30.0,66,0.0,988.7,8.95,59.0,161,103.6,86.4,30.5,738.0,76.0,15.4,7,5,7,1,2026-06-05T23:29:22.528143+05:30
Muzaffarpur,Bihar,26.1209,85.3647,27.5,82,0.0,996.1,8.85,36.0,168,98.3,89.6,21.8,548.0,106.0,17.3,7,5,7,1,2026-06-05T23:29:22.528150+05:30
Bhagalpur,Bihar,25.2425,87.0117,25.9,97,0.0,997.1,8.85,35.3,167,77.8,73.6,21.3,386.0,94.0,15.7,7,5,7,1,2026-06-05T23:29:22.528157+05:30
Ranchi,Jharkhand,23.3441,85.3096,24.6,84,0.0,933.7,9.2,36.0,112,60.3,47.7,16.1,347.0,76.0,5.4,3,5,7,1,2026-06-05T23:29:22.528164+05:30
Jamshedpur,Jharkhand,22.8046,86.2029,28.2,87,0.0,986.4,8.95,29.9,152,79.9,70.1,24.8,451.0,99.0,19.8,7,5,7,1,2026-06-05T23:29:22.528171+05:30
Dhanbad,Jharkhand,23.7957,86.4304,27.4,88,0.0,975.6,9.05,50.0,166,105.9,98.0,59.7,629.0,53.0,152.9,7,5,7,1,2026-06-05T23:29:22.528179+05:30
Bokaro,Jharkhand,23.6693,86.1511,27.0,98,0.0,979.5,9.1,43.9,161,94.8,81.7,48.4,350.0,66.0,117.2,7,5,7,1,2026-06-05T23:29:22.528186+05:30
Bhubaneswar,Odisha,20.2961,85.8245,29.7,92,0.0,997.7,9.05,23.8,119,40.0,37.1,10.0,473.0,121.0,8.2,7,5,7,1,2026-06-05T23:29:22.528194+05:30
Cuttack,Odisha,20.4625,85.8828,29.8,88,0.0,999.4,9.1,25.2,119,40.0,37.1,10.0,502.0,121.0,8.2,7,5,7,1,2026-06-05T23:29:22.528201+05:30
Rourkela,Odisha,22.2604,84.8536,27.1,92,0.0,980.4,9.0,34.2,127,94.8,77.1,29.6,380.0,82.0,18.4,7,5,7,1,2026-06-05T23:29:22.528208+05:30
Raipur,Chhattisgarh,21.2514,81.6296,33.3,39,0.0,969.9,9.0,34.9,111,65.0,49.5,51.4,730.0,39.0,75.1,0,5,7,1,2026-06-05T23:29:22.528215+05:30
Bhilai,Chhattisgarh,21.1938,81.3509,32.0,46,0.0,970.2,9.0,34.9,108,70.1,52.2,42.2,1121.0,39.0,49.0,0,5,7,1,2026-06-05T23:29:22.528222+05:30
Guwahati,Assam,26.1158,91.7086,25.5,99,0.1,998.2,8.8,28.1,96,42.8,39.7,12.3,520.0,62.0,3.4,10,5,7,1,2026-06-05T23:29:22.528230+05:30
Agartala,Tripura,23.8315,91.2868,27.4,92,0.0,1002.2,8.9,36.0,107,73.8,70.3,45.0,635.0,39.0,6.4,7,5,4,1,2026-06-05T23:29:22.528237+05:30
Shillong,Meghalaya,25.5788,91.8933,18.5,96,0.0,854.4,8.45,23.4,69,25.1,23.5,10.6,532.0,63.0,2.3,3,10,7,1,2026-06-05T23:29:22.528244+05:30
Imphal,Manipur,24.817,93.9368,22.6,96,0.0,920.1,8.75,27.4,126,70.5,66.8,34.2,999.0,25.0,4.4,3,5,7,1,2026-06-05T23:29:22.528251+05:30
Aizawl,Mizoram,23.7271,92.7176,20.4,97,0.0,889.4,9.1,22.3,104,40.0,34.5,10.4,403.0,41.0,2.2,3,5,7,1,2026-06-05T23:29:22.528258+05:30
Kohima,Nagaland,25.6701,94.1077,17.7,96,0.0,852.0,8.95,23.8,64,26.3,24.9,15.8,418.0,30.0,1.0,3,10,7,1,2026-06-05T23:29:22.528266+05:30
Gangtok,Sikkim,27.3314,88.6138,17.7,95,0.4,835.7,9.2,38.2,84,13.0,12.2,11.8,434.0,102.0,2.6,6,10,7,1,2026-06-05T23:29:22.528273+05:30
Siliguri,West Bengal,26.7271,88.3953,24.2,98,0.3,989.8,8.8,24.5,130,51.1,44.5,14.4,550.0,111.0,5.3,6,5,7,1,2026-06-05T23:29:25.830699+05:30
Durgapur,West Bengal,23.5204,87.3119,27.2,96,0.0,990.8,8.95,40.0,166,79.4,76.6,27.4,760.0,91.0,37.4,7,5,7,1,2026-06-05T23:29:25.830731+05:30
Asansol,West Bengal,23.6739,86.9524,27.1,93,0.0,989.3,9.0,55.4,164,70.5,67.8,27.0,544.0,95.0,45.2,7,5,7,1,2026-06-05T23:29:25.830742+05:30
Pondicherry,Puducherry,11.9139,79.8145,29.7,76,0.0,1006.5,8.4,45.0,51,9.5,8.8,11.4,439.0,63.0,2.3,7,5,4,1,2026-06-05T23:29:25.830752+05:30
Port Blair,Andaman and Nicobar Islands,11.6234,92.7265,25.1,97,0.2,1006.2,1.85,47.2,26,7.7,5.0,0.3,96.0,58.0,0.3,10,5,0,1,2026-06-05T23:29:25.830761+05:30
Haridwar,Uttarakhand,29.9457,78.1642,24.9,76,0.0,969.2,6.75,33.1,146,136.4,77.1,30.7,458.0,102.0,13.1,3,5,7,1,2026-06-05T23:29:25.830770+05:30
Rishikesh,Uttarakhand,30.0869,78.2676,22.7,85,0.0,962.0,6.85,33.1,142,101.3,47.7,13.1,493.0,134.0,6.8,3,5,7,1,2026-06-05T23:29:25.830778+05:30
Nainital,Uttarakhand,29.3919,79.4542,14.5,92,0.0,801.9,5.05,27.0,89,51.2,38.1,22.3,346.0,72.0,6.4,3,10,3,0,2026-06-05T23:29:25.830786+05:30
Mussoorie,Uttarakhand,30.4599,78.0664,13.3,82,0.0,797.9,4.55,26.3,123,80.6,48.0,39.2,332.0,76.0,9.8,3,10,3,0,2026-06-05T23:29:25.830794+05:30
Dharamshala,Himachal Pradesh,32.219,76.3234,20.4,62,0.0,865.6,8.45,38.2,77,22.6,19.3,17.6,252.0,42.0,0.6,3,5,7,0,2026-06-05T23:29:25.830802+05:30
Dalhousie,Himachal Pradesh,32.5387,75.971,12.1,92,0.0,799.2,7.0,34.9,105,49.6,39.1,42.0,562.0,47.0,1.8,3,10,7,0,2026-06-05T23:29:25.830810+05:30
Patiala,Punjab,30.3398,76.3869,28.6,64,0.0,972.8,7.7,29.2,152,135.5,82.4,36.1,749.0,60.0,12.4,7,5,7,1,2026-06-05T23:29:25.830817+05:30
Bhatinda,Punjab,30.211,74.9455,31.1,49,0.0,978.2,8.3,22.7,159,109.7,66.8,43.4,447.0,60.0,12.8,0,5,7,1,2026-06-05T23:29:25.830824+05:30
Rohtak,Haryana,28.8955,76.6066,28.0,74,0.0,976.7,7.7,27.0,194,171.8,73.8,66.6,688.0,26.0,16.5,7,5,7,1,2026-06-05T23:29:25.830832+05:30
Panipat,Haryana,29.3909,76.9635,26.8,82,0.0,975.3,7.55,29.9,457,276.6,105.5,57.2,840.0,26.0,14.6,7,5,7,1,2026-06-05T23:29:25.830840+05:30
Mathura,Uttar Pradesh,27.4924,77.6737,27.6,73,0.0,982.4,7.65,29.2,292,345.5,106.2,86.7,801.0,13.0,15.7,7,5,7,1,2026-06-05T23:29:25.830846+05:30
Vrindavan,Uttar Pradesh,27.5823,77.7027,27.7,73,0.0,982.7,7.8,28.1,292,345.5,106.2,86.7,828.0,13.0,15.7,7,5,7,1,2026-06-05T23:29:25.830854+05:30
Ayodhya,Uttar Pradesh,26.7922,82.1998,29.7,70,0.0,990.1,8.45,29.5,159,69.6,51.3,13.6,557.0,104.0,8.9,7,5,7,1,2026-06-05T23:29:25.830861+05:30
Ratlam,Madhya Pradesh,23.3315,75.0367,28.9,62,0.0,951.1,8.45,41.0,86,55.5,35.0,5.2,258.0,73.0,5.7,7,5,7,1,2026-06-05T23:29:25.830869+05:30
Sagar,Madhya Pradesh,23.8388,78.7378,27.7,53,0.0,946.7,8.65,39.6,84,44.2,24.9,10.3,190.0,61.0,2.7,4,5,7,1,2026-06-05T23:29:25.830876+05:30
Satna,Madhya Pradesh,24.6005,80.8322,30.5,52,0.0,967.3,8.85,37.8,105,66.8,36.1,8.7,187.0,77.0,3.1,0,5,7,1,2026-06-05T23:29:25.830883+05:30
Akola,Maharashtra,20.7002,77.0082,30.8,56,0.0,971.2,8.8,45.7,85,43.3,25.2,11.8,258.0,67.0,5.7,0,5,7,1,2026-06-05T23:29:25.830891+05:30
Amravati,Maharashtra,20.9374,77.7796,30.9,46,0.0,963.8,8.85,51.1,91,56.1,33.2,21.9,291.0,46.0,6.7,0,5,7,1,2026-06-05T23:29:25.830899+05:30
Latur,Maharashtra,18.4088,76.5604,25.5,84,0.4,938.0,8.95,31.7,65,40.2,23.2,9.4,319.0,77.0,3.6,10,5,7,1,2026-06-05T23:29:25.830906+05:30
Nanded,Maharashtra,19.1383,77.3091,31.6,50,0.0,965.0,8.95,31.0,87,60.5,37.0,15.5,243.0,71.0,6.6,0,5,7,1,2026-06-05T23:29:25.830913+05:30
Gulbarga,Karnataka,17.3297,76.8343,26.8,77,0.0,956.6,7.25,32.8,54,31.9,20.7,16.5,223.0,64.0,3.9,7,5,7,1,2026-06-05T23:29:25.830920+05:30
Bidar,Karnataka,17.9104,77.5199,24.8,82,0.1,933.8,7.3,40.0,76,46.4,33.3,19.4,243.0,62.0,3.6,6,5,7,1,2026-06-05T23:29:25.830927+05:30
Hospet,Karnataka,15.2689,76.3909,24.7,85,0.0,954.2,8.05,47.5,30,4.7,4.4,10.4,172.0,39.0,1.7,3,5,7,1,2026-06-05T23:29:25.830934+05:30
Tirupur,Tamil Nadu,11.1085,77.3411,24.8,86,0.0,974.8,8.55,63.7,24,7.8,7.1,12.6,159.0,29.0,4.2,3,5,7,1,2026-06-05T23:29:25.830941+05:30
Alappuzha,Kerala,9.4981,76.3388,25.6,94,0.2,1010.2,7.25,37.1,32,20.2,11.9,7.9,87.0,37.0,1.7,10,0,4,1,2026-06-05T23:29:25.830948+05:30
Munnar,Kerala,10.0889,77.0595,17.1,99,0.1,857.0,6.4,48.2,18,2.0,2.0,7.6,95.0,27.0,2.1,6,10,7,1,2026-06-05T23:29:25.830956+05:30
Silchar,Assam,24.8333,92.7789,27.8,89,0.0,1001.0,8.7,31.0,107,61.2,53.3,15.8,1068.0,84.0,11.0,7,5,4,1,2026-06-05T23:29:25.830963+05:30
Dibrugarh,Assam,27.4728,94.912,25.4,87,0.0,991.8,8.95,19.4,102,53.8,51.2,33.1,596.0,29.0,4.2,7,5,7,1,2026-06-05T23:29:25.830971+05:30
