city,state,latitude,longitude,temp,humidity,rain,pressure,uv_index,wind_gusts,aqi,pm10,pm2_5,mosquito_risk,arthritis_risk,migraine_risk,frizz_risk,updated_at
Delhi,Delhi,28.6139,77.209,32.1,33,0.0,982.0,6.65,19.8,208,379.0,78.5,0,5,7,0,2026-04-18T23:08:30.137355+05:30
Mumbai,Maharashtra,19.076,72.8777,30.3,77,0.0,1008.2,7.75,22.7,90,48.8,29.2,3,0,4,1,2026-04-18T23:08:30.137397+05:30
Bangalore,Karnataka,12.9716,77.5946,27.2,44,0.0,912.6,9.0,35.3,97,25.0,22.5,4,5,7,0,2026-04-18T23:08:30.137410+05:30
Hyderabad,Telangana,17.385,78.4867,29.6,52,0.0,954.1,9.25,38.5,104,52.2,47.1,4,5,7,1,2026-04-18T23:08:30.137418+05:30
Chennai,Tamil Nadu,13.0827,80.2707,28.4,83,0.0,1007.9,8.55,32.0,38,11.8,7.4,7,5,4,1,2026-04-18T23:08:30.137426+05:30
Kolkata,West Bengal,22.5726,88.3639,27.8,91,0.0,1005.8,8.85,24.1,78,24.3,19.4,7,5,4,1,2026-04-18T23:08:30.137436+05:30
Pune,Maharashtra,18.5204,73.8567,29.4,72,0.0,949.2,8.45,45.0,158,46.8,38.9,7,5,7,1,2026-04-18T23:08:30.137443+05:30
Ahmedabad,Gujarat,23.0225,72.5714,31.0,28,0.0,1001.5,8.15,27.7,63,49.2,34.9,0,5,4,0,2026-04-18T23:08:30.137450+05:30
Jaipur,Rajasthan,26.9124,75.7873,31.5,22,0.0,959.4,7.95,28.1,231,149.9,43.1,0,5,7,0,2026-04-18T23:08:30.137457+05:30
Lucknow,Uttar Pradesh,26.8467,80.9462,29.6,53,0.0,991.6,7.85,32.0,116,227.7,54.5,4,5,7,1,2026-04-18T23:08:30.137463+05:30
Kanpur,Uttar Pradesh,26.4499,80.3319,28.0,60,0.0,990.0,7.85,27.0,137,318.5,66.8,4,5,7,1,2026-04-18T23:08:30.137469+05:30
Chandigarh,Chandigarh,30.7333,76.7794,25.8,54,0.0,968.5,7.1,29.2,70,43.2,31.1,4,5,7,0,2026-04-18T23:08:30.137475+05:30
Srinagar,Jammu and Kashmir,34.0837,74.7973,11.4,90,0.0,845.6,5.85,30.6,78,54.5,31.1,3,10,3,0,2026-04-18T23:08:30.137481+05:30
Jammu,Jammu and Kashmir,32.7266,74.857,24.8,47,0.0,973.5,7.0,42.5,63,48.3,30.3,0,5,7,0,2026-04-18T23:08:30.137489+05:30
Amritsar,Punjab,31.634,74.8723,25.1,49,0.0,980.8,7.9,43.2,64,48.3,30.5,4,5,7,0,2026-04-18T23:08:30.137495+05:30
Ludhiana,Punjab,30.901,75.8573,29.0,42,0.0,978.4,7.45,32.4,69,88.7,53.3,4,5,7,0,2026-04-18T23:08:30.137502+05:30
Jalandhar,Punjab,31.326,75.5762,26.3,48,0.0,979.7,7.65,42.1,68,79.9,42.0,4,5,7,0,2026-04-18T23:08:30.137507+05:30
Dehradun,Uttarakhand,30.6284,78.0322,17.5,41,0.0,831.7,7.55,46.1,49,31.0,13.9,0,5,7,0,2026-04-18T23:08:30.137513+05:30
Shimla,Himachal Pradesh,31.1048,77.1734,17.4,43,0.0,787.3,7.7,47.9,59,41.8,20.1,0,5,7,0,2026-04-18T23:08:30.137518+05:30
Manali,Himachal Pradesh,32.2396,77.1887,16.8,41,0.0,823.8,8.9,25.2,74,15.3,7.2,0,5,7,0,2026-04-18T23:08:30.137524+05:30
Gurgaon,Haryana,28.4595,77.0266,29.2,47,0.0,980.3,6.9,15.8,470,666.8,105.2,4,5,7,1,2026-04-18T23:08:30.137533+05:30
Noida,Uttar Pradesh,28.5355,77.391,30.9,38,0.0,983.3,6.95,22.0,470,666.8,105.2,0,5,7,0,2026-04-18T23:08:30.137538+05:30
Ghaziabad,Uttar Pradesh,28.6692,77.4538,30.0,40,0.0,981.6,6.65,19.4,153,265.4,68.9,4,5,7,0,2026-04-18T23:08:30.137543+05:30
Faridabad,Haryana,28.4089,77.3178,30.1,41,0.0,982.6,7.25,25.2,470,666.8,105.2,0,5,7,0,2026-04-18T23:08:30.137549+05:30
Meerut,Uttar Pradesh,28.9845,77.7064,28.3,48,0.0,980.4,6.75,20.9,153,265.4,68.9,4,5,7,1,2026-04-18T23:08:30.137554+05:30
Agra,Uttar Pradesh,27.1767,78.0081,29.1,48,0.0,986.0,7.7,16.9,405,545.8,77.8,4,5,7,1,2026-04-18T23:08:30.137560+05:30
Varanasi,Uttar Pradesh,25.3176,82.9739,31.0,43,0.0,995.4,8.25,25.6,114,96.9,51.3,0,5,7,1,2026-04-18T23:08:30.137566+05:30
Prayagraj,Uttar Pradesh,25.4358,81.8463,30.9,44,0.0,994.3,7.85,28.8,100,90.3,35.7,0,5,7,1,2026-04-18T23:08:30.137572+05:30
Gorakhpur,Uttar Pradesh,26.7606,83.3732,28.5,71,0.0,995.6,8.1,28.4,148,65.7,28.2,7,5,7,1,2026-04-18T23:08:30.137577+05:30
Bareilly,Uttar Pradesh,28.367,79.4304,26.7,52,0.0,985.2,7.6,31.0,107,90.1,39.3,4,5,7,1,2026-04-18T23:08:30.137582+05:30
Aligarh,Uttar Pradesh,27.8974,78.088,29.4,44,0.0,984.1,7.35,25.6,249,294.3,90.1,4,5,7,0,2026-04-18T23:08:30.137587+05:30
Moradabad,Uttar Pradesh,28.8386,78.7733,26.5,55,0.0,982.4,7.4,28.8,96,131.8,52.9,4,5,7,1,2026-04-18T23:08:30.137592+05:30
Saharanpur,Uttar Pradesh,29.9637,77.546,25.5,61,0.0,975.0,7.0,23.4,106,118.0,57.2,7,5,7,1,2026-04-18T23:08:30.137597+05:30
Jhansi,Uttar Pradesh,25.4484,78.5685,30.5,49,0.0,976.8,7.85,27.0,105,91.0,33.5,0,5,7,1,2026-04-18T23:08:33.491339+05:30
Surat,Gujarat,21.1702,72.8311,28.9,72,0.0,1006.5,7.8,27.0,112,46.0,31.9,7,5,4,1,2026-04-18T23:08:33.491370+05:30
Vadodara,Gujarat,22.3072,73.1812,30.0,57,0.0,1003.8,8.15,19.4,94,71.7,56.5,4,5,4,1,2026-04-18T23:08:33.491378+05:30
Rajkot,Gujarat,22.3039,70.8022,27.5,48,0.0,994.9,7.8,25.9,70,20.8,11.8,4,5,7,0,2026-04-18T23:08:33.491384+05:30
Thane,Maharashtra,19.2183,72.9781,28.7,77,0.0,1007.6,7.85,33.5,90,48.8,29.2,7,5,4,1,2026-04-18T23:08:33.491389+05:30
Nagpur,Maharashtra,21.1458,79.0882,30.7,51,0.0,972.3,7.6,21.6,119,29.8,27.4,0,5,7,1,2026-04-18T23:08:33.491395+05:30
Nashik,Maharashtra,19.9975,73.7898,28.0,60,0.0,946.6,8.05,29.9,123,36.9,27.9,4,5,7,1,2026-04-18T23:08:33.491401+05:30
Aurangabad,Maharashtra,19.8762,75.3433,30.1,29,0.0,944.6,7.5,36.7,99,22.9,17.8,0,5,7,0,2026-04-18T23:08:33.491406+05:30
Solapur,Maharashtra,17.6599,75.9064,30.4,50,0.0,957.0,7.95,17.6,151,50.5,46.0,0,5,7,1,2026-04-18T23:08:33.491412+05:30
Kolhapur,Maharashtra,16.705,74.2433,25.7,88,0.0,948.7,8.65,44.6,125,49.5,36.3,7,5,7,1,2026-04-18T23:08:33.491417+05:30
Goa,Goa,15.2993,74.124,28.9,78,0.0,998.0,9.0,31.3,78,65.9,31.7,7,5,7,1,2026-04-18T23:08:33.491422+05:30
Jodhpur,Rajasthan,26.2389,73.0243,29.7,32,0.0,982.9,8.15,28.1,98,156.5,23.2,4,5,7,0,2026-04-18T23:08:33.491428+05:30
Udaipur,Rajasthan,24.5854,73.7125,28.9,32,0.0,947.6,8.75,29.5,64,14.6,7.8,4,5,7,0,2026-04-18T23:08:33.491434+05:30
Kota,Rajasthan,25.2138,75.8648,31.0,36,0.0,977.7,8.25,23.0,121,89.4,42.1,0,5,7,0,2026-04-18T23:08:33.491440+05:30
Bikaner,Rajasthan,28.0229,73.3119,32.3,27,0.0,981.1,7.8,29.9,79,79.6,20.4,0,5,7,0,2026-04-18T23:08:33.491445+05:30
Ajmer,Rajasthan,26.4499,74.6399,29.3,32,0.0,954.8,8.15,32.0,62,58.7,16.9,4,5,7,0,2026-04-18T23:08:33.491450+05:30
Gwalior,Madhya Pradesh,26.2183,78.1828,31.3,44,0.0,982.3,7.95,28.4,127,95.0,33.5,0,5,7,1,2026-04-18T23:08:33.491455+05:30
Indore,Madhya Pradesh,22.7196,75.8577,27.4,46,0.0,948.3,8.15,25.6,60,41.8,39.0,4,5,7,0,2026-04-18T23:08:33.491461+05:30
Bhopal,Madhya Pradesh,23.2599,77.4126,30.0,35,0.0,953.6,7.7,24.5,77,25.6,23.5,4,5,7,0,2026-04-18T23:08:33.491466+05:30
Jabalpur,Madhya Pradesh,23.1815,79.9864,29.6,47,0.0,960.4,7.45,24.5,92,19.6,18.0,4,5,7,1,2026-04-18T23:08:33.491471+05:30
Ujjain,Madhya Pradesh,23.1765,75.7885,27.7,46,0.0,954.1,8.5,24.1,54,45.1,41.9,4,5,7,0,2026-04-18T23:08:33.491478+05:30
Visakhapatnam,Andhra Pradesh,17.6868,83.2185,27.9,89,0.0,1004.6,9.15,34.2,61,21.6,15.1,7,5,4,1,2026-04-18T23:08:33.491483+05:30
Vijayawada,Andhra Pradesh,16.5062,80.648,28.3,82,0.0,1003.4,8.8,26.3,57,16.3,12.9,7,5,4,1,2026-04-18T23:08:33.491489+05:30
Guntur,Andhra Pradesh,16.3067,80.4365,28.2,85,0.0,1004.6,8.9,29.5,60,17.8,14.3,7,5,4,1,2026-04-18T23:08:33.491494+05:30
Nellore,Andhra Pradesh,14.4426,79.9865,28.2,81,0.0,1006.3,8.7,32.8,53,10.5,7.7,7,5,4,1,2026-04-18T23:08:33.491500+05:30
Kurnool,Andhra Pradesh,15.8281,78.0373,34.1,38,0.0,976.3,9.2,28.4,98,37.7,33.5,0,5,7,1,2026-04-18T23:08:33.491506+05:30
Kakinada,Andhra Pradesh,16.9891,82.2475,28.1,86,0.0,1008.5,9.1,29.9,52,17.5,10.7,7,0,4,1,2026-04-18T23:08:33.491511+05:30
Tirupati,Andhra Pradesh,13.6288,79.4192,28.5,76,0.0,992.7,9.0,32.0,65,17.3,15.6,7,5,7,1,2026-04-18T23:08:33.491517+05:30
Warangal,Telangana,17.9689,79.5941,31.0,62,0.0,978.8,8.8,26.6,98,35.5,32.2,3,5,7,1,2026-04-18T23:08:33.491522+05:30
Nizamabad,Telangana,18.6725,78.0941,31.2,45,0.0,964.8,8.85,37.4,117,42.4,38.6,0,5,7,1,2026-04-18T23:08:33.491528+05:30
Mysore,Karnataka,12.2958,76.6396,25.2,85,0.0,929.0,9.0,40.3,89,31.3,28.2,7,5,7,1,2026-04-18T23:08:33.491532+05:30
Mangalore,Karnataka,12.9141,74.856,30.8,78,0.0,1006.7,9.1,23.0,63,34.1,18.0,3,5,4,1,2026-04-18T23:08:33.491538+05:30
Hubli-Dharwad,Karnataka,15.3647,75.124,25.8,85,0.0,941.4,9.2,39.2,91,29.0,20.9,7,5,7,1,2026-04-18T23:08:33.491544+05:30
Belgaum,Karnataka,15.8497,74.4977,24.7,89,0.0,926.2,8.85,34.2,89,47.3,29.3,3,5,7,1,2026-04-18T23:08:36.837568+05:30
Coimbatore,Tamil Nadu,11.0168,76.9558,26.1,85,0.0,962.6,9.25,31.3,100,48.9,43.0,7,5,7,1,2026-04-18T23:08:36.837600+05:30
Madurai,Tamil Nadu,9.9252,78.1198,28.8,77,0.0,994.1,9.35,30.6,69,21.9,20.5,7,5,7,1,2026-04-18T23:08:36.837609+05:30
Trichy,Tamil Nadu,10.7905,78.7047,28.1,78,0.0,1000.4,9.35,18.4,55,14.0,13.2,7,5,4,1,2026-04-18T23:08:36.837616+05:30
Salem,Tamil Nadu,11.6643,78.146,28.1,68,0.0,977.5,9.25,19.8,81,24.1,20.9,7,5,7,1,2026-04-18T23:08:36.837623+05:30
Tirunelveli,Tamil Nadu,8.7139,77.7567,28.9,72,0.0,1003.9,9.25,50.4,86,24.4,21.5,7,5,4,1,2026-04-18T23:08:36.837628+05:30
Vellore,Tamil Nadu,12.9165,79.1325,26.9,83,0.0,985.5,8.9,25.6,85,32.6,30.7,7,5,7,1,2026-04-18T23:08:36.837634+05:30
Erode,Tamil Nadu,11.341,77.7172,30.8,53,0.0,989.2,9.35,24.8,72,19.8,17.0,0,5,7,1,2026-04-18T23:08:36.837639+05:30
Kochi,Kerala,9.9312,76.2673,29.8,78,0.0,1009.2,9.15,31.3,79,34.6,29.4,7,0,4,1,2026-04-18T23:08:36.837644+05:30
Thiruvananthapuram,Kerala,8.5241,76.9366,29.0,82,0.0,1008.6,9.1,27.0,76,30.6,19.8,7,0,4,1,2026-04-18T23:08:36.837650+05:30
Kozhikode,Kerala,11.2588,75.7804,30.2,83,0.0,1008.0,9.05,33.1,69,27.6,18.6,3,0,4,1,2026-04-18T23:08:36.837654+05:30
Thrissur,Kerala,10.5276,76.2144,29.4,85,0.0,1007.2,8.65,36.4,75,35.3,30.5,7,5,4,1,2026-04-18T23:08:36.837660+05:30
Kannur,Kerala,11.8745,75.3704,30.3,78,0.0,1007.3,8.6,34.6,68,29.8,21.3,3,5,4,1,2026-04-18T23:08:36.837666+05:30
Patna,Bihar,25.5941,85.1376,30.2,73,0.0,998.9,8.6,25.6,142,66.6,58.8,3,5,7,1,2026-04-18T23:08:36.837671+05:30
Gaya,Bihar,24.7914,85.0002,32.0,42,0.0,991.9,8.65,28.4,115,76.6,37.8,0,5,7,1,2026-04-18T23:08:36.837676+05:30
Muzaffarpur,Bihar,26.1209,85.3647,28.3,80,0.0,999.4,8.6,31.0,152,69.2,63.1,7,5,7,1,2026-04-18T23:08:36.837681+05:30
Bhagalpur,Bihar,25.2425,87.0117,28.3,86,0.0,1000.3,8.25,24.8,151,48.8,44.9,7,5,4,1,2026-04-18T23:08:36.837685+05:30
Ranchi,Jharkhand,23.3441,85.3096,28.8,42,0.0,938.2,9.15,42.1,81,63.3,28.9,4,5,7,0,2026-04-18T23:08:36.837691+05:30
Jamshedpur,Jharkhand,22.8046,86.2029,29.4,86,0.0,990.2,8.9,22.7,128,43.0,37.5,7,5,7,1,2026-04-18T23:08:36.837696+05:30
Dhanbad,Jharkhand,23.7957,86.4304,30.5,72,0.0,979.1,8.95,26.6,152,105.2,83.4,3,5,7,1,2026-04-18T23:08:36.837700+05:30
Bokaro,Jharkhand,23.6693,86.1511,29.9,66,0.0,983.2,8.95,40.0,153,92.9,62.9,7,5,7,1,2026-04-18T23:08:36.837705+05:30
Bhubaneswar,Odisha,20.2961,85.8245,27.2,92,0.0,1002.6,8.65,29.9,60,21.8,16.9,7,5,4,1,2026-04-18T23:08:36.837710+05:30
Cuttack,Odisha,20.4625,85.8828,27.5,91,0.0,1004.3,8.9,29.2,60,21.8,16.9,7,5,4,1,2026-04-18T23:08:36.837715+05:30
Rourkela,Odisha,22.2604,84.8536,31.5,57,0.0,984.0,8.65,28.1,127,73.3,49.5,0,5,7,1,2026-04-18T23:08:36.837719+05:30
Raipur,Chhattisgarh,21.2514,81.6296,30.4,54,0.0,974.3,8.85,29.2,177,82.9,61.0,0,5,7,1,2026-04-18T23:08:36.837724+05:30
Bhilai,Chhattisgarh,21.1938,81.3509,29.9,57,0.0,974.8,8.5,36.4,173,92.7,69.6,4,5,7,1,2026-04-18T23:08:36.837728+05:30
Guwahati,Assam,26.1158,91.7086,24.9,92,0.0,1002.7,8.5,22.7,136,69.6,61.7,3,5,4,1,2026-04-18T23:08:36.837733+05:30
Agartala,Tripura,23.8315,91.2868,27.2,87,0.0,1006.4,8.7,16.9,126,65.0,58.9,7,5,4,1,2026-04-18T23:08:36.837738+05:30
Shillong,Meghalaya,25.5788,91.8933,15.4,90,0.0,857.1,6.85,30.6,124,51.0,43.0,3,10,7,0,2026-04-18T23:08:36.837743+05:30
Imphal,Manipur,24.817,93.9368,19.1,79,0.0,924.3,9.1,48.2,152,79.2,65.4,3,5,7,0,2026-04-18T23:08:36.837747+05:30
Aizawl,Mizoram,23.7271,92.7176,20.7,85,0.0,893.5,8.95,34.6,116,71.7,54.9,3,5,7,1,2026-04-18T23:08:36.837752+05:30
Kohima,Nagaland,25.6701,94.1077,16.6,88,0.0,856.1,9.0,48.6,132,54.5,43.0,3,10,7,0,2026-04-18T23:08:36.837757+05:30
Gangtok,Sikkim,27.3314,88.6138,16.5,92,0.0,838.6,8.85,19.1,110,50.5,40.3,3,10,7,0,2026-04-18T23:08:36.837762+05:30
Siliguri,West Bengal,26.7271,88.3953,22.4,82,0.0,995.1,8.05,20.9,158,89.2,69.4,3,5,7,1,2026-04-18T23:08:40.187516+05:30
Durgapur,West Bengal,23.5204,87.3119,28.5,83,0.0,994.5,8.85,37.1,125,37.1,34.7,7,5,7,1,2026-04-18T23:08:40.187546+05:30
Asansol,West Bengal,23.6739,86.9524,29.3,79,0.0,992.9,8.9,30.2,130,67.1,58.7,7,5,7,1,2026-04-18T23:08:40.187554+05:30
Pondicherry,Puducherry,11.9139,79.8145,26.9,92,0.0,1009.1,9.25,27.0,33,9.7,5.7,7,0,4,1,2026-04-18T23:08:40.187561+05:30
Port Blair,Andaman and Nicobar Islands,11.6234,92.7265,29.5,76,0.0,1007.9,9.2,13.7,55,19.6,15.0,7,5,4,1,2026-04-18T23:08:40.187567+05:30
Haridwar,Uttarakhand,29.9457,78.1642,23.8,71,0.0,973.7,6.6,34.6,72,40.7,28.6,3,5,7,1,2026-04-18T23:08:40.187574+05:30
Rishikesh,Uttarakhand,30.0869,78.2676,22.8,67,0.0,966.9,6.85,38.2,80,51.1,20.2,3,5,7,1,2026-04-18T23:08:40.187580+05:30
Nainital,Uttarakhand,29.3919,79.4542,24.0,33,0.0,809.1,8.05,69.1,92,67.8,24.2,0,5,7,0,2026-04-18T23:08:40.187586+05:30
Mussoorie,Uttarakhand,30.4599,78.0664,19.5,48,0.0,804.6,7.4,51.5,68,49.2,27.7,0,5,7,0,2026-04-18T23:08:40.187591+05:30
Dharamshala,Himachal Pradesh,32.219,76.3234,23.8,31,0.0,871.4,7.45,38.9,62,35.0,14.6,0,5,7,0,2026-04-18T23:08:40.187596+05:30
Dalhousie,Himachal Pradesh,32.5387,75.971,19.8,37,0.0,806.0,6.8,39.6,63,57.9,27.8,0,5,7,0,2026-04-18T23:08:40.187602+05:30
Patiala,Punjab,30.3398,76.3869,26.3,53,0.0,977.6,7.1,19.4,119,75.9,62.2,4,5,7,0,2026-04-18T23:08:40.187608+05:30
Bhatinda,Punjab,30.211,74.9455,28.4,45,0.0,983.0,7.75,36.7,106,69.6,39.9,4,5,7,0,2026-04-18T23:08:40.187613+05:30
Rohtak,Haryana,28.8955,76.6066,26.1,61,0.0,980.7,6.95,14.4,324,365.1,73.3,7,5,7,1,2026-04-18T23:08:40.187619+05:30
Panipat,Haryana,29.3909,76.9635,26.9,53,0.0,979.4,6.6,11.5,469,421.0,87.5,4,5,7,1,2026-04-18T23:08:40.187624+05:30
Mathura,Uttar Pradesh,27.4924,77.6737,28.5,47,0.0,985.3,7.65,22.7,340,357.6,65.7,4,5,7,1,2026-04-18T23:08:40.187629+05:30
Vrindavan,Uttar Pradesh,27.5823,77.7027,29.7,43,0.0,985.8,7.6,24.8,340,357.6,65.7,4,5,7,0,2026-04-18T23:08:40.187633+05:30
Ayodhya,Uttar Pradesh,26.7922,82.1998,28.8,51,0.0,993.5,7.75,36.7,101,119.7,35.3,4,5,7,1,2026-04-18T23:08:40.187638+05:30
Ratlam,Madhya Pradesh,23.3315,75.0367,29.0,48,0.0,954.7,8.3,24.1,62,24.1,18.7,4,5,7,1,2026-04-18T23:08:40.187643+05:30
Sagar,Madhya Pradesh,23.8388,78.7378,30.7,41,0.0,949.7,7.85,29.9,96,23.1,21.3,0,5,7,0,2026-04-18T23:08:40.187648+05:30
Satna,Madhya Pradesh,24.6005,80.8322,31.3,40,0.0,970.7,8.5,24.8,99,71.2,23.1,0,5,7,1,2026-04-18T23:08:40.187653+05:30
Akola,Maharashtra,20.7002,77.0082,30.8,53,0.0,974.7,8.7,31.7,90,30.9,26.0,0,5,7,1,2026-04-18T23:08:40.187659+05:30
Amravati,Maharashtra,20.9374,77.7796,29.7,40,0.0,966.6,8.2,23.0,86,35.7,30.9,4,5,7,0,2026-04-18T23:08:40.187665+05:30
Latur,Maharashtra,18.4088,76.5604,27.9,54,0.0,940.3,9.1,16.6,128,44.4,40.7,4,5,7,1,2026-04-18T23:08:40.187670+05:30
Nanded,Maharashtra,19.1383,77.3091,30.3,54,0.0,968.8,8.85,18.0,96,56.8,49.0,0,5,7,1,2026-04-18T23:08:40.187674+05:30
Gulbarga,Karnataka,17.3297,76.8343,29.6,52,0.0,959.2,9.0,49.3,153,38.8,34.7,4,5,7,1,2026-04-18T23:08:40.187679+05:30
Bidar,Karnataka,17.9104,77.5199,28.1,62,0.0,936.3,9.0,48.6,129,51.1,45.8,7,5,7,1,2026-04-18T23:08:40.187684+05:30
Hospet,Karnataka,15.2689,76.3909,30.6,54,0.0,955.4,9.25,20.9,130,47.6,42.6,0,5,7,1,2026-04-18T23:08:40.187688+05:30
Tirupur,Tamil Nadu,11.1085,77.3411,28.9,70,0.0,975.9,9.3,31.3,85,37.4,31.2,7,5,7,1,2026-04-18T23:08:40.187692+05:30
Alappuzha,Kerala,9.4981,76.3388,29.0,82,0.0,1009.5,9.1,26.6,86,38.6,29.4,7,0,4,1,2026-04-18T23:08:40.187697+05:30
Munnar,Kerala,10.0889,77.0595,21.7,82,0.0,857.7,9.7,23.8,87,38.6,34.0,3,5,7,1,2026-04-18T23:08:40.187702+05:30
Silchar,Assam,24.8333,92.7789,26.1,89,0.0,1005.6,8.75,19.1,158,115.5,96.2,7,5,4,1,2026-04-18T23:08:40.187708+05:30
Dibrugarh,Assam,27.4728,94.912,25.5,89,0.0,996.7,8.65,15.1,121,65.0,52.6,7,5,7,1,2026-04-18T23:08:40.187713+05:30
