city,state,latitude,longitude,temp,humidity,rain,pressure,uv_index,wind_gusts,aqi,pm10,pm2_5,mosquito_risk,arthritis_risk,migraine_risk,frizz_risk,updated_at
Delhi,Delhi,28.6139,77.209,21.7,72,0.0,984.5,6.7,15.5,151,160.2,50.2,3,5,7,1,2026-04-02T03:15:18.225377+05:30
Mumbai,Maharashtra,19.076,72.8777,27.0,76,0.0,1008.1,6.5,21.6,64,27.1,18.5,7,0,4,1,2026-04-02T03:15:18.225418+05:30
Bangalore,Karnataka,12.9716,77.5946,21.6,80,0.0,910.8,9.6,23.8,66,14.7,13.1,3,5,7,1,2026-04-02T03:15:18.225434+05:30
Hyderabad,Telangana,17.385,78.4867,24.6,72,0.0,953.1,9.15,19.8,89,20.0,16.2,3,5,7,1,2026-04-02T03:15:18.225444+05:30
Chennai,Tamil Nadu,13.0827,80.2707,25.7,81,0.0,1007.7,9.3,31.0,39,13.0,10.2,7,5,4,1,2026-04-02T03:15:18.225453+05:30
Kolkata,West Bengal,22.5726,88.3639,25.9,93,0.0,1006.3,8.6,24.1,98,25.6,22.2,7,5,4,1,2026-04-02T03:15:18.225462+05:30
Pune,Maharashtra,18.5204,73.8567,24.6,92,0.0,947.8,8.5,23.8,109,60.1,54.1,3,5,7,1,2026-04-02T03:15:18.225474+05:30
Ahmedabad,Gujarat,23.0225,72.5714,25.3,49,0.0,1001.9,7.7,30.2,59,26.1,18.2,4,5,4,0,2026-04-02T03:15:18.225483+05:30
Jaipur,Rajasthan,26.9124,75.7873,24.3,67,0.0,960.3,7.5,26.3,114,288.7,48.0,3,5,7,1,2026-04-02T03:15:18.225491+05:30
Lucknow,Uttar Pradesh,26.8467,80.9462,24.0,62,0.0,994.1,7.3,32.0,82,127.1,36.1,3,5,7,1,2026-04-02T03:15:18.225500+05:30
Kanpur,Uttar Pradesh,26.4499,80.3319,23.6,67,0.0,992.4,7.2,25.2,116,247.7,46.4,3,5,7,1,2026-04-02T03:15:18.225507+05:30
Chandigarh,Chandigarh,30.7333,76.7794,19.9,69,0.0,970.5,5.6,16.9,74,40.3,31.4,3,5,3,0,2026-04-02T03:15:18.225515+05:30
Srinagar,Jammu and Kashmir,34.0837,74.7973,8.6,81,0.0,841.0,6.75,18.7,101,76.6,61.5,3,10,7,0,2026-04-02T03:15:18.225522+05:30
Jammu,Jammu and Kashmir,32.7266,74.857,19.6,77,0.0,975.0,7.45,20.9,85,39.1,31.4,3,5,7,0,2026-04-02T03:15:18.225530+05:30
Amritsar,Punjab,31.634,74.8723,20.2,73,0.0,983.0,7.35,17.6,127,87.5,50.9,3,5,7,0,2026-04-02T03:15:18.225537+05:30
Ludhiana,Punjab,30.901,75.8573,21.2,68,0.0,980.7,6.9,15.8,131,105.2,82.2,3,5,7,0,2026-04-02T03:15:18.225544+05:30
Jalandhar,Punjab,31.326,75.5762,20.5,71,0.0,982.0,7.1,13.0,117,95.2,53.7,3,5,7,0,2026-04-02T03:15:18.225553+05:30
Dehradun,Uttarakhand,30.6284,78.0322,13.1,63,0.0,830.6,5.8,29.2,33,14.6,9.0,3,5,3,0,2026-04-02T03:15:18.225559+05:30
Shimla,Himachal Pradesh,31.1048,77.1734,11.6,63,0.0,784.4,4.75,29.5,53,25.4,18.6,3,5,3,0,2026-04-02T03:15:18.225566+05:30
Manali,Himachal Pradesh,32.2396,77.1887,14.0,45,0.0,820.3,8.2,21.2,47,11.5,7.5,0,5,7,0,2026-04-02T03:15:18.225572+05:30
Gurgaon,Haryana,28.4595,77.0266,20.2,80,0.0,982.8,6.25,16.2,343,380.9,78.5,3,5,7,1,2026-04-02T03:15:18.225578+05:30
Noida,Uttar Pradesh,28.5355,77.391,21.0,76,0.0,986.1,5.95,15.5,343,380.9,78.5,3,5,3,1,2026-04-02T03:15:18.225585+05:30
Ghaziabad,Uttar Pradesh,28.6692,77.4538,20.0,77,0.0,984.1,6.75,15.8,151,79.2,44.5,3,5,7,0,2026-04-02T03:15:18.225591+05:30
Faridabad,Haryana,28.4089,77.3178,20.0,80,0.0,985.2,5.85,17.6,343,380.9,78.5,3,5,3,1,2026-04-02T03:15:18.225598+05:30
Meerut,Uttar Pradesh,28.9845,77.7064,19.6,74,0.0,982.9,6.4,17.6,151,79.2,44.5,3,5,7,0,2026-04-02T03:15:18.225606+05:30
Agra,Uttar Pradesh,27.1767,78.0081,22.5,75,0.0,988.5,7.05,12.6,386,275.7,61.5,3,5,7,1,2026-04-02T03:15:18.225613+05:30
Varanasi,Uttar Pradesh,25.3176,82.9739,24.1,75,0.0,997.5,8.05,29.2,77,44.2,31.2,3,5,7,1,2026-04-02T03:15:18.225621+05:30
Prayagraj,Uttar Pradesh,25.4358,81.8463,25.0,70,0.0,996.2,7.75,21.2,68,87.3,34.3,7,5,7,1,2026-04-02T03:15:18.225629+05:30
Gorakhpur,Uttar Pradesh,26.7606,83.3732,22.6,66,0.0,996.9,7.85,40.7,91,75.2,28.4,3,5,7,0,2026-04-02T03:15:18.225636+05:30
Bareilly,Uttar Pradesh,28.367,79.4304,20.5,70,0.0,987.7,7.1,28.1,106,44.5,30.9,3,5,7,0,2026-04-02T03:15:18.225642+05:30
Aligarh,Uttar Pradesh,27.8974,78.088,20.1,73,0.0,986.5,6.7,25.2,235,288.7,65.7,3,5,7,0,2026-04-02T03:15:18.225650+05:30
Moradabad,Uttar Pradesh,28.8386,78.7733,19.8,72,0.0,984.8,6.85,25.6,113,46.3,32.7,3,5,7,0,2026-04-02T03:15:18.225656+05:30
Saharanpur,Uttar Pradesh,29.9637,77.546,19.4,74,0.0,977.1,6.5,21.2,98,85.2,52.4,3,5,7,0,2026-04-02T03:15:18.225662+05:30
Jhansi,Uttar Pradesh,25.4484,78.5685,25.5,66,0.0,978.5,7.05,15.5,67,71.7,29.0,7,5,7,1,2026-04-02T03:15:21.450212+05:30
Surat,Gujarat,21.1702,72.8311,25.9,81,0.0,1006.3,7.15,33.1,87,22.8,19.7,7,5,4,1,2026-04-02T03:15:21.450240+05:30
Vadodara,Gujarat,22.3072,73.1812,25.0,77,0.0,1004.1,7.65,37.8,68,25.7,21.0,7,5,4,1,2026-04-02T03:15:21.450249+05:30
Rajkot,Gujarat,22.3039,70.8022,22.7,77,0.0,994.4,6.75,53.6,55,26.7,13.9,3,5,7,1,2026-04-02T03:15:21.450256+05:30
Thane,Maharashtra,19.2183,72.9781,24.6,85,0.0,1007.6,7.15,33.5,64,27.1,18.5,3,5,4,1,2026-04-02T03:15:21.450263+05:30
Nagpur,Maharashtra,21.1458,79.0882,24.8,75,0.0,974.3,8.6,39.6,88,31.7,26.7,3,5,7,1,2026-04-02T03:15:21.450270+05:30
Nashik,Maharashtra,19.9975,73.7898,22.4,83,0.0,945.0,7.6,34.9,62,26.5,19.8,3,5,7,1,2026-04-02T03:15:21.450276+05:30
Aurangabad,Maharashtra,19.8762,75.3433,22.8,81,0.0,944.6,7.5,42.8,101,46.1,39.1,3,5,7,1,2026-04-02T03:15:21.450282+05:30
Solapur,Maharashtra,17.6599,75.9064,24.5,76,0.0,957.0,8.95,22.7,97,42.3,37.4,3,5,7,1,2026-04-02T03:15:21.450289+05:30
Kolhapur,Maharashtra,16.705,74.2433,22.7,95,0.0,947.5,8.85,33.5,128,54.5,50.9,3,5,7,1,2026-04-02T03:15:21.450295+05:30
Goa,Goa,15.2993,74.124,27.4,79,0.0,996.9,8.85,28.4,71,30.9,22.2,7,5,7,1,2026-04-02T03:15:21.450301+05:30
Jodhpur,Rajasthan,26.2389,73.0243,24.7,41,0.0,983.1,7.8,38.5,88,137.4,24.6,0,5,7,0,2026-04-02T03:15:21.450307+05:30
Udaipur,Rajasthan,24.5854,73.7125,22.8,53,0.0,946.2,8.2,37.1,52,26.8,14.9,0,5,7,0,2026-04-02T03:15:21.450313+05:30
Kota,Rajasthan,25.2138,75.8648,25.2,66,0.0,978.6,7.25,30.6,61,28.5,18.5,7,5,7,1,2026-04-02T03:15:21.450319+05:30
Bikaner,Rajasthan,28.0229,73.3119,23.3,62,0.0,981.7,7.55,28.4,53,94.1,28.6,3,5,7,0,2026-04-02T03:15:21.450325+05:30
Ajmer,Rajasthan,26.4499,74.6399,24.9,66,0.0,954.6,7.05,31.3,63,35.9,19.2,3,5,7,1,2026-04-02T03:15:21.450331+05:30
Gwalior,Madhya Pradesh,26.2183,78.1828,24.2,78,0.0,983.9,6.9,20.2,77,207.7,42.1,3,5,7,1,2026-04-02T03:15:21.450337+05:30
Indore,Madhya Pradesh,22.7196,75.8577,23.4,62,0.0,947.7,8.05,29.9,82,36.3,32.2,3,5,7,0,2026-04-02T03:15:21.450343+05:30
Bhopal,Madhya Pradesh,23.2599,77.4126,22.9,76,0.0,954.0,8.05,26.6,67,34.3,24.9,3,5,7,1,2026-04-02T03:15:21.450349+05:30
Jabalpur,Madhya Pradesh,23.1815,79.9864,23.3,79,0.0,962.0,7.95,26.3,66,41.7,33.3,3,5,7,1,2026-04-02T03:15:21.450355+05:30
Ujjain,Madhya Pradesh,23.1765,75.7885,23.0,64,0.0,953.2,8.2,30.6,77,27.5,24.4,3,5,7,0,2026-04-02T03:15:21.450362+05:30
Visakhapatnam,Andhra Pradesh,17.6868,83.2185,24.8,90,0.0,1004.8,9.05,36.0,64,17.5,14.8,3,5,4,1,2026-04-02T03:15:21.450368+05:30
Vijayawada,Andhra Pradesh,16.5062,80.648,24.8,89,0.0,1003.6,9.15,24.5,55,13.7,11.9,3,5,4,1,2026-04-02T03:15:21.450374+05:30
Guntur,Andhra Pradesh,16.3067,80.4365,24.6,90,0.0,1004.6,9.15,28.4,52,12.1,10.5,3,5,4,1,2026-04-02T03:15:21.450380+05:30
Nellore,Andhra Pradesh,14.4426,79.9865,25.0,88,0.0,1006.5,9.25,29.9,40,9.4,7.3,7,5,4,1,2026-04-02T03:15:21.450390+05:30
Kurnool,Andhra Pradesh,15.8281,78.0373,27.8,62,0.0,976.5,9.15,22.0,65,11.2,8.1,7,5,7,1,2026-04-02T03:15:21.450399+05:30
Kakinada,Andhra Pradesh,16.9891,82.2475,23.9,92,0.0,1008.6,9.05,30.6,46,11.8,9.0,3,0,4,1,2026-04-02T03:15:21.450406+05:30
Tirupati,Andhra Pradesh,13.6288,79.4192,22.4,86,0.0,992.6,9.35,32.8,56,16.9,15.0,3,5,7,1,2026-04-02T03:15:21.450416+05:30
Warangal,Telangana,17.9689,79.5941,25.3,69,0.0,979.0,9.0,25.9,87,15.3,14.2,7,5,7,1,2026-04-02T03:15:21.450422+05:30
Nizamabad,Telangana,18.6725,78.0941,25.3,77,0.0,964.7,8.9,34.2,117,36.2,33.8,7,5,7,1,2026-04-02T03:15:21.450428+05:30
Mysore,Karnataka,12.2958,76.6396,22.6,94,0.0,927.7,9.5,36.0,83,37.6,34.2,3,5,7,1,2026-04-02T03:15:21.450434+05:30
Mangalore,Karnataka,12.9141,74.856,28.3,83,0.0,1005.5,8.3,22.0,88,46.3,43.0,7,5,4,1,2026-04-02T03:15:21.450440+05:30
Hubli-Dharwad,Karnataka,15.3647,75.124,23.5,90,0.0,940.0,9.15,33.1,99,38.2,35.7,3,5,7,1,2026-04-02T03:15:21.450446+05:30
Belgaum,Karnataka,15.8497,74.4977,22.3,94,0.0,924.8,9.1,36.7,113,40.7,36.6,3,5,7,1,2026-04-02T03:15:24.679347+05:30
Coimbatore,Tamil Nadu,11.0168,76.9558,22.7,94,0.0,961.4,9.4,46.4,67,27.1,23.8,3,5,7,1,2026-04-02T03:15:24.679378+05:30
Madurai,Tamil Nadu,9.9252,78.1198,24.8,85,0.0,993.5,9.4,28.1,57,24.3,22.1,3,5,7,1,2026-04-02T03:15:24.679388+05:30
Trichy,Tamil Nadu,10.7905,78.7047,23.3,92,0.0,1000.3,9.4,16.6,57,16.8,14.9,3,5,4,1,2026-04-02T03:15:24.679395+05:30
Salem,Tamil Nadu,11.6643,78.146,24.3,81,0.0,977.6,9.45,13.0,75,24.9,23.1,3,5,7,1,2026-04-02T03:15:24.679403+05:30
Tirunelveli,Tamil Nadu,8.7139,77.7567,24.6,85,0.0,1003.4,9.25,46.1,49,23.2,21.2,3,5,4,1,2026-04-02T03:15:24.679410+05:30
Vellore,Tamil Nadu,12.9165,79.1325,22.2,85,0.0,985.3,9.3,28.1,59,24.4,22.7,3,5,7,1,2026-04-02T03:15:24.679417+05:30
Erode,Tamil Nadu,11.341,77.7172,25.4,78,0.0,989.5,9.15,20.9,57,13.7,12.5,7,5,7,1,2026-04-02T03:15:24.679424+05:30
Kochi,Kerala,9.9312,76.2673,27.7,84,0.0,1008.0,9.2,29.2,79,24.0,22.4,7,0,4,1,2026-04-02T03:15:24.679432+05:30
Thiruvananthapuram,Kerala,8.5241,76.9366,28.6,78,0.0,1007.2,9.15,25.9,68,16.1,12.1,7,5,4,1,2026-04-02T03:15:24.679439+05:30
Kozhikode,Kerala,11.2588,75.7804,28.3,84,0.0,1006.9,9.15,24.8,70,31.0,25.2,7,5,4,1,2026-04-02T03:15:24.679446+05:30
Thrissur,Kerala,10.5276,76.2144,27.0,90,0.0,1006.3,9.2,32.8,76,25.6,23.3,7,5,4,1,2026-04-02T03:15:24.679454+05:30
Kannur,Kerala,11.8745,75.3704,28.1,84,0.0,1006.0,9.1,24.1,91,39.6,36.6,7,5,4,1,2026-04-02T03:15:24.679462+05:30
Patna,Bihar,25.5941,85.1376,25.4,69,0.0,1000.3,8.25,34.9,151,30.3,24.7,7,5,4,1,2026-04-02T03:15:24.679469+05:30
Gaya,Bihar,24.7914,85.0002,26.6,64,0.0,994.1,8.35,27.7,87,39.7,29.7,7,5,7,1,2026-04-02T03:15:24.679476+05:30
Muzaffarpur,Bihar,26.1209,85.3647,23.0,70,0.0,1000.1,8.25,32.0,154,32.5,24.7,3,5,4,1,2026-04-02T03:15:24.679483+05:30
Bhagalpur,Bihar,25.2425,87.0117,24.9,79,0.0,1000.7,8.25,28.8,142,31.4,20.8,3,5,4,1,2026-04-02T03:15:24.679490+05:30
Ranchi,Jharkhand,23.3441,85.3096,23.7,60,0.0,938.4,8.9,32.4,87,48.3,24.6,0,5,7,0,2026-04-02T03:15:24.679496+05:30
Jamshedpur,Jharkhand,22.8046,86.2029,27.3,75,0.0,991.1,8.75,29.5,122,65.9,46.6,7,5,7,1,2026-04-02T03:15:24.679502+05:30
Dhanbad,Jharkhand,23.7957,86.4304,25.5,70,0.0,979.9,8.65,30.2,156,99.7,70.3,7,5,7,1,2026-04-02T03:15:24.679509+05:30
Bokaro,Jharkhand,23.6693,86.1511,25.9,60,0.0,984.4,8.65,32.8,149,99.7,72.2,4,5,7,1,2026-04-02T03:15:24.679515+05:30
Bhubaneswar,Odisha,20.2961,85.8245,25.5,89,0.0,1003.2,8.9,31.0,82,17.1,14.5,7,5,4,1,2026-04-02T03:15:24.679521+05:30
Cuttack,Odisha,20.4625,85.8828,25.0,94,0.0,1005.2,8.95,24.1,82,17.1,14.5,7,5,4,1,2026-04-02T03:15:24.679528+05:30
Rourkela,Odisha,22.2604,84.8536,25.8,78,0.0,985.3,8.65,26.6,134,88.7,51.6,7,5,7,1,2026-04-02T03:15:24.679534+05:30
Raipur,Chhattisgarh,21.2514,81.6296,26.0,68,0.0,974.7,8.75,29.2,131,71.5,64.0,7,5,7,1,2026-04-02T03:15:24.679541+05:30
Bhilai,Chhattisgarh,21.1938,81.3509,25.2,70,0.0,974.8,8.75,27.7,122,77.3,71.5,7,5,7,1,2026-04-02T03:15:24.679547+05:30
Guwahati,Assam,26.1158,91.7086,22.0,94,0.0,1001.6,8.15,37.4,90,41.6,37.0,3,5,4,1,2026-04-02T03:15:24.679553+05:30
Agartala,Tripura,23.8315,91.2868,22.3,93,0.0,1007.4,8.4,43.9,86,33.3,31.7,3,5,4,1,2026-04-02T03:15:24.679559+05:30
Shillong,Meghalaya,25.5788,91.8933,15.1,90,0.0,855.3,8.55,70.9,70,25.0,21.0,3,10,7,0,2026-04-02T03:15:24.679566+05:30
Imphal,Manipur,24.817,93.9368,17.9,90,0.0,923.5,8.75,83.9,95,49.2,40.7,3,10,7,1,2026-04-02T03:15:24.679573+05:30
Aizawl,Mizoram,23.7271,92.7176,18.3,89,0.0,893.0,8.6,52.9,89,44.1,37.6,3,10,7,1,2026-04-02T03:15:24.679579+05:30
Kohima,Nagaland,25.6701,94.1077,16.6,77,0.0,854.4,8.65,99.0,78,33.6,26.2,3,5,7,0,2026-04-02T03:15:24.679586+05:30
Gangtok,Sikkim,27.3314,88.6138,13.3,81,0.0,835.2,8.5,19.8,79,19.8,18.0,3,10,7,0,2026-04-02T03:15:24.679592+05:30
Siliguri,West Bengal,26.7271,88.3953,20.1,80,0.0,993.6,8.05,23.0,154,79.9,72.4,3,5,7,1,2026-04-02T03:15:27.906875+05:30
Durgapur,West Bengal,23.5204,87.3119,27.0,87,0.0,995.0,8.6,25.2,150,83.4,67.1,7,5,7,1,2026-04-02T03:15:27.906906+05:30
Asansol,West Bengal,23.6739,86.9524,27.3,84,0.0,993.5,8.6,24.8,146,68.0,46.7,7,5,7,1,2026-04-02T03:15:27.906918+05:30
Pondicherry,Puducherry,11.9139,79.8145,22.5,93,0.0,1009.1,9.25,27.7,35,11.4,8.5,3,0,4,1,2026-04-02T03:15:27.906927+05:30
Port Blair,Andaman and Nicobar Islands,11.6234,92.7265,28.2,81,0.0,1006.8,9.15,28.4,48,11.4,9.6,7,5,4,1,2026-04-02T03:15:27.906936+05:30
Haridwar,Uttarakhand,29.9457,78.1642,19.9,66,0.0,975.9,6.1,25.9,70,34.2,25.9,3,5,7,0,2026-04-02T03:15:27.906944+05:30
Rishikesh,Uttarakhand,30.0869,78.2676,19.3,60,0.0,968.8,5.9,29.2,56,28.1,16.9,0,5,3,0,2026-04-02T03:15:27.906953+05:30
Nainital,Uttarakhand,29.3919,79.4542,18.2,42,0.0,806.9,7.65,36.4,64,25.6,17.4,0,5,7,0,2026-04-02T03:15:27.906960+05:30
Mussoorie,Uttarakhand,30.4599,78.0664,15.7,49,0.0,803.7,5.85,34.9,61,28.7,21.0,0,5,3,0,2026-04-02T03:15:27.906967+05:30
Dharamshala,Himachal Pradesh,32.219,76.3234,18.8,45,0.0,870.4,7.35,21.2,40,11.8,6.7,0,5,7,0,2026-04-02T03:15:27.906973+05:30
Dalhousie,Himachal Pradesh,32.5387,75.971,14.9,50,0.0,804.1,7.1,20.2,62,31.5,24.6,0,5,7,0,2026-04-02T03:15:27.906980+05:30
Patiala,Punjab,30.3398,76.3869,19.8,73,0.0,979.7,6.6,15.5,124,85.0,68.0,3,5,7,0,2026-04-02T03:15:27.906986+05:30
Bhatinda,Punjab,30.211,74.9455,20.8,75,0.0,985.3,7.35,23.8,117,189.5,56.5,3,5,7,1,2026-04-02T03:15:27.906992+05:30
Rohtak,Haryana,28.8955,76.6066,19.8,79,0.0,983.0,6.65,13.7,156,171.4,49.8,3,5,7,1,2026-04-02T03:15:27.906998+05:30
Panipat,Haryana,29.3909,76.9635,19.9,74,0.0,981.8,6.7,12.2,146,169.5,53.6,3,5,7,0,2026-04-02T03:15:27.907004+05:30
Mathura,Uttar Pradesh,27.4924,77.6737,21.3,78,0.0,987.6,7.1,18.0,234,234.2,61.0,3,5,7,1,2026-04-02T03:15:27.907010+05:30
Vrindavan,Uttar Pradesh,27.5823,77.7027,21.0,70,0.0,988.1,6.95,16.9,234,234.2,61.0,3,5,7,0,2026-04-02T03:15:27.907016+05:30
Ayodhya,Uttar Pradesh,26.7922,82.1998,22.8,67,0.0,995.5,7.65,36.4,76,106.9,34.3,3,5,7,1,2026-04-02T03:15:27.907022+05:30
Ratlam,Madhya Pradesh,23.3315,75.0367,24.5,58,0.0,953.8,8.15,32.8,71,26.0,21.3,0,5,7,0,2026-04-02T03:15:27.907028+05:30
Sagar,Madhya Pradesh,23.8388,78.7378,22.7,73,0.0,950.8,7.35,28.8,60,33.3,21.7,3,5,7,1,2026-04-02T03:15:27.907034+05:30
Satna,Madhya Pradesh,24.6005,80.8322,25.6,62,0.0,971.9,7.85,25.6,58,39.1,20.9,7,5,7,1,2026-04-02T03:15:27.907040+05:30
Akola,Maharashtra,20.7002,77.0082,24.3,80,0.0,976.1,8.6,22.7,84,38.0,31.9,3,5,7,1,2026-04-02T03:15:27.907046+05:30
Amravati,Maharashtra,20.9374,77.7796,24.3,82,0.0,967.8,8.5,29.2,80,33.1,27.6,3,5,7,1,2026-04-02T03:15:27.907053+05:30
Latur,Maharashtra,18.4088,76.5604,23.1,80,0.0,940.0,8.9,29.2,100,39.5,35.4,3,5,7,1,2026-04-02T03:15:27.907059+05:30
Nanded,Maharashtra,19.1383,77.3091,24.3,82,0.0,969.4,8.8,27.7,105,32.4,29.6,3,5,7,1,2026-04-02T03:15:27.907065+05:30
Gulbarga,Karnataka,17.3297,76.8343,24.8,76,0.0,958.9,9.0,52.6,92,34.2,31.1,3,5,7,1,2026-04-02T03:15:27.907071+05:30
Bidar,Karnataka,17.9104,77.5199,23.8,78,0.0,935.7,9.0,42.5,100,38.3,34.9,3,5,7,1,2026-04-02T03:15:27.907077+05:30
Hospet,Karnataka,15.2689,76.3909,25.8,76,0.0,955.2,9.2,35.3,110,45.3,41.4,7,5,7,1,2026-04-02T03:15:27.907083+05:30
Tirupur,Tamil Nadu,11.1085,77.3411,25.3,77,0.0,975.4,9.15,28.4,62,19.6,17.8,7,5,7,1,2026-04-02T03:15:27.907089+05:30
Alappuzha,Kerala,9.4981,76.3388,27.9,82,0.0,1008.1,9.2,28.4,72,20.7,16.9,7,0,4,1,2026-04-02T03:15:27.907095+05:30
Munnar,Kerala,10.0889,77.0595,18.4,89,0.0,855.1,9.75,32.0,67,29.8,25.7,3,10,7,1,2026-04-02T03:15:27.907102+05:30
Silchar,Assam,24.8333,92.7789,22.0,91,0.0,1006.9,8.45,31.3,112,42.4,36.4,3,5,4,1,2026-04-02T03:15:27.907108+05:30
Dibrugarh,Assam,27.4728,94.912,21.5,91,0.0,995.9,6.9,22.0,99,21.6,18.3,3,5,7,1,2026-04-02T03:15:27.907114+05:30
