city,state,latitude,longitude,temp,humidity,rain,pressure,uv_index,wind_gusts,aqi,pm10,pm2_5,no2,co,o3,so2,mosquito_risk,arthritis_risk,migraine_risk,frizz_risk,updated_at
Delhi,Delhi,28.6139,77.209,26.8,55,0.0,982.4,7.65,27.4,157,221.2,68.2,17.3,476.0,107.0,21.9,4,5,7,1,2026-05-11T04:22:08.903270+05:30
Mumbai,Maharashtra,19.076,72.8777,28.6,83,0.0,1004.3,7.9,50.0,91,49.7,23.6,17.8,396.0,61.0,13.1,7,5,4,1,2026-05-11T04:22:08.903316+05:30
Bangalore,Karnataka,12.9716,77.5946,21.1,93,0.0,908.4,9.3,41.0,61,20.3,19.5,15.2,234.0,54.0,8.5,3,5,7,1,2026-05-11T04:22:08.903334+05:30
Hyderabad,Telangana,17.385,78.4867,25.2,72,0.0,951.2,9.25,40.0,59,7.7,5.8,6.8,167.0,44.0,2.6,7,5,7,1,2026-05-11T04:22:08.903344+05:30
Chennai,Tamil Nadu,13.0827,80.2707,26.2,90,0.0,1004.0,9.15,40.0,20,8.1,6.8,10.5,355.0,34.0,2.8,7,5,4,1,2026-05-11T04:22:08.903354+05:30
Kolkata,West Bengal,22.5726,88.3639,24.5,91,0.0,1006.1,8.8,38.5,155,125.3,119.0,61.3,518.0,6.0,22.6,3,5,4,1,2026-05-11T04:22:08.903363+05:30
Pune,Maharashtra,18.5204,73.8567,26.5,61,0.0,944.7,8.5,39.6,68,35.2,27.1,26.6,309.0,63.0,15.2,7,5,7,1,2026-05-11T04:22:08.903371+05:30
Ahmedabad,Gujarat,23.0225,72.5714,32.0,35,0.0,998.2,8.15,35.6,61,23.3,12.0,3.4,170.0,63.0,4.1,0,5,7,0,2026-05-11T04:22:08.903382+05:30
Jaipur,Rajasthan,26.9124,75.7873,27.0,53,0.0,958.3,8.2,44.3,178,350.2,70.3,4.4,363.0,113.0,8.5,4,5,7,1,2026-05-11T04:22:08.903390+05:30
Lucknow,Uttar Pradesh,26.8467,80.9462,25.3,60,0.0,993.6,8.15,28.8,112,42.1,35.9,14.0,373.0,87.0,9.6,4,5,7,1,2026-05-11T04:22:08.903398+05:30
Kanpur,Uttar Pradesh,26.4499,80.3319,26.5,54,0.0,991.5,8.15,32.4,135,147.6,40.6,9.7,348.0,94.0,9.0,4,5,7,1,2026-05-11T04:22:08.903406+05:30
Chandigarh,Chandigarh,30.7333,76.7794,25.0,65,0.0,967.4,7.7,42.5,148,87.5,56.3,15.1,363.0,86.0,8.9,7,5,7,1,2026-05-11T04:22:08.903415+05:30
Srinagar,Jammu and Kashmir,34.0837,74.7973,12.4,85,0.0,841.8,8.85,32.8,107,65.0,41.6,16.4,412.0,65.0,3.8,3,10,7,0,2026-05-11T04:22:08.903423+05:30
Jammu,Jammu and Kashmir,32.7266,74.857,25.8,59,0.0,971.2,8.45,31.7,157,103.6,59.6,22.6,383.0,32.0,4.2,4,5,7,1,2026-05-11T04:22:08.903431+05:30
Amritsar,Punjab,31.634,74.8723,26.6,62,0.0,979.4,8.35,49.7,172,191.9,72.4,6.6,555.0,104.0,14.0,7,5,7,1,2026-05-11T04:22:08.903438+05:30
Ludhiana,Punjab,30.901,75.8573,26.7,60,0.0,977.2,7.9,36.7,175,289.6,79.9,8.0,483.0,108.0,8.9,4,5,7,1,2026-05-11T04:22:08.903446+05:30
Jalandhar,Punjab,31.326,75.5762,25.8,64,0.0,978.4,8.1,34.2,168,202.6,71.7,8.5,598.0,104.0,16.6,7,5,7,1,2026-05-11T04:22:08.903453+05:30
Dehradun,Uttarakhand,30.6284,78.0322,12.3,100,0.0,828.6,6.15,31.7,100,60.8,36.0,25.0,312.0,29.0,0.7,3,10,7,0,2026-05-11T04:22:08.903463+05:30
Shimla,Himachal Pradesh,31.1048,77.1734,10.6,95,0.0,781.6,7.65,42.5,152,130.9,67.3,17.9,363.0,90.0,9.5,3,10,7,0,2026-05-11T04:22:08.903471+05:30
Manali,Himachal Pradesh,32.2396,77.1887,12.6,63,0.0,816.1,9.5,37.1,59,27.4,17.3,35.8,205.0,97.0,0.4,3,5,7,0,2026-05-11T04:22:08.903478+05:30
Gurgaon,Haryana,28.4595,77.0266,26.0,57,0.0,980.5,7.75,31.3,681,678.0,111.5,13.5,412.0,104.0,18.7,4,5,7,1,2026-05-11T04:22:08.903485+05:30
Noida,Uttar Pradesh,28.5355,77.391,23.9,67,0.0,984.0,7.65,24.8,681,678.0,111.5,13.5,470.0,104.0,18.7,3,5,7,1,2026-05-11T04:22:08.903492+05:30
Ghaziabad,Uttar Pradesh,28.6692,77.4538,24.6,65,0.0,982.1,7.65,28.1,145,132.2,58.0,10.1,438.0,103.0,16.3,3,5,7,1,2026-05-11T04:22:08.903501+05:30
Faridabad,Haryana,28.4089,77.3178,25.4,60,0.0,983.3,7.7,25.6,681,678.0,111.5,13.5,424.0,104.0,18.7,4,5,7,1,2026-05-11T04:22:08.903508+05:30
Meerut,Uttar Pradesh,28.9845,77.7064,24.2,68,0.0,981.0,7.55,28.8,145,132.2,58.0,10.1,457.0,103.0,16.3,3,5,7,1,2026-05-11T04:22:08.903516+05:30
Agra,Uttar Pradesh,27.1767,78.0081,26.1,58,0.0,987.0,8.0,25.2,364,438.7,71.9,7.2,357.0,97.0,10.4,4,5,7,1,2026-05-11T04:22:08.903523+05:30
Varanasi,Uttar Pradesh,25.3176,82.9739,24.2,71,0.0,997.3,8.65,25.6,111,56.2,48.0,13.2,453.0,106.0,17.5,3,5,7,1,2026-05-11T04:22:08.903530+05:30
Prayagraj,Uttar Pradesh,25.4358,81.8463,25.4,57,0.0,995.5,8.55,27.0,116,56.3,48.9,14.9,441.0,99.0,16.0,4,5,7,1,2026-05-11T04:22:08.903540+05:30
Gorakhpur,Uttar Pradesh,26.7606,83.3732,23.2,70,0.0,998.1,8.5,31.0,101,53.8,47.0,13.4,470.0,97.0,12.9,3,5,7,1,2026-05-11T04:22:08.903547+05:30
Bareilly,Uttar Pradesh,28.367,79.4304,23.3,72,0.0,987.1,7.95,25.2,106,39.8,30.3,12.8,338.0,78.0,4.2,3,5,7,1,2026-05-11T04:22:08.903553+05:30
Aligarh,Uttar Pradesh,27.8974,78.088,24.5,64,0.0,985.0,7.8,29.2,185,289.6,65.9,10.4,370.0,90.0,14.6,3,5,7,1,2026-05-11T04:22:08.903560+05:30
Moradabad,Uttar Pradesh,28.8386,78.7733,23.9,70,0.0,983.8,7.75,26.3,126,54.5,46.0,16.9,404.0,78.0,7.0,3,5,7,1,2026-05-11T04:22:08.903566+05:30
Saharanpur,Uttar Pradesh,29.9637,77.546,24.2,70,0.0,975.0,7.4,32.0,150,83.6,62.4,26.3,486.0,41.0,8.4,3,5,7,1,2026-05-11T04:22:08.903572+05:30
Jhansi,Uttar Pradesh,25.4484,78.5685,25.9,58,0.0,976.8,8.45,31.3,113,54.6,35.9,4.3,359.0,102.0,8.8,4,5,7,1,2026-05-11T04:22:12.170315+05:30
Surat,Gujarat,21.1702,72.8311,29.8,54,0.0,1002.1,7.75,33.8,101,37.0,23.0,23.0,191.0,59.0,36.5,4,5,4,1,2026-05-11T04:22:12.170351+05:30
Vadodara,Gujarat,22.3072,73.1812,31.1,23,0.0,1000.1,8.1,35.6,77,27.2,15.7,9.2,187.0,59.0,8.0,0,5,4,0,2026-05-11T04:22:12.170362+05:30
Rajkot,Gujarat,22.3039,70.8022,25.5,92,0.0,991.2,7.75,39.2,53,36.1,11.9,6.1,146.0,56.0,5.2,7,5,7,1,2026-05-11T04:22:12.170371+05:30
Thane,Maharashtra,19.2183,72.9781,28.3,76,0.0,1003.6,7.9,47.2,91,49.7,23.6,17.8,522.0,61.0,13.1,7,5,4,1,2026-05-11T04:22:12.170378+05:30
Nagpur,Maharashtra,21.1458,79.0882,28.9,43,0.0,971.1,8.95,34.9,97,71.0,47.1,25.0,335.0,65.0,13.1,4,5,7,0,2026-05-11T04:22:12.170386+05:30
Nashik,Maharashtra,19.9975,73.7898,28.5,36,0.0,942.1,8.2,44.6,67,48.8,28.8,26.7,242.0,68.0,20.6,4,5,7,0,2026-05-11T04:22:12.170393+05:30
Aurangabad,Maharashtra,19.8762,75.3433,31.0,26,0.0,940.6,9.05,43.2,65,31.9,15.2,7.8,204.0,97.0,9.5,0,5,7,0,2026-05-11T04:22:12.170400+05:30
Solapur,Maharashtra,17.6599,75.9064,29.5,43,0.0,953.7,9.1,31.3,71,33.8,23.5,12.3,262.0,72.0,9.8,4,5,7,0,2026-05-11T04:22:12.170408+05:30
Kolhapur,Maharashtra,16.705,74.2433,24.8,80,0.0,944.6,8.05,48.6,108,39.0,30.7,20.0,218.0,45.0,7.0,3,5,7,1,2026-05-11T04:22:12.170415+05:30
Goa,Goa,15.2993,74.124,27.1,95,0.0,994.1,8.9,36.4,84,60.5,41.9,15.9,371.0,54.0,3.7,7,5,7,1,2026-05-11T04:22:12.170422+05:30
Jodhpur,Rajasthan,26.2389,73.0243,31.5,19,0.0,979.2,8.4,36.0,76,194.6,32.9,5.7,222.0,60.0,3.6,0,5,7,0,2026-05-11T04:22:12.170429+05:30
Udaipur,Rajasthan,24.5854,73.7125,26.8,28,0.0,943.1,8.85,33.8,41,47.7,14.2,6.1,258.0,56.0,4.7,4,5,7,0,2026-05-11T04:22:12.170436+05:30
Kota,Rajasthan,25.2138,75.8648,28.2,44,0.0,976.4,8.4,23.8,95,75.7,35.3,3.3,316.0,107.0,11.3,4,5,7,0,2026-05-11T04:22:12.170443+05:30
Bikaner,Rajasthan,28.0229,73.3119,29.8,38,0.0,977.6,8.3,68.4,106,76.6,34.7,3.2,311.0,88.0,5.6,4,5,7,0,2026-05-11T04:22:12.170450+05:30
Ajmer,Rajasthan,26.4499,74.6399,27.0,50,0.0,952.4,8.35,40.0,104,114.1,37.6,4.1,374.0,86.0,5.0,4,5,7,0,2026-05-11T04:22:12.170457+05:30
Gwalior,Madhya Pradesh,26.2183,78.1828,26.1,56,0.0,982.2,8.25,25.9,122,75.7,37.7,4.1,332.0,110.0,8.3,4,5,7,1,2026-05-11T04:22:12.170464+05:30
Indore,Madhya Pradesh,22.7196,75.8577,28.0,29,0.0,945.7,8.7,38.5,73,72.9,34.6,4.7,268.0,109.0,17.3,4,5,7,0,2026-05-11T04:22:12.170471+05:30
Bhopal,Madhya Pradesh,23.2599,77.4126,26.5,49,0.0,951.3,8.7,41.4,75,65.9,30.2,3.1,306.0,112.0,5.5,4,5,7,0,2026-05-11T04:22:12.170478+05:30
Jabalpur,Madhya Pradesh,23.1815,79.9864,24.4,54,0.0,959.1,8.85,34.2,83,46.0,28.0,10.3,318.0,88.0,7.8,0,5,7,0,2026-05-11T04:22:12.170485+05:30
Ujjain,Madhya Pradesh,23.1765,75.7885,27.5,32,0.0,951.2,8.65,44.3,71,72.2,36.9,5.7,283.0,103.0,19.4,4,5,7,0,2026-05-11T04:22:12.170493+05:30
Visakhapatnam,Andhra Pradesh,17.6868,83.2185,25.4,97,0.0,1002.3,9.1,39.6,72,32.7,29.7,31.4,1440.0,17.0,8.2,7,5,4,1,2026-05-11T04:22:12.170500+05:30
Vijayawada,Andhra Pradesh,16.5062,80.648,27.5,83,0.0,1000.4,8.85,39.6,46,17.5,16.0,12.4,174.0,29.0,4.4,7,5,4,1,2026-05-11T04:22:12.170507+05:30
Guntur,Andhra Pradesh,16.3067,80.4365,27.0,84,0.0,1001.5,9.15,35.3,47,12.7,11.5,11.6,164.0,29.0,5.9,7,5,4,1,2026-05-11T04:22:12.170514+05:30
Nellore,Andhra Pradesh,14.4426,79.9865,25.5,96,0.0,1003.1,9.15,36.4,22,5.9,4.2,3.8,260.0,42.0,2.3,7,5,4,1,2026-05-11T04:22:12.170522+05:30
Kurnool,Andhra Pradesh,15.8281,78.0373,27.5,63,0.0,974.1,8.3,39.2,50,4.9,3.6,4.2,150.0,38.0,1.3,7,5,7,1,2026-05-11T04:22:12.170530+05:30
Kakinada,Andhra Pradesh,16.9891,82.2475,26.4,90,0.0,1005.7,9.05,41.0,27,9.3,6.4,3.4,170.0,55.0,2.0,7,5,4,1,2026-05-11T04:22:12.170537+05:30
Tirupati,Andhra Pradesh,13.6288,79.4192,23.5,95,0.0,988.2,9.2,40.7,44,20.1,18.8,30.4,375.0,3.0,8.2,3,5,7,1,2026-05-11T04:22:12.170544+05:30
Warangal,Telangana,17.9689,79.5941,25.6,82,0.0,976.7,9.15,42.8,62,7.5,6.7,8.9,165.0,34.0,9.2,7,5,7,1,2026-05-11T04:22:12.170551+05:30
Nizamabad,Telangana,18.6725,78.0941,26.5,66,0.0,962.0,9.15,34.6,76,24.4,21.0,7.6,211.0,83.0,6.2,7,5,7,1,2026-05-11T04:22:12.170558+05:30
Mysore,Karnataka,12.2958,76.6396,21.9,98,0.0,925.2,9.0,40.7,61,25.3,22.2,21.5,255.0,51.0,7.7,3,5,7,1,2026-05-11T04:22:12.170564+05:30
Mangalore,Karnataka,12.9141,74.856,26.3,96,0.0,1003.5,8.6,40.7,65,28.0,21.0,9.0,209.0,68.0,4.5,7,5,4,1,2026-05-11T04:22:12.170571+05:30
Hubli-Dharwad,Karnataka,15.3647,75.124,25.1,76,0.0,937.7,8.9,50.4,73,32.5,28.0,7.9,235.0,76.0,2.7,7,5,7,1,2026-05-11T04:22:12.170578+05:30
Belgaum,Karnataka,15.8497,74.4977,24.6,59,0.0,922.1,9.2,48.6,96,39.3,24.8,14.6,215.0,61.0,6.4,0,5,7,0,2026-05-11T04:22:15.408399+05:30
Coimbatore,Tamil Nadu,11.0168,76.9558,22.9,94,0.0,958.8,9.25,30.2,61,35.0,31.5,20.0,489.0,46.0,8.6,3,5,7,1,2026-05-11T04:22:15.408437+05:30
Madurai,Tamil Nadu,9.9252,78.1198,24.9,92,0.0,990.2,9.1,33.8,59,30.4,29.4,31.4,311.0,16.0,7.0,3,5,7,1,2026-05-11T04:22:15.408449+05:30
Trichy,Tamil Nadu,10.7905,78.7047,24.8,97,0.0,996.6,9.15,27.0,62,43.3,42.5,50.2,482.0,0.0,9.7,3,5,7,1,2026-05-11T04:22:15.408457+05:30
Salem,Tamil Nadu,11.6643,78.146,23.7,94,0.0,974.3,9.2,35.6,61,32.8,31.4,30.0,457.0,33.0,13.0,3,5,7,1,2026-05-11T04:22:15.408466+05:30
Tirunelveli,Tamil Nadu,8.7139,77.7567,25.8,90,0.0,1000.2,9.05,24.1,50,14.4,14.3,12.6,452.0,33.0,2.3,7,5,4,1,2026-05-11T04:22:15.408474+05:30
Vellore,Tamil Nadu,12.9165,79.1325,23.0,98,0.0,981.5,9.25,32.4,57,20.1,18.3,24.4,371.0,16.0,8.1,3,5,7,1,2026-05-11T04:22:15.408482+05:30
Erode,Tamil Nadu,11.341,77.7172,24.6,91,0.0,986.4,9.2,20.2,62,29.2,27.8,29.4,416.0,42.0,10.2,3,5,7,1,2026-05-11T04:22:15.408489+05:30
Kochi,Kerala,9.9312,76.2673,25.5,97,0.0,1005.8,8.95,30.6,65,25.8,25.4,22.8,344.0,21.0,5.5,7,5,4,1,2026-05-11T04:22:15.408496+05:30
Thiruvananthapuram,Kerala,8.5241,76.9366,24.5,97,0.0,1005.0,8.85,30.6,43,6.8,6.0,4.8,352.0,87.0,2.8,3,5,4,1,2026-05-11T04:22:15.408504+05:30
Kozhikode,Kerala,11.2588,75.7804,24.8,96,0.0,1005.0,8.9,33.1,48,14.0,11.5,4.4,314.0,101.0,4.1,3,5,4,1,2026-05-11T04:22:15.408511+05:30
Thrissur,Kerala,10.5276,76.2144,24.3,100,0.0,1004.1,8.95,27.7,65,29.9,29.4,19.3,438.0,41.0,4.0,3,5,4,1,2026-05-11T04:22:15.408519+05:30
Kannur,Kerala,11.8745,75.3704,26.5,90,0.0,1004.0,8.9,33.1,53,15.4,12.7,6.1,262.0,80.0,2.5,7,5,4,1,2026-05-11T04:22:15.408526+05:30
Patna,Bihar,25.5941,85.1376,23.6,79,0.0,1001.2,8.7,28.1,127,65.2,58.2,15.1,376.0,95.0,14.3,3,5,4,1,2026-05-11T04:22:15.408533+05:30
Gaya,Bihar,24.7914,85.0002,23.0,79,0.0,993.7,8.8,23.8,115,65.0,55.4,17.0,346.0,87.0,28.9,3,5,7,1,2026-05-11T04:22:15.408540+05:30
Muzaffarpur,Bihar,26.1209,85.3647,22.4,85,0.0,1001.7,8.7,27.4,128,63.8,57.6,16.9,525.0,80.0,12.6,3,5,4,1,2026-05-11T04:22:15.408547+05:30
Bhagalpur,Bihar,25.2425,87.0117,22.2,85,0.0,1002.2,8.6,40.3,138,60.3,53.9,11.3,440.0,124.0,16.7,3,5,4,1,2026-05-11T04:22:15.408553+05:30
Ranchi,Jharkhand,23.3441,85.3096,20.0,85,0.0,937.0,9.2,33.8,93,57.3,39.2,11.9,270.0,95.0,19.8,3,5,7,1,2026-05-11T04:22:15.408560+05:30
Jamshedpur,Jharkhand,22.8046,86.2029,22.5,89,0.0,991.2,9.0,30.6,118,63.1,54.7,39.2,422.0,38.0,30.9,3,5,7,1,2026-05-11T04:22:15.408567+05:30
Dhanbad,Jharkhand,23.7957,86.4304,22.6,90,0.0,980.0,8.95,30.2,161,105.2,97.8,64.6,434.0,30.0,74.1,3,5,7,1,2026-05-11T04:22:15.408574+05:30
Bokaro,Jharkhand,23.6693,86.1511,21.8,93,0.0,983.8,9.0,31.7,157,111.1,99.9,64.8,2653.0,32.0,68.2,3,5,7,1,2026-05-11T04:22:15.408581+05:30
Bhubaneswar,Odisha,20.2961,85.8245,24.5,94,0.0,1002.2,9.1,33.1,74,56.7,51.3,34.5,317.0,19.0,10.6,3,5,4,1,2026-05-11T04:22:15.408587+05:30
Cuttack,Odisha,20.4625,85.8828,24.7,93,0.0,1004.2,9.15,34.2,74,56.7,51.3,34.5,320.0,19.0,10.6,3,5,4,1,2026-05-11T04:22:15.408594+05:30
Rourkela,Odisha,22.2604,84.8536,23.5,93,0.0,985.1,8.95,43.6,118,67.1,50.6,23.8,333.0,82.0,57.7,3,5,7,1,2026-05-11T04:22:15.408602+05:30
Raipur,Chhattisgarh,21.2514,81.6296,27.0,49,0.0,972.9,9.0,29.5,106,37.7,29.7,16.9,279.0,80.0,5.1,4,5,7,0,2026-05-11T04:22:15.408609+05:30
Bhilai,Chhattisgarh,21.1938,81.3509,26.5,54,0.0,973.3,9.05,30.6,116,47.5,36.4,29.1,251.0,65.0,5.6,4,5,7,1,2026-05-11T04:22:15.408615+05:30
Guwahati,Assam,26.1158,91.7086,21.3,95,0.0,1003.5,7.6,25.9,98,32.2,25.0,6.3,301.0,67.0,1.1,3,5,4,1,2026-05-11T04:22:15.408622+05:30
Agartala,Tripura,23.8315,91.2868,21.9,97,0.0,1007.3,8.8,20.5,129,56.2,52.5,14.6,374.0,74.0,7.2,3,5,4,1,2026-05-11T04:22:15.408629+05:30
Shillong,Meghalaya,25.5788,91.8933,14.8,82,0.0,856.4,8.05,27.4,87,37.5,28.5,8.6,325.0,65.0,2.6,3,10,7,0,2026-05-11T04:22:15.408636+05:30
Imphal,Manipur,24.817,93.9368,19.0,92,0.0,923.3,8.35,35.6,99,42.1,36.6,32.1,236.0,15.0,4.3,3,10,7,1,2026-05-11T04:22:15.408643+05:30
Aizawl,Mizoram,23.7271,92.7176,17.0,97,0.0,892.0,8.75,31.3,102,24.4,19.8,2.1,428.0,88.0,1.2,3,10,7,1,2026-05-11T04:22:15.408650+05:30
Kohima,Nagaland,25.6701,94.1077,15.6,97,0.0,855.4,8.0,25.9,65,19.3,13.1,4.1,288.0,74.0,1.0,3,10,7,0,2026-05-11T04:22:15.408658+05:30
Gangtok,Sikkim,27.3314,88.6138,9.2,92,0.0,834.8,9.0,45.7,53,16.3,12.5,7.8,120.0,85.0,1.3,3,10,7,0,2026-05-11T04:22:15.408665+05:30
Siliguri,West Bengal,26.7271,88.3953,19.3,83,0.0,995.3,8.55,26.3,94,54.6,41.7,26.4,422.0,57.0,5.5,3,10,7,1,2026-05-11T04:22:18.676333+05:30
Durgapur,West Bengal,23.5204,87.3119,23.6,92,0.0,995.8,8.9,42.1,172,127.6,117.6,37.4,822.0,68.0,45.8,3,5,7,1,2026-05-11T04:22:18.676368+05:30
Asansol,West Bengal,23.6739,86.9524,22.7,95,0.0,994.0,8.95,25.9,163,100.6,93.4,40.2,1027.0,50.0,57.2,3,5,7,1,2026-05-11T04:22:18.676380+05:30
Pondicherry,Puducherry,11.9139,79.8145,25.5,94,0.0,1005.1,9.0,31.3,22,6.9,5.4,5.2,294.0,42.0,0.6,7,5,4,1,2026-05-11T04:22:18.676390+05:30
Port Blair,Andaman and Nicobar Islands,11.6234,92.7265,25.8,94,0.0,1004.9,9.05,32.0,29,3.3,2.2,0.2,137.0,67.0,0.1,7,5,4,1,2026-05-11T04:22:18.676398+05:30
Haridwar,Uttarakhand,29.9457,78.1642,21.6,78,0.0,973.5,7.45,33.1,138,68.2,54.6,28.4,356.0,30.0,4.9,3,5,7,1,2026-05-11T04:22:18.676406+05:30
Rishikesh,Uttarakhand,30.0869,78.2676,19.7,86,0.0,966.0,7.0,27.4,117,73.8,48.0,15.5,377.0,64.0,3.0,3,10,7,1,2026-05-11T04:22:18.676413+05:30
Nainital,Uttarakhand,29.3919,79.4542,13.0,86,0.0,805.3,5.45,31.7,99,52.3,42.0,22.1,276.0,55.0,4.7,3,10,3,0,2026-05-11T04:22:18.676420+05:30
Mussoorie,Uttarakhand,30.4599,78.0664,12.2,93,0.0,801.6,5.65,38.2,129,80.6,53.8,33.3,307.0,30.0,7.3,3,10,3,0,2026-05-11T04:22:18.676426+05:30
Dharamshala,Himachal Pradesh,32.219,76.3234,20.2,63,0.0,868.4,8.35,38.5,99,52.0,26.7,10.4,323.0,53.0,0.6,3,5,7,0,2026-05-11T04:22:18.676434+05:30
Dalhousie,Himachal Pradesh,32.5387,75.971,12.0,99,0.0,801.7,8.6,31.0,152,108.5,56.6,27.0,377.0,32.0,2.5,3,10,7,0,2026-05-11T04:22:18.676441+05:30
Patiala,Punjab,30.3398,76.3869,25.6,65,0.0,976.8,7.55,34.9,458,687.3,104.5,6.8,470.0,110.0,9.3,7,5,7,1,2026-05-11T04:22:18.676449+05:30
Bhatinda,Punjab,30.211,74.9455,28.0,52,0.0,982.7,8.25,55.1,426,638.9,136.9,6.0,364.0,118.0,13.0,4,5,7,1,2026-05-11T04:22:18.676456+05:30
Rohtak,Haryana,28.8955,76.6066,26.0,58,0.0,980.7,7.65,28.4,359,482.4,92.7,17.2,531.0,104.0,24.8,4,5,7,1,2026-05-11T04:22:18.676463+05:30
Panipat,Haryana,29.3909,76.9635,25.0,63,0.0,979.5,7.5,28.8,616,765.5,111.8,13.7,433.0,100.0,17.1,7,5,7,1,2026-05-11T04:22:18.676469+05:30
Mathura,Uttar Pradesh,27.4924,77.6737,25.5,60,0.0,985.9,7.95,26.6,375,499.2,86.1,8.8,332.0,81.0,9.5,4,5,7,1,2026-05-11T04:22:18.676476+05:30
Vrindavan,Uttar Pradesh,27.5823,77.7027,25.5,59,0.0,986.4,7.9,27.7,375,499.2,86.1,8.8,345.0,81.0,9.5,4,5,7,1,2026-05-11T04:22:18.676482+05:30
Ayodhya,Uttar Pradesh,26.7922,82.1998,23.5,70,0.0,996.0,8.3,33.5,117,55.5,50.3,17.7,425.0,78.0,10.4,3,5,7,1,2026-05-11T04:22:18.676489+05:30
Ratlam,Madhya Pradesh,23.3315,75.0367,26.6,36,0.0,951.3,8.55,34.9,63,70.1,36.9,6.2,322.0,96.0,15.9,4,5,7,0,2026-05-11T04:22:18.676495+05:30
Sagar,Madhya Pradesh,23.8388,78.7378,25.4,50,0.0,948.4,8.75,41.0,87,37.6,27.7,5.7,304.0,127.0,8.6,4,5,7,0,2026-05-11T04:22:18.676501+05:30
Satna,Madhya Pradesh,24.6005,80.8322,24.6,53,0.0,969.8,8.75,32.0,121,42.1,30.6,8.9,343.0,121.0,9.7,0,5,7,0,2026-05-11T04:22:18.676507+05:30
Akola,Maharashtra,20.7002,77.0082,28.2,35,0.0,971.8,8.9,44.6,87,62.6,36.3,33.4,368.0,22.0,5.1,4,5,7,0,2026-05-11T04:22:18.676515+05:30
Amravati,Maharashtra,20.9374,77.7796,28.5,37,0.0,964.3,8.9,43.2,88,66.1,38.1,35.0,333.0,26.0,5.9,4,5,7,0,2026-05-11T04:22:18.676522+05:30
Latur,Maharashtra,18.4088,76.5604,27.8,47,0.0,936.7,9.1,40.0,79,33.5,23.1,11.7,281.0,73.0,5.9,4,5,7,0,2026-05-11T04:22:18.676528+05:30
Nanded,Maharashtra,19.1383,77.3091,28.3,46,0.0,965.6,9.0,34.2,84,32.4,24.8,11.9,285.0,70.0,5.5,4,5,7,0,2026-05-11T04:22:18.676535+05:30
Gulbarga,Karnataka,17.3297,76.8343,28.0,51,0.0,956.2,9.0,34.2,63,24.7,19.0,9.4,234.0,71.0,8.0,4,5,7,1,2026-05-11T04:22:18.676541+05:30
Bidar,Karnataka,17.9104,77.5199,25.4,61,0.0,932.9,9.15,34.2,69,20.8,17.6,7.3,226.0,77.0,5.2,7,5,7,1,2026-05-11T04:22:18.676547+05:30
Hospet,Karnataka,15.2689,76.3909,26.0,59,0.0,952.9,9.2,31.7,67,28.6,21.4,11.1,233.0,65.0,5.3,4,5,7,1,2026-05-11T04:22:18.676554+05:30
Tirupur,Tamil Nadu,11.1085,77.3411,24.1,92,0.0,972.3,9.25,29.5,69,40.0,37.5,34.3,385.0,41.0,12.2,3,5,7,1,2026-05-11T04:22:18.676560+05:30
Alappuzha,Kerala,9.4981,76.3388,25.6,98,0.0,1005.9,8.9,32.4,57,17.4,16.8,14.3,220.0,58.0,5.2,7,5,4,1,2026-05-11T04:22:18.676567+05:30
Munnar,Kerala,10.0889,77.0595,15.1,89,0.0,852.4,9.45,22.0,41,13.0,12.1,8.5,183.0,40.0,1.6,3,10,7,0,2026-05-11T04:22:18.676574+05:30
Silchar,Assam,24.8333,92.7789,23.1,95,0.0,1006.1,8.6,22.7,150,56.8,48.8,10.4,616.0,74.0,7.0,3,5,4,1,2026-05-11T04:22:18.676580+05:30
Dibrugarh,Assam,27.4728,94.912,21.5,98,0.4,998.2,5.85,24.1,76,24.6,21.0,12.3,301.0,53.0,1.3,6,5,3,1,2026-05-11T04:22:18.676587+05:30
