city,state,latitude,longitude,temp,humidity,rain,pressure,uv_index,wind_gusts,aqi,pm10,pm2_5,mosquito_risk,arthritis_risk,migraine_risk,frizz_risk,updated_at
Delhi,Delhi,28.6139,77.209,37.3,22,0.0,982.7,7.3,20.5,320,68.0,19.0,0,5,10,0,2026-04-16T13:22:21.506408+05:30
Mumbai,Maharashtra,19.076,72.8777,28.7,73,0.0,1007.6,8.0,19.4,81,60.5,34.2,7,5,4,1,2026-04-16T13:22:21.506451+05:30
Bangalore,Karnataka,12.9716,77.5946,35.1,28,0.0,912.0,9.6,33.8,79,28.8,23.3,0,5,10,0,2026-04-16T13:22:21.506466+05:30
Hyderabad,Telangana,17.385,78.4867,39.3,24,0.0,952.1,9.25,34.6,89,30.6,24.7,0,5,10,0,2026-04-16T13:22:21.506477+05:30
Chennai,Tamil Nadu,13.0827,80.2707,36.2,53,0.0,1006.0,9.3,34.2,34,11.6,8.7,0,5,7,1,2026-04-16T13:22:21.506486+05:30
Kolkata,West Bengal,22.5726,88.3639,34.1,59,0.0,1004.4,8.85,33.5,85,35.0,25.7,0,5,4,1,2026-04-16T13:22:21.506495+05:30
Pune,Maharashtra,18.5204,73.8567,40.0,10,0.0,948.0,8.6,42.1,63,16.5,9.6,0,5,10,0,2026-04-16T13:22:21.506507+05:30
Ahmedabad,Gujarat,23.0225,72.5714,38.0,31,0.0,1000.7,8.15,15.8,83,72.2,24.6,0,5,7,1,2026-04-16T13:22:21.506515+05:30
Jaipur,Rajasthan,26.9124,75.7873,39.5,12,0.0,959.7,7.95,26.6,132,205.8,25.6,0,5,10,0,2026-04-16T13:22:21.506523+05:30
Lucknow,Uttar Pradesh,26.8467,80.9462,38.3,16,0.0,992.5,7.8,23.8,102,204.0,31.9,0,5,10,0,2026-04-16T13:22:21.506531+05:30
Kanpur,Uttar Pradesh,26.4499,80.3319,37.9,19,0.0,991.0,7.85,21.6,139,352.0,42.1,0,5,10,0,2026-04-16T13:22:21.506539+05:30
Chandigarh,Chandigarh,30.7333,76.7794,36.4,23,0.0,968.9,7.2,23.0,48,18.6,7.4,0,5,10,0,2026-04-16T13:22:21.506546+05:30
Srinagar,Jammu and Kashmir,34.0837,74.7973,19.9,48,0.0,843.8,7.95,28.4,67,19.6,9.5,0,5,7,0,2026-04-16T13:22:21.506553+05:30
Jammu,Jammu and Kashmir,32.7266,74.857,35.2,32,0.0,972.5,7.4,31.3,59,12.4,5.5,0,5,10,0,2026-04-16T13:22:21.506560+05:30
Amritsar,Punjab,31.634,74.8723,36.7,26,0.0,980.0,7.9,42.8,71,21.7,7.6,0,5,10,0,2026-04-16T13:22:21.506567+05:30
Ludhiana,Punjab,30.901,75.8573,37.0,19,0.0,978.2,7.4,24.1,76,19.5,9.0,0,5,10,0,2026-04-16T13:22:21.506574+05:30
Jalandhar,Punjab,31.326,75.5762,36.9,21,0.0,979.4,7.0,24.5,65,20.2,7.0,0,5,10,0,2026-04-16T13:22:21.506583+05:30
Dehradun,Uttarakhand,30.6284,78.0322,24.6,38,0.0,833.5,7.35,31.3,51,4.4,2.7,0,5,7,0,2026-04-16T13:22:21.506590+05:30
Shimla,Himachal Pradesh,31.1048,77.1734,23.4,28,0.0,789.4,7.5,42.1,59,4.5,2.4,0,5,7,0,2026-04-16T13:22:21.506597+05:30
Manali,Himachal Pradesh,32.2396,77.1887,23.4,34,0.0,823.9,9.05,36.0,94,11.1,7.1,0,5,7,0,2026-04-16T13:22:21.506605+05:30
Gurgaon,Haryana,28.4595,77.0266,37.7,23,0.0,981.2,7.45,19.4,663,237.0,40.0,0,5,10,0,2026-04-16T13:22:21.506612+05:30
Noida,Uttar Pradesh,28.5355,77.391,37.6,23,0.0,984.2,7.35,22.3,663,237.0,40.0,0,5,10,0,2026-04-16T13:22:21.506619+05:30
Ghaziabad,Uttar Pradesh,28.6692,77.4538,37.1,25,0.0,982.5,7.35,20.9,155,39.0,12.7,0,5,10,0,2026-04-16T13:22:21.506627+05:30
Faridabad,Haryana,28.4089,77.3178,38.3,21,0.0,983.3,7.4,23.8,663,237.0,40.0,0,5,10,0,2026-04-16T13:22:21.506633+05:30
Meerut,Uttar Pradesh,28.9845,77.7064,37.6,21,0.0,981.2,7.25,26.6,155,39.0,12.7,0,5,10,0,2026-04-16T13:22:21.506639+05:30
Agra,Uttar Pradesh,27.1767,78.0081,39.2,18,0.0,987.1,7.7,21.6,456,489.9,56.6,0,5,10,0,2026-04-16T13:22:21.506648+05:30
Varanasi,Uttar Pradesh,25.3176,82.9739,40.1,16,0.0,995.9,8.45,22.0,92,135.5,27.2,0,5,10,0,2026-04-16T13:22:21.506657+05:30
Prayagraj,Uttar Pradesh,25.4358,81.8463,39.7,15,0.0,994.6,8.3,28.1,80,163.0,26.1,0,5,10,0,2026-04-16T13:22:21.506664+05:30
Gorakhpur,Uttar Pradesh,26.7606,83.3732,36.9,37,0.0,996.3,8.25,31.3,113,90.1,53.1,0,5,10,1,2026-04-16T13:22:21.506670+05:30
Bareilly,Uttar Pradesh,28.367,79.4304,37.6,20,0.0,986.3,7.6,24.1,74,15.5,10.2,0,5,10,0,2026-04-16T13:22:21.506677+05:30
Aligarh,Uttar Pradesh,27.8974,78.088,40.0,15,0.0,984.7,7.5,29.2,308,79.2,17.1,0,5,10,0,2026-04-16T13:22:21.506684+05:30
Moradabad,Uttar Pradesh,28.8386,78.7733,37.3,21,0.0,983.2,7.45,26.3,86,23.1,15.7,0,5,10,0,2026-04-16T13:22:21.506691+05:30
Saharanpur,Uttar Pradesh,29.9637,77.546,36.0,23,0.0,975.5,7.05,25.6,72,26.1,9.0,0,5,10,0,2026-04-16T13:22:21.506697+05:30
Jhansi,Uttar Pradesh,25.4484,78.5685,41.7,12,0.0,976.8,8.2,36.4,79,217.5,29.9,0,5,10,0,2026-04-16T13:22:24.770369+05:30
Surat,Gujarat,21.1702,72.8311,30.5,64,0.0,1006.4,7.8,28.1,93,50.6,34.2,3,5,4,1,2026-04-16T13:22:24.770401+05:30
Vadodara,Gujarat,22.3072,73.1812,37.8,39,0.0,1002.9,8.0,23.0,81,70.5,28.1,0,5,7,1,2026-04-16T13:22:24.770412+05:30
Rajkot,Gujarat,22.3039,70.8022,35.5,36,0.0,993.5,7.8,30.2,62,79.4,23.8,0,5,10,1,2026-04-16T13:22:24.770420+05:30
Thane,Maharashtra,19.2183,72.9781,33.2,48,0.0,1007.1,8.0,30.6,81,60.5,34.2,0,5,4,1,2026-04-16T13:22:24.770427+05:30
Nagpur,Maharashtra,21.1458,79.0882,40.2,22,0.0,971.0,8.85,24.8,57,41.3,22.9,0,5,10,0,2026-04-16T13:22:24.770434+05:30
Nashik,Maharashtra,19.9975,73.7898,36.4,19,0.0,945.7,8.3,31.3,57,15.4,9.2,0,5,10,0,2026-04-16T13:22:24.770442+05:30
Aurangabad,Maharashtra,19.8762,75.3433,39.4,13,0.0,943.8,8.95,27.0,44,24.9,8.9,0,5,10,0,2026-04-16T13:22:24.770449+05:30
Solapur,Maharashtra,17.6599,75.9064,40.4,11,0.0,956.5,9.05,23.0,68,29.6,15.5,0,5,10,0,2026-04-16T13:22:24.770456+05:30
Kolhapur,Maharashtra,16.705,74.2433,35.6,34,0.0,948.0,9.0,41.4,73,29.3,16.1,0,5,10,1,2026-04-16T13:22:24.770464+05:30
Goa,Goa,15.2993,74.124,32.2,58,0.0,997.4,9.0,27.7,76,42.7,20.1,0,5,7,1,2026-04-16T13:22:24.770471+05:30
Jodhpur,Rajasthan,26.2389,73.0243,39.4,23,0.0,981.7,7.6,28.8,68,91.0,19.6,0,5,10,0,2026-04-16T13:22:24.770478+05:30
Udaipur,Rajasthan,24.5854,73.7125,37.8,20,0.0,946.4,8.65,29.9,70,78.5,17.7,0,5,10,0,2026-04-16T13:22:24.770486+05:30
Kota,Rajasthan,25.2138,75.8648,40.9,18,0.0,977.4,8.2,16.9,73,155.1,30.7,0,5,10,0,2026-04-16T13:22:24.770493+05:30
Bikaner,Rajasthan,28.0229,73.3119,40.9,12,0.0,980.2,7.6,22.3,54,50.6,12.7,0,5,10,0,2026-04-16T13:22:24.770500+05:30
Ajmer,Rajasthan,26.4499,74.6399,39.2,15,0.0,954.4,8.15,23.8,62,87.3,17.4,0,5,10,0,2026-04-16T13:22:24.770507+05:30
Gwalior,Madhya Pradesh,26.2183,78.1828,40.5,14,0.0,982.8,7.95,30.6,134,322.2,37.8,0,5,10,0,2026-04-16T13:22:24.770514+05:30
Indore,Madhya Pradesh,22.7196,75.8577,37.6,25,0.0,947.7,8.55,26.6,69,61.9,22.2,0,5,10,0,2026-04-16T13:22:24.770521+05:30
Bhopal,Madhya Pradesh,23.2599,77.4126,39.8,19,0.0,952.6,8.55,20.9,65,44.8,14.8,0,5,10,0,2026-04-16T13:22:24.770528+05:30
Jabalpur,Madhya Pradesh,23.1815,79.9864,39.0,21,0.0,960.3,8.7,22.0,48,38.1,15.7,0,5,10,0,2026-04-16T13:22:24.770535+05:30
Ujjain,Madhya Pradesh,23.1765,75.7885,37.9,27,0.0,953.2,8.5,25.9,73,62.2,23.1,0,5,10,0,2026-04-16T13:22:24.770543+05:30
Visakhapatnam,Andhra Pradesh,17.6868,83.2185,34.0,54,0.0,1002.5,9.15,44.6,50,15.7,11.7,0,5,4,1,2026-04-16T13:22:24.770550+05:30
Vijayawada,Andhra Pradesh,16.5062,80.648,36.2,52,0.0,1001.1,9.2,30.2,44,16.4,12.0,0,5,7,1,2026-04-16T13:22:24.770557+05:30
Guntur,Andhra Pradesh,16.3067,80.4365,36.2,53,0.0,1002.3,9.2,33.1,50,18.0,14.7,0,5,7,1,2026-04-16T13:22:24.770564+05:30
Nellore,Andhra Pradesh,14.4426,79.9865,38.4,42,0.0,1003.8,9.3,35.6,47,21.7,19.7,0,5,7,1,2026-04-16T13:22:24.770572+05:30
Kurnool,Andhra Pradesh,15.8281,78.0373,40.8,23,0.0,974.8,9.2,29.9,86,31.7,24.6,0,5,10,0,2026-04-16T13:22:24.770580+05:30
Kakinada,Andhra Pradesh,16.9891,82.2475,37.2,46,0.0,1005.8,9.2,35.6,31,10.8,6.9,0,5,7,1,2026-04-16T13:22:24.770587+05:30
Tirupati,Andhra Pradesh,13.6288,79.4192,37.2,41,0.0,990.4,9.4,33.8,64,27.2,25.3,0,5,10,1,2026-04-16T13:22:24.770594+05:30
Warangal,Telangana,17.9689,79.5941,39.2,38,0.0,976.9,9.1,28.4,73,24.5,21.1,0,5,10,1,2026-04-16T13:22:24.770601+05:30
Nizamabad,Telangana,18.6725,78.0941,40.3,20,0.0,963.7,9.05,25.9,81,36.4,16.4,0,5,10,0,2026-04-16T13:22:24.770608+05:30
Mysore,Karnataka,12.2958,76.6396,37.0,24,0.0,928.5,9.5,39.6,85,31.5,24.2,0,5,10,0,2026-04-16T13:22:24.770615+05:30
Mangalore,Karnataka,12.9141,74.856,29.2,85,0.0,1005.7,8.4,22.0,85,52.6,32.2,7,5,4,1,2026-04-16T13:22:24.770622+05:30
Hubli-Dharwad,Karnataka,15.3647,75.124,33.3,44,0.0,940.8,9.2,31.7,68,23.3,13.4,0,5,7,1,2026-04-16T13:22:24.770630+05:30
Belgaum,Karnataka,15.8497,74.4977,34.3,32,0.0,926.2,9.25,33.8,64,27.0,13.1,0,5,7,0,2026-04-16T13:22:28.036346+05:30
Coimbatore,Tamil Nadu,11.0168,76.9558,37.3,34,0.0,961.1,9.45,37.1,100,32.4,25.0,0,5,10,1,2026-04-16T13:22:28.036379+05:30
Madurai,Tamil Nadu,9.9252,78.1198,38.3,33,0.0,991.5,9.3,42.1,55,14.2,11.8,0,5,10,1,2026-04-16T13:22:28.036389+05:30
Trichy,Tamil Nadu,10.7905,78.7047,37.9,36,0.0,998.1,9.35,28.8,47,12.8,10.8,0,5,10,1,2026-04-16T13:22:28.036398+05:30
Salem,Tamil Nadu,11.6643,78.146,37.1,41,0.0,976.3,9.45,27.7,60,18.4,14.8,0,5,10,1,2026-04-16T13:22:28.036407+05:30
Tirunelveli,Tamil Nadu,8.7139,77.7567,39.9,27,0.0,1000.8,8.75,50.8,70,16.9,13.1,0,5,7,1,2026-04-16T13:22:28.036415+05:30
Vellore,Tamil Nadu,12.9165,79.1325,36.9,41,0.0,983.3,9.4,33.5,77,23.5,21.4,0,5,10,1,2026-04-16T13:22:28.036423+05:30
Erode,Tamil Nadu,11.341,77.7172,39.2,35,0.0,987.2,9.4,30.2,62,28.8,22.2,0,5,10,1,2026-04-16T13:22:28.036431+05:30
Kochi,Kerala,9.9312,76.2673,29.7,81,0.0,1007.3,9.2,29.9,99,40.9,29.9,7,5,4,1,2026-04-16T13:22:28.036439+05:30
Thiruvananthapuram,Kerala,8.5241,76.9366,29.5,82,0.0,1006.5,9.15,33.8,77,37.4,26.7,7,5,4,1,2026-04-16T13:22:28.036447+05:30
Kozhikode,Kerala,11.2588,75.7804,31.5,71,0.0,1006.5,9.15,32.0,85,48.1,30.5,3,5,4,1,2026-04-16T13:22:28.036455+05:30
Thrissur,Kerala,10.5276,76.2144,34.3,60,0.0,1005.7,9.1,35.6,102,43.3,31.2,0,5,4,1,2026-04-16T13:22:28.036462+05:30
Kannur,Kerala,11.8745,75.3704,32.6,67,0.0,1005.9,9.15,31.7,86,49.1,31.0,3,5,4,1,2026-04-16T13:22:28.036470+05:30
Patna,Bihar,25.5941,85.1376,33.8,57,0.0,999.4,8.55,34.2,134,78.7,59.3,0,5,7,1,2026-04-16T13:22:28.036477+05:30
Gaya,Bihar,24.7914,85.0002,34.9,53,0.0,992.4,8.65,23.0,87,80.8,30.6,0,5,7,1,2026-04-16T13:22:28.036485+05:30
Muzaffarpur,Bihar,26.1209,85.3647,33.0,57,0.0,999.8,8.55,35.3,148,77.1,57.9,0,5,7,1,2026-04-16T13:22:28.036493+05:30
Bhagalpur,Bihar,25.2425,87.0117,31.6,66,0.0,1000.7,8.55,30.6,140,79.9,65.9,3,5,4,1,2026-04-16T13:22:28.036500+05:30
Ranchi,Jharkhand,23.3441,85.3096,35.1,40,0.0,937.2,9.15,38.9,112,54.9,41.1,0,5,10,1,2026-04-16T13:22:28.036507+05:30
Jamshedpur,Jharkhand,22.8046,86.2029,37.4,48,0.0,988.1,9.0,30.2,130,64.0,54.7,0,5,10,1,2026-04-16T13:22:28.036515+05:30
Dhanbad,Jharkhand,23.7957,86.4304,37.3,40,0.0,978.0,8.95,29.9,152,94.1,82.2,0,5,10,1,2026-04-16T13:22:28.036522+05:30
Bokaro,Jharkhand,23.6693,86.1511,36.0,49,0.0,982.1,8.95,34.6,151,106.2,90.6,0,5,10,1,2026-04-16T13:22:28.036530+05:30
Bhubaneswar,Odisha,20.2961,85.8245,33.2,65,0.0,1001.1,9.1,41.4,59,17.6,13.4,3,5,4,1,2026-04-16T13:22:28.036537+05:30
Cuttack,Odisha,20.4625,85.8828,36.2,55,0.0,1002.3,9.15,37.8,59,17.6,13.4,0,5,7,1,2026-04-16T13:22:28.036545+05:30
Rourkela,Odisha,22.2604,84.8536,40.7,32,0.0,981.9,8.9,32.4,139,44.7,40.4,0,5,10,1,2026-04-16T13:22:28.036552+05:30
Raipur,Chhattisgarh,21.2514,81.6296,42.0,19,0.0,972.1,8.95,32.0,91,28.6,20.1,0,5,10,0,2026-04-16T13:22:28.036559+05:30
Bhilai,Chhattisgarh,21.1938,81.3509,41.6,21,0.0,972.4,8.95,30.2,72,27.3,17.8,0,5,10,0,2026-04-16T13:22:28.036566+05:30
Guwahati,Assam,26.1158,91.7086,30.5,59,0.0,1001.9,8.45,24.5,133,67.8,43.5,0,5,4,1,2026-04-16T13:22:28.036573+05:30
Agartala,Tripura,23.8315,91.2868,30.7,69,0.0,1006.5,8.7,27.4,114,60.8,42.7,3,5,4,1,2026-04-16T13:22:28.036580+05:30
Shillong,Meghalaya,25.5788,91.8933,21.6,52,0.0,858.7,7.75,54.0,110,64.5,37.3,0,5,7,0,2026-04-16T13:22:28.036588+05:30
Imphal,Manipur,24.817,93.9368,24.1,68,0.0,924.3,9.05,65.2,118,78.5,41.0,3,5,7,1,2026-04-16T13:22:28.036595+05:30
Aizawl,Mizoram,23.7271,92.7176,27.7,54,0.0,894.9,8.95,36.7,127,81.0,42.1,4,5,7,1,2026-04-16T13:22:28.036603+05:30
Kohima,Nagaland,25.6701,94.1077,19.5,80,0.0,856.7,8.5,67.3,93,67.5,37.0,3,5,7,0,2026-04-16T13:22:28.036610+05:30
Gangtok,Sikkim,27.3314,88.6138,20.5,67,0.0,840.1,8.8,20.2,130,73.6,45.8,3,5,7,0,2026-04-16T13:22:28.036617+05:30
Siliguri,West Bengal,26.7271,88.3953,27.1,57,0.0,995.0,8.45,25.9,166,104.8,60.3,4,5,7,1,2026-04-16T13:22:31.303775+05:30
Durgapur,West Bengal,23.5204,87.3119,35.4,54,0.0,993.1,8.85,29.2,124,73.8,62.6,0,5,10,1,2026-04-16T13:22:31.303807+05:30
Asansol,West Bengal,23.6739,86.9524,36.0,52,0.0,991.9,8.9,30.6,125,79.2,68.2,0,5,10,1,2026-04-16T13:22:31.303817+05:30
Pondicherry,Puducherry,11.9139,79.8145,36.8,50,0.0,1006.7,9.25,28.1,39,10.4,7.3,0,5,7,1,2026-04-16T13:22:31.303825+05:30
Port Blair,Andaman and Nicobar Islands,11.6234,92.7265,29.2,73,0.0,1005.9,9.2,13.0,62,22.5,16.6,7,5,4,1,2026-04-16T13:22:31.303834+05:30
Haridwar,Uttarakhand,29.9457,78.1642,36.0,25,0.0,974.0,7.1,29.9,54,20.6,6.4,0,5,10,0,2026-04-16T13:22:31.303842+05:30
Rishikesh,Uttarakhand,30.0869,78.2676,35.2,26,0.0,967.0,7.1,32.8,49,10.0,3.7,0,5,10,0,2026-04-16T13:22:31.303850+05:30
Nainital,Uttarakhand,29.3919,79.4542,28.0,27,0.0,810.8,8.1,38.2,88,11.4,6.7,4,5,7,0,2026-04-16T13:22:31.303881+05:30
Mussoorie,Uttarakhand,30.4599,78.0664,25.6,35,0.0,807.0,6.9,35.6,52,10.0,3.8,4,5,7,0,2026-04-16T13:22:31.303891+05:30
Dharamshala,Himachal Pradesh,32.219,76.3234,28.3,40,0.0,871.9,7.75,25.6,94,7.0,2.9,4,5,7,0,2026-04-16T13:22:31.303898+05:30
Dalhousie,Himachal Pradesh,32.5387,75.971,27.2,31,0.0,808.1,7.9,27.0,49,7.1,3.2,4,5,7,0,2026-04-16T13:22:31.303908+05:30
Patiala,Punjab,30.3398,76.3869,37.8,19,0.0,977.9,7.2,22.0,126,232.4,28.1,0,5,10,0,2026-04-16T13:22:31.303916+05:30
Bhatinda,Punjab,30.211,74.9455,39.7,17,0.0,982.6,7.35,27.7,63,49.1,15.0,0,5,10,0,2026-04-16T13:22:31.303923+05:30
Rohtak,Haryana,28.8955,76.6066,38.9,19,0.0,981.3,7.35,24.5,494,121.1,25.8,0,5,10,0,2026-04-16T13:22:31.303931+05:30
Panipat,Haryana,29.3909,76.9635,37.7,22,0.0,980.2,7.15,22.0,608,158.8,29.5,0,5,10,0,2026-04-16T13:22:31.303939+05:30
Mathura,Uttar Pradesh,27.4924,77.6737,40.2,16,0.0,985.9,7.65,22.7,459,422.8,53.3,0,5,10,0,2026-04-16T13:22:31.303946+05:30
Vrindavan,Uttar Pradesh,27.5823,77.7027,39.9,16,0.0,986.3,7.6,23.0,459,422.8,53.3,0,5,10,0,2026-04-16T13:22:31.303954+05:30
Ayodhya,Uttar Pradesh,26.7922,82.1998,39.4,20,0.0,993.9,8.0,24.1,85,89.4,28.4,0,5,10,0,2026-04-16T13:22:31.303962+05:30
Ratlam,Madhya Pradesh,23.3315,75.0367,34.8,40,0.0,954.3,8.4,29.9,66,67.8,22.7,0,5,7,1,2026-04-16T13:22:31.303969+05:30
Sagar,Madhya Pradesh,23.8388,78.7378,39.4,17,0.0,949.8,8.55,19.1,86,75.4,19.2,0,5,10,0,2026-04-16T13:22:31.303976+05:30
Satna,Madhya Pradesh,24.6005,80.8322,40.6,12,0.0,970.5,8.6,27.0,81,149.0,23.7,0,5,10,0,2026-04-16T13:22:31.303983+05:30
Akola,Maharashtra,20.7002,77.0082,40.1,24,0.0,973.6,8.8,25.6,56,45.6,19.1,0,5,10,0,2026-04-16T13:22:31.303991+05:30
Amravati,Maharashtra,20.9374,77.7796,40.0,18,0.0,965.9,8.8,19.4,56,41.8,16.5,0,5,10,0,2026-04-16T13:22:31.303999+05:30
Latur,Maharashtra,18.4088,76.5604,38.0,14,0.0,939.8,9.05,23.0,60,32.9,15.0,0,5,10,0,2026-04-16T13:22:31.304006+05:30
Nanded,Maharashtra,19.1383,77.3091,39.4,19,0.0,967.6,8.95,17.3,63,31.2,11.5,0,5,10,0,2026-04-16T13:22:31.304013+05:30
Gulbarga,Karnataka,17.3297,76.8343,41.1,18,0.0,957.3,9.1,22.3,85,33.2,26.8,0,5,10,0,2026-04-16T13:22:31.304020+05:30
Bidar,Karnataka,17.9104,77.5199,39.5,18,0.0,935.0,9.1,34.2,102,39.5,30.4,0,5,10,0,2026-04-16T13:22:31.304027+05:30
Hospet,Karnataka,15.2689,76.3909,36.3,36,0.0,955.2,9.25,23.8,79,26.5,18.7,0,5,10,1,2026-04-16T13:22:31.304033+05:30
Tirupur,Tamil Nadu,11.1085,77.3411,38.8,31,0.0,973.9,9.45,34.6,77,31.3,23.6,0,5,10,1,2026-04-16T13:22:31.304040+05:30
Alappuzha,Kerala,9.4981,76.3388,29.6,81,0.0,1007.4,8.55,26.6,94,41.7,30.5,7,5,4,1,2026-04-16T13:22:31.304047+05:30
Munnar,Kerala,10.0889,77.0595,32.8,34,0.0,859.5,8.95,32.4,74,18.5,13.4,0,5,7,0,2026-04-16T13:22:31.304055+05:30
Silchar,Assam,24.8333,92.7789,30.9,61,0.0,1005.5,8.7,24.1,115,85.7,46.7,3,5,4,1,2026-04-16T13:22:31.304063+05:30
Dibrugarh,Assam,27.4728,94.912,28.0,59,0.0,996.2,8.55,10.8,148,92.7,45.4,4,5,7,1,2026-04-16T13:22:31.304070+05:30
