city,state,latitude,longitude,temp,humidity,rain,pressure,uv_index,wind_gusts,aqi,pm10,pm2_5,mosquito_risk,arthritis_risk,migraine_risk,frizz_risk,updated_at
Delhi,Delhi,28.6139,77.209,23.2,55,0.0,984.5,6.85,40.7,153,280.3,61.5,0,5,7,0,2026-04-05T22:10:17.461132+05:30
Mumbai,Maharashtra,19.076,72.8777,27.9,66,0.0,1010.3,7.9,22.7,68,28.8,15.2,7,0,4,1,2026-04-05T22:10:17.461172+05:30
Bangalore,Karnataka,12.9716,77.5946,26.6,54,0.0,912.4,9.65,28.8,106,68.7,64.7,4,5,7,1,2026-04-05T22:10:17.461188+05:30
Hyderabad,Telangana,17.385,78.4867,29.3,60,0.0,953.6,9.15,26.3,128,72.2,62.6,4,5,7,1,2026-04-05T22:10:17.461198+05:30
Chennai,Tamil Nadu,13.0827,80.2707,29.3,87,0.0,1006.8,9.3,37.8,85,21.3,16.4,7,5,4,1,2026-04-05T22:10:17.461207+05:30
Kolkata,West Bengal,22.5726,88.3639,25.4,85,0.0,1006.4,8.7,29.2,130,106.2,100.6,7,5,4,1,2026-04-05T22:10:17.461217+05:30
Pune,Maharashtra,18.5204,73.8567,23.6,78,0.0,949.9,8.5,39.6,70,33.5,21.5,3,5,7,1,2026-04-05T22:10:17.461228+05:30
Ahmedabad,Gujarat,23.0225,72.5714,28.2,29,0.0,1002.9,7.9,24.5,73,41.0,26.9,4,5,4,0,2026-04-05T22:10:17.461237+05:30
Jaipur,Rajasthan,26.9124,75.7873,26.0,31,0.0,960.4,7.55,34.6,97,130.4,27.9,4,5,7,0,2026-04-05T22:10:17.461246+05:30
Lucknow,Uttar Pradesh,26.8467,80.9462,24.3,60,0.0,995.0,7.45,37.4,96,108.0,38.5,0,5,7,0,2026-04-05T22:10:17.461254+05:30
Kanpur,Uttar Pradesh,26.4499,80.3319,23.5,67,0.0,992.7,7.45,40.7,120,194.2,44.7,3,5,7,1,2026-04-05T22:10:17.461261+05:30
Chandigarh,Chandigarh,30.7333,76.7794,21.3,64,0.0,969.5,6.85,34.6,99,48.0,34.6,3,5,7,0,2026-04-05T22:10:17.461269+05:30
Srinagar,Jammu and Kashmir,34.0837,74.7973,9.4,81,0.0,838.4,7.45,18.4,62,60.5,49.9,3,10,7,0,2026-04-05T22:10:17.461276+05:30
Jammu,Jammu and Kashmir,32.7266,74.857,19.3,68,0.0,973.0,7.5,24.5,64,72.2,44.9,3,5,7,0,2026-04-05T22:10:17.461283+05:30
Amritsar,Punjab,31.634,74.8723,21.3,60,0.0,981.7,7.45,29.5,97,81.0,59.1,0,5,7,0,2026-04-05T22:10:17.461289+05:30
Ludhiana,Punjab,30.901,75.8573,22.4,54,0.0,979.7,7.05,29.5,98,88.5,59.0,0,5,7,0,2026-04-05T22:10:17.461296+05:30
Jalandhar,Punjab,31.326,75.5762,21.4,62,0.0,980.8,7.25,25.6,86,65.0,40.4,3,5,7,0,2026-04-05T22:10:17.461304+05:30
Dehradun,Uttarakhand,30.6284,78.0322,11.0,83,0.0,828.1,6.65,39.2,75,22.9,13.1,3,10,7,0,2026-04-05T22:10:17.461312+05:30
Shimla,Himachal Pradesh,31.1048,77.1734,9.4,78,0.0,781.4,5.35,29.5,68,21.3,15.4,3,5,3,0,2026-04-05T22:10:17.461319+05:30
Manali,Himachal Pradesh,32.2396,77.1887,11.8,75,0.0,816.1,9.45,29.2,95,19.8,11.6,3,5,7,0,2026-04-05T22:10:17.461325+05:30
Gurgaon,Haryana,28.4595,77.0266,22.1,58,0.0,982.6,6.5,35.6,318,504.8,89.2,0,5,7,0,2026-04-05T22:10:17.461332+05:30
Noida,Uttar Pradesh,28.5355,77.391,23.2,54,0.0,986.0,6.95,39.2,318,504.8,89.2,0,5,7,0,2026-04-05T22:10:17.461338+05:30
Ghaziabad,Uttar Pradesh,28.6692,77.4538,22.6,57,0.0,984.4,6.85,42.1,150,122.9,40.5,0,5,7,0,2026-04-05T22:10:17.461347+05:30
Faridabad,Haryana,28.4089,77.3178,22.8,53,0.0,985.1,6.1,36.4,318,504.8,89.2,0,5,7,0,2026-04-05T22:10:17.461353+05:30
Meerut,Uttar Pradesh,28.9845,77.7064,20.9,66,0.0,983.1,6.2,34.6,150,122.9,40.5,3,5,7,0,2026-04-05T22:10:17.461359+05:30
Agra,Uttar Pradesh,27.1767,78.0081,21.5,78,0.0,989.0,7.3,34.2,332,367.9,74.5,3,5,7,1,2026-04-05T22:10:17.461366+05:30
Varanasi,Uttar Pradesh,25.3176,82.9739,25.6,61,0.0,997.8,8.1,32.4,92,54.9,39.0,7,5,7,1,2026-04-05T22:10:17.461375+05:30
Prayagraj,Uttar Pradesh,25.4358,81.8463,25.8,67,0.0,996.5,7.95,30.2,91,39.6,23.7,7,5,7,1,2026-04-05T22:10:17.461382+05:30
Gorakhpur,Uttar Pradesh,26.7606,83.3732,25.7,50,0.0,997.1,7.85,45.4,84,34.9,23.3,4,5,7,0,2026-04-05T22:10:17.461389+05:30
Bareilly,Uttar Pradesh,28.367,79.4304,21.9,73,0.0,988.3,7.2,41.0,89,57.0,38.3,3,5,7,1,2026-04-05T22:10:17.461395+05:30
Aligarh,Uttar Pradesh,27.8974,78.088,20.6,74,0.0,986.7,7.1,31.0,152,277.5,84.3,3,5,7,0,2026-04-05T22:10:17.461404+05:30
Moradabad,Uttar Pradesh,28.8386,78.7733,20.7,76,0.0,985.4,7.0,29.2,97,47.8,28.3,3,5,7,1,2026-04-05T22:10:17.461410+05:30
Saharanpur,Uttar Pradesh,29.9637,77.546,21.9,56,0.0,976.8,6.6,33.8,87,148.5,53.8,0,5,7,0,2026-04-05T22:10:17.461416+05:30
Jhansi,Uttar Pradesh,25.4484,78.5685,25.1,56,0.0,979.0,7.85,31.0,79,21.3,12.6,4,5,7,0,2026-04-05T22:10:20.695564+05:30
Surat,Gujarat,21.1702,72.8311,27.2,68,0.0,1007.8,7.7,27.7,81,32.4,23.6,7,5,4,1,2026-04-05T22:10:20.695595+05:30
Vadodara,Gujarat,22.3072,73.1812,27.3,55,0.0,1005.0,7.9,19.8,124,55.3,43.1,4,5,4,1,2026-04-05T22:10:20.695604+05:30
Rajkot,Gujarat,22.3039,70.8022,25.4,64,0.0,995.8,7.65,32.4,103,29.6,12.8,7,5,7,1,2026-04-05T22:10:20.695611+05:30
Thane,Maharashtra,19.2183,72.9781,26.6,66,0.0,1009.8,7.9,34.9,68,28.8,15.2,7,0,4,1,2026-04-05T22:10:20.695617+05:30
Nagpur,Maharashtra,21.1458,79.0882,28.2,53,0.0,972.4,8.7,29.5,84,30.3,22.0,4,5,7,1,2026-04-05T22:10:20.695623+05:30
Nashik,Maharashtra,19.9975,73.7898,22.1,71,0.0,946.6,8.05,36.0,57,19.2,11.6,3,5,7,1,2026-04-05T22:10:20.695629+05:30
Aurangabad,Maharashtra,19.8762,75.3433,27.1,45,0.0,944.8,8.85,37.1,59,19.8,12.5,4,5,7,0,2026-04-05T22:10:20.695635+05:30
Solapur,Maharashtra,17.6599,75.9064,30.3,31,0.0,957.5,8.6,29.9,69,19.8,15.0,0,5,7,0,2026-04-05T22:10:20.695642+05:30
Kolhapur,Maharashtra,16.705,74.2433,21.1,74,0.0,949.4,9.05,45.0,67,37.4,25.6,3,5,7,1,2026-04-05T22:10:20.695647+05:30
Goa,Goa,15.2993,74.124,28.0,72,0.0,1000.0,9.05,38.5,66,56.3,23.5,7,5,4,1,2026-04-05T22:10:20.695653+05:30
Jodhpur,Rajasthan,26.2389,73.0243,26.7,33,0.0,983.9,7.65,26.3,80,48.3,12.6,4,5,7,0,2026-04-05T22:10:20.695659+05:30
Udaipur,Rajasthan,24.5854,73.7125,22.5,41,0.0,947.3,8.3,34.2,95,20.0,8.9,0,5,7,0,2026-04-05T22:10:20.695665+05:30
Kota,Rajasthan,25.2138,75.8648,26.2,31,0.0,979.3,7.85,31.7,82,95.2,27.7,4,5,7,0,2026-04-05T22:10:20.695671+05:30
Bikaner,Rajasthan,28.0229,73.3119,25.8,37,0.0,982.9,7.6,26.6,76,16.4,11.4,4,5,7,0,2026-04-05T22:10:20.695676+05:30
Ajmer,Rajasthan,26.4499,74.6399,23.2,42,0.0,955.0,7.75,31.0,84,25.3,11.1,0,5,7,0,2026-04-05T22:10:20.695682+05:30
Gwalior,Madhya Pradesh,26.2183,78.1828,23.8,70,0.0,984.4,7.6,50.8,74,111.8,34.1,3,5,7,1,2026-04-05T22:10:20.695688+05:30
Indore,Madhya Pradesh,22.7196,75.8577,24.0,44,0.0,948.5,8.35,31.0,90,27.2,22.8,0,5,7,0,2026-04-05T22:10:20.695693+05:30
Bhopal,Madhya Pradesh,23.2599,77.4126,25.7,38,0.0,954.0,8.3,33.8,88,12.2,9.5,4,5,7,0,2026-04-05T22:10:20.695699+05:30
Jabalpur,Madhya Pradesh,23.1815,79.9864,28.9,37,0.0,961.4,8.45,31.0,73,27.5,19.4,4,5,7,0,2026-04-05T22:10:20.695704+05:30
Ujjain,Madhya Pradesh,23.1765,75.7885,24.3,45,0.0,954.4,8.25,32.8,80,24.4,17.5,0,5,7,0,2026-04-05T22:10:20.695710+05:30
Visakhapatnam,Andhra Pradesh,17.6868,83.2185,28.0,89,0.0,1003.7,9.1,36.0,81,41.8,36.0,7,5,4,1,2026-04-05T22:10:20.695716+05:30
Vijayawada,Andhra Pradesh,16.5062,80.648,29.5,76,0.0,1002.2,8.75,24.1,78,30.9,28.8,7,5,4,1,2026-04-05T22:10:20.695721+05:30
Guntur,Andhra Pradesh,16.3067,80.4365,28.7,82,0.0,1003.4,8.9,31.7,83,38.9,35.9,7,5,4,1,2026-04-05T22:10:20.695728+05:30
Nellore,Andhra Pradesh,14.4426,79.9865,28.8,88,0.0,1005.5,9.3,32.0,111,25.2,21.6,7,5,4,1,2026-04-05T22:10:20.695734+05:30
Kurnool,Andhra Pradesh,15.8281,78.0373,33.5,37,0.0,976.1,9.2,33.8,159,54.1,47.6,0,5,7,1,2026-04-05T22:10:20.695740+05:30
Kakinada,Andhra Pradesh,16.9891,82.2475,28.0,89,0.0,1007.3,9.15,29.5,60,23.7,17.9,7,5,4,1,2026-04-05T22:10:20.695746+05:30
Tirupati,Andhra Pradesh,13.6288,79.4192,29.3,78,0.0,991.6,8.6,36.0,117,38.4,35.7,7,5,7,1,2026-04-05T22:10:20.695751+05:30
Warangal,Telangana,17.9689,79.5941,28.0,74,0.0,978.6,8.8,37.4,150,94.1,84.1,7,5,7,1,2026-04-05T22:10:20.695757+05:30
Nizamabad,Telangana,18.6725,78.0941,31.1,47,0.0,964.6,8.9,55.1,104,56.9,42.3,0,5,7,1,2026-04-05T22:10:20.695762+05:30
Mysore,Karnataka,12.2958,76.6396,24.8,78,0.0,929.6,8.65,36.4,81,28.3,25.8,3,5,7,1,2026-04-05T22:10:20.695768+05:30
Mangalore,Karnataka,12.9141,74.856,29.7,75,0.0,1008.6,9.2,34.9,65,31.8,16.1,7,0,4,1,2026-04-05T22:10:20.695774+05:30
Hubli-Dharwad,Karnataka,15.3647,75.124,24.5,72,0.0,942.2,9.25,36.4,76,24.2,14.8,3,5,7,1,2026-04-05T22:10:20.695779+05:30
Belgaum,Karnataka,15.8497,74.4977,22.0,71,0.0,927.1,9.3,38.5,59,35.4,21.7,3,5,7,1,2026-04-05T22:10:23.917485+05:30
Coimbatore,Tamil Nadu,11.0168,76.9558,26.4,77,0.0,962.7,9.5,46.8,70,33.1,31.0,7,5,7,1,2026-04-05T22:10:23.917514+05:30
Madurai,Tamil Nadu,9.9252,78.1198,27.9,76,0.0,993.7,5.45,23.8,121,32.4,30.7,7,5,3,1,2026-04-05T22:10:23.917525+05:30
Trichy,Tamil Nadu,10.7905,78.7047,27.9,85,0.0,1000.5,9.25,36.7,129,63.1,59.3,7,5,4,1,2026-04-05T22:10:23.917534+05:30
Salem,Tamil Nadu,11.6643,78.146,29.4,60,0.0,977.9,8.7,37.1,117,43.1,39.7,4,5,7,1,2026-04-05T22:10:23.917542+05:30
Tirunelveli,Tamil Nadu,8.7139,77.7567,29.6,65,0.0,1003.8,9.4,27.4,65,24.7,23.1,7,5,4,1,2026-04-05T22:10:23.917549+05:30
Vellore,Tamil Nadu,12.9165,79.1325,28.4,67,0.0,984.5,9.45,32.8,120,59.6,54.9,7,5,7,1,2026-04-05T22:10:23.917557+05:30
Erode,Tamil Nadu,11.341,77.7172,27.8,76,0.0,989.5,9.45,32.0,102,32.9,31.0,7,5,7,1,2026-04-05T22:10:23.917563+05:30
Kochi,Kerala,9.9312,76.2673,29.8,80,0.0,1009.9,8.2,31.7,65,32.7,28.4,7,0,4,1,2026-04-05T22:10:23.917571+05:30
Thiruvananthapuram,Kerala,8.5241,76.9366,29.9,78,0.0,1009.3,9.2,38.5,52,18.5,12.7,7,0,4,1,2026-04-05T22:10:23.917577+05:30
Kozhikode,Kerala,11.2588,75.7804,30.0,77,0.0,1009.2,9.15,33.8,58,26.4,16.6,7,0,4,1,2026-04-05T22:10:23.917584+05:30
Thrissur,Kerala,10.5276,76.2144,28.9,82,0.0,1008.2,8.4,36.7,62,34.9,28.1,7,0,4,1,2026-04-05T22:10:23.917592+05:30
Kannur,Kerala,11.8745,75.3704,29.1,78,0.0,1008.8,9.2,38.5,68,20.7,13.7,7,0,4,1,2026-04-05T22:10:23.917599+05:30
Patna,Bihar,25.5941,85.1376,28.4,51,0.0,999.7,8.25,45.0,71,36.6,27.9,4,5,7,1,2026-04-05T22:10:23.917606+05:30
Gaya,Bihar,24.7914,85.0002,27.8,56,0.0,993.5,8.35,41.4,82,39.3,25.7,4,5,7,1,2026-04-05T22:10:23.917613+05:30
Muzaffarpur,Bihar,26.1209,85.3647,26.4,50,0.0,999.4,8.2,33.5,70,32.7,23.5,4,5,7,0,2026-04-05T22:10:23.917620+05:30
Bhagalpur,Bihar,25.2425,87.0117,28.2,60,0.0,1000.0,8.35,30.2,77,23.6,19.0,4,5,4,1,2026-04-05T22:10:23.917628+05:30
Ranchi,Jharkhand,23.3441,85.3096,23.5,73,0.0,938.2,8.95,45.7,76,38.5,28.9,3,5,7,1,2026-04-05T22:10:23.917636+05:30
Jamshedpur,Jharkhand,22.8046,86.2029,27.2,74,0.0,991.3,8.4,18.0,113,50.6,42.7,7,5,7,1,2026-04-05T22:10:23.917643+05:30
Dhanbad,Jharkhand,23.7957,86.4304,27.9,60,0.0,979.9,8.7,37.4,96,45.5,36.3,4,5,7,1,2026-04-05T22:10:23.917650+05:30
Bokaro,Jharkhand,23.6693,86.1511,26.5,63,0.0,984.1,8.7,38.2,97,45.8,34.5,7,5,7,1,2026-04-05T22:10:23.917657+05:30
Bhubaneswar,Odisha,20.2961,85.8245,26.2,91,0.0,1003.9,8.65,26.3,128,26.7,23.5,7,5,4,1,2026-04-05T22:10:23.917665+05:30
Cuttack,Odisha,20.4625,85.8828,26.1,92,0.0,1006.0,8.7,25.2,128,26.7,23.5,7,5,4,1,2026-04-05T22:10:23.917672+05:30
Rourkela,Odisha,22.2604,84.8536,27.1,77,0.0,985.8,8.7,29.9,120,56.6,47.4,7,5,7,1,2026-04-05T22:10:23.917679+05:30
Raipur,Chhattisgarh,21.2514,81.6296,28.0,59,0.0,974.8,8.75,30.2,151,83.4,74.3,4,5,7,1,2026-04-05T22:10:23.917686+05:30
Bhilai,Chhattisgarh,21.1938,81.3509,28.0,60,0.0,975.0,8.7,32.0,139,55.9,48.2,4,5,7,1,2026-04-05T22:10:23.917694+05:30
Guwahati,Assam,26.1158,91.7086,25.7,68,0.0,999.4,7.45,44.6,119,26.1,20.3,7,5,7,1,2026-04-05T22:10:23.917701+05:30
Agartala,Tripura,23.8315,91.2868,25.0,93,0.0,1005.8,8.4,31.7,113,58.9,54.0,7,5,4,1,2026-04-05T22:10:23.917708+05:30
Shillong,Meghalaya,25.5788,91.8933,13.8,76,0.0,854.8,8.1,67.0,99,37.0,31.7,3,5,7,0,2026-04-05T22:10:23.917715+05:30
Imphal,Manipur,24.817,93.9368,18.8,82,0.0,922.7,8.85,83.9,146,61.9,56.3,3,10,7,0,2026-04-05T22:10:23.917721+05:30
Aizawl,Mizoram,23.7271,92.7176,18.4,87,0.0,891.8,8.5,51.8,144,53.9,48.2,3,10,7,1,2026-04-05T22:10:23.917727+05:30
Kohima,Nagaland,25.6701,94.1077,17.6,63,0.0,854.1,8.2,95.0,109,46.3,39.2,3,5,7,0,2026-04-05T22:10:23.917733+05:30
Gangtok,Sikkim,27.3314,88.6138,13.9,86,0.0,836.8,8.25,24.5,92,33.8,27.1,3,10,7,0,2026-04-05T22:10:23.917738+05:30
Siliguri,West Bengal,26.7271,88.3953,22.1,53,0.0,993.0,8.2,36.4,152,55.5,46.2,0,5,7,0,2026-04-05T22:10:27.142773+05:30
Durgapur,West Bengal,23.5204,87.3119,26.4,72,0.0,995.2,7.7,38.2,108,57.0,52.3,7,5,7,1,2026-04-05T22:10:27.142802+05:30
Asansol,West Bengal,23.6739,86.9524,26.8,71,0.0,993.6,8.05,36.0,88,46.6,39.5,7,5,7,1,2026-04-05T22:10:27.142811+05:30
Pondicherry,Puducherry,11.9139,79.8145,29.0,86,0.0,1008.2,9.35,27.0,101,20.1,15.1,7,0,4,1,2026-04-05T22:10:27.142819+05:30
Port Blair,Andaman and Nicobar Islands,11.6234,92.7265,29.2,72,0.0,1008.4,9.25,22.7,32,8.0,5.5,7,0,4,1,2026-04-05T22:10:27.142826+05:30
Haridwar,Uttarakhand,29.9457,78.1642,20.7,72,0.0,975.5,6.7,27.7,72,43.3,33.2,3,5,7,0,2026-04-05T22:10:27.142833+05:30
Rishikesh,Uttarakhand,30.0869,78.2676,18.9,71,0.0,968.2,6.7,28.1,78,25.0,16.1,3,5,7,0,2026-04-05T22:10:27.142840+05:30
Nainital,Uttarakhand,29.3919,79.4542,15.4,64,0.0,805.2,6.8,30.6,80,37.3,25.8,3,5,7,0,2026-04-05T22:10:27.142846+05:30
Mussoorie,Uttarakhand,30.4599,78.0664,12.1,70,0.0,800.5,6.3,45.7,79,34.7,25.0,3,5,7,0,2026-04-05T22:10:27.142853+05:30
Dharamshala,Himachal Pradesh,32.219,76.3234,16.1,62,0.0,867.7,7.3,32.8,56,8.1,6.7,3,5,7,0,2026-04-05T22:10:27.142860+05:30
Dalhousie,Himachal Pradesh,32.5387,75.971,12.6,67,0.0,801.1,7.55,25.2,60,42.5,27.7,3,5,7,0,2026-04-05T22:10:27.142868+05:30
Patiala,Punjab,30.3398,76.3869,22.0,52,0.0,979.1,6.75,33.5,111,66.4,36.8,0,5,7,0,2026-04-05T22:10:27.142875+05:30
Bhatinda,Punjab,30.211,74.9455,22.8,54,0.0,984.9,7.35,30.2,91,58.4,40.3,0,5,7,0,2026-04-05T22:10:27.142881+05:30
Rohtak,Haryana,28.8955,76.6066,21.7,61,0.0,983.0,3.9,36.7,163,620.3,92.0,3,5,3,0,2026-04-05T22:10:27.142887+05:30
Panipat,Haryana,29.3909,76.9635,21.6,61,0.0,981.3,6.75,32.0,249,668.7,100.1,3,5,7,0,2026-04-05T22:10:27.142893+05:30
Mathura,Uttar Pradesh,27.4924,77.6737,21.2,73,0.0,987.9,5.8,31.3,190,240.3,65.4,3,5,3,1,2026-04-05T22:10:27.142899+05:30
Vrindavan,Uttar Pradesh,27.5823,77.7027,20.6,80,0.0,988.4,6.05,31.0,190,240.3,65.4,3,5,7,1,2026-04-05T22:10:27.142905+05:30
Ayodhya,Uttar Pradesh,26.7922,82.1998,25.0,54,0.0,996.0,7.6,46.1,93,49.4,27.5,4,5,7,0,2026-04-05T22:10:27.142911+05:30
Ratlam,Madhya Pradesh,23.3315,75.0367,25.1,49,0.0,955.1,7.85,33.5,88,18.5,11.0,4,5,7,0,2026-04-05T22:10:27.142917+05:30
Sagar,Madhya Pradesh,23.8388,78.7378,27.4,31,0.0,950.3,7.9,33.1,94,21.6,9.7,4,5,7,0,2026-04-05T22:10:27.142924+05:30
Satna,Madhya Pradesh,24.6005,80.8322,26.5,53,0.0,971.5,8.35,30.6,68,17.1,12.1,4,5,7,1,2026-04-05T22:10:27.142930+05:30
Akola,Maharashtra,20.7002,77.0082,28.5,42,0.0,975.0,8.65,36.4,75,33.6,21.5,4,5,7,0,2026-04-05T22:10:27.142938+05:30
Amravati,Maharashtra,20.9374,77.7796,27.7,46,0.0,966.8,8.65,34.9,73,31.7,20.8,4,5,7,0,2026-04-05T22:10:27.142945+05:30
Latur,Maharashtra,18.4088,76.5604,27.2,42,0.0,939.7,9.0,30.2,79,37.4,29.0,4,5,7,0,2026-04-05T22:10:27.142951+05:30
Nanded,Maharashtra,19.1383,77.3091,29.1,46,0.0,968.3,8.85,28.4,90,48.4,29.1,4,5,7,1,2026-04-05T22:10:27.142958+05:30
Gulbarga,Karnataka,17.3297,76.8343,32.2,31,0.0,958.8,9.0,34.6,84,29.3,23.2,0,5,7,0,2026-04-05T22:10:27.142963+05:30
Bidar,Karnataka,17.9104,77.5199,30.0,36,0.0,935.9,9.0,33.5,103,37.5,28.3,4,5,7,0,2026-04-05T22:10:27.142970+05:30
Hospet,Karnataka,15.2689,76.3909,31.3,42,0.0,956.6,9.2,30.2,89,23.1,21.0,0,5,7,1,2026-04-05T22:10:27.142976+05:30
Tirupur,Tamil Nadu,11.1085,77.3411,28.5,68,0.0,976.0,9.55,35.3,79,32.5,30.7,7,5,7,1,2026-04-05T22:10:27.142982+05:30
Alappuzha,Kerala,9.4981,76.3388,29.9,79,0.0,1010.1,8.9,30.6,62,32.2,24.9,7,0,4,1,2026-04-05T22:10:27.143007+05:30
Munnar,Kerala,10.0889,77.0595,21.2,97,0.0,858.3,9.75,38.5,59,20.1,19.2,3,5,7,1,2026-04-05T22:10:27.143016+05:30
Silchar,Assam,24.8333,92.7789,23.7,93,0.0,1004.9,8.4,33.1,156,93.4,85.4,3,5,4,1,2026-04-05T22:10:27.143023+05:30
Dibrugarh,Assam,27.4728,94.912,22.8,91,0.0,993.3,7.5,51.5,136,50.9,39.9,3,5,7,1,2026-04-05T22:10:27.143029+05:30
