city,state,latitude,longitude,temp,humidity,rain,pressure,uv_index,wind_gusts,aqi,pm10,pm2_5,no2,co,o3,so2,mosquito_risk,arthritis_risk,migraine_risk,frizz_risk,updated_at
Delhi,Delhi,28.6139,77.209,34.8,28,0.0,977.1,7.55,29.9,314,299.9,70.1,15.3,493.0,202.0,27.8,0,5,7,0,2026-05-01T18:54:50.423050+05:30
Mumbai,Maharashtra,19.076,72.8777,29.7,73,0.0,1006.5,7.9,46.4,66,49.6,18.7,8.2,229.0,74.0,15.3,7,5,4,1,2026-05-01T18:54:50.423095+05:30
Bangalore,Karnataka,12.9716,77.5946,28.5,61,0.0,910.8,9.55,35.6,179,43.9,37.7,32.3,1240.0,135.0,11.2,7,5,7,1,2026-05-01T18:54:50.423112+05:30
Hyderabad,Telangana,17.385,78.4867,36.7,20,0.0,950.0,9.25,36.7,92,46.4,21.4,13.8,412.0,106.0,6.3,0,5,10,0,2026-05-01T18:54:50.423123+05:30
Chennai,Tamil Nadu,13.0827,80.2707,31.5,73,0.0,1003.8,9.25,49.0,158,31.0,26.1,7.1,216.0,161.0,10.1,3,5,4,1,2026-05-01T18:54:50.423137+05:30
Kolkata,West Bengal,22.5726,88.3639,27.1,78,0.0,1003.5,7.9,25.2,73,57.7,49.6,21.3,616.0,97.0,17.6,7,5,4,1,2026-05-01T18:54:50.423146+05:30
Pune,Maharashtra,18.5204,73.8567,29.3,51,0.0,946.6,8.5,49.3,55,40.0,12.7,3.9,192.0,85.0,3.4,4,5,7,1,2026-05-01T18:54:50.423154+05:30
Ahmedabad,Gujarat,23.0225,72.5714,35.7,51,0.0,995.9,8.1,42.5,63,51.3,16.1,4.0,199.0,103.0,3.8,0,5,10,1,2026-05-01T18:54:50.423165+05:30
Jaipur,Rajasthan,26.9124,75.7873,37.1,15,0.0,953.7,8.1,42.5,171,348.3,52.3,6.8,187.0,117.0,3.3,0,5,10,0,2026-05-01T18:54:50.423173+05:30
Lucknow,Uttar Pradesh,26.8467,80.9462,30.4,50,0.0,989.3,8.0,29.5,158,90.6,38.1,7.5,323.0,148.0,9.9,0,5,7,1,2026-05-01T18:54:50.423182+05:30
Kanpur,Uttar Pradesh,26.4499,80.3319,33.0,35,0.0,986.7,8.05,31.0,162,179.7,45.2,6.5,287.0,151.0,7.8,0,5,7,0,2026-05-01T18:54:50.423189+05:30
Chandigarh,Chandigarh,30.7333,76.7794,29.9,39,0.0,963.8,7.55,37.4,176,68.9,31.5,6.8,368.0,170.0,21.1,4,5,7,0,2026-05-01T18:54:50.423197+05:30
Srinagar,Jammu and Kashmir,34.0837,74.7973,18.2,77,0.0,838.5,8.75,25.9,110,18.0,13.4,12.3,739.0,112.0,3.9,3,5,7,0,2026-05-01T18:54:50.423205+05:30
Jammu,Jammu and Kashmir,32.7266,74.857,28.8,47,0.0,967.7,8.35,32.0,133,18.5,12.7,8.5,342.0,134.0,2.6,4,5,7,1,2026-05-01T18:54:50.423213+05:30
Amritsar,Punjab,31.634,74.8723,32.7,30,0.0,975.3,8.25,31.7,172,30.4,16.4,7.9,379.0,168.0,7.5,0,5,7,0,2026-05-01T18:54:50.423220+05:30
Ludhiana,Punjab,30.901,75.8573,32.9,30,0.0,973.4,7.85,33.5,165,131.8,42.7,9.4,323.0,140.0,9.0,0,5,7,0,2026-05-01T18:54:50.423227+05:30
Jalandhar,Punjab,31.326,75.5762,31.6,47,0.0,974.4,8.0,33.8,155,154.6,46.9,8.7,365.0,147.0,8.9,0,5,7,1,2026-05-01T18:54:50.423234+05:30
Dehradun,Uttarakhand,30.6284,78.0322,15.7,83,0.0,826.5,7.95,34.2,127,74.7,42.6,10.6,285.0,139.0,3.1,3,10,7,0,2026-05-01T18:54:50.423244+05:30
Shimla,Himachal Pradesh,31.1048,77.1734,14.5,58,0.0,781.1,8.1,47.2,151,46.0,23.7,5.1,229.0,158.0,11.6,0,5,7,0,2026-05-01T18:54:50.423251+05:30
Manali,Himachal Pradesh,32.2396,77.1887,11.4,90,0.1,813.7,10.1,42.5,129,7.5,6.1,11.1,186.0,141.0,0.6,6,10,7,0,2026-05-01T18:54:50.423259+05:30
Gurgaon,Haryana,28.4595,77.0266,33.2,34,0.0,975.6,7.7,31.7,1309,765.5,121.1,17.6,338.0,181.0,22.8,0,5,7,0,2026-05-01T18:54:50.423266+05:30
Noida,Uttar Pradesh,28.5355,77.391,32.0,44,0.0,978.5,7.6,29.2,1309,765.5,121.1,17.6,638.0,181.0,22.8,0,5,7,1,2026-05-01T18:54:50.423273+05:30
Ghaziabad,Uttar Pradesh,28.6692,77.4538,32.0,42,0.0,976.9,7.55,32.8,185,241.2,55.2,7.0,359.0,170.0,10.7,0,5,7,1,2026-05-01T18:54:50.423280+05:30
Faridabad,Haryana,28.4089,77.3178,33.8,29,0.0,977.7,7.65,29.5,1309,765.5,121.1,17.6,466.0,181.0,22.8,0,5,7,0,2026-05-01T18:54:50.423289+05:30
Meerut,Uttar Pradesh,28.9845,77.7064,30.8,45,0.0,976.3,7.5,34.9,185,241.2,55.2,7.0,339.0,170.0,10.7,0,5,7,1,2026-05-01T18:54:50.423296+05:30
Agra,Uttar Pradesh,27.1767,78.0081,34.2,33,0.0,981.2,7.9,27.7,561,339.0,61.2,7.9,326.0,133.0,9.6,0,5,7,0,2026-05-01T18:54:50.423303+05:30
Varanasi,Uttar Pradesh,25.3176,82.9739,30.2,51,0.0,993.6,8.55,25.9,172,76.8,37.7,8.5,389.0,154.0,13.6,0,5,7,1,2026-05-01T18:54:50.423310+05:30
Prayagraj,Uttar Pradesh,25.4358,81.8463,31.3,41,0.0,991.4,8.4,25.6,181,83.1,36.2,11.6,292.0,158.0,12.5,0,5,7,1,2026-05-01T18:54:50.423320+05:30
Gorakhpur,Uttar Pradesh,26.7606,83.3732,24.1,75,0.0,994.1,8.35,37.1,137,63.8,28.8,4.7,328.0,149.0,4.7,3,5,7,1,2026-05-01T18:54:50.423326+05:30
Bareilly,Uttar Pradesh,28.367,79.4304,30.2,50,0.0,982.2,7.85,34.6,155,265.4,56.7,8.5,291.0,153.0,12.5,0,5,7,1,2026-05-01T18:54:50.423333+05:30
Aligarh,Uttar Pradesh,27.8974,78.088,32.5,38,0.0,979.5,7.75,28.8,670,540.2,87.3,6.7,279.0,161.0,15.2,0,5,7,1,2026-05-01T18:54:50.423340+05:30
Moradabad,Uttar Pradesh,28.8386,78.7733,29.8,48,0.0,978.8,7.7,35.6,162,115.5,46.2,9.8,355.0,156.0,19.6,4,5,7,1,2026-05-01T18:54:50.423346+05:30
Saharanpur,Uttar Pradesh,29.9637,77.546,28.8,60,0.0,970.9,7.3,36.4,154,140.6,45.6,17.0,290.0,139.0,12.1,4,5,7,1,2026-05-01T18:54:50.423352+05:30
Jhansi,Uttar Pradesh,25.4484,78.5685,34.8,25,0.0,971.8,8.35,28.4,103,63.3,21.5,3.8,162.0,119.0,8.4,0,5,7,0,2026-05-01T18:54:53.670590+05:30
Surat,Gujarat,21.1702,72.8311,29.9,78,0.0,1002.8,7.7,55.4,63,32.9,16.8,14.8,216.0,62.0,29.1,7,5,4,1,2026-05-01T18:54:53.670626+05:30
Vadodara,Gujarat,22.3072,73.1812,32.8,57,0.0,999.3,8.05,52.6,60,27.3,14.5,6.8,226.0,101.0,10.2,0,5,7,1,2026-05-01T18:54:53.670637+05:30
Rajkot,Gujarat,22.3039,70.8022,37.3,28,0.0,988.9,7.7,54.0,51,33.6,13.1,2.9,158.0,94.0,5.7,0,5,10,0,2026-05-01T18:54:53.670645+05:30
Thane,Maharashtra,19.2183,72.9781,30.3,68,0.0,1005.8,7.9,42.1,66,49.6,18.7,8.2,232.0,74.0,15.3,3,5,4,1,2026-05-01T18:54:53.670653+05:30
Nagpur,Maharashtra,21.1458,79.0882,38.0,19,0.0,968.3,8.9,36.7,144,58.9,23.5,10.2,214.0,119.0,14.9,0,5,10,0,2026-05-01T18:54:53.670660+05:30
Nashik,Maharashtra,19.9975,73.7898,29.5,52,0.0,943.3,8.2,51.1,60,38.5,13.3,2.7,169.0,87.0,3.6,4,5,7,1,2026-05-01T18:54:53.670668+05:30
Aurangabad,Maharashtra,19.8762,75.3433,35.2,24,0.0,940.9,9.05,46.1,66,30.7,11.5,2.2,167.0,100.0,2.9,0,5,10,0,2026-05-01T18:54:53.670676+05:30
Solapur,Maharashtra,17.6599,75.9064,36.5,19,0.0,953.7,9.05,47.5,53,22.0,9.0,3.2,168.0,104.0,1.9,0,5,10,0,2026-05-01T18:54:53.670683+05:30
Kolhapur,Maharashtra,16.705,74.2433,29.3,45,0.0,947.0,8.95,46.8,59,30.7,13.3,4.7,179.0,82.0,1.7,4,5,7,1,2026-05-01T18:54:53.670690+05:30
Goa,Goa,15.2993,74.124,30.3,67,0.0,996.7,8.9,36.4,63,24.3,14.0,3.0,164.0,78.0,1.3,3,5,7,1,2026-05-01T18:54:53.670697+05:30
Jodhpur,Rajasthan,26.2389,73.0243,36.1,26,0.0,976.9,8.3,52.6,139,263.6,36.2,3.0,163.0,102.0,2.1,0,5,10,0,2026-05-01T18:54:53.670704+05:30
Udaipur,Rajasthan,24.5854,73.7125,34.8,24,0.0,942.2,8.75,45.7,58,47.1,14.0,1.2,154.0,113.0,2.4,0,5,7,0,2026-05-01T18:54:53.670711+05:30
Kota,Rajasthan,25.2138,75.8648,35.8,20,0.0,971.5,8.3,38.2,87,38.1,14.1,5.5,185.0,112.0,3.1,0,5,10,0,2026-05-01T18:54:53.670717+05:30
Bikaner,Rajasthan,28.0229,73.3119,38.8,13,0.0,974.2,8.25,39.6,89,78.0,18.5,1.5,210.0,110.0,3.8,0,5,10,0,2026-05-01T18:54:53.670725+05:30
Ajmer,Rajasthan,26.4499,74.6399,36.5,16,0.0,949.2,8.25,51.5,79,61.2,15.5,3.2,154.0,111.0,2.3,0,5,10,0,2026-05-01T18:54:53.670732+05:30
Gwalior,Madhya Pradesh,26.2183,78.1828,35.0,28,0.0,977.1,8.15,33.1,104,84.1,26.0,3.7,237.0,121.0,5.4,0,5,7,0,2026-05-01T18:54:53.670739+05:30
Indore,Madhya Pradesh,22.7196,75.8577,36.0,18,0.0,944.0,8.65,41.0,67,44.8,16.3,4.1,212.0,112.0,4.2,0,5,10,0,2026-05-01T18:54:53.670746+05:30
Bhopal,Madhya Pradesh,23.2599,77.4126,36.8,16,0.0,948.8,8.65,39.2,72,94.1,22.4,2.6,197.0,106.0,3.3,0,5,10,0,2026-05-01T18:54:53.670753+05:30
Jabalpur,Madhya Pradesh,23.1815,79.9864,35.2,17,0.0,956.6,8.8,38.2,98,88.5,29.0,6.6,164.0,114.0,4.4,0,5,10,0,2026-05-01T18:54:53.670760+05:30
Ujjain,Madhya Pradesh,23.1765,75.7885,36.3,17,0.0,949.3,8.55,40.0,63,41.4,15.8,2.2,172.0,113.0,3.3,0,5,10,0,2026-05-01T18:54:53.670767+05:30
Visakhapatnam,Andhra Pradesh,17.6868,83.2185,29.1,85,0.0,1001.0,9.15,51.8,53,22.5,17.8,17.3,282.0,85.0,8.3,7,5,4,1,2026-05-01T18:54:53.670774+05:30
Vijayawada,Andhra Pradesh,16.5062,80.648,35.8,29,0.0,997.4,9.2,39.6,141,39.6,35.5,7.3,262.0,153.0,7.5,0,5,10,0,2026-05-01T18:54:53.670781+05:30
Guntur,Andhra Pradesh,16.3067,80.4365,36.3,24,0.0,998.8,9.2,40.0,149,43.9,36.1,8.9,272.0,142.0,6.0,0,5,10,0,2026-05-01T18:54:53.670787+05:30
Nellore,Andhra Pradesh,14.4426,79.9865,32.7,67,0.0,1001.5,9.25,49.0,177,31.7,27.0,3.6,231.0,169.0,6.3,3,5,4,1,2026-05-01T18:54:53.670795+05:30
Kurnool,Andhra Pradesh,15.8281,78.0373,36.7,19,0.0,973.2,9.2,40.0,110,39.9,16.9,6.5,214.0,129.0,5.7,0,5,10,0,2026-05-01T18:54:53.670803+05:30
Kakinada,Andhra Pradesh,16.9891,82.2475,30.6,79,0.0,1003.8,9.15,45.7,52,20.8,15.2,2.5,225.0,104.0,2.2,3,5,4,1,2026-05-01T18:54:53.670810+05:30
Tirupati,Andhra Pradesh,13.6288,79.4192,32.8,42,0.0,987.6,9.3,42.8,164,46.4,41.1,10.0,325.0,151.0,5.0,0,5,7,1,2026-05-01T18:54:53.670816+05:30
Warangal,Telangana,17.9689,79.5941,34.9,23,0.0,974.5,9.15,41.0,113,49.1,26.0,13.6,238.0,107.0,6.3,0,5,7,0,2026-05-01T18:54:53.670823+05:30
Nizamabad,Telangana,18.6725,78.0941,35.1,23,0.0,960.6,9.1,33.5,87,37.7,17.9,6.0,206.0,111.0,3.1,0,5,10,0,2026-05-01T18:54:53.670829+05:30
Mysore,Karnataka,12.2958,76.6396,26.4,64,0.0,928.0,9.35,52.9,156,34.6,28.0,7.7,378.0,154.0,3.7,7,5,7,1,2026-05-01T18:54:53.670835+05:30
Mangalore,Karnataka,12.9141,74.856,30.2,75,0.0,1005.5,9.0,40.7,67,27.1,15.4,2.9,164.0,75.0,1.3,3,5,4,1,2026-05-01T18:54:53.670841+05:30
Hubli-Dharwad,Karnataka,15.3647,75.124,29.4,52,0.0,939.6,9.2,45.0,56,29.2,13.6,4.3,195.0,91.0,1.5,4,5,7,1,2026-05-01T18:54:53.670849+05:30
Belgaum,Karnataka,15.8497,74.4977,27.5,57,0.0,925.2,9.15,44.6,54,26.9,11.6,4.6,171.0,78.0,1.8,4,5,7,1,2026-05-01T18:54:56.913983+05:30
Coimbatore,Tamil Nadu,11.0168,76.9558,28.2,73,0.0,961.0,9.2,41.4,130,27.5,23.7,8.9,279.0,115.0,3.7,7,5,7,1,2026-05-01T18:54:56.914018+05:30
Madurai,Tamil Nadu,9.9252,78.1198,29.4,66,0.0,992.3,8.9,57.6,118,24.6,19.3,6.0,288.0,130.0,3.7,7,5,7,1,2026-05-01T18:54:56.914030+05:30
Trichy,Tamil Nadu,10.7905,78.7047,34.7,47,0.0,997.2,8.9,36.0,128,31.5,27.2,7.8,250.0,136.0,5.3,0,5,7,1,2026-05-01T18:54:56.914039+05:30
Salem,Tamil Nadu,11.6643,78.146,27.3,67,0.0,976.7,9.25,61.9,179,43.7,36.4,13.8,290.0,172.0,14.2,7,5,7,1,2026-05-01T18:54:56.914047+05:30
Tirunelveli,Tamil Nadu,8.7139,77.7567,33.7,47,0.0,1001.5,8.85,36.7,64,14.6,12.5,5.0,227.0,106.0,1.5,0,5,4,1,2026-05-01T18:54:56.914055+05:30
Vellore,Tamil Nadu,12.9165,79.1325,31.6,49,0.0,982.0,9.3,44.3,160,49.8,44.0,9.1,348.0,150.0,6.8,0,5,7,1,2026-05-01T18:54:56.914063+05:30
Erode,Tamil Nadu,11.341,77.7172,30.5,56,0.0,988.1,9.25,54.4,140,38.3,29.3,12.5,294.0,146.0,2.8,0,5,7,1,2026-05-01T18:54:56.914070+05:30
Kochi,Kerala,9.9312,76.2673,27.6,89,0.0,1008.0,8.8,33.8,55,26.5,21.6,25.6,289.0,69.0,5.1,7,0,4,1,2026-05-01T18:54:56.914077+05:30
Thiruvananthapuram,Kerala,8.5241,76.9366,26.3,88,0.0,1007.8,8.85,34.9,53,11.6,8.5,2.8,252.0,103.0,1.5,7,5,4,1,2026-05-01T18:54:56.914085+05:30
Kozhikode,Kerala,11.2588,75.7804,29.0,82,0.0,1006.8,7.7,39.2,60,33.4,17.9,1.5,207.0,73.0,1.0,7,5,4,1,2026-05-01T18:54:56.914092+05:30
Thrissur,Kerala,10.5276,76.2144,28.9,80,0.0,1006.2,8.7,39.2,64,30.3,23.6,8.7,299.0,85.0,2.7,7,5,4,1,2026-05-01T18:54:56.914100+05:30
Kannur,Kerala,11.8745,75.3704,30.4,74,0.0,1006.1,8.9,43.2,68,29.9,17.2,4.7,213.0,74.0,1.4,3,5,4,1,2026-05-01T18:54:56.914107+05:30
Patna,Bihar,25.5941,85.1376,24.2,78,0.0,997.8,8.4,33.5,161,62.6,39.1,8.2,434.0,159.0,9.1,3,5,7,1,2026-05-01T18:54:56.914113+05:30
Gaya,Bihar,24.7914,85.0002,27.9,58,0.0,990.2,8.7,32.8,168,72.2,35.7,6.0,403.0,158.0,8.0,4,5,7,1,2026-05-01T18:54:56.914120+05:30
Muzaffarpur,Bihar,26.1209,85.3647,21.9,91,0.0,998.0,6.55,31.3,158,46.2,32.8,8.6,416.0,151.0,10.6,3,5,7,1,2026-05-01T18:54:56.914126+05:30
Bhagalpur,Bihar,25.2425,87.0117,23.4,87,0.1,999.0,8.5,49.3,173,38.0,27.9,8.9,350.0,142.0,5.9,6,5,7,1,2026-05-01T18:54:56.914133+05:30
Ranchi,Jharkhand,23.3441,85.3096,21.5,83,0.6,933.9,9.05,48.2,145,84.8,42.7,4.3,230.0,154.0,8.4,6,5,7,1,2026-05-01T18:54:56.914140+05:30
Jamshedpur,Jharkhand,22.8046,86.2029,27.5,65,0.0,988.2,9.0,24.8,189,66.6,37.5,9.5,364.0,137.0,13.9,7,5,7,1,2026-05-01T18:54:56.914146+05:30
Dhanbad,Jharkhand,23.7957,86.4304,26.6,71,0.1,977.1,8.9,22.3,201,98.0,60.5,41.5,528.0,134.0,51.0,10,5,7,1,2026-05-01T18:54:56.914153+05:30
Bokaro,Jharkhand,23.6693,86.1511,27.1,59,0.0,981.0,8.95,27.4,195,90.3,45.1,29.3,852.0,131.0,42.7,4,5,7,1,2026-05-01T18:54:56.914159+05:30
Bhubaneswar,Odisha,20.2961,85.8245,29.0,78,0.0,999.6,8.4,47.2,98,30.4,22.3,7.5,398.0,114.0,4.9,7,5,7,1,2026-05-01T18:54:56.914166+05:30
Cuttack,Odisha,20.4625,85.8828,28.3,77,0.1,1001.5,8.85,36.0,98,30.4,22.3,7.5,403.0,114.0,4.9,10,5,4,1,2026-05-01T18:54:56.914172+05:30
Rourkela,Odisha,22.2604,84.8536,25.2,84,0.3,981.7,8.9,36.7,194,89.4,50.8,8.3,286.0,184.0,33.2,10,5,7,1,2026-05-01T18:54:56.914178+05:30
Raipur,Chhattisgarh,21.2514,81.6296,35.6,25,0.0,970.1,8.95,42.8,152,87.8,34.2,16.1,203.0,120.0,5.0,0,5,10,0,2026-05-01T18:54:56.914184+05:30
Bhilai,Chhattisgarh,21.1938,81.3509,35.0,26,0.0,970.7,8.95,54.7,118,80.8,31.3,13.4,483.0,125.0,4.6,0,5,7,0,2026-05-01T18:54:56.914190+05:30
Guwahati,Assam,26.1158,91.7086,21.5,95,0.0,1001.0,7.7,28.8,66,28.8,24.9,9.1,389.0,96.0,3.2,3,5,4,1,2026-05-01T18:54:56.914196+05:30
Agartala,Tripura,23.8315,91.2868,23.7,85,0.0,1005.1,5.1,38.2,73,41.8,38.5,14.4,213.0,105.0,3.6,3,5,0,1,2026-05-01T18:54:56.914202+05:30
Shillong,Meghalaya,25.5788,91.8933,14.4,90,0.0,853.9,7.5,36.7,56,14.8,13.3,8.3,251.0,86.0,1.9,3,10,7,0,2026-05-01T18:54:56.914209+05:30
Imphal,Manipur,24.817,93.9368,18.8,97,0.1,921.7,4.0,18.7,76,20.8,18.7,14.9,400.0,58.0,2.3,6,10,3,1,2026-05-01T18:54:56.914216+05:30
Aizawl,Mizoram,23.7271,92.7176,16.9,90,0.0,890.7,4.95,50.4,51,11.8,10.3,5.9,193.0,67.0,1.2,3,10,3,0,2026-05-01T18:54:56.914222+05:30
Kohima,Nagaland,25.6701,94.1077,16.0,100,0.4,853.0,4.45,23.0,53,20.0,15.0,8.2,330.0,73.0,1.6,6,10,3,0,2026-05-01T18:54:56.914229+05:30
Gangtok,Sikkim,27.3314,88.6138,13.3,88,0.0,834.4,8.9,42.5,84,23.6,15.5,6.5,368.0,116.0,0.8,3,10,7,0,2026-05-01T18:54:56.914235+05:30
Siliguri,West Bengal,26.7271,88.3953,21.0,96,0.0,992.0,6.6,26.6,81,36.2,27.3,12.1,577.0,111.0,2.6,3,5,7,1,2026-05-01T18:55:00.164001+05:30
Durgapur,West Bengal,23.5204,87.3119,26.5,73,0.0,992.3,8.85,29.2,202,127.6,90.6,26.2,534.0,175.0,51.2,7,5,7,1,2026-05-01T18:55:00.164037+05:30
Asansol,West Bengal,23.6739,86.9524,27.0,66,0.0,990.8,8.75,24.5,203,112.9,75.7,29.1,641.0,162.0,44.7,7,5,7,1,2026-05-01T18:55:00.164048+05:30
Pondicherry,Puducherry,11.9139,79.8145,31.0,75,0.0,1005.5,8.7,43.6,135,24.9,19.5,7.9,179.0,131.0,10.3,3,5,4,1,2026-05-01T18:55:00.164057+05:30
Port Blair,Andaman and Nicobar Islands,11.6234,92.7265,27.5,88,0.0,1007.3,9.1,24.8,30,6.7,4.6,0.7,267.0,59.0,2.8,7,5,4,1,2026-05-01T18:55:00.164066+05:30
Haridwar,Uttarakhand,29.9457,78.1642,27.3,65,0.0,969.5,7.4,28.8,152,110.1,36.3,7.0,341.0,152.0,9.6,7,5,7,1,2026-05-01T18:55:00.164073+05:30
Rishikesh,Uttarakhand,30.0869,78.2676,26.0,65,0.0,962.2,7.5,25.9,147,105.7,32.8,4.4,307.0,149.0,8.2,7,5,7,1,2026-05-01T18:55:00.164081+05:30
Nainital,Uttarakhand,29.3919,79.4542,13.1,88,0.0,801.3,8.3,39.6,133,110.6,31.3,5.8,272.0,143.0,6.1,3,10,7,0,2026-05-01T18:55:00.164089+05:30
Mussoorie,Uttarakhand,30.4599,78.0664,13.7,86,0.0,798.8,7.9,42.1,160,105.5,39.2,8.1,283.0,165.0,11.4,3,10,7,0,2026-05-01T18:55:00.164096+05:30
Dharamshala,Himachal Pradesh,32.219,76.3234,20.7,48,0.0,865.2,8.2,46.8,114,12.0,8.5,4.4,254.0,133.0,1.2,0,5,7,0,2026-05-01T18:55:00.164104+05:30
Dalhousie,Himachal Pradesh,32.5387,75.971,15.2,69,0.0,800.6,8.5,37.8,146,31.9,17.4,10.3,375.0,147.0,3.7,3,5,7,0,2026-05-01T18:55:00.164112+05:30
Patiala,Punjab,30.3398,76.3869,32.7,31,0.0,972.6,7.5,38.5,522,393.9,63.3,4.8,285.0,156.0,12.3,0,5,7,0,2026-05-01T18:55:00.164120+05:30
Bhatinda,Punjab,30.211,74.9455,33.8,27,0.0,977.7,8.1,36.7,319,93.8,26.3,4.4,268.0,139.0,8.9,0,5,7,0,2026-05-01T18:55:00.164126+05:30
Rohtak,Haryana,28.8955,76.6066,33.7,28,0.0,976.0,7.6,29.2,611,353.0,80.6,10.8,335.0,189.0,17.0,0,5,7,0,2026-05-01T18:55:00.164133+05:30
Panipat,Haryana,29.3909,76.9635,31.6,41,0.0,974.8,7.45,33.8,1105,543.9,96.4,10.1,285.0,193.0,24.3,0,5,7,1,2026-05-01T18:55:00.164139+05:30
Mathura,Uttar Pradesh,27.4924,77.6737,32.8,37,0.0,980.3,7.85,28.1,628,364.1,67.1,9.1,270.0,138.0,7.6,0,5,7,1,2026-05-01T18:55:00.164146+05:30
Vrindavan,Uttar Pradesh,27.5823,77.7027,32.7,37,0.0,980.8,7.8,28.4,628,364.1,67.1,9.1,273.0,138.0,7.6,0,5,7,1,2026-05-01T18:55:00.164152+05:30
Ayodhya,Uttar Pradesh,26.7922,82.1998,28.2,53,0.0,991.6,8.15,28.4,133,83.4,32.8,8.3,292.0,133.0,7.1,4,5,7,1,2026-05-01T18:55:00.164159+05:30
Ratlam,Madhya Pradesh,23.3315,75.0367,35.0,25,0.0,950.6,8.45,40.7,65,43.0,15.4,1.2,165.0,118.0,3.5,0,5,7,0,2026-05-01T18:55:00.164165+05:30
Sagar,Madhya Pradesh,23.8388,78.7378,34.0,19,0.0,945.2,8.65,40.7,86,35.7,13.4,2.9,154.0,115.0,3.8,0,5,7,0,2026-05-01T18:55:00.164171+05:30
Satna,Madhya Pradesh,24.6005,80.8322,31.8,34,0.0,966.5,8.65,52.6,100,89.2,26.6,3.1,189.0,124.0,4.0,0,5,7,0,2026-05-01T18:55:00.164177+05:30
Akola,Maharashtra,20.7002,77.0082,37.0,20,0.0,970.3,8.9,40.0,71,34.3,13.7,3.3,162.0,110.0,9.8,0,5,10,0,2026-05-01T18:55:00.164185+05:30
Amravati,Maharashtra,20.9374,77.7796,37.3,19,0.0,962.8,8.85,38.9,84,36.1,14.4,4.3,172.0,111.0,8.7,0,5,10,0,2026-05-01T18:55:00.164192+05:30
Latur,Maharashtra,18.4088,76.5604,35.4,17,0.0,936.6,9.1,38.9,58,27.2,11.3,5.2,180.0,98.0,4.6,0,5,10,0,2026-05-01T18:55:00.164199+05:30
Nanded,Maharashtra,19.1383,77.3091,36.5,24,0.0,963.8,9.0,32.8,72,37.8,16.0,5.1,209.0,104.0,2.3,0,5,10,0,2026-05-01T18:55:00.164206+05:30
Gulbarga,Karnataka,17.3297,76.8343,36.8,15,0.0,954.8,9.1,44.6,65,29.7,11.7,9.1,168.0,95.0,2.7,0,5,10,0,2026-05-01T18:55:00.164212+05:30
Bidar,Karnataka,17.9104,77.5199,34.0,20,0.0,932.2,9.15,37.4,79,33.5,15.6,6.1,192.0,110.0,4.7,0,5,7,0,2026-05-01T18:55:00.164218+05:30
Hospet,Karnataka,15.2689,76.3909,33.3,33,0.0,953.0,9.25,38.5,70,27.6,14.3,4.8,213.0,117.0,1.6,0,5,7,0,2026-05-01T18:55:00.164225+05:30
Tirupur,Tamil Nadu,11.1085,77.3411,30.5,59,0.0,974.2,9.2,53.3,156,34.0,28.7,11.4,300.0,138.0,4.0,0,5,7,1,2026-05-01T18:55:00.164231+05:30
Alappuzha,Kerala,9.4981,76.3388,27.7,88,0.0,1008.3,8.95,33.8,52,21.8,16.1,11.5,168.0,89.0,4.1,7,0,4,1,2026-05-01T18:55:00.164239+05:30
Munnar,Kerala,10.0889,77.0595,18.7,98,0.0,856.5,8.3,28.4,50,21.8,17.4,5.8,288.0,90.0,1.5,3,10,7,1,2026-05-01T18:55:00.164246+05:30
Silchar,Assam,24.8333,92.7789,21.6,95,0.5,1004.8,0.8,24.1,102,36.9,36.4,10.5,304.0,70.0,5.7,6,5,0,1,2026-05-01T18:55:00.164253+05:30
Dibrugarh,Assam,27.4728,94.912,21.5,88,0.0,995.3,5.65,33.5,65,34.2,23.4,9.9,277.0,80.0,2.3,3,5,3,1,2026-05-01T18:55:00.164259+05:30
