city,state,latitude,longitude,temp,humidity,rain,pressure,uv_index,wind_gusts,aqi,pm10,pm2_5,mosquito_risk,arthritis_risk,migraine_risk,frizz_risk,updated_at
Delhi,Delhi,28.6139,77.209,31.8,31,0.0,983.9,7.2,34.9,293,303.6,44.0,0,5,7,0,2026-04-12T12:49:15.292942+05:30
Mumbai,Maharashtra,19.076,72.8777,28.5,84,0.0,1007.1,8.0,22.7,122,68.7,49.7,7,5,4,1,2026-04-12T12:49:15.293007+05:30
Bangalore,Karnataka,12.9716,77.5946,33.8,35,0.0,912.8,9.7,31.7,88,37.8,28.2,0,5,7,1,2026-04-12T12:49:15.293024+05:30
Hyderabad,Telangana,17.385,78.4867,38.9,22,0.0,953.0,9.25,28.1,94,34.6,24.0,0,5,10,0,2026-04-12T12:49:15.293036+05:30
Chennai,Tamil Nadu,13.0827,80.2707,35.5,49,0.0,1007.4,9.4,34.9,52,21.6,12.3,0,5,7,1,2026-04-12T12:49:15.293045+05:30
Kolkata,West Bengal,22.5726,88.3639,35.1,40,0.0,1004.6,8.8,23.0,135,143.0,43.7,0,5,7,1,2026-04-12T12:49:15.293053+05:30
Pune,Maharashtra,18.5204,73.8567,39.2,21,0.0,948.3,8.55,41.8,110,31.3,20.4,0,5,10,0,2026-04-12T12:49:15.293065+05:30
Ahmedabad,Gujarat,23.0225,72.5714,40.3,17,0.0,1001.2,8.1,21.2,103,91.0,22.5,0,5,7,0,2026-04-12T12:49:15.293072+05:30
Jaipur,Rajasthan,26.9124,75.7873,34.2,14,0.0,961.3,7.85,29.5,165,217.9,34.5,0,5,7,0,2026-04-12T12:49:15.293080+05:30
Lucknow,Uttar Pradesh,26.8467,80.9462,35.1,24,0.0,992.6,7.7,31.7,165,170.9,35.5,0,5,10,0,2026-04-12T12:49:15.293088+05:30
Kanpur,Uttar Pradesh,26.4499,80.3319,33.5,34,0.0,991.2,7.75,25.2,460,325.0,51.2,0,5,7,0,2026-04-12T12:49:15.293095+05:30
Chandigarh,Chandigarh,30.7333,76.7794,29.4,37,0.0,969.8,7.1,31.7,74,57.0,19.4,4,5,7,0,2026-04-12T12:49:15.293103+05:30
Srinagar,Jammu and Kashmir,34.0837,74.7973,17.0,47,0.0,842.9,8.05,14.0,78,21.0,9.1,0,5,7,0,2026-04-12T12:49:15.293110+05:30
Jammu,Jammu and Kashmir,32.7266,74.857,29.4,38,0.0,974.4,7.8,26.3,72,36.1,11.6,4,5,7,0,2026-04-12T12:49:15.293117+05:30
Amritsar,Punjab,31.634,74.8723,28.8,40,0.0,983.0,7.75,25.2,83,48.1,16.0,4,5,7,0,2026-04-12T12:49:15.293124+05:30
Ludhiana,Punjab,30.901,75.8573,29.8,36,0.0,980.3,7.4,30.2,78,68.5,20.0,4,5,7,0,2026-04-12T12:49:15.293130+05:30
Jalandhar,Punjab,31.326,75.5762,29.2,38,0.0,981.6,7.55,27.0,78,78.5,21.0,4,5,7,0,2026-04-12T12:49:15.293139+05:30
Dehradun,Uttarakhand,30.6284,78.0322,20.1,44,0.0,830.9,7.45,36.0,58,40.2,10.6,0,5,7,0,2026-04-12T12:49:15.293146+05:30
Shimla,Himachal Pradesh,31.1048,77.1734,18.1,47,0.0,785.9,7.65,43.2,58,40.4,11.4,0,5,7,0,2026-04-12T12:49:15.293153+05:30
Manali,Himachal Pradesh,32.2396,77.1887,20.1,39,0.0,820.6,9.85,25.6,125,13.1,5.4,0,5,7,0,2026-04-12T12:49:15.293160+05:30
Gurgaon,Haryana,28.4595,77.0266,31.9,31,0.0,982.6,7.3,33.5,786,1356.0,130.9,0,5,7,0,2026-04-12T12:49:15.293167+05:30
Noida,Uttar Pradesh,28.5355,77.391,32.0,31,0.0,985.3,7.25,34.2,786,1356.0,130.9,0,5,7,0,2026-04-12T12:49:15.293174+05:30
Ghaziabad,Uttar Pradesh,28.6692,77.4538,31.7,33,0.0,983.5,7.2,33.1,180,221.7,38.2,0,5,7,0,2026-04-12T12:49:15.293180+05:30
Faridabad,Haryana,28.4089,77.3178,32.2,29,0.0,984.8,7.3,33.5,786,1356.0,130.9,0,5,7,0,2026-04-12T12:49:15.293186+05:30
Meerut,Uttar Pradesh,28.9845,77.7064,31.5,32,0.0,982.0,7.1,33.8,180,221.7,38.2,0,5,7,0,2026-04-12T12:49:15.293193+05:30
Agra,Uttar Pradesh,27.1767,78.0081,33.9,31,0.0,988.4,7.6,33.5,424,588.6,75.4,0,5,7,0,2026-04-12T12:49:15.293199+05:30
Varanasi,Uttar Pradesh,25.3176,82.9739,37.4,21,0.0,996.2,8.3,28.8,134,281.3,50.3,0,5,10,0,2026-04-12T12:49:15.293209+05:30
Prayagraj,Uttar Pradesh,25.4358,81.8463,36.9,22,0.0,994.6,8.2,26.3,156,269.2,49.7,0,5,10,0,2026-04-12T12:49:15.293216+05:30
Gorakhpur,Uttar Pradesh,26.7606,83.3732,36.0,22,0.0,995.4,8.15,38.9,100,80.8,23.2,0,5,10,0,2026-04-12T12:49:15.293225+05:30
Bareilly,Uttar Pradesh,28.367,79.4304,33.3,27,0.0,986.6,7.45,35.6,83,100.6,27.0,0,5,7,0,2026-04-12T12:49:15.293232+05:30
Aligarh,Uttar Pradesh,27.8974,78.088,33.9,24,0.0,986.0,7.4,34.6,436,856.8,98.3,0,5,7,0,2026-04-12T12:49:15.293239+05:30
Moradabad,Uttar Pradesh,28.8386,78.7733,31.9,31,0.0,983.8,7.25,36.0,97,92.9,24.7,0,5,7,0,2026-04-12T12:49:15.293245+05:30
Saharanpur,Uttar Pradesh,29.9637,77.546,30.6,34,0.0,976.3,6.9,34.2,100,74.7,21.7,0,5,7,0,2026-04-12T12:49:15.293251+05:30
Jhansi,Uttar Pradesh,25.4484,78.5685,37.3,22,0.0,977.5,8.15,36.0,55,85.7,22.5,0,5,10,0,2026-04-12T12:49:18.559029+05:30
Surat,Gujarat,21.1702,72.8311,36.5,38,0.0,1005.8,7.8,27.0,148,85.7,48.8,0,5,7,1,2026-04-12T12:49:18.559063+05:30
Vadodara,Gujarat,22.3072,73.1812,39.2,26,0.0,1003.5,8.05,19.8,117,84.5,29.6,0,5,7,1,2026-04-12T12:49:18.559074+05:30
Rajkot,Gujarat,22.3039,70.8022,37.1,30,0.0,994.1,7.8,25.6,73,78.9,23.7,0,5,10,1,2026-04-12T12:49:18.559084+05:30
Thane,Maharashtra,19.2183,72.9781,36.4,42,0.0,1006.7,8.0,36.4,122,68.7,49.7,0,5,7,1,2026-04-12T12:49:18.559097+05:30
Nagpur,Maharashtra,21.1458,79.0882,36.5,25,0.0,973.0,8.8,16.6,67,22.5,15.6,0,5,10,0,2026-04-12T12:49:18.559106+05:30
Nashik,Maharashtra,19.9975,73.7898,36.3,20,0.0,945.8,8.25,28.1,114,43.0,24.9,0,5,10,0,2026-04-12T12:49:18.559114+05:30
Aurangabad,Maharashtra,19.8762,75.3433,38.4,17,0.0,944.2,8.95,28.4,113,33.9,20.4,0,5,10,0,2026-04-12T12:49:18.559123+05:30
Solapur,Maharashtra,17.6599,75.9064,39.7,21,0.0,956.6,9.05,27.0,86,42.7,30.9,0,5,10,0,2026-04-12T12:49:18.559131+05:30
Kolhapur,Maharashtra,16.705,74.2433,37.7,26,0.0,947.8,9.05,45.7,95,41.1,32.7,0,5,10,0,2026-04-12T12:49:18.559138+05:30
Goa,Goa,15.2993,74.124,32.6,60,0.0,997.4,9.05,31.0,105,46.3,29.6,0,5,7,1,2026-04-12T12:49:18.559145+05:30
Jodhpur,Rajasthan,26.2389,73.0243,34.7,20,0.0,984.8,8.1,16.2,97,89.9,20.3,0,5,7,0,2026-04-12T12:49:18.559152+05:30
Udaipur,Rajasthan,24.5854,73.7125,34.6,21,0.0,948.1,8.7,26.3,48,62.2,11.6,0,5,7,0,2026-04-12T12:49:18.559159+05:30
Kota,Rajasthan,25.2138,75.8648,34.7,31,0.0,979.7,8.15,22.7,61,98.3,26.5,0,5,7,0,2026-04-12T12:49:18.559165+05:30
Bikaner,Rajasthan,28.0229,73.3119,34.5,17,0.0,983.8,7.95,21.6,71,75.2,20.1,0,5,7,0,2026-04-12T12:49:18.559172+05:30
Ajmer,Rajasthan,26.4499,74.6399,33.8,17,0.0,956.6,8.05,26.3,73,133.2,26.7,0,5,7,0,2026-04-12T12:49:18.559179+05:30
Gwalior,Madhya Pradesh,26.2183,78.1828,33.7,34,0.0,983.8,7.85,31.7,102,314.8,50.6,0,5,7,0,2026-04-12T12:49:18.559186+05:30
Indore,Madhya Pradesh,22.7196,75.8577,35.8,19,0.0,948.8,8.55,27.7,81,23.5,11.3,0,5,10,0,2026-04-12T12:49:18.559192+05:30
Bhopal,Madhya Pradesh,23.2599,77.4126,37.9,18,0.0,953.9,8.5,32.4,69,18.3,10.7,0,5,10,0,2026-04-12T12:49:18.559199+05:30
Jabalpur,Madhya Pradesh,23.1815,79.9864,37.6,19,0.0,961.2,8.65,34.2,83,20.7,9.4,0,5,10,0,2026-04-12T12:49:18.559205+05:30
Ujjain,Madhya Pradesh,23.1765,75.7885,36.1,22,0.0,954.4,8.45,26.3,71,31.2,13.6,0,5,10,0,2026-04-12T12:49:18.559212+05:30
Visakhapatnam,Andhra Pradesh,17.6868,83.2185,34.4,57,0.0,1003.4,9.2,38.9,83,36.2,25.8,0,5,4,1,2026-04-12T12:49:18.559220+05:30
Vijayawada,Andhra Pradesh,16.5062,80.648,37.0,48,0.0,1001.8,9.25,36.0,65,29.3,19.3,0,5,7,1,2026-04-12T12:49:18.559227+05:30
Guntur,Andhra Pradesh,16.3067,80.4365,37.1,47,0.0,1003.0,9.25,36.0,64,28.8,19.4,0,5,7,1,2026-04-12T12:49:18.559234+05:30
Nellore,Andhra Pradesh,14.4426,79.9865,38.7,37,0.0,1004.8,9.35,34.9,57,34.6,24.8,0,5,7,1,2026-04-12T12:49:18.559241+05:30
Kurnool,Andhra Pradesh,15.8281,78.0373,40.1,26,0.0,976.1,9.25,30.6,76,36.7,24.9,0,5,10,1,2026-04-12T12:49:18.559248+05:30
Kakinada,Andhra Pradesh,16.9891,82.2475,37.4,45,0.0,1006.6,9.2,36.7,59,24.3,13.3,0,5,7,1,2026-04-12T12:49:18.559255+05:30
Tirupati,Andhra Pradesh,13.6288,79.4192,36.7,37,0.0,991.5,9.45,34.9,69,36.4,25.9,0,5,10,1,2026-04-12T12:49:18.559262+05:30
Warangal,Telangana,17.9689,79.5941,38.1,35,0.0,978.1,9.1,29.5,99,28.6,20.6,0,5,10,1,2026-04-12T12:49:18.559268+05:30
Nizamabad,Telangana,18.6725,78.0941,38.7,29,0.0,964.4,9.05,25.6,136,43.0,30.5,0,5,10,1,2026-04-12T12:49:18.559274+05:30
Mysore,Karnataka,12.2958,76.6396,34.2,38,0.0,929.1,9.55,37.4,103,35.6,25.8,0,5,7,1,2026-04-12T12:49:18.559280+05:30
Mangalore,Karnataka,12.9141,74.856,29.2,79,0.0,1006.2,9.2,22.3,94,69.8,34.5,7,5,4,1,2026-04-12T12:49:18.559287+05:30
Hubli-Dharwad,Karnataka,15.3647,75.124,36.1,31,0.0,940.7,9.25,37.4,92,43.3,31.1,0,5,10,1,2026-04-12T12:49:18.559294+05:30
Belgaum,Karnataka,15.8497,74.4977,35.4,30,0.0,926.1,9.3,46.1,94,39.5,28.7,0,5,10,0,2026-04-12T12:49:21.827596+05:30
Coimbatore,Tamil Nadu,11.0168,76.9558,35.6,37,0.0,962.0,9.5,38.9,99,34.6,25.9,0,5,10,1,2026-04-12T12:49:21.827626+05:30
Madurai,Tamil Nadu,9.9252,78.1198,36.0,43,0.0,992.8,9.4,32.0,92,29.6,20.3,0,5,10,1,2026-04-12T12:49:21.827635+05:30
Trichy,Tamil Nadu,10.7905,78.7047,35.6,47,0.0,999.6,9.4,26.3,75,20.3,13.4,0,5,10,1,2026-04-12T12:49:21.827643+05:30
Salem,Tamil Nadu,11.6643,78.146,35.6,43,0.0,977.4,9.45,25.9,83,34.6,22.6,0,5,10,1,2026-04-12T12:49:21.827650+05:30
Tirunelveli,Tamil Nadu,8.7139,77.7567,37.6,38,0.0,1002.6,9.35,40.7,88,28.8,21.4,0,5,7,1,2026-04-12T12:49:21.827658+05:30
Vellore,Tamil Nadu,12.9165,79.1325,36.6,36,0.0,984.5,9.5,32.8,86,38.3,28.2,0,5,10,1,2026-04-12T12:49:21.827664+05:30
Erode,Tamil Nadu,11.341,77.7172,36.9,39,0.0,988.7,9.45,29.2,74,31.1,20.1,0,5,10,1,2026-04-12T12:49:21.827671+05:30
Kochi,Kerala,9.9312,76.2673,29.4,81,0.0,1007.9,8.7,30.6,95,49.8,29.9,7,5,4,1,2026-04-12T12:49:21.827678+05:30
Thiruvananthapuram,Kerala,8.5241,76.9366,29.4,81,0.0,1007.3,9.2,21.6,77,59.6,30.9,7,5,4,1,2026-04-12T12:49:21.827686+05:30
Kozhikode,Kerala,11.2588,75.7804,31.3,70,0.0,1007.2,9.1,31.7,81,69.2,33.9,3,5,4,1,2026-04-12T12:49:21.827692+05:30
Thrissur,Kerala,10.5276,76.2144,34.4,59,0.0,1006.2,8.15,34.9,88,48.5,27.3,0,5,4,1,2026-04-12T12:49:21.827699+05:30
Kannur,Kerala,11.8745,75.3704,31.8,68,0.0,1006.5,9.2,33.5,101,77.1,36.7,3,5,4,1,2026-04-12T12:49:21.827706+05:30
Patna,Bihar,25.5941,85.1376,36.1,22,0.0,998.5,8.45,40.3,119,114.3,30.0,0,5,10,0,2026-04-12T12:49:21.827713+05:30
Gaya,Bihar,24.7914,85.0002,36.5,23,0.0,992.3,8.55,32.8,101,146.7,31.9,0,5,10,0,2026-04-12T12:49:21.827719+05:30
Muzaffarpur,Bihar,26.1209,85.3647,34.5,32,0.0,998.5,8.45,40.3,153,106.4,32.5,0,5,7,0,2026-04-12T12:49:21.827725+05:30
Bhagalpur,Bihar,25.2425,87.0117,33.9,34,0.0,999.2,8.5,32.0,151,113.6,38.1,0,5,7,0,2026-04-12T12:49:21.827731+05:30
Ranchi,Jharkhand,23.3441,85.3096,33.8,21,0.0,938.1,9.1,37.1,98,68.2,15.2,0,5,7,0,2026-04-12T12:49:21.827737+05:30
Jamshedpur,Jharkhand,22.8046,86.2029,35.7,27,0.0,990.1,8.9,19.4,114,128.5,29.4,0,5,10,0,2026-04-12T12:49:21.827743+05:30
Dhanbad,Jharkhand,23.7957,86.4304,37.1,19,0.0,978.6,8.85,37.8,140,123.9,29.5,0,5,10,0,2026-04-12T12:49:21.827749+05:30
Bokaro,Jharkhand,23.6693,86.1511,36.6,19,0.0,982.6,8.85,34.9,129,113.9,27.0,0,5,10,0,2026-04-12T12:49:21.827756+05:30
Bhubaneswar,Odisha,20.2961,85.8245,35.2,54,0.0,1002.0,9.05,33.1,110,69.6,35.4,0,5,7,1,2026-04-12T12:49:21.827762+05:30
Cuttack,Odisha,20.4625,85.8828,37.1,37,0.0,1003.6,9.1,34.9,110,69.6,35.4,0,5,7,1,2026-04-12T12:49:21.827768+05:30
Rourkela,Odisha,22.2604,84.8536,37.1,22,0.0,984.7,8.85,22.0,121,67.8,21.1,0,5,10,0,2026-04-12T12:49:21.827775+05:30
Raipur,Chhattisgarh,21.2514,81.6296,39.0,17,0.0,974.4,8.9,20.9,116,22.8,14.6,0,5,10,0,2026-04-12T12:49:21.827780+05:30
Bhilai,Chhattisgarh,21.1938,81.3509,38.9,17,0.0,974.7,8.9,18.4,128,26.4,19.0,0,5,10,0,2026-04-12T12:49:21.827786+05:30
Guwahati,Assam,26.1158,91.7086,28.7,63,0.0,999.3,8.4,34.6,112,82.9,38.8,7,5,7,1,2026-04-12T12:49:21.827792+05:30
Agartala,Tripura,23.8315,91.2868,34.1,41,0.0,1003.8,8.6,32.8,105,75.9,48.2,0,5,4,1,2026-04-12T12:49:21.827798+05:30
Shillong,Meghalaya,25.5788,91.8933,19.1,55,0.0,855.4,7.05,67.0,115,73.8,31.8,0,5,7,0,2026-04-12T12:49:21.827804+05:30
Imphal,Manipur,24.817,93.9368,23.2,60,0.0,922.6,9.0,70.2,98,70.1,27.6,0,5,7,0,2026-04-12T12:49:21.827811+05:30
Aizawl,Mizoram,23.7271,92.7176,27.2,40,0.0,893.6,8.85,52.6,94,91.3,28.1,4,5,7,0,2026-04-12T12:49:21.827817+05:30
Kohima,Nagaland,25.6701,94.1077,19.6,58,0.0,854.2,8.9,93.6,91,67.5,25.9,0,5,7,0,2026-04-12T12:49:21.827823+05:30
Gangtok,Sikkim,27.3314,88.6138,16.7,77,0.0,835.8,8.05,13.7,124,69.2,22.6,3,5,7,0,2026-04-12T12:49:21.827829+05:30
Siliguri,West Bengal,26.7271,88.3953,25.3,53,0.0,992.1,7.3,26.6,128,108.5,34.6,4,5,7,0,2026-04-12T12:49:25.094388+05:30
Durgapur,West Bengal,23.5204,87.3119,35.7,29,0.0,993.5,8.8,23.4,151,150.9,36.4,0,5,10,0,2026-04-12T12:49:25.094420+05:30
Asansol,West Bengal,23.6739,86.9524,36.0,27,0.0,992.0,8.85,27.4,133,143.9,34.3,0,5,10,0,2026-04-12T12:49:25.094430+05:30
Pondicherry,Puducherry,11.9139,79.8145,35.7,51,0.0,1008.2,9.35,29.2,53,16.6,9.2,0,0,7,1,2026-04-12T12:49:25.094437+05:30
Port Blair,Andaman and Nicobar Islands,11.6234,92.7265,29.5,80,0.0,1006.1,9.25,14.4,47,34.1,17.2,7,5,4,1,2026-04-12T12:49:25.094445+05:30
Haridwar,Uttarakhand,29.9457,78.1642,30.9,31,0.0,974.6,7.0,34.2,76,70.8,19.3,0,5,7,0,2026-04-12T12:49:25.094452+05:30
Rishikesh,Uttarakhand,30.0869,78.2676,30.3,30,0.0,967.2,7.1,35.3,62,75.4,17.5,0,5,7,0,2026-04-12T12:49:25.094460+05:30
Nainital,Uttarakhand,29.3919,79.4542,23.7,36,0.0,807.8,7.95,52.2,61,70.5,17.9,0,5,7,0,2026-04-12T12:49:25.094467+05:30
Mussoorie,Uttarakhand,30.4599,78.0664,21.0,42,0.0,804.1,7.4,41.0,62,68.7,17.8,0,5,7,0,2026-04-12T12:49:25.094475+05:30
Dharamshala,Himachal Pradesh,32.219,76.3234,22.4,53,0.0,870.2,7.7,23.8,85,27.5,7.2,0,5,7,0,2026-04-12T12:49:25.094481+05:30
Dalhousie,Himachal Pradesh,32.5387,75.971,20.7,48,0.0,805.4,7.95,21.2,64,53.7,15.3,0,5,7,0,2026-04-12T12:49:25.094488+05:30
Patiala,Punjab,30.3398,76.3869,30.1,36,0.0,979.4,7.0,32.0,181,486.2,53.4,0,5,7,0,2026-04-12T12:49:25.094495+05:30
Bhatinda,Punjab,30.211,74.9455,31.7,29,0.0,985.6,7.75,32.4,84,51.2,15.4,0,5,7,0,2026-04-12T12:49:25.094502+05:30
Rohtak,Haryana,28.8955,76.6066,32.3,27,0.0,983.0,7.25,36.0,505,461.0,51.2,0,5,7,0,2026-04-12T12:49:25.094509+05:30
Panipat,Haryana,29.3909,76.9635,31.3,31,0.0,981.4,7.05,33.8,885,864.3,82.7,0,5,7,0,2026-04-12T12:49:25.094516+05:30
Mathura,Uttar Pradesh,27.4924,77.6737,33.7,26,0.0,987.8,7.55,29.5,437,853.1,97.1,0,5,7,0,2026-04-12T12:49:25.094522+05:30
Vrindavan,Uttar Pradesh,27.5823,77.7027,33.5,25,0.0,988.0,7.5,33.1,437,853.1,97.1,0,5,7,0,2026-04-12T12:49:25.094529+05:30
Ayodhya,Uttar Pradesh,26.7922,82.1998,37.0,19,0.0,993.9,7.9,38.2,114,102.7,25.4,0,5,10,0,2026-04-12T12:49:25.094535+05:30
Ratlam,Madhya Pradesh,23.3315,75.0367,34.5,28,0.0,955.5,8.35,25.2,57,40.7,14.3,0,5,7,0,2026-04-12T12:49:25.094541+05:30
Sagar,Madhya Pradesh,23.8388,78.7378,38.1,17,0.0,950.2,8.5,32.8,65,15.5,7.6,0,5,10,0,2026-04-12T12:49:25.094548+05:30
Satna,Madhya Pradesh,24.6005,80.8322,38.5,16,0.0,970.0,8.5,40.0,88,34.8,11.9,0,5,10,0,2026-04-12T12:49:25.094554+05:30
Akola,Maharashtra,20.7002,77.0082,39.1,18,0.0,974.5,8.8,24.1,75,32.2,23.2,0,5,10,0,2026-04-12T12:49:25.094561+05:30
Amravati,Maharashtra,20.9374,77.7796,38.2,18,0.0,967.1,8.8,20.5,76,24.9,16.7,0,5,10,0,2026-04-12T12:49:25.094568+05:30
Latur,Maharashtra,18.4088,76.5604,36.5,22,0.0,940.4,9.05,24.5,85,38.0,24.7,0,5,10,0,2026-04-12T12:49:25.094574+05:30
Nanded,Maharashtra,19.1383,77.3091,38.1,21,0.0,968.5,8.95,14.8,98,36.4,23.5,0,5,10,0,2026-04-12T12:49:25.094580+05:30
Gulbarga,Karnataka,17.3297,76.8343,39.4,26,0.0,958.3,9.1,28.4,89,39.8,28.5,0,5,10,1,2026-04-12T12:49:25.094586+05:30
Bidar,Karnataka,17.9104,77.5199,37.4,27,0.0,935.9,9.1,26.6,89,35.5,23.3,0,5,10,0,2026-04-12T12:49:25.094592+05:30
Hospet,Karnataka,15.2689,76.3909,34.6,45,0.0,955.7,9.3,24.8,98,42.0,31.4,0,5,7,1,2026-04-12T12:49:25.094598+05:30
Tirupur,Tamil Nadu,11.1085,77.3411,36.7,37,0.0,975.2,9.5,31.0,91,33.6,23.7,0,5,10,1,2026-04-12T12:49:25.094604+05:30
Alappuzha,Kerala,9.4981,76.3388,29.5,81,0.0,1008.1,9.2,26.6,95,57.7,32.2,7,0,4,1,2026-04-12T12:49:25.094610+05:30
Munnar,Kerala,10.0889,77.0595,31.6,39,0.0,859.8,9.75,27.7,94,29.3,19.1,0,5,7,0,2026-04-12T12:49:25.094617+05:30
Silchar,Assam,24.8333,92.7789,27.8,72,0.0,1004.3,8.65,49.7,129,71.7,41.2,7,5,4,1,2026-04-12T12:49:25.094623+05:30
Dibrugarh,Assam,27.4728,94.912,23.3,79,0.0,995.5,8.2,33.5,97,62.6,39.2,3,5,7,1,2026-04-12T12:49:25.094629+05:30
