city,state,latitude,longitude,temp,humidity,rain,pressure,uv_index,wind_gusts,aqi,pm10,pm2_5,mosquito_risk,arthritis_risk,migraine_risk,frizz_risk,updated_at
Delhi,Delhi,28.6139,77.209,26.9,39,0.0,983.8,7.2,34.6,396,905.2,127.1,4,5,7,0,2026-04-12T21:08:58.101692+05:30
Mumbai,Maharashtra,19.076,72.8777,29.0,78,0.0,1007.9,8.0,22.3,155,68.0,37.3,7,5,4,1,2026-04-12T21:08:58.101733+05:30
Bangalore,Karnataka,12.9716,77.5946,29.0,43,0.0,912.8,9.65,31.0,128,34.2,29.6,4,5,7,0,2026-04-12T21:08:58.101748+05:30
Hyderabad,Telangana,17.385,78.4867,33.6,34,0.0,953.1,9.25,29.2,147,39.9,33.3,0,5,7,0,2026-04-12T21:08:58.101758+05:30
Chennai,Tamil Nadu,13.0827,80.2707,28.4,77,0.0,1008.4,9.4,34.6,44,13.6,8.0,7,0,4,1,2026-04-12T21:08:58.101768+05:30
Kolkata,West Bengal,22.5726,88.3639,26.6,89,0.0,1005.5,8.8,22.3,130,34.8,26.4,7,5,4,1,2026-04-12T21:08:58.101776+05:30
Pune,Maharashtra,18.5204,73.8567,29.6,41,0.0,948.4,8.55,42.5,166,41.0,34.6,4,5,7,0,2026-04-12T21:08:58.101787+05:30
Ahmedabad,Gujarat,23.0225,72.5714,32.6,25,0.0,1000.8,8.1,22.3,110,58.0,28.7,0,5,4,0,2026-04-12T21:08:58.101795+05:30
Jaipur,Rajasthan,26.9124,75.7873,28.4,24,0.0,960.7,7.85,30.2,143,190.0,37.1,4,5,7,0,2026-04-12T21:08:58.101803+05:30
Lucknow,Uttar Pradesh,26.8467,80.9462,28.2,38,0.0,992.6,7.7,29.2,151,217.9,49.4,4,5,7,0,2026-04-12T21:08:58.101810+05:30
Kanpur,Uttar Pradesh,26.4499,80.3319,26.5,56,0.0,991.2,7.75,24.5,342,458.2,70.3,4,5,7,1,2026-04-12T21:08:58.101818+05:30
Chandigarh,Chandigarh,30.7333,76.7794,21.7,61,0.0,969.7,7.1,31.7,138,29.8,19.0,3,5,7,0,2026-04-12T21:08:58.101825+05:30
Srinagar,Jammu and Kashmir,34.0837,74.7973,12.0,73,0.0,839.9,8.05,17.3,124,34.5,29.6,3,5,7,0,2026-04-12T21:08:58.101832+05:30
Jammu,Jammu and Kashmir,32.7266,74.857,22.8,59,0.0,973.9,7.8,27.7,104,47.5,28.8,0,5,7,0,2026-04-12T21:08:58.101839+05:30
Amritsar,Punjab,31.634,74.8723,22.0,57,0.0,982.4,7.75,25.6,125,44.9,28.5,0,5,7,0,2026-04-12T21:08:58.101845+05:30
Ludhiana,Punjab,30.901,75.8573,24.0,48,0.0,980.4,7.4,30.2,111,31.7,21.9,0,5,7,0,2026-04-12T21:08:58.101851+05:30
Jalandhar,Punjab,31.326,75.5762,23.2,54,0.0,981.4,7.55,27.0,118,43.9,22.7,0,5,7,0,2026-04-12T21:08:58.101859+05:30
Dehradun,Uttarakhand,30.6284,78.0322,13.5,75,0.0,828.6,7.5,33.5,133,39.6,21.4,3,5,7,0,2026-04-12T21:08:58.101866+05:30
Shimla,Himachal Pradesh,31.1048,77.1734,11.9,72,0.0,783.3,7.65,41.0,133,41.2,16.1,3,5,7,0,2026-04-12T21:08:58.101872+05:30
Manali,Himachal Pradesh,32.2396,77.1887,13.0,76,0.0,818.5,9.85,29.2,165,23.7,10.2,3,5,7,0,2026-04-12T21:08:58.101879+05:30
Gurgaon,Haryana,28.4595,77.0266,24.5,48,0.0,982.1,7.3,33.5,1086,1385.8,179.3,0,5,7,0,2026-04-12T21:08:58.101885+05:30
Noida,Uttar Pradesh,28.5355,77.391,26.6,40,0.0,985.2,7.25,33.8,1086,1385.8,179.3,4,5,7,0,2026-04-12T21:08:58.101892+05:30
Ghaziabad,Uttar Pradesh,28.6692,77.4538,25.1,46,0.0,983.4,7.2,32.8,192,663.1,98.7,4,5,7,0,2026-04-12T21:08:58.101898+05:30
Faridabad,Haryana,28.4089,77.3178,25.8,41,0.0,984.5,7.3,33.1,1086,1385.8,179.3,4,5,7,0,2026-04-12T21:08:58.101904+05:30
Meerut,Uttar Pradesh,28.9845,77.7064,23.2,51,0.0,982.0,7.1,33.1,192,663.1,98.7,0,5,7,0,2026-04-12T21:08:58.101911+05:30
Agra,Uttar Pradesh,27.1767,78.0081,27.1,41,0.0,988.1,7.6,33.5,654,1389.5,155.1,4,5,7,0,2026-04-12T21:08:58.101917+05:30
Varanasi,Uttar Pradesh,25.3176,82.9739,28.7,38,0.0,996.0,8.35,25.9,150,48.5,24.2,4,5,7,0,2026-04-12T21:08:58.101926+05:30
Prayagraj,Uttar Pradesh,25.4358,81.8463,29.5,40,0.0,994.8,8.2,24.1,149,84.1,31.8,4,5,7,0,2026-04-12T21:08:58.101933+05:30
Gorakhpur,Uttar Pradesh,26.7606,83.3732,28.1,34,0.0,995.4,8.15,36.0,124,60.8,25.1,4,5,7,0,2026-04-12T21:08:58.101942+05:30
Bareilly,Uttar Pradesh,28.367,79.4304,24.1,55,0.0,986.6,7.45,34.9,128,36.4,24.3,0,5,7,0,2026-04-12T21:08:58.101949+05:30
Aligarh,Uttar Pradesh,27.8974,78.088,24.0,43,0.0,986.0,7.4,34.2,551,1136.2,154.6,0,5,7,0,2026-04-12T21:08:58.101955+05:30
Moradabad,Uttar Pradesh,28.8386,78.7733,23.4,55,0.0,983.7,7.3,36.0,120,149.5,43.1,0,5,7,0,2026-04-12T21:08:58.101961+05:30
Saharanpur,Uttar Pradesh,29.9637,77.546,21.5,63,0.0,976.1,6.9,32.0,134,75.9,25.5,3,5,7,0,2026-04-12T21:08:58.101967+05:30
Jhansi,Uttar Pradesh,25.4484,78.5685,27.7,38,0.0,978.2,8.15,36.0,99,81.0,28.9,4,5,7,0,2026-04-12T21:09:01.397834+05:30
Surat,Gujarat,21.1702,72.8311,28.6,73,0.0,1005.6,7.8,26.6,152,89.2,73.6,7,5,4,1,2026-04-12T21:09:01.397864+05:30
Vadodara,Gujarat,22.3072,73.1812,31.2,42,0.0,1002.8,8.05,22.3,154,90.1,54.7,0,5,4,1,2026-04-12T21:09:01.397874+05:30
Rajkot,Gujarat,22.3039,70.8022,31.5,31,0.0,993.3,7.8,23.4,76,46.7,23.2,0,5,7,0,2026-04-12T21:09:01.397882+05:30
Thane,Maharashtra,19.2183,72.9781,28.2,78,0.0,1007.4,8.0,34.6,155,68.0,37.3,7,5,4,1,2026-04-12T21:09:01.397889+05:30
Nagpur,Maharashtra,21.1458,79.0882,26.1,58,0.0,971.9,8.8,14.8,178,34.9,28.8,4,5,7,1,2026-04-12T21:09:01.397897+05:30
Nashik,Maharashtra,19.9975,73.7898,28.6,39,0.0,946.0,8.25,33.1,137,44.0,34.0,4,5,7,0,2026-04-12T21:09:01.397903+05:30
Aurangabad,Maharashtra,19.8762,75.3433,31.9,27,0.0,943.5,8.95,31.0,150,40.5,28.9,0,5,7,0,2026-04-12T21:09:01.397910+05:30
Solapur,Maharashtra,17.6599,75.9064,35.4,28,0.0,955.8,9.05,27.0,140,39.1,30.9,0,5,10,0,2026-04-12T21:09:01.397918+05:30
Kolhapur,Maharashtra,16.705,74.2433,26.3,62,0.0,947.9,9.05,49.3,135,34.9,31.0,7,5,7,1,2026-04-12T21:09:01.397925+05:30
Goa,Goa,15.2993,74.124,28.7,77,0.0,998.5,9.05,32.8,97,42.4,28.3,7,5,7,1,2026-04-12T21:09:01.397932+05:30
Jodhpur,Rajasthan,26.2389,73.0243,28.9,32,0.0,983.4,8.1,16.2,115,58.4,23.7,4,5,7,0,2026-04-12T21:09:01.397938+05:30
Udaipur,Rajasthan,24.5854,73.7125,27.3,24,0.0,947.3,8.7,28.4,101,28.5,11.6,4,5,7,0,2026-04-12T21:09:01.397945+05:30
Kota,Rajasthan,25.2138,75.8648,28.7,40,0.0,978.9,8.15,24.1,118,90.1,32.2,4,5,7,0,2026-04-12T21:09:01.397952+05:30
Bikaner,Rajasthan,28.0229,73.3119,30.9,23,0.0,982.6,7.95,21.2,106,34.6,13.6,0,5,7,0,2026-04-12T21:09:01.397959+05:30
Ajmer,Rajasthan,26.4499,74.6399,28.3,27,0.0,955.4,8.05,26.3,110,38.8,18.9,4,5,7,0,2026-04-12T21:09:01.397965+05:30
Gwalior,Madhya Pradesh,26.2183,78.1828,28.0,49,0.0,983.8,7.85,33.1,114,147.6,35.2,4,5,7,1,2026-04-12T21:09:01.397971+05:30
Indore,Madhya Pradesh,22.7196,75.8577,26.4,45,0.0,948.0,8.55,27.7,86,46.7,33.4,4,5,7,0,2026-04-12T21:09:01.397978+05:30
Bhopal,Madhya Pradesh,23.2599,77.4126,29.2,31,0.0,953.4,8.5,32.4,99,27.6,17.9,4,5,7,0,2026-04-12T21:09:01.397984+05:30
Jabalpur,Madhya Pradesh,23.1815,79.9864,27.6,42,0.0,960.6,8.65,33.8,124,23.7,20.4,4,5,7,0,2026-04-12T21:09:01.397990+05:30
Ujjain,Madhya Pradesh,23.1765,75.7885,26.9,40,0.0,953.8,8.45,27.4,73,65.4,37.6,4,5,7,0,2026-04-12T21:09:01.397997+05:30
Visakhapatnam,Andhra Pradesh,17.6868,83.2185,28.3,82,0.0,1005.1,9.15,38.9,77,24.7,15.7,7,5,4,1,2026-04-12T21:09:01.398004+05:30
Vijayawada,Andhra Pradesh,16.5062,80.648,28.5,75,0.0,1003.0,9.25,35.6,57,19.6,13.5,7,5,4,1,2026-04-12T21:09:01.398010+05:30
Guntur,Andhra Pradesh,16.3067,80.4365,27.9,80,0.0,1004.2,9.25,34.9,56,21.3,14.6,7,5,4,1,2026-04-12T21:09:01.398017+05:30
Nellore,Andhra Pradesh,14.4426,79.9865,27.9,79,0.0,1006.5,9.35,34.6,62,18.3,12.3,7,5,4,1,2026-04-12T21:09:01.398024+05:30
Kurnool,Andhra Pradesh,15.8281,78.0373,35.6,30,0.0,975.6,9.25,31.0,122,41.0,32.0,0,5,10,0,2026-04-12T21:09:01.398031+05:30
Kakinada,Andhra Pradesh,16.9891,82.2475,28.5,79,0.0,1008.7,9.2,36.7,54,20.7,10.9,7,0,4,1,2026-04-12T21:09:01.398038+05:30
Tirupati,Andhra Pradesh,13.6288,79.4192,29.9,56,0.0,992.8,9.45,32.0,86,25.7,20.5,4,5,7,1,2026-04-12T21:09:01.398045+05:30
Warangal,Telangana,17.9689,79.5941,32.5,47,0.0,977.5,9.1,29.5,129,34.8,30.0,0,5,7,1,2026-04-12T21:09:01.398051+05:30
Nizamabad,Telangana,18.6725,78.0941,31.9,37,0.0,964.0,9.05,26.3,159,56.5,44.1,0,5,7,0,2026-04-12T21:09:01.398057+05:30
Mysore,Karnataka,12.2958,76.6396,26.2,72,0.0,929.5,9.55,44.3,119,49.7,40.2,7,5,7,1,2026-04-12T21:09:01.398063+05:30
Mangalore,Karnataka,12.9141,74.856,29.7,78,0.0,1007.4,9.2,24.1,96,59.8,30.9,7,5,4,1,2026-04-12T21:09:01.398069+05:30
Hubli-Dharwad,Karnataka,15.3647,75.124,26.2,80,0.0,941.3,9.25,35.6,158,36.1,30.0,7,5,7,1,2026-04-12T21:09:01.398076+05:30
Belgaum,Karnataka,15.8497,74.4977,24.3,86,0.0,926.1,9.25,41.8,152,33.5,28.1,3,5,7,1,2026-04-12T21:09:04.696570+05:30
Coimbatore,Tamil Nadu,11.0168,76.9558,26.5,78,0.0,962.8,9.5,37.4,109,33.6,27.2,7,5,7,1,2026-04-12T21:09:04.696601+05:30
Madurai,Tamil Nadu,9.9252,78.1198,29.8,67,0.0,994.5,9.4,32.8,88,30.0,26.4,7,5,7,1,2026-04-12T21:09:04.696657+05:30
Trichy,Tamil Nadu,10.7905,78.7047,29.5,57,0.0,1000.9,9.4,27.4,66,17.8,15.1,4,5,4,1,2026-04-12T21:09:04.696670+05:30
Salem,Tamil Nadu,11.6643,78.146,31.4,48,0.0,977.8,9.45,25.9,101,25.5,21.4,0,5,7,1,2026-04-12T21:09:04.696678+05:30
Tirunelveli,Tamil Nadu,8.7139,77.7567,29.3,71,0.0,1004.1,9.35,37.4,84,27.0,21.5,7,5,4,1,2026-04-12T21:09:04.696686+05:30
Vellore,Tamil Nadu,12.9165,79.1325,29.7,47,0.0,985.7,9.5,33.5,86,33.1,27.8,4,5,7,1,2026-04-12T21:09:04.696694+05:30
Erode,Tamil Nadu,11.341,77.7172,32.5,44,0.0,989.2,9.4,29.5,86,21.3,17.3,0,5,7,1,2026-04-12T21:09:04.696701+05:30
Kochi,Kerala,9.9312,76.2673,29.2,81,0.0,1009.5,8.9,28.1,98,44.9,32.8,7,0,4,1,2026-04-12T21:09:04.696708+05:30
Thiruvananthapuram,Kerala,8.5241,76.9366,28.9,81,0.0,1008.9,9.2,21.6,98,42.1,23.5,7,0,4,1,2026-04-12T21:09:04.696715+05:30
Kozhikode,Kerala,11.2588,75.7804,29.9,77,0.0,1008.4,9.1,32.4,91,63.3,31.2,7,0,4,1,2026-04-12T21:09:04.696721+05:30
Thrissur,Kerala,10.5276,76.2144,29.3,80,0.0,1007.8,9.15,32.0,91,49.6,32.7,7,5,4,1,2026-04-12T21:09:04.696728+05:30
Kannur,Kerala,11.8745,75.3704,29.5,77,0.0,1008.0,9.2,31.3,109,75.0,45.2,7,0,4,1,2026-04-12T21:09:04.696735+05:30
Patna,Bihar,25.5941,85.1376,29.4,39,0.0,998.6,8.45,36.4,125,89.4,38.6,4,5,7,0,2026-04-12T21:09:04.696742+05:30
Gaya,Bihar,24.7914,85.0002,30.1,35,0.0,992.4,8.55,26.3,150,87.8,35.9,0,5,7,0,2026-04-12T21:09:04.696749+05:30
Muzaffarpur,Bihar,26.1209,85.3647,26.8,55,0.0,998.7,8.45,34.6,150,75.2,39.0,4,5,7,1,2026-04-12T21:09:04.696755+05:30
Bhagalpur,Bihar,25.2425,87.0117,28.4,53,0.0,999.4,8.5,26.6,143,144.4,58.1,4,5,7,1,2026-04-12T21:09:04.696762+05:30
Ranchi,Jharkhand,23.3441,85.3096,27.6,35,0.0,938.0,9.1,30.6,116,31.7,20.1,4,5,7,0,2026-04-12T21:09:04.696768+05:30
Jamshedpur,Jharkhand,22.8046,86.2029,28.3,52,0.0,989.8,8.9,18.4,131,49.9,24.3,4,5,7,1,2026-04-12T21:09:04.696774+05:30
Dhanbad,Jharkhand,23.7957,86.4304,29.7,36,0.0,979.0,8.85,29.5,123,91.0,67.1,4,5,7,0,2026-04-12T21:09:04.696780+05:30
Bokaro,Jharkhand,23.6693,86.1511,29.1,39,0.0,983.1,8.85,30.2,121,72.4,54.7,4,5,7,0,2026-04-12T21:09:04.696787+05:30
Bhubaneswar,Odisha,20.2961,85.8245,27.2,89,0.0,1003.7,9.05,32.8,119,26.0,22.1,7,5,4,1,2026-04-12T21:09:04.696794+05:30
Cuttack,Odisha,20.4625,85.8828,27.5,87,0.0,1005.4,9.1,34.6,119,26.0,22.1,7,5,4,1,2026-04-12T21:09:04.696801+05:30
Rourkela,Odisha,22.2604,84.8536,29.0,40,0.0,984.2,8.85,17.6,164,57.5,33.2,4,5,7,0,2026-04-12T21:09:04.696808+05:30
Raipur,Chhattisgarh,21.2514,81.6296,31.1,30,0.0,973.6,8.9,19.8,182,47.7,40.5,0,5,7,0,2026-04-12T21:09:04.696814+05:30
Bhilai,Chhattisgarh,21.1938,81.3509,29.8,34,0.0,973.8,8.9,15.8,157,49.0,42.4,4,5,7,0,2026-04-12T21:09:04.696821+05:30
Guwahati,Assam,26.1158,91.7086,24.1,84,0.0,1001.9,8.4,30.2,125,65.4,44.7,3,5,4,1,2026-04-12T21:09:04.696828+05:30
Agartala,Tripura,23.8315,91.2868,25.0,83,0.0,1006.0,8.6,29.5,117,49.0,32.6,7,5,4,1,2026-04-12T21:09:04.696834+05:30
Shillong,Meghalaya,25.5788,91.8933,14.7,77,0.0,855.7,7.05,64.4,117,52.2,35.3,3,5,7,0,2026-04-12T21:09:04.696841+05:30
Imphal,Manipur,24.817,93.9368,17.9,82,0.0,923.2,9.0,62.6,108,82.2,49.2,3,10,7,0,2026-04-12T21:09:04.696848+05:30
Aizawl,Mizoram,23.7271,92.7176,19.4,75,0.0,893.0,8.85,44.3,97,69.2,34.8,3,5,7,0,2026-04-12T21:09:04.696855+05:30
Kohima,Nagaland,25.6701,94.1077,15.2,65,0.0,854.0,8.9,88.9,99,75.2,40.4,3,5,7,0,2026-04-12T21:09:04.696861+05:30
Gangtok,Sikkim,27.3314,88.6138,14.1,87,0.1,836.3,8.65,16.6,142,104.5,40.7,6,10,7,0,2026-04-12T21:09:04.696868+05:30
Siliguri,West Bengal,26.7271,88.3953,21.4,66,0.0,993.3,7.3,18.7,137,129.9,53.0,3,5,7,0,2026-04-12T21:09:07.994110+05:30
Durgapur,West Bengal,23.5204,87.3119,29.1,44,0.0,994.0,8.8,21.2,134,84.5,54.9,4,5,7,0,2026-04-12T21:09:07.994146+05:30
Asansol,West Bengal,23.6739,86.9524,29.7,46,0.0,992.6,8.85,23.4,120,74.7,48.0,4,5,7,1,2026-04-12T21:09:07.994159+05:30
Pondicherry,Puducherry,11.9139,79.8145,26.6,87,0.0,1009.7,9.35,29.5,40,10.1,5.9,7,0,4,1,2026-04-12T21:09:07.994169+05:30
Port Blair,Andaman and Nicobar Islands,11.6234,92.7265,29.2,78,0.0,1008.2,9.25,15.8,55,32.4,16.4,7,0,4,1,2026-04-12T21:09:07.994178+05:30
Haridwar,Uttarakhand,29.9457,78.1642,21.9,63,0.0,974.6,7.0,33.8,136,58.1,23.7,3,5,7,0,2026-04-12T21:09:07.994188+05:30
Rishikesh,Uttarakhand,30.0869,78.2676,19.9,70,0.0,967.3,7.1,34.2,136,44.1,21.0,3,5,7,0,2026-04-12T21:09:07.994197+05:30
Nainital,Uttarakhand,29.3919,79.4542,17.4,50,0.0,805.3,7.95,52.2,127,43.0,20.6,0,5,7,0,2026-04-12T21:09:07.994206+05:30
Mussoorie,Uttarakhand,30.4599,78.0664,14.5,61,0.0,801.3,7.35,37.8,139,43.3,25.2,3,5,7,0,2026-04-12T21:09:07.994215+05:30
Dharamshala,Himachal Pradesh,32.219,76.3234,17.9,61,0.0,869.2,7.7,23.4,118,37.0,14.7,3,5,7,0,2026-04-12T21:09:07.994224+05:30
Dalhousie,Himachal Pradesh,32.5387,75.971,14.9,63,0.0,803.0,7.95,20.5,113,48.2,24.1,3,5,7,0,2026-04-12T21:09:07.994233+05:30
Patiala,Punjab,30.3398,76.3869,22.7,53,0.0,979.5,7.0,32.0,324,488.0,65.2,0,5,7,0,2026-04-12T21:09:07.994243+05:30
Bhatinda,Punjab,30.211,74.9455,24.6,42,0.0,985.2,7.75,32.0,135,37.4,19.6,0,5,7,0,2026-04-12T21:09:07.994255+05:30
Rohtak,Haryana,28.8955,76.6066,24.3,45,0.0,982.6,7.25,36.0,695,1039.4,139.2,0,5,7,0,2026-04-12T21:09:07.994264+05:30
Panipat,Haryana,29.3909,76.9635,22.9,49,0.0,981.2,7.05,33.8,1130,1389.5,173.7,0,5,7,0,2026-04-12T21:09:07.994273+05:30
Mathura,Uttar Pradesh,27.4924,77.6737,25.9,41,0.0,987.3,7.55,28.8,733,1277.8,155.1,4,5,7,0,2026-04-12T21:09:07.994281+05:30
Vrindavan,Uttar Pradesh,27.5823,77.7027,24.3,43,0.0,987.7,7.5,32.0,733,1277.8,155.1,0,5,7,0,2026-04-12T21:09:07.994290+05:30
Ayodhya,Uttar Pradesh,26.7922,82.1998,28.2,36,0.0,993.7,7.9,36.0,120,88.2,30.2,4,5,7,0,2026-04-12T21:09:07.994296+05:30
Ratlam,Madhya Pradesh,23.3315,75.0367,27.7,49,0.0,954.5,8.35,26.6,76,51.3,23.9,4,5,7,0,2026-04-12T21:09:07.994302+05:30
Sagar,Madhya Pradesh,23.8388,78.7378,28.6,30,0.0,950.0,8.5,33.1,107,38.2,16.9,4,5,7,0,2026-04-12T21:09:07.994308+05:30
Satna,Madhya Pradesh,24.6005,80.8322,30.1,33,0.0,970.9,8.5,37.1,125,66.4,21.8,0,5,7,0,2026-04-12T21:09:07.994315+05:30
Akola,Maharashtra,20.7002,77.0082,30.3,38,0.0,974.0,8.75,27.4,155,30.6,20.5,0,5,7,0,2026-04-12T21:09:07.994322+05:30
Amravati,Maharashtra,20.9374,77.7796,29.0,43,0.0,966.1,8.75,20.5,159,35.6,25.4,4,5,7,0,2026-04-12T21:09:07.994328+05:30
Latur,Maharashtra,18.4088,76.5604,30.3,42,0.0,939.3,9.05,24.5,135,35.7,27.4,0,5,7,0,2026-04-12T21:09:07.994334+05:30
Nanded,Maharashtra,19.1383,77.3091,31.1,45,0.0,967.6,8.95,14.8,160,51.0,39.0,0,5,7,1,2026-04-12T21:09:07.994340+05:30
Gulbarga,Karnataka,17.3297,76.8343,34.9,33,0.0,957.8,9.1,28.4,154,35.4,28.9,0,5,7,1,2026-04-12T21:09:07.994346+05:30
Bidar,Karnataka,17.9104,77.5199,32.6,39,0.0,935.6,9.1,26.6,141,36.0,28.5,0,5,7,1,2026-04-12T21:09:07.994352+05:30
Hospet,Karnataka,15.2689,76.3909,32.5,56,0.0,955.5,9.3,26.6,165,52.7,43.2,0,5,7,1,2026-04-12T21:09:07.994359+05:30
Tirupur,Tamil Nadu,11.1085,77.3411,31.0,54,0.0,976.1,9.5,29.2,104,26.5,21.0,0,5,7,1,2026-04-12T21:09:07.994365+05:30
Alappuzha,Kerala,9.4981,76.3388,28.5,83,0.0,1009.9,8.8,24.5,97,46.8,28.3,7,0,4,1,2026-04-12T21:09:07.994371+05:30
Munnar,Kerala,10.0889,77.0595,22.7,91,0.0,858.4,9.75,30.6,90,37.7,31.5,3,5,7,1,2026-04-12T21:09:07.994378+05:30
Silchar,Assam,24.8333,92.7789,24.4,83,0.0,1005.1,8.65,38.2,145,95.9,72.2,3,5,4,1,2026-04-12T21:09:07.994384+05:30
Dibrugarh,Assam,27.4728,94.912,21.6,73,0.0,997.0,7.65,32.0,96,46.2,35.5,3,5,7,1,2026-04-12T21:09:07.994390+05:30
