city,state,latitude,longitude,temp,humidity,rain,pressure,uv_index,wind_gusts,aqi,pm10,pm2_5,mosquito_risk,arthritis_risk,migraine_risk,frizz_risk,updated_at
Delhi,Delhi,28.6139,77.209,18.3,70,0.0,986.9,5.85,36.4,219,303.6,81.0,3,5,3,0,2026-03-03T01:09:12.759098+05:30
Mumbai,Maharashtra,19.076,72.8777,26.6,78,0.0,1011.0,7.35,27.0,89,39.7,32.9,7,0,4,1,2026-03-03T01:09:12.759133+05:30
Bangalore,Karnataka,12.9716,77.5946,21.6,61,0.0,912.5,9.1,39.6,130,46.9,46.1,3,5,7,0,2026-03-03T01:09:12.759148+05:30
Hyderabad,Telangana,17.385,78.4867,24.5,66,0.0,954.9,8.35,25.2,140,63.6,62.6,3,5,7,1,2026-03-03T01:09:12.759159+05:30
Chennai,Tamil Nadu,13.0827,80.2707,24.5,83,0.0,1009.4,8.8,29.2,123,48.4,44.4,3,0,4,1,2026-03-03T01:09:12.759168+05:30
Kolkata,West Bengal,22.5726,88.3639,23.4,71,0.0,1008.5,7.7,17.3,159,125.7,115.5,3,0,4,1,2026-03-03T01:09:12.759176+05:30
Pune,Maharashtra,18.5204,73.8567,22.5,73,0.0,950.3,7.9,31.0,94,43.9,41.3,3,5,7,1,2026-03-03T01:09:12.759187+05:30
Ahmedabad,Gujarat,23.0225,72.5714,24.9,58,0.0,1006.1,7.15,19.4,101,67.5,56.6,0,5,4,1,2026-03-03T01:09:12.759195+05:30
Jaipur,Rajasthan,26.9124,75.7873,22.5,43,0.0,963.9,6.6,32.4,101,88.9,43.3,0,5,7,0,2026-03-03T01:09:12.759202+05:30
Lucknow,Uttar Pradesh,26.8467,80.9462,19.1,72,0.0,996.9,6.3,35.3,152,275.7,73.1,3,5,7,0,2026-03-03T01:09:12.759209+05:30
Kanpur,Uttar Pradesh,26.4499,80.3319,18.4,82,0.0,995.4,6.3,28.4,160,352.0,71.9,3,10,7,0,2026-03-03T01:09:12.759217+05:30
Chandigarh,Chandigarh,30.7333,76.7794,17.4,63,0.0,971.9,5.7,34.9,81,29.5,27.1,3,5,3,0,2026-03-03T01:09:12.759224+05:30
Srinagar,Jammu and Kashmir,34.0837,74.7973,4.1,63,0.0,840.3,6.6,17.3,146,94.3,82.2,3,5,7,1,2026-03-03T01:09:12.759231+05:30
Jammu,Jammu and Kashmir,32.7266,74.857,18.6,60,0.0,976.1,6.3,24.8,99,54.9,52.4,0,5,7,0,2026-03-03T01:09:12.759239+05:30
Amritsar,Punjab,31.634,74.8723,16.2,74,0.0,984.7,6.25,26.3,133,35.2,28.5,3,5,7,0,2026-03-03T01:09:12.759245+05:30
Ludhiana,Punjab,30.901,75.8573,18.2,63,0.0,982.7,5.9,29.2,156,72.2,57.3,3,5,3,0,2026-03-03T01:09:12.759254+05:30
Jalandhar,Punjab,31.326,75.5762,19.2,61,0.0,983.9,6.1,25.6,155,81.7,56.5,3,5,7,0,2026-03-03T01:09:12.759262+05:30
Dehradun,Uttarakhand,30.6284,78.0322,11.3,63,0.0,829.4,6.05,31.3,59,27.4,23.5,3,5,7,0,2026-03-03T01:09:12.759270+05:30
Shimla,Himachal Pradesh,31.1048,77.1734,7.8,62,0.0,782.6,6.1,45.0,73,37.6,29.8,3,5,7,0,2026-03-03T01:09:12.759276+05:30
Manali,Himachal Pradesh,32.2396,77.1887,13.9,14,0.0,819.5,7.45,39.2,55,19.3,16.1,0,5,7,1,2026-03-03T01:09:12.759283+05:30
Gurgaon,Haryana,28.4595,77.0266,15.9,80,0.0,985.3,5.95,33.8,911,920.1,138.8,3,5,3,0,2026-03-03T01:09:12.759289+05:30
Noida,Uttar Pradesh,28.5355,77.391,18.5,69,0.0,988.4,5.85,35.6,911,920.1,138.8,3,5,3,0,2026-03-03T01:09:12.759295+05:30
Ghaziabad,Uttar Pradesh,28.6692,77.4538,18.2,70,0.0,986.5,5.8,34.9,185,296.2,79.4,3,5,3,0,2026-03-03T01:09:12.759301+05:30
Faridabad,Haryana,28.4089,77.3178,18.5,64,0.0,987.6,5.85,32.4,911,920.1,138.8,3,5,3,0,2026-03-03T01:09:12.759308+05:30
Meerut,Uttar Pradesh,28.9845,77.7064,16.3,74,0.0,984.9,5.7,40.7,185,296.2,79.4,3,5,3,0,2026-03-03T01:09:12.759315+05:30
Agra,Uttar Pradesh,27.1767,78.0081,18.6,72,0.0,991.7,6.15,31.7,373,635.2,109.0,3,5,7,0,2026-03-03T01:09:12.759321+05:30
Varanasi,Uttar Pradesh,25.3176,82.9739,18.1,71,0.0,1001.2,6.95,24.8,93,48.1,32.2,3,5,4,0,2026-03-03T01:09:12.759330+05:30
Prayagraj,Uttar Pradesh,25.4358,81.8463,19.0,68,0.0,999.5,6.8,24.1,102,71.2,38.1,3,5,7,0,2026-03-03T01:09:12.759337+05:30
Gorakhpur,Uttar Pradesh,26.7606,83.3732,16.7,64,0.0,1000.0,6.7,21.6,125,84.5,48.4,3,5,4,0,2026-03-03T01:09:12.759343+05:30
Bareilly,Uttar Pradesh,28.367,79.4304,16.5,71,0.0,989.9,6.0,30.6,135,192.8,60.5,3,5,3,0,2026-03-03T01:09:12.759349+05:30
Aligarh,Uttar Pradesh,27.8974,78.088,17.1,74,0.0,989.4,5.9,35.6,552,635.2,118.0,3,5,3,0,2026-03-03T01:09:12.759355+05:30
Moradabad,Uttar Pradesh,28.8386,78.7733,16.2,70,0.0,986.8,5.85,30.2,143,186.3,67.3,3,5,3,0,2026-03-03T01:09:12.759361+05:30
Saharanpur,Uttar Pradesh,29.9637,77.546,16.3,71,0.0,978.4,5.45,45.7,112,72.9,46.1,3,5,3,0,2026-03-03T01:09:12.759369+05:30
Jhansi,Uttar Pradesh,25.4484,78.5685,18.7,68,0.0,981.7,6.75,26.6,76,35.4,27.5,3,5,7,0,2026-03-03T01:09:16.015125+05:30
Surat,Gujarat,21.1702,72.8311,23.9,76,0.0,1009.9,7.05,23.4,153,83.6,77.3,3,0,4,1,2026-03-03T01:09:16.015153+05:30
Vadodara,Gujarat,22.3072,73.1812,23.9,53,0.0,1007.7,7.15,13.7,151,92.7,85.0,0,5,4,0,2026-03-03T01:09:16.015165+05:30
Rajkot,Gujarat,22.3039,70.8022,22.8,73,0.0,998.5,7.0,19.8,66,39.3,27.0,3,5,7,1,2026-03-03T01:09:16.015173+05:30
Thane,Maharashtra,19.2183,72.9781,24.5,86,0.0,1010.5,7.35,37.4,89,39.7,32.9,3,0,4,1,2026-03-03T01:09:16.015182+05:30
Nagpur,Maharashtra,21.1458,79.0882,23.3,62,0.0,975.8,7.75,19.8,71,26.2,22.8,3,5,7,0,2026-03-03T01:09:16.015189+05:30
Nashik,Maharashtra,19.9975,73.7898,23.3,63,0.0,948.1,7.55,29.5,91,40.6,36.6,3,5,7,0,2026-03-03T01:09:16.015197+05:30
Aurangabad,Maharashtra,19.8762,75.3433,24.1,58,0.0,946.1,8.05,25.2,78,39.9,38.9,0,5,7,0,2026-03-03T01:09:16.015204+05:30
Solapur,Maharashtra,17.6599,75.9064,25.0,66,0.0,958.2,8.3,20.9,127,38.1,37.8,7,5,7,1,2026-03-03T01:09:16.015212+05:30
Kolhapur,Maharashtra,16.705,74.2433,20.1,91,0.0,949.1,8.4,35.6,109,41.6,39.7,3,5,7,1,2026-03-03T01:09:16.015220+05:30
Goa,Goa,15.2993,74.124,26.4,80,0.0,999.7,8.45,34.2,73,37.3,27.4,7,5,7,1,2026-03-03T01:09:16.015228+05:30
Jodhpur,Rajasthan,26.2389,73.0243,22.5,49,0.0,987.3,6.85,15.8,89,71.0,34.0,0,5,7,0,2026-03-03T01:09:16.015236+05:30
Udaipur,Rajasthan,24.5854,73.7125,20.7,57,0.0,950.6,7.45,12.6,73,36.6,27.3,0,5,7,0,2026-03-03T01:09:16.015243+05:30
Kota,Rajasthan,25.2138,75.8648,19.9,72,0.0,982.6,6.85,19.1,91,50.9,36.6,3,5,7,0,2026-03-03T01:09:16.015250+05:30
Bikaner,Rajasthan,28.0229,73.3119,23.6,53,0.0,986.5,6.55,20.5,72,41.9,24.1,0,5,7,0,2026-03-03T01:09:16.015258+05:30
Ajmer,Rajasthan,26.4499,74.6399,22.2,44,0.0,958.5,6.8,27.0,81,69.4,27.6,0,5,7,0,2026-03-03T01:09:16.015266+05:30
Gwalior,Madhya Pradesh,26.2183,78.1828,21.7,61,0.0,987.4,6.45,28.4,96,199.8,55.2,3,5,7,0,2026-03-03T01:09:16.015274+05:30
Indore,Madhya Pradesh,22.7196,75.8577,19.6,65,0.0,950.9,7.45,14.8,91,42.8,33.8,3,5,7,0,2026-03-03T01:09:16.015282+05:30
Bhopal,Madhya Pradesh,23.2599,77.4126,22.7,51,0.0,956.9,7.3,23.0,79,43.2,33.5,0,5,7,0,2026-03-03T01:09:16.015289+05:30
Jabalpur,Madhya Pradesh,23.1815,79.9864,21.6,45,0.0,964.6,7.4,20.5,73,35.2,24.4,0,5,7,0,2026-03-03T01:09:16.015296+05:30
Ujjain,Madhya Pradesh,23.1765,75.7885,22.2,56,0.0,957.0,7.3,13.7,112,49.6,41.8,0,5,7,0,2026-03-03T01:09:16.015304+05:30
Visakhapatnam,Andhra Pradesh,17.6868,83.2185,24.9,79,0.0,1005.3,8.35,33.8,139,43.0,40.3,3,5,4,1,2026-03-03T01:09:16.015311+05:30
Vijayawada,Andhra Pradesh,16.5062,80.648,24.2,82,0.0,1004.6,8.4,26.3,141,43.7,41.9,3,5,4,1,2026-03-03T01:09:16.015318+05:30
Guntur,Andhra Pradesh,16.3067,80.4365,23.5,86,0.0,1005.9,8.45,28.8,135,41.0,39.3,3,5,4,1,2026-03-03T01:09:16.015325+05:30
Nellore,Andhra Pradesh,14.4426,79.9865,23.4,88,0.0,1007.7,8.65,29.2,121,38.9,36.6,3,5,4,1,2026-03-03T01:09:16.015333+05:30
Kurnool,Andhra Pradesh,15.8281,78.0373,27.5,47,0.0,978.0,8.45,29.5,126,43.3,42.7,4,5,7,0,2026-03-03T01:09:16.015341+05:30
Kakinada,Andhra Pradesh,16.9891,82.2475,22.4,91,0.0,1009.4,8.4,36.7,130,44.9,40.9,3,0,4,1,2026-03-03T01:09:16.015348+05:30
Tirupati,Andhra Pradesh,13.6288,79.4192,23.4,63,0.0,993.8,8.8,37.8,142,71.7,69.8,3,5,7,0,2026-03-03T01:09:16.015355+05:30
Warangal,Telangana,17.9689,79.5941,26.5,56,0.0,980.3,8.2,19.1,130,43.3,42.7,4,5,7,1,2026-03-03T01:09:16.015362+05:30
Nizamabad,Telangana,18.6725,78.0941,22.8,63,0.0,966.2,8.1,28.1,103,46.2,45.1,3,5,7,0,2026-03-03T01:09:16.015369+05:30
Mysore,Karnataka,12.2958,76.6396,22.4,83,0.0,929.0,9.15,34.2,144,54.9,54.1,3,5,7,1,2026-03-03T01:09:16.015376+05:30
Mangalore,Karnataka,12.9141,74.856,28.3,78,0.0,1008.1,8.75,28.1,57,24.1,16.6,7,0,4,1,2026-03-03T01:09:16.015383+05:30
Hubli-Dharwad,Karnataka,15.3647,75.124,21.9,85,0.0,941.7,8.6,25.6,82,26.2,24.0,3,5,7,1,2026-03-03T01:09:16.015391+05:30
Belgaum,Karnataka,15.8497,74.4977,20.9,86,0.0,926.5,8.65,33.8,83,24.6,20.1,3,5,7,1,2026-03-03T01:09:19.265629+05:30
Coimbatore,Tamil Nadu,11.0168,76.9558,23.5,86,0.0,963.2,9.15,45.4,143,56.8,55.6,3,5,7,1,2026-03-03T01:09:19.265662+05:30
Madurai,Tamil Nadu,9.9252,78.1198,24.5,80,0.0,994.9,9.1,32.4,122,52.7,51.5,3,5,7,1,2026-03-03T01:09:19.265671+05:30
Trichy,Tamil Nadu,10.7905,78.7047,22.3,88,0.0,1001.7,9.0,31.0,139,44.8,42.8,3,5,4,1,2026-03-03T01:09:19.265678+05:30
Salem,Tamil Nadu,11.6643,78.146,24.4,67,0.0,978.8,9.0,40.3,140,59.4,58.2,3,5,7,1,2026-03-03T01:09:19.265685+05:30
Tirunelveli,Tamil Nadu,8.7139,77.7567,23.6,88,0.0,1004.9,9.1,41.0,131,54.0,52.4,3,5,4,1,2026-03-03T01:09:19.265691+05:30
Vellore,Tamil Nadu,12.9165,79.1325,22.1,78,0.0,986.8,8.9,38.2,150,73.8,71.9,3,5,7,1,2026-03-03T01:09:19.265697+05:30
Erode,Tamil Nadu,11.341,77.7172,25.7,72,0.0,990.7,9.05,24.8,124,45.5,44.5,7,5,7,1,2026-03-03T01:09:19.265703+05:30
Kochi,Kerala,9.9312,76.2673,27.5,81,0.0,1010.0,9.0,32.8,98,50.5,49.9,7,0,4,1,2026-03-03T01:09:19.265709+05:30
Thiruvananthapuram,Kerala,8.5241,76.9366,27.5,81,0.0,1008.9,8.95,28.1,101,30.4,28.1,7,0,4,1,2026-03-03T01:09:19.265714+05:30
Kozhikode,Kerala,11.2588,75.7804,28.3,77,0.0,1009.0,8.8,34.6,58,23.1,18.4,7,0,4,1,2026-03-03T01:09:19.265720+05:30
Thrissur,Kerala,10.5276,76.2144,25.9,91,0.0,1008.2,8.95,37.1,94,54.4,53.1,7,0,4,1,2026-03-03T01:09:19.265727+05:30
Kannur,Kerala,11.8745,75.3704,27.1,80,0.0,1008.2,8.85,38.9,59,18.6,15.1,7,0,4,1,2026-03-03T01:09:19.265733+05:30
Patna,Bihar,25.5941,85.1376,18.9,59,0.0,1003.5,7.15,18.0,119,66.4,52.6,0,5,4,0,2026-03-03T01:09:19.265739+05:30
Gaya,Bihar,24.7914,85.0002,18.8,52,0.0,997.0,7.25,21.2,107,52.4,35.2,0,5,7,0,2026-03-03T01:09:19.265745+05:30
Muzaffarpur,Bihar,26.1209,85.3647,17.5,63,0.0,1003.2,7.1,14.8,120,77.5,63.1,3,5,4,0,2026-03-03T01:09:19.265750+05:30
Bhagalpur,Bihar,25.2425,87.0117,19.5,59,0.0,1004.0,7.15,11.5,134,76.1,40.6,0,5,4,0,2026-03-03T01:09:19.265756+05:30
Ranchi,Jharkhand,23.3441,85.3096,18.0,37,0.0,940.0,7.9,43.6,78,44.8,23.9,0,5,7,0,2026-03-03T01:09:19.265762+05:30
Jamshedpur,Jharkhand,22.8046,86.2029,20.9,53,0.0,993.5,7.75,16.2,114,69.8,43.2,0,5,7,0,2026-03-03T01:09:19.265768+05:30
Dhanbad,Jharkhand,23.7957,86.4304,20.9,38,0.0,982.8,7.65,27.7,116,62.4,41.1,0,5,7,0,2026-03-03T01:09:19.265773+05:30
Bokaro,Jharkhand,23.6693,86.1511,18.2,53,0.0,987.2,7.65,32.8,119,64.0,45.2,0,5,7,0,2026-03-03T01:09:19.265779+05:30
Bhubaneswar,Odisha,20.2961,85.8245,24.2,90,0.0,1004.0,8.1,26.6,151,73.8,70.1,3,5,4,1,2026-03-03T01:09:19.265785+05:30
Cuttack,Odisha,20.4625,85.8828,24.3,88,0.0,1006.0,8.1,23.0,151,73.8,70.1,3,5,4,1,2026-03-03T01:09:19.265791+05:30
Rourkela,Odisha,22.2604,84.8536,21.8,47,0.0,987.7,7.7,23.4,92,48.7,34.1,0,5,7,0,2026-03-03T01:09:19.265796+05:30
Raipur,Chhattisgarh,21.2514,81.6296,23.1,55,0.0,976.9,7.8,16.6,98,85.9,75.2,0,5,7,0,2026-03-03T01:09:19.265802+05:30
Bhilai,Chhattisgarh,21.1938,81.3509,22.1,61,0.0,977.2,7.8,14.4,97,83.4,74.0,3,5,7,0,2026-03-03T01:09:19.265808+05:30
Guwahati,Assam,26.1158,91.7086,20.8,86,0.0,1004.9,7.1,21.6,151,72.9,61.7,3,5,4,1,2026-03-03T01:09:19.265813+05:30
Agartala,Tripura,23.8315,91.2868,20.8,93,0.0,1008.4,7.45,19.4,155,107.6,100.1,3,0,4,1,2026-03-03T01:09:19.265819+05:30
Shillong,Meghalaya,25.5788,91.8933,7.6,87,0.0,854.1,7.45,24.1,112,53.6,44.4,3,10,7,0,2026-03-03T01:09:19.265825+05:30
Imphal,Manipur,24.817,93.9368,13.9,75,0.0,923.7,7.5,29.5,154,115.7,97.8,3,5,7,0,2026-03-03T01:09:19.265831+05:30
Aizawl,Mizoram,23.7271,92.7176,14.8,91,0.0,892.9,7.65,33.5,152,92.9,86.8,3,10,7,0,2026-03-03T01:09:19.265836+05:30
Kohima,Nagaland,25.6701,94.1077,11.5,83,0.0,854.5,7.15,45.4,146,79.6,71.7,3,10,7,0,2026-03-03T01:09:19.265842+05:30
Gangtok,Sikkim,27.3314,88.6138,10.6,81,0.0,836.0,7.4,19.8,125,82.4,63.3,3,10,7,0,2026-03-03T01:09:19.265847+05:30
Siliguri,West Bengal,26.7271,88.3953,18.2,69,0.0,996.6,7.1,19.8,167,128.5,100.4,3,5,7,0,2026-03-03T01:09:22.517785+05:30
Durgapur,West Bengal,23.5204,87.3119,21.9,35,0.0,998.0,7.65,29.9,107,53.6,27.6,0,5,7,0,2026-03-03T01:09:22.517810+05:30
Asansol,West Bengal,23.6739,86.9524,22.5,35,0.0,996.6,7.65,23.4,95,47.1,26.7,0,5,7,0,2026-03-03T01:09:22.517819+05:30
Pondicherry,Puducherry,11.9139,79.8145,21.3,97,0.0,1010.6,8.85,28.4,117,39.7,35.6,3,0,4,1,2026-03-03T01:09:22.517826+05:30
Port Blair,Andaman and Nicobar Islands,11.6234,92.7265,27.2,74,0.0,1007.7,8.8,16.2,81,32.9,25.4,7,5,4,1,2026-03-03T01:09:22.517833+05:30
Haridwar,Uttarakhand,29.9457,78.1642,15.1,84,0.0,976.8,5.55,24.8,97,55.2,51.9,3,10,3,0,2026-03-03T01:09:22.517840+05:30
Rishikesh,Uttarakhand,30.0869,78.2676,16.2,69,0.0,969.3,5.65,23.8,77,35.6,33.8,3,5,3,0,2026-03-03T01:09:22.517846+05:30
Nainital,Uttarakhand,29.3919,79.4542,14.4,60,0.0,805.4,6.45,56.9,78,37.6,29.6,0,5,7,0,2026-03-03T01:09:22.517852+05:30
Mussoorie,Uttarakhand,30.4599,78.0664,13.1,63,0.0,802.1,5.95,37.1,81,40.6,39.0,3,5,3,0,2026-03-03T01:09:22.517858+05:30
Dharamshala,Himachal Pradesh,32.219,76.3234,17.5,37,0.0,870.8,6.2,23.4,78,16.9,13.3,0,5,7,0,2026-03-03T01:09:22.517864+05:30
Dalhousie,Himachal Pradesh,32.5387,75.971,14.0,34,0.0,804.5,6.4,22.0,97,48.4,44.4,0,5,7,1,2026-03-03T01:09:22.517871+05:30
Patiala,Punjab,30.3398,76.3869,16.3,73,0.0,982.0,5.6,35.3,157,265.4,67.8,3,5,3,0,2026-03-03T01:09:22.517877+05:30
Bhatinda,Punjab,30.211,74.9455,17.6,72,0.0,988.0,6.3,27.4,155,74.5,61.5,3,5,7,0,2026-03-03T01:09:22.517883+05:30
Rohtak,Haryana,28.8955,76.6066,16.8,74,0.0,985.8,5.85,34.2,290,381.8,83.1,3,5,3,0,2026-03-03T01:09:22.517889+05:30
Panipat,Haryana,29.3909,76.9635,15.8,75,0.0,984.1,5.65,37.1,744,869.9,130.4,3,5,3,0,2026-03-03T01:09:22.517894+05:30
Mathura,Uttar Pradesh,27.4924,77.6737,19.4,67,0.0,990.8,6.1,29.9,431,596.0,110.4,3,5,7,0,2026-03-03T01:09:22.517900+05:30
Vrindavan,Uttar Pradesh,27.5823,77.7027,17.7,75,0.0,991.3,6.05,33.1,431,596.0,110.4,3,5,7,0,2026-03-03T01:09:22.517906+05:30
Ayodhya,Uttar Pradesh,26.7922,82.1998,17.9,61,0.0,998.3,6.45,27.4,132,188.6,64.0,3,5,7,0,2026-03-03T01:09:22.517911+05:30
Ratlam,Madhya Pradesh,23.3315,75.0367,19.9,79,0.0,957.6,7.3,11.2,103,53.1,47.1,3,5,7,1,2026-03-03T01:09:22.517917+05:30
Sagar,Madhya Pradesh,23.8388,78.7378,22.3,45,0.0,953.5,7.25,29.2,67,35.4,22.9,0,5,7,0,2026-03-03T01:09:22.517923+05:30
Satna,Madhya Pradesh,24.6005,80.8322,21.2,42,0.0,974.7,7.2,35.3,63,34.3,20.7,0,5,7,0,2026-03-03T01:09:22.517928+05:30
Akola,Maharashtra,20.7002,77.0082,23.4,62,0.0,977.6,7.8,22.0,75,34.0,32.2,3,5,7,0,2026-03-03T01:09:22.517935+05:30
Amravati,Maharashtra,20.9374,77.7796,22.8,54,0.0,969.5,7.75,18.0,76,37.8,35.6,0,5,7,0,2026-03-03T01:09:22.517941+05:30
Latur,Maharashtra,18.4088,76.5604,23.8,56,0.0,941.2,8.2,33.8,108,38.0,37.5,0,5,7,0,2026-03-03T01:09:22.517947+05:30
Nanded,Maharashtra,19.1383,77.3091,26.8,53,0.0,970.5,8.0,21.6,88,59.5,58.4,4,5,7,1,2026-03-03T01:09:22.517953+05:30
Gulbarga,Karnataka,17.3297,76.8343,26.4,53,0.0,960.1,8.3,23.4,139,53.1,52.7,4,5,7,0,2026-03-03T01:09:22.517959+05:30
Bidar,Karnataka,17.9104,77.5199,23.8,60,0.0,937.0,8.25,24.5,140,32.4,31.7,0,5,7,0,2026-03-03T01:09:22.517964+05:30
Hospet,Karnataka,15.2689,76.3909,28.4,46,0.0,956.8,8.6,28.8,130,51.2,50.6,4,5,7,0,2026-03-03T01:09:22.517970+05:30
Tirupur,Tamil Nadu,11.1085,77.3411,25.9,71,0.0,977.0,9.15,33.5,146,53.7,52.6,7,5,7,1,2026-03-03T01:09:22.517976+05:30
Alappuzha,Kerala,9.4981,76.3388,27.2,82,0.0,1010.0,8.95,28.8,95,40.9,39.3,7,0,4,1,2026-03-03T01:09:22.517981+05:30
Munnar,Kerala,10.0889,77.0595,18.8,84,0.0,856.5,9.45,20.5,122,50.2,49.1,3,10,7,0,2026-03-03T01:09:22.517987+05:30
Silchar,Assam,24.8333,92.7789,19.9,87,0.0,1007.6,7.4,15.5,156,102.2,82.9,3,10,4,1,2026-03-03T01:09:22.517993+05:30
Dibrugarh,Assam,27.4728,94.912,19.8,87,0.0,999.7,7.1,8.3,153,70.5,62.4,3,10,7,1,2026-03-03T01:09:22.517999+05:30
