city,state,latitude,longitude,temp,humidity,rain,pressure,uv_index,wind_gusts,aqi,pm10,pm2_5,mosquito_risk,arthritis_risk,migraine_risk,frizz_risk,updated_at
Delhi,Delhi,28.6139,77.209,25.8,49,0.0,980.1,7.25,29.2,166,586.7,99.0,4,5,7,0,2026-04-20T02:11:54.605852+05:30
Mumbai,Maharashtra,19.076,72.8777,29.3,71,0.0,1006.8,7.3,20.5,78,37.3,19.5,7,5,4,1,2026-04-20T02:11:54.605891+05:30
Bangalore,Karnataka,12.9716,77.5946,24.0,66,0.0,910.7,9.55,17.6,80,28.2,24.3,3,5,7,1,2026-04-20T02:11:54.605907+05:30
Hyderabad,Telangana,17.385,78.4867,25.4,75,0.0,953.3,9.3,46.1,111,36.2,32.6,7,5,7,1,2026-04-20T02:11:54.605917+05:30
Chennai,Tamil Nadu,13.0827,80.2707,27.9,86,0.0,1005.8,9.3,34.6,36,14.2,9.7,7,5,4,1,2026-04-20T02:11:54.605926+05:30
Kolkata,West Bengal,22.5726,88.3639,27.7,91,0.0,1002.6,8.9,34.2,77,30.6,23.9,7,5,4,1,2026-04-20T02:11:54.605958+05:30
Pune,Maharashtra,18.5204,73.8567,25.6,71,0.0,947.2,7.3,35.6,100,61.2,54.4,7,5,7,1,2026-04-20T02:11:54.605968+05:30
Ahmedabad,Gujarat,23.0225,72.5714,26.5,48,0.0,1000.6,8.15,20.2,54,16.7,13.0,4,5,4,0,2026-04-20T02:11:54.605976+05:30
Jaipur,Rajasthan,26.9124,75.7873,27.1,24,0.0,957.5,7.9,22.0,109,191.9,32.7,4,5,7,0,2026-04-20T02:11:54.605984+05:30
Lucknow,Uttar Pradesh,26.8467,80.9462,27.6,50,0.0,989.4,7.9,34.6,129,158.3,44.8,4,5,7,1,2026-04-20T02:11:54.605992+05:30
Kanpur,Uttar Pradesh,26.4499,80.3319,26.6,60,0.0,987.6,7.9,27.0,185,268.2,59.5,4,5,7,1,2026-04-20T02:11:54.605999+05:30
Chandigarh,Chandigarh,30.7333,76.7794,22.5,55,0.0,966.2,7.25,32.4,67,21.4,17.1,0,5,7,0,2026-04-20T02:11:54.606006+05:30
Srinagar,Jammu and Kashmir,34.0837,74.7973,9.0,95,0.0,842.1,8.3,15.8,73,74.0,54.9,3,10,7,0,2026-04-20T02:11:54.606014+05:30
Jammu,Jammu and Kashmir,32.7266,74.857,22.6,54,0.0,971.8,7.95,32.0,62,31.1,20.6,0,5,7,0,2026-04-20T02:11:54.606021+05:30
Amritsar,Punjab,31.634,74.8723,22.3,65,0.0,979.5,7.9,28.4,74,82.0,38.0,3,5,7,0,2026-04-20T02:11:54.606028+05:30
Ludhiana,Punjab,30.901,75.8573,23.5,54,0.0,976.7,7.5,31.3,74,29.3,19.0,0,5,7,0,2026-04-20T02:11:54.606038+05:30
Jalandhar,Punjab,31.326,75.5762,22.1,54,0.0,978.2,7.65,31.3,72,47.5,26.6,0,5,7,0,2026-04-20T02:11:54.606046+05:30
Dehradun,Uttarakhand,30.6284,78.0322,16.6,44,0.0,829.3,7.7,42.8,40,17.0,10.2,0,5,7,0,2026-04-20T02:11:54.606053+05:30
Shimla,Himachal Pradesh,31.1048,77.1734,14.4,55,0.0,783.6,7.75,44.6,51,24.9,12.3,0,5,7,0,2026-04-20T02:11:54.606059+05:30
Manali,Himachal Pradesh,32.2396,77.1887,14.2,55,0.0,820.7,9.25,29.2,56,11.0,7.5,0,5,7,0,2026-04-20T02:11:54.606066+05:30
Gurgaon,Haryana,28.4595,77.0266,22.2,63,0.0,978.5,7.4,27.4,554,694.8,107.6,3,5,7,0,2026-04-20T02:11:54.606073+05:30
Noida,Uttar Pradesh,28.5355,77.391,25.5,51,0.0,981.5,7.3,29.5,554,694.8,107.6,4,5,7,0,2026-04-20T02:11:54.606080+05:30
Ghaziabad,Uttar Pradesh,28.6692,77.4538,24.3,55,0.0,979.6,7.3,28.1,151,322.2,68.5,0,5,7,0,2026-04-20T02:11:54.606087+05:30
Faridabad,Haryana,28.4089,77.3178,24.1,53,0.0,980.6,7.35,29.2,554,694.8,107.6,0,5,7,0,2026-04-20T02:11:54.606094+05:30
Meerut,Uttar Pradesh,28.9845,77.7064,23.3,58,0.0,978.2,7.2,28.8,151,322.2,68.5,0,5,7,0,2026-04-20T02:11:54.606100+05:30
Agra,Uttar Pradesh,27.1767,78.0081,24.7,50,0.0,984.6,7.7,22.3,417,408.9,95.5,0,5,7,0,2026-04-20T02:11:54.606108+05:30
Varanasi,Uttar Pradesh,25.3176,82.9739,26.9,48,0.0,993.1,8.45,36.4,113,122.9,54.4,4,5,7,0,2026-04-20T02:11:54.606117+05:30
Prayagraj,Uttar Pradesh,25.4358,81.8463,28.2,50,0.0,991.9,8.1,31.7,110,108.5,37.5,4,5,7,1,2026-04-20T02:11:54.606124+05:30
Gorakhpur,Uttar Pradesh,26.7606,83.3732,27.2,78,0.0,993.4,8.35,38.9,131,77.8,60.8,7,5,7,1,2026-04-20T02:11:54.606130+05:30
Bareilly,Uttar Pradesh,28.367,79.4304,24.2,58,0.0,983.1,7.6,29.9,92,58.3,26.8,0,5,7,0,2026-04-20T02:11:54.606137+05:30
Aligarh,Uttar Pradesh,27.8974,78.088,24.4,50,0.0,982.2,7.45,33.5,227,193.7,63.1,0,5,7,0,2026-04-20T02:11:54.606143+05:30
Moradabad,Uttar Pradesh,28.8386,78.7733,23.4,58,0.0,980.2,7.4,28.8,115,90.1,43.8,0,5,7,0,2026-04-20T02:11:54.606150+05:30
Saharanpur,Uttar Pradesh,29.9637,77.546,22.3,68,0.0,972.7,6.95,30.2,99,86.8,45.2,3,5,7,1,2026-04-20T02:11:54.606155+05:30
Jhansi,Uttar Pradesh,25.4484,78.5685,27.4,52,0.0,974.4,8.05,28.8,55,23.3,13.3,4,5,7,1,2026-04-20T02:11:57.818140+05:30
Surat,Gujarat,21.1702,72.8311,27.2,83,0.0,1004.9,7.85,27.7,95,35.7,26.0,7,5,4,1,2026-04-20T02:11:57.818166+05:30
Vadodara,Gujarat,22.3072,73.1812,27.6,69,0.0,1002.7,8.1,26.3,76,52.5,44.5,7,5,4,1,2026-04-20T02:11:57.818175+05:30
Rajkot,Gujarat,22.3039,70.8022,23.8,79,0.0,993.4,7.85,23.8,52,32.6,13.4,3,5,7,1,2026-04-20T02:11:57.818183+05:30
Thane,Maharashtra,19.2183,72.9781,27.3,83,0.0,1006.3,8.05,32.4,78,37.3,19.5,7,5,4,1,2026-04-20T02:11:57.818190+05:30
Nagpur,Maharashtra,21.1458,79.0882,28.6,57,0.0,971.8,8.8,32.8,88,35.2,31.0,4,5,7,1,2026-04-20T02:11:57.818196+05:30
Nashik,Maharashtra,19.9975,73.7898,26.8,45,0.0,944.6,8.25,30.2,90,53.0,43.9,4,5,7,0,2026-04-20T02:11:57.818203+05:30
Aurangabad,Maharashtra,19.8762,75.3433,27.9,53,0.0,943.0,9.05,24.8,82,46.1,41.3,4,5,7,1,2026-04-20T02:11:57.818209+05:30
Solapur,Maharashtra,17.6599,75.9064,26.5,77,0.0,956.4,9.1,33.1,146,70.3,63.1,7,5,7,1,2026-04-20T02:11:57.818215+05:30
Kolhapur,Maharashtra,16.705,74.2433,23.2,95,0.0,946.4,9.05,38.9,102,36.2,29.9,3,5,7,1,2026-04-20T02:11:57.818221+05:30
Goa,Goa,15.2993,74.124,28.1,83,0.0,996.5,9.0,34.6,87,58.2,35.6,7,5,7,1,2026-04-20T02:11:57.818227+05:30
Jodhpur,Rajasthan,26.2389,73.0243,27.3,37,0.0,981.3,8.15,23.8,99,126.7,20.9,4,5,7,0,2026-04-20T02:11:57.818233+05:30
Udaipur,Rajasthan,24.5854,73.7125,24.8,40,0.0,945.5,8.7,24.8,48,23.3,9.7,0,5,7,0,2026-04-20T02:11:57.818240+05:30
Kota,Rajasthan,25.2138,75.8648,26.5,40,0.0,976.3,8.25,21.6,58,12.7,10.4,4,5,7,0,2026-04-20T02:11:57.818246+05:30
Bikaner,Rajasthan,28.0229,73.3119,28.6,40,0.0,980.2,7.95,21.2,77,44.4,20.3,4,5,7,0,2026-04-20T02:11:57.818252+05:30
Ajmer,Rajasthan,26.4499,74.6399,26.9,33,0.0,953.0,8.15,22.3,67,54.5,16.6,4,5,7,0,2026-04-20T02:11:57.818259+05:30
Gwalior,Madhya Pradesh,26.2183,78.1828,27.3,47,0.0,980.0,8.0,33.8,69,48.2,15.5,4,5,7,0,2026-04-20T02:11:57.818265+05:30
Indore,Madhya Pradesh,22.7196,75.8577,26.3,59,0.0,946.9,8.25,34.9,59,22.5,19.3,4,5,7,1,2026-04-20T02:11:57.818270+05:30
Bhopal,Madhya Pradesh,23.2599,77.4126,28.0,43,0.0,951.7,5.75,30.6,62,23.9,21.2,4,5,3,0,2026-04-20T02:11:57.818276+05:30
Jabalpur,Madhya Pradesh,23.1815,79.9864,29.1,45,0.0,959.1,8.55,35.3,64,29.9,23.8,4,5,7,0,2026-04-20T02:11:57.818282+05:30
Ujjain,Madhya Pradesh,23.1765,75.7885,27.2,54,0.0,952.6,7.55,32.0,61,21.0,16.7,4,5,7,1,2026-04-20T02:11:57.818288+05:30
Visakhapatnam,Andhra Pradesh,17.6868,83.2185,27.0,89,0.0,1001.9,9.2,38.5,60,15.8,12.0,7,5,4,1,2026-04-20T02:11:57.818294+05:30
Vijayawada,Andhra Pradesh,16.5062,80.648,26.5,90,0.0,1001.0,9.2,29.5,52,15.7,12.3,7,5,4,1,2026-04-20T02:11:57.818300+05:30
Guntur,Andhra Pradesh,16.3067,80.4365,27.0,91,0.0,1002.2,9.25,32.8,54,14.3,11.2,7,5,4,1,2026-04-20T02:11:57.818306+05:30
Nellore,Andhra Pradesh,14.4426,79.9865,27.6,83,0.0,1003.9,9.3,34.6,48,11.9,9.3,7,5,4,1,2026-04-20T02:11:57.818312+05:30
Kurnool,Andhra Pradesh,15.8281,78.0373,30.1,58,0.0,974.8,9.25,47.9,92,29.2,25.8,0,5,7,1,2026-04-20T02:11:57.818319+05:30
Kakinada,Andhra Pradesh,16.9891,82.2475,26.3,91,0.0,1006.0,9.2,33.5,46,16.0,10.7,7,5,4,1,2026-04-20T02:11:57.818325+05:30
Tirupati,Andhra Pradesh,13.6288,79.4192,26.2,88,0.0,990.7,9.35,35.6,61,21.5,19.6,7,5,7,1,2026-04-20T02:11:57.818331+05:30
Warangal,Telangana,17.9689,79.5941,28.6,62,0.0,977.4,9.15,33.5,89,22.9,20.5,7,5,7,1,2026-04-20T02:11:57.818337+05:30
Nizamabad,Telangana,18.6725,78.0941,28.8,54,0.0,963.9,9.15,31.3,128,57.7,53.6,4,5,7,1,2026-04-20T02:11:57.818343+05:30
Mysore,Karnataka,12.2958,76.6396,23.4,90,0.0,927.6,9.45,36.7,87,32.7,30.4,3,5,7,1,2026-04-20T02:11:57.818349+05:30
Mangalore,Karnataka,12.9141,74.856,29.9,74,0.0,1005.7,9.1,25.2,78,51.5,34.0,7,5,4,1,2026-04-20T02:11:57.818355+05:30
Hubli-Dharwad,Karnataka,15.3647,75.124,24.3,91,0.0,940.6,9.25,40.7,85,34.9,26.2,3,5,7,1,2026-04-20T02:11:57.818361+05:30
Belgaum,Karnataka,15.8497,74.4977,23.0,97,0.0,924.6,9.25,37.8,95,50.3,39.2,3,5,7,1,2026-04-20T02:12:01.039405+05:30
Coimbatore,Tamil Nadu,11.0168,76.9558,25.2,85,0.0,960.7,9.4,45.4,90,31.5,28.6,7,5,7,1,2026-04-20T02:12:01.039438+05:30
Madurai,Tamil Nadu,9.9252,78.1198,26.6,86,0.0,992.0,9.3,37.1,64,19.5,18.0,7,5,7,1,2026-04-20T02:12:01.039449+05:30
Trichy,Tamil Nadu,10.7905,78.7047,26.7,88,0.0,998.8,9.3,22.3,59,19.0,17.7,7,5,7,1,2026-04-20T02:12:01.039459+05:30
Salem,Tamil Nadu,11.6643,78.146,26.9,80,0.0,976.3,9.4,16.9,63,23.1,20.7,7,5,7,1,2026-04-20T02:12:01.039467+05:30
Tirunelveli,Tamil Nadu,8.7139,77.7567,26.2,77,0.0,1002.1,9.25,50.4,65,23.1,19.5,7,5,4,1,2026-04-20T02:12:01.039475+05:30
Vellore,Tamil Nadu,12.9165,79.1325,25.9,92,0.0,983.5,9.4,29.2,78,35.5,33.8,7,5,7,1,2026-04-20T02:12:01.039485+05:30
Erode,Tamil Nadu,11.341,77.7172,28.7,72,0.0,987.8,9.35,24.5,63,17.8,16.2,7,5,7,1,2026-04-20T02:12:01.039493+05:30
Kochi,Kerala,9.9312,76.2673,28.4,82,0.0,1007.7,9.05,31.7,65,34.8,32.7,7,5,4,1,2026-04-20T02:12:01.039501+05:30
Thiruvananthapuram,Kerala,8.5241,76.9366,28.3,84,0.0,1006.9,9.1,32.0,65,23.1,15.7,7,5,4,1,2026-04-20T02:12:01.039509+05:30
Kozhikode,Kerala,11.2588,75.7804,29.3,81,0.0,1006.9,9.1,29.5,64,36.1,23.2,7,5,4,1,2026-04-20T02:12:01.039517+05:30
Thrissur,Kerala,10.5276,76.2144,27.5,88,0.0,1006.1,9.15,37.8,66,46.7,41.6,7,5,4,1,2026-04-20T02:12:01.039525+05:30
Kannur,Kerala,11.8745,75.3704,29.0,81,0.0,1006.2,9.1,33.1,73,40.0,33.9,7,5,4,1,2026-04-20T02:12:01.039533+05:30
Patna,Bihar,25.5941,85.1376,27.9,80,0.0,996.1,8.5,34.9,129,57.3,50.4,7,5,7,1,2026-04-20T02:12:01.039540+05:30
Gaya,Bihar,24.7914,85.0002,27.8,73,0.0,989.0,8.6,33.1,101,56.1,41.0,7,5,7,1,2026-04-20T02:12:01.039548+05:30
Muzaffarpur,Bihar,26.1209,85.3647,26.2,86,0.0,996.7,8.65,34.9,133,55.8,49.7,7,5,7,1,2026-04-20T02:12:01.039555+05:30
Bhagalpur,Bihar,25.2425,87.0117,26.7,90,0.0,997.3,8.65,25.6,122,46.4,43.9,7,5,7,1,2026-04-20T02:12:01.039563+05:30
Ranchi,Jharkhand,23.3441,85.3096,25.5,67,0.0,935.3,9.2,40.0,92,105.0,33.9,7,5,7,1,2026-04-20T02:12:01.039571+05:30
Jamshedpur,Jharkhand,22.8046,86.2029,28.6,78,0.0,987.6,9.0,29.2,141,61.2,53.4,7,5,7,1,2026-04-20T02:12:01.039579+05:30
Dhanbad,Jharkhand,23.7957,86.4304,29.0,85,0.0,976.2,9.0,44.6,156,105.7,88.5,7,5,7,1,2026-04-20T02:12:01.039586+05:30
Bokaro,Jharkhand,23.6693,86.1511,28.3,78,0.0,980.3,9.0,45.7,142,102.7,70.5,7,5,7,1,2026-04-20T02:12:01.039593+05:30
Bhubaneswar,Odisha,20.2961,85.8245,26.6,91,0.0,999.7,9.1,29.2,68,16.5,12.8,7,5,7,1,2026-04-20T02:12:01.039601+05:30
Cuttack,Odisha,20.4625,85.8828,27.1,91,0.0,1001.7,9.15,28.8,68,16.5,12.8,7,5,4,1,2026-04-20T02:12:01.039608+05:30
Rourkela,Odisha,22.2604,84.8536,30.2,66,0.0,981.6,8.95,29.9,151,69.4,56.0,3,5,7,1,2026-04-20T02:12:01.039615+05:30
Raipur,Chhattisgarh,21.2514,81.6296,29.6,54,0.0,972.9,8.1,37.1,120,49.6,47.1,4,5,7,1,2026-04-20T02:12:01.039623+05:30
Bhilai,Chhattisgarh,21.1938,81.3509,28.8,58,0.0,973.4,8.5,37.1,116,43.2,40.9,4,5,7,1,2026-04-20T02:12:01.039631+05:30
Guwahati,Assam,26.1158,91.7086,24.4,91,0.0,998.8,8.5,32.4,111,51.7,46.1,3,5,7,1,2026-04-20T02:12:01.039638+05:30
Agartala,Tripura,23.8315,91.2868,24.6,93,0.0,1004.3,8.8,34.9,104,47.3,42.1,3,5,4,1,2026-04-20T02:12:01.039646+05:30
Shillong,Meghalaya,25.5788,91.8933,15.9,92,0.0,854.0,6.35,68.0,76,28.1,23.6,3,10,7,0,2026-04-20T02:12:01.039654+05:30
Imphal,Manipur,24.817,93.9368,18.8,89,0.0,921.3,8.95,80.3,140,50.9,43.4,3,10,7,1,2026-04-20T02:12:01.039662+05:30
Aizawl,Mizoram,23.7271,92.7176,19.9,89,0.0,891.2,9.0,53.6,149,52.9,44.0,3,10,7,1,2026-04-20T02:12:01.039670+05:30
Kohima,Nagaland,25.6701,94.1077,16.3,87,0.0,852.6,8.4,95.8,100,19.0,13.9,3,10,7,0,2026-04-20T02:12:01.039677+05:30
Gangtok,Sikkim,27.3314,88.6138,16.0,92,0.0,835.4,8.9,18.4,55,17.8,16.5,3,10,7,0,2026-04-20T02:12:01.039685+05:30
Siliguri,West Bengal,26.7271,88.3953,22.0,78,0.0,991.5,8.55,28.8,105,39.5,34.3,3,5,7,1,2026-04-20T02:12:04.260909+05:30
Durgapur,West Bengal,23.5204,87.3119,27.7,93,0.0,991.3,8.9,29.9,140,42.7,40.0,7,5,7,1,2026-04-20T02:12:04.260979+05:30
Asansol,West Bengal,23.6739,86.9524,28.4,90,0.0,989.9,8.95,37.1,140,61.2,57.7,7,5,7,1,2026-04-20T02:12:04.260994+05:30
Pondicherry,Puducherry,11.9139,79.8145,26.5,95,0.0,1007.3,9.25,32.4,35,12.0,7.8,7,5,4,1,2026-04-20T02:12:04.261005+05:30
Port Blair,Andaman and Nicobar Islands,11.6234,92.7265,28.9,79,0.0,1006.2,9.05,18.0,50,12.5,10.0,7,5,4,1,2026-04-20T02:12:04.261015+05:30
Haridwar,Uttarakhand,29.9457,78.1642,22.8,65,0.0,971.4,7.1,34.9,68,45.9,27.3,3,5,7,0,2026-04-20T02:12:04.261025+05:30
Rishikesh,Uttarakhand,30.0869,78.2676,22.4,58,0.0,964.4,7.2,36.0,76,72.9,22.9,0,5,7,0,2026-04-20T02:12:04.261034+05:30
Nainital,Uttarakhand,29.3919,79.4542,22.9,29,0.0,806.1,8.05,55.4,74,48.1,19.2,0,5,7,0,2026-04-20T02:12:04.261043+05:30
Mussoorie,Uttarakhand,30.4599,78.0664,18.9,41,0.0,802.3,7.55,45.7,61,36.8,21.9,0,5,7,0,2026-04-20T02:12:04.261052+05:30
Dharamshala,Himachal Pradesh,32.219,76.3234,21.7,27,0.0,869.1,7.8,30.6,45,11.1,6.3,0,5,7,0,2026-04-20T02:12:04.261060+05:30
Dalhousie,Himachal Pradesh,32.5387,75.971,18.0,28,0.0,803.7,8.05,28.8,56,23.7,18.6,0,5,7,1,2026-04-20T02:12:04.261070+05:30
Patiala,Punjab,30.3398,76.3869,22.5,64,0.0,975.7,7.15,29.2,379,773.0,90.1,3,5,7,0,2026-04-20T02:12:04.261079+05:30
Bhatinda,Punjab,30.211,74.9455,24.5,55,0.0,981.8,7.8,30.6,70,74.0,29.7,0,5,7,0,2026-04-20T02:12:04.261090+05:30
Rohtak,Haryana,28.8955,76.6066,21.6,65,0.0,979.1,7.3,26.6,292,1236.8,166.7,3,5,7,0,2026-04-20T02:12:04.261099+05:30
Panipat,Haryana,29.3909,76.9635,22.7,61,0.0,977.6,7.15,27.7,577,2004.2,237.0,3,5,7,0,2026-04-20T02:12:04.261108+05:30
Mathura,Uttar Pradesh,27.4924,77.6737,24.2,52,0.0,983.7,7.6,24.5,402,650.1,111.5,0,5,7,0,2026-04-20T02:12:04.261116+05:30
Vrindavan,Uttar Pradesh,27.5823,77.7027,23.7,54,0.0,984.1,7.6,28.8,402,650.1,111.5,0,5,7,0,2026-04-20T02:12:04.261124+05:30
Ayodhya,Uttar Pradesh,26.7922,82.1998,26.2,61,0.0,991.1,8.1,36.7,107,107.1,34.0,7,5,7,1,2026-04-20T02:12:04.261133+05:30
Ratlam,Madhya Pradesh,23.3315,75.0367,26.9,56,0.0,953.3,8.45,27.4,90,21.0,15.8,4,5,7,1,2026-04-20T02:12:04.261141+05:30
Sagar,Madhya Pradesh,23.8388,78.7378,29.9,36,0.0,947.7,8.25,31.7,61,30.6,22.0,4,5,7,0,2026-04-20T02:12:04.261149+05:30
Satna,Madhya Pradesh,24.6005,80.8322,29.0,48,0.0,968.2,8.4,38.9,69,35.5,15.6,4,5,7,1,2026-04-20T02:12:04.261157+05:30
Akola,Maharashtra,20.7002,77.0082,28.8,59,0.0,973.3,8.85,25.9,74,32.1,29.7,4,5,7,1,2026-04-20T02:12:04.261166+05:30
Amravati,Maharashtra,20.9374,77.7796,27.1,63,0.0,965.5,8.85,18.7,72,32.9,30.5,7,5,7,1,2026-04-20T02:12:04.261175+05:30
Latur,Maharashtra,18.4088,76.5604,26.0,62,0.0,939.1,9.1,30.6,128,85.4,75.9,7,5,7,1,2026-04-20T02:12:04.261184+05:30
Nanded,Maharashtra,19.1383,77.3091,27.1,65,0.0,967.5,9.0,19.8,93,38.4,34.8,7,5,7,1,2026-04-20T02:12:04.261192+05:30
Gulbarga,Karnataka,17.3297,76.8343,25.7,68,0.0,957.7,9.15,44.3,109,62.6,57.7,7,5,7,1,2026-04-20T02:12:04.261200+05:30
Bidar,Karnataka,17.9104,77.5199,25.9,66,0.0,935.5,9.15,32.0,118,54.2,49.8,7,5,7,1,2026-04-20T02:12:04.261209+05:30
Hospet,Karnataka,15.2689,76.3909,26.7,81,0.0,954.9,9.3,32.4,102,39.6,36.9,7,5,7,1,2026-04-20T02:12:04.261217+05:30
Tirupur,Tamil Nadu,11.1085,77.3411,26.7,81,0.0,974.1,9.45,31.0,76,28.3,25.7,7,5,7,1,2026-04-20T02:12:04.261225+05:30
Alappuzha,Kerala,9.4981,76.3388,27.7,85,0.0,1007.9,8.05,29.2,71,36.2,29.0,7,5,4,1,2026-04-20T02:12:04.261232+05:30
Munnar,Kerala,10.0889,77.0595,20.7,96,0.0,855.8,9.65,31.7,77,31.4,29.2,3,5,7,1,2026-04-20T02:12:04.261239+05:30
Silchar,Assam,24.8333,92.7789,23.9,91,0.0,1003.6,8.8,36.4,148,44.4,34.7,3,5,4,1,2026-04-20T02:12:04.261245+05:30
Dibrugarh,Assam,27.4728,94.912,23.5,92,0.0,993.3,6.7,15.8,140,62.9,51.0,3,5,7,1,2026-04-20T02:12:04.261252+05:30
