city,state,latitude,longitude,temp,humidity,rain,pressure,uv_index,wind_gusts,aqi,pm10,pm2_5,no2,co,o3,so2,mosquito_risk,arthritis_risk,migraine_risk,frizz_risk,updated_at
Delhi,Delhi,28.6139,77.209,29.9,24,0.0,978.4,7.7,41.8,562,817.7,209.1,25.9,387.0,44.0,11.9,4,5,7,0,2026-05-24T04:31:39.181347+05:30
Mumbai,Maharashtra,19.076,72.8777,30.0,77,0.0,1009.1,7.65,36.4,42,12.0,8.0,4.8,139.0,54.0,4.2,7,0,4,1,2026-05-24T04:31:39.181410+05:30
Bangalore,Karnataka,12.9716,77.5946,21.0,96,0.0,912.1,6.2,43.9,50,11.5,10.7,14.5,251.0,36.0,3.9,3,5,7,1,2026-05-24T04:31:39.181428+05:30
Hyderabad,Telangana,17.385,78.4867,28.8,59,0.0,952.2,9.25,47.5,81,30.0,26.1,6.6,212.0,87.0,4.3,4,5,7,1,2026-05-24T04:31:39.181439+05:30
Chennai,Tamil Nadu,13.0827,80.2707,30.8,60,0.0,1004.4,8.55,64.4,81,26.3,22.4,12.1,236.0,64.0,5.8,0,5,4,1,2026-05-24T04:31:39.181449+05:30
Kolkata,West Bengal,22.5726,88.3639,29.4,88,0.0,1002.4,9.0,38.9,101,29.2,23.2,6.3,250.0,91.0,5.2,7,5,4,1,2026-05-24T04:31:39.181460+05:30
Pune,Maharashtra,18.5204,73.8567,25.5,87,0.0,949.1,8.35,41.0,40,6.7,5.4,7.6,144.0,41.0,5.9,7,5,7,1,2026-05-24T04:31:39.181470+05:30
Ahmedabad,Gujarat,23.0225,72.5714,30.6,60,0.0,1001.6,8.1,36.4,68,18.0,13.5,4.8,122.0,46.0,3.3,0,5,4,1,2026-05-24T04:31:39.181479+05:30
Jaipur,Rajasthan,26.9124,75.7873,30.5,31,0.0,957.0,8.25,50.0,179,313.9,69.2,6.2,167.0,53.0,4.2,0,5,7,0,2026-05-24T04:31:39.181494+05:30
Lucknow,Uttar Pradesh,26.8467,80.9462,31.0,30,0.0,987.8,8.2,47.9,165,304.5,88.5,22.6,303.0,51.0,9.3,0,5,7,0,2026-05-24T04:31:39.181504+05:30
Kanpur,Uttar Pradesh,26.4499,80.3319,32.0,28,0.0,986.5,8.2,48.2,505,577.4,127.1,19.0,293.0,54.0,9.0,0,5,7,0,2026-05-24T04:31:39.181512+05:30
Chandigarh,Chandigarh,30.7333,76.7794,27.6,26,0.0,963.5,7.75,48.2,81,35.0,21.3,18.5,254.0,48.0,5.9,4,5,7,0,2026-05-24T04:31:39.181521+05:30
Srinagar,Jammu and Kashmir,34.0837,74.7973,10.8,92,0.0,840.1,8.9,29.5,74,43.3,36.4,24.8,348.0,14.0,1.0,3,10,7,0,2026-05-24T04:31:39.181530+05:30
Jammu,Jammu and Kashmir,32.7266,74.857,24.7,39,0.0,967.9,8.55,32.8,69,22.9,19.2,19.1,226.0,19.0,1.0,0,5,7,0,2026-05-24T04:31:39.181539+05:30
Amritsar,Punjab,31.634,74.8723,26.7,39,0.0,975.9,8.45,23.8,119,48.4,35.3,24.8,339.0,40.0,5.9,4,5,7,0,2026-05-24T04:31:39.181547+05:30
Ludhiana,Punjab,30.901,75.8573,27.0,36,0.0,974.1,8.0,26.3,94,31.0,23.5,15.8,385.0,53.0,4.9,4,5,7,0,2026-05-24T04:31:39.181555+05:30
Jalandhar,Punjab,31.326,75.5762,26.9,37,0.0,975.2,8.2,24.8,97,55.8,31.0,20.3,379.0,43.0,4.4,4,5,7,0,2026-05-24T04:31:39.181562+05:30
Dehradun,Uttarakhand,30.6284,78.0322,11.3,63,0.0,823.1,7.95,52.9,61,26.0,13.4,23.1,213.0,2.0,0.2,3,5,7,0,2026-05-24T04:31:39.181571+05:30
Shimla,Himachal Pradesh,31.1048,77.1734,14.1,36,0.0,781.0,8.25,69.5,64,38.8,17.8,20.3,156.0,41.0,0.9,0,5,7,1,2026-05-24T04:31:39.181597+05:30
Manali,Himachal Pradesh,32.2396,77.1887,8.9,51,0.0,812.1,9.0,47.5,42,17.2,5.2,11.7,175.0,114.0,0.0,0,5,7,1,2026-05-24T04:31:39.181605+05:30
Gurgaon,Haryana,28.4595,77.0266,27.2,32,0.0,976.8,7.85,39.2,964,1378.4,268.2,27.7,384.0,41.0,13.9,4,5,7,0,2026-05-24T04:31:39.181612+05:30
Noida,Uttar Pradesh,28.5355,77.391,29.8,25,0.0,979.5,7.75,37.8,964,1378.4,268.2,27.7,376.0,41.0,13.9,4,5,7,0,2026-05-24T04:31:39.181622+05:30
Ghaziabad,Uttar Pradesh,28.6692,77.4538,29.8,24,0.0,977.7,7.7,40.7,367,603.5,164.4,26.3,375.0,43.0,14.1,4,5,7,0,2026-05-24T04:31:39.181631+05:30
Faridabad,Haryana,28.4089,77.3178,29.9,25,0.0,978.9,7.8,43.6,964,1378.4,268.2,27.7,369.0,41.0,13.9,4,5,7,0,2026-05-24T04:31:39.181639+05:30
Meerut,Uttar Pradesh,28.9845,77.7064,29.1,26,0.0,976.1,7.65,47.5,367,603.5,164.4,26.3,320.0,43.0,14.1,4,5,7,0,2026-05-24T04:31:39.181647+05:30
Agra,Uttar Pradesh,27.1767,78.0081,30.1,33,0.0,982.7,8.05,38.9,731,512.2,93.4,25.5,334.0,20.0,6.1,0,5,7,0,2026-05-24T04:31:39.181655+05:30
Varanasi,Uttar Pradesh,25.3176,82.9739,32.2,31,0.0,992.3,8.7,43.9,151,126.2,53.4,35.3,440.0,33.0,12.9,0,5,7,0,2026-05-24T04:31:39.181663+05:30
Prayagraj,Uttar Pradesh,25.4358,81.8463,31.8,33,0.0,991.0,8.6,45.7,150,234.2,69.2,36.4,292.0,31.0,11.7,0,5,7,0,2026-05-24T04:31:39.181670+05:30
Gorakhpur,Uttar Pradesh,26.7606,83.3732,26.1,87,0.0,991.7,8.55,31.7,151,131.8,74.7,57.9,446.0,7.0,13.2,7,5,7,1,2026-05-24T04:31:39.181679+05:30
Bareilly,Uttar Pradesh,28.367,79.4304,27.2,40,0.0,980.8,8.0,43.9,133,129.9,60.5,30.7,339.0,30.0,9.7,4,5,7,0,2026-05-24T04:31:39.181686+05:30
Aligarh,Uttar Pradesh,27.8974,78.088,28.6,33,0.0,980.3,7.9,41.4,611,698.5,160.2,37.7,415.0,19.0,14.6,4,5,7,0,2026-05-24T04:31:39.181692+05:30
Moradabad,Uttar Pradesh,28.8386,78.7733,27.8,29,0.0,977.7,7.85,48.6,123,65.2,41.9,25.8,353.0,39.0,8.6,4,5,7,0,2026-05-24T04:31:39.181700+05:30
Saharanpur,Uttar Pradesh,29.9637,77.546,28.0,26,0.0,970.0,7.4,46.8,95,54.6,28.2,16.6,290.0,56.0,6.9,4,5,7,0,2026-05-24T04:31:39.181706+05:30
Jhansi,Uttar Pradesh,25.4484,78.5685,31.7,31,0.0,974.3,8.45,46.1,91,50.2,28.1,3.7,172.0,73.0,2.8,0,5,7,0,2026-05-24T04:31:42.557837+05:30
Surat,Gujarat,21.1702,72.8311,29.9,82,0.0,1007.3,7.7,42.5,56,15.1,12.4,18.4,274.0,28.0,30.6,7,5,4,1,2026-05-24T04:31:42.557874+05:30
Vadodara,Gujarat,22.3072,73.1812,30.8,72,0.0,1004.1,8.1,48.2,57,12.5,10.0,9.9,140.0,31.0,8.7,3,5,4,1,2026-05-24T04:31:42.557884+05:30
Rajkot,Gujarat,22.3039,70.8022,28.5,79,0.0,994.6,7.7,50.8,64,23.3,15.1,4.7,109.0,44.0,5.2,7,5,7,1,2026-05-24T04:31:42.557892+05:30
Thane,Maharashtra,19.2183,72.9781,29.2,81,0.0,1008.5,7.5,36.4,42,12.0,8.0,4.8,181.0,54.0,4.2,7,0,4,1,2026-05-24T04:31:42.557900+05:30
Nagpur,Maharashtra,21.1458,79.0882,33.8,26,0.0,970.6,8.9,43.9,66,26.0,17.8,8.9,198.0,69.0,7.1,0,5,7,0,2026-05-24T04:31:42.557908+05:30
Nashik,Maharashtra,19.9975,73.7898,25.1,91,0.0,946.5,7.85,40.3,39,9.6,7.4,9.4,125.0,39.0,8.3,7,5,7,1,2026-05-24T04:31:42.557916+05:30
Aurangabad,Maharashtra,19.8762,75.3433,26.8,73,0.0,944.5,9.05,44.3,53,11.2,8.1,10.1,156.0,39.0,8.1,7,5,7,1,2026-05-24T04:31:42.557923+05:30
Solapur,Maharashtra,17.6599,75.9064,28.4,71,0.0,957.8,8.2,42.1,67,10.1,8.7,9.8,205.0,36.0,2.3,7,5,7,1,2026-05-24T04:31:42.557930+05:30
Kolhapur,Maharashtra,16.705,74.2433,24.2,93,0.0,949.1,8.9,42.5,39,7.8,6.6,6.8,158.0,34.0,2.0,3,5,7,1,2026-05-24T04:31:42.557938+05:30
Goa,Goa,15.2993,74.124,26.5,97,0.0,999.7,6.8,32.0,34,15.6,11.2,3.7,254.0,47.0,1.0,7,5,7,1,2026-05-24T04:31:42.557945+05:30
Jodhpur,Rajasthan,26.2389,73.0243,31.9,39,0.0,980.5,8.4,56.9,183,352.0,85.0,2.7,122.0,54.0,3.3,0,5,7,1,2026-05-24T04:31:42.557952+05:30
Udaipur,Rajasthan,24.5854,73.7125,29.0,42,0.0,945.2,8.8,54.4,86,54.9,24.5,3.3,134.0,61.0,2.9,4,5,7,0,2026-05-24T04:31:42.557959+05:30
Kota,Rajasthan,25.2138,75.8648,33.5,26,0.0,976.3,8.4,42.5,94,65.0,24.7,3.6,146.0,63.0,2.4,0,5,7,0,2026-05-24T04:31:42.557966+05:30
Bikaner,Rajasthan,28.0229,73.3119,32.0,24,0.0,978.3,8.45,55.1,115,221.7,69.4,3.3,199.0,65.0,3.1,0,5,7,0,2026-05-24T04:31:42.557973+05:30
Ajmer,Rajasthan,26.4499,74.6399,30.2,33,0.0,952.9,8.4,61.9,110,73.3,29.7,2.8,139.0,61.0,3.0,0,5,7,0,2026-05-24T04:31:42.557981+05:30
Gwalior,Madhya Pradesh,26.2183,78.1828,32.4,29,0.0,978.9,8.25,42.8,106,57.6,29.5,5.4,175.0,59.0,3.2,0,5,7,0,2026-05-24T04:31:42.557988+05:30
Indore,Madhya Pradesh,22.7196,75.8577,28.8,61,0.0,947.7,8.7,45.0,67,18.2,14.7,7.3,198.0,60.0,12.1,7,5,7,1,2026-05-24T04:31:42.557995+05:30
Bhopal,Madhya Pradesh,23.2599,77.4126,32.0,26,0.0,952.1,8.7,44.6,77,39.3,21.7,3.9,201.0,74.0,3.2,0,5,7,0,2026-05-24T04:31:42.558002+05:30
Jabalpur,Madhya Pradesh,23.1815,79.9864,32.3,27,0.0,958.7,8.85,40.7,69,37.0,23.0,15.0,283.0,44.0,4.0,0,5,7,0,2026-05-24T04:31:42.558009+05:30
Ujjain,Madhya Pradesh,23.1765,75.7885,29.4,58,0.0,953.1,8.65,46.8,69,19.5,15.0,8.2,176.0,51.0,12.5,4,5,7,1,2026-05-24T04:31:42.558016+05:30
Visakhapatnam,Andhra Pradesh,17.6868,83.2185,29.9,89,0.0,999.2,9.05,31.3,113,32.6,26.8,25.4,405.0,75.0,23.8,7,5,7,1,2026-05-24T04:31:42.558023+05:30
Vijayawada,Andhra Pradesh,16.5062,80.648,32.8,47,0.0,998.5,9.1,48.2,103,28.1,24.7,7.0,205.0,95.0,7.0,0,5,7,1,2026-05-24T04:31:42.558030+05:30
Guntur,Andhra Pradesh,16.3067,80.4365,32.6,45,0.0,999.8,9.15,50.8,96,29.3,25.6,7.0,194.0,93.0,6.9,0,5,7,1,2026-05-24T04:31:42.558037+05:30
Nellore,Andhra Pradesh,14.4426,79.9865,30.9,62,0.0,1002.8,7.0,49.7,66,19.3,16.9,7.6,184.0,75.0,7.9,3,5,4,1,2026-05-24T04:31:42.558045+05:30
Kurnool,Andhra Pradesh,15.8281,78.0373,28.4,74,0.0,976.3,8.0,58.3,60,15.4,14.2,9.3,236.0,63.0,3.3,7,5,7,1,2026-05-24T04:31:42.558053+05:30
Kakinada,Andhra Pradesh,16.9891,82.2475,31.0,76,0.0,1002.5,8.4,34.2,76,29.6,26.3,8.8,371.0,89.0,6.6,3,5,4,1,2026-05-24T04:31:42.558060+05:30
Tirupati,Andhra Pradesh,13.6288,79.4192,28.9,65,0.0,988.3,8.65,44.6,71,18.5,15.3,4.6,162.0,69.0,1.6,7,5,7,1,2026-05-24T04:31:42.558066+05:30
Warangal,Telangana,17.9689,79.5941,32.5,42,0.0,975.5,9.15,51.8,107,34.6,29.5,5.2,190.0,94.0,4.8,0,5,7,1,2026-05-24T04:31:42.558073+05:30
Nizamabad,Telangana,18.6725,78.0941,32.0,41,0.0,963.5,9.1,45.4,79,29.8,27.2,8.4,195.0,73.0,4.5,0,5,7,1,2026-05-24T04:31:42.558079+05:30
Mysore,Karnataka,12.2958,76.6396,21.8,96,0.0,929.8,7.65,42.5,37,11.6,10.9,11.8,200.0,32.0,1.8,3,5,7,1,2026-05-24T04:31:42.558086+05:30
Mangalore,Karnataka,12.9141,74.856,25.0,97,0.1,1009.2,7.25,37.1,51,22.4,17.9,12.4,258.0,31.0,3.5,10,0,4,1,2026-05-24T04:31:42.558092+05:30
Hubli-Dharwad,Karnataka,15.3647,75.124,23.9,94,0.0,941.9,9.05,40.0,21,4.2,3.0,2.0,143.0,49.0,0.7,3,5,7,1,2026-05-24T04:31:42.558099+05:30
Belgaum,Karnataka,15.8497,74.4977,23.0,99,0.0,926.8,8.1,39.6,22,6.5,5.1,4.3,133.0,39.0,1.7,3,5,7,1,2026-05-24T04:31:45.897101+05:30
Coimbatore,Tamil Nadu,11.0168,76.9558,24.6,92,0.0,961.7,6.4,51.1,32,8.9,7.4,8.2,204.0,39.0,2.7,3,5,7,1,2026-05-24T04:31:45.897137+05:30
Madurai,Tamil Nadu,9.9252,78.1198,27.5,70,0.0,992.6,8.9,44.3,61,18.7,17.9,31.7,134.0,1.0,4.7,7,5,7,1,2026-05-24T04:31:45.897149+05:30
Trichy,Tamil Nadu,10.7905,78.7047,28.2,72,0.0,999.1,7.2,45.7,52,10.0,8.2,7.5,136.0,48.0,3.3,7,5,7,1,2026-05-24T04:31:45.897158+05:30
Salem,Tamil Nadu,11.6643,78.146,27.2,68,0.0,977.6,6.8,39.6,62,37.5,27.2,30.4,188.0,24.0,8.4,7,5,7,1,2026-05-24T04:31:45.897167+05:30
Tirunelveli,Tamil Nadu,8.7139,77.7567,29.4,67,0.0,1003.2,8.85,36.7,30,7.0,6.0,6.4,137.0,38.0,2.0,7,5,4,1,2026-05-24T04:31:45.897174+05:30
Vellore,Tamil Nadu,12.9165,79.1325,28.0,68,0.0,982.7,8.95,66.6,66,17.1,13.9,10.3,206.0,52.0,4.0,7,5,7,1,2026-05-24T04:31:45.897181+05:30
Erode,Tamil Nadu,11.341,77.7172,26.9,79,0.0,989.3,7.4,46.4,48,15.7,13.1,14.6,201.0,32.0,2.9,7,5,7,1,2026-05-24T04:31:45.897188+05:30
Kochi,Kerala,9.9312,76.2673,26.4,92,0.1,1010.5,7.95,33.1,58,19.3,17.8,20.7,125.0,7.0,4.5,10,0,4,1,2026-05-24T04:31:45.897196+05:30
Thiruvananthapuram,Kerala,8.5241,76.9366,24.0,98,0.0,1010.7,8.3,42.8,39,13.0,7.9,3.6,117.0,52.0,1.7,3,0,4,1,2026-05-24T04:31:45.897203+05:30
Kozhikode,Kerala,11.2588,75.7804,24.4,99,0.2,1009.7,8.55,36.7,32,11.5,7.7,2.8,211.0,57.0,1.1,6,0,4,1,2026-05-24T04:31:45.897210+05:30
Thrissur,Kerala,10.5276,76.2144,24.1,99,0.0,1009.6,7.75,34.6,60,20.8,18.1,18.3,223.0,13.0,3.8,3,0,4,1,2026-05-24T04:31:45.897219+05:30
Kannur,Kerala,11.8745,75.3704,24.5,97,0.1,1009.6,8.5,40.7,47,14.4,12.0,25.5,235.0,15.0,3.2,6,0,4,1,2026-05-24T04:31:45.897226+05:30
Patna,Bihar,25.5941,85.1376,27.6,83,0.0,995.0,8.8,25.9,163,97.8,74.5,32.4,361.0,48.0,17.6,7,5,7,1,2026-05-24T04:31:45.897234+05:30
Gaya,Bihar,24.7914,85.0002,29.3,39,0.0,988.3,8.9,34.6,159,116.4,62.2,31.2,369.0,36.0,9.3,4,5,7,0,2026-05-24T04:31:45.897241+05:30
Muzaffarpur,Bihar,26.1209,85.3647,26.6,89,0.0,995.5,8.8,33.1,160,70.5,60.5,13.5,613.0,85.0,14.2,7,5,7,1,2026-05-24T04:31:45.897248+05:30
Bhagalpur,Bihar,25.2425,87.0117,28.7,84,0.0,996.2,8.8,33.8,152,63.1,55.1,15.3,421.0,62.0,13.2,7,5,7,1,2026-05-24T04:31:45.897255+05:30
Ranchi,Jharkhand,23.3441,85.3096,24.8,77,0.0,934.2,9.25,28.1,118,86.6,51.3,30.7,348.0,42.0,11.6,3,5,7,1,2026-05-24T04:31:45.897262+05:30
Jamshedpur,Jharkhand,22.8046,86.2029,29.0,74,0.0,987.3,9.1,42.5,152,61.9,53.2,20.4,370.0,56.0,18.6,7,5,7,1,2026-05-24T04:31:45.897270+05:30
Dhanbad,Jharkhand,23.7957,86.4304,28.2,92,0.0,975.9,8.9,32.4,159,76.8,69.6,47.0,1125.0,34.0,114.2,7,5,7,1,2026-05-24T04:31:45.897278+05:30
Bokaro,Jharkhand,23.6693,86.1511,28.5,57,0.0,979.7,9.05,29.5,161,115.9,87.3,47.8,801.0,30.0,94.9,4,5,7,1,2026-05-24T04:31:45.897285+05:30
Bhubaneswar,Odisha,20.2961,85.8245,28.9,94,0.0,999.1,9.15,44.6,86,31.2,24.9,5.3,271.0,94.0,4.2,7,5,7,1,2026-05-24T04:31:45.897291+05:30
Cuttack,Odisha,20.4625,85.8828,28.9,94,0.0,1000.8,9.2,40.0,86,31.2,24.9,5.3,280.0,94.0,4.2,7,5,4,1,2026-05-24T04:31:45.897297+05:30
Rourkela,Odisha,22.2604,84.8536,28.4,81,0.0,981.6,9.0,54.7,151,71.7,61.0,26.4,344.0,61.0,22.3,7,5,7,1,2026-05-24T04:31:45.897304+05:30
Raipur,Chhattisgarh,21.2514,81.6296,31.0,28,0.0,970.5,9.0,44.3,112,62.4,52.9,56.8,505.0,4.0,50.1,0,5,7,0,2026-05-24T04:31:45.897311+05:30
Bhilai,Chhattisgarh,21.1938,81.3509,31.8,30,0.0,971.0,9.0,31.0,99,51.2,39.6,39.1,451.0,22.0,39.4,0,5,7,0,2026-05-24T04:31:45.897318+05:30
Guwahati,Assam,26.1158,91.7086,23.4,98,0.0,999.6,8.75,23.0,67,19.4,15.0,7.6,322.0,70.0,2.0,3,5,7,1,2026-05-24T04:31:45.897324+05:30
Agartala,Tripura,23.8315,91.2868,26.6,90,0.0,1004.1,8.35,43.2,81,19.7,15.3,7.7,188.0,53.0,2.4,7,5,4,1,2026-05-24T04:31:45.897331+05:30
Shillong,Meghalaya,25.5788,91.8933,19.3,90,0.0,854.8,8.8,52.6,51,2.7,1.9,5.3,187.0,57.0,2.5,3,10,7,1,2026-05-24T04:31:45.897338+05:30
Imphal,Manipur,24.817,93.9368,20.9,99,0.0,922.4,9.3,34.6,69,27.0,16.5,3.5,341.0,71.0,2.7,3,5,7,1,2026-05-24T04:31:45.897345+05:30
Aizawl,Mizoram,23.7271,92.7176,19.1,93,0.0,891.1,8.5,44.6,71,21.8,15.1,2.5,175.0,50.0,0.8,3,10,7,1,2026-05-24T04:31:45.897353+05:30
Kohima,Nagaland,25.6701,94.1077,16.2,91,0.0,852.4,9.3,34.9,39,24.5,14.0,3.8,224.0,57.0,1.5,3,10,7,0,2026-05-24T04:31:45.897359+05:30
Gangtok,Sikkim,27.3314,88.6138,15.4,88,0.1,834.8,9.15,36.7,67,36.2,16.1,5.8,430.0,122.0,3.4,6,10,7,0,2026-05-24T04:31:45.897365+05:30
Siliguri,West Bengal,26.7271,88.3953,22.4,98,0.2,990.2,8.7,24.8,77,70.1,33.2,9.5,413.0,112.0,4.4,6,5,7,1,2026-05-24T04:31:49.250709+05:30
Durgapur,West Bengal,23.5204,87.3119,28.5,94,0.0,991.1,9.0,35.3,155,47.4,42.8,20.7,430.0,67.0,32.1,7,5,7,1,2026-05-24T04:31:49.250746+05:30
Asansol,West Bengal,23.6739,86.9524,28.2,95,0.0,989.7,8.85,33.8,152,45.8,41.9,20.8,371.0,58.0,28.3,7,5,7,1,2026-05-24T04:31:49.250757+05:30
Pondicherry,Puducherry,11.9139,79.8145,28.2,73,0.0,1006.3,8.8,32.8,85,34.1,28.5,18.6,238.0,47.0,5.2,7,5,4,1,2026-05-24T04:31:49.250766+05:30
Port Blair,Andaman and Nicobar Islands,11.6234,92.7265,27.0,89,0.0,1007.1,8.0,33.5,34,9.8,5.6,0.3,120.0,69.0,0.4,7,5,4,1,2026-05-24T04:31:49.250775+05:30
Haridwar,Uttarakhand,29.9457,78.1642,22.4,54,0.0,967.7,7.55,53.3,83,37.8,26.4,24.5,259.0,36.0,5.2,0,5,7,0,2026-05-24T04:31:49.250783+05:30
Rishikesh,Uttarakhand,30.0869,78.2676,20.2,63,0.0,960.1,7.65,48.2,84,45.3,34.1,25.9,330.0,32.0,4.3,3,5,7,0,2026-05-24T04:31:49.250791+05:30
Nainital,Uttarakhand,29.3919,79.4542,15.3,46,0.0,800.9,8.5,45.4,91,44.8,27.8,22.9,212.0,52.0,3.7,0,5,7,0,2026-05-24T04:31:49.250798+05:30
Mussoorie,Uttarakhand,30.4599,78.0664,16.1,36,0.0,798.9,7.9,72.0,75,41.1,26.2,37.8,178.0,3.0,3.3,0,5,7,0,2026-05-24T04:31:49.250806+05:30
Dharamshala,Himachal Pradesh,32.219,76.3234,21.1,31,0.0,865.8,8.4,54.0,52,23.9,7.7,10.3,177.0,47.0,0.1,0,5,7,0,2026-05-24T04:31:49.250814+05:30
Dalhousie,Himachal Pradesh,32.5387,75.971,10.0,66,0.0,797.8,8.7,44.6,68,32.1,17.8,27.4,230.0,20.0,0.5,3,5,7,0,2026-05-24T04:31:49.250821+05:30
Patiala,Punjab,30.3398,76.3869,28.2,33,0.0,973.3,7.65,41.0,405,733.9,106.9,13.7,375.0,56.0,6.2,4,5,7,0,2026-05-24T04:31:49.250829+05:30
Bhatinda,Punjab,30.211,74.9455,29.4,36,0.0,979.1,8.3,29.2,92,53.4,33.9,21.1,398.0,47.0,9.3,4,5,7,0,2026-05-24T04:31:49.250837+05:30
Rohtak,Haryana,28.8955,76.6066,28.8,28,0.0,977.1,7.75,34.2,743,1017.0,229.6,19.6,313.0,51.0,5.8,4,5,7,0,2026-05-24T04:31:49.250844+05:30
Panipat,Haryana,29.3909,76.9635,28.8,28,0.0,975.4,7.6,44.3,1497,1914.8,334.3,13.5,313.0,61.0,6.4,4,5,7,0,2026-05-24T04:31:49.250850+05:30
Mathura,Uttar Pradesh,27.4924,77.6737,29.5,34,0.0,981.8,8.0,37.1,605,672.4,123.9,23.1,343.0,31.0,6.5,4,5,7,0,2026-05-24T04:31:49.250857+05:30
Vrindavan,Uttar Pradesh,27.5823,77.7027,29.2,34,0.0,982.2,8.0,36.0,605,672.4,123.9,23.1,329.0,31.0,6.5,4,5,7,0,2026-05-24T04:31:49.250864+05:30
Ayodhya,Uttar Pradesh,26.7922,82.1998,27.7,49,0.0,989.7,8.35,32.4,153,241.2,75.7,29.8,305.0,43.0,12.0,4,5,7,0,2026-05-24T04:31:49.250872+05:30
Ratlam,Madhya Pradesh,23.3315,75.0367,28.1,67,0.0,954.2,8.55,49.7,68,15.0,12.3,9.6,153.0,42.0,13.7,7,5,7,1,2026-05-24T04:31:49.250879+05:30
Sagar,Madhya Pradesh,23.8388,78.7378,31.1,29,0.0,948.0,8.75,50.8,72,50.1,26.0,6.6,194.0,73.0,5.2,0,5,7,0,2026-05-24T04:31:49.250886+05:30
Satna,Madhya Pradesh,24.6005,80.8322,31.6,31,0.0,967.7,8.8,48.2,115,263.6,61.0,35.3,186.0,30.0,4.4,0,5,7,0,2026-05-24T04:31:49.250892+05:30
Akola,Maharashtra,20.7002,77.0082,31.8,50,0.0,974.3,8.85,52.2,60,18.4,16.4,7.6,169.0,86.0,14.6,0,5,7,1,2026-05-24T04:31:49.250902+05:30
Amravati,Maharashtra,20.9374,77.7796,31.9,45,0.0,966.0,8.85,50.4,63,18.2,16.0,7.8,186.0,88.0,14.4,0,5,7,1,2026-05-24T04:31:49.250910+05:30
Latur,Maharashtra,18.4088,76.5604,28.1,70,0.0,939.8,9.05,40.3,69,18.5,16.9,7.8,231.0,75.0,9.2,7,5,7,1,2026-05-24T04:31:49.250916+05:30
Nanded,Maharashtra,19.1383,77.3091,32.5,44,0.0,967.6,8.85,45.7,64,17.6,15.5,7.0,180.0,69.0,4.7,0,5,7,1,2026-05-24T04:31:49.250923+05:30
Gulbarga,Karnataka,17.3297,76.8343,27.8,71,0.0,958.7,9.05,54.4,69,17.9,16.4,13.0,214.0,40.0,3.3,7,5,7,1,2026-05-24T04:31:49.250929+05:30
Bidar,Karnataka,17.9104,77.5199,27.9,66,0.0,935.1,9.1,43.6,84,26.3,23.0,8.1,211.0,66.0,2.8,7,5,7,1,2026-05-24T04:31:49.250936+05:30
Hospet,Karnataka,15.2689,76.3909,25.0,89,0.0,956.7,6.5,46.4,36,4.2,3.8,6.4,163.0,36.0,1.3,7,5,7,1,2026-05-24T04:31:49.250942+05:30
Tirupur,Tamil Nadu,11.1085,77.3411,25.4,88,0.0,975.3,6.35,51.5,49,17.7,15.1,17.4,172.0,24.0,3.5,7,5,7,1,2026-05-24T04:31:49.250949+05:30
Alappuzha,Kerala,9.4981,76.3388,26.0,94,0.1,1010.6,8.65,34.2,49,16.5,12.5,11.6,96.0,30.0,3.7,10,0,4,1,2026-05-24T04:31:49.250956+05:30
Munnar,Kerala,10.0889,77.0595,17.1,99,0.0,857.5,7.7,32.8,26,5.7,4.7,6.2,110.0,30.0,0.6,3,10,7,1,2026-05-24T04:31:49.250963+05:30
Silchar,Assam,24.8333,92.7789,24.0,92,0.0,1003.4,8.95,36.4,62,31.4,16.8,6.1,254.0,62.0,2.6,3,5,4,1,2026-05-24T04:31:49.250969+05:30
Dibrugarh,Assam,27.4728,94.912,22.8,99,0.4,993.5,7.3,37.1,57,19.6,13.4,7.0,254.0,84.0,1.4,6,5,7,1,2026-05-24T04:31:49.250976+05:30
