city,state,latitude,longitude,temp,humidity,rain,pressure,uv_index,wind_gusts,aqi,pm10,pm2_5,no2,co,o3,so2,mosquito_risk,arthritis_risk,migraine_risk,frizz_risk,updated_at
Delhi,Delhi,28.6139,77.209,29.6,41,0.0,983.9,7.15,29.2,166,127.6,38.5,10.7,332.0,201.0,22.6,4,5,7,0,2026-05-05T16:47:14.137508+05:30
Mumbai,Maharashtra,19.076,72.8777,31.6,62,0.0,1006.8,7.85,42.1,69,68.2,24.2,6.0,205.0,89.0,18.9,3,5,4,1,2026-05-05T16:47:14.137561+05:30
Bangalore,Karnataka,12.9716,77.5946,32.0,30,0.0,910.1,9.05,33.1,136,56.8,26.0,15.0,321.0,159.0,6.8,0,5,7,0,2026-05-05T16:47:14.137577+05:30
Hyderabad,Telangana,17.385,78.4867,37.7,15,0.0,949.9,9.25,37.8,140,38.6,16.1,1.3,333.0,172.0,5.5,0,5,10,0,2026-05-05T16:47:14.137587+05:30
Chennai,Tamil Nadu,13.0827,80.2707,31.5,64,0.0,1003.9,8.7,45.7,75,28.1,17.5,4.1,253.0,92.0,5.5,3,5,4,1,2026-05-05T16:47:14.137596+05:30
Kolkata,West Bengal,22.5726,88.3639,28.9,72,0.0,1005.1,8.65,45.7,77,29.3,23.8,8.8,506.0,99.0,9.1,7,5,4,1,2026-05-05T16:47:14.137605+05:30
Pune,Maharashtra,18.5204,73.8567,33.3,29,0.0,946.6,8.45,49.7,55,52.3,16.0,2.1,168.0,111.0,2.9,0,5,7,0,2026-05-05T16:47:14.137612+05:30
Ahmedabad,Gujarat,23.0225,72.5714,39.9,15,0.0,998.6,8.1,29.9,71,122.5,27.5,0.2,164.0,141.0,5.3,0,5,10,0,2026-05-05T16:47:14.137625+05:30
Jaipur,Rajasthan,26.9124,75.7873,33.8,23,0.0,959.0,8.05,28.4,153,167.6,33.1,0.3,230.0,155.0,3.9,0,5,7,0,2026-05-05T16:47:14.137632+05:30
Lucknow,Uttar Pradesh,26.8467,80.9462,29.0,58,0.0,993.2,5.25,28.4,125,60.8,41.1,2.9,347.0,179.0,11.2,4,5,3,1,2026-05-05T16:47:14.137639+05:30
Kanpur,Uttar Pradesh,26.4499,80.3319,27.0,68,0.0,991.7,8.05,34.9,132,136.4,41.4,3.0,334.0,180.0,9.2,7,5,7,1,2026-05-05T16:47:14.137647+05:30
Chandigarh,Chandigarh,30.7333,76.7794,30.5,26,0.0,970.2,7.4,42.1,122,76.6,19.3,0.8,265.0,162.0,2.5,0,5,7,0,2026-05-05T16:47:14.137653+05:30
Srinagar,Jammu and Kashmir,34.0837,74.7973,18.8,51,0.0,844.2,8.7,26.3,99,8.8,5.5,4.4,257.0,133.0,1.4,0,5,7,0,2026-05-05T16:47:14.137660+05:30
Jammu,Jammu and Kashmir,32.7266,74.857,31.4,24,0.0,974.4,8.3,32.0,118,60.1,16.1,1.0,205.0,160.0,1.1,0,5,7,0,2026-05-05T16:47:14.137667+05:30
Amritsar,Punjab,31.634,74.8723,32.2,28,0.0,982.2,8.2,45.0,127,122.9,32.0,1.4,222.0,163.0,5.7,0,5,7,0,2026-05-05T16:47:14.137674+05:30
Ludhiana,Punjab,30.901,75.8573,29.1,43,0.0,980.1,7.8,28.8,122,433.1,60.8,1.5,245.0,160.0,4.1,4,5,7,0,2026-05-05T16:47:14.137680+05:30
Jalandhar,Punjab,31.326,75.5762,30.4,34,0.0,981.1,7.95,41.8,133,210.9,42.5,1.2,298.0,167.0,6.2,0,5,7,0,2026-05-05T16:47:14.137686+05:30
Dehradun,Uttarakhand,30.6284,78.0322,15.8,67,0.0,831.7,7.05,32.4,106,56.7,13.5,0.3,173.0,146.0,1.0,3,5,7,0,2026-05-05T16:47:14.137695+05:30
Shimla,Himachal Pradesh,31.1048,77.1734,14.9,46,0.0,785.7,5.0,36.4,107,69.4,18.7,1.1,192.0,147.0,1.6,0,5,3,0,2026-05-05T16:47:14.137703+05:30
Manali,Himachal Pradesh,32.2396,77.1887,15.0,56,0.0,817.9,9.7,41.0,141,22.2,6.0,0.9,160.0,164.0,0.3,0,5,7,0,2026-05-05T16:47:14.137709+05:30
Gurgaon,Haryana,28.4595,77.0266,30.1,39,0.0,982.1,7.6,35.6,423,156.0,42.3,9.5,271.0,204.0,20.5,0,5,7,0,2026-05-05T16:47:14.137715+05:30
Noida,Uttar Pradesh,28.5355,77.391,28.5,49,0.0,985.6,7.3,30.2,423,156.0,42.3,9.5,412.0,204.0,20.5,4,5,7,1,2026-05-05T16:47:14.137722+05:30
Ghaziabad,Uttar Pradesh,28.6692,77.4538,29.2,47,0.0,983.7,7.0,37.4,152,201.6,37.8,4.3,246.0,161.0,5.9,4,5,7,1,2026-05-05T16:47:14.137728+05:30
Faridabad,Haryana,28.4089,77.3178,28.0,53,0.0,984.8,7.25,28.8,423,156.0,42.3,9.5,382.0,204.0,20.5,4,5,7,1,2026-05-05T16:47:14.137733+05:30
Meerut,Uttar Pradesh,28.9845,77.7064,26.0,65,0.0,983.0,3.4,50.8,152,201.6,37.8,4.3,259.0,161.0,5.9,7,5,3,1,2026-05-05T16:47:14.137739+05:30
Agra,Uttar Pradesh,27.1767,78.0081,29.2,55,0.0,987.7,7.9,33.8,344,321.3,57.9,3.4,263.0,162.0,6.9,4,5,7,1,2026-05-05T16:47:14.137745+05:30
Varanasi,Uttar Pradesh,25.3176,82.9739,30.1,53,0.0,996.4,8.25,50.4,169,90.1,48.3,3.5,417.0,199.0,15.7,0,5,7,1,2026-05-05T16:47:14.137751+05:30
Prayagraj,Uttar Pradesh,25.4358,81.8463,32.1,44,0.0,994.8,8.45,51.8,146,74.0,40.9,4.3,292.0,162.0,10.2,0,5,7,1,2026-05-05T16:47:14.137759+05:30
Gorakhpur,Uttar Pradesh,26.7606,83.3732,30.7,52,0.0,996.1,7.8,23.0,151,45.3,31.3,2.3,325.0,175.0,5.3,0,5,7,1,2026-05-05T16:47:14.137765+05:30
Bareilly,Uttar Pradesh,28.367,79.4304,30.0,50,0.0,987.3,7.5,37.8,136,64.5,35.9,2.8,253.0,170.0,10.9,4,5,7,1,2026-05-05T16:47:14.137771+05:30
Aligarh,Uttar Pradesh,27.8974,78.088,30.0,51,0.0,985.9,7.65,41.8,223,161.1,44.8,4.5,219.0,162.0,13.5,4,5,7,1,2026-05-05T16:47:14.137778+05:30
Moradabad,Uttar Pradesh,28.8386,78.7733,28.5,51,0.0,985.0,6.8,46.4,150,66.4,35.7,5.1,303.0,173.0,16.7,4,5,7,1,2026-05-05T16:47:14.137783+05:30
Saharanpur,Uttar Pradesh,29.9637,77.546,26.7,55,0.0,977.2,6.3,53.3,113,81.3,21.0,5.1,244.0,145.0,3.8,4,5,7,1,2026-05-05T16:47:14.137789+05:30
Jhansi,Uttar Pradesh,25.4484,78.5685,29.9,48,0.0,977.4,8.35,59.8,141,88.7,37.0,2.0,260.0,159.0,13.7,4,5,7,1,2026-05-05T16:47:17.435433+05:30
Surat,Gujarat,21.1702,72.8311,33.3,53,0.0,1004.3,7.7,41.8,76,73.1,30.9,18.7,318.0,66.0,45.9,0,5,4,1,2026-05-05T16:47:17.435491+05:30
Vadodara,Gujarat,22.3072,73.1812,37.2,28,0.0,1001.2,8.05,44.3,68,74.3,26.1,1.7,175.0,136.0,4.7,0,5,7,0,2026-05-05T16:47:17.435501+05:30
Rajkot,Gujarat,22.3039,70.8022,40.2,14,0.0,990.8,7.7,51.8,63,112.7,25.5,1.1,142.0,145.0,5.6,0,5,10,0,2026-05-05T16:47:17.435510+05:30
Thane,Maharashtra,19.2183,72.9781,32.7,57,0.0,1005.9,7.85,38.9,69,68.2,24.2,6.0,186.0,89.0,18.9,0,5,4,1,2026-05-05T16:47:17.435519+05:30
Nagpur,Maharashtra,21.1458,79.0882,39.5,14,0.0,969.1,8.9,34.9,146,39.3,15.8,4.8,177.0,157.0,15.5,0,5,10,0,2026-05-05T16:47:17.435528+05:30
Nashik,Maharashtra,19.9975,73.7898,33.0,32,0.0,944.1,8.2,44.6,62,58.9,19.2,1.3,153.0,107.0,1.3,0,5,7,0,2026-05-05T16:47:17.435536+05:30
Aurangabad,Maharashtra,19.8762,75.3433,37.2,14,0.0,941.8,9.0,42.8,61,65.2,17.5,0.9,159.0,127.0,2.1,0,5,10,0,2026-05-05T16:47:17.435543+05:30
Solapur,Maharashtra,17.6599,75.9064,39.0,13,0.0,953.5,9.1,41.0,64,58.3,15.1,0.5,151.0,133.0,1.9,0,5,10,0,2026-05-05T16:47:17.435552+05:30
Kolhapur,Maharashtra,16.705,74.2433,33.2,30,0.0,945.9,8.95,45.7,60,52.5,15.2,2.2,156.0,104.0,1.2,0,5,7,0,2026-05-05T16:47:17.435560+05:30
Goa,Goa,15.2993,74.124,33.8,54,0.0,995.3,8.95,36.0,68,37.6,16.1,0.9,136.0,73.0,0.9,0,5,7,1,2026-05-05T16:47:17.435567+05:30
Jodhpur,Rajasthan,26.2389,73.0243,37.0,21,0.0,981.2,8.3,47.5,101,222.6,34.7,0.0,152.0,149.0,3.3,0,5,10,0,2026-05-05T16:47:17.435575+05:30
Udaipur,Rajasthan,24.5854,73.7125,27.3,50,0.0,946.6,8.75,50.8,78,121.5,27.4,0.8,170.0,141.0,3.6,4,5,7,1,2026-05-05T16:47:17.435583+05:30
Kota,Rajasthan,25.2138,75.8648,37.0,19,0.0,976.4,8.3,28.8,118,94.3,26.2,1.1,208.0,158.0,5.2,0,5,10,0,2026-05-05T16:47:17.435590+05:30
Bikaner,Rajasthan,28.0229,73.3119,35.7,21,0.0,981.3,8.2,28.8,90,104.5,29.5,0.6,191.0,159.0,7.7,0,5,10,0,2026-05-05T16:47:17.435598+05:30
Ajmer,Rajasthan,26.4499,74.6399,34.2,21,0.0,953.7,8.2,35.3,96,71.2,20.3,0.4,188.0,149.0,3.2,0,5,7,0,2026-05-05T16:47:17.435606+05:30
Gwalior,Madhya Pradesh,26.2183,78.1828,27.1,68,0.0,982.8,8.1,49.3,112,110.8,31.0,1.2,275.0,150.0,3.1,7,5,7,1,2026-05-05T16:47:17.435614+05:30
Indore,Madhya Pradesh,22.7196,75.8577,34.8,19,0.0,946.4,8.6,46.8,104,57.3,19.2,1.1,184.0,135.0,4.0,0,5,7,0,2026-05-05T16:47:17.435621+05:30
Bhopal,Madhya Pradesh,23.2599,77.4126,36.8,17,0.0,951.0,8.6,37.4,99,58.0,17.8,0.6,233.0,133.0,2.6,0,5,10,0,2026-05-05T16:47:17.435629+05:30
Jabalpur,Madhya Pradesh,23.1815,79.9864,36.5,23,0.0,958.3,8.3,43.9,142,44.0,19.3,2.1,217.0,154.0,4.3,0,5,10,0,2026-05-05T16:47:17.435637+05:30
Ujjain,Madhya Pradesh,23.1765,75.7885,35.4,19,0.0,951.9,8.55,44.6,96,42.0,14.7,0.8,156.0,132.0,3.2,0,5,10,0,2026-05-05T16:47:17.435645+05:30
Visakhapatnam,Andhra Pradesh,17.6868,83.2185,30.6,69,0.0,1002.2,9.2,36.7,79,30.6,22.2,17.2,360.0,68.0,14.6,3,5,4,1,2026-05-05T16:47:17.435653+05:30
Vijayawada,Andhra Pradesh,16.5062,80.648,35.5,41,0.0,999.4,9.2,41.4,87,45.4,31.7,3.6,203.0,119.0,7.4,0,5,10,1,2026-05-05T16:47:17.435661+05:30
Guntur,Andhra Pradesh,16.3067,80.4365,34.6,47,0.0,1000.8,9.2,39.2,98,71.5,42.7,2.8,223.0,133.0,5.5,0,5,4,1,2026-05-05T16:47:17.435669+05:30
Nellore,Andhra Pradesh,14.4426,79.9865,32.2,65,0.0,1002.6,8.9,40.3,108,41.3,28.6,1.8,244.0,122.0,6.7,3,5,4,1,2026-05-05T16:47:17.435677+05:30
Kurnool,Andhra Pradesh,15.8281,78.0373,39.7,15,0.0,971.9,9.2,43.9,140,44.6,18.1,0.8,180.0,167.0,6.2,0,5,10,0,2026-05-05T16:47:17.435686+05:30
Kakinada,Andhra Pradesh,16.9891,82.2475,31.5,60,0.0,1005.7,9.15,32.8,66,26.7,17.4,1.4,200.0,79.0,1.1,0,5,4,1,2026-05-05T16:47:17.435693+05:30
Tirupati,Andhra Pradesh,13.6288,79.4192,36.4,30,0.0,987.3,9.25,31.7,147,65.9,44.5,2.6,225.0,174.0,10.7,0,5,10,1,2026-05-05T16:47:17.435700+05:30
Warangal,Telangana,17.9689,79.5941,38.3,19,0.0,974.9,9.15,53.3,111,43.4,20.1,1.8,225.0,147.0,4.8,0,5,10,0,2026-05-05T16:47:17.435708+05:30
Nizamabad,Telangana,18.6725,78.0941,38.2,14,0.0,961.3,9.1,32.8,120,44.9,16.6,0.6,167.0,143.0,4.9,0,5,10,0,2026-05-05T16:47:17.435715+05:30
Mysore,Karnataka,12.2958,76.6396,32.2,36,0.0,926.2,9.35,31.0,84,41.4,17.1,1.1,190.0,150.0,2.1,0,5,7,0,2026-05-05T16:47:17.435723+05:30
Mangalore,Karnataka,12.9141,74.856,31.5,63,0.0,1004.2,8.6,50.0,64,41.9,16.5,1.3,131.0,73.0,0.8,3,5,4,1,2026-05-05T16:47:17.435730+05:30
Hubli-Dharwad,Karnataka,15.3647,75.124,35.3,22,0.0,937.9,9.2,55.4,58,65.4,17.6,2.0,166.0,122.0,1.2,0,5,10,0,2026-05-05T16:47:17.435739+05:30
Belgaum,Karnataka,15.8497,74.4977,30.5,42,0.0,924.0,9.2,54.7,59,48.8,15.4,1.7,150.0,101.0,1.5,0,5,7,1,2026-05-05T16:47:20.717559+05:30
Coimbatore,Tamil Nadu,11.0168,76.9558,31.1,53,0.0,959.3,9.25,38.2,79,41.8,18.9,6.5,218.0,123.0,3.4,0,5,7,1,2026-05-05T16:47:20.717588+05:30
Madurai,Tamil Nadu,9.9252,78.1198,31.9,61,0.1,989.8,4.45,35.3,130,46.4,22.5,2.8,277.0,154.0,2.7,6,5,3,1,2026-05-05T16:47:20.717597+05:30
Trichy,Tamil Nadu,10.7905,78.7047,36.2,36,0.0,995.4,8.65,34.6,118,59.0,32.4,2.1,227.0,168.0,4.7,0,5,10,1,2026-05-05T16:47:20.717605+05:30
Salem,Tamil Nadu,11.6643,78.146,35.4,32,0.0,973.7,9.0,41.0,148,66.6,31.0,3.9,235.0,173.0,13.2,0,5,10,1,2026-05-05T16:47:20.717612+05:30
Tirunelveli,Tamil Nadu,8.7139,77.7567,32.7,49,0.0,999.7,8.75,37.8,79,32.5,16.8,2.6,216.0,111.0,0.9,0,5,7,1,2026-05-05T16:47:20.717619+05:30
Vellore,Tamil Nadu,12.9165,79.1325,35.8,34,0.0,980.8,8.35,34.2,158,66.6,41.0,3.2,240.0,176.0,7.6,0,5,10,1,2026-05-05T16:47:20.717626+05:30
Erode,Tamil Nadu,11.341,77.7172,29.3,64,0.1,986.1,8.95,59.0,122,64.0,26.4,4.2,237.0,165.0,3.1,10,5,7,1,2026-05-05T16:47:20.717633+05:30
Kochi,Kerala,9.9312,76.2673,29.7,75,0.0,1006.2,3.95,27.7,62,14.4,9.6,6.5,163.0,83.0,2.3,7,5,0,1,2026-05-05T16:47:20.717640+05:30
Thiruvananthapuram,Kerala,8.5241,76.9366,28.9,74,0.0,1005.3,8.8,32.8,67,19.1,9.5,2.2,135.0,111.0,1.8,7,5,4,1,2026-05-05T16:47:20.717647+05:30
Kozhikode,Kerala,11.2588,75.7804,29.8,74,0.0,1005.2,8.75,39.6,58,40.2,14.7,0.8,152.0,73.0,0.6,7,5,4,1,2026-05-05T16:47:20.717653+05:30
Thrissur,Kerala,10.5276,76.2144,30.5,69,0.0,1004.4,5.7,28.8,57,19.5,10.6,3.4,125.0,91.0,1.9,3,5,0,1,2026-05-05T16:47:20.717660+05:30
Kannur,Kerala,11.8745,75.3704,31.1,65,0.0,1004.6,8.7,42.1,64,39.8,17.6,1.6,145.0,80.0,1.1,3,5,4,1,2026-05-05T16:47:20.717667+05:30
Patna,Bihar,25.5941,85.1376,30.1,58,0.0,999.0,8.7,29.2,174,70.3,47.1,3.0,370.0,201.0,9.2,0,5,7,1,2026-05-05T16:47:20.717673+05:30
Gaya,Bihar,24.7914,85.0002,32.4,43,0.0,992.3,8.75,31.7,167,88.2,46.4,3.6,338.0,186.0,10.0,0,5,7,1,2026-05-05T16:47:20.717680+05:30
Muzaffarpur,Bihar,26.1209,85.3647,30.4,58,0.0,998.8,8.6,30.6,159,65.2,46.0,4.8,355.0,185.0,9.1,0,5,7,1,2026-05-05T16:47:20.717686+05:30
Bhagalpur,Bihar,25.2425,87.0117,30.1,59,0.0,999.8,8.7,25.9,160,48.1,39.7,7.3,301.0,194.0,11.4,0,5,7,1,2026-05-05T16:47:20.717693+05:30
Ranchi,Jharkhand,23.3441,85.3096,27.2,60,0.0,937.2,9.2,33.5,158,82.9,47.8,3.6,267.0,164.0,10.3,4,5,7,1,2026-05-05T16:47:20.717699+05:30
Jamshedpur,Jharkhand,22.8046,86.2029,27.4,70,0.0,991.2,9.0,29.5,159,43.7,35.0,5.0,236.0,173.0,14.7,7,5,7,1,2026-05-05T16:47:20.717705+05:30
Dhanbad,Jharkhand,23.7957,86.4304,25.5,81,0.0,979.1,9.0,29.5,147,72.4,59.6,25.1,250.0,189.0,59.1,7,5,7,1,2026-05-05T16:47:20.717712+05:30
Bokaro,Jharkhand,23.6693,86.1511,26.8,74,0.0,983.2,8.85,34.2,191,78.9,64.7,23.5,919.0,225.0,69.4,7,5,7,1,2026-05-05T16:47:20.717718+05:30
Bhubaneswar,Odisha,20.2961,85.8245,27.4,81,0.0,1002.4,9.1,37.1,49,11.6,7.8,3.2,206.0,81.0,2.6,7,5,4,1,2026-05-05T16:47:20.717724+05:30
Cuttack,Odisha,20.4625,85.8828,25.9,85,0.0,1004.5,9.15,30.2,49,11.6,7.8,3.2,246.0,81.0,2.6,7,5,4,1,2026-05-05T16:47:20.717730+05:30
Rourkela,Odisha,22.2604,84.8536,26.6,76,0.1,984.6,9.0,43.6,166,56.6,35.3,3.4,295.0,163.0,27.2,10,5,7,1,2026-05-05T16:47:20.717736+05:30
Raipur,Chhattisgarh,21.2514,81.6296,38.0,23,0.0,971.1,8.95,37.4,159,44.9,25.7,6.5,268.0,169.0,6.2,0,5,10,0,2026-05-05T16:47:20.717743+05:30
Bhilai,Chhattisgarh,21.1938,81.3509,37.7,24,0.0,971.6,8.95,41.4,152,40.2,23.5,6.1,397.0,156.0,5.0,0,5,10,0,2026-05-05T16:47:20.717748+05:30
Guwahati,Assam,26.1158,91.7086,28.1,68,0.0,999.5,8.65,23.8,89,35.4,23.7,2.3,318.0,126.0,1.1,7,5,7,1,2026-05-05T16:47:20.717754+05:30
Agartala,Tripura,23.8315,91.2868,27.6,80,0.0,1004.8,8.75,24.1,130,27.5,22.8,10.0,210.0,149.0,4.5,7,5,4,1,2026-05-05T16:47:20.717761+05:30
Shillong,Meghalaya,25.5788,91.8933,20.1,73,0.1,856.3,8.4,25.2,96,32.5,21.8,3.2,279.0,126.0,1.9,6,5,7,0,2026-05-05T16:47:20.717767+05:30
Imphal,Manipur,24.817,93.9368,26.2,57,0.0,921.6,9.2,28.4,94,39.8,21.7,4.4,269.0,106.0,1.8,4,5,7,1,2026-05-05T16:47:20.717773+05:30
Aizawl,Mizoram,23.7271,92.7176,22.2,74,0.0,892.0,9.05,27.0,74,20.8,14.1,2.6,210.0,83.0,0.8,3,5,7,1,2026-05-05T16:47:20.717779+05:30
Kohima,Nagaland,25.6701,94.1077,21.0,75,0.0,854.6,9.15,31.3,71,32.1,15.6,3.1,284.0,106.0,0.9,3,5,7,1,2026-05-05T16:47:20.717785+05:30
Gangtok,Sikkim,27.3314,88.6138,16.7,83,0.0,836.6,9.0,33.5,86,13.9,9.6,3.5,285.0,124.0,0.7,3,10,7,0,2026-05-05T16:47:20.717792+05:30
Siliguri,West Bengal,26.7271,88.3953,26.1,74,0.0,992.0,8.6,29.5,106,30.6,21.8,6.7,639.0,128.0,1.7,7,5,7,1,2026-05-05T16:47:24.003704+05:30
Durgapur,West Bengal,23.5204,87.3119,25.9,84,0.0,994.7,8.7,28.1,116,53.2,45.6,17.3,308.0,170.0,37.5,7,5,7,1,2026-05-05T16:47:24.003735+05:30
Asansol,West Bengal,23.6739,86.9524,27.1,76,0.0,992.7,8.3,32.0,119,57.9,48.2,18.2,559.0,171.0,43.0,7,5,7,1,2026-05-05T16:47:24.003746+05:30
Pondicherry,Puducherry,11.9139,79.8145,30.1,72,0.0,1005.2,8.9,41.8,77,28.0,15.9,1.7,261.0,94.0,0.6,3,5,4,1,2026-05-05T16:47:24.003755+05:30
Port Blair,Andaman and Nicobar Islands,11.6234,92.7265,26.9,85,0.0,1006.2,8.4,38.9,29,5.0,3.8,0.6,206.0,62.0,0.4,7,5,4,1,2026-05-05T16:47:24.003763+05:30
Haridwar,Uttarakhand,29.9457,78.1642,27.0,49,0.0,975.9,6.2,50.4,106,73.6,19.0,1.8,235.0,148.0,2.5,4,5,7,0,2026-05-05T16:47:24.003772+05:30
Rishikesh,Uttarakhand,30.0869,78.2676,26.1,50,0.0,968.7,6.6,49.3,98,70.1,18.2,1.3,191.0,144.0,2.1,4,5,7,0,2026-05-05T16:47:24.003780+05:30
Nainital,Uttarakhand,29.3919,79.4542,14.0,71,0.0,806.1,6.55,31.0,111,45.2,22.2,1.1,211.0,154.0,3.7,3,5,7,0,2026-05-05T16:47:24.003789+05:30
Mussoorie,Uttarakhand,30.4599,78.0664,14.1,65,0.0,803.6,6.2,37.1,106,58.3,15.4,1.6,177.0,150.0,2.3,3,5,7,0,2026-05-05T16:47:24.003796+05:30
Dharamshala,Himachal Pradesh,32.219,76.3234,20.7,45,0.0,870.2,6.7,45.0,119,38.2,10.1,0.2,191.0,150.0,0.6,0,5,7,0,2026-05-05T16:47:24.003804+05:30
Dalhousie,Himachal Pradesh,32.5387,75.971,16.9,49,0.0,806.3,6.15,46.8,128,48.7,13.1,0.2,188.0,156.0,1.4,0,5,7,0,2026-05-05T16:47:24.003811+05:30
Patiala,Punjab,30.3398,76.3869,31.1,28,0.0,979.3,7.3,66.6,390,592.3,72.2,2.0,224.0,159.0,5.3,0,5,7,0,2026-05-05T16:47:24.003820+05:30
Bhatinda,Punjab,30.211,74.9455,32.3,31,0.0,984.4,8.1,37.8,368,253.3,57.0,2.8,231.0,193.0,14.7,0,5,7,0,2026-05-05T16:47:24.003827+05:30
Rohtak,Haryana,28.8955,76.6066,27.4,49,0.0,982.7,7.55,50.4,189,197.0,46.3,4.2,240.0,206.0,12.9,4,5,7,0,2026-05-05T16:47:24.003834+05:30
Panipat,Haryana,29.3909,76.9635,27.0,56,0.0,981.8,6.65,45.7,633,455.4,66.6,5.4,218.0,175.0,16.0,4,5,7,1,2026-05-05T16:47:24.003841+05:30
Mathura,Uttar Pradesh,27.4924,77.6737,30.5,45,0.0,987.0,7.65,44.3,272,206.8,44.6,3.1,262.0,163.0,7.3,0,5,7,1,2026-05-05T16:47:24.003849+05:30
Vrindavan,Uttar Pradesh,27.5823,77.7027,31.0,42,0.0,987.3,7.6,36.0,272,206.8,44.6,3.1,249.0,163.0,7.3,0,5,7,1,2026-05-05T16:47:24.003856+05:30
Ayodhya,Uttar Pradesh,26.7922,82.1998,29.4,54,0.0,994.5,4.65,23.4,135,45.8,30.6,4.4,331.0,152.0,6.0,4,5,3,1,2026-05-05T16:47:24.003863+05:30
Ratlam,Madhya Pradesh,23.3315,75.0367,33.6,27,0.0,953.5,8.5,39.2,83,40.3,13.7,0.6,146.0,130.0,2.3,0,5,7,0,2026-05-05T16:47:24.003870+05:30
Sagar,Madhya Pradesh,23.8388,78.7378,31.9,33,0.0,948.6,8.65,48.2,111,53.7,16.4,0.7,215.0,142.0,1.9,0,5,7,0,2026-05-05T16:47:24.003878+05:30
Satna,Madhya Pradesh,24.6005,80.8322,32.3,37,0.0,970.0,8.7,39.2,161,58.3,36.7,2.5,229.0,182.0,9.3,0,5,7,0,2026-05-05T16:47:24.003885+05:30
Akola,Maharashtra,20.7002,77.0082,39.3,16,0.0,971.4,8.9,36.4,85,48.3,17.2,1.5,156.0,139.0,8.7,0,5,10,0,2026-05-05T16:47:24.003893+05:30
Amravati,Maharashtra,20.9374,77.7796,39.0,13,0.0,963.7,8.85,32.4,93,46.8,16.8,1.6,156.0,143.0,7.2,0,5,10,0,2026-05-05T16:47:24.003901+05:30
Latur,Maharashtra,18.4088,76.5604,37.2,15,0.0,937.3,9.05,38.5,77,64.5,18.0,0.6,136.0,134.0,6.1,0,5,10,0,2026-05-05T16:47:24.003907+05:30
Nanded,Maharashtra,19.1383,77.3091,38.8,16,0.0,965.1,8.95,33.1,75,57.2,16.6,0.1,145.0,135.0,2.3,0,5,10,0,2026-05-05T16:47:24.003913+05:30
Gulbarga,Karnataka,17.3297,76.8343,39.0,12,0.0,954.3,9.1,37.1,90,53.1,18.1,1.3,167.0,150.0,5.3,0,5,10,0,2026-05-05T16:47:24.003919+05:30
Bidar,Karnataka,17.9104,77.5199,36.8,17,0.0,933.0,9.15,32.4,100,44.1,17.0,0.2,163.0,148.0,4.1,0,5,10,0,2026-05-05T16:47:24.003924+05:30
Hospet,Karnataka,15.2689,76.3909,36.5,20,0.0,952.4,9.25,36.4,63,50.9,16.4,0.2,165.0,142.0,2.2,0,5,10,0,2026-05-05T16:47:24.003930+05:30
Tirupur,Tamil Nadu,11.1085,77.3411,33.0,42,0.0,972.4,9.2,45.7,117,56.9,24.4,6.4,230.0,153.0,3.8,0,5,7,1,2026-05-05T16:47:24.003936+05:30
Alappuzha,Kerala,9.4981,76.3388,29.8,75,0.0,1006.2,7.75,33.5,60,15.1,9.5,6.5,119.0,93.0,3.7,7,5,4,1,2026-05-05T16:47:24.003942+05:30
Munnar,Kerala,10.0889,77.0595,19.8,91,0.0,855.6,7.25,24.5,78,35.6,19.4,2.3,207.0,125.0,1.6,3,10,7,1,2026-05-05T16:47:24.003948+05:30
Silchar,Assam,24.8333,92.7789,29.9,65,0.0,1002.5,8.85,38.2,99,31.5,22.4,4.8,318.0,115.0,4.6,7,5,4,1,2026-05-05T16:47:24.003953+05:30
Dibrugarh,Assam,27.4728,94.912,27.5,69,0.0,993.4,8.45,34.6,73,19.0,13.8,6.2,302.0,100.0,1.6,7,5,7,1,2026-05-05T16:47:24.003959+05:30
