city,state,latitude,longitude,temp,humidity,rain,pressure,uv_index,wind_gusts,aqi,pm10,pm2_5,no2,co,o3,so2,mosquito_risk,arthritis_risk,migraine_risk,frizz_risk,updated_at
Delhi,Delhi,28.6139,77.209,40.0,13,0.0,980.4,7.75,37.1,610,347.4,91.3,13.1,477.0,168.0,17.2,0,5,10,0,2026-05-27T10:48:10.160812+05:30
Mumbai,Maharashtra,19.076,72.8777,34.0,54,0.0,1011.1,7.8,40.3,37,16.4,12.7,6.7,202.0,93.0,9.3,0,0,4,1,2026-05-27T10:48:10.160857+05:30
Bangalore,Karnataka,12.9716,77.5946,27.3,67,0.0,915.1,9.25,27.4,78,20.9,17.7,6.5,375.0,122.0,4.7,7,5,7,1,2026-05-27T10:48:10.160874+05:30
Hyderabad,Telangana,17.385,78.4867,33.8,43,0.0,955.2,8.55,39.2,73,18.7,15.9,5.1,317.0,129.0,7.2,0,5,7,1,2026-05-27T10:48:10.160883+05:30
Chennai,Tamil Nadu,13.0827,80.2707,36.6,36,0.0,1007.2,9.0,37.1,88,32.9,29.9,11.1,379.0,156.0,13.1,0,5,7,1,2026-05-27T10:48:10.160891+05:30
Kolkata,West Bengal,22.5726,88.3639,35.0,58,0.0,1003.3,8.9,47.2,122,52.7,36.3,2.2,298.0,126.0,8.4,0,5,4,1,2026-05-27T10:48:10.160898+05:30
Pune,Maharashtra,18.5204,73.8567,32.8,46,0.0,951.4,8.4,42.8,41,11.4,8.0,2.8,164.0,85.0,5.8,0,5,7,1,2026-05-27T10:48:10.160904+05:30
Ahmedabad,Gujarat,23.0225,72.5714,35.1,47,0.0,1003.7,8.15,35.3,76,48.4,21.7,2.8,165.0,81.0,5.7,0,5,7,1,2026-05-27T10:48:10.160910+05:30
Jaipur,Rajasthan,26.9124,75.7873,39.4,23,0.0,959.1,8.25,47.5,165,437.7,77.5,2.0,165.0,101.0,5.7,0,5,10,0,2026-05-27T10:48:10.160923+05:30
Lucknow,Uttar Pradesh,26.8467,80.9462,35.8,42,0.0,991.0,8.2,31.0,152,54.4,32.7,3.9,421.0,193.0,15.3,0,5,10,1,2026-05-27T10:48:10.160930+05:30
Kanpur,Uttar Pradesh,26.4499,80.3319,40.8,15,0.0,988.6,8.2,40.3,374,254.3,61.2,5.1,305.0,201.0,16.0,0,5,10,0,2026-05-27T10:48:10.160936+05:30
Chandigarh,Chandigarh,30.7333,76.7794,37.5,16,0.0,966.6,7.75,38.5,56,15.5,12.4,4.6,384.0,186.0,11.6,0,5,10,0,2026-05-27T10:48:10.160943+05:30
Srinagar,Jammu and Kashmir,34.0837,74.7973,22.5,44,0.0,845.5,9.0,19.8,79,35.0,17.0,3.6,408.0,151.0,4.2,0,5,7,0,2026-05-27T10:48:10.160949+05:30
Jammu,Jammu and Kashmir,32.7266,74.857,37.8,19,0.0,969.4,8.6,54.7,63,27.4,15.0,6.2,287.0,165.0,3.6,0,5,10,0,2026-05-27T10:48:10.160956+05:30
Amritsar,Punjab,31.634,74.8723,38.3,20,0.0,977.5,8.45,30.6,90,20.1,14.0,8.0,411.0,173.0,9.4,0,5,10,0,2026-05-27T10:48:10.160962+05:30
Ludhiana,Punjab,30.901,75.8573,38.1,20,0.0,975.7,8.0,39.6,66,22.2,13.6,4.6,420.0,168.0,6.1,0,5,10,0,2026-05-27T10:48:10.160968+05:30
Jalandhar,Punjab,31.326,75.5762,37.6,21,0.0,976.6,8.25,36.4,77,45.2,21.2,5.8,471.0,177.0,6.7,0,5,10,0,2026-05-27T10:48:10.160974+05:30
Dehradun,Uttarakhand,30.6284,78.0322,26.0,29,0.0,832.8,8.2,41.8,53,25.4,12.1,0.7,172.0,164.0,1.3,4,5,7,0,2026-05-27T10:48:10.160980+05:30
Shimla,Himachal Pradesh,31.1048,77.1734,25.1,16,0.0,788.8,8.3,54.4,51,20.1,10.1,0.9,163.0,166.0,2.3,4,5,7,1,2026-05-27T10:48:10.160989+05:30
Manali,Himachal Pradesh,32.2396,77.1887,27.7,16,0.0,821.4,9.65,46.4,99,22.6,11.0,8.6,149.0,156.0,0.3,4,5,7,1,2026-05-27T10:48:10.160994+05:30
Gurgaon,Haryana,28.4595,77.0266,38.8,17,0.0,979.1,7.85,34.6,936,668.7,117.6,13.0,435.0,170.0,15.9,0,5,10,0,2026-05-27T10:48:10.161000+05:30
Noida,Uttar Pradesh,28.5355,77.391,40.2,13,0.0,981.8,7.75,31.3,936,668.7,117.6,13.0,544.0,170.0,15.9,0,5,10,0,2026-05-27T10:48:10.161022+05:30
Ghaziabad,Uttar Pradesh,28.6692,77.4538,39.5,14,0.0,980.1,7.75,34.2,384,268.2,80.6,10.9,326.0,186.0,20.9,0,5,10,0,2026-05-27T10:48:10.161028+05:30
Faridabad,Haryana,28.4089,77.3178,40.0,13,0.0,981.1,7.8,38.9,936,668.7,117.6,13.0,447.0,170.0,15.9,0,5,10,0,2026-05-27T10:48:10.161034+05:30
Meerut,Uttar Pradesh,28.9845,77.7064,36.7,22,0.0,979.1,7.7,32.0,384,268.2,80.6,10.9,271.0,186.0,20.9,0,5,10,0,2026-05-27T10:48:10.161040+05:30
Agra,Uttar Pradesh,27.1767,78.0081,40.5,15,0.0,985.2,8.05,38.5,610,780.4,129.9,11.9,313.0,184.0,16.0,0,5,10,0,2026-05-27T10:48:10.161046+05:30
Varanasi,Uttar Pradesh,25.3176,82.9739,36.2,45,0.0,995.1,8.7,40.3,138,66.6,47.3,5.2,666.0,196.0,22.1,0,5,10,1,2026-05-27T10:48:10.161052+05:30
Prayagraj,Uttar Pradesh,25.4358,81.8463,39.5,30,0.0,992.9,8.55,53.6,126,73.6,42.4,5.0,428.0,204.0,20.1,0,5,10,1,2026-05-27T10:48:10.161058+05:30
Gorakhpur,Uttar Pradesh,26.7606,83.3732,33.0,52,0.0,996.1,8.55,43.6,84,45.9,29.3,2.4,352.0,168.0,10.7,0,5,7,1,2026-05-27T10:48:10.161066+05:30
Bareilly,Uttar Pradesh,28.367,79.4304,33.8,44,0.0,984.6,8.0,29.2,118,153.7,47.8,4.9,475.0,189.0,14.9,0,5,7,1,2026-05-27T10:48:10.161072+05:30
Aligarh,Uttar Pradesh,27.8974,78.088,39.6,16,0.0,983.0,7.9,35.6,623,506.6,107.3,9.7,373.0,172.0,20.7,0,5,10,0,2026-05-27T10:48:10.161078+05:30
Moradabad,Uttar Pradesh,28.8386,78.7733,34.5,38,0.0,981.3,7.85,32.4,112,58.8,37.3,6.6,442.0,195.0,15.7,0,5,7,1,2026-05-27T10:48:10.161084+05:30
Saharanpur,Uttar Pradesh,29.9637,77.546,34.8,23,0.0,973.5,7.5,34.2,73,41.2,23.2,6.7,332.0,187.0,12.7,0,5,7,0,2026-05-27T10:48:10.161090+05:30
Jhansi,Uttar Pradesh,25.4484,78.5685,40.1,24,0.0,976.2,8.45,52.9,74,54.6,18.0,1.8,156.0,103.0,5.2,0,5,10,0,2026-05-27T10:48:13.466959+05:30
Surat,Gujarat,21.1702,72.8311,34.0,57,0.0,1009.2,7.7,43.9,68,71.2,28.2,12.5,339.0,56.0,38.7,0,0,4,1,2026-05-27T10:48:13.466994+05:30
Vadodara,Gujarat,22.3072,73.1812,35.5,49,0.0,1006.0,8.1,41.8,70,60.5,25.7,2.7,177.0,81.0,5.2,0,5,7,1,2026-05-27T10:48:13.467004+05:30
Rajkot,Gujarat,22.3039,70.8022,35.0,44,0.0,996.0,7.75,47.2,71,57.9,23.0,1.8,128.0,78.0,4.7,0,5,7,1,2026-05-27T10:48:13.467013+05:30
Thane,Maharashtra,19.2183,72.9781,34.9,52,0.0,1010.2,7.8,37.4,37,16.4,12.7,6.7,206.0,93.0,9.3,0,0,4,1,2026-05-27T10:48:13.467021+05:30
Nagpur,Maharashtra,21.1458,79.0882,40.4,23,0.0,973.0,8.9,44.6,74,52.2,25.0,5.8,202.0,133.0,19.0,0,5,10,0,2026-05-27T10:48:13.467029+05:30
Nashik,Maharashtra,19.9975,73.7898,32.2,51,0.0,948.9,8.1,42.8,24,10.4,6.0,1.5,151.0,70.0,1.5,0,5,7,1,2026-05-27T10:48:13.467038+05:30
Aurangabad,Maharashtra,19.8762,75.3433,34.5,39,0.0,947.0,9.0,42.1,36,20.7,10.4,1.9,147.0,86.0,4.1,0,5,7,1,2026-05-27T10:48:13.467045+05:30
Solapur,Maharashtra,17.6599,75.9064,34.3,42,0.0,960.1,8.95,36.4,48,14.0,9.6,2.1,150.0,99.0,4.3,0,5,7,1,2026-05-27T10:48:13.467052+05:30
Kolhapur,Maharashtra,16.705,74.2433,32.8,47,0.0,951.4,8.55,47.5,28,11.7,8.4,2.2,149.0,81.0,2.2,0,5,7,1,2026-05-27T10:48:13.467060+05:30
Goa,Goa,15.2993,74.124,32.1,66,0.1,1001.2,6.4,27.4,37,7.5,5.7,1.2,170.0,66.0,1.5,6,5,4,1,2026-05-27T10:48:13.467068+05:30
Jodhpur,Rajasthan,26.2389,73.0243,36.2,41,0.0,983.1,8.45,42.5,148,331.6,63.8,1.2,132.0,81.0,3.4,0,5,10,1,2026-05-27T10:48:13.467075+05:30
Udaipur,Rajasthan,24.5854,73.7125,35.4,34,0.0,948.2,8.85,42.8,76,48.1,18.7,1.0,136.0,88.0,2.9,0,5,10,1,2026-05-27T10:48:13.467082+05:30
Kota,Rajasthan,25.2138,75.8648,40.8,26,0.0,978.2,8.4,43.2,88,56.8,21.2,2.4,165.0,105.0,7.3,0,5,10,1,2026-05-27T10:48:13.467089+05:30
Bikaner,Rajasthan,28.0229,73.3119,40.2,20,0.0,980.5,8.4,41.0,128,267.3,97.8,0.7,148.0,90.0,3.2,0,5,10,0,2026-05-27T10:48:13.467096+05:30
Ajmer,Rajasthan,26.4499,74.6399,36.0,35,0.0,955.3,8.4,56.5,78,82.4,29.9,1.3,135.0,87.0,3.9,0,5,10,1,2026-05-27T10:48:13.467103+05:30
Gwalior,Madhya Pradesh,26.2183,78.1828,39.7,26,0.0,980.9,8.25,53.6,75,181.6,41.0,2.0,163.0,121.0,6.1,0,5,10,1,2026-05-27T10:48:13.467110+05:30
Indore,Madhya Pradesh,22.7196,75.8577,35.1,41,0.0,950.3,8.65,46.1,67,43.5,21.9,2.9,202.0,96.0,8.6,0,5,10,1,2026-05-27T10:48:13.467116+05:30
Bhopal,Madhya Pradesh,23.2599,77.4126,38.0,29,0.0,954.9,8.65,41.8,69,36.3,18.7,1.7,198.0,111.0,7.0,0,5,10,1,2026-05-27T10:48:13.467122+05:30
Jabalpur,Madhya Pradesh,23.1815,79.9864,40.7,19,0.0,961.0,8.8,42.8,79,55.9,24.3,1.7,166.0,124.0,6.2,0,5,10,0,2026-05-27T10:48:13.467129+05:30
Ujjain,Madhya Pradesh,23.1765,75.7885,35.7,40,0.0,955.6,8.55,47.5,70,40.5,21.7,2.4,165.0,94.0,9.2,0,5,10,1,2026-05-27T10:48:13.467152+05:30
Visakhapatnam,Andhra Pradesh,17.6868,83.2185,40.0,35,0.0,1000.8,9.05,25.6,127,83.1,64.5,30.1,445.0,172.0,82.7,0,5,7,1,2026-05-27T10:48:13.467159+05:30
Vijayawada,Andhra Pradesh,16.5062,80.648,39.5,34,0.0,1001.1,9.0,45.7,105,19.8,16.9,3.7,224.0,142.0,8.3,0,5,7,1,2026-05-27T10:48:13.467166+05:30
Guntur,Andhra Pradesh,16.3067,80.4365,39.7,33,0.0,1002.4,8.75,45.7,93,16.8,14.4,3.6,214.0,134.0,6.8,0,5,7,1,2026-05-27T10:48:13.467173+05:30
Nellore,Andhra Pradesh,14.4426,79.9865,37.2,45,0.0,1005.3,9.0,37.8,72,20.3,17.9,3.2,182.0,131.0,8.2,0,5,7,1,2026-05-27T10:48:13.467180+05:30
Kurnool,Andhra Pradesh,15.8281,78.0373,34.5,54,0.0,978.6,4.5,46.4,59,12.6,11.1,4.2,183.0,114.0,9.5,0,5,3,1,2026-05-27T10:48:13.467188+05:30
Kakinada,Andhra Pradesh,16.9891,82.2475,38.8,38,0.0,1004.9,9.05,44.3,109,44.6,36.1,5.5,294.0,184.0,8.8,0,5,7,1,2026-05-27T10:48:13.467195+05:30
Tirupati,Andhra Pradesh,13.6288,79.4192,36.7,39,0.0,991.4,9.05,38.9,73,21.6,18.0,2.4,180.0,127.0,2.8,0,5,10,1,2026-05-27T10:48:13.467203+05:30
Warangal,Telangana,17.9689,79.5941,38.3,34,0.0,979.0,8.75,45.0,105,21.5,16.1,3.1,204.0,131.0,4.5,0,5,10,1,2026-05-27T10:48:13.467209+05:30
Nizamabad,Telangana,18.6725,78.0941,37.5,37,0.0,966.4,8.75,38.5,81,16.0,12.7,2.3,194.0,122.0,4.4,0,5,10,1,2026-05-27T10:48:13.467216+05:30
Mysore,Karnataka,12.2958,76.6396,29.1,58,0.0,932.3,9.05,38.5,55,15.6,11.8,2.9,173.0,98.0,2.2,4,5,7,1,2026-05-27T10:48:13.467223+05:30
Mangalore,Karnataka,12.9141,74.856,30.2,73,0.0,1010.1,7.7,27.7,55,15.8,10.8,2.6,182.0,76.0,2.4,3,0,4,1,2026-05-27T10:48:13.467229+05:30
Hubli-Dharwad,Karnataka,15.3647,75.124,32.0,51,0.0,944.6,6.35,40.0,27,7.2,5.3,1.9,158.0,75.0,1.1,0,5,7,1,2026-05-27T10:48:13.467236+05:30
Belgaum,Karnataka,15.8497,74.4977,30.9,56,0.0,929.7,8.65,36.7,27,10.5,7.4,1.8,146.0,75.0,1.7,0,5,7,1,2026-05-27T10:48:16.774034+05:30
Coimbatore,Tamil Nadu,11.0168,76.9558,32.0,53,0.0,964.5,8.5,52.6,44,10.6,7.7,2.0,165.0,87.0,2.4,0,5,7,1,2026-05-27T10:48:16.774069+05:30
Madurai,Tamil Nadu,9.9252,78.1198,35.5,44,0.0,994.6,8.75,29.2,98,23.2,17.3,5.5,184.0,137.0,5.4,0,5,10,1,2026-05-27T10:48:16.774081+05:30
Trichy,Tamil Nadu,10.7905,78.7047,35.2,47,0.0,1001.0,8.05,43.2,60,10.3,8.3,3.0,162.0,92.0,3.5,0,5,7,1,2026-05-27T10:48:16.774090+05:30
Salem,Tamil Nadu,11.6643,78.146,34.1,46,0.0,979.8,8.75,33.5,78,22.9,19.5,5.6,206.0,137.0,14.1,0,5,7,1,2026-05-27T10:48:16.774099+05:30
Tirunelveli,Tamil Nadu,8.7139,77.7567,37.2,37,0.0,1004.8,8.45,31.3,25,4.3,3.3,1.6,134.0,73.0,1.1,0,5,7,1,2026-05-27T10:48:16.774106+05:30
Vellore,Tamil Nadu,12.9165,79.1325,34.8,42,0.0,985.4,9.05,35.3,85,28.8,25.1,4.6,247.0,143.0,5.3,0,5,7,1,2026-05-27T10:48:16.774114+05:30
Erode,Tamil Nadu,11.341,77.7172,33.7,47,0.0,991.3,8.25,48.6,55,13.5,10.5,3.5,204.0,103.0,3.0,0,5,7,1,2026-05-27T10:48:16.774121+05:30
Kochi,Kerala,9.9312,76.2673,29.8,75,0.1,1012.2,8.2,31.7,56,8.2,6.7,3.2,180.0,84.0,3.6,10,0,4,1,2026-05-27T10:48:16.774130+05:30
Thiruvananthapuram,Kerala,8.5241,76.9366,29.8,72,0.0,1011.6,7.65,37.1,25,9.5,5.8,1.5,108.0,63.0,1.0,7,0,4,1,2026-05-27T10:48:16.774153+05:30
Kozhikode,Kerala,11.2588,75.7804,29.6,79,0.0,1011.5,7.55,28.1,30,8.6,6.0,1.2,214.0,72.0,1.5,7,0,4,1,2026-05-27T10:48:16.774159+05:30
Thrissur,Kerala,10.5276,76.2144,30.2,72,0.1,1010.4,8.35,32.4,53,9.5,7.7,3.1,213.0,89.0,3.8,6,0,4,1,2026-05-27T10:48:16.774167+05:30
Kannur,Kerala,11.8745,75.3704,30.1,74,0.1,1010.7,7.7,28.8,55,13.3,9.0,1.7,175.0,76.0,1.9,6,0,4,1,2026-05-27T10:48:16.774174+05:30
Patna,Bihar,25.5941,85.1376,31.0,61,0.0,999.2,8.75,46.8,92,35.9,29.8,3.8,410.0,152.0,15.2,3,5,7,1,2026-05-27T10:48:16.774180+05:30
Gaya,Bihar,24.7914,85.0002,34.8,52,0.0,991.5,8.8,38.9,138,48.3,44.0,4.1,404.0,158.0,14.5,0,5,7,1,2026-05-27T10:48:16.774187+05:30
Muzaffarpur,Bihar,26.1209,85.3647,30.6,64,0.0,999.6,8.75,46.4,82,38.3,28.9,3.3,351.0,156.0,12.3,3,5,7,1,2026-05-27T10:48:16.774193+05:30
Bhagalpur,Bihar,25.2425,87.0117,28.0,73,0.0,1000.8,8.75,41.4,96,13.0,10.7,5.3,345.0,112.0,13.2,7,5,4,1,2026-05-27T10:48:16.774200+05:30
Ranchi,Jharkhand,23.3441,85.3096,34.4,40,0.1,937.5,9.0,54.0,121,76.4,41.2,2.5,213.0,171.0,14.2,3,5,7,1,2026-05-27T10:48:16.774207+05:30
Jamshedpur,Jharkhand,22.8046,86.2029,37.0,51,0.0,988.1,9.0,70.9,153,93.1,66.4,5.8,347.0,204.0,30.3,0,5,10,1,2026-05-27T10:48:16.774213+05:30
Dhanbad,Jharkhand,23.7957,86.4304,37.2,48,0.0,977.4,9.0,44.3,161,104.3,82.4,24.4,368.0,183.0,81.1,0,5,10,1,2026-05-27T10:48:16.774221+05:30
Bokaro,Jharkhand,23.6693,86.1511,38.0,42,0.0,980.9,9.0,49.3,158,95.9,68.0,15.0,291.0,188.0,53.0,0,5,10,1,2026-05-27T10:48:16.774231+05:30
Bhubaneswar,Odisha,20.2961,85.8245,37.1,51,0.0,1000.1,9.05,47.9,106,52.4,35.7,2.3,267.0,143.0,9.4,0,5,7,1,2026-05-27T10:48:16.774238+05:30
Cuttack,Odisha,20.4625,85.8828,35.5,62,0.0,1002.1,9.1,54.0,106,52.4,35.7,2.3,289.0,143.0,9.4,3,5,7,1,2026-05-27T10:48:16.774245+05:30
Rourkela,Odisha,22.2604,84.8536,37.0,51,0.0,982.5,8.65,50.0,151,99.2,61.0,3.6,352.0,197.0,18.5,0,5,10,1,2026-05-27T10:48:16.774252+05:30
Raipur,Chhattisgarh,21.2514,81.6296,41.2,20,0.0,973.1,8.95,44.6,102,40.0,29.1,14.5,280.0,135.0,44.4,0,5,10,0,2026-05-27T10:48:16.774258+05:30
Bhilai,Chhattisgarh,21.1938,81.3509,40.0,23,0.0,973.6,8.95,42.5,94,35.0,24.6,11.6,488.0,132.0,35.0,0,5,10,0,2026-05-27T10:48:16.774265+05:30
Guwahati,Assam,26.1158,91.7086,27.8,72,0.0,1002.9,8.7,24.1,75,33.5,21.9,2.1,284.0,119.0,4.3,7,5,4,1,2026-05-27T10:48:16.774271+05:30
Agartala,Tripura,23.8315,91.2868,24.0,97,0.7,1007.2,8.85,38.2,81,28.0,21.4,4.0,172.0,103.0,2.7,6,5,4,1,2026-05-27T10:48:16.774278+05:30
Shillong,Meghalaya,25.5788,91.8933,23.4,66,0.0,859.6,9.15,33.5,46,16.7,10.5,1.4,216.0,105.0,2.8,3,5,7,1,2026-05-27T10:48:16.774284+05:30
Imphal,Manipur,24.817,93.9368,28.5,51,0.0,925.0,9.25,29.5,75,32.1,16.9,0.7,176.0,112.0,2.7,4,5,7,1,2026-05-27T10:48:16.774290+05:30
Aizawl,Mizoram,23.7271,92.7176,25.4,62,0.1,895.0,8.9,25.6,70,53.7,26.6,0.4,148.0,97.0,2.1,10,5,7,1,2026-05-27T10:48:16.774297+05:30
Kohima,Nagaland,25.6701,94.1077,21.1,86,0.1,857.6,6.25,31.0,61,38.6,15.7,0.4,200.0,114.0,2.5,6,5,7,1,2026-05-27T10:48:16.774303+05:30
Gangtok,Sikkim,27.3314,88.6138,21.8,56,0.0,839.3,9.1,40.7,51,21.2,12.4,1.9,270.0,133.0,3.2,0,5,7,0,2026-05-27T10:48:16.774310+05:30
Siliguri,West Bengal,26.7271,88.3953,28.4,70,0.0,993.9,8.65,34.6,72,40.9,24.5,4.3,363.0,142.0,5.4,7,5,7,1,2026-05-27T10:48:20.080399+05:30
Durgapur,West Bengal,23.5204,87.3119,34.7,62,0.0,992.8,8.95,45.7,158,89.2,69.2,13.8,692.0,175.0,58.4,3,5,7,1,2026-05-27T10:48:20.080435+05:30
Asansol,West Bengal,23.6739,86.9524,35.3,59,0.0,991.0,9.0,40.7,158,91.3,73.3,13.4,579.0,177.0,55.0,0,5,10,1,2026-05-27T10:48:20.080447+05:30
Pondicherry,Puducherry,11.9139,79.8145,34.2,52,0.0,1008.8,8.3,45.4,76,29.6,25.6,9.1,275.0,134.0,12.2,0,0,4,1,2026-05-27T10:48:20.080456+05:30
Port Blair,Andaman and Nicobar Islands,11.6234,92.7265,29.0,77,0.1,1009.1,7.85,34.6,35,9.3,6.8,0.4,122.0,78.0,0.4,10,0,4,1,2026-05-27T10:48:20.080464+05:30
Haridwar,Uttarakhand,29.9457,78.1642,33.7,40,0.0,971.8,7.55,40.0,55,18.2,15.2,2.5,295.0,187.0,7.8,0,5,7,1,2026-05-27T10:48:20.080471+05:30
Rishikesh,Uttarakhand,30.0869,78.2676,34.6,34,0.0,964.5,7.65,37.8,53,21.2,13.9,1.1,258.0,177.0,6.4,0,5,7,1,2026-05-27T10:48:20.080478+05:30
Nainital,Uttarakhand,29.3919,79.4542,23.6,43,0.0,808.4,8.5,31.7,71,77.1,30.7,0.8,237.0,170.0,7.0,0,5,7,0,2026-05-27T10:48:20.080485+05:30
Mussoorie,Uttarakhand,30.4599,78.0664,24.4,28,0.0,806.0,8.1,50.4,54,17.6,11.4,1.2,181.0,177.0,5.0,0,5,7,0,2026-05-27T10:48:20.080493+05:30
Dharamshala,Himachal Pradesh,32.219,76.3234,28.8,28,0.0,870.1,8.45,49.3,51,21.2,8.6,0.8,196.0,151.0,0.7,4,5,7,0,2026-05-27T10:48:20.080500+05:30
Dalhousie,Himachal Pradesh,32.5387,75.971,26.9,17,0.0,808.1,8.7,41.8,62,24.0,13.2,2.8,197.0,172.0,1.6,4,5,7,0,2026-05-27T10:48:20.080508+05:30
Patiala,Punjab,30.3398,76.3869,38.7,18,0.0,975.5,7.65,41.4,514,410.7,53.1,3.7,320.0,166.0,7.9,0,5,10,0,2026-05-27T10:48:20.080515+05:30
Bhatinda,Punjab,30.211,74.9455,40.9,15,0.0,980.9,8.3,33.8,85,32.9,18.5,6.8,290.0,169.0,13.0,0,5,10,0,2026-05-27T10:48:20.080522+05:30
Rohtak,Haryana,28.8955,76.6066,38.7,18,0.0,979.5,7.8,33.5,846,472.2,95.9,7.5,302.0,156.0,7.2,0,5,10,0,2026-05-27T10:48:20.080529+05:30
Panipat,Haryana,29.3909,76.9635,39.2,16,0.0,977.9,7.6,38.2,1572,905.2,126.7,6.7,245.0,152.0,11.6,0,5,10,0,2026-05-27T10:48:20.080536+05:30
Mathura,Uttar Pradesh,27.4924,77.6737,40.5,14,0.0,984.4,8.0,36.4,563,497.3,96.2,9.7,291.0,160.0,15.1,0,5,10,0,2026-05-27T10:48:20.080543+05:30
Vrindavan,Uttar Pradesh,27.5823,77.7027,40.0,15,0.0,984.8,8.0,34.9,563,497.3,96.2,9.7,305.0,160.0,15.1,0,5,10,0,2026-05-27T10:48:20.080550+05:30
Ayodhya,Uttar Pradesh,26.7922,82.1998,33.0,54,0.0,993.9,8.3,33.5,103,48.4,30.5,2.8,348.0,174.0,10.8,0,5,7,1,2026-05-27T10:48:20.080557+05:30
Ratlam,Madhya Pradesh,23.3315,75.0367,34.6,43,0.0,957.0,8.5,47.2,69,43.5,22.8,2.4,154.0,92.0,9.5,0,5,7,1,2026-05-27T10:48:20.080564+05:30
Sagar,Madhya Pradesh,23.8388,78.7378,39.2,23,0.0,950.7,8.7,47.5,80,48.8,19.4,1.2,150.0,117.0,4.6,0,5,10,0,2026-05-27T10:48:20.080571+05:30
Satna,Madhya Pradesh,24.6005,80.8322,40.6,16,0.0,969.6,8.75,52.9,66,50.6,24.3,2.0,161.0,123.0,5.7,0,5,10,0,2026-05-27T10:48:20.080578+05:30
Akola,Maharashtra,20.7002,77.0082,37.0,36,0.0,976.5,8.85,46.4,56,39.0,17.7,2.5,147.0,101.0,8.9,0,5,10,1,2026-05-27T10:48:20.080585+05:30
Amravati,Maharashtra,20.9374,77.7796,38.5,27,0.0,968.2,8.85,45.7,58,38.8,18.3,2.9,176.0,111.0,10.7,0,5,10,1,2026-05-27T10:48:20.080593+05:30
Latur,Maharashtra,18.4088,76.5604,35.7,37,0.0,942.6,8.25,34.6,62,14.1,10.9,1.9,187.0,113.0,6.8,0,5,10,1,2026-05-27T10:48:20.080600+05:30
Nanded,Maharashtra,19.1383,77.3091,37.5,35,0.0,970.4,8.9,38.2,72,12.4,9.0,2.0,189.0,103.0,3.5,0,5,10,1,2026-05-27T10:48:20.080607+05:30
Gulbarga,Karnataka,17.3297,76.8343,35.7,35,0.0,961.4,6.15,41.0,48,13.9,10.5,2.6,180.0,108.0,4.9,0,5,10,1,2026-05-27T10:48:20.080614+05:30
Bidar,Karnataka,17.9104,77.5199,34.8,41,0.1,938.3,8.65,45.0,70,19.9,16.8,3.4,204.0,130.0,7.8,3,5,7,1,2026-05-27T10:48:20.080621+05:30
Hospet,Karnataka,15.2689,76.3909,30.8,62,0.0,959.0,6.8,40.0,41,7.9,6.3,2.2,155.0,81.0,2.6,3,5,7,1,2026-05-27T10:48:20.080627+05:30
Tirupur,Tamil Nadu,11.1085,77.3411,33.8,47,0.0,977.8,8.0,54.0,55,13.2,10.1,3.1,174.0,99.0,3.2,0,5,7,1,2026-05-27T10:48:20.080634+05:30
Alappuzha,Kerala,9.4981,76.3388,30.2,70,0.0,1012.2,7.85,33.1,39,7.7,5.8,2.5,108.0,77.0,2.1,3,0,4,1,2026-05-27T10:48:20.080641+05:30
Munnar,Kerala,10.0889,77.0595,22.0,77,0.0,861.2,6.55,28.1,47,12.3,7.9,1.4,132.0,85.0,1.5,3,5,7,1,2026-05-27T10:48:20.080648+05:30
Silchar,Assam,24.8333,92.7789,30.9,60,0.0,1006.2,8.85,22.0,98,47.8,25.4,0.9,208.0,112.0,4.0,0,5,4,1,2026-05-27T10:48:20.080654+05:30
Dibrugarh,Assam,27.4728,94.912,28.2,74,0.0,997.1,8.9,31.7,93,44.6,20.7,0.7,212.0,136.0,2.9,7,5,7,1,2026-05-27T10:48:20.080661+05:30
