city,state,latitude,longitude,temp,humidity,rain,pressure,uv_index,wind_gusts,aqi,pm10,pm2_5,no2,co,o3,so2,mosquito_risk,arthritis_risk,migraine_risk,frizz_risk,updated_at
Delhi,Delhi,28.6139,77.209,29.5,58,0.0,977.1,7.8,51.8,155,154.1,78.2,47.9,545.0,43.0,33.4,4,5,7,1,2026-06-04T05:16:40.603047+05:30
Mumbai,Maharashtra,19.076,72.8777,28.4,80,0.0,1004.7,7.7,45.7,69,42.6,17.8,10.1,173.0,42.0,10.6,7,5,4,1,2026-06-04T05:16:40.603089+05:30
Bangalore,Karnataka,12.9716,77.5946,20.1,96,0.0,909.1,8.05,47.5,43,6.6,5.5,9.8,202.0,34.0,4.5,3,5,7,1,2026-06-04T05:16:40.603104+05:30
Hyderabad,Telangana,17.385,78.4867,27.0,67,0.0,950.0,9.15,47.5,69,27.9,20.1,12.6,207.0,60.0,6.9,7,5,7,1,2026-06-04T05:16:40.603114+05:30
Chennai,Tamil Nadu,13.0827,80.2707,29.8,67,0.0,1003.3,8.0,51.1,69,18.2,16.6,16.2,350.0,57.0,9.0,7,5,4,1,2026-06-04T05:16:40.603122+05:30
Kolkata,West Bengal,22.5726,88.3639,29.4,89,0.0,1000.7,8.95,43.6,128,72.6,68.7,22.2,364.0,55.0,11.5,7,5,4,1,2026-06-04T05:16:40.603130+05:30
Pune,Maharashtra,18.5204,73.8567,24.1,85,0.0,944.7,8.35,43.2,61,35.0,15.2,10.6,131.0,33.0,8.9,3,5,7,1,2026-06-04T05:16:40.603137+05:30
Ahmedabad,Gujarat,23.0225,72.5714,30.2,72,0.0,997.0,8.05,41.0,87,35.6,22.1,6.9,159.0,43.0,4.3,3,5,7,1,2026-06-04T05:16:40.603144+05:30
Jaipur,Rajasthan,26.9124,75.7873,28.1,53,0.0,953.7,8.25,68.4,117,187.2,54.7,16.0,428.0,57.0,7.2,4,5,7,1,2026-06-04T05:16:40.603154+05:30
Lucknow,Uttar Pradesh,26.8467,80.9462,28.1,68,0.0,987.5,8.0,21.2,149,189.5,107.3,83.8,474.0,0.0,28.4,7,5,7,1,2026-06-04T05:16:40.603162+05:30
Kanpur,Uttar Pradesh,26.4499,80.3319,30.0,57,0.0,985.8,8.3,49.3,141,154.1,78.7,72.4,381.0,2.0,15.6,4,5,7,1,2026-06-04T05:16:40.603169+05:30
Chandigarh,Chandigarh,30.7333,76.7794,24.5,73,0.0,963.0,7.75,34.9,117,66.8,50.9,44.6,714.0,11.0,8.1,3,5,7,1,2026-06-04T05:16:40.603175+05:30
Srinagar,Jammu and Kashmir,34.0837,74.7973,13.8,98,0.0,837.5,8.15,33.5,89,39.2,34.3,22.1,431.0,17.0,0.0,3,10,7,0,2026-06-04T05:16:40.603182+05:30
Jammu,Jammu and Kashmir,32.7266,74.857,25.5,60,0.0,966.3,8.45,69.5,91,34.2,31.5,42.4,367.0,0.0,1.9,4,5,7,1,2026-06-04T05:16:40.603189+05:30
Amritsar,Punjab,31.634,74.8723,27.5,62,0.0,973.9,8.4,67.0,151,84.1,68.5,30.4,756.0,41.0,6.7,7,5,7,1,2026-06-04T05:16:40.603195+05:30
Ludhiana,Punjab,30.901,75.8573,26.6,64,0.0,972.3,7.9,55.4,151,119.2,86.6,47.8,889.0,24.0,14.4,7,5,7,1,2026-06-04T05:16:40.603202+05:30
Jalandhar,Punjab,31.326,75.5762,27.0,58,0.0,973.3,8.2,63.7,154,125.3,89.4,61.0,706.0,9.0,9.3,4,5,7,1,2026-06-04T05:16:40.603208+05:30
Dehradun,Uttarakhand,30.6284,78.0322,14.0,94,0.0,825.7,6.55,28.1,45,9.9,9.8,22.5,214.0,24.0,0.0,3,10,7,0,2026-06-04T05:16:40.603215+05:30
Shimla,Himachal Pradesh,31.1048,77.1734,11.9,84,0.0,779.3,7.2,42.1,82,47.6,34.2,27.3,299.0,33.0,2.6,3,10,7,0,2026-06-04T05:16:40.603224+05:30
Manali,Himachal Pradesh,32.2396,77.1887,13.2,83,0.1,815.0,8.95,38.2,39,3.8,2.4,11.3,179.0,112.0,0.0,6,10,7,0,2026-06-04T05:16:40.603230+05:30
Gurgaon,Haryana,28.4595,77.0266,28.1,59,0.0,975.3,7.9,50.8,160,134.1,67.5,34.9,449.0,48.0,17.5,4,5,7,1,2026-06-04T05:16:40.603236+05:30
Noida,Uttar Pradesh,28.5355,77.391,28.3,65,0.0,978.4,7.85,59.4,160,134.1,67.5,34.9,554.0,48.0,17.5,7,5,7,1,2026-06-04T05:16:40.603245+05:30
Ghaziabad,Uttar Pradesh,28.6692,77.4538,27.1,72,0.0,976.7,7.8,67.7,156,97.3,71.9,36.6,522.0,36.0,11.5,7,5,7,1,2026-06-04T05:16:40.603251+05:30
Faridabad,Haryana,28.4089,77.3178,29.1,57,0.0,977.7,7.85,51.1,160,134.1,67.5,34.9,605.0,48.0,17.5,4,5,7,1,2026-06-04T05:16:40.603257+05:30
Meerut,Uttar Pradesh,28.9845,77.7064,27.2,67,0.0,976.1,7.15,51.8,156,97.3,71.9,36.6,640.0,36.0,11.5,7,5,7,1,2026-06-04T05:16:40.603264+05:30
Agra,Uttar Pradesh,27.1767,78.0081,28.5,59,0.0,981.5,8.15,86.4,179,166.7,62.2,23.8,641.0,47.0,9.7,4,5,7,1,2026-06-04T05:16:40.603270+05:30
Varanasi,Uttar Pradesh,25.3176,82.9739,29.9,53,0.0,992.2,8.45,24.8,152,57.9,48.2,38.8,523.0,22.0,27.0,4,5,7,1,2026-06-04T05:16:40.603276+05:30
Prayagraj,Uttar Pradesh,25.4358,81.8463,29.4,57,0.0,990.1,8.7,24.8,140,101.5,80.1,63.3,275.0,1.0,16.2,4,5,7,1,2026-06-04T05:16:40.603283+05:30
Gorakhpur,Uttar Pradesh,26.7606,83.3732,27.1,73,0.0,991.2,7.5,20.2,153,118.7,104.1,73.9,522.0,0.0,17.4,7,5,7,1,2026-06-04T05:16:40.603291+05:30
Bareilly,Uttar Pradesh,28.367,79.4304,26.1,76,0.0,980.8,8.1,52.2,153,106.6,76.4,44.8,976.0,39.0,9.8,7,5,7,1,2026-06-04T05:16:40.603297+05:30
Aligarh,Uttar Pradesh,27.8974,78.088,27.4,69,0.0,979.3,7.7,67.7,151,107.8,55.3,26.1,487.0,53.0,9.0,7,5,7,1,2026-06-04T05:16:40.603305+05:30
Moradabad,Uttar Pradesh,28.8386,78.7733,27.8,66,0.0,978.0,7.95,43.9,157,91.0,72.9,37.2,1241.0,34.0,10.5,7,5,7,1,2026-06-04T05:16:40.603311+05:30
Saharanpur,Uttar Pradesh,29.9637,77.546,26.4,74,0.0,970.2,7.5,36.0,127,38.3,35.2,32.5,508.0,38.0,7.9,7,5,7,1,2026-06-04T05:16:40.603317+05:30
Jhansi,Uttar Pradesh,25.4484,78.5685,28.9,59,0.0,972.0,8.5,64.1,85,45.4,26.9,11.0,216.0,53.0,4.8,4,5,7,1,2026-06-04T05:16:43.966380+05:30
Surat,Gujarat,21.1702,72.8311,29.1,81,0.0,1002.1,7.6,47.9,85,45.1,23.9,22.9,249.0,33.0,38.5,7,5,4,1,2026-06-04T05:16:43.966412+05:30
Vadodara,Gujarat,22.3072,73.1812,29.0,82,0.0,999.6,8.0,44.6,86,36.1,21.0,12.1,116.0,40.0,14.4,7,5,7,1,2026-06-04T05:16:43.966423+05:30
Rajkot,Gujarat,22.3039,70.8022,28.1,82,0.0,989.0,7.55,48.6,76,36.9,16.8,4.2,103.0,39.0,2.8,7,5,7,1,2026-06-04T05:16:43.966432+05:30
Thane,Maharashtra,19.2183,72.9781,28.0,80,0.0,1004.2,7.7,39.6,69,42.6,17.8,10.1,162.0,42.0,10.6,7,5,4,1,2026-06-04T05:16:43.966441+05:30
Nagpur,Maharashtra,21.1458,79.0882,31.0,47,0.0,968.6,6.95,35.6,69,24.7,19.7,22.5,196.0,42.0,10.6,0,5,7,1,2026-06-04T05:16:43.966449+05:30
Nashik,Maharashtra,19.9975,73.7898,23.3,93,0.0,942.0,8.05,39.6,70,29.9,15.8,13.9,171.0,26.0,14.7,3,5,7,1,2026-06-04T05:16:43.966458+05:30
Aurangabad,Maharashtra,19.8762,75.3433,25.5,76,0.0,940.9,8.95,39.6,74,32.6,18.8,11.2,146.0,46.0,12.6,7,5,7,1,2026-06-04T05:16:43.966466+05:30
Solapur,Maharashtra,17.6599,75.9064,27.2,65,0.0,954.2,9.0,43.9,65,22.1,13.5,6.9,157.0,46.0,2.7,7,5,7,1,2026-06-04T05:16:43.966475+05:30
Kolhapur,Maharashtra,16.705,74.2433,23.4,87,0.0,945.1,8.75,46.8,52,22.6,12.6,8.3,117.0,32.0,3.1,3,5,7,1,2026-06-04T05:16:43.966484+05:30
Goa,Goa,15.2993,74.124,24.9,98,0.0,995.5,8.75,34.9,38,18.8,9.5,4.1,184.0,42.0,0.8,3,5,7,1,2026-06-04T05:16:43.966493+05:30
Jodhpur,Rajasthan,26.2389,73.0243,31.0,52,0.0,976.7,8.4,51.8,102,238.0,54.9,3.1,136.0,58.0,3.9,0,5,7,1,2026-06-04T05:16:43.966501+05:30
Udaipur,Rajasthan,24.5854,73.7125,26.6,72,0.0,941.3,8.8,60.5,90,42.0,27.2,8.8,176.0,51.0,8.4,7,5,7,1,2026-06-04T05:16:43.966511+05:30
Kota,Rajasthan,25.2138,75.8648,30.9,49,0.0,972.6,8.4,60.1,95,37.8,24.2,6.3,205.0,59.0,5.9,0,5,7,1,2026-06-04T05:16:43.966520+05:30
Bikaner,Rajasthan,28.0229,73.3119,30.6,40,0.0,974.2,8.3,57.2,98,104.8,34.7,5.3,131.0,50.0,3.4,0,5,7,0,2026-06-04T05:16:43.966529+05:30
Ajmer,Rajasthan,26.4499,74.6399,28.6,55,0.0,949.0,8.35,46.4,93,41.9,19.4,4.6,155.0,57.0,4.3,4,5,7,1,2026-06-04T05:16:43.966536+05:30
Gwalior,Madhya Pradesh,26.2183,78.1828,27.5,71,0.0,976.7,8.3,77.4,101,97.6,40.7,14.7,247.0,49.0,5.7,7,5,7,1,2026-06-04T05:16:43.966544+05:30
Indore,Madhya Pradesh,22.7196,75.8577,26.9,71,0.0,943.9,8.65,53.6,86,47.0,32.6,6.5,254.0,74.0,12.5,7,5,7,1,2026-06-04T05:16:43.966550+05:30
Bhopal,Madhya Pradesh,23.2599,77.4126,27.8,60,0.0,949.0,8.7,47.9,81,45.2,27.9,6.8,260.0,67.0,5.7,4,5,7,1,2026-06-04T05:16:43.966557+05:30
Jabalpur,Madhya Pradesh,23.1815,79.9864,27.0,68,0.0,957.0,8.85,28.8,74,39.3,25.6,12.1,186.0,59.0,4.3,7,5,7,1,2026-06-04T05:16:43.966564+05:30
Ujjain,Madhya Pradesh,23.1765,75.7885,26.6,75,0.0,949.3,8.6,51.5,86,47.7,32.4,6.8,215.0,66.0,13.7,7,5,7,1,2026-06-04T05:16:43.966570+05:30
Visakhapatnam,Andhra Pradesh,17.6868,83.2185,29.0,83,0.0,998.8,8.8,37.1,92,36.0,29.9,23.1,472.0,79.0,38.2,7,5,7,1,2026-06-04T05:16:43.966577+05:30
Vijayawada,Andhra Pradesh,16.5062,80.648,29.6,66,0.0,998.2,8.7,41.4,86,22.1,19.8,8.8,273.0,81.0,5.8,7,5,7,1,2026-06-04T05:16:43.966583+05:30
Guntur,Andhra Pradesh,16.3067,80.4365,29.0,69,0.0,999.5,8.65,42.1,84,21.6,19.7,11.6,207.0,65.0,4.9,7,5,7,1,2026-06-04T05:16:43.966609+05:30
Nellore,Andhra Pradesh,14.4426,79.9865,28.3,71,0.0,1002.0,8.65,42.8,63,8.8,7.4,5.5,174.0,78.0,2.6,7,5,4,1,2026-06-04T05:16:43.966619+05:30
Kurnool,Andhra Pradesh,15.8281,78.0373,26.9,72,0.0,974.0,8.5,33.1,59,9.9,7.5,12.1,177.0,38.0,6.3,7,5,7,1,2026-06-04T05:16:43.966627+05:30
Kakinada,Andhra Pradesh,16.9891,82.2475,28.5,79,0.0,1002.8,8.9,44.3,72,26.0,20.3,3.9,295.0,124.0,5.2,7,5,4,1,2026-06-04T05:16:43.966634+05:30
Tirupati,Andhra Pradesh,13.6288,79.4192,27.2,72,0.0,987.5,8.9,32.0,60,11.8,10.7,11.2,159.0,53.0,2.5,7,5,7,1,2026-06-04T05:16:43.966640+05:30
Warangal,Telangana,17.9689,79.5941,29.8,59,0.0,974.6,9.1,39.6,78,24.8,21.6,16.0,256.0,65.0,6.9,4,5,7,1,2026-06-04T05:16:43.966647+05:30
Nizamabad,Telangana,18.6725,78.0941,27.9,63,0.0,961.5,9.05,33.1,67,30.9,19.4,9.5,187.0,61.0,3.3,7,5,7,1,2026-06-04T05:16:43.966653+05:30
Mysore,Karnataka,12.2958,76.6396,21.3,93,0.0,926.3,8.3,51.8,23,4.0,3.7,6.7,134.0,35.0,2.0,3,5,7,1,2026-06-04T05:16:43.966661+05:30
Mangalore,Karnataka,12.9141,74.856,24.9,96,0.3,1005.0,8.45,35.6,31,13.1,7.5,5.4,169.0,43.0,1.8,6,5,4,1,2026-06-04T05:16:43.966668+05:30
Hubli-Dharwad,Karnataka,15.3647,75.124,22.5,91,0.0,938.3,8.95,50.0,23,8.8,5.5,6.3,112.0,36.0,1.2,3,5,7,1,2026-06-04T05:16:43.966675+05:30
Belgaum,Karnataka,15.8497,74.4977,21.5,94,0.0,922.8,8.95,37.8,39,21.7,13.1,8.9,107.0,31.0,1.5,3,5,7,1,2026-06-04T05:16:47.348793+05:30
Coimbatore,Tamil Nadu,11.0168,76.9558,22.8,94,0.0,959.6,7.9,60.1,22,3.0,2.5,4.6,163.0,40.0,2.0,3,5,7,1,2026-06-04T05:16:47.348829+05:30
Madurai,Tamil Nadu,9.9252,78.1198,27.0,74,0.0,990.8,7.95,56.2,48,15.4,13.7,23.9,188.0,10.0,4.6,7,5,7,1,2026-06-04T05:16:47.348843+05:30
Trichy,Tamil Nadu,10.7905,78.7047,27.4,73,0.0,997.6,8.75,45.7,46,7.8,6.0,6.7,131.0,40.0,3.0,7,5,7,1,2026-06-04T05:16:47.348855+05:30
Salem,Tamil Nadu,11.6643,78.146,24.3,90,0.0,975.4,8.05,38.2,43,15.9,12.7,17.0,237.0,30.0,7.0,3,5,7,1,2026-06-04T05:16:47.348865+05:30
Tirunelveli,Tamil Nadu,8.7139,77.7567,27.5,72,0.0,1001.8,8.05,45.7,18,6.0,4.7,6.6,138.0,26.0,1.8,7,5,4,1,2026-06-04T05:16:47.348875+05:30
Vellore,Tamil Nadu,12.9165,79.1325,27.0,66,0.0,981.3,8.9,61.2,62,10.0,8.0,11.4,175.0,41.0,4.5,7,5,7,1,2026-06-04T05:16:47.348885+05:30
Erode,Tamil Nadu,11.341,77.7172,25.1,82,0.0,987.1,7.65,44.6,31,8.0,6.8,11.3,163.0,32.0,3.2,7,5,7,1,2026-06-04T05:16:47.348895+05:30
Kochi,Kerala,9.9312,76.2673,25.8,91,0.3,1007.9,7.85,37.4,43,9.9,7.8,10.0,125.0,24.0,2.7,10,5,4,1,2026-06-04T05:16:47.348904+05:30
Thiruvananthapuram,Kerala,8.5241,76.9366,23.9,99,0.4,1007.8,7.9,46.1,28,10.0,5.5,1.7,85.0,37.0,0.5,6,5,4,1,2026-06-04T05:16:47.348912+05:30
Kozhikode,Kerala,11.2588,75.7804,24.6,97,0.4,1007.1,7.7,27.4,28,10.3,4.6,0.5,217.0,64.0,0.3,6,5,4,1,2026-06-04T05:16:47.348921+05:30
Thrissur,Kerala,10.5276,76.2144,24.4,98,0.5,1006.1,3.45,30.2,41,10.3,8.6,11.1,153.0,23.0,3.1,6,5,0,1,2026-06-04T05:16:47.348930+05:30
Kannur,Kerala,11.8745,75.3704,25.0,97,0.3,1005.9,8.45,31.3,28,9.5,5.1,3.0,137.0,48.0,1.0,10,5,4,1,2026-06-04T05:16:47.348939+05:30
Patna,Bihar,25.5941,85.1376,28.4,72,0.0,995.1,8.75,24.5,162,109.9,97.1,53.3,713.0,9.0,18.0,7,5,7,1,2026-06-04T05:16:47.348946+05:30
Gaya,Bihar,24.7914,85.0002,26.2,85,0.1,989.0,8.7,28.8,151,66.1,55.8,21.0,427.0,56.0,11.6,10,5,7,1,2026-06-04T05:16:47.348953+05:30
Muzaffarpur,Bihar,26.1209,85.3647,27.5,79,0.0,994.7,8.85,18.4,164,136.4,120.1,64.0,972.0,0.0,18.4,7,5,7,1,2026-06-04T05:16:47.348960+05:30
Bhagalpur,Bihar,25.2425,87.0117,28.6,75,0.0,995.6,8.7,20.5,157,69.6,65.2,19.0,741.0,77.0,37.0,7,5,7,1,2026-06-04T05:16:47.348967+05:30
Ranchi,Jharkhand,23.3441,85.3096,24.4,78,0.0,933.2,9.25,26.6,128,54.6,44.8,12.5,374.0,95.0,13.2,3,5,7,1,2026-06-04T05:16:47.348974+05:30
Jamshedpur,Jharkhand,22.8046,86.2029,26.6,86,0.0,986.1,9.1,23.0,157,81.0,73.8,33.2,360.0,46.0,32.5,7,5,7,1,2026-06-04T05:16:47.348981+05:30
Dhanbad,Jharkhand,23.7957,86.4304,28.2,71,0.0,974.8,8.95,26.6,167,100.1,92.2,60.1,755.0,36.0,187.2,7,5,7,1,2026-06-04T05:16:47.348988+05:30
Bokaro,Jharkhand,23.6693,86.1511,27.1,75,0.0,978.7,9.05,32.0,159,87.8,78.7,48.0,546.0,40.0,141.3,7,5,7,1,2026-06-04T05:16:47.348994+05:30
Bhubaneswar,Odisha,20.2961,85.8245,28.4,98,0.0,997.3,9.05,32.4,103,36.6,33.9,14.6,405.0,65.0,8.3,7,5,7,1,2026-06-04T05:16:47.349001+05:30
Cuttack,Odisha,20.4625,85.8828,28.4,97,0.0,999.2,9.15,28.1,103,36.6,33.9,14.6,478.0,65.0,8.3,7,5,7,1,2026-06-04T05:16:47.349008+05:30
Rourkela,Odisha,22.2604,84.8536,27.1,84,0.0,980.5,9.0,32.0,156,119.7,107.6,48.0,365.0,26.0,17.0,7,5,7,1,2026-06-04T05:16:47.349016+05:30
Raipur,Chhattisgarh,21.2514,81.6296,30.3,49,0.0,969.9,8.85,34.9,125,51.7,44.0,43.0,499.0,38.0,59.4,0,5,7,1,2026-06-04T05:16:47.349022+05:30
Bhilai,Chhattisgarh,21.1938,81.3509,29.0,53,0.0,970.4,8.6,38.2,122,46.3,38.5,34.1,642.0,43.0,47.0,4,5,7,1,2026-06-04T05:16:47.349029+05:30
Guwahati,Assam,26.1158,91.7086,24.0,95,0.0,998.3,8.8,34.9,122,37.1,33.8,6.6,397.0,81.0,4.0,3,5,7,1,2026-06-04T05:16:47.349035+05:30
Agartala,Tripura,23.8315,91.2868,27.5,92,0.0,1002.1,8.85,23.0,95,40.4,37.3,23.0,281.0,23.0,3.1,7,5,4,1,2026-06-04T05:16:47.349042+05:30
Shillong,Meghalaya,25.5788,91.8933,19.4,90,0.0,854.5,7.9,26.3,85,23.7,20.4,4.2,305.0,99.0,5.7,3,10,7,1,2026-06-04T05:16:47.349048+05:30
Imphal,Manipur,24.817,93.9368,22.1,95,0.0,920.4,9.25,27.4,95,53.1,45.8,12.0,414.0,33.0,2.3,3,5,7,1,2026-06-04T05:16:47.349055+05:30
Aizawl,Mizoram,23.7271,92.7176,19.6,95,0.0,889.4,9.05,28.1,78,39.7,30.3,8.0,254.0,48.0,3.3,3,10,7,1,2026-06-04T05:16:47.349062+05:30
Kohima,Nagaland,25.6701,94.1077,18.6,84,0.0,852.2,8.75,32.4,85,27.6,21.8,5.2,288.0,46.0,1.1,3,10,7,0,2026-06-04T05:16:47.349069+05:30
Gangtok,Sikkim,27.3314,88.6138,16.0,93,0.1,834.1,9.2,37.8,85,47.4,37.8,11.9,501.0,104.0,2.6,6,10,7,0,2026-06-04T05:16:47.349076+05:30
Siliguri,West Bengal,26.7271,88.3953,25.4,88,0.0,988.5,8.8,21.6,151,105.7,82.2,15.4,539.0,95.0,6.5,7,5,7,1,2026-06-04T05:16:50.711216+05:30
Durgapur,West Bengal,23.5204,87.3119,27.8,91,0.0,989.9,9.0,28.1,171,117.1,112.7,50.3,1019.0,31.0,73.8,7,5,7,1,2026-06-04T05:16:50.711252+05:30
Asansol,West Bengal,23.6739,86.9524,27.4,84,0.0,988.4,8.85,24.5,165,95.5,89.6,48.7,708.0,39.0,82.1,7,5,7,1,2026-06-04T05:16:50.711266+05:30
Pondicherry,Puducherry,11.9139,79.8145,27.9,75,0.0,1005.1,8.3,32.8,58,14.5,12.2,18.7,402.0,33.0,9.0,7,5,4,1,2026-06-04T05:16:50.711276+05:30
Port Blair,Andaman and Nicobar Islands,11.6234,92.7265,24.9,97,0.4,1005.2,1.45,43.9,30,14.4,8.6,0.3,116.0,68.0,0.6,6,5,0,1,2026-06-04T05:16:50.711285+05:30
Haridwar,Uttarakhand,29.9457,78.1642,25.2,75,0.0,968.6,7.6,42.5,85,24.4,23.6,29.8,287.0,40.0,4.6,7,5,7,1,2026-06-04T05:16:50.711292+05:30
Rishikesh,Uttarakhand,30.0869,78.2676,22.3,84,0.0,961.1,7.7,34.2,58,6.8,6.7,11.0,353.0,89.0,2.2,3,5,7,1,2026-06-04T05:16:50.711299+05:30
Nainital,Uttarakhand,29.3919,79.4542,12.9,91,0.0,800.9,6.95,27.7,92,35.4,26.3,23.4,306.0,53.0,2.4,3,10,7,0,2026-06-04T05:16:50.711306+05:30
Mussoorie,Uttarakhand,30.4599,78.0664,13.9,85,0.0,798.8,6.45,32.0,67,20.8,20.8,41.4,284.0,25.0,3.8,3,10,7,0,2026-06-04T05:16:50.711314+05:30
Dharamshala,Himachal Pradesh,32.219,76.3234,20.5,71,0.0,865.1,7.8,40.0,51,12.8,7.6,10.4,282.0,79.0,0.0,3,5,7,0,2026-06-04T05:16:50.711321+05:30
Dalhousie,Himachal Pradesh,32.5387,75.971,13.1,91,0.0,799.4,6.8,46.8,76,20.4,13.6,20.8,292.0,43.0,0.9,3,10,7,0,2026-06-04T05:16:50.711329+05:30
Patiala,Punjab,30.3398,76.3869,26.5,69,0.0,972.2,7.7,68.0,142,92.2,61.0,21.2,710.0,60.0,13.4,7,5,7,1,2026-06-04T05:16:50.711336+05:30
Bhatinda,Punjab,30.211,74.9455,28.9,53,0.0,977.0,8.35,67.3,153,91.0,65.0,36.1,407.0,58.0,10.5,4,5,7,1,2026-06-04T05:16:50.711342+05:30
Rohtak,Haryana,28.8955,76.6066,27.6,68,0.0,975.6,7.8,57.6,156,143.9,72.2,42.1,658.0,40.0,26.9,7,5,7,1,2026-06-04T05:16:50.711349+05:30
Panipat,Haryana,29.3909,76.9635,27.2,71,0.0,974.3,7.7,47.5,186,240.3,106.4,70.6,622.0,10.0,22.7,7,5,7,1,2026-06-04T05:16:50.711356+05:30
Mathura,Uttar Pradesh,27.4924,77.6737,27.1,69,0.0,980.6,8.1,75.6,150,246.8,73.8,22.6,513.0,53.0,9.4,7,5,7,1,2026-06-04T05:16:50.711363+05:30
Vrindavan,Uttar Pradesh,27.5823,77.7027,27.2,68,0.0,981.0,8.05,71.3,150,246.8,73.8,22.6,499.0,53.0,9.4,7,5,7,1,2026-06-04T05:16:50.711369+05:30
Ayodhya,Uttar Pradesh,26.7922,82.1998,26.9,79,0.0,989.4,8.05,19.1,141,126.2,105.2,73.7,947.0,0.0,17.3,7,5,7,1,2026-06-04T05:16:50.711376+05:30
Ratlam,Madhya Pradesh,23.3315,75.0367,25.9,83,0.0,950.3,8.5,45.7,85,47.6,31.0,8.6,195.0,55.0,15.8,7,5,7,1,2026-06-04T05:16:50.711382+05:30
Sagar,Madhya Pradesh,23.8388,78.7378,27.2,60,0.0,945.4,8.35,63.7,73,49.6,25.9,14.5,223.0,48.0,3.2,4,5,7,1,2026-06-04T05:16:50.711389+05:30
Satna,Madhya Pradesh,24.6005,80.8322,27.0,65,0.0,966.0,6.8,26.6,86,42.7,30.3,26.5,289.0,28.0,5.2,7,5,7,1,2026-06-04T05:16:50.711396+05:30
Akola,Maharashtra,20.7002,77.0082,29.8,67,0.0,971.2,6.65,38.5,65,27.8,19.8,10.3,174.0,65.0,10.1,7,5,7,1,2026-06-04T05:16:50.711403+05:30
Amravati,Maharashtra,20.9374,77.7796,30.7,45,0.0,963.1,8.45,37.8,66,32.0,21.7,16.6,181.0,52.0,7.1,0,5,7,1,2026-06-04T05:16:50.711411+05:30
Latur,Maharashtra,18.4088,76.5604,27.0,65,0.0,936.8,8.8,35.6,66,20.7,13.5,6.2,174.0,55.0,3.7,7,5,7,1,2026-06-04T05:16:50.711418+05:30
Nanded,Maharashtra,19.1383,77.3091,30.1,55,0.0,965.0,6.25,36.7,71,38.1,25.6,8.8,173.0,75.0,7.7,0,5,7,1,2026-06-04T05:16:50.711424+05:30
Gulbarga,Karnataka,17.3297,76.8343,26.4,73,0.0,955.6,9.0,32.0,65,22.7,15.5,8.8,196.0,51.0,3.4,7,5,7,1,2026-06-04T05:16:50.711431+05:30
Bidar,Karnataka,17.9104,77.5199,25.9,71,0.0,932.5,9.05,36.4,70,27.5,18.4,10.4,208.0,59.0,2.8,7,5,7,1,2026-06-04T05:16:50.711437+05:30
Hospet,Karnataka,15.2689,76.3909,23.4,90,0.0,953.3,8.95,41.8,30,8.1,5.8,8.2,148.0,35.0,1.7,3,5,7,1,2026-06-04T05:16:50.711444+05:30
Tirupur,Tamil Nadu,11.1085,77.3411,24.3,86,0.0,973.1,7.85,53.6,33,9.8,8.2,13.7,146.0,29.0,4.0,3,5,7,1,2026-06-04T05:16:50.711451+05:30
Alappuzha,Kerala,9.4981,76.3388,26.0,91,0.2,1008.0,7.3,40.3,33,9.2,5.5,4.0,89.0,37.0,1.3,10,0,4,1,2026-06-04T05:16:50.711458+05:30
Munnar,Kerala,10.0889,77.0595,17.0,100,0.2,855.1,8.2,42.1,20,1.6,1.4,3.8,96.0,32.0,1.2,6,10,7,1,2026-06-04T05:16:50.711465+05:30
Silchar,Assam,24.8333,92.7789,25.5,97,0.0,1002.1,8.95,25.9,114,64.5,53.7,14.1,289.0,94.0,7.4,7,5,4,1,2026-06-04T05:16:50.711473+05:30
Dibrugarh,Assam,27.4728,94.912,23.7,96,0.2,992.4,8.8,27.4,83,22.3,19.2,7.1,293.0,91.0,1.6,6,5,7,1,2026-06-04T05:16:50.711479+05:30
