city,state,latitude,longitude,temp,humidity,rain,pressure,uv_index,wind_gusts,aqi,pm10,pm2_5,no2,co,o3,so2,mosquito_risk,arthritis_risk,migraine_risk,frizz_risk,updated_at
Delhi,Delhi,28.6139,77.209,31.0,47,0.0,980.6,7.45,27.4,153,166.7,84.3,61.6,646.0,43.0,36.1,0,5,7,1,2026-06-03T00:11:56.853046+05:30
Mumbai,Maharashtra,19.076,72.8777,28.6,78,0.0,1007.3,7.7,44.3,68,41.4,18.4,10.5,230.0,42.0,7.1,7,5,4,1,2026-06-03T00:11:56.853089+05:30
Bangalore,Karnataka,12.9716,77.5946,21.6,96,0.0,911.9,9.2,27.7,70,29.9,27.7,48.9,944.0,40.0,10.9,3,5,7,1,2026-06-03T00:11:56.853104+05:30
Hyderabad,Telangana,17.385,78.4867,30.0,54,0.0,952.2,9.1,29.5,118,93.8,61.7,50.7,773.0,39.0,14.9,4,5,7,1,2026-06-03T00:11:56.853114+05:30
Chennai,Tamil Nadu,13.0827,80.2707,29.5,77,0.0,1006.5,8.95,37.1,65,17.8,13.4,13.7,199.0,50.0,8.2,7,5,4,1,2026-06-03T00:11:56.853121+05:30
Kolkata,West Bengal,22.5726,88.3639,29.6,83,0.0,1003.5,8.4,28.4,120,40.4,36.7,14.5,424.0,75.0,9.3,7,5,4,1,2026-06-03T00:11:56.853129+05:30
Pune,Maharashtra,18.5204,73.8567,25.0,80,0.0,947.6,8.3,52.6,56,37.3,16.2,7.6,182.0,45.0,7.0,7,5,7,1,2026-06-03T00:11:56.853136+05:30
Ahmedabad,Gujarat,23.0225,72.5714,30.5,73,0.0,999.1,8.05,31.0,92,53.7,34.1,29.0,188.0,24.0,12.4,3,5,7,1,2026-06-03T00:11:56.853143+05:30
Jaipur,Rajasthan,26.9124,75.7873,28.4,56,0.0,957.0,8.2,30.6,118,162.5,68.7,34.3,636.0,42.0,14.5,4,5,7,1,2026-06-03T00:11:56.853154+05:30
Lucknow,Uttar Pradesh,26.8467,80.9462,29.1,71,0.0,990.7,8.25,23.0,152,91.5,68.7,34.2,569.0,55.0,12.5,7,5,7,1,2026-06-03T00:11:56.853161+05:30
Kanpur,Uttar Pradesh,26.4499,80.3319,28.9,67,0.0,989.2,7.6,39.2,149,111.5,75.7,39.4,382.0,50.0,13.5,7,5,7,1,2026-06-03T00:11:56.853168+05:30
Chandigarh,Chandigarh,30.7333,76.7794,25.9,68,0.0,966.3,7.85,25.2,107,72.2,64.3,58.0,845.0,35.0,15.3,7,5,7,1,2026-06-03T00:11:56.853175+05:30
Srinagar,Jammu and Kashmir,34.0837,74.7973,16.5,86,0.0,840.7,9.1,41.0,108,63.3,53.4,36.1,1040.0,5.0,0.3,3,10,7,0,2026-06-03T00:11:56.853183+05:30
Jammu,Jammu and Kashmir,32.7266,74.857,26.5,64,0.0,969.9,8.65,31.0,131,89.6,62.2,44.7,614.0,45.0,6.9,7,5,7,1,2026-06-03T00:11:56.853190+05:30
Amritsar,Punjab,31.634,74.8723,29.4,53,0.0,978.0,8.45,23.4,150,158.3,95.9,74.2,716.0,26.0,15.3,4,5,7,1,2026-06-03T00:11:56.853196+05:30
Ludhiana,Punjab,30.901,75.8573,30.2,43,0.0,975.9,8.05,28.8,119,97.1,66.1,42.7,1145.0,59.0,13.0,0,5,7,1,2026-06-03T00:11:56.853203+05:30
Jalandhar,Punjab,31.326,75.5762,29.9,44,0.0,977.0,8.25,22.7,119,114.6,68.0,45.1,587.0,45.0,10.7,4,5,7,1,2026-06-03T00:11:56.853209+05:30
Dehradun,Uttarakhand,30.6284,78.0322,14.6,94,0.0,828.1,8.25,31.0,58,25.4,20.4,32.6,241.0,49.0,0.6,3,10,7,0,2026-06-03T00:11:56.853216+05:30
Shimla,Himachal Pradesh,31.1048,77.1734,12.7,83,0.0,782.3,8.35,32.8,69,38.8,31.2,33.1,359.0,48.0,1.3,3,10,7,0,2026-06-03T00:11:56.853224+05:30
Manali,Himachal Pradesh,32.2396,77.1887,13.3,78,0.0,816.6,9.65,38.2,48,9.9,7.0,39.8,408.0,81.0,0.0,3,5,7,0,2026-06-03T00:11:56.853230+05:30
Gurgaon,Haryana,28.4595,77.0266,29.3,50,0.0,978.9,7.45,29.9,177,238.4,86.8,53.4,1588.0,47.0,23.6,4,5,7,1,2026-06-03T00:11:56.853236+05:30
Noida,Uttar Pradesh,28.5355,77.391,28.8,56,0.0,982.0,7.8,27.0,177,238.4,86.8,53.4,854.0,47.0,23.6,4,5,7,1,2026-06-03T00:11:56.853255+05:30
Ghaziabad,Uttar Pradesh,28.6692,77.4538,27.5,71,0.0,980.2,7.7,28.8,137,111.1,60.5,26.6,479.0,63.0,9.1,7,5,7,1,2026-06-03T00:11:56.853261+05:30
Faridabad,Haryana,28.4089,77.3178,29.8,50,0.0,981.3,7.8,34.2,177,238.4,86.8,53.4,930.0,47.0,23.6,4,5,7,1,2026-06-03T00:11:56.853268+05:30
Meerut,Uttar Pradesh,28.9845,77.7064,28.0,72,0.0,979.0,7.15,29.2,137,111.1,60.5,26.6,537.0,63.0,9.1,7,5,7,1,2026-06-03T00:11:56.853273+05:30
Agra,Uttar Pradesh,27.1767,78.0081,28.6,60,0.0,985.1,8.1,28.8,141,151.8,67.1,33.7,532.0,62.0,14.0,4,5,7,1,2026-06-03T00:11:56.853280+05:30
Varanasi,Uttar Pradesh,25.3176,82.9739,32.0,53,0.0,994.7,8.75,23.4,152,79.4,66.8,38.2,1068.0,47.0,18.1,0,5,7,1,2026-06-03T00:11:56.853287+05:30
Prayagraj,Uttar Pradesh,25.4358,81.8463,31.1,56,0.0,993.2,8.7,26.6,146,68.9,53.6,26.1,681.0,61.0,11.7,0,5,7,1,2026-06-03T00:11:56.853294+05:30
Gorakhpur,Uttar Pradesh,26.7606,83.3732,28.7,68,0.0,994.2,8.35,23.8,156,85.7,71.7,41.1,392.0,41.0,12.7,7,5,7,1,2026-06-03T00:11:56.853302+05:30
Bareilly,Uttar Pradesh,28.367,79.4304,27.3,77,0.0,984.3,8.05,21.6,145,119.7,83.8,57.1,675.0,28.0,16.4,7,5,7,1,2026-06-03T00:11:56.853308+05:30
Aligarh,Uttar Pradesh,27.8974,78.088,27.0,73,0.0,982.9,7.95,24.5,149,97.8,65.4,24.9,678.0,67.0,11.4,7,5,7,1,2026-06-03T00:11:56.853315+05:30
Moradabad,Uttar Pradesh,28.8386,78.7733,27.1,75,0.0,981.4,7.9,25.9,152,136.9,99.2,60.2,930.0,29.0,18.2,7,5,7,1,2026-06-03T00:11:56.853321+05:30
Saharanpur,Uttar Pradesh,29.9637,77.546,27.8,63,0.0,973.3,7.5,26.3,147,121.5,88.7,63.6,968.0,22.0,16.8,7,5,7,1,2026-06-03T00:11:56.853327+05:30
Jhansi,Uttar Pradesh,25.4484,78.5685,29.1,63,0.0,975.4,8.25,30.6,76,56.3,28.7,12.0,444.0,53.0,4.7,7,5,7,1,2026-06-03T00:12:00.178936+05:30
Surat,Gujarat,21.1702,72.8311,29.4,82,0.0,1004.7,7.6,40.3,68,36.0,21.4,22.2,219.0,28.0,36.7,7,5,4,1,2026-06-03T00:12:00.178969+05:30
Vadodara,Gujarat,22.3072,73.1812,29.0,78,0.0,1001.9,8.0,35.3,79,31.2,21.0,25.9,320.0,21.0,30.5,7,5,4,1,2026-06-03T00:12:00.178980+05:30
Rajkot,Gujarat,22.3039,70.8022,30.1,72,0.0,991.2,7.55,44.6,77,31.8,18.1,7.1,128.0,49.0,6.8,3,5,7,1,2026-06-03T00:12:00.178989+05:30
Thane,Maharashtra,19.2183,72.9781,29.0,79,0.0,1006.6,7.7,40.3,68,41.4,18.4,10.5,254.0,42.0,7.1,7,5,4,1,2026-06-03T00:12:00.178997+05:30
Nagpur,Maharashtra,21.1458,79.0882,32.9,37,0.0,971.1,8.85,41.8,82,50.9,32.0,21.1,404.0,57.0,10.8,0,5,7,1,2026-06-03T00:12:00.179004+05:30
Nashik,Maharashtra,19.9975,73.7898,24.8,84,0.0,944.6,8.0,52.6,60,13.1,7.2,6.0,150.0,44.0,2.8,3,5,7,1,2026-06-03T00:12:00.179011+05:30
Aurangabad,Maharashtra,19.8762,75.3433,27.5,64,0.0,943.4,8.95,42.1,64,27.1,16.9,9.4,174.0,56.0,4.2,7,5,7,1,2026-06-03T00:12:00.179018+05:30
Solapur,Maharashtra,17.6599,75.9064,27.0,66,0.0,957.0,8.9,51.5,70,20.0,13.7,7.1,181.0,69.0,2.6,7,5,7,1,2026-06-03T00:12:00.179026+05:30
Kolhapur,Maharashtra,16.705,74.2433,24.8,82,0.0,948.1,8.75,43.6,44,17.1,9.7,5.9,151.0,44.0,2.6,3,5,7,1,2026-06-03T00:12:00.179033+05:30
Goa,Goa,15.2993,74.124,26.2,97,0.0,998.5,8.5,27.4,52,23.2,13.6,5.2,365.0,46.0,1.7,7,5,7,1,2026-06-03T00:12:00.179041+05:30
Jodhpur,Rajasthan,26.2389,73.0243,31.8,48,0.0,979.5,8.4,30.2,109,147.6,50.1,16.1,503.0,53.0,4.9,0,5,7,1,2026-06-03T00:12:00.179048+05:30
Udaipur,Rajasthan,24.5854,73.7125,27.3,64,0.0,944.5,8.85,22.7,85,56.3,27.5,6.5,477.0,61.0,3.5,7,5,7,1,2026-06-03T00:12:00.179055+05:30
Kota,Rajasthan,25.2138,75.8648,29.8,60,0.0,976.0,8.4,19.8,93,89.4,43.9,11.7,528.0,57.0,5.5,4,5,7,1,2026-06-03T00:12:00.179062+05:30
Bikaner,Rajasthan,28.0229,73.3119,31.0,41,0.0,978.5,8.45,23.4,146,104.3,38.4,4.8,322.0,88.0,3.8,0,5,7,1,2026-06-03T00:12:00.179070+05:30
Ajmer,Rajasthan,26.4499,74.6399,28.1,60,0.0,951.7,8.3,25.2,102,165.8,66.8,24.6,430.0,53.0,8.4,4,5,7,1,2026-06-03T00:12:00.179078+05:30
Gwalior,Madhya Pradesh,26.2183,78.1828,28.4,63,0.0,980.5,8.25,32.0,83,54.6,27.7,8.8,514.0,73.0,3.2,7,5,7,1,2026-06-03T00:12:00.179085+05:30
Indore,Madhya Pradesh,22.7196,75.8577,29.0,53,0.0,946.6,8.6,35.6,90,43.7,31.1,12.7,293.0,62.0,7.3,4,5,7,1,2026-06-03T00:12:00.179093+05:30
Bhopal,Madhya Pradesh,23.2599,77.4126,27.9,56,0.0,951.3,8.65,37.4,81,49.9,32.7,10.2,736.0,61.0,5.6,4,5,7,1,2026-06-03T00:12:00.179100+05:30
Jabalpur,Madhya Pradesh,23.1815,79.9864,29.0,56,0.0,959.4,8.85,24.8,86,68.2,42.4,33.5,216.0,49.0,8.8,4,5,7,1,2026-06-03T00:12:00.179107+05:30
Ujjain,Madhya Pradesh,23.1765,75.7885,27.1,61,0.0,951.8,8.55,28.8,86,41.7,27.9,4.8,651.0,77.0,6.3,7,5,7,1,2026-06-03T00:12:00.179114+05:30
Visakhapatnam,Andhra Pradesh,17.6868,83.2185,29.5,91,0.0,1001.5,9.0,36.7,93,41.1,34.0,33.8,386.0,89.0,48.5,7,5,4,1,2026-06-03T00:12:00.179121+05:30
Vijayawada,Andhra Pradesh,16.5062,80.648,31.1,72,0.0,1000.7,9.0,34.2,96,31.8,26.9,7.4,264.0,121.0,6.5,3,5,4,1,2026-06-03T00:12:00.179129+05:30
Guntur,Andhra Pradesh,16.3067,80.4365,30.9,73,0.0,1002.0,9.0,33.5,100,36.9,31.7,10.8,232.0,113.0,7.3,3,5,4,1,2026-06-03T00:12:00.179136+05:30
Nellore,Andhra Pradesh,14.4426,79.9865,30.5,69,0.0,1004.5,8.95,33.8,105,25.6,20.9,9.0,284.0,97.0,7.0,3,5,4,1,2026-06-03T00:12:00.179144+05:30
Kurnool,Andhra Pradesh,15.8281,78.0373,25.5,88,0.1,976.7,9.0,52.6,92,26.4,18.7,7.3,232.0,104.0,8.4,10,5,7,1,2026-06-03T00:12:00.179152+05:30
Kakinada,Andhra Pradesh,16.9891,82.2475,29.8,79,0.0,1005.4,9.0,38.5,101,34.7,25.7,3.0,326.0,139.0,4.1,7,5,4,1,2026-06-03T00:12:00.179160+05:30
Tirupati,Andhra Pradesh,13.6288,79.4192,27.2,79,0.0,990.9,9.0,24.8,69,28.1,24.9,14.6,266.0,85.0,4.3,7,5,7,1,2026-06-03T00:12:00.179167+05:30
Warangal,Telangana,17.9689,79.5941,31.0,49,0.0,977.0,9.0,32.0,131,96.4,71.9,37.2,409.0,42.0,9.3,0,5,7,1,2026-06-03T00:12:00.179174+05:30
Nizamabad,Telangana,18.6725,78.0941,30.5,45,0.0,963.0,8.75,30.2,100,88.9,59.5,37.3,289.0,45.0,8.3,0,5,7,1,2026-06-03T00:12:00.179181+05:30
Mysore,Karnataka,12.2958,76.6396,21.9,97,0.0,928.9,9.0,35.6,51,13.5,13.0,21.9,260.0,48.0,3.9,3,5,7,1,2026-06-03T00:12:00.179188+05:30
Mangalore,Karnataka,12.9141,74.856,26.0,95,0.0,1007.6,1.85,34.6,47,25.7,23.0,24.5,480.0,30.0,6.6,7,5,0,1,2026-06-03T00:12:00.179196+05:30
Hubli-Dharwad,Karnataka,15.3647,75.124,23.7,92,0.0,941.0,8.55,41.0,33,8.6,4.9,4.1,140.0,50.0,1.2,3,5,7,1,2026-06-03T00:12:00.179203+05:30
Belgaum,Karnataka,15.8497,74.4977,22.9,93,0.0,925.8,8.9,42.5,44,14.0,7.4,5.2,124.0,44.0,1.8,3,5,7,1,2026-06-03T00:12:03.510292+05:30
Coimbatore,Tamil Nadu,11.0168,76.9558,23.9,91,0.0,962.1,8.95,49.0,41,6.2,5.8,9.5,207.0,53.0,3.1,3,5,7,1,2026-06-03T00:12:03.510324+05:30
Madurai,Tamil Nadu,9.9252,78.1198,28.5,67,0.0,993.3,8.85,40.0,72,48.5,47.0,52.4,220.0,1.0,12.0,7,5,7,1,2026-06-03T00:12:03.510335+05:30
Trichy,Tamil Nadu,10.7905,78.7047,27.4,88,0.0,999.9,8.85,43.6,52,18.1,16.7,23.7,274.0,34.0,5.6,7,5,7,1,2026-06-03T00:12:03.510343+05:30
Salem,Tamil Nadu,11.6643,78.146,25.9,94,0.0,977.9,8.95,37.4,71,17.8,16.1,19.6,449.0,58.0,7.5,7,5,7,1,2026-06-03T00:12:03.510352+05:30
Tirunelveli,Tamil Nadu,8.7139,77.7567,29.3,63,0.0,1003.9,8.7,38.2,28,6.1,5.1,6.4,192.0,44.0,1.5,7,5,4,1,2026-06-03T00:12:03.510359+05:30
Vellore,Tamil Nadu,12.9165,79.1325,24.8,95,0.1,984.6,9.0,40.3,82,31.8,27.9,14.3,332.0,78.0,5.3,6,5,7,1,2026-06-03T00:12:03.510367+05:30
Erode,Tamil Nadu,11.341,77.7172,27.2,77,0.0,989.6,8.9,45.0,56,15.7,14.7,25.3,275.0,37.0,5.7,7,5,7,1,2026-06-03T00:12:03.510375+05:30
Kochi,Kerala,9.9312,76.2673,26.0,91,0.3,1010.0,8.65,32.4,44,20.8,19.9,27.0,140.0,13.0,6.9,10,0,4,1,2026-06-03T00:12:03.510404+05:30
Thiruvananthapuram,Kerala,8.5241,76.9366,24.3,97,0.3,1010.5,8.3,35.3,30,8.5,4.9,1.5,182.0,70.0,0.5,6,0,4,1,2026-06-03T00:12:03.510415+05:30
Kozhikode,Kerala,11.2588,75.7804,24.1,99,0.0,1009.3,8.2,27.4,34,6.4,4.8,2.6,326.0,72.0,1.1,3,0,4,1,2026-06-03T00:12:03.510423+05:30
Thrissur,Kerala,10.5276,76.2144,23.9,99,0.3,1008.6,8.4,34.9,44,16.0,15.3,18.3,183.0,23.0,5.7,6,0,4,1,2026-06-03T00:12:03.510431+05:30
Kannur,Kerala,11.8745,75.3704,24.4,99,0.0,1008.5,2.95,29.5,36,11.8,10.7,15.1,326.0,40.0,3.4,3,0,0,1,2026-06-03T00:12:03.510438+05:30
Patna,Bihar,25.5941,85.1376,30.1,75,0.0,997.5,8.85,18.0,170,114.1,105.2,68.7,605.0,36.0,25.9,3,5,7,1,2026-06-03T00:12:03.510445+05:30
Gaya,Bihar,24.7914,85.0002,29.7,62,0.0,991.1,8.9,25.2,151,93.1,83.6,46.6,858.0,47.0,17.7,7,5,7,1,2026-06-03T00:12:03.510452+05:30
Muzaffarpur,Bihar,26.1209,85.3647,28.8,78,0.0,997.3,8.85,19.1,173,110.1,99.7,51.5,988.0,52.0,20.0,7,5,7,1,2026-06-03T00:12:03.510459+05:30
Bhagalpur,Bihar,25.2425,87.0117,29.8,85,0.0,998.1,8.8,16.9,151,83.1,77.3,31.6,765.0,78.0,22.8,7,5,7,1,2026-06-03T00:12:03.510466+05:30
Ranchi,Jharkhand,23.3441,85.3096,25.0,69,0.0,935.7,9.05,21.2,157,68.7,59.8,23.8,410.0,65.0,12.5,7,5,7,1,2026-06-03T00:12:03.510473+05:30
Jamshedpur,Jharkhand,22.8046,86.2029,28.9,75,0.0,988.6,9.05,19.1,150,69.2,62.6,25.6,626.0,79.0,32.9,7,5,7,1,2026-06-03T00:12:03.510481+05:30
Dhanbad,Jharkhand,23.7957,86.4304,28.9,78,0.0,977.5,9.05,22.0,171,123.4,116.4,75.0,1176.0,41.0,206.2,7,5,7,1,2026-06-03T00:12:03.510488+05:30
Bokaro,Jharkhand,23.6693,86.1511,28.5,74,0.0,981.1,9.05,18.7,177,144.4,131.8,76.8,428.0,26.0,153.7,7,5,7,1,2026-06-03T00:12:03.510495+05:30
Bhubaneswar,Odisha,20.2961,85.8245,28.5,91,0.0,1000.4,9.0,31.3,87,32.4,28.2,9.3,408.0,106.0,9.2,7,5,4,1,2026-06-03T00:12:03.510502+05:30
Cuttack,Odisha,20.4625,85.8828,28.8,91,0.0,1002.2,9.05,28.1,87,32.4,28.2,9.3,679.0,106.0,9.2,7,5,4,1,2026-06-03T00:12:03.510509+05:30
Rourkela,Odisha,22.2604,84.8536,28.0,80,0.1,983.2,7.9,29.5,158,95.9,84.8,37.0,405.0,62.0,27.4,10,5,7,1,2026-06-03T00:12:03.510516+05:30
Raipur,Chhattisgarh,21.2514,81.6296,31.1,46,0.0,972.4,8.9,31.7,151,81.7,61.0,54.3,894.0,40.0,66.3,0,5,7,1,2026-06-03T00:12:03.510523+05:30
Bhilai,Chhattisgarh,21.1938,81.3509,30.4,47,0.0,972.8,8.95,26.3,150,83.1,60.1,48.0,1004.0,40.0,48.4,0,5,7,1,2026-06-03T00:12:03.510530+05:30
Guwahati,Assam,26.1158,91.7086,27.0,85,0.0,998.1,8.7,40.7,127,51.0,48.2,9.3,429.0,73.0,5.2,7,5,7,1,2026-06-03T00:12:03.510537+05:30
Agartala,Tripura,23.8315,91.2868,27.5,87,0.0,1004.1,8.7,21.2,124,42.5,39.1,20.5,317.0,40.0,6.0,7,5,4,1,2026-06-03T00:12:03.510544+05:30
Shillong,Meghalaya,25.5788,91.8933,18.6,90,0.0,855.6,7.85,23.4,83,36.6,31.9,7.6,328.0,76.0,2.7,3,10,7,1,2026-06-03T00:12:03.510552+05:30
Imphal,Manipur,24.817,93.9368,21.9,99,0.0,921.0,8.85,27.4,74,56.5,51.8,31.0,807.0,28.0,5.3,3,5,7,1,2026-06-03T00:12:03.510559+05:30
Aizawl,Mizoram,23.7271,92.7176,20.0,97,0.0,891.1,8.3,22.7,75,39.2,28.9,7.6,228.0,66.0,2.5,3,5,7,1,2026-06-03T00:12:03.510565+05:30
Kohima,Nagaland,25.6701,94.1077,19.0,98,0.3,853.6,8.55,32.8,61,40.2,33.6,15.4,406.0,65.0,2.7,6,10,7,1,2026-06-03T00:12:03.510572+05:30
Gangtok,Sikkim,27.3314,88.6138,15.7,99,0.2,836.4,9.1,40.0,91,22.3,20.1,15.9,617.0,85.0,1.7,6,10,7,0,2026-06-03T00:12:03.510579+05:30
Siliguri,West Bengal,26.7271,88.3953,26.6,80,0.0,990.2,8.7,35.3,150,95.5,83.8,23.4,804.0,108.0,11.3,7,5,7,1,2026-06-03T00:12:06.859759+05:30
Durgapur,West Bengal,23.5204,87.3119,28.8,83,0.0,992.3,8.95,20.2,159,85.7,82.7,40.9,753.0,61.0,63.0,7,5,7,1,2026-06-03T00:12:06.859797+05:30
Asansol,West Bengal,23.6739,86.9524,28.9,81,0.0,990.9,9.0,24.1,155,64.7,61.2,34.1,507.0,72.0,45.5,7,5,7,1,2026-06-03T00:12:06.859811+05:30
Pondicherry,Puducherry,11.9139,79.8145,28.5,80,0.0,1008.1,8.8,41.8,54,11.4,8.8,13.1,206.0,33.0,9.9,7,0,4,1,2026-06-03T00:12:06.859822+05:30
Port Blair,Andaman and Nicobar Islands,11.6234,92.7265,25.4,96,0.2,1006.7,1.7,37.4,30,14.0,7.6,0.2,107.0,69.0,0.4,10,5,0,1,2026-06-03T00:12:06.859832+05:30
Haridwar,Uttarakhand,29.9457,78.1642,25.6,77,0.0,971.7,7.6,27.0,113,98.0,67.3,41.9,363.0,46.0,12.4,7,5,7,1,2026-06-03T00:12:06.859843+05:30
Rishikesh,Uttarakhand,30.0869,78.2676,23.5,82,0.0,964.4,7.6,21.2,87,60.1,38.2,22.0,464.0,64.0,5.1,3,5,7,1,2026-06-03T00:12:06.859853+05:30
Nainital,Uttarakhand,29.3919,79.4542,13.2,96,0.0,803.4,7.25,41.8,84,79.9,46.0,29.1,354.0,73.0,8.4,3,10,7,0,2026-06-03T00:12:06.859864+05:30
Mussoorie,Uttarakhand,30.4599,78.0664,15.5,72,0.0,801.9,8.15,36.7,88,62.9,45.8,46.7,285.0,66.0,12.0,3,5,7,0,2026-06-03T00:12:06.859874+05:30
Dharamshala,Himachal Pradesh,32.219,76.3234,20.6,68,0.0,868.1,8.55,38.9,54,18.2,11.4,13.4,236.0,66.0,0.1,3,5,7,0,2026-06-03T00:12:06.859882+05:30
Dalhousie,Himachal Pradesh,32.5387,75.971,13.8,85,0.0,802.6,8.75,32.0,95,46.4,30.2,25.3,521.0,80.0,2.5,3,10,7,0,2026-06-03T00:12:06.859890+05:30
Patiala,Punjab,30.3398,76.3869,27.3,63,0.0,975.5,7.7,26.3,143,156.9,63.8,23.4,406.0,59.0,8.7,7,5,7,1,2026-06-03T00:12:06.859899+05:30
Bhatinda,Punjab,30.211,74.9455,30.5,43,0.0,980.8,8.3,32.4,351,344.6,111.3,64.1,382.0,37.0,18.5,0,5,7,1,2026-06-03T00:12:06.859906+05:30
Rohtak,Haryana,28.8955,76.6066,28.0,58,0.0,979.2,7.2,31.3,157,184.4,96.9,76.4,621.0,42.0,31.2,4,5,7,1,2026-06-03T00:12:06.859914+05:30
Panipat,Haryana,29.3909,76.9635,27.8,65,0.0,977.8,7.65,33.1,212,128.1,83.1,51.0,843.0,47.0,17.4,7,5,7,1,2026-06-03T00:12:06.859922+05:30
Mathura,Uttar Pradesh,27.4924,77.6737,27.6,68,0.0,984.1,8.05,24.1,145,143.0,57.9,31.8,738.0,59.0,7.7,7,5,7,1,2026-06-03T00:12:06.859929+05:30
Vrindavan,Uttar Pradesh,27.5823,77.7027,27.9,65,0.0,984.6,8.0,36.0,145,143.0,57.9,31.8,607.0,59.0,7.7,7,5,7,1,2026-06-03T00:12:06.859936+05:30
Ayodhya,Uttar Pradesh,26.7922,82.1998,28.5,77,0.0,992.4,8.35,16.2,157,80.1,62.2,32.4,681.0,53.0,9.4,7,5,7,1,2026-06-03T00:12:06.859943+05:30
Ratlam,Madhya Pradesh,23.3315,75.0367,28.0,59,0.0,953.0,8.5,32.4,84,44.8,29.5,4.8,191.0,73.0,6.1,4,5,7,1,2026-06-03T00:12:06.859951+05:30
Sagar,Madhya Pradesh,23.8388,78.7378,27.5,60,0.0,948.1,8.7,24.8,72,40.0,25.4,18.3,371.0,46.0,3.5,4,5,7,1,2026-06-03T00:12:06.859958+05:30
Satna,Madhya Pradesh,24.6005,80.8322,29.0,61,0.0,969.0,8.8,22.3,114,46.4,35.9,16.7,383.0,55.0,4.3,7,5,7,1,2026-06-03T00:12:06.859966+05:30
Akola,Maharashtra,20.7002,77.0082,30.4,51,0.0,972.8,8.8,33.5,76,35.5,22.4,8.7,227.0,75.0,6.8,0,5,7,1,2026-06-03T00:12:06.859974+05:30
Amravati,Maharashtra,20.9374,77.7796,31.5,38,0.0,965.4,8.8,36.4,78,38.9,24.8,13.7,259.0,65.0,5.7,0,5,7,0,2026-06-03T00:12:06.859983+05:30
Latur,Maharashtra,18.4088,76.5604,27.1,59,0.0,939.5,8.95,37.1,76,55.2,32.8,18.9,194.0,56.0,4.7,4,5,7,1,2026-06-03T00:12:06.859990+05:30
Nanded,Maharashtra,19.1383,77.3091,31.4,44,0.0,967.2,8.9,28.8,80,49.8,29.5,17.6,253.0,73.0,8.9,0,5,7,1,2026-06-03T00:12:06.859997+05:30
Gulbarga,Karnataka,17.3297,76.8343,29.0,54,0.0,958.6,8.95,40.3,86,23.2,16.0,7.7,175.0,89.0,2.6,4,5,7,1,2026-06-03T00:12:06.860005+05:30
Bidar,Karnataka,17.9104,77.5199,27.6,57,0.1,935.2,8.95,29.2,98,55.6,34.6,19.3,179.0,70.0,3.9,7,5,7,1,2026-06-03T00:12:06.860013+05:30
Hospet,Karnataka,15.2689,76.3909,25.9,81,0.0,956.1,8.95,44.3,44,10.9,8.9,11.6,172.0,49.0,1.9,7,5,7,1,2026-06-03T00:12:06.860020+05:30
Tirupur,Tamil Nadu,11.1085,77.3411,25.2,86,0.0,975.6,9.0,46.4,57,17.0,15.7,24.0,188.0,44.0,6.4,7,5,7,1,2026-06-03T00:12:06.860028+05:30
Alappuzha,Kerala,9.4981,76.3388,26.1,94,0.2,1010.4,8.25,37.4,38,10.4,8.6,9.3,99.0,48.0,2.0,10,0,4,1,2026-06-03T00:12:06.860035+05:30
Munnar,Kerala,10.0889,77.0595,17.4,100,0.3,857.3,9.15,27.7,39,6.6,6.4,8.7,116.0,33.0,1.5,6,10,7,1,2026-06-03T00:12:06.860043+05:30
Silchar,Assam,24.8333,92.7789,25.4,95,0.1,1003.1,8.7,23.8,115,86.8,73.3,20.9,441.0,75.0,11.0,10,5,4,1,2026-06-03T00:12:06.860050+05:30
Dibrugarh,Assam,27.4728,94.912,25.0,98,0.0,992.6,8.9,26.6,63,16.9,16.1,14.6,336.0,40.0,1.5,7,5,7,1,2026-06-03T00:12:06.860057+05:30
