city,state,latitude,longitude,temp,humidity,rain,pressure,uv_index,wind_gusts,aqi,pm10,pm2_5,mosquito_risk,arthritis_risk,migraine_risk,frizz_risk,updated_at
Delhi,Delhi,28.6139,77.209,19.9,83,0.0,987.1,5.5,27.7,161,247.7,83.6,3,10,3,1,2026-03-09T07:59:43.184418+05:30
Mumbai,Maharashtra,19.076,72.8777,28.4,59,0.0,1009.7,7.55,23.8,119,34.6,34.2,4,0,4,1,2026-03-09T07:59:43.184463+05:30
Bangalore,Karnataka,12.9716,77.5946,19.5,86,0.0,913.4,9.2,37.1,102,63.1,55.4,3,10,7,1,2026-03-09T07:59:43.184479+05:30
Hyderabad,Telangana,17.385,78.4867,21.5,86,0.0,956.6,8.55,31.3,99,60.3,50.2,3,5,7,1,2026-03-09T07:59:43.184490+05:30
Chennai,Tamil Nadu,13.0827,80.2707,26.9,76,0.0,1011.2,8.95,33.5,77,47.7,36.2,7,0,4,1,2026-03-09T07:59:43.184499+05:30
Kolkata,West Bengal,22.5726,88.3639,24.7,91,0.0,1013.0,7.95,18.0,150,54.5,47.5,3,0,4,1,2026-03-09T07:59:43.184508+05:30
Pune,Maharashtra,18.5204,73.8567,25.0,41,0.0,950.8,8.1,31.3,74,34.7,31.8,4,5,7,0,2026-03-09T07:59:43.184521+05:30
Ahmedabad,Gujarat,23.0225,72.5714,20.7,62,0.0,1006.4,7.4,18.4,66,21.6,15.9,3,5,4,0,2026-03-09T07:59:43.184530+05:30
Jaipur,Rajasthan,26.9124,75.7873,23.6,31,0.0,964.1,6.8,25.2,77,121.1,27.2,0,5,7,0,2026-03-09T07:59:43.184538+05:30
Lucknow,Uttar Pradesh,26.8467,80.9462,22.6,82,0.0,998.5,6.55,21.2,179,204.4,137.4,3,5,7,1,2026-03-09T07:59:43.184546+05:30
Kanpur,Uttar Pradesh,26.4499,80.3319,21.6,85,0.0,996.4,6.55,16.9,168,143.4,85.7,3,5,7,1,2026-03-09T07:59:43.184554+05:30
Chandigarh,Chandigarh,30.7333,76.7794,19.7,72,0.0,971.9,5.95,24.5,134,39.9,31.4,3,5,3,0,2026-03-09T07:59:43.184562+05:30
Srinagar,Jammu and Kashmir,34.0837,74.7973,6.4,78,0.0,843.0,6.35,22.7,130,83.6,70.1,3,5,7,0,2026-03-09T07:59:43.184569+05:30
Jammu,Jammu and Kashmir,32.7266,74.857,16.8,77,0.0,975.9,6.55,20.9,84,32.7,27.6,3,5,7,0,2026-03-09T07:59:43.184576+05:30
Amritsar,Punjab,31.634,74.8723,19.4,82,0.0,984.6,6.5,18.0,160,119.7,96.9,3,10,7,1,2026-03-09T07:59:43.184583+05:30
Ludhiana,Punjab,30.901,75.8573,20.6,80,0.0,982.6,6.05,21.2,157,92.7,80.3,3,5,7,1,2026-03-09T07:59:43.184590+05:30
Jalandhar,Punjab,31.326,75.5762,19.6,86,0.0,983.6,6.25,19.8,161,115.0,94.1,3,10,7,1,2026-03-09T07:59:43.184599+05:30
Dehradun,Uttarakhand,30.6284,78.0322,14.1,57,0.0,831.9,6.3,25.9,74,20.0,15.4,0,5,7,0,2026-03-09T07:59:43.184606+05:30
Shimla,Himachal Pradesh,31.1048,77.1734,11.7,53,0.0,785.3,6.35,49.3,75,42.3,26.4,0,5,7,0,2026-03-09T07:59:43.184613+05:30
Manali,Himachal Pradesh,32.2396,77.1887,16.4,19,0.0,823.8,7.6,32.4,43,12.4,5.8,0,5,7,1,2026-03-09T07:59:43.184620+05:30
Gurgaon,Haryana,28.4595,77.0266,18.3,88,0.0,985.6,5.85,25.6,566,644.5,116.9,3,10,3,1,2026-03-09T07:59:43.184628+05:30
Noida,Uttar Pradesh,28.5355,77.391,20.2,82,0.0,988.7,5.5,27.0,566,644.5,116.9,3,5,3,1,2026-03-09T07:59:43.184635+05:30
Ghaziabad,Uttar Pradesh,28.6692,77.4538,20.2,86,0.0,986.7,5.25,26.6,161,224.0,84.3,3,5,3,1,2026-03-09T07:59:43.184642+05:30
Faridabad,Haryana,28.4089,77.3178,19.4,84,0.0,988.0,5.65,24.5,566,644.5,116.9,3,10,3,1,2026-03-09T07:59:43.184649+05:30
Meerut,Uttar Pradesh,28.9845,77.7064,19.8,88,0.0,985.2,5.65,25.9,161,224.0,84.3,3,10,3,1,2026-03-09T07:59:43.184655+05:30
Agra,Uttar Pradesh,27.1767,78.0081,19.5,78,0.0,992.2,6.15,23.4,173,332.5,91.5,3,5,7,0,2026-03-09T07:59:43.184662+05:30
Varanasi,Uttar Pradesh,25.3176,82.9739,22.6,89,0.0,1003.0,7.2,16.2,182,120.1,113.6,3,5,4,1,2026-03-09T07:59:43.184672+05:30
Prayagraj,Uttar Pradesh,25.4358,81.8463,22.5,83,0.0,1001.4,7.1,15.1,188,158.3,144.8,3,5,4,1,2026-03-09T07:59:43.184679+05:30
Gorakhpur,Uttar Pradesh,26.7606,83.3732,22.1,85,0.0,1003.4,6.9,27.7,182,128.5,123.9,3,5,4,1,2026-03-09T07:59:43.184688+05:30
Bareilly,Uttar Pradesh,28.367,79.4304,19.7,97,0.0,991.0,6.25,14.8,167,147.1,108.0,3,10,7,1,2026-03-09T07:59:43.184695+05:30
Aligarh,Uttar Pradesh,27.8974,78.088,19.7,79,0.0,989.8,6.15,26.3,210,296.2,99.2,3,5,7,0,2026-03-09T07:59:43.184702+05:30
Moradabad,Uttar Pradesh,28.8386,78.7733,19.5,92,0.0,987.6,6.05,16.6,172,178.3,131.3,3,10,7,1,2026-03-09T07:59:43.184708+05:30
Saharanpur,Uttar Pradesh,29.9637,77.546,18.7,86,0.0,978.9,5.7,20.9,161,112.2,94.5,3,10,3,1,2026-03-09T07:59:43.184714+05:30
Jhansi,Uttar Pradesh,25.4484,78.5685,20.8,61,0.0,982.2,7.0,25.2,77,25.1,18.9,3,5,7,0,2026-03-09T07:59:46.516677+05:30
Surat,Gujarat,21.1702,72.8311,23.6,59,0.0,1010.1,7.25,24.1,109,34.3,33.3,0,0,4,0,2026-03-09T07:59:46.516708+05:30
Vadodara,Gujarat,22.3072,73.1812,21.6,55,0.0,1008.3,7.4,16.2,70,23.2,21.2,0,0,4,0,2026-03-09T07:59:46.516717+05:30
Rajkot,Gujarat,22.3039,70.8022,21.8,68,0.0,998.1,7.2,25.9,67,36.8,19.7,3,5,7,0,2026-03-09T07:59:46.516725+05:30
Thane,Maharashtra,19.2183,72.9781,25.5,53,0.0,1009.3,7.55,34.6,119,34.6,34.2,4,0,4,0,2026-03-09T07:59:46.516733+05:30
Nagpur,Maharashtra,21.1458,79.0882,21.5,55,0.0,977.5,7.95,29.2,81,42.6,29.5,0,5,7,0,2026-03-09T07:59:46.516740+05:30
Nashik,Maharashtra,19.9975,73.7898,23.7,45,0.0,948.4,7.75,30.2,54,19.3,19.2,0,5,7,0,2026-03-09T07:59:46.516747+05:30
Aurangabad,Maharashtra,19.8762,75.3433,22.7,41,0.0,947.0,8.25,38.5,66,23.8,17.8,0,5,7,0,2026-03-09T07:59:46.516753+05:30
Solapur,Maharashtra,17.6599,75.9064,21.4,62,0.0,959.6,8.45,26.3,73,46.3,38.1,3,5,7,0,2026-03-09T07:59:46.516760+05:30
Kolhapur,Maharashtra,16.705,74.2433,20.6,72,0.0,949.4,8.6,41.0,140,81.5,78.2,3,5,7,0,2026-03-09T07:59:46.516767+05:30
Goa,Goa,15.2993,74.124,25.4,84,0.0,999.5,8.65,34.6,137,63.8,60.1,7,5,7,1,2026-03-09T07:59:46.516774+05:30
Jodhpur,Rajasthan,26.2389,73.0243,21.2,51,0.0,988.0,7.1,21.2,57,105.9,25.2,0,5,7,0,2026-03-09T07:59:46.516781+05:30
Udaipur,Rajasthan,24.5854,73.7125,19.3,41,0.0,950.7,7.7,17.3,39,13.4,10.2,0,5,7,0,2026-03-09T07:59:46.516787+05:30
Kota,Rajasthan,25.2138,75.8648,19.1,66,0.0,983.4,7.1,16.9,81,27.3,27.3,3,5,7,0,2026-03-09T07:59:46.516794+05:30
Bikaner,Rajasthan,28.0229,73.3119,20.9,54,0.0,986.5,6.8,20.5,57,33.4,13.4,0,5,7,0,2026-03-09T07:59:46.516801+05:30
Ajmer,Rajasthan,26.4499,74.6399,19.0,51,0.0,958.7,7.1,19.4,45,35.7,15.5,0,5,7,0,2026-03-09T07:59:46.516807+05:30
Gwalior,Madhya Pradesh,26.2183,78.1828,21.7,64,0.0,987.6,6.75,22.7,74,51.2,24.3,3,5,7,0,2026-03-09T07:59:46.516813+05:30
Indore,Madhya Pradesh,22.7196,75.8577,19.0,51,0.0,951.6,7.65,22.3,80,45.3,45.2,0,5,7,0,2026-03-09T07:59:46.516820+05:30
Bhopal,Madhya Pradesh,23.2599,77.4126,21.1,50,0.0,957.8,7.55,16.6,69,36.9,29.3,0,5,7,0,2026-03-09T07:59:46.516826+05:30
Jabalpur,Madhya Pradesh,23.1815,79.9864,19.0,79,0.0,966.0,7.65,23.8,118,71.9,53.9,3,5,7,0,2026-03-09T07:59:46.516837+05:30
Ujjain,Madhya Pradesh,23.1765,75.7885,19.1,57,0.0,957.6,7.55,12.2,98,53.4,53.2,0,5,7,0,2026-03-09T07:59:46.516844+05:30
Visakhapatnam,Andhra Pradesh,17.6868,83.2185,26.2,79,0.0,1009.2,8.55,32.4,92,51.9,42.3,7,0,4,1,2026-03-09T07:59:46.516852+05:30
Vijayawada,Andhra Pradesh,16.5062,80.648,25.8,83,0.0,1007.3,8.65,24.1,90,41.9,36.8,7,5,4,1,2026-03-09T07:59:46.516859+05:30
Guntur,Andhra Pradesh,16.3067,80.4365,26.0,85,0.0,1008.3,8.65,26.6,87,37.0,31.7,7,0,4,1,2026-03-09T07:59:46.516865+05:30
Nellore,Andhra Pradesh,14.4426,79.9865,25.9,85,0.0,1010.3,8.8,33.5,78,28.8,23.0,7,0,4,1,2026-03-09T07:59:46.516872+05:30
Kurnool,Andhra Pradesh,15.8281,78.0373,24.3,79,0.0,980.2,8.65,37.1,91,34.1,28.9,3,5,7,1,2026-03-09T07:59:46.516879+05:30
Kakinada,Andhra Pradesh,16.9891,82.2475,26.0,84,0.0,1012.7,8.55,30.6,80,46.0,34.7,7,0,4,1,2026-03-09T07:59:46.516886+05:30
Tirupati,Andhra Pradesh,13.6288,79.4192,23.8,85,0.0,995.9,8.95,42.5,93,44.8,38.9,3,5,7,1,2026-03-09T07:59:46.516893+05:30
Warangal,Telangana,17.9689,79.5941,23.5,91,0.0,983.1,8.4,29.2,116,34.5,31.0,3,5,7,1,2026-03-09T07:59:46.516899+05:30
Nizamabad,Telangana,18.6725,78.0941,22.1,63,0.0,968.2,8.3,33.5,115,66.8,60.1,3,5,7,0,2026-03-09T07:59:46.516906+05:30
Mysore,Karnataka,12.2958,76.6396,21.7,92,0.0,930.3,9.25,40.7,127,68.5,63.6,3,5,7,1,2026-03-09T07:59:46.516912+05:30
Mangalore,Karnataka,12.9141,74.856,28.2,82,0.0,1008.4,8.85,23.8,121,60.1,56.9,7,0,4,1,2026-03-09T07:59:46.516918+05:30
Hubli-Dharwad,Karnataka,15.3647,75.124,20.6,97,0.0,942.5,8.85,38.2,89,51.2,47.0,3,5,7,1,2026-03-09T07:59:46.516925+05:30
Belgaum,Karnataka,15.8497,74.4977,22.0,69,0.0,926.8,8.85,48.2,120,61.7,58.1,3,5,7,0,2026-03-09T07:59:49.848602+05:30
Coimbatore,Tamil Nadu,11.0168,76.9558,23.0,87,0.0,964.8,9.25,53.3,115,41.1,36.3,3,5,7,1,2026-03-09T07:59:49.848631+05:30
Madurai,Tamil Nadu,9.9252,78.1198,25.0,84,0.0,996.7,9.2,35.6,97,54.8,48.3,7,5,7,1,2026-03-09T07:59:49.848642+05:30
Trichy,Tamil Nadu,10.7905,78.7047,24.5,90,0.0,1003.8,9.1,31.3,82,29.9,24.6,3,5,4,1,2026-03-09T07:59:49.848650+05:30
Salem,Tamil Nadu,11.6643,78.146,24.2,85,0.0,981.0,9.15,33.1,110,60.5,55.1,3,5,7,1,2026-03-09T07:59:49.848657+05:30
Tirunelveli,Tamil Nadu,8.7139,77.7567,25.3,82,0.0,1006.5,9.15,34.9,107,44.4,37.5,7,5,4,1,2026-03-09T07:59:49.848665+05:30
Vellore,Tamil Nadu,12.9165,79.1325,23.4,84,0.0,988.5,9.05,38.5,112,78.7,72.9,3,5,7,1,2026-03-09T07:59:49.848672+05:30
Erode,Tamil Nadu,11.341,77.7172,24.8,85,0.0,992.7,9.15,27.4,87,29.7,23.5,3,5,7,1,2026-03-09T07:59:49.848679+05:30
Kochi,Kerala,9.9312,76.2673,26.6,85,0.0,1011.1,8.95,28.8,145,65.0,62.6,7,0,4,1,2026-03-09T07:59:49.848685+05:30
Thiruvananthapuram,Kerala,8.5241,76.9366,27.0,85,0.0,1009.9,9.1,26.3,105,47.3,43.4,7,0,4,1,2026-03-09T07:59:49.848692+05:30
Kozhikode,Kerala,11.2588,75.7804,26.5,85,0.0,1010.0,8.65,25.9,106,38.0,35.3,7,0,4,1,2026-03-09T07:59:49.848699+05:30
Thrissur,Kerala,10.5276,76.2144,25.5,92,0.0,1009.5,9.05,43.2,127,57.2,55.1,7,0,4,1,2026-03-09T07:59:49.848706+05:30
Kannur,Kerala,11.8745,75.3704,27.4,85,0.0,1009.2,8.9,27.7,119,53.1,50.3,7,0,4,1,2026-03-09T07:59:49.848713+05:30
Patna,Bihar,25.5941,85.1376,23.8,86,0.0,1006.8,7.4,29.5,172,109.4,104.3,3,5,4,1,2026-03-09T07:59:49.848720+05:30
Gaya,Bihar,24.7914,85.0002,23.4,89,0.0,999.4,7.5,26.6,162,99.9,94.5,3,5,7,1,2026-03-09T07:59:49.848726+05:30
Muzaffarpur,Bihar,26.1209,85.3647,22.8,84,0.0,1007.3,7.35,34.9,174,129.9,122.5,3,5,4,1,2026-03-09T07:59:49.848732+05:30
Bhagalpur,Bihar,25.2425,87.0117,23.7,90,0.0,1008.4,7.3,26.6,162,84.5,78.0,3,0,4,1,2026-03-09T07:59:49.848738+05:30
Ranchi,Jharkhand,23.3441,85.3096,22.6,86,0.0,943.0,8.1,29.2,163,84.8,73.6,3,5,7,1,2026-03-09T07:59:49.848745+05:30
Jamshedpur,Jharkhand,22.8046,86.2029,25.1,89,0.0,997.1,8.0,33.8,157,77.5,68.5,7,5,7,1,2026-03-09T07:59:49.848751+05:30
Dhanbad,Jharkhand,23.7957,86.4304,24.9,82,0.0,985.8,7.9,31.0,168,96.2,89.6,3,5,7,1,2026-03-09T07:59:49.848757+05:30
Bokaro,Jharkhand,23.6693,86.1511,24.9,82,0.0,989.9,7.9,41.4,174,114.8,107.8,3,5,7,1,2026-03-09T07:59:49.848764+05:30
Bhubaneswar,Odisha,20.2961,85.8245,25.9,81,0.0,1009.0,8.3,30.2,98,36.2,29.6,7,0,4,1,2026-03-09T07:59:49.848770+05:30
Cuttack,Odisha,20.4625,85.8828,26.1,82,0.0,1011.0,8.35,28.1,98,36.2,29.6,7,0,4,1,2026-03-09T07:59:49.848776+05:30
Rourkela,Odisha,22.2604,84.8536,25.4,80,0.0,991.0,7.9,22.7,167,88.2,76.4,7,5,7,1,2026-03-09T07:59:49.848782+05:30
Raipur,Chhattisgarh,21.2514,81.6296,24.0,58,0.0,979.5,8.0,24.8,161,71.9,65.0,0,5,7,0,2026-03-09T07:59:49.848789+05:30
Bhilai,Chhattisgarh,21.1938,81.3509,24.0,58,0.0,979.8,8.05,25.2,155,69.6,59.4,0,5,7,0,2026-03-09T07:59:49.848795+05:30
Guwahati,Assam,26.1158,91.7086,26.0,70,0.0,1009.4,7.3,16.6,153,69.2,58.3,7,0,4,1,2026-03-09T07:59:49.848801+05:30
Agartala,Tripura,23.8315,91.2868,23.8,88,0.0,1013.7,7.7,13.3,160,75.4,68.2,3,0,4,1,2026-03-09T07:59:49.848808+05:30
Shillong,Meghalaya,25.5788,91.8933,15.3,76,0.0,862.2,6.7,26.3,135,71.9,58.9,3,5,7,0,2026-03-09T07:59:49.848814+05:30
Imphal,Manipur,24.817,93.9368,20.4,77,0.0,930.0,7.95,23.0,159,100.1,95.5,3,5,7,1,2026-03-09T07:59:49.848821+05:30
Aizawl,Mizoram,23.7271,92.7176,19.9,76,0.0,898.8,6.9,26.3,160,105.0,93.6,3,5,7,0,2026-03-09T07:59:49.848827+05:30
Kohima,Nagaland,25.6701,94.1077,17.3,71,0.0,861.3,6.8,52.9,155,61.7,56.9,3,5,7,0,2026-03-09T07:59:49.848833+05:30
Gangtok,Sikkim,27.3314,88.6138,14.1,81,0.0,842.3,4.6,18.0,152,88.9,65.7,3,10,3,0,2026-03-09T07:59:49.848839+05:30
Siliguri,West Bengal,26.7271,88.3953,21.8,73,0.0,1001.9,7.35,18.4,155,112.7,85.0,3,5,4,1,2026-03-09T07:59:53.182059+05:30
Durgapur,West Bengal,23.5204,87.3119,25.1,86,0.0,1001.5,7.6,24.5,160,77.1,70.5,7,5,4,1,2026-03-09T07:59:53.182088+05:30
Asansol,West Bengal,23.6739,86.9524,25.2,85,0.0,999.8,7.55,23.4,160,75.2,69.4,7,5,7,1,2026-03-09T07:59:53.182099+05:30
Pondicherry,Puducherry,11.9139,79.8145,25.9,85,0.0,1012.4,8.95,33.8,69,49.4,37.0,7,0,4,1,2026-03-09T07:59:53.182107+05:30
Port Blair,Andaman and Nicobar Islands,11.6234,92.7265,26.9,82,0.0,1011.2,8.9,28.4,85,31.7,26.1,7,0,4,1,2026-03-09T07:59:53.182115+05:30
Haridwar,Uttarakhand,29.9457,78.1642,19.9,87,0.0,977.8,5.8,27.0,159,72.4,62.2,3,10,3,1,2026-03-09T07:59:53.182123+05:30
Rishikesh,Uttarakhand,30.0869,78.2676,20.6,71,0.0,970.5,5.85,27.0,155,56.9,50.5,3,5,3,0,2026-03-09T07:59:53.182160+05:30
Nainital,Uttarakhand,29.3919,79.4542,17.7,75,0.0,808.8,6.7,51.8,158,94.8,75.4,3,5,7,0,2026-03-09T07:59:53.182169+05:30
Mussoorie,Uttarakhand,30.4599,78.0664,16.7,47,0.0,805.1,6.2,34.6,152,43.9,37.1,0,5,7,0,2026-03-09T07:59:53.182176+05:30
Dharamshala,Himachal Pradesh,32.219,76.3234,21.0,26,0.0,872.4,6.45,26.3,54,11.0,6.2,0,5,7,0,2026-03-09T07:59:53.182183+05:30
Dalhousie,Himachal Pradesh,32.5387,75.971,17.8,27,0.0,806.8,6.65,22.7,82,24.1,18.5,0,5,7,1,2026-03-09T07:59:53.182191+05:30
Patiala,Punjab,30.3398,76.3869,19.8,84,0.0,981.7,5.4,23.4,162,269.2,78.0,3,10,3,1,2026-03-09T07:59:53.182199+05:30
Bhatinda,Punjab,30.211,74.9455,20.1,89,0.0,988.0,6.05,20.2,152,116.4,93.6,3,5,7,1,2026-03-09T07:59:53.182206+05:30
Rohtak,Haryana,28.8955,76.6066,18.6,90,0.0,985.9,6.05,26.6,173,206.8,75.0,3,10,7,1,2026-03-09T07:59:53.182217+05:30
Panipat,Haryana,29.3909,76.9635,20.0,89,0.0,984.0,5.75,26.6,476,592.3,112.9,3,5,3,1,2026-03-09T07:59:53.182224+05:30
Mathura,Uttar Pradesh,27.4924,77.6737,20.5,71,0.0,991.1,6.3,24.5,182,280.3,77.5,3,5,7,0,2026-03-09T07:59:53.182230+05:30
Vrindavan,Uttar Pradesh,27.5823,77.7027,19.6,77,0.0,991.5,6.25,25.9,182,280.3,77.5,3,5,7,0,2026-03-09T07:59:53.182237+05:30
Ayodhya,Uttar Pradesh,26.7922,82.1998,22.0,91,0.0,1001.0,6.7,20.9,190,175.1,158.3,3,5,4,1,2026-03-09T07:59:53.182243+05:30
Ratlam,Madhya Pradesh,23.3315,75.0367,19.9,70,0.0,958.1,7.5,10.4,81,47.4,46.8,3,5,7,0,2026-03-09T07:59:53.182250+05:30
Sagar,Madhya Pradesh,23.8388,78.7378,20.2,65,0.0,954.2,7.5,20.5,73,36.1,23.2,3,5,7,0,2026-03-09T07:59:53.182256+05:30
Satna,Madhya Pradesh,24.6005,80.8322,20.7,76,0.0,976.3,7.45,26.3,152,80.8,64.3,3,5,7,1,2026-03-09T07:59:53.182262+05:30
Akola,Maharashtra,20.7002,77.0082,21.6,54,0.0,979.1,7.95,19.8,70,30.3,23.6,0,5,7,0,2026-03-09T07:59:53.182269+05:30
Amravati,Maharashtra,20.9374,77.7796,20.8,58,0.0,971.1,7.9,27.0,63,28.5,21.2,0,5,7,0,2026-03-09T07:59:53.182276+05:30
Latur,Maharashtra,18.4088,76.5604,21.4,54,0.0,942.3,8.4,30.6,95,62.9,54.5,0,5,7,0,2026-03-09T07:59:53.182282+05:30
Nanded,Maharashtra,19.1383,77.3091,23.2,51,0.0,972.1,8.15,29.5,79,37.4,32.5,0,5,7,0,2026-03-09T07:59:53.182289+05:30
Gulbarga,Karnataka,17.3297,76.8343,24.1,56,0.0,961.3,8.5,32.8,83,46.1,38.4,0,5,7,0,2026-03-09T07:59:53.182294+05:30
Bidar,Karnataka,17.9104,77.5199,23.1,53,0.0,937.8,8.45,32.8,102,61.5,51.7,0,5,7,0,2026-03-09T07:59:53.182300+05:30
Hospet,Karnataka,15.2689,76.3909,23.5,78,0.0,958.5,8.8,39.6,90,37.6,33.5,3,5,7,1,2026-03-09T07:59:53.182306+05:30
Tirupur,Tamil Nadu,11.1085,77.3411,24.2,81,0.0,978.7,9.25,36.4,106,35.0,28.1,3,5,7,1,2026-03-09T07:59:53.182312+05:30
Alappuzha,Kerala,9.4981,76.3388,25.8,80,0.0,1011.0,8.95,23.4,131,44.9,42.3,7,0,4,1,2026-03-09T07:59:53.182318+05:30
Munnar,Kerala,10.0889,77.0595,18.9,78,0.0,857.5,9.55,19.4,105,42.0,33.8,3,5,7,0,2026-03-09T07:59:53.182325+05:30
Silchar,Assam,24.8333,92.7789,24.8,81,0.0,1012.6,7.65,15.8,165,125.3,113.9,3,0,4,1,2026-03-09T07:59:53.182332+05:30
Dibrugarh,Assam,27.4728,94.912,23.5,75,0.0,1003.7,7.4,17.6,158,71.0,65.0,3,5,4,1,2026-03-09T07:59:53.182338+05:30
