city,state,latitude,longitude,temp,humidity,rain,pressure,uv_index,wind_gusts,aqi,pm10,pm2_5,mosquito_risk,arthritis_risk,migraine_risk,frizz_risk,updated_at
Delhi,Delhi,28.6139,77.209,21.3,73,0.0,985.3,5.9,27.4,165,295.2,86.4,3,5,3,1,2026-03-09T02:57:37.351147+05:30
Mumbai,Maharashtra,19.076,72.8777,28.8,65,0.0,1007.6,7.55,22.7,166,30.0,28.3,7,5,4,1,2026-03-09T02:57:37.351197+05:30
Bangalore,Karnataka,12.9716,77.5946,20.8,66,0.0,911.4,9.25,38.5,109,45.6,39.0,3,5,7,0,2026-03-09T02:57:37.351213+05:30
Hyderabad,Telangana,17.385,78.4867,22.9,68,0.0,953.7,8.55,29.9,100,45.5,35.9,3,5,7,1,2026-03-09T02:57:37.351223+05:30
Chennai,Tamil Nadu,13.0827,80.2707,26.1,79,0.0,1008.5,8.95,33.5,74,34.1,25.1,7,0,4,1,2026-03-09T02:57:37.351232+05:30
Kolkata,West Bengal,22.5726,88.3639,23.3,97,0.0,1009.5,7.95,17.6,148,47.6,43.0,3,0,4,1,2026-03-09T02:57:37.351241+05:30
Pune,Maharashtra,18.5204,73.8567,22.1,61,0.0,948.2,8.1,32.4,91,30.5,26.3,3,5,7,0,2026-03-09T02:57:37.351254+05:30
Ahmedabad,Gujarat,23.0225,72.5714,22.3,49,0.0,1004.1,7.4,18.7,79,19.2,15.1,0,5,4,0,2026-03-09T02:57:37.351262+05:30
Jaipur,Rajasthan,26.9124,75.7873,25.0,28,0.0,962.0,6.7,22.0,79,123.4,25.0,4,5,7,0,2026-03-09T02:57:37.351269+05:30
Lucknow,Uttar Pradesh,26.8467,80.9462,23.6,74,0.0,996.1,6.55,19.4,177,236.1,130.9,3,5,7,1,2026-03-09T02:57:37.351278+05:30
Kanpur,Uttar Pradesh,26.4499,80.3319,22.6,75,0.0,994.1,6.55,16.2,170,201.6,107.1,3,5,7,1,2026-03-09T02:57:37.351286+05:30
Chandigarh,Chandigarh,30.7333,76.7794,20.2,79,0.0,970.8,5.95,23.8,145,39.5,32.5,3,5,3,1,2026-03-09T02:57:37.351293+05:30
Srinagar,Jammu and Kashmir,34.0837,74.7973,6.5,81,0.0,841.6,6.35,20.2,115,77.1,61.7,3,10,7,0,2026-03-09T02:57:37.351300+05:30
Jammu,Jammu and Kashmir,32.7266,74.857,18.3,83,0.0,975.5,6.4,24.1,87,37.5,32.6,3,10,7,0,2026-03-09T02:57:37.351308+05:30
Amritsar,Punjab,31.634,74.8723,20.6,72,0.0,983.7,6.5,20.2,161,87.8,72.9,3,5,7,0,2026-03-09T02:57:37.351315+05:30
Ludhiana,Punjab,30.901,75.8573,21.8,77,0.0,981.5,6.1,25.6,163,80.1,69.4,3,5,7,1,2026-03-09T02:57:37.351321+05:30
Jalandhar,Punjab,31.326,75.5762,20.6,83,0.0,982.7,6.2,23.8,164,96.6,78.5,3,5,7,1,2026-03-09T02:57:37.351331+05:30
Dehradun,Uttarakhand,30.6284,78.0322,14.0,67,0.0,831.0,6.3,28.8,78,36.3,28.2,3,5,7,0,2026-03-09T02:57:37.351338+05:30
Shimla,Himachal Pradesh,31.1048,77.1734,12.1,62,0.0,785.1,6.35,49.3,82,42.0,23.6,3,5,7,0,2026-03-09T02:57:37.351345+05:30
Manali,Himachal Pradesh,32.2396,77.1887,15.7,35,0.0,823.1,7.6,34.6,41,35.9,20.5,0,5,7,0,2026-03-09T02:57:37.351352+05:30
Gurgaon,Haryana,28.4595,77.0266,18.4,82,0.0,983.6,5.95,26.6,448,542.0,106.6,3,10,3,0,2026-03-09T02:57:37.351359+05:30
Noida,Uttar Pradesh,28.5355,77.391,20.9,75,0.0,986.8,5.75,26.6,448,542.0,106.6,3,5,3,1,2026-03-09T02:57:37.351366+05:30
Ghaziabad,Uttar Pradesh,28.6692,77.4538,20.3,81,0.0,984.9,5.95,24.5,166,276.6,80.6,3,5,3,1,2026-03-09T02:57:37.351373+05:30
Faridabad,Haryana,28.4089,77.3178,17.4,86,0.0,985.9,5.6,25.2,448,542.0,106.6,3,10,3,0,2026-03-09T02:57:37.351380+05:30
Meerut,Uttar Pradesh,28.9845,77.7064,20.1,86,0.0,983.6,5.85,24.8,166,276.6,80.6,3,5,3,1,2026-03-09T02:57:37.351387+05:30
Agra,Uttar Pradesh,27.1767,78.0081,18.3,81,0.0,990.1,6.05,23.4,158,375.3,90.6,3,10,7,0,2026-03-09T02:57:37.351396+05:30
Varanasi,Uttar Pradesh,25.3176,82.9739,22.1,83,0.0,1000.5,7.2,14.4,175,116.2,109.0,3,5,4,1,2026-03-09T02:57:37.351405+05:30
Prayagraj,Uttar Pradesh,25.4358,81.8463,22.3,77,0.0,998.8,7.1,15.8,179,125.3,117.1,3,5,7,1,2026-03-09T02:57:37.351413+05:30
Gorakhpur,Uttar Pradesh,26.7606,83.3732,20.9,93,0.0,1000.4,6.9,27.7,173,126.2,121.1,3,5,4,1,2026-03-09T02:57:37.351420+05:30
Bareilly,Uttar Pradesh,28.367,79.4304,21.1,87,0.0,988.8,6.25,14.4,168,118.0,106.4,3,5,7,1,2026-03-09T02:57:37.351426+05:30
Aligarh,Uttar Pradesh,27.8974,78.088,18.2,79,0.0,987.8,6.15,24.1,198,383.7,99.4,3,5,7,0,2026-03-09T02:57:37.351433+05:30
Moradabad,Uttar Pradesh,28.8386,78.7733,21.5,78,0.0,985.7,6.05,14.4,178,228.6,121.1,3,5,7,1,2026-03-09T02:57:37.351442+05:30
Saharanpur,Uttar Pradesh,29.9637,77.546,19.3,85,0.0,977.6,5.7,20.5,164,128.5,90.6,3,10,3,1,2026-03-09T02:57:37.351448+05:30
Jhansi,Uttar Pradesh,25.4484,78.5685,21.4,57,0.0,980.1,7.0,25.6,87,33.5,24.2,0,5,7,0,2026-03-09T02:57:40.685867+05:30
Surat,Gujarat,21.1702,72.8311,25.2,61,0.0,1007.5,7.25,24.8,120,34.5,33.9,7,5,4,1,2026-03-09T02:57:40.685897+05:30
Vadodara,Gujarat,22.3072,73.1812,23.2,56,0.0,1005.9,7.4,15.8,81,21.7,20.8,0,5,4,0,2026-03-09T02:57:40.685907+05:30
Rajkot,Gujarat,22.3039,70.8022,22.6,53,0.0,996.5,7.2,26.3,71,28.3,17.1,0,5,7,0,2026-03-09T02:57:40.685950+05:30
Thane,Maharashtra,19.2183,72.9781,26.6,55,0.0,1007.1,7.55,36.4,166,30.0,28.3,4,5,4,1,2026-03-09T02:57:40.685960+05:30
Nagpur,Maharashtra,21.1458,79.0882,22.4,45,0.0,974.3,7.95,27.7,84,46.8,32.6,0,5,7,0,2026-03-09T02:57:40.685967+05:30
Nashik,Maharashtra,19.9975,73.7898,24.4,37,0.0,946.2,7.75,30.2,66,22.2,20.1,0,5,7,0,2026-03-09T02:57:40.685974+05:30
Aurangabad,Maharashtra,19.8762,75.3433,23.6,51,0.0,944.6,8.25,38.2,71,35.7,30.4,0,5,7,0,2026-03-09T02:57:40.685981+05:30
Solapur,Maharashtra,17.6599,75.9064,23.2,67,0.0,957.0,8.45,23.8,71,29.7,24.3,3,5,7,1,2026-03-09T02:57:40.685989+05:30
Kolhapur,Maharashtra,16.705,74.2433,18.4,80,0.0,947.1,8.6,34.2,140,91.5,89.2,3,5,7,0,2026-03-09T02:57:40.685997+05:30
Goa,Goa,15.2993,74.124,26.1,89,0.0,998.0,8.65,32.8,123,55.1,51.5,7,5,7,1,2026-03-09T02:57:40.686004+05:30
Jodhpur,Rajasthan,26.2389,73.0243,23.8,40,0.0,985.8,7.1,21.2,58,56.1,15.8,0,5,7,0,2026-03-09T02:57:40.686011+05:30
Udaipur,Rajasthan,24.5854,73.7125,20.8,40,0.0,949.1,7.7,14.8,38,11.1,10.4,0,5,7,0,2026-03-09T02:57:40.686018+05:30
Kota,Rajasthan,25.2138,75.8648,20.5,62,0.0,980.8,7.1,15.1,83,28.7,28.5,3,5,7,0,2026-03-09T02:57:40.686024+05:30
Bikaner,Rajasthan,28.0229,73.3119,24.4,49,0.0,984.9,6.8,18.0,55,18.5,9.0,0,5,7,0,2026-03-09T02:57:40.686031+05:30
Ajmer,Rajasthan,26.4499,74.6399,22.2,40,0.0,956.9,7.1,20.9,58,17.6,9.7,0,5,7,0,2026-03-09T02:57:40.686038+05:30
Gwalior,Madhya Pradesh,26.2183,78.1828,23.2,56,0.0,985.5,6.75,23.0,86,72.6,24.6,0,5,7,0,2026-03-09T02:57:40.686045+05:30
Indore,Madhya Pradesh,22.7196,75.8577,20.8,44,0.0,949.4,7.65,20.5,71,33.4,31.7,0,5,7,0,2026-03-09T02:57:40.686051+05:30
Bhopal,Madhya Pradesh,23.2599,77.4126,21.3,50,0.0,955.4,7.55,17.6,71,43.7,33.5,0,5,7,0,2026-03-09T02:57:40.686058+05:30
Jabalpur,Madhya Pradesh,23.1815,79.9864,21.8,59,0.0,963.4,7.65,21.2,137,70.5,49.5,0,5,7,0,2026-03-09T02:57:40.686065+05:30
Ujjain,Madhya Pradesh,23.1765,75.7885,20.7,51,0.0,955.6,7.55,11.9,94,45.3,43.7,0,5,7,0,2026-03-09T02:57:40.686072+05:30
Visakhapatnam,Andhra Pradesh,17.6868,83.2185,25.1,84,0.0,1006.4,8.55,33.5,92,40.7,31.5,7,5,4,1,2026-03-09T02:57:40.686079+05:30
Vijayawada,Andhra Pradesh,16.5062,80.648,25.1,86,0.0,1004.5,8.65,26.3,90,35.5,28.3,7,5,4,1,2026-03-09T02:57:40.686086+05:30
Guntur,Andhra Pradesh,16.3067,80.4365,25.2,86,0.0,1005.6,8.65,28.4,89,32.4,25.8,7,5,4,1,2026-03-09T02:57:40.686093+05:30
Nellore,Andhra Pradesh,14.4426,79.9865,25.5,84,0.0,1007.2,8.8,32.8,81,23.9,18.2,7,5,4,1,2026-03-09T02:57:40.686100+05:30
Kurnool,Andhra Pradesh,15.8281,78.0373,25.7,70,0.0,977.4,8.65,37.1,101,36.7,32.5,7,5,7,1,2026-03-09T02:57:40.686107+05:30
Kakinada,Andhra Pradesh,16.9891,82.2475,25.3,83,0.0,1009.8,8.55,30.2,78,42.0,29.5,7,0,4,1,2026-03-09T02:57:40.686114+05:30
Tirupati,Andhra Pradesh,13.6288,79.4192,23.1,89,0.0,993.1,8.95,37.1,105,38.1,31.8,3,5,7,1,2026-03-09T02:57:40.686120+05:30
Warangal,Telangana,17.9689,79.5941,23.6,86,0.0,980.0,8.4,29.9,121,37.4,34.5,3,5,7,1,2026-03-09T02:57:40.686126+05:30
Nizamabad,Telangana,18.6725,78.0941,22.3,58,0.0,964.8,8.25,31.3,97,49.1,40.7,0,5,7,0,2026-03-09T02:57:40.686133+05:30
Mysore,Karnataka,12.2958,76.6396,22.1,92,0.0,928.3,9.25,40.7,122,57.9,52.3,3,5,7,1,2026-03-09T02:57:40.686139+05:30
Mangalore,Karnataka,12.9141,74.856,28.5,78,0.0,1006.6,8.85,25.2,108,44.9,41.1,7,5,4,1,2026-03-09T02:57:40.686145+05:30
Hubli-Dharwad,Karnataka,15.3647,75.124,21.6,93,0.0,940.2,8.85,35.3,97,40.0,37.4,3,5,7,1,2026-03-09T02:57:40.686152+05:30
Belgaum,Karnataka,15.8497,74.4977,20.4,100,0.0,925.0,8.85,42.1,112,60.1,56.7,3,5,7,1,2026-03-09T02:57:44.044123+05:30
Coimbatore,Tamil Nadu,11.0168,76.9558,22.6,96,0.0,961.8,9.25,47.5,115,42.8,38.2,3,5,7,1,2026-03-09T02:57:44.044155+05:30
Madurai,Tamil Nadu,9.9252,78.1198,24.6,81,0.0,994.0,9.2,36.7,99,50.8,42.3,3,5,7,1,2026-03-09T02:57:44.044165+05:30
Trichy,Tamil Nadu,10.7905,78.7047,23.6,92,0.0,1000.8,9.1,31.3,92,26.4,22.8,3,5,4,1,2026-03-09T02:57:44.044173+05:30
Salem,Tamil Nadu,11.6643,78.146,24.0,83,0.0,978.1,9.15,33.5,110,47.0,39.8,3,5,7,1,2026-03-09T02:57:44.044180+05:30
Tirunelveli,Tamil Nadu,8.7139,77.7567,25.5,81,0.0,1003.7,9.2,36.7,105,57.9,48.7,7,5,4,1,2026-03-09T02:57:44.044187+05:30
Vellore,Tamil Nadu,12.9165,79.1325,22.8,89,0.0,985.8,9.05,37.1,125,52.5,45.5,3,5,7,1,2026-03-09T02:57:44.044194+05:30
Erode,Tamil Nadu,11.341,77.7172,25.5,80,0.0,989.9,9.15,23.0,90,29.4,22.7,7,5,7,1,2026-03-09T02:57:44.044202+05:30
Kochi,Kerala,9.9312,76.2673,26.4,87,0.0,1008.9,8.95,25.9,124,50.8,49.4,7,0,4,1,2026-03-09T02:57:44.044209+05:30
Thiruvananthapuram,Kerala,8.5241,76.9366,27.3,85,0.0,1007.7,9.1,28.4,86,31.7,26.8,7,5,4,1,2026-03-09T02:57:44.044217+05:30
Kozhikode,Kerala,11.2588,75.7804,27.0,85,0.0,1008.0,8.15,26.3,84,36.2,32.2,7,0,4,1,2026-03-09T02:57:44.044224+05:30
Thrissur,Kerala,10.5276,76.2144,25.5,91,0.0,1007.2,9.05,31.3,114,43.2,41.2,7,5,4,1,2026-03-09T02:57:44.044231+05:30
Kannur,Kerala,11.8745,75.3704,27.4,83,0.0,1007.1,8.95,28.4,97,39.3,36.8,7,5,4,1,2026-03-09T02:57:44.044237+05:30
Patna,Bihar,25.5941,85.1376,23.3,86,0.0,1003.5,7.4,27.7,173,105.0,95.9,3,5,4,1,2026-03-09T02:57:44.044244+05:30
Gaya,Bihar,24.7914,85.0002,22.2,85,0.0,996.4,7.5,23.0,161,85.7,76.8,3,5,7,1,2026-03-09T02:57:44.044250+05:30
Muzaffarpur,Bihar,26.1209,85.3647,22.3,85,0.0,1003.8,7.35,33.5,177,114.3,105.7,3,5,4,1,2026-03-09T02:57:44.044257+05:30
Bhagalpur,Bihar,25.2425,87.0117,23.0,86,0.0,1004.5,5.45,25.2,162,95.9,84.1,3,5,0,1,2026-03-09T02:57:44.044264+05:30
Ranchi,Jharkhand,23.3441,85.3096,21.3,86,0.0,939.8,8.15,25.9,164,108.5,92.0,3,5,7,1,2026-03-09T02:57:44.044270+05:30
Jamshedpur,Jharkhand,22.8046,86.2029,24.3,93,0.0,993.9,8.0,29.5,159,65.7,59.1,3,5,7,1,2026-03-09T02:57:44.044276+05:30
Dhanbad,Jharkhand,23.7957,86.4304,24.3,83,0.0,982.9,7.9,36.7,170,105.5,99.0,3,5,7,1,2026-03-09T02:57:44.044282+05:30
Bokaro,Jharkhand,23.6693,86.1511,23.4,88,0.0,987.0,7.9,37.8,174,140.2,129.9,3,5,7,1,2026-03-09T02:57:44.044289+05:30
Bhubaneswar,Odisha,20.2961,85.8245,25.1,85,0.0,1005.6,8.3,32.8,102,33.9,29.1,7,5,4,1,2026-03-09T02:57:44.044296+05:30
Cuttack,Odisha,20.4625,85.8828,25.2,86,0.0,1007.6,8.35,30.2,102,33.9,29.1,7,5,4,1,2026-03-09T02:57:44.044302+05:30
Rourkela,Odisha,22.2604,84.8536,24.9,77,0.0,987.4,7.9,29.9,166,98.3,82.2,3,5,7,1,2026-03-09T02:57:44.044308+05:30
Raipur,Chhattisgarh,21.2514,81.6296,25.3,54,0.0,976.0,8.0,28.4,161,93.4,85.2,4,5,7,0,2026-03-09T02:57:44.044314+05:30
Bhilai,Chhattisgarh,21.1938,81.3509,24.1,58,0.0,976.1,8.0,28.8,156,71.0,64.3,0,5,7,0,2026-03-09T02:57:44.044320+05:30
Guwahati,Assam,26.1158,91.7086,24.7,75,0.0,1004.7,7.25,14.8,146,50.9,45.4,3,5,4,1,2026-03-09T02:57:44.044327+05:30
Agartala,Tripura,23.8315,91.2868,20.5,90,0.0,1010.0,7.7,12.2,154,62.4,57.7,3,0,4,1,2026-03-09T02:57:44.044333+05:30
Shillong,Meghalaya,25.5788,91.8933,11.4,85,0.0,857.0,5.65,24.5,117,43.0,37.8,3,10,3,0,2026-03-09T02:57:44.044339+05:30
Imphal,Manipur,24.817,93.9368,16.4,91,0.0,926.0,7.95,25.9,160,115.9,110.8,3,10,7,0,2026-03-09T02:57:44.044346+05:30
Aizawl,Mizoram,23.7271,92.7176,15.9,84,0.0,894.4,7.85,25.2,154,80.6,73.8,3,10,7,0,2026-03-09T02:57:44.044352+05:30
Kohima,Nagaland,25.6701,94.1077,14.0,87,0.0,856.8,6.9,53.3,160,78.7,74.0,3,10,7,0,2026-03-09T02:57:44.044358+05:30
Gangtok,Sikkim,27.3314,88.6138,13.1,79,0.0,838.5,3.1,20.2,152,83.4,66.1,3,5,3,0,2026-03-09T02:57:44.044365+05:30
Siliguri,West Bengal,26.7271,88.3953,20.8,63,0.1,997.9,7.35,15.8,155,93.6,71.7,6,5,7,0,2026-03-09T02:57:47.375765+05:30
Durgapur,West Bengal,23.5204,87.3119,23.8,91,0.0,998.4,7.55,23.8,162,64.7,61.2,3,5,7,1,2026-03-09T02:57:47.375799+05:30
Asansol,West Bengal,23.6739,86.9524,24.2,89,0.0,997.0,7.55,20.9,162,69.4,64.7,3,5,7,1,2026-03-09T02:57:47.375811+05:30
Pondicherry,Puducherry,11.9139,79.8145,23.4,96,0.0,1009.6,8.95,32.0,68,27.1,19.5,3,0,4,1,2026-03-09T02:57:47.375821+05:30
Port Blair,Andaman and Nicobar Islands,11.6234,92.7265,27.0,82,0.0,1007.6,8.9,27.0,85,40.7,31.8,7,5,4,1,2026-03-09T02:57:47.375831+05:30
Haridwar,Uttarakhand,29.9457,78.1642,20.0,90,0.0,976.2,5.8,28.8,159,101.7,85.2,3,5,3,1,2026-03-09T02:57:47.375839+05:30
Rishikesh,Uttarakhand,30.0869,78.2676,20.3,88,0.0,969.0,5.85,28.1,155,71.7,64.3,3,5,3,1,2026-03-09T02:57:47.375850+05:30
Nainital,Uttarakhand,29.3919,79.4542,17.3,79,0.0,807.1,6.7,54.4,159,85.9,72.2,3,5,7,0,2026-03-09T02:57:47.375860+05:30
Mussoorie,Uttarakhand,30.4599,78.0664,16.5,63,0.0,804.1,6.2,40.0,154,61.7,56.0,3,5,7,0,2026-03-09T02:57:47.375870+05:30
Dharamshala,Himachal Pradesh,32.219,76.3234,21.1,32,0.0,872.1,6.25,23.8,54,31.7,13.9,0,5,7,0,2026-03-09T02:57:47.375878+05:30
Dalhousie,Himachal Pradesh,32.5387,75.971,17.4,37,0.0,806.4,6.65,24.5,81,34.8,28.9,0,5,7,0,2026-03-09T02:57:47.375889+05:30
Patiala,Punjab,30.3398,76.3869,19.9,87,0.0,980.6,5.65,22.3,165,328.8,81.0,3,10,3,1,2026-03-09T02:57:47.375897+05:30
Bhatinda,Punjab,30.211,74.9455,21.6,79,0.0,986.5,5.95,19.4,151,89.9,61.9,3,5,3,1,2026-03-09T02:57:47.375906+05:30
Rohtak,Haryana,28.8955,76.6066,18.9,86,0.0,984.0,6.05,26.3,179,301.7,87.5,3,10,7,1,2026-03-09T02:57:47.375936+05:30
Panipat,Haryana,29.3909,76.9635,19.6,88,0.0,982.6,5.8,25.6,362,583.0,104.5,3,10,3,1,2026-03-09T02:57:47.375945+05:30
Mathura,Uttar Pradesh,27.4924,77.6737,19.6,72,0.0,989.2,6.25,24.5,160,273.8,73.8,3,5,7,0,2026-03-09T02:57:47.375954+05:30
Vrindavan,Uttar Pradesh,27.5823,77.7027,17.2,82,0.0,989.7,6.2,25.9,160,273.8,73.8,3,10,7,0,2026-03-09T02:57:47.375962+05:30
Ayodhya,Uttar Pradesh,26.7922,82.1998,21.2,89,0.0,998.1,6.7,18.4,182,118.3,106.4,3,5,7,1,2026-03-09T02:57:47.375970+05:30
Ratlam,Madhya Pradesh,23.3315,75.0367,19.0,85,0.0,956.0,7.5,14.8,84,33.2,31.7,3,10,7,1,2026-03-09T02:57:47.375978+05:30
Sagar,Madhya Pradesh,23.8388,78.7378,21.4,53,0.0,952.0,7.5,18.4,79,48.9,25.9,0,5,7,0,2026-03-09T02:57:47.375986+05:30
Satna,Madhya Pradesh,24.6005,80.8322,20.9,69,0.0,973.7,7.45,24.8,155,90.1,65.0,3,5,7,0,2026-03-09T02:57:47.375994+05:30
Akola,Maharashtra,20.7002,77.0082,23.8,48,0.0,976.2,7.95,17.6,74,37.1,29.2,0,5,7,0,2026-03-09T02:57:47.376003+05:30
Amravati,Maharashtra,20.9374,77.7796,22.1,50,0.0,968.2,7.9,23.4,70,34.8,24.9,0,5,7,0,2026-03-09T02:57:47.376017+05:30
Latur,Maharashtra,18.4088,76.5604,24.0,48,0.0,940.1,8.4,26.6,89,48.0,37.6,0,5,7,0,2026-03-09T02:57:47.376024+05:30
Nanded,Maharashtra,19.1383,77.3091,22.7,56,0.0,969.2,8.15,24.8,83,32.8,24.9,0,5,7,0,2026-03-09T02:57:47.376032+05:30
Gulbarga,Karnataka,17.3297,76.8343,24.5,47,0.0,959.3,8.5,31.3,79,33.6,27.5,0,5,7,0,2026-03-09T02:57:47.376039+05:30
Bidar,Karnataka,17.9104,77.5199,22.8,58,0.0,935.7,8.45,32.4,98,61.0,49.5,0,5,7,0,2026-03-09T02:57:47.376047+05:30
Hospet,Karnataka,15.2689,76.3909,26.7,52,0.0,955.7,8.8,37.4,94,44.0,34.2,4,5,7,0,2026-03-09T02:57:47.376054+05:30
Tirupur,Tamil Nadu,11.1085,77.3411,25.4,84,0.0,975.7,9.25,35.6,113,38.0,31.1,7,5,7,1,2026-03-09T02:57:47.376063+05:30
Alappuzha,Kerala,9.4981,76.3388,26.4,84,0.0,1009.0,8.95,25.6,113,39.3,36.8,7,0,4,1,2026-03-09T02:57:47.376071+05:30
Munnar,Kerala,10.0889,77.0595,17.7,89,0.0,855.3,9.55,21.6,105,47.4,40.6,3,10,7,0,2026-03-09T02:57:47.376080+05:30
Silchar,Assam,24.8333,92.7789,22.1,90,0.0,1009.2,7.65,23.0,162,101.7,93.6,3,0,4,1,2026-03-09T02:57:47.376086+05:30
Dibrugarh,Assam,27.4728,94.912,22.5,86,0.0,1000.2,7.4,21.6,154,66.8,60.5,3,5,4,1,2026-03-09T02:57:47.376093+05:30
