city,state,latitude,longitude,temp,humidity,rain,pressure,uv_index,wind_gusts,aqi,pm10,pm2_5,no2,co,o3,so2,mosquito_risk,arthritis_risk,migraine_risk,frizz_risk,updated_at
Delhi,Delhi,28.6139,77.209,36.9,35,0.0,975.4,7.75,28.4,171,270.1,75.9,17.6,373.0,117.0,12.1,0,5,10,1,2026-06-27T19:18:17.824575+05:30
Mumbai,Maharashtra,19.076,72.8777,29.4,78,0.0,1004.5,7.15,31.3,61,27.8,15.5,9.5,315.0,63.0,6.3,7,5,4,1,2026-06-27T19:18:17.824616+05:30
Bangalore,Karnataka,12.9716,77.5946,22.8,86,0.1,909.6,9.1,37.1,43,11.8,8.9,25.3,504.0,46.0,4.1,6,5,7,1,2026-06-27T19:18:17.824632+05:30
Hyderabad,Telangana,17.385,78.4867,27.4,77,0.0,949.6,7.65,35.6,84,31.1,22.6,16.0,630.0,95.0,5.3,7,5,7,1,2026-06-27T19:18:17.824642+05:30
Chennai,Tamil Nadu,13.0827,80.2707,30.5,72,0.0,1002.9,8.15,41.4,84,32.1,22.1,7.1,294.0,115.0,6.7,3,5,4,1,2026-06-27T19:18:17.824650+05:30
Kolkata,West Bengal,22.5726,88.3639,29.8,79,0.0,1001.3,8.9,26.6,76,22.2,19.2,8.4,402.0,78.0,6.4,7,5,4,1,2026-06-27T19:18:17.824658+05:30
Pune,Maharashtra,18.5204,73.8567,25.9,80,0.0,944.9,8.25,41.0,49,15.3,10.0,9.1,163.0,75.0,6.3,7,5,7,1,2026-06-27T19:18:17.824665+05:30
Ahmedabad,Gujarat,23.0225,72.5714,37.7,35,0.0,995.8,7.85,37.4,75,60.8,23.0,6.7,149.0,85.0,3.7,0,5,10,1,2026-06-27T19:18:17.824672+05:30
Jaipur,Rajasthan,26.9124,75.7873,34.7,44,0.0,953.9,8.2,27.7,131,87.5,35.2,12.5,241.0,83.0,5.0,0,5,7,1,2026-06-27T19:18:17.824679+05:30
Lucknow,Uttar Pradesh,26.8467,80.9462,37.3,41,0.0,986.0,8.3,27.7,161,111.3,45.8,7.2,228.0,141.0,7.1,0,5,10,1,2026-06-27T19:18:17.824689+05:30
Kanpur,Uttar Pradesh,26.4499,80.3319,37.0,41,0.0,984.6,8.3,33.1,136,167.2,49.5,7.0,212.0,134.0,6.3,0,5,10,1,2026-06-27T19:18:17.824696+05:30
Chandigarh,Chandigarh,30.7333,76.7794,34.1,46,0.0,961.2,7.8,28.8,170,85.4,57.4,11.8,534.0,162.0,11.8,0,5,7,1,2026-06-27T19:18:17.824703+05:30
Srinagar,Jammu and Kashmir,34.0837,74.7973,29.2,40,0.0,839.3,9.1,28.4,126,23.7,17.5,11.9,587.0,116.0,2.4,4,5,7,0,2026-06-27T19:18:17.824710+05:30
Jammu,Jammu and Kashmir,32.7266,74.857,35.5,45,0.0,964.9,8.65,27.4,155,70.1,42.0,17.1,409.0,146.0,4.9,0,5,10,1,2026-06-27T19:18:17.824716+05:30
Amritsar,Punjab,31.634,74.8723,33.8,62,0.0,972.4,8.45,16.6,182,80.6,56.5,14.9,458.0,163.0,8.9,3,5,7,1,2026-06-27T19:18:17.824722+05:30
Ludhiana,Punjab,30.901,75.8573,36.6,40,0.0,970.5,8.05,27.7,157,96.2,56.8,12.5,409.0,141.0,8.5,0,5,10,1,2026-06-27T19:18:17.824729+05:30
Jalandhar,Punjab,31.326,75.5762,35.3,47,0.0,971.6,8.25,25.2,163,97.1,60.5,11.7,441.0,145.0,7.3,0,5,10,1,2026-06-27T19:18:17.824735+05:30
Dehradun,Uttarakhand,30.6284,78.0322,20.2,93,0.0,826.9,8.1,34.6,111,49.2,30.6,8.2,238.0,128.0,3.2,3,5,7,1,2026-06-27T19:18:17.824747+05:30
Shimla,Himachal Pradesh,31.1048,77.1734,18.4,76,0.0,782.1,7.35,33.5,144,65.2,41.8,8.8,351.0,147.0,10.3,3,5,7,0,2026-06-27T19:18:17.824754+05:30
Manali,Himachal Pradesh,32.2396,77.1887,20.6,90,0.0,817.0,8.7,35.6,59,26.3,24.9,54.5,257.0,64.0,0.4,3,5,7,1,2026-06-27T19:18:17.824766+05:30
Gurgaon,Haryana,28.4595,77.0266,35.4,42,0.0,974.0,7.8,27.7,213,325.0,76.8,18.5,480.0,110.0,9.1,0,5,10,1,2026-06-27T19:18:17.824772+05:30
Noida,Uttar Pradesh,28.5355,77.391,33.8,62,0.0,976.6,7.8,23.4,213,325.0,76.8,18.5,781.0,110.0,9.1,3,5,7,1,2026-06-27T19:18:17.824778+05:30
Ghaziabad,Uttar Pradesh,28.6692,77.4538,34.4,57,0.0,975.0,7.75,20.2,201,201.6,76.8,12.9,355.0,171.0,19.8,0,5,7,1,2026-06-27T19:18:17.824784+05:30
Faridabad,Haryana,28.4089,77.3178,35.8,40,0.0,976.1,7.8,31.0,213,325.0,76.8,18.5,363.0,110.0,9.1,0,5,10,1,2026-06-27T19:18:17.824792+05:30
Meerut,Uttar Pradesh,28.9845,77.7064,36.3,41,0.0,973.8,7.7,27.7,201,201.6,76.8,12.9,288.0,171.0,19.8,0,5,10,1,2026-06-27T19:18:17.824799+05:30
Agra,Uttar Pradesh,27.1767,78.0081,37.5,36,0.0,980.3,8.1,31.7,136,132.7,45.2,12.8,193.0,112.0,5.1,0,5,10,1,2026-06-27T19:18:17.824805+05:30
Varanasi,Uttar Pradesh,25.3176,82.9739,36.2,51,0.0,990.6,8.8,31.0,162,47.1,43.5,15.6,490.0,134.0,10.3,0,5,10,1,2026-06-27T19:18:17.824811+05:30
Prayagraj,Uttar Pradesh,25.4358,81.8463,37.1,44,0.0,988.9,8.7,37.1,139,65.7,39.7,14.5,286.0,122.0,9.1,0,5,10,1,2026-06-27T19:18:17.824817+05:30
Gorakhpur,Uttar Pradesh,26.7606,83.3732,34.0,70,0.0,990.1,8.65,30.2,181,68.5,50.5,18.3,382.0,120.0,9.5,3,5,7,1,2026-06-27T19:18:17.824824+05:30
Bareilly,Uttar Pradesh,28.367,79.4304,36.3,39,0.0,979.1,8.1,25.9,183,95.0,47.8,6.9,315.0,161.0,9.1,0,5,10,1,2026-06-27T19:18:17.824852+05:30
Aligarh,Uttar Pradesh,27.8974,78.088,36.0,43,0.0,978.0,7.95,31.7,188,301.7,83.4,11.7,241.0,151.0,11.4,0,5,10,1,2026-06-27T19:18:17.824859+05:30
Moradabad,Uttar Pradesh,28.8386,78.7733,35.9,41,0.0,976.1,7.9,32.8,194,118.3,57.3,11.5,396.0,143.0,11.5,0,5,10,1,2026-06-27T19:18:17.824865+05:30
Saharanpur,Uttar Pradesh,29.9637,77.546,34.2,49,0.0,967.9,7.45,28.4,173,134.6,57.9,11.6,335.0,141.0,12.8,0,5,7,1,2026-06-27T19:18:17.824871+05:30
Jhansi,Uttar Pradesh,25.4484,78.5685,35.6,45,0.0,971.9,8.45,25.2,88,58.7,30.0,6.7,162.0,92.0,5.0,0,5,10,1,2026-06-27T19:18:21.175177+05:30
Surat,Gujarat,21.1702,72.8311,30.9,69,0.0,1001.8,7.6,39.2,86,43.5,24.2,19.2,201.0,38.0,39.4,3,5,4,1,2026-06-27T19:18:21.175209+05:30
Vadodara,Gujarat,22.3072,73.1812,37.1,35,0.0,998.2,7.85,37.8,80,66.6,28.5,6.1,144.0,95.0,4.7,0,5,10,1,2026-06-27T19:18:21.175221+05:30
Rajkot,Gujarat,22.3039,70.8022,33.4,51,0.0,988.8,7.55,43.2,67,67.5,24.3,2.6,108.0,94.0,4.5,0,5,7,1,2026-06-27T19:18:21.175230+05:30
Thane,Maharashtra,19.2183,72.9781,29.3,78,0.0,1004.0,7.4,28.8,61,27.8,15.5,9.5,192.0,63.0,6.3,7,5,4,1,2026-06-27T19:18:21.175238+05:30
Nagpur,Maharashtra,21.1458,79.0882,27.8,87,0.0,969.2,8.75,37.1,118,30.0,27.9,13.1,282.0,123.0,22.4,7,5,7,1,2026-06-27T19:18:21.175246+05:30
Nashik,Maharashtra,19.9975,73.7898,28.1,66,0.0,941.8,7.7,29.2,59,21.4,12.2,3.5,156.0,76.0,1.6,7,5,7,1,2026-06-27T19:18:21.175254+05:30
Aurangabad,Maharashtra,19.8762,75.3433,27.5,78,0.0,940.3,8.25,29.2,69,62.4,28.6,3.7,185.0,91.0,2.5,7,5,7,1,2026-06-27T19:18:21.175262+05:30
Solapur,Maharashtra,17.6599,75.9064,25.9,86,0.1,954.0,3.5,38.9,51,44.0,20.7,3.7,138.0,94.0,3.0,10,5,3,1,2026-06-27T19:18:21.175271+05:30
Kolhapur,Maharashtra,16.705,74.2433,24.2,89,0.0,945.1,7.4,35.6,32,8.6,7.0,7.9,136.0,48.0,2.1,3,5,7,1,2026-06-27T19:18:21.175279+05:30
Goa,Goa,15.2993,74.124,26.0,97,0.3,995.8,5.75,29.9,51,11.3,7.5,3.8,205.0,49.0,0.9,10,5,3,1,2026-06-27T19:18:21.175287+05:30
Jodhpur,Rajasthan,26.2389,73.0243,35.3,44,0.0,976.4,8.4,37.1,101,154.1,41.1,4.5,151.0,81.0,2.3,0,5,10,1,2026-06-27T19:18:21.175294+05:30
Udaipur,Rajasthan,24.5854,73.7125,28.7,72,0.0,942.2,8.55,34.9,66,37.8,19.4,4.4,202.0,70.0,1.6,7,5,7,1,2026-06-27T19:18:21.175302+05:30
Kota,Rajasthan,25.2138,75.8648,32.8,61,0.0,973.1,8.3,49.0,85,58.3,27.9,4.2,167.0,96.0,3.8,3,5,7,1,2026-06-27T19:18:21.175309+05:30
Bikaner,Rajasthan,28.0229,73.3119,38.7,30,0.0,974.1,8.45,33.1,95,75.9,29.3,1.7,163.0,83.0,2.7,0,5,10,1,2026-06-27T19:18:21.175316+05:30
Ajmer,Rajasthan,26.4499,74.6399,33.1,52,0.0,949.0,8.35,38.2,86,88.7,37.1,4.4,162.0,84.0,2.2,0,5,7,1,2026-06-27T19:18:21.175324+05:30
Gwalior,Madhya Pradesh,26.2183,78.1828,35.4,46,0.0,976.4,8.25,36.4,85,59.8,27.8,5.0,163.0,103.0,2.5,0,5,10,1,2026-06-27T19:18:21.175331+05:30
Indore,Madhya Pradesh,22.7196,75.8577,26.4,90,0.0,944.8,8.2,31.7,88,39.1,27.6,8.8,457.0,89.0,4.2,7,5,7,1,2026-06-27T19:18:21.175339+05:30
Bhopal,Madhya Pradesh,23.2599,77.4126,27.8,88,0.0,949.5,8.65,23.0,84,36.1,25.5,9.4,370.0,84.0,3.3,7,5,7,1,2026-06-27T19:18:21.175347+05:30
Jabalpur,Madhya Pradesh,23.1815,79.9864,27.6,89,0.0,957.1,8.85,39.6,95,20.3,18.5,4.0,250.0,122.0,2.7,7,5,7,1,2026-06-27T19:18:21.175354+05:30
Ujjain,Madhya Pradesh,23.1765,75.7885,24.7,96,0.3,949.8,8.5,32.8,85,34.7,24.6,5.4,297.0,83.0,2.9,6,5,7,1,2026-06-27T19:18:21.175362+05:30
Visakhapatnam,Andhra Pradesh,17.6868,83.2185,29.0,84,0.0,998.6,8.4,31.3,96,37.3,27.7,18.3,358.0,97.0,34.9,7,5,7,1,2026-06-27T19:18:21.175369+05:30
Vijayawada,Andhra Pradesh,16.5062,80.648,31.0,68,0.0,998.0,8.45,40.0,77,38.9,31.1,13.4,268.0,89.0,6.2,3,5,7,1,2026-06-27T19:18:21.175377+05:30
Guntur,Andhra Pradesh,16.3067,80.4365,31.1,65,0.0,999.1,7.7,34.9,77,38.5,28.6,14.2,258.0,91.0,6.1,3,5,7,1,2026-06-27T19:18:21.175384+05:30
Nellore,Andhra Pradesh,14.4426,79.9865,31.5,67,0.0,1001.4,8.6,48.2,66,26.7,19.4,3.4,174.0,122.0,3.9,3,5,4,1,2026-06-27T19:18:21.175392+05:30
Kurnool,Andhra Pradesh,15.8281,78.0373,30.9,61,0.0,972.7,7.7,49.0,59,51.3,25.8,5.2,182.0,107.0,7.8,3,5,7,1,2026-06-27T19:18:21.175401+05:30
Kakinada,Andhra Pradesh,16.9891,82.2475,27.5,95,0.1,1002.5,6.6,41.8,90,35.7,24.3,2.5,298.0,113.0,4.3,10,5,4,1,2026-06-27T19:18:21.175408+05:30
Tirupati,Andhra Pradesh,13.6288,79.4192,30.9,62,0.0,986.8,8.7,30.2,59,23.9,16.4,16.7,204.0,63.0,2.6,3,5,7,1,2026-06-27T19:18:21.175416+05:30
Warangal,Telangana,17.9689,79.5941,28.0,83,0.0,974.6,8.15,36.0,89,45.2,30.6,5.2,254.0,105.0,3.9,7,5,7,1,2026-06-27T19:18:21.175423+05:30
Nizamabad,Telangana,18.6725,78.0941,27.6,80,0.0,961.1,8.1,36.7,100,48.5,32.6,8.6,241.0,80.0,3.4,7,5,7,1,2026-06-27T19:18:21.175430+05:30
Mysore,Karnataka,12.2958,76.6396,23.2,93,0.1,926.4,8.7,42.1,35,9.7,7.4,10.4,169.0,59.0,1.8,6,5,7,1,2026-06-27T19:18:21.175438+05:30
Mangalore,Karnataka,12.9141,74.856,26.9,88,0.0,1005.3,8.7,37.1,44,10.4,6.0,4.6,141.0,45.0,1.4,7,5,4,1,2026-06-27T19:18:21.175445+05:30
Hubli-Dharwad,Karnataka,15.3647,75.124,24.8,81,0.0,938.3,7.85,43.2,29,6.9,4.8,6.0,161.0,50.0,1.0,3,5,7,1,2026-06-27T19:18:21.175452+05:30
Belgaum,Karnataka,15.8497,74.4977,22.6,92,0.0,923.1,8.45,42.8,27,4.0,3.2,5.7,122.0,49.0,1.6,3,5,7,1,2026-06-27T19:18:24.561720+05:30
Coimbatore,Tamil Nadu,11.0168,76.9558,25.9,82,0.0,959.3,8.8,46.8,36,6.5,5.0,6.7,169.0,57.0,2.1,7,5,7,1,2026-06-27T19:18:24.561753+05:30
Madurai,Tamil Nadu,9.9252,78.1198,29.3,71,0.1,990.6,8.7,47.9,69,33.6,17.1,8.4,295.0,98.0,3.0,10,5,7,1,2026-06-27T19:18:24.561764+05:30
Trichy,Tamil Nadu,10.7905,78.7047,32.7,50,0.0,996.1,7.9,38.9,49,29.5,16.2,5.1,167.0,91.0,2.6,0,5,7,1,2026-06-27T19:18:24.561772+05:30
Salem,Tamil Nadu,11.6643,78.146,26.3,87,0.2,975.1,8.45,31.7,57,23.7,14.8,12.0,185.0,83.0,5.1,10,5,7,1,2026-06-27T19:18:24.561781+05:30
Tirunelveli,Tamil Nadu,8.7139,77.7567,32.4,51,0.0,1000.6,8.65,37.1,38,12.3,8.6,4.4,134.0,75.0,1.7,0,5,4,1,2026-06-27T19:18:24.561788+05:30
Vellore,Tamil Nadu,12.9165,79.1325,32.2,47,0.0,980.1,8.95,41.8,60,32.5,20.3,15.1,198.0,72.0,3.6,0,5,7,1,2026-06-27T19:18:24.561796+05:30
Erode,Tamil Nadu,11.341,77.7172,27.5,83,0.2,986.4,8.05,34.9,53,15.2,9.9,7.5,172.0,86.0,2.4,10,5,7,1,2026-06-27T19:18:24.561803+05:30
Kochi,Kerala,9.9312,76.2673,27.1,90,0.1,1007.9,8.55,36.0,58,14.5,9.7,9.9,141.0,47.0,2.9,10,5,4,1,2026-06-27T19:18:24.561811+05:30
Thiruvananthapuram,Kerala,8.5241,76.9366,26.1,88,0.0,1007.6,8.35,39.6,42,13.3,7.2,2.4,131.0,57.0,0.9,7,5,4,1,2026-06-27T19:18:24.561818+05:30
Kozhikode,Kerala,11.2588,75.7804,25.8,97,0.1,1007.1,8.6,37.8,31,12.7,6.3,1.0,146.0,57.0,0.7,10,5,4,1,2026-06-27T19:18:24.561846+05:30
Thrissur,Kerala,10.5276,76.2144,26.2,92,0.0,1006.2,8.55,33.8,61,12.9,9.6,5.8,180.0,48.0,1.7,7,5,4,1,2026-06-27T19:18:24.561857+05:30
Kannur,Kerala,11.8745,75.3704,26.0,96,0.2,1006.2,8.65,36.0,44,10.2,6.1,5.6,140.0,44.0,1.0,10,5,4,1,2026-06-27T19:18:24.561865+05:30
Patna,Bihar,25.5941,85.1376,33.8,67,0.0,993.8,8.6,32.8,181,66.8,56.9,18.5,350.0,136.0,11.2,3,5,7,1,2026-06-27T19:18:24.561872+05:30
Gaya,Bihar,24.7914,85.0002,33.9,62,0.0,987.8,8.75,31.7,154,52.2,47.8,12.7,271.0,142.0,12.1,3,5,7,1,2026-06-27T19:18:24.561879+05:30
Muzaffarpur,Bihar,26.1209,85.3647,32.3,74,0.0,993.8,8.6,35.3,196,76.1,63.3,19.2,440.0,135.0,12.4,3,5,7,1,2026-06-27T19:18:24.561886+05:30
Bhagalpur,Bihar,25.2425,87.0117,34.0,59,0.0,995.0,7.7,26.6,174,59.8,51.8,9.4,286.0,155.0,15.7,0,5,7,1,2026-06-27T19:18:24.561893+05:30
Ranchi,Jharkhand,23.3441,85.3096,26.8,87,0.0,933.9,9.0,21.6,142,42.0,39.9,8.5,287.0,126.0,7.3,7,5,7,1,2026-06-27T19:18:24.561900+05:30
Jamshedpur,Jharkhand,22.8046,86.2029,29.8,81,0.0,986.0,9.05,30.2,179,51.7,48.5,9.9,766.0,148.0,17.8,7,5,7,1,2026-06-27T19:18:24.561907+05:30
Dhanbad,Jharkhand,23.7957,86.4304,31.1,70,0.0,975.1,8.9,22.7,202,77.1,74.3,30.0,1365.0,175.0,86.5,3,5,7,1,2026-06-27T19:18:24.561915+05:30
Bokaro,Jharkhand,23.6693,86.1511,31.2,72,0.0,978.9,9.1,23.8,190,63.8,61.0,25.4,830.0,154.0,70.5,3,5,7,1,2026-06-27T19:18:24.561922+05:30
Bhubaneswar,Odisha,20.2961,85.8245,29.2,88,0.0,997.7,9.0,36.4,91,26.0,22.9,7.0,238.0,115.0,7.5,7,5,7,1,2026-06-27T19:18:24.561929+05:30
Cuttack,Odisha,20.4625,85.8828,29.6,85,0.0,999.5,8.9,30.6,91,26.0,22.9,7.0,258.0,115.0,7.5,7,5,7,1,2026-06-27T19:18:24.561936+05:30
Rourkela,Odisha,22.2604,84.8536,30.8,75,0.0,980.0,8.95,34.6,154,34.5,31.5,6.3,476.0,145.0,9.4,3,5,7,1,2026-06-27T19:18:24.561943+05:30
Raipur,Chhattisgarh,21.2514,81.6296,29.4,86,0.0,969.9,8.9,40.7,148,39.3,37.7,14.4,234.0,137.0,34.0,7,5,7,1,2026-06-27T19:18:24.561949+05:30
Bhilai,Chhattisgarh,21.1938,81.3509,30.0,74,0.0,970.3,8.9,54.4,128,37.1,36.0,16.9,254.0,126.0,41.0,7,5,7,1,2026-06-27T19:18:24.561956+05:30
Guwahati,Assam,26.1158,91.7086,29.7,85,0.0,996.1,8.7,37.4,80,27.1,24.3,6.2,331.0,85.0,2.8,7,5,7,1,2026-06-27T19:18:24.561962+05:30
Agartala,Tripura,23.8315,91.2868,29.1,80,0.0,1002.3,8.05,29.5,60,16.8,15.1,8.3,172.0,61.0,1.7,7,5,4,1,2026-06-27T19:18:24.561969+05:30
Shillong,Meghalaya,25.5788,91.8933,20.8,92,0.0,855.3,6.65,25.6,54,17.6,15.5,7.4,228.0,77.0,1.8,3,5,7,1,2026-06-27T19:18:24.561976+05:30
Imphal,Manipur,24.817,93.9368,25.4,81,0.0,920.1,8.05,30.6,60,15.5,13.7,9.1,281.0,57.0,2.3,7,5,7,1,2026-06-27T19:18:24.561983+05:30
Aizawl,Mizoram,23.7271,92.7176,22.2,87,0.0,890.4,9.05,24.1,43,10.3,9.2,4.8,144.0,51.0,0.9,3,5,7,1,2026-06-27T19:18:24.561990+05:30
Kohima,Nagaland,25.6701,94.1077,21.3,95,0.1,853.3,8.5,24.8,51,12.8,11.4,7.8,253.0,60.0,1.3,6,5,7,1,2026-06-27T19:18:24.561997+05:30
Gangtok,Sikkim,27.3314,88.6138,19.6,95,0.4,835.2,8.95,39.2,110,7.5,7.0,6.5,380.0,127.0,2.9,6,10,7,1,2026-06-27T19:18:24.562005+05:30
Siliguri,West Bengal,26.7271,88.3953,27.8,88,0.0,987.5,8.65,25.9,120,36.3,32.5,11.1,623.0,125.0,6.5,7,5,7,1,2026-06-27T19:18:28.131434+05:30
Durgapur,West Bengal,23.5204,87.3119,31.0,75,0.0,989.9,9.0,25.9,149,60.1,56.0,25.4,339.0,111.0,43.5,3,5,7,1,2026-06-27T19:18:28.131466+05:30
Asansol,West Bengal,23.6739,86.9524,31.2,75,0.0,988.5,9.05,32.0,166,67.1,64.0,24.8,432.0,140.0,45.9,3,5,7,1,2026-06-27T19:18:28.131477+05:30
Pondicherry,Puducherry,11.9139,79.8145,29.5,83,0.0,1004.1,8.35,45.0,75,32.9,23.6,9.2,258.0,107.0,3.9,7,5,4,1,2026-06-27T19:18:28.131486+05:30
Port Blair,Andaman and Nicobar Islands,11.6234,92.7265,24.8,97,0.0,1007.7,8.65,40.0,19,4.4,2.7,0.5,103.0,40.0,0.2,3,5,4,1,2026-06-27T19:18:28.131494+05:30
Haridwar,Uttarakhand,29.9457,78.1642,33.4,52,0.0,966.1,7.6,27.7,153,92.7,51.1,5.5,377.0,168.0,12.7,0,5,7,1,2026-06-27T19:18:28.131503+05:30
Rishikesh,Uttarakhand,30.0869,78.2676,32.2,59,0.0,959.1,7.7,27.4,132,82.9,44.1,4.9,316.0,159.0,9.3,0,5,7,1,2026-06-27T19:18:28.131511+05:30
Nainital,Uttarakhand,29.3919,79.4542,19.6,78,0.0,803.2,6.85,28.8,154,88.2,37.0,3.6,289.0,157.0,8.1,3,5,7,0,2026-06-27T19:18:28.131518+05:30
Mussoorie,Uttarakhand,30.4599,78.0664,18.3,99,0.0,800.0,8.15,40.7,139,80.1,46.4,7.6,286.0,160.0,10.1,3,10,7,1,2026-06-27T19:18:28.131526+05:30
Dharamshala,Himachal Pradesh,32.219,76.3234,23.9,83,0.0,865.2,8.5,33.1,104,30.6,18.8,4.8,342.0,123.0,1.5,3,5,7,1,2026-06-27T19:18:28.131533+05:30
Dalhousie,Himachal Pradesh,32.5387,75.971,20.0,82,0.0,802.2,8.2,33.1,145,69.6,38.5,7.3,418.0,156.0,4.2,3,5,7,1,2026-06-27T19:18:28.131541+05:30
Patiala,Punjab,30.3398,76.3869,35.6,43,0.0,970.3,7.7,27.0,162,278.5,80.1,11.7,296.0,133.0,8.0,0,5,10,1,2026-06-27T19:18:28.131548+05:30
Bhatinda,Punjab,30.211,74.9455,36.0,46,0.0,975.5,8.3,25.9,154,79.2,54.0,17.7,334.0,126.0,10.8,0,5,10,1,2026-06-27T19:18:28.131555+05:30
Rohtak,Haryana,28.8955,76.6066,34.4,51,0.0,974.1,7.75,24.8,175,252.4,65.4,19.8,359.0,93.0,5.2,0,5,7,1,2026-06-27T19:18:28.131562+05:30
Panipat,Haryana,29.3909,76.9635,34.4,54,0.0,972.6,7.65,23.0,429,610.9,107.3,14.3,289.0,107.0,10.0,0,5,7,1,2026-06-27T19:18:28.131569+05:30
Mathura,Uttar Pradesh,27.4924,77.6737,36.1,43,0.0,979.3,8.05,34.6,151,235.2,63.3,23.0,250.0,99.0,4.2,0,5,10,1,2026-06-27T19:18:28.131576+05:30
Vrindavan,Uttar Pradesh,27.5823,77.7027,34.9,49,0.0,979.5,8.0,34.6,151,235.2,63.3,23.0,262.0,99.0,4.2,0,5,7,1,2026-06-27T19:18:28.131583+05:30
Ayodhya,Uttar Pradesh,26.7922,82.1998,34.4,62,0.0,988.0,8.4,29.2,137,86.8,54.9,15.4,321.0,129.0,8.8,3,5,7,1,2026-06-27T19:18:28.131590+05:30
Ratlam,Madhya Pradesh,23.3315,75.0367,26.5,91,0.1,951.1,8.2,31.3,80,34.8,23.6,4.0,192.0,80.0,2.3,10,5,7,1,2026-06-27T19:18:28.131598+05:30
Sagar,Madhya Pradesh,23.8388,78.7378,28.8,79,0.0,945.8,8.65,27.4,66,31.4,22.6,5.2,184.0,95.0,2.5,7,5,7,1,2026-06-27T19:18:28.131606+05:30
Satna,Madhya Pradesh,24.6005,80.8322,33.3,60,0.0,966.0,8.8,31.3,85,55.3,26.8,5.8,222.0,106.0,2.7,0,5,7,1,2026-06-27T19:18:28.131613+05:30
Akola,Maharashtra,20.7002,77.0082,27.4,92,0.1,971.3,8.0,38.9,85,34.9,22.6,6.2,208.0,92.0,5.6,10,5,7,1,2026-06-27T19:18:28.131621+05:30
Amravati,Maharashtra,20.9374,77.7796,28.8,76,0.0,963.7,8.55,34.2,81,31.9,22.1,7.3,224.0,94.0,6.4,7,5,7,1,2026-06-27T19:18:28.131630+05:30
Latur,Maharashtra,18.4088,76.5604,28.0,71,0.0,936.3,7.7,31.7,84,56.2,29.3,9.1,165.0,89.0,5.0,7,5,7,1,2026-06-27T19:18:28.131638+05:30
Nanded,Maharashtra,19.1383,77.3091,28.1,76,0.0,965.0,6.35,36.4,98,58.9,32.4,8.3,275.0,85.0,4.0,7,5,7,1,2026-06-27T19:18:28.131645+05:30
Gulbarga,Karnataka,17.3297,76.8343,27.0,72,0.0,955.1,5.7,31.7,53,31.2,19.0,9.2,191.0,86.0,3.6,7,5,3,1,2026-06-27T19:18:28.131653+05:30
Bidar,Karnataka,17.9104,77.5199,27.2,73,0.0,932.1,2.45,36.0,88,45.5,28.6,12.1,208.0,87.0,4.4,7,5,3,1,2026-06-27T19:18:28.131660+05:30
Hospet,Karnataka,15.2689,76.3909,24.5,92,0.1,952.8,7.85,47.9,34,7.3,5.2,6.5,170.0,60.0,1.5,6,5,7,1,2026-06-27T19:18:28.131667+05:30
Tirupur,Tamil Nadu,11.1085,77.3411,27.3,77,0.1,972.6,8.6,50.0,55,14.6,9.7,8.0,155.0,80.0,3.0,10,5,7,1,2026-06-27T19:18:28.131674+05:30
Alappuzha,Kerala,9.4981,76.3388,27.2,92,0.0,1008.0,8.5,37.4,52,15.9,9.3,7.4,91.0,54.0,2.1,7,0,4,1,2026-06-27T19:18:28.131681+05:30
Munnar,Kerala,10.0889,77.0595,17.5,100,0.0,855.7,9.05,34.2,29,5.7,4.2,5.6,110.0,52.0,1.1,3,10,7,1,2026-06-27T19:18:28.131689+05:30
Silchar,Assam,24.8333,92.7789,28.0,95,0.1,1000.9,8.75,24.5,81,22.3,19.8,6.6,281.0,71.0,3.3,10,5,4,1,2026-06-27T19:18:28.131696+05:30
Dibrugarh,Assam,27.4728,94.912,25.7,97,0.3,990.8,8.4,34.6,74,28.5,25.8,7.5,294.0,91.0,2.0,10,5,7,1,2026-06-27T19:18:28.131703+05:30
