city,state,latitude,longitude,temp,humidity,rain,pressure,uv_index,wind_gusts,aqi,pm10,pm2_5,mosquito_risk,arthritis_risk,migraine_risk,frizz_risk,updated_at
Delhi,Delhi,28.6139,77.209,24.6,56,0.0,980.3,7.25,29.2,217,282.2,58.6,0,5,7,0,2026-04-20T04:09:45.845142+05:30
Mumbai,Maharashtra,19.076,72.8777,28.8,73,0.0,1006.8,7.3,19.8,78,43.8,21.7,7,5,4,1,2026-04-20T04:09:45.845177+05:30
Bangalore,Karnataka,12.9716,77.5946,23.4,79,0.0,910.2,9.55,24.1,75,23.2,20.0,3,5,7,1,2026-04-20T04:09:45.845191+05:30
Hyderabad,Telangana,17.385,78.4867,25.9,67,0.0,951.8,9.3,47.2,106,49.1,41.2,7,5,7,1,2026-04-20T04:09:45.845201+05:30
Chennai,Tamil Nadu,13.0827,80.2707,27.4,90,0.0,1005.4,9.3,33.8,33,11.6,7.8,7,5,4,1,2026-04-20T04:09:45.845210+05:30
Kolkata,West Bengal,22.5726,88.3639,27.7,91,0.0,1002.3,8.9,34.2,81,29.5,22.5,7,5,4,1,2026-04-20T04:09:45.845222+05:30
Pune,Maharashtra,18.5204,73.8567,22.9,79,0.0,946.6,7.3,39.2,98,49.7,42.0,3,5,7,1,2026-04-20T04:09:45.845230+05:30
Ahmedabad,Gujarat,23.0225,72.5714,24.8,59,0.0,1000.9,8.15,24.5,52,12.2,8.5,0,5,4,1,2026-04-20T04:09:45.845237+05:30
Jaipur,Rajasthan,26.9124,75.7873,27.2,28,0.0,957.6,7.9,24.5,110,149.9,26.2,4,5,7,0,2026-04-20T04:09:45.845246+05:30
Lucknow,Uttar Pradesh,26.8467,80.9462,27.2,54,0.0,989.3,7.9,31.7,127,197.0,50.9,4,5,7,1,2026-04-20T04:09:45.845253+05:30
Kanpur,Uttar Pradesh,26.4499,80.3319,25.6,61,0.0,987.5,7.9,23.8,197,328.8,63.1,7,5,7,1,2026-04-20T04:09:45.845260+05:30
Chandigarh,Chandigarh,30.7333,76.7794,21.6,57,0.0,966.4,7.25,34.2,66,27.5,21.8,0,5,7,0,2026-04-20T04:09:45.845267+05:30
Srinagar,Jammu and Kashmir,34.0837,74.7973,7.8,91,0.0,841.5,8.3,24.8,82,84.5,52.4,3,10,7,0,2026-04-20T04:09:45.845274+05:30
Jammu,Jammu and Kashmir,32.7266,74.857,21.5,54,0.0,971.9,7.95,26.6,56,19.8,16.1,0,5,7,0,2026-04-20T04:09:45.845281+05:30
Amritsar,Punjab,31.634,74.8723,21.9,69,0.0,979.8,7.9,32.8,74,56.1,33.8,3,5,7,0,2026-04-20T04:09:45.845288+05:30
Ludhiana,Punjab,30.901,75.8573,23.0,52,0.0,977.1,7.5,32.0,69,25.3,20.1,0,5,7,0,2026-04-20T04:09:45.845296+05:30
Jalandhar,Punjab,31.326,75.5762,22.2,47,0.0,978.3,7.65,31.3,70,43.8,30.3,0,5,7,0,2026-04-20T04:09:45.845302+05:30
Dehradun,Uttarakhand,30.6284,78.0322,16.0,40,0.0,829.1,7.7,43.2,41,19.2,9.8,0,5,7,0,2026-04-20T04:09:45.845308+05:30
Shimla,Himachal Pradesh,31.1048,77.1734,14.1,52,0.0,783.4,7.75,45.7,54,27.1,14.3,0,5,7,0,2026-04-20T04:09:45.845314+05:30
Manali,Himachal Pradesh,32.2396,77.1887,14.2,48,0.0,820.9,9.25,29.5,58,10.6,5.4,0,5,7,0,2026-04-20T04:09:45.845320+05:30
Gurgaon,Haryana,28.4595,77.0266,21.9,66,0.0,979.0,7.4,29.2,784,625.8,103.8,3,5,7,0,2026-04-20T04:09:45.845327+05:30
Noida,Uttar Pradesh,28.5355,77.391,24.6,56,0.0,981.7,7.3,29.5,784,625.8,103.8,0,5,7,0,2026-04-20T04:09:45.845333+05:30
Ghaziabad,Uttar Pradesh,28.6692,77.4538,24.0,58,0.0,979.7,7.3,28.8,157,76.1,21.9,0,5,7,0,2026-04-20T04:09:45.845339+05:30
Faridabad,Haryana,28.4089,77.3178,24.1,55,0.0,981.2,7.35,29.5,784,625.8,103.8,0,5,7,0,2026-04-20T04:09:45.845345+05:30
Meerut,Uttar Pradesh,28.9845,77.7064,22.9,63,0.0,978.3,7.2,33.1,157,76.1,21.9,3,5,7,0,2026-04-20T04:09:45.845352+05:30
Agra,Uttar Pradesh,27.1767,78.0081,23.7,56,0.0,984.6,7.7,22.0,433,931.3,129.0,0,5,7,0,2026-04-20T04:09:45.845360+05:30
Varanasi,Uttar Pradesh,25.3176,82.9739,25.6,54,0.0,993.3,8.45,33.5,109,120.6,45.1,4,5,7,0,2026-04-20T04:09:45.845369+05:30
Prayagraj,Uttar Pradesh,25.4358,81.8463,28.5,50,0.0,991.7,8.1,24.8,102,118.3,32.6,4,5,7,1,2026-04-20T04:09:45.845376+05:30
Gorakhpur,Uttar Pradesh,26.7606,83.3732,26.6,82,0.0,993.5,8.35,33.1,134,71.7,65.0,7,5,7,1,2026-04-20T04:09:45.845383+05:30
Bareilly,Uttar Pradesh,28.367,79.4304,23.6,62,0.0,983.0,7.6,34.2,91,58.2,28.4,3,5,7,0,2026-04-20T04:09:45.845389+05:30
Aligarh,Uttar Pradesh,27.8974,78.088,23.7,55,0.0,982.3,7.45,34.6,406,443.3,64.3,0,5,7,0,2026-04-20T04:09:45.845395+05:30
Moradabad,Uttar Pradesh,28.8386,78.7733,23.0,64,0.0,980.1,7.4,34.9,109,33.9,21.9,3,5,7,0,2026-04-20T04:09:45.845401+05:30
Saharanpur,Uttar Pradesh,29.9637,77.546,21.9,69,0.0,972.9,6.95,27.0,82,30.0,19.6,3,5,7,0,2026-04-20T04:09:45.845407+05:30
Jhansi,Uttar Pradesh,25.4484,78.5685,27.9,46,0.0,974.4,8.05,24.8,53,24.7,11.3,4,5,7,0,2026-04-20T04:09:49.096133+05:30
Surat,Gujarat,21.1702,72.8311,27.3,85,0.0,1005.1,7.85,26.3,103,38.6,28.5,7,5,4,1,2026-04-20T04:09:49.096163+05:30
Vadodara,Gujarat,22.3072,73.1812,26.8,78,0.0,1002.9,8.1,23.0,71,48.1,38.4,7,5,4,1,2026-04-20T04:09:49.096174+05:30
Rajkot,Gujarat,22.3039,70.8022,23.4,90,0.0,993.7,7.85,27.4,50,24.5,10.3,3,5,7,1,2026-04-20T04:09:49.096184+05:30
Thane,Maharashtra,19.2183,72.9781,26.9,78,0.0,1006.3,8.05,31.0,78,43.8,21.7,7,5,4,1,2026-04-20T04:09:49.096192+05:30
Nagpur,Maharashtra,21.1458,79.0882,28.7,50,0.0,971.6,8.8,29.9,86,32.8,30.3,4,5,7,1,2026-04-20T04:09:49.096199+05:30
Nashik,Maharashtra,19.9975,73.7898,25.5,39,0.0,944.2,8.25,32.0,84,50.6,35.7,4,5,7,0,2026-04-20T04:09:49.096207+05:30
Aurangabad,Maharashtra,19.8762,75.3433,27.8,40,0.0,943.4,9.05,20.2,78,36.0,27.8,4,5,7,0,2026-04-20T04:09:49.096215+05:30
Solapur,Maharashtra,17.6599,75.9064,26.7,74,0.0,955.8,9.1,39.2,141,49.4,45.2,7,5,7,1,2026-04-20T04:09:49.096223+05:30
Kolhapur,Maharashtra,16.705,74.2433,22.3,97,0.0,946.0,9.05,35.6,103,57.7,48.9,3,5,7,1,2026-04-20T04:09:49.096230+05:30
Goa,Goa,15.2993,74.124,27.9,84,0.0,996.1,9.0,27.7,84,48.8,31.1,7,5,7,1,2026-04-20T04:09:49.096238+05:30
Jodhpur,Rajasthan,26.2389,73.0243,27.0,36,0.0,981.4,8.15,23.0,101,131.8,20.1,4,5,7,0,2026-04-20T04:09:49.096246+05:30
Udaipur,Rajasthan,24.5854,73.7125,24.6,34,0.0,945.5,8.7,28.4,45,8.7,5.0,0,5,7,0,2026-04-20T04:09:49.096253+05:30
Kota,Rajasthan,25.2138,75.8648,25.7,41,0.0,976.3,8.25,23.4,56,6.3,5.4,4,5,7,0,2026-04-20T04:09:49.096260+05:30
Bikaner,Rajasthan,28.0229,73.3119,28.7,42,0.0,980.3,7.95,28.8,65,20.8,12.6,4,5,7,0,2026-04-20T04:09:49.096267+05:30
Ajmer,Rajasthan,26.4499,74.6399,24.9,43,0.0,952.9,8.15,27.7,65,23.8,7.5,0,5,7,0,2026-04-20T04:09:49.096274+05:30
Gwalior,Madhya Pradesh,26.2183,78.1828,26.8,49,0.0,980.0,8.0,34.9,70,139.7,27.6,4,5,7,0,2026-04-20T04:09:49.096281+05:30
Indore,Madhya Pradesh,22.7196,75.8577,25.9,53,0.0,946.7,8.25,33.5,54,16.2,13.8,4,5,7,0,2026-04-20T04:09:49.096289+05:30
Bhopal,Madhya Pradesh,23.2599,77.4126,27.2,44,0.0,951.8,5.75,29.2,62,16.8,15.3,4,5,3,0,2026-04-20T04:09:49.096296+05:30
Jabalpur,Madhya Pradesh,23.1815,79.9864,29.1,43,0.0,958.6,8.55,35.6,58,24.3,19.9,4,5,7,0,2026-04-20T04:09:49.096303+05:30
Ujjain,Madhya Pradesh,23.1765,75.7885,26.6,56,0.0,952.3,7.55,31.7,69,17.8,14.6,4,5,7,1,2026-04-20T04:09:49.096310+05:30
Visakhapatnam,Andhra Pradesh,17.6868,83.2185,26.7,90,0.0,1001.8,9.2,42.1,58,14.3,11.7,7,5,4,1,2026-04-20T04:09:49.096318+05:30
Vijayawada,Andhra Pradesh,16.5062,80.648,26.8,90,0.0,1000.9,9.2,28.4,52,14.5,11.8,7,5,4,1,2026-04-20T04:09:49.096325+05:30
Guntur,Andhra Pradesh,16.3067,80.4365,27.2,89,0.0,1001.8,9.25,32.4,54,14.6,12.2,7,5,4,1,2026-04-20T04:09:49.096332+05:30
Nellore,Andhra Pradesh,14.4426,79.9865,27.2,86,0.0,1003.5,9.3,37.4,46,10.0,8.2,7,5,4,1,2026-04-20T04:09:49.096340+05:30
Kurnool,Andhra Pradesh,15.8281,78.0373,28.4,67,0.0,975.6,9.25,43.2,88,36.8,31.0,7,5,7,1,2026-04-20T04:09:49.096348+05:30
Kakinada,Andhra Pradesh,16.9891,82.2475,26.5,91,0.0,1006.1,9.2,36.0,41,13.0,9.1,7,5,4,1,2026-04-20T04:09:49.096356+05:30
Tirupati,Andhra Pradesh,13.6288,79.4192,25.9,89,0.0,990.1,9.35,33.8,60,21.6,20.4,7,5,7,1,2026-04-20T04:09:49.096363+05:30
Warangal,Telangana,17.9689,79.5941,27.8,66,0.0,977.4,9.15,25.9,88,21.2,19.9,7,5,7,1,2026-04-20T04:09:49.096370+05:30
Nizamabad,Telangana,18.6725,78.0941,28.7,58,0.0,963.6,9.15,33.8,123,49.9,46.3,4,5,7,1,2026-04-20T04:09:49.096378+05:30
Mysore,Karnataka,12.2958,76.6396,23.5,90,0.0,927.3,9.45,40.3,84,29.0,26.7,3,5,7,1,2026-04-20T04:09:49.096385+05:30
Mangalore,Karnataka,12.9141,74.856,29.6,78,0.0,1005.2,9.1,31.7,75,43.2,29.3,7,5,4,1,2026-04-20T04:09:49.096392+05:30
Hubli-Dharwad,Karnataka,15.3647,75.124,24.0,92,0.0,939.8,9.25,37.4,86,41.7,33.5,3,5,7,1,2026-04-20T04:09:49.096399+05:30
Belgaum,Karnataka,15.8497,74.4977,22.5,96,0.0,924.0,9.25,34.6,93,36.3,30.0,3,5,7,1,2026-04-20T04:09:52.343842+05:30
Coimbatore,Tamil Nadu,11.0168,76.9558,24.9,87,0.0,960.1,9.4,45.4,98,40.5,38.0,3,5,7,1,2026-04-20T04:09:52.343869+05:30
Madurai,Tamil Nadu,9.9252,78.1198,26.1,89,0.0,991.3,9.3,39.6,64,28.7,26.8,7,5,7,1,2026-04-20T04:09:52.343879+05:30
Trichy,Tamil Nadu,10.7905,78.7047,26.3,91,0.0,998.2,9.3,22.0,58,24.1,22.4,7,5,7,1,2026-04-20T04:09:52.343887+05:30
Salem,Tamil Nadu,11.6643,78.146,26.7,83,0.0,975.8,9.4,20.9,59,18.3,17.0,7,5,7,1,2026-04-20T04:09:52.343894+05:30
Tirunelveli,Tamil Nadu,8.7139,77.7567,25.5,76,0.0,1001.4,9.25,49.3,67,27.8,24.0,7,5,4,1,2026-04-20T04:09:52.343901+05:30
Vellore,Tamil Nadu,12.9165,79.1325,25.2,94,0.0,982.9,9.4,31.3,76,34.0,32.8,7,5,7,1,2026-04-20T04:09:52.343908+05:30
Erode,Tamil Nadu,11.341,77.7172,28.1,79,0.0,987.3,9.35,25.6,59,14.4,13.4,7,5,7,1,2026-04-20T04:09:52.343914+05:30
Kochi,Kerala,9.9312,76.2673,28.4,82,0.0,1006.9,9.05,29.5,61,20.0,17.3,7,5,4,1,2026-04-20T04:09:52.343921+05:30
Thiruvananthapuram,Kerala,8.5241,76.9366,28.3,84,0.0,1006.0,9.1,29.9,67,26.2,18.6,7,5,4,1,2026-04-20T04:09:52.343927+05:30
Kozhikode,Kerala,11.2588,75.7804,28.5,81,0.0,1006.3,9.1,29.2,60,27.5,17.5,7,5,4,1,2026-04-20T04:09:52.343933+05:30
Thrissur,Kerala,10.5276,76.2144,27.4,88,0.0,1005.4,9.15,36.4,61,26.0,21.8,7,5,4,1,2026-04-20T04:09:52.343939+05:30
Kannur,Kerala,11.8745,75.3704,28.5,81,0.0,1005.6,9.1,32.4,70,34.2,25.8,7,5,4,1,2026-04-20T04:09:52.343946+05:30
Patna,Bihar,25.5941,85.1376,27.1,86,0.0,996.2,8.5,41.0,130,56.8,53.9,7,5,7,1,2026-04-20T04:09:52.343952+05:30
Gaya,Bihar,24.7914,85.0002,27.8,66,0.0,989.3,8.6,31.3,99,48.4,38.1,7,5,7,1,2026-04-20T04:09:52.343958+05:30
Muzaffarpur,Bihar,26.1209,85.3647,25.6,89,0.0,996.7,8.65,25.6,136,51.5,48.9,7,5,7,1,2026-04-20T04:09:52.343964+05:30
Bhagalpur,Bihar,25.2425,87.0117,26.6,91,0.0,997.2,8.65,19.1,133,65.4,61.5,7,5,7,1,2026-04-20T04:09:52.343970+05:30
Ranchi,Jharkhand,23.3441,85.3096,26.2,70,0.0,935.1,9.2,33.1,87,67.1,26.4,7,5,7,1,2026-04-20T04:09:52.343976+05:30
Jamshedpur,Jharkhand,22.8046,86.2029,28.4,78,0.0,987.4,9.0,33.8,147,70.5,61.2,7,5,7,1,2026-04-20T04:09:52.343981+05:30
Dhanbad,Jharkhand,23.7957,86.4304,28.7,87,0.0,976.0,9.0,25.9,157,111.3,100.6,7,5,7,1,2026-04-20T04:09:52.343987+05:30
Bokaro,Jharkhand,23.6693,86.1511,28.0,69,0.0,980.0,9.0,32.8,138,108.5,76.4,7,5,7,1,2026-04-20T04:09:52.343993+05:30
Bhubaneswar,Odisha,20.2961,85.8245,26.5,94,0.0,999.7,9.1,31.7,70,21.0,17.2,7,5,7,1,2026-04-20T04:09:52.343999+05:30
Cuttack,Odisha,20.4625,85.8828,26.9,92,0.0,1001.4,9.15,27.7,70,21.0,17.2,7,5,4,1,2026-04-20T04:09:52.344005+05:30
Rourkela,Odisha,22.2604,84.8536,28.5,84,0.0,981.9,8.95,32.8,152,77.3,63.6,7,5,7,1,2026-04-20T04:09:52.344011+05:30
Raipur,Chhattisgarh,21.2514,81.6296,29.3,57,0.0,972.8,8.1,36.7,116,42.6,39.8,4,5,7,1,2026-04-20T04:09:52.344017+05:30
Bhilai,Chhattisgarh,21.1938,81.3509,28.6,61,0.0,973.2,8.5,33.8,110,41.4,39.1,7,5,7,1,2026-04-20T04:09:52.344022+05:30
Guwahati,Assam,26.1158,91.7086,24.9,91,0.0,998.6,8.5,36.0,128,39.5,30.2,3,5,7,1,2026-04-20T04:09:52.344028+05:30
Agartala,Tripura,23.8315,91.2868,24.4,93,0.0,1004.6,8.8,31.3,112,29.0,23.7,3,5,4,1,2026-04-20T04:09:52.344034+05:30
Shillong,Meghalaya,25.5788,91.8933,16.1,92,0.0,854.2,6.35,69.8,82,29.4,22.3,3,10,7,0,2026-04-20T04:09:52.344040+05:30
Imphal,Manipur,24.817,93.9368,18.7,89,0.0,921.5,8.95,79.6,132,58.6,46.6,3,10,7,1,2026-04-20T04:09:52.344047+05:30
Aizawl,Mizoram,23.7271,92.7176,20.1,89,0.0,891.5,9.0,63.0,142,63.6,50.9,3,5,7,1,2026-04-20T04:09:52.344053+05:30
Kohima,Nagaland,25.6701,94.1077,16.4,84,0.0,852.7,8.4,95.8,103,39.5,28.9,3,10,7,0,2026-04-20T04:09:52.344058+05:30
Gangtok,Sikkim,27.3314,88.6138,16.3,86,0.0,834.9,8.9,18.0,66,23.7,20.4,3,10,7,0,2026-04-20T04:09:52.344064+05:30
Siliguri,West Bengal,26.7271,88.3953,22.2,78,0.0,991.3,8.55,29.9,100,40.4,32.9,3,5,7,1,2026-04-20T04:09:55.597533+05:30
Durgapur,West Bengal,23.5204,87.3119,27.5,93,0.0,991.3,8.9,29.5,136,44.5,41.0,7,5,7,1,2026-04-20T04:09:55.597558+05:30
Asansol,West Bengal,23.6739,86.9524,28.2,90,0.0,989.9,8.95,37.1,140,51.7,47.6,7,5,7,1,2026-04-20T04:09:55.597568+05:30
Pondicherry,Puducherry,11.9139,79.8145,26.6,94,0.0,1006.9,9.25,31.3,33,10.3,7.0,7,5,4,1,2026-04-20T04:09:55.597575+05:30
Port Blair,Andaman and Nicobar Islands,11.6234,92.7265,29.0,79,0.0,1006.4,9.05,18.4,57,21.5,18.0,7,5,4,1,2026-04-20T04:09:55.597582+05:30
Haridwar,Uttarakhand,29.9457,78.1642,22.3,63,0.0,971.6,7.1,33.1,61,25.1,16.5,3,5,7,0,2026-04-20T04:09:55.597589+05:30
Rishikesh,Uttarakhand,30.0869,78.2676,21.7,57,0.0,964.6,7.2,35.6,54,27.6,17.1,0,5,7,0,2026-04-20T04:09:55.597595+05:30
Nainital,Uttarakhand,29.3919,79.4542,22.7,29,0.0,806.1,8.05,53.3,62,21.2,14.4,0,5,7,0,2026-04-20T04:09:55.597601+05:30
Mussoorie,Uttarakhand,30.4599,78.0664,18.7,39,0.0,802.3,7.55,43.2,57,22.8,14.6,0,5,7,0,2026-04-20T04:09:55.597607+05:30
Dharamshala,Himachal Pradesh,32.219,76.3234,22.0,25,0.0,869.0,7.8,33.1,34,11.2,6.2,0,5,7,0,2026-04-20T04:09:55.597613+05:30
Dalhousie,Himachal Pradesh,32.5387,75.971,18.1,25,0.0,803.7,8.05,28.4,55,13.9,11.1,0,5,7,1,2026-04-20T04:09:55.597620+05:30
Patiala,Punjab,30.3398,76.3869,22.2,65,0.0,975.9,7.15,30.2,362,354.8,49.4,3,5,7,0,2026-04-20T04:09:55.597626+05:30
Bhatinda,Punjab,30.211,74.9455,24.3,53,0.0,982.3,7.8,31.3,69,48.8,22.1,0,5,7,0,2026-04-20T04:09:55.597632+05:30
Rohtak,Haryana,28.8955,76.6066,21.7,66,0.0,979.4,7.3,29.9,479,892.2,143.9,3,5,7,0,2026-04-20T04:09:55.597638+05:30
Panipat,Haryana,29.3909,76.9635,22.7,63,0.0,977.9,7.15,26.6,898,1248.0,162.1,3,5,7,0,2026-04-20T04:09:55.597644+05:30
Mathura,Uttar Pradesh,27.4924,77.6737,24.3,54,0.0,983.8,7.6,24.1,492,771.1,124.3,0,5,7,0,2026-04-20T04:09:55.597649+05:30
Vrindavan,Uttar Pradesh,27.5823,77.7027,23.1,59,0.0,984.3,7.6,29.9,492,771.1,124.3,0,5,7,0,2026-04-20T04:09:55.597655+05:30
Ayodhya,Uttar Pradesh,26.7922,82.1998,24.8,77,0.0,991.3,8.1,33.1,107,116.9,38.6,3,5,7,1,2026-04-20T04:09:55.597661+05:30
Ratlam,Madhya Pradesh,23.3315,75.0367,26.5,53,0.0,953.2,8.45,27.4,78,18.7,14.6,4,5,7,1,2026-04-20T04:09:55.597666+05:30
Sagar,Madhya Pradesh,23.8388,78.7378,27.5,39,0.0,947.8,8.25,29.9,53,22.7,17.1,4,5,7,0,2026-04-20T04:09:55.597672+05:30
Satna,Madhya Pradesh,24.6005,80.8322,28.4,47,0.0,968.2,8.4,38.2,69,70.5,20.4,4,5,7,0,2026-04-20T04:09:55.597678+05:30
Akola,Maharashtra,20.7002,77.0082,29.1,44,0.0,973.7,8.85,29.5,73,25.1,21.9,4,5,7,0,2026-04-20T04:09:55.597684+05:30
Amravati,Maharashtra,20.9374,77.7796,26.6,66,0.0,965.9,8.85,21.6,73,30.9,27.5,7,5,7,1,2026-04-20T04:09:55.597691+05:30
Latur,Maharashtra,18.4088,76.5604,25.5,64,0.0,939.1,9.1,29.5,124,45.9,42.6,7,5,7,1,2026-04-20T04:09:55.597696+05:30
Nanded,Maharashtra,19.1383,77.3091,27.2,64,0.0,967.4,9.0,23.4,100,53.8,50.5,7,5,7,1,2026-04-20T04:09:55.597702+05:30
Gulbarga,Karnataka,17.3297,76.8343,26.5,66,0.0,957.7,9.15,25.2,118,61.5,55.2,7,5,7,1,2026-04-20T04:09:55.597707+05:30
Bidar,Karnataka,17.9104,77.5199,26.8,63,0.0,934.7,9.15,29.5,123,48.5,44.1,7,5,7,1,2026-04-20T04:09:55.597713+05:30
Hospet,Karnataka,15.2689,76.3909,26.2,85,0.0,954.6,9.3,37.8,99,57.5,52.0,7,5,7,1,2026-04-20T04:09:55.597719+05:30
Tirupur,Tamil Nadu,11.1085,77.3411,26.3,86,0.0,973.6,9.45,30.6,72,20.8,19.0,7,5,7,1,2026-04-20T04:09:55.597725+05:30
Alappuzha,Kerala,9.4981,76.3388,27.7,86,0.0,1007.1,8.05,27.0,68,32.0,25.8,7,5,4,1,2026-04-20T04:09:55.597731+05:30
Munnar,Kerala,10.0889,77.0595,20.8,91,0.0,855.1,9.65,33.8,75,29.0,27.1,3,5,7,1,2026-04-20T04:09:55.597737+05:30
Silchar,Assam,24.8333,92.7789,24.0,91,0.0,1003.9,8.8,39.6,146,57.0,42.6,3,5,4,1,2026-04-20T04:09:55.597743+05:30
Dibrugarh,Assam,27.4728,94.912,23.5,90,0.0,993.7,6.7,16.6,143,55.2,44.1,3,5,7,1,2026-04-20T04:09:55.597749+05:30
