city,state,latitude,longitude,temp,humidity,rain,pressure,uv_index,wind_gusts,aqi,pm10,pm2_5,mosquito_risk,arthritis_risk,migraine_risk,frizz_risk,updated_at
Delhi,Delhi,28.6139,77.209,26.2,49,0.0,983.5,6.15,38.2,158,324.1,50.2,4,5,7,0,2026-03-15T16:59:47.988814+05:30
Mumbai,Maharashtra,19.076,72.8777,27.8,78,0.0,1009.1,7.7,19.8,130,79.9,36.1,7,0,4,1,2026-03-15T16:59:47.988863+05:30
Bangalore,Karnataka,12.9716,77.5946,31.6,27,0.0,912.1,9.3,19.1,127,27.4,23.1,0,5,7,0,2026-03-15T16:59:47.988878+05:30
Hyderabad,Telangana,17.385,78.4867,33.6,28,0.0,953.1,8.75,29.2,113,45.5,32.1,0,5,7,0,2026-03-15T16:59:47.988888+05:30
Chennai,Tamil Nadu,13.0827,80.2707,30.5,62,0.0,1008.3,9.05,32.0,48,10.1,7.3,3,0,4,1,2026-03-15T16:59:47.988896+05:30
Kolkata,West Bengal,22.5726,88.3639,28.0,70,0.0,1007.9,7.85,36.4,60,25.4,18.5,7,5,4,1,2026-03-15T16:59:47.988905+05:30
Pune,Maharashtra,18.5204,73.8567,33.4,23,0.0,949.1,8.25,41.8,92,35.7,27.5,0,5,7,0,2026-03-15T16:59:47.988914+05:30
Ahmedabad,Gujarat,23.0225,72.5714,36.9,13,0.0,1001.2,7.5,27.7,69,61.0,16.4,0,5,7,0,2026-03-15T16:59:47.988921+05:30
Jaipur,Rajasthan,26.9124,75.7873,33.0,14,0.0,958.7,6.95,46.4,117,283.1,38.4,0,5,7,0,2026-03-15T16:59:47.988927+05:30
Lucknow,Uttar Pradesh,26.8467,80.9462,24.9,51,0.0,996.3,6.35,49.0,139,44.5,20.1,0,5,7,0,2026-03-15T16:59:47.988933+05:30
Kanpur,Uttar Pradesh,26.4499,80.3319,27.2,40,0.0,993.1,6.6,41.8,150,160.2,31.5,4,5,7,0,2026-03-15T16:59:47.988940+05:30
Chandigarh,Chandigarh,30.7333,76.7794,21.5,74,0.0,969.0,6.0,38.2,80,64.0,23.8,3,5,3,1,2026-03-15T16:59:47.988945+05:30
Srinagar,Jammu and Kashmir,34.0837,74.7973,8.1,85,0.0,836.9,5.65,27.7,98,14.8,9.5,3,10,3,0,2026-03-15T16:59:47.988952+05:30
Jammu,Jammu and Kashmir,32.7266,74.857,20.8,73,0.0,972.0,4.6,49.0,92,33.1,21.7,3,5,3,0,2026-03-15T16:59:47.988957+05:30
Amritsar,Punjab,31.634,74.8723,18.0,86,0.0,981.5,4.95,34.2,116,48.5,24.3,3,10,3,0,2026-03-15T16:59:47.988963+05:30
Ludhiana,Punjab,30.901,75.8573,22.4,60,0.0,978.8,5.45,33.1,124,61.7,24.1,0,5,3,0,2026-03-15T16:59:47.988969+05:30
Jalandhar,Punjab,31.326,75.5762,19.5,78,0.0,980.5,5.45,31.0,117,51.9,22.0,3,5,3,0,2026-03-15T16:59:47.988976+05:30
Dehradun,Uttarakhand,30.6284,78.0322,12.1,79,0.0,828.5,5.75,34.2,56,36.6,15.6,3,5,3,0,2026-03-15T16:59:47.988981+05:30
Shimla,Himachal Pradesh,31.1048,77.1734,10.4,71,0.2,781.3,6.15,56.2,63,44.4,17.8,6,5,7,0,2026-03-15T16:59:47.988987+05:30
Manali,Himachal Pradesh,32.2396,77.1887,10.0,98,0.6,814.0,7.45,37.8,48,11.9,5.3,6,10,7,0,2026-03-15T16:59:47.988993+05:30
Gurgaon,Haryana,28.4595,77.0266,26.3,49,0.0,981.9,6.25,45.4,531,2354.4,226.8,4,5,7,0,2026-03-15T16:59:47.988999+05:30
Noida,Uttar Pradesh,28.5355,77.391,26.8,47,0.0,985.1,6.15,36.7,531,2354.4,226.8,4,5,7,0,2026-03-15T16:59:47.989004+05:30
Ghaziabad,Uttar Pradesh,28.6692,77.4538,25.8,52,0.0,983.3,6.15,34.9,157,220.7,37.8,4,5,7,0,2026-03-15T16:59:47.989010+05:30
Faridabad,Haryana,28.4089,77.3178,27.0,47,0.0,983.9,6.2,39.6,531,2354.4,226.8,4,5,7,0,2026-03-15T16:59:47.989015+05:30
Meerut,Uttar Pradesh,28.9845,77.7064,22.6,66,0.0,982.9,6.0,27.7,157,220.7,37.8,3,5,3,0,2026-03-15T16:59:47.989020+05:30
Agra,Uttar Pradesh,27.1767,78.0081,29.8,40,0.0,987.0,6.6,36.7,528,536.4,64.5,4,5,7,0,2026-03-15T16:59:47.989025+05:30
Varanasi,Uttar Pradesh,25.3176,82.9739,33.0,32,0.0,997.1,7.35,32.4,148,67.5,37.0,0,5,7,0,2026-03-15T16:59:47.989032+05:30
Prayagraj,Uttar Pradesh,25.4358,81.8463,31.7,41,0.0,994.9,7.25,42.8,125,58.0,32.5,0,5,7,1,2026-03-15T16:59:47.989040+05:30
Gorakhpur,Uttar Pradesh,26.7606,83.3732,27.2,37,0.0,998.6,7.1,40.3,154,44.5,24.9,4,5,7,0,2026-03-15T16:59:47.989045+05:30
Bareilly,Uttar Pradesh,28.367,79.4304,24.0,65,0.0,988.0,6.35,34.6,147,68.7,33.3,3,5,7,1,2026-03-15T16:59:47.989050+05:30
Aligarh,Uttar Pradesh,27.8974,78.088,26.9,53,0.0,985.6,6.3,40.7,183,225.4,44.1,4,5,7,1,2026-03-15T16:59:47.989056+05:30
Moradabad,Uttar Pradesh,28.8386,78.7733,26.1,48,0.0,984.0,6.2,29.5,155,65.4,28.2,4,5,7,0,2026-03-15T16:59:47.989073+05:30
Saharanpur,Uttar Pradesh,29.9637,77.546,20.4,86,0.2,976.9,5.8,33.5,152,66.6,24.0,6,5,3,1,2026-03-15T16:59:47.989079+05:30
Jhansi,Uttar Pradesh,25.4484,78.5685,32.6,29,0.0,976.8,7.2,31.7,87,94.5,25.4,0,5,7,0,2026-03-15T16:59:51.280939+05:30
Surat,Gujarat,21.1702,72.8311,30.0,53,0.0,1007.2,7.4,25.2,135,88.9,49.7,4,5,4,1,2026-03-15T16:59:51.280968+05:30
Vadodara,Gujarat,22.3072,73.1812,36.2,21,0.0,1003.8,7.5,25.9,88,61.2,21.4,0,5,7,0,2026-03-15T16:59:51.280978+05:30
Rajkot,Gujarat,22.3039,70.8022,36.4,15,0.0,993.9,7.35,31.0,69,74.7,18.1,0,5,10,0,2026-03-15T16:59:51.280986+05:30
Thane,Maharashtra,19.2183,72.9781,30.1,58,0.0,1008.6,7.7,33.8,130,79.9,36.1,0,0,4,1,2026-03-15T16:59:51.280994+05:30
Nagpur,Maharashtra,21.1458,79.0882,35.9,19,0.0,972.1,8.15,22.3,139,27.4,23.6,0,5,10,0,2026-03-15T16:59:51.281002+05:30
Nashik,Maharashtra,19.9975,73.7898,31.2,28,0.0,946.3,7.9,40.7,71,33.6,16.2,0,5,7,0,2026-03-15T16:59:51.281009+05:30
Aurangabad,Maharashtra,19.8762,75.3433,34.2,19,0.0,943.9,8.4,31.0,90,34.2,26.4,0,5,7,0,2026-03-15T16:59:51.281016+05:30
Solapur,Maharashtra,17.6599,75.9064,34.7,22,0.0,956.6,8.65,24.1,127,41.4,34.2,0,5,7,0,2026-03-15T16:59:51.281023+05:30
Kolhapur,Maharashtra,16.705,74.2433,31.6,30,0.0,948.2,8.05,38.9,140,43.9,37.3,0,5,7,0,2026-03-15T16:59:51.281030+05:30
Goa,Goa,15.2993,74.124,30.6,64,0.0,998.4,8.75,32.0,122,41.7,35.5,3,5,7,1,2026-03-15T16:59:51.281037+05:30
Jodhpur,Rajasthan,26.2389,73.0243,35.8,16,0.0,981.2,7.25,27.4,117,103.1,20.5,0,5,10,0,2026-03-15T16:59:51.281044+05:30
Udaipur,Rajasthan,24.5854,73.7125,32.6,14,0.0,946.4,7.85,38.2,63,51.0,14.5,0,5,7,0,2026-03-15T16:59:51.281051+05:30
Kota,Rajasthan,25.2138,75.8648,35.8,14,0.0,977.3,7.3,35.3,64,35.7,12.9,0,5,10,0,2026-03-15T16:59:51.281058+05:30
Bikaner,Rajasthan,28.0229,73.3119,33.7,14,0.0,980.1,6.9,41.4,64,32.4,9.5,0,5,7,0,2026-03-15T16:59:51.281102+05:30
Ajmer,Rajasthan,26.4499,74.6399,33.1,15,0.0,953.5,7.25,37.4,74,55.8,17.9,0,5,7,0,2026-03-15T16:59:51.281111+05:30
Gwalior,Madhya Pradesh,26.2183,78.1828,29.3,50,0.0,982.3,6.9,45.4,105,89.2,25.6,4,5,7,1,2026-03-15T16:59:51.281119+05:30
Indore,Madhya Pradesh,22.7196,75.8577,33.3,21,0.0,947.9,7.8,35.6,61,41.0,16.1,0,5,7,0,2026-03-15T16:59:51.281126+05:30
Bhopal,Madhya Pradesh,23.2599,77.4126,33.9,21,0.0,953.3,7.7,42.8,67,28.6,13.0,0,5,7,0,2026-03-15T16:59:51.281133+05:30
Jabalpur,Madhya Pradesh,23.1815,79.9864,34.1,17,0.0,960.6,7.8,38.2,98,25.6,18.1,0,5,7,0,2026-03-15T16:59:51.281140+05:30
Ujjain,Madhya Pradesh,23.1765,75.7885,33.1,24,0.0,953.8,7.7,34.6,64,47.4,17.8,0,5,7,0,2026-03-15T16:59:51.281148+05:30
Visakhapatnam,Andhra Pradesh,17.6868,83.2185,29.0,65,0.0,1004.7,8.65,40.0,64,21.8,16.4,7,5,4,1,2026-03-15T16:59:51.281155+05:30
Vijayawada,Andhra Pradesh,16.5062,80.648,32.2,49,0.0,1003.3,8.75,29.2,58,16.1,12.0,0,5,4,1,2026-03-15T16:59:51.281162+05:30
Guntur,Andhra Pradesh,16.3067,80.4365,31.7,50,0.0,1004.6,8.75,30.2,56,19.0,13.8,0,5,4,1,2026-03-15T16:59:51.281169+05:30
Nellore,Andhra Pradesh,14.4426,79.9865,31.4,55,0.0,1006.6,8.95,29.9,54,17.6,13.2,0,5,4,1,2026-03-15T16:59:51.281177+05:30
Kurnool,Andhra Pradesh,15.8281,78.0373,36.3,27,0.0,976.0,8.75,20.2,114,39.6,28.7,0,5,10,0,2026-03-15T16:59:51.281185+05:30
Kakinada,Andhra Pradesh,16.9891,82.2475,31.0,53,0.0,1008.1,8.7,31.7,59,17.5,11.8,0,0,4,1,2026-03-15T16:59:51.281191+05:30
Tirupati,Andhra Pradesh,13.6288,79.4192,32.8,36,0.0,992.0,9.05,29.5,68,16.2,14.2,0,5,7,0,2026-03-15T16:59:51.281198+05:30
Warangal,Telangana,17.9689,79.5941,33.3,35,0.0,978.6,8.55,31.7,78,41.2,28.9,0,5,7,0,2026-03-15T16:59:51.281205+05:30
Nizamabad,Telangana,18.6725,78.0941,33.8,32,0.0,964.5,8.4,33.1,123,53.8,43.0,0,5,7,0,2026-03-15T16:59:51.281211+05:30
Mysore,Karnataka,12.2958,76.6396,32.2,28,0.0,928.6,9.3,33.5,129,25.8,20.8,0,5,7,0,2026-03-15T16:59:51.281218+05:30
Mangalore,Karnataka,12.9141,74.856,28.9,82,0.0,1007.2,8.95,27.7,89,25.1,20.8,7,5,4,1,2026-03-15T16:59:51.281224+05:30
Hubli-Dharwad,Karnataka,15.3647,75.124,27.6,65,0.0,941.8,8.95,43.2,130,47.5,38.1,7,5,7,1,2026-03-15T16:59:51.281232+05:30
Belgaum,Karnataka,15.8497,74.4977,28.0,57,0.0,926.6,9.0,40.0,133,42.4,37.1,4,5,7,1,2026-03-15T16:59:54.571612+05:30
Coimbatore,Tamil Nadu,11.0168,76.9558,34.0,28,0.0,961.3,9.3,32.8,96,16.5,12.3,0,5,7,0,2026-03-15T16:59:54.571638+05:30
Madurai,Tamil Nadu,9.9252,78.1198,35.6,30,0.0,992.0,9.25,23.4,56,8.6,7.1,0,5,10,0,2026-03-15T16:59:54.571647+05:30
Trichy,Tamil Nadu,10.7905,78.7047,34.3,37,0.0,999.4,9.15,20.2,54,8.6,7.5,0,5,7,1,2026-03-15T16:59:54.571653+05:30
Salem,Tamil Nadu,11.6643,78.146,34.3,32,0.0,976.9,9.2,14.8,69,18.3,15.8,0,5,7,0,2026-03-15T16:59:54.571660+05:30
Tirunelveli,Tamil Nadu,8.7139,77.7567,36.1,31,0.0,1002.0,9.25,40.0,56,8.2,7.2,0,5,7,1,2026-03-15T16:59:54.571666+05:30
Vellore,Tamil Nadu,12.9165,79.1325,32.8,34,0.0,984.9,9.1,31.0,93,18.6,17.2,0,5,7,0,2026-03-15T16:59:54.571672+05:30
Erode,Tamil Nadu,11.341,77.7172,35.3,32,0.0,988.4,9.2,20.5,49,11.8,9.5,0,5,10,1,2026-03-15T16:59:54.571678+05:30
Kochi,Kerala,9.9312,76.2673,29.0,74,0.0,1008.2,9.1,34.2,92,20.9,18.7,7,0,4,1,2026-03-15T16:59:54.571684+05:30
Thiruvananthapuram,Kerala,8.5241,76.9366,28.8,73,0.0,1007.7,9.1,27.0,80,11.1,8.1,7,5,4,1,2026-03-15T16:59:54.571689+05:30
Kozhikode,Kerala,11.2588,75.7804,29.7,73,0.0,1007.9,9.0,32.8,76,18.7,15.7,7,5,4,1,2026-03-15T16:59:54.571695+05:30
Thrissur,Kerala,10.5276,76.2144,31.0,65,0.0,1006.5,9.05,40.0,86,21.1,17.9,3,5,4,1,2026-03-15T16:59:54.571701+05:30
Kannur,Kerala,11.8745,75.3704,29.8,71,0.0,1007.6,9.0,33.5,81,28.9,24.2,7,5,4,1,2026-03-15T16:59:54.571707+05:30
Patna,Bihar,25.5941,85.1376,31.5,36,0.0,1000.5,7.55,27.4,163,69.2,39.2,0,5,4,0,2026-03-15T16:59:54.571712+05:30
Gaya,Bihar,24.7914,85.0002,31.0,45,0.0,993.2,7.65,28.8,140,71.2,36.0,0,5,7,1,2026-03-15T16:59:54.571718+05:30
Muzaffarpur,Bihar,26.1209,85.3647,30.6,41,0.0,1000.6,7.5,38.5,161,71.2,44.2,0,5,4,0,2026-03-15T16:59:54.571723+05:30
Bhagalpur,Bihar,25.2425,87.0117,30.4,55,0.0,1001.1,7.55,32.4,159,80.6,48.1,0,5,4,1,2026-03-15T16:59:54.571728+05:30
Ranchi,Jharkhand,23.3441,85.3096,25.8,62,0.0,938.6,8.3,45.7,172,38.8,35.7,7,5,7,1,2026-03-15T16:59:54.571734+05:30
Jamshedpur,Jharkhand,22.8046,86.2029,28.0,68,0.0,992.4,8.2,37.4,153,53.8,46.4,7,5,7,1,2026-03-15T16:59:54.571739+05:30
Dhanbad,Jharkhand,23.7957,86.4304,28.5,60,0.0,980.7,8.05,31.7,167,55.2,49.5,4,5,7,1,2026-03-15T16:59:54.571745+05:30
Bokaro,Jharkhand,23.6693,86.1511,30.8,43,0.0,984.4,8.0,25.9,161,49.7,43.9,0,5,7,1,2026-03-15T16:59:54.571750+05:30
Bhubaneswar,Odisha,20.2961,85.8245,28.3,69,0.0,1003.9,8.5,42.5,56,22.5,16.5,7,5,4,1,2026-03-15T16:59:54.571756+05:30
Cuttack,Odisha,20.4625,85.8828,29.8,59,0.0,1005.7,8.55,37.4,56,22.5,16.5,4,5,4,1,2026-03-15T16:59:54.571761+05:30
Rourkela,Odisha,22.2604,84.8536,28.8,57,0.0,986.4,8.1,55.4,171,53.9,48.2,4,5,7,1,2026-03-15T16:59:54.571767+05:30
Raipur,Chhattisgarh,21.2514,81.6296,33.4,31,0.0,974.1,8.2,35.6,151,48.0,40.7,0,5,7,0,2026-03-15T16:59:54.571772+05:30
Bhilai,Chhattisgarh,21.1938,81.3509,33.1,31,0.0,974.3,8.2,36.7,140,47.8,40.3,0,5,7,0,2026-03-15T16:59:54.571777+05:30
Guwahati,Assam,26.1158,91.7086,24.5,79,0.0,1002.2,7.4,39.6,78,21.4,15.7,3,5,4,1,2026-03-15T16:59:54.571783+05:30
Agartala,Tripura,23.8315,91.2868,24.3,86,0.0,1008.3,7.75,35.3,57,22.0,19.2,3,0,4,1,2026-03-15T16:59:54.571788+05:30
Shillong,Meghalaya,25.5788,91.8933,14.1,83,0.0,855.8,7.85,79.9,62,19.3,13.8,3,10,7,0,2026-03-15T16:59:54.571794+05:30
Imphal,Manipur,24.817,93.9368,17.2,85,0.0,925.0,8.15,70.2,90,33.8,25.3,3,10,7,0,2026-03-15T16:59:54.571800+05:30
Aizawl,Mizoram,23.7271,92.7176,17.6,84,0.1,894.8,8.1,55.8,89,31.5,24.4,6,10,7,0,2026-03-15T16:59:54.571805+05:30
Kohima,Nagaland,25.6701,94.1077,16.4,64,0.0,855.4,7.8,111.2,72,28.6,21.0,3,5,7,0,2026-03-15T16:59:54.571810+05:30
Gangtok,Sikkim,27.3314,88.6138,15.0,80,0.0,837.2,7.05,20.9,106,57.0,34.8,3,5,7,0,2026-03-15T16:59:54.571816+05:30
Siliguri,West Bengal,26.7271,88.3953,21.8,78,0.0,994.3,7.4,32.0,124,59.1,39.8,3,5,7,1,2026-03-15T16:59:57.871142+05:30
Durgapur,West Bengal,23.5204,87.3119,26.3,75,0.0,996.8,8.05,36.4,127,68.7,61.0,7,5,7,1,2026-03-15T16:59:57.871173+05:30
Asansol,West Bengal,23.6739,86.9524,26.8,69,0.0,994.9,8.05,33.5,162,59.5,52.0,7,5,7,1,2026-03-15T16:59:57.871182+05:30
Pondicherry,Puducherry,11.9139,79.8145,31.6,48,0.0,1009.1,9.0,28.1,39,7.0,4.8,0,0,4,1,2026-03-15T16:59:57.871190+05:30
Port Blair,Andaman and Nicobar Islands,11.6234,92.7265,27.9,79,0.0,1008.9,8.95,21.6,72,13.5,10.9,7,0,4,1,2026-03-15T16:59:57.871198+05:30
Haridwar,Uttarakhand,29.9457,78.1642,20.5,84,0.1,976.1,5.3,33.1,90,51.1,19.6,6,5,3,1,2026-03-15T16:59:57.871205+05:30
Rishikesh,Uttarakhand,30.0869,78.2676,22.1,67,0.0,968.1,5.2,36.7,67,46.7,16.9,3,5,3,0,2026-03-15T16:59:57.871213+05:30
Nainital,Uttarakhand,29.3919,79.4542,18.0,57,0.0,806.1,4.8,58.7,82,61.2,19.3,0,5,3,0,2026-03-15T16:59:57.871220+05:30
Mussoorie,Uttarakhand,30.4599,78.0664,13.2,75,0.0,801.2,6.0,46.8,77,47.6,20.0,3,5,3,0,2026-03-15T16:59:57.871227+05:30
Dharamshala,Himachal Pradesh,32.219,76.3234,17.4,57,0.0,866.5,4.5,40.7,50,7.9,3.6,0,5,3,0,2026-03-15T16:59:57.871234+05:30
Dalhousie,Himachal Pradesh,32.5387,75.971,13.6,58,0.0,800.2,3.65,32.8,72,41.2,19.2,0,5,3,0,2026-03-15T16:59:57.871242+05:30
Patiala,Punjab,30.3398,76.3869,22.0,75,0.0,978.4,5.9,33.1,127,65.2,27.9,3,5,3,1,2026-03-15T16:59:57.871249+05:30
Bhatinda,Punjab,30.211,74.9455,19.7,81,0.0,983.4,6.45,46.8,98,38.5,21.2,3,10,7,1,2026-03-15T16:59:57.871256+05:30
Rohtak,Haryana,28.8955,76.6066,25.5,57,0.0,981.6,6.1,39.2,160,704.1,83.8,4,5,7,1,2026-03-15T16:59:57.871262+05:30
Panipat,Haryana,29.3909,76.9635,24.4,61,0.0,980.8,5.85,27.4,176,391.2,51.2,3,5,3,1,2026-03-15T16:59:57.871269+05:30
Mathura,Uttar Pradesh,27.4924,77.6737,30.9,33,0.0,985.8,6.5,37.1,338,534.6,67.1,0,5,7,0,2026-03-15T16:59:57.871276+05:30
Vrindavan,Uttar Pradesh,27.5823,77.7027,29.8,39,0.0,986.5,6.45,38.2,338,534.6,67.1,4,5,7,0,2026-03-15T16:59:57.871282+05:30
Ayodhya,Uttar Pradesh,26.7922,82.1998,26.8,38,0.0,996.7,6.9,47.2,126,38.3,19.4,4,5,7,0,2026-03-15T16:59:57.871289+05:30
Ratlam,Madhya Pradesh,23.3315,75.0367,33.4,21,0.0,954.9,7.65,38.5,63,47.3,17.1,0,5,7,0,2026-03-15T16:59:57.871296+05:30
Sagar,Madhya Pradesh,23.8388,78.7378,33.4,21,0.0,949.6,7.65,36.7,64,32.4,13.8,0,5,7,0,2026-03-15T16:59:57.871303+05:30
Satna,Madhya Pradesh,24.6005,80.8322,33.0,24,0.0,970.0,7.6,51.1,103,24.7,13.5,0,5,7,0,2026-03-15T16:59:57.871310+05:30
Akola,Maharashtra,20.7002,77.0082,37.1,17,0.0,974.0,8.15,29.2,93,34.3,27.0,0,5,10,0,2026-03-15T16:59:57.871318+05:30
Amravati,Maharashtra,20.9374,77.7796,36.4,19,0.0,966.4,8.1,27.7,99,34.3,27.7,0,5,10,0,2026-03-15T16:59:57.871326+05:30
Latur,Maharashtra,18.4088,76.5604,33.9,19,0.0,939.6,8.55,25.6,132,38.8,32.1,0,5,7,0,2026-03-15T16:59:57.871332+05:30
Nanded,Maharashtra,19.1383,77.3091,36.5,18,0.0,967.9,8.35,19.1,133,45.6,36.9,0,5,10,0,2026-03-15T16:59:57.871340+05:30
Gulbarga,Karnataka,17.3297,76.8343,34.9,28,0.0,958.0,8.65,31.0,138,49.1,39.3,0,5,7,0,2026-03-15T16:59:57.871346+05:30
Bidar,Karnataka,17.9104,77.5199,33.5,30,0.0,935.4,6.6,34.9,130,49.4,38.5,0,5,7,0,2026-03-15T16:59:57.871353+05:30
Hospet,Karnataka,15.2689,76.3909,34.2,31,0.0,955.5,8.9,31.3,129,46.2,36.4,0,5,7,0,2026-03-15T16:59:57.871359+05:30
Tirupur,Tamil Nadu,11.1085,77.3411,35.4,26,0.0,974.6,9.3,28.4,60,13.1,10.2,0,5,10,0,2026-03-15T16:59:57.871366+05:30
Alappuzha,Kerala,9.4981,76.3388,28.8,76,0.0,1008.3,9.1,30.2,109,17.0,15.5,7,0,4,1,2026-03-15T16:59:57.871372+05:30
Munnar,Kerala,10.0889,77.0595,26.0,64,0.0,858.3,9.55,34.9,58,12.3,9.5,7,5,7,1,2026-03-15T16:59:57.871379+05:30
Silchar,Assam,24.8333,92.7789,22.7,84,0.0,1008.4,7.65,42.5,109,19.2,17.1,3,0,4,1,2026-03-15T16:59:57.871386+05:30
Dibrugarh,Assam,27.4728,94.912,19.4,87,0.0,998.1,4.5,40.0,70,33.8,26.8,3,10,3,1,2026-03-15T16:59:57.871392+05:30
