city,state,latitude,longitude,temp,humidity,rain,pressure,uv_index,wind_gusts,aqi,pm10,pm2_5,mosquito_risk,arthritis_risk,migraine_risk,frizz_risk,updated_at
Delhi,Delhi,28.6139,77.209,29.8,34,0.0,986.9,5.8,39.2,272,421.0,79.6,4,5,3,0,2026-03-03T13:17:41.274307+05:30
Mumbai,Maharashtra,19.076,72.8777,27.1,78,0.0,1010.3,7.35,28.8,94,53.3,47.1,7,0,4,1,2026-03-03T13:17:41.274354+05:30
Bangalore,Karnataka,12.9716,77.5946,31.8,22,0.0,914.1,9.1,38.2,113,27.5,26.6,0,5,7,0,2026-03-03T13:17:41.274370+05:30
Hyderabad,Telangana,17.385,78.4867,33.7,30,0.0,955.9,8.35,23.8,143,27.1,26.3,0,5,7,0,2026-03-03T13:17:41.274380+05:30
Chennai,Tamil Nadu,13.0827,80.2707,32.7,38,0.0,1010.0,8.8,29.5,118,40.6,35.9,0,0,4,1,2026-03-03T13:17:41.274397+05:30
Kolkata,West Bengal,22.5726,88.3639,31.6,30,0.0,1008.7,7.7,20.5,179,85.9,45.3,0,0,4,0,2026-03-03T13:17:41.274408+05:30
Pune,Maharashtra,18.5204,73.8567,35.8,23,0.0,951.0,7.9,33.1,84,19.6,19.3,0,5,10,0,2026-03-03T13:17:41.274424+05:30
Ahmedabad,Gujarat,23.0225,72.5714,36.0,25,0.0,1006.1,7.15,15.5,101,28.8,17.9,0,5,7,0,2026-03-03T13:17:41.274434+05:30
Jaipur,Rajasthan,26.9124,75.7873,33.6,14,0.0,964.7,6.6,31.0,100,110.1,29.3,0,5,7,0,2026-03-03T13:17:41.274442+05:30
Lucknow,Uttar Pradesh,26.8467,80.9462,30.0,35,0.0,997.0,6.3,38.5,153,128.5,50.1,4,5,7,0,2026-03-03T13:17:41.274451+05:30
Kanpur,Uttar Pradesh,26.4499,80.3319,30.4,32,0.0,995.6,6.3,31.7,181,231.4,55.8,0,5,7,0,2026-03-03T13:17:41.274458+05:30
Chandigarh,Chandigarh,30.7333,76.7794,28.4,37,0.0,972.0,5.7,35.6,82,31.1,26.5,4,5,3,0,2026-03-03T13:17:41.274467+05:30
Srinagar,Jammu and Kashmir,34.0837,74.7973,18.6,22,0.0,846.6,6.6,15.8,139,33.6,26.5,0,5,7,1,2026-03-03T13:17:41.274474+05:30
Jammu,Jammu and Kashmir,32.7266,74.857,27.6,40,0.0,975.9,6.3,23.8,101,31.1,24.6,4,5,7,0,2026-03-03T13:17:41.274482+05:30
Amritsar,Punjab,31.634,74.8723,28.8,35,0.0,984.8,6.25,29.5,87,26.1,21.9,4,5,7,0,2026-03-03T13:17:41.274489+05:30
Ludhiana,Punjab,30.901,75.8573,28.3,35,0.0,982.7,5.9,31.7,137,58.3,41.6,4,5,3,0,2026-03-03T13:17:41.274497+05:30
Jalandhar,Punjab,31.326,75.5762,27.8,38,0.0,983.8,6.1,27.0,140,59.0,34.1,4,5,7,0,2026-03-03T13:17:41.274508+05:30
Dehradun,Uttarakhand,30.6284,78.0322,21.2,43,0.0,832.8,6.05,31.3,57,16.8,11.7,0,5,7,0,2026-03-03T13:17:41.274515+05:30
Shimla,Himachal Pradesh,31.1048,77.1734,20.1,34,0.0,788.7,6.1,44.3,71,17.6,11.3,0,5,7,0,2026-03-03T13:17:41.274523+05:30
Manali,Himachal Pradesh,32.2396,77.1887,25.3,11,0.0,823.8,7.7,34.6,52,8.7,5.5,4,5,7,1,2026-03-03T13:17:41.274532+05:30
Gurgaon,Haryana,28.4595,77.0266,30.1,32,0.0,985.6,5.9,36.0,1049,1542.3,173.7,0,5,3,0,2026-03-03T13:17:41.274540+05:30
Noida,Uttar Pradesh,28.5355,77.391,30.3,32,0.0,988.4,5.85,38.5,1049,1542.3,173.7,0,5,3,0,2026-03-03T13:17:41.274546+05:30
Ghaziabad,Uttar Pradesh,28.6692,77.4538,29.3,37,0.0,986.4,5.8,38.2,194,306.4,65.4,4,5,3,0,2026-03-03T13:17:41.274554+05:30
Faridabad,Haryana,28.4089,77.3178,29.6,34,0.0,987.9,5.85,35.3,1049,1542.3,173.7,4,5,3,0,2026-03-03T13:17:41.274561+05:30
Meerut,Uttar Pradesh,28.9845,77.7064,29.8,37,0.0,984.7,5.65,43.9,194,306.4,65.4,4,5,3,0,2026-03-03T13:17:41.274569+05:30
Agra,Uttar Pradesh,27.1767,78.0081,31.7,26,0.0,992.2,6.15,31.0,445,536.4,69.4,0,5,7,0,2026-03-03T13:17:41.274576+05:30
Varanasi,Uttar Pradesh,25.3176,82.9739,29.9,42,0.0,1001.6,6.95,25.6,98,99.7,36.4,4,5,4,0,2026-03-03T13:17:41.274588+05:30
Prayagraj,Uttar Pradesh,25.4358,81.8463,30.5,41,0.0,999.9,6.8,25.6,117,96.6,38.1,0,5,7,0,2026-03-03T13:17:41.274595+05:30
Gorakhpur,Uttar Pradesh,26.7606,83.3732,28.1,53,0.0,1000.8,6.7,19.4,146,173.7,60.8,4,5,4,1,2026-03-03T13:17:41.274624+05:30
Bareilly,Uttar Pradesh,28.367,79.4304,28.1,43,0.0,989.9,6.0,32.0,124,75.2,44.6,4,5,3,0,2026-03-03T13:17:41.274638+05:30
Aligarh,Uttar Pradesh,27.8974,78.088,30.3,31,0.0,989.5,5.95,37.1,584,793.5,118.5,0,5,3,0,2026-03-03T13:17:41.274646+05:30
Moradabad,Uttar Pradesh,28.8386,78.7733,28.5,42,0.0,986.7,5.8,31.7,130,92.0,45.2,4,5,3,0,2026-03-03T13:17:41.274653+05:30
Saharanpur,Uttar Pradesh,29.9637,77.546,29.1,32,0.0,978.1,5.45,47.9,120,90.1,41.0,4,5,3,0,2026-03-03T13:17:41.274660+05:30
Jhansi,Uttar Pradesh,25.4484,78.5685,33.1,28,0.0,982.2,6.75,27.0,85,92.2,34.0,0,5,7,0,2026-03-03T13:17:44.526355+05:30
Surat,Gujarat,21.1702,72.8311,34.9,27,0.0,1009.9,7.05,26.3,161,72.2,66.8,0,0,4,0,2026-03-03T13:17:44.526385+05:30
Vadodara,Gujarat,22.3072,73.1812,36.5,26,0.0,1007.9,7.15,13.3,155,34.7,27.9,0,5,7,0,2026-03-03T13:17:44.526395+05:30
Rajkot,Gujarat,22.3039,70.8022,34.8,26,0.0,998.4,7.0,18.0,64,20.3,12.6,0,5,7,0,2026-03-03T13:17:44.526403+05:30
Thane,Maharashtra,19.2183,72.9781,34.1,44,0.0,1010.0,7.35,39.6,94,53.3,47.1,0,0,4,1,2026-03-03T13:17:44.526410+05:30
Nagpur,Maharashtra,21.1458,79.0882,33.7,25,0.0,976.7,7.75,18.0,69,27.2,18.7,0,5,7,0,2026-03-03T13:17:44.526417+05:30
Nashik,Maharashtra,19.9975,73.7898,34.2,23,0.0,948.9,7.55,32.0,86,21.0,20.1,0,5,7,0,2026-03-03T13:17:44.526424+05:30
Aurangabad,Maharashtra,19.8762,75.3433,33.9,26,0.0,947.4,8.05,25.2,75,18.6,17.3,0,5,7,0,2026-03-03T13:17:44.526431+05:30
Solapur,Maharashtra,17.6599,75.9064,33.6,35,0.0,959.8,8.3,18.0,121,34.9,34.2,0,5,7,1,2026-03-03T13:17:44.526438+05:30
Kolhapur,Maharashtra,16.705,74.2433,34.0,29,0.0,950.1,8.4,41.4,126,47.5,46.7,0,5,7,0,2026-03-03T13:17:44.526444+05:30
Goa,Goa,15.2993,74.124,31.4,58,0.0,999.5,8.45,35.6,73,28.7,24.2,0,5,7,1,2026-03-03T13:17:44.526451+05:30
Jodhpur,Rajasthan,26.2389,73.0243,34.5,21,0.0,988.3,6.85,15.5,74,50.9,17.0,0,5,7,0,2026-03-03T13:17:44.526458+05:30
Udaipur,Rajasthan,24.5854,73.7125,32.8,21,0.0,951.6,7.45,18.7,66,30.5,15.7,0,5,7,0,2026-03-03T13:17:44.526465+05:30
Kota,Rajasthan,25.2138,75.8648,34.2,27,0.0,983.4,6.85,21.2,86,60.5,23.9,0,5,7,0,2026-03-03T13:17:44.526471+05:30
Bikaner,Rajasthan,28.0229,73.3119,32.1,26,0.0,987.5,6.55,20.9,70,51.8,20.7,0,5,7,0,2026-03-03T13:17:44.526478+05:30
Ajmer,Rajasthan,26.4499,74.6399,32.8,18,0.0,959.8,6.8,25.6,75,49.6,18.3,0,5,7,0,2026-03-03T13:17:44.526484+05:30
Gwalior,Madhya Pradesh,26.2183,78.1828,31.4,34,0.0,987.7,6.45,29.5,127,51.7,27.0,0,5,7,0,2026-03-03T13:17:44.526491+05:30
Indore,Madhya Pradesh,22.7196,75.8577,32.2,26,0.0,952.3,7.45,16.6,91,23.3,17.9,0,5,7,0,2026-03-03T13:17:44.526497+05:30
Bhopal,Madhya Pradesh,23.2599,77.4126,32.6,28,0.0,958.0,7.3,23.8,79,27.5,17.2,0,5,7,0,2026-03-03T13:17:44.526503+05:30
Jabalpur,Madhya Pradesh,23.1815,79.9864,31.9,29,0.0,965.6,7.4,21.6,71,28.3,16.2,0,5,7,0,2026-03-03T13:17:44.526510+05:30
Ujjain,Madhya Pradesh,23.1765,75.7885,32.0,31,0.0,958.2,7.3,15.5,104,24.0,18.8,0,5,7,0,2026-03-03T13:17:44.526518+05:30
Visakhapatnam,Andhra Pradesh,17.6868,83.2185,34.6,37,0.0,1005.6,8.35,36.0,132,59.3,56.1,0,5,4,1,2026-03-03T13:17:44.526524+05:30
Vijayawada,Andhra Pradesh,16.5062,80.648,34.1,37,0.0,1004.8,8.4,25.9,139,43.9,41.3,0,5,4,1,2026-03-03T13:17:44.526531+05:30
Guntur,Andhra Pradesh,16.3067,80.4365,35.2,31,0.0,1005.9,8.4,28.4,132,41.6,39.5,0,5,7,0,2026-03-03T13:17:44.526537+05:30
Nellore,Andhra Pradesh,14.4426,79.9865,35.6,28,0.0,1008.0,8.65,29.2,115,39.5,36.0,0,0,7,0,2026-03-03T13:17:44.526545+05:30
Kurnool,Andhra Pradesh,15.8281,78.0373,36.5,24,0.0,979.0,8.45,28.8,123,36.6,35.2,0,5,10,0,2026-03-03T13:17:44.526552+05:30
Kakinada,Andhra Pradesh,16.9891,82.2475,36.1,31,0.0,1009.0,8.35,35.3,127,49.4,46.0,0,0,7,1,2026-03-03T13:17:44.526560+05:30
Tirupati,Andhra Pradesh,13.6288,79.4192,34.7,24,0.0,993.7,8.75,36.0,152,36.8,34.3,0,5,7,0,2026-03-03T13:17:44.526566+05:30
Warangal,Telangana,17.9689,79.5941,34.1,37,0.0,981.3,8.2,16.2,151,28.5,27.0,0,5,7,1,2026-03-03T13:17:44.526573+05:30
Nizamabad,Telangana,18.6725,78.0941,34.5,27,0.0,967.8,8.1,26.3,92,22.4,19.4,0,5,7,0,2026-03-03T13:17:44.526579+05:30
Mysore,Karnataka,12.2958,76.6396,32.5,27,0.0,930.4,9.15,33.8,137,32.7,31.9,0,5,7,0,2026-03-03T13:17:44.526585+05:30
Mangalore,Karnataka,12.9141,74.856,28.1,82,0.0,1008.1,8.75,28.8,61,28.3,24.0,7,0,4,1,2026-03-03T13:17:44.526591+05:30
Hubli-Dharwad,Karnataka,15.3647,75.124,34.1,29,0.0,942.9,8.65,29.2,91,38.5,37.7,0,5,7,0,2026-03-03T13:17:44.526616+05:30
Belgaum,Karnataka,15.8497,74.4977,33.7,28,0.0,928.1,8.65,33.5,85,41.8,40.9,0,5,7,0,2026-03-03T13:17:47.781447+05:30
Coimbatore,Tamil Nadu,11.0168,76.9558,33.2,29,0.0,963.8,9.15,42.1,128,32.5,31.7,0,5,7,0,2026-03-03T13:17:47.781477+05:30
Madurai,Tamil Nadu,9.9252,78.1198,33.5,34,0.0,995.0,9.1,32.4,117,33.2,30.3,0,5,7,0,2026-03-03T13:17:47.781487+05:30
Trichy,Tamil Nadu,10.7905,78.7047,34.1,34,0.0,1001.7,9.0,29.9,119,32.6,29.3,0,5,4,1,2026-03-03T13:17:47.781495+05:30
Salem,Tamil Nadu,11.6643,78.146,35.6,24,0.0,978.8,9.05,38.5,138,43.8,42.4,0,5,10,0,2026-03-03T13:17:47.781502+05:30
Tirunelveli,Tamil Nadu,8.7139,77.7567,34.6,30,0.0,1005.0,9.1,40.0,109,27.3,25.2,0,5,4,0,2026-03-03T13:17:47.781509+05:30
Vellore,Tamil Nadu,12.9165,79.1325,34.2,24,0.0,986.8,8.85,38.2,151,36.7,34.1,0,5,7,0,2026-03-03T13:17:47.781516+05:30
Erode,Tamil Nadu,11.341,77.7172,35.3,30,0.0,990.5,9.05,33.5,118,43.5,42.0,0,5,10,0,2026-03-03T13:17:47.781523+05:30
Kochi,Kerala,9.9312,76.2673,28.3,77,0.0,1010.1,8.95,32.8,107,36.8,34.7,7,0,4,1,2026-03-03T13:17:47.781530+05:30
Thiruvananthapuram,Kerala,8.5241,76.9366,27.7,78,0.0,1009.6,9.0,27.4,83,35.6,33.5,7,0,4,1,2026-03-03T13:17:47.781537+05:30
Kozhikode,Kerala,11.2588,75.7804,29.7,69,0.0,1009.2,8.85,34.2,65,23.4,20.5,7,0,4,1,2026-03-03T13:17:47.781543+05:30
Thrissur,Kerala,10.5276,76.2144,34.1,49,0.0,1007.9,8.95,42.5,107,38.8,37.5,0,5,4,1,2026-03-03T13:17:47.781550+05:30
Kannur,Kerala,11.8745,75.3704,30.9,63,0.0,1008.5,8.85,36.4,62,24.0,20.7,3,0,4,1,2026-03-03T13:17:47.781557+05:30
Patna,Bihar,25.5941,85.1376,29.6,40,0.0,1004.3,7.1,19.4,139,238.4,67.3,4,5,4,0,2026-03-03T13:17:47.781563+05:30
Gaya,Bihar,24.7914,85.0002,30.1,33,0.0,997.4,7.2,25.9,93,202.6,48.4,0,5,7,0,2026-03-03T13:17:47.781570+05:30
Muzaffarpur,Bihar,26.1209,85.3647,29.7,36,0.0,1004.3,7.05,11.2,153,157.9,60.8,4,5,4,0,2026-03-03T13:17:47.781576+05:30
Bhagalpur,Bihar,25.2425,87.0117,28.9,42,0.0,1004.9,7.15,14.4,121,75.0,48.7,4,5,4,0,2026-03-03T13:17:47.781583+05:30
Ranchi,Jharkhand,23.3441,85.3096,29.9,22,0.0,941.1,7.9,44.3,64,65.4,21.7,4,5,7,0,2026-03-03T13:17:47.781589+05:30
Jamshedpur,Jharkhand,22.8046,86.2029,32.6,22,0.0,993.8,7.8,14.4,92,92.0,29.0,0,5,7,0,2026-03-03T13:17:47.781595+05:30
Dhanbad,Jharkhand,23.7957,86.4304,32.8,22,0.0,982.7,7.65,32.8,99,102.9,32.1,0,5,7,0,2026-03-03T13:17:47.781620+05:30
Bokaro,Jharkhand,23.6693,86.1511,32.5,23,0.0,986.6,7.65,36.4,101,104.8,31.9,0,5,7,0,2026-03-03T13:17:47.781628+05:30
Bhubaneswar,Odisha,20.2961,85.8245,35.9,24,0.0,1004.6,8.1,27.0,154,49.7,31.5,0,5,7,0,2026-03-03T13:17:47.781634+05:30
Cuttack,Odisha,20.4625,85.8828,36.5,17,0.0,1006.7,8.1,25.2,154,49.7,31.5,0,5,7,0,2026-03-03T13:17:47.781641+05:30
Rourkela,Odisha,22.2604,84.8536,33.8,23,0.0,988.0,7.7,25.9,79,62.9,24.7,0,5,7,0,2026-03-03T13:17:47.781647+05:30
Raipur,Chhattisgarh,21.2514,81.6296,34.1,20,0.0,977.9,7.8,14.4,117,36.0,23.9,0,5,7,0,2026-03-03T13:17:47.781654+05:30
Bhilai,Chhattisgarh,21.1938,81.3509,34.5,20,0.0,978.2,7.8,13.7,114,37.5,26.1,0,5,7,0,2026-03-03T13:17:47.781660+05:30
Guwahati,Assam,26.1158,91.7086,29.0,41,0.0,1004.4,7.1,22.0,154,91.0,68.9,4,5,4,0,2026-03-03T13:17:47.781666+05:30
Agartala,Tripura,23.8315,91.2868,28.1,62,0.0,1008.8,7.5,15.8,180,84.8,74.0,7,0,4,1,2026-03-03T13:17:47.781673+05:30
Shillong,Meghalaya,25.5788,91.8933,18.6,38,0.0,858.3,7.45,28.1,135,83.1,59.4,0,5,7,0,2026-03-03T13:17:47.781679+05:30
Imphal,Manipur,24.817,93.9368,21.9,46,0.0,924.8,7.65,28.8,160,73.1,63.3,0,5,7,0,2026-03-03T13:17:47.781686+05:30
Aizawl,Mizoram,23.7271,92.7176,23.8,37,0.0,894.9,7.65,32.8,162,49.9,40.3,0,5,7,0,2026-03-03T13:17:47.781693+05:30
Kohima,Nagaland,25.6701,94.1077,16.3,63,0.0,856.1,6.65,45.0,152,76.6,59.1,3,5,7,0,2026-03-03T13:17:47.781699+05:30
Gangtok,Sikkim,27.3314,88.6138,16.8,64,0.0,839.6,7.4,18.4,150,59.6,43.4,3,5,7,0,2026-03-03T13:17:47.781705+05:30
Siliguri,West Bengal,26.7271,88.3953,22.3,64,0.0,997.7,7.1,20.2,165,89.4,57.7,3,5,7,0,2026-03-03T13:17:51.031758+05:30
Durgapur,West Bengal,23.5204,87.3119,33.9,20,0.0,997.8,7.65,28.4,85,102.7,35.6,0,5,7,0,2026-03-03T13:17:51.031792+05:30
Asansol,West Bengal,23.6739,86.9524,33.7,21,0.0,996.4,7.65,23.8,81,104.5,33.4,0,5,7,0,2026-03-03T13:17:51.031804+05:30
Pondicherry,Puducherry,11.9139,79.8145,33.1,45,0.0,1010.6,8.85,25.9,109,40.9,36.3,0,0,4,1,2026-03-03T13:17:51.031814+05:30
Port Blair,Andaman and Nicobar Islands,11.6234,92.7265,27.4,75,0.0,1007.9,8.8,17.6,84,39.2,28.1,7,5,4,1,2026-03-03T13:17:51.031823+05:30
Haridwar,Uttarakhand,29.9457,78.1642,27.1,47,0.0,976.8,5.55,23.0,98,42.8,32.6,4,5,3,0,2026-03-03T13:17:51.031832+05:30
Rishikesh,Uttarakhand,30.0869,78.2676,27.4,45,0.0,969.3,5.6,23.8,75,24.4,20.5,4,5,3,0,2026-03-03T13:17:51.031841+05:30
Nainital,Uttarakhand,29.3919,79.4542,19.4,64,0.0,808.1,6.45,51.5,82,43.9,31.8,3,5,7,0,2026-03-03T13:17:51.031849+05:30
Mussoorie,Uttarakhand,30.4599,78.0664,20.3,49,0.0,805.4,5.95,40.0,78,27.5,23.7,0,5,3,0,2026-03-03T13:17:51.031857+05:30
Dharamshala,Himachal Pradesh,32.219,76.3234,23.5,39,0.0,872.3,6.2,23.0,51,11.0,5.8,0,5,7,0,2026-03-03T13:17:51.031866+05:30
Dalhousie,Himachal Pradesh,32.5387,75.971,23.4,20,0.0,808.3,6.4,20.5,90,20.2,14.5,0,5,7,1,2026-03-03T13:17:51.031875+05:30
Patiala,Punjab,30.3398,76.3869,28.9,33,0.0,981.9,5.6,36.4,193,420.0,70.5,4,5,3,0,2026-03-03T13:17:51.031884+05:30
Bhatinda,Punjab,30.211,74.9455,30.0,38,0.0,988.3,6.25,30.2,136,67.3,46.3,4,5,7,0,2026-03-03T13:17:51.031892+05:30
Rohtak,Haryana,28.8955,76.6066,29.9,34,0.0,986.0,5.8,36.4,406,624.0,95.2,4,5,3,0,2026-03-03T13:17:51.031900+05:30
Panipat,Haryana,29.3909,76.9635,29.5,36,0.0,984.1,5.6,40.7,931,1292.7,155.1,4,5,3,0,2026-03-03T13:17:51.031908+05:30
Mathura,Uttar Pradesh,27.4924,77.6737,31.0,30,0.0,991.3,6.1,30.6,493,579.3,75.2,0,5,7,0,2026-03-03T13:17:51.031916+05:30
Vrindavan,Uttar Pradesh,27.5823,77.7027,30.6,31,0.0,991.6,6.05,33.8,493,579.3,75.2,0,5,7,0,2026-03-03T13:17:51.031924+05:30
Ayodhya,Uttar Pradesh,26.7922,82.1998,29.2,42,0.0,998.9,6.45,28.8,142,114.8,51.0,4,5,7,0,2026-03-03T13:17:51.031931+05:30
Ratlam,Madhya Pradesh,23.3315,75.0367,32.4,29,0.0,959.0,7.3,12.2,91,24.3,18.6,0,5,7,0,2026-03-03T13:17:51.031939+05:30
Sagar,Madhya Pradesh,23.8388,78.7378,32.1,25,0.0,954.5,7.25,27.4,63,36.2,15.1,0,5,7,0,2026-03-03T13:17:51.031947+05:30
Satna,Madhya Pradesh,24.6005,80.8322,33.2,27,0.0,975.2,7.2,33.1,71,79.6,25.3,0,5,7,0,2026-03-03T13:17:51.031954+05:30
Akola,Maharashtra,20.7002,77.0082,35.3,25,0.0,978.4,7.8,20.2,78,25.1,20.5,0,5,10,0,2026-03-03T13:17:51.031963+05:30
Amravati,Maharashtra,20.9374,77.7796,35.2,22,0.0,970.8,7.75,16.6,75,23.1,17.9,0,5,10,0,2026-03-03T13:17:51.031972+05:30
Latur,Maharashtra,18.4088,76.5604,33.1,27,0.0,943.0,8.2,31.0,84,21.2,20.5,0,5,7,0,2026-03-03T13:17:51.031980+05:30
Nanded,Maharashtra,19.1383,77.3091,35.7,24,0.0,971.6,8.0,20.9,96,19.9,17.1,0,5,10,0,2026-03-03T13:17:51.031988+05:30
Gulbarga,Karnataka,17.3297,76.8343,35.1,29,0.0,961.2,8.3,18.7,134,34.1,33.3,0,5,10,0,2026-03-03T13:17:51.031995+05:30
Bidar,Karnataka,17.9104,77.5199,33.8,28,0.0,938.4,8.25,21.6,107,24.6,23.6,0,5,7,0,2026-03-03T13:17:51.032003+05:30
Hospet,Karnataka,15.2689,76.3909,34.0,31,0.0,958.0,8.6,26.3,109,40.7,39.9,0,5,7,0,2026-03-03T13:17:51.032010+05:30
Tirupur,Tamil Nadu,11.1085,77.3411,34.5,28,0.0,977.2,9.15,31.7,131,42.0,40.7,0,5,7,0,2026-03-03T13:17:51.032017+05:30
Alappuzha,Kerala,9.4981,76.3388,27.9,78,0.0,1010.3,8.95,28.4,95,37.4,34.9,7,0,4,1,2026-03-03T13:17:51.032025+05:30
Munnar,Kerala,10.0889,77.0595,29.7,31,0.0,860.3,9.45,20.2,105,32.7,31.5,4,5,7,0,2026-03-03T13:17:51.032034+05:30
Silchar,Assam,24.8333,92.7789,30.1,35,0.0,1007.1,7.4,20.2,162,84.5,65.7,0,5,4,0,2026-03-03T13:17:51.032042+05:30
Dibrugarh,Assam,27.4728,94.912,26.1,57,0.0,998.6,7.1,11.2,156,78.0,53.0,4,5,7,1,2026-03-03T13:17:51.032049+05:30
