city,state,latitude,longitude,temp,humidity,rain,pressure,uv_index,wind_gusts,aqi,pm10,pm2_5,mosquito_risk,arthritis_risk,migraine_risk,frizz_risk,updated_at
Delhi,Delhi,28.6139,77.209,24.9,43,0.0,987.2,7.15,38.5,610,1341.1,185.3,0,5,7,0,2026-04-10T21:26:53.059948+05:30
Mumbai,Maharashtra,19.076,72.8777,28.7,75,0.0,1010.8,7.95,25.2,98,63.1,36.6,7,0,4,1,2026-04-10T21:26:53.059993+05:30
Bangalore,Karnataka,12.9716,77.5946,26.5,66,0.0,914.5,9.65,42.8,176,41.8,37.1,7,5,7,1,2026-04-10T21:26:53.060007+05:30
Hyderabad,Telangana,17.385,78.4867,32.5,32,0.0,955.7,9.15,19.4,145,68.2,41.4,0,5,7,0,2026-04-10T21:26:53.060017+05:30
Chennai,Tamil Nadu,13.0827,80.2707,29.2,79,0.0,1010.3,9.4,36.4,65,21.9,15.6,7,0,4,1,2026-04-10T21:26:53.060026+05:30
Kolkata,West Bengal,22.5726,88.3639,25.7,73,0.0,1008.8,8.7,21.2,155,85.7,66.1,7,0,4,1,2026-04-10T21:26:53.060034+05:30
Pune,Maharashtra,18.5204,73.8567,28.9,62,0.0,951.1,8.5,31.3,126,46.1,29.5,7,5,7,1,2026-04-10T21:26:53.060044+05:30
Ahmedabad,Gujarat,23.0225,72.5714,31.2,28,0.0,1005.7,8.0,36.7,125,59.5,35.7,0,5,4,0,2026-04-10T21:26:53.060051+05:30
Jaipur,Rajasthan,26.9124,75.7873,26.9,31,0.0,965.0,7.75,28.4,162,167.6,35.9,4,5,7,0,2026-04-10T21:26:53.060057+05:30
Lucknow,Uttar Pradesh,26.8467,80.9462,24.6,41,0.0,996.8,7.65,40.0,125,637.0,106.6,0,5,7,0,2026-04-10T21:26:53.060062+05:30
Kanpur,Uttar Pradesh,26.4499,80.3319,23.1,55,0.0,995.5,7.65,35.3,289,787.9,112.2,0,5,7,0,2026-04-10T21:26:53.060068+05:30
Chandigarh,Chandigarh,30.7333,76.7794,21.4,54,0.0,973.1,7.15,42.1,131,15.4,14.1,0,5,7,0,2026-04-10T21:26:53.060074+05:30
Srinagar,Jammu and Kashmir,34.0837,74.7973,12.8,66,0.0,843.4,8.1,12.6,106,64.0,44.8,3,5,7,0,2026-04-10T21:26:53.060080+05:30
Jammu,Jammu and Kashmir,32.7266,74.857,21.4,56,0.0,977.5,7.75,34.2,99,32.2,23.5,0,5,7,0,2026-04-10T21:26:53.060085+05:30
Amritsar,Punjab,31.634,74.8723,21.9,56,0.0,986.3,7.7,29.2,132,22.9,19.5,0,5,7,0,2026-04-10T21:26:53.060091+05:30
Ludhiana,Punjab,30.901,75.8573,23.8,44,0.0,984.0,7.3,32.8,118,45.8,24.2,0,5,7,0,2026-04-10T21:26:53.060096+05:30
Jalandhar,Punjab,31.326,75.5762,22.7,50,0.0,985.3,7.5,29.9,130,49.2,22.2,0,5,7,0,2026-04-10T21:26:53.060104+05:30
Dehradun,Uttarakhand,30.6284,78.0322,12.7,64,0.0,830.0,7.55,29.5,132,11.8,10.5,3,5,7,0,2026-04-10T21:26:53.060109+05:30
Shimla,Himachal Pradesh,31.1048,77.1734,9.9,52,0.0,784.8,7.6,50.8,115,14.5,11.7,0,5,7,0,2026-04-10T21:26:53.060115+05:30
Manali,Himachal Pradesh,32.2396,77.1887,13.2,84,0.0,820.6,9.9,32.4,173,17.5,9.9,3,10,7,0,2026-04-10T21:26:53.060120+05:30
Gurgaon,Haryana,28.4595,77.0266,22.6,55,0.0,985.9,7.25,35.6,1780,3099.4,353.9,0,5,7,0,2026-04-10T21:26:53.060126+05:30
Noida,Uttar Pradesh,28.5355,77.391,24.5,47,0.0,988.8,7.15,37.8,1780,3099.4,353.9,0,5,7,0,2026-04-10T21:26:53.060132+05:30
Ghaziabad,Uttar Pradesh,28.6692,77.4538,23.4,48,0.0,986.8,7.15,37.8,421,1184.6,170.9,0,5,7,0,2026-04-10T21:26:53.060137+05:30
Faridabad,Haryana,28.4089,77.3178,24.9,42,0.0,988.1,7.2,36.4,1780,3099.4,353.9,0,5,7,0,2026-04-10T21:26:53.060142+05:30
Meerut,Uttar Pradesh,28.9845,77.7064,21.8,52,0.0,985.2,7.05,42.5,421,1184.6,170.9,0,5,7,0,2026-04-10T21:26:53.060148+05:30
Agra,Uttar Pradesh,27.1767,78.0081,23.1,50,0.0,992.1,7.5,36.0,942,1534.8,176.0,0,5,7,0,2026-04-10T21:26:53.060153+05:30
Varanasi,Uttar Pradesh,25.3176,82.9739,24.1,41,0.0,1000.9,8.2,39.2,144,66.8,29.9,0,5,4,0,2026-04-10T21:26:53.060174+05:30
Prayagraj,Uttar Pradesh,25.4358,81.8463,25.0,46,0.0,999.9,8.05,31.7,140,117.3,34.6,4,5,7,0,2026-04-10T21:26:53.060180+05:30
Gorakhpur,Uttar Pradesh,26.7606,83.3732,24.3,33,0.0,999.7,8.05,43.2,130,75.9,24.2,0,5,7,0,2026-04-10T21:26:53.060187+05:30
Bareilly,Uttar Pradesh,28.367,79.4304,21.2,59,0.0,989.9,7.4,38.2,123,295.2,67.3,0,5,7,0,2026-04-10T21:26:53.060192+05:30
Aligarh,Uttar Pradesh,27.8974,78.088,22.2,51,0.0,989.6,7.3,38.9,898,1996.8,266.4,0,5,7,0,2026-04-10T21:26:53.060197+05:30
Moradabad,Uttar Pradesh,28.8386,78.7733,21.1,57,0.0,986.9,7.25,38.2,108,438.7,89.4,0,5,7,0,2026-04-10T21:26:53.060202+05:30
Saharanpur,Uttar Pradesh,29.9637,77.546,22.4,47,0.0,979.0,6.85,50.4,126,119.7,28.9,0,5,7,0,2026-04-10T21:26:53.060207+05:30
Jhansi,Uttar Pradesh,25.4484,78.5685,25.9,36,0.0,982.9,8.0,33.5,124,23.0,15.1,4,5,7,0,2026-04-10T21:26:56.345978+05:30
Surat,Gujarat,21.1702,72.8311,28.7,58,0.0,1009.0,7.75,19.4,140,63.6,48.4,4,0,4,1,2026-04-10T21:26:56.346010+05:30
Vadodara,Gujarat,22.3072,73.1812,29.9,33,0.0,1007.2,8.0,31.7,117,40.9,28.1,4,5,4,0,2026-04-10T21:26:56.346021+05:30
Rajkot,Gujarat,22.3039,70.8022,30.9,27,0.0,997.5,7.7,25.9,149,47.8,28.5,0,5,7,0,2026-04-10T21:26:56.346031+05:30
Thane,Maharashtra,19.2183,72.9781,27.8,75,0.0,1010.2,7.95,37.8,98,63.1,36.6,7,0,4,1,2026-04-10T21:26:56.346040+05:30
Nagpur,Maharashtra,21.1458,79.0882,28.4,54,0.0,976.3,8.75,24.1,152,57.4,31.0,4,5,7,1,2026-04-10T21:26:56.346049+05:30
Nashik,Maharashtra,19.9975,73.7898,28.0,46,0.0,948.5,8.2,28.1,153,47.8,37.4,4,5,7,0,2026-04-10T21:26:56.346058+05:30
Aurangabad,Maharashtra,19.8762,75.3433,30.3,28,0.0,946.9,8.85,28.4,136,36.2,25.4,0,5,7,0,2026-04-10T21:26:56.346067+05:30
Solapur,Maharashtra,17.6599,75.9064,33.4,31,0.0,958.8,9.0,23.4,120,43.1,28.1,0,5,7,0,2026-04-10T21:26:56.346075+05:30
Kolhapur,Maharashtra,16.705,74.2433,26.7,60,0.0,949.9,9.0,34.6,91,55.1,35.4,4,5,7,1,2026-04-10T21:26:56.346083+05:30
Goa,Goa,15.2993,74.124,28.2,76,0.0,999.5,9.0,37.1,79,99.9,39.2,7,5,7,1,2026-04-10T21:26:56.346092+05:30
Jodhpur,Rajasthan,26.2389,73.0243,28.2,35,0.0,987.8,8.0,22.7,106,75.9,24.1,4,5,7,0,2026-04-10T21:26:56.346100+05:30
Udaipur,Rajasthan,24.5854,73.7125,26.7,30,0.0,951.5,8.55,29.9,106,35.7,13.1,4,5,7,0,2026-04-10T21:26:56.346108+05:30
Kota,Rajasthan,25.2138,75.8648,27.1,40,0.0,984.0,8.0,23.8,113,66.8,33.2,4,5,7,0,2026-04-10T21:26:56.346115+05:30
Bikaner,Rajasthan,28.0229,73.3119,29.8,28,0.0,986.9,7.8,19.8,123,62.4,19.6,4,5,7,0,2026-04-10T21:26:56.346121+05:30
Ajmer,Rajasthan,26.4499,74.6399,26.0,39,0.0,959.5,7.95,20.2,99,54.0,24.8,4,5,7,0,2026-04-10T21:26:56.346128+05:30
Gwalior,Madhya Pradesh,26.2183,78.1828,24.7,53,0.0,988.1,7.75,33.1,113,58.7,18.9,0,5,7,0,2026-04-10T21:26:56.346135+05:30
Indore,Madhya Pradesh,22.7196,75.8577,26.2,39,0.0,952.0,8.45,31.0,130,29.6,17.6,4,5,7,0,2026-04-10T21:26:56.346141+05:30
Bhopal,Madhya Pradesh,23.2599,77.4126,27.6,22,0.0,958.1,8.45,30.2,122,21.5,11.6,4,5,7,0,2026-04-10T21:26:56.346148+05:30
Jabalpur,Madhya Pradesh,23.1815,79.9864,28.0,37,0.0,965.2,8.55,24.5,118,55.3,24.0,4,5,7,0,2026-04-10T21:26:56.346154+05:30
Ujjain,Madhya Pradesh,23.1765,75.7885,26.3,35,0.0,957.9,8.35,29.5,122,39.0,23.2,4,5,7,0,2026-04-10T21:26:56.346161+05:30
Visakhapatnam,Andhra Pradesh,17.6868,83.2185,28.3,85,0.0,1007.0,9.1,37.1,97,28.5,21.9,7,5,4,1,2026-04-10T21:26:56.346168+05:30
Vijayawada,Andhra Pradesh,16.5062,80.648,29.4,76,0.0,1005.1,9.2,35.6,85,21.8,19.5,7,5,4,1,2026-04-10T21:26:56.346174+05:30
Guntur,Andhra Pradesh,16.3067,80.4365,28.5,84,0.0,1006.6,9.2,33.8,90,24.9,22.8,7,5,4,1,2026-04-10T21:26:56.346181+05:30
Nellore,Andhra Pradesh,14.4426,79.9865,28.6,83,0.0,1008.8,9.3,34.9,82,20.9,16.5,7,0,4,1,2026-04-10T21:26:56.346189+05:30
Kurnool,Andhra Pradesh,15.8281,78.0373,34.3,41,0.0,978.4,9.15,25.2,115,46.3,28.9,0,5,7,1,2026-04-10T21:26:56.346196+05:30
Kakinada,Andhra Pradesh,16.9891,82.2475,28.6,83,0.0,1010.6,9.15,37.1,73,22.8,15.7,7,0,4,1,2026-04-10T21:26:56.346203+05:30
Tirupati,Andhra Pradesh,13.6288,79.4192,29.3,75,0.0,994.9,9.05,30.6,133,31.4,29.2,7,5,7,1,2026-04-10T21:26:56.346210+05:30
Warangal,Telangana,17.9689,79.5941,31.5,41,0.0,980.5,9.0,23.4,137,66.4,44.9,0,5,7,1,2026-04-10T21:26:56.346217+05:30
Nizamabad,Telangana,18.6725,78.0941,30.4,45,0.0,967.1,8.95,29.5,127,50.5,34.9,0,5,7,1,2026-04-10T21:26:56.346239+05:30
Mysore,Karnataka,12.2958,76.6396,25.5,80,0.0,931.2,9.55,37.4,162,43.1,36.1,7,5,7,1,2026-04-10T21:26:56.346246+05:30
Mangalore,Karnataka,12.9141,74.856,29.6,78,0.0,1008.5,9.15,32.4,66,82.0,27.1,7,0,4,1,2026-04-10T21:26:56.346254+05:30
Hubli-Dharwad,Karnataka,15.3647,75.124,27.5,66,0.0,942.5,9.2,36.0,117,55.8,33.1,7,5,7,1,2026-04-10T21:26:56.346261+05:30
Belgaum,Karnataka,15.8497,74.4977,25.7,68,0.0,927.7,9.25,35.3,116,55.1,31.8,7,5,7,1,2026-04-10T21:26:59.637047+05:30
Coimbatore,Tamil Nadu,11.0168,76.9558,27.6,72,0.0,964.3,9.5,36.7,133,36.9,31.4,7,5,7,1,2026-04-10T21:26:59.637078+05:30
Madurai,Tamil Nadu,9.9252,78.1198,29.5,70,0.0,996.0,9.4,41.0,113,17.6,15.7,7,5,7,1,2026-04-10T21:26:59.637088+05:30
Trichy,Tamil Nadu,10.7905,78.7047,29.5,72,0.0,1002.6,9.4,31.7,98,18.7,17.2,7,5,4,1,2026-04-10T21:26:59.637097+05:30
Salem,Tamil Nadu,11.6643,78.146,31.0,58,0.0,979.4,9.3,24.1,157,38.5,35.0,0,5,7,1,2026-04-10T21:26:59.637106+05:30
Tirunelveli,Tamil Nadu,8.7139,77.7567,28.7,73,0.0,1006.2,9.35,38.2,132,26.5,23.0,7,5,4,1,2026-04-10T21:26:59.637114+05:30
Vellore,Tamil Nadu,12.9165,79.1325,29.4,67,0.0,987.6,9.45,35.3,130,29.2,27.2,7,5,7,1,2026-04-10T21:26:59.637122+05:30
Erode,Tamil Nadu,11.341,77.7172,32.4,53,0.0,990.7,9.45,34.9,148,31.4,28.5,0,5,7,1,2026-04-10T21:26:59.637131+05:30
Kochi,Kerala,9.9312,76.2673,28.3,83,0.0,1011.7,9.25,31.7,74,34.1,24.9,7,0,4,1,2026-04-10T21:26:59.637139+05:30
Thiruvananthapuram,Kerala,8.5241,76.9366,27.7,81,0.0,1011.3,9.2,28.1,67,36.1,18.9,7,0,4,1,2026-04-10T21:26:59.637148+05:30
Kozhikode,Kerala,11.2588,75.7804,29.6,81,0.0,1010.2,9.15,30.2,68,58.2,17.7,7,0,4,1,2026-04-10T21:26:59.637156+05:30
Thrissur,Kerala,10.5276,76.2144,29.2,79,0.0,1009.5,9.2,36.0,80,38.5,23.3,7,0,4,1,2026-04-10T21:26:59.637164+05:30
Kannur,Kerala,11.8745,75.3704,29.3,78,0.0,1009.3,9.15,36.4,68,66.1,20.7,7,0,4,1,2026-04-10T21:26:59.637173+05:30
Patna,Bihar,25.5941,85.1376,25.8,41,0.0,1003.0,8.35,38.9,125,50.4,27.7,4,5,4,0,2026-04-10T21:26:59.637181+05:30
Gaya,Bihar,24.7914,85.0002,24.8,45,0.0,997.0,8.45,37.8,140,53.3,27.6,0,5,7,0,2026-04-10T21:26:59.637190+05:30
Muzaffarpur,Bihar,26.1209,85.3647,24.3,40,0.0,1002.6,8.35,36.0,123,46.2,25.4,0,5,4,0,2026-04-10T21:26:59.637197+05:30
Bhagalpur,Bihar,25.2425,87.0117,24.1,57,0.0,1003.2,8.35,34.2,131,35.9,22.1,0,5,4,0,2026-04-10T21:26:59.637204+05:30
Ranchi,Jharkhand,23.3441,85.3096,23.1,38,0.0,940.8,9.0,37.4,120,43.2,21.1,0,5,7,0,2026-04-10T21:26:59.637211+05:30
Jamshedpur,Jharkhand,22.8046,86.2029,26.6,61,0.0,993.7,8.85,16.9,131,78.2,42.4,7,5,7,1,2026-04-10T21:26:59.637218+05:30
Dhanbad,Jharkhand,23.7957,86.4304,24.7,48,0.0,982.7,8.75,31.0,146,62.6,39.9,0,5,7,0,2026-04-10T21:26:59.637242+05:30
Bokaro,Jharkhand,23.6693,86.1511,24.9,47,0.0,987.0,8.8,32.8,128,64.5,38.0,0,5,7,0,2026-04-10T21:26:59.637250+05:30
Bhubaneswar,Odisha,20.2961,85.8245,27.0,93,0.0,1005.9,9.0,24.5,136,32.5,28.1,7,5,4,1,2026-04-10T21:26:59.637257+05:30
Cuttack,Odisha,20.4625,85.8828,27.6,89,0.0,1007.6,9.0,22.7,136,32.5,28.1,7,5,4,1,2026-04-10T21:26:59.637264+05:30
Rourkela,Odisha,22.2604,84.8536,25.1,68,0.0,987.8,8.75,20.2,110,61.7,34.5,7,5,7,1,2026-04-10T21:26:59.637271+05:30
Raipur,Chhattisgarh,21.2514,81.6296,30.4,34,0.0,977.4,8.8,24.1,172,82.9,55.8,0,5,7,0,2026-04-10T21:26:59.637278+05:30
Bhilai,Chhattisgarh,21.1938,81.3509,28.5,33,0.0,977.6,8.8,22.3,173,81.7,57.4,4,5,7,0,2026-04-10T21:26:59.637285+05:30
Guwahati,Assam,26.1158,91.7086,22.5,87,0.0,1005.0,8.2,32.4,101,50.1,42.4,3,5,4,1,2026-04-10T21:26:59.637291+05:30
Agartala,Tripura,23.8315,91.2868,23.9,84,0.0,1009.0,8.55,28.8,153,70.5,55.6,3,0,4,1,2026-04-10T21:26:59.637299+05:30
Shillong,Meghalaya,25.5788,91.8933,11.7,86,0.0,856.4,7.05,50.4,97,36.6,30.2,3,10,7,0,2026-04-10T21:26:59.637306+05:30
Imphal,Manipur,24.817,93.9368,15.6,79,0.0,924.7,8.9,57.6,97,48.4,37.7,3,5,7,0,2026-04-10T21:26:59.637313+05:30
Aizawl,Mizoram,23.7271,92.7176,17.1,76,0.0,894.4,8.8,58.0,81,54.5,28.3,3,5,7,0,2026-04-10T21:26:59.637320+05:30
Kohima,Nagaland,25.6701,94.1077,12.5,88,0.0,855.1,8.4,72.0,80,35.4,27.2,3,10,7,0,2026-04-10T21:26:59.637327+05:30
Gangtok,Sikkim,27.3314,88.6138,12.6,95,0.1,837.2,8.5,15.1,93,41.9,32.2,6,10,7,0,2026-04-10T21:26:59.637334+05:30
Siliguri,West Bengal,26.7271,88.3953,20.2,65,0.0,996.1,8.2,26.6,95,60.5,48.9,3,5,7,0,2026-04-10T21:27:02.927515+05:30
Durgapur,West Bengal,23.5204,87.3119,26.1,56,0.0,998.0,8.7,20.9,143,59.6,39.1,4,5,7,1,2026-04-10T21:27:02.927545+05:30
Asansol,West Bengal,23.6739,86.9524,26.3,50,0.0,996.6,8.75,23.0,122,52.5,31.9,4,5,7,0,2026-04-10T21:27:02.927554+05:30
Pondicherry,Puducherry,11.9139,79.8145,28.1,87,0.0,1011.5,8.85,33.8,61,20.5,14.2,7,0,4,1,2026-04-10T21:27:02.927562+05:30
Port Blair,Andaman and Nicobar Islands,11.6234,92.7265,29.2,75,0.0,1010.5,9.15,16.6,39,3.0,2.3,7,0,4,1,2026-04-10T21:27:02.927570+05:30
Haridwar,Uttarakhand,29.9457,78.1642,20.6,56,0.0,977.1,6.95,45.4,134,63.1,21.5,0,5,7,0,2026-04-10T21:27:02.927578+05:30
Rishikesh,Uttarakhand,30.0869,78.2676,18.5,65,0.0,969.6,7.0,37.1,146,44.2,19.0,3,5,7,0,2026-04-10T21:27:02.927585+05:30
Nainital,Uttarakhand,29.3919,79.4542,16.2,45,0.0,806.8,7.9,57.2,135,81.3,26.7,0,5,7,0,2026-04-10T21:27:02.927593+05:30
Mussoorie,Uttarakhand,30.4599,78.0664,13.8,60,0.0,802.7,7.4,37.8,135,25.6,20.8,0,5,7,0,2026-04-10T21:27:02.927600+05:30
Dharamshala,Himachal Pradesh,32.219,76.3234,17.2,59,0.0,871.9,7.6,24.8,146,19.4,13.7,0,5,7,0,2026-04-10T21:27:02.927606+05:30
Dalhousie,Himachal Pradesh,32.5387,75.971,13.7,62,0.0,805.1,7.85,19.4,121,27.1,22.7,3,5,7,0,2026-04-10T21:27:02.927614+05:30
Patiala,Punjab,30.3398,76.3869,22.4,48,0.0,982.9,7.0,38.5,679,875.4,101.3,0,5,7,0,2026-04-10T21:27:02.927621+05:30
Bhatinda,Punjab,30.211,74.9455,23.7,48,0.0,989.3,7.65,31.7,135,36.9,21.4,0,5,7,0,2026-04-10T21:27:02.927628+05:30
Rohtak,Haryana,28.8955,76.6066,23.4,47,0.0,986.4,7.15,38.5,970,1672.7,205.4,0,5,7,0,2026-04-10T21:27:02.927634+05:30
Panipat,Haryana,29.3909,76.9635,22.6,46,0.0,984.6,7.0,41.0,1830,2674.8,300.8,0,5,7,0,2026-04-10T21:27:02.927641+05:30
Mathura,Uttar Pradesh,27.4924,77.6737,25.0,42,0.0,991.3,7.45,34.2,1039,1706.2,200.7,4,5,7,0,2026-04-10T21:27:02.927648+05:30
Vrindavan,Uttar Pradesh,27.5823,77.7027,22.8,51,0.0,991.5,7.4,37.4,1039,1706.2,200.7,0,5,7,0,2026-04-10T21:27:02.927654+05:30
Ayodhya,Uttar Pradesh,26.7922,82.1998,24.1,41,0.0,998.3,7.8,49.7,122,230.5,46.4,0,5,7,0,2026-04-10T21:27:02.927661+05:30
Ratlam,Madhya Pradesh,23.3315,75.0367,25.7,46,0.0,958.5,8.3,32.4,121,33.8,18.9,4,5,7,0,2026-04-10T21:27:02.927668+05:30
Sagar,Madhya Pradesh,23.8388,78.7378,27.2,25,0.0,954.6,8.4,29.9,120,28.8,12.6,4,5,7,0,2026-04-10T21:27:02.927674+05:30
Satna,Madhya Pradesh,24.6005,80.8322,26.6,32,0.0,975.4,8.45,34.6,130,28.3,14.9,4,5,7,0,2026-04-10T21:27:02.927681+05:30
Akola,Maharashtra,20.7002,77.0082,31.1,21,0.0,977.7,8.7,24.5,144,71.2,40.6,0,5,7,0,2026-04-10T21:27:02.927688+05:30
Amravati,Maharashtra,20.9374,77.7796,30.7,41,0.0,969.9,8.7,28.4,140,65.7,35.3,0,5,7,0,2026-04-10T21:27:02.927696+05:30
Latur,Maharashtra,18.4088,76.5604,28.7,51,0.0,942.5,8.95,30.2,129,35.3,23.7,4,5,7,1,2026-04-10T21:27:02.927703+05:30
Nanded,Maharashtra,19.1383,77.3091,30.1,46,0.0,971.0,8.85,19.4,124,53.0,36.4,0,5,7,1,2026-04-10T21:27:02.927709+05:30
Gulbarga,Karnataka,17.3297,76.8343,33.3,32,0.0,960.7,9.05,26.3,129,33.2,22.4,0,5,7,0,2026-04-10T21:27:02.927716+05:30
Bidar,Karnataka,17.9104,77.5199,30.1,39,0.0,938.2,9.05,28.8,125,39.3,26.0,0,5,7,0,2026-04-10T21:27:02.927722+05:30
Hospet,Karnataka,15.2689,76.3909,33.7,39,0.0,957.4,9.25,23.4,169,41.3,29.3,0,5,7,1,2026-04-10T21:27:02.927729+05:30
Tirupur,Tamil Nadu,11.1085,77.3411,31.0,58,0.0,977.6,9.5,30.2,159,40.7,36.3,0,5,7,1,2026-04-10T21:27:02.927735+05:30
Alappuzha,Kerala,9.4981,76.3388,27.7,84,0.0,1012.1,9.2,26.6,75,42.1,25.8,7,0,4,1,2026-04-10T21:27:02.927742+05:30
Munnar,Kerala,10.0889,77.0595,22.7,96,0.0,859.9,8.1,31.3,105,36.0,33.4,3,5,7,1,2026-04-10T21:27:02.927749+05:30
Silchar,Assam,24.8333,92.7789,21.9,82,0.0,1008.3,8.55,25.9,128,76.1,62.2,3,0,4,1,2026-04-10T21:27:02.927755+05:30
Dibrugarh,Assam,27.4728,94.912,20.7,90,0.0,999.5,8.35,16.2,96,46.0,39.8,3,5,7,1,2026-04-10T21:27:02.927762+05:30
