city,state,latitude,longitude,temp,humidity,rain,pressure,uv_index,wind_gusts,aqi,pm10,pm2_5,no2,co,o3,so2,mosquito_risk,arthritis_risk,migraine_risk,frizz_risk,updated_at
Delhi,Delhi,28.6139,77.209,37.5,25,0.0,976.4,7.6,36.0,209,381.8,75.7,4.9,404.0,240.0,24.8,0,5,10,0,2026-05-02T14:40:31.204367+05:30
Mumbai,Maharashtra,19.076,72.8777,32.8,59,0.0,1006.2,7.9,42.1,73,64.5,25.5,4.1,200.0,106.0,17.3,0,5,4,1,2026-05-02T14:40:31.204409+05:30
Bangalore,Karnataka,12.9716,77.5946,33.9,28,0.0,910.2,9.5,33.1,82,32.6,16.9,3.4,300.0,153.0,3.8,0,5,7,0,2026-05-02T14:40:31.204430+05:30
Hyderabad,Telangana,17.385,78.4867,39.5,16,0.0,949.1,9.25,32.8,80,36.6,14.5,1.9,235.0,142.0,5.5,0,5,10,0,2026-05-02T14:40:31.204440+05:30
Chennai,Tamil Nadu,13.0827,80.2707,34.7,56,0.0,1002.5,9.2,54.7,65,26.1,20.1,2.6,230.0,156.0,6.6,0,5,4,1,2026-05-02T14:40:31.204450+05:30
Kolkata,West Bengal,22.5726,88.3639,29.8,68,0.0,1000.1,8.85,42.8,68,43.9,27.0,3.4,288.0,124.0,9.8,7,5,4,1,2026-05-02T14:40:31.204459+05:30
Pune,Maharashtra,18.5204,73.8567,36.0,26,0.0,946.3,8.5,48.6,59,73.3,18.7,1.5,171.0,108.0,3.1,0,5,10,0,2026-05-02T14:40:31.204469+05:30
Ahmedabad,Gujarat,23.0225,72.5714,42.3,18,0.0,995.4,8.1,51.1,55,92.4,20.7,1.7,168.0,124.0,4.4,0,5,10,0,2026-05-02T14:40:31.204480+05:30
Jaipur,Rajasthan,26.9124,75.7873,40.8,14,0.0,953.8,8.15,35.6,120,243.1,36.8,1.0,173.0,126.0,3.3,0,5,10,0,2026-05-02T14:40:31.204488+05:30
Lucknow,Uttar Pradesh,26.8467,80.9462,35.3,36,0.0,986.9,8.1,40.7,133,191.9,45.5,1.5,316.0,193.0,9.1,0,5,10,1,2026-05-02T14:40:31.204496+05:30
Kanpur,Uttar Pradesh,26.4499,80.3319,37.2,30,0.0,984.8,8.1,37.1,142,232.4,48.7,1.4,286.0,193.0,9.2,0,5,10,1,2026-05-02T14:40:31.204504+05:30
Chandigarh,Chandigarh,30.7333,76.7794,34.3,28,0.0,963.3,7.6,33.8,156,117.8,32.5,1.8,304.0,188.0,13.5,0,5,7,0,2026-05-02T14:40:31.204513+05:30
Srinagar,Jammu and Kashmir,34.0837,74.7973,22.0,46,0.0,839.7,8.8,36.0,71,13.0,7.7,1.5,337.0,148.0,2.1,0,5,7,0,2026-05-02T14:40:31.204522+05:30
Jammu,Jammu and Kashmir,32.7266,74.857,34.0,23,0.0,967.5,8.4,31.0,84,22.9,10.7,1.6,291.0,161.0,2.5,0,5,7,0,2026-05-02T14:40:31.204529+05:30
Amritsar,Punjab,31.634,74.8723,38.1,19,0.0,974.3,8.25,29.9,106,47.3,17.5,1.3,268.0,171.0,5.6,0,5,10,0,2026-05-02T14:40:31.204536+05:30
Ludhiana,Punjab,30.901,75.8573,37.3,21,0.0,972.7,7.85,36.0,157,206.8,44.2,1.2,295.0,174.0,7.9,0,5,10,0,2026-05-02T14:40:31.204544+05:30
Jalandhar,Punjab,31.326,75.5762,36.0,22,0.0,973.9,8.05,36.7,150,128.1,33.2,1.1,295.0,169.0,7.0,0,5,10,0,2026-05-02T14:40:31.204551+05:30
Dehradun,Uttarakhand,30.6284,78.0322,18.8,71,0.0,827.5,8.05,44.6,110,43.9,20.8,0.9,266.0,166.0,4.6,3,5,7,0,2026-05-02T14:40:31.204561+05:30
Shimla,Himachal Pradesh,31.1048,77.1734,19.7,42,0.0,783.3,8.15,44.6,115,35.4,17.2,1.0,198.0,177.0,12.9,0,5,7,0,2026-05-02T14:40:31.204568+05:30
Manali,Himachal Pradesh,32.2396,77.1887,17.3,57,0.0,814.8,10.3,39.2,120,9.5,5.2,0.8,168.0,169.0,0.2,0,5,7,0,2026-05-02T14:40:31.204575+05:30
Gurgaon,Haryana,28.4595,77.0266,37.3,20,0.0,975.1,7.7,26.6,828,629.6,85.2,3.7,317.0,194.0,14.2,0,5,10,0,2026-05-02T14:40:31.204581+05:30
Noida,Uttar Pradesh,28.5355,77.391,36.0,31,0.0,978.4,7.65,24.8,828,629.6,85.2,3.7,369.0,194.0,14.2,0,5,10,1,2026-05-02T14:40:31.204588+05:30
Ghaziabad,Uttar Pradesh,28.6692,77.4538,35.9,29,0.0,976.8,7.6,25.2,151,380.0,71.9,3.0,358.0,223.0,14.7,0,5,10,0,2026-05-02T14:40:31.204595+05:30
Faridabad,Haryana,28.4089,77.3178,36.8,27,0.0,977.3,7.65,26.3,828,629.6,85.2,3.7,316.0,194.0,14.2,0,5,10,0,2026-05-02T14:40:31.204602+05:30
Meerut,Uttar Pradesh,28.9845,77.7064,34.6,35,0.0,975.8,7.5,29.5,151,380.0,71.9,3.0,310.0,223.0,14.7,0,5,7,1,2026-05-02T14:40:31.204608+05:30
Agra,Uttar Pradesh,27.1767,78.0081,39.2,25,0.0,980.7,7.95,45.7,655,309.2,49.1,1.6,265.0,176.0,10.7,0,5,10,0,2026-05-02T14:40:31.204615+05:30
Varanasi,Uttar Pradesh,25.3176,82.9739,36.3,31,0.0,990.4,8.6,34.2,144,103.8,33.5,1.7,313.0,189.0,10.6,0,5,10,1,2026-05-02T14:40:31.204622+05:30
Prayagraj,Uttar Pradesh,25.4358,81.8463,37.3,30,0.0,988.8,8.5,37.1,151,122.0,34.5,1.6,304.0,195.0,8.6,0,5,10,1,2026-05-02T14:40:31.204636+05:30
Gorakhpur,Uttar Pradesh,26.7606,83.3732,32.8,41,0.0,991.6,8.45,31.3,113,65.4,27.2,1.5,318.0,182.0,5.2,0,5,7,1,2026-05-02T14:40:31.204643+05:30
Bareilly,Uttar Pradesh,28.367,79.4304,34.6,36,0.0,980.7,7.9,32.8,132,277.5,58.8,1.5,289.0,198.0,13.2,0,5,7,1,2026-05-02T14:40:31.204650+05:30
Aligarh,Uttar Pradesh,27.8974,78.088,37.2,30,0.0,979.0,7.75,30.6,419,408.9,63.6,1.8,278.0,185.0,12.0,0,5,10,1,2026-05-02T14:40:31.204657+05:30
Moradabad,Uttar Pradesh,28.8386,78.7733,34.5,34,0.0,977.8,7.7,31.3,132,231.9,53.6,2.1,304.0,202.0,19.7,0,5,7,1,2026-05-02T14:40:31.204663+05:30
Saharanpur,Uttar Pradesh,29.9637,77.546,32.8,40,0.0,970.3,7.35,31.7,132,159.7,40.9,1.9,293.0,198.0,12.2,0,5,7,1,2026-05-02T14:40:31.204668+05:30
Jhansi,Uttar Pradesh,25.4484,78.5685,40.8,16,0.0,970.7,8.4,43.2,73,82.7,19.4,1.0,165.0,124.0,5.9,0,5,10,0,2026-05-02T14:40:34.487938+05:30
Surat,Gujarat,21.1702,72.8311,34.5,53,0.0,1002.9,7.75,54.4,64,39.9,20.1,9.6,227.0,79.0,29.5,0,5,4,1,2026-05-02T14:40:34.487973+05:30
Vadodara,Gujarat,22.3072,73.1812,40.5,26,0.0,998.6,8.05,50.4,56,59.5,19.4,1.7,165.0,123.0,5.4,0,5,10,1,2026-05-02T14:40:34.487985+05:30
Rajkot,Gujarat,22.3039,70.8022,42.5,15,0.0,988.6,7.75,55.8,52,62.9,18.3,1.1,138.0,120.0,5.5,0,5,10,0,2026-05-02T14:40:34.487995+05:30
Thane,Maharashtra,19.2183,72.9781,35.3,46,0.0,1005.0,7.95,40.3,73,64.5,25.5,4.1,199.0,106.0,17.3,0,5,7,1,2026-05-02T14:40:34.488003+05:30
Nagpur,Maharashtra,21.1458,79.0882,41.7,14,0.0,967.4,8.95,63.0,81,42.1,14.6,3.3,166.0,144.0,12.2,0,5,10,0,2026-05-02T14:40:34.488013+05:30
Nashik,Maharashtra,19.9975,73.7898,36.2,29,0.0,943.5,8.25,45.4,65,48.9,18.3,1.0,156.0,114.0,4.8,0,5,10,0,2026-05-02T14:40:34.488022+05:30
Aurangabad,Maharashtra,19.8762,75.3433,39.7,15,0.0,940.9,9.05,40.3,57,82.7,20.2,0.9,157.0,111.0,2.4,0,5,10,0,2026-05-02T14:40:34.488031+05:30
Solapur,Maharashtra,17.6599,75.9064,41.1,13,0.0,953.1,9.05,41.0,52,51.9,15.1,1.0,147.0,117.0,1.8,0,5,10,0,2026-05-02T14:40:34.488040+05:30
Kolhapur,Maharashtra,16.705,74.2433,36.5,26,0.0,946.0,8.95,50.4,64,61.0,19.2,1.5,157.0,105.0,1.5,0,5,10,0,2026-05-02T14:40:34.488049+05:30
Goa,Goa,15.2993,74.124,35.1,45,0.0,995.8,8.95,40.7,70,65.4,18.3,0.6,140.0,81.0,1.0,0,5,10,1,2026-05-02T14:40:34.488058+05:30
Jodhpur,Rajasthan,26.2389,73.0243,41.5,20,0.0,975.5,8.35,37.8,128,295.2,40.9,0.8,157.0,123.0,2.8,0,5,10,0,2026-05-02T14:40:34.488067+05:30
Udaipur,Rajasthan,24.5854,73.7125,38.5,17,0.0,941.7,8.8,40.7,55,117.8,22.9,0.6,143.0,120.0,2.6,0,5,10,0,2026-05-02T14:40:34.488076+05:30
Kota,Rajasthan,25.2138,75.8648,41.2,21,0.0,972.1,8.35,40.3,61,110.8,23.8,0.8,168.0,125.0,3.1,0,5,10,0,2026-05-02T14:40:34.488085+05:30
Bikaner,Rajasthan,28.0229,73.3119,43.0,12,0.0,973.5,8.25,40.3,71,141.1,25.1,0.4,151.0,126.0,5.4,0,5,10,0,2026-05-02T14:40:34.488094+05:30
Ajmer,Rajasthan,26.4499,74.6399,40.1,13,0.0,948.8,8.3,43.6,61,75.0,19.4,0.6,151.0,116.0,2.7,0,5,10,0,2026-05-02T14:40:34.488101+05:30
Gwalior,Madhya Pradesh,26.2183,78.1828,40.1,20,0.0,975.9,8.2,44.6,97,81.3,22.7,0.9,208.0,146.0,4.5,0,5,10,0,2026-05-02T14:40:34.488108+05:30
Indore,Madhya Pradesh,22.7196,75.8577,39.7,14,0.0,943.7,8.65,53.3,58,73.6,20.0,0.9,175.0,114.0,3.6,0,5,10,0,2026-05-02T14:40:34.488115+05:30
Bhopal,Madhya Pradesh,23.2599,77.4126,38.2,20,0.0,948.9,8.7,60.1,64,63.1,16.9,0.7,167.0,110.0,3.0,0,5,10,0,2026-05-02T14:40:34.488123+05:30
Jabalpur,Madhya Pradesh,23.1815,79.9864,36.2,24,0.0,956.9,8.85,45.4,74,38.6,12.8,0.9,157.0,130.0,3.4,0,5,10,0,2026-05-02T14:40:34.488130+05:30
Ujjain,Madhya Pradesh,23.1765,75.7885,39.7,17,0.0,948.9,8.6,49.7,57,79.9,20.8,0.7,156.0,113.0,3.7,0,5,10,0,2026-05-02T14:40:34.488138+05:30
Visakhapatnam,Andhra Pradesh,17.6868,83.2185,33.8,63,0.0,998.7,9.1,59.0,64,22.9,18.6,5.9,286.0,99.0,7.6,3,5,7,1,2026-05-02T14:40:34.488145+05:30
Vijayawada,Andhra Pradesh,16.5062,80.648,40.0,34,0.0,996.4,9.2,34.2,103,35.5,21.3,2.0,220.0,176.0,7.3,0,5,10,1,2026-05-02T14:40:34.488153+05:30
Guntur,Andhra Pradesh,16.3067,80.4365,42.7,20,0.0,997.3,9.2,35.3,116,35.6,19.6,1.7,218.0,172.0,6.5,0,5,10,0,2026-05-02T14:40:34.488159+05:30
Nellore,Andhra Pradesh,14.4426,79.9865,38.8,39,0.0,999.6,9.2,49.3,107,35.5,18.0,1.9,281.0,171.0,5.2,0,5,10,1,2026-05-02T14:40:34.488167+05:30
Kurnool,Andhra Pradesh,15.8281,78.0373,42.1,14,0.0,971.9,9.2,32.8,57,35.3,16.5,1.2,167.0,154.0,7.6,0,5,10,0,2026-05-02T14:40:34.488174+05:30
Kakinada,Andhra Pradesh,16.9891,82.2475,36.2,49,0.0,1002.5,9.15,43.6,53,20.1,14.4,1.1,218.0,102.0,2.4,0,5,7,1,2026-05-02T14:40:34.488181+05:30
Tirupati,Andhra Pradesh,13.6288,79.4192,42.0,18,0.0,985.5,9.3,38.9,93,31.3,16.1,1.5,174.0,152.0,2.2,0,5,10,0,2026-05-02T14:40:34.488188+05:30
Warangal,Telangana,17.9689,79.5941,41.0,17,0.0,973.4,9.15,32.4,101,39.8,19.6,1.5,196.0,158.0,9.0,0,5,10,0,2026-05-02T14:40:34.488195+05:30
Nizamabad,Telangana,18.6725,78.0941,40.5,15,0.0,960.1,9.1,31.7,67,42.7,16.6,1.2,175.0,127.0,2.3,0,5,10,0,2026-05-02T14:40:34.488202+05:30
Mysore,Karnataka,12.2958,76.6396,36.0,24,0.0,926.8,9.4,48.6,77,31.4,14.5,1.8,188.0,133.0,1.3,0,5,10,0,2026-05-02T14:40:34.488208+05:30
Mangalore,Karnataka,12.9141,74.856,33.2,53,0.0,1004.5,9.05,43.6,67,24.7,14.1,0.9,138.0,88.0,1.1,0,5,4,1,2026-05-02T14:40:34.488216+05:30
Hubli-Dharwad,Karnataka,15.3647,75.124,36.5,24,0.0,938.8,9.2,52.6,57,49.7,16.2,1.3,158.0,111.0,1.3,0,5,10,0,2026-05-02T14:40:34.488222+05:30
Belgaum,Karnataka,15.8497,74.4977,34.3,29,0.0,924.8,9.2,49.0,60,60.5,17.6,1.2,152.0,97.0,1.7,0,5,7,0,2026-05-02T14:40:37.759255+05:30
Coimbatore,Tamil Nadu,11.0168,76.9558,32.2,53,0.0,959.8,9.05,52.6,69,22.9,18.1,2.0,241.0,133.0,2.0,0,5,7,1,2026-05-02T14:40:37.759287+05:30
Madurai,Tamil Nadu,9.9252,78.1198,40.2,27,0.0,988.9,9.2,51.1,102,26.0,20.3,2.2,249.0,184.0,3.4,0,5,10,1,2026-05-02T14:40:37.759330+05:30
Trichy,Tamil Nadu,10.7905,78.7047,38.7,33,0.0,995.0,9.2,56.2,83,24.3,20.1,1.8,247.0,172.0,3.5,0,5,10,1,2026-05-02T14:40:37.759339+05:30
Salem,Tamil Nadu,11.6643,78.146,39.6,26,0.0,973.2,9.25,61.6,113,33.6,24.9,2.7,240.0,193.0,8.2,0,5,10,1,2026-05-02T14:40:37.759348+05:30
Tirunelveli,Tamil Nadu,8.7139,77.7567,35.5,43,0.0,1000.5,9.1,33.5,58,17.7,13.5,1.4,208.0,122.0,0.7,0,5,7,1,2026-05-02T14:40:37.759356+05:30
Vellore,Tamil Nadu,12.9165,79.1325,41.5,17,0.0,979.4,9.3,44.6,113,32.1,23.4,1.6,210.0,167.0,3.2,0,5,10,0,2026-05-02T14:40:37.759364+05:30
Erode,Tamil Nadu,11.341,77.7172,41.2,24,0.0,984.3,9.25,62.3,90,28.9,21.0,2.0,249.0,168.0,1.8,0,5,10,1,2026-05-02T14:40:37.759371+05:30
Kochi,Kerala,9.9312,76.2673,29.5,79,0.0,1007.6,8.45,29.9,76,21.2,14.9,2.9,213.0,97.0,0.7,7,5,4,1,2026-05-02T14:40:37.759378+05:30
Thiruvananthapuram,Kerala,8.5241,76.9366,28.2,83,0.1,1007.0,8.1,34.6,49,14.4,9.8,1.1,178.0,99.0,0.9,10,5,4,1,2026-05-02T14:40:37.759386+05:30
Kozhikode,Kerala,11.2588,75.7804,30.5,77,0.0,1005.9,8.95,39.6,64,27.9,15.4,0.4,147.0,72.0,0.5,3,5,4,1,2026-05-02T14:40:37.759395+05:30
Thrissur,Kerala,10.5276,76.2144,31.7,66,0.1,1005.5,7.95,37.4,74,21.2,15.1,1.6,164.0,95.0,0.7,6,5,4,1,2026-05-02T14:40:37.759404+05:30
Kannur,Kerala,11.8745,75.3704,33.0,64,0.0,1004.7,9.0,50.4,78,27.0,15.7,0.9,142.0,87.0,0.7,3,5,4,1,2026-05-02T14:40:37.759411+05:30
Patna,Bihar,25.5941,85.1376,32.2,49,0.0,994.6,8.65,29.9,138,72.6,37.1,2.2,324.0,202.0,9.4,0,5,7,1,2026-05-02T14:40:37.759418+05:30
Gaya,Bihar,24.7914,85.0002,34.5,40,0.0,987.3,8.75,27.0,144,89.4,34.2,1.4,316.0,190.0,9.8,0,5,7,1,2026-05-02T14:40:37.759425+05:30
Muzaffarpur,Bihar,26.1209,85.3647,31.0,49,0.0,995.1,8.65,30.6,123,62.2,34.6,2.5,303.0,194.0,7.9,0,5,7,1,2026-05-02T14:40:37.759432+05:30
Bhagalpur,Bihar,25.2425,87.0117,30.5,50,0.0,996.0,8.65,29.9,138,88.2,55.1,4.0,342.0,220.0,8.6,0,5,7,1,2026-05-02T14:40:37.759440+05:30
Ranchi,Jharkhand,23.3441,85.3096,27.3,55,0.1,932.9,9.0,46.8,140,73.6,29.7,2.1,174.0,165.0,8.8,7,5,7,1,2026-05-02T14:40:37.759447+05:30
Jamshedpur,Jharkhand,22.8046,86.2029,34.0,32,0.0,985.4,9.0,45.4,144,99.7,55.9,3.5,311.0,258.0,26.9,0,5,7,0,2026-05-02T14:40:37.759454+05:30
Dhanbad,Jharkhand,23.7957,86.4304,29.4,64,0.0,974.5,9.0,29.5,146,117.6,81.5,19.8,343.0,272.0,79.2,7,5,7,1,2026-05-02T14:40:37.759461+05:30
Bokaro,Jharkhand,23.6693,86.1511,31.5,52,0.0,978.0,9.0,40.0,151,122.9,81.5,21.2,345.0,284.0,88.6,0,5,7,1,2026-05-02T14:40:37.759468+05:30
Bhubaneswar,Odisha,20.2961,85.8245,27.5,78,0.0,997.0,9.05,54.7,58,39.2,22.8,1.9,313.0,142.0,4.5,7,5,7,1,2026-05-02T14:40:37.759475+05:30
Cuttack,Odisha,20.4625,85.8828,31.3,62,0.0,998.9,9.1,49.7,58,39.2,22.8,1.9,280.0,142.0,4.5,3,5,7,1,2026-05-02T14:40:37.759482+05:30
Rourkela,Odisha,22.2604,84.8536,35.3,28,0.0,979.3,9.0,56.9,165,61.0,27.9,2.2,265.0,201.0,16.8,0,5,10,0,2026-05-02T14:40:37.759488+05:30
Raipur,Chhattisgarh,21.2514,81.6296,41.5,16,0.0,968.2,9.0,63.0,135,45.3,17.7,4.5,211.0,169.0,5.8,0,5,10,0,2026-05-02T14:40:37.759495+05:30
Bhilai,Chhattisgarh,21.1938,81.3509,40.3,17,0.0,968.8,9.0,51.5,114,46.4,17.3,4.6,331.0,157.0,5.7,0,5,10,0,2026-05-02T14:40:37.759502+05:30
Guwahati,Assam,26.1158,91.7086,21.9,91,0.1,997.6,4.3,22.0,60,27.5,18.9,1.8,293.0,126.0,1.7,6,5,3,1,2026-05-02T14:40:37.759509+05:30
Agartala,Tripura,23.8315,91.2868,24.5,88,0.0,1002.3,8.8,38.2,48,13.2,8.7,2.9,195.0,114.0,1.1,3,5,4,1,2026-05-02T14:40:37.759516+05:30
Shillong,Meghalaya,25.5788,91.8933,18.7,71,0.1,852.7,5.0,37.4,52,22.2,11.7,1.4,215.0,117.0,1.1,6,5,3,0,2026-05-02T14:40:37.759523+05:30
Imphal,Manipur,24.817,93.9368,24.5,62,0.1,919.6,5.75,30.2,58,18.0,7.8,0.9,214.0,106.0,1.0,6,5,3,1,2026-05-02T14:40:37.759530+05:30
Aizawl,Mizoram,23.7271,92.7176,18.0,88,0.1,889.0,9.0,43.6,36,12.9,8.1,0.8,157.0,101.0,0.2,6,10,7,0,2026-05-02T14:40:37.759537+05:30
Kohima,Nagaland,25.6701,94.1077,19.5,82,0.0,851.8,6.0,28.4,49,39.0,16.9,0.8,221.0,113.0,0.7,3,10,3,1,2026-05-02T14:40:37.759543+05:30
Gangtok,Sikkim,27.3314,88.6138,17.1,64,0.0,833.4,4.45,25.9,58,3.9,3.3,1.2,288.0,118.0,0.4,3,5,3,0,2026-05-02T14:40:37.759550+05:30
Siliguri,West Bengal,26.7271,88.3953,23.2,81,0.0,989.1,4.15,22.0,73,13.9,9.6,1.7,318.0,139.0,1.4,3,5,3,1,2026-05-02T14:40:41.030008+05:30
Durgapur,West Bengal,23.5204,87.3119,28.9,67,0.0,989.5,8.9,27.7,129,98.7,67.1,14.4,517.0,239.0,64.1,7,5,7,1,2026-05-02T14:40:41.030042+05:30
Asansol,West Bengal,23.6739,86.9524,31.1,56,0.0,988.0,8.95,27.7,129,105.7,72.9,13.7,384.0,248.0,64.2,0,5,7,1,2026-05-02T14:40:41.030053+05:30
Pondicherry,Puducherry,11.9139,79.8145,33.7,61,0.0,1003.8,9.15,56.5,81,25.5,20.7,1.8,202.0,155.0,6.9,3,5,4,1,2026-05-02T14:40:41.030062+05:30
Port Blair,Andaman and Nicobar Islands,11.6234,92.7265,34.2,48,0.0,1004.5,9.0,32.8,29,11.0,7.9,0.3,141.0,59.0,0.3,0,5,4,1,2026-05-02T14:40:41.030071+05:30
Haridwar,Uttarakhand,29.9457,78.1642,32.5,40,0.0,968.6,7.4,28.4,132,132.2,35.9,1.1,283.0,186.0,11.3,0,5,7,1,2026-05-02T14:40:41.030078+05:30
Rishikesh,Uttarakhand,30.0869,78.2676,30.1,49,0.0,961.8,7.5,29.2,142,112.2,32.1,0.7,280.0,182.0,10.7,0,5,7,1,2026-05-02T14:40:41.030086+05:30
Nainital,Uttarakhand,29.3919,79.4542,17.0,67,0.0,802.3,7.85,41.4,127,123.9,33.9,1.0,249.0,182.0,7.8,3,5,7,0,2026-05-02T14:40:41.030093+05:30
Mussoorie,Uttarakhand,30.4599,78.0664,16.1,68,0.0,799.9,7.9,47.9,150,111.8,36.2,1.2,243.0,194.0,11.7,3,5,7,0,2026-05-02T14:40:41.030101+05:30
Dharamshala,Himachal Pradesh,32.219,76.3234,24.2,37,0.0,866.2,8.25,46.1,103,14.3,6.8,0.5,189.0,155.0,0.8,0,5,7,0,2026-05-02T14:40:41.030110+05:30
Dalhousie,Himachal Pradesh,32.5387,75.971,20.7,38,0.0,802.9,8.5,42.8,110,16.4,8.2,1.2,186.0,159.0,1.8,0,5,7,0,2026-05-02T14:40:41.030121+05:30
Patiala,Punjab,30.3398,76.3869,36.7,22,0.0,972.1,7.5,33.1,395,502.9,73.8,1.3,283.0,191.0,14.4,0,5,10,0,2026-05-02T14:40:41.030129+05:30
Bhatinda,Punjab,30.211,74.9455,39.9,16,0.0,976.6,8.15,36.0,151,204.9,49.0,2.0,248.0,202.0,15.5,0,5,10,0,2026-05-02T14:40:41.030136+05:30
Rohtak,Haryana,28.8955,76.6066,38.8,21,0.0,975.0,7.65,27.7,420,378.1,66.1,2.0,307.0,195.0,9.6,0,5,10,0,2026-05-02T14:40:41.030143+05:30
Panipat,Haryana,29.3909,76.9635,36.5,29,0.0,974.2,7.5,26.3,547,521.5,83.8,3.0,312.0,221.0,20.5,0,5,10,0,2026-05-02T14:40:41.030150+05:30
Mathura,Uttar Pradesh,27.4924,77.6737,38.0,27,0.0,979.9,7.9,35.6,641,410.7,58.4,1.5,263.0,174.0,8.0,0,5,10,0,2026-05-02T14:40:41.030157+05:30
Vrindavan,Uttar Pradesh,27.5823,77.7027,37.8,27,0.0,980.3,7.85,31.7,641,410.7,58.4,1.5,264.0,174.0,8.0,0,5,10,0,2026-05-02T14:40:41.030164+05:30
Ayodhya,Uttar Pradesh,26.7922,82.1998,33.7,38,0.0,989.1,8.25,31.3,119,96.2,28.4,1.2,318.0,179.0,5.8,0,5,7,1,2026-05-02T14:40:41.030171+05:30
Ratlam,Madhya Pradesh,23.3315,75.0367,39.2,19,0.0,950.2,8.55,47.9,56,66.8,19.0,0.6,146.0,114.0,3.6,0,5,10,0,2026-05-02T14:40:41.030178+05:30
Sagar,Madhya Pradesh,23.8388,78.7378,33.9,28,0.0,945.6,8.7,53.6,56,53.0,15.6,0.6,147.0,117.0,3.2,0,5,7,0,2026-05-02T14:40:41.030185+05:30
Satna,Madhya Pradesh,24.6005,80.8322,38.5,19,0.0,964.5,8.7,66.6,122,51.2,19.8,1.0,166.0,166.0,8.5,0,5,10,0,2026-05-02T14:40:41.030192+05:30
Akola,Maharashtra,20.7002,77.0082,41.0,18,0.0,969.8,8.9,45.0,52,42.3,13.7,1.2,154.0,127.0,8.5,0,5,10,0,2026-05-02T14:40:41.030199+05:30
Amravati,Maharashtra,20.9374,77.7796,41.0,16,0.0,962.2,8.9,42.5,52,38.4,12.8,1.3,148.0,131.0,7.1,0,5,10,0,2026-05-02T14:40:41.030206+05:30
Latur,Maharashtra,18.4088,76.5604,40.4,11,0.0,936.3,9.05,32.8,57,49.9,14.3,0.8,141.0,115.0,3.5,0,5,10,0,2026-05-02T14:40:41.030214+05:30
Nanded,Maharashtra,19.1383,77.3091,42.1,13,0.0,963.5,8.95,31.3,57,49.7,14.5,0.9,155.0,119.0,1.4,0,5,10,0,2026-05-02T14:40:41.030220+05:30
Gulbarga,Karnataka,17.3297,76.8343,40.8,15,0.0,954.4,9.1,41.8,53,41.0,14.4,1.3,153.0,129.0,3.0,0,5,10,0,2026-05-02T14:40:41.030227+05:30
Bidar,Karnataka,17.9104,77.5199,39.8,14,0.0,932.1,9.1,34.9,64,39.5,14.1,1.3,154.0,130.0,4.0,0,5,10,0,2026-05-02T14:40:41.030234+05:30
Hospet,Karnataka,15.2689,76.3909,38.2,17,0.0,952.7,9.2,45.4,53,43.3,15.1,1.4,167.0,126.0,1.5,0,5,10,0,2026-05-02T14:40:41.030240+05:30
Tirupur,Tamil Nadu,11.1085,77.3411,39.3,27,0.0,971.5,9.2,48.2,95,27.5,20.7,2.1,231.0,161.0,2.4,0,5,10,1,2026-05-02T14:40:41.030247+05:30
Alappuzha,Kerala,9.4981,76.3388,30.4,73,0.0,1007.3,8.2,26.3,70,25.3,16.4,2.3,172.0,103.0,2.1,3,5,4,1,2026-05-02T14:40:41.030254+05:30
Munnar,Kerala,10.0889,77.0595,20.2,88,0.0,856.9,8.8,24.8,57,20.3,16.1,1.1,214.0,132.0,1.1,3,5,7,1,2026-05-02T14:40:41.030262+05:30
Silchar,Assam,24.8333,92.7789,26.6,68,0.0,1001.8,8.5,27.7,61,17.8,9.4,1.2,216.0,95.0,1.3,7,5,4,1,2026-05-02T14:40:41.030269+05:30
Dibrugarh,Assam,27.4728,94.912,25.0,74,0.0,992.8,7.3,22.7,61,28.9,13.7,1.4,246.0,126.0,0.9,7,5,7,1,2026-05-02T14:40:41.030276+05:30
