city,state,latitude,longitude,temp,humidity,rain,pressure,uv_index,wind_gusts,aqi,pm10,pm2_5,mosquito_risk,arthritis_risk,migraine_risk,frizz_risk,updated_at
Delhi,Delhi,28.6139,77.209,24.0,52,0.0,987.0,5.75,29.9,156,190.0,80.6,0,5,3,0,2026-03-01T10:26:37.956703+05:30
Mumbai,Maharashtra,19.076,72.8777,25.5,75,0.0,1011.9,7.3,23.8,71,45.4,26.7,7,0,4,1,2026-03-01T10:26:37.956748+05:30
Bangalore,Karnataka,12.9716,77.5946,26.0,56,0.0,914.3,9.05,29.2,149,59.3,57.7,4,5,7,1,2026-03-01T10:26:37.956763+05:30
Hyderabad,Telangana,17.385,78.4867,28.4,51,0.0,956.5,8.3,27.4,121,49.8,48.9,4,5,7,1,2026-03-01T10:26:37.956774+05:30
Chennai,Tamil Nadu,13.0827,80.2707,30.1,60,0.0,1010.5,8.75,33.8,150,56.2,52.4,0,0,4,1,2026-03-01T10:26:37.956783+05:30
Kolkata,West Bengal,22.5726,88.3639,28.3,72,0.0,1008.2,7.6,25.2,83,35.6,33.4,7,0,4,1,2026-03-01T10:26:37.956793+05:30
Pune,Maharashtra,18.5204,73.8567,25.8,49,0.0,951.1,7.85,33.8,78,29.2,25.9,4,5,7,0,2026-03-01T10:26:37.956807+05:30
Ahmedabad,Gujarat,23.0225,72.5714,26.3,56,0.0,1006.8,7.05,21.2,98,45.6,23.1,4,5,4,1,2026-03-01T10:26:37.956816+05:30
Jaipur,Rajasthan,26.9124,75.7873,27.8,30,0.0,963.9,6.45,28.4,85,106.2,39.8,4,5,7,0,2026-03-01T10:26:37.956823+05:30
Lucknow,Uttar Pradesh,26.8467,80.9462,25.8,50,0.0,997.0,6.2,39.2,133,97.6,47.4,4,5,7,0,2026-03-01T10:26:37.956831+05:30
Kanpur,Uttar Pradesh,26.4499,80.3319,25.4,56,0.0,995.7,6.2,31.0,151,173.7,56.3,4,5,7,0,2026-03-01T10:26:37.956838+05:30
Chandigarh,Chandigarh,30.7333,76.7794,22.3,53,0.0,971.7,5.6,32.4,91,51.7,32.8,0,5,3,0,2026-03-01T10:26:37.956845+05:30
Srinagar,Jammu and Kashmir,34.0837,74.7973,11.7,43,0.0,843.2,6.4,14.8,150,86.1,62.9,0,5,7,1,2026-03-01T10:26:37.956852+05:30
Jammu,Jammu and Kashmir,32.7266,74.857,22.6,55,0.0,975.8,6.15,25.2,97,44.6,39.5,0,5,7,0,2026-03-01T10:26:37.956860+05:30
Amritsar,Punjab,31.634,74.8723,21.8,67,0.0,984.5,6.1,22.0,134,93.4,71.7,3,5,7,0,2026-03-01T10:26:37.956868+05:30
Ludhiana,Punjab,30.901,75.8573,22.1,67,0.0,982.6,5.8,27.4,153,86.8,76.4,3,5,3,0,2026-03-01T10:26:37.956875+05:30
Jalandhar,Punjab,31.326,75.5762,21.7,69,0.0,983.6,5.95,24.5,154,105.5,83.8,3,5,3,0,2026-03-01T10:26:37.956884+05:30
Dehradun,Uttarakhand,30.6284,78.0322,16.1,33,0.0,830.5,5.95,35.6,65,29.7,12.7,0,5,3,1,2026-03-01T10:26:37.956891+05:30
Shimla,Himachal Pradesh,31.1048,77.1734,14.7,42,0.0,785.5,6.0,51.8,71,43.2,17.5,0,5,3,0,2026-03-01T10:26:37.956898+05:30
Manali,Himachal Pradesh,32.2396,77.1887,15.4,8,0.0,819.2,7.3,34.9,50,18.5,12.2,0,5,7,1,2026-03-01T10:26:37.956906+05:30
Gurgaon,Haryana,28.4595,77.0266,23.6,59,0.0,985.6,5.85,28.1,237,599.8,123.4,0,5,3,0,2026-03-01T10:26:37.956912+05:30
Noida,Uttar Pradesh,28.5355,77.391,24.7,51,0.0,988.5,5.75,29.5,237,599.8,123.4,0,5,3,0,2026-03-01T10:26:37.956919+05:30
Ghaziabad,Uttar Pradesh,28.6692,77.4538,23.1,60,0.0,986.5,5.7,28.1,152,190.0,74.7,0,5,3,0,2026-03-01T10:26:37.956925+05:30
Faridabad,Haryana,28.4089,77.3178,23.9,59,0.0,987.8,5.75,26.3,237,599.8,123.4,0,5,3,0,2026-03-01T10:26:37.956932+05:30
Meerut,Uttar Pradesh,28.9845,77.7064,23.5,61,0.0,985.0,5.6,33.1,152,190.0,74.7,3,5,3,0,2026-03-01T10:26:37.956939+05:30
Agra,Uttar Pradesh,27.1767,78.0081,24.7,57,0.0,992.2,6.05,22.3,154,335.3,92.0,0,5,7,0,2026-03-01T10:26:37.956946+05:30
Varanasi,Uttar Pradesh,25.3176,82.9739,27.0,61,0.0,1000.8,6.85,30.6,131,75.2,50.2,7,5,4,1,2026-03-01T10:26:37.956956+05:30
Prayagraj,Uttar Pradesh,25.4358,81.8463,26.3,63,0.0,999.3,6.75,27.0,130,88.0,61.0,7,5,7,1,2026-03-01T10:26:37.956963+05:30
Gorakhpur,Uttar Pradesh,26.7606,83.3732,25.3,65,0.0,1000.3,6.55,33.1,122,95.2,57.6,7,5,4,1,2026-03-01T10:26:37.956970+05:30
Bareilly,Uttar Pradesh,28.367,79.4304,22.9,65,0.0,989.9,5.9,34.2,125,72.2,55.2,3,5,3,0,2026-03-01T10:26:37.956979+05:30
Aligarh,Uttar Pradesh,27.8974,78.088,24.0,57,0.0,989.7,5.8,28.4,155,326.0,92.0,0,5,3,0,2026-03-01T10:26:37.956985+05:30
Moradabad,Uttar Pradesh,28.8386,78.7733,22.5,66,0.0,986.8,5.7,33.5,131,75.2,56.8,3,5,3,0,2026-03-01T10:26:37.956994+05:30
Saharanpur,Uttar Pradesh,29.9637,77.546,21.4,60,0.0,978.7,5.35,41.0,137,89.2,66.8,0,5,3,0,2026-03-01T10:26:37.957000+05:30
Jhansi,Uttar Pradesh,25.4484,78.5685,27.0,57,0.0,982.1,6.65,24.5,68,59.4,26.9,4,5,7,1,2026-03-01T10:26:41.200302+05:30
Surat,Gujarat,21.1702,72.8311,26.4,60,0.0,1010.9,6.95,27.0,94,65.9,47.5,4,0,4,1,2026-03-01T10:26:41.200329+05:30
Vadodara,Gujarat,22.3072,73.1812,27.4,51,0.0,1009.0,7.1,13.0,112,39.3,29.7,4,0,4,1,2026-03-01T10:26:41.200338+05:30
Rajkot,Gujarat,22.3039,70.8022,24.7,69,0.0,998.8,6.9,23.4,62,57.2,21.0,3,5,7,1,2026-03-01T10:26:41.200345+05:30
Thane,Maharashtra,19.2183,72.9781,27.0,60,0.0,1011.4,7.25,36.0,71,45.4,26.7,4,0,4,1,2026-03-01T10:26:41.200352+05:30
Nagpur,Maharashtra,21.1458,79.0882,29.4,40,0.0,976.4,7.65,28.8,137,30.3,29.6,4,5,7,0,2026-03-01T10:26:41.200359+05:30
Nashik,Maharashtra,19.9975,73.7898,25.5,43,0.0,948.6,7.45,25.6,78,31.7,27.0,4,5,7,0,2026-03-01T10:26:41.200365+05:30
Aurangabad,Maharashtra,19.8762,75.3433,27.4,38,0.0,947.3,8.0,25.6,61,30.5,27.4,4,5,7,0,2026-03-01T10:26:41.200371+05:30
Solapur,Maharashtra,17.6599,75.9064,26.0,53,0.0,960.1,8.25,19.8,75,19.4,18.6,4,5,7,0,2026-03-01T10:26:41.200378+05:30
Kolhapur,Maharashtra,16.705,74.2433,25.7,46,0.0,950.4,8.35,38.9,62,27.9,24.7,4,5,7,0,2026-03-01T10:26:41.200385+05:30
Goa,Goa,15.2993,74.124,28.6,52,0.0,1000.7,8.4,35.3,52,20.5,15.1,4,5,4,1,2026-03-01T10:26:41.200391+05:30
Jodhpur,Rajasthan,26.2389,73.0243,25.8,52,0.0,987.1,6.75,18.4,72,75.4,24.2,4,5,7,0,2026-03-01T10:26:41.200398+05:30
Udaipur,Rajasthan,24.5854,73.7125,26.4,40,0.0,950.2,7.35,25.2,60,19.9,12.7,4,5,7,0,2026-03-01T10:26:41.200405+05:30
Kota,Rajasthan,25.2138,75.8648,26.2,52,0.0,983.1,6.8,19.8,74,28.1,25.1,4,5,7,0,2026-03-01T10:26:41.200411+05:30
Bikaner,Rajasthan,28.0229,73.3119,26.8,35,0.0,985.7,6.45,16.2,63,36.7,21.4,4,5,7,0,2026-03-01T10:26:41.200417+05:30
Ajmer,Rajasthan,26.4499,74.6399,24.8,53,0.0,958.4,6.7,17.6,75,36.1,19.8,0,5,7,0,2026-03-01T10:26:41.200423+05:30
Gwalior,Madhya Pradesh,26.2183,78.1828,26.4,53,0.0,987.4,6.35,25.9,95,178.3,55.5,4,5,7,1,2026-03-01T10:26:41.200428+05:30
Indore,Madhya Pradesh,22.7196,75.8577,25.3,53,0.0,951.8,7.35,22.3,71,25.7,22.6,4,5,7,0,2026-03-01T10:26:41.200434+05:30
Bhopal,Madhya Pradesh,23.2599,77.4126,25.1,55,0.0,957.5,7.2,24.1,65,22.5,20.8,4,5,7,0,2026-03-01T10:26:41.200441+05:30
Jabalpur,Madhya Pradesh,23.1815,79.9864,27.7,52,0.0,964.8,7.3,32.8,108,18.6,18.5,4,5,7,1,2026-03-01T10:26:41.200446+05:30
Ujjain,Madhya Pradesh,23.1765,75.7885,25.9,55,0.0,957.5,7.25,20.5,82,23.3,20.4,4,5,7,1,2026-03-01T10:26:41.200453+05:30
Visakhapatnam,Andhra Pradesh,17.6868,83.2185,30.4,55,0.0,1006.6,8.3,39.2,136,71.7,69.2,0,5,4,1,2026-03-01T10:26:41.200459+05:30
Vijayawada,Andhra Pradesh,16.5062,80.648,27.7,73,0.0,1006.2,8.4,25.6,150,59.0,56.0,7,5,4,1,2026-03-01T10:26:41.200465+05:30
Guntur,Andhra Pradesh,16.3067,80.4365,28.8,68,0.0,1007.1,8.4,27.4,142,57.0,54.8,7,5,4,1,2026-03-01T10:26:41.200500+05:30
Nellore,Andhra Pradesh,14.4426,79.9865,30.7,53,0.0,1009.1,8.6,32.0,140,55.8,53.7,0,0,4,1,2026-03-01T10:26:41.200514+05:30
Kurnool,Andhra Pradesh,15.8281,78.0373,31.1,42,0.0,979.8,8.4,22.0,110,53.8,53.0,0,5,7,1,2026-03-01T10:26:41.200522+05:30
Kakinada,Andhra Pradesh,16.9891,82.2475,30.7,54,0.0,1010.8,8.35,34.2,145,65.0,60.3,0,0,4,1,2026-03-01T10:26:41.200528+05:30
Tirupati,Andhra Pradesh,13.6288,79.4192,30.1,41,0.0,995.0,8.75,30.6,152,57.3,54.9,0,5,7,0,2026-03-01T10:26:41.200534+05:30
Warangal,Telangana,17.9689,79.5941,27.6,68,0.0,981.9,8.1,27.7,129,53.9,53.0,7,5,7,1,2026-03-01T10:26:41.200541+05:30
Nizamabad,Telangana,18.6725,78.0941,29.1,48,0.0,968.2,8.0,20.9,125,45.3,44.8,4,5,7,1,2026-03-01T10:26:41.200546+05:30
Mysore,Karnataka,12.2958,76.6396,26.9,56,0.0,930.8,9.05,37.1,116,44.7,43.7,4,5,7,1,2026-03-01T10:26:41.200553+05:30
Mangalore,Karnataka,12.9141,74.856,27.9,72,0.0,1009.0,8.65,33.5,45,16.3,12.3,7,0,4,1,2026-03-01T10:26:41.200559+05:30
Hubli-Dharwad,Karnataka,15.3647,75.124,26.9,38,0.0,943.5,8.6,36.4,57,15.4,13.6,4,5,7,0,2026-03-01T10:26:41.200565+05:30
Belgaum,Karnataka,15.8497,74.4977,27.5,27,0.0,928.4,8.65,38.2,55,12.8,11.6,4,5,7,0,2026-03-01T10:26:44.442614+05:30
Coimbatore,Tamil Nadu,11.0168,76.9558,28.3,57,0.0,964.5,9.05,36.4,140,54.6,53.6,4,5,7,1,2026-03-01T10:26:44.442645+05:30
Madurai,Tamil Nadu,9.9252,78.1198,28.9,65,0.0,996.1,9.05,27.7,150,56.7,54.5,7,5,7,1,2026-03-01T10:26:44.442655+05:30
Trichy,Tamil Nadu,10.7905,78.7047,29.6,62,0.0,1003.0,8.9,26.6,151,53.1,50.3,7,5,4,1,2026-03-01T10:26:44.442663+05:30
Salem,Tamil Nadu,11.6643,78.146,30.8,48,0.0,980.2,8.95,25.6,148,55.2,53.2,0,5,7,1,2026-03-01T10:26:44.442670+05:30
Tirunelveli,Tamil Nadu,8.7139,77.7567,29.8,62,0.0,1006.1,9.05,43.9,138,53.4,52.0,7,5,4,1,2026-03-01T10:26:44.442686+05:30
Vellore,Tamil Nadu,12.9165,79.1325,30.3,37,0.0,987.8,8.85,38.5,155,64.7,62.4,0,5,7,0,2026-03-01T10:26:44.442700+05:30
Erode,Tamil Nadu,11.341,77.7172,30.3,55,0.0,992.1,8.95,26.6,135,57.0,55.1,0,5,7,1,2026-03-01T10:26:44.442714+05:30
Kochi,Kerala,9.9312,76.2673,27.7,79,0.0,1010.6,8.9,33.8,108,40.0,39.0,7,0,4,1,2026-03-01T10:26:44.442726+05:30
Thiruvananthapuram,Kerala,8.5241,76.9366,27.1,83,0.0,1009.9,8.95,23.8,92,34.0,32.8,7,0,4,1,2026-03-01T10:26:44.442737+05:30
Kozhikode,Kerala,11.2588,75.7804,29.2,64,0.0,1010.1,8.75,31.3,68,32.1,30.4,7,0,4,1,2026-03-01T10:26:44.442748+05:30
Thrissur,Kerala,10.5276,76.2144,30.8,62,0.0,1008.9,8.85,39.6,110,34.6,33.5,3,0,4,1,2026-03-01T10:26:44.442759+05:30
Kannur,Kerala,11.8745,75.3704,29.7,55,0.0,1009.3,8.75,38.2,50,15.8,12.4,4,0,4,1,2026-03-01T10:26:44.442769+05:30
Patna,Bihar,25.5941,85.1376,27.5,50,0.0,1003.5,7.0,30.2,115,75.7,53.8,4,5,4,1,2026-03-01T10:26:44.442780+05:30
Gaya,Bihar,24.7914,85.0002,27.6,55,0.0,997.1,7.1,21.2,95,53.4,38.5,4,5,7,1,2026-03-01T10:26:44.442790+05:30
Muzaffarpur,Bihar,26.1209,85.3647,27.0,53,0.0,1003.4,6.95,34.2,122,77.3,53.3,4,5,4,1,2026-03-01T10:26:44.442800+05:30
Bhagalpur,Bihar,25.2425,87.0117,27.3,60,0.0,1003.9,7.05,25.2,100,66.8,44.9,4,5,4,1,2026-03-01T10:26:44.442809+05:30
Ranchi,Jharkhand,23.3441,85.3096,26.3,33,0.0,940.5,7.8,27.7,81,37.3,30.4,4,5,7,0,2026-03-01T10:26:44.442819+05:30
Jamshedpur,Jharkhand,22.8046,86.2029,27.8,51,0.0,993.8,7.7,10.8,122,65.9,60.1,4,5,7,1,2026-03-01T10:26:44.442829+05:30
Dhanbad,Jharkhand,23.7957,86.4304,29.9,28,0.0,982.7,7.55,31.0,148,67.3,56.7,4,5,7,0,2026-03-01T10:26:44.442839+05:30
Bokaro,Jharkhand,23.6693,86.1511,29.7,28,0.0,986.7,7.55,30.6,145,67.3,57.0,4,5,7,0,2026-03-01T10:26:44.442849+05:30
Bhubaneswar,Odisha,20.2961,85.8245,30.5,56,0.0,1005.2,8.05,28.1,99,48.0,46.3,0,5,4,1,2026-03-01T10:26:44.442859+05:30
Cuttack,Odisha,20.4625,85.8828,30.4,57,0.0,1007.1,8.05,29.9,99,48.0,46.3,0,5,4,1,2026-03-01T10:26:44.442869+05:30
Rourkela,Odisha,22.2604,84.8536,29.0,42,0.0,988.1,7.6,22.3,110,55.4,53.2,4,5,7,0,2026-03-01T10:26:44.442879+05:30
Raipur,Chhattisgarh,21.2514,81.6296,30.8,42,0.0,977.5,7.75,27.4,157,80.3,79.9,0,5,7,1,2026-03-01T10:26:44.442889+05:30
Bhilai,Chhattisgarh,21.1938,81.3509,30.8,45,0.0,977.9,7.75,26.6,159,78.9,78.5,0,5,7,1,2026-03-01T10:26:44.442898+05:30
Guwahati,Assam,26.1158,91.7086,24.0,73,0.0,1005.0,7.0,32.0,163,87.5,68.9,3,5,4,1,2026-03-01T10:26:44.442908+05:30
Agartala,Tripura,23.8315,91.2868,27.6,66,0.0,1009.0,7.35,29.5,140,33.2,27.6,7,0,4,1,2026-03-01T10:26:44.442919+05:30
Shillong,Meghalaya,25.5788,91.8933,16.1,45,0.0,857.0,7.35,56.9,154,62.4,36.2,0,5,7,0,2026-03-01T10:26:44.442929+05:30
Imphal,Manipur,24.817,93.9368,20.4,45,0.0,924.9,7.55,54.0,151,64.3,39.2,0,5,7,0,2026-03-01T10:26:44.442939+05:30
Aizawl,Mizoram,23.7271,92.7176,22.6,43,0.0,895.4,7.5,40.0,123,57.0,31.8,0,5,7,0,2026-03-01T10:26:44.442949+05:30
Kohima,Nagaland,25.6701,94.1077,16.1,54,0.0,855.9,7.35,76.0,152,63.8,40.0,0,5,7,0,2026-03-01T10:26:44.442959+05:30
Gangtok,Sikkim,27.3314,88.6138,11.6,89,0.1,836.8,4.45,12.2,137,36.7,24.7,6,10,3,0,2026-03-01T10:26:44.442969+05:30
Siliguri,West Bengal,26.7271,88.3953,22.4,58,0.0,996.7,7.0,31.7,170,128.5,83.8,0,5,7,0,2026-03-01T10:26:47.686628+05:30
Durgapur,West Bengal,23.5204,87.3119,31.2,28,0.0,997.7,7.55,28.8,122,63.1,54.5,0,5,7,0,2026-03-01T10:26:47.686659+05:30
Asansol,West Bengal,23.6739,86.9524,31.2,26,0.0,996.1,7.55,28.1,105,55.6,45.9,0,5,7,0,2026-03-01T10:26:47.686668+05:30
Pondicherry,Puducherry,11.9139,79.8145,29.2,66,0.0,1011.8,8.8,29.2,143,56.6,52.6,7,0,4,1,2026-03-01T10:26:47.686677+05:30
Port Blair,Andaman and Nicobar Islands,11.6234,92.7265,27.8,62,0.0,1008.5,8.75,26.3,102,21.7,18.9,7,0,4,1,2026-03-01T10:26:47.686684+05:30
Haridwar,Uttarakhand,29.9457,78.1642,23.7,51,0.0,976.9,5.45,40.3,108,53.1,34.0,0,5,3,0,2026-03-01T10:26:47.686693+05:30
Rishikesh,Uttarakhand,30.0869,78.2676,24.2,46,0.0,969.4,5.5,37.1,89,52.7,30.6,0,5,3,0,2026-03-01T10:26:47.686700+05:30
Nainital,Uttarakhand,29.3919,79.4542,18.8,47,0.0,807.2,6.3,43.9,85,48.8,25.8,0,5,7,0,2026-03-01T10:26:47.686708+05:30
Mussoorie,Uttarakhand,30.4599,78.0664,17.0,37,0.0,803.4,5.85,41.8,88,45.6,25.1,0,5,3,0,2026-03-01T10:26:47.686715+05:30
Dharamshala,Himachal Pradesh,32.219,76.3234,19.8,41,0.0,870.3,6.05,27.7,59,12.0,6.0,0,5,7,0,2026-03-01T10:26:47.686722+05:30
Dalhousie,Himachal Pradesh,32.5387,75.971,18.5,17,0.0,805.4,6.25,28.8,90,28.5,19.8,0,5,7,1,2026-03-01T10:26:47.686730+05:30
Patiala,Punjab,30.3398,76.3869,22.4,66,0.0,981.9,5.5,29.9,154,242.1,75.0,3,5,3,0,2026-03-01T10:26:47.686737+05:30
Bhatinda,Punjab,30.211,74.9455,24.0,60,0.0,987.8,6.2,21.2,144,98.0,80.8,0,5,7,0,2026-03-01T10:26:47.686744+05:30
Rohtak,Haryana,28.8955,76.6066,23.6,57,0.0,985.9,5.7,29.2,159,164.8,77.5,0,5,3,0,2026-03-01T10:26:47.686750+05:30
Panipat,Haryana,29.3909,76.9635,23.3,62,0.0,984.1,5.5,29.9,286,470.3,107.3,3,5,3,0,2026-03-01T10:26:47.686757+05:30
Mathura,Uttar Pradesh,27.4924,77.6737,25.2,53,0.0,991.1,5.95,23.0,154,299.9,81.0,4,5,3,0,2026-03-01T10:26:47.686763+05:30
Vrindavan,Uttar Pradesh,27.5823,77.7027,24.7,56,0.0,991.4,5.95,25.6,154,299.9,81.0,0,5,3,0,2026-03-01T10:26:47.686769+05:30
Ayodhya,Uttar Pradesh,26.7922,82.1998,26.1,58,0.0,998.4,6.35,36.4,123,85.2,54.0,4,5,7,1,2026-03-01T10:26:47.686776+05:30
Ratlam,Madhya Pradesh,23.3315,75.0367,26.4,49,0.0,958.2,7.2,27.7,75,21.3,17.6,4,5,7,0,2026-03-01T10:26:47.686782+05:30
Sagar,Madhya Pradesh,23.8388,78.7378,26.5,52,0.0,953.7,7.15,19.1,55,18.7,14.2,4,5,7,0,2026-03-01T10:26:47.686789+05:30
Satna,Madhya Pradesh,24.6005,80.8322,28.1,48,0.0,974.8,7.1,28.4,100,38.5,33.1,4,5,7,1,2026-03-01T10:26:47.686795+05:30
Akola,Maharashtra,20.7002,77.0082,29.1,43,0.0,978.9,7.7,28.4,71,19.2,17.8,4,5,7,0,2026-03-01T10:26:47.686803+05:30
Amravati,Maharashtra,20.9374,77.7796,29.7,38,0.0,971.0,7.65,27.4,79,15.9,14.8,4,5,7,0,2026-03-01T10:26:47.686810+05:30
Latur,Maharashtra,18.4088,76.5604,27.0,44,0.0,942.9,8.15,25.6,75,18.6,17.5,4,5,7,0,2026-03-01T10:26:47.686816+05:30
Nanded,Maharashtra,19.1383,77.3091,28.3,44,0.0,972.3,7.9,15.5,78,19.7,18.6,4,5,7,0,2026-03-01T10:26:47.686822+05:30
Gulbarga,Karnataka,17.3297,76.8343,29.2,45,0.0,961.7,8.25,14.8,90,31.3,30.9,4,5,7,0,2026-03-01T10:26:47.686828+05:30
Bidar,Karnataka,17.9104,77.5199,28.2,48,0.0,938.6,8.2,19.1,110,35.7,35.3,4,5,7,1,2026-03-01T10:26:47.686835+05:30
Hospet,Karnataka,15.2689,76.3909,27.1,47,0.0,958.7,8.55,24.5,95,16.2,15.7,4,5,7,0,2026-03-01T10:26:47.686840+05:30
Tirupur,Tamil Nadu,11.1085,77.3411,29.1,60,0.0,978.1,9.05,20.5,150,63.1,61.7,4,5,7,1,2026-03-01T10:26:47.686846+05:30
Alappuzha,Kerala,9.4981,76.3388,27.7,79,0.0,1010.7,8.9,31.3,93,39.1,38.1,7,0,4,1,2026-03-01T10:26:47.686852+05:30
Munnar,Kerala,10.0889,77.0595,25.4,51,0.0,859.7,9.4,27.0,127,48.9,47.1,4,5,7,0,2026-03-01T10:26:47.686859+05:30
Silchar,Assam,24.8333,92.7789,26.8,55,0.0,1008.4,7.3,20.5,157,76.6,58.6,4,0,4,1,2026-03-01T10:26:47.686866+05:30
Dibrugarh,Assam,27.4728,94.912,19.1,84,0.1,999.9,7.05,13.7,156,98.3,86.4,6,10,7,1,2026-03-01T10:26:47.686872+05:30
