city,state,latitude,longitude,temp,humidity,rain,pressure,uv_index,wind_gusts,aqi,pm10,pm2_5,no2,co,o3,so2,mosquito_risk,arthritis_risk,migraine_risk,frizz_risk,updated_at
Delhi,Delhi,28.6139,77.209,28.2,59,0.0,977.9,7.65,33.8,244,212.8,70.1,26.6,714.0,89.0,22.0,4,5,7,1,2026-05-13T02:15:20.473843+05:30
Mumbai,Maharashtra,19.076,72.8777,29.5,82,0.0,1003.6,7.9,41.0,86,41.6,21.2,13.5,317.0,69.0,17.7,7,5,4,1,2026-05-13T02:15:20.473891+05:30
Bangalore,Karnataka,12.9716,77.5946,24.6,63,0.0,908.6,9.45,38.9,73,28.8,21.2,23.3,330.0,61.0,8.5,3,5,7,1,2026-05-13T02:15:20.473912+05:30
Hyderabad,Telangana,17.385,78.4867,27.8,64,0.0,950.2,9.3,31.7,65,19.1,15.6,9.1,254.0,71.0,5.3,7,5,7,1,2026-05-13T02:15:20.473923+05:30
Chennai,Tamil Nadu,13.0827,80.2707,28.8,77,0.0,1002.9,6.65,44.3,27,9.1,7.3,9.6,157.0,38.0,2.1,7,5,4,1,2026-05-13T02:15:20.473932+05:30
Kolkata,West Bengal,22.5726,88.3639,26.8,85,0.0,1003.5,8.95,30.2,80,22.4,19.2,10.4,224.0,39.0,4.7,7,5,4,1,2026-05-13T02:15:20.473942+05:30
Pune,Maharashtra,18.5204,73.8567,28.0,54,0.0,944.0,8.15,45.4,90,30.9,18.9,15.7,246.0,82.0,20.0,4,5,7,1,2026-05-13T02:15:20.473950+05:30
Ahmedabad,Gujarat,23.0225,72.5714,33.8,26,0.0,996.1,8.2,38.9,67,34.3,19.0,17.3,195.0,62.0,11.9,0,5,7,0,2026-05-13T02:15:20.473961+05:30
Jaipur,Rajasthan,26.9124,75.7873,31.0,29,0.0,954.7,8.2,38.5,161,271.9,67.3,7.7,408.0,108.0,9.1,0,5,7,0,2026-05-13T02:15:20.473969+05:30
Lucknow,Uttar Pradesh,26.8467,80.9462,28.6,58,0.0,989.3,8.15,56.2,119,56.2,45.1,10.4,441.0,113.0,10.5,4,5,7,1,2026-05-13T02:15:20.473978+05:30
Kanpur,Uttar Pradesh,26.4499,80.3319,30.0,53,0.0,987.1,8.15,39.6,138,285.9,62.9,7.6,446.0,118.0,9.7,4,5,7,1,2026-05-13T02:15:20.473985+05:30
Chandigarh,Chandigarh,30.7333,76.7794,23.4,70,0.0,964.0,7.7,34.6,127,58.9,44.2,38.5,1019.0,24.0,8.8,3,5,7,1,2026-05-13T02:15:20.473994+05:30
Srinagar,Jammu and Kashmir,34.0837,74.7973,10.4,99,0.0,840.9,8.75,31.7,87,40.9,30.4,15.1,473.0,58.0,1.3,3,10,7,0,2026-05-13T02:15:20.474004+05:30
Jammu,Jammu and Kashmir,32.7266,74.857,21.7,62,0.0,967.8,8.45,28.1,117,47.7,39.6,21.8,384.0,42.0,2.5,3,5,7,0,2026-05-13T02:15:20.474012+05:30
Amritsar,Punjab,31.634,74.8723,25.6,56,0.0,976.1,8.4,47.5,152,102.2,64.5,13.5,642.0,81.0,8.0,4,5,7,1,2026-05-13T02:15:20.474019+05:30
Ludhiana,Punjab,30.901,75.8573,26.6,65,0.0,974.0,7.95,65.5,158,129.5,101.3,31.3,749.0,58.0,24.7,7,5,7,1,2026-05-13T02:15:20.474027+05:30
Jalandhar,Punjab,31.326,75.5762,25.6,59,0.0,974.8,8.1,48.6,153,103.8,68.9,20.8,741.0,63.0,11.3,4,5,7,1,2026-05-13T02:15:20.474036+05:30
Dehradun,Uttarakhand,30.6284,78.0322,13.0,94,0.0,825.6,8.15,32.0,70,42.6,22.9,28.6,330.0,30.0,0.5,3,10,7,0,2026-05-13T02:15:20.474046+05:30
Shimla,Himachal Pradesh,31.1048,77.1734,11.2,49,0.0,779.5,8.2,40.0,90,50.6,28.9,30.7,372.0,37.0,3.1,0,5,7,0,2026-05-13T02:15:20.474054+05:30
Manali,Himachal Pradesh,32.2396,77.1887,8.8,48,0.0,812.1,9.3,42.1,48,2.7,1.9,22.4,209.0,95.0,0.0,0,5,7,1,2026-05-13T02:15:20.474060+05:30
Gurgaon,Haryana,28.4595,77.0266,27.0,65,0.0,976.0,7.75,31.0,928,802.8,121.5,23.1,746.0,93.0,21.4,7,5,7,1,2026-05-13T02:15:20.474068+05:30
Noida,Uttar Pradesh,28.5355,77.391,26.0,71,0.0,979.3,7.7,29.2,928,802.8,121.5,23.1,713.0,93.0,21.4,7,5,7,1,2026-05-13T02:15:20.474074+05:30
Ghaziabad,Uttar Pradesh,28.6692,77.4538,26.2,69,0.0,977.5,7.65,28.1,154,170.4,62.4,12.8,519.0,95.0,13.0,7,5,7,1,2026-05-13T02:15:20.474081+05:30
Faridabad,Haryana,28.4089,77.3178,27.1,64,0.0,978.6,7.75,31.7,928,802.8,121.5,23.1,787.0,93.0,21.4,7,5,7,1,2026-05-13T02:15:20.474088+05:30
Meerut,Uttar Pradesh,28.9845,77.7064,26.5,68,0.0,976.6,7.6,36.4,154,170.4,62.4,12.8,494.0,95.0,13.0,7,5,7,1,2026-05-13T02:15:20.474095+05:30
Agra,Uttar Pradesh,27.1767,78.0081,28.8,52,0.0,982.3,8.0,54.4,614,1151.1,147.1,9.3,444.0,102.0,16.0,4,5,7,1,2026-05-13T02:15:20.474103+05:30
Varanasi,Uttar Pradesh,25.3176,82.9739,29.0,67,0.0,993.5,8.7,30.6,135,65.4,58.2,9.1,417.0,136.0,17.0,7,5,7,1,2026-05-13T02:15:20.474110+05:30
Prayagraj,Uttar Pradesh,25.4358,81.8463,29.6,56,0.0,991.4,8.55,27.4,131,58.3,53.8,11.4,483.0,120.0,16.8,4,5,7,1,2026-05-13T02:15:20.474120+05:30
Gorakhpur,Uttar Pradesh,26.7606,83.3732,26.0,78,0.0,994.4,8.55,32.8,121,48.2,45.3,10.0,451.0,116.0,9.7,7,5,7,1,2026-05-13T02:15:20.474127+05:30
Bareilly,Uttar Pradesh,28.367,79.4304,26.5,70,0.0,982.6,7.95,29.9,124,63.1,48.7,11.1,456.0,95.0,7.1,7,5,7,1,2026-05-13T02:15:20.474136+05:30
Aligarh,Uttar Pradesh,27.8974,78.088,27.3,62,0.0,980.3,7.85,44.6,383,538.3,92.4,9.5,540.0,105.0,17.4,7,5,7,1,2026-05-13T02:15:20.474143+05:30
Moradabad,Uttar Pradesh,28.8386,78.7733,26.0,71,0.0,979.3,7.8,33.1,128,76.8,53.0,14.0,546.0,94.0,8.5,7,5,7,1,2026-05-13T02:15:20.474151+05:30
Saharanpur,Uttar Pradesh,29.9637,77.546,25.5,77,0.0,971.4,7.4,35.6,154,148.5,92.0,40.2,636.0,43.0,15.3,7,5,7,1,2026-05-13T02:15:20.474157+05:30
Jhansi,Uttar Pradesh,25.4484,78.5685,28.8,50,0.0,972.0,8.45,47.9,93,83.1,36.1,9.6,375.0,63.0,8.4,4,5,7,1,2026-05-13T02:15:23.724503+05:30
Surat,Gujarat,21.1702,72.8311,30.8,75,0.0,1000.2,6.2,41.8,97,26.8,18.6,23.6,284.0,48.0,37.3,3,5,4,1,2026-05-13T02:15:23.724559+05:30
Vadodara,Gujarat,22.3072,73.1812,32.6,45,0.0,997.6,5.9,36.7,75,26.4,18.5,13.6,244.0,64.0,14.4,0,5,3,1,2026-05-13T02:15:23.724572+05:30
Rajkot,Gujarat,22.3039,70.8022,28.2,72,0.0,989.2,7.75,53.3,53,23.3,11.8,5.4,170.0,64.0,7.2,7,5,7,1,2026-05-13T02:15:23.724582+05:30
Thane,Maharashtra,19.2183,72.9781,29.5,79,0.0,1003.0,7.9,35.6,86,41.6,21.2,13.5,225.0,69.0,17.7,7,5,4,1,2026-05-13T02:15:23.724592+05:30
Nagpur,Maharashtra,21.1458,79.0882,32.5,36,0.0,968.8,8.95,38.2,109,97.3,47.6,28.0,349.0,66.0,18.6,0,5,7,0,2026-05-13T02:15:23.724601+05:30
Nashik,Maharashtra,19.9975,73.7898,28.3,38,0.0,941.2,8.2,41.4,67,38.0,20.1,19.7,215.0,49.0,3.4,4,5,7,0,2026-05-13T02:15:23.724611+05:30
Aurangabad,Maharashtra,19.8762,75.3433,32.2,28,0.0,940.4,9.1,33.1,72,73.8,39.5,32.6,323.0,51.0,12.0,0,5,7,0,2026-05-13T02:15:23.724620+05:30
Solapur,Maharashtra,17.6599,75.9064,31.4,47,0.0,953.6,9.1,36.0,75,32.7,23.7,11.2,313.0,91.0,8.5,0,5,7,1,2026-05-13T02:15:23.724628+05:30
Kolhapur,Maharashtra,16.705,74.2433,25.0,85,0.0,944.6,9.0,40.7,67,32.9,20.2,13.9,214.0,52.0,5.4,7,5,7,1,2026-05-13T02:15:23.724637+05:30
Goa,Goa,15.2993,74.124,28.0,91,0.2,994.8,8.95,32.0,76,50.6,28.6,12.5,270.0,58.0,3.2,10,5,7,1,2026-05-13T02:15:23.724646+05:30
Jodhpur,Rajasthan,26.2389,73.0243,32.8,28,0.0,977.2,8.4,40.3,124,213.7,34.3,2.3,186.0,106.0,2.3,0,5,7,0,2026-05-13T02:15:23.724654+05:30
Udaipur,Rajasthan,24.5854,73.7125,31.4,27,0.0,942.0,8.85,46.1,71,31.1,14.9,1.8,194.0,106.0,2.5,0,5,7,0,2026-05-13T02:15:23.724663+05:30
Kota,Rajasthan,25.2138,75.8648,32.8,25,0.0,973.3,8.4,38.5,84,45.2,22.8,11.9,393.0,54.0,4.5,0,5,7,0,2026-05-13T02:15:23.724672+05:30
Bikaner,Rajasthan,28.0229,73.3119,28.5,52,0.0,975.4,8.35,25.2,95,140.2,46.8,3.4,273.0,108.0,6.6,4,5,7,1,2026-05-13T02:15:23.724680+05:30
Ajmer,Rajasthan,26.4499,74.6399,31.8,25,0.0,950.0,8.35,51.1,61,90.6,30.2,8.2,280.0,71.0,4.9,0,5,7,0,2026-05-13T02:15:23.724689+05:30
Gwalior,Madhya Pradesh,26.2183,78.1828,30.4,43,0.0,976.9,8.2,57.2,102,179.7,52.6,8.3,475.0,81.0,8.9,0,5,7,1,2026-05-13T02:15:23.724697+05:30
Indore,Madhya Pradesh,22.7196,75.8577,33.5,23,0.0,943.6,8.7,32.8,85,76.1,32.7,7.4,327.0,94.0,6.4,0,5,7,0,2026-05-13T02:15:23.724704+05:30
Bhopal,Madhya Pradesh,23.2599,77.4126,30.6,33,0.0,948.7,8.75,38.5,94,105.7,40.7,11.3,434.0,74.0,7.1,0,5,7,0,2026-05-13T02:15:23.724713+05:30
Jabalpur,Madhya Pradesh,23.1815,79.9864,29.5,37,0.0,956.9,8.85,36.4,98,100.4,43.8,32.3,303.0,38.0,6.9,4,5,7,0,2026-05-13T02:15:23.724721+05:30
Ujjain,Madhya Pradesh,23.1765,75.7885,33.1,24,0.0,949.0,8.65,35.6,88,86.8,43.8,11.9,356.0,61.0,7.1,0,5,7,0,2026-05-13T02:15:23.724729+05:30
Visakhapatnam,Andhra Pradesh,17.6868,83.2185,27.5,85,0.0,1000.4,9.15,40.0,64,28.2,25.0,22.6,1400.0,24.0,6.6,7,5,4,1,2026-05-13T02:15:23.724738+05:30
Vijayawada,Andhra Pradesh,16.5062,80.648,28.5,80,0.0,999.4,9.2,39.2,53,12.3,10.5,9.6,171.0,30.0,5.1,7,5,7,1,2026-05-13T02:15:23.724746+05:30
Guntur,Andhra Pradesh,16.3067,80.4365,28.5,79,0.0,1000.6,9.25,35.3,55,10.9,9.1,9.7,172.0,31.0,7.0,7,5,4,1,2026-05-13T02:15:23.724754+05:30
Nellore,Andhra Pradesh,14.4426,79.9865,27.2,86,0.0,1002.2,6.85,38.9,28,8.8,6.4,5.6,284.0,35.0,2.6,7,5,4,1,2026-05-13T02:15:23.724763+05:30
Kurnool,Andhra Pradesh,15.8281,78.0373,29.6,56,0.0,973.6,9.1,31.7,54,13.1,8.9,4.4,175.0,65.0,1.6,4,5,7,1,2026-05-13T02:15:23.724772+05:30
Kakinada,Andhra Pradesh,16.9891,82.2475,28.6,79,0.0,1004.0,9.0,39.6,23,8.5,4.9,1.2,174.0,47.0,0.5,7,5,4,1,2026-05-13T02:15:23.724780+05:30
Tirupati,Andhra Pradesh,13.6288,79.4192,26.0,87,0.0,987.7,8.65,33.8,52,20.4,18.2,28.2,282.0,5.0,3.9,7,5,7,1,2026-05-13T02:15:23.724789+05:30
Warangal,Telangana,17.9689,79.5941,28.0,73,0.0,975.1,7.9,35.3,64,16.4,14.5,8.9,208.0,66.0,10.1,7,5,7,1,2026-05-13T02:15:23.724797+05:30
Nizamabad,Telangana,18.6725,78.0941,30.0,50,0.0,960.7,9.15,31.7,73,36.2,26.5,10.1,265.0,86.0,5.5,4,5,7,1,2026-05-13T02:15:23.724805+05:30
Mysore,Karnataka,12.2958,76.6396,22.8,90,0.0,924.7,6.6,35.6,85,42.0,33.1,27.9,259.0,54.0,5.4,3,5,7,1,2026-05-13T02:15:23.724813+05:30
Mangalore,Karnataka,12.9141,74.856,25.6,97,0.0,1003.5,9.0,41.0,84,48.8,30.3,17.8,314.0,38.0,4.6,7,5,4,1,2026-05-13T02:15:23.724823+05:30
Hubli-Dharwad,Karnataka,15.3647,75.124,24.4,99,0.0,937.4,9.2,41.4,68,29.4,15.8,6.3,199.0,55.0,2.4,3,5,7,1,2026-05-13T02:15:23.724831+05:30
Belgaum,Karnataka,15.8497,74.4977,23.0,90,0.0,922.6,8.4,50.8,69,32.8,17.8,11.7,179.0,43.0,3.1,3,5,7,1,2026-05-13T02:15:26.969175+05:30
Coimbatore,Tamil Nadu,11.0168,76.9558,24.7,91,0.0,957.8,9.2,35.3,73,25.1,20.3,9.2,275.0,80.0,4.3,3,5,7,1,2026-05-13T02:15:26.969207+05:30
Madurai,Tamil Nadu,9.9252,78.1198,27.6,83,0.0,989.0,8.75,33.5,82,30.2,28.6,26.7,301.0,38.0,9.8,7,5,7,1,2026-05-13T02:15:26.969219+05:30
Trichy,Tamil Nadu,10.7905,78.7047,26.8,89,0.0,995.7,9.1,30.6,68,23.5,22.6,23.3,281.0,25.0,7.0,7,5,7,1,2026-05-13T02:15:26.969229+05:30
Salem,Tamil Nadu,11.6643,78.146,26.6,81,0.0,973.9,8.95,29.2,86,38.6,33.9,32.4,383.0,39.0,12.9,7,5,7,1,2026-05-13T02:15:26.969238+05:30
Tirunelveli,Tamil Nadu,8.7139,77.7567,27.9,77,0.0,998.8,7.75,23.0,73,19.4,17.9,10.4,363.0,58.0,1.6,7,5,7,1,2026-05-13T02:15:26.969247+05:30
Vellore,Tamil Nadu,12.9165,79.1325,25.9,85,0.0,980.9,7.7,33.1,69,31.8,29.5,29.9,291.0,13.0,13.3,7,5,7,1,2026-05-13T02:15:26.969256+05:30
Erode,Tamil Nadu,11.341,77.7172,27.2,73,0.0,985.2,9.15,27.0,93,39.0,33.3,34.1,308.0,40.0,10.2,7,5,7,1,2026-05-13T02:15:26.969265+05:30
Kochi,Kerala,9.9312,76.2673,26.9,99,0.0,1005.1,8.7,33.5,86,39.3,32.1,21.3,260.0,42.0,5.4,7,5,4,1,2026-05-13T02:15:26.969274+05:30
Thiruvananthapuram,Kerala,8.5241,76.9366,25.2,94,0.1,1004.6,8.05,33.8,61,26.5,16.3,3.8,254.0,95.0,2.3,10,5,4,1,2026-05-13T02:15:26.969282+05:30
Kozhikode,Kerala,11.2588,75.7804,24.5,99,0.0,1004.7,8.6,34.9,70,40.9,20.1,2.1,213.0,107.0,1.7,3,5,4,1,2026-05-13T02:15:26.969291+05:30
Thrissur,Kerala,10.5276,76.2144,25.0,99,0.0,1003.7,8.3,33.5,88,34.8,26.8,14.2,326.0,54.0,3.7,7,5,4,1,2026-05-13T02:15:26.969300+05:30
Kannur,Kerala,11.8745,75.3704,25.0,98,0.1,1003.9,8.6,35.3,81,52.5,41.1,33.3,279.0,32.0,3.7,10,5,4,1,2026-05-13T02:15:26.969309+05:30
Patna,Bihar,25.5941,85.1376,24.8,89,0.0,997.4,8.75,36.4,141,66.4,61.9,14.1,407.0,97.0,13.1,3,5,7,1,2026-05-13T02:15:26.969317+05:30
Gaya,Bihar,24.7914,85.0002,26.1,80,0.0,989.9,8.85,30.6,141,61.9,55.1,18.6,369.0,81.0,20.5,7,5,7,1,2026-05-13T02:15:26.969326+05:30
Muzaffarpur,Bihar,26.1209,85.3647,23.5,90,0.0,998.1,8.75,33.5,131,61.0,56.8,12.7,407.0,103.0,9.8,3,5,7,1,2026-05-13T02:15:26.969334+05:30
Bhagalpur,Bihar,25.2425,87.0117,23.0,97,0.1,999.2,8.75,32.8,136,48.4,38.8,10.2,262.0,106.0,10.0,6,5,7,1,2026-05-13T02:15:26.969342+05:30
Ranchi,Jharkhand,23.3441,85.3096,23.0,86,0.0,934.7,9.3,34.6,109,49.4,37.7,8.4,382.0,103.0,14.7,3,5,7,1,2026-05-13T02:15:26.969351+05:30
Jamshedpur,Jharkhand,22.8046,86.2029,26.1,80,0.0,988.1,9.15,27.0,95,25.5,22.1,15.8,363.0,39.0,22.0,7,5,7,1,2026-05-13T02:15:26.969359+05:30
Dhanbad,Jharkhand,23.7957,86.4304,25.5,89,0.0,976.7,9.1,25.6,145,59.0,54.2,52.6,302.0,24.0,60.7,7,5,7,1,2026-05-13T02:15:26.969367+05:30
Bokaro,Jharkhand,23.6693,86.1511,26.2,78,0.0,980.5,9.1,26.3,148,92.4,79.4,53.4,2573.0,36.0,64.9,7,5,7,1,2026-05-13T02:15:26.969375+05:30
Bhubaneswar,Odisha,20.2961,85.8245,26.6,87,0.0,999.9,9.0,38.9,56,14.3,11.4,8.4,200.0,39.0,2.6,7,5,7,1,2026-05-13T02:15:26.969383+05:30
Cuttack,Odisha,20.4625,85.8828,26.8,88,0.0,1001.8,9.05,41.8,56,14.3,11.4,8.4,226.0,39.0,2.6,7,5,4,1,2026-05-13T02:15:26.969391+05:30
Rourkela,Odisha,22.2604,84.8536,26.8,79,0.0,981.7,9.05,47.2,95,21.5,18.1,13.5,204.0,63.0,39.9,7,5,7,1,2026-05-13T02:15:26.969399+05:30
Raipur,Chhattisgarh,21.2514,81.6296,30.6,46,0.0,970.3,9.05,34.9,104,63.3,43.9,27.3,426.0,63.0,6.4,0,5,7,1,2026-05-13T02:15:26.969407+05:30
Bhilai,Chhattisgarh,21.1938,81.3509,30.2,50,0.0,970.7,9.05,37.1,99,56.0,38.8,29.7,460.0,66.0,7.0,0,5,7,1,2026-05-13T02:15:26.969415+05:30
Guwahati,Assam,26.1158,91.7086,22.5,92,0.0,1000.1,8.75,24.1,87,46.7,44.1,22.8,428.0,20.0,1.2,3,5,4,1,2026-05-13T02:15:26.969423+05:30
Agartala,Tripura,23.8315,91.2868,24.2,92,0.0,1004.5,8.9,20.9,104,40.0,38.1,25.7,375.0,50.0,3.9,3,5,4,1,2026-05-13T02:15:26.969431+05:30
Shillong,Meghalaya,25.5788,91.8933,14.4,95,0.0,853.9,6.45,25.9,70,29.4,27.6,10.0,295.0,72.0,1.6,3,10,7,0,2026-05-13T02:15:26.969440+05:30
Imphal,Manipur,24.817,93.9368,18.5,93,0.0,921.5,9.3,25.2,95,57.9,53.0,28.7,622.0,37.0,6.5,3,10,7,1,2026-05-13T02:15:26.969448+05:30
Aizawl,Mizoram,23.7271,92.7176,16.3,96,0.0,889.7,9.1,25.9,71,37.5,31.1,10.2,369.0,50.0,1.5,3,10,7,0,2026-05-13T02:15:26.969456+05:30
Kohima,Nagaland,25.6701,94.1077,14.1,98,0.0,852.2,8.65,25.9,60,26.2,23.3,10.7,302.0,53.0,0.9,3,10,7,0,2026-05-13T02:15:26.969465+05:30
Gangtok,Sikkim,27.3314,88.6138,12.9,84,0.0,834.1,8.8,33.8,62,16.5,14.8,14.1,473.0,83.0,1.0,3,10,7,0,2026-05-13T02:15:26.969473+05:30
Siliguri,West Bengal,26.7271,88.3953,22.0,96,0.0,991.5,8.65,30.2,123,62.9,56.0,34.7,551.0,58.0,5.8,3,5,7,1,2026-05-13T02:15:30.230758+05:30
Durgapur,West Bengal,23.5204,87.3119,25.0,91,0.0,992.0,9.0,35.6,112,25.6,23.3,20.4,238.0,39.0,23.9,7,5,7,1,2026-05-13T02:15:30.230790+05:30
Asansol,West Bengal,23.6739,86.9524,26.5,86,0.0,990.6,9.05,31.7,110,25.5,23.1,21.9,433.0,37.0,30.3,7,5,7,1,2026-05-13T02:15:30.230801+05:30
Pondicherry,Puducherry,11.9139,79.8145,27.0,92,0.0,1004.0,9.05,32.4,29,7.3,5.4,4.9,344.0,37.0,1.0,7,5,4,1,2026-05-13T02:15:30.230811+05:30
Port Blair,Andaman and Nicobar Islands,11.6234,92.7265,25.6,97,0.1,1003.5,6.65,39.2,23,2.1,1.4,0.3,97.0,44.0,0.1,10,5,4,1,2026-05-13T02:15:30.230821+05:30
Haridwar,Uttarakhand,29.9457,78.1642,23.5,81,0.0,969.6,7.5,29.2,149,120.6,73.3,30.4,421.0,45.0,10.9,3,5,7,1,2026-05-13T02:15:30.230830+05:30
Rishikesh,Uttarakhand,30.0869,78.2676,20.9,89,0.0,962.2,7.6,29.9,124,128.1,56.0,15.2,429.0,85.0,7.8,3,5,7,1,2026-05-13T02:15:30.230839+05:30
Nainital,Uttarakhand,29.3919,79.4542,12.5,90,0.0,801.6,8.45,52.6,117,78.9,48.3,22.0,323.0,57.0,5.5,3,10,7,0,2026-05-13T02:15:30.230847+05:30
Mussoorie,Uttarakhand,30.4599,78.0664,12.7,93,0.0,798.4,8.0,43.6,118,112.5,54.7,35.0,328.0,47.0,11.5,3,10,7,0,2026-05-13T02:15:30.230857+05:30
Dharamshala,Himachal Pradesh,32.219,76.3234,20.2,47,0.0,865.9,8.35,43.2,64,13.3,9.6,13.4,267.0,44.0,0.0,0,5,7,0,2026-05-13T02:15:30.230865+05:30
Dalhousie,Himachal Pradesh,32.5387,75.971,11.8,62,0.0,799.6,8.6,34.2,98,33.4,23.6,20.1,437.0,45.0,1.0,3,5,7,0,2026-05-13T02:15:30.230874+05:30
Patiala,Punjab,30.3398,76.3869,25.8,73,0.0,973.5,7.6,46.8,347,170.9,96.2,24.7,720.0,76.0,16.5,7,5,7,1,2026-05-13T02:15:30.230882+05:30
Bhatinda,Punjab,30.211,74.9455,27.8,58,0.0,978.4,8.25,41.4,414,275.7,86.8,9.0,437.0,96.0,13.4,4,5,7,1,2026-05-13T02:15:30.230891+05:30
Rohtak,Haryana,28.8955,76.6066,26.7,67,0.0,976.2,7.7,40.0,516,338.1,80.8,27.2,539.0,87.0,28.6,7,5,7,1,2026-05-13T02:15:30.230899+05:30
Panipat,Haryana,29.3909,76.9635,25.5,73,0.0,975.5,7.55,41.8,744,285.9,81.0,23.2,590.0,78.0,13.7,7,5,7,1,2026-05-13T02:15:30.230908+05:30
Mathura,Uttar Pradesh,27.4924,77.6737,27.5,58,0.0,981.4,7.95,62.3,571,760.0,112.7,10.8,463.0,100.0,15.4,4,5,7,1,2026-05-13T02:15:30.230916+05:30
Vrindavan,Uttar Pradesh,27.5823,77.7027,27.2,60,0.0,981.9,7.95,61.6,571,760.0,112.7,10.8,471.0,100.0,15.4,4,5,7,1,2026-05-13T02:15:30.230924+05:30
Ayodhya,Uttar Pradesh,26.7922,82.1998,27.0,70,0.0,991.8,8.3,30.6,137,45.3,41.8,10.3,459.0,112.0,9.2,7,5,7,1,2026-05-13T02:15:30.230933+05:30
Ratlam,Madhya Pradesh,23.3315,75.0367,31.2,29,0.0,949.8,8.55,39.2,68,39.2,25.2,6.4,247.0,76.0,5.9,0,5,7,0,2026-05-13T02:15:30.230941+05:30
Sagar,Madhya Pradesh,23.8388,78.7378,30.7,33,0.0,945.2,8.75,40.7,87,79.4,31.0,17.4,334.0,58.0,6.0,0,5,7,0,2026-05-13T02:15:30.230950+05:30
Satna,Madhya Pradesh,24.6005,80.8322,28.7,46,0.0,966.4,8.8,48.2,103,57.6,41.3,7.9,382.0,129.0,11.8,4,5,7,0,2026-05-13T02:15:30.230958+05:30
Akola,Maharashtra,20.7002,77.0082,34.0,30,0.0,969.9,8.9,32.4,83,83.8,38.2,26.2,336.0,54.0,5.5,0,5,7,0,2026-05-13T02:15:30.230967+05:30
Amravati,Maharashtra,20.9374,77.7796,32.2,37,0.0,962.6,8.95,27.7,84,93.6,44.7,34.5,331.0,48.0,7.8,0,5,7,0,2026-05-13T02:15:30.230975+05:30
Latur,Maharashtra,18.4088,76.5604,30.9,41,0.0,936.3,8.4,32.0,69,34.0,23.2,8.6,288.0,101.0,5.0,0,5,7,1,2026-05-13T02:15:30.230984+05:30
Nanded,Maharashtra,19.1383,77.3091,31.5,44,0.0,964.3,8.2,28.4,70,37.8,26.6,9.7,291.0,87.0,5.0,0,5,7,1,2026-05-13T02:15:30.230993+05:30
Gulbarga,Karnataka,17.3297,76.8343,30.0,46,0.0,955.1,9.0,27.7,68,34.7,22.4,13.7,301.0,87.0,8.6,4,5,7,1,2026-05-13T02:15:30.231001+05:30
Bidar,Karnataka,17.9104,77.5199,28.0,55,0.0,932.0,9.15,33.8,70,40.0,28.8,13.1,273.0,90.0,8.4,4,5,7,1,2026-05-13T02:15:30.231010+05:30
Hospet,Karnataka,15.2689,76.3909,27.0,71,0.0,952.6,9.1,44.3,74,36.1,25.7,22.2,352.0,60.0,8.1,7,5,7,1,2026-05-13T02:15:30.231018+05:30
Tirupur,Tamil Nadu,11.1085,77.3411,26.2,83,0.0,971.3,9.25,38.2,92,41.0,34.9,29.9,207.0,56.0,7.6,7,5,7,1,2026-05-13T02:15:30.231026+05:30
Alappuzha,Kerala,9.4981,76.3388,27.1,94,0.0,1005.2,7.85,33.5,75,44.7,28.5,11.0,183.0,73.0,4.1,7,5,4,1,2026-05-13T02:15:30.231034+05:30
Munnar,Kerala,10.0889,77.0595,16.9,77,0.0,852.9,9.15,27.0,73,29.3,26.0,11.0,310.0,50.0,0.9,3,5,7,0,2026-05-13T02:15:30.231043+05:30
Silchar,Assam,24.8333,92.7789,23.2,90,0.0,1003.5,8.9,23.0,103,69.8,65.2,25.5,646.0,54.0,9.5,3,5,4,1,2026-05-13T02:15:30.231052+05:30
Dibrugarh,Assam,27.4728,94.912,22.5,87,0.0,994.5,8.85,23.4,83,42.0,38.6,32.6,629.0,19.0,2.1,3,5,7,1,2026-05-13T02:15:30.231060+05:30
