city,state,latitude,longitude,temp,humidity,rain,pressure,uv_index,wind_gusts,aqi,pm10,pm2_5,no2,co,o3,so2,mosquito_risk,arthritis_risk,migraine_risk,frizz_risk,updated_at
Delhi,Delhi,28.6139,77.209,34.2,22,0.0,981.1,7.55,26.6,146,135.5,32.7,4.5,302.0,210.0,18.7,0,5,7,0,2026-05-06T14:55:26.181786+05:30
Mumbai,Maharashtra,19.076,72.8777,32.4,58,0.0,1005.3,7.9,46.4,84,56.8,27.5,4.7,204.0,131.0,18.1,0,5,4,1,2026-05-06T14:55:26.181833+05:30
Bangalore,Karnataka,12.9716,77.5946,33.5,32,0.0,909.9,9.55,30.2,117,48.3,28.1,4.3,282.0,193.0,8.8,0,5,7,0,2026-05-06T14:55:26.181848+05:30
Hyderabad,Telangana,17.385,78.4867,36.7,27,0.0,950.7,9.3,35.3,81,52.0,24.6,1.9,343.0,150.0,5.0,0,5,10,0,2026-05-06T14:55:26.181862+05:30
Chennai,Tamil Nadu,13.0827,80.2707,32.2,62,0.0,1004.4,9.25,41.4,49,20.8,12.5,1.8,194.0,94.0,5.0,3,5,4,1,2026-05-06T14:55:26.181871+05:30
Kolkata,West Bengal,22.5726,88.3639,27.4,79,0.2,1005.2,8.95,40.3,89,39.2,28.6,4.4,425.0,134.0,11.2,10,5,4,1,2026-05-06T14:55:26.181879+05:30
Pune,Maharashtra,18.5204,73.8567,37.6,14,0.0,945.3,8.5,46.8,68,55.9,19.0,1.6,195.0,145.0,4.3,0,5,10,0,2026-05-06T14:55:26.181887+05:30
Ahmedabad,Gujarat,23.0225,72.5714,39.5,20,0.0,999.1,8.1,22.7,95,109.2,28.6,1.8,210.0,151.0,7.7,0,5,10,0,2026-05-06T14:55:26.181896+05:30
Jaipur,Rajasthan,26.9124,75.7873,35.0,19,0.0,958.7,8.1,34.2,113,161.6,31.3,1.2,228.0,165.0,4.9,0,5,7,0,2026-05-06T14:55:26.181904+05:30
Lucknow,Uttar Pradesh,26.8467,80.9462,29.4,53,0.0,991.7,8.05,34.2,135,87.8,30.6,1.6,319.0,181.0,8.3,4,5,7,1,2026-05-06T14:55:26.181910+05:30
Kanpur,Uttar Pradesh,26.4499,80.3319,32.2,39,0.0,990.0,8.05,31.7,126,192.3,40.0,1.6,301.0,183.0,6.7,0,5,7,1,2026-05-06T14:55:26.181917+05:30
Chandigarh,Chandigarh,30.7333,76.7794,31.4,27,0.0,967.6,7.5,43.9,127,50.3,22.6,1.9,261.0,188.0,16.1,0,5,7,0,2026-05-06T14:55:26.181923+05:30
Srinagar,Jammu and Kashmir,34.0837,74.7973,22.0,42,0.0,840.8,8.65,23.0,89,27.5,9.4,1.2,252.0,159.0,1.5,0,5,7,0,2026-05-06T14:55:26.181932+05:30
Jammu,Jammu and Kashmir,32.7266,74.857,31.0,24,0.0,971.8,8.25,32.4,86,30.9,16.2,1.9,253.0,177.0,4.2,0,5,7,0,2026-05-06T14:55:26.181938+05:30
Amritsar,Punjab,31.634,74.8723,34.1,24,0.0,979.9,8.15,34.9,112,39.7,18.7,1.8,276.0,191.0,5.8,0,5,7,0,2026-05-06T14:55:26.181945+05:30
Ludhiana,Punjab,30.901,75.8573,31.9,32,0.0,977.3,7.8,46.4,126,81.7,25.5,1.3,250.0,171.0,5.4,0,5,7,0,2026-05-06T14:55:26.181950+05:30
Jalandhar,Punjab,31.326,75.5762,29.5,38,0.0,978.8,7.95,53.3,130,82.2,24.9,1.2,287.0,171.0,5.9,4,5,7,0,2026-05-06T14:55:26.181957+05:30
Dehradun,Uttarakhand,30.6284,78.0322,18.0,48,0.0,829.6,7.45,51.1,85,44.7,15.0,0.9,174.0,146.0,1.6,0,5,7,0,2026-05-06T14:55:26.181965+05:30
Shimla,Himachal Pradesh,31.1048,77.1734,14.8,49,0.0,783.7,7.45,42.5,99,41.3,20.0,1.3,196.0,170.0,7.7,0,5,7,0,2026-05-06T14:55:26.181971+05:30
Manali,Himachal Pradesh,32.2396,77.1887,13.9,62,0.0,815.9,9.55,35.6,130,9.5,4.6,1.0,159.0,180.0,0.3,3,5,7,0,2026-05-06T14:55:26.181977+05:30
Gurgaon,Haryana,28.4595,77.0266,33.8,24,0.0,980.0,7.65,29.5,158,538.3,76.8,5.1,252.0,249.0,28.2,0,5,7,0,2026-05-06T14:55:26.181983+05:30
Noida,Uttar Pradesh,28.5355,77.391,33.5,26,0.0,982.7,7.55,21.2,158,538.3,76.8,5.1,333.0,249.0,28.2,0,5,7,0,2026-05-06T14:55:26.181990+05:30
Ghaziabad,Uttar Pradesh,28.6692,77.4538,33.9,25,0.0,981.2,7.55,24.5,138,97.3,26.7,2.8,227.0,197.0,9.1,0,5,7,0,2026-05-06T14:55:26.181996+05:30
Faridabad,Haryana,28.4089,77.3178,33.2,27,0.0,981.8,7.6,20.5,158,538.3,76.8,5.1,327.0,249.0,28.2,0,5,7,0,2026-05-06T14:55:26.182002+05:30
Meerut,Uttar Pradesh,28.9845,77.7064,32.2,32,0.0,980.1,7.45,28.1,138,97.3,26.7,2.8,244.0,197.0,9.1,0,5,7,0,2026-05-06T14:55:26.182008+05:30
Agra,Uttar Pradesh,27.1767,78.0081,33.2,33,0.0,986.2,7.9,21.6,156,540.2,68.9,1.5,269.0,181.0,9.5,0,5,7,0,2026-05-06T14:55:26.182014+05:30
Varanasi,Uttar Pradesh,25.3176,82.9739,31.7,48,0.0,995.3,8.6,47.2,152,69.6,40.9,1.8,352.0,190.0,11.3,0,5,7,1,2026-05-06T14:55:26.182020+05:30
Prayagraj,Uttar Pradesh,25.4358,81.8463,33.0,37,0.0,993.8,8.45,20.5,137,73.3,38.4,1.7,284.0,187.0,11.5,0,5,7,1,2026-05-06T14:55:26.182029+05:30
Gorakhpur,Uttar Pradesh,26.7606,83.3732,31.4,47,0.0,995.4,8.45,36.0,127,51.0,27.0,1.4,321.0,177.0,6.1,0,5,7,1,2026-05-06T14:55:26.182034+05:30
Bareilly,Uttar Pradesh,28.367,79.4304,32.0,35,0.0,985.3,7.85,24.5,138,79.2,29.8,1.4,243.0,180.0,9.4,0,5,7,0,2026-05-06T14:55:26.182040+05:30
Aligarh,Uttar Pradesh,27.8974,78.088,34.2,25,0.0,983.9,7.7,24.1,150,298.0,50.3,2.0,265.0,196.0,11.9,0,5,7,0,2026-05-06T14:55:26.182046+05:30
Moradabad,Uttar Pradesh,28.8386,78.7733,32.0,33,0.0,982.2,7.65,27.4,151,78.0,32.0,2.2,239.0,185.0,23.0,0,5,7,0,2026-05-06T14:55:26.182052+05:30
Saharanpur,Uttar Pradesh,29.9637,77.546,31.6,31,0.0,974.1,7.25,29.5,109,58.7,20.6,1.9,241.0,177.0,6.4,0,5,7,0,2026-05-06T14:55:26.182058+05:30
Jhansi,Uttar Pradesh,25.4484,78.5685,34.8,26,0.0,976.4,8.35,29.2,103,60.1,20.0,1.0,223.0,158.0,9.1,0,5,7,0,2026-05-06T14:55:29.536850+05:30
Surat,Gujarat,21.1702,72.8311,35.5,38,0.0,1003.4,7.7,36.4,91,87.8,42.5,27.7,822.0,75.0,68.6,0,5,7,1,2026-05-06T14:55:29.536888+05:30
Vadodara,Gujarat,22.3072,73.1812,40.0,22,0.0,1000.9,8.05,29.2,79,106.6,30.4,1.6,219.0,154.0,6.2,0,5,7,0,2026-05-06T14:55:29.536899+05:30
Rajkot,Gujarat,22.3039,70.8022,40.0,15,0.0,991.7,7.7,44.6,70,102.2,26.1,1.0,151.0,137.0,5.9,0,5,10,0,2026-05-06T14:55:29.536907+05:30
Thane,Maharashtra,19.2183,72.9781,35.0,51,0.0,1004.1,7.9,42.5,84,56.8,27.5,4.7,180.0,131.0,18.1,0,5,4,1,2026-05-06T14:55:29.536916+05:30
Nagpur,Maharashtra,21.1458,79.0882,38.8,22,0.0,970.6,8.9,35.3,159,54.4,29.9,4.6,201.0,216.0,22.4,0,5,10,0,2026-05-06T14:55:29.536924+05:30
Nashik,Maharashtra,19.9975,73.7898,36.9,17,0.0,943.7,8.2,39.6,69,60.3,17.9,1.1,145.0,134.0,2.0,0,5,10,0,2026-05-06T14:55:29.536932+05:30
Aurangabad,Maharashtra,19.8762,75.3433,37.2,16,0.0,942.2,9.05,37.8,66,56.5,18.3,0.9,157.0,140.0,3.6,0,5,10,0,2026-05-06T14:55:29.536939+05:30
Solapur,Maharashtra,17.6599,75.9064,39.9,15,0.0,953.9,9.05,42.5,72,42.8,17.6,1.3,160.0,150.0,7.4,0,5,10,0,2026-05-06T14:55:29.536948+05:30
Kolhapur,Maharashtra,16.705,74.2433,37.5,17,0.0,944.6,8.95,49.7,65,56.3,19.6,1.6,179.0,134.0,4.3,0,5,10,0,2026-05-06T14:55:29.536955+05:30
Goa,Goa,15.2993,74.124,36.2,44,0.0,993.2,8.3,40.3,67,50.9,18.7,0.7,146.0,93.0,1.2,0,5,10,1,2026-05-06T14:55:29.536963+05:30
Jodhpur,Rajasthan,26.2389,73.0243,37.9,14,0.0,981.1,8.3,28.8,86,100.1,21.2,0.7,189.0,154.0,3.3,0,5,10,0,2026-05-06T14:55:29.536971+05:30
Udaipur,Rajasthan,24.5854,73.7125,34.8,19,0.0,945.1,8.75,22.0,84,72.4,17.8,0.6,179.0,155.0,3.6,0,5,7,0,2026-05-06T14:55:29.536979+05:30
Kota,Rajasthan,25.2138,75.8648,37.2,16,0.0,977.0,8.3,28.8,94,44.8,16.8,1.0,209.0,166.0,6.2,0,5,10,0,2026-05-06T14:55:29.536986+05:30
Bikaner,Rajasthan,28.0229,73.3119,37.8,15,0.0,979.7,8.25,29.9,101,124.3,29.7,0.4,239.0,158.0,9.9,0,5,10,0,2026-05-06T14:55:29.536993+05:30
Ajmer,Rajasthan,26.4499,74.6399,35.5,15,0.0,953.7,8.25,34.6,88,77.1,20.4,0.6,211.0,153.0,4.0,0,5,10,0,2026-05-06T14:55:29.537000+05:30
Gwalior,Madhya Pradesh,26.2183,78.1828,32.5,36,0.0,981.7,8.1,21.2,98,124.3,29.7,0.7,259.0,163.0,4.5,0,5,7,0,2026-05-06T14:55:29.537007+05:30
Indore,Madhya Pradesh,22.7196,75.8577,37.8,12,0.0,946.2,8.6,37.8,96,69.8,20.8,1.0,198.0,155.0,4.3,0,5,10,0,2026-05-06T14:55:29.537015+05:30
Bhopal,Madhya Pradesh,23.2599,77.4126,37.8,11,0.0,951.4,8.65,36.0,106,32.5,11.3,0.7,181.0,157.0,2.8,0,5,10,0,2026-05-06T14:55:29.537021+05:30
Jabalpur,Madhya Pradesh,23.1815,79.9864,36.6,15,0.0,959.1,8.8,37.1,110,38.9,16.0,0.9,182.0,159.0,3.4,0,5,10,0,2026-05-06T14:55:29.537026+05:30
Ujjain,Madhya Pradesh,23.1765,75.7885,37.7,11,0.0,952.0,8.55,28.4,86,75.7,23.0,0.8,177.0,152.0,4.5,0,5,10,0,2026-05-06T14:55:29.537032+05:30
Visakhapatnam,Andhra Pradesh,17.6868,83.2185,31.7,63,0.0,1001.3,9.15,36.0,76,23.7,15.6,11.4,301.0,62.0,14.6,3,5,4,1,2026-05-06T14:55:29.537038+05:30
Vijayawada,Andhra Pradesh,16.5062,80.648,32.8,54,0.0,999.5,9.2,40.0,62,30.9,18.6,1.9,224.0,111.0,5.4,0,5,7,1,2026-05-06T14:55:29.537044+05:30
Guntur,Andhra Pradesh,16.3067,80.4365,35.2,47,0.0,1000.6,9.2,37.1,66,31.1,18.2,1.5,185.0,112.0,2.5,0,5,7,1,2026-05-06T14:55:29.537050+05:30
Nellore,Andhra Pradesh,14.4426,79.9865,34.0,54,0.0,1002.5,9.25,41.4,55,25.1,14.7,1.1,180.0,107.0,3.3,0,5,4,1,2026-05-06T14:55:29.537056+05:30
Kurnool,Andhra Pradesh,15.8281,78.0373,39.7,25,0.0,972.7,9.2,51.5,96,47.4,27.0,1.0,201.0,159.0,6.5,0,5,10,0,2026-05-06T14:55:29.537063+05:30
Kakinada,Andhra Pradesh,16.9891,82.2475,30.9,69,0.0,1005.0,9.15,31.7,50,17.5,9.2,0.7,156.0,67.0,0.9,3,5,4,1,2026-05-06T14:55:29.537069+05:30
Tirupati,Andhra Pradesh,13.6288,79.4192,36.3,39,0.1,988.3,9.3,34.2,75,27.5,17.3,1.5,191.0,138.0,4.9,3,5,10,1,2026-05-06T14:55:29.537074+05:30
Warangal,Telangana,17.9689,79.5941,37.6,31,0.0,975.8,9.2,51.1,77,45.6,24.2,1.4,209.0,144.0,5.0,0,5,10,1,2026-05-06T14:55:29.537080+05:30
Nizamabad,Telangana,18.6725,78.0941,37.9,22,0.0,961.8,9.15,39.6,93,54.7,27.1,1.4,178.0,161.0,5.2,0,5,10,0,2026-05-06T14:55:29.537086+05:30
Mysore,Karnataka,12.2958,76.6396,33.0,35,0.0,925.4,9.4,26.3,70,39.6,17.8,1.9,192.0,148.0,3.6,0,5,7,0,2026-05-06T14:55:29.537091+05:30
Mangalore,Karnataka,12.9141,74.856,33.3,58,0.0,1001.8,9.05,52.2,65,47.5,17.6,0.9,146.0,89.0,0.8,0,5,4,1,2026-05-06T14:55:29.537097+05:30
Hubli-Dharwad,Karnataka,15.3647,75.124,37.0,20,0.0,937.6,9.05,38.9,61,46.0,17.7,1.5,166.0,143.0,3.5,0,5,10,0,2026-05-06T14:55:29.537103+05:30
Belgaum,Karnataka,15.8497,74.4977,35.2,22,0.0,923.5,8.8,45.0,62,51.5,18.5,1.5,165.0,133.0,3.8,0,5,10,0,2026-05-06T14:55:32.893101+05:30
Coimbatore,Tamil Nadu,11.0168,76.9558,34.5,34,0.0,957.3,9.35,33.1,101,51.6,27.8,2.0,238.0,168.0,4.8,0,5,7,1,2026-05-06T14:55:32.893135+05:30
Madurai,Tamil Nadu,9.9252,78.1198,35.4,39,0.0,987.9,8.9,41.8,86,42.5,27.1,1.9,233.0,158.0,4.4,0,5,10,1,2026-05-06T14:55:32.893145+05:30
Trichy,Tamil Nadu,10.7905,78.7047,34.2,47,0.0,995.0,8.9,29.2,80,34.0,23.7,1.8,245.0,154.0,6.0,0,5,7,1,2026-05-06T14:55:32.893154+05:30
Salem,Tamil Nadu,11.6643,78.146,35.8,36,0.0,973.0,9.25,43.2,120,63.6,41.4,3.4,234.0,209.0,16.2,0,5,10,1,2026-05-06T14:55:32.893162+05:30
Tirunelveli,Tamil Nadu,8.7139,77.7567,30.7,73,0.3,999.8,8.8,38.5,79,45.2,28.4,1.8,229.0,160.0,5.0,6,5,7,1,2026-05-06T14:55:32.893171+05:30
Vellore,Tamil Nadu,12.9165,79.1325,35.8,45,0.0,981.8,9.3,35.3,90,26.7,17.9,1.4,227.0,136.0,4.0,0,5,10,1,2026-05-06T14:55:32.893179+05:30
Erode,Tamil Nadu,11.341,77.7172,37.8,30,0.0,984.1,9.25,45.0,95,49.8,28.4,2.3,241.0,183.0,5.6,0,5,10,1,2026-05-06T14:55:32.893185+05:30
Kochi,Kerala,9.9312,76.2673,31.0,73,0.0,1004.3,7.95,32.0,66,38.8,21.1,2.6,154.0,121.0,2.2,3,5,4,1,2026-05-06T14:55:32.893191+05:30
Thiruvananthapuram,Kerala,8.5241,76.9366,28.7,81,0.2,1004.1,8.35,30.6,47,16.3,10.1,1.5,149.0,125.0,1.9,10,5,4,1,2026-05-06T14:55:32.893198+05:30
Kozhikode,Kerala,11.2588,75.7804,32.3,66,0.1,1002.8,9.05,42.5,66,40.9,18.8,0.6,160.0,90.0,1.2,6,5,4,1,2026-05-06T14:55:32.893204+05:30
Thrissur,Kerala,10.5276,76.2144,31.2,64,0.0,1001.8,9.05,31.3,75,46.1,24.1,1.7,152.0,133.0,2.7,3,5,4,1,2026-05-06T14:55:32.893210+05:30
Kannur,Kerala,11.8745,75.3704,33.6,59,0.0,1001.7,9.05,58.3,65,44.5,18.5,1.0,171.0,101.0,1.1,0,5,4,1,2026-05-06T14:55:32.893216+05:30
Patna,Bihar,25.5941,85.1376,31.2,53,0.0,998.7,8.7,55.1,151,63.1,35.2,2.0,305.0,184.0,7.7,0,5,7,1,2026-05-06T14:55:32.893222+05:30
Gaya,Bihar,24.7914,85.0002,32.3,47,0.0,992.1,8.75,48.2,158,65.2,41.6,1.6,314.0,196.0,7.7,0,5,7,1,2026-05-06T14:55:32.893228+05:30
Muzaffarpur,Bihar,26.1209,85.3647,30.0,60,0.0,999.5,8.7,33.1,145,61.0,34.2,2.2,310.0,189.0,9.2,4,5,7,1,2026-05-06T14:55:32.893233+05:30
Bhagalpur,Bihar,25.2425,87.0117,30.2,58,0.0,999.6,8.7,32.8,141,64.3,47.5,3.7,324.0,224.0,13.3,0,5,7,1,2026-05-06T14:55:32.893239+05:30
Ranchi,Jharkhand,23.3441,85.3096,30.5,39,0.0,936.5,9.2,29.9,130,56.6,34.0,2.1,224.0,171.0,7.4,0,5,7,0,2026-05-06T14:55:32.893245+05:30
Jamshedpur,Jharkhand,22.8046,86.2029,33.5,41,0.0,988.4,9.05,26.6,138,67.5,50.4,4.0,245.0,221.0,24.5,0,5,7,1,2026-05-06T14:55:32.893250+05:30
Dhanbad,Jharkhand,23.7957,86.4304,27.6,60,0.0,977.8,8.95,27.0,158,88.5,65.2,11.7,269.0,235.0,38.5,4,5,7,1,2026-05-06T14:55:32.893256+05:30
Bokaro,Jharkhand,23.6693,86.1511,29.8,51,0.0,981.7,9.0,27.7,158,86.6,63.6,12.8,262.0,233.0,44.2,4,5,7,1,2026-05-06T14:55:32.893262+05:30
Bhubaneswar,Odisha,20.2961,85.8245,32.0,57,0.0,1000.6,9.1,32.4,57,27.5,19.0,1.8,221.0,120.0,3.6,0,5,4,1,2026-05-06T14:55:32.893268+05:30
Cuttack,Odisha,20.4625,85.8828,33.0,52,0.0,1002.1,9.15,33.1,57,27.5,19.0,1.8,242.0,120.0,3.6,0,5,4,1,2026-05-06T14:55:32.893274+05:30
Rourkela,Odisha,22.2604,84.8536,36.9,28,0.0,982.9,8.95,37.1,148,66.4,41.2,2.0,245.0,199.0,23.4,0,5,10,0,2026-05-06T14:55:32.893280+05:30
Raipur,Chhattisgarh,21.2514,81.6296,38.2,22,0.0,972.1,9.0,33.8,123,58.4,33.2,5.7,459.0,216.0,6.4,0,5,10,0,2026-05-06T14:55:32.893286+05:30
Bhilai,Chhattisgarh,21.1938,81.3509,37.8,23,0.0,972.7,9.0,33.1,119,52.0,28.0,5.9,692.0,189.0,5.1,0,5,10,0,2026-05-06T14:55:32.893292+05:30
Guwahati,Assam,26.1158,91.7086,27.1,77,0.1,999.6,8.65,28.1,80,28.4,20.8,1.2,265.0,135.0,1.5,10,5,7,1,2026-05-06T14:55:32.893298+05:30
Agartala,Tripura,23.8315,91.2868,30.8,60,0.0,1003.6,8.85,17.6,79,27.8,19.5,4.1,189.0,165.0,2.3,0,5,4,1,2026-05-06T14:55:32.893303+05:30
Shillong,Meghalaya,25.5788,91.8933,20.6,76,0.0,856.8,8.25,27.4,82,29.3,19.3,1.3,226.0,134.0,1.2,3,5,7,1,2026-05-06T14:55:32.893309+05:30
Imphal,Manipur,24.817,93.9368,27.2,55,0.0,921.6,8.85,28.8,77,22.9,14.7,1.0,194.0,107.0,1.2,4,5,7,1,2026-05-06T14:55:32.893315+05:30
Aizawl,Mizoram,23.7271,92.7176,25.8,53,0.0,891.9,8.75,18.7,64,27.9,15.3,0.7,177.0,105.0,1.6,4,5,7,0,2026-05-06T14:55:32.893321+05:30
Kohima,Nagaland,25.6701,94.1077,21.0,77,0.1,854.9,9.15,28.8,76,24.9,15.9,1.0,225.0,120.0,1.0,6,5,7,1,2026-05-06T14:55:32.893327+05:30
Gangtok,Sikkim,27.3314,88.6138,18.8,79,0.0,837.6,8.7,30.6,71,25.8,18.9,1.1,233.0,137.0,1.0,3,5,7,0,2026-05-06T14:55:32.893332+05:30
Siliguri,West Bengal,26.7271,88.3953,27.4,61,0.0,990.8,8.4,23.8,107,33.1,26.1,1.8,351.0,157.0,2.1,7,5,7,1,2026-05-06T14:55:36.254115+05:30
Durgapur,West Bengal,23.5204,87.3119,30.1,63,0.0,993.7,8.9,25.9,147,96.2,79.6,10.3,342.0,284.0,57.1,3,5,7,1,2026-05-06T14:55:36.254147+05:30
Asansol,West Bengal,23.6739,86.9524,32.0,51,0.0,992.1,8.95,25.9,154,95.0,73.8,9.1,412.0,269.0,46.6,0,5,7,1,2026-05-06T14:55:36.254158+05:30
Pondicherry,Puducherry,11.9139,79.8145,31.0,69,0.0,1005.1,8.75,38.9,54,15.8,10.3,1.2,216.0,123.0,0.9,3,5,4,1,2026-05-06T14:55:36.254167+05:30
Port Blair,Andaman and Nicobar Islands,11.6234,92.7265,29.0,78,0.0,1003.8,9.05,34.9,31,7.5,5.7,0.3,151.0,64.0,0.1,7,5,4,1,2026-05-06T14:55:36.254175+05:30
Haridwar,Uttarakhand,29.9457,78.1642,30.3,36,0.0,972.5,7.35,25.2,103,65.7,20.5,1.1,219.0,165.0,4.1,0,5,7,0,2026-05-06T14:55:36.254184+05:30
Rishikesh,Uttarakhand,30.0869,78.2676,29.5,34,0.0,964.9,7.45,27.7,93,64.5,19.2,0.8,202.0,155.0,2.9,4,5,7,0,2026-05-06T14:55:36.254192+05:30
Nainital,Uttarakhand,29.3919,79.4542,17.3,45,0.0,804.8,6.55,31.7,104,59.5,21.1,1.3,207.0,167.0,4.5,0,5,7,0,2026-05-06T14:55:36.254200+05:30
Mussoorie,Uttarakhand,30.4599,78.0664,17.1,44,0.0,802.4,7.3,39.6,96,57.6,18.2,1.2,184.0,158.0,4.4,0,5,7,0,2026-05-06T14:55:36.254208+05:30
Dharamshala,Himachal Pradesh,32.219,76.3234,19.0,49,0.0,868.0,8.15,36.0,109,24.6,11.7,0.8,196.0,155.0,1.8,0,5,7,0,2026-05-06T14:55:36.254215+05:30
Dalhousie,Himachal Pradesh,32.5387,75.971,16.0,47,0.0,803.5,8.35,33.5,108,41.8,17.2,1.5,211.0,166.0,4.9,0,5,7,0,2026-05-06T14:55:36.254223+05:30
Patiala,Punjab,30.3398,76.3869,33.2,28,0.0,976.3,7.45,43.6,163,314.8,45.3,1.3,237.0,177.0,9.0,0,5,7,0,2026-05-06T14:55:36.254231+05:30
Bhatinda,Punjab,30.211,74.9455,35.9,22,0.0,981.8,8.1,28.1,151,69.2,23.1,2.0,239.0,187.0,10.8,0,5,10,0,2026-05-06T14:55:36.254238+05:30
Rohtak,Haryana,28.8955,76.6066,34.5,22,0.0,980.2,7.55,46.8,153,284.1,44.9,2.1,219.0,193.0,11.7,0,5,7,0,2026-05-06T14:55:36.254245+05:30
Panipat,Haryana,29.3909,76.9635,33.8,25,0.0,978.6,7.4,52.9,212,536.4,62.4,2.6,220.0,187.0,14.2,0,5,7,0,2026-05-06T14:55:36.254252+05:30
Mathura,Uttar Pradesh,27.4924,77.6737,34.3,26,0.0,985.2,7.8,27.7,150,527.1,67.8,1.6,258.0,183.0,9.9,0,5,7,0,2026-05-06T14:55:36.254259+05:30
Vrindavan,Uttar Pradesh,27.5823,77.7027,34.8,24,0.0,985.4,7.8,27.4,150,527.1,67.8,1.6,255.0,183.0,9.9,0,5,7,0,2026-05-06T14:55:36.254266+05:30
Ayodhya,Uttar Pradesh,26.7922,82.1998,30.9,55,0.0,993.8,8.2,34.9,118,44.5,22.8,1.2,277.0,162.0,5.3,0,5,7,1,2026-05-06T14:55:36.254273+05:30
Ratlam,Madhya Pradesh,23.3315,75.0367,36.8,16,0.0,953.1,8.45,33.1,80,80.6,23.3,0.7,163.0,152.0,5.4,0,5,10,0,2026-05-06T14:55:36.254280+05:30
Sagar,Madhya Pradesh,23.8388,78.7378,35.3,15,0.0,948.5,8.65,36.0,110,31.7,12.3,0.6,174.0,156.0,2.6,0,5,10,0,2026-05-06T14:55:36.254287+05:30
Satna,Madhya Pradesh,24.6005,80.8322,33.9,26,0.0,969.3,8.7,35.6,115,61.2,22.2,0.7,203.0,157.0,3.6,0,5,7,0,2026-05-06T14:55:36.254294+05:30
Akola,Maharashtra,20.7002,77.0082,40.0,15,0.0,971.8,8.85,32.0,81,47.4,15.5,1.2,162.0,146.0,8.3,0,5,10,0,2026-05-06T14:55:36.254303+05:30
Amravati,Maharashtra,20.9374,77.7796,38.8,14,0.0,964.9,8.85,33.1,87,46.9,16.0,1.6,156.0,158.0,5.5,0,5,10,0,2026-05-06T14:55:36.254311+05:30
Latur,Maharashtra,18.4088,76.5604,37.3,17,0.0,937.6,9.05,36.4,72,46.1,18.4,1.2,159.0,154.0,9.7,0,5,10,0,2026-05-06T14:55:36.254318+05:30
Nanded,Maharashtra,19.1383,77.3091,39.2,16,0.0,965.8,9.0,27.4,85,48.4,18.3,1.2,161.0,155.0,5.9,0,5,10,0,2026-05-06T14:55:36.254325+05:30
Gulbarga,Karnataka,17.3297,76.8343,37.8,19,0.0,955.5,9.1,35.6,86,39.1,20.0,2.1,189.0,176.0,7.6,0,5,10,0,2026-05-06T14:55:36.254332+05:30
Bidar,Karnataka,17.9104,77.5199,37.0,21,0.0,933.7,9.15,38.2,92,45.5,24.3,1.7,177.0,168.0,6.8,0,5,10,0,2026-05-06T14:55:36.254339+05:30
Hospet,Karnataka,15.2689,76.3909,36.4,23,0.0,951.9,8.85,48.2,68,37.3,17.0,2.1,181.0,159.0,5.5,0,5,10,0,2026-05-06T14:55:36.254347+05:30
Tirupur,Tamil Nadu,11.1085,77.3411,37.5,29,0.0,970.5,9.35,29.9,106,46.4,25.7,2.5,261.0,191.0,5.3,0,5,10,1,2026-05-06T14:55:36.254354+05:30
Alappuzha,Kerala,9.4981,76.3388,30.6,75,0.1,1004.8,8.65,31.3,62,34.2,18.8,2.4,132.0,127.0,2.8,6,5,4,1,2026-05-06T14:55:36.254361+05:30
Munnar,Kerala,10.0889,77.0595,22.8,70,0.1,855.1,6.35,22.3,72,48.9,27.0,1.2,200.0,147.0,3.8,6,5,7,1,2026-05-06T14:55:36.254368+05:30
Silchar,Assam,24.8333,92.7789,30.1,64,0.0,1002.6,8.75,19.8,110,29.7,20.2,1.4,222.0,127.0,3.7,3,5,4,1,2026-05-06T14:55:36.254375+05:30
Dibrugarh,Assam,27.4728,94.912,27.8,67,0.0,993.7,8.8,29.9,77,27.5,17.6,1.3,260.0,129.0,1.0,7,5,7,1,2026-05-06T14:55:36.254382+05:30
