city,state,latitude,longitude,temp,humidity,rain,pressure,uv_index,wind_gusts,aqi,pm10,pm2_5,no2,co,o3,so2,mosquito_risk,arthritis_risk,migraine_risk,frizz_risk,updated_at
Delhi,Delhi,28.6139,77.209,32.8,30,0.0,976.4,7.75,43.2,629,804.7,182.1,24.2,375.0,60.0,15.0,0,5,7,0,2026-05-18T00:52:31.984754+05:30
Mumbai,Maharashtra,19.076,72.8777,28.9,87,0.0,1005.1,7.65,44.3,63,46.1,17.4,6.0,178.0,62.0,3.7,7,5,4,1,2026-05-18T00:52:31.984791+05:30
Bangalore,Karnataka,12.9716,77.5946,24.4,74,0.0,909.7,6.15,39.2,92,31.1,24.8,11.1,341.0,102.0,9.0,3,5,7,1,2026-05-18T00:52:31.984806+05:30
Hyderabad,Telangana,17.385,78.4867,30.1,56,0.0,950.6,9.25,30.6,65,24.9,19.4,11.1,331.0,77.0,6.5,0,5,7,1,2026-05-18T00:52:31.984817+05:30
Chennai,Tamil Nadu,13.0827,80.2707,29.2,82,0.0,1004.2,8.65,40.7,71,23.7,16.6,5.3,178.0,94.0,6.0,7,5,4,1,2026-05-18T00:52:31.984825+05:30
Kolkata,West Bengal,22.5726,88.3639,28.8,90,0.0,1001.0,8.95,36.0,62,20.9,14.9,6.7,242.0,59.0,5.4,7,5,4,1,2026-05-18T00:52:31.984833+05:30
Pune,Maharashtra,18.5204,73.8567,27.3,70,0.0,945.4,8.45,46.8,85,36.0,25.4,16.0,237.0,83.0,22.8,7,5,7,1,2026-05-18T00:52:31.984841+05:30
Ahmedabad,Gujarat,23.0225,72.5714,34.5,30,0.0,997.6,8.15,35.3,63,28.4,16.2,5.3,250.0,68.0,3.8,0,5,7,0,2026-05-18T00:52:31.984848+05:30
Jaipur,Rajasthan,26.9124,75.7873,33.8,23,0.0,955.3,8.25,41.8,124,125.7,36.7,11.6,244.0,48.0,6.2,0,5,7,0,2026-05-18T00:52:31.984859+05:30
Lucknow,Uttar Pradesh,26.8467,80.9462,31.8,40,0.0,986.4,8.2,31.7,159,379.0,109.0,14.5,308.0,68.0,9.9,0,5,7,1,2026-05-18T00:52:31.984867+05:30
Kanpur,Uttar Pradesh,26.4499,80.3319,33.3,31,0.0,985.1,8.25,44.6,328,359.5,88.7,11.5,284.0,65.0,8.4,0,5,7,0,2026-05-18T00:52:31.984873+05:30
Chandigarh,Chandigarh,30.7333,76.7794,28.4,37,0.0,961.5,7.75,36.0,73,25.2,23.4,15.1,422.0,78.0,9.2,4,5,7,0,2026-05-18T00:52:31.984881+05:30
Srinagar,Jammu and Kashmir,34.0837,74.7973,13.2,88,0.0,838.0,8.95,18.4,81,49.5,45.3,28.3,491.0,40.0,2.5,3,10,7,0,2026-05-18T00:52:31.984888+05:30
Jammu,Jammu and Kashmir,32.7266,74.857,27.7,47,0.0,965.9,8.55,27.4,66,34.7,32.4,32.4,465.0,13.0,4.0,4,5,7,0,2026-05-18T00:52:31.984895+05:30
Amritsar,Punjab,31.634,74.8723,28.2,52,0.0,974.1,8.45,22.3,94,49.0,38.3,26.9,520.0,52.0,9.4,4,5,7,1,2026-05-18T00:52:31.984901+05:30
Ludhiana,Punjab,30.901,75.8573,28.9,46,0.0,971.9,8.0,26.6,87,74.5,41.0,12.3,503.0,76.0,8.2,4,5,7,1,2026-05-18T00:52:31.984908+05:30
Jalandhar,Punjab,31.326,75.5762,28.1,47,0.0,973.0,8.2,25.6,100,84.5,50.3,21.4,509.0,58.0,9.6,4,5,7,0,2026-05-18T00:52:31.984916+05:30
Dehradun,Uttarakhand,30.6284,78.0322,14.9,71,0.0,823.8,8.2,39.2,66,19.7,16.5,26.2,244.0,49.0,2.0,3,5,7,0,2026-05-18T00:52:31.984925+05:30
Shimla,Himachal Pradesh,31.1048,77.1734,15.0,54,0.0,780.3,8.3,44.3,87,27.1,18.2,15.1,209.0,99.0,3.2,0,5,7,0,2026-05-18T00:52:31.984933+05:30
Manali,Himachal Pradesh,32.2396,77.1887,9.8,50,0.0,810.5,9.6,43.2,82,3.2,2.7,12.1,242.0,118.0,0.0,0,5,7,1,2026-05-18T00:52:31.984940+05:30
Gurgaon,Haryana,28.4595,77.0266,30.0,38,0.0,974.9,7.85,41.0,1038,923.9,173.2,24.7,465.0,56.0,16.1,4,5,7,0,2026-05-18T00:52:31.984946+05:30
Noida,Uttar Pradesh,28.5355,77.391,30.9,38,0.0,977.5,7.75,33.5,1038,923.9,173.2,24.7,402.0,56.0,16.1,0,5,7,0,2026-05-18T00:52:31.984953+05:30
Ghaziabad,Uttar Pradesh,28.6692,77.4538,29.4,41,0.0,975.7,7.75,36.0,503,750.6,177.4,20.8,322.0,63.0,16.5,4,5,7,0,2026-05-18T00:52:31.984959+05:30
Faridabad,Haryana,28.4089,77.3178,33.2,29,0.0,977.0,7.8,41.8,1038,923.9,173.2,24.7,446.0,56.0,16.1,0,5,7,0,2026-05-18T00:52:31.984965+05:30
Meerut,Uttar Pradesh,28.9845,77.7064,30.5,34,0.0,974.2,7.65,38.5,503,750.6,177.4,20.8,375.0,63.0,16.5,0,5,7,0,2026-05-18T00:52:31.984971+05:30
Agra,Uttar Pradesh,27.1767,78.0081,31.9,34,0.0,981.3,8.1,42.5,599,486.2,102.9,19.2,332.0,41.0,9.4,0,5,7,0,2026-05-18T00:52:31.984977+05:30
Varanasi,Uttar Pradesh,25.3176,82.9739,32.0,36,0.0,991.0,8.7,42.8,142,114.8,49.1,25.2,515.0,52.0,12.4,0,5,7,0,2026-05-18T00:52:31.984984+05:30
Prayagraj,Uttar Pradesh,25.4358,81.8463,31.8,34,0.0,989.5,8.6,43.6,145,199.8,65.4,25.5,335.0,48.0,11.5,0,5,7,0,2026-05-18T00:52:31.984990+05:30
Gorakhpur,Uttar Pradesh,26.7606,83.3732,27.1,70,0.0,990.6,8.6,31.0,142,116.4,52.4,20.3,571.0,73.0,11.5,7,5,7,1,2026-05-18T00:52:31.984998+05:30
Bareilly,Uttar Pradesh,28.367,79.4304,27.6,59,0.0,979.2,8.05,36.7,125,196.5,66.1,19.1,373.0,65.0,11.1,4,5,7,1,2026-05-18T00:52:31.985004+05:30
Aligarh,Uttar Pradesh,27.8974,78.088,29.8,44,0.0,978.6,7.9,38.5,660,868.0,172.3,18.7,383.0,59.0,14.1,4,5,7,0,2026-05-18T00:52:31.985011+05:30
Moradabad,Uttar Pradesh,28.8386,78.7733,29.4,45,0.0,976.1,7.85,38.5,154,297.1,97.6,23.7,393.0,48.0,10.2,4,5,7,1,2026-05-18T00:52:31.985017+05:30
Saharanpur,Uttar Pradesh,29.9637,77.546,28.9,39,0.0,968.1,7.4,34.2,96,68.7,32.0,11.4,319.0,89.0,9.7,4,5,7,0,2026-05-18T00:52:31.985023+05:30
Jhansi,Uttar Pradesh,25.4484,78.5685,31.0,31,0.0,972.3,8.5,42.5,123,71.9,30.0,6.2,259.0,62.0,4.0,0,5,7,0,2026-05-18T00:52:35.365841+05:30
Surat,Gujarat,21.1702,72.8311,30.5,80,0.0,1002.0,7.25,38.5,88,36.3,22.4,24.2,302.0,42.0,37.5,3,5,4,1,2026-05-18T00:52:35.365868+05:30
Vadodara,Gujarat,22.3072,73.1812,33.2,51,0.0,999.6,8.1,36.4,73,37.1,24.7,14.6,224.0,57.0,11.9,0,5,7,1,2026-05-18T00:52:35.365877+05:30
Rajkot,Gujarat,22.3039,70.8022,27.3,78,0.0,991.6,7.75,38.9,59,26.0,12.8,6.6,137.0,48.0,4.5,7,5,7,1,2026-05-18T00:52:35.365885+05:30
Thane,Maharashtra,19.2183,72.9781,28.7,87,0.0,1004.5,7.55,38.9,63,46.1,17.4,6.0,156.0,62.0,3.7,7,5,4,1,2026-05-18T00:52:35.365893+05:30
Nagpur,Maharashtra,21.1458,79.0882,33.2,37,0.0,969.5,8.95,38.5,87,36.0,31.1,33.0,339.0,44.0,12.6,0,5,7,1,2026-05-18T00:52:35.365900+05:30
Nashik,Maharashtra,19.9975,73.7898,27.2,49,0.0,942.6,7.7,46.8,62,38.5,23.2,16.9,198.0,53.0,5.0,4,5,7,0,2026-05-18T00:52:35.365906+05:30
Aurangabad,Maharashtra,19.8762,75.3433,31.4,33,0.0,940.9,9.05,33.1,57,23.9,15.1,8.6,200.0,88.0,4.8,0,5,7,0,2026-05-18T00:52:35.365913+05:30
Solapur,Maharashtra,17.6599,75.9064,31.7,44,0.0,954.4,9.05,46.4,75,32.9,28.3,15.0,253.0,77.0,7.7,0,5,7,1,2026-05-18T00:52:35.365920+05:30
Kolhapur,Maharashtra,16.705,74.2433,25.9,86,0.0,945.4,8.5,51.8,57,21.4,14.3,7.5,185.0,60.0,4.5,7,5,7,1,2026-05-18T00:52:35.365927+05:30
Goa,Goa,15.2993,74.124,27.8,92,0.0,995.0,6.15,34.6,58,43.0,20.9,5.0,395.0,52.0,1.8,7,5,7,1,2026-05-18T00:52:35.365933+05:30
Jodhpur,Rajasthan,26.2389,73.0243,34.6,24,0.0,978.4,8.35,43.2,79,128.1,30.7,6.0,168.0,65.0,4.2,0,5,7,0,2026-05-18T00:52:35.365939+05:30
Udaipur,Rajasthan,24.5854,73.7125,32.0,27,0.0,943.1,8.85,41.4,56,44.1,20.6,6.8,163.0,54.0,4.4,0,5,7,0,2026-05-18T00:52:35.365946+05:30
Kota,Rajasthan,25.2138,75.8648,34.3,23,0.0,974.0,8.4,34.6,105,159.3,46.3,13.3,213.0,72.0,6.7,0,5,7,0,2026-05-18T00:52:35.365952+05:30
Bikaner,Rajasthan,28.0229,73.3119,33.5,26,0.0,976.5,8.4,44.3,76,143.9,38.4,1.9,177.0,76.0,2.2,0,5,7,0,2026-05-18T00:52:35.365959+05:30
Ajmer,Rajasthan,26.4499,74.6399,32.0,29,0.0,950.8,8.4,43.2,81,63.3,22.2,4.2,191.0,75.0,4.7,0,5,7,0,2026-05-18T00:52:35.365965+05:30
Gwalior,Madhya Pradesh,26.2183,78.1828,33.6,25,0.0,977.2,8.3,43.2,228,60.1,25.7,5.6,198.0,69.0,4.0,0,5,7,0,2026-05-18T00:52:35.365972+05:30
Indore,Madhya Pradesh,22.7196,75.8577,32.7,26,0.0,944.2,8.5,33.5,59,59.8,34.9,14.0,329.0,67.0,9.8,0,5,7,0,2026-05-18T00:52:35.365979+05:30
Bhopal,Madhya Pradesh,23.2599,77.4126,33.0,26,0.0,949.5,8.7,38.5,56,39.0,30.6,17.2,483.0,59.0,8.6,0,5,7,0,2026-05-18T00:52:35.365985+05:30
Jabalpur,Madhya Pradesh,23.1815,79.9864,30.9,34,0.0,957.2,8.85,33.1,85,75.4,35.4,22.8,307.0,57.0,6.4,0,5,7,0,2026-05-18T00:52:35.365992+05:30
Ujjain,Madhya Pradesh,23.1765,75.7885,32.0,23,0.0,949.7,8.6,42.1,63,54.0,28.0,5.7,411.0,73.0,5.5,0,5,7,0,2026-05-18T00:52:35.365998+05:30
Visakhapatnam,Andhra Pradesh,17.6868,83.2185,29.3,84,0.0,1000.9,9.0,45.4,60,24.0,17.3,14.5,271.0,63.0,26.7,7,5,4,1,2026-05-18T00:52:35.366005+05:30
Vijayawada,Andhra Pradesh,16.5062,80.648,29.6,80,0.0,999.8,8.5,32.4,53,22.8,16.7,5.6,202.0,68.0,4.7,7,5,7,1,2026-05-18T00:52:35.366011+05:30
Guntur,Andhra Pradesh,16.3067,80.4365,29.8,78,0.0,1001.0,8.95,33.1,51,21.2,15.7,4.8,185.0,70.0,3.1,7,5,4,1,2026-05-18T00:52:35.366018+05:30
Nellore,Andhra Pradesh,14.4426,79.9865,28.9,85,0.0,1002.8,9.15,41.0,81,31.0,23.6,6.6,195.0,108.0,13.2,7,5,4,1,2026-05-18T00:52:35.366025+05:30
Kurnool,Andhra Pradesh,15.8281,78.0373,31.7,54,0.0,973.8,9.15,32.0,58,19.6,15.6,6.3,194.0,78.0,3.5,0,5,7,1,2026-05-18T00:52:35.366032+05:30
Kakinada,Andhra Pradesh,16.9891,82.2475,29.8,80,0.0,1004.6,8.7,42.8,50,29.5,18.2,1.7,204.0,81.0,1.6,7,5,4,1,2026-05-18T00:52:35.366039+05:30
Tirupati,Andhra Pradesh,13.6288,79.4192,27.5,88,0.0,988.5,9.1,29.2,79,26.4,22.6,9.8,279.0,93.0,13.0,7,5,7,1,2026-05-18T00:52:35.366045+05:30
Warangal,Telangana,17.9689,79.5941,30.6,61,0.0,975.5,9.15,31.7,65,30.7,27.0,11.1,331.0,87.0,10.2,3,5,7,1,2026-05-18T00:52:35.366072+05:30
Nizamabad,Telangana,18.6725,78.0941,30.7,55,0.0,961.1,9.15,29.9,88,33.5,27.4,9.5,253.0,85.0,5.2,0,5,7,1,2026-05-18T00:52:35.366081+05:30
Mysore,Karnataka,12.2958,76.6396,23.0,97,0.0,926.1,4.15,45.7,70,12.3,11.0,7.5,272.0,63.0,2.9,3,5,3,1,2026-05-18T00:52:35.366087+05:30
Mangalore,Karnataka,12.9141,74.856,26.4,95,0.0,1003.8,6.9,29.2,60,19.2,14.1,9.8,350.0,39.0,3.7,7,5,4,1,2026-05-18T00:52:35.366094+05:30
Hubli-Dharwad,Karnataka,15.3647,75.124,24.5,99,0.0,938.0,8.85,34.6,54,20.4,12.0,6.2,165.0,46.0,2.1,3,5,7,1,2026-05-18T00:52:35.366101+05:30
Belgaum,Karnataka,15.8497,74.4977,24.0,94,0.0,923.3,9.05,45.0,54,23.4,14.3,8.1,145.0,44.0,2.5,3,5,7,1,2026-05-18T00:52:38.738190+05:30
Coimbatore,Tamil Nadu,11.0168,76.9558,24.0,97,0.0,959.9,7.65,55.1,51,4.1,3.7,6.1,175.0,59.0,3.0,3,5,7,1,2026-05-18T00:52:38.738216+05:30
Madurai,Tamil Nadu,9.9252,78.1198,27.4,83,0.0,990.9,7.4,41.4,87,34.0,29.7,40.2,209.0,12.0,8.4,7,5,7,1,2026-05-18T00:52:38.738226+05:30
Trichy,Tamil Nadu,10.7905,78.7047,27.4,94,0.0,997.6,7.7,35.6,79,26.3,23.4,16.1,244.0,62.0,4.7,7,5,7,1,2026-05-18T00:52:38.738234+05:30
Salem,Tamil Nadu,11.6643,78.146,26.6,82,0.0,975.4,7.25,32.8,87,27.1,22.5,12.8,289.0,77.0,5.2,7,5,7,1,2026-05-18T00:52:38.738241+05:30
Tirunelveli,Tamil Nadu,8.7139,77.7567,28.0,76,0.0,1001.4,8.85,32.8,33,6.1,5.4,5.1,224.0,57.0,1.7,7,5,4,1,2026-05-18T00:52:38.738248+05:30
Vellore,Tamil Nadu,12.9165,79.1325,26.5,99,0.0,981.9,7.9,31.3,95,29.5,24.4,9.7,312.0,82.0,11.1,7,5,7,1,2026-05-18T00:52:38.738255+05:30
Erode,Tamil Nadu,11.341,77.7172,26.2,87,0.0,987.3,7.9,36.0,65,14.9,12.6,13.9,197.0,46.0,3.8,7,5,7,1,2026-05-18T00:52:38.738261+05:30
Kochi,Kerala,9.9312,76.2673,25.5,94,0.0,1007.5,8.15,35.6,51,16.2,14.3,14.3,229.0,36.0,4.7,7,5,4,1,2026-05-18T00:52:38.738268+05:30
Thiruvananthapuram,Kerala,8.5241,76.9366,24.9,99,0.0,1007.3,6.9,34.2,37,11.1,7.0,2.1,263.0,73.0,0.9,3,5,4,1,2026-05-18T00:52:38.738274+05:30
Kozhikode,Kerala,11.2588,75.7804,25.4,99,0.0,1006.3,3.0,25.9,49,13.2,8.0,1.8,301.0,75.0,1.2,7,5,0,1,2026-05-18T00:52:38.738280+05:30
Thrissur,Kerala,10.5276,76.2144,24.1,98,0.0,1005.8,6.25,28.4,52,15.1,13.3,11.6,239.0,41.0,3.9,3,5,4,1,2026-05-18T00:52:38.738287+05:30
Kannur,Kerala,11.8745,75.3704,26.3,97,0.0,1004.8,2.4,31.3,57,7.1,5.2,8.9,307.0,49.0,2.5,7,5,0,1,2026-05-18T00:52:38.738293+05:30
Patna,Bihar,25.5941,85.1376,28.6,82,0.0,994.4,8.8,28.4,149,110.8,71.7,56.4,463.0,21.0,20.6,7,5,7,1,2026-05-18T00:52:38.738299+05:30
Gaya,Bihar,24.7914,85.0002,28.6,45,0.0,987.9,8.85,42.5,147,98.3,45.3,19.5,401.0,64.0,8.5,4,5,7,0,2026-05-18T00:52:38.738306+05:30
Muzaffarpur,Bihar,26.1209,85.3647,27.8,79,0.0,994.7,8.85,33.1,153,109.9,81.7,50.7,488.0,36.0,21.9,7,5,7,1,2026-05-18T00:52:38.738312+05:30
Bhagalpur,Bihar,25.2425,87.0117,27.6,90,0.0,995.4,8.8,33.5,147,51.3,47.3,13.8,466.0,87.0,10.8,7,5,7,1,2026-05-18T00:52:38.738319+05:30
Ranchi,Jharkhand,23.3441,85.3096,25.4,65,0.0,933.8,9.25,38.2,131,74.5,57.7,12.4,297.0,95.0,10.0,7,5,7,1,2026-05-18T00:52:38.738325+05:30
Jamshedpur,Jharkhand,22.8046,86.2029,28.6,69,0.0,986.4,9.05,32.8,124,75.9,61.9,18.0,476.0,102.0,29.3,7,5,7,1,2026-05-18T00:52:38.738331+05:30
Dhanbad,Jharkhand,23.7957,86.4304,28.3,62,0.0,974.7,9.0,36.4,149,92.7,78.7,43.7,1045.0,67.0,104.8,7,5,7,1,2026-05-18T00:52:38.738337+05:30
Bokaro,Jharkhand,23.6693,86.1511,28.8,57,0.0,978.5,9.05,36.4,149,84.5,65.2,33.1,403.0,62.0,65.9,4,5,7,1,2026-05-18T00:52:38.738343+05:30
Bhubaneswar,Odisha,20.2961,85.8245,29.0,85,0.0,999.0,9.1,41.0,55,13.0,10.4,4.4,198.0,66.0,3.8,7,5,7,1,2026-05-18T00:52:38.738349+05:30
Cuttack,Odisha,20.4625,85.8828,29.3,84,0.0,1000.7,9.15,43.6,55,13.0,10.4,4.4,211.0,66.0,3.8,7,5,4,1,2026-05-18T00:52:38.738355+05:30
Rourkela,Odisha,22.2604,84.8536,28.8,75,0.0,980.7,8.95,33.8,149,93.4,73.8,21.8,267.0,94.0,17.8,7,5,7,1,2026-05-18T00:52:38.738362+05:30
Raipur,Chhattisgarh,21.2514,81.6296,30.6,53,0.0,971.0,8.95,34.2,113,49.7,42.4,26.8,385.0,67.0,28.5,0,5,7,1,2026-05-18T00:52:38.738368+05:30
Bhilai,Chhattisgarh,21.1938,81.3509,30.1,60,0.0,971.5,9.0,33.1,100,44.9,39.6,31.3,405.0,60.0,38.4,0,5,7,1,2026-05-18T00:52:38.738374+05:30
Guwahati,Assam,26.1158,91.7086,22.0,98,0.4,998.9,8.6,25.6,69,19.6,15.5,6.8,287.0,73.0,2.9,6,5,7,1,2026-05-18T00:52:38.738381+05:30
Agartala,Tripura,23.8315,91.2868,26.6,90,0.0,1002.6,8.9,36.4,68,20.8,16.8,12.0,219.0,27.0,1.7,7,5,4,1,2026-05-18T00:52:38.738388+05:30
Shillong,Meghalaya,25.5788,91.8933,18.1,95,0.0,853.7,5.95,36.4,54,11.4,8.6,4.3,216.0,97.0,4.6,3,10,3,1,2026-05-18T00:52:38.738394+05:30
Imphal,Manipur,24.817,93.9368,20.9,97,0.1,920.2,8.8,33.1,68,13.2,10.8,10.7,232.0,42.0,3.2,6,5,7,1,2026-05-18T00:52:38.738401+05:30
Aizawl,Mizoram,23.7271,92.7176,18.8,96,0.0,889.5,9.05,40.3,55,28.9,19.2,6.1,172.0,58.0,3.1,3,10,7,1,2026-05-18T00:52:38.738407+05:30
Kohima,Nagaland,25.6701,94.1077,15.2,93,0.0,850.3,5.7,31.7,59,19.7,13.3,6.7,257.0,52.0,2.1,3,10,3,0,2026-05-18T00:52:38.738414+05:30
Gangtok,Sikkim,27.3314,88.6138,14.2,100,0.0,833.0,9.15,39.6,62,26.5,23.2,16.6,472.0,63.0,2.2,3,10,7,0,2026-05-18T00:52:38.738421+05:30
Siliguri,West Bengal,26.7271,88.3953,22.8,98,0.0,989.4,8.75,25.9,92,41.7,34.9,15.2,327.0,93.0,5.9,3,5,7,1,2026-05-18T00:52:42.115876+05:30
Durgapur,West Bengal,23.5204,87.3119,28.5,83,0.0,989.7,8.95,34.9,133,61.9,54.8,22.2,533.0,95.0,40.1,7,5,7,1,2026-05-18T00:52:42.115910+05:30
Asansol,West Bengal,23.6739,86.9524,28.8,80,0.0,988.3,9.0,36.0,131,71.0,62.2,30.0,364.0,79.0,54.5,7,5,7,1,2026-05-18T00:52:42.115923+05:30
Pondicherry,Puducherry,11.9139,79.8145,28.4,87,0.0,1005.6,8.4,38.9,72,16.2,12.2,9.4,260.0,79.0,11.1,7,5,4,1,2026-05-18T00:52:42.115933+05:30
Port Blair,Andaman and Nicobar Islands,11.6234,92.7265,26.6,91,0.0,1004.8,8.95,47.2,23,6.5,3.7,0.3,96.0,45.0,0.2,7,5,4,1,2026-05-18T00:52:42.115943+05:30
Haridwar,Uttarakhand,29.9457,78.1642,24.4,65,0.0,965.9,7.55,25.9,81,25.6,24.9,18.8,378.0,69.0,8.7,3,5,7,1,2026-05-18T00:52:42.115952+05:30
Rishikesh,Uttarakhand,30.0869,78.2676,21.8,71,0.0,958.5,7.65,26.6,104,33.3,24.3,15.9,347.0,94.0,7.4,3,5,7,1,2026-05-18T00:52:42.115962+05:30
Nainital,Uttarakhand,29.3919,79.4542,14.9,68,0.0,800.0,8.5,29.2,108,35.0,17.5,9.3,283.0,118.0,5.9,3,5,7,0,2026-05-18T00:52:42.115971+05:30
Mussoorie,Uttarakhand,30.4599,78.0664,16.5,56,0.0,798.2,8.05,46.1,83,31.0,27.9,29.5,268.0,66.0,8.7,0,5,7,0,2026-05-18T00:52:42.115980+05:30
Dharamshala,Himachal Pradesh,32.219,76.3234,22.2,46,0.0,865.0,8.45,42.5,46,10.5,9.1,10.2,227.0,55.0,0.4,0,5,7,0,2026-05-18T00:52:42.115989+05:30
Dalhousie,Himachal Pradesh,32.5387,75.971,12.4,76,0.0,798.1,8.7,38.2,66,28.3,24.5,29.1,359.0,38.0,2.4,3,5,7,0,2026-05-18T00:52:42.115999+05:30
Patiala,Punjab,30.3398,76.3869,29.6,43,0.0,971.3,7.65,32.8,598,814.0,135.5,8.9,436.0,83.0,7.6,4,5,7,0,2026-05-18T00:52:42.116008+05:30
Bhatinda,Punjab,30.211,74.9455,29.5,53,0.0,977.1,8.3,36.4,85,58.8,34.8,11.6,415.0,81.0,7.9,4,5,7,1,2026-05-18T00:52:42.116017+05:30
Rohtak,Haryana,28.8955,76.6066,29.2,41,0.0,975.2,7.75,39.2,784,817.7,165.8,19.4,359.0,59.0,7.9,4,5,7,0,2026-05-18T00:52:42.116025+05:30
Panipat,Haryana,29.3909,76.9635,29.6,39,0.0,973.2,7.6,34.9,1754,1821.7,299.9,11.6,359.0,75.0,8.2,4,5,7,0,2026-05-18T00:52:42.116034+05:30
Mathura,Uttar Pradesh,27.4924,77.6737,30.5,39,0.0,980.2,8.0,38.9,593,501.1,103.6,13.8,311.0,56.0,6.6,0,5,7,0,2026-05-18T00:52:42.116043+05:30
Vrindavan,Uttar Pradesh,27.5823,77.7027,29.8,43,0.0,980.5,8.0,37.1,593,501.1,103.6,13.8,308.0,56.0,6.6,4,5,7,0,2026-05-18T00:52:42.116079+05:30
Ayodhya,Uttar Pradesh,26.7922,82.1998,29.2,55,0.0,988.3,8.35,24.1,147,253.3,78.7,15.5,383.0,72.0,10.5,4,5,7,1,2026-05-18T00:52:42.116090+05:30
Ratlam,Madhya Pradesh,23.3315,75.0367,31.0,24,0.0,950.4,8.55,44.3,62,35.7,19.4,3.8,223.0,69.0,3.9,0,5,7,0,2026-05-18T00:52:42.116097+05:30
Sagar,Madhya Pradesh,23.8388,78.7378,31.2,30,0.0,946.2,8.75,42.8,82,139.2,34.6,14.5,281.0,81.0,4.6,0,5,7,0,2026-05-18T00:52:42.116104+05:30
Satna,Madhya Pradesh,24.6005,80.8322,30.9,31,0.0,966.0,8.8,51.5,102,128.5,37.4,21.4,302.0,59.0,3.9,0,5,7,0,2026-05-18T00:52:42.116110+05:30
Akola,Maharashtra,20.7002,77.0082,34.7,25,0.0,970.7,8.9,32.8,54,15.5,11.8,9.5,207.0,83.0,8.5,0,5,7,0,2026-05-18T00:52:42.116118+05:30
Amravati,Maharashtra,20.9374,77.7796,33.7,25,0.0,963.0,8.9,29.2,60,23.7,19.6,23.6,304.0,55.0,7.8,0,5,7,0,2026-05-18T00:52:42.116126+05:30
Latur,Maharashtra,18.4088,76.5604,30.9,43,0.0,937.1,8.9,32.4,74,27.1,23.3,17.9,320.0,71.0,8.8,0,5,7,1,2026-05-18T00:52:42.116133+05:30
Nanded,Maharashtra,19.1383,77.3091,32.0,45,0.0,965.0,9.0,28.1,72,30.9,27.5,18.7,298.0,68.0,6.2,0,5,7,1,2026-05-18T00:52:42.116140+05:30
Gulbarga,Karnataka,17.3297,76.8343,31.1,53,0.0,955.7,9.1,36.0,90,38.8,30.5,10.9,237.0,98.0,13.1,0,5,7,1,2026-05-18T00:52:42.116147+05:30
Bidar,Karnataka,17.9104,77.5199,29.5,55,0.0,932.7,9.1,27.4,91,38.0,30.7,11.5,281.0,90.0,6.8,4,5,7,1,2026-05-18T00:52:42.116154+05:30
Hospet,Karnataka,15.2689,76.3909,24.9,97,0.0,953.0,8.85,40.7,71,12.5,10.5,7.0,244.0,64.0,1.8,3,5,7,1,2026-05-18T00:52:42.116160+05:30
Tirupur,Tamil Nadu,11.1085,77.3411,24.6,96,0.1,973.5,4.6,52.9,70,16.4,13.9,13.1,172.0,50.0,4.8,6,5,3,1,2026-05-18T00:52:42.116167+05:30
Alappuzha,Kerala,9.4981,76.3388,25.4,99,0.0,1007.7,6.0,33.1,49,10.9,7.9,7.5,156.0,60.0,2.1,7,5,0,1,2026-05-18T00:52:42.116174+05:30
Munnar,Kerala,10.0889,77.0595,18.0,100,0.0,855.4,5.8,31.0,32,5.7,5.6,7.1,164.0,43.0,1.8,3,10,3,1,2026-05-18T00:52:42.116181+05:30
Silchar,Assam,24.8333,92.7789,24.7,99,0.0,1002.1,8.7,37.4,59,12.6,9.1,4.9,255.0,76.0,3.1,3,5,4,1,2026-05-18T00:52:42.116187+05:30
Dibrugarh,Assam,27.4728,94.912,22.1,98,0.4,992.9,7.1,21.6,71,19.1,17.1,12.8,239.0,45.0,1.1,6,5,7,1,2026-05-18T00:52:42.116194+05:30
