city,state,latitude,longitude,temp,humidity,rain,pressure,uv_index,wind_gusts,aqi,pm10,pm2_5,no2,co,o3,so2,mosquito_risk,arthritis_risk,migraine_risk,frizz_risk,updated_at
Delhi,Delhi,28.6139,77.209,25.7,79,0.0,979.0,7.8,22.0,239,292.4,138.8,84.6,1078.0,3.0,33.1,7,5,7,1,2026-06-14T05:40:09.067742+05:30
Mumbai,Maharashtra,19.076,72.8777,29.2,79,0.0,1007.8,7.7,51.1,69,49.4,20.1,2.2,129.0,52.0,2.3,7,5,4,1,2026-06-14T05:40:09.067799+05:30
Bangalore,Karnataka,12.9716,77.5946,20.7,97,0.0,911.5,6.55,40.3,48,12.4,8.1,9.2,194.0,38.0,4.1,3,5,7,1,2026-06-14T05:40:09.067818+05:30
Hyderabad,Telangana,17.385,78.4867,26.7,64,0.0,951.5,5.05,42.1,91,33.1,22.8,13.5,187.0,48.0,8.2,7,5,3,1,2026-06-14T05:40:09.067830+05:30
Chennai,Tamil Nadu,13.0827,80.2707,28.1,71,0.0,1005.5,8.45,42.8,58,18.4,15.9,18.0,239.0,41.0,7.8,7,5,4,1,2026-06-14T05:40:09.067840+05:30
Kolkata,West Bengal,22.5726,88.3639,27.7,93,0.0,1001.8,8.35,29.9,112,50.4,45.8,17.4,514.0,70.0,8.0,7,5,4,1,2026-06-14T05:40:09.067848+05:30
Pune,Maharashtra,18.5204,73.8567,24.6,84,0.0,947.6,8.3,52.9,56,22.7,12.7,9.1,111.0,34.0,7.1,3,5,7,1,2026-06-14T05:40:09.067855+05:30
Ahmedabad,Gujarat,23.0225,72.5714,29.3,70,0.0,1000.5,8.05,44.6,70,40.2,18.6,4.5,114.0,43.0,4.3,7,5,4,1,2026-06-14T05:40:09.067864+05:30
Jaipur,Rajasthan,26.9124,75.7873,25.4,75,0.0,955.5,8.2,29.9,110,138.3,42.0,7.0,260.0,54.0,4.2,7,5,7,1,2026-06-14T05:40:09.067875+05:30
Lucknow,Uttar Pradesh,26.8467,80.9462,26.5,78,0.0,989.1,8.35,26.3,140,184.9,77.5,60.0,805.0,11.0,15.0,7,5,7,1,2026-06-14T05:40:09.067883+05:30
Kanpur,Uttar Pradesh,26.4499,80.3319,27.9,66,0.0,987.6,8.3,33.8,150,250.5,78.2,67.4,816.0,7.0,13.6,7,5,7,1,2026-06-14T05:40:09.067890+05:30
Chandigarh,Chandigarh,30.7333,76.7794,21.0,85,0.0,964.4,7.8,19.4,97,48.2,35.0,43.4,425.0,6.0,3.7,3,5,7,1,2026-06-14T05:40:09.067898+05:30
Srinagar,Jammu and Kashmir,34.0837,74.7973,11.9,100,0.0,839.3,9.0,24.8,70,28.4,27.2,14.6,375.0,38.0,0.2,3,10,7,0,2026-06-14T05:40:09.067906+05:30
Jammu,Jammu and Kashmir,32.7266,74.857,21.6,78,0.0,968.3,8.6,29.5,84,39.3,34.2,37.2,467.0,10.0,1.8,3,5,7,1,2026-06-14T05:40:09.067913+05:30
Amritsar,Punjab,31.634,74.8723,22.4,85,0.0,976.8,8.45,18.0,98,83.6,56.5,49.7,532.0,16.0,6.9,3,5,7,1,2026-06-14T05:40:09.067920+05:30
Ludhiana,Punjab,30.901,75.8573,22.3,85,0.0,974.7,8.05,20.5,127,73.1,56.5,46.2,611.0,21.0,10.5,3,5,7,1,2026-06-14T05:40:09.067930+05:30
Jalandhar,Punjab,31.326,75.5762,21.7,85,0.0,975.7,8.25,21.2,99,56.9,43.8,42.7,584.0,20.0,4.5,3,5,7,1,2026-06-14T05:40:09.067940+05:30
Dehradun,Uttarakhand,30.6284,78.0322,12.0,97,0.0,824.9,8.3,29.2,54,17.9,11.2,20.4,189.0,6.0,0.0,3,10,7,0,2026-06-14T05:40:09.067947+05:30
Shimla,Himachal Pradesh,31.1048,77.1734,9.5,79,0.0,778.2,8.35,32.4,59,29.7,14.9,24.3,176.0,31.0,0.7,3,5,7,0,2026-06-14T05:40:09.067957+05:30
Manali,Himachal Pradesh,32.2396,77.1887,12.4,70,0.0,813.6,9.75,31.0,39,2.4,2.2,16.6,170.0,110.0,0.0,3,5,7,0,2026-06-14T05:40:09.067964+05:30
Gurgaon,Haryana,28.4595,77.0266,25.9,76,0.0,977.5,7.85,27.0,647,501.1,183.9,107.1,829.0,5.0,43.2,7,5,7,1,2026-06-14T05:40:09.067971+05:30
Noida,Uttar Pradesh,28.5355,77.391,25.9,79,0.0,980.5,7.85,24.5,647,501.1,183.9,107.1,886.0,5.0,43.2,7,5,7,1,2026-06-14T05:40:09.067978+05:30
Ghaziabad,Uttar Pradesh,28.6692,77.4538,25.3,89,0.0,978.7,7.8,25.9,167,186.3,104.3,65.6,999.0,6.0,19.9,7,5,7,1,2026-06-14T05:40:09.067984+05:30
Faridabad,Haryana,28.4089,77.3178,26.0,76,0.0,979.7,7.85,26.3,647,501.1,183.9,107.1,868.0,5.0,43.2,7,5,7,1,2026-06-14T05:40:09.067991+05:30
Meerut,Uttar Pradesh,28.9845,77.7064,24.7,96,0.0,977.7,7.75,30.6,167,186.3,104.3,65.6,779.0,6.0,19.9,3,5,7,1,2026-06-14T05:40:09.067999+05:30
Agra,Uttar Pradesh,27.1767,78.0081,26.3,76,0.0,983.6,8.15,30.2,585,476.8,145.3,79.3,595.0,2.0,23.6,7,5,7,1,2026-06-14T05:40:09.068005+05:30
Varanasi,Uttar Pradesh,25.3176,82.9739,28.6,79,0.0,993.2,8.8,36.4,170,182.5,149.9,62.6,915.0,30.0,24.3,7,5,7,1,2026-06-14T05:40:09.068013+05:30
Prayagraj,Uttar Pradesh,25.4358,81.8463,29.2,79,0.0,991.7,8.7,36.7,165,119.7,107.6,48.7,460.0,19.0,15.1,7,5,7,1,2026-06-14T05:40:09.068020+05:30
Gorakhpur,Uttar Pradesh,26.7606,83.3732,27.0,87,0.0,992.8,8.7,29.5,154,129.5,102.2,52.7,563.0,27.0,13.4,7,5,7,1,2026-06-14T05:40:09.068030+05:30
Bareilly,Uttar Pradesh,28.367,79.4304,24.4,89,0.0,982.8,8.15,29.5,154,130.9,92.7,56.4,588.0,8.0,12.5,3,5,7,1,2026-06-14T05:40:09.068037+05:30
Aligarh,Uttar Pradesh,27.8974,78.088,25.5,79,0.0,981.3,8.0,28.8,264,284.1,129.0,74.2,771.0,5.0,21.2,7,5,7,1,2026-06-14T05:40:09.068043+05:30
Moradabad,Uttar Pradesh,28.8386,78.7733,24.2,88,0.0,979.8,7.95,34.6,142,122.5,80.3,54.2,638.0,9.0,10.4,3,5,7,1,2026-06-14T05:40:09.068050+05:30
Saharanpur,Uttar Pradesh,29.9637,77.546,23.2,92,0.0,971.7,7.55,22.3,125,112.0,75.7,59.7,611.0,6.0,13.1,3,5,7,1,2026-06-14T05:40:09.068056+05:30
Jhansi,Uttar Pradesh,25.4484,78.5685,27.4,73,0.0,974.1,8.5,56.9,104,33.4,20.7,14.3,193.0,39.0,3.5,7,5,7,1,2026-06-14T05:40:12.316474+05:30
Surat,Gujarat,21.1702,72.8311,29.1,79,0.0,1005.7,7.6,53.6,76,48.0,26.1,16.8,270.0,33.0,29.1,7,5,4,1,2026-06-14T05:40:12.316511+05:30
Vadodara,Gujarat,22.3072,73.1812,29.0,71,0.0,1002.8,8.0,46.8,70,38.2,22.4,7.0,122.0,37.0,4.3,7,5,4,1,2026-06-14T05:40:12.316523+05:30
Rajkot,Gujarat,22.3039,70.8022,28.1,78,0.0,992.7,7.55,52.6,70,45.9,19.9,3.1,94.0,48.0,3.7,7,5,7,1,2026-06-14T05:40:12.316533+05:30
Thane,Maharashtra,19.2183,72.9781,29.2,79,0.0,1007.1,7.7,47.5,69,49.4,20.1,2.2,124.0,52.0,2.3,7,5,4,1,2026-06-14T05:40:12.316541+05:30
Nagpur,Maharashtra,21.1458,79.0882,27.8,74,0.0,970.0,8.1,50.0,109,69.8,39.7,23.3,327.0,37.0,13.2,7,5,7,1,2026-06-14T05:40:12.316549+05:30
Nashik,Maharashtra,19.9975,73.7898,24.1,91,0.0,944.7,8.05,55.4,58,29.1,14.7,4.2,105.0,40.0,1.2,3,5,7,1,2026-06-14T05:40:12.316556+05:30
Aurangabad,Maharashtra,19.8762,75.3433,25.2,82,0.0,943.4,8.95,52.6,62,22.0,11.7,6.4,115.0,40.0,5.1,7,5,7,1,2026-06-14T05:40:12.316564+05:30
Solapur,Maharashtra,17.6599,75.9064,26.3,73,0.0,956.7,8.9,47.5,63,24.7,12.9,5.8,125.0,43.0,3.6,7,5,7,1,2026-06-14T05:40:12.316572+05:30
Kolhapur,Maharashtra,16.705,74.2433,24.2,91,0.0,947.8,8.75,54.0,45,13.5,7.7,4.4,119.0,43.0,2.0,3,5,7,1,2026-06-14T05:40:12.316579+05:30
Goa,Goa,15.2993,74.124,26.6,96,0.1,998.6,8.0,33.8,65,44.7,24.8,7.8,265.0,42.0,2.4,10,5,7,1,2026-06-14T05:40:12.316587+05:30
Jodhpur,Rajasthan,26.2389,73.0243,30.3,60,0.0,978.8,8.45,43.6,145,353.0,85.2,2.3,108.0,55.0,3.3,0,5,7,1,2026-06-14T05:40:12.316596+05:30
Udaipur,Rajasthan,24.5854,73.7125,26.7,76,0.0,943.8,8.85,43.2,77,29.6,16.6,3.5,109.0,49.0,2.8,7,5,7,1,2026-06-14T05:40:12.316603+05:30
Kota,Rajasthan,25.2138,75.8648,28.2,65,0.0,974.8,8.35,35.3,105,77.5,39.1,11.4,172.0,43.0,5.1,7,5,7,1,2026-06-14T05:40:12.316611+05:30
Bikaner,Rajasthan,28.0229,73.3119,28.5,70,0.0,976.8,8.45,32.4,154,94.3,47.1,7.1,149.0,33.0,3.4,7,5,7,1,2026-06-14T05:40:12.316619+05:30
Ajmer,Rajasthan,26.4499,74.6399,27.6,64,0.0,950.9,8.35,40.3,100,58.6,27.1,6.9,160.0,49.0,3.5,7,5,7,1,2026-06-14T05:40:12.316626+05:30
Gwalior,Madhya Pradesh,26.2183,78.1828,26.9,71,0.0,979.1,8.3,46.4,149,39.1,21.0,11.9,151.0,41.0,3.5,7,5,7,1,2026-06-14T05:40:12.316633+05:30
Indore,Madhya Pradesh,22.7196,75.8577,24.4,82,0.0,945.8,8.6,50.8,78,35.2,20.5,6.5,156.0,44.0,8.8,3,5,7,1,2026-06-14T05:40:12.316640+05:30
Bhopal,Madhya Pradesh,23.2599,77.4126,26.7,64,0.0,950.5,8.65,43.6,104,46.8,30.5,8.4,227.0,61.0,5.8,7,5,7,1,2026-06-14T05:40:12.316648+05:30
Jabalpur,Madhya Pradesh,23.1815,79.9864,27.1,66,0.0,958.0,8.05,39.2,102,46.7,28.1,13.6,257.0,53.0,3.6,7,5,7,1,2026-06-14T05:40:12.316654+05:30
Ujjain,Madhya Pradesh,23.1765,75.7885,23.8,87,0.0,951.1,8.55,47.2,76,35.2,21.2,6.8,175.0,40.0,9.7,3,5,7,1,2026-06-14T05:40:12.316662+05:30
Visakhapatnam,Andhra Pradesh,17.6868,83.2185,28.6,81,0.0,999.6,8.8,42.8,95,41.3,33.4,23.6,468.0,48.0,34.8,7,5,7,1,2026-06-14T05:40:12.316669+05:30
Vijayawada,Andhra Pradesh,16.5062,80.648,28.4,76,0.0,999.4,8.7,33.5,80,27.9,21.1,10.3,241.0,60.0,5.7,7,5,7,1,2026-06-14T05:40:12.316676+05:30
Guntur,Andhra Pradesh,16.3067,80.4365,28.1,74,0.0,1000.8,8.95,32.4,78,29.5,21.0,10.8,220.0,57.0,5.8,7,5,4,1,2026-06-14T05:40:12.316684+05:30
Nellore,Andhra Pradesh,14.4426,79.9865,28.3,71,0.0,1003.7,7.8,43.9,60,24.3,15.8,8.1,145.0,52.0,4.4,7,5,4,1,2026-06-14T05:40:12.316691+05:30
Kurnool,Andhra Pradesh,15.8281,78.0373,26.8,77,0.0,976.0,4.8,44.6,74,20.8,13.4,8.0,154.0,42.0,3.2,7,5,3,1,2026-06-14T05:40:12.316699+05:30
Kakinada,Andhra Pradesh,16.9891,82.2475,28.2,78,0.0,1003.8,8.8,44.6,76,34.7,24.8,5.9,271.0,91.0,4.7,7,5,4,1,2026-06-14T05:40:12.316706+05:30
Tirupati,Andhra Pradesh,13.6288,79.4192,27.4,72,0.0,989.6,8.8,34.9,57,16.5,13.1,16.0,136.0,32.0,3.2,7,5,7,1,2026-06-14T05:40:12.316713+05:30
Warangal,Telangana,17.9689,79.5941,28.7,56,0.0,975.6,7.9,37.4,112,61.0,38.9,15.7,268.0,52.0,6.3,4,5,7,1,2026-06-14T05:40:12.316720+05:30
Nizamabad,Telangana,18.6725,78.0941,28.9,56,0.0,963.0,9.0,54.0,102,26.5,18.7,7.6,161.0,60.0,4.8,4,5,7,1,2026-06-14T05:40:12.316727+05:30
Mysore,Karnataka,12.2958,76.6396,22.0,93,0.0,928.9,8.95,38.9,39,13.3,8.2,5.9,122.0,40.0,2.0,3,5,7,1,2026-06-14T05:40:12.316734+05:30
Mangalore,Karnataka,12.9141,74.856,24.3,98,0.1,1008.4,8.65,29.5,55,33.5,16.9,6.6,322.0,43.0,3.1,6,0,4,1,2026-06-14T05:40:12.316741+05:30
Hubli-Dharwad,Karnataka,15.3647,75.124,23.5,93,0.0,940.9,8.05,51.8,43,19.5,10.5,4.1,121.0,40.0,1.8,3,5,7,1,2026-06-14T05:40:12.316747+05:30
Belgaum,Karnataka,15.8497,74.4977,22.4,97,0.0,925.5,6.65,48.2,42,12.2,6.2,2.5,108.0,47.0,1.2,3,5,7,1,2026-06-14T05:40:15.575545+05:30
Coimbatore,Tamil Nadu,11.0168,76.9558,23.2,93,0.0,962.2,8.35,44.6,32,18.0,9.5,5.6,149.0,41.0,2.9,3,5,7,1,2026-06-14T05:40:15.575582+05:30
Madurai,Tamil Nadu,9.9252,78.1198,27.2,66,0.0,993.1,8.55,47.2,57,27.6,23.3,32.8,162.0,3.0,5.4,7,5,7,1,2026-06-14T05:40:15.575595+05:30
Trichy,Tamil Nadu,10.7905,78.7047,27.8,68,0.0,999.5,7.75,50.8,53,23.9,13.4,6.0,121.0,44.0,3.0,7,5,7,1,2026-06-14T05:40:15.575604+05:30
Salem,Tamil Nadu,11.6643,78.146,22.6,96,0.2,977.7,8.75,32.8,56,26.2,19.4,20.6,305.0,24.0,6.2,6,5,7,1,2026-06-14T05:40:15.575613+05:30
Tirunelveli,Tamil Nadu,8.7139,77.7567,27.7,72,0.0,1003.6,8.65,45.4,41,14.1,9.3,7.4,141.0,37.0,2.8,7,5,4,1,2026-06-14T05:40:15.575622+05:30
Vellore,Tamil Nadu,12.9165,79.1325,26.5,75,0.0,983.5,8.15,46.1,54,16.2,11.9,13.8,200.0,36.0,4.7,7,5,7,1,2026-06-14T05:40:15.575630+05:30
Erode,Tamil Nadu,11.341,77.7172,25.3,83,0.0,989.8,8.45,42.1,50,18.4,12.9,12.1,136.0,33.0,3.3,7,5,7,1,2026-06-14T05:40:15.575638+05:30
Kochi,Kerala,9.9312,76.2673,24.5,96,0.2,1011.3,7.6,37.1,67,19.5,13.1,12.7,235.0,26.0,3.1,6,0,4,1,2026-06-14T05:40:15.575646+05:30
Thiruvananthapuram,Kerala,8.5241,76.9366,24.4,96,0.1,1010.2,8.3,43.9,35,23.3,10.8,2.2,143.0,58.0,1.1,6,0,4,1,2026-06-14T05:40:15.575654+05:30
Kozhikode,Kerala,11.2588,75.7804,23.4,99,0.0,1010.1,8.2,32.8,36,18.4,7.0,0.7,152.0,66.0,0.9,3,0,4,1,2026-06-14T05:40:15.575661+05:30
Thrissur,Kerala,10.5276,76.2144,23.3,99,0.3,1009.7,8.4,33.8,69,17.6,12.1,8.8,178.0,34.0,2.5,6,0,4,1,2026-06-14T05:40:15.575668+05:30
Kannur,Kerala,11.8745,75.3704,23.6,97,0.0,1009.0,8.1,34.6,50,18.0,7.8,2.6,209.0,54.0,1.2,3,0,4,1,2026-06-14T05:40:15.575675+05:30
Patna,Bihar,25.5941,85.1376,27.2,80,0.0,996.4,8.9,27.7,172,136.4,122.5,37.5,706.0,43.0,19.3,7,5,7,1,2026-06-14T05:40:15.575682+05:30
Gaya,Bihar,24.7914,85.0002,27.2,80,0.0,990.0,8.95,30.2,167,113.6,102.0,29.7,442.0,38.0,11.2,7,5,7,1,2026-06-14T05:40:15.575689+05:30
Muzaffarpur,Bihar,26.1209,85.3647,26.8,89,0.0,996.3,8.6,24.8,170,119.2,105.5,26.2,600.0,59.0,15.2,7,5,7,1,2026-06-14T05:40:15.575696+05:30
Bhagalpur,Bihar,25.2425,87.0117,26.1,93,0.0,997.5,8.85,22.0,158,68.9,65.7,16.3,378.0,73.0,27.4,7,5,7,1,2026-06-14T05:40:15.575703+05:30
Ranchi,Jharkhand,23.3441,85.3096,24.2,78,0.0,934.0,8.0,29.2,142,63.1,53.6,16.9,265.0,65.0,7.4,3,5,7,1,2026-06-14T05:40:15.575710+05:30
Jamshedpur,Jharkhand,22.8046,86.2029,27.1,89,0.0,987.1,9.1,27.0,156,89.6,80.3,32.0,438.0,48.0,27.4,7,5,7,1,2026-06-14T05:40:15.575716+05:30
Dhanbad,Jharkhand,23.7957,86.4304,26.1,87,0.0,975.9,8.45,20.9,170,140.6,129.9,66.1,308.0,16.0,214.0,7,5,7,1,2026-06-14T05:40:15.575724+05:30
Bokaro,Jharkhand,23.6693,86.1511,26.3,88,0.0,979.8,8.6,29.2,163,125.3,113.9,48.7,410.0,22.0,160.9,7,5,7,1,2026-06-14T05:40:15.575730+05:30
Bhubaneswar,Odisha,20.2961,85.8245,28.7,96,0.0,998.1,9.05,31.3,119,39.9,35.5,12.3,370.0,90.0,8.1,7,5,7,1,2026-06-14T05:40:15.575737+05:30
Cuttack,Odisha,20.4625,85.8828,28.7,95,0.0,1000.0,9.15,28.8,119,39.9,35.5,12.3,375.0,90.0,8.1,7,5,4,1,2026-06-14T05:40:15.575744+05:30
Rourkela,Odisha,22.2604,84.8536,27.5,81,0.0,981.4,8.75,29.5,150,88.0,80.6,27.5,578.0,64.0,18.0,7,5,7,1,2026-06-14T05:40:15.575751+05:30
Raipur,Chhattisgarh,21.2514,81.6296,29.4,61,0.0,971.1,8.95,54.4,134,78.5,51.1,36.3,488.0,43.0,52.6,7,5,7,1,2026-06-14T05:40:15.575759+05:30
Bhilai,Chhattisgarh,21.1938,81.3509,28.0,68,0.0,971.5,8.95,54.4,126,75.7,47.6,25.5,658.0,55.0,38.2,7,5,7,1,2026-06-14T05:40:15.575765+05:30
Guwahati,Assam,26.1158,91.7086,24.6,98,0.0,998.4,8.15,29.9,76,37.4,32.5,10.9,353.0,44.0,2.1,3,5,7,1,2026-06-14T05:40:15.575771+05:30
Agartala,Tripura,23.8315,91.2868,26.2,91,0.0,1002.8,8.5,32.4,72,20.4,16.9,12.2,222.0,54.0,2.3,7,5,4,1,2026-06-14T05:40:15.575778+05:30
Shillong,Meghalaya,25.5788,91.8933,18.6,98,0.0,854.1,7.35,22.7,53,17.7,12.7,4.2,235.0,75.0,1.9,3,10,7,1,2026-06-14T05:40:15.575785+05:30
Imphal,Manipur,24.817,93.9368,22.2,95,0.0,920.6,9.2,31.3,60,26.7,21.7,6.7,314.0,65.0,2.8,3,5,7,1,2026-06-14T05:40:15.575792+05:30
Aizawl,Mizoram,23.7271,92.7176,19.6,95,0.0,889.6,9.1,28.8,50,12.3,9.6,4.5,168.0,35.0,0.6,3,10,7,1,2026-06-14T05:40:15.575798+05:30
Kohima,Nagaland,25.6701,94.1077,19.6,94,0.0,853.0,7.65,28.1,33,16.3,12.3,4.0,229.0,64.0,0.9,3,10,7,1,2026-06-14T05:40:15.575805+05:30
Gangtok,Sikkim,27.3314,88.6138,16.5,91,0.0,834.3,9.2,39.6,73,26.8,20.4,9.6,586.0,101.0,2.0,3,10,7,0,2026-06-14T05:40:15.575812+05:30
Siliguri,West Bengal,26.7271,88.3953,23.7,99,0.0,989.7,8.75,31.7,130,49.0,34.9,8.2,432.0,116.0,3.0,3,5,7,1,2026-06-14T05:40:18.829490+05:30
Durgapur,West Bengal,23.5204,87.3119,27.1,91,0.0,991.1,8.9,29.5,162,130.4,122.9,51.0,1403.0,25.0,62.3,7,5,7,1,2026-06-14T05:40:18.829529+05:30
Asansol,West Bengal,23.6739,86.9524,26.9,87,0.0,989.6,8.9,23.8,161,115.7,106.6,55.1,817.0,23.0,79.6,7,5,7,1,2026-06-14T05:40:18.829541+05:30
Pondicherry,Puducherry,11.9139,79.8145,26.5,84,0.0,1007.3,8.55,40.7,58,25.3,20.7,18.5,277.0,40.0,8.8,7,5,4,1,2026-06-14T05:40:18.829551+05:30
Port Blair,Andaman and Nicobar Islands,11.6234,92.7265,27.6,83,0.0,1007.8,7.15,49.3,23,14.7,8.4,0.3,91.0,43.0,0.4,7,5,4,1,2026-06-14T05:40:18.829559+05:30
Haridwar,Uttarakhand,29.9457,78.1642,22.1,83,0.0,969.9,7.65,25.2,96,72.6,46.2,41.0,282.0,23.0,5.5,3,5,7,1,2026-06-14T05:40:18.829567+05:30
Rishikesh,Uttarakhand,30.0869,78.2676,20.7,84,0.0,962.6,7.75,27.7,72,58.1,25.6,14.7,303.0,85.0,3.8,3,5,7,1,2026-06-14T05:40:18.829575+05:30
Nainital,Uttarakhand,29.3919,79.4542,13.9,76,0.0,801.5,8.6,35.6,93,47.4,30.2,29.5,240.0,41.0,2.3,3,5,7,0,2026-06-14T05:40:18.829583+05:30
Mussoorie,Uttarakhand,30.4599,78.0664,14.6,65,0.0,799.3,8.15,43.6,74,42.3,26.0,41.4,180.0,11.0,3.4,3,5,7,0,2026-06-14T05:40:18.829591+05:30
Dharamshala,Himachal Pradesh,32.219,76.3234,19.4,49,0.0,865.3,8.5,43.9,28,7.3,5.9,11.8,244.0,43.0,0.1,0,5,7,0,2026-06-14T05:40:18.829599+05:30
Dalhousie,Himachal Pradesh,32.5387,75.971,9.7,87,0.0,797.5,8.75,40.0,65,17.8,15.7,26.7,206.0,17.0,0.6,3,10,7,0,2026-06-14T05:40:18.829606+05:30
Patiala,Punjab,30.3398,76.3869,23.3,80,0.0,974.2,7.7,22.0,144,85.2,59.5,37.1,424.0,38.0,15.1,3,5,7,1,2026-06-14T05:40:18.829615+05:30
Bhatinda,Punjab,30.211,74.9455,25.3,79,0.0,980.1,8.35,19.4,160,71.9,45.1,38.3,396.0,25.0,8.0,7,5,7,1,2026-06-14T05:40:18.829622+05:30
Rohtak,Haryana,28.8955,76.6066,25.6,89,0.0,977.8,7.8,29.9,535,480.6,173.7,94.4,794.0,2.0,25.5,7,5,7,1,2026-06-14T05:40:18.829630+05:30
Panipat,Haryana,29.3909,76.9635,24.7,93,0.0,976.6,7.65,24.5,598,223.5,102.9,50.2,847.0,5.0,8.8,3,5,7,1,2026-06-14T05:40:18.829638+05:30
Mathura,Uttar Pradesh,27.4924,77.6737,25.8,77,0.0,982.5,8.1,24.5,485,450.8,136.9,76.1,737.0,3.0,13.8,7,5,7,1,2026-06-14T05:40:18.829646+05:30
Vrindavan,Uttar Pradesh,27.5823,77.7027,26.0,75,0.0,983.0,8.05,26.3,485,450.8,136.9,76.1,714.0,3.0,13.8,7,5,7,1,2026-06-14T05:40:18.829653+05:30
Ayodhya,Uttar Pradesh,26.7922,82.1998,26.9,87,0.0,990.9,8.4,29.9,149,125.7,95.9,60.4,558.0,8.0,11.5,7,5,7,1,2026-06-14T05:40:18.829660+05:30
Ratlam,Madhya Pradesh,23.3315,75.0367,25.9,83,0.0,952.4,8.5,47.9,75,31.5,19.4,7.6,149.0,37.0,10.3,7,5,7,1,2026-06-14T05:40:18.829668+05:30
Sagar,Madhya Pradesh,23.8388,78.7378,26.5,62,0.0,946.7,8.75,35.3,77,33.6,21.5,14.5,175.0,48.0,3.4,7,5,7,1,2026-06-14T05:40:18.829676+05:30
Satna,Madhya Pradesh,24.6005,80.8322,26.6,83,0.0,967.3,8.8,37.1,102,47.3,33.6,16.7,176.0,60.0,4.8,7,5,7,1,2026-06-14T05:40:18.829683+05:30
Akola,Maharashtra,20.7002,77.0082,29.9,61,0.0,973.5,8.85,50.8,75,29.5,15.9,7.5,127.0,48.0,7.7,7,5,7,1,2026-06-14T05:40:18.829691+05:30
Amravati,Maharashtra,20.9374,77.7796,29.6,59,0.0,965.3,8.85,50.8,77,28.5,16.2,7.3,145.0,58.0,9.1,4,5,7,1,2026-06-14T05:40:18.829699+05:30
Latur,Maharashtra,18.4088,76.5604,25.2,73,0.0,938.8,8.9,42.8,79,26.8,15.1,6.7,133.0,49.0,6.6,7,5,7,1,2026-06-14T05:40:18.829707+05:30
Nanded,Maharashtra,19.1383,77.3091,29.2,57,0.0,967.1,8.9,43.6,89,28.5,17.1,6.1,171.0,55.0,4.1,4,5,7,1,2026-06-14T05:40:18.829714+05:30
Gulbarga,Karnataka,17.3297,76.8343,26.3,72,0.0,958.1,8.9,42.8,69,21.9,12.9,6.5,134.0,43.0,3.6,7,5,7,1,2026-06-14T05:40:18.829720+05:30
Bidar,Karnataka,17.9104,77.5199,26.1,69,0.0,934.3,8.95,41.4,96,29.2,20.2,6.7,143.0,78.0,8.1,7,5,7,1,2026-06-14T05:40:18.829726+05:30
Hospet,Karnataka,15.2689,76.3909,24.3,89,0.0,955.8,8.75,49.7,48,19.0,10.7,5.3,124.0,40.0,2.0,3,5,7,1,2026-06-14T05:40:18.829733+05:30
Tirupur,Tamil Nadu,11.1085,77.3411,24.0,90,0.0,975.8,8.15,46.8,50,19.4,13.8,14.5,124.0,28.0,3.9,3,5,7,1,2026-06-14T05:40:18.829740+05:30
Alappuzha,Kerala,9.4981,76.3388,24.7,95,0.3,1011.5,8.15,37.4,55,14.3,7.5,6.6,93.0,47.0,2.2,6,0,4,1,2026-06-14T05:40:18.829746+05:30
Munnar,Kerala,10.0889,77.0595,16.1,99,0.1,857.0,8.5,35.3,42,18.2,9.4,5.3,95.0,32.0,1.5,6,10,7,0,2026-06-14T05:40:18.829754+05:30
Silchar,Assam,24.8333,92.7789,25.5,95,0.0,1002.3,8.35,29.9,66,27.0,21.6,8.5,275.0,80.0,3.9,7,5,4,1,2026-06-14T05:40:18.829761+05:30
Dibrugarh,Assam,27.4728,94.912,24.7,97,0.0,992.0,8.5,29.9,74,20.4,19.7,10.2,228.0,52.0,1.4,3,5,7,1,2026-06-14T05:40:18.829767+05:30
