city,state,latitude,longitude,temp,humidity,rain,pressure,uv_index,wind_gusts,aqi,pm10,pm2_5,mosquito_risk,arthritis_risk,migraine_risk,frizz_risk,updated_at
Delhi,Delhi,28.6139,77.209,30.2,32,0.0,979.4,7.4,27.7,170,147.6,48.2,0,5,7,0,2026-04-24T02:26:26.794221+05:30
Mumbai,Maharashtra,19.076,72.8777,29.1,79,0.0,1005.5,8.05,24.8,80,24.7,14.8,7,5,4,1,2026-04-24T02:26:26.794261+05:30
Bangalore,Karnataka,12.9716,77.5946,24.9,68,0.0,909.6,9.6,31.3,75,26.9,25.3,3,5,7,1,2026-04-24T02:26:26.794274+05:30
Hyderabad,Telangana,17.385,78.4867,28.2,56,0.0,951.0,9.3,28.4,109,36.3,32.1,4,5,7,1,2026-04-24T02:26:26.794282+05:30
Chennai,Tamil Nadu,13.0827,80.2707,28.8,84,0.0,1004.2,8.9,30.6,29,10.0,7.0,7,5,4,1,2026-04-24T02:26:26.794290+05:30
Kolkata,West Bengal,22.5726,88.3639,27.9,92,0.0,1003.1,8.9,25.2,102,24.9,21.4,7,5,4,1,2026-04-24T02:26:26.794300+05:30
Pune,Maharashtra,18.5204,73.8567,25.9,71,0.0,946.4,8.6,34.2,105,50.9,46.0,7,5,7,1,2026-04-24T02:26:26.794307+05:30
Ahmedabad,Gujarat,23.0225,72.5714,27.5,47,0.0,1000.2,8.2,23.8,52,17.2,8.9,4,5,4,0,2026-04-24T02:26:26.794313+05:30
Jaipur,Rajasthan,26.9124,75.7873,28.8,27,0.0,957.7,8.05,24.1,94,57.6,22.8,4,5,7,0,2026-04-24T02:26:26.794320+05:30
Lucknow,Uttar Pradesh,26.8467,80.9462,27.2,39,0.0,989.9,7.9,22.3,175,261.7,52.6,4,5,7,0,2026-04-24T02:26:26.794327+05:30
Kanpur,Uttar Pradesh,26.4499,80.3319,26.2,51,0.0,988.3,7.95,20.2,276,211.4,48.4,4,5,7,0,2026-04-24T02:26:26.794332+05:30
Chandigarh,Chandigarh,30.7333,76.7794,25.9,48,0.0,965.3,7.35,30.6,69,29.9,23.9,4,5,7,0,2026-04-24T02:26:26.794338+05:30
Srinagar,Jammu and Kashmir,34.0837,74.7973,12.6,73,0.0,840.6,8.6,19.8,87,82.4,63.8,3,5,7,0,2026-04-24T02:26:26.794344+05:30
Jammu,Jammu and Kashmir,32.7266,74.857,24.4,62,0.0,969.9,8.2,36.4,72,30.2,25.6,3,5,7,1,2026-04-24T02:26:26.794349+05:30
Amritsar,Punjab,31.634,74.8723,25.2,65,0.0,978.0,8.1,35.6,96,53.1,33.6,7,5,7,1,2026-04-24T02:26:26.794355+05:30
Ludhiana,Punjab,30.901,75.8573,26.7,57,0.0,975.7,7.6,33.5,85,31.0,25.1,4,5,7,1,2026-04-24T02:26:26.794362+05:30
Jalandhar,Punjab,31.326,75.5762,25.3,64,0.0,976.9,7.85,31.3,87,43.0,30.6,7,5,7,1,2026-04-24T02:26:26.794367+05:30
Dehradun,Uttarakhand,30.6284,78.0322,17.9,57,0.0,829.8,7.85,46.1,55,22.2,16.9,0,5,7,0,2026-04-24T02:26:26.794373+05:30
Shimla,Himachal Pradesh,31.1048,77.1734,15.5,61,0.0,783.9,7.95,53.3,86,37.6,24.4,3,5,7,0,2026-04-24T02:26:26.794379+05:30
Manali,Himachal Pradesh,32.2396,77.1887,18.2,52,0.0,821.4,9.3,31.7,73,26.3,16.8,0,5,7,0,2026-04-24T02:26:26.794384+05:30
Gurgaon,Haryana,28.4595,77.0266,25.2,47,0.0,977.5,7.55,24.8,731,136.9,56.6,4,5,7,0,2026-04-24T02:26:26.794389+05:30
Noida,Uttar Pradesh,28.5355,77.391,28.9,38,0.0,980.8,7.45,26.3,731,136.9,56.6,4,5,7,0,2026-04-24T02:26:26.794395+05:30
Ghaziabad,Uttar Pradesh,28.6692,77.4538,29.7,35,0.0,979.1,7.4,27.7,153,184.9,60.5,4,5,7,0,2026-04-24T02:26:26.794400+05:30
Faridabad,Haryana,28.4089,77.3178,29.9,31,0.0,980.0,7.5,25.2,731,136.9,56.6,4,5,7,0,2026-04-24T02:26:26.794405+05:30
Meerut,Uttar Pradesh,28.9845,77.7064,26.1,47,0.0,977.7,7.35,33.5,153,184.9,60.5,4,5,7,0,2026-04-24T02:26:26.794410+05:30
Agra,Uttar Pradesh,27.1767,78.0081,25.1,48,0.0,984.2,7.8,22.3,496,804.7,78.5,4,5,7,0,2026-04-24T02:26:26.794416+05:30
Varanasi,Uttar Pradesh,25.3176,82.9739,28.4,41,0.0,993.6,8.5,20.2,131,212.3,58.0,4,5,7,0,2026-04-24T02:26:26.794421+05:30
Prayagraj,Uttar Pradesh,25.4358,81.8463,28.7,38,0.0,992.6,8.35,20.2,141,181.1,57.3,4,5,7,0,2026-04-24T02:26:26.794426+05:30
Gorakhpur,Uttar Pradesh,26.7606,83.3732,26.3,49,0.0,993.7,8.3,22.3,118,117.1,37.6,4,5,7,0,2026-04-24T02:26:26.794431+05:30
Bareilly,Uttar Pradesh,28.367,79.4304,25.3,53,0.0,983.0,7.7,22.7,116,137.4,39.2,4,5,7,0,2026-04-24T02:26:26.794437+05:30
Aligarh,Uttar Pradesh,27.8974,78.088,24.7,41,0.0,981.8,7.6,28.1,472,383.7,53.0,0,5,7,0,2026-04-24T02:26:26.794443+05:30
Moradabad,Uttar Pradesh,28.8386,78.7733,26.1,50,0.0,979.8,7.5,33.5,132,141.1,61.5,4,5,7,0,2026-04-24T02:26:26.794448+05:30
Saharanpur,Uttar Pradesh,29.9637,77.546,24.0,66,0.0,972.3,7.15,29.9,105,60.5,48.8,3,5,7,1,2026-04-24T02:26:26.794453+05:30
Jhansi,Uttar Pradesh,25.4484,78.5685,27.6,33,0.0,975.3,8.3,28.8,50,22.8,21.7,4,5,7,0,2026-04-24T02:26:30.096580+05:30
Surat,Gujarat,21.1702,72.8311,27.7,88,0.0,1004.4,7.9,23.0,98,26.7,21.6,7,5,4,1,2026-04-24T02:26:30.096611+05:30
Vadodara,Gujarat,22.3072,73.1812,29.3,63,0.0,1002.0,8.2,26.6,78,39.0,32.5,7,5,4,1,2026-04-24T02:26:30.096619+05:30
Rajkot,Gujarat,22.3039,70.8022,24.7,92,0.0,993.3,7.9,32.4,40,18.6,8.6,3,5,7,1,2026-04-24T02:26:30.096626+05:30
Thane,Maharashtra,19.2183,72.9781,27.8,77,0.0,1005.0,8.05,38.5,80,24.7,14.8,7,5,4,1,2026-04-24T02:26:30.096632+05:30
Nagpur,Maharashtra,21.1458,79.0882,29.5,50,0.0,970.5,8.95,27.0,89,56.7,53.0,4,5,7,1,2026-04-24T02:26:30.096637+05:30
Nashik,Maharashtra,19.9975,73.7898,27.4,50,0.0,943.9,8.35,34.9,85,32.8,28.8,4,5,7,1,2026-04-24T02:26:30.096643+05:30
Aurangabad,Maharashtra,19.8762,75.3433,30.2,34,0.0,942.3,9.05,33.5,83,38.6,32.2,0,5,7,0,2026-04-24T02:26:30.096648+05:30
Solapur,Maharashtra,17.6599,75.9064,26.4,66,0.0,954.9,9.1,29.9,104,42.5,39.0,7,5,7,1,2026-04-24T02:26:30.096655+05:30
Kolhapur,Maharashtra,16.705,74.2433,25.1,82,0.0,945.7,9.0,39.6,136,86.4,81.0,7,5,7,1,2026-04-24T02:26:30.096660+05:30
Goa,Goa,15.2993,74.124,28.6,88,0.0,994.5,9.0,31.0,88,46.4,35.5,7,5,7,1,2026-04-24T02:26:30.096666+05:30
Jodhpur,Rajasthan,26.2389,73.0243,29.7,44,0.0,980.7,8.25,21.6,59,88.7,19.0,4,5,7,1,2026-04-24T02:26:30.096671+05:30
Udaipur,Rajasthan,24.5854,73.7125,25.5,54,0.0,945.2,8.8,32.4,48,57.7,16.4,4,5,7,0,2026-04-24T02:26:30.096676+05:30
Kota,Rajasthan,25.2138,75.8648,27.1,37,0.0,976.3,8.3,23.0,58,25.5,13.8,4,5,7,0,2026-04-24T02:26:30.096681+05:30
Bikaner,Rajasthan,28.0229,73.3119,31.8,36,0.0,979.0,8.0,20.9,67,100.8,29.7,0,5,7,0,2026-04-24T02:26:30.096687+05:30
Ajmer,Rajasthan,26.4499,74.6399,26.5,47,0.0,952.8,8.25,30.6,45,27.9,12.5,4,5,7,0,2026-04-24T02:26:30.096692+05:30
Gwalior,Madhya Pradesh,26.2183,78.1828,27.3,44,0.0,980.4,8.05,29.5,42,8.4,7.0,4,5,7,0,2026-04-24T02:26:30.096697+05:30
Indore,Madhya Pradesh,22.7196,75.8577,26.4,46,0.0,946.6,8.65,30.6,71,22.4,18.9,4,5,7,0,2026-04-24T02:26:30.096701+05:30
Bhopal,Madhya Pradesh,23.2599,77.4126,26.4,42,0.0,952.0,8.65,23.0,71,26.2,24.3,4,5,7,0,2026-04-24T02:26:30.096706+05:30
Jabalpur,Madhya Pradesh,23.1815,79.9864,28.5,40,0.0,958.6,8.8,21.2,74,41.2,37.3,4,5,7,0,2026-04-24T02:26:30.096711+05:30
Ujjain,Madhya Pradesh,23.1765,75.7885,27.2,39,0.0,952.3,8.55,29.5,68,24.7,18.3,4,5,7,0,2026-04-24T02:26:30.096716+05:30
Visakhapatnam,Andhra Pradesh,17.6868,83.2185,27.6,84,0.0,1000.2,9.15,41.8,64,18.2,14.6,7,5,4,1,2026-04-24T02:26:30.096721+05:30
Vijayawada,Andhra Pradesh,16.5062,80.648,26.9,94,0.0,999.9,9.2,28.4,53,11.3,9.3,7,5,7,1,2026-04-24T02:26:30.096726+05:30
Guntur,Andhra Pradesh,16.3067,80.4365,26.9,94,0.0,1001.1,9.25,31.7,53,11.9,9.6,7,5,4,1,2026-04-24T02:26:30.096731+05:30
Nellore,Andhra Pradesh,14.4426,79.9865,27.1,88,0.0,1002.6,9.3,38.9,41,8.3,6.8,7,5,4,1,2026-04-24T02:26:30.096736+05:30
Kurnool,Andhra Pradesh,15.8281,78.0373,30.9,53,0.0,973.9,9.25,20.2,85,20.7,17.3,0,5,7,1,2026-04-24T02:26:30.096742+05:30
Kakinada,Andhra Pradesh,16.9891,82.2475,27.2,92,0.0,1004.4,9.25,31.3,43,12.9,8.7,7,5,4,1,2026-04-24T02:26:30.096747+05:30
Tirupati,Andhra Pradesh,13.6288,79.4192,26.6,84,0.0,989.3,9.35,32.8,56,15.7,14.4,7,5,7,1,2026-04-24T02:26:30.096751+05:30
Warangal,Telangana,17.9689,79.5941,29.0,63,0.0,975.8,9.2,19.4,102,27.6,25.8,7,5,7,1,2026-04-24T02:26:30.096756+05:30
Nizamabad,Telangana,18.6725,78.0941,29.2,55,0.0,962.5,9.05,39.6,118,50.1,46.3,4,5,7,1,2026-04-24T02:26:30.096761+05:30
Mysore,Karnataka,12.2958,76.6396,24.2,87,0.0,926.2,9.5,35.6,87,34.3,31.2,3,5,7,1,2026-04-24T02:26:30.096765+05:30
Mangalore,Karnataka,12.9141,74.856,29.5,84,0.0,1003.6,9.1,23.4,86,35.2,27.1,7,5,4,1,2026-04-24T02:26:30.096770+05:30
Hubli-Dharwad,Karnataka,15.3647,75.124,25.5,69,0.0,938.5,9.2,38.5,93,35.6,33.4,7,5,7,1,2026-04-24T02:26:30.096775+05:30
Belgaum,Karnataka,15.8497,74.4977,23.8,88,0.0,923.4,9.25,37.8,100,49.1,44.8,3,5,7,1,2026-04-24T02:26:33.401650+05:30
Coimbatore,Tamil Nadu,11.0168,76.9558,24.9,89,0.0,959.2,9.45,35.6,89,39.3,36.6,3,5,7,1,2026-04-24T02:26:33.401680+05:30
Madurai,Tamil Nadu,9.9252,78.1198,27.6,86,0.0,990.4,9.3,38.9,49,14.1,13.1,7,5,7,1,2026-04-24T02:26:33.401690+05:30
Trichy,Tamil Nadu,10.7905,78.7047,27.5,89,0.0,997.1,9.15,22.3,40,12.8,11.6,7,5,7,1,2026-04-24T02:26:33.401697+05:30
Salem,Tamil Nadu,11.6643,78.146,26.8,82,0.0,974.7,9.4,25.2,61,21.0,20.3,7,5,7,1,2026-04-24T02:26:33.401703+05:30
Tirunelveli,Tamil Nadu,8.7139,77.7567,26.9,81,0.0,1000.4,9.25,50.4,67,24.0,22.4,7,5,4,1,2026-04-24T02:26:33.401709+05:30
Vellore,Tamil Nadu,12.9165,79.1325,25.8,86,0.0,982.2,9.4,31.0,73,30.3,29.2,7,5,7,1,2026-04-24T02:26:33.401715+05:30
Erode,Tamil Nadu,11.341,77.7172,28.3,77,0.0,986.5,9.35,27.7,45,7.3,7.0,7,5,7,1,2026-04-24T02:26:33.401721+05:30
Kochi,Kerala,9.9312,76.2673,28.5,84,0.0,1005.7,9.05,30.2,74,27.5,26.4,7,5,4,1,2026-04-24T02:26:33.401728+05:30
Thiruvananthapuram,Kerala,8.5241,76.9366,28.5,85,0.0,1004.9,9.05,28.8,61,20.1,16.0,7,5,4,1,2026-04-24T02:26:33.401733+05:30
Kozhikode,Kerala,11.2588,75.7804,29.3,83,0.0,1004.8,9.1,30.6,81,35.2,25.3,7,5,4,1,2026-04-24T02:26:33.401738+05:30
Thrissur,Kerala,10.5276,76.2144,27.7,90,0.0,1004.1,9.1,33.5,76,26.3,24.2,7,5,4,1,2026-04-24T02:26:33.401745+05:30
Kannur,Kerala,11.8745,75.3704,29.1,79,0.0,1004.1,9.1,30.6,87,36.7,29.8,7,5,4,1,2026-04-24T02:26:33.401750+05:30
Patna,Bihar,25.5941,85.1376,27.6,80,0.0,996.9,8.6,23.0,151,111.5,62.9,7,5,7,1,2026-04-24T02:26:33.401756+05:30
Gaya,Bihar,24.7914,85.0002,27.9,49,0.0,990.3,8.7,19.8,136,193.2,68.0,4,5,7,1,2026-04-24T02:26:33.401761+05:30
Muzaffarpur,Bihar,26.1209,85.3647,26.9,87,0.0,997.1,8.6,28.1,151,105.2,69.8,7,5,7,1,2026-04-24T02:26:33.401767+05:30
Bhagalpur,Bihar,25.2425,87.0117,27.4,95,0.0,998.1,8.6,21.6,153,79.2,61.5,7,5,7,1,2026-04-24T02:26:33.401771+05:30
Ranchi,Jharkhand,23.3441,85.3096,26.0,36,0.0,935.6,9.2,25.6,93,183.0,47.0,4,5,7,0,2026-04-24T02:26:33.401777+05:30
Jamshedpur,Jharkhand,22.8046,86.2029,28.2,87,0.0,987.6,9.0,33.5,152,140.2,79.4,7,5,7,1,2026-04-24T02:26:33.401782+05:30
Dhanbad,Jharkhand,23.7957,86.4304,29.7,70,0.0,976.9,8.95,35.6,160,192.8,95.7,7,5,7,1,2026-04-24T02:26:33.401787+05:30
Bokaro,Jharkhand,23.6693,86.1511,29.4,49,0.0,981.2,8.95,27.4,156,235.2,98.7,4,5,7,1,2026-04-24T02:26:33.401793+05:30
Bhubaneswar,Odisha,20.2961,85.8245,26.8,92,0.0,998.9,9.15,33.5,90,22.9,19.8,7,5,7,1,2026-04-24T02:26:33.401798+05:30
Cuttack,Odisha,20.4625,85.8828,27.1,92,0.0,1000.7,9.15,32.4,90,22.9,19.8,7,5,4,1,2026-04-24T02:26:33.401804+05:30
Rourkela,Odisha,22.2604,84.8536,26.5,66,0.0,981.3,8.65,31.3,107,91.5,48.9,7,5,7,1,2026-04-24T02:26:33.401809+05:30
Raipur,Chhattisgarh,21.2514,81.6296,28.6,39,0.0,971.4,9.0,21.6,102,47.5,45.8,4,5,7,0,2026-04-24T02:26:33.401815+05:30
Bhilai,Chhattisgarh,21.1938,81.3509,27.9,44,0.0,971.8,9.0,19.1,105,63.1,59.6,4,5,7,0,2026-04-24T02:26:33.401820+05:30
Guwahati,Assam,26.1158,91.7086,27.1,86,0.0,1000.1,8.55,23.8,120,71.0,53.8,7,5,4,1,2026-04-24T02:26:33.401824+05:30
Agartala,Tripura,23.8315,91.2868,27.4,92,0.0,1004.0,8.75,21.6,98,56.2,48.3,7,5,4,1,2026-04-24T02:26:33.401829+05:30
Shillong,Meghalaya,25.5788,91.8933,13.8,88,0.0,854.5,6.35,30.6,102,51.1,34.5,3,10,7,0,2026-04-24T02:26:33.401865+05:30
Imphal,Manipur,24.817,93.9368,20.0,85,0.0,922.6,9.1,38.2,133,112.2,69.6,3,5,7,1,2026-04-24T02:26:33.401871+05:30
Aizawl,Mizoram,23.7271,92.7176,21.3,80,0.0,891.6,8.45,31.3,128,116.9,52.3,3,5,7,1,2026-04-24T02:26:33.401877+05:30
Kohima,Nagaland,25.6701,94.1077,17.5,92,0.0,854.7,9.05,40.0,107,68.9,47.3,3,10,7,1,2026-04-24T02:26:33.401882+05:30
Gangtok,Sikkim,27.3314,88.6138,17.6,99,0.0,837.4,8.85,23.8,102,53.9,40.2,3,10,7,1,2026-04-24T02:26:33.401886+05:30
Siliguri,West Bengal,26.7271,88.3953,23.6,81,0.0,992.4,8.4,16.6,147,99.7,72.6,3,5,7,1,2026-04-24T02:26:36.709625+05:30
Durgapur,West Bengal,23.5204,87.3119,28.8,82,0.0,992.2,8.9,40.0,159,94.5,77.1,7,5,7,1,2026-04-24T02:26:36.709655+05:30
Asansol,West Bengal,23.6739,86.9524,29.9,81,0.0,990.6,8.9,41.8,154,120.6,68.0,7,5,7,1,2026-04-24T02:26:36.709663+05:30
Pondicherry,Puducherry,11.9139,79.8145,27.1,95,0.0,1005.8,8.6,24.8,23,9.3,6.0,7,5,4,1,2026-04-24T02:26:36.709670+05:30
Port Blair,Andaman and Nicobar Islands,11.6234,92.7265,29.5,73,0.0,1003.9,9.15,23.0,31,11.5,5.2,7,5,4,1,2026-04-24T02:26:36.709677+05:30
Haridwar,Uttarakhand,29.9457,78.1642,23.7,62,0.0,970.9,7.25,38.5,83,43.2,34.8,3,5,7,0,2026-04-24T02:26:36.709683+05:30
Rishikesh,Uttarakhand,30.0869,78.2676,24.2,57,0.0,964.2,7.35,39.6,104,43.7,30.4,0,5,7,0,2026-04-24T02:26:36.709689+05:30
Nainital,Uttarakhand,29.3919,79.4542,23.6,38,0.0,806.5,8.2,45.7,104,35.9,25.0,0,5,7,0,2026-04-24T02:26:36.709695+05:30
Mussoorie,Uttarakhand,30.4599,78.0664,21.2,45,0.0,803.3,7.75,51.5,74,38.9,31.8,0,5,7,0,2026-04-24T02:26:36.709701+05:30
Dharamshala,Himachal Pradesh,32.219,76.3234,25.1,31,0.0,869.0,8.05,33.8,53,22.3,14.6,4,5,7,0,2026-04-24T02:26:36.709707+05:30
Dalhousie,Himachal Pradesh,32.5387,75.971,21.0,33,0.0,804.1,8.3,30.6,60,26.8,23.3,0,5,7,0,2026-04-24T02:26:36.709713+05:30
Patiala,Punjab,30.3398,76.3869,25.5,58,0.0,974.6,7.35,25.2,149,349.2,56.1,4,5,7,1,2026-04-24T02:26:36.709719+05:30
Bhatinda,Punjab,30.211,74.9455,27.1,50,0.0,980.9,8.0,34.9,84,42.1,29.1,4,5,7,0,2026-04-24T02:26:36.709725+05:30
Rohtak,Haryana,28.8955,76.6066,25.0,59,0.0,978.1,7.45,29.5,225,148.1,51.2,4,5,7,1,2026-04-24T02:26:36.709730+05:30
Panipat,Haryana,29.3909,76.9635,25.4,53,0.0,976.7,7.3,29.5,514,243.1,69.6,4,5,7,0,2026-04-24T02:26:36.709736+05:30
Mathura,Uttar Pradesh,27.4924,77.6737,24.0,56,0.0,983.2,7.7,21.2,405,586.7,62.2,0,5,7,0,2026-04-24T02:26:36.709742+05:30
Vrindavan,Uttar Pradesh,27.5823,77.7027,23.6,54,0.0,983.5,7.7,24.5,405,586.7,62.2,0,5,7,0,2026-04-24T02:26:36.709747+05:30
Ayodhya,Uttar Pradesh,26.7922,82.1998,25.9,44,0.0,991.5,8.05,20.2,135,189.5,41.4,4,5,7,0,2026-04-24T02:26:36.709752+05:30
Ratlam,Madhya Pradesh,23.3315,75.0367,26.7,43,0.0,952.8,8.5,25.6,78,27.5,19.7,4,5,7,0,2026-04-24T02:26:36.709758+05:30
Sagar,Madhya Pradesh,23.8388,78.7378,28.2,36,0.0,948.4,8.65,27.0,62,31.7,29.3,4,5,7,0,2026-04-24T02:26:36.709764+05:30
Satna,Madhya Pradesh,24.6005,80.8322,28.1,36,0.0,968.8,8.65,25.6,63,27.6,25.4,4,5,7,0,2026-04-24T02:26:36.709769+05:30
Akola,Maharashtra,20.7002,77.0082,29.5,48,0.0,972.8,8.9,27.7,87,38.0,33.5,4,5,7,1,2026-04-24T02:26:36.709775+05:30
Amravati,Maharashtra,20.9374,77.7796,28.9,48,0.0,964.8,8.9,25.2,84,36.1,31.8,4,5,7,1,2026-04-24T02:26:36.709781+05:30
Latur,Maharashtra,18.4088,76.5604,25.7,59,0.0,938.1,9.1,37.8,103,43.5,39.6,4,5,7,1,2026-04-24T02:26:36.709786+05:30
Nanded,Maharashtra,19.1383,77.3091,28.2,55,0.0,966.4,9.05,31.7,119,62.4,56.9,4,5,7,1,2026-04-24T02:26:36.709791+05:30
Gulbarga,Karnataka,17.3297,76.8343,26.7,65,0.0,956.7,9.15,29.9,112,53.0,48.0,7,5,7,1,2026-04-24T02:26:36.709796+05:30
Bidar,Karnataka,17.9104,77.5199,28.0,52,0.0,933.6,8.5,31.7,115,49.6,45.2,4,5,7,1,2026-04-24T02:26:36.709801+05:30
Hospet,Karnataka,15.2689,76.3909,28.3,61,0.0,953.7,9.25,41.0,98,38.3,35.5,7,5,7,1,2026-04-24T02:26:36.709806+05:30
Tirupur,Tamil Nadu,11.1085,77.3411,27.1,82,0.0,972.6,9.45,33.1,62,18.0,16.5,7,5,7,1,2026-04-24T02:26:36.709811+05:30
Alappuzha,Kerala,9.4981,76.3388,28.1,84,0.0,1005.8,9.0,26.3,76,28.2,24.7,7,5,4,1,2026-04-24T02:26:36.709815+05:30
Munnar,Kerala,10.0889,77.0595,21.7,91,0.0,854.5,9.65,31.3,67,25.7,24.7,3,5,7,1,2026-04-24T02:26:36.709821+05:30
Silchar,Assam,24.8333,92.7789,26.2,84,0.0,1003.0,8.75,20.9,151,124.3,69.4,7,5,4,1,2026-04-24T02:26:36.709827+05:30
Dibrugarh,Assam,27.4728,94.912,26.2,81,0.0,993.9,8.65,14.4,75,30.7,28.3,7,5,7,1,2026-04-24T02:26:36.709855+05:30
