city,state,latitude,longitude,temp,humidity,rain,pressure,uv_index,wind_gusts,aqi,pm10,pm2_5,mosquito_risk,arthritis_risk,migraine_risk,frizz_risk,updated_at
Delhi,Delhi,28.6139,77.209,27.3,40,0.0,983.3,5.75,29.2,345,668.7,96.6,4,5,3,0,2026-03-13T18:36:07.149630+05:30
Mumbai,Maharashtra,19.076,72.8777,29.6,61,0.0,1005.8,7.65,23.8,225,40.0,36.2,7,5,4,1,2026-03-13T18:36:07.149681+05:30
Bangalore,Karnataka,12.9716,77.5946,29.3,27,0.0,911.4,9.3,28.8,134,38.5,32.9,4,5,7,0,2026-03-13T18:36:07.149696+05:30
Hyderabad,Telangana,17.385,78.4867,32.5,22,0.0,952.2,8.65,19.1,176,40.5,31.5,0,5,7,0,2026-03-13T18:36:07.149706+05:30
Chennai,Tamil Nadu,13.0827,80.2707,28.6,67,0.0,1007.7,9.05,32.4,62,18.7,14.1,7,5,4,1,2026-03-13T18:36:07.149714+05:30
Kolkata,West Bengal,22.5726,88.3639,28.1,73,0.0,1005.1,8.0,29.2,129,37.7,32.5,7,5,4,1,2026-03-13T18:36:07.149721+05:30
Pune,Maharashtra,18.5204,73.8567,32.8,30,0.0,947.1,8.2,37.8,157,21.6,19.6,0,5,7,0,2026-03-13T18:36:07.149732+05:30
Ahmedabad,Gujarat,23.0225,72.5714,35.1,22,0.0,1000.1,7.45,22.3,129,39.6,22.2,0,5,7,0,2026-03-13T18:36:07.149739+05:30
Jaipur,Rajasthan,26.9124,75.7873,30.2,32,0.0,959.7,6.95,27.0,113,129.9,35.6,0,5,7,0,2026-03-13T18:36:07.149746+05:30
Lucknow,Uttar Pradesh,26.8467,80.9462,30.1,40,0.0,992.2,6.05,28.4,167,155.1,52.7,0,5,7,0,2026-03-13T18:36:07.149753+05:30
Kanpur,Uttar Pradesh,26.4499,80.3319,29.1,54,0.0,990.7,6.35,18.7,256,241.2,60.3,4,5,7,1,2026-03-13T18:36:07.149759+05:30
Chandigarh,Chandigarh,30.7333,76.7794,23.7,58,0.0,969.1,5.35,29.5,82,26.7,22.4,0,5,3,0,2026-03-13T18:36:07.149765+05:30
Srinagar,Jammu and Kashmir,34.0837,74.7973,14.2,55,0.0,841.6,6.75,14.4,96,43.0,28.4,0,5,7,0,2026-03-13T18:36:07.149771+05:30
Jammu,Jammu and Kashmir,32.7266,74.857,24.5,52,0.0,972.9,6.45,24.8,74,27.8,20.5,0,5,7,0,2026-03-13T18:36:07.149777+05:30
Amritsar,Punjab,31.634,74.8723,23.8,52,0.0,981.6,5.85,25.6,94,26.1,18.1,0,5,3,0,2026-03-13T18:36:07.149783+05:30
Ludhiana,Punjab,30.901,75.8573,24.9,54,0.0,979.6,5.7,27.7,104,50.5,24.7,0,5,3,0,2026-03-13T18:36:07.149788+05:30
Jalandhar,Punjab,31.326,75.5762,24.7,56,0.0,980.7,5.7,25.6,102,50.6,20.7,0,5,3,0,2026-03-13T18:36:07.149797+05:30
Dehradun,Uttarakhand,30.6284,78.0322,17.3,57,0.0,829.6,5.7,28.8,71,35.5,17.3,0,5,3,0,2026-03-13T18:36:07.149803+05:30
Shimla,Himachal Pradesh,31.1048,77.1734,14.6,57,0.0,784.2,5.15,39.2,69,21.1,12.6,0,5,3,0,2026-03-13T18:36:07.149809+05:30
Manali,Himachal Pradesh,32.2396,77.1887,16.1,29,0.0,819.6,8.05,38.5,88,22.9,7.8,0,5,7,1,2026-03-13T18:36:07.149815+05:30
Gurgaon,Haryana,28.4595,77.0266,25.4,48,0.0,981.8,6.15,28.1,1074,1877.5,210.9,4,5,7,0,2026-03-13T18:36:07.149820+05:30
Noida,Uttar Pradesh,28.5355,77.391,27.4,38,0.0,984.8,5.95,28.8,1074,1877.5,210.9,4,5,3,0,2026-03-13T18:36:07.149826+05:30
Ghaziabad,Uttar Pradesh,28.6692,77.4538,26.1,47,0.0,983.0,5.75,27.7,187,412.6,74.0,4,5,3,0,2026-03-13T18:36:07.149831+05:30
Faridabad,Haryana,28.4089,77.3178,26.4,39,0.0,983.9,6.2,27.7,1074,1877.5,210.9,4,5,7,0,2026-03-13T18:36:07.149837+05:30
Meerut,Uttar Pradesh,28.9845,77.7064,24.6,57,0.0,981.6,4.85,27.7,187,412.6,74.0,0,5,3,0,2026-03-13T18:36:07.149842+05:30
Agra,Uttar Pradesh,27.1767,78.0081,29.4,33,0.0,987.2,6.25,24.8,532,568.1,89.6,4,5,7,0,2026-03-13T18:36:07.149847+05:30
Varanasi,Uttar Pradesh,25.3176,82.9739,28.4,48,0.0,996.2,7.35,25.2,123,123.4,46.1,4,5,7,1,2026-03-13T18:36:07.149855+05:30
Prayagraj,Uttar Pradesh,25.4358,81.8463,29.3,48,0.0,994.9,7.1,21.6,148,107.6,41.7,4,5,7,1,2026-03-13T18:36:07.149861+05:30
Gorakhpur,Uttar Pradesh,26.7606,83.3732,27.7,56,0.0,995.2,7.05,28.4,182,90.6,48.2,4,5,7,1,2026-03-13T18:36:07.149866+05:30
Bareilly,Uttar Pradesh,28.367,79.4304,25.2,52,0.0,986.0,6.35,26.6,152,51.2,34.6,4,5,7,0,2026-03-13T18:36:07.149871+05:30
Aligarh,Uttar Pradesh,27.8974,78.088,26.9,37,0.0,985.2,5.9,28.8,617,681.7,112.9,4,5,3,0,2026-03-13T18:36:07.149924+05:30
Moradabad,Uttar Pradesh,28.8386,78.7733,25.1,55,0.0,983.2,5.75,27.4,149,55.5,35.0,4,5,3,0,2026-03-13T18:36:07.149932+05:30
Saharanpur,Uttar Pradesh,29.9637,77.546,24.8,56,0.0,975.4,4.95,27.4,135,149.0,45.2,0,5,3,0,2026-03-13T18:36:07.149938+05:30
Jhansi,Uttar Pradesh,25.4484,78.5685,31.1,27,0.0,976.9,6.75,20.9,91,76.4,29.9,0,5,7,0,2026-03-13T18:36:10.797919+05:30
Surat,Gujarat,21.1702,72.8311,30.9,42,0.0,1004.7,7.35,23.8,146,65.2,60.3,0,5,4,1,2026-03-13T18:36:10.797949+05:30
Vadodara,Gujarat,22.3072,73.1812,35.3,21,0.0,1002.3,7.5,23.8,165,41.1,32.6,0,5,7,0,2026-03-13T18:36:10.797959+05:30
Rajkot,Gujarat,22.3039,70.8022,33.9,20,0.0,992.9,7.3,33.1,93,31.1,17.8,0,5,7,0,2026-03-13T18:36:10.797968+05:30
Thane,Maharashtra,19.2183,72.9781,30.7,46,0.0,1005.4,7.65,38.2,225,40.0,36.2,0,5,4,1,2026-03-13T18:36:10.797975+05:30
Nagpur,Maharashtra,21.1458,79.0882,32.3,28,0.0,971.3,8.05,19.4,135,26.8,22.6,0,5,7,0,2026-03-13T18:36:10.797982+05:30
Nashik,Maharashtra,19.9975,73.7898,32.2,25,0.0,944.4,7.85,34.9,146,24.2,22.2,0,5,7,0,2026-03-13T18:36:10.797989+05:30
Aurangabad,Maharashtra,19.8762,75.3433,32.8,22,0.0,943.0,8.35,29.5,162,21.4,19.7,0,5,7,0,2026-03-13T18:36:10.797996+05:30
Solapur,Maharashtra,17.6599,75.9064,32.3,33,0.0,955.3,8.6,24.1,162,36.3,30.4,0,5,7,0,2026-03-13T18:36:10.798003+05:30
Kolhapur,Maharashtra,16.705,74.2433,28.3,67,0.0,946.8,8.7,47.9,164,34.8,32.2,7,5,7,1,2026-03-13T18:36:10.798011+05:30
Goa,Goa,15.2993,74.124,28.4,78,0.0,996.5,8.7,31.3,136,40.9,35.7,7,5,7,1,2026-03-13T18:36:10.798018+05:30
Jodhpur,Rajasthan,26.2389,73.0243,33.6,23,0.0,981.8,6.8,18.7,82,155.1,29.4,0,5,7,0,2026-03-13T18:36:10.798025+05:30
Udaipur,Rajasthan,24.5854,73.7125,30.8,15,0.0,946.0,7.8,30.2,92,20.9,13.2,0,5,7,0,2026-03-13T18:36:10.798032+05:30
Kota,Rajasthan,25.2138,75.8648,32.9,23,0.0,977.0,7.1,17.6,98,31.4,16.2,0,5,7,0,2026-03-13T18:36:10.798040+05:30
Bikaner,Rajasthan,28.0229,73.3119,31.8,19,0.0,982.0,6.75,24.8,93,27.0,15.5,0,5,7,0,2026-03-13T18:36:10.798046+05:30
Ajmer,Rajasthan,26.4499,74.6399,31.0,28,0.0,954.0,7.05,22.0,94,129.5,33.2,0,5,7,0,2026-03-13T18:36:10.798053+05:30
Gwalior,Madhya Pradesh,26.2183,78.1828,28.6,56,0.0,982.7,6.8,21.2,118,102.2,39.8,4,5,7,1,2026-03-13T18:36:10.798060+05:30
Indore,Madhya Pradesh,22.7196,75.8577,30.7,18,0.0,947.1,7.75,32.4,112,19.9,16.8,0,5,7,0,2026-03-13T18:36:10.798066+05:30
Bhopal,Madhya Pradesh,23.2599,77.4126,29.9,20,0.0,953.0,7.55,31.0,120,14.2,13.8,4,5,7,0,2026-03-13T18:36:10.798073+05:30
Jabalpur,Madhya Pradesh,23.1815,79.9864,32.1,34,0.0,960.6,7.75,20.2,136,22.3,20.7,0,5,7,0,2026-03-13T18:36:10.798079+05:30
Ujjain,Madhya Pradesh,23.1765,75.7885,29.7,24,0.0,952.9,7.65,26.3,91,28.5,23.0,4,5,7,0,2026-03-13T18:36:10.798087+05:30
Visakhapatnam,Andhra Pradesh,17.6868,83.2185,27.0,78,0.0,1004.1,8.65,40.3,85,21.0,17.5,7,5,4,1,2026-03-13T18:36:10.798094+05:30
Vijayawada,Andhra Pradesh,16.5062,80.648,30.3,57,0.0,1002.5,8.75,31.3,91,21.7,18.7,0,5,4,1,2026-03-13T18:36:10.798101+05:30
Guntur,Andhra Pradesh,16.3067,80.4365,28.7,65,0.0,1003.9,8.75,33.8,86,24.0,20.4,7,5,4,1,2026-03-13T18:36:10.798108+05:30
Nellore,Andhra Pradesh,14.4426,79.9865,28.6,68,0.0,1006.0,8.9,30.2,73,18.7,14.9,7,5,4,1,2026-03-13T18:36:10.798115+05:30
Kurnool,Andhra Pradesh,15.8281,78.0373,35.2,22,0.0,975.2,8.7,23.8,163,56.2,42.0,0,5,10,0,2026-03-13T18:36:10.798122+05:30
Kakinada,Andhra Pradesh,16.9891,82.2475,27.9,71,0.0,1007.9,8.65,34.6,75,15.3,11.5,7,5,4,1,2026-03-13T18:36:10.798129+05:30
Tirupati,Andhra Pradesh,13.6288,79.4192,30.7,45,0.0,991.5,9.05,33.5,95,24.9,21.3,0,5,7,1,2026-03-13T18:36:10.798135+05:30
Warangal,Telangana,17.9689,79.5941,32.7,43,0.0,977.5,8.5,28.8,144,54.7,41.6,0,5,7,1,2026-03-13T18:36:10.798140+05:30
Nizamabad,Telangana,18.6725,78.0941,32.4,34,0.0,963.4,8.4,19.1,172,49.1,38.1,0,5,7,0,2026-03-13T18:36:10.798145+05:30
Mysore,Karnataka,12.2958,76.6396,29.9,32,0.0,927.5,9.3,29.9,129,39.0,33.2,4,5,7,0,2026-03-13T18:36:10.798151+05:30
Mangalore,Karnataka,12.9141,74.856,28.8,81,0.0,1005.5,8.95,23.0,116,41.7,35.7,7,5,4,1,2026-03-13T18:36:10.798156+05:30
Hubli-Dharwad,Karnataka,15.3647,75.124,33.0,24,0.0,939.2,8.9,33.5,159,31.5,27.7,0,5,7,0,2026-03-13T18:36:10.798162+05:30
Belgaum,Karnataka,15.8497,74.4977,27.6,65,0.0,924.7,8.95,41.0,165,35.5,31.7,7,5,7,1,2026-03-13T18:36:14.118807+05:30
Coimbatore,Tamil Nadu,11.0168,76.9558,30.9,29,0.0,960.6,9.3,42.8,108,31.4,26.0,0,5,7,0,2026-03-13T18:36:14.118838+05:30
Madurai,Tamil Nadu,9.9252,78.1198,32.7,38,0.0,991.5,9.25,26.6,81,15.6,13.0,0,5,7,1,2026-03-13T18:36:14.118848+05:30
Trichy,Tamil Nadu,10.7905,78.7047,31.4,46,0.0,998.8,9.15,23.0,84,20.0,17.6,0,5,7,1,2026-03-13T18:36:14.118856+05:30
Salem,Tamil Nadu,11.6643,78.146,31.1,40,0.0,976.4,9.2,24.8,122,39.3,32.7,0,5,7,0,2026-03-13T18:36:14.118863+05:30
Tirunelveli,Tamil Nadu,8.7139,77.7567,31.3,41,0.0,1001.9,9.2,31.3,63,13.0,10.6,0,5,4,1,2026-03-13T18:36:14.118871+05:30
Vellore,Tamil Nadu,12.9165,79.1325,30.0,46,0.0,984.5,9.1,33.1,106,23.6,21.2,4,5,7,1,2026-03-13T18:36:14.118878+05:30
Erode,Tamil Nadu,11.341,77.7172,33.2,38,0.0,987.6,9.15,23.8,85,30.7,25.7,0,5,7,1,2026-03-13T18:36:14.118886+05:30
Kochi,Kerala,9.9312,76.2673,28.8,78,0.0,1007.3,9.1,33.8,145,21.9,20.4,7,5,4,1,2026-03-13T18:36:14.118893+05:30
Thiruvananthapuram,Kerala,8.5241,76.9366,28.2,80,0.0,1006.8,9.1,24.1,95,20.7,16.6,7,5,4,1,2026-03-13T18:36:14.118900+05:30
Kozhikode,Kerala,11.2588,75.7804,28.9,81,0.0,1006.4,9.0,29.9,94,26.4,23.1,7,5,4,1,2026-03-13T18:36:14.118907+05:30
Thrissur,Kerala,10.5276,76.2144,29.0,76,0.0,1005.7,9.05,37.1,122,26.1,23.9,7,5,4,1,2026-03-13T18:36:14.118914+05:30
Kannur,Kerala,11.8745,75.3704,29.1,75,0.0,1006.1,9.0,28.1,106,36.4,31.7,7,5,4,1,2026-03-13T18:36:14.118921+05:30
Patna,Bihar,25.5941,85.1376,29.8,53,0.0,998.7,7.5,23.0,179,165.8,59.4,4,5,7,1,2026-03-13T18:36:14.118927+05:30
Gaya,Bihar,24.7914,85.0002,29.3,51,0.0,992.5,7.6,19.4,144,142.0,46.6,4,5,7,1,2026-03-13T18:36:14.118934+05:30
Muzaffarpur,Bihar,26.1209,85.3647,28.3,65,0.0,998.7,7.45,24.8,182,173.7,71.0,7,5,7,1,2026-03-13T18:36:14.118940+05:30
Bhagalpur,Bihar,25.2425,87.0117,28.2,62,0.0,999.7,7.5,26.6,168,180.7,77.8,7,5,7,1,2026-03-13T18:36:14.118947+05:30
Ranchi,Jharkhand,23.3441,85.3096,27.7,23,0.0,937.4,8.2,26.3,113,23.7,15.3,4,5,7,0,2026-03-13T18:36:14.118954+05:30
Jamshedpur,Jharkhand,22.8046,86.2029,31.7,38,0.0,989.4,8.05,16.6,155,47.1,25.7,0,5,7,0,2026-03-13T18:36:14.118960+05:30
Dhanbad,Jharkhand,23.7957,86.4304,32.2,23,0.0,978.6,7.95,26.3,167,66.4,46.1,0,5,7,0,2026-03-13T18:36:14.118967+05:30
Bokaro,Jharkhand,23.6693,86.1511,31.0,26,0.0,982.7,7.95,26.6,150,60.5,40.3,0,5,7,0,2026-03-13T18:36:14.118973+05:30
Bhubaneswar,Odisha,20.2961,85.8245,27.2,76,0.0,1002.6,8.4,33.5,105,29.9,27.4,7,5,4,1,2026-03-13T18:36:14.118980+05:30
Cuttack,Odisha,20.4625,85.8828,29.2,66,0.0,1004.0,8.4,28.1,105,29.9,27.4,7,5,4,1,2026-03-13T18:36:14.118987+05:30
Rourkela,Odisha,22.2604,84.8536,32.3,30,0.0,983.2,8.0,19.4,146,44.5,25.8,0,5,7,0,2026-03-13T18:36:14.118993+05:30
Raipur,Chhattisgarh,21.2514,81.6296,33.1,23,0.0,973.0,8.15,18.0,159,50.2,42.5,0,5,7,0,2026-03-13T18:36:14.118998+05:30
Bhilai,Chhattisgarh,21.1938,81.3509,32.8,27,0.0,973.2,8.15,14.8,143,42.1,35.2,0,5,7,0,2026-03-13T18:36:14.119003+05:30
Guwahati,Assam,26.1158,91.7086,22.7,90,0.0,1001.6,6.6,29.9,154,31.2,26.8,3,5,4,1,2026-03-13T18:36:14.119008+05:30
Agartala,Tripura,23.8315,91.2868,23.2,85,0.0,1006.4,7.6,32.8,127,79.9,66.4,3,5,4,1,2026-03-13T18:36:14.119014+05:30
Shillong,Meghalaya,25.5788,91.8933,13.4,90,0.0,854.6,7.0,56.9,127,28.8,22.8,3,10,7,0,2026-03-13T18:36:14.119019+05:30
Imphal,Manipur,24.817,93.9368,17.2,91,0.0,923.2,7.3,61.2,158,67.5,61.7,3,10,7,0,2026-03-13T18:36:14.119025+05:30
Aizawl,Mizoram,23.7271,92.7176,18.3,84,0.0,893.1,7.15,76.0,147,49.7,46.4,3,10,7,0,2026-03-13T18:36:14.119031+05:30
Kohima,Nagaland,25.6701,94.1077,14.9,89,0.0,853.5,6.25,82.8,139,54.1,49.2,3,10,7,0,2026-03-13T18:36:14.119036+05:30
Gangtok,Sikkim,27.3314,88.6138,14.6,93,0.0,835.5,5.15,15.8,101,31.3,29.9,3,10,3,0,2026-03-13T18:36:14.119041+05:30
Siliguri,West Bengal,26.7271,88.3953,20.2,88,0.0,993.3,7.3,29.5,153,43.2,38.2,3,5,7,1,2026-03-13T18:36:17.452838+05:30
Durgapur,West Bengal,23.5204,87.3119,32.4,31,0.0,993.4,7.95,26.3,164,65.9,44.0,0,5,7,0,2026-03-13T18:36:17.452867+05:30
Asansol,West Bengal,23.6739,86.9524,33.0,34,0.0,991.8,7.95,23.4,166,57.6,35.6,0,5,7,0,2026-03-13T18:36:17.452876+05:30
Pondicherry,Puducherry,11.9139,79.8145,27.9,70,0.0,1008.7,9.0,27.7,60,18.5,13.5,7,0,4,1,2026-03-13T18:36:17.452884+05:30
Port Blair,Andaman and Nicobar Islands,11.6234,92.7265,28.3,76,0.0,1007.5,8.95,22.3,62,9.6,7.4,7,5,4,1,2026-03-13T18:36:17.452892+05:30
Haridwar,Uttarakhand,29.9457,78.1642,26.0,58,0.0,974.0,5.6,29.5,88,46.1,29.9,4,5,3,1,2026-03-13T18:36:17.452900+05:30
Rishikesh,Uttarakhand,30.0869,78.2676,24.9,60,0.0,966.7,5.8,30.2,79,28.2,18.2,0,5,3,1,2026-03-13T18:36:17.452907+05:30
Nainital,Uttarakhand,29.3919,79.4542,19.0,46,0.0,805.6,6.55,44.3,102,31.7,24.1,0,5,7,0,2026-03-13T18:36:17.452914+05:30
Mussoorie,Uttarakhand,30.4599,78.0664,17.5,53,0.0,802.4,5.75,30.6,80,41.4,27.9,0,5,3,0,2026-03-13T18:36:17.452922+05:30
Dharamshala,Himachal Pradesh,32.219,76.3234,20.5,54,0.0,869.1,6.0,24.8,82,15.9,9.5,0,5,3,0,2026-03-13T18:36:17.452929+05:30
Dalhousie,Himachal Pradesh,32.5387,75.971,18.8,44,0.0,804.0,6.4,31.0,78,23.9,16.8,0,5,7,0,2026-03-13T18:36:17.452936+05:30
Patiala,Punjab,30.3398,76.3869,23.7,59,0.0,978.7,5.2,27.0,348,620.3,78.2,0,5,3,0,2026-03-13T18:36:17.452943+05:30
Bhatinda,Punjab,30.211,74.9455,25.1,54,0.0,984.8,6.25,27.7,120,35.2,25.8,4,5,7,0,2026-03-13T18:36:17.452950+05:30
Rohtak,Haryana,28.8955,76.6066,24.7,52,0.0,982.3,5.3,26.6,520,895.9,116.6,0,5,3,0,2026-03-13T18:36:17.452957+05:30
Panipat,Haryana,29.3909,76.9635,24.2,58,0.0,980.6,4.9,24.8,962,1471.5,166.7,0,5,3,0,2026-03-13T18:36:17.452964+05:30
Mathura,Uttar Pradesh,27.4924,77.6737,28.0,35,0.0,986.6,5.65,25.6,666,493.6,82.7,4,5,3,0,2026-03-13T18:36:17.452971+05:30
Vrindavan,Uttar Pradesh,27.5823,77.7027,27.3,37,0.0,987.1,5.75,28.8,666,493.6,82.7,4,5,3,0,2026-03-13T18:36:17.452978+05:30
Ayodhya,Uttar Pradesh,26.7922,82.1998,28.3,50,0.0,993.5,6.35,30.2,156,61.7,37.7,4,5,7,1,2026-03-13T18:36:17.452984+05:30
Ratlam,Madhya Pradesh,23.3315,75.0367,31.6,21,0.0,953.9,7.6,30.6,103,22.4,17.8,0,5,7,0,2026-03-13T18:36:17.452991+05:30
Sagar,Madhya Pradesh,23.8388,78.7378,30.7,28,0.0,949.3,7.6,29.2,118,12.3,11.1,0,5,7,0,2026-03-13T18:36:17.452998+05:30
Satna,Madhya Pradesh,24.6005,80.8322,31.1,16,0.0,970.1,7.2,29.9,102,21.2,11.2,0,5,7,0,2026-03-13T18:36:17.453004+05:30
Akola,Maharashtra,20.7002,77.0082,34.5,20,0.0,973.2,8.05,24.8,172,29.1,25.4,0,5,7,0,2026-03-13T18:36:17.453012+05:30
Amravati,Maharashtra,20.9374,77.7796,33.4,22,0.0,965.4,8.0,15.1,169,29.6,25.0,0,5,7,0,2026-03-13T18:36:17.453019+05:30
Latur,Maharashtra,18.4088,76.5604,31.7,33,0.0,938.9,8.5,21.2,154,38.2,32.6,0,5,7,0,2026-03-13T18:36:17.453026+05:30
Nanded,Maharashtra,19.1383,77.3091,35.2,29,0.0,966.9,8.25,21.6,175,40.7,34.1,0,5,10,0,2026-03-13T18:36:17.453033+05:30
Gulbarga,Karnataka,17.3297,76.8343,34.6,24,0.0,957.0,8.6,32.0,172,34.3,28.5,0,5,7,0,2026-03-13T18:36:17.453039+05:30
Bidar,Karnataka,17.9104,77.5199,32.2,29,0.0,934.5,8.55,26.6,167,35.3,27.5,0,5,7,0,2026-03-13T18:36:17.453046+05:30
Hospet,Karnataka,15.2689,76.3909,34.2,24,0.0,954.4,8.9,24.1,167,35.4,30.4,0,5,7,0,2026-03-13T18:36:17.453052+05:30
Tirupur,Tamil Nadu,11.1085,77.3411,32.7,29,0.0,974.0,9.3,30.6,106,36.1,30.5,0,5,7,0,2026-03-13T18:36:17.453058+05:30
Alappuzha,Kerala,9.4981,76.3388,28.5,79,0.0,1007.6,9.1,28.1,151,18.1,16.2,7,5,4,1,2026-03-13T18:36:17.453065+05:30
Munnar,Kerala,10.0889,77.0595,24.5,65,0.0,856.9,9.55,24.5,73,20.5,18.0,3,5,7,1,2026-03-13T18:36:17.453072+05:30
Silchar,Assam,24.8333,92.7789,22.9,89,0.0,1006.1,7.75,42.8,164,50.3,43.9,3,5,4,1,2026-03-13T18:36:17.453078+05:30
Dibrugarh,Assam,27.4728,94.912,21.7,84,0.0,995.9,5.5,25.2,148,64.0,59.6,3,5,3,1,2026-03-13T18:36:17.453084+05:30
