city,state,latitude,longitude,temp,humidity,rain,pressure,uv_index,wind_gusts,aqi,pm10,pm2_5,mosquito_risk,arthritis_risk,migraine_risk,frizz_risk,updated_at
Delhi,Delhi,28.6139,77.209,21.6,81,0.0,985.4,4.25,33.1,130,81.5,38.9,3,5,3,1,2026-03-19T18:42:14.039501+05:30
Mumbai,Maharashtra,19.076,72.8777,27.4,69,0.0,1009.8,7.75,20.2,92,34.9,16.6,7,0,4,1,2026-03-19T18:42:14.039543+05:30
Bangalore,Karnataka,12.9716,77.5946,27.7,41,0.0,911.6,9.35,24.1,164,40.9,36.6,4,5,7,0,2026-03-19T18:42:14.039558+05:30
Hyderabad,Telangana,17.385,78.4867,23.6,73,0.0,954.7,8.75,33.5,94,32.4,24.7,3,5,7,1,2026-03-19T18:42:14.039572+05:30
Chennai,Tamil Nadu,13.0827,80.2707,27.6,77,0.0,1008.6,9.1,28.8,43,8.1,6.3,7,0,4,1,2026-03-19T18:42:14.039581+05:30
Kolkata,West Bengal,22.5726,88.3639,27.6,75,0.0,1008.3,7.7,25.2,94,36.7,32.7,7,0,4,1,2026-03-19T18:42:14.039589+05:30
Pune,Maharashtra,18.5204,73.8567,28.3,50,0.0,949.3,8.3,34.9,162,30.3,22.5,4,5,7,1,2026-03-19T18:42:14.039600+05:30
Ahmedabad,Gujarat,23.0225,72.5714,28.4,44,0.0,1004.6,7.35,49.7,71,46.3,17.3,4,5,4,0,2026-03-19T18:42:14.039608+05:30
Jaipur,Rajasthan,26.9124,75.7873,22.2,71,0.0,961.9,7.05,34.2,147,153.2,32.5,3,5,7,1,2026-03-19T18:42:14.039615+05:30
Lucknow,Uttar Pradesh,26.8467,80.9462,30.4,29,0.0,993.9,6.8,28.1,123,56.1,31.8,0,5,7,0,2026-03-19T18:42:14.039623+05:30
Kanpur,Uttar Pradesh,26.4499,80.3319,29.2,41,0.0,992.2,6.85,26.6,137,136.9,39.7,4,5,7,0,2026-03-19T18:42:14.039631+05:30
Chandigarh,Chandigarh,30.7333,76.7794,17.6,94,0.2,971.6,3.9,15.8,67,49.7,29.2,6,10,3,1,2026-03-19T18:42:14.039638+05:30
Srinagar,Jammu and Kashmir,34.0837,74.7973,8.3,83,0.0,839.6,0.95,15.1,102,15.0,14.8,3,10,3,0,2026-03-19T18:42:14.039646+05:30
Jammu,Jammu and Kashmir,32.7266,74.857,18.6,87,0.0,975.9,2.55,35.3,61,45.9,26.3,3,10,3,1,2026-03-19T18:42:14.039653+05:30
Amritsar,Punjab,31.634,74.8723,17.2,90,0.0,984.0,2.25,24.8,80,38.8,24.7,3,10,3,0,2026-03-19T18:42:14.039660+05:30
Ludhiana,Punjab,30.901,75.8573,16.9,92,0.5,981.8,2.0,20.9,82,51.9,32.6,6,10,3,0,2026-03-19T18:42:14.039666+05:30
Jalandhar,Punjab,31.326,75.5762,16.9,94,0.3,983.1,2.7,20.2,78,55.6,32.9,6,10,3,0,2026-03-19T18:42:14.039676+05:30
Dehradun,Uttarakhand,30.6284,78.0322,11.3,76,0.2,829.4,5.35,28.8,50,32.1,12.1,6,5,3,0,2026-03-19T18:42:14.039683+05:30
Shimla,Himachal Pradesh,31.1048,77.1734,9.7,88,0.5,782.3,3.7,36.4,49,16.5,10.6,6,10,3,0,2026-03-19T18:42:14.039690+05:30
Manali,Himachal Pradesh,32.2396,77.1887,10.1,95,0.4,815.5,3.8,23.8,57,2.3,1.9,6,10,3,0,2026-03-19T18:42:14.039696+05:30
Gurgaon,Haryana,28.4595,77.0266,21.3,86,0.0,983.7,5.35,29.9,140,84.3,53.8,3,5,3,1,2026-03-19T18:42:14.039703+05:30
Noida,Uttar Pradesh,28.5355,77.391,21.9,82,0.0,986.8,4.5,32.8,140,84.3,53.8,3,5,3,1,2026-03-19T18:42:14.039709+05:30
Ghaziabad,Uttar Pradesh,28.6692,77.4538,21.2,84,0.0,985.0,4.15,34.2,119,54.8,28.1,3,5,3,1,2026-03-19T18:42:14.039716+05:30
Faridabad,Haryana,28.4089,77.3178,21.4,83,0.0,986.0,4.8,33.5,140,84.3,53.8,3,5,3,1,2026-03-19T18:42:14.039725+05:30
Meerut,Uttar Pradesh,28.9845,77.7064,20.9,85,0.1,983.7,3.9,34.6,119,54.8,28.1,6,5,3,1,2026-03-19T18:42:14.039732+05:30
Agra,Uttar Pradesh,27.1767,78.0081,26.2,49,0.0,989.5,6.65,37.8,676,403.3,71.0,4,5,7,0,2026-03-19T18:42:14.039738+05:30
Varanasi,Uttar Pradesh,25.3176,82.9739,27.5,57,0.0,998.4,7.5,19.8,151,42.6,38.0,4,5,7,1,2026-03-19T18:42:14.039748+05:30
Prayagraj,Uttar Pradesh,25.4358,81.8463,27.9,57,0.0,996.6,7.35,22.0,160,40.6,29.2,4,5,7,1,2026-03-19T18:42:14.039755+05:30
Gorakhpur,Uttar Pradesh,26.7606,83.3732,27.4,49,0.0,996.9,7.2,20.9,119,50.6,31.5,4,5,7,0,2026-03-19T18:42:14.039761+05:30
Bareilly,Uttar Pradesh,28.367,79.4304,24.3,62,0.0,988.5,6.45,34.9,91,34.3,21.5,3,5,7,1,2026-03-19T18:42:14.039768+05:30
Aligarh,Uttar Pradesh,27.8974,78.088,22.8,72,0.0,987.5,6.4,37.1,141,773.0,97.1,3,5,7,1,2026-03-19T18:42:14.039774+05:30
Moradabad,Uttar Pradesh,28.8386,78.7733,23.1,61,0.0,985.8,5.0,46.1,113,45.3,23.7,3,5,3,0,2026-03-19T18:42:14.039780+05:30
Saharanpur,Uttar Pradesh,29.9637,77.546,17.9,86,0.1,978.5,4.05,22.7,81,53.3,31.0,6,10,3,0,2026-03-19T18:42:14.039787+05:30
Jhansi,Uttar Pradesh,25.4484,78.5685,28.6,47,0.0,978.0,7.3,38.9,124,31.9,22.0,4,5,7,1,2026-03-19T18:42:17.266652+05:30
Surat,Gujarat,21.1702,72.8311,26.3,72,0.0,1008.9,7.45,28.1,79,27.5,23.4,7,0,4,1,2026-03-19T18:42:17.266683+05:30
Vadodara,Gujarat,22.3072,73.1812,28.2,56,0.0,1006.9,7.45,47.9,82,21.2,13.6,4,5,4,1,2026-03-19T18:42:17.266692+05:30
Rajkot,Gujarat,22.3039,70.8022,24.7,64,0.0,996.9,7.35,51.5,53,52.7,20.4,3,5,7,1,2026-03-19T18:42:17.266700+05:30
Thane,Maharashtra,19.2183,72.9781,27.1,67,0.0,1009.2,7.75,33.5,92,34.9,16.6,7,0,4,1,2026-03-19T18:42:17.266707+05:30
Nagpur,Maharashtra,21.1458,79.0882,24.8,60,0.0,975.4,7.85,26.3,148,49.1,38.6,0,5,7,1,2026-03-19T18:42:17.266715+05:30
Nashik,Maharashtra,19.9975,73.7898,27.6,43,0.0,946.4,7.95,28.8,99,14.1,10.5,4,5,7,0,2026-03-19T18:42:17.266721+05:30
Aurangabad,Maharashtra,19.8762,75.3433,28.1,40,0.0,945.1,8.45,41.8,135,31.3,21.0,4,5,7,0,2026-03-19T18:42:17.266728+05:30
Solapur,Maharashtra,17.6599,75.9064,28.6,47,0.0,958.1,8.65,39.6,139,36.8,22.7,4,5,7,1,2026-03-19T18:42:17.266735+05:30
Kolhapur,Maharashtra,16.705,74.2433,25.7,60,0.0,948.9,8.6,49.0,121,28.3,21.7,4,5,7,1,2026-03-19T18:42:17.266742+05:30
Goa,Goa,15.2993,74.124,28.3,70,0.0,999.3,8.8,33.1,74,21.4,12.2,7,5,7,1,2026-03-19T18:42:17.266748+05:30
Jodhpur,Rajasthan,26.2389,73.0243,21.9,78,0.1,985.1,6.55,44.6,71,65.0,19.8,6,5,7,1,2026-03-19T18:42:17.266755+05:30
Udaipur,Rajasthan,24.5854,73.7125,21.4,68,0.0,948.1,6.65,49.3,60,52.3,16.4,3,5,7,0,2026-03-19T18:42:17.266762+05:30
Kota,Rajasthan,25.2138,75.8648,27.8,44,0.0,979.4,7.35,32.8,124,44.6,24.9,4,5,7,0,2026-03-19T18:42:17.266768+05:30
Bikaner,Rajasthan,28.0229,73.3119,21.6,73,0.0,984.3,5.1,31.0,68,69.6,21.4,3,5,3,1,2026-03-19T18:42:17.266776+05:30
Ajmer,Rajasthan,26.4499,74.6399,21.7,76,0.0,956.1,5.2,30.2,71,62.2,17.3,3,5,3,1,2026-03-19T18:42:17.266782+05:30
Gwalior,Madhya Pradesh,26.2183,78.1828,27.0,51,0.0,984.6,7.0,30.2,131,41.4,27.9,4,5,7,0,2026-03-19T18:42:17.266789+05:30
Indore,Madhya Pradesh,22.7196,75.8577,29.1,27,0.0,947.9,7.9,33.5,95,24.6,16.4,4,5,7,0,2026-03-19T18:42:17.266795+05:30
Bhopal,Madhya Pradesh,23.2599,77.4126,29.1,29,0.0,953.7,7.8,35.6,122,34.0,23.7,4,5,7,0,2026-03-19T18:42:17.266802+05:30
Jabalpur,Madhya Pradesh,23.1815,79.9864,29.9,33,0.0,961.7,7.9,34.6,122,25.3,21.1,4,5,7,0,2026-03-19T18:42:17.266808+05:30
Ujjain,Madhya Pradesh,23.1765,75.7885,27.8,35,0.0,953.5,7.8,29.2,79,16.9,13.6,4,5,7,0,2026-03-19T18:42:17.266815+05:30
Visakhapatnam,Andhra Pradesh,17.6868,83.2185,27.2,72,0.0,1005.9,8.2,32.8,65,13.8,10.9,7,5,4,1,2026-03-19T18:42:17.266822+05:30
Vijayawada,Andhra Pradesh,16.5062,80.648,25.2,79,0.0,1004.9,8.5,28.8,61,17.4,15.7,7,5,4,1,2026-03-19T18:42:17.266829+05:30
Guntur,Andhra Pradesh,16.3067,80.4365,25.2,82,0.0,1006.1,8.5,31.3,60,20.0,16.1,7,5,4,1,2026-03-19T18:42:17.266835+05:30
Nellore,Andhra Pradesh,14.4426,79.9865,28.1,71,0.0,1007.4,9.0,27.0,43,9.2,6.1,7,5,4,1,2026-03-19T18:42:17.266842+05:30
Kurnool,Andhra Pradesh,15.8281,78.0373,28.8,48,0.0,977.9,8.85,33.1,93,25.1,18.3,4,5,7,1,2026-03-19T18:42:17.266849+05:30
Kakinada,Andhra Pradesh,16.9891,82.2475,26.0,75,0.0,1009.8,8.7,23.0,44,8.6,6.0,7,0,4,1,2026-03-19T18:42:17.266855+05:30
Tirupati,Andhra Pradesh,13.6288,79.4192,25.5,76,0.0,993.2,9.1,21.6,57,18.5,15.5,7,5,7,1,2026-03-19T18:42:17.266862+05:30
Warangal,Telangana,17.9689,79.5941,27.0,67,0.0,980.2,8.1,19.8,142,37.7,31.2,7,5,7,1,2026-03-19T18:42:17.266868+05:30
Nizamabad,Telangana,18.6725,78.0941,28.6,44,0.0,966.2,8.5,19.4,109,45.4,34.5,4,5,7,0,2026-03-19T18:42:17.266874+05:30
Mysore,Karnataka,12.2958,76.6396,27.3,50,0.0,928.3,9.35,36.4,138,32.1,28.6,4,5,7,0,2026-03-19T18:42:17.266880+05:30
Mangalore,Karnataka,12.9141,74.856,28.6,77,0.0,1007.3,8.95,26.6,140,27.6,17.5,7,5,4,1,2026-03-19T18:42:17.266887+05:30
Hubli-Dharwad,Karnataka,15.3647,75.124,28.1,40,0.0,941.4,8.95,32.4,142,30.7,23.2,4,5,7,0,2026-03-19T18:42:17.266893+05:30
Belgaum,Karnataka,15.8497,74.4977,25.0,55,0.0,926.6,9.0,37.4,122,22.2,16.4,4,5,7,0,2026-03-19T18:42:20.494178+05:30
Coimbatore,Tamil Nadu,11.0168,76.9558,28.2,55,0.0,961.6,9.3,47.9,117,22.5,18.3,4,5,7,1,2026-03-19T18:42:20.494231+05:30
Madurai,Tamil Nadu,9.9252,78.1198,27.7,71,0.0,993.7,9.3,23.0,126,21.3,17.6,7,5,7,1,2026-03-19T18:42:20.494244+05:30
Trichy,Tamil Nadu,10.7905,78.7047,31.8,50,0.0,999.0,9.2,29.5,85,25.7,22.6,0,5,7,1,2026-03-19T18:42:20.494254+05:30
Salem,Tamil Nadu,11.6643,78.146,32.6,40,0.0,976.1,9.25,25.6,155,31.0,26.7,0,5,7,1,2026-03-19T18:42:20.494263+05:30
Tirunelveli,Tamil Nadu,8.7139,77.7567,28.0,75,0.0,1004.1,9.15,23.0,87,16.9,16.0,7,5,4,1,2026-03-19T18:42:20.494272+05:30
Vellore,Tamil Nadu,12.9165,79.1325,25.2,73,0.0,986.1,9.15,28.1,66,35.5,28.3,7,5,7,1,2026-03-19T18:42:20.494281+05:30
Erode,Tamil Nadu,11.341,77.7172,33.5,40,0.0,987.9,9.25,36.7,145,28.9,24.4,0,5,7,1,2026-03-19T18:42:20.494289+05:30
Kochi,Kerala,9.9312,76.2673,28.7,78,0.0,1008.7,9.1,29.2,68,17.5,15.2,7,0,4,1,2026-03-19T18:42:20.494298+05:30
Thiruvananthapuram,Kerala,8.5241,76.9366,28.7,78,0.0,1008.5,8.6,27.7,92,13.4,10.6,7,0,4,1,2026-03-19T18:42:20.494306+05:30
Kozhikode,Kerala,11.2588,75.7804,28.9,77,0.0,1008.1,9.05,31.0,75,13.1,8.7,7,0,4,1,2026-03-19T18:42:20.494314+05:30
Thrissur,Kerala,10.5276,76.2144,28.8,74,0.0,1007.0,9.1,34.6,55,14.6,13.0,7,5,4,1,2026-03-19T18:42:20.494322+05:30
Kannur,Kerala,11.8745,75.3704,28.7,74,0.0,1007.5,9.0,35.3,79,18.7,12.1,7,5,4,1,2026-03-19T18:42:20.494331+05:30
Patna,Bihar,25.5941,85.1376,29.6,50,0.0,1001.4,7.2,21.6,205,65.0,52.3,4,5,4,1,2026-03-19T18:42:20.494340+05:30
Gaya,Bihar,24.7914,85.0002,27.4,60,0.0,994.8,7.1,20.5,160,49.5,44.9,4,5,7,1,2026-03-19T18:42:20.494347+05:30
Muzaffarpur,Bihar,26.1209,85.3647,27.1,58,0.0,1001.1,7.05,23.4,186,74.5,56.7,4,5,4,1,2026-03-19T18:42:20.494355+05:30
Bhagalpur,Bihar,25.2425,87.0117,27.9,64,0.0,1002.8,7.4,27.4,194,79.4,66.8,7,5,4,1,2026-03-19T18:42:20.494362+05:30
Ranchi,Jharkhand,23.3441,85.3096,24.9,51,0.0,939.4,7.35,38.5,121,40.2,30.6,0,5,7,0,2026-03-19T18:42:20.494369+05:30
Jamshedpur,Jharkhand,22.8046,86.2029,30.0,44,0.0,992.9,7.9,30.6,142,41.2,32.7,4,5,7,1,2026-03-19T18:42:20.494375+05:30
Dhanbad,Jharkhand,23.7957,86.4304,29.3,37,0.0,982.5,7.15,20.5,157,80.8,68.0,4,5,7,0,2026-03-19T18:42:20.494382+05:30
Bokaro,Jharkhand,23.6693,86.1511,25.8,60,0.0,986.5,7.15,41.0,142,68.5,56.0,4,5,7,1,2026-03-19T18:42:20.494388+05:30
Bhubaneswar,Odisha,20.2961,85.8245,25.7,81,0.0,1004.9,7.8,20.9,129,19.6,17.3,7,5,4,1,2026-03-19T18:42:20.494396+05:30
Cuttack,Odisha,20.4625,85.8828,25.3,78,0.0,1006.9,7.9,24.8,129,19.6,17.3,7,5,4,1,2026-03-19T18:42:20.494403+05:30
Rourkela,Odisha,22.2604,84.8536,30.0,44,0.0,986.6,7.1,24.8,142,60.3,46.8,4,5,7,1,2026-03-19T18:42:20.494409+05:30
Raipur,Chhattisgarh,21.2514,81.6296,29.6,42,0.0,975.6,7.95,25.9,183,65.7,56.3,4,5,7,0,2026-03-19T18:42:20.494415+05:30
Bhilai,Chhattisgarh,21.1938,81.3509,30.2,38,0.0,975.8,7.6,24.8,151,65.2,54.7,0,5,7,0,2026-03-19T18:42:20.494422+05:30
Guwahati,Assam,26.1158,91.7086,24.6,74,0.0,1004.8,7.5,25.2,104,41.9,33.2,3,5,4,1,2026-03-19T18:42:20.494428+05:30
Agartala,Tripura,23.8315,91.2868,27.7,59,0.0,1008.0,7.85,23.0,122,48.1,45.2,4,0,4,1,2026-03-19T18:42:20.494434+05:30
Shillong,Meghalaya,25.5788,91.8933,13.8,85,0.0,857.0,7.15,47.2,125,35.3,28.8,3,10,7,0,2026-03-19T18:42:20.494441+05:30
Imphal,Manipur,24.817,93.9368,18.3,74,0.0,924.8,8.25,60.8,108,39.5,30.0,3,5,7,0,2026-03-19T18:42:20.494447+05:30
Aizawl,Mizoram,23.7271,92.7176,20.2,70,0.0,894.3,8.05,38.5,117,36.1,29.1,3,5,7,0,2026-03-19T18:42:20.494454+05:30
Kohima,Nagaland,25.6701,94.1077,14.0,91,0.0,855.7,7.95,86.8,91,51.6,28.0,3,10,7,0,2026-03-19T18:42:20.494460+05:30
Gangtok,Sikkim,27.3314,88.6138,14.5,87,0.0,837.9,7.7,20.2,108,50.8,36.8,3,10,7,0,2026-03-19T18:42:20.494466+05:30
Siliguri,West Bengal,26.7271,88.3953,21.4,78,0.0,996.4,7.35,24.8,133,68.2,54.9,3,5,7,1,2026-03-19T18:42:23.720767+05:30
Durgapur,West Bengal,23.5204,87.3119,27.4,67,0.0,997.2,7.6,26.3,152,70.5,61.7,7,5,7,1,2026-03-19T18:42:23.720797+05:30
Asansol,West Bengal,23.6739,86.9524,28.8,52,0.0,995.5,7.65,31.0,154,65.7,54.4,4,5,7,1,2026-03-19T18:42:23.720807+05:30
Pondicherry,Puducherry,11.9139,79.8145,28.0,77,0.0,1009.0,9.1,28.4,44,6.1,4.4,7,0,4,1,2026-03-19T18:42:23.720815+05:30
Port Blair,Andaman and Nicobar Islands,11.6234,92.7265,27.5,80,0.0,1009.2,9.05,22.0,51,13.4,10.2,7,0,4,1,2026-03-19T18:42:23.720823+05:30
Haridwar,Uttarakhand,29.9457,78.1642,21.5,79,0.0,977.1,3.75,24.8,72,51.2,30.4,3,5,3,1,2026-03-19T18:42:23.720832+05:30
Rishikesh,Uttarakhand,30.0869,78.2676,21.7,58,0.0,969.6,4.8,24.5,67,52.0,23.2,0,5,3,0,2026-03-19T18:42:23.720840+05:30
Nainital,Uttarakhand,29.3919,79.4542,16.9,59,0.0,806.2,5.8,55.4,74,36.0,18.1,0,5,3,0,2026-03-19T18:42:23.720847+05:30
Mussoorie,Uttarakhand,30.4599,78.0664,12.9,69,0.1,802.0,5.25,38.9,65,54.1,27.7,6,5,3,0,2026-03-19T18:42:23.720855+05:30
Dharamshala,Himachal Pradesh,32.219,76.3234,14.1,88,0.2,868.1,3.8,29.9,50,3.5,3.4,6,10,3,0,2026-03-19T18:42:23.720862+05:30
Dalhousie,Himachal Pradesh,32.5387,75.971,11.0,81,0.3,801.6,4.35,25.2,61,45.1,23.8,6,10,3,0,2026-03-19T18:42:23.720871+05:30
Patiala,Punjab,30.3398,76.3869,18.0,92,0.1,981.0,3.85,21.6,90,48.0,27.7,6,10,3,1,2026-03-19T18:42:23.720878+05:30
Bhatinda,Punjab,30.211,74.9455,19.3,90,0.0,986.4,1.4,20.9,86,57.6,27.9,3,10,3,1,2026-03-19T18:42:23.720885+05:30
Rohtak,Haryana,28.8955,76.6066,20.3,88,0.0,984.1,4.05,28.1,132,93.8,48.8,3,5,3,1,2026-03-19T18:42:23.720892+05:30
Panipat,Haryana,29.3909,76.9635,19.3,86,0.0,983.1,3.8,32.8,134,76.1,37.7,3,10,3,1,2026-03-19T18:42:23.720899+05:30
Mathura,Uttar Pradesh,27.4924,77.6737,23.1,67,0.0,988.5,6.6,37.4,120,168.1,61.7,3,5,7,1,2026-03-19T18:42:23.720905+05:30
Vrindavan,Uttar Pradesh,27.5823,77.7027,22.5,71,0.0,989.1,6.55,40.7,120,168.1,61.7,3,5,7,1,2026-03-19T18:42:23.720912+05:30
Ayodhya,Uttar Pradesh,26.7922,82.1998,29.6,34,0.0,995.4,7.0,32.4,116,57.0,32.6,4,5,7,0,2026-03-19T18:42:23.720918+05:30
Ratlam,Madhya Pradesh,23.3315,75.0367,28.6,32,0.0,954.7,7.75,31.7,79,14.7,9.9,4,5,7,0,2026-03-19T18:42:23.720924+05:30
Sagar,Madhya Pradesh,23.8388,78.7378,28.2,32,0.0,950.3,7.75,45.0,112,23.9,17.2,4,5,7,0,2026-03-19T18:42:23.720931+05:30
Satna,Madhya Pradesh,24.6005,80.8322,29.6,29,0.0,971.6,7.7,42.5,115,17.1,12.6,4,5,7,0,2026-03-19T18:42:23.720937+05:30
Akola,Maharashtra,20.7002,77.0082,30.1,38,0.0,975.8,8.15,26.3,127,41.7,30.4,0,5,7,0,2026-03-19T18:42:23.720944+05:30
Amravati,Maharashtra,20.9374,77.7796,28.7,42,0.0,968.7,8.05,33.8,130,42.3,31.1,4,5,7,0,2026-03-19T18:42:23.720952+05:30
Latur,Maharashtra,18.4088,76.5604,25.5,57,0.0,941.0,8.55,45.7,109,40.7,30.5,4,5,7,1,2026-03-19T18:42:23.720958+05:30
Nanded,Maharashtra,19.1383,77.3091,25.5,59,0.0,971.4,8.4,48.6,131,35.9,26.8,4,5,7,1,2026-03-19T18:42:23.720964+05:30
Gulbarga,Karnataka,17.3297,76.8343,28.8,41,0.0,960.0,8.65,23.4,120,39.5,27.9,4,5,7,0,2026-03-19T18:42:23.720970+05:30
Bidar,Karnataka,17.9104,77.5199,26.5,50,0.0,936.7,8.6,31.3,110,36.3,27.0,4,5,7,0,2026-03-19T18:42:23.720976+05:30
Hospet,Karnataka,15.2689,76.3909,30.9,36,0.0,956.1,8.9,21.2,149,31.4,24.0,0,5,7,0,2026-03-19T18:42:23.720982+05:30
Tirupur,Tamil Nadu,11.1085,77.3411,31.5,44,0.0,974.3,9.35,34.9,151,28.6,23.1,0,5,7,1,2026-03-19T18:42:23.720988+05:30
Alappuzha,Kerala,9.4981,76.3388,28.8,77,0.0,1008.9,9.1,27.4,81,19.9,15.6,7,0,4,1,2026-03-19T18:42:23.720995+05:30
Munnar,Kerala,10.0889,77.0595,23.5,72,0.0,857.7,9.6,38.9,61,13.9,12.3,3,5,7,1,2026-03-19T18:42:23.721002+05:30
Silchar,Assam,24.8333,92.7789,26.4,66,0.0,1007.1,7.9,21.2,120,40.7,37.5,7,5,4,1,2026-03-19T18:42:23.721008+05:30
Dibrugarh,Assam,27.4728,94.912,21.4,81,0.0,999.7,7.0,23.4,83,50.2,37.8,3,5,7,1,2026-03-19T18:42:23.721015+05:30
