city,state,latitude,longitude,temp,humidity,rain,pressure,uv_index,wind_gusts,aqi,pm10,pm2_5,mosquito_risk,arthritis_risk,migraine_risk,frizz_risk,updated_at
Delhi,Delhi,28.6139,77.209,29.0,37,0.0,982.1,6.85,40.7,153,165.3,32.1,4,5,7,0,2026-04-05T14:19:41.586827+05:30
Mumbai,Maharashtra,19.076,72.8777,27.9,67,0.0,1009.0,7.9,23.8,69,42.4,21.9,7,0,4,1,2026-04-05T14:19:41.586875+05:30
Bangalore,Karnataka,12.9716,77.5946,30.5,48,0.0,911.5,9.65,32.4,110,36.0,30.3,0,5,7,1,2026-04-05T14:19:41.586890+05:30
Hyderabad,Telangana,17.385,78.4867,35.6,31,0.0,952.0,9.1,27.4,130,42.3,35.0,0,5,10,0,2026-04-05T14:19:41.586900+05:30
Chennai,Tamil Nadu,13.0827,80.2707,36.1,48,0.0,1004.7,9.3,31.7,58,27.2,22.1,0,5,7,1,2026-04-05T14:19:41.586910+05:30
Kolkata,West Bengal,22.5726,88.3639,34.3,44,0.0,1003.3,8.6,29.2,141,54.5,35.2,0,5,4,1,2026-04-05T14:19:41.586917+05:30
Pune,Maharashtra,18.5204,73.8567,32.9,36,0.0,948.7,8.5,40.7,79,49.4,21.8,0,5,7,0,2026-04-05T14:19:41.586926+05:30
Ahmedabad,Gujarat,23.0225,72.5714,34.7,21,0.0,1002.0,7.9,25.6,55,38.4,11.5,0,5,4,0,2026-04-05T14:19:41.586933+05:30
Jaipur,Rajasthan,26.9124,75.7873,30.7,22,0.0,959.1,7.55,37.8,80,156.5,21.0,0,5,7,0,2026-04-05T14:19:41.586939+05:30
Lucknow,Uttar Pradesh,26.8467,80.9462,29.6,48,0.0,992.1,7.4,46.8,117,75.9,19.9,4,5,7,1,2026-04-05T14:19:41.586945+05:30
Kanpur,Uttar Pradesh,26.4499,80.3319,30.0,48,0.0,990.4,7.45,40.7,137,236.1,33.9,4,5,7,1,2026-04-05T14:19:41.586951+05:30
Chandigarh,Chandigarh,30.7333,76.7794,29.8,28,0.0,967.7,6.85,31.7,76,61.0,15.9,4,5,7,0,2026-04-05T14:19:41.586957+05:30
Srinagar,Jammu and Kashmir,34.0837,74.7973,16.1,57,0.0,840.2,7.1,19.1,61,26.2,9.1,0,5,7,0,2026-04-05T14:19:41.586963+05:30
Jammu,Jammu and Kashmir,32.7266,74.857,28.9,35,0.0,972.6,7.5,28.4,65,49.4,13.7,4,5,7,0,2026-04-05T14:19:41.586969+05:30
Amritsar,Punjab,31.634,74.8723,28.6,34,0.0,980.8,7.45,26.3,98,70.3,21.8,4,5,7,0,2026-04-05T14:19:41.586974+05:30
Ludhiana,Punjab,30.901,75.8573,28.9,34,0.0,978.6,7.05,31.0,92,83.6,20.3,4,5,7,0,2026-04-05T14:19:41.586979+05:30
Jalandhar,Punjab,31.326,75.5762,28.9,34,0.0,979.7,7.25,24.8,86,73.3,18.3,4,5,7,0,2026-04-05T14:19:41.586986+05:30
Dehradun,Uttarakhand,30.6284,78.0322,17.7,62,0.0,829.1,6.65,39.2,49,17.7,6.1,3,5,7,0,2026-04-05T14:19:41.586992+05:30
Shimla,Himachal Pradesh,31.1048,77.1734,15.1,66,0.0,783.5,5.35,32.0,50,29.4,8.3,3,5,3,0,2026-04-05T14:19:41.586998+05:30
Manali,Himachal Pradesh,32.2396,77.1887,18.0,54,0.0,817.8,9.4,27.4,57,11.0,4.3,0,5,7,0,2026-04-05T14:19:41.587004+05:30
Gurgaon,Haryana,28.4595,77.0266,28.0,45,0.0,981.2,6.65,35.6,188,489.9,65.2,4,5,7,0,2026-04-05T14:19:41.587009+05:30
Noida,Uttar Pradesh,28.5355,77.391,29.5,37,0.0,983.7,6.9,39.2,188,489.9,65.2,4,5,7,0,2026-04-05T14:19:41.587014+05:30
Ghaziabad,Uttar Pradesh,28.6692,77.4538,30.0,36,0.0,981.8,6.05,42.1,149,121.1,26.1,4,5,7,0,2026-04-05T14:19:41.587019+05:30
Faridabad,Haryana,28.4089,77.3178,28.5,42,0.0,983.2,6.2,36.4,188,489.9,65.2,4,5,7,0,2026-04-05T14:19:41.587025+05:30
Meerut,Uttar Pradesh,28.9845,77.7064,31.0,30,0.0,980.2,6.5,34.6,149,121.1,26.1,0,5,7,0,2026-04-05T14:19:41.587030+05:30
Agra,Uttar Pradesh,27.1767,78.0081,30.3,44,0.0,987.1,7.3,32.4,311,294.3,41.7,0,5,7,1,2026-04-05T14:19:41.587036+05:30
Varanasi,Uttar Pradesh,25.3176,82.9739,32.1,47,0.0,995.4,8.1,35.6,84,36.6,19.4,0,5,7,1,2026-04-05T14:19:41.587044+05:30
Prayagraj,Uttar Pradesh,25.4358,81.8463,31.5,47,0.0,994.4,7.95,32.4,87,37.8,17.5,0,5,7,1,2026-04-05T14:19:41.587049+05:30
Gorakhpur,Uttar Pradesh,26.7606,83.3732,33.8,25,0.0,994.9,7.85,45.4,99,57.5,18.3,0,5,7,0,2026-04-05T14:19:41.587054+05:30
Bareilly,Uttar Pradesh,28.367,79.4304,28.8,47,0.0,985.8,7.2,35.3,81,34.6,13.5,4,5,7,1,2026-04-05T14:19:41.587060+05:30
Aligarh,Uttar Pradesh,27.8974,78.088,24.1,67,0.0,985.3,7.1,45.0,186,199.3,40.3,3,5,7,1,2026-04-05T14:19:41.587067+05:30
Moradabad,Uttar Pradesh,28.8386,78.7733,29.8,39,0.0,982.3,7.0,26.3,91,43.0,12.5,4,5,7,0,2026-04-05T14:19:41.587072+05:30
Saharanpur,Uttar Pradesh,29.9637,77.546,31.4,24,0.0,973.8,6.6,30.6,90,61.9,16.5,0,5,7,0,2026-04-05T14:19:41.587077+05:30
Jhansi,Uttar Pradesh,25.4484,78.5685,33.3,24,0.0,976.1,7.85,28.4,59,24.2,11.8,0,5,7,0,2026-04-05T14:19:44.882747+05:30
Surat,Gujarat,21.1702,72.8311,29.9,47,0.0,1007.6,7.65,27.7,79,42.3,33.5,4,5,4,1,2026-04-05T14:19:44.882778+05:30
Vadodara,Gujarat,22.3072,73.1812,34.0,29,0.0,1004.3,7.9,20.5,77,28.1,12.2,0,5,4,0,2026-04-05T14:19:44.882787+05:30
Rajkot,Gujarat,22.3039,70.8022,33.3,28,0.0,994.7,7.65,33.5,47,31.9,9.6,0,5,7,0,2026-04-05T14:19:44.882796+05:30
Thane,Maharashtra,19.2183,72.9781,30.7,51,0.0,1008.5,7.9,34.6,69,42.4,21.9,0,0,4,1,2026-04-05T14:19:44.882804+05:30
Nagpur,Maharashtra,21.1458,79.0882,34.6,30,0.0,971.7,8.7,31.3,98,38.2,27.8,0,5,7,0,2026-04-05T14:19:44.882811+05:30
Nashik,Maharashtra,19.9975,73.7898,29.8,41,0.0,945.6,8.15,36.4,53,43.9,14.6,4,5,7,0,2026-04-05T14:19:44.882818+05:30
Aurangabad,Maharashtra,19.8762,75.3433,33.7,27,0.0,943.4,8.85,40.0,58,47.5,15.5,0,5,7,0,2026-04-05T14:19:44.882826+05:30
Solapur,Maharashtra,17.6599,75.9064,35.9,23,0.0,956.4,8.6,29.9,79,24.7,13.3,0,5,10,0,2026-04-05T14:19:44.882833+05:30
Kolhapur,Maharashtra,16.705,74.2433,32.1,35,0.0,948.2,9.05,44.6,71,34.2,17.5,0,5,7,0,2026-04-05T14:19:44.882840+05:30
Goa,Goa,15.2993,74.124,32.1,56,0.0,998.1,9.05,37.4,63,36.7,15.6,0,5,7,1,2026-04-05T14:19:44.882847+05:30
Jodhpur,Rajasthan,26.2389,73.0243,32.0,23,0.0,983.3,7.6,26.3,77,75.9,12.3,0,5,7,0,2026-04-05T14:19:44.882853+05:30
Udaipur,Rajasthan,24.5854,73.7125,29.0,26,0.0,947.0,8.3,35.3,48,43.8,8.7,4,5,7,0,2026-04-05T14:19:44.882860+05:30
Kota,Rajasthan,25.2138,75.8648,33.5,18,0.0,977.7,7.6,29.9,62,58.6,13.1,0,5,7,0,2026-04-05T14:19:44.882867+05:30
Bikaner,Rajasthan,28.0229,73.3119,31.1,26,0.0,982.5,7.6,27.4,50,20.6,10.0,0,5,7,0,2026-04-05T14:19:44.882874+05:30
Ajmer,Rajasthan,26.4499,74.6399,30.1,25,0.0,954.4,7.75,30.6,51,61.2,12.3,0,5,7,0,2026-04-05T14:19:44.882880+05:30
Gwalior,Madhya Pradesh,26.2183,78.1828,32.7,27,0.0,981.4,7.6,50.8,65,39.3,13.6,0,5,7,0,2026-04-05T14:19:44.882887+05:30
Indore,Madhya Pradesh,22.7196,75.8577,30.7,26,0.0,947.7,8.3,29.5,63,16.2,9.3,0,5,7,0,2026-04-05T14:19:44.882894+05:30
Bhopal,Madhya Pradesh,23.2599,77.4126,32.4,24,0.0,952.9,8.3,34.6,60,17.5,8.4,0,5,7,0,2026-04-05T14:19:44.882901+05:30
Jabalpur,Madhya Pradesh,23.1815,79.9864,32.0,37,0.0,960.5,8.5,33.5,76,45.2,18.9,0,5,7,0,2026-04-05T14:19:44.882907+05:30
Ujjain,Madhya Pradesh,23.1765,75.7885,31.3,22,0.0,953.3,8.2,32.4,61,18.3,7.5,0,5,7,0,2026-04-05T14:19:44.882914+05:30
Visakhapatnam,Andhra Pradesh,17.6868,83.2185,32.1,63,0.0,1001.9,9.1,36.7,74,37.5,32.1,3,5,4,1,2026-04-05T14:19:44.882921+05:30
Vijayawada,Andhra Pradesh,16.5062,80.648,34.0,55,0.0,1000.4,8.45,23.8,71,36.0,30.2,0,5,4,1,2026-04-05T14:19:44.882928+05:30
Guntur,Andhra Pradesh,16.3067,80.4365,37.5,32,0.0,1000.7,8.7,33.5,70,37.6,31.0,0,5,7,1,2026-04-05T14:19:44.882935+05:30
Nellore,Andhra Pradesh,14.4426,79.9865,36.3,43,0.0,1003.3,9.3,27.7,60,31.0,26.7,0,5,7,1,2026-04-05T14:19:44.882942+05:30
Kurnool,Andhra Pradesh,15.8281,78.0373,38.4,26,0.0,974.5,9.2,33.8,85,46.9,39.1,0,5,10,0,2026-04-05T14:19:44.882950+05:30
Kakinada,Andhra Pradesh,16.9891,82.2475,32.9,61,0.0,1005.5,9.15,29.9,54,23.1,17.2,3,5,4,1,2026-04-05T14:19:44.882957+05:30
Tirupati,Andhra Pradesh,13.6288,79.4192,36.1,40,0.0,989.3,8.6,36.0,76,30.2,25.1,0,5,10,1,2026-04-05T14:19:44.882964+05:30
Warangal,Telangana,17.9689,79.5941,35.1,43,0.0,976.9,8.8,37.4,151,71.5,58.2,0,5,10,1,2026-04-05T14:19:44.882971+05:30
Nizamabad,Telangana,18.6725,78.0941,35.2,28,0.0,963.8,8.85,55.1,117,32.5,23.0,0,5,10,0,2026-04-05T14:19:44.882977+05:30
Mysore,Karnataka,12.2958,76.6396,31.9,42,0.0,928.0,9.15,33.1,79,32.0,26.7,0,5,7,1,2026-04-05T14:19:44.882984+05:30
Mangalore,Karnataka,12.9141,74.856,29.2,76,0.0,1006.2,9.15,34.2,66,26.3,14.4,7,5,4,1,2026-04-05T14:19:44.882990+05:30
Hubli-Dharwad,Karnataka,15.3647,75.124,33.7,30,0.0,940.7,9.25,37.1,65,21.5,17.1,0,5,7,0,2026-04-05T14:19:44.882998+05:30
Belgaum,Karnataka,15.8497,74.4977,31.3,36,0.0,926.3,9.3,38.5,61,23.4,13.9,0,5,7,0,2026-04-05T14:19:48.177883+05:30
Coimbatore,Tamil Nadu,11.0168,76.9558,34.0,43,0.0,960.6,9.5,49.7,75,28.6,24.9,0,5,7,1,2026-04-05T14:19:48.177913+05:30
Madurai,Tamil Nadu,9.9252,78.1198,37.7,35,0.0,990.2,2.05,28.4,75,23.9,21.2,0,5,6,1,2026-04-05T14:19:48.177922+05:30
Trichy,Tamil Nadu,10.7905,78.7047,38.4,34,0.0,996.5,9.2,38.5,91,37.1,32.5,0,5,10,1,2026-04-05T14:19:48.177930+05:30
Salem,Tamil Nadu,11.6643,78.146,37.4,35,0.0,974.9,9.2,27.0,94,40.7,35.2,0,5,10,1,2026-04-05T14:19:48.177938+05:30
Tirunelveli,Tamil Nadu,8.7139,77.7567,39.0,28,0.0,1000.1,9.4,24.5,62,15.4,13.6,0,5,7,1,2026-04-05T14:19:48.177945+05:30
Vellore,Tamil Nadu,12.9165,79.1325,35.8,38,0.0,982.2,9.45,36.4,109,40.6,35.6,0,5,10,1,2026-04-05T14:19:48.177952+05:30
Erode,Tamil Nadu,11.341,77.7172,38.9,32,0.0,985.9,9.45,29.5,85,35.0,30.2,0,5,10,1,2026-04-05T14:19:48.177959+05:30
Kochi,Kerala,9.9312,76.2673,29.4,77,0.0,1007.5,8.25,29.9,65,18.5,15.3,7,5,4,1,2026-04-05T14:19:48.177967+05:30
Thiruvananthapuram,Kerala,8.5241,76.9366,29.2,78,0.0,1006.5,9.2,36.0,53,20.6,15.3,7,5,4,1,2026-04-05T14:19:48.177974+05:30
Kozhikode,Kerala,11.2588,75.7804,30.4,75,0.0,1007.0,9.2,32.4,56,27.6,16.8,3,5,4,1,2026-04-05T14:19:48.177980+05:30
Thrissur,Kerala,10.5276,76.2144,33.3,60,0.0,1006.0,9.15,35.6,63,21.8,18.2,0,5,4,1,2026-04-05T14:19:48.177988+05:30
Kannur,Kerala,11.8745,75.3704,31.6,65,0.0,1006.4,9.2,36.7,68,29.7,16.5,3,5,4,1,2026-04-05T14:19:48.177995+05:30
Patna,Bihar,25.5941,85.1376,34.6,34,0.0,997.2,8.25,45.0,85,31.5,17.2,0,5,7,1,2026-04-05T14:19:48.178001+05:30
Gaya,Bihar,24.7914,85.0002,34.6,33,0.0,991.1,8.35,46.8,76,29.5,20.1,0,5,7,0,2026-04-05T14:19:48.178009+05:30
Muzaffarpur,Bihar,26.1209,85.3647,35.1,27,0.0,996.8,8.2,34.6,88,40.3,16.6,0,5,10,0,2026-04-05T14:19:48.178015+05:30
Bhagalpur,Bihar,25.2425,87.0117,34.3,36,0.0,997.8,8.35,34.6,83,41.7,21.4,0,5,7,1,2026-04-05T14:19:48.178022+05:30
Ranchi,Jharkhand,23.3441,85.3096,31.5,40,0.0,936.5,8.9,46.4,67,42.5,24.4,0,5,7,1,2026-04-05T14:19:48.178028+05:30
Jamshedpur,Jharkhand,22.8046,86.2029,34.7,38,0.0,988.9,8.6,23.4,108,52.7,32.0,0,5,7,1,2026-04-05T14:19:48.178035+05:30
Dhanbad,Jharkhand,23.7957,86.4304,35.0,31,0.0,977.8,8.7,39.6,103,45.9,27.3,0,5,7,0,2026-04-05T14:19:48.178042+05:30
Bokaro,Jharkhand,23.6693,86.1511,34.7,33,0.0,981.6,8.65,53.6,101,42.1,26.4,0,5,7,0,2026-04-05T14:19:48.178049+05:30
Bhubaneswar,Odisha,20.2961,85.8245,28.4,78,0.0,1002.5,8.65,26.3,102,57.6,51.8,7,5,4,1,2026-04-05T14:19:48.178055+05:30
Cuttack,Odisha,20.4625,85.8828,28.7,74,0.0,1004.5,8.6,28.8,102,57.6,51.8,7,5,4,1,2026-04-05T14:19:48.178062+05:30
Rourkela,Odisha,22.2604,84.8536,34.9,40,0.0,983.1,8.65,33.8,88,40.7,30.0,0,5,7,1,2026-04-05T14:19:48.178068+05:30
Raipur,Chhattisgarh,21.2514,81.6296,35.8,32,0.0,972.4,8.7,31.3,144,39.3,33.5,0,5,10,1,2026-04-05T14:19:48.178075+05:30
Bhilai,Chhattisgarh,21.1938,81.3509,35.8,34,0.0,972.8,8.7,32.0,137,37.3,30.3,0,5,10,1,2026-04-05T14:19:48.178082+05:30
Guwahati,Assam,26.1158,91.7086,32.9,51,0.0,995.6,7.45,51.8,143,39.7,26.2,0,5,7,1,2026-04-05T14:19:48.178088+05:30
Agartala,Tripura,23.8315,91.2868,29.3,79,0.0,1003.7,8.4,27.0,113,67.5,55.9,7,5,4,1,2026-04-05T14:19:48.178095+05:30
Shillong,Meghalaya,25.5788,91.8933,20.3,58,0.0,854.9,8.1,67.3,102,36.4,24.4,0,5,7,0,2026-04-05T14:19:48.178101+05:30
Imphal,Manipur,24.817,93.9368,21.8,78,0.0,921.4,8.85,83.9,140,46.3,36.9,3,5,7,1,2026-04-05T14:19:48.178106+05:30
Aizawl,Mizoram,23.7271,92.7176,22.3,79,0.0,892.3,8.5,55.8,144,51.6,40.6,3,5,7,1,2026-04-05T14:19:48.178111+05:30
Kohima,Nagaland,25.6701,94.1077,22.0,55,0.0,853.5,8.2,95.0,107,37.6,27.6,0,5,7,0,2026-04-05T14:19:48.178117+05:30
Gangtok,Sikkim,27.3314,88.6138,18.9,78,0.0,835.5,8.35,19.8,107,37.8,26.0,3,5,7,0,2026-04-05T14:19:48.178122+05:30
Siliguri,West Bengal,26.7271,88.3953,28.2,57,0.0,989.3,8.2,34.9,157,63.8,45.8,4,5,7,1,2026-04-05T14:19:51.477650+05:30
Durgapur,West Bengal,23.5204,87.3119,35.5,32,0.0,992.6,8.0,38.2,113,51.5,25.5,0,5,10,1,2026-04-05T14:19:51.477679+05:30
Asansol,West Bengal,23.6739,86.9524,35.3,34,0.0,991.1,8.05,36.0,90,48.1,25.4,0,5,10,1,2026-04-05T14:19:51.477687+05:30
Pondicherry,Puducherry,11.9139,79.8145,37.8,38,0.0,1004.8,9.35,27.7,56,28.5,25.3,0,5,7,1,2026-04-05T14:19:51.477695+05:30
Port Blair,Andaman and Nicobar Islands,11.6234,92.7265,29.5,71,0.0,1004.8,9.25,19.8,45,16.5,11.2,7,5,4,1,2026-04-05T14:19:51.477703+05:30
Haridwar,Uttarakhand,29.9457,78.1642,29.7,35,0.0,973.1,6.7,18.7,65,41.6,12.1,4,5,7,0,2026-04-05T14:19:51.477711+05:30
Rishikesh,Uttarakhand,30.0869,78.2676,28.0,42,0.0,966.1,6.65,22.3,47,34.3,9.7,4,5,7,0,2026-04-05T14:19:51.477719+05:30
Nainital,Uttarakhand,29.3919,79.4542,18.9,67,0.0,805.0,6.8,28.1,51,27.8,10.0,3,5,7,0,2026-04-05T14:19:51.477726+05:30
Mussoorie,Uttarakhand,30.4599,78.0664,19.1,54,0.0,802.2,5.8,45.7,50,30.6,9.4,0,5,3,0,2026-04-05T14:19:51.477733+05:30
Dharamshala,Himachal Pradesh,32.219,76.3234,19.5,65,0.0,868.4,7.3,32.8,52,17.3,5.8,3,5,7,0,2026-04-05T14:19:51.477740+05:30
Dalhousie,Himachal Pradesh,32.5387,75.971,18.1,52,0.0,803.1,7.25,25.2,57,44.5,11.8,0,5,7,0,2026-04-05T14:19:51.477748+05:30
Patiala,Punjab,30.3398,76.3869,29.5,32,0.0,977.6,6.75,34.2,110,328.8,38.1,4,5,7,0,2026-04-05T14:19:51.477755+05:30
Bhatinda,Punjab,30.211,74.9455,28.9,34,0.0,983.9,7.3,30.2,89,78.7,21.1,4,5,7,0,2026-04-05T14:19:51.477762+05:30
Rohtak,Haryana,28.8955,76.6066,29.9,36,0.0,981.2,5.7,36.7,152,221.2,36.8,4,5,3,0,2026-04-05T14:19:51.477769+05:30
Panipat,Haryana,29.3909,76.9635,30.5,31,0.0,979.4,6.75,32.0,220,368.8,45.1,0,5,7,0,2026-04-05T14:19:51.477776+05:30
Mathura,Uttar Pradesh,27.4924,77.6737,27.6,54,0.0,986.8,6.3,31.7,236,249.6,43.3,4,5,7,1,2026-04-05T14:19:51.477783+05:30
Vrindavan,Uttar Pradesh,27.5823,77.7027,24.4,64,0.0,987.3,6.05,42.5,236,249.6,43.3,3,5,7,1,2026-04-05T14:19:51.477790+05:30
Ayodhya,Uttar Pradesh,26.7922,82.1998,32.2,37,0.0,993.3,7.6,46.1,108,42.3,15.1,0,5,7,0,2026-04-05T14:19:51.477797+05:30
Ratlam,Madhya Pradesh,23.3315,75.0367,31.3,25,0.0,954.7,8.1,33.5,56,17.7,6.8,0,5,7,0,2026-04-05T14:19:51.477804+05:30
Sagar,Madhya Pradesh,23.8388,78.7378,32.4,24,0.0,949.1,7.8,34.2,59,13.5,6.8,0,5,7,0,2026-04-05T14:19:51.477811+05:30
Satna,Madhya Pradesh,24.6005,80.8322,31.8,38,0.0,969.6,8.3,30.2,71,32.9,12.4,0,5,7,0,2026-04-05T14:19:51.477818+05:30
Akola,Maharashtra,20.7002,77.0082,35.7,27,0.0,973.9,8.65,33.8,73,43.7,15.4,0,5,10,0,2026-04-05T14:19:51.477825+05:30
Amravati,Maharashtra,20.9374,77.7796,35.8,26,0.0,965.9,8.65,34.2,80,40.7,15.3,0,5,10,0,2026-04-05T14:19:51.477834+05:30
Latur,Maharashtra,18.4088,76.5604,33.8,23,0.0,939.4,9.0,30.2,93,33.4,14.8,0,5,7,0,2026-04-05T14:19:51.477841+05:30
Nanded,Maharashtra,19.1383,77.3091,35.6,26,0.0,967.6,8.85,28.4,102,32.6,17.9,0,5,10,0,2026-04-05T14:19:51.477848+05:30
Gulbarga,Karnataka,17.3297,76.8343,36.1,22,0.0,957.8,8.95,34.6,110,41.6,32.1,0,5,10,0,2026-04-05T14:19:51.477855+05:30
Bidar,Karnataka,17.9104,77.5199,34.7,24,0.0,935.0,8.9,33.5,129,45.3,35.0,0,5,7,0,2026-04-05T14:19:51.477861+05:30
Hospet,Karnataka,15.2689,76.3909,34.6,30,0.0,955.3,9.2,27.0,82,25.6,21.1,0,5,7,0,2026-04-05T14:19:51.477868+05:30
Tirupur,Tamil Nadu,11.1085,77.3411,36.4,37,0.0,973.0,9.55,36.0,82,32.4,27.8,0,5,10,1,2026-04-05T14:19:51.477875+05:30
Alappuzha,Kerala,9.4981,76.3388,29.4,78,0.0,1007.6,8.9,28.8,62,21.3,16.6,7,5,4,1,2026-04-05T14:19:51.477882+05:30
Munnar,Kerala,10.0889,77.0595,27.0,64,0.0,858.0,9.75,38.5,59,19.3,17.0,7,5,7,1,2026-04-05T14:19:51.477889+05:30
Silchar,Assam,24.8333,92.7789,27.7,78,0.0,1003.0,8.4,33.1,156,65.0,57.5,7,5,4,1,2026-04-05T14:19:51.477896+05:30
Dibrugarh,Assam,27.4728,94.912,23.7,87,0.0,991.2,7.5,50.4,152,51.3,38.9,3,5,7,1,2026-04-05T14:19:51.477903+05:30
