city,state,latitude,longitude,temp,humidity,rain,pressure,uv_index,wind_gusts,aqi,pm10,pm2_5,no2,co,o3,so2,mosquito_risk,arthritis_risk,migraine_risk,frizz_risk,updated_at
Delhi,Delhi,28.6139,77.209,30.6,54,0.0,979.7,7.8,38.2,609,499.2,139.2,28.4,499.0,54.0,17.0,0,5,7,1,2026-06-20T05:41:31.411268+05:30
Mumbai,Maharashtra,19.076,72.8777,29.4,67,0.0,1007.8,7.75,43.2,54,21.3,11.7,9.1,141.0,40.0,8.7,7,5,4,1,2026-06-20T05:41:31.411305+05:30
Bangalore,Karnataka,12.9716,77.5946,20.4,97,0.0,910.9,8.05,34.9,57,22.0,16.1,23.3,422.0,28.0,7.3,3,5,7,1,2026-06-20T05:41:31.411321+05:30
Hyderabad,Telangana,17.385,78.4867,28.4,51,0.0,952.5,8.25,37.1,66,23.5,18.9,16.1,345.0,51.0,9.9,4,5,7,1,2026-06-20T05:41:31.411330+05:30
Chennai,Tamil Nadu,13.0827,80.2707,26.4,83,0.0,1005.9,7.7,42.5,90,32.6,27.5,14.1,257.0,71.0,13.0,7,5,4,1,2026-06-20T05:41:31.411338+05:30
Kolkata,West Bengal,22.5726,88.3639,27.4,90,0.0,1003.4,8.25,32.4,160,109.4,105.0,25.2,402.0,50.0,14.4,7,5,4,1,2026-06-20T05:41:31.411346+05:30
Pune,Maharashtra,18.5204,73.8567,23.3,85,0.0,947.7,8.2,43.9,44,11.9,8.6,11.2,134.0,30.0,9.3,3,5,7,1,2026-06-20T05:41:31.411353+05:30
Ahmedabad,Gujarat,23.0225,72.5714,29.7,67,0.0,1000.7,8.05,40.3,71,36.4,18.6,6.1,131.0,37.0,4.9,7,5,4,1,2026-06-20T05:41:31.411359+05:30
Jaipur,Rajasthan,26.9124,75.7873,27.1,69,0.0,957.2,8.25,35.6,128,161.1,44.2,8.0,147.0,43.0,4.0,7,5,7,1,2026-06-20T05:41:31.411366+05:30
Lucknow,Uttar Pradesh,26.8467,80.9462,30.9,51,0.0,989.0,8.35,38.5,153,215.1,83.4,19.6,239.0,69.0,14.0,0,5,7,1,2026-06-20T05:41:31.411378+05:30
Kanpur,Uttar Pradesh,26.4499,80.3319,32.1,43,0.0,987.7,8.35,38.5,157,448.0,90.8,16.2,202.0,48.0,6.8,0,5,7,1,2026-06-20T05:41:31.411384+05:30
Chandigarh,Chandigarh,30.7333,76.7794,25.3,70,0.0,965.0,7.8,34.9,140,79.9,72.2,38.1,430.0,25.0,7.0,7,5,7,1,2026-06-20T05:41:31.411391+05:30
Srinagar,Jammu and Kashmir,34.0837,74.7973,13.8,100,0.0,841.8,9.0,29.5,73,16.8,15.0,18.5,453.0,26.0,2.1,3,10,7,0,2026-06-20T05:41:31.411398+05:30
Jammu,Jammu and Kashmir,32.7266,74.857,22.3,77,0.0,969.4,8.65,35.3,106,41.3,38.5,38.1,328.0,6.0,2.3,3,5,7,1,2026-06-20T05:41:31.411405+05:30
Amritsar,Punjab,31.634,74.8723,25.5,85,0.0,977.4,8.45,28.1,156,149.5,132.2,93.2,514.0,2.0,15.4,7,5,7,1,2026-06-20T05:41:31.411411+05:30
Ludhiana,Punjab,30.901,75.8573,26.8,76,0.0,975.5,8.05,36.7,143,73.8,65.9,31.0,684.0,44.0,8.4,7,5,7,1,2026-06-20T05:41:31.411417+05:30
Jalandhar,Punjab,31.326,75.5762,26.1,80,0.0,976.4,8.2,35.3,151,97.6,86.6,51.1,757.0,22.0,8.2,7,5,7,1,2026-06-20T05:41:31.411423+05:30
Dehradun,Uttarakhand,30.6284,78.0322,15.1,97,0.0,827.1,7.65,31.0,75,24.7,18.9,24.4,233.0,29.0,0.4,3,10,7,0,2026-06-20T05:41:31.411430+05:30
Shimla,Himachal Pradesh,31.1048,77.1734,10.4,96,0.0,779.5,8.35,35.6,87,41.2,30.9,20.0,227.0,45.0,0.3,3,10,7,0,2026-06-20T05:41:31.411437+05:30
Manali,Himachal Pradesh,32.2396,77.1887,13.7,87,0.0,816.7,9.6,41.0,36,2.0,1.6,12.2,155.0,94.0,0.0,3,10,7,0,2026-06-20T05:41:31.411446+05:30
Gurgaon,Haryana,28.4595,77.0266,28.1,66,0.0,977.9,7.9,37.4,780,594.2,134.6,42.0,544.0,36.0,21.7,7,5,7,1,2026-06-20T05:41:31.411452+05:30
Noida,Uttar Pradesh,28.5355,77.391,29.5,63,0.0,980.8,7.85,29.2,780,594.2,134.6,42.0,607.0,36.0,21.7,7,5,7,1,2026-06-20T05:41:31.411459+05:30
Ghaziabad,Uttar Pradesh,28.6692,77.4538,27.8,68,0.0,979.1,7.8,35.3,477,452.6,139.7,26.2,532.0,57.0,16.6,7,5,7,1,2026-06-20T05:41:31.411467+05:30
Faridabad,Haryana,28.4089,77.3178,30.4,54,0.0,980.2,7.85,38.9,780,594.2,134.6,42.0,636.0,36.0,21.7,0,5,7,1,2026-06-20T05:41:31.411474+05:30
Meerut,Uttar Pradesh,28.9845,77.7064,27.8,67,0.0,977.6,7.75,36.7,477,452.6,139.7,26.2,609.0,57.0,16.6,7,5,7,1,2026-06-20T05:41:31.411480+05:30
Agra,Uttar Pradesh,27.1767,78.0081,31.0,52,0.0,984.2,8.15,34.6,592,948.1,129.0,13.1,190.0,45.0,5.5,0,5,7,1,2026-06-20T05:41:31.411486+05:30
Varanasi,Uttar Pradesh,25.3176,82.9739,30.4,61,0.0,993.1,8.8,37.1,96,38.0,24.7,12.0,253.0,68.0,7.5,3,5,7,1,2026-06-20T05:41:31.411493+05:30
Prayagraj,Uttar Pradesh,25.4358,81.8463,32.6,48,0.0,991.5,8.75,37.1,108,46.7,28.2,11.5,198.0,60.0,7.2,0,5,7,1,2026-06-20T05:41:31.411500+05:30
Gorakhpur,Uttar Pradesh,26.7606,83.3732,27.8,85,0.0,992.9,8.7,29.9,159,83.6,71.7,16.2,602.0,82.0,16.3,7,5,7,1,2026-06-20T05:41:31.411506+05:30
Bareilly,Uttar Pradesh,28.367,79.4304,28.8,64,0.0,982.3,8.15,33.8,153,354.8,120.6,24.8,466.0,50.0,14.2,7,5,7,1,2026-06-20T05:41:31.411515+05:30
Aligarh,Uttar Pradesh,27.8974,78.088,29.5,58,0.0,981.9,8.0,35.3,481,512.2,139.7,39.7,458.0,18.0,16.2,4,5,7,1,2026-06-20T05:41:31.411521+05:30
Moradabad,Uttar Pradesh,28.8386,78.7733,28.8,63,0.0,979.5,7.95,39.2,168,403.3,147.6,23.3,580.0,51.0,12.8,7,5,7,1,2026-06-20T05:41:31.411527+05:30
Saharanpur,Uttar Pradesh,29.9637,77.546,26.2,76,0.0,971.9,7.55,33.8,162,146.7,95.7,46.9,572.0,29.0,13.6,7,5,7,1,2026-06-20T05:41:31.411533+05:30
Jhansi,Uttar Pradesh,25.4484,78.5685,29.7,58,0.0,975.1,8.4,38.2,71,31.3,18.3,9.6,170.0,55.0,12.8,4,5,7,1,2026-06-20T05:41:34.646141+05:30
Surat,Gujarat,21.1702,72.8311,28.5,77,0.0,1005.8,7.6,46.4,66,27.9,18.7,27.4,355.0,21.0,45.1,7,5,4,1,2026-06-20T05:41:34.646171+05:30
Vadodara,Gujarat,22.3072,73.1812,28.5,77,0.0,1003.1,8.05,39.6,62,25.4,15.5,11.1,128.0,30.0,9.3,7,5,4,1,2026-06-20T05:41:34.646181+05:30
Rajkot,Gujarat,22.3039,70.8022,27.6,75,0.0,992.8,7.55,43.9,63,36.8,15.9,5.1,102.0,38.0,3.4,7,5,7,1,2026-06-20T05:41:34.646189+05:30
Thane,Maharashtra,19.2183,72.9781,28.9,69,0.0,1007.1,7.7,41.0,54,21.3,11.7,9.1,161.0,40.0,8.7,7,5,4,1,2026-06-20T05:41:34.646195+05:30
Nagpur,Maharashtra,21.1458,79.0882,30.4,44,0.0,971.6,8.9,43.2,62,23.4,15.0,10.0,194.0,64.0,9.5,0,5,7,1,2026-06-20T05:41:34.646202+05:30
Nashik,Maharashtra,19.9975,73.7898,23.3,88,0.0,944.9,8.05,45.4,45,17.1,11.4,12.7,119.0,29.0,12.6,3,5,7,1,2026-06-20T05:41:34.646209+05:30
Aurangabad,Maharashtra,19.8762,75.3433,25.7,64,0.0,944.1,9.0,39.6,44,13.6,9.5,8.9,123.0,39.0,7.3,7,5,7,1,2026-06-20T05:41:34.646216+05:30
Solapur,Maharashtra,17.6599,75.9064,27.6,59,0.0,957.3,8.95,34.6,53,15.0,10.4,6.9,125.0,39.0,3.4,4,5,7,1,2026-06-20T05:41:34.646223+05:30
Kolhapur,Maharashtra,16.705,74.2433,23.1,89,0.0,947.6,8.2,43.6,49,15.0,10.7,8.2,168.0,29.0,3.4,3,5,7,1,2026-06-20T05:41:34.646230+05:30
Goa,Goa,15.2993,74.124,25.0,88,0.0,998.1,8.6,31.3,60,38.8,31.2,15.1,291.0,29.0,2.7,7,5,7,1,2026-06-20T05:41:34.646237+05:30
Jodhpur,Rajasthan,26.2389,73.0243,29.4,56,0.0,980.5,8.4,36.7,102,162.5,41.7,5.5,109.0,47.0,2.6,4,5,7,1,2026-06-20T05:41:34.646243+05:30
Udaipur,Rajasthan,24.5854,73.7125,25.1,74,0.0,944.6,8.85,30.6,74,35.2,22.8,11.1,126.0,36.0,9.3,7,5,7,1,2026-06-20T05:41:34.646249+05:30
Kota,Rajasthan,25.2138,75.8648,28.2,64,0.0,976.3,8.4,29.5,72,33.1,21.2,5.8,156.0,66.0,4.5,7,5,7,1,2026-06-20T05:41:34.646255+05:30
Bikaner,Rajasthan,28.0229,73.3119,29.0,59,0.0,978.5,8.5,30.2,104,71.0,26.4,3.4,110.0,48.0,2.2,4,5,7,1,2026-06-20T05:41:34.646262+05:30
Ajmer,Rajasthan,26.4499,74.6399,27.0,66,0.0,952.3,8.4,41.8,86,38.8,21.5,7.6,149.0,48.0,4.3,7,5,7,1,2026-06-20T05:41:34.646268+05:30
Gwalior,Madhya Pradesh,26.2183,78.1828,30.0,57,0.0,980.0,8.3,37.8,87,32.4,20.1,7.1,163.0,57.0,5.5,4,5,7,1,2026-06-20T05:41:34.646274+05:30
Indore,Madhya Pradesh,22.7196,75.8577,26.1,62,0.0,947.4,7.9,40.0,67,26.1,17.5,8.3,210.0,48.0,11.2,7,5,7,1,2026-06-20T05:41:34.646281+05:30
Bhopal,Madhya Pradesh,23.2599,77.4126,25.9,70,0.0,951.9,8.7,40.3,66,40.2,26.4,7.8,235.0,58.0,5.2,7,5,7,1,2026-06-20T05:41:34.646287+05:30
Jabalpur,Madhya Pradesh,23.1815,79.9864,27.2,64,0.0,959.6,8.35,29.2,62,25.5,20.4,10.1,238.0,52.0,3.6,7,5,7,1,2026-06-20T05:41:34.646293+05:30
Ujjain,Madhya Pradesh,23.1765,75.7885,24.7,75,0.0,952.8,7.85,36.0,67,25.8,17.1,9.2,192.0,39.0,12.1,3,5,7,1,2026-06-20T05:41:34.646300+05:30
Visakhapatnam,Andhra Pradesh,17.6868,83.2185,28.0,92,0.0,1001.4,8.7,33.1,100,36.7,31.5,34.3,515.0,66.0,45.8,7,5,4,1,2026-06-20T05:41:34.646306+05:30
Vijayawada,Andhra Pradesh,16.5062,80.648,29.0,85,0.0,1000.9,3.8,31.3,82,37.1,32.6,14.5,296.0,73.0,5.9,7,5,0,1,2026-06-20T05:41:34.646313+05:30
Guntur,Andhra Pradesh,16.3067,80.4365,28.5,65,0.0,1002.4,4.2,31.7,78,29.7,26.6,15.4,295.0,59.0,5.5,7,5,0,1,2026-06-20T05:41:34.646320+05:30
Nellore,Andhra Pradesh,14.4426,79.9865,26.9,85,0.0,1004.3,6.05,32.0,70,20.0,16.3,9.4,223.0,60.0,3.5,7,5,4,1,2026-06-20T05:41:34.646327+05:30
Kurnool,Andhra Pradesh,15.8281,78.0373,27.7,65,0.0,976.4,7.85,41.4,66,18.5,13.4,8.8,188.0,45.0,3.0,7,5,7,1,2026-06-20T05:41:34.646334+05:30
Kakinada,Andhra Pradesh,16.9891,82.2475,27.8,87,0.0,1005.8,6.0,34.6,76,28.5,23.0,6.1,306.0,109.0,5.0,7,5,0,1,2026-06-20T05:41:34.646340+05:30
Tirupati,Andhra Pradesh,13.6288,79.4192,25.7,79,0.0,990.0,7.35,35.3,66,18.3,16.6,16.6,246.0,37.0,3.0,7,5,7,1,2026-06-20T05:41:34.646346+05:30
Warangal,Telangana,17.9689,79.5941,27.9,73,0.0,977.1,8.0,25.6,99,52.0,48.3,32.7,287.0,34.0,10.1,7,5,7,1,2026-06-20T05:41:34.646352+05:30
Nizamabad,Telangana,18.6725,78.0941,29.4,51,0.0,963.5,9.0,35.3,68,37.6,34.1,30.4,405.0,25.0,5.9,4,5,7,1,2026-06-20T05:41:34.646358+05:30
Mysore,Karnataka,12.2958,76.6396,21.1,97,0.0,927.9,8.0,31.3,50,28.9,19.8,19.6,176.0,19.0,3.0,3,5,7,1,2026-06-20T05:41:34.646364+05:30
Mangalore,Karnataka,12.9141,74.856,24.6,94,0.0,1007.0,7.75,35.3,70,43.3,34.3,25.9,779.0,15.0,6.1,3,5,4,1,2026-06-20T05:41:34.646370+05:30
Hubli-Dharwad,Karnataka,15.3647,75.124,22.0,96,0.0,940.9,8.4,47.9,49,13.7,8.8,6.2,114.0,29.0,1.8,3,5,7,1,2026-06-20T05:41:34.646376+05:30
Belgaum,Karnataka,15.8497,74.4977,20.6,99,0.0,925.3,8.15,38.5,50,21.3,15.3,8.1,103.0,28.0,0.6,3,5,7,1,2026-06-20T05:41:37.872270+05:30
Coimbatore,Tamil Nadu,11.0168,76.9558,23.3,95,0.0,961.6,8.25,41.4,45,18.7,13.4,13.1,188.0,23.0,3.5,3,5,7,1,2026-06-20T05:41:37.872299+05:30
Madurai,Tamil Nadu,9.9252,78.1198,26.7,89,0.0,992.9,8.6,29.2,55,26.5,24.7,33.0,388.0,2.0,5.9,7,5,7,1,2026-06-20T05:41:37.872309+05:30
Trichy,Tamil Nadu,10.7905,78.7047,26.3,85,0.0,999.3,8.45,31.0,49,17.7,14.1,18.8,243.0,27.0,4.5,7,5,7,1,2026-06-20T05:41:37.872317+05:30
Salem,Tamil Nadu,11.6643,78.146,24.0,95,0.0,977.2,8.25,20.5,65,36.4,31.4,23.6,444.0,46.0,13.0,3,5,7,1,2026-06-20T05:41:37.872325+05:30
Tirunelveli,Tamil Nadu,8.7139,77.7567,25.8,81,0.0,1003.1,8.65,22.3,55,34.6,22.9,9.3,319.0,34.0,4.0,7,5,4,1,2026-06-20T05:41:37.872332+05:30
Vellore,Tamil Nadu,12.9165,79.1325,25.6,77,0.0,983.5,7.5,34.9,72,35.3,31.8,23.5,231.0,28.0,4.9,7,5,7,1,2026-06-20T05:41:37.872339+05:30
Erode,Tamil Nadu,11.341,77.7172,24.7,97,0.0,989.0,8.3,28.1,57,29.6,23.9,28.4,253.0,12.0,5.5,3,5,7,1,2026-06-20T05:41:37.872346+05:30
Kochi,Kerala,9.9312,76.2673,24.9,97,0.0,1009.2,8.05,34.9,92,48.4,41.9,36.3,174.0,6.0,9.4,3,0,4,1,2026-06-20T05:41:37.872352+05:30
Thiruvananthapuram,Kerala,8.5241,76.9366,23.7,93,0.0,1008.7,8.3,35.3,59,33.4,17.2,7.3,207.0,40.0,2.9,3,0,4,1,2026-06-20T05:41:37.872359+05:30
Kozhikode,Kerala,11.2588,75.7804,24.0,99,0.0,1008.3,7.85,31.3,53,37.0,16.6,2.5,186.0,52.0,1.6,3,0,4,1,2026-06-20T05:41:37.872365+05:30
Thrissur,Kerala,10.5276,76.2144,24.2,94,0.0,1007.6,8.15,34.2,97,53.8,46.6,30.7,289.0,4.0,5.8,3,5,4,1,2026-06-20T05:41:37.872373+05:30
Kannur,Kerala,11.8745,75.3704,25.1,93,0.0,1007.4,7.6,32.0,69,37.0,28.7,27.2,316.0,14.0,3.9,7,5,4,1,2026-06-20T05:41:37.872379+05:30
Patna,Bihar,25.5941,85.1376,29.1,71,0.0,996.3,8.9,30.6,153,59.8,56.2,28.3,314.0,48.0,16.3,7,5,7,1,2026-06-20T05:41:37.872386+05:30
Gaya,Bihar,24.7914,85.0002,28.8,69,0.0,990.1,8.45,28.1,103,22.9,19.6,13.5,221.0,65.0,12.2,7,5,7,1,2026-06-20T05:41:37.872392+05:30
Muzaffarpur,Bihar,26.1209,85.3647,26.8,89,0.0,996.8,8.9,34.9,158,67.5,63.1,12.7,446.0,100.0,18.1,7,5,7,1,2026-06-20T05:41:37.872399+05:30
Bhagalpur,Bihar,25.2425,87.0117,27.6,95,0.0,997.8,8.7,22.7,157,81.3,78.7,20.7,288.0,48.0,34.1,7,5,7,1,2026-06-20T05:41:37.872405+05:30
Ranchi,Jharkhand,23.3441,85.3096,24.1,87,0.0,934.9,8.4,39.6,122,37.6,35.4,12.1,324.0,78.0,8.4,3,5,7,1,2026-06-20T05:41:37.872412+05:30
Jamshedpur,Jharkhand,22.8046,86.2029,26.8,86,0.0,988.6,9.05,32.0,152,63.1,58.4,21.4,429.0,62.0,32.8,7,5,7,1,2026-06-20T05:41:37.872418+05:30
Dhanbad,Jharkhand,23.7957,86.4304,26.6,93,0.0,977.0,8.9,22.7,161,76.6,74.3,51.2,959.0,42.0,111.8,7,5,7,1,2026-06-20T05:41:37.872424+05:30
Bokaro,Jharkhand,23.6693,86.1511,26.7,91,0.0,980.7,8.85,25.9,154,59.8,57.6,36.3,355.0,49.0,63.6,7,5,7,1,2026-06-20T05:41:37.872430+05:30
Bhubaneswar,Odisha,20.2961,85.8245,26.8,91,0.0,1000.6,9.0,33.8,90,28.8,25.0,7.6,239.0,97.0,6.1,7,5,4,1,2026-06-20T05:41:37.872437+05:30
Cuttack,Odisha,20.4625,85.8828,27.0,91,0.0,1002.4,9.15,28.1,90,28.8,25.0,7.6,252.0,97.0,6.1,7,5,4,1,2026-06-20T05:41:37.872444+05:30
Rourkela,Odisha,22.2604,84.8536,25.5,93,0.0,982.9,8.7,38.5,144,62.2,57.9,13.0,330.0,83.0,12.8,7,5,7,1,2026-06-20T05:41:37.872450+05:30
Raipur,Chhattisgarh,21.2514,81.6296,28.5,79,0.0,972.5,8.95,27.7,96,38.5,34.3,34.7,925.0,55.0,53.0,7,5,7,1,2026-06-20T05:41:37.872456+05:30
Bhilai,Chhattisgarh,21.1938,81.3509,28.1,81,0.0,972.8,4.4,36.4,96,32.5,29.0,30.6,1128.0,44.0,44.6,7,5,3,1,2026-06-20T05:41:37.872462+05:30
Guwahati,Assam,26.1158,91.7086,25.1,94,0.0,999.6,8.7,25.9,121,98.7,76.8,17.0,332.0,38.0,5.1,7,5,7,1,2026-06-20T05:41:37.872469+05:30
Agartala,Tripura,23.8315,91.2868,24.5,99,0.0,1004.7,8.0,32.8,92,27.9,24.0,10.3,192.0,58.0,2.8,3,5,4,1,2026-06-20T05:41:37.872475+05:30
Shillong,Meghalaya,25.5788,91.8933,19.4,92,0.0,856.0,6.0,31.0,75,41.9,29.5,5.8,245.0,71.0,3.6,3,10,3,1,2026-06-20T05:41:37.872481+05:30
Imphal,Manipur,24.817,93.9368,22.8,91,0.0,922.1,9.05,37.1,74,35.2,26.0,4.5,375.0,72.0,3.0,3,5,7,1,2026-06-20T05:41:37.872488+05:30
Aizawl,Mizoram,23.7271,92.7176,19.5,97,0.0,891.2,8.8,35.6,59,22.3,15.7,3.7,163.0,53.0,1.1,3,10,7,1,2026-06-20T05:41:37.872494+05:30
Kohima,Nagaland,25.6701,94.1077,19.2,97,0.0,853.9,8.8,32.4,59,33.5,22.2,3.6,296.0,62.0,1.6,3,10,7,1,2026-06-20T05:41:37.872500+05:30
Gangtok,Sikkim,27.3314,88.6138,18.0,95,0.0,835.9,8.45,33.1,113,16.2,12.4,4.1,442.0,134.0,9.3,3,10,7,1,2026-06-20T05:41:37.872506+05:30
Siliguri,West Bengal,26.7271,88.3953,24.0,99,0.0,990.9,8.7,19.4,152,117.6,88.2,9.3,490.0,122.0,11.0,3,5,7,1,2026-06-20T05:41:41.098348+05:30
Durgapur,West Bengal,23.5204,87.3119,26.2,91,0.0,992.3,8.75,32.0,160,88.5,85.7,38.9,917.0,33.0,51.9,7,5,7,1,2026-06-20T05:41:41.098376+05:30
Asansol,West Bengal,23.6739,86.9524,26.8,86,0.0,990.9,9.0,25.6,159,80.8,78.2,43.7,718.0,35.0,71.7,7,5,7,1,2026-06-20T05:41:41.098387+05:30
Pondicherry,Puducherry,11.9139,79.8145,25.8,93,0.0,1007.7,8.25,37.4,76,25.6,21.4,13.3,355.0,63.0,10.8,7,5,4,1,2026-06-20T05:41:41.098395+05:30
Port Blair,Andaman and Nicobar Islands,11.6234,92.7265,27.0,88,0.0,1008.3,8.7,39.2,28,14.4,6.9,0.3,96.0,46.0,0.4,7,0,4,1,2026-06-20T05:41:41.098402+05:30
Haridwar,Uttarakhand,29.9457,78.1642,24.7,85,0.0,969.8,7.65,25.9,154,106.9,87.3,46.8,368.0,32.0,11.4,3,5,7,1,2026-06-20T05:41:41.098409+05:30
Rishikesh,Uttarakhand,30.0869,78.2676,22.7,89,0.0,962.5,7.75,29.2,118,36.7,32.4,11.3,377.0,74.0,2.2,3,5,7,1,2026-06-20T05:41:41.098416+05:30
Nainital,Uttarakhand,29.3919,79.4542,15.4,85,0.0,802.8,6.85,31.3,104,49.2,38.5,19.1,311.0,59.0,2.4,3,10,7,0,2026-06-20T05:41:41.098423+05:30
Mussoorie,Uttarakhand,30.4599,78.0664,13.7,97,0.0,799.5,8.0,42.1,118,56.5,47.0,36.7,264.0,36.0,5.2,3,10,7,0,2026-06-20T05:41:41.098430+05:30
Dharamshala,Himachal Pradesh,32.219,76.3234,19.6,80,0.0,866.8,8.5,42.8,49,9.7,5.3,7.6,323.0,88.0,0.1,3,5,7,1,2026-06-20T05:41:41.098437+05:30
Dalhousie,Himachal Pradesh,32.5387,75.971,13.0,97,0.1,800.8,8.75,31.7,83,20.8,16.9,21.6,273.0,36.0,0.6,6,10,7,0,2026-06-20T05:41:41.098444+05:30
Patiala,Punjab,30.3398,76.3869,27.0,72,0.0,974.8,7.7,34.6,298,112.7,61.2,19.3,634.0,56.0,6.6,7,5,7,1,2026-06-20T05:41:41.098451+05:30
Bhatinda,Punjab,30.211,74.9455,28.1,69,0.0,980.5,8.3,32.4,136,103.4,76.8,64.2,435.0,17.0,8.3,7,5,7,1,2026-06-20T05:41:41.098457+05:30
Rohtak,Haryana,28.8955,76.6066,27.3,66,0.0,978.2,7.8,33.5,722,488.0,125.7,34.1,416.0,37.0,8.3,7,5,7,1,2026-06-20T05:41:41.098464+05:30
Panipat,Haryana,29.3909,76.9635,27.2,71,0.0,976.7,7.65,32.0,1297,499.2,137.8,23.5,424.0,55.0,8.1,7,5,7,1,2026-06-20T05:41:41.098470+05:30
Mathura,Uttar Pradesh,27.4924,77.6737,29.7,58,0.0,983.1,8.1,33.5,261,248.7,56.2,30.1,248.0,18.0,4.9,4,5,7,1,2026-06-20T05:41:41.098476+05:30
Vrindavan,Uttar Pradesh,27.5823,77.7027,29.6,59,0.0,983.6,8.1,32.4,261,248.7,56.2,30.1,251.0,18.0,4.9,4,5,7,1,2026-06-20T05:41:41.098482+05:30
Ayodhya,Uttar Pradesh,26.7922,82.1998,28.7,78,0.0,990.4,8.45,32.8,152,114.6,61.2,23.9,389.0,50.0,14.8,7,5,7,1,2026-06-20T05:41:41.098489+05:30
Ratlam,Madhya Pradesh,23.3315,75.0367,25.3,80,0.0,953.7,8.45,40.0,65,24.8,15.7,10.1,158.0,33.0,13.1,7,5,7,1,2026-06-20T05:41:41.098495+05:30
Sagar,Madhya Pradesh,23.8388,78.7378,25.9,74,0.0,948.3,8.75,39.2,57,27.2,18.4,6.6,197.0,61.0,3.1,7,5,7,1,2026-06-20T05:41:41.098501+05:30
Satna,Madhya Pradesh,24.6005,80.8322,29.4,57,0.0,968.5,8.85,34.9,71,18.6,12.5,6.2,170.0,76.0,3.3,4,5,7,1,2026-06-20T05:41:41.098507+05:30
Akola,Maharashtra,20.7002,77.0082,29.7,48,0.0,974.6,8.85,40.0,52,21.0,15.1,9.2,123.0,58.0,8.5,4,5,7,1,2026-06-20T05:41:41.098515+05:30
Amravati,Maharashtra,20.9374,77.7796,29.2,53,0.0,966.3,8.85,40.0,53,22.6,15.5,10.0,196.0,56.0,6.2,4,5,7,1,2026-06-20T05:41:41.098522+05:30
Latur,Maharashtra,18.4088,76.5604,27.3,54,0.0,939.6,8.85,32.4,56,15.0,11.7,6.8,162.0,64.0,7.7,4,5,7,1,2026-06-20T05:41:41.098528+05:30
Nanded,Maharashtra,19.1383,77.3091,30.3,47,0.0,967.9,8.9,31.7,62,17.9,14.7,13.4,190.0,50.0,6.6,0,5,7,1,2026-06-20T05:41:41.098535+05:30
Gulbarga,Karnataka,17.3297,76.8343,28.0,55,0.0,958.5,8.55,35.3,57,14.4,10.7,7.5,148.0,39.0,3.4,4,5,7,1,2026-06-20T05:41:41.098541+05:30
Bidar,Karnataka,17.9104,77.5199,27.6,52,0.0,934.9,8.35,34.9,69,18.7,15.1,11.8,170.0,51.0,4.1,4,5,7,1,2026-06-20T05:41:41.098547+05:30
Hospet,Karnataka,15.2689,76.3909,23.8,86,0.0,955.8,8.5,40.0,52,15.2,9.4,6.6,127.0,33.0,2.0,3,5,7,1,2026-06-20T05:41:41.098553+05:30
Tirupur,Tamil Nadu,11.1085,77.3411,24.1,91,0.0,975.1,8.4,41.8,58,26.2,21.7,26.4,163.0,11.0,4.9,3,5,7,1,2026-06-20T05:41:41.098559+05:30
Alappuzha,Kerala,9.4981,76.3388,25.2,99,0.0,1009.3,8.3,34.2,68,38.9,26.5,20.7,88.0,23.0,4.2,7,0,4,1,2026-06-20T05:41:41.098565+05:30
Munnar,Kerala,10.0889,77.0595,14.9,90,0.0,855.0,8.5,32.4,28,20.7,13.2,8.6,139.0,23.0,1.7,3,10,7,0,2026-06-20T05:41:41.098572+05:30
Silchar,Assam,24.8333,92.7789,25.5,93,0.1,1004.0,8.15,30.6,97,43.4,34.0,8.7,289.0,76.0,4.5,10,5,4,1,2026-06-20T05:41:41.098579+05:30
Dibrugarh,Assam,27.4728,94.912,24.4,99,0.2,993.7,7.5,21.6,66,24.1,21.1,7.3,285.0,82.0,2.5,6,5,7,1,2026-06-20T05:41:41.098585+05:30
