city,state,latitude,longitude,temp,humidity,rain,pressure,uv_index,wind_gusts,aqi,pm10,pm2_5,no2,co,o3,so2,mosquito_risk,arthritis_risk,migraine_risk,frizz_risk,updated_at
Delhi,Delhi,28.6139,77.209,22.2,82,0.0,982.8,7.55,34.2,444,273.8,61.2,16.2,384.0,93.0,20.0,3,5,7,1,2026-05-08T03:32:31.541399+05:30
Mumbai,Maharashtra,19.076,72.8777,27.8,90,0.0,1006.1,7.85,45.7,95,92.0,28.5,13.9,397.0,62.0,15.3,7,5,4,1,2026-05-08T03:32:31.541438+05:30
Bangalore,Karnataka,12.9716,77.5946,22.4,87,0.0,909.6,9.3,43.6,63,10.3,9.3,11.8,221.0,39.0,4.8,3,5,7,1,2026-05-08T03:32:31.541453+05:30
Hyderabad,Telangana,17.385,78.4867,26.4,60,0.0,952.6,9.25,36.4,59,14.7,12.9,9.2,236.0,48.0,4.7,4,5,7,1,2026-05-08T03:32:31.541464+05:30
Chennai,Tamil Nadu,13.0827,80.2707,28.2,78,0.0,1005.1,8.05,40.0,25,6.6,5.0,4.8,124.0,41.0,2.1,7,5,4,1,2026-05-08T03:32:31.541476+05:30
Kolkata,West Bengal,22.5726,88.3639,22.9,94,0.0,1007.5,8.85,59.8,82,52.0,48.8,30.4,480.0,27.0,12.4,3,5,4,1,2026-05-08T03:32:31.541484+05:30
Pune,Maharashtra,18.5204,73.8567,26.5,70,0.0,946.6,8.45,37.4,86,60.8,35.6,18.5,319.0,79.0,24.8,7,5,7,1,2026-05-08T03:32:31.541492+05:30
Ahmedabad,Gujarat,23.0225,72.5714,30.5,31,0.0,999.6,8.1,24.8,94,38.9,24.6,15.3,216.0,46.0,6.0,0,5,7,0,2026-05-08T03:32:31.541502+05:30
Jaipur,Rajasthan,26.9124,75.7873,22.9,56,0.0,958.2,8.1,28.4,133,264.5,58.1,8.0,295.0,79.0,7.2,0,5,7,0,2026-05-08T03:32:31.541510+05:30
Lucknow,Uttar Pradesh,26.8467,80.9462,21.3,85,0.0,994.0,8.05,27.4,96,61.7,37.0,11.5,387.0,92.0,8.0,3,5,7,1,2026-05-08T03:32:31.541517+05:30
Kanpur,Uttar Pradesh,26.4499,80.3319,21.7,81,0.0,992.1,8.05,26.6,129,255.2,48.0,6.5,367.0,108.0,6.5,3,5,7,1,2026-05-08T03:32:31.541525+05:30
Chandigarh,Chandigarh,30.7333,76.7794,19.6,71,0.0,968.9,7.55,33.5,81,28.3,23.1,17.2,271.0,57.0,3.0,3,5,7,0,2026-05-08T03:32:31.541532+05:30
Srinagar,Jammu and Kashmir,34.0837,74.7973,7.8,85,0.0,837.7,8.85,16.6,70,46.9,37.4,23.7,245.0,38.0,1.3,3,10,7,0,2026-05-08T03:32:31.541540+05:30
Jammu,Jammu and Kashmir,32.7266,74.857,21.9,58,0.0,973.4,8.35,31.3,74,47.6,41.8,34.2,326.0,4.0,2.1,0,5,7,0,2026-05-08T03:32:31.541547+05:30
Amritsar,Punjab,31.634,74.8723,22.4,66,0.0,981.1,8.25,27.0,122,189.1,58.1,7.4,354.0,94.0,12.1,3,5,7,0,2026-05-08T03:32:31.541554+05:30
Ludhiana,Punjab,30.901,75.8573,21.5,75,0.0,979.0,7.8,28.8,186,153.7,49.5,10.8,336.0,80.0,6.3,3,5,7,1,2026-05-08T03:32:31.541561+05:30
Jalandhar,Punjab,31.326,75.5762,20.7,75,0.0,980.0,8.0,29.2,146,115.3,47.5,10.4,352.0,84.0,10.6,3,5,7,1,2026-05-08T03:32:31.541567+05:30
Dehradun,Uttarakhand,30.6284,78.0322,10.2,93,0.0,827.2,7.75,26.6,56,21.0,13.0,25.6,218.0,33.0,0.2,3,10,7,0,2026-05-08T03:32:31.541576+05:30
Shimla,Himachal Pradesh,31.1048,77.1734,7.5,87,0.0,779.9,7.55,28.8,58,20.3,17.2,14.8,291.0,81.0,0.2,3,10,7,0,2026-05-08T03:32:31.541583+05:30
Manali,Himachal Pradesh,32.2396,77.1887,7.7,64,0.0,812.7,9.4,36.7,46,50.9,10.5,14.7,257.0,96.0,0.5,3,5,7,0,2026-05-08T03:32:31.541590+05:30
Gurgaon,Haryana,28.4595,77.0266,22.0,80,0.0,980.9,7.65,37.4,1956,1415.6,169.5,11.0,350.0,103.0,16.7,3,5,7,1,2026-05-08T03:32:31.541596+05:30
Noida,Uttar Pradesh,28.5355,77.391,21.1,89,0.0,984.3,7.6,32.8,1956,1415.6,169.5,11.0,355.0,103.0,16.7,3,5,7,1,2026-05-08T03:32:31.541603+05:30
Ghaziabad,Uttar Pradesh,28.6692,77.4538,21.1,89,0.0,982.6,7.55,34.6,184,164.8,46.4,10.4,340.0,90.0,11.8,3,5,7,1,2026-05-08T03:32:31.541610+05:30
Faridabad,Haryana,28.4089,77.3178,21.6,85,0.0,983.6,7.6,33.8,1956,1415.6,169.5,11.0,342.0,103.0,16.7,3,5,7,1,2026-05-08T03:32:31.541617+05:30
Meerut,Uttar Pradesh,28.9845,77.7064,20.5,91,0.0,981.8,7.5,34.2,184,164.8,46.4,10.4,356.0,90.0,11.8,3,5,7,1,2026-05-08T03:32:31.541623+05:30
Agra,Uttar Pradesh,27.1767,78.0081,21.8,75,0.0,987.5,7.9,31.7,1141,1505.0,176.0,4.9,315.0,113.0,10.1,3,5,7,1,2026-05-08T03:32:31.541630+05:30
Varanasi,Uttar Pradesh,25.3176,82.9739,22.8,79,0.0,998.3,8.6,23.8,111,56.7,49.1,17.6,537.0,79.0,13.1,3,5,7,1,2026-05-08T03:32:31.541638+05:30
Prayagraj,Uttar Pradesh,25.4358,81.8463,23.0,71,0.0,996.5,8.45,24.8,103,51.9,42.8,15.4,469.0,82.0,9.8,3,5,7,1,2026-05-08T03:32:31.541650+05:30
Gorakhpur,Uttar Pradesh,26.7606,83.3732,20.6,87,0.0,998.6,8.4,26.3,93,36.3,28.1,16.0,536.0,70.0,5.4,3,5,7,1,2026-05-08T03:32:31.541657+05:30
Bareilly,Uttar Pradesh,28.367,79.4304,20.4,87,0.0,987.3,7.55,31.3,91,86.4,32.8,10.5,359.0,93.0,4.4,3,5,7,1,2026-05-08T03:32:31.541663+05:30
Aligarh,Uttar Pradesh,27.8974,78.088,21.4,85,0.0,985.5,7.7,33.8,811,808.4,103.1,8.2,311.0,100.0,20.7,3,5,7,1,2026-05-08T03:32:31.541670+05:30
Moradabad,Uttar Pradesh,28.8386,78.7733,20.2,84,0.0,984.2,7.65,33.8,101,53.0,36.8,15.8,391.0,70.0,6.1,3,5,7,1,2026-05-08T03:32:31.541676+05:30
Saharanpur,Uttar Pradesh,29.9637,77.546,20.0,85,0.0,976.0,7.3,32.0,124,86.6,57.7,38.2,363.0,20.0,8.7,3,5,7,1,2026-05-08T03:32:31.541682+05:30
Jhansi,Uttar Pradesh,25.4484,78.5685,22.4,61,0.0,977.2,8.35,41.0,69,32.5,21.8,4.2,258.0,89.0,6.7,3,5,7,0,2026-05-08T03:32:34.894735+05:30
Surat,Gujarat,21.1702,72.8311,27.6,87,0.0,1003.8,7.75,34.6,126,51.8,29.3,29.5,441.0,37.0,41.7,7,5,4,1,2026-05-08T03:32:34.894767+05:30
Vadodara,Gujarat,22.3072,73.1812,29.1,48,0.0,1001.5,8.05,28.4,99,46.4,25.7,14.5,224.0,53.0,16.0,4,5,4,1,2026-05-08T03:32:34.894777+05:30
Rajkot,Gujarat,22.3039,70.8022,25.5,76,0.0,991.9,7.7,48.2,65,33.9,15.1,6.7,202.0,47.0,6.5,7,5,7,1,2026-05-08T03:32:34.894785+05:30
Thane,Maharashtra,19.2183,72.9781,27.4,91,0.0,1005.6,7.85,41.0,95,92.0,28.5,13.9,288.0,62.0,15.3,7,5,4,1,2026-05-08T03:32:34.894814+05:30
Nagpur,Maharashtra,21.1458,79.0882,26.8,56,0.0,972.3,8.9,31.0,109,54.5,40.7,16.1,319.0,73.0,8.6,4,5,7,1,2026-05-08T03:32:34.894824+05:30
Nashik,Maharashtra,19.9975,73.7898,25.4,63,0.0,942.7,8.15,38.5,84,75.0,34.1,30.0,293.0,39.0,4.8,7,5,7,1,2026-05-08T03:32:34.894831+05:30
Aurangabad,Maharashtra,19.8762,75.3433,27.8,41,0.0,942.9,8.95,27.0,77,54.7,34.7,29.1,279.0,45.0,8.2,4,5,7,0,2026-05-08T03:32:34.894838+05:30
Solapur,Maharashtra,17.6599,75.9064,27.0,57,0.0,956.1,9.05,31.0,81,32.1,25.3,9.5,309.0,86.0,4.5,4,5,7,1,2026-05-08T03:32:34.894846+05:30
Kolhapur,Maharashtra,16.705,74.2433,26.5,69,0.0,946.3,8.95,36.4,111,85.2,70.3,53.9,285.0,28.0,13.6,7,5,7,1,2026-05-08T03:32:34.894853+05:30
Goa,Goa,15.2993,74.124,28.1,79,0.0,995.3,8.8,47.5,93,78.9,53.4,19.7,347.0,46.0,4.0,7,5,7,1,2026-05-08T03:32:34.894861+05:30
Jodhpur,Rajasthan,26.2389,73.0243,29.0,24,0.0,979.7,8.3,33.1,119,191.9,35.6,3.0,167.0,84.0,3.4,4,5,7,0,2026-05-08T03:32:34.894868+05:30
Udaipur,Rajasthan,24.5854,73.7125,27.5,26,0.0,944.1,8.8,31.3,67,99.7,23.5,3.2,173.0,102.0,2.5,4,5,7,0,2026-05-08T03:32:34.894875+05:30
Kota,Rajasthan,25.2138,75.8648,28.1,32,0.0,976.0,8.35,37.8,79,62.4,31.5,14.0,262.0,42.0,5.3,4,5,7,0,2026-05-08T03:32:34.894883+05:30
Bikaner,Rajasthan,28.0229,73.3119,24.0,50,0.0,977.9,8.25,28.1,70,60.8,24.4,3.4,263.0,79.0,4.5,0,5,7,0,2026-05-08T03:32:34.894890+05:30
Ajmer,Rajasthan,26.4499,74.6399,24.2,41,0.0,951.5,8.25,55.8,69,47.7,19.0,3.5,202.0,86.0,4.1,0,5,7,0,2026-05-08T03:32:34.894897+05:30
Gwalior,Madhya Pradesh,26.2183,78.1828,21.6,66,0.0,982.6,8.15,33.8,80,56.9,28.9,4.9,262.0,92.0,6.8,3,5,7,0,2026-05-08T03:32:34.894904+05:30
Indore,Madhya Pradesh,22.7196,75.8577,27.2,31,0.0,946.6,8.65,41.8,69,43.5,26.7,6.4,341.0,86.0,7.4,4,5,7,0,2026-05-08T03:32:34.894910+05:30
Bhopal,Madhya Pradesh,23.2599,77.4126,26.1,40,0.0,952.4,8.65,41.8,55,27.0,17.8,8.0,276.0,73.0,3.8,4,5,7,0,2026-05-08T03:32:34.894917+05:30
Jabalpur,Madhya Pradesh,23.1815,79.9864,24.0,48,0.0,960.8,8.8,38.5,56,32.4,19.9,15.6,310.0,64.0,6.1,0,5,7,0,2026-05-08T03:32:34.894923+05:30
Ujjain,Madhya Pradesh,23.1765,75.7885,26.5,31,0.0,952.1,8.6,25.9,79,42.1,23.1,4.0,371.0,95.0,6.4,4,5,7,0,2026-05-08T03:32:34.894930+05:30
Visakhapatnam,Andhra Pradesh,17.6868,83.2185,27.1,88,0.0,1003.4,9.15,37.8,70,29.1,26.3,22.6,1090.0,18.0,2.9,7,5,4,1,2026-05-08T03:32:34.894937+05:30
Vijayawada,Andhra Pradesh,16.5062,80.648,27.5,83,0.0,1001.8,9.2,43.2,47,18.5,16.5,13.4,173.0,21.0,4.2,7,5,4,1,2026-05-08T03:32:34.894944+05:30
Guntur,Andhra Pradesh,16.3067,80.4365,27.6,82,0.0,1002.8,9.2,45.0,50,13.9,12.3,13.5,155.0,23.0,6.0,7,5,4,1,2026-05-08T03:32:34.894951+05:30
Nellore,Andhra Pradesh,14.4426,79.9865,26.9,89,0.0,1004.6,9.05,40.0,29,7.4,5.2,3.5,164.0,40.0,1.9,7,5,4,1,2026-05-08T03:32:34.894958+05:30
Kurnool,Andhra Pradesh,15.8281,78.0373,27.8,67,0.0,975.5,9.15,58.7,51,5.6,4.3,5.1,123.0,26.0,0.9,7,5,7,1,2026-05-08T03:32:34.894966+05:30
Kakinada,Andhra Pradesh,16.9891,82.2475,27.5,89,0.0,1006.8,9.15,37.8,28,9.7,6.8,1.5,227.0,42.0,0.4,7,5,4,1,2026-05-08T03:32:34.894973+05:30
Tirupati,Andhra Pradesh,13.6288,79.4192,26.1,87,0.0,989.7,8.8,46.1,43,7.9,6.6,10.3,191.0,23.0,2.6,7,5,7,1,2026-05-08T03:32:34.894980+05:30
Warangal,Telangana,17.9689,79.5941,26.9,64,0.0,977.8,9.15,37.4,68,15.7,14.6,10.8,234.0,39.0,9.1,7,5,7,1,2026-05-08T03:32:34.894986+05:30
Nizamabad,Telangana,18.6725,78.0941,26.4,59,0.0,963.9,9.1,30.2,81,40.7,33.1,14.3,268.0,74.0,19.0,4,5,7,1,2026-05-08T03:32:34.894992+05:30
Mysore,Karnataka,12.2958,76.6396,22.8,91,0.0,925.7,9.3,36.7,79,28.3,25.0,13.3,334.0,67.0,6.0,3,5,7,1,2026-05-08T03:32:34.894999+05:30
Mangalore,Karnataka,12.9141,74.856,26.9,90,0.0,1003.6,9.0,39.2,70,40.5,32.9,21.2,372.0,35.0,5.1,7,5,4,1,2026-05-08T03:32:34.895005+05:30
Hubli-Dharwad,Karnataka,15.3647,75.124,26.0,62,0.0,938.4,9.15,40.7,94,47.4,38.0,11.8,275.0,79.0,6.1,7,5,7,1,2026-05-08T03:32:34.895013+05:30
Belgaum,Karnataka,15.8497,74.4977,24.9,64,0.0,924.1,9.15,60.8,95,54.4,37.8,14.0,244.0,79.0,6.6,3,5,7,1,2026-05-08T03:32:38.146553+05:30
Coimbatore,Tamil Nadu,11.0168,76.9558,23.9,96,0.0,959.4,9.25,34.9,61,22.4,20.2,12.1,308.0,63.0,4.8,3,5,7,1,2026-05-08T03:32:38.146584+05:30
Madurai,Tamil Nadu,9.9252,78.1198,24.7,95,0.0,991.0,8.4,32.8,63,8.2,7.5,8.6,221.0,68.0,2.6,3,5,7,1,2026-05-08T03:32:38.146595+05:30
Trichy,Tamil Nadu,10.7905,78.7047,25.0,90,0.0,997.9,7.3,37.4,53,13.0,12.1,16.4,235.0,40.0,6.9,7,5,7,1,2026-05-08T03:32:38.146604+05:30
Salem,Tamil Nadu,11.6643,78.146,23.5,96,0.0,975.9,8.6,35.3,70,26.4,24.9,11.8,245.0,78.0,11.7,3,5,7,1,2026-05-08T03:32:38.146612+05:30
Tirunelveli,Tamil Nadu,8.7139,77.7567,26.5,81,0.0,1000.7,8.95,40.3,66,13.8,13.1,8.7,327.0,60.0,4.4,7,5,4,1,2026-05-08T03:32:38.146619+05:30
Vellore,Tamil Nadu,12.9165,79.1325,25.0,98,0.0,982.5,8.25,42.8,51,12.5,11.1,15.5,235.0,17.0,5.4,7,5,7,1,2026-05-08T03:32:38.146626+05:30
Erode,Tamil Nadu,11.341,77.7172,23.5,95,0.0,987.4,8.8,33.5,58,18.5,17.3,11.1,224.0,77.0,6.5,3,5,7,1,2026-05-08T03:32:38.146634+05:30
Kochi,Kerala,9.9312,76.2673,25.4,94,0.0,1005.5,8.95,29.2,63,16.3,15.5,14.0,261.0,26.0,2.7,7,5,4,1,2026-05-08T03:32:38.146641+05:30
Thiruvananthapuram,Kerala,8.5241,76.9366,25.0,90,0.0,1004.7,8.6,25.2,53,14.1,11.9,5.6,271.0,84.0,3.0,7,5,4,1,2026-05-08T03:32:38.146647+05:30
Kozhikode,Kerala,11.2588,75.7804,24.9,98,0.0,1004.7,6.35,34.9,62,20.5,17.2,5.6,610.0,105.0,4.2,3,5,4,1,2026-05-08T03:32:38.146654+05:30
Thrissur,Kerala,10.5276,76.2144,24.9,96,0.0,1004.0,9.0,26.6,66,17.8,16.5,10.0,584.0,53.0,2.9,3,5,4,1,2026-05-08T03:32:38.146662+05:30
Kannur,Kerala,11.8745,75.3704,26.4,92,0.0,1003.7,8.9,40.3,62,29.1,26.0,18.2,441.0,39.0,2.8,7,5,4,1,2026-05-08T03:32:38.146669+05:30
Patna,Bihar,25.5941,85.1376,23.2,83,0.0,1001.8,8.45,21.2,129,77.3,72.4,30.6,573.0,52.0,15.3,3,5,4,1,2026-05-08T03:32:38.146676+05:30
Gaya,Bihar,24.7914,85.0002,22.6,77,0.0,994.9,8.65,27.0,130,54.6,50.9,18.2,390.0,74.0,10.6,3,5,7,1,2026-05-08T03:32:38.146682+05:30
Muzaffarpur,Bihar,26.1209,85.3647,21.5,86,0.0,1002.1,8.45,23.4,133,79.9,73.3,40.4,662.0,30.0,14.3,3,5,4,1,2026-05-08T03:32:38.146689+05:30
Bhagalpur,Bihar,25.2425,87.0117,21.8,86,0.0,1003.1,8.7,25.9,157,105.7,102.7,26.1,411.0,56.0,8.5,3,5,4,1,2026-05-08T03:32:38.146695+05:30
Ranchi,Jharkhand,23.3441,85.3096,20.5,78,0.0,938.4,9.2,40.0,112,65.2,60.1,17.4,337.0,92.0,32.3,3,5,7,1,2026-05-08T03:32:38.146701+05:30
Jamshedpur,Jharkhand,22.8046,86.2029,22.6,89,0.0,992.3,8.85,50.4,105,35.5,33.1,18.7,364.0,47.0,15.2,3,5,7,1,2026-05-08T03:32:38.146708+05:30
Dhanbad,Jharkhand,23.7957,86.4304,22.1,87,0.0,981.3,8.95,42.1,163,126.2,121.5,61.9,752.0,54.0,68.7,3,5,7,1,2026-05-08T03:32:38.146714+05:30
Bokaro,Jharkhand,23.6693,86.1511,21.9,87,0.0,985.1,8.95,53.6,159,116.6,111.5,61.4,2520.0,61.0,52.3,3,5,7,1,2026-05-08T03:32:38.146721+05:30
Bhubaneswar,Odisha,20.2961,85.8245,25.1,99,0.0,1003.9,9.1,31.3,45,12.2,10.3,10.5,187.0,24.0,3.4,7,5,4,1,2026-05-08T03:32:38.146727+05:30
Cuttack,Odisha,20.4625,85.8828,25.3,98,0.0,1005.9,9.15,27.4,45,12.2,10.3,10.5,210.0,24.0,3.4,7,5,4,1,2026-05-08T03:32:38.146733+05:30
Rourkela,Odisha,22.2604,84.8536,22.8,86,0.0,986.0,8.95,47.5,113,41.7,40.4,19.0,379.0,70.0,42.9,3,5,7,1,2026-05-08T03:32:38.146739+05:30
Raipur,Chhattisgarh,21.2514,81.6296,27.6,46,0.0,974.2,8.95,27.4,117,70.3,61.2,40.2,447.0,58.0,9.2,4,5,7,0,2026-05-08T03:32:38.146746+05:30
Bhilai,Chhattisgarh,21.1938,81.3509,27.2,56,0.0,975.0,9.0,25.9,123,69.2,58.7,45.6,420.0,33.0,8.2,4,5,7,1,2026-05-08T03:32:38.146752+05:30
Guwahati,Assam,26.1158,91.7086,21.1,89,0.0,1004.2,8.65,23.4,106,54.2,47.0,18.5,365.0,28.0,1.8,3,5,4,1,2026-05-08T03:32:38.146759+05:30
Agartala,Tripura,23.8315,91.2868,22.4,95,0.0,1008.2,8.8,16.6,135,90.1,88.2,65.7,552.0,10.0,6.1,3,0,4,1,2026-05-08T03:32:38.146765+05:30
Shillong,Meghalaya,25.5788,91.8933,16.2,78,0.0,858.2,7.0,16.6,88,38.8,33.2,15.2,281.0,35.0,0.7,3,5,7,0,2026-05-08T03:32:38.146771+05:30
Imphal,Manipur,24.817,93.9368,16.8,89,0.0,924.3,9.15,27.4,108,66.8,59.6,16.0,422.0,40.0,0.4,3,10,7,0,2026-05-08T03:32:38.146778+05:30
Aizawl,Mizoram,23.7271,92.7176,14.6,93,0.0,892.0,9.0,23.8,70,34.6,29.5,18.2,359.0,23.0,1.0,3,10,7,0,2026-05-08T03:32:38.146785+05:30
Kohima,Nagaland,25.6701,94.1077,14.5,79,0.0,855.5,9.15,30.6,83,44.7,35.3,5.0,222.0,62.0,0.2,3,5,7,0,2026-05-08T03:32:38.146818+05:30
Gangtok,Sikkim,27.3314,88.6138,10.4,66,0.0,835.7,9.0,43.9,65,20.0,16.0,15.2,251.0,43.0,0.3,3,5,7,0,2026-05-08T03:32:38.146835+05:30
Siliguri,West Bengal,26.7271,88.3953,22.2,67,0.0,994.9,8.55,24.1,114,59.8,51.1,38.2,427.0,20.0,2.8,3,5,7,0,2026-05-08T03:32:41.389303+05:30
Durgapur,West Bengal,23.5204,87.3119,21.4,96,0.0,996.6,8.7,22.7,155,115.5,111.8,56.7,702.0,46.0,53.4,3,5,7,1,2026-05-08T03:32:41.389334+05:30
Asansol,West Bengal,23.6739,86.9524,21.2,96,0.0,995.3,8.8,45.0,157,101.7,97.3,47.6,695.0,55.0,64.6,3,5,7,1,2026-05-08T03:32:41.389346+05:30
Pondicherry,Puducherry,11.9139,79.8145,27.5,82,0.0,1006.0,7.7,45.0,22,5.0,3.5,2.5,153.0,45.0,0.4,7,5,4,1,2026-05-08T03:32:41.389355+05:30
Port Blair,Andaman and Nicobar Islands,11.6234,92.7265,25.9,93,0.0,1005.2,9.1,37.1,32,5.3,4.1,0.3,138.0,71.0,0.6,7,5,4,1,2026-05-08T03:32:41.389363+05:30
Haridwar,Uttarakhand,29.9457,78.1642,18.5,81,0.0,974.0,7.4,25.2,103,54.0,41.9,34.6,305.0,12.0,4.2,3,10,7,0,2026-05-08T03:32:41.389371+05:30
Rishikesh,Uttarakhand,30.0869,78.2676,16.4,89,0.0,966.3,7.3,20.2,84,44.1,29.6,15.4,309.0,52.0,2.2,3,10,7,0,2026-05-08T03:32:41.389380+05:30
Nainital,Uttarakhand,29.3919,79.4542,9.2,85,0.0,801.9,7.55,28.1,72,22.4,20.8,12.0,254.0,78.0,1.6,3,10,7,0,2026-05-08T03:32:41.389387+05:30
Mussoorie,Uttarakhand,30.4599,78.0664,9.1,85,0.0,799.1,7.5,25.2,83,31.3,28.3,39.2,227.0,14.0,5.1,3,10,7,0,2026-05-08T03:32:41.389395+05:30
Dharamshala,Himachal Pradesh,32.219,76.3234,16.1,67,0.0,867.9,8.2,34.9,45,31.1,9.5,9.5,225.0,54.0,0.1,3,5,7,0,2026-05-08T03:32:41.389404+05:30
Dalhousie,Himachal Pradesh,32.5387,75.971,6.7,89,0.0,798.9,8.5,35.6,66,35.7,25.6,30.9,324.0,22.0,0.9,3,10,7,0,2026-05-08T03:32:41.389413+05:30
Patiala,Punjab,30.3398,76.3869,21.0,78,0.0,978.4,7.5,32.4,638,273.8,55.4,8.2,345.0,90.0,7.6,3,5,7,1,2026-05-08T03:32:41.389421+05:30
Bhatinda,Punjab,30.211,74.9455,23.5,63,0.0,983.1,8.1,31.3,718,789.8,153.7,5.1,328.0,120.0,10.7,3,5,7,0,2026-05-08T03:32:41.389428+05:30
Rohtak,Haryana,28.8955,76.6066,21.8,83,0.0,981.5,7.6,35.6,886,478.7,80.1,15.1,400.0,98.0,23.8,3,5,7,1,2026-05-08T03:32:41.389436+05:30
Panipat,Haryana,29.3909,76.9635,20.8,88,0.0,980.6,7.45,35.3,1480,620.3,89.9,12.2,355.0,92.0,19.0,3,5,7,1,2026-05-08T03:32:41.389443+05:30
Mathura,Uttar Pradesh,27.4924,77.6737,22.0,74,0.0,986.4,7.85,34.9,1276,1255.4,150.9,5.5,305.0,110.0,15.5,3,5,7,1,2026-05-08T03:32:41.389451+05:30
Vrindavan,Uttar Pradesh,27.5823,77.7027,22.0,75,0.0,986.8,7.85,34.9,1276,1255.4,150.9,5.5,307.0,110.0,15.5,3,5,7,1,2026-05-08T03:32:41.389458+05:30
Ayodhya,Uttar Pradesh,26.7922,82.1998,20.2,94,0.0,996.4,8.2,23.8,103,48.9,39.9,15.6,442.0,73.0,6.7,3,5,7,1,2026-05-08T03:32:41.389466+05:30
Ratlam,Madhya Pradesh,23.3315,75.0367,26.5,32,0.0,952.1,8.5,26.3,72,51.1,22.5,3.6,233.0,98.0,6.3,4,5,7,0,2026-05-08T03:32:41.389473+05:30
Sagar,Madhya Pradesh,23.8388,78.7378,24.4,47,0.0,949.2,8.65,39.6,47,30.6,17.3,7.4,263.0,93.0,5.8,0,5,7,0,2026-05-08T03:32:41.389481+05:30
Satna,Madhya Pradesh,24.6005,80.8322,22.1,62,0.0,971.1,8.7,33.1,78,45.6,27.3,10.7,286.0,95.0,8.5,3,5,7,0,2026-05-08T03:32:41.389489+05:30
Akola,Maharashtra,20.7002,77.0082,29.1,43,0.0,974.1,8.85,35.3,85,53.6,36.9,17.5,273.0,73.0,3.6,4,5,7,0,2026-05-08T03:32:41.389497+05:30
Amravati,Maharashtra,20.9374,77.7796,27.2,53,0.0,966.5,8.85,29.9,84,49.9,34.2,17.7,264.0,73.0,3.3,4,5,7,1,2026-05-08T03:32:41.389506+05:30
Latur,Maharashtra,18.4088,76.5604,25.5,57,0.0,938.6,8.35,29.9,92,56.8,38.5,17.4,280.0,77.0,5.4,4,5,7,1,2026-05-08T03:32:41.389513+05:30
Nanded,Maharashtra,19.1383,77.3091,28.0,54,0.0,967.4,8.95,30.6,80,37.3,29.1,11.1,371.0,72.0,6.3,4,5,7,1,2026-05-08T03:32:41.389521+05:30
Gulbarga,Karnataka,17.3297,76.8343,27.1,59,0.0,957.6,8.9,33.1,71,30.0,23.7,9.1,223.0,88.0,6.3,4,5,7,1,2026-05-08T03:32:41.389528+05:30
Bidar,Karnataka,17.9104,77.5199,24.6,75,0.0,934.3,9.0,32.4,77,25.3,21.9,14.0,252.0,61.0,6.2,3,5,7,1,2026-05-08T03:32:41.389536+05:30
Hospet,Karnataka,15.2689,76.3909,25.5,85,0.0,954.1,9.2,36.0,84,24.0,18.5,16.0,239.0,52.0,9.6,7,5,7,1,2026-05-08T03:32:41.389543+05:30
Tirupur,Tamil Nadu,11.1085,77.3411,24.8,91,0.0,973.0,9.25,31.7,65,21.5,19.9,13.7,255.0,73.0,5.7,3,5,7,1,2026-05-08T03:32:41.389550+05:30
Alappuzha,Kerala,9.4981,76.3388,25.5,91,0.0,1005.7,7.0,31.0,57,13.2,11.3,10.4,259.0,58.0,3.8,7,5,4,1,2026-05-08T03:32:41.389558+05:30
Munnar,Kerala,10.0889,77.0595,17.4,88,0.0,853.7,9.15,23.8,58,10.5,9.0,6.8,250.0,62.0,1.5,3,10,7,0,2026-05-08T03:32:41.389566+05:30
Silchar,Assam,24.8333,92.7789,22.6,89,0.0,1007.1,8.85,19.1,135,59.1,53.8,19.3,542.0,24.0,3.7,3,5,4,1,2026-05-08T03:32:41.389574+05:30
Dibrugarh,Assam,27.4728,94.912,19.6,97,0.0,998.5,8.75,42.8,75,23.3,20.8,15.6,251.0,18.0,0.5,3,10,7,1,2026-05-08T03:32:41.389581+05:30
