city,state,latitude,longitude,temp,humidity,rain,pressure,uv_index,wind_gusts,aqi,pm10,pm2_5,mosquito_risk,arthritis_risk,migraine_risk,frizz_risk,updated_at
Delhi,Delhi,28.6139,77.209,31.1,36,0.0,976.7,7.25,42.5,409,909.0,151.8,0,5,7,0,2026-04-28T01:39:51.148668+05:30
Mumbai,Maharashtra,19.076,72.8777,27.5,88,0.0,1005.5,8.05,38.9,84,50.2,24.6,7,5,4,1,2026-04-28T01:39:51.148711+05:30
Bangalore,Karnataka,12.9716,77.5946,26.0,46,0.0,910.3,9.05,40.3,87,33.6,30.0,4,5,7,0,2026-04-28T01:39:51.148727+05:30
Hyderabad,Telangana,17.385,78.4867,31.1,38,0.0,949.7,7.2,49.3,98,48.7,42.0,0,5,7,0,2026-04-28T01:39:51.148737+05:30
Chennai,Tamil Nadu,13.0827,80.2707,28.6,87,0.0,1004.8,7.55,56.5,55,14.0,9.5,7,5,4,1,2026-04-28T01:39:51.148745+05:30
Kolkata,West Bengal,22.5726,88.3639,27.9,85,0.0,999.9,8.85,63.4,54,17.8,14.4,7,5,7,1,2026-04-28T01:39:51.148755+05:30
Pune,Maharashtra,18.5204,73.8567,26.6,65,0.0,944.9,8.6,41.0,68,32.5,18.6,7,5,7,1,2026-04-28T01:39:51.148767+05:30
Ahmedabad,Gujarat,23.0225,72.5714,32.2,30,0.0,998.1,8.2,47.9,43,31.2,12.4,0,5,7,0,2026-04-28T01:39:51.148775+05:30
Jaipur,Rajasthan,26.9124,75.7873,30.0,31,0.0,954.6,8.05,39.6,125,165.8,33.9,4,5,7,0,2026-04-28T01:39:51.148783+05:30
Lucknow,Uttar Pradesh,26.8467,80.9462,29.4,44,0.0,987.2,7.9,40.0,144,333.4,67.8,4,5,7,0,2026-04-28T01:39:51.148791+05:30
Kanpur,Uttar Pradesh,26.4499,80.3319,32.9,20,0.0,984.7,7.95,43.9,270,497.3,77.5,0,5,7,0,2026-04-28T01:39:51.148798+05:30
Chandigarh,Chandigarh,30.7333,76.7794,26.8,31,0.0,963.2,6.6,53.3,61,16.5,15.8,4,5,7,0,2026-04-28T01:39:51.148806+05:30
Srinagar,Jammu and Kashmir,34.0837,74.7973,10.2,91,0.0,836.1,6.25,31.7,69,45.6,38.5,3,10,7,0,2026-04-28T01:39:51.148814+05:30
Jammu,Jammu and Kashmir,32.7266,74.857,24.5,38,0.0,965.6,7.2,44.3,56,20.4,19.0,0,5,7,0,2026-04-28T01:39:51.148822+05:30
Amritsar,Punjab,31.634,74.8723,27.8,41,0.0,973.9,5.65,48.6,65,48.8,25.1,4,5,3,0,2026-04-28T01:39:51.148828+05:30
Ludhiana,Punjab,30.901,75.8573,28.1,34,0.0,972.8,6.45,32.4,66,67.8,29.3,4,5,7,0,2026-04-28T01:39:51.148835+05:30
Jalandhar,Punjab,31.326,75.5762,26.7,39,0.0,973.6,5.6,36.0,77,78.7,34.1,4,5,3,0,2026-04-28T01:39:51.148844+05:30
Dehradun,Uttarakhand,30.6284,78.0322,14.6,46,0.0,824.4,5.75,53.3,57,16.0,12.5,0,5,3,0,2026-04-28T01:39:51.148851+05:30
Shimla,Himachal Pradesh,31.1048,77.1734,15.0,35,0.0,780.7,7.45,47.9,73,15.8,10.9,0,5,7,1,2026-04-28T01:39:51.148857+05:30
Manali,Himachal Pradesh,32.2396,77.1887,8.5,64,0.0,811.8,8.7,40.0,61,29.6,22.0,3,5,7,0,2026-04-28T01:39:51.148864+05:30
Gurgaon,Haryana,28.4595,77.0266,29.0,41,0.0,974.9,7.25,48.6,841,1855.2,221.7,4,5,7,0,2026-04-28T01:39:51.148871+05:30
Noida,Uttar Pradesh,28.5355,77.391,31.6,32,0.0,978.2,7.4,42.1,841,1855.2,221.7,0,5,7,0,2026-04-28T01:39:51.148878+05:30
Ghaziabad,Uttar Pradesh,28.6692,77.4538,30.5,33,0.0,976.6,7.35,59.8,311,719.0,126.2,0,5,7,0,2026-04-28T01:39:51.148885+05:30
Faridabad,Haryana,28.4089,77.3178,32.7,27,0.0,977.4,7.4,47.5,841,1855.2,221.7,0,5,7,0,2026-04-28T01:39:51.148891+05:30
Meerut,Uttar Pradesh,28.9845,77.7064,29.7,34,0.0,975.7,7.15,52.6,311,719.0,126.2,4,5,7,0,2026-04-28T01:39:51.148897+05:30
Agra,Uttar Pradesh,27.1767,78.0081,33.4,24,0.0,981.3,7.8,41.0,496,530.9,71.5,0,5,7,0,2026-04-28T01:39:51.148906+05:30
Varanasi,Uttar Pradesh,25.3176,82.9739,28.6,64,0.0,991.9,8.5,40.7,135,82.9,59.6,7,5,7,1,2026-04-28T01:39:51.148915+05:30
Prayagraj,Uttar Pradesh,25.4358,81.8463,30.0,53,0.0,989.2,8.4,37.4,125,101.5,60.1,4,5,7,1,2026-04-28T01:39:51.148922+05:30
Gorakhpur,Uttar Pradesh,26.7606,83.3732,25.4,74,0.0,992.9,8.3,35.3,136,71.0,54.8,7,5,7,1,2026-04-28T01:39:51.148928+05:30
Bareilly,Uttar Pradesh,28.367,79.4304,27.4,47,0.0,980.9,7.65,50.4,100,116.9,42.1,4,5,7,0,2026-04-28T01:39:51.148935+05:30
Aligarh,Uttar Pradesh,27.8974,78.088,34.2,21,0.0,980.0,7.5,59.0,620,622.1,106.2,0,5,7,0,2026-04-28T01:39:51.148941+05:30
Moradabad,Uttar Pradesh,28.8386,78.7733,29.4,30,0.0,977.8,7.3,48.2,122,280.3,66.1,4,5,7,0,2026-04-28T01:39:51.148947+05:30
Saharanpur,Uttar Pradesh,29.9637,77.546,29.9,27,0.0,969.9,6.55,42.1,82,100.1,30.7,4,5,7,0,2026-04-28T01:39:51.148956+05:30
Jhansi,Uttar Pradesh,25.4484,78.5685,34.2,19,0.0,971.3,8.3,42.8,60,38.6,20.0,0,5,7,0,2026-04-28T01:39:54.399851+05:30
Surat,Gujarat,21.1702,72.8311,28.5,74,0.0,1003.1,7.9,44.3,84,36.6,21.8,7,5,4,1,2026-04-28T01:39:54.399885+05:30
Vadodara,Gujarat,22.3072,73.1812,29.5,54,0.0,1000.4,8.15,48.6,67,27.9,19.6,4,5,4,1,2026-04-28T01:39:54.399897+05:30
Rajkot,Gujarat,22.3039,70.8022,27.8,42,0.0,990.7,7.9,53.3,51,22.5,11.2,4,5,7,0,2026-04-28T01:39:54.399908+05:30
Thane,Maharashtra,19.2183,72.9781,27.1,93,0.0,1004.9,8.05,36.4,84,50.2,24.6,7,5,4,1,2026-04-28T01:39:54.399916+05:30
Nagpur,Maharashtra,21.1458,79.0882,35.1,17,0.0,968.6,8.85,50.8,90,26.9,21.8,0,5,10,0,2026-04-28T01:39:54.399924+05:30
Nashik,Maharashtra,19.9975,73.7898,26.0,67,0.0,942.9,8.3,43.6,76,35.5,22.2,7,5,7,1,2026-04-28T01:39:54.399931+05:30
Aurangabad,Maharashtra,19.8762,75.3433,30.2,34,0.0,940.9,9.0,43.6,69,29.7,24.4,0,5,7,0,2026-04-28T01:39:54.399938+05:30
Solapur,Maharashtra,17.6599,75.9064,30.5,40,0.0,954.1,9.1,40.7,75,28.1,22.0,0,5,7,0,2026-04-28T01:39:54.399946+05:30
Kolhapur,Maharashtra,16.705,74.2433,24.0,90,0.0,945.5,9.0,50.8,72,40.4,18.9,3,5,7,1,2026-04-28T01:39:54.399954+05:30
Goa,Goa,15.2993,74.124,28.0,83,0.0,995.5,9.0,35.3,69,57.7,24.1,7,5,7,1,2026-04-28T01:39:54.399961+05:30
Jodhpur,Rajasthan,26.2389,73.0243,30.5,28,0.0,977.6,8.3,46.8,128,222.6,34.8,0,5,7,0,2026-04-28T01:39:54.399968+05:30
Udaipur,Rajasthan,24.5854,73.7125,29.0,23,0.0,942.8,8.75,49.3,50,19.2,9.4,4,5,7,0,2026-04-28T01:39:54.399975+05:30
Kota,Rajasthan,25.2138,75.8648,30.1,26,0.0,974.1,8.3,38.5,55,12.1,8.9,0,5,7,0,2026-04-28T01:39:54.399982+05:30
Bikaner,Rajasthan,28.0229,73.3119,29.6,37,0.0,975.9,8.15,59.0,63,58.2,19.6,4,5,7,0,2026-04-28T01:39:54.399989+05:30
Ajmer,Rajasthan,26.4499,74.6399,27.6,39,0.0,949.5,8.25,43.6,59,10.0,7.6,4,5,7,0,2026-04-28T01:39:54.399996+05:30
Gwalior,Madhya Pradesh,26.2183,78.1828,32.3,26,0.0,977.2,8.05,43.9,78,81.0,22.7,0,5,7,0,2026-04-28T01:39:54.400002+05:30
Indore,Madhya Pradesh,22.7196,75.8577,30.9,20,0.0,944.7,8.6,54.7,64,21.6,17.0,0,5,7,0,2026-04-28T01:39:54.400009+05:30
Bhopal,Madhya Pradesh,23.2599,77.4126,32.2,16,0.0,949.8,8.6,46.4,52,14.0,11.0,0,5,7,0,2026-04-28T01:39:54.400016+05:30
Jabalpur,Madhya Pradesh,23.1815,79.9864,28.8,39,0.0,956.1,8.75,42.5,68,33.8,18.9,4,5,7,0,2026-04-28T01:39:54.400023+05:30
Ujjain,Madhya Pradesh,23.1765,75.7885,30.1,22,0.0,950.2,8.55,56.9,64,20.9,16.4,0,5,7,0,2026-04-28T01:39:54.400030+05:30
Visakhapatnam,Andhra Pradesh,17.6868,83.2185,27.8,90,0.0,1001.0,9.2,58.3,60,22.4,16.7,7,5,4,1,2026-04-28T01:39:54.400037+05:30
Vijayawada,Andhra Pradesh,16.5062,80.648,28.4,86,0.0,1000.0,8.75,41.4,61,18.7,14.2,7,5,4,1,2026-04-28T01:39:54.400044+05:30
Guntur,Andhra Pradesh,16.3067,80.4365,28.5,87,0.0,1001.2,9.25,45.4,62,18.5,14.3,7,5,4,1,2026-04-28T01:39:54.400050+05:30
Nellore,Andhra Pradesh,14.4426,79.9865,28.0,83,0.0,1002.9,9.25,48.2,62,15.3,12.5,7,5,4,1,2026-04-28T01:39:54.400058+05:30
Kurnool,Andhra Pradesh,15.8281,78.0373,32.7,39,0.0,973.3,9.2,40.7,92,36.2,31.8,0,5,7,1,2026-04-28T01:39:54.400066+05:30
Kakinada,Andhra Pradesh,16.9891,82.2475,28.0,89,0.0,1005.2,9.2,45.7,56,22.6,14.6,7,5,4,1,2026-04-28T01:39:54.400073+05:30
Tirupati,Andhra Pradesh,13.6288,79.4192,27.5,76,0.0,989.3,9.2,38.2,72,16.3,13.9,7,5,7,1,2026-04-28T01:39:54.400079+05:30
Warangal,Telangana,17.9689,79.5941,28.8,69,0.0,975.2,8.75,38.2,90,24.8,22.9,7,5,7,1,2026-04-28T01:39:54.400086+05:30
Nizamabad,Telangana,18.6725,78.0941,31.0,36,0.0,960.3,9.1,36.0,94,37.0,30.5,0,5,7,0,2026-04-28T01:39:54.400093+05:30
Mysore,Karnataka,12.2958,76.6396,23.8,92,0.0,926.6,8.8,40.7,93,28.6,27.0,3,5,7,1,2026-04-28T01:39:54.400099+05:30
Mangalore,Karnataka,12.9141,74.856,29.1,79,0.0,1004.5,8.0,37.4,77,36.8,29.8,7,5,4,1,2026-04-28T01:39:54.400106+05:30
Hubli-Dharwad,Karnataka,15.3647,75.124,24.5,93,0.0,938.4,9.2,40.3,82,18.2,14.0,3,5,7,1,2026-04-28T01:39:54.400113+05:30
Belgaum,Karnataka,15.8497,74.4977,23.2,94,0.0,923.6,9.2,47.9,78,34.7,17.9,3,5,7,1,2026-04-28T01:39:57.641831+05:30
Coimbatore,Tamil Nadu,11.0168,76.9558,26.4,85,0.0,959.7,8.2,49.0,67,24.2,21.6,7,5,7,1,2026-04-28T01:39:57.641863+05:30
Madurai,Tamil Nadu,9.9252,78.1198,28.9,69,0.0,991.5,8.7,50.8,49,13.4,13.0,7,5,7,1,2026-04-28T01:39:57.641873+05:30
Trichy,Tamil Nadu,10.7905,78.7047,28.2,76,0.0,998.2,8.75,45.7,53,8.6,7.6,7,5,7,1,2026-04-28T01:39:57.641881+05:30
Salem,Tamil Nadu,11.6643,78.146,28.7,58,0.0,975.6,7.35,31.7,65,12.0,11.5,4,5,7,1,2026-04-28T01:39:57.641889+05:30
Tirunelveli,Tamil Nadu,8.7139,77.7567,27.7,76,0.0,1001.5,9.15,45.0,60,21.5,20.1,7,5,4,1,2026-04-28T01:39:57.641897+05:30
Vellore,Tamil Nadu,12.9165,79.1325,27.0,77,0.0,982.4,8.8,38.9,86,24.0,22.1,7,5,7,1,2026-04-28T01:39:57.641904+05:30
Erode,Tamil Nadu,11.341,77.7172,29.5,64,0.0,986.8,8.4,50.0,66,18.2,17.3,7,5,7,1,2026-04-28T01:39:57.641911+05:30
Kochi,Kerala,9.9312,76.2673,26.8,89,0.0,1007.4,7.1,36.4,77,24.9,21.6,7,5,4,1,2026-04-28T01:39:57.641919+05:30
Thiruvananthapuram,Kerala,8.5241,76.9366,24.9,98,0.0,1007.2,8.15,36.4,56,17.1,13.9,3,5,4,1,2026-04-28T01:39:57.641926+05:30
Kozhikode,Kerala,11.2588,75.7804,26.7,93,0.0,1005.8,7.5,36.0,62,29.3,22.2,7,5,4,1,2026-04-28T01:39:57.641933+05:30
Thrissur,Kerala,10.5276,76.2144,25.1,99,0.1,1005.9,7.9,36.7,71,23.2,20.9,10,5,4,1,2026-04-28T01:39:57.641941+05:30
Kannur,Kerala,11.8745,75.3704,29.0,81,0.0,1005.0,7.7,37.8,76,36.2,32.1,7,5,4,1,2026-04-28T01:39:57.641949+05:30
Patna,Bihar,25.5941,85.1376,23.2,86,0.0,996.1,8.6,33.8,128,46.4,37.0,3,5,7,1,2026-04-28T01:39:57.641956+05:30
Gaya,Bihar,24.7914,85.0002,25.4,81,0.0,988.6,8.7,35.3,133,50.8,43.5,7,5,7,1,2026-04-28T01:39:57.641963+05:30
Muzaffarpur,Bihar,26.1209,85.3647,22.8,85,0.0,996.6,8.1,36.7,132,40.0,33.9,3,5,7,1,2026-04-28T01:39:57.641969+05:30
Bhagalpur,Bihar,25.2425,87.0117,22.4,90,0.0,997.3,8.6,31.7,102,27.2,24.7,3,5,7,1,2026-04-28T01:39:57.641976+05:30
Ranchi,Jharkhand,23.3441,85.3096,24.5,64,0.0,931.6,8.95,47.2,86,39.8,23.9,3,5,7,1,2026-04-28T01:39:57.641983+05:30
Jamshedpur,Jharkhand,22.8046,86.2029,29.0,64,0.0,984.4,8.85,55.4,97,53.2,40.7,7,5,7,1,2026-04-28T01:39:57.641989+05:30
Dhanbad,Jharkhand,23.7957,86.4304,25.2,83,0.0,974.5,8.95,37.8,140,88.2,78.5,7,5,7,1,2026-04-28T01:39:57.641996+05:30
Bokaro,Jharkhand,23.6693,86.1511,26.2,84,0.0,978.1,8.95,36.4,138,88.7,76.1,7,5,7,1,2026-04-28T01:39:57.642003+05:30
Bhubaneswar,Odisha,20.2961,85.8245,27.6,84,0.0,997.1,9.1,48.6,53,16.9,13.8,7,5,7,1,2026-04-28T01:39:57.642010+05:30
Cuttack,Odisha,20.4625,85.8828,27.8,84,0.0,998.7,9.15,42.8,53,16.9,13.8,7,5,7,1,2026-04-28T01:39:57.642017+05:30
Rourkela,Odisha,22.2604,84.8536,28.4,73,0.0,978.9,8.9,64.1,97,52.9,33.9,7,5,7,1,2026-04-28T01:39:57.642024+05:30
Raipur,Chhattisgarh,21.2514,81.6296,30.9,34,0.0,968.9,8.9,46.8,102,61.5,44.1,0,5,7,0,2026-04-28T01:39:57.642031+05:30
Bhilai,Chhattisgarh,21.1938,81.3509,31.2,36,0.0,969.3,8.95,46.1,92,51.3,33.8,0,5,7,0,2026-04-28T01:39:57.642037+05:30
Guwahati,Assam,26.1158,91.7086,20.5,89,0.0,999.1,7.9,32.8,98,40.3,32.0,3,5,7,1,2026-04-28T01:39:57.642044+05:30
Agartala,Tripura,23.8315,91.2868,26.0,85,0.0,1001.8,7.1,44.6,69,16.9,14.1,7,5,4,1,2026-04-28T01:39:57.642051+05:30
Shillong,Meghalaya,25.5788,91.8933,15.4,100,0.0,852.8,8.7,28.4,68,9.8,4.5,3,10,7,0,2026-04-28T01:39:57.642058+05:30
Imphal,Manipur,24.817,93.9368,17.9,98,0.0,919.6,8.9,20.9,125,29.9,22.7,3,10,7,1,2026-04-28T01:39:57.642065+05:30
Aizawl,Mizoram,23.7271,92.7176,18.1,85,0.0,888.7,7.75,74.5,73,26.3,15.4,3,10,7,0,2026-04-28T01:39:57.642071+05:30
Kohima,Nagaland,25.6701,94.1077,15.8,98,0.2,851.3,6.65,29.9,107,7.7,4.7,6,10,7,0,2026-04-28T01:39:57.642078+05:30
Gangtok,Sikkim,27.3314,88.6138,12.2,96,0.0,832.1,8.2,42.5,71,43.3,34.0,3,10,7,0,2026-04-28T01:39:57.642085+05:30
Siliguri,West Bengal,26.7271,88.3953,21.8,82,0.0,990.3,7.6,28.4,94,26.1,22.9,3,5,7,1,2026-04-28T01:40:20.835158+05:30
Durgapur,West Bengal,23.5204,87.3119,25.5,91,0.0,989.0,8.85,37.1,118,49.7,46.7,7,5,7,1,2026-04-28T01:40:20.835189+05:30
Asansol,West Bengal,23.6739,86.9524,24.9,87,0.0,987.8,8.9,32.8,115,55.1,51.9,3,5,7,1,2026-04-28T01:40:20.835200+05:30
Pondicherry,Puducherry,11.9139,79.8145,29.0,82,0.0,1006.3,8.8,46.8,51,12.0,8.1,7,5,4,1,2026-04-28T01:40:20.835208+05:30
Port Blair,Andaman and Nicobar Islands,11.6234,92.7265,27.7,85,0.0,1005.1,9.05,27.0,39,9.7,7.2,7,5,4,1,2026-04-28T01:40:20.835215+05:30
Haridwar,Uttarakhand,29.9457,78.1642,24.4,45,0.0,967.9,6.6,28.1,58,19.3,16.1,0,5,7,0,2026-04-28T01:40:20.835223+05:30
Rishikesh,Uttarakhand,30.0869,78.2676,20.5,54,0.0,960.6,6.3,29.5,82,34.5,17.2,0,5,7,0,2026-04-28T01:40:20.835230+05:30
Nainital,Uttarakhand,29.3919,79.4542,16.7,32,0.0,802.0,7.45,54.4,96,54.4,16.7,0,5,7,1,2026-04-28T01:40:20.835237+05:30
Mussoorie,Uttarakhand,30.4599,78.0664,17.7,31,0.0,799.7,5.25,51.8,66,20.8,18.6,0,5,3,0,2026-04-28T01:40:20.835244+05:30
Dharamshala,Himachal Pradesh,32.219,76.3234,23.3,28,0.0,865.9,7.5,53.3,58,13.2,10.5,0,5,7,0,2026-04-28T01:40:20.835251+05:30
Dalhousie,Himachal Pradesh,32.5387,75.971,11.1,62,0.0,797.6,6.15,36.7,46,15.5,14.7,3,5,7,0,2026-04-28T01:40:20.835259+05:30
Patiala,Punjab,30.3398,76.3869,30.5,30,0.0,972.5,6.15,49.3,353,597.9,84.1,0,5,7,0,2026-04-28T01:40:20.835267+05:30
Bhatinda,Punjab,30.211,74.9455,29.1,36,0.0,977.4,7.45,44.6,69,71.2,29.7,4,5,7,0,2026-04-28T01:40:20.835274+05:30
Rohtak,Haryana,28.8955,76.6066,28.5,43,0.0,975.5,7.25,53.3,563,1188.4,172.3,4,5,7,0,2026-04-28T01:40:20.835281+05:30
Panipat,Haryana,29.3909,76.9635,30.3,33,0.0,974.5,6.95,56.2,1121,2019.1,251.5,0,5,7,0,2026-04-28T01:40:20.835288+05:30
Mathura,Uttar Pradesh,27.4924,77.6737,34.5,20,0.0,980.3,7.75,63.7,659,461.9,83.6,0,5,7,0,2026-04-28T01:40:20.835295+05:30
Vrindavan,Uttar Pradesh,27.5823,77.7027,33.8,22,0.0,980.7,7.75,67.3,659,461.9,83.6,0,5,7,0,2026-04-28T01:40:20.835302+05:30
Ayodhya,Uttar Pradesh,26.7922,82.1998,27.1,64,0.0,990.1,8.1,52.2,138,94.3,65.2,7,5,7,1,2026-04-28T01:40:20.835309+05:30
Ratlam,Madhya Pradesh,23.3315,75.0367,29.7,24,0.0,951.6,8.45,51.1,71,23.3,17.7,4,5,7,0,2026-04-28T01:40:20.835315+05:30
Sagar,Madhya Pradesh,23.8388,78.7378,28.5,33,0.0,945.4,8.6,45.4,53,15.0,10.7,4,5,7,0,2026-04-28T01:40:20.835321+05:30
Satna,Madhya Pradesh,24.6005,80.8322,30.5,31,0.0,964.6,8.2,46.8,58,20.7,12.0,0,5,7,0,2026-04-28T01:40:20.835328+05:30
Akola,Maharashtra,20.7002,77.0082,32.2,21,0.0,970.6,8.4,42.8,83,23.7,20.1,0,5,7,0,2026-04-28T01:40:20.835335+05:30
Amravati,Maharashtra,20.9374,77.7796,33.7,18,0.0,962.9,8.2,46.8,78,23.6,20.1,0,5,7,0,2026-04-28T01:40:20.835343+05:30
Latur,Maharashtra,18.4088,76.5604,30.9,32,0.0,936.4,9.1,36.4,82,36.8,26.8,0,5,7,0,2026-04-28T01:40:20.835349+05:30
Nanded,Maharashtra,19.1383,77.3091,30.6,28,0.0,964.2,8.95,31.0,76,29.3,24.8,0,5,7,0,2026-04-28T01:40:20.835356+05:30
Gulbarga,Karnataka,17.3297,76.8343,31.2,35,0.0,955.1,9.0,35.6,87,38.2,34.7,0,5,7,0,2026-04-28T01:40:20.835362+05:30
Bidar,Karnataka,17.9104,77.5199,29.1,40,0.0,931.6,8.1,34.6,87,44.2,38.3,4,5,7,0,2026-04-28T01:40:20.835369+05:30
Hospet,Karnataka,15.2689,76.3909,28.1,71,0.0,953.0,9.25,34.2,93,29.1,26.9,7,5,7,1,2026-04-28T01:40:20.835375+05:30
Tirupur,Tamil Nadu,11.1085,77.3411,27.2,84,0.0,973.0,8.3,33.8,74,23.9,22.3,7,5,7,1,2026-04-28T01:40:20.835382+05:30
Alappuzha,Kerala,9.4981,76.3388,26.1,95,0.0,1007.4,7.5,36.0,73,26.8,22.6,7,5,4,1,2026-04-28T01:40:20.835389+05:30
Munnar,Kerala,10.0889,77.0595,18.3,77,0.0,855.6,8.65,26.6,72,23.0,21.8,3,5,7,0,2026-04-28T01:40:20.835396+05:30
Silchar,Assam,24.8333,92.7789,21.5,95,0.1,1001.8,7.95,34.2,141,15.4,10.9,6,5,4,1,2026-04-28T01:40:20.835402+05:30
Dibrugarh,Assam,27.4728,94.912,20.9,95,0.0,993.8,8.25,18.0,99,39.2,32.2,3,5,7,1,2026-04-28T01:40:20.835409+05:30
