city,state,latitude,longitude,temp,humidity,rain,pressure,uv_index,wind_gusts,aqi,pm10,pm2_5,mosquito_risk,arthritis_risk,migraine_risk,frizz_risk,updated_at
Delhi,Delhi,28.6139,77.209,30.7,30,0.0,985.9,5.8,36.7,304,678.0,97.3,0,5,3,0,2026-03-03T16:13:18.984713+05:30
Mumbai,Maharashtra,19.076,72.8777,27.4,74,0.0,1008.5,7.35,25.9,128,51.7,45.9,7,0,4,1,2026-03-03T16:13:18.984753+05:30
Bangalore,Karnataka,12.9716,77.5946,31.5,27,0.0,912.4,9.1,36.0,109,30.6,29.9,0,5,7,0,2026-03-03T16:13:18.984768+05:30
Hyderabad,Telangana,17.385,78.4867,33.6,31,0.0,954.3,8.35,23.4,138,25.7,24.9,0,5,7,0,2026-03-03T16:13:18.984778+05:30
Chennai,Tamil Nadu,13.0827,80.2707,31.4,43,0.0,1008.6,8.8,30.2,116,36.8,32.2,0,0,4,1,2026-03-03T16:13:18.984787+05:30
Kolkata,West Bengal,22.5726,88.3639,30.9,31,0.0,1008.1,7.7,16.2,178,90.6,43.5,0,0,4,0,2026-03-03T16:13:18.984795+05:30
Pune,Maharashtra,18.5204,73.8567,36.6,23,0.0,949.0,7.9,32.8,92,20.6,20.3,0,5,10,0,2026-03-03T16:13:18.984807+05:30
Ahmedabad,Gujarat,23.0225,72.5714,37.0,20,0.0,1003.7,7.15,14.4,100,25.8,16.2,0,5,7,0,2026-03-03T16:13:18.984815+05:30
Jaipur,Rajasthan,26.9124,75.7873,34.5,11,0.0,963.4,6.6,29.9,102,117.3,25.6,0,5,7,1,2026-03-03T16:13:18.984823+05:30
Lucknow,Uttar Pradesh,26.8467,80.9462,31.0,29,0.0,996.2,6.3,35.6,152,136.9,41.2,0,5,7,0,2026-03-03T16:13:18.984831+05:30
Kanpur,Uttar Pradesh,26.4499,80.3319,31.5,28,0.0,994.6,6.3,28.4,180,295.2,50.4,0,5,7,0,2026-03-03T16:13:18.984838+05:30
Chandigarh,Chandigarh,30.7333,76.7794,28.5,32,0.0,971.3,5.7,33.5,86,29.6,26.3,4,5,3,0,2026-03-03T16:13:18.984845+05:30
Srinagar,Jammu and Kashmir,34.0837,74.7973,21.1,16,0.0,845.7,6.6,18.0,140,23.5,16.9,0,5,7,1,2026-03-03T16:13:18.984853+05:30
Jammu,Jammu and Kashmir,32.7266,74.857,28.8,39,0.0,975.2,6.3,20.9,102,27.6,19.4,4,5,7,0,2026-03-03T16:13:18.984860+05:30
Amritsar,Punjab,31.634,74.8723,29.9,32,0.0,983.7,6.25,25.9,85,21.2,14.8,4,5,7,0,2026-03-03T16:13:18.984867+05:30
Ludhiana,Punjab,30.901,75.8573,29.6,33,0.0,981.7,5.9,29.9,136,59.3,33.2,4,5,3,0,2026-03-03T16:13:18.984874+05:30
Jalandhar,Punjab,31.326,75.5762,29.4,33,0.0,982.8,6.1,25.9,138,49.9,25.1,4,5,7,0,2026-03-03T16:13:18.984883+05:30
Dehradun,Uttarakhand,30.6284,78.0322,19.9,45,0.0,832.3,6.05,31.0,57,16.8,12.5,0,5,7,0,2026-03-03T16:13:18.984889+05:30
Shimla,Himachal Pradesh,31.1048,77.1734,18.6,45,0.0,787.9,6.1,44.6,70,16.2,10.2,0,5,7,0,2026-03-03T16:13:18.984897+05:30
Manali,Himachal Pradesh,32.2396,77.1887,23.0,27,0.0,823.4,7.7,34.6,66,9.9,6.4,0,5,7,0,2026-03-03T16:13:18.984903+05:30
Gurgaon,Haryana,28.4595,77.0266,30.5,30,0.0,984.5,5.9,33.8,1121,1832.8,189.5,0,5,3,0,2026-03-03T16:13:18.984910+05:30
Noida,Uttar Pradesh,28.5355,77.391,31.1,28,0.0,987.4,5.85,36.4,1121,1832.8,189.5,0,5,3,0,2026-03-03T16:13:18.984918+05:30
Ghaziabad,Uttar Pradesh,28.6692,77.4538,30.2,33,0.0,985.4,5.8,36.0,203,529.0,82.9,0,5,3,0,2026-03-03T16:13:18.984925+05:30
Faridabad,Haryana,28.4089,77.3178,30.2,31,0.0,986.8,5.85,32.8,1121,1832.8,189.5,0,5,3,0,2026-03-03T16:13:18.984932+05:30
Meerut,Uttar Pradesh,28.9845,77.7064,30.3,32,0.0,983.9,5.65,41.4,203,529.0,82.9,0,5,3,0,2026-03-03T16:13:18.984941+05:30
Agra,Uttar Pradesh,27.1767,78.0081,33.0,19,0.0,990.9,6.15,30.6,465,633.3,69.2,0,5,7,0,2026-03-03T16:13:18.984948+05:30
Varanasi,Uttar Pradesh,25.3176,82.9739,30.0,35,0.0,1000.6,6.95,23.0,99,62.9,31.9,4,5,4,0,2026-03-03T16:13:18.984958+05:30
Prayagraj,Uttar Pradesh,25.4358,81.8463,30.6,37,0.0,999.0,6.8,23.0,117,58.4,31.4,0,5,7,0,2026-03-03T16:13:18.984968+05:30
Gorakhpur,Uttar Pradesh,26.7606,83.3732,28.8,38,0.0,1000.2,6.7,16.9,149,114.6,45.5,4,5,4,0,2026-03-03T16:13:18.984975+05:30
Bareilly,Uttar Pradesh,28.367,79.4304,29.2,41,0.0,989.2,6.0,28.8,125,79.4,42.0,4,5,3,0,2026-03-03T16:13:18.984982+05:30
Aligarh,Uttar Pradesh,27.8974,78.088,31.0,27,0.0,988.4,5.95,34.9,617,1102.7,132.7,0,5,3,0,2026-03-03T16:13:18.984989+05:30
Moradabad,Uttar Pradesh,28.8386,78.7733,30.0,33,0.0,985.7,5.8,28.8,132,77.3,38.8,4,5,3,0,2026-03-03T16:13:18.984995+05:30
Saharanpur,Uttar Pradesh,29.9637,77.546,29.1,28,0.0,977.4,5.45,43.2,125,128.1,37.6,4,5,3,0,2026-03-03T16:13:18.985002+05:30
Jhansi,Uttar Pradesh,25.4484,78.5685,33.9,22,0.0,981.0,6.75,26.6,88,54.7,24.2,0,5,7,0,2026-03-03T16:13:22.286042+05:30
Surat,Gujarat,21.1702,72.8311,32.0,52,0.0,1008.3,7.05,27.0,161,52.7,49.0,0,0,4,1,2026-03-03T16:13:22.286075+05:30
Vadodara,Gujarat,22.3072,73.1812,37.6,22,0.0,1005.5,7.15,13.3,154,27.1,22.8,0,5,7,0,2026-03-03T16:13:22.286090+05:30
Rajkot,Gujarat,22.3039,70.8022,36.3,21,0.0,995.9,7.0,17.6,63,16.6,11.1,0,5,10,0,2026-03-03T16:13:22.286103+05:30
Thane,Maharashtra,19.2183,72.9781,31.5,48,0.0,1008.4,7.35,36.7,128,51.7,45.9,0,0,4,1,2026-03-03T16:13:22.286113+05:30
Nagpur,Maharashtra,21.1458,79.0882,34.9,22,0.0,974.7,7.75,17.6,69,28.5,20.4,0,5,7,0,2026-03-03T16:13:22.286121+05:30
Nashik,Maharashtra,19.9975,73.7898,34.8,23,0.0,946.7,7.55,31.0,91,21.7,20.9,0,5,7,0,2026-03-03T16:13:22.286130+05:30
Aurangabad,Maharashtra,19.8762,75.3433,34.9,25,0.0,945.4,8.05,25.2,105,20.4,19.3,0,5,7,0,2026-03-03T16:13:22.286138+05:30
Solapur,Maharashtra,17.6599,75.9064,34.5,30,0.0,957.7,8.3,18.0,118,32.1,31.5,0,5,7,0,2026-03-03T16:13:22.286147+05:30
Kolhapur,Maharashtra,16.705,74.2433,34.4,28,0.0,948.0,8.4,39.2,132,49.7,49.0,0,5,7,0,2026-03-03T16:13:22.286156+05:30
Goa,Goa,15.2993,74.124,30.0,68,0.0,997.4,8.45,34.2,75,29.3,23.5,7,5,7,1,2026-03-03T16:13:22.286165+05:30
Jodhpur,Rajasthan,26.2389,73.0243,35.8,19,0.0,986.3,6.85,15.8,72,53.3,15.4,0,5,10,0,2026-03-03T16:13:22.286173+05:30
Udaipur,Rajasthan,24.5854,73.7125,33.4,22,0.0,949.8,7.45,18.4,64,32.0,16.3,0,5,7,0,2026-03-03T16:13:22.286182+05:30
Kota,Rajasthan,25.2138,75.8648,35.3,19,0.0,981.7,6.85,19.4,87,45.1,20.0,0,5,10,0,2026-03-03T16:13:22.286190+05:30
Bikaner,Rajasthan,28.0229,73.3119,34.2,20,0.0,985.7,6.55,21.6,69,43.2,16.8,0,5,7,0,2026-03-03T16:13:22.286198+05:30
Ajmer,Rajasthan,26.4499,74.6399,33.7,13,0.0,958.4,6.8,25.9,76,38.0,15.5,0,5,7,0,2026-03-03T16:13:22.286206+05:30
Gwalior,Madhya Pradesh,26.2183,78.1828,31.7,32,0.0,986.5,6.45,29.5,127,39.1,20.3,0,5,7,0,2026-03-03T16:13:22.286214+05:30
Indore,Madhya Pradesh,22.7196,75.8577,32.5,27,0.0,950.7,7.45,16.9,90,19.5,15.7,0,5,7,0,2026-03-03T16:13:22.286222+05:30
Bhopal,Madhya Pradesh,23.2599,77.4126,32.5,28,0.0,956.5,7.3,22.3,78,27.4,17.8,0,5,7,0,2026-03-03T16:13:22.286230+05:30
Jabalpur,Madhya Pradesh,23.1815,79.9864,32.3,28,0.0,964.2,7.4,17.6,71,27.9,14.9,0,5,7,0,2026-03-03T16:13:22.286238+05:30
Ujjain,Madhya Pradesh,23.1765,75.7885,32.5,30,0.0,956.6,7.3,15.5,103,22.9,18.5,0,5,7,0,2026-03-03T16:13:22.286247+05:30
Visakhapatnam,Andhra Pradesh,17.6868,83.2185,31.7,43,0.0,1004.7,8.35,34.2,131,53.2,49.2,0,5,4,1,2026-03-03T16:13:22.286255+05:30
Vijayawada,Andhra Pradesh,16.5062,80.648,35.1,33,0.0,1002.8,8.4,27.7,138,45.8,44.1,0,5,7,1,2026-03-03T16:13:22.286263+05:30
Guntur,Andhra Pradesh,16.3067,80.4365,35.5,32,0.0,1004.1,8.4,28.8,129,37.6,36.0,0,5,7,1,2026-03-03T16:13:22.286271+05:30
Nellore,Andhra Pradesh,14.4426,79.9865,33.8,29,0.0,1006.9,8.65,29.2,112,36.7,32.8,0,5,4,0,2026-03-03T16:13:22.286280+05:30
Kurnool,Andhra Pradesh,15.8281,78.0373,36.6,24,0.0,976.9,8.45,29.2,119,28.5,27.4,0,5,10,0,2026-03-03T16:13:22.286289+05:30
Kakinada,Andhra Pradesh,16.9891,82.2475,33.8,37,0.0,1007.8,8.35,34.9,127,43.9,38.8,0,5,4,1,2026-03-03T16:13:22.286297+05:30
Tirupati,Andhra Pradesh,13.6288,79.4192,34.4,25,0.0,992.1,8.75,37.1,152,38.1,36.0,0,5,7,0,2026-03-03T16:13:22.286305+05:30
Warangal,Telangana,17.9689,79.5941,34.9,30,0.0,979.6,8.2,14.0,149,22.9,21.3,0,5,7,0,2026-03-03T16:13:22.286313+05:30
Nizamabad,Telangana,18.6725,78.0941,34.7,27,0.0,965.9,8.1,24.5,92,19.5,17.1,0,5,7,0,2026-03-03T16:13:22.286322+05:30
Mysore,Karnataka,12.2958,76.6396,33.1,24,0.0,928.2,9.15,32.8,133,28.5,27.7,0,5,7,0,2026-03-03T16:13:22.286330+05:30
Mangalore,Karnataka,12.9141,74.856,28.4,78,0.0,1005.8,8.75,29.2,72,27.0,21.7,7,5,4,1,2026-03-03T16:13:22.286338+05:30
Hubli-Dharwad,Karnataka,15.3647,75.124,34.5,28,0.0,940.7,8.65,25.6,92,38.9,38.1,0,5,7,0,2026-03-03T16:13:22.286346+05:30
Belgaum,Karnataka,15.8497,74.4977,33.9,28,0.0,925.9,8.65,32.0,136,44.2,43.4,0,5,7,0,2026-03-03T16:13:25.591657+05:30
Coimbatore,Tamil Nadu,11.0168,76.9558,33.9,25,0.0,961.4,9.15,43.6,125,30.6,29.7,0,5,7,0,2026-03-03T16:13:25.591690+05:30
Madurai,Tamil Nadu,9.9252,78.1198,35.5,26,0.0,992.2,9.1,33.8,114,24.7,23.1,0,5,10,0,2026-03-03T16:13:25.591705+05:30
Trichy,Tamil Nadu,10.7905,78.7047,35.3,25,0.0,999.4,9.0,31.0,115,26.3,24.3,0,5,10,0,2026-03-03T16:13:25.591717+05:30
Salem,Tamil Nadu,11.6643,78.146,36.0,23,0.0,976.6,9.05,40.7,136,31.3,30.3,0,5,10,0,2026-03-03T16:13:25.591727+05:30
Tirunelveli,Tamil Nadu,8.7139,77.7567,35.9,26,0.0,1002.1,9.1,42.5,105,20.5,19.2,0,5,7,0,2026-03-03T16:13:25.591738+05:30
Vellore,Tamil Nadu,12.9165,79.1325,33.6,27,0.0,985.0,8.85,38.5,150,32.2,30.2,0,5,7,0,2026-03-03T16:13:25.591748+05:30
Erode,Tamil Nadu,11.341,77.7172,36.8,24,0.0,987.9,9.05,36.0,118,37.1,36.0,0,5,10,0,2026-03-03T16:13:25.591758+05:30
Kochi,Kerala,9.9312,76.2673,28.4,78,0.0,1007.3,8.95,33.1,107,35.4,33.8,7,5,4,1,2026-03-03T16:13:25.591770+05:30
Thiruvananthapuram,Kerala,8.5241,76.9366,28.2,72,0.0,1007.5,9.0,27.0,115,35.3,33.1,7,5,4,1,2026-03-03T16:13:25.591780+05:30
Kozhikode,Kerala,11.2588,75.7804,29.5,75,0.0,1007.0,8.85,36.4,66,23.8,18.4,7,5,4,1,2026-03-03T16:13:25.591790+05:30
Thrissur,Kerala,10.5276,76.2144,31.4,64,0.0,1005.6,8.95,38.9,107,32.5,31.4,3,5,4,1,2026-03-03T16:13:25.591802+05:30
Kannur,Kerala,11.8745,75.3704,30.3,67,0.0,1006.4,8.85,38.2,62,28.2,23.4,3,5,4,1,2026-03-03T16:13:25.591812+05:30
Patna,Bihar,25.5941,85.1376,29.6,34,0.0,1003.7,7.1,16.9,145,185.3,53.1,4,5,4,0,2026-03-03T16:13:25.591822+05:30
Gaya,Bihar,24.7914,85.0002,28.6,38,0.0,997.0,7.2,23.0,96,85.4,29.7,4,5,7,0,2026-03-03T16:13:25.591832+05:30
Muzaffarpur,Bihar,26.1209,85.3647,29.5,33,0.0,1003.7,7.05,10.4,154,153.2,50.2,4,5,4,0,2026-03-03T16:13:25.591842+05:30
Bhagalpur,Bihar,25.2425,87.0117,27.9,38,0.0,1004.6,7.15,13.0,125,68.7,41.9,4,5,4,0,2026-03-03T16:13:25.591852+05:30
Ranchi,Jharkhand,23.3441,85.3096,28.7,23,0.0,940.2,7.9,40.7,84,52.3,20.8,4,5,7,0,2026-03-03T16:13:25.591861+05:30
Jamshedpur,Jharkhand,22.8046,86.2029,32.5,23,0.0,992.6,7.8,14.4,93,79.6,28.8,0,5,7,0,2026-03-03T16:13:25.591871+05:30
Dhanbad,Jharkhand,23.7957,86.4304,33.0,18,0.0,981.8,7.65,27.7,101,80.8,27.1,0,5,7,0,2026-03-03T16:13:25.591881+05:30
Bokaro,Jharkhand,23.6693,86.1511,32.4,17,0.0,985.7,7.65,32.8,104,73.1,26.0,0,5,7,0,2026-03-03T16:13:25.591892+05:30
Bhubaneswar,Odisha,20.2961,85.8245,35.7,14,0.0,1003.7,8.1,26.6,152,45.9,27.1,0,5,7,0,2026-03-03T16:13:25.591902+05:30
Cuttack,Odisha,20.4625,85.8828,35.4,18,0.0,1005.7,8.1,26.3,152,45.9,27.1,0,5,7,0,2026-03-03T16:13:25.591912+05:30
Rourkela,Odisha,22.2604,84.8536,34.0,23,0.0,986.8,7.7,27.4,82,59.4,24.4,0,5,7,0,2026-03-03T16:13:25.591921+05:30
Raipur,Chhattisgarh,21.2514,81.6296,34.5,19,0.0,976.5,7.8,14.4,116,35.5,23.7,0,5,7,0,2026-03-03T16:13:25.591931+05:30
Bhilai,Chhattisgarh,21.1938,81.3509,34.5,20,0.0,976.9,7.8,13.7,114,37.0,25.6,0,5,7,0,2026-03-03T16:13:25.591941+05:30
Guwahati,Assam,26.1158,91.7086,28.2,42,0.0,1004.0,7.1,22.0,156,92.0,69.4,4,5,4,0,2026-03-03T16:13:25.591951+05:30
Agartala,Tripura,23.8315,91.2868,27.8,57,0.0,1008.5,7.5,15.8,181,79.2,61.0,4,0,4,1,2026-03-03T16:13:25.591961+05:30
Shillong,Meghalaya,25.5788,91.8933,16.5,50,0.0,857.5,7.45,28.4,143,82.7,59.5,0,5,7,0,2026-03-03T16:13:25.591971+05:30
Imphal,Manipur,24.817,93.9368,20.1,53,0.0,924.4,7.65,32.8,161,65.7,57.5,0,5,7,0,2026-03-03T16:13:25.591981+05:30
Aizawl,Mizoram,23.7271,92.7176,22.6,40,0.0,894.4,7.65,32.8,161,47.1,37.1,0,5,7,0,2026-03-03T16:13:25.591992+05:30
Kohima,Nagaland,25.6701,94.1077,15.8,74,0.0,855.7,6.65,45.0,153,74.3,58.8,3,5,7,0,2026-03-03T16:13:25.592002+05:30
Gangtok,Sikkim,27.3314,88.6138,15.4,73,0.0,839.2,7.4,19.4,151,77.3,56.1,3,5,7,0,2026-03-03T16:13:25.592012+05:30
Siliguri,West Bengal,26.7271,88.3953,21.6,67,0.0,997.5,7.1,20.2,165,84.1,54.1,3,5,7,0,2026-03-03T16:13:28.932627+05:30
Durgapur,West Bengal,23.5204,87.3119,32.7,21,0.0,997.0,7.65,26.6,88,79.9,28.1,0,5,7,0,2026-03-03T16:13:28.932670+05:30
Asansol,West Bengal,23.6739,86.9524,32.8,21,0.0,995.6,7.65,22.7,84,82.0,27.3,0,5,7,0,2026-03-03T16:13:28.932684+05:30
Pondicherry,Puducherry,11.9139,79.8145,32.2,41,0.0,1009.1,8.85,28.1,108,34.3,30.4,0,0,4,1,2026-03-03T16:13:28.932697+05:30
Port Blair,Andaman and Nicobar Islands,11.6234,92.7265,27.6,74,0.0,1007.4,8.8,15.5,84,38.6,28.2,7,5,4,1,2026-03-03T16:13:28.932708+05:30
Haridwar,Uttarakhand,29.9457,78.1642,29.6,37,0.0,976.0,5.55,22.3,101,54.1,33.3,4,5,3,0,2026-03-03T16:13:28.932719+05:30
Rishikesh,Uttarakhand,30.0869,78.2676,27.6,48,0.0,969.1,5.6,23.8,76,33.2,27.4,4,5,3,0,2026-03-03T16:13:28.932730+05:30
Nainital,Uttarakhand,29.3919,79.4542,19.0,64,0.0,807.8,6.45,54.7,85,51.1,38.4,3,5,7,0,2026-03-03T16:13:28.932742+05:30
Mussoorie,Uttarakhand,30.4599,78.0664,19.7,49,0.0,805.1,5.95,41.8,80,35.0,30.0,0,5,3,0,2026-03-03T16:13:28.932752+05:30
Dharamshala,Himachal Pradesh,32.219,76.3234,23.7,46,0.0,872.1,6.2,23.4,64,13.7,8.4,0,5,7,0,2026-03-03T16:13:28.932763+05:30
Dalhousie,Himachal Pradesh,32.5387,75.971,22.5,32,0.0,807.5,6.4,19.8,89,24.2,18.7,0,5,7,0,2026-03-03T16:13:28.932774+05:30
Patiala,Punjab,30.3398,76.3869,29.5,32,0.0,980.8,5.6,34.2,215,495.5,74.0,4,5,3,0,2026-03-03T16:13:28.932785+05:30
Bhatinda,Punjab,30.211,74.9455,30.8,31,0.0,987.0,6.25,28.1,134,56.5,34.9,0,5,7,0,2026-03-03T16:13:28.932796+05:30
Rohtak,Haryana,28.8955,76.6066,30.4,32,0.0,984.9,5.8,33.8,442,884.8,105.2,0,5,3,0,2026-03-03T16:13:28.932806+05:30
Panipat,Haryana,29.3909,76.9635,30.0,34,0.0,983.1,5.6,37.4,994,1695.0,180.7,4,5,3,0,2026-03-03T16:13:28.932817+05:30
Mathura,Uttar Pradesh,27.4924,77.6737,32.4,23,0.0,989.9,6.1,29.9,519,858.7,91.7,0,5,7,0,2026-03-03T16:13:28.932827+05:30
Vrindavan,Uttar Pradesh,27.5823,77.7027,31.7,25,0.0,990.3,6.05,32.4,519,858.7,91.7,0,5,7,0,2026-03-03T16:13:28.932838+05:30
Ayodhya,Uttar Pradesh,26.7922,82.1998,30.1,35,0.0,998.0,6.45,25.6,142,77.1,44.1,0,5,7,0,2026-03-03T16:13:28.932848+05:30
Ratlam,Madhya Pradesh,23.3315,75.0367,33.2,30,0.0,957.2,7.3,13.0,91,22.9,18.0,0,5,7,0,2026-03-03T16:13:28.932859+05:30
Sagar,Madhya Pradesh,23.8388,78.7378,32.1,26,0.0,953.2,7.25,25.6,63,41.0,16.8,0,5,7,0,2026-03-03T16:13:28.932869+05:30
Satna,Madhya Pradesh,24.6005,80.8322,33.5,19,0.0,973.9,7.2,30.2,73,55.3,23.1,0,5,7,0,2026-03-03T16:13:28.932880+05:30
Akola,Maharashtra,20.7002,77.0082,36.2,25,0.0,976.2,7.8,20.2,77,22.9,19.8,0,5,10,0,2026-03-03T16:13:28.932891+05:30
Amravati,Maharashtra,20.9374,77.7796,35.9,24,0.0,968.6,7.75,16.6,75,22.3,18.3,0,5,10,0,2026-03-03T16:13:28.932903+05:30
Latur,Maharashtra,18.4088,76.5604,33.7,27,0.0,941.1,8.2,31.0,109,24.7,24.0,0,5,7,0,2026-03-03T16:13:28.932914+05:30
Nanded,Maharashtra,19.1383,77.3091,36.1,23,0.0,969.5,8.0,19.4,95,18.0,15.7,0,5,10,0,2026-03-03T16:13:28.932925+05:30
Gulbarga,Karnataka,17.3297,76.8343,35.5,27,0.0,959.1,8.3,17.3,130,31.8,31.1,0,5,10,0,2026-03-03T16:13:28.932935+05:30
Bidar,Karnataka,17.9104,77.5199,34.6,22,0.0,936.7,8.25,19.8,104,23.0,21.8,0,5,7,0,2026-03-03T16:13:28.932945+05:30
Hospet,Karnataka,15.2689,76.3909,35.2,26,0.0,955.8,8.6,25.6,110,38.4,37.5,0,5,10,0,2026-03-03T16:13:28.932955+05:30
Tirupur,Tamil Nadu,11.1085,77.3411,35.6,22,0.0,974.6,9.15,33.8,130,38.6,37.6,0,5,10,0,2026-03-03T16:13:28.932965+05:30
Alappuzha,Kerala,9.4981,76.3388,28.2,79,0.0,1007.6,8.95,30.6,104,33.3,31.0,7,5,4,1,2026-03-03T16:13:28.932976+05:30
Munnar,Kerala,10.0889,77.0595,29.5,33,0.0,858.5,9.45,20.9,103,27.5,26.4,4,5,7,0,2026-03-03T16:13:28.932987+05:30
Silchar,Assam,24.8333,92.7789,29.0,41,0.0,1006.7,7.4,20.2,162,67.5,52.3,4,5,4,0,2026-03-03T16:13:28.932997+05:30
Dibrugarh,Assam,27.4728,94.912,26.5,55,0.0,997.4,7.1,11.2,155,63.1,44.2,4,5,7,1,2026-03-03T16:13:28.933007+05:30
