city,state,latitude,longitude,temp,humidity,rain,pressure,uv_index,wind_gusts,aqi,pm10,pm2_5,no2,co,o3,so2,mosquito_risk,arthritis_risk,migraine_risk,frizz_risk,updated_at
Delhi,Delhi,28.6139,77.209,30.0,80,0.0,976.2,7.0,26.6,136,120.6,62.2,32.8,561.0,116.0,32.8,7,5,7,1,2026-07-07T10:24:09.713802+05:30
Mumbai,Maharashtra,19.076,72.8777,27.0,89,0.4,1002.1,0.95,61.9,42,28.5,14.1,7.5,231.0,49.0,4.1,10,5,0,1,2026-07-07T10:24:09.713863+05:30
Bangalore,Karnataka,12.9716,77.5946,26.2,60,0.0,912.1,7.75,72.4,23,3.2,2.5,5.9,270.0,55.0,3.1,4,5,7,1,2026-07-07T10:24:09.713881+05:30
Hyderabad,Telangana,17.385,78.4867,26.2,79,0.1,948.7,7.3,64.1,23,5.3,3.4,3.0,220.0,56.0,4.1,10,5,7,1,2026-07-07T10:24:09.713891+05:30
Chennai,Tamil Nadu,13.0827,80.2707,34.4,44,0.0,1005.9,8.35,58.0,59,17.8,10.7,6.8,207.0,67.0,8.5,0,5,4,1,2026-07-07T10:24:09.713899+05:30
Kolkata,West Bengal,22.5726,88.3639,29.1,82,0.0,1001.1,8.3,46.4,62,18.1,13.7,3.9,343.0,84.0,7.1,7,5,4,1,2026-07-07T10:24:09.713906+05:30
Pune,Maharashtra,18.5204,73.8567,24.6,91,0.1,941.6,1.55,51.8,22,2.7,2.6,11.2,171.0,36.0,3.1,6,5,3,1,2026-07-07T10:24:09.713913+05:30
Ahmedabad,Gujarat,23.0225,72.5714,28.8,86,0.0,993.6,1.7,30.6,104,54.7,26.8,10.2,252.0,43.0,5.4,7,5,3,1,2026-07-07T10:24:09.713920+05:30
Jaipur,Rajasthan,26.9124,75.7873,28.6,78,0.0,953.4,7.4,22.3,66,33.5,21.2,7.7,333.0,105.0,6.6,7,5,7,1,2026-07-07T10:24:09.713926+05:30
Lucknow,Uttar Pradesh,26.8467,80.9462,30.1,75,0.1,985.5,7.45,51.8,58,11.3,11.1,4.2,279.0,100.0,4.6,6,5,7,1,2026-07-07T10:24:09.713937+05:30
Kanpur,Uttar Pradesh,26.4499,80.3319,29.0,82,0.1,983.2,4.15,47.2,63,98.0,21.3,4.1,259.0,103.0,5.1,10,5,3,1,2026-07-07T10:24:09.713943+05:30
Chandigarh,Chandigarh,30.7333,76.7794,29.0,83,0.1,963.0,7.75,21.2,125,35.7,33.6,6.1,503.0,157.0,16.6,10,5,7,1,2026-07-07T10:24:09.713951+05:30
Srinagar,Jammu and Kashmir,34.0837,74.7973,24.2,69,0.0,839.9,9.1,18.0,79,32.5,26.3,5.7,429.0,137.0,5.2,3,5,7,1,2026-07-07T10:24:09.713958+05:30
Jammu,Jammu and Kashmir,32.7266,74.857,32.8,60,0.0,965.8,8.65,24.1,97,25.8,21.8,7.2,391.0,141.0,4.1,0,5,7,1,2026-07-07T10:24:09.713964+05:30
Amritsar,Punjab,31.634,74.8723,31.7,74,0.0,973.7,8.4,24.8,152,65.0,52.4,7.2,556.0,141.0,14.5,3,5,7,1,2026-07-07T10:24:09.713973+05:30
Ludhiana,Punjab,30.901,75.8573,31.6,74,0.0,971.9,7.15,24.8,150,72.2,53.7,10.5,391.0,143.0,18.4,3,5,7,1,2026-07-07T10:24:09.713981+05:30
Jalandhar,Punjab,31.326,75.5762,30.1,79,0.0,973.1,7.75,28.1,151,51.7,47.0,9.6,343.0,134.0,16.3,3,5,7,1,2026-07-07T10:24:09.713987+05:30
Dehradun,Uttarakhand,30.6284,78.0322,24.4,69,0.1,828.6,5.85,29.2,47,8.6,8.5,2.6,232.0,127.0,1.6,6,5,3,1,2026-07-07T10:24:09.713993+05:30
Shimla,Himachal Pradesh,31.1048,77.1734,20.9,72,0.1,783.6,5.95,28.4,51,14.8,13.9,2.2,256.0,130.0,3.6,6,5,3,0,2026-07-07T10:24:09.713999+05:30
Manali,Himachal Pradesh,32.2396,77.1887,25.9,61,0.0,818.0,9.25,32.8,40,4.0,3.7,8.2,207.0,98.0,1.0,7,5,7,1,2026-07-07T10:24:09.714007+05:30
Gurgaon,Haryana,28.4595,77.0266,30.2,76,0.0,974.7,7.7,28.4,129,293.4,70.8,21.4,476.0,111.0,16.9,3,5,7,1,2026-07-07T10:24:09.714014+05:30
Noida,Uttar Pradesh,28.5355,77.391,30.3,79,0.0,977.7,6.95,27.0,129,293.4,70.8,21.4,435.0,111.0,16.9,3,5,7,1,2026-07-07T10:24:09.714020+05:30
Ghaziabad,Uttar Pradesh,28.6692,77.4538,29.7,83,0.0,976.0,5.85,22.7,136,151.3,65.2,11.8,288.0,152.0,15.4,7,5,3,1,2026-07-07T10:24:09.714026+05:30
Faridabad,Haryana,28.4089,77.3178,30.1,78,0.0,977.0,6.35,24.5,129,293.4,70.8,21.4,372.0,111.0,16.9,3,5,7,1,2026-07-07T10:24:09.714032+05:30
Meerut,Uttar Pradesh,28.9845,77.7064,29.8,83,0.0,974.8,5.8,23.4,136,151.3,65.2,11.8,261.0,152.0,15.4,7,5,3,1,2026-07-07T10:24:09.714038+05:30
Agra,Uttar Pradesh,27.1767,78.0081,29.4,85,0.1,980.2,3.0,34.6,110,39.2,28.1,12.7,326.0,94.0,10.1,10,5,3,1,2026-07-07T10:24:09.714044+05:30
Varanasi,Uttar Pradesh,25.3176,82.9739,28.0,89,0.0,989.2,6.25,36.7,59,12.9,12.9,8.2,483.0,91.0,18.0,7,5,7,1,2026-07-07T10:24:09.714050+05:30
Prayagraj,Uttar Pradesh,25.4358,81.8463,28.5,87,0.1,987.1,6.6,31.7,55,13.3,13.3,5.7,349.0,102.0,12.5,10,5,7,1,2026-07-07T10:24:09.714057+05:30
Gorakhpur,Uttar Pradesh,26.7606,83.3732,31.8,69,0.0,989.8,6.45,50.4,46,8.8,8.8,4.1,235.0,96.0,7.2,3,5,7,1,2026-07-07T10:24:09.714062+05:30
Bareilly,Uttar Pradesh,28.367,79.4304,29.0,84,0.1,980.5,7.4,24.5,137,27.6,25.9,10.1,274.0,111.0,19.2,10,5,7,1,2026-07-07T10:24:09.714070+05:30
Aligarh,Uttar Pradesh,27.8974,78.088,30.0,79,0.0,978.2,4.3,34.9,110,103.4,35.9,6.1,307.0,120.0,8.9,7,5,3,1,2026-07-07T10:24:09.714077+05:30
Moradabad,Uttar Pradesh,28.8386,78.7733,31.8,73,0.0,976.7,5.75,21.6,155,50.4,46.8,8.8,279.0,140.0,16.0,3,5,3,1,2026-07-07T10:24:09.714083+05:30
Saharanpur,Uttar Pradesh,29.9637,77.546,32.2,69,0.0,969.1,6.75,28.4,143,34.3,33.5,6.6,419.0,163.0,10.8,3,5,7,1,2026-07-07T10:24:09.714089+05:30
Jhansi,Uttar Pradesh,25.4484,78.5685,26.2,94,0.6,969.2,6.45,35.6,60,12.7,12.3,6.4,232.0,101.0,7.2,10,5,7,1,2026-07-07T10:24:13.112091+05:30
Surat,Gujarat,21.1702,72.8311,27.0,95,0.1,998.3,2.2,33.1,101,34.5,24.4,26.2,295.0,24.0,46.2,10,5,3,1,2026-07-07T10:24:13.112126+05:30
Vadodara,Gujarat,22.3072,73.1812,29.0,84,0.1,995.9,1.15,30.6,80,34.6,20.6,16.4,347.0,43.0,7.5,10,5,3,1,2026-07-07T10:24:13.112137+05:30
Rajkot,Gujarat,22.3039,70.8022,27.4,95,0.1,986.4,1.0,32.0,84,35.5,16.8,5.9,121.0,53.0,6.3,10,5,3,1,2026-07-07T10:24:13.112146+05:30
Thane,Maharashtra,19.2183,72.9781,26.1,96,0.3,1001.3,0.8,43.2,42,28.5,14.1,7.5,217.0,49.0,4.1,10,5,0,1,2026-07-07T10:24:13.112154+05:30
Nagpur,Maharashtra,21.1458,79.0882,29.0,70,0.1,964.8,6.5,56.2,41,21.0,15.7,12.9,192.0,33.0,16.3,10,5,7,1,2026-07-07T10:24:13.112162+05:30
Nashik,Maharashtra,19.9975,73.7898,24.4,96,0.3,937.1,2.55,49.3,28,5.6,4.3,5.5,176.0,52.0,0.8,6,5,3,1,2026-07-07T10:24:13.112170+05:30
Aurangabad,Maharashtra,19.8762,75.3433,24.0,95,0.7,935.6,2.7,63.4,24,2.9,2.9,5.6,209.0,71.0,3.5,6,5,3,1,2026-07-07T10:24:13.112178+05:30
Solapur,Maharashtra,17.6599,75.9064,27.6,77,0.1,952.3,1.85,73.8,22,2.3,1.8,2.2,122.0,53.0,1.7,10,5,3,1,2026-07-07T10:24:13.112186+05:30
Kolhapur,Maharashtra,16.705,74.2433,24.0,94,0.2,944.0,3.15,57.6,22,4.0,3.2,3.9,141.0,47.0,1.4,6,5,3,1,2026-07-07T10:24:13.112194+05:30
Goa,Goa,15.2993,74.124,25.1,96,0.2,996.9,7.1,47.5,58,53.8,21.5,1.8,182.0,54.0,0.7,10,5,7,1,2026-07-07T10:24:13.112202+05:30
Jodhpur,Rajasthan,26.2389,73.0243,31.7,58,0.0,975.5,7.65,19.8,93,52.4,22.9,3.4,160.0,99.0,2.9,0,5,7,1,2026-07-07T10:24:13.112210+05:30
Udaipur,Rajasthan,24.5854,73.7125,29.4,69,0.0,939.2,8.75,35.6,61,16.5,14.0,4.5,201.0,94.0,5.6,7,5,7,1,2026-07-07T10:24:13.112218+05:30
Kota,Rajasthan,25.2138,75.8648,30.5,73,0.0,970.7,8.25,40.3,72,20.6,19.2,6.6,358.0,94.0,6.5,3,5,7,1,2026-07-07T10:24:13.112226+05:30
Bikaner,Rajasthan,28.0229,73.3119,35.0,46,0.0,974.5,8.45,28.1,91,92.0,32.1,2.1,164.0,88.0,3.7,0,5,7,1,2026-07-07T10:24:13.112234+05:30
Ajmer,Rajasthan,26.4499,74.6399,30.3,66,0.0,948.3,7.5,24.1,60,18.9,14.3,4.3,277.0,106.0,3.9,3,5,7,1,2026-07-07T10:24:13.112242+05:30
Gwalior,Madhya Pradesh,26.2183,78.1828,27.2,92,0.5,975.1,7.5,52.9,72,46.1,28.1,11.2,258.0,77.0,7.3,10,5,7,1,2026-07-07T10:24:13.112250+05:30
Indore,Madhya Pradesh,22.7196,75.8577,27.1,80,0.1,938.9,7.95,30.6,85,10.3,10.2,6.7,366.0,80.0,3.6,10,5,7,1,2026-07-07T10:24:13.112257+05:30
Bhopal,Madhya Pradesh,23.2599,77.4126,27.7,80,0.0,944.2,2.9,19.4,55,5.8,5.8,5.4,262.0,86.0,2.1,7,5,3,1,2026-07-07T10:24:13.112265+05:30
Jabalpur,Madhya Pradesh,23.1815,79.9864,27.3,84,0.0,952.6,5.85,39.2,48,8.4,7.5,6.4,226.0,54.0,6.4,7,5,3,1,2026-07-07T10:24:13.112272+05:30
Ujjain,Madhya Pradesh,23.1765,75.7885,27.5,77,0.1,944.5,6.55,37.1,88,17.1,17.1,6.3,297.0,81.0,5.1,10,5,7,1,2026-07-07T10:24:13.112280+05:30
Visakhapatnam,Andhra Pradesh,17.6868,83.2185,32.0,58,0.0,999.9,9.0,59.4,68,24.7,16.6,11.7,303.0,67.0,29.9,0,5,7,1,2026-07-07T10:24:13.112288+05:30
Vijayawada,Andhra Pradesh,16.5062,80.648,34.0,49,0.0,998.9,6.5,52.9,46,15.7,8.9,3.0,125.0,56.0,4.2,0,5,7,1,2026-07-07T10:24:13.112295+05:30
Guntur,Andhra Pradesh,16.3067,80.4365,34.7,45,0.0,1000.2,6.5,56.9,37,13.7,7.9,2.6,119.0,56.0,3.7,0,5,4,1,2026-07-07T10:24:13.112303+05:30
Nellore,Andhra Pradesh,14.4426,79.9865,34.5,43,0.0,1003.4,8.7,52.6,30,15.1,7.2,3.0,111.0,59.0,2.6,0,5,4,1,2026-07-07T10:24:13.112311+05:30
Kurnool,Andhra Pradesh,15.8281,78.0373,31.2,54,0.0,974.1,4.6,70.2,21,2.9,2.0,2.1,109.0,59.0,3.7,0,5,3,1,2026-07-07T10:24:13.112320+05:30
Kakinada,Andhra Pradesh,16.9891,82.2475,32.6,57,0.0,1004.0,8.25,55.1,62,19.4,10.7,3.5,170.0,58.0,3.8,0,5,4,1,2026-07-07T10:24:13.112327+05:30
Tirupati,Andhra Pradesh,13.6288,79.4192,33.8,44,0.0,989.7,8.45,55.1,32,9.6,5.4,2.7,124.0,62.0,2.0,0,5,7,1,2026-07-07T10:24:13.112335+05:30
Warangal,Telangana,17.9689,79.5941,28.5,72,0.1,974.1,5.9,56.2,32,8.5,5.5,3.1,145.0,52.0,3.7,10,5,3,1,2026-07-07T10:24:13.112342+05:30
Nizamabad,Telangana,18.6725,78.0941,27.0,78,0.0,958.8,5.35,63.4,26,3.0,2.6,2.0,134.0,52.0,1.9,7,5,3,1,2026-07-07T10:24:13.112350+05:30
Mysore,Karnataka,12.2958,76.6396,26.2,65,0.0,929.7,7.55,72.0,24,2.7,1.9,3.7,120.0,55.0,1.6,7,5,7,1,2026-07-07T10:24:13.112357+05:30
Mangalore,Karnataka,12.9141,74.856,25.5,94,0.4,1008.5,8.15,62.3,62,35.2,17.5,4.1,134.0,50.0,1.6,10,0,4,1,2026-07-07T10:24:13.112364+05:30
Hubli-Dharwad,Karnataka,15.3647,75.124,23.0,93,0.2,938.7,7.0,64.4,24,10.2,5.3,2.8,119.0,52.0,0.9,6,5,7,1,2026-07-07T10:24:13.112372+05:30
Belgaum,Karnataka,15.8497,74.4977,23.1,91,0.1,923.0,3.1,62.6,22,4.1,3.0,3.4,119.0,47.0,1.0,6,5,3,1,2026-07-07T10:24:16.496415+05:30
Coimbatore,Tamil Nadu,11.0168,76.9558,28.1,64,0.0,963.4,8.75,75.2,26,14.6,7.7,3.5,165.0,58.0,2.3,7,5,7,1,2026-07-07T10:24:16.496458+05:30
Madurai,Tamil Nadu,9.9252,78.1198,34.4,38,0.0,993.6,8.7,63.4,54,20.4,11.8,3.7,135.0,68.0,3.6,0,5,7,1,2026-07-07T10:24:16.496473+05:30
Trichy,Tamil Nadu,10.7905,78.7047,35.3,37,0.0,1000.0,8.65,75.2,44,20.9,11.4,3.1,122.0,65.0,2.7,0,5,7,1,2026-07-07T10:24:16.496484+05:30
Salem,Tamil Nadu,11.6643,78.146,30.3,59,0.0,978.3,8.35,36.0,50,18.1,11.1,5.4,168.0,65.0,7.6,0,5,7,1,2026-07-07T10:24:16.496494+05:30
Tirunelveli,Tamil Nadu,8.7139,77.7567,34.4,40,0.0,1004.7,8.45,49.7,48,19.1,10.9,2.7,125.0,59.0,1.5,0,5,4,1,2026-07-07T10:24:16.496503+05:30
Vellore,Tamil Nadu,12.9165,79.1325,33.3,43,0.0,983.8,7.95,58.7,32,14.5,7.8,2.7,115.0,64.0,2.4,0,5,7,1,2026-07-07T10:24:16.496513+05:30
Erode,Tamil Nadu,11.341,77.7172,31.7,50,0.0,989.9,8.4,61.2,46,15.3,8.9,3.9,156.0,62.0,2.8,0,5,7,1,2026-07-07T10:24:16.496523+05:30
Kochi,Kerala,9.9312,76.2673,29.3,74,0.0,1012.1,8.25,42.8,62,32.7,18.7,6.8,170.0,59.0,4.2,7,0,4,1,2026-07-07T10:24:16.496532+05:30
Thiruvananthapuram,Kerala,8.5241,76.9366,28.8,78,0.0,1011.2,8.25,48.2,55,23.3,13.2,2.2,115.0,53.0,0.9,7,0,4,1,2026-07-07T10:24:16.496541+05:30
Kozhikode,Kerala,11.2588,75.7804,26.2,94,0.2,1011.6,8.3,37.1,61,42.1,17.9,0.9,202.0,59.0,0.7,10,0,4,1,2026-07-07T10:24:16.496550+05:30
Thrissur,Kerala,10.5276,76.2144,26.5,92,0.2,1010.9,8.55,49.3,57,28.8,16.8,4.3,195.0,55.0,2.4,10,0,4,1,2026-07-07T10:24:16.496560+05:30
Kannur,Kerala,11.8745,75.3704,25.3,94,0.4,1010.0,7.3,51.5,57,26.3,12.8,4.2,155.0,52.0,1.6,10,0,4,1,2026-07-07T10:24:16.496569+05:30
Patna,Bihar,25.5941,85.1376,30.5,73,0.0,993.1,7.95,39.6,51,10.3,10.3,15.1,305.0,52.0,20.2,3,5,7,1,2026-07-07T10:24:16.496577+05:30
Gaya,Bihar,24.7914,85.0002,28.1,87,0.1,986.5,8.2,35.6,52,5.9,5.7,9.4,238.0,48.0,8.2,10,5,7,1,2026-07-07T10:24:16.496587+05:30
Muzaffarpur,Bihar,26.1209,85.3647,29.5,79,0.1,993.7,6.25,48.2,47,10.4,10.4,11.6,256.0,62.0,18.0,10,5,7,1,2026-07-07T10:24:16.496596+05:30
Bhagalpur,Bihar,25.2425,87.0117,31.0,72,0.2,994.5,8.25,42.1,52,19.8,19.6,10.9,304.0,75.0,16.2,6,5,7,1,2026-07-07T10:24:16.496604+05:30
Ranchi,Jharkhand,23.3441,85.3096,25.2,87,0.1,931.8,7.2,51.8,26,5.4,5.1,5.2,168.0,61.0,7.2,10,5,7,1,2026-07-07T10:24:16.496614+05:30
Jamshedpur,Jharkhand,22.8046,86.2029,29.7,72,0.1,985.2,7.85,49.3,52,20.0,18.6,12.1,202.0,70.0,24.9,10,5,7,1,2026-07-07T10:24:16.496622+05:30
Dhanbad,Jharkhand,23.7957,86.4304,28.0,83,0.1,973.5,7.95,47.2,72,28.9,27.9,31.6,701.0,30.0,80.4,10,5,7,1,2026-07-07T10:24:16.496631+05:30
Bokaro,Jharkhand,23.6693,86.1511,29.9,73,0.0,977.2,8.5,48.6,68,17.1,16.4,22.6,232.0,36.0,57.2,7,5,7,1,2026-07-07T10:24:16.496640+05:30
Bhubaneswar,Odisha,20.2961,85.8245,31.3,73,0.0,998.0,8.85,58.7,58,31.8,21.8,2.2,143.0,95.0,3.8,3,5,7,1,2026-07-07T10:24:16.496649+05:30
Cuttack,Odisha,20.4625,85.8828,31.3,72,0.0,999.6,8.75,50.4,58,31.8,21.8,2.2,174.0,95.0,3.8,3,5,7,1,2026-07-07T10:24:16.496658+05:30
Rourkela,Odisha,22.2604,84.8536,29.0,77,0.1,979.5,5.5,47.9,31,13.0,11.6,5.0,251.0,67.0,5.2,10,5,3,1,2026-07-07T10:24:16.496666+05:30
Raipur,Chhattisgarh,21.2514,81.6296,29.8,64,0.0,967.8,7.05,51.1,53,17.0,13.8,11.5,173.0,54.0,30.8,7,5,7,1,2026-07-07T10:24:16.496674+05:30
Bhilai,Chhattisgarh,21.1938,81.3509,29.5,66,0.0,968.0,7.7,51.8,52,15.6,12.8,11.8,289.0,52.0,32.8,7,5,7,1,2026-07-07T10:24:16.496683+05:30
Guwahati,Assam,26.1158,91.7086,28.0,88,0.2,997.6,4.45,21.6,31,7.0,6.7,2.5,180.0,80.0,2.2,10,5,3,1,2026-07-07T10:24:16.496691+05:30
Agartala,Tripura,23.8315,91.2868,27.3,95,0.1,1003.2,5.6,36.4,31,10.9,8.6,4.9,139.0,68.0,2.0,10,5,0,1,2026-07-07T10:24:16.496701+05:30
Shillong,Meghalaya,25.5788,91.8933,23.5,77,0.0,856.0,3.4,36.0,25,3.7,3.5,3.5,133.0,64.0,2.5,3,5,3,1,2026-07-07T10:24:16.496709+05:30
Imphal,Manipur,24.817,93.9368,26.0,81,0.0,921.6,7.45,32.0,19,4.8,3.2,1.7,130.0,61.0,1.3,7,5,7,1,2026-07-07T10:24:16.496718+05:30
Aizawl,Mizoram,23.7271,92.7176,23.0,84,0.0,891.4,2.6,48.2,24,5.3,3.0,1.4,109.0,60.0,0.8,3,5,3,1,2026-07-07T10:24:16.496727+05:30
Kohima,Nagaland,25.6701,94.1077,22.7,90,0.1,854.2,3.35,20.2,20,4.9,3.2,0.8,141.0,69.0,1.0,6,5,3,1,2026-07-07T10:24:16.496736+05:30
Gangtok,Sikkim,27.3314,88.6138,19.7,97,0.1,836.1,1.9,25.6,30,2.1,2.1,1.9,160.0,74.0,1.1,6,10,3,1,2026-07-07T10:24:16.496745+05:30
Siliguri,West Bengal,26.7271,88.3953,27.4,95,0.2,989.2,8.2,31.7,30,7.5,7.3,5.4,278.0,73.0,2.8,10,5,7,1,2026-07-07T10:24:19.880636+05:30
Durgapur,West Bengal,23.5204,87.3119,28.3,87,0.0,989.1,8.7,47.2,69,30.6,29.4,18.8,441.0,59.0,37.8,7,5,7,1,2026-07-07T10:24:19.880671+05:30
Asansol,West Bengal,23.6739,86.9524,28.6,81,0.1,987.5,6.6,47.2,63,26.3,25.3,21.2,293.0,47.0,39.2,10,5,7,1,2026-07-07T10:24:19.880682+05:30
Pondicherry,Puducherry,11.9139,79.8145,33.3,51,0.0,1008.0,8.7,43.6,61,22.6,15.4,7.9,194.0,62.0,10.8,0,0,4,1,2026-07-07T10:24:19.880692+05:30
Port Blair,Andaman and Nicobar Islands,11.6234,92.7265,30.9,66,0.0,1008.9,7.85,41.4,54,27.6,15.8,0.3,96.0,71.0,0.6,3,0,4,1,2026-07-07T10:24:19.880701+05:30
Haridwar,Uttarakhand,29.9457,78.1642,32.6,63,0.0,967.3,6.4,31.3,103,23.1,22.7,0.7,261.0,151.0,7.0,3,5,7,1,2026-07-07T10:24:19.880709+05:30
Rishikesh,Uttarakhand,30.0869,78.2676,32.0,61,0.0,960.2,6.75,30.6,65,17.9,17.7,1.4,273.0,136.0,5.5,3,5,7,1,2026-07-07T10:24:19.880717+05:30
Nainital,Uttarakhand,29.3919,79.4542,22.7,66,0.0,804.3,6.05,29.9,69,20.1,19.5,0.3,250.0,134.0,6.3,3,5,7,0,2026-07-07T10:24:19.880725+05:30
Mussoorie,Uttarakhand,30.4599,78.0664,22.9,69,0.0,802.1,5.85,32.8,73,19.8,19.7,2.2,261.0,154.0,6.6,3,5,3,1,2026-07-07T10:24:19.880733+05:30
Dharamshala,Himachal Pradesh,32.219,76.3234,24.3,83,0.0,865.9,8.45,32.8,35,7.5,6.7,1.2,316.0,118.0,1.0,3,5,7,1,2026-07-07T10:24:19.880740+05:30
Dalhousie,Himachal Pradesh,32.5387,75.971,22.1,78,0.0,803.3,8.7,26.3,58,14.2,13.1,4.1,326.0,152.0,3.3,3,5,7,1,2026-07-07T10:24:19.880748+05:30
Patiala,Punjab,30.3398,76.3869,32.2,71,0.0,971.5,7.55,24.1,137,44.0,39.9,7.6,432.0,133.0,12.3,3,5,7,1,2026-07-07T10:24:19.880756+05:30
Bhatinda,Punjab,30.211,74.9455,34.4,58,0.0,976.2,8.1,22.7,150,237.0,81.7,11.5,454.0,133.0,20.2,0,5,7,1,2026-07-07T10:24:19.880762+05:30
Rohtak,Haryana,28.8955,76.6066,31.7,73,0.0,974.8,5.35,23.0,138,111.8,49.5,25.6,268.0,117.0,23.6,3,5,3,1,2026-07-07T10:24:19.880770+05:30
Panipat,Haryana,29.3909,76.9635,31.3,77,0.1,973.4,5.55,26.3,135,70.3,44.2,21.7,267.0,110.0,23.3,6,5,3,1,2026-07-07T10:24:19.880778+05:30
Mathura,Uttar Pradesh,27.4924,77.6737,28.4,92,0.1,979.5,4.35,24.8,106,177.4,41.0,4.7,326.0,124.0,6.2,10,5,3,1,2026-07-07T10:24:19.880785+05:30
Vrindavan,Uttar Pradesh,27.5823,77.7027,28.4,92,0.2,979.9,4.3,25.9,106,177.4,41.0,4.7,322.0,124.0,6.2,10,5,3,1,2026-07-07T10:24:19.880793+05:30
Ayodhya,Uttar Pradesh,26.7922,82.1998,31.8,69,0.0,987.6,4.65,46.8,53,11.2,11.1,4.2,238.0,98.0,5.2,3,5,3,1,2026-07-07T10:24:19.880800+05:30
Ratlam,Madhya Pradesh,23.3315,75.0367,27.8,78,0.0,945.8,7.1,35.3,84,16.4,16.4,4.7,234.0,94.0,7.1,7,5,7,1,2026-07-07T10:24:19.880807+05:30
Sagar,Madhya Pradesh,23.8388,78.7378,28.7,75,0.1,940.9,4.0,24.1,41,3.6,3.5,4.1,235.0,92.0,1.7,10,5,3,1,2026-07-07T10:24:19.880814+05:30
Satna,Madhya Pradesh,24.6005,80.8322,26.4,93,0.1,961.9,3.8,40.3,50,18.6,18.5,8.8,244.0,81.0,10.6,10,5,3,1,2026-07-07T10:24:19.880821+05:30
Akola,Maharashtra,20.7002,77.0082,27.9,82,0.0,966.4,6.75,48.6,27,7.3,6.7,6.5,219.0,56.0,9.0,7,5,7,1,2026-07-07T10:24:19.880828+05:30
Amravati,Maharashtra,20.9374,77.7796,27.2,84,0.0,958.5,7.25,48.6,30,9.0,7.8,7.0,192.0,46.0,7.0,7,5,7,1,2026-07-07T10:24:19.880836+05:30
Latur,Maharashtra,18.4088,76.5604,28.6,65,0.0,934.0,2.95,67.0,24,2.2,2.1,2.7,134.0,45.0,0.9,7,5,3,1,2026-07-07T10:24:19.880866+05:30
Nanded,Maharashtra,19.1383,77.3091,29.1,68,0.0,961.9,5.6,65.5,30,2.7,2.6,4.5,153.0,46.0,3.3,7,5,3,1,2026-07-07T10:24:19.880874+05:30
Gulbarga,Karnataka,17.3297,76.8343,28.2,68,0.0,954.4,5.0,72.0,21,3.4,2.3,2.3,116.0,56.0,1.9,7,5,3,1,2026-07-07T10:24:19.880881+05:30
Bidar,Karnataka,17.9104,77.5199,26.5,75,0.0,930.7,5.8,69.8,23,3.8,2.7,2.3,117.0,55.0,1.9,7,5,3,1,2026-07-07T10:24:19.880889+05:30
Hospet,Karnataka,15.2689,76.3909,27.5,68,0.0,954.0,6.3,77.8,23,2.8,1.8,2.7,108.0,57.0,1.5,7,5,7,1,2026-07-07T10:24:19.880896+05:30
Tirupur,Tamil Nadu,11.1085,77.3411,29.7,57,0.0,976.2,8.45,74.5,48,18.3,10.7,4.4,144.0,62.0,3.8,4,5,7,1,2026-07-07T10:24:19.880904+05:30
Alappuzha,Kerala,9.4981,76.3388,29.2,75,0.0,1012.0,8.5,42.8,64,32.9,17.7,5.2,91.0,59.0,2.4,7,0,4,1,2026-07-07T10:24:19.880911+05:30
Munnar,Kerala,10.0889,77.0595,17.4,90,0.0,859.0,5.25,62.3,32,6.9,4.0,2.4,99.0,55.0,1.5,3,10,3,0,2026-07-07T10:24:19.880919+05:30
Silchar,Assam,24.8333,92.7789,28.1,88,0.0,1002.7,3.5,31.0,38,13.5,10.2,2.9,172.0,70.0,3.6,7,5,0,1,2026-07-07T10:24:19.880927+05:30
Dibrugarh,Assam,27.4728,94.912,31.4,71,0.0,990.6,1.25,42.1,40,6.4,5.6,2.0,164.0,79.0,1.8,3,5,3,1,2026-07-07T10:24:19.880934+05:30
