city,state,latitude,longitude,temp,humidity,rain,pressure,uv_index,wind_gusts,aqi,pm10,pm2_5,no2,co,o3,so2,mosquito_risk,arthritis_risk,migraine_risk,frizz_risk,updated_at
Delhi,Delhi,28.6139,77.209,37.3,29,0.0,976.2,7.8,50.8,227,393.9,83.6,15.6,330.0,105.0,13.3,0,5,10,1,2026-06-07T19:29:13.958232+05:30
Mumbai,Maharashtra,19.076,72.8777,31.4,69,0.0,1006.0,7.7,38.2,72,54.1,17.9,5.8,161.0,63.0,4.9,3,5,4,1,2026-06-07T19:29:13.958282+05:30
Bangalore,Karnataka,12.9716,77.5946,24.4,76,0.0,911.5,8.2,37.1,32,5.5,5.4,12.5,392.0,52.0,4.0,3,5,7,1,2026-06-07T19:29:13.958298+05:30
Hyderabad,Telangana,17.385,78.4867,31.0,53,0.0,950.8,8.45,44.3,84,44.7,29.7,14.1,313.0,103.0,8.3,0,5,7,1,2026-06-07T19:29:13.958309+05:30
Chennai,Tamil Nadu,13.0827,80.2707,32.7,62,0.0,1004.6,8.6,41.0,54,20.2,14.6,6.4,250.0,93.0,5.9,3,5,4,1,2026-06-07T19:29:13.958317+05:30
Kolkata,West Bengal,22.5726,88.3639,29.0,87,0.0,1001.1,6.6,28.1,130,57.7,54.6,17.6,628.0,70.0,10.9,7,5,4,1,2026-06-07T19:29:13.958326+05:30
Pune,Maharashtra,18.5204,73.8567,28.1,69,0.0,946.5,8.15,46.1,56,28.6,13.8,5.6,141.0,70.0,4.7,7,5,7,1,2026-06-07T19:29:13.958333+05:30
Ahmedabad,Gujarat,23.0225,72.5714,36.4,45,0.0,996.5,8.05,42.5,77,64.7,24.4,4.0,147.0,89.0,4.2,0,5,10,1,2026-06-07T19:29:13.958339+05:30
Jaipur,Rajasthan,26.9124,75.7873,33.9,43,0.0,954.2,8.25,32.0,137,175.1,47.8,8.1,218.0,83.0,5.6,0,5,7,1,2026-06-07T19:29:13.958351+05:30
Lucknow,Uttar Pradesh,26.8467,80.9462,36.5,34,0.0,986.7,8.3,36.4,154,206.3,61.7,6.9,313.0,117.0,6.9,0,5,10,1,2026-06-07T19:29:13.958358+05:30
Kanpur,Uttar Pradesh,26.4499,80.3319,37.6,25,0.0,985.1,8.3,36.0,179,431.2,82.0,7.5,184.0,114.0,6.9,0,5,10,0,2026-06-07T19:29:13.958364+05:30
Chandigarh,Chandigarh,30.7333,76.7794,31.3,43,0.0,962.1,7.8,25.9,178,33.3,28.1,7.9,566.0,167.0,10.7,0,5,7,1,2026-06-07T19:29:13.958372+05:30
Srinagar,Jammu and Kashmir,34.0837,74.7973,22.0,57,0.0,840.9,9.0,28.4,123,12.9,9.7,6.2,467.0,123.0,2.1,0,5,7,0,2026-06-07T19:29:13.958380+05:30
Jammu,Jammu and Kashmir,32.7266,74.857,35.2,25,0.0,966.3,8.6,27.0,150,16.9,11.4,6.4,209.0,144.0,2.8,0,5,10,0,2026-06-07T19:29:13.958387+05:30
Amritsar,Punjab,31.634,74.8723,37.0,21,0.0,973.9,8.45,26.6,176,39.6,28.6,9.8,322.0,170.0,8.8,0,5,10,0,2026-06-07T19:29:13.958393+05:30
Ludhiana,Punjab,30.901,75.8573,36.0,24,0.0,972.0,8.05,34.6,169,40.2,30.3,8.1,257.0,143.0,5.5,0,5,10,0,2026-06-07T19:29:13.958399+05:30
Jalandhar,Punjab,31.326,75.5762,36.4,22,0.0,972.9,8.25,28.8,167,38.4,28.7,10.1,396.0,148.0,5.7,0,5,10,0,2026-06-07T19:29:13.958405+05:30
Dehradun,Uttarakhand,30.6284,78.0322,20.0,71,0.0,827.7,8.3,47.5,127,22.8,15.9,5.3,218.0,150.0,4.6,3,5,7,0,2026-06-07T19:29:13.958414+05:30
Shimla,Himachal Pradesh,31.1048,77.1734,17.9,46,0.0,782.5,8.35,44.3,141,16.9,12.0,3.2,221.0,157.0,4.7,0,5,7,0,2026-06-07T19:29:13.958422+05:30
Manali,Himachal Pradesh,32.2396,77.1887,18.3,64,0.0,816.9,9.35,35.6,137,12.6,10.5,14.6,160.0,145.0,0.5,3,5,7,0,2026-06-07T19:29:13.958429+05:30
Gurgaon,Haryana,28.4595,77.0266,36.4,34,0.0,974.7,7.9,47.2,455,402.3,77.1,15.1,335.0,98.0,10.7,0,5,10,1,2026-06-07T19:29:13.958435+05:30
Noida,Uttar Pradesh,28.5355,77.391,36.1,34,0.0,977.5,7.85,41.0,455,402.3,77.1,15.1,551.0,98.0,10.7,0,5,10,1,2026-06-07T19:29:13.958442+05:30
Ghaziabad,Uttar Pradesh,28.6692,77.4538,33.9,55,0.0,975.6,7.8,41.4,186,276.6,77.8,14.6,301.0,123.0,16.9,0,5,7,1,2026-06-07T19:29:13.958451+05:30
Faridabad,Haryana,28.4089,77.3178,37.6,29,0.0,977.0,7.85,50.4,455,402.3,77.1,15.1,277.0,98.0,10.7,0,5,10,1,2026-06-07T19:29:13.958457+05:30
Meerut,Uttar Pradesh,28.9845,77.7064,34.0,50,0.0,974.4,7.7,35.6,186,276.6,77.8,14.6,294.0,123.0,16.9,0,5,7,1,2026-06-07T19:29:13.958464+05:30
Agra,Uttar Pradesh,27.1767,78.0081,36.8,33,0.0,981.2,8.15,29.2,406,491.7,92.4,17.2,312.0,94.0,8.8,0,5,10,1,2026-06-07T19:29:13.958470+05:30
Varanasi,Uttar Pradesh,25.3176,82.9739,35.4,36,0.0,991.4,8.75,36.0,165,107.1,50.8,14.8,384.0,137.0,12.9,0,5,10,1,2026-06-07T19:29:13.958476+05:30
Prayagraj,Uttar Pradesh,25.4358,81.8463,35.9,42,0.0,989.6,8.7,32.0,164,122.0,48.3,10.3,325.0,129.0,10.2,0,5,10,1,2026-06-07T19:29:13.958483+05:30
Gorakhpur,Uttar Pradesh,26.7606,83.3732,31.8,63,0.0,990.8,8.7,29.9,145,87.5,48.7,15.7,341.0,124.0,11.3,3,5,7,1,2026-06-07T19:29:13.958492+05:30
Bareilly,Uttar Pradesh,28.367,79.4304,33.5,46,0.0,979.7,8.15,41.4,166,75.0,43.2,5.7,284.0,151.0,9.4,0,5,7,1,2026-06-07T19:29:13.958498+05:30
Aligarh,Uttar Pradesh,27.8974,78.088,34.2,49,0.0,978.7,8.0,30.6,391,351.1,80.6,14.8,284.0,115.0,11.2,0,5,7,1,2026-06-07T19:29:13.958505+05:30
Moradabad,Uttar Pradesh,28.8386,78.7733,34.2,47,0.0,976.7,7.95,32.4,193,96.9,52.0,12.3,359.0,123.0,9.2,0,5,7,1,2026-06-07T19:29:13.958511+05:30
Saharanpur,Uttar Pradesh,29.9637,77.546,32.2,53,0.0,968.6,7.55,32.0,176,70.3,41.6,9.7,323.0,143.0,12.0,0,5,7,1,2026-06-07T19:29:13.958517+05:30
Jhansi,Uttar Pradesh,25.4484,78.5685,34.0,45,0.0,972.1,8.5,32.8,98,72.9,30.0,5.0,183.0,99.0,4.5,0,5,7,1,2026-06-07T19:29:17.448504+05:30
Surat,Gujarat,21.1702,72.8311,31.2,74,0.0,1002.8,7.6,45.4,88,41.0,19.7,14.6,220.0,44.0,31.4,3,5,4,1,2026-06-07T19:29:17.448542+05:30
Vadodara,Gujarat,22.3072,73.1812,34.9,50,0.0,999.5,7.4,41.4,87,67.3,30.2,5.2,136.0,96.0,10.3,0,5,7,1,2026-06-07T19:29:17.448552+05:30
Rajkot,Gujarat,22.3039,70.8022,33.0,63,0.0,989.7,7.45,52.6,69,51.9,22.1,2.2,113.0,85.0,4.9,3,5,7,1,2026-06-07T19:29:17.448561+05:30
Thane,Maharashtra,19.2183,72.9781,32.3,62,0.0,1005.3,7.7,41.4,72,54.1,17.9,5.8,146.0,63.0,4.9,3,5,4,1,2026-06-07T19:29:17.448569+05:30
Nagpur,Maharashtra,21.1458,79.0882,37.0,29,0.0,968.8,8.75,42.8,99,80.8,34.2,7.1,197.0,106.0,14.1,0,5,10,1,2026-06-07T19:29:17.448577+05:30
Nashik,Maharashtra,19.9975,73.7898,29.4,59,0.0,943.4,7.9,44.6,64,65.9,21.9,1.5,123.0,67.0,1.1,4,5,7,1,2026-06-07T19:29:17.448585+05:30
Aurangabad,Maharashtra,19.8762,75.3433,34.4,31,0.0,941.2,8.95,41.4,66,64.5,23.6,2.4,147.0,97.0,2.5,0,5,7,0,2026-06-07T19:29:17.448593+05:30
Solapur,Maharashtra,17.6599,75.9064,31.1,54,0.1,954.5,6.3,36.4,64,49.6,24.7,4.1,136.0,102.0,3.9,3,5,7,1,2026-06-07T19:29:17.448601+05:30
Kolhapur,Maharashtra,16.705,74.2433,24.4,85,0.0,947.1,8.25,46.1,34,17.0,9.5,3.4,134.0,70.0,2.0,3,5,7,1,2026-06-07T19:29:17.448609+05:30
Goa,Goa,15.2993,74.124,24.9,97,0.1,998.3,5.1,26.6,41,8.4,5.5,2.0,175.0,62.0,1.0,6,5,3,1,2026-06-07T19:29:17.448618+05:30
Jodhpur,Rajasthan,26.2389,73.0243,37.9,34,0.0,977.0,8.4,37.1,130,300.8,57.7,2.3,141.0,85.0,2.0,0,5,10,1,2026-06-07T19:29:17.448625+05:30
Udaipur,Rajasthan,24.5854,73.7125,33.3,45,0.0,942.8,8.8,34.2,77,55.5,23.2,1.6,134.0,90.0,2.9,0,5,7,1,2026-06-07T19:29:17.448632+05:30
Kota,Rajasthan,25.2138,75.8648,34.9,38,0.0,972.9,8.35,31.0,107,91.5,32.5,5.3,181.0,100.0,5.4,0,5,7,1,2026-06-07T19:29:17.448640+05:30
Bikaner,Rajasthan,28.0229,73.3119,39.3,20,0.0,974.9,8.45,32.4,131,140.6,47.8,1.6,159.0,92.0,2.6,0,5,10,0,2026-06-07T19:29:17.448647+05:30
Ajmer,Rajasthan,26.4499,74.6399,33.8,36,0.0,949.5,8.35,37.4,93,133.6,37.5,3.1,153.0,90.0,3.2,0,5,7,1,2026-06-07T19:29:17.448655+05:30
Gwalior,Madhya Pradesh,26.2183,78.1828,36.4,30,0.0,977.1,8.3,34.6,105,115.3,36.8,5.2,143.0,103.0,3.7,0,5,10,0,2026-06-07T19:29:17.448662+05:30
Indore,Madhya Pradesh,22.7196,75.8577,33.1,46,0.0,944.4,8.65,34.9,95,63.8,29.0,3.5,257.0,99.0,5.1,0,5,7,1,2026-06-07T19:29:17.448669+05:30
Bhopal,Madhya Pradesh,23.2599,77.4126,30.6,61,0.0,950.0,8.7,51.5,105,56.7,29.9,5.3,283.0,92.0,4.5,3,5,7,1,2026-06-07T19:29:17.448677+05:30
Jabalpur,Madhya Pradesh,23.1815,79.9864,33.3,49,0.0,957.0,8.9,29.9,112,92.7,39.0,4.4,191.0,99.0,3.7,0,5,7,1,2026-06-07T19:29:17.448683+05:30
Ujjain,Madhya Pradesh,23.1765,75.7885,32.6,53,0.0,949.6,8.6,34.9,90,59.1,27.7,2.0,206.0,100.0,4.8,0,5,7,1,2026-06-07T19:29:17.448691+05:30
Visakhapatnam,Andhra Pradesh,17.6868,83.2185,32.5,77,0.0,998.6,8.2,41.0,161,48.9,39.2,21.7,289.0,141.0,46.1,3,5,7,1,2026-06-07T19:29:17.448698+05:30
Vijayawada,Andhra Pradesh,16.5062,80.648,35.8,43,0.0,998.1,8.0,37.8,91,44.2,33.6,7.0,201.0,102.0,5.3,0,5,10,1,2026-06-07T19:29:17.448705+05:30
Guntur,Andhra Pradesh,16.3067,80.4365,35.0,46,0.0,999.5,8.2,43.2,88,50.1,35.6,6.2,200.0,110.0,5.0,0,5,7,1,2026-06-07T19:29:17.448712+05:30
Nellore,Andhra Pradesh,14.4426,79.9865,30.5,75,0.1,1003.3,8.1,37.4,78,20.1,15.3,2.8,194.0,115.0,4.0,6,5,4,1,2026-06-07T19:29:17.448720+05:30
Kurnool,Andhra Pradesh,15.8281,78.0373,31.9,54,0.0,974.5,7.95,48.6,80,48.5,28.7,5.2,175.0,123.0,10.0,0,5,7,1,2026-06-07T19:29:17.448727+05:30
Kakinada,Andhra Pradesh,16.9891,82.2475,34.0,57,0.0,1002.5,7.95,38.9,142,36.2,27.2,3.1,259.0,137.0,4.2,0,5,4,1,2026-06-07T19:29:17.448734+05:30
Tirupati,Andhra Pradesh,13.6288,79.4192,30.3,69,0.0,988.7,8.25,36.7,43,17.1,14.6,9.9,213.0,70.0,2.1,3,5,7,1,2026-06-07T19:29:17.448741+05:30
Warangal,Telangana,17.9689,79.5941,34.2,50,0.0,974.4,7.75,40.3,103,74.7,48.2,5.4,278.0,112.0,6.9,0,5,7,1,2026-06-07T19:29:17.448747+05:30
Nizamabad,Telangana,18.6725,78.0941,27.9,78,0.1,962.3,8.7,47.9,90,50.3,27.8,4.4,213.0,101.0,4.2,10,5,7,1,2026-06-07T19:29:17.448754+05:30
Mysore,Karnataka,12.2958,76.6396,24.0,79,0.0,928.6,7.85,44.6,29,3.9,3.7,7.7,158.0,49.0,1.6,3,5,7,1,2026-06-07T19:29:17.448760+05:30
Mangalore,Karnataka,12.9141,74.856,25.2,95,0.1,1007.8,2.25,28.8,26,9.8,6.3,5.2,221.0,47.0,1.5,10,5,0,1,2026-06-07T19:29:17.448767+05:30
Hubli-Dharwad,Karnataka,15.3647,75.124,22.4,97,0.4,940.3,4.85,37.1,33,10.7,6.0,3.4,141.0,65.0,1.1,6,5,3,1,2026-06-07T19:29:17.448774+05:30
Belgaum,Karnataka,15.8497,74.4977,21.5,98,0.2,925.1,5.9,42.1,27,13.2,7.4,3.6,146.0,58.0,1.6,6,5,3,1,2026-06-07T19:29:20.762386+05:30
Coimbatore,Tamil Nadu,11.0168,76.9558,24.5,89,0.0,961.9,7.4,58.7,27,2.2,1.9,4.1,197.0,50.0,1.6,3,5,7,1,2026-06-07T19:29:20.762422+05:30
Madurai,Tamil Nadu,9.9252,78.1198,30.8,55,0.0,992.6,8.65,71.6,32,3.1,2.4,3.2,116.0,62.0,1.5,0,5,7,1,2026-06-07T19:29:20.762435+05:30
Trichy,Tamil Nadu,10.7905,78.7047,32.7,51,0.0,998.5,8.0,47.2,38,9.3,7.7,6.6,160.0,62.0,2.5,0,5,7,1,2026-06-07T19:29:20.762445+05:30
Salem,Tamil Nadu,11.6643,78.146,29.5,62,0.0,976.9,8.6,40.0,39,4.5,4.0,5.9,155.0,69.0,4.2,7,5,7,1,2026-06-07T19:29:20.762454+05:30
Tirunelveli,Tamil Nadu,8.7139,77.7567,29.5,66,0.0,1003.9,8.0,54.4,25,6.8,4.7,3.1,112.0,48.0,0.7,7,5,4,1,2026-06-07T19:29:20.762462+05:30
Vellore,Tamil Nadu,12.9165,79.1325,31.0,58,0.0,982.5,7.65,44.3,41,8.4,7.9,8.3,277.0,69.0,2.7,0,5,7,1,2026-06-07T19:29:20.762470+05:30
Erode,Tamil Nadu,11.341,77.7172,28.0,69,0.0,988.6,7.85,53.3,34,3.5,3.0,4.1,160.0,61.0,1.7,7,5,7,1,2026-06-07T19:29:20.762478+05:30
Kochi,Kerala,9.9312,76.2673,25.8,91,0.2,1010.8,6.45,48.2,39,11.2,7.5,7.4,114.0,38.0,2.2,10,0,4,1,2026-06-07T19:29:20.762486+05:30
Thiruvananthapuram,Kerala,8.5241,76.9366,25.6,92,0.0,1010.4,7.4,49.3,30,13.1,7.0,1.2,97.0,52.0,0.3,7,0,4,1,2026-06-07T19:29:20.762494+05:30
Kozhikode,Kerala,11.2588,75.7804,24.9,97,0.1,1009.5,5.45,37.1,28,8.1,4.3,0.7,192.0,58.0,0.3,6,0,0,1,2026-06-07T19:29:20.762501+05:30
Thrissur,Kerala,10.5276,76.2144,24.6,98,0.2,1009.1,4.6,39.2,38,9.4,6.8,6.0,150.0,40.0,1.8,6,0,0,1,2026-06-07T19:29:20.762509+05:30
Kannur,Kerala,11.8745,75.3704,25.3,95,0.2,1008.5,1.5,42.1,27,8.3,5.2,4.8,211.0,54.0,1.2,10,0,0,1,2026-06-07T19:29:20.762517+05:30
Patna,Bihar,25.5941,85.1376,30.9,72,0.0,994.3,8.7,30.2,180,98.7,71.0,20.9,422.0,126.0,13.2,3,5,7,1,2026-06-07T19:29:20.762524+05:30
Gaya,Bihar,24.7914,85.0002,32.2,58,0.0,987.9,8.65,27.0,155,100.8,71.2,18.6,424.0,104.0,10.5,0,5,7,1,2026-06-07T19:29:20.762531+05:30
Muzaffarpur,Bihar,26.1209,85.3647,30.8,73,0.0,994.3,8.6,27.0,174,96.6,71.9,17.6,437.0,127.0,12.3,3,5,7,1,2026-06-07T19:29:20.762539+05:30
Bhagalpur,Bihar,25.2425,87.0117,32.2,70,0.0,995.1,8.85,22.0,184,78.9,61.0,9.8,325.0,150.0,13.7,3,5,7,1,2026-06-07T19:29:20.762546+05:30
Ranchi,Jharkhand,23.3441,85.3096,27.8,65,0.0,933.6,9.15,43.6,150,97.8,57.0,11.5,279.0,153.0,12.6,7,5,7,1,2026-06-07T19:29:20.762553+05:30
Jamshedpur,Jharkhand,22.8046,86.2029,30.7,72,0.0,985.9,9.05,38.9,196,69.8,63.1,12.0,420.0,140.0,19.7,3,5,7,1,2026-06-07T19:29:20.762560+05:30
Dhanbad,Jharkhand,23.7957,86.4304,32.0,60,0.0,975.1,8.4,34.6,177,91.0,76.8,28.1,352.0,142.0,68.1,0,5,7,1,2026-06-07T19:29:20.762567+05:30
Bokaro,Jharkhand,23.6693,86.1511,30.7,67,0.0,978.4,8.55,37.8,166,112.0,78.0,25.9,712.0,136.0,63.5,3,5,7,1,2026-06-07T19:29:20.762574+05:30
Bhubaneswar,Odisha,20.2961,85.8245,28.2,93,0.0,997.8,9.1,32.4,129,48.0,39.7,12.8,327.0,92.0,7.5,7,5,7,1,2026-06-07T19:29:20.762581+05:30
Cuttack,Odisha,20.4625,85.8828,29.5,87,0.0,999.3,9.15,22.0,129,48.0,39.7,12.8,375.0,92.0,7.5,7,5,7,1,2026-06-07T19:29:20.762588+05:30
Rourkela,Odisha,22.2604,84.8536,31.6,61,0.0,979.6,9.0,34.9,151,125.3,61.5,11.0,427.0,115.0,9.2,3,5,7,1,2026-06-07T19:29:20.762594+05:30
Raipur,Chhattisgarh,21.2514,81.6296,38.1,26,0.0,969.8,8.7,37.8,139,66.6,38.3,16.6,216.0,127.0,36.7,0,5,10,0,2026-06-07T19:29:20.762601+05:30
Bhilai,Chhattisgarh,21.1938,81.3509,36.2,31,0.0,970.1,8.5,31.0,142,67.5,39.3,15.3,176.0,111.0,29.0,0,5,10,1,2026-06-07T19:29:20.762607+05:30
Guwahati,Assam,26.1158,91.7086,29.3,77,0.0,996.0,8.8,31.7,126,41.7,38.4,6.1,358.0,94.0,4.0,7,5,7,1,2026-06-07T19:29:20.762614+05:30
Agartala,Tripura,23.8315,91.2868,28.4,86,0.0,1002.0,8.6,31.0,130,31.2,29.4,13.1,206.0,85.0,5.2,7,5,4,1,2026-06-07T19:29:20.762620+05:30
Shillong,Meghalaya,25.5788,91.8933,20.0,91,0.0,854.4,8.6,23.4,98,14.0,13.0,4.7,284.0,106.0,2.8,3,5,7,1,2026-06-07T19:29:20.762627+05:30
Imphal,Manipur,24.817,93.9368,25.2,78,0.0,919.7,8.5,31.3,79,15.3,14.6,6.9,258.0,72.0,2.3,7,5,7,1,2026-06-07T19:29:20.762634+05:30
Aizawl,Mizoram,23.7271,92.7176,20.7,93,0.0,889.8,9.05,33.1,84,24.9,21.1,3.2,174.0,75.0,1.3,3,5,7,1,2026-06-07T19:29:20.762641+05:30
Kohima,Nagaland,25.6701,94.1077,19.8,95,0.0,852.4,9.2,25.2,78,18.1,16.1,3.5,275.0,85.0,1.4,3,10,7,1,2026-06-07T19:29:20.762649+05:30
Gangtok,Sikkim,27.3314,88.6138,18.1,93,0.2,834.6,9.0,38.2,95,28.4,25.3,5.2,353.0,115.0,1.9,6,10,7,1,2026-06-07T19:29:20.762656+05:30
Siliguri,West Bengal,26.7271,88.3953,27.6,88,0.0,987.6,8.7,23.4,135,38.8,34.7,6.8,603.0,139.0,5.9,7,5,7,1,2026-06-07T19:29:24.159840+05:30
Durgapur,West Bengal,23.5204,87.3119,30.3,80,0.0,990.0,8.95,41.4,196,90.1,85.4,31.6,514.0,118.0,47.5,3,5,7,1,2026-06-07T19:29:24.159876+05:30
Asansol,West Bengal,23.6739,86.9524,30.6,71,0.0,988.5,8.9,37.4,188,89.6,84.8,32.5,615.0,133.0,49.5,3,5,7,1,2026-06-07T19:29:24.159887+05:30
Pondicherry,Puducherry,11.9139,79.8145,31.6,61,0.0,1006.1,7.85,44.3,48,15.7,11.5,6.7,196.0,76.0,5.5,3,5,4,1,2026-06-07T19:29:24.159896+05:30
Port Blair,Andaman and Nicobar Islands,11.6234,92.7265,27.9,90,0.0,1007.8,7.0,38.2,24,10.2,5.9,0.4,94.0,46.0,0.4,7,5,4,1,2026-06-07T19:29:24.159903+05:30
Haridwar,Uttarakhand,29.9457,78.1642,31.5,59,0.0,967.2,7.6,32.4,166,47.4,34.9,5.8,329.0,158.0,11.1,0,5,7,1,2026-06-07T19:29:24.159911+05:30
Rishikesh,Uttarakhand,30.0869,78.2676,30.5,58,0.0,960.2,7.7,37.1,152,40.3,29.4,3.2,284.0,161.0,8.7,0,5,7,1,2026-06-07T19:29:24.159918+05:30
Nainital,Uttarakhand,29.3919,79.4542,17.9,72,0.0,802.7,8.6,37.8,152,47.3,30.6,3.8,249.0,150.0,7.1,3,5,7,0,2026-06-07T19:29:24.159925+05:30
Mussoorie,Uttarakhand,30.4599,78.0664,17.6,75,0.0,800.4,8.15,46.8,161,41.2,29.8,5.1,239.0,162.0,8.7,3,5,7,0,2026-06-07T19:29:24.159933+05:30
Dharamshala,Himachal Pradesh,32.219,76.3234,23.2,47,0.0,865.8,8.5,38.2,123,16.4,12.6,2.9,201.0,132.0,1.6,0,5,7,0,2026-06-07T19:29:24.159940+05:30
Dalhousie,Himachal Pradesh,32.5387,75.971,18.9,53,0.0,802.6,8.75,42.8,148,23.2,16.9,7.1,221.0,148.0,3.1,0,5,7,0,2026-06-07T19:29:24.159947+05:30
Patiala,Punjab,30.3398,76.3869,34.9,34,0.0,971.3,7.7,29.2,161,114.3,43.3,6.2,300.0,146.0,7.6,0,5,7,1,2026-06-07T19:29:24.159954+05:30
Bhatinda,Punjab,30.211,74.9455,36.5,28,0.0,976.9,8.3,22.0,165,59.5,32.1,10.2,274.0,137.0,10.7,0,5,10,0,2026-06-07T19:29:24.159961+05:30
Rohtak,Haryana,28.8955,76.6066,35.1,38,0.0,974.5,7.8,43.9,279,350.2,71.7,10.8,325.0,101.0,6.8,0,5,10,1,2026-06-07T19:29:24.159968+05:30
Panipat,Haryana,29.3909,76.9635,33.8,46,0.0,973.3,7.65,32.8,572,486.2,95.2,10.1,234.0,109.0,11.2,0,5,7,1,2026-06-07T19:29:24.159975+05:30
Mathura,Uttar Pradesh,27.4924,77.6737,34.3,51,0.0,980.0,8.1,27.0,288,220.3,56.9,19.0,395.0,81.0,5.0,0,5,7,1,2026-06-07T19:29:24.159982+05:30
Vrindavan,Uttar Pradesh,27.5823,77.7027,34.6,50,0.0,980.3,8.05,25.9,288,220.3,56.9,19.0,336.0,81.0,5.0,0,5,7,1,2026-06-07T19:29:24.159989+05:30
Ayodhya,Uttar Pradesh,26.7922,82.1998,32.6,58,0.0,988.6,8.4,27.0,150,99.0,45.3,10.4,411.0,115.0,8.1,0,5,7,1,2026-06-07T19:29:24.159996+05:30
Ratlam,Madhya Pradesh,23.3315,75.0367,33.3,48,0.0,950.9,8.5,38.5,87,59.8,27.6,1.3,142.0,100.0,4.5,0,5,7,1,2026-06-07T19:29:24.160003+05:30
Sagar,Madhya Pradesh,23.8388,78.7378,32.5,39,0.0,945.9,8.2,38.2,99,76.6,29.5,3.8,148.0,99.0,3.6,0,5,7,1,2026-06-07T19:29:24.160009+05:30
Satna,Madhya Pradesh,24.6005,80.8322,34.3,35,0.0,966.0,8.8,35.6,132,80.3,33.3,3.9,173.0,100.0,2.6,0,5,7,1,2026-06-07T19:29:24.160016+05:30
Akola,Maharashtra,20.7002,77.0082,33.9,45,0.0,970.9,8.8,38.5,89,69.8,29.7,3.7,166.0,102.0,5.7,0,5,7,1,2026-06-07T19:29:24.160023+05:30
Amravati,Maharashtra,20.9374,77.7796,33.5,44,0.0,963.8,8.85,55.4,98,70.1,30.9,3.8,213.0,105.0,6.5,0,5,7,1,2026-06-07T19:29:24.160031+05:30
Latur,Maharashtra,18.4088,76.5604,32.0,52,0.0,937.0,8.4,46.1,79,51.8,25.6,8.1,194.0,94.0,4.4,0,5,7,1,2026-06-07T19:29:24.160039+05:30
Nanded,Maharashtra,19.1383,77.3091,29.2,67,0.0,965.1,8.9,40.0,87,64.3,29.9,5.0,191.0,97.0,3.4,7,5,7,1,2026-06-07T19:29:24.160045+05:30
Gulbarga,Karnataka,17.3297,76.8343,27.3,87,0.1,956.0,8.7,48.6,63,36.6,21.2,8.8,274.0,96.0,5.1,10,5,7,1,2026-06-07T19:29:24.160052+05:30
Bidar,Karnataka,17.9104,77.5199,28.3,70,0.0,933.2,8.95,42.8,86,47.7,28.4,12.3,178.0,95.0,7.2,7,5,7,1,2026-06-07T19:29:24.160059+05:30
Hospet,Karnataka,15.2689,76.3909,25.5,82,0.0,955.3,8.35,39.2,43,16.4,11.4,5.6,182.0,82.0,1.7,7,5,7,1,2026-06-07T19:29:24.160065+05:30
Tirupur,Tamil Nadu,11.1085,77.3411,26.0,81,0.0,975.1,8.55,63.0,33,4.0,3.4,4.8,155.0,58.0,2.3,7,5,7,1,2026-06-07T19:29:24.160071+05:30
Alappuzha,Kerala,9.4981,76.3388,26.1,91,0.4,1010.8,7.3,48.2,34,12.1,6.8,3.1,85.0,50.0,0.9,10,0,4,1,2026-06-07T19:29:24.160077+05:30
Munnar,Kerala,10.0889,77.0595,17.3,100,0.5,857.1,4.3,47.5,25,3.0,2.6,4.2,116.0,46.0,1.2,6,10,3,1,2026-06-07T19:29:24.160084+05:30
Silchar,Assam,24.8333,92.7789,27.5,93,0.1,1000.9,8.1,21.2,100,43.2,37.4,4.7,280.0,107.0,5.4,10,5,4,1,2026-06-07T19:29:24.160091+05:30
Dibrugarh,Assam,27.4728,94.912,27.8,88,0.0,990.1,8.6,21.2,85,41.0,37.7,8.9,307.0,91.0,2.4,7,5,7,1,2026-06-07T19:29:24.160097+05:30
