city,state,latitude,longitude,temp,humidity,rain,pressure,uv_index,wind_gusts,aqi,pm10,pm2_5,no2,co,o3,so2,mosquito_risk,arthritis_risk,migraine_risk,frizz_risk,updated_at
Delhi,Delhi,28.6139,77.209,33.3,19,0.0,978.1,7.75,34.9,697,482.4,106.9,23.3,270.0,52.0,9.8,0,5,7,0,2026-05-22T02:23:46.173691+05:30
Mumbai,Maharashtra,19.076,72.8777,29.9,76,0.0,1006.8,7.45,34.2,54,21.4,13.6,10.3,182.0,41.0,7.4,7,5,4,1,2026-05-22T02:23:46.173737+05:30
Bangalore,Karnataka,12.9716,77.5946,22.8,91,0.4,911.3,6.3,33.1,43,8.3,7.9,17.5,310.0,44.0,4.6,6,5,7,1,2026-05-22T02:23:46.173753+05:30
Hyderabad,Telangana,17.385,78.4867,31.5,47,0.0,950.0,8.75,45.7,102,48.4,36.8,14.3,363.0,90.0,10.5,0,5,7,1,2026-05-22T02:23:46.173764+05:30
Chennai,Tamil Nadu,13.0827,80.2707,27.7,90,0.2,1003.6,9.05,40.3,74,21.5,18.0,15.0,308.0,63.0,10.1,10,5,4,1,2026-05-22T02:23:46.173773+05:30
Kolkata,West Bengal,22.5726,88.3639,29.3,94,0.0,1001.8,8.95,29.2,117,41.8,35.0,6.1,373.0,79.0,5.2,7,5,4,1,2026-05-22T02:23:46.173781+05:30
Pune,Maharashtra,18.5204,73.8567,25.9,83,0.0,947.0,8.45,47.2,58,17.9,13.7,11.5,188.0,59.0,12.7,7,5,7,1,2026-05-22T02:23:46.173787+05:30
Ahmedabad,Gujarat,23.0225,72.5714,32.8,39,0.0,999.5,8.2,35.6,74,31.8,20.1,8.4,163.0,59.0,4.7,0,5,7,1,2026-05-22T02:23:46.173794+05:30
Jaipur,Rajasthan,26.9124,75.7873,31.6,23,0.0,957.0,8.25,41.4,175,303.6,61.0,7.7,208.0,62.0,4.8,0,5,7,0,2026-05-22T02:23:46.173805+05:30
Lucknow,Uttar Pradesh,26.8467,80.9462,32.5,38,0.0,988.2,8.25,32.8,261,283.1,85.9,17.6,401.0,52.0,7.6,0,5,7,1,2026-05-22T02:23:46.173812+05:30
Kanpur,Uttar Pradesh,26.4499,80.3319,33.5,29,0.0,986.6,8.25,39.6,423,364.1,68.0,13.4,231.0,54.0,6.2,0,5,7,0,2026-05-22T02:23:46.173819+05:30
Chandigarh,Chandigarh,30.7333,76.7794,28.3,36,0.0,962.6,7.75,50.4,94,52.4,31.7,19.0,381.0,68.0,13.4,4,5,7,0,2026-05-22T02:23:46.173826+05:30
Srinagar,Jammu and Kashmir,34.0837,74.7973,12.9,98,0.0,842.9,8.95,37.1,67,44.7,25.1,28.5,503.0,36.0,3.0,3,10,7,0,2026-05-22T02:23:46.173833+05:30
Jammu,Jammu and Kashmir,32.7266,74.857,27.8,40,0.0,969.1,8.55,45.0,83,63.1,32.9,26.3,275.0,32.0,3.3,4,5,7,0,2026-05-22T02:23:46.173839+05:30
Amritsar,Punjab,31.634,74.8723,29.9,36,0.0,976.2,8.45,45.4,94,54.7,28.7,10.4,274.0,85.0,7.0,4,5,7,0,2026-05-22T02:23:46.173845+05:30
Ludhiana,Punjab,30.901,75.8573,29.7,36,0.0,972.7,8.0,32.8,119,41.4,25.7,12.1,644.0,65.0,5.9,4,5,7,0,2026-05-22T02:23:46.173851+05:30
Jalandhar,Punjab,31.326,75.5762,29.5,31,0.0,974.4,7.7,34.2,101,69.6,34.2,14.1,368.0,62.0,6.2,4,5,7,0,2026-05-22T02:23:46.173859+05:30
Dehradun,Uttarakhand,30.6284,78.0322,16.4,59,0.0,826.8,8.2,42.8,71,40.5,23.2,32.8,242.0,26.0,2.5,0,5,7,0,2026-05-22T02:23:46.173865+05:30
Shimla,Himachal Pradesh,31.1048,77.1734,15.6,40,0.0,782.3,8.3,45.7,71,60.1,26.6,20.7,215.0,80.0,7.7,0,5,7,0,2026-05-22T02:23:46.173873+05:30
Manali,Himachal Pradesh,32.2396,77.1887,11.9,66,0.0,816.1,7.75,50.4,39,6.7,3.5,36.9,207.0,75.0,0.0,3,5,7,0,2026-05-22T02:23:46.173879+05:30
Gurgaon,Haryana,28.4595,77.0266,31.1,21,0.0,976.6,7.85,35.3,1918,1929.7,285.9,19.3,283.0,61.0,8.9,0,5,7,0,2026-05-22T02:23:46.173888+05:30
Noida,Uttar Pradesh,28.5355,77.391,33.5,19,0.0,979.3,7.8,30.6,1918,1929.7,285.9,19.3,339.0,61.0,8.9,0,5,7,0,2026-05-22T02:23:46.173894+05:30
Ghaziabad,Uttar Pradesh,28.6692,77.4538,33.3,20,0.0,977.6,7.75,31.3,624,391.2,99.4,26.2,362.0,49.0,14.8,0,5,7,0,2026-05-22T02:23:46.173900+05:30
Faridabad,Haryana,28.4089,77.3178,33.2,19,0.0,978.7,7.85,38.5,1918,1929.7,285.9,19.3,292.0,61.0,8.9,0,5,7,0,2026-05-22T02:23:46.173906+05:30
Meerut,Uttar Pradesh,28.9845,77.7064,32.6,24,0.0,976.3,7.65,29.2,624,391.2,99.4,26.2,291.0,49.0,14.8,0,5,7,0,2026-05-22T02:23:46.173912+05:30
Agra,Uttar Pradesh,27.1767,78.0081,32.4,20,0.0,982.9,8.1,41.0,914,1400.7,179.7,10.0,212.0,67.0,5.1,0,5,7,0,2026-05-22T02:23:46.173917+05:30
Varanasi,Uttar Pradesh,25.3176,82.9739,31.2,74,0.0,992.7,8.75,34.2,142,50.6,28.1,23.8,647.0,43.0,8.8,3,5,7,1,2026-05-22T02:23:46.173924+05:30
Prayagraj,Uttar Pradesh,25.4358,81.8463,32.5,27,0.0,990.5,8.65,37.8,151,97.3,42.7,26.9,222.0,37.0,7.5,0,5,7,0,2026-05-22T02:23:46.173930+05:30
Gorakhpur,Uttar Pradesh,26.7606,83.3732,29.4,76,0.0,993.3,8.65,32.0,160,71.9,58.3,10.6,494.0,95.0,8.4,7,5,7,1,2026-05-22T02:23:46.173938+05:30
Bareilly,Uttar Pradesh,28.367,79.4304,28.4,61,0.0,981.3,8.05,23.8,189,471.2,134.1,31.3,471.0,50.0,12.2,7,5,7,1,2026-05-22T02:23:46.173943+05:30
Aligarh,Uttar Pradesh,27.8974,78.088,31.0,29,0.0,980.4,7.9,30.6,1130,711.5,135.0,21.1,235.0,47.0,6.9,0,5,7,0,2026-05-22T02:23:46.173949+05:30
Moradabad,Uttar Pradesh,28.8386,78.7733,30.9,39,0.0,978.2,7.9,26.3,234,363.2,133.2,45.3,455.0,23.0,17.0,0,5,7,0,2026-05-22T02:23:46.173955+05:30
Saharanpur,Uttar Pradesh,29.9637,77.546,29.8,32,0.0,970.0,7.4,45.4,155,55.5,34.3,18.5,324.0,76.0,12.5,4,5,7,0,2026-05-22T02:23:46.173961+05:30
Jhansi,Uttar Pradesh,25.4484,78.5685,31.7,18,0.0,973.9,8.5,45.0,61,25.8,14.6,4.2,152.0,71.0,1.5,0,5,7,0,2026-05-22T02:23:49.443641+05:30
Surat,Gujarat,21.1702,72.8311,28.9,85,0.0,1004.6,7.75,40.3,77,28.2,18.9,23.3,341.0,28.0,39.2,7,5,4,1,2026-05-22T02:23:49.443675+05:30
Vadodara,Gujarat,22.3072,73.1812,30.6,61,0.0,1001.8,8.15,40.7,81,31.3,17.5,17.9,148.0,38.0,21.5,3,5,4,1,2026-05-22T02:23:49.443685+05:30
Rajkot,Gujarat,22.3039,70.8022,28.5,71,0.0,992.2,7.75,43.6,69,38.8,20.1,6.5,136.0,48.0,6.5,7,5,7,1,2026-05-22T02:23:49.443694+05:30
Thane,Maharashtra,19.2183,72.9781,29.8,76,0.0,1006.2,7.7,31.7,54,21.4,13.6,10.3,200.0,41.0,7.4,7,5,4,1,2026-05-22T02:23:49.443701+05:30
Nagpur,Maharashtra,21.1458,79.0882,35.6,24,0.0,968.5,8.95,46.4,73,34.9,26.4,12.7,255.0,68.0,9.1,0,5,10,0,2026-05-22T02:23:49.443710+05:30
Nashik,Maharashtra,19.9975,73.7898,25.8,77,0.0,944.1,8.15,34.2,50,15.4,8.8,6.2,165.0,41.0,2.3,7,5,7,1,2026-05-22T02:23:49.443716+05:30
Aurangabad,Maharashtra,19.8762,75.3433,30.5,51,0.0,942.2,8.3,49.7,66,26.4,17.7,8.7,175.0,61.0,6.2,0,5,7,1,2026-05-22T02:23:49.443723+05:30
Solapur,Maharashtra,17.6599,75.9064,30.2,58,0.0,955.3,8.8,37.1,79,21.0,16.9,8.0,210.0,66.0,4.1,0,5,7,1,2026-05-22T02:23:49.443731+05:30
Kolhapur,Maharashtra,16.705,74.2433,24.6,88,0.0,947.1,8.35,42.8,55,14.0,10.8,7.1,187.0,51.0,2.9,3,5,7,1,2026-05-22T02:23:49.443738+05:30
Goa,Goa,15.2993,74.124,26.9,90,0.0,996.8,6.85,30.2,46,21.0,17.0,8.8,429.0,48.0,1.7,7,5,7,1,2026-05-22T02:23:49.443745+05:30
Jodhpur,Rajasthan,26.2389,73.0243,31.8,29,0.0,979.9,8.45,37.4,173,244.0,56.9,4.9,165.0,58.0,2.6,0,5,7,0,2026-05-22T02:23:49.443752+05:30
Udaipur,Rajasthan,24.5854,73.7125,28.5,28,0.0,944.0,8.85,40.7,67,36.3,16.2,3.8,158.0,75.0,2.4,4,5,7,0,2026-05-22T02:23:49.443759+05:30
Kota,Rajasthan,25.2138,75.8648,31.8,20,0.0,975.9,8.45,43.6,72,37.0,24.3,13.5,196.0,43.0,4.8,0,5,7,0,2026-05-22T02:23:49.443766+05:30
Bikaner,Rajasthan,28.0229,73.3119,33.5,29,0.0,977.5,8.4,38.5,168,332.5,109.2,3.8,141.0,54.0,2.0,0,5,7,0,2026-05-22T02:23:49.443773+05:30
Ajmer,Rajasthan,26.4499,74.6399,30.1,29,0.0,952.1,8.4,44.6,83,87.5,28.2,4.9,162.0,66.0,4.0,0,5,7,0,2026-05-22T02:23:49.443781+05:30
Gwalior,Madhya Pradesh,26.2183,78.1828,33.0,18,0.0,979.0,8.3,45.0,70,27.5,15.1,5.0,148.0,72.0,2.5,0,5,7,0,2026-05-22T02:23:49.443787+05:30
Indore,Madhya Pradesh,22.7196,75.8577,31.4,26,0.0,946.0,8.7,43.2,73,43.3,23.9,4.1,222.0,89.0,4.6,0,5,7,0,2026-05-22T02:23:49.443794+05:30
Bhopal,Madhya Pradesh,23.2599,77.4126,32.2,24,0.0,951.1,8.7,42.5,68,35.9,25.1,9.3,264.0,53.0,4.7,0,5,7,0,2026-05-22T02:23:49.443800+05:30
Jabalpur,Madhya Pradesh,23.1815,79.9864,31.6,21,0.0,957.4,8.9,37.8,64,34.3,23.9,24.2,185.0,51.0,5.3,0,5,7,0,2026-05-22T02:23:49.443806+05:30
Ujjain,Madhya Pradesh,23.1765,75.7885,31.0,25,0.0,951.5,8.65,40.7,72,46.9,25.6,3.6,224.0,88.0,4.5,0,5,7,0,2026-05-22T02:23:49.443813+05:30
Visakhapatnam,Andhra Pradesh,17.6868,83.2185,30.9,82,0.0,997.8,9.1,39.2,141,49.8,39.7,27.2,437.0,94.0,39.4,3,5,7,1,2026-05-22T02:23:49.443820+05:30
Vijayawada,Andhra Pradesh,16.5062,80.648,32.4,70,0.0,996.6,9.15,49.0,129,32.1,26.4,7.2,295.0,110.0,6.6,3,5,7,1,2026-05-22T02:23:49.443826+05:30
Guntur,Andhra Pradesh,16.3067,80.4365,32.7,69,0.0,997.8,9.15,47.9,126,41.4,35.3,13.8,278.0,82.0,7.3,3,5,7,1,2026-05-22T02:23:49.443833+05:30
Nellore,Andhra Pradesh,14.4426,79.9865,30.1,64,0.0,1001.8,9.0,46.8,98,40.4,30.2,6.1,233.0,107.0,8.6,3,5,4,1,2026-05-22T02:23:49.443840+05:30
Kurnool,Andhra Pradesh,15.8281,78.0373,31.6,54,0.0,974.3,9.05,55.4,83,22.8,19.7,8.5,213.0,83.0,4.7,0,5,7,1,2026-05-22T02:23:49.443848+05:30
Kakinada,Andhra Pradesh,16.9891,82.2475,32.1,70,0.0,1001.7,9.1,43.6,96,40.9,29.9,4.4,327.0,123.0,4.3,3,5,4,1,2026-05-22T02:23:49.443854+05:30
Tirupati,Andhra Pradesh,13.6288,79.4192,25.6,85,0.0,988.8,9.1,39.2,68,20.1,16.0,9.2,218.0,83.0,2.5,7,5,7,1,2026-05-22T02:23:49.443861+05:30
Warangal,Telangana,17.9689,79.5941,32.0,41,0.0,973.4,9.0,46.8,120,64.7,52.0,25.0,316.0,57.0,9.4,0,5,7,1,2026-05-22T02:23:49.443868+05:30
Nizamabad,Telangana,18.6725,78.0941,33.0,36,0.0,960.7,9.1,37.4,112,89.9,66.6,35.1,330.0,40.0,8.0,0,5,7,0,2026-05-22T02:23:49.443874+05:30
Mysore,Karnataka,12.2958,76.6396,23.3,88,0.0,927.8,2.35,43.9,28,5.0,4.6,7.3,143.0,44.0,1.9,3,5,3,1,2026-05-22T02:23:49.443881+05:30
Mangalore,Karnataka,12.9141,74.856,25.7,97,0.0,1006.2,8.75,38.2,49,13.3,10.9,8.5,247.0,35.0,2.5,7,5,4,1,2026-05-22T02:23:49.443887+05:30
Hubli-Dharwad,Karnataka,15.3647,75.124,23.5,96,0.0,940.0,9.05,51.5,27,6.3,5.2,6.2,160.0,43.0,1.2,3,5,7,1,2026-05-22T02:23:49.443895+05:30
Belgaum,Karnataka,15.8497,74.4977,22.6,95,0.0,924.8,8.85,35.6,48,9.5,7.8,6.2,174.0,46.0,1.6,3,5,7,1,2026-05-22T02:23:52.704768+05:30
Coimbatore,Tamil Nadu,11.0168,76.9558,25.7,82,0.0,960.4,8.85,57.6,26,5.5,4.6,5.9,137.0,44.0,2.5,7,5,7,1,2026-05-22T02:23:52.704802+05:30
Madurai,Tamil Nadu,9.9252,78.1198,29.6,62,0.0,991.1,8.4,49.0,66,23.8,23.3,43.7,156.0,2.0,7.3,7,5,7,1,2026-05-22T02:23:52.704814+05:30
Trichy,Tamil Nadu,10.7905,78.7047,28.9,66,0.0,997.3,8.95,46.8,34,6.8,5.7,7.2,142.0,46.0,3.3,7,5,7,1,2026-05-22T02:23:52.704822+05:30
Salem,Tamil Nadu,11.6643,78.146,28.6,67,0.0,975.9,9.0,31.7,54,15.5,14.1,19.3,268.0,38.0,6.2,7,5,7,1,2026-05-22T02:23:52.704830+05:30
Tirunelveli,Tamil Nadu,8.7139,77.7567,29.1,69,0.0,1001.9,7.95,46.8,23,6.3,5.4,6.4,173.0,37.0,1.9,7,5,4,1,2026-05-22T02:23:52.704838+05:30
Vellore,Tamil Nadu,12.9165,79.1325,28.4,63,0.0,982.7,8.7,44.3,66,16.8,14.6,9.7,226.0,80.0,4.1,7,5,7,1,2026-05-22T02:23:52.704845+05:30
Erode,Tamil Nadu,11.341,77.7172,28.8,67,0.0,987.4,8.2,51.8,40,11.6,10.2,14.7,168.0,36.0,3.9,7,5,7,1,2026-05-22T02:23:52.704853+05:30
Kochi,Kerala,9.9312,76.2673,26.0,97,0.1,1008.4,6.7,37.4,56,19.7,18.7,26.1,126.0,10.0,6.5,10,0,4,1,2026-05-22T02:23:52.704861+05:30
Thiruvananthapuram,Kerala,8.5241,76.9366,25.5,97,0.1,1008.3,7.55,38.9,26,9.9,6.5,2.9,108.0,51.0,1.1,10,0,4,1,2026-05-22T02:23:52.704867+05:30
Kozhikode,Kerala,11.2588,75.7804,26.1,99,0.0,1007.4,8.0,33.1,29,10.6,6.9,1.7,244.0,57.0,0.8,7,5,4,1,2026-05-22T02:23:52.704875+05:30
Thrissur,Kerala,10.5276,76.2144,25.7,94,0.0,1006.8,7.15,34.6,55,21.6,20.6,23.8,251.0,7.0,5.2,7,5,4,1,2026-05-22T02:23:52.704882+05:30
Kannur,Kerala,11.8745,75.3704,25.5,98,0.0,1006.7,7.6,32.4,32,9.6,7.8,10.0,205.0,33.0,2.5,7,5,4,1,2026-05-22T02:23:52.704890+05:30
Patna,Bihar,25.5941,85.1376,28.5,84,0.0,996.7,8.85,28.8,156,35.9,31.5,13.6,392.0,88.0,12.5,7,5,7,1,2026-05-22T02:23:52.704896+05:30
Gaya,Bihar,24.7914,85.0002,29.6,79,0.0,989.5,8.9,30.6,156,53.8,49.9,12.4,417.0,112.0,18.9,7,5,7,1,2026-05-22T02:23:52.704902+05:30
Muzaffarpur,Bihar,26.1209,85.3647,27.6,87,0.0,997.2,8.85,33.5,154,34.1,31.4,14.3,399.0,81.0,10.0,7,5,7,1,2026-05-22T02:23:52.704909+05:30
Bhagalpur,Bihar,25.2425,87.0117,27.5,89,0.0,998.1,8.85,33.1,126,46.4,39.7,12.6,458.0,92.0,13.3,7,5,7,1,2026-05-22T02:23:52.704916+05:30
Ranchi,Jharkhand,23.3441,85.3096,25.6,69,0.0,933.9,9.3,31.3,145,121.1,67.8,36.4,538.0,56.0,17.0,7,5,7,1,2026-05-22T02:23:52.704923+05:30
Jamshedpur,Jharkhand,22.8046,86.2029,28.6,95,0.0,986.6,9.1,27.4,155,109.0,76.8,35.7,498.0,44.0,26.3,7,5,7,1,2026-05-22T02:23:52.704930+05:30
Dhanbad,Jharkhand,23.7957,86.4304,29.6,84,0.0,976.3,9.1,30.6,167,99.0,84.3,46.1,524.0,69.0,129.1,7,5,7,1,2026-05-22T02:23:52.704937+05:30
Bokaro,Jharkhand,23.6693,86.1511,28.9,87,0.0,979.9,9.1,24.8,166,107.8,90.3,42.6,529.0,85.0,124.7,7,5,7,1,2026-05-22T02:23:52.704943+05:30
Bhubaneswar,Odisha,20.2961,85.8245,29.2,98,0.0,997.3,9.15,36.7,158,47.4,39.9,7.6,361.0,107.0,7.9,7,5,7,1,2026-05-22T02:23:52.704950+05:30
Cuttack,Odisha,20.4625,85.8828,29.4,97,0.0,999.2,9.2,33.5,158,47.4,39.9,7.6,397.0,107.0,7.9,7,5,7,1,2026-05-22T02:23:52.704957+05:30
Rourkela,Odisha,22.2604,84.8536,30.6,61,0.0,980.5,9.05,34.6,159,186.7,106.4,54.9,806.0,34.0,23.9,3,5,7,1,2026-05-22T02:23:52.704964+05:30
Raipur,Chhattisgarh,21.2514,81.6296,33.0,37,0.0,969.3,8.9,38.5,151,98.5,82.7,72.1,582.0,7.0,54.2,0,5,7,1,2026-05-22T02:23:52.704971+05:30
Bhilai,Chhattisgarh,21.1938,81.3509,32.8,33,0.0,969.6,8.5,36.4,121,64.7,49.4,44.7,630.0,28.0,39.0,0,5,7,0,2026-05-22T02:23:52.704978+05:30
Guwahati,Assam,26.1158,91.7086,25.2,95,0.0,998.9,8.8,26.6,103,54.2,50.3,19.6,469.0,22.0,2.5,7,5,7,1,2026-05-22T02:23:52.704986+05:30
Agartala,Tripura,23.8315,91.2868,26.1,98,0.0,1003.3,8.8,33.5,86,34.5,22.9,11.4,227.0,57.0,2.3,7,5,4,1,2026-05-22T02:23:52.704993+05:30
Shillong,Meghalaya,25.5788,91.8933,18.7,95,0.0,855.4,7.4,25.9,85,39.0,31.1,7.4,243.0,61.0,5.0,3,10,7,1,2026-05-22T02:23:52.705000+05:30
Imphal,Manipur,24.817,93.9368,22.2,99,0.0,921.3,8.75,34.9,136,62.4,56.8,30.6,569.0,11.0,2.7,3,5,7,1,2026-05-22T02:23:52.705007+05:30
Aizawl,Mizoram,23.7271,92.7176,20.1,99,0.0,890.0,8.5,30.6,80,26.4,20.3,6.2,251.0,42.0,1.6,3,5,7,1,2026-05-22T02:23:52.705014+05:30
Kohima,Nagaland,25.6701,94.1077,17.6,93,0.0,853.0,9.0,26.6,110,45.9,39.2,14.9,237.0,18.0,0.7,3,10,7,1,2026-05-22T02:23:52.705021+05:30
Gangtok,Sikkim,27.3314,88.6138,16.3,81,0.0,836.3,9.15,35.6,72,17.2,14.8,7.5,491.0,92.0,1.6,3,10,7,0,2026-05-22T02:23:52.705028+05:30
Siliguri,West Bengal,26.7271,88.3953,25.9,86,0.0,990.8,8.0,21.2,139,59.6,51.1,17.9,480.0,95.0,6.5,7,5,7,1,2026-05-22T02:23:55.958578+05:30
Durgapur,West Bengal,23.5204,87.3119,29.4,92,0.0,991.3,9.0,30.2,162,81.5,72.9,30.8,611.0,53.0,32.3,7,5,7,1,2026-05-22T02:23:55.958629+05:30
Asansol,West Bengal,23.6739,86.9524,29.4,91,0.0,989.8,9.05,30.6,161,66.4,60.3,29.6,562.0,67.0,36.9,7,5,7,1,2026-05-22T02:23:55.958640+05:30
Pondicherry,Puducherry,11.9139,79.8145,29.6,71,0.0,1004.9,8.95,45.4,68,14.5,12.2,14.7,292.0,46.0,6.6,7,5,4,1,2026-05-22T02:23:55.958649+05:30
Port Blair,Andaman and Nicobar Islands,11.6234,92.7265,25.0,99,0.1,1005.4,3.7,39.2,28,8.6,5.6,0.3,114.0,61.0,0.3,10,5,0,1,2026-05-22T02:23:55.958657+05:30
Haridwar,Uttarakhand,29.9457,78.1642,27.8,50,0.0,968.6,7.55,33.1,132,62.4,42.1,25.6,348.0,63.0,12.8,4,5,7,1,2026-05-22T02:23:55.958665+05:30
Rishikesh,Uttarakhand,30.0869,78.2676,23.6,65,0.0,961.2,7.7,27.0,108,74.3,39.9,16.5,285.0,93.0,11.4,3,5,7,1,2026-05-22T02:23:55.958672+05:30
Nainital,Uttarakhand,29.3919,79.4542,17.2,53,0.0,803.9,8.5,45.4,151,241.2,72.4,19.5,293.0,94.0,8.5,0,5,7,0,2026-05-22T02:23:55.958679+05:30
Mussoorie,Uttarakhand,30.4599,78.0664,19.7,35,0.0,802.1,8.1,51.1,104,74.7,47.0,42.4,237.0,44.0,11.8,0,5,7,0,2026-05-22T02:23:55.958687+05:30
Dharamshala,Himachal Pradesh,32.219,76.3234,24.0,30,0.0,867.0,8.3,52.6,52,18.8,11.4,13.2,225.0,41.0,0.2,0,5,7,0,2026-05-22T02:23:55.958694+05:30
Dalhousie,Himachal Pradesh,32.5387,75.971,14.9,53,0.0,801.4,6.95,62.3,71,36.0,24.9,46.7,338.0,3.0,1.7,0,5,7,0,2026-05-22T02:23:55.958701+05:30
Patiala,Punjab,30.3398,76.3869,29.9,33,0.0,972.5,7.7,54.0,151,517.8,82.2,13.9,452.0,58.0,6.1,4,5,7,0,2026-05-22T02:23:55.958709+05:30
Bhatinda,Punjab,30.211,74.9455,31.4,34,0.0,978.5,8.35,40.3,104,58.2,37.4,18.4,291.0,50.0,7.5,0,5,7,0,2026-05-22T02:23:55.958716+05:30
Rohtak,Haryana,28.8955,76.6066,32.0,22,0.0,976.6,7.8,30.2,958,760.0,129.5,16.4,207.0,58.0,3.7,0,5,7,0,2026-05-22T02:23:55.958723+05:30
Panipat,Haryana,29.3909,76.9635,33.0,22,0.0,975.1,7.6,43.9,1665,1300.1,210.5,21.5,335.0,43.0,5.3,0,5,7,0,2026-05-22T02:23:55.958731+05:30
Mathura,Uttar Pradesh,27.4924,77.6737,32.8,20,0.0,981.7,8.0,32.4,851,1087.8,137.8,14.8,240.0,60.0,4.4,0,5,7,0,2026-05-22T02:23:55.958737+05:30
Vrindavan,Uttar Pradesh,27.5823,77.7027,32.8,20,0.0,982.1,8.0,32.0,851,1087.8,137.8,14.8,209.0,60.0,4.4,0,5,7,0,2026-05-22T02:23:55.958743+05:30
Ayodhya,Uttar Pradesh,26.7922,82.1998,30.0,75,0.0,990.6,8.4,29.5,158,77.5,70.8,15.9,484.0,91.0,11.1,7,5,7,1,2026-05-22T02:23:55.958751+05:30
Ratlam,Madhya Pradesh,23.3315,75.0367,29.6,32,0.0,952.4,8.6,38.9,73,50.9,26.5,3.5,195.0,87.0,4.5,4,5,7,0,2026-05-22T02:23:55.958759+05:30
Sagar,Madhya Pradesh,23.8388,78.7378,31.0,18,0.0,947.0,8.75,39.6,57,27.4,16.4,8.9,173.0,69.0,4.2,0,5,7,0,2026-05-22T02:23:55.958766+05:30
Satna,Madhya Pradesh,24.6005,80.8322,30.5,25,0.0,966.9,8.8,38.9,68,25.8,14.9,10.6,187.0,72.0,3.7,0,5,7,0,2026-05-22T02:23:55.958773+05:30
Akola,Maharashtra,20.7002,77.0082,34.8,29,0.0,971.4,8.9,47.2,81,46.2,31.9,18.9,238.0,53.0,7.1,0,5,7,0,2026-05-22T02:23:55.958781+05:30
Amravati,Maharashtra,20.9374,77.7796,35.0,27,0.0,963.5,8.9,42.1,81,48.1,33.6,23.4,244.0,46.0,6.2,0,5,7,0,2026-05-22T02:23:55.958790+05:30
Latur,Maharashtra,18.4088,76.5604,30.5,51,0.0,937.5,9.0,42.8,83,39.3,30.3,6.3,219.0,99.0,6.6,0,5,7,1,2026-05-22T02:23:55.958797+05:30
Nanded,Maharashtra,19.1383,77.3091,34.2,33,0.0,964.8,9.0,39.6,93,74.5,53.4,35.1,229.0,41.0,8.4,0,5,7,0,2026-05-22T02:23:55.958805+05:30
Gulbarga,Karnataka,17.3297,76.8343,30.5,56,0.0,956.2,8.75,62.6,82,20.2,17.2,14.4,217.0,61.0,4.0,0,5,7,1,2026-05-22T02:23:55.958811+05:30
Bidar,Karnataka,17.9104,77.5199,29.8,51,0.0,932.8,9.05,42.8,93,39.5,30.5,11.0,239.0,95.0,5.4,4,5,7,1,2026-05-22T02:23:55.958819+05:30
Hospet,Karnataka,15.2689,76.3909,25.5,80,0.0,954.6,8.25,43.9,37,6.7,5.5,5.9,149.0,46.0,1.4,7,5,7,1,2026-05-22T02:23:55.958826+05:30
Tirupur,Tamil Nadu,11.1085,77.3411,27.0,79,0.0,973.5,9.05,61.9,44,12.7,11.4,17.1,143.0,33.0,4.4,7,5,7,1,2026-05-22T02:23:55.958833+05:30
Alappuzha,Kerala,9.4981,76.3388,26.1,95,0.1,1008.7,8.35,36.0,42,13.0,10.4,11.0,99.0,39.0,2.7,10,0,4,1,2026-05-22T02:23:55.958840+05:30
Munnar,Kerala,10.0889,77.0595,17.1,100,0.0,856.6,6.45,31.7,23,6.4,5.7,7.8,112.0,32.0,1.7,3,10,7,1,2026-05-22T02:23:55.958848+05:30
Silchar,Assam,24.8333,92.7789,25.9,99,0.0,1002.6,8.9,32.0,111,52.9,41.4,9.8,399.0,70.0,7.0,7,5,4,1,2026-05-22T02:23:55.958855+05:30
Dibrugarh,Assam,27.4728,94.912,26.5,92,0.0,992.8,8.95,22.3,92,41.8,38.4,30.4,590.0,2.0,1.5,7,5,7,1,2026-05-22T02:23:55.958862+05:30
