city,state,latitude,longitude,temp,humidity,rain,pressure,uv_index,wind_gusts,aqi,pm10,pm2_5,mosquito_risk,arthritis_risk,migraine_risk,frizz_risk,updated_at
Delhi,Delhi,28.6139,77.209,29.7,48,0.0,982.6,6.9,20.9,146,234.2,50.5,4,5,7,1,2026-04-02T18:51:19.109312+05:30
Mumbai,Maharashtra,19.076,72.8777,27.9,74,0.0,1009.2,7.25,19.4,117,30.7,23.0,7,0,4,1,2026-04-02T18:51:19.109357+05:30
Bangalore,Karnataka,12.9716,77.5946,30.6,26,0.0,911.8,9.6,20.9,130,20.5,17.4,0,5,7,0,2026-04-02T18:51:19.109373+05:30
Hyderabad,Telangana,17.385,78.4867,32.4,34,0.0,953.2,9.1,25.9,108,23.7,19.5,0,5,7,0,2026-04-02T18:51:19.109383+05:30
Chennai,Tamil Nadu,13.0827,80.2707,29.1,72,0.0,1008.1,9.3,29.9,40,13.6,10.3,7,0,4,1,2026-04-02T18:51:19.109392+05:30
Kolkata,West Bengal,22.5726,88.3639,29.6,72,0.0,1006.0,8.6,24.1,106,35.3,31.5,7,5,4,1,2026-04-02T18:51:19.109400+05:30
Pune,Maharashtra,18.5204,73.8567,29.1,63,0.0,949.4,8.45,29.9,134,57.4,48.9,7,5,7,1,2026-04-02T18:51:19.109412+05:30
Ahmedabad,Gujarat,23.0225,72.5714,33.8,32,0.0,1001.2,7.9,29.5,106,18.8,11.2,0,5,4,0,2026-04-02T18:51:19.109420+05:30
Jaipur,Rajasthan,26.9124,75.7873,31.8,33,0.0,959.3,7.55,40.7,115,107.1,19.8,0,5,7,0,2026-04-02T18:51:19.109427+05:30
Lucknow,Uttar Pradesh,26.8467,80.9462,32.9,32,0.0,992.6,7.05,31.7,119,64.7,25.4,0,5,7,0,2026-04-02T18:51:19.109435+05:30
Kanpur,Uttar Pradesh,26.4499,80.3319,31.8,45,0.0,991.0,7.05,23.8,125,172.8,36.3,0,5,7,1,2026-04-02T18:51:19.109442+05:30
Chandigarh,Chandigarh,30.7333,76.7794,27.7,51,0.0,969.1,6.8,21.6,69,40.5,17.6,4,5,7,1,2026-04-02T18:51:19.109449+05:30
Srinagar,Jammu and Kashmir,34.0837,74.7973,15.8,63,0.0,843.2,7.5,14.8,111,27.1,17.5,3,5,7,0,2026-04-02T18:51:19.109456+05:30
Jammu,Jammu and Kashmir,32.7266,74.857,28.5,45,0.0,973.1,7.4,19.8,78,52.3,23.6,4,5,7,0,2026-04-02T18:51:19.109464+05:30
Amritsar,Punjab,31.634,74.8723,28.6,44,0.0,981.0,7.4,19.4,90,55.4,23.8,4,5,7,0,2026-04-02T18:51:19.109471+05:30
Ludhiana,Punjab,30.901,75.8573,29.4,41,0.0,978.9,7.0,16.2,119,99.9,38.5,4,5,7,0,2026-04-02T18:51:19.109480+05:30
Jalandhar,Punjab,31.326,75.5762,28.5,44,0.0,980.0,7.2,14.0,90,87.5,33.1,4,5,7,0,2026-04-02T18:51:19.109489+05:30
Dehradun,Uttarakhand,30.6284,78.0322,19.3,41,0.0,832.1,7.15,34.9,51,30.2,10.9,0,5,7,0,2026-04-02T18:51:19.109497+05:30
Shimla,Himachal Pradesh,31.1048,77.1734,16.6,52,0.0,786.4,7.25,33.8,55,34.9,13.5,0,5,7,0,2026-04-02T18:51:19.109503+05:30
Manali,Himachal Pradesh,32.2396,77.1887,18.7,61,0.0,822.6,9.1,26.6,102,21.0,8.9,3,5,7,0,2026-04-02T18:51:19.109511+05:30
Gurgaon,Haryana,28.4595,77.0266,28.9,51,0.0,981.2,7.0,19.4,180,441.4,71.5,4,5,7,1,2026-04-02T18:51:19.109519+05:30
Noida,Uttar Pradesh,28.5355,77.391,29.6,48,0.0,984.2,6.95,16.9,180,441.4,71.5,4,5,7,1,2026-04-02T18:51:19.109526+05:30
Ghaziabad,Uttar Pradesh,28.6692,77.4538,28.8,53,0.0,982.3,6.9,15.8,120,189.5,45.5,4,5,7,1,2026-04-02T18:51:19.109533+05:30
Faridabad,Haryana,28.4089,77.3178,29.3,44,0.0,983.4,6.95,18.7,180,441.4,71.5,4,5,7,0,2026-04-02T18:51:19.109540+05:30
Meerut,Uttar Pradesh,28.9845,77.7064,28.5,52,0.0,981.0,6.8,18.7,120,189.5,45.5,4,5,7,1,2026-04-02T18:51:19.109546+05:30
Agra,Uttar Pradesh,27.1767,78.0081,33.6,32,0.0,986.8,7.0,17.3,194,407.0,57.7,0,5,7,0,2026-04-02T18:51:19.109553+05:30
Varanasi,Uttar Pradesh,25.3176,82.9739,32.3,40,0.0,996.3,7.6,29.9,123,35.4,27.4,0,5,7,1,2026-04-02T18:51:19.109562+05:30
Prayagraj,Uttar Pradesh,25.4358,81.8463,33.3,37,0.0,995.1,7.5,21.6,109,30.0,21.6,0,5,7,1,2026-04-02T18:51:19.109569+05:30
Gorakhpur,Uttar Pradesh,26.7606,83.3732,32.0,25,0.0,995.3,7.8,39.6,106,27.5,17.2,0,5,7,0,2026-04-02T18:51:19.109575+05:30
Bareilly,Uttar Pradesh,28.367,79.4304,30.0,38,0.0,985.9,7.2,31.0,93,29.4,16.9,4,5,7,0,2026-04-02T18:51:19.109581+05:30
Aligarh,Uttar Pradesh,27.8974,78.088,31.0,35,0.0,984.5,7.05,17.3,147,233.8,46.0,0,5,7,0,2026-04-02T18:51:19.109588+05:30
Moradabad,Uttar Pradesh,28.8386,78.7733,28.9,43,0.0,982.9,7.0,26.6,88,42.8,23.3,4,5,7,0,2026-04-02T18:51:19.109594+05:30
Saharanpur,Uttar Pradesh,29.9637,77.546,27.1,50,0.0,975.5,6.5,24.8,87,35.2,19.3,4,5,7,0,2026-04-02T18:51:19.109602+05:30
Jhansi,Uttar Pradesh,25.4484,78.5685,35.4,27,0.0,976.6,6.45,22.0,100,20.9,17.4,0,5,10,0,2026-04-02T18:51:22.328946+05:30
Surat,Gujarat,21.1702,72.8311,27.7,68,0.0,1007.3,7.65,30.6,92,35.6,30.9,7,5,4,1,2026-04-02T18:51:22.328981+05:30
Vadodara,Gujarat,22.3072,73.1812,32.9,30,0.0,1003.9,7.9,34.9,143,26.5,21.2,0,5,4,0,2026-04-02T18:51:22.328994+05:30
Rajkot,Gujarat,22.3039,70.8022,29.8,50,0.0,994.3,7.05,36.7,78,35.3,16.4,4,5,7,1,2026-04-02T18:51:22.329004+05:30
Thane,Maharashtra,19.2183,72.9781,27.9,67,0.0,1008.7,7.25,33.1,117,30.7,23.0,7,0,4,1,2026-04-02T18:51:22.329013+05:30
Nagpur,Maharashtra,21.1458,79.0882,28.9,62,0.0,975.0,8.4,32.8,148,39.9,33.2,7,5,7,1,2026-04-02T18:51:22.329021+05:30
Nashik,Maharashtra,19.9975,73.7898,27.7,58,0.0,946.5,8.15,29.9,146,30.5,25.3,4,5,7,1,2026-04-02T18:51:22.329028+05:30
Aurangabad,Maharashtra,19.8762,75.3433,26.9,63,0.0,945.6,8.85,47.9,108,34.3,27.5,7,5,7,1,2026-04-02T18:51:22.329035+05:30
Solapur,Maharashtra,17.6599,75.9064,27.3,66,0.0,958.2,8.9,31.0,143,26.8,21.0,7,5,7,1,2026-04-02T18:51:22.329042+05:30
Kolhapur,Maharashtra,16.705,74.2433,26.3,74,0.0,948.8,8.95,34.6,149,59.1,54.4,7,5,7,1,2026-04-02T18:51:22.329049+05:30
Goa,Goa,15.2993,74.124,29.6,72,0.0,998.7,8.85,29.5,74,27.1,20.7,7,5,7,1,2026-04-02T18:51:22.329056+05:30
Jodhpur,Rajasthan,26.2389,73.0243,31.5,31,0.0,982.3,7.8,36.7,75,179.7,24.4,0,5,7,0,2026-04-02T18:51:22.329064+05:30
Udaipur,Rajasthan,24.5854,73.7125,28.8,34,0.0,946.4,8.4,38.9,72,12.6,7.8,4,5,7,0,2026-04-02T18:51:22.329072+05:30
Kota,Rajasthan,25.2138,75.8648,35.3,15,0.0,977.2,7.85,27.7,88,24.2,18.7,0,5,10,0,2026-04-02T18:51:22.329079+05:30
Bikaner,Rajasthan,28.0229,73.3119,33.3,23,0.0,980.3,7.45,35.6,76,19.0,7.0,0,5,7,0,2026-04-02T18:51:22.329085+05:30
Ajmer,Rajasthan,26.4499,74.6399,31.7,29,0.0,953.7,7.5,33.1,78,11.2,8.1,0,5,7,0,2026-04-02T18:51:22.329092+05:30
Gwalior,Madhya Pradesh,26.2183,78.1828,34.2,34,0.0,981.9,6.45,22.0,97,26.0,19.8,0,5,7,1,2026-04-02T18:51:22.329099+05:30
Indore,Madhya Pradesh,22.7196,75.8577,31.2,30,0.0,948.1,8.3,40.7,130,33.9,27.9,0,5,7,0,2026-04-02T18:51:22.329106+05:30
Bhopal,Madhya Pradesh,23.2599,77.4126,30.4,45,0.0,954.1,7.85,33.1,107,35.9,29.6,0,5,7,1,2026-04-02T18:51:22.329113+05:30
Jabalpur,Madhya Pradesh,23.1815,79.9864,29.4,52,0.0,963.0,7.9,31.7,110,33.1,26.8,4,5,7,1,2026-04-02T18:51:22.329120+05:30
Ujjain,Madhya Pradesh,23.1765,75.7885,32.0,30,0.0,953.4,8.2,27.7,113,29.8,25.3,0,5,7,0,2026-04-02T18:51:22.329127+05:30
Visakhapatnam,Andhra Pradesh,17.6868,83.2185,27.8,72,0.0,1004.4,9.05,36.4,52,15.5,13.2,7,5,4,1,2026-04-02T18:51:22.329135+05:30
Vijayawada,Andhra Pradesh,16.5062,80.648,32.0,49,0.0,1002.7,9.15,24.1,44,18.6,16.5,0,5,4,1,2026-04-02T18:51:22.329141+05:30
Guntur,Andhra Pradesh,16.3067,80.4365,30.4,55,0.0,1004.3,9.15,27.4,41,16.6,14.1,0,5,4,1,2026-04-02T18:51:22.329149+05:30
Nellore,Andhra Pradesh,14.4426,79.9865,29.0,71,0.0,1006.4,9.25,28.1,45,12.2,9.5,7,5,4,1,2026-04-02T18:51:22.329156+05:30
Kurnool,Andhra Pradesh,15.8281,78.0373,35.1,25,0.0,976.3,9.15,24.1,82,22.5,16.8,0,5,10,0,2026-04-02T18:51:22.329164+05:30
Kakinada,Andhra Pradesh,16.9891,82.2475,30.1,57,0.0,1007.9,9.0,33.1,35,12.1,9.2,0,5,4,1,2026-04-02T18:51:22.329171+05:30
Tirupati,Andhra Pradesh,13.6288,79.4192,30.8,47,0.0,992.0,9.35,31.3,69,14.0,13.2,0,5,7,1,2026-04-02T18:51:22.329178+05:30
Warangal,Telangana,17.9689,79.5941,32.6,45,0.0,978.6,9.0,25.9,62,31.2,26.1,0,5,7,1,2026-04-02T18:51:22.329185+05:30
Nizamabad,Telangana,18.6725,78.0941,29.6,63,0.0,965.3,8.9,34.2,122,46.8,38.6,7,5,7,1,2026-04-02T18:51:22.329192+05:30
Mysore,Karnataka,12.2958,76.6396,30.2,35,0.0,928.4,9.5,34.9,145,29.3,24.1,0,5,7,0,2026-04-02T18:51:22.329198+05:30
Mangalore,Karnataka,12.9141,74.856,29.4,79,0.0,1007.2,9.05,22.7,93,23.5,18.6,7,5,4,1,2026-04-02T18:51:22.329205+05:30
Hubli-Dharwad,Karnataka,15.3647,75.124,26.5,68,0.0,941.9,9.2,37.8,150,34.8,30.5,7,5,7,1,2026-04-02T18:51:22.329213+05:30
Belgaum,Karnataka,15.8497,74.4977,25.4,77,0.0,926.8,9.1,32.4,149,38.2,33.6,7,5,7,1,2026-04-02T18:51:25.550210+05:30
Coimbatore,Tamil Nadu,11.0168,76.9558,28.1,69,0.0,961.7,9.45,44.3,121,19.1,16.0,7,5,7,1,2026-04-02T18:51:25.550240+05:30
Madurai,Tamil Nadu,9.9252,78.1198,32.7,39,0.0,992.4,9.4,33.5,95,11.2,10.6,0,5,7,1,2026-04-02T18:51:25.550251+05:30
Trichy,Tamil Nadu,10.7905,78.7047,30.8,46,0.0,999.5,9.4,20.9,70,12.8,12.1,0,5,7,1,2026-04-02T18:51:25.550259+05:30
Salem,Tamil Nadu,11.6643,78.146,33.2,31,0.0,976.7,9.4,17.3,121,14.2,13.6,0,5,7,0,2026-04-02T18:51:25.550267+05:30
Tirunelveli,Tamil Nadu,8.7139,77.7567,30.9,58,0.0,1003.2,9.35,45.7,74,11.8,10.7,0,5,4,1,2026-04-02T18:51:25.550275+05:30
Vellore,Tamil Nadu,12.9165,79.1325,29.7,41,0.0,985.0,9.4,27.4,58,14.2,13.3,4,5,7,0,2026-04-02T18:51:25.550282+05:30
Erode,Tamil Nadu,11.341,77.7172,34.3,29,0.0,987.9,9.25,26.3,88,10.7,9.6,0,5,7,0,2026-04-02T18:51:25.550289+05:30
Kochi,Kerala,9.9312,76.2673,29.1,81,0.0,1008.8,9.2,31.0,115,22.5,19.0,7,0,4,1,2026-04-02T18:51:25.550297+05:30
Thiruvananthapuram,Kerala,8.5241,76.9366,29.8,70,0.0,1008.2,9.2,25.2,88,15.0,10.5,7,0,4,1,2026-04-02T18:51:25.550303+05:30
Kozhikode,Kerala,11.2588,75.7804,29.4,77,0.0,1008.0,8.75,25.2,60,18.0,12.8,7,0,4,1,2026-04-02T18:51:25.550310+05:30
Thrissur,Kerala,10.5276,76.2144,29.1,79,0.0,1007.2,9.15,32.0,90,18.6,15.9,7,5,4,1,2026-04-02T18:51:25.550318+05:30
Kannur,Kerala,11.8745,75.3704,29.4,74,0.0,1007.6,9.15,25.6,73,19.8,15.7,7,5,4,1,2026-04-02T18:51:25.550324+05:30
Patna,Bihar,25.5941,85.1376,31.9,45,0.0,998.7,8.0,33.5,109,29.7,21.4,0,5,7,1,2026-04-02T18:51:25.550332+05:30
Gaya,Bihar,24.7914,85.0002,31.7,41,0.0,993.0,8.25,29.2,111,29.5,21.5,0,5,7,1,2026-04-02T18:51:25.550338+05:30
Muzaffarpur,Bihar,26.1209,85.3647,30.9,39,0.0,998.4,8.25,31.3,106,28.7,20.3,0,5,7,0,2026-04-02T18:51:25.550345+05:30
Bhagalpur,Bihar,25.2425,87.0117,31.0,53,0.0,999.9,7.85,26.6,115,31.1,19.8,0,5,7,1,2026-04-02T18:51:25.550352+05:30
Ranchi,Jharkhand,23.3441,85.3096,28.1,48,0.0,939.1,8.9,32.0,130,32.0,24.9,4,5,7,1,2026-04-02T18:51:25.550358+05:30
Jamshedpur,Jharkhand,22.8046,86.2029,32.1,49,0.0,991.0,8.7,31.7,163,44.5,33.1,0,5,7,1,2026-04-02T18:51:25.550364+05:30
Dhanbad,Jharkhand,23.7957,86.4304,33.8,36,0.0,979.4,8.65,27.0,160,52.4,46.1,0,5,7,1,2026-04-02T18:51:25.550371+05:30
Bokaro,Jharkhand,23.6693,86.1511,33.6,34,0.0,983.6,8.65,28.1,157,49.0,42.8,0,5,7,0,2026-04-02T18:51:25.550378+05:30
Bhubaneswar,Odisha,20.2961,85.8245,29.6,59,0.0,1003.2,8.9,30.6,67,18.6,16.5,4,5,4,1,2026-04-02T18:51:25.550384+05:30
Cuttack,Odisha,20.4625,85.8828,32.3,46,0.0,1004.7,8.95,23.0,67,18.6,16.5,0,5,4,1,2026-04-02T18:51:25.550390+05:30
Rourkela,Odisha,22.2604,84.8536,33.3,43,0.0,985.3,8.65,26.6,187,55.9,43.9,0,5,7,1,2026-04-02T18:51:25.550396+05:30
Raipur,Chhattisgarh,21.2514,81.6296,33.1,39,0.0,975.5,8.7,25.6,178,54.6,48.2,0,5,7,1,2026-04-02T18:51:25.550402+05:30
Bhilai,Chhattisgarh,21.1938,81.3509,32.3,43,0.0,975.7,8.7,24.8,156,51.8,44.5,0,5,7,1,2026-04-02T18:51:25.550408+05:30
Guwahati,Assam,26.1158,91.7086,28.4,78,0.0,1000.8,8.15,33.5,108,39.0,34.8,7,5,4,1,2026-04-02T18:51:25.550415+05:30
Agartala,Tripura,23.8315,91.2868,27.2,77,0.0,1006.6,8.4,43.2,112,43.4,37.1,7,5,4,1,2026-04-02T18:51:25.550421+05:30
Shillong,Meghalaya,25.5788,91.8933,16.0,93,0.0,856.9,8.55,70.9,103,39.3,34.7,3,10,7,0,2026-04-02T18:51:25.550428+05:30
Imphal,Manipur,24.817,93.9368,20.0,79,0.0,924.2,8.7,87.1,115,53.9,46.0,3,5,7,1,2026-04-02T18:51:25.550435+05:30
Aizawl,Mizoram,23.7271,92.7176,22.3,72,0.0,894.1,8.65,55.1,100,52.6,39.7,3,5,7,1,2026-04-02T18:51:25.550441+05:30
Kohima,Nagaland,25.6701,94.1077,16.7,88,0.0,855.6,8.65,105.5,96,50.6,42.0,3,10,7,0,2026-04-02T18:51:25.550447+05:30
Gangtok,Sikkim,27.3314,88.6138,17.5,85,0.0,837.9,8.5,20.5,110,52.9,43.7,3,10,7,0,2026-04-02T18:51:25.550454+05:30
Siliguri,West Bengal,26.7271,88.3953,24.4,66,0.0,993.0,8.05,21.6,146,52.3,41.3,3,5,7,1,2026-04-02T18:51:28.821247+05:30
Durgapur,West Bengal,23.5204,87.3119,34.2,36,0.0,994.1,8.6,21.6,183,60.3,52.4,0,5,7,1,2026-04-02T18:51:28.821281+05:30
Asansol,West Bengal,23.6739,86.9524,34.2,37,0.0,992.8,8.65,22.3,175,49.9,42.5,0,5,7,1,2026-04-02T18:51:28.821293+05:30
Pondicherry,Puducherry,11.9139,79.8145,27.6,69,0.0,1009.1,9.25,27.0,39,10.5,7.6,7,0,4,1,2026-04-02T18:51:28.821303+05:30
Port Blair,Andaman and Nicobar Islands,11.6234,92.7265,29.0,76,0.0,1008.4,9.1,32.0,42,9.6,6.0,7,0,4,1,2026-04-02T18:51:28.821313+05:30
Haridwar,Uttarakhand,29.9457,78.1642,27.6,42,0.0,974.4,6.65,29.2,61,28.5,13.9,4,5,7,0,2026-04-02T18:51:28.821323+05:30
Rishikesh,Uttarakhand,30.0869,78.2676,27.4,39,0.0,967.6,6.7,31.0,48,27.6,10.2,4,5,7,0,2026-04-02T18:51:28.821332+05:30
Nainital,Uttarakhand,29.3919,79.4542,22.5,28,0.0,808.3,7.55,42.1,74,25.0,11.2,0,5,7,0,2026-04-02T18:51:28.821340+05:30
Mussoorie,Uttarakhand,30.4599,78.0664,20.2,36,0.0,805.1,7.0,37.4,57,32.7,14.5,0,5,7,0,2026-04-02T18:51:28.821349+05:30
Dharamshala,Himachal Pradesh,32.219,76.3234,23.0,50,0.0,870.6,7.3,28.4,57,24.9,9.5,0,5,7,0,2026-04-02T18:51:28.821357+05:30
Dalhousie,Himachal Pradesh,32.5387,75.971,20.7,38,0.0,805.5,7.55,24.8,66,35.9,16.1,0,5,7,0,2026-04-02T18:51:28.821366+05:30
Patiala,Punjab,30.3398,76.3869,28.3,47,0.0,978.2,6.7,20.9,108,113.2,37.5,4,5,7,0,2026-04-02T18:51:28.821374+05:30
Bhatinda,Punjab,30.211,74.9455,28.3,54,0.0,983.7,7.15,50.4,98,136.0,33.1,4,5,7,1,2026-04-02T18:51:28.821383+05:30
Rohtak,Haryana,28.8955,76.6066,27.5,57,0.0,981.7,6.9,49.0,148,283.1,61.5,4,5,7,1,2026-04-02T18:51:28.821390+05:30
Panipat,Haryana,29.3909,76.9635,28.2,52,0.0,980.2,6.7,22.7,163,98.5,40.0,4,5,7,1,2026-04-02T18:51:28.821399+05:30
Mathura,Uttar Pradesh,27.4924,77.6737,32.5,33,0.0,986.0,7.2,18.0,142,504.8,66.1,0,5,7,0,2026-04-02T18:51:28.821407+05:30
Vrindavan,Uttar Pradesh,27.5823,77.7027,32.0,34,0.0,986.4,7.2,15.8,142,504.8,66.1,0,5,7,0,2026-04-02T18:51:28.821414+05:30
Ayodhya,Uttar Pradesh,26.7922,82.1998,31.9,30,0.0,993.8,7.65,36.4,109,30.5,19.4,0,5,7,0,2026-04-02T18:51:28.821422+05:30
Ratlam,Madhya Pradesh,23.3315,75.0367,31.9,29,0.0,954.4,8.15,33.1,103,24.6,19.9,0,5,7,0,2026-04-02T18:51:28.821429+05:30
Sagar,Madhya Pradesh,23.8388,78.7378,30.9,40,0.0,951.1,8.25,34.2,98,27.1,21.4,0,5,7,0,2026-04-02T18:51:28.821437+05:30
Satna,Madhya Pradesh,24.6005,80.8322,34.4,30,0.0,971.4,7.75,22.3,90,31.1,21.8,0,5,7,0,2026-04-02T18:51:28.821444+05:30
Akola,Maharashtra,20.7002,77.0082,28.3,66,0.0,976.2,8.6,23.4,122,36.9,31.4,7,5,7,1,2026-04-02T18:51:28.821453+05:30
Amravati,Maharashtra,20.9374,77.7796,30.9,53,0.0,968.5,8.55,38.9,119,36.3,29.9,0,5,7,1,2026-04-02T18:51:28.821462+05:30
Latur,Maharashtra,18.4088,76.5604,24.7,73,0.0,940.8,8.9,36.4,123,36.0,29.6,3,5,7,1,2026-04-02T18:51:28.821470+05:30
Nanded,Maharashtra,19.1383,77.3091,30.7,55,0.0,969.4,8.75,29.5,135,45.4,36.9,0,5,7,1,2026-04-02T18:51:28.821477+05:30
Gulbarga,Karnataka,17.3297,76.8343,34.1,32,0.0,958.4,8.95,45.4,134,18.3,14.6,0,5,7,0,2026-04-02T18:51:28.821485+05:30
Bidar,Karnataka,17.9104,77.5199,30.1,48,0.0,936.3,8.95,30.2,113,28.4,23.3,0,5,7,1,2026-04-02T18:51:28.821492+05:30
Hospet,Karnataka,15.2689,76.3909,33.0,38,0.0,955.6,9.15,33.8,160,22.1,18.5,0,5,7,1,2026-04-02T18:51:28.821500+05:30
Tirupur,Tamil Nadu,11.1085,77.3411,33.9,28,0.0,974.4,9.2,30.2,101,16.2,13.4,0,5,7,0,2026-04-02T18:51:28.821507+05:30
Alappuzha,Kerala,9.4981,76.3388,29.4,78,0.0,1008.8,9.2,27.4,129,21.5,16.8,7,0,4,1,2026-04-02T18:51:28.821515+05:30
Munnar,Kerala,10.0889,77.0595,23.3,79,0.0,858.0,9.75,34.9,89,17.2,15.5,3,5,7,1,2026-04-02T18:51:28.821523+05:30
Silchar,Assam,24.8333,92.7789,26.8,80,0.0,1005.5,8.4,34.2,145,67.1,57.9,7,5,4,1,2026-04-02T18:51:28.821531+05:30
Dibrugarh,Assam,27.4728,94.912,22.7,89,0.0,997.2,6.05,26.3,89,24.6,22.9,3,5,7,1,2026-04-02T18:51:28.821539+05:30
