city,state,latitude,longitude,temp,humidity,rain,pressure,uv_index,wind_gusts,aqi,pm10,pm2_5,mosquito_risk,arthritis_risk,migraine_risk,frizz_risk,updated_at
Delhi,Delhi,28.6139,77.209,27.3,61,0.0,987.9,5.5,25.6,172,457.3,108.5,7,5,3,1,2026-03-09T21:31:32.394505+05:30
Mumbai,Maharashtra,19.076,72.8777,30.6,56,0.0,1009.1,7.55,24.5,220,29.9,29.1,0,0,4,1,2026-03-09T21:31:32.394591+05:30
Bangalore,Karnataka,12.9716,77.5946,24.5,55,0.0,914.8,9.2,38.2,111,39.2,35.2,0,5,7,0,2026-03-09T21:31:32.394610+05:30
Hyderabad,Telangana,17.385,78.4867,25.8,59,0.0,957.2,8.55,31.3,138,46.9,42.1,4,5,7,1,2026-03-09T21:31:32.394621+05:30
Chennai,Tamil Nadu,13.0827,80.2707,26.3,74,0.0,1012.6,8.95,34.6,88,38.2,27.5,7,0,4,1,2026-03-09T21:31:32.394631+05:30
Kolkata,West Bengal,22.5726,88.3639,24.9,87,0.0,1012.6,7.9,16.6,130,81.5,74.3,3,0,4,1,2026-03-09T21:31:32.394641+05:30
Pune,Maharashtra,18.5204,73.8567,27.0,35,0.0,950.7,8.1,31.0,113,19.2,17.3,4,5,7,0,2026-03-09T21:31:32.394656+05:30
Ahmedabad,Gujarat,23.0225,72.5714,29.4,33,0.0,1005.6,7.35,21.6,96,18.1,16.5,4,5,4,0,2026-03-09T21:31:32.394666+05:30
Jaipur,Rajasthan,26.9124,75.7873,28.1,20,0.0,964.2,6.75,27.7,78,91.7,29.7,4,5,7,0,2026-03-09T21:31:32.394675+05:30
Lucknow,Uttar Pradesh,26.8467,80.9462,27.8,60,0.0,999.1,6.55,22.0,176,178.8,92.9,4,5,7,1,2026-03-09T21:31:32.394683+05:30
Kanpur,Uttar Pradesh,26.4499,80.3319,26.7,66,0.0,996.9,6.55,18.0,164,205.4,76.6,7,5,7,1,2026-03-09T21:31:32.394691+05:30
Chandigarh,Chandigarh,30.7333,76.7794,24.6,68,0.0,973.4,5.95,24.1,103,69.6,59.8,3,5,3,1,2026-03-09T21:31:32.394699+05:30
Srinagar,Jammu and Kashmir,34.0837,74.7973,11.6,76,0.0,844.7,6.5,25.2,143,100.4,65.0,3,5,7,0,2026-03-09T21:31:32.394707+05:30
Jammu,Jammu and Kashmir,32.7266,74.857,23.2,71,0.0,976.9,6.55,18.0,93,60.1,47.4,3,5,7,1,2026-03-09T21:31:32.394716+05:30
Amritsar,Punjab,31.634,74.8723,24.5,74,0.0,985.1,6.5,13.3,162,138.3,115.9,3,5,7,1,2026-03-09T21:31:32.394723+05:30
Ludhiana,Punjab,30.901,75.8573,25.2,68,0.0,983.3,6.15,18.7,156,167.6,113.9,7,5,7,1,2026-03-09T21:31:32.394731+05:30
Jalandhar,Punjab,31.326,75.5762,24.2,78,0.0,984.4,6.35,16.2,158,130.4,95.7,3,5,7,1,2026-03-09T21:31:32.394744+05:30
Dehradun,Uttarakhand,30.6284,78.0322,15.3,94,0.0,834.4,6.3,28.4,100,50.1,35.4,3,10,7,0,2026-03-09T21:31:32.394752+05:30
Shimla,Himachal Pradesh,31.1048,77.1734,14.8,70,0.0,788.7,6.35,48.2,71,44.5,29.6,3,5,7,0,2026-03-09T21:31:32.394760+05:30
Manali,Himachal Pradesh,32.2396,77.1887,18.5,33,0.0,826.0,8.05,35.6,77,28.1,14.0,0,5,7,0,2026-03-09T21:31:32.394768+05:30
Gurgaon,Haryana,28.4595,77.0266,24.1,72,0.0,986.2,5.85,24.5,508,419.1,108.7,3,5,3,1,2026-03-09T21:31:32.394776+05:30
Noida,Uttar Pradesh,28.5355,77.391,27.5,58,0.0,989.5,5.45,24.8,508,419.1,108.7,4,5,3,1,2026-03-09T21:31:32.394784+05:30
Ghaziabad,Uttar Pradesh,28.6692,77.4538,26.5,67,0.0,987.6,5.3,24.1,163,364.1,104.3,7,5,3,1,2026-03-09T21:31:32.394791+05:30
Faridabad,Haryana,28.4089,77.3178,25.7,62,0.0,988.6,5.85,23.0,508,419.1,108.7,7,5,3,1,2026-03-09T21:31:32.394799+05:30
Meerut,Uttar Pradesh,28.9845,77.7064,24.6,77,0.0,986.4,5.7,25.2,163,364.1,104.3,3,5,3,1,2026-03-09T21:31:32.394806+05:30
Agra,Uttar Pradesh,27.1767,78.0081,25.4,70,0.0,992.4,6.4,19.8,184,235.6,98.0,7,5,7,1,2026-03-09T21:31:32.394814+05:30
Varanasi,Uttar Pradesh,25.3176,82.9739,24.4,83,0.0,1003.6,7.2,14.8,186,144.4,137.8,3,5,4,1,2026-03-09T21:31:32.394823+05:30
Prayagraj,Uttar Pradesh,25.4358,81.8463,25.9,71,0.0,1001.5,7.05,15.1,190,129.5,112.7,7,5,4,1,2026-03-09T21:31:32.394831+05:30
Gorakhpur,Uttar Pradesh,26.7606,83.3732,22.7,89,0.0,1003.9,6.9,27.0,206,147.6,138.3,3,5,4,1,2026-03-09T21:31:32.394839+05:30
Bareilly,Uttar Pradesh,28.367,79.4304,25.3,71,0.0,992.0,6.2,16.6,169,126.2,94.1,7,5,7,1,2026-03-09T21:31:32.394846+05:30
Aligarh,Uttar Pradesh,27.8974,78.088,24.1,72,0.0,990.4,6.15,23.8,192,249.6,126.7,3,5,7,1,2026-03-09T21:31:32.394853+05:30
Moradabad,Uttar Pradesh,28.8386,78.7733,24.3,76,0.0,988.8,6.05,18.0,174,152.7,113.9,3,5,7,1,2026-03-09T21:31:32.394862+05:30
Saharanpur,Uttar Pradesh,29.9637,77.546,23.5,78,0.0,980.6,5.65,23.8,159,236.6,99.4,3,5,3,1,2026-03-09T21:31:32.394869+05:30
Jhansi,Uttar Pradesh,25.4484,78.5685,24.9,55,0.0,982.4,7.0,25.6,71,51.8,25.4,0,5,7,0,2026-03-09T21:31:35.757012+05:30
Surat,Gujarat,21.1702,72.8311,29.4,44,0.0,1008.8,7.25,23.8,99,35.0,34.2,4,0,4,0,2026-03-09T21:31:35.757047+05:30
Vadodara,Gujarat,22.3072,73.1812,30.9,34,0.0,1007.1,7.4,17.3,111,32.0,30.7,0,5,4,0,2026-03-09T21:31:35.757058+05:30
Rajkot,Gujarat,22.3039,70.8022,28.8,38,0.0,998.1,7.2,23.0,109,23.2,21.0,4,5,7,0,2026-03-09T21:31:35.757068+05:30
Thane,Maharashtra,19.2183,72.9781,31.6,38,0.0,1008.7,7.55,37.1,220,29.9,29.1,0,0,4,0,2026-03-09T21:31:35.757077+05:30
Nagpur,Maharashtra,21.1458,79.0882,27.3,32,0.0,976.8,7.95,26.6,84,75.7,60.3,4,5,7,0,2026-03-09T21:31:35.757087+05:30
Nashik,Maharashtra,19.9975,73.7898,27.6,23,0.0,948.6,7.75,31.0,116,14.7,13.7,4,5,7,0,2026-03-09T21:31:35.757096+05:30
Aurangabad,Maharashtra,19.8762,75.3433,26.4,41,0.0,946.9,8.25,34.2,109,31.9,28.7,4,5,7,0,2026-03-09T21:31:35.757105+05:30
Solapur,Maharashtra,17.6599,75.9064,26.4,51,0.0,959.6,8.45,25.9,146,28.4,25.6,4,5,7,0,2026-03-09T21:31:35.757114+05:30
Kolhapur,Maharashtra,16.705,74.2433,26.2,33,0.0,950.2,8.6,38.5,130,64.0,61.5,4,5,7,0,2026-03-09T21:31:35.757122+05:30
Goa,Goa,15.2993,74.124,27.9,85,0.0,999.8,8.65,36.0,136,51.3,46.3,7,5,7,1,2026-03-09T21:31:35.757131+05:30
Jodhpur,Rajasthan,26.2389,73.0243,28.5,26,0.0,987.4,7.1,23.4,83,76.1,24.3,4,5,7,0,2026-03-09T21:31:35.757139+05:30
Udaipur,Rajasthan,24.5854,73.7125,25.3,28,0.0,951.5,7.7,17.3,89,15.3,12.3,4,5,7,0,2026-03-09T21:31:35.757147+05:30
Kota,Rajasthan,25.2138,75.8648,28.5,31,0.0,982.9,7.1,17.3,70,32.7,27.6,4,5,7,0,2026-03-09T21:31:35.757155+05:30
Bikaner,Rajasthan,28.0229,73.3119,28.0,25,0.0,986.3,6.7,22.7,68,22.9,11.1,4,5,7,0,2026-03-09T21:31:35.757164+05:30
Ajmer,Rajasthan,26.4499,74.6399,26.9,29,0.0,959.3,7.05,22.7,74,44.1,18.1,4,5,7,0,2026-03-09T21:31:35.757172+05:30
Gwalior,Madhya Pradesh,26.2183,78.1828,27.1,55,0.0,987.8,6.7,21.2,75,110.8,38.0,4,5,7,1,2026-03-09T21:31:35.757179+05:30
Indore,Madhya Pradesh,22.7196,75.8577,23.5,47,0.0,951.6,7.65,26.6,81,37.8,29.5,0,5,7,0,2026-03-09T21:31:35.757188+05:30
Bhopal,Madhya Pradesh,23.2599,77.4126,24.7,49,0.0,957.6,7.5,20.5,93,46.3,25.6,0,5,7,0,2026-03-09T21:31:35.757197+05:30
Jabalpur,Madhya Pradesh,23.1815,79.9864,27.2,41,0.0,965.5,7.65,21.6,94,53.2,31.5,4,5,7,0,2026-03-09T21:31:35.757205+05:30
Ujjain,Madhya Pradesh,23.1765,75.7885,25.9,46,0.0,957.7,7.55,18.4,92,47.7,43.9,4,5,7,0,2026-03-09T21:31:35.757214+05:30
Visakhapatnam,Andhra Pradesh,17.6868,83.2185,25.5,84,0.0,1009.8,8.2,33.5,102,58.0,46.8,7,0,4,1,2026-03-09T21:31:35.757222+05:30
Vijayawada,Andhra Pradesh,16.5062,80.648,26.5,77,0.0,1008.1,8.6,25.6,97,52.9,46.1,7,0,4,1,2026-03-09T21:31:35.757230+05:30
Guntur,Andhra Pradesh,16.3067,80.4365,25.4,82,0.0,1009.2,8.65,27.7,93,49.8,43.7,7,0,4,1,2026-03-09T21:31:35.757239+05:30
Nellore,Andhra Pradesh,14.4426,79.9865,25.3,79,0.0,1011.5,8.8,34.2,81,42.3,31.3,7,0,4,1,2026-03-09T21:31:35.757248+05:30
Kurnool,Andhra Pradesh,15.8281,78.0373,29.2,54,0.0,980.9,8.65,34.6,136,41.0,36.6,4,5,7,1,2026-03-09T21:31:35.757257+05:30
Kakinada,Andhra Pradesh,16.9891,82.2475,24.1,86,0.0,1013.5,8.55,30.2,94,55.2,40.5,3,0,4,1,2026-03-09T21:31:35.757264+05:30
Tirupati,Andhra Pradesh,13.6288,79.4192,24.2,77,0.0,997.0,8.95,36.7,96,55.1,45.8,3,5,7,1,2026-03-09T21:31:35.757271+05:30
Warangal,Telangana,17.9689,79.5941,27.2,71,0.0,983.0,8.4,28.1,117,55.4,50.9,7,5,7,1,2026-03-09T21:31:35.757278+05:30
Nizamabad,Telangana,18.6725,78.0941,27.0,53,0.0,968.3,8.3,31.3,122,58.0,51.5,4,5,7,1,2026-03-09T21:31:35.757284+05:30
Mysore,Karnataka,12.2958,76.6396,25.7,46,0.0,930.4,9.25,38.2,129,40.6,36.0,4,5,7,0,2026-03-09T21:31:35.757291+05:30
Mangalore,Karnataka,12.9141,74.856,29.1,81,0.0,1008.8,8.85,26.3,123,37.5,31.9,7,0,4,1,2026-03-09T21:31:35.757297+05:30
Hubli-Dharwad,Karnataka,15.3647,75.124,28.2,35,0.0,943.1,8.8,37.1,148,34.9,30.7,4,5,7,0,2026-03-09T21:31:35.757304+05:30
Belgaum,Karnataka,15.8497,74.4977,24.8,55,0.0,927.8,8.85,44.6,145,34.7,31.7,0,5,7,0,2026-03-09T21:31:39.123203+05:30
Coimbatore,Tamil Nadu,11.0168,76.9558,26.7,53,0.0,964.8,9.25,49.0,113,48.0,42.3,4,5,7,1,2026-03-09T21:31:39.123238+05:30
Madurai,Tamil Nadu,9.9252,78.1198,26.6,64,0.0,996.9,9.2,38.2,95,48.1,41.2,7,5,7,1,2026-03-09T21:31:39.123250+05:30
Trichy,Tamil Nadu,10.7905,78.7047,25.8,73,0.0,1004.2,9.1,35.6,88,48.4,41.8,7,5,4,1,2026-03-09T21:31:39.123261+05:30
Salem,Tamil Nadu,11.6643,78.146,26.3,66,0.0,981.0,9.15,34.9,126,53.3,46.1,7,5,7,1,2026-03-09T21:31:39.123271+05:30
Tirunelveli,Tamil Nadu,8.7139,77.7567,27.0,63,0.0,1006.8,9.15,37.8,96,45.9,36.4,7,5,4,1,2026-03-09T21:31:39.123280+05:30
Vellore,Tamil Nadu,12.9165,79.1325,25.1,70,0.0,989.6,9.0,41.8,107,56.1,47.1,7,5,7,1,2026-03-09T21:31:39.123289+05:30
Erode,Tamil Nadu,11.341,77.7172,28.0,60,0.0,992.5,9.15,31.3,124,49.7,44.2,4,5,7,1,2026-03-09T21:31:39.123298+05:30
Kochi,Kerala,9.9312,76.2673,28.1,81,0.0,1011.1,8.9,28.8,137,43.5,41.9,7,0,4,1,2026-03-09T21:31:39.123307+05:30
Thiruvananthapuram,Kerala,8.5241,76.9366,27.7,78,0.0,1010.4,9.05,27.4,115,32.8,22.3,7,0,4,1,2026-03-09T21:31:39.123317+05:30
Kozhikode,Kerala,11.2588,75.7804,28.4,82,0.0,1009.9,8.55,24.5,105,30.4,26.8,7,0,4,1,2026-03-09T21:31:39.123326+05:30
Thrissur,Kerala,10.5276,76.2144,28.1,84,0.0,1009.1,9.0,40.0,128,41.4,39.8,7,0,4,1,2026-03-09T21:31:39.123336+05:30
Kannur,Kerala,11.8745,75.3704,28.8,80,0.0,1009.1,8.9,27.0,122,33.2,30.4,7,0,4,1,2026-03-09T21:31:39.123345+05:30
Patna,Bihar,25.5941,85.1376,24.7,82,0.0,1007.2,7.4,29.5,183,128.5,122.0,3,5,4,1,2026-03-09T21:31:39.123354+05:30
Gaya,Bihar,24.7914,85.0002,24.1,92,0.0,1000.3,7.5,25.9,181,112.7,106.9,3,5,4,1,2026-03-09T21:31:39.123363+05:30
Muzaffarpur,Bihar,26.1209,85.3647,24.0,86,0.0,1007.4,7.3,34.2,184,129.9,121.5,3,5,4,1,2026-03-09T21:31:39.123371+05:30
Bhagalpur,Bihar,25.2425,87.0117,24.7,86,0.0,1007.9,3.9,25.9,172,125.3,114.6,3,5,0,1,2026-03-09T21:31:39.123379+05:30
Ranchi,Jharkhand,23.3441,85.3096,23.2,77,0.0,943.1,8.15,25.6,168,100.6,91.7,3,5,7,1,2026-03-09T21:31:39.123388+05:30
Jamshedpur,Jharkhand,22.8046,86.2029,24.8,83,0.0,997.5,8.0,31.3,159,50.9,46.8,3,5,7,1,2026-03-09T21:31:39.123397+05:30
Dhanbad,Jharkhand,23.7957,86.4304,23.9,79,0.0,986.5,7.75,28.8,173,102.0,91.3,3,5,7,1,2026-03-09T21:31:39.123406+05:30
Bokaro,Jharkhand,23.6693,86.1511,22.8,87,0.0,991.0,7.8,25.6,180,96.9,87.8,3,5,7,1,2026-03-09T21:31:39.123415+05:30
Bhubaneswar,Odisha,20.2961,85.8245,25.7,83,0.0,1008.8,8.3,32.8,90,37.0,32.6,7,0,4,1,2026-03-09T21:31:39.123424+05:30
Cuttack,Odisha,20.4625,85.8828,26.1,82,0.0,1010.8,8.35,30.6,90,37.0,32.6,7,0,4,1,2026-03-09T21:31:39.123433+05:30
Rourkela,Odisha,22.2604,84.8536,28.9,58,0.0,988.8,7.9,26.6,165,89.9,78.2,4,5,7,1,2026-03-09T21:31:39.123442+05:30
Raipur,Chhattisgarh,21.2514,81.6296,29.7,31,0.0,978.3,8.0,24.8,163,119.2,96.9,4,5,7,0,2026-03-09T21:31:39.123451+05:30
Bhilai,Chhattisgarh,21.1938,81.3509,28.9,35,0.0,978.6,8.05,24.5,156,105.9,85.9,4,5,7,0,2026-03-09T21:31:39.123459+05:30
Guwahati,Assam,26.1158,91.7086,24.4,78,0.0,1009.1,7.3,11.5,155,67.8,62.9,3,0,4,1,2026-03-09T21:31:39.123468+05:30
Agartala,Tripura,23.8315,91.2868,23.8,80,0.0,1013.2,7.7,12.2,162,113.6,101.5,3,0,4,1,2026-03-09T21:31:39.123476+05:30
Shillong,Meghalaya,25.5788,91.8933,11.6,98,0.0,860.8,6.45,22.0,153,76.8,70.5,3,10,7,0,2026-03-09T21:31:39.123485+05:30
Imphal,Manipur,24.817,93.9368,17.1,94,0.0,929.4,7.95,31.0,161,104.8,100.4,3,10,7,1,2026-03-09T21:31:39.123494+05:30
Aizawl,Mizoram,23.7271,92.7176,17.7,81,0.0,898.1,7.85,26.3,165,95.7,86.6,3,10,7,0,2026-03-09T21:31:39.123503+05:30
Kohima,Nagaland,25.6701,94.1077,15.0,81,0.0,860.3,7.0,53.3,154,77.1,73.6,3,10,7,0,2026-03-09T21:31:39.123511+05:30
Gangtok,Sikkim,27.3314,88.6138,13.8,76,0.0,842.7,4.8,16.9,158,96.9,79.2,3,5,3,0,2026-03-09T21:31:39.123519+05:30
Siliguri,West Bengal,26.7271,88.3953,21.6,57,0.0,1001.5,7.35,18.4,164,112.2,89.4,0,5,4,0,2026-03-09T21:31:42.498189+05:30
Durgapur,West Bengal,23.5204,87.3119,24.6,84,0.0,1001.7,7.8,25.2,163,87.5,78.9,3,5,4,1,2026-03-09T21:31:42.498222+05:30
Asansol,West Bengal,23.6739,86.9524,24.3,84,0.0,1000.7,7.55,25.6,164,97.8,87.1,3,5,4,1,2026-03-09T21:31:42.498233+05:30
Pondicherry,Puducherry,11.9139,79.8145,24.6,84,0.0,1013.5,8.95,33.1,83,36.9,26.0,3,0,4,1,2026-03-09T21:31:42.498243+05:30
Port Blair,Andaman and Nicobar Islands,11.6234,92.7265,27.8,81,0.0,1010.9,8.9,23.8,86,30.9,26.6,7,0,4,1,2026-03-09T21:31:42.498252+05:30
Haridwar,Uttarakhand,29.9457,78.1642,23.4,88,0.0,979.6,5.8,24.5,157,85.0,66.4,3,5,3,1,2026-03-09T21:31:42.498261+05:30
Rishikesh,Uttarakhand,30.0869,78.2676,22.6,87,0.0,972.5,5.85,24.8,152,77.1,54.1,3,5,3,1,2026-03-09T21:31:42.498270+05:30
Nainital,Uttarakhand,29.3919,79.4542,18.0,84,0.0,810.7,6.65,54.0,160,125.3,86.8,3,10,7,0,2026-03-09T21:31:42.498280+05:30
Mussoorie,Uttarakhand,30.4599,78.0664,16.1,87,0.0,806.9,6.2,40.7,160,87.3,62.6,3,10,7,0,2026-03-09T21:31:42.498290+05:30
Dharamshala,Himachal Pradesh,32.219,76.3234,22.0,50,0.0,874.1,6.4,23.0,62,38.1,21.7,0,5,7,0,2026-03-09T21:31:42.498298+05:30
Dalhousie,Himachal Pradesh,32.5387,75.971,18.8,51,0.0,808.2,6.65,22.0,79,57.9,43.1,0,5,7,0,2026-03-09T21:31:42.498308+05:30
Patiala,Punjab,30.3398,76.3869,24.6,71,0.0,982.8,5.25,20.9,170,220.3,99.2,3,5,3,1,2026-03-09T21:31:42.498317+05:30
Bhatinda,Punjab,30.211,74.9455,25.0,63,0.0,988.0,6.35,20.5,155,105.5,81.0,7,5,7,1,2026-03-09T21:31:42.498325+05:30
Rohtak,Haryana,28.8955,76.6066,24.4,68,0.0,986.5,6.05,25.9,184,510.4,118.3,3,5,7,1,2026-03-09T21:31:42.498334+05:30
Panipat,Haryana,29.3909,76.9635,24.0,78,0.0,985.3,5.75,25.6,558,631.4,123.9,3,5,3,1,2026-03-09T21:31:42.498343+05:30
Mathura,Uttar Pradesh,27.4924,77.6737,24.1,64,0.0,991.2,6.3,23.8,171,229.6,95.5,3,5,7,1,2026-03-09T21:31:42.498351+05:30
Vrindavan,Uttar Pradesh,27.5823,77.7027,24.1,65,0.0,991.8,6.25,25.2,171,229.6,95.5,3,5,7,1,2026-03-09T21:31:42.498359+05:30
Ayodhya,Uttar Pradesh,26.7922,82.1998,24.2,87,0.0,1001.5,6.7,18.7,198,157.9,149.9,3,5,4,1,2026-03-09T21:31:42.498367+05:30
Ratlam,Madhya Pradesh,23.3315,75.0367,23.9,61,0.0,958.1,7.5,12.2,90,28.1,27.2,3,5,7,0,2026-03-09T21:31:42.498375+05:30
Sagar,Madhya Pradesh,23.8388,78.7378,27.0,36,0.0,954.2,7.5,17.3,82,28.4,14.4,4,5,7,0,2026-03-09T21:31:42.498384+05:30
Satna,Madhya Pradesh,24.6005,80.8322,25.9,57,0.0,976.4,7.45,18.7,132,79.6,29.6,4,5,7,1,2026-03-09T21:31:42.498392+05:30
Akola,Maharashtra,20.7002,77.0082,29.0,44,0.0,978.0,7.95,16.9,102,28.3,24.0,4,5,7,0,2026-03-09T21:31:42.498401+05:30
Amravati,Maharashtra,20.9374,77.7796,27.9,41,0.0,970.2,7.9,24.8,89,34.0,28.4,4,5,7,0,2026-03-09T21:31:42.498411+05:30
Latur,Maharashtra,18.4088,76.5604,25.3,44,0.0,943.0,8.4,29.5,130,39.7,32.7,4,5,7,0,2026-03-09T21:31:42.498420+05:30
Nanded,Maharashtra,19.1383,77.3091,28.3,39,0.0,971.9,8.15,29.5,109,52.5,42.8,4,5,7,0,2026-03-09T21:31:42.498429+05:30
Gulbarga,Karnataka,17.3297,76.8343,29.4,33,0.0,961.7,8.5,34.6,156,36.8,33.1,4,5,7,0,2026-03-09T21:31:42.498437+05:30
Bidar,Karnataka,17.9104,77.5199,27.0,46,0.0,939.1,8.45,33.5,133,46.3,40.5,4,5,7,0,2026-03-09T21:31:42.498445+05:30
Hospet,Karnataka,15.2689,76.3909,30.0,33,0.0,958.6,8.75,35.3,144,46.4,40.3,4,5,7,0,2026-03-09T21:31:42.498452+05:30
Tirupur,Tamil Nadu,11.1085,77.3411,28.1,54,0.0,978.5,9.25,39.2,127,49.2,44.2,4,5,7,1,2026-03-09T21:31:42.498460+05:30
Alappuzha,Kerala,9.4981,76.3388,27.6,83,0.0,1011.4,8.95,25.9,128,45.8,43.0,7,0,4,1,2026-03-09T21:31:42.498468+05:30
Munnar,Kerala,10.0889,77.0595,21.1,72,0.0,858.6,9.55,24.8,98,46.7,40.0,3,5,7,0,2026-03-09T21:31:42.498477+05:30
Silchar,Assam,24.8333,92.7789,23.9,88,0.0,1012.3,7.65,14.0,170,130.9,119.7,3,0,4,1,2026-03-09T21:31:42.498485+05:30
Dibrugarh,Assam,27.4728,94.912,24.6,86,0.0,1002.5,7.4,15.8,163,96.2,87.5,3,5,4,1,2026-03-09T21:31:42.498493+05:30
