city,state,latitude,longitude,temp,humidity,rain,pressure,uv_index,wind_gusts,aqi,pm10,pm2_5,mosquito_risk,arthritis_risk,migraine_risk,frizz_risk,updated_at
Delhi,Delhi,28.6139,77.209,26.3,51,0.0,982.0,6.7,17.6,154,138.3,64.7,4,5,7,0,2026-04-18T03:15:38.808723+05:30
Mumbai,Maharashtra,19.076,72.8777,29.7,77,0.0,1006.4,5.9,23.4,97,96.6,28.2,7,5,0,1,2026-04-18T03:15:38.808770+05:30
Bangalore,Karnataka,12.9716,77.5946,23.7,75,0.0,910.1,7.9,34.6,87,36.2,33.4,3,5,7,1,2026-04-18T03:15:38.808786+05:30
Hyderabad,Telangana,17.385,78.4867,27.6,64,0.0,951.2,9.0,19.8,86,25.8,22.8,7,5,7,1,2026-04-18T03:15:38.808797+05:30
Chennai,Tamil Nadu,13.0827,80.2707,27.4,87,0.0,1006.0,8.0,32.4,35,12.3,8.3,7,5,4,1,2026-04-18T03:15:38.808808+05:30
Kolkata,West Bengal,22.5726,88.3639,26.9,96,0.0,1005.4,8.85,23.0,61,17.8,14.8,7,5,4,1,2026-04-18T03:15:38.808823+05:30
Pune,Maharashtra,18.5204,73.8567,24.2,80,0.0,946.7,8.4,29.2,98,57.7,40.2,3,5,7,1,2026-04-18T03:15:38.808831+05:30
Ahmedabad,Gujarat,23.0225,72.5714,26.4,54,0.0,1001.0,8.15,23.4,74,34.2,20.4,4,5,4,1,2026-04-18T03:15:38.808841+05:30
Jaipur,Rajasthan,26.9124,75.7873,27.7,37,0.0,958.8,7.95,28.1,89,99.4,38.9,4,5,7,0,2026-04-18T03:15:38.808849+05:30
Lucknow,Uttar Pradesh,26.8467,80.9462,25.6,60,0.0,991.9,7.85,27.4,104,157.4,46.7,4,5,7,1,2026-04-18T03:15:38.808857+05:30
Kanpur,Uttar Pradesh,26.4499,80.3319,25.0,62,0.0,990.4,7.85,22.7,108,175.6,47.1,7,5,7,1,2026-04-18T03:15:38.808865+05:30
Chandigarh,Chandigarh,30.7333,76.7794,21.1,60,0.0,968.1,7.2,29.2,56,22.3,14.2,0,5,7,0,2026-04-18T03:15:38.808873+05:30
Srinagar,Jammu and Kashmir,34.0837,74.7973,9.9,94,0.0,843.8,7.1,19.4,72,26.8,25.1,3,10,7,0,2026-04-18T03:15:38.808881+05:30
Jammu,Jammu and Kashmir,32.7266,74.857,22.8,51,0.0,975.1,7.2,29.9,65,17.9,15.9,0,5,7,0,2026-04-18T03:15:38.808887+05:30
Amritsar,Punjab,31.634,74.8723,21.4,59,0.0,981.4,6.6,48.2,60,31.7,22.2,0,5,7,0,2026-04-18T03:15:38.808895+05:30
Ludhiana,Punjab,30.901,75.8573,22.8,53,0.0,978.5,7.5,31.7,73,29.9,22.9,0,5,7,0,2026-04-18T03:15:38.808905+05:30
Jalandhar,Punjab,31.326,75.5762,21.2,56,0.0,980.2,6.55,42.8,62,40.9,18.0,0,5,7,0,2026-04-18T03:15:38.808911+05:30
Dehradun,Uttarakhand,30.6284,78.0322,15.8,47,0.0,831.0,7.5,38.9,40,8.6,5.0,0,5,7,0,2026-04-18T03:15:38.808918+05:30
Shimla,Himachal Pradesh,31.1048,77.1734,13.5,56,0.0,785.1,5.95,45.0,47,22.1,11.2,0,5,3,0,2026-04-18T03:15:38.808924+05:30
Manali,Himachal Pradesh,32.2396,77.1887,14.4,65,0.0,821.7,9.2,33.8,50,3.4,3.3,3,5,7,0,2026-04-18T03:15:38.808932+05:30
Gurgaon,Haryana,28.4595,77.0266,23.4,65,0.0,980.3,6.9,15.5,434,285.9,87.1,3,5,7,1,2026-04-18T03:15:38.808939+05:30
Noida,Uttar Pradesh,28.5355,77.391,25.6,55,0.0,983.5,6.8,20.2,434,285.9,87.1,4,5,7,0,2026-04-18T03:15:38.808945+05:30
Ghaziabad,Uttar Pradesh,28.6692,77.4538,24.1,59,0.0,981.6,6.8,13.3,145,95.7,48.8,0,5,7,0,2026-04-18T03:15:38.808951+05:30
Faridabad,Haryana,28.4089,77.3178,25.2,60,0.0,982.8,6.85,13.7,434,285.9,87.1,4,5,7,1,2026-04-18T03:15:38.808958+05:30
Meerut,Uttar Pradesh,28.9845,77.7064,23.3,59,0.0,980.4,7.15,14.4,145,95.7,48.8,0,5,7,0,2026-04-18T03:15:38.808964+05:30
Agra,Uttar Pradesh,27.1767,78.0081,25.3,52,0.0,986.5,7.75,16.2,335,489.9,85.9,4,5,7,0,2026-04-18T03:15:38.808974+05:30
Varanasi,Uttar Pradesh,25.3176,82.9739,27.0,55,0.0,995.6,8.2,26.6,118,78.2,54.8,4,5,7,1,2026-04-18T03:15:38.808980+05:30
Prayagraj,Uttar Pradesh,25.4358,81.8463,26.7,51,0.0,993.8,7.8,26.6,105,50.2,33.9,4,5,7,0,2026-04-18T03:15:38.808988+05:30
Gorakhpur,Uttar Pradesh,26.7606,83.3732,25.1,79,0.0,995.6,8.25,23.4,154,86.8,74.5,7,5,7,1,2026-04-18T03:15:38.808996+05:30
Bareilly,Uttar Pradesh,28.367,79.4304,22.7,68,0.0,985.2,7.45,22.0,85,43.2,23.7,3,5,7,1,2026-04-18T03:15:38.809002+05:30
Aligarh,Uttar Pradesh,27.8974,78.088,24.4,59,0.0,984.2,7.35,19.1,149,146.7,50.6,0,5,7,0,2026-04-18T03:15:38.809011+05:30
Moradabad,Uttar Pradesh,28.8386,78.7733,22.5,66,0.0,982.2,7.4,19.8,100,51.0,34.0,3,5,7,0,2026-04-18T03:15:38.809017+05:30
Saharanpur,Uttar Pradesh,29.9637,77.546,21.2,63,0.0,974.7,7.0,19.4,73,32.9,25.4,3,5,7,0,2026-04-18T03:15:38.809023+05:30
Jhansi,Uttar Pradesh,25.4484,78.5685,29.0,49,0.0,976.4,7.95,20.5,77,74.5,29.1,4,5,7,1,2026-04-18T03:15:42.058381+05:30
Surat,Gujarat,21.1702,72.8311,27.6,84,0.0,1005.1,7.85,27.0,114,75.4,37.7,7,5,4,1,2026-04-18T03:15:42.058414+05:30
Vadodara,Gujarat,22.3072,73.1812,25.9,73,0.0,1003.0,8.15,18.0,86,59.6,40.9,7,5,4,1,2026-04-18T03:15:42.058424+05:30
Rajkot,Gujarat,22.3039,70.8022,24.0,71,0.0,993.8,7.85,27.7,66,54.9,16.9,3,5,7,1,2026-04-18T03:15:42.058431+05:30
Thane,Maharashtra,19.2183,72.9781,26.8,90,0.0,1006.0,6.3,34.2,97,96.6,28.2,7,5,4,1,2026-04-18T03:15:42.058439+05:30
Nagpur,Maharashtra,21.1458,79.0882,27.9,45,0.0,970.3,7.45,19.4,96,28.8,25.1,4,5,7,0,2026-04-18T03:15:42.058446+05:30
Nashik,Maharashtra,19.9975,73.7898,25.6,60,0.0,944.5,6.9,26.3,66,59.4,33.8,4,5,7,1,2026-04-18T03:15:42.058453+05:30
Aurangabad,Maharashtra,19.8762,75.3433,28.1,37,0.0,942.4,8.4,27.0,49,28.4,18.5,4,5,7,0,2026-04-18T03:15:42.058460+05:30
Solapur,Maharashtra,17.6599,75.9064,27.9,56,0.0,955.1,8.95,27.0,111,49.4,42.7,4,5,7,1,2026-04-18T03:15:42.058467+05:30
Kolhapur,Maharashtra,16.705,74.2433,23.3,89,0.0,945.9,8.9,38.5,73,43.8,33.1,3,5,7,1,2026-04-18T03:15:42.058474+05:30
Goa,Goa,15.2993,74.124,27.0,85,0.0,995.5,9.05,29.2,69,48.4,29.0,7,5,7,1,2026-04-18T03:15:42.058480+05:30
Jodhpur,Rajasthan,26.2389,73.0243,26.2,55,0.0,981.6,8.15,27.4,90,97.6,20.4,4,5,7,1,2026-04-18T03:15:42.058487+05:30
Udaipur,Rajasthan,24.5854,73.7125,24.8,37,0.0,946.0,8.7,28.1,51,34.7,13.2,0,5,7,0,2026-04-18T03:15:42.058494+05:30
Kota,Rajasthan,25.2138,75.8648,27.8,42,0.0,977.1,8.25,25.6,77,27.7,21.8,4,5,7,0,2026-04-18T03:15:42.058500+05:30
Bikaner,Rajasthan,28.0229,73.3119,28.3,25,0.0,979.7,7.55,24.5,68,72.9,17.0,4,5,7,0,2026-04-18T03:15:42.058506+05:30
Ajmer,Rajasthan,26.4499,74.6399,25.7,42,0.0,953.8,8.15,33.1,61,67.1,15.1,4,5,7,0,2026-04-18T03:15:42.058511+05:30
Gwalior,Madhya Pradesh,26.2183,78.1828,28.0,51,0.0,981.8,8.0,23.0,89,160.2,41.1,4,5,7,1,2026-04-18T03:15:42.058517+05:30
Indore,Madhya Pradesh,22.7196,75.8577,23.9,54,0.0,946.8,8.15,24.5,70,16.5,12.3,0,5,7,0,2026-04-18T03:15:42.058523+05:30
Bhopal,Madhya Pradesh,23.2599,77.4126,26.5,45,0.0,952.5,8.05,23.4,71,32.1,25.1,4,5,7,0,2026-04-18T03:15:42.058528+05:30
Jabalpur,Madhya Pradesh,23.1815,79.9864,27.2,55,0.0,959.3,8.05,22.3,74,65.9,34.9,4,5,7,1,2026-04-18T03:15:42.058534+05:30
Ujjain,Madhya Pradesh,23.1765,75.7885,24.3,54,0.0,952.8,8.5,21.6,69,17.1,12.5,0,5,7,0,2026-04-18T03:15:42.058541+05:30
Visakhapatnam,Andhra Pradesh,17.6868,83.2185,27.7,89,0.0,1002.6,9.2,34.6,50,14.9,11.4,7,5,4,1,2026-04-18T03:15:42.058547+05:30
Vijayawada,Andhra Pradesh,16.5062,80.648,27.0,88,0.0,1001.5,9.2,24.1,49,10.1,7.8,7,5,4,1,2026-04-18T03:15:42.058570+05:30
Guntur,Andhra Pradesh,16.3067,80.4365,27.1,89,0.0,1002.4,9.25,27.4,53,10.2,7.8,7,5,4,1,2026-04-18T03:15:42.058576+05:30
Nellore,Andhra Pradesh,14.4426,79.9865,26.7,89,0.0,1004.1,8.85,30.6,51,10.4,8.3,7,5,4,1,2026-04-18T03:15:42.058583+05:30
Kurnool,Andhra Pradesh,15.8281,78.0373,30.5,68,0.0,974.7,9.25,27.7,81,21.3,19.4,3,5,7,1,2026-04-18T03:15:42.058590+05:30
Kakinada,Andhra Pradesh,16.9891,82.2475,27.4,89,0.0,1006.4,8.8,27.7,32,12.7,8.1,7,5,4,1,2026-04-18T03:15:42.058596+05:30
Tirupati,Andhra Pradesh,13.6288,79.4192,25.4,91,0.0,990.8,8.1,30.6,71,15.0,13.3,7,5,7,1,2026-04-18T03:15:42.058602+05:30
Warangal,Telangana,17.9689,79.5941,27.9,75,0.0,976.5,9.15,47.2,78,21.8,20.3,7,5,7,1,2026-04-18T03:15:42.058607+05:30
Nizamabad,Telangana,18.6725,78.0941,30.3,48,0.0,962.5,8.85,19.4,102,44.9,41.9,0,5,7,1,2026-04-18T03:15:42.058613+05:30
Mysore,Karnataka,12.2958,76.6396,24.3,92,0.0,927.2,8.8,34.2,95,36.1,32.2,3,5,7,1,2026-04-18T03:15:42.058619+05:30
Mangalore,Karnataka,12.9141,74.856,29.7,81,0.0,1004.7,9.15,24.8,77,28.0,17.9,7,5,4,1,2026-04-18T03:15:42.058625+05:30
Hubli-Dharwad,Karnataka,15.3647,75.124,24.2,86,0.0,938.4,9.25,28.1,70,23.1,17.7,3,5,7,1,2026-04-18T03:15:42.058631+05:30
Belgaum,Karnataka,15.8497,74.4977,23.3,93,0.0,923.7,9.3,28.4,64,35.6,23.5,3,5,7,1,2026-04-18T03:15:45.318283+05:30
Coimbatore,Tamil Nadu,11.0168,76.9558,24.7,92,0.0,960.3,9.1,33.5,96,48.1,44.1,3,5,7,1,2026-04-18T03:15:45.318317+05:30
Madurai,Tamil Nadu,9.9252,78.1198,27.2,88,0.0,991.5,9.35,33.1,81,31.3,29.5,7,5,7,1,2026-04-18T03:15:45.318328+05:30
Trichy,Tamil Nadu,10.7905,78.7047,27.1,93,0.0,998.5,9.3,18.7,74,22.1,19.7,7,5,7,1,2026-04-18T03:15:45.318336+05:30
Salem,Tamil Nadu,11.6643,78.146,26.7,89,0.0,975.9,9.4,19.1,77,35.3,32.8,7,5,7,1,2026-04-18T03:15:45.318343+05:30
Tirunelveli,Tamil Nadu,8.7139,77.7567,26.6,76,0.0,1001.4,9.25,47.2,89,37.7,34.1,7,5,4,1,2026-04-18T03:15:45.318350+05:30
Vellore,Tamil Nadu,12.9165,79.1325,25.2,96,0.0,983.6,8.6,28.4,92,36.3,34.8,7,5,7,1,2026-04-18T03:15:45.318357+05:30
Erode,Tamil Nadu,11.341,77.7172,28.1,85,0.0,987.6,9.35,26.6,73,21.3,19.8,7,5,7,1,2026-04-18T03:15:45.318363+05:30
Kochi,Kerala,9.9312,76.2673,28.6,82,0.0,1006.6,9.15,32.0,99,42.1,34.8,7,5,4,1,2026-04-18T03:15:45.318370+05:30
Thiruvananthapuram,Kerala,8.5241,76.9366,28.8,82,0.0,1005.8,9.1,25.6,81,30.2,21.5,7,5,4,1,2026-04-18T03:15:45.318376+05:30
Kozhikode,Kerala,11.2588,75.7804,29.1,86,0.0,1005.8,8.85,29.9,94,43.9,27.2,7,5,4,1,2026-04-18T03:15:45.318382+05:30
Thrissur,Kerala,10.5276,76.2144,28.2,88,0.0,1005.0,9.1,40.0,97,49.5,35.4,7,5,4,1,2026-04-18T03:15:45.318389+05:30
Kannur,Kerala,11.8745,75.3704,29.3,83,0.0,1005.0,8.5,31.0,90,32.6,25.7,7,5,4,1,2026-04-18T03:15:45.318396+05:30
Patna,Bihar,25.5941,85.1376,27.5,78,0.0,998.8,8.6,22.0,151,67.1,58.3,7,5,7,1,2026-04-18T03:15:45.318403+05:30
Gaya,Bihar,24.7914,85.0002,26.9,79,0.0,992.1,8.65,24.5,137,59.3,49.6,7,5,7,1,2026-04-18T03:15:45.318409+05:30
Muzaffarpur,Bihar,26.1209,85.3647,26.1,82,0.0,999.0,8.6,27.7,153,64.0,56.1,7,5,7,1,2026-04-18T03:15:45.318415+05:30
Bhagalpur,Bihar,25.2425,87.0117,26.0,84,0.0,1000.1,8.6,24.1,153,61.5,54.8,7,5,4,1,2026-04-18T03:15:45.318422+05:30
Ranchi,Jharkhand,23.3441,85.3096,23.7,77,0.0,936.9,9.1,37.1,93,61.0,37.6,3,5,7,1,2026-04-18T03:15:45.318428+05:30
Jamshedpur,Jharkhand,22.8046,86.2029,27.0,85,0.0,990.2,9.0,27.7,85,16.6,15.1,7,5,7,1,2026-04-18T03:15:45.318435+05:30
Dhanbad,Jharkhand,23.7957,86.4304,26.9,83,0.0,979.1,8.95,23.8,150,41.1,40.0,7,5,7,1,2026-04-18T03:15:45.318441+05:30
Bokaro,Jharkhand,23.6693,86.1511,26.0,90,0.0,983.2,8.95,24.1,154,72.9,66.4,7,5,7,1,2026-04-18T03:15:45.318448+05:30
Bhubaneswar,Odisha,20.2961,85.8245,26.9,93,0.0,1001.7,8.65,28.1,54,13.7,10.0,7,5,4,1,2026-04-18T03:15:45.318454+05:30
Cuttack,Odisha,20.4625,85.8828,27.0,92,0.0,1003.6,8.75,25.6,54,13.7,10.0,7,5,4,1,2026-04-18T03:15:45.318460+05:30
Rourkela,Odisha,22.2604,84.8536,27.7,82,0.0,984.1,8.6,40.3,110,60.1,48.2,7,5,7,1,2026-04-18T03:15:45.318466+05:30
Raipur,Chhattisgarh,21.2514,81.6296,29.0,54,0.0,972.1,8.95,28.8,107,68.0,55.8,4,5,7,1,2026-04-18T03:15:45.318473+05:30
Bhilai,Chhattisgarh,21.1938,81.3509,27.4,66,0.0,972.3,9.0,29.9,105,73.3,63.1,7,5,7,1,2026-04-18T03:15:45.318478+05:30
Guwahati,Assam,26.1158,91.7086,25.7,79,0.0,1001.8,8.5,24.1,151,73.3,63.8,7,5,4,1,2026-04-18T03:15:45.318484+05:30
Agartala,Tripura,23.8315,91.2868,24.5,93,0.0,1006.2,8.7,19.4,128,39.8,34.8,3,5,4,1,2026-04-18T03:15:45.318490+05:30
Shillong,Meghalaya,25.5788,91.8933,12.3,85,0.0,854.9,6.7,27.7,127,56.1,47.5,3,10,7,0,2026-04-18T03:15:45.318497+05:30
Imphal,Manipur,24.817,93.9368,18.7,90,0.0,923.9,8.5,44.6,153,105.7,85.4,3,10,7,1,2026-04-18T03:15:45.318503+05:30
Aizawl,Mizoram,23.7271,92.7176,18.0,93,0.0,892.8,8.95,36.7,146,29.9,22.8,3,10,7,1,2026-04-18T03:15:45.318510+05:30
Kohima,Nagaland,25.6701,94.1077,16.0,88,0.0,855.5,8.2,47.5,121,71.0,48.8,3,10,7,0,2026-04-18T03:15:45.318516+05:30
Gangtok,Sikkim,27.3314,88.6138,15.8,92,0.0,837.6,8.85,20.5,115,47.4,35.7,3,10,7,0,2026-04-18T03:15:45.318523+05:30
Siliguri,West Bengal,26.7271,88.3953,21.6,78,0.0,994.5,7.15,17.6,160,123.9,84.8,3,5,7,1,2026-04-18T03:15:48.593830+05:30
Durgapur,West Bengal,23.5204,87.3119,26.5,90,0.0,994.3,8.75,31.3,125,36.9,35.0,7,5,7,1,2026-04-18T03:15:48.593863+05:30
Asansol,West Bengal,23.6739,86.9524,27.2,85,0.0,992.8,8.65,39.6,126,29.6,28.1,7,5,7,1,2026-04-18T03:15:48.593874+05:30
Pondicherry,Puducherry,11.9139,79.8145,26.1,96,0.0,1007.2,8.4,28.1,32,11.5,7.5,7,5,4,1,2026-04-18T03:15:48.593881+05:30
Port Blair,Andaman and Nicobar Islands,11.6234,92.7265,28.8,78,0.0,1005.8,9.2,13.3,46,11.9,8.4,7,5,4,1,2026-04-18T03:15:48.593888+05:30
Haridwar,Uttarakhand,29.9457,78.1642,21.4,62,0.0,973.4,7.05,28.8,58,20.6,15.5,3,5,7,0,2026-04-18T03:15:48.593895+05:30
Rishikesh,Uttarakhand,30.0869,78.2676,21.2,57,0.0,966.5,6.9,33.8,50,18.4,11.6,0,5,7,0,2026-04-18T03:15:48.593901+05:30
Nainital,Uttarakhand,29.3919,79.4542,22.7,29,0.0,807.7,8.1,57.2,53,23.9,13.6,0,5,7,0,2026-04-18T03:15:48.593907+05:30
Mussoorie,Uttarakhand,30.4599,78.0664,19.0,39,0.0,804.2,7.4,40.7,53,15.3,10.9,0,5,7,0,2026-04-18T03:15:48.593913+05:30
Dharamshala,Himachal Pradesh,32.219,76.3234,21.9,36,0.0,871.2,7.05,40.7,36,7.5,5.5,0,5,7,0,2026-04-18T03:15:48.593919+05:30
Dalhousie,Himachal Pradesh,32.5387,75.971,18.3,42,0.0,806.2,6.7,38.9,56,20.7,18.0,0,5,7,0,2026-04-18T03:15:48.593926+05:30
Patiala,Punjab,30.3398,76.3869,20.8,62,0.0,977.6,7.2,23.0,168,119.2,38.6,3,5,7,0,2026-04-18T03:15:48.593933+05:30
Bhatinda,Punjab,30.211,74.9455,23.8,47,0.0,983.3,7.85,35.3,109,181.1,43.4,0,5,7,0,2026-04-18T03:15:48.593939+05:30
Rohtak,Haryana,28.8955,76.6066,21.7,67,0.0,980.7,6.95,14.4,182,241.2,80.3,3,5,7,0,2026-04-18T03:15:48.593945+05:30
Panipat,Haryana,29.3909,76.9635,21.5,63,0.0,979.3,7.2,13.0,415,478.7,88.7,3,5,7,0,2026-04-18T03:15:48.593951+05:30
Mathura,Uttar Pradesh,27.4924,77.6737,22.8,61,0.0,985.6,7.65,22.0,288,476.8,89.2,3,5,7,0,2026-04-18T03:15:48.593957+05:30
Vrindavan,Uttar Pradesh,27.5823,77.7027,24.4,59,0.0,986.1,7.6,21.2,288,476.8,89.2,0,5,7,0,2026-04-18T03:15:48.593963+05:30
Ayodhya,Uttar Pradesh,26.7922,82.1998,24.8,78,0.0,993.4,8.0,27.7,130,96.6,39.6,3,5,7,1,2026-04-18T03:15:48.593969+05:30
Ratlam,Madhya Pradesh,23.3315,75.0367,26.4,44,0.0,953.5,8.45,21.2,58,18.2,12.1,4,5,7,0,2026-04-18T03:15:48.593975+05:30
Sagar,Madhya Pradesh,23.8388,78.7378,27.3,51,0.0,948.4,8.2,25.9,66,50.8,25.4,4,5,7,1,2026-04-18T03:15:48.593981+05:30
Satna,Madhya Pradesh,24.6005,80.8322,28.4,42,0.0,969.4,8.0,18.4,74,52.7,19.3,4,5,7,0,2026-04-18T03:15:48.593987+05:30
Akola,Maharashtra,20.7002,77.0082,27.6,56,0.0,972.8,8.5,26.6,62,18.7,14.6,4,5,7,1,2026-04-18T03:15:48.593993+05:30
Amravati,Maharashtra,20.9374,77.7796,26.1,50,0.0,964.6,8.0,21.2,59,17.9,15.3,4,5,7,0,2026-04-18T03:15:48.594000+05:30
Latur,Maharashtra,18.4088,76.5604,25.6,62,0.0,938.1,8.85,19.4,79,44.8,40.5,7,5,7,1,2026-04-18T03:15:48.594006+05:30
Nanded,Maharashtra,19.1383,77.3091,27.8,57,0.0,966.5,8.8,20.5,84,53.0,48.4,4,5,7,1,2026-04-18T03:15:48.594012+05:30
Gulbarga,Karnataka,17.3297,76.8343,29.5,43,0.0,956.3,9.15,20.9,88,35.6,32.7,4,5,7,0,2026-04-18T03:15:48.594017+05:30
Bidar,Karnataka,17.9104,77.5199,28.0,50,0.0,933.4,9.15,23.0,94,36.6,34.0,4,5,7,1,2026-04-18T03:15:48.594023+05:30
Hospet,Karnataka,15.2689,76.3909,27.6,71,0.0,954.0,9.25,20.9,88,38.8,36.1,7,5,7,1,2026-04-18T03:15:48.594029+05:30
Tirupur,Tamil Nadu,11.1085,77.3411,27.3,83,0.0,973.8,9.4,31.0,80,27.7,25.4,7,5,7,1,2026-04-18T03:15:48.594035+05:30
Alappuzha,Kerala,9.4981,76.3388,28.6,86,0.0,1006.8,9.15,28.8,98,47.7,33.8,7,5,4,1,2026-04-18T03:15:48.594040+05:30
Munnar,Kerala,10.0889,77.0595,21.5,86,0.0,855.4,9.7,25.2,83,39.3,35.9,3,5,7,1,2026-04-18T03:15:48.594047+05:30
Silchar,Assam,24.8333,92.7789,23.4,90,0.0,1006.2,8.75,22.3,158,113.4,91.0,3,5,4,1,2026-04-18T03:15:48.594053+05:30
Dibrugarh,Assam,27.4728,94.912,25.2,86,0.0,996.1,8.65,13.7,138,54.6,43.5,7,5,7,1,2026-04-18T03:15:48.594059+05:30
