city,state,latitude,longitude,temp,humidity,rain,pressure,uv_index,wind_gusts,aqi,pm10,pm2_5,no2,co,o3,so2,mosquito_risk,arthritis_risk,migraine_risk,frizz_risk,updated_at
Delhi,Delhi,28.6139,77.209,25.5,74,0.0,978.2,7.8,51.5,712,181.6,51.7,12.5,304.0,98.0,13.1,7,5,7,1,2026-06-12T04:55:00.654031+05:30
Mumbai,Maharashtra,19.076,72.8777,30.2,73,0.0,1005.0,7.7,47.5,81,65.4,26.5,3.8,115.0,56.0,4.0,3,5,4,1,2026-06-12T04:55:00.654072+05:30
Bangalore,Karnataka,12.9716,77.5946,20.8,96,0.0,910.6,7.2,46.4,54,19.8,11.5,14.0,219.0,31.0,5.5,3,5,7,1,2026-06-12T04:55:00.654087+05:30
Hyderabad,Telangana,17.385,78.4867,26.4,67,0.0,950.2,9.1,36.7,75,25.9,19.4,10.8,196.0,48.0,6.8,7,5,7,1,2026-06-12T04:55:00.654097+05:30
Chennai,Tamil Nadu,13.0827,80.2707,28.6,81,0.0,1004.7,6.95,37.1,64,21.0,16.4,16.0,256.0,50.0,13.5,7,5,4,1,2026-06-12T04:55:00.654105+05:30
Kolkata,West Bengal,22.5726,88.3639,26.2,95,0.0,1003.5,8.75,25.6,160,81.7,68.7,21.5,597.0,50.0,10.5,7,5,4,1,2026-06-12T04:55:00.654113+05:30
Pune,Maharashtra,18.5204,73.8567,24.7,87,0.0,945.6,8.3,46.1,62,26.3,13.6,6.2,108.0,42.0,4.9,3,5,7,1,2026-06-12T04:55:00.654120+05:30
Ahmedabad,Gujarat,23.0225,72.5714,30.3,66,0.0,996.7,8.1,48.2,75,43.3,19.8,4.9,119.0,48.0,4.2,3,5,7,1,2026-06-12T04:55:00.654127+05:30
Jaipur,Rajasthan,26.9124,75.7873,29.7,63,0.0,953.2,8.25,50.4,146,211.4,57.0,7.5,173.0,59.0,6.2,7,5,7,1,2026-06-12T04:55:00.654137+05:30
Lucknow,Uttar Pradesh,26.8467,80.9462,25.9,80,0.0,990.2,8.35,37.8,124,29.3,20.7,12.0,316.0,89.0,8.6,7,5,7,1,2026-06-12T04:55:00.654144+05:30
Kanpur,Uttar Pradesh,26.4499,80.3319,27.5,73,0.0,987.7,8.35,47.2,157,35.5,22.7,11.7,346.0,85.0,6.6,7,5,7,1,2026-06-12T04:55:00.654152+05:30
Chandigarh,Chandigarh,30.7333,76.7794,25.9,73,0.0,963.7,5.15,54.7,134,99.7,49.6,11.1,233.0,95.0,9.7,7,5,3,1,2026-06-12T04:55:00.654159+05:30
Srinagar,Jammu and Kashmir,34.0837,74.7973,14.7,90,0.0,838.4,7.1,30.2,79,40.4,35.5,19.6,269.0,20.0,0.2,3,10,7,0,2026-06-12T04:55:00.654166+05:30
Jammu,Jammu and Kashmir,32.7266,74.857,26.2,50,0.0,966.9,8.55,45.7,100,44.2,40.0,34.0,397.0,11.0,2.7,4,5,7,0,2026-06-12T04:55:00.654173+05:30
Amritsar,Punjab,31.634,74.8723,27.3,72,0.0,974.9,8.4,52.2,191,276.6,76.1,7.7,308.0,98.0,8.7,7,5,7,1,2026-06-12T04:55:00.654180+05:30
Ludhiana,Punjab,30.901,75.8573,26.0,74,0.0,972.9,7.3,59.0,606,812.1,174.2,6.7,284.0,107.0,10.2,7,5,7,1,2026-06-12T04:55:00.654186+05:30
Jalandhar,Punjab,31.326,75.5762,26.6,73,0.0,973.9,7.35,55.8,407,502.9,123.4,7.9,276.0,103.0,10.7,7,5,7,1,2026-06-12T04:55:00.654192+05:30
Dehradun,Uttarakhand,30.6284,78.0322,15.4,98,0.0,826.8,6.25,28.1,76,45.2,21.4,33.4,223.0,8.0,0.5,3,10,7,0,2026-06-12T04:55:00.654201+05:30
Shimla,Himachal Pradesh,31.1048,77.1734,11.4,88,0.0,778.2,8.25,33.1,91,33.3,29.5,18.8,263.0,48.0,1.8,3,10,7,0,2026-06-12T04:55:00.654209+05:30
Manali,Himachal Pradesh,32.2396,77.1887,14.3,80,0.0,815.3,6.9,40.0,41,5.0,3.6,14.6,224.0,117.0,0.0,3,5,7,0,2026-06-12T04:55:00.654216+05:30
Gurgaon,Haryana,28.4595,77.0266,25.9,76,0.0,976.3,7.9,57.2,1552,360.4,86.1,11.3,287.0,103.0,11.7,7,5,7,1,2026-06-12T04:55:00.654222+05:30
Noida,Uttar Pradesh,28.5355,77.391,25.3,73,0.0,980.0,7.85,49.0,1552,360.4,86.1,11.3,317.0,103.0,11.7,7,5,7,1,2026-06-12T04:55:00.654228+05:30
Ghaziabad,Uttar Pradesh,28.6692,77.4538,24.7,76,0.0,978.3,7.7,51.8,473,52.0,30.7,8.9,306.0,101.0,6.4,3,5,7,1,2026-06-12T04:55:00.654235+05:30
Faridabad,Haryana,28.4089,77.3178,25.0,79,0.0,979.2,7.75,54.4,1552,360.4,86.1,11.3,320.0,103.0,11.7,7,5,7,1,2026-06-12T04:55:00.654241+05:30
Meerut,Uttar Pradesh,28.9845,77.7064,23.3,96,0.0,977.2,6.65,44.6,473,52.0,30.7,8.9,312.0,101.0,6.4,3,5,7,1,2026-06-12T04:55:00.654247+05:30
Agra,Uttar Pradesh,27.1767,78.0081,29.4,65,0.0,983.1,8.15,48.6,960,1885.0,221.2,6.4,172.0,116.0,7.0,7,5,7,1,2026-06-12T04:55:00.654254+05:30
Varanasi,Uttar Pradesh,25.3176,82.9739,27.6,74,0.0,994.0,8.75,43.6,146,51.5,43.2,14.5,418.0,86.0,18.1,7,5,7,1,2026-06-12T04:55:00.654260+05:30
Prayagraj,Uttar Pradesh,25.4358,81.8463,28.7,65,0.0,992.0,8.75,39.2,146,44.8,36.0,12.3,404.0,96.0,13.5,7,5,7,1,2026-06-12T04:55:00.654268+05:30
Gorakhpur,Uttar Pradesh,26.7606,83.3732,25.2,88,0.0,994.8,8.7,40.3,94,57.0,33.5,12.4,439.0,87.0,9.0,7,5,7,1,2026-06-12T04:55:00.654276+05:30
Bareilly,Uttar Pradesh,28.367,79.4304,24.5,94,0.4,984.6,7.9,46.1,153,45.9,28.1,9.8,294.0,101.0,5.6,6,5,7,1,2026-06-12T04:55:00.654283+05:30
Aligarh,Uttar Pradesh,27.8974,78.088,26.5,71,0.0,982.2,7.9,49.0,997,60.8,28.5,9.9,318.0,106.0,7.0,7,5,7,1,2026-06-12T04:55:00.654290+05:30
Moradabad,Uttar Pradesh,28.8386,78.7733,24.2,94,0.6,981.4,7.6,35.3,152,75.7,39.7,11.1,269.0,96.0,6.6,6,5,7,1,2026-06-12T04:55:00.654296+05:30
Saharanpur,Uttar Pradesh,29.9637,77.546,23.3,91,0.3,972.8,7.05,54.4,152,104.3,50.2,8.6,255.0,99.0,8.2,6,5,7,1,2026-06-12T04:55:00.654302+05:30
Jhansi,Uttar Pradesh,25.4484,78.5685,28.8,63,0.0,973.9,8.55,64.4,92,77.5,39.1,8.9,187.0,80.0,4.7,7,5,7,1,2026-06-12T04:55:03.997434+05:30
Surat,Gujarat,21.1702,72.8311,29.6,80,0.0,1002.3,7.6,58.0,89,57.6,29.8,14.9,226.0,44.0,26.3,7,5,4,1,2026-06-12T04:55:03.997462+05:30
Vadodara,Gujarat,22.3072,73.1812,29.6,77,0.0,999.5,8.05,57.2,85,49.0,25.4,7.0,107.0,47.0,7.8,7,5,7,1,2026-06-12T04:55:03.997472+05:30
Rajkot,Gujarat,22.3039,70.8022,28.1,82,0.0,989.0,7.6,51.8,67,26.3,12.7,2.8,93.0,51.0,2.2,7,5,7,1,2026-06-12T04:55:03.997481+05:30
Thane,Maharashtra,19.2183,72.9781,29.7,76,0.0,1004.5,7.7,41.4,81,65.4,26.5,3.8,135.0,56.0,4.0,7,5,4,1,2026-06-12T04:55:03.997489+05:30
Nagpur,Maharashtra,21.1458,79.0882,31.6,56,0.0,968.4,8.9,48.2,91,54.4,41.9,21.1,296.0,48.0,18.6,0,5,7,1,2026-06-12T04:55:03.997496+05:30
Nashik,Maharashtra,19.9975,73.7898,24.7,88,0.0,942.1,8.05,51.1,67,32.2,17.2,7.3,114.0,44.0,8.0,3,5,7,1,2026-06-12T04:55:03.997504+05:30
Aurangabad,Maharashtra,19.8762,75.3433,25.6,78,0.0,940.8,8.95,48.2,69,37.8,20.3,11.1,148.0,37.0,12.6,7,5,7,1,2026-06-12T04:55:03.997511+05:30
Solapur,Maharashtra,17.6599,75.9064,26.6,74,0.0,955.0,8.9,43.2,60,28.0,15.5,6.5,137.0,38.0,2.4,7,5,7,1,2026-06-12T04:55:03.997517+05:30
Kolhapur,Maharashtra,16.705,74.2433,23.7,93,0.0,946.0,8.7,52.2,56,24.7,13.2,3.8,134.0,44.0,1.9,3,5,7,1,2026-06-12T04:55:03.997524+05:30
Goa,Goa,15.2993,74.124,25.5,96,0.0,996.9,6.15,31.0,68,41.2,21.1,4.4,184.0,42.0,1.3,7,5,7,1,2026-06-12T04:55:03.997531+05:30
Jodhpur,Rajasthan,26.2389,73.0243,30.9,64,0.0,975.2,8.45,49.3,155,237.0,56.2,3.0,114.0,70.0,2.9,3,5,7,1,2026-06-12T04:55:03.997537+05:30
Udaipur,Rajasthan,24.5854,73.7125,26.5,80,0.0,941.0,8.85,43.6,82,36.1,22.4,11.0,129.0,37.0,14.2,7,5,7,1,2026-06-12T04:55:03.997544+05:30
Kota,Rajasthan,25.2138,75.8648,31.0,66,0.0,972.6,8.4,47.2,91,40.5,27.1,6.2,163.0,67.0,10.0,3,5,7,1,2026-06-12T04:55:03.997551+05:30
Bikaner,Rajasthan,28.0229,73.3119,33.5,42,0.0,972.3,8.45,51.8,157,142.0,53.4,2.1,121.0,71.0,3.6,0,5,7,1,2026-06-12T04:55:03.997557+05:30
Ajmer,Rajasthan,26.4499,74.6399,30.1,63,0.0,948.0,8.4,47.5,84,34.9,21.0,5.1,126.0,66.0,5.3,3,5,7,1,2026-06-12T04:55:03.997610+05:30
Gwalior,Madhya Pradesh,26.2183,78.1828,24.8,89,0.2,979.2,8.3,65.9,110,158.3,62.9,5.8,152.0,106.0,6.1,6,5,7,1,2026-06-12T04:55:03.997621+05:30
Indore,Madhya Pradesh,22.7196,75.8577,27.0,79,0.0,944.0,8.65,44.6,82,44.9,25.4,5.3,139.0,51.0,7.5,7,5,7,1,2026-06-12T04:55:03.997629+05:30
Bhopal,Madhya Pradesh,23.2599,77.4126,29.8,61,0.0,949.2,8.7,36.7,79,50.8,33.9,6.8,216.0,69.0,7.2,7,5,7,1,2026-06-12T04:55:03.997636+05:30
Jabalpur,Madhya Pradesh,23.1815,79.9864,29.8,52,0.0,956.8,8.9,45.4,73,34.5,25.0,13.9,221.0,49.0,3.8,4,5,7,1,2026-06-12T04:55:03.997643+05:30
Ujjain,Madhya Pradesh,23.1765,75.7885,26.9,80,0.0,949.3,8.6,45.7,85,40.9,22.6,4.7,138.0,49.0,7.4,7,5,7,1,2026-06-12T04:55:03.997650+05:30
Visakhapatnam,Andhra Pradesh,17.6868,83.2185,29.1,75,0.0,999.4,8.2,40.7,143,40.7,31.0,21.6,378.0,56.0,34.8,7,5,7,1,2026-06-12T04:55:03.997656+05:30
Vijayawada,Andhra Pradesh,16.5062,80.648,27.9,88,0.2,999.3,8.5,40.0,94,27.7,20.4,8.6,210.0,71.0,6.8,10,5,7,1,2026-06-12T04:55:03.997663+05:30
Guntur,Andhra Pradesh,16.3067,80.4365,26.8,82,0.1,999.9,8.4,34.6,94,28.6,21.2,9.1,182.0,68.0,6.2,10,5,7,1,2026-06-12T04:55:03.997670+05:30
Nellore,Andhra Pradesh,14.4426,79.9865,28.9,68,0.0,1002.7,8.3,36.7,70,39.9,24.9,7.7,224.0,57.0,3.7,7,5,4,1,2026-06-12T04:55:03.997678+05:30
Kurnool,Andhra Pradesh,15.8281,78.0373,26.9,75,0.0,975.1,8.45,52.6,66,23.4,15.1,7.6,140.0,41.0,3.6,7,5,7,1,2026-06-12T04:55:03.997686+05:30
Kakinada,Andhra Pradesh,16.9891,82.2475,28.0,86,0.1,1004.0,8.55,36.0,88,32.7,19.3,3.7,197.0,91.0,5.3,10,5,4,1,2026-06-12T04:55:03.997693+05:30
Tirupati,Andhra Pradesh,13.6288,79.4192,27.2,73,0.0,988.6,8.75,37.8,67,34.6,23.6,14.9,183.0,38.0,3.6,7,5,7,1,2026-06-12T04:55:03.997700+05:30
Warangal,Telangana,17.9689,79.5941,28.3,62,0.0,974.5,9.0,59.4,98,38.8,29.4,16.0,218.0,51.0,9.6,7,5,7,1,2026-06-12T04:55:03.997706+05:30
Nizamabad,Telangana,18.6725,78.0941,29.8,46,0.0,961.2,8.95,48.6,82,30.2,21.5,10.7,222.0,61.0,6.2,4,5,7,1,2026-06-12T04:55:03.997713+05:30
Mysore,Karnataka,12.2958,76.6396,21.6,93,0.0,927.6,8.65,54.0,40,19.7,10.4,8.6,136.0,33.0,2.0,3,5,7,1,2026-06-12T04:55:03.997721+05:30
Mangalore,Karnataka,12.9141,74.856,23.5,99,0.0,1007.0,6.85,41.8,47,19.2,12.7,8.8,189.0,35.0,2.7,3,5,4,1,2026-06-12T04:55:03.997728+05:30
Hubli-Dharwad,Karnataka,15.3647,75.124,23.0,96,0.0,939.5,8.9,48.2,45,5.4,2.7,2.0,100.0,49.0,1.2,3,5,7,1,2026-06-12T04:55:03.997734+05:30
Belgaum,Karnataka,15.8497,74.4977,22.3,98,0.0,924.0,8.7,46.8,58,27.4,13.9,3.8,107.0,44.0,1.6,3,5,7,1,2026-06-12T04:55:07.335723+05:30
Coimbatore,Tamil Nadu,11.0168,76.9558,22.9,99,0.1,961.1,6.8,45.7,36,15.7,7.7,5.9,126.0,40.0,2.2,6,5,7,1,2026-06-12T04:55:07.335751+05:30
Madurai,Tamil Nadu,9.9252,78.1198,28.6,62,0.0,992.4,7.8,60.8,43,18.5,15.3,21.6,156.0,11.0,4.8,7,5,7,1,2026-06-12T04:55:07.335761+05:30
Trichy,Tamil Nadu,10.7905,78.7047,28.6,65,0.0,998.9,8.6,50.0,38,11.0,7.1,7.4,122.0,44.0,3.1,7,5,7,1,2026-06-12T04:55:07.335769+05:30
Salem,Tamil Nadu,11.6643,78.146,26.1,77,0.0,976.8,8.15,46.1,60,22.5,16.1,18.9,211.0,29.0,8.9,7,5,7,1,2026-06-12T04:55:07.335777+05:30
Tirunelveli,Tamil Nadu,8.7139,77.7567,26.9,80,0.1,1003.2,8.5,44.3,19,4.3,3.6,6.6,145.0,35.0,2.3,10,5,4,1,2026-06-12T04:55:07.335784+05:30
Vellore,Tamil Nadu,12.9165,79.1325,25.6,83,0.0,982.7,7.75,43.6,74,36.2,25.1,19.2,185.0,30.0,5.3,7,5,7,1,2026-06-12T04:55:07.335790+05:30
Erode,Tamil Nadu,11.341,77.7172,25.4,83,0.0,988.5,7.7,49.0,50,21.2,14.6,14.8,131.0,39.0,3.5,7,5,7,1,2026-06-12T04:55:07.335797+05:30
Kochi,Kerala,9.9312,76.2673,24.7,95,0.3,1009.9,7.65,37.4,48,11.8,8.4,9.1,110.0,33.0,3.0,6,0,4,1,2026-06-12T04:55:07.335804+05:30
Thiruvananthapuram,Kerala,8.5241,76.9366,24.1,97,0.2,1009.7,6.95,40.7,26,13.3,5.9,1.7,83.0,53.0,0.6,6,0,4,1,2026-06-12T04:55:07.335811+05:30
Kozhikode,Kerala,11.2588,75.7804,24.2,100,0.2,1008.6,2.65,22.0,28,14.2,6.1,1.1,161.0,65.0,0.6,6,0,0,1,2026-06-12T04:55:07.335817+05:30
Thrissur,Kerala,10.5276,76.2144,24.2,99,0.1,1008.1,5.65,25.6,53,10.7,7.6,9.3,144.0,33.0,3.2,6,0,0,1,2026-06-12T04:55:07.335824+05:30
Kannur,Kerala,11.8745,75.3704,24.9,96,0.1,1007.7,3.1,34.2,39,12.5,6.9,7.1,138.0,38.0,1.7,6,5,0,1,2026-06-12T04:55:07.335831+05:30
Patna,Bihar,25.5941,85.1376,26.1,88,0.0,998.2,8.85,38.5,127,61.2,45.9,10.9,352.0,98.0,14.6,7,5,7,1,2026-06-12T04:55:07.335843+05:30
Gaya,Bihar,24.7914,85.0002,27.0,78,0.0,991.0,8.9,27.4,152,72.2,61.2,14.0,618.0,77.0,24.9,7,5,7,1,2026-06-12T04:55:07.335850+05:30
Muzaffarpur,Bihar,26.1209,85.3647,24.9,90,0.0,999.0,8.85,39.2,103,40.9,29.7,9.0,323.0,109.0,8.5,3,5,7,1,2026-06-12T04:55:07.335857+05:30
Bhagalpur,Bihar,25.2425,87.0117,25.6,93,0.0,1000.0,8.8,27.4,152,92.7,75.7,15.3,302.0,61.0,9.2,7,5,4,1,2026-06-12T04:55:07.335863+05:30
Ranchi,Jharkhand,23.3441,85.3096,22.3,87,0.0,934.8,9.0,34.2,132,99.0,73.6,19.5,318.0,100.0,12.9,3,5,7,1,2026-06-12T04:55:07.335869+05:30
Jamshedpur,Jharkhand,22.8046,86.2029,24.7,91,0.0,988.4,9.1,28.1,158,126.2,111.8,41.3,509.0,29.0,30.0,3,5,7,1,2026-06-12T04:55:07.335875+05:30
Dhanbad,Jharkhand,23.7957,86.4304,24.6,90,0.0,977.7,9.1,38.5,167,142.5,128.1,50.3,633.0,32.0,151.2,3,5,7,1,2026-06-12T04:55:07.335881+05:30
Bokaro,Jharkhand,23.6693,86.1511,24.3,90,0.0,981.4,9.1,49.3,168,149.5,133.2,61.6,2088.0,16.0,172.7,3,5,7,1,2026-06-12T04:55:07.335887+05:30
Bhubaneswar,Odisha,20.2961,85.8245,27.3,97,0.0,999.6,9.05,51.8,150,59.0,47.4,11.8,376.0,105.0,6.9,7,5,7,1,2026-06-12T04:55:07.335894+05:30
Cuttack,Odisha,20.4625,85.8828,27.6,95,0.0,1001.4,9.1,54.4,150,59.0,47.4,11.8,312.0,105.0,6.9,7,5,4,1,2026-06-12T04:55:07.335900+05:30
Rourkela,Odisha,22.2604,84.8536,26.7,84,0.0,982.2,9.0,37.8,156,140.2,120.1,46.9,272.0,32.0,23.1,7,5,7,1,2026-06-12T04:55:07.335906+05:30
Raipur,Chhattisgarh,21.2514,81.6296,29.0,60,0.1,970.7,8.95,58.7,121,61.0,47.3,27.3,274.0,46.0,31.0,7,5,7,1,2026-06-12T04:55:07.335913+05:30
Bhilai,Chhattisgarh,21.1938,81.3509,30.1,57,0.0,971.0,8.95,48.6,117,53.8,44.0,33.5,412.0,46.0,47.9,0,5,7,1,2026-06-12T04:55:07.335919+05:30
Guwahati,Assam,26.1158,91.7086,24.9,99,0.0,1000.4,8.55,20.9,80,44.1,36.0,9.0,423.0,50.0,3.1,3,5,4,1,2026-06-12T04:55:07.335925+05:30
Agartala,Tripura,23.8315,91.2868,25.7,97,0.0,1004.3,3.5,28.1,96,63.3,59.8,36.3,308.0,13.0,4.5,7,5,0,1,2026-06-12T04:55:07.335932+05:30
Shillong,Meghalaya,25.5788,91.8933,18.6,78,0.0,856.0,7.55,23.4,62,22.5,14.0,6.8,281.0,44.0,1.3,3,5,7,0,2026-06-12T04:55:07.335938+05:30
Imphal,Manipur,24.817,93.9368,22.2,95,0.0,922.2,4.2,27.4,73,15.7,14.1,5.5,298.0,54.0,2.1,3,5,3,1,2026-06-12T04:55:07.335944+05:30
Aizawl,Mizoram,23.7271,92.7176,20.1,98,0.0,890.7,8.5,24.1,74,26.5,18.6,10.5,252.0,16.0,1.0,3,5,7,1,2026-06-12T04:55:07.335951+05:30
Kohima,Nagaland,25.6701,94.1077,19.7,92,0.1,854.9,2.2,30.6,68,28.8,21.0,10.7,215.0,31.0,1.5,6,10,3,1,2026-06-12T04:55:07.335957+05:30
Gangtok,Sikkim,27.3314,88.6138,15.9,100,0.4,837.4,8.9,31.0,65,31.8,23.4,7.2,408.0,116.0,2.9,6,10,7,0,2026-06-12T04:55:07.335964+05:30
Siliguri,West Bengal,26.7271,88.3953,23.1,96,0.1,992.6,8.65,22.3,100,70.1,52.5,17.1,295.0,94.0,7.4,6,5,7,1,2026-06-12T04:55:10.693518+05:30
Durgapur,West Bengal,23.5204,87.3119,24.6,97,0.0,993.0,9.0,20.5,161,123.9,112.7,37.7,575.0,44.0,34.8,3,5,7,1,2026-06-12T04:55:10.693551+05:30
Asansol,West Bengal,23.6739,86.9524,24.8,96,0.0,991.7,9.05,30.2,160,120.6,107.6,37.1,590.0,49.0,38.7,3,5,7,1,2026-06-12T04:55:10.693588+05:30
Pondicherry,Puducherry,11.9139,79.8145,29.5,62,0.0,1006.5,7.9,36.4,59,15.8,12.3,13.6,233.0,42.0,7.6,7,5,4,1,2026-06-12T04:55:10.693600+05:30
Port Blair,Andaman and Nicobar Islands,11.6234,92.7265,25.1,94,0.2,1008.4,6.2,52.6,25,16.8,8.3,0.3,87.0,51.0,0.3,10,0,4,1,2026-06-12T04:55:10.693612+05:30
Haridwar,Uttarakhand,29.9457,78.1642,24.0,93,0.0,970.8,5.35,43.6,149,119.2,51.8,8.0,235.0,100.0,7.6,3,5,3,1,2026-06-12T04:55:10.693622+05:30
Rishikesh,Uttarakhand,30.0869,78.2676,23.8,98,0.0,963.4,4.6,31.3,120,124.3,43.2,8.0,250.0,103.0,5.1,3,5,3,1,2026-06-12T04:55:10.693631+05:30
Nainital,Uttarakhand,29.3919,79.4542,14.5,93,0.3,803.3,6.05,25.9,114,49.1,22.6,9.3,252.0,88.0,1.8,6,10,7,0,2026-06-12T04:55:10.693639+05:30
Mussoorie,Uttarakhand,30.4599,78.0664,14.1,96,0.0,799.1,6.05,32.8,119,101.7,43.9,13.7,262.0,94.0,8.8,3,10,7,0,2026-06-12T04:55:10.693646+05:30
Dharamshala,Himachal Pradesh,32.219,76.3234,20.9,51,0.0,864.9,8.4,40.0,57,8.9,7.5,7.6,285.0,87.0,0.0,0,5,7,0,2026-06-12T04:55:10.693654+05:30
Dalhousie,Himachal Pradesh,32.5387,75.971,13.5,81,0.0,800.0,7.95,31.0,96,31.0,28.8,27.9,314.0,35.0,0.7,3,10,7,0,2026-06-12T04:55:10.693661+05:30
Patiala,Punjab,30.3398,76.3869,24.5,83,0.0,972.8,6.9,50.8,1620,2890.8,364.1,6.2,296.0,106.0,9.3,3,5,7,1,2026-06-12T04:55:10.693669+05:30
Bhatinda,Punjab,30.211,74.9455,29.2,61,0.0,976.4,8.3,68.4,468,1937.2,424.7,7.2,229.0,105.0,12.2,7,5,7,1,2026-06-12T04:55:10.693676+05:30
Rohtak,Haryana,28.8955,76.6066,25.6,75,0.0,975.9,7.6,60.5,1307,2026.6,281.3,12.7,287.0,99.0,15.4,7,5,7,1,2026-06-12T04:55:10.693682+05:30
Panipat,Haryana,29.3909,76.9635,22.7,96,0.1,976.5,6.5,45.7,1805,514.1,452.6,10.3,310.0,97.0,9.6,6,5,7,1,2026-06-12T04:55:10.693689+05:30
Mathura,Uttar Pradesh,27.4924,77.6737,28.7,68,0.0,981.9,8.1,53.6,1233,1613.1,212.8,7.7,164.0,115.0,6.6,7,5,7,1,2026-06-12T04:55:10.693696+05:30
Vrindavan,Uttar Pradesh,27.5823,77.7027,28.5,69,0.0,982.5,8.1,52.2,1233,1613.1,212.8,7.7,179.0,115.0,6.6,7,5,7,1,2026-06-12T04:55:10.693703+05:30
Ayodhya,Uttar Pradesh,26.7922,82.1998,25.7,84,0.0,993.4,7.65,34.9,109,48.0,28.7,13.8,432.0,85.0,11.0,7,5,7,1,2026-06-12T04:55:10.693710+05:30
Ratlam,Madhya Pradesh,23.3315,75.0367,26.5,84,0.0,950.3,8.55,51.1,84,36.7,19.8,5.0,130.0,46.0,8.1,7,5,7,1,2026-06-12T04:55:10.693717+05:30
Sagar,Madhya Pradesh,23.8388,78.7378,30.7,55,0.0,945.6,8.75,68.8,74,39.5,25.6,7.9,163.0,59.0,4.5,0,5,7,1,2026-06-12T04:55:10.693724+05:30
Satna,Madhya Pradesh,24.6005,80.8322,29.3,59,0.0,966.1,8.8,43.2,117,48.4,42.5,9.8,189.0,108.0,18.2,4,5,7,1,2026-06-12T04:55:10.693730+05:30
Akola,Maharashtra,20.7002,77.0082,31.3,54,0.0,971.0,8.8,46.4,71,43.2,23.5,7.1,124.0,48.0,7.9,0,5,7,1,2026-06-12T04:55:10.693738+05:30
Amravati,Maharashtra,20.9374,77.7796,31.1,55,0.0,963.1,8.85,46.1,74,45.4,24.9,8.1,162.0,51.0,8.4,0,5,7,1,2026-06-12T04:55:10.693746+05:30
Latur,Maharashtra,18.4088,76.5604,25.5,77,0.0,937.2,8.9,33.8,66,37.1,20.1,5.9,139.0,43.0,3.7,7,5,7,1,2026-06-12T04:55:10.693754+05:30
Nanded,Maharashtra,19.1383,77.3091,29.9,57,0.0,965.3,8.85,37.8,83,43.4,27.8,7.5,156.0,65.0,8.6,4,5,7,1,2026-06-12T04:55:10.693761+05:30
Gulbarga,Karnataka,17.3297,76.8343,26.1,78,0.0,956.3,8.85,39.2,61,29.1,16.3,6.2,135.0,40.0,3.1,7,5,7,1,2026-06-12T04:55:10.693768+05:30
Bidar,Karnataka,17.9104,77.5199,26.3,70,0.0,932.6,8.95,37.8,69,27.6,19.3,10.0,146.0,46.0,4.0,7,5,7,1,2026-06-12T04:55:10.693774+05:30
Hospet,Karnataka,15.2689,76.3909,23.6,93,0.0,954.6,8.95,48.2,53,7.7,4.8,3.8,111.0,45.0,1.5,3,5,7,1,2026-06-12T04:55:10.693781+05:30
Tirupur,Tamil Nadu,11.1085,77.3411,23.9,92,0.0,974.6,6.85,54.0,53,22.2,16.1,18.5,120.0,28.0,4.1,3,5,7,1,2026-06-12T04:55:10.693788+05:30
Alappuzha,Kerala,9.4981,76.3388,25.0,94,0.2,1010.2,4.95,36.0,36,10.7,5.8,4.2,88.0,52.0,1.4,10,0,0,1,2026-06-12T04:55:10.693795+05:30
Munnar,Kerala,10.0889,77.0595,16.6,98,0.0,856.3,6.0,42.5,23,6.9,4.5,5.0,93.0,35.0,1.5,3,10,3,1,2026-06-12T04:55:10.693802+05:30
Silchar,Assam,24.8333,92.7789,26.3,96,0.2,1003.2,5.5,33.8,111,80.8,66.6,25.4,445.0,21.0,6.3,10,5,0,1,2026-06-12T04:55:10.693810+05:30
Dibrugarh,Assam,27.4728,94.912,24.8,88,0.0,994.5,7.35,23.4,84,40.5,36.8,19.0,251.0,28.0,1.2,3,5,7,1,2026-06-12T04:55:10.693817+05:30
