city,state,latitude,longitude,temp,humidity,rain,pressure,uv_index,wind_gusts,aqi,pm10,pm2_5,mosquito_risk,arthritis_risk,migraine_risk,frizz_risk,updated_at
Delhi,Delhi,28.6139,77.209,37.1,16,0.0,980.2,7.3,28.4,157,320.4,37.4,0,5,10,0,2026-04-15T14:53:41.835549+05:30
Mumbai,Maharashtra,19.076,72.8777,29.7,76,0.0,1005.9,8.0,18.0,104,61.7,32.9,7,5,4,1,2026-04-15T14:53:41.835591+05:30
Bangalore,Karnataka,12.9716,77.5946,35.5,27,0.0,910.7,9.65,28.1,100,34.3,26.4,0,5,10,0,2026-04-15T14:53:41.835607+05:30
Hyderabad,Telangana,17.385,78.4867,40.0,18,0.0,950.6,9.25,31.3,110,32.9,25.5,0,5,10,0,2026-04-15T14:53:41.835616+05:30
Chennai,Tamil Nadu,13.0827,80.2707,36.7,47,0.0,1004.1,9.35,32.8,33,17.4,13.7,0,5,7,1,2026-04-15T14:53:41.835625+05:30
Kolkata,West Bengal,22.5726,88.3639,35.4,56,0.0,1001.5,8.85,28.1,92,58.9,33.3,0,5,7,1,2026-04-15T14:53:41.835633+05:30
Pune,Maharashtra,18.5204,73.8567,39.4,12,0.0,946.9,8.6,42.5,69,17.3,10.1,0,5,10,0,2026-04-15T14:53:41.835644+05:30
Ahmedabad,Gujarat,23.0225,72.5714,40.6,22,0.0,997.7,8.15,19.4,69,144.8,31.4,0,5,10,0,2026-04-15T14:53:41.835651+05:30
Jaipur,Rajasthan,26.9124,75.7873,38.9,13,0.0,957.0,7.95,34.9,186,211.4,30.9,0,5,10,0,2026-04-15T14:53:41.835659+05:30
Lucknow,Uttar Pradesh,26.8467,80.9462,39.0,14,0.0,989.2,7.8,29.2,108,143.4,22.6,0,5,10,0,2026-04-15T14:53:41.835667+05:30
Kanpur,Uttar Pradesh,26.4499,80.3319,37.3,21,0.0,988.0,7.8,24.8,146,256.1,33.3,0,5,10,0,2026-04-15T14:53:41.835674+05:30
Chandigarh,Chandigarh,30.7333,76.7794,35.5,20,0.0,966.5,7.25,30.2,115,11.1,9.1,0,5,10,0,2026-04-15T14:53:41.835682+05:30
Srinagar,Jammu and Kashmir,34.0837,74.7973,24.2,21,0.0,842.3,7.75,15.8,79,18.9,7.1,0,5,7,0,2026-04-15T14:53:41.835690+05:30
Jammu,Jammu and Kashmir,32.7266,74.857,34.8,23,0.0,970.4,7.95,32.0,74,13.3,7.7,0,5,7,0,2026-04-15T14:53:41.835697+05:30
Amritsar,Punjab,31.634,74.8723,35.0,26,0.0,978.7,7.6,27.7,95,18.6,8.2,0,5,7,0,2026-04-15T14:53:41.835704+05:30
Ludhiana,Punjab,30.901,75.8573,36.2,19,0.0,976.4,7.35,27.4,98,22.4,7.9,0,5,10,0,2026-04-15T14:53:41.835710+05:30
Jalandhar,Punjab,31.326,75.5762,35.4,23,0.0,977.6,7.55,26.3,96,33.9,10.0,0,5,10,0,2026-04-15T14:53:41.835719+05:30
Dehradun,Uttarakhand,30.6284,78.0322,23.7,38,0.0,831.0,7.7,31.3,100,9.2,5.4,0,5,7,0,2026-04-15T14:53:41.835726+05:30
Shimla,Himachal Pradesh,31.1048,77.1734,21.9,36,0.0,786.5,7.75,47.2,93,9.6,5.5,0,5,7,0,2026-04-15T14:53:41.835732+05:30
Manali,Himachal Pradesh,32.2396,77.1887,24.1,40,0.0,821.2,9.7,31.0,135,15.2,7.3,0,5,7,0,2026-04-15T14:53:41.835739+05:30
Gurgaon,Haryana,28.4595,77.0266,37.7,15,0.0,978.6,7.4,25.9,443,1102.7,101.3,0,5,10,0,2026-04-15T14:53:41.835745+05:30
Noida,Uttar Pradesh,28.5355,77.391,37.4,17,0.0,981.7,7.35,29.2,443,1102.7,101.3,0,5,10,0,2026-04-15T14:53:41.835752+05:30
Ghaziabad,Uttar Pradesh,28.6692,77.4538,37.0,17,0.0,979.9,7.3,27.4,123,217.0,29.7,0,5,10,0,2026-04-15T14:53:41.835758+05:30
Faridabad,Haryana,28.4089,77.3178,37.7,15,0.0,981.0,7.35,28.8,443,1102.7,101.3,0,5,10,0,2026-04-15T14:53:41.835766+05:30
Meerut,Uttar Pradesh,28.9845,77.7064,36.9,17,0.0,978.6,7.2,29.5,123,217.0,29.7,0,5,10,0,2026-04-15T14:53:41.835772+05:30
Agra,Uttar Pradesh,27.1767,78.0081,39.0,17,0.0,984.3,7.65,25.9,253,434.9,44.2,0,5,10,0,2026-04-15T14:53:41.835779+05:30
Varanasi,Uttar Pradesh,25.3176,82.9739,40.8,14,0.0,992.5,8.4,24.1,104,64.7,15.5,0,5,10,0,2026-04-15T14:53:41.835787+05:30
Prayagraj,Uttar Pradesh,25.4358,81.8463,40.1,16,0.0,991.0,8.25,24.1,119,84.8,19.2,0,5,10,0,2026-04-15T14:53:41.835793+05:30
Gorakhpur,Uttar Pradesh,26.7606,83.3732,38.9,15,0.0,992.4,8.2,27.0,132,107.1,24.3,0,5,10,0,2026-04-15T14:53:41.835800+05:30
Bareilly,Uttar Pradesh,28.367,79.4304,37.0,17,0.0,983.4,7.55,27.7,98,17.3,7.6,0,5,10,0,2026-04-15T14:53:41.835806+05:30
Aligarh,Uttar Pradesh,27.8974,78.088,39.0,12,0.0,982.3,7.45,30.6,158,416.3,46.6,0,5,10,0,2026-04-15T14:53:41.835812+05:30
Moradabad,Uttar Pradesh,28.8386,78.7733,36.8,16,0.0,980.4,7.4,30.2,99,19.4,8.5,0,5,10,0,2026-04-15T14:53:41.835818+05:30
Saharanpur,Uttar Pradesh,29.9637,77.546,35.5,21,0.0,972.9,7.0,32.0,119,45.1,11.7,0,5,10,0,2026-04-15T14:53:41.835824+05:30
Jhansi,Uttar Pradesh,25.4484,78.5685,41.5,12,0.0,972.8,8.2,40.7,103,68.9,16.5,0,5,10,0,2026-04-15T14:53:45.179423+05:30
Surat,Gujarat,21.1702,72.8311,33.1,51,0.0,1004.0,7.8,31.0,100,114.3,48.0,0,5,4,1,2026-04-15T14:53:45.179456+05:30
Vadodara,Gujarat,22.3072,73.1812,40.2,26,0.0,1000.3,8.1,28.1,77,117.8,35.0,0,5,7,1,2026-04-15T14:53:45.179468+05:30
Rajkot,Gujarat,22.3039,70.8022,37.6,24,0.0,991.1,7.85,30.6,66,99.2,25.9,0,5,10,0,2026-04-15T14:53:45.179478+05:30
Thane,Maharashtra,19.2183,72.9781,33.9,50,0.0,1005.5,8.0,32.0,104,61.7,32.9,0,5,4,1,2026-04-15T14:53:45.179487+05:30
Nagpur,Maharashtra,21.1458,79.0882,40.4,16,0.0,969.2,8.85,34.2,119,24.0,19.1,0,5,10,0,2026-04-15T14:53:45.179495+05:30
Nashik,Maharashtra,19.9975,73.7898,37.0,20,0.0,944.1,8.3,37.4,61,26.8,9.1,0,5,10,0,2026-04-15T14:53:45.179504+05:30
Aurangabad,Maharashtra,19.8762,75.3433,40.0,10,0.0,942.0,8.95,36.4,59,8.3,4.6,0,5,10,0,2026-04-15T14:53:45.179512+05:30
Solapur,Maharashtra,17.6599,75.9064,41.3,14,0.0,954.5,9.05,28.8,103,28.7,22.0,0,5,10,0,2026-04-15T14:53:45.179522+05:30
Kolhapur,Maharashtra,16.705,74.2433,35.4,32,0.0,946.5,9.05,42.8,88,29.5,14.3,0,5,10,1,2026-04-15T14:53:45.179530+05:30
Goa,Goa,15.2993,74.124,32.5,63,0.0,995.9,9.0,31.0,88,57.4,19.8,3,5,7,1,2026-04-15T14:53:45.179539+05:30
Jodhpur,Rajasthan,26.2389,73.0243,40.3,14,0.0,979.7,8.15,26.3,76,71.5,15.9,0,5,10,0,2026-04-15T14:53:45.179548+05:30
Udaipur,Rajasthan,24.5854,73.7125,37.9,18,0.0,944.3,8.75,25.6,65,85.0,18.0,0,5,10,0,2026-04-15T14:53:45.179556+05:30
Kota,Rajasthan,25.2138,75.8648,40.6,17,0.0,974.6,8.2,26.6,62,38.4,12.5,0,5,10,0,2026-04-15T14:53:45.179565+05:30
Bikaner,Rajasthan,28.0229,73.3119,39.4,13,0.0,979.5,8.0,12.6,96,107.3,17.3,0,5,10,0,2026-04-15T14:53:45.179573+05:30
Ajmer,Rajasthan,26.4499,74.6399,38.5,15,0.0,952.2,8.15,26.3,102,117.1,22.1,0,5,10,0,2026-04-15T14:53:45.179580+05:30
Gwalior,Madhya Pradesh,26.2183,78.1828,39.6,19,0.0,979.3,7.95,36.0,104,182.5,29.2,0,5,10,0,2026-04-15T14:53:45.179587+05:30
Indore,Madhya Pradesh,22.7196,75.8577,37.5,21,0.0,945.7,8.55,31.7,55,39.6,14.0,0,5,10,0,2026-04-15T14:53:45.179593+05:30
Bhopal,Madhya Pradesh,23.2599,77.4126,39.4,15,0.0,950.6,8.55,32.4,63,40.5,13.6,0,5,10,0,2026-04-15T14:53:45.179600+05:30
Jabalpur,Madhya Pradesh,23.1815,79.9864,39.3,16,0.0,957.8,8.7,36.4,69,14.6,8.0,0,5,10,0,2026-04-15T14:53:45.179606+05:30
Ujjain,Madhya Pradesh,23.1765,75.7885,37.6,23,0.0,951.3,8.5,29.9,60,57.5,18.5,0,5,10,0,2026-04-15T14:53:45.179613+05:30
Visakhapatnam,Andhra Pradesh,17.6868,83.2185,33.0,58,0.0,1000.8,9.15,42.8,66,19.4,13.9,0,5,4,1,2026-04-15T14:53:45.179620+05:30
Vijayawada,Andhra Pradesh,16.5062,80.648,38.5,33,0.0,999.1,9.2,31.7,50,20.1,16.0,0,5,10,1,2026-04-15T14:53:45.179627+05:30
Guntur,Andhra Pradesh,16.3067,80.4365,38.3,37,0.0,1000.3,9.2,31.7,52,26.6,21.5,0,5,7,1,2026-04-15T14:53:45.179634+05:30
Nellore,Andhra Pradesh,14.4426,79.9865,40.0,34,0.0,1001.9,9.3,34.2,50,29.5,24.5,0,5,7,1,2026-04-15T14:53:45.179641+05:30
Kurnool,Andhra Pradesh,15.8281,78.0373,41.1,23,0.0,973.1,9.2,25.2,109,32.7,24.2,0,5,10,0,2026-04-15T14:53:45.179650+05:30
Kakinada,Andhra Pradesh,16.9891,82.2475,37.1,44,0.0,1004.0,9.2,36.4,51,13.4,8.4,0,5,7,1,2026-04-15T14:53:45.179657+05:30
Tirupati,Andhra Pradesh,13.6288,79.4192,38.6,26,0.0,988.5,9.4,32.0,69,27.1,21.6,0,5,10,0,2026-04-15T14:53:45.179664+05:30
Warangal,Telangana,17.9689,79.5941,39.6,30,0.0,975.1,9.1,29.2,70,34.2,26.4,0,5,10,1,2026-04-15T14:53:45.179670+05:30
Nizamabad,Telangana,18.6725,78.0941,40.3,19,0.0,962.1,9.05,25.2,78,27.0,19.7,0,5,10,0,2026-04-15T14:53:45.179676+05:30
Mysore,Karnataka,12.2958,76.6396,37.5,21,0.0,926.7,9.55,46.1,75,31.8,23.1,0,5,10,0,2026-04-15T14:53:45.179683+05:30
Mangalore,Karnataka,12.9141,74.856,29.8,84,0.0,1004.1,9.15,23.8,66,31.7,20.9,7,5,4,1,2026-04-15T14:53:45.179689+05:30
Hubli-Dharwad,Karnataka,15.3647,75.124,36.3,35,0.0,939.0,9.2,43.6,66,32.5,21.6,0,5,10,1,2026-04-15T14:53:45.179696+05:30
Belgaum,Karnataka,15.8497,74.4977,32.8,46,0.0,924.6,9.25,38.2,84,37.3,16.0,0,5,7,1,2026-04-15T14:53:48.521617+05:30
Coimbatore,Tamil Nadu,11.0168,76.9558,37.6,31,0.0,959.3,9.45,48.2,92,32.8,24.6,0,5,10,1,2026-04-15T14:53:48.521650+05:30
Madurai,Tamil Nadu,9.9252,78.1198,39.0,27,0.0,989.5,9.4,39.6,61,14.3,9.6,0,5,10,1,2026-04-15T14:53:48.521662+05:30
Trichy,Tamil Nadu,10.7905,78.7047,38.5,32,0.0,996.0,9.4,22.7,51,11.4,8.1,0,5,10,1,2026-04-15T14:53:48.521672+05:30
Salem,Tamil Nadu,11.6643,78.146,37.8,38,0.0,974.3,9.45,19.8,60,27.8,20.4,0,5,10,1,2026-04-15T14:53:48.521681+05:30
Tirunelveli,Tamil Nadu,8.7139,77.7567,39.8,28,0.0,999.0,9.3,53.6,67,18.3,12.6,0,5,10,1,2026-04-15T14:53:48.521689+05:30
Vellore,Tamil Nadu,12.9165,79.1325,38.3,26,0.0,981.6,9.45,29.5,95,25.7,19.8,0,5,10,0,2026-04-15T14:53:48.521698+05:30
Erode,Tamil Nadu,11.341,77.7172,40.8,22,0.0,985.2,9.4,28.1,72,30.7,22.2,0,5,10,0,2026-04-15T14:53:48.521707+05:30
Kochi,Kerala,9.9312,76.2673,29.8,79,0.0,1005.6,9.2,30.2,94,30.9,23.3,7,5,4,1,2026-04-15T14:53:48.521715+05:30
Thiruvananthapuram,Kerala,8.5241,76.9366,29.5,81,0.0,1004.9,9.15,30.6,70,28.3,18.9,7,5,4,1,2026-04-15T14:53:48.521723+05:30
Kozhikode,Kerala,11.2588,75.7804,31.2,76,0.0,1005.1,9.15,29.9,75,28.3,16.8,3,5,4,1,2026-04-15T14:53:48.521731+05:30
Thrissur,Kerala,10.5276,76.2144,34.1,61,0.0,1004.3,9.2,35.3,96,29.4,21.6,3,5,4,1,2026-04-15T14:53:48.521740+05:30
Kannur,Kerala,11.8745,75.3704,32.5,67,0.0,1004.4,9.15,32.8,70,36.4,23.6,3,5,4,1,2026-04-15T14:53:48.521748+05:30
Patna,Bihar,25.5941,85.1376,37.9,21,0.0,995.7,8.55,22.0,159,95.0,23.7,0,5,10,0,2026-04-15T14:53:48.521756+05:30
Gaya,Bihar,24.7914,85.0002,38.7,18,0.0,989.0,8.6,20.2,124,61.7,15.7,0,5,10,0,2026-04-15T14:53:48.521764+05:30
Muzaffarpur,Bihar,26.1209,85.3647,35.9,35,0.0,995.7,8.5,21.2,158,94.3,27.8,0,5,10,1,2026-04-15T14:53:48.521772+05:30
Bhagalpur,Bihar,25.2425,87.0117,34.0,46,0.0,996.9,8.5,17.3,155,85.2,29.7,0,5,7,1,2026-04-15T14:53:48.521780+05:30
Ranchi,Jharkhand,23.3441,85.3096,34.7,21,0.0,935.7,9.15,30.2,133,35.2,11.7,0,5,7,0,2026-04-15T14:53:48.521787+05:30
Jamshedpur,Jharkhand,22.8046,86.2029,38.6,21,0.0,986.5,8.95,21.2,146,46.3,16.8,0,5,10,0,2026-04-15T14:53:48.521795+05:30
Dhanbad,Jharkhand,23.7957,86.4304,39.5,14,0.0,975.4,8.9,25.2,150,59.1,21.1,0,5,10,0,2026-04-15T14:53:48.521803+05:30
Bokaro,Jharkhand,23.6693,86.1511,39.3,15,0.0,979.2,8.9,37.1,130,45.5,15.0,0,5,10,0,2026-04-15T14:53:48.521812+05:30
Bhubaneswar,Odisha,20.2961,85.8245,34.1,58,0.0,999.2,9.1,32.4,79,34.6,25.6,0,5,7,1,2026-04-15T14:53:48.521820+05:30
Cuttack,Odisha,20.4625,85.8828,35.4,56,0.0,1000.7,9.15,27.4,79,34.6,25.6,0,5,7,1,2026-04-15T14:53:48.521827+05:30
Rourkela,Odisha,22.2604,84.8536,39.6,28,0.0,980.6,8.9,32.0,185,83.6,39.1,0,5,10,1,2026-04-15T14:53:48.521834+05:30
Raipur,Chhattisgarh,21.2514,81.6296,40.8,20,0.0,970.0,8.95,41.4,134,25.2,19.6,0,5,10,0,2026-04-15T14:53:48.521840+05:30
Bhilai,Chhattisgarh,21.1938,81.3509,41.0,21,0.0,970.5,8.95,41.8,139,22.1,17.1,0,5,10,0,2026-04-15T14:53:48.521846+05:30
Guwahati,Assam,26.1158,91.7086,26.9,77,0.0,999.2,8.45,33.5,128,63.6,40.5,7,5,7,1,2026-04-15T14:53:48.521852+05:30
Agartala,Tripura,23.8315,91.2868,27.6,76,0.0,1003.3,8.7,43.6,104,70.1,40.4,7,5,4,1,2026-04-15T14:53:48.521859+05:30
Shillong,Meghalaya,25.5788,91.8933,19.9,59,0.0,854.9,8.6,58.0,107,71.9,35.0,0,5,7,0,2026-04-15T14:53:48.521865+05:30
Imphal,Manipur,24.817,93.9368,22.4,73,0.0,921.5,9.05,68.0,131,56.3,31.9,3,5,7,1,2026-04-15T14:53:48.521872+05:30
Aizawl,Mizoram,23.7271,92.7176,25.8,55,0.0,891.7,8.95,49.7,118,72.2,32.4,4,5,7,1,2026-04-15T14:53:48.521878+05:30
Kohima,Nagaland,25.6701,94.1077,18.1,83,0.0,853.6,8.95,68.8,110,54.6,30.4,3,10,7,0,2026-04-15T14:53:48.521885+05:30
Gangtok,Sikkim,27.3314,88.6138,18.9,74,0.0,835.4,8.1,19.4,118,62.9,38.2,3,5,7,0,2026-04-15T14:53:48.521892+05:30
Siliguri,West Bengal,26.7271,88.3953,24.5,81,0.0,991.0,8.4,29.2,158,121.1,70.1,3,5,7,1,2026-04-15T14:53:51.861123+05:30
Durgapur,West Bengal,23.5204,87.3119,38.7,24,0.0,990.2,8.85,23.0,136,78.9,36.4,0,5,10,0,2026-04-15T14:53:51.861152+05:30
Asansol,West Bengal,23.6739,86.9524,39.3,20,0.0,988.6,8.85,19.8,124,70.8,28.2,0,5,10,0,2026-04-15T14:53:51.861161+05:30
Pondicherry,Puducherry,11.9139,79.8145,37.7,42,0.0,1004.7,9.3,25.2,41,20.1,16.8,0,5,7,1,2026-04-15T14:53:51.861169+05:30
Port Blair,Andaman and Nicobar Islands,11.6234,92.7265,29.8,68,0.0,1005.3,9.2,20.2,73,26.8,18.7,7,5,4,1,2026-04-15T14:53:51.861177+05:30
Haridwar,Uttarakhand,29.9457,78.1642,34.8,24,0.0,971.4,7.05,31.3,100,9.5,6.7,0,5,7,0,2026-04-15T14:53:51.861185+05:30
Rishikesh,Uttarakhand,30.0869,78.2676,33.6,26,0.0,964.3,7.15,30.6,90,8.8,4.9,0,5,7,0,2026-04-15T14:53:51.861192+05:30
Nainital,Uttarakhand,29.3919,79.4542,27.2,25,0.0,807.8,8.05,45.7,109,16.2,7.3,4,5,7,0,2026-04-15T14:53:51.861200+05:30
Mussoorie,Uttarakhand,30.4599,78.0664,24.4,34,0.0,804.0,7.55,35.6,109,9.0,7.1,0,5,7,0,2026-04-15T14:53:51.861207+05:30
Dharamshala,Himachal Pradesh,32.219,76.3234,26.7,40,0.0,869.4,7.8,22.7,104,11.0,4.9,4,5,7,0,2026-04-15T14:53:51.861215+05:30
Dalhousie,Himachal Pradesh,32.5387,75.971,25.3,34,0.0,805.5,8.0,21.6,96,12.6,8.2,4,5,7,0,2026-04-15T14:53:51.861223+05:30
Patiala,Punjab,30.3398,76.3869,36.7,17,0.0,975.7,7.15,28.1,168,573.7,50.9,0,5,10,0,2026-04-15T14:53:51.861229+05:30
Bhatinda,Punjab,30.211,74.9455,38.1,19,0.0,980.9,7.85,32.8,96,32.2,9.7,0,5,10,0,2026-04-15T14:53:51.861237+05:30
Rohtak,Haryana,28.8955,76.6066,38.3,14,0.0,979.0,7.3,30.2,311,480.6,45.6,0,5,10,0,2026-04-15T14:53:51.861265+05:30
Panipat,Haryana,29.3909,76.9635,37.2,16,0.0,977.7,7.15,27.7,689,1028.2,87.3,0,5,10,0,2026-04-15T14:53:51.861273+05:30
Mathura,Uttar Pradesh,27.4924,77.6737,38.7,13,0.0,983.8,7.6,26.3,175,386.5,41.9,0,5,10,0,2026-04-15T14:53:51.861279+05:30
Vrindavan,Uttar Pradesh,27.5823,77.7027,38.7,13,0.0,984.1,7.6,28.1,175,386.5,41.9,0,5,10,0,2026-04-15T14:53:51.861286+05:30
Ayodhya,Uttar Pradesh,26.7922,82.1998,40.4,12,0.0,990.6,7.95,33.5,91,112.7,20.3,0,5,10,0,2026-04-15T14:53:51.861293+05:30
Ratlam,Madhya Pradesh,23.3315,75.0367,35.9,31,0.0,952.1,8.4,24.8,57,55.8,16.5,0,5,10,1,2026-04-15T14:53:51.861300+05:30
Sagar,Madhya Pradesh,23.8388,78.7378,39.2,14,0.0,947.1,8.6,29.2,52,23.0,8.4,0,5,10,0,2026-04-15T14:53:51.861307+05:30
Satna,Madhya Pradesh,24.6005,80.8322,40.9,13,0.0,966.7,8.6,27.0,120,26.4,11.5,0,5,10,0,2026-04-15T14:53:51.861314+05:30
Akola,Maharashtra,20.7002,77.0082,41.4,14,0.0,971.6,8.75,34.6,57,15.6,9.4,0,5,10,0,2026-04-15T14:53:51.861322+05:30
Amravati,Maharashtra,20.9374,77.7796,40.3,18,0.0,964.0,8.8,31.3,56,14.1,8.7,0,5,10,0,2026-04-15T14:53:51.861330+05:30
Latur,Maharashtra,18.4088,76.5604,37.6,21,0.0,938.2,9.05,25.2,81,30.9,22.2,0,5,10,0,2026-04-15T14:53:51.861336+05:30
Nanded,Maharashtra,19.1383,77.3091,39.4,23,0.0,965.9,8.95,14.8,69,22.1,12.5,0,5,10,0,2026-04-15T14:53:51.861342+05:30
Gulbarga,Karnataka,17.3297,76.8343,41.5,17,0.0,955.4,9.1,24.1,120,31.8,25.5,0,5,10,0,2026-04-15T14:53:51.861348+05:30
Bidar,Karnataka,17.9104,77.5199,39.4,18,0.0,933.5,9.1,23.4,120,36.8,29.6,0,5,10,0,2026-04-15T14:53:51.861355+05:30
Hospet,Karnataka,15.2689,76.3909,36.0,39,0.0,953.4,9.3,28.4,96,29.4,22.5,0,5,10,1,2026-04-15T14:53:51.861362+05:30
Tirupur,Tamil Nadu,11.1085,77.3411,39.8,23,0.0,971.9,9.5,32.8,86,33.1,24.3,0,5,10,0,2026-04-15T14:53:51.861368+05:30
Alappuzha,Kerala,9.4981,76.3388,29.7,80,0.0,1005.8,9.2,29.5,94,32.7,24.4,7,5,4,1,2026-04-15T14:53:51.861374+05:30
Munnar,Kerala,10.0889,77.0595,30.8,45,0.0,857.6,9.75,35.3,77,21.2,13.6,0,5,7,1,2026-04-15T14:53:51.861381+05:30
Silchar,Assam,24.8333,92.7789,28.3,72,0.0,1002.9,8.7,32.0,145,60.5,37.1,7,5,4,1,2026-04-15T14:53:51.861388+05:30
Dibrugarh,Assam,27.4728,94.912,23.3,69,0.0,995.6,7.95,30.6,105,88.9,44.6,3,5,7,1,2026-04-15T14:53:51.861395+05:30
