city,state,latitude,longitude,temp,humidity,rain,pressure,uv_index,wind_gusts,aqi,pm10,pm2_5,no2,co,o3,so2,mosquito_risk,arthritis_risk,migraine_risk,frizz_risk,updated_at
Delhi,Delhi,28.6139,77.209,36.5,32,0.0,978.0,7.75,35.3,229,265.4,61.0,10.0,301.0,157.0,18.5,0,5,10,1,2026-06-23T10:33:43.014389+05:30
Mumbai,Maharashtra,19.076,72.8777,25.9,92,0.3,1006.3,1.7,35.3,40,11.3,9.9,12.3,250.0,72.0,18.5,10,5,0,1,2026-06-23T10:33:43.014442+05:30
Bangalore,Karnataka,12.9716,77.5946,26.0,63,0.0,912.8,7.2,52.2,20,4.1,3.7,6.2,285.0,52.0,3.2,7,5,7,1,2026-06-23T10:33:43.014458+05:30
Hyderabad,Telangana,17.385,78.4867,32.0,48,0.0,952.5,4.7,48.2,35,6.8,5.7,3.0,221.0,60.0,2.7,0,5,3,1,2026-06-23T10:33:43.014467+05:30
Chennai,Tamil Nadu,13.0827,80.2707,33.6,51,0.0,1006.1,4.9,37.1,55,13.6,13.2,10.6,290.0,102.0,15.7,0,5,0,1,2026-06-23T10:33:43.014475+05:30
Kolkata,West Bengal,22.5726,88.3639,31.5,73,0.0,1000.5,8.9,26.3,113,53.7,44.5,4.3,511.0,169.0,19.8,3,5,4,1,2026-06-23T10:33:43.014483+05:30
Pune,Maharashtra,18.5204,73.8567,28.4,66,0.0,945.9,3.2,36.4,21,2.9,2.8,4.4,144.0,55.0,4.0,7,5,3,1,2026-06-23T10:33:43.014490+05:30
Ahmedabad,Gujarat,23.0225,72.5714,34.1,50,0.0,998.7,8.05,42.1,62,75.2,22.5,2.5,148.0,71.0,4.3,0,5,7,1,2026-06-23T10:33:43.014497+05:30
Jaipur,Rajasthan,26.9124,75.7873,34.3,39,0.0,956.5,8.2,35.6,147,278.5,54.6,3.6,194.0,89.0,5.0,0,5,7,1,2026-06-23T10:33:43.014504+05:30
Lucknow,Uttar Pradesh,26.8467,80.9462,37.5,33,0.0,987.9,8.25,40.3,153,263.6,61.9,3.8,230.0,150.0,11.9,0,5,10,1,2026-06-23T10:33:43.014514+05:30
Kanpur,Uttar Pradesh,26.4499,80.3319,38.1,31,0.0,986.5,8.25,43.6,199,404.2,65.7,3.6,209.0,135.0,8.3,0,5,10,1,2026-06-23T10:33:43.014522+05:30
Chandigarh,Chandigarh,30.7333,76.7794,34.4,32,0.0,963.5,7.8,36.0,92,30.3,23.1,4.3,396.0,170.0,12.9,0,5,7,0,2026-06-23T10:33:43.014529+05:30
Srinagar,Jammu and Kashmir,34.0837,74.7973,21.1,66,0.0,841.2,9.1,18.7,75,19.7,15.1,3.3,399.0,139.0,4.3,3,5,7,0,2026-06-23T10:33:43.014536+05:30
Jammu,Jammu and Kashmir,32.7266,74.857,35.4,27,0.0,967.4,8.65,35.6,80,18.0,12.8,3.9,316.0,147.0,2.8,0,5,10,0,2026-06-23T10:33:43.014543+05:30
Amritsar,Punjab,31.634,74.8723,33.7,40,0.0,975.5,8.5,18.4,145,45.5,29.0,6.6,418.0,167.0,12.9,0,5,7,1,2026-06-23T10:33:43.014549+05:30
Ludhiana,Punjab,30.901,75.8573,35.5,32,0.0,973.4,8.05,32.4,110,34.1,26.4,5.0,386.0,165.0,9.4,0,5,10,1,2026-06-23T10:33:43.014555+05:30
Jalandhar,Punjab,31.326,75.5762,35.1,33,0.0,974.5,8.25,27.7,124,37.6,26.8,5.3,421.0,170.0,9.3,0,5,10,1,2026-06-23T10:33:43.014561+05:30
Dehradun,Uttarakhand,30.6284,78.0322,24.0,52,0.0,829.3,7.7,32.4,67,30.0,18.2,0.2,205.0,144.0,2.9,0,5,7,0,2026-06-23T10:33:43.014568+05:30
Shimla,Himachal Pradesh,31.1048,77.1734,21.9,37,0.0,784.5,8.3,40.3,65,22.9,11.2,0.7,159.0,137.0,1.8,0,5,7,0,2026-06-23T10:33:43.014576+05:30
Manali,Himachal Pradesh,32.2396,77.1887,24.3,38,0.0,817.5,9.6,36.4,80,4.8,3.6,7.8,132.0,131.0,0.4,0,5,7,0,2026-06-23T10:33:43.014585+05:30
Gurgaon,Haryana,28.4595,77.0266,35.6,35,0.0,976.7,7.85,47.9,462,711.5,103.1,9.6,261.0,148.0,15.0,0,5,10,1,2026-06-23T10:33:43.014592+05:30
Noida,Uttar Pradesh,28.5355,77.391,35.6,37,0.0,979.3,7.8,27.7,462,711.5,103.1,9.6,364.0,148.0,15.0,0,5,10,1,2026-06-23T10:33:43.014599+05:30
Ghaziabad,Uttar Pradesh,28.6692,77.4538,35.1,39,0.0,977.7,7.8,29.2,184,198.8,56.2,8.5,258.0,178.0,21.5,0,5,10,1,2026-06-23T10:33:43.014605+05:30
Faridabad,Haryana,28.4089,77.3178,36.0,34,0.0,978.7,7.85,41.0,462,711.5,103.1,9.6,296.0,148.0,15.0,0,5,10,1,2026-06-23T10:33:43.014611+05:30
Meerut,Uttar Pradesh,28.9845,77.7064,34.3,44,0.0,976.4,7.7,34.9,184,198.8,56.2,8.5,259.0,178.0,21.5,0,5,7,1,2026-06-23T10:33:43.014617+05:30
Agra,Uttar Pradesh,27.1767,78.0081,36.6,34,0.0,983.0,8.1,33.1,637,620.3,79.6,5.3,186.0,133.0,6.6,0,5,10,1,2026-06-23T10:33:43.014624+05:30
Varanasi,Uttar Pradesh,25.3176,82.9739,37.9,34,0.0,991.9,8.4,41.8,122,205.8,56.7,4.4,244.0,141.0,9.9,0,5,10,1,2026-06-23T10:33:43.014630+05:30
Prayagraj,Uttar Pradesh,25.4358,81.8463,38.1,32,0.0,990.6,8.25,41.4,135,225.8,56.7,4.2,184.0,145.0,10.2,0,5,10,1,2026-06-23T10:33:43.014637+05:30
Gorakhpur,Uttar Pradesh,26.7606,83.3732,34.3,59,0.0,991.2,8.3,37.1,164,138.8,73.1,3.7,369.0,187.0,14.1,0,5,7,1,2026-06-23T10:33:43.014643+05:30
Bareilly,Uttar Pradesh,28.367,79.4304,35.0,39,0.0,981.5,8.1,32.8,159,244.0,73.3,5.2,304.0,164.0,14.8,0,5,7,1,2026-06-23T10:33:43.014651+05:30
Aligarh,Uttar Pradesh,27.8974,78.088,35.7,36,0.0,980.7,7.95,31.7,392,516.0,84.1,6.8,227.0,147.0,14.6,0,5,10,1,2026-06-23T10:33:43.014658+05:30
Moradabad,Uttar Pradesh,28.8386,78.7733,35.0,41,0.0,978.5,7.95,37.8,162,161.6,64.3,5.7,314.0,164.0,13.8,0,5,7,1,2026-06-23T10:33:43.014664+05:30
Saharanpur,Uttar Pradesh,29.9637,77.546,33.4,41,0.0,970.3,7.45,34.2,160,66.1,39.8,5.6,410.0,172.0,14.2,0,5,7,1,2026-06-23T10:33:43.014670+05:30
Jhansi,Uttar Pradesh,25.4484,78.5685,36.5,36,0.0,974.1,8.45,37.1,92,64.5,29.1,1.8,158.0,102.0,6.0,0,5,10,1,2026-06-23T10:33:46.255782+05:30
Surat,Gujarat,21.1702,72.8311,27.8,82,0.0,1004.8,4.2,41.8,63,35.3,21.9,18.3,379.0,48.0,53.7,7,5,0,1,2026-06-23T10:33:46.255816+05:30
Vadodara,Gujarat,22.3072,73.1812,34.3,50,0.0,1001.0,7.85,44.3,55,51.0,22.8,3.5,160.0,73.0,5.7,0,5,4,1,2026-06-23T10:33:46.255828+05:30
Rajkot,Gujarat,22.3039,70.8022,33.6,50,0.0,990.9,7.55,44.3,69,89.4,24.7,2.1,108.0,71.0,5.2,0,5,7,1,2026-06-23T10:33:46.255837+05:30
Thane,Maharashtra,19.2183,72.9781,26.3,91,0.2,1005.6,1.2,31.0,40,11.3,9.9,12.3,219.0,72.0,18.5,10,5,0,1,2026-06-23T10:33:46.255846+05:30
Nagpur,Maharashtra,21.1458,79.0882,33.1,50,0.0,971.2,5.05,54.0,58,13.4,12.6,7.2,170.0,116.0,23.7,0,5,3,1,2026-06-23T10:33:46.255855+05:30
Nashik,Maharashtra,19.9975,73.7898,28.7,63,0.1,943.2,5.65,38.2,22,7.3,5.3,3.4,131.0,67.0,6.8,10,5,3,1,2026-06-23T10:33:46.255863+05:30
Aurangabad,Maharashtra,19.8762,75.3433,31.0,54,0.0,942.5,8.1,32.0,23,5.3,4.5,2.3,141.0,74.0,4.6,0,5,7,1,2026-06-23T10:33:46.255870+05:30
Solapur,Maharashtra,17.6599,75.9064,29.0,63,0.0,955.6,6.6,56.9,21,3.0,2.5,1.6,114.0,58.0,1.3,7,5,7,1,2026-06-23T10:33:46.255879+05:30
Kolhapur,Maharashtra,16.705,74.2433,27.8,70,0.1,947.1,8.35,56.9,20,2.3,2.2,2.7,130.0,54.0,1.5,10,5,7,1,2026-06-23T10:33:46.255887+05:30
Goa,Goa,15.2993,74.124,25.8,97,0.5,998.7,3.55,35.3,27,19.2,9.6,1.0,177.0,54.0,0.5,10,5,3,1,2026-06-23T10:33:46.255895+05:30
Jodhpur,Rajasthan,26.2389,73.0243,34.3,48,0.0,979.3,8.4,37.1,126,235.6,54.7,1.0,111.0,71.0,3.0,0,5,7,1,2026-06-23T10:33:46.255928+05:30
Udaipur,Rajasthan,24.5854,73.7125,31.7,50,0.0,944.0,8.75,35.6,64,71.2,23.3,1.0,121.0,75.0,3.3,0,5,7,1,2026-06-23T10:33:46.255939+05:30
Kota,Rajasthan,25.2138,75.8648,35.2,42,0.0,975.2,8.3,34.6,84,64.3,26.8,2.9,155.0,95.0,9.7,0,5,10,1,2026-06-23T10:33:46.255948+05:30
Bikaner,Rajasthan,28.0229,73.3119,36.1,41,0.0,977.0,8.5,35.3,125,168.6,59.8,0.7,118.0,83.0,3.5,0,5,10,1,2026-06-23T10:33:46.255956+05:30
Ajmer,Rajasthan,26.4499,74.6399,32.0,51,0.0,951.5,8.35,45.7,95,122.0,38.4,2.0,127.0,78.0,4.0,0,5,7,1,2026-06-23T10:33:46.255964+05:30
Gwalior,Madhya Pradesh,26.2183,78.1828,36.6,33,0.0,979.0,8.25,42.1,110,76.4,32.8,1.8,164.0,101.0,3.5,0,5,10,1,2026-06-23T10:33:46.255971+05:30
Indore,Madhya Pradesh,22.7196,75.8577,31.4,53,0.0,946.0,6.35,38.2,61,27.6,16.2,2.9,189.0,92.0,8.1,0,5,7,1,2026-06-23T10:33:46.255979+05:30
Bhopal,Madhya Pradesh,23.2599,77.4126,31.5,57,0.0,951.3,6.65,38.2,60,21.8,14.1,1.8,217.0,100.0,4.2,0,5,7,1,2026-06-23T10:33:46.255987+05:30
Jabalpur,Madhya Pradesh,23.1815,79.9864,32.0,52,0.0,959.1,6.9,34.6,83,41.1,21.4,1.4,176.0,100.0,3.6,0,5,7,1,2026-06-23T10:33:46.255995+05:30
Ujjain,Madhya Pradesh,23.1765,75.7885,32.2,51,0.0,951.6,8.1,35.6,63,41.8,19.9,2.5,159.0,85.0,8.8,0,5,7,1,2026-06-23T10:33:46.256003+05:30
Visakhapatnam,Andhra Pradesh,17.6868,83.2185,33.0,61,0.0,1000.2,8.55,32.4,88,23.4,22.9,23.7,480.0,76.0,50.6,3,5,4,1,2026-06-23T10:33:46.256011+05:30
Vijayawada,Andhra Pradesh,16.5062,80.648,33.9,55,0.0,1000.3,5.8,38.5,80,12.8,11.5,4.8,161.0,87.0,7.7,0,5,0,1,2026-06-23T10:33:46.256019+05:30
Guntur,Andhra Pradesh,16.3067,80.4365,33.8,55,0.0,1001.6,5.55,39.2,70,11.0,9.3,4.0,160.0,80.0,7.6,0,5,0,1,2026-06-23T10:33:46.256027+05:30
Nellore,Andhra Pradesh,14.4426,79.9865,32.9,56,0.0,1004.4,8.3,37.1,51,6.9,5.5,4.3,154.0,66.0,7.1,0,5,4,1,2026-06-23T10:33:46.256036+05:30
Kurnool,Andhra Pradesh,15.8281,78.0373,32.7,50,0.0,976.6,7.8,46.1,22,4.6,3.2,1.4,118.0,56.0,1.4,0,5,7,1,2026-06-23T10:33:46.256044+05:30
Kakinada,Andhra Pradesh,16.9891,82.2475,32.1,64,0.0,1004.6,7.9,42.1,72,18.3,17.5,5.5,241.0,106.0,6.9,3,5,4,1,2026-06-23T10:33:46.256052+05:30
Tirupati,Andhra Pradesh,13.6288,79.4192,33.6,48,0.0,990.2,7.7,37.8,43,5.6,4.4,2.7,124.0,71.0,1.7,0,5,7,1,2026-06-23T10:33:46.256060+05:30
Warangal,Telangana,17.9689,79.5941,32.3,57,0.0,977.1,9.0,37.1,52,9.4,7.9,2.9,161.0,83.0,2.6,0,5,7,1,2026-06-23T10:33:46.256067+05:30
Nizamabad,Telangana,18.6725,78.0941,33.1,49,0.0,963.6,7.75,59.0,28,4.7,4.3,1.9,143.0,77.0,4.5,0,5,7,1,2026-06-23T10:33:46.256074+05:30
Mysore,Karnataka,12.2958,76.6396,27.2,62,0.0,929.7,8.05,47.2,19,2.6,2.1,2.7,121.0,58.0,1.5,7,5,7,1,2026-06-23T10:33:46.256081+05:30
Mangalore,Karnataka,12.9141,74.856,25.7,93,0.2,1009.1,7.85,36.7,26,11.7,6.9,2.1,125.0,54.0,1.4,10,0,4,1,2026-06-23T10:33:46.256088+05:30
Hubli-Dharwad,Karnataka,15.3647,75.124,25.2,79,0.1,941.0,7.55,63.4,21,2.8,1.7,2.0,106.0,52.0,0.7,10,5,7,1,2026-06-23T10:33:46.256095+05:30
Belgaum,Karnataka,15.8497,74.4977,23.1,90,0.1,925.3,8.6,51.5,19,1.7,1.5,2.8,125.0,53.0,1.2,6,5,7,1,2026-06-23T10:33:49.480587+05:30
Coimbatore,Tamil Nadu,11.0168,76.9558,29.7,58,0.0,963.0,8.0,51.5,20,3.2,2.6,2.0,135.0,62.0,1.9,4,5,7,1,2026-06-23T10:33:49.480620+05:30
Madurai,Tamil Nadu,9.9252,78.1198,34.9,41,0.0,993.5,8.25,44.6,62,11.9,8.8,3.8,140.0,90.0,4.0,0,5,7,1,2026-06-23T10:33:49.480631+05:30
Trichy,Tamil Nadu,10.7905,78.7047,32.8,53,0.0,999.6,7.8,52.9,23,6.9,4.8,2.0,124.0,69.0,2.3,0,5,7,1,2026-06-23T10:33:49.480640+05:30
Salem,Tamil Nadu,11.6643,78.146,30.4,62,0.0,977.9,8.1,43.9,40,8.2,6.9,4.4,213.0,83.0,9.0,3,5,7,1,2026-06-23T10:33:49.480648+05:30
Tirunelveli,Tamil Nadu,8.7139,77.7567,32.8,51,0.0,1003.9,2.9,43.9,18,6.6,4.6,2.3,116.0,61.0,1.5,0,5,0,1,2026-06-23T10:33:49.480656+05:30
Vellore,Tamil Nadu,12.9165,79.1325,32.1,54,0.0,984.1,6.9,41.4,32,6.0,5.1,2.4,128.0,80.0,3.1,0,5,7,1,2026-06-23T10:33:49.480663+05:30
Erode,Tamil Nadu,11.341,77.7172,33.1,46,0.0,989.7,7.75,32.8,29,6.0,4.9,2.8,153.0,72.0,2.4,0,5,7,1,2026-06-23T10:33:49.480671+05:30
Kochi,Kerala,9.9312,76.2673,27.1,83,0.0,1011.2,8.4,37.4,39,8.0,5.9,4.2,120.0,60.0,3.4,7,0,4,1,2026-06-23T10:33:49.480679+05:30
Thiruvananthapuram,Kerala,8.5241,76.9366,27.0,85,0.1,1010.3,8.0,46.8,23,14.1,9.1,2.4,110.0,66.0,1.9,10,0,4,1,2026-06-23T10:33:49.480686+05:30
Kozhikode,Kerala,11.2588,75.7804,26.2,96,0.0,1010.3,7.65,35.6,25,9.5,5.0,0.7,144.0,56.0,0.5,7,0,4,1,2026-06-23T10:33:49.480693+05:30
Thrissur,Kerala,10.5276,76.2144,26.0,89,0.1,1009.6,7.65,35.3,39,6.8,5.3,3.0,143.0,62.0,2.1,10,0,4,1,2026-06-23T10:33:49.480701+05:30
Kannur,Kerala,11.8745,75.3704,27.0,89,0.1,1009.6,6.4,34.9,20,7.9,4.5,2.1,163.0,54.0,1.0,10,0,4,1,2026-06-23T10:33:49.480708+05:30
Patna,Bihar,25.5941,85.1376,33.7,65,0.0,994.6,8.6,32.0,153,77.5,50.2,4.7,371.0,177.0,15.1,3,5,7,1,2026-06-23T10:33:49.480716+05:30
Gaya,Bihar,24.7914,85.0002,35.8,45,0.0,988.3,8.6,37.4,101,63.8,36.3,3.0,217.0,145.0,12.0,0,5,10,1,2026-06-23T10:33:49.480723+05:30
Muzaffarpur,Bihar,26.1209,85.3647,32.4,67,0.0,994.8,8.85,26.3,159,93.1,61.5,4.8,371.0,182.0,16.2,3,5,7,1,2026-06-23T10:33:49.480731+05:30
Bhagalpur,Bihar,25.2425,87.0117,33.2,64,0.0,995.6,8.85,22.3,141,75.9,44.1,4.9,322.0,157.0,19.9,3,5,7,1,2026-06-23T10:33:49.480738+05:30
Ranchi,Jharkhand,23.3441,85.3096,32.5,46,0.0,934.5,8.95,37.8,84,68.5,33.1,2.2,167.0,126.0,9.6,0,5,7,1,2026-06-23T10:33:49.480745+05:30
Jamshedpur,Jharkhand,22.8046,86.2029,33.2,64,0.0,985.6,9.1,43.2,113,46.6,33.4,4.8,274.0,158.0,23.4,3,5,7,1,2026-06-23T10:33:49.480752+05:30
Dhanbad,Jharkhand,23.7957,86.4304,33.9,58,0.0,974.8,9.1,27.0,154,75.2,49.1,19.8,215.0,142.0,72.4,0,5,7,1,2026-06-23T10:33:49.480759+05:30
Bokaro,Jharkhand,23.6693,86.1511,35.0,51,0.0,978.5,8.85,29.9,136,73.8,45.8,17.4,205.0,135.0,64.0,0,5,7,1,2026-06-23T10:33:49.480767+05:30
Bhubaneswar,Odisha,20.2961,85.8245,29.6,77,0.0,998.9,9.05,33.1,79,21.8,19.5,6.8,243.0,98.0,8.2,7,5,7,1,2026-06-23T10:33:49.480774+05:30
Cuttack,Odisha,20.4625,85.8828,29.4,81,0.1,1000.6,9.05,36.7,79,21.8,19.5,6.8,229.0,98.0,8.2,10,5,4,1,2026-06-23T10:33:49.480781+05:30
Rourkela,Odisha,22.2604,84.8536,32.9,59,0.0,980.9,9.0,38.5,100,48.3,33.3,6.7,285.0,131.0,27.2,0,5,7,1,2026-06-23T10:33:49.480788+05:30
Raipur,Chhattisgarh,21.2514,81.6296,34.3,46,0.0,972.0,8.95,45.0,84,21.7,20.8,12.1,436.0,112.0,41.3,0,5,7,1,2026-06-23T10:33:49.480795+05:30
Bhilai,Chhattisgarh,21.1938,81.3509,33.7,46,0.0,972.6,8.9,44.3,80,17.7,17.0,9.8,625.0,113.0,32.4,0,5,7,1,2026-06-23T10:33:49.480802+05:30
Guwahati,Assam,26.1158,91.7086,28.7,76,0.0,996.4,8.7,29.9,81,13.6,11.0,2.3,334.0,112.0,3.0,7,5,7,1,2026-06-23T10:33:49.480809+05:30
Agartala,Tripura,23.8315,91.2868,30.4,72,0.0,1001.1,8.65,38.2,64,15.5,13.4,3.4,196.0,133.0,2.3,3,5,4,1,2026-06-23T10:33:49.480816+05:30
Shillong,Meghalaya,25.5788,91.8933,24.8,69,0.1,855.2,7.85,29.2,57,7.7,5.6,2.1,211.0,107.0,2.8,6,5,7,1,2026-06-23T10:33:49.480823+05:30
Imphal,Manipur,24.817,93.9368,28.5,69,0.0,919.5,9.1,29.2,70,10.0,6.1,0.8,181.0,101.0,1.1,7,5,7,1,2026-06-23T10:33:49.480830+05:30
Aizawl,Mizoram,23.7271,92.7176,25.7,69,0.1,889.7,8.2,28.1,26,3.4,2.5,0.5,160.0,98.0,0.4,10,5,7,1,2026-06-23T10:33:49.480837+05:30
Kohima,Nagaland,25.6701,94.1077,21.5,98,0.2,852.5,6.95,22.3,54,13.9,8.4,0.6,179.0,101.0,1.1,6,5,7,1,2026-06-23T10:33:49.480843+05:30
Gangtok,Sikkim,27.3314,88.6138,24.3,61,0.0,835.8,9.05,34.9,61,7.0,5.2,2.0,301.0,141.0,4.5,3,5,7,1,2026-06-23T10:33:49.480850+05:30
Siliguri,West Bengal,26.7271,88.3953,28.1,74,0.0,988.1,8.8,20.9,84,18.5,13.7,2.8,413.0,149.0,7.2,7,5,7,1,2026-06-23T10:33:52.711543+05:30
Durgapur,West Bengal,23.5204,87.3119,32.9,68,0.0,989.5,9.0,29.2,159,93.6,64.3,27.0,554.0,142.0,85.4,3,5,7,1,2026-06-23T10:33:52.711576+05:30
Asansol,West Bengal,23.6739,86.9524,33.9,60,0.0,988.1,9.05,30.6,154,83.6,54.0,22.4,486.0,139.0,73.0,0,5,7,1,2026-06-23T10:33:52.711587+05:30
Pondicherry,Puducherry,11.9139,79.8145,33.0,55,0.0,1007.9,7.55,40.3,58,14.2,13.6,6.2,248.0,105.0,10.4,0,5,4,1,2026-06-23T10:33:52.711595+05:30
Port Blair,Andaman and Nicobar Islands,11.6234,92.7265,30.3,70,0.1,1007.3,8.75,45.0,23,7.3,4.3,0.2,88.0,42.0,0.4,6,5,4,1,2026-06-23T10:33:52.711603+05:30
Haridwar,Uttarakhand,29.9457,78.1642,32.8,47,0.0,968.5,7.6,28.4,132,51.6,32.8,2.7,394.0,174.0,11.6,0,5,7,1,2026-06-23T10:33:52.711611+05:30
Rishikesh,Uttarakhand,30.0869,78.2676,32.6,43,0.0,961.4,7.7,23.4,98,47.0,29.0,1.3,254.0,162.0,8.4,0,5,7,1,2026-06-23T10:33:52.711618+05:30
Nainital,Uttarakhand,29.3919,79.4542,22.2,60,0.0,805.2,6.65,33.8,102,105.7,39.5,1.6,246.0,159.0,6.2,0,5,7,0,2026-06-23T10:33:52.711626+05:30
Mussoorie,Uttarakhand,30.4599,78.0664,21.7,53,0.0,802.3,7.25,40.0,88,32.6,23.6,1.0,181.0,160.0,7.4,0,5,7,0,2026-06-23T10:33:52.711633+05:30
Dharamshala,Himachal Pradesh,32.219,76.3234,25.5,50,0.0,866.8,8.5,40.7,42,15.2,9.4,0.5,214.0,138.0,0.7,4,5,7,0,2026-06-23T10:33:52.711640+05:30
Dalhousie,Himachal Pradesh,32.5387,75.971,22.4,44,0.0,804.0,8.8,37.8,74,21.2,13.7,1.1,204.0,152.0,1.7,0,5,7,0,2026-06-23T10:33:52.711649+05:30
Patiala,Punjab,30.3398,76.3869,34.9,37,0.0,972.9,7.7,32.4,328,371.6,65.0,4.5,312.0,166.0,9.5,0,5,7,1,2026-06-23T10:33:52.711656+05:30
Bhatinda,Punjab,30.211,74.9455,35.6,36,0.0,978.6,8.3,28.8,114,83.6,33.9,3.5,196.0,141.0,13.3,0,5,10,1,2026-06-23T10:33:52.711663+05:30
Rohtak,Haryana,28.8955,76.6066,34.6,42,0.0,976.9,7.75,33.1,329,371.6,63.8,5.7,215.0,137.0,8.2,0,5,7,1,2026-06-23T10:33:52.711671+05:30
Panipat,Haryana,29.3909,76.9635,34.7,41,0.0,975.3,7.65,32.4,1201,1266.6,148.5,6.0,271.0,150.0,15.0,0,5,7,1,2026-06-23T10:33:52.711678+05:30
Mathura,Uttar Pradesh,27.4924,77.6737,35.5,39,0.0,982.1,8.05,39.2,495,508.5,69.8,5.6,189.0,125.0,5.6,0,5,10,1,2026-06-23T10:33:52.711686+05:30
Vrindavan,Uttar Pradesh,27.5823,77.7027,35.3,40,0.0,982.4,8.05,38.5,495,508.5,69.8,5.6,185.0,125.0,5.6,0,5,10,1,2026-06-23T10:33:52.711693+05:30
Ayodhya,Uttar Pradesh,26.7922,82.1998,33.3,55,0.1,989.7,8.4,36.0,158,190.0,65.4,4.0,247.0,161.0,13.9,3,5,7,1,2026-06-23T10:33:52.711700+05:30
Ratlam,Madhya Pradesh,23.3315,75.0367,31.1,60,0.0,952.3,7.5,34.2,61,45.3,20.5,2.6,135.0,82.0,8.6,0,5,7,1,2026-06-23T10:33:52.711707+05:30
Sagar,Madhya Pradesh,23.8388,78.7378,32.2,51,0.0,947.8,5.95,38.9,82,40.9,21.5,1.3,186.0,100.0,3.9,0,5,3,1,2026-06-23T10:33:52.711714+05:30
Satna,Madhya Pradesh,24.6005,80.8322,35.3,41,0.0,967.7,8.8,39.2,89,108.3,40.5,1.8,155.0,112.0,5.3,0,5,10,1,2026-06-23T10:33:52.711721+05:30
Akola,Maharashtra,20.7002,77.0082,32.0,59,0.0,973.3,7.85,37.1,35,6.2,5.7,3.1,130.0,83.0,8.4,0,5,7,1,2026-06-23T10:33:52.711729+05:30
Amravati,Maharashtra,20.9374,77.7796,31.4,63,0.0,965.8,8.2,38.9,40,7.2,6.8,3.8,131.0,89.0,10.7,3,5,7,1,2026-06-23T10:33:52.711737+05:30
Latur,Maharashtra,18.4088,76.5604,31.4,53,0.0,938.7,6.8,47.9,20,4.0,3.1,1.1,126.0,62.0,0.9,0,5,7,1,2026-06-23T10:33:52.711744+05:30
Nanded,Maharashtra,19.1383,77.3091,33.9,48,0.0,967.1,8.0,43.2,29,3.9,3.5,1.6,136.0,74.0,1.6,0,5,7,1,2026-06-23T10:33:52.711750+05:30
Gulbarga,Karnataka,17.3297,76.8343,30.7,57,0.0,958.0,8.65,64.4,19,3.6,3.0,2.0,125.0,61.0,1.6,0,5,7,1,2026-06-23T10:33:52.711757+05:30
Bidar,Karnataka,17.9104,77.5199,30.3,56,0.0,934.9,8.0,59.0,24,6.8,5.2,1.9,133.0,65.0,1.0,0,5,7,1,2026-06-23T10:33:52.711764+05:30
Hospet,Karnataka,15.2689,76.3909,28.7,62,0.0,956.1,7.75,55.4,21,1.6,1.4,1.4,107.0,60.0,1.4,7,5,7,1,2026-06-23T10:33:52.711771+05:30
Tirupur,Tamil Nadu,11.1085,77.3411,32.0,51,0.0,976.2,8.1,51.1,32,6.0,5.0,2.9,147.0,72.0,2.9,0,5,7,1,2026-06-23T10:33:52.711777+05:30
Alappuzha,Kerala,9.4981,76.3388,26.6,86,0.0,1011.1,3.55,38.9,31,11.3,7.8,3.6,88.0,64.0,2.7,7,0,0,1,2026-06-23T10:33:52.711784+05:30
Munnar,Kerala,10.0889,77.0595,18.7,90,0.1,858.5,9.05,41.0,17,3.5,2.3,1.5,90.0,55.0,1.1,6,10,7,1,2026-06-23T10:33:52.711791+05:30
Silchar,Assam,24.8333,92.7789,30.5,73,0.0,1000.1,8.4,23.4,86,10.0,8.7,0.7,224.0,112.0,3.1,3,5,4,1,2026-06-23T10:33:52.711799+05:30
Dibrugarh,Assam,27.4728,94.912,29.0,76,0.0,990.6,8.5,20.5,79,33.3,21.6,1.0,196.0,126.0,1.7,7,5,7,1,2026-06-23T10:33:52.711805+05:30
