city,state,latitude,longitude,temp,humidity,rain,pressure,uv_index,wind_gusts,aqi,pm10,pm2_5,no2,co,o3,so2,mosquito_risk,arthritis_risk,migraine_risk,frizz_risk,updated_at
Delhi,Delhi,28.6139,77.209,35.9,33,0.0,977.1,7.55,30.2,169,288.7,86.6,6.2,333.0,213.0,24.1,0,5,10,1,2026-06-05T15:26:14.850954+05:30
Mumbai,Maharashtra,19.076,72.8777,33.1,63,0.0,1003.6,7.65,42.5,64,44.8,23.3,4.8,159.0,101.0,8.7,3,5,4,1,2026-06-05T15:26:14.851004+05:30
Bangalore,Karnataka,12.9716,77.5946,24.6,79,0.1,909.1,8.65,51.8,28,6.1,4.0,3.2,233.0,82.0,2.2,6,5,7,1,2026-06-05T15:26:14.851020+05:30
Hyderabad,Telangana,17.385,78.4867,32.8,46,0.0,948.6,5.3,37.8,63,57.6,33.9,2.4,256.0,126.0,3.8,0,5,3,1,2026-06-05T15:26:14.851030+05:30
Chennai,Tamil Nadu,13.0827,80.2707,38.8,32,0.2,1000.7,8.45,48.6,58,23.7,17.4,3.0,242.0,134.0,5.1,3,5,7,1,2026-06-05T15:26:14.851039+05:30
Kolkata,West Bengal,22.5726,88.3639,33.7,60,0.0,998.1,8.65,32.8,118,42.4,37.3,7.4,436.0,133.0,11.0,0,5,7,1,2026-06-05T15:26:14.851048+05:30
Pune,Maharashtra,18.5204,73.8567,33.7,44,0.0,944.0,8.25,50.4,47,28.6,13.6,1.7,148.0,109.0,4.1,0,5,7,1,2026-06-05T15:26:14.851055+05:30
Ahmedabad,Gujarat,23.0225,72.5714,39.2,34,0.0,995.1,8.1,39.2,78,71.0,29.9,1.4,137.0,94.0,3.3,0,5,10,1,2026-06-05T15:26:14.851063+05:30
Jaipur,Rajasthan,26.9124,75.7873,35.9,29,0.0,954.5,8.2,34.9,93,220.7,52.2,1.0,146.0,103.0,3.1,0,5,10,0,2026-06-05T15:26:14.851080+05:30
Lucknow,Uttar Pradesh,26.8467,80.9462,38.2,33,0.0,985.5,8.35,31.0,151,109.2,37.1,1.5,276.0,156.0,5.8,0,5,10,1,2026-06-05T15:26:14.851087+05:30
Kanpur,Uttar Pradesh,26.4499,80.3319,37.9,31,0.0,984.0,8.35,27.0,145,208.6,48.1,1.5,228.0,154.0,5.9,0,5,10,1,2026-06-05T15:26:14.851094+05:30
Chandigarh,Chandigarh,30.7333,76.7794,34.5,35,0.0,963.6,7.75,25.2,143,123.9,42.7,2.1,325.0,196.0,9.8,0,5,7,1,2026-06-05T15:26:14.851102+05:30
Srinagar,Jammu and Kashmir,34.0837,74.7973,17.8,82,0.1,840.8,9.0,31.3,76,26.4,17.2,2.4,245.0,134.0,2.2,6,10,7,0,2026-06-05T15:26:14.851110+05:30
Jammu,Jammu and Kashmir,32.7266,74.857,35.0,30,0.0,967.6,8.55,30.2,128,71.0,31.9,1.5,246.0,150.0,3.7,0,5,7,0,2026-06-05T15:26:14.851117+05:30
Amritsar,Punjab,31.634,74.8723,35.4,34,0.0,975.4,8.45,28.1,138,110.6,42.4,1.3,296.0,163.0,6.5,0,5,10,1,2026-06-05T15:26:14.851123+05:30
Ludhiana,Punjab,30.901,75.8573,36.2,31,0.0,973.1,8.0,37.8,152,258.0,65.0,1.6,353.0,182.0,9.7,0,5,10,1,2026-06-05T15:26:14.851130+05:30
Jalandhar,Punjab,31.326,75.5762,36.2,30,0.0,974.0,8.2,27.7,142,170.4,53.6,1.6,333.0,182.0,8.6,0,5,10,0,2026-06-05T15:26:14.851137+05:30
Dehradun,Uttarakhand,30.6284,78.0322,23.1,49,0.0,829.0,3.95,25.6,95,43.1,19.7,0.9,214.0,155.0,2.2,0,5,3,0,2026-06-05T15:26:14.851143+05:30
Shimla,Himachal Pradesh,31.1048,77.1734,15.7,82,0.1,782.2,5.65,32.4,135,49.7,27.8,1.3,245.0,176.0,7.6,6,10,3,0,2026-06-05T15:26:14.851161+05:30
Manali,Himachal Pradesh,32.2396,77.1887,22.3,59,0.0,818.1,5.8,39.6,119,18.3,12.3,1.9,151.0,169.0,0.5,0,5,3,0,2026-06-05T15:26:14.851167+05:30
Gurgaon,Haryana,28.4595,77.0266,35.1,34,0.0,975.7,7.75,29.9,695,422.8,84.8,5.0,225.0,169.0,14.8,0,5,10,1,2026-06-05T15:26:14.851174+05:30
Noida,Uttar Pradesh,28.5355,77.391,34.5,40,0.0,978.5,7.1,23.0,695,422.8,84.8,5.0,406.0,169.0,14.8,0,5,7,1,2026-06-05T15:26:14.851181+05:30
Ghaziabad,Uttar Pradesh,28.6692,77.4538,33.0,48,0.0,977.0,6.75,25.2,159,311.1,92.7,4.4,263.0,227.0,30.1,0,5,7,1,2026-06-05T15:26:14.851188+05:30
Faridabad,Haryana,28.4089,77.3178,35.5,33,0.0,977.7,6.4,27.7,695,422.8,84.8,5.0,263.0,169.0,14.8,0,5,10,1,2026-06-05T15:26:14.851194+05:30
Meerut,Uttar Pradesh,28.9845,77.7064,31.7,57,0.0,975.9,6.4,31.7,159,311.1,92.7,4.4,300.0,227.0,30.1,0,5,7,1,2026-06-05T15:26:14.851204+05:30
Agra,Uttar Pradesh,27.1767,78.0081,34.0,35,0.0,982.1,7.65,31.3,166,312.9,54.0,1.6,160.0,123.0,3.4,0,5,7,1,2026-06-05T15:26:14.851210+05:30
Varanasi,Uttar Pradesh,25.3176,82.9739,40.4,26,0.0,988.6,8.8,24.8,146,72.9,33.6,1.6,279.0,176.0,8.2,0,5,10,1,2026-06-05T15:26:14.851217+05:30
Prayagraj,Uttar Pradesh,25.4358,81.8463,39.4,28,0.0,987.6,8.5,31.3,150,91.5,37.6,1.6,221.0,171.0,9.1,0,5,10,1,2026-06-05T15:26:14.851223+05:30
Gorakhpur,Uttar Pradesh,26.7606,83.3732,37.4,35,0.0,988.7,8.45,23.8,153,92.2,51.3,1.7,287.0,195.0,7.9,0,5,10,1,2026-06-05T15:26:14.851233+05:30
Bareilly,Uttar Pradesh,28.367,79.4304,33.2,51,0.0,980.4,5.8,34.6,137,164.4,55.5,1.5,278.0,179.0,8.9,0,5,3,1,2026-06-05T15:26:14.851239+05:30
Aligarh,Uttar Pradesh,27.8974,78.088,33.7,43,0.0,979.5,7.65,25.9,154,423.8,72.4,1.9,184.0,139.0,8.1,0,5,7,1,2026-06-05T15:26:14.851245+05:30
Moradabad,Uttar Pradesh,28.8386,78.7733,33.6,47,0.0,977.5,5.9,34.6,153,177.9,61.9,2.6,299.0,214.0,17.0,0,5,3,1,2026-06-05T15:26:14.851251+05:30
Saharanpur,Uttar Pradesh,29.9637,77.546,30.7,57,0.0,970.5,6.85,35.6,146,130.9,45.9,2.2,293.0,187.0,9.6,0,5,7,1,2026-06-05T15:26:14.851257+05:30
Jhansi,Uttar Pradesh,25.4484,78.5685,35.4,39,0.0,971.6,8.5,34.6,75,88.9,30.4,0.9,134.0,109.0,5.1,0,5,10,1,2026-06-05T15:26:18.089076+05:30
Surat,Gujarat,21.1702,72.8311,34.8,51,0.0,1001.2,7.55,49.0,86,50.3,27.0,8.5,221.0,60.0,28.8,0,5,4,1,2026-06-05T15:26:18.089112+05:30
Vadodara,Gujarat,22.3072,73.1812,38.4,37,0.0,997.7,8.0,42.5,83,68.5,30.7,1.5,139.0,98.0,3.9,0,5,10,1,2026-06-05T15:26:18.089124+05:30
Rajkot,Gujarat,22.3039,70.8022,39.7,32,0.0,987.5,7.55,42.1,76,71.2,29.6,0.9,108.0,89.0,3.2,0,5,10,1,2026-06-05T15:26:18.089132+05:30
Thane,Maharashtra,19.2183,72.9781,35.2,52,0.0,1002.6,7.7,41.8,64,44.8,23.3,4.8,157.0,101.0,8.7,0,5,7,1,2026-06-05T15:26:18.089140+05:30
Nagpur,Maharashtra,21.1458,79.0882,38.5,26,0.0,966.7,8.9,43.6,89,64.7,33.8,3.6,155.0,142.0,16.1,0,5,10,0,2026-06-05T15:26:18.089148+05:30
Nashik,Maharashtra,19.9975,73.7898,34.5,40,0.0,941.3,8.0,45.4,61,36.3,19.3,1.3,152.0,117.0,5.0,0,5,7,1,2026-06-05T15:26:18.089157+05:30
Aurangabad,Maharashtra,19.8762,75.3433,37.4,29,0.0,939.3,8.95,39.2,71,44.9,22.0,1.1,138.0,129.0,6.3,0,5,10,1,2026-06-05T15:26:18.089165+05:30
Solapur,Maharashtra,17.6599,75.9064,36.5,38,0.0,952.3,8.8,32.0,52,38.2,19.0,1.2,145.0,120.0,3.2,0,5,10,1,2026-06-05T15:26:18.089172+05:30
Kolhapur,Maharashtra,16.705,74.2433,30.7,59,0.1,944.1,8.6,50.8,36,16.7,9.4,1.5,141.0,95.0,1.4,3,5,7,1,2026-06-05T15:26:18.089180+05:30
Goa,Goa,15.2993,74.124,28.2,84,0.1,994.8,7.2,28.1,30,9.5,4.9,1.1,132.0,60.0,0.6,10,5,7,1,2026-06-05T15:26:18.089187+05:30
Jodhpur,Rajasthan,26.2389,73.0243,38.6,35,0.0,976.2,8.45,38.2,150,313.9,58.7,0.6,119.0,89.0,1.6,0,5,10,1,2026-06-05T15:26:18.089195+05:30
Udaipur,Rajasthan,24.5854,73.7125,34.2,45,0.0,941.6,8.85,41.0,77,71.9,29.3,0.6,136.0,91.0,2.9,0,5,7,1,2026-06-05T15:26:18.089202+05:30
Kota,Rajasthan,25.2138,75.8648,37.7,25,0.0,972.3,7.75,33.8,89,102.7,35.3,0.8,140.0,115.0,6.2,0,5,10,0,2026-06-05T15:26:18.089210+05:30
Bikaner,Rajasthan,28.0229,73.3119,38.8,29,0.0,975.0,8.45,42.8,158,217.5,76.6,0.3,124.0,89.0,3.7,0,5,10,1,2026-06-05T15:26:18.089217+05:30
Ajmer,Rajasthan,26.4499,74.6399,35.2,38,0.0,949.4,8.35,47.9,81,178.8,44.4,0.6,126.0,96.0,2.4,0,5,10,1,2026-06-05T15:26:18.089225+05:30
Gwalior,Madhya Pradesh,26.2183,78.1828,33.8,38,0.0,977.4,8.3,44.6,81,108.5,33.2,0.6,140.0,103.0,2.7,0,5,7,1,2026-06-05T15:26:18.089232+05:30
Indore,Madhya Pradesh,22.7196,75.8577,35.0,34,0.0,942.8,8.65,45.7,91,72.9,29.6,1.0,166.0,100.0,3.3,0,5,7,1,2026-06-05T15:26:18.089239+05:30
Bhopal,Madhya Pradesh,23.2599,77.4126,34.9,33,0.0,947.9,8.7,43.9,85,50.5,23.4,0.7,173.0,105.0,3.2,0,5,7,1,2026-06-05T15:26:18.089246+05:30
Jabalpur,Madhya Pradesh,23.1815,79.9864,36.8,33,0.0,955.0,8.9,33.5,91,62.6,30.4,0.8,172.0,118.0,4.2,0,5,10,1,2026-06-05T15:26:18.089253+05:30
Ujjain,Madhya Pradesh,23.1765,75.7885,35.2,37,0.0,948.3,8.55,45.0,88,67.1,27.6,0.6,137.0,97.0,3.4,0,5,10,1,2026-06-05T15:26:18.089261+05:30
Visakhapatnam,Andhra Pradesh,17.6868,83.2185,37.9,39,0.1,995.3,8.9,42.1,104,38.6,32.4,7.0,448.0,197.0,31.7,3,5,10,1,2026-06-05T15:26:18.089268+05:30
Vijayawada,Andhra Pradesh,16.5062,80.648,38.5,37,0.0,995.3,8.95,55.1,66,16.5,12.5,1.5,180.0,132.0,5.1,0,5,10,1,2026-06-05T15:26:18.089281+05:30
Guntur,Andhra Pradesh,16.3067,80.4365,38.0,36,0.0,996.7,9.0,51.8,61,15.9,11.1,1.2,177.0,126.0,3.8,0,5,10,1,2026-06-05T15:26:18.089287+05:30
Nellore,Andhra Pradesh,14.4426,79.9865,37.9,35,0.0,999.1,8.55,42.8,53,14.9,11.0,2.4,123.0,113.0,4.7,0,5,10,1,2026-06-05T15:26:18.089296+05:30
Kurnool,Andhra Pradesh,15.8281,78.0373,36.1,40,0.0,971.4,9.0,41.0,38,11.4,7.7,1.0,141.0,106.0,3.4,0,5,10,1,2026-06-05T15:26:18.089318+05:30
Kakinada,Andhra Pradesh,16.9891,82.2475,36.7,45,0.0,999.6,9.1,46.4,93,22.2,18.3,2.0,212.0,146.0,4.2,0,5,10,1,2026-06-05T15:26:18.089327+05:30
Tirupati,Andhra Pradesh,13.6288,79.4192,34.8,46,0.1,985.0,8.65,42.8,53,9.9,5.3,1.5,116.0,74.0,0.8,3,5,7,1,2026-06-05T15:26:18.089334+05:30
Warangal,Telangana,17.9689,79.5941,36.3,36,0.0,972.6,8.2,31.3,79,61.7,32.4,1.3,190.0,135.0,4.8,0,5,10,1,2026-06-05T15:26:18.089341+05:30
Nizamabad,Telangana,18.6725,78.0941,36.2,37,0.0,959.4,8.8,34.9,84,72.2,38.0,1.2,156.0,114.0,2.9,0,5,10,1,2026-06-05T15:26:18.089348+05:30
Mysore,Karnataka,12.2958,76.6396,24.8,83,0.1,926.1,8.3,59.4,26,4.3,2.5,1.8,116.0,67.0,1.0,6,5,7,1,2026-06-05T15:26:18.089355+05:30
Mangalore,Karnataka,12.9141,74.856,25.9,95,0.1,1005.3,2.0,33.5,28,10.4,5.6,2.1,109.0,56.0,1.0,10,5,0,1,2026-06-05T15:26:18.089363+05:30
Hubli-Dharwad,Karnataka,15.3647,75.124,25.7,85,0.3,937.8,8.5,50.0,29,4.5,2.7,1.4,125.0,73.0,0.6,10,5,7,1,2026-06-05T15:26:18.089371+05:30
Belgaum,Karnataka,15.8497,74.4977,27.7,67,0.1,922.7,8.9,38.2,29,11.6,6.8,1.9,134.0,74.0,1.5,10,5,7,1,2026-06-05T15:26:21.327345+05:30
Coimbatore,Tamil Nadu,11.0168,76.9558,30.0,58,0.0,958.9,6.9,61.2,24,2.6,2.1,2.1,154.0,58.0,1.4,4,5,7,1,2026-06-05T15:26:21.327381+05:30
Madurai,Tamil Nadu,9.9252,78.1198,35.1,40,0.0,988.9,8.05,62.6,30,6.3,3.9,2.0,120.0,81.0,1.5,0,5,10,1,2026-06-05T15:26:21.327393+05:30
Trichy,Tamil Nadu,10.7905,78.7047,35.6,42,0.0,995.1,8.1,55.8,29,6.6,3.9,1.4,108.0,79.0,1.4,0,5,10,1,2026-06-05T15:26:21.327402+05:30
Salem,Tamil Nadu,11.6643,78.146,31.5,60,0.1,973.4,7.45,39.2,38,7.0,5.2,2.6,156.0,93.0,4.7,3,5,7,1,2026-06-05T15:26:21.327410+05:30
Tirunelveli,Tamil Nadu,8.7139,77.7567,36.0,38,0.0,999.8,8.45,45.4,23,3.4,2.2,1.4,108.0,59.0,0.8,0,5,10,1,2026-06-05T15:26:21.327418+05:30
Vellore,Tamil Nadu,12.9165,79.1325,32.0,54,0.1,979.8,8.6,69.1,45,10.3,6.3,1.4,147.0,93.0,1.8,3,5,7,1,2026-06-05T15:26:21.327426+05:30
Erode,Tamil Nadu,11.341,77.7172,33.7,48,0.0,985.0,8.4,54.7,27,4.3,3.1,2.1,144.0,72.0,1.4,0,5,7,1,2026-06-05T15:26:21.327434+05:30
Kochi,Kerala,9.9312,76.2673,27.6,84,0.2,1007.9,4.15,35.3,36,11.7,7.7,6.2,114.0,41.0,2.2,10,5,0,1,2026-06-05T15:26:21.327442+05:30
Thiruvananthapuram,Kerala,8.5241,76.9366,27.4,80,0.0,1007.0,3.85,58.7,26,11.7,5.8,1.2,100.0,53.0,0.5,7,5,0,1,2026-06-05T15:26:21.327449+05:30
Kozhikode,Kerala,11.2588,75.7804,25.7,99,0.3,1007.4,8.35,24.5,25,12.4,5.3,0.6,116.0,56.0,0.4,10,5,4,1,2026-06-05T15:26:21.327457+05:30
Thrissur,Kerala,10.5276,76.2144,25.8,95,0.1,1006.4,8.25,32.4,33,9.1,5.9,3.9,122.0,43.0,1.4,10,5,4,1,2026-06-05T15:26:21.327465+05:30
Kannur,Kerala,11.8745,75.3704,26.3,95,0.1,1006.3,5.7,41.0,26,10.8,5.1,1.8,109.0,54.0,0.7,10,5,0,1,2026-06-05T15:26:21.327472+05:30
Patna,Bihar,25.5941,85.1376,36.8,46,0.0,991.6,8.9,37.4,161,86.1,59.8,2.3,258.0,198.0,9.8,0,5,10,1,2026-06-05T15:26:21.327479+05:30
Gaya,Bihar,24.7914,85.0002,37.5,40,0.0,985.3,8.95,59.0,165,72.4,45.9,1.3,231.0,164.0,6.3,0,5,10,1,2026-06-05T15:26:21.327486+05:30
Muzaffarpur,Bihar,26.1209,85.3647,35.9,49,0.0,991.7,8.85,28.4,158,86.6,64.5,2.7,270.0,207.0,12.1,0,5,10,1,2026-06-05T15:26:21.327494+05:30
Bhagalpur,Bihar,25.2425,87.0117,35.2,56,0.1,992.4,8.85,36.4,154,64.3,54.1,4.1,362.0,216.0,22.4,3,5,10,1,2026-06-05T15:26:21.327500+05:30
Ranchi,Jharkhand,23.3441,85.3096,32.9,45,0.0,931.4,9.3,35.3,126,48.1,33.2,1.6,218.0,163.0,7.7,0,5,7,1,2026-06-05T15:26:21.327507+05:30
Jamshedpur,Jharkhand,22.8046,86.2029,37.4,38,0.0,982.4,9.0,34.2,151,63.6,51.3,3.1,233.0,212.0,23.1,0,5,10,1,2026-06-05T15:26:21.327513+05:30
Dhanbad,Jharkhand,23.7957,86.4304,38.1,34,0.0,971.7,9.05,38.9,161,93.4,79.6,9.5,264.0,233.0,50.6,0,5,10,1,2026-06-05T15:26:21.327520+05:30
Bokaro,Jharkhand,23.6693,86.1511,36.9,42,0.1,975.6,9.1,30.6,160,96.6,78.7,9.7,230.0,236.0,55.8,3,5,10,1,2026-06-05T15:26:21.327526+05:30
Bhubaneswar,Odisha,20.2961,85.8245,35.3,55,0.0,994.3,9.05,27.0,129,38.5,31.5,2.6,243.0,186.0,9.7,0,5,10,1,2026-06-05T15:26:21.327533+05:30
Cuttack,Odisha,20.4625,85.8828,34.6,60,0.0,996.2,9.15,30.2,129,38.5,31.5,2.6,251.0,186.0,9.7,0,5,7,1,2026-06-05T15:26:21.327539+05:30
Rourkela,Odisha,22.2604,84.8536,38.8,33,0.0,976.5,9.0,29.2,116,43.1,31.1,1.6,229.0,172.0,10.6,0,5,10,1,2026-06-05T15:26:21.327546+05:30
Raipur,Chhattisgarh,21.2514,81.6296,39.8,23,0.0,967.4,9.0,35.3,104,66.1,37.6,5.1,197.0,165.0,27.2,0,5,10,0,2026-06-05T15:26:21.327552+05:30
Bhilai,Chhattisgarh,21.1938,81.3509,38.7,25,0.0,968.0,9.0,34.9,101,64.3,34.6,5.6,300.0,145.0,24.3,0,5,10,0,2026-06-05T15:26:21.327560+05:30
Guwahati,Assam,26.1158,91.7086,31.6,66,0.0,993.6,8.8,28.1,108,30.5,27.4,1.7,374.0,147.0,2.7,3,5,7,1,2026-06-05T15:26:21.327567+05:30
Agartala,Tripura,23.8315,91.2868,31.4,75,0.0,998.3,8.9,36.0,113,34.3,27.6,5.3,259.0,168.0,2.9,3,5,7,1,2026-06-05T15:26:21.327573+05:30
Shillong,Meghalaya,25.5788,91.8933,24.0,77,0.0,853.5,8.8,23.4,91,22.7,20.3,2.6,281.0,129.0,1.8,3,5,7,1,2026-06-05T15:26:21.327581+05:30
Imphal,Manipur,24.817,93.9368,29.1,63,0.1,917.1,8.75,27.4,117,41.1,34.2,1.3,241.0,135.0,3.2,10,5,7,1,2026-06-05T15:26:21.327587+05:30
Aizawl,Mizoram,23.7271,92.7176,26.7,63,0.1,887.4,9.1,26.3,94,52.2,39.5,0.8,208.0,128.0,4.0,10,5,7,1,2026-06-05T15:26:21.327594+05:30
Kohima,Nagaland,25.6701,94.1077,22.6,89,0.0,851.4,8.7,28.8,76,36.4,29.9,0.9,277.0,132.0,3.0,3,5,7,1,2026-06-05T15:26:21.327600+05:30
Gangtok,Sikkim,27.3314,88.6138,20.8,88,0.2,833.1,9.25,37.1,113,15.6,13.4,1.1,283.0,150.0,2.6,6,5,7,1,2026-06-05T15:26:21.327607+05:30
Siliguri,West Bengal,26.7271,88.3953,30.2,73,0.0,985.4,8.8,23.4,133,36.9,31.8,2.1,440.0,166.0,6.2,3,5,7,1,2026-06-05T15:26:24.568471+05:30
Durgapur,West Bengal,23.5204,87.3119,34.0,59,0.0,986.9,9.0,32.4,161,91.7,84.8,11.4,607.0,269.0,60.1,0,5,7,1,2026-06-05T15:26:24.568509+05:30
Asansol,West Bengal,23.6739,86.9524,35.7,49,0.0,985.2,9.0,32.0,159,88.7,79.9,9.9,388.0,253.0,50.3,0,5,10,1,2026-06-05T15:26:24.568521+05:30
Pondicherry,Puducherry,11.9139,79.8145,36.4,42,0.0,1002.7,8.45,49.3,58,25.3,20.4,3.5,168.0,147.0,10.8,0,5,7,1,2026-06-05T15:26:24.568530+05:30
Port Blair,Andaman and Nicobar Islands,11.6234,92.7265,25.0,97,0.2,1004.0,1.85,47.2,31,6.2,3.9,0.3,105.0,62.0,0.5,10,5,0,1,2026-06-05T15:26:24.568540+05:30
Haridwar,Uttarakhand,29.9457,78.1642,31.2,53,0.0,968.5,6.95,33.1,121,118.7,41.2,1.2,237.0,171.0,5.6,0,5,7,1,2026-06-05T15:26:24.568549+05:30
Rishikesh,Uttarakhand,30.0869,78.2676,30.9,47,0.0,961.3,7.05,33.1,111,101.7,35.5,0.7,209.0,160.0,4.9,0,5,7,1,2026-06-05T15:26:24.568556+05:30
Nainital,Uttarakhand,29.3919,79.4542,18.5,81,0.0,803.4,7.3,27.0,120,55.6,36.2,1.5,211.0,180.0,7.5,3,10,7,0,2026-06-05T15:26:24.568564+05:30
Mussoorie,Uttarakhand,30.4599,78.0664,19.2,68,0.0,801.3,6.45,26.3,120,79.9,31.4,1.2,226.0,168.0,4.3,3,5,7,0,2026-06-05T15:26:24.568573+05:30
Dharamshala,Himachal Pradesh,32.219,76.3234,25.9,39,0.0,867.1,8.45,38.2,96,29.2,13.7,0.6,210.0,144.0,1.5,4,5,7,0,2026-06-05T15:26:24.568580+05:30
Dalhousie,Himachal Pradesh,32.5387,75.971,20.6,52,0.0,804.4,7.0,38.2,95,55.4,23.1,1.2,213.0,146.0,2.7,0,5,7,0,2026-06-05T15:26:24.568588+05:30
Patiala,Punjab,30.3398,76.3869,35.7,35,0.0,972.5,7.65,29.2,186,372.5,78.0,1.4,272.0,189.0,11.3,0,5,10,1,2026-06-05T15:26:24.568597+05:30
Bhatinda,Punjab,30.211,74.9455,37.5,30,0.0,977.7,8.25,22.7,241,328.8,91.7,2.7,263.0,179.0,18.4,0,5,10,1,2026-06-05T15:26:24.568603+05:30
Rohtak,Haryana,28.8955,76.6066,35.7,32,0.0,975.9,7.7,23.0,254,278.5,59.8,2.0,236.0,137.0,3.8,0,5,10,1,2026-06-05T15:26:24.568613+05:30
Panipat,Haryana,29.3909,76.9635,33.7,48,0.0,974.7,7.55,29.9,313,411.6,91.3,3.4,320.0,184.0,22.3,0,5,7,1,2026-06-05T15:26:24.568620+05:30
Mathura,Uttar Pradesh,27.4924,77.6737,34.2,39,0.0,980.9,7.3,29.2,260,289.6,52.5,1.5,169.0,116.0,2.5,0,5,7,1,2026-06-05T15:26:24.568627+05:30
Vrindavan,Uttar Pradesh,27.5823,77.7027,34.6,37,0.0,981.3,7.5,28.1,260,289.6,52.5,1.5,169.0,116.0,2.5,0,5,7,1,2026-06-05T15:26:24.568633+05:30
Ayodhya,Uttar Pradesh,26.7922,82.1998,36.4,42,0.0,987.1,8.05,29.5,155,107.3,42.8,1.3,273.0,165.0,6.7,0,5,10,1,2026-06-05T15:26:24.568641+05:30
Ratlam,Madhya Pradesh,23.3315,75.0367,34.8,41,0.0,949.7,8.45,41.4,86,65.2,27.9,0.5,127.0,99.0,3.6,0,5,7,1,2026-06-05T15:26:24.568647+05:30
Sagar,Madhya Pradesh,23.8388,78.7378,34.1,41,0.1,944.2,8.75,39.6,82,55.1,25.2,0.7,149.0,109.0,3.0,3,5,7,1,2026-06-05T15:26:24.568654+05:30
Satna,Madhya Pradesh,24.6005,80.8322,37.2,30,0.0,964.4,8.85,37.8,90,75.9,29.0,0.7,153.0,115.0,2.7,0,5,10,1,2026-06-05T15:26:24.568660+05:30
Akola,Maharashtra,20.7002,77.0082,38.2,29,0.0,968.7,8.8,45.7,86,59.5,26.6,1.2,134.0,110.0,4.8,0,5,10,1,2026-06-05T15:26:24.568668+05:30
Amravati,Maharashtra,20.9374,77.7796,38.7,26,0.0,961.1,8.85,51.1,90,57.4,26.3,1.4,148.0,118.0,6.0,0,5,10,0,2026-06-05T15:26:24.568676+05:30
Latur,Maharashtra,18.4088,76.5604,34.8,40,0.0,935.4,8.95,35.3,67,47.1,22.2,1.0,151.0,113.0,3.5,0,5,7,1,2026-06-05T15:26:24.568683+05:30
Nanded,Maharashtra,19.1383,77.3091,37.1,32,0.0,962.9,8.95,31.0,89,58.0,27.9,1.0,153.0,119.0,2.9,0,5,10,1,2026-06-05T15:26:24.568689+05:30
Gulbarga,Karnataka,17.3297,76.8343,35.7,41,0.0,953.6,7.25,45.0,51,33.4,17.8,1.7,161.0,117.0,3.1,0,5,10,1,2026-06-05T15:26:24.568695+05:30
Bidar,Karnataka,17.9104,77.5199,33.4,45,0.0,931.4,6.35,43.9,69,48.9,27.1,1.5,169.0,129.0,5.0,0,5,7,1,2026-06-05T15:26:24.568702+05:30
Hospet,Karnataka,15.2689,76.3909,26.7,82,0.2,952.4,8.35,45.7,29,6.6,4.0,1.2,130.0,84.0,1.5,10,5,7,1,2026-06-05T15:26:24.568709+05:30
Tirupur,Tamil Nadu,11.1085,77.3411,31.5,54,0.0,971.5,8.6,64.1,27,4.2,3.3,2.4,144.0,69.0,1.8,0,5,7,1,2026-06-05T15:26:24.568715+05:30
Alappuzha,Kerala,9.4981,76.3388,26.7,94,0.2,1008.0,6.4,38.5,30,12.3,6.4,3.1,90.0,47.0,1.0,10,0,4,1,2026-06-05T15:26:24.568722+05:30
Munnar,Kerala,10.0889,77.0595,17.8,92,0.1,855.5,7.3,48.2,22,2.4,1.9,2.9,107.0,53.0,1.0,6,10,7,1,2026-06-05T15:26:24.568730+05:30
Silchar,Assam,24.8333,92.7789,33.3,61,0.0,996.3,7.9,31.0,123,40.2,32.7,1.4,246.0,136.0,4.4,3,5,7,1,2026-06-05T15:26:24.568736+05:30
Dibrugarh,Assam,27.4728,94.912,30.9,64,0.0,988.0,8.95,19.4,135,34.5,29.4,1.3,274.0,142.0,2.5,3,5,7,1,2026-06-05T15:26:24.568743+05:30
