city,state,latitude,longitude,temp,humidity,rain,pressure,uv_index,wind_gusts,aqi,pm10,pm2_5,mosquito_risk,arthritis_risk,migraine_risk,frizz_risk,updated_at
Delhi,Delhi,28.6139,77.209,24.3,70,0.0,983.4,6.3,40.7,225,211.9,90.1,3,5,7,1,2026-03-30T08:17:14.752846+05:30
Mumbai,Maharashtra,19.076,72.8777,27.2,81,0.0,1008.7,8.0,24.5,56,35.9,19.8,7,0,4,1,2026-03-30T08:17:14.752886+05:30
Bangalore,Karnataka,12.9716,77.5946,23.4,78,0.0,912.7,9.45,36.4,137,76.6,69.8,3,5,7,1,2026-03-30T08:17:14.752901+05:30
Hyderabad,Telangana,17.385,78.4867,28.0,61,0.0,954.2,8.3,25.2,93,60.3,54.5,7,5,7,1,2026-03-30T08:17:14.752910+05:30
Chennai,Tamil Nadu,13.0827,80.2707,28.8,78,0.0,1008.9,9.3,32.8,57,18.5,13.3,7,0,4,1,2026-03-30T08:17:14.752919+05:30
Kolkata,West Bengal,22.5726,88.3639,27.3,87,0.0,1008.2,8.5,26.6,118,40.0,32.9,7,0,4,1,2026-03-30T08:17:14.752928+05:30
Pune,Maharashtra,18.5204,73.8567,23.8,90,0.0,948.9,8.55,41.0,72,48.3,40.6,3,5,7,1,2026-03-30T08:17:14.752939+05:30
Ahmedabad,Gujarat,23.0225,72.5714,26.4,77,0.0,1003.3,8.0,25.9,54,32.6,15.5,7,5,4,1,2026-03-30T08:17:14.752946+05:30
Jaipur,Rajasthan,26.9124,75.7873,25.3,60,0.0,960.6,5.2,43.6,107,226.8,34.8,4,5,3,1,2026-03-30T08:17:14.752954+05:30
Lucknow,Uttar Pradesh,26.8467,80.9462,24.5,64,0.0,994.8,7.3,20.2,110,76.6,52.3,3,5,7,1,2026-03-30T08:17:14.752961+05:30
Kanpur,Uttar Pradesh,26.4499,80.3319,24.7,64,0.0,992.9,7.3,27.7,98,61.2,37.3,3,5,7,1,2026-03-30T08:17:14.752968+05:30
Chandigarh,Chandigarh,30.7333,76.7794,22.6,72,0.0,968.8,5.85,28.4,81,24.3,16.7,3,5,3,1,2026-03-30T08:17:14.752976+05:30
Srinagar,Jammu and Kashmir,34.0837,74.7973,10.8,88,0.0,839.8,6.25,29.9,77,32.8,29.0,3,10,7,0,2026-03-30T08:17:14.752983+05:30
Jammu,Jammu and Kashmir,32.7266,74.857,20.4,79,0.0,973.7,5.45,40.0,76,23.7,16.2,3,5,3,1,2026-03-30T08:17:14.752991+05:30
Amritsar,Punjab,31.634,74.8723,21.4,81,0.0,980.9,5.05,36.4,93,30.9,25.6,3,5,3,1,2026-03-30T08:17:14.752997+05:30
Ludhiana,Punjab,30.901,75.8573,22.9,78,0.0,978.8,5.5,37.4,129,104.5,52.6,3,5,3,1,2026-03-30T08:17:14.753004+05:30
Jalandhar,Punjab,31.326,75.5762,21.2,79,0.0,980.0,4.9,37.8,108,61.7,35.5,3,5,3,1,2026-03-30T08:17:14.753013+05:30
Dehradun,Uttarakhand,30.6284,78.0322,16.2,56,0.0,831.1,6.95,35.3,47,3.6,2.8,0,5,7,0,2026-03-30T08:17:14.753020+05:30
Shimla,Himachal Pradesh,31.1048,77.1734,14.9,60,0.0,785.0,6.45,27.0,58,9.8,8.7,0,5,7,0,2026-03-30T08:17:14.753026+05:30
Manali,Himachal Pradesh,32.2396,77.1887,16.6,43,0.0,820.0,8.15,33.5,42,4.7,2.2,0,5,7,0,2026-03-30T08:17:14.753035+05:30
Gurgaon,Haryana,28.4595,77.0266,24.0,75,0.0,981.4,6.05,41.8,902,495.5,133.6,3,5,7,1,2026-03-30T08:17:14.753042+05:30
Noida,Uttar Pradesh,28.5355,77.391,24.2,71,0.0,985.0,6.2,39.2,902,495.5,133.6,3,5,7,1,2026-03-30T08:17:14.753048+05:30
Ghaziabad,Uttar Pradesh,28.6692,77.4538,24.3,72,0.0,983.1,5.15,34.2,148,125.3,68.7,3,5,3,1,2026-03-30T08:17:14.753055+05:30
Faridabad,Haryana,28.4089,77.3178,23.9,73,0.0,984.2,6.0,41.0,902,495.5,133.6,3,5,3,1,2026-03-30T08:17:14.753061+05:30
Meerut,Uttar Pradesh,28.9845,77.7064,24.7,68,0.0,982.1,6.2,30.6,148,125.3,68.7,3,5,7,1,2026-03-30T08:17:14.753067+05:30
Agra,Uttar Pradesh,27.1767,78.0081,26.4,54,0.0,988.5,6.45,43.9,200,280.3,48.2,4,5,7,1,2026-03-30T08:17:14.753073+05:30
Varanasi,Uttar Pradesh,25.3176,82.9739,26.6,69,0.0,998.5,7.95,24.8,100,67.1,46.9,7,5,7,1,2026-03-30T08:17:14.753082+05:30
Prayagraj,Uttar Pradesh,25.4358,81.8463,26.3,63,0.0,996.6,7.85,20.2,97,71.9,55.1,7,5,7,1,2026-03-30T08:17:14.753089+05:30
Gorakhpur,Uttar Pradesh,26.7606,83.3732,24.2,76,0.0,999.6,7.7,27.7,138,82.0,70.1,3,5,7,1,2026-03-30T08:17:14.753096+05:30
Bareilly,Uttar Pradesh,28.367,79.4304,25.1,71,0.0,988.0,6.55,23.4,100,71.7,48.1,7,5,7,1,2026-03-30T08:17:14.753105+05:30
Aligarh,Uttar Pradesh,27.8974,78.088,24.9,68,0.0,986.1,6.3,36.0,279,352.0,98.3,3,5,7,1,2026-03-30T08:17:14.753112+05:30
Moradabad,Uttar Pradesh,28.8386,78.7733,24.0,75,0.0,984.7,6.8,24.8,133,78.2,54.7,3,5,7,1,2026-03-30T08:17:14.753118+05:30
Saharanpur,Uttar Pradesh,29.9637,77.546,23.3,66,0.0,976.1,6.4,25.6,86,30.3,25.6,3,5,7,1,2026-03-30T08:17:14.753124+05:30
Jhansi,Uttar Pradesh,25.4484,78.5685,29.7,37,0.0,978.4,7.15,37.1,52,26.6,8.2,4,5,7,0,2026-03-30T08:17:18.091311+05:30
Surat,Gujarat,21.1702,72.8311,27.0,90,0.0,1007.3,7.8,26.3,86,59.6,53.2,7,5,4,1,2026-03-30T08:17:18.091344+05:30
Vadodara,Gujarat,22.3072,73.1812,27.7,71,0.0,1005.2,8.0,25.6,67,48.0,35.9,7,5,4,1,2026-03-30T08:17:18.091357+05:30
Rajkot,Gujarat,22.3039,70.8022,25.3,84,0.0,995.4,7.75,36.4,58,65.4,20.7,7,5,7,1,2026-03-30T08:17:18.091366+05:30
Thane,Maharashtra,19.2183,72.9781,26.9,78,0.0,1008.2,8.0,36.4,56,35.9,19.8,7,0,4,1,2026-03-30T08:17:18.091375+05:30
Nagpur,Maharashtra,21.1458,79.0882,28.5,51,0.0,974.0,8.55,33.1,62,22.5,19.6,4,5,7,1,2026-03-30T08:17:18.091384+05:30
Nashik,Maharashtra,19.9975,73.7898,23.6,69,0.0,946.1,8.25,33.1,38,27.6,19.3,3,5,7,1,2026-03-30T08:17:18.091392+05:30
Aurangabad,Maharashtra,19.8762,75.3433,26.3,59,0.0,944.9,8.75,42.1,43,19.0,16.9,4,5,7,1,2026-03-30T08:17:18.091401+05:30
Solapur,Maharashtra,17.6599,75.9064,28.0,54,0.0,957.9,8.9,26.3,58,21.8,20.6,4,5,7,1,2026-03-30T08:17:18.091408+05:30
Kolhapur,Maharashtra,16.705,74.2433,23.7,84,0.0,948.1,7.75,47.9,65,35.3,33.9,3,5,7,1,2026-03-30T08:17:18.091416+05:30
Goa,Goa,15.2993,74.124,27.1,80,0.0,998.2,8.9,29.9,56,21.8,17.5,7,5,7,1,2026-03-30T08:17:18.091424+05:30
Jodhpur,Rajasthan,26.2389,73.0243,26.0,57,0.0,984.6,7.8,37.1,134,169.0,29.2,4,5,7,1,2026-03-30T08:17:18.091432+05:30
Udaipur,Rajasthan,24.5854,73.7125,24.7,64,0.0,947.4,8.1,40.0,39,33.5,13.3,3,5,7,1,2026-03-30T08:17:18.091439+05:30
Kota,Rajasthan,25.2138,75.8648,27.3,53,0.0,979.9,6.9,34.2,31,22.2,12.3,4,5,7,1,2026-03-30T08:17:18.091447+05:30
Bikaner,Rajasthan,28.0229,73.3119,26.5,49,0.0,982.2,5.15,51.5,123,244.0,64.7,4,5,3,0,2026-03-30T08:17:18.091456+05:30
Ajmer,Rajasthan,26.4499,74.6399,24.8,66,0.0,955.4,7.25,41.4,47,42.3,14.4,3,5,7,1,2026-03-30T08:17:18.091463+05:30
Gwalior,Madhya Pradesh,26.2183,78.1828,30.3,31,0.0,984.0,6.4,39.2,55,57.2,14.6,0,5,7,0,2026-03-30T08:17:18.091471+05:30
Indore,Madhya Pradesh,22.7196,75.8577,25.0,66,0.0,949.3,7.75,25.6,45,27.0,17.2,7,5,7,1,2026-03-30T08:17:18.091478+05:30
Bhopal,Madhya Pradesh,23.2599,77.4126,27.1,51,0.0,955.0,8.2,31.3,30,13.5,10.0,4,5,7,1,2026-03-30T08:17:18.091486+05:30
Jabalpur,Madhya Pradesh,23.1815,79.9864,27.7,58,0.0,962.2,8.35,35.3,47,23.7,20.3,4,5,7,1,2026-03-30T08:17:18.091518+05:30
Ujjain,Madhya Pradesh,23.1765,75.7885,25.0,67,0.0,955.2,7.75,23.4,45,27.0,17.2,7,5,7,1,2026-03-30T08:17:18.091529+05:30
Visakhapatnam,Andhra Pradesh,17.6868,83.2185,29.2,74,0.0,1005.7,9.0,38.9,64,24.8,19.1,7,5,4,1,2026-03-30T08:17:18.091537+05:30
Vijayawada,Andhra Pradesh,16.5062,80.648,28.5,80,0.0,1004.2,9.1,30.6,80,23.1,17.5,7,5,4,1,2026-03-30T08:17:18.091546+05:30
Guntur,Andhra Pradesh,16.3067,80.4365,28.4,81,0.0,1005.2,9.1,33.1,90,22.4,17.6,7,5,4,1,2026-03-30T08:17:18.091553+05:30
Nellore,Andhra Pradesh,14.4426,79.9865,28.2,80,0.0,1007.2,9.25,29.2,70,20.4,16.9,7,5,4,1,2026-03-30T08:17:18.091562+05:30
Kurnool,Andhra Pradesh,15.8281,78.0373,28.2,63,0.0,978.2,8.35,26.3,104,60.3,52.3,7,5,7,1,2026-03-30T08:17:18.091571+05:30
Kakinada,Andhra Pradesh,16.9891,82.2475,29.1,78,0.0,1009.5,9.05,30.6,53,20.8,13.6,7,0,4,1,2026-03-30T08:17:18.091579+05:30
Tirupati,Andhra Pradesh,13.6288,79.4192,27.0,82,0.0,993.5,9.35,32.0,99,30.3,27.1,7,5,7,1,2026-03-30T08:17:18.091587+05:30
Warangal,Telangana,17.9689,79.5941,27.0,83,0.0,980.0,8.9,30.6,108,49.1,46.3,7,5,7,1,2026-03-30T08:17:18.091595+05:30
Nizamabad,Telangana,18.6725,78.0941,29.8,53,0.0,966.1,8.85,41.0,86,49.1,47.8,4,5,7,1,2026-03-30T08:17:18.091603+05:30
Mysore,Karnataka,12.2958,76.6396,23.1,86,0.0,929.4,8.9,21.6,135,61.7,55.2,3,5,7,1,2026-03-30T08:17:18.091611+05:30
Mangalore,Karnataka,12.9141,74.856,29.0,79,0.0,1007.3,9.05,23.0,71,30.6,25.0,7,5,4,1,2026-03-30T08:17:18.091619+05:30
Hubli-Dharwad,Karnataka,15.3647,75.124,25.2,75,0.0,941.7,9.15,32.0,61,32.2,26.6,7,5,7,1,2026-03-30T08:17:18.091627+05:30
Belgaum,Karnataka,15.8497,74.4977,24.0,67,0.0,925.8,9.2,31.0,51,19.5,18.4,3,5,7,1,2026-03-30T08:17:21.435098+05:30
Coimbatore,Tamil Nadu,11.0168,76.9558,26.6,73,0.0,963.3,9.45,30.6,100,33.3,30.4,7,5,7,1,2026-03-30T08:17:21.435127+05:30
Madurai,Tamil Nadu,9.9252,78.1198,27.3,78,0.0,994.8,9.4,34.2,79,47.3,46.1,7,5,7,1,2026-03-30T08:17:21.435137+05:30
Trichy,Tamil Nadu,10.7905,78.7047,28.2,81,0.0,1001.6,9.35,24.1,75,23.5,20.0,7,5,4,1,2026-03-30T08:17:21.435145+05:30
Salem,Tamil Nadu,11.6643,78.146,27.8,73,0.0,979.0,9.4,22.0,90,29.1,26.1,7,5,7,1,2026-03-30T08:17:21.435152+05:30
Tirunelveli,Tamil Nadu,8.7139,77.7567,28.3,71,0.0,1004.8,9.4,47.9,79,41.0,39.0,7,5,4,1,2026-03-30T08:17:21.435159+05:30
Vellore,Tamil Nadu,12.9165,79.1325,27.0,77,0.0,986.5,8.6,32.0,103,46.1,43.4,7,5,7,1,2026-03-30T08:17:21.435166+05:30
Erode,Tamil Nadu,11.341,77.7172,27.9,79,0.0,990.8,9.4,23.8,83,25.1,22.9,7,5,7,1,2026-03-30T08:17:21.435173+05:30
Kochi,Kerala,9.9312,76.2673,28.5,81,0.0,1009.2,9.2,26.3,94,39.5,36.4,7,0,4,1,2026-03-30T08:17:21.435180+05:30
Thiruvananthapuram,Kerala,8.5241,76.9366,28.2,81,0.0,1008.5,9.25,26.3,73,31.5,26.0,7,0,4,1,2026-03-30T08:17:21.435187+05:30
Kozhikode,Kerala,11.2588,75.7804,27.1,87,0.0,1008.8,6.6,22.3,94,54.5,47.3,7,0,4,1,2026-03-30T08:17:21.435194+05:30
Thrissur,Kerala,10.5276,76.2144,28.2,81,0.0,1007.8,9.15,27.7,98,42.0,37.6,7,5,4,1,2026-03-30T08:17:21.435202+05:30
Kannur,Kerala,11.8745,75.3704,27.5,83,0.0,1007.8,7.9,20.5,108,47.0,43.4,7,5,4,1,2026-03-30T08:17:21.435209+05:30
Patna,Bihar,25.5941,85.1376,25.1,81,0.0,1002.7,8.1,33.5,150,86.4,79.4,7,5,4,1,2026-03-30T08:17:21.435216+05:30
Gaya,Bihar,24.7914,85.0002,26.1,79,0.0,995.3,8.2,24.5,113,66.1,61.0,7,5,7,1,2026-03-30T08:17:21.435222+05:30
Muzaffarpur,Bihar,26.1209,85.3647,23.5,81,0.0,1003.3,8.1,35.6,152,85.7,77.8,3,5,4,1,2026-03-30T08:17:21.435229+05:30
Bhagalpur,Bihar,25.2425,87.0117,23.3,86,0.0,1004.3,8.1,22.3,155,82.7,73.6,3,5,4,1,2026-03-30T08:17:21.435236+05:30
Ranchi,Jharkhand,23.3441,85.3096,25.2,83,0.0,939.5,8.7,28.8,94,83.4,72.4,7,5,7,1,2026-03-30T08:17:21.435243+05:30
Jamshedpur,Jharkhand,22.8046,86.2029,27.1,81,0.0,992.8,8.6,28.1,131,59.3,50.8,7,5,7,1,2026-03-30T08:17:21.435249+05:30
Dhanbad,Jharkhand,23.7957,86.4304,26.2,75,0.0,982.0,8.55,23.4,162,113.6,106.9,7,5,7,1,2026-03-30T08:17:21.435256+05:30
Bokaro,Jharkhand,23.6693,86.1511,25.9,79,0.0,985.9,8.55,28.4,157,116.6,108.7,7,5,7,1,2026-03-30T08:17:21.435263+05:30
Bhubaneswar,Odisha,20.2961,85.8245,28.5,78,0.0,1004.5,8.8,38.2,75,23.5,17.9,7,5,4,1,2026-03-30T08:17:21.435269+05:30
Cuttack,Odisha,20.4625,85.8828,28.2,79,0.0,1006.5,8.85,34.2,75,23.5,17.9,7,5,4,1,2026-03-30T08:17:21.435275+05:30
Rourkela,Odisha,22.2604,84.8536,29.5,68,0.0,986.2,8.5,37.1,118,48.4,41.1,7,5,7,1,2026-03-30T08:17:21.435282+05:30
Raipur,Chhattisgarh,21.2514,81.6296,29.4,43,0.0,975.3,8.6,25.2,101,49.0,42.0,4,5,7,0,2026-03-30T08:17:21.435288+05:30
Bhilai,Chhattisgarh,21.1938,81.3509,27.9,55,0.0,975.3,8.65,22.0,75,36.3,31.0,4,5,7,1,2026-03-30T08:17:21.435295+05:30
Guwahati,Assam,26.1158,91.7086,21.8,90,0.0,1006.0,7.55,19.4,92,47.5,37.1,3,5,4,1,2026-03-30T08:17:21.435301+05:30
Agartala,Tripura,23.8315,91.2868,25.9,81,0.0,1009.2,8.25,30.2,144,47.3,40.7,7,0,4,1,2026-03-30T08:17:21.435307+05:30
Shillong,Meghalaya,25.5788,91.8933,15.2,74,0.0,857.7,6.6,40.7,87,59.1,41.3,3,5,7,0,2026-03-30T08:17:21.435314+05:30
Imphal,Manipur,24.817,93.9368,18.6,83,0.0,925.5,7.95,62.6,154,85.9,66.6,3,10,7,0,2026-03-30T08:17:21.435321+05:30
Aizawl,Mizoram,23.7271,92.7176,20.5,81,0.0,895.3,8.45,58.3,151,59.1,49.2,3,5,7,1,2026-03-30T08:17:21.435328+05:30
Kohima,Nagaland,25.6701,94.1077,16.2,76,0.0,856.8,8.5,76.3,131,68.2,49.9,3,5,7,0,2026-03-30T08:17:21.435334+05:30
Gangtok,Sikkim,27.3314,88.6138,14.7,86,0.0,838.6,8.25,18.0,89,46.1,36.1,3,10,7,0,2026-03-30T08:17:21.435340+05:30
Siliguri,West Bengal,26.7271,88.3953,19.9,80,0.0,997.8,7.7,17.3,152,109.9,78.9,3,5,7,1,2026-03-30T08:17:24.783154+05:30
Durgapur,West Bengal,23.5204,87.3119,26.2,83,0.0,997.3,8.5,23.8,162,85.9,80.8,7,5,7,1,2026-03-30T08:17:24.783186+05:30
Asansol,West Bengal,23.6739,86.9524,26.5,80,0.0,995.9,8.5,24.1,159,91.0,85.2,7,5,7,1,2026-03-30T08:17:24.783199+05:30
Pondicherry,Puducherry,11.9139,79.8145,28.0,83,0.0,1010.5,9.25,28.4,54,17.9,13.2,7,0,4,1,2026-03-30T08:17:24.783209+05:30
Port Blair,Andaman and Nicobar Islands,11.6234,92.7265,28.7,74,0.0,1008.6,9.2,15.1,70,28.5,23.1,7,0,4,1,2026-03-30T08:17:24.783219+05:30
Haridwar,Uttarakhand,29.9457,78.1642,25.5,58,0.0,975.1,6.0,32.0,74,23.6,17.8,4,5,3,1,2026-03-30T08:17:24.783228+05:30
Rishikesh,Uttarakhand,30.0869,78.2676,25.3,59,0.0,968.2,5.9,29.5,65,26.5,17.9,4,5,3,1,2026-03-30T08:17:24.783237+05:30
Nainital,Uttarakhand,29.3919,79.4542,21.2,45,0.0,808.4,7.4,47.9,71,34.6,17.1,0,5,7,0,2026-03-30T08:17:24.783246+05:30
Mussoorie,Uttarakhand,30.4599,78.0664,18.5,54,0.0,804.1,6.95,41.0,68,14.7,12.0,0,5,7,0,2026-03-30T08:17:24.783254+05:30
Dharamshala,Himachal Pradesh,32.219,76.3234,19.9,55,0.0,869.2,5.2,35.3,31,4.1,3.3,0,5,3,0,2026-03-30T08:17:24.783262+05:30
Dalhousie,Himachal Pradesh,32.5387,75.971,15.8,52,0.0,803.0,6.05,38.9,70,14.7,13.7,0,5,7,0,2026-03-30T08:17:24.783271+05:30
Patiala,Punjab,30.3398,76.3869,22.8,76,0.0,978.2,5.65,22.7,164,195.6,39.7,3,5,3,1,2026-03-30T08:17:24.783279+05:30
Bhatinda,Punjab,30.211,74.9455,22.8,81,0.0,983.4,3.5,43.6,246,400.5,94.1,3,5,3,1,2026-03-30T08:17:24.783287+05:30
Rohtak,Haryana,28.8955,76.6066,23.3,77,0.0,981.7,6.8,43.2,399,371.6,115.7,3,5,7,1,2026-03-30T08:17:24.783295+05:30
Panipat,Haryana,29.3909,76.9635,24.1,71,0.0,980.6,6.4,38.2,572,198.4,73.3,3,5,7,1,2026-03-30T08:17:24.783304+05:30
Mathura,Uttar Pradesh,27.4924,77.6737,23.8,74,0.0,986.9,6.3,43.9,196,226.8,44.9,3,5,7,1,2026-03-30T08:17:24.783312+05:30
Vrindavan,Uttar Pradesh,27.5823,77.7027,24.2,73,0.0,987.7,6.3,42.1,196,226.8,44.9,3,5,7,1,2026-03-30T08:17:24.783320+05:30
Ayodhya,Uttar Pradesh,26.7922,82.1998,24.1,78,0.0,997.2,7.5,27.7,143,76.4,65.2,3,5,7,1,2026-03-30T08:17:24.783328+05:30
Ratlam,Madhya Pradesh,23.3315,75.0367,25.4,69,0.0,955.5,7.6,26.3,43,25.8,15.7,7,5,7,1,2026-03-30T08:17:24.783336+05:30
Sagar,Madhya Pradesh,23.8388,78.7378,27.1,49,0.0,950.9,8.2,31.0,26,8.8,6.3,4,5,7,0,2026-03-30T08:17:24.783343+05:30
Satna,Madhya Pradesh,24.6005,80.8322,29.0,43,0.0,972.1,8.2,37.1,62,41.6,22.2,4,5,7,0,2026-03-30T08:17:24.783351+05:30
Akola,Maharashtra,20.7002,77.0082,27.7,60,0.0,976.3,8.55,28.4,48,14.7,12.4,4,5,7,1,2026-03-30T08:17:24.783360+05:30
Amravati,Maharashtra,20.9374,77.7796,28.1,51,0.0,968.2,8.55,22.7,48,14.8,12.8,4,5,7,1,2026-03-30T08:17:24.783369+05:30
Latur,Maharashtra,18.4088,76.5604,26.7,54,0.0,940.8,8.4,40.3,52,20.0,17.5,4,5,7,1,2026-03-30T08:17:24.783377+05:30
Nanded,Maharashtra,19.1383,77.3091,28.1,55,0.0,970.3,7.2,48.6,54,18.0,16.6,4,5,7,1,2026-03-30T08:17:24.783386+05:30
Gulbarga,Karnataka,17.3297,76.8343,28.6,52,0.0,959.3,8.9,32.4,64,25.8,24.6,4,5,7,1,2026-03-30T08:17:24.783394+05:30
Bidar,Karnataka,17.9104,77.5199,27.7,55,0.0,936.6,8.1,39.2,70,38.4,36.0,4,5,7,1,2026-03-30T08:17:24.783402+05:30
Hospet,Karnataka,15.2689,76.3909,26.9,75,0.0,957.0,8.25,37.4,77,44.7,41.6,7,5,7,1,2026-03-30T08:17:24.783409+05:30
Tirupur,Tamil Nadu,11.1085,77.3411,26.9,77,0.0,976.9,9.5,20.9,107,32.2,29.7,7,5,7,1,2026-03-30T08:17:24.783417+05:30
Alappuzha,Kerala,9.4981,76.3388,28.7,82,0.0,1009.2,9.2,26.6,90,43.0,38.6,7,0,4,1,2026-03-30T08:17:24.783425+05:30
Munnar,Kerala,10.0889,77.0595,23.8,63,0.0,858.4,7.65,22.3,96,32.9,32.0,3,5,7,1,2026-03-30T08:17:24.783432+05:30
Silchar,Assam,24.8333,92.7789,24.2,81,0.0,1008.6,8.35,27.4,155,100.8,78.7,3,0,4,1,2026-03-30T08:17:24.783438+05:30
Dibrugarh,Assam,27.4728,94.912,20.8,88,0.0,1000.3,6.75,11.5,91,49.2,37.7,3,5,4,1,2026-03-30T08:17:24.783444+05:30
