city,state,latitude,longitude,temp,humidity,rain,pressure,uv_index,wind_gusts,aqi,pm10,pm2_5,mosquito_risk,arthritis_risk,migraine_risk,frizz_risk,updated_at
Delhi,Delhi,28.6139,77.209,27.7,39,0.0,986.3,5.8,29.2,417,303.6,68.7,4,5,3,0,2026-03-14T11:19:30.508936+05:30
Mumbai,Maharashtra,19.076,72.8777,28.7,73,0.0,1011.1,7.7,18.0,125,64.0,52.2,7,0,4,1,2026-03-14T11:19:30.508978+05:30
Bangalore,Karnataka,12.9716,77.5946,30.0,28,0.0,915.7,9.3,32.8,104,44.0,34.8,4,5,7,0,2026-03-14T11:19:30.508994+05:30
Hyderabad,Telangana,17.385,78.4867,34.2,25,0.0,957.0,8.7,30.2,103,41.4,29.7,0,5,7,0,2026-03-14T11:19:30.509004+05:30
Chennai,Tamil Nadu,13.0827,80.2707,32.2,53,0.0,1011.8,9.05,31.3,58,18.0,14.2,0,0,4,1,2026-03-14T11:19:30.509013+05:30
Kolkata,West Bengal,22.5726,88.3639,31.2,62,0.0,1009.4,8.1,33.8,90,30.2,22.1,3,0,4,1,2026-03-14T11:19:30.509022+05:30
Pune,Maharashtra,18.5204,73.8567,35.1,19,0.0,952.1,8.25,47.2,102,44.1,33.1,0,5,10,0,2026-03-14T11:19:30.509034+05:30
Ahmedabad,Gujarat,23.0225,72.5714,32.1,35,0.0,1005.4,7.5,24.1,82,109.0,39.0,0,5,4,0,2026-03-14T11:19:30.509042+05:30
Jaipur,Rajasthan,26.9124,75.7873,31.3,22,0.0,963.2,6.95,31.0,140,158.8,38.8,0,5,7,0,2026-03-14T11:19:30.509049+05:30
Lucknow,Uttar Pradesh,26.8467,80.9462,28.8,46,0.0,996.6,6.7,25.2,170,373.5,90.3,4,5,7,0,2026-03-14T11:19:30.509056+05:30
Kanpur,Uttar Pradesh,26.4499,80.3319,28.7,50,0.0,995.1,6.65,19.4,356,583.0,109.7,4,5,7,1,2026-03-14T11:19:30.509063+05:30
Chandigarh,Chandigarh,30.7333,76.7794,23.5,62,0.0,971.1,5.25,19.4,72,25.0,20.6,3,5,3,0,2026-03-14T11:19:30.509071+05:30
Srinagar,Jammu and Kashmir,34.0837,74.7973,13.7,48,0.0,844.1,5.6,14.8,92,34.8,21.7,0,5,3,0,2026-03-14T11:19:30.509078+05:30
Jammu,Jammu and Kashmir,32.7266,74.857,25.6,51,0.0,974.7,6.45,20.5,76,40.3,29.4,4,5,7,0,2026-03-14T11:19:30.509085+05:30
Amritsar,Punjab,31.634,74.8723,23.4,58,0.0,983.6,4.85,17.3,74,22.2,22.0,0,5,3,0,2026-03-14T11:19:30.509092+05:30
Ludhiana,Punjab,30.901,75.8573,25.0,47,0.0,981.6,5.25,23.0,87,42.7,35.2,4,5,3,0,2026-03-14T11:19:30.509098+05:30
Jalandhar,Punjab,31.326,75.5762,26.0,46,0.0,982.3,6.35,23.8,92,57.7,37.1,4,5,7,0,2026-03-14T11:19:30.509107+05:30
Dehradun,Uttarakhand,30.6284,78.0322,19.8,33,0.0,832.5,4.2,21.6,54,34.6,8.8,0,5,3,0,2026-03-14T11:19:30.509113+05:30
Shimla,Himachal Pradesh,31.1048,77.1734,18.3,40,0.0,787.0,5.75,34.6,57,32.0,7.3,0,5,3,0,2026-03-14T11:19:30.509120+05:30
Manali,Himachal Pradesh,32.2396,77.1887,19.4,18,0.0,822.4,7.5,34.2,43,25.8,7.7,0,5,7,1,2026-03-14T11:19:30.509127+05:30
Gurgaon,Haryana,28.4595,77.0266,28.5,39,0.0,984.7,5.9,27.0,1220,905.2,116.6,4,5,3,0,2026-03-14T11:19:30.509134+05:30
Noida,Uttar Pradesh,28.5355,77.391,28.6,36,0.0,987.8,5.8,28.1,1220,905.2,116.6,4,5,3,0,2026-03-14T11:19:30.509140+05:30
Ghaziabad,Uttar Pradesh,28.6692,77.4538,27.2,44,0.0,985.9,5.9,26.6,281,257.0,65.4,4,5,3,0,2026-03-14T11:19:30.509147+05:30
Faridabad,Haryana,28.4089,77.3178,28.3,39,0.0,987.1,5.6,33.1,1220,905.2,116.6,4,5,3,0,2026-03-14T11:19:30.509153+05:30
Meerut,Uttar Pradesh,28.9845,77.7064,25.5,49,0.0,984.6,5.8,26.6,281,257.0,65.4,4,5,3,0,2026-03-14T11:19:30.509160+05:30
Agra,Uttar Pradesh,27.1767,78.0081,31.4,30,0.0,991.2,6.3,22.0,766,403.3,91.3,0,5,7,0,2026-03-14T11:19:30.509167+05:30
Varanasi,Uttar Pradesh,25.3176,82.9739,31.6,45,0.0,1000.5,7.05,31.7,132,255.2,62.6,0,5,4,1,2026-03-14T11:19:30.509177+05:30
Prayagraj,Uttar Pradesh,25.4358,81.8463,31.3,48,0.0,999.3,7.1,19.4,151,384.6,86.1,0,5,7,1,2026-03-14T11:19:30.509185+05:30
Gorakhpur,Uttar Pradesh,26.7606,83.3732,28.5,58,0.0,1000.2,6.7,25.2,153,149.9,59.5,4,5,4,1,2026-03-14T11:19:30.509192+05:30
Bareilly,Uttar Pradesh,28.367,79.4304,25.6,61,0.0,989.9,6.4,20.2,147,100.8,54.6,7,5,7,1,2026-03-14T11:19:30.509202+05:30
Aligarh,Uttar Pradesh,27.8974,78.088,29.7,36,0.0,988.7,6.3,27.4,714,413.5,85.7,4,5,7,0,2026-03-14T11:19:30.509209+05:30
Moradabad,Uttar Pradesh,28.8386,78.7733,25.4,57,0.0,986.6,5.8,22.3,149,87.8,47.7,4,5,3,1,2026-03-14T11:19:30.509216+05:30
Saharanpur,Uttar Pradesh,29.9637,77.546,25.4,55,0.0,978.2,4.8,25.6,133,122.0,51.7,4,5,3,0,2026-03-14T11:19:30.509222+05:30
Jhansi,Uttar Pradesh,25.4484,78.5685,31.6,33,0.0,981.3,7.2,26.6,120,459.1,75.7,0,5,7,0,2026-03-14T11:19:33.761851+05:30
Surat,Gujarat,21.1702,72.8311,31.3,38,0.0,1009.9,7.35,22.0,134,109.0,59.3,0,0,4,0,2026-03-14T11:19:33.761883+05:30
Vadodara,Gujarat,22.3072,73.1812,32.9,33,0.0,1007.7,7.5,27.4,92,144.8,42.0,0,5,4,0,2026-03-14T11:19:33.761893+05:30
Rajkot,Gujarat,22.3039,70.8022,31.8,37,0.0,997.8,7.35,33.1,89,87.5,32.8,0,5,7,0,2026-03-14T11:19:33.761902+05:30
Thane,Maharashtra,19.2183,72.9781,34.0,36,0.0,1010.6,7.65,33.8,125,64.0,52.2,0,0,4,1,2026-03-14T11:19:33.761909+05:30
Nagpur,Maharashtra,21.1458,79.0882,34.2,32,0.0,976.6,8.1,15.5,107,59.1,49.5,0,5,7,0,2026-03-14T11:19:33.761916+05:30
Nashik,Maharashtra,19.9975,73.7898,33.3,19,0.0,949.2,7.9,37.1,87,26.6,21.1,0,5,7,0,2026-03-14T11:19:33.761923+05:30
Aurangabad,Maharashtra,19.8762,75.3433,32.8,28,0.0,947.9,8.4,23.4,86,35.2,24.8,0,5,7,0,2026-03-14T11:19:33.761931+05:30
Solapur,Maharashtra,17.6599,75.9064,32.8,36,0.0,960.3,8.6,20.9,107,46.4,37.8,0,5,7,0,2026-03-14T11:19:33.761938+05:30
Kolhapur,Maharashtra,16.705,74.2433,31.9,37,0.0,951.5,8.7,46.1,150,59.8,55.5,0,5,7,0,2026-03-14T11:19:33.761945+05:30
Goa,Goa,15.2993,74.124,32.0,60,0.0,1001.3,8.75,31.7,134,47.3,42.8,0,5,4,1,2026-03-14T11:19:33.761952+05:30
Jodhpur,Rajasthan,26.2389,73.0243,32.4,28,0.0,985.1,7.1,38.2,84,117.8,32.4,0,5,7,0,2026-03-14T11:19:33.761959+05:30
Udaipur,Rajasthan,24.5854,73.7125,32.1,21,0.0,949.6,7.85,37.4,67,66.1,23.2,0,5,7,0,2026-03-14T11:19:33.761966+05:30
Kota,Rajasthan,25.2138,75.8648,32.5,33,0.0,981.8,7.25,23.8,63,46.2,24.4,0,5,7,0,2026-03-14T11:19:33.761973+05:30
Bikaner,Rajasthan,28.0229,73.3119,31.4,28,0.0,984.3,6.7,23.8,61,60.3,22.2,0,5,7,0,2026-03-14T11:19:33.761980+05:30
Ajmer,Rajasthan,26.4499,74.6399,31.3,25,0.0,957.4,7.1,37.8,82,240.3,42.3,0,5,7,0,2026-03-14T11:19:33.761987+05:30
Gwalior,Madhya Pradesh,26.2183,78.1828,29.9,39,0.0,986.9,6.7,20.9,211,378.1,75.2,4,5,7,0,2026-03-14T11:19:33.761994+05:30
Indore,Madhya Pradesh,22.7196,75.8577,33.5,23,0.0,951.7,7.8,36.4,81,42.4,26.0,0,5,7,0,2026-03-14T11:19:33.762001+05:30
Bhopal,Madhya Pradesh,23.2599,77.4126,33.6,25,0.0,957.3,7.65,34.2,67,31.8,24.3,0,5,7,0,2026-03-14T11:19:33.762007+05:30
Jabalpur,Madhya Pradesh,23.1815,79.9864,32.2,31,0.0,965.3,7.8,32.0,79,18.8,17.8,0,5,7,0,2026-03-14T11:19:33.762014+05:30
Ujjain,Madhya Pradesh,23.1765,75.7885,32.5,29,0.0,957.2,7.7,39.6,78,44.9,27.6,0,5,7,0,2026-03-14T11:19:33.762021+05:30
Visakhapatnam,Andhra Pradesh,17.6868,83.2185,31.6,58,0.0,1008.1,8.65,40.7,68,25.3,19.4,0,0,4,1,2026-03-14T11:19:33.762028+05:30
Vijayawada,Andhra Pradesh,16.5062,80.648,31.4,62,0.0,1006.9,8.75,32.0,68,21.9,16.6,3,5,4,1,2026-03-14T11:19:33.762036+05:30
Guntur,Andhra Pradesh,16.3067,80.4365,31.8,60,0.0,1008.0,8.75,34.6,65,21.2,16.8,0,0,4,1,2026-03-14T11:19:33.762043+05:30
Nellore,Andhra Pradesh,14.4426,79.9865,32.4,54,0.0,1010.0,8.9,32.0,63,20.6,18.0,0,0,4,1,2026-03-14T11:19:33.762051+05:30
Kurnool,Andhra Pradesh,15.8281,78.0373,34.7,34,0.0,980.5,8.75,24.1,100,34.8,28.1,0,5,7,1,2026-03-14T11:19:33.762058+05:30
Kakinada,Andhra Pradesh,16.9891,82.2475,32.4,57,0.0,1011.7,8.7,33.1,60,21.4,15.3,0,0,4,1,2026-03-14T11:19:33.762065+05:30
Tirupati,Andhra Pradesh,13.6288,79.4192,30.7,59,0.0,996.2,9.0,32.4,73,18.0,16.0,0,5,7,1,2026-03-14T11:19:33.762071+05:30
Warangal,Telangana,17.9689,79.5941,30.2,62,0.0,982.7,8.5,28.4,100,25.4,21.9,3,5,7,1,2026-03-14T11:19:33.762078+05:30
Nizamabad,Telangana,18.6725,78.0941,33.7,37,0.0,968.4,8.45,25.6,121,43.1,36.3,0,5,7,1,2026-03-14T11:19:33.762084+05:30
Mysore,Karnataka,12.2958,76.6396,30.2,34,0.0,932.3,9.3,32.0,103,31.4,26.5,0,5,7,0,2026-03-14T11:19:33.762091+05:30
Mangalore,Karnataka,12.9141,74.856,28.8,81,0.0,1010.1,8.95,28.8,106,41.3,36.3,7,0,4,1,2026-03-14T11:19:33.762098+05:30
Hubli-Dharwad,Karnataka,15.3647,75.124,30.6,52,0.0,944.7,8.95,42.8,105,48.2,43.2,0,5,7,1,2026-03-14T11:19:33.762106+05:30
Belgaum,Karnataka,15.8497,74.4977,31.1,41,0.0,929.8,8.95,43.2,116,49.0,44.6,0,5,7,1,2026-03-14T11:19:37.011064+05:30
Coimbatore,Tamil Nadu,11.0168,76.9558,31.1,48,0.0,966.1,9.3,33.8,74,20.4,16.2,0,5,7,1,2026-03-14T11:19:37.011094+05:30
Madurai,Tamil Nadu,9.9252,78.1198,31.9,50,0.0,997.3,9.25,24.8,64,14.7,11.3,0,5,7,1,2026-03-14T11:19:37.011105+05:30
Trichy,Tamil Nadu,10.7905,78.7047,31.5,53,0.0,1004.3,9.2,23.4,70,15.9,13.7,0,5,4,1,2026-03-14T11:19:37.011113+05:30
Salem,Tamil Nadu,11.6643,78.146,30.3,57,0.0,981.7,9.2,19.8,103,21.1,18.7,0,5,7,1,2026-03-14T11:19:37.011120+05:30
Tirunelveli,Tamil Nadu,8.7139,77.7567,32.8,48,0.0,1007.2,9.25,36.7,52,10.5,8.6,0,5,4,1,2026-03-14T11:19:37.011128+05:30
Vellore,Tamil Nadu,12.9165,79.1325,31.6,46,0.0,989.1,9.1,32.4,99,23.5,21.4,0,5,7,1,2026-03-14T11:19:37.011136+05:30
Erode,Tamil Nadu,11.341,77.7172,31.2,54,0.0,993.5,9.2,22.3,71,13.7,11.6,0,5,7,1,2026-03-14T11:19:37.011143+05:30
Kochi,Kerala,9.9312,76.2673,27.6,80,0.0,1012.5,9.1,30.2,87,23.6,22.2,7,0,4,1,2026-03-14T11:19:37.011151+05:30
Thiruvananthapuram,Kerala,8.5241,76.9366,27.9,74,0.0,1011.5,9.1,23.0,59,17.8,15.7,7,0,4,1,2026-03-14T11:19:37.011158+05:30
Kozhikode,Kerala,11.2588,75.7804,29.0,77,0.0,1011.7,9.0,26.3,78,25.4,23.2,7,0,4,1,2026-03-14T11:19:37.011165+05:30
Thrissur,Kerala,10.5276,76.2144,31.4,63,0.0,1010.7,9.05,35.3,97,31.9,29.5,3,0,4,1,2026-03-14T11:19:37.011172+05:30
Kannur,Kerala,11.8745,75.3704,29.2,75,0.0,1011.0,9.0,31.7,97,31.9,28.1,7,0,4,1,2026-03-14T11:19:37.011179+05:30
Patna,Bihar,25.5941,85.1376,30.5,52,0.0,1003.4,7.5,22.0,153,172.3,61.5,0,5,4,1,2026-03-14T11:19:37.011186+05:30
Gaya,Bihar,24.7914,85.0002,32.3,43,0.0,996.7,7.6,22.7,128,114.8,37.0,0,5,7,1,2026-03-14T11:19:37.011193+05:30
Muzaffarpur,Bihar,26.1209,85.3647,30.4,60,0.0,1003.2,7.45,25.9,165,167.2,65.7,0,5,4,1,2026-03-14T11:19:37.011200+05:30
Bhagalpur,Bihar,25.2425,87.0117,30.7,58,0.0,1004.1,7.5,23.8,162,138.3,55.4,0,5,4,1,2026-03-14T11:19:37.011206+05:30
Ranchi,Jharkhand,23.3441,85.3096,32.6,22,0.0,941.6,8.25,27.7,72,88.5,25.6,0,5,7,0,2026-03-14T11:19:37.011212+05:30
Jamshedpur,Jharkhand,22.8046,86.2029,32.8,50,0.0,994.1,8.1,20.5,144,112.2,55.6,0,5,7,1,2026-03-14T11:19:37.011219+05:30
Dhanbad,Jharkhand,23.7957,86.4304,33.7,32,0.0,983.0,8.0,22.7,154,133.2,56.1,0,5,7,0,2026-03-14T11:19:37.011226+05:30
Bokaro,Jharkhand,23.6693,86.1511,34.1,29,0.0,987.0,8.0,26.3,150,122.9,47.3,0,5,7,0,2026-03-14T11:19:37.011233+05:30
Bhubaneswar,Odisha,20.2961,85.8245,31.6,63,0.0,1006.5,8.45,39.2,75,26.1,19.7,3,5,4,1,2026-03-14T11:19:37.011240+05:30
Cuttack,Odisha,20.4625,85.8828,32.9,57,0.0,1008.1,8.45,34.2,75,26.1,19.7,0,0,4,1,2026-03-14T11:19:37.011247+05:30
Rourkela,Odisha,22.2604,84.8536,35.3,39,0.0,988.0,8.05,34.6,96,92.9,49.1,0,5,10,1,2026-03-14T11:19:37.011254+05:30
Raipur,Chhattisgarh,21.2514,81.6296,35.0,36,0.0,977.9,8.2,40.3,125,63.6,54.8,0,5,7,1,2026-03-14T11:19:37.011261+05:30
Bhilai,Chhattisgarh,21.1938,81.3509,35.2,37,0.0,978.2,8.2,30.6,121,58.7,49.9,0,5,10,1,2026-03-14T11:19:37.011268+05:30
Guwahati,Assam,26.1158,91.7086,22.2,90,0.0,1006.2,7.4,36.0,86,37.6,24.1,3,5,4,1,2026-03-14T11:19:37.011275+05:30
Agartala,Tripura,23.8315,91.2868,24.8,81,0.0,1011.7,7.8,39.2,77,32.8,24.0,3,0,4,1,2026-03-14T11:19:37.011281+05:30
Shillong,Meghalaya,25.5788,91.8933,17.8,66,0.0,859.3,7.85,73.8,56,13.4,8.9,3,5,7,0,2026-03-14T11:19:37.011288+05:30
Imphal,Manipur,24.817,93.9368,18.4,84,0.0,927.1,7.1,79.9,153,62.4,40.0,3,10,7,0,2026-03-14T11:19:37.011296+05:30
Aizawl,Mizoram,23.7271,92.7176,20.9,71,0.0,897.9,8.0,63.4,125,41.4,31.3,3,5,7,0,2026-03-14T11:19:37.011302+05:30
Kohima,Nagaland,25.6701,94.1077,17.3,74,0.0,858.1,6.9,100.8,120,36.4,24.1,3,5,7,0,2026-03-14T11:19:37.011309+05:30
Gangtok,Sikkim,27.3314,88.6138,17.9,77,0.0,839.4,7.55,22.3,90,23.5,17.9,3,5,7,0,2026-03-14T11:19:37.011315+05:30
Siliguri,West Bengal,26.7271,88.3953,21.8,85,0.0,997.5,7.4,33.1,125,47.3,33.6,3,5,7,1,2026-03-14T11:19:40.261646+05:30
Durgapur,West Bengal,23.5204,87.3119,32.4,59,0.0,998.2,7.95,28.1,152,93.4,59.8,0,5,7,1,2026-03-14T11:19:40.261678+05:30
Asansol,West Bengal,23.6739,86.9524,32.6,56,0.0,996.7,7.95,21.6,138,115.7,55.2,0,5,7,1,2026-03-14T11:19:40.261691+05:30
Pondicherry,Puducherry,11.9139,79.8145,32.0,55,0.0,1012.9,9.05,28.4,55,17.2,12.9,0,0,4,1,2026-03-14T11:19:40.261701+05:30
Port Blair,Andaman and Nicobar Islands,11.6234,92.7265,28.2,75,0.0,1010.3,8.95,24.5,72,11.2,8.5,7,0,4,1,2026-03-14T11:19:40.261710+05:30
Haridwar,Uttarakhand,29.9457,78.1642,26.5,51,0.0,976.7,4.95,24.8,102,56.3,34.8,4,5,3,0,2026-03-14T11:19:40.261720+05:30
Rishikesh,Uttarakhand,30.0869,78.2676,27.6,41,0.0,969.3,4.5,25.9,70,19.3,16.4,4,5,3,0,2026-03-14T11:19:40.261729+05:30
Nainital,Uttarakhand,29.3919,79.4542,21.8,35,0.0,809.4,6.3,34.9,83,39.9,22.5,0,5,7,0,2026-03-14T11:19:40.261737+05:30
Mussoorie,Uttarakhand,30.4599,78.0664,20.6,40,0.0,805.6,4.5,25.9,76,26.5,19.2,0,5,3,0,2026-03-14T11:19:40.261746+05:30
Dharamshala,Himachal Pradesh,32.219,76.3234,22.5,27,0.0,870.8,5.65,22.0,39,25.6,6.5,0,5,3,0,2026-03-14T11:19:40.261754+05:30
Dalhousie,Himachal Pradesh,32.5387,75.971,20.5,26,0.0,805.7,6.2,18.7,66,25.0,11.2,0,5,7,0,2026-03-14T11:19:40.261763+05:30
Patiala,Punjab,30.3398,76.3869,25.7,43,0.0,980.8,5.65,24.5,341,277.5,54.5,4,5,3,0,2026-03-14T11:19:40.261772+05:30
Bhatinda,Punjab,30.211,74.9455,28.1,51,0.0,986.7,5.9,20.2,90,25.7,23.3,4,5,3,1,2026-03-14T11:19:40.261780+05:30
Rohtak,Haryana,28.8955,76.6066,27.2,45,0.0,985.1,6.0,28.4,523,398.6,73.1,4,5,3,0,2026-03-14T11:19:40.261789+05:30
Panipat,Haryana,29.3909,76.9635,25.5,51,0.0,983.4,5.75,25.6,962,739.5,105.0,4,5,3,0,2026-03-14T11:19:40.261797+05:30
Mathura,Uttar Pradesh,27.4924,77.6737,30.8,30,0.0,990.3,5.85,38.2,759,320.4,72.6,0,5,3,0,2026-03-14T11:19:40.261805+05:30
Vrindavan,Uttar Pradesh,27.5823,77.7027,30.3,33,0.0,990.6,5.95,34.9,759,320.4,72.6,0,5,3,0,2026-03-14T11:19:40.261813+05:30
Ayodhya,Uttar Pradesh,26.7922,82.1998,28.6,50,0.0,998.5,6.85,24.5,154,353.0,90.3,4,5,7,1,2026-03-14T11:19:40.261821+05:30
Ratlam,Madhya Pradesh,23.3315,75.0367,33.0,24,0.0,958.0,7.65,39.2,73,40.9,22.1,0,5,7,0,2026-03-14T11:19:40.261829+05:30
Sagar,Madhya Pradesh,23.8388,78.7378,33.5,22,0.0,953.7,7.65,32.8,56,54.4,19.7,0,5,7,0,2026-03-14T11:19:40.261858+05:30
Satna,Madhya Pradesh,24.6005,80.8322,33.4,29,0.0,974.7,7.6,29.5,73,247.7,51.3,0,5,7,0,2026-03-14T11:19:40.261867+05:30
Akola,Maharashtra,20.7002,77.0082,34.2,23,0.0,978.8,8.1,13.3,92,29.3,26.0,0,5,7,0,2026-03-14T11:19:40.261877+05:30
Amravati,Maharashtra,20.9374,77.7796,35.7,18,0.0,970.8,8.1,14.8,100,27.1,25.7,0,5,10,0,2026-03-14T11:19:40.261886+05:30
Latur,Maharashtra,18.4088,76.5604,32.3,32,0.0,943.4,8.5,26.6,100,36.0,31.1,0,5,7,0,2026-03-14T11:19:40.261894+05:30
Nanded,Maharashtra,19.1383,77.3091,35.7,30,0.0,971.9,8.3,31.0,123,47.3,39.2,0,5,10,0,2026-03-14T11:19:40.261901+05:30
Gulbarga,Karnataka,17.3297,76.8343,35.1,27,0.0,962.0,8.6,38.9,99,35.0,30.3,0,5,10,0,2026-03-14T11:19:40.261908+05:30
Bidar,Karnataka,17.9104,77.5199,32.6,34,0.0,939.1,8.55,37.1,98,38.3,30.5,0,5,7,0,2026-03-14T11:19:40.261914+05:30
Hospet,Karnataka,15.2689,76.3909,30.1,60,0.0,959.8,8.9,29.2,108,42.0,36.7,0,5,7,1,2026-03-14T11:19:40.261920+05:30
Tirupur,Tamil Nadu,11.1085,77.3411,31.3,51,0.0,979.7,9.3,29.5,76,15.8,13.1,0,5,7,1,2026-03-14T11:19:40.261927+05:30
Alappuzha,Kerala,9.4981,76.3388,27.5,81,0.0,1012.6,9.1,27.0,76,21.8,20.3,7,0,4,1,2026-03-14T11:19:40.261934+05:30
Munnar,Kerala,10.0889,77.0595,28.1,44,0.0,861.9,9.6,32.0,60,9.3,7.4,4,5,7,0,2026-03-14T11:19:40.261941+05:30
Silchar,Assam,24.8333,92.7789,21.7,89,0.0,1011.5,7.4,36.4,135,43.4,34.9,3,0,4,1,2026-03-14T11:19:40.261947+05:30
Dibrugarh,Assam,27.4728,94.912,21.0,82,0.0,1000.2,4.6,20.5,104,24.0,20.1,3,5,0,1,2026-03-14T11:19:40.261954+05:30
