city,state,latitude,longitude,temp,humidity,rain,pressure,uv_index,wind_gusts,aqi,pm10,pm2_5,no2,co,o3,so2,mosquito_risk,arthritis_risk,migraine_risk,frizz_risk,updated_at
Delhi,Delhi,28.6139,77.209,40.4,30,0.0,978.7,7.75,34.2,158,262.6,84.8,7.7,271.0,189.0,21.1,0,5,10,1,2026-06-27T12:24:20.884303+05:30
Mumbai,Maharashtra,19.076,72.8777,30.5,75,0.0,1006.8,7.4,35.6,62,26.3,17.2,8.3,193.0,92.0,15.0,3,5,4,1,2026-06-27T12:24:20.884350+05:30
Bangalore,Karnataka,12.9716,77.5946,29.3,50,0.1,911.6,9.2,37.8,39,20.1,9.7,2.9,225.0,80.0,2.5,7,5,7,1,2026-06-27T12:24:20.884365+05:30
Hyderabad,Telangana,17.385,78.4867,30.9,58,0.0,951.4,7.75,38.5,81,51.1,25.8,2.7,283.0,114.0,5.1,0,5,7,1,2026-06-27T12:24:20.884374+05:30
Chennai,Tamil Nadu,13.0827,80.2707,36.2,42,0.0,1004.7,8.2,44.6,81,40.3,28.8,9.9,279.0,129.0,10.7,0,5,7,1,2026-06-27T12:24:20.884381+05:30
Kolkata,West Bengal,22.5726,88.3639,32.9,70,0.0,1002.5,8.85,27.7,81,15.9,12.5,1.9,265.0,106.0,5.4,3,5,4,1,2026-06-27T12:24:20.884389+05:30
Pune,Maharashtra,18.5204,73.8567,31.3,49,0.0,946.8,8.2,39.2,49,21.9,10.9,2.2,131.0,90.0,5.9,0,5,7,1,2026-06-27T12:24:20.884396+05:30
Ahmedabad,Gujarat,23.0225,72.5714,37.6,38,0.0,999.1,8.05,37.8,75,56.0,20.9,1.6,131.0,87.0,3.5,0,5,10,1,2026-06-27T12:24:20.884402+05:30
Jaipur,Rajasthan,26.9124,75.7873,37.5,36,0.0,957.2,8.2,33.8,125,132.2,37.3,1.4,163.0,109.0,2.8,0,5,10,1,2026-06-27T12:24:20.884409+05:30
Lucknow,Uttar Pradesh,26.8467,80.9462,39.9,37,0.0,988.7,8.3,26.6,127,138.3,51.2,2.2,243.0,171.0,7.2,0,5,10,1,2026-06-27T12:24:20.884419+05:30
Kanpur,Uttar Pradesh,26.4499,80.3319,41.1,31,0.0,986.9,8.3,31.3,125,177.9,48.0,1.9,201.0,151.0,5.6,0,5,10,1,2026-06-27T12:24:20.884426+05:30
Chandigarh,Chandigarh,30.7333,76.7794,37.2,37,0.0,965.2,7.8,27.4,153,110.4,49.8,2.5,365.0,177.0,13.6,0,5,10,1,2026-06-27T12:24:20.884432+05:30
Srinagar,Jammu and Kashmir,34.0837,74.7973,29.9,37,0.0,843.3,9.1,24.8,75,27.1,21.5,1.6,346.0,156.0,3.6,4,5,7,0,2026-06-27T12:24:20.884438+05:30
Jammu,Jammu and Kashmir,32.7266,74.857,38.1,34,0.0,968.7,8.65,30.6,138,78.2,36.0,2.0,339.0,169.0,3.6,0,5,10,1,2026-06-27T12:24:20.884444+05:30
Amritsar,Punjab,31.634,74.8723,35.9,47,0.0,976.7,8.45,13.3,168,96.4,58.7,2.2,359.0,196.0,8.1,0,5,10,1,2026-06-27T12:24:20.884450+05:30
Ludhiana,Punjab,30.901,75.8573,38.5,36,0.0,974.6,8.05,25.2,159,138.8,59.3,2.2,359.0,169.0,8.3,0,5,10,1,2026-06-27T12:24:20.884455+05:30
Jalandhar,Punjab,31.326,75.5762,38.4,35,0.0,975.4,8.25,23.4,163,115.3,60.5,2.4,346.0,184.0,8.1,0,5,10,1,2026-06-27T12:24:20.884462+05:30
Dehradun,Uttarakhand,30.6284,78.0322,25.4,57,0.0,832.3,8.25,30.2,69,54.4,21.0,0.9,216.0,149.0,2.1,4,5,7,1,2026-06-27T12:24:20.884468+05:30
Shimla,Himachal Pradesh,31.1048,77.1734,24.1,48,0.0,787.8,7.35,37.8,91,65.0,28.8,1.0,203.0,154.0,7.1,0,5,7,0,2026-06-27T12:24:20.884474+05:30
Manali,Himachal Pradesh,32.2396,77.1887,27.0,50,0.1,820.9,8.7,34.9,52,6.3,5.2,8.7,178.0,118.0,0.6,7,5,7,0,2026-06-27T12:24:20.884481+05:30
Gurgaon,Haryana,28.4595,77.0266,39.0,32,0.0,977.5,7.8,38.5,168,262.6,79.6,7.2,234.0,200.0,21.4,0,5,10,1,2026-06-27T12:24:20.884487+05:30
Noida,Uttar Pradesh,28.5355,77.391,38.0,40,0.0,980.2,7.8,16.6,168,262.6,79.6,7.2,286.0,200.0,21.4,0,5,10,1,2026-06-27T12:24:20.884493+05:30
Ghaziabad,Uttar Pradesh,28.6692,77.4538,37.4,42,0.0,978.6,7.75,24.5,159,244.0,78.0,4.3,338.0,203.0,24.2,0,5,10,1,2026-06-27T12:24:20.884499+05:30
Faridabad,Haryana,28.4089,77.3178,39.3,33,0.0,979.5,7.8,31.3,168,262.6,79.6,7.2,236.0,200.0,21.4,0,5,10,1,2026-06-27T12:24:20.884505+05:30
Meerut,Uttar Pradesh,28.9845,77.7064,38.4,37,0.0,977.4,7.7,29.2,159,244.0,78.0,4.3,287.0,203.0,24.2,0,5,10,1,2026-06-27T12:24:20.884511+05:30
Agra,Uttar Pradesh,27.1767,78.0081,39.5,33,0.0,983.5,8.1,29.5,133,146.7,48.0,2.8,198.0,174.0,8.4,0,5,10,1,2026-06-27T12:24:20.884518+05:30
Varanasi,Uttar Pradesh,25.3176,82.9739,38.9,41,0.0,993.3,8.8,23.4,99,42.1,36.8,2.3,241.0,176.0,10.9,0,5,10,1,2026-06-27T12:24:20.884525+05:30
Prayagraj,Uttar Pradesh,25.4358,81.8463,39.2,38,0.0,991.6,8.7,51.1,103,51.3,31.8,2.2,186.0,167.0,7.7,0,5,10,1,2026-06-27T12:24:20.884531+05:30
Gorakhpur,Uttar Pradesh,26.7606,83.3732,36.5,48,0.0,993.0,8.65,30.2,159,60.5,46.7,2.4,348.0,195.0,9.1,0,5,10,1,2026-06-27T12:24:20.884537+05:30
Bareilly,Uttar Pradesh,28.367,79.4304,39.2,32,0.0,982.2,8.1,25.9,161,149.0,66.8,3.0,289.0,221.0,15.4,0,5,10,1,2026-06-27T12:24:20.884544+05:30
Aligarh,Uttar Pradesh,27.8974,78.088,38.4,37,0.0,981.5,7.95,23.8,160,219.3,77.8,4.3,214.0,234.0,28.7,0,5,10,1,2026-06-27T12:24:20.884550+05:30
Moradabad,Uttar Pradesh,28.8386,78.7733,39.3,32,0.0,979.3,7.95,31.3,165,147.1,59.6,3.7,346.0,227.0,20.9,0,5,10,1,2026-06-27T12:24:20.884556+05:30
Saharanpur,Uttar Pradesh,29.9637,77.546,37.0,38,0.0,972.0,7.45,23.8,167,145.8,53.8,2.5,278.0,180.0,12.6,0,5,10,1,2026-06-27T12:24:20.884561+05:30
Jhansi,Uttar Pradesh,25.4484,78.5685,38.8,36,0.0,974.2,8.35,29.2,88,75.2,35.3,1.6,159.0,123.0,11.3,0,5,10,1,2026-06-27T12:24:24.338877+05:30
Surat,Gujarat,21.1702,72.8311,34.8,48,0.0,1004.4,7.6,41.0,87,68.2,32.0,15.3,439.0,60.0,52.4,0,5,4,1,2026-06-27T12:24:24.338911+05:30
Vadodara,Gujarat,22.3072,73.1812,37.9,40,0.0,1001.3,8.0,40.0,79,57.5,27.1,2.8,151.0,99.0,8.3,0,5,7,1,2026-06-27T12:24:24.338923+05:30
Rajkot,Gujarat,22.3039,70.8022,36.1,41,0.0,991.7,7.55,49.7,64,61.2,21.2,1.3,103.0,86.0,4.5,0,5,10,1,2026-06-27T12:24:24.338933+05:30
Thane,Maharashtra,19.2183,72.9781,31.9,69,0.0,1006.0,6.5,33.1,62,26.3,17.2,8.3,207.0,92.0,15.0,3,5,4,1,2026-06-27T12:24:24.338943+05:30
Nagpur,Maharashtra,21.1458,79.0882,33.1,60,0.0,969.9,8.85,43.2,93,31.0,27.5,10.7,274.0,138.0,38.6,0,5,7,1,2026-06-27T12:24:24.338952+05:30
Nashik,Maharashtra,19.9975,73.7898,31.1,52,0.0,944.3,7.6,38.5,59,36.7,16.4,1.6,118.0,90.0,4.4,0,5,7,1,2026-06-27T12:24:24.338961+05:30
Aurangabad,Maharashtra,19.8762,75.3433,31.3,49,0.0,942.9,7.85,29.9,67,66.6,25.4,1.3,121.0,95.0,3.6,0,5,7,1,2026-06-27T12:24:24.338970+05:30
Solapur,Maharashtra,17.6599,75.9064,32.7,48,0.0,956.2,2.95,31.7,54,34.9,16.7,1.5,119.0,109.0,4.6,0,5,3,1,2026-06-27T12:24:24.338980+05:30
Kolhapur,Maharashtra,16.705,74.2433,28.4,62,0.1,946.9,7.4,39.6,33,10.3,6.2,1.8,119.0,70.0,1.7,10,5,7,1,2026-06-27T12:24:24.338990+05:30
Goa,Goa,15.2993,74.124,30.5,70,0.1,997.3,5.4,28.4,51,10.1,5.3,0.8,151.0,61.0,0.7,6,5,3,1,2026-06-27T12:24:24.339016+05:30
Jodhpur,Rajasthan,26.2389,73.0243,36.6,44,0.0,980.1,8.45,26.3,95,163.9,40.9,0.8,112.0,89.0,4.3,0,5,10,1,2026-06-27T12:24:24.339025+05:30
Udaipur,Rajasthan,24.5854,73.7125,34.4,46,0.0,944.9,8.2,44.3,67,53.7,21.9,0.8,118.0,93.0,3.1,0,5,7,1,2026-06-27T12:24:24.339035+05:30
Kota,Rajasthan,25.2138,75.8648,37.5,39,0.0,975.6,8.35,42.5,88,71.0,27.0,1.1,145.0,105.0,3.4,0,5,10,1,2026-06-27T12:24:24.339044+05:30
Bikaner,Rajasthan,28.0229,73.3119,40.4,28,0.0,978.3,8.45,32.0,105,100.4,28.2,0.4,116.0,83.0,2.3,0,5,10,1,2026-06-27T12:24:24.339052+05:30
Ajmer,Rajasthan,26.4499,74.6399,35.4,42,0.0,952.5,8.35,33.8,83,80.8,27.8,1.0,132.0,98.0,2.7,0,5,10,1,2026-06-27T12:24:24.339061+05:30
Gwalior,Madhya Pradesh,26.2183,78.1828,39.5,33,0.0,979.1,8.25,32.0,82,79.9,34.6,1.1,143.0,122.0,3.6,0,5,10,1,2026-06-27T12:24:24.339070+05:30
Indore,Madhya Pradesh,22.7196,75.8577,32.5,54,0.0,946.4,8.5,40.7,88,61.5,32.9,2.2,204.0,111.0,9.5,0,5,7,1,2026-06-27T12:24:24.339079+05:30
Bhopal,Madhya Pradesh,23.2599,77.4126,34.1,51,0.0,951.4,8.65,25.9,82,36.7,21.3,1.2,213.0,116.0,2.5,0,5,7,1,2026-06-27T12:24:24.339088+05:30
Jabalpur,Madhya Pradesh,23.1815,79.9864,35.6,46,0.0,958.8,8.85,31.3,69,24.2,16.8,1.3,192.0,127.0,2.4,0,5,10,1,2026-06-27T12:24:24.339097+05:30
Ujjain,Madhya Pradesh,23.1765,75.7885,33.3,53,0.0,952.0,8.5,31.3,85,59.4,31.9,1.8,178.0,110.0,9.2,0,5,7,1,2026-06-27T12:24:24.339106+05:30
Visakhapatnam,Andhra Pradesh,17.6868,83.2185,31.8,67,0.1,1000.2,8.3,31.0,95,33.2,28.2,13.1,363.0,136.0,39.8,6,5,4,1,2026-06-27T12:24:24.339115+05:30
Vijayawada,Andhra Pradesh,16.5062,80.648,34.3,52,0.0,999.4,8.45,29.9,70,44.0,25.6,1.7,171.0,118.0,6.1,0,5,7,1,2026-06-27T12:24:24.339123+05:30
Guntur,Andhra Pradesh,16.3067,80.4365,34.6,51,0.0,1000.8,7.7,33.5,70,45.1,25.6,1.7,156.0,115.0,5.3,0,5,4,1,2026-06-27T12:24:24.339133+05:30
Nellore,Andhra Pradesh,14.4426,79.9865,35.3,43,0.0,1003.4,8.7,35.3,62,25.1,14.7,2.4,135.0,97.0,6.1,0,5,7,1,2026-06-27T12:24:24.339142+05:30
Kurnool,Andhra Pradesh,15.8281,78.0373,34.1,47,0.0,975.2,6.55,35.3,55,39.9,19.5,2.1,139.0,97.0,7.4,0,5,7,1,2026-06-27T12:24:24.339152+05:30
Kakinada,Andhra Pradesh,16.9891,82.2475,32.4,67,0.0,1004.1,6.6,32.4,72,36.7,22.5,1.7,235.0,132.0,5.4,3,5,4,1,2026-06-27T12:24:24.339161+05:30
Tirupati,Andhra Pradesh,13.6288,79.4192,36.3,38,0.0,988.7,8.7,36.4,56,27.0,12.0,1.3,117.0,78.0,1.4,0,5,10,1,2026-06-27T12:24:24.339169+05:30
Warangal,Telangana,17.9689,79.5941,31.4,62,0.0,975.9,8.8,33.5,83,41.2,22.9,1.6,180.0,111.0,4.1,3,5,7,1,2026-06-27T12:24:24.339177+05:30
Nizamabad,Telangana,18.6725,78.0941,29.9,68,0.0,962.8,8.15,35.6,89,53.4,26.8,1.5,160.0,110.0,4.9,7,5,7,1,2026-06-27T12:24:24.339186+05:30
Mysore,Karnataka,12.2958,76.6396,30.4,51,0.0,928.3,8.4,38.9,31,11.1,5.9,1.6,119.0,75.0,1.4,0,5,7,1,2026-06-27T12:24:24.339195+05:30
Mangalore,Karnataka,12.9141,74.856,29.1,76,0.0,1006.9,8.7,36.4,44,11.1,5.9,1.2,113.0,67.0,1.7,7,5,4,1,2026-06-27T12:24:24.339203+05:30
Hubli-Dharwad,Karnataka,15.3647,75.124,29.6,63,0.0,940.4,7.1,41.8,22,6.1,3.3,1.3,113.0,63.0,0.9,7,5,7,1,2026-06-27T12:24:24.339212+05:30
Belgaum,Karnataka,15.8497,74.4977,27.8,68,0.1,925.4,8.45,38.9,25,6.0,3.5,1.8,102.0,59.0,1.7,10,5,7,1,2026-06-27T12:24:27.650719+05:30
Coimbatore,Tamil Nadu,11.0168,76.9558,31.3,51,0.0,961.0,8.8,45.0,33,13.8,7.4,1.3,138.0,75.0,1.9,0,5,7,1,2026-06-27T12:24:27.650754+05:30
Madurai,Tamil Nadu,9.9252,78.1198,37.2,33,0.0,991.6,8.7,36.0,66,23.3,11.8,1.9,141.0,97.0,2.3,0,5,10,1,2026-06-27T12:24:27.650766+05:30
Trichy,Tamil Nadu,10.7905,78.7047,35.6,41,0.0,998.1,7.8,36.0,47,23.6,11.2,1.4,115.0,78.0,2.0,0,5,10,1,2026-06-27T12:24:27.650776+05:30
Salem,Tamil Nadu,11.6643,78.146,33.4,48,0.0,976.5,8.25,45.0,56,30.6,18.2,3.1,190.0,119.0,9.4,0,5,7,1,2026-06-27T12:24:27.650786+05:30
Tirunelveli,Tamil Nadu,8.7139,77.7567,37.3,36,0.1,1001.7,8.65,39.6,35,8.7,5.8,1.2,119.0,76.0,1.4,3,5,7,1,2026-06-27T12:24:27.650795+05:30
Vellore,Tamil Nadu,12.9165,79.1325,35.2,41,0.0,982.4,8.95,43.6,60,33.5,15.1,1.7,122.0,92.0,2.3,0,5,10,1,2026-06-27T12:24:27.650803+05:30
Erode,Tamil Nadu,11.341,77.7172,36.0,37,0.0,987.7,8.4,44.6,51,22.8,12.9,2.0,167.0,98.0,2.4,0,5,10,1,2026-06-27T12:24:27.650810+05:30
Kochi,Kerala,9.9312,76.2673,28.7,75,0.0,1009.4,8.55,36.0,56,12.9,7.7,2.3,116.0,71.0,2.7,7,0,4,1,2026-06-27T12:24:27.650818+05:30
Thiruvananthapuram,Kerala,8.5241,76.9366,28.5,77,0.1,1008.8,8.3,40.0,42,13.0,8.0,1.5,103.0,75.0,1.6,10,0,4,1,2026-06-27T12:24:27.650825+05:30
Kozhikode,Kerala,11.2588,75.7804,30.0,70,0.1,1007.9,8.6,37.1,30,11.8,5.5,0.6,114.0,61.0,0.8,10,5,4,1,2026-06-27T12:24:27.650832+05:30
Thrissur,Kerala,10.5276,76.2144,29.9,73,0.0,1007.2,8.55,34.6,56,10.7,6.3,1.5,107.0,64.0,1.6,7,5,4,1,2026-06-27T12:24:27.650840+05:30
Kannur,Kerala,11.8745,75.3704,30.0,74,0.0,1007.5,8.5,37.8,43,10.4,5.2,1.1,121.0,61.0,1.1,7,5,4,1,2026-06-27T12:24:27.650847+05:30
Patna,Bihar,25.5941,85.1376,37.0,49,0.0,996.3,8.6,23.4,151,65.4,56.2,3.1,280.0,215.0,13.5,0,5,10,1,2026-06-27T12:24:27.650854+05:30
Gaya,Bihar,24.7914,85.0002,37.0,49,0.0,990.0,8.9,21.2,98,39.3,37.6,2.5,220.0,168.0,12.7,0,5,10,1,2026-06-27T12:24:27.650861+05:30
Muzaffarpur,Bihar,26.1209,85.3647,34.4,65,0.1,996.3,8.6,22.7,154,65.7,57.5,3.4,479.0,211.0,17.3,6,5,7,1,2026-06-27T12:24:27.650868+05:30
Bhagalpur,Bihar,25.2425,87.0117,37.0,50,0.0,996.7,7.7,25.9,109,46.9,42.7,3.8,293.0,197.0,26.6,0,5,10,1,2026-06-27T12:24:27.650875+05:30
Ranchi,Jharkhand,23.3441,85.3096,31.9,57,0.0,935.9,9.0,22.7,103,39.1,35.0,1.9,235.0,165.0,12.9,0,5,7,1,2026-06-27T12:24:27.650882+05:30
Jamshedpur,Jharkhand,22.8046,86.2029,34.2,57,0.0,987.5,9.1,27.0,110,43.1,38.5,3.0,278.0,187.0,22.4,0,5,7,1,2026-06-27T12:24:27.650889+05:30
Dhanbad,Jharkhand,23.7957,86.4304,36.5,45,0.0,976.8,8.85,27.4,153,61.9,58.2,15.9,296.0,193.0,68.1,0,5,10,1,2026-06-27T12:24:27.650896+05:30
Bokaro,Jharkhand,23.6693,86.1511,36.5,46,0.0,980.5,9.1,31.0,154,59.8,56.2,12.7,249.0,204.0,60.5,0,5,10,1,2026-06-27T12:24:27.650903+05:30
Bhubaneswar,Odisha,20.2961,85.8245,27.9,91,0.1,1000.0,9.0,39.6,76,20.4,16.8,1.9,233.0,125.0,6.5,10,5,4,1,2026-06-27T12:24:27.650910+05:30
Cuttack,Odisha,20.4625,85.8828,33.2,69,0.0,1001.0,8.9,41.0,76,20.4,16.8,1.9,222.0,125.0,6.5,3,5,4,1,2026-06-27T12:24:27.650917+05:30
Rourkela,Odisha,22.2604,84.8536,36.6,48,0.0,981.6,8.95,46.4,94,32.8,29.2,2.1,239.0,175.0,17.2,0,5,10,1,2026-06-27T12:24:27.650924+05:30
Raipur,Chhattisgarh,21.2514,81.6296,37.1,41,0.0,971.3,8.9,36.0,106,34.5,33.2,9.2,343.0,148.0,35.8,0,5,10,1,2026-06-27T12:24:27.650931+05:30
Bhilai,Chhattisgarh,21.1938,81.3509,36.8,40,0.0,971.8,8.95,36.0,113,31.9,30.7,9.7,339.0,133.0,34.4,0,5,10,1,2026-06-27T12:24:27.650938+05:30
Guwahati,Assam,26.1158,91.7086,31.0,75,0.0,997.3,8.7,35.3,82,14.7,13.0,1.5,244.0,108.0,2.7,3,5,7,1,2026-06-27T12:24:27.650945+05:30
Agartala,Tripura,23.8315,91.2868,32.3,66,0.0,1002.9,8.05,33.5,64,14.1,11.2,2.4,156.0,115.0,1.8,3,5,4,1,2026-06-27T12:24:27.650952+05:30
Shillong,Meghalaya,25.5788,91.8933,25.2,73,0.0,856.7,6.65,30.2,54,8.1,6.9,1.6,208.0,101.0,2.4,7,5,7,1,2026-06-27T12:24:27.650959+05:30
Imphal,Manipur,24.817,93.9368,29.3,65,0.0,920.3,8.05,33.1,62,4.5,3.8,1.0,148.0,87.0,1.9,7,5,7,1,2026-06-27T12:24:27.650966+05:30
Aizawl,Mizoram,23.7271,92.7176,26.5,65,0.0,891.3,9.05,26.6,52,6.7,5.0,0.6,121.0,76.0,0.5,7,5,7,1,2026-06-27T12:24:27.650974+05:30
Kohima,Nagaland,25.6701,94.1077,22.6,92,0.1,853.7,8.0,22.0,54,7.2,5.5,0.8,191.0,95.0,1.6,6,5,7,1,2026-06-27T12:24:27.650981+05:30
Gangtok,Sikkim,27.3314,88.6138,23.2,74,0.1,837.2,8.8,38.5,92,7.6,7.0,0.9,297.0,148.0,3.2,6,5,7,1,2026-06-27T12:24:27.650988+05:30
Siliguri,West Bengal,26.7271,88.3953,30.5,72,0.1,989.6,8.7,19.4,98,25.3,22.5,1.8,423.0,159.0,6.2,6,5,7,1,2026-06-27T12:24:31.183205+05:30
Durgapur,West Bengal,23.5204,87.3119,34.3,63,0.0,991.7,8.85,30.2,140,55.1,48.9,11.3,637.0,167.0,49.0,3,5,7,1,2026-06-27T12:24:31.183239+05:30
Asansol,West Bengal,23.6739,86.9524,34.9,58,0.0,990.2,8.9,28.1,122,53.6,48.8,11.4,334.0,172.0,47.0,0,5,7,1,2026-06-27T12:24:31.183250+05:30
Pondicherry,Puducherry,11.9139,79.8145,33.9,53,0.0,1006.6,8.35,41.8,77,36.7,24.5,4.1,178.0,131.0,7.1,0,5,4,1,2026-06-27T12:24:31.183260+05:30
Port Blair,Andaman and Nicobar Islands,11.6234,92.7265,28.0,86,0.2,1007.2,8.65,39.6,21,4.3,2.6,0.2,88.0,44.0,0.3,10,5,4,1,2026-06-27T12:24:31.183269+05:30
Haridwar,Uttarakhand,29.9457,78.1642,37.9,36,0.0,970.2,7.6,26.3,152,125.7,45.5,1.3,249.0,164.0,5.3,0,5,10,1,2026-06-27T12:24:31.183277+05:30
Rishikesh,Uttarakhand,30.0869,78.2676,36.3,38,0.0,963.3,7.7,24.1,106,111.3,38.9,0.8,237.0,153.0,3.4,0,5,10,1,2026-06-27T12:24:31.183285+05:30
Nainital,Uttarakhand,29.3919,79.4542,22.7,62,0.2,807.5,6.85,28.8,100,109.2,40.7,1.0,222.0,160.0,5.9,6,5,7,0,2026-06-27T12:24:31.183293+05:30
Mussoorie,Uttarakhand,30.4599,78.0664,24.2,57,0.1,805.8,8.15,39.2,118,106.2,39.9,1.2,217.0,165.0,5.1,3,5,7,0,2026-06-27T12:24:31.183301+05:30
Dharamshala,Himachal Pradesh,32.219,76.3234,26.3,66,0.1,869.6,8.5,32.4,58,39.7,18.4,0.6,240.0,140.0,2.6,10,5,7,1,2026-06-27T12:24:31.183308+05:30
Dalhousie,Himachal Pradesh,32.5387,75.971,23.6,67,0.1,807.1,8.3,31.0,114,82.9,37.1,1.4,256.0,166.0,5.3,6,5,7,1,2026-06-27T12:24:31.183317+05:30
Patiala,Punjab,30.3398,76.3869,37.3,38,0.0,974.5,7.7,28.4,163,122.0,56.5,2.8,315.0,171.0,11.2,0,5,10,1,2026-06-27T12:24:31.183324+05:30
Bhatinda,Punjab,30.211,74.9455,37.4,40,0.0,979.8,8.3,29.2,155,134.6,59.6,3.6,239.0,162.0,16.5,0,5,10,1,2026-06-27T12:24:31.183331+05:30
Rohtak,Haryana,28.8955,76.6066,37.8,39,0.0,977.9,7.75,28.4,159,312.0,84.3,4.0,284.0,161.0,6.4,0,5,10,1,2026-06-27T12:24:31.183339+05:30
Panipat,Haryana,29.3909,76.9635,37.8,40,0.0,976.3,7.65,23.0,258,314.8,91.0,5.7,262.0,167.0,19.2,0,5,10,1,2026-06-27T12:24:31.183346+05:30
Mathura,Uttar Pradesh,27.4924,77.6737,38.4,37,0.0,982.7,8.05,24.8,141,195.6,59.0,3.1,199.0,168.0,12.1,0,5,10,1,2026-06-27T12:24:31.183354+05:30
Vrindavan,Uttar Pradesh,27.5823,77.7027,37.9,39,0.0,983.1,8.0,22.7,141,195.6,59.0,3.1,193.0,168.0,12.1,0,5,10,1,2026-06-27T12:24:31.183361+05:30
Ayodhya,Uttar Pradesh,26.7922,82.1998,36.1,52,0.0,991.1,8.4,29.2,141,69.8,44.9,2.2,298.0,178.0,8.1,0,5,10,1,2026-06-27T12:24:31.183368+05:30
Ratlam,Madhya Pradesh,23.3315,75.0367,34.0,50,0.0,952.9,8.45,31.0,80,54.8,29.8,1.7,137.0,108.0,8.5,0,5,7,1,2026-06-27T12:24:31.183376+05:30
Sagar,Madhya Pradesh,23.8388,78.7378,34.7,49,0.0,947.9,8.7,36.7,63,39.1,19.7,0.9,164.0,125.0,2.5,0,5,7,1,2026-06-27T12:24:31.183383+05:30
Satna,Madhya Pradesh,24.6005,80.8322,37.6,38,0.0,968.1,8.8,42.1,76,57.4,25.0,1.0,170.0,130.0,3.1,0,5,10,1,2026-06-27T12:24:31.183390+05:30
Akola,Maharashtra,20.7002,77.0082,32.9,57,0.0,972.8,8.25,39.6,79,55.1,27.1,2.0,127.0,109.0,6.0,0,5,7,1,2026-06-27T12:24:31.183398+05:30
Amravati,Maharashtra,20.9374,77.7796,27.1,84,0.0,965.0,8.4,37.4,75,37.1,20.6,3.0,170.0,103.0,6.2,7,5,7,1,2026-06-27T12:24:31.183406+05:30
Latur,Maharashtra,18.4088,76.5604,29.2,59,0.0,938.7,7.0,28.1,83,48.7,21.9,1.3,136.0,98.0,5.3,4,5,7,1,2026-06-27T12:24:31.183413+05:30
Nanded,Maharashtra,19.1383,77.3091,29.6,62,0.0,967.1,4.9,40.0,90,61.0,31.2,1.9,155.0,114.0,5.4,7,5,3,1,2026-06-27T12:24:31.183421+05:30
Gulbarga,Karnataka,17.3297,76.8343,32.7,52,0.0,957.3,5.7,31.7,55,34.9,17.6,1.8,131.0,113.0,5.0,0,5,3,1,2026-06-27T12:24:31.183428+05:30
Bidar,Karnataka,17.9104,77.5199,30.2,59,0.0,934.0,4.45,34.2,85,54.4,28.4,2.3,161.0,111.0,5.4,0,5,3,1,2026-06-27T12:24:31.183435+05:30
Hospet,Karnataka,15.2689,76.3909,31.3,51,0.0,954.9,7.5,52.9,29,12.5,5.9,1.4,117.0,65.0,1.9,0,5,7,1,2026-06-27T12:24:31.183442+05:30
Tirupur,Tamil Nadu,11.1085,77.3411,35.3,36,0.0,974.3,8.85,44.6,53,21.4,12.1,1.9,147.0,97.0,2.7,0,5,10,1,2026-06-27T12:24:31.183449+05:30
Alappuzha,Kerala,9.4981,76.3388,29.0,77,0.0,1009.6,8.5,35.6,50,14.6,9.6,2.4,88.0,82.0,3.0,7,0,4,1,2026-06-27T12:24:31.183456+05:30
Munnar,Kerala,10.0889,77.0595,20.9,79,0.1,858.0,9.05,31.3,26,7.6,4.2,0.8,90.0,65.0,0.9,6,5,7,1,2026-06-27T12:24:31.183463+05:30
Silchar,Assam,24.8333,92.7789,31.4,74,0.0,1001.2,8.75,29.9,85,14.3,11.4,1.5,152.0,87.0,2.4,3,5,4,1,2026-06-27T12:24:31.183470+05:30
Dibrugarh,Assam,27.4728,94.912,31.5,72,0.0,990.3,7.9,30.2,74,20.7,17.2,1.5,258.0,132.0,2.8,3,5,7,1,2026-06-27T12:24:31.183477+05:30
