city,state,latitude,longitude,temp,humidity,rain,pressure,uv_index,wind_gusts,aqi,pm10,pm2_5,no2,co,o3,so2,mosquito_risk,arthritis_risk,migraine_risk,frizz_risk,updated_at
Delhi,Delhi,28.6139,77.209,30.0,47,0.0,978.4,7.8,38.2,168,239.3,99.0,66.2,457.0,18.0,30.3,4,5,7,1,2026-06-07T05:36:47.995506+05:30
Mumbai,Maharashtra,19.076,72.8777,30.2,73,0.0,1005.9,7.6,40.0,75,62.6,24.0,8.2,163.0,45.0,7.1,3,5,4,1,2026-06-07T05:36:47.995551+05:30
Bangalore,Karnataka,12.9716,77.5946,20.6,96,0.0,910.4,8.25,37.4,21,4.0,3.9,10.9,216.0,26.0,4.7,3,5,7,1,2026-06-07T05:36:47.995567+05:30
Hyderabad,Telangana,17.385,78.4867,26.2,78,0.0,951.1,4.05,38.5,85,20.0,15.3,8.7,225.0,78.0,5.1,7,5,3,1,2026-06-07T05:36:47.995576+05:30
Chennai,Tamil Nadu,13.0827,80.2707,30.4,54,0.0,1005.0,7.2,46.4,52,9.2,8.6,16.4,298.0,31.0,9.2,0,5,4,1,2026-06-07T05:36:47.995584+05:30
Kolkata,West Bengal,22.5726,88.3639,27.9,95,0.0,1001.5,6.6,28.4,136,62.4,56.7,22.3,524.0,54.0,11.2,7,5,4,1,2026-06-07T05:36:47.995592+05:30
Pune,Maharashtra,18.5204,73.8567,24.4,89,0.0,946.3,8.3,49.3,55,31.0,15.4,8.2,122.0,40.0,7.0,3,5,7,1,2026-06-07T05:36:47.995598+05:30
Ahmedabad,Gujarat,23.0225,72.5714,30.4,70,0.0,999.5,8.05,40.3,85,39.2,19.7,4.8,127.0,45.0,4.5,3,5,7,1,2026-06-07T05:36:47.995605+05:30
Jaipur,Rajasthan,26.9124,75.7873,29.2,51,0.0,956.0,8.25,34.9,128,201.2,46.1,4.4,212.0,67.0,3.8,4,5,7,1,2026-06-07T05:36:47.995616+05:30
Lucknow,Uttar Pradesh,26.8467,80.9462,28.6,71,0.0,989.5,8.35,35.6,156,85.7,71.7,35.6,522.0,35.0,12.8,7,5,7,1,2026-06-07T05:36:47.995623+05:30
Kanpur,Uttar Pradesh,26.4499,80.3319,30.1,61,0.0,987.3,8.35,34.2,196,177.0,72.6,40.2,512.0,30.0,9.6,3,5,7,1,2026-06-07T05:36:47.995629+05:30
Chandigarh,Chandigarh,30.7333,76.7794,23.7,58,0.0,964.0,7.8,27.0,95,40.2,34.5,37.5,404.0,12.0,5.2,0,5,7,0,2026-06-07T05:36:47.995636+05:30
Srinagar,Jammu and Kashmir,34.0837,74.7973,12.2,100,0.0,839.3,9.0,29.9,78,43.2,39.2,24.8,336.0,15.0,0.7,3,10,7,0,2026-06-07T05:36:47.995643+05:30
Jammu,Jammu and Kashmir,32.7266,74.857,22.2,62,0.0,966.9,8.6,30.2,72,29.0,27.3,23.5,236.0,28.0,1.5,3,5,7,0,2026-06-07T05:36:47.995649+05:30
Amritsar,Punjab,31.634,74.8723,27.2,47,0.0,975.4,8.5,25.9,133,72.4,66.6,44.9,703.0,22.0,6.2,4,5,7,0,2026-06-07T05:36:47.995658+05:30
Ludhiana,Punjab,30.901,75.8573,28.0,47,0.0,973.5,8.05,30.2,151,114.6,81.5,56.3,1011.0,34.0,13.0,4,5,7,0,2026-06-07T05:36:47.995670+05:30
Jalandhar,Punjab,31.326,75.5762,28.1,47,0.0,974.6,8.25,28.4,149,95.7,87.5,69.7,640.0,15.0,10.4,4,5,7,0,2026-06-07T05:36:47.995677+05:30
Dehradun,Uttarakhand,30.6284,78.0322,13.3,88,0.0,826.2,8.25,41.8,57,11.5,9.2,14.7,240.0,35.0,0.0,3,10,7,0,2026-06-07T05:36:47.995683+05:30
Shimla,Himachal Pradesh,31.1048,77.1734,11.0,62,0.0,779.4,8.35,39.2,59,23.1,18.4,23.6,185.0,26.0,0.7,3,5,7,0,2026-06-07T05:36:47.995691+05:30
Manali,Himachal Pradesh,32.2396,77.1887,11.1,63,0.0,813.5,8.95,35.3,43,6.4,4.4,10.9,178.0,132.0,0.0,3,5,7,0,2026-06-07T05:36:47.995697+05:30
Gurgaon,Haryana,28.4595,77.0266,28.5,53,0.0,976.7,7.9,29.9,188,172.8,84.5,67.7,357.0,5.0,24.3,4,5,7,1,2026-06-07T05:36:47.995703+05:30
Noida,Uttar Pradesh,28.5355,77.391,28.7,56,0.0,979.7,7.85,33.8,188,172.8,84.5,67.7,463.0,5.0,24.3,4,5,7,1,2026-06-07T05:36:47.995709+05:30
Ghaziabad,Uttar Pradesh,28.6692,77.4538,28.4,59,0.0,978.1,7.8,29.5,174,210.0,115.0,71.3,893.0,11.0,17.0,4,5,7,1,2026-06-07T05:36:47.995715+05:30
Faridabad,Haryana,28.4089,77.3178,29.8,48,0.0,979.1,7.85,36.0,188,172.8,84.5,67.7,390.0,5.0,24.3,4,5,7,1,2026-06-07T05:36:47.995721+05:30
Meerut,Uttar Pradesh,28.9845,77.7064,26.3,68,0.0,977.2,7.7,31.7,174,210.0,115.0,71.3,858.0,11.0,17.0,7,5,7,1,2026-06-07T05:36:47.995727+05:30
Agra,Uttar Pradesh,27.1767,78.0081,28.5,48,0.0,983.2,8.15,33.1,271,230.5,56.1,22.7,624.0,34.0,5.6,4,5,7,1,2026-06-07T05:36:47.995733+05:30
Varanasi,Uttar Pradesh,25.3176,82.9739,28.7,71,0.0,993.4,8.75,36.0,154,76.8,56.6,25.6,760.0,35.0,9.2,7,5,7,1,2026-06-07T05:36:47.995740+05:30
Prayagraj,Uttar Pradesh,25.4358,81.8463,29.6,59,0.0,991.5,8.7,37.4,159,142.0,86.8,48.3,385.0,17.0,16.3,4,5,7,1,2026-06-07T05:36:47.995746+05:30
Gorakhpur,Uttar Pradesh,26.7606,83.3732,26.5,84,0.0,994.2,8.7,24.8,155,51.5,44.6,18.8,524.0,71.0,6.2,7,5,7,1,2026-06-07T05:36:47.995754+05:30
Bareilly,Uttar Pradesh,28.367,79.4304,26.4,78,0.0,983.0,8.15,33.5,133,74.0,50.4,21.7,739.0,48.0,4.7,7,5,7,1,2026-06-07T05:36:47.995760+05:30
Aligarh,Uttar Pradesh,27.8974,78.088,26.6,65,0.0,981.0,8.0,25.9,187,141.1,71.7,56.3,712.0,10.0,10.6,7,5,7,1,2026-06-07T05:36:47.995766+05:30
Moradabad,Uttar Pradesh,28.8386,78.7733,27.3,65,0.0,979.7,7.95,37.8,159,59.1,50.6,25.6,883.0,47.0,8.2,7,5,7,1,2026-06-07T05:36:47.995772+05:30
Saharanpur,Uttar Pradesh,29.9637,77.546,24.8,74,0.0,971.2,7.5,28.8,119,62.4,53.8,39.2,639.0,30.0,9.3,3,5,7,1,2026-06-07T05:36:47.995779+05:30
Jhansi,Uttar Pradesh,25.4484,78.5685,28.4,54,0.0,974.2,8.5,40.7,81,63.8,32.7,5.9,168.0,57.0,1.9,4,5,7,1,2026-06-07T05:36:51.325007+05:30
Surat,Gujarat,21.1702,72.8311,29.2,86,0.0,1004.3,7.15,45.7,92,67.3,29.5,19.4,280.0,33.0,33.2,7,5,4,1,2026-06-07T05:36:51.325072+05:30
Vadodara,Gujarat,22.3072,73.1812,29.9,76,0.0,1002.0,7.35,45.4,90,42.8,24.9,10.3,117.0,34.0,8.9,7,5,4,1,2026-06-07T05:36:51.325088+05:30
Rajkot,Gujarat,22.3039,70.8022,27.7,82,0.0,991.4,6.85,47.2,79,31.9,13.6,4.5,104.0,45.0,4.4,7,5,7,1,2026-06-07T05:36:51.325097+05:30
Thane,Maharashtra,19.2183,72.9781,29.9,73,0.0,1005.4,7.55,37.8,75,62.6,24.0,8.2,142.0,45.0,7.1,7,5,4,1,2026-06-07T05:36:51.325106+05:30
Nagpur,Maharashtra,21.1458,79.0882,31.1,44,0.0,969.8,8.2,47.2,83,63.6,38.8,11.7,228.0,63.0,10.8,0,5,7,1,2026-06-07T05:36:51.325114+05:30
Nashik,Maharashtra,19.9975,73.7898,24.4,89,0.0,943.4,8.05,40.3,61,37.4,17.0,7.2,132.0,41.0,6.0,3,5,7,1,2026-06-07T05:36:51.325122+05:30
Aurangabad,Maharashtra,19.8762,75.3433,26.3,72,0.0,942.5,9.0,44.3,64,26.4,14.2,8.1,130.0,41.0,5.8,7,5,7,1,2026-06-07T05:36:51.325130+05:30
Solapur,Maharashtra,17.6599,75.9064,27.2,74,0.0,955.9,8.5,38.9,63,18.3,12.6,9.1,137.0,39.0,4.4,7,5,7,1,2026-06-07T05:36:51.325137+05:30
Kolhapur,Maharashtra,16.705,74.2433,23.9,91,0.0,946.8,4.75,45.4,41,11.4,6.8,3.9,110.0,43.0,1.2,3,5,3,1,2026-06-07T05:36:51.325144+05:30
Goa,Goa,15.2993,74.124,24.9,98,0.0,997.0,2.65,26.3,41,18.9,12.9,5.3,202.0,47.0,1.2,3,5,3,1,2026-06-07T05:36:51.325151+05:30
Jodhpur,Rajasthan,26.2389,73.0243,30.4,60,0.0,979.1,8.45,39.6,130,266.4,64.5,2.7,125.0,60.0,3.2,0,5,7,1,2026-06-07T05:36:51.325159+05:30
Udaipur,Rajasthan,24.5854,73.7125,26.8,66,0.0,943.5,8.8,34.6,86,38.8,24.9,7.6,148.0,45.0,5.0,7,5,7,1,2026-06-07T05:36:51.325166+05:30
Kota,Rajasthan,25.2138,75.8648,30.1,57,0.0,975.0,8.4,33.1,101,51.9,28.2,6.8,175.0,60.0,4.9,0,5,7,1,2026-06-07T05:36:51.325173+05:30
Bikaner,Rajasthan,28.0229,73.3119,32.0,49,0.0,976.3,8.45,36.7,114,158.3,56.9,2.5,130.0,58.0,3.5,0,5,7,1,2026-06-07T05:36:51.325181+05:30
Ajmer,Rajasthan,26.4499,74.6399,28.5,62,0.0,951.2,8.35,43.2,95,42.8,21.8,4.4,171.0,67.0,3.8,7,5,7,1,2026-06-07T05:36:51.325188+05:30
Gwalior,Madhya Pradesh,26.2183,78.1828,28.3,51,0.0,979.0,8.3,34.2,89,85.4,33.8,6.8,159.0,58.0,2.5,4,5,7,1,2026-06-07T05:36:51.325196+05:30
Indore,Madhya Pradesh,22.7196,75.8577,26.0,75,0.0,945.7,8.65,35.6,92,60.5,35.4,7.8,266.0,62.0,12.4,7,5,7,1,2026-06-07T05:36:51.325203+05:30
Bhopal,Madhya Pradesh,23.2599,77.4126,27.7,63,0.0,950.9,8.7,30.6,97,58.8,35.2,6.8,203.0,67.0,4.1,7,5,7,1,2026-06-07T05:36:51.325210+05:30
Jabalpur,Madhya Pradesh,23.1815,79.9864,27.5,60,0.0,958.4,8.85,34.6,106,50.6,33.4,13.8,239.0,56.0,4.9,4,5,7,1,2026-06-07T05:36:51.325217+05:30
Ujjain,Madhya Pradesh,23.1765,75.7885,26.1,78,0.0,951.3,8.6,35.6,88,61.5,34.3,7.0,240.0,51.0,12.9,7,5,7,1,2026-06-07T05:36:51.325225+05:30
Visakhapatnam,Andhra Pradesh,17.6868,83.2185,29.6,78,0.0,999.5,8.3,42.1,105,27.9,23.9,16.7,338.0,77.0,30.5,7,5,7,1,2026-06-07T05:36:51.325232+05:30
Vijayawada,Andhra Pradesh,16.5062,80.648,30.7,60,0.0,998.8,8.95,36.0,83,28.0,23.6,9.2,251.0,72.0,4.8,0,5,7,1,2026-06-07T05:36:51.325238+05:30
Guntur,Andhra Pradesh,16.3067,80.4365,29.7,61,0.0,1000.2,8.6,32.4,85,27.4,23.1,8.9,231.0,72.0,6.6,7,5,4,1,2026-06-07T05:36:51.325245+05:30
Nellore,Andhra Pradesh,14.4426,79.9865,28.5,70,0.0,1003.2,8.45,39.2,57,12.5,10.1,8.2,172.0,55.0,5.8,7,5,4,1,2026-06-07T05:36:51.325254+05:30
Kurnool,Andhra Pradesh,15.8281,78.0373,25.5,90,0.0,975.5,8.4,38.9,67,11.6,10.1,12.0,170.0,53.0,4.1,7,5,7,1,2026-06-07T05:36:51.325262+05:30
Kakinada,Andhra Pradesh,16.9891,82.2475,29.2,81,0.0,1003.4,8.2,38.9,74,25.6,19.0,3.1,266.0,102.0,3.8,7,5,4,1,2026-06-07T05:36:51.325269+05:30
Tirupati,Andhra Pradesh,13.6288,79.4192,27.5,71,0.0,989.1,8.85,35.3,41,10.6,9.7,15.2,162.0,29.0,3.0,7,5,7,1,2026-06-07T05:36:51.325276+05:30
Warangal,Telangana,17.9689,79.5941,29.4,60,0.0,975.3,7.95,36.0,93,28.8,21.9,6.8,206.0,88.0,4.4,4,5,7,1,2026-06-07T05:36:51.325283+05:30
Nizamabad,Telangana,18.6725,78.0941,29.2,61,0.0,962.0,8.8,38.5,84,38.1,27.4,11.2,213.0,63.0,4.5,7,5,7,1,2026-06-07T05:36:51.325289+05:30
Mysore,Karnataka,12.2958,76.6396,21.2,98,0.1,927.2,7.35,36.0,15,2.9,2.9,7.0,162.0,31.0,1.8,6,5,7,1,2026-06-07T05:36:51.325296+05:30
Mangalore,Karnataka,12.9141,74.856,24.8,97,0.1,1006.5,2.0,27.7,22,6.0,5.6,8.2,160.0,28.0,1.7,6,5,0,1,2026-06-07T05:36:51.325303+05:30
Hubli-Dharwad,Karnataka,15.3647,75.124,23.0,97,0.0,939.7,2.05,43.2,26,3.5,2.5,3.3,118.0,53.0,1.0,3,5,3,1,2026-06-07T05:36:51.325312+05:30
Belgaum,Karnataka,15.8497,74.4977,23.0,94,0.0,924.6,8.15,37.8,26,7.7,4.9,2.8,117.0,50.0,0.9,3,5,7,1,2026-06-07T05:36:54.667087+05:30
Coimbatore,Tamil Nadu,11.0168,76.9558,23.4,91,0.0,961.3,6.1,58.7,16,2.0,1.7,5.2,127.0,33.0,2.3,3,5,7,1,2026-06-07T05:36:54.667125+05:30
Madurai,Tamil Nadu,9.9252,78.1198,28.4,66,0.0,992.9,8.55,65.9,29,8.0,5.4,6.7,152.0,32.0,3.1,7,5,7,1,2026-06-07T05:36:54.667137+05:30
Trichy,Tamil Nadu,10.7905,78.7047,28.2,66,0.0,999.3,8.4,43.2,32,7.9,6.0,9.3,123.0,27.0,3.2,7,5,7,1,2026-06-07T05:36:54.667146+05:30
Salem,Tamil Nadu,11.6643,78.146,25.3,80,0.0,977.1,8.7,47.5,36,12.1,9.3,13.9,169.0,24.0,6.5,7,5,7,1,2026-06-07T05:36:54.667156+05:30
Tirunelveli,Tamil Nadu,8.7139,77.7567,26.9,81,0.0,1004.2,7.85,49.0,19,3.4,2.6,4.9,148.0,30.0,1.4,7,5,4,1,2026-06-07T05:36:54.667164+05:30
Vellore,Tamil Nadu,12.9165,79.1325,27.8,64,0.0,982.9,8.1,40.3,27,4.1,3.8,7.9,158.0,34.0,3.1,7,5,7,1,2026-06-07T05:36:54.667172+05:30
Erode,Tamil Nadu,11.341,77.7172,25.7,78,0.0,988.8,8.05,52.9,28,7.6,6.0,9.7,130.0,27.0,3.2,7,5,7,1,2026-06-07T05:36:54.667180+05:30
Kochi,Kerala,9.9312,76.2673,25.5,91,0.2,1009.9,7.5,46.1,42,8.2,5.4,5.6,90.0,32.0,1.6,10,0,4,1,2026-06-07T05:36:54.667187+05:30
Thiruvananthapuram,Kerala,8.5241,76.9366,24.8,95,0.2,1010.0,7.35,48.2,30,11.7,5.6,1.6,95.0,44.0,0.4,6,0,4,1,2026-06-07T05:36:54.667194+05:30
Kozhikode,Kerala,11.2588,75.7804,24.4,97,1.2,1008.2,4.65,24.8,24,5.6,2.8,0.7,140.0,59.0,0.2,6,0,0,1,2026-06-07T05:36:54.667200+05:30
Thrissur,Kerala,10.5276,76.2144,24.5,98,0.3,1007.7,7.05,40.7,42,7.4,5.5,6.9,170.0,29.0,1.8,6,5,4,1,2026-06-07T05:36:54.667208+05:30
Kannur,Kerala,11.8745,75.3704,24.0,99,0.2,1007.6,4.65,26.6,19,3.0,2.2,3.6,173.0,43.0,1.0,6,5,0,1,2026-06-07T05:36:54.667215+05:30
Patna,Bihar,25.5941,85.1376,26.6,94,0.0,996.8,8.75,27.4,156,73.6,66.4,20.1,431.0,71.0,11.9,7,5,7,1,2026-06-07T05:36:54.667222+05:30
Gaya,Bihar,24.7914,85.0002,28.0,81,0.0,989.8,8.4,25.9,156,69.8,60.3,15.7,404.0,66.0,7.6,7,5,7,1,2026-06-07T05:36:54.667228+05:30
Muzaffarpur,Bihar,26.1209,85.3647,25.7,91,0.0,997.0,8.85,36.4,154,65.4,61.5,17.7,492.0,69.0,10.7,7,5,7,1,2026-06-07T05:36:54.667235+05:30
Bhagalpur,Bihar,25.2425,87.0117,26.4,94,0.0,997.3,8.85,34.6,154,65.9,58.8,10.8,371.0,94.0,8.8,7,5,7,1,2026-06-07T05:36:54.667241+05:30
Ranchi,Jharkhand,23.3441,85.3096,24.5,82,0.0,934.0,9.0,35.3,140,71.0,59.4,14.8,375.0,80.0,7.8,3,5,7,1,2026-06-07T05:36:54.667248+05:30
Jamshedpur,Jharkhand,22.8046,86.2029,27.8,90,0.0,986.8,9.1,31.7,161,107.8,95.5,27.3,473.0,68.0,39.2,7,5,7,1,2026-06-07T05:36:54.667254+05:30
Dhanbad,Jharkhand,23.7957,86.4304,27.5,94,0.0,976.0,8.4,52.6,176,138.8,129.0,60.4,330.0,36.0,150.9,7,5,7,1,2026-06-07T05:36:54.667261+05:30
Bokaro,Jharkhand,23.6693,86.1511,27.5,95,0.0,979.8,8.65,37.8,164,110.8,97.1,42.1,292.0,67.0,115.6,7,5,7,1,2026-06-07T05:36:54.667268+05:30
Bhubaneswar,Odisha,20.2961,85.8245,27.6,96,0.0,997.8,9.1,28.1,131,68.9,64.0,22.1,328.0,60.0,8.7,7,5,7,1,2026-06-07T05:36:54.667275+05:30
Cuttack,Odisha,20.4625,85.8828,28.0,94,0.0,999.7,9.2,33.5,131,68.9,64.0,22.1,443.0,60.0,8.7,7,5,7,1,2026-06-07T05:36:54.667282+05:30
Rourkela,Odisha,22.2604,84.8536,26.7,93,0.0,981.0,8.7,28.1,152,94.8,78.7,23.0,449.0,80.0,20.0,7,5,7,1,2026-06-07T05:36:54.667289+05:30
Raipur,Chhattisgarh,21.2514,81.6296,30.1,52,0.0,970.9,8.6,34.6,116,90.3,61.7,42.0,454.0,24.0,43.9,0,5,7,1,2026-06-07T05:36:54.667295+05:30
Bhilai,Chhattisgarh,21.1938,81.3509,29.1,59,0.0,971.4,8.8,33.5,111,103.8,68.0,51.4,485.0,8.0,53.9,4,5,7,1,2026-06-07T05:36:54.667302+05:30
Guwahati,Assam,26.1158,91.7086,25.1,96,0.1,998.2,8.8,31.0,91,49.6,45.2,10.8,358.0,51.0,3.0,10,5,7,1,2026-06-07T05:36:54.667309+05:30
Agartala,Tripura,23.8315,91.2868,25.2,98,0.1,1003.2,6.85,27.4,141,29.9,27.2,12.4,200.0,58.0,1.7,10,5,4,1,2026-06-07T05:36:54.667316+05:30
Shillong,Meghalaya,25.5788,91.8933,19.3,91,0.0,854.7,9.1,24.5,83,44.9,40.5,6.1,259.0,87.0,3.2,3,10,7,1,2026-06-07T05:36:54.667322+05:30
Imphal,Manipur,24.817,93.9368,23.2,92,0.1,920.8,9.0,31.0,102,38.3,36.3,10.7,277.0,38.0,2.4,6,5,7,1,2026-06-07T05:36:54.667329+05:30
Aizawl,Mizoram,23.7271,92.7176,19.3,95,0.0,889.9,9.1,29.9,105,37.3,33.9,7.5,214.0,32.0,2.2,3,10,7,1,2026-06-07T05:36:54.667335+05:30
Kohima,Nagaland,25.6701,94.1077,18.1,99,0.0,852.3,9.25,33.5,70,26.1,23.7,7.4,231.0,29.0,0.8,3,10,7,1,2026-06-07T05:36:54.667342+05:30
Gangtok,Sikkim,27.3314,88.6138,16.8,94,0.2,835.0,8.7,38.9,74,25.8,21.5,8.9,479.0,100.0,3.0,6,10,7,0,2026-06-07T05:36:54.667349+05:30
Siliguri,West Bengal,26.7271,88.3953,24.6,93,0.0,989.5,8.7,20.9,130,75.2,64.0,17.7,429.0,90.0,6.6,3,5,7,1,2026-06-07T05:36:58.008025+05:30
Durgapur,West Bengal,23.5204,87.3119,27.1,95,0.0,990.9,9.0,24.5,167,136.4,129.9,46.4,678.0,31.0,71.6,7,5,7,1,2026-06-07T05:36:58.008079+05:30
Asansol,West Bengal,23.6739,86.9524,27.2,95,0.0,989.5,8.7,29.2,168,125.7,118.7,48.8,623.0,32.0,76.6,7,5,7,1,2026-06-07T05:36:58.008091+05:30
Pondicherry,Puducherry,11.9139,79.8145,28.7,64,0.0,1007.0,7.8,53.3,57,20.5,14.4,17.2,197.0,24.0,10.1,7,5,4,1,2026-06-07T05:36:58.008100+05:30
Port Blair,Andaman and Nicobar Islands,11.6234,92.7265,25.9,97,0.0,1007.0,6.75,40.7,25,8.7,5.0,0.3,102.0,58.0,0.4,7,5,4,1,2026-06-07T05:36:58.008108+05:30
Haridwar,Uttarakhand,29.9457,78.1642,23.4,81,0.0,969.8,7.65,23.0,99,37.8,33.5,31.8,314.0,32.0,5.3,3,5,7,1,2026-06-07T05:36:58.008116+05:30
Rishikesh,Uttarakhand,30.0869,78.2676,20.8,86,0.0,962.4,7.75,27.4,78,24.1,22.4,15.7,344.0,69.0,3.8,3,5,7,1,2026-06-07T05:36:58.008125+05:30
Nainital,Uttarakhand,29.3919,79.4542,13.9,81,0.0,802.8,8.6,43.9,89,40.4,31.3,28.6,303.0,47.0,2.9,3,10,7,0,2026-06-07T05:36:58.008132+05:30
Mussoorie,Uttarakhand,30.4599,78.0664,15.0,76,0.0,800.4,8.15,47.9,84,28.6,25.0,29.0,230.0,33.0,3.8,3,5,7,0,2026-06-07T05:36:58.008140+05:30
Dharamshala,Himachal Pradesh,32.219,76.3234,22.4,45,0.0,866.5,8.5,40.3,50,14.5,11.2,10.0,192.0,63.0,0.1,0,5,7,0,2026-06-07T05:36:58.008148+05:30
Dalhousie,Himachal Pradesh,32.5387,75.971,11.3,74,0.0,798.8,8.75,38.2,73,24.7,21.7,25.2,243.0,26.0,0.5,3,5,7,0,2026-06-07T05:36:58.008156+05:30
Patiala,Punjab,30.3398,76.3869,27.9,44,0.0,973.3,7.7,28.1,154,110.6,70.5,31.4,929.0,53.0,11.5,4,5,7,0,2026-06-07T05:36:58.008163+05:30
Bhatinda,Punjab,30.211,74.9455,29.7,49,0.0,978.1,8.35,24.1,151,157.9,73.6,49.4,297.0,31.0,10.6,4,5,7,1,2026-06-07T05:36:58.008170+05:30
Rohtak,Haryana,28.8955,76.6066,27.2,63,0.0,976.9,7.8,28.4,165,310.1,101.3,64.2,388.0,13.0,16.9,7,5,7,1,2026-06-07T05:36:58.008177+05:30
Panipat,Haryana,29.3909,76.9635,27.2,64,0.0,975.4,7.65,32.8,368,242.1,93.8,36.3,489.0,26.0,6.9,7,5,7,1,2026-06-07T05:36:58.008184+05:30
Mathura,Uttar Pradesh,27.4924,77.6737,26.8,61,0.0,982.0,8.1,25.6,162,225.8,54.2,24.9,382.0,30.0,3.9,7,5,7,1,2026-06-07T05:36:58.008190+05:30
Vrindavan,Uttar Pradesh,27.5823,77.7027,26.8,60,0.0,982.5,8.05,29.5,162,225.8,54.2,24.9,360.0,30.0,3.9,4,5,7,1,2026-06-07T05:36:58.008198+05:30
Ayodhya,Uttar Pradesh,26.7922,82.1998,27.4,79,0.0,991.8,8.4,25.2,153,63.3,48.4,14.7,758.0,77.0,7.4,7,5,7,1,2026-06-07T05:36:58.008205+05:30
Ratlam,Madhya Pradesh,23.3315,75.0367,26.1,84,0.0,952.5,8.4,40.3,87,57.2,31.0,8.3,179.0,41.0,13.5,7,5,7,1,2026-06-07T05:36:58.008212+05:30
Sagar,Madhya Pradesh,23.8388,78.7378,27.5,59,0.0,947.3,8.2,35.6,76,70.1,37.4,5.8,190.0,84.0,3.8,4,5,7,1,2026-06-07T05:36:58.008219+05:30
Satna,Madhya Pradesh,24.6005,80.8322,28.0,58,0.0,967.5,8.8,36.7,150,113.6,55.4,35.2,244.0,26.0,6.0,4,5,7,1,2026-06-07T05:36:58.008226+05:30
Akola,Maharashtra,20.7002,77.0082,26.0,82,0.0,973.0,8.8,40.3,83,43.2,26.7,9.4,207.0,65.0,5.8,7,5,7,1,2026-06-07T05:36:58.008233+05:30
Amravati,Maharashtra,20.9374,77.7796,25.9,80,0.0,964.5,8.85,40.7,88,49.9,29.2,7.9,179.0,77.0,3.8,7,5,7,1,2026-06-07T05:36:58.008242+05:30
Latur,Maharashtra,18.4088,76.5604,26.4,72,0.0,937.9,7.9,44.3,77,31.1,23.1,9.8,182.0,64.0,8.2,7,5,7,1,2026-06-07T05:36:58.008249+05:30
Nanded,Maharashtra,19.1383,77.3091,30.0,52,0.0,966.5,8.9,42.8,82,45.5,27.0,9.4,157.0,72.0,3.0,4,5,7,1,2026-06-07T05:36:58.008256+05:30
Gulbarga,Karnataka,17.3297,76.8343,26.8,75,0.0,957.2,6.9,35.6,64,16.1,10.8,10.6,159.0,42.0,2.7,7,5,7,1,2026-06-07T05:36:58.008263+05:30
Bidar,Karnataka,17.9104,77.5199,26.6,73,0.0,933.4,7.15,34.6,83,18.5,13.9,9.6,185.0,60.0,2.3,7,5,7,1,2026-06-07T05:36:58.008270+05:30
Hospet,Karnataka,15.2689,76.3909,23.8,90,0.0,955.3,5.0,53.6,31,4.7,3.9,6.5,146.0,50.0,1.5,3,5,3,1,2026-06-07T05:36:58.008276+05:30
Tirupur,Tamil Nadu,11.1085,77.3411,25.2,81,0.0,975.0,8.2,61.9,29,8.1,6.5,11.3,105.0,25.0,3.8,7,5,7,1,2026-06-07T05:36:58.008283+05:30
Alappuzha,Kerala,9.4981,76.3388,25.6,94,0.0,1010.2,7.15,47.9,36,9.0,4.7,4.4,85.0,40.0,0.9,7,0,4,1,2026-06-07T05:36:58.008290+05:30
Munnar,Kerala,10.0889,77.0595,17.3,100,0.6,856.4,1.1,47.2,16,1.1,1.1,4.5,90.0,28.0,1.6,6,10,3,1,2026-06-07T05:36:58.008297+05:30
Silchar,Assam,24.8333,92.7789,25.7,95,0.1,1002.3,8.25,24.1,135,46.9,42.8,11.2,278.0,71.0,3.7,10,5,4,1,2026-06-07T05:36:58.008303+05:30
Dibrugarh,Assam,27.4728,94.912,25.2,94,0.0,992.0,8.3,22.7,94,16.8,15.1,6.9,300.0,73.0,0.8,7,5,7,1,2026-06-07T05:36:58.008309+05:30
