city,state,latitude,longitude,temp,humidity,rain,pressure,uv_index,wind_gusts,aqi,pm10,pm2_5,mosquito_risk,arthritis_risk,migraine_risk,frizz_risk,updated_at
Delhi,Delhi,28.6139,77.209,32.7,34,0.0,981.4,6.65,19.8,197,356.7,73.3,0,5,7,0,2026-04-18T21:09:50.601376+05:30
Mumbai,Maharashtra,19.076,72.8777,30.4,71,0.0,1007.7,7.75,22.7,110,43.8,29.2,3,5,4,1,2026-04-18T21:09:50.601415+05:30
Bangalore,Karnataka,12.9716,77.5946,28.9,37,0.0,912.3,9.0,35.3,126,24.9,22.5,4,5,7,0,2026-04-18T21:09:50.601432+05:30
Hyderabad,Telangana,17.385,78.4867,30.2,46,0.0,953.9,9.25,38.5,141,53.4,47.0,0,5,7,1,2026-04-18T21:09:50.601443+05:30
Chennai,Tamil Nadu,13.0827,80.2707,28.9,80,0.0,1007.6,8.55,32.0,40,11.5,7.1,7,5,4,1,2026-04-18T21:09:50.601452+05:30
Kolkata,West Bengal,22.5726,88.3639,28.2,86,0.0,1005.6,8.85,24.1,77,27.6,22.4,7,5,4,1,2026-04-18T21:09:50.601465+05:30
Pune,Maharashtra,18.5204,73.8567,30.7,56,0.0,948.9,8.45,45.0,164,54.4,46.6,0,5,7,1,2026-04-18T21:09:50.601474+05:30
Ahmedabad,Gujarat,23.0225,72.5714,33.2,22,0.0,1001.1,8.15,27.7,63,45.3,29.9,0,5,4,0,2026-04-18T21:09:50.601482+05:30
Jaipur,Rajasthan,26.9124,75.7873,33.2,20,0.0,959.0,7.95,28.1,224,171.8,40.6,0,5,7,0,2026-04-18T21:09:50.601490+05:30
Lucknow,Uttar Pradesh,26.8467,80.9462,31.5,44,0.0,991.1,7.85,32.0,117,188.6,48.1,0,5,7,1,2026-04-18T21:09:50.601498+05:30
Kanpur,Uttar Pradesh,26.4499,80.3319,29.4,55,0.0,989.5,7.85,27.0,131,327.8,61.9,4,5,7,1,2026-04-18T21:09:50.601506+05:30
Chandigarh,Chandigarh,30.7333,76.7794,25.6,50,0.0,968.1,7.1,29.2,97,48.4,27.1,4,5,7,0,2026-04-18T21:09:50.601513+05:30
Srinagar,Jammu and Kashmir,34.0837,74.7973,12.9,84,0.0,844.7,5.85,30.6,80,42.8,26.0,3,10,3,0,2026-04-18T21:09:50.601521+05:30
Jammu,Jammu and Kashmir,32.7266,74.857,25.1,49,0.0,973.6,7.0,42.5,73,78.7,37.8,4,5,7,0,2026-04-18T21:09:50.601528+05:30
Amritsar,Punjab,31.634,74.8723,26.4,46,0.0,980.9,7.9,43.2,87,51.6,29.7,4,5,7,0,2026-04-18T21:09:50.601534+05:30
Ludhiana,Punjab,30.901,75.8573,29.3,37,0.0,978.4,7.45,32.4,99,68.0,40.3,4,5,7,0,2026-04-18T21:09:50.601543+05:30
Jalandhar,Punjab,31.326,75.5762,27.7,43,0.0,979.8,7.65,42.1,93,84.1,40.0,4,5,7,0,2026-04-18T21:09:50.601550+05:30
Dehradun,Uttarakhand,30.6284,78.0322,17.7,46,0.0,830.9,7.55,46.1,72,31.9,13.3,0,5,7,0,2026-04-18T21:09:50.601556+05:30
Shimla,Himachal Pradesh,31.1048,77.1734,16.6,51,0.0,786.3,7.7,47.9,87,48.9,21.4,0,5,7,0,2026-04-18T21:09:50.601563+05:30
Manali,Himachal Pradesh,32.2396,77.1887,16.8,36,0.0,823.3,8.9,25.2,94,20.0,7.9,0,5,7,0,2026-04-18T21:09:50.601571+05:30
Gurgaon,Haryana,28.4595,77.0266,30.2,49,0.0,979.8,6.9,15.8,475,895.9,120.6,0,5,7,1,2026-04-18T21:09:50.601580+05:30
Noida,Uttar Pradesh,28.5355,77.391,32.1,37,0.0,982.9,6.95,22.0,475,895.9,120.6,0,5,7,0,2026-04-18T21:09:50.601587+05:30
Ghaziabad,Uttar Pradesh,28.6692,77.4538,31.0,43,0.0,981.1,6.65,19.4,160,210.0,62.9,0,5,7,1,2026-04-18T21:09:50.601594+05:30
Faridabad,Haryana,28.4089,77.3178,31.1,40,0.0,982.1,7.25,25.2,475,895.9,120.6,0,5,7,0,2026-04-18T21:09:50.601601+05:30
Meerut,Uttar Pradesh,28.9845,77.7064,28.5,48,0.0,979.8,6.75,20.9,160,210.0,62.9,4,5,7,1,2026-04-18T21:09:50.601608+05:30
Agra,Uttar Pradesh,27.1767,78.0081,30.3,50,0.0,985.8,7.7,16.9,518,237.0,65.4,0,5,7,1,2026-04-18T21:09:50.601617+05:30
Varanasi,Uttar Pradesh,25.3176,82.9739,31.5,38,0.0,994.8,8.25,25.6,147,88.5,46.1,0,5,7,0,2026-04-18T21:09:50.601624+05:30
Prayagraj,Uttar Pradesh,25.4358,81.8463,32.8,38,0.0,993.7,7.85,28.8,139,82.7,37.1,0,5,7,1,2026-04-18T21:09:50.601631+05:30
Gorakhpur,Uttar Pradesh,26.7606,83.3732,30.3,63,0.0,994.8,8.1,28.4,152,44.4,24.1,3,5,7,1,2026-04-18T21:09:50.601641+05:30
Bareilly,Uttar Pradesh,28.367,79.4304,28.7,45,0.0,984.8,7.6,31.0,131,83.6,35.2,4,5,7,0,2026-04-18T21:09:50.601648+05:30
Aligarh,Uttar Pradesh,27.8974,78.088,30.6,38,0.0,983.8,7.35,25.6,252,314.8,75.0,0,5,7,0,2026-04-18T21:09:50.601655+05:30
Moradabad,Uttar Pradesh,28.8386,78.7733,28.4,47,0.0,981.9,7.4,28.8,131,115.7,46.9,4,5,7,0,2026-04-18T21:09:50.601661+05:30
Saharanpur,Uttar Pradesh,29.9637,77.546,26.9,56,0.0,974.5,7.0,23.4,107,116.2,46.8,4,5,7,1,2026-04-18T21:09:50.601668+05:30
Jhansi,Uttar Pradesh,25.4484,78.5685,31.7,38,0.0,976.2,7.85,27.0,136,78.9,29.9,0,5,7,0,2026-04-18T21:09:53.824829+05:30
Surat,Gujarat,21.1702,72.8311,29.3,68,0.0,1006.1,7.8,27.0,112,57.4,47.1,7,5,4,1,2026-04-18T21:09:53.824860+05:30
Vadodara,Gujarat,22.3072,73.1812,32.7,39,0.0,1003.0,8.15,19.4,113,55.6,41.8,0,5,4,1,2026-04-18T21:09:53.824871+05:30
Rajkot,Gujarat,22.3039,70.8022,30.5,28,0.0,994.3,7.8,28.1,84,23.4,12.7,0,5,7,0,2026-04-18T21:09:53.824880+05:30
Thane,Maharashtra,19.2183,72.9781,29.1,70,0.0,1007.2,7.85,33.5,110,43.8,29.2,7,5,4,1,2026-04-18T21:09:53.824888+05:30
Nagpur,Maharashtra,21.1458,79.0882,31.7,39,0.0,971.7,7.6,21.6,158,30.0,27.4,0,5,7,1,2026-04-18T21:09:53.824896+05:30
Nashik,Maharashtra,19.9975,73.7898,29.2,50,0.0,946.3,8.05,29.9,128,31.7,25.2,4,5,7,1,2026-04-18T21:09:53.824904+05:30
Aurangabad,Maharashtra,19.8762,75.3433,31.8,20,0.0,944.5,7.5,36.7,114,18.5,14.7,0,5,7,0,2026-04-18T21:09:53.824911+05:30
Solapur,Maharashtra,17.6599,75.9064,31.1,48,0.0,956.4,7.95,19.8,169,44.0,39.3,0,5,7,1,2026-04-18T21:09:53.824919+05:30
Kolhapur,Maharashtra,16.705,74.2433,26.8,80,0.0,948.6,8.65,44.6,164,40.4,29.7,7,5,7,1,2026-04-18T21:09:53.824974+05:30
Goa,Goa,15.2993,74.124,29.3,76,0.0,997.5,9.0,31.3,76,58.8,27.0,7,5,7,1,2026-04-18T21:09:53.824990+05:30
Jodhpur,Rajasthan,26.2389,73.0243,31.6,25,0.0,982.0,8.15,28.1,99,163.0,23.8,0,5,7,0,2026-04-18T21:09:53.824999+05:30
Udaipur,Rajasthan,24.5854,73.7125,30.9,28,0.0,947.0,8.75,29.5,84,21.9,9.8,0,5,7,0,2026-04-18T21:09:53.825007+05:30
Kota,Rajasthan,25.2138,75.8648,33.4,28,0.0,976.9,8.25,23.0,160,78.7,36.0,0,5,7,0,2026-04-18T21:09:53.825015+05:30
Bikaner,Rajasthan,28.0229,73.3119,34.2,23,0.0,980.4,7.8,29.9,85,40.5,15.5,0,5,7,0,2026-04-18T21:09:53.825023+05:30
Ajmer,Rajasthan,26.4499,74.6399,29.8,30,0.0,954.1,8.15,32.0,77,57.4,19.2,4,5,7,0,2026-04-18T21:09:53.825031+05:30
Gwalior,Madhya Pradesh,26.2183,78.1828,33.5,37,0.0,981.9,7.95,28.4,128,109.9,35.3,0,5,7,1,2026-04-18T21:09:53.825042+05:30
Indore,Madhya Pradesh,22.7196,75.8577,29.1,36,0.0,947.9,8.15,25.6,90,28.5,26.3,4,5,7,0,2026-04-18T21:09:53.825053+05:30
Bhopal,Madhya Pradesh,23.2599,77.4126,31.6,25,0.0,952.8,7.7,24.5,113,24.9,21.9,0,5,7,0,2026-04-18T21:09:53.825060+05:30
Jabalpur,Madhya Pradesh,23.1815,79.9864,30.8,41,0.0,960.0,7.45,24.5,126,21.1,19.2,0,5,7,1,2026-04-18T21:09:53.825068+05:30
Ujjain,Madhya Pradesh,23.1765,75.7885,29.6,37,0.0,953.5,8.5,24.1,78,37.3,34.7,4,5,7,0,2026-04-18T21:09:53.825076+05:30
Visakhapatnam,Andhra Pradesh,17.6868,83.2185,28.1,86,0.0,1004.5,9.15,34.2,61,22.9,15.8,7,5,4,1,2026-04-18T21:09:53.825083+05:30
Vijayawada,Andhra Pradesh,16.5062,80.648,29.5,71,0.0,1002.8,8.8,26.3,57,20.4,16.2,7,5,4,1,2026-04-18T21:09:53.825091+05:30
Guntur,Andhra Pradesh,16.3067,80.4365,28.8,80,0.0,1004.2,8.9,29.5,60,23.1,18.9,7,5,4,1,2026-04-18T21:09:53.825098+05:30
Nellore,Andhra Pradesh,14.4426,79.9865,29.2,71,0.0,1005.7,8.7,32.8,64,11.7,8.6,7,5,4,1,2026-04-18T21:09:53.825107+05:30
Kurnool,Andhra Pradesh,15.8281,78.0373,35.3,33,0.0,975.5,9.2,33.8,132,47.0,40.3,0,5,10,1,2026-04-18T21:09:53.825115+05:30
Kakinada,Andhra Pradesh,16.9891,82.2475,28.7,81,0.0,1008.1,9.1,29.9,52,18.1,11.0,7,0,4,1,2026-04-18T21:09:53.825124+05:30
Tirupati,Andhra Pradesh,13.6288,79.4192,30.5,59,0.0,992.1,9.0,32.0,91,16.9,15.3,0,5,7,1,2026-04-18T21:09:53.825131+05:30
Warangal,Telangana,17.9689,79.5941,33.1,47,0.0,978.0,8.8,26.6,121,39.5,35.5,0,5,7,1,2026-04-18T21:09:53.825139+05:30
Nizamabad,Telangana,18.6725,78.0941,32.5,40,0.0,964.5,8.85,37.8,151,44.0,38.1,0,5,7,1,2026-04-18T21:09:53.825146+05:30
Mysore,Karnataka,12.2958,76.6396,26.9,67,0.0,928.6,9.0,40.3,123,26.7,23.9,7,5,7,1,2026-04-18T21:09:53.825154+05:30
Mangalore,Karnataka,12.9141,74.856,30.6,76,0.0,1006.5,9.1,23.0,63,31.8,17.3,3,5,4,1,2026-04-18T21:09:53.825162+05:30
Hubli-Dharwad,Karnataka,15.3647,75.124,27.7,78,0.0,940.8,9.2,39.2,120,27.9,21.5,7,5,7,1,2026-04-18T21:09:53.825168+05:30
Belgaum,Karnataka,15.8497,74.4977,25.8,86,0.0,925.9,8.85,34.2,135,40.0,26.4,7,5,7,1,2026-04-18T21:09:57.048628+05:30
Coimbatore,Tamil Nadu,11.0168,76.9558,26.9,82,0.0,962.1,9.25,31.3,127,39.2,33.4,7,5,7,1,2026-04-18T21:09:57.048654+05:30
Madurai,Tamil Nadu,9.9252,78.1198,30.0,67,0.0,993.4,9.35,34.2,94,20.4,18.8,7,5,7,1,2026-04-18T21:09:57.048664+05:30
Trichy,Tamil Nadu,10.7905,78.7047,30.0,68,0.0,999.8,9.35,18.4,68,13.2,12.5,7,5,7,1,2026-04-18T21:09:57.048672+05:30
Salem,Tamil Nadu,11.6643,78.146,30.4,55,0.0,977.2,9.25,19.8,106,22.4,18.4,0,5,7,1,2026-04-18T21:09:57.048679+05:30
Tirunelveli,Tamil Nadu,8.7139,77.7567,30.0,67,0.0,1003.2,9.25,50.4,109,22.5,20.1,7,5,4,1,2026-04-18T21:09:57.048687+05:30
Vellore,Tamil Nadu,12.9165,79.1325,28.5,67,0.0,984.9,8.9,25.6,96,25.6,23.9,7,5,7,1,2026-04-18T21:09:57.048694+05:30
Erode,Tamil Nadu,11.341,77.7172,32.9,39,0.0,988.4,9.35,24.8,96,21.8,18.0,0,5,7,1,2026-04-18T21:09:57.048700+05:30
Kochi,Kerala,9.9312,76.2673,29.9,80,0.0,1008.5,9.15,31.3,80,33.1,25.7,7,0,4,1,2026-04-18T21:09:57.048707+05:30
Thiruvananthapuram,Kerala,8.5241,76.9366,29.0,82,0.0,1008.3,9.1,27.0,77,31.2,19.7,7,0,4,1,2026-04-18T21:09:57.048714+05:30
Kozhikode,Kerala,11.2588,75.7804,30.4,80,0.0,1007.5,9.05,33.1,70,24.9,16.6,3,5,4,1,2026-04-18T21:09:57.048721+05:30
Thrissur,Kerala,10.5276,76.2144,29.8,80,0.0,1006.9,8.65,36.4,76,24.9,19.6,7,5,4,1,2026-04-18T21:09:57.048728+05:30
Kannur,Kerala,11.8745,75.3704,30.0,77,0.0,1007.1,8.6,34.6,69,28.5,19.6,7,5,4,1,2026-04-18T21:09:57.048736+05:30
Patna,Bihar,25.5941,85.1376,31.4,66,0.0,998.7,8.6,24.5,156,71.9,49.1,3,5,7,1,2026-04-18T21:09:57.048742+05:30
Gaya,Bihar,24.7914,85.0002,33.4,38,0.0,991.8,8.65,28.4,152,71.0,34.6,0,5,7,1,2026-04-18T21:09:57.048749+05:30
Muzaffarpur,Bihar,26.1209,85.3647,28.9,76,0.0,999.1,8.6,31.0,164,76.4,62.2,7,5,7,1,2026-04-18T21:09:57.048755+05:30
Bhagalpur,Bihar,25.2425,87.0117,28.0,88,0.0,1000.6,8.25,24.8,167,48.1,43.8,7,5,4,1,2026-04-18T21:09:57.048762+05:30
Ranchi,Jharkhand,23.3441,85.3096,31.1,29,0.0,938.2,9.15,42.1,118,56.3,25.9,0,5,7,0,2026-04-18T21:09:57.048769+05:30
Jamshedpur,Jharkhand,22.8046,86.2029,30.3,78,0.0,989.9,8.9,37.1,174,51.8,39.8,3,5,7,1,2026-04-18T21:09:57.048776+05:30
Dhanbad,Jharkhand,23.7957,86.4304,31.1,61,0.0,979.4,8.95,26.6,185,110.4,80.8,3,5,7,1,2026-04-18T21:09:57.048783+05:30
Bokaro,Jharkhand,23.6693,86.1511,30.7,59,0.0,983.4,8.95,40.0,163,93.6,61.7,0,5,7,1,2026-04-18T21:09:57.048790+05:30
Bhubaneswar,Odisha,20.2961,85.8245,27.4,90,0.0,1002.6,8.65,29.9,59,21.9,17.3,7,5,4,1,2026-04-18T21:09:57.048797+05:30
Cuttack,Odisha,20.4625,85.8828,28.0,85,0.0,1004.2,8.9,29.2,59,21.9,17.3,7,5,4,1,2026-04-18T21:09:57.048804+05:30
Rourkela,Odisha,22.2604,84.8536,33.3,46,0.0,983.6,8.65,28.1,148,75.2,42.1,0,5,7,1,2026-04-18T21:09:57.048810+05:30
Raipur,Chhattisgarh,21.2514,81.6296,31.9,49,0.0,974.4,8.85,31.3,209,89.9,65.0,0,5,7,1,2026-04-18T21:09:57.048817+05:30
Bhilai,Chhattisgarh,21.1938,81.3509,32.0,48,0.0,974.4,8.5,36.4,210,93.8,66.1,0,5,7,1,2026-04-18T21:09:57.048824+05:30
Guwahati,Assam,26.1158,91.7086,25.3,90,0.0,1003.0,8.5,22.7,134,72.6,65.4,7,5,4,1,2026-04-18T21:09:57.048831+05:30
Agartala,Tripura,23.8315,91.2868,28.0,80,0.0,1006.7,8.7,16.9,133,67.1,60.5,7,5,4,1,2026-04-18T21:09:57.048838+05:30
Shillong,Meghalaya,25.5788,91.8933,14.9,93,0.0,857.4,6.85,34.2,125,57.7,49.7,3,10,7,0,2026-04-18T21:09:57.048845+05:30
Imphal,Manipur,24.817,93.9368,20.2,72,0.0,924.9,9.1,46.4,153,70.8,57.0,3,5,7,0,2026-04-18T21:09:57.048852+05:30
Aizawl,Mizoram,23.7271,92.7176,21.6,79,0.0,894.5,8.95,34.6,119,68.5,51.2,3,5,7,1,2026-04-18T21:09:57.048859+05:30
Kohima,Nagaland,25.6701,94.1077,16.6,93,0.0,856.5,9.0,48.6,135,49.9,39.6,3,10,7,0,2026-04-18T21:09:57.048866+05:30
Gangtok,Sikkim,27.3314,88.6138,17.0,96,0.0,839.0,8.85,19.1,115,54.6,42.1,3,10,7,1,2026-04-18T21:09:57.048873+05:30
Siliguri,West Bengal,26.7271,88.3953,22.2,90,0.0,995.4,8.05,20.9,159,89.6,68.7,3,5,7,1,2026-04-18T21:10:19.253045+05:30
Durgapur,West Bengal,23.5204,87.3119,27.7,81,0.0,994.7,8.85,37.1,166,47.8,44.5,7,5,7,1,2026-04-18T21:10:19.253074+05:30
Asansol,West Bengal,23.6739,86.9524,28.5,76,0.0,993.2,8.9,30.6,179,78.0,62.9,7,5,7,1,2026-04-18T21:10:19.253083+05:30
Pondicherry,Puducherry,11.9139,79.8145,27.5,85,0.0,1008.7,9.25,27.0,34,9.8,5.7,7,0,4,1,2026-04-18T21:10:19.253091+05:30
Port Blair,Andaman and Nicobar Islands,11.6234,92.7265,29.8,71,0.0,1008.1,9.2,16.6,54,20.3,15.6,7,0,4,1,2026-04-18T21:10:19.253097+05:30
Haridwar,Uttarakhand,29.9457,78.1642,26.2,60,0.0,973.3,6.6,34.6,97,48.1,25.4,4,5,7,1,2026-04-18T21:10:19.253104+05:30
Rishikesh,Uttarakhand,30.0869,78.2676,24.2,69,0.0,966.4,6.85,38.2,89,46.2,17.4,3,5,7,1,2026-04-18T21:10:19.253111+05:30
Nainital,Uttarakhand,29.3919,79.4542,24.2,32,0.0,808.7,8.05,69.1,103,51.0,21.3,0,5,7,0,2026-04-18T21:10:19.253118+05:30
Mussoorie,Uttarakhand,30.4599,78.0664,20.2,47,0.0,804.4,7.4,51.5,92,51.5,23.6,0,5,7,0,2026-04-18T21:10:19.253125+05:30
Dharamshala,Himachal Pradesh,32.219,76.3234,23.7,37,0.0,871.2,7.45,38.9,77,41.6,15.1,0,5,7,0,2026-04-18T21:10:19.253132+05:30
Dalhousie,Himachal Pradesh,32.5387,75.971,19.6,41,0.0,805.9,6.8,39.6,83,59.6,22.2,0,5,7,0,2026-04-18T21:10:19.253139+05:30
Patiala,Punjab,30.3398,76.3869,27.4,47,0.0,977.4,7.1,19.4,118,109.4,49.5,4,5,7,0,2026-04-18T21:10:19.253145+05:30
Bhatinda,Punjab,30.211,74.9455,30.7,34,0.0,982.8,7.75,36.7,139,94.3,39.9,0,5,7,0,2026-04-18T21:10:19.253151+05:30
Rohtak,Haryana,28.8955,76.6066,26.7,63,0.0,980.2,6.95,14.4,360,388.4,69.6,7,5,7,1,2026-04-18T21:10:19.253158+05:30
Panipat,Haryana,29.3909,76.9635,27.6,50,0.0,978.9,6.6,12.2,532,473.1,83.1,4,5,7,1,2026-04-18T21:10:19.253164+05:30
Mathura,Uttar Pradesh,27.4924,77.6737,32.0,38,0.0,984.7,7.65,22.7,418,229.6,52.4,0,5,7,0,2026-04-18T21:10:19.253170+05:30
Vrindavan,Uttar Pradesh,27.5823,77.7027,31.5,38,0.0,985.2,7.6,24.8,418,229.6,52.4,0,5,7,0,2026-04-18T21:10:19.253176+05:30
Ayodhya,Uttar Pradesh,26.7922,82.1998,31.1,42,0.0,992.7,7.75,36.7,110,78.5,27.4,0,5,7,1,2026-04-18T21:10:19.253182+05:30
Ratlam,Madhya Pradesh,23.3315,75.0367,30.2,45,0.0,954.2,8.3,24.1,81,27.1,22.9,0,5,7,1,2026-04-18T21:10:19.253188+05:30
Sagar,Madhya Pradesh,23.8388,78.7378,32.7,34,0.0,949.1,7.85,29.9,121,21.7,18.6,0,5,7,0,2026-04-18T21:10:19.253194+05:30
Satna,Madhya Pradesh,24.6005,80.8322,33.2,28,0.0,970.2,8.5,28.8,126,58.3,20.9,0,5,7,0,2026-04-18T21:10:19.253200+05:30
Akola,Maharashtra,20.7002,77.0082,32.5,39,0.0,974.3,8.7,31.7,114,28.2,23.8,0,5,7,1,2026-04-18T21:10:19.253207+05:30
Amravati,Maharashtra,20.9374,77.7796,30.8,32,0.0,966.2,8.2,23.4,115,32.8,27.9,0,5,7,0,2026-04-18T21:10:19.253213+05:30
Latur,Maharashtra,18.4088,76.5604,29.8,55,0.0,939.9,9.1,16.6,151,36.3,31.8,4,5,7,1,2026-04-18T21:10:19.253220+05:30
Nanded,Maharashtra,19.1383,77.3091,32.1,43,0.0,967.6,8.85,18.0,137,55.2,46.8,0,5,7,1,2026-04-18T21:10:19.253226+05:30
Gulbarga,Karnataka,17.3297,76.8343,32.2,42,0.0,958.7,9.0,49.3,173,37.7,34.0,0,5,7,1,2026-04-18T21:10:19.253232+05:30
Bidar,Karnataka,17.9104,77.5199,28.8,55,0.0,936.2,9.0,28.1,157,50.8,44.8,4,5,7,1,2026-04-18T21:10:19.253237+05:30
Hospet,Karnataka,15.2689,76.3909,32.7,48,0.0,954.9,9.25,20.9,156,46.2,40.7,0,5,7,1,2026-04-18T21:10:19.253243+05:30
Tirupur,Tamil Nadu,11.1085,77.3411,32.2,36,0.0,975.0,9.3,31.3,115,31.3,24.6,0,5,7,0,2026-04-18T21:10:19.253249+05:30
Alappuzha,Kerala,9.4981,76.3388,29.5,81,0.0,1008.9,9.1,26.6,87,34.9,25.0,7,0,4,1,2026-04-18T21:10:19.253255+05:30
Munnar,Kerala,10.0889,77.0595,22.7,86,0.0,857.7,9.7,23.8,89,34.0,29.3,3,5,7,1,2026-04-18T21:10:19.253262+05:30
Silchar,Assam,24.8333,92.7789,28.4,73,0.0,1005.8,8.75,19.1,158,114.8,94.8,7,5,4,1,2026-04-18T21:10:19.253268+05:30
Dibrugarh,Assam,27.4728,94.912,26.7,83,0.0,996.7,8.65,13.7,122,73.3,58.4,7,5,7,1,2026-04-18T21:10:19.253274+05:30
