city,state,latitude,longitude,temp,humidity,rain,pressure,uv_index,wind_gusts,aqi,pm10,pm2_5,no2,co,o3,so2,mosquito_risk,arthritis_risk,migraine_risk,frizz_risk,updated_at
Delhi,Delhi,28.6139,77.209,30.6,25,0.0,978.1,7.75,36.7,632,715.3,196.5,38.4,476.0,39.0,17.5,0,5,7,0,2026-05-27T05:38:32.679387+05:30
Mumbai,Maharashtra,19.076,72.8777,29.5,77,0.0,1009.0,7.8,40.0,38,9.4,6.5,6.0,189.0,43.0,4.6,7,0,4,1,2026-05-27T05:38:32.679438+05:30
Bangalore,Karnataka,12.9716,77.5946,21.2,96,0.0,911.9,9.25,30.6,79,21.9,20.5,17.5,357.0,41.0,6.3,3,5,7,1,2026-05-27T05:38:32.679454+05:30
Hyderabad,Telangana,17.385,78.4867,28.9,54,0.0,953.1,8.55,40.3,76,14.9,13.6,11.5,249.0,67.0,4.4,4,5,7,1,2026-05-27T05:38:32.679465+05:30
Chennai,Tamil Nadu,13.0827,80.2707,29.4,59,0.0,1006.5,9.0,36.0,86,28.3,25.1,20.0,292.0,45.0,9.9,4,5,4,1,2026-05-27T05:38:32.679473+05:30
Kolkata,West Bengal,22.5726,88.3639,29.3,87,0.0,1002.7,8.9,38.9,131,43.0,37.4,8.3,255.0,75.0,6.1,7,5,4,1,2026-05-27T05:38:32.679481+05:30
Pune,Maharashtra,18.5204,73.8567,24.5,88,0.0,948.6,8.4,41.0,40,8.4,7.1,10.9,142.0,31.0,8.2,3,5,7,1,2026-05-27T05:38:32.679488+05:30
Ahmedabad,Gujarat,23.0225,72.5714,29.1,77,0.0,1002.1,8.15,36.0,78,36.7,18.5,5.3,135.0,42.0,4.8,7,5,4,1,2026-05-27T05:38:32.679496+05:30
Jaipur,Rajasthan,26.9124,75.7873,32.4,36,0.0,956.5,8.25,48.2,156,343.7,60.1,3.9,163.0,75.0,4.5,0,5,7,0,2026-05-27T05:38:32.679523+05:30
Lucknow,Uttar Pradesh,26.8467,80.9462,28.4,66,0.0,989.3,8.2,29.9,159,47.7,32.9,16.1,468.0,87.0,13.9,7,5,7,1,2026-05-27T05:38:32.679531+05:30
Kanpur,Uttar Pradesh,26.4499,80.3319,30.1,30,0.0,987.0,8.2,36.0,384,313.9,79.4,41.6,472.0,36.0,13.2,0,5,7,0,2026-05-27T05:38:32.679539+05:30
Chandigarh,Chandigarh,30.7333,76.7794,25.6,33,0.0,962.9,7.75,41.0,57,26.2,22.5,25.1,271.0,39.0,5.0,4,5,7,0,2026-05-27T05:38:32.679547+05:30
Srinagar,Jammu and Kashmir,34.0837,74.7973,9.8,87,0.0,839.8,9.0,23.0,76,50.9,38.8,21.2,254.0,56.0,2.7,3,10,7,0,2026-05-27T05:38:32.679554+05:30
Jammu,Jammu and Kashmir,32.7266,74.857,23.9,34,0.0,966.9,8.6,48.6,60,22.8,21.3,27.2,230.0,21.0,2.4,0,5,7,0,2026-05-27T05:38:32.679561+05:30
Amritsar,Punjab,31.634,74.8723,27.4,37,0.0,975.5,8.45,31.3,88,64.0,59.6,51.4,464.0,12.0,9.2,4,5,7,0,2026-05-27T05:38:32.679568+05:30
Ludhiana,Punjab,30.901,75.8573,27.5,31,0.0,973.4,8.0,38.9,65,28.3,26.4,21.3,497.0,54.0,6.5,4,5,7,0,2026-05-27T05:38:32.679575+05:30
Jalandhar,Punjab,31.326,75.5762,26.8,35,0.0,974.4,8.25,36.4,74,43.0,33.8,27.8,490.0,43.0,5.4,4,5,7,0,2026-05-27T05:38:32.679582+05:30
Dehradun,Uttarakhand,30.6284,78.0322,11.4,59,0.0,824.0,8.2,41.8,55,19.3,14.1,19.5,207.0,12.0,0.1,0,5,7,0,2026-05-27T05:38:32.679588+05:30
Shimla,Himachal Pradesh,31.1048,77.1734,12.1,42,0.0,779.1,8.3,54.7,51,22.2,17.4,18.8,168.0,49.0,1.0,0,5,7,1,2026-05-27T05:38:32.679597+05:30
Manali,Himachal Pradesh,32.2396,77.1887,9.6,41,0.0,812.1,9.65,50.0,53,23.6,11.8,10.3,159.0,143.0,0.1,0,5,7,1,2026-05-27T05:38:32.679606+05:30
Gurgaon,Haryana,28.4595,77.0266,27.6,38,0.0,976.5,7.85,36.4,1003,935.0,211.4,48.2,509.0,28.0,24.1,4,5,7,0,2026-05-27T05:38:32.679615+05:30
Noida,Uttar Pradesh,28.5355,77.391,30.2,28,0.0,979.4,7.75,30.2,1003,935.0,211.4,48.2,562.0,28.0,24.1,0,5,7,0,2026-05-27T05:38:32.679621+05:30
Ghaziabad,Uttar Pradesh,28.6692,77.4538,30.1,26,0.0,977.7,7.75,35.3,390,467.5,139.2,33.7,446.0,45.0,18.8,0,5,7,0,2026-05-27T05:38:32.679628+05:30
Faridabad,Haryana,28.4089,77.3178,31.0,24,0.0,978.8,7.8,38.5,1003,935.0,211.4,48.2,456.0,28.0,24.1,0,5,7,0,2026-05-27T05:38:32.679635+05:30
Meerut,Uttar Pradesh,28.9845,77.7064,28.9,27,0.0,976.3,7.7,27.4,390,467.5,139.2,33.7,366.0,45.0,18.8,4,5,7,0,2026-05-27T05:38:32.679641+05:30
Agra,Uttar Pradesh,27.1767,78.0081,30.6,36,0.0,982.7,8.05,37.1,747,594.2,142.5,75.3,581.0,6.0,25.7,0,5,7,0,2026-05-27T05:38:32.679648+05:30
Varanasi,Uttar Pradesh,25.3176,82.9739,28.8,74,0.0,993.4,8.7,36.0,146,47.6,40.2,16.7,575.0,79.0,17.5,7,5,7,1,2026-05-27T05:38:32.679655+05:30
Prayagraj,Uttar Pradesh,25.4358,81.8463,29.6,58,0.0,991.4,8.55,52.6,143,42.8,37.3,17.3,566.0,87.0,19.2,4,5,7,1,2026-05-27T05:38:32.679662+05:30
Gorakhpur,Uttar Pradesh,26.7606,83.3732,24.5,78,0.0,994.7,8.55,37.4,86,34.3,23.1,7.7,311.0,118.0,5.5,3,5,7,1,2026-05-27T05:38:32.679671+05:30
Bareilly,Uttar Pradesh,28.367,79.4304,25.5,45,0.0,981.9,8.0,31.3,136,157.9,63.8,47.8,601.0,28.0,12.5,4,5,7,0,2026-05-27T05:38:32.679677+05:30
Aligarh,Uttar Pradesh,27.8974,78.088,28.7,38,0.0,980.2,7.9,33.8,674,758.1,164.8,64.8,647.0,8.0,18.2,4,5,7,0,2026-05-27T05:38:32.679684+05:30
Moradabad,Uttar Pradesh,28.8386,78.7733,26.1,34,0.0,978.7,7.85,33.1,140,80.6,48.4,42.8,640.0,27.0,9.8,4,5,7,0,2026-05-27T05:38:32.679690+05:30
Saharanpur,Uttar Pradesh,29.9637,77.546,27.6,23,0.0,970.2,7.5,35.3,71,39.3,31.3,32.8,290.0,50.0,9.3,4,5,7,0,2026-05-27T05:38:32.679696+05:30
Jhansi,Uttar Pradesh,25.4484,78.5685,32.2,29,0.0,973.4,8.45,52.6,79,36.7,22.4,6.8,179.0,57.0,6.8,0,5,7,0,2026-05-27T05:38:35.937047+05:30
Surat,Gujarat,21.1702,72.8311,29.1,79,0.0,1006.9,7.7,45.7,66,46.7,23.6,20.6,364.0,32.0,34.9,7,5,4,1,2026-05-27T05:38:35.937082+05:30
Vadodara,Gujarat,22.3072,73.1812,29.5,75,0.0,1004.3,8.1,40.7,69,32.8,19.6,9.2,146.0,37.0,8.0,7,5,4,1,2026-05-27T05:38:35.937093+05:30
Rajkot,Gujarat,22.3039,70.8022,27.4,82,0.0,994.1,7.75,47.5,69,41.3,17.1,4.1,118.0,43.0,3.7,7,5,7,1,2026-05-27T05:38:35.937101+05:30
Thane,Maharashtra,19.2183,72.9781,28.8,83,0.0,1008.4,7.8,38.2,38,9.4,6.5,6.0,320.0,43.0,4.6,7,0,4,1,2026-05-27T05:38:35.937110+05:30
Nagpur,Maharashtra,21.1458,79.0882,33.0,34,0.0,971.3,8.9,44.3,75,20.0,15.1,11.1,274.0,67.0,9.1,0,5,7,0,2026-05-27T05:38:35.937117+05:30
Nashik,Maharashtra,19.9975,73.7898,24.5,89,0.0,946.1,8.1,40.0,23,6.4,5.1,6.6,143.0,35.0,3.8,3,5,7,1,2026-05-27T05:38:35.937124+05:30
Aurangabad,Maharashtra,19.8762,75.3433,25.6,81,0.0,944.3,9.0,41.0,36,6.1,5.0,9.2,156.0,33.0,6.4,7,5,7,1,2026-05-27T05:38:35.937131+05:30
Solapur,Maharashtra,17.6599,75.9064,27.8,70,0.0,958.1,8.95,38.9,47,11.0,9.1,8.0,188.0,50.0,5.3,7,5,7,1,2026-05-27T05:38:35.937138+05:30
Kolhapur,Maharashtra,16.705,74.2433,24.5,90,0.0,948.9,8.55,41.8,27,7.6,5.9,5.3,166.0,38.0,2.3,3,5,7,1,2026-05-27T05:38:35.937146+05:30
Goa,Goa,15.2993,74.124,26.4,97,0.0,998.9,6.4,29.2,40,11.7,9.0,3.1,183.0,49.0,1.1,7,5,7,1,2026-05-27T05:38:35.937153+05:30
Jodhpur,Rajasthan,26.2389,73.0243,31.0,52,0.0,980.5,8.45,43.2,148,295.2,66.6,3.0,128.0,53.0,3.6,0,5,7,1,2026-05-27T05:38:35.937161+05:30
Udaipur,Rajasthan,24.5854,73.7125,27.7,63,0.0,945.1,8.85,43.2,81,26.3,16.6,4.0,150.0,54.0,3.2,7,5,7,1,2026-05-27T05:38:35.937168+05:30
Kota,Rajasthan,25.2138,75.8648,32.5,35,0.0,975.6,8.4,44.3,91,30.5,18.6,5.5,184.0,67.0,5.6,0,5,7,0,2026-05-27T05:38:35.937176+05:30
Bikaner,Rajasthan,28.0229,73.3119,30.1,27,0.0,977.8,8.4,41.8,148,103.6,39.1,4.0,143.0,50.0,2.1,0,5,7,0,2026-05-27T05:38:35.937182+05:30
Ajmer,Rajasthan,26.4499,74.6399,30.5,46,0.0,952.3,8.4,58.0,82,43.9,17.4,3.4,144.0,66.0,3.9,0,5,7,1,2026-05-27T05:38:35.937189+05:30
Gwalior,Madhya Pradesh,26.2183,78.1828,32.0,28,0.0,979.0,8.25,54.7,86,44.4,21.2,8.4,182.0,50.0,3.7,0,5,7,0,2026-05-27T05:38:35.937196+05:30
Indore,Madhya Pradesh,22.7196,75.8577,27.5,58,0.0,947.6,8.65,47.9,67,26.1,15.9,6.9,194.0,56.0,12.4,4,5,7,1,2026-05-27T05:38:35.937203+05:30
Bhopal,Madhya Pradesh,23.2599,77.4126,31.5,38,0.0,951.9,8.65,42.8,68,41.4,22.5,3.2,197.0,96.0,7.8,0,5,7,0,2026-05-27T05:38:35.937210+05:30
Jabalpur,Madhya Pradesh,23.1815,79.9864,31.2,25,0.0,958.5,8.8,40.0,80,32.4,20.7,11.6,229.0,50.0,4.3,0,5,7,0,2026-05-27T05:38:35.937218+05:30
Ujjain,Madhya Pradesh,23.1765,75.7885,27.9,60,0.0,953.2,8.55,49.3,70,26.0,15.5,7.7,243.0,46.0,13.2,4,5,7,1,2026-05-27T05:38:35.937225+05:30
Visakhapatnam,Andhra Pradesh,17.6868,83.2185,29.5,88,0.0,1000.0,9.05,31.7,130,49.1,41.1,33.7,359.0,82.0,43.3,7,5,4,1,2026-05-27T05:38:35.937232+05:30
Vijayawada,Andhra Pradesh,16.5062,80.648,31.9,50,0.0,1000.1,9.0,39.2,125,23.1,20.4,8.8,240.0,88.0,7.2,0,5,4,1,2026-05-27T05:38:35.937239+05:30
Guntur,Andhra Pradesh,16.3067,80.4365,30.4,55,0.0,1001.5,8.75,40.3,105,18.6,16.5,7.7,249.0,92.0,8.2,0,5,4,1,2026-05-27T05:38:35.937247+05:30
Nellore,Andhra Pradesh,14.4426,79.9865,28.7,68,0.0,1004.7,9.0,56.2,72,21.6,18.9,7.7,182.0,72.0,4.6,7,5,4,1,2026-05-27T05:38:35.937255+05:30
Kurnool,Andhra Pradesh,15.8281,78.0373,28.4,76,0.0,977.2,4.5,40.3,56,16.2,14.7,11.4,191.0,56.0,7.2,7,5,3,1,2026-05-27T05:38:35.937262+05:30
Kakinada,Andhra Pradesh,16.9891,82.2475,30.6,71,0.0,1004.2,9.05,40.3,109,35.4,30.4,8.5,300.0,100.0,5.8,3,5,4,1,2026-05-27T05:38:35.937269+05:30
Tirupati,Andhra Pradesh,13.6288,79.4192,27.5,64,0.0,989.9,9.05,27.7,73,24.4,22.7,21.1,201.0,29.0,2.7,7,5,7,1,2026-05-27T05:38:35.937276+05:30
Warangal,Telangana,17.9689,79.5941,31.1,50,0.0,977.2,8.75,43.6,110,29.2,23.3,8.4,227.0,92.0,4.5,0,5,7,1,2026-05-27T05:38:35.937283+05:30
Nizamabad,Telangana,18.6725,78.0941,29.8,53,0.0,963.8,8.75,35.6,89,23.1,19.8,11.1,212.0,68.0,3.8,4,5,7,1,2026-05-27T05:38:35.937289+05:30
Mysore,Karnataka,12.2958,76.6396,22.8,90,0.0,929.1,9.05,43.6,56,12.0,10.2,7.2,160.0,48.0,2.5,3,5,7,1,2026-05-27T05:38:35.937296+05:30
Mangalore,Karnataka,12.9141,74.856,25.6,97,0.0,1007.8,7.7,28.8,60,21.1,17.0,10.5,238.0,34.0,3.1,7,5,4,1,2026-05-27T05:38:35.937303+05:30
Hubli-Dharwad,Karnataka,15.3647,75.124,23.9,96,0.0,941.7,6.35,39.6,28,3.7,3.0,2.8,138.0,46.0,1.0,3,5,7,1,2026-05-27T05:38:35.937310+05:30
Belgaum,Karnataka,15.8497,74.4977,22.9,96,0.0,926.3,8.65,37.4,25,6.6,5.3,5.0,129.0,37.0,1.7,3,5,7,1,2026-05-27T05:38:39.186112+05:30
Coimbatore,Tamil Nadu,11.0168,76.9558,24.5,89,0.0,962.0,8.5,53.3,49,9.9,7.7,4.2,153.0,55.0,3.4,3,5,7,1,2026-05-27T05:38:39.186147+05:30
Madurai,Tamil Nadu,9.9252,78.1198,27.4,74,0.0,992.7,8.75,26.6,104,45.2,40.9,40.6,217.0,2.0,6.7,7,5,7,1,2026-05-27T05:38:39.186158+05:30
Trichy,Tamil Nadu,10.7905,78.7047,28.4,68,0.0,999.2,8.05,42.8,62,9.7,8.5,10.9,156.0,39.0,4.2,7,5,7,1,2026-05-27T05:38:39.186167+05:30
Salem,Tamil Nadu,11.6643,78.146,26.8,76,0.0,977.6,8.75,35.3,81,25.1,23.5,24.6,239.0,20.0,6.3,7,5,7,1,2026-05-27T05:38:39.186175+05:30
Tirunelveli,Tamil Nadu,8.7139,77.7567,28.4,69,0.0,1003.4,8.45,29.9,28,6.3,5.4,5.2,154.0,42.0,1.9,7,5,4,1,2026-05-27T05:38:39.186183+05:30
Vellore,Tamil Nadu,12.9165,79.1325,27.1,65,0.0,983.6,9.05,36.0,88,30.4,28.9,21.0,319.0,33.0,6.4,7,5,7,1,2026-05-27T05:38:39.186191+05:30
Erode,Tamil Nadu,11.341,77.7172,26.6,80,0.0,989.2,8.25,46.1,57,12.9,11.6,14.0,191.0,32.0,3.9,7,5,7,1,2026-05-27T05:38:39.186198+05:30
Kochi,Kerala,9.9312,76.2673,25.9,99,0.0,1009.9,8.2,29.5,57,18.6,16.7,16.1,271.0,21.0,4.6,7,0,4,1,2026-05-27T05:38:39.186205+05:30
Thiruvananthapuram,Kerala,8.5241,76.9366,24.4,97,0.0,1009.7,7.65,34.2,26,8.5,4.9,1.8,170.0,54.0,0.7,3,0,4,1,2026-05-27T05:38:39.186213+05:30
Kozhikode,Kerala,11.2588,75.7804,25.0,100,0.0,1008.9,7.55,29.5,31,9.5,6.2,1.7,338.0,61.0,0.7,7,0,4,1,2026-05-27T05:38:39.186219+05:30
Thrissur,Kerala,10.5276,76.2144,24.6,99,0.0,1008.3,8.35,30.2,56,12.4,11.1,13.8,289.0,28.0,5.9,3,0,4,1,2026-05-27T05:38:39.186227+05:30
Kannur,Kerala,11.8745,75.3704,25.6,94,0.0,1008.1,7.7,31.0,62,19.7,16.3,10.5,263.0,31.0,2.8,7,0,4,1,2026-05-27T05:38:39.186234+05:30
Patna,Bihar,25.5941,85.1376,24.8,82,0.0,997.4,8.75,44.3,87,29.4,25.7,9.7,368.0,88.0,10.2,3,5,7,1,2026-05-27T05:38:39.186240+05:30
Gaya,Bihar,24.7914,85.0002,26.7,82,0.0,989.6,8.8,37.8,130,52.2,49.7,14.1,407.0,73.0,24.6,7,5,7,1,2026-05-27T05:38:39.186247+05:30
Muzaffarpur,Bihar,26.1209,85.3647,23.4,93,0.0,998.0,8.75,45.4,76,29.4,22.9,7.9,363.0,99.0,8.0,3,5,7,1,2026-05-27T05:38:39.186254+05:30
Bhagalpur,Bihar,25.2425,87.0117,23.0,94,0.0,999.3,8.75,42.5,94,43.1,37.4,12.0,408.0,72.0,9.5,3,5,7,1,2026-05-27T05:38:39.186260+05:30
Ranchi,Jharkhand,23.3441,85.3096,24.9,82,0.0,934.7,9.0,45.7,116,83.8,66.4,17.3,310.0,71.0,25.0,3,5,7,1,2026-05-27T05:38:39.186266+05:30
Jamshedpur,Jharkhand,22.8046,86.2029,29.0,87,0.0,987.6,9.0,54.4,153,73.6,65.2,23.9,388.0,48.0,27.4,7,5,7,1,2026-05-27T05:38:39.186273+05:30
Dhanbad,Jharkhand,23.7957,86.4304,28.4,91,0.0,976.4,9.0,38.5,162,78.7,72.9,43.5,1323.0,35.0,114.6,7,5,7,1,2026-05-27T05:38:39.186279+05:30
Bokaro,Jharkhand,23.6693,86.1511,27.5,95,0.0,980.1,9.0,39.6,157,94.3,85.2,39.5,721.0,40.0,102.9,7,5,7,1,2026-05-27T05:38:39.186286+05:30
Bhubaneswar,Odisha,20.2961,85.8245,29.6,89,0.0,999.5,9.05,41.0,116,28.4,21.6,5.7,214.0,79.0,4.7,7,5,7,1,2026-05-27T05:38:39.186292+05:30
Cuttack,Odisha,20.4625,85.8828,29.9,89,0.0,1001.4,9.1,54.4,116,28.4,21.6,5.7,209.0,79.0,4.7,7,5,4,1,2026-05-27T05:38:39.186299+05:30
Rourkela,Odisha,22.2604,84.8536,28.5,88,0.0,981.8,8.65,49.3,153,91.3,71.0,31.3,326.0,43.0,28.1,7,5,7,1,2026-05-27T05:38:39.186305+05:30
Raipur,Chhattisgarh,21.2514,81.6296,31.3,38,0.0,971.1,8.95,39.2,112,58.7,42.1,39.4,407.0,37.0,54.9,0,5,7,0,2026-05-27T05:38:39.186312+05:30
Bhilai,Chhattisgarh,21.1938,81.3509,30.0,45,0.0,971.6,8.95,42.8,103,48.4,35.3,30.3,498.0,45.0,46.0,4,5,7,1,2026-05-27T05:38:39.186319+05:30
Guwahati,Assam,26.1158,91.7086,22.0,97,0.0,1002.4,8.7,22.7,75,21.9,16.1,9.2,284.0,45.0,2.3,3,5,4,1,2026-05-27T05:38:39.186325+05:30
Agartala,Tripura,23.8315,91.2868,24.6,90,0.0,1005.6,8.85,42.1,84,26.8,17.8,10.5,197.0,54.0,2.4,3,5,4,1,2026-05-27T05:38:39.186331+05:30
Shillong,Meghalaya,25.5788,91.8933,16.9,97,0.4,856.0,9.15,36.7,41,15.9,9.4,6.2,201.0,59.0,2.4,6,10,7,1,2026-05-27T05:38:39.186338+05:30
Imphal,Manipur,24.817,93.9368,19.6,91,0.0,923.6,9.25,32.8,74,38.9,35.0,11.0,384.0,34.0,1.4,3,10,7,1,2026-05-27T05:38:39.186345+05:30
Aizawl,Mizoram,23.7271,92.7176,15.6,92,0.0,891.3,8.9,33.8,69,29.2,17.7,6.3,192.0,39.0,1.2,3,10,7,0,2026-05-27T05:38:39.186370+05:30
Kohima,Nagaland,25.6701,94.1077,17.0,69,0.0,854.7,6.25,31.7,57,34.8,28.2,9.6,241.0,30.0,0.4,3,5,7,0,2026-05-27T05:38:39.186377+05:30
Gangtok,Sikkim,27.3314,88.6138,14.7,90,0.0,835.9,9.1,37.1,59,16.5,13.1,9.8,498.0,83.0,2.1,3,10,7,0,2026-05-27T05:38:39.186384+05:30
Siliguri,West Bengal,26.7271,88.3953,21.0,99,0.0,993.9,8.65,28.8,68,47.5,33.2,13.5,354.0,90.0,5.8,3,5,7,1,2026-05-27T05:38:42.434375+05:30
Durgapur,West Bengal,23.5204,87.3119,28.6,92,0.0,991.7,8.95,36.4,158,55.4,50.4,22.0,503.0,60.0,35.7,7,5,7,1,2026-05-27T05:38:42.434412+05:30
Asansol,West Bengal,23.6739,86.9524,28.9,92,0.0,990.3,9.0,33.5,160,53.9,49.8,22.8,517.0,53.0,36.8,7,5,7,1,2026-05-27T05:38:42.434423+05:30
Pondicherry,Puducherry,11.9139,79.8145,28.0,78,0.0,1007.3,8.3,43.9,79,18.6,16.2,15.9,251.0,41.0,6.9,7,5,4,1,2026-05-27T05:38:42.434432+05:30
Port Blair,Andaman and Nicobar Islands,11.6234,92.7265,23.2,98,0.1,1008.2,7.85,39.2,33,7.6,5.2,0.3,122.0,75.0,0.3,6,0,4,1,2026-05-27T05:38:42.434440+05:30
Haridwar,Uttarakhand,29.9457,78.1642,23.2,41,0.0,968.8,7.55,39.2,60,29.3,28.1,34.2,234.0,14.0,4.2,0,5,7,0,2026-05-27T05:38:42.434448+05:30
Rishikesh,Uttarakhand,30.0869,78.2676,20.1,54,0.0,960.9,7.65,36.7,61,27.8,27.1,25.5,275.0,32.0,3.4,0,5,7,0,2026-05-27T05:38:42.434456+05:30
Nainital,Uttarakhand,29.3919,79.4542,15.7,35,0.0,802.5,8.5,32.8,70,45.9,29.5,19.5,233.0,72.0,3.5,0,5,7,0,2026-05-27T05:38:42.434463+05:30
Mussoorie,Uttarakhand,30.4599,78.0664,16.9,35,0.0,800.0,8.1,52.6,58,25.1,21.5,34.1,167.0,13.0,3.0,0,5,7,0,2026-05-27T05:38:42.434470+05:30
Dharamshala,Himachal Pradesh,32.219,76.3234,22.1,29,0.0,865.5,8.45,46.8,47,17.5,11.4,8.7,163.0,68.0,0.1,0,5,7,0,2026-05-27T05:38:42.434477+05:30
Dalhousie,Himachal Pradesh,32.5387,75.971,10.4,59,0.0,797.4,8.7,42.8,58,23.8,20.1,24.2,217.0,24.0,0.5,0,5,7,0,2026-05-27T05:38:42.434485+05:30
Patiala,Punjab,30.3398,76.3869,28.0,28,0.0,973.0,7.65,40.7,485,510.4,78.2,15.4,364.0,63.0,8.5,4,5,7,0,2026-05-27T05:38:42.434493+05:30
Bhatinda,Punjab,30.211,74.9455,28.9,38,0.0,978.8,8.3,29.9,81,51.9,44.7,27.9,406.0,46.0,8.8,4,5,7,0,2026-05-27T05:38:42.434499+05:30
Rohtak,Haryana,28.8955,76.6066,27.6,37,0.0,976.8,7.8,33.5,849,972.3,224.0,36.8,355.0,39.0,7.4,4,5,7,0,2026-05-27T05:38:42.434506+05:30
Panipat,Haryana,29.3909,76.9635,28.9,25,0.0,975.2,7.6,37.8,1594,1199.5,233.3,21.0,323.0,52.0,6.5,4,5,7,0,2026-05-27T05:38:42.434512+05:30
Mathura,Uttar Pradesh,27.4924,77.6737,29.6,37,0.0,981.7,8.0,34.9,636,624.0,135.5,68.0,488.0,5.0,14.5,4,5,7,0,2026-05-27T05:38:42.434519+05:30
Vrindavan,Uttar Pradesh,27.5823,77.7027,28.9,39,0.0,982.0,8.0,33.5,636,624.0,135.5,68.0,515.0,5.0,14.5,4,5,7,0,2026-05-27T05:38:42.434526+05:30
Ayodhya,Uttar Pradesh,26.7922,82.1998,25.5,73,0.0,992.3,8.3,36.0,113,33.3,23.8,8.2,360.0,115.0,7.6,7,5,7,1,2026-05-27T05:38:42.434533+05:30
Ratlam,Madhya Pradesh,23.3315,75.0367,26.6,74,0.0,954.2,8.5,47.2,70,26.5,15.2,8.6,179.0,39.0,13.2,7,5,7,1,2026-05-27T05:38:42.434540+05:30
Sagar,Madhya Pradesh,23.8388,78.7378,30.6,31,0.0,947.9,8.7,46.1,80,39.7,20.7,4.8,198.0,78.0,5.2,0,5,7,0,2026-05-27T05:38:42.434547+05:30
Satna,Madhya Pradesh,24.6005,80.8322,29.5,32,0.0,967.2,8.75,53.3,70,26.5,19.7,30.3,224.0,39.0,4.1,4,5,7,0,2026-05-27T05:38:42.434554+05:30
Akola,Maharashtra,20.7002,77.0082,30.5,49,0.0,974.2,8.85,46.4,55,14.8,12.5,7.5,171.0,77.0,12.7,0,5,7,1,2026-05-27T05:38:42.434563+05:30
Amravati,Maharashtra,20.9374,77.7796,32.1,42,0.0,966.1,8.85,45.4,57,17.6,14.8,6.9,189.0,90.0,13.1,0,5,7,1,2026-05-27T05:38:42.434571+05:30
Latur,Maharashtra,18.4088,76.5604,28.1,65,0.0,940.0,8.25,37.8,62,19.9,18.0,8.4,235.0,88.0,11.1,7,5,7,1,2026-05-27T05:38:42.434578+05:30
Nanded,Maharashtra,19.1383,77.3091,30.2,55,0.0,967.9,8.9,37.8,73,21.2,17.8,15.5,218.0,49.0,3.0,0,5,7,1,2026-05-27T05:38:42.434585+05:30
Gulbarga,Karnataka,17.3297,76.8343,28.7,65,0.0,959.0,6.15,41.8,47,10.0,8.2,9.4,253.0,42.0,4.0,7,5,7,1,2026-05-27T05:38:42.434592+05:30
Bidar,Karnataka,17.9104,77.5199,27.5,57,0.0,935.3,8.65,46.8,75,13.7,12.5,13.1,228.0,62.0,2.5,4,5,7,1,2026-05-27T05:38:42.434599+05:30
Hospet,Karnataka,15.2689,76.3909,25.0,90,0.0,956.6,6.8,40.3,41,5.7,4.8,4.7,166.0,41.0,1.5,7,5,7,1,2026-05-27T05:38:42.434606+05:30
Tirupur,Tamil Nadu,11.1085,77.3411,25.2,86,0.0,975.3,8.0,57.2,58,14.7,13.1,14.7,152.0,32.0,4.6,7,5,7,1,2026-05-27T05:38:42.434612+05:30
Alappuzha,Kerala,9.4981,76.3388,25.5,100,0.0,1010.1,7.85,29.5,43,10.1,8.0,7.6,212.0,45.0,1.9,7,0,4,1,2026-05-27T05:38:42.434618+05:30
Munnar,Kerala,10.0889,77.0595,17.9,99,0.0,857.6,6.55,28.1,49,10.2,9.7,7.0,122.0,32.0,1.7,3,10,7,1,2026-05-27T05:38:42.434626+05:30
Silchar,Assam,24.8333,92.7789,23.6,91,0.0,1005.6,8.85,31.0,93,48.1,39.0,16.5,313.0,36.0,4.7,3,5,4,1,2026-05-27T05:38:42.434633+05:30
Dibrugarh,Assam,27.4728,94.912,22.1,92,0.0,996.4,8.9,27.7,93,51.2,35.4,18.5,238.0,35.0,0.9,3,5,7,1,2026-05-27T05:38:42.434640+05:30
