city,state,latitude,longitude,temp,humidity,rain,pressure,uv_index,wind_gusts,aqi,pm10,pm2_5,no2,co,o3,so2,mosquito_risk,arthritis_risk,migraine_risk,frizz_risk,updated_at
Delhi,Delhi,28.6139,77.209,27.9,87,0.0,975.2,6.6,37.8,157,99.9,70.5,68.9,2141.0,32.0,31.5,7,5,7,1,2026-07-10T23:56:21.987400+05:30
Mumbai,Maharashtra,19.076,72.8777,27.6,88,0.0,1008.9,5.4,44.6,57,34.2,13.9,5.7,163.0,43.0,4.3,7,0,0,1,2026-07-10T23:56:21.987444+05:30
Bangalore,Karnataka,12.9716,77.5946,21.2,95,0.0,913.1,6.7,47.5,36,9.8,7.5,16.6,330.0,35.0,5.2,3,5,7,1,2026-07-10T23:56:21.987460+05:30
Hyderabad,Telangana,17.385,78.4867,28.1,61,0.0,952.2,8.6,44.3,61,36.9,21.4,15.8,281.0,45.0,6.3,7,5,7,1,2026-07-10T23:56:21.987469+05:30
Chennai,Tamil Nadu,13.0827,80.2707,26.7,86,0.0,1007.0,7.75,38.5,69,25.8,18.5,13.8,353.0,79.0,8.2,7,5,4,1,2026-07-10T23:56:21.987478+05:30
Kolkata,West Bengal,22.5726,88.3639,27.6,95,0.0,999.9,8.0,31.0,78,41.9,36.0,11.2,385.0,86.0,11.9,7,5,7,1,2026-07-10T23:56:21.987485+05:30
Pune,Maharashtra,18.5204,73.8567,23.2,90,0.0,948.3,7.7,46.4,32,11.4,6.7,9.0,136.0,32.0,6.4,3,5,7,1,2026-07-10T23:56:21.987492+05:30
Ahmedabad,Gujarat,23.0225,72.5714,29.2,70,0.0,998.9,8.0,46.4,70,36.3,19.4,7.1,133.0,47.0,4.6,7,5,7,1,2026-07-10T23:56:21.987498+05:30
Jaipur,Rajasthan,26.9124,75.7873,28.6,66,0.0,953.3,8.2,37.8,380,618.4,111.5,7.8,180.0,67.0,5.0,7,5,7,1,2026-07-10T23:56:21.987509+05:30
Lucknow,Uttar Pradesh,26.8467,80.9462,26.1,98,0.0,986.3,7.75,40.3,96,90.1,47.8,18.6,243.0,60.0,7.6,7,5,7,1,2026-07-10T23:56:21.987519+05:30
Kanpur,Uttar Pradesh,26.4499,80.3319,27.8,85,0.0,984.4,6.95,34.9,99,78.5,41.0,15.3,191.0,63.0,5.7,7,5,7,1,2026-07-10T23:56:21.987525+05:30
Chandigarh,Chandigarh,30.7333,76.7794,26.0,91,0.0,961.1,0.5,20.5,132,82.7,80.8,68.6,1628.0,19.0,11.5,7,5,3,1,2026-07-10T23:56:21.987532+05:30
Srinagar,Jammu and Kashmir,34.0837,74.7973,24.8,61,0.0,836.2,9.05,21.6,88,49.7,45.9,39.6,990.0,35.0,4.0,3,5,7,1,2026-07-10T23:56:21.987539+05:30
Jammu,Jammu and Kashmir,32.7266,74.857,27.0,92,0.0,964.8,8.55,25.2,164,78.7,70.3,28.3,689.0,90.0,7.0,7,5,7,1,2026-07-10T23:56:21.987545+05:30
Amritsar,Punjab,31.634,74.8723,26.7,96,0.0,972.7,8.4,41.4,157,90.1,74.5,21.7,727.0,90.0,8.8,7,5,7,1,2026-07-10T23:56:21.987552+05:30
Ludhiana,Punjab,30.901,75.8573,28.1,85,0.0,970.5,7.95,24.8,158,90.3,71.0,28.0,879.0,80.0,12.4,7,5,7,1,2026-07-10T23:56:21.987558+05:30
Jalandhar,Punjab,31.326,75.5762,28.1,90,0.0,971.8,8.15,21.2,158,116.9,88.0,34.7,717.0,74.0,8.8,7,5,7,1,2026-07-10T23:56:21.987565+05:30
Dehradun,Uttarakhand,30.6284,78.0322,18.5,95,0.0,825.4,1.5,26.6,46,8.3,8.2,30.7,258.0,50.0,1.1,3,10,3,1,2026-07-10T23:56:21.987572+05:30
Shimla,Himachal Pradesh,31.1048,77.1734,15.1,99,0.0,779.3,1.2,14.8,55,34.9,32.5,27.2,427.0,73.0,3.1,3,10,3,0,2026-07-10T23:56:21.987578+05:30
Manali,Himachal Pradesh,32.2396,77.1887,19.7,96,0.0,815.0,8.25,32.8,45,18.9,18.9,91.4,373.0,7.0,0.2,3,10,7,1,2026-07-10T23:56:21.987589+05:30
Gurgaon,Haryana,28.4595,77.0266,27.3,94,0.0,973.4,7.4,41.4,167,188.6,93.1,61.9,339.0,31.0,21.6,7,5,7,1,2026-07-10T23:56:21.987596+05:30
Noida,Uttar Pradesh,28.5355,77.391,28.0,87,0.0,976.8,7.0,40.0,167,188.6,93.1,61.9,1084.0,31.0,21.6,7,5,7,1,2026-07-10T23:56:21.987602+05:30
Ghaziabad,Uttar Pradesh,28.6692,77.4538,27.4,90,0.2,974.9,6.6,35.3,119,59.8,49.2,33.8,687.0,51.0,11.3,10,5,7,1,2026-07-10T23:56:21.987608+05:30
Faridabad,Haryana,28.4089,77.3178,27.5,90,0.1,976.1,7.25,43.6,167,188.6,93.1,61.9,1795.0,31.0,21.6,10,5,7,1,2026-07-10T23:56:21.987615+05:30
Meerut,Uttar Pradesh,28.9845,77.7064,26.5,95,0.0,973.8,4.4,35.6,119,59.8,49.2,33.8,782.0,51.0,11.3,7,5,3,1,2026-07-10T23:56:21.987621+05:30
Agra,Uttar Pradesh,27.1767,78.0081,28.4,81,0.0,980.1,8.05,53.6,158,139.7,62.4,23.4,309.0,50.0,7.2,7,5,7,1,2026-07-10T23:56:21.987627+05:30
Varanasi,Uttar Pradesh,25.3176,82.9739,28.9,80,0.0,990.7,7.5,41.4,86,62.2,37.6,12.2,313.0,68.0,7.6,7,5,7,1,2026-07-10T23:56:21.987634+05:30
Prayagraj,Uttar Pradesh,25.4358,81.8463,29.7,74,0.0,989.3,8.35,35.6,90,56.8,31.5,9.5,214.0,79.0,4.6,7,5,7,1,2026-07-10T23:56:21.987640+05:30
Gorakhpur,Uttar Pradesh,26.7606,83.3732,26.8,97,0.1,990.4,7.0,28.1,81,49.6,37.3,17.0,380.0,67.0,6.9,10,5,7,1,2026-07-10T23:56:21.987647+05:30
Bareilly,Uttar Pradesh,28.367,79.4304,27.2,97,0.0,978.7,7.0,35.6,75,36.6,35.0,31.5,354.0,34.0,8.1,7,5,7,1,2026-07-10T23:56:21.987656+05:30
Aligarh,Uttar Pradesh,27.8974,78.088,27.5,90,0.0,977.8,7.4,46.1,157,162.1,76.4,24.7,495.0,68.0,9.7,7,5,7,1,2026-07-10T23:56:21.987662+05:30
Moradabad,Uttar Pradesh,28.8386,78.7733,26.1,97,0.0,976.2,5.5,36.7,72,51.8,49.2,40.4,394.0,34.0,15.8,7,5,3,1,2026-07-10T23:56:21.987668+05:30
Saharanpur,Uttar Pradesh,29.9637,77.546,25.2,94,0.0,968.2,2.8,32.4,69,50.5,49.5,49.4,381.0,17.0,10.9,7,5,3,1,2026-07-10T23:56:21.987675+05:30
Jhansi,Uttar Pradesh,25.4484,78.5685,30.4,61,0.0,971.8,8.25,44.3,103,47.4,27.0,6.6,149.0,83.0,9.0,3,5,7,1,2026-07-10T23:56:25.348510+05:30
Surat,Gujarat,21.1702,72.8311,28.2,88,0.0,1005.3,6.7,56.5,64,25.3,14.9,14.9,245.0,33.0,25.0,7,5,4,1,2026-07-10T23:56:25.348543+05:30
Vadodara,Gujarat,22.3072,73.1812,28.8,80,0.0,1001.7,6.0,49.7,64,29.2,17.1,9.9,153.0,40.0,7.9,7,5,0,1,2026-07-10T23:56:25.348554+05:30
Rajkot,Gujarat,22.3039,70.8022,27.3,84,0.0,991.9,7.7,55.8,61,28.5,14.2,4.3,108.0,42.0,3.8,7,5,7,1,2026-07-10T23:56:25.348563+05:30
Thane,Maharashtra,19.2183,72.9781,26.8,90,0.1,1008.2,5.8,37.4,57,34.2,13.9,5.7,171.0,43.0,4.3,10,0,0,1,2026-07-10T23:56:25.348572+05:30
Nagpur,Maharashtra,21.1458,79.0882,27.6,70,0.0,970.1,7.3,46.1,83,40.4,23.7,12.5,212.0,57.0,11.4,7,5,7,1,2026-07-10T23:56:25.348580+05:30
Nashik,Maharashtra,19.9975,73.7898,23.9,93,0.0,944.6,7.3,56.9,37,11.8,6.5,8.3,108.0,32.0,3.8,3,5,7,1,2026-07-10T23:56:25.348588+05:30
Aurangabad,Maharashtra,19.8762,75.3433,24.1,80,0.0,943.2,8.6,55.8,47,23.9,12.3,8.2,157.0,42.0,8.7,3,5,7,1,2026-07-10T23:56:25.348595+05:30
Solapur,Maharashtra,17.6599,75.9064,26.5,72,0.0,957.5,5.45,40.3,47,19.6,11.1,6.0,127.0,37.0,2.5,7,5,3,1,2026-07-10T23:56:25.348603+05:30
Kolhapur,Maharashtra,16.705,74.2433,23.4,93,0.0,949.1,8.3,48.2,33,9.7,6.1,5.4,129.0,36.0,2.7,3,5,7,1,2026-07-10T23:56:25.348611+05:30
Goa,Goa,15.2993,74.124,25.5,99,0.0,1000.6,7.9,35.3,57,30.2,17.6,5.8,468.0,35.0,1.7,7,5,4,1,2026-07-10T23:56:25.348618+05:30
Jodhpur,Rajasthan,26.2389,73.0243,31.2,58,0.0,976.1,8.0,47.2,191,346.5,81.5,3.8,123.0,63.0,2.7,0,5,7,1,2026-07-10T23:56:25.348625+05:30
Udaipur,Rajasthan,24.5854,73.7125,25.9,70,0.0,941.7,8.7,46.1,74,37.7,21.0,4.4,111.0,70.0,4.1,7,5,7,1,2026-07-10T23:56:25.348633+05:30
Kota,Rajasthan,25.2138,75.8648,29.2,64,0.0,973.4,8.3,37.8,91,46.4,27.2,6.2,180.0,81.0,6.9,7,5,7,1,2026-07-10T23:56:25.348640+05:30
Bikaner,Rajasthan,28.0229,73.3119,31.4,56,0.0,973.5,8.45,38.2,157,294.3,94.1,2.6,120.0,70.0,4.6,0,5,7,1,2026-07-10T23:56:25.348647+05:30
Ajmer,Rajasthan,26.4499,74.6399,28.3,66,0.0,948.4,8.35,50.4,87,35.5,21.2,5.4,136.0,71.0,4.0,7,5,7,1,2026-07-10T23:56:25.348654+05:30
Gwalior,Madhya Pradesh,26.2183,78.1828,29.7,67,0.0,976.1,8.0,47.2,100,40.0,25.6,8.1,176.0,74.0,6.6,7,5,7,1,2026-07-10T23:56:25.348662+05:30
Indore,Madhya Pradesh,22.7196,75.8577,25.4,82,0.0,944.8,8.45,57.2,73,37.0,22.9,7.4,187.0,65.0,9.7,7,5,7,1,2026-07-10T23:56:25.348669+05:30
Bhopal,Madhya Pradesh,23.2599,77.4126,26.5,75,0.0,950.0,8.25,52.6,80,44.2,26.7,6.2,264.0,71.0,5.4,7,5,7,1,2026-07-10T23:56:25.348677+05:30
Jabalpur,Madhya Pradesh,23.1815,79.9864,26.9,75,0.0,957.5,7.45,42.5,83,41.9,23.2,5.0,209.0,72.0,5.0,7,5,7,1,2026-07-10T23:56:25.348684+05:30
Ujjain,Madhya Pradesh,23.1765,75.7885,26.0,82,0.0,950.3,8.0,53.6,73,35.3,22.1,6.3,179.0,66.0,9.4,7,5,7,1,2026-07-10T23:56:25.348692+05:30
Visakhapatnam,Andhra Pradesh,17.6868,83.2185,28.2,86,0.0,1000.6,8.9,45.0,82,38.3,27.8,21.5,295.0,63.0,32.7,7,5,4,1,2026-07-10T23:56:25.348699+05:30
Vijayawada,Andhra Pradesh,16.5062,80.648,31.6,54,0.0,1000.5,7.45,43.2,77,49.4,34.0,19.4,418.0,35.0,7.6,0,5,4,1,2026-07-10T23:56:25.348706+05:30
Guntur,Andhra Pradesh,16.3067,80.4365,32.0,49,0.0,1001.8,7.8,43.9,76,47.8,30.6,18.6,303.0,35.0,7.8,0,5,4,1,2026-07-10T23:56:25.348714+05:30
Nellore,Andhra Pradesh,14.4426,79.9865,26.2,92,0.0,1005.1,6.25,57.2,61,51.7,24.0,9.9,178.0,50.0,4.2,7,5,4,1,2026-07-10T23:56:25.348722+05:30
Kurnool,Andhra Pradesh,15.8281,78.0373,28.8,63,0.0,976.7,8.25,43.9,57,23.7,14.5,9.9,146.0,52.0,4.0,7,5,7,1,2026-07-10T23:56:25.348730+05:30
Kakinada,Andhra Pradesh,16.9891,82.2475,28.8,76,0.0,1004.9,7.9,46.1,71,36.9,24.7,7.8,273.0,77.0,4.2,7,5,4,1,2026-07-10T23:56:25.348738+05:30
Tirupati,Andhra Pradesh,13.6288,79.4192,26.1,86,0.0,990.7,6.1,56.9,60,24.6,15.0,11.5,153.0,44.0,2.4,7,5,7,1,2026-07-10T23:56:25.348745+05:30
Warangal,Telangana,17.9689,79.5941,28.1,67,0.0,976.7,8.55,42.1,72,40.6,26.0,13.9,267.0,38.0,4.1,7,5,7,1,2026-07-10T23:56:25.348752+05:30
Nizamabad,Telangana,18.6725,78.0941,27.4,69,0.0,963.1,8.6,42.5,64,34.1,22.1,12.7,223.0,43.0,6.4,7,5,7,1,2026-07-10T23:56:25.348759+05:30
Mysore,Karnataka,12.2958,76.6396,21.7,95,0.0,930.7,7.85,43.6,25,7.0,5.2,10.6,158.0,34.0,2.5,3,5,7,1,2026-07-10T23:56:25.348766+05:30
Mangalore,Karnataka,12.9141,74.856,24.7,98,0.2,1010.5,8.25,32.0,54,30.2,19.1,15.8,365.0,22.0,4.4,6,0,4,1,2026-07-10T23:56:25.348773+05:30
Hubli-Dharwad,Karnataka,15.3647,75.124,22.8,93,0.0,942.5,6.9,49.7,28,9.5,5.4,5.5,118.0,35.0,1.8,3,5,7,1,2026-07-10T23:56:25.348780+05:30
Belgaum,Karnataka,15.8497,74.4977,21.5,97,0.0,927.2,8.55,47.2,27,8.5,4.7,4.9,109.0,35.0,1.7,3,5,7,1,2026-07-10T23:56:28.710949+05:30
Coimbatore,Tamil Nadu,11.0168,76.9558,23.3,95,0.0,964.0,8.5,41.8,30,9.3,7.3,12.3,213.0,27.0,3.7,3,5,7,1,2026-07-10T23:56:28.710983+05:30
Madurai,Tamil Nadu,9.9252,78.1198,29.0,67,0.0,994.7,8.65,46.1,57,31.8,26.5,42.9,244.0,10.0,9.1,7,5,7,1,2026-07-10T23:56:28.710994+05:30
Trichy,Tamil Nadu,10.7905,78.7047,28.6,68,0.0,1001.4,6.95,53.6,43,13.3,10.0,12.2,135.0,37.0,3.9,7,5,4,1,2026-07-10T23:56:28.711004+05:30
Salem,Tamil Nadu,11.6643,78.146,25.6,89,0.0,979.4,8.35,43.2,58,20.5,16.7,23.7,658.0,31.0,7.0,7,5,7,1,2026-07-10T23:56:28.711013+05:30
Tirunelveli,Tamil Nadu,8.7139,77.7567,28.4,69,0.0,1005.6,8.6,42.8,29,10.0,7.3,7.3,179.0,41.0,2.5,7,5,4,1,2026-07-10T23:56:28.711022+05:30
Vellore,Tamil Nadu,12.9165,79.1325,26.3,82,0.0,985.0,7.8,38.9,63,20.4,14.9,16.7,271.0,41.0,5.0,7,5,7,1,2026-07-10T23:56:28.711030+05:30
Erode,Tamil Nadu,11.341,77.7172,25.9,81,0.0,991.4,8.2,44.6,48,15.4,12.7,18.4,203.0,29.0,4.3,7,5,7,1,2026-07-10T23:56:28.711038+05:30
Kochi,Kerala,9.9312,76.2673,25.9,91,0.1,1012.8,8.45,32.0,47,23.6,19.6,23.7,172.0,10.0,6.3,10,0,4,1,2026-07-10T23:56:28.711047+05:30
Thiruvananthapuram,Kerala,8.5241,76.9366,24.8,94,0.0,1012.1,7.25,41.8,41,15.3,9.3,5.6,197.0,46.0,2.2,3,0,4,1,2026-07-10T23:56:28.711055+05:30
Kozhikode,Kerala,11.2588,75.7804,24.1,99,0.0,1012.0,8.05,36.7,36,17.9,8.7,2.8,220.0,50.0,1.5,3,0,4,1,2026-07-10T23:56:28.711062+05:30
Thrissur,Kerala,10.5276,76.2144,24.8,99,0.0,1011.2,7.5,35.6,47,23.2,18.7,15.7,455.0,25.0,5.1,3,0,4,1,2026-07-10T23:56:28.711106+05:30
Kannur,Kerala,11.8745,75.3704,25.1,97,0.1,1011.2,8.5,32.4,45,22.4,13.1,14.1,477.0,26.0,3.3,10,0,4,1,2026-07-10T23:56:28.711128+05:30
Patna,Bihar,25.5941,85.1376,26.9,97,0.1,994.4,8.4,32.4,76,44.5,37.7,21.6,654.0,54.0,10.5,10,5,7,1,2026-07-10T23:56:28.711136+05:30
Gaya,Bihar,24.7914,85.0002,26.7,94,0.0,987.8,5.35,40.0,71,46.4,37.3,17.4,286.0,53.0,14.5,7,5,3,1,2026-07-10T23:56:28.711143+05:30
Muzaffarpur,Bihar,26.1209,85.3647,26.5,99,0.1,994.0,8.05,23.4,87,45.8,41.8,22.9,394.0,58.0,9.1,10,5,7,1,2026-07-10T23:56:28.711150+05:30
Bhagalpur,Bihar,25.2425,87.0117,26.9,97,0.1,994.3,8.15,25.6,91,26.1,24.4,16.4,354.0,61.0,6.0,10,5,7,1,2026-07-10T23:56:28.711158+05:30
Ranchi,Jharkhand,23.3441,85.3096,23.7,96,0.0,932.6,7.4,41.8,77,43.1,31.0,7.0,202.0,83.0,9.0,3,5,7,1,2026-07-10T23:56:28.711165+05:30
Jamshedpur,Jharkhand,22.8046,86.2029,25.9,96,0.0,985.6,8.25,29.5,82,50.2,38.4,14.3,270.0,82.0,32.6,7,5,7,1,2026-07-10T23:56:28.711173+05:30
Dhanbad,Jharkhand,23.7957,86.4304,26.3,96,0.1,973.9,8.0,31.3,111,60.5,53.4,41.5,263.0,47.0,81.4,10,5,7,1,2026-07-10T23:56:28.711180+05:30
Bokaro,Jharkhand,23.6693,86.1511,26.9,91,0.0,977.8,7.55,29.9,97,54.6,44.2,22.9,234.0,65.0,47.0,7,5,7,1,2026-07-10T23:56:28.711187+05:30
Bhubaneswar,Odisha,20.2961,85.8245,27.1,95,0.0,998.2,7.95,36.7,75,24.8,21.1,10.9,297.0,62.0,5.3,7,5,7,1,2026-07-10T23:56:28.711195+05:30
Cuttack,Odisha,20.4625,85.8828,27.3,92,0.0,1000.0,8.35,37.8,75,24.8,21.1,10.9,302.0,62.0,5.3,7,5,4,1,2026-07-10T23:56:28.711205+05:30
Rourkela,Odisha,22.2604,84.8536,25.9,97,0.0,980.6,7.2,37.8,101,59.8,37.8,12.6,362.0,76.0,15.1,7,5,7,1,2026-07-10T23:56:28.711212+05:30
Raipur,Chhattisgarh,21.2514,81.6296,28.1,74,0.0,971.0,8.55,40.7,107,70.5,40.6,24.3,462.0,61.0,44.3,7,5,7,1,2026-07-10T23:56:28.711220+05:30
Bhilai,Chhattisgarh,21.1938,81.3509,27.6,76,0.0,971.4,8.55,42.1,102,66.6,37.5,19.3,673.0,65.0,34.7,7,5,7,1,2026-07-10T23:56:28.711227+05:30
Guwahati,Assam,26.1158,91.7086,26.0,99,0.0,994.7,7.05,20.9,47,7.6,7.5,5.0,229.0,65.0,1.2,7,5,7,1,2026-07-10T23:56:28.711234+05:30
Agartala,Tripura,23.8315,91.2868,25.3,99,0.1,1000.6,7.5,50.4,41,10.5,10.3,9.6,194.0,70.0,4.8,10,5,4,1,2026-07-10T23:56:28.711241+05:30
Shillong,Meghalaya,25.5788,91.8933,20.8,95,0.0,852.5,3.15,42.5,30,1.9,1.8,5.5,190.0,62.0,1.6,3,5,3,1,2026-07-10T23:56:28.711248+05:30
Imphal,Manipur,24.817,93.9368,23.3,98,0.0,918.6,2.0,29.9,30,6.1,5.8,5.9,512.0,54.0,2.2,3,5,3,1,2026-07-10T23:56:28.711255+05:30
Aizawl,Mizoram,23.7271,92.7176,20.1,94,0.1,888.0,1.7,49.0,27,0.6,0.6,2.4,126.0,53.0,0.9,6,5,3,1,2026-07-10T23:56:28.711262+05:30
Kohima,Nagaland,25.6701,94.1077,21.2,94,0.0,851.2,5.0,23.0,26,4.1,4.0,5.3,345.0,50.0,1.2,3,5,3,1,2026-07-10T23:56:28.711269+05:30
Gangtok,Sikkim,27.3314,88.6138,19.1,95,0.0,833.3,5.5,30.6,47,6.0,5.9,4.1,285.0,111.0,1.4,3,10,3,1,2026-07-10T23:56:28.711276+05:30
Siliguri,West Bengal,26.7271,88.3953,25.4,95,0.0,986.4,8.4,34.6,70,23.1,22.7,9.4,796.0,103.0,4.1,7,5,7,1,2026-07-10T23:56:32.077508+05:30
Durgapur,West Bengal,23.5204,87.3119,26.7,95,0.0,988.7,6.75,32.0,103,61.2,56.8,44.7,316.0,46.0,69.1,7,5,7,1,2026-07-10T23:56:32.077543+05:30
Asansol,West Bengal,23.6739,86.9524,26.7,96,0.0,987.3,7.15,27.7,95,56.9,51.7,42.0,1126.0,46.0,66.3,7,5,7,1,2026-07-10T23:56:32.077554+05:30
Pondicherry,Puducherry,11.9139,79.8145,28.2,77,0.0,1009.2,5.85,37.4,67,24.9,18.7,17.3,433.0,60.0,9.3,7,0,0,1,2026-07-10T23:56:32.077564+05:30
Port Blair,Andaman and Nicobar Islands,11.6234,92.7265,27.7,81,0.1,1007.8,8.75,46.1,41,13.4,7.0,0.2,86.0,44.0,0.3,10,5,4,1,2026-07-10T23:56:32.077573+05:30
Haridwar,Uttarakhand,29.9457,78.1642,26.1,90,0.1,967.1,2.25,24.1,59,38.2,37.6,36.1,278.0,23.0,7.5,10,5,3,1,2026-07-10T23:56:32.077581+05:30
Rishikesh,Uttarakhand,30.0869,78.2676,25.8,91,0.2,959.6,2.5,23.8,47,9.9,9.5,7.8,340.0,94.0,2.4,10,5,3,1,2026-07-10T23:56:32.077590+05:30
Nainital,Uttarakhand,29.3919,79.4542,17.1,100,0.0,800.9,3.7,35.6,38,12.6,11.9,16.5,301.0,58.0,2.6,3,10,3,1,2026-07-10T23:56:32.077599+05:30
Mussoorie,Uttarakhand,30.4599,78.0664,16.7,100,0.1,798.3,4.5,32.4,55,13.7,13.5,28.8,318.0,61.0,5.5,6,10,3,1,2026-07-10T23:56:32.077606+05:30
Dharamshala,Himachal Pradesh,32.219,76.3234,21.6,93,0.0,863.9,8.2,29.5,80,14.8,14.1,12.5,595.0,78.0,0.4,3,5,7,1,2026-07-10T23:56:32.077614+05:30
Dalhousie,Himachal Pradesh,32.5387,75.971,16.1,100,0.0,799.3,7.95,28.8,151,25.8,23.9,24.2,770.0,88.0,2.5,3,10,7,1,2026-07-10T23:56:32.077623+05:30
Patiala,Punjab,30.3398,76.3869,27.6,87,0.0,970.0,7.15,22.0,142,57.5,39.2,25.4,687.0,67.0,13.8,7,5,7,1,2026-07-10T23:56:32.077630+05:30
Bhatinda,Punjab,30.211,74.9455,30.4,77,0.0,975.3,7.85,22.0,165,161.6,88.5,32.7,451.0,55.0,11.3,3,5,7,1,2026-07-10T23:56:32.077638+05:30
Rohtak,Haryana,28.8955,76.6066,28.6,83,0.0,973.6,7.0,32.0,172,244.0,99.7,57.9,616.0,39.0,22.0,7,5,7,1,2026-07-10T23:56:32.077645+05:30
Panipat,Haryana,29.3909,76.9635,26.7,92,0.0,972.6,4.8,25.9,476,588.6,140.2,31.4,831.0,57.0,12.1,7,5,3,1,2026-07-10T23:56:32.077653+05:30
Mathura,Uttar Pradesh,27.4924,77.6737,28.3,85,0.0,978.9,7.95,50.0,304,139.7,60.5,21.2,328.0,56.0,4.7,7,5,7,1,2026-07-10T23:56:32.077660+05:30
Vrindavan,Uttar Pradesh,27.5823,77.7027,28.4,89,0.0,979.4,7.9,47.2,304,139.7,60.5,21.2,371.0,56.0,4.7,7,5,7,1,2026-07-10T23:56:32.077668+05:30
Ayodhya,Uttar Pradesh,26.7922,82.1998,26.8,96,0.1,988.4,7.0,27.4,86,47.3,31.4,11.1,447.0,84.0,3.5,10,5,7,1,2026-07-10T23:56:32.077675+05:30
Ratlam,Madhya Pradesh,23.3315,75.0367,25.6,85,0.0,951.2,8.45,51.5,70,30.9,19.0,6.9,144.0,58.0,10.8,7,5,7,1,2026-07-10T23:56:32.077683+05:30
Sagar,Madhya Pradesh,23.8388,78.7378,27.2,67,0.0,945.7,8.6,48.2,86,44.4,25.1,4.9,173.0,74.0,4.0,7,5,7,1,2026-07-10T23:56:32.077690+05:30
Satna,Madhya Pradesh,24.6005,80.8322,28.3,74,0.0,966.0,8.6,35.6,95,44.9,25.6,5.3,175.0,71.0,4.2,7,5,7,1,2026-07-10T23:56:32.077698+05:30
Akola,Maharashtra,20.7002,77.0082,28.3,65,0.0,973.2,8.65,50.0,62,37.4,18.7,7.9,127.0,44.0,7.2,7,5,7,1,2026-07-10T23:56:32.077706+05:30
Amravati,Maharashtra,20.9374,77.7796,28.0,63,0.0,965.0,5.85,52.2,64,39.8,20.1,9.2,183.0,47.0,8.8,7,5,3,1,2026-07-10T23:56:32.077715+05:30
Latur,Maharashtra,18.4088,76.5604,25.7,73,0.0,939.2,8.7,42.8,49,21.0,11.4,4.9,144.0,47.0,3.3,7,5,7,1,2026-07-10T23:56:32.077722+05:30
Nanded,Maharashtra,19.1383,77.3091,28.1,65,0.0,967.2,8.4,40.7,58,27.2,17.6,7.1,168.0,63.0,5.5,7,5,7,1,2026-07-10T23:56:32.077729+05:30
Gulbarga,Karnataka,17.3297,76.8343,27.2,68,0.0,958.7,6.9,41.8,53,19.6,11.4,6.4,131.0,43.0,2.8,7,5,7,1,2026-07-10T23:56:32.077736+05:30
Bidar,Karnataka,17.9104,77.5199,26.4,67,0.0,934.9,8.8,43.2,56,25.4,14.9,8.0,155.0,53.0,2.8,7,5,7,1,2026-07-10T23:56:32.077743+05:30
Hospet,Karnataka,15.2689,76.3909,24.7,81,0.0,957.5,6.05,44.6,36,13.0,7.3,6.2,129.0,35.0,2.0,3,5,7,1,2026-07-10T23:56:32.077750+05:30
Tirupur,Tamil Nadu,11.1085,77.3411,24.0,92,0.0,977.5,8.5,41.4,52,18.0,15.5,23.4,160.0,22.0,5.7,3,5,7,1,2026-07-10T23:56:32.077757+05:30
Alappuzha,Kerala,9.4981,76.3388,25.7,94,0.1,1012.9,7.9,36.0,43,18.6,12.9,14.0,83.0,32.0,4.5,10,0,4,1,2026-07-10T23:56:32.077765+05:30
Munnar,Kerala,10.0889,77.0595,16.7,99,0.0,859.0,8.2,39.2,21,8.4,6.2,8.0,103.0,25.0,1.6,3,10,7,1,2026-07-10T23:56:32.077772+05:30
Silchar,Assam,24.8333,92.7789,26.4,98,0.1,999.1,3.2,29.2,32,7.6,7.1,5.9,255.0,57.0,2.7,10,5,3,1,2026-07-10T23:56:32.077780+05:30
Dibrugarh,Assam,27.4728,94.912,26.1,97,0.1,988.9,5.05,29.9,58,10.3,9.9,7.7,211.0,67.0,1.6,10,5,3,1,2026-07-10T23:56:32.077787+05:30
