city,state,latitude,longitude,temp,humidity,rain,pressure,uv_index,wind_gusts,aqi,pm10,pm2_5,mosquito_risk,arthritis_risk,migraine_risk,frizz_risk,updated_at
Delhi,Delhi,28.6139,77.209,31.1,30,0.0,981.9,7.25,22.0,170,428.4,81.5,0,5,7,0,2026-04-14T22:43:57.647899+05:30
Mumbai,Maharashtra,19.076,72.8777,30.3,74,0.0,1008.0,8.0,24.5,131,61.5,23.9,3,0,4,1,2026-04-14T22:43:57.647952+05:30
Bangalore,Karnataka,12.9716,77.5946,27.4,40,0.0,912.9,9.6,29.9,111,24.7,20.8,4,5,7,0,2026-04-14T22:43:57.647969+05:30
Hyderabad,Telangana,17.385,78.4867,31.6,43,0.0,953.1,9.25,24.8,104,62.4,53.4,0,5,7,1,2026-04-14T22:43:57.647981+05:30
Chennai,Tamil Nadu,13.0827,80.2707,28.6,83,0.0,1008.0,9.35,32.0,40,10.7,7.7,7,0,4,1,2026-04-14T22:43:57.647991+05:30
Kolkata,West Bengal,22.5726,88.3639,27.7,88,0.0,1005.5,8.8,27.4,96,31.1,25.8,7,5,4,1,2026-04-14T22:43:57.648001+05:30
Pune,Maharashtra,18.5204,73.8567,28.8,59,0.0,948.9,8.6,42.8,151,39.9,25.0,4,5,7,1,2026-04-14T22:43:57.648013+05:30
Ahmedabad,Gujarat,23.0225,72.5714,30.7,38,0.0,1001.1,8.1,33.5,69,47.7,17.7,0,5,4,0,2026-04-14T22:43:57.648021+05:30
Jaipur,Rajasthan,26.9124,75.7873,30.7,30,0.0,958.3,7.9,31.7,81,289.6,46.9,0,5,7,0,2026-04-14T22:43:57.648030+05:30
Lucknow,Uttar Pradesh,26.8467,80.9462,28.9,37,0.0,992.0,7.75,34.6,133,196.0,41.9,4,5,7,0,2026-04-14T22:43:57.648039+05:30
Kanpur,Uttar Pradesh,26.4499,80.3319,28.0,47,0.0,990.2,7.75,28.4,186,288.7,51.1,4,5,7,0,2026-04-14T22:43:57.648047+05:30
Chandigarh,Chandigarh,30.7333,76.7794,24.4,46,0.0,968.1,7.2,28.8,120,26.3,23.2,0,5,7,0,2026-04-14T22:43:57.648055+05:30
Srinagar,Jammu and Kashmir,34.0837,74.7973,11.6,75,0.0,839.9,8.2,18.4,97,61.2,48.7,3,5,7,0,2026-04-14T22:43:57.648063+05:30
Jammu,Jammu and Kashmir,32.7266,74.857,23.5,55,0.0,972.4,7.85,29.5,88,39.2,34.6,0,5,7,0,2026-04-14T22:43:57.648071+05:30
Amritsar,Punjab,31.634,74.8723,23.3,57,0.0,980.5,7.8,24.1,116,44.8,40.3,0,5,7,0,2026-04-14T22:43:57.648079+05:30
Ludhiana,Punjab,30.901,75.8573,25.4,47,0.0,978.4,7.4,28.4,102,32.7,31.1,4,5,7,0,2026-04-14T22:43:57.648086+05:30
Jalandhar,Punjab,31.326,75.5762,24.3,53,0.0,979.5,7.6,24.1,123,29.8,21.0,0,5,7,0,2026-04-14T22:43:57.648096+05:30
Dehradun,Uttarakhand,30.6284,78.0322,15.0,69,0.0,829.9,7.6,36.7,122,23.2,17.4,3,5,7,0,2026-04-14T22:43:57.648103+05:30
Shimla,Himachal Pradesh,31.1048,77.1734,13.5,60,0.0,784.0,7.7,43.9,122,23.3,16.7,0,5,7,0,2026-04-14T22:43:57.648111+05:30
Manali,Himachal Pradesh,32.2396,77.1887,14.9,68,0.0,820.5,9.5,29.9,126,24.9,12.6,3,5,7,0,2026-04-14T22:43:57.648120+05:30
Gurgaon,Haryana,28.4595,77.0266,27.8,42,0.0,980.1,7.4,14.4,486,741.3,104.8,4,5,7,0,2026-04-14T22:43:57.648128+05:30
Noida,Uttar Pradesh,28.5355,77.391,30.2,33,0.0,983.2,7.3,21.6,486,741.3,104.8,0,5,7,0,2026-04-14T22:43:57.648134+05:30
Ghaziabad,Uttar Pradesh,28.6692,77.4538,28.2,40,0.0,981.5,7.25,24.1,139,380.0,72.2,4,5,7,0,2026-04-14T22:43:57.648142+05:30
Faridabad,Haryana,28.4089,77.3178,30.6,34,0.0,982.5,7.35,17.6,486,741.3,104.8,0,5,7,0,2026-04-14T22:43:57.648152+05:30
Meerut,Uttar Pradesh,28.9845,77.7064,25.2,44,0.0,980.1,7.15,32.0,139,380.0,72.2,4,5,7,0,2026-04-14T22:43:57.648159+05:30
Agra,Uttar Pradesh,27.1767,78.0081,29.2,37,0.0,986.1,7.65,23.4,456,461.9,84.1,4,5,7,0,2026-04-14T22:43:57.648167+05:30
Varanasi,Uttar Pradesh,25.3176,82.9739,27.5,38,0.0,996.4,8.4,34.2,108,101.5,39.1,4,5,7,0,2026-04-14T22:43:57.648179+05:30
Prayagraj,Uttar Pradesh,25.4358,81.8463,28.3,39,0.0,995.0,8.3,31.3,107,99.2,40.3,4,5,7,0,2026-04-14T22:43:57.648186+05:30
Gorakhpur,Uttar Pradesh,26.7606,83.3732,26.8,39,0.0,996.0,8.2,21.6,114,39.9,20.5,4,5,7,0,2026-04-14T22:43:57.648193+05:30
Bareilly,Uttar Pradesh,28.367,79.4304,25.2,52,0.0,985.7,7.55,36.0,129,102.2,35.2,4,5,7,0,2026-04-14T22:43:57.648201+05:30
Aligarh,Uttar Pradesh,27.8974,78.088,27.6,42,0.0,984.2,7.45,30.2,316,423.8,85.2,4,5,7,0,2026-04-14T22:43:57.648208+05:30
Moradabad,Uttar Pradesh,28.8386,78.7733,24.6,49,0.0,982.5,7.35,35.6,105,109.0,43.2,0,5,7,0,2026-04-14T22:43:57.648214+05:30
Saharanpur,Uttar Pradesh,29.9637,77.546,23.5,49,0.0,974.6,6.9,32.0,98,25.6,24.7,0,5,7,0,2026-04-14T22:43:57.648221+05:30
Jhansi,Uttar Pradesh,25.4484,78.5685,30.2,39,0.0,976.8,8.2,28.1,93,65.0,19.8,0,5,7,0,2026-04-14T22:44:00.865986+05:30
Surat,Gujarat,21.1702,72.8311,28.8,74,0.0,1006.1,7.8,23.8,111,46.3,26.1,7,5,4,1,2026-04-14T22:44:00.866020+05:30
Vadodara,Gujarat,22.3072,73.1812,30.4,48,0.0,1003.2,8.1,31.0,86,43.0,27.9,0,5,4,1,2026-04-14T22:44:00.866031+05:30
Rajkot,Gujarat,22.3039,70.8022,27.3,73,0.0,994.3,7.8,33.8,61,53.9,21.2,7,5,7,1,2026-04-14T22:44:00.866040+05:30
Thane,Maharashtra,19.2183,72.9781,28.4,79,0.0,1007.5,8.0,36.4,131,61.5,23.9,7,5,4,1,2026-04-14T22:44:00.866047+05:30
Nagpur,Maharashtra,21.1458,79.0882,29.4,51,0.0,971.7,8.85,15.1,110,33.1,21.7,4,5,7,1,2026-04-14T22:44:00.866054+05:30
Nashik,Maharashtra,19.9975,73.7898,27.3,42,0.0,946.1,8.25,34.6,77,70.3,23.1,4,5,7,0,2026-04-14T22:44:00.866061+05:30
Aurangabad,Maharashtra,19.8762,75.3433,31.5,31,0.0,944.2,8.95,33.1,89,29.0,20.1,0,5,7,0,2026-04-14T22:44:00.866068+05:30
Solapur,Maharashtra,17.6599,75.9064,33.6,36,0.0,956.4,9.05,28.4,114,15.5,13.8,0,5,7,1,2026-04-14T22:44:00.866076+05:30
Kolhapur,Maharashtra,16.705,74.2433,25.3,77,0.0,948.0,9.05,42.1,105,39.1,30.7,7,5,7,1,2026-04-14T22:44:00.866082+05:30
Goa,Goa,15.2993,74.124,29.0,80,0.0,998.5,9.0,33.5,83,61.7,36.7,7,5,7,1,2026-04-14T22:44:00.866089+05:30
Jodhpur,Rajasthan,26.2389,73.0243,29.7,39,0.0,981.2,8.15,27.0,67,132.2,30.7,4,5,7,0,2026-04-14T22:44:00.866096+05:30
Udaipur,Rajasthan,24.5854,73.7125,27.4,33,0.0,946.5,8.7,40.0,54,89.2,24.5,4,5,7,0,2026-04-14T22:44:00.866103+05:30
Kota,Rajasthan,25.2138,75.8648,31.1,35,0.0,977.1,8.2,27.0,79,53.6,38.5,0,5,7,0,2026-04-14T22:44:00.866110+05:30
Bikaner,Rajasthan,28.0229,73.3119,31.6,26,0.0,980.3,8.0,20.9,63,70.1,21.1,0,5,7,0,2026-04-14T22:44:00.866116+05:30
Ajmer,Rajasthan,26.4499,74.6399,26.8,35,0.0,953.1,8.1,35.6,60,41.0,18.5,4,5,7,0,2026-04-14T22:44:00.866123+05:30
Gwalior,Madhya Pradesh,26.2183,78.1828,29.9,38,0.0,981.7,7.9,40.0,110,129.5,32.1,4,5,7,0,2026-04-14T22:44:00.866130+05:30
Indore,Madhya Pradesh,22.7196,75.8577,27.3,45,0.0,948.0,8.55,34.2,79,24.9,16.9,4,5,7,0,2026-04-14T22:44:00.866136+05:30
Bhopal,Madhya Pradesh,23.2599,77.4126,30.3,33,0.0,953.3,8.55,31.7,90,34.1,23.6,0,5,7,0,2026-04-14T22:44:00.866143+05:30
Jabalpur,Madhya Pradesh,23.1815,79.9864,29.2,49,0.0,960.4,8.65,16.6,95,77.1,29.3,4,5,7,1,2026-04-14T22:44:00.866149+05:30
Ujjain,Madhya Pradesh,23.1765,75.7885,27.7,47,0.0,953.7,8.45,33.5,86,21.9,16.2,4,5,7,0,2026-04-14T22:44:00.866156+05:30
Visakhapatnam,Andhra Pradesh,17.6868,83.2185,28.1,84,0.0,1003.9,9.15,39.6,65,24.0,17.5,7,5,4,1,2026-04-14T22:44:00.866164+05:30
Vijayawada,Andhra Pradesh,16.5062,80.648,27.8,78,0.0,1002.7,9.2,28.1,55,17.1,13.4,7,5,4,1,2026-04-14T22:44:00.866170+05:30
Guntur,Andhra Pradesh,16.3067,80.4365,27.4,87,0.0,1004.0,9.2,31.0,56,17.3,13.8,7,5,4,1,2026-04-14T22:44:00.866176+05:30
Nellore,Andhra Pradesh,14.4426,79.9865,28.0,85,0.0,1006.0,9.3,31.7,52,11.6,9.1,7,5,4,1,2026-04-14T22:44:00.866183+05:30
Kurnool,Andhra Pradesh,15.8281,78.0373,35.6,28,0.0,976.0,9.2,21.6,97,49.5,41.0,0,5,10,0,2026-04-14T22:44:00.866191+05:30
Kakinada,Andhra Pradesh,16.9891,82.2475,27.2,87,0.0,1007.9,9.15,30.2,55,20.5,13.1,7,5,4,1,2026-04-14T22:44:00.866198+05:30
Tirupati,Andhra Pradesh,13.6288,79.4192,29.3,58,0.0,992.6,9.4,32.4,73,28.4,26.6,4,5,7,1,2026-04-14T22:44:00.866205+05:30
Warangal,Telangana,17.9689,79.5941,31.4,54,0.0,978.1,9.1,24.1,101,30.2,26.9,0,5,7,1,2026-04-14T22:44:00.866211+05:30
Nizamabad,Telangana,18.6725,78.0941,33.0,44,0.0,964.2,9.05,25.6,96,42.4,34.7,0,5,7,1,2026-04-14T22:44:00.866217+05:30
Mysore,Karnataka,12.2958,76.6396,26.0,80,0.0,929.8,9.5,42.5,123,24.0,19.8,7,5,7,1,2026-04-14T22:44:00.866224+05:30
Mangalore,Karnataka,12.9141,74.856,30.3,77,0.0,1007.6,9.15,25.6,85,37.1,21.6,3,5,4,1,2026-04-14T22:44:00.866230+05:30
Hubli-Dharwad,Karnataka,15.3647,75.124,26.4,79,0.0,941.4,9.25,42.1,103,22.5,17.7,7,5,7,1,2026-04-14T22:44:00.866237+05:30
Belgaum,Karnataka,15.8497,74.4977,24.3,83,0.0,926.3,9.3,41.8,95,37.0,26.5,3,5,7,1,2026-04-14T22:44:04.084556+05:30
Coimbatore,Tamil Nadu,11.0168,76.9558,27.1,77,0.0,963.4,9.15,39.6,91,42.8,37.0,7,5,7,1,2026-04-14T22:44:04.084592+05:30
Madurai,Tamil Nadu,9.9252,78.1198,29.1,74,0.0,994.9,9.35,37.4,68,17.2,15.6,7,5,7,1,2026-04-14T22:44:04.084604+05:30
Trichy,Tamil Nadu,10.7905,78.7047,28.7,79,0.0,1000.9,9.4,22.3,58,13.0,12.4,7,5,4,1,2026-04-14T22:44:04.084612+05:30
Salem,Tamil Nadu,11.6643,78.146,29.3,57,0.0,978.2,9.45,19.4,74,28.6,24.2,4,5,7,1,2026-04-14T22:44:04.084619+05:30
Tirunelveli,Tamil Nadu,8.7139,77.7567,28.9,74,0.0,1004.9,9.3,40.3,75,24.5,19.7,7,5,4,1,2026-04-14T22:44:04.084627+05:30
Vellore,Tamil Nadu,12.9165,79.1325,27.2,68,0.0,985.5,9.4,30.6,88,49.2,47.0,7,5,7,1,2026-04-14T22:44:04.084634+05:30
Erode,Tamil Nadu,11.341,77.7172,31.2,53,0.0,989.6,9.3,26.6,74,15.5,13.6,0,5,7,1,2026-04-14T22:44:04.084642+05:30
Kochi,Kerala,9.9312,76.2673,29.4,81,0.0,1010.2,8.65,29.2,97,54.2,46.7,7,0,4,1,2026-04-14T22:44:04.084649+05:30
Thiruvananthapuram,Kerala,8.5241,76.9366,29.0,82,0.0,1009.7,9.15,23.0,71,27.8,16.8,7,0,4,1,2026-04-14T22:44:04.084657+05:30
Kozhikode,Kerala,11.2588,75.7804,29.7,83,0.0,1009.0,9.15,28.4,89,46.9,30.6,7,0,4,1,2026-04-14T22:44:04.084664+05:30
Thrissur,Kerala,10.5276,76.2144,29.6,82,0.0,1008.4,8.65,38.9,94,59.6,46.9,7,0,4,1,2026-04-14T22:44:04.084671+05:30
Kannur,Kerala,11.8745,75.3704,30.3,79,0.0,1008.1,9.15,31.3,91,44.8,29.3,3,0,4,1,2026-04-14T22:44:04.084678+05:30
Patna,Bihar,25.5941,85.1376,27.2,59,0.0,999.4,8.55,26.3,102,156.0,74.7,4,5,7,1,2026-04-14T22:44:04.084684+05:30
Gaya,Bihar,24.7914,85.0002,26.0,44,0.0,993.1,8.6,20.9,104,108.5,38.2,4,5,7,0,2026-04-14T22:44:04.084691+05:30
Muzaffarpur,Bihar,26.1209,85.3647,25.2,70,0.0,999.5,8.5,18.7,137,121.5,69.2,7,5,7,1,2026-04-14T22:44:04.084698+05:30
Bhagalpur,Bihar,25.2425,87.0117,27.5,57,0.0,1000.3,8.55,16.9,138,90.8,47.8,4,5,4,1,2026-04-14T22:44:04.084705+05:30
Ranchi,Jharkhand,23.3441,85.3096,24.2,32,0.0,938.0,9.1,32.8,78,111.5,28.3,0,5,7,0,2026-04-14T22:44:04.084711+05:30
Jamshedpur,Jharkhand,22.8046,86.2029,27.9,60,0.0,990.0,8.95,16.9,141,88.9,40.3,4,5,7,1,2026-04-14T22:44:04.084717+05:30
Dhanbad,Jharkhand,23.7957,86.4304,26.3,46,0.0,979.2,8.9,19.4,129,190.0,84.8,4,5,7,0,2026-04-14T22:44:04.084724+05:30
Bokaro,Jharkhand,23.6693,86.1511,29.2,32,0.0,983.7,8.9,26.3,127,165.3,75.4,4,5,7,0,2026-04-14T22:44:04.084731+05:30
Bhubaneswar,Odisha,20.2961,85.8245,27.7,87,0.0,1003.0,9.05,25.2,79,24.0,18.5,7,5,4,1,2026-04-14T22:44:04.084737+05:30
Cuttack,Odisha,20.4625,85.8828,27.6,90,0.0,1004.8,9.1,20.2,79,24.0,18.5,7,5,4,1,2026-04-14T22:44:04.084744+05:30
Rourkela,Odisha,22.2604,84.8536,27.6,56,0.0,984.3,8.85,21.6,96,91.5,38.9,4,5,7,1,2026-04-14T22:44:04.084750+05:30
Raipur,Chhattisgarh,21.2514,81.6296,31.4,44,0.0,973.1,8.9,17.6,177,81.0,46.4,0,5,7,1,2026-04-14T22:44:04.084756+05:30
Bhilai,Chhattisgarh,21.1938,81.3509,30.9,38,0.0,973.3,8.9,14.0,139,88.5,63.8,0,5,7,0,2026-04-14T22:44:04.084763+05:30
Guwahati,Assam,26.1158,91.7086,24.5,81,0.0,1001.7,8.5,28.1,117,70.5,55.2,3,5,4,1,2026-04-14T22:44:04.084768+05:30
Agartala,Tripura,23.8315,91.2868,26.4,91,0.0,1005.9,8.65,27.7,105,36.2,31.9,7,5,4,1,2026-04-14T22:44:04.084774+05:30
Shillong,Meghalaya,25.5788,91.8933,13.9,87,0.0,855.4,8.9,52.6,91,58.6,47.8,3,10,7,0,2026-04-14T22:44:04.084781+05:30
Imphal,Manipur,24.817,93.9368,18.6,91,0.0,923.8,8.8,70.6,130,71.9,57.7,3,10,7,1,2026-04-14T22:44:04.084788+05:30
Aizawl,Mizoram,23.7271,92.7176,21.1,82,0.0,893.1,8.95,45.0,109,55.8,44.4,3,5,7,1,2026-04-14T22:44:04.084794+05:30
Kohima,Nagaland,25.6701,94.1077,16.0,73,0.0,854.6,8.2,70.9,113,66.8,48.1,3,5,7,0,2026-04-14T22:44:04.084800+05:30
Gangtok,Sikkim,27.3314,88.6138,14.0,89,0.1,836.8,8.65,15.5,110,60.8,38.6,6,10,7,0,2026-04-14T22:44:04.084806+05:30
Siliguri,West Bengal,26.7271,88.3953,20.8,80,0.0,994.5,8.45,30.2,154,117.6,73.3,3,5,7,1,2026-04-14T22:44:07.311008+05:30
Durgapur,West Bengal,23.5204,87.3119,29.4,48,0.0,994.2,8.8,17.3,155,116.6,68.2,4,5,7,1,2026-04-14T22:44:07.311043+05:30
Asansol,West Bengal,23.6739,86.9524,29.9,43,0.0,992.9,8.85,18.7,117,141.6,58.1,4,5,7,0,2026-04-14T22:44:07.311053+05:30
Pondicherry,Puducherry,11.9139,79.8145,27.2,94,0.0,1009.3,9.3,27.0,37,8.5,5.7,7,0,4,1,2026-04-14T22:44:07.311061+05:30
Port Blair,Andaman and Nicobar Islands,11.6234,92.7265,29.4,70,0.0,1008.1,8.5,22.3,63,30.6,20.1,7,0,4,1,2026-04-14T22:44:07.311069+05:30
Haridwar,Uttarakhand,29.9457,78.1642,21.3,61,0.0,973.3,7.0,34.9,99,33.9,25.2,3,5,7,0,2026-04-14T22:44:07.311077+05:30
Rishikesh,Uttarakhand,30.0869,78.2676,20.3,59,0.0,966.4,7.1,36.7,113,35.0,18.3,0,5,7,0,2026-04-14T22:44:07.311084+05:30
Nainital,Uttarakhand,29.3919,79.4542,20.6,27,0.0,806.9,7.95,60.1,110,65.9,17.9,0,5,7,0,2026-04-14T22:44:07.311091+05:30
Mussoorie,Uttarakhand,30.4599,78.0664,16.9,50,0.0,802.7,7.5,44.6,121,37.8,28.4,0,5,7,0,2026-04-14T22:44:07.311099+05:30
Dharamshala,Himachal Pradesh,32.219,76.3234,20.5,46,0.0,869.4,7.75,24.5,108,22.7,15.9,0,5,7,0,2026-04-14T22:44:07.311105+05:30
Dalhousie,Himachal Pradesh,32.5387,75.971,17.5,49,0.0,804.0,8.0,23.0,95,36.8,30.6,0,5,7,0,2026-04-14T22:44:07.311113+05:30
Patiala,Punjab,30.3398,76.3869,23.5,47,0.0,977.3,7.1,31.7,199,98.7,40.4,0,5,7,0,2026-04-14T22:44:07.311121+05:30
Bhatinda,Punjab,30.211,74.9455,26.4,42,0.0,983.0,7.75,31.3,106,34.3,21.7,4,5,7,0,2026-04-14T22:44:07.311128+05:30
Rohtak,Haryana,28.8955,76.6066,25.4,46,0.0,980.5,7.3,25.6,206,435.9,85.2,4,5,7,0,2026-04-14T22:44:07.311135+05:30
Panipat,Haryana,29.3909,76.9635,24.0,49,0.0,979.2,7.1,31.7,551,739.5,113.9,0,5,7,0,2026-04-14T22:44:07.311143+05:30
Mathura,Uttar Pradesh,27.4924,77.6737,27.5,43,0.0,985.0,7.6,23.0,404,325.0,74.5,4,5,7,0,2026-04-14T22:44:07.311150+05:30
Vrindavan,Uttar Pradesh,27.5823,77.7027,27.8,39,0.0,985.6,7.55,24.1,404,325.0,74.5,4,5,7,0,2026-04-14T22:44:07.311156+05:30
Ayodhya,Uttar Pradesh,26.7922,82.1998,26.9,36,0.0,994.2,7.95,38.2,115,95.9,25.6,4,5,7,0,2026-04-14T22:44:07.311163+05:30
Ratlam,Madhya Pradesh,23.3315,75.0367,27.5,53,0.0,954.0,8.4,33.1,62,21.2,14.6,4,5,7,1,2026-04-14T22:44:07.311170+05:30
Sagar,Madhya Pradesh,23.8388,78.7378,30.5,36,0.0,949.3,8.55,27.7,98,33.4,17.1,0,5,7,0,2026-04-14T22:44:07.311177+05:30
Satna,Madhya Pradesh,24.6005,80.8322,27.6,33,0.0,970.6,8.6,26.6,93,87.8,21.7,4,5,7,0,2026-04-14T22:44:07.311183+05:30
Akola,Maharashtra,20.7002,77.0082,30.3,40,0.0,974.1,8.75,28.1,96,21.6,17.5,0,5,7,0,2026-04-14T22:44:07.311191+05:30
Amravati,Maharashtra,20.9374,77.7796,29.0,48,0.0,966.2,8.8,22.7,99,19.5,16.6,4,5,7,1,2026-04-14T22:44:07.311198+05:30
Latur,Maharashtra,18.4088,76.5604,30.2,45,0.0,939.9,9.05,30.2,108,24.6,20.0,0,5,7,1,2026-04-14T22:44:07.311204+05:30
Nanded,Maharashtra,19.1383,77.3091,29.3,53,0.0,967.5,8.95,20.5,93,28.8,24.8,4,5,7,1,2026-04-14T22:44:07.311210+05:30
Gulbarga,Karnataka,17.3297,76.8343,33.7,31,0.0,958.0,9.1,22.3,147,39.1,34.7,0,5,7,0,2026-04-14T22:44:07.311217+05:30
Bidar,Karnataka,17.9104,77.5199,31.4,38,0.0,935.5,9.1,24.8,100,28.6,22.6,0,5,7,0,2026-04-14T22:44:07.311223+05:30
Hospet,Karnataka,15.2689,76.3909,32.1,55,0.0,955.7,9.25,28.1,154,76.6,65.0,0,5,7,1,2026-04-14T22:44:07.311229+05:30
Tirupur,Tamil Nadu,11.1085,77.3411,29.4,74,0.0,976.5,9.3,31.0,90,28.9,24.2,7,5,7,1,2026-04-14T22:44:07.311235+05:30
Alappuzha,Kerala,9.4981,76.3388,29.4,79,0.0,1010.5,8.8,24.8,96,52.5,37.7,7,0,4,1,2026-04-14T22:44:07.311241+05:30
Munnar,Kerala,10.0889,77.0595,22.2,97,0.0,858.9,9.7,31.0,77,39.8,33.6,3,5,7,1,2026-04-14T22:44:07.311248+05:30
Silchar,Assam,24.8333,92.7789,23.3,87,0.0,1006.3,8.7,28.4,145,86.4,66.8,3,5,4,1,2026-04-14T22:44:07.311254+05:30
Dibrugarh,Assam,27.4728,94.912,22.8,82,0.0,996.6,8.55,18.4,89,42.6,23.8,3,5,7,1,2026-04-14T22:44:07.311260+05:30
