city,state,latitude,longitude,temp,humidity,rain,pressure,uv_index,wind_gusts,aqi,pm10,pm2_5,no2,co,o3,so2,mosquito_risk,arthritis_risk,migraine_risk,frizz_risk,updated_at
Delhi,Delhi,28.6139,77.209,32.2,47,0.0,977.4,7.8,27.7,157,138.8,90.8,77.7,742.0,45.0,41.0,0,5,7,1,2026-06-04T00:16:13.897062+05:30
Mumbai,Maharashtra,19.076,72.8777,29.1,77,0.0,1005.8,7.7,38.9,70,37.7,15.6,9.3,225.0,45.0,8.1,7,5,4,1,2026-06-04T00:16:13.897110+05:30
Bangalore,Karnataka,12.9716,77.5946,21.0,91,0.0,910.6,8.95,41.4,45,10.3,9.3,22.7,477.0,36.0,5.9,3,5,7,1,2026-06-04T00:16:13.897126+05:30
Hyderabad,Telangana,17.385,78.4867,27.3,66,0.0,950.9,6.75,36.0,86,44.6,33.9,30.7,281.0,54.0,8.7,7,5,7,1,2026-06-04T00:16:13.897139+05:30
Chennai,Tamil Nadu,13.0827,80.2707,28.9,75,0.0,1004.6,8.4,39.2,85,16.2,15.4,20.5,440.0,77.0,12.3,7,5,4,1,2026-06-04T00:16:13.897147+05:30
Kolkata,West Bengal,22.5726,88.3639,29.6,90,0.0,1000.9,8.95,32.8,120,55.5,51.0,16.9,448.0,68.0,10.9,7,5,4,1,2026-06-04T00:16:13.897156+05:30
Pune,Maharashtra,18.5204,73.8567,24.9,80,0.0,946.1,8.3,42.5,62,15.9,8.4,7.9,167.0,43.0,6.7,3,5,7,1,2026-06-04T00:16:13.897163+05:30
Ahmedabad,Gujarat,23.0225,72.5714,32.0,66,0.0,997.3,8.05,29.9,90,46.1,29.0,14.3,193.0,51.0,6.3,3,5,7,1,2026-06-04T00:16:13.897170+05:30
Jaipur,Rajasthan,26.9124,75.7873,30.6,41,0.0,954.5,8.25,32.0,118,181.6,55.1,24.3,419.0,54.0,8.9,0,5,7,0,2026-06-04T00:16:13.897180+05:30
Lucknow,Uttar Pradesh,26.8467,80.9462,29.8,64,0.0,988.1,8.3,29.2,125,140.6,77.1,66.8,782.0,22.0,23.7,7,5,7,1,2026-06-04T00:16:13.897187+05:30
Kanpur,Uttar Pradesh,26.4499,80.3319,30.0,67,0.0,986.2,8.3,33.8,127,134.6,65.9,61.5,426.0,24.0,17.6,7,5,7,1,2026-06-04T00:16:13.897193+05:30
Chandigarh,Chandigarh,30.7333,76.7794,26.2,68,0.0,962.8,7.8,28.1,120,84.8,58.2,45.5,1076.0,54.0,15.2,7,5,7,1,2026-06-04T00:16:13.897201+05:30
Srinagar,Jammu and Kashmir,34.0837,74.7973,16.4,94,0.0,838.4,7.5,24.8,89,51.2,43.7,36.7,1105.0,17.0,2.0,3,10,7,0,2026-06-04T00:16:13.897209+05:30
Jammu,Jammu and Kashmir,32.7266,74.857,26.9,62,0.0,966.7,8.6,25.9,100,61.5,43.8,29.6,554.0,60.0,5.7,7,5,7,1,2026-06-04T00:16:13.897216+05:30
Amritsar,Punjab,31.634,74.8723,30.0,54,0.0,974.6,8.45,23.4,151,90.6,70.3,47.3,635.0,50.0,13.7,4,5,7,1,2026-06-04T00:16:13.897221+05:30
Ludhiana,Punjab,30.901,75.8573,29.1,63,0.0,972.6,8.05,31.7,151,136.9,83.8,50.7,993.0,55.0,14.7,7,5,7,1,2026-06-04T00:16:13.897228+05:30
Jalandhar,Punjab,31.326,75.5762,28.0,67,0.0,973.5,8.25,25.6,155,123.9,94.1,67.0,687.0,30.0,12.8,7,5,7,1,2026-06-04T00:16:13.897234+05:30
Dehradun,Uttarakhand,30.6284,78.0322,15.0,98,0.0,826.0,8.25,33.1,70,26.9,22.5,33.4,223.0,54.0,0.8,3,10,7,0,2026-06-04T00:16:13.897241+05:30
Shimla,Himachal Pradesh,31.1048,77.1734,12.8,84,0.0,779.6,7.75,40.0,87,53.0,38.9,25.3,499.0,62.0,0.1,3,10,7,0,2026-06-04T00:16:13.897251+05:30
Manali,Himachal Pradesh,32.2396,77.1887,13.5,75,0.0,813.6,9.9,34.9,40,8.0,6.6,82.1,400.0,27.0,0.0,3,5,7,0,2026-06-04T00:16:13.897257+05:30
Gurgaon,Haryana,28.4595,77.0266,30.5,51,0.0,975.6,7.9,29.9,161,156.0,83.6,60.8,1546.0,61.0,29.3,0,5,7,1,2026-06-04T00:16:13.897263+05:30
Noida,Uttar Pradesh,28.5355,77.391,29.6,62,0.0,978.7,7.85,23.0,161,156.0,83.6,60.8,968.0,61.0,29.3,7,5,7,1,2026-06-04T00:16:13.897269+05:30
Ghaziabad,Uttar Pradesh,28.6692,77.4538,28.9,65,0.0,976.9,7.8,19.4,153,119.7,82.7,53.0,623.0,43.0,18.1,7,5,7,1,2026-06-04T00:16:13.897276+05:30
Faridabad,Haryana,28.4089,77.3178,31.4,50,0.0,978.1,7.85,24.8,161,156.0,83.6,60.8,865.0,61.0,29.3,0,5,7,1,2026-06-04T00:16:13.897282+05:30
Meerut,Uttar Pradesh,28.9845,77.7064,29.8,62,0.0,975.9,7.7,23.0,153,119.7,82.7,53.0,670.0,43.0,18.1,7,5,7,1,2026-06-04T00:16:13.897288+05:30
Agra,Uttar Pradesh,27.1767,78.0081,29.9,58,0.0,982.1,8.15,25.6,254,746.9,126.2,18.9,561.0,90.0,13.7,4,5,7,1,2026-06-04T00:16:13.897294+05:30
Varanasi,Uttar Pradesh,25.3176,82.9739,31.2,52,0.0,992.6,8.75,37.1,145,75.7,67.1,54.6,720.0,27.0,22.7,0,5,7,1,2026-06-04T00:16:13.897300+05:30
Prayagraj,Uttar Pradesh,25.4358,81.8463,31.4,52,0.0,990.8,8.65,36.4,123,72.9,60.1,53.6,365.0,31.0,18.9,0,5,7,1,2026-06-04T00:16:13.897306+05:30
Gorakhpur,Uttar Pradesh,26.7606,83.3732,28.8,72,0.0,992.0,8.65,39.2,152,61.0,53.6,37.4,339.0,44.0,11.5,7,5,7,1,2026-06-04T00:16:13.897313+05:30
Bareilly,Uttar Pradesh,28.367,79.4304,28.5,72,0.0,981.3,8.1,21.6,151,103.8,69.8,46.2,935.0,42.0,12.8,7,5,7,1,2026-06-04T00:16:13.897318+05:30
Aligarh,Uttar Pradesh,27.8974,78.088,28.8,64,0.0,980.0,7.95,19.4,150,119.7,71.2,37.4,683.0,59.0,14.8,7,5,7,1,2026-06-04T00:16:13.897324+05:30
Moradabad,Uttar Pradesh,28.8386,78.7733,29.9,63,0.0,978.2,7.95,28.1,159,124.8,89.2,46.8,978.0,51.0,17.4,7,5,7,1,2026-06-04T00:16:13.897329+05:30
Saharanpur,Uttar Pradesh,29.9637,77.546,27.8,71,0.0,970.1,7.55,24.8,133,128.1,99.9,72.8,863.0,31.0,25.4,7,5,7,1,2026-06-04T00:16:13.897335+05:30
Jhansi,Uttar Pradesh,25.4484,78.5685,26.8,73,0.0,973.0,8.2,25.6,82,51.0,28.6,12.3,417.0,60.0,5.8,7,5,7,1,2026-06-04T00:16:17.204463+05:30
Surat,Gujarat,21.1702,72.8311,29.6,81,0.0,1003.1,7.55,41.8,86,43.2,23.7,18.8,201.0,39.0,31.6,7,5,4,1,2026-06-04T00:16:17.204493+05:30
Vadodara,Gujarat,22.3072,73.1812,29.9,74,0.0,1000.0,8.0,37.4,84,34.7,22.7,20.0,228.0,32.0,21.8,7,5,4,1,2026-06-04T00:16:17.204504+05:30
Rajkot,Gujarat,22.3039,70.8022,30.5,61,0.0,990.2,7.55,34.9,73,35.5,18.5,5.0,124.0,47.0,4.2,3,5,7,1,2026-06-04T00:16:17.204512+05:30
Thane,Maharashtra,19.2183,72.9781,28.6,80,0.0,1005.3,7.6,36.0,70,37.7,15.6,9.3,185.0,45.0,8.1,7,5,4,1,2026-06-04T00:16:17.204520+05:30
Nagpur,Maharashtra,21.1458,79.0882,33.5,40,0.0,969.1,8.9,35.6,69,38.3,28.7,24.1,313.0,49.0,13.3,0,5,7,1,2026-06-04T00:16:17.204527+05:30
Nashik,Maharashtra,19.9975,73.7898,24.6,85,0.0,943.2,8.05,42.1,69,22.6,10.9,7.4,148.0,41.0,5.5,3,5,7,1,2026-06-04T00:16:17.204534+05:30
Aurangabad,Maharashtra,19.8762,75.3433,27.5,69,0.0,941.8,9.0,50.4,73,28.8,18.2,5.8,158.0,80.0,6.0,7,5,7,1,2026-06-04T00:16:17.204540+05:30
Solapur,Maharashtra,17.6599,75.9064,28.4,64,0.0,955.3,2.75,44.6,63,13.5,9.7,5.4,206.0,63.0,2.3,7,5,3,1,2026-06-04T00:16:17.204546+05:30
Kolhapur,Maharashtra,16.705,74.2433,24.0,86,0.0,946.5,3.6,35.6,46,12.9,8.1,6.5,162.0,42.0,2.4,3,5,3,1,2026-06-04T00:16:17.204552+05:30
Goa,Goa,15.2993,74.124,25.9,88,0.0,996.9,2.4,21.2,34,23.4,14.8,8.5,286.0,41.0,1.7,7,5,3,1,2026-06-04T00:16:17.204558+05:30
Jodhpur,Rajasthan,26.2389,73.0243,32.7,49,0.0,977.1,8.45,32.0,107,184.9,46.4,5.3,199.0,66.0,3.3,0,5,7,1,2026-06-04T00:16:17.204563+05:30
Udaipur,Rajasthan,24.5854,73.7125,28.6,60,0.0,942.2,8.85,33.1,92,70.5,31.4,5.1,192.0,67.0,3.7,4,5,7,1,2026-06-04T00:16:17.204569+05:30
Kota,Rajasthan,25.2138,75.8648,30.5,57,0.0,973.4,8.4,31.0,105,67.1,34.8,7.2,221.0,73.0,5.3,0,5,7,1,2026-06-04T00:16:17.204574+05:30
Bikaner,Rajasthan,28.0229,73.3119,33.5,35,0.0,975.1,8.45,28.4,105,60.3,29.6,4.9,308.0,59.0,2.9,0,5,7,0,2026-06-04T00:16:17.204598+05:30
Ajmer,Rajasthan,26.4499,74.6399,29.8,48,0.0,949.6,8.35,38.2,94,81.5,36.3,5.9,184.0,71.0,5.6,4,5,7,1,2026-06-04T00:16:17.204604+05:30
Gwalior,Madhya Pradesh,26.2183,78.1828,29.0,70,0.0,977.6,7.75,36.4,101,113.9,46.7,17.6,285.0,64.0,8.6,7,5,7,1,2026-06-04T00:16:17.204610+05:30
Indore,Madhya Pradesh,22.7196,75.8577,25.8,73,0.0,945.3,8.6,27.7,87,50.8,33.5,10.8,459.0,73.0,8.4,7,5,7,1,2026-06-04T00:16:17.204615+05:30
Bhopal,Madhya Pradesh,23.2599,77.4126,24.9,81,0.1,950.1,8.4,47.5,80,54.2,36.6,18.0,247.0,50.0,6.6,6,5,7,1,2026-06-04T00:16:17.204622+05:30
Jabalpur,Madhya Pradesh,23.1815,79.9864,30.4,50,0.0,956.9,8.35,30.6,73,35.0,24.0,11.1,259.0,72.0,6.2,0,5,7,1,2026-06-04T00:16:17.204628+05:30
Ujjain,Madhya Pradesh,23.1765,75.7885,26.8,71,0.0,949.8,8.55,28.1,86,58.2,33.8,4.9,595.0,83.0,6.6,7,5,7,1,2026-06-04T00:16:17.204634+05:30
Visakhapatnam,Andhra Pradesh,17.6868,83.2185,29.7,92,0.0,999.6,9.05,44.6,88,34.7,28.1,23.9,417.0,97.0,39.8,7,5,7,1,2026-06-04T00:16:17.204640+05:30
Vijayawada,Andhra Pradesh,16.5062,80.648,31.1,61,0.0,998.6,9.0,43.6,83,22.9,20.0,6.6,239.0,104.0,4.7,3,5,7,1,2026-06-04T00:16:17.204646+05:30
Guntur,Andhra Pradesh,16.3067,80.4365,29.8,68,0.0,1000.0,9.05,45.0,82,26.3,23.7,11.3,246.0,84.0,4.1,7,5,4,1,2026-06-04T00:16:17.204652+05:30
Nellore,Andhra Pradesh,14.4426,79.9865,26.2,91,0.0,1003.1,9.0,37.4,97,15.5,13.2,6.2,197.0,89.0,2.6,7,5,4,1,2026-06-04T00:16:17.204659+05:30
Kurnool,Andhra Pradesh,15.8281,78.0373,27.3,74,0.0,975.2,2.65,47.5,59,16.7,13.2,9.4,229.0,73.0,5.8,7,5,3,1,2026-06-04T00:16:17.204666+05:30
Kakinada,Andhra Pradesh,16.9891,82.2475,29.7,83,0.0,1003.3,9.05,36.0,88,33.2,24.2,3.2,415.0,129.0,4.3,7,5,4,1,2026-06-04T00:16:17.204672+05:30
Tirupati,Andhra Pradesh,13.6288,79.4192,26.1,87,0.0,988.9,9.0,28.4,62,16.3,15.2,18.6,220.0,51.0,2.3,7,5,7,1,2026-06-04T00:16:17.204677+05:30
Warangal,Telangana,17.9689,79.5941,32.0,50,0.0,974.8,9.0,30.2,93,42.5,35.3,17.1,313.0,64.0,6.1,0,5,7,1,2026-06-04T00:16:17.204683+05:30
Nizamabad,Telangana,18.6725,78.0941,29.6,55,0.0,961.9,8.3,38.9,71,50.5,34.1,14.0,239.0,81.0,7.0,4,5,7,1,2026-06-04T00:16:17.204688+05:30
Mysore,Karnataka,12.2958,76.6396,21.5,90,0.0,927.7,8.8,49.7,28,8.1,6.9,11.4,172.0,37.0,2.4,3,5,7,1,2026-06-04T00:16:17.204694+05:30
Mangalore,Karnataka,12.9141,74.856,24.2,98,0.1,1006.8,8.6,32.4,36,12.6,10.2,11.0,349.0,33.0,3.2,6,5,4,1,2026-06-04T00:16:17.204700+05:30
Hubli-Dharwad,Karnataka,15.3647,75.124,22.5,93,0.0,939.6,6.35,38.9,30,5.5,3.9,6.0,127.0,46.0,1.2,3,5,7,1,2026-06-04T00:16:17.204706+05:30
Belgaum,Karnataka,15.8497,74.4977,22.0,93,0.0,924.3,1.4,30.6,32,12.4,8.2,8.7,126.0,40.0,2.4,3,5,3,1,2026-06-04T00:16:20.493673+05:30
Coimbatore,Tamil Nadu,11.0168,76.9558,24.0,86,0.0,960.9,8.85,48.6,28,8.5,6.9,8.9,184.0,38.0,2.8,3,5,7,1,2026-06-04T00:16:20.493702+05:30
Madurai,Tamil Nadu,9.9252,78.1198,28.2,65,0.0,992.1,8.65,55.1,59,16.1,14.2,24.5,146.0,24.0,5.6,7,5,7,1,2026-06-04T00:16:20.493712+05:30
Trichy,Tamil Nadu,10.7905,78.7047,28.5,62,0.0,998.5,8.85,60.8,42,10.1,7.8,8.9,146.0,46.0,3.8,7,5,7,1,2026-06-04T00:16:20.493719+05:30
Salem,Tamil Nadu,11.6643,78.146,27.0,68,0.0,976.5,8.1,44.3,45,15.8,13.4,18.8,266.0,39.0,6.5,7,5,7,1,2026-06-04T00:16:20.493727+05:30
Tirunelveli,Tamil Nadu,8.7139,77.7567,28.5,68,0.0,1002.9,8.3,50.0,23,5.7,4.5,6.2,157.0,36.0,1.5,7,5,4,1,2026-06-04T00:16:20.493733+05:30
Vellore,Tamil Nadu,12.9165,79.1325,26.5,79,0.0,982.8,9.0,38.9,64,18.7,18.2,22.7,246.0,42.0,6.0,7,5,7,1,2026-06-04T00:16:20.493740+05:30
Erode,Tamil Nadu,11.341,77.7172,27.0,70,0.0,988.3,8.55,49.3,33,13.9,11.9,17.0,177.0,34.0,3.7,7,5,7,1,2026-06-04T00:16:20.493746+05:30
Kochi,Kerala,9.9312,76.2673,26.4,91,0.1,1009.2,8.2,26.3,41,19.3,17.2,24.0,196.0,14.0,5.1,10,0,4,1,2026-06-04T00:16:20.493752+05:30
Thiruvananthapuram,Kerala,8.5241,76.9366,24.8,97,0.1,1009.1,8.1,45.0,24,9.9,5.5,1.5,174.0,42.0,0.4,6,0,4,1,2026-06-04T00:16:20.493758+05:30
Kozhikode,Kerala,11.2588,75.7804,25.1,98,0.1,1008.5,8.6,30.6,26,7.6,4.8,2.1,439.0,53.0,0.8,10,0,4,1,2026-06-04T00:16:20.493764+05:30
Thrissur,Kerala,10.5276,76.2144,25.0,99,0.2,1007.8,8.55,25.9,42,22.9,21.2,20.8,212.0,15.0,4.7,10,5,4,1,2026-06-04T00:16:20.493771+05:30
Kannur,Kerala,11.8745,75.3704,25.2,95,0.1,1007.5,8.5,27.4,31,8.5,6.9,11.7,222.0,30.0,2.9,10,5,4,1,2026-06-04T00:16:20.493776+05:30
Patna,Bihar,25.5941,85.1376,29.1,73,0.0,995.1,8.85,29.9,161,89.4,78.9,52.9,976.0,33.0,19.1,7,5,7,1,2026-06-04T00:16:20.493782+05:30
Gaya,Bihar,24.7914,85.0002,28.9,72,0.0,989.0,8.9,28.8,152,82.7,72.6,22.6,736.0,83.0,17.6,7,5,7,1,2026-06-04T00:16:20.493788+05:30
Muzaffarpur,Bihar,26.1209,85.3647,28.5,75,0.0,995.0,8.85,33.1,165,95.7,84.3,54.2,922.0,36.0,18.4,7,5,7,1,2026-06-04T00:16:20.493794+05:30
Bhagalpur,Bihar,25.2425,87.0117,29.9,70,0.0,995.8,8.8,28.1,154,83.4,73.6,36.3,674.0,65.0,16.7,7,5,7,1,2026-06-04T00:16:20.493800+05:30
Ranchi,Jharkhand,23.3441,85.3096,25.5,73,0.0,933.9,9.3,32.8,151,78.9,60.1,17.8,376.0,80.0,6.3,7,5,7,1,2026-06-04T00:16:20.493805+05:30
Jamshedpur,Jharkhand,22.8046,86.2029,27.9,82,0.0,986.3,8.9,39.6,155,80.8,73.1,32.0,703.0,69.0,31.8,7,5,7,1,2026-06-04T00:16:20.493811+05:30
Dhanbad,Jharkhand,23.7957,86.4304,29.0,71,0.0,975.4,9.05,33.8,170,97.1,88.5,59.9,1569.0,60.0,146.2,7,5,7,1,2026-06-04T00:16:20.493817+05:30
Bokaro,Jharkhand,23.6693,86.1511,28.5,74,0.0,979.2,9.1,31.3,165,87.1,71.9,38.3,1286.0,86.0,96.6,7,5,7,1,2026-06-04T00:16:20.493822+05:30
Bhubaneswar,Odisha,20.2961,85.8245,29.0,92,0.0,997.6,9.0,28.8,96,41.7,38.4,14.6,424.0,94.0,9.7,7,5,7,1,2026-06-04T00:16:20.493828+05:30
Cuttack,Odisha,20.4625,85.8828,29.3,91,0.0,999.4,9.1,35.6,96,41.7,38.4,14.6,486.0,94.0,9.7,7,5,7,1,2026-06-04T00:16:20.493833+05:30
Rourkela,Odisha,22.2604,84.8536,29.5,71,0.0,980.7,9.0,26.3,161,96.9,76.1,32.4,746.0,68.0,26.6,7,5,7,1,2026-06-04T00:16:20.493839+05:30
Raipur,Chhattisgarh,21.2514,81.6296,32.2,38,0.0,970.4,8.95,35.3,130,57.3,47.1,41.8,741.0,59.0,55.5,0,5,7,0,2026-06-04T00:16:20.493845+05:30
Bhilai,Chhattisgarh,21.1938,81.3509,30.8,46,0.0,970.8,8.95,34.6,118,55.1,45.4,36.9,851.0,64.0,46.4,0,5,7,1,2026-06-04T00:16:20.493851+05:30
Guwahati,Assam,26.1158,91.7086,24.6,99,0.2,997.9,8.8,39.2,111,38.5,36.7,8.5,732.0,89.0,4.4,6,5,7,1,2026-06-04T00:16:20.493856+05:30
Agartala,Tripura,23.8315,91.2868,28.0,87,0.0,1001.8,8.85,20.5,95,35.7,33.2,18.2,305.0,42.0,5.1,7,5,4,1,2026-06-04T00:16:20.493862+05:30
Shillong,Meghalaya,25.5788,91.8933,19.2,93,0.0,854.3,7.15,29.2,85,38.4,35.2,7.7,314.0,88.0,3.1,3,10,7,1,2026-06-04T00:16:20.493867+05:30
Imphal,Manipur,24.817,93.9368,22.1,96,0.0,919.5,9.25,30.2,90,50.9,46.3,26.3,850.0,26.0,3.2,3,5,7,1,2026-06-04T00:16:20.493873+05:30
Aizawl,Mizoram,23.7271,92.7176,20.4,93,0.0,889.4,9.1,23.0,74,15.7,12.0,6.2,227.0,57.0,1.6,3,5,7,1,2026-06-04T00:16:20.493879+05:30
Kohima,Nagaland,25.6701,94.1077,18.4,90,0.0,851.9,9.25,29.2,83,29.0,24.9,11.4,364.0,55.0,1.5,3,10,7,1,2026-06-04T00:16:20.493884+05:30
Gangtok,Sikkim,27.3314,88.6138,17.4,90,0.1,834.8,9.15,40.7,97,28.1,23.0,8.6,426.0,137.0,2.6,6,10,7,0,2026-06-04T00:16:20.493890+05:30
Siliguri,West Bengal,26.7271,88.3953,25.4,88,0.0,988.4,8.7,31.3,136,59.8,47.8,12.1,560.0,120.0,5.1,7,5,7,1,2026-06-04T00:16:23.799439+05:30
Durgapur,West Bengal,23.5204,87.3119,28.7,84,0.0,990.2,9.0,23.8,168,80.8,78.2,29.3,875.0,86.0,46.3,7,5,7,1,2026-06-04T00:16:23.799472+05:30
Asansol,West Bengal,23.6739,86.9524,28.9,75,0.0,988.8,8.9,24.5,165,80.3,76.4,37.0,515.0,78.0,68.0,7,5,7,1,2026-06-04T00:16:23.799483+05:30
Pondicherry,Puducherry,11.9139,79.8145,28.1,92,0.0,1006.4,8.85,39.6,57,18.6,16.6,16.4,388.0,72.0,6.1,7,5,4,1,2026-06-04T00:16:23.799492+05:30
Port Blair,Andaman and Nicobar Islands,11.6234,92.7265,25.6,95,0.1,1005.3,2.1,36.0,34,10.6,5.7,0.2,103.0,69.0,0.5,10,5,0,1,2026-06-04T00:16:23.799500+05:30
Haridwar,Uttarakhand,29.9457,78.1642,25.5,87,0.0,968.4,7.6,24.1,94,53.8,48.4,35.1,353.0,42.0,9.4,7,5,7,1,2026-06-04T00:16:23.799509+05:30
Rishikesh,Uttarakhand,30.0869,78.2676,24.1,80,0.0,961.2,7.7,23.8,89,30.7,25.1,20.6,447.0,75.0,4.3,3,5,7,1,2026-06-04T00:16:23.799516+05:30
Nainital,Uttarakhand,29.3919,79.4542,14.7,90,0.0,802.0,7.4,31.3,108,74.7,52.9,27.8,327.0,63.0,4.6,3,10,7,0,2026-06-04T00:16:23.799524+05:30
Mussoorie,Uttarakhand,30.4599,78.0664,15.8,82,0.0,800.0,7.9,40.7,108,44.9,39.3,43.7,308.0,62.0,9.9,3,10,7,0,2026-06-04T00:16:23.799531+05:30
Dharamshala,Himachal Pradesh,32.219,76.3234,20.5,71,0.0,865.1,8.5,36.0,54,18.4,11.3,13.9,298.0,75.0,0.2,3,5,7,0,2026-06-04T00:16:23.799538+05:30
Dalhousie,Himachal Pradesh,32.5387,75.971,13.0,90,0.0,799.4,8.6,31.7,99,48.3,30.7,27.7,616.0,78.0,2.5,3,10,7,0,2026-06-04T00:16:23.799546+05:30
Patiala,Punjab,30.3398,76.3869,27.6,65,0.0,972.0,7.7,34.2,150,145.3,75.9,34.4,642.0,66.0,14.7,7,5,7,1,2026-06-04T00:16:23.799554+05:30
Bhatinda,Punjab,30.211,74.9455,30.3,52,0.0,977.4,8.35,28.4,155,82.9,53.0,20.8,536.0,92.0,12.0,0,5,7,1,2026-06-04T00:16:23.799561+05:30
Rohtak,Haryana,28.8955,76.6066,30.0,55,0.0,975.8,7.8,20.5,159,155.5,85.2,77.0,562.0,41.0,29.3,4,5,7,1,2026-06-04T00:16:23.799568+05:30
Panipat,Haryana,29.3909,76.9635,28.9,63,0.0,974.5,7.65,23.0,165,285.0,120.6,80.6,729.0,33.0,28.0,7,5,7,1,2026-06-04T00:16:23.799575+05:30
Mathura,Uttar Pradesh,27.4924,77.6737,29.4,56,0.0,981.1,8.1,18.4,141,319.4,78.0,26.5,598.0,77.0,10.7,4,5,7,1,2026-06-04T00:16:23.799598+05:30
Vrindavan,Uttar Pradesh,27.5823,77.7027,30.0,52,0.0,981.6,8.05,18.4,141,319.4,78.0,26.5,465.0,77.0,10.7,4,5,7,1,2026-06-04T00:16:23.799606+05:30
Ayodhya,Uttar Pradesh,26.7922,82.1998,28.6,72,0.0,990.0,8.4,47.2,121,71.2,57.9,43.8,632.0,33.0,11.3,7,5,7,1,2026-06-04T00:16:23.799613+05:30
Ratlam,Madhya Pradesh,23.3315,75.0367,29.5,59,0.0,950.9,8.5,29.9,87,58.0,33.3,4.2,209.0,81.0,6.1,4,5,7,1,2026-06-04T00:16:23.799620+05:30
Sagar,Madhya Pradesh,23.8388,78.7378,28.4,60,0.0,945.7,7.6,25.9,72,44.1,26.9,11.5,234.0,62.0,3.4,4,5,7,1,2026-06-04T00:16:23.799627+05:30
Satna,Madhya Pradesh,24.6005,80.8322,27.9,71,0.0,966.4,8.75,28.1,87,51.1,29.1,25.4,375.0,69.0,5.5,7,5,7,1,2026-06-04T00:16:23.799634+05:30
Akola,Maharashtra,20.7002,77.0082,30.5,52,0.1,971.2,8.85,33.5,68,54.4,30.2,15.7,229.0,68.0,7.9,3,5,7,1,2026-06-04T00:16:23.799642+05:30
Amravati,Maharashtra,20.9374,77.7796,32.3,42,0.0,963.2,8.85,34.6,68,49.8,29.6,19.9,214.0,53.0,7.2,0,5,7,1,2026-06-04T00:16:23.799651+05:30
Latur,Maharashtra,18.4088,76.5604,26.6,72,0.1,937.5,8.75,39.2,68,27.4,16.9,6.6,173.0,75.0,2.6,10,5,7,1,2026-06-04T00:16:23.799657+05:30
Nanded,Maharashtra,19.1383,77.3091,30.2,58,0.0,965.9,8.95,40.7,71,59.4,36.0,22.0,236.0,57.0,8.3,0,5,7,1,2026-06-04T00:16:23.799663+05:30
Gulbarga,Karnataka,17.3297,76.8343,27.0,71,0.0,956.9,6.45,50.4,62,27.4,18.1,15.5,224.0,61.0,3.5,7,5,7,1,2026-06-04T00:16:23.799669+05:30
Bidar,Karnataka,17.9104,77.5199,26.5,72,0.0,933.4,8.95,32.8,75,38.4,27.8,23.5,198.0,56.0,4.6,7,5,7,1,2026-06-04T00:16:23.799675+05:30
Hospet,Karnataka,15.2689,76.3909,24.8,82,0.0,954.8,8.75,33.1,37,6.4,5.0,7.7,206.0,49.0,1.6,3,5,7,1,2026-06-04T00:16:23.799681+05:30
Tirupur,Tamil Nadu,11.1085,77.3411,25.5,78,0.0,974.4,8.95,50.8,35,16.5,14.6,20.7,175.0,29.0,4.8,7,5,7,1,2026-06-04T00:16:23.799687+05:30
Alappuzha,Kerala,9.4981,76.3388,26.2,95,0.1,1009.3,8.1,38.9,29,13.0,9.3,7.8,90.0,41.0,1.6,10,0,4,1,2026-06-04T00:16:23.799693+05:30
Munnar,Kerala,10.0889,77.0595,17.1,100,0.1,856.6,8.4,45.0,27,5.7,4.8,7.3,104.0,36.0,1.8,6,10,7,1,2026-06-04T00:16:23.799699+05:30
Silchar,Assam,24.8333,92.7789,25.7,96,0.1,1001.4,8.8,22.3,103,47.4,40.6,10.2,477.0,90.0,4.9,10,5,4,1,2026-06-04T00:16:23.799705+05:30
Dibrugarh,Assam,27.4728,94.912,24.0,97,0.2,991.1,8.95,33.8,70,21.8,19.7,9.8,374.0,74.0,1.8,6,5,7,1,2026-06-04T00:16:23.799710+05:30
