city,state,latitude,longitude,temp,humidity,rain,pressure,uv_index,wind_gusts,aqi,pm10,pm2_5,mosquito_risk,arthritis_risk,migraine_risk,frizz_risk,updated_at
Delhi,Delhi,28.6139,77.209,32.8,38,0.0,986.0,5.95,18.7,169,194.6,55.4,0,5,3,1,2026-03-07T15:02:18.364907+05:30
Mumbai,Maharashtra,19.076,72.8777,26.9,80,0.0,1008.0,7.5,24.8,108,46.4,43.2,7,0,4,1,2026-03-07T15:02:18.364956+05:30
Bangalore,Karnataka,12.9716,77.5946,32.2,28,0.0,911.7,9.2,24.8,114,35.4,30.2,0,5,7,0,2026-03-07T15:02:18.364971+05:30
Hyderabad,Telangana,17.385,78.4867,36.5,18,0.0,953.3,8.5,28.1,98,22.0,15.7,0,5,10,0,2026-03-07T15:02:18.364981+05:30
Chennai,Tamil Nadu,13.0827,80.2707,32.8,50,0.0,1007.0,8.9,34.9,96,39.2,31.3,0,5,4,1,2026-03-07T15:02:18.364990+05:30
Kolkata,West Bengal,22.5726,88.3639,31.4,47,0.0,1007.6,7.85,23.4,140,75.4,58.7,0,5,4,1,2026-03-07T15:02:18.364999+05:30
Pune,Maharashtra,18.5204,73.8567,37.5,16,0.0,948.6,8.05,25.2,108,17.8,15.1,0,5,10,0,2026-03-07T15:02:18.365010+05:30
Ahmedabad,Gujarat,23.0225,72.5714,35.9,25,0.0,1003.5,7.3,13.0,107,23.3,17.5,0,5,7,0,2026-03-07T15:02:18.365018+05:30
Jaipur,Rajasthan,26.9124,75.7873,36.5,17,0.0,962.7,6.75,18.4,87,50.5,14.7,0,5,10,0,2026-03-07T15:02:18.365026+05:30
Lucknow,Uttar Pradesh,26.8467,80.9462,32.2,40,0.0,996.4,6.5,16.9,162,94.8,68.0,0,5,7,1,2026-03-07T15:02:18.365033+05:30
Kanpur,Uttar Pradesh,26.4499,80.3319,31.6,46,0.0,994.7,6.5,13.7,161,113.6,68.5,0,5,7,1,2026-03-07T15:02:18.365041+05:30
Chandigarh,Chandigarh,30.7333,76.7794,31.5,45,0.0,972.0,5.9,21.2,158,85.9,56.9,0,5,3,1,2026-03-07T15:02:18.365049+05:30
Srinagar,Jammu and Kashmir,34.0837,74.7973,16.9,61,0.0,846.4,5.6,15.8,117,42.3,24.2,3,5,3,0,2026-03-07T15:02:18.365056+05:30
Jammu,Jammu and Kashmir,32.7266,74.857,29.1,59,0.0,976.2,5.35,14.4,133,49.6,36.7,4,5,3,1,2026-03-07T15:02:18.365064+05:30
Amritsar,Punjab,31.634,74.8723,31.7,41,0.0,983.8,6.3,18.7,152,73.3,34.9,0,5,7,1,2026-03-07T15:02:18.365071+05:30
Ludhiana,Punjab,30.901,75.8573,32.2,39,0.0,982.0,6.1,16.2,169,102.9,57.0,0,5,7,1,2026-03-07T15:02:18.365078+05:30
Jalandhar,Punjab,31.326,75.5762,32.1,40,0.0,983.1,6.3,18.4,165,92.2,49.4,0,5,7,1,2026-03-07T15:02:18.365087+05:30
Dehradun,Uttarakhand,30.6284,78.0322,22.1,64,0.0,834.8,6.2,28.8,106,51.5,37.1,3,5,7,0,2026-03-07T15:02:18.365094+05:30
Shimla,Himachal Pradesh,31.1048,77.1734,20.8,62,0.0,790.4,6.3,40.0,123,41.1,29.7,3,5,7,0,2026-03-07T15:02:18.365101+05:30
Manali,Himachal Pradesh,32.2396,77.1887,22.8,28,0.0,825.7,7.2,46.4,78,18.6,8.6,0,5,7,0,2026-03-07T15:02:18.365108+05:30
Gurgaon,Haryana,28.4595,77.0266,33.1,35,0.0,984.4,6.05,11.5,231,538.3,71.2,0,5,7,0,2026-03-07T15:02:18.365115+05:30
Noida,Uttar Pradesh,28.5355,77.391,33.3,37,0.0,987.5,5.95,17.6,231,538.3,71.2,0,5,3,1,2026-03-07T15:02:18.365122+05:30
Ghaziabad,Uttar Pradesh,28.6692,77.4538,32.2,44,0.0,985.7,5.95,16.9,169,202.6,63.6,0,5,3,1,2026-03-07T15:02:18.365128+05:30
Faridabad,Haryana,28.4089,77.3178,32.5,42,0.0,986.8,6.0,13.3,231,538.3,71.2,0,5,3,1,2026-03-07T15:02:18.365135+05:30
Meerut,Uttar Pradesh,28.9845,77.7064,32.2,44,0.0,984.5,5.8,20.2,169,202.6,63.6,0,5,3,1,2026-03-07T15:02:18.365142+05:30
Agra,Uttar Pradesh,27.1767,78.0081,34.7,31,0.0,990.6,6.3,15.5,168,271.0,50.3,0,5,7,0,2026-03-07T15:02:18.365167+05:30
Varanasi,Uttar Pradesh,25.3176,82.9739,32.3,44,0.0,999.9,7.15,15.5,177,89.4,74.7,0,5,7,1,2026-03-07T15:02:18.365179+05:30
Prayagraj,Uttar Pradesh,25.4358,81.8463,31.1,48,0.0,998.7,7.0,13.3,171,85.4,66.4,0,5,7,1,2026-03-07T15:02:18.365187+05:30
Gorakhpur,Uttar Pradesh,26.7606,83.3732,31.7,44,0.0,1000.1,6.85,11.2,170,77.5,64.3,0,5,4,1,2026-03-07T15:02:18.365194+05:30
Bareilly,Uttar Pradesh,28.367,79.4304,31.2,49,0.0,989.9,6.15,13.0,165,124.8,78.2,0,5,7,1,2026-03-07T15:02:18.365201+05:30
Aligarh,Uttar Pradesh,27.8974,78.088,33.0,41,0.0,988.6,6.1,16.6,179,271.9,62.9,0,5,7,1,2026-03-07T15:02:18.365210+05:30
Moradabad,Uttar Pradesh,28.8386,78.7733,31.2,49,0.0,986.7,5.95,14.8,167,123.9,77.1,0,5,3,1,2026-03-07T15:02:18.365217+05:30
Saharanpur,Uttar Pradesh,29.9637,77.546,31.4,48,0.0,978.7,5.6,24.5,170,104.5,66.4,0,5,3,1,2026-03-07T15:02:18.365223+05:30
Jhansi,Uttar Pradesh,25.4484,78.5685,35.5,19,0.0,980.4,6.95,26.6,99,99.7,33.8,0,5,10,0,2026-03-07T15:02:21.582256+05:30
Surat,Gujarat,21.1702,72.8311,33.5,46,0.0,1007.4,7.2,24.8,153,61.7,60.5,0,5,4,1,2026-03-07T15:02:21.582290+05:30
Vadodara,Gujarat,22.3072,73.1812,36.8,26,0.0,1005.3,7.35,16.9,147,25.8,24.2,0,5,7,0,2026-03-07T15:02:21.582302+05:30
Rajkot,Gujarat,22.3039,70.8022,35.1,29,0.0,995.5,7.15,17.6,67,29.9,16.0,0,5,10,0,2026-03-07T15:02:21.582311+05:30
Thane,Maharashtra,19.2183,72.9781,31.1,60,0.0,1007.8,7.5,33.5,108,46.4,43.2,0,5,4,1,2026-03-07T15:02:21.582320+05:30
Nagpur,Maharashtra,21.1458,79.0882,36.6,21,0.0,973.7,7.85,21.2,69,41.7,20.1,0,5,10,0,2026-03-07T15:02:21.582329+05:30
Nashik,Maharashtra,19.9975,73.7898,35.8,18,0.0,946.5,7.65,22.3,101,20.4,19.0,0,5,10,0,2026-03-07T15:02:21.582337+05:30
Aurangabad,Maharashtra,19.8762,75.3433,36.2,19,0.0,944.9,8.2,22.7,86,17.8,16.2,0,5,10,0,2026-03-07T15:02:21.582344+05:30
Solapur,Maharashtra,17.6599,75.9064,36.7,17,0.0,956.9,8.4,22.7,74,18.1,12.9,0,5,10,0,2026-03-07T15:02:21.582352+05:30
Kolhapur,Maharashtra,16.705,74.2433,35.5,21,0.0,947.6,8.55,28.8,151,20.0,16.8,0,5,10,0,2026-03-07T15:02:21.582361+05:30
Goa,Goa,15.2993,74.124,30.9,63,0.0,997.1,8.6,31.3,154,50.8,47.1,3,5,7,1,2026-03-07T15:02:21.582369+05:30
Jodhpur,Rajasthan,26.2389,73.0243,35.5,21,0.0,985.6,7.0,20.2,66,38.5,10.4,0,5,10,0,2026-03-07T15:02:21.582377+05:30
Udaipur,Rajasthan,24.5854,73.7125,35.3,21,0.0,949.4,7.65,20.2,51,10.5,9.0,0,5,10,0,2026-03-07T15:02:21.582385+05:30
Kota,Rajasthan,25.2138,75.8648,36.5,20,0.0,981.1,7.05,14.4,82,31.5,24.2,0,5,10,0,2026-03-07T15:02:21.582392+05:30
Bikaner,Rajasthan,28.0229,73.3119,35.7,20,0.0,984.1,6.75,20.5,52,76.1,19.3,0,5,10,0,2026-03-07T15:02:21.582400+05:30
Ajmer,Rajasthan,26.4499,74.6399,34.9,21,0.0,957.7,7.0,18.0,64,15.8,11.3,0,5,7,0,2026-03-07T15:02:21.582407+05:30
Gwalior,Madhya Pradesh,26.2183,78.1828,33.3,33,0.0,986.0,6.65,20.9,114,99.9,27.1,0,5,7,0,2026-03-07T15:02:21.582415+05:30
Indore,Madhya Pradesh,22.7196,75.8577,35.2,21,0.0,950.1,7.6,16.2,84,20.9,16.8,0,5,10,0,2026-03-07T15:02:21.582422+05:30
Bhopal,Madhya Pradesh,23.2599,77.4126,35.1,23,0.0,955.9,7.5,18.7,72,36.4,14.4,0,5,10,0,2026-03-07T15:02:21.582429+05:30
Jabalpur,Madhya Pradesh,23.1815,79.9864,33.6,33,0.0,963.2,7.55,25.6,85,74.0,30.4,0,5,7,0,2026-03-07T15:02:21.582436+05:30
Ujjain,Madhya Pradesh,23.1765,75.7885,34.6,23,0.0,956.0,7.5,13.7,93,19.7,17.5,0,5,7,0,2026-03-07T15:02:21.582444+05:30
Visakhapatnam,Andhra Pradesh,17.6868,83.2185,30.5,60,0.0,1004.4,8.45,36.7,136,47.1,39.6,0,5,4,1,2026-03-07T15:02:21.582452+05:30
Vijayawada,Andhra Pradesh,16.5062,80.648,34.7,45,0.0,1001.9,8.6,27.0,138,47.8,39.1,0,5,4,1,2026-03-07T15:02:21.582460+05:30
Guntur,Andhra Pradesh,16.3067,80.4365,34.3,44,0.0,1003.2,8.6,30.6,136,48.1,38.4,0,5,4,1,2026-03-07T15:02:21.582467+05:30
Nellore,Andhra Pradesh,14.4426,79.9865,34.7,44,0.0,1005.2,8.75,34.9,109,49.9,42.1,0,5,4,1,2026-03-07T15:02:21.582476+05:30
Kurnool,Andhra Pradesh,15.8281,78.0373,38.5,15,0.0,975.8,8.6,27.0,74,34.2,21.7,0,5,10,0,2026-03-07T15:02:21.582485+05:30
Kakinada,Andhra Pradesh,16.9891,82.2475,31.9,56,0.0,1007.7,8.5,33.1,104,40.7,32.1,0,5,4,1,2026-03-07T15:02:21.582493+05:30
Tirupati,Andhra Pradesh,13.6288,79.4192,36.3,24,0.0,990.1,8.9,31.7,146,47.8,40.2,0,5,10,0,2026-03-07T15:02:21.582500+05:30
Warangal,Telangana,17.9689,79.5941,36.7,21,0.0,978.3,8.35,19.1,89,29.6,18.9,0,5,10,0,2026-03-07T15:02:21.582506+05:30
Nizamabad,Telangana,18.6725,78.0941,36.5,19,0.0,965.0,8.2,25.2,104,28.1,16.8,0,5,10,0,2026-03-07T15:02:21.582513+05:30
Mysore,Karnataka,12.2958,76.6396,33.0,29,0.0,928.2,9.2,38.2,120,34.0,31.1,0,5,7,0,2026-03-07T15:02:21.582519+05:30
Mangalore,Karnataka,12.9141,74.856,28.8,77,0.0,1005.6,8.8,25.6,153,54.8,50.9,7,5,4,1,2026-03-07T15:02:21.582526+05:30
Hubli-Dharwad,Karnataka,15.3647,75.124,36.0,17,0.0,940.4,8.8,25.2,129,26.1,23.3,0,5,10,0,2026-03-07T15:02:21.582533+05:30
Belgaum,Karnataka,15.8497,74.4977,34.9,19,0.0,925.7,8.8,41.4,130,19.0,16.2,0,5,7,0,2026-03-07T15:02:24.799752+05:30
Coimbatore,Tamil Nadu,11.0168,76.9558,33.8,34,0.0,960.9,9.2,38.2,101,32.8,29.9,0,5,7,0,2026-03-07T15:02:24.799783+05:30
Madurai,Tamil Nadu,9.9252,78.1198,36.1,29,0.0,991.7,9.15,27.7,94,36.2,30.7,0,5,10,0,2026-03-07T15:02:24.799793+05:30
Trichy,Tamil Nadu,10.7905,78.7047,36.6,28,0.0,998.4,9.05,25.9,93,37.4,31.5,0,5,10,0,2026-03-07T15:02:24.799801+05:30
Salem,Tamil Nadu,11.6643,78.146,35.9,31,0.0,975.8,9.1,19.8,105,38.1,33.2,0,5,10,1,2026-03-07T15:02:24.799809+05:30
Tirunelveli,Tamil Nadu,8.7139,77.7567,38.1,22,0.0,1001.3,9.15,49.3,97,33.5,28.5,0,5,7,0,2026-03-07T15:02:24.799817+05:30
Vellore,Tamil Nadu,12.9165,79.1325,36.0,23,0.0,983.4,9.0,33.5,150,44.2,35.9,0,5,10,0,2026-03-07T15:02:24.799824+05:30
Erode,Tamil Nadu,11.341,77.7172,36.6,30,0.0,987.4,9.1,20.2,113,36.1,32.4,0,5,10,1,2026-03-07T15:02:24.799830+05:30
Kochi,Kerala,9.9312,76.2673,27.8,81,0.0,1008.0,8.6,26.6,123,27.2,25.7,7,0,4,1,2026-03-07T15:02:24.799838+05:30
Thiruvananthapuram,Kerala,8.5241,76.9366,28.1,79,0.0,1007.1,9.0,33.1,99,30.7,28.2,7,5,4,1,2026-03-07T15:02:24.799845+05:30
Kozhikode,Kerala,11.2588,75.7804,29.1,76,0.0,1007.2,8.9,27.0,126,23.3,21.8,7,5,4,1,2026-03-07T15:02:24.799852+05:30
Thrissur,Kerala,10.5276,76.2144,31.4,66,0.0,1006.3,8.95,32.8,119,27.8,26.3,3,5,4,1,2026-03-07T15:02:24.799859+05:30
Kannur,Kerala,11.8745,75.3704,30.1,69,0.0,1006.4,8.9,30.6,150,44.9,41.7,3,5,4,1,2026-03-07T15:02:24.799865+05:30
Patna,Bihar,25.5941,85.1376,32.4,41,0.0,1002.8,7.3,20.2,160,82.0,67.8,0,5,4,1,2026-03-07T15:02:24.799872+05:30
Gaya,Bihar,24.7914,85.0002,30.7,56,0.0,995.8,7.4,23.4,153,87.5,67.3,0,5,7,1,2026-03-07T15:02:24.799878+05:30
Muzaffarpur,Bihar,26.1209,85.3647,32.7,37,0.0,1002.9,7.25,17.6,169,80.6,68.0,0,5,4,1,2026-03-07T15:02:24.799884+05:30
Bhagalpur,Bihar,25.2425,87.0117,31.1,46,0.0,1004.0,7.3,14.4,163,80.8,64.7,0,5,4,1,2026-03-07T15:02:24.799890+05:30
Ranchi,Jharkhand,23.3441,85.3096,30.7,31,0.0,939.6,8.05,23.8,152,103.6,65.2,0,5,7,0,2026-03-07T15:02:24.799896+05:30
Jamshedpur,Jharkhand,22.8046,86.2029,34.2,29,0.0,991.8,7.95,22.7,143,99.4,64.7,0,5,7,0,2026-03-07T15:02:24.799903+05:30
Dhanbad,Jharkhand,23.7957,86.4304,33.8,29,0.0,981.4,7.8,24.8,164,102.7,75.2,0,5,7,0,2026-03-07T15:02:24.799909+05:30
Bokaro,Jharkhand,23.6693,86.1511,31.8,34,0.0,985.3,7.8,16.9,167,107.6,75.4,0,5,7,0,2026-03-07T15:02:24.799916+05:30
Bhubaneswar,Odisha,20.2961,85.8245,31.8,52,0.0,1003.5,8.25,31.0,150,59.0,48.2,0,5,4,1,2026-03-07T15:02:24.799923+05:30
Cuttack,Odisha,20.4625,85.8828,34.1,42,0.0,1004.9,8.25,29.9,150,59.0,48.2,0,5,4,1,2026-03-07T15:02:24.799929+05:30
Rourkela,Odisha,22.2604,84.8536,34.6,31,0.0,985.6,7.85,19.8,159,106.2,67.1,0,5,7,0,2026-03-07T15:02:24.799936+05:30
Raipur,Chhattisgarh,21.2514,81.6296,35.6,25,0.0,975.2,7.95,20.9,145,84.8,36.8,0,5,10,0,2026-03-07T15:02:24.799942+05:30
Bhilai,Chhattisgarh,21.1938,81.3509,36.3,26,0.0,975.4,7.95,18.4,121,79.2,34.7,0,5,10,0,2026-03-07T15:02:24.799949+05:30
Guwahati,Assam,26.1158,91.7086,31.3,45,0.0,1003.1,7.3,21.6,146,65.7,55.9,0,5,4,1,2026-03-07T15:02:24.799956+05:30
Agartala,Tripura,23.8315,91.2868,32.4,40,0.0,1007.6,7.6,18.7,152,60.1,45.6,0,5,4,1,2026-03-07T15:02:24.799963+05:30
Shillong,Meghalaya,25.5788,91.8933,20.3,39,0.0,859.4,7.45,42.1,106,51.6,43.3,0,5,7,0,2026-03-07T15:02:24.799969+05:30
Imphal,Manipur,24.817,93.9368,25.5,42,0.0,925.4,7.85,40.7,162,55.9,49.8,4,5,7,0,2026-03-07T15:02:24.799976+05:30
Aizawl,Mizoram,23.7271,92.7176,26.9,36,0.0,895.5,7.8,31.0,174,84.1,76.6,4,5,7,0,2026-03-07T15:02:24.799982+05:30
Kohima,Nagaland,25.6701,94.1077,19.5,70,0.0,857.6,7.7,56.5,158,61.2,52.7,3,5,7,0,2026-03-07T15:02:24.799988+05:30
Gangtok,Sikkim,27.3314,88.6138,15.9,83,0.0,840.4,7.25,15.1,155,60.3,52.7,3,10,7,0,2026-03-07T15:02:24.799995+05:30
Siliguri,West Bengal,26.7271,88.3953,23.6,70,0.0,997.4,7.25,14.8,153,63.6,51.7,3,5,7,1,2026-03-07T15:02:28.014903+05:30
Durgapur,West Bengal,23.5204,87.3119,32.4,36,0.0,996.7,7.8,23.0,159,95.2,75.0,0,5,7,0,2026-03-07T15:02:28.014933+05:30
Asansol,West Bengal,23.6739,86.9524,31.3,40,0.0,995.4,7.8,19.1,158,97.1,74.5,0,5,7,1,2026-03-07T15:02:28.014943+05:30
Pondicherry,Puducherry,11.9139,79.8145,34.8,46,0.0,1007.5,8.9,31.3,88,33.1,25.8,0,5,4,1,2026-03-07T15:02:28.014951+05:30
Port Blair,Andaman and Nicobar Islands,11.6234,92.7265,28.2,67,0.0,1007.8,8.85,16.2,93,56.8,37.4,7,5,4,1,2026-03-07T15:02:28.014959+05:30
Haridwar,Uttarakhand,29.9457,78.1642,30.8,53,0.0,977.4,5.75,23.8,162,102.2,68.5,0,5,3,1,2026-03-07T15:02:28.014966+05:30
Rishikesh,Uttarakhand,30.0869,78.2676,30.2,52,0.0,970.2,5.8,24.5,160,100.1,67.3,0,5,3,1,2026-03-07T15:02:28.014973+05:30
Nainital,Uttarakhand,29.3919,79.4542,22.6,60,0.0,810.7,6.6,54.7,158,96.9,64.7,0,5,7,0,2026-03-07T15:02:28.014980+05:30
Mussoorie,Uttarakhand,30.4599,78.0664,21.6,65,0.0,807.4,6.1,40.7,160,102.9,68.2,3,5,7,0,2026-03-07T15:02:28.014988+05:30
Dharamshala,Himachal Pradesh,32.219,76.3234,25.7,63,0.0,873.8,6.1,20.9,53,24.2,10.6,7,5,7,1,2026-03-07T15:02:28.014994+05:30
Dalhousie,Himachal Pradesh,32.5387,75.971,22.9,52,0.0,808.9,6.55,16.2,101,36.4,22.4,0,5,7,0,2026-03-07T15:02:28.015002+05:30
Patiala,Punjab,30.3398,76.3869,32.1,42,0.0,981.3,5.8,16.9,171,138.3,62.4,0,5,3,1,2026-03-07T15:02:28.015009+05:30
Bhatinda,Punjab,30.211,74.9455,33.9,29,0.0,986.5,6.45,20.2,134,69.8,31.0,0,5,7,0,2026-03-07T15:02:28.015015+05:30
Rohtak,Haryana,28.8955,76.6066,33.0,34,0.0,984.7,5.95,13.3,176,198.4,40.4,0,5,3,0,2026-03-07T15:02:28.015023+05:30
Panipat,Haryana,29.3909,76.9635,32.6,40,0.0,983.4,5.75,18.0,207,242.1,54.8,0,5,3,1,2026-03-07T15:02:28.015029+05:30
Mathura,Uttar Pradesh,27.4924,77.6737,34.3,30,0.0,989.7,6.2,15.8,168,254.3,46.8,0,5,7,0,2026-03-07T15:02:28.015036+05:30
Vrindavan,Uttar Pradesh,27.5823,77.7027,33.7,34,0.0,990.2,6.2,15.5,168,254.3,46.8,0,5,7,0,2026-03-07T15:02:28.015043+05:30
Ayodhya,Uttar Pradesh,26.7922,82.1998,31.6,46,0.0,998.4,6.65,18.7,172,82.7,64.0,0,5,7,1,2026-03-07T15:02:28.015049+05:30
Ratlam,Madhya Pradesh,23.3315,75.0367,34.5,22,0.0,956.8,7.45,10.8,77,16.2,14.6,0,5,7,0,2026-03-07T15:02:28.015055+05:30
Sagar,Madhya Pradesh,23.8388,78.7378,34.2,28,0.0,952.4,7.4,22.3,69,48.2,16.5,0,5,7,0,2026-03-07T15:02:28.015062+05:30
Satna,Madhya Pradesh,24.6005,80.8322,34.2,33,0.0,973.3,7.4,20.2,152,91.7,56.0,0,5,7,0,2026-03-07T15:02:28.015068+05:30
Akola,Maharashtra,20.7002,77.0082,37.7,17,0.0,975.4,7.9,18.0,78,29.6,19.6,0,5,10,0,2026-03-07T15:02:28.015076+05:30
Amravati,Maharashtra,20.9374,77.7796,37.9,19,0.0,967.8,7.85,15.1,82,29.9,17.2,0,5,10,0,2026-03-07T15:02:28.015083+05:30
Latur,Maharashtra,18.4088,76.5604,35.5,18,0.0,940.3,8.35,28.4,89,21.8,17.2,0,5,10,0,2026-03-07T15:02:28.015091+05:30
Nanded,Maharashtra,19.1383,77.3091,38.2,18,0.0,968.5,8.1,20.5,96,26.3,16.8,0,5,10,0,2026-03-07T15:02:28.015097+05:30
Gulbarga,Karnataka,17.3297,76.8343,38.3,13,0.0,958.2,8.45,24.1,69,20.2,13.6,0,5,10,0,2026-03-07T15:02:28.015104+05:30
Bidar,Karnataka,17.9104,77.5199,36.5,17,0.0,935.8,8.4,22.3,87,23.5,15.6,0,5,10,0,2026-03-07T15:02:28.015111+05:30
Hospet,Karnataka,15.2689,76.3909,35.9,22,0.0,955.2,8.75,20.5,103,27.5,23.5,0,5,10,0,2026-03-07T15:02:28.015117+05:30
Tirupur,Tamil Nadu,11.1085,77.3411,35.9,30,0.0,973.9,9.2,30.2,121,35.9,32.6,0,5,10,0,2026-03-07T15:02:28.015124+05:30
Alappuzha,Kerala,9.4981,76.3388,27.7,82,0.0,1008.2,9.0,24.5,117,29.3,27.2,7,0,4,1,2026-03-07T15:02:28.015131+05:30
Munnar,Kerala,10.0889,77.0595,26.8,56,0.0,857.7,9.5,34.9,98,28.3,25.2,4,5,7,1,2026-03-07T15:02:28.015138+05:30
Silchar,Assam,24.8333,92.7789,33.2,39,0.0,1006.0,7.55,21.2,161,59.3,53.0,0,5,4,1,2026-03-07T15:02:28.015145+05:30
Dibrugarh,Assam,27.4728,94.912,28.8,55,0.0,997.7,7.3,23.4,144,68.9,56.7,4,5,7,1,2026-03-07T15:02:28.015170+05:30
