city,state,latitude,longitude,temp,humidity,rain,pressure,uv_index,wind_gusts,aqi,pm10,pm2_5,no2,co,o3,so2,mosquito_risk,arthritis_risk,migraine_risk,frizz_risk,updated_at
Delhi,Delhi,28.6139,77.209,32.4,60,0.0,977.4,6.1,33.1,607,555.1,155.5,52.4,1018.0,28.0,19.0,0,5,7,1,2026-07-17T22:44:48.605090+05:30
Mumbai,Maharashtra,19.076,72.8777,26.2,86,0.1,1008.0,7.65,41.4,68,28.6,14.5,12.1,305.0,42.0,9.3,10,0,4,1,2026-07-17T22:44:48.605141+05:30
Bangalore,Karnataka,12.9716,77.5946,21.6,87,0.0,912.7,3.75,49.7,43,11.2,8.5,18.5,334.0,33.0,5.0,3,5,3,1,2026-07-17T22:44:48.605158+05:30
Hyderabad,Telangana,17.385,78.4867,24.1,92,0.1,952.9,6.4,35.3,66,17.2,11.7,11.9,349.0,49.0,5.3,6,5,7,1,2026-07-17T22:44:48.605169+05:30
Chennai,Tamil Nadu,13.0827,80.2707,26.9,81,0.2,1008.0,7.85,42.1,76,20.3,13.7,19.6,271.0,48.0,12.4,10,0,4,1,2026-07-17T22:44:48.605178+05:30
Kolkata,West Bengal,22.5726,88.3639,27.8,87,0.0,1001.7,7.45,31.3,69,21.8,17.2,7.1,303.0,85.0,6.0,7,5,4,1,2026-07-17T22:44:48.605186+05:30
Pune,Maharashtra,18.5204,73.8567,23.2,88,0.0,947.6,6.95,48.2,41,11.0,7.6,12.4,179.0,34.0,8.3,3,5,7,1,2026-07-17T22:44:48.605194+05:30
Ahmedabad,Gujarat,23.0225,72.5714,29.5,69,0.0,999.1,7.9,42.5,70,37.3,21.8,12.9,197.0,50.0,5.4,7,5,7,1,2026-07-17T22:44:48.605201+05:30
Jaipur,Rajasthan,26.9124,75.7873,32.1,57,0.0,956.1,8.05,40.0,314,320.4,68.2,18.6,274.0,50.0,6.2,0,5,7,1,2026-07-17T22:44:48.605209+05:30
Lucknow,Uttar Pradesh,26.8467,80.9462,28.4,93,0.0,988.7,7.55,28.4,162,156.9,80.3,21.8,624.0,82.0,12.0,7,5,7,1,2026-07-17T22:44:48.605220+05:30
Kanpur,Uttar Pradesh,26.4499,80.3319,30.0,86,0.0,986.8,8.1,25.6,168,165.3,81.0,29.3,641.0,52.0,10.5,7,5,7,1,2026-07-17T22:44:48.605228+05:30
Chandigarh,Chandigarh,30.7333,76.7794,29.9,71,0.0,962.7,7.35,34.9,156,70.8,61.0,31.4,897.0,94.0,16.1,7,5,7,1,2026-07-17T22:44:48.605234+05:30
Srinagar,Jammu and Kashmir,34.0837,74.7973,26.3,65,0.0,837.8,9.05,18.4,102,53.0,48.3,46.0,652.0,45.0,4.8,7,5,7,1,2026-07-17T22:44:48.605240+05:30
Jammu,Jammu and Kashmir,32.7266,74.857,29.9,78,0.0,965.7,7.7,34.6,155,74.0,54.6,31.7,474.0,56.0,6.6,7,5,7,1,2026-07-17T22:44:48.605247+05:30
Amritsar,Punjab,31.634,74.8723,31.1,66,0.0,973.5,8.4,20.9,170,156.9,106.4,69.7,462.0,21.0,13.4,3,5,7,1,2026-07-17T22:44:48.605254+05:30
Ludhiana,Punjab,30.901,75.8573,31.6,69,0.0,972.1,7.2,34.6,180,130.9,102.7,62.9,1341.0,35.0,12.4,3,5,7,1,2026-07-17T22:44:48.605260+05:30
Jalandhar,Punjab,31.326,75.5762,30.4,85,0.0,972.9,8.15,24.1,182,124.8,94.8,57.7,1615.0,26.0,8.0,3,5,7,1,2026-07-17T22:44:48.605266+05:30
Dehradun,Uttarakhand,30.6284,78.0322,19.7,98,0.0,828.3,6.8,27.0,110,55.2,47.6,24.7,342.0,98.0,7.3,3,10,7,1,2026-07-17T22:44:48.605273+05:30
Shimla,Himachal Pradesh,31.1048,77.1734,16.7,95,0.0,782.6,6.85,41.8,108,52.0,40.9,16.6,350.0,86.0,5.0,3,10,7,0,2026-07-17T22:44:48.605279+05:30
Manali,Himachal Pradesh,32.2396,77.1887,20.2,95,0.0,817.4,7.05,33.1,59,19.3,16.1,31.8,267.0,52.0,0.5,3,5,7,1,2026-07-17T22:44:48.605289+05:30
Gurgaon,Haryana,28.4595,77.0266,32.3,56,0.0,975.9,5.85,39.2,506,607.2,148.5,38.9,630.0,37.0,13.3,0,5,3,1,2026-07-17T22:44:48.605296+05:30
Noida,Uttar Pradesh,28.5355,77.391,31.8,67,0.0,978.8,7.7,26.3,506,607.2,148.5,38.9,934.0,37.0,13.3,3,5,7,1,2026-07-17T22:44:48.605303+05:30
Ghaziabad,Uttar Pradesh,28.6692,77.4538,30.6,74,0.0,976.9,7.7,29.2,507,577.4,162.5,44.7,1023.0,37.0,20.9,3,5,7,1,2026-07-17T22:44:48.605312+05:30
Faridabad,Haryana,28.4089,77.3178,32.4,61,0.0,978.2,6.0,33.8,506,607.2,148.5,38.9,617.0,37.0,13.3,3,5,3,1,2026-07-17T22:44:48.605319+05:30
Meerut,Uttar Pradesh,28.9845,77.7064,30.6,80,0.0,975.7,7.0,33.1,507,577.4,162.5,44.7,772.0,37.0,20.9,3,5,7,1,2026-07-17T22:44:48.605328+05:30
Agra,Uttar Pradesh,27.1767,78.0081,32.1,63,0.0,982.8,6.8,36.7,155,125.7,60.1,22.8,329.0,54.0,7.9,3,5,7,1,2026-07-17T22:44:48.605334+05:30
Varanasi,Uttar Pradesh,25.3176,82.9739,28.1,95,0.1,993.1,5.65,28.8,134,54.2,44.2,16.7,490.0,86.0,9.8,10,5,3,1,2026-07-17T22:44:48.605341+05:30
Prayagraj,Uttar Pradesh,25.4358,81.8463,28.3,94,0.2,991.5,7.8,28.1,156,91.7,65.4,21.9,344.0,66.0,11.6,10,5,7,1,2026-07-17T22:44:48.605349+05:30
Gorakhpur,Uttar Pradesh,26.7606,83.3732,28.3,96,0.0,992.8,6.8,22.0,84,20.8,20.7,20.3,534.0,67.0,6.8,7,5,7,1,2026-07-17T22:44:48.605355+05:30
Bareilly,Uttar Pradesh,28.367,79.4304,27.4,95,0.1,981.9,7.2,34.2,163,108.7,74.3,17.9,461.0,92.0,10.8,10,5,7,1,2026-07-17T22:44:48.605364+05:30
Aligarh,Uttar Pradesh,27.8974,78.088,31.2,67,0.0,980.1,7.6,26.6,355,330.6,109.4,27.1,335.0,43.0,7.2,3,5,7,1,2026-07-17T22:44:48.605370+05:30
Moradabad,Uttar Pradesh,28.8386,78.7733,29.2,86,0.0,978.5,7.6,32.8,184,156.9,106.9,26.2,669.0,86.0,15.7,7,5,7,1,2026-07-17T22:44:48.605376+05:30
Saharanpur,Uttar Pradesh,29.9637,77.546,30.0,70,0.0,969.7,6.8,37.8,171,248.7,98.0,28.7,431.0,84.0,14.6,7,5,7,1,2026-07-17T22:44:48.605382+05:30
Jhansi,Uttar Pradesh,25.4484,78.5685,29.3,78,0.0,973.8,7.45,33.5,94,51.6,29.8,10.1,216.0,65.0,5.2,7,5,7,1,2026-07-17T22:44:51.843955+05:30
Surat,Gujarat,21.1702,72.8311,28.4,83,0.0,1004.7,7.7,43.9,73,25.7,18.8,23.5,285.0,26.0,35.4,7,5,4,1,2026-07-17T22:44:51.843991+05:30
Vadodara,Gujarat,22.3072,73.1812,28.7,82,0.0,1001.7,5.55,44.6,69,24.1,17.8,21.6,201.0,34.0,20.2,7,5,0,1,2026-07-17T22:44:51.844004+05:30
Rajkot,Gujarat,22.3039,70.8022,28.1,75,0.0,991.7,7.65,41.8,61,26.7,15.1,6.7,133.0,41.0,6.0,7,5,7,1,2026-07-17T22:44:51.844013+05:30
Thane,Maharashtra,19.2183,72.9781,25.6,96,0.1,1007.5,7.05,34.6,68,28.6,14.5,12.1,333.0,42.0,9.3,10,5,4,1,2026-07-17T22:44:51.844021+05:30
Nagpur,Maharashtra,21.1458,79.0882,25.1,87,0.1,971.7,1.7,23.8,90,32.2,22.8,18.3,340.0,39.0,12.1,10,5,3,1,2026-07-17T22:44:51.844029+05:30
Nashik,Maharashtra,19.9975,73.7898,23.0,94,0.0,944.5,7.95,42.8,43,8.1,5.5,12.0,163.0,39.0,10.6,3,5,7,1,2026-07-17T22:44:51.844037+05:30
Aurangabad,Maharashtra,19.8762,75.3433,24.5,85,0.0,943.5,7.95,45.4,54,12.8,9.3,9.2,164.0,50.0,8.3,3,5,7,1,2026-07-17T22:44:51.844045+05:30
Solapur,Maharashtra,17.6599,75.9064,23.4,95,0.3,957.2,6.0,45.0,52,20.9,12.3,6.3,213.0,45.0,2.9,6,5,3,1,2026-07-17T22:44:51.844052+05:30
Kolhapur,Maharashtra,16.705,74.2433,22.6,92,0.0,948.7,8.3,46.4,36,6.1,5.2,6.8,167.0,39.0,2.8,3,5,7,1,2026-07-17T22:44:51.844060+05:30
Goa,Goa,15.2993,74.124,24.1,97,0.1,1000.1,7.6,28.8,61,33.3,17.8,5.9,277.0,44.0,1.9,6,5,4,1,2026-07-17T22:44:51.844067+05:30
Jodhpur,Rajasthan,26.2389,73.0243,32.4,50,0.0,978.4,8.4,43.6,126,251.5,55.9,7.4,142.0,52.0,2.2,0,5,7,1,2026-07-17T22:44:51.844074+05:30
Udaipur,Rajasthan,24.5854,73.7125,27.5,67,0.0,943.5,8.6,34.2,73,39.0,20.8,6.5,135.0,71.0,4.9,7,5,7,1,2026-07-17T22:44:51.844082+05:30
Kota,Rajasthan,25.2138,75.8648,32.4,54,0.0,975.2,7.35,32.4,86,31.3,21.5,11.5,189.0,64.0,6.7,0,5,7,1,2026-07-17T22:44:51.844089+05:30
Bikaner,Rajasthan,28.0229,73.3119,34.4,43,0.0,976.1,8.4,39.2,123,185.3,59.1,2.2,129.0,71.0,3.6,0,5,7,1,2026-07-17T22:44:51.844096+05:30
Ajmer,Rajasthan,26.4499,74.6399,29.4,61,0.0,951.1,8.25,45.7,78,32.8,20.5,12.4,171.0,50.0,4.3,7,5,7,1,2026-07-17T22:44:51.844102+05:30
Gwalior,Madhya Pradesh,26.2183,78.1828,30.2,75,0.0,978.6,6.85,44.6,109,71.2,37.1,11.3,182.0,59.0,3.6,3,5,7,1,2026-07-17T22:44:51.844109+05:30
Indore,Madhya Pradesh,22.7196,75.8577,27.3,72,0.0,946.2,8.55,39.2,73,30.5,21.6,10.8,308.0,72.0,7.8,7,5,7,1,2026-07-17T22:44:51.844117+05:30
Bhopal,Madhya Pradesh,23.2599,77.4126,28.0,74,0.0,951.2,8.4,33.5,82,34.2,22.9,9.2,299.0,62.0,4.8,7,5,7,1,2026-07-17T22:44:51.844124+05:30
Jabalpur,Madhya Pradesh,23.1815,79.9864,25.3,97,0.0,958.7,3.6,38.9,82,39.9,28.8,9.0,276.0,68.0,6.1,7,5,3,1,2026-07-17T22:44:51.844131+05:30
Ujjain,Madhya Pradesh,23.1765,75.7885,27.5,73,0.0,951.4,8.1,38.9,73,33.2,22.6,7.2,309.0,75.0,6.0,7,5,7,1,2026-07-17T22:44:51.844139+05:30
Visakhapatnam,Andhra Pradesh,17.6868,83.2185,28.5,77,0.0,1000.1,7.6,43.2,86,35.4,28.9,25.2,311.0,58.0,38.7,7,5,4,1,2026-07-17T22:44:51.844147+05:30
Vijayawada,Andhra Pradesh,16.5062,80.648,28.6,79,0.0,1001.1,2.6,40.7,87,29.5,22.2,11.1,297.0,60.0,6.1,7,5,0,1,2026-07-17T22:44:51.844153+05:30
Guntur,Andhra Pradesh,16.3067,80.4365,29.2,74,0.0,1002.5,3.65,43.9,83,34.0,23.5,11.0,280.0,58.0,6.2,7,5,0,1,2026-07-17T22:44:51.844161+05:30
Nellore,Andhra Pradesh,14.4426,79.9865,26.0,89,0.0,1006.3,5.0,45.4,57,12.6,8.4,8.5,153.0,50.0,4.1,7,5,0,1,2026-07-17T22:44:51.844169+05:30
Kurnool,Andhra Pradesh,15.8281,78.0373,24.5,92,0.3,977.6,5.55,41.4,58,17.5,10.8,9.6,164.0,52.0,2.9,6,5,3,1,2026-07-17T22:44:51.844177+05:30
Kakinada,Andhra Pradesh,16.9891,82.2475,28.7,77,0.0,1005.2,7.75,49.3,84,39.3,27.4,7.1,244.0,86.0,5.8,7,5,4,1,2026-07-17T22:44:51.844185+05:30
Tirupati,Andhra Pradesh,13.6288,79.4192,25.2,93,0.1,992.1,6.0,40.3,73,20.2,17.8,28.5,203.0,17.0,3.6,10,5,3,1,2026-07-17T22:44:51.844192+05:30
Warangal,Telangana,17.9689,79.5941,26.7,84,0.0,977.8,5.95,38.2,87,28.5,21.7,11.1,321.0,49.0,5.9,7,5,3,1,2026-07-17T22:44:51.844198+05:30
Nizamabad,Telangana,18.6725,78.0941,24.9,91,0.1,964.5,1.6,31.7,79,33.4,22.9,12.3,279.0,50.0,7.8,6,5,3,1,2026-07-17T22:44:51.844206+05:30
Mysore,Karnataka,12.2958,76.6396,21.5,90,0.0,930.2,2.95,42.1,29,9.3,6.3,9.5,160.0,40.0,2.4,3,5,3,1,2026-07-17T22:44:51.844212+05:30
Mangalore,Karnataka,12.9141,74.856,23.6,96,0.0,1010.0,1.25,28.4,55,30.4,18.9,10.5,308.0,37.0,3.3,3,0,0,1,2026-07-17T22:44:51.844220+05:30
Hubli-Dharwad,Karnataka,15.3647,75.124,21.7,96,0.0,941.7,8.65,46.1,24,4.8,3.3,5.3,138.0,42.0,1.6,3,5,7,1,2026-07-17T22:44:51.844227+05:30
Belgaum,Karnataka,15.8497,74.4977,20.8,97,0.0,926.3,8.9,49.0,24,4.6,3.5,6.1,126.0,39.0,2.1,3,5,7,1,2026-07-17T22:44:55.104896+05:30
Coimbatore,Tamil Nadu,11.0168,76.9558,22.8,94,0.0,963.5,8.45,49.3,46,14.4,9.6,10.3,264.0,35.0,3.9,3,5,7,1,2026-07-17T22:44:55.104935+05:30
Madurai,Tamil Nadu,9.9252,78.1198,29.4,55,0.0,994.3,8.65,47.5,72,28.9,18.2,17.6,254.0,49.0,5.3,4,5,7,1,2026-07-17T22:44:55.104947+05:30
Trichy,Tamil Nadu,10.7905,78.7047,29.3,56,0.0,1000.9,8.75,62.6,56,16.7,12.5,13.9,140.0,41.0,4.6,4,5,4,1,2026-07-17T22:44:55.104956+05:30
Salem,Tamil Nadu,11.6643,78.146,26.1,81,0.0,978.9,7.25,42.1,69,25.7,20.3,27.6,340.0,30.0,9.1,7,5,7,1,2026-07-17T22:44:55.104966+05:30
Tirunelveli,Tamil Nadu,8.7139,77.7567,28.9,61,0.0,1005.4,8.25,46.4,50,11.4,8.3,7.8,136.0,45.0,2.2,7,5,4,1,2026-07-17T22:44:55.104974+05:30
Vellore,Tamil Nadu,12.9165,79.1325,27.5,70,0.0,985.4,8.15,46.4,57,9.5,7.4,13.1,221.0,43.0,4.0,7,5,7,1,2026-07-17T22:44:55.104982+05:30
Erode,Tamil Nadu,11.341,77.7172,26.6,73,0.0,990.8,8.8,42.8,56,19.5,14.4,18.3,227.0,36.0,4.6,7,5,7,1,2026-07-17T22:44:55.104989+05:30
Kochi,Kerala,9.9312,76.2673,26.2,87,0.0,1012.1,7.2,29.9,58,18.2,12.7,20.0,163.0,24.0,5.5,7,0,4,1,2026-07-17T22:44:55.104997+05:30
Thiruvananthapuram,Kerala,8.5241,76.9366,25.4,91,0.0,1011.4,8.35,46.1,59,19.5,11.4,5.5,192.0,49.0,2.0,7,0,4,1,2026-07-17T22:44:55.105004+05:30
Kozhikode,Kerala,11.2588,75.7804,24.4,96,0.1,1011.5,1.8,28.4,52,23.1,11.4,2.4,367.0,56.0,1.6,6,0,0,1,2026-07-17T22:44:55.105011+05:30
Thrissur,Kerala,10.5276,76.2144,24.4,98,0.0,1010.5,4.7,27.7,54,20.8,15.2,14.2,397.0,29.0,4.3,3,0,0,1,2026-07-17T22:44:55.105019+05:30
Kannur,Kerala,11.8745,75.3704,24.2,99,0.0,1010.7,2.05,33.5,52,25.3,17.2,18.3,488.0,21.0,3.6,3,0,0,1,2026-07-17T22:44:55.105027+05:30
Patna,Bihar,25.5941,85.1376,27.8,95,0.0,996.2,8.4,27.4,99,34.0,33.5,19.9,399.0,68.0,8.4,7,5,7,1,2026-07-17T22:44:55.105034+05:30
Gaya,Bihar,24.7914,85.0002,26.8,98,0.1,989.5,7.4,28.1,98,26.0,25.8,13.5,460.0,76.0,6.7,10,5,7,1,2026-07-17T22:44:55.105041+05:30
Muzaffarpur,Bihar,26.1209,85.3647,27.5,94,0.0,995.8,7.4,30.6,93,34.9,34.3,19.7,400.0,62.0,6.9,7,5,7,1,2026-07-17T22:44:55.105048+05:30
Bhagalpur,Bihar,25.2425,87.0117,28.8,85,0.0,996.4,7.7,30.6,71,24.7,24.4,18.5,290.0,60.0,10.2,7,5,7,1,2026-07-17T22:44:55.105054+05:30
Ranchi,Jharkhand,23.3441,85.3096,23.7,96,0.0,933.5,8.85,27.4,72,25.0,24.2,16.0,295.0,59.0,6.1,3,5,7,1,2026-07-17T22:44:55.105061+05:30
Jamshedpur,Jharkhand,22.8046,86.2029,26.5,96,0.1,986.2,8.85,23.4,95,36.1,35.5,22.6,349.0,69.0,25.1,10,5,7,1,2026-07-17T22:44:55.105068+05:30
Dhanbad,Jharkhand,23.7957,86.4304,26.8,97,0.0,974.9,7.15,20.2,106,86.1,85.0,69.6,295.0,25.0,160.8,7,5,7,1,2026-07-17T22:44:55.105075+05:30
Bokaro,Jharkhand,23.6693,86.1511,26.8,95,0.0,978.8,6.85,22.0,99,58.3,57.2,39.7,658.0,53.0,117.9,7,5,7,1,2026-07-17T22:44:55.105081+05:30
Bhubaneswar,Odisha,20.2961,85.8245,26.2,95,0.0,998.4,6.6,35.6,72,19.4,16.4,7.5,316.0,92.0,5.1,7,5,7,1,2026-07-17T22:44:55.105088+05:30
Cuttack,Odisha,20.4625,85.8828,26.5,95,0.0,1000.3,6.55,34.2,72,19.4,16.4,7.5,312.0,92.0,5.1,7,5,4,1,2026-07-17T22:44:55.105094+05:30
Rourkela,Odisha,22.2604,84.8536,25.9,97,0.0,980.6,6.85,28.4,72,26.7,23.9,13.4,365.0,65.0,3.8,7,5,7,1,2026-07-17T22:44:55.105101+05:30
Raipur,Chhattisgarh,21.2514,81.6296,24.2,92,0.2,972.0,2.8,36.7,95,39.7,27.4,27.7,255.0,54.0,38.4,6,5,3,1,2026-07-17T22:44:55.105108+05:30
Bhilai,Chhattisgarh,21.1938,81.3509,24.5,88,0.0,972.4,4.65,34.2,89,37.5,26.0,22.5,541.0,56.0,30.4,3,5,3,1,2026-07-17T22:44:55.105114+05:30
Guwahati,Assam,26.1158,91.7086,25.5,97,0.2,998.6,7.35,24.5,54,14.1,12.7,9.1,322.0,52.0,2.2,10,5,7,1,2026-07-17T22:44:55.105120+05:30
Agartala,Tripura,23.8315,91.2868,26.7,86,0.0,1004.6,7.55,53.3,55,17.0,13.6,6.5,163.0,65.0,2.4,7,5,4,1,2026-07-17T22:44:55.105128+05:30
Shillong,Meghalaya,25.5788,91.8933,20.0,97,0.1,855.2,4.65,44.6,34,1.6,1.5,6.7,173.0,52.0,1.8,6,5,3,1,2026-07-17T22:44:55.105134+05:30
Imphal,Manipur,24.817,93.9368,22.7,99,0.0,922.2,4.55,12.6,62,23.3,18.9,11.5,658.0,49.0,3.0,3,5,3,1,2026-07-17T22:44:55.105140+05:30
Aizawl,Mizoram,23.7271,92.7176,20.5,86,0.0,891.9,6.45,42.5,58,11.5,7.3,2.1,129.0,58.0,1.2,3,5,7,1,2026-07-17T22:44:55.105147+05:30
Kohima,Nagaland,25.6701,94.1077,20.8,86,0.0,854.3,2.85,19.4,51,11.6,8.8,5.9,318.0,52.0,1.3,3,5,3,1,2026-07-17T22:44:55.105153+05:30
Gangtok,Sikkim,27.3314,88.6138,19.4,99,0.2,836.9,6.15,33.1,46,7.0,5.7,4.9,225.0,96.0,2.0,6,10,7,1,2026-07-17T22:44:55.105159+05:30
Siliguri,West Bengal,26.7271,88.3953,25.6,96,0.2,990.0,7.9,29.2,67,25.6,20.6,9.1,306.0,92.0,4.1,10,5,7,1,2026-07-17T22:44:58.360520+05:30
Durgapur,West Bengal,23.5204,87.3119,27.4,92,0.0,990.2,8.1,30.2,86,47.7,47.6,39.1,468.0,50.0,48.9,7,5,7,1,2026-07-17T22:44:58.360573+05:30
Asansol,West Bengal,23.6739,86.9524,27.3,92,0.0,988.5,8.05,28.4,85,50.5,50.3,48.0,526.0,43.0,61.6,7,5,7,1,2026-07-17T22:44:58.360586+05:30
Pondicherry,Puducherry,11.9139,79.8145,26.3,91,0.1,1009.6,8.7,38.5,69,28.9,19.4,17.0,328.0,57.0,13.5,10,0,4,1,2026-07-17T22:44:58.360595+05:30
Port Blair,Andaman and Nicobar Islands,11.6234,92.7265,26.8,86,0.0,1009.1,7.0,37.8,42,10.9,5.6,0.2,94.0,42.0,0.4,7,0,4,1,2026-07-17T22:44:58.360605+05:30
Haridwar,Uttarakhand,29.9457,78.1642,28.9,84,0.0,968.5,7.2,25.2,164,115.0,90.1,36.9,449.0,81.0,18.4,7,5,7,1,2026-07-17T22:44:58.360613+05:30
Rishikesh,Uttarakhand,30.0869,78.2676,28.0,84,0.0,961.3,7.35,27.0,162,67.3,53.9,7.8,415.0,153.0,12.1,7,5,7,1,2026-07-17T22:44:58.360621+05:30
Nainital,Uttarakhand,29.3919,79.4542,18.4,99,0.1,804.1,6.15,28.8,141,87.1,56.5,11.8,417.0,115.0,10.0,6,10,7,1,2026-07-17T22:44:58.360629+05:30
Mussoorie,Uttarakhand,30.4599,78.0664,18.0,100,0.0,801.2,6.65,40.3,142,70.5,61.0,21.4,473.0,107.0,13.3,3,10,7,1,2026-07-17T22:44:58.360637+05:30
Dharamshala,Himachal Pradesh,32.219,76.3234,22.4,98,0.1,865.9,7.75,31.0,78,16.4,14.8,17.2,482.0,63.0,0.8,6,5,7,1,2026-07-17T22:44:58.360645+05:30
Dalhousie,Himachal Pradesh,32.5387,75.971,19.2,100,0.3,802.9,7.8,24.1,121,62.9,45.4,20.1,667.0,104.0,4.0,6,10,7,1,2026-07-17T22:44:58.360654+05:30
Patiala,Punjab,30.3398,76.3869,30.9,66,0.0,971.7,7.35,34.9,194,369.7,127.1,52.4,573.0,46.0,12.2,3,5,7,1,2026-07-17T22:44:58.360662+05:30
Bhatinda,Punjab,30.211,74.9455,34.4,50,0.0,977.0,8.25,33.8,175,219.8,121.1,77.5,543.0,16.0,12.4,0,5,7,1,2026-07-17T22:44:58.360669+05:30
Rohtak,Haryana,28.8955,76.6066,31.2,71,0.0,975.8,6.55,33.8,753,493.6,134.6,51.0,694.0,22.0,8.2,3,5,7,1,2026-07-17T22:44:58.360677+05:30
Panipat,Haryana,29.3909,76.9635,30.4,79,0.0,974.3,7.5,32.4,1111,856.8,196.5,49.5,832.0,29.0,9.6,3,5,7,1,2026-07-17T22:44:58.360684+05:30
Mathura,Uttar Pradesh,27.4924,77.6737,31.5,62,0.0,981.5,7.25,32.0,636,666.8,120.1,30.1,336.0,40.0,6.0,3,5,7,1,2026-07-17T22:44:58.360691+05:30
Vrindavan,Uttar Pradesh,27.5823,77.7027,31.5,62,0.0,982.0,7.05,31.7,636,666.8,120.1,30.1,342.0,40.0,6.0,3,5,7,1,2026-07-17T22:44:58.360698+05:30
Ayodhya,Uttar Pradesh,26.7922,82.1998,27.9,97,0.1,990.8,7.75,26.3,101,70.1,54.4,17.7,685.0,81.0,6.9,10,5,7,1,2026-07-17T22:44:58.360706+05:30
Ratlam,Madhya Pradesh,23.3315,75.0367,27.0,76,0.0,952.6,8.45,33.8,71,32.2,21.1,6.1,176.0,79.0,6.8,7,5,7,1,2026-07-17T22:44:58.360713+05:30
Sagar,Madhya Pradesh,23.8388,78.7378,26.2,91,0.0,947.1,7.0,39.2,88,42.1,27.2,7.8,225.0,71.0,5.8,7,5,7,1,2026-07-17T22:44:58.360720+05:30
Satna,Madhya Pradesh,24.6005,80.8322,26.6,89,0.0,967.3,8.05,37.4,111,62.2,34.9,10.6,206.0,69.0,4.7,7,5,7,1,2026-07-17T22:44:58.360728+05:30
Akola,Maharashtra,20.7002,77.0082,28.6,68,0.0,974.2,8.55,42.1,66,22.7,14.6,10.1,185.0,49.0,7.3,7,5,7,1,2026-07-17T22:44:58.360736+05:30
Amravati,Maharashtra,20.9374,77.7796,26.5,86,0.2,966.0,7.9,39.6,69,25.3,16.7,11.7,227.0,53.0,7.9,10,5,7,1,2026-07-17T22:44:58.360744+05:30
Latur,Maharashtra,18.4088,76.5604,23.5,94,0.1,939.7,7.35,35.3,56,23.1,14.8,6.5,195.0,51.0,3.3,6,5,7,1,2026-07-17T22:44:58.360752+05:30
Nanded,Maharashtra,19.1383,77.3091,25.3,92,0.1,968.5,8.3,33.8,71,22.6,15.2,8.1,243.0,60.0,4.1,10,5,7,1,2026-07-17T22:44:58.360759+05:30
Gulbarga,Karnataka,17.3297,76.8343,24.4,89,0.1,959.0,6.95,40.0,53,16.7,11.0,11.7,169.0,40.0,3.2,6,5,7,1,2026-07-17T22:44:58.360766+05:30
Bidar,Karnataka,17.9104,77.5199,23.2,95,0.1,935.0,7.5,31.0,71,28.5,17.2,13.4,197.0,44.0,3.1,6,5,7,1,2026-07-17T22:44:58.360773+05:30
Hospet,Karnataka,15.2689,76.3909,23.5,87,0.0,957.0,6.3,45.4,31,6.9,4.7,5.4,149.0,43.0,1.7,3,5,7,1,2026-07-17T22:44:58.360779+05:30
Tirupur,Tamil Nadu,11.1085,77.3411,24.1,87,0.0,977.0,8.65,54.0,58,20.8,16.0,20.0,209.0,35.0,6.1,3,5,7,1,2026-07-17T22:44:58.360786+05:30
Alappuzha,Kerala,9.4981,76.3388,26.4,87,0.0,1012.0,8.45,37.8,59,21.5,13.1,10.5,89.0,45.0,3.2,7,0,4,1,2026-07-17T22:44:58.360792+05:30
Munnar,Kerala,10.0889,77.0595,14.9,95,0.0,857.8,8.6,34.9,33,9.4,7.4,9.9,123.0,31.0,2.0,3,10,7,0,2026-07-17T22:44:58.360800+05:30
Silchar,Assam,24.8333,92.7789,26.4,97,0.1,1003.6,8.7,28.8,70,22.8,17.1,6.4,291.0,69.0,4.4,10,5,4,1,2026-07-17T22:44:58.360807+05:30
Dibrugarh,Assam,27.4728,94.912,26.2,98,0.0,992.4,4.75,36.0,53,14.0,12.5,9.0,191.0,55.0,1.9,7,5,3,1,2026-07-17T22:44:58.360814+05:30
