city,state,latitude,longitude,temp,humidity,rain,pressure,uv_index,wind_gusts,aqi,pm10,pm2_5,no2,co,o3,so2,mosquito_risk,arthritis_risk,migraine_risk,frizz_risk,updated_at
Delhi,Delhi,28.6139,77.209,30.0,63,0.0,977.5,7.65,26.6,225,334.3,123.9,63.7,772.0,21.0,33.6,7,5,7,1,2026-06-25T04:36:13.567776+05:30
Mumbai,Maharashtra,19.076,72.8777,26.0,90,0.0,1005.3,0.95,35.6,51,33.8,13.4,9.8,154.0,43.0,9.2,7,5,0,1,2026-06-25T04:36:13.567823+05:30
Bangalore,Karnataka,12.9716,77.5946,20.0,95,0.0,910.3,9.05,49.7,28,3.9,3.3,8.1,182.0,34.0,4.1,3,5,7,1,2026-06-25T04:36:13.567839+05:30
Hyderabad,Telangana,17.385,78.4867,25.0,75,0.0,949.9,7.45,45.0,23,5.5,4.4,9.4,168.0,39.0,4.8,7,5,7,1,2026-06-25T04:36:13.567849+05:30
Chennai,Tamil Nadu,13.0827,80.2707,28.6,62,0.0,1004.9,8.05,43.2,62,17.3,14.9,18.4,289.0,37.0,10.0,7,5,4,1,2026-06-25T04:36:13.567857+05:30
Kolkata,West Bengal,22.5726,88.3639,28.9,90,0.0,1001.4,9.0,28.1,144,46.7,46.0,17.5,441.0,70.0,12.6,7,5,4,1,2026-06-25T04:36:13.567865+05:30
Pune,Maharashtra,18.5204,73.8567,22.8,90,0.0,944.7,4.95,41.4,32,9.4,6.6,6.9,120.0,39.0,5.8,3,5,3,1,2026-06-25T04:36:13.567872+05:30
Ahmedabad,Gujarat,23.0225,72.5714,29.7,65,0.0,997.5,8.0,38.5,69,37.8,18.2,5.4,110.0,38.0,4.1,7,5,7,1,2026-06-25T04:36:13.567880+05:30
Jaipur,Rajasthan,26.9124,75.7873,28.6,58,0.0,954.8,8.15,24.1,126,125.7,52.0,35.1,203.0,18.0,10.7,4,5,7,1,2026-06-25T04:36:13.567887+05:30
Lucknow,Uttar Pradesh,26.8467,80.9462,31.9,48,0.0,987.9,8.3,25.2,158,253.3,78.9,47.0,471.0,16.0,11.5,0,5,7,1,2026-06-25T04:36:13.567898+05:30
Kanpur,Uttar Pradesh,26.4499,80.3319,33.0,45,0.0,986.1,4.05,32.0,152,214.2,67.3,42.1,209.0,15.0,8.4,0,5,3,1,2026-06-25T04:36:13.567905+05:30
Chandigarh,Chandigarh,30.7333,76.7794,25.9,73,0.0,963.9,7.8,23.4,151,108.0,76.8,58.0,588.0,0.0,4.5,7,5,7,1,2026-06-25T04:36:13.567912+05:30
Srinagar,Jammu and Kashmir,34.0837,74.7973,15.9,97,0.0,836.8,9.1,22.0,70,29.7,28.6,21.4,337.0,22.0,0.0,3,10,7,0,2026-06-25T04:36:13.567919+05:30
Jammu,Jammu and Kashmir,32.7266,74.857,24.9,89,0.3,968.5,8.65,24.8,93,31.5,28.3,39.4,263.0,21.0,2.7,6,5,7,1,2026-06-25T04:36:13.567925+05:30
Amritsar,Punjab,31.634,74.8723,24.5,92,0.2,975.8,8.5,38.5,125,112.0,66.6,46.6,592.0,27.0,9.3,6,5,7,1,2026-06-25T04:36:13.567932+05:30
Ludhiana,Punjab,30.901,75.8573,28.0,66,0.0,973.7,8.05,20.2,161,249.6,114.6,56.2,717.0,17.0,12.6,7,5,7,1,2026-06-25T04:36:13.567941+05:30
Jalandhar,Punjab,31.326,75.5762,27.6,75,0.1,975.0,4.15,24.1,135,130.9,81.5,48.0,506.0,30.0,11.2,10,5,3,1,2026-06-25T04:36:13.567949+05:30
Dehradun,Uttarakhand,30.6284,78.0322,14.9,98,0.0,826.8,6.85,34.6,74,30.0,29.9,26.6,211.0,0.0,0.1,3,10,7,0,2026-06-25T04:36:13.567956+05:30
Shimla,Himachal Pradesh,31.1048,77.1734,12.3,82,0.0,780.2,7.2,31.0,89,38.1,36.8,27.3,300.0,11.0,0.2,3,10,7,0,2026-06-25T04:36:13.567962+05:30
Manali,Himachal Pradesh,32.2396,77.1887,15.3,69,0.0,815.7,8.1,33.5,39,3.4,2.6,49.3,209.0,42.0,0.0,3,5,7,0,2026-06-25T04:36:13.567999+05:30
Gurgaon,Haryana,28.4595,77.0266,28.7,62,0.0,975.8,7.75,21.2,592,301.7,117.1,66.7,583.0,3.0,24.6,7,5,7,1,2026-06-25T04:36:13.568008+05:30
Noida,Uttar Pradesh,28.5355,77.391,27.4,74,0.0,978.8,7.8,20.5,592,301.7,117.1,66.7,664.0,3.0,24.6,7,5,7,1,2026-06-25T04:36:13.568014+05:30
Ghaziabad,Uttar Pradesh,28.6692,77.4538,26.9,73,0.0,977.0,7.8,23.0,238,361.4,138.3,68.1,841.0,11.0,15.6,7,5,7,1,2026-06-25T04:36:13.568020+05:30
Faridabad,Haryana,28.4089,77.3178,28.6,73,0.0,978.2,7.8,24.1,592,301.7,117.1,66.7,718.0,3.0,24.6,7,5,7,1,2026-06-25T04:36:13.568026+05:30
Meerut,Uttar Pradesh,28.9845,77.7064,28.5,64,0.0,976.1,7.1,20.9,238,361.4,138.3,68.1,624.0,11.0,15.6,7,5,7,1,2026-06-25T04:36:13.568033+05:30
Agra,Uttar Pradesh,27.1767,78.0081,31.5,49,0.0,981.8,8.1,28.4,230,214.2,58.9,27.0,398.0,25.0,6.0,0,5,7,1,2026-06-25T04:36:13.568039+05:30
Varanasi,Uttar Pradesh,25.3176,82.9739,31.8,56,0.0,992.3,8.15,24.8,113,29.6,25.1,17.2,303.0,49.0,10.4,0,5,7,1,2026-06-25T04:36:13.568046+05:30
Prayagraj,Uttar Pradesh,25.4358,81.8463,31.9,54,0.0,990.4,8.25,28.4,123,57.5,38.6,19.1,228.0,53.0,7.5,0,5,7,1,2026-06-25T04:36:13.568053+05:30
Gorakhpur,Uttar Pradesh,26.7606,83.3732,28.9,71,0.0,992.0,8.65,29.2,160,107.6,71.7,32.3,611.0,43.0,11.9,7,5,7,1,2026-06-25T04:36:13.568059+05:30
Bareilly,Uttar Pradesh,28.367,79.4304,28.9,66,0.0,981.7,8.1,22.7,166,261.7,123.9,67.3,769.0,12.0,18.1,7,5,7,1,2026-06-25T04:36:13.568067+05:30
Aligarh,Uttar Pradesh,27.8974,78.088,28.4,60,0.0,979.9,7.95,21.6,416,375.3,126.2,66.1,688.0,0.0,13.2,4,5,7,1,2026-06-25T04:36:13.568073+05:30
Moradabad,Uttar Pradesh,28.8386,78.7733,30.4,60,0.0,978.9,7.4,28.8,189,255.2,142.5,79.6,1025.0,11.0,20.6,0,5,7,1,2026-06-25T04:36:13.568080+05:30
Saharanpur,Uttar Pradesh,29.9637,77.546,27.1,73,0.0,970.8,6.85,21.2,155,98.3,79.2,51.4,713.0,11.0,12.0,7,5,7,1,2026-06-25T04:36:13.568086+05:30
Jhansi,Uttar Pradesh,25.4484,78.5685,29.2,60,0.0,973.4,5.5,28.8,75,43.0,25.1,10.4,192.0,52.0,3.6,4,5,3,1,2026-06-25T04:36:16.929114+05:30
Surat,Gujarat,21.1702,72.8311,28.5,79,0.0,1002.5,4.75,45.4,76,37.0,21.3,25.2,287.0,20.0,38.0,7,5,0,1,2026-06-25T04:36:16.929147+05:30
Vadodara,Gujarat,22.3072,73.1812,30.1,64,0.0,999.8,8.0,46.1,75,32.2,20.0,11.0,119.0,31.0,7.2,3,5,7,1,2026-06-25T04:36:16.929157+05:30
Rajkot,Gujarat,22.3039,70.8022,28.1,75,0.0,989.8,7.55,45.4,68,38.3,17.5,5.0,97.0,38.0,4.5,7,5,7,1,2026-06-25T04:36:16.929165+05:30
Thane,Maharashtra,19.2183,72.9781,25.2,93,0.0,1004.8,2.05,32.0,51,33.8,13.4,9.8,141.0,43.0,9.2,7,5,0,1,2026-06-25T04:36:16.929174+05:30
Nagpur,Maharashtra,21.1458,79.0882,25.7,92,0.0,968.9,7.75,29.9,52,24.2,20.2,21.7,244.0,38.0,16.3,7,5,7,1,2026-06-25T04:36:16.929183+05:30
Nashik,Maharashtra,19.9975,73.7898,22.8,94,0.0,941.8,1.9,39.6,48,14.6,9.1,14.8,136.0,29.0,17.2,3,5,3,1,2026-06-25T04:36:16.929193+05:30
Aurangabad,Maharashtra,19.8762,75.3433,23.6,84,0.0,940.6,2.95,41.4,60,19.6,11.5,11.8,152.0,39.0,17.8,3,5,3,1,2026-06-25T04:36:16.929201+05:30
Solapur,Maharashtra,17.6599,75.9064,24.5,82,0.0,954.3,2.0,44.3,19,4.9,4.5,9.4,149.0,32.0,2.5,3,5,3,1,2026-06-25T04:36:16.929208+05:30
Kolhapur,Maharashtra,16.705,74.2433,21.9,97,0.0,945.2,3.3,41.4,19,3.6,3.4,5.0,119.0,40.0,2.0,3,5,3,1,2026-06-25T04:36:16.929215+05:30
Goa,Goa,15.2993,74.124,23.5,99,0.1,997.0,7.2,28.4,47,21.2,13.7,5.6,172.0,40.0,1.4,6,5,7,1,2026-06-25T04:36:16.929222+05:30
Jodhpur,Rajasthan,26.2389,73.0243,30.9,56,0.0,977.0,4.3,55.8,145,228.6,57.5,4.5,110.0,43.0,2.5,0,5,3,1,2026-06-25T04:36:16.929230+05:30
Udaipur,Rajasthan,24.5854,73.7125,25.2,78,0.0,941.8,8.8,33.1,74,30.2,19.7,5.7,134.0,45.0,3.1,7,5,7,1,2026-06-25T04:36:16.929237+05:30
Kota,Rajasthan,25.2138,75.8648,28.4,69,0.0,973.6,7.8,37.1,87,44.6,24.0,8.6,179.0,52.0,5.3,7,5,7,1,2026-06-25T04:36:16.929244+05:30
Bikaner,Rajasthan,28.0229,73.3119,29.4,58,0.0,975.2,8.45,27.7,153,122.9,39.1,3.0,150.0,50.0,2.7,4,5,7,1,2026-06-25T04:36:16.929251+05:30
Ajmer,Rajasthan,26.4499,74.6399,26.6,65,0.0,949.3,8.3,50.0,96,56.6,25.6,8.7,151.0,42.0,4.3,7,5,7,1,2026-06-25T04:36:16.929259+05:30
Gwalior,Madhya Pradesh,26.2183,78.1828,29.8,55,0.0,977.9,8.25,35.3,87,46.4,22.8,10.9,171.0,39.0,2.6,4,5,7,1,2026-06-25T04:36:16.929265+05:30
Indore,Madhya Pradesh,22.7196,75.8577,23.9,92,0.0,944.1,5.3,37.8,76,36.3,23.7,8.7,203.0,58.0,9.7,3,5,3,1,2026-06-25T04:36:16.929272+05:30
Bhopal,Madhya Pradesh,23.2599,77.4126,24.0,90,0.0,949.8,7.2,22.3,68,28.9,21.7,7.6,267.0,64.0,3.3,3,5,7,1,2026-06-25T04:36:16.929279+05:30
Jabalpur,Madhya Pradesh,23.1815,79.9864,25.1,94,0.0,957.2,8.85,32.4,56,29.9,21.2,10.0,255.0,62.0,3.4,7,5,7,1,2026-06-25T04:36:16.929286+05:30
Ujjain,Madhya Pradesh,23.1765,75.7885,24.7,88,0.0,949.8,6.45,36.7,78,33.8,19.7,7.0,199.0,56.0,10.4,3,5,7,1,2026-06-25T04:36:16.929294+05:30
Visakhapatnam,Andhra Pradesh,17.6868,83.2185,28.2,80,0.0,999.2,8.25,31.7,69,19.4,16.6,21.4,345.0,50.0,33.9,7,5,7,1,2026-06-25T04:36:16.929301+05:30
Vijayawada,Andhra Pradesh,16.5062,80.648,29.0,63,0.0,999.0,8.8,32.0,54,25.9,23.3,19.0,212.0,30.0,6.5,7,5,7,1,2026-06-25T04:36:16.929307+05:30
Guntur,Andhra Pradesh,16.3067,80.4365,28.4,65,0.0,1000.3,8.7,34.2,50,15.2,13.9,16.4,214.0,31.0,7.6,7,5,4,1,2026-06-25T04:36:16.929315+05:30
Nellore,Andhra Pradesh,14.4426,79.9865,29.4,56,0.0,1003.1,7.9,45.0,34,8.2,5.1,6.6,126.0,37.0,4.0,4,5,4,1,2026-06-25T04:36:16.929323+05:30
Kurnool,Andhra Pradesh,15.8281,78.0373,26.0,76,0.0,974.6,6.65,46.1,24,5.8,4.4,8.0,126.0,34.0,2.2,7,5,7,1,2026-06-25T04:36:16.929331+05:30
Kakinada,Andhra Pradesh,16.9891,82.2475,28.0,85,0.0,1003.3,8.95,34.9,56,21.9,15.8,5.4,215.0,87.0,4.8,7,5,4,1,2026-06-25T04:36:16.929338+05:30
Tirupati,Andhra Pradesh,13.6288,79.4192,27.2,61,0.0,989.0,8.0,42.8,44,10.4,8.5,15.1,139.0,19.0,2.8,7,5,7,1,2026-06-25T04:36:16.929345+05:30
Warangal,Telangana,17.9689,79.5941,26.2,74,0.0,975.0,5.25,37.1,41,26.1,17.5,10.8,209.0,46.0,5.3,7,5,3,1,2026-06-25T04:36:16.929352+05:30
Nizamabad,Telangana,18.6725,78.0941,25.5,77,0.0,961.3,6.7,42.5,41,38.3,23.6,13.1,240.0,40.0,5.8,7,5,7,1,2026-06-25T04:36:16.929359+05:30
Mysore,Karnataka,12.2958,76.6396,21.5,93,0.0,927.7,9.0,50.0,22,2.5,2.2,5.2,117.0,36.0,1.8,3,5,7,1,2026-06-25T04:36:16.929367+05:30
Mangalore,Karnataka,12.9141,74.856,24.1,99,0.3,1006.7,8.7,37.8,44,14.5,10.7,9.3,199.0,26.0,3.1,6,5,4,1,2026-06-25T04:36:16.929374+05:30
Hubli-Dharwad,Karnataka,15.3647,75.124,21.5,96,0.0,938.5,7.3,51.5,20,2.9,1.7,1.9,95.0,45.0,1.1,3,5,7,1,2026-06-25T04:36:16.929381+05:30
Belgaum,Karnataka,15.8497,74.4977,20.6,98,0.0,923.1,2.2,42.5,19,1.8,1.7,4.3,106.0,38.0,1.4,3,5,3,1,2026-06-25T04:36:20.291841+05:30
Coimbatore,Tamil Nadu,11.0168,76.9558,22.7,95,0.0,961.1,8.05,53.6,28,4.2,3.7,5.7,159.0,33.0,2.7,3,5,7,1,2026-06-25T04:36:20.291873+05:30
Madurai,Tamil Nadu,9.9252,78.1198,28.4,63,0.0,991.6,8.55,35.6,68,26.1,25.0,38.7,147.0,0.0,7.0,7,5,7,1,2026-06-25T04:36:20.291885+05:30
Trichy,Tamil Nadu,10.7905,78.7047,27.6,68,0.0,998.5,8.45,50.4,44,2.7,2.5,4.7,110.0,35.0,2.6,7,5,7,1,2026-06-25T04:36:20.291894+05:30
Salem,Tamil Nadu,11.6643,78.146,24.3,88,0.0,976.7,8.6,35.3,57,12.9,11.9,19.4,303.0,22.0,7.3,3,5,7,1,2026-06-25T04:36:20.291904+05:30
Tirunelveli,Tamil Nadu,8.7139,77.7567,28.1,71,0.0,1002.4,8.0,49.3,22,3.0,2.7,4.9,146.0,34.0,2.2,7,5,4,1,2026-06-25T04:36:20.291912+05:30
Vellore,Tamil Nadu,12.9165,79.1325,25.7,69,0.0,982.8,8.05,45.4,48,10.0,7.6,11.2,177.0,30.0,4.1,7,5,7,1,2026-06-25T04:36:20.291919+05:30
Erode,Tamil Nadu,11.341,77.7172,25.3,83,0.0,988.4,7.95,44.3,49,9.4,8.7,14.0,145.0,27.0,3.4,7,5,7,1,2026-06-25T04:36:20.291926+05:30
Kochi,Kerala,9.9312,76.2673,25.0,96,0.1,1009.5,8.3,42.5,39,10.5,8.7,9.2,85.0,23.0,3.3,10,0,4,1,2026-06-25T04:36:20.291934+05:30
Thiruvananthapuram,Kerala,8.5241,76.9366,24.5,97,0.1,1008.8,8.0,54.7,29,8.6,5.7,3.2,114.0,43.0,1.6,6,0,4,1,2026-06-25T04:36:20.291942+05:30
Kozhikode,Kerala,11.2588,75.7804,23.7,99,0.1,1008.7,8.05,32.4,26,8.6,4.7,1.0,122.0,53.0,0.7,6,0,4,1,2026-06-25T04:36:20.291951+05:30
Thrissur,Kerala,10.5276,76.2144,23.7,99,0.2,1008.1,7.85,36.7,41,10.3,8.8,7.8,127.0,28.0,2.7,6,0,4,1,2026-06-25T04:36:20.291959+05:30
Kannur,Kerala,11.8745,75.3704,23.2,97,0.3,1007.8,8.65,33.1,29,7.6,5.0,7.7,150.0,26.0,1.7,6,5,4,1,2026-06-25T04:36:20.291965+05:30
Patna,Bihar,25.5941,85.1376,28.0,77,0.0,995.8,8.85,26.6,155,58.1,51.5,31.2,266.0,25.0,11.9,7,5,7,1,2026-06-25T04:36:20.291998+05:30
Gaya,Bihar,24.7914,85.0002,28.9,74,0.0,989.3,8.65,22.0,97,17.1,16.3,12.3,253.0,53.0,5.0,7,5,7,1,2026-06-25T04:36:20.292006+05:30
Muzaffarpur,Bihar,26.1209,85.3647,25.5,93,0.3,996.0,8.8,28.1,159,88.5,78.7,28.0,818.0,45.0,14.6,10,5,7,1,2026-06-25T04:36:20.292013+05:30
Bhagalpur,Bihar,25.2425,87.0117,28.5,75,0.0,996.6,8.85,26.6,153,95.2,78.0,24.4,665.0,51.0,12.1,7,5,7,1,2026-06-25T04:36:20.292020+05:30
Ranchi,Jharkhand,23.3441,85.3096,24.7,80,0.0,934.0,9.3,24.5,79,31.1,31.0,11.6,268.0,72.0,10.2,3,5,7,1,2026-06-25T04:36:20.292028+05:30
Jamshedpur,Jharkhand,22.8046,86.2029,27.1,79,0.0,986.6,9.1,31.3,102,33.4,33.1,20.3,350.0,67.0,33.4,7,5,7,1,2026-06-25T04:36:20.292035+05:30
Dhanbad,Jharkhand,23.7957,86.4304,27.7,79,0.0,975.4,9.05,23.4,146,51.9,51.2,50.0,294.0,36.0,117.9,7,5,7,1,2026-06-25T04:36:20.292042+05:30
Bokaro,Jharkhand,23.6693,86.1511,28.0,76,0.0,979.3,9.1,29.2,122,41.3,41.2,32.0,304.0,51.0,77.7,7,5,7,1,2026-06-25T04:36:20.292050+05:30
Bhubaneswar,Odisha,20.2961,85.8245,27.3,94,0.0,998.0,8.8,29.9,82,36.0,34.8,20.3,370.0,45.0,6.8,7,5,7,1,2026-06-25T04:36:20.292056+05:30
Cuttack,Odisha,20.4625,85.8828,27.4,93,0.0,999.8,8.7,29.5,82,36.0,34.8,20.3,434.0,45.0,6.8,7,5,7,1,2026-06-25T04:36:20.292064+05:30
Rourkela,Odisha,22.2604,84.8536,26.5,87,0.0,981.0,9.0,34.9,94,37.8,37.6,18.4,474.0,43.0,7.9,7,5,7,1,2026-06-25T04:36:20.292071+05:30
Raipur,Chhattisgarh,21.2514,81.6296,28.5,64,0.0,970.8,8.85,29.2,63,31.0,31.0,55.5,639.0,12.0,79.2,7,5,7,1,2026-06-25T04:36:20.292078+05:30
Bhilai,Chhattisgarh,21.1938,81.3509,27.9,68,0.0,971.2,8.9,38.2,58,25.3,25.2,41.1,825.0,26.0,63.0,7,5,7,1,2026-06-25T04:36:20.292085+05:30
Guwahati,Assam,26.1158,91.7086,24.8,98,0.0,999.0,8.8,25.9,63,25.3,20.0,6.4,335.0,73.0,3.0,3,5,7,1,2026-06-25T04:36:20.292092+05:30
Agartala,Tripura,23.8315,91.2868,26.0,97,0.1,1003.1,8.8,25.2,75,23.6,19.9,14.3,253.0,45.0,4.7,10,5,4,1,2026-06-25T04:36:20.292099+05:30
Shillong,Meghalaya,25.5788,91.8933,19.2,98,0.0,855.4,8.85,18.7,39,9.4,6.6,4.0,268.0,85.0,4.4,3,10,7,1,2026-06-25T04:36:20.292106+05:30
Imphal,Manipur,24.817,93.9368,22.6,96,0.0,920.5,8.15,23.0,50,8.8,7.5,7.1,432.0,42.0,2.0,3,5,7,1,2026-06-25T04:36:20.292113+05:30
Aizawl,Mizoram,23.7271,92.7176,19.5,98,0.0,889.9,9.0,20.5,34,8.5,7.0,4.7,213.0,39.0,0.9,3,10,7,1,2026-06-25T04:36:20.292121+05:30
Kohima,Nagaland,25.6701,94.1077,20.0,92,0.1,853.3,8.85,19.8,31,6.7,4.4,4.6,249.0,53.0,0.8,6,5,7,1,2026-06-25T04:36:20.292128+05:30
Gangtok,Sikkim,27.3314,88.6138,16.6,90,0.0,834.6,8.9,37.8,43,8.4,7.4,14.3,696.0,29.0,1.0,3,10,7,0,2026-06-25T04:36:20.292135+05:30
Siliguri,West Bengal,26.7271,88.3953,24.0,97,0.0,989.8,8.75,27.0,90,46.9,38.1,22.7,541.0,64.0,4.3,3,5,7,1,2026-06-25T04:36:23.766111+05:30
Durgapur,West Bengal,23.5204,87.3119,27.6,85,0.0,990.4,9.0,28.1,158,57.0,56.3,51.3,1051.0,31.0,78.1,7,5,7,1,2026-06-25T04:36:23.766141+05:30
Asansol,West Bengal,23.6739,86.9524,27.8,82,0.0,989.0,8.85,34.6,151,46.3,45.5,47.0,497.0,36.0,76.9,7,5,7,1,2026-06-25T04:36:23.766152+05:30
Pondicherry,Puducherry,11.9139,79.8145,27.2,74,0.0,1006.5,7.95,40.7,62,19.0,16.6,19.1,407.0,36.0,10.2,7,5,4,1,2026-06-25T04:36:23.766161+05:30
Port Blair,Andaman and Nicobar Islands,11.6234,92.7265,26.4,90,0.1,1006.0,6.9,47.5,31,11.4,7.0,0.3,92.0,51.0,0.3,10,5,4,1,2026-06-25T04:36:23.766170+05:30
Haridwar,Uttarakhand,29.9457,78.1642,25.5,81,0.0,969.6,7.05,26.6,127,78.7,64.7,45.7,315.0,18.0,8.5,7,5,7,1,2026-06-25T04:36:23.766178+05:30
Rishikesh,Uttarakhand,30.0869,78.2676,23.8,85,0.0,962.6,7.15,22.0,92,53.3,40.4,16.4,381.0,91.0,6.8,3,5,7,1,2026-06-25T04:36:23.766186+05:30
Nainital,Uttarakhand,29.3919,79.4542,14.0,99,0.0,802.8,5.15,29.5,106,58.2,38.5,28.7,307.0,40.0,2.8,3,10,3,0,2026-06-25T04:36:23.766194+05:30
Mussoorie,Uttarakhand,30.4599,78.0664,15.4,82,0.0,800.4,6.35,31.0,90,49.5,44.7,44.5,314.0,18.0,6.5,3,10,7,0,2026-06-25T04:36:23.766202+05:30
Dharamshala,Himachal Pradesh,32.219,76.3234,19.6,71,0.1,865.6,8.5,41.8,46,7.3,6.5,14.7,246.0,52.0,0.0,6,5,7,0,2026-06-25T04:36:23.766210+05:30
Dalhousie,Himachal Pradesh,32.5387,75.971,14.1,84,0.0,800.8,7.8,31.7,78,22.7,20.5,21.9,309.0,33.0,0.3,3,10,7,0,2026-06-25T04:36:23.766218+05:30
Patiala,Punjab,30.3398,76.3869,27.0,74,0.0,973.1,7.65,22.0,232,246.8,109.0,40.3,627.0,31.0,9.6,7,5,7,1,2026-06-25T04:36:23.766226+05:30
Bhatinda,Punjab,30.211,74.9455,28.8,65,0.0,977.9,8.3,24.5,155,165.3,70.1,39.4,343.0,37.0,9.9,7,5,7,1,2026-06-25T04:36:23.766233+05:30
Rohtak,Haryana,28.8955,76.6066,27.5,79,0.0,976.1,7.75,20.5,237,329.7,123.9,72.7,518.0,0.0,23.3,7,5,7,1,2026-06-25T04:36:23.766240+05:30
Panipat,Haryana,29.3909,76.9635,26.8,75,0.0,974.9,7.65,18.7,530,389.3,137.8,70.1,761.0,3.0,14.1,7,5,7,1,2026-06-25T04:36:23.766247+05:30
Mathura,Uttar Pradesh,27.4924,77.6737,29.0,57,0.0,981.1,7.95,18.0,377,360.4,77.3,22.9,401.0,36.0,4.1,4,5,7,1,2026-06-25T04:36:23.766254+05:30
Vrindavan,Uttar Pradesh,27.5823,77.7027,28.5,62,0.0,981.5,7.9,15.5,377,360.4,77.3,22.9,462.0,36.0,4.1,7,5,7,1,2026-06-25T04:36:23.766261+05:30
Ayodhya,Uttar Pradesh,26.7922,82.1998,28.9,67,0.0,989.9,8.4,17.6,162,215.6,106.4,66.6,523.0,12.0,15.5,7,5,7,1,2026-06-25T04:36:23.766268+05:30
Ratlam,Madhya Pradesh,23.3315,75.0367,25.1,84,0.0,950.7,8.45,37.4,74,29.0,16.4,8.0,155.0,45.0,11.8,7,5,7,1,2026-06-25T04:36:23.766275+05:30
Sagar,Madhya Pradesh,23.8388,78.7378,24.4,87,0.0,946.1,7.9,29.5,68,29.0,20.5,8.3,244.0,65.0,3.0,3,5,7,1,2026-06-25T04:36:23.766282+05:30
Satna,Madhya Pradesh,24.6005,80.8322,28.7,65,0.0,966.7,8.3,26.6,79,23.6,17.8,9.3,204.0,65.0,3.6,7,5,7,1,2026-06-25T04:36:23.766289+05:30
Akola,Maharashtra,20.7002,77.0082,24.9,95,0.4,971.4,8.35,40.7,55,28.3,18.5,10.0,219.0,62.0,9.3,6,5,7,1,2026-06-25T04:36:23.766296+05:30
Amravati,Maharashtra,20.9374,77.7796,24.5,96,0.1,963.2,8.55,41.0,52,27.7,19.2,10.4,183.0,59.0,7.9,6,5,7,1,2026-06-25T04:36:23.766305+05:30
Latur,Maharashtra,18.4088,76.5604,24.1,79,0.0,936.4,4.9,41.0,35,12.2,7.4,12.3,161.0,32.0,4.3,3,5,3,1,2026-06-25T04:36:23.766312+05:30
Nanded,Maharashtra,19.1383,77.3091,26.0,77,0.0,965.1,6.7,39.6,47,23.0,14.8,11.2,371.0,43.0,4.6,7,5,7,1,2026-06-25T04:36:23.766320+05:30
Gulbarga,Karnataka,17.3297,76.8343,24.6,80,0.0,955.7,4.2,53.6,20,4.0,3.3,8.0,133.0,36.0,3.0,3,5,3,1,2026-06-25T04:36:23.766327+05:30
Bidar,Karnataka,17.9104,77.5199,24.8,72,0.0,932.1,7.4,40.0,29,11.6,6.5,9.3,148.0,39.0,2.8,3,5,7,1,2026-06-25T04:36:23.766334+05:30
Hospet,Karnataka,15.2689,76.3909,23.2,89,0.0,954.0,8.1,46.8,19,4.5,2.9,3.0,104.0,41.0,1.3,3,5,7,1,2026-06-25T04:36:23.766340+05:30
Tirupur,Tamil Nadu,11.1085,77.3411,24.0,91,0.0,974.6,7.95,49.3,53,12.0,11.2,17.5,137.0,20.0,4.3,3,5,7,1,2026-06-25T04:36:23.766347+05:30
Alappuzha,Kerala,9.4981,76.3388,25.5,95,0.1,1009.3,8.3,43.9,34,9.4,6.8,5.9,78.0,36.0,2.7,10,0,4,1,2026-06-25T04:36:23.766354+05:30
Munnar,Kerala,10.0889,77.0595,16.1,99,0.1,856.3,8.75,43.9,19,1.9,1.8,4.7,87.0,27.0,1.3,6,10,7,0,2026-06-25T04:36:23.766361+05:30
Silchar,Assam,24.8333,92.7789,26.0,93,0.0,1002.5,8.7,23.0,60,22.5,15.0,6.4,242.0,83.0,3.3,7,5,4,1,2026-06-25T04:36:23.766368+05:30
Dibrugarh,Assam,27.4728,94.912,26.1,98,0.0,992.1,8.85,23.8,55,16.5,15.1,11.3,241.0,56.0,1.3,7,5,7,1,2026-06-25T04:36:23.766375+05:30
