city,state,latitude,longitude,temp,humidity,rain,pressure,uv_index,wind_gusts,aqi,pm10,pm2_5,mosquito_risk,arthritis_risk,migraine_risk,frizz_risk,updated_at
Delhi,Delhi,28.6139,77.209,20.0,89,0.0,984.4,6.85,24.5,126,214.2,56.3,3,5,7,1,2026-04-01T04:07:46.233223+05:30
Mumbai,Maharashtra,19.076,72.8777,27.1,82,0.0,1008.1,7.85,25.2,58,35.9,18.2,7,0,4,1,2026-04-01T04:07:46.233257+05:30
Bangalore,Karnataka,12.9716,77.5946,21.5,86,0.0,910.7,9.55,30.2,89,26.7,24.5,3,5,7,1,2026-04-01T04:07:46.233272+05:30
Hyderabad,Telangana,17.385,78.4867,24.6,79,0.0,952.9,9.1,13.7,125,48.3,41.3,3,5,7,1,2026-04-01T04:07:46.233281+05:30
Chennai,Tamil Nadu,13.0827,80.2707,26.3,78,0.0,1007.6,9.25,29.2,47,15.4,11.7,7,5,4,1,2026-04-01T04:07:46.233289+05:30
Kolkata,West Bengal,22.5726,88.3639,24.9,97,0.0,1007.4,8.55,18.7,89,36.4,32.1,3,5,4,1,2026-04-01T04:07:46.233296+05:30
Pune,Maharashtra,18.5204,73.8567,23.8,96,0.0,947.6,8.4,32.8,104,37.0,33.2,3,5,7,1,2026-04-01T04:07:46.233307+05:30
Ahmedabad,Gujarat,23.0225,72.5714,25.8,61,0.0,1002.0,7.8,24.5,64,12.7,8.8,7,5,4,1,2026-04-01T04:07:46.233313+05:30
Jaipur,Rajasthan,26.9124,75.7873,22.2,77,0.0,960.5,6.55,36.0,88,228.2,34.2,3,5,7,1,2026-04-01T04:07:46.233320+05:30
Lucknow,Uttar Pradesh,26.8467,80.9462,25.6,62,0.0,994.5,7.05,29.5,139,179.3,50.4,7,5,7,1,2026-04-01T04:07:46.233327+05:30
Kanpur,Uttar Pradesh,26.4499,80.3319,23.8,78,0.0,993.1,7.4,28.8,292,238.0,56.0,3,5,7,1,2026-04-01T04:07:46.233333+05:30
Chandigarh,Chandigarh,30.7333,76.7794,18.8,71,0.0,970.4,6.45,12.2,84,39.7,23.6,3,5,7,0,2026-04-01T04:07:46.233342+05:30
Srinagar,Jammu and Kashmir,34.0837,74.7973,6.8,82,0.0,840.3,7.3,25.6,73,57.6,41.3,3,10,7,0,2026-04-01T04:07:46.233349+05:30
Jammu,Jammu and Kashmir,32.7266,74.857,19.3,67,0.0,974.5,6.5,20.9,72,26.4,20.2,3,5,7,0,2026-04-01T04:07:46.233356+05:30
Amritsar,Punjab,31.634,74.8723,19.3,78,0.0,982.5,5.9,14.8,107,127.6,51.3,3,5,3,0,2026-04-01T04:07:46.233362+05:30
Ludhiana,Punjab,30.901,75.8573,20.2,74,0.0,980.7,6.6,18.0,151,162.1,53.1,3,5,7,0,2026-04-01T04:07:46.233368+05:30
Jalandhar,Punjab,31.326,75.5762,19.1,76,0.0,981.8,6.5,13.3,130,144.4,49.8,3,5,7,0,2026-04-01T04:07:46.233376+05:30
Dehradun,Uttarakhand,30.6284,78.0322,12.2,67,0.0,829.7,6.55,32.0,37,6.1,4.7,3,5,7,0,2026-04-01T04:07:46.233382+05:30
Shimla,Himachal Pradesh,31.1048,77.1734,10.4,74,0.0,783.3,5.95,32.4,53,15.0,8.7,3,5,3,0,2026-04-01T04:07:46.233388+05:30
Manali,Himachal Pradesh,32.2396,77.1887,13.4,40,0.0,819.1,7.7,28.4,47,6.2,4.6,0,5,7,0,2026-04-01T04:07:46.233395+05:30
Gurgaon,Haryana,28.4595,77.0266,18.2,96,0.0,982.6,6.85,25.9,315,207.2,58.6,3,10,7,1,2026-04-01T04:07:46.233422+05:30
Noida,Uttar Pradesh,28.5355,77.391,19.8,90,0.0,985.9,6.85,23.8,315,207.2,58.6,3,10,7,1,2026-04-01T04:07:46.233430+05:30
Ghaziabad,Uttar Pradesh,28.6692,77.4538,18.6,91,0.0,984.1,6.85,21.6,115,143.0,42.3,3,10,7,1,2026-04-01T04:07:46.233436+05:30
Faridabad,Haryana,28.4089,77.3178,18.8,90,0.0,985.0,6.8,23.8,315,207.2,58.6,3,10,7,1,2026-04-01T04:07:46.233442+05:30
Meerut,Uttar Pradesh,28.9845,77.7064,18.4,92,0.0,983.0,6.7,20.9,115,143.0,42.3,3,10,7,1,2026-04-01T04:07:46.233448+05:30
Agra,Uttar Pradesh,27.1767,78.0081,21.4,85,0.0,989.5,6.85,29.5,401,1195.8,150.4,3,5,7,1,2026-04-01T04:07:46.233458+05:30
Varanasi,Uttar Pradesh,25.3176,82.9739,23.8,72,0.0,999.8,7.45,25.6,145,86.6,41.4,3,5,7,1,2026-04-01T04:07:46.233467+05:30
Prayagraj,Uttar Pradesh,25.4358,81.8463,24.2,72,0.0,998.1,7.6,36.0,141,110.1,30.7,3,5,7,1,2026-04-01T04:07:46.233475+05:30
Gorakhpur,Uttar Pradesh,26.7606,83.3732,22.9,83,0.0,998.3,7.75,31.7,156,114.8,88.0,3,5,7,1,2026-04-01T04:07:46.233482+05:30
Bareilly,Uttar Pradesh,28.367,79.4304,20.5,75,0.0,988.0,6.65,22.7,87,71.9,36.1,3,5,7,0,2026-04-01T04:07:46.233488+05:30
Aligarh,Uttar Pradesh,27.8974,78.088,20.4,85,0.0,987.0,7.0,25.2,197,568.1,102.0,3,5,7,1,2026-04-01T04:07:46.233493+05:30
Moradabad,Uttar Pradesh,28.8386,78.7733,19.4,79,0.0,984.8,6.9,22.7,97,101.5,35.3,3,5,7,0,2026-04-01T04:07:46.233499+05:30
Saharanpur,Uttar Pradesh,29.9637,77.546,18.8,77,0.0,977.3,6.4,11.2,125,94.1,36.7,3,5,7,0,2026-04-01T04:07:46.233505+05:30
Jhansi,Uttar Pradesh,25.4484,78.5685,22.9,76,0.0,979.3,7.65,28.8,48,216.5,38.5,3,5,7,1,2026-04-01T04:07:49.548550+05:30
Surat,Gujarat,21.1702,72.8311,26.1,86,0.0,1006.5,7.65,26.3,84,43.8,28.2,7,5,4,1,2026-04-01T04:07:49.548580+05:30
Vadodara,Gujarat,22.3072,73.1812,26.1,79,0.0,1004.1,7.85,28.4,71,22.9,17.5,7,5,4,1,2026-04-01T04:07:49.548593+05:30
Rajkot,Gujarat,22.3039,70.8022,22.8,81,0.0,994.6,7.5,37.4,62,20.0,11.5,3,5,7,1,2026-04-01T04:07:49.548602+05:30
Thane,Maharashtra,19.2183,72.9781,25.9,86,0.0,1007.6,7.85,36.7,58,35.9,18.2,7,5,4,1,2026-04-01T04:07:49.548609+05:30
Nagpur,Maharashtra,21.1458,79.0882,24.7,76,0.0,973.6,8.6,33.1,62,30.6,29.3,3,5,7,1,2026-04-01T04:07:49.548616+05:30
Nashik,Maharashtra,19.9975,73.7898,22.5,93,0.0,945.0,8.1,32.0,60,25.1,15.8,3,5,7,1,2026-04-01T04:07:49.548622+05:30
Aurangabad,Maharashtra,19.8762,75.3433,23.7,78,0.0,943.3,8.75,33.5,76,44.0,35.3,3,5,7,1,2026-04-01T04:07:49.548628+05:30
Solapur,Maharashtra,17.6599,75.9064,26.3,63,0.0,956.5,8.9,34.2,101,45.9,41.4,7,5,7,1,2026-04-01T04:07:49.548635+05:30
Kolhapur,Maharashtra,16.705,74.2433,23.6,95,0.0,946.9,8.85,34.6,134,56.2,53.9,3,5,7,1,2026-04-01T04:07:49.548641+05:30
Goa,Goa,15.2993,74.124,28.2,81,0.0,996.9,8.85,31.7,74,32.6,27.1,7,5,7,1,2026-04-01T04:07:49.548648+05:30
Jodhpur,Rajasthan,26.2389,73.0243,22.6,59,0.0,982.9,7.5,31.3,85,223.1,35.2,0,5,7,0,2026-04-01T04:07:49.548654+05:30
Udaipur,Rajasthan,24.5854,73.7125,21.9,67,0.0,945.9,8.2,36.0,47,45.8,17.3,3,5,7,0,2026-04-01T04:07:49.548660+05:30
Kota,Rajasthan,25.2138,75.8648,25.5,71,0.0,979.4,7.15,22.7,56,11.4,6.4,7,5,7,1,2026-04-01T04:07:49.548666+05:30
Bikaner,Rajasthan,28.0229,73.3119,23.4,71,0.0,981.4,7.2,23.8,48,6.0,5.4,3,5,7,1,2026-04-01T04:07:49.548672+05:30
Ajmer,Rajasthan,26.4499,74.6399,22.9,67,0.0,954.9,7.2,30.2,46,74.0,18.7,3,5,7,1,2026-04-01T04:07:49.548678+05:30
Gwalior,Madhya Pradesh,26.2183,78.1828,23.4,75,0.0,985.1,7.35,35.3,55,284.1,50.2,3,5,7,1,2026-04-01T04:07:49.548683+05:30
Indore,Madhya Pradesh,22.7196,75.8577,24.1,68,0.0,947.4,8.3,31.7,62,29.4,24.0,3,5,7,1,2026-04-01T04:07:49.548688+05:30
Bhopal,Madhya Pradesh,23.2599,77.4126,24.3,62,0.0,953.0,8.25,36.0,55,21.8,19.7,3,5,7,1,2026-04-01T04:07:49.548694+05:30
Jabalpur,Madhya Pradesh,23.1815,79.9864,23.1,66,0.0,962.4,8.1,40.7,68,21.6,16.6,3,5,7,1,2026-04-01T04:07:49.548699+05:30
Ujjain,Madhya Pradesh,23.1765,75.7885,24.5,66,0.0,953.3,8.2,27.0,64,33.2,24.7,3,5,7,1,2026-04-01T04:07:49.548705+05:30
Visakhapatnam,Andhra Pradesh,17.6868,83.2185,25.8,90,0.0,1004.9,9.05,34.2,74,29.5,25.2,7,5,4,1,2026-04-01T04:07:49.548711+05:30
Vijayawada,Andhra Pradesh,16.5062,80.648,25.7,89,0.0,1003.5,9.1,28.1,65,19.2,16.5,7,5,4,1,2026-04-01T04:07:49.548716+05:30
Guntur,Andhra Pradesh,16.3067,80.4365,25.6,89,0.0,1004.5,9.1,31.0,66,15.8,13.3,7,5,4,1,2026-04-01T04:07:49.548722+05:30
Nellore,Andhra Pradesh,14.4426,79.9865,25.1,88,0.0,1006.2,9.2,30.2,51,12.1,9.6,7,5,4,1,2026-04-01T04:07:49.548729+05:30
Kurnool,Andhra Pradesh,15.8281,78.0373,27.4,69,0.0,976.5,9.1,22.0,89,24.4,21.8,7,5,7,1,2026-04-01T04:07:49.548735+05:30
Kakinada,Andhra Pradesh,16.9891,82.2475,25.0,91,0.0,1008.6,9.05,32.0,54,21.8,16.4,7,0,4,1,2026-04-01T04:07:49.548741+05:30
Tirupati,Andhra Pradesh,13.6288,79.4192,23.3,88,0.0,992.3,9.3,35.3,67,21.2,18.6,3,5,7,1,2026-04-01T04:07:49.548746+05:30
Warangal,Telangana,17.9689,79.5941,25.4,82,0.0,978.9,8.95,29.9,143,36.0,34.0,7,5,7,1,2026-04-01T04:07:49.548752+05:30
Nizamabad,Telangana,18.6725,78.0941,26.1,73,0.0,964.4,8.85,22.0,119,65.2,59.6,7,5,7,1,2026-04-01T04:07:49.548759+05:30
Mysore,Karnataka,12.2958,76.6396,22.1,86,0.0,927.4,9.5,29.5,110,37.8,33.5,3,5,7,1,2026-04-01T04:07:49.548765+05:30
Mangalore,Karnataka,12.9141,74.856,28.3,74,0.0,1005.2,9.15,20.9,77,31.7,26.5,7,5,4,1,2026-04-01T04:07:49.548770+05:30
Hubli-Dharwad,Karnataka,15.3647,75.124,23.0,85,0.0,940.1,9.15,32.8,103,48.1,43.4,3,5,7,1,2026-04-01T04:07:49.548776+05:30
Belgaum,Karnataka,15.8497,74.4977,22.5,98,0.0,924.7,9.1,28.8,106,53.7,47.0,3,5,7,1,2026-04-01T04:07:52.874576+05:30
Coimbatore,Tamil Nadu,11.0168,76.9558,24.6,77,0.0,961.4,9.45,38.9,85,31.1,26.6,3,5,7,1,2026-04-01T04:07:52.874605+05:30
Madurai,Tamil Nadu,9.9252,78.1198,25.3,85,0.0,993.2,8.4,25.2,65,25.3,23.5,7,5,7,1,2026-04-01T04:07:52.874617+05:30
Trichy,Tamil Nadu,10.7905,78.7047,23.8,94,0.0,1000.1,7.95,26.6,56,19.0,16.5,3,5,4,1,2026-04-01T04:07:52.874627+05:30
Salem,Tamil Nadu,11.6643,78.146,24.4,82,0.0,977.2,9.4,33.5,69,30.3,28.2,3,5,7,1,2026-04-01T04:07:52.874636+05:30
Tirunelveli,Tamil Nadu,8.7139,77.7567,24.8,90,0.0,1003.0,9.35,38.9,73,24.7,23.7,3,5,4,1,2026-04-01T04:07:52.874644+05:30
Vellore,Tamil Nadu,12.9165,79.1325,23.1,88,0.0,985.1,9.4,34.9,77,30.2,27.6,3,5,7,1,2026-04-01T04:07:52.874652+05:30
Erode,Tamil Nadu,11.341,77.7172,25.6,83,0.0,989.1,9.35,21.6,54,14.5,12.8,7,5,7,1,2026-04-01T04:07:52.874660+05:30
Kochi,Kerala,9.9312,76.2673,27.2,80,0.0,1007.7,9.2,34.2,103,37.3,36.2,7,5,4,1,2026-04-01T04:07:52.874667+05:30
Thiruvananthapuram,Kerala,8.5241,76.9366,28.3,83,0.0,1006.7,9.05,27.0,72,17.9,13.9,7,5,4,1,2026-04-01T04:07:52.874675+05:30
Kozhikode,Kerala,11.2588,75.7804,28.0,84,0.0,1006.9,9.15,27.0,95,30.4,23.2,7,5,4,1,2026-04-01T04:07:52.874683+05:30
Thrissur,Kerala,10.5276,76.2144,25.5,91,0.0,1006.2,9.2,35.3,107,38.2,36.4,7,5,4,1,2026-04-01T04:07:52.874691+05:30
Kannur,Kerala,11.8745,75.3704,27.2,85,0.0,1005.9,9.1,26.6,94,42.6,38.1,7,5,4,1,2026-04-01T04:07:52.874700+05:30
Patna,Bihar,25.5941,85.1376,25.0,88,0.0,1001.2,8.1,38.5,164,142.5,114.3,7,5,4,1,2026-04-01T04:07:52.874708+05:30
Gaya,Bihar,24.7914,85.0002,24.6,73,0.0,994.3,7.95,34.9,128,66.6,35.9,3,5,7,1,2026-04-01T04:07:52.874716+05:30
Muzaffarpur,Bihar,26.1209,85.3647,22.9,92,0.0,1001.3,8.15,34.9,167,139.2,116.9,3,5,4,1,2026-04-01T04:07:52.874724+05:30
Bhagalpur,Bihar,25.2425,87.0117,24.4,89,0.0,1002.1,8.2,34.9,161,82.4,72.6,3,5,4,1,2026-04-01T04:07:52.874732+05:30
Ranchi,Jharkhand,23.3441,85.3096,21.3,82,0.0,938.7,8.85,31.0,77,47.0,31.8,3,5,7,1,2026-04-01T04:07:52.874740+05:30
Jamshedpur,Jharkhand,22.8046,86.2029,24.2,91,0.0,992.3,8.65,20.5,130,59.6,53.9,3,5,7,1,2026-04-01T04:07:52.874747+05:30
Dhanbad,Jharkhand,23.7957,86.4304,23.6,86,0.0,980.9,8.6,27.7,163,136.9,130.9,3,5,7,1,2026-04-01T04:07:52.874755+05:30
Bokaro,Jharkhand,23.6693,86.1511,23.2,86,0.0,985.2,8.6,22.3,156,110.1,94.3,3,5,7,1,2026-04-01T04:07:52.874762+05:30
Bhubaneswar,Odisha,20.2961,85.8245,25.7,93,0.0,1003.8,8.85,28.4,106,33.8,29.7,7,5,4,1,2026-04-01T04:07:52.874770+05:30
Cuttack,Odisha,20.4625,85.8828,25.6,92,0.0,1005.8,8.9,25.2,106,33.8,29.7,7,5,4,1,2026-04-01T04:07:52.874777+05:30
Rourkela,Odisha,22.2604,84.8536,25.0,89,0.0,986.5,8.6,13.7,110,65.7,55.1,7,5,7,1,2026-04-01T04:07:52.874785+05:30
Raipur,Chhattisgarh,21.2514,81.6296,24.8,60,0.0,975.0,8.65,26.6,144,140.6,82.9,0,5,7,1,2026-04-01T04:07:52.874792+05:30
Bhilai,Chhattisgarh,21.1938,81.3509,24.6,58,0.0,975.4,8.65,22.7,116,126.2,78.5,0,5,7,0,2026-04-01T04:07:52.874800+05:30
Guwahati,Assam,26.1158,91.7086,22.4,92,0.0,1002.9,8.05,37.1,125,50.5,39.2,3,5,4,1,2026-04-01T04:07:52.874808+05:30
Agartala,Tripura,23.8315,91.2868,22.7,96,0.0,1007.7,8.35,18.7,95,34.1,32.0,3,5,4,1,2026-04-01T04:07:52.874816+05:30
Shillong,Meghalaya,25.5788,91.8933,13.3,92,0.0,855.7,7.4,52.2,83,17.4,13.8,3,10,7,0,2026-04-01T04:07:52.874824+05:30
Imphal,Manipur,24.817,93.9368,17.3,92,0.0,924.0,8.1,64.4,84,42.5,38.0,3,10,7,0,2026-04-01T04:07:52.874832+05:30
Aizawl,Mizoram,23.7271,92.7176,17.4,98,0.0,893.2,8.6,39.6,105,35.0,30.2,3,10,7,1,2026-04-01T04:07:52.874839+05:30
Kohima,Nagaland,25.6701,94.1077,14.4,85,0.0,854.5,8.55,72.7,65,28.9,20.8,3,10,7,0,2026-04-01T04:07:52.874847+05:30
Gangtok,Sikkim,27.3314,88.6138,13.3,94,0.0,836.4,8.45,22.0,114,52.3,39.9,3,10,7,0,2026-04-01T04:07:52.874855+05:30
Siliguri,West Bengal,26.7271,88.3953,19.7,79,0.0,995.0,8.05,26.6,157,87.3,67.5,3,5,7,0,2026-04-01T04:07:56.193722+05:30
Durgapur,West Bengal,23.5204,87.3119,24.9,93,0.0,996.3,8.55,24.5,161,88.7,82.2,3,5,7,1,2026-04-01T04:07:56.193753+05:30
Asansol,West Bengal,23.6739,86.9524,24.9,90,0.0,994.8,8.55,36.7,156,89.6,83.6,3,5,7,1,2026-04-01T04:07:56.193767+05:30
Pondicherry,Puducherry,11.9139,79.8145,24.2,94,0.0,1008.8,8.4,28.1,44,13.6,9.9,3,0,4,1,2026-04-01T04:07:56.193777+05:30
Port Blair,Andaman and Nicobar Islands,11.6234,92.7265,27.9,83,0.0,1006.9,7.4,15.1,36,7.7,6.2,7,5,4,1,2026-04-01T04:07:56.193786+05:30
Haridwar,Uttarakhand,29.9457,78.1642,18.6,67,0.0,975.7,6.5,19.4,78,44.0,24.4,3,5,7,0,2026-04-01T04:07:56.193797+05:30
Rishikesh,Uttarakhand,30.0869,78.2676,18.8,57,0.0,968.5,6.5,24.1,58,29.0,17.5,0,5,7,0,2026-04-01T04:07:56.193806+05:30
Nainital,Uttarakhand,29.3919,79.4542,18.3,35,0.0,806.8,7.15,36.7,66,26.4,16.6,0,5,7,0,2026-04-01T04:07:56.193814+05:30
Mussoorie,Uttarakhand,30.4599,78.0664,14.6,48,0.0,802.7,6.85,34.2,62,20.7,16.0,0,5,7,0,2026-04-01T04:07:56.193823+05:30
Dharamshala,Himachal Pradesh,32.219,76.3234,17.6,54,0.0,869.6,6.0,23.8,45,8.5,4.3,0,5,3,0,2026-04-01T04:07:56.193831+05:30
Dalhousie,Himachal Pradesh,32.5387,75.971,14.3,52,0.0,803.4,6.05,19.8,58,14.7,10.8,0,5,7,0,2026-04-01T04:07:56.193840+05:30
Patiala,Punjab,30.3398,76.3869,19.1,84,0.0,980.0,6.2,14.8,188,148.1,41.8,3,10,7,1,2026-04-01T04:07:56.193849+05:30
Bhatinda,Punjab,30.211,74.9455,18.7,90,0.0,985.2,6.05,18.4,108,150.9,33.4,3,10,7,1,2026-04-01T04:07:56.193857+05:30
Rohtak,Haryana,28.8955,76.6066,17.1,97,0.0,983.1,6.8,28.8,129,230.0,58.3,3,10,7,1,2026-04-01T04:07:56.193865+05:30
Panipat,Haryana,29.3909,76.9635,17.9,95,0.0,982.1,6.6,19.8,153,130.9,37.4,3,10,7,1,2026-04-01T04:07:56.193873+05:30
Mathura,Uttar Pradesh,27.4924,77.6737,20.6,90,0.0,988.3,7.05,31.0,222,465.7,93.4,3,5,7,1,2026-04-01T04:07:56.193881+05:30
Vrindavan,Uttar Pradesh,27.5823,77.7027,20.1,89,0.0,988.8,7.1,31.3,222,465.7,93.4,3,5,7,1,2026-04-01T04:07:56.193889+05:30
Ayodhya,Uttar Pradesh,26.7922,82.1998,22.9,79,0.0,996.6,7.45,32.8,113,156.0,43.2,3,5,7,1,2026-04-01T04:07:56.193897+05:30
Ratlam,Madhya Pradesh,23.3315,75.0367,25.0,69,0.0,953.9,8.15,31.3,60,37.5,24.4,7,5,7,1,2026-04-01T04:07:56.193905+05:30
Sagar,Madhya Pradesh,23.8388,78.7378,23.9,61,0.0,950.4,8.2,33.5,39,78.7,15.7,3,5,7,0,2026-04-01T04:07:56.193913+05:30
Satna,Madhya Pradesh,24.6005,80.8322,25.1,57,0.0,973.2,7.5,31.0,102,75.7,22.3,4,5,7,0,2026-04-01T04:07:56.193921+05:30
Akola,Maharashtra,20.7002,77.0082,26.1,70,0.0,974.6,8.55,19.1,71,38.8,34.2,7,5,7,1,2026-04-01T04:07:56.193931+05:30
Amravati,Maharashtra,20.9374,77.7796,24.8,81,0.0,966.8,8.6,40.3,67,38.3,34.5,3,5,7,1,2026-04-01T04:07:56.193940+05:30
Latur,Maharashtra,18.4088,76.5604,24.5,70,0.0,939.5,8.9,24.8,103,61.7,54.1,3,5,7,1,2026-04-01T04:07:56.193948+05:30
Nanded,Maharashtra,19.1383,77.3091,26.2,73,0.0,968.2,8.75,34.6,91,55.8,49.8,7,5,7,1,2026-04-01T04:07:56.193956+05:30
Gulbarga,Karnataka,17.3297,76.8343,26.7,68,0.0,958.3,8.95,38.2,110,44.4,40.2,7,5,7,1,2026-04-01T04:07:56.193963+05:30
Bidar,Karnataka,17.9104,77.5199,24.8,74,0.0,935.0,8.95,38.5,122,54.4,49.8,3,5,7,1,2026-04-01T04:07:56.193971+05:30
Hospet,Karnataka,15.2689,76.3909,24.9,78,0.0,955.2,9.15,22.0,101,42.1,37.7,3,5,7,1,2026-04-01T04:07:56.193979+05:30
Tirupur,Tamil Nadu,11.1085,77.3411,25.0,82,0.0,975.2,9.5,28.4,70,19.2,16.0,7,5,7,1,2026-04-01T04:07:56.193987+05:30
Alappuzha,Kerala,9.4981,76.3388,27.4,83,0.0,1007.8,9.2,28.1,100,24.5,22.8,7,5,4,1,2026-04-01T04:07:56.193995+05:30
Munnar,Kerala,10.0889,77.0595,18.5,88,0.0,854.8,9.65,25.2,73,32.1,27.0,3,10,7,1,2026-04-01T04:07:56.194004+05:30
Silchar,Assam,24.8333,92.7789,22.0,96,0.0,1007.1,8.35,20.5,98,58.2,49.8,3,5,4,1,2026-04-01T04:07:56.194012+05:30
Dibrugarh,Assam,27.4728,94.912,21.8,92,0.0,997.3,7.8,31.3,89,36.0,30.0,3,5,7,1,2026-04-01T04:07:56.194020+05:30
