city,state,latitude,longitude,temp,humidity,rain,pressure,uv_index,wind_gusts,aqi,pm10,pm2_5,mosquito_risk,arthritis_risk,migraine_risk,frizz_risk,updated_at
Delhi,Delhi,28.6139,77.209,19.8,65,0.0,986.0,5.7,31.7,158,377.2,90.3,3,5,3,0,2026-03-01T22:55:21.786814+05:30
Mumbai,Maharashtra,19.076,72.8777,26.3,78,0.0,1010.7,7.25,24.1,79,49.7,27.9,7,0,4,1,2026-03-01T22:55:21.786856+05:30
Bangalore,Karnataka,12.9716,77.5946,23.7,55,0.0,912.3,9.05,23.0,151,43.4,43.0,0,5,7,0,2026-03-01T22:55:21.786871+05:30
Hyderabad,Telangana,17.385,78.4867,25.4,66,0.0,954.6,8.3,27.4,131,77.1,76.6,7,5,7,1,2026-03-01T22:55:21.786881+05:30
Chennai,Tamil Nadu,13.0827,80.2707,25.7,78,0.0,1009.5,8.75,33.1,133,45.2,41.4,7,0,4,1,2026-03-01T22:55:21.786890+05:30
Kolkata,West Bengal,22.5726,88.3639,24.7,91,0.0,1007.7,7.6,25.2,99,45.8,43.9,3,5,4,1,2026-03-01T22:55:21.786899+05:30
Pune,Maharashtra,18.5204,73.8567,22.3,78,0.0,949.5,7.8,34.2,151,40.0,34.7,3,5,7,1,2026-03-01T22:55:21.786910+05:30
Ahmedabad,Gujarat,23.0225,72.5714,25.1,55,0.0,1004.7,7.05,21.2,94,63.3,49.5,4,5,4,0,2026-03-01T22:55:21.786918+05:30
Jaipur,Rajasthan,26.9124,75.7873,23.7,31,0.0,962.7,6.45,25.2,88,84.3,48.3,0,5,7,0,2026-03-01T22:55:21.786925+05:30
Lucknow,Uttar Pradesh,26.8467,80.9462,19.7,51,0.0,996.0,6.2,38.5,124,183.9,51.1,0,5,7,0,2026-03-01T22:55:21.786933+05:30
Kanpur,Uttar Pradesh,26.4499,80.3319,17.5,58,0.0,994.6,6.2,31.3,151,268.2,57.0,0,5,7,0,2026-03-01T22:55:21.786940+05:30
Chandigarh,Chandigarh,30.7333,76.7794,17.8,57,0.0,971.3,5.6,31.0,85,40.7,37.0,0,5,3,0,2026-03-01T22:55:21.786948+05:30
Srinagar,Jammu and Kashmir,34.0837,74.7973,6.3,76,0.0,838.8,6.45,14.8,147,101.7,89.2,3,5,7,0,2026-03-01T22:55:21.786955+05:30
Jammu,Jammu and Kashmir,32.7266,74.857,19.2,62,0.0,975.3,6.15,25.2,101,58.4,51.7,3,5,7,0,2026-03-01T22:55:21.786962+05:30
Amritsar,Punjab,31.634,74.8723,18.7,64,0.0,983.7,6.1,20.5,128,73.6,53.2,3,5,7,0,2026-03-01T22:55:21.786969+05:30
Ludhiana,Punjab,30.901,75.8573,19.5,57,0.0,981.8,5.8,25.9,154,94.3,77.5,0,5,3,0,2026-03-01T22:55:21.786977+05:30
Jalandhar,Punjab,31.326,75.5762,19.4,59,0.0,983.0,5.95,23.0,156,106.6,87.1,0,5,3,0,2026-03-01T22:55:21.786986+05:30
Dehradun,Uttarakhand,30.6284,78.0322,10.6,58,0.0,828.4,5.95,32.4,69,31.5,26.3,0,5,3,0,2026-03-01T22:55:21.786993+05:30
Shimla,Himachal Pradesh,31.1048,77.1734,7.8,56,0.0,782.0,6.0,50.4,76,33.3,26.0,0,5,3,1,2026-03-01T22:55:21.787000+05:30
Manali,Himachal Pradesh,32.2396,77.1887,10.9,59,0.0,818.1,7.6,34.9,77,24.0,17.3,0,5,7,0,2026-03-01T22:55:21.787007+05:30
Gurgaon,Haryana,28.4595,77.0266,17.5,74,0.0,984.3,5.8,31.0,537,577.4,108.0,3,5,3,0,2026-03-01T22:55:21.787015+05:30
Noida,Uttar Pradesh,28.5355,77.391,20.0,64,0.0,987.6,5.75,31.3,537,577.4,108.0,3,5,3,0,2026-03-01T22:55:21.787021+05:30
Ghaziabad,Uttar Pradesh,28.6692,77.4538,19.5,64,0.0,985.6,5.7,28.1,153,369.7,87.5,3,5,3,0,2026-03-01T22:55:21.787027+05:30
Faridabad,Haryana,28.4089,77.3178,20.3,56,0.0,986.8,5.75,28.8,537,577.4,108.0,0,5,3,0,2026-03-01T22:55:21.787034+05:30
Meerut,Uttar Pradesh,28.9845,77.7064,17.3,69,0.0,983.9,5.6,31.7,153,369.7,87.5,3,5,3,0,2026-03-01T22:55:21.787040+05:30
Agra,Uttar Pradesh,27.1767,78.0081,19.3,51,0.0,990.8,6.05,27.4,235,400.5,74.3,0,5,7,0,2026-03-01T22:55:21.787046+05:30
Varanasi,Uttar Pradesh,25.3176,82.9739,18.8,63,0.0,1000.0,6.85,26.6,135,64.5,38.1,3,5,4,0,2026-03-01T22:55:21.787055+05:30
Prayagraj,Uttar Pradesh,25.4358,81.8463,18.6,61,0.0,998.8,6.7,28.1,135,82.4,39.5,3,5,7,0,2026-03-01T22:55:21.787062+05:30
Gorakhpur,Uttar Pradesh,26.7606,83.3732,18.1,57,0.0,999.2,6.55,32.4,107,45.4,31.8,0,5,7,0,2026-03-01T22:55:21.787069+05:30
Bareilly,Uttar Pradesh,28.367,79.4304,17.4,69,0.0,989.2,5.9,35.6,121,107.6,43.9,3,5,3,0,2026-03-01T22:55:21.787075+05:30
Aligarh,Uttar Pradesh,27.8974,78.088,18.0,62,0.0,988.4,5.8,31.3,295,501.1,101.3,3,5,3,0,2026-03-01T22:55:21.787084+05:30
Moradabad,Uttar Pradesh,28.8386,78.7733,17.0,65,0.0,986.0,5.7,33.8,127,140.2,49.0,3,5,3,0,2026-03-01T22:55:21.787090+05:30
Saharanpur,Uttar Pradesh,29.9637,77.546,16.7,65,0.0,977.7,5.35,38.2,135,82.7,44.6,3,5,3,0,2026-03-01T22:55:21.787096+05:30
Jhansi,Uttar Pradesh,25.4484,78.5685,21.1,54,0.0,980.9,6.65,24.5,72,61.5,29.4,0,5,7,0,2026-03-01T22:55:25.047703+05:30
Surat,Gujarat,21.1702,72.8311,24.2,81,0.0,1009.0,6.95,28.4,114,74.3,64.0,3,0,4,1,2026-03-01T22:55:25.047735+05:30
Vadodara,Gujarat,22.3072,73.1812,26.1,54,0.0,1006.8,7.05,11.9,113,72.6,63.1,4,5,4,1,2026-03-01T22:55:25.047746+05:30
Rajkot,Gujarat,22.3039,70.8022,23.6,55,0.0,997.0,6.9,20.5,93,42.0,28.0,0,5,7,0,2026-03-01T22:55:25.047753+05:30
Thane,Maharashtra,19.2183,72.9781,24.2,82,0.0,1010.2,7.25,36.4,79,49.7,27.9,3,0,4,1,2026-03-01T22:55:25.047760+05:30
Nagpur,Maharashtra,21.1458,79.0882,24.7,54,0.0,975.0,7.65,30.6,91,32.4,31.7,0,5,7,0,2026-03-01T22:55:25.047767+05:30
Nashik,Maharashtra,19.9975,73.7898,21.6,74,0.0,947.1,7.45,28.8,83,35.0,29.9,3,5,7,1,2026-03-01T22:55:25.047774+05:30
Aurangabad,Maharashtra,19.8762,75.3433,24.7,54,0.0,945.2,7.95,28.8,92,39.2,38.0,0,5,7,0,2026-03-01T22:55:25.047780+05:30
Solapur,Maharashtra,17.6599,75.9064,25.7,56,0.0,957.6,8.25,19.8,118,41.7,41.2,4,5,7,1,2026-03-01T22:55:25.047787+05:30
Kolhapur,Maharashtra,16.705,74.2433,20.1,80,0.0,948.9,8.35,37.8,95,32.2,31.0,3,5,7,1,2026-03-01T22:55:25.047794+05:30
Goa,Goa,15.2993,74.124,25.7,75,0.0,999.8,8.4,35.3,61,29.3,24.8,7,5,7,1,2026-03-01T22:55:25.047802+05:30
Jodhpur,Rajasthan,26.2389,73.0243,25.6,41,0.0,985.6,6.75,18.0,66,44.9,27.0,4,5,7,0,2026-03-01T22:55:25.047809+05:30
Udaipur,Rajasthan,24.5854,73.7125,20.9,57,0.0,949.1,7.35,25.2,62,31.7,21.8,0,5,7,0,2026-03-01T22:55:25.047815+05:30
Kota,Rajasthan,25.2138,75.8648,24.7,51,0.0,981.6,6.8,20.2,84,56.1,39.0,0,5,7,0,2026-03-01T22:55:25.047822+05:30
Bikaner,Rajasthan,28.0229,73.3119,25.7,36,0.0,984.7,6.45,16.2,67,37.5,20.7,4,5,7,0,2026-03-01T22:55:25.047829+05:30
Ajmer,Rajasthan,26.4499,74.6399,22.1,43,0.0,957.0,6.7,17.6,81,56.8,38.4,0,5,7,0,2026-03-01T22:55:25.047835+05:30
Gwalior,Madhya Pradesh,26.2183,78.1828,22.6,49,0.0,986.4,6.35,28.8,97,137.4,39.1,0,5,7,0,2026-03-01T22:55:25.047842+05:30
Indore,Madhya Pradesh,22.7196,75.8577,21.2,63,0.0,950.0,7.35,22.3,81,45.8,40.6,3,5,7,0,2026-03-01T22:55:25.047849+05:30
Bhopal,Madhya Pradesh,23.2599,77.4126,23.0,49,0.0,956.0,7.2,25.9,66,26.4,23.7,0,5,7,0,2026-03-01T22:55:25.047855+05:30
Jabalpur,Madhya Pradesh,23.1815,79.9864,22.0,60,0.0,963.5,7.3,39.2,72,28.6,26.4,0,5,7,0,2026-03-01T22:55:25.047861+05:30
Ujjain,Madhya Pradesh,23.1765,75.7885,22.0,65,0.0,955.9,7.2,20.5,88,62.6,56.2,3,5,7,0,2026-03-01T22:55:25.047868+05:30
Visakhapatnam,Andhra Pradesh,17.6868,83.2185,25.6,82,0.0,1006.1,8.3,39.2,151,48.9,45.4,7,5,4,1,2026-03-01T22:55:25.047875+05:30
Vijayawada,Andhra Pradesh,16.5062,80.648,24.7,82,0.0,1004.8,8.4,24.8,143,40.5,38.8,3,5,4,1,2026-03-01T22:55:25.047881+05:30
Guntur,Andhra Pradesh,16.3067,80.4365,24.8,83,0.0,1006.1,8.4,28.4,137,37.8,36.4,3,5,4,1,2026-03-01T22:55:25.047888+05:30
Nellore,Andhra Pradesh,14.4426,79.9865,25.2,82,0.0,1008.1,8.6,31.0,133,39.6,37.4,7,0,4,1,2026-03-01T22:55:25.047895+05:30
Kurnool,Andhra Pradesh,15.8281,78.0373,28.3,42,0.0,977.6,8.4,20.5,117,39.7,39.3,4,5,7,0,2026-03-01T22:55:25.047903+05:30
Kakinada,Andhra Pradesh,16.9891,82.2475,23.8,88,0.0,1010.2,8.3,33.5,149,47.0,43.2,3,0,4,1,2026-03-01T22:55:25.047909+05:30
Tirupati,Andhra Pradesh,13.6288,79.4192,24.2,71,0.0,994.1,8.7,28.4,150,47.0,45.6,3,5,7,1,2026-03-01T22:55:25.047915+05:30
Warangal,Telangana,17.9689,79.5941,26.2,69,0.0,979.9,8.1,27.7,143,64.0,63.3,7,5,7,1,2026-03-01T22:55:25.047922+05:30
Nizamabad,Telangana,18.6725,78.0941,24.4,58,0.0,965.7,8.0,20.9,113,49.0,48.7,0,5,7,0,2026-03-01T22:55:25.047928+05:30
Mysore,Karnataka,12.2958,76.6396,23.0,80,0.0,929.4,9.05,35.6,130,71.9,70.8,3,5,7,1,2026-03-01T22:55:25.047934+05:30
Mangalore,Karnataka,12.9141,74.856,28.6,71,0.0,1008.5,8.65,32.0,50,19.6,14.9,7,0,4,1,2026-03-01T22:55:25.047940+05:30
Hubli-Dharwad,Karnataka,15.3647,75.124,21.8,75,0.0,941.7,8.55,32.8,94,14.9,14.1,3,5,7,1,2026-03-01T22:55:25.047947+05:30
Belgaum,Karnataka,15.8497,74.4977,20.0,84,0.0,926.4,8.6,38.5,95,23.4,22.0,3,5,7,1,2026-03-01T22:55:28.307920+05:30
Coimbatore,Tamil Nadu,11.0168,76.9558,24.4,82,0.0,963.2,9.05,32.8,146,55.6,54.8,3,5,7,1,2026-03-01T22:55:28.307951+05:30
Madurai,Tamil Nadu,9.9252,78.1198,25.1,73,0.0,995.4,9.0,25.9,143,40.7,39.3,7,5,7,1,2026-03-01T22:55:28.307961+05:30
Trichy,Tamil Nadu,10.7905,78.7047,25.2,81,0.0,1001.9,8.9,27.7,142,44.8,43.1,7,5,4,1,2026-03-01T22:55:28.307970+05:30
Salem,Tamil Nadu,11.6643,78.146,27.3,62,0.0,978.8,8.95,25.9,146,44.8,43.7,7,5,7,1,2026-03-01T22:55:28.307978+05:30
Tirunelveli,Tamil Nadu,8.7139,77.7567,25.5,81,0.0,1005.3,9.05,39.2,131,49.1,47.5,7,5,4,1,2026-03-01T22:55:28.307986+05:30
Vellore,Tamil Nadu,12.9165,79.1325,24.5,72,0.0,986.9,8.8,37.4,153,54.2,52.5,3,5,7,1,2026-03-01T22:55:28.307993+05:30
Erode,Tamil Nadu,11.341,77.7172,27.6,60,0.0,990.5,8.95,25.2,136,39.5,38.4,4,5,7,1,2026-03-01T22:55:28.308000+05:30
Kochi,Kerala,9.9312,76.2673,27.9,80,0.0,1010.3,8.9,36.4,104,44.2,42.8,7,0,4,1,2026-03-01T22:55:28.308008+05:30
Thiruvananthapuram,Kerala,8.5241,76.9366,27.4,79,0.0,1009.8,8.95,24.1,128,23.8,20.7,7,0,4,1,2026-03-01T22:55:28.308015+05:30
Kozhikode,Kerala,11.2588,75.7804,28.7,73,0.0,1009.2,8.75,31.3,57,18.3,13.2,7,0,4,1,2026-03-01T22:55:28.308022+05:30
Thrissur,Kerala,10.5276,76.2144,26.9,84,0.0,1008.5,8.85,40.3,102,41.6,38.6,7,0,4,1,2026-03-01T22:55:28.308030+05:30
Kannur,Kerala,11.8745,75.3704,27.6,76,0.0,1008.9,8.75,38.2,51,18.5,14.7,7,0,4,1,2026-03-01T22:55:28.308037+05:30
Patna,Bihar,25.5941,85.1376,22.2,61,0.0,1002.3,7.0,28.8,136,89.4,65.0,3,5,4,0,2026-03-01T22:55:28.308044+05:30
Gaya,Bihar,24.7914,85.0002,22.8,56,0.0,995.9,7.1,19.1,119,101.0,65.4,0,5,7,0,2026-03-01T22:55:28.308050+05:30
Muzaffarpur,Bihar,26.1209,85.3647,20.1,58,0.0,1002.1,6.95,31.0,128,79.9,55.9,0,5,4,0,2026-03-01T22:55:28.308057+05:30
Bhagalpur,Bihar,25.2425,87.0117,22.5,61,0.0,1002.7,7.05,22.3,117,102.4,62.6,3,5,4,0,2026-03-01T22:55:28.308063+05:30
Ranchi,Jharkhand,23.3441,85.3096,22.1,46,0.0,939.2,7.75,24.5,100,36.1,33.6,0,5,7,0,2026-03-01T22:55:28.308070+05:30
Jamshedpur,Jharkhand,22.8046,86.2029,25.3,59,0.0,991.8,7.7,10.8,154,76.4,73.3,4,5,7,1,2026-03-01T22:55:28.308076+05:30
Dhanbad,Jharkhand,23.7957,86.4304,25.5,37,0.0,981.3,7.55,24.1,155,78.2,64.3,4,5,7,0,2026-03-01T22:55:28.308082+05:30
Bokaro,Jharkhand,23.6693,86.1511,24.2,44,0.0,985.7,7.55,22.0,155,80.8,71.2,0,5,7,0,2026-03-01T22:55:28.308088+05:30
Bhubaneswar,Odisha,20.2961,85.8245,24.9,88,0.0,1004.2,8.05,27.0,116,51.2,49.5,3,5,4,1,2026-03-01T22:55:28.308095+05:30
Cuttack,Odisha,20.4625,85.8828,24.8,89,0.0,1006.0,8.05,27.0,116,51.2,49.5,3,5,4,1,2026-03-01T22:55:28.308101+05:30
Rourkela,Odisha,22.2604,84.8536,23.9,69,0.0,985.4,7.6,18.0,152,82.7,81.5,3,5,7,1,2026-03-01T22:55:28.308107+05:30
Raipur,Chhattisgarh,21.2514,81.6296,25.5,47,0.0,975.6,7.75,27.4,153,53.2,52.9,4,5,7,0,2026-03-01T22:55:28.308114+05:30
Bhilai,Chhattisgarh,21.1938,81.3509,24.6,53,0.0,975.8,7.75,28.1,152,29.9,29.7,0,5,7,0,2026-03-01T22:55:28.308120+05:30
Guwahati,Assam,26.1158,91.7086,21.7,79,0.0,1004.1,7.0,32.0,159,77.5,66.8,3,5,4,1,2026-03-01T22:55:28.308126+05:30
Agartala,Tripura,23.8315,91.2868,21.8,86,0.0,1007.9,7.35,27.4,114,37.3,34.3,3,5,4,1,2026-03-01T22:55:28.308133+05:30
Shillong,Meghalaya,25.5788,91.8933,9.3,85,0.0,854.2,6.8,56.9,136,62.6,47.8,3,10,7,0,2026-03-01T22:55:28.308140+05:30
Imphal,Manipur,24.817,93.9368,13.6,77,0.0,923.5,7.55,49.3,153,94.8,78.2,3,5,7,0,2026-03-01T22:55:28.308147+05:30
Aizawl,Mizoram,23.7271,92.7176,16.6,67,0.0,893.3,7.55,40.3,129,68.9,54.0,3,5,7,0,2026-03-01T22:55:28.308153+05:30
Kohima,Nagaland,25.6701,94.1077,11.8,70,0.0,853.8,7.4,70.9,154,94.3,78.5,3,5,7,0,2026-03-01T22:55:28.308160+05:30
Gangtok,Sikkim,27.3314,88.6138,10.4,80,0.0,835.2,5.3,12.6,128,76.4,59.5,3,5,3,0,2026-03-01T22:55:28.308166+05:30
Siliguri,West Bengal,26.7271,88.3953,18.8,69,0.0,995.5,7.0,30.2,173,134.1,102.9,3,5,7,0,2026-03-01T22:55:31.573035+05:30
Durgapur,West Bengal,23.5204,87.3119,26.2,44,0.0,996.6,7.55,26.3,150,60.3,47.8,4,5,7,0,2026-03-01T22:55:31.573066+05:30
Asansol,West Bengal,23.6739,86.9524,26.9,43,0.0,995.3,7.5,22.7,131,55.2,40.7,4,5,7,0,2026-03-01T22:55:31.573076+05:30
Pondicherry,Puducherry,11.9139,79.8145,24.0,86,0.0,1010.8,8.8,28.1,130,44.8,40.7,3,0,4,1,2026-03-01T22:55:31.573084+05:30
Port Blair,Andaman and Nicobar Islands,11.6234,92.7265,27.5,69,0.0,1007.9,8.75,25.6,71,27.0,23.3,7,5,4,1,2026-03-01T22:55:31.573091+05:30
Haridwar,Uttarakhand,29.9457,78.1642,16.1,75,0.0,976.1,5.4,37.1,103,45.1,38.8,3,5,3,0,2026-03-01T22:55:31.573099+05:30
Rishikesh,Uttarakhand,30.0869,78.2676,15.3,70,0.0,968.7,5.5,34.9,94,36.6,31.9,3,5,3,0,2026-03-01T22:55:31.573106+05:30
Nainital,Uttarakhand,29.3919,79.4542,14.0,48,0.0,804.9,6.3,40.0,104,32.9,24.8,0,5,7,0,2026-03-01T22:55:31.573114+05:30
Mussoorie,Uttarakhand,30.4599,78.0664,12.4,53,0.0,801.2,5.85,39.6,85,47.8,44.0,0,5,3,0,2026-03-01T22:55:31.573121+05:30
Dharamshala,Himachal Pradesh,32.219,76.3234,16.3,52,0.0,869.8,6.05,27.4,97,37.4,28.0,0,5,7,0,2026-03-01T22:55:31.573129+05:30
Dalhousie,Himachal Pradesh,32.5387,75.971,12.9,53,0.0,803.3,6.25,30.2,92,65.7,58.8,0,5,7,0,2026-03-01T22:55:31.573137+05:30
Patiala,Punjab,30.3398,76.3869,17.1,71,0.0,981.0,5.5,28.4,155,282.2,83.8,3,5,3,0,2026-03-01T22:55:31.573144+05:30
Bhatinda,Punjab,30.211,74.9455,21.1,60,0.0,986.7,6.2,21.2,154,111.1,86.1,0,5,7,0,2026-03-01T22:55:31.573151+05:30
Rohtak,Haryana,28.8955,76.6066,18.6,71,0.0,984.8,5.7,30.6,163,401.4,89.2,3,5,3,0,2026-03-01T22:55:31.573157+05:30
Panipat,Haryana,29.3909,76.9635,17.2,71,0.0,983.1,5.5,29.9,363,750.6,123.9,3,5,3,0,2026-03-01T22:55:31.573163+05:30
Mathura,Uttar Pradesh,27.4924,77.6737,20.7,44,0.0,989.8,5.95,25.6,249,351.1,75.9,0,5,3,0,2026-03-01T22:55:31.573170+05:30
Vrindavan,Uttar Pradesh,27.5823,77.7027,18.2,60,0.0,990.3,5.95,28.4,249,351.1,75.9,0,5,3,0,2026-03-01T22:55:31.573176+05:30
Ayodhya,Uttar Pradesh,26.7922,82.1998,18.5,51,0.0,997.7,6.35,36.4,109,86.4,35.7,0,5,7,0,2026-03-01T22:55:31.573182+05:30
Ratlam,Madhya Pradesh,23.3315,75.0367,23.9,55,0.0,957.0,7.2,27.7,79,51.6,45.2,0,5,7,0,2026-03-01T22:55:31.573188+05:30
Sagar,Madhya Pradesh,23.8388,78.7378,23.9,43,0.0,952.5,7.15,20.2,77,35.2,23.1,0,5,7,0,2026-03-01T22:55:31.573194+05:30
Satna,Madhya Pradesh,24.6005,80.8322,21.4,46,0.0,974.0,7.1,31.7,90,40.7,23.6,0,5,7,0,2026-03-01T22:55:31.573200+05:30
Akola,Maharashtra,20.7002,77.0082,24.7,58,0.0,976.7,7.7,28.4,90,31.2,30.3,0,5,7,0,2026-03-01T22:55:31.573207+05:30
Amravati,Maharashtra,20.9374,77.7796,23.6,55,0.0,968.9,7.65,27.4,89,26.9,26.1,0,5,7,0,2026-03-01T22:55:31.573214+05:30
Latur,Maharashtra,18.4088,76.5604,24.9,65,0.0,940.7,8.15,25.6,104,28.2,27.9,3,5,7,1,2026-03-01T22:55:31.573220+05:30
Nanded,Maharashtra,19.1383,77.3091,26.4,57,0.0,969.6,7.9,15.5,87,26.2,25.8,4,5,7,1,2026-03-01T22:55:31.573227+05:30
Gulbarga,Karnataka,17.3297,76.8343,28.8,50,0.0,959.7,8.25,17.6,130,43.4,43.1,4,5,7,1,2026-03-01T22:55:31.573233+05:30
Bidar,Karnataka,17.9104,77.5199,25.9,58,0.0,936.4,8.2,20.5,105,46.9,46.7,4,5,7,1,2026-03-01T22:55:31.573239+05:30
Hospet,Karnataka,15.2689,76.3909,29.6,42,0.0,956.4,8.55,24.5,152,50.3,49.6,4,5,7,0,2026-03-01T22:55:31.573245+05:30
Tirupur,Tamil Nadu,11.1085,77.3411,26.6,65,0.0,977.1,9.05,20.2,152,54.2,53.3,7,5,7,1,2026-03-01T22:55:31.573252+05:30
Alappuzha,Kerala,9.4981,76.3388,27.6,81,0.0,1010.6,8.9,34.9,91,35.7,32.5,7,0,4,1,2026-03-01T22:55:31.573258+05:30
Munnar,Kerala,10.0889,77.0595,20.5,80,0.0,857.8,9.35,25.2,132,56.3,55.4,3,5,7,1,2026-03-01T22:55:31.573265+05:30
Silchar,Assam,24.8333,92.7789,21.4,71,0.0,1006.7,7.3,20.5,157,104.1,82.0,3,5,4,0,2026-03-01T22:55:31.573272+05:30
Dibrugarh,Assam,27.4728,94.912,19.7,84,0.0,999.0,7.0,13.7,158,81.5,74.3,3,10,7,1,2026-03-01T22:55:31.573279+05:30
