city,state,latitude,longitude,temp,humidity,rain,pressure,uv_index,wind_gusts,aqi,pm10,pm2_5,mosquito_risk,arthritis_risk,migraine_risk,frizz_risk,updated_at
Delhi,Delhi,28.6139,77.209,28.2,51,0.0,982.7,6.8,29.2,173,198.8,70.1,4,5,7,1,2026-04-17T23:22:13.912639+05:30
Mumbai,Maharashtra,19.076,72.8777,30.0,77,0.0,1008.0,7.05,22.3,96,76.1,25.3,7,0,4,1,2026-04-17T23:22:13.912686+05:30
Bangalore,Karnataka,12.9716,77.5946,26.7,60,0.0,912.6,9.2,34.9,104,30.9,28.5,4,5,7,1,2026-04-17T23:22:13.912700+05:30
Hyderabad,Telangana,17.385,78.4867,29.5,61,0.0,953.8,9.2,40.0,126,39.6,36.8,7,5,7,1,2026-04-17T23:22:13.912710+05:30
Chennai,Tamil Nadu,13.0827,80.2707,28.7,83,0.0,1008.0,8.95,33.1,35,11.9,8.2,7,0,4,1,2026-04-17T23:22:13.912718+05:30
Kolkata,West Bengal,22.5726,88.3639,27.3,93,0.0,1006.3,8.85,19.8,63,16.5,14.1,7,5,4,1,2026-04-17T23:22:13.912740+05:30
Pune,Maharashtra,18.5204,73.8567,27.3,70,0.0,948.8,7.85,42.1,159,45.5,32.9,7,5,7,1,2026-04-17T23:22:13.912747+05:30
Ahmedabad,Gujarat,23.0225,72.5714,30.8,35,0.0,1001.6,7.55,21.6,64,78.2,57.7,0,5,4,0,2026-04-17T23:22:13.912754+05:30
Jaipur,Rajasthan,26.9124,75.7873,30.4,36,0.0,959.7,7.55,28.4,84,115.0,47.3,0,5,7,0,2026-04-17T23:22:13.912761+05:30
Lucknow,Uttar Pradesh,26.8467,80.9462,28.8,43,0.0,992.5,7.35,19.4,116,130.9,47.6,4,5,7,0,2026-04-17T23:22:13.912767+05:30
Kanpur,Uttar Pradesh,26.4499,80.3319,27.3,54,0.0,990.3,7.85,15.8,111,197.0,44.0,4,5,7,1,2026-04-17T23:22:13.912773+05:30
Chandigarh,Chandigarh,30.7333,76.7794,23.6,56,0.0,969.4,7.2,34.2,76,26.0,18.1,0,5,7,0,2026-04-17T23:22:13.912780+05:30
Srinagar,Jammu and Kashmir,34.0837,74.7973,10.4,92,0.0,844.8,5.75,25.6,72,53.7,51.2,3,10,3,0,2026-04-17T23:22:13.912786+05:30
Jammu,Jammu and Kashmir,32.7266,74.857,23.6,52,0.0,974.4,4.95,47.9,63,40.3,29.3,0,5,3,0,2026-04-17T23:22:13.912793+05:30
Amritsar,Punjab,31.634,74.8723,23.5,54,0.0,982.0,7.25,32.0,78,32.5,21.7,0,5,7,0,2026-04-17T23:22:13.912799+05:30
Ludhiana,Punjab,30.901,75.8573,24.8,46,0.0,979.9,7.4,38.5,81,34.6,20.6,0,5,7,0,2026-04-17T23:22:13.912806+05:30
Jalandhar,Punjab,31.326,75.5762,23.4,47,0.0,981.4,6.85,38.2,75,50.5,19.3,0,5,7,0,2026-04-17T23:22:13.912812+05:30
Dehradun,Uttarakhand,30.6284,78.0322,17.9,47,0.0,833.4,6.8,33.5,62,27.1,12.3,0,5,7,0,2026-04-17T23:22:13.912817+05:30
Shimla,Himachal Pradesh,31.1048,77.1734,14.6,58,0.0,787.1,6.95,36.7,67,27.4,14.6,0,5,7,0,2026-04-17T23:22:13.912823+05:30
Manali,Himachal Pradesh,32.2396,77.1887,14.9,75,0.0,823.2,9.45,32.8,84,7.0,5.3,3,5,7,0,2026-04-17T23:22:13.912828+05:30
Gurgaon,Haryana,28.4595,77.0266,26.0,60,0.0,981.1,6.75,25.6,393,724.6,122.0,4,5,7,1,2026-04-17T23:22:13.912834+05:30
Noida,Uttar Pradesh,28.5355,77.391,27.6,54,0.0,984.2,6.8,23.0,393,724.6,122.0,4,5,7,1,2026-04-17T23:22:13.912840+05:30
Ghaziabad,Uttar Pradesh,28.6692,77.4538,26.3,60,0.0,982.3,6.65,27.4,164,97.3,54.9,4,5,7,1,2026-04-17T23:22:13.912846+05:30
Faridabad,Haryana,28.4089,77.3178,27.4,52,0.0,983.5,6.7,34.2,393,724.6,122.0,4,5,7,1,2026-04-17T23:22:13.912852+05:30
Meerut,Uttar Pradesh,28.9845,77.7064,25.8,58,0.0,981.1,6.4,16.2,164,97.3,54.9,4,5,7,1,2026-04-17T23:22:13.912858+05:30
Agra,Uttar Pradesh,27.1767,78.0081,28.1,44,0.0,987.0,6.4,17.6,221,1110.1,131.3,4,5,7,0,2026-04-17T23:22:13.912865+05:30
Varanasi,Uttar Pradesh,25.3176,82.9739,28.0,50,0.0,996.5,8.45,23.8,129,78.2,49.4,4,5,7,1,2026-04-17T23:22:13.912871+05:30
Prayagraj,Uttar Pradesh,25.4358,81.8463,28.5,51,0.0,995.1,8.3,24.1,119,46.6,31.7,4,5,7,1,2026-04-17T23:22:13.912876+05:30
Gorakhpur,Uttar Pradesh,26.7606,83.3732,27.4,70,0.0,997.0,7.7,27.0,152,95.9,78.5,7,5,7,1,2026-04-17T23:22:13.912881+05:30
Bareilly,Uttar Pradesh,28.367,79.4304,24.9,67,0.0,986.2,6.85,22.7,147,63.6,30.5,3,5,7,1,2026-04-17T23:22:13.912888+05:30
Aligarh,Uttar Pradesh,27.8974,78.088,26.0,49,0.0,984.9,6.5,34.9,145,408.9,65.2,4,5,7,0,2026-04-17T23:22:13.912894+05:30
Moradabad,Uttar Pradesh,28.8386,78.7733,25.5,58,0.0,983.2,5.9,17.6,116,66.8,38.4,4,5,3,1,2026-04-17T23:22:13.912899+05:30
Saharanpur,Uttar Pradesh,29.9637,77.546,23.3,64,0.0,975.7,6.1,26.6,80,50.5,26.9,3,5,7,1,2026-04-17T23:22:13.912904+05:30
Jhansi,Uttar Pradesh,25.4484,78.5685,29.6,46,0.0,977.5,7.85,20.9,107,85.9,26.1,4,5,7,1,2026-04-17T23:22:17.191258+05:30
Surat,Gujarat,21.1702,72.8311,27.9,82,0.0,1006.4,7.6,23.4,110,65.4,36.6,7,5,4,1,2026-04-17T23:22:17.191287+05:30
Vadodara,Gujarat,22.3072,73.1812,28.1,43,0.0,1003.8,7.8,22.7,78,71.0,51.3,4,5,4,0,2026-04-17T23:22:17.191297+05:30
Rajkot,Gujarat,22.3039,70.8022,26.7,52,0.0,994.8,7.85,29.9,67,49.6,18.3,4,5,7,0,2026-04-17T23:22:17.191305+05:30
Thane,Maharashtra,19.2183,72.9781,28.2,83,0.0,1007.5,7.1,32.8,96,76.1,25.3,7,5,4,1,2026-04-17T23:22:17.191313+05:30
Nagpur,Maharashtra,21.1458,79.0882,30.6,50,0.0,971.6,8.25,22.3,157,42.7,34.0,0,5,7,1,2026-04-17T23:22:17.191321+05:30
Nashik,Maharashtra,19.9975,73.7898,27.3,54,0.0,946.3,7.35,33.5,78,44.8,25.3,4,5,7,1,2026-04-17T23:22:17.191328+05:30
Aurangabad,Maharashtra,19.8762,75.3433,31.0,30,0.0,944.4,8.1,34.6,91,19.7,14.0,0,5,7,0,2026-04-17T23:22:17.191335+05:30
Solapur,Maharashtra,17.6599,75.9064,29.8,54,0.0,956.7,8.5,22.0,153,40.5,36.8,4,5,7,1,2026-04-17T23:22:17.191343+05:30
Kolhapur,Maharashtra,16.705,74.2433,23.5,85,0.0,947.8,8.2,40.7,97,30.9,22.8,3,5,7,1,2026-04-17T23:22:17.191350+05:30
Goa,Goa,15.2993,74.124,28.4,76,0.0,997.6,8.6,33.1,69,42.6,22.8,7,5,7,1,2026-04-17T23:22:17.191358+05:30
Jodhpur,Rajasthan,26.2389,73.0243,28.9,35,0.0,982.2,8.15,32.8,94,168.1,27.8,4,5,7,0,2026-04-17T23:22:17.191365+05:30
Udaipur,Rajasthan,24.5854,73.7125,27.5,25,0.0,947.2,7.85,28.8,52,25.6,11.3,4,5,7,0,2026-04-17T23:22:17.191372+05:30
Kota,Rajasthan,25.2138,75.8648,30.9,36,0.0,978.2,7.15,27.0,74,63.3,40.5,0,5,7,0,2026-04-17T23:22:17.191379+05:30
Bikaner,Rajasthan,28.0229,73.3119,31.4,19,0.0,979.9,8.0,27.4,69,24.2,11.3,0,5,7,0,2026-04-17T23:22:17.191386+05:30
Ajmer,Rajasthan,26.4499,74.6399,29.3,34,0.0,954.5,7.8,31.7,66,38.3,18.0,4,5,7,0,2026-04-17T23:22:17.191393+05:30
Gwalior,Madhya Pradesh,26.2183,78.1828,30.3,47,0.0,982.9,7.15,25.2,91,117.1,41.7,0,5,7,1,2026-04-17T23:22:17.191400+05:30
Indore,Madhya Pradesh,22.7196,75.8577,26.6,52,0.0,948.3,7.75,27.0,92,33.1,28.4,4,5,7,0,2026-04-17T23:22:17.191406+05:30
Bhopal,Madhya Pradesh,23.2599,77.4126,30.1,36,0.0,953.6,7.8,29.2,85,36.2,27.5,0,5,7,0,2026-04-17T23:22:17.191413+05:30
Jabalpur,Madhya Pradesh,23.1815,79.9864,30.1,52,0.0,960.4,8.65,24.5,97,66.1,33.1,0,5,7,1,2026-04-17T23:22:17.191421+05:30
Ujjain,Madhya Pradesh,23.1765,75.7885,26.9,51,0.0,954.1,7.85,27.7,80,21.8,18.0,4,5,7,0,2026-04-17T23:22:17.191428+05:30
Visakhapatnam,Andhra Pradesh,17.6868,83.2185,28.3,87,0.0,1004.2,9.2,37.1,49,15.6,11.6,7,5,4,1,2026-04-17T23:22:17.191435+05:30
Vijayawada,Andhra Pradesh,16.5062,80.648,27.6,89,0.0,1002.8,9.15,23.4,50,11.6,9.6,7,5,4,1,2026-04-17T23:22:17.191441+05:30
Guntur,Andhra Pradesh,16.3067,80.4365,27.8,88,0.0,1004.0,9.2,26.6,53,13.1,11.0,7,5,4,1,2026-04-17T23:22:17.191448+05:30
Nellore,Andhra Pradesh,14.4426,79.9865,28.0,86,0.0,1006.1,9.3,33.8,52,10.4,7.9,7,5,4,1,2026-04-17T23:22:17.191456+05:30
Kurnool,Andhra Pradesh,15.8281,78.0373,34.0,39,0.0,976.4,9.2,25.9,104,31.1,28.6,0,5,7,1,2026-04-17T23:22:17.191464+05:30
Kakinada,Andhra Pradesh,16.9891,82.2475,28.2,87,0.0,1008.0,9.2,30.6,32,11.4,7.5,7,0,4,1,2026-04-17T23:22:17.191471+05:30
Tirupati,Andhra Pradesh,13.6288,79.4192,28.3,81,0.0,992.9,9.25,31.7,82,16.3,14.6,7,5,7,1,2026-04-17T23:22:17.191478+05:30
Warangal,Telangana,17.9689,79.5941,31.1,65,0.0,977.8,9.1,26.6,106,32.7,30.6,3,5,7,1,2026-04-17T23:22:17.191484+05:30
Nizamabad,Telangana,18.6725,78.0941,31.8,44,0.0,964.5,9.05,24.1,100,62.2,56.7,0,5,7,1,2026-04-17T23:22:17.191491+05:30
Mysore,Karnataka,12.2958,76.6396,25.4,86,0.0,929.2,9.3,38.9,105,26.3,23.9,7,5,7,1,2026-04-17T23:22:17.191498+05:30
Mangalore,Karnataka,12.9141,74.856,30.1,84,0.0,1006.6,9.15,25.2,79,28.1,17.6,3,5,4,1,2026-04-17T23:22:17.191505+05:30
Hubli-Dharwad,Karnataka,15.3647,75.124,25.9,77,0.0,940.8,9.15,30.2,101,27.6,24.2,7,5,7,1,2026-04-17T23:22:17.191513+05:30
Belgaum,Karnataka,15.8497,74.4977,23.6,90,0.0,925.6,8.95,39.2,93,31.7,21.0,3,5,7,1,2026-04-17T23:22:20.466375+05:30
Coimbatore,Tamil Nadu,11.0168,76.9558,26.4,83,0.0,962.7,9.05,38.2,114,42.3,38.8,7,5,7,1,2026-04-17T23:22:20.466404+05:30
Madurai,Tamil Nadu,9.9252,78.1198,29.2,75,0.0,994.2,9.35,26.6,82,23.2,21.8,7,5,7,1,2026-04-17T23:22:20.466411+05:30
Trichy,Tamil Nadu,10.7905,78.7047,28.4,85,0.0,1000.6,9.25,20.2,76,19.7,18.9,7,5,4,1,2026-04-17T23:22:20.466418+05:30
Salem,Tamil Nadu,11.6643,78.146,29.1,70,0.0,977.7,9.05,24.1,93,35.9,32.6,7,5,7,1,2026-04-17T23:22:20.466424+05:30
Tirunelveli,Tamil Nadu,8.7139,77.7567,28.9,74,0.0,1004.1,8.8,43.2,92,31.5,28.3,7,5,4,1,2026-04-17T23:22:20.466430+05:30
Vellore,Tamil Nadu,12.9165,79.1325,27.7,83,0.0,985.7,8.8,27.7,94,32.4,30.9,7,5,7,1,2026-04-17T23:22:20.466437+05:30
Erode,Tamil Nadu,11.341,77.7172,30.6,63,0.0,989.4,9.3,28.8,95,24.5,22.2,3,5,7,1,2026-04-17T23:22:20.466443+05:30
Kochi,Kerala,9.9312,76.2673,28.6,85,0.0,1009.4,8.9,29.9,100,48.5,39.6,7,0,4,1,2026-04-17T23:22:20.466449+05:30
Thiruvananthapuram,Kerala,8.5241,76.9366,29.1,83,0.0,1008.7,8.85,28.4,87,29.5,20.8,7,0,4,1,2026-04-17T23:22:20.466455+05:30
Kozhikode,Kerala,11.2588,75.7804,29.8,84,0.0,1008.0,8.85,32.8,98,48.8,27.2,7,0,4,1,2026-04-17T23:22:20.466461+05:30
Thrissur,Kerala,10.5276,76.2144,29.2,87,0.0,1007.3,8.6,41.8,99,44.0,29.9,7,5,4,1,2026-04-17T23:22:20.466467+05:30
Kannur,Kerala,11.8745,75.3704,30.0,82,0.0,1007.3,8.2,30.6,97,33.8,23.2,7,5,4,1,2026-04-17T23:22:20.466472+05:30
Patna,Bihar,25.5941,85.1376,29.2,74,0.0,1000.4,8.25,25.2,151,71.9,58.7,7,5,4,1,2026-04-17T23:22:20.466478+05:30
Gaya,Bihar,24.7914,85.0002,28.5,76,0.0,993.5,8.45,15.5,141,65.4,53.2,7,5,7,1,2026-04-17T23:22:20.466483+05:30
Muzaffarpur,Bihar,26.1209,85.3647,27.6,78,0.0,1000.5,8.45,24.8,153,74.0,60.5,7,5,4,1,2026-04-17T23:22:20.466489+05:30
Bhagalpur,Bihar,25.2425,87.0117,27.3,81,0.0,1001.5,8.55,21.6,153,63.6,55.5,7,5,4,1,2026-04-17T23:22:20.466494+05:30
Ranchi,Jharkhand,23.3441,85.3096,25.5,85,0.0,938.2,9.15,38.5,104,44.4,24.3,7,5,7,1,2026-04-17T23:22:20.466500+05:30
Jamshedpur,Jharkhand,22.8046,86.2029,28.2,84,0.0,990.9,9.0,25.9,111,27.8,25.6,7,5,7,1,2026-04-17T23:22:20.466505+05:30
Dhanbad,Jharkhand,23.7957,86.4304,28.2,75,0.0,980.1,8.9,27.7,150,68.9,63.6,7,5,7,1,2026-04-17T23:22:20.466510+05:30
Bokaro,Jharkhand,23.6693,86.1511,28.0,83,0.0,984.1,8.9,24.1,154,89.9,66.6,7,5,7,1,2026-04-17T23:22:20.466516+05:30
Bhubaneswar,Odisha,20.2961,85.8245,27.4,91,0.0,1002.8,9.1,25.9,53,14.7,11.4,7,5,4,1,2026-04-17T23:22:20.466522+05:30
Cuttack,Odisha,20.4625,85.8828,27.6,90,0.0,1004.7,9.15,24.5,53,14.7,11.4,7,5,4,1,2026-04-17T23:22:20.466528+05:30
Rourkela,Odisha,22.2604,84.8536,29.9,69,0.0,984.6,8.9,42.5,142,73.1,51.8,7,5,7,1,2026-04-17T23:22:20.466533+05:30
Raipur,Chhattisgarh,21.2514,81.6296,31.2,48,0.0,972.8,8.95,39.6,180,64.3,49.7,0,5,7,1,2026-04-17T23:22:20.466539+05:30
Bhilai,Chhattisgarh,21.1938,81.3509,30.5,54,0.0,973.0,8.95,42.5,137,76.6,61.9,0,5,7,1,2026-04-17T23:22:20.466544+05:30
Guwahati,Assam,26.1158,91.7086,25.8,81,0.0,1002.6,8.55,22.3,151,72.2,63.3,7,5,4,1,2026-04-17T23:22:20.466549+05:30
Agartala,Tripura,23.8315,91.2868,25.3,88,0.0,1007.0,8.75,21.2,122,68.9,63.3,7,5,4,1,2026-04-17T23:22:20.466554+05:30
Shillong,Meghalaya,25.5788,91.8933,14.0,93,0.0,856.8,6.65,28.1,125,59.4,51.0,3,10,7,0,2026-04-17T23:22:20.466561+05:30
Imphal,Manipur,24.817,93.9368,19.5,88,0.0,924.6,9.1,40.3,152,104.5,84.1,3,10,7,1,2026-04-17T23:22:20.466566+05:30
Aizawl,Mizoram,23.7271,92.7176,20.3,87,0.0,894.0,9.0,36.0,154,37.3,29.7,3,5,7,1,2026-04-17T23:22:20.466572+05:30
Kohima,Nagaland,25.6701,94.1077,16.5,89,0.0,856.5,8.4,52.2,121,79.2,52.2,3,10,7,0,2026-04-17T23:22:20.466577+05:30
Gangtok,Sikkim,27.3314,88.6138,16.4,92,0.0,839.3,8.85,19.8,123,61.0,45.3,3,10,7,0,2026-04-17T23:22:20.466583+05:30
Siliguri,West Bengal,26.7271,88.3953,22.3,73,0.0,995.8,8.5,18.4,160,122.0,83.4,3,5,7,1,2026-04-17T23:22:23.741485+05:30
Durgapur,West Bengal,23.5204,87.3119,27.6,82,0.0,995.2,8.85,19.8,122,52.9,49.9,7,5,7,1,2026-04-17T23:22:23.741514+05:30
Asansol,West Bengal,23.6739,86.9524,28.4,79,0.0,993.8,8.9,18.7,128,52.5,48.5,7,5,7,1,2026-04-17T23:22:23.741523+05:30
Pondicherry,Puducherry,11.9139,79.8145,27.4,92,0.0,1009.3,8.6,27.4,32,11.7,7.7,7,0,4,1,2026-04-17T23:22:23.741531+05:30
Port Blair,Andaman and Nicobar Islands,11.6234,92.7265,29.8,70,0.0,1007.5,9.2,20.9,47,12.2,8.5,7,5,4,1,2026-04-17T23:22:23.741539+05:30
Haridwar,Uttarakhand,29.9457,78.1642,22.9,68,0.0,974.6,5.95,24.8,78,37.4,22.1,3,5,3,1,2026-04-17T23:22:23.741547+05:30
Rishikesh,Uttarakhand,30.0869,78.2676,22.4,61,0.0,967.8,6.05,24.8,82,39.8,15.7,3,5,7,0,2026-04-17T23:22:23.741554+05:30
Nainital,Uttarakhand,29.3919,79.4542,23.4,28,0.0,809.3,7.65,56.2,107,38.5,15.4,0,5,7,0,2026-04-17T23:22:23.741562+05:30
Mussoorie,Uttarakhand,30.4599,78.0664,19.4,40,0.0,805.7,6.65,43.6,78,38.9,18.5,0,5,7,0,2026-04-17T23:22:23.741569+05:30
Dharamshala,Himachal Pradesh,32.219,76.3234,21.5,40,0.0,871.8,6.9,36.7,49,18.1,12.0,0,5,7,0,2026-04-17T23:22:23.741576+05:30
Dalhousie,Himachal Pradesh,32.5387,75.971,17.6,43,0.0,805.9,5.15,34.2,55,33.5,27.0,0,5,3,0,2026-04-17T23:22:23.741583+05:30
Patiala,Punjab,30.3398,76.3869,23.0,59,0.0,978.8,7.2,34.9,163,335.3,49.6,0,5,7,0,2026-04-17T23:22:23.741590+05:30
Bhatinda,Punjab,30.211,74.9455,26.5,42,0.0,984.1,7.8,43.6,108,180.7,38.6,4,5,7,0,2026-04-17T23:22:23.741597+05:30
Rohtak,Haryana,28.8955,76.6066,23.7,72,0.0,981.4,6.55,25.6,200,231.0,68.0,3,5,7,1,2026-04-17T23:22:23.741604+05:30
Panipat,Haryana,29.3909,76.9635,24.4,58,0.0,980.3,6.8,19.8,438,519.7,105.2,0,5,7,0,2026-04-17T23:22:23.741611+05:30
Mathura,Uttar Pradesh,27.4924,77.6737,26.4,52,0.0,986.3,6.75,23.8,187,1095.2,128.1,4,5,7,0,2026-04-17T23:22:23.741618+05:30
Vrindavan,Uttar Pradesh,27.5823,77.7027,26.3,51,0.0,986.7,6.6,29.5,187,1095.2,128.1,4,5,7,0,2026-04-17T23:22:23.741624+05:30
Ayodhya,Uttar Pradesh,26.7922,82.1998,26.9,67,0.0,994.7,7.05,27.4,141,56.7,37.7,7,5,7,1,2026-04-17T23:22:23.741631+05:30
Ratlam,Madhya Pradesh,23.3315,75.0367,27.7,47,0.0,954.8,7.5,28.1,83,15.4,11.0,4,5,7,0,2026-04-17T23:22:23.741638+05:30
Sagar,Madhya Pradesh,23.8388,78.7378,30.6,48,0.0,949.5,7.75,22.7,88,43.7,23.8,0,5,7,1,2026-04-17T23:22:23.741645+05:30
Satna,Madhya Pradesh,24.6005,80.8322,30.0,34,0.0,970.8,8.6,16.6,112,52.9,16.7,4,5,7,0,2026-04-17T23:22:23.741652+05:30
Akola,Maharashtra,20.7002,77.0082,30.8,41,0.0,974.1,8.05,26.3,113,18.7,17.6,0,5,7,0,2026-04-17T23:22:23.741659+05:30
Amravati,Maharashtra,20.9374,77.7796,30.1,42,0.0,966.3,8.15,17.3,105,19.4,18.3,0,5,7,0,2026-04-17T23:22:23.741667+05:30
Latur,Maharashtra,18.4088,76.5604,27.8,54,0.0,939.8,8.6,31.7,140,44.2,39.8,4,5,7,1,2026-04-17T23:22:23.741674+05:30
Nanded,Maharashtra,19.1383,77.3091,30.8,50,0.0,967.9,8.65,18.4,98,52.5,46.9,0,5,7,1,2026-04-17T23:22:23.741681+05:30
Gulbarga,Karnataka,17.3297,76.8343,30.4,52,0.0,959.0,8.65,39.2,147,38.2,35.2,0,5,7,1,2026-04-17T23:22:23.741688+05:30
Bidar,Karnataka,17.9104,77.5199,28.3,58,0.0,936.0,8.85,49.0,136,43.8,40.2,4,5,7,1,2026-04-17T23:22:23.741694+05:30
Hospet,Karnataka,15.2689,76.3909,30.1,63,0.0,955.0,9.25,22.7,152,53.6,49.2,3,5,7,1,2026-04-17T23:22:23.741701+05:30
Tirupur,Tamil Nadu,11.1085,77.3411,29.2,73,0.0,976.1,8.95,32.8,105,27.5,24.6,7,5,7,1,2026-04-17T23:22:23.741708+05:30
Alappuzha,Kerala,9.4981,76.3388,28.9,81,0.0,1009.6,8.25,26.6,101,52.7,40.9,7,0,4,1,2026-04-17T23:22:23.741715+05:30
Munnar,Kerala,10.0889,77.0595,22.4,86,0.0,858.0,9.05,28.4,82,42.7,38.9,3,5,7,1,2026-04-17T23:22:23.741738+05:30
Silchar,Assam,24.8333,92.7789,25.5,86,0.0,1006.2,8.75,19.4,156,106.2,85.4,7,5,4,1,2026-04-17T23:22:23.741746+05:30
Dibrugarh,Assam,27.4728,94.912,26.6,81,0.0,996.5,8.65,11.5,142,82.4,62.2,7,5,7,1,2026-04-17T23:22:23.741753+05:30
