city,state,latitude,longitude,temp,humidity,rain,pressure,uv_index,wind_gusts,aqi,pm10,pm2_5,mosquito_risk,arthritis_risk,migraine_risk,frizz_risk,updated_at
Delhi,Delhi,28.6139,77.209,38.0,22,0.0,980.5,6.65,19.8,191,323.2,48.3,0,5,10,0,2026-04-18T17:07:01.632208+05:30
Mumbai,Maharashtra,19.076,72.8777,30.2,73,0.0,1005.5,7.75,22.7,99,42.3,28.1,3,5,4,1,2026-04-18T17:07:01.632251+05:30
Bangalore,Karnataka,12.9716,77.5946,34.7,24,0.0,910.3,9.0,35.3,139,26.8,22.6,0,5,7,0,2026-04-18T17:07:01.632268+05:30
Hyderabad,Telangana,17.385,78.4867,36.6,30,0.0,950.9,9.25,38.5,137,38.2,29.7,0,5,10,1,2026-04-18T17:07:01.632278+05:30
Chennai,Tamil Nadu,13.0827,80.2707,32.5,58,0.0,1004.5,8.55,32.0,43,12.9,7.9,0,5,4,1,2026-04-18T17:07:01.632287+05:30
Kolkata,West Bengal,22.5726,88.3639,32.4,68,0.0,1003.0,8.85,24.1,75,39.3,32.4,3,5,4,1,2026-04-18T17:07:01.632300+05:30
Pune,Maharashtra,18.5204,73.8567,35.8,33,0.0,947.0,8.45,45.0,130,45.6,37.8,0,5,10,1,2026-04-18T17:07:01.632308+05:30
Ahmedabad,Gujarat,23.0225,72.5714,40.9,13,0.0,998.9,8.15,27.7,63,29.4,10.3,0,5,10,0,2026-04-18T17:07:01.632316+05:30
Jaipur,Rajasthan,26.9124,75.7873,39.9,14,0.0,957.8,7.95,28.1,210,224.4,29.2,0,5,10,0,2026-04-18T17:07:01.632325+05:30
Lucknow,Uttar Pradesh,26.8467,80.9462,39.4,21,0.0,989.7,7.85,32.0,118,161.1,31.1,0,5,10,0,2026-04-18T17:07:01.632333+05:30
Kanpur,Uttar Pradesh,26.4499,80.3319,37.8,29,0.0,988.5,7.85,27.0,127,358.6,46.4,0,5,10,1,2026-04-18T17:07:01.632341+05:30
Chandigarh,Chandigarh,30.7333,76.7794,35.8,25,0.0,967.5,7.1,29.2,93,49.2,14.4,0,5,10,0,2026-04-18T17:07:01.632349+05:30
Srinagar,Jammu and Kashmir,34.0837,74.7973,14.9,80,0.0,845.3,5.85,30.6,81,36.0,10.8,3,5,3,0,2026-04-18T17:07:01.632356+05:30
Jammu,Jammu and Kashmir,32.7266,74.857,32.8,27,0.0,973.5,7.0,42.5,75,71.5,18.6,0,5,7,0,2026-04-18T17:07:01.632364+05:30
Amritsar,Punjab,31.634,74.8723,33.6,28,0.0,980.9,7.9,43.2,74,53.3,15.0,0,5,7,0,2026-04-18T17:07:01.632372+05:30
Ludhiana,Punjab,30.901,75.8573,36.1,23,0.0,977.9,7.45,32.4,94,69.2,18.3,0,5,10,0,2026-04-18T17:07:01.632384+05:30
Jalandhar,Punjab,31.326,75.5762,36.1,22,0.0,979.1,7.65,42.1,92,74.5,18.6,0,5,10,0,2026-04-18T17:07:01.632390+05:30
Dehradun,Uttarakhand,30.6284,78.0322,25.3,35,0.0,833.1,7.55,46.1,71,31.3,9.4,4,5,7,0,2026-04-18T17:07:01.632398+05:30
Shimla,Himachal Pradesh,31.1048,77.1734,23.8,27,0.0,789.3,7.7,47.9,80,42.3,12.2,0,5,7,0,2026-04-18T17:07:01.632407+05:30
Manali,Himachal Pradesh,32.2396,77.1887,21.4,36,0.0,825.2,8.9,25.2,90,27.8,7.1,0,5,7,0,2026-04-18T17:07:01.632414+05:30
Gurgaon,Haryana,28.4595,77.0266,38.0,22,0.0,978.8,6.9,15.8,573,702.2,75.9,0,5,10,0,2026-04-18T17:07:01.632421+05:30
Noida,Uttar Pradesh,28.5355,77.391,38.2,22,0.0,982.1,6.95,22.0,573,702.2,75.9,0,5,10,0,2026-04-18T17:07:01.632427+05:30
Ghaziabad,Uttar Pradesh,28.6692,77.4538,37.8,24,0.0,980.3,6.65,19.4,160,286.8,51.7,0,5,10,0,2026-04-18T17:07:01.632434+05:30
Faridabad,Haryana,28.4089,77.3178,38.3,23,0.0,981.1,7.25,25.2,573,702.2,75.9,0,5,10,0,2026-04-18T17:07:01.632441+05:30
Meerut,Uttar Pradesh,28.9845,77.7064,37.8,23,0.0,979.0,6.75,20.9,160,286.8,51.7,0,5,10,0,2026-04-18T17:07:01.632447+05:30
Agra,Uttar Pradesh,27.1767,78.0081,40.1,21,0.0,984.7,7.7,16.9,697,437.7,45.5,0,5,10,0,2026-04-18T17:07:01.632456+05:30
Varanasi,Uttar Pradesh,25.3176,82.9739,40.5,18,0.0,993.1,8.25,25.6,161,78.5,25.1,0,5,10,0,2026-04-18T17:07:01.632463+05:30
Prayagraj,Uttar Pradesh,25.4358,81.8463,39.9,17,0.0,992.0,7.85,28.8,152,83.4,24.7,0,5,10,0,2026-04-18T17:07:01.632470+05:30
Gorakhpur,Uttar Pradesh,26.7606,83.3732,38.6,27,0.0,992.6,8.1,28.4,169,47.3,19.5,0,5,10,1,2026-04-18T17:07:01.632477+05:30
Bareilly,Uttar Pradesh,28.367,79.4304,38.9,20,0.0,983.6,7.6,31.0,129,56.1,20.2,0,5,10,0,2026-04-18T17:07:01.632485+05:30
Aligarh,Uttar Pradesh,27.8974,78.088,40.4,17,0.0,982.5,7.35,25.6,296,441.4,52.9,0,5,10,0,2026-04-18T17:07:01.632494+05:30
Moradabad,Uttar Pradesh,28.8386,78.7733,38.1,21,0.0,980.8,7.4,28.8,135,108.3,30.0,0,5,10,0,2026-04-18T17:07:01.632501+05:30
Saharanpur,Uttar Pradesh,29.9637,77.546,36.0,27,0.0,973.7,7.0,23.4,116,107.6,25.4,0,5,10,0,2026-04-18T17:07:01.632507+05:30
Jhansi,Uttar Pradesh,25.4484,78.5685,40.6,15,0.0,974.7,7.85,27.0,137,85.4,23.4,0,5,10,0,2026-04-18T17:07:04.853509+05:30
Surat,Gujarat,21.1702,72.8311,33.5,46,0.0,1004.2,7.8,27.0,115,54.0,35.9,0,5,4,1,2026-04-18T17:07:04.853541+05:30
Vadodara,Gujarat,22.3072,73.1812,41.8,16,0.0,1000.5,8.15,19.4,96,31.9,15.4,0,5,7,0,2026-04-18T17:07:04.853551+05:30
Rajkot,Gujarat,22.3039,70.8022,38.7,17,0.0,992.1,7.8,28.1,57,46.7,15.2,0,5,10,0,2026-04-18T17:07:04.853559+05:30
Thane,Maharashtra,19.2183,72.9781,31.6,60,0.0,1005.0,7.85,33.5,99,42.3,28.1,0,5,4,1,2026-04-18T17:07:04.853566+05:30
Nagpur,Maharashtra,21.1458,79.0882,40.5,18,0.0,969.2,7.6,21.6,158,35.0,29.3,0,5,10,0,2026-04-18T17:07:04.853574+05:30
Nashik,Maharashtra,19.9975,73.7898,35.5,24,0.0,944.5,8.05,29.9,98,26.5,17.2,0,5,10,0,2026-04-18T17:07:04.853581+05:30
Aurangabad,Maharashtra,19.8762,75.3433,38.2,14,0.0,942.6,7.5,36.7,101,26.5,19.9,0,5,10,0,2026-04-18T17:07:04.853589+05:30
Solapur,Maharashtra,17.6599,75.9064,37.6,25,0.0,954.5,7.95,19.8,151,39.8,33.8,0,5,10,0,2026-04-18T17:07:04.853596+05:30
Kolhapur,Maharashtra,16.705,74.2433,32.2,60,0.0,946.2,8.65,44.6,155,43.0,35.4,0,5,7,1,2026-04-18T17:07:04.853603+05:30
Goa,Goa,15.2993,74.124,31.3,69,0.0,995.4,9.0,31.3,73,56.5,23.0,3,5,7,1,2026-04-18T17:07:04.853634+05:30
Jodhpur,Rajasthan,26.2389,73.0243,39.5,13,0.0,980.9,8.15,28.1,99,138.3,19.5,0,5,10,0,2026-04-18T17:07:04.853644+05:30
Udaipur,Rajasthan,24.5854,73.7125,37.1,18,0.0,945.7,8.75,29.5,76,64.5,14.3,0,5,10,0,2026-04-18T17:07:04.853651+05:30
Kota,Rajasthan,25.2138,75.8648,41.9,12,0.0,975.4,8.25,23.0,156,84.3,25.8,0,5,10,0,2026-04-18T17:07:04.853658+05:30
Bikaner,Rajasthan,28.0229,73.3119,40.0,15,0.0,979.4,7.8,29.9,76,65.4,16.9,0,5,10,0,2026-04-18T17:07:04.853665+05:30
Ajmer,Rajasthan,26.4499,74.6399,38.1,16,0.0,953.3,8.15,32.0,70,96.9,16.7,0,5,10,0,2026-04-18T17:07:04.853672+05:30
Gwalior,Madhya Pradesh,26.2183,78.1828,39.7,18,0.0,980.6,7.95,28.4,126,113.6,24.3,0,5,10,0,2026-04-18T17:07:04.853679+05:30
Indore,Madhya Pradesh,22.7196,75.8577,37.4,15,0.0,946.7,8.15,25.6,85,9.6,6.9,0,5,10,0,2026-04-18T17:07:04.853686+05:30
Bhopal,Madhya Pradesh,23.2599,77.4126,40.2,10,0.0,951.3,7.7,24.5,113,21.1,14.7,0,5,10,0,2026-04-18T17:07:04.853693+05:30
Jabalpur,Madhya Pradesh,23.1815,79.9864,37.8,27,0.0,958.6,7.45,24.5,149,27.6,17.5,0,5,10,0,2026-04-18T17:07:04.853700+05:30
Ujjain,Madhya Pradesh,23.1765,75.7885,38.0,15,0.0,952.3,8.5,24.1,74,9.4,6.7,0,5,10,0,2026-04-18T17:07:04.853707+05:30
Visakhapatnam,Andhra Pradesh,17.6868,83.2185,31.2,69,0.0,1001.5,9.15,34.2,61,27.9,18.9,3,5,4,1,2026-04-18T17:07:04.853714+05:30
Vijayawada,Andhra Pradesh,16.5062,80.648,36.4,41,0.0,999.4,8.8,26.3,57,28.0,19.3,0,5,10,1,2026-04-18T17:07:04.853721+05:30
Guntur,Andhra Pradesh,16.3067,80.4365,34.6,48,0.0,1000.9,8.9,29.5,61,32.4,22.8,0,5,4,1,2026-04-18T17:07:04.853728+05:30
Nellore,Andhra Pradesh,14.4426,79.9865,33.9,56,0.0,1002.3,8.7,32.8,56,23.3,17.5,0,5,4,1,2026-04-18T17:07:04.853735+05:30
Kurnool,Andhra Pradesh,15.8281,78.0373,41.7,16,0.0,972.4,9.2,33.8,127,34.3,28.1,0,5,10,0,2026-04-18T17:07:04.853743+05:30
Kakinada,Andhra Pradesh,16.9891,82.2475,34.8,54,0.0,1004.7,9.1,29.9,51,21.4,12.6,0,5,4,1,2026-04-18T17:07:04.853750+05:30
Tirupati,Andhra Pradesh,13.6288,79.4192,35.6,36,0.0,988.7,9.0,32.0,69,24.4,19.8,0,5,10,1,2026-04-18T17:07:04.853756+05:30
Warangal,Telangana,17.9689,79.5941,39.1,31,0.0,975.1,8.8,26.6,98,34.1,27.0,0,5,10,1,2026-04-18T17:07:04.853763+05:30
Nizamabad,Telangana,18.6725,78.0941,38.6,25,0.0,961.8,8.85,37.8,151,33.8,23.8,0,5,10,0,2026-04-18T17:07:04.853770+05:30
Mysore,Karnataka,12.2958,76.6396,35.8,20,0.0,926.0,9.0,40.3,132,23.7,19.8,0,5,10,0,2026-04-18T17:07:04.853776+05:30
Mangalore,Karnataka,12.9141,74.856,30.3,77,0.0,1003.5,9.1,23.0,64,30.2,17.2,3,5,4,1,2026-04-18T17:07:04.853783+05:30
Hubli-Dharwad,Karnataka,15.3647,75.124,33.3,45,0.0,939.0,9.2,39.2,103,32.1,25.0,0,5,7,1,2026-04-18T17:07:04.853790+05:30
Belgaum,Karnataka,15.8497,74.4977,30.8,58,0.0,924.5,8.85,34.2,156,40.4,30.0,0,5,7,1,2026-04-18T17:07:08.073179+05:30
Coimbatore,Tamil Nadu,11.0168,76.9558,36.8,25,0.0,958.8,9.25,31.3,135,24.8,18.0,0,5,10,0,2026-04-18T17:07:08.073212+05:30
Madurai,Tamil Nadu,9.9252,78.1198,38.1,29,0.0,989.1,9.35,34.2,95,16.4,11.3,0,5,10,1,2026-04-18T17:07:08.073223+05:30
Trichy,Tamil Nadu,10.7905,78.7047,36.7,38,0.0,996.1,9.35,18.4,63,9.3,6.7,0,5,10,1,2026-04-18T17:07:08.073231+05:30
Salem,Tamil Nadu,11.6643,78.146,37.8,25,0.0,974.0,9.25,19.8,91,20.7,14.2,0,5,10,0,2026-04-18T17:07:08.073239+05:30
Tirunelveli,Tamil Nadu,8.7139,77.7567,35.0,49,0.0,999.4,9.25,50.4,114,20.8,17.8,0,5,7,1,2026-04-18T17:07:08.073248+05:30
Vellore,Tamil Nadu,12.9165,79.1325,34.5,39,0.0,981.9,8.9,25.6,93,25.8,21.7,0,5,7,1,2026-04-18T17:07:08.073256+05:30
Erode,Tamil Nadu,11.341,77.7172,38.5,30,0.0,985.1,9.35,24.8,76,20.8,13.7,0,5,10,1,2026-04-18T17:07:08.073264+05:30
Kochi,Kerala,9.9312,76.2673,30.1,83,0.0,1005.1,9.15,31.3,85,28.3,20.5,3,5,4,1,2026-04-18T17:07:08.073272+05:30
Thiruvananthapuram,Kerala,8.5241,76.9366,29.7,80,0.0,1005.0,9.1,27.0,79,32.1,20.7,7,5,4,1,2026-04-18T17:07:08.073280+05:30
Kozhikode,Kerala,11.2588,75.7804,31.3,76,0.0,1004.3,9.05,33.1,73,23.0,15.1,3,5,4,1,2026-04-18T17:07:08.073287+05:30
Thrissur,Kerala,10.5276,76.2144,32.4,70,0.0,1003.5,8.65,36.4,81,28.2,20.8,3,5,4,1,2026-04-18T17:07:08.073296+05:30
Kannur,Kerala,11.8745,75.3704,31.6,69,0.0,1004.1,8.6,34.6,69,40.5,27.0,3,5,4,1,2026-04-18T17:07:08.073303+05:30
Patna,Bihar,25.5941,85.1376,37.7,36,0.0,996.0,8.6,24.5,183,61.5,27.2,0,5,10,1,2026-04-18T17:07:08.073311+05:30
Gaya,Bihar,24.7914,85.0002,39.1,21,0.0,989.6,8.65,28.4,170,71.7,24.6,0,5,10,0,2026-04-18T17:07:08.073319+05:30
Muzaffarpur,Bihar,26.1209,85.3647,34.5,52,0.0,996.5,8.6,31.0,185,64.3,37.5,0,5,7,1,2026-04-18T17:07:08.073326+05:30
Bhagalpur,Bihar,25.2425,87.0117,31.4,70,0.0,998.2,8.25,24.8,157,68.0,47.3,3,5,7,1,2026-04-18T17:07:08.073333+05:30
Ranchi,Jharkhand,23.3441,85.3096,36.9,16,0.0,935.8,9.15,42.1,160,52.2,16.7,0,5,10,0,2026-04-18T17:07:08.073340+05:30
Jamshedpur,Jharkhand,22.8046,86.2029,38.1,33,0.0,986.4,8.9,37.1,184,63.8,34.9,0,5,10,1,2026-04-18T17:07:08.073347+05:30
Dhanbad,Jharkhand,23.7957,86.4304,37.0,33,0.0,976.2,8.95,26.6,190,70.1,39.8,0,5,10,1,2026-04-18T17:07:08.073354+05:30
Bokaro,Jharkhand,23.6693,86.1511,35.7,39,0.0,980.3,8.95,40.0,194,62.9,28.8,0,5,10,1,2026-04-18T17:07:08.073361+05:30
Bhubaneswar,Odisha,20.2961,85.8245,30.3,76,0.0,1000.2,8.65,29.9,59,22.2,17.1,3,5,4,1,2026-04-18T17:07:08.073369+05:30
Cuttack,Odisha,20.4625,85.8828,32.8,68,0.0,1001.7,8.9,29.2,59,22.2,17.1,3,5,4,1,2026-04-18T17:07:08.073375+05:30
Rourkela,Odisha,22.2604,84.8536,37.8,35,0.0,981.3,8.65,28.1,169,68.9,26.4,0,5,10,1,2026-04-18T17:07:08.073382+05:30
Raipur,Chhattisgarh,21.2514,81.6296,41.0,20,0.0,970.5,8.85,31.3,204,62.6,35.7,0,5,10,0,2026-04-18T17:07:08.073389+05:30
Bhilai,Chhattisgarh,21.1938,81.3509,39.7,24,0.0,971.0,8.5,36.4,205,64.7,33.5,0,5,10,0,2026-04-18T17:07:08.073396+05:30
Guwahati,Assam,26.1158,91.7086,28.1,80,0.0,1000.4,8.5,22.7,140,52.6,42.5,7,5,4,1,2026-04-18T17:07:08.073402+05:30
Agartala,Tripura,23.8315,91.2868,30.1,70,0.0,1004.0,8.7,16.9,135,53.0,40.4,3,5,4,1,2026-04-18T17:07:08.073409+05:30
Shillong,Meghalaya,25.5788,91.8933,19.0,68,0.0,856.5,6.85,34.2,127,58.6,43.7,3,5,7,0,2026-04-18T17:07:08.073416+05:30
Imphal,Manipur,24.817,93.9368,23.2,67,0.0,922.3,9.1,46.4,155,52.9,38.5,3,5,7,1,2026-04-18T17:07:08.073424+05:30
Aizawl,Mizoram,23.7271,92.7176,26.2,52,0.0,892.5,8.95,34.6,127,61.9,43.2,4,5,7,0,2026-04-18T17:07:08.073431+05:30
Kohima,Nagaland,25.6701,94.1077,18.0,91,0.0,854.8,9.0,48.6,139,61.5,42.8,3,10,7,1,2026-04-18T17:07:08.073438+05:30
Gangtok,Sikkim,27.3314,88.6138,19.3,81,0.0,837.6,8.85,19.1,125,48.9,35.7,3,10,7,0,2026-04-18T17:07:08.073446+05:30
Siliguri,West Bengal,26.7271,88.3953,23.5,88,0.0,992.9,8.05,20.9,160,75.4,54.2,3,5,7,1,2026-04-18T17:07:11.300900+05:30
Durgapur,West Bengal,23.5204,87.3119,31.2,63,0.0,992.2,8.85,37.1,140,76.8,60.5,3,5,7,1,2026-04-18T17:07:11.300933+05:30
Asansol,West Bengal,23.6739,86.9524,34.2,51,0.0,990.2,8.9,30.6,164,75.2,51.3,0,5,7,1,2026-04-18T17:07:11.300944+05:30
Pondicherry,Puducherry,11.9139,79.8145,34.1,56,0.0,1005.2,9.25,27.0,38,11.0,6.7,0,5,4,1,2026-04-18T17:07:11.300952+05:30
Port Blair,Andaman and Nicobar Islands,11.6234,92.7265,29.4,75,0.0,1005.8,9.2,16.6,51,20.9,15.7,7,5,4,1,2026-04-18T17:07:11.300960+05:30
Haridwar,Uttarakhand,29.9457,78.1642,36.3,26,0.0,972.2,6.6,34.6,95,55.9,15.8,0,5,10,0,2026-04-18T17:07:11.300968+05:30
Rishikesh,Uttarakhand,30.0869,78.2676,34.8,31,0.0,965.3,6.85,38.2,79,39.1,11.5,0,5,7,0,2026-04-18T17:07:11.300976+05:30
Nainital,Uttarakhand,29.3919,79.4542,29.1,23,0.0,809.5,8.05,69.1,107,32.4,12.5,4,5,7,0,2026-04-18T17:07:11.300985+05:30
Mussoorie,Uttarakhand,30.4599,78.0664,25.6,45,0.0,806.1,7.4,51.5,90,41.3,12.7,4,5,7,0,2026-04-18T17:07:11.300993+05:30
Dharamshala,Himachal Pradesh,32.219,76.3234,28.2,34,0.0,871.9,7.45,38.9,69,38.1,8.9,4,5,7,0,2026-04-18T17:07:11.301000+05:30
Dalhousie,Himachal Pradesh,32.5387,75.971,24.1,34,0.0,807.6,6.8,39.6,69,50.3,12.1,0,5,7,0,2026-04-18T17:07:11.301009+05:30
Patiala,Punjab,30.3398,76.3869,37.3,20,0.0,976.5,7.1,19.4,126,218.4,34.3,0,5,10,0,2026-04-18T17:07:11.301016+05:30
Bhatinda,Punjab,30.211,74.9455,38.7,17,0.0,981.4,7.75,36.7,115,136.0,29.3,0,5,10,0,2026-04-18T17:07:11.301023+05:30
Rohtak,Haryana,28.8955,76.6066,36.7,31,0.0,979.2,6.95,14.4,390,422.8,51.0,0,5,10,1,2026-04-18T17:07:11.301030+05:30
Panipat,Haryana,29.3909,76.9635,37.2,27,0.0,978.2,6.6,12.2,592,616.5,67.1,0,5,10,0,2026-04-18T17:07:11.301037+05:30
Mathura,Uttar Pradesh,27.4924,77.6737,40.1,17,0.0,983.9,7.65,22.7,620,346.5,38.9,0,5,10,0,2026-04-18T17:07:11.301044+05:30
Vrindavan,Uttar Pradesh,27.5823,77.7027,40.0,17,0.0,984.4,7.6,24.8,620,346.5,38.9,0,5,10,0,2026-04-18T17:07:11.301050+05:30
Ayodhya,Uttar Pradesh,26.7922,82.1998,39.9,20,0.0,990.9,7.75,36.7,124,54.8,16.9,0,5,10,0,2026-04-18T17:07:11.301057+05:30
Ratlam,Madhya Pradesh,23.3315,75.0367,35.8,28,0.0,953.2,8.3,24.1,76,9.2,5.7,0,5,10,0,2026-04-18T17:07:11.301065+05:30
Sagar,Madhya Pradesh,23.8388,78.7378,40.0,15,0.0,948.0,7.85,29.9,124,20.1,11.7,0,5,10,0,2026-04-18T17:07:11.301072+05:30
Satna,Madhya Pradesh,24.6005,80.8322,41.2,14,0.0,967.7,8.5,28.8,144,78.0,20.4,0,5,10,0,2026-04-18T17:07:11.301079+05:30
Akola,Maharashtra,20.7002,77.0082,40.9,12,0.0,972.1,8.7,31.7,101,25.8,19.2,0,5,10,0,2026-04-18T17:07:11.301087+05:30
Amravati,Maharashtra,20.9374,77.7796,41.0,15,0.0,964.1,8.2,23.4,103,24.1,18.0,0,5,10,0,2026-04-18T17:07:11.301095+05:30
Latur,Maharashtra,18.4088,76.5604,36.1,25,0.0,938.0,9.1,16.6,121,37.5,29.6,0,5,10,0,2026-04-18T17:07:11.301103+05:30
Nanded,Maharashtra,19.1383,77.3091,39.2,24,0.0,965.3,8.85,18.0,130,30.5,21.9,0,5,10,0,2026-04-18T17:07:11.301110+05:30
Gulbarga,Karnataka,17.3297,76.8343,37.7,27,0.0,956.0,9.0,49.3,152,39.9,34.0,0,5,10,0,2026-04-18T17:07:11.301116+05:30
Bidar,Karnataka,17.9104,77.5199,34.3,35,0.0,933.9,9.0,28.1,146,40.7,33.4,0,5,7,1,2026-04-18T17:07:11.301123+05:30
Hospet,Karnataka,15.2689,76.3909,37.3,26,0.0,952.9,9.25,20.9,116,34.0,27.2,0,5,10,0,2026-04-18T17:07:11.301130+05:30
Tirupur,Tamil Nadu,11.1085,77.3411,38.5,22,0.0,971.8,9.3,31.3,115,23.5,16.1,0,5,10,0,2026-04-18T17:07:11.301137+05:30
Alappuzha,Kerala,9.4981,76.3388,30.0,82,0.0,1005.3,9.1,26.6,92,32.2,21.3,7,5,4,1,2026-04-18T17:07:11.301143+05:30
Munnar,Kerala,10.0889,77.0595,30.4,43,0.0,857.3,9.7,23.8,92,24.0,15.1,0,5,7,1,2026-04-18T17:07:11.301151+05:30
Silchar,Assam,24.8333,92.7789,31.0,60,0.0,1002.7,8.75,19.1,159,74.7,55.1,0,5,4,1,2026-04-18T17:07:11.301158+05:30
Dibrugarh,Assam,27.4728,94.912,30.2,61,0.0,993.5,8.65,13.7,137,52.5,35.7,3,5,7,1,2026-04-18T17:07:11.301165+05:30
