city,state,latitude,longitude,temp,humidity,rain,pressure,uv_index,wind_gusts,aqi,pm10,pm2_5,no2,co,o3,so2,mosquito_risk,arthritis_risk,migraine_risk,frizz_risk,updated_at
Delhi,Delhi,28.6139,77.209,34.9,51,0.0,977.4,7.75,28.4,166,290.6,102.4,60.8,743.0,30.0,21.0,0,5,7,1,2026-06-27T22:43:03.199269+05:30
Mumbai,Maharashtra,19.076,72.8777,28.8,83,0.0,1006.3,7.15,31.3,60,30.6,16.4,12.9,832.0,38.0,7.4,7,5,4,1,2026-06-27T22:43:03.199311+05:30
Bangalore,Karnataka,12.9716,77.5946,22.0,93,0.0,911.1,9.1,37.1,40,10.9,9.4,24.8,499.0,36.0,6.0,3,5,7,1,2026-06-27T22:43:03.199324+05:30
Hyderabad,Telangana,17.385,78.4867,25.6,85,0.0,951.5,7.65,35.6,81,41.1,34.6,31.2,481.0,48.0,7.3,7,5,7,1,2026-06-27T22:43:03.199331+05:30
Chennai,Tamil Nadu,13.0827,80.2707,30.1,77,0.0,1005.0,8.15,41.4,75,29.0,20.4,8.1,228.0,97.0,4.4,3,5,4,1,2026-06-27T22:43:03.199338+05:30
Kolkata,West Bengal,22.5726,88.3639,28.2,88,0.0,1003.2,8.9,26.6,73,27.4,24.4,10.3,356.0,69.0,6.8,7,5,4,1,2026-06-27T22:43:03.199344+05:30
Pune,Maharashtra,18.5204,73.8567,24.4,88,0.0,946.3,8.25,41.0,45,15.2,11.3,16.0,243.0,42.0,10.2,3,5,7,1,2026-06-27T22:43:03.199350+05:30
Ahmedabad,Gujarat,23.0225,72.5714,31.6,62,0.0,998.8,7.85,37.4,74,51.3,27.0,14.0,197.0,59.0,5.4,3,5,7,1,2026-06-27T22:43:03.199356+05:30
Jaipur,Rajasthan,26.9124,75.7873,31.7,61,0.0,955.3,8.2,27.7,130,210.9,57.5,22.6,638.0,44.0,7.4,3,5,7,1,2026-06-27T22:43:03.199361+05:30
Lucknow,Uttar Pradesh,26.8467,80.9462,35.3,52,0.0,987.9,8.3,27.7,130,122.9,61.0,27.5,346.0,79.0,12.1,0,5,10,1,2026-06-27T22:43:03.199370+05:30
Kanpur,Uttar Pradesh,26.4499,80.3319,35.4,48,0.0,986.4,8.3,33.1,127,132.2,54.4,24.7,459.0,70.0,9.2,0,5,10,1,2026-06-27T22:43:03.199375+05:30
Chandigarh,Chandigarh,30.7333,76.7794,30.2,67,0.0,963.0,7.8,28.8,154,111.1,81.7,43.5,1239.0,85.0,16.8,3,5,7,1,2026-06-27T22:43:03.199381+05:30
Srinagar,Jammu and Kashmir,34.0837,74.7973,23.2,59,0.0,838.3,9.1,28.4,78,37.0,35.6,34.6,987.0,27.0,1.5,0,5,7,0,2026-06-27T22:43:03.199387+05:30
Jammu,Jammu and Kashmir,32.7266,74.857,31.5,61,0.0,965.7,8.65,27.4,136,81.0,65.9,64.2,714.0,30.0,7.3,3,5,7,1,2026-06-27T22:43:03.199392+05:30
Amritsar,Punjab,31.634,74.8723,31.7,67,0.0,973.6,8.45,16.6,167,108.5,89.6,55.3,917.0,55.0,11.0,3,5,7,1,2026-06-27T22:43:03.199397+05:30
Ludhiana,Punjab,30.901,75.8573,34.0,51,0.0,972.4,8.05,27.7,158,123.4,81.5,35.1,1317.0,69.0,11.1,0,5,7,1,2026-06-27T22:43:03.199402+05:30
Jalandhar,Punjab,31.326,75.5762,33.3,58,0.0,973.2,8.25,25.2,162,115.0,83.1,41.3,901.0,61.0,8.6,0,5,7,1,2026-06-27T22:43:03.199407+05:30
Dehradun,Uttarakhand,30.6284,78.0322,18.4,96,0.0,828.3,8.1,34.6,78,47.1,31.3,27.4,221.0,67.0,1.9,3,10,7,1,2026-06-27T22:43:03.199413+05:30
Shimla,Himachal Pradesh,31.1048,77.1734,15.6,89,0.0,782.0,7.35,33.5,102,77.8,60.5,31.3,490.0,55.0,3.1,3,10,7,0,2026-06-27T22:43:03.199421+05:30
Manali,Himachal Pradesh,32.2396,77.1887,18.1,84,0.0,817.3,8.7,35.6,46,8.4,8.2,89.0,321.0,8.0,0.0,3,10,7,0,2026-06-27T22:43:03.199427+05:30
Gurgaon,Haryana,28.4595,77.0266,33.9,47,0.0,975.8,7.8,27.7,240,194.6,78.0,58.0,1332.0,22.0,15.4,0,5,7,1,2026-06-27T22:43:03.199433+05:30
Noida,Uttar Pradesh,28.5355,77.391,31.5,73,0.0,978.5,7.8,23.4,240,194.6,78.0,58.0,1863.0,22.0,15.4,3,5,7,1,2026-06-27T22:43:03.199438+05:30
Ghaziabad,Uttar Pradesh,28.6692,77.4538,31.3,69,0.0,976.9,7.75,20.2,166,278.5,105.2,42.5,593.0,73.0,24.7,3,5,7,1,2026-06-27T22:43:03.199443+05:30
Faridabad,Haryana,28.4089,77.3178,33.8,49,0.0,978.1,7.8,31.0,240,194.6,78.0,58.0,1149.0,22.0,15.4,0,5,7,1,2026-06-27T22:43:03.199450+05:30
Meerut,Uttar Pradesh,28.9845,77.7064,33.3,57,0.0,975.9,7.7,27.7,166,278.5,105.2,42.5,540.0,73.0,24.7,0,5,7,1,2026-06-27T22:43:03.199456+05:30
Agra,Uttar Pradesh,27.1767,78.0081,35.1,42,0.0,982.3,8.1,31.7,140,162.1,71.7,43.2,351.0,40.0,11.3,0,5,10,1,2026-06-27T22:43:03.199461+05:30
Varanasi,Uttar Pradesh,25.3176,82.9739,34.0,55,0.0,992.7,8.8,31.0,119,68.0,65.7,31.9,979.0,65.0,14.1,0,5,7,1,2026-06-27T22:43:03.199467+05:30
Prayagraj,Uttar Pradesh,25.4358,81.8463,35.2,49,0.0,990.9,8.7,37.1,103,77.8,61.0,30.3,237.0,62.0,11.6,0,5,10,1,2026-06-27T22:43:03.199472+05:30
Gorakhpur,Uttar Pradesh,26.7606,83.3732,31.8,78,0.0,992.1,8.65,30.2,159,107.1,94.1,53.7,834.0,32.0,16.4,3,5,7,1,2026-06-27T22:43:03.199478+05:30
Bareilly,Uttar Pradesh,28.367,79.4304,33.8,47,0.0,981.1,8.1,25.9,159,116.6,65.4,24.0,487.0,100.0,14.8,0,5,7,1,2026-06-27T22:43:03.199485+05:30
Aligarh,Uttar Pradesh,27.8974,78.088,33.6,55,0.0,980.0,7.95,31.7,178,281.3,87.3,31.9,645.0,59.0,8.6,0,5,7,1,2026-06-27T22:43:03.199490+05:30
Moradabad,Uttar Pradesh,28.8386,78.7733,33.8,50,0.0,978.2,7.9,32.8,163,169.5,105.0,46.4,705.0,63.0,18.4,0,5,7,1,2026-06-27T22:43:03.199495+05:30
Saharanpur,Uttar Pradesh,29.9637,77.546,32.6,52,0.0,970.1,7.45,28.4,166,234.7,94.8,36.0,455.0,61.0,14.3,0,5,7,1,2026-06-27T22:43:03.199500+05:30
Jhansi,Uttar Pradesh,25.4484,78.5685,33.7,52,0.0,973.6,8.45,25.2,88,47.6,27.9,9.6,180.0,68.0,3.1,0,5,7,1,2026-06-27T22:43:06.646117+05:30
Surat,Gujarat,21.1702,72.8311,30.1,76,0.0,1003.7,7.6,39.2,84,44.5,25.7,21.3,218.0,32.0,33.7,3,5,4,1,2026-06-27T22:43:06.646148+05:30
Vadodara,Gujarat,22.3072,73.1812,32.6,52,0.0,1001.3,7.85,37.8,78,35.5,21.8,16.8,156.0,44.0,14.8,0,5,4,1,2026-06-27T22:43:06.646156+05:30
Rajkot,Gujarat,22.3039,70.8022,29.4,71,0.0,991.2,7.55,43.2,67,30.3,14.4,6.3,116.0,53.0,6.3,7,5,7,1,2026-06-27T22:43:06.646164+05:30
Thane,Maharashtra,19.2183,72.9781,28.2,88,0.0,1005.7,7.4,28.8,60,30.6,16.4,12.9,678.0,38.0,7.4,7,5,4,1,2026-06-27T22:43:06.646172+05:30
Nagpur,Maharashtra,21.1458,79.0882,27.1,93,0.0,970.2,8.75,37.1,95,27.4,24.6,16.7,425.0,70.0,11.9,7,5,7,1,2026-06-27T22:43:06.646179+05:30
Nashik,Maharashtra,19.9975,73.7898,25.3,86,0.0,943.6,7.7,29.2,57,21.7,13.1,7.5,174.0,54.0,4.0,7,5,7,1,2026-06-27T22:43:06.646185+05:30
Aurangabad,Maharashtra,19.8762,75.3433,26.5,79,0.0,941.8,8.25,29.2,68,24.8,17.8,9.8,249.0,61.0,3.4,7,5,7,1,2026-06-27T22:43:06.646191+05:30
Solapur,Maharashtra,17.6599,75.9064,25.6,91,0.0,955.5,3.5,38.9,49,14.5,11.1,8.7,200.0,53.0,2.3,7,5,3,1,2026-06-27T22:43:06.646198+05:30
Kolhapur,Maharashtra,16.705,74.2433,23.7,91,0.0,946.5,7.4,35.6,32,10.4,9.0,10.5,180.0,35.0,3.1,3,5,7,1,2026-06-27T22:43:06.646205+05:30
Goa,Goa,15.2993,74.124,25.4,99,0.1,997.3,5.75,29.9,50,14.8,10.8,5.7,308.0,46.0,1.4,10,5,3,1,2026-06-27T22:43:06.646212+05:30
Jodhpur,Rajasthan,26.2389,73.0243,31.6,58,0.0,978.5,8.4,37.1,103,143.9,39.7,10.2,166.0,56.0,2.9,0,5,7,1,2026-06-27T22:43:06.646218+05:30
Udaipur,Rajasthan,24.5854,73.7125,26.6,85,0.0,943.2,8.55,34.9,68,46.7,25.5,16.3,292.0,26.0,1.5,7,5,7,1,2026-06-27T22:43:06.646224+05:30
Kota,Rajasthan,25.2138,75.8648,27.8,86,0.0,975.2,8.3,49.0,82,37.7,24.6,9.3,217.0,65.0,4.7,7,5,7,1,2026-06-27T22:43:06.646230+05:30
Bikaner,Rajasthan,28.0229,73.3119,35.3,39,0.0,975.7,8.45,33.1,93,110.1,39.6,3.1,160.0,64.0,2.5,0,5,10,1,2026-06-27T22:43:06.646236+05:30
Ajmer,Rajasthan,26.4499,74.6399,29.6,65,0.0,951.0,8.35,38.2,86,83.1,37.5,10.1,201.0,59.0,4.4,7,5,7,1,2026-06-27T22:43:06.646243+05:30
Gwalior,Madhya Pradesh,26.2183,78.1828,33.7,53,0.0,978.4,8.25,36.4,87,61.7,34.1,18.8,174.0,46.0,4.1,0,5,7,1,2026-06-27T22:43:06.646249+05:30
Indore,Madhya Pradesh,22.7196,75.8577,25.6,94,0.0,945.3,8.2,31.7,86,33.9,26.1,15.0,587.0,57.0,5.2,7,5,7,1,2026-06-27T22:43:06.646255+05:30
Bhopal,Madhya Pradesh,23.2599,77.4126,26.7,89,0.0,950.6,8.65,23.0,87,38.1,30.4,11.7,319.0,66.0,4.0,7,5,7,1,2026-06-27T22:43:06.646261+05:30
Jabalpur,Madhya Pradesh,23.1815,79.9864,27.5,89,0.0,958.3,8.85,39.6,69,19.1,18.0,9.7,247.0,80.0,3.0,7,5,7,1,2026-06-27T22:43:06.646266+05:30
Ujjain,Madhya Pradesh,23.1765,75.7885,25.7,91,0.0,950.8,8.5,32.8,84,35.3,26.9,10.2,342.0,55.0,3.4,7,5,7,1,2026-06-27T22:43:06.646272+05:30
Visakhapatnam,Andhra Pradesh,17.6868,83.2185,28.0,91,0.0,1000.6,8.4,31.3,89,36.7,28.3,25.6,393.0,78.0,38.5,7,5,4,1,2026-06-27T22:43:06.646277+05:30
Vijayawada,Andhra Pradesh,16.5062,80.648,30.2,73,0.0,999.7,8.45,40.0,84,42.7,37.1,19.9,358.0,56.0,6.5,3,5,7,1,2026-06-27T22:43:06.646283+05:30
Guntur,Andhra Pradesh,16.3067,80.4365,29.8,75,0.0,1000.9,7.7,34.9,84,48.5,39.8,26.1,554.0,51.0,7.8,7,5,4,1,2026-06-27T22:43:06.646289+05:30
Nellore,Andhra Pradesh,14.4426,79.9865,29.7,74,0.0,1004.1,8.6,48.2,72,30.2,21.7,6.8,170.0,104.0,6.5,7,5,4,1,2026-06-27T22:43:06.646296+05:30
Kurnool,Andhra Pradesh,15.8281,78.0373,25.2,93,0.3,975.8,7.7,49.0,60,18.5,12.9,8.5,166.0,76.0,3.7,10,5,7,1,2026-06-27T22:43:06.646303+05:30
Kakinada,Andhra Pradesh,16.9891,82.2475,27.2,99,0.0,1004.4,6.6,41.8,70,39.1,27.1,4.8,586.0,108.0,4.9,7,5,4,1,2026-06-27T22:43:06.646310+05:30
Tirupati,Andhra Pradesh,13.6288,79.4192,25.4,91,0.2,990.3,8.7,30.2,56,34.5,26.0,20.6,187.0,54.0,5.0,10,5,7,1,2026-06-27T22:43:06.646316+05:30
Warangal,Telangana,17.9689,79.5941,27.4,88,0.0,975.9,8.15,36.0,90,36.4,30.4,13.4,430.0,57.0,3.6,7,5,7,1,2026-06-27T22:43:06.646321+05:30
Nizamabad,Telangana,18.6725,78.0941,26.8,84,0.0,962.2,8.1,36.7,101,47.4,38.0,18.7,330.0,47.0,4.6,7,5,7,1,2026-06-27T22:43:06.646327+05:30
Mysore,Karnataka,12.2958,76.6396,22.0,94,0.0,928.2,8.7,42.1,31,7.5,6.6,13.2,174.0,39.0,2.5,3,5,7,1,2026-06-27T22:43:06.646332+05:30
Mangalore,Karnataka,12.9141,74.856,25.5,96,0.1,1007.1,8.7,37.1,42,15.8,10.6,7.9,213.0,37.0,2.3,10,5,4,1,2026-06-27T22:43:06.646338+05:30
Hubli-Dharwad,Karnataka,15.3647,75.124,23.3,91,0.0,940.0,7.85,43.2,24,4.3,3.5,7.0,132.0,40.0,1.3,3,5,7,1,2026-06-27T22:43:06.646344+05:30
Belgaum,Karnataka,15.8497,74.4977,22.7,91,0.0,924.5,8.45,42.8,23,5.0,4.1,6.4,128.0,42.0,1.8,3,5,7,1,2026-06-27T22:43:09.897881+05:30
Coimbatore,Tamil Nadu,11.0168,76.9558,24.2,91,0.0,961.5,8.8,46.8,34,7.0,5.7,8.5,187.0,38.0,2.7,3,5,7,1,2026-06-27T22:43:09.897912+05:30
Madurai,Tamil Nadu,9.9252,78.1198,31.0,54,0.0,992.2,8.7,47.9,70,28.1,20.7,25.2,194.0,43.0,5.9,0,5,7,1,2026-06-27T22:43:09.897922+05:30
Trichy,Tamil Nadu,10.7905,78.7047,27.7,83,0.1,999.3,7.9,38.9,52,23.3,17.9,15.1,326.0,62.0,4.9,10,5,7,1,2026-06-27T22:43:09.897930+05:30
Salem,Tamil Nadu,11.6643,78.146,24.7,94,0.1,977.1,8.45,31.7,58,24.6,18.6,19.2,401.0,52.0,5.9,6,5,7,1,2026-06-27T22:43:09.897938+05:30
Tirunelveli,Tamil Nadu,8.7139,77.7567,29.6,63,0.0,1002.8,8.65,37.1,38,11.0,8.5,8.3,159.0,44.0,2.2,7,5,4,1,2026-06-27T22:43:09.897945+05:30
Vellore,Tamil Nadu,12.9165,79.1325,25.1,93,0.2,984.0,8.95,41.8,62,30.7,20.5,15.0,175.0,61.0,5.2,10,5,7,1,2026-06-27T22:43:09.897951+05:30
Erode,Tamil Nadu,11.341,77.7172,26.2,93,0.2,988.9,8.05,34.9,53,12.0,9.6,12.2,177.0,43.0,2.9,10,5,7,1,2026-06-27T22:43:09.897957+05:30
Kochi,Kerala,9.9312,76.2673,25.3,93,0.1,1010.1,8.55,36.0,57,13.4,9.7,15.7,203.0,28.0,3.5,10,0,4,1,2026-06-27T22:43:09.897963+05:30
Thiruvananthapuram,Kerala,8.5241,76.9366,24.2,98,0.1,1009.3,8.35,39.6,40,12.6,6.6,2.9,172.0,50.0,1.1,6,0,4,1,2026-06-27T22:43:09.897969+05:30
Kozhikode,Kerala,11.2588,75.7804,24.9,98,0.1,1009.0,8.6,37.8,29,12.5,6.0,1.4,185.0,53.0,0.8,6,0,4,1,2026-06-27T22:43:09.897976+05:30
Thrissur,Kerala,10.5276,76.2144,24.3,99,0.1,1008.3,8.55,33.8,58,15.9,12.9,15.5,240.0,24.0,3.6,6,0,4,1,2026-06-27T22:43:09.897982+05:30
Kannur,Kerala,11.8745,75.3704,25.4,96,0.1,1007.9,8.65,36.0,38,13.5,9.1,10.8,168.0,31.0,2.0,10,5,4,1,2026-06-27T22:43:09.897989+05:30
Patna,Bihar,25.5941,85.1376,28.2,90,0.2,996.2,8.6,32.8,153,77.1,69.6,30.7,451.0,78.0,16.7,10,5,7,1,2026-06-27T22:43:09.897995+05:30
Gaya,Bihar,24.7914,85.0002,29.3,87,0.1,990.2,8.75,31.7,126,88.0,84.5,26.2,363.0,85.0,16.2,10,5,7,1,2026-06-27T22:43:09.898002+05:30
Muzaffarpur,Bihar,26.1209,85.3647,28.6,80,0.0,996.5,8.6,35.3,155,83.8,76.1,27.9,602.0,82.0,14.9,7,5,7,1,2026-06-27T22:43:09.898008+05:30
Bhagalpur,Bihar,25.2425,87.0117,30.8,71,0.0,997.2,7.7,26.6,128,53.4,51.0,14.5,345.0,112.0,17.8,3,5,7,1,2026-06-27T22:43:09.898014+05:30
Ranchi,Jharkhand,23.3441,85.3096,25.3,88,0.0,935.1,9.0,21.6,125,54.1,52.5,19.0,298.0,74.0,8.3,7,5,7,1,2026-06-27T22:43:09.898021+05:30
Jamshedpur,Jharkhand,22.8046,86.2029,29.0,84,0.0,987.9,9.05,30.2,130,48.1,45.5,19.5,717.0,74.0,22.9,7,5,7,1,2026-06-27T22:43:09.898027+05:30
Dhanbad,Jharkhand,23.7957,86.4304,29.7,78,0.0,976.8,8.9,22.7,159,74.5,72.2,45.5,1556.0,67.0,114.5,7,5,7,1,2026-06-27T22:43:09.898033+05:30
Bokaro,Jharkhand,23.6693,86.1511,30.0,76,0.0,980.6,9.1,23.8,160,80.1,77.5,40.5,1523.0,78.0,103.9,7,5,7,1,2026-06-27T22:43:09.898040+05:30
Bhubaneswar,Odisha,20.2961,85.8245,28.2,92,0.0,999.5,9.0,36.4,78,29.3,27.5,8.7,259.0,116.0,9.3,7,5,7,1,2026-06-27T22:43:09.898046+05:30
Cuttack,Odisha,20.4625,85.8828,28.7,90,0.0,1001.3,8.9,30.6,78,29.3,27.5,8.7,292.0,116.0,9.3,7,5,4,1,2026-06-27T22:43:09.898052+05:30
Rourkela,Odisha,22.2604,84.8536,30.0,76,0.0,982.2,8.95,34.6,112,37.1,34.6,13.0,319.0,104.0,23.9,7,5,7,1,2026-06-27T22:43:09.898058+05:30
Raipur,Chhattisgarh,21.2514,81.6296,29.2,84,0.0,971.3,8.9,40.7,112,36.3,34.9,29.3,396.0,62.0,49.1,7,5,7,1,2026-06-27T22:43:09.898064+05:30
Bhilai,Chhattisgarh,21.1938,81.3509,29.3,76,0.0,971.8,8.9,54.4,107,33.9,32.7,24.3,612.0,70.0,41.3,7,5,7,1,2026-06-27T22:43:09.898071+05:30
Guwahati,Assam,26.1158,91.7086,28.2,83,0.0,998.0,8.7,37.4,78,29.8,28.0,8.6,360.0,73.0,3.6,7,5,7,1,2026-06-27T22:43:09.898077+05:30
Agartala,Tripura,23.8315,91.2868,27.9,84,0.0,1004.0,8.05,29.5,57,13.9,12.5,8.7,178.0,42.0,2.0,7,5,4,1,2026-06-27T22:43:09.898084+05:30
Shillong,Meghalaya,25.5788,91.8933,20.7,93,0.0,856.2,6.65,25.6,52,7.4,6.9,6.8,210.0,73.0,1.7,3,5,7,1,2026-06-27T22:43:09.898090+05:30
Imphal,Manipur,24.817,93.9368,23.9,91,0.0,921.4,8.05,30.6,59,30.0,28.5,21.5,398.0,22.0,3.2,3,5,7,1,2026-06-27T22:43:09.898096+05:30
Aizawl,Mizoram,23.7271,92.7176,20.8,92,0.0,891.3,9.05,24.1,38,6.5,5.9,4.4,146.0,46.0,1.0,3,5,7,1,2026-06-27T22:43:09.898102+05:30
Kohima,Nagaland,25.6701,94.1077,19.8,96,0.0,853.4,8.5,24.8,49,16.0,14.6,12.0,354.0,32.0,1.3,3,10,7,1,2026-06-27T22:43:09.898108+05:30
Gangtok,Sikkim,27.3314,88.6138,19.0,96,0.8,836.4,8.95,39.2,81,14.0,13.5,14.3,447.0,98.0,2.8,6,10,7,1,2026-06-27T22:43:09.898114+05:30
Siliguri,West Bengal,26.7271,88.3953,25.6,95,0.0,990.0,8.65,25.9,88,28.6,26.0,9.9,529.0,115.0,4.6,7,5,7,1,2026-06-27T22:43:13.152764+05:30
Durgapur,West Bengal,23.5204,87.3119,29.1,82,0.0,991.8,9.0,25.9,144,39.6,37.6,24.1,638.0,64.0,32.2,7,5,7,1,2026-06-27T22:43:13.152797+05:30
Asansol,West Bengal,23.6739,86.9524,29.8,79,0.0,990.3,9.05,32.0,139,45.6,43.5,25.6,411.0,68.0,33.6,7,5,7,1,2026-06-27T22:43:13.152806+05:30
Pondicherry,Puducherry,11.9139,79.8145,29.9,71,0.0,1007.0,8.35,45.0,70,23.4,16.7,9.0,214.0,81.0,5.8,7,5,4,1,2026-06-27T22:43:13.152815+05:30
Port Blair,Andaman and Nicobar Islands,11.6234,92.7265,25.7,96,0.0,1007.9,8.65,40.0,19,5.7,3.4,0.3,90.0,42.0,0.2,7,5,4,1,2026-06-27T22:43:13.152822+05:30
Haridwar,Uttarakhand,29.9457,78.1642,31.4,60,0.0,968.8,7.6,27.7,149,113.2,75.7,29.5,430.0,92.0,16.4,0,5,7,1,2026-06-27T22:43:13.152829+05:30
Rishikesh,Uttarakhand,30.0869,78.2676,29.5,65,0.0,961.7,7.7,27.4,118,88.9,54.1,21.1,397.0,90.0,9.1,7,5,7,1,2026-06-27T22:43:13.152836+05:30
Nainital,Uttarakhand,29.3919,79.4542,17.4,86,0.0,804.3,6.85,28.8,126,82.9,43.0,15.3,373.0,94.0,7.3,3,10,7,0,2026-06-27T22:43:13.152843+05:30
Mussoorie,Uttarakhand,30.4599,78.0664,17.8,87,0.0,801.7,8.15,40.7,123,92.2,59.6,32.9,381.0,94.0,12.3,3,10,7,0,2026-06-27T22:43:13.152849+05:30
Dharamshala,Himachal Pradesh,32.219,76.3234,23.2,76,0.0,866.4,8.5,33.1,66,13.6,12.8,16.1,362.0,63.0,0.4,3,5,7,1,2026-06-27T22:43:13.152855+05:30
Dalhousie,Himachal Pradesh,32.5387,75.971,16.8,93,0.0,801.8,8.2,33.1,123,74.0,53.1,26.4,562.0,87.0,2.9,3,10,7,0,2026-06-27T22:43:13.152862+05:30
Patiala,Punjab,30.3398,76.3869,32.9,57,0.0,972.1,7.7,27.0,164,320.4,126.7,44.1,645.0,51.0,11.2,0,5,7,1,2026-06-27T22:43:13.152869+05:30
Bhatinda,Punjab,30.211,74.9455,33.4,61,0.0,977.1,8.3,25.9,154,120.6,95.9,65.9,561.0,32.0,12.1,3,5,7,1,2026-06-27T22:43:13.152874+05:30
Rohtak,Haryana,28.8955,76.6066,32.1,65,0.0,975.8,7.75,24.8,181,294.3,101.7,76.6,941.0,8.0,13.9,3,5,7,1,2026-06-27T22:43:13.152880+05:30
Panipat,Haryana,29.3909,76.9635,32.1,59,0.0,974.4,7.65,23.0,480,510.4,128.5,52.9,683.0,34.0,11.0,0,5,7,1,2026-06-27T22:43:13.152887+05:30
Mathura,Uttar Pradesh,27.4924,77.6737,33.3,55,0.0,981.2,8.05,34.6,153,158.3,67.5,54.2,574.0,28.0,6.9,0,5,7,1,2026-06-27T22:43:13.152893+05:30
Vrindavan,Uttar Pradesh,27.5823,77.7027,32.7,57,0.0,981.6,8.0,34.6,153,158.3,67.5,54.2,605.0,28.0,6.9,0,5,7,1,2026-06-27T22:43:13.152899+05:30
Ayodhya,Uttar Pradesh,26.7922,82.1998,32.1,75,0.0,990.1,8.4,29.2,139,125.7,92.7,58.7,914.0,29.0,15.0,3,5,7,1,2026-06-27T22:43:13.152905+05:30
Ratlam,Madhya Pradesh,23.3315,75.0367,26.1,96,0.0,951.9,8.2,31.3,80,39.0,27.9,8.5,299.0,55.0,3.2,7,5,7,1,2026-06-27T22:43:13.152911+05:30
Sagar,Madhya Pradesh,23.8388,78.7378,28.1,81,0.0,947.2,8.65,27.4,64,26.1,21.2,9.1,208.0,73.0,2.7,7,5,7,1,2026-06-27T22:43:13.152917+05:30
Satna,Madhya Pradesh,24.6005,80.8322,30.1,67,0.0,967.9,8.8,31.3,77,36.1,24.0,10.5,244.0,79.0,3.4,3,5,7,1,2026-06-27T22:43:13.152923+05:30
Akola,Maharashtra,20.7002,77.0082,27.2,90,0.0,972.5,8.0,38.9,83,25.8,19.7,9.3,220.0,75.0,3.9,7,5,7,1,2026-06-27T22:43:13.152930+05:30
Amravati,Maharashtra,20.9374,77.7796,27.2,85,0.0,964.7,8.55,34.2,80,26.1,20.6,10.4,238.0,72.0,4.5,7,5,7,1,2026-06-27T22:43:13.152937+05:30
Latur,Maharashtra,18.4088,76.5604,25.2,89,0.0,938.1,7.7,31.7,84,41.8,29.4,16.6,221.0,57.0,4.1,7,5,7,1,2026-06-27T22:43:13.152943+05:30
Nanded,Maharashtra,19.1383,77.3091,26.6,83,0.0,966.4,6.35,36.4,97,42.7,28.1,12.3,235.0,62.0,3.0,7,5,7,1,2026-06-27T22:43:13.152949+05:30
Gulbarga,Karnataka,17.3297,76.8343,25.0,93,0.0,957.4,5.7,31.7,51,22.4,16.4,15.1,185.0,54.0,3.7,7,5,3,1,2026-06-27T22:43:13.152956+05:30
Bidar,Karnataka,17.9104,77.5199,24.3,93,0.0,934.2,2.45,36.0,87,37.7,30.2,22.9,261.0,48.0,4.2,3,5,3,1,2026-06-27T22:43:13.152961+05:30
Hospet,Karnataka,15.2689,76.3909,24.9,85,0.0,954.9,7.85,47.9,29,7.1,6.0,10.2,188.0,37.0,1.7,3,5,7,1,2026-06-27T22:43:13.152967+05:30
Tirupur,Tamil Nadu,11.1085,77.3411,25.8,83,0.0,974.9,8.6,50.0,55,14.6,12.1,15.4,159.0,38.0,4.0,7,5,7,1,2026-06-27T22:43:13.152973+05:30
Alappuzha,Kerala,9.4981,76.3388,24.9,94,0.1,1010.4,8.5,37.4,51,13.0,7.7,9.7,92.0,40.0,2.2,6,0,4,1,2026-06-27T22:43:13.152979+05:30
Munnar,Kerala,10.0889,77.0595,17.0,99,0.0,856.9,9.05,34.2,28,6.6,5.7,8.9,120.0,37.0,1.7,3,10,7,1,2026-06-27T22:43:13.152985+05:30
Silchar,Assam,24.8333,92.7789,25.8,100,0.1,1003.3,8.75,24.5,77,22.9,20.7,8.3,239.0,64.0,3.6,10,5,4,1,2026-06-27T22:43:13.152991+05:30
Dibrugarh,Assam,27.4728,94.912,25.5,98,0.1,991.0,8.4,34.6,66,15.9,14.7,6.0,269.0,90.0,1.7,10,5,7,1,2026-06-27T22:43:13.152997+05:30
