city,state,latitude,longitude,temp,humidity,rain,pressure,uv_index,wind_gusts,aqi,pm10,pm2_5,mosquito_risk,arthritis_risk,migraine_risk,frizz_risk,updated_at
Delhi,Delhi,28.6139,77.209,26.7,46,0.0,980.5,7.25,29.2,161,534.6,90.3,4,5,7,0,2026-04-20T01:13:43.684067+05:30
Mumbai,Maharashtra,19.076,72.8777,29.4,73,0.0,1007.3,7.3,20.5,78,41.0,21.8,7,5,4,1,2026-04-20T01:13:43.684112+05:30
Bangalore,Karnataka,12.9716,77.5946,24.9,58,0.0,911.3,9.55,17.6,81,26.1,22.6,0,5,7,1,2026-04-20T01:13:43.684128+05:30
Hyderabad,Telangana,17.385,78.4867,26.8,69,0.0,953.3,9.3,46.1,111,41.0,36.3,7,5,7,1,2026-04-20T01:13:43.684139+05:30
Chennai,Tamil Nadu,13.0827,80.2707,28.2,85,0.0,1006.4,9.3,34.6,36,14.1,9.6,7,5,4,1,2026-04-20T01:13:43.684149+05:30
Kolkata,West Bengal,22.5726,88.3639,27.8,91,0.0,1003.1,8.9,34.2,77,27.5,21.6,7,5,4,1,2026-04-20T01:13:43.684162+05:30
Pune,Maharashtra,18.5204,73.8567,26.6,65,0.0,947.9,7.3,35.6,113,58.4,51.9,7,5,7,1,2026-04-20T01:13:43.684169+05:30
Ahmedabad,Gujarat,23.0225,72.5714,27.4,44,0.0,1001.1,8.15,20.2,54,23.5,18.6,4,5,4,0,2026-04-20T01:13:43.684177+05:30
Jaipur,Rajasthan,26.9124,75.7873,28.0,22,0.0,957.9,7.9,22.0,109,173.2,31.5,4,5,7,0,2026-04-20T01:13:43.684185+05:30
Lucknow,Uttar Pradesh,26.8467,80.9462,28.5,47,0.0,989.6,7.9,34.6,131,176.5,46.7,4,5,7,1,2026-04-20T01:13:43.684193+05:30
Kanpur,Uttar Pradesh,26.4499,80.3319,27.7,58,0.0,987.9,7.9,27.0,186,274.7,60.5,4,5,7,1,2026-04-20T01:13:43.684201+05:30
Chandigarh,Chandigarh,30.7333,76.7794,22.9,56,0.0,966.7,7.25,32.4,68,25.2,18.5,0,5,7,0,2026-04-20T01:13:43.684208+05:30
Srinagar,Jammu and Kashmir,34.0837,74.7973,9.4,95,0.0,842.6,8.3,15.8,70,79.2,60.5,3,10,7,0,2026-04-20T01:13:43.684216+05:30
Jammu,Jammu and Kashmir,32.7266,74.857,22.6,58,0.0,972.3,7.95,32.0,62,36.9,22.9,0,5,7,0,2026-04-20T01:13:43.684223+05:30
Amritsar,Punjab,31.634,74.8723,23.0,61,0.0,980.0,7.9,28.4,72,88.5,40.9,3,5,7,0,2026-04-20T01:13:43.684229+05:30
Ludhiana,Punjab,30.901,75.8573,24.4,53,0.0,977.3,7.5,31.3,77,30.4,19.6,0,5,7,0,2026-04-20T01:13:43.684238+05:30
Jalandhar,Punjab,31.326,75.5762,22.9,53,0.0,978.7,7.65,31.3,72,47.4,26.5,0,5,7,0,2026-04-20T01:13:43.684246+05:30
Dehradun,Uttarakhand,30.6284,78.0322,17.0,46,0.0,830.0,7.7,42.8,42,20.4,11.3,0,5,7,0,2026-04-20T01:13:43.684253+05:30
Shimla,Himachal Pradesh,31.1048,77.1734,14.7,56,0.0,784.2,7.75,44.6,57,27.9,12.8,0,5,7,0,2026-04-20T01:13:43.684262+05:30
Manali,Himachal Pradesh,32.2396,77.1887,14.2,57,0.0,821.2,9.25,29.2,63,14.1,9.1,0,5,7,0,2026-04-20T01:13:43.684268+05:30
Gurgaon,Haryana,28.4595,77.0266,23.4,59,0.0,978.8,7.4,27.4,546,560.7,95.0,0,5,7,0,2026-04-20T01:13:43.684275+05:30
Noida,Uttar Pradesh,28.5355,77.391,26.3,49,0.0,981.9,7.3,29.5,546,560.7,95.0,4,5,7,0,2026-04-20T01:13:43.684281+05:30
Ghaziabad,Uttar Pradesh,28.6692,77.4538,25.2,52,0.0,980.0,7.3,28.1,151,288.7,68.5,4,5,7,0,2026-04-20T01:13:43.684287+05:30
Faridabad,Haryana,28.4089,77.3178,25.0,50,0.0,981.1,7.35,29.2,546,560.7,95.0,4,5,7,0,2026-04-20T01:13:43.684293+05:30
Meerut,Uttar Pradesh,28.9845,77.7064,24.2,55,0.0,978.8,7.2,28.8,151,288.7,68.5,0,5,7,0,2026-04-20T01:13:43.684299+05:30
Agra,Uttar Pradesh,27.1767,78.0081,25.6,47,0.0,984.8,7.7,22.3,421,417.2,96.4,4,5,7,0,2026-04-20T01:13:43.684308+05:30
Varanasi,Uttar Pradesh,25.3176,82.9739,27.9,45,0.0,993.3,8.45,36.4,112,123.9,55.9,4,5,7,0,2026-04-20T01:13:43.684314+05:30
Prayagraj,Uttar Pradesh,25.4358,81.8463,29.1,47,0.0,992.3,8.1,31.7,110,98.7,35.0,4,5,7,1,2026-04-20T01:13:43.684321+05:30
Gorakhpur,Uttar Pradesh,26.7606,83.3732,27.7,76,0.0,993.8,8.35,38.9,128,87.8,61.0,7,5,7,1,2026-04-20T01:13:43.684328+05:30
Bareilly,Uttar Pradesh,28.367,79.4304,24.9,58,0.0,983.6,7.6,29.9,92,53.1,25.3,0,5,7,1,2026-04-20T01:13:43.684334+05:30
Aligarh,Uttar Pradesh,27.8974,78.088,25.3,47,0.0,982.6,7.45,33.5,231,174.2,57.9,4,5,7,0,2026-04-20T01:13:43.684340+05:30
Moradabad,Uttar Pradesh,28.8386,78.7733,24.1,55,0.0,980.8,7.4,28.8,116,94.5,44.2,0,5,7,0,2026-04-20T01:13:43.684349+05:30
Saharanpur,Uttar Pradesh,29.9637,77.546,23.0,66,0.0,973.4,6.95,30.2,100,83.4,43.2,3,5,7,1,2026-04-20T01:13:43.684355+05:30
Jhansi,Uttar Pradesh,25.4484,78.5685,27.9,52,0.0,974.9,8.05,28.8,55,22.2,13.6,4,5,7,1,2026-04-20T01:13:46.904602+05:30
Surat,Gujarat,21.1702,72.8311,27.4,84,0.0,1005.4,7.85,27.7,94,35.3,25.3,7,5,4,1,2026-04-20T01:13:46.904637+05:30
Vadodara,Gujarat,22.3072,73.1812,28.0,64,0.0,1003.0,8.1,26.3,75,53.9,45.5,7,5,4,1,2026-04-20T01:13:46.904648+05:30
Rajkot,Gujarat,22.3039,70.8022,24.4,73,0.0,993.8,7.85,23.8,52,31.5,13.6,3,5,7,1,2026-04-20T01:13:46.904656+05:30
Thane,Maharashtra,19.2183,72.9781,27.3,84,0.0,1006.7,8.05,32.4,78,41.0,21.8,7,5,4,1,2026-04-20T01:13:46.904663+05:30
Nagpur,Maharashtra,21.1458,79.0882,29.3,52,0.0,971.8,8.8,32.8,88,33.1,29.5,4,5,7,1,2026-04-20T01:13:46.904670+05:30
Nashik,Maharashtra,19.9975,73.7898,26.9,47,0.0,945.1,8.25,30.2,88,52.3,43.5,4,5,7,0,2026-04-20T01:13:46.904677+05:30
Aurangabad,Maharashtra,19.8762,75.3433,28.3,52,0.0,943.6,9.05,24.8,79,53.4,47.6,4,5,7,1,2026-04-20T01:13:46.904683+05:30
Solapur,Maharashtra,17.6599,75.9064,27.0,73,0.0,956.7,9.1,33.1,146,70.8,63.6,7,5,7,1,2026-04-20T01:13:46.904691+05:30
Kolhapur,Maharashtra,16.705,74.2433,23.7,93,0.0,947.3,9.05,38.9,103,35.4,29.2,3,5,7,1,2026-04-20T01:13:46.904698+05:30
Goa,Goa,15.2993,74.124,28.5,82,0.0,997.0,9.0,34.6,87,58.3,35.3,7,5,7,1,2026-04-20T01:13:46.904705+05:30
Jodhpur,Rajasthan,26.2389,73.0243,28.1,36,0.0,981.6,8.15,23.8,99,136.9,22.6,4,5,7,0,2026-04-20T01:13:46.904712+05:30
Udaipur,Rajasthan,24.5854,73.7125,25.6,40,0.0,945.9,8.7,24.8,52,23.6,10.0,4,5,7,0,2026-04-20T01:13:46.904718+05:30
Kota,Rajasthan,25.2138,75.8648,27.6,38,0.0,976.6,8.25,21.6,60,16.6,15.0,4,5,7,0,2026-04-20T01:13:46.904725+05:30
Bikaner,Rajasthan,28.0229,73.3119,29.6,39,0.0,980.5,7.95,21.2,79,56.9,22.6,4,5,7,0,2026-04-20T01:13:46.904731+05:30
Ajmer,Rajasthan,26.4499,74.6399,27.0,33,0.0,953.3,8.15,22.3,67,54.9,18.0,4,5,7,0,2026-04-20T01:13:46.904737+05:30
Gwalior,Madhya Pradesh,26.2183,78.1828,28.1,43,0.0,980.4,8.0,33.8,70,38.3,13.0,4,5,7,0,2026-04-20T01:13:46.904743+05:30
Indore,Madhya Pradesh,22.7196,75.8577,26.9,56,0.0,947.3,8.25,34.9,64,25.3,22.5,4,5,7,1,2026-04-20T01:13:46.904749+05:30
Bhopal,Madhya Pradesh,23.2599,77.4126,28.9,40,0.0,952.3,5.75,30.6,64,24.9,21.4,4,5,3,0,2026-04-20T01:13:46.904755+05:30
Jabalpur,Madhya Pradesh,23.1815,79.9864,28.9,47,0.0,959.4,8.55,35.3,64,30.9,24.8,4,5,7,1,2026-04-20T01:13:46.904761+05:30
Ujjain,Madhya Pradesh,23.1765,75.7885,27.8,52,0.0,952.9,7.55,32.0,67,21.0,17.3,4,5,7,1,2026-04-20T01:13:46.904767+05:30
Visakhapatnam,Andhra Pradesh,17.6868,83.2185,27.2,87,0.0,1002.6,9.2,38.5,60,16.1,11.8,7,5,4,1,2026-04-20T01:13:46.904773+05:30
Vijayawada,Andhra Pradesh,16.5062,80.648,26.7,88,0.0,1001.7,9.2,29.5,52,15.4,12.1,7,5,4,1,2026-04-20T01:13:46.904778+05:30
Guntur,Andhra Pradesh,16.3067,80.4365,27.2,90,0.0,1003.1,9.25,32.8,54,14.4,11.3,7,5,4,1,2026-04-20T01:13:46.904785+05:30
Nellore,Andhra Pradesh,14.4426,79.9865,28.0,82,0.0,1004.5,9.3,34.6,48,11.5,8.9,7,5,4,1,2026-04-20T01:13:46.904792+05:30
Kurnool,Andhra Pradesh,15.8281,78.0373,30.7,54,0.0,975.2,9.25,47.9,92,31.8,27.8,0,5,7,1,2026-04-20T01:13:46.904798+05:30
Kakinada,Andhra Pradesh,16.9891,82.2475,26.5,91,0.0,1006.7,9.2,33.5,47,15.8,10.3,7,5,4,1,2026-04-20T01:13:46.904805+05:30
Tirupati,Andhra Pradesh,13.6288,79.4192,26.7,86,0.0,991.3,9.35,35.6,61,20.1,18.5,7,5,7,1,2026-04-20T01:13:46.904811+05:30
Warangal,Telangana,17.9689,79.5941,29.3,60,0.0,977.3,9.15,33.5,90,25.0,22.6,4,5,7,1,2026-04-20T01:13:46.904817+05:30
Nizamabad,Telangana,18.6725,78.0941,29.5,53,0.0,963.9,9.15,31.3,128,57.0,52.6,4,5,7,1,2026-04-20T01:13:46.904823+05:30
Mysore,Karnataka,12.2958,76.6396,23.7,88,0.0,928.2,9.45,36.7,87,33.6,31.3,3,5,7,1,2026-04-20T01:13:46.904829+05:30
Mangalore,Karnataka,12.9141,74.856,29.9,76,0.0,1006.3,9.1,25.2,76,52.5,34.0,7,5,4,1,2026-04-20T01:13:46.904835+05:30
Hubli-Dharwad,Karnataka,15.3647,75.124,24.3,92,0.0,940.7,9.25,40.7,85,34.9,26.4,3,5,7,1,2026-04-20T01:13:46.904841+05:30
Belgaum,Karnataka,15.8497,74.4977,23.3,96,0.0,925.2,9.25,37.8,95,45.5,35.5,3,5,7,1,2026-04-20T01:13:50.132436+05:30
Coimbatore,Tamil Nadu,11.0168,76.9558,25.4,84,0.0,961.4,9.4,45.4,90,37.3,34.7,7,5,7,1,2026-04-20T01:13:50.132498+05:30
Madurai,Tamil Nadu,9.9252,78.1198,27.2,84,0.0,992.7,9.3,37.1,65,17.3,16.0,7,5,7,1,2026-04-20T01:13:50.132509+05:30
Trichy,Tamil Nadu,10.7905,78.7047,27.2,87,0.0,999.2,9.3,22.3,59,18.1,16.9,7,5,7,1,2026-04-20T01:13:50.132517+05:30
Salem,Tamil Nadu,11.6643,78.146,26.8,75,0.0,976.7,9.4,16.9,63,24.4,21.8,7,5,7,1,2026-04-20T01:13:50.132525+05:30
Tirunelveli,Tamil Nadu,8.7139,77.7567,26.9,75,0.0,1002.8,9.25,50.4,65,22.2,19.2,7,5,4,1,2026-04-20T01:13:50.132535+05:30
Vellore,Tamil Nadu,12.9165,79.1325,26.3,90,0.0,984.1,9.4,29.2,78,34.6,32.8,7,5,7,1,2026-04-20T01:13:50.132542+05:30
Erode,Tamil Nadu,11.341,77.7172,29.1,70,0.0,988.4,9.35,24.5,63,17.9,16.2,7,5,7,1,2026-04-20T01:13:50.132548+05:30
Kochi,Kerala,9.9312,76.2673,28.1,83,0.0,1008.5,9.05,31.7,64,37.1,35.0,7,0,4,1,2026-04-20T01:13:50.132555+05:30
Thiruvananthapuram,Kerala,8.5241,76.9366,28.4,83,0.0,1007.7,9.1,32.0,65,23.3,15.8,7,5,4,1,2026-04-20T01:13:50.132562+05:30
Kozhikode,Kerala,11.2588,75.7804,29.6,79,0.0,1007.4,9.1,29.5,64,36.0,23.2,7,5,4,1,2026-04-20T01:13:50.132569+05:30
Thrissur,Kerala,10.5276,76.2144,27.8,86,0.0,1006.8,9.15,37.8,65,47.5,42.5,7,5,4,1,2026-04-20T01:13:50.132576+05:30
Kannur,Kerala,11.8745,75.3704,29.2,80,0.0,1006.7,9.1,33.1,72,39.9,33.6,7,5,4,1,2026-04-20T01:13:50.132584+05:30
Patna,Bihar,25.5941,85.1376,28.5,77,0.0,996.7,8.5,34.9,129,60.5,51.5,7,5,7,1,2026-04-20T01:13:50.132591+05:30
Gaya,Bihar,24.7914,85.0002,27.6,81,0.0,989.5,8.6,33.1,101,59.0,42.6,7,5,7,1,2026-04-20T01:13:50.132597+05:30
Muzaffarpur,Bihar,26.1209,85.3647,26.7,84,0.0,997.2,8.65,34.9,133,60.5,52.2,7,5,7,1,2026-04-20T01:13:50.132604+05:30
Bhagalpur,Bihar,25.2425,87.0117,26.9,88,0.0,998.0,8.65,25.6,121,47.0,44.1,7,5,7,1,2026-04-20T01:13:50.132609+05:30
Ranchi,Jharkhand,23.3441,85.3096,26.7,49,0.0,935.8,9.2,40.0,91,102.7,33.5,4,5,7,0,2026-04-20T01:13:50.132616+05:30
Jamshedpur,Jharkhand,22.8046,86.2029,29.0,78,0.0,987.9,9.0,29.2,141,62.4,54.4,7,5,7,1,2026-04-20T01:13:50.132622+05:30
Dhanbad,Jharkhand,23.7957,86.4304,29.5,82,0.0,976.6,9.0,44.6,156,103.1,85.0,7,5,7,1,2026-04-20T01:13:50.132628+05:30
Bokaro,Jharkhand,23.6693,86.1511,28.6,83,0.0,980.8,9.0,45.7,142,101.0,68.5,7,5,7,1,2026-04-20T01:13:50.132634+05:30
Bhubaneswar,Odisha,20.2961,85.8245,26.9,91,0.0,1000.0,9.1,29.2,68,17.6,13.8,7,5,4,1,2026-04-20T01:13:50.132640+05:30
Cuttack,Odisha,20.4625,85.8828,27.3,91,0.0,1002.0,9.15,28.8,68,17.6,13.8,7,5,4,1,2026-04-20T01:13:50.132647+05:30
Rourkela,Odisha,22.2604,84.8536,30.4,66,0.0,982.3,8.95,29.9,153,68.5,54.8,3,5,7,1,2026-04-20T01:13:50.132653+05:30
Raipur,Chhattisgarh,21.2514,81.6296,30.0,52,0.0,973.2,8.1,37.1,122,49.6,47.4,4,5,7,1,2026-04-20T01:13:50.132659+05:30
Bhilai,Chhattisgarh,21.1938,81.3509,28.8,59,0.0,973.7,8.5,37.1,120,43.0,40.4,4,5,7,1,2026-04-20T01:13:50.132665+05:30
Guwahati,Assam,26.1158,91.7086,24.4,91,0.0,999.4,8.5,32.4,111,48.5,43.2,3,5,7,1,2026-04-20T01:13:50.132670+05:30
Agartala,Tripura,23.8315,91.2868,25.1,92,0.0,1005.0,8.8,34.9,105,51.8,45.8,7,5,4,1,2026-04-20T01:13:50.132676+05:30
Shillong,Meghalaya,25.5788,91.8933,15.8,90,0.0,854.5,6.35,68.0,77,29.3,25.2,3,10,7,0,2026-04-20T01:13:50.132683+05:30
Imphal,Manipur,24.817,93.9368,19.1,88,0.0,921.7,8.95,80.3,143,53.2,45.4,3,10,7,1,2026-04-20T01:13:50.132689+05:30
Aizawl,Mizoram,23.7271,92.7176,19.8,89,0.0,891.2,9.0,53.6,150,53.8,45.1,3,10,7,1,2026-04-20T01:13:50.132696+05:30
Kohima,Nagaland,25.6701,94.1077,16.6,86,0.0,853.0,8.4,95.8,104,16.8,12.3,3,10,7,0,2026-04-20T01:13:50.132701+05:30
Gangtok,Sikkim,27.3314,88.6138,16.1,93,0.0,836.0,8.9,18.4,56,20.4,18.8,3,10,7,0,2026-04-20T01:13:50.132707+05:30
Siliguri,West Bengal,26.7271,88.3953,22.1,79,0.0,992.3,8.55,28.8,108,39.6,34.6,3,5,7,1,2026-04-20T01:13:53.356922+05:30
Durgapur,West Bengal,23.5204,87.3119,28.0,92,0.0,991.9,8.9,29.9,138,49.7,46.3,7,5,7,1,2026-04-20T01:13:53.356956+05:30
Asansol,West Bengal,23.6739,86.9524,28.7,90,0.0,990.4,8.95,37.1,138,65.4,59.8,7,5,7,1,2026-04-20T01:13:53.356967+05:30
Pondicherry,Puducherry,11.9139,79.8145,26.8,95,0.0,1007.8,9.25,32.4,35,11.8,7.7,7,5,4,1,2026-04-20T01:13:53.356976+05:30
Port Blair,Andaman and Nicobar Islands,11.6234,92.7265,29.0,78,0.0,1006.7,9.05,18.0,51,12.5,10.0,7,5,4,1,2026-04-20T01:13:53.356983+05:30
Haridwar,Uttarakhand,29.9457,78.1642,23.5,64,0.0,971.8,7.1,34.9,68,48.4,28.6,3,5,7,1,2026-04-20T01:13:53.356991+05:30
Rishikesh,Uttarakhand,30.0869,78.2676,22.9,58,0.0,965.0,7.2,36.0,85,76.6,23.3,0,5,7,0,2026-04-20T01:13:53.356998+05:30
Nainital,Uttarakhand,29.3919,79.4542,23.0,30,0.0,806.6,8.05,55.4,83,53.7,20.1,0,5,7,0,2026-04-20T01:13:53.357005+05:30
Mussoorie,Uttarakhand,30.4599,78.0664,19.3,42,0.0,803.1,7.55,45.7,61,47.0,25.1,0,5,7,0,2026-04-20T01:13:53.357012+05:30
Dharamshala,Himachal Pradesh,32.219,76.3234,21.9,27,0.0,869.6,7.8,30.6,48,20.5,10.1,0,5,7,0,2026-04-20T01:13:53.357018+05:30
Dalhousie,Himachal Pradesh,32.5387,75.971,18.3,30,0.0,804.4,8.05,28.8,56,30.5,21.8,0,5,7,0,2026-04-20T01:13:53.357026+05:30
Patiala,Punjab,30.3398,76.3869,23.3,60,0.0,976.2,7.15,29.2,337,899.7,104.1,0,5,7,0,2026-04-20T01:13:53.357033+05:30
Bhatinda,Punjab,30.211,74.9455,25.2,52,0.0,982.2,7.8,30.6,77,68.2,28.2,4,5,7,0,2026-04-20T01:13:53.357039+05:30
Rohtak,Haryana,28.8955,76.6066,22.6,61,0.0,979.4,7.3,26.6,242,1106.4,144.8,3,5,7,0,2026-04-20T01:13:53.357046+05:30
Panipat,Haryana,29.3909,76.9635,23.7,58,0.0,977.8,7.15,27.7,516,1858.9,215.6,0,5,7,0,2026-04-20T01:13:53.357052+05:30
Mathura,Uttar Pradesh,27.4924,77.6737,25.2,48,0.0,984.1,7.6,24.5,389,679.9,112.2,4,5,7,0,2026-04-20T01:13:53.357059+05:30
Vrindavan,Uttar Pradesh,27.5823,77.7027,24.7,50,0.0,984.6,7.6,28.8,389,679.9,112.2,0,5,7,0,2026-04-20T01:13:53.357065+05:30
Ayodhya,Uttar Pradesh,26.7922,82.1998,27.6,51,0.0,991.5,8.1,36.7,108,114.6,33.9,4,5,7,1,2026-04-20T01:13:53.357071+05:30
Ratlam,Madhya Pradesh,23.3315,75.0367,28.2,52,0.0,953.7,8.45,27.4,96,20.8,16.1,4,5,7,1,2026-04-20T01:13:53.357077+05:30
Sagar,Madhya Pradesh,23.8388,78.7378,30.5,36,0.0,948.1,8.25,31.7,76,31.3,22.2,0,5,7,0,2026-04-20T01:13:53.357089+05:30
Satna,Madhya Pradesh,24.6005,80.8322,29.7,47,0.0,968.6,8.4,38.9,75,34.2,14.9,4,5,7,1,2026-04-20T01:13:53.357095+05:30
Akola,Maharashtra,20.7002,77.0082,29.7,56,0.0,973.6,8.85,25.9,81,33.4,30.6,4,5,7,1,2026-04-20T01:13:53.357102+05:30
Amravati,Maharashtra,20.9374,77.7796,27.8,58,0.0,965.8,8.85,18.7,71,34.8,31.8,4,5,7,1,2026-04-20T01:13:53.357109+05:30
Latur,Maharashtra,18.4088,76.5604,26.2,62,0.0,939.3,9.1,30.6,127,86.1,76.4,7,5,7,1,2026-04-20T01:13:53.357115+05:30
Nanded,Maharashtra,19.1383,77.3091,28.0,62,0.0,968.1,9.0,19.8,93,39.3,35.7,7,5,7,1,2026-04-20T01:13:53.357122+05:30
Gulbarga,Karnataka,17.3297,76.8343,25.8,68,0.0,958.8,9.15,44.3,112,60.8,56.1,7,5,7,1,2026-04-20T01:13:53.357128+05:30
Bidar,Karnataka,17.9104,77.5199,26.4,63,0.0,935.7,9.15,32.0,117,54.9,50.8,7,5,7,1,2026-04-20T01:13:53.357134+05:30
Hospet,Karnataka,15.2689,76.3909,27.2,79,0.0,955.6,9.3,32.4,121,39.1,36.4,7,5,7,1,2026-04-20T01:13:53.357140+05:30
Tirupur,Tamil Nadu,11.1085,77.3411,26.9,80,0.0,974.7,9.45,31.0,76,29.5,26.7,7,5,7,1,2026-04-20T01:13:53.357145+05:30
Alappuzha,Kerala,9.4981,76.3388,27.9,85,0.0,1008.6,8.05,29.2,72,37.7,30.5,7,0,4,1,2026-04-20T01:13:53.357152+05:30
Munnar,Kerala,10.0889,77.0595,21.0,98,0.0,856.5,9.65,31.7,77,32.1,29.5,3,5,7,1,2026-04-20T01:13:53.357158+05:30
Silchar,Assam,24.8333,92.7789,24.1,91,0.0,1003.7,8.8,36.4,150,55.2,43.2,3,5,4,1,2026-04-20T01:13:53.357164+05:30
Dibrugarh,Assam,27.4728,94.912,23.9,92,0.0,993.3,6.7,15.8,141,65.2,53.0,3,5,7,1,2026-04-20T01:13:53.357170+05:30
