city,state,latitude,longitude,temp,humidity,rain,pressure,uv_index,wind_gusts,aqi,pm10,pm2_5,mosquito_risk,arthritis_risk,migraine_risk,frizz_risk,updated_at
Delhi,Delhi,28.6139,77.209,21.2,69,0.0,986.5,6.45,23.8,183,466.6,104.8,3,5,7,0,2026-03-23T02:02:29.202859+05:30
Mumbai,Maharashtra,19.076,72.8777,29.0,56,0.0,1009.3,7.95,27.0,111,49.1,35.7,4,0,4,1,2026-03-23T02:02:29.202905+05:30
Bangalore,Karnataka,12.9716,77.5946,23.2,77,0.0,912.6,9.45,25.9,121,51.6,44.6,3,5,7,1,2026-03-23T02:02:29.202921+05:30
Hyderabad,Telangana,17.385,78.4867,23.9,80,0.0,954.9,8.95,22.7,100,32.2,26.1,3,5,7,1,2026-03-23T02:02:29.202931+05:30
Chennai,Tamil Nadu,13.0827,80.2707,26.4,82,0.0,1009.1,9.2,32.8,36,12.5,8.3,7,0,4,1,2026-03-23T02:02:29.202940+05:30
Kolkata,West Bengal,22.5726,88.3639,21.8,86,0.0,1010.2,8.3,19.1,150,89.4,85.9,3,0,4,1,2026-03-23T02:02:29.202949+05:30
Pune,Maharashtra,18.5204,73.8567,24.8,58,0.0,949.9,8.45,38.5,74,42.6,30.4,0,5,7,0,2026-03-23T02:02:29.202962+05:30
Ahmedabad,Gujarat,23.0225,72.5714,24.0,65,0.0,1004.8,7.85,29.2,78,85.2,52.0,3,5,4,1,2026-03-23T02:02:29.202970+05:30
Jaipur,Rajasthan,26.9124,75.7873,21.8,57,0.0,962.4,6.8,24.5,92,81.0,35.0,0,5,7,0,2026-03-23T02:02:29.202978+05:30
Lucknow,Uttar Pradesh,26.8467,80.9462,20.6,67,0.0,997.4,6.3,37.8,128,424.7,76.6,3,5,7,0,2026-03-23T02:02:29.202986+05:30
Kanpur,Uttar Pradesh,26.4499,80.3319,20.9,74,0.0,995.4,6.4,28.4,173,523.4,88.5,3,5,7,1,2026-03-23T02:02:29.202994+05:30
Chandigarh,Chandigarh,30.7333,76.7794,17.8,82,0.0,971.9,6.4,25.9,97,55.3,49.7,3,10,7,0,2026-03-23T02:02:29.203002+05:30
Srinagar,Jammu and Kashmir,34.0837,74.7973,7.4,91,0.0,839.7,5.85,17.3,119,73.3,67.1,3,10,3,0,2026-03-23T02:02:29.203009+05:30
Jammu,Jammu and Kashmir,32.7266,74.857,17.7,89,0.0,976.0,7.05,20.5,104,54.2,50.6,3,10,7,0,2026-03-23T02:02:29.203016+05:30
Amritsar,Punjab,31.634,74.8723,18.6,75,0.0,984.3,7.05,22.0,154,104.3,77.8,3,5,7,0,2026-03-23T02:02:29.203023+05:30
Ludhiana,Punjab,30.901,75.8573,19.4,74,0.0,982.4,6.65,25.2,142,114.8,66.8,3,5,7,0,2026-03-23T02:02:29.203030+05:30
Jalandhar,Punjab,31.326,75.5762,18.9,77,0.0,983.5,6.85,27.0,152,98.0,71.5,3,5,7,0,2026-03-23T02:02:29.203039+05:30
Dehradun,Uttarakhand,30.6284,78.0322,10.9,92,0.0,829.5,6.8,23.4,66,32.6,28.3,3,10,7,0,2026-03-23T02:02:29.203045+05:30
Shimla,Himachal Pradesh,31.1048,77.1734,8.6,89,0.0,782.5,6.9,31.7,71,40.9,35.5,3,10,7,0,2026-03-23T02:02:29.203052+05:30
Manali,Himachal Pradesh,32.2396,77.1887,11.3,39,0.0,817.4,8.25,26.6,61,26.3,17.2,0,5,7,1,2026-03-23T02:02:29.203059+05:30
Gurgaon,Haryana,28.4595,77.0266,18.9,81,0.0,984.9,6.55,20.2,479,532.7,111.5,3,10,7,0,2026-03-23T02:02:29.203066+05:30
Noida,Uttar Pradesh,28.5355,77.391,21.1,70,0.0,988.0,6.45,22.7,479,532.7,111.5,3,5,7,0,2026-03-23T02:02:29.203073+05:30
Ghaziabad,Uttar Pradesh,28.6692,77.4538,19.4,77,0.0,986.2,6.35,23.8,164,472.2,101.0,3,5,7,0,2026-03-23T02:02:29.203079+05:30
Faridabad,Haryana,28.4089,77.3178,19.6,75,0.0,987.2,6.45,19.4,479,532.7,111.5,3,5,7,0,2026-03-23T02:02:29.203086+05:30
Meerut,Uttar Pradesh,28.9845,77.7064,18.1,82,0.0,984.8,6.35,24.8,164,472.2,101.0,3,10,7,0,2026-03-23T02:02:29.203093+05:30
Agra,Uttar Pradesh,27.1767,78.0081,21.0,66,0.0,991.3,5.2,28.1,455,482.4,88.9,3,5,3,0,2026-03-23T02:02:29.203100+05:30
Varanasi,Uttar Pradesh,25.3176,82.9739,19.6,78,0.0,1001.5,7.65,25.9,107,77.5,44.5,3,5,4,0,2026-03-23T02:02:29.203109+05:30
Prayagraj,Uttar Pradesh,25.4358,81.8463,21.4,61,0.0,1000.0,7.55,20.5,113,206.3,54.0,3,5,4,0,2026-03-23T02:02:29.203116+05:30
Gorakhpur,Uttar Pradesh,26.7606,83.3732,18.8,87,0.0,1001.3,7.4,20.5,154,51.0,48.1,3,10,4,1,2026-03-23T02:02:29.203122+05:30
Bareilly,Uttar Pradesh,28.367,79.4304,17.9,84,0.0,990.3,6.5,28.1,119,183.9,56.3,3,10,7,0,2026-03-23T02:02:29.203132+05:30
Aligarh,Uttar Pradesh,27.8974,78.088,18.5,78,0.0,988.9,6.0,23.8,370,443.3,97.1,3,5,3,0,2026-03-23T02:02:29.203138+05:30
Moradabad,Uttar Pradesh,28.8386,78.7733,18.0,81,0.0,987.0,6.5,27.0,140,323.2,80.1,3,10,7,0,2026-03-23T02:02:29.203144+05:30
Saharanpur,Uttar Pradesh,29.9637,77.546,17.2,84,0.0,978.9,6.15,28.1,152,221.7,82.2,3,10,7,0,2026-03-23T02:02:29.203150+05:30
Jhansi,Uttar Pradesh,25.4484,78.5685,22.6,54,0.0,981.1,7.4,20.2,81,54.6,30.3,0,5,7,0,2026-03-23T02:02:32.536145+05:30
Surat,Gujarat,21.1702,72.8311,24.9,75,0.0,1008.9,7.65,25.2,117,67.5,49.6,3,0,4,1,2026-03-23T02:02:32.536174+05:30
Vadodara,Gujarat,22.3072,73.1812,25.7,52,0.0,1006.8,7.8,23.0,83,53.9,33.2,4,5,4,0,2026-03-23T02:02:32.536184+05:30
Rajkot,Gujarat,22.3039,70.8022,23.6,86,0.0,997.3,7.65,30.6,66,32.0,19.2,3,5,7,1,2026-03-23T02:02:32.536193+05:30
Thane,Maharashtra,19.2183,72.9781,27.5,48,0.0,1008.8,7.9,41.4,111,49.1,35.7,4,0,4,0,2026-03-23T02:02:32.536201+05:30
Nagpur,Maharashtra,21.1458,79.0882,24.1,52,0.0,975.9,7.95,22.7,59,31.2,23.5,0,5,7,0,2026-03-23T02:02:32.536208+05:30
Nashik,Maharashtra,19.9975,73.7898,22.9,59,0.0,947.3,8.15,35.6,76,35.4,20.4,0,5,7,0,2026-03-23T02:02:32.536215+05:30
Aurangabad,Maharashtra,19.8762,75.3433,23.0,51,0.0,945.6,8.6,19.8,59,44.7,33.3,0,5,7,0,2026-03-23T02:02:32.536222+05:30
Solapur,Maharashtra,17.6599,75.9064,23.9,55,0.0,957.7,8.75,22.0,59,16.9,14.6,0,5,7,0,2026-03-23T02:02:32.536229+05:30
Kolhapur,Maharashtra,16.705,74.2433,19.1,76,0.0,948.3,8.9,38.5,88,36.3,32.4,3,5,7,0,2026-03-23T02:02:32.536237+05:30
Goa,Goa,15.2993,74.124,27.1,86,0.0,998.7,8.9,34.2,89,52.9,43.9,7,5,7,1,2026-03-23T02:02:32.536244+05:30
Jodhpur,Rajasthan,26.2389,73.0243,23.4,74,0.0,986.4,7.4,18.7,69,122.9,25.0,3,5,7,1,2026-03-23T02:02:32.536250+05:30
Udaipur,Rajasthan,24.5854,73.7125,21.9,55,0.0,948.9,8.05,30.6,58,50.9,18.2,0,5,7,0,2026-03-23T02:02:32.536257+05:30
Kota,Rajasthan,25.2138,75.8648,24.3,52,0.0,981.2,7.45,22.7,89,40.3,28.0,0,5,7,0,2026-03-23T02:02:32.536264+05:30
Bikaner,Rajasthan,28.0229,73.3119,22.3,71,0.0,985.7,7.25,15.1,69,48.5,19.6,3,5,7,1,2026-03-23T02:02:32.536270+05:30
Ajmer,Rajasthan,26.4499,74.6399,22.9,57,0.0,957.4,7.2,25.2,66,44.1,17.0,0,5,7,0,2026-03-23T02:02:32.536277+05:30
Gwalior,Madhya Pradesh,26.2183,78.1828,22.4,63,0.0,986.4,6.95,25.6,126,124.8,33.6,3,5,7,0,2026-03-23T02:02:32.536283+05:30
Indore,Madhya Pradesh,22.7196,75.8577,21.5,59,0.0,949.8,8.1,22.3,63,35.9,24.4,0,5,7,0,2026-03-23T02:02:32.536290+05:30
Bhopal,Madhya Pradesh,23.2599,77.4126,22.3,47,0.0,955.7,8.0,30.2,55,25.0,14.5,0,5,7,0,2026-03-23T02:02:32.536297+05:30
Jabalpur,Madhya Pradesh,23.1815,79.9864,22.1,55,0.0,964.1,8.1,21.2,62,63.6,28.5,0,5,7,0,2026-03-23T02:02:32.536303+05:30
Ujjain,Madhya Pradesh,23.1765,75.7885,21.6,56,0.0,955.7,8.0,20.5,75,65.9,55.2,0,5,7,0,2026-03-23T02:02:32.536310+05:30
Visakhapatnam,Andhra Pradesh,17.6868,83.2185,24.3,89,0.0,1006.3,8.9,36.0,75,26.9,22.5,3,5,4,1,2026-03-23T02:02:32.536317+05:30
Vijayawada,Andhra Pradesh,16.5062,80.648,25.3,89,0.0,1005.1,8.95,25.6,66,24.2,20.7,7,5,4,1,2026-03-23T02:02:32.536323+05:30
Guntur,Andhra Pradesh,16.3067,80.4365,24.9,94,0.0,1006.2,8.95,29.2,66,24.4,21.1,3,5,4,1,2026-03-23T02:02:32.536330+05:30
Nellore,Andhra Pradesh,14.4426,79.9865,25.4,89,0.0,1008.0,9.1,28.8,46,10.4,6.8,7,0,4,1,2026-03-23T02:02:32.536337+05:30
Kurnool,Andhra Pradesh,15.8281,78.0373,27.1,69,0.0,978.4,8.95,25.2,78,24.9,20.8,7,5,7,1,2026-03-23T02:02:32.536345+05:30
Kakinada,Andhra Pradesh,16.9891,82.2475,22.7,96,0.0,1009.9,8.9,31.3,44,17.9,12.6,3,0,4,1,2026-03-23T02:02:32.536352+05:30
Tirupati,Andhra Pradesh,13.6288,79.4192,23.7,83,0.0,993.8,9.2,30.6,67,27.1,23.2,3,5,7,1,2026-03-23T02:02:32.536359+05:30
Warangal,Telangana,17.9689,79.5941,25.1,79,0.0,980.8,8.8,22.3,123,49.5,43.1,7,5,7,1,2026-03-23T02:02:32.536365+05:30
Nizamabad,Telangana,18.6725,78.0941,24.7,76,0.0,966.6,8.7,20.9,82,56.6,50.2,3,5,7,1,2026-03-23T02:02:32.536372+05:30
Mysore,Karnataka,12.2958,76.6396,23.2,83,0.0,929.0,9.4,33.5,99,60.5,48.8,3,5,7,1,2026-03-23T02:02:32.536378+05:30
Mangalore,Karnataka,12.9141,74.856,29.3,77,0.0,1007.6,9.1,24.5,75,38.4,27.9,7,5,4,1,2026-03-23T02:02:32.536385+05:30
Hubli-Dharwad,Karnataka,15.3647,75.124,22.2,80,0.0,941.5,9.1,40.3,69,31.1,23.2,3,5,7,1,2026-03-23T02:02:32.536392+05:30
Belgaum,Karnataka,15.8497,74.4977,22.2,70,0.0,926.2,9.15,38.9,75,37.5,30.0,3,5,7,1,2026-03-23T02:02:35.867112+05:30
Coimbatore,Tamil Nadu,11.0168,76.9558,23.8,85,0.0,963.2,9.4,34.6,86,44.0,36.1,3,5,7,1,2026-03-23T02:02:35.867141+05:30
Madurai,Tamil Nadu,9.9252,78.1198,25.5,86,0.0,994.9,9.35,26.3,65,28.2,24.7,7,5,7,1,2026-03-23T02:02:35.867151+05:30
Trichy,Tamil Nadu,10.7905,78.7047,25.1,93,0.0,1001.7,9.3,22.7,65,21.3,17.6,7,5,4,1,2026-03-23T02:02:35.867160+05:30
Salem,Tamil Nadu,11.6643,78.146,25.6,76,0.0,978.8,9.35,22.3,84,36.2,31.1,7,5,7,1,2026-03-23T02:02:35.867168+05:30
Tirunelveli,Tamil Nadu,8.7139,77.7567,25.6,76,0.0,1004.6,9.3,34.2,70,40.4,37.5,7,5,4,1,2026-03-23T02:02:35.867176+05:30
Vellore,Tamil Nadu,12.9165,79.1325,23.1,84,0.0,986.6,9.3,34.2,82,36.2,31.5,3,5,7,1,2026-03-23T02:02:35.867183+05:30
Erode,Tamil Nadu,11.341,77.7172,26.6,81,0.0,990.8,9.35,20.9,66,20.0,17.2,7,5,7,1,2026-03-23T02:02:35.867191+05:30
Kochi,Kerala,9.9312,76.2673,26.8,82,0.0,1009.9,9.15,28.8,79,41.0,38.0,7,0,4,1,2026-03-23T02:02:35.867199+05:30
Thiruvananthapuram,Kerala,8.5241,76.9366,27.8,77,0.0,1008.7,9.15,26.3,85,19.9,15.5,7,0,4,1,2026-03-23T02:02:35.867206+05:30
Kozhikode,Kerala,11.2588,75.7804,27.1,85,0.0,1009.1,9.05,25.2,67,37.1,19.8,7,0,4,1,2026-03-23T02:02:35.867213+05:30
Thrissur,Kerala,10.5276,76.2144,26.3,85,0.0,1008.3,9.15,35.6,79,46.2,40.0,7,0,4,1,2026-03-23T02:02:35.867220+05:30
Kannur,Kerala,11.8745,75.3704,28.5,79,0.0,1007.8,9.1,27.0,70,36.9,25.0,7,5,4,1,2026-03-23T02:02:35.867227+05:30
Patna,Bihar,25.5941,85.1376,20.1,82,0.0,1005.0,7.85,22.0,159,63.8,60.5,3,5,4,1,2026-03-23T02:02:35.867234+05:30
Gaya,Bihar,24.7914,85.0002,19.0,87,0.0,998.3,7.95,18.7,135,58.7,52.0,3,10,7,1,2026-03-23T02:02:35.867240+05:30
Muzaffarpur,Bihar,26.1209,85.3647,18.6,82,0.0,1005.1,7.8,19.8,161,62.2,59.8,3,10,4,0,2026-03-23T02:02:35.867247+05:30
Bhagalpur,Bihar,25.2425,87.0117,19.9,81,0.0,1005.8,7.85,12.6,156,86.8,80.6,3,10,4,1,2026-03-23T02:02:35.867254+05:30
Ranchi,Jharkhand,23.3441,85.3096,17.7,69,0.0,940.3,8.55,27.0,87,59.0,30.9,3,5,7,0,2026-03-23T02:02:35.867261+05:30
Jamshedpur,Jharkhand,22.8046,86.2029,22.7,66,0.0,994.8,8.4,16.6,123,86.6,72.4,3,5,7,0,2026-03-23T02:02:35.867268+05:30
Dhanbad,Jharkhand,23.7957,86.4304,20.0,80,0.0,983.8,8.3,19.1,147,97.8,87.1,3,5,7,1,2026-03-23T02:02:35.867275+05:30
Bokaro,Jharkhand,23.6693,86.1511,20.4,74,0.0,988.1,8.3,16.2,147,109.4,90.1,3,5,7,0,2026-03-23T02:02:35.867281+05:30
Bhubaneswar,Odisha,20.2961,85.8245,23.8,94,0.0,1005.9,8.7,31.3,94,52.2,43.3,3,5,4,1,2026-03-23T02:02:35.867288+05:30
Cuttack,Odisha,20.4625,85.8828,23.6,93,0.0,1008.0,8.75,27.4,94,52.2,43.3,3,0,4,1,2026-03-23T02:02:35.867295+05:30
Rourkela,Odisha,22.2604,84.8536,19.7,83,0.0,988.2,8.3,20.5,83,50.9,34.6,3,10,7,1,2026-03-23T02:02:35.867301+05:30
Raipur,Chhattisgarh,21.2514,81.6296,21.6,48,0.0,977.6,8.45,21.6,86,89.4,78.2,0,5,7,0,2026-03-23T02:02:35.867308+05:30
Bhilai,Chhattisgarh,21.1938,81.3509,21.1,51,0.0,978.0,8.45,20.5,94,86.8,71.9,0,5,7,0,2026-03-23T02:02:35.867314+05:30
Guwahati,Assam,26.1158,91.7086,20.5,93,0.0,1005.5,7.6,19.8,79,32.1,28.1,3,5,4,1,2026-03-23T02:02:35.867320+05:30
Agartala,Tripura,23.8315,91.2868,19.7,88,0.0,1010.6,8.05,16.6,149,90.8,86.1,3,5,4,1,2026-03-23T02:02:35.867327+05:30
Shillong,Meghalaya,25.5788,91.8933,8.3,93,0.0,854.4,7.25,25.6,60,22.7,20.2,3,10,7,0,2026-03-23T02:02:35.867333+05:30
Imphal,Manipur,24.817,93.9368,13.9,88,0.0,924.7,8.35,31.0,60,26.0,24.2,3,10,7,0,2026-03-23T02:02:35.867340+05:30
Aizawl,Mizoram,23.7271,92.7176,14.2,85,0.0,893.5,8.3,30.6,45,22.5,20.9,3,10,7,0,2026-03-23T02:02:35.867346+05:30
Kohima,Nagaland,25.6701,94.1077,10.8,88,0.0,854.2,6.85,41.4,53,18.1,16.7,3,10,7,0,2026-03-23T02:02:35.867353+05:30
Gangtok,Sikkim,27.3314,88.6138,10.9,93,0.0,836.5,7.35,19.4,55,20.5,20.1,3,10,7,0,2026-03-23T02:02:35.867360+05:30
Siliguri,West Bengal,26.7271,88.3953,17.2,74,0.0,997.7,7.05,22.3,101,50.3,48.4,3,5,7,0,2026-03-23T02:02:39.207685+05:30
Durgapur,West Bengal,23.5204,87.3119,21.6,76,0.0,999.4,8.25,16.6,141,97.3,93.6,3,5,7,1,2026-03-23T02:02:39.207720+05:30
Asansol,West Bengal,23.6739,86.9524,21.9,72,0.0,998.0,8.3,16.9,122,61.2,57.4,3,5,7,1,2026-03-23T02:02:39.207731+05:30
Pondicherry,Puducherry,11.9139,79.8145,24.1,97,0.0,1010.4,9.2,29.9,34,12.1,7.3,3,0,4,1,2026-03-23T02:02:39.207742+05:30
Port Blair,Andaman and Nicobar Islands,11.6234,92.7265,27.8,82,0.0,1007.9,9.1,25.2,41,9.2,6.7,7,5,4,1,2026-03-23T02:02:39.207751+05:30
Haridwar,Uttarakhand,29.9457,78.1642,16.6,91,0.0,977.3,6.3,26.3,123,131.8,65.9,3,10,7,0,2026-03-23T02:02:39.207761+05:30
Rishikesh,Uttarakhand,30.0869,78.2676,17.7,75,0.0,969.9,6.4,22.7,86,85.9,45.3,3,5,7,0,2026-03-23T02:02:39.207770+05:30
Nainital,Uttarakhand,29.3919,79.4542,13.8,71,0.0,805.6,7.2,37.1,78,53.7,36.4,3,5,7,0,2026-03-23T02:02:39.207780+05:30
Mussoorie,Uttarakhand,30.4599,78.0664,12.4,76,0.0,802.1,6.75,27.7,92,95.2,54.7,3,5,7,0,2026-03-23T02:02:39.207789+05:30
Dharamshala,Himachal Pradesh,32.219,76.3234,15.8,68,0.0,869.7,6.95,19.1,95,24.1,15.9,3,5,7,0,2026-03-23T02:02:39.207798+05:30
Dalhousie,Himachal Pradesh,32.5387,75.971,11.8,76,0.0,802.7,7.1,21.2,91,48.4,44.7,3,5,7,0,2026-03-23T02:02:39.207807+05:30
Patiala,Punjab,30.3398,76.3869,17.7,85,0.0,981.6,6.3,24.5,160,160.7,68.9,3,10,7,0,2026-03-23T02:02:39.207815+05:30
Bhatinda,Punjab,30.211,74.9455,19.0,83,0.0,987.7,7.0,20.9,151,145.8,75.0,3,10,7,0,2026-03-23T02:02:39.207824+05:30
Rohtak,Haryana,28.8955,76.6066,18.6,81,0.0,985.2,6.5,21.2,196,455.4,99.0,3,10,7,0,2026-03-23T02:02:39.207833+05:30
Panipat,Haryana,29.3909,76.9635,17.4,84,0.0,983.8,6.3,22.7,456,386.5,94.3,3,10,7,0,2026-03-23T02:02:39.207841+05:30
Mathura,Uttar Pradesh,27.4924,77.6737,19.0,76,0.0,990.1,4.7,20.5,292,416.3,90.6,3,5,3,0,2026-03-23T02:02:39.207849+05:30
Vrindavan,Uttar Pradesh,27.5823,77.7027,19.3,74,0.0,990.6,5.05,20.5,292,416.3,90.6,3,5,3,0,2026-03-23T02:02:39.207857+05:30
Ayodhya,Uttar Pradesh,26.7922,82.1998,19.4,83,0.0,999.4,6.8,27.0,105,170.4,47.0,3,10,7,1,2026-03-23T02:02:39.207865+05:30
Ratlam,Madhya Pradesh,23.3315,75.0367,23.7,49,0.0,956.4,7.95,24.1,70,48.8,36.9,0,5,7,0,2026-03-23T02:02:39.207872+05:30
Sagar,Madhya Pradesh,23.8388,78.7378,22.1,52,0.0,952.5,8.0,28.8,60,43.8,21.5,0,5,7,0,2026-03-23T02:02:39.207880+05:30
Satna,Madhya Pradesh,24.6005,80.8322,20.8,55,0.0,974.6,7.95,19.1,76,93.4,30.7,0,5,7,0,2026-03-23T02:02:39.207887+05:30
Akola,Maharashtra,20.7002,77.0082,24.5,49,0.0,977.3,8.0,16.6,55,34.2,28.0,0,5,7,0,2026-03-23T02:02:39.207896+05:30
Amravati,Maharashtra,20.9374,77.7796,22.9,55,0.0,969.4,8.35,16.9,52,32.4,25.4,0,5,7,0,2026-03-23T02:02:39.207904+05:30
Latur,Maharashtra,18.4088,76.5604,22.3,55,0.0,940.9,8.5,18.4,65,28.2,21.2,0,5,7,0,2026-03-23T02:02:39.207912+05:30
Nanded,Maharashtra,19.1383,77.3091,24.9,50,0.0,970.4,8.55,18.7,57,19.9,18.2,0,5,7,0,2026-03-23T02:02:39.207919+05:30
Gulbarga,Karnataka,17.3297,76.8343,26.9,50,0.0,960.1,8.8,31.7,81,31.5,26.5,4,5,7,0,2026-03-23T02:02:39.207925+05:30
Bidar,Karnataka,17.9104,77.5199,24.7,72,0.0,937.1,8.8,21.2,84,33.4,27.6,3,5,7,1,2026-03-23T02:02:39.207931+05:30
Hospet,Karnataka,15.2689,76.3909,26.1,70,0.0,956.7,9.05,43.2,91,42.3,33.1,7,5,7,1,2026-03-23T02:02:39.207938+05:30
Tirupur,Tamil Nadu,11.1085,77.3411,25.6,76,0.0,977.1,9.45,32.4,83,36.6,30.9,7,5,7,1,2026-03-23T02:02:39.207945+05:30
Alappuzha,Kerala,9.4981,76.3388,26.7,81,0.0,1009.9,9.15,29.5,67,42.5,35.0,7,0,4,1,2026-03-23T02:02:39.207951+05:30
Munnar,Kerala,10.0889,77.0595,20.2,87,0.0,857.2,9.65,25.6,70,35.2,28.1,3,5,7,1,2026-03-23T02:02:39.207958+05:30
Silchar,Assam,24.8333,92.7789,19.3,94,0.0,1009.5,8.0,13.7,85,48.1,43.2,3,5,4,1,2026-03-23T02:02:39.207964+05:30
Dibrugarh,Assam,27.4728,94.912,20.0,94,0.0,999.6,7.6,14.4,104,12.0,11.3,3,5,7,1,2026-03-23T02:02:39.207970+05:30
