city,state,latitude,longitude,temp,humidity,rain,pressure,uv_index,wind_gusts,aqi,pm10,pm2_5,mosquito_risk,arthritis_risk,migraine_risk,frizz_risk,updated_at
Delhi,Delhi,28.6139,77.209,24.8,60,0.0,986.1,5.8,32.8,330,252.4,58.3,0,5,3,1,2026-04-03T22:15:10.446377+05:30
Mumbai,Maharashtra,19.076,72.8777,27.9,78,0.0,1011.0,7.45,24.5,78,56.6,22.5,7,0,4,1,2026-04-03T22:15:10.446438+05:30
Bangalore,Karnataka,12.9716,77.5946,26.3,56,0.0,913.7,9.6,28.8,138,50.5,46.8,4,5,7,1,2026-04-03T22:15:10.446452+05:30
Hyderabad,Telangana,17.385,78.4867,29.5,45,0.0,954.4,8.85,18.7,89,38.0,33.4,4,5,7,1,2026-04-03T22:15:10.446463+05:30
Chennai,Tamil Nadu,13.0827,80.2707,28.5,78,0.0,1009.4,9.3,36.7,44,11.0,8.3,7,0,4,1,2026-04-03T22:15:10.446471+05:30
Kolkata,West Bengal,22.5726,88.3639,27.7,89,0.0,1006.4,8.65,19.8,88,18.8,16.8,7,5,4,1,2026-04-03T22:15:10.446480+05:30
Pune,Maharashtra,18.5204,73.8567,24.8,67,0.0,950.6,8.5,36.4,132,39.3,34.1,3,5,7,1,2026-04-03T22:15:10.446492+05:30
Ahmedabad,Gujarat,23.0225,72.5714,27.4,56,0.0,1004.1,7.2,42.1,65,31.0,14.9,4,5,4,1,2026-04-03T22:15:10.446500+05:30
Jaipur,Rajasthan,26.9124,75.7873,23.9,72,0.0,962.3,7.45,55.8,131,110.8,35.4,3,5,7,1,2026-04-03T22:15:10.446507+05:30
Lucknow,Uttar Pradesh,26.8467,80.9462,27.8,56,0.0,994.9,6.75,28.8,110,183.9,49.8,4,5,7,1,2026-04-03T22:15:10.446515+05:30
Kanpur,Uttar Pradesh,26.4499,80.3319,26.2,66,0.0,993.7,5.2,29.5,157,286.8,54.7,7,5,3,1,2026-04-03T22:15:10.446522+05:30
Chandigarh,Chandigarh,30.7333,76.7794,21.1,79,0.0,971.8,5.85,49.3,92,52.4,34.9,3,5,3,1,2026-04-03T22:15:10.446529+05:30
Srinagar,Jammu and Kashmir,34.0837,74.7973,9.5,90,0.6,841.2,6.65,35.3,100,42.1,35.9,6,10,7,0,2026-04-03T22:15:10.446537+05:30
Jammu,Jammu and Kashmir,32.7266,74.857,20.3,79,0.0,975.4,5.1,35.3,70,25.3,15.4,3,5,3,1,2026-04-03T22:15:10.446545+05:30
Amritsar,Punjab,31.634,74.8723,19.0,95,0.0,983.6,4.55,57.6,87,62.4,24.1,3,10,3,1,2026-04-03T22:15:10.446552+05:30
Ludhiana,Punjab,30.901,75.8573,20.1,90,0.0,982.1,4.9,45.4,105,129.9,41.4,3,5,3,1,2026-04-03T22:15:10.446558+05:30
Jalandhar,Punjab,31.326,75.5762,19.9,93,0.0,983.1,5.85,41.8,88,72.4,36.1,3,10,3,1,2026-04-03T22:15:10.446567+05:30
Dehradun,Uttarakhand,30.6284,78.0322,15.6,71,0.0,832.4,5.7,33.1,79,33.1,18.3,3,5,3,0,2026-04-03T22:15:10.446574+05:30
Shimla,Himachal Pradesh,31.1048,77.1734,13.0,85,0.0,785.6,5.95,48.6,81,29.7,18.7,3,10,3,0,2026-04-03T22:15:10.446580+05:30
Manali,Himachal Pradesh,32.2396,77.1887,13.8,86,0.0,821.5,7.1,46.1,54,8.5,4.7,3,10,7,0,2026-04-03T22:15:10.446587+05:30
Gurgaon,Haryana,28.4595,77.0266,23.4,65,0.0,984.3,6.45,32.0,722,272.9,64.0,3,5,7,1,2026-04-03T22:15:10.446593+05:30
Noida,Uttar Pradesh,28.5355,77.391,24.7,61,0.0,987.4,6.1,29.5,722,272.9,64.0,3,5,7,1,2026-04-03T22:15:10.446600+05:30
Ghaziabad,Uttar Pradesh,28.6692,77.4538,24.3,64,0.0,985.5,6.25,30.6,220,303.6,82.4,3,5,7,1,2026-04-03T22:15:10.446607+05:30
Faridabad,Haryana,28.4089,77.3178,24.4,59,0.0,986.7,6.5,30.2,722,272.9,64.0,0,5,7,0,2026-04-03T22:15:10.446617+05:30
Meerut,Uttar Pradesh,28.9845,77.7064,23.3,67,0.0,983.9,6.1,26.3,220,303.6,82.4,3,5,7,1,2026-04-03T22:15:10.446624+05:30
Agra,Uttar Pradesh,27.1767,78.0081,26.5,52,0.0,990.4,7.35,35.6,653,765.5,98.5,4,5,7,0,2026-04-03T22:15:10.446630+05:30
Varanasi,Uttar Pradesh,25.3176,82.9739,26.8,69,0.0,999.0,7.8,32.0,87,36.1,30.9,7,5,7,1,2026-04-03T22:15:10.446644+05:30
Prayagraj,Uttar Pradesh,25.4358,81.8463,28.7,60,0.0,997.7,7.25,36.7,88,50.2,40.0,4,5,7,1,2026-04-03T22:15:10.446653+05:30
Gorakhpur,Uttar Pradesh,26.7606,83.3732,25.9,61,0.0,997.8,7.1,39.6,104,45.2,25.8,7,5,7,1,2026-04-03T22:15:10.446660+05:30
Bareilly,Uttar Pradesh,28.367,79.4304,24.1,75,0.0,988.9,6.25,19.1,135,93.1,51.6,3,5,7,1,2026-04-03T22:15:10.446666+05:30
Aligarh,Uttar Pradesh,27.8974,78.088,24.2,62,0.0,988.0,7.1,28.1,596,460.1,77.1,3,5,7,1,2026-04-03T22:15:10.446672+05:30
Moradabad,Uttar Pradesh,28.8386,78.7733,23.3,81,0.0,986.0,6.05,20.5,147,158.3,59.4,3,5,7,1,2026-04-03T22:15:10.446678+05:30
Saharanpur,Uttar Pradesh,29.9637,77.546,23.0,74,0.0,978.7,6.55,29.9,131,163.0,56.2,3,5,7,1,2026-04-03T22:15:10.446685+05:30
Jhansi,Uttar Pradesh,25.4484,78.5685,26.7,54,0.0,980.7,7.7,40.3,81,37.0,23.3,4,5,7,1,2026-04-03T22:15:13.749735+05:30
Surat,Gujarat,21.1702,72.8311,27.0,82,0.0,1009.0,7.65,30.6,94,40.3,24.9,7,0,4,1,2026-04-03T22:15:13.749761+05:30
Vadodara,Gujarat,22.3072,73.1812,27.3,65,0.0,1006.4,7.85,33.1,77,50.4,27.1,7,5,4,1,2026-04-03T22:15:13.749770+05:30
Rajkot,Gujarat,22.3039,70.8022,25.5,69,0.0,996.5,7.15,45.4,61,16.1,9.0,7,5,7,1,2026-04-03T22:15:13.749779+05:30
Thane,Maharashtra,19.2183,72.9781,26.9,79,0.0,1010.5,7.6,37.1,78,56.6,22.5,7,0,4,1,2026-04-03T22:15:13.749786+05:30
Nagpur,Maharashtra,21.1458,79.0882,27.6,70,0.0,975.4,8.7,23.4,116,46.7,40.4,7,5,7,1,2026-04-03T22:15:13.749794+05:30
Nashik,Maharashtra,19.9975,73.7898,23.1,79,0.0,947.9,7.95,40.0,66,34.3,17.8,3,5,7,1,2026-04-03T22:15:13.749802+05:30
Aurangabad,Maharashtra,19.8762,75.3433,26.4,55,0.0,946.2,8.85,30.2,99,46.3,40.4,4,5,7,1,2026-04-03T22:15:13.749809+05:30
Solapur,Maharashtra,17.6599,75.9064,26.7,63,0.0,959.3,8.95,31.7,130,47.7,41.8,7,5,7,1,2026-04-03T22:15:13.749818+05:30
Kolhapur,Maharashtra,16.705,74.2433,23.4,85,0.0,949.9,8.95,34.6,134,39.3,36.3,3,5,7,1,2026-04-03T22:15:13.749825+05:30
Goa,Goa,15.2993,74.124,28.6,73,0.0,1000.4,9.0,31.7,77,30.3,23.8,7,5,4,1,2026-04-03T22:15:13.749833+05:30
Jodhpur,Rajasthan,26.2389,73.0243,23.5,60,0.0,985.4,6.9,44.6,139,206.3,33.4,0,5,7,0,2026-04-03T22:15:13.749840+05:30
Udaipur,Rajasthan,24.5854,73.7125,22.5,59,0.0,948.3,8.1,54.7,53,35.9,13.7,0,5,7,0,2026-04-03T22:15:13.749847+05:30
Kota,Rajasthan,25.2138,75.8648,27.2,56,0.0,981.3,7.85,48.2,55,40.2,20.5,4,5,7,1,2026-04-03T22:15:13.749855+05:30
Bikaner,Rajasthan,28.0229,73.3119,20.5,75,0.0,984.5,7.15,54.7,65,95.2,25.6,3,5,7,0,2026-04-03T22:15:13.749862+05:30
Ajmer,Rajasthan,26.4499,74.6399,22.9,76,0.0,956.8,7.55,59.8,83,48.1,19.2,3,5,7,1,2026-04-03T22:15:13.749870+05:30
Gwalior,Madhya Pradesh,26.2183,78.1828,25.2,67,0.0,986.7,7.65,42.1,68,90.6,32.6,7,5,7,1,2026-04-03T22:15:13.749877+05:30
Indore,Madhya Pradesh,22.7196,75.8577,24.9,62,0.0,950.2,8.3,37.1,74,28.2,21.2,3,5,7,1,2026-04-03T22:15:13.749885+05:30
Bhopal,Madhya Pradesh,23.2599,77.4126,26.9,55,0.0,955.8,7.9,31.7,72,36.8,32.5,4,5,7,1,2026-04-03T22:15:13.749892+05:30
Jabalpur,Madhya Pradesh,23.1815,79.9864,27.7,57,0.0,964.4,8.3,29.5,89,38.3,33.8,4,5,7,1,2026-04-03T22:15:13.749899+05:30
Ujjain,Madhya Pradesh,23.1765,75.7885,25.0,63,0.0,956.0,8.2,36.0,71,26.3,17.5,7,5,7,1,2026-04-03T22:15:13.749907+05:30
Visakhapatnam,Andhra Pradesh,17.6868,83.2185,27.1,89,0.0,1006.3,9.0,41.8,59,14.4,12.2,7,5,4,1,2026-04-03T22:15:13.749919+05:30
Vijayawada,Andhra Pradesh,16.5062,80.648,27.9,75,0.0,1004.5,8.5,25.9,45,10.7,9.8,7,5,4,1,2026-04-03T22:15:13.749926+05:30
Guntur,Andhra Pradesh,16.3067,80.4365,27.2,85,0.0,1005.7,8.45,32.8,43,11.6,10.8,7,5,4,1,2026-04-03T22:15:13.749934+05:30
Nellore,Andhra Pradesh,14.4426,79.9865,27.5,86,0.0,1008.1,9.25,34.2,62,8.7,6.5,7,0,4,1,2026-04-03T22:15:13.749941+05:30
Kurnool,Andhra Pradesh,15.8281,78.0373,31.9,36,0.0,977.3,8.8,20.5,67,35.0,28.1,0,5,7,0,2026-04-03T22:15:13.749950+05:30
Kakinada,Andhra Pradesh,16.9891,82.2475,26.4,89,0.0,1009.8,8.85,39.6,32,6.9,5.0,7,0,4,1,2026-04-03T22:15:13.749957+05:30
Tirupati,Andhra Pradesh,13.6288,79.4192,27.6,61,0.0,994.2,9.35,28.1,73,17.6,16.7,7,5,7,1,2026-04-03T22:15:13.749964+05:30
Warangal,Telangana,17.9689,79.5941,30.4,59,0.0,979.7,8.75,17.6,71,49.4,45.5,0,5,7,1,2026-04-03T22:15:13.749972+05:30
Nizamabad,Telangana,18.6725,78.0941,29.0,60,0.0,966.2,8.4,30.6,107,66.1,58.7,4,5,7,1,2026-04-03T22:15:13.749979+05:30
Mysore,Karnataka,12.2958,76.6396,24.4,81,0.0,930.6,9.5,40.0,119,29.4,27.0,3,5,7,1,2026-04-03T22:15:13.749987+05:30
Mangalore,Karnataka,12.9141,74.856,29.3,82,0.0,1008.9,9.15,24.5,71,22.5,17.8,7,0,4,1,2026-04-03T22:15:13.749994+05:30
Hubli-Dharwad,Karnataka,15.3647,75.124,24.6,84,0.0,942.9,9.2,38.9,135,22.6,21.4,3,5,7,1,2026-04-03T22:15:13.750001+05:30
Belgaum,Karnataka,15.8497,74.4977,23.0,90,0.0,927.6,9.25,33.1,122,27.7,25.1,3,5,7,1,2026-04-03T22:15:16.967927+05:30
Coimbatore,Tamil Nadu,11.0168,76.9558,26.2,74,0.0,963.8,9.45,51.1,105,27.1,25.4,7,5,7,1,2026-04-03T22:15:16.967956+05:30
Madurai,Tamil Nadu,9.9252,78.1198,25.9,80,0.0,996.3,9.2,37.1,87,18.9,17.9,7,5,7,1,2026-04-03T22:15:16.967969+05:30
Trichy,Tamil Nadu,10.7905,78.7047,28.8,76,0.0,1002.5,9.4,30.2,79,14.1,13.5,7,5,4,1,2026-04-03T22:15:16.967980+05:30
Salem,Tamil Nadu,11.6643,78.146,30.9,51,0.0,979.3,9.45,38.5,114,18.9,17.8,0,5,7,1,2026-04-03T22:15:16.967989+05:30
Tirunelveli,Tamil Nadu,8.7139,77.7567,27.4,85,0.0,1006.2,9.35,37.1,66,22.5,21.0,7,5,4,1,2026-04-03T22:15:16.967998+05:30
Vellore,Tamil Nadu,12.9165,79.1325,27.7,68,0.0,987.0,9.4,29.5,111,25.3,24.6,7,5,7,1,2026-04-03T22:15:16.968006+05:30
Erode,Tamil Nadu,11.341,77.7172,29.7,61,0.0,991.3,9.4,40.3,109,25.6,23.8,7,5,7,1,2026-04-03T22:15:16.968012+05:30
Kochi,Kerala,9.9312,76.2673,28.4,82,0.0,1011.3,9.05,24.1,80,26.7,25.0,7,0,4,1,2026-04-03T22:15:16.968019+05:30
Thiruvananthapuram,Kerala,8.5241,76.9366,28.5,79,0.0,1010.6,9.0,23.8,83,22.2,17.9,7,0,4,1,2026-04-03T22:15:16.968025+05:30
Kozhikode,Kerala,11.2588,75.7804,29.1,80,0.0,1010.2,9.15,25.2,60,19.0,15.7,7,0,4,1,2026-04-03T22:15:16.968032+05:30
Thrissur,Kerala,10.5276,76.2144,28.7,83,0.0,1009.4,9.2,30.2,67,27.6,26.0,7,0,4,1,2026-04-03T22:15:16.968039+05:30
Kannur,Kerala,11.8745,75.3704,29.0,77,0.0,1009.5,9.15,27.4,70,33.2,29.8,7,0,4,1,2026-04-03T22:15:16.968046+05:30
Patna,Bihar,25.5941,85.1376,28.4,57,0.0,1000.7,8.3,36.4,114,27.3,25.9,4,5,4,1,2026-04-03T22:15:16.968053+05:30
Gaya,Bihar,24.7914,85.0002,27.6,62,0.0,994.9,8.4,27.0,117,32.0,29.8,7,5,7,1,2026-04-03T22:15:16.968059+05:30
Muzaffarpur,Bihar,26.1209,85.3647,26.8,58,0.0,1000.5,8.25,39.2,99,25.3,23.2,4,5,4,1,2026-04-03T22:15:16.968066+05:30
Bhagalpur,Bihar,25.2425,87.0117,27.6,61,0.0,1000.8,8.3,23.8,99,35.5,28.2,7,5,4,1,2026-04-03T22:15:16.968073+05:30
Ranchi,Jharkhand,23.3441,85.3096,26.7,51,0.0,939.9,8.95,26.6,101,32.1,26.8,4,5,7,0,2026-04-03T22:15:16.968080+05:30
Jamshedpur,Jharkhand,22.8046,86.2029,29.7,58,0.0,991.8,8.8,23.4,119,36.9,32.2,4,5,7,1,2026-04-03T22:15:16.968086+05:30
Dhanbad,Jharkhand,23.7957,86.4304,30.4,46,0.0,980.7,8.7,21.6,150,40.0,36.7,0,5,7,1,2026-04-03T22:15:16.968093+05:30
Bokaro,Jharkhand,23.6693,86.1511,31.3,44,0.0,985.1,8.7,19.8,147,43.3,39.5,0,5,7,1,2026-04-03T22:15:16.968099+05:30
Bhubaneswar,Odisha,20.2961,85.8245,27.6,88,0.0,1004.3,8.95,30.2,84,15.7,14.2,7,5,4,1,2026-04-03T22:15:16.968106+05:30
Cuttack,Odisha,20.4625,85.8828,28.3,83,0.0,1006.1,9.0,37.8,84,15.7,14.2,7,5,4,1,2026-04-03T22:15:16.968113+05:30
Rourkela,Odisha,22.2604,84.8536,29.7,55,0.0,986.4,8.7,26.6,126,49.0,44.2,4,5,7,1,2026-04-03T22:15:16.968119+05:30
Raipur,Chhattisgarh,21.2514,81.6296,29.5,54,0.0,976.6,8.8,33.8,144,85.7,80.6,4,5,7,1,2026-04-03T22:15:16.968126+05:30
Bhilai,Chhattisgarh,21.1938,81.3509,28.0,59,0.0,977.0,8.8,27.7,118,61.7,57.2,4,5,7,1,2026-04-03T22:15:16.968132+05:30
Guwahati,Assam,26.1158,91.7086,26.4,84,0.0,1002.9,8.25,43.6,143,61.5,55.9,7,5,4,1,2026-04-03T22:15:16.968139+05:30
Agartala,Tripura,23.8315,91.2868,27.5,86,0.0,1006.4,8.45,23.8,70,29.5,26.4,7,5,4,1,2026-04-03T22:15:16.968145+05:30
Shillong,Meghalaya,25.5788,91.8933,15.2,87,0.0,857.5,8.55,55.1,107,49.8,43.9,3,10,7,0,2026-04-03T22:15:16.968152+05:30
Imphal,Manipur,24.817,93.9368,20.0,82,0.0,924.8,8.85,60.8,112,73.1,62.6,3,5,7,1,2026-04-03T22:15:16.968159+05:30
Aizawl,Mizoram,23.7271,92.7176,21.1,80,0.0,894.2,8.7,52.9,117,56.3,42.0,3,5,7,1,2026-04-03T22:15:16.968165+05:30
Kohima,Nagaland,25.6701,94.1077,16.3,91,0.0,856.2,8.75,80.3,100,48.3,41.2,3,10,7,0,2026-04-03T22:15:16.968172+05:30
Gangtok,Sikkim,27.3314,88.6138,16.8,91,0.0,838.7,7.55,19.1,104,59.0,48.7,3,10,7,0,2026-04-03T22:15:16.968178+05:30
Siliguri,West Bengal,26.7271,88.3953,22.9,75,0.0,994.5,8.2,18.7,154,85.4,70.1,3,5,7,1,2026-04-03T22:15:20.189259+05:30
Durgapur,West Bengal,23.5204,87.3119,30.8,62,0.0,995.5,8.65,17.3,158,85.7,79.9,3,5,7,1,2026-04-03T22:15:20.189286+05:30
Asansol,West Bengal,23.6739,86.9524,31.5,56,0.0,993.9,8.65,16.9,139,49.5,44.8,0,5,7,1,2026-04-03T22:15:20.189296+05:30
Pondicherry,Puducherry,11.9139,79.8145,26.8,92,0.0,1010.9,9.3,34.6,47,11.4,8.1,7,0,4,1,2026-04-03T22:15:20.189304+05:30
Port Blair,Andaman and Nicobar Islands,11.6234,92.7265,28.8,75,0.0,1009.1,9.2,22.7,42,19.3,10.4,7,0,4,1,2026-04-03T22:15:20.189311+05:30
Haridwar,Uttarakhand,29.9457,78.1642,22.9,79,0.0,977.2,6.15,22.0,122,122.5,57.6,3,5,7,1,2026-04-03T22:15:20.189318+05:30
Rishikesh,Uttarakhand,30.0869,78.2676,21.9,71,0.0,970.0,5.6,23.8,128,93.4,43.3,3,5,3,1,2026-04-03T22:15:20.189325+05:30
Nainital,Uttarakhand,29.3919,79.4542,19.2,50,0.0,808.7,5.0,36.4,113,60.1,31.4,0,5,3,0,2026-04-03T22:15:20.189332+05:30
Mussoorie,Uttarakhand,30.4599,78.0664,16.7,63,0.0,805.0,5.6,45.0,122,69.2,40.3,3,5,3,0,2026-04-03T22:15:20.189339+05:30
Dharamshala,Himachal Pradesh,32.219,76.3234,16.9,78,0.0,870.9,4.55,48.6,51,12.3,6.8,3,5,3,0,2026-04-03T22:15:20.189345+05:30
Dalhousie,Himachal Pradesh,32.5387,75.971,13.1,87,0.3,804.6,4.95,43.6,57,26.2,19.3,6,10,3,0,2026-04-03T22:15:20.189353+05:30
Patiala,Punjab,30.3398,76.3869,20.7,85,0.0,981.5,5.55,42.8,126,176.0,42.0,3,5,3,1,2026-04-03T22:15:20.189360+05:30
Bhatinda,Punjab,30.211,74.9455,20.3,90,0.0,986.6,6.45,44.6,85,119.2,31.2,3,5,7,1,2026-04-03T22:15:20.189367+05:30
Rohtak,Haryana,28.8955,76.6066,22.3,78,0.0,984.6,5.9,31.7,463,221.2,50.5,3,5,3,1,2026-04-03T22:15:20.189374+05:30
Panipat,Haryana,29.3909,76.9635,21.8,78,0.0,983.5,6.2,43.9,795,692.9,84.1,3,5,7,1,2026-04-03T22:15:20.189381+05:30
Mathura,Uttar Pradesh,27.4924,77.6737,25.7,56,0.0,989.6,7.25,31.7,618,201.2,45.1,4,5,7,1,2026-04-03T22:15:20.189422+05:30
Vrindavan,Uttar Pradesh,27.5823,77.7027,25.0,58,0.0,990.0,7.2,34.9,618,201.2,45.1,4,5,7,1,2026-04-03T22:15:20.189434+05:30
Ayodhya,Uttar Pradesh,26.7922,82.1998,25.7,66,0.0,996.5,6.6,36.0,89,82.0,35.3,7,5,7,1,2026-04-03T22:15:20.189441+05:30
Ratlam,Madhya Pradesh,23.3315,75.0367,25.7,57,0.0,956.7,8.15,42.8,68,30.5,18.2,4,5,7,1,2026-04-03T22:15:20.189448+05:30
Sagar,Madhya Pradesh,23.8388,78.7378,27.4,51,0.0,952.3,7.5,26.6,76,27.9,23.5,4,5,7,1,2026-04-03T22:15:20.189455+05:30
Satna,Madhya Pradesh,24.6005,80.8322,27.4,59,0.0,973.9,7.65,40.7,84,28.1,24.7,4,5,7,1,2026-04-03T22:15:20.189462+05:30
Akola,Maharashtra,20.7002,77.0082,28.4,59,0.0,977.4,8.6,44.6,112,36.0,33.1,4,5,7,1,2026-04-03T22:15:20.189469+05:30
Amravati,Maharashtra,20.9374,77.7796,26.9,62,0.0,969.8,8.65,43.6,116,38.8,35.7,7,5,7,1,2026-04-03T22:15:20.189477+05:30
Latur,Maharashtra,18.4088,76.5604,25.6,72,0.0,941.8,8.8,33.5,107,43.3,38.8,7,5,7,1,2026-04-03T22:15:20.189484+05:30
Nanded,Maharashtra,19.1383,77.3091,26.3,69,0.0,970.8,8.3,39.6,110,43.9,40.2,7,5,7,1,2026-04-03T22:15:20.189490+05:30
Gulbarga,Karnataka,17.3297,76.8343,31.0,42,0.0,960.4,8.5,37.1,145,23.9,21.4,0,5,7,1,2026-04-03T22:15:20.189497+05:30
Bidar,Karnataka,17.9104,77.5199,26.6,66,0.0,937.5,8.3,33.1,89,46.7,41.1,7,5,7,1,2026-04-03T22:15:20.189504+05:30
Hospet,Karnataka,15.2689,76.3909,28.7,57,0.0,957.3,9.2,32.8,157,40.6,37.1,4,5,7,1,2026-04-03T22:15:20.189511+05:30
Tirupur,Tamil Nadu,11.1085,77.3411,28.3,66,0.0,976.9,9.5,41.4,129,31.0,29.2,7,5,7,1,2026-04-03T22:15:20.189518+05:30
Alappuzha,Kerala,9.4981,76.3388,28.3,81,0.0,1011.4,9.2,23.0,65,24.7,20.7,7,0,4,1,2026-04-03T22:15:20.189524+05:30
Munnar,Kerala,10.0889,77.0595,21.4,92,0.0,859.1,8.0,29.2,63,23.7,23.0,3,5,7,1,2026-04-03T22:15:20.189532+05:30
Silchar,Assam,24.8333,92.7789,25.8,83,0.0,1006.0,8.5,29.2,150,91.0,76.4,7,5,4,1,2026-04-03T22:15:20.189538+05:30
Dibrugarh,Assam,27.4728,94.912,23.8,90,0.0,997.5,8.3,12.6,98,46.4,41.3,3,5,7,1,2026-04-03T22:15:20.189545+05:30
