city,state,latitude,longitude,temp,humidity,rain,pressure,uv_index,wind_gusts,aqi,pm10,pm2_5,no2,co,o3,so2,mosquito_risk,arthritis_risk,migraine_risk,frizz_risk,updated_at
Delhi,Delhi,28.6139,77.209,28.9,87,0.0,974.7,7.0,39.2,118,75.9,66.8,61.8,326.0,14.0,28.9,7,5,7,1,2026-07-07T05:40:08.744115+05:30
Mumbai,Maharashtra,19.076,72.8777,26.8,89,0.5,999.2,0.95,60.8,40,26.4,12.1,2.6,108.0,60.0,2.4,10,5,3,1,2026-07-07T05:40:08.744164+05:30
Bangalore,Karnataka,12.9716,77.5946,20.8,86,0.0,909.6,7.75,76.3,22,5.4,3.1,3.5,136.0,52.0,2.7,3,5,7,1,2026-07-07T05:40:08.744180+05:30
Hyderabad,Telangana,17.385,78.4867,24.8,79,0.0,947.0,7.3,63.4,24,4.0,2.6,4.5,129.0,42.0,3.7,3,5,7,1,2026-07-07T05:40:08.744191+05:30
Chennai,Tamil Nadu,13.0827,80.2707,30.1,54,0.0,1005.0,8.35,55.1,61,15.2,8.3,9.2,152.0,40.0,7.0,0,5,4,1,2026-07-07T05:40:08.744199+05:30
Kolkata,West Bengal,22.5726,88.3639,26.3,92,0.0,1000.2,8.3,42.1,60,20.8,16.8,7.4,189.0,66.0,8.2,7,5,4,1,2026-07-07T05:40:08.744206+05:30
Pune,Maharashtra,18.5204,73.8567,23.4,93,0.9,938.9,1.55,54.0,22,1.0,1.0,3.7,104.0,43.0,1.0,6,5,3,1,2026-07-07T05:40:08.744213+05:30
Ahmedabad,Gujarat,23.0225,72.5714,26.4,99,0.2,992.1,1.7,29.2,108,48.5,23.9,8.6,205.0,41.0,4.4,10,5,3,1,2026-07-07T05:40:08.744220+05:30
Jaipur,Rajasthan,26.9124,75.7873,28.0,83,0.0,951.3,7.4,31.3,69,22.6,21.9,36.0,337.0,26.0,10.7,7,5,7,1,2026-07-07T05:40:08.744226+05:30
Lucknow,Uttar Pradesh,26.8467,80.9462,28.7,86,0.0,984.4,7.45,48.6,67,15.4,13.6,10.7,301.0,68.0,6.0,7,5,7,1,2026-07-07T05:40:08.744237+05:30
Kanpur,Uttar Pradesh,26.4499,80.3319,28.7,83,0.0,982.4,4.15,47.9,67,56.8,18.7,12.6,294.0,65.0,5.9,7,5,3,1,2026-07-07T05:40:08.744244+05:30
Chandigarh,Chandigarh,30.7333,76.7794,27.2,93,0.0,960.2,7.75,27.4,114,52.3,51.9,38.2,461.0,24.0,6.4,7,5,7,1,2026-07-07T05:40:08.744251+05:30
Srinagar,Jammu and Kashmir,34.0837,74.7973,18.8,95,0.0,837.9,9.1,23.8,84,23.1,20.0,14.4,318.0,58.0,3.4,3,10,7,1,2026-07-07T05:40:08.744258+05:30
Jammu,Jammu and Kashmir,32.7266,74.857,27.7,81,0.0,964.6,8.65,40.0,95,42.3,40.5,41.3,367.0,18.0,4.4,7,5,7,1,2026-07-07T05:40:08.744264+05:30
Amritsar,Punjab,31.634,74.8723,28.1,91,0.0,972.1,8.4,31.0,142,101.0,92.9,38.3,800.0,33.0,10.9,7,5,7,1,2026-07-07T05:40:08.744270+05:30
Ludhiana,Punjab,30.901,75.8573,27.5,95,0.1,970.3,7.15,28.4,126,97.3,87.3,43.5,902.0,32.0,15.2,10,5,7,1,2026-07-07T05:40:08.744276+05:30
Jalandhar,Punjab,31.326,75.5762,27.0,97,0.1,971.6,7.75,28.8,133,82.7,82.7,43.5,841.0,29.0,17.3,10,5,7,1,2026-07-07T05:40:08.744282+05:30
Dehradun,Uttarakhand,30.6284,78.0322,16.8,98,0.0,823.9,5.85,24.8,44,13.5,13.4,21.1,223.0,41.0,1.3,3,10,3,1,2026-07-07T05:40:08.744288+05:30
Shimla,Himachal Pradesh,31.1048,77.1734,16.0,89,0.0,779.5,5.95,23.4,48,11.8,11.3,8.9,288.0,81.0,0.5,3,10,3,0,2026-07-07T05:40:08.744295+05:30
Manali,Himachal Pradesh,32.2396,77.1887,17.5,82,0.0,813.9,9.25,34.2,41,1.6,1.3,12.2,191.0,79.0,0.2,3,10,7,0,2026-07-07T05:40:08.744304+05:30
Gurgaon,Haryana,28.4595,77.0266,28.9,87,0.0,973.1,7.7,47.2,112,82.0,62.6,61.7,345.0,9.0,21.0,7,5,7,1,2026-07-07T05:40:08.744314+05:30
Noida,Uttar Pradesh,28.5355,77.391,27.2,94,0.0,977.2,6.95,36.7,112,82.0,62.6,61.7,332.0,9.0,21.0,7,5,7,1,2026-07-07T05:40:08.744321+05:30
Ghaziabad,Uttar Pradesh,28.6692,77.4538,26.4,95,0.0,975.5,5.85,43.2,113,89.4,77.8,49.7,284.0,13.0,10.3,7,5,3,1,2026-07-07T05:40:08.744327+05:30
Faridabad,Haryana,28.4089,77.3178,27.5,93,0.0,976.2,6.35,40.3,112,82.0,62.6,61.7,304.0,9.0,21.0,7,5,7,1,2026-07-07T05:40:08.744334+05:30
Meerut,Uttar Pradesh,28.9845,77.7064,26.1,92,0.0,974.3,5.8,44.6,113,89.4,77.8,49.7,316.0,13.0,10.3,7,5,3,1,2026-07-07T05:40:08.744340+05:30
Agra,Uttar Pradesh,27.1767,78.0081,26.9,94,0.3,980.2,3.0,33.8,102,141.6,63.6,39.8,276.0,20.0,9.6,10,5,3,1,2026-07-07T05:40:08.744347+05:30
Varanasi,Uttar Pradesh,25.3176,82.9739,26.9,91,0.0,987.8,6.25,39.6,58,16.9,16.8,11.9,290.0,71.0,13.7,7,5,7,1,2026-07-07T05:40:08.744353+05:30
Prayagraj,Uttar Pradesh,25.4358,81.8463,26.4,95,0.0,985.9,6.6,42.5,56,15.6,15.4,11.3,272.0,69.0,9.0,7,5,7,1,2026-07-07T05:40:08.744359+05:30
Gorakhpur,Uttar Pradesh,26.7606,83.3732,28.2,81,0.0,989.2,6.45,52.9,53,9.3,9.2,7.2,241.0,71.0,4.1,7,5,7,1,2026-07-07T05:40:08.744366+05:30
Bareilly,Uttar Pradesh,28.367,79.4304,27.8,93,0.0,978.8,7.4,29.9,123,69.4,67.8,31.4,314.0,41.0,12.0,7,5,7,1,2026-07-07T05:40:08.744380+05:30
Aligarh,Uttar Pradesh,27.8974,78.088,27.2,92,0.3,978.1,4.3,29.2,99,117.1,60.8,32.3,313.0,32.0,8.0,10,5,3,1,2026-07-07T05:40:08.744387+05:30
Moradabad,Uttar Pradesh,28.8386,78.7733,26.9,97,0.1,976.0,5.75,41.8,148,111.1,101.7,63.7,342.0,7.0,16.3,10,5,3,1,2026-07-07T05:40:08.744393+05:30
Saharanpur,Uttar Pradesh,29.9637,77.546,28.5,81,0.0,967.1,6.75,28.8,123,93.1,92.9,53.0,428.0,5.0,8.7,7,5,7,1,2026-07-07T05:40:08.744399+05:30
Jhansi,Uttar Pradesh,25.4484,78.5685,26.8,97,0.0,968.6,6.45,42.5,59,15.4,15.3,14.4,267.0,60.0,4.6,7,5,7,1,2026-07-07T05:40:12.269340+05:30
Surat,Gujarat,21.1702,72.8311,26.3,97,0.5,995.8,2.2,41.4,103,43.1,26.7,23.4,188.0,27.0,37.0,10,5,3,1,2026-07-07T05:40:12.269379+05:30
Vadodara,Gujarat,22.3072,73.1812,25.8,97,0.2,994.2,1.15,22.7,84,31.4,22.8,12.9,202.0,54.0,4.8,10,5,3,1,2026-07-07T05:40:12.269390+05:30
Rajkot,Gujarat,22.3039,70.8022,27.5,87,0.0,984.6,1.0,29.9,91,31.1,16.5,6.1,98.0,41.0,5.4,7,5,3,1,2026-07-07T05:40:12.269399+05:30
Thane,Maharashtra,19.2183,72.9781,26.0,96,1.2,998.4,0.8,46.8,40,26.4,12.1,2.6,107.0,60.0,2.4,10,5,3,1,2026-07-07T05:40:12.269406+05:30
Nagpur,Maharashtra,21.1458,79.0882,26.4,81,0.0,963.7,6.5,54.4,35,24.3,14.2,9.9,174.0,38.0,9.1,7,5,7,1,2026-07-07T05:40:12.269414+05:30
Nashik,Maharashtra,19.9975,73.7898,23.3,96,0.1,934.8,2.55,45.0,26,3.4,2.8,3.5,168.0,56.0,0.7,6,5,3,1,2026-07-07T05:40:12.269439+05:30
Aurangabad,Maharashtra,19.8762,75.3433,22.9,97,0.1,934.3,2.7,57.6,23,4.8,4.8,8.1,176.0,50.0,4.6,6,5,3,1,2026-07-07T05:40:12.269447+05:30
Solapur,Maharashtra,17.6599,75.9064,25.2,80,0.0,950.4,1.85,72.7,21,2.1,1.5,2.4,103.0,45.0,1.5,7,5,3,1,2026-07-07T05:40:12.269455+05:30
Kolhapur,Maharashtra,16.705,74.2433,22.7,95,0.0,941.9,3.15,58.7,22,3.1,1.9,1.8,98.0,48.0,1.1,3,5,3,1,2026-07-07T05:40:12.269462+05:30
Goa,Goa,15.2993,74.124,24.3,98,0.8,995.0,7.1,42.5,56,32.5,15.0,1.2,153.0,55.0,0.6,6,5,7,1,2026-07-07T05:40:12.269468+05:30
Jodhpur,Rajasthan,26.2389,73.0243,28.3,83,0.0,973.4,7.65,46.4,96,35.4,21.8,16.9,165.0,37.0,3.6,7,5,7,1,2026-07-07T05:40:12.269476+05:30
Udaipur,Rajasthan,24.5854,73.7125,25.4,92,0.0,936.5,8.75,36.0,60,20.3,19.0,19.4,199.0,35.0,3.9,7,5,7,1,2026-07-07T05:40:12.269483+05:30
Kota,Rajasthan,25.2138,75.8648,27.5,96,0.0,969.2,8.25,39.2,74,21.8,21.8,18.4,331.0,38.0,8.5,7,5,7,1,2026-07-07T05:40:12.269491+05:30
Bikaner,Rajasthan,28.0229,73.3119,30.6,78,0.0,972.5,8.45,49.0,91,43.9,22.3,4.6,183.0,60.0,2.6,3,5,7,1,2026-07-07T05:40:12.269497+05:30
Ajmer,Rajasthan,26.4499,74.6399,27.9,83,0.0,945.6,7.5,24.5,59,19.7,18.8,22.5,277.0,27.0,3.5,7,5,7,1,2026-07-07T05:40:12.269505+05:30
Gwalior,Madhya Pradesh,26.2183,78.1828,26.6,92,0.0,974.4,7.5,45.7,65,52.4,32.4,24.5,251.0,28.0,5.1,7,5,7,1,2026-07-07T05:40:12.269512+05:30
Indore,Madhya Pradesh,22.7196,75.8577,24.3,97,0.0,937.3,7.95,31.3,100,27.2,27.0,15.0,345.0,46.0,4.2,3,5,7,1,2026-07-07T05:40:12.269519+05:30
Bhopal,Madhya Pradesh,23.2599,77.4126,24.6,97,0.1,942.9,2.9,24.1,62,12.9,12.9,12.7,279.0,51.0,2.6,6,5,3,1,2026-07-07T05:40:12.269525+05:30
Jabalpur,Madhya Pradesh,23.1815,79.9864,24.4,98,0.2,951.1,5.85,32.4,52,10.9,10.4,9.2,227.0,49.0,4.6,6,5,3,1,2026-07-07T05:40:12.269531+05:30
Ujjain,Madhya Pradesh,23.1765,75.7885,24.6,98,0.0,943.2,6.55,32.4,109,27.5,27.4,13.2,369.0,50.0,4.6,3,5,7,1,2026-07-07T05:40:12.269538+05:30
Visakhapatnam,Andhra Pradesh,17.6868,83.2185,27.6,84,0.0,998.2,9.0,58.0,66,30.2,22.2,14.2,276.0,83.0,26.8,7,5,7,1,2026-07-07T05:40:12.269545+05:30
Vijayawada,Andhra Pradesh,16.5062,80.648,29.6,62,0.0,997.7,6.5,51.1,46,13.8,8.4,5.9,130.0,41.0,4.2,7,5,7,1,2026-07-07T05:40:12.269551+05:30
Guntur,Andhra Pradesh,16.3067,80.4365,29.8,60,0.0,999.0,6.5,54.4,37,11.6,7.2,5.8,122.0,40.0,4.6,4,5,7,1,2026-07-07T05:40:12.269558+05:30
Nellore,Andhra Pradesh,14.4426,79.9865,30.0,56,0.0,1002.7,8.7,55.8,30,13.5,6.8,4.7,119.0,44.0,2.5,4,5,4,1,2026-07-07T05:40:12.269566+05:30
Kurnool,Andhra Pradesh,15.8281,78.0373,26.2,74,0.0,972.9,4.6,68.4,21,6.8,4.0,3.5,103.0,45.0,3.0,7,5,3,1,2026-07-07T05:40:12.269574+05:30
Kakinada,Andhra Pradesh,16.9891,82.2475,29.2,65,0.0,1002.2,8.25,54.4,62,20.7,13.9,5.0,159.0,64.0,3.1,7,5,4,1,2026-07-07T05:40:12.269580+05:30
Tirupati,Andhra Pradesh,13.6288,79.4192,27.9,60,0.0,988.8,8.45,54.0,33,12.4,6.7,5.5,121.0,42.0,2.1,4,5,7,1,2026-07-07T05:40:12.269587+05:30
Warangal,Telangana,17.9689,79.5941,27.3,71,0.0,972.4,5.9,54.7,33,6.4,4.2,5.6,131.0,40.0,3.6,7,5,3,1,2026-07-07T05:40:12.269593+05:30
Nizamabad,Telangana,18.6725,78.0941,25.8,78,0.0,957.0,5.35,62.3,26,3.0,2.2,3.4,119.0,42.0,1.6,7,5,3,1,2026-07-07T05:40:12.269599+05:30
Mysore,Karnataka,12.2958,76.6396,21.7,88,0.0,927.2,7.55,69.1,23,4.8,2.7,2.2,96.0,53.0,1.3,3,5,7,1,2026-07-07T05:40:12.269605+05:30
Mangalore,Karnataka,12.9141,74.856,25.9,87,0.0,1005.8,8.15,72.4,60,38.3,17.9,1.4,102.0,51.0,0.9,7,5,4,1,2026-07-07T05:40:12.269611+05:30
Hubli-Dharwad,Karnataka,15.3647,75.124,21.6,98,0.1,936.9,7.0,67.7,23,1.0,0.7,1.4,92.0,52.0,0.7,6,5,7,1,2026-07-07T05:40:12.269618+05:30
Belgaum,Karnataka,15.8497,74.4977,21.4,98,0.2,920.7,3.1,70.6,23,1.9,1.2,1.7,92.0,50.0,0.9,6,5,3,1,2026-07-07T05:40:15.651038+05:30
Coimbatore,Tamil Nadu,11.0168,76.9558,22.2,93,0.0,961.0,8.75,71.6,25,9.3,4.8,3.1,141.0,46.0,1.9,3,5,7,1,2026-07-07T05:40:15.651076+05:30
Madurai,Tamil Nadu,9.9252,78.1198,28.1,63,0.0,992.5,8.7,56.2,56,24.7,17.6,15.5,116.0,24.0,4.6,7,5,7,1,2026-07-07T05:40:15.651089+05:30
Trichy,Tamil Nadu,10.7905,78.7047,28.8,61,0.0,999.0,8.65,76.3,47,13.2,7.7,4.3,103.0,46.0,2.3,7,5,7,1,2026-07-07T05:40:15.651099+05:30
Salem,Tamil Nadu,11.6643,78.146,24.2,85,0.0,976.5,8.35,37.8,51,14.0,10.8,13.1,168.0,28.0,5.9,3,5,7,1,2026-07-07T05:40:15.651107+05:30
Tirunelveli,Tamil Nadu,8.7139,77.7567,27.5,69,0.0,1003.6,8.45,49.0,50,8.8,6.1,5.1,109.0,37.0,2.1,7,5,4,1,2026-07-07T05:40:15.651115+05:30
Vellore,Tamil Nadu,12.9165,79.1325,27.4,63,0.0,982.6,7.95,56.2,34,10.5,6.0,4.3,111.0,48.0,2.4,7,5,7,1,2026-07-07T05:40:15.651123+05:30
Erode,Tamil Nadu,11.341,77.7172,25.5,75,0.0,988.3,8.4,58.3,46,12.3,9.3,10.5,138.0,36.0,3.0,7,5,7,1,2026-07-07T05:40:15.651130+05:30
Kochi,Kerala,9.9312,76.2673,24.5,95,0.1,1010.7,8.25,46.4,61,22.7,13.0,7.4,94.0,31.0,2.8,6,0,4,1,2026-07-07T05:40:15.651138+05:30
Thiruvananthapuram,Kerala,8.5241,76.9366,25.2,93,0.0,1009.6,8.25,51.5,55,28.6,15.3,1.9,94.0,51.0,0.8,7,0,4,1,2026-07-07T05:40:15.651145+05:30
Kozhikode,Kerala,11.2588,75.7804,23.2,98,0.1,1009.1,8.3,36.0,59,39.0,18.3,0.6,141.0,58.0,0.6,6,0,4,1,2026-07-07T05:40:15.651151+05:30
Thrissur,Kerala,10.5276,76.2144,23.3,98,0.0,1008.7,8.55,47.5,57,23.2,12.6,4.6,185.0,41.0,1.9,3,0,4,1,2026-07-07T05:40:15.651160+05:30
Kannur,Kerala,11.8745,75.3704,23.1,98,0.3,1008.2,7.3,51.8,58,37.0,16.2,3.5,192.0,42.0,1.1,6,0,4,1,2026-07-07T05:40:15.651167+05:30
Patna,Bihar,25.5941,85.1376,26.4,92,0.0,992.1,7.95,46.8,48,14.8,14.7,12.8,260.0,56.0,14.8,7,5,7,1,2026-07-07T05:40:15.651174+05:30
Gaya,Bihar,24.7914,85.0002,26.6,90,0.0,984.7,8.2,39.2,51,12.3,12.3,18.1,318.0,36.0,22.8,7,5,7,1,2026-07-07T05:40:15.651181+05:30
Muzaffarpur,Bihar,26.1209,85.3647,26.9,89,0.0,992.8,6.25,51.5,46,12.3,12.2,10.1,227.0,60.0,9.5,7,5,7,1,2026-07-07T05:40:15.651188+05:30
Bhagalpur,Bihar,25.2425,87.0117,26.1,96,0.0,994.2,8.25,43.9,48,11.4,11.3,13.6,249.0,47.0,11.8,7,5,7,1,2026-07-07T05:40:15.651194+05:30
Ranchi,Jharkhand,23.3441,85.3096,22.9,97,0.7,929.3,7.2,52.2,27,2.8,2.8,6.5,178.0,48.0,7.4,6,5,7,1,2026-07-07T05:40:15.651201+05:30
Jamshedpur,Jharkhand,22.8046,86.2029,25.2,95,0.1,983.3,7.85,45.4,47,16.7,16.4,22.1,258.0,28.0,25.5,10,5,7,1,2026-07-07T05:40:15.651208+05:30
Dhanbad,Jharkhand,23.7957,86.4304,24.7,96,1.3,971.7,7.95,43.2,69,22.5,22.3,35.5,916.0,18.0,68.5,6,5,7,1,2026-07-07T05:40:15.651215+05:30
Bokaro,Jharkhand,23.6693,86.1511,25.0,95,1.1,975.3,8.5,45.4,67,15.7,15.5,24.7,426.0,30.0,51.1,10,5,7,1,2026-07-07T05:40:15.651222+05:30
Bhubaneswar,Odisha,20.2961,85.8245,27.1,88,0.0,996.6,8.85,60.8,55,23.7,16.8,5.5,152.0,76.0,6.2,7,5,7,1,2026-07-07T05:40:15.651229+05:30
Cuttack,Odisha,20.4625,85.8828,27.2,88,0.0,998.3,8.75,51.5,55,23.7,16.8,5.5,184.0,76.0,6.2,7,5,7,1,2026-07-07T05:40:15.651235+05:30
Rourkela,Odisha,22.2604,84.8536,25.0,96,0.2,977.6,5.5,45.0,34,6.0,5.6,5.5,168.0,48.0,3.1,10,5,3,1,2026-07-07T05:40:15.651242+05:30
Raipur,Chhattisgarh,21.2514,81.6296,24.8,95,0.1,966.3,7.05,54.7,52,16.2,13.3,19.8,168.0,37.0,28.6,6,5,7,1,2026-07-07T05:40:15.651248+05:30
Bhilai,Chhattisgarh,21.1938,81.3509,24.8,94,0.0,966.6,7.7,57.2,50,17.5,14.2,20.3,301.0,34.0,31.8,3,5,7,1,2026-07-07T05:40:15.651255+05:30
Guwahati,Assam,26.1158,91.7086,26.0,98,0.0,997.6,4.45,22.0,30,8.8,8.4,7.5,204.0,40.0,1.9,7,5,3,1,2026-07-07T05:40:15.651261+05:30
Agartala,Tripura,23.8315,91.2868,25.0,97,0.0,1002.9,5.6,34.6,29,7.1,6.0,6.7,135.0,47.0,1.4,7,5,0,1,2026-07-07T05:40:15.651268+05:30
Shillong,Meghalaya,25.5788,91.8933,20.0,94,0.0,854.8,3.4,34.9,24,1.7,1.5,4.2,147.0,48.0,2.3,3,5,3,1,2026-07-07T05:40:15.651274+05:30
Imphal,Manipur,24.817,93.9368,23.0,96,0.0,920.9,7.45,35.6,19,5.9,5.5,5.5,271.0,37.0,1.9,3,5,7,1,2026-07-07T05:40:15.651280+05:30
Aizawl,Mizoram,23.7271,92.7176,19.7,97,0.0,890.3,2.6,45.4,23,5.9,3.3,1.6,104.0,48.0,0.9,3,10,3,1,2026-07-07T05:40:15.651287+05:30
Kohima,Nagaland,25.6701,94.1077,20.5,95,0.0,853.2,3.35,22.3,16,3.4,3.3,4.3,201.0,35.0,0.9,3,5,3,1,2026-07-07T05:40:15.651294+05:30
Gangtok,Sikkim,27.3314,88.6138,18.3,99,0.0,834.7,1.9,27.4,32,4.1,3.9,4.9,244.0,61.0,0.8,3,10,3,1,2026-07-07T05:40:15.651300+05:30
Siliguri,West Bengal,26.7271,88.3953,25.2,92,0.0,988.6,8.2,32.4,31,8.4,8.1,7.2,180.0,61.0,2.2,7,5,7,1,2026-07-07T05:40:18.931455+05:30
Durgapur,West Bengal,23.5204,87.3119,26.0,97,0.3,988.1,8.7,41.0,63,29.2,28.8,23.6,346.0,38.0,30.1,10,5,7,1,2026-07-07T05:40:18.931494+05:30
Asansol,West Bengal,23.6739,86.9524,25.7,96,0.5,986.1,6.6,47.2,59,21.5,21.3,25.7,228.0,31.0,30.1,10,5,7,1,2026-07-07T05:40:18.931506+05:30
Pondicherry,Puducherry,11.9139,79.8145,27.8,67,0.0,1006.8,8.7,32.0,61,21.5,16.2,14.5,192.0,32.0,7.1,7,5,4,1,2026-07-07T05:40:18.931516+05:30
Port Blair,Andaman and Nicobar Islands,11.6234,92.7265,27.3,82,0.0,1008.5,7.85,41.8,51,24.4,14.1,0.1,96.0,62.0,0.5,7,0,4,1,2026-07-07T05:40:18.931525+05:30
Haridwar,Uttarakhand,29.9457,78.1642,27.4,87,0.0,965.8,6.4,30.6,94,58.3,58.1,45.1,270.0,19.0,7.7,7,5,7,1,2026-07-07T05:40:18.931533+05:30
Rishikesh,Uttarakhand,30.0869,78.2676,25.3,91,0.0,958.5,6.75,23.4,63,20.0,19.9,9.0,286.0,79.0,3.9,7,5,7,1,2026-07-07T05:40:18.931541+05:30
Nainital,Uttarakhand,29.3919,79.4542,16.6,99,0.0,800.9,6.05,24.8,65,22.6,22.5,27.7,251.0,30.0,2.9,3,10,7,1,2026-07-07T05:40:18.931549+05:30
Mussoorie,Uttarakhand,30.4599,78.0664,16.9,91,0.0,798.0,5.85,28.8,67,27.7,27.5,29.9,281.0,39.0,5.6,3,10,3,0,2026-07-07T05:40:18.931556+05:30
Dharamshala,Himachal Pradesh,32.219,76.3234,22.5,78,0.0,863.7,8.45,34.9,36,3.7,3.5,8.2,304.0,56.0,0.2,3,5,7,1,2026-07-07T05:40:18.931564+05:30
Dalhousie,Himachal Pradesh,32.5387,75.971,16.5,89,0.0,799.7,8.7,28.4,58,13.4,13.1,17.5,276.0,70.0,2.5,3,10,7,0,2026-07-07T05:40:18.931572+05:30
Patiala,Punjab,30.3398,76.3869,28.9,89,0.0,969.4,7.55,31.3,114,85.7,83.1,36.3,673.0,37.0,12.9,7,5,7,1,2026-07-07T05:40:18.931579+05:30
Bhatinda,Punjab,30.211,74.9455,30.4,80,0.0,974.5,8.1,55.1,136,167.6,74.5,31.7,507.0,28.0,6.2,3,5,7,1,2026-07-07T05:40:18.931586+05:30
Rohtak,Haryana,28.8955,76.6066,29.3,86,0.0,973.1,5.35,41.8,123,82.4,70.8,68.2,723.0,14.0,30.6,7,5,3,1,2026-07-07T05:40:18.931592+05:30
Panipat,Haryana,29.3909,76.9635,29.0,83,0.0,971.8,5.55,22.7,124,68.9,58.2,40.4,366.0,28.0,9.9,7,5,3,1,2026-07-07T05:40:18.931599+05:30
Mathura,Uttar Pradesh,27.4924,77.6737,27.0,95,0.2,979.9,4.35,35.3,96,112.0,63.3,51.5,319.0,6.0,9.1,10,5,3,1,2026-07-07T05:40:18.931606+05:30
Vrindavan,Uttar Pradesh,27.5823,77.7027,27.0,95,0.2,980.4,4.3,31.0,96,112.0,63.3,51.5,302.0,6.0,9.1,10,5,3,1,2026-07-07T05:40:18.931613+05:30
Ayodhya,Uttar Pradesh,26.7922,82.1998,28.6,80,0.0,986.6,4.65,49.3,64,13.7,13.0,8.9,294.0,71.0,5.0,7,5,3,1,2026-07-07T05:40:18.931619+05:30
Ratlam,Madhya Pradesh,23.3315,75.0367,25.0,98,0.0,944.2,7.1,37.1,99,23.2,23.0,10.4,258.0,59.0,4.0,7,5,7,1,2026-07-07T05:40:18.931626+05:30
Sagar,Madhya Pradesh,23.8388,78.7378,24.5,95,0.0,939.9,4.0,22.3,47,4.8,4.8,5.1,280.0,85.0,1.1,3,5,3,1,2026-07-07T05:40:18.931632+05:30
Satna,Madhya Pradesh,24.6005,80.8322,25.0,97,0.2,960.7,3.8,33.1,49,20.4,20.3,9.0,220.0,76.0,6.3,10,5,3,1,2026-07-07T05:40:18.931640+05:30
Akola,Maharashtra,20.7002,77.0082,25.7,90,0.1,964.8,6.75,40.0,24,11.8,9.5,8.0,179.0,43.0,3.5,10,5,7,1,2026-07-07T05:40:18.931647+05:30
Amravati,Maharashtra,20.9374,77.7796,25.7,86,0.1,957.2,7.25,42.1,25,17.2,12.6,7.8,192.0,42.0,3.6,10,5,7,1,2026-07-07T05:40:18.931655+05:30
Latur,Maharashtra,18.4088,76.5604,23.9,86,0.0,932.1,2.95,67.3,24,1.6,1.4,2.8,108.0,43.0,1.4,3,5,3,1,2026-07-07T05:40:18.931663+05:30
Nanded,Maharashtra,19.1383,77.3091,26.1,77,0.0,960.2,5.6,69.8,31,2.3,1.9,4.2,122.0,42.0,2.9,7,5,3,1,2026-07-07T05:40:18.931669+05:30
Gulbarga,Karnataka,17.3297,76.8343,24.9,79,0.0,952.7,5.0,70.6,22,4.0,2.4,3.0,101.0,44.0,2.0,3,5,3,1,2026-07-07T05:40:18.931675+05:30
Bidar,Karnataka,17.9104,77.5199,24.1,82,0.0,928.5,5.8,70.9,23,3.5,2.3,3.1,106.0,44.0,2.0,3,5,3,1,2026-07-07T05:40:18.931681+05:30
Hospet,Karnataka,15.2689,76.3909,23.5,87,0.0,951.8,6.3,76.3,22,2.1,1.4,2.0,93.0,50.0,1.2,3,5,7,1,2026-07-07T05:40:18.931687+05:30
Tirupur,Tamil Nadu,11.1085,77.3411,23.5,86,0.0,974.3,8.45,70.6,48,15.5,11.5,13.1,128.0,31.0,3.6,3,5,7,1,2026-07-07T05:40:18.931693+05:30
Alappuzha,Kerala,9.4981,76.3388,26.3,89,0.1,1010.3,8.5,41.0,63,31.0,16.1,3.3,83.0,47.0,1.6,10,0,4,1,2026-07-07T05:40:18.931700+05:30
Munnar,Kerala,10.0889,77.0595,16.1,100,0.2,856.4,5.25,58.3,35,1.2,1.0,3.9,87.0,34.0,1.6,6,10,3,1,2026-07-07T05:40:18.931707+05:30
Silchar,Assam,24.8333,92.7789,26.2,97,0.1,1002.4,3.5,33.1,38,14.8,13.1,9.1,176.0,43.0,5.0,10,5,0,1,2026-07-07T05:40:18.931713+05:30
Dibrugarh,Assam,27.4728,94.912,25.4,97,0.0,991.7,1.25,33.5,43,7.8,7.6,6.3,172.0,52.0,1.5,7,5,3,1,2026-07-07T05:40:18.931719+05:30
