city,state,latitude,longitude,temp,humidity,rain,pressure,uv_index,wind_gusts,aqi,pm10,pm2_5,mosquito_risk,arthritis_risk,migraine_risk,frizz_risk,updated_at
Delhi,Delhi,28.6139,77.209,33.4,34,0.0,984.1,5.85,34.6,388,583.0,98.0,0,5,3,0,2026-03-05T15:20:13.643748+05:30
Mumbai,Maharashtra,19.076,72.8777,29.1,64,0.0,1008.4,7.4,26.6,118,39.7,37.3,7,0,4,1,2026-03-05T15:20:13.643787+05:30
Bangalore,Karnataka,12.9716,77.5946,31.9,25,0.0,911.9,9.1,31.3,87,25.6,24.0,0,5,7,0,2026-03-05T15:20:13.643802+05:30
Hyderabad,Telangana,17.385,78.4867,35.7,20,0.0,953.5,8.45,27.4,107,16.4,14.7,0,5,10,0,2026-03-05T15:20:13.643813+05:30
Chennai,Tamil Nadu,13.0827,80.2707,34.1,40,0.0,1006.7,8.85,31.3,97,34.9,31.1,0,5,4,1,2026-03-05T15:20:13.643822+05:30
Kolkata,West Bengal,22.5726,88.3639,31.6,37,0.0,1005.2,7.8,10.8,174,107.1,57.6,0,5,4,0,2026-03-05T15:20:13.643830+05:30
Pune,Maharashtra,18.5204,73.8567,37.5,17,0.0,949.4,7.95,31.3,85,17.1,15.6,0,5,10,0,2026-03-05T15:20:13.643842+05:30
Ahmedabad,Gujarat,23.0225,72.5714,37.7,12,0.0,1004.5,7.2,28.4,65,12.8,11.4,0,5,7,0,2026-03-05T15:20:13.643850+05:30
Jaipur,Rajasthan,26.9124,75.7873,36.6,16,0.0,962.1,6.65,34.9,87,162.5,27.5,0,5,10,0,2026-03-05T15:20:13.643857+05:30
Lucknow,Uttar Pradesh,26.8467,80.9462,31.8,41,0.0,993.8,6.4,15.1,164,280.3,82.2,0,5,7,1,2026-03-05T15:20:13.643865+05:30
Kanpur,Uttar Pradesh,26.4499,80.3319,33.0,35,0.0,992.0,6.4,28.4,178,313.9,74.5,0,5,7,0,2026-03-05T15:20:13.643872+05:30
Chandigarh,Chandigarh,30.7333,76.7794,32.2,34,0.0,970.0,5.75,31.0,91,45.5,28.3,0,5,3,0,2026-03-05T15:20:13.643880+05:30
Srinagar,Jammu and Kashmir,34.0837,74.7973,22.1,36,0.0,846.5,6.55,14.4,152,36.9,19.3,0,5,7,0,2026-03-05T15:20:13.643887+05:30
Jammu,Jammu and Kashmir,32.7266,74.857,32.2,40,0.0,973.8,6.4,23.8,104,54.7,27.3,0,5,7,1,2026-03-05T15:20:13.643894+05:30
Amritsar,Punjab,31.634,74.8723,32.3,35,0.0,982.5,6.35,22.7,152,56.0,33.8,0,5,7,0,2026-03-05T15:20:13.643900+05:30
Ludhiana,Punjab,30.901,75.8573,32.2,36,0.0,980.3,6.0,25.6,156,78.7,51.2,0,5,3,0,2026-03-05T15:20:13.643907+05:30
Jalandhar,Punjab,31.326,75.5762,32.0,38,0.0,981.4,6.2,24.1,159,85.7,43.3,0,5,7,0,2026-03-05T15:20:13.643915+05:30
Dehradun,Uttarakhand,30.6284,78.0322,21.7,61,0.0,832.7,6.15,31.7,65,23.4,12.7,3,5,7,0,2026-03-05T15:20:13.643922+05:30
Shimla,Himachal Pradesh,31.1048,77.1734,22.8,35,0.0,789.7,6.2,55.1,65,22.8,9.4,0,5,7,0,2026-03-05T15:20:13.643928+05:30
Manali,Himachal Pradesh,32.2396,77.1887,27.1,27,0.0,825.7,7.8,36.7,55,21.0,9.4,4,5,7,0,2026-03-05T15:20:13.643935+05:30
Gurgaon,Haryana,28.4595,77.0266,33.4,33,0.0,982.8,5.95,33.5,1372,1777.0,191.4,0,5,3,0,2026-03-05T15:20:13.643942+05:30
Noida,Uttar Pradesh,28.5355,77.391,33.8,33,0.0,985.6,5.85,34.6,1372,1777.0,191.4,0,5,3,0,2026-03-05T15:20:13.643949+05:30
Ghaziabad,Uttar Pradesh,28.6692,77.4538,33.0,38,0.0,983.6,5.85,31.7,257,339.9,77.1,0,5,3,1,2026-03-05T15:20:13.643955+05:30
Faridabad,Haryana,28.4089,77.3178,33.1,33,0.0,984.9,5.9,33.1,1372,1777.0,191.4,0,5,3,0,2026-03-05T15:20:13.643962+05:30
Meerut,Uttar Pradesh,28.9845,77.7064,33.0,34,0.0,982.2,5.75,30.6,257,339.9,77.1,0,5,3,0,2026-03-05T15:20:13.643968+05:30
Agra,Uttar Pradesh,27.1767,78.0081,35.7,23,0.0,988.7,6.25,37.8,439,570.0,76.4,0,5,10,0,2026-03-05T15:20:13.643975+05:30
Varanasi,Uttar Pradesh,25.3176,82.9739,30.6,43,0.0,998.1,7.05,16.6,155,217.0,64.5,0,5,7,1,2026-03-05T15:20:13.643984+05:30
Prayagraj,Uttar Pradesh,25.4358,81.8463,31.5,42,0.0,996.4,6.9,19.4,155,258.9,70.5,0,5,7,1,2026-03-05T15:20:13.643991+05:30
Gorakhpur,Uttar Pradesh,26.7606,83.3732,30.1,45,0.0,997.9,6.75,11.2,173,88.9,64.7,0,5,7,1,2026-03-05T15:20:13.644001+05:30
Bareilly,Uttar Pradesh,28.367,79.4304,30.2,50,0.0,987.5,6.05,14.0,167,156.9,72.4,0,5,7,1,2026-03-05T15:20:13.644008+05:30
Aligarh,Uttar Pradesh,27.8974,78.088,34.0,31,0.0,986.3,5.95,35.3,681,756.2,127.6,0,5,3,0,2026-03-05T15:20:13.644014+05:30
Moradabad,Uttar Pradesh,28.8386,78.7733,30.3,48,0.0,984.5,5.9,18.0,169,138.3,72.2,0,5,3,1,2026-03-05T15:20:13.644021+05:30
Saharanpur,Uttar Pradesh,29.9637,77.546,31.2,48,0.0,976.4,5.5,23.4,154,112.9,49.7,0,5,3,1,2026-03-05T15:20:13.644026+05:30
Jhansi,Uttar Pradesh,25.4484,78.5685,36.0,21,0.0,979.1,6.85,35.3,56,38.6,15.3,0,5,10,0,2026-03-05T15:20:16.867037+05:30
Surat,Gujarat,21.1702,72.8311,35.6,26,0.0,1008.4,7.1,29.5,114,31.7,29.4,0,0,7,0,2026-03-05T15:20:16.867066+05:30
Vadodara,Gujarat,22.3072,73.1812,39.1,17,0.0,1006.0,7.2,24.5,84,23.3,19.5,0,5,7,0,2026-03-05T15:20:16.867076+05:30
Rajkot,Gujarat,22.3039,70.8022,35.2,19,0.0,997.7,7.05,36.4,57,20.1,19.0,0,5,10,0,2026-03-05T15:20:16.867084+05:30
Thane,Maharashtra,19.2183,72.9781,37.0,27,0.0,1008.1,7.4,41.4,118,39.7,37.3,0,0,7,0,2026-03-05T15:20:16.867091+05:30
Nagpur,Maharashtra,21.1458,79.0882,36.7,13,0.0,973.7,7.8,27.0,64,15.3,11.8,0,5,10,0,2026-03-05T15:20:16.867098+05:30
Nashik,Maharashtra,19.9975,73.7898,35.8,20,0.0,947.3,7.6,37.4,74,17.7,14.3,0,5,10,0,2026-03-05T15:20:16.867106+05:30
Aurangabad,Maharashtra,19.8762,75.3433,36.1,17,0.0,945.5,8.1,30.2,73,19.1,15.8,0,5,10,0,2026-03-05T15:20:16.867112+05:30
Solapur,Maharashtra,17.6599,75.9064,35.7,20,0.0,957.7,8.35,19.1,82,23.4,20.8,0,5,10,0,2026-03-05T15:20:16.867119+05:30
Kolhapur,Maharashtra,16.705,74.2433,35.6,20,0.0,948.3,8.5,34.6,154,23.9,21.9,0,5,10,0,2026-03-05T15:20:16.867127+05:30
Goa,Goa,15.2993,74.124,30.5,68,0.0,997.5,8.55,36.0,153,50.4,47.5,3,5,7,1,2026-03-05T15:20:16.867134+05:30
Jodhpur,Rajasthan,26.2389,73.0243,36.3,16,0.0,986.0,6.9,24.1,84,41.6,14.4,0,5,10,0,2026-03-05T15:20:16.867141+05:30
Udaipur,Rajasthan,24.5854,73.7125,34.6,16,0.0,949.9,7.55,25.9,60,12.5,10.1,0,5,7,0,2026-03-05T15:20:16.867148+05:30
Kota,Rajasthan,25.2138,75.8648,36.9,19,0.0,980.7,6.95,28.8,73,52.9,17.7,0,5,10,0,2026-03-05T15:20:16.867155+05:30
Bikaner,Rajasthan,28.0229,73.3119,35.7,19,0.0,984.6,6.6,20.9,61,132.7,24.3,0,5,10,0,2026-03-05T15:20:16.867161+05:30
Ajmer,Rajasthan,26.4499,74.6399,35.2,19,0.0,957.5,6.9,25.6,69,113.9,25.4,0,5,10,0,2026-03-05T15:20:16.867168+05:30
Gwalior,Madhya Pradesh,26.2183,78.1828,34.2,28,0.0,984.5,6.55,32.8,66,42.7,19.3,0,5,7,0,2026-03-05T15:20:16.867175+05:30
Indore,Madhya Pradesh,22.7196,75.8577,34.0,19,0.0,950.7,7.5,25.2,78,23.8,12.1,0,5,7,0,2026-03-05T15:20:16.867181+05:30
Bhopal,Madhya Pradesh,23.2599,77.4126,34.3,20,0.0,955.8,7.35,29.5,58,25.6,13.1,0,5,7,0,2026-03-05T15:20:16.867187+05:30
Jabalpur,Madhya Pradesh,23.1815,79.9864,34.6,20,0.0,962.5,7.5,30.2,55,29.9,12.3,0,5,7,0,2026-03-05T15:20:16.867194+05:30
Ujjain,Madhya Pradesh,23.1765,75.7885,34.0,19,0.0,956.3,7.4,23.0,107,29.2,14.5,0,5,7,0,2026-03-05T15:20:16.867201+05:30
Visakhapatnam,Andhra Pradesh,17.6868,83.2185,34.1,35,0.0,1001.8,8.45,33.1,104,42.7,38.4,0,5,4,1,2026-03-05T15:20:16.867207+05:30
Vijayawada,Andhra Pradesh,16.5062,80.648,35.8,30,0.0,1001.4,8.5,17.3,114,32.0,29.6,0,5,7,0,2026-03-05T15:20:16.867214+05:30
Guntur,Andhra Pradesh,16.3067,80.4365,36.6,26,0.0,1002.5,8.5,20.9,111,25.2,22.8,0,5,7,0,2026-03-05T15:20:16.867220+05:30
Nellore,Andhra Pradesh,14.4426,79.9865,37.5,26,0.0,1004.4,8.7,28.4,99,33.2,30.2,0,5,7,0,2026-03-05T15:20:16.867227+05:30
Kurnool,Andhra Pradesh,15.8281,78.0373,37.4,17,0.0,976.4,8.5,27.0,88,23.7,21.4,0,5,10,0,2026-03-05T15:20:16.867235+05:30
Kakinada,Andhra Pradesh,16.9891,82.2475,37.0,28,0.0,1005.1,8.45,27.4,95,35.7,32.2,0,5,7,0,2026-03-05T15:20:16.867241+05:30
Tirupati,Andhra Pradesh,13.6288,79.4192,35.9,20,0.0,990.5,8.8,29.5,131,29.4,25.8,0,5,10,0,2026-03-05T15:20:16.867247+05:30
Warangal,Telangana,17.9689,79.5941,35.7,20,0.0,978.6,8.3,27.4,86,16.5,12.5,0,5,10,0,2026-03-05T15:20:16.867254+05:30
Nizamabad,Telangana,18.6725,78.0941,35.8,21,0.0,965.3,8.15,22.3,88,13.9,11.1,0,5,10,0,2026-03-05T15:20:16.867260+05:30
Mysore,Karnataka,12.2958,76.6396,32.6,28,0.0,928.3,9.15,24.5,96,31.8,30.7,0,5,7,0,2026-03-05T15:20:16.867266+05:30
Mangalore,Karnataka,12.9141,74.856,28.6,79,0.0,1005.3,8.75,30.2,131,48.1,44.6,7,5,4,1,2026-03-05T15:20:16.867273+05:30
Hubli-Dharwad,Karnataka,15.3647,75.124,35.5,20,0.0,940.9,8.75,29.2,97,23.3,21.8,0,5,10,0,2026-03-05T15:20:16.867279+05:30
Belgaum,Karnataka,15.8497,74.4977,34.6,21,0.0,926.4,8.75,36.7,125,21.7,20.0,0,5,7,0,2026-03-05T15:20:20.092126+05:30
Coimbatore,Tamil Nadu,11.0168,76.9558,34.6,25,0.0,960.9,9.15,34.2,100,24.2,23.5,0,5,7,0,2026-03-05T15:20:20.092154+05:30
Madurai,Tamil Nadu,9.9252,78.1198,37.1,19,0.0,991.3,9.1,29.9,75,25.4,23.4,0,5,10,0,2026-03-05T15:20:20.092163+05:30
Trichy,Tamil Nadu,10.7905,78.7047,35.8,23,0.0,998.5,9.0,33.8,88,37.8,34.3,0,5,10,0,2026-03-05T15:20:20.092170+05:30
Salem,Tamil Nadu,11.6643,78.146,36.9,22,0.0,975.8,9.05,19.8,90,29.5,27.7,0,5,10,0,2026-03-05T15:20:20.092177+05:30
Tirunelveli,Tamil Nadu,8.7139,77.7567,37.6,21,0.0,1001.8,9.15,48.6,71,16.2,15.3,0,5,7,0,2026-03-05T15:20:20.092184+05:30
Vellore,Tamil Nadu,12.9165,79.1325,35.2,22,0.0,983.6,8.9,29.2,120,29.1,25.1,0,5,10,0,2026-03-05T15:20:20.092190+05:30
Erode,Tamil Nadu,11.341,77.7172,36.3,29,0.0,987.5,9.05,19.8,80,31.1,29.8,0,5,10,0,2026-03-05T15:20:20.092196+05:30
Kochi,Kerala,9.9312,76.2673,28.4,75,0.0,1007.5,8.95,38.2,143,47.0,44.8,7,5,4,1,2026-03-05T15:20:20.092203+05:30
Thiruvananthapuram,Kerala,8.5241,76.9366,28.1,76,0.0,1007.0,9.0,32.8,116,38.5,36.0,7,5,4,1,2026-03-05T15:20:20.092210+05:30
Kozhikode,Kerala,11.2588,75.7804,29.4,74,0.0,1006.8,8.85,30.6,127,47.6,43.8,7,5,4,1,2026-03-05T15:20:20.092217+05:30
Thrissur,Kerala,10.5276,76.2144,31.6,63,0.0,1005.7,8.95,36.7,144,36.2,34.5,3,5,4,1,2026-03-05T15:20:20.092224+05:30
Kannur,Kerala,11.8745,75.3704,30.4,69,0.0,1005.9,8.85,37.4,130,46.8,42.8,3,5,4,1,2026-03-05T15:20:20.092230+05:30
Patna,Bihar,25.5941,85.1376,30.8,39,0.0,1001.0,7.2,14.4,169,82.9,57.6,0,5,4,0,2026-03-05T15:20:20.092237+05:30
Gaya,Bihar,24.7914,85.0002,29.3,48,0.0,994.4,7.3,12.6,153,86.1,53.2,4,5,7,1,2026-03-05T15:20:20.092243+05:30
Muzaffarpur,Bihar,26.1209,85.3647,31.1,39,0.0,1001.0,7.15,15.5,175,79.6,57.2,0,5,4,0,2026-03-05T15:20:20.092249+05:30
Bhagalpur,Bihar,25.2425,87.0117,29.9,41,0.0,1001.6,7.25,14.0,164,73.1,55.4,4,5,4,0,2026-03-05T15:20:20.092255+05:30
Ranchi,Jharkhand,23.3441,85.3096,29.4,33,0.0,937.8,7.95,19.1,132,129.0,44.8,4,5,7,0,2026-03-05T15:20:20.092262+05:30
Jamshedpur,Jharkhand,22.8046,86.2029,32.8,26,0.0,990.0,7.85,11.2,155,119.7,60.3,0,5,7,0,2026-03-05T15:20:20.092268+05:30
Dhanbad,Jharkhand,23.7957,86.4304,32.9,24,0.0,979.3,7.75,16.2,157,133.2,71.0,0,5,7,0,2026-03-05T15:20:20.092274+05:30
Bokaro,Jharkhand,23.6693,86.1511,32.2,28,0.0,983.3,7.75,13.3,158,142.5,74.5,0,5,7,0,2026-03-05T15:20:20.092280+05:30
Bhubaneswar,Odisha,20.2961,85.8245,36.5,17,0.0,1000.4,8.15,25.2,153,80.6,49.5,0,5,7,0,2026-03-05T15:20:20.092286+05:30
Cuttack,Odisha,20.4625,85.8828,35.9,21,0.0,1002.5,8.2,26.6,153,80.6,49.5,0,5,7,0,2026-03-05T15:20:20.092293+05:30
Rourkela,Odisha,22.2604,84.8536,33.9,28,0.0,984.0,7.8,23.0,106,127.6,42.0,0,5,7,0,2026-03-05T15:20:20.092299+05:30
Raipur,Chhattisgarh,21.2514,81.6296,37.3,15,0.0,974.2,7.85,27.7,120,24.3,15.0,0,5,10,0,2026-03-05T15:20:20.092305+05:30
Bhilai,Chhattisgarh,21.1938,81.3509,37.6,15,0.0,974.6,7.85,27.7,99,23.4,13.0,0,5,10,0,2026-03-05T15:20:20.092310+05:30
Guwahati,Assam,26.1158,91.7086,30.8,42,0.0,1000.6,7.15,18.0,148,45.6,38.1,0,5,4,1,2026-03-05T15:20:20.092316+05:30
Agartala,Tripura,23.8315,91.2868,31.2,41,0.0,1005.1,7.55,16.2,152,66.8,47.5,0,5,4,1,2026-03-05T15:20:20.092322+05:30
Shillong,Meghalaya,25.5788,91.8933,20.2,45,0.0,856.8,7.55,15.8,113,40.6,34.2,0,5,7,0,2026-03-05T15:20:20.092328+05:30
Imphal,Manipur,24.817,93.9368,24.8,39,0.0,922.6,7.75,23.0,150,37.7,32.1,0,5,7,0,2026-03-05T15:20:20.092334+05:30
Aizawl,Mizoram,23.7271,92.7176,26.0,35,0.0,892.8,7.75,23.8,159,55.6,47.0,4,5,7,0,2026-03-05T15:20:20.092340+05:30
Kohima,Nagaland,25.6701,94.1077,18.8,70,0.0,855.0,7.6,36.7,150,42.3,36.0,3,5,7,0,2026-03-05T15:20:20.092346+05:30
Gangtok,Sikkim,27.3314,88.6138,20.5,55,0.0,838.8,7.5,21.2,108,27.4,24.2,0,5,7,0,2026-03-05T15:20:20.092353+05:30
Siliguri,West Bengal,26.7271,88.3953,26.1,53,0.0,994.1,7.15,22.3,142,37.8,30.5,4,5,7,0,2026-03-05T15:20:23.315594+05:30
Durgapur,West Bengal,23.5204,87.3119,33.2,27,0.0,994.2,7.7,20.2,158,115.0,66.4,0,5,7,0,2026-03-05T15:20:23.315627+05:30
Asansol,West Bengal,23.6739,86.9524,33.0,28,0.0,992.9,7.7,15.1,151,127.6,67.8,0,5,7,0,2026-03-05T15:20:23.315639+05:30
Pondicherry,Puducherry,11.9139,79.8145,35.0,36,0.0,1007.3,8.85,24.5,78,23.9,20.5,0,5,4,1,2026-03-05T15:20:23.315648+05:30
Port Blair,Andaman and Nicobar Islands,11.6234,92.7265,27.0,72,0.0,1005.6,8.8,23.4,75,22.7,18.3,7,5,4,1,2026-03-05T15:20:23.315658+05:30
Haridwar,Uttarakhand,29.9457,78.1642,29.6,51,0.0,975.3,5.65,21.6,138,75.7,45.1,4,5,3,1,2026-03-05T15:20:23.315668+05:30
Rishikesh,Uttarakhand,30.0869,78.2676,29.0,50,0.0,968.2,5.7,20.9,113,91.3,49.7,4,5,3,1,2026-03-05T15:20:23.315677+05:30
Nainital,Uttarakhand,29.3919,79.4542,21.0,66,0.0,807.9,6.5,53.6,152,97.3,55.5,3,5,7,0,2026-03-05T15:20:23.315686+05:30
Mussoorie,Uttarakhand,30.4599,78.0664,21.2,62,0.0,805.3,6.05,37.1,103,55.2,38.1,3,5,7,0,2026-03-05T15:20:23.315696+05:30
Dharamshala,Himachal Pradesh,32.219,76.3234,27.5,39,0.0,872.6,6.3,24.5,51,20.2,8.4,4,5,7,0,2026-03-05T15:20:23.315704+05:30
Dalhousie,Himachal Pradesh,32.5387,75.971,26.6,31,0.0,808.9,6.45,21.2,83,34.6,18.1,4,5,7,0,2026-03-05T15:20:23.315714+05:30
Patiala,Punjab,30.3398,76.3869,32.5,34,0.0,979.5,5.7,28.4,329,475.0,85.2,0,5,3,0,2026-03-05T15:20:23.315722+05:30
Bhatinda,Punjab,30.211,74.9455,33.9,35,0.0,985.6,6.35,27.0,137,75.2,43.7,0,5,7,1,2026-03-05T15:20:23.315730+05:30
Rohtak,Haryana,28.8955,76.6066,33.2,35,0.0,983.3,5.85,33.1,539,841.9,112.2,0,5,3,0,2026-03-05T15:20:23.315763+05:30
Panipat,Haryana,29.3909,76.9635,33.2,34,0.0,981.5,5.65,32.4,1195,1333.7,155.1,0,5,3,0,2026-03-05T15:20:23.315772+05:30
Mathura,Uttar Pradesh,27.4924,77.6737,35.1,26,0.0,987.8,6.15,34.9,563,864.3,106.2,0,5,10,0,2026-03-05T15:20:23.315780+05:30
Vrindavan,Uttar Pradesh,27.5823,77.7027,34.6,28,0.0,988.3,6.1,37.1,563,864.3,106.2,0,5,7,0,2026-03-05T15:20:23.315789+05:30
Ayodhya,Uttar Pradesh,26.7922,82.1998,30.7,42,0.0,996.0,6.55,10.1,176,144.8,68.5,0,5,7,1,2026-03-05T15:20:23.315796+05:30
Ratlam,Madhya Pradesh,23.3315,75.0367,34.2,21,0.0,957.4,7.35,23.0,94,27.2,13.9,0,5,7,0,2026-03-05T15:20:23.315805+05:30
Sagar,Madhya Pradesh,23.8388,78.7378,34.2,20,0.0,951.8,7.3,31.7,49,34.2,12.7,0,5,7,0,2026-03-05T15:20:23.315812+05:30
Satna,Madhya Pradesh,24.6005,80.8322,35.1,18,0.0,972.0,7.3,40.0,65,46.8,21.0,0,5,10,0,2026-03-05T15:20:23.315820+05:30
Akola,Maharashtra,20.7002,77.0082,37.7,13,0.0,975.8,7.8,26.6,77,16.4,11.8,0,5,10,0,2026-03-05T15:20:23.315828+05:30
Amravati,Maharashtra,20.9374,77.7796,37.8,12,0.0,968.0,7.8,16.9,75,15.0,11.4,0,5,10,0,2026-03-05T15:20:23.315836+05:30
Latur,Maharashtra,18.4088,76.5604,34.9,16,0.0,940.9,8.3,32.0,98,22.2,19.4,0,5,7,0,2026-03-05T15:20:23.315842+05:30
Nanded,Maharashtra,19.1383,77.3091,37.3,16,0.0,969.1,8.05,25.2,95,13.1,10.7,0,5,10,0,2026-03-05T15:20:23.315848+05:30
Gulbarga,Karnataka,17.3297,76.8343,36.9,19,0.0,958.9,8.35,22.3,81,16.5,14.3,0,5,10,0,2026-03-05T15:20:23.315854+05:30
Bidar,Karnataka,17.9104,77.5199,35.4,18,0.0,936.3,8.3,24.8,93,15.1,12.9,0,5,10,0,2026-03-05T15:20:23.315861+05:30
Hospet,Karnataka,15.2689,76.3909,35.9,19,0.0,955.7,8.7,25.9,83,22.1,20.3,0,5,10,0,2026-03-05T15:20:23.315868+05:30
Tirupur,Tamil Nadu,11.1085,77.3411,35.9,21,0.0,974.2,9.15,29.2,98,28.5,27.5,0,5,10,0,2026-03-05T15:20:23.315874+05:30
Alappuzha,Kerala,9.4981,76.3388,28.3,76,0.0,1007.8,8.95,35.3,119,37.1,35.0,7,5,4,1,2026-03-05T15:20:23.315880+05:30
Munnar,Kerala,10.0889,77.0595,29.9,37,0.0,858.4,9.45,23.4,73,19.7,18.9,4,5,7,0,2026-03-05T15:20:23.315887+05:30
Silchar,Assam,24.8333,92.7789,32.1,35,0.0,1003.4,7.5,13.7,152,53.9,44.9,0,5,4,0,2026-03-05T15:20:23.315894+05:30
Dibrugarh,Assam,27.4728,94.912,29.5,45,0.0,994.0,7.2,14.4,129,49.4,40.7,4,5,7,1,2026-03-05T15:20:23.315900+05:30
