city,state,latitude,longitude,temp,humidity,rain,pressure,uv_index,wind_gusts,aqi,pm10,pm2_5,mosquito_risk,arthritis_risk,migraine_risk,frizz_risk,updated_at
Delhi,Delhi,28.6139,77.209,25.2,61,0.0,982.0,5.8,31.7,197,291.5,76.4,7,5,3,1,2026-03-30T00:19:23.380824+05:30
Mumbai,Maharashtra,19.076,72.8777,27.4,85,0.0,1008.2,8.0,20.5,56,25.6,12.9,7,0,4,1,2026-03-30T00:19:23.380866+05:30
Bangalore,Karnataka,12.9716,77.5946,23.9,69,0.0,911.2,9.55,42.5,129,75.7,67.3,3,5,7,1,2026-03-30T00:19:23.380881+05:30
Hyderabad,Telangana,17.385,78.4867,27.1,61,0.0,951.6,9.05,24.5,87,42.7,39.8,7,5,7,1,2026-03-30T00:19:23.380891+05:30
Chennai,Tamil Nadu,13.0827,80.2707,27.3,88,0.0,1006.4,9.25,37.4,54,17.1,12.3,7,5,4,1,2026-03-30T00:19:23.380900+05:30
Kolkata,West Bengal,22.5726,88.3639,25.3,91,0.0,1006.0,8.45,26.6,116,40.9,36.2,7,5,4,1,2026-03-30T00:19:23.380909+05:30
Pune,Maharashtra,18.5204,73.8567,24.0,89,0.0,947.7,8.55,40.3,81,28.6,21.6,3,5,7,1,2026-03-30T00:19:23.380920+05:30
Ahmedabad,Gujarat,23.0225,72.5714,28.0,62,0.0,1002.0,7.7,31.0,46,30.9,14.4,7,5,4,1,2026-03-30T00:19:23.380928+05:30
Jaipur,Rajasthan,26.9124,75.7873,26.0,34,0.0,959.0,7.45,36.7,97,211.4,32.9,4,5,7,0,2026-03-30T00:19:23.380936+05:30
Lucknow,Uttar Pradesh,26.8467,80.9462,24.6,64,0.0,992.8,7.2,16.6,107,68.5,33.5,3,5,7,1,2026-03-30T00:19:23.380943+05:30
Kanpur,Uttar Pradesh,26.4499,80.3319,24.3,62,0.0,990.8,7.25,17.3,105,111.3,33.9,3,5,7,1,2026-03-30T00:19:23.380952+05:30
Chandigarh,Chandigarh,30.7333,76.7794,21.8,78,0.0,967.9,6.5,28.1,95,66.4,39.5,3,5,7,1,2026-03-30T00:19:23.380959+05:30
Srinagar,Jammu and Kashmir,34.0837,74.7973,10.6,84,0.0,840.0,6.55,22.3,75,41.2,38.9,3,10,7,0,2026-03-30T00:19:23.380966+05:30
Jammu,Jammu and Kashmir,32.7266,74.857,20.5,77,0.0,972.0,5.4,28.1,89,55.5,40.5,3,5,3,1,2026-03-30T00:19:23.380973+05:30
Amritsar,Punjab,31.634,74.8723,21.2,78,0.0,980.2,7.3,37.1,79,59.1,30.6,3,5,7,1,2026-03-30T00:19:23.380980+05:30
Ludhiana,Punjab,30.901,75.8573,22.2,82,0.0,978.4,6.95,36.4,108,90.3,52.6,3,5,7,1,2026-03-30T00:19:23.380986+05:30
Jalandhar,Punjab,31.326,75.5762,21.5,75,0.0,979.1,7.1,33.1,93,59.8,31.0,3,5,7,1,2026-03-30T00:19:23.381013+05:30
Dehradun,Uttarakhand,30.6284,78.0322,14.3,70,0.0,829.5,6.35,20.2,62,32.7,14.1,3,5,7,0,2026-03-30T00:19:23.381021+05:30
Shimla,Himachal Pradesh,31.1048,77.1734,12.8,66,0.0,783.4,4.3,26.6,75,25.1,14.7,3,5,3,0,2026-03-30T00:19:23.381028+05:30
Manali,Himachal Pradesh,32.2396,77.1887,14.1,60,0.0,819.1,5.1,29.2,42,2.7,2.7,0,5,3,0,2026-03-30T00:19:23.381034+05:30
Gurgaon,Haryana,28.4595,77.0266,24.4,68,0.0,980.2,6.45,27.0,584,319.4,72.4,3,5,7,1,2026-03-30T00:19:23.381041+05:30
Noida,Uttar Pradesh,28.5355,77.391,24.9,64,0.0,983.5,5.9,27.4,584,319.4,72.4,3,5,3,1,2026-03-30T00:19:23.381047+05:30
Ghaziabad,Uttar Pradesh,28.6692,77.4538,24.2,65,0.0,981.6,5.9,25.6,156,200.7,69.8,3,5,3,1,2026-03-30T00:19:23.381053+05:30
Faridabad,Haryana,28.4089,77.3178,25.3,62,0.0,982.8,6.25,28.8,584,319.4,72.4,7,5,7,1,2026-03-30T00:19:23.381060+05:30
Meerut,Uttar Pradesh,28.9845,77.7064,23.2,68,0.0,980.4,6.15,24.1,156,200.7,69.8,3,5,7,1,2026-03-30T00:19:23.381066+05:30
Agra,Uttar Pradesh,27.1767,78.0081,26.5,60,0.0,986.4,7.1,33.1,252,588.6,84.5,4,5,7,1,2026-03-30T00:19:23.381072+05:30
Varanasi,Uttar Pradesh,25.3176,82.9739,23.0,61,0.0,996.6,7.9,18.4,88,73.3,47.4,3,5,7,0,2026-03-30T00:19:23.381081+05:30
Prayagraj,Uttar Pradesh,25.4358,81.8463,24.1,65,0.0,994.8,7.8,20.9,100,62.2,38.9,3,5,7,1,2026-03-30T00:19:23.381088+05:30
Gorakhpur,Uttar Pradesh,26.7606,83.3732,22.4,74,0.0,997.0,7.55,26.3,133,73.3,51.3,3,5,7,1,2026-03-30T00:19:23.381094+05:30
Bareilly,Uttar Pradesh,28.367,79.4304,23.4,72,0.0,986.0,6.95,15.8,100,60.5,46.3,3,5,7,1,2026-03-30T00:19:23.381103+05:30
Aligarh,Uttar Pradesh,27.8974,78.088,24.3,65,0.0,984.2,6.9,26.3,176,248.7,68.5,3,5,7,1,2026-03-30T00:19:23.381109+05:30
Moradabad,Uttar Pradesh,28.8386,78.7733,24.7,63,0.0,983.0,6.8,14.8,151,126.2,100.8,3,5,7,1,2026-03-30T00:19:23.381115+05:30
Saharanpur,Uttar Pradesh,29.9637,77.546,21.5,80,0.0,974.7,6.0,19.4,99,63.8,46.6,3,5,3,1,2026-03-30T00:19:23.381121+05:30
Jhansi,Uttar Pradesh,25.4484,78.5685,26.2,55,0.0,976.4,7.75,23.8,69,34.0,22.1,4,5,7,1,2026-03-30T00:19:26.599472+05:30
Surat,Gujarat,21.1702,72.8311,26.7,89,0.0,1006.5,7.75,26.3,74,34.6,25.1,7,5,4,1,2026-03-30T00:19:26.599504+05:30
Vadodara,Gujarat,22.3072,73.1812,27.5,81,0.0,1004.1,7.8,27.0,62,41.7,26.3,7,5,4,1,2026-03-30T00:19:26.599516+05:30
Rajkot,Gujarat,22.3039,70.8022,25.7,80,0.0,994.7,7.7,30.6,54,41.0,15.0,7,5,7,1,2026-03-30T00:19:26.599525+05:30
Thane,Maharashtra,19.2183,72.9781,26.4,87,0.0,1007.6,8.0,34.6,56,25.6,12.9,7,5,4,1,2026-03-30T00:19:26.599534+05:30
Nagpur,Maharashtra,21.1458,79.0882,28.1,50,0.0,971.4,8.55,27.0,65,54.4,33.9,4,5,7,1,2026-03-30T00:19:26.599542+05:30
Nashik,Maharashtra,19.9975,73.7898,23.1,74,0.0,945.0,8.25,31.7,45,19.4,12.3,3,5,7,1,2026-03-30T00:19:26.599549+05:30
Aurangabad,Maharashtra,19.8762,75.3433,27.5,47,0.0,943.2,8.75,32.0,41,20.3,14.9,4,5,7,0,2026-03-30T00:19:26.599558+05:30
Solapur,Maharashtra,17.6599,75.9064,28.3,37,0.0,955.1,8.85,23.0,55,29.4,24.1,4,5,7,0,2026-03-30T00:19:26.599567+05:30
Kolhapur,Maharashtra,16.705,74.2433,21.3,95,0.0,946.4,9.0,37.4,69,21.6,19.0,3,5,7,1,2026-03-30T00:19:26.599575+05:30
Goa,Goa,15.2993,74.124,27.3,78,0.0,996.3,8.95,37.1,71,21.0,14.8,7,5,7,1,2026-03-30T00:19:26.599583+05:30
Jodhpur,Rajasthan,26.2389,73.0243,26.8,57,0.0,981.9,7.35,46.1,124,207.7,31.7,4,5,7,1,2026-03-30T00:19:26.599591+05:30
Udaipur,Rajasthan,24.5854,73.7125,24.4,59,0.0,946.5,7.95,35.3,44,34.5,13.5,0,5,7,0,2026-03-30T00:19:26.599600+05:30
Kota,Rajasthan,25.2138,75.8648,27.1,35,0.0,977.7,7.5,34.9,41,11.8,8.7,4,5,7,0,2026-03-30T00:19:26.599608+05:30
Bikaner,Rajasthan,28.0229,73.3119,26.6,29,0.0,979.6,7.5,34.6,110,156.9,37.7,4,5,7,0,2026-03-30T00:19:26.599617+05:30
Ajmer,Rajasthan,26.4499,74.6399,24.4,55,0.0,953.8,7.7,45.0,48,64.7,16.2,0,5,7,0,2026-03-30T00:19:26.599625+05:30
Gwalior,Madhya Pradesh,26.2183,78.1828,26.6,60,0.0,981.7,7.45,25.2,78,51.2,27.6,4,5,7,1,2026-03-30T00:19:26.599633+05:30
Indore,Madhya Pradesh,22.7196,75.8577,24.2,65,0.0,947.6,8.25,33.5,49,31.9,17.6,3,5,7,1,2026-03-30T00:19:26.599641+05:30
Bhopal,Madhya Pradesh,23.2599,77.4126,25.9,49,0.0,952.8,8.2,35.6,40,20.4,11.8,4,5,7,0,2026-03-30T00:19:26.599649+05:30
Jabalpur,Madhya Pradesh,23.1815,79.9864,25.2,67,0.0,959.7,8.25,32.4,58,28.3,19.4,7,5,7,1,2026-03-30T00:19:26.599657+05:30
Ujjain,Madhya Pradesh,23.1765,75.7885,24.3,66,0.0,953.2,8.2,34.9,48,32.7,18.2,3,5,7,1,2026-03-30T00:19:26.599665+05:30
Visakhapatnam,Andhra Pradesh,17.6868,83.2185,27.3,87,0.0,1002.6,9.0,38.2,67,22.7,16.6,7,5,4,1,2026-03-30T00:19:26.599673+05:30
Vijayawada,Andhra Pradesh,16.5062,80.648,27.0,92,0.0,1001.4,9.05,29.9,82,20.4,17.8,7,5,4,1,2026-03-30T00:19:26.599681+05:30
Guntur,Andhra Pradesh,16.3067,80.4365,27.0,92,0.0,1002.5,9.05,31.3,93,23.7,21.2,7,5,4,1,2026-03-30T00:19:26.599689+05:30
Nellore,Andhra Pradesh,14.4426,79.9865,26.7,89,0.0,1004.6,8.65,31.7,68,14.1,11.1,7,5,4,1,2026-03-30T00:19:26.599698+05:30
Kurnool,Andhra Pradesh,15.8281,78.0373,29.9,48,0.0,974.7,9.1,29.2,107,51.6,46.9,4,5,7,1,2026-03-30T00:19:26.599706+05:30
Kakinada,Andhra Pradesh,16.9891,82.2475,25.9,95,0.0,1006.7,9.0,29.9,54,17.9,11.3,7,5,4,1,2026-03-30T00:19:26.599714+05:30
Tirupati,Andhra Pradesh,13.6288,79.4192,26.8,86,0.0,991.2,9.1,33.8,97,29.0,27.6,7,5,7,1,2026-03-30T00:19:26.599722+05:30
Warangal,Telangana,17.9689,79.5941,28.5,67,0.0,976.7,8.9,28.4,101,47.5,46.2,7,5,7,1,2026-03-30T00:19:26.599730+05:30
Nizamabad,Telangana,18.6725,78.0941,28.1,47,0.0,962.4,8.8,28.8,73,43.2,39.1,4,5,7,0,2026-03-30T00:19:26.599738+05:30
Mysore,Karnataka,12.2958,76.6396,23.9,87,0.0,928.0,9.45,24.1,123,54.1,49.5,3,5,7,1,2026-03-30T00:19:26.599745+05:30
Mangalore,Karnataka,12.9141,74.856,29.5,81,0.0,1004.9,9.1,31.3,82,31.3,18.3,7,5,4,1,2026-03-30T00:19:26.599753+05:30
Hubli-Dharwad,Karnataka,15.3647,75.124,25.0,73,0.0,939.0,9.15,30.2,81,29.0,20.9,7,5,7,1,2026-03-30T00:19:26.599761+05:30
Belgaum,Karnataka,15.8497,74.4977,22.1,83,0.0,923.8,9.2,37.8,65,23.6,18.9,3,5,7,1,2026-03-30T00:19:29.822302+05:30
Coimbatore,Tamil Nadu,11.0168,76.9558,25.6,80,0.0,961.1,9.25,46.1,94,64.5,58.9,7,5,7,1,2026-03-30T00:19:29.822331+05:30
Madurai,Tamil Nadu,9.9252,78.1198,27.1,79,0.0,992.6,9.25,26.6,80,25.6,24.4,7,5,7,1,2026-03-30T00:19:29.822341+05:30
Trichy,Tamil Nadu,10.7905,78.7047,26.4,92,0.0,999.2,8.8,27.4,71,20.4,19.2,7,5,7,1,2026-03-30T00:19:29.822350+05:30
Salem,Tamil Nadu,11.6643,78.146,28.6,67,0.0,976.8,9.4,30.2,97,30.0,28.3,7,5,7,1,2026-03-30T00:19:29.822357+05:30
Tirunelveli,Tamil Nadu,8.7139,77.7567,27.1,75,0.0,1002.2,9.35,51.8,83,32.7,30.9,7,5,4,1,2026-03-30T00:19:29.822364+05:30
Vellore,Tamil Nadu,12.9165,79.1325,26.8,84,0.0,984.0,9.35,34.6,109,33.2,31.8,7,5,7,1,2026-03-30T00:19:29.822372+05:30
Erode,Tamil Nadu,11.341,77.7172,28.4,72,0.0,988.5,9.35,31.0,94,19.9,18.7,7,5,7,1,2026-03-30T00:19:29.822379+05:30
Kochi,Kerala,9.9312,76.2673,28.5,81,0.0,1007.4,9.15,29.2,88,46.4,44.2,7,5,4,1,2026-03-30T00:19:29.822386+05:30
Thiruvananthapuram,Kerala,8.5241,76.9366,28.6,84,0.0,1006.7,9.2,32.4,76,28.6,22.9,7,5,4,1,2026-03-30T00:19:29.822393+05:30
Kozhikode,Kerala,11.2588,75.7804,28.6,83,0.0,1006.2,9.1,32.4,119,33.2,28.6,7,5,4,1,2026-03-30T00:19:29.822400+05:30
Thrissur,Kerala,10.5276,76.2144,28.1,87,0.0,1005.5,9.15,34.9,87,49.2,44.7,7,5,4,1,2026-03-30T00:19:29.822407+05:30
Kannur,Kerala,11.8745,75.3704,29.1,80,0.0,1005.4,9.15,34.9,84,25.6,22.7,7,5,4,1,2026-03-30T00:19:29.822414+05:30
Patna,Bihar,25.5941,85.1376,23.6,84,0.0,1000.6,8.05,23.8,137,73.3,64.7,3,5,4,1,2026-03-30T00:19:29.822421+05:30
Gaya,Bihar,24.7914,85.0002,23.4,84,0.0,993.5,8.15,19.1,105,60.8,49.0,3,5,7,1,2026-03-30T00:19:29.822428+05:30
Muzaffarpur,Bihar,26.1209,85.3647,22.1,86,0.0,1001.0,8.05,28.1,146,82.2,71.0,3,5,4,1,2026-03-30T00:19:29.822434+05:30
Bhagalpur,Bihar,25.2425,87.0117,22.2,95,0.0,1002.3,8.1,19.8,144,67.5,58.4,3,5,4,1,2026-03-30T00:19:29.822440+05:30
Ranchi,Jharkhand,23.3441,85.3096,23.3,77,0.0,937.2,8.75,31.7,106,37.1,21.0,3,5,7,1,2026-03-30T00:19:29.822447+05:30
Jamshedpur,Jharkhand,22.8046,86.2029,26.6,85,0.0,990.1,8.55,33.1,138,74.0,59.4,7,5,7,1,2026-03-30T00:19:29.822453+05:30
Dhanbad,Jharkhand,23.7957,86.4304,25.7,77,0.0,979.9,8.5,24.5,158,106.2,97.6,7,5,7,1,2026-03-30T00:19:29.822460+05:30
Bokaro,Jharkhand,23.6693,86.1511,25.1,82,0.0,983.8,8.5,29.2,156,88.2,73.6,7,5,7,1,2026-03-30T00:19:29.822467+05:30
Bhubaneswar,Odisha,20.2961,85.8245,26.9,87,0.0,1001.6,8.8,31.3,75,21.5,17.5,7,5,4,1,2026-03-30T00:19:29.822473+05:30
Cuttack,Odisha,20.4625,85.8828,26.9,88,0.0,1003.6,8.8,25.6,75,21.5,17.5,7,5,4,1,2026-03-30T00:19:29.822479+05:30
Rourkela,Odisha,22.2604,84.8536,28.9,64,0.0,983.6,8.5,30.6,121,58.9,48.1,7,5,7,1,2026-03-30T00:19:29.822485+05:30
Raipur,Chhattisgarh,21.2514,81.6296,28.7,39,0.0,972.2,8.6,26.6,105,49.8,47.1,4,5,7,0,2026-03-30T00:19:29.822492+05:30
Bhilai,Chhattisgarh,21.1938,81.3509,27.6,44,0.0,972.4,8.6,29.9,83,30.7,28.2,4,5,7,0,2026-03-30T00:19:29.822498+05:30
Guwahati,Assam,26.1158,91.7086,21.1,94,0.0,1003.5,7.1,14.4,116,67.1,55.2,3,5,4,1,2026-03-30T00:19:29.822504+05:30
Agartala,Tripura,23.8315,91.2868,22.5,93,0.0,1006.9,8.2,34.2,135,42.1,37.8,3,5,4,1,2026-03-30T00:19:29.822510+05:30
Shillong,Meghalaya,25.5788,91.8933,10.8,93,0.0,854.1,5.45,43.9,83,54.8,43.4,3,10,3,0,2026-03-30T00:19:29.822517+05:30
Imphal,Manipur,24.817,93.9368,16.1,89,0.0,923.2,7.85,68.4,133,93.8,76.4,3,10,7,0,2026-03-30T00:19:29.822524+05:30
Aizawl,Mizoram,23.7271,92.7176,16.2,94,0.0,892.1,7.7,52.9,152,75.9,66.8,3,10,7,0,2026-03-30T00:19:29.822530+05:30
Kohima,Nagaland,25.6701,94.1077,12.7,82,0.0,853.7,7.05,86.4,107,68.9,51.9,3,10,7,0,2026-03-30T00:19:29.822537+05:30
Gangtok,Sikkim,27.3314,88.6138,12.4,88,0.0,835.6,8.3,18.7,71,46.8,39.6,3,10,7,0,2026-03-30T00:19:29.822543+05:30
Siliguri,West Bengal,26.7271,88.3953,18.0,84,0.0,995.5,6.55,12.6,130,91.7,70.3,3,10,7,0,2026-03-30T00:19:33.046374+05:30
Durgapur,West Bengal,23.5204,87.3119,24.7,86,0.0,995.3,8.4,22.3,158,87.5,82.0,3,5,7,1,2026-03-30T00:19:33.046404+05:30
Asansol,West Bengal,23.6739,86.9524,25.3,80,0.0,993.9,8.45,21.6,155,87.5,82.2,7,5,7,1,2026-03-30T00:19:33.046414+05:30
Pondicherry,Puducherry,11.9139,79.8145,26.0,95,0.0,1007.7,8.95,32.8,52,15.3,10.9,7,5,4,1,2026-03-30T00:19:33.046421+05:30
Port Blair,Andaman and Nicobar Islands,11.6234,92.7265,28.4,77,0.0,1006.2,9.0,17.3,71,27.8,21.8,7,5,4,1,2026-03-30T00:19:33.046429+05:30
Haridwar,Uttarakhand,29.9457,78.1642,22.6,74,0.0,973.8,5.5,34.6,86,47.7,37.1,3,5,3,1,2026-03-30T00:19:33.046436+05:30
Rishikesh,Uttarakhand,30.0869,78.2676,22.0,71,0.0,966.9,5.75,24.8,71,58.3,25.4,3,5,3,1,2026-03-30T00:19:33.046443+05:30
Nainital,Uttarakhand,29.3919,79.4542,18.6,54,0.0,805.9,7.3,62.6,90,57.4,34.3,0,5,7,0,2026-03-30T00:19:33.046450+05:30
Mussoorie,Uttarakhand,30.4599,78.0664,16.5,60,0.0,802.4,4.9,28.1,85,55.5,32.1,0,5,3,0,2026-03-30T00:19:33.046457+05:30
Dharamshala,Himachal Pradesh,32.219,76.3234,19.5,47,0.0,868.3,5.15,26.6,45,16.9,13.7,0,5,3,0,2026-03-30T00:19:33.046463+05:30
Dalhousie,Himachal Pradesh,32.5387,75.971,15.7,58,0.0,802.5,3.45,29.5,82,57.2,33.9,0,5,3,0,2026-03-30T00:19:33.046471+05:30
Patiala,Punjab,30.3398,76.3869,21.7,78,0.0,977.6,6.4,32.8,193,261.7,49.6,3,5,7,1,2026-03-30T00:19:33.046478+05:30
Bhatinda,Punjab,30.211,74.9455,23.1,76,0.0,982.4,7.3,41.4,169,472.2,96.2,3,5,7,1,2026-03-30T00:19:33.046484+05:30
Rohtak,Haryana,28.8955,76.6066,23.1,71,0.0,980.5,6.55,35.3,271,482.4,94.3,3,5,7,1,2026-03-30T00:19:33.046490+05:30
Panipat,Haryana,29.3909,76.9635,22.6,74,0.0,979.1,5.8,30.6,433,350.2,80.6,3,5,3,1,2026-03-30T00:19:33.046497+05:30
Mathura,Uttar Pradesh,27.4924,77.6737,25.1,65,0.0,985.5,6.95,26.6,232,655.7,88.5,7,5,7,1,2026-03-30T00:19:33.046503+05:30
Vrindavan,Uttar Pradesh,27.5823,77.7027,24.6,68,0.0,986.2,6.9,29.2,232,655.7,88.5,3,5,7,1,2026-03-30T00:19:33.046509+05:30
Ayodhya,Uttar Pradesh,26.7922,82.1998,22.3,61,0.0,994.5,7.1,20.9,138,95.5,56.1,3,5,7,0,2026-03-30T00:19:33.046515+05:30
Ratlam,Madhya Pradesh,23.3315,75.0367,25.6,65,0.0,954.1,8.15,36.0,47,33.8,17.2,7,5,7,1,2026-03-30T00:19:33.046521+05:30
Sagar,Madhya Pradesh,23.8388,78.7378,27.6,51,0.0,948.8,8.15,34.6,40,21.0,10.9,4,5,7,1,2026-03-30T00:19:33.046527+05:30
Satna,Madhya Pradesh,24.6005,80.8322,26.2,48,0.0,970.3,8.15,46.8,62,35.7,16.3,4,5,7,0,2026-03-30T00:19:33.046533+05:30
Akola,Maharashtra,20.7002,77.0082,27.9,54,0.0,974.0,8.5,30.2,53,18.2,12.2,4,5,7,1,2026-03-30T00:19:33.046540+05:30
Amravati,Maharashtra,20.9374,77.7796,27.2,53,0.0,965.8,8.5,31.3,52,21.4,13.1,4,5,7,1,2026-03-30T00:19:33.046547+05:30
Latur,Maharashtra,18.4088,76.5604,26.0,50,0.0,938.0,8.85,28.4,52,27.2,17.0,4,5,7,0,2026-03-30T00:19:33.046553+05:30
Nanded,Maharashtra,19.1383,77.3091,27.6,48,0.0,966.4,8.7,20.5,57,31.3,21.2,4,5,7,0,2026-03-30T00:19:33.046559+05:30
Gulbarga,Karnataka,17.3297,76.8343,29.5,41,0.0,956.6,8.9,32.0,74,22.9,21.5,4,5,7,0,2026-03-30T00:19:33.046565+05:30
Bidar,Karnataka,17.9104,77.5199,27.9,47,0.0,933.7,8.9,30.2,69,32.1,29.1,4,5,7,0,2026-03-30T00:19:33.046571+05:30
Hospet,Karnataka,15.2689,76.3909,29.1,58,0.0,953.9,9.1,17.6,78,30.0,26.5,4,5,7,1,2026-03-30T00:19:33.046577+05:30
Tirupur,Tamil Nadu,11.1085,77.3411,27.2,79,0.0,974.6,9.25,35.6,111,51.3,47.4,7,5,7,1,2026-03-30T00:19:33.046583+05:30
Alappuzha,Kerala,9.4981,76.3388,28.2,85,0.0,1007.6,9.1,28.4,87,50.6,45.2,7,5,4,1,2026-03-30T00:19:33.046590+05:30
Munnar,Kerala,10.0889,77.0595,20.9,87,0.0,856.0,8.8,34.6,87,46.8,44.8,3,5,7,1,2026-03-30T00:19:33.046597+05:30
Silchar,Assam,24.8333,92.7789,21.6,88,0.0,1006.3,8.2,34.9,151,99.0,77.1,3,5,4,1,2026-03-30T00:19:33.046603+05:30
Dibrugarh,Assam,27.4728,94.912,20.4,90,0.0,998.4,7.35,16.9,71,28.8,26.2,3,5,7,1,2026-03-30T00:19:33.046609+05:30
