city,state,latitude,longitude,temp,humidity,rain,pressure,uv_index,wind_gusts,aqi,pm10,pm2_5,no2,co,o3,so2,mosquito_risk,arthritis_risk,migraine_risk,frizz_risk,updated_at
Delhi,Delhi,28.6139,77.209,34.3,37,0.0,981.2,7.8,25.6,156,133.6,55.6,30.3,573.0,140.0,61.1,0,5,7,1,2026-06-03T09:54:25.089717+05:30
Mumbai,Maharashtra,19.076,72.8777,31.6,61,0.0,1007.3,7.7,43.2,79,68.0,27.2,10.0,230.0,62.0,14.8,3,5,4,1,2026-06-03T09:54:25.089761+05:30
Bangalore,Karnataka,12.9716,77.5946,26.0,69,0.1,912.6,8.85,47.5,57,8.4,7.1,10.2,452.0,81.0,4.0,10,5,7,1,2026-06-03T09:54:25.089777+05:30
Hyderabad,Telangana,17.385,78.4867,33.1,38,0.0,953.0,8.7,33.1,101,31.2,18.9,6.2,349.0,120.0,6.7,0,5,7,1,2026-06-03T09:54:25.089786+05:30
Chennai,Tamil Nadu,13.0827,80.2707,34.9,48,0.0,1005.9,8.5,36.7,57,23.4,18.5,12.5,471.0,91.0,19.0,0,5,4,1,2026-06-03T09:54:25.089794+05:30
Kolkata,West Bengal,22.5726,88.3639,34.5,59,0.0,1003.3,8.95,25.6,109,50.9,43.0,4.5,523.0,161.0,16.3,0,5,4,1,2026-06-03T09:54:25.089802+05:30
Pune,Maharashtra,18.5204,73.8567,29.8,54,0.0,948.0,8.25,49.3,67,77.5,26.7,4.4,172.0,68.0,7.4,4,5,7,1,2026-06-03T09:54:25.089809+05:30
Ahmedabad,Gujarat,23.0225,72.5714,34.1,52,0.0,1000.4,8.05,38.5,92,54.0,27.0,4.2,254.0,65.0,4.4,0,5,4,1,2026-06-03T09:54:25.089816+05:30
Jaipur,Rajasthan,26.9124,75.7873,34.6,33,0.0,958.1,8.25,28.1,119,124.8,43.4,6.8,320.0,106.0,9.3,0,5,7,0,2026-06-03T09:54:25.089827+05:30
Lucknow,Uttar Pradesh,26.8467,80.9462,32.7,53,0.0,991.7,8.3,20.2,143,93.4,49.5,8.0,356.0,133.0,17.2,0,5,7,1,2026-06-03T09:54:25.089835+05:30
Kanpur,Uttar Pradesh,26.4499,80.3319,34.5,44,0.0,989.9,8.3,29.5,151,139.7,54.0,7.7,317.0,138.0,15.3,0,5,7,1,2026-06-03T09:54:25.089842+05:30
Chandigarh,Chandigarh,30.7333,76.7794,33.0,42,0.0,967.3,7.8,33.1,116,85.2,31.9,4.9,462.0,174.0,21.2,0,5,7,1,2026-06-03T09:54:25.089848+05:30
Srinagar,Jammu and Kashmir,34.0837,74.7973,19.5,69,0.0,843.8,6.6,31.3,93,57.0,32.0,4.8,438.0,120.0,3.7,3,5,7,0,2026-06-03T09:54:25.089855+05:30
Jammu,Jammu and Kashmir,32.7266,74.857,33.2,35,0.0,971.1,8.6,30.6,119,70.5,33.6,7.8,343.0,130.0,3.9,0,5,7,0,2026-06-03T09:54:25.089862+05:30
Amritsar,Punjab,31.634,74.8723,34.5,35,0.0,978.7,8.45,29.2,147,167.2,48.2,4.1,474.0,142.0,8.5,0,5,7,1,2026-06-03T09:54:25.089868+05:30
Ludhiana,Punjab,30.901,75.8573,34.7,35,0.0,976.8,8.05,36.7,148,336.2,75.9,7.6,487.0,137.0,16.4,0,5,7,1,2026-06-03T09:54:25.089874+05:30
Jalandhar,Punjab,31.326,75.5762,34.9,36,0.0,977.7,8.15,35.3,147,328.8,81.0,10.4,455.0,125.0,12.7,0,5,7,1,2026-06-03T09:54:25.089883+05:30
Dehradun,Uttarakhand,30.6284,78.0322,23.5,49,0.0,832.3,8.25,29.2,48,10.1,5.9,0.4,200.0,141.0,1.0,0,5,7,0,2026-06-03T09:54:25.089890+05:30
Shimla,Himachal Pradesh,31.1048,77.1734,20.6,45,0.0,787.1,7.75,42.8,68,59.4,20.8,0.3,200.0,155.0,5.3,0,5,7,0,2026-06-03T09:54:25.089898+05:30
Manali,Himachal Pradesh,32.2396,77.1887,22.4,47,0.0,820.3,9.7,32.0,49,13.4,4.4,6.8,166.0,130.0,0.2,0,5,7,0,2026-06-03T09:54:25.089904+05:30
Gurgaon,Haryana,28.4595,77.0266,34.2,36,0.0,979.6,7.9,27.0,162,231.9,67.1,20.7,489.0,140.0,37.8,0,5,7,1,2026-06-03T09:54:25.089912+05:30
Noida,Uttar Pradesh,28.5355,77.391,34.5,38,0.0,982.7,7.85,25.2,162,231.9,67.1,20.7,514.0,140.0,37.8,0,5,7,1,2026-06-03T09:54:25.089918+05:30
Ghaziabad,Uttar Pradesh,28.6692,77.4538,34.0,41,0.0,981.0,7.8,22.0,151,114.8,50.1,8.8,365.0,157.0,22.5,0,5,7,1,2026-06-03T09:54:25.089924+05:30
Faridabad,Haryana,28.4089,77.3178,34.2,37,0.0,982.0,7.85,22.3,162,231.9,67.1,20.7,498.0,140.0,37.8,0,5,7,1,2026-06-03T09:54:25.089930+05:30
Meerut,Uttar Pradesh,28.9845,77.7064,33.2,45,0.0,980.0,7.7,25.9,151,114.8,50.1,8.8,372.0,157.0,22.5,0,5,7,1,2026-06-03T09:54:25.089936+05:30
Agra,Uttar Pradesh,27.1767,78.0081,34.8,35,0.0,985.7,8.15,22.3,177,238.4,59.5,7.2,291.0,138.0,10.7,0,5,7,1,2026-06-03T09:54:25.089943+05:30
Varanasi,Uttar Pradesh,25.3176,82.9739,31.5,55,0.0,996.0,8.75,43.6,151,85.2,55.4,18.9,661.0,121.0,49.3,0,5,7,1,2026-06-03T09:54:25.089949+05:30
Prayagraj,Uttar Pradesh,25.4358,81.8463,33.1,49,0.0,994.3,8.65,32.8,150,76.4,48.8,8.5,302.0,144.0,15.3,0,5,7,1,2026-06-03T09:54:25.089955+05:30
Gorakhpur,Uttar Pradesh,26.7606,83.3732,34.8,47,0.0,994.9,8.5,28.8,157,83.6,52.9,8.1,335.0,164.0,11.1,0,5,7,1,2026-06-03T09:54:25.089963+05:30
Bareilly,Uttar Pradesh,28.367,79.4304,31.0,61,0.0,984.9,8.1,27.0,152,136.0,53.3,4.9,321.0,149.0,9.9,3,5,7,1,2026-06-03T09:54:25.089970+05:30
Aligarh,Uttar Pradesh,27.8974,78.088,33.4,43,0.0,983.7,7.95,19.8,148,202.1,59.4,7.3,340.0,141.0,17.8,0,5,7,1,2026-06-03T09:54:25.089976+05:30
Moradabad,Uttar Pradesh,28.8386,78.7733,33.7,42,0.0,981.8,7.95,23.4,159,114.8,62.2,8.7,360.0,163.0,21.6,0,5,7,1,2026-06-03T09:54:25.089982+05:30
Saharanpur,Uttar Pradesh,29.9637,77.546,31.9,50,0.0,974.3,7.55,21.2,133,51.9,30.2,6.6,436.0,178.0,15.0,0,5,7,1,2026-06-03T09:54:25.089988+05:30
Jhansi,Uttar Pradesh,25.4484,78.5685,34.0,39,0.0,976.4,8.05,26.3,75,74.5,30.2,3.7,203.0,113.0,7.8,0,5,7,1,2026-06-03T09:54:28.326159+05:30
Surat,Gujarat,21.1702,72.8311,32.1,65,0.1,1005.4,7.55,41.8,83,62.2,30.3,17.9,419.0,42.0,51.9,6,5,4,1,2026-06-03T09:54:28.326190+05:30
Vadodara,Gujarat,22.3072,73.1812,33.7,58,0.0,1002.7,8.0,40.0,86,47.7,27.6,7.0,215.0,60.0,13.0,0,5,4,1,2026-06-03T09:54:28.326201+05:30
Rajkot,Gujarat,22.3039,70.8022,32.8,59,0.0,992.6,7.55,34.6,78,57.3,23.5,2.9,123.0,68.0,5.8,0,5,7,1,2026-06-03T09:54:28.326211+05:30
Thane,Maharashtra,19.2183,72.9781,32.8,55,0.0,1006.5,7.7,36.7,79,68.0,27.2,10.0,205.0,62.0,14.8,0,5,4,1,2026-06-03T09:54:28.326219+05:30
Nagpur,Maharashtra,21.1458,79.0882,36.3,29,0.0,971.9,8.7,36.4,71,35.9,19.5,8.2,216.0,115.0,20.8,0,5,10,0,2026-06-03T09:54:28.326228+05:30
Nashik,Maharashtra,19.9975,73.7898,29.5,57,0.0,945.1,8.0,37.8,69,54.2,22.6,6.0,169.0,61.0,13.3,4,5,7,1,2026-06-03T09:54:28.326235+05:30
Aurangabad,Maharashtra,19.8762,75.3433,30.7,48,0.0,944.0,8.95,43.2,67,73.6,26.7,4.3,174.0,68.0,9.8,0,5,7,1,2026-06-03T09:54:28.326244+05:30
Solapur,Maharashtra,17.6599,75.9064,30.4,52,0.0,957.7,7.25,64.4,65,53.0,22.2,2.6,143.0,74.0,3.6,0,5,7,1,2026-06-03T09:54:28.326252+05:30
Kolhapur,Maharashtra,16.705,74.2433,28.8,59,0.0,948.5,2.05,41.8,51,34.9,13.6,3.1,144.0,63.0,2.3,4,5,3,1,2026-06-03T09:54:28.326260+05:30
Goa,Goa,15.2993,74.124,26.5,93,0.0,999.2,2.15,28.1,43,7.7,4.4,1.5,175.0,66.0,0.9,7,5,3,1,2026-06-03T09:54:28.326268+05:30
Jodhpur,Rajasthan,26.2389,73.0243,36.0,38,0.0,980.8,8.45,30.6,109,150.4,42.3,3.0,156.0,77.0,4.0,0,5,10,1,2026-06-03T09:54:28.326275+05:30
Udaipur,Rajasthan,24.5854,73.7125,32.5,45,0.0,945.5,8.6,31.7,80,53.9,29.9,6.4,161.0,80.0,18.1,0,5,7,1,2026-06-03T09:54:28.326283+05:30
Kota,Rajasthan,25.2138,75.8648,35.2,38,0.0,976.9,8.35,28.4,102,61.9,27.1,3.3,189.0,99.0,8.4,0,5,10,1,2026-06-03T09:54:28.326291+05:30
Bikaner,Rajasthan,28.0229,73.3119,36.9,27,0.0,979.6,8.45,39.2,121,114.3,33.5,2.5,302.0,110.0,5.0,0,5,10,0,2026-06-03T09:54:28.326300+05:30
Ajmer,Rajasthan,26.4499,74.6399,32.8,45,0.0,953.2,8.4,32.0,96,131.8,38.1,3.6,197.0,94.0,5.7,0,5,7,1,2026-06-03T09:54:28.326307+05:30
Gwalior,Madhya Pradesh,26.2183,78.1828,33.3,42,0.0,981.4,8.3,30.2,98,99.4,36.0,2.5,215.0,119.0,5.6,0,5,7,1,2026-06-03T09:54:28.326315+05:30
Indore,Madhya Pradesh,22.7196,75.8577,31.6,47,0.0,947.6,8.6,32.8,82,58.3,30.0,3.9,250.0,101.0,12.0,0,5,7,1,2026-06-03T09:54:28.326322+05:30
Bhopal,Madhya Pradesh,23.2599,77.4126,33.2,37,0.0,952.8,6.6,33.1,77,62.2,28.7,2.0,219.0,105.0,6.4,0,5,7,1,2026-06-03T09:54:28.326330+05:30
Jabalpur,Madhya Pradesh,23.1815,79.9864,34.5,35,0.0,960.3,8.35,31.3,76,34.7,19.2,2.0,215.0,117.0,4.9,0,5,7,1,2026-06-03T09:54:28.326337+05:30
Ujjain,Madhya Pradesh,23.1765,75.7885,32.0,47,0.0,953.1,8.15,30.6,81,58.2,29.8,3.1,198.0,87.0,12.6,0,5,7,1,2026-06-03T09:54:28.326346+05:30
Visakhapatnam,Andhra Pradesh,17.6868,83.2185,34.5,55,0.0,1001.3,9.05,42.1,90,31.4,26.8,15.2,386.0,133.0,43.8,0,5,4,1,2026-06-03T09:54:28.326354+05:30
Vijayawada,Andhra Pradesh,16.5062,80.648,35.8,44,0.0,1000.6,8.9,30.2,80,28.8,21.9,4.6,220.0,125.0,10.2,0,5,7,1,2026-06-03T09:54:28.326362+05:30
Guntur,Andhra Pradesh,16.3067,80.4365,35.6,44,0.0,1001.9,8.8,33.8,84,30.3,21.9,4.7,225.0,121.0,11.8,0,5,7,1,2026-06-03T09:54:28.326369+05:30
Nellore,Andhra Pradesh,14.4426,79.9865,33.8,51,0.0,1004.5,9.0,34.9,66,15.3,11.8,4.6,189.0,108.0,6.6,0,5,4,1,2026-06-03T09:54:28.326378+05:30
Kurnool,Andhra Pradesh,15.8281,78.0373,28.8,68,0.0,977.1,5.15,35.6,69,28.2,17.7,5.0,184.0,90.0,6.4,7,5,3,1,2026-06-03T09:54:28.326386+05:30
Kakinada,Andhra Pradesh,16.9891,82.2475,34.4,61,0.0,1005.4,9.05,29.9,71,27.3,20.4,3.5,263.0,117.0,7.8,3,5,4,1,2026-06-03T09:54:28.326394+05:30
Tirupati,Andhra Pradesh,13.6288,79.4192,34.0,46,0.0,990.2,9.0,36.0,68,18.2,14.7,4.4,217.0,130.0,4.6,0,5,7,1,2026-06-03T09:54:28.326401+05:30
Warangal,Telangana,17.9689,79.5941,35.0,37,0.0,977.6,8.45,31.0,115,39.7,25.7,6.4,221.0,124.0,7.4,0,5,7,1,2026-06-03T09:54:28.326408+05:30
Nizamabad,Telangana,18.6725,78.0941,33.9,40,0.0,964.4,9.0,39.6,77,23.5,15.7,3.6,195.0,102.0,8.0,0,5,7,1,2026-06-03T09:54:28.326416+05:30
Mysore,Karnataka,12.2958,76.6396,26.4,71,0.0,929.8,8.35,47.2,33,5.5,4.5,4.2,180.0,82.0,2.0,7,5,7,1,2026-06-03T09:54:28.326423+05:30
Mangalore,Karnataka,12.9141,74.856,25.1,92,0.1,1009.1,8.75,30.6,39,9.2,6.3,4.4,172.0,63.0,2.1,10,0,4,1,2026-06-03T09:54:28.326431+05:30
Hubli-Dharwad,Karnataka,15.3647,75.124,27.5,66,0.0,942.0,6.8,44.6,27,7.6,3.8,3.1,128.0,61.0,1.2,7,5,7,1,2026-06-03T09:54:28.326439+05:30
Belgaum,Karnataka,15.8497,74.4977,25.8,73,0.0,926.7,1.25,36.7,41,12.9,5.9,3.0,124.0,63.0,2.2,7,5,3,1,2026-06-03T09:54:31.560385+05:30
Coimbatore,Tamil Nadu,11.0168,76.9558,28.0,67,0.0,962.6,8.95,55.8,21,2.1,2.0,4.8,203.0,61.0,2.7,7,5,7,1,2026-06-03T09:54:31.560416+05:30
Madurai,Tamil Nadu,9.9252,78.1198,32.9,50,0.0,993.0,8.8,64.4,73,7.5,7.1,6.0,204.0,82.0,4.3,0,5,7,1,2026-06-03T09:54:31.560428+05:30
Trichy,Tamil Nadu,10.7905,78.7047,32.2,56,0.0,999.5,8.85,50.4,53,7.5,6.9,4.7,166.0,77.0,4.5,0,5,7,1,2026-06-03T09:54:31.560437+05:30
Salem,Tamil Nadu,11.6643,78.146,31.5,55,0.0,977.9,8.9,38.9,60,10.4,9.5,7.7,234.0,81.0,11.5,0,5,7,1,2026-06-03T09:54:31.560446+05:30
Tirunelveli,Tamil Nadu,8.7139,77.7567,34.0,46,0.0,1003.6,8.65,51.5,22,7.9,5.3,2.5,134.0,72.0,1.3,0,5,4,1,2026-06-03T09:54:31.560455+05:30
Vellore,Tamil Nadu,12.9165,79.1325,32.8,51,0.0,983.8,9.0,33.1,79,16.8,14.6,5.7,255.0,132.0,7.6,0,5,7,1,2026-06-03T09:54:31.560463+05:30
Erode,Tamil Nadu,11.341,77.7172,31.8,54,0.0,989.4,8.85,47.9,45,4.3,4.2,4.8,216.0,68.0,3.6,0,5,7,1,2026-06-03T09:54:31.560471+05:30
Kochi,Kerala,9.9312,76.2673,27.1,85,0.0,1011.0,8.1,38.2,37,12.3,9.9,7.7,210.0,63.0,4.4,7,0,4,1,2026-06-03T09:54:31.560479+05:30
Thiruvananthapuram,Kerala,8.5241,76.9366,27.5,89,0.2,1010.2,8.2,41.4,30,10.8,6.1,1.6,171.0,60.0,0.5,10,0,4,1,2026-06-03T09:54:31.560487+05:30
Kozhikode,Kerala,11.2588,75.7804,27.2,86,0.0,1010.0,8.65,31.3,30,6.0,3.3,1.2,211.0,65.0,0.7,7,0,4,1,2026-06-03T09:54:31.560494+05:30
Thrissur,Kerala,10.5276,76.2144,26.5,91,0.1,1009.6,8.2,34.6,33,7.6,5.5,5.5,188.0,55.0,3.0,10,0,4,1,2026-06-03T09:54:31.560503+05:30
Kannur,Kerala,11.8745,75.3704,27.0,88,0.0,1009.4,8.65,31.0,30,6.4,5.0,3.1,179.0,69.0,1.8,7,0,4,1,2026-06-03T09:54:31.560511+05:30
Patna,Bihar,25.5941,85.1376,33.0,54,0.0,998.3,8.8,23.0,165,74.5,57.2,5.3,421.0,147.0,19.1,0,5,7,1,2026-06-03T09:54:31.560518+05:30
Gaya,Bihar,24.7914,85.0002,34.0,45,0.0,992.0,8.8,35.3,152,73.8,57.4,4.1,348.0,160.0,12.2,0,5,7,1,2026-06-03T09:54:31.560526+05:30
Muzaffarpur,Bihar,26.1209,85.3647,33.3,55,0.0,998.1,8.4,27.4,169,82.9,66.6,10.1,422.0,154.0,19.3,0,5,7,1,2026-06-03T09:54:31.560534+05:30
Bhagalpur,Bihar,25.2425,87.0117,33.7,56,0.0,998.6,8.85,26.3,156,85.9,68.5,6.6,394.0,184.0,35.3,0,5,7,1,2026-06-03T09:54:31.560541+05:30
Ranchi,Jharkhand,23.3441,85.3096,31.4,47,0.0,937.4,9.05,30.6,151,62.2,46.7,2.5,280.0,180.0,21.8,0,5,7,1,2026-06-03T09:54:31.560549+05:30
Jamshedpur,Jharkhand,22.8046,86.2029,33.8,52,0.0,988.9,9.05,27.7,154,74.0,63.3,8.3,447.0,181.0,43.1,0,5,7,1,2026-06-03T09:54:31.560556+05:30
Dhanbad,Jharkhand,23.7957,86.4304,35.2,41,0.0,978.2,9.05,27.7,169,84.3,68.7,23.2,393.0,168.0,69.5,0,5,10,1,2026-06-03T09:54:31.560564+05:30
Bokaro,Jharkhand,23.6693,86.1511,34.2,46,0.0,981.9,9.1,22.3,165,82.0,65.2,16.7,389.0,171.0,55.9,0,5,7,1,2026-06-03T09:54:31.560572+05:30
Bhubaneswar,Odisha,20.2961,85.8245,34.0,61,0.0,1000.1,9.05,30.2,82,40.6,32.5,3.4,306.0,150.0,13.1,3,5,4,1,2026-06-03T09:54:31.560580+05:30
Cuttack,Odisha,20.4625,85.8828,33.3,68,0.0,1002.0,9.1,27.0,82,40.6,32.5,3.4,296.0,150.0,13.1,3,5,4,1,2026-06-03T09:54:31.560587+05:30
Rourkela,Odisha,22.2604,84.8536,34.2,50,0.0,983.4,9.0,28.8,159,73.3,51.6,3.2,382.0,169.0,23.7,0,5,7,1,2026-06-03T09:54:31.560594+05:30
Raipur,Chhattisgarh,21.2514,81.6296,36.1,31,0.0,973.2,8.95,37.8,144,53.0,38.1,29.2,490.0,106.0,69.5,0,5,10,1,2026-06-03T09:54:31.560602+05:30
Bhilai,Chhattisgarh,21.1938,81.3509,34.8,36,0.0,973.6,8.95,38.5,114,48.3,33.1,22.8,742.0,110.0,59.7,0,5,7,1,2026-06-03T09:54:31.560609+05:30
Guwahati,Assam,26.1158,91.7086,30.0,72,0.1,999.4,8.7,35.3,127,37.4,29.8,1.6,432.0,136.0,5.6,10,5,7,1,2026-06-03T09:54:31.560616+05:30
Agartala,Tripura,23.8315,91.2868,32.4,64,0.0,1004.4,8.85,21.2,119,45.8,31.7,4.9,253.0,118.0,6.5,3,5,4,1,2026-06-03T09:54:31.560624+05:30
Shillong,Meghalaya,25.5788,91.8933,24.0,67,0.1,858.1,6.5,28.1,85,26.8,21.5,1.6,301.0,143.0,6.5,6,5,7,1,2026-06-03T09:54:31.560631+05:30
Imphal,Manipur,24.817,93.9368,27.8,66,0.0,922.6,9.25,33.1,88,17.8,13.2,1.0,247.0,129.0,2.7,7,5,7,1,2026-06-03T09:54:31.560639+05:30
Aizawl,Mizoram,23.7271,92.7176,26.2,62,0.0,893.0,8.8,26.6,86,37.1,21.5,0.7,176.0,108.0,3.7,7,5,7,1,2026-06-03T09:54:31.560646+05:30
Kohima,Nagaland,25.6701,94.1077,24.8,67,0.2,855.9,7.4,29.9,77,38.9,28.2,0.7,279.0,147.0,3.9,6,5,7,1,2026-06-03T09:54:31.560654+05:30
Gangtok,Sikkim,27.3314,88.6138,24.0,57,0.0,838.5,9.2,38.9,65,17.5,13.9,1.1,255.0,154.0,2.3,0,5,7,0,2026-06-03T09:54:31.560662+05:30
Siliguri,West Bengal,26.7271,88.3953,31.3,62,0.0,990.2,8.75,37.1,127,51.2,43.7,2.0,502.0,173.0,7.7,3,5,7,1,2026-06-03T09:54:34.792923+05:30
Durgapur,West Bengal,23.5204,87.3119,34.1,59,0.0,992.5,9.0,22.0,163,98.5,88.5,34.3,662.0,153.0,97.3,0,5,7,1,2026-06-03T09:54:34.792954+05:30
Asansol,West Bengal,23.6739,86.9524,34.2,52,0.0,991.2,9.0,20.9,160,91.0,77.5,28.9,709.0,157.0,81.0,0,5,7,1,2026-06-03T09:54:34.792966+05:30
Pondicherry,Puducherry,11.9139,79.8145,33.0,55,0.0,1007.4,8.85,38.5,52,17.5,14.5,10.1,303.0,85.0,13.9,0,5,4,1,2026-06-03T09:54:34.792975+05:30
Port Blair,Andaman and Nicobar Islands,11.6234,92.7265,27.0,92,0.1,1007.0,2.05,40.0,36,11.1,6.4,0.6,119.0,71.0,0.4,10,5,0,1,2026-06-03T09:54:34.792984+05:30
Haridwar,Uttarakhand,29.9457,78.1642,32.9,41,0.0,972.7,7.6,24.1,103,33.5,20.9,1.2,277.0,175.0,8.1,0,5,7,1,2026-06-03T09:54:34.792993+05:30
Rishikesh,Uttarakhand,30.0869,78.2676,31.9,43,0.0,965.5,7.7,21.6,78,22.8,14.9,0.1,288.0,159.0,4.2,0,5,7,1,2026-06-03T09:54:34.793001+05:30
Nainital,Uttarakhand,29.3919,79.4542,21.8,49,0.0,807.8,6.9,25.9,100,66.4,28.2,0.0,200.0,152.0,6.0,0,5,7,0,2026-06-03T09:54:34.793009+05:30
Mussoorie,Uttarakhand,30.4599,78.0664,21.3,52,0.1,805.1,8.15,33.5,78,22.3,13.9,0.0,219.0,169.0,5.3,3,5,7,0,2026-06-03T09:54:34.793018+05:30
Dharamshala,Himachal Pradesh,32.219,76.3234,24.4,55,0.0,869.5,8.55,38.2,48,36.4,13.7,0.8,287.0,129.0,0.9,0,5,7,0,2026-06-03T09:54:34.793026+05:30
Dalhousie,Himachal Pradesh,32.5387,75.971,22.0,47,0.0,806.8,8.3,34.9,74,71.5,26.8,2.4,269.0,149.0,2.1,0,5,7,0,2026-06-03T09:54:34.793035+05:30
Patiala,Punjab,30.3398,76.3869,33.5,42,0.0,976.4,7.7,28.4,155,244.0,58.1,5.6,355.0,143.0,15.7,0,5,7,1,2026-06-03T09:54:34.793043+05:30
Bhatinda,Punjab,30.211,74.9455,35.7,33,0.0,981.5,8.35,29.2,170,357.6,72.4,8.4,336.0,136.0,11.1,0,5,10,1,2026-06-03T09:54:34.793050+05:30
Rohtak,Haryana,28.8955,76.6066,33.7,41,0.0,980.1,7.8,25.9,157,155.1,54.4,14.9,487.0,156.0,37.7,0,5,7,1,2026-06-03T09:54:34.793059+05:30
Panipat,Haryana,29.3909,76.9635,33.3,45,0.0,978.8,7.65,23.4,160,207.7,65.7,14.5,401.0,158.0,37.3,0,5,7,1,2026-06-03T09:54:34.793066+05:30
Mathura,Uttar Pradesh,27.4924,77.6737,33.8,42,0.0,984.8,8.1,18.7,131,181.1,50.8,7.5,355.0,132.0,8.0,0,5,7,1,2026-06-03T09:54:34.793074+05:30
Vrindavan,Uttar Pradesh,27.5823,77.7027,33.9,41,0.0,985.2,8.05,18.7,131,181.1,50.8,7.5,361.0,132.0,8.0,0,5,7,1,2026-06-03T09:54:34.793081+05:30
Ayodhya,Uttar Pradesh,26.7922,82.1998,33.3,52,0.0,993.4,8.4,23.0,145,97.1,50.9,6.9,338.0,136.0,13.3,0,5,7,1,2026-06-03T09:54:34.793089+05:30
Ratlam,Madhya Pradesh,23.3315,75.0367,31.5,53,0.0,954.2,8.5,32.4,82,58.9,29.0,3.5,164.0,75.0,12.8,0,5,7,1,2026-06-03T09:54:34.793097+05:30
Sagar,Madhya Pradesh,23.8388,78.7378,33.3,37,0.0,949.3,8.15,27.0,68,39.7,18.2,3.0,176.0,109.0,4.8,0,5,7,1,2026-06-03T09:54:34.793104+05:30
Satna,Madhya Pradesh,24.6005,80.8322,34.6,37,0.0,969.8,8.75,23.4,104,37.1,18.0,1.0,241.0,132.0,5.3,0,5,7,1,2026-06-03T09:54:34.793112+05:30
Akola,Maharashtra,20.7002,77.0082,33.3,44,0.0,974.5,8.8,34.6,69,41.4,22.5,3.6,153.0,102.0,11.3,0,5,7,1,2026-06-03T09:54:34.793140+05:30
Amravati,Maharashtra,20.9374,77.7796,34.2,39,0.0,966.8,8.2,39.2,74,36.3,21.8,3.8,168.0,110.0,11.1,0,5,7,1,2026-06-03T09:54:34.793150+05:30
Latur,Maharashtra,18.4088,76.5604,30.9,43,0.0,940.2,8.85,44.3,65,52.2,26.0,2.5,149.0,99.0,7.2,0,5,7,1,2026-06-03T09:54:34.793158+05:30
Nanded,Maharashtra,19.1383,77.3091,32.8,46,0.0,968.4,8.75,32.4,64,20.9,13.3,2.5,165.0,99.0,6.0,0,5,7,1,2026-06-03T09:54:34.793165+05:30
Gulbarga,Karnataka,17.3297,76.8343,31.5,44,0.0,959.0,8.9,40.7,73,34.7,18.9,5.2,171.0,75.0,4.4,0,5,7,1,2026-06-03T09:54:34.793173+05:30
Bidar,Karnataka,17.9104,77.5199,30.4,48,0.0,935.7,8.7,30.2,78,33.9,21.2,4.3,185.0,110.0,7.7,0,5,7,1,2026-06-03T09:54:34.793180+05:30
Hospet,Karnataka,15.2689,76.3909,26.6,76,0.0,956.7,7.35,38.2,40,13.1,6.6,3.6,139.0,57.0,2.3,7,5,7,1,2026-06-03T09:54:34.793187+05:30
Tirupur,Tamil Nadu,11.1085,77.3411,29.5,62,0.0,975.9,8.4,63.0,45,4.4,4.2,4.8,191.0,68.0,4.1,7,5,7,1,2026-06-03T09:54:34.793195+05:30
Alappuzha,Kerala,9.4981,76.3388,27.9,85,0.0,1010.8,7.6,40.3,26,14.1,8.2,3.8,108.0,71.0,2.2,7,0,4,1,2026-06-03T09:54:34.793203+05:30
Munnar,Kerala,10.0889,77.0595,17.6,93,0.1,858.2,8.1,39.2,23,3.1,2.5,2.2,115.0,62.0,1.6,6,10,7,1,2026-06-03T09:54:34.793211+05:30
Silchar,Assam,24.8333,92.7789,28.0,82,0.1,1004.2,8.95,26.6,117,27.6,20.7,1.7,234.0,124.0,4.9,10,5,4,1,2026-06-03T09:54:34.793219+05:30
Dibrugarh,Assam,27.4728,94.912,27.2,83,0.0,993.6,8.9,31.7,61,21.7,18.3,2.1,326.0,132.0,2.8,7,5,7,1,2026-06-03T09:54:34.793227+05:30
