city,state,latitude,longitude,temp,humidity,rain,pressure,uv_index,wind_gusts,aqi,pm10,pm2_5,no2,co,o3,so2,mosquito_risk,arthritis_risk,migraine_risk,frizz_risk,updated_at
Delhi,Delhi,28.6139,77.209,37.7,25,0.0,982.1,7.6,40.0,163,403.3,72.9,4.1,382.0,237.0,23.6,0,5,10,0,2026-05-10T14:26:19.391252+05:30
Mumbai,Maharashtra,19.076,72.8777,35.9,42,0.0,1004.1,7.9,47.2,91,59.6,36.3,8.5,286.0,208.0,24.2,0,5,7,1,2026-05-10T14:26:19.391298+05:30
Bangalore,Karnataka,12.9716,77.5946,33.4,26,0.0,909.7,9.45,42.1,60,20.4,11.3,2.1,230.0,135.0,3.1,0,5,7,0,2026-05-10T14:26:19.391314+05:30
Hyderabad,Telangana,17.385,78.4867,36.9,23,0.0,950.8,9.25,36.0,61,43.5,20.4,1.8,248.0,155.0,5.5,0,5,10,0,2026-05-10T14:26:19.391329+05:30
Chennai,Tamil Nadu,13.0827,80.2707,31.5,64,0.0,1004.3,9.1,41.8,23,5.8,3.9,1.5,144.0,56.0,3.7,3,5,4,1,2026-05-10T14:26:19.391339+05:30
Kolkata,West Bengal,22.5726,88.3639,30.5,61,0.0,1005.5,8.9,19.1,156,34.7,27.9,3.3,383.0,150.0,10.7,3,5,4,1,2026-05-10T14:26:19.391348+05:30
Pune,Maharashtra,18.5204,73.8567,40.7,11,0.0,944.9,8.5,38.5,88,29.2,13.7,0.9,187.0,159.0,5.0,0,5,10,0,2026-05-10T14:26:19.391356+05:30
Ahmedabad,Gujarat,23.0225,72.5714,42.7,15,0.0,998.4,8.1,38.9,57,46.9,16.6,1.8,214.0,140.0,4.3,0,5,10,0,2026-05-10T14:26:19.391373+05:30
Jaipur,Rajasthan,26.9124,75.7873,38.0,24,0.0,959.0,8.15,28.4,167,347.4,61.2,1.0,293.0,179.0,8.1,0,5,10,0,2026-05-10T14:26:19.391381+05:30
Lucknow,Uttar Pradesh,26.8467,80.9462,35.7,30,0.0,992.5,8.05,35.3,118,62.2,34.0,1.1,314.0,189.0,9.0,0,5,10,0,2026-05-10T14:26:19.391390+05:30
Kanpur,Uttar Pradesh,26.4499,80.3319,37.0,26,0.0,990.2,8.1,33.8,154,199.3,46.6,1.3,338.0,204.0,11.4,0,5,10,0,2026-05-10T14:26:19.391397+05:30
Chandigarh,Chandigarh,30.7333,76.7794,33.7,35,0.0,969.7,7.7,39.2,139,155.1,50.5,1.9,318.0,218.0,14.7,0,5,7,0,2026-05-10T14:26:19.391405+05:30
Srinagar,Jammu and Kashmir,34.0837,74.7973,25.8,37,0.0,843.6,8.45,18.0,93,60.5,19.5,1.2,392.0,165.0,3.1,4,5,7,0,2026-05-10T14:26:19.391414+05:30
Jammu,Jammu and Kashmir,32.7266,74.857,36.1,32,0.0,972.8,8.1,33.8,152,233.8,62.9,0.9,324.0,191.0,10.7,0,5,10,1,2026-05-10T14:26:19.391421+05:30
Amritsar,Punjab,31.634,74.8723,38.0,29,0.0,980.0,8.35,29.9,160,336.2,84.8,1.3,372.0,198.0,17.6,0,5,10,1,2026-05-10T14:26:19.391429+05:30
Ludhiana,Punjab,30.901,75.8573,37.5,25,0.0,978.2,7.95,34.9,164,661.2,101.3,1.5,338.0,210.0,16.7,0,5,10,0,2026-05-10T14:26:19.391437+05:30
Jalandhar,Punjab,31.326,75.5762,36.6,30,0.0,979.4,8.15,33.5,157,476.8,87.3,1.1,349.0,202.0,15.4,0,5,10,1,2026-05-10T14:26:19.391444+05:30
Dehradun,Uttarakhand,30.6284,78.0322,21.0,61,0.0,833.7,8.1,26.6,90,102.4,40.0,0.8,260.0,174.0,6.7,3,5,7,0,2026-05-10T14:26:19.391458+05:30
Shimla,Himachal Pradesh,31.1048,77.1734,19.3,61,0.0,788.3,8.15,42.5,125,129.9,53.1,1.1,258.0,200.0,14.9,3,5,7,0,2026-05-10T14:26:19.391465+05:30
Manali,Himachal Pradesh,32.2396,77.1887,20.8,59,0.0,821.1,9.8,44.6,93,36.7,11.6,1.5,236.0,183.0,0.9,0,5,7,0,2026-05-10T14:26:19.391473+05:30
Gurgaon,Haryana,28.4595,77.0266,36.8,28,0.0,980.7,7.7,31.0,741,1028.2,120.1,3.0,333.0,209.0,15.3,0,5,10,0,2026-05-10T14:26:19.391480+05:30
Noida,Uttar Pradesh,28.5355,77.391,35.5,33,0.0,984.0,7.65,29.2,741,1028.2,120.1,3.0,333.0,209.0,15.3,0,5,10,1,2026-05-10T14:26:19.391487+05:30
Ghaziabad,Uttar Pradesh,28.6692,77.4538,35.3,32,0.0,982.4,7.6,32.4,138,235.6,49.9,1.8,313.0,197.0,9.6,0,5,10,1,2026-05-10T14:26:19.391493+05:30
Faridabad,Haryana,28.4089,77.3178,35.4,31,0.0,983.2,7.65,30.2,741,1028.2,120.1,3.0,324.0,209.0,15.3,0,5,10,0,2026-05-10T14:26:19.391500+05:30
Meerut,Uttar Pradesh,28.9845,77.7064,33.7,39,0.0,981.7,7.55,31.0,138,235.6,49.9,1.8,321.0,197.0,9.6,0,5,7,1,2026-05-10T14:26:19.391507+05:30
Agra,Uttar Pradesh,27.1767,78.0081,36.7,31,0.0,986.8,7.95,26.3,630,434.9,64.5,1.3,329.0,193.0,10.7,0,5,10,1,2026-05-10T14:26:19.391514+05:30
Varanasi,Uttar Pradesh,25.3176,82.9739,35.7,28,0.0,995.6,8.6,32.8,139,55.3,34.9,1.8,290.0,224.0,14.4,0,5,10,0,2026-05-10T14:26:19.391522+05:30
Prayagraj,Uttar Pradesh,25.4358,81.8463,36.9,27,0.0,993.9,8.45,32.8,145,61.0,39.3,1.8,348.0,221.0,13.7,0,5,10,0,2026-05-10T14:26:19.391532+05:30
Gorakhpur,Uttar Pradesh,26.7606,83.3732,33.2,39,0.0,996.6,8.4,33.8,107,45.9,29.5,1.3,336.0,179.0,5.8,0,5,7,1,2026-05-10T14:26:19.391540+05:30
Bareilly,Uttar Pradesh,28.367,79.4304,33.7,37,0.0,986.8,7.9,29.5,111,126.2,34.1,1.5,294.0,187.0,9.3,0,5,7,1,2026-05-10T14:26:19.391547+05:30
Aligarh,Uttar Pradesh,27.8974,78.088,35.5,32,0.0,984.8,7.75,28.4,300,437.7,63.1,1.4,309.0,191.0,10.3,0,5,10,1,2026-05-10T14:26:19.391554+05:30
Moradabad,Uttar Pradesh,28.8386,78.7733,33.2,39,0.0,984.3,7.75,31.7,121,63.1,36.7,2.1,320.0,212.0,16.8,0,5,7,1,2026-05-10T14:26:19.391561+05:30
Saharanpur,Uttar Pradesh,29.9637,77.546,32.2,43,0.0,976.6,7.35,31.7,139,139.2,46.1,1.1,324.0,191.0,13.3,0,5,7,1,2026-05-10T14:26:19.391567+05:30
Jhansi,Uttar Pradesh,25.4484,78.5685,37.2,26,0.0,976.2,8.4,25.9,122,174.6,44.1,1.4,290.0,200.0,20.1,0,5,10,0,2026-05-10T14:26:22.624067+05:30
Surat,Gujarat,21.1702,72.8311,42.2,20,0.0,1002.7,7.7,34.2,100,60.8,36.2,31.6,171.0,116.0,84.5,0,5,7,0,2026-05-10T14:26:22.624098+05:30
Vadodara,Gujarat,22.3072,73.1812,43.3,14,0.0,1000.1,8.1,31.7,79,40.7,17.8,2.0,197.0,166.0,8.9,0,5,7,0,2026-05-10T14:26:22.624108+05:30
Rajkot,Gujarat,22.3039,70.8022,41.3,15,0.0,991.7,7.7,39.2,53,47.8,14.6,0.9,141.0,127.0,4.2,0,5,10,0,2026-05-10T14:26:22.624118+05:30
Thane,Maharashtra,19.2183,72.9781,41.5,22,0.0,1002.6,7.9,45.4,91,59.6,36.3,8.5,196.0,208.0,24.2,0,5,7,0,2026-05-10T14:26:22.624126+05:30
Nagpur,Maharashtra,21.1458,79.0882,40.5,16,0.0,969.7,8.9,32.8,118,51.3,28.1,4.1,216.0,196.0,20.9,0,5,10,0,2026-05-10T14:26:22.624134+05:30
Nashik,Maharashtra,19.9975,73.7898,39.9,13,0.0,942.9,8.2,43.9,71,27.1,11.4,1.3,167.0,155.0,7.8,0,5,10,0,2026-05-10T14:26:22.624142+05:30
Aurangabad,Maharashtra,19.8762,75.3433,39.7,13,0.0,941.8,9.05,43.9,75,35.7,12.3,0.9,175.0,150.0,6.6,0,5,10,0,2026-05-10T14:26:22.624150+05:30
Solapur,Maharashtra,17.6599,75.9064,39.7,17,0.0,954.0,9.1,36.4,79,40.3,22.1,1.3,190.0,168.0,6.4,0,5,10,0,2026-05-10T14:26:22.624158+05:30
Kolhapur,Maharashtra,16.705,74.2433,39.2,17,0.0,944.7,8.95,40.7,125,44.2,28.1,1.1,243.0,174.0,6.3,0,5,10,0,2026-05-10T14:26:22.624166+05:30
Goa,Goa,15.2993,74.124,36.2,47,0.0,993.0,7.25,46.8,81,35.7,21.9,0.9,207.0,133.0,2.7,0,5,10,1,2026-05-10T14:26:22.624174+05:30
Jodhpur,Rajasthan,26.2389,73.0243,43.3,12,0.0,980.1,8.4,32.8,90,128.5,24.5,0.5,160.0,139.0,2.3,0,5,10,0,2026-05-10T14:26:22.624182+05:30
Udaipur,Rajasthan,24.5854,73.7125,40.0,13,0.0,945.2,8.8,38.5,47,79.9,12.5,0.5,145.0,133.0,2.9,0,5,10,0,2026-05-10T14:26:22.624189+05:30
Kota,Rajasthan,25.2138,75.8648,40.9,17,0.0,976.3,8.35,33.5,93,147.6,40.6,1.6,266.0,190.0,20.9,0,5,10,0,2026-05-10T14:26:22.624197+05:30
Bikaner,Rajasthan,28.0229,73.3119,42.3,15,0.0,979.2,8.3,32.0,111,107.1,28.5,0.6,242.0,161.0,9.2,0,5,10,0,2026-05-10T14:26:22.624205+05:30
Ajmer,Rajasthan,26.4499,74.6399,39.8,17,0.0,953.6,8.3,33.1,95,120.6,32.7,0.7,260.0,172.0,10.2,0,5,10,0,2026-05-10T14:26:22.624235+05:30
Gwalior,Madhya Pradesh,26.2183,78.1828,37.0,27,0.0,981.6,8.15,26.3,131,136.4,38.4,0.7,293.0,182.0,9.0,0,5,10,0,2026-05-10T14:26:22.624244+05:30
Indore,Madhya Pradesh,22.7196,75.8577,40.6,11,0.0,945.7,8.65,46.1,66,62.2,20.0,0.6,221.0,161.0,5.6,0,5,10,0,2026-05-10T14:26:22.624253+05:30
Bhopal,Madhya Pradesh,23.2599,77.4126,39.8,13,0.0,951.4,8.65,46.4,82,92.0,26.6,0.5,239.0,164.0,5.2,0,5,10,0,2026-05-10T14:26:22.624261+05:30
Jabalpur,Madhya Pradesh,23.1815,79.9864,39.1,18,0.0,958.4,8.8,32.8,110,72.9,24.9,1.2,247.0,188.0,6.4,0,5,10,0,2026-05-10T14:26:22.624268+05:30
Ujjain,Madhya Pradesh,23.1765,75.7885,41.2,11,0.0,951.6,8.6,46.4,60,54.7,18.2,0.5,216.0,157.0,7.3,0,5,10,0,2026-05-10T14:26:22.624277+05:30
Visakhapatnam,Andhra Pradesh,17.6868,83.2185,33.2,52,0.0,1001.0,9.1,35.6,72,17.0,13.4,16.6,604.0,46.0,21.0,0,5,4,1,2026-05-10T14:26:22.624285+05:30
Vijayawada,Andhra Pradesh,16.5062,80.648,37.7,33,0.0,998.8,9.05,41.0,50,21.7,12.1,1.4,171.0,105.0,5.2,0,5,10,1,2026-05-10T14:26:22.624292+05:30
Guntur,Andhra Pradesh,16.3067,80.4365,38.7,32,0.0,999.7,8.85,41.0,48,27.4,15.6,1.3,189.0,121.0,5.3,0,5,10,1,2026-05-10T14:26:22.624300+05:30
Nellore,Andhra Pradesh,14.4426,79.9865,34.0,51,0.0,1002.8,8.95,40.0,26,9.8,5.8,0.8,133.0,69.0,1.6,0,5,4,1,2026-05-10T14:26:22.624308+05:30
Kurnool,Andhra Pradesh,15.8281,78.0373,39.2,21,0.0,973.1,9.0,40.0,38,27.0,14.1,0.8,169.0,127.0,2.4,0,5,10,0,2026-05-10T14:26:22.624317+05:30
Kakinada,Andhra Pradesh,16.9891,82.2475,32.2,58,0.0,1004.7,9.05,38.5,31,9.2,5.9,0.5,148.0,62.0,0.5,0,5,4,1,2026-05-10T14:26:22.624324+05:30
Tirupati,Andhra Pradesh,13.6288,79.4192,36.3,34,0.0,987.4,9.15,45.7,58,9.1,5.4,0.7,144.0,77.0,0.8,0,5,10,1,2026-05-10T14:26:22.624332+05:30
Warangal,Telangana,17.9689,79.5941,37.8,29,0.0,975.7,9.15,42.8,65,31.5,19.7,1.5,208.0,139.0,5.9,0,5,10,1,2026-05-10T14:26:22.624340+05:30
Nizamabad,Telangana,18.6725,78.0941,38.0,22,0.0,961.9,9.1,29.9,89,43.2,22.4,1.0,197.0,161.0,5.8,0,5,10,0,2026-05-10T14:26:22.624348+05:30
Mysore,Karnataka,12.2958,76.6396,33.4,33,0.0,925.9,9.3,36.4,54,22.6,14.2,1.6,183.0,145.0,4.6,0,5,7,0,2026-05-10T14:26:22.624356+05:30
Mangalore,Karnataka,12.9141,74.856,31.7,71,0.0,1002.3,9.0,39.6,67,24.4,16.6,1.4,202.0,139.0,2.7,3,5,4,1,2026-05-10T14:26:22.624363+05:30
Hubli-Dharwad,Karnataka,15.3647,75.124,36.6,24,0.0,938.5,7.95,38.9,66,37.0,17.9,1.4,189.0,156.0,3.1,0,5,10,0,2026-05-10T14:26:22.624372+05:30
Belgaum,Karnataka,15.8497,74.4977,37.0,20,0.0,923.9,8.25,37.1,101,47.1,25.3,1.6,196.0,178.0,5.7,0,5,10,0,2026-05-10T14:26:25.853264+05:30
Coimbatore,Tamil Nadu,11.0168,76.9558,31.7,56,0.0,958.0,8.65,30.6,57,12.8,8.6,1.1,167.0,123.0,3.3,0,5,7,1,2026-05-10T14:26:25.853298+05:30
Madurai,Tamil Nadu,9.9252,78.1198,33.4,50,0.0,988.8,5.2,31.7,58,9.1,8.8,1.2,184.0,107.0,5.3,0,5,3,1,2026-05-10T14:26:25.853312+05:30
Trichy,Tamil Nadu,10.7905,78.7047,33.7,53,0.0,995.4,2.8,36.4,49,14.0,13.6,3.4,152.0,98.0,11.3,0,5,3,1,2026-05-10T14:26:25.853322+05:30
Salem,Tamil Nadu,11.6643,78.146,34.2,46,0.0,973.1,9.05,41.0,56,12.7,10.8,2.2,154.0,113.0,8.5,0,5,7,1,2026-05-10T14:26:25.853333+05:30
Tirunelveli,Tamil Nadu,8.7139,77.7567,29.2,73,0.1,999.8,4.3,29.5,57,7.3,7.1,1.6,159.0,92.0,6.0,10,5,3,1,2026-05-10T14:26:25.853343+05:30
Vellore,Tamil Nadu,12.9165,79.1325,35.0,42,0.0,980.8,9.25,41.4,71,9.2,7.4,1.2,152.0,102.0,3.9,0,5,7,1,2026-05-10T14:26:25.853352+05:30
Erode,Tamil Nadu,11.341,77.7172,33.2,53,0.0,984.9,7.2,37.8,66,13.3,11.6,1.8,180.0,124.0,6.4,0,5,7,1,2026-05-10T14:26:25.853362+05:30
Kochi,Kerala,9.9312,76.2673,30.2,74,0.1,1004.9,8.8,32.4,75,19.5,19.0,3.0,302.0,170.0,4.5,6,5,4,1,2026-05-10T14:26:25.853371+05:30
Thiruvananthapuram,Kerala,8.5241,76.9366,27.6,81,0.0,1004.8,5.4,21.2,72,12.2,10.9,1.5,267.0,156.0,2.4,7,5,0,1,2026-05-10T14:26:25.853380+05:30
Kozhikode,Kerala,11.2588,75.7804,31.3,71,0.0,1003.3,8.85,35.6,72,18.0,16.4,1.3,222.0,165.0,3.4,3,5,4,1,2026-05-10T14:26:25.853390+05:30
Thrissur,Kerala,10.5276,76.2144,32.4,62,0.1,1002.6,9.0,32.8,76,11.4,10.7,1.2,227.0,116.0,4.2,6,5,4,1,2026-05-10T14:26:25.853401+05:30
Kannur,Kerala,11.8745,75.3704,31.1,72,0.0,1002.8,7.5,39.6,56,18.4,13.8,1.6,220.0,150.0,2.2,3,5,4,1,2026-05-10T14:26:25.853410+05:30
Patna,Bihar,25.5941,85.1376,31.0,45,0.0,999.9,8.65,28.8,154,65.4,50.3,2.3,331.0,228.0,22.8,0,5,7,1,2026-05-10T14:26:25.853419+05:30
Gaya,Bihar,24.7914,85.0002,34.0,33,0.0,992.5,8.7,26.3,132,60.1,31.9,1.6,246.0,217.0,12.5,0,5,7,0,2026-05-10T14:26:25.853428+05:30
Muzaffarpur,Bihar,26.1209,85.3647,30.6,53,0.0,1000.2,8.55,34.2,129,59.3,45.6,2.1,331.0,212.0,14.9,0,5,4,1,2026-05-10T14:26:25.853436+05:30
Bhagalpur,Bihar,25.2425,87.0117,31.3,47,0.0,1000.6,8.6,24.5,154,58.8,48.2,3.9,339.0,231.0,13.9,0,5,4,1,2026-05-10T14:26:25.853443+05:30
Ranchi,Jharkhand,23.3441,85.3096,28.5,45,0.0,937.2,9.15,38.2,104,47.4,29.7,1.2,241.0,182.0,17.6,4,5,7,0,2026-05-10T14:26:25.853451+05:30
Jamshedpur,Jharkhand,22.8046,86.2029,29.1,55,0.0,990.4,8.95,43.9,115,51.1,39.1,6.0,387.0,204.0,26.7,4,5,7,1,2026-05-10T14:26:25.853459+05:30
Dhanbad,Jharkhand,23.7957,86.4304,28.2,60,0.0,979.8,8.9,36.0,155,71.2,56.2,21.3,334.0,209.0,60.1,4,5,7,1,2026-05-10T14:26:25.853466+05:30
Bokaro,Jharkhand,23.6693,86.1511,32.4,38,0.0,982.6,8.9,45.7,154,67.1,48.7,20.4,589.0,211.0,61.2,0,5,7,1,2026-05-10T14:26:25.853473+05:30
Bhubaneswar,Odisha,20.2961,85.8245,31.5,59,0.0,1001.3,9.05,34.9,52,19.1,10.3,1.5,168.0,108.0,3.1,0,5,4,1,2026-05-10T14:26:25.853480+05:30
Cuttack,Odisha,20.4625,85.8828,33.0,55,0.0,1002.7,9.1,37.4,52,19.1,10.3,1.5,169.0,108.0,3.1,0,5,4,1,2026-05-10T14:26:25.853488+05:30
Rourkela,Odisha,22.2604,84.8536,30.4,48,0.0,983.9,8.9,55.8,113,56.3,30.0,1.4,277.0,183.0,25.7,0,5,7,1,2026-05-10T14:26:25.853496+05:30
Raipur,Chhattisgarh,21.2514,81.6296,38.3,23,0.0,972.0,8.9,29.5,124,65.7,36.3,9.0,398.0,236.0,7.6,0,5,10,0,2026-05-10T14:26:25.853504+05:30
Bhilai,Chhattisgarh,21.1938,81.3509,37.6,25,0.0,972.6,8.95,30.2,102,59.1,32.2,10.6,440.0,190.0,6.6,0,5,10,0,2026-05-10T14:26:25.853512+05:30
Guwahati,Assam,26.1158,91.7086,29.6,61,0.0,1000.8,8.65,27.7,89,42.1,28.3,0.9,269.0,147.0,2.4,7,5,4,1,2026-05-10T14:26:25.853520+05:30
Agartala,Tripura,23.8315,91.2868,24.6,92,0.3,1006.6,8.25,33.1,151,45.2,34.7,3.2,345.0,236.0,4.4,6,5,4,1,2026-05-10T14:26:25.853527+05:30
Shillong,Meghalaya,25.5788,91.8933,19.7,73,0.0,858.0,8.45,29.2,90,37.1,23.5,1.0,236.0,158.0,3.7,3,5,7,0,2026-05-10T14:26:25.853535+05:30
Imphal,Manipur,24.817,93.9368,26.0,57,0.0,923.4,7.85,29.5,99,31.3,17.9,0.8,236.0,117.0,2.3,4,5,7,1,2026-05-10T14:26:25.853542+05:30
Aizawl,Mizoram,23.7271,92.7176,25.2,47,0.0,892.9,6.35,24.5,96,49.4,31.5,0.5,260.0,152.0,4.7,4,5,7,0,2026-05-10T14:26:25.853549+05:30
Kohima,Nagaland,25.6701,94.1077,21.6,71,0.0,856.0,7.95,28.4,77,41.9,24.7,1.0,205.0,129.0,1.2,3,5,7,0,2026-05-10T14:26:25.853556+05:30
Gangtok,Sikkim,27.3314,88.6138,15.2,90,0.1,838.4,7.1,30.2,61,19.3,11.3,0.4,197.0,132.0,0.8,6,10,7,0,2026-05-10T14:26:25.853563+05:30
Siliguri,West Bengal,26.7271,88.3953,32.0,37,0.0,992.4,8.0,26.6,89,34.8,17.5,0.8,294.0,153.0,2.1,0,5,7,0,2026-05-10T14:26:29.078258+05:30
Durgapur,West Bengal,23.5204,87.3119,31.4,59,0.0,994.0,8.85,43.2,153,75.9,63.1,19.3,270.0,207.0,59.7,0,5,7,1,2026-05-10T14:26:29.078292+05:30
Asansol,West Bengal,23.6739,86.9524,31.0,56,0.0,992.9,8.9,51.5,151,70.3,56.1,17.8,361.0,205.0,54.9,0,5,7,1,2026-05-10T14:26:29.078305+05:30
Pondicherry,Puducherry,11.9139,79.8145,29.8,75,0.1,1004.9,8.55,43.6,27,5.9,4.2,1.0,150.0,69.0,1.4,10,5,4,1,2026-05-10T14:26:29.078315+05:30
Port Blair,Andaman and Nicobar Islands,11.6234,92.7265,30.0,73,0.0,1004.1,8.05,27.0,27,2.2,1.5,0.3,134.0,59.0,0.1,7,5,4,1,2026-05-10T14:26:29.078325+05:30
Haridwar,Uttarakhand,29.9457,78.1642,32.0,42,0.0,975.1,7.5,26.3,122,112.0,44.8,1.2,298.0,189.0,10.0,0,5,7,1,2026-05-10T14:26:29.078334+05:30
Rishikesh,Uttarakhand,30.0869,78.2676,30.3,45,0.0,967.8,7.55,20.9,118,88.5,40.5,1.3,283.0,188.0,8.3,0,5,7,1,2026-05-10T14:26:29.078343+05:30
Nainital,Uttarakhand,29.3919,79.4542,18.7,68,0.0,808.3,7.65,27.4,102,47.5,27.3,0.9,270.0,168.0,4.6,3,5,7,0,2026-05-10T14:26:29.078352+05:30
Mussoorie,Uttarakhand,30.4599,78.0664,19.3,67,0.0,806.2,7.95,38.5,110,91.7,41.1,1.4,267.0,180.0,5.8,3,5,7,0,2026-05-10T14:26:29.078361+05:30
Dharamshala,Himachal Pradesh,32.219,76.3234,24.2,61,0.0,871.6,7.75,35.6,102,104.5,40.2,0.5,298.0,173.0,6.9,3,5,7,1,2026-05-10T14:26:29.078369+05:30
Dalhousie,Himachal Pradesh,32.5387,75.971,21.5,59,0.1,808.5,8.1,37.1,139,171.8,51.0,1.0,290.0,186.0,10.0,3,5,7,0,2026-05-10T14:26:29.078379+05:30
Patiala,Punjab,30.3398,76.3869,34.5,35,0.0,978.5,7.6,34.9,344,953.7,121.5,1.8,321.0,222.0,20.7,0,5,7,1,2026-05-10T14:26:29.078387+05:30
Bhatinda,Punjab,30.211,74.9455,38.8,25,0.0,982.6,8.25,30.2,368,389.3,85.4,2.2,334.0,215.0,20.0,0,5,10,0,2026-05-10T14:26:29.078397+05:30
Rohtak,Haryana,28.8955,76.6066,37.3,26,0.0,981.1,7.65,30.6,387,614.7,94.5,2.3,333.0,232.0,18.5,0,5,10,0,2026-05-10T14:26:29.078405+05:30
Panipat,Haryana,29.3909,76.9635,34.7,34,0.0,980.6,7.5,32.4,680,910.8,115.3,3.0,315.0,237.0,23.7,0,5,7,1,2026-05-10T14:26:29.078412+05:30
Mathura,Uttar Pradesh,27.4924,77.6737,36.4,31,0.0,985.9,7.9,24.8,542,519.7,69.4,1.2,309.0,187.0,7.7,0,5,10,1,2026-05-10T14:26:29.078418+05:30
Vrindavan,Uttar Pradesh,27.5823,77.7027,36.5,31,0.0,986.4,7.9,25.6,542,519.7,69.4,1.2,312.0,187.0,7.7,0,5,10,1,2026-05-10T14:26:29.078426+05:30
Ayodhya,Uttar Pradesh,26.7922,82.1998,34.5,35,0.0,994.3,8.2,37.1,104,52.2,28.6,0.8,303.0,179.0,6.3,0,5,7,1,2026-05-10T14:26:29.078433+05:30
Ratlam,Madhya Pradesh,23.3315,75.0367,41.0,12,0.0,952.5,8.5,42.1,52,40.5,13.8,0.5,183.0,149.0,6.3,0,5,10,0,2026-05-10T14:26:29.078440+05:30
Sagar,Madhya Pradesh,23.8388,78.7378,37.4,21,0.0,948.2,8.65,36.0,103,159.3,37.3,0.4,235.0,170.0,5.6,0,5,10,0,2026-05-10T14:26:29.078447+05:30
Satna,Madhya Pradesh,24.6005,80.8322,37.8,22,0.0,968.7,8.65,28.1,136,60.3,29.8,1.2,295.0,204.0,10.6,0,5,10,0,2026-05-10T14:26:29.078453+05:30
Akola,Maharashtra,20.7002,77.0082,41.5,14,0.0,971.4,8.85,36.0,85,45.4,16.4,1.5,197.0,173.0,12.3,0,5,10,0,2026-05-10T14:26:29.078461+05:30
Amravati,Maharashtra,20.9374,77.7796,40.7,14,0.0,963.9,8.85,46.4,88,49.1,17.5,1.9,212.0,179.0,7.2,0,5,10,0,2026-05-10T14:26:29.078469+05:30
Latur,Maharashtra,18.4088,76.5604,39.5,15,0.0,937.2,9.1,41.0,88,36.0,19.8,1.0,200.0,163.0,9.2,0,5,10,0,2026-05-10T14:26:29.078475+05:30
Nanded,Maharashtra,19.1383,77.3091,39.8,16,0.0,965.2,9.0,36.7,94,38.2,20.5,1.2,205.0,179.0,9.2,0,5,10,0,2026-05-10T14:26:29.078482+05:30
Gulbarga,Karnataka,17.3297,76.8343,39.0,22,0.0,955.8,9.1,35.3,65,44.7,21.5,1.6,197.0,161.0,7.0,0,5,10,0,2026-05-10T14:26:29.078488+05:30
Bidar,Karnataka,17.9104,77.5199,36.6,22,0.0,933.7,9.1,31.7,76,46.2,21.0,1.1,210.0,155.0,4.4,0,5,10,0,2026-05-10T14:26:29.078495+05:30
Hospet,Karnataka,15.2689,76.3909,36.3,29,0.0,953.0,8.8,34.2,55,34.3,19.1,3.1,182.0,154.0,8.2,0,5,10,0,2026-05-10T14:26:29.078502+05:30
Tirupur,Tamil Nadu,11.1085,77.3411,33.7,48,0.0,971.3,7.1,30.2,69,13.2,10.4,1.6,167.0,128.0,5.0,0,5,7,1,2026-05-10T14:26:29.078508+05:30
Alappuzha,Kerala,9.4981,76.3388,28.5,83,0.1,1005.3,8.2,25.9,80,20.6,19.9,2.5,204.0,184.0,6.1,10,5,4,1,2026-05-10T14:26:29.078515+05:30
Munnar,Kerala,10.0889,77.0595,21.4,78,0.0,855.0,8.2,24.8,41,5.3,5.0,1.0,149.0,88.0,1.8,3,5,7,1,2026-05-10T14:26:29.078522+05:30
Silchar,Assam,24.8333,92.7789,30.9,59,0.0,1003.2,8.55,27.4,138,54.0,34.2,1.2,328.0,170.0,7.7,0,5,4,1,2026-05-10T14:26:29.078529+05:30
Dibrugarh,Assam,27.4728,94.912,32.4,49,0.0,993.0,8.8,42.5,105,38.8,26.0,0.9,278.0,156.0,1.8,0,5,7,1,2026-05-10T14:26:29.078536+05:30
