city,state,latitude,longitude,temp,humidity,rain,pressure,uv_index,wind_gusts,aqi,pm10,pm2_5,no2,co,o3,so2,mosquito_risk,arthritis_risk,migraine_risk,frizz_risk,updated_at
Delhi,Delhi,28.6139,77.209,24.3,60,0.0,983.5,7.55,34.2,207,233.3,56.2,16.7,489.0,93.0,18.2,0,5,7,1,2026-05-09T04:27:29.416453+05:30
Mumbai,Maharashtra,19.076,72.8777,27.5,83,0.0,1006.0,7.85,47.9,91,59.0,27.4,24.4,385.0,57.0,27.9,7,5,4,1,2026-05-09T04:27:29.416503+05:30
Bangalore,Karnataka,12.9716,77.5946,21.5,87,0.0,909.4,9.35,37.4,45,15.3,14.7,21.0,195.0,31.0,12.0,3,5,7,1,2026-05-09T04:27:29.416518+05:30
Hyderabad,Telangana,17.385,78.4867,25.4,74,0.0,952.6,9.15,32.4,50,10.4,9.5,11.1,270.0,42.0,6.0,7,5,7,1,2026-05-09T04:27:29.416528+05:30
Chennai,Tamil Nadu,13.0827,80.2707,27.1,81,0.1,1005.6,7.9,43.9,18,8.3,6.3,7.0,117.0,36.0,1.6,10,5,4,1,2026-05-09T04:27:29.416536+05:30
Kolkata,West Bengal,22.5726,88.3639,25.0,91,0.0,1007.3,8.9,51.1,126,59.4,56.7,24.1,649.0,74.0,15.8,7,5,4,1,2026-05-09T04:27:29.416544+05:30
Pune,Maharashtra,18.5204,73.8567,26.3,60,0.0,946.2,8.5,36.4,101,51.8,28.3,26.1,285.0,45.0,20.6,4,5,7,1,2026-05-09T04:27:29.416551+05:30
Ahmedabad,Gujarat,23.0225,72.5714,29.5,51,0.0,1000.2,8.1,33.8,71,24.5,14.6,10.3,177.0,57.0,5.6,4,5,4,1,2026-05-09T04:27:29.416560+05:30
Jaipur,Rajasthan,26.9124,75.7873,24.7,50,0.0,958.9,8.15,32.8,155,470.3,77.8,5.1,311.0,108.0,10.1,0,5,7,0,2026-05-09T04:27:29.416568+05:30
Lucknow,Uttar Pradesh,26.8467,80.9462,22.8,71,0.0,994.3,8.05,33.8,86,36.8,31.0,9.4,390.0,109.0,9.3,3,5,7,1,2026-05-09T04:27:29.416574+05:30
Kanpur,Uttar Pradesh,26.4499,80.3319,24.0,65,0.0,991.8,8.05,33.8,146,279.4,49.8,7.1,347.0,115.0,8.8,3,5,7,1,2026-05-09T04:27:29.416580+05:30
Chandigarh,Chandigarh,30.7333,76.7794,19.4,77,0.0,968.9,7.6,29.2,87,21.0,18.6,18.8,576.0,51.0,2.8,3,5,7,0,2026-05-09T04:27:29.416587+05:30
Srinagar,Jammu and Kashmir,34.0837,74.7973,8.4,76,0.0,839.1,8.9,18.0,88,92.0,53.6,22.3,198.0,48.0,1.0,3,5,7,0,2026-05-09T04:27:29.416594+05:30
Jammu,Jammu and Kashmir,32.7266,74.857,20.9,72,0.0,972.5,8.45,29.2,139,129.5,77.5,33.6,362.0,9.0,2.7,3,5,7,0,2026-05-09T04:27:29.416599+05:30
Amritsar,Punjab,31.634,74.8723,23.0,64,0.0,980.9,8.3,24.5,142,78.0,48.7,6.8,540.0,101.0,15.6,3,5,7,0,2026-05-09T04:27:29.416605+05:30
Ludhiana,Punjab,30.901,75.8573,22.1,69,0.0,978.9,7.9,39.2,146,60.3,38.5,15.4,538.0,63.0,6.2,3,5,7,1,2026-05-09T04:27:29.416611+05:30
Jalandhar,Punjab,31.326,75.5762,21.5,72,0.0,979.9,8.05,29.2,140,52.5,43.1,12.0,489.0,75.0,14.4,3,5,7,1,2026-05-09T04:27:29.416617+05:30
Dehradun,Uttarakhand,30.6284,78.0322,9.3,95,0.0,827.4,8.0,31.0,55,32.2,13.6,24.1,237.0,25.0,0.1,3,10,7,0,2026-05-09T04:27:29.416624+05:30
Shimla,Himachal Pradesh,31.1048,77.1734,7.2,90,0.0,780.1,8.05,38.9,65,32.8,19.7,19.0,269.0,48.0,0.1,3,10,7,0,2026-05-09T04:27:29.416630+05:30
Manali,Himachal Pradesh,32.2396,77.1887,6.0,48,0.0,811.3,9.5,40.0,73,30.7,7.5,12.8,209.0,127.0,0.5,0,5,7,1,2026-05-09T04:27:29.416637+05:30
Gurgaon,Haryana,28.4595,77.0266,23.4,64,0.0,981.7,7.65,37.8,1454,961.1,128.5,12.5,475.0,97.0,15.5,3,5,7,1,2026-05-09T04:27:29.416643+05:30
Noida,Uttar Pradesh,28.5355,77.391,21.5,74,0.0,984.9,7.6,22.0,1454,961.1,128.5,12.5,458.0,97.0,15.5,3,5,7,1,2026-05-09T04:27:29.416648+05:30
Ghaziabad,Uttar Pradesh,28.6692,77.4538,22.0,71,0.0,983.3,7.55,25.2,140,146.2,40.5,9.5,434.0,91.0,10.3,3,5,7,1,2026-05-09T04:27:29.416654+05:30
Faridabad,Haryana,28.4089,77.3178,23.2,66,0.0,984.3,7.6,29.2,1454,961.1,128.5,12.5,471.0,97.0,15.5,3,5,7,1,2026-05-09T04:27:29.416662+05:30
Meerut,Uttar Pradesh,28.9845,77.7064,21.6,76,0.0,982.1,7.45,25.6,140,146.2,40.5,9.5,453.0,91.0,10.3,3,5,7,1,2026-05-09T04:27:29.416667+05:30
Agra,Uttar Pradesh,27.1767,78.0081,23.1,68,0.0,987.7,7.9,22.3,914,1080.3,129.9,7.1,368.0,95.0,11.9,3,5,7,1,2026-05-09T04:27:29.416673+05:30
Varanasi,Uttar Pradesh,25.3176,82.9739,23.5,80,0.0,998.2,8.55,40.7,99,56.9,49.2,12.6,439.0,107.0,19.2,3,5,7,1,2026-05-09T04:27:29.416679+05:30
Prayagraj,Uttar Pradesh,25.4358,81.8463,24.5,72,0.0,996.2,8.45,35.3,94,56.0,47.1,12.3,445.0,109.0,15.5,3,5,7,1,2026-05-09T04:27:29.416687+05:30
Gorakhpur,Uttar Pradesh,26.7606,83.3732,22.1,79,0.0,999.1,8.05,45.7,93,36.1,28.7,12.7,501.0,78.0,6.6,3,5,7,1,2026-05-09T04:27:29.416693+05:30
Bareilly,Uttar Pradesh,28.367,79.4304,21.5,70,0.0,987.8,7.5,28.4,86,38.5,24.3,12.2,338.0,77.0,4.9,3,5,7,0,2026-05-09T04:27:29.416698+05:30
Aligarh,Uttar Pradesh,27.8974,78.088,22.5,67,0.0,985.9,7.7,26.3,574,478.7,72.9,9.8,351.0,86.0,17.7,3,5,7,1,2026-05-09T04:27:29.416705+05:30
Moradabad,Uttar Pradesh,28.8386,78.7733,21.4,76,0.0,984.5,7.35,28.1,90,38.5,30.9,16.4,383.0,67.0,5.8,3,5,7,1,2026-05-09T04:27:29.416710+05:30
Saharanpur,Uttar Pradesh,29.9637,77.546,21.6,71,0.0,976.2,7.3,28.1,107,51.3,43.0,36.1,452.0,16.0,6.1,3,5,7,1,2026-05-09T04:27:29.416716+05:30
Jhansi,Uttar Pradesh,25.4484,78.5685,23.8,60,0.0,976.2,8.3,27.7,72,29.3,18.8,4.1,354.0,115.0,10.4,0,5,7,0,2026-05-09T04:27:32.756339+05:30
Surat,Gujarat,21.1702,72.8311,29.5,60,0.0,1004.0,7.7,34.2,104,32.1,21.3,23.1,179.0,46.0,34.3,4,5,4,1,2026-05-09T04:27:32.756371+05:30
Vadodara,Gujarat,22.3072,73.1812,29.6,31,0.0,1002.1,8.05,32.0,81,28.5,18.1,9.3,209.0,63.0,8.2,4,5,4,0,2026-05-09T04:27:32.756382+05:30
Rajkot,Gujarat,22.3039,70.8022,24.8,91,0.0,992.9,7.7,38.9,55,39.1,13.0,6.8,184.0,54.0,6.0,3,5,7,1,2026-05-09T04:27:32.756391+05:30
Thane,Maharashtra,19.2183,72.9781,26.8,84,0.0,1005.4,7.9,48.2,91,59.0,27.4,24.4,327.0,57.0,27.9,7,5,4,1,2026-05-09T04:27:32.756399+05:30
Nagpur,Maharashtra,21.1458,79.0882,28.2,48,0.0,972.4,8.9,47.2,129,62.2,49.8,32.9,283.0,55.0,18.9,4,5,7,1,2026-05-09T04:27:32.756408+05:30
Nashik,Maharashtra,19.9975,73.7898,25.6,38,0.0,943.8,8.2,49.3,85,82.7,35.9,27.8,286.0,61.0,21.6,4,5,7,0,2026-05-09T04:27:32.756416+05:30
Aurangabad,Maharashtra,19.8762,75.3433,28.4,28,0.0,943.0,9.05,35.3,99,72.9,48.4,31.5,289.0,54.0,9.7,4,5,7,0,2026-05-09T04:27:32.756423+05:30
Solapur,Maharashtra,17.6599,75.9064,28.3,49,0.0,956.1,8.85,32.0,85,19.0,16.9,10.3,283.0,74.0,7.1,4,5,7,1,2026-05-09T04:27:32.756431+05:30
Kolhapur,Maharashtra,16.705,74.2433,25.5,82,0.0,945.6,8.95,45.0,152,87.5,77.1,59.7,422.0,17.0,13.3,7,5,7,1,2026-05-09T04:27:32.756439+05:30
Goa,Goa,15.2993,74.124,26.1,91,0.0,994.8,8.65,49.7,96,55.9,36.6,15.6,368.0,45.0,2.6,7,5,7,1,2026-05-09T04:27:32.756446+05:30
Jodhpur,Rajasthan,26.2389,73.0243,29.7,23,0.0,981.2,8.35,34.6,108,231.0,30.4,5.3,215.0,65.0,2.6,4,5,7,0,2026-05-09T04:27:32.756454+05:30
Udaipur,Rajasthan,24.5854,73.7125,27.9,19,0.0,945.0,8.8,41.8,47,13.9,4.5,2.2,165.0,87.0,2.5,4,5,7,0,2026-05-09T04:27:32.756462+05:30
Kota,Rajasthan,25.2138,75.8648,25.9,39,0.0,976.6,8.35,39.2,63,34.1,21.1,9.6,372.0,50.0,4.1,4,5,7,0,2026-05-09T04:27:32.756469+05:30
Bikaner,Rajasthan,28.0229,73.3119,27.2,42,0.0,980.5,8.3,24.8,81,156.5,43.4,2.6,282.0,104.0,4.3,4,5,7,0,2026-05-09T04:27:32.756476+05:30
Ajmer,Rajasthan,26.4499,74.6399,23.0,55,0.0,952.5,8.3,41.0,63,111.3,32.7,5.9,286.0,89.0,6.3,0,5,7,0,2026-05-09T04:27:32.756483+05:30
Gwalior,Madhya Pradesh,26.2183,78.1828,23.0,67,0.0,982.1,8.1,25.6,78,174.2,45.5,4.3,289.0,109.0,7.3,3,5,7,1,2026-05-09T04:27:32.756490+05:30
Indore,Madhya Pradesh,22.7196,75.8577,29.5,19,0.0,946.8,8.65,42.8,87,26.1,19.1,9.3,508.0,78.0,6.4,4,5,7,0,2026-05-09T04:27:32.756497+05:30
Bhopal,Madhya Pradesh,23.2599,77.4126,27.3,31,0.0,951.7,8.5,55.8,77,38.3,23.3,5.6,280.0,91.0,4.8,4,5,7,0,2026-05-09T04:27:32.756505+05:30
Jabalpur,Madhya Pradesh,23.1815,79.9864,26.0,44,0.0,960.7,8.7,50.8,72,41.4,22.4,8.5,208.0,103.0,5.2,4,5,7,0,2026-05-09T04:27:32.756511+05:30
Ujjain,Madhya Pradesh,23.1765,75.7885,26.9,26,0.0,952.0,8.55,41.8,87,12.0,9.6,2.8,373.0,91.0,3.9,4,5,7,0,2026-05-09T04:27:32.756517+05:30
Visakhapatnam,Andhra Pradesh,17.6868,83.2185,25.0,97,0.0,1003.9,9.15,34.6,63,35.3,32.8,30.4,2104.0,17.0,6.7,7,5,4,1,2026-05-09T04:27:32.756523+05:30
Vijayawada,Andhra Pradesh,16.5062,80.648,26.4,90,0.0,1002.1,9.2,38.9,38,19.3,17.7,14.3,172.0,23.0,4.8,7,5,4,1,2026-05-09T04:27:32.756530+05:30
Guntur,Andhra Pradesh,16.3067,80.4365,26.5,88,0.0,1003.2,9.25,38.2,37,16.9,15.5,15.5,196.0,21.0,7.1,7,5,4,1,2026-05-09T04:27:32.756535+05:30
Nellore,Andhra Pradesh,14.4426,79.9865,25.9,90,0.0,1004.6,9.2,40.3,19,6.8,4.7,3.9,161.0,35.0,2.4,7,5,4,1,2026-05-09T04:27:32.756543+05:30
Kurnool,Andhra Pradesh,15.8281,78.0373,26.5,72,0.0,976.3,9.2,42.5,30,5.4,4.2,5.7,140.0,32.0,1.5,7,5,7,1,2026-05-09T04:27:32.756550+05:30
Kakinada,Andhra Pradesh,16.9891,82.2475,25.0,98,0.0,1007.2,9.15,37.1,25,7.8,5.6,1.7,215.0,53.0,0.5,7,5,4,1,2026-05-09T04:27:32.756555+05:30
Tirupati,Andhra Pradesh,13.6288,79.4192,25.4,86,0.0,989.8,9.1,55.8,24,15.6,14.2,22.5,156.0,5.0,2.3,7,5,7,1,2026-05-09T04:27:32.756561+05:30
Warangal,Telangana,17.9689,79.5941,26.1,74,0.0,978.2,9.15,33.5,52,12.3,11.4,11.3,248.0,42.0,8.3,7,5,7,1,2026-05-09T04:27:32.756567+05:30
Nizamabad,Telangana,18.6725,78.0941,26.4,61,0.0,963.8,9.1,34.2,76,18.3,16.7,9.2,252.0,75.0,4.8,7,5,7,1,2026-05-09T04:27:32.756573+05:30
Mysore,Karnataka,12.2958,76.6396,22.6,88,0.0,925.7,9.1,32.0,63,21.5,20.1,15.2,232.0,58.0,7.9,3,5,7,1,2026-05-09T04:27:32.756579+05:30
Mangalore,Karnataka,12.9141,74.856,25.5,96,0.0,1003.9,9.0,35.3,90,34.2,25.4,4.4,207.0,101.0,3.7,7,5,4,1,2026-05-09T04:27:32.756585+05:30
Hubli-Dharwad,Karnataka,15.3647,75.124,26.3,51,0.0,939.2,9.2,41.0,69,15.4,13.9,13.9,258.0,56.0,7.5,4,5,7,0,2026-05-09T04:27:32.756591+05:30
Belgaum,Karnataka,15.8497,74.4977,25.1,56,0.0,923.8,9.2,39.2,98,30.5,26.9,19.5,309.0,67.0,6.9,4,5,7,0,2026-05-09T04:27:36.163809+05:30
Coimbatore,Tamil Nadu,11.0168,76.9558,24.5,94,0.0,958.7,8.45,25.2,63,20.8,20.0,16.4,213.0,44.0,7.1,3,5,7,1,2026-05-09T04:27:36.163840+05:30
Madurai,Tamil Nadu,9.9252,78.1198,25.8,90,0.0,990.0,3.1,31.7,60,31.3,31.0,35.9,206.0,8.0,10.0,7,5,3,1,2026-05-09T04:27:36.163850+05:30
Trichy,Tamil Nadu,10.7905,78.7047,26.3,85,0.0,997.1,4.05,31.3,41,13.5,12.1,26.2,244.0,7.0,23.3,7,5,3,1,2026-05-09T04:27:36.163859+05:30
Salem,Tamil Nadu,11.6643,78.146,24.5,96,0.0,974.9,3.8,32.4,52,16.1,15.1,18.4,368.0,33.0,14.3,3,5,3,1,2026-05-09T04:27:36.163867+05:30
Tirunelveli,Tamil Nadu,8.7139,77.7567,25.1,95,0.0,1000.6,7.1,42.1,51,21.5,20.8,15.2,178.0,30.0,3.1,7,5,4,1,2026-05-09T04:27:36.163875+05:30
Vellore,Tamil Nadu,12.9165,79.1325,24.9,88,0.0,983.0,8.6,50.4,43,18.9,17.3,25.5,207.0,7.0,14.0,3,5,7,1,2026-05-09T04:27:36.163882+05:30
Erode,Tamil Nadu,11.341,77.7172,24.8,97,0.0,986.5,8.3,34.9,57,18.6,17.7,22.4,317.0,24.0,11.6,3,5,7,1,2026-05-09T04:27:36.163890+05:30
Kochi,Kerala,9.9312,76.2673,25.5,94,0.0,1005.2,7.7,24.1,69,24.0,23.1,15.5,307.0,46.0,5.7,7,5,4,1,2026-05-09T04:27:36.163897+05:30
Thiruvananthapuram,Kerala,8.5241,76.9366,25.0,96,0.0,1005.1,3.95,28.1,47,11.8,10.7,5.1,552.0,94.0,4.2,7,5,0,1,2026-05-09T04:27:36.163905+05:30
Kozhikode,Kerala,11.2588,75.7804,25.5,99,0.0,1004.8,8.9,28.1,69,18.2,14.8,2.5,434.0,110.0,2.6,7,5,4,1,2026-05-09T04:27:36.163912+05:30
Thrissur,Kerala,10.5276,76.2144,25.0,96,0.0,1003.5,8.6,28.4,73,22.6,21.9,15.0,515.0,38.0,4.2,7,5,4,1,2026-05-09T04:27:36.163920+05:30
Kannur,Kerala,11.8745,75.3704,25.7,96,0.0,1004.3,8.3,30.6,77,27.5,20.5,5.5,176.0,82.0,2.5,7,5,4,1,2026-05-09T04:27:36.163927+05:30
Patna,Bihar,25.5941,85.1376,22.5,83,0.0,1001.8,8.65,32.0,139,59.6,55.5,17.1,511.0,75.0,14.8,3,5,4,1,2026-05-09T04:27:36.163934+05:30
Gaya,Bihar,24.7914,85.0002,22.2,82,0.0,994.6,8.75,29.5,125,49.8,46.6,17.7,408.0,80.0,26.2,3,5,7,1,2026-05-09T04:27:36.163942+05:30
Muzaffarpur,Bihar,26.1209,85.3647,22.3,82,0.0,1002.2,8.65,32.8,150,66.1,60.8,16.4,526.0,77.0,12.8,3,5,4,1,2026-05-09T04:27:36.163949+05:30
Bhagalpur,Bihar,25.2425,87.0117,22.8,87,0.0,1003.3,8.7,34.9,152,78.2,70.5,20.1,478.0,69.0,10.6,3,5,4,1,2026-05-09T04:27:36.163956+05:30
Ranchi,Jharkhand,23.3441,85.3096,20.6,79,0.0,937.4,8.95,52.2,96,43.0,33.9,13.2,378.0,98.0,18.1,3,5,7,1,2026-05-09T04:27:36.163963+05:30
Jamshedpur,Jharkhand,22.8046,86.2029,22.4,97,0.0,992.1,9.05,30.2,92,35.2,28.9,20.6,328.0,60.0,20.3,3,5,7,1,2026-05-09T04:27:36.163970+05:30
Dhanbad,Jharkhand,23.7957,86.4304,22.0,91,0.0,981.2,8.8,49.0,154,66.6,61.0,60.5,503.0,24.0,62.8,3,5,7,1,2026-05-09T04:27:36.163977+05:30
Bokaro,Jharkhand,23.6693,86.1511,20.6,100,0.0,984.9,8.8,50.4,152,77.1,70.5,66.1,1468.0,18.0,68.2,3,5,7,1,2026-05-09T04:27:36.163984+05:30
Bhubaneswar,Odisha,20.2961,85.8245,25.5,98,0.0,1003.3,9.1,31.0,39,18.5,15.8,11.7,244.0,32.0,3.7,7,5,4,1,2026-05-09T04:27:36.163991+05:30
Cuttack,Odisha,20.4625,85.8828,25.6,98,0.0,1005.2,9.15,29.2,39,18.5,15.8,11.7,262.0,32.0,3.7,7,5,4,1,2026-05-09T04:27:36.163997+05:30
Rourkela,Odisha,22.2604,84.8536,21.5,96,0.0,985.6,8.7,51.8,94,52.7,45.5,30.4,657.0,43.0,38.4,3,5,7,1,2026-05-09T04:27:36.164004+05:30
Raipur,Chhattisgarh,21.2514,81.6296,26.1,55,0.0,974.2,8.95,50.8,126,46.6,40.5,40.1,318.0,40.0,7.4,4,5,7,1,2026-05-09T04:27:36.164009+05:30
Bhilai,Chhattisgarh,21.1938,81.3509,26.4,55,0.0,974.6,8.95,55.4,117,58.6,49.6,52.4,446.0,28.0,8.7,4,5,7,1,2026-05-09T04:27:36.164015+05:30
Guwahati,Assam,26.1158,91.7086,21.4,85,0.0,1003.9,8.65,25.9,113,49.4,44.9,18.1,347.0,32.0,2.5,3,5,4,1,2026-05-09T04:27:36.164021+05:30
Agartala,Tripura,23.8315,91.2868,23.2,83,0.0,1007.6,8.75,19.8,156,100.8,95.2,64.7,533.0,13.0,6.1,3,5,4,1,2026-05-09T04:27:36.164027+05:30
Shillong,Meghalaya,25.5788,91.8933,15.2,89,0.0,857.7,8.4,19.8,81,25.6,22.4,9.7,304.0,51.0,1.2,3,10,7,0,2026-05-09T04:27:36.164033+05:30
Imphal,Manipur,24.817,93.9368,16.4,87,0.0,924.2,9.05,25.9,96,56.8,51.5,27.0,390.0,28.0,4.7,3,10,7,0,2026-05-09T04:27:36.164039+05:30
Aizawl,Mizoram,23.7271,92.7176,14.0,95,0.0,891.7,8.75,24.5,78,37.1,31.9,13.1,390.0,28.0,1.6,3,10,7,0,2026-05-09T04:27:36.164044+05:30
Kohima,Nagaland,25.6701,94.1077,13.9,92,0.0,855.3,9.15,31.3,80,37.5,32.1,12.8,275.0,37.0,0.2,3,10,7,0,2026-05-09T04:27:36.164051+05:30
Gangtok,Sikkim,27.3314,88.6138,9.5,91,0.0,836.1,8.1,39.6,74,20.5,16.3,14.4,145.0,40.0,0.4,3,10,7,0,2026-05-09T04:27:36.164056+05:30
Siliguri,West Bengal,26.7271,88.3953,20.8,74,0.0,995.1,8.55,22.7,124,57.3,51.1,40.2,708.0,15.0,2.6,3,5,7,0,2026-05-09T04:27:39.514192+05:30
Durgapur,West Bengal,23.5204,87.3119,23.5,95,0.0,996.7,8.9,34.9,152,59.4,55.3,39.6,430.0,41.0,38.7,3,5,7,1,2026-05-09T04:27:39.514223+05:30
Asansol,West Bengal,23.6739,86.9524,22.2,94,0.0,995.3,8.95,42.5,149,50.3,45.9,38.1,942.0,42.0,45.4,3,5,7,1,2026-05-09T04:27:39.514233+05:30
Pondicherry,Puducherry,11.9139,79.8145,26.1,90,0.0,1006.2,5.75,36.4,19,5.9,4.0,2.5,164.0,45.0,0.4,7,5,0,1,2026-05-09T04:27:39.514243+05:30
Port Blair,Andaman and Nicobar Islands,11.6234,92.7265,26.5,92,0.1,1005.0,9.05,38.5,28,4.5,3.4,0.2,129.0,60.0,0.7,10,5,4,1,2026-05-09T04:27:39.514251+05:30
Haridwar,Uttarakhand,29.9457,78.1642,19.5,79,0.0,974.6,7.2,25.9,91,38.1,33.6,41.8,292.0,3.0,3.4,3,5,7,0,2026-05-09T04:27:39.514259+05:30
Rishikesh,Uttarakhand,30.0869,78.2676,17.2,86,0.0,967.1,7.35,30.6,74,29.6,23.2,20.6,348.0,33.0,1.0,3,10,7,0,2026-05-09T04:27:39.514267+05:30
Nainital,Uttarakhand,29.3919,79.4542,11.1,81,0.0,804.1,7.55,31.3,60,32.6,22.2,24.9,264.0,35.0,2.3,3,10,7,0,2026-05-09T04:27:39.514275+05:30
Mussoorie,Uttarakhand,30.4599,78.0664,12.1,76,0.0,801.8,7.85,41.4,84,35.0,26.3,42.9,217.0,7.0,5.0,3,5,7,0,2026-05-09T04:27:39.514282+05:30
Dharamshala,Himachal Pradesh,32.219,76.3234,17.0,68,0.0,868.1,8.25,38.9,68,29.9,12.6,10.1,248.0,61.0,0.7,3,5,7,0,2026-05-09T04:27:39.514289+05:30
Dalhousie,Himachal Pradesh,32.5387,75.971,6.8,98,0.0,798.9,8.5,34.6,113,65.0,36.9,20.5,323.0,52.0,2.4,3,10,7,0,2026-05-09T04:27:39.514296+05:30
Patiala,Punjab,30.3398,76.3869,21.8,71,0.0,978.5,7.5,27.0,411,128.1,42.4,9.7,371.0,93.0,5.2,3,5,7,1,2026-05-09T04:27:39.514303+05:30
Bhatinda,Punjab,30.211,74.9455,24.2,59,0.0,983.8,8.2,26.6,659,549.5,118.5,5.3,333.0,118.0,8.5,0,5,7,0,2026-05-09T04:27:39.514308+05:30
Rohtak,Haryana,28.8955,76.6066,22.5,74,0.0,981.8,7.6,34.2,581,369.7,71.2,17.0,428.0,94.0,21.8,3,5,7,1,2026-05-09T04:27:39.514314+05:30
Panipat,Haryana,29.3909,76.9635,21.7,73,0.0,980.9,7.45,28.1,942,407.9,75.2,16.0,445.0,78.0,14.9,3,5,7,1,2026-05-09T04:27:39.514320+05:30
Mathura,Uttar Pradesh,27.4924,77.6737,23.2,63,0.0,986.9,7.85,24.1,956,897.8,115.3,7.5,382.0,94.0,15.4,3,5,7,0,2026-05-09T04:27:39.514325+05:30
Vrindavan,Uttar Pradesh,27.5823,77.7027,23.4,63,0.0,987.3,7.8,24.5,956,897.8,115.3,7.5,382.0,94.0,15.4,3,5,7,0,2026-05-09T04:27:39.514331+05:30
Ayodhya,Uttar Pradesh,26.7922,82.1998,22.1,79,0.0,996.7,8.15,36.4,86,39.1,33.8,12.4,443.0,90.0,8.1,3,5,7,1,2026-05-09T04:27:39.514337+05:30
Ratlam,Madhya Pradesh,23.3315,75.0367,25.4,28,0.0,952.5,8.5,41.0,69,13.0,8.3,3.0,207.0,93.0,3.6,4,5,7,0,2026-05-09T04:27:39.514343+05:30
Sagar,Madhya Pradesh,23.8388,78.7378,25.1,38,0.0,947.9,8.6,45.4,62,31.0,17.8,5.2,211.0,114.0,5.4,4,5,7,0,2026-05-09T04:27:39.514349+05:30
Satna,Madhya Pradesh,24.6005,80.8322,22.9,60,0.0,969.9,8.65,51.5,98,32.4,25.8,8.0,356.0,128.0,13.4,0,5,7,0,2026-05-09T04:27:39.514355+05:30
Akola,Maharashtra,20.7002,77.0082,28.2,49,0.0,974.0,8.85,46.4,81,38.1,28.0,19.7,312.0,64.0,4.5,4,5,7,1,2026-05-09T04:27:39.514361+05:30
Amravati,Maharashtra,20.9374,77.7796,28.2,50,0.0,966.9,8.85,41.4,84,42.4,31.2,24.9,329.0,57.0,7.0,4,5,7,1,2026-05-09T04:27:39.514368+05:30
Latur,Maharashtra,18.4088,76.5604,27.2,49,0.0,938.9,9.1,34.6,87,21.9,19.3,9.1,269.0,82.0,4.5,4,5,7,0,2026-05-09T04:27:39.514374+05:30
Nanded,Maharashtra,19.1383,77.3091,27.9,54,0.0,967.5,9.0,46.1,83,20.2,18.0,9.1,272.0,75.0,3.9,4,5,7,1,2026-05-09T04:27:39.514380+05:30
Gulbarga,Karnataka,17.3297,76.8343,26.9,57,0.0,957.9,9.0,38.5,60,15.9,14.4,10.5,246.0,67.0,6.1,4,5,7,1,2026-05-09T04:27:39.514386+05:30
Bidar,Karnataka,17.9104,77.5199,24.5,66,0.0,934.5,8.9,43.2,67,17.8,16.2,11.9,241.0,68.0,7.2,3,5,7,1,2026-05-09T04:27:39.514391+05:30
Hospet,Karnataka,15.2689,76.3909,25.0,70,0.0,954.6,9.25,33.1,51,8.6,7.3,11.5,175.0,39.0,8.9,7,5,7,1,2026-05-09T04:27:39.514397+05:30
Tirupur,Tamil Nadu,11.1085,77.3411,24.6,96,0.0,972.4,8.5,32.8,70,32.5,31.2,24.7,296.0,31.0,8.4,3,5,7,1,2026-05-09T04:27:39.514403+05:30
Alappuzha,Kerala,9.4981,76.3388,25.8,99,0.0,1005.5,6.45,31.0,65,17.2,16.2,13.0,221.0,74.0,6.1,7,5,4,1,2026-05-09T04:27:39.514408+05:30
Munnar,Kerala,10.0889,77.0595,17.0,92,0.0,853.2,4.1,21.6,48,11.6,11.3,12.3,178.0,28.0,2.9,3,10,3,0,2026-05-09T04:27:39.514415+05:30
Silchar,Assam,24.8333,92.7789,21.9,91,0.0,1007.0,8.5,15.5,125,53.0,48.8,23.0,601.0,16.0,3.5,3,5,4,1,2026-05-09T04:27:39.514421+05:30
Dibrugarh,Assam,27.4728,94.912,22.2,94,0.0,998.2,8.8,16.2,85,51.1,46.3,36.4,570.0,13.0,1.9,3,5,7,1,2026-05-09T04:27:39.514426+05:30
