city,state,latitude,longitude,temp,humidity,rain,pressure,uv_index,wind_gusts,aqi,pm10,pm2_5,no2,co,o3,so2,mosquito_risk,arthritis_risk,migraine_risk,frizz_risk,updated_at
Delhi,Delhi,28.6139,77.209,28.4,85,0.0,972.2,7.7,25.9,446,362.3,137.8,74.1,233.0,2.0,30.2,7,5,7,1,2026-07-12T05:27:42.473317+05:30
Mumbai,Maharashtra,19.076,72.8777,27.6,85,0.0,1004.8,7.7,53.3,53,26.4,10.3,3.2,101.0,43.0,2.9,7,5,4,1,2026-07-12T05:27:42.473368+05:30
Bangalore,Karnataka,12.9716,77.5946,20.3,93,0.0,909.5,8.9,47.9,51,14.8,8.4,10.9,155.0,26.0,4.0,3,5,7,1,2026-07-12T05:27:42.473383+05:30
Hyderabad,Telangana,17.385,78.4867,25.0,74,0.0,949.8,8.55,53.6,59,24.3,12.9,7.3,125.0,37.0,4.2,7,5,7,1,2026-07-12T05:27:42.473393+05:30
Chennai,Tamil Nadu,13.0827,80.2707,29.2,62,0.0,1002.7,8.45,40.0,73,32.2,23.3,20.3,280.0,36.0,9.0,7,5,4,1,2026-07-12T05:27:42.473400+05:30
Kolkata,West Bengal,22.5726,88.3639,27.9,92,0.0,996.6,6.7,24.1,132,66.4,50.2,12.1,433.0,70.0,13.2,7,5,7,1,2026-07-12T05:27:42.473406+05:30
Pune,Maharashtra,18.5204,73.8567,23.1,91,0.0,944.0,8.4,55.4,35,7.5,3.8,3.8,94.0,38.0,3.8,3,5,7,1,2026-07-12T05:27:42.473412+05:30
Ahmedabad,Gujarat,23.0225,72.5714,27.1,83,0.0,995.1,8.1,52.2,64,27.2,13.5,6.4,106.0,36.0,4.0,7,5,7,1,2026-07-12T05:27:42.473419+05:30
Jaipur,Rajasthan,26.9124,75.7873,27.0,74,0.0,950.3,8.2,38.5,376,527.1,91.3,7.4,140.0,52.0,4.0,7,5,7,1,2026-07-12T05:27:42.473427+05:30
Lucknow,Uttar Pradesh,26.8467,80.9462,26.7,93,0.0,983.4,8.2,36.0,153,96.9,50.2,29.5,478.0,18.0,6.2,7,5,7,1,2026-07-12T05:27:42.473434+05:30
Kanpur,Uttar Pradesh,26.4499,80.3319,28.4,77,0.0,981.6,8.2,36.7,139,79.2,41.2,24.0,185.0,31.0,7.9,7,5,7,1,2026-07-12T05:27:42.473440+05:30
Chandigarh,Chandigarh,30.7333,76.7794,23.7,99,0.4,958.6,7.7,40.0,152,61.7,59.8,48.0,619.0,18.0,5.4,6,5,7,1,2026-07-12T05:27:42.473446+05:30
Srinagar,Jammu and Kashmir,34.0837,74.7973,18.6,95,0.0,834.2,8.4,23.4,57,8.5,8.1,7.9,396.0,94.0,2.2,3,10,7,1,2026-07-12T05:27:42.473452+05:30
Jammu,Jammu and Kashmir,32.7266,74.857,23.6,97,0.0,962.3,8.6,33.5,106,55.9,47.0,45.8,454.0,11.0,3.1,3,5,7,1,2026-07-12T05:27:42.473458+05:30
Amritsar,Punjab,31.634,74.8723,25.2,89,0.0,969.0,8.45,45.0,162,91.7,63.6,21.2,300.0,60.0,8.4,7,5,7,1,2026-07-12T05:27:42.473463+05:30
Ludhiana,Punjab,30.901,75.8573,24.0,94,0.1,967.2,7.95,46.1,162,121.1,83.8,37.0,387.0,44.0,16.3,6,5,7,1,2026-07-12T05:27:42.473468+05:30
Jalandhar,Punjab,31.326,75.5762,24.5,95,0.1,968.4,8.15,45.4,163,85.9,73.6,31.5,364.0,51.0,16.3,6,5,7,1,2026-07-12T05:27:42.473473+05:30
Dehradun,Uttarakhand,30.6284,78.0322,15.8,100,0.0,821.5,7.95,29.2,53,11.2,11.2,23.8,265.0,19.0,0.0,3,10,7,0,2026-07-12T05:27:42.473478+05:30
Shimla,Himachal Pradesh,31.1048,77.1734,13.9,97,0.1,776.8,8.25,36.7,98,35.7,35.6,10.2,383.0,94.0,0.9,6,10,7,0,2026-07-12T05:27:42.473483+05:30
Manali,Himachal Pradesh,32.2396,77.1887,14.9,94,0.0,809.5,9.3,28.4,41,4.3,4.3,11.6,239.0,91.0,0.0,3,10,7,0,2026-07-12T05:27:42.473491+05:30
Gurgaon,Haryana,28.4595,77.0266,28.4,78,0.0,970.6,7.7,27.0,518,733.9,153.7,29.5,212.0,28.0,11.8,7,5,7,1,2026-07-12T05:27:42.473496+05:30
Noida,Uttar Pradesh,28.5355,77.391,26.9,94,0.0,973.7,7.7,24.5,518,733.9,153.7,29.5,288.0,28.0,11.8,7,5,7,1,2026-07-12T05:27:42.473503+05:30
Ghaziabad,Uttar Pradesh,28.6692,77.4538,26.3,91,0.0,972.0,7.7,26.6,349,413.5,163.0,60.6,703.0,5.0,17.7,7,5,7,1,2026-07-12T05:27:42.473508+05:30
Faridabad,Haryana,28.4089,77.3178,27.4,95,0.0,972.9,7.75,26.6,518,733.9,153.7,29.5,229.0,28.0,11.8,7,5,7,1,2026-07-12T05:27:42.473513+05:30
Meerut,Uttar Pradesh,28.9845,77.7064,25.7,96,0.0,970.8,7.55,29.2,349,413.5,163.0,60.6,377.0,5.0,17.7,7,5,7,1,2026-07-12T05:27:42.473519+05:30
Agra,Uttar Pradesh,27.1767,78.0081,28.9,71,0.0,977.3,8.0,36.7,150,215.1,43.7,16.5,192.0,39.0,4.9,7,5,7,1,2026-07-12T05:27:42.473524+05:30
Varanasi,Uttar Pradesh,25.3176,82.9739,28.4,72,0.0,987.9,8.55,42.1,104,45.2,30.2,11.8,211.0,50.0,6.8,7,5,7,1,2026-07-12T05:27:42.473530+05:30
Prayagraj,Uttar Pradesh,25.4358,81.8463,29.2,71,0.0,986.3,8.6,43.6,108,51.5,35.2,16.6,170.0,41.0,5.4,7,5,7,1,2026-07-12T05:27:42.473535+05:30
Gorakhpur,Uttar Pradesh,26.7606,83.3732,26.0,96,0.0,986.8,4.1,35.3,118,86.8,45.3,15.0,346.0,63.0,5.0,7,5,3,1,2026-07-12T05:27:42.473553+05:30
Bareilly,Uttar Pradesh,28.367,79.4304,26.2,97,0.0,976.3,8.0,30.6,156,116.4,54.7,22.5,376.0,60.0,5.9,7,5,7,1,2026-07-12T05:27:42.473562+05:30
Aligarh,Uttar Pradesh,27.8974,78.088,28.0,87,0.0,975.0,7.85,29.2,433,489.9,120.1,21.4,220.0,34.0,5.0,7,5,7,1,2026-07-12T05:27:42.473568+05:30
Moradabad,Uttar Pradesh,28.8386,78.7733,25.6,98,0.1,973.1,7.8,36.0,161,258.0,115.7,42.5,411.0,36.0,11.0,10,5,7,1,2026-07-12T05:27:42.473574+05:30
Saharanpur,Uttar Pradesh,29.9637,77.546,24.9,95,0.0,965.0,7.35,39.2,157,83.1,78.7,35.1,412.0,33.0,10.3,3,5,7,1,2026-07-12T05:27:42.473579+05:30
Jhansi,Uttar Pradesh,25.4484,78.5685,28.6,69,0.0,969.1,8.4,44.6,91,37.1,22.6,8.5,148.0,64.0,9.4,7,5,7,1,2026-07-12T05:27:45.838531+05:30
Surat,Gujarat,21.1702,72.8311,28.1,85,0.0,1000.8,6.05,65.5,57,25.1,13.6,12.6,206.0,34.0,21.6,7,5,4,1,2026-07-12T05:27:45.838580+05:30
Vadodara,Gujarat,22.3072,73.1812,27.1,85,0.0,997.9,8.05,58.3,56,20.8,10.1,5.8,103.0,36.0,4.4,7,5,7,1,2026-07-12T05:27:45.838588+05:30
Rajkot,Gujarat,22.3039,70.8022,26.6,85,0.0,986.8,7.75,61.2,58,24.5,10.2,3.0,89.0,42.0,2.5,7,5,7,1,2026-07-12T05:27:45.838595+05:30
Thane,Maharashtra,19.2183,72.9781,26.5,92,0.0,1003.9,7.8,49.0,53,26.4,10.3,3.2,113.0,43.0,2.9,7,5,4,1,2026-07-12T05:27:45.838601+05:30
Nagpur,Maharashtra,21.1458,79.0882,26.2,75,0.0,967.7,7.7,41.8,80,31.3,18.3,10.5,137.0,40.0,7.0,7,5,7,1,2026-07-12T05:27:45.838607+05:30
Nashik,Maharashtra,19.9975,73.7898,23.2,93,0.0,940.3,8.1,64.4,35,8.5,4.8,5.4,88.0,34.0,3.3,3,5,7,1,2026-07-12T05:27:45.838613+05:30
Aurangabad,Maharashtra,19.8762,75.3433,23.2,88,0.0,939.0,8.95,54.7,49,18.6,7.8,6.2,115.0,35.0,7.5,3,5,7,1,2026-07-12T05:27:45.838619+05:30
Solapur,Maharashtra,17.6599,75.9064,23.4,85,0.0,953.9,8.9,50.0,50,15.5,8.8,6.3,114.0,30.0,2.5,3,5,7,1,2026-07-12T05:27:45.838625+05:30
Kolhapur,Maharashtra,16.705,74.2433,22.4,95,0.0,945.1,8.4,52.2,41,8.4,4.0,2.7,104.0,38.0,1.8,3,5,7,1,2026-07-12T05:27:45.838630+05:30
Goa,Goa,15.2993,74.124,25.1,99,0.0,996.6,6.75,38.9,55,37.4,23.2,7.6,215.0,31.0,1.7,7,5,7,1,2026-07-12T05:27:45.838636+05:30
Jodhpur,Rajasthan,26.2389,73.0243,26.9,76,0.0,972.8,8.45,53.3,199,393.0,90.3,2.7,96.0,49.0,2.4,7,5,7,1,2026-07-12T05:27:45.838641+05:30
Udaipur,Rajasthan,24.5854,73.7125,23.4,89,0.0,937.4,8.8,52.9,68,35.4,17.6,4.4,95.0,43.0,4.1,3,5,7,1,2026-07-12T05:27:45.838647+05:30
Kota,Rajasthan,25.2138,75.8648,27.4,76,0.0,970.3,8.25,42.5,78,36.2,22.6,8.5,132.0,52.0,7.0,7,5,7,1,2026-07-12T05:27:45.838651+05:30
Bikaner,Rajasthan,28.0229,73.3119,28.6,71,0.0,970.9,8.45,41.8,159,219.8,84.8,2.6,94.0,52.0,4.9,7,5,7,1,2026-07-12T05:27:45.838656+05:30
Ajmer,Rajasthan,26.4499,74.6399,25.4,81,0.0,945.5,8.35,49.0,75,37.3,20.9,4.6,104.0,52.0,3.4,7,5,7,1,2026-07-12T05:27:45.838661+05:30
Gwalior,Madhya Pradesh,26.2183,78.1828,27.9,72,0.0,973.6,8.15,43.2,87,31.4,20.3,8.1,136.0,56.0,6.0,7,5,7,1,2026-07-12T05:27:45.838667+05:30
Indore,Madhya Pradesh,22.7196,75.8577,23.8,89,0.0,941.2,8.55,52.6,62,18.4,10.3,7.8,142.0,34.0,8.7,3,5,7,1,2026-07-12T05:27:45.838671+05:30
Bhopal,Madhya Pradesh,23.2599,77.4126,25.2,86,0.0,947.1,8.6,42.1,70,21.4,12.7,6.4,161.0,46.0,6.1,7,5,7,1,2026-07-12T05:27:45.838676+05:30
Jabalpur,Madhya Pradesh,23.1815,79.9864,25.6,81,0.0,954.6,7.05,36.7,81,34.9,23.1,7.6,193.0,55.0,4.5,7,5,7,1,2026-07-12T05:27:45.838681+05:30
Ujjain,Madhya Pradesh,23.1765,75.7885,24.4,88,0.0,946.6,8.45,51.8,61,19.9,10.9,7.0,144.0,35.0,7.3,3,5,7,1,2026-07-12T05:27:45.838687+05:30
Visakhapatnam,Andhra Pradesh,17.6868,83.2185,27.5,80,0.0,997.9,9.0,40.3,101,58.7,35.3,23.1,319.0,35.0,33.3,7,5,7,1,2026-07-12T05:27:45.838691+05:30
Vijayawada,Andhra Pradesh,16.5062,80.648,30.0,55,0.0,997.6,8.1,44.3,92,50.3,35.0,18.6,256.0,34.0,5.1,4,5,7,1,2026-07-12T05:27:45.838696+05:30
Guntur,Andhra Pradesh,16.3067,80.4365,30.8,51,0.0,998.9,8.55,45.4,84,41.4,27.4,16.6,235.0,31.0,6.1,0,5,7,1,2026-07-12T05:27:45.838701+05:30
Nellore,Andhra Pradesh,14.4426,79.9865,30.1,57,0.0,1001.5,8.35,46.4,72,28.2,16.0,8.9,164.0,43.0,5.8,0,5,4,1,2026-07-12T05:27:45.838707+05:30
Kurnool,Andhra Pradesh,15.8281,78.0373,26.1,72,0.0,974.3,8.2,49.3,56,19.0,11.2,8.2,130.0,33.0,2.5,7,5,7,1,2026-07-12T05:27:45.838713+05:30
Kakinada,Andhra Pradesh,16.9891,82.2475,28.3,80,0.0,1001.8,8.25,49.0,90,53.6,31.8,7.2,236.0,81.0,4.0,7,5,4,1,2026-07-12T05:27:45.838718+05:30
Tirupati,Andhra Pradesh,13.6288,79.4192,27.7,64,0.0,987.1,8.75,38.5,80,22.6,13.3,11.8,99.0,31.0,1.8,7,5,7,1,2026-07-12T05:27:45.838723+05:30
Warangal,Telangana,17.9689,79.5941,27.0,65,0.0,974.4,8.85,43.6,75,28.8,16.3,7.9,147.0,41.0,3.0,7,5,7,1,2026-07-12T05:27:45.838728+05:30
Nizamabad,Telangana,18.6725,78.0941,25.0,75,0.0,960.8,8.95,45.4,64,18.6,11.1,8.1,127.0,35.0,5.6,7,5,7,1,2026-07-12T05:27:45.838732+05:30
Mysore,Karnataka,12.2958,76.6396,20.5,97,0.0,926.8,8.5,46.8,36,14.4,10.2,12.3,106.0,17.0,0.9,3,5,7,1,2026-07-12T05:27:45.838737+05:30
Mangalore,Karnataka,12.9141,74.856,24.8,97,0.0,1006.5,6.6,49.0,46,16.3,9.5,6.4,113.0,26.0,2.4,3,5,4,1,2026-07-12T05:27:45.838742+05:30
Hubli-Dharwad,Karnataka,15.3647,75.124,21.8,95,0.0,938.5,8.85,52.2,32,13.7,6.1,2.9,100.0,38.0,1.6,3,5,7,1,2026-07-12T05:27:45.838748+05:30
Belgaum,Karnataka,15.8497,74.4977,21.0,96,0.0,923.0,9.0,50.4,35,10.9,5.5,3.1,90.0,38.0,1.7,3,5,7,1,2026-07-12T05:27:49.191193+05:30
Coimbatore,Tamil Nadu,11.0168,76.9558,23.2,96,0.0,959.9,8.15,55.1,41,15.0,9.6,10.0,163.0,19.0,2.7,3,5,7,1,2026-07-12T05:27:49.191225+05:30
Madurai,Tamil Nadu,9.9252,78.1198,27.6,70,0.0,990.9,7.95,42.5,62,28.2,24.5,30.6,137.0,0.0,6.1,7,5,7,1,2026-07-12T05:27:49.191234+05:30
Trichy,Tamil Nadu,10.7905,78.7047,27.8,72,0.0,997.2,8.1,56.9,47,20.9,10.7,6.9,101.0,33.0,3.2,7,5,7,1,2026-07-12T05:27:49.191242+05:30
Salem,Tamil Nadu,11.6643,78.146,24.9,91,0.0,975.4,8.65,22.3,61,31.8,21.2,26.7,154.0,10.0,6.0,3,5,7,1,2026-07-12T05:27:49.191249+05:30
Tirunelveli,Tamil Nadu,8.7139,77.7567,27.9,73,0.0,1001.3,8.05,40.3,29,10.6,6.7,7.2,112.0,28.0,2.4,7,5,4,1,2026-07-12T05:27:49.191256+05:30
Vellore,Tamil Nadu,12.9165,79.1325,27.9,63,0.0,981.3,8.15,39.6,71,18.6,11.1,10.6,206.0,32.0,4.1,7,5,7,1,2026-07-12T05:27:49.191263+05:30
Erode,Tamil Nadu,11.341,77.7172,25.7,82,0.0,987.4,8.5,52.6,55,17.9,13.1,15.6,155.0,20.0,3.6,7,5,7,1,2026-07-12T05:27:49.191268+05:30
Kochi,Kerala,9.9312,76.2673,26.1,96,0.0,1008.5,7.95,43.2,47,16.6,11.4,10.2,96.0,22.0,3.0,7,0,4,1,2026-07-12T05:27:49.191274+05:30
Thiruvananthapuram,Kerala,8.5241,76.9366,25.1,95,0.0,1008.1,7.7,49.3,34,12.4,6.6,3.6,107.0,42.0,1.7,7,0,4,1,2026-07-12T05:27:49.191280+05:30
Kozhikode,Kerala,11.2588,75.7804,25.0,95,0.0,1007.4,8.15,46.8,37,17.1,8.2,2.7,159.0,44.0,1.5,7,5,4,1,2026-07-12T05:27:49.191286+05:30
Thrissur,Kerala,10.5276,76.2144,25.0,95,0.0,1006.7,7.65,41.0,43,13.1,8.5,5.6,128.0,31.0,2.8,7,5,4,1,2026-07-12T05:27:49.191292+05:30
Kannur,Kerala,11.8745,75.3704,25.6,92,0.0,1006.7,8.35,44.6,41,14.2,8.9,8.6,146.0,21.0,2.4,7,5,4,1,2026-07-12T05:27:49.191297+05:30
Patna,Bihar,25.5941,85.1376,26.8,95,0.0,990.6,8.05,37.4,121,68.9,49.0,19.3,405.0,49.0,8.2,7,5,7,1,2026-07-12T05:27:49.191303+05:30
Gaya,Bihar,24.7914,85.0002,28.3,77,0.0,984.5,8.65,38.2,101,54.4,41.3,21.4,210.0,39.0,27.5,7,5,7,1,2026-07-12T05:27:49.191309+05:30
Muzaffarpur,Bihar,26.1209,85.3647,26.3,97,0.1,990.6,7.0,35.6,114,65.9,44.0,15.8,349.0,60.0,6.9,10,5,7,1,2026-07-12T05:27:49.191314+05:30
Bhagalpur,Bihar,25.2425,87.0117,27.0,98,0.1,991.7,7.55,32.0,90,58.0,43.3,15.1,227.0,58.0,6.2,10,5,7,1,2026-07-12T05:27:49.191319+05:30
Ranchi,Jharkhand,23.3441,85.3096,23.7,87,0.0,929.7,9.05,31.0,96,49.8,34.6,10.3,220.0,54.0,8.6,3,5,7,1,2026-07-12T05:27:49.191324+05:30
Jamshedpur,Jharkhand,22.8046,86.2029,26.4,87,0.0,982.5,9.05,28.4,118,63.3,46.2,16.6,240.0,60.0,36.7,7,5,7,1,2026-07-12T05:27:49.191329+05:30
Dhanbad,Jharkhand,23.7957,86.4304,26.2,89,0.0,971.0,9.0,30.2,143,89.2,70.5,49.5,254.0,19.0,113.0,7,5,7,1,2026-07-12T05:27:49.191334+05:30
Bokaro,Jharkhand,23.6693,86.1511,26.7,83,0.0,974.9,9.05,32.0,136,79.9,60.8,31.9,252.0,37.0,80.7,7,5,7,1,2026-07-12T05:27:49.191339+05:30
Bhubaneswar,Odisha,20.2961,85.8245,27.5,82,0.0,995.1,9.0,36.4,112,78.9,49.5,14.8,266.0,48.0,7.7,7,5,7,1,2026-07-12T05:27:49.191345+05:30
Cuttack,Odisha,20.4625,85.8828,27.6,87,0.0,996.7,9.05,37.1,112,78.9,49.5,14.8,342.0,48.0,7.7,7,5,7,1,2026-07-12T05:27:49.191349+05:30
Rourkela,Odisha,22.2604,84.8536,26.0,88,0.0,977.7,8.9,30.6,127,62.4,42.4,15.2,303.0,46.0,18.3,7,5,7,1,2026-07-12T05:27:49.191355+05:30
Raipur,Chhattisgarh,21.2514,81.6296,26.6,77,0.0,968.3,7.1,43.6,112,49.7,33.2,27.1,495.0,36.0,41.2,7,5,7,1,2026-07-12T05:27:49.191360+05:30
Bhilai,Chhattisgarh,21.1938,81.3509,26.3,78,0.0,968.9,7.2,47.9,104,47.7,31.0,22.5,586.0,38.0,33.4,7,5,7,1,2026-07-12T05:27:49.191365+05:30
Guwahati,Assam,26.1158,91.7086,25.8,99,0.2,991.8,4.55,19.1,36,6.7,6.6,5.8,269.0,71.0,1.1,10,5,3,1,2026-07-12T05:27:49.191370+05:30
Agartala,Tripura,23.8315,91.2868,25.9,99,0.2,997.0,8.05,31.0,87,20.1,17.6,6.0,221.0,80.0,1.7,10,5,7,1,2026-07-12T05:27:49.191376+05:30
Shillong,Meghalaya,25.5788,91.8933,20.9,97,0.0,850.0,2.45,19.8,41,0.6,0.6,3.8,279.0,75.0,3.9,3,5,3,1,2026-07-12T05:27:49.191381+05:30
Imphal,Manipur,24.817,93.9368,23.2,99,0.0,915.3,4.15,31.0,28,11.0,9.3,6.7,331.0,40.0,2.3,3,5,3,1,2026-07-12T05:27:49.191385+05:30
Aizawl,Mizoram,23.7271,92.7176,19.9,97,0.0,884.9,8.55,36.4,33,14.4,9.1,2.2,152.0,63.0,1.8,3,10,7,1,2026-07-12T05:27:49.191391+05:30
Kohima,Nagaland,25.6701,94.1077,21.0,92,0.0,848.6,7.4,19.4,25,3.7,3.2,4.3,300.0,53.0,1.3,3,5,7,1,2026-07-12T05:27:49.191397+05:30
Gangtok,Sikkim,27.3314,88.6138,19.2,95,0.1,830.0,6.75,28.4,52,1.5,1.5,3.6,344.0,107.0,1.6,6,10,7,1,2026-07-12T05:27:49.191403+05:30
Siliguri,West Bengal,26.7271,88.3953,25.1,99,0.0,982.8,6.6,19.8,68,6.3,6.2,8.3,393.0,94.0,2.9,7,5,7,1,2026-07-12T05:27:52.571412+05:30
Durgapur,West Bengal,23.5204,87.3119,27.2,88,0.0,985.7,9.0,28.1,140,77.5,66.1,52.9,230.0,14.0,60.6,7,5,7,1,2026-07-12T05:27:52.571446+05:30
Asansol,West Bengal,23.6739,86.9524,26.8,88,0.0,984.5,5.5,30.6,123,72.9,57.9,48.8,1309.0,17.0,62.8,7,5,3,1,2026-07-12T05:27:52.571454+05:30
Pondicherry,Puducherry,11.9139,79.8145,28.6,72,0.0,1004.7,8.6,46.1,70,16.2,12.5,12.6,221.0,45.0,6.5,7,5,4,1,2026-07-12T05:27:52.571462+05:30
Port Blair,Andaman and Nicobar Islands,11.6234,92.7265,25.5,96,0.1,1004.7,8.5,58.0,43,26.8,13.6,0.2,88.0,51.0,0.3,10,5,4,1,2026-07-12T05:27:52.571469+05:30
Haridwar,Uttarakhand,29.9457,78.1642,24.4,99,0.0,963.9,7.45,32.4,117,51.3,49.0,29.0,388.0,28.0,6.2,3,5,7,1,2026-07-12T05:27:52.571476+05:30
Rishikesh,Uttarakhand,30.0869,78.2676,24.5,93,0.0,956.6,7.5,32.8,66,21.4,18.9,12.4,294.0,70.0,3.6,3,5,7,1,2026-07-12T05:27:52.571483+05:30
Nainital,Uttarakhand,29.3919,79.4542,15.8,99,0.0,797.9,6.65,33.1,86,66.1,43.1,14.0,334.0,89.0,8.5,3,10,7,0,2026-07-12T05:27:52.571489+05:30
Mussoorie,Uttarakhand,30.4599,78.0664,15.1,100,0.0,794.6,7.9,41.0,79,26.3,25.3,22.3,335.0,41.0,3.3,3,10,7,0,2026-07-12T05:27:52.571494+05:30
Dharamshala,Himachal Pradesh,32.219,76.3234,20.8,88,0.0,860.3,8.45,36.4,52,8.5,8.4,9.8,428.0,46.0,0.1,3,5,7,1,2026-07-12T05:27:52.571499+05:30
Dalhousie,Himachal Pradesh,32.5387,75.971,15.0,97,0.0,795.5,8.65,28.4,95,36.6,32.9,20.6,379.0,75.0,3.1,3,10,7,0,2026-07-12T05:27:52.571505+05:30
Patiala,Punjab,30.3398,76.3869,26.0,92,0.0,968.0,7.5,36.7,156,90.6,67.5,31.0,463.0,60.0,10.4,7,5,7,1,2026-07-12T05:27:52.571510+05:30
Bhatinda,Punjab,30.211,74.9455,29.6,78,0.0,971.3,8.25,37.4,190,681.7,199.3,20.7,420.0,49.0,8.1,7,5,7,1,2026-07-12T05:27:52.571515+05:30
Rohtak,Haryana,28.8955,76.6066,28.4,82,0.0,970.4,7.6,27.7,631,665.0,136.0,29.2,218.0,25.0,3.3,7,5,7,1,2026-07-12T05:27:52.571520+05:30
Panipat,Haryana,29.3909,76.9635,25.7,92,0.0,969.3,7.45,26.6,684,430.3,140.2,52.7,711.0,9.0,9.5,7,5,7,1,2026-07-12T05:27:52.571525+05:30
Mathura,Uttar Pradesh,27.4924,77.6737,29.1,70,0.0,976.2,7.95,33.5,607,810.3,118.0,19.1,201.0,35.0,4.5,7,5,7,1,2026-07-12T05:27:52.571531+05:30
Vrindavan,Uttar Pradesh,27.5823,77.7027,29.2,69,0.0,976.6,7.9,32.4,607,810.3,118.0,19.1,205.0,35.0,4.5,7,5,7,1,2026-07-12T05:27:52.571535+05:30
Ayodhya,Uttar Pradesh,26.7922,82.1998,26.5,96,0.0,985.0,8.35,31.7,151,91.3,43.5,14.8,303.0,56.0,2.8,7,5,7,1,2026-07-12T05:27:52.571554+05:30
Ratlam,Madhya Pradesh,23.3315,75.0367,23.7,96,0.0,947.4,8.45,52.2,60,20.3,11.0,6.7,128.0,35.0,6.7,3,5,7,1,2026-07-12T05:27:52.571562+05:30
Sagar,Madhya Pradesh,23.8388,78.7378,25.1,83,0.0,942.9,7.9,46.4,79,31.8,20.5,6.0,168.0,59.0,4.6,7,5,7,1,2026-07-12T05:27:52.571567+05:30
Satna,Madhya Pradesh,24.6005,80.8322,27.3,76,0.0,963.0,8.45,42.1,90,34.3,21.2,5.4,171.0,66.0,4.1,7,5,7,1,2026-07-12T05:27:52.571573+05:30
Akola,Maharashtra,20.7002,77.0082,25.9,79,0.0,970.1,7.1,47.2,59,19.8,10.6,8.1,110.0,33.0,6.8,7,5,7,1,2026-07-12T05:27:52.571580+05:30
Amravati,Maharashtra,20.9374,77.7796,25.3,78,0.0,962.4,6.1,46.1,61,19.3,10.8,8.5,114.0,32.0,7.6,7,5,7,1,2026-07-12T05:27:52.571586+05:30
Latur,Maharashtra,18.4088,76.5604,22.6,86,0.0,935.9,8.65,49.7,52,16.0,8.3,5.5,121.0,34.0,3.1,3,5,7,1,2026-07-12T05:27:52.571593+05:30
Nanded,Maharashtra,19.1383,77.3091,25.1,78,0.0,964.6,8.85,42.8,59,16.8,9.7,7.1,124.0,34.0,4.0,7,5,7,1,2026-07-12T05:27:52.571598+05:30
Gulbarga,Karnataka,17.3297,76.8343,23.5,83,0.0,955.7,8.6,54.7,51,21.1,10.7,7.0,115.0,31.0,3.1,3,5,7,1,2026-07-12T05:27:52.571604+05:30
Bidar,Karnataka,17.9104,77.5199,22.9,81,0.0,931.7,8.9,48.2,55,21.4,11.8,6.4,120.0,35.0,2.3,3,5,7,1,2026-07-12T05:27:52.571610+05:30
Hospet,Karnataka,15.2689,76.3909,22.5,92,0.0,953.7,8.2,55.4,41,12.8,6.2,4.5,109.0,35.0,1.7,3,5,7,1,2026-07-12T05:27:52.571615+05:30
Tirupur,Tamil Nadu,11.1085,77.3411,24.5,89,0.0,973.6,8.35,64.8,58,19.7,15.4,19.6,147.0,10.0,3.9,3,5,7,1,2026-07-12T05:27:52.571620+05:30
Alappuzha,Kerala,9.4981,76.3388,26.2,94,0.0,1008.6,7.8,45.4,42,17.1,9.5,5.8,80.0,37.0,2.6,7,0,4,1,2026-07-12T05:27:52.571626+05:30
Munnar,Kerala,10.0889,77.0595,15.8,96,0.0,855.2,8.05,38.5,26,11.1,7.4,8.1,88.0,19.0,1.6,3,10,7,0,2026-07-12T05:27:52.571631+05:30
Silchar,Assam,24.8333,92.7789,26.3,97,0.6,995.8,2.7,21.2,50,39.1,25.9,8.4,237.0,65.0,5.5,10,5,3,1,2026-07-12T05:27:52.571637+05:30
Dibrugarh,Assam,27.4728,94.912,26.0,97,0.1,986.4,1.7,24.1,37,6.8,6.7,11.3,231.0,52.0,1.0,10,5,3,1,2026-07-12T05:27:52.571642+05:30
