city,state,latitude,longitude,temp,humidity,rain,pressure,uv_index,wind_gusts,aqi,pm10,pm2_5,no2,co,o3,so2,mosquito_risk,arthritis_risk,migraine_risk,frizz_risk,updated_at
Delhi,Delhi,28.6139,77.209,31.2,56,0.0,977.3,7.8,45.7,169,489.9,122.0,54.4,464.0,31.0,20.9,0,5,7,1,2026-06-23T23:29:12.793280+05:30
Mumbai,Maharashtra,19.076,72.8777,25.9,94,0.2,1005.6,6.35,29.9,34,21.2,10.7,11.2,780.0,44.0,6.3,10,5,4,1,2026-06-23T23:29:12.793327+05:30
Bangalore,Karnataka,12.9716,77.5946,21.1,91,0.0,912.3,8.15,52.2,27,6.0,5.5,15.0,391.0,36.0,4.4,3,5,7,1,2026-06-23T23:29:12.793343+05:30
Hyderabad,Telangana,17.385,78.4867,27.5,61,0.0,951.6,8.75,42.8,32,6.9,6.4,12.0,304.0,42.0,4.9,7,5,7,1,2026-06-23T23:29:12.793354+05:30
Chennai,Tamil Nadu,13.0827,80.2707,27.9,84,0.0,1006.5,8.35,37.1,69,16.4,13.8,13.3,319.0,86.0,8.2,7,5,4,1,2026-06-23T23:29:12.793363+05:30
Kolkata,West Bengal,22.5726,88.3639,27.9,94,0.0,1000.9,8.8,32.0,134,70.3,66.8,22.7,852.0,74.0,15.5,7,5,4,1,2026-06-23T23:29:12.793371+05:30
Pune,Maharashtra,18.5204,73.8567,22.8,96,0.2,944.9,7.1,45.0,22,7.7,7.6,15.6,232.0,29.0,7.9,6,5,7,1,2026-06-23T23:29:12.793378+05:30
Ahmedabad,Gujarat,23.0225,72.5714,30.4,74,0.0,997.0,8.0,44.6,71,55.3,26.4,10.5,195.0,56.0,5.2,3,5,7,1,2026-06-23T23:29:12.793385+05:30
Jaipur,Rajasthan,26.9124,75.7873,30.9,50,0.0,954.8,8.2,38.5,146,135.0,64.3,49.0,801.0,22.0,21.3,0,5,7,1,2026-06-23T23:29:12.793392+05:30
Lucknow,Uttar Pradesh,26.8467,80.9462,34.2,39,0.0,987.6,8.25,39.2,147,210.9,59.0,19.1,364.0,77.0,9.3,0,5,7,1,2026-06-23T23:29:12.793403+05:30
Kanpur,Uttar Pradesh,26.4499,80.3319,34.5,37,0.0,985.9,8.25,39.2,182,315.7,73.3,26.8,267.0,61.0,9.9,0,5,7,1,2026-06-23T23:29:12.793410+05:30
Chandigarh,Chandigarh,30.7333,76.7794,27.6,61,0.0,962.8,7.8,34.6,116,68.5,40.7,30.6,1317.0,89.0,12.8,7,5,7,1,2026-06-23T23:29:12.793418+05:30
Srinagar,Jammu and Kashmir,34.0837,74.7973,17.2,90,0.0,835.8,9.1,19.4,79,48.5,46.7,40.9,982.0,13.0,2.0,3,10,7,0,2026-06-23T23:29:12.793426+05:30
Jammu,Jammu and Kashmir,32.7266,74.857,32.0,39,0.0,966.0,8.65,36.7,76,40.2,38.5,53.7,652.0,29.0,5.9,0,5,7,1,2026-06-23T23:29:12.793432+05:30
Amritsar,Punjab,31.634,74.8723,29.8,60,0.0,973.6,8.5,27.0,134,74.5,54.0,35.4,378.0,66.0,12.0,4,5,7,1,2026-06-23T23:29:12.793439+05:30
Ludhiana,Punjab,30.901,75.8573,31.1,56,0.0,972.1,8.05,34.2,116,102.2,53.2,25.8,768.0,72.0,9.6,0,5,7,1,2026-06-23T23:29:12.793445+05:30
Jalandhar,Punjab,31.326,75.5762,30.7,56,0.0,972.9,8.25,35.3,123,82.9,50.3,22.8,685.0,79.0,7.2,0,5,7,1,2026-06-23T23:29:12.793452+05:30
Dehradun,Uttarakhand,30.6284,78.0322,15.7,100,0.0,826.4,7.7,35.3,86,21.5,17.1,22.8,242.0,77.0,1.0,3,10,7,0,2026-06-23T23:29:12.793458+05:30
Shimla,Himachal Pradesh,31.1048,77.1734,13.7,81,0.0,780.4,8.35,40.7,91,23.2,20.2,24.2,408.0,84.0,4.5,3,10,7,0,2026-06-23T23:29:12.793468+05:30
Manali,Himachal Pradesh,32.2396,77.1887,14.3,87,0.0,814.3,9.75,34.6,47,9.4,9.1,95.6,345.0,17.0,0.1,3,10,7,0,2026-06-23T23:29:12.793476+05:30
Gurgaon,Haryana,28.4595,77.0266,29.2,61,0.0,975.7,7.85,46.8,388,1173.5,206.8,43.0,476.0,37.0,14.6,7,5,7,1,2026-06-23T23:29:12.793485+05:30
Noida,Uttar Pradesh,28.5355,77.391,30.6,55,0.0,978.8,7.8,37.8,388,1173.5,206.8,43.0,645.0,37.0,14.6,0,5,7,1,2026-06-23T23:29:12.793492+05:30
Ghaziabad,Uttar Pradesh,28.6692,77.4538,30.2,57,0.0,977.0,7.8,46.8,159,425.6,106.9,42.4,821.0,51.0,20.8,0,5,7,1,2026-06-23T23:29:12.793498+05:30
Faridabad,Haryana,28.4089,77.3178,31.1,49,0.0,978.1,7.85,42.8,388,1173.5,206.8,43.0,506.0,37.0,14.6,0,5,7,1,2026-06-23T23:29:12.793504+05:30
Meerut,Uttar Pradesh,28.9845,77.7064,29.8,59,0.0,975.8,7.7,49.7,159,425.6,106.9,42.4,443.0,51.0,20.8,4,5,7,1,2026-06-23T23:29:12.793510+05:30
Agra,Uttar Pradesh,27.1767,78.0081,32.8,46,0.0,982.2,8.1,40.0,231,778.6,128.1,24.1,342.0,48.0,7.9,0,5,7,1,2026-06-23T23:29:12.793516+05:30
Varanasi,Uttar Pradesh,25.3176,82.9739,33.3,44,0.0,992.0,8.75,41.0,122,93.6,54.4,25.5,269.0,53.0,11.8,0,5,7,1,2026-06-23T23:29:12.793523+05:30
Prayagraj,Uttar Pradesh,25.4358,81.8463,33.6,48,0.0,990.4,8.45,40.3,128,88.2,49.0,27.4,213.0,49.0,10.8,0,5,7,1,2026-06-23T23:29:12.793529+05:30
Gorakhpur,Uttar Pradesh,26.7606,83.3732,29.5,73,0.0,991.1,8.65,37.8,156,151.3,76.8,38.7,627.0,58.0,16.6,7,5,7,1,2026-06-23T23:29:12.793535+05:30
Bareilly,Uttar Pradesh,28.367,79.4304,31.7,49,0.0,981.2,8.1,34.2,153,92.0,52.7,23.2,276.0,95.0,14.6,0,5,7,1,2026-06-23T23:29:12.793543+05:30
Aligarh,Uttar Pradesh,27.8974,78.088,30.4,53,0.0,980.2,7.95,38.2,285,599.8,129.0,31.9,458.0,41.0,7.6,0,5,7,1,2026-06-23T23:29:12.793550+05:30
Moradabad,Uttar Pradesh,28.8386,78.7733,31.5,49,0.0,978.1,7.95,40.3,159,239.3,90.6,38.6,325.0,66.0,15.6,0,5,7,1,2026-06-23T23:29:12.793556+05:30
Saharanpur,Uttar Pradesh,29.9637,77.546,28.8,64,0.0,970.1,7.45,35.3,155,280.3,78.5,26.3,481.0,79.0,12.5,7,5,7,1,2026-06-23T23:29:12.793563+05:30
Jhansi,Uttar Pradesh,25.4484,78.5685,30.7,57,0.0,973.2,8.4,37.4,91,47.4,27.1,13.6,234.0,48.0,3.7,0,5,7,1,2026-06-23T23:29:16.060463+05:30
Surat,Gujarat,21.1702,72.8311,28.9,81,0.0,1002.6,6.8,42.1,67,50.5,27.0,26.0,260.0,28.0,39.8,7,5,4,1,2026-06-23T23:29:16.060495+05:30
Vadodara,Gujarat,22.3072,73.1812,29.0,78,0.0,1000.1,6.45,43.9,67,24.6,17.7,22.4,201.0,36.0,22.5,7,5,4,1,2026-06-23T23:29:16.060506+05:30
Rajkot,Gujarat,22.3039,70.8022,29.1,76,0.0,990.0,7.55,45.4,70,35.6,16.9,6.0,133.0,47.0,6.2,7,5,7,1,2026-06-23T23:29:16.060515+05:30
Thane,Maharashtra,19.2183,72.9781,25.6,98,0.1,1005.0,6.5,25.9,34,21.2,10.7,11.2,545.0,44.0,6.3,10,5,4,1,2026-06-23T23:29:16.060523+05:30
Nagpur,Maharashtra,21.1458,79.0882,25.8,91,0.1,971.0,8.15,33.5,54,18.5,18.4,19.0,309.0,57.0,12.4,10,5,7,1,2026-06-23T23:29:16.060531+05:30
Nashik,Maharashtra,19.9975,73.7898,23.0,96,0.0,942.3,7.65,33.1,30,8.1,5.8,10.6,210.0,49.0,5.2,3,5,7,1,2026-06-23T23:29:16.060539+05:30
Aurangabad,Maharashtra,19.8762,75.3433,25.0,84,0.0,941.2,8.1,46.8,31,7.0,6.8,10.2,213.0,54.0,5.6,7,5,7,1,2026-06-23T23:29:16.060547+05:30
Solapur,Maharashtra,17.6599,75.9064,25.0,83,0.2,955.3,7.5,61.6,26,4.7,4.3,6.2,134.0,39.0,2.1,10,5,7,1,2026-06-23T23:29:16.060554+05:30
Kolhapur,Maharashtra,16.705,74.2433,22.7,96,0.4,946.0,8.2,63.4,22,5.1,4.9,7.0,151.0,39.0,2.2,6,5,7,1,2026-06-23T23:29:16.060562+05:30
Goa,Goa,15.2993,74.124,23.5,99,0.4,998.7,7.0,38.2,31,13.7,8.0,2.4,227.0,49.0,0.5,6,5,7,1,2026-06-23T23:29:16.060569+05:30
Jodhpur,Rajasthan,26.2389,73.0243,33.0,43,0.0,977.0,8.4,39.2,134,232.4,56.0,8.1,174.0,52.0,2.5,0,5,7,1,2026-06-23T23:29:16.060576+05:30
Udaipur,Rajasthan,24.5854,73.7125,29.3,51,0.0,942.4,8.8,38.9,69,74.0,26.5,5.7,176.0,62.0,2.4,4,5,7,1,2026-06-23T23:29:16.060584+05:30
Kota,Rajasthan,25.2138,75.8648,29.9,61,0.0,974.0,8.3,45.0,83,51.6,30.6,12.9,289.0,62.0,5.3,7,5,7,1,2026-06-23T23:29:16.060592+05:30
Bikaner,Rajasthan,28.0229,73.3119,30.9,49,0.0,974.7,8.5,59.0,134,166.7,49.6,4.2,250.0,62.0,2.4,0,5,7,1,2026-06-23T23:29:16.060599+05:30
Ajmer,Rajasthan,26.4499,74.6399,29.6,54,0.0,949.6,8.35,42.8,89,53.8,27.3,11.1,342.0,58.0,4.2,4,5,7,1,2026-06-23T23:29:16.060606+05:30
Gwalior,Madhya Pradesh,26.2183,78.1828,32.2,46,0.0,978.0,8.25,42.1,110,105.2,40.7,16.8,228.0,41.0,4.8,0,5,7,1,2026-06-23T23:29:16.060613+05:30
Indore,Madhya Pradesh,22.7196,75.8577,24.1,94,0.0,944.6,6.7,49.3,62,44.7,38.6,26.3,463.0,39.0,8.8,3,5,7,1,2026-06-23T23:29:16.060621+05:30
Bhopal,Madhya Pradesh,23.2599,77.4126,24.8,88,0.0,950.3,5.85,36.4,58,19.0,15.7,8.1,449.0,63.0,3.1,3,5,3,1,2026-06-23T23:29:16.060628+05:30
Jabalpur,Madhya Pradesh,23.1815,79.9864,26.2,86,0.0,958.3,7.1,36.4,69,27.2,19.3,9.0,242.0,71.0,3.1,7,5,7,1,2026-06-23T23:29:16.060636+05:30
Ujjain,Madhya Pradesh,23.1765,75.7885,25.1,86,0.0,950.1,7.8,41.8,67,39.9,31.1,11.9,392.0,56.0,4.9,7,5,7,1,2026-06-23T23:29:16.060644+05:30
Visakhapatnam,Andhra Pradesh,17.6868,83.2185,28.9,75,0.0,1000.5,8.6,32.0,76,23.6,22.2,34.0,415.0,43.0,43.9,7,5,4,1,2026-06-23T23:29:16.060652+05:30
Vijayawada,Andhra Pradesh,16.5062,80.648,29.4,70,0.0,1000.5,8.65,35.6,69,23.7,22.5,15.4,345.0,44.0,5.5,7,5,4,1,2026-06-23T23:29:16.060659+05:30
Guntur,Andhra Pradesh,16.3067,80.4365,29.4,65,0.0,1001.8,8.4,36.0,61,11.0,10.4,12.7,324.0,43.0,4.3,7,5,4,1,2026-06-23T23:29:16.060667+05:30
Nellore,Andhra Pradesh,14.4426,79.9865,29.0,75,0.0,1004.7,8.9,39.2,45,9.6,9.1,7.6,142.0,72.0,4.0,7,5,4,1,2026-06-23T23:29:16.060675+05:30
Kurnool,Andhra Pradesh,15.8281,78.0373,28.2,58,0.0,976.3,8.45,51.8,29,9.3,8.4,12.0,143.0,36.0,4.9,4,5,7,1,2026-06-23T23:29:16.060683+05:30
Kakinada,Andhra Pradesh,16.9891,82.2475,29.0,76,0.0,1005.0,8.35,37.4,62,27.0,22.4,6.4,507.0,98.0,6.7,7,5,4,1,2026-06-23T23:29:16.060691+05:30
Tirupati,Andhra Pradesh,13.6288,79.4192,27.9,83,0.0,990.8,8.35,35.3,30,13.9,13.2,20.8,176.0,27.0,2.5,7,5,7,1,2026-06-23T23:29:16.060698+05:30
Warangal,Telangana,17.9689,79.5941,26.6,85,0.0,976.6,8.3,33.5,46,9.7,9.5,11.1,232.0,52.0,3.8,7,5,7,1,2026-06-23T23:29:16.060706+05:30
Nizamabad,Telangana,18.6725,78.0941,27.8,68,0.0,962.6,7.6,39.2,34,7.3,7.0,8.1,180.0,47.0,1.9,7,5,7,1,2026-06-23T23:29:16.060713+05:30
Mysore,Karnataka,12.2958,76.6396,21.8,94,0.1,929.7,8.35,46.8,26,3.8,3.5,8.7,154.0,39.0,2.1,6,5,7,1,2026-06-23T23:29:16.060720+05:30
Mangalore,Karnataka,12.9141,74.856,24.5,97,0.1,1008.9,8.4,41.0,30,16.1,10.1,5.4,204.0,39.0,1.8,6,0,4,1,2026-06-23T23:29:16.060727+05:30
Hubli-Dharwad,Karnataka,15.3647,75.124,21.4,98,0.1,940.2,7.4,51.5,22,1.8,1.7,5.1,124.0,40.0,1.0,6,5,7,1,2026-06-23T23:29:16.060734+05:30
Belgaum,Karnataka,15.8497,74.4977,20.8,97,0.1,924.5,8.05,53.3,21,2.2,2.2,5.7,110.0,40.0,1.3,6,5,7,1,2026-06-23T23:29:19.328333+05:30
Coimbatore,Tamil Nadu,11.0168,76.9558,23.3,94,0.0,962.9,7.8,48.6,25,6.5,5.8,9.1,205.0,35.0,3.2,3,5,7,1,2026-06-23T23:29:19.328366+05:30
Madurai,Tamil Nadu,9.9252,78.1198,29.6,58,0.0,993.3,8.2,25.6,66,39.7,37.1,46.2,161.0,4.0,11.3,4,5,7,1,2026-06-23T23:29:19.328378+05:30
Trichy,Tamil Nadu,10.7905,78.7047,28.9,64,0.0,1000.1,7.85,50.8,31,10.4,8.2,9.9,131.0,41.0,3.7,7,5,4,1,2026-06-23T23:29:19.328387+05:30
Salem,Tamil Nadu,11.6643,78.146,26.8,77,0.0,978.2,8.5,31.7,43,18.9,16.6,22.2,384.0,41.0,6.3,7,5,7,1,2026-06-23T23:29:19.328395+05:30
Tirunelveli,Tamil Nadu,8.7139,77.7567,28.4,70,0.0,1004.7,5.9,32.8,31,11.2,8.1,6.1,213.0,47.0,2.1,7,5,0,1,2026-06-23T23:29:19.328403+05:30
Vellore,Tamil Nadu,12.9165,79.1325,27.4,65,0.0,984.7,8.35,45.7,35,19.0,17.9,25.2,387.0,28.0,4.9,7,5,7,1,2026-06-23T23:29:19.328410+05:30
Erode,Tamil Nadu,11.341,77.7172,26.8,75,0.0,990.1,7.9,36.7,32,14.4,12.5,16.6,199.0,36.0,4.1,7,5,7,1,2026-06-23T23:29:19.328418+05:30
Kochi,Kerala,9.9312,76.2673,24.9,98,0.1,1011.6,8.2,35.3,44,18.7,16.5,16.5,241.0,24.0,4.3,6,0,4,1,2026-06-23T23:29:19.328425+05:30
Thiruvananthapuram,Kerala,8.5241,76.9366,24.9,93,0.0,1010.9,8.1,41.8,30,15.1,9.2,3.8,200.0,47.0,1.6,3,0,4,1,2026-06-23T23:29:19.328432+05:30
Kozhikode,Kerala,11.2588,75.7804,24.5,97,0.0,1010.4,7.25,40.0,26,14.1,7.5,1.4,330.0,54.0,0.7,3,0,4,1,2026-06-23T23:29:19.328439+05:30
Thrissur,Kerala,10.5276,76.2144,24.4,100,0.0,1010.0,7.55,33.5,41,21.5,19.7,13.1,454.0,28.0,3.7,3,0,4,1,2026-06-23T23:29:19.328447+05:30
Kannur,Kerala,11.8745,75.3704,23.8,98,0.1,1009.7,3.8,40.7,24,15.6,9.9,8.1,259.0,35.0,1.6,6,0,0,1,2026-06-23T23:29:19.328453+05:30
Patna,Bihar,25.5941,85.1376,31.9,73,0.0,994.2,8.6,36.0,153,131.8,93.1,59.6,518.0,32.0,22.6,3,5,7,1,2026-06-23T23:29:19.328460+05:30
Gaya,Bihar,24.7914,85.0002,31.2,54,0.0,988.3,8.9,40.3,117,115.7,60.1,23.1,416.0,56.0,9.2,0,5,7,1,2026-06-23T23:29:19.328467+05:30
Muzaffarpur,Bihar,26.1209,85.3647,29.9,85,0.0,994.1,8.85,24.8,159,129.0,94.8,44.5,997.0,57.0,20.8,7,5,7,1,2026-06-23T23:29:19.328474+05:30
Bhagalpur,Bihar,25.2425,87.0117,28.7,78,0.0,995.3,8.85,38.9,143,82.0,62.4,16.0,465.0,110.0,23.2,7,5,7,1,2026-06-23T23:29:19.328480+05:30
Ranchi,Jharkhand,23.3441,85.3096,25.7,76,0.0,933.6,8.95,37.4,88,47.6,33.6,7.2,204.0,99.0,5.1,7,5,7,1,2026-06-23T23:29:19.328487+05:30
Jamshedpur,Jharkhand,22.8046,86.2029,28.2,81,0.0,986.2,9.05,39.2,113,62.6,53.0,18.8,467.0,107.0,30.3,7,5,7,1,2026-06-23T23:29:19.328494+05:30
Dhanbad,Jharkhand,23.7957,86.4304,28.8,76,0.0,974.7,9.0,40.7,152,67.5,54.0,40.9,409.0,68.0,91.0,7,5,7,1,2026-06-23T23:29:19.328500+05:30
Bokaro,Jharkhand,23.6693,86.1511,28.9,72,0.0,978.4,8.85,39.2,132,63.6,43.4,23.7,233.0,83.0,57.0,7,5,7,1,2026-06-23T23:29:19.328507+05:30
Bhubaneswar,Odisha,20.2961,85.8245,28.0,86,0.0,998.3,6.3,42.8,73,27.8,26.7,11.3,342.0,82.0,6.1,7,5,7,1,2026-06-23T23:29:19.328514+05:30
Cuttack,Odisha,20.4625,85.8828,28.3,85,0.0,1000.0,7.25,43.6,73,27.8,26.7,11.3,405.0,82.0,6.1,7,5,4,1,2026-06-23T23:29:19.328520+05:30
Rourkela,Odisha,22.2604,84.8536,27.5,90,0.0,980.8,8.95,39.6,136,47.4,37.5,11.0,429.0,97.0,7.3,7,5,7,1,2026-06-23T23:29:19.328527+05:30
Raipur,Chhattisgarh,21.2514,81.6296,28.7,79,0.0,971.2,8.9,39.2,81,39.5,39.1,48.3,277.0,38.0,59.1,7,5,7,1,2026-06-23T23:29:19.328534+05:30
Bhilai,Chhattisgarh,21.1938,81.3509,28.5,73,0.0,971.6,8.9,40.3,74,30.0,29.6,38.4,582.0,62.0,55.5,7,5,7,1,2026-06-23T23:29:19.328540+05:30
Guwahati,Assam,26.1158,91.7086,25.2,100,0.1,997.1,8.75,27.7,66,27.5,24.6,11.2,527.0,61.0,3.5,10,5,7,1,2026-06-23T23:29:19.328547+05:30
Agartala,Tripura,23.8315,91.2868,25.9,92,0.0,1002.1,8.05,32.8,70,19.7,18.7,13.7,238.0,55.0,2.9,7,5,4,1,2026-06-23T23:29:19.328553+05:30
Shillong,Meghalaya,25.5788,91.8933,20.1,93,0.0,854.1,7.9,29.5,46,11.0,8.6,6.2,252.0,89.0,2.7,3,5,7,1,2026-06-23T23:29:19.328560+05:30
Imphal,Manipur,24.817,93.9368,22.8,95,0.0,919.8,8.65,27.0,57,18.5,17.7,16.0,713.0,39.0,3.5,3,5,7,1,2026-06-23T23:29:19.328567+05:30
Aizawl,Mizoram,23.7271,92.7176,19.8,96,0.0,888.8,8.3,39.6,35,6.3,6.1,6.3,197.0,53.0,0.8,3,10,7,1,2026-06-23T23:29:19.328573+05:30
Kohima,Nagaland,25.6701,94.1077,19.3,91,0.0,851.9,8.3,22.7,44,10.5,9.0,9.9,407.0,45.0,1.1,3,10,7,1,2026-06-23T23:29:19.328580+05:30
Gangtok,Sikkim,27.3314,88.6138,17.7,98,0.4,834.1,9.1,29.5,76,10.3,8.4,9.0,390.0,111.0,3.7,6,10,7,1,2026-06-23T23:29:19.328587+05:30
Siliguri,West Bengal,26.7271,88.3953,23.5,97,0.1,988.3,8.75,23.8,85,28.6,19.3,11.4,451.0,115.0,6.1,6,5,7,1,2026-06-23T23:29:22.599462+05:30
Durgapur,West Bengal,23.5204,87.3119,27.1,85,0.0,989.7,9.0,36.4,160,70.8,63.6,30.7,891.0,79.0,45.3,7,5,7,1,2026-06-23T23:29:22.599494+05:30
Asansol,West Bengal,23.6739,86.9524,27.6,83,0.0,988.2,9.05,49.0,154,64.7,57.7,37.3,395.0,70.0,60.8,7,5,7,1,2026-06-23T23:29:22.599506+05:30
Pondicherry,Puducherry,11.9139,79.8145,28.5,84,0.1,1008.4,7.15,33.8,61,12.9,11.7,11.8,316.0,74.0,6.5,10,0,4,1,2026-06-23T23:29:22.599514+05:30
Port Blair,Andaman and Nicobar Islands,11.6234,92.7265,26.9,85,0.0,1007.3,8.75,40.7,25,10.7,6.3,0.2,88.0,45.0,0.3,7,5,4,1,2026-06-23T23:29:22.599522+05:30
Haridwar,Uttarakhand,29.9457,78.1642,26.3,81,0.0,968.5,7.6,25.2,129,125.3,58.1,31.0,483.0,83.0,15.1,7,5,7,1,2026-06-23T23:29:22.599530+05:30
Rishikesh,Uttarakhand,30.0869,78.2676,24.4,85,0.0,961.4,7.7,22.3,132,46.1,31.0,16.4,444.0,115.0,9.1,3,5,7,1,2026-06-23T23:29:22.599537+05:30
Nainital,Uttarakhand,29.3919,79.4542,15.0,92,0.0,802.0,7.35,29.2,105,52.9,31.8,16.6,422.0,103.0,8.1,3,10,7,0,2026-06-23T23:29:22.599545+05:30
Mussoorie,Uttarakhand,30.4599,78.0664,15.7,87,0.0,799.8,8.1,43.2,124,32.5,29.5,28.9,371.0,90.0,8.8,3,10,7,0,2026-06-23T23:29:22.599553+05:30
Dharamshala,Himachal Pradesh,32.219,76.3234,21.2,63,0.0,865.3,8.55,37.8,51,18.9,17.5,18.0,307.0,43.0,0.3,3,5,7,0,2026-06-23T23:29:22.599560+05:30
Dalhousie,Himachal Pradesh,32.5387,75.971,14.8,82,0.0,800.3,8.8,37.1,98,39.2,35.7,45.7,515.0,54.0,3.1,3,10,7,0,2026-06-23T23:29:22.599568+05:30
Patiala,Punjab,30.3398,76.3869,30.3,58,0.0,972.0,7.65,40.0,156,114.6,55.9,19.5,480.0,80.0,10.7,0,5,7,1,2026-06-23T23:29:22.599576+05:30
Bhatinda,Punjab,30.211,74.9455,30.3,58,0.0,977.0,8.3,51.5,132,143.9,78.2,60.6,475.0,39.0,13.4,0,5,7,1,2026-06-23T23:29:22.599583+05:30
Rohtak,Haryana,28.8955,76.6066,29.1,66,0.0,975.7,7.8,37.4,193,558.8,133.6,60.2,545.0,19.0,11.0,7,5,7,1,2026-06-23T23:29:22.599590+05:30
Panipat,Haryana,29.3909,76.9635,29.3,62,0.0,974.4,7.65,47.5,745,720.8,151.3,40.1,468.0,43.0,9.7,7,5,7,1,2026-06-23T23:29:22.599597+05:30
Mathura,Uttar Pradesh,27.4924,77.6737,30.7,57,0.0,981.3,8.05,40.7,191,860.5,140.6,24.1,484.0,45.0,4.8,0,5,7,1,2026-06-23T23:29:22.599604+05:30
Vrindavan,Uttar Pradesh,27.5823,77.7027,29.6,65,0.0,981.7,8.05,38.2,191,860.5,140.6,24.1,574.0,45.0,4.8,7,5,7,1,2026-06-23T23:29:22.599611+05:30
Ayodhya,Uttar Pradesh,26.7922,82.1998,31.2,56,0.0,989.1,8.4,36.0,150,157.9,65.0,25.1,649.0,69.0,10.0,0,5,7,1,2026-06-23T23:29:22.599618+05:30
Ratlam,Madhya Pradesh,23.3315,75.0367,24.9,88,0.0,951.1,7.65,42.5,69,46.2,32.0,7.4,231.0,65.0,4.1,3,5,7,1,2026-06-23T23:29:22.599626+05:30
Sagar,Madhya Pradesh,23.8388,78.7378,25.5,84,0.0,946.5,6.3,44.3,67,28.8,19.8,7.7,187.0,70.0,2.9,7,5,7,1,2026-06-23T23:29:22.599633+05:30
Satna,Madhya Pradesh,24.6005,80.8322,30.2,60,0.0,967.2,8.8,41.8,95,48.3,31.8,12.6,198.0,64.0,5.0,0,5,7,1,2026-06-23T23:29:22.599640+05:30
Akola,Maharashtra,20.7002,77.0082,26.4,89,0.0,972.6,8.8,31.7,42,8.6,8.1,8.5,184.0,69.0,3.5,7,5,7,1,2026-06-23T23:29:22.599647+05:30
Amravati,Maharashtra,20.9374,77.7796,25.3,93,0.1,965.0,8.7,38.5,40,9.1,8.8,9.9,224.0,63.0,3.9,10,5,7,1,2026-06-23T23:29:22.599655+05:30
Latur,Maharashtra,18.4088,76.5604,26.1,69,0.0,937.7,5.5,45.7,27,4.1,3.9,5.2,149.0,45.0,1.4,7,5,3,1,2026-06-23T23:29:22.599663+05:30
Nanded,Maharashtra,19.1383,77.3091,25.5,91,0.0,966.5,7.5,50.8,32,7.8,7.5,9.8,193.0,41.0,4.0,7,5,7,1,2026-06-23T23:29:22.599670+05:30
Gulbarga,Karnataka,17.3297,76.8343,26.8,67,0.0,957.3,6.1,53.3,27,4.0,3.2,6.7,138.0,45.0,2.7,7,5,7,1,2026-06-23T23:29:22.599677+05:30
Bidar,Karnataka,17.9104,77.5199,26.7,63,0.0,933.7,7.7,54.7,32,6.3,5.9,11.4,156.0,42.0,2.8,7,5,7,1,2026-06-23T23:29:22.599684+05:30
Hospet,Karnataka,15.2689,76.3909,24.4,81,0.0,955.3,7.7,57.6,26,2.5,2.2,5.1,128.0,42.0,1.5,3,5,7,1,2026-06-23T23:29:22.599691+05:30
Tirupur,Tamil Nadu,11.1085,77.3411,24.5,88,0.0,976.3,7.9,51.5,34,16.5,14.8,19.9,162.0,32.0,5.6,3,5,7,1,2026-06-23T23:29:22.599697+05:30
Alappuzha,Kerala,9.4981,76.3388,25.0,98,0.1,1011.7,6.1,37.4,38,16.1,12.2,11.0,192.0,37.0,3.0,10,0,4,1,2026-06-23T23:29:22.599704+05:30
Munnar,Kerala,10.0889,77.0595,16.6,97,0.0,858.2,8.8,42.1,25,7.7,6.4,7.0,101.0,38.0,1.9,3,10,7,1,2026-06-23T23:29:22.599711+05:30
Silchar,Assam,24.8333,92.7789,25.6,97,0.0,1001.4,8.8,24.5,70,29.5,25.0,10.4,271.0,60.0,5.3,7,5,4,1,2026-06-23T23:29:22.599719+05:30
Dibrugarh,Assam,27.4728,94.912,25.3,97,0.2,991.2,7.7,26.3,68,24.9,21.6,13.5,247.0,73.0,2.2,10,5,7,1,2026-06-23T23:29:22.599726+05:30
