city,state,latitude,longitude,temp,humidity,rain,pressure,uv_index,wind_gusts,aqi,pm10,pm2_5,no2,co,o3,so2,mosquito_risk,arthritis_risk,migraine_risk,frizz_risk,updated_at
Delhi,Delhi,28.6139,77.209,36.2,37,0.0,977.2,7.8,23.4,285,560.7,103.8,7.7,259.0,165.0,16.1,0,5,10,1,2026-06-17T17:20:30.226988+05:30
Mumbai,Maharashtra,19.076,72.8777,31.5,64,0.0,1006.8,7.65,51.5,57,22.5,12.0,5.9,164.0,68.0,5.4,3,5,4,1,2026-06-17T17:20:30.227034+05:30
Bangalore,Karnataka,12.9716,77.5946,30.2,43,0.0,910.1,8.75,34.9,84,56.8,27.9,10.1,542.0,96.0,3.8,0,5,7,1,2026-06-17T17:20:30.227050+05:30
Hyderabad,Telangana,17.385,78.4867,35.3,31,0.0,950.0,9.05,33.1,103,41.3,21.7,2.4,248.0,127.0,4.3,0,5,10,0,2026-06-17T17:20:30.227060+05:30
Chennai,Tamil Nadu,13.0827,80.2707,33.7,65,0.0,1002.8,7.0,43.6,92,43.5,27.8,4.7,295.0,145.0,6.8,3,5,4,1,2026-06-17T17:20:30.227068+05:30
Kolkata,West Bengal,22.5726,88.3639,33.3,66,0.0,1000.3,9.0,28.4,121,59.0,43.7,6.3,417.0,118.0,8.4,3,5,4,1,2026-06-17T17:20:30.227075+05:30
Pune,Maharashtra,18.5204,73.8567,29.9,55,0.1,946.8,8.3,49.0,51,24.0,11.4,2.4,138.0,87.0,3.2,7,5,7,1,2026-06-17T17:20:30.227082+05:30
Ahmedabad,Gujarat,23.0225,72.5714,37.1,36,0.1,997.2,8.05,36.0,63,66.4,22.1,1.7,146.0,90.0,2.8,3,5,10,1,2026-06-17T17:20:30.227088+05:30
Jaipur,Rajasthan,26.9124,75.7873,35.6,34,0.0,955.3,8.2,25.9,109,146.7,38.3,0.3,168.0,101.0,2.4,0,5,10,1,2026-06-17T17:20:30.227094+05:30
Lucknow,Uttar Pradesh,26.8467,80.9462,37.3,36,0.0,987.1,8.35,30.2,164,190.0,51.9,1.0,186.0,128.0,4.2,0,5,10,1,2026-06-17T17:20:30.227105+05:30
Kanpur,Uttar Pradesh,26.4499,80.3319,38.8,31,0.0,985.4,6.95,33.1,184,285.0,61.9,1.1,164.0,132.0,5.6,0,5,10,1,2026-06-17T17:20:30.227111+05:30
Chandigarh,Chandigarh,30.7333,76.7794,33.5,44,0.0,964.2,7.8,21.2,158,243.1,65.9,0.7,371.0,170.0,9.3,0,5,7,1,2026-06-17T17:20:30.227117+05:30
Srinagar,Jammu and Kashmir,34.0837,74.7973,23.0,62,0.0,842.5,8.35,28.8,83,27.0,14.3,1.7,303.0,144.0,2.1,3,5,7,0,2026-06-17T17:20:30.227124+05:30
Jammu,Jammu and Kashmir,32.7266,74.857,35.6,33,0.0,968.1,8.65,26.6,149,37.3,22.2,0.0,210.0,172.0,2.3,0,5,10,1,2026-06-17T17:20:30.227130+05:30
Amritsar,Punjab,31.634,74.8723,34.0,45,0.0,976.1,8.5,15.1,140,67.5,40.6,1.1,283.0,177.0,5.2,0,5,7,1,2026-06-17T17:20:30.227136+05:30
Ludhiana,Punjab,30.901,75.8573,32.5,49,0.1,974.0,8.05,31.0,157,183.0,53.3,0.7,233.0,135.0,5.0,3,5,7,1,2026-06-17T17:20:30.227142+05:30
Jalandhar,Punjab,31.326,75.5762,30.6,65,0.2,975.2,8.25,24.1,153,87.8,38.4,0.0,305.0,153.0,3.7,6,5,7,1,2026-06-17T17:20:30.227148+05:30
Dehradun,Uttarakhand,30.6284,78.0322,22.4,63,0.0,830.0,6.65,27.4,101,79.6,41.0,0.6,198.0,146.0,4.1,3,5,7,0,2026-06-17T17:20:30.227154+05:30
Shimla,Himachal Pradesh,31.1048,77.1734,18.3,78,0.1,784.5,7.65,29.5,124,122.5,45.4,3.6,228.0,165.0,8.7,6,5,7,0,2026-06-17T17:20:30.227163+05:30
Manali,Himachal Pradesh,32.2396,77.1887,22.2,68,0.1,819.3,9.8,31.7,76,31.3,24.7,17.7,135.0,125.0,0.6,6,5,7,0,2026-06-17T17:20:30.227172+05:30
Gurgaon,Haryana,28.4595,77.0266,35.6,38,0.0,975.8,7.9,19.8,360,659.4,101.7,4.3,214.0,168.0,11.3,0,5,10,1,2026-06-17T17:20:30.227179+05:30
Noida,Uttar Pradesh,28.5355,77.391,35.9,40,0.0,978.6,7.85,16.2,360,659.4,101.7,4.3,280.0,168.0,11.3,0,5,10,1,2026-06-17T17:20:30.227186+05:30
Ghaziabad,Uttar Pradesh,28.6692,77.4538,34.4,49,0.0,976.9,7.8,21.2,303,592.3,123.9,7.1,262.0,206.0,26.9,0,5,7,1,2026-06-17T17:20:30.227192+05:30
Faridabad,Haryana,28.4089,77.3178,36.2,35,0.0,978.0,7.85,24.1,360,659.4,101.7,4.3,212.0,168.0,11.3,0,5,10,1,2026-06-17T17:20:30.227198+05:30
Meerut,Uttar Pradesh,28.9845,77.7064,34.4,46,0.0,976.1,7.7,21.2,303,592.3,123.9,7.1,187.0,206.0,26.9,0,5,7,1,2026-06-17T17:20:30.227204+05:30
Agra,Uttar Pradesh,27.1767,78.0081,37.8,30,0.0,981.6,8.15,31.7,310,212.3,49.4,0.0,128.0,123.0,1.8,0,5,10,1,2026-06-17T17:20:30.227209+05:30
Varanasi,Uttar Pradesh,25.3176,82.9739,38.8,33,0.0,991.0,8.8,37.4,154,163.9,59.1,2.0,187.0,157.0,10.2,0,5,10,1,2026-06-17T17:20:30.227216+05:30
Prayagraj,Uttar Pradesh,25.4358,81.8463,38.2,35,0.0,989.8,8.7,28.1,154,197.0,64.7,1.3,159.0,163.0,10.0,0,5,10,1,2026-06-17T17:20:30.227222+05:30
Gorakhpur,Uttar Pradesh,26.7606,83.3732,36.1,44,0.0,990.2,8.7,35.3,171,150.9,52.3,3.5,199.0,139.0,5.7,0,5,10,1,2026-06-17T17:20:30.227228+05:30
Bareilly,Uttar Pradesh,28.367,79.4304,34.9,44,0.0,980.8,8.15,28.1,160,198.4,64.0,2.3,215.0,167.0,10.6,0,5,7,1,2026-06-17T17:20:30.227237+05:30
Aligarh,Uttar Pradesh,27.8974,78.088,35.6,40,0.0,979.8,8.0,27.0,199,568.1,91.7,2.0,173.0,165.0,9.5,0,5,10,1,2026-06-17T17:20:30.227259+05:30
Moradabad,Uttar Pradesh,28.8386,78.7733,34.7,43,0.0,978.1,7.95,25.6,170,375.3,92.4,4.2,256.0,163.0,12.9,0,5,7,1,2026-06-17T17:20:30.227266+05:30
Saharanpur,Uttar Pradesh,29.9637,77.546,34.0,47,0.0,970.7,7.55,19.8,244,405.1,105.0,1.6,226.0,174.0,18.0,0,5,7,1,2026-06-17T17:20:30.227273+05:30
Jhansi,Uttar Pradesh,25.4484,78.5685,37.6,33,0.0,972.5,8.5,32.4,94,74.3,32.2,1.6,119.0,103.0,3.9,0,5,10,1,2026-06-17T17:20:33.450303+05:30
Surat,Gujarat,21.1702,72.8311,32.0,64,0.0,1004.0,7.55,54.0,62,30.0,16.2,10.2,227.0,47.0,28.8,3,5,4,1,2026-06-17T17:20:33.450338+05:30
Vadodara,Gujarat,22.3072,73.1812,34.7,48,0.0,1000.1,8.0,52.2,58,59.8,21.5,2.2,142.0,92.0,3.3,0,5,4,1,2026-06-17T17:20:33.450349+05:30
Rajkot,Gujarat,22.3039,70.8022,35.3,42,0.0,990.4,7.55,50.8,53,47.8,18.5,1.5,108.0,84.0,3.6,0,5,10,1,2026-06-17T17:20:33.450357+05:30
Thane,Maharashtra,19.2183,72.9781,32.5,58,0.0,1005.9,7.6,44.6,57,22.5,12.0,5.9,150.0,68.0,5.4,0,5,4,1,2026-06-17T17:20:33.450364+05:30
Nagpur,Maharashtra,21.1458,79.0882,36.0,37,0.0,968.7,8.85,46.8,103,65.0,34.1,5.6,168.0,123.0,15.4,0,5,10,1,2026-06-17T17:20:33.450372+05:30
Nashik,Maharashtra,19.9975,73.7898,30.5,50,0.0,943.9,8.0,50.4,47,24.4,9.8,1.3,122.0,71.0,1.0,0,5,7,1,2026-06-17T17:20:33.450380+05:30
Aurangabad,Maharashtra,19.8762,75.3433,36.2,21,0.0,941.2,8.95,52.2,52,41.4,16.6,1.5,127.0,111.0,3.4,0,5,10,0,2026-06-17T17:20:33.450387+05:30
Solapur,Maharashtra,17.6599,75.9064,36.3,27,0.0,953.9,8.75,51.8,60,41.1,17.5,0.6,118.0,123.0,2.8,0,5,10,0,2026-06-17T17:20:33.450396+05:30
Kolhapur,Maharashtra,16.705,74.2433,30.4,51,0.0,946.8,7.95,47.5,51,23.7,12.2,3.0,125.0,83.0,1.7,0,5,7,1,2026-06-17T17:20:33.450403+05:30
Goa,Goa,15.2993,74.124,31.0,64,0.0,996.8,8.15,29.2,55,29.3,13.5,0.9,103.0,60.0,1.2,3,5,7,1,2026-06-17T17:20:33.450410+05:30
Jodhpur,Rajasthan,26.2389,73.0243,37.6,34,0.0,977.5,8.4,34.6,112,135.0,31.7,0.7,113.0,86.0,1.6,0,5,10,1,2026-06-17T17:20:33.450417+05:30
Udaipur,Rajasthan,24.5854,73.7125,32.2,46,0.0,943.1,8.8,37.8,69,49.6,20.5,0.5,118.0,90.0,2.2,0,5,7,1,2026-06-17T17:20:33.450424+05:30
Kota,Rajasthan,25.2138,75.8648,35.9,37,0.0,973.8,8.35,37.4,88,56.5,26.2,1.1,132.0,110.0,4.2,0,5,10,1,2026-06-17T17:20:33.450432+05:30
Bikaner,Rajasthan,28.0229,73.3119,37.2,40,0.0,976.3,8.45,40.7,122,211.9,52.7,0.2,111.0,87.0,1.5,0,5,10,1,2026-06-17T17:20:33.450439+05:30
Ajmer,Rajasthan,26.4499,74.6399,32.2,51,0.0,950.3,8.35,45.7,88,110.4,32.8,0.5,125.0,96.0,2.5,0,5,7,1,2026-06-17T17:20:33.450445+05:30
Gwalior,Madhya Pradesh,26.2183,78.1828,37.4,32,0.0,977.4,7.7,32.4,135,103.8,34.6,0.3,157.0,105.0,1.5,0,5,10,1,2026-06-17T17:20:33.450452+05:30
Indore,Madhya Pradesh,22.7196,75.8577,31.7,52,0.1,945.3,8.55,57.6,77,42.0,23.8,2.5,186.0,100.0,2.7,3,5,7,1,2026-06-17T17:20:33.450458+05:30
Bhopal,Madhya Pradesh,23.2599,77.4126,30.5,68,0.1,950.0,8.0,42.5,93,53.1,28.9,3.0,165.0,93.0,2.6,6,5,7,1,2026-06-17T17:20:33.450465+05:30
Jabalpur,Madhya Pradesh,23.1815,79.9864,34.4,47,0.0,957.2,8.85,39.6,103,69.8,34.9,1.2,163.0,117.0,3.0,0,5,7,1,2026-06-17T17:20:33.450472+05:30
Ujjain,Madhya Pradesh,23.1765,75.7885,30.8,55,0.1,950.9,8.55,52.9,72,41.8,22.9,1.3,146.0,98.0,2.8,3,5,7,1,2026-06-17T17:20:33.450479+05:30
Visakhapatnam,Andhra Pradesh,17.6868,83.2185,33.1,71,0.0,998.8,9.0,34.9,148,67.5,49.7,22.3,434.0,144.0,54.6,3,5,7,1,2026-06-17T17:20:33.450486+05:30
Vijayawada,Andhra Pradesh,16.5062,80.648,35.9,49,0.0,997.4,8.95,27.7,152,75.0,40.2,6.5,224.0,130.0,7.8,0,5,10,1,2026-06-17T17:20:33.450492+05:30
Guntur,Andhra Pradesh,16.3067,80.4365,35.4,49,0.0,998.6,8.9,29.2,138,78.0,41.0,4.3,223.0,136.0,7.0,0,5,10,1,2026-06-17T17:20:33.450499+05:30
Nellore,Andhra Pradesh,14.4426,79.9865,37.6,35,0.0,1000.5,6.15,36.0,92,50.9,32.1,4.6,198.0,153.0,5.9,0,5,7,1,2026-06-17T17:20:33.450507+05:30
Kurnool,Andhra Pradesh,15.8281,78.0373,36.0,39,0.0,972.8,8.15,40.7,77,43.3,23.6,0.8,128.0,135.0,8.2,0,5,10,1,2026-06-17T17:20:33.450514+05:30
Kakinada,Andhra Pradesh,16.9891,82.2475,35.2,55,0.0,1002.2,8.7,28.8,116,55.3,34.7,2.0,244.0,134.0,4.7,0,5,7,1,2026-06-17T17:20:33.450521+05:30
Tirupati,Andhra Pradesh,13.6288,79.4192,30.2,63,0.1,987.2,7.1,36.0,104,47.7,24.2,5.3,231.0,120.0,4.5,6,5,7,1,2026-06-17T17:20:33.450528+05:30
Warangal,Telangana,17.9689,79.5941,36.1,37,0.0,974.1,8.6,32.4,149,59.5,30.4,0.3,156.0,128.0,5.3,0,5,10,1,2026-06-17T17:20:33.450534+05:30
Nizamabad,Telangana,18.6725,78.0941,36.8,24,0.0,960.7,8.95,33.8,97,49.0,18.9,0.5,135.0,109.0,2.1,0,5,10,0,2026-06-17T17:20:33.450541+05:30
Mysore,Karnataka,12.2958,76.6396,27.3,62,0.1,927.1,8.4,37.1,63,27.1,14.0,5.0,183.0,92.0,1.8,10,5,7,1,2026-06-17T17:20:33.450548+05:30
Mangalore,Karnataka,12.9141,74.856,28.2,80,0.1,1006.1,8.4,35.3,55,30.0,14.1,1.3,105.0,65.0,1.5,10,5,4,1,2026-06-17T17:20:33.450554+05:30
Hubli-Dharwad,Karnataka,15.3647,75.124,29.5,57,0.0,939.5,8.4,41.0,44,15.7,9.2,2.3,127.0,79.0,1.1,4,5,7,1,2026-06-17T17:20:33.450560+05:30
Belgaum,Karnataka,15.8497,74.4977,26.3,73,0.0,924.8,8.1,41.4,47,19.6,11.0,1.9,111.0,67.0,1.3,7,5,7,1,2026-06-17T17:20:36.683571+05:30
Coimbatore,Tamil Nadu,11.0168,76.9558,28.0,70,0.0,959.9,8.85,45.0,52,9.2,6.5,3.9,175.0,78.0,1.8,7,5,7,1,2026-06-17T17:20:36.683606+05:30
Madurai,Tamil Nadu,9.9252,78.1198,28.5,77,0.6,991.4,8.7,34.9,88,75.9,39.0,5.0,218.0,127.0,3.2,10,5,7,1,2026-06-17T17:20:36.683617+05:30
Trichy,Tamil Nadu,10.7905,78.7047,33.3,53,0.0,996.3,8.5,42.5,79,42.5,21.9,6.8,174.0,109.0,3.3,0,5,7,1,2026-06-17T17:20:36.683625+05:30
Salem,Tamil Nadu,11.6643,78.146,30.7,61,0.1,974.3,8.65,23.4,90,44.2,23.6,4.5,172.0,135.0,7.4,6,5,7,1,2026-06-17T17:20:36.683633+05:30
Tirunelveli,Tamil Nadu,8.7139,77.7567,29.6,80,0.3,1001.1,7.8,31.7,49,12.4,7.2,2.7,144.0,79.0,1.3,10,5,4,1,2026-06-17T17:20:36.683641+05:30
Vellore,Tamil Nadu,12.9165,79.1325,30.3,66,0.1,980.7,8.85,33.8,119,42.0,20.8,3.9,262.0,113.0,2.6,6,5,7,1,2026-06-17T17:20:36.683649+05:30
Erode,Tamil Nadu,11.341,77.7172,29.9,69,0.0,986.2,8.8,34.2,71,20.9,12.6,5.8,222.0,104.0,2.2,7,5,7,1,2026-06-17T17:20:36.683656+05:30
Kochi,Kerala,9.9312,76.2673,28.3,79,0.0,1008.3,6.85,34.2,58,24.9,12.7,2.4,125.0,68.0,2.4,7,0,4,1,2026-06-17T17:20:36.683663+05:30
Thiruvananthapuram,Kerala,8.5241,76.9366,27.5,82,0.0,1007.8,7.7,37.4,50,20.0,9.9,1.5,122.0,64.0,0.9,7,5,4,1,2026-06-17T17:20:36.683670+05:30
Kozhikode,Kerala,11.2588,75.7804,27.8,81,0.0,1007.3,8.3,36.4,52,21.5,9.7,0.8,118.0,68.0,0.9,7,5,4,1,2026-06-17T17:20:36.683676+05:30
Thrissur,Kerala,10.5276,76.2144,28.1,78,0.0,1006.5,8.4,32.4,55,19.2,10.5,3.3,101.0,61.0,1.4,7,5,4,1,2026-06-17T17:20:36.683684+05:30
Kannur,Kerala,11.8745,75.3704,28.4,78,0.0,1006.5,8.6,36.7,51,25.0,12.0,1.3,109.0,69.0,1.3,7,5,4,1,2026-06-17T17:20:36.683693+05:30
Patna,Bihar,25.5941,85.1376,37.1,40,0.0,993.3,8.9,25.2,176,116.6,58.0,7.5,308.0,159.0,9.6,0,5,10,1,2026-06-17T17:20:36.683700+05:30
Gaya,Bihar,24.7914,85.0002,37.4,35,0.0,987.1,8.95,26.6,156,103.8,48.0,4.2,233.0,141.0,6.8,0,5,10,1,2026-06-17T17:20:36.683707+05:30
Muzaffarpur,Bihar,26.1209,85.3647,34.7,61,0.0,993.3,8.85,23.8,195,119.2,67.1,9.1,388.0,165.0,12.0,3,5,7,1,2026-06-17T17:20:36.683714+05:30
Bhagalpur,Bihar,25.2425,87.0117,36.1,45,0.0,994.1,8.85,23.8,181,143.4,73.3,5.3,274.0,178.0,18.9,0,5,10,1,2026-06-17T17:20:36.683720+05:30
Ranchi,Jharkhand,23.3441,85.3096,32.2,50,0.0,933.6,9.1,27.0,155,80.3,38.2,5.0,308.0,148.0,8.8,0,5,7,1,2026-06-17T17:20:36.683727+05:30
Jamshedpur,Jharkhand,22.8046,86.2029,35.4,45,0.0,985.1,9.1,33.8,185,122.0,71.2,6.8,234.0,170.0,18.2,0,5,10,1,2026-06-17T17:20:36.683733+05:30
Dhanbad,Jharkhand,23.7957,86.4304,37.5,30,0.0,973.8,9.1,23.0,172,118.0,58.2,18.3,189.0,160.0,59.9,0,5,10,1,2026-06-17T17:20:36.683739+05:30
Bokaro,Jharkhand,23.6693,86.1511,37.0,31,0.0,977.5,9.1,24.1,166,95.9,47.4,15.3,207.0,152.0,63.4,0,5,10,1,2026-06-17T17:20:36.683746+05:30
Bhubaneswar,Odisha,20.2961,85.8245,33.3,64,0.0,997.0,9.05,32.0,116,57.3,40.6,7.0,286.0,130.0,8.9,3,5,7,1,2026-06-17T17:20:36.683753+05:30
Cuttack,Odisha,20.4625,85.8828,32.5,73,0.0,998.7,9.1,29.9,116,57.3,40.6,7.0,321.0,130.0,8.9,3,5,7,1,2026-06-17T17:20:36.683759+05:30
Rourkela,Odisha,22.2604,84.8536,34.5,49,0.0,979.9,9.05,37.4,158,101.7,57.3,3.5,295.0,162.0,12.5,0,5,7,1,2026-06-17T17:20:36.683765+05:30
Raipur,Chhattisgarh,21.2514,81.6296,37.1,34,0.1,969.3,8.9,31.7,159,112.0,68.7,12.2,250.0,183.0,49.6,3,5,10,1,2026-06-17T17:20:36.683772+05:30
Bhilai,Chhattisgarh,21.1938,81.3509,37.9,30,0.0,969.7,8.9,41.8,157,92.9,52.0,12.2,570.0,143.0,39.8,0,5,10,1,2026-06-17T17:20:36.683778+05:30
Guwahati,Assam,26.1158,91.7086,30.8,75,0.0,995.0,8.75,36.7,93,16.5,14.1,3.5,303.0,96.0,2.8,3,5,7,1,2026-06-17T17:20:36.683784+05:30
Agartala,Tripura,23.8315,91.2868,29.6,78,0.0,1001.3,8.75,29.2,75,28.3,23.3,7.7,196.0,101.0,3.0,7,5,4,1,2026-06-17T17:20:36.683790+05:30
Shillong,Meghalaya,25.5788,91.8933,23.0,74,0.0,854.7,7.2,25.2,66,11.5,9.9,6.0,267.0,96.0,2.5,3,5,7,1,2026-06-17T17:20:36.683797+05:30
Imphal,Manipur,24.817,93.9368,26.0,76,0.0,919.2,8.35,30.2,54,7.6,6.2,5.0,217.0,80.0,1.8,7,5,7,1,2026-06-17T17:20:36.683803+05:30
Aizawl,Mizoram,23.7271,92.7176,21.5,94,0.1,889.2,9.05,23.4,41,15.9,12.6,2.9,164.0,76.0,0.9,6,5,7,1,2026-06-17T17:20:36.683810+05:30
Kohima,Nagaland,25.6701,94.1077,21.5,97,0.1,852.6,8.7,24.5,52,10.7,8.9,3.3,200.0,88.0,1.3,6,5,7,1,2026-06-17T17:20:36.683816+05:30
Gangtok,Sikkim,27.3314,88.6138,20.5,97,0.1,834.7,8.5,38.5,104,11.5,10.0,4.5,314.0,128.0,2.8,6,5,7,1,2026-06-17T17:20:36.683822+05:30
Siliguri,West Bengal,26.7271,88.3953,26.8,92,0.3,986.9,8.75,22.7,136,61.9,48.9,9.0,571.0,140.0,9.8,10,5,7,1,2026-06-17T17:20:39.915504+05:30
Durgapur,West Bengal,23.5204,87.3119,34.7,58,0.0,988.7,9.0,25.6,202,164.4,107.1,20.4,494.0,216.0,55.3,0,5,7,1,2026-06-17T17:20:39.915540+05:30
Asansol,West Bengal,23.6739,86.9524,35.7,48,0.0,987.2,9.05,27.0,191,141.6,81.5,20.7,317.0,179.0,37.9,0,5,10,1,2026-06-17T17:20:39.915552+05:30
Pondicherry,Puducherry,11.9139,79.8145,31.9,71,0.0,1004.5,8.7,55.4,104,52.0,35.0,15.2,224.0,149.0,7.7,3,5,4,1,2026-06-17T17:20:39.915562+05:30
Port Blair,Andaman and Nicobar Islands,11.6234,92.7265,28.5,81,0.0,1006.2,8.05,37.8,23,11.1,6.1,0.4,101.0,40.0,0.4,7,5,4,1,2026-06-17T17:20:39.915570+05:30
Haridwar,Uttarakhand,29.9457,78.1642,33.4,53,0.0,969.1,7.45,20.9,164,275.7,82.4,0.8,215.0,168.0,11.6,0,5,7,1,2026-06-17T17:20:39.915578+05:30
Rishikesh,Uttarakhand,30.0869,78.2676,32.3,51,0.0,962.2,6.25,24.1,150,192.3,65.9,0.4,221.0,158.0,8.0,0,5,7,1,2026-06-17T17:20:39.915586+05:30
Nainital,Uttarakhand,29.3919,79.4542,19.5,80,0.1,804.7,5.8,28.8,140,150.9,56.7,1.4,241.0,184.0,14.4,6,5,3,0,2026-06-17T17:20:39.915594+05:30
Mussoorie,Uttarakhand,30.4599,78.0664,18.4,88,0.2,802.1,7.0,35.3,140,133.6,54.1,0.2,210.0,168.0,10.1,6,10,7,1,2026-06-17T17:20:39.915602+05:30
Dharamshala,Himachal Pradesh,32.219,76.3234,25.0,59,0.0,867.9,8.55,41.0,109,31.3,18.6,1.2,194.0,146.0,2.3,4,5,7,1,2026-06-17T17:20:39.915609+05:30
Dalhousie,Himachal Pradesh,32.5387,75.971,21.0,61,0.0,805.1,8.8,29.5,155,70.5,32.5,1.5,191.0,181.0,4.9,3,5,7,0,2026-06-17T17:20:39.915617+05:30
Patiala,Punjab,30.3398,76.3869,34.9,40,0.0,973.0,7.55,24.1,356,508.5,92.9,1.1,204.0,139.0,6.6,0,5,7,1,2026-06-17T17:20:39.915625+05:30
Bhatinda,Punjab,30.211,74.9455,36.3,36,0.0,978.4,8.35,22.3,120,94.8,38.8,2.2,199.0,152.0,15.8,0,5,10,1,2026-06-17T17:20:39.915632+05:30
Rohtak,Haryana,28.8955,76.6066,35.3,42,0.0,976.2,7.8,19.1,336,443.3,70.8,0.0,176.0,140.0,3.0,0,5,10,1,2026-06-17T17:20:39.915639+05:30
Panipat,Haryana,29.3909,76.9635,35.0,44,0.0,974.8,7.65,22.3,663,752.5,115.5,1.7,190.0,148.0,18.0,0,5,7,1,2026-06-17T17:20:39.915646+05:30
Mathura,Uttar Pradesh,27.4924,77.6737,36.0,39,0.0,980.8,8.1,24.1,161,311.1,57.9,0.0,135.0,125.0,1.9,0,5,10,1,2026-06-17T17:20:39.915653+05:30
Vrindavan,Uttar Pradesh,27.5823,77.7027,36.1,38,0.0,981.2,8.05,23.8,161,311.1,57.9,0.0,152.0,125.0,1.9,0,5,10,1,2026-06-17T17:20:39.915660+05:30
Ayodhya,Uttar Pradesh,26.7922,82.1998,35.1,45,0.0,988.7,8.45,34.6,159,196.0,60.5,2.4,200.0,134.0,6.6,0,5,10,1,2026-06-17T17:20:39.915667+05:30
Ratlam,Madhya Pradesh,23.3315,75.0367,32.4,52,0.1,951.7,8.45,48.6,69,45.5,22.6,0.9,122.0,96.0,2.2,3,5,7,1,2026-06-17T17:20:39.915673+05:30
Sagar,Madhya Pradesh,23.8388,78.7378,28.9,71,0.0,946.6,8.0,39.2,92,68.2,35.7,1.2,151.0,109.0,2.7,7,5,7,1,2026-06-17T17:20:39.915681+05:30
Satna,Madhya Pradesh,24.6005,80.8322,32.2,54,0.1,967.1,8.8,38.9,109,91.5,36.1,0.5,139.0,121.0,2.8,3,5,7,1,2026-06-17T17:20:39.915688+05:30
Akola,Maharashtra,20.7002,77.0082,38.0,28,0.0,970.5,8.8,42.8,76,49.6,21.7,1.5,127.0,112.0,5.8,0,5,10,1,2026-06-17T17:20:39.915696+05:30
Amravati,Maharashtra,20.9374,77.7796,34.5,41,0.1,963.4,8.3,36.7,81,50.1,22.9,1.8,134.0,115.0,6.9,3,5,7,1,2026-06-17T17:20:39.915704+05:30
Latur,Maharashtra,18.4088,76.5604,35.1,28,0.0,936.9,8.9,41.0,73,44.7,17.3,0.0,100.0,109.0,2.1,0,5,10,0,2026-06-17T17:20:39.915711+05:30
Nanded,Maharashtra,19.1383,77.3091,37.5,25,0.1,964.4,8.85,34.2,79,46.3,16.8,0.3,119.0,103.0,1.2,3,5,10,0,2026-06-17T17:20:39.915718+05:30
Gulbarga,Karnataka,17.3297,76.8343,35.7,30,0.0,955.3,8.35,39.2,70,39.2,19.2,0.3,136.0,131.0,4.1,0,5,10,0,2026-06-17T17:20:39.915724+05:30
Bidar,Karnataka,17.9104,77.5199,33.8,33,0.0,932.7,8.95,34.9,93,43.5,20.1,0.0,133.0,121.0,3.7,0,5,7,0,2026-06-17T17:20:39.915731+05:30
Hospet,Karnataka,15.2689,76.3909,32.5,44,0.0,953.3,8.7,39.6,57,36.2,17.6,2.6,181.0,116.0,3.0,0,5,7,1,2026-06-17T17:20:39.915738+05:30
Tirupur,Tamil Nadu,11.1085,77.3411,30.9,58,0.0,973.0,8.85,50.0,69,20.3,12.5,5.2,169.0,98.0,2.6,0,5,7,1,2026-06-17T17:20:39.915744+05:30
Alappuzha,Kerala,9.4981,76.3388,28.5,78,0.0,1008.4,5.5,30.2,58,29.2,14.2,4.4,110.0,69.0,2.1,7,0,0,1,2026-06-17T17:20:39.915751+05:30
Munnar,Kerala,10.0889,77.0595,17.9,97,0.1,856.1,5.2,29.9,38,7.2,4.9,4.3,138.0,69.0,1.2,6,10,3,1,2026-06-17T17:20:39.915758+05:30
Silchar,Assam,24.8333,92.7789,28.0,89,0.0,1000.0,8.5,26.3,85,33.6,26.3,5.2,268.0,91.0,3.5,7,5,4,1,2026-06-17T17:20:39.915765+05:30
Dibrugarh,Assam,27.4728,94.912,28.4,87,0.0,989.9,8.2,32.4,75,12.7,11.7,5.6,288.0,104.0,1.5,7,5,7,1,2026-06-17T17:20:39.915772+05:30
