city,state,latitude,longitude,temp,humidity,rain,pressure,uv_index,wind_gusts,aqi,pm10,pm2_5,mosquito_risk,arthritis_risk,migraine_risk,frizz_risk,updated_at
Delhi,Delhi,28.6139,77.209,25.5,45,0.0,985.8,6.15,25.6,188,388.4,84.8,4,5,7,0,2026-03-11T21:22:54.431018+05:30
Mumbai,Maharashtra,19.076,72.8777,28.0,88,0.0,1010.9,7.6,23.4,210,53.0,46.3,7,0,4,1,2026-03-11T21:22:54.431055+05:30
Bangalore,Karnataka,12.9716,77.5946,25.4,48,0.0,914.2,9.25,27.7,61,18.3,17.6,4,5,7,0,2026-03-11T21:22:54.431071+05:30
Hyderabad,Telangana,17.385,78.4867,26.3,46,0.0,956.4,8.6,24.8,105,45.2,37.8,4,5,7,0,2026-03-11T21:22:54.431081+05:30
Chennai,Tamil Nadu,13.0827,80.2707,26.6,82,0.0,1011.0,9.0,31.7,67,22.8,18.9,7,0,4,1,2026-03-11T21:22:54.431090+05:30
Kolkata,West Bengal,22.5726,88.3639,25.6,86,0.0,1009.1,7.5,22.0,139,45.5,42.5,7,0,4,1,2026-03-11T21:22:54.431098+05:30
Pune,Maharashtra,18.5204,73.8567,28.2,60,0.0,951.6,8.15,31.3,130,43.7,39.9,4,5,7,1,2026-03-11T21:22:54.431111+05:30
Ahmedabad,Gujarat,23.0225,72.5714,30.1,26,0.0,1004.9,7.4,25.9,147,29.1,27.7,0,5,4,0,2026-03-11T21:22:54.431119+05:30
Jaipur,Rajasthan,26.9124,75.7873,28.5,20,0.0,963.0,6.85,33.1,122,96.6,35.0,4,5,7,0,2026-03-11T21:22:54.431142+05:30
Lucknow,Uttar Pradesh,26.8467,80.9462,27.4,58,0.0,996.2,6.6,28.8,180,231.4,68.0,4,5,7,1,2026-03-11T21:22:54.431150+05:30
Kanpur,Uttar Pradesh,26.4499,80.3319,27.4,60,0.0,994.7,6.6,23.8,173,366.0,73.8,4,5,7,1,2026-03-11T21:22:54.431158+05:30
Chandigarh,Chandigarh,30.7333,76.7794,23.4,56,0.0,971.6,5.35,24.5,136,71.7,51.5,0,5,3,0,2026-03-11T21:22:54.431166+05:30
Srinagar,Jammu and Kashmir,34.0837,74.7973,9.6,91,0.0,845.4,4.55,28.1,114,69.2,61.2,3,10,3,0,2026-03-11T21:22:54.431173+05:30
Jammu,Jammu and Kashmir,32.7266,74.857,21.9,59,0.0,976.0,5.4,27.0,92,41.8,26.9,0,5,3,0,2026-03-11T21:22:54.431180+05:30
Amritsar,Punjab,31.634,74.8723,23.3,84,0.0,984.2,6.45,23.8,156,84.5,63.1,3,5,7,1,2026-03-11T21:22:54.431187+05:30
Ludhiana,Punjab,30.901,75.8573,25.4,57,0.0,981.9,6.25,14.8,174,133.6,92.9,4,5,7,1,2026-03-11T21:22:54.431194+05:30
Jalandhar,Punjab,31.326,75.5762,24.6,64,0.0,983.0,6.5,17.6,167,109.9,73.3,3,5,7,1,2026-03-11T21:22:54.431204+05:30
Dehradun,Uttarakhand,30.6284,78.0322,15.6,81,0.0,832.2,6.0,28.8,109,31.5,22.1,3,10,3,0,2026-03-11T21:22:54.431211+05:30
Shimla,Himachal Pradesh,31.1048,77.1734,13.8,71,0.0,786.8,5.95,46.8,110,39.7,29.2,3,5,3,0,2026-03-11T21:22:54.431218+05:30
Manali,Himachal Pradesh,32.2396,77.1887,15.2,53,0.0,824.0,6.55,42.5,77,18.6,8.3,0,5,7,0,2026-03-11T21:22:54.431225+05:30
Gurgaon,Haryana,28.4595,77.0266,22.8,53,0.0,984.1,6.25,24.5,618,665.0,127.1,0,5,7,0,2026-03-11T21:22:54.431232+05:30
Noida,Uttar Pradesh,28.5355,77.391,25.1,47,0.0,987.4,6.15,25.9,618,665.0,127.1,4,5,7,0,2026-03-11T21:22:54.431238+05:30
Ghaziabad,Uttar Pradesh,28.6692,77.4538,23.9,53,0.0,985.4,6.1,24.5,167,341.8,70.5,0,5,7,0,2026-03-11T21:22:54.431245+05:30
Faridabad,Haryana,28.4089,77.3178,23.0,51,0.0,986.5,6.15,23.0,618,665.0,127.1,0,5,7,0,2026-03-11T21:22:54.431251+05:30
Meerut,Uttar Pradesh,28.9845,77.7064,22.2,67,0.0,984.1,5.75,29.2,167,341.8,70.5,3,5,3,0,2026-03-11T21:22:54.431257+05:30
Agra,Uttar Pradesh,27.1767,78.0081,25.1,52,0.0,990.5,6.5,18.4,325,491.7,93.4,4,5,7,0,2026-03-11T21:22:54.431263+05:30
Varanasi,Uttar Pradesh,25.3176,82.9739,24.3,76,0.0,1000.7,7.3,23.0,185,87.8,69.8,3,5,4,1,2026-03-11T21:22:54.431272+05:30
Prayagraj,Uttar Pradesh,25.4358,81.8463,26.7,58,0.0,999.0,7.15,23.8,183,99.7,61.7,4,5,7,1,2026-03-11T21:22:54.431281+05:30
Gorakhpur,Uttar Pradesh,26.7606,83.3732,25.4,77,0.0,999.8,7.0,22.0,215,151.8,135.0,7,5,7,1,2026-03-11T21:22:54.431288+05:30
Bareilly,Uttar Pradesh,28.367,79.4304,22.6,67,0.0,989.1,6.35,30.6,196,189.1,63.3,3,5,7,1,2026-03-11T21:22:54.431295+05:30
Aligarh,Uttar Pradesh,27.8974,78.088,23.5,53,0.0,988.3,6.25,25.6,346,957.4,137.8,0,5,7,0,2026-03-11T21:22:54.431302+05:30
Moradabad,Uttar Pradesh,28.8386,78.7733,22.5,67,0.0,986.0,6.15,34.6,188,88.0,38.1,3,5,7,0,2026-03-11T21:22:54.431308+05:30
Saharanpur,Uttar Pradesh,29.9637,77.546,22.2,65,0.0,978.0,5.45,36.0,164,108.7,47.3,3,5,3,0,2026-03-11T21:22:54.431314+05:30
Jhansi,Uttar Pradesh,25.4484,78.5685,27.0,43,0.0,980.9,7.1,27.7,101,37.4,21.3,4,5,7,0,2026-03-11T21:22:57.654666+05:30
Surat,Gujarat,21.1702,72.8311,30.6,37,0.0,1008.1,7.3,27.4,137,92.4,90.1,0,0,4,0,2026-03-11T21:22:57.654696+05:30
Vadodara,Gujarat,22.3072,73.1812,30.8,42,0.0,1006.3,7.45,20.2,130,35.4,33.2,0,5,4,1,2026-03-11T21:22:57.654707+05:30
Rajkot,Gujarat,22.3039,70.8022,29.4,29,0.0,997.8,7.25,32.4,121,18.7,18.2,4,5,7,0,2026-03-11T21:22:57.654716+05:30
Thane,Maharashtra,19.2183,72.9781,27.0,92,0.0,1010.3,7.6,40.7,210,53.0,46.3,7,0,4,1,2026-03-11T21:22:57.654725+05:30
Nagpur,Maharashtra,21.1458,79.0882,28.6,39,0.0,975.6,8.0,12.6,133,58.8,43.1,4,5,7,0,2026-03-11T21:22:57.654732+05:30
Nashik,Maharashtra,19.9975,73.7898,27.4,44,0.0,948.4,7.75,25.6,160,48.7,46.2,4,5,7,0,2026-03-11T21:22:57.654740+05:30
Aurangabad,Maharashtra,19.8762,75.3433,27.7,44,0.0,946.7,8.3,18.4,149,38.9,33.9,4,5,7,0,2026-03-11T21:22:57.654748+05:30
Solapur,Maharashtra,17.6599,75.9064,28.2,60,0.0,959.5,8.5,20.5,139,37.7,32.5,4,5,7,1,2026-03-11T21:22:57.654756+05:30
Kolhapur,Maharashtra,16.705,74.2433,25.4,86,0.0,950.8,8.65,32.4,147,76.8,70.3,7,5,7,1,2026-03-11T21:22:57.654763+05:30
Goa,Goa,15.2993,74.124,28.1,82,0.0,1000.8,8.65,39.6,151,59.5,51.7,7,5,4,1,2026-03-11T21:22:57.654771+05:30
Jodhpur,Rajasthan,26.2389,73.0243,27.1,29,0.0,986.1,7.15,31.7,120,123.4,24.9,4,5,7,0,2026-03-11T21:22:57.654779+05:30
Udaipur,Rajasthan,24.5854,73.7125,25.9,29,0.0,950.4,7.8,26.3,118,13.8,12.8,4,5,7,0,2026-03-11T21:22:57.654786+05:30
Kota,Rajasthan,25.2138,75.8648,25.9,42,0.0,981.3,7.2,18.7,112,55.1,28.1,4,5,7,0,2026-03-11T21:22:57.654794+05:30
Bikaner,Rajasthan,28.0229,73.3119,28.8,24,0.0,984.7,6.15,27.7,104,48.2,16.1,4,5,7,0,2026-03-11T21:22:57.654801+05:30
Ajmer,Rajasthan,26.4499,74.6399,27.2,29,0.0,958.1,7.2,27.7,120,27.9,19.1,4,5,7,0,2026-03-11T21:22:57.654808+05:30
Gwalior,Madhya Pradesh,26.2183,78.1828,27.8,38,0.0,986.1,6.8,29.9,106,139.2,37.5,4,5,7,0,2026-03-11T21:22:57.654815+05:30
Indore,Madhya Pradesh,22.7196,75.8577,24.7,36,0.0,950.8,7.7,20.9,109,32.1,25.8,0,5,7,0,2026-03-11T21:22:57.654822+05:30
Bhopal,Madhya Pradesh,23.2599,77.4126,24.4,41,0.0,956.8,7.55,24.8,108,34.2,22.6,0,5,7,0,2026-03-11T21:22:57.654829+05:30
Jabalpur,Madhya Pradesh,23.1815,79.9864,28.4,29,0.0,964.3,7.7,24.5,99,84.3,34.2,4,5,7,0,2026-03-11T21:22:57.654836+05:30
Ujjain,Madhya Pradesh,23.1765,75.7885,25.2,49,0.0,956.8,7.65,14.8,96,38.2,31.0,4,5,7,0,2026-03-11T21:22:57.654844+05:30
Visakhapatnam,Andhra Pradesh,17.6868,83.2185,26.3,79,0.0,1006.9,8.6,39.2,93,23.5,20.2,7,5,4,1,2026-03-11T21:22:57.654851+05:30
Vijayawada,Andhra Pradesh,16.5062,80.648,27.0,55,0.0,1005.9,8.7,17.6,89,27.5,26.4,4,5,4,1,2026-03-11T21:22:57.654860+05:30
Guntur,Andhra Pradesh,16.3067,80.4365,26.5,64,0.0,1007.3,8.7,18.7,76,31.0,29.1,7,5,4,1,2026-03-11T21:22:57.654869+05:30
Nellore,Andhra Pradesh,14.4426,79.9865,25.2,84,0.0,1009.8,8.85,28.4,65,17.8,15.3,7,0,4,1,2026-03-11T21:22:57.654877+05:30
Kurnool,Andhra Pradesh,15.8281,78.0373,30.6,36,0.0,979.9,8.7,25.2,58,43.0,36.1,0,5,7,0,2026-03-11T21:22:57.654885+05:30
Kakinada,Andhra Pradesh,16.9891,82.2475,25.4,75,0.0,1010.5,8.65,25.9,83,19.0,15.9,7,0,4,1,2026-03-11T21:22:57.654892+05:30
Tirupati,Andhra Pradesh,13.6288,79.4192,25.2,67,0.0,995.6,9.0,32.4,78,21.1,19.8,7,5,7,1,2026-03-11T21:22:57.654900+05:30
Warangal,Telangana,17.9689,79.5941,28.5,49,0.0,981.4,8.45,23.4,81,62.2,55.1,4,5,7,1,2026-03-11T21:22:57.654907+05:30
Nizamabad,Telangana,18.6725,78.0941,27.0,44,0.0,967.5,8.35,26.6,127,55.5,49.4,4,5,7,0,2026-03-11T21:22:57.654914+05:30
Mysore,Karnataka,12.2958,76.6396,25.0,54,0.0,930.3,9.25,28.8,61,23.9,22.7,4,5,7,0,2026-03-11T21:22:57.654921+05:30
Mangalore,Karnataka,12.9141,74.856,29.4,78,0.0,1009.4,8.9,29.5,110,40.3,34.2,7,0,4,1,2026-03-11T21:22:57.654928+05:30
Hubli-Dharwad,Karnataka,15.3647,75.124,26.9,36,0.0,943.3,8.85,37.1,107,21.4,19.7,4,5,7,0,2026-03-11T21:22:57.654935+05:30
Belgaum,Karnataka,15.8497,74.4977,24.8,75,0.0,928.5,8.9,41.0,135,40.6,35.9,3,5,7,1,2026-03-11T21:23:00.967876+05:30
Coimbatore,Tamil Nadu,11.0168,76.9558,26.0,51,0.0,964.0,9.25,35.6,84,28.0,26.1,4,5,7,0,2026-03-11T21:23:00.967906+05:30
Madurai,Tamil Nadu,9.9252,78.1198,27.3,74,0.0,995.8,8.4,31.7,63,18.0,17.2,7,5,7,1,2026-03-11T21:23:00.967918+05:30
Trichy,Tamil Nadu,10.7905,78.7047,27.1,75,0.0,1002.9,9.15,28.8,66,18.9,17.8,7,5,4,1,2026-03-11T21:23:00.967928+05:30
Salem,Tamil Nadu,11.6643,78.146,27.1,67,0.0,979.7,9.15,19.8,69,16.1,15.2,7,5,7,1,2026-03-11T21:23:00.967936+05:30
Tirunelveli,Tamil Nadu,8.7139,77.7567,27.0,76,0.0,1006.2,6.2,25.9,53,17.0,15.4,7,5,4,1,2026-03-11T21:23:00.967944+05:30
Vellore,Tamil Nadu,12.9165,79.1325,26.1,73,0.0,988.4,9.1,34.6,89,26.4,25.3,7,5,7,1,2026-03-11T21:23:00.967952+05:30
Erode,Tamil Nadu,11.341,77.7172,28.7,57,0.0,991.1,9.15,18.7,82,24.2,23.1,4,5,7,1,2026-03-11T21:23:00.967959+05:30
Kochi,Kerala,9.9312,76.2673,28.6,80,0.0,1010.8,8.25,38.9,115,44.5,40.6,7,0,4,1,2026-03-11T21:23:00.967967+05:30
Thiruvananthapuram,Kerala,8.5241,76.9366,28.3,80,0.0,1010.0,7.3,25.6,84,20.8,17.5,7,0,4,1,2026-03-11T21:23:00.967974+05:30
Kozhikode,Kerala,11.2588,75.7804,28.9,82,0.0,1009.8,8.95,31.3,117,35.9,29.9,7,0,4,1,2026-03-11T21:23:00.967980+05:30
Thrissur,Kerala,10.5276,76.2144,27.7,81,0.0,1009.0,9.05,39.2,91,31.4,29.2,7,0,4,1,2026-03-11T21:23:00.967989+05:30
Kannur,Kerala,11.8745,75.3704,28.3,82,0.0,1009.6,8.95,38.9,127,39.8,33.4,7,0,4,1,2026-03-11T21:23:00.967996+05:30
Patna,Bihar,25.5941,85.1376,27.0,81,0.0,1003.3,6.85,24.8,200,171.8,160.2,7,5,4,1,2026-03-11T21:23:00.968004+05:30
Gaya,Bihar,24.7914,85.0002,26.6,79,0.0,997.0,7.5,21.6,175,158.3,145.3,7,5,7,1,2026-03-11T21:23:00.968011+05:30
Muzaffarpur,Bihar,26.1209,85.3647,25.7,80,0.0,1003.3,7.35,22.0,217,172.3,160.7,7,5,4,1,2026-03-11T21:23:00.968017+05:30
Bhagalpur,Bihar,25.2425,87.0117,25.9,87,0.0,1004.1,7.15,18.4,175,119.0,111.8,7,5,4,1,2026-03-11T21:23:00.968024+05:30
Ranchi,Jharkhand,23.3441,85.3096,23.8,59,0.0,940.7,8.15,28.1,171,91.0,79.6,0,5,7,0,2026-03-11T21:23:00.968031+05:30
Jamshedpur,Jharkhand,22.8046,86.2029,26.1,79,0.0,994.2,8.05,27.0,162,85.9,76.1,7,5,7,1,2026-03-11T21:23:00.968039+05:30
Dhanbad,Jharkhand,23.7957,86.4304,25.1,79,0.0,983.3,7.6,28.4,195,138.8,129.0,7,5,7,1,2026-03-11T21:23:00.968046+05:30
Bokaro,Jharkhand,23.6693,86.1511,25.5,80,0.0,987.4,7.7,37.8,193,126.7,114.6,7,5,7,1,2026-03-11T21:23:00.968053+05:30
Bhubaneswar,Odisha,20.2961,85.8245,26.3,85,0.0,1005.7,8.35,28.4,105,25.1,22.3,7,5,4,1,2026-03-11T21:23:00.968060+05:30
Cuttack,Odisha,20.4625,85.8828,26.8,85,0.0,1007.5,8.4,26.3,105,25.1,22.3,7,5,4,1,2026-03-11T21:23:00.968066+05:30
Rourkela,Odisha,22.2604,84.8536,27.3,65,0.0,987.1,7.95,27.4,163,92.9,75.4,7,5,7,1,2026-03-11T21:23:00.968073+05:30
Raipur,Chhattisgarh,21.2514,81.6296,28.4,47,0.0,977.0,8.05,24.1,156,115.3,91.3,4,5,7,0,2026-03-11T21:23:00.968080+05:30
Bhilai,Chhattisgarh,21.1938,81.3509,26.4,43,0.0,977.2,8.05,19.1,152,110.1,85.0,4,5,7,0,2026-03-11T21:23:00.968087+05:30
Guwahati,Assam,26.1158,91.7086,25.2,82,0.0,1003.6,7.35,19.4,152,73.1,67.8,7,5,4,1,2026-03-11T21:23:00.968094+05:30
Agartala,Tripura,23.8315,91.2868,24.1,81,0.0,1009.3,7.7,15.8,176,89.2,83.4,3,0,4,1,2026-03-11T21:23:00.968101+05:30
Shillong,Meghalaya,25.5788,91.8933,13.3,95,0.0,857.7,6.65,31.3,121,43.5,41.0,3,10,7,0,2026-03-11T21:23:00.968108+05:30
Imphal,Manipur,24.817,93.9368,18.9,80,0.0,925.7,7.95,40.3,158,103.6,96.9,3,5,7,0,2026-03-11T21:23:00.968115+05:30
Aizawl,Mizoram,23.7271,92.7176,17.4,88,0.0,895.4,7.9,27.4,188,142.0,136.4,3,10,7,0,2026-03-11T21:23:00.968122+05:30
Kohima,Nagaland,25.6701,94.1077,15.5,90,0.0,856.6,7.05,32.8,151,74.5,69.4,3,10,7,0,2026-03-11T21:23:00.968146+05:30
Gangtok,Sikkim,27.3314,88.6138,15.7,88,0.0,839.5,6.3,19.8,123,63.6,58.3,3,10,7,0,2026-03-11T21:23:00.968154+05:30
Siliguri,West Bengal,26.7271,88.3953,21.7,72,0.0,996.8,7.35,21.2,169,110.1,99.2,3,5,7,1,2026-03-11T21:23:04.194295+05:30
Durgapur,West Bengal,23.5204,87.3119,24.5,87,0.0,998.7,7.6,20.5,164,92.7,86.8,3,5,7,1,2026-03-11T21:23:04.194323+05:30
Asansol,West Bengal,23.6739,86.9524,23.8,83,0.0,997.4,7.85,20.2,173,110.1,102.9,3,5,7,1,2026-03-11T21:23:04.194332+05:30
Pondicherry,Puducherry,11.9139,79.8145,25.6,92,0.0,1012.0,9.0,31.3,59,20.6,16.4,7,0,4,1,2026-03-11T21:23:04.194340+05:30
Port Blair,Andaman and Nicobar Islands,11.6234,92.7265,28.2,78,0.0,1009.8,8.95,20.2,57,15.0,12.2,7,0,4,1,2026-03-11T21:23:04.194347+05:30
Haridwar,Uttarakhand,29.9457,78.1642,22.1,69,0.0,976.8,5.85,38.5,152,74.3,40.5,3,5,3,1,2026-03-11T21:23:04.194355+05:30
Rishikesh,Uttarakhand,30.0869,78.2676,20.3,73,0.0,969.6,5.95,36.4,141,52.4,31.4,3,5,3,0,2026-03-11T21:23:04.194362+05:30
Nainital,Uttarakhand,29.3919,79.4542,19.2,46,0.0,808.3,6.8,64.4,162,33.8,25.8,0,5,7,0,2026-03-11T21:23:04.194369+05:30
Mussoorie,Uttarakhand,30.4599,78.0664,17.1,61,0.0,805.0,6.0,38.9,139,55.5,36.1,3,5,3,0,2026-03-11T21:23:04.194376+05:30
Dharamshala,Himachal Pradesh,32.219,76.3234,21.5,34,0.0,872.7,5.4,25.9,61,24.0,13.8,0,5,3,0,2026-03-11T21:23:04.194383+05:30
Dalhousie,Himachal Pradesh,32.5387,75.971,17.7,31,0.0,806.7,4.75,19.8,89,44.4,28.6,0,5,3,0,2026-03-11T21:23:04.194390+05:30
Patiala,Punjab,30.3398,76.3869,23.1,63,0.0,981.0,5.4,19.1,167,118.3,89.2,3,5,3,0,2026-03-11T21:23:04.194397+05:30
Bhatinda,Punjab,30.211,74.9455,25.0,59,0.0,986.6,6.6,25.2,149,91.5,66.6,4,5,7,1,2026-03-11T21:23:04.194403+05:30
Rohtak,Haryana,28.8955,76.6066,22.6,55,0.0,984.5,6.1,27.4,198,438.7,99.2,0,5,7,0,2026-03-11T21:23:04.194410+05:30
Panipat,Haryana,29.3909,76.9635,21.4,66,0.0,983.1,5.45,24.8,319,741.3,105.9,3,5,3,0,2026-03-11T21:23:04.194417+05:30
Mathura,Uttar Pradesh,27.4924,77.6737,23.5,58,0.0,989.4,6.4,21.2,316,700.4,103.8,0,5,7,0,2026-03-11T21:23:04.194424+05:30
Vrindavan,Uttar Pradesh,27.5823,77.7027,23.7,55,0.0,990.0,6.35,23.0,316,700.4,103.8,0,5,7,0,2026-03-11T21:23:04.194430+05:30
Ayodhya,Uttar Pradesh,26.7922,82.1998,24.7,73,0.0,997.8,6.8,25.2,187,73.8,52.3,3,5,7,1,2026-03-11T21:23:04.194437+05:30
Ratlam,Madhya Pradesh,23.3315,75.0367,25.9,39,0.0,957.5,7.55,19.8,111,32.1,26.4,4,5,7,0,2026-03-11T21:23:04.194444+05:30
Sagar,Madhya Pradesh,23.8388,78.7378,27.1,28,0.0,953.1,7.55,24.8,111,53.2,21.4,4,5,7,0,2026-03-11T21:23:04.194450+05:30
Satna,Madhya Pradesh,24.6005,80.8322,27.3,37,0.0,974.6,7.55,34.2,147,55.3,25.0,4,5,7,0,2026-03-11T21:23:04.194456+05:30
Akola,Maharashtra,20.7002,77.0082,28.7,37,0.0,977.4,8.0,14.4,164,38.0,30.5,4,5,7,0,2026-03-11T21:23:04.194463+05:30
Amravati,Maharashtra,20.9374,77.7796,30.0,39,0.0,969.6,8.0,11.9,159,39.3,27.0,4,5,7,0,2026-03-11T21:23:04.194470+05:30
Latur,Maharashtra,18.4088,76.5604,27.8,46,0.0,942.8,8.45,24.5,149,33.8,30.7,4,5,7,0,2026-03-11T21:23:04.194476+05:30
Nanded,Maharashtra,19.1383,77.3091,28.9,48,0.0,971.0,8.2,18.0,140,45.1,40.3,4,5,7,1,2026-03-11T21:23:04.194483+05:30
Gulbarga,Karnataka,17.3297,76.8343,30.1,44,0.0,961.5,8.5,21.6,113,35.5,29.4,0,5,7,1,2026-03-11T21:23:04.194488+05:30
Bidar,Karnataka,17.9104,77.5199,27.9,44,0.0,938.6,8.5,24.8,117,49.1,42.3,4,5,7,0,2026-03-11T21:23:04.194495+05:30
Hospet,Karnataka,15.2689,76.3909,29.1,41,0.0,958.5,8.8,28.4,93,21.9,20.4,4,5,7,0,2026-03-11T21:23:04.194501+05:30
Tirupur,Tamil Nadu,11.1085,77.3411,28.8,49,0.0,977.4,9.25,29.5,91,27.6,25.8,4,5,7,1,2026-03-11T21:23:04.194507+05:30
Alappuzha,Kerala,9.4981,76.3388,28.7,80,0.0,1010.9,8.25,37.8,107,41.6,36.4,7,0,4,1,2026-03-11T21:23:04.194512+05:30
Munnar,Kerala,10.0889,77.0595,21.3,82,0.0,858.7,8.0,27.4,60,27.2,26.1,3,5,7,1,2026-03-11T21:23:04.194519+05:30
Silchar,Assam,24.8333,92.7789,25.4,81,0.0,1007.9,7.65,20.2,174,115.9,106.6,7,5,4,1,2026-03-11T21:23:04.194526+05:30
Dibrugarh,Assam,27.4728,94.912,23.8,85,0.0,998.2,7.45,31.3,158,87.8,82.0,3,5,7,1,2026-03-11T21:23:04.194531+05:30
