city,state,latitude,longitude,temp,humidity,rain,pressure,uv_index,wind_gusts,aqi,pm10,pm2_5,mosquito_risk,arthritis_risk,migraine_risk,frizz_risk,updated_at
Delhi,Delhi,28.6139,77.209,22.6,61,0.0,985.0,6.6,24.8,199,581.1,117.1,3,5,7,0,2026-03-25T00:37:42.642335+05:30
Mumbai,Maharashtra,19.076,72.8777,28.5,76,0.0,1008.0,7.9,22.0,103,32.4,24.1,7,0,4,1,2026-03-25T00:37:42.642373+05:30
Bangalore,Karnataka,12.9716,77.5946,23.6,71,0.0,912.2,9.5,24.1,78,24.7,22.4,3,5,7,1,2026-03-25T00:37:42.642389+05:30
Hyderabad,Telangana,17.385,78.4867,24.3,73,0.0,954.2,9.0,22.0,83,39.6,34.6,3,5,7,1,2026-03-25T00:37:42.642399+05:30
Chennai,Tamil Nadu,13.0827,80.2707,26.5,80,0.0,1008.9,9.2,31.7,34,10.6,7.4,7,0,4,1,2026-03-25T00:37:42.642407+05:30
Kolkata,West Bengal,22.5726,88.3639,24.8,92,0.0,1007.3,8.4,24.1,125,28.2,21.7,3,5,4,1,2026-03-25T00:37:42.642416+05:30
Pune,Maharashtra,18.5204,73.8567,24.8,62,0.0,948.4,8.5,38.5,96,47.6,40.2,3,5,7,1,2026-03-25T00:37:42.642428+05:30
Ahmedabad,Gujarat,23.0225,72.5714,27.2,47,0.0,1002.3,7.65,23.8,67,40.9,24.6,4,5,4,0,2026-03-25T00:37:42.642435+05:30
Jaipur,Rajasthan,26.9124,75.7873,24.2,46,0.0,961.0,7.35,32.4,107,290.6,49.5,0,5,7,0,2026-03-25T00:37:42.642443+05:30
Lucknow,Uttar Pradesh,26.8467,80.9462,23.0,64,0.0,995.1,7.15,34.9,112,242.1,60.8,3,5,7,0,2026-03-25T00:37:42.642451+05:30
Kanpur,Uttar Pradesh,26.4499,80.3319,22.6,68,0.0,993.3,7.15,26.6,135,299.9,64.3,3,5,7,1,2026-03-25T00:37:42.642458+05:30
Chandigarh,Chandigarh,30.7333,76.7794,18.2,75,0.0,970.3,6.15,29.9,78,25.0,22.7,3,5,7,0,2026-03-25T00:37:42.642465+05:30
Srinagar,Jammu and Kashmir,34.0837,74.7973,7.2,65,0.0,838.7,7.4,13.0,71,51.7,41.4,3,5,7,0,2026-03-25T00:37:42.642472+05:30
Jammu,Jammu and Kashmir,32.7266,74.857,19.0,82,0.0,974.5,6.75,21.2,70,42.5,40.2,3,10,7,0,2026-03-25T00:37:42.642480+05:30
Amritsar,Punjab,31.634,74.8723,20.4,65,0.0,982.8,5.85,22.0,123,88.9,80.8,3,5,3,0,2026-03-25T00:37:42.642487+05:30
Ludhiana,Punjab,30.901,75.8573,20.4,67,0.0,980.8,6.3,22.0,139,64.5,60.8,3,5,7,0,2026-03-25T00:37:42.642494+05:30
Jalandhar,Punjab,31.326,75.5762,19.9,70,0.0,981.9,6.65,22.3,120,58.8,54.6,3,5,7,0,2026-03-25T00:37:42.642503+05:30
Dehradun,Uttarakhand,30.6284,78.0322,10.7,89,0.0,828.0,7.0,22.7,62,30.6,23.8,3,10,7,0,2026-03-25T00:37:42.642509+05:30
Shimla,Himachal Pradesh,31.1048,77.1734,7.5,83,0.0,780.9,7.05,39.6,52,27.2,21.3,3,10,7,0,2026-03-25T00:37:42.642516+05:30
Manali,Himachal Pradesh,32.2396,77.1887,13.3,31,0.0,816.6,9.05,27.7,81,15.8,10.1,0,5,7,1,2026-03-25T00:37:42.642523+05:30
Gurgaon,Haryana,28.4595,77.0266,19.9,72,0.0,983.3,6.7,19.4,603,732.0,133.6,3,5,7,0,2026-03-25T00:37:42.642529+05:30
Noida,Uttar Pradesh,28.5355,77.391,22.3,63,0.0,986.5,6.65,24.1,603,732.0,133.6,3,5,7,0,2026-03-25T00:37:42.642536+05:30
Ghaziabad,Uttar Pradesh,28.6692,77.4538,20.8,70,0.0,984.6,6.6,24.5,158,426.5,91.0,3,5,7,0,2026-03-25T00:37:42.642542+05:30
Faridabad,Haryana,28.4089,77.3178,20.3,69,0.0,985.5,6.65,20.2,603,732.0,133.6,3,5,7,0,2026-03-25T00:37:42.642549+05:30
Meerut,Uttar Pradesh,28.9845,77.7064,19.4,75,0.0,983.3,6.4,28.1,158,426.5,91.0,3,5,7,0,2026-03-25T00:37:42.642556+05:30
Agra,Uttar Pradesh,27.1767,78.0081,21.2,65,0.0,989.4,6.65,24.8,332,825.2,123.4,3,5,7,0,2026-03-25T00:37:42.642562+05:30
Varanasi,Uttar Pradesh,25.3176,82.9739,21.7,69,0.0,999.0,7.45,29.9,127,77.1,42.0,3,5,7,0,2026-03-25T00:37:42.642570+05:30
Prayagraj,Uttar Pradesh,25.4358,81.8463,23.4,59,0.0,997.6,7.2,24.8,111,95.5,34.6,0,5,7,0,2026-03-25T00:37:42.642580+05:30
Gorakhpur,Uttar Pradesh,26.7606,83.3732,20.9,71,0.0,998.3,7.3,29.2,123,74.0,34.9,3,5,7,0,2026-03-25T00:37:42.642586+05:30
Bareilly,Uttar Pradesh,28.367,79.4304,19.7,78,0.0,988.5,6.85,30.6,130,54.5,44.1,3,5,7,0,2026-03-25T00:37:42.642592+05:30
Aligarh,Uttar Pradesh,27.8974,78.088,19.4,74,0.0,987.2,6.7,22.3,294,590.5,109.4,3,5,7,0,2026-03-25T00:37:42.642598+05:30
Moradabad,Uttar Pradesh,28.8386,78.7733,19.4,76,0.0,985.5,6.7,29.9,143,123.4,44.7,3,5,7,0,2026-03-25T00:37:42.642605+05:30
Saharanpur,Uttar Pradesh,29.9637,77.546,17.9,79,0.0,977.2,6.25,28.8,150,79.2,56.7,3,5,7,0,2026-03-25T00:37:42.642611+05:30
Jhansi,Uttar Pradesh,25.4484,78.5685,23.5,55,0.0,979.0,7.6,27.4,110,100.8,34.8,0,5,7,0,2026-03-25T00:37:45.988751+05:30
Surat,Gujarat,21.1702,72.8311,26.5,80,0.0,1006.5,7.7,21.6,130,30.6,25.0,7,5,4,1,2026-03-25T00:37:45.988781+05:30
Vadodara,Gujarat,22.3072,73.1812,27.1,61,0.0,1004.5,7.9,16.9,87,49.5,43.9,7,5,4,1,2026-03-25T00:37:45.988790+05:30
Rajkot,Gujarat,22.3039,70.8022,24.8,72,0.0,995.5,7.6,29.2,45,16.5,9.3,3,5,7,1,2026-03-25T00:37:45.988797+05:30
Thane,Maharashtra,19.2183,72.9781,27.0,71,0.0,1007.4,7.95,36.4,103,32.4,24.1,7,5,4,1,2026-03-25T00:37:45.988804+05:30
Nagpur,Maharashtra,21.1458,79.0882,24.9,49,0.0,973.0,8.1,18.4,99,61.7,48.2,0,5,7,0,2026-03-25T00:37:45.988810+05:30
Nashik,Maharashtra,19.9975,73.7898,24.5,57,0.0,945.7,8.15,25.9,76,51.1,39.1,0,5,7,0,2026-03-25T00:37:45.988816+05:30
Aurangabad,Maharashtra,19.8762,75.3433,25.9,47,0.0,944.1,8.7,23.4,63,47.5,32.6,4,5,7,0,2026-03-25T00:37:45.988822+05:30
Solapur,Maharashtra,17.6599,75.9064,26.4,60,0.0,957.7,8.85,44.3,92,43.1,37.8,4,5,7,1,2026-03-25T00:37:45.988829+05:30
Kolhapur,Maharashtra,16.705,74.2433,22.1,92,0.0,948.2,8.8,31.0,120,56.0,49.0,3,5,7,1,2026-03-25T00:37:45.988835+05:30
Goa,Goa,15.2993,74.124,28.0,84,0.0,998.2,8.95,27.0,98,58.1,46.0,7,5,7,1,2026-03-25T00:37:45.988842+05:30
Jodhpur,Rajasthan,26.2389,73.0243,27.3,37,0.0,983.4,7.45,29.9,59,31.7,20.1,4,5,7,0,2026-03-25T00:37:45.988847+05:30
Udaipur,Rajasthan,24.5854,73.7125,24.1,45,0.0,947.1,7.55,23.4,58,46.1,20.1,0,5,7,0,2026-03-25T00:37:45.988853+05:30
Kota,Rajasthan,25.2138,75.8648,26.2,53,0.0,979.4,7.7,22.7,105,68.0,33.1,4,5,7,0,2026-03-25T00:37:45.988859+05:30
Bikaner,Rajasthan,28.0229,73.3119,25.5,37,0.0,982.7,6.15,23.4,65,29.6,16.9,4,5,7,0,2026-03-25T00:37:45.988865+05:30
Ajmer,Rajasthan,26.4499,74.6399,24.0,53,0.0,955.1,7.5,32.8,85,40.3,18.1,0,5,7,0,2026-03-25T00:37:45.988871+05:30
Gwalior,Madhya Pradesh,26.2183,78.1828,24.6,55,0.0,984.7,7.25,22.0,113,390.2,64.7,0,5,7,0,2026-03-25T00:37:45.988876+05:30
Indore,Madhya Pradesh,22.7196,75.8577,23.0,57,0.0,947.9,8.15,23.0,62,48.3,38.0,0,5,7,0,2026-03-25T00:37:45.988882+05:30
Bhopal,Madhya Pradesh,23.2599,77.4126,24.6,49,0.0,953.5,8.0,23.8,76,43.1,27.1,0,5,7,0,2026-03-25T00:37:45.988888+05:30
Jabalpur,Madhya Pradesh,23.1815,79.9864,25.6,52,0.0,961.5,8.1,22.3,82,45.1,24.8,4,5,7,0,2026-03-25T00:37:45.988893+05:30
Ujjain,Madhya Pradesh,23.1765,75.7885,22.7,65,0.0,953.5,8.05,21.6,70,63.1,51.6,3,5,7,0,2026-03-25T00:37:45.988899+05:30
Visakhapatnam,Andhra Pradesh,17.6868,83.2185,25.7,85,0.0,1005.6,8.9,36.4,84,22.9,15.9,7,5,4,1,2026-03-25T00:37:45.988905+05:30
Vijayawada,Andhra Pradesh,16.5062,80.648,24.7,88,0.0,1004.6,9.0,22.0,65,17.1,13.6,3,5,4,1,2026-03-25T00:37:45.988911+05:30
Guntur,Andhra Pradesh,16.3067,80.4365,24.6,91,0.0,1005.8,9.0,23.4,62,14.8,11.7,3,5,4,1,2026-03-25T00:37:45.988917+05:30
Nellore,Andhra Pradesh,14.4426,79.9865,25.8,85,0.0,1007.8,9.15,29.9,37,7.4,5.2,7,5,4,1,2026-03-25T00:37:45.988923+05:30
Kurnool,Andhra Pradesh,15.8281,78.0373,26.3,72,0.0,978.2,9.0,24.8,65,30.9,25.6,7,5,7,1,2026-03-25T00:37:45.988929+05:30
Kakinada,Andhra Pradesh,16.9891,82.2475,24.0,92,0.0,1009.5,8.95,27.7,49,17.9,10.8,3,0,4,1,2026-03-25T00:37:45.988935+05:30
Tirupati,Andhra Pradesh,13.6288,79.4192,24.0,83,0.0,993.7,9.25,29.5,62,16.4,14.6,3,5,7,1,2026-03-25T00:37:45.988941+05:30
Warangal,Telangana,17.9689,79.5941,26.2,76,0.0,979.8,8.85,25.9,85,30.2,27.5,7,5,7,1,2026-03-25T00:37:45.988946+05:30
Nizamabad,Telangana,18.6725,78.0941,26.6,61,0.0,965.4,8.75,30.6,100,47.0,41.3,7,5,7,1,2026-03-25T00:37:45.988952+05:30
Mysore,Karnataka,12.2958,76.6396,24.1,82,0.0,928.9,9.45,41.0,95,47.7,41.8,3,5,7,1,2026-03-25T00:37:45.988958+05:30
Mangalore,Karnataka,12.9141,74.856,29.2,80,0.0,1006.8,9.1,29.2,98,51.9,41.2,7,5,4,1,2026-03-25T00:37:45.988963+05:30
Hubli-Dharwad,Karnataka,15.3647,75.124,23.0,92,0.0,941.1,9.1,37.1,101,66.8,57.4,3,5,7,1,2026-03-25T00:37:45.988969+05:30
Belgaum,Karnataka,15.8497,74.4977,21.9,96,0.0,925.8,9.05,29.9,97,57.5,49.8,3,5,7,1,2026-03-25T00:37:49.336357+05:30
Coimbatore,Tamil Nadu,11.0168,76.9558,24.2,87,0.0,962.6,9.4,36.4,64,28.1,24.5,3,5,7,1,2026-03-25T00:37:49.336387+05:30
Madurai,Tamil Nadu,9.9252,78.1198,26.1,79,0.0,994.6,9.4,25.9,51,19.5,18.3,7,5,7,1,2026-03-25T00:37:49.336399+05:30
Trichy,Tamil Nadu,10.7905,78.7047,25.0,87,0.0,1001.2,9.3,23.0,52,15.3,13.9,7,5,4,1,2026-03-25T00:37:49.336408+05:30
Salem,Tamil Nadu,11.6643,78.146,25.9,80,0.0,978.3,9.35,32.0,80,26.2,24.4,7,5,7,1,2026-03-25T00:37:49.336416+05:30
Tirunelveli,Tamil Nadu,8.7139,77.7567,26.5,71,0.0,1004.5,9.35,38.9,47,21.7,19.6,7,5,4,1,2026-03-25T00:37:49.336424+05:30
Vellore,Tamil Nadu,12.9165,79.1325,24.3,81,0.0,986.4,9.3,32.4,60,24.6,22.8,3,5,7,1,2026-03-25T00:37:49.336431+05:30
Erode,Tamil Nadu,11.341,77.7172,26.6,81,0.0,990.3,9.35,24.8,57,12.1,10.9,7,5,7,1,2026-03-25T00:37:49.336439+05:30
Kochi,Kerala,9.9312,76.2673,28.0,81,0.0,1009.3,9.2,33.8,89,37.5,34.3,7,0,4,1,2026-03-25T00:37:49.336447+05:30
Thiruvananthapuram,Kerala,8.5241,76.9366,27.3,79,0.0,1008.7,9.2,28.1,89,28.1,19.2,7,0,4,1,2026-03-25T00:37:49.336455+05:30
Kozhikode,Kerala,11.2588,75.7804,29.4,79,0.0,1008.0,9.1,29.2,93,51.9,36.2,7,0,4,1,2026-03-25T00:37:49.336461+05:30
Thrissur,Kerala,10.5276,76.2144,27.5,85,0.0,1007.6,9.15,39.6,88,44.8,39.7,7,5,4,1,2026-03-25T00:37:49.336468+05:30
Kannur,Kerala,11.8745,75.3704,28.1,79,0.0,1007.3,9.1,30.2,93,51.1,42.1,7,5,4,1,2026-03-25T00:37:49.336474+05:30
Patna,Bihar,25.5941,85.1376,23.6,66,0.0,1001.3,7.7,33.1,156,67.1,47.8,3,5,4,1,2026-03-25T00:37:49.336480+05:30
Gaya,Bihar,24.7914,85.0002,23.9,61,0.0,995.1,8.05,23.4,126,96.9,64.7,3,5,7,0,2026-03-25T00:37:49.336486+05:30
Muzaffarpur,Bihar,26.1209,85.3647,22.3,70,0.0,1001.2,7.5,28.4,157,67.3,48.4,3,5,4,1,2026-03-25T00:37:49.336493+05:30
Bhagalpur,Bihar,25.2425,87.0117,23.6,67,0.0,1001.6,8.0,27.0,151,108.7,75.7,3,5,4,1,2026-03-25T00:37:49.336499+05:30
Ranchi,Jharkhand,23.3441,85.3096,22.2,58,0.0,938.2,8.4,28.4,98,61.2,46.7,0,5,7,0,2026-03-25T00:37:49.336505+05:30
Jamshedpur,Jharkhand,22.8046,86.2029,26.1,70,0.0,991.6,8.55,42.1,138,75.9,58.8,7,5,7,1,2026-03-25T00:37:49.336510+05:30
Dhanbad,Jharkhand,23.7957,86.4304,24.2,62,0.0,980.2,8.45,28.8,163,128.5,102.7,3,5,7,1,2026-03-25T00:37:49.336516+05:30
Bokaro,Jharkhand,23.6693,86.1511,24.5,68,0.0,984.5,8.4,26.6,155,113.9,89.9,3,5,7,1,2026-03-25T00:37:49.336523+05:30
Bhubaneswar,Odisha,20.2961,85.8245,25.7,83,0.0,1004.1,8.75,27.4,81,18.6,13.6,7,5,4,1,2026-03-25T00:37:49.336529+05:30
Cuttack,Odisha,20.4625,85.8828,25.7,82,0.0,1006.0,8.8,26.3,81,18.6,13.6,7,5,4,1,2026-03-25T00:37:49.336535+05:30
Rourkela,Odisha,22.2604,84.8536,25.0,78,0.0,985.3,8.25,19.8,125,66.1,51.2,7,5,7,1,2026-03-25T00:37:49.336540+05:30
Raipur,Chhattisgarh,21.2514,81.6296,25.9,59,0.0,974.2,7.95,36.4,117,58.6,52.6,4,5,7,1,2026-03-25T00:37:49.336546+05:30
Bhilai,Chhattisgarh,21.1938,81.3509,25.6,63,0.0,974.5,8.2,31.7,115,50.1,43.8,7,5,7,1,2026-03-25T00:37:49.336552+05:30
Guwahati,Assam,26.1158,91.7086,21.1,95,0.0,1003.0,7.8,35.3,114,46.1,39.7,3,5,4,1,2026-03-25T00:37:49.336558+05:30
Agartala,Tripura,23.8315,91.2868,21.6,87,0.0,1007.8,8.2,29.9,164,92.0,80.8,3,5,4,1,2026-03-25T00:37:49.336564+05:30
Shillong,Meghalaya,25.5788,91.8933,11.9,92,0.0,854.8,7.4,63.7,92,43.2,37.0,3,10,7,0,2026-03-25T00:37:49.336570+05:30
Imphal,Manipur,24.817,93.9368,15.0,86,0.0,923.4,8.45,68.8,108,65.7,60.1,3,10,7,0,2026-03-25T00:37:49.336576+05:30
Aizawl,Mizoram,23.7271,92.7176,14.6,77,0.0,892.1,8.4,38.2,123,63.3,53.9,3,5,7,0,2026-03-25T00:37:49.336582+05:30
Kohima,Nagaland,25.6701,94.1077,12.3,73,0.0,853.2,8.05,79.2,84,43.9,40.0,3,5,7,0,2026-03-25T00:37:49.336589+05:30
Gangtok,Sikkim,27.3314,88.6138,10.3,88,0.1,834.1,8.2,17.3,84,37.0,27.1,6,10,7,0,2026-03-25T00:37:49.336595+05:30
Siliguri,West Bengal,26.7271,88.3953,17.5,85,0.0,994.9,7.9,22.3,152,86.6,68.9,3,10,7,0,2026-03-25T00:37:52.686192+05:30
Durgapur,West Bengal,23.5204,87.3119,24.7,84,0.0,995.9,8.35,27.7,156,81.7,67.1,3,5,7,1,2026-03-25T00:37:52.686219+05:30
Asansol,West Bengal,23.6739,86.9524,25.3,81,0.0,994.4,8.4,23.0,155,85.4,65.2,7,5,7,1,2026-03-25T00:37:52.686230+05:30
Pondicherry,Puducherry,11.9139,79.8145,24.9,88,0.0,1010.0,9.2,30.6,34,8.7,5.8,3,0,4,1,2026-03-25T00:37:52.686237+05:30
Port Blair,Andaman and Nicobar Islands,11.6234,92.7265,27.7,74,0.0,1007.0,9.15,23.4,68,19.9,14.6,7,5,4,1,2026-03-25T00:37:52.686245+05:30
Haridwar,Uttarakhand,29.9457,78.1642,16.8,88,0.0,975.6,6.3,27.7,96,50.9,46.4,3,10,7,0,2026-03-25T00:37:52.686252+05:30
Rishikesh,Uttarakhand,30.0869,78.2676,17.8,75,0.0,968.2,6.3,25.6,89,38.0,34.0,3,5,7,0,2026-03-25T00:37:52.686260+05:30
Nainital,Uttarakhand,29.3919,79.4542,14.3,66,0.0,804.5,7.3,43.2,90,30.9,28.2,3,5,7,0,2026-03-25T00:37:52.686267+05:30
Mussoorie,Uttarakhand,30.4599,78.0664,12.3,72,0.0,800.7,6.85,25.9,75,42.1,38.4,3,5,7,0,2026-03-25T00:37:52.686274+05:30
Dharamshala,Himachal Pradesh,32.219,76.3234,16.1,53,0.0,868.6,6.7,21.2,85,19.3,12.0,0,5,7,0,2026-03-25T00:37:52.686281+05:30
Dalhousie,Himachal Pradesh,32.5387,75.971,11.9,67,0.0,801.7,7.15,20.9,66,37.4,34.1,3,5,7,0,2026-03-25T00:37:52.686288+05:30
Patiala,Punjab,30.3398,76.3869,18.2,79,0.0,980.0,6.4,24.8,158,81.3,50.8,3,5,7,0,2026-03-25T00:37:52.686294+05:30
Bhatinda,Punjab,30.211,74.9455,21.0,68,0.0,985.9,6.0,20.5,132,113.4,65.4,3,5,3,0,2026-03-25T00:37:52.686301+05:30
Rohtak,Haryana,28.8955,76.6066,20.2,70,0.0,983.7,6.5,20.5,332,879.2,147.6,3,5,7,0,2026-03-25T00:37:52.686307+05:30
Panipat,Haryana,29.3909,76.9635,18.9,75,0.0,982.3,6.4,25.9,535,821.4,134.6,3,5,7,0,2026-03-25T00:37:52.686314+05:30
Mathura,Uttar Pradesh,27.4924,77.6737,20.2,71,0.0,988.7,6.85,18.0,320,763.7,124.8,3,5,7,0,2026-03-25T00:37:52.686321+05:30
Vrindavan,Uttar Pradesh,27.5823,77.7027,20.4,70,0.0,989.1,6.8,19.1,320,763.7,124.8,3,5,7,0,2026-03-25T00:37:52.686327+05:30
Ayodhya,Uttar Pradesh,26.7922,82.1998,21.9,68,0.0,996.7,7.25,34.2,101,137.8,44.6,3,5,7,0,2026-03-25T00:37:52.686333+05:30
Ratlam,Madhya Pradesh,23.3315,75.0367,25.2,53,0.0,954.5,8.05,24.1,61,50.3,36.8,4,5,7,0,2026-03-25T00:37:52.686339+05:30
Sagar,Madhya Pradesh,23.8388,78.7378,25.8,43,0.0,950.8,7.95,26.3,75,46.1,20.7,4,5,7,0,2026-03-25T00:37:52.686345+05:30
Satna,Madhya Pradesh,24.6005,80.8322,24.2,52,0.0,972.8,7.85,24.5,83,89.9,28.2,0,5,7,0,2026-03-25T00:37:52.686351+05:30
Akola,Maharashtra,20.7002,77.0082,26.2,54,0.0,974.9,8.45,24.1,75,27.8,19.2,4,5,7,1,2026-03-25T00:37:52.686358+05:30
Amravati,Maharashtra,20.9374,77.7796,26.3,56,0.0,967.1,8.2,24.5,84,27.5,18.7,4,5,7,1,2026-03-25T00:37:52.686365+05:30
Latur,Maharashtra,18.4088,76.5604,23.7,72,0.0,940.3,8.75,19.1,103,53.6,47.0,3,5,7,1,2026-03-25T00:37:52.686371+05:30
Nanded,Maharashtra,19.1383,77.3091,26.4,65,0.0,969.2,8.65,20.9,89,46.0,41.1,7,5,7,1,2026-03-25T00:37:52.686377+05:30
Gulbarga,Karnataka,17.3297,76.8343,24.7,74,0.0,959.8,8.85,38.9,100,35.5,31.1,3,5,7,1,2026-03-25T00:37:52.686383+05:30
Bidar,Karnataka,17.9104,77.5199,24.0,72,0.0,936.3,8.85,31.0,98,46.7,40.7,3,5,7,1,2026-03-25T00:37:52.686390+05:30
Hospet,Karnataka,15.2689,76.3909,25.4,80,0.0,957.1,9.1,24.1,99,48.7,42.1,7,5,7,1,2026-03-25T00:37:52.686395+05:30
Tirupur,Tamil Nadu,11.1085,77.3411,27.1,69,0.0,976.4,9.4,30.2,68,16.9,15.4,7,5,7,1,2026-03-25T00:37:52.686402+05:30
Alappuzha,Kerala,9.4981,76.3388,27.4,84,0.0,1009.7,9.15,28.1,83,41.4,32.8,7,0,4,1,2026-03-25T00:37:52.686408+05:30
Munnar,Kerala,10.0889,77.0595,21.7,81,0.0,857.4,9.65,32.4,65,30.7,27.4,3,5,7,1,2026-03-25T00:37:52.686415+05:30
Silchar,Assam,24.8333,92.7789,20.5,83,0.0,1006.4,8.15,31.7,156,107.1,96.9,3,5,4,1,2026-03-25T00:37:52.686421+05:30
Dibrugarh,Assam,27.4728,94.912,20.5,92,0.0,997.0,6.75,24.8,63,11.7,10.0,3,5,7,1,2026-03-25T00:37:52.686427+05:30
