city,state,latitude,longitude,temp,humidity,rain,pressure,uv_index,wind_gusts,aqi,pm10,pm2_5,mosquito_risk,arthritis_risk,migraine_risk,frizz_risk,updated_at
Delhi,Delhi,28.6139,77.209,23.1,65,0.0,986.9,5.85,32.8,287,614.7,112.5,3,5,3,1,2026-03-04T22:22:29.764710+05:30
Mumbai,Maharashtra,19.076,72.8777,29.1,62,0.0,1010.6,7.35,24.5,205,35.0,33.8,7,0,4,1,2026-03-04T22:22:29.764754+05:30
Bangalore,Karnataka,12.9716,77.5946,23.7,46,0.0,914.5,9.1,35.3,111,28.6,27.9,0,5,7,0,2026-03-04T22:22:29.764770+05:30
Hyderabad,Telangana,17.385,78.4867,25.3,56,0.0,956.4,8.4,25.6,121,37.8,35.6,4,5,7,0,2026-03-04T22:22:29.764780+05:30
Chennai,Tamil Nadu,13.0827,80.2707,25.5,86,0.0,1010.9,8.8,29.5,96,20.3,17.9,7,0,4,1,2026-03-04T22:22:29.764789+05:30
Kolkata,West Bengal,22.5726,88.3639,23.8,60,0.0,1008.7,7.75,18.7,167,136.9,102.7,0,0,4,0,2026-03-04T22:22:29.764798+05:30
Pune,Maharashtra,18.5204,73.8567,26.4,47,0.0,951.3,7.95,30.2,120,22.9,22.5,4,5,7,0,2026-03-04T22:22:29.764810+05:30
Ahmedabad,Gujarat,23.0225,72.5714,26.8,35,0.0,1006.1,7.2,19.8,79,30.2,27.3,4,5,4,0,2026-03-04T22:22:29.764818+05:30
Jaipur,Rajasthan,26.9124,75.7873,27.1,24,0.0,964.5,6.6,32.0,93,84.5,38.2,4,5,7,0,2026-03-04T22:22:29.764826+05:30
Lucknow,Uttar Pradesh,26.8467,80.9462,22.9,70,0.0,997.5,6.35,24.8,159,176.0,78.7,3,5,7,1,2026-03-04T22:22:29.764834+05:30
Kanpur,Uttar Pradesh,26.4499,80.3319,22.7,67,0.0,995.7,6.35,27.0,176,279.4,84.1,3,5,7,1,2026-03-04T22:22:29.764841+05:30
Chandigarh,Chandigarh,30.7333,76.7794,20.4,75,0.0,972.3,5.75,34.9,117,41.9,38.3,3,5,3,0,2026-03-04T22:22:29.764848+05:30
Srinagar,Jammu and Kashmir,34.0837,74.7973,9.5,80,0.0,843.7,6.15,14.8,149,122.9,94.8,3,5,7,0,2026-03-04T22:22:29.764855+05:30
Jammu,Jammu and Kashmir,32.7266,74.857,22.7,61,0.0,976.4,6.35,22.3,105,69.4,56.0,3,5,7,0,2026-03-04T22:22:29.764862+05:30
Amritsar,Punjab,31.634,74.8723,20.9,70,0.0,984.5,6.3,22.0,151,71.2,55.9,3,5,7,0,2026-03-04T22:22:29.764868+05:30
Ludhiana,Punjab,30.901,75.8573,22.7,74,0.0,982.9,5.95,28.8,154,103.6,75.2,3,5,3,1,2026-03-04T22:22:29.764874+05:30
Jalandhar,Punjab,31.326,75.5762,21.9,70,0.0,983.9,6.15,27.0,155,98.7,75.0,3,5,7,1,2026-03-04T22:22:29.764882+05:30
Dehradun,Uttarakhand,30.6284,78.0322,13.6,76,0.0,831.2,6.1,29.2,87,30.6,23.1,3,5,7,0,2026-03-04T22:22:29.764889+05:30
Shimla,Himachal Pradesh,31.1048,77.1734,14.4,45,0.0,787.2,6.15,50.4,90,34.2,24.9,0,5,7,0,2026-03-04T22:22:29.764896+05:30
Manali,Himachal Pradesh,32.2396,77.1887,18.2,28,0.0,824.3,7.75,32.8,92,29.5,16.6,0,5,7,1,2026-03-04T22:22:29.764904+05:30
Gurgaon,Haryana,28.4595,77.0266,20.2,76,0.0,985.4,5.95,31.0,1183,1411.9,185.3,3,5,3,0,2026-03-04T22:22:29.764912+05:30
Noida,Uttar Pradesh,28.5355,77.391,23.4,63,0.0,988.4,5.85,32.0,1183,1411.9,185.3,3,5,3,0,2026-03-04T22:22:29.764919+05:30
Ghaziabad,Uttar Pradesh,28.6692,77.4538,22.8,68,0.0,986.5,5.8,29.5,193,556.9,107.6,3,5,3,1,2026-03-04T22:22:29.764926+05:30
Faridabad,Haryana,28.4089,77.3178,23.4,57,0.0,987.7,5.9,29.9,1183,1411.9,185.3,0,5,3,0,2026-03-04T22:22:29.764932+05:30
Meerut,Uttar Pradesh,28.9845,77.7064,20.9,78,0.0,985.1,5.7,32.0,193,556.9,107.6,3,5,3,1,2026-03-04T22:22:29.764938+05:30
Agra,Uttar Pradesh,27.1767,78.0081,21.6,61,0.0,991.5,6.2,32.8,424,622.1,96.6,3,5,7,0,2026-03-04T22:22:29.764944+05:30
Varanasi,Uttar Pradesh,25.3176,82.9739,21.5,76,0.0,1001.3,7.0,18.4,153,173.7,88.5,3,5,4,1,2026-03-04T22:22:29.764953+05:30
Prayagraj,Uttar Pradesh,25.4358,81.8463,23.2,65,0.0,999.8,6.85,23.4,154,111.8,67.3,3,5,7,1,2026-03-04T22:22:29.764960+05:30
Gorakhpur,Uttar Pradesh,26.7606,83.3732,21.7,72,0.0,1000.9,6.7,12.2,166,165.8,124.3,3,5,4,1,2026-03-04T22:22:29.764966+05:30
Bareilly,Uttar Pradesh,28.367,79.4304,20.5,78,0.0,990.6,6.05,20.5,162,105.0,86.1,3,5,7,1,2026-03-04T22:22:29.764972+05:30
Aligarh,Uttar Pradesh,27.8974,78.088,20.9,68,0.0,989.3,5.95,28.8,612,929.5,156.9,3,5,3,0,2026-03-04T22:22:29.764979+05:30
Moradabad,Uttar Pradesh,28.8386,78.7733,20.4,81,0.0,987.4,5.85,23.4,158,223.5,97.3,3,5,3,1,2026-03-04T22:22:29.764987+05:30
Saharanpur,Uttar Pradesh,29.9637,77.546,20.3,81,0.0,979.1,5.5,39.2,151,158.8,63.1,3,5,3,1,2026-03-04T22:22:29.764993+05:30
Jhansi,Uttar Pradesh,25.4484,78.5685,24.6,44,0.0,982.0,6.8,31.7,63,35.9,27.1,0,5,7,0,2026-03-04T22:22:32.977061+05:30
Surat,Gujarat,21.1702,72.8311,27.1,47,0.0,1009.6,7.05,27.7,141,48.0,45.1,4,0,4,0,2026-03-04T22:22:32.977089+05:30
Vadodara,Gujarat,22.3072,73.1812,27.1,55,0.0,1007.9,7.2,18.7,144,48.8,44.7,4,5,4,1,2026-03-04T22:22:32.977099+05:30
Rajkot,Gujarat,22.3039,70.8022,26.2,46,0.0,998.9,7.0,25.9,105,26.6,25.4,4,5,7,0,2026-03-04T22:22:32.977106+05:30
Thane,Maharashtra,19.2183,72.9781,28.6,46,0.0,1010.0,7.35,35.3,205,35.0,33.8,4,0,4,0,2026-03-04T22:22:32.977112+05:30
Nagpur,Maharashtra,21.1458,79.0882,26.0,47,0.0,976.5,7.75,23.0,73,41.2,36.3,4,5,7,0,2026-03-04T22:22:32.977119+05:30
Nashik,Maharashtra,19.9975,73.7898,25.3,44,0.0,948.7,7.55,23.4,116,29.7,29.0,4,5,7,0,2026-03-04T22:22:32.977126+05:30
Aurangabad,Maharashtra,19.8762,75.3433,25.2,41,0.0,947.0,8.05,22.7,128,31.1,30.5,4,5,7,0,2026-03-04T22:22:32.977132+05:30
Solapur,Maharashtra,17.6599,75.9064,26.0,54,0.0,959.5,8.3,18.0,129,22.2,21.3,4,5,7,0,2026-03-04T22:22:32.977139+05:30
Kolhapur,Maharashtra,16.705,74.2433,23.5,70,0.0,950.7,8.45,37.8,155,58.8,58.2,3,5,7,1,2026-03-04T22:22:32.977146+05:30
Goa,Goa,15.2993,74.124,27.6,86,0.0,1001.0,8.5,35.6,116,48.2,43.4,7,5,4,1,2026-03-04T22:22:32.977152+05:30
Jodhpur,Rajasthan,26.2389,73.0243,26.4,39,0.0,987.7,6.9,18.0,82,78.0,33.2,4,5,7,0,2026-03-04T22:22:32.977158+05:30
Udaipur,Rajasthan,24.5854,73.7125,23.0,43,0.0,951.4,7.5,23.8,82,32.5,20.6,0,5,7,0,2026-03-04T22:22:32.977164+05:30
Kota,Rajasthan,25.2138,75.8648,25.3,45,0.0,983.3,6.9,17.6,82,53.7,37.4,4,5,7,0,2026-03-04T22:22:32.977171+05:30
Bikaner,Rajasthan,28.0229,73.3119,26.0,38,0.0,986.8,6.55,23.8,67,56.9,20.7,4,5,7,0,2026-03-04T22:22:32.977177+05:30
Ajmer,Rajasthan,26.4499,74.6399,24.8,35,0.0,959.2,6.85,23.4,71,64.0,27.5,0,5,7,0,2026-03-04T22:22:32.977183+05:30
Gwalior,Madhya Pradesh,26.2183,78.1828,23.7,55,0.0,987.2,6.5,29.2,80,70.3,33.6,0,5,7,0,2026-03-04T22:22:32.977189+05:30
Indore,Madhya Pradesh,22.7196,75.8577,23.5,50,0.0,951.8,7.45,20.5,80,38.0,31.2,0,5,7,0,2026-03-04T22:22:32.977194+05:30
Bhopal,Madhya Pradesh,23.2599,77.4126,22.7,43,0.0,957.7,7.3,23.0,68,26.7,22.2,0,5,7,0,2026-03-04T22:22:32.977201+05:30
Jabalpur,Madhya Pradesh,23.1815,79.9864,24.5,39,0.0,965.1,7.45,23.4,68,26.6,18.7,0,5,7,0,2026-03-04T22:22:32.977207+05:30
Ujjain,Madhya Pradesh,23.1765,75.7885,24.0,45,0.0,957.7,7.35,19.4,106,59.0,50.2,0,5,7,0,2026-03-04T22:22:32.977213+05:30
Visakhapatnam,Andhra Pradesh,17.6868,83.2185,25.0,81,0.0,1006.5,8.4,36.7,131,33.2,29.6,7,5,4,1,2026-03-04T22:22:32.977220+05:30
Vijayawada,Andhra Pradesh,16.5062,80.648,25.4,74,0.0,1005.8,8.45,22.3,123,31.3,30.0,7,5,4,1,2026-03-04T22:22:32.977225+05:30
Guntur,Andhra Pradesh,16.3067,80.4365,25.3,80,0.0,1007.2,8.45,25.2,111,34.9,33.8,7,5,4,1,2026-03-04T22:22:32.977231+05:30
Nellore,Andhra Pradesh,14.4426,79.9865,25.0,88,0.0,1009.3,8.65,29.9,101,16.2,14.1,7,0,4,1,2026-03-04T22:22:32.977238+05:30
Kurnool,Andhra Pradesh,15.8281,78.0373,29.7,42,0.0,979.7,8.45,27.0,116,17.9,17.3,4,5,7,0,2026-03-04T22:22:32.977245+05:30
Kakinada,Andhra Pradesh,16.9891,82.2475,23.9,86,0.0,1010.4,8.4,33.8,98,30.2,26.2,3,0,4,1,2026-03-04T22:22:32.977251+05:30
Tirupati,Andhra Pradesh,13.6288,79.4192,25.6,53,0.0,995.4,8.8,34.6,137,40.7,39.8,4,5,7,0,2026-03-04T22:22:32.977257+05:30
Warangal,Telangana,17.9689,79.5941,27.6,44,0.0,981.4,8.2,20.5,118,35.6,33.6,4,5,7,0,2026-03-04T22:22:32.977263+05:30
Nizamabad,Telangana,18.6725,78.0941,24.0,56,0.0,967.6,8.1,26.3,113,36.2,33.5,0,5,7,0,2026-03-04T22:22:32.977268+05:30
Mysore,Karnataka,12.2958,76.6396,24.5,40,0.0,930.9,9.15,40.3,102,32.5,31.5,0,5,7,0,2026-03-04T22:22:32.977274+05:30
Mangalore,Karnataka,12.9141,74.856,28.7,81,0.0,1010.1,8.75,29.2,93,40.0,34.9,7,0,4,1,2026-03-04T22:22:32.977280+05:30
Hubli-Dharwad,Karnataka,15.3647,75.124,24.7,65,0.0,943.5,8.65,25.6,150,23.2,22.8,3,5,7,1,2026-03-04T22:22:32.977286+05:30
Belgaum,Karnataka,15.8497,74.4977,23.7,79,0.0,928.5,8.7,32.4,149,44.7,43.9,3,5,7,1,2026-03-04T22:22:36.202709+05:30
Coimbatore,Tamil Nadu,11.0168,76.9558,22.7,66,0.0,965.0,9.15,43.2,122,41.6,40.5,3,5,7,0,2026-03-04T22:22:36.202742+05:30
Madurai,Tamil Nadu,9.9252,78.1198,26.2,72,0.0,996.9,9.1,25.9,89,26.4,25.8,7,5,7,1,2026-03-04T22:22:36.202753+05:30
Trichy,Tamil Nadu,10.7905,78.7047,25.3,81,0.0,1003.5,9.0,31.0,94,21.9,21.0,7,5,4,1,2026-03-04T22:22:36.202764+05:30
Salem,Tamil Nadu,11.6643,78.146,26.3,51,0.0,980.5,9.0,37.8,103,25.0,24.4,4,5,7,0,2026-03-04T22:22:36.202773+05:30
Tirunelveli,Tamil Nadu,8.7139,77.7567,25.9,80,0.0,1006.9,9.15,36.0,80,20.0,19.0,7,5,4,1,2026-03-04T22:22:36.202782+05:30
Vellore,Tamil Nadu,12.9165,79.1325,24.9,61,0.0,988.5,8.85,38.9,125,35.2,34.3,3,5,7,1,2026-03-04T22:22:36.202790+05:30
Erode,Tamil Nadu,11.341,77.7172,27.6,51,0.0,992.1,9.05,29.9,119,30.7,30.2,4,5,7,1,2026-03-04T22:22:36.202799+05:30
Kochi,Kerala,9.9312,76.2673,27.9,80,0.0,1012.2,8.95,34.6,100,48.1,46.9,7,0,4,1,2026-03-04T22:22:36.202807+05:30
Thiruvananthapuram,Kerala,8.5241,76.9366,27.7,78,0.0,1011.2,9.0,27.4,124,22.3,19.8,7,0,4,1,2026-03-04T22:22:36.202816+05:30
Kozhikode,Kerala,11.2588,75.7804,28.8,80,0.0,1011.2,8.85,31.0,93,34.8,30.0,7,0,4,1,2026-03-04T22:22:36.202824+05:30
Thrissur,Kerala,10.5276,76.2144,26.9,88,0.0,1010.5,8.9,37.8,115,35.6,33.8,7,0,4,1,2026-03-04T22:22:36.202833+05:30
Kannur,Kerala,11.8745,75.3704,28.4,79,0.0,1010.5,8.8,33.5,88,41.3,35.4,7,0,4,1,2026-03-04T22:22:36.202841+05:30
Patna,Bihar,25.5941,85.1376,24.2,63,0.0,1004.0,7.2,15.5,168,141.1,108.7,3,5,4,1,2026-03-04T22:22:36.202849+05:30
Gaya,Bihar,24.7914,85.0002,20.9,70,0.0,997.5,7.25,17.6,152,139.7,85.7,3,5,7,0,2026-03-04T22:22:36.202856+05:30
Muzaffarpur,Bihar,26.1209,85.3647,21.8,68,0.0,1004.0,7.15,14.0,168,132.2,104.8,3,5,4,0,2026-03-04T22:22:36.202864+05:30
Bhagalpur,Bihar,25.2425,87.0117,22.6,64,0.0,1004.9,7.2,8.3,163,121.5,89.4,3,5,4,0,2026-03-04T22:22:36.202871+05:30
Ranchi,Jharkhand,23.3441,85.3096,21.0,45,0.0,940.4,7.9,30.6,101,115.5,40.3,0,5,7,0,2026-03-04T22:22:36.202878+05:30
Jamshedpur,Jharkhand,22.8046,86.2029,23.2,60,0.0,993.9,7.85,19.1,140,141.6,72.6,0,5,7,0,2026-03-04T22:22:36.202885+05:30
Dhanbad,Jharkhand,23.7957,86.4304,24.4,41,0.0,983.0,7.7,23.4,150,106.9,66.4,0,5,7,0,2026-03-04T22:22:36.202893+05:30
Bokaro,Jharkhand,23.6693,86.1511,23.5,48,0.0,987.4,7.7,23.8,152,131.3,67.5,0,5,7,0,2026-03-04T22:22:36.202900+05:30
Bhubaneswar,Odisha,20.2961,85.8245,25.1,85,0.0,1004.6,8.15,27.0,155,73.6,64.5,7,5,4,1,2026-03-04T22:22:36.202908+05:30
Cuttack,Odisha,20.4625,85.8828,25.0,75,0.0,1006.8,8.15,27.0,155,73.6,64.5,7,5,4,1,2026-03-04T22:22:36.202915+05:30
Rourkela,Odisha,22.2604,84.8536,26.2,45,0.0,988.2,7.75,21.2,104,69.2,45.3,4,5,7,0,2026-03-04T22:22:36.202922+05:30
Raipur,Chhattisgarh,21.2514,81.6296,25.5,44,0.0,977.5,7.8,19.8,127,68.9,58.3,4,5,7,0,2026-03-04T22:22:36.202929+05:30
Bhilai,Chhattisgarh,21.1938,81.3509,24.4,52,0.0,977.9,7.8,16.9,113,68.2,58.1,0,5,7,0,2026-03-04T22:22:36.202937+05:30
Guwahati,Assam,26.1158,91.7086,22.7,75,0.0,1004.7,7.1,18.4,148,61.2,55.6,3,5,4,1,2026-03-04T22:22:36.202944+05:30
Agartala,Tripura,23.8315,91.2868,21.5,68,0.0,1009.0,7.5,20.9,163,106.6,83.4,3,0,4,0,2026-03-04T22:22:36.202952+05:30
Shillong,Meghalaya,25.5788,91.8933,11.4,93,0.0,857.2,7.5,29.9,130,52.3,46.6,3,10,7,0,2026-03-04T22:22:36.202960+05:30
Imphal,Manipur,24.817,93.9368,15.6,72,0.0,924.8,7.7,21.2,136,73.6,66.8,3,5,7,0,2026-03-04T22:22:36.202968+05:30
Aizawl,Mizoram,23.7271,92.7176,15.7,70,0.0,893.4,7.7,22.0,160,111.5,98.3,3,5,7,0,2026-03-04T22:22:36.202975+05:30
Kohima,Nagaland,25.6701,94.1077,13.9,75,0.0,855.9,7.55,38.5,150,82.4,73.1,3,5,7,0,2026-03-04T22:22:36.202982+05:30
Gangtok,Sikkim,27.3314,88.6138,12.8,80,0.0,839.0,7.45,22.7,132,69.2,58.8,3,5,7,0,2026-03-04T22:22:36.202989+05:30
Siliguri,West Bengal,26.7271,88.3953,21.4,69,0.0,997.6,7.1,19.8,156,84.1,68.5,3,5,7,0,2026-03-04T22:22:39.416381+05:30
Durgapur,West Bengal,23.5204,87.3119,24.5,45,0.0,998.2,7.7,20.5,131,94.5,66.8,0,5,7,0,2026-03-04T22:22:39.416411+05:30
Asansol,West Bengal,23.6739,86.9524,24.7,44,0.0,996.8,7.7,20.9,117,77.3,51.9,0,5,7,0,2026-03-04T22:22:39.416420+05:30
Pondicherry,Puducherry,11.9139,79.8145,23.8,92,0.0,1012.3,8.85,29.2,86,21.1,17.8,3,0,4,1,2026-03-04T22:22:39.416428+05:30
Port Blair,Andaman and Nicobar Islands,11.6234,92.7265,27.4,73,0.0,1008.6,8.8,25.6,99,38.0,32.8,7,0,4,1,2026-03-04T22:22:39.416435+05:30
Haridwar,Uttarakhand,29.9457,78.1642,20.5,78,0.0,977.9,5.6,19.8,141,121.5,62.2,3,5,3,1,2026-03-04T22:22:39.416441+05:30
Rishikesh,Uttarakhand,30.0869,78.2676,19.6,72,0.0,970.6,5.65,22.7,162,55.3,43.3,3,5,3,0,2026-03-04T22:22:39.416448+05:30
Nainital,Uttarakhand,29.3919,79.4542,16.3,64,0.0,807.8,6.45,57.2,162,85.4,64.0,3,5,7,0,2026-03-04T22:22:39.416454+05:30
Mussoorie,Uttarakhand,30.4599,78.0664,15.5,64,0.0,804.4,6.0,35.6,159,64.7,48.7,3,5,3,0,2026-03-04T22:22:39.416460+05:30
Dharamshala,Himachal Pradesh,32.219,76.3234,22.0,38,0.0,873.1,6.25,27.7,95,30.4,20.0,0,5,7,0,2026-03-04T22:22:39.416466+05:30
Dalhousie,Himachal Pradesh,32.5387,75.971,17.6,50,0.0,807.0,6.45,22.0,103,56.2,47.5,0,5,7,0,2026-03-04T22:22:39.416473+05:30
Patiala,Punjab,30.3398,76.3869,21.1,82,0.0,982.0,5.65,30.6,181,391.2,88.5,3,5,3,1,2026-03-04T22:22:39.416479+05:30
Bhatinda,Punjab,30.211,74.9455,22.3,73,0.0,987.7,6.3,22.7,151,63.6,41.7,3,5,7,1,2026-03-04T22:22:39.416485+05:30
Rohtak,Haryana,28.8955,76.6066,20.9,76,0.0,985.7,5.85,31.0,408,726.4,117.6,3,5,3,1,2026-03-04T22:22:39.416491+05:30
Panipat,Haryana,29.3909,76.9635,20.7,83,0.0,984.1,5.65,31.0,933,1307.6,174.2,3,5,3,1,2026-03-04T22:22:39.416497+05:30
Mathura,Uttar Pradesh,27.4924,77.6737,24.9,48,0.0,990.7,6.1,29.9,488,644.5,101.7,0,5,7,0,2026-03-04T22:22:39.416502+05:30
Vrindavan,Uttar Pradesh,27.5823,77.7027,21.7,62,0.0,991.0,6.1,31.7,488,644.5,101.7,3,5,7,0,2026-03-04T22:22:39.416508+05:30
Ayodhya,Uttar Pradesh,26.7922,82.1998,22.8,68,0.0,999.0,6.5,9.7,165,247.7,115.3,3,5,7,1,2026-03-04T22:22:39.416514+05:30
Ratlam,Madhya Pradesh,23.3315,75.0367,24.7,52,0.0,958.5,7.3,21.2,104,41.7,34.1,0,5,7,0,2026-03-04T22:22:39.416520+05:30
Sagar,Madhya Pradesh,23.8388,78.7378,25.2,33,0.0,954.0,7.25,25.6,80,24.6,17.9,4,5,7,0,2026-03-04T22:22:39.416526+05:30
Satna,Madhya Pradesh,24.6005,80.8322,23.4,47,0.0,975.1,7.25,34.9,104,45.2,29.9,0,5,7,0,2026-03-04T22:22:39.416531+05:30
Akola,Maharashtra,20.7002,77.0082,25.9,43,0.0,978.2,7.8,17.3,101,38.5,35.3,4,5,7,0,2026-03-04T22:22:39.416538+05:30
Amravati,Maharashtra,20.9374,77.7796,25.4,57,0.0,970.3,7.75,16.2,102,40.4,36.1,4,5,7,1,2026-03-04T22:22:39.416545+05:30
Latur,Maharashtra,18.4088,76.5604,25.2,49,0.0,942.6,8.25,19.8,129,36.8,34.2,4,5,7,0,2026-03-04T22:22:39.416551+05:30
Nanded,Maharashtra,19.1383,77.3091,26.0,55,0.0,971.4,8.0,13.0,105,28.8,26.9,4,5,7,1,2026-03-04T22:22:39.416557+05:30
Gulbarga,Karnataka,17.3297,76.8343,27.7,40,0.0,961.4,8.35,23.0,135,20.0,18.8,4,5,7,0,2026-03-04T22:22:39.416563+05:30
Bidar,Karnataka,17.9104,77.5199,25.0,47,0.0,938.2,8.3,25.9,117,39.7,36.6,4,5,7,0,2026-03-04T22:22:39.416568+05:30
Hospet,Karnataka,15.2689,76.3909,28.7,37,0.0,958.5,8.6,25.9,158,32.6,31.8,4,5,7,0,2026-03-04T22:22:39.416574+05:30
Tirupur,Tamil Nadu,11.1085,77.3411,27.5,42,0.0,978.5,9.15,32.4,139,46.1,45.1,4,5,7,0,2026-03-04T22:22:39.416579+05:30
Alappuzha,Kerala,9.4981,76.3388,27.9,78,0.0,1012.3,8.95,30.2,102,38.5,36.3,7,0,4,1,2026-03-04T22:22:39.416585+05:30
Munnar,Kerala,10.0889,77.0595,19.6,77,0.0,858.8,9.45,24.5,78,31.5,31.1,3,5,7,0,2026-03-04T22:22:39.416591+05:30
Silchar,Assam,24.8333,92.7789,24.4,61,0.0,1007.4,7.45,14.4,151,87.8,77.8,3,5,4,1,2026-03-04T22:22:39.416597+05:30
Dibrugarh,Assam,27.4728,94.912,23.2,78,0.0,997.7,7.15,9.0,128,64.7,57.4,3,5,7,1,2026-03-04T22:22:39.416602+05:30
