city,state,latitude,longitude,temp,humidity,rain,pressure,uv_index,wind_gusts,aqi,pm10,pm2_5,mosquito_risk,arthritis_risk,migraine_risk,frizz_risk,updated_at
Delhi,Delhi,28.6139,77.209,27.1,34,0.0,980.0,7.3,22.7,228,523.4,108.5,4,5,7,0,2026-04-16T04:15:06.604053+05:30
Mumbai,Maharashtra,19.076,72.8777,28.1,81,0.0,1006.0,8.0,20.2,82,40.6,23.7,7,5,4,1,2026-04-16T04:15:06.604112+05:30
Bangalore,Karnataka,12.9716,77.5946,24.4,58,0.0,909.5,9.6,32.4,72,28.8,24.4,0,5,7,0,2026-04-16T04:15:06.604128+05:30
Hyderabad,Telangana,17.385,78.4867,27.8,64,0.0,950.4,9.25,27.7,88,29.0,25.3,7,5,7,1,2026-04-16T04:15:06.604139+05:30
Chennai,Tamil Nadu,13.0827,80.2707,28.4,88,0.0,1004.7,9.35,32.8,30,9.1,6.3,7,5,4,1,2026-04-16T04:15:06.604149+05:30
Kolkata,West Bengal,22.5726,88.3639,27.6,89,0.0,1003.5,8.9,34.9,90,29.7,22.3,7,5,4,1,2026-04-16T04:15:06.604159+05:30
Pune,Maharashtra,18.5204,73.8567,20.7,56,0.0,945.5,8.6,41.0,69,28.3,21.3,0,5,7,0,2026-04-16T04:15:06.604171+05:30
Ahmedabad,Gujarat,23.0225,72.5714,26.4,42,0.0,998.6,7.7,16.2,87,33.3,16.1,4,5,7,0,2026-04-16T04:15:06.604180+05:30
Jaipur,Rajasthan,26.9124,75.7873,27.2,27,0.0,956.6,7.95,29.5,165,155.1,29.2,4,5,7,0,2026-04-16T04:15:06.604189+05:30
Lucknow,Uttar Pradesh,26.8467,80.9462,24.7,41,0.0,990.7,7.85,21.2,103,200.2,41.1,0,5,7,0,2026-04-16T04:15:06.604197+05:30
Kanpur,Uttar Pradesh,26.4499,80.3319,23.6,57,0.0,988.8,7.85,20.2,138,219.8,40.7,0,5,7,0,2026-04-16T04:15:06.604206+05:30
Chandigarh,Chandigarh,30.7333,76.7794,20.0,56,0.0,965.8,7.2,21.2,45,11.9,11.6,0,5,7,0,2026-04-16T04:15:06.604215+05:30
Srinagar,Jammu and Kashmir,34.0837,74.7973,9.6,63,0.0,837.3,7.3,25.2,70,31.1,24.9,3,5,7,0,2026-04-16T04:15:06.604222+05:30
Jammu,Jammu and Kashmir,32.7266,74.857,19.0,67,0.0,969.6,7.3,29.5,61,17.5,17.2,3,5,7,0,2026-04-16T04:15:06.604231+05:30
Amritsar,Punjab,31.634,74.8723,20.4,71,0.0,977.5,7.45,26.3,83,38.4,36.1,3,5,7,0,2026-04-16T04:15:06.604239+05:30
Ludhiana,Punjab,30.901,75.8573,21.8,56,0.0,975.9,7.4,18.4,71,41.8,40.3,0,5,7,0,2026-04-16T04:15:06.604246+05:30
Jalandhar,Punjab,31.326,75.5762,20.0,62,0.0,976.8,7.3,22.7,63,30.6,29.5,3,5,7,0,2026-04-16T04:15:06.604255+05:30
Dehradun,Uttarakhand,30.6284,78.0322,14.1,59,0.0,827.6,7.35,34.6,49,8.1,7.9,0,5,7,0,2026-04-16T04:15:06.604263+05:30
Shimla,Himachal Pradesh,31.1048,77.1734,11.5,67,0.0,781.2,7.4,42.5,63,11.8,11.5,3,5,7,0,2026-04-16T04:15:06.604270+05:30
Manali,Himachal Pradesh,32.2396,77.1887,15.0,51,0.0,818.4,8.65,31.7,68,14.6,12.5,0,5,7,0,2026-04-16T04:15:06.604278+05:30
Gurgaon,Haryana,28.4595,77.0266,23.5,48,0.0,978.3,7.4,19.1,637,668.7,121.1,0,5,7,0,2026-04-16T04:15:06.604286+05:30
Noida,Uttar Pradesh,28.5355,77.391,26.1,38,0.0,981.5,7.35,26.6,637,668.7,121.1,4,5,7,0,2026-04-16T04:15:06.604308+05:30
Ghaziabad,Uttar Pradesh,28.6692,77.4538,24.4,42,0.0,979.6,7.35,20.2,143,242.1,64.7,0,5,7,0,2026-04-16T04:15:06.604315+05:30
Faridabad,Haryana,28.4089,77.3178,24.9,41,0.0,980.8,7.4,23.4,637,668.7,121.1,0,5,7,0,2026-04-16T04:15:06.604323+05:30
Meerut,Uttar Pradesh,28.9845,77.7064,22.4,49,0.0,978.3,7.25,25.9,143,242.1,64.7,0,5,7,0,2026-04-16T04:15:06.604330+05:30
Agra,Uttar Pradesh,27.1767,78.0081,23.6,39,0.0,984.6,7.75,19.1,348,631.4,96.6,0,5,7,0,2026-04-16T04:15:06.604338+05:30
Varanasi,Uttar Pradesh,25.3176,82.9739,24.9,53,0.0,993.9,8.45,21.2,82,93.8,40.4,0,5,7,0,2026-04-16T04:15:06.604347+05:30
Prayagraj,Uttar Pradesh,25.4358,81.8463,27.3,47,0.0,992.8,8.3,22.3,81,70.1,31.9,4,5,7,0,2026-04-16T04:15:06.604355+05:30
Gorakhpur,Uttar Pradesh,26.7606,83.3732,24.0,69,0.0,994.4,8.25,29.5,93,65.4,44.1,3,5,7,1,2026-04-16T04:15:06.604363+05:30
Bareilly,Uttar Pradesh,28.367,79.4304,19.7,67,0.0,983.4,7.6,23.8,59,26.9,26.0,3,5,7,0,2026-04-16T04:15:06.604372+05:30
Aligarh,Uttar Pradesh,27.8974,78.088,21.7,52,0.0,982.3,7.5,24.1,322,418.2,79.6,0,5,7,0,2026-04-16T04:15:06.604382+05:30
Moradabad,Uttar Pradesh,28.8386,78.7733,21.0,58,0.0,980.3,7.45,26.6,74,56.2,44.4,0,5,7,0,2026-04-16T04:15:06.604389+05:30
Saharanpur,Uttar Pradesh,29.9637,77.546,18.3,72,0.0,972.6,6.9,26.3,72,34.7,34.1,3,5,7,0,2026-04-16T04:15:06.604396+05:30
Jhansi,Uttar Pradesh,25.4484,78.5685,26.0,49,0.0,974.6,8.2,32.4,68,165.3,30.2,4,5,7,0,2026-04-16T04:15:09.906267+05:30
Surat,Gujarat,21.1702,72.8311,26.8,83,0.0,1003.9,7.85,27.7,101,30.4,23.8,7,5,4,1,2026-04-16T04:15:09.906322+05:30
Vadodara,Gujarat,22.3072,73.1812,25.9,82,0.0,1001.1,8.0,22.7,86,22.4,19.5,7,5,4,1,2026-04-16T04:15:09.906333+05:30
Rajkot,Gujarat,22.3039,70.8022,23.0,89,0.0,991.4,7.2,29.9,63,32.9,14.1,3,5,7,1,2026-04-16T04:15:09.906341+05:30
Thane,Maharashtra,19.2183,72.9781,26.4,88,0.0,1005.6,8.05,32.4,82,40.6,23.7,7,5,4,1,2026-04-16T04:15:09.906348+05:30
Nagpur,Maharashtra,21.1458,79.0882,25.9,46,0.0,969.4,8.85,15.1,65,18.6,17.2,4,5,7,0,2026-04-16T04:15:09.906356+05:30
Nashik,Maharashtra,19.9975,73.7898,22.0,54,0.0,942.7,8.3,31.7,58,31.5,20.8,0,5,7,0,2026-04-16T04:15:09.906364+05:30
Aurangabad,Maharashtra,19.8762,75.3433,25.8,34,0.0,941.3,8.95,27.0,44,22.9,9.3,4,5,7,0,2026-04-16T04:15:09.906372+05:30
Solapur,Maharashtra,17.6599,75.9064,26.7,44,0.0,954.0,9.05,23.8,73,18.6,17.1,4,5,7,0,2026-04-16T04:15:09.906379+05:30
Kolhapur,Maharashtra,16.705,74.2433,21.5,86,0.0,944.9,9.0,38.9,84,33.6,24.6,3,5,7,1,2026-04-16T04:15:09.906387+05:30
Goa,Goa,15.2993,74.124,27.9,76,0.0,995.2,9.0,29.2,79,56.9,28.5,7,5,7,1,2026-04-16T04:15:09.906394+05:30
Jodhpur,Rajasthan,26.2389,73.0243,28.1,43,0.0,978.9,7.95,25.6,69,48.7,21.7,4,5,7,0,2026-04-16T04:15:09.906401+05:30
Udaipur,Rajasthan,24.5854,73.7125,23.6,50,0.0,943.6,8.7,29.2,70,92.0,23.1,0,5,7,0,2026-04-16T04:15:09.906407+05:30
Kota,Rajasthan,25.2138,75.8648,26.3,63,0.0,974.7,8.2,16.9,63,61.7,23.5,7,5,7,1,2026-04-16T04:15:09.906413+05:30
Bikaner,Rajasthan,28.0229,73.3119,27.5,41,0.0,977.8,7.75,24.1,60,23.7,12.3,4,5,7,0,2026-04-16T04:15:09.906421+05:30
Ajmer,Rajasthan,26.4499,74.6399,25.8,34,0.0,951.1,8.15,31.3,72,36.8,13.5,4,5,7,0,2026-04-16T04:15:09.906427+05:30
Gwalior,Madhya Pradesh,26.2183,78.1828,25.5,52,0.0,980.1,7.95,26.6,109,315.7,51.0,4,5,7,0,2026-04-16T04:15:09.906434+05:30
Indore,Madhya Pradesh,22.7196,75.8577,24.4,59,0.0,944.8,8.6,25.2,64,36.3,20.5,0,5,7,0,2026-04-16T04:15:09.906441+05:30
Bhopal,Madhya Pradesh,23.2599,77.4126,26.3,52,0.0,950.7,8.55,20.5,57,36.9,24.0,4,5,7,0,2026-04-16T04:15:09.906448+05:30
Jabalpur,Madhya Pradesh,23.1815,79.9864,23.5,60,0.0,957.3,8.7,23.4,50,20.4,13.2,0,5,7,0,2026-04-16T04:15:09.906454+05:30
Ujjain,Madhya Pradesh,23.1765,75.7885,24.4,58,0.0,950.4,8.5,24.1,71,40.3,22.9,0,5,7,0,2026-04-16T04:15:09.906462+05:30
Visakhapatnam,Andhra Pradesh,17.6868,83.2185,27.0,89,0.0,1001.0,9.15,45.0,54,12.8,10.5,7,5,4,1,2026-04-16T04:15:09.906469+05:30
Vijayawada,Andhra Pradesh,16.5062,80.648,27.4,90,0.0,1000.0,9.2,31.0,43,7.9,6.4,7,5,4,1,2026-04-16T04:15:09.906475+05:30
Guntur,Andhra Pradesh,16.3067,80.4365,27.7,88,0.0,1001.0,9.2,32.4,49,7.7,6.1,7,5,4,1,2026-04-16T04:15:09.906482+05:30
Nellore,Andhra Pradesh,14.4426,79.9865,27.2,90,0.0,1002.6,9.3,38.2,43,8.0,7.0,7,5,4,1,2026-04-16T04:15:09.906490+05:30
Kurnool,Andhra Pradesh,15.8281,78.0373,31.7,42,0.0,974.0,9.2,19.4,87,13.6,13.1,0,5,7,1,2026-04-16T04:15:09.906499+05:30
Kakinada,Andhra Pradesh,16.9891,82.2475,26.6,92,0.0,1005.1,9.2,36.0,37,9.9,6.9,7,5,4,1,2026-04-16T04:15:09.906505+05:30
Tirupati,Andhra Pradesh,13.6288,79.4192,25.7,89,0.0,989.3,9.4,32.8,60,22.6,22.1,7,5,7,1,2026-04-16T04:15:09.906512+05:30
Warangal,Telangana,17.9689,79.5941,27.1,71,0.0,975.4,9.1,26.3,72,13.8,13.2,7,5,7,1,2026-04-16T04:15:09.906518+05:30
Nizamabad,Telangana,18.6725,78.0941,28.0,53,0.0,961.7,9.05,27.4,80,38.0,35.9,4,5,7,1,2026-04-16T04:15:09.906524+05:30
Mysore,Karnataka,12.2958,76.6396,23.3,91,0.0,926.2,9.55,38.5,77,38.6,33.5,3,5,7,1,2026-04-16T04:15:09.906530+05:30
Mangalore,Karnataka,12.9141,74.856,29.5,81,0.0,1003.9,8.95,22.3,76,55.6,31.2,7,5,4,1,2026-04-16T04:15:09.906537+05:30
Hubli-Dharwad,Karnataka,15.3647,75.124,23.4,95,0.0,938.5,6.75,29.5,70,35.3,18.2,3,5,7,1,2026-04-16T04:15:09.906543+05:30
Belgaum,Karnataka,15.8497,74.4977,21.0,97,0.0,922.7,9.25,36.7,70,38.0,22.6,3,5,7,1,2026-04-16T04:15:13.210061+05:30
Coimbatore,Tamil Nadu,11.0168,76.9558,24.8,92,0.0,959.3,9.0,37.1,89,49.7,43.9,3,5,7,1,2026-04-16T04:15:13.210098+05:30
Madurai,Tamil Nadu,9.9252,78.1198,27.4,89,0.0,990.4,9.3,36.7,56,20.3,18.6,7,5,7,1,2026-04-16T04:15:13.210108+05:30
Trichy,Tamil Nadu,10.7905,78.7047,26.9,91,0.0,997.5,9.35,27.0,49,11.4,10.8,7,5,7,1,2026-04-16T04:15:13.210115+05:30
Salem,Tamil Nadu,11.6643,78.146,25.2,82,0.0,975.0,9.45,24.5,62,18.6,18.0,7,5,7,1,2026-04-16T04:15:13.210122+05:30
Tirunelveli,Tamil Nadu,8.7139,77.7567,27.9,75,0.0,1000.3,9.15,41.4,65,35.6,29.3,7,5,4,1,2026-04-16T04:15:13.210129+05:30
Vellore,Tamil Nadu,12.9165,79.1325,25.1,95,0.0,982.5,9.4,32.4,77,33.9,32.9,7,5,7,1,2026-04-16T04:15:13.210136+05:30
Erode,Tamil Nadu,11.341,77.7172,27.9,79,0.0,986.5,9.4,30.2,58,23.5,21.8,7,5,7,1,2026-04-16T04:15:13.210143+05:30
Kochi,Kerala,9.9312,76.2673,28.8,84,0.0,1005.8,8.7,31.7,94,51.3,47.6,7,5,4,1,2026-04-16T04:15:13.210150+05:30
Thiruvananthapuram,Kerala,8.5241,76.9366,29.1,82,0.0,1005.0,9.15,25.9,73,37.0,25.9,7,5,4,1,2026-04-16T04:15:13.210157+05:30
Kozhikode,Kerala,11.2588,75.7804,29.2,83,0.0,1004.9,9.15,31.0,76,48.9,30.5,7,5,4,1,2026-04-16T04:15:13.210163+05:30
Thrissur,Kerala,10.5276,76.2144,28.1,88,0.0,1004.0,8.95,38.5,96,65.4,57.2,7,5,4,1,2026-04-16T04:15:13.210171+05:30
Kannur,Kerala,11.8745,75.3704,29.2,82,0.0,1004.2,9.15,30.2,76,44.2,32.4,7,5,4,1,2026-04-16T04:15:13.210179+05:30
Patna,Bihar,25.5941,85.1376,25.6,80,0.0,997.6,8.55,33.1,115,70.3,61.2,7,5,7,1,2026-04-16T04:15:13.210186+05:30
Gaya,Bihar,24.7914,85.0002,24.1,72,0.0,990.0,8.65,27.0,72,56.5,30.6,3,5,7,1,2026-04-16T04:15:13.210193+05:30
Muzaffarpur,Bihar,26.1209,85.3647,24.5,83,0.0,998.0,8.55,34.2,143,74.0,65.4,3,5,7,1,2026-04-16T04:15:13.210200+05:30
Bhagalpur,Bihar,25.2425,87.0117,24.3,92,0.0,998.8,8.55,35.6,147,67.5,58.0,3,5,7,1,2026-04-16T04:15:13.210206+05:30
Ranchi,Jharkhand,23.3441,85.3096,25.1,84,0.0,935.1,9.15,44.3,89,73.8,44.5,7,5,7,1,2026-04-16T04:15:13.210213+05:30
Jamshedpur,Jharkhand,22.8046,86.2029,26.8,91,0.0,988.0,9.0,43.6,124,74.0,56.6,7,5,7,1,2026-04-16T04:15:13.210219+05:30
Dhanbad,Jharkhand,23.7957,86.4304,27.7,89,0.0,976.8,8.95,42.5,150,84.5,77.8,7,5,7,1,2026-04-16T04:15:13.210227+05:30
Bokaro,Jharkhand,23.6693,86.1511,26.3,77,0.0,980.9,8.95,48.6,123,91.7,77.3,7,5,7,1,2026-04-16T04:15:13.210233+05:30
Bhubaneswar,Odisha,20.2961,85.8245,27.0,91,0.0,999.7,9.1,40.3,67,15.3,11.2,7,5,7,1,2026-04-16T04:15:13.210239+05:30
Cuttack,Odisha,20.4625,85.8828,27.2,89,0.0,1001.5,9.15,37.4,67,15.3,11.2,7,5,4,1,2026-04-16T04:15:13.210246+05:30
Rourkela,Odisha,22.2604,84.8536,28.7,83,0.0,982.0,8.9,38.9,131,65.9,53.6,7,5,7,1,2026-04-16T04:15:13.210252+05:30
Raipur,Chhattisgarh,21.2514,81.6296,28.0,54,0.0,970.4,8.95,32.0,107,34.6,33.8,4,5,7,1,2026-04-16T04:15:13.210258+05:30
Bhilai,Chhattisgarh,21.1938,81.3509,26.9,59,0.0,970.7,8.95,31.0,91,22.7,22.0,4,5,7,1,2026-04-16T04:15:13.210264+05:30
Guwahati,Assam,26.1158,91.7086,22.7,91,0.0,1001.5,8.45,24.8,131,57.7,44.1,3,5,4,1,2026-04-16T04:15:13.210272+05:30
Agartala,Tripura,23.8315,91.2868,23.0,93,0.0,1006.4,8.7,27.4,111,48.3,33.9,3,5,4,1,2026-04-16T04:15:13.210279+05:30
Shillong,Meghalaya,25.5788,91.8933,13.2,95,0.0,854.4,8.1,53.6,98,57.3,36.1,3,10,7,0,2026-04-16T04:15:13.210286+05:30
Imphal,Manipur,24.817,93.9368,17.2,91,0.0,922.9,9.05,68.0,114,68.0,42.0,3,10,7,0,2026-04-16T04:15:13.210311+05:30
Aizawl,Mizoram,23.7271,92.7176,18.3,92,0.0,892.0,8.95,32.8,122,80.8,52.4,3,10,7,1,2026-04-16T04:15:13.210319+05:30
Kohima,Nagaland,25.6701,94.1077,14.4,81,0.0,853.9,8.6,54.4,97,52.2,28.0,3,10,7,0,2026-04-16T04:15:13.210326+05:30
Gangtok,Sikkim,27.3314,88.6138,14.3,80,0.0,835.4,8.8,18.7,151,56.5,39.8,3,5,7,0,2026-04-16T04:15:13.210333+05:30
Siliguri,West Bengal,26.7271,88.3953,20.4,73,0.0,993.3,8.45,23.4,163,158.3,105.5,3,5,7,0,2026-04-16T04:15:16.511378+05:30
Durgapur,West Bengal,23.5204,87.3119,27.5,91,0.0,992.5,8.85,40.7,132,48.7,45.3,7,5,7,1,2026-04-16T04:15:16.511415+05:30
Asansol,West Bengal,23.6739,86.9524,27.9,88,0.0,990.9,8.9,50.4,126,54.5,51.1,7,5,7,1,2026-04-16T04:15:16.511426+05:30
Pondicherry,Puducherry,11.9139,79.8145,27.6,95,0.0,1006.2,9.25,28.8,35,8.3,5.5,7,5,4,1,2026-04-16T04:15:16.511434+05:30
Port Blair,Andaman and Nicobar Islands,11.6234,92.7265,29.3,69,0.0,1005.8,9.2,13.3,66,25.7,18.3,7,5,4,1,2026-04-16T04:15:16.511442+05:30
Haridwar,Uttarakhand,29.9457,78.1642,19.2,71,0.0,971.4,7.15,31.7,53,20.4,20.3,3,5,7,0,2026-04-16T04:15:16.511451+05:30
Rishikesh,Uttarakhand,30.0869,78.2676,19.5,70,0.0,964.3,7.1,33.1,83,14.6,14.6,3,5,7,0,2026-04-16T04:15:16.511459+05:30
Nainital,Uttarakhand,29.3919,79.4542,19.7,33,0.0,804.5,8.1,50.0,80,10.1,9.2,0,5,7,0,2026-04-16T04:15:16.511466+05:30
Mussoorie,Uttarakhand,30.4599,78.0664,16.7,58,0.0,800.7,7.4,38.2,51,16.8,16.8,0,5,7,0,2026-04-16T04:15:16.511474+05:30
Dharamshala,Himachal Pradesh,32.219,76.3234,20.7,42,0.0,867.4,7.35,25.2,63,5.8,5.0,0,5,7,0,2026-04-16T04:15:16.511481+05:30
Dalhousie,Himachal Pradesh,32.5387,75.971,17.3,40,0.0,801.9,7.55,25.6,50,13.1,12.7,0,5,7,0,2026-04-16T04:15:16.511489+05:30
Patiala,Punjab,30.3398,76.3869,18.9,64,0.0,975.1,7.05,19.8,161,40.3,38.8,3,5,7,0,2026-04-16T04:15:16.511496+05:30
Bhatinda,Punjab,30.211,74.9455,22.7,57,0.0,980.2,7.8,23.0,61,42.5,29.4,0,5,7,0,2026-04-16T04:15:16.511503+05:30
Rohtak,Haryana,28.8955,76.6066,22.7,50,0.0,978.5,7.35,27.0,408,726.4,126.2,0,5,7,0,2026-04-16T04:15:16.511511+05:30
Panipat,Haryana,29.3909,76.9635,20.7,57,0.0,977.4,7.2,23.0,718,453.6,102.7,0,5,7,0,2026-04-16T04:15:16.511517+05:30
Mathura,Uttar Pradesh,27.4924,77.6737,22.9,45,0.0,983.7,7.65,25.2,418,586.7,102.4,0,5,7,0,2026-04-16T04:15:16.511524+05:30
Vrindavan,Uttar Pradesh,27.5823,77.7027,22.5,44,0.0,984.2,7.6,26.6,418,586.7,102.4,0,5,7,0,2026-04-16T04:15:16.511531+05:30
Ayodhya,Uttar Pradesh,26.7922,82.1998,23.3,45,0.0,992.2,8.0,22.7,85,97.1,27.6,0,5,7,0,2026-04-16T04:15:16.511538+05:30
Ratlam,Madhya Pradesh,23.3315,75.0367,23.4,69,0.0,951.2,8.4,28.8,65,41.8,21.5,3,5,7,1,2026-04-16T04:15:16.511545+05:30
Sagar,Madhya Pradesh,23.8388,78.7378,26.3,47,0.0,946.7,8.6,21.6,48,24.2,13.7,4,5,7,0,2026-04-16T04:15:16.511552+05:30
Satna,Madhya Pradesh,24.6005,80.8322,28.0,46,0.0,968.0,8.6,28.8,82,61.2,20.0,4,5,7,0,2026-04-16T04:15:16.511559+05:30
Akola,Maharashtra,20.7002,77.0082,26.0,59,0.0,971.9,8.8,24.1,51,28.5,18.3,4,5,7,1,2026-04-16T04:15:16.511566+05:30
Amravati,Maharashtra,20.9374,77.7796,24.4,55,0.0,963.7,8.8,19.1,48,24.5,16.1,0,5,7,0,2026-04-16T04:15:16.511573+05:30
Latur,Maharashtra,18.4088,76.5604,24.5,51,0.0,936.6,9.05,23.4,65,20.6,15.4,0,5,7,0,2026-04-16T04:15:16.511580+05:30
Nanded,Maharashtra,19.1383,77.3091,25.4,55,0.0,965.6,8.95,17.3,63,24.6,19.1,4,5,7,0,2026-04-16T04:15:16.511587+05:30
Gulbarga,Karnataka,17.3297,76.8343,29.3,43,0.0,955.4,9.1,27.4,95,31.5,28.4,4,5,7,0,2026-04-16T04:15:16.511593+05:30
Bidar,Karnataka,17.9104,77.5199,27.4,51,0.0,932.6,9.1,33.8,106,48.9,41.1,4,5,7,1,2026-04-16T04:15:16.511600+05:30
Hospet,Karnataka,15.2689,76.3909,27.0,82,0.0,954.0,9.25,31.7,79,24.7,18.5,7,5,7,1,2026-04-16T04:15:16.511606+05:30
Tirupur,Tamil Nadu,11.1085,77.3411,26.7,87,0.0,972.8,9.35,32.8,74,36.7,32.0,7,5,7,1,2026-04-16T04:15:16.511613+05:30
Alappuzha,Kerala,9.4981,76.3388,28.8,84,0.0,1006.0,8.4,29.5,92,52.0,39.6,7,5,4,1,2026-04-16T04:15:16.511619+05:30
Munnar,Kerala,10.0889,77.0595,20.4,79,0.0,854.2,9.0,22.0,71,33.8,30.6,3,5,7,1,2026-04-16T04:15:16.511627+05:30
Silchar,Assam,24.8333,92.7789,22.4,93,0.0,1005.9,8.7,26.6,116,55.3,33.4,3,5,4,1,2026-04-16T04:15:16.511634+05:30
Dibrugarh,Assam,27.4728,94.912,20.0,91,0.0,997.1,8.55,9.4,147,60.3,41.9,3,5,7,1,2026-04-16T04:15:16.511640+05:30
