city,state,latitude,longitude,temp,humidity,rain,pressure,uv_index,wind_gusts,aqi,pm10,pm2_5,mosquito_risk,arthritis_risk,migraine_risk,frizz_risk,updated_at
Delhi,Delhi,28.6139,77.209,28.4,56,0.0,981.6,7.05,25.6,186,278.5,74.7,4,5,7,1,2026-04-19T08:27:31.708827+05:30
Mumbai,Maharashtra,19.076,72.8777,29.3,78,0.0,1008.1,7.45,25.6,88,56.5,28.8,7,0,4,1,2026-04-19T08:27:31.708874+05:30
Bangalore,Karnataka,12.9716,77.5946,25.7,63,0.0,913.0,9.6,27.0,89,40.6,36.6,7,5,7,1,2026-04-19T08:27:31.708887+05:30
Hyderabad,Telangana,17.385,78.4867,29.9,60,0.0,955.1,9.25,55.4,103,43.0,36.0,4,5,7,1,2026-04-19T08:27:31.708897+05:30
Chennai,Tamil Nadu,13.0827,80.2707,29.9,73,0.0,1008.2,9.3,34.2,37,14.0,9.5,7,0,4,1,2026-04-19T08:27:31.708905+05:30
Kolkata,West Bengal,22.5726,88.3639,29.7,82,0.0,1006.1,8.9,30.6,84,31.2,24.4,7,5,4,1,2026-04-19T08:27:31.708915+05:30
Pune,Maharashtra,18.5204,73.8567,29.7,63,0.0,949.2,8.6,37.4,96,39.6,32.9,7,5,7,1,2026-04-19T08:27:31.708921+05:30
Ahmedabad,Gujarat,23.0225,72.5714,27.2,57,0.0,1002.3,7.75,23.4,62,20.4,13.5,4,5,4,1,2026-04-19T08:27:31.708928+05:30
Jaipur,Rajasthan,26.9124,75.7873,30.3,27,0.0,959.4,7.9,41.4,153,283.1,40.0,0,5,7,0,2026-04-19T08:27:31.708937+05:30
Lucknow,Uttar Pradesh,26.8467,80.9462,29.3,54,0.0,992.3,7.85,29.9,111,106.4,44.2,4,5,7,1,2026-04-19T08:27:31.708944+05:30
Kanpur,Uttar Pradesh,26.4499,80.3319,27.5,69,0.0,990.4,7.9,23.4,171,305.5,66.8,7,5,7,1,2026-04-19T08:27:31.708950+05:30
Chandigarh,Chandigarh,30.7333,76.7794,25.5,63,0.0,967.2,6.15,39.2,66,32.1,24.2,7,5,7,1,2026-04-19T08:27:31.708956+05:30
Srinagar,Jammu and Kashmir,34.0837,74.7973,12.5,83,0.0,843.9,7.55,23.0,68,36.6,23.9,3,10,7,0,2026-04-19T08:27:31.708962+05:30
Jammu,Jammu and Kashmir,32.7266,74.857,25.5,50,0.0,972.4,5.75,32.8,63,16.0,12.9,4,5,3,0,2026-04-19T08:27:31.708968+05:30
Amritsar,Punjab,31.634,74.8723,24.8,53,0.0,980.5,7.35,28.8,63,31.9,22.1,0,5,7,0,2026-04-19T08:27:31.708974+05:30
Ludhiana,Punjab,30.901,75.8573,25.6,53,0.0,978.1,7.4,36.0,87,37.6,28.5,4,5,7,0,2026-04-19T08:27:31.708981+05:30
Jalandhar,Punjab,31.326,75.5762,24.9,51,0.0,979.4,6.4,29.9,72,46.4,29.9,0,5,7,0,2026-04-19T08:27:31.708987+05:30
Dehradun,Uttarakhand,30.6284,78.0322,20.3,37,0.0,832.0,6.9,40.7,33,7.7,5.2,0,5,7,0,2026-04-19T08:27:31.708992+05:30
Shimla,Himachal Pradesh,31.1048,77.1734,19.2,48,0.0,787.1,6.75,46.4,50,18.4,12.5,0,5,7,0,2026-04-19T08:27:31.708998+05:30
Manali,Himachal Pradesh,32.2396,77.1887,20.1,29,0.0,823.5,6.7,41.4,41,5.7,2.9,0,5,7,0,2026-04-19T08:27:31.709004+05:30
Gurgaon,Haryana,28.4595,77.0266,26.5,68,0.0,980.0,7.15,27.7,420,869.9,133.6,7,5,7,1,2026-04-19T08:27:31.709025+05:30
Noida,Uttar Pradesh,28.5355,77.391,29.1,53,0.0,983.2,7.0,22.3,420,869.9,133.6,4,5,7,1,2026-04-19T08:27:31.709031+05:30
Ghaziabad,Uttar Pradesh,28.6692,77.4538,27.8,59,0.0,981.3,6.9,24.5,163,203.5,63.8,4,5,7,1,2026-04-19T08:27:31.709036+05:30
Faridabad,Haryana,28.4089,77.3178,28.8,54,0.0,982.3,7.2,21.2,420,869.9,133.6,4,5,7,1,2026-04-19T08:27:31.709041+05:30
Meerut,Uttar Pradesh,28.9845,77.7064,27.3,61,0.0,979.8,6.55,29.5,163,203.5,63.8,7,5,7,1,2026-04-19T08:27:31.709046+05:30
Agra,Uttar Pradesh,27.1767,78.0081,28.2,63,0.0,986.2,7.6,26.3,366,360.4,106.9,7,5,7,1,2026-04-19T08:27:31.709053+05:30
Varanasi,Uttar Pradesh,25.3176,82.9739,30.8,49,0.0,996.3,8.45,28.4,102,75.7,38.3,0,5,7,1,2026-04-19T08:27:31.709058+05:30
Prayagraj,Uttar Pradesh,25.4358,81.8463,30.4,54,0.0,994.8,8.35,27.0,95,130.9,46.6,0,5,7,1,2026-04-19T08:27:31.709063+05:30
Gorakhpur,Uttar Pradesh,26.7606,83.3732,28.8,76,0.0,996.0,8.3,27.0,113,69.2,64.7,7,5,7,1,2026-04-19T08:27:31.709070+05:30
Bareilly,Uttar Pradesh,28.367,79.4304,28.3,59,0.0,985.0,7.4,27.4,83,69.6,31.3,4,5,7,1,2026-04-19T08:27:31.709075+05:30
Aligarh,Uttar Pradesh,27.8974,78.088,29.4,48,0.0,984.2,7.55,30.2,253,350.2,86.8,4,5,7,1,2026-04-19T08:27:31.709079+05:30
Moradabad,Uttar Pradesh,28.8386,78.7733,26.7,65,0.0,981.7,7.25,31.3,105,70.3,38.9,7,5,7,1,2026-04-19T08:27:31.709084+05:30
Saharanpur,Uttar Pradesh,29.9637,77.546,26.0,56,0.0,974.1,6.35,44.6,97,57.6,47.5,4,5,7,1,2026-04-19T08:27:31.709089+05:30
Jhansi,Uttar Pradesh,25.4484,78.5685,30.5,49,0.0,977.0,8.25,29.2,72,27.2,15.2,0,5,7,1,2026-04-19T08:27:35.047045+05:30
Surat,Gujarat,21.1702,72.8311,29.0,65,0.0,1006.7,7.85,25.6,103,44.8,35.2,7,5,4,1,2026-04-19T08:27:35.047077+05:30
Vadodara,Gujarat,22.3072,73.1812,28.6,43,0.0,1004.6,8.15,28.1,77,22.3,16.4,4,5,4,0,2026-04-19T08:27:35.047086+05:30
Rajkot,Gujarat,22.3039,70.8022,24.3,84,0.0,994.8,7.15,30.2,55,47.5,18.0,3,5,7,1,2026-04-19T08:27:35.047092+05:30
Thane,Maharashtra,19.2183,72.9781,28.6,77,0.0,1007.6,7.3,38.2,88,56.5,28.8,7,5,4,1,2026-04-19T08:27:35.047098+05:30
Nagpur,Maharashtra,21.1458,79.0882,31.1,57,0.0,972.8,8.8,23.4,91,38.9,36.9,0,5,7,1,2026-04-19T08:27:35.047103+05:30
Nashik,Maharashtra,19.9975,73.7898,27.9,50,0.0,946.1,6.35,29.9,73,43.2,27.1,4,5,7,1,2026-04-19T08:27:35.047109+05:30
Aurangabad,Maharashtra,19.8762,75.3433,29.4,42,0.0,945.0,8.85,28.4,61,30.2,23.7,4,5,7,0,2026-04-19T08:27:35.047114+05:30
Solapur,Maharashtra,17.6599,75.9064,30.0,55,0.0,957.5,8.95,34.2,129,50.5,47.5,4,5,7,1,2026-04-19T08:27:35.047120+05:30
Kolhapur,Maharashtra,16.705,74.2433,26.7,86,0.0,948.2,9.05,37.8,99,63.3,51.6,7,5,7,1,2026-04-19T08:27:35.047126+05:30
Goa,Goa,15.2993,74.124,29.3,76,0.0,998.1,9.0,29.9,84,61.2,29.5,7,5,7,1,2026-04-19T08:27:35.047131+05:30
Jodhpur,Rajasthan,26.2389,73.0243,28.2,40,0.0,982.9,8.15,27.4,108,209.1,55.5,4,5,7,0,2026-04-19T08:27:35.047137+05:30
Udaipur,Rajasthan,24.5854,73.7125,27.5,39,0.0,946.9,8.4,36.0,41,15.0,8.7,4,5,7,0,2026-04-19T08:27:35.047143+05:30
Kota,Rajasthan,25.2138,75.8648,30.7,35,0.0,978.6,8.25,36.7,82,18.5,9.3,0,5,7,0,2026-04-19T08:27:35.047149+05:30
Bikaner,Rajasthan,28.0229,73.3119,27.9,49,0.0,981.2,8.0,26.6,82,61.5,26.8,4,5,7,1,2026-04-19T08:27:35.047153+05:30
Ajmer,Rajasthan,26.4499,74.6399,26.5,42,0.0,954.5,7.65,31.7,59,78.7,17.1,4,5,7,0,2026-04-19T08:27:35.047158+05:30
Gwalior,Madhya Pradesh,26.2183,78.1828,32.3,42,0.0,982.3,7.65,38.9,88,83.1,31.8,0,5,7,1,2026-04-19T08:27:35.047163+05:30
Indore,Madhya Pradesh,22.7196,75.8577,28.2,44,0.0,948.5,8.6,31.0,52,11.0,9.7,4,5,7,0,2026-04-19T08:27:35.047168+05:30
Bhopal,Madhya Pradesh,23.2599,77.4126,28.8,43,0.0,954.4,8.6,31.0,57,17.5,13.0,4,5,7,0,2026-04-19T08:27:35.047173+05:30
Jabalpur,Madhya Pradesh,23.1815,79.9864,29.8,43,0.0,961.3,8.75,23.8,72,21.9,20.5,4,5,7,0,2026-04-19T08:27:35.047178+05:30
Ujjain,Madhya Pradesh,23.1765,75.7885,28.1,46,0.0,954.1,8.5,34.2,51,15.0,13.4,4,5,7,0,2026-04-19T08:27:35.047183+05:30
Visakhapatnam,Andhra Pradesh,17.6868,83.2185,29.6,76,0.0,1004.4,9.15,40.0,64,26.7,19.0,7,5,4,1,2026-04-19T08:27:35.047188+05:30
Vijayawada,Andhra Pradesh,16.5062,80.648,29.5,77,0.0,1003.5,9.2,27.7,59,16.5,11.0,7,5,4,1,2026-04-19T08:27:35.047193+05:30
Guntur,Andhra Pradesh,16.3067,80.4365,29.6,76,0.0,1004.7,9.25,32.4,63,15.4,10.5,7,5,4,1,2026-04-19T08:27:35.047198+05:30
Nellore,Andhra Pradesh,14.4426,79.9865,29.5,74,0.0,1006.4,9.25,34.2,52,13.5,10.1,7,5,4,1,2026-04-19T08:27:35.047205+05:30
Kurnool,Andhra Pradesh,15.8281,78.0373,32.9,51,0.0,977.1,9.25,25.9,89,23.1,20.4,0,5,7,1,2026-04-19T08:27:35.047210+05:30
Kakinada,Andhra Pradesh,16.9891,82.2475,30.0,73,0.0,1008.7,9.2,31.7,53,20.0,11.8,7,0,4,1,2026-04-19T08:27:35.047216+05:30
Tirupati,Andhra Pradesh,13.6288,79.4192,28.0,79,0.0,993.0,9.35,32.8,66,17.8,14.4,7,5,7,1,2026-04-19T08:27:35.047220+05:30
Warangal,Telangana,17.9689,79.5941,29.2,71,0.0,979.4,9.15,30.2,90,23.1,19.2,7,5,7,1,2026-04-19T08:27:35.047226+05:30
Nizamabad,Telangana,18.6725,78.0941,31.5,46,0.0,965.6,9.1,28.1,111,55.1,51.7,0,5,7,1,2026-04-19T08:27:35.047231+05:30
Mysore,Karnataka,12.2958,76.6396,25.7,78,0.0,929.7,9.5,41.0,89,44.5,40.0,7,5,7,1,2026-04-19T08:27:35.047235+05:30
Mangalore,Karnataka,12.9141,74.856,29.7,84,0.0,1006.6,9.1,24.1,67,41.9,27.1,7,5,4,1,2026-04-19T08:27:35.047240+05:30
Hubli-Dharwad,Karnataka,15.3647,75.124,25.3,87,0.0,941.3,9.2,29.5,74,42.0,29.9,7,5,7,1,2026-04-19T08:27:35.047246+05:30
Belgaum,Karnataka,15.8497,74.4977,25.1,84,0.0,926.3,9.25,33.1,89,50.4,36.0,7,5,7,1,2026-04-19T08:27:38.380557+05:30
Coimbatore,Tamil Nadu,11.0168,76.9558,27.9,74,0.0,963.1,9.4,43.2,93,34.5,29.4,7,5,7,1,2026-04-19T08:27:38.380588+05:30
Madurai,Tamil Nadu,9.9252,78.1198,28.6,78,0.0,994.6,9.3,42.1,65,30.7,29.6,7,5,7,1,2026-04-19T08:27:38.380597+05:30
Trichy,Tamil Nadu,10.7905,78.7047,29.1,77,0.0,1001.2,9.3,22.3,53,29.5,26.9,7,5,4,1,2026-04-19T08:27:38.380605+05:30
Salem,Tamil Nadu,11.6643,78.146,28.5,74,0.0,978.7,9.35,18.7,66,19.2,17.2,7,5,7,1,2026-04-19T08:27:38.380612+05:30
Tirunelveli,Tamil Nadu,8.7139,77.7567,29.8,66,0.0,1004.6,9.25,50.4,69,36.9,29.6,7,5,4,1,2026-04-19T08:27:38.380618+05:30
Vellore,Tamil Nadu,12.9165,79.1325,27.2,82,0.0,986.0,9.4,28.4,86,41.0,38.5,7,5,7,1,2026-04-19T08:27:38.380625+05:30
Erode,Tamil Nadu,11.341,77.7172,29.3,71,0.0,990.4,9.35,27.7,59,19.5,18.1,7,5,7,1,2026-04-19T08:27:38.380631+05:30
Kochi,Kerala,9.9312,76.2673,29.2,82,0.0,1008.9,9.15,29.2,78,34.1,28.4,7,0,4,1,2026-04-19T08:27:38.380638+05:30
Thiruvananthapuram,Kerala,8.5241,76.9366,28.4,87,0.0,1008.4,9.1,27.7,71,29.7,20.4,7,0,4,1,2026-04-19T08:27:38.380643+05:30
Kozhikode,Kerala,11.2588,75.7804,29.8,82,0.0,1008.0,9.1,32.8,66,21.7,16.2,7,0,4,1,2026-04-19T08:27:38.380649+05:30
Thrissur,Kerala,10.5276,76.2144,30.1,79,0.0,1007.4,9.15,37.8,78,29.5,24.9,3,5,4,1,2026-04-19T08:27:38.380656+05:30
Kannur,Kerala,11.8745,75.3704,30.1,76,0.0,1007.4,9.1,32.4,69,34.5,24.6,3,5,4,1,2026-04-19T08:27:38.380662+05:30
Patna,Bihar,25.5941,85.1376,28.1,81,0.0,999.7,8.6,27.0,134,48.7,45.2,7,5,7,1,2026-04-19T08:27:38.380667+05:30
Gaya,Bihar,24.7914,85.0002,31.1,54,0.0,992.6,8.7,30.2,97,52.9,35.4,0,5,7,1,2026-04-19T08:27:38.380672+05:30
Muzaffarpur,Bihar,26.1209,85.3647,27.0,80,0.0,1000.1,8.6,29.9,150,40.4,37.3,7,5,4,1,2026-04-19T08:27:38.380677+05:30
Bhagalpur,Bihar,25.2425,87.0117,26.7,82,0.0,1001.2,8.65,31.3,123,56.3,52.2,7,5,4,1,2026-04-19T08:27:38.380682+05:30
Ranchi,Jharkhand,23.3441,85.3096,30.8,47,0.0,938.7,9.2,46.8,74,41.1,20.1,0,5,7,1,2026-04-19T08:27:38.380686+05:30
Jamshedpur,Jharkhand,22.8046,86.2029,31.9,72,0.0,990.4,9.0,29.9,114,55.2,46.9,3,5,7,1,2026-04-19T08:27:38.380691+05:30
Dhanbad,Jharkhand,23.7957,86.4304,32.0,66,0.0,979.2,8.95,40.7,157,97.8,83.1,3,5,7,1,2026-04-19T08:27:38.380696+05:30
Bokaro,Jharkhand,23.6693,86.1511,32.4,61,0.0,983.3,8.95,46.1,150,76.4,57.5,3,5,7,1,2026-04-19T08:27:38.380701+05:30
Bhubaneswar,Odisha,20.2961,85.8245,29.3,83,0.0,1003.0,9.1,33.1,64,27.3,19.2,7,5,4,1,2026-04-19T08:27:38.380706+05:30
Cuttack,Odisha,20.4625,85.8828,29.7,82,0.0,1004.9,9.15,31.0,64,27.3,19.2,7,5,4,1,2026-04-19T08:27:38.380710+05:30
Rourkela,Odisha,22.2604,84.8536,33.0,63,0.0,984.9,8.8,23.4,135,80.3,67.1,3,5,7,1,2026-04-19T08:27:38.380716+05:30
Raipur,Chhattisgarh,21.2514,81.6296,32.6,49,0.0,974.9,9.0,36.4,151,51.1,48.5,0,5,7,1,2026-04-19T08:27:38.380721+05:30
Bhilai,Chhattisgarh,21.1938,81.3509,32.2,52,0.0,975.2,8.95,34.6,153,51.7,49.0,0,5,7,1,2026-04-19T08:27:38.380725+05:30
Guwahati,Assam,26.1158,91.7086,24.5,91,0.0,1003.6,8.55,24.1,118,58.6,44.9,3,5,4,1,2026-04-19T08:27:38.380730+05:30
Agartala,Tripura,23.8315,91.2868,27.6,84,0.0,1007.3,8.75,25.9,123,35.2,30.4,7,5,4,1,2026-04-19T08:27:38.380734+05:30
Shillong,Meghalaya,25.5788,91.8933,18.0,82,0.0,858.2,6.75,44.6,104,41.7,28.2,3,10,7,0,2026-04-19T08:27:38.380740+05:30
Imphal,Manipur,24.817,93.9368,21.2,80,0.0,924.9,8.2,58.7,150,75.7,57.5,3,5,7,1,2026-04-19T08:27:38.380745+05:30
Aizawl,Mizoram,23.7271,92.7176,23.2,78,0.0,895.0,8.7,38.9,150,54.9,44.2,3,5,7,1,2026-04-19T08:27:38.380750+05:30
Kohima,Nagaland,25.6701,94.1077,19.4,77,0.0,857.1,8.65,45.4,129,58.8,41.1,3,5,7,0,2026-04-19T08:27:38.380754+05:30
Gangtok,Sikkim,27.3314,88.6138,18.9,82,0.0,839.7,8.9,22.0,83,13.0,11.7,3,10,7,0,2026-04-19T08:27:38.380759+05:30
Siliguri,West Bengal,26.7271,88.3953,24.7,79,0.0,995.3,8.45,24.8,151,69.8,58.7,3,5,7,1,2026-04-19T08:27:41.725961+05:30
Durgapur,West Bengal,23.5204,87.3119,30.6,79,0.0,994.5,8.9,49.7,124,47.8,43.5,3,5,7,1,2026-04-19T08:27:41.725992+05:30
Asansol,West Bengal,23.6739,86.9524,31.0,78,0.0,992.8,8.95,39.2,136,70.5,62.2,3,5,7,1,2026-04-19T08:27:41.726001+05:30
Pondicherry,Puducherry,11.9139,79.8145,29.4,78,0.0,1009.7,9.25,30.6,32,13.1,9.3,7,0,4,1,2026-04-19T08:27:41.726007+05:30
Port Blair,Andaman and Nicobar Islands,11.6234,92.7265,29.1,76,0.0,1008.1,9.15,13.7,55,16.7,13.1,7,0,4,1,2026-04-19T08:27:41.726040+05:30
Haridwar,Uttarakhand,29.9457,78.1642,28.7,45,0.0,972.8,6.3,31.0,65,28.2,22.1,4,5,7,0,2026-04-19T08:27:41.726046+05:30
Rishikesh,Uttarakhand,30.0869,78.2676,27.3,51,0.0,966.1,6.7,25.6,57,22.5,13.2,4,5,7,1,2026-04-19T08:27:41.726052+05:30
Nainital,Uttarakhand,29.3919,79.4542,26.3,34,0.0,809.2,8.1,60.8,56,24.7,14.1,4,5,7,0,2026-04-19T08:27:41.726058+05:30
Mussoorie,Uttarakhand,30.4599,78.0664,22.1,36,0.0,804.8,6.9,41.0,56,19.7,16.0,0,5,7,0,2026-04-19T08:27:41.726063+05:30
Dharamshala,Himachal Pradesh,32.219,76.3234,24.3,36,0.0,870.2,6.3,33.5,34,11.0,5.3,0,5,7,0,2026-04-19T08:27:41.726069+05:30
Dalhousie,Himachal Pradesh,32.5387,75.971,20.0,38,0.0,805.5,6.2,32.0,57,15.5,10.5,0,5,7,0,2026-04-19T08:27:41.726075+05:30
Patiala,Punjab,30.3398,76.3869,25.2,61,0.0,976.8,6.05,32.4,134,303.6,66.1,7,5,7,1,2026-04-19T08:27:41.726083+05:30
Bhatinda,Punjab,30.211,74.9455,26.5,43,0.0,983.2,7.75,32.8,80,51.2,23.7,4,5,7,0,2026-04-19T08:27:41.726088+05:30
Rohtak,Haryana,28.8955,76.6066,26.3,69,0.0,980.2,6.55,24.1,223,406.1,85.4,7,5,7,1,2026-04-19T08:27:41.726093+05:30
Panipat,Haryana,29.3909,76.9635,27.1,58,0.0,978.8,6.05,36.4,428,451.7,93.4,4,5,7,1,2026-04-19T08:27:41.726098+05:30
Mathura,Uttar Pradesh,27.4924,77.6737,28.5,59,0.0,985.2,7.65,27.4,308,476.8,106.9,4,5,7,1,2026-04-19T08:27:41.726103+05:30
Vrindavan,Uttar Pradesh,27.5823,77.7027,29.1,53,0.0,985.6,7.65,28.1,308,476.8,106.9,4,5,7,1,2026-04-19T08:27:41.726108+05:30
Ayodhya,Uttar Pradesh,26.7922,82.1998,28.7,76,0.0,994.0,8.05,33.8,91,71.7,42.8,7,5,7,1,2026-04-19T08:27:41.726113+05:30
Ratlam,Madhya Pradesh,23.3315,75.0367,27.8,51,0.0,954.5,8.45,26.3,36,16.1,13.6,4,5,7,1,2026-04-19T08:27:41.726118+05:30
Sagar,Madhya Pradesh,23.8388,78.7378,30.5,42,0.0,950.3,8.65,30.2,54,25.9,14.9,0,5,7,1,2026-04-19T08:27:41.726124+05:30
Satna,Madhya Pradesh,24.6005,80.8322,31.9,45,0.0,970.6,8.65,32.0,73,64.7,28.8,0,5,7,1,2026-04-19T08:27:41.726128+05:30
Akola,Maharashtra,20.7002,77.0082,30.2,50,0.0,975.3,8.85,25.6,65,19.5,17.3,0,5,7,1,2026-04-19T08:27:41.726134+05:30
Amravati,Maharashtra,20.9374,77.7796,28.4,55,0.0,967.4,8.85,20.2,67,19.8,18.2,4,5,7,1,2026-04-19T08:27:41.726139+05:30
Latur,Maharashtra,18.4088,76.5604,28.7,51,0.0,941.2,8.7,40.7,106,40.5,36.4,4,5,7,1,2026-04-19T08:27:41.726145+05:30
Nanded,Maharashtra,19.1383,77.3091,29.3,54,0.0,969.4,9.0,26.3,87,41.6,39.0,4,5,7,1,2026-04-19T08:27:41.726150+05:30
Gulbarga,Karnataka,17.3297,76.8343,30.7,52,0.0,959.6,9.1,58.7,97,41.3,38.2,0,5,7,1,2026-04-19T08:27:41.726154+05:30
Bidar,Karnataka,17.9104,77.5199,30.6,48,0.0,937.0,9.15,45.7,102,46.3,42.3,0,5,7,1,2026-04-19T08:27:41.726159+05:30
Hospet,Karnataka,15.2689,76.3909,27.2,80,0.0,956.2,9.25,26.3,90,30.0,27.5,7,5,7,1,2026-04-19T08:27:41.726164+05:30
Tirupur,Tamil Nadu,11.1085,77.3411,28.8,76,0.0,976.6,9.4,30.2,74,28.4,25.3,7,5,7,1,2026-04-19T08:27:41.726168+05:30
Alappuzha,Kerala,9.4981,76.3388,29.1,82,0.0,1009.1,9.1,27.4,84,40.2,32.7,7,0,4,1,2026-04-19T08:27:41.726173+05:30
Munnar,Kerala,10.0889,77.0595,24.9,64,0.0,858.8,9.65,27.4,80,34.1,31.9,3,5,7,1,2026-04-19T08:27:41.726178+05:30
Silchar,Assam,24.8333,92.7789,25.0,90,0.0,1007.3,8.8,29.5,157,94.8,74.7,7,5,4,1,2026-04-19T08:27:41.726183+05:30
Dibrugarh,Assam,27.4728,94.912,25.0,84,0.0,997.5,8.65,19.4,137,76.1,56.5,7,5,7,1,2026-04-19T08:27:41.726188+05:30
