city,state,latitude,longitude,temp,humidity,rain,pressure,uv_index,wind_gusts,aqi,pm10,pm2_5,mosquito_risk,arthritis_risk,migraine_risk,frizz_risk,updated_at
Delhi,Delhi,28.6139,77.209,35.2,21,0.0,983.0,7.1,45.7,516,1043.1,150.4,0,5,10,0,2026-04-25T21:11:42.751870+05:30
Mumbai,Maharashtra,19.076,72.8777,30.6,64,0.0,1007.7,8.0,42.8,132,42.0,25.7,3,5,4,1,2026-04-25T21:11:42.751916+05:30
Bangalore,Karnataka,12.9716,77.5946,28.9,39,0.0,913.5,9.3,36.4,114,31.0,27.2,4,5,7,0,2026-04-25T21:11:42.751932+05:30
Hyderabad,Telangana,17.385,78.4867,33.3,30,0.0,955.0,9.3,29.2,166,50.9,46.1,0,5,7,0,2026-04-25T21:11:42.751942+05:30
Chennai,Tamil Nadu,13.0827,80.2707,29.5,78,0.0,1008.3,9.3,50.0,32,11.6,7.9,7,0,4,1,2026-04-25T21:11:42.751952+05:30
Kolkata,West Bengal,22.5726,88.3639,28.5,81,0.0,1005.7,8.55,38.9,76,24.5,19.8,7,5,4,1,2026-04-25T21:11:42.751964+05:30
Pune,Maharashtra,18.5204,73.8567,32.0,31,0.0,949.3,8.35,36.4,152,50.9,44.4,0,5,7,0,2026-04-25T21:11:42.751972+05:30
Ahmedabad,Gujarat,23.0225,72.5714,39.7,12,0.0,1001.3,8.2,24.1,81,49.4,30.7,0,5,7,0,2026-04-25T21:11:42.751980+05:30
Jaipur,Rajasthan,26.9124,75.7873,34.3,20,0.0,961.3,8.05,38.2,127,197.9,41.7,0,5,7,0,2026-04-25T21:11:42.751988+05:30
Lucknow,Uttar Pradesh,26.8467,80.9462,36.8,17,0.0,991.8,7.9,42.1,130,130.9,40.6,0,5,10,0,2026-04-25T21:11:42.751996+05:30
Kanpur,Uttar Pradesh,26.4499,80.3319,36.8,17,0.0,990.4,7.9,39.6,172,465.7,71.2,0,5,10,0,2026-04-25T21:11:42.752004+05:30
Chandigarh,Chandigarh,30.7333,76.7794,29.0,38,0.0,969.0,7.25,59.4,64,43.7,21.3,4,5,7,0,2026-04-25T21:11:42.752012+05:30
Srinagar,Jammu and Kashmir,34.0837,74.7973,14.2,83,0.0,844.6,8.6,31.3,73,46.4,28.9,3,10,7,0,2026-04-25T21:11:42.752020+05:30
Jammu,Jammu and Kashmir,32.7266,74.857,29.5,41,0.0,973.4,8.2,43.6,80,86.1,33.5,4,5,7,0,2026-04-25T21:11:42.752027+05:30
Amritsar,Punjab,31.634,74.8723,31.8,29,0.0,981.0,8.1,38.2,89,127.1,48.8,0,5,7,0,2026-04-25T21:11:42.752035+05:30
Ludhiana,Punjab,30.901,75.8573,30.8,34,0.0,978.9,7.7,54.4,83,87.3,31.0,0,5,7,0,2026-04-25T21:11:42.752043+05:30
Jalandhar,Punjab,31.326,75.5762,29.4,40,0.0,979.8,7.9,37.4,92,111.3,37.5,4,5,7,0,2026-04-25T21:11:42.752051+05:30
Dehradun,Uttarakhand,30.6284,78.0322,16.0,63,0.0,829.3,7.85,50.0,64,43.3,17.2,3,5,7,0,2026-04-25T21:11:42.752058+05:30
Shimla,Himachal Pradesh,31.1048,77.1734,14.7,54,0.0,785.9,7.6,55.1,57,68.9,19.6,0,5,7,0,2026-04-25T21:11:42.752065+05:30
Manali,Himachal Pradesh,32.2396,77.1887,8.8,91,0.0,818.8,9.85,43.9,94,19.7,7.6,3,10,7,0,2026-04-25T21:11:42.752072+05:30
Gurgaon,Haryana,28.4595,77.0266,32.7,25,0.0,981.3,7.5,47.2,1303,2138.3,251.5,0,5,7,0,2026-04-25T21:11:42.752080+05:30
Noida,Uttar Pradesh,28.5355,77.391,34.2,22,0.0,984.1,7.4,33.8,1303,2138.3,251.5,0,5,7,0,2026-04-25T21:11:42.752086+05:30
Ghaziabad,Uttar Pradesh,28.6692,77.4538,34.2,21,0.0,982.5,7.4,46.8,317,828.9,124.3,0,5,7,0,2026-04-25T21:11:42.752093+05:30
Faridabad,Haryana,28.4089,77.3178,35.3,21,0.0,983.5,7.5,48.6,1303,2138.3,251.5,0,5,10,0,2026-04-25T21:11:42.752099+05:30
Meerut,Uttar Pradesh,28.9845,77.7064,31.7,28,0.0,981.2,7.35,47.2,317,828.9,124.3,0,5,7,0,2026-04-25T21:11:42.752106+05:30
Agra,Uttar Pradesh,27.1767,78.0081,35.4,21,0.0,987.5,7.8,45.0,451,1575.8,181.6,0,5,10,0,2026-04-25T21:11:42.752115+05:30
Varanasi,Uttar Pradesh,25.3176,82.9739,35.5,21,0.0,995.6,8.5,38.9,131,181.1,70.3,0,5,10,0,2026-04-25T21:11:42.752122+05:30
Prayagraj,Uttar Pradesh,25.4358,81.8463,33.8,24,0.0,993.8,8.4,31.7,115,190.9,55.5,0,5,7,0,2026-04-25T21:11:42.752130+05:30
Gorakhpur,Uttar Pradesh,26.7606,83.3732,30.0,59,0.0,996.7,8.3,43.2,176,100.4,55.4,4,5,7,1,2026-04-25T21:11:42.752139+05:30
Bareilly,Uttar Pradesh,28.367,79.4304,32.2,29,0.0,985.1,7.7,48.6,145,53.4,32.6,0,5,7,0,2026-04-25T21:11:42.752146+05:30
Aligarh,Uttar Pradesh,27.8974,78.088,34.6,21,0.0,984.9,7.6,40.3,499,1389.5,182.1,0,5,7,0,2026-04-25T21:11:42.752153+05:30
Moradabad,Uttar Pradesh,28.8386,78.7733,32.8,32,0.0,982.6,7.55,57.2,155,212.3,50.3,0,5,7,0,2026-04-25T21:11:42.752159+05:30
Saharanpur,Uttar Pradesh,29.9637,77.546,31.4,31,0.0,975.2,7.15,54.0,102,147.6,39.6,0,5,7,0,2026-04-25T21:11:42.752165+05:30
Jhansi,Uttar Pradesh,25.4484,78.5685,35.0,17,0.0,977.6,8.3,32.0,94,107.1,33.5,0,5,7,0,2026-04-25T21:11:46.020235+05:30
Surat,Gujarat,21.1702,72.8311,30.6,62,0.0,1006.2,7.85,36.0,105,56.9,43.9,3,5,4,1,2026-04-25T21:11:46.020264+05:30
Vadodara,Gujarat,22.3072,73.1812,37.3,16,0.0,1003.3,8.15,30.6,118,50.4,32.9,0,5,7,0,2026-04-25T21:11:46.020274+05:30
Rajkot,Gujarat,22.3039,70.8022,31.1,35,0.0,994.8,7.9,36.0,79,59.4,22.1,0,5,7,0,2026-04-25T21:11:46.020282+05:30
Thane,Maharashtra,19.2183,72.9781,31.7,48,0.0,1006.9,8.0,41.0,132,42.0,25.7,0,5,4,1,2026-04-25T21:11:46.020289+05:30
Nagpur,Maharashtra,21.1458,79.0882,36.4,16,0.0,972.7,8.9,37.1,172,48.1,39.8,0,5,10,0,2026-04-25T21:11:46.020296+05:30
Nashik,Maharashtra,19.9975,73.7898,31.7,24,0.0,946.7,8.3,31.0,134,33.6,25.1,0,5,7,0,2026-04-25T21:11:46.020303+05:30
Aurangabad,Maharashtra,19.8762,75.3433,34.7,18,0.0,944.9,8.75,29.5,133,41.8,33.3,0,5,7,0,2026-04-25T21:11:46.020309+05:30
Solapur,Maharashtra,17.6599,75.9064,34.2,24,0.0,957.3,8.6,25.6,171,48.0,43.5,0,5,7,0,2026-04-25T21:11:46.020317+05:30
Kolhapur,Maharashtra,16.705,74.2433,29.7,47,0.0,948.4,9.05,37.8,151,65.7,60.8,4,5,7,1,2026-04-25T21:11:46.020325+05:30
Goa,Goa,15.2993,74.124,30.2,79,0.0,997.8,8.9,29.5,72,31.4,23.2,3,5,7,1,2026-04-25T21:11:46.020332+05:30
Jodhpur,Rajasthan,26.2389,73.0243,36.5,18,0.0,983.1,8.3,32.8,86,119.7,26.5,0,5,10,0,2026-04-25T21:11:46.020339+05:30
Udaipur,Rajasthan,24.5854,73.7125,32.8,23,0.0,947.7,8.8,41.0,76,60.3,20.9,0,5,7,0,2026-04-25T21:11:46.020346+05:30
Kota,Rajasthan,25.2138,75.8648,35.1,20,0.0,979.1,8.3,31.3,99,90.3,37.7,0,5,10,0,2026-04-25T21:11:46.020353+05:30
Bikaner,Rajasthan,28.0229,73.3119,36.0,21,0.0,981.8,8.15,38.5,74,92.2,25.3,0,5,10,0,2026-04-25T21:11:46.020359+05:30
Ajmer,Rajasthan,26.4499,74.6399,33.5,23,0.0,956.5,8.25,35.6,80,100.1,30.9,0,5,7,0,2026-04-25T21:11:46.020366+05:30
Gwalior,Madhya Pradesh,26.2183,78.1828,35.4,20,0.0,983.2,8.0,41.0,91,120.6,33.1,0,5,10,0,2026-04-25T21:11:46.020372+05:30
Indore,Madhya Pradesh,22.7196,75.8577,35.5,16,0.0,948.7,8.65,32.0,81,46.0,25.0,0,5,10,0,2026-04-25T21:11:46.020379+05:30
Bhopal,Madhya Pradesh,23.2599,77.4126,35.8,14,0.0,953.6,8.65,30.6,103,36.0,21.7,0,5,10,0,2026-04-25T21:11:46.020385+05:30
Jabalpur,Madhya Pradesh,23.1815,79.9864,34.5,16,0.0,960.8,8.75,34.9,112,30.6,20.8,0,5,7,0,2026-04-25T21:11:46.020392+05:30
Ujjain,Madhya Pradesh,23.1765,75.7885,34.5,19,0.0,954.1,8.55,29.2,72,55.9,30.7,0,5,7,0,2026-04-25T21:11:46.020399+05:30
Visakhapatnam,Andhra Pradesh,17.6868,83.2185,28.6,86,0.0,1004.9,8.7,42.8,59,17.7,13.0,7,5,4,1,2026-04-25T21:11:46.020406+05:30
Vijayawada,Andhra Pradesh,16.5062,80.648,30.2,72,0.0,1003.8,8.85,31.0,52,14.7,11.6,3,5,4,1,2026-04-25T21:11:46.020412+05:30
Guntur,Andhra Pradesh,16.3067,80.4365,29.0,81,0.0,1005.2,8.6,36.7,63,15.8,12.7,7,5,4,1,2026-04-25T21:11:46.020418+05:30
Nellore,Andhra Pradesh,14.4426,79.9865,28.9,83,0.0,1006.8,9.25,42.1,47,11.8,8.5,7,5,4,1,2026-04-25T21:11:46.020425+05:30
Kurnool,Andhra Pradesh,15.8281,78.0373,35.2,25,0.0,977.1,8.9,34.2,126,52.6,44.4,0,5,10,0,2026-04-25T21:11:46.020433+05:30
Kakinada,Andhra Pradesh,16.9891,82.2475,29.1,78,0.0,1008.5,8.45,37.1,40,14.3,9.2,7,0,4,1,2026-04-25T21:11:46.020439+05:30
Tirupati,Andhra Pradesh,13.6288,79.4192,31.1,52,0.0,992.4,9.35,34.9,79,20.0,17.2,0,5,7,1,2026-04-25T21:11:46.020446+05:30
Warangal,Telangana,17.9689,79.5941,32.8,38,0.0,979.5,9.0,29.5,131,42.8,39.2,0,5,7,1,2026-04-25T21:11:46.020452+05:30
Nizamabad,Telangana,18.6725,78.0941,33.0,28,0.0,965.1,8.75,27.7,158,66.6,59.6,0,5,7,0,2026-04-25T21:11:46.020458+05:30
Mysore,Karnataka,12.2958,76.6396,29.2,37,0.0,929.2,8.9,45.0,107,29.7,26.6,4,5,7,0,2026-04-25T21:11:46.020465+05:30
Mangalore,Karnataka,12.9141,74.856,30.0,79,0.0,1006.6,9.1,40.7,83,22.9,16.9,7,5,4,1,2026-04-25T21:11:46.020471+05:30
Hubli-Dharwad,Karnataka,15.3647,75.124,27.8,54,0.0,941.2,9.0,47.5,156,53.4,48.5,4,5,7,1,2026-04-25T21:11:46.020478+05:30
Belgaum,Karnataka,15.8497,74.4977,26.5,68,0.0,926.7,9.2,34.9,141,49.6,45.5,7,5,7,1,2026-04-25T21:11:49.284891+05:30
Coimbatore,Tamil Nadu,11.0168,76.9558,32.4,35,0.0,962.5,8.95,46.1,92,32.6,29.5,0,5,7,0,2026-04-25T21:11:49.284921+05:30
Madurai,Tamil Nadu,9.9252,78.1198,31.9,42,0.0,993.9,9.25,39.2,60,16.8,15.4,0,5,7,1,2026-04-25T21:11:49.284931+05:30
Trichy,Tamil Nadu,10.7905,78.7047,30.5,60,0.0,1000.7,9.3,33.8,64,19.0,17.6,0,5,4,1,2026-04-25T21:11:49.284939+05:30
Salem,Tamil Nadu,11.6643,78.146,32.4,40,0.0,978.2,9.0,38.9,97,28.9,25.5,0,5,7,1,2026-04-25T21:11:49.284947+05:30
Tirunelveli,Tamil Nadu,8.7139,77.7567,29.4,69,0.0,1004.1,9.2,40.0,62,12.3,11.5,7,5,4,1,2026-04-25T21:11:49.284954+05:30
Vellore,Tamil Nadu,12.9165,79.1325,30.6,54,0.0,985.8,9.35,35.6,90,27.8,25.1,0,5,7,1,2026-04-25T21:11:49.284962+05:30
Erode,Tamil Nadu,11.341,77.7172,33.5,36,0.0,989.4,9.3,41.8,77,25.4,22.8,0,5,7,1,2026-04-25T21:11:49.284969+05:30
Kochi,Kerala,9.9312,76.2673,29.5,76,0.0,1009.3,8.4,42.1,123,25.4,22.8,7,0,4,1,2026-04-25T21:11:49.284976+05:30
Thiruvananthapuram,Kerala,8.5241,76.9366,27.4,87,0.0,1008.8,8.6,33.8,71,15.9,12.2,7,0,4,1,2026-04-25T21:11:49.284983+05:30
Kozhikode,Kerala,11.2588,75.7804,29.3,81,0.0,1008.0,8.7,36.7,76,18.0,12.6,7,0,4,1,2026-04-25T21:11:49.284990+05:30
Thrissur,Kerala,10.5276,76.2144,29.0,83,0.0,1007.6,8.1,44.6,99,19.7,17.9,7,5,4,1,2026-04-25T21:11:49.284997+05:30
Kannur,Kerala,11.8745,75.3704,30.0,80,0.0,1007.4,8.6,40.0,74,22.6,16.4,7,5,4,1,2026-04-25T21:11:49.285004+05:30
Patna,Bihar,25.5941,85.1376,28.4,74,0.0,999.9,8.65,60.1,177,86.4,58.1,7,5,7,1,2026-04-25T21:11:49.285010+05:30
Gaya,Bihar,24.7914,85.0002,29.8,64,0.0,993.2,8.7,50.8,159,82.7,48.9,7,5,7,1,2026-04-25T21:11:49.285016+05:30
Muzaffarpur,Bihar,26.1209,85.3647,27.0,76,0.0,1000.2,8.6,50.4,182,85.9,58.6,7,5,4,1,2026-04-25T21:11:49.285022+05:30
Bhagalpur,Bihar,25.2425,87.0117,27.9,79,0.0,1001.4,8.6,55.1,203,69.6,55.8,7,5,4,1,2026-04-25T21:11:49.285028+05:30
Ranchi,Jharkhand,23.3441,85.3096,28.9,31,0.0,937.3,9.2,28.8,170,46.3,36.3,4,5,7,0,2026-04-25T21:11:49.285034+05:30
Jamshedpur,Jharkhand,22.8046,86.2029,31.1,71,0.0,990.1,8.9,33.5,178,37.3,32.1,3,5,7,1,2026-04-25T21:11:49.285041+05:30
Dhanbad,Jharkhand,23.7957,86.4304,32.0,62,0.0,979.6,8.95,48.6,187,44.1,40.5,3,5,7,1,2026-04-25T21:11:49.285047+05:30
Bokaro,Jharkhand,23.6693,86.1511,31.5,59,0.0,983.0,8.95,33.1,177,56.9,46.6,0,5,7,1,2026-04-25T21:11:49.285053+05:30
Bhubaneswar,Odisha,20.2961,85.8245,27.0,92,0.0,1003.3,9.1,41.0,62,17.5,14.0,7,5,4,1,2026-04-25T21:11:49.285059+05:30
Cuttack,Odisha,20.4625,85.8828,27.4,90,0.0,1005.0,9.15,38.2,62,17.5,14.0,7,5,4,1,2026-04-25T21:11:49.285066+05:30
Rourkela,Odisha,22.2604,84.8536,32.6,36,0.0,983.7,8.6,45.0,202,49.8,44.2,0,5,7,0,2026-04-25T21:11:49.285072+05:30
Raipur,Chhattisgarh,21.2514,81.6296,35.7,17,0.0,973.5,8.95,31.0,180,39.5,33.6,0,5,10,0,2026-04-25T21:11:49.285079+05:30
Bhilai,Chhattisgarh,21.1938,81.3509,35.0,20,0.0,974.0,9.0,35.6,146,42.7,36.7,0,5,7,0,2026-04-25T21:11:49.285085+05:30
Guwahati,Assam,26.1158,91.7086,24.8,86,0.0,1003.7,8.55,42.1,160,86.8,68.2,3,5,4,1,2026-04-25T21:11:49.285091+05:30
Agartala,Tripura,23.8315,91.2868,29.5,62,0.0,1007.3,8.75,35.6,152,98.0,77.8,7,5,4,1,2026-04-25T21:11:49.285098+05:30
Shillong,Meghalaya,25.5788,91.8933,18.2,79,0.0,859.3,8.2,29.5,147,68.7,51.2,3,5,7,0,2026-04-25T21:11:49.285105+05:30
Imphal,Manipur,24.817,93.9368,21.0,78,0.0,924.1,9.1,38.5,154,104.8,68.7,3,5,7,1,2026-04-25T21:11:49.285111+05:30
Aizawl,Mizoram,23.7271,92.7176,22.5,56,0.0,894.2,8.95,39.6,118,99.0,44.4,0,5,7,0,2026-04-25T21:11:49.285117+05:30
Kohima,Nagaland,25.6701,94.1077,17.1,91,0.0,857.1,8.8,38.2,156,118.5,80.3,3,10,7,0,2026-04-25T21:11:49.285123+05:30
Gangtok,Sikkim,27.3314,88.6138,14.2,85,0.0,838.0,8.8,41.4,109,50.4,34.8,3,10,7,0,2026-04-25T21:11:49.285130+05:30
Siliguri,West Bengal,26.7271,88.3953,24.4,84,0.0,994.0,8.45,33.8,149,92.2,65.9,3,5,7,1,2026-04-25T21:11:52.549315+05:30
Durgapur,West Bengal,23.5204,87.3119,29.2,79,0.0,994.5,8.9,38.5,149,37.4,34.3,7,5,7,1,2026-04-25T21:11:52.549345+05:30
Asansol,West Bengal,23.6739,86.9524,30.2,76,0.0,993.3,8.95,41.0,163,37.4,34.0,3,5,7,1,2026-04-25T21:11:52.549355+05:30
Pondicherry,Puducherry,11.9139,79.8145,29.3,78,0.0,1009.6,9.2,43.6,27,11.1,7.1,7,0,4,1,2026-04-25T21:11:52.549364+05:30
Port Blair,Andaman and Nicobar Islands,11.6234,92.7265,28.1,81,0.0,1008.9,9.15,33.1,40,23.2,15.7,7,0,4,1,2026-04-25T21:11:52.549372+05:30
Haridwar,Uttarakhand,29.9457,78.1642,27.3,44,0.0,972.9,7.25,35.6,97,92.7,32.9,4,5,7,0,2026-04-25T21:11:52.549379+05:30
Rishikesh,Uttarakhand,30.0869,78.2676,27.0,42,0.0,965.6,7.35,28.4,98,129.9,33.5,4,5,7,0,2026-04-25T21:11:52.549387+05:30
Nainital,Uttarakhand,29.3919,79.4542,16.8,54,0.0,806.3,8.2,40.3,148,52.6,22.4,0,5,7,0,2026-04-25T21:11:52.549395+05:30
Mussoorie,Uttarakhand,30.4599,78.0664,16.3,56,0.0,803.0,7.75,59.4,96,71.7,28.4,0,5,7,0,2026-04-25T21:11:52.549402+05:30
Dharamshala,Himachal Pradesh,32.219,76.3234,21.3,41,0.0,870.8,7.65,59.8,56,59.8,17.9,0,5,7,0,2026-04-25T21:11:52.549409+05:30
Dalhousie,Himachal Pradesh,32.5387,75.971,12.2,73,0.0,803.8,8.1,45.7,60,94.1,31.9,3,5,7,0,2026-04-25T21:11:52.549417+05:30
Patiala,Punjab,30.3398,76.3869,31.4,32,0.0,978.4,7.35,56.2,619,743.2,92.4,0,5,7,0,2026-04-25T21:11:52.549424+05:30
Bhatinda,Punjab,30.211,74.9455,33.2,25,0.0,983.9,8.05,52.9,90,102.4,36.3,0,5,7,0,2026-04-25T21:11:52.549431+05:30
Rohtak,Haryana,28.8955,76.6066,32.2,26,0.0,981.9,7.35,51.1,810,1221.9,166.2,0,5,7,0,2026-04-25T21:11:52.549437+05:30
Panipat,Haryana,29.3909,76.9635,33.3,24,0.0,980.5,7.15,54.0,1484,1903.6,226.8,0,5,7,0,2026-04-25T21:11:52.549443+05:30
Mathura,Uttar Pradesh,27.4924,77.6737,34.5,22,0.0,986.4,7.75,45.0,553,1810.5,220.3,0,5,7,0,2026-04-25T21:11:52.549449+05:30
Vrindavan,Uttar Pradesh,27.5823,77.7027,34.2,23,0.0,986.8,7.65,44.6,553,1810.5,220.3,0,5,7,0,2026-04-25T21:11:52.549456+05:30
Ayodhya,Uttar Pradesh,26.7922,82.1998,31.3,53,0.0,994.2,8.05,35.3,146,170.0,63.3,0,5,7,1,2026-04-25T21:11:52.549461+05:30
Ratlam,Madhya Pradesh,23.3315,75.0367,34.8,18,0.0,955.0,8.45,29.9,73,61.0,31.3,0,5,7,0,2026-04-25T21:11:52.549468+05:30
Sagar,Madhya Pradesh,23.8388,78.7378,33.2,21,0.0,950.3,8.65,29.9,99,44.0,18.0,0,5,7,0,2026-04-25T21:11:52.549475+05:30
Satna,Madhya Pradesh,24.6005,80.8322,33.5,21,0.0,970.6,8.65,41.0,117,129.5,33.4,0,5,7,0,2026-04-25T21:11:52.549481+05:30
Akola,Maharashtra,20.7002,77.0082,35.0,19,0.0,974.5,8.7,23.4,126,31.7,22.9,0,5,7,0,2026-04-25T21:11:52.549488+05:30
Amravati,Maharashtra,20.9374,77.7796,36.1,18,0.0,967.0,8.35,27.7,132,40.6,30.0,0,5,10,0,2026-04-25T21:11:52.549496+05:30
Latur,Maharashtra,18.4088,76.5604,32.3,23,0.0,940.3,8.6,32.0,160,43.8,38.2,0,5,7,0,2026-04-25T21:11:52.549503+05:30
Nanded,Maharashtra,19.1383,77.3091,33.3,23,0.0,968.2,8.6,28.8,135,48.9,41.8,0,5,7,0,2026-04-25T21:11:52.549510+05:30
Gulbarga,Karnataka,17.3297,76.8343,34.0,25,0.0,959.2,9.05,27.7,178,48.1,43.3,0,5,7,0,2026-04-25T21:11:52.549517+05:30
Bidar,Karnataka,17.9104,77.5199,29.8,36,0.0,936.2,8.85,27.7,162,58.7,52.2,4,5,7,0,2026-04-25T21:11:52.549524+05:30
Hospet,Karnataka,15.2689,76.3909,33.3,24,0.0,955.8,9.3,27.4,181,41.7,37.1,0,5,7,0,2026-04-25T21:11:52.549530+05:30
Tirupur,Tamil Nadu,11.1085,77.3411,33.8,33,0.0,975.6,9.4,41.8,83,28.9,25.8,0,5,7,0,2026-04-25T21:11:52.549536+05:30
Alappuzha,Kerala,9.4981,76.3388,27.8,90,0.0,1009.3,8.55,39.2,101,19.6,15.9,7,0,4,1,2026-04-25T21:11:52.549543+05:30
Munnar,Kerala,10.0889,77.0595,19.1,66,0.0,857.6,9.15,31.3,61,26.3,25.2,3,5,7,0,2026-04-25T21:11:52.549550+05:30
Silchar,Assam,24.8333,92.7789,26.3,78,0.0,1005.8,8.75,28.8,161,144.4,93.4,7,5,4,1,2026-04-25T21:11:52.549557+05:30
Dibrugarh,Assam,27.4728,94.912,24.1,89,0.0,997.9,8.6,31.7,102,45.1,35.0,3,5,7,1,2026-04-25T21:11:52.549563+05:30
