city,state,latitude,longitude,temp,humidity,rain,pressure,uv_index,wind_gusts,aqi,pm10,pm2_5,no2,co,o3,so2,mosquito_risk,arthritis_risk,migraine_risk,frizz_risk,updated_at
Delhi,Delhi,28.6139,77.209,38.5,33,0.0,976.0,7.75,27.7,192,289.6,82.4,5.5,254.0,187.0,16.5,0,5,10,1,2026-06-25T16:15:04.402796+05:30
Mumbai,Maharashtra,19.076,72.8777,28.2,81,0.0,1004.8,4.6,37.1,55,24.9,14.8,7.5,181.0,90.0,10.3,7,5,0,1,2026-06-25T16:15:04.402840+05:30
Bangalore,Karnataka,12.9716,77.5946,26.9,65,0.0,909.1,8.55,52.9,26,12.6,6.9,6.8,271.0,68.0,2.4,7,5,7,1,2026-06-25T16:15:04.402856+05:30
Hyderabad,Telangana,17.385,78.4867,30.9,53,0.0,948.0,7.6,41.4,37,21.5,12.2,6.9,277.0,88.0,3.5,0,5,7,1,2026-06-25T16:15:04.402866+05:30
Chennai,Tamil Nadu,13.0827,80.2707,32.8,62,0.1,1001.0,7.7,38.9,59,26.5,18.5,3.5,240.0,131.0,4.6,6,5,4,1,2026-06-25T16:15:04.402874+05:30
Kolkata,West Bengal,22.5726,88.3639,30.5,83,0.0,999.4,8.7,35.3,125,26.6,24.7,4.2,513.0,144.0,10.2,3,5,7,1,2026-06-25T16:15:04.402881+05:30
Pune,Maharashtra,18.5204,73.8567,27.2,69,0.0,944.3,8.2,40.3,32,15.7,7.9,3.2,142.0,70.0,3.8,7,5,7,1,2026-06-25T16:15:04.402888+05:30
Ahmedabad,Gujarat,23.0225,72.5714,38.1,37,0.0,994.7,8.0,37.8,71,69.2,24.6,1.6,135.0,94.0,2.8,0,5,10,1,2026-06-25T16:15:04.402895+05:30
Jaipur,Rajasthan,26.9124,75.7873,36.1,36,0.0,954.0,8.2,31.3,133,156.5,41.4,1.2,153.0,99.0,2.7,0,5,10,1,2026-06-25T16:15:04.402902+05:30
Lucknow,Uttar Pradesh,26.8467,80.9462,39.3,31,0.0,985.4,8.3,34.2,157,263.6,63.6,1.1,181.0,152.0,5.0,0,5,10,1,2026-06-25T16:15:04.402913+05:30
Kanpur,Uttar Pradesh,26.4499,80.3319,39.5,27,0.0,983.8,8.3,45.0,151,228.6,53.4,1.1,173.0,142.0,4.6,0,5,10,1,2026-06-25T16:15:04.402920+05:30
Chandigarh,Chandigarh,30.7333,76.7794,35.6,43,0.0,963.2,7.8,26.6,187,115.7,48.4,2.0,289.0,207.0,13.2,0,5,10,1,2026-06-25T16:15:04.402927+05:30
Srinagar,Jammu and Kashmir,34.0837,74.7973,29.9,35,0.0,840.7,9.1,26.6,97,16.2,13.4,1.1,231.0,158.0,2.1,4,5,7,0,2026-06-25T16:15:04.402934+05:30
Jammu,Jammu and Kashmir,32.7266,74.857,34.4,38,0.0,967.3,8.65,32.0,117,55.3,30.4,0.8,263.0,153.0,4.6,0,5,7,1,2026-06-25T16:15:04.402940+05:30
Amritsar,Punjab,31.634,74.8723,32.8,54,0.0,974.9,8.45,31.3,137,64.0,37.4,0.5,238.0,186.0,6.4,0,5,7,1,2026-06-25T16:15:04.402947+05:30
Ludhiana,Punjab,30.901,75.8573,37.5,35,0.0,972.4,8.05,34.6,165,165.8,57.0,0.9,245.0,186.0,6.3,0,5,10,1,2026-06-25T16:15:04.402953+05:30
Jalandhar,Punjab,31.326,75.5762,36.4,36,0.0,973.7,8.25,30.6,151,90.3,43.1,0.5,285.0,184.0,7.4,0,5,10,1,2026-06-25T16:15:04.402959+05:30
Dehradun,Uttarakhand,30.6284,78.0322,23.0,66,0.0,829.6,7.65,30.2,129,33.8,24.7,1.9,238.0,169.0,4.3,3,5,7,1,2026-06-25T16:15:04.402965+05:30
Shimla,Himachal Pradesh,31.1048,77.1734,18.3,82,0.1,783.9,6.5,32.8,135,53.0,36.4,3.4,273.0,175.0,9.3,6,10,7,0,2026-06-25T16:15:04.402975+05:30
Manali,Himachal Pradesh,32.2396,77.1887,23.3,64,0.0,818.6,9.0,31.7,42,20.5,19.4,21.2,171.0,95.0,0.4,3,5,7,1,2026-06-25T16:15:04.402984+05:30
Gurgaon,Haryana,28.4595,77.0266,37.0,37,0.0,974.6,7.85,26.3,250,323.2,77.3,3.4,174.0,157.0,10.2,0,5,10,1,2026-06-25T16:15:04.402991+05:30
Noida,Uttar Pradesh,28.5355,77.391,38.0,35,0.0,977.2,7.8,20.9,250,323.2,77.3,3.4,265.0,157.0,10.2,0,5,10,1,2026-06-25T16:15:04.402998+05:30
Ghaziabad,Uttar Pradesh,28.6692,77.4538,36.9,38,0.0,975.8,7.2,28.8,198,296.2,90.6,4.4,213.0,230.0,23.4,0,5,10,1,2026-06-25T16:15:04.403004+05:30
Faridabad,Haryana,28.4089,77.3178,37.8,33,0.0,976.7,7.8,28.4,250,323.2,77.3,3.4,186.0,157.0,10.2,0,5,10,1,2026-06-25T16:15:04.403010+05:30
Meerut,Uttar Pradesh,28.9845,77.7064,36.0,41,0.0,975.0,4.45,35.6,198,296.2,90.6,4.4,202.0,230.0,23.4,0,5,6,1,2026-06-25T16:15:04.403016+05:30
Agra,Uttar Pradesh,27.1767,78.0081,38.6,32,0.0,980.3,8.1,31.0,174,389.3,68.2,0.6,155.0,125.0,2.5,0,5,10,1,2026-06-25T16:15:04.403022+05:30
Varanasi,Uttar Pradesh,25.3176,82.9739,39.9,33,0.0,988.9,8.8,37.4,116,113.2,43.1,0.7,225.0,147.0,6.6,0,5,10,1,2026-06-25T16:15:04.403029+05:30
Prayagraj,Uttar Pradesh,25.4358,81.8463,39.8,31,0.0,987.4,8.65,34.6,130,145.3,50.6,0.7,171.0,154.0,6.5,0,5,10,1,2026-06-25T16:15:04.403036+05:30
Gorakhpur,Uttar Pradesh,26.7606,83.3732,38.0,36,0.0,989.2,8.65,25.6,174,164.4,63.6,0.9,219.0,180.0,7.4,0,5,10,1,2026-06-25T16:15:04.403044+05:30
Bareilly,Uttar Pradesh,28.367,79.4304,37.5,34,0.0,979.6,8.1,23.4,169,214.7,66.8,1.6,194.0,182.0,10.4,0,5,10,1,2026-06-25T16:15:04.403052+05:30
Aligarh,Uttar Pradesh,27.8974,78.088,37.6,34,0.0,978.5,7.85,23.0,306,377.2,82.2,1.3,158.0,145.0,6.9,0,5,10,1,2026-06-25T16:15:04.403058+05:30
Moradabad,Uttar Pradesh,28.8386,78.7733,37.1,38,0.0,977.0,7.9,24.8,177,243.1,67.5,1.9,179.0,174.0,9.9,0,5,10,1,2026-06-25T16:15:04.403065+05:30
Saharanpur,Uttar Pradesh,29.9637,77.546,35.1,42,0.0,969.8,7.45,37.8,180,181.6,58.0,2.3,217.0,195.0,16.9,0,5,10,1,2026-06-25T16:15:04.403070+05:30
Jhansi,Uttar Pradesh,25.4484,78.5685,37.6,33,0.0,971.0,8.2,39.2,81,85.7,31.2,1.1,136.0,115.0,6.1,0,5,10,1,2026-06-25T16:15:07.653800+05:30
Surat,Gujarat,21.1702,72.8311,31.9,66,0.0,1001.1,7.6,45.7,73,43.0,23.5,13.0,207.0,57.0,39.0,3,5,4,1,2026-06-25T16:15:07.653833+05:30
Vadodara,Gujarat,22.3072,73.1812,38.2,33,0.0,996.9,8.0,48.2,74,87.8,28.5,1.4,138.0,98.0,2.6,0,5,10,1,2026-06-25T16:15:07.653843+05:30
Rajkot,Gujarat,22.3039,70.8022,34.2,48,0.2,987.9,7.55,41.4,68,74.3,25.0,1.2,104.0,96.0,4.0,3,5,7,1,2026-06-25T16:15:07.653852+05:30
Thane,Maharashtra,19.2183,72.9781,29.4,73,0.1,1004.0,6.6,33.8,55,24.9,14.8,7.5,197.0,90.0,10.3,10,5,4,1,2026-06-25T16:15:07.653860+05:30
Nagpur,Maharashtra,21.1458,79.0882,30.8,64,0.0,966.9,8.0,27.0,61,47.7,31.2,8.2,203.0,139.0,28.5,3,5,7,1,2026-06-25T16:15:07.653868+05:30
Nashik,Maharashtra,19.9975,73.7898,28.2,67,0.0,941.2,6.6,45.7,47,21.0,9.6,2.0,128.0,82.0,3.2,7,5,7,1,2026-06-25T16:15:07.653876+05:30
Aurangabad,Maharashtra,19.8762,75.3433,29.8,58,0.0,939.3,1.8,38.9,59,43.5,16.9,1.6,149.0,88.0,2.8,4,5,3,1,2026-06-25T16:15:07.653883+05:30
Solapur,Maharashtra,17.6599,75.9064,32.3,45,0.0,952.3,7.1,38.9,33,39.3,14.8,1.4,116.0,88.0,1.9,0,5,7,1,2026-06-25T16:15:07.653891+05:30
Kolhapur,Maharashtra,16.705,74.2433,27.4,68,0.0,944.7,3.1,47.5,27,10.6,6.0,2.2,126.0,67.0,1.4,7,5,3,1,2026-06-25T16:15:07.653900+05:30
Goa,Goa,15.2993,74.124,28.0,84,0.1,995.9,7.0,31.7,45,12.0,6.1,1.7,127.0,56.0,1.0,10,5,7,1,2026-06-25T16:15:07.653908+05:30
Jodhpur,Rajasthan,26.2389,73.0243,37.0,40,0.0,976.1,8.35,36.4,148,207.7,45.8,0.5,109.0,83.0,1.5,0,5,10,1,2026-06-25T16:15:07.653915+05:30
Udaipur,Rajasthan,24.5854,73.7125,34.5,36,0.0,941.1,8.75,35.6,71,70.1,23.2,0.5,110.0,82.0,1.7,0,5,7,1,2026-06-25T16:15:07.653922+05:30
Kota,Rajasthan,25.2138,75.8648,36.8,39,0.0,972.1,8.3,43.9,87,75.7,29.1,0.8,137.0,107.0,4.4,0,5,10,1,2026-06-25T16:15:07.653930+05:30
Bikaner,Rajasthan,28.0229,73.3119,39.4,32,0.0,974.5,8.45,31.7,153,296.2,71.0,0.4,123.0,87.0,2.3,0,5,10,1,2026-06-25T16:15:07.653938+05:30
Ajmer,Rajasthan,26.4499,74.6399,33.9,47,0.0,949.0,8.3,42.1,99,149.0,40.4,0.4,111.0,86.0,1.7,0,5,7,1,2026-06-25T16:15:07.653946+05:30
Gwalior,Madhya Pradesh,26.2183,78.1828,38.5,30,0.0,975.9,8.25,34.6,86,105.9,33.6,0.5,138.0,108.0,2.1,0,5,10,1,2026-06-25T16:15:07.653953+05:30
Indore,Madhya Pradesh,22.7196,75.8577,27.7,76,0.1,943.2,3.15,41.0,74,62.2,27.8,0.9,327.0,104.0,3.2,10,5,3,1,2026-06-25T16:15:07.653961+05:30
Bhopal,Madhya Pradesh,23.2599,77.4126,30.9,59,0.1,947.8,8.3,31.3,77,57.5,29.4,1.9,187.0,101.0,6.5,3,5,7,1,2026-06-25T16:15:07.653968+05:30
Jabalpur,Madhya Pradesh,23.1815,79.9864,29.7,74,0.1,955.1,8.85,28.1,68,50.4,25.5,1.5,178.0,111.0,2.9,10,5,7,1,2026-06-25T16:15:07.653976+05:30
Ujjain,Madhya Pradesh,23.1765,75.7885,26.3,86,0.3,948.9,7.6,41.8,78,64.5,26.5,0.7,153.0,101.0,3.6,10,5,7,1,2026-06-25T16:15:07.653984+05:30
Visakhapatnam,Andhra Pradesh,17.6868,83.2185,33.5,58,0.2,996.8,8.45,32.4,70,30.9,26.3,10.3,454.0,157.0,35.5,3,5,7,1,2026-06-25T16:15:07.653991+05:30
Vijayawada,Andhra Pradesh,16.5062,80.648,34.8,47,0.0,995.6,8.65,40.0,58,21.1,13.5,2.4,150.0,109.0,4.0,0,5,7,1,2026-06-25T16:15:07.653998+05:30
Guntur,Andhra Pradesh,16.3067,80.4365,35.3,44,0.0,996.8,8.35,38.5,53,21.3,12.5,2.3,150.0,103.0,3.5,0,5,10,1,2026-06-25T16:15:07.654005+05:30
Nellore,Andhra Pradesh,14.4426,79.9865,36.7,41,0.0,999.0,8.2,46.8,34,17.5,9.8,3.0,115.0,101.0,4.2,0,5,10,1,2026-06-25T16:15:07.654014+05:30
Kurnool,Andhra Pradesh,15.8281,78.0373,34.2,41,0.0,971.2,6.5,42.8,33,38.1,15.1,1.7,119.0,91.0,4.8,0,5,7,1,2026-06-25T16:15:07.654022+05:30
Kakinada,Andhra Pradesh,16.9891,82.2475,34.0,51,0.0,1000.4,8.7,41.0,63,19.2,14.2,2.2,183.0,136.0,4.6,0,5,4,1,2026-06-25T16:15:07.654030+05:30
Tirupati,Andhra Pradesh,13.6288,79.4192,37.5,35,0.0,984.6,8.2,41.4,38,12.5,6.3,4.5,115.0,74.0,1.2,0,5,10,1,2026-06-25T16:15:07.654037+05:30
Warangal,Telangana,17.9689,79.5941,31.8,56,0.0,972.4,5.7,36.4,55,18.9,13.3,2.4,163.0,105.0,3.6,0,5,3,1,2026-06-25T16:15:07.654044+05:30
Nizamabad,Telangana,18.6725,78.0941,27.3,81,0.2,959.7,6.65,47.9,61,26.0,15.8,1.7,158.0,108.0,3.0,10,5,7,1,2026-06-25T16:15:07.654051+05:30
Mysore,Karnataka,12.2958,76.6396,27.9,61,0.1,925.9,8.2,47.2,28,9.9,5.7,1.9,125.0,74.0,1.2,10,5,7,1,2026-06-25T16:15:07.654058+05:30
Mangalore,Karnataka,12.9141,74.856,28.5,78,0.0,1005.0,8.6,32.0,43,13.4,8.2,1.5,102.0,62.0,1.8,7,5,4,1,2026-06-25T16:15:07.654065+05:30
Hubli-Dharwad,Karnataka,15.3647,75.124,27.5,65,0.0,937.9,8.75,52.6,24,2.9,2.2,3.6,117.0,52.0,1.0,7,5,7,1,2026-06-25T16:15:07.654072+05:30
Belgaum,Karnataka,15.8497,74.4977,25.9,68,0.0,923.2,6.2,51.1,23,6.9,4.1,2.2,115.0,56.0,1.1,7,5,7,1,2026-06-25T16:15:10.898800+05:30
Coimbatore,Tamil Nadu,11.0168,76.9558,31.5,52,0.0,958.7,8.2,55.4,28,6.7,5.1,1.8,138.0,72.0,2.0,0,5,7,1,2026-06-25T16:15:10.898832+05:30
Madurai,Tamil Nadu,9.9252,78.1198,34.7,45,0.0,989.1,8.6,33.5,68,9.8,7.5,1.5,170.0,105.0,2.2,0,5,7,1,2026-06-25T16:15:10.898843+05:30
Trichy,Tamil Nadu,10.7905,78.7047,36.1,37,0.0,994.5,8.35,45.0,35,9.2,6.1,1.5,130.0,83.0,1.7,0,5,10,1,2026-06-25T16:15:10.898852+05:30
Salem,Tamil Nadu,11.6643,78.146,33.6,46,0.0,973.3,8.8,29.2,53,12.1,8.1,2.2,169.0,98.0,4.1,0,5,7,1,2026-06-25T16:15:10.898860+05:30
Tirunelveli,Tamil Nadu,8.7139,77.7567,35.9,40,0.0,999.5,8.55,44.3,27,6.5,5.0,1.7,112.0,73.0,1.3,0,5,10,1,2026-06-25T16:15:10.898867+05:30
Vellore,Tamil Nadu,12.9165,79.1325,34.8,44,0.0,978.8,8.1,43.9,43,16.5,8.8,3.4,151.0,81.0,1.6,0,5,7,1,2026-06-25T16:15:10.898874+05:30
Erode,Tamil Nadu,11.341,77.7172,34.2,44,0.1,984.7,8.8,42.8,39,9.4,6.6,2.4,157.0,87.0,1.8,3,5,7,1,2026-06-25T16:15:10.898882+05:30
Kochi,Kerala,9.9312,76.2673,28.3,83,0.0,1007.3,8.35,37.4,36,8.4,6.2,4.1,113.0,56.0,2.7,7,5,4,1,2026-06-25T16:15:10.898889+05:30
Thiruvananthapuram,Kerala,8.5241,76.9366,28.9,76,0.0,1006.4,8.3,44.6,27,9.5,6.1,1.5,101.0,66.0,1.1,7,5,4,1,2026-06-25T16:15:10.898897+05:30
Kozhikode,Kerala,11.2588,75.7804,28.9,76,0.0,1006.2,8.5,37.4,26,8.0,4.9,0.6,98.0,62.0,1.0,7,5,4,1,2026-06-25T16:15:10.898904+05:30
Thrissur,Kerala,10.5276,76.2144,29.2,75,0.0,1005.4,8.4,34.2,39,7.5,6.0,3.0,97.0,59.0,2.1,7,5,4,1,2026-06-25T16:15:10.898912+05:30
Kannur,Kerala,11.8745,75.3704,29.4,73,0.0,1005.5,8.35,28.8,26,10.2,6.3,1.6,98.0,60.0,1.2,7,5,4,1,2026-06-25T16:15:10.898919+05:30
Patna,Bihar,25.5941,85.1376,38.1,40,0.0,992.1,8.85,26.6,151,118.7,46.0,3.7,243.0,179.0,10.4,0,5,10,1,2026-06-25T16:15:10.898926+05:30
Gaya,Bihar,24.7914,85.0002,38.0,38,0.0,985.9,8.95,23.0,113,101.0,39.7,2.5,199.0,159.0,9.6,0,5,10,1,2026-06-25T16:15:10.898933+05:30
Muzaffarpur,Bihar,26.1209,85.3647,35.7,54,0.0,992.3,8.85,33.5,176,129.0,55.8,4.9,339.0,199.0,12.9,0,5,10,1,2026-06-25T16:15:10.898940+05:30
Bhagalpur,Bihar,25.2425,87.0117,36.0,50,0.0,993.2,8.85,21.2,178,87.3,46.3,4.1,223.0,197.0,13.7,0,5,10,1,2026-06-25T16:15:10.898947+05:30
Ranchi,Jharkhand,23.3441,85.3096,27.7,78,0.1,933.1,9.15,27.4,100,27.0,26.2,2.0,190.0,136.0,7.8,10,5,7,1,2026-06-25T16:15:10.898954+05:30
Jamshedpur,Jharkhand,22.8046,86.2029,31.5,66,0.0,984.8,9.05,32.8,124,31.4,30.6,3.6,276.0,177.0,17.7,3,5,7,1,2026-06-25T16:15:10.898961+05:30
Dhanbad,Jharkhand,23.7957,86.4304,34.9,46,0.1,973.3,9.05,32.4,142,56.5,56.0,12.1,467.0,212.0,59.0,3,5,7,1,2026-06-25T16:15:10.898968+05:30
Bokaro,Jharkhand,23.6693,86.1511,33.7,56,0.1,977.1,9.1,45.7,132,50.3,48.9,11.0,396.0,198.0,54.3,3,5,7,1,2026-06-25T16:15:10.898975+05:30
Bhubaneswar,Odisha,20.2961,85.8245,31.9,71,0.0,996.3,9.05,34.2,111,21.7,20.3,3.4,275.0,147.0,7.6,3,5,7,1,2026-06-25T16:15:10.898981+05:30
Cuttack,Odisha,20.4625,85.8828,32.2,71,0.0,997.9,9.15,29.5,111,21.7,20.3,3.4,255.0,147.0,7.6,3,5,7,1,2026-06-25T16:15:10.898988+05:30
Rourkela,Odisha,22.2604,84.8536,29.6,71,0.2,979.4,9.0,52.9,90,23.8,23.7,1.7,254.0,152.0,9.6,10,5,7,1,2026-06-25T16:15:10.898995+05:30
Raipur,Chhattisgarh,21.2514,81.6296,34.1,48,0.0,968.8,8.85,31.3,76,30.3,30.2,8.8,284.0,138.0,37.2,0,5,7,1,2026-06-25T16:15:10.899002+05:30
Bhilai,Chhattisgarh,21.1938,81.3509,32.0,56,0.0,969.1,8.9,34.2,70,27.8,27.6,10.8,539.0,125.0,41.3,0,5,7,1,2026-06-25T16:15:10.899009+05:30
Guwahati,Assam,26.1158,91.7086,32.4,64,0.0,993.8,8.8,24.1,96,27.3,20.1,2.2,321.0,131.0,6.6,3,5,7,1,2026-06-25T16:15:10.899016+05:30
Agartala,Tripura,23.8315,91.2868,31.0,72,0.0,999.6,8.55,31.7,91,41.0,33.5,6.1,205.0,139.0,6.4,3,5,7,1,2026-06-25T16:15:10.899022+05:30
Shillong,Meghalaya,25.5788,91.8933,24.2,71,0.0,854.0,7.05,18.7,83,9.4,7.0,2.8,275.0,126.0,3.2,3,5,7,1,2026-06-25T16:15:10.899029+05:30
Imphal,Manipur,24.817,93.9368,28.9,63,0.0,917.6,8.5,25.2,53,28.3,15.7,2.6,213.0,106.0,3.1,7,5,7,1,2026-06-25T16:15:10.899036+05:30
Aizawl,Mizoram,23.7271,92.7176,23.8,79,0.0,888.1,8.55,20.5,54,46.0,22.1,1.6,182.0,99.0,2.3,3,5,7,1,2026-06-25T16:15:10.899043+05:30
Kohima,Nagaland,25.6701,94.1077,23.5,89,0.2,851.7,9.25,23.4,57,14.6,8.9,1.7,214.0,102.0,2.8,6,5,7,1,2026-06-25T16:15:10.899050+05:30
Gangtok,Sikkim,27.3314,88.6138,21.8,88,0.1,835.1,8.8,35.6,104,12.0,9.2,2.4,315.0,143.0,2.6,6,5,7,1,2026-06-25T16:15:10.899057+05:30
Siliguri,West Bengal,26.7271,88.3953,31.7,69,0.1,985.5,8.4,21.2,150,43.9,32.0,3.8,495.0,163.0,8.3,6,5,7,1,2026-06-25T16:15:14.153906+05:30
Durgapur,West Bengal,23.5204,87.3119,32.9,63,0.0,988.1,8.9,29.5,154,60.5,59.8,10.9,559.0,219.0,49.9,3,5,7,1,2026-06-25T16:15:14.153939+05:30
Asansol,West Bengal,23.6739,86.9524,33.7,56,0.0,986.7,8.85,29.5,146,53.0,52.6,9.5,325.0,207.0,41.5,0,5,7,1,2026-06-25T16:15:14.153950+05:30
Pondicherry,Puducherry,11.9139,79.8145,31.5,66,0.0,1003.0,7.75,40.7,63,27.8,21.4,4.8,251.0,143.0,8.9,3,5,4,1,2026-06-25T16:15:14.153959+05:30
Port Blair,Andaman and Nicobar Islands,11.6234,92.7265,27.6,84,0.0,1005.0,7.1,40.0,27,4.3,2.7,0.4,106.0,55.0,0.4,7,5,4,1,2026-06-25T16:15:14.153968+05:30
Haridwar,Uttarakhand,29.9457,78.1642,34.9,46,0.0,968.1,7.05,31.0,174,108.5,43.0,1.5,251.0,190.0,10.2,0,5,7,1,2026-06-25T16:15:14.153975+05:30
Rishikesh,Uttarakhand,30.0869,78.2676,34.3,45,0.0,961.3,7.15,22.0,162,70.8,32.8,0.5,269.0,176.0,6.1,0,5,7,1,2026-06-25T16:15:14.153983+05:30
Nainital,Uttarakhand,29.3919,79.4542,21.2,75,0.0,805.1,6.85,27.4,154,102.0,38.8,1.3,230.0,183.0,8.3,3,5,7,1,2026-06-25T16:15:14.153991+05:30
Mussoorie,Uttarakhand,30.4599,78.0664,19.3,83,0.1,802.1,7.15,35.6,167,65.9,38.0,1.4,236.0,196.0,10.0,6,10,7,1,2026-06-25T16:15:14.153999+05:30
Dharamshala,Himachal Pradesh,32.219,76.3234,26.5,56,0.0,867.5,8.55,32.0,99,21.5,15.5,1.6,264.0,145.0,1.5,4,5,7,1,2026-06-25T16:15:14.154006+05:30
Dalhousie,Himachal Pradesh,32.5387,75.971,21.2,71,0.1,804.5,8.05,28.8,139,42.8,28.3,1.5,265.0,170.0,3.4,6,5,7,0,2026-06-25T16:15:14.154014+05:30
Patiala,Punjab,30.3398,76.3869,36.5,42,0.0,972.0,7.7,25.2,179,330.6,75.7,1.1,246.0,193.0,10.1,0,5,10,1,2026-06-25T16:15:14.154022+05:30
Bhatinda,Punjab,30.211,74.9455,36.7,40,0.0,977.1,8.3,39.2,158,197.0,63.3,1.6,180.0,185.0,15.1,0,5,10,1,2026-06-25T16:15:14.154029+05:30
Rohtak,Haryana,28.8955,76.6066,36.7,38,0.0,975.0,7.75,21.2,188,294.3,65.4,0.4,144.0,122.0,1.9,0,5,10,1,2026-06-25T16:15:14.154035+05:30
Panipat,Haryana,29.3909,76.9635,36.8,40,0.0,973.7,7.65,29.5,326,383.7,87.8,1.9,152.0,167.0,15.1,0,5,10,1,2026-06-25T16:15:14.154042+05:30
Mathura,Uttar Pradesh,27.4924,77.6737,37.5,36,0.0,979.6,8.05,24.8,251,434.0,73.3,0.0,153.0,113.0,1.5,0,5,10,1,2026-06-25T16:15:14.154049+05:30
Vrindavan,Uttar Pradesh,27.5823,77.7027,37.1,39,0.0,980.0,8.0,22.7,251,434.0,73.3,0.0,158.0,113.0,1.5,0,5,10,1,2026-06-25T16:15:14.154056+05:30
Ayodhya,Uttar Pradesh,26.7922,82.1998,37.9,38,0.0,987.1,8.4,26.6,164,218.4,58.1,0.7,196.0,150.0,5.1,0,5,10,1,2026-06-25T16:15:14.154062+05:30
Ratlam,Madhya Pradesh,23.3315,75.0367,30.1,66,0.1,949.3,6.2,40.0,74,67.5,26.9,0.6,116.0,99.0,3.4,6,5,7,1,2026-06-25T16:15:14.154070+05:30
Sagar,Madhya Pradesh,23.8388,78.7378,32.9,50,0.0,944.5,8.35,31.7,77,68.7,28.9,0.7,164.0,116.0,4.4,0,5,7,1,2026-06-25T16:15:14.154076+05:30
Satna,Madhya Pradesh,24.6005,80.8322,36.8,38,0.0,964.6,7.05,25.9,81,83.8,29.7,0.5,149.0,118.0,2.3,0,5,10,1,2026-06-25T16:15:14.154084+05:30
Akola,Maharashtra,20.7002,77.0082,26.8,89,0.5,970.0,5.55,39.2,63,40.0,20.8,2.6,143.0,92.0,6.3,10,5,3,1,2026-06-25T16:15:14.154091+05:30
Amravati,Maharashtra,20.9374,77.7796,28.1,80,0.2,962.0,7.65,37.1,61,36.1,18.9,4.1,167.0,90.0,5.2,10,5,7,1,2026-06-25T16:15:14.154099+05:30
Latur,Maharashtra,18.4088,76.5604,25.6,86,0.2,935.2,7.05,40.7,43,27.4,14.4,2.7,132.0,80.0,1.8,10,5,7,1,2026-06-25T16:15:14.154106+05:30
Nanded,Maharashtra,19.1383,77.3091,27.5,80,0.1,963.6,8.05,44.6,61,29.3,15.0,2.0,175.0,96.0,1.7,10,5,7,1,2026-06-25T16:15:14.154112+05:30
Gulbarga,Karnataka,17.3297,76.8343,31.9,49,0.0,953.7,6.25,50.0,32,36.0,14.3,1.7,136.0,90.0,1.8,0,5,7,1,2026-06-25T16:15:14.154119+05:30
Bidar,Karnataka,17.9104,77.5199,25.5,88,0.5,931.0,6.95,42.1,43,26.5,14.9,3.8,137.0,95.0,3.7,10,5,7,1,2026-06-25T16:15:14.154125+05:30
Hospet,Karnataka,15.2689,76.3909,30.8,52,0.1,951.5,8.1,45.7,28,6.4,3.7,2.5,131.0,62.0,1.5,3,5,7,1,2026-06-25T16:15:14.154132+05:30
Tirupur,Tamil Nadu,11.1085,77.3411,33.3,48,0.0,971.4,8.05,50.8,45,8.7,6.4,2.3,136.0,83.0,2.2,0,5,7,1,2026-06-25T16:15:14.154138+05:30
Alappuzha,Kerala,9.4981,76.3388,28.3,81,0.0,1007.3,8.0,43.6,31,9.7,7.0,3.9,86.0,66.0,2.9,7,5,4,1,2026-06-25T16:15:14.154145+05:30
Munnar,Kerala,10.0889,77.0595,19.0,91,0.1,855.8,9.0,38.9,24,5.1,3.7,1.9,92.0,55.0,0.9,6,10,7,1,2026-06-25T16:15:14.154152+05:30
Silchar,Assam,24.8333,92.7789,32.9,64,0.0,997.4,8.7,19.1,68,46.1,24.9,2.2,246.0,127.0,5.3,3,5,7,1,2026-06-25T16:15:14.154158+05:30
Dibrugarh,Assam,27.4728,94.912,32.8,65,0.0,986.9,8.55,23.4,84,10.1,7.8,2.3,254.0,124.0,2.1,3,5,7,1,2026-06-25T16:15:14.154165+05:30
