city,state,latitude,longitude,temp,humidity,rain,pressure,uv_index,wind_gusts,aqi,pm10,pm2_5,no2,co,o3,so2,mosquito_risk,arthritis_risk,migraine_risk,frizz_risk,updated_at
Delhi,Delhi,28.6139,77.209,31.0,40,0.0,986.0,7.55,33.1,194,285.9,61.0,18.9,690.0,149.0,29.6,0,5,7,0,2026-05-09T09:54:32.545586+05:30
Mumbai,Maharashtra,19.076,72.8777,35.0,42,0.0,1008.6,7.85,48.6,91,64.3,33.3,19.6,406.0,122.0,37.6,0,0,4,1,2026-05-09T09:54:32.545633+05:30
Bangalore,Karnataka,12.9716,77.5946,27.4,58,0.0,913.4,9.5,37.8,49,9.8,8.1,7.0,386.0,50.0,8.9,4,5,7,1,2026-05-09T09:54:32.545650+05:30
Hyderabad,Telangana,17.385,78.4867,30.4,52,0.0,955.9,9.1,32.0,50,10.5,8.1,4.8,335.0,85.0,6.2,0,5,7,1,2026-05-09T09:54:32.545666+05:30
Chennai,Tamil Nadu,13.0827,80.2707,30.2,67,0.0,1008.7,8.7,38.2,19,5.3,3.9,3.6,168.0,52.0,5.8,3,0,4,1,2026-05-09T09:54:32.545677+05:30
Kolkata,West Bengal,22.5726,88.3639,30.8,65,0.0,1009.5,8.9,31.0,134,40.6,37.7,6.8,698.0,178.0,20.6,3,0,4,1,2026-05-09T09:54:32.545686+05:30
Pune,Maharashtra,18.5204,73.8567,33.7,29,0.0,950.0,8.45,38.2,92,57.6,28.2,8.6,351.0,135.0,17.4,0,5,7,0,2026-05-09T09:54:32.545694+05:30
Ahmedabad,Gujarat,23.0225,72.5714,34.1,35,0.0,1002.9,8.1,32.8,69,37.1,15.3,5.2,289.0,89.0,5.3,0,5,4,1,2026-05-09T09:54:32.545704+05:30
Jaipur,Rajasthan,26.9124,75.7873,31.4,36,0.0,961.9,8.15,33.5,175,296.2,57.6,4.6,386.0,149.0,9.9,0,5,7,0,2026-05-09T09:54:32.545713+05:30
Lucknow,Uttar Pradesh,26.8467,80.9462,29.2,56,0.0,996.5,7.7,35.3,84,56.6,41.1,4.9,415.0,160.0,13.2,4,5,7,1,2026-05-09T09:54:32.545721+05:30
Kanpur,Uttar Pradesh,26.4499,80.3319,31.1,48,0.0,994.1,7.95,38.2,161,371.6,67.8,4.4,390.0,170.0,14.4,0,5,7,1,2026-05-09T09:54:32.545729+05:30
Chandigarh,Chandigarh,30.7333,76.7794,30.5,38,0.0,972.3,7.6,25.6,84,96.2,25.7,4.4,453.0,179.0,7.4,0,5,7,0,2026-05-09T09:54:32.545738+05:30
Srinagar,Jammu and Kashmir,34.0837,74.7973,18.6,52,0.0,846.0,8.9,18.0,95,63.6,22.2,5.4,422.0,123.0,4.5,0,5,7,0,2026-05-09T09:54:32.545747+05:30
Jammu,Jammu and Kashmir,32.7266,74.857,30.4,40,0.0,976.0,8.4,30.2,151,142.0,49.5,5.6,304.0,176.0,9.2,0,5,7,0,2026-05-09T09:54:32.545756+05:30
Amritsar,Punjab,31.634,74.8723,31.4,41,0.0,983.8,8.3,30.2,137,174.6,48.7,4.8,440.0,150.0,15.8,0,5,7,1,2026-05-09T09:54:32.545764+05:30
Ludhiana,Punjab,30.901,75.8573,31.1,40,0.0,981.8,7.9,33.1,139,118.0,36.6,7.5,545.0,153.0,8.0,0,5,7,0,2026-05-09T09:54:32.545771+05:30
Jalandhar,Punjab,31.326,75.5762,30.7,42,0.0,982.9,8.05,26.6,143,82.9,34.6,6.5,517.0,147.0,12.1,0,5,7,1,2026-05-09T09:54:32.545779+05:30
Dehradun,Uttarakhand,30.6284,78.0322,19.8,55,0.0,834.4,8.0,30.6,53,21.8,9.2,0.2,199.0,155.0,1.1,0,5,7,0,2026-05-09T09:54:32.545789+05:30
Shimla,Himachal Pradesh,31.1048,77.1734,17.8,52,0.0,788.7,8.05,34.2,65,38.5,17.3,0.5,222.0,172.0,3.8,0,5,7,0,2026-05-09T09:54:32.545800+05:30
Manali,Himachal Pradesh,32.2396,77.1887,21.7,18,0.0,820.9,9.45,39.2,82,30.6,6.6,8.1,184.0,134.0,0.4,0,5,7,1,2026-05-09T09:54:32.545807+05:30
Gurgaon,Haryana,28.4595,77.0266,30.9,42,0.0,984.2,7.65,27.0,1261,910.8,114.6,14.2,567.0,138.0,22.9,0,5,7,1,2026-05-09T09:54:32.545815+05:30
Noida,Uttar Pradesh,28.5355,77.391,30.4,47,0.0,987.5,7.6,24.1,1261,910.8,114.6,14.2,544.0,138.0,22.9,0,5,7,1,2026-05-09T09:54:32.545823+05:30
Ghaziabad,Uttar Pradesh,28.6692,77.4538,30.8,43,0.0,985.8,7.55,27.7,136,207.2,42.1,6.2,382.0,142.0,12.7,0,5,7,1,2026-05-09T09:54:32.545830+05:30
Faridabad,Haryana,28.4089,77.3178,30.0,45,0.0,986.7,7.6,25.2,1261,910.8,114.6,14.2,491.0,138.0,22.9,4,5,7,1,2026-05-09T09:54:32.545837+05:30
Meerut,Uttar Pradesh,28.9845,77.7064,29.6,52,0.0,984.8,7.45,28.4,136,207.2,42.1,6.2,399.0,142.0,12.7,4,5,7,1,2026-05-09T09:54:32.545843+05:30
Agra,Uttar Pradesh,27.1767,78.0081,30.1,51,0.0,990.0,7.9,26.6,873,827.0,100.6,5.6,396.0,152.0,12.7,0,5,7,1,2026-05-09T09:54:32.545850+05:30
Varanasi,Uttar Pradesh,25.3176,82.9739,30.9,50,0.0,1000.0,8.55,49.0,112,64.3,53.0,6.9,479.0,171.0,25.6,0,5,4,1,2026-05-09T09:54:32.545858+05:30
Prayagraj,Uttar Pradesh,25.4358,81.8463,31.6,48,0.0,998.0,8.3,41.8,105,61.7,50.8,5.9,462.0,171.0,20.1,0,5,7,1,2026-05-09T09:54:32.545868+05:30
Gorakhpur,Uttar Pradesh,26.7606,83.3732,29.8,52,0.0,1001.2,8.4,36.7,86,53.6,39.5,3.1,416.0,170.0,9.1,4,5,4,1,2026-05-09T09:54:32.545875+05:30
Bareilly,Uttar Pradesh,28.367,79.4304,29.2,52,0.0,990.4,7.85,29.5,84,55.9,24.0,4.8,343.0,152.0,9.8,4,5,7,1,2026-05-09T09:54:32.545883+05:30
Aligarh,Uttar Pradesh,27.8974,78.088,30.6,45,0.0,988.4,7.7,27.4,538,482.4,67.8,4.9,354.0,143.0,12.8,0,5,7,1,2026-05-09T09:54:32.545890+05:30
Moradabad,Uttar Pradesh,28.8386,78.7733,28.6,54,0.0,987.4,7.65,29.2,88,33.4,22.9,5.6,366.0,152.0,11.9,4,5,7,1,2026-05-09T09:54:32.545897+05:30
Saharanpur,Uttar Pradesh,29.9637,77.546,28.8,50,0.0,979.5,7.3,25.9,106,48.8,27.7,4.9,375.0,176.0,9.9,4,5,7,1,2026-05-09T09:54:32.545904+05:30
Jhansi,Uttar Pradesh,25.4484,78.5685,31.3,44,0.0,979.3,8.3,33.8,65,41.1,28.2,3.3,291.0,150.0,18.3,0,5,7,1,2026-05-09T09:54:35.775185+05:30
Surat,Gujarat,21.1702,72.8311,35.6,27,0.0,1007.4,7.7,35.3,101,56.3,37.3,34.7,232.0,57.0,96.0,0,5,7,0,2026-05-09T09:54:35.775217+05:30
Vadodara,Gujarat,22.3072,73.1812,35.0,32,0.0,1005.0,8.05,32.0,76,38.5,19.6,8.3,334.0,106.0,10.0,0,5,4,0,2026-05-09T09:54:35.775228+05:30
Rajkot,Gujarat,22.3039,70.8022,31.5,57,0.0,995.7,7.7,39.6,55,48.8,15.2,4.7,194.0,84.0,5.4,0,5,7,1,2026-05-09T09:54:35.775236+05:30
Thane,Maharashtra,19.2183,72.9781,35.3,38,0.0,1007.9,7.9,46.4,91,64.3,33.3,19.6,272.0,122.0,37.6,0,5,7,1,2026-05-09T09:54:35.775244+05:30
Nagpur,Maharashtra,21.1458,79.0882,35.1,34,0.0,975.4,8.9,46.4,108,30.4,25.7,7.7,314.0,162.0,17.5,0,5,10,1,2026-05-09T09:54:35.775252+05:30
Nashik,Maharashtra,19.9975,73.7898,34.6,24,0.0,947.5,8.15,50.0,84,53.1,21.8,5.9,258.0,119.0,18.9,0,5,7,0,2026-05-09T09:54:35.775259+05:30
Aurangabad,Maharashtra,19.8762,75.3433,34.8,23,0.0,946.6,9.05,38.9,104,48.8,30.2,3.1,294.0,153.0,11.2,0,5,7,0,2026-05-09T09:54:35.775266+05:30
Solapur,Maharashtra,17.6599,75.9064,33.5,39,0.0,959.8,9.05,29.9,71,15.9,12.6,3.8,218.0,108.0,8.3,0,5,7,1,2026-05-09T09:54:35.775274+05:30
Kolhapur,Maharashtra,16.705,74.2433,32.8,36,0.0,949.9,8.95,34.6,149,21.0,18.2,8.0,367.0,106.0,6.6,0,5,7,0,2026-05-09T09:54:35.775281+05:30
Goa,Goa,15.2993,74.124,35.2,45,0.0,997.9,8.7,50.8,91,36.6,26.8,6.7,278.0,113.0,3.9,0,5,10,1,2026-05-09T09:54:35.775289+05:30
Jodhpur,Rajasthan,26.2389,73.0243,35.0,33,0.0,984.4,8.35,35.6,116,300.8,62.4,2.2,281.0,94.0,2.1,0,5,7,1,2026-05-09T09:54:35.775296+05:30
Udaipur,Rajasthan,24.5854,73.7125,35.2,18,0.0,948.3,8.8,42.1,42,36.2,10.7,1.8,168.0,110.0,4.6,0,5,10,0,2026-05-09T09:54:35.775304+05:30
Kota,Rajasthan,25.2138,75.8648,33.8,22,0.0,979.9,8.35,46.1,64,32.2,20.5,3.0,326.0,133.0,9.2,0,5,7,0,2026-05-09T09:54:35.775311+05:30
Bikaner,Rajasthan,28.0229,73.3119,33.9,27,0.0,983.6,8.3,25.6,89,160.2,40.3,2.2,310.0,133.0,9.0,0,5,7,0,2026-05-09T09:54:35.775318+05:30
Ajmer,Rajasthan,26.4499,74.6399,32.2,21,0.0,956.6,8.3,43.6,74,120.6,35.9,2.7,328.0,132.0,8.4,0,5,7,0,2026-05-09T09:54:35.775325+05:30
Gwalior,Madhya Pradesh,26.2183,78.1828,30.2,50,0.0,984.7,8.1,30.2,86,92.2,36.2,2.6,341.0,148.0,10.1,0,5,7,1,2026-05-09T09:54:35.775331+05:30
Indore,Madhya Pradesh,22.7196,75.8577,36.8,12,0.0,950.0,8.65,43.6,75,14.1,7.6,4.0,319.0,118.0,3.9,0,5,10,0,2026-05-09T09:54:35.775338+05:30
Bhopal,Madhya Pradesh,23.2599,77.4126,35.8,21,0.0,955.1,8.6,47.2,75,39.6,19.8,2.5,295.0,139.0,6.4,0,5,10,0,2026-05-09T09:54:35.775345+05:30
Jabalpur,Madhya Pradesh,23.1815,79.9864,35.2,29,0.0,963.0,8.8,58.0,71,34.9,20.5,3.3,260.0,159.0,7.6,0,5,10,0,2026-05-09T09:54:35.775352+05:30
Ujjain,Madhya Pradesh,23.1765,75.7885,37.0,13,0.0,955.4,8.55,38.9,74,15.1,8.1,2.9,235.0,108.0,3.7,0,5,10,0,2026-05-09T09:54:35.775359+05:30
Visakhapatnam,Andhra Pradesh,17.6868,83.2185,32.3,56,0.0,1006.2,9.15,34.6,71,31.3,26.7,38.8,819.0,29.0,45.2,0,5,4,1,2026-05-09T09:54:35.775365+05:30
Vijayawada,Andhra Pradesh,16.5062,80.648,32.8,54,0.0,1004.7,9.2,37.4,43,12.7,10.1,2.7,161.0,69.0,6.6,0,5,4,1,2026-05-09T09:54:35.775372+05:30
Guntur,Andhra Pradesh,16.3067,80.4365,33.6,50,0.0,1005.7,9.25,36.7,43,12.9,10.1,2.6,151.0,70.0,7.0,0,5,4,1,2026-05-09T09:54:35.775379+05:30
Nellore,Andhra Pradesh,14.4426,79.9865,31.9,60,0.0,1007.4,9.2,37.4,19,6.7,4.9,1.6,129.0,56.0,2.1,0,5,4,1,2026-05-09T09:54:35.775386+05:30
Kurnool,Andhra Pradesh,15.8281,78.0373,33.2,44,0.0,978.7,9.15,37.1,29,9.2,6.1,1.2,167.0,68.0,1.3,0,5,7,1,2026-05-09T09:54:35.775394+05:30
Kakinada,Andhra Pradesh,16.9891,82.2475,30.9,67,0.0,1009.9,9.15,37.8,25,12.8,9.6,4.9,158.0,65.0,6.7,3,0,4,1,2026-05-09T09:54:35.775401+05:30
Tirupati,Andhra Pradesh,13.6288,79.4192,31.2,56,0.0,992.8,8.7,39.6,30,5.4,4.2,1.5,139.0,57.0,1.0,0,5,7,1,2026-05-09T09:54:35.775409+05:30
Warangal,Telangana,17.9689,79.5941,32.2,50,0.0,981.5,9.15,31.7,52,11.4,9.6,3.8,189.0,78.0,9.3,0,5,7,1,2026-05-09T09:54:35.775415+05:30
Nizamabad,Telangana,18.6725,78.0941,32.7,45,0.0,967.6,9.1,31.0,67,17.8,14.8,4.6,249.0,112.0,6.4,0,5,7,1,2026-05-09T09:54:35.775422+05:30
Mysore,Karnataka,12.2958,76.6396,28.0,60,0.0,929.6,9.4,31.7,59,12.4,10.9,4.5,218.0,78.0,7.5,4,5,7,1,2026-05-09T09:54:35.775428+05:30
Mangalore,Karnataka,12.9141,74.856,32.0,65,0.0,1006.9,8.85,38.9,87,39.1,28.8,4.7,287.0,119.0,4.7,3,5,4,1,2026-05-09T09:54:35.775435+05:30
Hubli-Dharwad,Karnataka,15.3647,75.124,31.6,41,0.0,942.7,9.15,47.2,55,12.5,8.6,4.0,185.0,87.0,4.5,0,5,7,1,2026-05-09T09:54:35.775442+05:30
Belgaum,Karnataka,15.8497,74.4977,31.0,40,0.0,928.0,9.2,40.7,87,15.3,12.2,6.6,229.0,101.0,7.8,0,5,7,0,2026-05-09T09:54:39.003523+05:30
Coimbatore,Tamil Nadu,11.0168,76.9558,27.9,72,0.1,962.7,7.2,35.3,63,17.5,15.3,4.1,263.0,91.0,8.8,10,5,7,1,2026-05-09T09:54:39.003557+05:30
Madurai,Tamil Nadu,9.9252,78.1198,29.4,70,0.0,993.4,1.65,37.8,69,9.0,8.3,7.4,234.0,66.0,17.2,7,5,3,1,2026-05-09T09:54:39.003572+05:30
Trichy,Tamil Nadu,10.7905,78.7047,29.0,72,0.0,1000.5,2.6,37.1,43,9.5,7.9,8.5,177.0,42.0,17.9,7,5,0,1,2026-05-09T09:54:39.003581+05:30
Salem,Tamil Nadu,11.6643,78.146,29.4,68,0.0,978.2,7.15,37.8,52,10.8,9.4,8.6,243.0,64.0,20.9,7,5,7,1,2026-05-09T09:54:39.003589+05:30
Tirunelveli,Tamil Nadu,8.7139,77.7567,28.4,76,0.0,1003.8,3.6,31.3,56,12.5,11.8,3.5,207.0,87.0,6.7,7,5,0,1,2026-05-09T09:54:39.003596+05:30
Vellore,Tamil Nadu,12.9165,79.1325,31.0,58,0.0,986.0,7.65,40.7,48,10.1,8.5,5.1,152.0,52.0,11.4,0,5,7,1,2026-05-09T09:54:39.003604+05:30
Erode,Tamil Nadu,11.341,77.7172,29.6,67,0.0,989.9,7.0,33.5,61,14.3,13.5,7.0,260.0,79.0,13.2,7,5,7,1,2026-05-09T09:54:39.003612+05:30
Kochi,Kerala,9.9312,76.2673,27.4,89,0.0,1009.3,5.4,24.8,74,21.9,20.8,8.9,338.0,126.0,6.4,7,0,0,1,2026-05-09T09:54:39.003619+05:30
Thiruvananthapuram,Kerala,8.5241,76.9366,26.9,91,0.2,1008.5,4.3,22.0,45,9.2,7.9,3.2,370.0,111.0,2.4,10,0,0,1,2026-05-09T09:54:39.003627+05:30
Kozhikode,Kerala,11.2588,75.7804,29.8,79,0.0,1008.2,8.6,33.5,66,21.2,18.6,2.8,341.0,121.0,3.9,7,0,4,1,2026-05-09T09:54:39.003634+05:30
Thrissur,Kerala,10.5276,76.2144,28.4,77,0.0,1007.5,6.7,23.0,77,25.4,23.9,8.5,295.0,103.0,6.0,7,5,4,1,2026-05-09T09:54:39.003642+05:30
Kannur,Kerala,11.8745,75.3704,29.5,76,0.0,1007.6,7.9,31.7,75,24.4,18.4,4.5,316.0,104.0,3.0,7,5,4,1,2026-05-09T09:54:39.003649+05:30
Patna,Bihar,25.5941,85.1376,29.1,62,0.0,1004.3,8.1,32.4,137,51.1,45.6,5.5,450.0,171.0,21.6,7,5,4,1,2026-05-09T09:54:39.003656+05:30
Gaya,Bihar,24.7914,85.0002,31.1,52,0.0,997.0,8.2,34.9,124,45.9,40.3,7.8,405.0,169.0,37.0,0,5,7,1,2026-05-09T09:54:39.003663+05:30
Muzaffarpur,Bihar,26.1209,85.3647,29.2,61,0.0,1004.7,8.65,32.8,147,52.6,45.9,4.6,437.0,170.0,15.0,7,5,4,1,2026-05-09T09:54:39.003670+05:30
Bhagalpur,Bihar,25.2425,87.0117,30.2,52,0.0,1005.7,8.7,50.0,150,47.3,38.5,5.5,377.0,175.0,10.7,0,5,4,1,2026-05-09T09:54:39.003676+05:30
Ranchi,Jharkhand,23.3441,85.3096,29.6,45,0.0,941.2,8.95,39.2,90,33.4,26.9,3.8,382.0,172.0,36.4,4,5,7,1,2026-05-09T09:54:39.003683+05:30
Jamshedpur,Jharkhand,22.8046,86.2029,30.9,53,0.0,994.5,9.05,37.4,87,36.9,30.2,10.0,629.0,149.0,35.1,0,5,7,1,2026-05-09T09:54:39.003690+05:30
Dhanbad,Jharkhand,23.7957,86.4304,29.2,60,0.0,983.8,8.8,41.8,145,56.7,49.0,38.2,439.0,113.0,98.3,4,5,7,1,2026-05-09T09:54:39.003697+05:30
Bokaro,Jharkhand,23.6693,86.1511,30.3,55,0.0,987.4,8.8,47.5,141,54.0,45.3,27.5,1754.0,144.0,84.3,0,5,7,1,2026-05-09T09:54:39.003704+05:30
Bhubaneswar,Odisha,20.2961,85.8245,32.3,60,0.0,1005.4,9.1,32.0,44,13.8,10.1,1.8,199.0,88.0,4.0,0,5,4,1,2026-05-09T09:54:39.003710+05:30
Cuttack,Odisha,20.4625,85.8828,32.2,62,0.0,1007.2,9.15,53.6,44,13.8,10.1,1.8,219.0,88.0,4.0,3,5,4,1,2026-05-09T09:54:39.003717+05:30
Rourkela,Odisha,22.2604,84.8536,32.0,53,0.0,988.0,8.95,43.6,100,36.8,32.1,5.0,374.0,164.0,66.3,0,5,7,1,2026-05-09T09:54:39.003723+05:30
Raipur,Chhattisgarh,21.2514,81.6296,33.5,38,0.0,977.3,8.95,60.8,115,25.6,22.9,14.9,706.0,179.0,5.7,0,5,7,1,2026-05-09T09:54:39.003730+05:30
Bhilai,Chhattisgarh,21.1938,81.3509,33.1,41,0.0,977.7,8.95,76.3,114,21.0,18.2,12.3,1248.0,144.0,4.3,0,5,7,1,2026-05-09T09:54:39.003736+05:30
Guwahati,Assam,26.1158,91.7086,29.4,61,0.0,1005.9,8.65,24.1,114,37.8,27.9,0.4,369.0,152.0,2.6,7,5,4,1,2026-05-09T09:54:39.003742+05:30
Agartala,Tripura,23.8315,91.2868,31.2,55,0.0,1009.5,8.8,19.8,152,46.1,38.3,4.0,410.0,191.0,5.9,0,0,4,1,2026-05-09T09:54:39.003749+05:30
Shillong,Meghalaya,25.5788,91.8933,23.4,51,0.0,862.4,8.4,29.2,77,30.4,20.5,0.3,261.0,149.0,2.3,0,5,7,0,2026-05-09T09:54:39.003755+05:30
Imphal,Manipur,24.817,93.9368,27.2,54,0.0,927.7,9.2,24.5,92,26.6,17.7,0.0,285.0,160.0,4.0,4,5,7,1,2026-05-09T09:54:39.003761+05:30
Aizawl,Mizoram,23.7271,92.7176,26.7,45,0.0,897.0,9.0,25.9,78,31.7,18.8,0.1,248.0,153.0,2.7,4,5,7,0,2026-05-09T09:54:39.003768+05:30
Kohima,Nagaland,25.6701,94.1077,23.7,59,0.0,860.6,9.15,30.6,78,25.9,16.9,0.2,229.0,142.0,1.9,0,5,7,0,2026-05-09T09:54:39.003774+05:30
Gangtok,Sikkim,27.3314,88.6138,17.6,76,0.0,842.1,8.8,42.1,71,23.6,14.0,0.2,201.0,137.0,0.9,3,5,7,0,2026-05-09T09:54:39.003781+05:30
Siliguri,West Bengal,26.7271,88.3953,30.4,44,0.0,997.5,8.5,28.1,120,39.7,26.0,1.1,536.0,151.0,2.5,0,5,7,1,2026-05-09T09:54:42.230533+05:30
Durgapur,West Bengal,23.5204,87.3119,30.1,63,0.0,999.1,8.9,35.6,143,45.3,40.9,23.6,357.0,113.0,66.9,3,5,7,1,2026-05-09T09:54:42.230568+05:30
Asansol,West Bengal,23.6739,86.9524,30.5,59,0.0,997.7,8.95,52.6,130,44.5,39.8,23.6,817.0,111.0,68.6,0,5,7,1,2026-05-09T09:54:42.230579+05:30
Pondicherry,Puducherry,11.9139,79.8145,26.5,87,0.1,1009.7,5.2,35.6,22,5.0,3.7,2.5,159.0,56.0,0.6,10,0,0,1,2026-05-09T09:54:42.230588+05:30
Port Blair,Andaman and Nicobar Islands,11.6234,92.7265,30.0,75,0.0,1007.2,8.15,40.0,28,3.6,2.4,0.3,128.0,60.0,0.1,7,5,4,1,2026-05-09T09:54:42.230596+05:30
Haridwar,Uttarakhand,29.9457,78.1642,29.5,45,0.0,977.9,7.4,27.4,86,40.3,20.4,0.3,283.0,174.0,6.7,4,5,7,1,2026-05-09T09:54:42.230604+05:30
Rishikesh,Uttarakhand,30.0869,78.2676,28.8,46,0.0,970.4,7.5,28.1,69,34.1,16.4,0.1,250.0,175.0,4.8,4,5,7,0,2026-05-09T09:54:42.230612+05:30
Nainital,Uttarakhand,29.3919,79.4542,18.1,54,0.0,809.6,8.25,32.0,63,35.4,14.3,0.0,249.0,155.0,3.1,0,5,7,0,2026-05-09T09:54:42.230620+05:30
Mussoorie,Uttarakhand,30.4599,78.0664,18.0,60,0.0,806.8,7.85,40.0,78,32.2,15.8,0.0,233.0,168.0,6.2,0,5,7,0,2026-05-09T09:54:42.230627+05:30
Dharamshala,Himachal Pradesh,32.219,76.3234,21.7,65,0.0,872.5,8.25,37.4,66,45.3,12.7,0.5,269.0,156.0,1.3,3,5,7,0,2026-05-09T09:54:42.230634+05:30
Dalhousie,Himachal Pradesh,32.5387,75.971,19.0,60,0.0,808.3,8.55,34.9,115,100.6,39.9,2.9,268.0,170.0,5.4,0,5,7,0,2026-05-09T09:54:42.230642+05:30
Patiala,Punjab,30.3398,76.3869,30.7,44,0.0,981.3,7.5,25.2,292,466.6,64.7,4.5,329.0,162.0,12.0,0,5,7,1,2026-05-09T09:54:42.230649+05:30
Bhatinda,Punjab,30.211,74.9455,32.8,37,0.0,986.3,8.2,28.1,579,484.3,102.7,5.2,344.0,146.0,18.0,0,5,7,1,2026-05-09T09:54:42.230656+05:30
Rohtak,Haryana,28.8955,76.6066,31.6,40,0.0,984.7,7.6,25.9,514,488.0,84.8,14.1,472.0,150.0,29.2,0,5,7,1,2026-05-09T09:54:42.230663+05:30
Panipat,Haryana,29.3909,76.9635,30.7,45,0.0,983.7,7.45,28.1,765,776.7,98.5,10.9,426.0,150.0,25.2,0,5,7,1,2026-05-09T09:54:42.230669+05:30
Mathura,Uttar Pradesh,27.4924,77.6737,30.6,46,0.0,989.3,7.85,22.3,865,646.3,83.4,5.3,376.0,144.0,8.9,0,5,7,1,2026-05-09T09:54:42.230676+05:30
Vrindavan,Uttar Pradesh,27.5823,77.7027,30.8,45,0.0,989.8,7.8,25.6,865,646.3,83.4,5.3,369.0,144.0,8.9,0,5,7,1,2026-05-09T09:54:42.230684+05:30
Ayodhya,Uttar Pradesh,26.7922,82.1998,29.6,52,0.0,999.1,8.15,37.1,84,50.1,38.5,3.9,422.0,158.0,9.8,4,5,7,1,2026-05-09T09:54:42.230691+05:30
Ratlam,Madhya Pradesh,23.3315,75.0367,35.5,17,0.0,956.3,8.5,40.7,60,15.7,7.0,1.7,228.0,117.0,3.7,0,5,10,0,2026-05-09T09:54:42.230698+05:30
Sagar,Madhya Pradesh,23.8388,78.7378,35.7,20,0.0,951.9,8.55,49.7,69,37.7,19.6,1.9,207.0,146.0,5.8,0,5,10,0,2026-05-09T09:54:42.230705+05:30
Satna,Madhya Pradesh,24.6005,80.8322,33.0,33,0.0,972.6,8.65,66.2,81,49.4,29.3,5.9,290.0,159.0,21.2,0,5,7,0,2026-05-09T09:54:42.230712+05:30
Akola,Maharashtra,20.7002,77.0082,36.4,29,0.0,976.8,8.85,36.0,77,31.4,24.4,5.8,274.0,131.0,8.0,0,5,10,0,2026-05-09T09:54:42.230720+05:30
Amravati,Maharashtra,20.9374,77.7796,35.4,31,0.0,969.5,8.85,32.4,79,27.1,21.7,5.0,258.0,132.0,5.8,0,5,10,0,2026-05-09T09:54:42.230729+05:30
Latur,Maharashtra,18.4088,76.5604,32.5,40,0.0,943.1,9.05,31.7,75,19.3,15.0,3.1,225.0,118.0,4.5,0,5,7,1,2026-05-09T09:54:42.230736+05:30
Nanded,Maharashtra,19.1383,77.3091,34.7,36,0.0,970.9,9.0,54.4,73,19.7,16.2,4.6,288.0,124.0,6.4,0,5,7,1,2026-05-09T09:54:42.230742+05:30
Gulbarga,Karnataka,17.3297,76.8343,32.6,43,0.0,961.2,9.0,35.6,58,12.9,10.2,5.0,209.0,95.0,8.8,0,5,7,1,2026-05-09T09:54:42.230749+05:30
Bidar,Karnataka,17.9104,77.5199,32.1,41,0.0,938.6,9.0,36.7,65,15.4,12.2,4.0,229.0,106.0,4.5,0,5,7,1,2026-05-09T09:54:42.230755+05:30
Hospet,Karnataka,15.2689,76.3909,30.6,49,0.0,957.6,9.25,36.4,47,10.7,7.6,7.7,175.0,60.0,12.8,0,5,7,1,2026-05-09T09:54:42.230762+05:30
Tirupur,Tamil Nadu,11.1085,77.3411,29.8,64,0.0,976.0,6.7,42.1,77,20.0,18.3,5.6,213.0,92.0,9.9,7,5,7,1,2026-05-09T09:54:42.230769+05:30
Alappuzha,Kerala,9.4981,76.3388,27.7,84,0.0,1009.5,3.1,28.1,70,19.6,18.5,6.8,275.0,125.0,8.1,7,0,0,1,2026-05-09T09:54:42.230775+05:30
Munnar,Kerala,10.0889,77.0595,20.4,81,0.0,857.7,3.0,20.9,52,9.1,8.1,2.1,154.0,80.0,4.0,3,5,3,1,2026-05-09T09:54:42.230783+05:30
Silchar,Assam,24.8333,92.7789,31.0,59,0.0,1008.4,8.85,18.7,120,36.3,27.4,0.7,347.0,151.0,5.5,0,0,4,1,2026-05-09T09:54:42.230790+05:30
Dibrugarh,Assam,27.4728,94.912,29.8,65,0.0,999.8,8.8,14.0,98,34.5,25.7,0.7,284.0,151.0,2.7,7,5,7,1,2026-05-09T09:54:42.230796+05:30
