city,state,latitude,longitude,temp,humidity,rain,pressure,uv_index,wind_gusts,aqi,pm10,pm2_5,mosquito_risk,arthritis_risk,migraine_risk,frizz_risk,updated_at
Delhi,Delhi,28.6139,77.209,20.7,75,0.0,984.0,6.15,22.0,198,114.3,54.6,3,5,7,1,2026-03-31T05:08:43.240382+05:30
Mumbai,Maharashtra,19.076,72.8777,27.6,84,0.0,1008.4,8.05,25.9,68,34.5,15.5,7,0,4,1,2026-03-31T05:08:43.240426+05:30
Bangalore,Karnataka,12.9716,77.5946,21.6,75,0.0,910.4,9.0,27.0,102,34.1,31.5,3,5,7,1,2026-03-31T05:08:43.240441+05:30
Hyderabad,Telangana,17.385,78.4867,23.1,84,0.0,953.9,9.05,37.4,116,41.8,38.3,3,5,7,1,2026-03-31T05:08:43.240450+05:30
Chennai,Tamil Nadu,13.0827,80.2707,26.1,86,0.0,1007.0,9.3,29.5,49,16.2,11.6,7,5,4,1,2026-03-31T05:08:43.240460+05:30
Kolkata,West Bengal,22.5726,88.3639,25.8,93,0.0,1006.8,7.8,23.8,92,25.1,21.1,7,5,4,1,2026-03-31T05:08:43.240468+05:30
Pune,Maharashtra,18.5204,73.8567,23.1,97,0.0,948.1,8.55,36.0,81,54.7,41.2,3,5,7,1,2026-03-31T05:08:43.240480+05:30
Ahmedabad,Gujarat,23.0225,72.5714,25.3,73,0.0,1001.8,7.8,29.2,59,43.8,27.3,7,5,4,1,2026-03-31T05:08:43.240487+05:30
Jaipur,Rajasthan,26.9124,75.7873,22.9,63,0.0,960.3,7.2,46.8,88,34.5,16.6,3,5,7,0,2026-03-31T05:08:43.240495+05:30
Lucknow,Uttar Pradesh,26.8467,80.9462,24.4,69,0.0,993.4,7.25,26.6,145,279.4,79.2,3,5,7,1,2026-03-31T05:08:43.240502+05:30
Kanpur,Uttar Pradesh,26.4499,80.3319,22.9,75,0.0,992.0,7.3,27.4,351,581.1,116.9,3,5,7,1,2026-03-31T05:08:43.240509+05:30
Chandigarh,Chandigarh,30.7333,76.7794,19.3,85,0.0,969.7,6.3,22.3,109,69.2,28.1,3,10,7,1,2026-03-31T05:08:43.240517+05:30
Srinagar,Jammu and Kashmir,34.0837,74.7973,7.9,88,0.0,843.0,4.95,18.0,77,30.7,20.0,3,10,3,0,2026-03-31T05:08:43.240524+05:30
Jammu,Jammu and Kashmir,32.7266,74.857,19.3,71,0.0,975.2,6.9,38.2,70,42.8,18.5,3,5,7,0,2026-03-31T05:08:43.240531+05:30
Amritsar,Punjab,31.634,74.8723,18.7,84,0.0,982.7,6.65,32.0,127,202.1,63.3,3,10,7,0,2026-03-31T05:08:43.240538+05:30
Ludhiana,Punjab,30.901,75.8573,19.6,84,0.0,980.2,6.2,19.8,291,276.6,87.5,3,10,7,1,2026-03-31T05:08:43.240545+05:30
Jalandhar,Punjab,31.326,75.5762,19.4,91,0.0,981.6,6.55,19.8,173,317.6,85.0,3,10,7,1,2026-03-31T05:08:43.240554+05:30
Dehradun,Uttarakhand,30.6284,78.0322,12.3,75,0.0,829.0,7.1,37.8,45,22.8,8.6,3,5,7,0,2026-03-31T05:08:43.240561+05:30
Shimla,Himachal Pradesh,31.1048,77.1734,10.6,66,0.0,782.6,6.95,33.8,56,41.3,12.7,3,5,7,0,2026-03-31T05:08:43.240568+05:30
Manali,Himachal Pradesh,32.2396,77.1887,12.8,50,0.0,818.6,8.55,33.8,48,2.4,1.5,0,5,7,0,2026-03-31T05:08:43.240575+05:30
Gurgaon,Haryana,28.4595,77.0266,18.2,88,0.0,982.3,6.4,23.0,778,127.6,52.4,3,10,7,1,2026-03-31T05:08:43.240581+05:30
Noida,Uttar Pradesh,28.5355,77.391,20.6,75,0.0,985.5,6.05,20.5,778,127.6,52.4,3,5,7,0,2026-03-31T05:08:43.240587+05:30
Ghaziabad,Uttar Pradesh,28.6692,77.4538,19.4,77,0.0,983.6,6.05,23.4,161,125.3,51.9,3,5,7,0,2026-03-31T05:08:43.240593+05:30
Faridabad,Haryana,28.4089,77.3178,18.2,85,0.0,984.6,6.0,23.8,778,127.6,52.4,3,10,3,0,2026-03-31T05:08:43.240601+05:30
Meerut,Uttar Pradesh,28.9845,77.7064,18.4,78,0.0,982.3,6.55,25.6,161,125.3,51.9,3,5,7,0,2026-03-31T05:08:43.240608+05:30
Agra,Uttar Pradesh,27.1767,78.0081,20.2,70,0.0,988.7,6.9,27.0,617,251.5,37.0,3,5,7,0,2026-03-31T05:08:43.240636+05:30
Varanasi,Uttar Pradesh,25.3176,82.9739,23.6,81,0.0,997.0,7.6,28.4,97,80.6,51.6,3,5,7,1,2026-03-31T05:08:43.240647+05:30
Prayagraj,Uttar Pradesh,25.4358,81.8463,24.4,70,0.0,995.4,7.85,26.6,102,243.1,73.3,3,5,7,1,2026-03-31T05:08:43.240655+05:30
Gorakhpur,Uttar Pradesh,26.7606,83.3732,22.9,86,0.0,997.4,6.25,28.4,155,105.7,89.6,3,5,7,1,2026-03-31T05:08:43.240664+05:30
Bareilly,Uttar Pradesh,28.367,79.4304,21.2,87,0.0,987.2,6.45,29.5,108,65.9,32.9,3,5,7,1,2026-03-31T05:08:43.240670+05:30
Aligarh,Uttar Pradesh,27.8974,78.088,18.7,79,0.0,986.3,6.35,29.9,601,394.9,72.2,3,5,7,0,2026-03-31T05:08:43.240677+05:30
Moradabad,Uttar Pradesh,28.8386,78.7733,20.7,87,0.0,984.2,6.65,28.1,136,84.3,37.8,3,5,7,1,2026-03-31T05:08:43.240683+05:30
Saharanpur,Uttar Pradesh,29.9637,77.546,19.3,91,0.0,976.6,6.2,24.8,138,163.0,60.3,3,10,7,1,2026-03-31T05:08:43.240689+05:30
Jhansi,Uttar Pradesh,25.4484,78.5685,22.8,64,0.0,978.6,7.8,23.8,56,33.3,11.9,3,5,7,0,2026-03-31T05:08:46.563909+05:30
Surat,Gujarat,21.1702,72.8311,26.5,85,0.0,1006.4,7.8,28.8,96,22.4,20.1,7,5,4,1,2026-03-31T05:08:46.563943+05:30
Vadodara,Gujarat,22.3072,73.1812,27.1,78,0.0,1003.9,8.0,28.8,77,50.9,40.0,7,5,4,1,2026-03-31T05:08:46.563955+05:30
Rajkot,Gujarat,22.3039,70.8022,23.0,95,0.0,994.2,7.8,37.8,56,41.9,17.2,3,5,7,1,2026-03-31T05:08:46.563964+05:30
Thane,Maharashtra,19.2183,72.9781,26.5,85,0.0,1007.9,8.05,38.9,68,34.5,15.5,7,5,4,1,2026-03-31T05:08:46.563973+05:30
Nagpur,Maharashtra,21.1458,79.0882,24.5,70,0.0,973.4,8.55,19.8,57,24.8,19.9,3,5,7,1,2026-03-31T05:08:46.563982+05:30
Nashik,Maharashtra,19.9975,73.7898,21.5,92,0.0,945.3,8.25,30.2,61,46.8,23.6,3,5,7,1,2026-03-31T05:08:46.563990+05:30
Aurangabad,Maharashtra,19.8762,75.3433,21.2,85,0.0,943.9,8.75,27.4,58,27.5,22.5,3,5,7,1,2026-03-31T05:08:46.563998+05:30
Solapur,Maharashtra,17.6599,75.9064,23.6,80,0.0,957.2,8.9,24.8,83,32.9,29.4,3,5,7,1,2026-03-31T05:08:46.564007+05:30
Kolhapur,Maharashtra,16.705,74.2433,22.6,95,0.0,947.3,8.9,36.4,78,49.1,41.7,3,5,7,1,2026-03-31T05:08:46.564015+05:30
Goa,Goa,15.2993,74.124,27.2,83,0.0,996.9,9.0,33.5,65,43.1,30.9,7,5,7,1,2026-03-31T05:08:46.564022+05:30
Jodhpur,Rajasthan,26.2389,73.0243,25.0,62,0.0,982.8,7.7,35.6,89,20.0,9.7,7,5,7,1,2026-03-31T05:08:46.564028+05:30
Udaipur,Rajasthan,24.5854,73.7125,19.5,75,0.0,945.8,8.3,39.2,43,18.1,10.6,3,5,7,0,2026-03-31T05:08:46.564035+05:30
Kota,Rajasthan,25.2138,75.8648,23.9,73,0.0,979.3,7.75,41.0,50,23.7,15.2,3,5,7,1,2026-03-31T05:08:46.564041+05:30
Bikaner,Rajasthan,28.0229,73.3119,25.0,53,0.0,981.4,6.8,26.3,86,85.7,21.4,4,5,7,0,2026-03-31T05:08:46.564048+05:30
Ajmer,Rajasthan,26.4499,74.6399,24.0,58,0.0,954.6,7.7,45.7,45,20.6,10.2,0,5,7,0,2026-03-31T05:08:46.564055+05:30
Gwalior,Madhya Pradesh,26.2183,78.1828,22.6,68,0.0,984.0,7.35,23.4,68,25.0,10.4,3,5,7,1,2026-03-31T05:08:46.564061+05:30
Indore,Madhya Pradesh,22.7196,75.8577,23.0,71,0.0,948.1,8.3,24.8,50,20.6,13.0,3,5,7,1,2026-03-31T05:08:46.564067+05:30
Bhopal,Madhya Pradesh,23.2599,77.4126,22.9,71,0.0,953.8,8.25,31.7,42,22.6,14.0,3,5,7,1,2026-03-31T05:08:46.564073+05:30
Jabalpur,Madhya Pradesh,23.1815,79.9864,23.5,74,0.0,961.3,8.35,17.6,50,64.3,19.3,3,5,7,1,2026-03-31T05:08:46.564079+05:30
Ujjain,Madhya Pradesh,23.1765,75.7885,22.9,74,0.0,953.8,8.2,25.6,50,19.8,13.2,3,5,7,1,2026-03-31T05:08:46.564086+05:30
Visakhapatnam,Andhra Pradesh,17.6868,83.2185,25.1,90,0.0,1004.1,9.0,37.1,59,20.1,17.5,7,5,4,1,2026-03-31T05:08:46.564093+05:30
Vijayawada,Andhra Pradesh,16.5062,80.648,25.3,89,0.0,1003.1,9.1,25.6,60,24.1,20.6,7,5,4,1,2026-03-31T05:08:46.564099+05:30
Guntur,Andhra Pradesh,16.3067,80.4365,26.0,89,0.0,1003.9,9.1,29.5,63,19.3,15.9,7,5,4,1,2026-03-31T05:08:46.564106+05:30
Nellore,Andhra Pradesh,14.4426,79.9865,25.4,90,0.0,1005.5,9.15,30.6,58,13.5,10.3,7,5,4,1,2026-03-31T05:08:46.564113+05:30
Kurnool,Andhra Pradesh,15.8281,78.0373,27.1,67,0.0,976.4,9.05,29.5,103,23.6,21.7,7,5,7,1,2026-03-31T05:08:46.564120+05:30
Kakinada,Andhra Pradesh,16.9891,82.2475,23.5,95,0.0,1008.2,9.05,32.4,47,16.4,12.7,3,0,4,1,2026-03-31T05:08:46.564127+05:30
Tirupati,Andhra Pradesh,13.6288,79.4192,23.4,94,0.0,991.6,9.3,33.8,83,28.9,26.9,3,5,7,1,2026-03-31T05:08:46.564133+05:30
Warangal,Telangana,17.9689,79.5941,24.5,85,0.0,980.3,8.95,26.3,106,43.3,38.4,3,5,7,1,2026-03-31T05:08:46.564140+05:30
Nizamabad,Telangana,18.6725,78.0941,23.2,82,0.0,965.6,8.85,37.1,90,42.3,33.4,3,5,7,1,2026-03-31T05:08:46.564146+05:30
Mysore,Karnataka,12.2958,76.6396,21.8,97,0.0,927.2,8.55,26.6,118,57.3,52.6,3,5,7,1,2026-03-31T05:08:46.564152+05:30
Mangalore,Karnataka,12.9141,74.856,29.7,76,0.0,1005.2,9.05,26.6,87,48.5,44.8,7,5,4,1,2026-03-31T05:08:46.564158+05:30
Hubli-Dharwad,Karnataka,15.3647,75.124,22.8,94,0.0,940.2,9.1,31.7,67,31.2,28.2,3,5,7,1,2026-03-31T05:08:46.564165+05:30
Belgaum,Karnataka,15.8497,74.4977,21.8,94,0.0,924.8,9.1,41.8,64,47.6,38.2,3,5,7,1,2026-03-31T05:08:49.884398+05:30
Coimbatore,Tamil Nadu,11.0168,76.9558,23.4,93,0.0,960.7,9.05,40.0,92,50.8,46.7,3,5,7,1,2026-03-31T05:08:49.884430+05:30
Madurai,Tamil Nadu,9.9252,78.1198,25.0,95,0.0,992.3,9.4,31.0,69,31.7,29.9,7,5,7,1,2026-03-31T05:08:49.884440+05:30
Trichy,Tamil Nadu,10.7905,78.7047,25.5,94,0.0,999.4,9.35,25.9,59,24.8,21.9,7,5,7,1,2026-03-31T05:08:49.884447+05:30
Salem,Tamil Nadu,11.6643,78.146,24.8,88,0.0,976.8,9.4,32.4,70,25.7,24.4,3,5,7,1,2026-03-31T05:08:49.884455+05:30
Tirunelveli,Tamil Nadu,8.7139,77.7567,23.1,89,0.0,1002.2,8.65,37.8,79,40.4,38.0,3,5,4,1,2026-03-31T05:08:49.884463+05:30
Vellore,Tamil Nadu,12.9165,79.1325,23.2,97,0.0,984.4,9.4,32.0,100,45.4,43.3,3,5,7,1,2026-03-31T05:08:49.884470+05:30
Erode,Tamil Nadu,11.341,77.7172,26.1,85,0.0,988.5,9.4,27.0,61,15.4,14.8,7,5,7,1,2026-03-31T05:08:49.884477+05:30
Kochi,Kerala,9.9312,76.2673,28.5,80,0.0,1007.1,8.9,28.8,105,46.9,45.6,7,5,4,1,2026-03-31T05:08:49.884484+05:30
Thiruvananthapuram,Kerala,8.5241,76.9366,27.9,84,0.0,1006.3,9.2,28.1,81,31.2,27.1,7,5,4,1,2026-03-31T05:08:49.884492+05:30
Kozhikode,Kerala,11.2588,75.7804,28.5,81,0.0,1006.5,8.25,28.1,110,56.6,51.3,7,5,4,1,2026-03-31T05:08:49.884499+05:30
Thrissur,Kerala,10.5276,76.2144,26.8,94,0.0,1005.6,8.75,34.2,118,65.4,62.2,7,5,4,1,2026-03-31T05:08:49.884508+05:30
Kannur,Kerala,11.8745,75.3704,28.0,86,0.0,1005.6,9.0,30.6,113,56.3,53.2,7,5,4,1,2026-03-31T05:08:49.884515+05:30
Patna,Bihar,25.5941,85.1376,23.0,90,0.0,1001.0,8.1,24.1,162,112.2,102.2,3,5,4,1,2026-03-31T05:08:49.884523+05:30
Gaya,Bihar,24.7914,85.0002,24.4,86,0.0,993.8,8.2,20.9,126,76.8,65.0,3,5,7,1,2026-03-31T05:08:49.884530+05:30
Muzaffarpur,Bihar,26.1209,85.3647,21.4,90,0.0,1001.5,8.1,27.4,167,118.7,109.2,3,5,4,1,2026-03-31T05:08:49.884537+05:30
Bhagalpur,Bihar,25.2425,87.0117,22.4,96,0.0,1002.5,8.1,22.3,161,93.6,89.6,3,5,4,1,2026-03-31T05:08:49.884543+05:30
Ranchi,Jharkhand,23.3441,85.3096,21.8,90,0.0,938.0,8.45,32.8,128,69.6,58.0,3,5,7,1,2026-03-31T05:08:49.884550+05:30
Jamshedpur,Jharkhand,22.8046,86.2029,25.4,91,0.0,991.5,8.65,33.1,145,76.6,70.1,7,5,7,1,2026-03-31T05:08:49.884557+05:30
Dhanbad,Jharkhand,23.7957,86.4304,23.6,86,0.0,980.6,8.55,29.2,167,137.8,129.9,3,5,7,1,2026-03-31T05:08:49.884564+05:30
Bokaro,Jharkhand,23.6693,86.1511,23.3,91,0.0,985.0,8.55,32.8,165,139.2,131.3,3,5,7,1,2026-03-31T05:08:49.884571+05:30
Bhubaneswar,Odisha,20.2961,85.8245,26.0,92,0.0,1002.8,8.85,28.8,64,15.3,12.3,7,5,4,1,2026-03-31T05:08:49.884578+05:30
Cuttack,Odisha,20.4625,85.8828,26.0,93,0.0,1004.9,8.85,21.6,64,15.3,12.3,7,5,4,1,2026-03-31T05:08:49.884585+05:30
Rourkela,Odisha,22.2604,84.8536,25.1,92,0.0,985.1,8.55,20.5,106,49.7,44.8,7,5,7,1,2026-03-31T05:08:49.884592+05:30
Raipur,Chhattisgarh,21.2514,81.6296,25.6,64,0.0,974.9,8.4,33.1,107,53.6,50.5,7,5,7,1,2026-03-31T05:08:49.884598+05:30
Bhilai,Chhattisgarh,21.1938,81.3509,25.1,68,0.0,975.0,8.1,29.2,86,35.9,32.6,7,5,7,1,2026-03-31T05:08:49.884604+05:30
Guwahati,Assam,26.1158,91.7086,21.6,94,0.0,1003.8,8.05,22.0,123,58.1,48.0,3,5,4,1,2026-03-31T05:08:49.884610+05:30
Agartala,Tripura,23.8315,91.2868,22.8,93,0.0,1008.0,8.3,30.6,118,27.8,24.0,3,0,4,1,2026-03-31T05:08:49.884638+05:30
Shillong,Meghalaya,25.5788,91.8933,13.3,91,0.0,855.8,7.25,35.6,117,56.6,46.1,3,10,7,0,2026-03-31T05:08:49.884646+05:30
Imphal,Manipur,24.817,93.9368,16.6,94,0.0,924.3,8.45,57.6,101,7.2,5.9,3,10,7,0,2026-03-31T05:08:49.884655+05:30
Aizawl,Mizoram,23.7271,92.7176,17.0,94,0.0,893.4,8.55,40.7,122,61.2,48.0,3,10,7,0,2026-03-31T05:08:49.884662+05:30
Kohima,Nagaland,25.6701,94.1077,14.2,79,0.0,854.8,8.55,63.0,91,18.7,14.8,3,5,7,0,2026-03-31T05:08:49.884668+05:30
Gangtok,Sikkim,27.3314,88.6138,14.1,91,0.0,836.7,8.3,19.1,121,64.0,53.4,3,10,7,0,2026-03-31T05:08:49.884674+05:30
Siliguri,West Bengal,26.7271,88.3953,18.8,84,0.0,995.8,8.0,19.4,159,138.3,103.6,3,10,7,1,2026-03-31T05:08:53.212351+05:30
Durgapur,West Bengal,23.5204,87.3119,25.1,93,0.1,995.7,8.45,19.8,158,84.8,78.7,10,5,7,1,2026-03-31T05:08:53.212384+05:30
Asansol,West Bengal,23.6739,86.9524,24.9,90,0.0,994.2,8.55,26.6,158,90.6,84.1,3,5,7,1,2026-03-31T05:08:53.212395+05:30
Pondicherry,Puducherry,11.9139,79.8145,24.5,97,0.0,1008.3,9.25,26.3,44,15.3,10.9,3,0,4,1,2026-03-31T05:08:53.212404+05:30
Port Blair,Andaman and Nicobar Islands,11.6234,92.7265,28.3,76,0.0,1007.1,9.2,14.0,58,15.9,13.0,7,5,4,1,2026-03-31T05:08:53.212414+05:30
Haridwar,Uttarakhand,29.9457,78.1642,20.1,77,0.0,975.0,6.55,31.0,97,51.0,25.5,3,5,7,0,2026-03-31T05:08:53.212422+05:30
Rishikesh,Uttarakhand,30.0869,78.2676,19.7,65,0.0,967.7,6.65,33.8,76,43.2,15.7,3,5,7,0,2026-03-31T05:08:53.212431+05:30
Nainital,Uttarakhand,29.3919,79.4542,18.5,42,0.0,806.1,7.5,41.4,75,62.6,26.1,0,5,7,0,2026-03-31T05:08:53.212439+05:30
Mussoorie,Uttarakhand,30.4599,78.0664,15.0,53,0.0,802.2,7.0,42.5,73,25.4,15.1,0,5,7,0,2026-03-31T05:08:53.212448+05:30
Dharamshala,Himachal Pradesh,32.219,76.3234,17.8,55,0.0,869.6,7.2,22.7,36,13.4,6.3,0,5,7,0,2026-03-31T05:08:53.212455+05:30
Dalhousie,Himachal Pradesh,32.5387,75.971,13.6,60,0.0,803.2,6.7,27.4,65,42.4,20.7,0,5,7,0,2026-03-31T05:08:53.212464+05:30
Patiala,Punjab,30.3398,76.3869,18.1,82,0.0,979.2,5.9,15.8,467,297.1,83.8,3,10,3,0,2026-03-31T05:08:53.212473+05:30
Bhatinda,Punjab,30.211,74.9455,19.1,79,0.0,984.4,6.6,29.5,154,173.2,49.1,3,5,7,0,2026-03-31T05:08:53.212481+05:30
Rohtak,Haryana,28.8955,76.6066,17.9,91,0.0,982.6,6.05,23.8,288,121.5,58.0,3,10,7,1,2026-03-31T05:08:53.212489+05:30
Panipat,Haryana,29.3909,76.9635,17.7,80,0.0,981.3,6.55,19.1,429,111.8,57.3,3,5,7,0,2026-03-31T05:08:53.212496+05:30
Mathura,Uttar Pradesh,27.4924,77.6737,20.4,70,0.0,987.7,6.85,22.7,409,101.7,28.4,3,5,7,0,2026-03-31T05:08:53.212504+05:30
Vrindavan,Uttar Pradesh,27.5823,77.7027,19.1,79,0.0,988.1,6.8,25.2,409,101.7,28.4,3,5,7,0,2026-03-31T05:08:53.212512+05:30
Ayodhya,Uttar Pradesh,26.7922,82.1998,22.6,83,0.0,995.1,7.45,30.2,129,161.6,62.6,3,5,7,1,2026-03-31T05:08:53.212521+05:30
Ratlam,Madhya Pradesh,23.3315,75.0367,22.4,77,0.0,954.0,8.15,30.6,47,18.6,11.9,3,5,7,1,2026-03-31T05:08:53.212528+05:30
Sagar,Madhya Pradesh,23.8388,78.7378,24.2,60,0.0,950.5,8.2,27.0,38,35.6,12.9,0,5,7,0,2026-03-31T05:08:53.212537+05:30
Satna,Madhya Pradesh,24.6005,80.8322,25.7,55,0.0,971.3,8.2,22.3,92,364.1,81.3,4,5,7,0,2026-03-31T05:08:53.212545+05:30
Akola,Maharashtra,20.7002,77.0082,24.5,79,0.0,975.6,8.55,26.6,58,36.7,28.4,3,5,7,1,2026-03-31T05:08:53.212554+05:30
Amravati,Maharashtra,20.9374,77.7796,24.1,78,0.0,967.6,8.55,22.0,55,37.3,27.6,3,5,7,1,2026-03-31T05:08:53.212563+05:30
Latur,Maharashtra,18.4088,76.5604,21.7,81,0.0,939.5,8.85,29.2,74,34.0,29.3,3,5,7,1,2026-03-31T05:08:53.212570+05:30
Nanded,Maharashtra,19.1383,77.3091,23.0,84,0.0,968.8,8.75,16.9,66,30.7,25.8,3,5,7,1,2026-03-31T05:08:53.212576+05:30
Gulbarga,Karnataka,17.3297,76.8343,24.0,75,0.0,959.0,8.3,28.1,99,43.2,39.2,3,5,7,1,2026-03-31T05:08:53.212582+05:30
Bidar,Karnataka,17.9104,77.5199,22.5,79,0.0,935.6,7.6,32.8,99,48.8,43.4,3,5,7,1,2026-03-31T05:08:53.212588+05:30
Hospet,Karnataka,15.2689,76.3909,24.4,84,0.0,956.0,9.15,25.2,108,19.0,17.1,3,5,7,1,2026-03-31T05:08:53.212594+05:30
Tirupur,Tamil Nadu,11.1085,77.3411,25.7,89,0.0,974.5,9.5,30.6,80,31.4,29.6,7,5,7,1,2026-03-31T05:08:53.212600+05:30
Alappuzha,Kerala,9.4981,76.3388,27.9,85,0.0,1007.2,9.15,25.6,104,47.3,44.2,7,5,4,1,2026-03-31T05:08:53.212606+05:30
Munnar,Kerala,10.0889,77.0595,18.5,87,0.0,854.4,9.75,26.6,78,35.0,33.3,3,10,7,1,2026-03-31T05:08:53.212633+05:30
Silchar,Assam,24.8333,92.7789,22.1,93,0.0,1007.5,8.35,25.9,116,32.8,25.8,3,5,4,1,2026-03-31T05:08:53.212642+05:30
Dibrugarh,Assam,27.4728,94.912,20.9,94,0.0,998.7,7.95,7.2,98,37.3,34.1,3,5,7,1,2026-03-31T05:08:53.212649+05:30
