city,state,latitude,longitude,temp,humidity,rain,pressure,uv_index,wind_gusts,aqi,pm10,pm2_5,no2,co,o3,so2,mosquito_risk,arthritis_risk,migraine_risk,frizz_risk,updated_at
Delhi,Delhi,28.6139,77.209,34.7,40,0.0,981.6,7.65,37.4,221,327.8,85.2,20.8,888.0,165.0,35.3,0,5,7,1,2026-05-13T10:19:27.472178+05:30
Mumbai,Maharashtra,19.076,72.8777,32.8,63,0.0,1006.5,7.85,41.0,81,51.9,28.6,11.6,286.0,102.0,38.3,3,5,4,1,2026-05-13T10:19:27.472218+05:30
Bangalore,Karnataka,12.9716,77.5946,30.6,38,0.0,911.5,9.45,34.9,73,35.6,24.0,14.3,755.0,127.0,16.5,0,5,7,0,2026-05-13T10:19:27.472234+05:30
Hyderabad,Telangana,17.385,78.4867,33.5,43,0.0,952.6,9.05,25.9,64,28.7,17.0,5.5,470.0,107.0,5.8,0,5,7,1,2026-05-13T10:19:27.472244+05:30
Chennai,Tamil Nadu,13.0827,80.2707,33.5,55,0.0,1004.6,8.8,40.3,25,5.4,3.9,3.2,193.0,53.0,5.3,0,5,4,1,2026-05-13T10:19:27.472253+05:30
Kolkata,West Bengal,22.5726,88.3639,31.6,63,0.0,1005.3,9.0,30.2,72,23.4,16.5,3.5,268.0,89.0,8.1,3,5,4,1,2026-05-13T10:19:27.472262+05:30
Pune,Maharashtra,18.5204,73.8567,35.2,28,0.0,947.1,7.55,45.0,68,46.4,21.2,10.9,281.0,117.0,19.0,0,5,10,0,2026-05-13T10:19:27.472273+05:30
Ahmedabad,Gujarat,23.0225,72.5714,36.5,33,0.0,999.3,8.2,37.1,69,67.1,20.9,5.7,281.0,96.0,8.8,0,5,10,1,2026-05-13T10:19:27.472283+05:30
Jaipur,Rajasthan,26.9124,75.7873,38.1,20,0.0,957.8,8.2,35.3,174,248.7,60.5,5.8,471.0,138.0,10.0,0,5,10,0,2026-05-13T10:19:27.472291+05:30
Lucknow,Uttar Pradesh,26.8467,80.9462,34.7,48,0.0,991.4,8.15,33.1,133,64.3,54.6,5.3,443.0,170.0,15.5,0,5,7,1,2026-05-13T10:19:27.472299+05:30
Kanpur,Uttar Pradesh,26.4499,80.3319,36.5,38,0.0,989.1,8.2,43.2,152,324.1,75.7,5.1,433.0,176.0,17.5,0,5,10,1,2026-05-13T10:19:27.472307+05:30
Chandigarh,Chandigarh,30.7333,76.7794,30.9,51,0.0,967.9,7.7,32.8,119,109.9,46.6,4.8,478.0,184.0,15.7,0,5,7,1,2026-05-13T10:19:27.472314+05:30
Srinagar,Jammu and Kashmir,34.0837,74.7973,16.8,68,0.0,844.2,8.85,32.0,81,34.9,22.8,5.0,361.0,105.0,2.5,3,5,7,0,2026-05-13T10:19:27.472322+05:30
Jammu,Jammu and Kashmir,32.7266,74.857,32.4,34,0.0,971.1,8.45,25.6,114,34.9,23.1,10.2,411.0,98.0,2.3,0,5,7,0,2026-05-13T10:19:27.472330+05:30
Amritsar,Punjab,31.634,74.8723,33.7,45,0.0,978.5,8.35,59.0,150,80.1,41.3,8.0,582.0,132.0,7.4,0,5,7,1,2026-05-13T10:19:27.472336+05:30
Ludhiana,Punjab,30.901,75.8573,33.3,44,0.0,976.7,7.95,45.7,162,174.2,74.0,8.2,732.0,163.0,22.1,0,5,7,1,2026-05-13T10:19:27.472343+05:30
Jalandhar,Punjab,31.326,75.5762,33.3,43,0.0,977.7,8.15,41.4,150,99.0,52.4,7.5,646.0,149.0,12.6,0,5,7,1,2026-05-13T10:19:27.472350+05:30
Dehradun,Uttarakhand,30.6284,78.0322,20.8,57,0.0,832.5,8.1,32.4,70,36.2,13.4,1.0,285.0,137.0,1.1,0,5,7,0,2026-05-13T10:19:27.472359+05:30
Shimla,Himachal Pradesh,31.1048,77.1734,21.2,32,0.0,787.4,8.2,42.8,79,65.2,20.8,1.3,248.0,142.0,2.4,0,5,7,0,2026-05-13T10:19:27.472387+05:30
Manali,Himachal Pradesh,32.2396,77.1887,20.3,29,0.0,819.1,9.6,40.3,56,17.1,6.8,6.8,167.0,132.0,0.7,0,5,7,0,2026-05-13T10:19:27.472395+05:30
Gurgaon,Haryana,28.4595,77.0266,34.3,42,0.0,979.9,7.75,41.8,928,968.6,139.7,16.8,615.0,151.0,28.0,0,5,7,1,2026-05-13T10:19:27.472403+05:30
Noida,Uttar Pradesh,28.5355,77.391,33.6,49,0.0,983.0,7.7,35.3,928,968.6,139.7,16.8,703.0,151.0,28.0,0,5,7,1,2026-05-13T10:19:27.472410+05:30
Ghaziabad,Uttar Pradesh,28.6692,77.4538,33.3,51,0.0,981.3,7.7,27.7,154,213.7,64.5,7.6,504.0,147.0,14.8,0,5,7,1,2026-05-13T10:19:27.472417+05:30
Faridabad,Haryana,28.4089,77.3178,34.2,43,0.0,982.3,7.75,41.8,928,968.6,139.7,16.8,599.0,151.0,28.0,0,5,7,1,2026-05-13T10:19:27.472424+05:30
Meerut,Uttar Pradesh,28.9845,77.7064,33.2,48,0.0,980.4,7.6,31.3,154,213.7,64.5,7.6,529.0,147.0,14.8,0,5,7,1,2026-05-13T10:19:27.472431+05:30
Agra,Uttar Pradesh,27.1767,78.0081,35.3,41,0.0,985.2,8.0,43.9,711,681.7,107.6,5.2,492.0,161.0,16.1,0,5,10,1,2026-05-13T10:19:27.472438+05:30
Varanasi,Uttar Pradesh,25.3176,82.9739,35.2,46,0.0,995.1,8.7,40.0,148,80.3,63.1,6.2,456.0,185.0,22.6,0,5,10,1,2026-05-13T10:19:27.472445+05:30
Prayagraj,Uttar Pradesh,25.4358,81.8463,36.7,36,0.0,993.3,8.55,40.3,139,78.9,63.8,6.2,491.0,187.0,19.3,0,5,10,1,2026-05-13T10:19:27.472455+05:30
Gorakhpur,Uttar Pradesh,26.7606,83.3732,30.3,62,0.0,996.5,8.55,38.2,128,57.9,51.2,4.2,396.0,172.0,11.4,3,5,7,1,2026-05-13T10:19:27.472462+05:30
Bareilly,Uttar Pradesh,28.367,79.4304,32.7,52,0.0,985.7,7.95,24.8,131,98.5,49.7,5.3,432.0,160.0,13.2,0,5,7,1,2026-05-13T10:19:27.472468+05:30
Aligarh,Uttar Pradesh,27.8974,78.088,34.0,47,0.0,983.6,7.8,49.7,397,375.3,81.5,5.6,469.0,152.0,15.5,0,5,7,1,2026-05-13T10:19:27.472476+05:30
Moradabad,Uttar Pradesh,28.8386,78.7733,32.6,52,0.0,982.9,7.8,24.1,128,75.2,52.5,6.3,433.0,165.0,13.8,0,5,7,1,2026-05-13T10:19:27.472483+05:30
Saharanpur,Uttar Pradesh,29.9637,77.546,31.1,55,0.0,974.9,7.4,30.6,157,119.2,55.8,8.0,439.0,168.0,14.6,0,5,7,1,2026-05-13T10:19:27.472489+05:30
Jhansi,Uttar Pradesh,25.4484,78.5685,38.2,29,0.0,974.9,8.45,36.4,96,77.5,42.4,3.5,388.0,141.0,18.8,0,5,10,1,2026-05-13T10:19:30.820726+05:30
Surat,Gujarat,21.1702,72.8311,35.0,57,0.0,1004.0,6.95,40.7,96,55.1,39.0,40.5,559.0,42.0,104.1,0,5,4,1,2026-05-13T10:19:30.820757+05:30
Vadodara,Gujarat,22.3072,73.1812,37.5,28,0.0,1001.4,8.1,40.3,72,57.9,23.7,7.4,319.0,109.0,14.2,0,5,7,0,2026-05-13T10:19:30.820766+05:30
Rajkot,Gujarat,22.3039,70.8022,35.3,37,0.0,991.5,7.75,56.5,55,27.0,12.3,3.0,167.0,99.0,6.5,0,5,10,1,2026-05-13T10:19:30.820775+05:30
Thane,Maharashtra,19.2183,72.9781,35.0,53,0.0,1005.6,7.9,37.1,81,51.9,28.6,11.6,348.0,102.0,38.3,0,5,4,1,2026-05-13T10:19:30.820782+05:30
Nagpur,Maharashtra,21.1458,79.0882,37.5,33,0.0,971.7,8.95,37.8,112,43.2,30.9,9.1,294.0,152.0,28.9,0,5,10,1,2026-05-13T10:19:30.820788+05:30
Nashik,Maharashtra,19.9975,73.7898,35.8,31,0.0,944.7,8.25,45.4,66,45.5,18.0,4.0,248.0,112.0,4.1,0,5,10,1,2026-05-13T10:19:30.820795+05:30
Aurangabad,Maharashtra,19.8762,75.3433,38.0,19,0.0,942.9,9.1,31.7,85,41.9,22.4,4.8,268.0,150.0,13.7,0,5,10,0,2026-05-13T10:19:30.820801+05:30
Solapur,Maharashtra,17.6599,75.9064,36.2,37,0.0,955.8,9.1,47.9,73,38.8,24.4,6.0,292.0,131.0,10.1,0,5,10,1,2026-05-13T10:19:30.820808+05:30
Kolhapur,Maharashtra,16.705,74.2433,31.0,57,0.0,947.3,8.95,44.3,70,45.3,23.3,6.4,206.0,108.0,6.3,0,5,7,1,2026-05-13T10:19:30.820815+05:30
Goa,Goa,15.2993,74.124,32.9,63,0.0,996.5,8.9,32.4,74,37.5,15.8,1.1,167.0,87.0,2.2,3,5,7,1,2026-05-13T10:19:30.820822+05:30
Jodhpur,Rajasthan,26.2389,73.0243,38.0,23,0.0,980.2,8.4,39.6,122,175.6,33.9,2.6,203.0,101.0,3.8,0,5,10,0,2026-05-13T10:19:30.820829+05:30
Udaipur,Rajasthan,24.5854,73.7125,37.5,19,0.0,945.0,8.8,43.2,50,34.2,13.9,2.4,199.0,125.0,4.1,0,5,10,0,2026-05-13T10:19:30.820836+05:30
Kota,Rajasthan,25.2138,75.8648,40.1,18,0.0,976.1,8.4,45.4,73,65.2,24.0,4.1,332.0,118.0,5.3,0,5,10,0,2026-05-13T10:19:30.820843+05:30
Bikaner,Rajasthan,28.0229,73.3119,37.9,25,0.0,978.4,8.35,34.9,100,115.5,33.5,1.7,286.0,96.0,5.5,0,5,10,0,2026-05-13T10:19:30.820850+05:30
Ajmer,Rajasthan,26.4499,74.6399,38.0,18,0.0,952.8,8.35,47.2,78,43.0,16.6,3.8,237.0,115.0,5.8,0,5,10,0,2026-05-13T10:19:30.820856+05:30
Gwalior,Madhya Pradesh,26.2183,78.1828,38.0,30,0.0,980.2,8.2,42.5,115,72.9,45.6,3.0,399.0,143.0,12.1,0,5,10,1,2026-05-13T10:19:30.820863+05:30
Indore,Madhya Pradesh,22.7196,75.8577,38.8,16,0.0,947.0,8.75,40.3,88,67.8,26.1,5.0,333.0,136.0,7.7,0,5,10,0,2026-05-13T10:19:30.820869+05:30
Bhopal,Madhya Pradesh,23.2599,77.4126,39.5,18,0.0,951.9,8.75,40.3,93,81.0,28.1,2.9,397.0,136.0,6.1,0,5,10,0,2026-05-13T10:19:30.820876+05:30
Jabalpur,Madhya Pradesh,23.1815,79.9864,39.0,24,0.0,959.8,8.55,34.6,101,76.6,33.2,4.5,298.0,152.0,7.6,0,5,10,0,2026-05-13T10:19:30.820882+05:30
Ujjain,Madhya Pradesh,23.1765,75.7885,39.4,16,0.0,952.4,8.65,38.5,87,29.6,16.3,3.1,251.0,121.0,5.3,0,5,10,0,2026-05-13T10:19:30.820889+05:30
Visakhapatnam,Andhra Pradesh,17.6868,83.2185,33.8,54,0.0,1001.7,9.15,43.2,67,29.5,23.6,31.6,1176.0,29.0,43.3,0,5,4,1,2026-05-13T10:19:30.820896+05:30
Vijayawada,Andhra Pradesh,16.5062,80.648,34.3,52,0.0,1000.7,9.2,37.4,56,19.8,13.0,2.6,152.0,75.0,8.9,0,5,4,1,2026-05-13T10:19:30.820902+05:30
Guntur,Andhra Pradesh,16.3067,80.4365,34.4,50,0.0,1001.9,8.95,34.9,56,19.2,12.8,2.3,166.0,77.0,7.9,0,5,4,1,2026-05-13T10:19:30.820909+05:30
Nellore,Andhra Pradesh,14.4426,79.9865,34.3,51,0.0,1003.5,9.15,40.0,29,10.9,6.9,1.9,142.0,62.0,3.7,0,5,4,1,2026-05-13T10:19:30.820916+05:30
Kurnool,Andhra Pradesh,15.8281,78.0373,35.5,37,0.0,975.4,9.1,33.8,54,17.9,9.7,2.1,185.0,90.0,3.3,0,5,10,1,2026-05-13T10:19:30.820923+05:30
Kakinada,Andhra Pradesh,16.9891,82.2475,33.2,58,0.0,1005.4,9.15,44.6,22,13.8,8.6,3.9,400.0,63.0,3.3,0,5,4,1,2026-05-13T10:19:30.820929+05:30
Tirupati,Andhra Pradesh,13.6288,79.4192,33.8,44,0.0,988.8,9.25,33.1,50,11.0,7.1,1.1,166.0,73.0,2.1,0,5,7,1,2026-05-13T10:19:30.820935+05:30
Warangal,Telangana,17.9689,79.5941,33.5,51,0.0,977.7,8.6,41.4,65,15.9,11.4,4.2,191.0,78.0,9.2,0,5,7,1,2026-05-13T10:19:30.820941+05:30
Nizamabad,Telangana,18.6725,78.0941,36.7,34,0.0,963.7,9.15,33.8,76,28.3,20.3,4.8,233.0,116.0,6.3,0,5,10,1,2026-05-13T10:19:30.820948+05:30
Mysore,Karnataka,12.2958,76.6396,29.9,52,0.0,927.9,7.0,37.8,82,38.4,25.6,4.3,286.0,133.0,2.3,4,5,7,1,2026-05-13T10:19:30.820955+05:30
Mangalore,Karnataka,12.9141,74.856,30.5,71,0.0,1005.2,8.05,34.2,80,44.7,20.2,3.0,246.0,90.0,2.8,3,5,4,1,2026-05-13T10:19:30.820962+05:30
Hubli-Dharwad,Karnataka,15.3647,75.124,31.2,56,0.0,940.2,8.25,43.9,66,38.3,18.0,3.3,203.0,103.0,2.9,0,5,7,1,2026-05-13T10:19:30.820968+05:30
Belgaum,Karnataka,15.8497,74.4977,31.4,48,0.0,925.7,8.35,47.5,67,43.3,19.2,3.6,193.0,111.0,5.8,0,5,7,1,2026-05-13T10:19:34.156734+05:30
Coimbatore,Tamil Nadu,11.0168,76.9558,30.2,64,0.0,960.2,8.9,41.4,71,36.2,23.6,4.0,275.0,142.0,6.1,3,5,7,1,2026-05-13T10:19:34.156769+05:30
Madurai,Tamil Nadu,9.9252,78.1198,32.5,52,0.0,990.6,9.05,25.2,83,33.6,28.9,7.7,299.0,128.0,13.9,0,5,7,1,2026-05-13T10:19:34.156781+05:30
Trichy,Tamil Nadu,10.7905,78.7047,32.2,62,0.0,997.1,9.1,30.6,69,21.7,17.8,5.0,241.0,95.0,14.9,3,5,7,1,2026-05-13T10:19:34.156792+05:30
Salem,Tamil Nadu,11.6643,78.146,33.1,48,0.0,975.4,8.3,34.6,81,28.3,24.2,8.0,228.0,120.0,25.0,0,5,7,1,2026-05-13T10:19:34.156802+05:30
Tirunelveli,Tamil Nadu,8.7139,77.7567,34.5,49,0.0,1000.6,8.05,22.7,69,19.0,12.6,3.6,207.0,107.0,1.7,0,5,4,1,2026-05-13T10:19:34.156811+05:30
Vellore,Tamil Nadu,12.9165,79.1325,33.1,49,0.0,982.3,9.05,36.4,66,17.3,11.8,4.0,227.0,76.0,11.4,0,5,7,1,2026-05-13T10:19:34.156820+05:30
Erode,Tamil Nadu,11.341,77.7172,32.8,52,0.0,986.9,8.85,33.8,90,39.9,30.4,8.6,323.0,142.0,5.1,0,5,7,1,2026-05-13T10:19:34.156827+05:30
Kochi,Kerala,9.9312,76.2673,29.2,78,0.0,1007.3,8.4,32.4,83,31.5,19.8,7.0,330.0,100.0,3.7,7,5,4,1,2026-05-13T10:19:34.156834+05:30
Thiruvananthapuram,Kerala,8.5241,76.9366,29.0,81,0.0,1006.7,7.75,34.6,60,29.2,16.5,3.4,251.0,102.0,2.6,7,5,4,1,2026-05-13T10:19:34.156841+05:30
Kozhikode,Kerala,11.2588,75.7804,30.7,72,0.0,1006.2,8.25,35.6,69,36.2,19.5,2.2,304.0,100.0,2.7,3,5,4,1,2026-05-13T10:19:34.156848+05:30
Thrissur,Kerala,10.5276,76.2144,30.9,71,0.0,1005.5,8.5,34.2,80,29.7,18.2,4.6,289.0,91.0,2.3,3,5,4,1,2026-05-13T10:19:34.156856+05:30
Kannur,Kerala,11.8745,75.3704,30.4,73,0.0,1005.6,8.85,34.2,85,44.8,22.9,3.9,265.0,98.0,3.0,3,5,4,1,2026-05-13T10:19:34.156862+05:30
Patna,Bihar,25.5941,85.1376,30.2,64,0.0,999.3,8.75,37.4,148,60.3,49.6,5.6,364.0,149.0,22.1,3,5,7,1,2026-05-13T10:19:34.156869+05:30
Gaya,Bihar,24.7914,85.0002,33.2,54,0.0,991.7,8.85,29.9,151,65.9,51.8,4.4,440.0,175.0,27.9,0,5,7,1,2026-05-13T10:19:34.156875+05:30
Muzaffarpur,Bihar,26.1209,85.3647,29.2,65,0.0,999.9,8.75,43.2,134,47.3,39.8,4.6,325.0,152.0,15.3,7,5,7,1,2026-05-13T10:19:34.156881+05:30
Bhagalpur,Bihar,25.2425,87.0117,30.0,61,0.0,1000.8,8.65,38.2,109,26.7,21.0,8.4,276.0,118.0,12.8,7,5,4,1,2026-05-13T10:19:34.156888+05:30
Ranchi,Jharkhand,23.3441,85.3096,31.0,55,0.0,937.0,9.3,37.1,98,31.7,21.6,3.8,225.0,124.0,27.9,0,5,7,1,2026-05-13T10:19:34.156894+05:30
Jamshedpur,Jharkhand,22.8046,86.2029,32.4,55,0.0,989.4,9.15,30.2,93,27.1,21.1,6.9,211.0,100.0,24.4,0,5,7,1,2026-05-13T10:19:34.156900+05:30
Dhanbad,Jharkhand,23.7957,86.4304,31.6,62,0.0,978.4,9.1,34.6,150,45.3,38.6,24.1,718.0,100.0,68.9,3,5,7,1,2026-05-13T10:19:34.156907+05:30
Bokaro,Jharkhand,23.6693,86.1511,32.8,57,0.0,982.0,9.1,32.0,152,35.5,28.4,12.7,117.0,124.0,44.5,0,5,7,1,2026-05-13T10:19:34.156914+05:30
Bhubaneswar,Odisha,20.2961,85.8245,32.4,60,0.0,1001.6,9.15,40.7,50,16.2,9.7,1.6,168.0,78.0,3.5,0,5,4,1,2026-05-13T10:19:34.156920+05:30
Cuttack,Odisha,20.4625,85.8828,32.3,60,0.0,1003.4,9.1,43.6,50,16.2,9.7,1.6,184.0,78.0,3.5,0,5,4,1,2026-05-13T10:19:34.156927+05:30
Rourkela,Odisha,22.2604,84.8536,33.2,53,0.0,983.8,9.05,47.9,87,33.5,24.5,4.3,227.0,113.0,50.0,0,5,7,1,2026-05-13T10:19:34.156933+05:30
Raipur,Chhattisgarh,21.2514,81.6296,36.3,39,0.0,973.1,9.05,36.4,107,46.1,33.6,16.9,643.0,178.0,7.8,0,5,10,1,2026-05-13T10:19:34.156939+05:30
Bhilai,Chhattisgarh,21.1938,81.3509,35.5,42,0.0,973.5,9.1,39.2,101,41.1,29.3,14.4,809.0,148.0,6.9,0,5,10,1,2026-05-13T10:19:34.156946+05:30
Guwahati,Assam,26.1158,91.7086,26.4,77,0.1,1002.8,5.65,23.8,92,34.8,29.9,1.3,353.0,151.0,2.3,10,5,0,1,2026-05-13T10:19:34.156952+05:30
Agartala,Tripura,23.8315,91.2868,30.7,59,0.0,1006.2,8.9,23.8,100,13.8,11.3,5.9,198.0,96.0,1.2,0,5,4,1,2026-05-13T10:19:34.156959+05:30
Shillong,Meghalaya,25.5788,91.8933,20.8,75,0.0,858.1,8.05,30.6,70,22.6,18.2,1.3,262.0,143.0,1.8,3,5,7,1,2026-05-13T10:19:34.156965+05:30
Imphal,Manipur,24.817,93.9368,26.2,62,0.0,924.1,9.3,23.8,99,24.0,19.0,0.0,350.0,140.0,2.1,7,5,7,1,2026-05-13T10:19:34.156972+05:30
Aizawl,Mizoram,23.7271,92.7176,25.5,52,0.0,893.8,9.1,26.6,79,23.9,19.4,0.6,244.0,124.0,2.3,4,5,7,0,2026-05-13T10:19:34.156979+05:30
Kohima,Nagaland,25.6701,94.1077,21.3,77,0.0,856.6,8.4,26.3,65,22.6,16.7,0.2,273.0,139.0,1.3,3,5,7,1,2026-05-13T10:19:34.156985+05:30
Gangtok,Sikkim,27.3314,88.6138,18.4,82,0.1,837.9,8.85,31.3,56,12.8,10.2,1.0,301.0,135.0,0.7,6,10,7,0,2026-05-13T10:19:34.156992+05:30
Siliguri,West Bengal,26.7271,88.3953,26.9,69,0.0,993.5,8.65,28.8,124,32.0,26.8,2.8,367.0,155.0,2.6,7,5,7,1,2026-05-13T10:19:37.511466+05:30
Durgapur,West Bengal,23.5204,87.3119,32.5,58,0.0,993.9,9.0,36.4,108,33.9,28.5,18.2,473.0,65.0,48.3,0,5,7,1,2026-05-13T10:19:37.511493+05:30
Asansol,West Bengal,23.6739,86.9524,32.0,61,0.0,992.3,9.05,40.0,109,40.5,33.9,20.6,266.0,85.0,59.0,3,5,7,1,2026-05-13T10:19:37.511503+05:30
Pondicherry,Puducherry,11.9139,79.8145,31.6,66,0.0,1005.5,8.9,39.6,30,12.6,10.2,10.5,209.0,46.0,11.7,3,5,4,1,2026-05-13T10:19:37.511511+05:30
Port Blair,Andaman and Nicobar Islands,11.6234,92.7265,27.8,89,0.1,1006.2,2.25,37.1,21,4.7,3.1,0.6,99.0,53.0,0.1,10,5,0,1,2026-05-13T10:19:37.511518+05:30
Haridwar,Uttarakhand,29.9457,78.1642,31.5,50,0.0,973.9,7.5,22.0,152,119.2,49.1,3.1,345.0,165.0,10.7,0,5,7,1,2026-05-13T10:19:37.511524+05:30
Rishikesh,Uttarakhand,30.0869,78.2676,30.5,51,0.0,966.9,7.6,25.6,132,118.0,44.5,1.3,329.0,163.0,7.4,0,5,7,1,2026-05-13T10:19:37.511531+05:30
Nainital,Uttarakhand,29.3919,79.4542,20.2,59,0.0,808.0,8.45,43.9,125,88.7,43.1,0.1,310.0,170.0,6.4,0,5,7,0,2026-05-13T10:19:37.511537+05:30
Mussoorie,Uttarakhand,30.4599,78.0664,19.6,53,0.0,805.3,8.0,44.6,122,121.1,44.5,2.1,289.0,167.0,10.8,0,5,7,0,2026-05-13T10:19:37.511543+05:30
Dharamshala,Himachal Pradesh,32.219,76.3234,24.6,43,0.1,869.8,8.35,36.7,56,40.9,13.4,0.4,265.0,144.0,1.2,3,5,7,0,2026-05-13T10:19:37.511549+05:30
Dalhousie,Himachal Pradesh,32.5387,75.971,20.8,40,0.0,806.7,8.6,32.8,83,85.9,27.1,5.4,290.0,134.0,1.7,0,5,7,0,2026-05-13T10:19:37.511556+05:30
Patiala,Punjab,30.3398,76.3869,33.1,46,0.0,976.6,7.6,36.0,269,530.9,91.7,4.6,470.0,165.0,16.2,0,5,7,1,2026-05-13T10:19:37.511563+05:30
Bhatinda,Punjab,30.211,74.9455,34.7,38,0.0,980.9,8.25,58.7,386,314.8,78.0,5.1,423.0,160.0,21.2,0,5,7,1,2026-05-13T10:19:37.511569+05:30
Rohtak,Haryana,28.8955,76.6066,34.0,43,0.0,979.7,7.7,43.2,482,666.8,115.9,14.8,570.0,165.0,32.0,0,5,7,1,2026-05-13T10:19:37.511575+05:30
Panipat,Haryana,29.3909,76.9635,32.1,51,0.0,978.6,7.55,29.2,630,1225.6,153.7,10.5,465.0,167.0,26.9,0,5,7,1,2026-05-13T10:19:37.511581+05:30
Mathura,Uttar Pradesh,27.4924,77.6737,34.6,44,0.0,984.6,7.95,50.4,616,750.6,115.5,5.7,474.0,155.0,12.6,0,5,7,1,2026-05-13T10:19:37.511587+05:30
Vrindavan,Uttar Pradesh,27.5823,77.7027,34.3,46,0.0,985.1,7.95,48.2,616,750.6,115.5,5.7,474.0,155.0,12.6,0,5,7,1,2026-05-13T10:19:37.511593+05:30
Ayodhya,Uttar Pradesh,26.7922,82.1998,31.0,57,0.0,994.2,8.3,31.0,132,60.3,53.7,4.8,403.0,164.0,12.4,0,5,7,1,2026-05-13T10:19:37.511599+05:30
Ratlam,Madhya Pradesh,23.3315,75.0367,39.0,17,0.0,953.3,8.55,38.2,66,26.9,15.5,1.8,227.0,124.0,4.4,0,5,10,0,2026-05-13T10:19:37.511605+05:30
Sagar,Madhya Pradesh,23.8388,78.7378,39.2,18,0.0,948.8,8.75,40.3,88,99.7,26.5,1.5,240.0,142.0,9.4,0,5,10,0,2026-05-13T10:19:37.511611+05:30
Satna,Madhya Pradesh,24.6005,80.8322,38.7,25,0.0,968.9,8.65,42.8,110,71.0,43.1,5.4,352.0,161.0,19.8,0,5,10,0,2026-05-13T10:19:37.511618+05:30
Akola,Maharashtra,20.7002,77.0082,40.3,22,0.0,972.7,8.95,28.4,90,41.8,27.0,5.3,297.0,138.0,10.8,0,5,10,0,2026-05-13T10:19:37.511624+05:30
Amravati,Maharashtra,20.9374,77.7796,38.3,29,0.0,965.6,8.95,29.5,92,40.9,26.8,5.2,280.0,140.0,7.6,0,5,10,1,2026-05-13T10:19:37.511631+05:30
Latur,Maharashtra,18.4088,76.5604,37.0,29,0.0,938.9,8.4,34.9,73,35.4,21.5,4.5,243.0,126.0,13.0,0,5,10,0,2026-05-13T10:19:37.511637+05:30
Nanded,Maharashtra,19.1383,77.3091,38.3,29,0.0,966.8,8.8,30.6,76,35.5,24.3,5.5,277.0,138.0,8.9,0,5,10,1,2026-05-13T10:19:37.511643+05:30
Gulbarga,Karnataka,17.3297,76.8343,35.8,35,0.0,957.6,9.1,29.5,67,22.4,14.7,4.2,219.0,108.0,9.5,0,5,10,1,2026-05-13T10:19:37.511648+05:30
Bidar,Karnataka,17.9104,77.5199,34.0,40,0.0,935.2,9.15,32.8,72,22.6,14.7,4.0,213.0,113.0,4.5,0,5,7,1,2026-05-13T10:19:37.511654+05:30
Hospet,Karnataka,15.2689,76.3909,31.1,63,0.0,955.0,9.2,58.7,79,39.6,22.5,4.9,194.0,108.0,3.8,3,5,7,1,2026-05-13T10:19:37.511660+05:30
Tirupur,Tamil Nadu,11.1085,77.3411,33.2,46,0.0,973.4,9.2,41.8,93,43.3,32.7,9.2,282.0,147.0,8.5,0,5,7,1,2026-05-13T10:19:37.511666+05:30
Alappuzha,Kerala,9.4981,76.3388,29.4,78,0.0,1007.4,8.4,33.5,76,33.2,20.4,6.5,214.0,107.0,5.4,7,5,4,1,2026-05-13T10:19:37.511672+05:30
Munnar,Kerala,10.0889,77.0595,22.6,70,0.0,856.9,9.45,29.2,72,26.4,17.3,1.8,228.0,122.0,1.2,3,5,7,1,2026-05-13T10:19:37.511678+05:30
Silchar,Assam,24.8333,92.7789,29.0,70,0.0,1005.6,8.7,27.4,114,20.6,17.3,0.5,362.0,138.0,4.0,7,5,4,1,2026-05-13T10:19:37.511684+05:30
Dibrugarh,Assam,27.4728,94.912,26.5,75,0.1,996.4,8.85,22.0,80,29.9,21.1,0.3,257.0,146.0,2.5,10,5,7,1,2026-05-13T10:19:37.511690+05:30
