city,state,latitude,longitude,temp,humidity,rain,pressure,uv_index,wind_gusts,aqi,pm10,pm2_5,no2,co,o3,so2,mosquito_risk,arthritis_risk,migraine_risk,frizz_risk,updated_at
Delhi,Delhi,28.6139,77.209,38.4,19,0.0,974.3,7.75,37.8,305,812.1,142.5,37.3,389.0,92.0,17.8,0,5,10,0,2026-06-08T19:41:21.772972+05:30
Mumbai,Maharashtra,19.076,72.8777,31.7,61,0.0,1006.0,7.5,45.4,81,59.4,21.2,7.4,213.0,54.0,6.0,3,5,4,1,2026-06-08T19:41:21.773019+05:30
Bangalore,Karnataka,12.9716,77.5946,24.3,73,0.0,911.5,7.15,52.6,39,7.4,5.9,11.5,392.0,59.0,3.7,3,5,7,1,2026-06-08T19:41:21.773033+05:30
Hyderabad,Telangana,17.385,78.4867,26.2,83,0.0,951.2,6.1,40.0,74,28.2,21.8,13.6,361.0,76.0,4.7,7,5,7,1,2026-06-08T19:41:21.773044+05:30
Chennai,Tamil Nadu,13.0827,80.2707,31.6,76,0.0,1003.7,8.9,44.6,75,21.8,16.5,8.0,337.0,104.0,6.2,3,5,4,1,2026-06-08T19:41:21.773052+05:30
Kolkata,West Bengal,22.5726,88.3639,29.4,84,0.0,999.0,8.95,30.6,135,55.9,48.2,14.4,828.0,96.0,12.5,7,5,7,1,2026-06-08T19:41:21.773060+05:30
Pune,Maharashtra,18.5204,73.8567,26.2,76,0.0,946.6,6.3,49.7,62,15.1,7.9,8.0,168.0,56.0,5.2,7,5,7,1,2026-06-08T19:41:21.773067+05:30
Ahmedabad,Gujarat,23.0225,72.5714,35.5,53,0.0,995.5,7.8,43.2,79,68.5,28.5,7.0,162.0,86.0,5.7,0,5,10,1,2026-06-08T19:41:21.773075+05:30
Jaipur,Rajasthan,26.9124,75.7873,35.8,27,0.0,953.1,8.2,43.2,139,132.2,46.9,18.9,236.0,73.0,7.5,0,5,10,0,2026-06-08T19:41:21.773085+05:30
Lucknow,Uttar Pradesh,26.8467,80.9462,35.8,34,0.0,984.7,8.3,34.6,154,260.8,76.8,17.9,270.0,94.0,11.8,0,5,10,1,2026-06-08T19:41:21.773092+05:30
Kanpur,Uttar Pradesh,26.4499,80.3319,37.5,27,0.0,983.2,8.3,40.7,180,475.9,94.5,14.4,194.0,93.0,8.6,0,5,10,0,2026-06-08T19:41:21.773099+05:30
Chandigarh,Chandigarh,30.7333,76.7794,30.8,45,0.0,960.2,7.8,29.9,178,27.2,23.6,19.6,658.0,135.0,10.1,0,5,7,1,2026-06-08T19:41:21.773106+05:30
Srinagar,Jammu and Kashmir,34.0837,74.7973,22.8,56,0.0,837.9,9.0,16.9,119,19.7,14.2,14.2,748.0,106.0,2.6,0,5,7,0,2026-06-08T19:41:21.773113+05:30
Jammu,Jammu and Kashmir,32.7266,74.857,36.5,22,0.0,964.3,8.6,34.6,146,24.9,20.3,15.1,283.0,128.0,3.6,0,5,10,0,2026-06-08T19:41:21.773120+05:30
Amritsar,Punjab,31.634,74.8723,36.4,29,0.0,972.0,8.45,29.9,163,30.9,23.7,19.2,425.0,121.0,8.3,0,5,10,0,2026-06-08T19:41:21.773126+05:30
Ludhiana,Punjab,30.901,75.8573,36.5,24,0.0,970.0,8.05,36.7,158,66.4,30.9,17.6,348.0,111.0,5.5,0,5,10,0,2026-06-08T19:41:21.773135+05:30
Jalandhar,Punjab,31.326,75.5762,36.8,23,0.0,970.9,8.25,33.5,158,58.2,29.7,18.7,604.0,120.0,6.1,0,5,10,0,2026-06-08T19:41:21.773141+05:30
Dehradun,Uttarakhand,30.6284,78.0322,19.4,60,0.0,825.4,8.25,38.9,132,19.4,15.3,15.7,277.0,139.0,5.2,0,5,7,0,2026-06-08T19:41:21.773149+05:30
Shimla,Himachal Pradesh,31.1048,77.1734,18.1,46,0.0,781.3,8.35,42.5,150,17.3,12.5,7.6,247.0,145.0,4.0,0,5,7,0,2026-06-08T19:41:21.773157+05:30
Manali,Himachal Pradesh,32.2396,77.1887,18.1,64,0.0,815.5,9.9,36.7,134,19.6,15.8,41.5,211.0,113.0,0.6,3,5,7,0,2026-06-08T19:41:21.773163+05:30
Gurgaon,Haryana,28.4595,77.0266,36.1,23,0.0,972.7,7.85,37.4,848,987.2,170.4,43.3,388.0,78.0,17.0,0,5,10,0,2026-06-08T19:41:21.773169+05:30
Noida,Uttar Pradesh,28.5355,77.391,36.3,27,0.0,975.4,7.8,32.8,848,987.2,170.4,43.3,663.0,78.0,17.0,0,5,10,0,2026-06-08T19:41:21.773176+05:30
Ghaziabad,Uttar Pradesh,28.6692,77.4538,33.9,38,0.0,973.7,7.75,32.8,186,471.2,105.5,32.4,381.0,101.0,18.6,0,5,7,1,2026-06-08T19:41:21.773182+05:30
Faridabad,Haryana,28.4089,77.3178,37.6,20,0.0,974.8,7.8,38.2,848,987.2,170.4,43.3,386.0,78.0,17.0,0,5,10,0,2026-06-08T19:41:21.773188+05:30
Meerut,Uttar Pradesh,28.9845,77.7064,33.0,55,0.0,972.5,7.7,32.4,186,471.2,105.5,32.4,546.0,101.0,18.6,0,5,7,1,2026-06-08T19:41:21.773194+05:30
Agra,Uttar Pradesh,27.1767,78.0081,37.1,27,0.0,979.0,8.1,39.2,665,791.6,140.2,41.5,546.0,64.0,13.8,0,5,10,0,2026-06-08T19:41:21.773200+05:30
Varanasi,Uttar Pradesh,25.3176,82.9739,35.8,37,0.0,989.7,8.8,40.7,140,91.7,49.4,23.0,577.0,90.0,13.4,0,5,10,1,2026-06-08T19:41:21.773206+05:30
Prayagraj,Uttar Pradesh,25.4358,81.8463,35.3,48,0.0,988.2,8.7,41.8,145,100.8,46.7,13.9,196.0,89.0,9.5,0,5,10,1,2026-06-08T19:41:21.773213+05:30
Gorakhpur,Uttar Pradesh,26.7606,83.3732,32.7,53,0.0,988.5,8.65,34.9,135,93.8,51.5,14.7,412.0,102.0,10.6,0,5,7,1,2026-06-08T19:41:21.773220+05:30
Bareilly,Uttar Pradesh,28.367,79.4304,32.7,45,0.0,977.6,8.1,28.4,170,47.6,39.2,15.1,314.0,132.0,11.8,0,5,7,1,2026-06-08T19:41:21.773225+05:30
Aligarh,Uttar Pradesh,27.8974,78.088,33.6,44,0.0,976.6,7.95,36.0,494,786.0,152.3,35.4,344.0,85.0,14.1,0,5,7,1,2026-06-08T19:41:21.773231+05:30
Moradabad,Uttar Pradesh,28.8386,78.7733,34.3,41,0.0,974.6,7.9,40.3,172,81.5,59.4,30.8,427.0,106.0,14.0,0,5,7,1,2026-06-08T19:41:21.773237+05:30
Saharanpur,Uttar Pradesh,29.9637,77.546,32.5,36,0.0,966.7,7.45,28.1,180,73.8,46.3,23.3,359.0,128.0,13.9,0,5,7,0,2026-06-08T19:41:21.773243+05:30
Jhansi,Uttar Pradesh,25.4484,78.5685,33.8,47,0.0,970.4,8.5,42.1,80,72.4,32.2,5.5,210.0,75.0,3.8,0,5,7,1,2026-06-08T19:41:25.056084+05:30
Surat,Gujarat,21.1702,72.8311,30.9,76,0.0,1002.7,7.55,52.6,81,49.1,23.7,16.0,198.0,43.0,29.8,3,5,4,1,2026-06-08T19:41:25.056114+05:30
Vadodara,Gujarat,22.3072,73.1812,33.4,57,0.0,998.8,7.95,48.6,81,42.3,23.9,10.6,182.0,73.0,16.3,0,5,7,1,2026-06-08T19:41:25.056122+05:30
Rajkot,Gujarat,22.3039,70.8022,34.8,48,0.0,988.8,7.6,49.0,73,51.6,23.7,3.4,117.0,75.0,4.7,0,5,7,1,2026-06-08T19:41:25.056129+05:30
Thane,Maharashtra,19.2183,72.9781,32.1,58,0.0,1005.3,7.6,45.0,81,59.4,21.2,7.4,202.0,54.0,6.0,0,5,4,1,2026-06-08T19:41:25.056136+05:30
Nagpur,Maharashtra,21.1458,79.0882,38.3,26,0.0,967.8,8.9,37.8,102,49.7,29.4,16.6,202.0,90.0,18.2,0,5,10,0,2026-06-08T19:41:25.056143+05:30
Nashik,Maharashtra,19.9975,73.7898,28.9,58,0.0,943.1,8.05,48.6,67,50.3,19.4,3.3,126.0,67.0,1.9,4,5,7,1,2026-06-08T19:41:25.056149+05:30
Aurangabad,Maharashtra,19.8762,75.3433,31.6,48,0.1,941.0,9.0,51.1,71,43.2,21.2,4.0,146.0,99.0,4.1,3,5,7,1,2026-06-08T19:41:25.056156+05:30
Solapur,Maharashtra,17.6599,75.9064,28.4,73,0.0,955.0,8.1,36.7,54,29.0,16.2,5.6,162.0,85.0,3.0,7,5,7,1,2026-06-08T19:41:25.056163+05:30
Kolhapur,Maharashtra,16.705,74.2433,24.2,85,0.0,947.1,8.6,39.2,35,9.8,6.8,7.2,151.0,54.0,2.5,3,5,7,1,2026-06-08T19:41:25.056169+05:30
Goa,Goa,15.2993,74.124,25.2,99,0.2,998.1,3.85,20.9,35,8.1,6.2,4.9,236.0,51.0,0.9,10,5,3,1,2026-06-08T19:41:25.056176+05:30
Jodhpur,Rajasthan,26.2389,73.0243,37.7,37,0.0,975.9,8.4,39.2,147,244.0,55.4,4.9,181.0,83.0,2.4,0,5,10,1,2026-06-08T19:41:25.056182+05:30
Udaipur,Rajasthan,24.5854,73.7125,33.8,44,0.0,941.5,8.8,37.4,75,45.6,23.5,3.9,160.0,86.0,3.7,0,5,7,1,2026-06-08T19:41:25.056187+05:30
Kota,Rajasthan,25.2138,75.8648,34.3,43,0.0,971.8,8.4,33.8,90,82.7,36.6,13.1,214.0,81.0,5.8,0,5,7,1,2026-06-08T19:41:25.056193+05:30
Bikaner,Rajasthan,28.0229,73.3119,38.7,22,0.0,973.2,8.45,33.1,151,116.2,41.1,3.6,191.0,90.0,2.7,0,5,10,0,2026-06-08T19:41:25.056199+05:30
Ajmer,Rajasthan,26.4499,74.6399,32.6,42,0.0,948.2,8.35,45.7,87,87.1,34.5,7.7,168.0,84.0,3.5,0,5,7,1,2026-06-08T19:41:25.056205+05:30
Gwalior,Madhya Pradesh,26.2183,78.1828,37.0,25,0.0,975.1,8.25,43.9,93,94.1,37.6,12.3,152.0,80.0,5.4,0,5,10,0,2026-06-08T19:41:25.056211+05:30
Indore,Madhya Pradesh,22.7196,75.8577,33.1,42,0.0,944.0,8.6,44.3,90,48.9,27.0,6.3,255.0,89.0,4.9,0,5,7,1,2026-06-08T19:41:25.056216+05:30
Bhopal,Madhya Pradesh,23.2599,77.4126,32.7,52,0.0,948.8,8.7,40.3,89,60.3,30.9,6.0,734.0,86.0,5.5,0,5,7,1,2026-06-08T19:41:25.056222+05:30
Jabalpur,Madhya Pradesh,23.1815,79.9864,34.3,37,0.0,956.4,8.9,40.7,89,65.9,31.4,4.3,215.0,98.0,3.8,0,5,7,1,2026-06-08T19:41:25.056227+05:30
Ujjain,Madhya Pradesh,23.1765,75.7885,32.6,48,0.0,948.9,8.6,44.6,86,47.8,26.4,3.0,251.0,92.0,4.1,0,5,7,1,2026-06-08T19:41:25.056234+05:30
Visakhapatnam,Andhra Pradesh,17.6868,83.2185,31.3,78,0.0,998.4,7.6,41.8,130,46.2,39.8,32.3,342.0,77.0,52.4,3,5,7,1,2026-06-08T19:41:25.056239+05:30
Vijayawada,Andhra Pradesh,16.5062,80.648,33.8,48,0.0,998.3,8.55,51.1,72,33.1,29.7,15.6,350.0,76.0,5.8,0,5,7,1,2026-06-08T19:41:25.056249+05:30
Guntur,Andhra Pradesh,16.3067,80.4365,33.1,53,0.0,999.7,8.35,44.6,70,28.4,24.3,11.1,315.0,83.0,4.9,0,5,7,1,2026-06-08T19:41:25.056254+05:30
Nellore,Andhra Pradesh,14.4426,79.9865,33.0,53,0.0,1002.4,7.2,46.1,60,17.8,14.8,6.1,196.0,96.0,4.3,0,5,4,1,2026-06-08T19:41:25.056261+05:30
Kurnool,Andhra Pradesh,15.8281,78.0373,24.6,93,0.4,976.1,8.55,48.6,54,22.4,16.0,6.3,168.0,89.0,4.5,6,5,7,1,2026-06-08T19:41:25.056267+05:30
Kakinada,Andhra Pradesh,16.9891,82.2475,31.3,71,0.0,1002.7,8.65,42.1,119,32.2,25.5,6.7,268.0,110.0,5.1,3,5,4,1,2026-06-08T19:41:25.056273+05:30
Tirupati,Andhra Pradesh,13.6288,79.4192,32.5,48,0.0,988.6,8.65,41.8,39,11.0,9.9,13.9,319.0,55.0,1.9,0,5,7,1,2026-06-08T19:41:25.056279+05:30
Warangal,Telangana,17.9689,79.5941,31.8,55,0.0,975.1,8.75,36.0,78,45.1,31.9,7.8,233.0,94.0,4.8,0,5,7,1,2026-06-08T19:41:25.056284+05:30
Nizamabad,Telangana,18.6725,78.0941,31.6,53,0.0,961.4,5.9,48.6,80,52.4,31.7,10.2,293.0,83.0,6.1,0,5,3,1,2026-06-08T19:41:25.056290+05:30
Mysore,Karnataka,12.2958,76.6396,23.7,84,0.0,928.4,6.3,59.0,33,4.9,4.0,7.0,154.0,50.0,1.9,3,5,7,1,2026-06-08T19:41:25.056296+05:30
Mangalore,Karnataka,12.9141,74.856,25.1,94,0.2,1007.8,5.45,45.0,35,11.1,7.1,5.1,152.0,51.0,1.9,10,5,0,1,2026-06-08T19:41:25.056301+05:30
Hubli-Dharwad,Karnataka,15.3647,75.124,22.5,97,0.3,940.2,2.4,43.6,28,3.4,2.6,6.6,156.0,42.0,0.9,6,5,3,1,2026-06-08T19:41:25.056308+05:30
Belgaum,Karnataka,15.8497,74.4977,21.6,96,0.0,925.0,7.5,33.8,32,8.4,5.3,5.8,153.0,56.0,1.9,3,5,7,1,2026-06-08T19:41:28.351257+05:30
Coimbatore,Tamil Nadu,11.0168,76.9558,24.1,87,0.0,961.7,6.5,56.2,26,4.0,3.6,6.8,196.0,43.0,2.6,3,5,7,1,2026-06-08T19:41:28.351288+05:30
Madurai,Tamil Nadu,9.9252,78.1198,29.7,60,0.0,992.5,5.25,58.0,32,8.8,7.1,13.2,133.0,46.0,4.0,4,5,3,1,2026-06-08T19:41:28.351298+05:30
Trichy,Tamil Nadu,10.7905,78.7047,32.1,51,0.0,998.8,8.5,64.1,31,6.9,5.5,7.3,123.0,51.0,3.0,0,5,7,1,2026-06-08T19:41:28.351306+05:30
Salem,Tamil Nadu,11.6643,78.146,29.5,65,0.0,976.8,7.95,43.2,40,6.2,5.3,9.5,183.0,54.0,5.9,7,5,7,1,2026-06-08T19:41:28.351315+05:30
Tirunelveli,Tamil Nadu,8.7139,77.7567,29.8,62,0.0,1003.8,3.9,51.8,24,5.2,4.1,5.7,153.0,37.0,1.4,7,5,0,1,2026-06-08T19:41:28.351323+05:30
Vellore,Tamil Nadu,12.9165,79.1325,33.5,44,0.0,982.2,9.0,49.7,46,10.7,9.1,7.2,294.0,85.0,3.1,0,5,7,1,2026-06-08T19:41:28.351331+05:30
Erode,Tamil Nadu,11.341,77.7172,27.1,72,0.0,988.2,8.65,54.0,31,6.2,5.4,10.3,180.0,44.0,3.2,7,5,7,1,2026-06-08T19:41:28.351338+05:30
Kochi,Kerala,9.9312,76.2673,27.0,90,0.0,1010.9,6.65,37.1,32,15.8,11.6,12.0,124.0,28.0,3.2,7,0,4,1,2026-06-08T19:41:28.351345+05:30
Thiruvananthapuram,Kerala,8.5241,76.9366,25.9,92,0.0,1010.2,7.5,49.3,30,12.6,6.4,1.3,101.0,42.0,0.4,7,0,4,1,2026-06-08T19:41:28.351353+05:30
Kozhikode,Kerala,11.2588,75.7804,25.3,97,0.3,1009.7,5.75,40.7,26,9.5,4.9,1.1,156.0,53.0,0.5,10,0,0,1,2026-06-08T19:41:28.351360+05:30
Thrissur,Kerala,10.5276,76.2144,25.0,97,0.2,1009.2,3.9,38.9,31,11.1,8.4,8.0,230.0,35.0,2.1,10,0,0,1,2026-06-08T19:41:28.351369+05:30
Kannur,Kerala,11.8745,75.3704,25.9,90,0.1,1008.6,6.7,45.7,25,12.8,8.7,10.7,214.0,35.0,1.9,10,0,4,1,2026-06-08T19:41:28.351376+05:30
Patna,Bihar,25.5941,85.1376,31.8,73,0.0,992.3,8.9,38.2,164,105.7,58.3,24.8,390.0,93.0,13.4,3,5,7,1,2026-06-08T19:41:28.351383+05:30
Gaya,Bihar,24.7914,85.0002,33.6,46,0.0,985.9,8.35,44.6,152,110.6,56.5,22.0,491.0,88.0,12.0,0,5,7,1,2026-06-08T19:41:28.351391+05:30
Muzaffarpur,Bihar,26.1209,85.3647,31.6,72,0.0,992.3,8.85,24.1,178,121.5,75.9,32.6,704.0,92.0,16.3,3,5,7,1,2026-06-08T19:41:28.351398+05:30
Bhagalpur,Bihar,25.2425,87.0117,30.6,81,0.0,993.5,8.85,25.6,164,100.1,55.1,19.7,567.0,116.0,14.1,3,5,7,1,2026-06-08T19:41:28.351405+05:30
Ranchi,Jharkhand,23.3441,85.3096,28.5,58,0.0,932.6,9.25,35.6,125,84.1,46.1,17.5,467.0,107.0,12.1,4,5,7,1,2026-06-08T19:41:28.351413+05:30
Jamshedpur,Jharkhand,22.8046,86.2029,31.6,58,0.0,984.1,8.5,34.2,164,91.3,51.6,13.8,610.0,128.0,22.3,0,5,7,1,2026-06-08T19:41:28.351420+05:30
Dhanbad,Jharkhand,23.7957,86.4304,34.5,41,0.0,972.9,9.05,34.9,161,165.8,97.3,59.7,347.0,77.0,121.6,0,5,7,1,2026-06-08T19:41:28.351428+05:30
Bokaro,Jharkhand,23.6693,86.1511,33.5,44,0.0,976.7,8.9,36.0,159,158.3,92.9,52.2,889.0,81.0,121.8,0,5,7,1,2026-06-08T19:41:28.351435+05:30
Bhubaneswar,Odisha,20.2961,85.8245,30.5,71,0.0,996.7,8.45,32.0,120,36.9,31.3,11.4,401.0,102.0,7.6,3,5,7,1,2026-06-08T19:41:28.351442+05:30
Cuttack,Odisha,20.4625,85.8828,30.2,76,0.0,998.4,8.3,31.3,120,36.9,31.3,11.4,415.0,102.0,7.6,3,5,7,1,2026-06-08T19:41:28.351449+05:30
Rourkela,Odisha,22.2604,84.8536,33.4,47,0.0,978.6,8.55,31.7,165,91.0,58.1,16.3,481.0,130.0,13.8,0,5,7,1,2026-06-08T19:41:28.351456+05:30
Raipur,Chhattisgarh,21.2514,81.6296,36.4,39,0.0,968.7,8.9,45.7,120,58.8,41.4,29.0,296.0,92.0,45.0,0,5,10,1,2026-06-08T19:41:28.351464+05:30
Bhilai,Chhattisgarh,21.1938,81.3509,36.5,33,0.0,969.2,7.45,41.8,107,74.3,48.7,33.9,570.0,74.0,35.1,0,5,10,1,2026-06-08T19:41:28.351471+05:30
Guwahati,Assam,26.1158,91.7086,27.3,88,0.0,995.5,8.8,29.5,88,38.0,34.6,10.1,543.0,77.0,4.1,7,5,7,1,2026-06-08T19:41:28.351478+05:30
Agartala,Tripura,23.8315,91.2868,27.9,85,0.0,1001.1,8.65,31.0,64,27.7,25.0,9.7,232.0,84.0,3.5,7,5,4,1,2026-06-08T19:41:28.351485+05:30
Shillong,Meghalaya,25.5788,91.8933,19.4,96,0.0,853.4,8.9,28.4,81,26.1,23.3,6.7,350.0,99.0,3.4,3,10,7,1,2026-06-08T19:41:28.351492+05:30
Imphal,Manipur,24.817,93.9368,25.1,85,0.0,919.3,8.9,30.2,61,17.0,16.2,14.1,381.0,50.0,3.1,7,5,7,1,2026-06-08T19:41:28.351500+05:30
Aizawl,Mizoram,23.7271,92.7176,20.1,98,0.0,888.5,7.3,32.8,40,6.2,5.3,4.4,171.0,66.0,1.2,3,5,7,1,2026-06-08T19:41:28.351507+05:30
Kohima,Nagaland,25.6701,94.1077,20.0,98,0.0,852.0,7.55,27.7,36,7.8,7.2,8.5,334.0,59.0,1.4,3,5,7,1,2026-06-08T19:41:28.351514+05:30
Gangtok,Sikkim,27.3314,88.6138,18.3,96,0.1,833.7,8.7,38.5,105,8.1,7.4,6.0,423.0,131.0,3.4,6,10,7,1,2026-06-08T19:41:28.351522+05:30
Siliguri,West Bengal,26.7271,88.3953,26.0,98,0.3,987.0,8.6,22.7,133,45.5,40.5,10.7,833.0,122.0,5.3,10,5,7,1,2026-06-08T19:41:31.634402+05:30
Durgapur,West Bengal,23.5204,87.3119,31.6,66,0.0,987.9,9.0,30.6,196,137.8,98.7,33.9,751.0,126.0,55.5,3,5,7,1,2026-06-08T19:41:31.634434+05:30
Asansol,West Bengal,23.6739,86.9524,34.4,41,0.0,986.5,9.0,34.2,158,136.0,83.6,42.3,624.0,92.0,42.2,0,5,7,1,2026-06-08T19:41:31.634445+05:30
Pondicherry,Puducherry,11.9139,79.8145,35.0,45,0.0,1005.3,8.7,49.3,51,16.7,12.8,11.6,358.0,79.0,9.4,0,5,4,1,2026-06-08T19:41:31.634454+05:30
Port Blair,Andaman and Nicobar Islands,11.6234,92.7265,28.1,84,0.0,1007.4,8.75,50.0,26,7.5,4.4,0.5,95.0,45.0,0.4,7,5,4,1,2026-06-08T19:41:31.634463+05:30
Haridwar,Uttarakhand,29.9457,78.1642,32.1,46,0.0,965.0,7.6,30.2,175,37.3,35.3,13.9,465.0,151.0,12.6,0,5,7,1,2026-06-08T19:41:31.634471+05:30
Rishikesh,Uttarakhand,30.0869,78.2676,31.4,45,0.0,958.1,7.7,25.9,163,29.2,26.0,6.7,376.0,163.0,9.3,0,5,7,1,2026-06-08T19:41:31.634479+05:30
Nainital,Uttarakhand,29.3919,79.4542,18.4,57,0.0,801.2,8.55,45.4,157,36.2,29.5,8.7,321.0,139.0,7.6,0,5,7,0,2026-06-08T19:41:31.634487+05:30
Mussoorie,Uttarakhand,30.4599,78.0664,18.8,55,0.0,799.2,8.1,44.6,168,28.9,26.3,12.4,313.0,157.0,10.2,0,5,7,0,2026-06-08T19:41:31.634494+05:30
Dharamshala,Himachal Pradesh,32.219,76.3234,22.9,48,0.0,863.9,8.5,44.3,125,14.7,11.9,8.4,260.0,116.0,1.5,0,5,7,0,2026-06-08T19:41:31.634502+05:30
Dalhousie,Himachal Pradesh,32.5387,75.971,19.3,53,0.0,801.6,8.8,33.5,154,26.3,19.8,13.6,387.0,147.0,3.3,0,5,7,0,2026-06-08T19:41:31.634511+05:30
Patiala,Punjab,30.3398,76.3869,35.5,30,0.0,969.6,7.7,36.7,161,381.8,70.1,15.6,251.0,110.0,6.3,0,5,10,0,2026-06-08T19:41:31.634519+05:30
Bhatinda,Punjab,30.211,74.9455,36.8,28,0.0,975.1,8.3,30.2,154,38.6,27.1,15.7,329.0,113.0,8.2,0,5,10,0,2026-06-08T19:41:31.634526+05:30
Rohtak,Haryana,28.8955,76.6066,33.6,39,0.0,973.0,7.8,31.0,482,866.1,152.3,32.5,428.0,84.0,8.9,0,5,7,1,2026-06-08T19:41:31.634534+05:30
Panipat,Haryana,29.3909,76.9635,33.0,44,0.0,971.5,7.65,31.7,903,1162.3,195.6,22.0,508.0,97.0,8.7,0,5,7,1,2026-06-08T19:41:31.634541+05:30
Mathura,Uttar Pradesh,27.4924,77.6737,33.6,37,0.0,977.6,8.05,32.0,474,719.0,134.1,40.5,555.0,56.0,6.5,0,5,7,1,2026-06-08T19:41:31.634548+05:30
Vrindavan,Uttar Pradesh,27.5823,77.7027,34.1,35,0.0,977.9,8.0,33.8,474,719.0,134.1,40.5,434.0,56.0,6.5,0,5,7,1,2026-06-08T19:41:31.634555+05:30
Ayodhya,Uttar Pradesh,26.7922,82.1998,32.3,56,0.0,986.5,8.45,33.1,152,113.2,55.3,16.2,486.0,91.0,10.3,0,5,7,1,2026-06-08T19:41:31.634562+05:30
Ratlam,Madhya Pradesh,23.3315,75.0367,33.0,46,0.0,950.1,8.5,44.3,84,48.3,26.6,2.3,169.0,94.0,4.0,0,5,7,1,2026-06-08T19:41:31.634570+05:30
Sagar,Madhya Pradesh,23.8388,78.7378,27.6,77,0.0,945.1,8.55,42.5,79,55.8,29.7,5.2,200.0,84.0,2.8,7,5,7,1,2026-06-08T19:41:31.634577+05:30
Satna,Madhya Pradesh,24.6005,80.8322,34.8,37,0.0,965.2,8.8,39.6,89,52.0,25.8,5.5,215.0,90.0,3.5,0,5,7,1,2026-06-08T19:41:31.634584+05:30
Akola,Maharashtra,20.7002,77.0082,36.6,33,0.0,969.8,8.85,42.8,85,50.1,25.2,5.3,169.0,100.0,5.9,0,5,10,1,2026-06-08T19:41:31.634592+05:30
Amravati,Maharashtra,20.9374,77.7796,34.8,39,0.0,962.6,8.8,37.4,87,48.7,25.3,6.6,159.0,96.0,6.1,0,5,7,1,2026-06-08T19:41:31.634600+05:30
Latur,Maharashtra,18.4088,76.5604,28.5,64,0.0,937.3,8.7,45.4,71,38.1,20.7,5.0,174.0,87.0,2.6,7,5,7,1,2026-06-08T19:41:31.634607+05:30
Nanded,Maharashtra,19.1383,77.3091,32.2,53,0.0,964.8,8.95,52.2,83,48.2,26.4,8.7,233.0,84.0,4.8,0,5,7,1,2026-06-08T19:41:31.634614+05:30
Gulbarga,Karnataka,17.3297,76.8343,25.2,93,0.1,957.0,6.8,33.1,58,33.2,18.7,13.2,197.0,73.0,3.8,10,5,7,1,2026-06-08T19:41:31.634622+05:30
Bidar,Karnataka,17.9104,77.5199,26.0,84,0.0,933.3,7.1,40.3,73,39.1,24.0,10.5,173.0,76.0,3.3,7,5,7,1,2026-06-08T19:41:31.634629+05:30
Hospet,Karnataka,15.2689,76.3909,24.0,93,0.0,955.4,6.5,46.4,40,9.0,6.3,5.5,180.0,63.0,1.7,3,5,7,1,2026-06-08T19:41:31.634636+05:30
Tirupur,Tamil Nadu,11.1085,77.3411,25.0,84,0.0,974.7,8.35,64.1,30,6.9,6.1,10.7,161.0,43.0,4.0,7,5,7,1,2026-06-08T19:41:31.634643+05:30
Alappuzha,Kerala,9.4981,76.3388,26.6,91,0.1,1010.9,6.1,44.3,28,15.7,9.7,6.1,85.0,41.0,1.4,10,0,4,1,2026-06-08T19:41:31.634650+05:30
Munnar,Kerala,10.0889,77.0595,17.4,100,0.3,857.5,6.4,53.6,24,3.1,2.9,6.6,118.0,40.0,1.9,6,10,7,1,2026-06-08T19:41:31.634657+05:30
Silchar,Assam,24.8333,92.7789,26.4,91,0.1,1000.7,8.8,25.2,68,27.8,24.2,9.2,378.0,68.0,4.1,10,5,4,1,2026-06-08T19:41:31.634664+05:30
Dibrugarh,Assam,27.4728,94.912,26.9,89,0.0,990.4,8.15,24.1,89,23.5,22.5,9.4,315.0,86.0,2.2,7,5,7,1,2026-06-08T19:41:31.634671+05:30
