city,state,latitude,longitude,temp,humidity,rain,pressure,uv_index,wind_gusts,aqi,pm10,pm2_5,mosquito_risk,arthritis_risk,migraine_risk,frizz_risk,updated_at
Delhi,Delhi,28.6139,77.209,26.0,55,0.0,978.7,7.55,33.1,182,343.7,74.7,4,5,7,1,2026-05-01T03:28:38.081300+05:30
Mumbai,Maharashtra,19.076,72.8777,28.2,83,0.0,1007.2,7.9,42.5,70,50.4,16.8,7,5,4,1,2026-05-01T03:28:38.081333+05:30
Bangalore,Karnataka,12.9716,77.5946,22.5,81,0.0,910.7,9.5,47.9,89,40.7,35.6,3,5,7,1,2026-05-01T03:28:38.081348+05:30
Hyderabad,Telangana,17.385,78.4867,29.6,37,0.0,951.2,9.3,38.5,85,29.6,26.6,4,5,7,0,2026-05-01T03:28:38.081356+05:30
Chennai,Tamil Nadu,13.0827,80.2707,29.4,83,0.0,1006.1,9.25,57.2,45,10.0,8.3,7,5,4,1,2026-05-01T03:28:38.081364+05:30
Kolkata,West Bengal,22.5726,88.3639,23.8,97,0.0,1004.2,8.75,49.7,62,17.7,16.5,3,5,4,1,2026-05-01T03:28:38.081371+05:30
Pune,Maharashtra,18.5204,73.8567,23.6,62,0.0,946.6,8.55,51.5,55,32.8,14.6,3,5,7,0,2026-05-01T03:28:38.081382+05:30
Ahmedabad,Gujarat,23.0225,72.5714,29.2,58,0.0,998.7,8.1,42.8,61,33.4,14.1,4,5,7,1,2026-05-01T03:28:38.081388+05:30
Jaipur,Rajasthan,26.9124,75.7873,25.1,48,0.0,954.7,8.1,46.8,169,305.5,58.7,4,5,7,0,2026-05-01T03:28:38.081395+05:30
Lucknow,Uttar Pradesh,26.8467,80.9462,22.2,83,0.0,991.1,8.0,33.1,95,41.3,31.2,3,5,7,1,2026-05-01T03:28:38.081401+05:30
Kanpur,Uttar Pradesh,26.4499,80.3319,24.6,69,0.0,988.8,8.05,39.6,135,230.0,47.8,3,5,7,1,2026-05-01T03:28:38.081407+05:30
Chandigarh,Chandigarh,30.7333,76.7794,22.8,56,0.0,966.0,7.6,34.9,72,24.3,18.0,0,5,7,0,2026-05-01T03:28:38.081414+05:30
Srinagar,Jammu and Kashmir,34.0837,74.7973,8.5,98,0.0,837.8,8.75,27.7,78,54.0,52.7,3,10,7,0,2026-05-01T03:28:38.081421+05:30
Jammu,Jammu and Kashmir,32.7266,74.857,20.0,65,0.0,968.6,8.35,27.4,58,19.5,18.3,3,5,7,0,2026-05-01T03:28:38.081427+05:30
Amritsar,Punjab,31.634,74.8723,23.0,63,0.0,976.7,8.25,32.8,75,70.1,29.6,3,5,7,0,2026-05-01T03:28:38.081433+05:30
Ludhiana,Punjab,30.901,75.8573,22.0,75,0.0,975.3,7.85,33.1,133,338.1,81.7,3,5,7,1,2026-05-01T03:28:38.081439+05:30
Jalandhar,Punjab,31.326,75.5762,21.0,80,0.0,976.3,8.0,29.5,80,249.6,64.0,3,5,7,1,2026-05-01T03:28:38.081448+05:30
Dehradun,Uttarakhand,30.6284,78.0322,10.0,90,0.0,824.6,7.45,43.6,51,21.4,16.5,3,10,7,0,2026-05-01T03:28:38.081455+05:30
Shimla,Himachal Pradesh,31.1048,77.1734,6.5,88,0.0,776.2,8.1,47.5,48,17.6,15.7,3,10,7,0,2026-05-01T03:28:38.081462+05:30
Manali,Himachal Pradesh,32.2396,77.1887,6.7,69,0.0,810.2,9.05,41.4,45,4.8,4.8,3,5,7,0,2026-05-01T03:28:38.081469+05:30
Gurgaon,Haryana,28.4595,77.0266,24.8,59,0.0,976.8,7.65,36.7,879,1113.9,149.9,0,5,7,1,2026-05-01T03:28:38.081475+05:30
Noida,Uttar Pradesh,28.5355,77.391,24.0,64,0.0,980.3,7.6,32.4,879,1113.9,149.9,3,5,7,1,2026-05-01T03:28:38.081481+05:30
Ghaziabad,Uttar Pradesh,28.6692,77.4538,23.5,68,0.0,978.8,7.55,36.0,155,312.0,68.0,3,5,7,1,2026-05-01T03:28:38.081487+05:30
Faridabad,Haryana,28.4089,77.3178,25.4,57,0.0,979.6,7.65,34.6,879,1113.9,149.9,4,5,7,1,2026-05-01T03:28:38.081493+05:30
Meerut,Uttar Pradesh,28.9845,77.7064,22.9,73,0.0,978.1,7.5,37.4,155,312.0,68.0,3,5,7,1,2026-05-01T03:28:38.081499+05:30
Agra,Uttar Pradesh,27.1767,78.0081,27.1,47,0.0,983.0,7.9,29.2,412,1080.3,136.9,4,5,7,0,2026-05-01T03:28:38.081505+05:30
Varanasi,Uttar Pradesh,25.3176,82.9739,25.1,75,0.0,995.1,8.55,45.7,92,62.6,49.8,7,5,7,1,2026-05-01T03:28:38.081513+05:30
Prayagraj,Uttar Pradesh,25.4358,81.8463,25.4,71,0.0,992.9,8.05,30.6,89,54.0,41.2,7,5,7,1,2026-05-01T03:28:38.081520+05:30
Gorakhpur,Uttar Pradesh,26.7606,83.3732,20.5,91,0.0,996.1,8.4,36.4,75,45.6,27.0,3,5,7,1,2026-05-01T03:28:38.081528+05:30
Bareilly,Uttar Pradesh,28.367,79.4304,22.4,78,0.0,984.6,7.85,35.3,120,89.2,37.4,3,5,7,1,2026-05-01T03:28:38.081534+05:30
Aligarh,Uttar Pradesh,27.8974,78.088,24.8,55,0.0,981.3,7.75,34.9,315,907.1,129.9,0,5,7,0,2026-05-01T03:28:38.081541+05:30
Moradabad,Uttar Pradesh,28.8386,78.7733,22.4,78,0.0,981.4,7.7,35.6,130,69.2,41.6,3,5,7,1,2026-05-01T03:28:38.081547+05:30
Saharanpur,Uttar Pradesh,29.9637,77.546,21.5,82,0.0,973.1,7.3,38.9,96,40.4,31.5,3,5,7,1,2026-05-01T03:28:38.081553+05:30
Jhansi,Uttar Pradesh,25.4484,78.5685,26.5,57,0.0,973.9,8.35,51.8,92,82.0,31.3,4,5,7,1,2026-05-01T03:28:41.334729+05:30
Surat,Gujarat,21.1702,72.8311,27.8,86,0.0,1004.4,7.7,53.6,65,33.8,17.0,7,5,4,1,2026-05-01T03:28:41.334783+05:30
Vadodara,Gujarat,22.3072,73.1812,27.7,83,0.0,1001.4,8.05,49.0,60,22.2,13.3,7,5,4,1,2026-05-01T03:28:41.334795+05:30
Rajkot,Gujarat,22.3039,70.8022,26.1,90,0.0,991.0,7.7,56.2,55,25.8,11.6,7,5,7,1,2026-05-01T03:28:41.334803+05:30
Thane,Maharashtra,19.2183,72.9781,27.4,89,0.0,1006.6,7.9,40.0,70,50.4,16.8,7,5,4,1,2026-05-01T03:28:41.334810+05:30
Nagpur,Maharashtra,21.1458,79.0882,29.6,28,0.0,970.0,8.9,41.8,60,38.8,23.1,4,5,7,0,2026-05-01T03:28:41.334816+05:30
Nashik,Maharashtra,19.9975,73.7898,23.0,89,0.0,943.6,8.2,52.6,61,39.1,18.4,3,5,7,1,2026-05-01T03:28:41.334822+05:30
Aurangabad,Maharashtra,19.8762,75.3433,25.1,54,0.0,942.4,9.05,48.2,55,31.4,14.3,4,5,7,0,2026-05-01T03:28:41.334828+05:30
Solapur,Maharashtra,17.6599,75.9064,27.8,47,0.0,955.9,9.1,49.3,56,22.9,12.0,4,5,7,0,2026-05-01T03:28:41.334834+05:30
Kolhapur,Maharashtra,16.705,74.2433,22.4,87,0.0,946.8,9.0,49.7,56,24.0,16.6,3,5,7,1,2026-05-01T03:28:41.334840+05:30
Goa,Goa,15.2993,74.124,27.6,93,0.0,997.3,8.95,38.5,59,35.2,23.7,7,5,7,1,2026-05-01T03:28:41.334845+05:30
Jodhpur,Rajasthan,26.2389,73.0243,30.6,32,0.0,977.6,8.3,48.6,137,292.4,52.5,0,5,7,0,2026-05-01T03:28:41.334851+05:30
Udaipur,Rajasthan,24.5854,73.7125,26.5,53,0.0,942.4,8.8,45.7,63,31.2,15.9,4,5,7,0,2026-05-01T03:28:41.334857+05:30
Kota,Rajasthan,25.2138,75.8648,30.0,28,0.0,974.5,8.3,42.5,71,43.3,19.9,4,5,7,0,2026-05-01T03:28:41.334862+05:30
Bikaner,Rajasthan,28.0229,73.3119,28.1,25,0.0,975.2,8.25,30.2,67,104.3,26.8,4,5,7,0,2026-05-01T03:28:41.334867+05:30
Ajmer,Rajasthan,26.4499,74.6399,29.6,32,0.0,949.7,8.25,52.2,82,61.7,21.5,4,5,7,0,2026-05-01T03:28:41.334873+05:30
Gwalior,Madhya Pradesh,26.2183,78.1828,26.5,54,0.0,978.8,8.1,45.0,105,173.2,49.6,4,5,7,1,2026-05-01T03:28:41.334879+05:30
Indore,Madhya Pradesh,22.7196,75.8577,27.0,48,0.0,945.4,8.65,42.1,62,32.1,18.6,4,5,7,0,2026-05-01T03:28:41.334884+05:30
Bhopal,Madhya Pradesh,23.2599,77.4126,28.9,29,0.0,950.7,8.65,40.3,64,78.2,32.4,4,5,7,0,2026-05-01T03:28:41.334890+05:30
Jabalpur,Madhya Pradesh,23.1815,79.9864,25.7,49,0.0,957.8,8.8,44.3,62,80.3,31.9,4,5,7,0,2026-05-01T03:28:41.334895+05:30
Ujjain,Madhya Pradesh,23.1765,75.7885,27.0,49,0.0,950.9,8.55,44.6,62,26.0,15.3,4,5,7,0,2026-05-01T03:28:41.334900+05:30
Visakhapatnam,Andhra Pradesh,17.6868,83.2185,28.0,92,0.0,1001.5,9.15,51.1,59,16.9,12.8,7,5,4,1,2026-05-01T03:28:41.334906+05:30
Vijayawada,Andhra Pradesh,16.5062,80.648,28.9,87,0.0,1000.1,9.2,38.2,61,11.6,8.9,7,5,4,1,2026-05-01T03:28:41.334911+05:30
Guntur,Andhra Pradesh,16.3067,80.4365,29.1,84,0.0,1001.5,9.2,42.8,65,11.4,9.2,7,5,4,1,2026-05-01T03:28:41.334917+05:30
Nellore,Andhra Pradesh,14.4426,79.9865,29.6,76,0.0,1003.8,9.3,41.0,55,23.7,21.2,7,5,4,1,2026-05-01T03:28:41.334923+05:30
Kurnool,Andhra Pradesh,15.8281,78.0373,30.8,51,0.0,975.4,9.2,41.0,83,23.9,22.2,0,5,7,1,2026-05-01T03:28:41.334929+05:30
Kakinada,Andhra Pradesh,16.9891,82.2475,28.6,89,0.0,1005.4,6.8,49.7,49,17.4,12.2,7,5,4,1,2026-05-01T03:28:41.334935+05:30
Tirupati,Andhra Pradesh,13.6288,79.4192,29.1,76,0.0,990.2,9.3,44.3,68,34.5,30.4,7,5,7,1,2026-05-01T03:28:41.334941+05:30
Warangal,Telangana,17.9689,79.5941,28.5,73,0.0,976.0,9.15,37.1,86,23.4,22.4,7,5,7,1,2026-05-01T03:28:41.334946+05:30
Nizamabad,Telangana,18.6725,78.0941,29.1,26,0.0,962.2,9.15,36.0,75,27.5,20.7,4,5,7,0,2026-05-01T03:28:41.334951+05:30
Mysore,Karnataka,12.2958,76.6396,22.2,93,0.0,927.4,9.4,58.7,69,27.5,23.2,3,5,7,1,2026-05-01T03:28:41.334957+05:30
Mangalore,Karnataka,12.9141,74.856,28.4,77,0.0,1005.7,9.05,40.7,71,45.2,25.7,7,5,4,1,2026-05-01T03:28:41.334962+05:30
Hubli-Dharwad,Karnataka,15.3647,75.124,23.5,97,0.0,940.1,9.2,45.7,52,14.0,9.3,3,5,7,1,2026-05-01T03:28:41.334968+05:30
Belgaum,Karnataka,15.8497,74.4977,21.4,96,0.0,924.6,9.2,45.7,54,22.2,15.0,3,5,7,1,2026-05-01T03:28:44.603562+05:30
Coimbatore,Tamil Nadu,11.0168,76.9558,25.2,87,0.0,960.7,8.6,45.4,58,14.2,12.1,7,5,7,1,2026-05-01T03:28:44.603586+05:30
Madurai,Tamil Nadu,9.9252,78.1198,29.1,64,0.0,992.1,9.2,45.0,63,25.3,24.5,7,5,7,1,2026-05-01T03:28:44.603595+05:30
Trichy,Tamil Nadu,10.7905,78.7047,28.9,78,0.0,998.7,9.25,51.8,50,16.5,15.8,7,5,7,1,2026-05-01T03:28:44.603602+05:30
Salem,Tamil Nadu,11.6643,78.146,28.3,69,0.0,976.6,9.3,36.4,81,45.1,35.3,7,5,7,1,2026-05-01T03:28:44.603607+05:30
Tirunelveli,Tamil Nadu,8.7139,77.7567,27.5,76,0.0,1002.3,9.1,38.9,44,10.6,10.2,7,5,4,1,2026-05-01T03:28:44.603614+05:30
Vellore,Tamil Nadu,12.9165,79.1325,28.2,78,0.0,983.4,9.35,50.4,71,37.5,33.2,7,5,7,1,2026-05-01T03:28:44.603620+05:30
Erode,Tamil Nadu,11.341,77.7172,27.5,75,0.0,988.2,8.45,40.3,71,28.3,23.3,7,5,7,1,2026-05-01T03:28:44.603625+05:30
Kochi,Kerala,9.9312,76.2673,25.9,92,0.0,1008.0,8.9,33.8,61,22.4,20.8,7,0,4,1,2026-05-01T03:28:44.603631+05:30
Thiruvananthapuram,Kerala,8.5241,76.9366,24.8,93,0.0,1007.5,8.85,32.0,37,9.9,8.3,3,5,4,1,2026-05-01T03:28:44.603638+05:30
Kozhikode,Kerala,11.2588,75.7804,25.6,95,0.0,1007.2,8.7,42.8,56,27.1,16.1,7,5,4,1,2026-05-01T03:28:44.603644+05:30
Thrissur,Kerala,10.5276,76.2144,25.4,93,0.0,1006.4,8.9,28.8,65,25.6,23.9,7,5,4,1,2026-05-01T03:28:44.603650+05:30
Kannur,Kerala,11.8745,75.3704,25.9,90,0.0,1006.4,8.95,42.1,67,39.9,21.9,7,5,4,1,2026-05-01T03:28:44.603656+05:30
Patna,Bihar,25.5941,85.1376,22.0,88,0.0,998.6,8.55,31.0,89,58.4,48.4,3,5,7,1,2026-05-01T03:28:44.603661+05:30
Gaya,Bihar,24.7914,85.0002,21.8,92,0.0,992.3,8.7,27.0,109,54.5,48.4,3,5,7,1,2026-05-01T03:28:44.603667+05:30
Muzaffarpur,Bihar,26.1209,85.3647,21.1,92,0.0,999.2,8.05,33.8,83,54.6,42.5,3,5,7,1,2026-05-01T03:28:44.603672+05:30
Bhagalpur,Bihar,25.2425,87.0117,21.5,98,0.0,1000.2,8.4,34.6,89,68.0,55.3,3,5,4,1,2026-05-01T03:28:44.603678+05:30
Ranchi,Jharkhand,23.3441,85.3096,20.5,73,0.0,934.5,9.0,36.4,102,58.6,45.1,3,5,7,0,2026-05-01T03:28:44.603683+05:30
Jamshedpur,Jharkhand,22.8046,86.2029,22.0,94,0.0,988.6,8.55,39.6,116,49.7,45.4,3,5,7,1,2026-05-01T03:28:44.603689+05:30
Dhanbad,Jharkhand,23.7957,86.4304,21.5,99,0.0,977.6,8.6,32.8,152,88.2,83.8,3,5,7,1,2026-05-01T03:28:44.603694+05:30
Bokaro,Jharkhand,23.6693,86.1511,21.0,92,0.0,981.2,8.55,35.3,151,89.2,83.6,3,5,7,1,2026-05-01T03:28:44.603699+05:30
Bhubaneswar,Odisha,20.2961,85.8245,26.9,88,0.0,999.6,9.1,44.6,55,10.9,8.6,7,5,7,1,2026-05-01T03:28:44.603705+05:30
Cuttack,Odisha,20.4625,85.8828,27.3,87,0.0,1001.4,9.15,41.8,55,10.9,8.6,7,5,4,1,2026-05-01T03:28:44.603710+05:30
Rourkela,Odisha,22.2604,84.8536,22.8,85,0.0,982.2,8.8,51.5,112,63.3,53.3,3,5,7,1,2026-05-01T03:28:44.603716+05:30
Raipur,Chhattisgarh,21.2514,81.6296,27.9,42,0.0,971.4,8.85,43.2,85,43.7,29.6,4,5,7,0,2026-05-01T03:28:44.603721+05:30
Bhilai,Chhattisgarh,21.1938,81.3509,27.9,40,0.0,972.0,8.85,43.2,82,50.5,31.2,4,5,7,0,2026-05-01T03:28:44.603727+05:30
Guwahati,Assam,26.1158,91.7086,19.8,97,0.0,1001.4,7.35,24.1,66,34.3,26.0,3,10,4,1,2026-05-01T03:28:44.603732+05:30
Agartala,Tripura,23.8315,91.2868,21.6,98,0.1,1004.9,7.6,50.4,75,21.0,18.0,6,5,4,1,2026-05-01T03:28:44.603738+05:30
Shillong,Meghalaya,25.5788,91.8933,13.2,99,0.0,852.9,8.35,23.8,59,12.8,10.9,3,10,7,0,2026-05-01T03:28:44.603782+05:30
Imphal,Manipur,24.817,93.9368,16.2,98,0.0,921.7,3.3,24.5,78,38.0,32.7,3,10,3,0,2026-05-01T03:28:44.603791+05:30
Aizawl,Mizoram,23.7271,92.7176,15.0,98,0.0,890.0,7.6,54.0,53,16.1,13.7,3,10,7,0,2026-05-01T03:28:44.603798+05:30
Kohima,Nagaland,25.6701,94.1077,12.0,97,0.0,851.1,5.15,20.5,56,19.2,14.8,3,10,3,0,2026-05-01T03:28:44.603803+05:30
Gangtok,Sikkim,27.3314,88.6138,11.1,92,0.0,832.5,7.7,39.6,46,10.0,7.1,3,10,7,0,2026-05-01T03:28:44.603809+05:30
Siliguri,West Bengal,26.7271,88.3953,19.9,93,0.0,991.7,8.2,25.9,60,42.1,30.7,3,10,7,1,2026-05-01T03:28:47.866773+05:30
Durgapur,West Bengal,23.5204,87.3119,21.9,100,0.0,993.4,8.4,37.4,112,56.5,53.6,3,5,7,1,2026-05-01T03:28:47.866800+05:30
Asansol,West Bengal,23.6739,86.9524,21.8,100,0.0,991.8,8.75,30.6,117,63.6,59.5,3,5,7,1,2026-05-01T03:28:47.866809+05:30
Pondicherry,Puducherry,11.9139,79.8145,29.0,83,0.0,1007.2,8.5,58.0,37,8.9,7.1,7,5,4,1,2026-05-01T03:28:47.866816+05:30
Port Blair,Andaman and Nicobar Islands,11.6234,92.7265,26.4,88,0.0,1005.9,9.1,28.8,29,6.2,4.9,7,5,4,1,2026-05-01T03:28:47.866822+05:30
Haridwar,Uttarakhand,29.9457,78.1642,21.1,73,0.0,971.6,7.4,23.4,84,37.0,27.0,3,5,7,1,2026-05-01T03:28:47.866829+05:30
Rishikesh,Uttarakhand,30.0869,78.2676,16.8,100,0.0,963.9,7.5,26.3,75,55.1,28.7,3,10,7,1,2026-05-01T03:28:47.866835+05:30
Nainital,Uttarakhand,29.3919,79.4542,10.9,89,0.0,801.0,6.85,37.4,83,56.5,30.5,3,10,7,0,2026-05-01T03:28:47.866842+05:30
Mussoorie,Uttarakhand,30.4599,78.0664,10.8,76,0.0,797.8,7.9,49.0,63,27.1,21.9,3,5,7,0,2026-05-01T03:28:47.866848+05:30
Dharamshala,Himachal Pradesh,32.219,76.3234,18.7,46,0.0,865.5,8.25,48.2,42,11.9,9.0,0,5,7,0,2026-05-01T03:28:47.866854+05:30
Dalhousie,Himachal Pradesh,32.5387,75.971,9.4,75,0.0,797.8,8.5,38.9,56,25.8,22.1,3,5,7,0,2026-05-01T03:28:47.866860+05:30
Patiala,Punjab,30.3398,76.3869,21.6,79,0.0,974.9,7.5,37.1,386,447.0,65.4,3,5,7,1,2026-05-01T03:28:47.866866+05:30
Bhatinda,Punjab,30.211,74.9455,24.0,65,0.0,979.0,8.15,33.1,120,899.7,165.3,3,5,7,1,2026-05-01T03:28:47.866872+05:30
Rohtak,Haryana,28.8955,76.6066,24.6,63,0.0,977.1,7.6,35.6,332,525.3,91.5,3,5,7,1,2026-05-01T03:28:47.866878+05:30
Panipat,Haryana,29.3909,76.9635,22.8,79,0.0,976.7,7.45,37.8,611,828.9,107.6,3,5,7,1,2026-05-01T03:28:47.866883+05:30
Mathura,Uttar Pradesh,27.4924,77.6737,26.3,49,0.0,982.2,7.85,31.0,523,875.4,118.5,4,5,7,0,2026-05-01T03:28:47.866889+05:30
Vrindavan,Uttar Pradesh,27.5823,77.7027,26.2,49,0.0,982.6,7.85,31.3,523,875.4,118.5,4,5,7,0,2026-05-01T03:28:47.866895+05:30
Ayodhya,Uttar Pradesh,26.7922,82.1998,21.3,88,0.0,993.8,8.15,33.5,81,42.8,28.9,3,5,7,1,2026-05-01T03:28:47.866901+05:30
Ratlam,Madhya Pradesh,23.3315,75.0367,26.0,61,0.0,951.7,8.5,47.2,60,24.4,13.7,7,5,7,1,2026-05-01T03:28:47.866906+05:30
Sagar,Madhya Pradesh,23.8388,78.7378,26.0,45,0.0,946.4,8.65,45.0,64,80.6,27.3,4,5,7,0,2026-05-01T03:28:47.866912+05:30
Satna,Madhya Pradesh,24.6005,80.8322,24.2,64,0.0,968.3,8.65,52.6,84,70.5,37.0,3,5,7,1,2026-05-01T03:28:47.866918+05:30
Akola,Maharashtra,20.7002,77.0082,29.1,36,0.0,972.6,8.9,38.9,55,20.3,11.0,4,5,7,0,2026-05-01T03:28:47.866924+05:30
Amravati,Maharashtra,20.9374,77.7796,29.5,29,0.0,964.6,8.9,38.2,54,20.1,11.9,4,5,7,0,2026-05-01T03:28:47.866931+05:30
Latur,Maharashtra,18.4088,76.5604,26.9,36,0.0,937.9,9.1,40.7,64,33.8,16.1,4,5,7,0,2026-05-01T03:28:47.866936+05:30
Nanded,Maharashtra,19.1383,77.3091,29.3,29,0.0,966.5,9.05,34.2,57,25.7,15.0,4,5,7,0,2026-05-01T03:28:47.866942+05:30
Gulbarga,Karnataka,17.3297,76.8343,29.1,38,0.0,957.3,9.15,48.6,58,15.6,11.2,4,5,7,0,2026-05-01T03:28:47.866947+05:30
Bidar,Karnataka,17.9104,77.5199,28.2,29,0.0,933.3,9.15,36.4,82,31.9,26.0,4,5,7,0,2026-05-01T03:28:47.866953+05:30
Hospet,Karnataka,15.2689,76.3909,25.9,87,0.0,955.2,9.25,45.4,63,13.7,11.2,7,5,7,1,2026-05-01T03:28:47.866958+05:30
Tirupur,Tamil Nadu,11.1085,77.3411,26.0,85,0.0,974.1,8.15,41.0,74,28.0,22.9,7,5,7,1,2026-05-01T03:28:47.866964+05:30
Alappuzha,Kerala,9.4981,76.3388,25.5,97,0.0,1008.3,9.0,38.9,60,22.2,19.3,7,0,4,1,2026-05-01T03:28:47.866969+05:30
Munnar,Kerala,10.0889,77.0595,16.6,88,0.0,855.1,9.2,27.0,64,5.2,4.9,3,10,7,0,2026-05-01T03:28:47.866975+05:30
Silchar,Assam,24.8333,92.7789,20.5,98,0.2,1005.0,6.05,33.5,92,44.7,35.6,6,5,4,1,2026-05-01T03:28:47.866981+05:30
Dibrugarh,Assam,27.4728,94.912,20.5,97,0.0,995.6,7.4,27.0,62,26.2,15.7,3,5,7,1,2026-05-01T03:28:47.866987+05:30
