city,state,latitude,longitude,temp,humidity,rain,pressure,uv_index,wind_gusts,aqi,pm10,pm2_5,mosquito_risk,arthritis_risk,migraine_risk,frizz_risk,updated_at
Delhi,Delhi,28.6139,77.209,28.0,42,0.0,980.5,7.35,31.7,433,665.0,115.9,4,5,7,0,2026-04-22T00:47:33.757888+05:30
Mumbai,Maharashtra,19.076,72.8777,29.6,75,0.0,1007.0,8.0,31.7,92,44.9,22.5,7,5,4,1,2026-04-22T00:47:33.757941+05:30
Bangalore,Karnataka,12.9716,77.5946,25.2,49,0.0,911.2,9.5,29.5,67,20.5,18.9,4,5,7,0,2026-04-22T00:47:33.757957+05:30
Hyderabad,Telangana,17.385,78.4867,27.9,69,0.0,952.4,9.3,18.7,105,45.8,42.0,7,5,7,1,2026-04-22T00:47:33.757968+05:30
Chennai,Tamil Nadu,13.0827,80.2707,29.2,80,0.0,1006.4,8.85,33.5,41,10.3,7.3,7,5,4,1,2026-04-22T00:47:33.757978+05:30
Kolkata,West Bengal,22.5726,88.3639,28.0,90,0.0,1002.6,8.95,29.9,84,23.2,20.5,7,5,4,1,2026-04-22T00:47:33.757991+05:30
Pune,Maharashtra,18.5204,73.8567,26.5,74,0.0,948.0,8.6,37.4,151,47.1,41.9,7,5,7,1,2026-04-22T00:47:33.758000+05:30
Ahmedabad,Gujarat,23.0225,72.5714,28.7,34,0.0,1001.8,8.2,23.8,45,15.3,8.9,4,5,4,0,2026-04-22T00:47:33.758008+05:30
Jaipur,Rajasthan,26.9124,75.7873,29.7,26,0.0,958.7,8.0,31.3,122,131.8,31.5,4,5,7,0,2026-04-22T00:47:33.758016+05:30
Lucknow,Uttar Pradesh,26.8467,80.9462,28.5,44,0.0,990.2,7.85,43.2,136,538.3,93.8,4,5,7,0,2026-04-22T00:47:33.758024+05:30
Kanpur,Uttar Pradesh,26.4499,80.3319,26.2,53,0.0,988.9,7.9,36.0,366,676.1,106.4,4,5,7,0,2026-04-22T00:47:33.758033+05:30
Chandigarh,Chandigarh,30.7333,76.7794,23.8,43,0.0,966.3,7.35,31.7,66,24.3,20.0,0,5,7,0,2026-04-22T00:47:33.758043+05:30
Srinagar,Jammu and Kashmir,34.0837,74.7973,10.9,73,0.0,839.6,8.5,15.8,79,50.5,39.6,3,5,7,0,2026-04-22T00:47:33.758051+05:30
Jammu,Jammu and Kashmir,32.7266,74.857,26.2,47,0.0,970.8,8.1,29.2,66,36.4,30.6,4,5,7,0,2026-04-22T00:47:33.758058+05:30
Amritsar,Punjab,31.634,74.8723,25.9,48,0.0,978.7,8.05,29.2,68,49.8,40.7,4,5,7,0,2026-04-22T00:47:33.758066+05:30
Ludhiana,Punjab,30.901,75.8573,26.9,33,0.0,976.5,7.6,33.1,75,45.5,36.0,4,5,7,0,2026-04-22T00:47:33.758075+05:30
Jalandhar,Punjab,31.326,75.5762,25.3,42,0.0,977.7,7.8,32.0,81,43.9,34.8,4,5,7,0,2026-04-22T00:47:33.758082+05:30
Dehradun,Uttarakhand,30.6284,78.0322,16.6,56,0.0,829.6,7.75,32.4,66,23.9,16.2,0,5,7,0,2026-04-22T00:47:33.758088+05:30
Shimla,Himachal Pradesh,31.1048,77.1734,15.6,40,0.0,784.3,7.85,52.2,72,30.6,15.1,0,5,7,0,2026-04-22T00:47:33.758096+05:30
Manali,Himachal Pradesh,32.2396,77.1887,17.7,52,0.0,820.8,9.3,31.0,71,30.6,11.4,0,5,7,0,2026-04-22T00:47:33.758103+05:30
Gurgaon,Haryana,28.4595,77.0266,26.3,48,0.0,978.8,7.45,29.2,1184,670.6,108.5,4,5,7,0,2026-04-22T00:47:33.758110+05:30
Noida,Uttar Pradesh,28.5355,77.391,27.5,44,0.0,982.0,7.35,32.4,1184,670.6,108.5,4,5,7,0,2026-04-22T00:47:33.758117+05:30
Ghaziabad,Uttar Pradesh,28.6692,77.4538,27.0,48,0.0,980.0,7.35,32.4,317,653.8,111.5,4,5,7,0,2026-04-22T00:47:33.758125+05:30
Faridabad,Haryana,28.4089,77.3178,30.1,34,0.0,981.1,7.4,33.1,1184,670.6,108.5,0,5,7,0,2026-04-22T00:47:33.758131+05:30
Meerut,Uttar Pradesh,28.9845,77.7064,25.3,49,0.0,978.6,7.25,37.1,317,653.8,111.5,4,5,7,0,2026-04-22T00:47:33.758138+05:30
Agra,Uttar Pradesh,27.1767,78.0081,28.1,43,0.0,985.3,7.75,35.6,784,1039.4,152.7,4,5,7,0,2026-04-22T00:47:33.758147+05:30
Varanasi,Uttar Pradesh,25.3176,82.9739,28.6,35,0.0,994.0,8.5,42.1,99,113.2,37.3,4,5,7,0,2026-04-22T00:47:33.758155+05:30
Prayagraj,Uttar Pradesh,25.4358,81.8463,29.7,37,0.0,993.0,8.35,37.1,102,216.1,46.7,4,5,7,0,2026-04-22T00:47:33.758162+05:30
Gorakhpur,Uttar Pradesh,26.7606,83.3732,27.6,32,0.0,992.7,8.25,43.9,88,155.1,38.1,4,5,7,0,2026-04-22T00:47:33.758168+05:30
Bareilly,Uttar Pradesh,28.367,79.4304,24.6,50,0.0,983.6,7.55,37.8,87,231.4,51.6,0,5,7,0,2026-04-22T00:47:33.758178+05:30
Aligarh,Uttar Pradesh,27.8974,78.088,27.0,44,0.0,983.0,7.5,36.7,805,687.3,106.6,4,5,7,0,2026-04-22T00:47:33.758185+05:30
Moradabad,Uttar Pradesh,28.8386,78.7733,25.1,45,0.0,980.7,7.4,37.4,112,258.0,65.7,4,5,7,0,2026-04-22T00:47:33.758191+05:30
Saharanpur,Uttar Pradesh,29.9637,77.546,24.9,47,0.0,973.0,7.05,36.0,81,54.0,33.2,0,5,7,0,2026-04-22T00:47:33.758197+05:30
Jhansi,Uttar Pradesh,25.4484,78.5685,30.5,31,0.0,975.4,8.25,31.3,124,27.5,12.4,0,5,7,0,2026-04-22T00:47:37.070904+05:30
Surat,Gujarat,21.1702,72.8311,28.9,73,0.0,1005.5,7.9,21.6,108,36.0,26.7,7,5,4,1,2026-04-22T00:47:37.070934+05:30
Vadodara,Gujarat,22.3072,73.1812,29.0,54,0.0,1003.4,8.15,23.0,85,59.6,50.4,4,5,4,1,2026-04-22T00:47:37.070944+05:30
Rajkot,Gujarat,22.3039,70.8022,25.5,51,0.0,994.6,7.9,28.8,56,26.8,13.7,4,5,7,0,2026-04-22T00:47:37.070951+05:30
Thane,Maharashtra,19.2183,72.9781,27.7,72,0.0,1006.5,8.05,41.8,92,44.9,22.5,7,5,4,1,2026-04-22T00:47:37.070959+05:30
Nagpur,Maharashtra,21.1458,79.0882,30.0,52,0.0,971.8,8.95,28.8,81,26.2,22.6,4,5,7,1,2026-04-22T00:47:37.070967+05:30
Nashik,Maharashtra,19.9975,73.7898,26.6,66,0.0,945.3,8.3,37.1,104,38.6,23.3,7,5,7,1,2026-04-22T00:47:37.070974+05:30
Aurangabad,Maharashtra,19.8762,75.3433,29.6,33,0.0,943.4,9.05,31.7,80,39.3,32.0,4,5,7,0,2026-04-22T00:47:37.070981+05:30
Solapur,Maharashtra,17.6599,75.9064,28.6,60,0.0,956.1,9.05,21.6,127,59.4,54.0,4,5,7,1,2026-04-22T00:47:37.070988+05:30
Kolhapur,Maharashtra,16.705,74.2433,23.9,93,0.0,947.2,9.05,31.7,99,37.7,30.5,3,5,7,1,2026-04-22T00:47:37.070995+05:30
Goa,Goa,15.2993,74.124,28.1,87,0.0,996.6,9.0,29.9,73,37.0,23.9,7,5,7,1,2026-04-22T00:47:37.071003+05:30
Jodhpur,Rajasthan,26.2389,73.0243,29.5,21,0.0,982.4,8.2,28.8,113,156.5,21.8,4,5,7,0,2026-04-22T00:47:37.071009+05:30
Udaipur,Rajasthan,24.5854,73.7125,25.7,27,0.0,946.8,8.75,43.2,58,11.3,7.4,4,5,7,0,2026-04-22T00:47:37.071017+05:30
Kota,Rajasthan,25.2138,75.8648,29.1,24,0.0,977.4,8.25,24.8,56,20.0,11.4,4,5,7,0,2026-04-22T00:47:37.071023+05:30
Bikaner,Rajasthan,28.0229,73.3119,31.7,27,0.0,979.8,8.05,28.8,54,38.8,16.2,0,5,7,0,2026-04-22T00:47:37.071030+05:30
Ajmer,Rajasthan,26.4499,74.6399,27.9,26,0.0,954.1,8.2,34.9,63,74.5,20.0,4,5,7,0,2026-04-22T00:47:37.071036+05:30
Gwalior,Madhya Pradesh,26.2183,78.1828,28.5,44,0.0,980.6,8.0,37.8,200,79.4,20.5,4,5,7,0,2026-04-22T00:47:37.071044+05:30
Indore,Madhya Pradesh,22.7196,75.8577,26.7,42,0.0,947.9,8.65,32.8,61,18.5,16.5,4,5,7,0,2026-04-22T00:47:37.071050+05:30
Bhopal,Madhya Pradesh,23.2599,77.4126,27.1,40,0.0,953.2,8.65,36.7,56,16.2,14.8,4,5,7,0,2026-04-22T00:47:37.071057+05:30
Jabalpur,Madhya Pradesh,23.1815,79.9864,27.5,50,0.0,959.7,8.85,30.6,69,18.1,16.2,4,5,7,1,2026-04-22T00:47:37.071063+05:30
Ujjain,Madhya Pradesh,23.1765,75.7885,27.2,41,0.0,953.7,8.6,35.3,64,17.9,15.8,4,5,7,0,2026-04-22T00:47:37.071070+05:30
Visakhapatnam,Andhra Pradesh,17.6868,83.2185,27.6,89,0.0,1002.3,9.0,39.2,58,18.5,14.2,7,5,4,1,2026-04-22T00:47:37.071076+05:30
Vijayawada,Andhra Pradesh,16.5062,80.648,27.7,88,0.0,1002.1,9.25,25.2,56,13.1,10.4,7,5,4,1,2026-04-22T00:47:37.071083+05:30
Guntur,Andhra Pradesh,16.3067,80.4365,27.9,89,0.0,1003.4,9.25,29.9,60,12.9,10.2,7,5,4,1,2026-04-22T00:47:37.071089+05:30
Nellore,Andhra Pradesh,14.4426,79.9865,27.5,87,0.0,1005.2,9.2,34.6,48,8.9,7.3,7,5,4,1,2026-04-22T00:47:37.071097+05:30
Kurnool,Andhra Pradesh,15.8281,78.0373,28.8,61,0.0,976.2,9.25,35.3,92,46.4,40.6,7,5,7,1,2026-04-22T00:47:37.071104+05:30
Kakinada,Andhra Pradesh,16.9891,82.2475,27.5,90,0.0,1006.6,9.2,27.7,45,13.6,9.1,7,5,4,1,2026-04-22T00:47:37.071110+05:30
Tirupati,Andhra Pradesh,13.6288,79.4192,26.8,73,0.0,991.6,9.35,32.8,57,14.3,13.6,7,5,7,1,2026-04-22T00:47:37.071117+05:30
Warangal,Telangana,17.9689,79.5941,29.9,64,0.0,977.5,9.15,21.2,90,44.7,42.4,7,5,7,1,2026-04-22T00:47:37.071124+05:30
Nizamabad,Telangana,18.6725,78.0941,29.9,54,0.0,963.7,9.15,28.1,105,46.6,43.4,4,5,7,1,2026-04-22T00:47:37.071130+05:30
Mysore,Karnataka,12.2958,76.6396,24.3,85,0.0,928.1,9.45,38.2,85,30.4,28.3,3,5,7,1,2026-04-22T00:47:37.071137+05:30
Mangalore,Karnataka,12.9141,74.856,29.6,85,0.0,1005.8,9.1,25.6,85,38.5,31.4,7,5,4,1,2026-04-22T00:47:37.071143+05:30
Hubli-Dharwad,Karnataka,15.3647,75.124,24.5,75,0.0,939.5,9.2,38.9,103,33.3,30.4,3,5,7,1,2026-04-22T00:47:37.071150+05:30
Belgaum,Karnataka,15.8497,74.4977,23.0,99,0.0,924.8,9.25,40.7,90,37.0,30.7,3,5,7,1,2026-04-22T00:47:40.376993+05:30
Coimbatore,Tamil Nadu,11.0168,76.9558,25.8,84,0.0,961.3,9.4,41.4,83,33.5,29.9,7,5,7,1,2026-04-22T00:47:40.377024+05:30
Madurai,Tamil Nadu,9.9252,78.1198,27.1,84,0.0,992.8,9.3,40.0,59,16.8,15.8,7,5,7,1,2026-04-22T00:47:40.377035+05:30
Trichy,Tamil Nadu,10.7905,78.7047,28.5,83,0.0,999.3,9.3,19.1,47,13.4,13.1,7,5,7,1,2026-04-22T00:47:40.377043+05:30
Salem,Tamil Nadu,11.6643,78.146,28.6,67,0.0,977.0,9.3,23.4,59,15.9,15.1,7,5,7,1,2026-04-22T00:47:40.377051+05:30
Tirunelveli,Tamil Nadu,8.7139,77.7567,28.0,74,0.0,1002.7,9.25,50.8,62,18.9,17.3,7,5,4,1,2026-04-22T00:47:40.377059+05:30
Vellore,Tamil Nadu,12.9165,79.1325,26.6,72,0.0,984.2,9.35,29.5,61,29.2,28.3,7,5,7,1,2026-04-22T00:47:40.377066+05:30
Erode,Tamil Nadu,11.341,77.7172,30.1,69,0.0,988.4,9.35,24.5,52,8.4,8.1,3,5,7,1,2026-04-22T00:47:40.377073+05:30
Kochi,Kerala,9.9312,76.2673,28.2,83,0.0,1008.1,9.05,28.8,74,38.0,34.0,7,0,4,1,2026-04-22T00:47:40.377081+05:30
Thiruvananthapuram,Kerala,8.5241,76.9366,28.6,81,0.0,1007.1,8.95,28.4,53,17.4,12.5,7,5,4,1,2026-04-22T00:47:40.377088+05:30
Kozhikode,Kerala,11.2588,75.7804,29.7,79,0.0,1007.0,9.1,29.5,70,36.2,26.2,7,5,4,1,2026-04-22T00:47:40.377095+05:30
Thrissur,Kerala,10.5276,76.2144,27.4,84,0.0,1006.4,9.0,36.7,73,42.1,34.8,7,5,4,1,2026-04-22T00:47:40.377102+05:30
Kannur,Kerala,11.8745,75.3704,29.1,84,0.0,1006.5,8.9,32.8,79,42.4,37.1,7,5,4,1,2026-04-22T00:47:40.377109+05:30
Patna,Bihar,25.5941,85.1376,29.1,38,0.0,996.2,8.65,40.0,95,40.2,24.4,4,5,7,0,2026-04-22T00:47:40.377116+05:30
Gaya,Bihar,24.7914,85.0002,29.2,38,0.0,990.3,8.75,45.0,97,73.3,30.7,4,5,7,0,2026-04-22T00:47:40.377122+05:30
Muzaffarpur,Bihar,26.1209,85.3647,26.4,42,0.0,995.9,8.6,26.3,94,38.6,22.4,4,5,7,0,2026-04-22T00:47:40.377128+05:30
Bhagalpur,Bihar,25.2425,87.0117,28.0,48,0.0,996.3,8.7,19.1,105,85.9,31.4,4,5,7,0,2026-04-22T00:47:40.377134+05:30
Ranchi,Jharkhand,23.3441,85.3096,27.6,34,0.0,936.4,9.25,38.9,78,77.5,31.9,4,5,7,0,2026-04-22T00:47:40.377141+05:30
Jamshedpur,Jharkhand,22.8046,86.2029,30.4,55,0.0,987.7,9.05,25.2,112,48.2,46.1,0,5,7,1,2026-04-22T00:47:40.377147+05:30
Dhanbad,Jharkhand,23.7957,86.4304,30.8,43,0.0,976.4,9.05,42.1,139,110.6,68.0,0,5,7,1,2026-04-22T00:47:40.377153+05:30
Bokaro,Jharkhand,23.6693,86.1511,28.3,35,0.0,980.8,9.05,43.2,122,110.6,57.3,4,5,7,0,2026-04-22T00:47:40.377160+05:30
Bhubaneswar,Odisha,20.2961,85.8245,27.2,93,0.0,1000.0,9.15,29.5,75,17.5,15.3,7,5,4,1,2026-04-22T00:47:40.377166+05:30
Cuttack,Odisha,20.4625,85.8828,27.6,90,0.0,1001.7,9.2,32.0,75,17.5,15.3,7,5,4,1,2026-04-22T00:47:40.377173+05:30
Rourkela,Odisha,22.2604,84.8536,30.9,58,0.0,982.3,9.0,33.5,119,44.5,41.4,0,5,7,1,2026-04-22T00:47:40.377179+05:30
Raipur,Chhattisgarh,21.2514,81.6296,30.2,51,0.0,972.9,9.0,36.4,107,52.7,50.2,0,5,7,1,2026-04-22T00:47:40.377185+05:30
Bhilai,Chhattisgarh,21.1938,81.3509,29.4,55,0.0,973.3,9.0,34.6,99,49.9,47.0,4,5,7,1,2026-04-22T00:47:40.377191+05:30
Guwahati,Assam,26.1158,91.7086,24.2,88,0.0,997.6,8.6,42.5,96,47.6,43.0,3,5,7,1,2026-04-22T00:47:40.377197+05:30
Agartala,Tripura,23.8315,91.2868,27.0,90,0.0,1003.3,8.85,38.9,79,19.6,16.7,7,5,4,1,2026-04-22T00:47:40.377203+05:30
Shillong,Meghalaya,25.5788,91.8933,17.1,91,0.0,854.5,9.05,77.4,78,12.8,10.3,3,10,7,0,2026-04-22T00:47:40.377210+05:30
Imphal,Manipur,24.817,93.9368,20.6,87,0.0,921.4,9.2,84.6,153,89.4,82.0,3,5,7,1,2026-04-22T00:47:40.377217+05:30
Aizawl,Mizoram,23.7271,92.7176,22.1,83,0.0,891.3,9.05,59.4,100,33.1,27.8,3,5,7,1,2026-04-22T00:47:40.377223+05:30
Kohima,Nagaland,25.6701,94.1077,18.7,75,0.0,853.0,9.15,95.8,99,54.4,40.7,3,5,7,0,2026-04-22T00:47:40.377230+05:30
Gangtok,Sikkim,27.3314,88.6138,17.0,74,0.0,835.6,8.95,22.7,69,18.9,15.1,3,5,7,0,2026-04-22T00:47:40.377236+05:30
Siliguri,West Bengal,26.7271,88.3953,23.8,65,0.0,990.1,7.8,20.5,143,71.5,60.3,3,5,7,1,2026-04-22T00:47:43.688298+05:30
Durgapur,West Bengal,23.5204,87.3119,29.0,84,0.0,991.4,8.95,25.9,136,74.5,64.5,7,5,7,1,2026-04-22T00:47:43.688355+05:30
Asansol,West Bengal,23.6739,86.9524,30.2,79,0.0,989.8,9.0,25.2,131,94.3,63.6,3,5,7,1,2026-04-22T00:47:43.688368+05:30
Pondicherry,Puducherry,11.9139,79.8145,27.6,92,0.0,1007.9,8.95,30.6,42,8.4,5.8,7,5,4,1,2026-04-22T00:47:43.688378+05:30
Port Blair,Andaman and Nicobar Islands,11.6234,92.7265,29.3,75,0.0,1005.8,8.7,19.4,55,15.8,13.1,7,5,4,1,2026-04-22T00:47:43.688387+05:30
Haridwar,Uttarakhand,29.9457,78.1642,22.2,59,0.0,971.6,7.15,36.7,68,29.5,26.4,0,5,7,0,2026-04-22T00:47:43.688396+05:30
Rishikesh,Uttarakhand,30.0869,78.2676,22.4,56,0.0,964.8,7.2,36.7,96,32.5,21.2,0,5,7,0,2026-04-22T00:47:43.688405+05:30
Nainital,Uttarakhand,29.3919,79.4542,22.0,33,0.0,806.2,8.05,45.0,90,38.3,17.3,0,5,7,0,2026-04-22T00:47:43.688413+05:30
Mussoorie,Uttarakhand,30.4599,78.0664,19.3,45,0.0,802.7,7.65,40.7,73,34.1,28.5,0,5,7,0,2026-04-22T00:47:43.688421+05:30
Dharamshala,Himachal Pradesh,32.219,76.3234,23.4,38,0.0,869.1,7.95,27.4,70,25.0,12.3,0,5,7,0,2026-04-22T00:47:43.688429+05:30
Dalhousie,Himachal Pradesh,32.5387,75.971,19.8,39,0.0,804.0,8.25,29.9,56,32.1,24.4,0,5,7,0,2026-04-22T00:47:43.688438+05:30
Patiala,Punjab,30.3398,76.3869,24.3,45,0.0,975.7,7.25,26.3,372,252.4,55.4,0,5,7,0,2026-04-22T00:47:43.688452+05:30
Bhatinda,Punjab,30.211,74.9455,28.1,33,0.0,981.4,7.95,27.7,74,43.0,31.0,4,5,7,0,2026-04-22T00:47:43.688460+05:30
Rohtak,Haryana,28.8955,76.6066,24.5,55,0.0,979.1,7.1,33.8,603,702.2,111.3,0,5,7,0,2026-04-22T00:47:43.688468+05:30
Panipat,Haryana,29.3909,76.9635,24.3,50,0.0,977.7,7.2,32.4,1129,882.9,131.3,0,5,7,0,2026-04-22T00:47:43.688476+05:30
Mathura,Uttar Pradesh,27.4924,77.6737,28.9,41,0.0,984.4,7.65,33.5,902,670.6,111.3,4,5,7,0,2026-04-22T00:47:43.688484+05:30
Vrindavan,Uttar Pradesh,27.5823,77.7027,25.2,51,0.0,984.8,7.65,36.0,902,670.6,111.3,4,5,7,0,2026-04-22T00:47:43.688491+05:30
Ayodhya,Uttar Pradesh,26.7922,82.1998,27.8,37,0.0,991.5,8.05,43.9,86,264.5,56.0,4,5,7,0,2026-04-22T00:47:43.688499+05:30
Ratlam,Madhya Pradesh,23.3315,75.0367,27.1,43,0.0,954.3,8.5,29.9,74,16.7,14.2,4,5,7,0,2026-04-22T00:47:43.688506+05:30
Sagar,Madhya Pradesh,23.8388,78.7378,28.6,32,0.0,949.3,8.7,34.2,68,42.8,17.8,4,5,7,0,2026-04-22T00:47:43.688514+05:30
Satna,Madhya Pradesh,24.6005,80.8322,30.7,34,0.0,969.7,8.7,40.7,84,82.9,24.9,0,5,7,0,2026-04-22T00:47:43.688522+05:30
Akola,Maharashtra,20.7002,77.0082,30.5,39,0.0,973.7,8.85,26.3,86,32.7,28.7,0,5,7,0,2026-04-22T00:47:43.688530+05:30
Amravati,Maharashtra,20.9374,77.7796,28.8,52,0.0,965.8,8.9,22.7,86,33.1,29.5,4,5,7,1,2026-04-22T00:47:43.688539+05:30
Latur,Maharashtra,18.4088,76.5604,27.0,56,0.0,938.6,8.8,37.4,126,55.1,50.9,4,5,7,1,2026-04-22T00:47:43.688546+05:30
Nanded,Maharashtra,19.1383,77.3091,30.9,50,0.0,967.3,8.95,28.8,99,46.8,42.6,0,5,7,1,2026-04-22T00:47:43.688553+05:30
Gulbarga,Karnataka,17.3297,76.8343,28.5,60,0.0,958.0,8.85,56.2,128,46.4,43.1,4,5,7,1,2026-04-22T00:47:43.688561+05:30
Bidar,Karnataka,17.9104,77.5199,28.3,58,0.0,935.2,8.9,33.5,107,46.9,44.1,4,5,7,1,2026-04-22T00:47:43.688568+05:30
Hospet,Karnataka,15.2689,76.3909,27.7,67,0.0,955.3,9.25,37.8,116,43.1,39.8,7,5,7,1,2026-04-22T00:47:43.688575+05:30
Tirupur,Tamil Nadu,11.1085,77.3411,28.0,75,0.0,974.6,9.35,28.8,68,21.8,19.7,7,5,7,1,2026-04-22T00:47:43.688583+05:30
Alappuzha,Kerala,9.4981,76.3388,27.7,81,0.0,1008.2,8.9,25.6,70,32.1,25.6,7,0,4,1,2026-04-22T00:47:43.688590+05:30
Munnar,Kerala,10.0889,77.0595,21.9,86,0.0,856.5,9.6,32.4,73,29.8,28.3,3,5,7,1,2026-04-22T00:47:43.688599+05:30
Silchar,Assam,24.8333,92.7789,23.9,89,0.0,1003.5,8.2,44.6,142,44.6,36.4,3,5,4,1,2026-04-22T00:47:43.688606+05:30
Dibrugarh,Assam,27.4728,94.912,23.1,94,0.0,992.5,8.75,22.0,60,23.9,16.5,3,5,7,1,2026-04-22T00:47:43.688614+05:30
