city,state,latitude,longitude,temp,humidity,rain,pressure,uv_index,wind_gusts,aqi,pm10,pm2_5,mosquito_risk,arthritis_risk,migraine_risk,frizz_risk,updated_at
Delhi,Delhi,28.6139,77.209,21.2,58,0.0,984.0,6.0,26.3,194,308.3,92.2,0,5,3,0,2026-03-12T02:07:31.713089+05:30
Mumbai,Maharashtra,19.076,72.8777,27.7,88,0.0,1009.6,7.6,31.0,153,74.7,69.8,7,0,4,1,2026-03-12T02:07:31.713135+05:30
Bangalore,Karnataka,12.9716,77.5946,21.1,71,0.0,912.2,9.3,32.0,60,22.9,22.1,3,5,7,0,2026-03-12T02:07:31.713150+05:30
Hyderabad,Telangana,17.385,78.4867,23.5,58,0.0,954.4,8.65,18.7,75,46.4,36.9,0,5,7,0,2026-03-12T02:07:31.713160+05:30
Chennai,Tamil Nadu,13.0827,80.2707,24.1,92,0.0,1008.9,9.05,29.5,67,28.8,24.2,3,0,4,1,2026-03-12T02:07:31.713169+05:30
Kolkata,West Bengal,22.5726,88.3639,24.2,97,0.0,1007.2,8.0,24.5,134,39.5,36.4,3,5,4,1,2026-03-12T02:07:31.713178+05:30
Pune,Maharashtra,18.5204,73.8567,21.4,92,0.0,949.4,8.15,28.4,121,79.2,75.0,3,5,7,1,2026-03-12T02:07:31.713205+05:30
Ahmedabad,Gujarat,23.0225,72.5714,25.0,31,0.0,1003.7,7.45,29.2,70,24.6,23.7,4,5,4,0,2026-03-12T02:07:31.713215+05:30
Jaipur,Rajasthan,26.9124,75.7873,24.4,27,0.0,961.5,5.9,38.2,100,102.0,27.8,0,5,3,0,2026-03-12T02:07:31.713222+05:30
Lucknow,Uttar Pradesh,26.8467,80.9462,23.3,68,0.0,993.8,6.5,30.2,171,297.1,62.4,3,5,7,1,2026-03-12T02:07:31.713230+05:30
Kanpur,Uttar Pradesh,26.4499,80.3319,22.7,71,0.0,992.4,6.05,25.2,168,425.6,71.2,3,5,7,1,2026-03-12T02:07:31.713237+05:30
Chandigarh,Chandigarh,30.7333,76.7794,20.4,65,0.0,969.7,5.75,27.7,120,56.7,44.0,3,5,3,0,2026-03-12T02:07:31.713245+05:30
Srinagar,Jammu and Kashmir,34.0837,74.7973,8.3,95,0.0,842.3,6.95,22.3,111,39.5,34.1,3,10,7,0,2026-03-12T02:07:31.713252+05:30
Jammu,Jammu and Kashmir,32.7266,74.857,19.4,61,0.0,973.9,6.65,24.8,78,24.4,18.7,3,5,7,0,2026-03-12T02:07:31.713259+05:30
Amritsar,Punjab,31.634,74.8723,21.0,87,0.0,982.1,6.65,18.4,156,65.2,51.8,3,5,7,1,2026-03-12T02:07:31.713267+05:30
Ludhiana,Punjab,30.901,75.8573,22.7,62,0.0,980.0,5.95,37.8,170,151.3,108.7,3,5,3,0,2026-03-12T02:07:31.713275+05:30
Jalandhar,Punjab,31.326,75.5762,21.0,78,0.0,981.3,6.35,31.7,166,146.2,108.7,3,5,7,1,2026-03-12T02:07:31.713284+05:30
Dehradun,Uttarakhand,30.6284,78.0322,14.7,57,0.0,830.2,5.25,29.2,65,37.1,26.8,0,5,3,0,2026-03-12T02:07:31.713291+05:30
Shimla,Himachal Pradesh,31.1048,77.1734,12.1,74,0.0,784.3,5.85,38.2,92,49.6,38.6,3,5,3,0,2026-03-12T02:07:31.713298+05:30
Manali,Himachal Pradesh,32.2396,77.1887,14.1,64,0.0,821.6,3.55,40.7,48,17.2,6.6,3,5,3,0,2026-03-12T02:07:31.713307+05:30
Gurgaon,Haryana,28.4595,77.0266,18.5,68,0.0,982.5,6.05,22.0,671,486.2,112.0,3,5,7,0,2026-03-12T02:07:31.713314+05:30
Noida,Uttar Pradesh,28.5355,77.391,21.3,58,0.0,985.5,6.1,26.3,671,486.2,112.0,0,5,7,0,2026-03-12T02:07:31.713321+05:30
Ghaziabad,Uttar Pradesh,28.6692,77.4538,19.9,65,0.0,983.6,6.05,26.3,167,284.1,78.9,3,5,7,0,2026-03-12T02:07:31.713328+05:30
Faridabad,Haryana,28.4089,77.3178,19.0,62,0.0,984.7,5.75,23.4,671,486.2,112.0,3,5,3,0,2026-03-12T02:07:31.713334+05:30
Meerut,Uttar Pradesh,28.9845,77.7064,18.9,78,0.0,982.2,5.65,31.7,167,284.1,78.9,3,5,3,0,2026-03-12T02:07:31.713340+05:30
Agra,Uttar Pradesh,27.1767,78.0081,19.8,71,0.0,988.9,6.05,19.4,367,534.6,96.4,3,5,7,0,2026-03-12T02:07:31.713346+05:30
Varanasi,Uttar Pradesh,25.3176,82.9739,22.5,73,0.0,998.2,7.3,24.1,175,113.4,57.4,3,5,7,1,2026-03-12T02:07:31.713355+05:30
Prayagraj,Uttar Pradesh,25.4358,81.8463,23.6,64,0.0,996.8,6.75,23.4,176,154.1,72.9,3,5,7,1,2026-03-12T02:07:31.713362+05:30
Gorakhpur,Uttar Pradesh,26.7606,83.3732,21.7,87,0.0,997.6,6.85,20.2,205,167.6,153.2,3,5,7,1,2026-03-12T02:07:31.713369+05:30
Bareilly,Uttar Pradesh,28.367,79.4304,19.5,78,0.0,987.1,5.65,29.5,184,136.4,51.1,3,5,3,0,2026-03-12T02:07:31.713377+05:30
Aligarh,Uttar Pradesh,27.8974,78.088,18.6,62,0.0,986.6,5.35,29.5,433,484.3,115.9,3,5,3,0,2026-03-12T02:07:31.713384+05:30
Moradabad,Uttar Pradesh,28.8386,78.7733,19.7,78,0.0,984.1,5.55,35.3,177,138.3,51.3,3,5,3,0,2026-03-12T02:07:31.713390+05:30
Saharanpur,Uttar Pradesh,29.9637,77.546,19.6,69,0.0,976.3,5.6,34.9,159,99.9,73.6,3,5,3,0,2026-03-12T02:07:31.713396+05:30
Jhansi,Uttar Pradesh,25.4484,78.5685,21.6,58,0.0,978.8,6.75,27.4,90,25.1,17.2,0,5,7,0,2026-03-12T02:07:34.931631+05:30
Surat,Gujarat,21.1702,72.8311,25.7,76,0.0,1007.7,7.35,24.5,152,65.0,63.1,7,5,4,1,2026-03-12T02:07:34.931660+05:30
Vadodara,Gujarat,22.3072,73.1812,25.8,36,0.0,1005.6,7.5,23.8,73,29.6,28.4,4,5,4,0,2026-03-12T02:07:34.931671+05:30
Rajkot,Gujarat,22.3039,70.8022,23.2,47,0.0,996.6,7.3,28.1,67,8.8,8.6,0,5,7,0,2026-03-12T02:07:34.931679+05:30
Thane,Maharashtra,19.2183,72.9781,25.4,97,0.0,1009.2,7.6,42.1,153,74.7,69.8,7,0,4,1,2026-03-12T02:07:34.931686+05:30
Nagpur,Maharashtra,21.1458,79.0882,22.3,67,0.0,974.1,8.05,15.5,84,47.0,30.7,3,5,7,0,2026-03-12T02:07:34.931694+05:30
Nashik,Maharashtra,19.9975,73.7898,22.8,62,0.0,946.6,7.8,34.2,113,57.9,54.8,3,5,7,0,2026-03-12T02:07:34.931701+05:30
Aurangabad,Maharashtra,19.8762,75.3433,22.0,51,0.0,944.6,8.35,20.9,106,50.9,45.4,0,5,7,0,2026-03-12T02:07:34.931708+05:30
Solapur,Maharashtra,17.6599,75.9064,25.1,66,0.0,958.1,8.55,16.6,98,38.8,33.8,7,5,7,1,2026-03-12T02:07:34.931715+05:30
Kolhapur,Maharashtra,16.705,74.2433,21.9,95,0.0,948.8,8.65,26.3,145,73.6,69.4,3,5,7,1,2026-03-12T02:07:34.931722+05:30
Goa,Goa,15.2993,74.124,27.5,83,0.0,999.0,8.7,36.4,150,78.9,69.4,7,5,7,1,2026-03-12T02:07:34.931729+05:30
Jodhpur,Rajasthan,26.2389,73.0243,24.2,28,0.0,985.0,6.4,28.1,87,137.4,25.4,0,5,7,0,2026-03-12T02:07:34.931736+05:30
Udaipur,Rajasthan,24.5854,73.7125,20.8,33,0.0,948.7,7.4,32.4,51,16.4,15.3,0,5,7,0,2026-03-12T02:07:34.931743+05:30
Kota,Rajasthan,25.2138,75.8648,20.2,53,0.0,980.3,6.7,29.9,77,58.9,31.5,0,5,7,0,2026-03-12T02:07:34.931749+05:30
Bikaner,Rajasthan,28.0229,73.3119,23.4,31,0.0,983.0,5.95,23.0,74,121.5,32.6,0,5,3,0,2026-03-12T02:07:34.931756+05:30
Ajmer,Rajasthan,26.4499,74.6399,22.2,38,0.0,956.3,6.05,34.6,72,60.8,19.2,0,5,7,0,2026-03-12T02:07:34.931762+05:30
Gwalior,Madhya Pradesh,26.2183,78.1828,24.3,41,0.0,984.4,6.45,32.8,98,50.3,22.7,0,5,7,0,2026-03-12T02:07:34.931768+05:30
Indore,Madhya Pradesh,22.7196,75.8577,20.0,47,0.0,949.0,7.75,25.9,66,33.8,23.4,0,5,7,0,2026-03-12T02:07:34.931774+05:30
Bhopal,Madhya Pradesh,23.2599,77.4126,22.5,37,0.0,954.8,7.6,29.5,70,38.8,28.5,0,5,7,0,2026-03-12T02:07:34.931781+05:30
Jabalpur,Madhya Pradesh,23.1815,79.9864,24.0,35,0.0,962.4,7.75,21.2,96,84.8,39.0,0,5,7,0,2026-03-12T02:07:34.931789+05:30
Ujjain,Madhya Pradesh,23.1765,75.7885,21.7,47,0.0,954.9,7.65,23.8,76,52.2,44.2,0,5,7,0,2026-03-12T02:07:34.931796+05:30
Visakhapatnam,Andhra Pradesh,17.6868,83.2185,25.2,82,0.0,1004.6,8.65,41.4,86,21.2,18.6,7,5,4,1,2026-03-12T02:07:34.931803+05:30
Vijayawada,Andhra Pradesh,16.5062,80.648,23.8,83,0.0,1004.0,8.7,27.0,81,16.1,15.2,3,5,4,1,2026-03-12T02:07:34.931810+05:30
Guntur,Andhra Pradesh,16.3067,80.4365,23.0,87,0.0,1005.3,8.7,33.1,72,15.2,14.5,3,5,4,1,2026-03-12T02:07:34.931816+05:30
Nellore,Andhra Pradesh,14.4426,79.9865,23.2,93,0.0,1007.4,8.9,31.3,63,19.2,16.9,3,5,4,1,2026-03-12T02:07:34.931823+05:30
Kurnool,Andhra Pradesh,15.8281,78.0373,26.5,49,0.0,977.9,8.7,24.8,67,27.0,23.6,4,5,7,0,2026-03-12T02:07:34.931831+05:30
Kakinada,Andhra Pradesh,16.9891,82.2475,22.8,92,0.0,1009.0,8.65,34.2,77,18.7,15.3,3,0,4,1,2026-03-12T02:07:34.931837+05:30
Tirupati,Andhra Pradesh,13.6288,79.4192,21.5,85,0.0,993.6,9.05,33.5,77,37.0,35.5,3,5,7,1,2026-03-12T02:07:34.931843+05:30
Warangal,Telangana,17.9689,79.5941,25.3,57,0.0,979.2,8.5,12.2,82,37.1,33.3,4,5,7,1,2026-03-12T02:07:34.931849+05:30
Nizamabad,Telangana,18.6725,78.0941,24.2,53,0.0,965.4,8.35,24.8,117,54.6,49.0,0,5,7,0,2026-03-12T02:07:34.931856+05:30
Mysore,Karnataka,12.2958,76.6396,20.6,71,0.0,928.5,9.3,34.9,60,16.5,15.8,3,5,7,0,2026-03-12T02:07:34.931862+05:30
Mangalore,Karnataka,12.9141,74.856,28.9,79,0.0,1007.5,8.95,32.8,102,45.8,40.3,7,5,4,1,2026-03-12T02:07:34.931868+05:30
Hubli-Dharwad,Karnataka,15.3647,75.124,21.5,74,0.0,941.5,8.85,25.9,66,25.2,22.2,3,5,7,1,2026-03-12T02:07:34.931875+05:30
Belgaum,Karnataka,15.8497,74.4977,21.9,83,0.0,926.4,8.95,33.1,102,61.0,53.4,3,5,7,1,2026-03-12T02:07:38.151772+05:30
Coimbatore,Tamil Nadu,11.0168,76.9558,23.1,78,0.0,963.1,9.3,44.3,71,31.0,29.9,3,5,7,1,2026-03-12T02:07:38.151802+05:30
Madurai,Tamil Nadu,9.9252,78.1198,25.0,89,0.0,994.6,9.25,25.9,62,18.6,17.3,7,5,7,1,2026-03-12T02:07:38.151813+05:30
Trichy,Tamil Nadu,10.7905,78.7047,24.4,95,0.0,1001.4,9.15,23.4,65,22.4,20.3,3,5,4,1,2026-03-12T02:07:38.151821+05:30
Salem,Tamil Nadu,11.6643,78.146,24.2,83,0.0,978.7,9.2,25.9,68,24.9,23.7,3,5,7,1,2026-03-12T02:07:38.151829+05:30
Tirunelveli,Tamil Nadu,8.7139,77.7567,24.4,83,0.0,1004.8,9.05,42.1,54,18.2,16.6,3,5,4,1,2026-03-12T02:07:38.151837+05:30
Vellore,Tamil Nadu,12.9165,79.1325,22.3,95,0.0,986.5,9.1,33.1,89,46.1,43.9,3,5,7,1,2026-03-12T02:07:38.151845+05:30
Erode,Tamil Nadu,11.341,77.7172,24.8,87,0.0,990.6,9.2,23.0,72,20.2,19.3,3,5,7,1,2026-03-12T02:07:38.151852+05:30
Kochi,Kerala,9.9312,76.2673,26.8,85,0.0,1009.5,9.1,36.4,111,49.9,48.4,7,0,4,1,2026-03-12T02:07:38.151860+05:30
Thiruvananthapuram,Kerala,8.5241,76.9366,27.1,82,0.0,1008.6,9.1,24.1,73,23.7,20.1,7,0,4,1,2026-03-12T02:07:38.151867+05:30
Kozhikode,Kerala,11.2588,75.7804,28.4,81,0.0,1008.2,9.0,32.4,111,37.8,32.4,7,0,4,1,2026-03-12T02:07:38.151874+05:30
Thrissur,Kerala,10.5276,76.2144,26.6,87,0.0,1007.8,9.05,38.2,87,51.2,49.1,7,5,4,1,2026-03-12T02:07:38.151882+05:30
Kannur,Kerala,11.8745,75.3704,27.3,84,0.0,1007.6,9.0,32.8,116,41.7,37.4,7,5,4,1,2026-03-12T02:07:38.151889+05:30
Patna,Bihar,25.5941,85.1376,24.8,88,0.0,1001.3,7.5,29.5,202,186.7,176.0,3,5,4,1,2026-03-12T02:07:38.151896+05:30
Gaya,Bihar,24.7914,85.0002,24.2,88,0.0,995.0,7.35,20.2,180,143.4,134.1,3,5,7,1,2026-03-12T02:07:38.151903+05:30
Muzaffarpur,Bihar,26.1209,85.3647,23.8,87,0.0,1001.1,7.45,31.7,213,195.1,183.5,3,5,4,1,2026-03-12T02:07:38.151909+05:30
Bhagalpur,Bihar,25.2425,87.0117,23.3,95,0.0,1002.1,7.5,21.6,174,108.7,99.9,3,5,4,1,2026-03-12T02:07:38.151916+05:30
Ranchi,Jharkhand,23.3441,85.3096,20.9,74,0.0,938.4,8.2,34.9,169,112.9,98.5,3,5,7,0,2026-03-12T02:07:38.151923+05:30
Jamshedpur,Jharkhand,22.8046,86.2029,23.8,89,0.0,992.1,8.05,18.4,163,86.1,75.2,3,5,7,1,2026-03-12T02:07:38.151930+05:30
Dhanbad,Jharkhand,23.7957,86.4304,23.1,85,0.0,980.9,6.9,21.6,195,167.2,158.3,3,5,7,1,2026-03-12T02:07:38.151937+05:30
Bokaro,Jharkhand,23.6693,86.1511,23.3,89,0.0,985.1,8.0,22.0,192,154.6,143.4,3,5,7,1,2026-03-12T02:07:38.151944+05:30
Bhubaneswar,Odisha,20.2961,85.8245,25.1,88,0.0,1003.0,8.35,35.3,89,20.0,17.0,7,5,4,1,2026-03-12T02:07:38.151951+05:30
Cuttack,Odisha,20.4625,85.8828,25.1,89,0.0,1005.1,8.4,31.3,89,20.0,17.0,7,5,4,1,2026-03-12T02:07:38.151957+05:30
Rourkela,Odisha,22.2604,84.8536,22.8,82,0.0,985.8,8.0,16.6,163,90.3,82.0,3,5,7,1,2026-03-12T02:07:38.151964+05:30
Raipur,Chhattisgarh,21.2514,81.6296,23.4,41,0.0,975.5,8.1,15.1,160,119.7,97.1,0,5,7,0,2026-03-12T02:07:38.151970+05:30
Bhilai,Chhattisgarh,21.1938,81.3509,22.6,41,0.0,975.7,8.1,13.7,155,94.1,69.2,0,5,7,0,2026-03-12T02:07:38.151977+05:30
Guwahati,Assam,26.1158,91.7086,24.4,83,0.0,1002.1,6.95,22.0,152,55.5,50.5,3,5,4,1,2026-03-12T02:07:38.151983+05:30
Agartala,Tripura,23.8315,91.2868,22.2,92,0.0,1007.6,7.75,18.4,172,85.9,80.3,3,5,4,1,2026-03-12T02:07:38.151990+05:30
Shillong,Meghalaya,25.5788,91.8933,12.1,93,0.0,855.1,7.55,34.2,113,32.6,30.4,3,10,7,0,2026-03-12T02:07:38.151997+05:30
Imphal,Manipur,24.817,93.9368,17.0,88,0.0,923.9,8.0,39.6,162,122.5,115.0,3,10,7,0,2026-03-12T02:07:38.152005+05:30
Aizawl,Mizoram,23.7271,92.7176,16.2,89,0.0,892.6,7.9,32.8,189,144.4,137.8,3,10,7,0,2026-03-12T02:07:38.152012+05:30
Kohima,Nagaland,25.6701,94.1077,14.7,89,0.0,854.9,7.1,46.8,153,77.1,72.4,3,10,7,0,2026-03-12T02:07:38.152019+05:30
Gangtok,Sikkim,27.3314,88.6138,14.6,92,0.0,837.0,7.4,24.8,116,39.6,35.6,3,10,7,0,2026-03-12T02:07:38.152026+05:30
Siliguri,West Bengal,26.7271,88.3953,20.4,77,0.0,994.8,7.15,23.0,171,119.7,109.2,3,5,7,1,2026-03-12T02:07:41.375746+05:30
Durgapur,West Bengal,23.5204,87.3119,23.0,88,0.0,996.1,7.65,24.1,166,120.6,113.4,3,5,7,1,2026-03-12T02:07:41.375776+05:30
Asansol,West Bengal,23.6739,86.9524,23.2,90,0.0,994.6,7.65,28.8,174,130.4,122.5,3,5,7,1,2026-03-12T02:07:41.375785+05:30
Pondicherry,Puducherry,11.9139,79.8145,24.1,97,0.0,1010.2,9.0,28.4,59,22.2,17.9,3,0,4,1,2026-03-12T02:07:41.375793+05:30
Port Blair,Andaman and Nicobar Islands,11.6234,92.7265,27.4,82,0.0,1007.3,8.95,21.2,55,12.5,10.1,7,5,4,1,2026-03-12T02:07:41.375801+05:30
Haridwar,Uttarakhand,29.9457,78.1642,18.8,84,0.0,974.9,5.45,27.4,137,57.4,49.4,3,10,3,0,2026-03-12T02:07:41.375808+05:30
Rishikesh,Uttarakhand,30.0869,78.2676,19.5,76,0.0,967.7,5.1,22.0,116,40.7,33.9,3,5,3,0,2026-03-12T02:07:41.375816+05:30
Nainital,Uttarakhand,29.3919,79.4542,19.2,48,0.0,806.6,5.95,58.7,151,34.5,27.6,0,5,3,0,2026-03-12T02:07:41.375823+05:30
Mussoorie,Uttarakhand,30.4599,78.0664,17.0,50,0.0,803.3,5.0,35.3,105,47.6,41.9,0,5,3,0,2026-03-12T02:07:41.375830+05:30
Dharamshala,Himachal Pradesh,32.219,76.3234,20.7,31,0.0,870.9,5.95,31.3,51,9.6,3.7,0,5,3,0,2026-03-12T02:07:41.375836+05:30
Dalhousie,Himachal Pradesh,32.5387,75.971,17.0,31,0.0,804.9,6.05,26.6,76,16.8,11.9,0,5,7,1,2026-03-12T02:07:41.375843+05:30
Patiala,Punjab,30.3398,76.3869,21.0,63,0.0,979.2,5.75,33.5,165,134.1,102.0,3,5,3,0,2026-03-12T02:07:41.375850+05:30
Bhatinda,Punjab,30.211,74.9455,21.2,74,0.0,984.9,6.6,40.7,151,112.9,91.5,3,5,7,1,2026-03-12T02:07:41.375857+05:30
Rohtak,Haryana,28.8955,76.6066,19.7,66,0.0,982.8,5.75,23.4,217,353.9,106.2,3,5,3,0,2026-03-12T02:07:41.375863+05:30
Panipat,Haryana,29.3909,76.9635,18.9,77,0.0,981.2,5.85,28.4,353,266.4,88.9,3,5,3,0,2026-03-12T02:07:41.375869+05:30
Mathura,Uttar Pradesh,27.4924,77.6737,17.8,75,0.0,988.2,5.7,25.6,356,328.8,71.7,3,5,3,0,2026-03-12T02:07:41.375876+05:30
Vrindavan,Uttar Pradesh,27.5823,77.7027,16.9,75,0.0,988.7,5.45,28.1,356,328.8,71.7,3,5,3,0,2026-03-12T02:07:41.375882+05:30
Ayodhya,Uttar Pradesh,26.7922,82.1998,21.6,81,0.0,995.6,6.65,27.4,176,161.1,64.5,3,5,7,1,2026-03-12T02:07:41.375888+05:30
Ratlam,Madhya Pradesh,23.3315,75.0367,24.2,37,0.0,955.7,7.6,31.3,73,52.3,45.3,0,5,7,0,2026-03-12T02:07:41.375895+05:30
Sagar,Madhya Pradesh,23.8388,78.7378,23.5,39,0.0,951.5,7.6,27.0,77,46.0,23.5,0,5,7,0,2026-03-12T02:07:41.375902+05:30
Satna,Madhya Pradesh,24.6005,80.8322,22.7,48,0.0,972.5,7.55,33.5,129,51.6,26.8,0,5,7,0,2026-03-12T02:07:41.375908+05:30
Akola,Maharashtra,20.7002,77.0082,23.4,51,0.0,975.8,8.05,24.1,84,48.2,40.2,0,5,7,0,2026-03-12T02:07:41.375915+05:30
Amravati,Maharashtra,20.9374,77.7796,24.0,56,0.0,968.0,8.0,16.6,84,50.3,38.6,0,5,7,0,2026-03-12T02:07:41.375922+05:30
Latur,Maharashtra,18.4088,76.5604,24.3,48,0.0,940.7,8.45,19.4,103,40.9,36.0,0,5,7,0,2026-03-12T02:07:41.375928+05:30
Nanded,Maharashtra,19.1383,77.3091,25.8,52,0.0,969.4,8.25,17.6,115,47.6,43.2,4,5,7,0,2026-03-12T02:07:41.375934+05:30
Gulbarga,Karnataka,17.3297,76.8343,26.9,48,0.0,960.0,8.55,17.3,83,46.0,38.8,4,5,7,0,2026-03-12T02:07:41.375940+05:30
Bidar,Karnataka,17.9104,77.5199,25.2,50,0.0,936.6,8.5,23.0,98,61.5,53.9,4,5,7,0,2026-03-12T02:07:41.375946+05:30
Hospet,Karnataka,15.2689,76.3909,26.7,51,0.0,957.0,8.85,27.7,63,36.4,31.4,4,5,7,0,2026-03-12T02:07:41.375952+05:30
Tirupur,Tamil Nadu,11.1085,77.3411,24.9,81,0.0,976.9,9.3,32.8,79,22.2,21.5,3,5,7,1,2026-03-12T02:07:41.375959+05:30
Alappuzha,Kerala,9.4981,76.3388,26.3,88,0.0,1009.8,9.0,30.6,106,46.6,42.7,7,0,4,1,2026-03-12T02:07:41.375966+05:30
Munnar,Kerala,10.0889,77.0595,18.5,85,0.0,856.1,9.55,27.0,63,24.3,23.5,3,10,7,0,2026-03-12T02:07:41.375972+05:30
Silchar,Assam,24.8333,92.7789,22.0,92,0.0,1007.2,7.7,20.9,175,132.7,122.5,3,5,4,1,2026-03-12T02:07:41.375979+05:30
Dibrugarh,Assam,27.4728,94.912,21.6,92,0.0,997.6,7.45,22.7,157,65.9,62.9,3,5,7,1,2026-03-12T02:07:41.375985+05:30
