city,state,latitude,longitude,temp,humidity,rain,pressure,uv_index,wind_gusts,aqi,pm10,pm2_5,no2,co,o3,so2,mosquito_risk,arthritis_risk,migraine_risk,frizz_risk,updated_at
Delhi,Delhi,28.6139,77.209,28.8,48,0.0,979.4,7.6,38.5,220,324.1,75.4,21.5,640.0,111.0,26.5,4,5,7,1,2026-05-02T08:26:25.352214+05:30
Mumbai,Maharashtra,19.076,72.8777,29.2,76,0.0,1008.0,7.9,41.8,70,71.7,23.9,12.9,260.0,60.0,20.3,7,0,4,1,2026-05-02T08:26:25.352254+05:30
Bangalore,Karnataka,12.9716,77.5946,24.5,81,0.0,913.0,9.5,45.0,89,38.1,33.4,18.1,625.0,75.0,10.3,3,5,7,1,2026-05-02T08:26:25.352271+05:30
Hyderabad,Telangana,17.385,78.4867,31.1,33,0.0,953.0,9.25,33.5,80,28.4,22.4,14.2,400.0,81.0,11.2,0,5,7,0,2026-05-02T08:26:25.352282+05:30
Chennai,Tamil Nadu,13.0827,80.2707,32.4,62,0.0,1006.8,9.25,54.4,57,12.1,10.2,13.0,398.0,65.0,13.3,3,5,4,1,2026-05-02T08:26:25.352292+05:30
Kolkata,West Bengal,22.5726,88.3639,28.8,81,0.0,1004.4,8.9,36.0,66,19.3,16.2,10.6,414.0,74.0,8.9,7,5,4,1,2026-05-02T08:26:25.352300+05:30
Pune,Maharashtra,18.5204,73.8567,27.6,46,0.0,947.9,8.5,49.7,56,61.0,20.2,10.5,238.0,62.0,12.2,4,5,7,0,2026-05-02T08:26:25.352308+05:30
Ahmedabad,Gujarat,23.0225,72.5714,30.0,66,0.0,999.6,8.1,48.2,54,26.3,13.9,5.6,239.0,60.0,7.5,7,5,7,1,2026-05-02T08:26:25.352320+05:30
Jaipur,Rajasthan,26.9124,75.7873,28.7,45,0.0,955.9,8.15,38.5,129,173.2,47.6,9.7,447.0,87.0,7.6,4,5,7,0,2026-05-02T08:26:25.352329+05:30
Lucknow,Uttar Pradesh,26.8467,80.9462,27.0,60,0.0,991.3,8.1,32.4,93,43.1,30.7,7.9,410.0,113.0,9.7,4,5,7,1,2026-05-02T08:26:25.352337+05:30
Kanpur,Uttar Pradesh,26.4499,80.3319,28.6,54,0.0,989.1,8.1,35.6,132,252.4,51.3,7.4,404.0,115.0,10.5,4,5,7,1,2026-05-02T08:26:25.352344+05:30
Chandigarh,Chandigarh,30.7333,76.7794,28.1,48,0.0,965.7,7.6,34.9,98,54.6,33.4,10.0,364.0,131.0,13.8,4,5,7,1,2026-05-02T08:26:25.352352+05:30
Srinagar,Jammu and Kashmir,34.0837,74.7973,13.1,80,0.0,839.8,8.75,41.8,75,29.6,26.2,10.3,561.0,79.0,4.1,3,5,7,0,2026-05-02T08:26:25.352360+05:30
Jammu,Jammu and Kashmir,32.7266,74.857,26.5,50,0.0,968.4,8.4,33.8,62,21.1,20.0,17.1,331.0,82.0,3.6,4,5,7,0,2026-05-02T08:26:25.352368+05:30
Amritsar,Punjab,31.634,74.8723,28.6,46,0.0,976.5,8.25,34.2,120,33.8,26.1,7.4,627.0,104.0,7.9,4,5,7,0,2026-05-02T08:26:25.352375+05:30
Ludhiana,Punjab,30.901,75.8573,27.0,56,0.0,975.0,7.8,32.0,157,347.4,85.0,10.3,559.0,99.0,14.5,4,5,7,1,2026-05-02T08:26:25.352383+05:30
Jalandhar,Punjab,31.326,75.5762,26.6,55,0.0,975.8,8.05,27.7,153,123.4,55.6,14.8,555.0,90.0,15.2,4,5,7,1,2026-05-02T08:26:25.352389+05:30
Dehradun,Uttarakhand,30.6284,78.0322,16.0,84,0.1,827.9,8.05,42.1,69,5.1,4.8,3.8,283.0,118.0,2.9,6,10,7,0,2026-05-02T08:26:25.352399+05:30
Shimla,Himachal Pradesh,31.1048,77.1734,16.2,50,0.0,782.8,8.1,49.0,71,31.0,24.6,7.6,216.0,117.0,1.7,0,5,7,0,2026-05-02T08:26:25.352407+05:30
Manali,Himachal Pradesh,32.2396,77.1887,16.2,39,0.0,815.3,9.6,41.0,45,5.1,3.5,8.9,181.0,132.0,0.3,0,5,7,0,2026-05-02T08:26:25.352416+05:30
Gurgaon,Haryana,28.4595,77.0266,29.2,47,0.0,977.7,7.7,32.4,1045,787.9,124.3,15.8,547.0,112.0,19.8,4,5,7,1,2026-05-02T08:26:25.352423+05:30
Noida,Uttar Pradesh,28.5355,77.391,27.5,58,0.0,981.1,7.65,27.4,1045,787.9,124.3,15.8,514.0,112.0,19.8,4,5,7,1,2026-05-02T08:26:25.352430+05:30
Ghaziabad,Uttar Pradesh,28.6692,77.4538,27.2,59,0.0,979.5,7.6,33.5,150,203.5,56.2,8.5,387.0,110.0,16.8,4,5,7,1,2026-05-02T08:26:25.352436+05:30
Faridabad,Haryana,28.4089,77.3178,27.5,54,0.0,980.3,7.65,42.8,1045,787.9,124.3,15.8,499.0,112.0,19.8,4,5,7,1,2026-05-02T08:26:25.352443+05:30
Meerut,Uttar Pradesh,28.9845,77.7064,26.0,69,0.0,978.8,7.5,29.2,150,203.5,56.2,8.5,377.0,110.0,16.8,7,5,7,1,2026-05-02T08:26:25.352450+05:30
Agra,Uttar Pradesh,27.1767,78.0081,29.9,52,0.0,984.1,7.95,49.3,707,696.6,101.7,7.7,404.0,117.0,12.5,4,5,7,1,2026-05-02T08:26:25.352456+05:30
Varanasi,Uttar Pradesh,25.3176,82.9739,27.2,63,0.0,995.8,8.6,30.6,101,62.2,46.9,10.3,490.0,119.0,18.8,7,5,7,1,2026-05-02T08:26:25.352464+05:30
Prayagraj,Uttar Pradesh,25.4358,81.8463,28.2,59,0.0,993.8,8.5,33.5,100,57.7,44.4,9.8,488.0,120.0,15.3,4,5,7,1,2026-05-02T08:26:25.352473+05:30
Gorakhpur,Uttar Pradesh,26.7606,83.3732,25.4,71,0.0,996.7,8.45,31.7,77,31.1,27.5,7.9,443.0,108.0,7.4,7,5,7,1,2026-05-02T08:26:25.352480+05:30
Bareilly,Uttar Pradesh,28.367,79.4304,26.7,63,0.0,984.9,7.9,34.2,106,108.0,40.7,8.1,356.0,109.0,8.8,7,5,7,1,2026-05-02T08:26:25.352486+05:30
Aligarh,Uttar Pradesh,27.8974,78.088,28.6,59,0.0,982.3,7.75,29.2,520,491.7,86.6,7.0,373.0,112.0,16.4,4,5,7,1,2026-05-02T08:26:25.352493+05:30
Moradabad,Uttar Pradesh,28.8386,78.7733,26.1,65,0.0,981.6,7.7,35.6,121,77.8,39.9,8.0,365.0,105.0,9.4,7,5,7,1,2026-05-02T08:26:25.352500+05:30
Saharanpur,Uttar Pradesh,29.9637,77.546,25.4,66,0.0,973.2,7.35,35.3,125,77.3,50.4,11.2,368.0,110.0,10.1,7,5,7,1,2026-05-02T08:26:25.352506+05:30
Jhansi,Uttar Pradesh,25.4484,78.5685,31.9,36,0.0,974.0,8.4,32.4,74,50.6,26.5,4.5,294.0,91.0,8.5,0,5,7,0,2026-05-02T08:26:28.683142+05:30
Surat,Gujarat,21.1702,72.8311,30.7,71,0.0,1005.3,7.7,53.6,63,40.3,22.0,18.2,280.0,57.0,35.1,3,5,4,1,2026-05-02T08:26:28.683173+05:30
Vadodara,Gujarat,22.3072,73.1812,30.4,71,0.0,1002.2,8.05,50.0,54,28.6,14.9,8.6,186.0,58.0,12.0,3,5,4,1,2026-05-02T08:26:28.683188+05:30
Rajkot,Gujarat,22.3039,70.8022,29.6,68,0.0,991.7,7.75,56.9,50,23.2,10.8,3.3,165.0,69.0,3.8,7,5,7,1,2026-05-02T08:26:28.683197+05:30
Thane,Maharashtra,19.2183,72.9781,29.2,73,0.0,1007.4,7.95,38.9,70,71.7,23.9,12.9,245.0,60.0,20.3,7,5,4,1,2026-05-02T08:26:28.683204+05:30
Nagpur,Maharashtra,21.1458,79.0882,33.6,36,0.0,971.7,8.95,41.8,77,27.4,19.3,6.9,277.0,98.0,16.9,0,5,7,1,2026-05-02T08:26:28.683212+05:30
Nashik,Maharashtra,19.9975,73.7898,26.2,70,0.0,944.8,8.25,47.2,62,62.6,23.5,10.4,198.0,52.0,10.5,7,5,7,1,2026-05-02T08:26:28.683220+05:30
Aurangabad,Maharashtra,19.8762,75.3433,28.1,53,0.0,943.7,9.05,40.3,55,46.1,18.3,8.3,210.0,61.0,9.3,4,5,7,1,2026-05-02T08:26:28.683227+05:30
Solapur,Maharashtra,17.6599,75.9064,29.5,42,0.0,957.3,9.05,39.2,51,39.2,15.0,5.8,200.0,65.0,4.9,4,5,7,0,2026-05-02T08:26:28.683235+05:30
Kolhapur,Maharashtra,16.705,74.2433,26.9,51,0.0,948.5,8.95,49.3,60,43.2,25.4,10.4,201.0,58.0,2.6,4,5,7,0,2026-05-02T08:26:28.683242+05:30
Goa,Goa,15.2993,74.124,29.0,73,0.0,998.9,8.95,40.3,67,51.5,27.1,5.9,172.0,65.0,2.3,7,5,7,1,2026-05-02T08:26:28.683250+05:30
Jodhpur,Rajasthan,26.2389,73.0243,31.1,43,0.0,978.2,8.35,38.5,123,216.1,39.2,2.6,173.0,70.0,3.6,0,5,7,1,2026-05-02T08:26:28.683257+05:30
Udaipur,Rajasthan,24.5854,73.7125,28.0,55,0.0,943.5,8.8,37.8,53,39.6,15.2,3.8,188.0,67.0,6.7,4,5,7,1,2026-05-02T08:26:28.683264+05:30
Kota,Rajasthan,25.2138,75.8648,31.6,55,0.0,974.8,8.35,40.3,60,16.7,12.2,4.7,228.0,78.0,11.5,0,5,7,1,2026-05-02T08:26:28.683271+05:30
Bikaner,Rajasthan,28.0229,73.3119,31.6,34,0.0,976.2,8.3,28.8,64,56.9,19.9,2.7,202.0,80.0,3.1,0,5,7,0,2026-05-02T08:26:28.683278+05:30
Ajmer,Rajasthan,26.4499,74.6399,30.7,44,0.0,950.6,8.3,49.7,61,33.9,15.4,3.1,196.0,76.0,5.0,0,5,7,1,2026-05-02T08:26:28.683284+05:30
Gwalior,Madhya Pradesh,26.2183,78.1828,29.6,48,0.0,979.2,8.2,52.6,90,63.3,28.9,4.0,296.0,117.0,9.6,4,5,7,1,2026-05-02T08:26:28.683291+05:30
Indore,Madhya Pradesh,22.7196,75.8577,28.4,65,0.0,946.4,8.4,50.0,56,25.4,13.3,4.9,229.0,64.0,9.9,7,5,7,1,2026-05-02T08:26:28.683298+05:30
Bhopal,Madhya Pradesh,23.2599,77.4126,30.4,52,0.0,951.8,8.7,49.7,67,18.2,12.6,3.0,212.0,85.0,8.6,0,5,7,1,2026-05-02T08:26:28.683305+05:30
Jabalpur,Madhya Pradesh,23.1815,79.9864,32.0,32,0.0,959.2,8.85,44.6,82,38.1,18.8,7.5,218.0,85.0,4.8,0,5,7,0,2026-05-02T08:26:28.683311+05:30
Ujjain,Madhya Pradesh,23.1765,75.7885,28.5,67,0.0,951.8,8.6,48.6,55,24.0,12.9,4.1,190.0,62.0,9.5,7,5,7,1,2026-05-02T08:26:28.683318+05:30
Visakhapatnam,Andhra Pradesh,17.6868,83.2185,30.6,76,0.0,1003.4,9.1,54.7,62,21.7,17.2,15.0,336.0,58.0,6.9,3,5,4,1,2026-05-02T08:26:28.683325+05:30
Vijayawada,Andhra Pradesh,16.5062,80.648,33.0,66,0.0,1001.2,9.15,45.0,70,18.6,15.2,5.7,257.0,94.0,11.1,3,5,4,1,2026-05-02T08:26:28.683331+05:30
Guntur,Andhra Pradesh,16.3067,80.4365,33.4,63,0.0,1002.2,9.2,40.0,72,21.7,20.0,7.1,292.0,107.0,11.9,3,5,4,1,2026-05-02T08:26:28.683338+05:30
Nellore,Andhra Pradesh,14.4426,79.9865,34.7,45,0.0,1004.8,9.2,49.3,78,28.4,26.1,7.7,299.0,107.0,11.2,0,5,4,1,2026-05-02T08:26:28.683346+05:30
Kurnool,Andhra Pradesh,15.8281,78.0373,32.5,36,0.0,977.1,9.2,32.8,57,22.2,13.2,6.9,209.0,65.0,4.0,0,5,7,0,2026-05-02T08:26:28.683354+05:30
Kakinada,Andhra Pradesh,16.9891,82.2475,32.0,74,0.0,1006.9,9.15,41.8,51,16.2,11.0,2.6,189.0,69.0,1.7,3,5,4,1,2026-05-02T08:26:28.683361+05:30
Tirupati,Andhra Pradesh,13.6288,79.4192,33.6,42,0.0,991.0,9.3,45.7,96,36.3,34.2,12.2,286.0,97.0,9.4,0,5,7,1,2026-05-02T08:26:28.683368+05:30
Warangal,Telangana,17.9689,79.5941,30.7,66,0.0,978.1,9.15,36.7,84,32.4,30.2,11.0,320.0,97.0,11.3,3,5,7,1,2026-05-02T08:26:28.683375+05:30
Nizamabad,Telangana,18.6725,78.0941,31.8,39,0.0,964.4,9.1,31.7,67,24.9,17.3,6.7,210.0,80.0,8.2,0,5,7,0,2026-05-02T08:26:28.683381+05:30
Mysore,Karnataka,12.2958,76.6396,26.1,77,0.0,929.9,9.4,50.4,81,35.0,30.6,8.5,280.0,82.0,1.3,7,5,7,1,2026-05-02T08:26:28.683387+05:30
Mangalore,Karnataka,12.9141,74.856,29.4,79,0.0,1007.7,9.05,41.4,70,32.2,22.9,8.8,224.0,58.0,2.3,7,5,4,1,2026-05-02T08:26:28.683394+05:30
Hubli-Dharwad,Karnataka,15.3647,75.124,24.7,77,0.0,941.8,9.2,54.0,56,27.0,15.0,4.5,207.0,69.0,1.0,3,5,7,1,2026-05-02T08:26:28.683401+05:30
Belgaum,Karnataka,15.8497,74.4977,25.9,55,0.0,926.5,9.15,48.6,57,41.8,22.9,6.9,175.0,65.0,1.6,4,5,7,0,2026-05-02T08:26:32.003433+05:30
Coimbatore,Tamil Nadu,11.0168,76.9558,27.5,77,0.0,962.8,9.0,51.8,69,27.8,23.0,5.7,286.0,94.0,4.3,7,5,7,1,2026-05-02T08:26:32.003463+05:30
Madurai,Tamil Nadu,9.9252,78.1198,32.2,54,0.0,993.8,9.2,55.8,70,30.7,28.3,19.2,399.0,84.0,8.4,0,5,7,1,2026-05-02T08:26:32.003474+05:30
Trichy,Tamil Nadu,10.7905,78.7047,32.0,65,0.0,1000.3,9.2,54.7,66,23.2,21.5,12.8,299.0,79.0,7.1,3,5,4,1,2026-05-02T08:26:32.003483+05:30
Salem,Tamil Nadu,11.6643,78.146,30.5,63,0.0,978.2,9.3,43.9,89,28.1,25.8,14.4,393.0,81.0,11.8,3,5,7,1,2026-05-02T08:26:32.003491+05:30
Tirunelveli,Tamil Nadu,8.7139,77.7567,31.8,60,0.0,1003.9,9.1,46.1,54,25.1,22.0,6.0,336.0,72.0,1.4,0,5,4,1,2026-05-02T08:26:32.003499+05:30
Vellore,Tamil Nadu,12.9165,79.1325,32.3,47,0.0,984.8,9.3,42.1,97,34.9,32.5,9.4,324.0,104.0,10.7,0,5,7,1,2026-05-02T08:26:32.003506+05:30
Erode,Tamil Nadu,11.341,77.7172,31.0,62,0.0,989.8,9.25,61.2,73,28.3,25.3,12.3,292.0,81.0,3.6,3,5,7,1,2026-05-02T08:26:32.003513+05:30
Kochi,Kerala,9.9312,76.2673,28.0,84,0.0,1009.9,8.4,38.2,73,28.6,23.2,13.5,290.0,58.0,4.2,7,0,4,1,2026-05-02T08:26:32.003520+05:30
Thiruvananthapuram,Kerala,8.5241,76.9366,27.0,90,0.0,1009.5,8.05,37.4,44,18.2,13.6,4.9,313.0,80.0,2.8,7,0,4,1,2026-05-02T08:26:32.003528+05:30
Kozhikode,Kerala,11.2588,75.7804,26.7,89,0.0,1009.1,8.85,39.6,66,26.5,16.1,2.0,349.0,78.0,1.4,7,0,4,1,2026-05-02T08:26:32.003534+05:30
Thrissur,Kerala,10.5276,76.2144,27.8,84,0.0,1008.2,6.45,34.2,73,25.3,19.8,8.1,330.0,63.0,2.7,7,0,4,1,2026-05-02T08:26:32.003542+05:30
Kannur,Kerala,11.8745,75.3704,28.1,90,0.0,1008.1,9.0,46.8,78,39.1,30.4,10.8,367.0,58.0,2.4,7,0,4,1,2026-05-02T08:26:32.003549+05:30
Patna,Bihar,25.5941,85.1376,25.2,77,0.0,999.7,8.65,28.4,97,60.3,46.3,10.3,393.0,109.0,14.5,7,5,7,1,2026-05-02T08:26:32.003556+05:30
Gaya,Bihar,24.7914,85.0002,27.3,65,0.0,992.5,8.75,26.6,92,54.2,39.9,10.6,412.0,122.0,22.0,7,5,7,1,2026-05-02T08:26:32.003562+05:30
Muzaffarpur,Bihar,26.1209,85.3647,24.5,77,0.0,1000.3,8.65,31.3,90,58.7,44.8,8.1,348.0,107.0,10.4,3,5,4,1,2026-05-02T08:26:32.003569+05:30
Bhagalpur,Bihar,25.2425,87.0117,24.8,76,0.0,1000.8,8.65,32.8,96,53.9,46.1,10.5,320.0,106.0,15.1,3,5,4,1,2026-05-02T08:26:32.003575+05:30
Ranchi,Jharkhand,23.3441,85.3096,27.4,51,0.0,936.0,9.0,43.2,102,85.2,42.1,17.3,308.0,126.0,36.8,4,5,7,1,2026-05-02T08:26:32.003582+05:30
Jamshedpur,Jharkhand,22.8046,86.2029,28.8,57,0.0,989.2,9.0,50.8,97,47.7,43.1,18.1,722.0,79.0,26.5,4,5,7,1,2026-05-02T08:26:32.003589+05:30
Dhanbad,Jharkhand,23.7957,86.4304,26.6,68,0.0,978.4,9.0,32.0,137,67.8,59.1,35.9,1553.0,77.0,75.1,7,5,7,1,2026-05-02T08:26:32.003595+05:30
Bokaro,Jharkhand,23.6693,86.1511,26.9,67,0.0,982.3,8.85,36.0,135,76.8,68.2,44.7,1441.0,59.0,98.8,7,5,7,1,2026-05-02T08:26:32.003603+05:30
Bhubaneswar,Odisha,20.2961,85.8245,30.0,74,0.0,1000.9,9.05,48.2,56,17.6,14.1,4.4,260.0,74.0,4.8,7,5,4,1,2026-05-02T08:26:32.003609+05:30
Cuttack,Odisha,20.4625,85.8828,29.9,74,0.0,1002.6,9.1,49.7,56,17.6,14.1,4.4,272.0,74.0,4.8,7,5,4,1,2026-05-02T08:26:32.003616+05:30
Rourkela,Odisha,22.2604,84.8536,29.0,55,0.0,983.2,8.95,57.2,119,90.3,51.2,13.3,536.0,137.0,54.8,4,5,7,1,2026-05-02T08:26:32.003622+05:30
Raipur,Chhattisgarh,21.2514,81.6296,33.7,29,0.0,972.5,9.0,57.2,128,46.7,37.0,21.8,459.0,131.0,7.7,0,5,7,0,2026-05-02T08:26:32.003628+05:30
Bhilai,Chhattisgarh,21.1938,81.3509,32.5,32,0.0,973.1,9.0,50.0,120,48.5,36.4,23.5,718.0,113.0,7.4,0,5,7,0,2026-05-02T08:26:32.003635+05:30
Guwahati,Assam,26.1158,91.7086,21.2,90,0.0,1002.7,6.3,25.2,60,17.6,15.7,4.3,425.0,87.0,1.9,3,5,4,1,2026-05-02T08:26:32.003641+05:30
Agartala,Tripura,23.8315,91.2868,22.4,91,0.4,1006.4,8.75,33.5,56,6.0,5.0,6.3,188.0,69.0,1.4,6,5,4,1,2026-05-02T08:26:32.003648+05:30
Shillong,Meghalaya,25.5788,91.8933,18.4,74,0.0,856.2,5.75,29.5,38,10.0,6.8,3.0,250.0,93.0,1.1,3,5,3,0,2026-05-02T08:26:32.003654+05:30
Imphal,Manipur,24.817,93.9368,20.5,79,0.1,923.5,6.75,29.5,66,5.8,5.3,3.5,308.0,71.0,1.3,6,5,7,1,2026-05-02T08:26:32.003661+05:30
Aizawl,Mizoram,23.7271,92.7176,17.7,86,0.2,892.2,9.0,41.8,27,4.5,2.7,2.9,180.0,65.0,0.2,6,10,7,0,2026-05-02T08:26:32.003667+05:30
Kohima,Nagaland,25.6701,94.1077,19.0,80,0.1,855.0,6.45,27.7,52,8.1,6.3,2.3,249.0,84.0,0.6,6,5,7,0,2026-05-02T08:26:32.003674+05:30
Gangtok,Sikkim,27.3314,88.6138,13.7,96,0.2,835.2,2.95,24.5,54,14.3,10.9,4.5,374.0,104.0,0.8,6,10,3,0,2026-05-02T08:26:32.003680+05:30
Siliguri,West Bengal,26.7271,88.3953,22.1,90,0.3,993.2,1.2,22.0,68,13.4,11.2,6.3,389.0,106.0,2.0,6,5,3,1,2026-05-02T08:26:35.335769+05:30
Durgapur,West Bengal,23.5204,87.3119,25.0,84,0.0,993.7,8.9,25.9,127,53.1,45.8,23.9,717.0,91.0,44.9,7,5,7,1,2026-05-02T08:26:35.335827+05:30
Asansol,West Bengal,23.6739,86.9524,25.9,76,0.0,992.3,8.95,30.2,123,55.2,47.1,24.2,607.0,92.0,48.5,7,5,7,1,2026-05-02T08:26:35.335838+05:30
Pondicherry,Puducherry,11.9139,79.8145,31.2,70,0.0,1008.6,9.15,58.3,55,11.6,9.9,8.3,279.0,80.0,7.6,3,0,4,1,2026-05-02T08:26:35.335847+05:30
Port Blair,Andaman and Nicobar Islands,11.6234,92.7265,32.8,51,0.0,1008.2,9.05,29.5,28,10.8,7.6,0.5,168.0,63.0,0.2,0,0,4,1,2026-05-02T08:26:35.335859+05:30
Haridwar,Uttarakhand,29.9457,78.1642,26.2,60,0.0,971.9,7.4,27.4,123,61.5,37.7,7.4,304.0,117.0,5.7,4,5,7,1,2026-05-02T08:26:35.335867+05:30
Rishikesh,Uttarakhand,30.0869,78.2676,25.1,63,0.0,964.7,7.5,28.4,114,50.6,30.7,3.6,272.0,134.0,4.0,7,5,7,1,2026-05-02T08:26:35.335875+05:30
Nainital,Uttarakhand,29.3919,79.4542,14.6,84,0.0,803.4,8.25,45.0,99,102.9,30.5,6.6,272.0,123.0,4.3,3,10,7,0,2026-05-02T08:26:35.335882+05:30
Mussoorie,Uttarakhand,30.4599,78.0664,14.0,91,0.0,800.2,7.9,51.8,114,27.7,20.7,6.4,272.0,137.0,9.7,3,10,7,0,2026-05-02T08:26:35.335889+05:30
Dharamshala,Himachal Pradesh,32.219,76.3234,22.0,45,0.0,866.5,8.25,47.5,37,7.4,5.6,3.6,221.0,116.0,0.9,0,5,7,0,2026-05-02T08:26:35.335896+05:30
Dalhousie,Himachal Pradesh,32.5387,75.971,16.8,58,0.0,802.2,8.5,42.1,59,14.0,9.9,8.8,258.0,114.0,1.9,0,5,7,0,2026-05-02T08:26:35.335904+05:30
Patiala,Punjab,30.3398,76.3869,27.0,59,0.0,974.8,7.5,32.0,437,650.1,103.1,6.8,434.0,114.0,13.6,4,5,7,1,2026-05-02T08:26:35.335911+05:30
Bhatinda,Punjab,30.211,74.9455,30.5,38,0.0,979.4,8.15,34.6,153,316.6,88.2,9.3,431.0,98.0,12.0,0,5,7,0,2026-05-02T08:26:35.335919+05:30
Rohtak,Haryana,28.8955,76.6066,29.1,47,0.0,978.0,7.65,32.0,480,570.0,110.1,16.5,526.0,115.0,24.9,4,5,7,1,2026-05-02T08:26:35.335926+05:30
Panipat,Haryana,29.3909,76.9635,26.8,61,0.0,977.2,7.45,38.5,738,653.8,106.2,13.4,420.0,110.0,22.3,7,5,7,1,2026-05-02T08:26:35.335933+05:30
Mathura,Uttar Pradesh,27.4924,77.6737,29.5,55,0.0,983.2,7.9,37.4,690,767.4,114.8,7.6,395.0,118.0,10.9,4,5,7,1,2026-05-02T08:26:35.335940+05:30
Vrindavan,Uttar Pradesh,27.5823,77.7027,29.5,54,0.0,983.6,7.85,32.8,690,767.4,114.8,7.6,392.0,118.0,10.9,4,5,7,1,2026-05-02T08:26:35.335947+05:30
Ayodhya,Uttar Pradesh,26.7922,82.1998,26.0,72,0.0,994.2,8.25,31.0,82,28.9,24.5,7.5,421.0,112.0,7.2,7,5,7,1,2026-05-02T08:26:35.335953+05:30
Ratlam,Madhya Pradesh,23.3315,75.0367,28.0,71,0.0,952.9,8.55,49.0,53,25.1,12.8,4.1,178.0,62.0,9.8,7,5,7,1,2026-05-02T08:26:35.335960+05:30
Sagar,Madhya Pradesh,23.8388,78.7378,31.0,42,0.0,947.8,8.7,45.4,62,19.8,13.6,3.1,211.0,93.0,6.6,0,5,7,1,2026-05-02T08:26:35.335966+05:30
Satna,Madhya Pradesh,24.6005,80.8322,29.2,47,0.0,968.1,8.75,49.0,76,51.7,26.0,9.9,330.0,113.0,15.9,4,5,7,1,2026-05-02T08:26:35.335973+05:30
Akola,Maharashtra,20.7002,77.0082,31.1,45,0.0,974.1,8.9,49.0,54,25.3,12.1,5.0,190.0,68.0,13.4,0,5,7,1,2026-05-02T08:26:35.335981+05:30
Amravati,Maharashtra,20.9374,77.7796,31.5,44,0.0,966.2,8.9,39.6,54,22.9,11.4,5.1,184.0,70.0,12.5,0,5,7,1,2026-05-02T08:26:35.335988+05:30
Latur,Maharashtra,18.4088,76.5604,30.5,34,0.0,940.1,9.05,31.7,56,35.2,15.4,6.2,202.0,65.0,4.9,0,5,7,0,2026-05-02T08:26:35.335994+05:30
Nanded,Maharashtra,19.1383,77.3091,31.5,40,0.0,968.2,8.95,37.1,58,26.7,14.6,6.6,225.0,77.0,8.3,0,5,7,1,2026-05-02T08:26:35.336001+05:30
Gulbarga,Karnataka,17.3297,76.8343,31.2,36,0.0,958.7,9.1,41.8,54,30.3,13.4,6.6,206.0,65.0,5.2,0,5,7,0,2026-05-02T08:26:35.336007+05:30
Bidar,Karnataka,17.9104,77.5199,31.1,32,0.0,935.7,9.1,34.6,66,28.3,16.4,8.2,216.0,79.0,8.8,0,5,7,0,2026-05-02T08:26:35.336013+05:30
Hospet,Karnataka,15.2689,76.3909,27.2,66,0.0,956.8,9.25,49.7,54,25.3,13.4,5.9,192.0,65.0,2.7,7,5,7,1,2026-05-02T08:26:35.336020+05:30
Tirupur,Tamil Nadu,11.1085,77.3411,29.2,69,0.0,976.2,9.3,54.4,76,30.4,26.9,12.4,242.0,91.0,4.7,7,5,7,1,2026-05-02T08:26:35.336026+05:30
Alappuzha,Kerala,9.4981,76.3388,27.9,86,0.0,1010.1,8.9,42.1,65,34.8,26.2,10.6,210.0,70.0,5.0,7,0,4,1,2026-05-02T08:26:35.336033+05:30
Munnar,Kerala,10.0889,77.0595,21.0,69,0.0,858.9,8.65,25.9,53,20.4,17.2,5.5,232.0,65.0,0.7,3,5,7,0,2026-05-02T08:26:35.336040+05:30
Silchar,Assam,24.8333,92.7789,21.2,92,0.2,1007.0,4.95,24.8,74,9.7,8.3,5.1,228.0,61.0,3.1,6,5,0,1,2026-05-02T08:26:35.336046+05:30
Dibrugarh,Assam,27.4728,94.912,21.6,90,0.0,997.0,8.4,23.0,62,22.9,15.0,6.7,295.0,90.0,1.4,3,5,7,1,2026-05-02T08:26:35.336053+05:30
