city,state,latitude,longitude,temp,humidity,rain,pressure,uv_index,wind_gusts,aqi,pm10,pm2_5,mosquito_risk,arthritis_risk,migraine_risk,frizz_risk,updated_at
Delhi,Delhi,28.6139,77.209,28.0,34,0.0,980.6,7.4,48.6,563,461.9,95.7,4,5,7,0,2026-04-26T05:11:19.642833+05:30
Mumbai,Maharashtra,19.076,72.8777,27.4,54,0.0,1006.1,7.55,38.9,81,68.9,24.4,4,5,4,1,2026-04-26T05:11:19.642865+05:30
Bangalore,Karnataka,12.9716,77.5946,23.9,63,0.0,911.1,9.6,36.7,76,35.6,30.7,3,5,7,1,2026-04-26T05:11:19.642879+05:30
Hyderabad,Telangana,17.385,78.4867,27.5,58,0.0,952.2,9.25,28.8,112,21.4,17.0,4,5,7,1,2026-04-26T05:11:19.642888+05:30
Chennai,Tamil Nadu,13.0827,80.2707,26.6,93,0.0,1006.8,9.25,52.2,33,12.9,8.4,7,5,4,1,2026-04-26T05:11:19.642896+05:30
Kolkata,West Bengal,22.5726,88.3639,27.2,90,0.0,1004.3,8.65,47.2,75,21.0,16.5,7,5,4,1,2026-04-26T05:11:19.642907+05:30
Pune,Maharashtra,18.5204,73.8567,27.4,22,0.0,946.7,8.55,37.4,95,26.1,21.8,4,5,7,0,2026-04-26T05:11:19.642914+05:30
Ahmedabad,Gujarat,23.0225,72.5714,28.8,48,0.0,1000.5,8.2,34.9,64,36.7,14.8,4,5,4,1,2026-04-26T05:11:19.642920+05:30
Jaipur,Rajasthan,26.9124,75.7873,30.2,26,0.0,958.5,8.05,42.8,149,179.7,36.9,0,5,7,0,2026-04-26T05:11:19.642926+05:30
Lucknow,Uttar Pradesh,26.8467,80.9462,27.3,54,0.0,990.7,7.9,48.6,136,319.4,78.7,4,5,7,1,2026-04-26T05:11:19.642933+05:30
Kanpur,Uttar Pradesh,26.4499,80.3319,29.7,27,0.0,988.8,7.9,47.2,240,802.8,134.6,4,5,7,0,2026-04-26T05:11:19.642939+05:30
Chandigarh,Chandigarh,30.7333,76.7794,24.6,36,0.0,965.5,7.4,46.1,64,43.9,20.3,0,5,7,0,2026-04-26T05:11:19.642945+05:30
Srinagar,Jammu and Kashmir,34.0837,74.7973,8.0,95,0.0,842.2,8.6,14.8,78,52.9,36.6,3,10,7,0,2026-04-26T05:11:19.642951+05:30
Jammu,Jammu and Kashmir,32.7266,74.857,21.7,47,0.0,970.1,8.2,36.4,74,26.0,19.8,0,5,7,0,2026-04-26T05:11:19.642957+05:30
Amritsar,Punjab,31.634,74.8723,24.5,47,0.0,978.7,8.1,33.5,93,86.4,38.0,0,5,7,0,2026-04-26T05:11:19.642962+05:30
Ludhiana,Punjab,30.901,75.8573,24.8,47,0.0,976.4,7.65,39.2,85,52.5,31.9,0,5,7,0,2026-04-26T05:11:19.642972+05:30
Jalandhar,Punjab,31.326,75.5762,23.6,55,0.0,977.4,7.85,32.4,93,75.4,39.8,0,5,7,0,2026-04-26T05:11:19.642978+05:30
Dehradun,Uttarakhand,30.6284,78.0322,10.0,74,0.0,824.9,7.8,49.3,43,17.3,7.9,3,5,7,0,2026-04-26T05:11:19.642983+05:30
Shimla,Himachal Pradesh,31.1048,77.1734,12.3,46,0.0,781.8,7.9,46.4,56,34.8,14.1,0,5,7,0,2026-04-26T05:11:19.642989+05:30
Manali,Himachal Pradesh,32.2396,77.1887,8.6,58,0.0,814.3,9.35,42.5,44,1.6,1.1,0,5,7,0,2026-04-26T05:11:19.642995+05:30
Gurgaon,Haryana,28.4595,77.0266,25.8,40,0.0,978.9,7.55,46.8,1475,1087.8,153.2,4,5,7,0,2026-04-26T05:11:19.643000+05:30
Noida,Uttar Pradesh,28.5355,77.391,27.6,35,0.0,981.8,7.45,41.4,1475,1087.8,153.2,4,5,7,0,2026-04-26T05:11:19.643006+05:30
Ghaziabad,Uttar Pradesh,28.6692,77.4538,28.2,34,0.0,980.2,7.4,47.2,400,380.9,87.8,4,5,7,0,2026-04-26T05:11:19.643012+05:30
Faridabad,Haryana,28.4089,77.3178,29.2,30,0.0,981.2,7.5,51.5,1475,1087.8,153.2,4,5,7,0,2026-04-26T05:11:19.643017+05:30
Meerut,Uttar Pradesh,28.9845,77.7064,26.7,37,0.0,978.5,7.35,40.7,400,380.9,87.8,4,5,7,0,2026-04-26T05:11:19.643023+05:30
Agra,Uttar Pradesh,27.1767,78.0081,28.7,32,0.0,985.4,7.8,47.2,940,994.7,167.6,4,5,7,0,2026-04-26T05:11:19.643031+05:30
Varanasi,Uttar Pradesh,25.3176,82.9739,27.5,58,0.0,993.9,8.5,46.1,131,107.3,72.2,4,5,7,1,2026-04-26T05:11:19.643037+05:30
Prayagraj,Uttar Pradesh,25.4358,81.8463,26.2,42,0.0,992.5,8.4,41.0,114,79.4,58.6,4,5,7,0,2026-04-26T05:11:19.643043+05:30
Gorakhpur,Uttar Pradesh,26.7606,83.3732,25.9,69,0.0,995.1,8.35,35.6,152,92.4,57.7,7,5,7,1,2026-04-26T05:11:19.643049+05:30
Bareilly,Uttar Pradesh,28.367,79.4304,25.4,43,0.0,983.6,7.65,46.8,103,176.5,62.4,4,5,7,0,2026-04-26T05:11:19.643056+05:30
Aligarh,Uttar Pradesh,27.8974,78.088,27.4,33,0.0,983.0,7.6,51.5,777,705.9,134.6,4,5,7,0,2026-04-26T05:11:19.643061+05:30
Moradabad,Uttar Pradesh,28.8386,78.7733,26.5,35,0.0,980.6,7.5,49.3,151,173.2,64.7,4,5,7,0,2026-04-26T05:11:19.643067+05:30
Saharanpur,Uttar Pradesh,29.9637,77.546,26.2,34,0.0,972.4,7.1,51.8,95,49.7,23.5,4,5,7,0,2026-04-26T05:11:19.643072+05:30
Jhansi,Uttar Pradesh,25.4484,78.5685,28.5,31,0.0,975.5,8.3,43.6,78,139.2,36.3,4,5,7,0,2026-04-26T05:11:22.908750+05:30
Surat,Gujarat,21.1702,72.8311,28.2,55,0.0,1004.3,7.85,32.0,100,50.4,29.2,4,5,4,1,2026-04-26T05:11:22.908769+05:30
Vadodara,Gujarat,22.3072,73.1812,28.9,34,0.0,1002.7,8.15,37.1,75,34.1,20.9,4,5,4,0,2026-04-26T05:11:22.908778+05:30
Rajkot,Gujarat,22.3039,70.8022,23.6,89,0.0,993.4,7.85,37.8,58,51.9,14.8,3,5,7,1,2026-04-26T05:11:22.908786+05:30
Thane,Maharashtra,19.2183,72.9781,26.0,73,0.0,1005.4,7.65,34.2,81,68.9,24.4,7,5,4,1,2026-04-26T05:11:22.908793+05:30
Nagpur,Maharashtra,21.1458,79.0882,31.0,25,0.0,970.9,8.9,31.7,94,44.1,40.0,0,5,7,0,2026-04-26T05:11:22.908799+05:30
Nashik,Maharashtra,19.9975,73.7898,26.4,25,0.0,943.9,8.2,34.9,74,38.8,27.2,4,5,7,0,2026-04-26T05:11:22.908805+05:30
Aurangabad,Maharashtra,19.8762,75.3433,30.2,22,0.0,942.5,9.05,30.2,72,27.6,20.3,0,5,7,0,2026-04-26T05:11:22.908810+05:30
Solapur,Maharashtra,17.6599,75.9064,27.5,39,0.0,955.7,8.85,24.8,115,42.0,38.6,4,5,7,0,2026-04-26T05:11:22.908816+05:30
Kolhapur,Maharashtra,16.705,74.2433,24.3,80,0.0,946.0,8.75,46.4,136,57.4,53.0,3,5,7,1,2026-04-26T05:11:22.908822+05:30
Goa,Goa,15.2993,74.124,27.1,96,0.0,996.2,9.0,40.3,79,46.3,38.2,7,5,7,1,2026-04-26T05:11:22.908828+05:30
Jodhpur,Rajasthan,26.2389,73.0243,29.7,36,0.0,981.5,8.3,36.4,86,95.0,25.1,4,5,7,0,2026-04-26T05:11:22.908834+05:30
Udaipur,Rajasthan,24.5854,73.7125,29.6,25,0.0,945.5,8.8,41.4,59,20.3,10.1,4,5,7,0,2026-04-26T05:11:22.908840+05:30
Kota,Rajasthan,25.2138,75.8648,27.9,35,0.0,977.0,8.3,30.6,81,65.4,28.8,4,5,7,0,2026-04-26T05:11:22.908846+05:30
Bikaner,Rajasthan,28.0229,73.3119,27.5,41,0.0,979.6,8.15,35.3,75,78.0,22.1,4,5,7,0,2026-04-26T05:11:22.908851+05:30
Ajmer,Rajasthan,26.4499,74.6399,30.8,24,0.0,953.4,8.25,44.3,76,85.9,23.0,0,5,7,0,2026-04-26T05:11:22.908857+05:30
Gwalior,Madhya Pradesh,26.2183,78.1828,30.0,29,0.0,981.1,8.0,46.1,96,411.6,71.9,4,5,7,0,2026-04-26T05:11:22.908862+05:30
Indore,Madhya Pradesh,22.7196,75.8577,28.8,23,0.0,947.1,8.65,34.9,64,21.2,15.5,4,5,7,0,2026-04-26T05:11:22.908868+05:30
Bhopal,Madhya Pradesh,23.2599,77.4126,29.0,24,0.0,951.4,8.6,32.8,59,38.0,21.8,4,5,7,0,2026-04-26T05:11:22.908874+05:30
Jabalpur,Madhya Pradesh,23.1815,79.9864,26.4,36,0.0,958.9,8.75,36.0,48,23.0,14.9,4,5,7,0,2026-04-26T05:11:22.908879+05:30
Ujjain,Madhya Pradesh,23.1765,75.7885,28.5,24,0.0,952.6,8.55,29.2,71,20.6,15.0,4,5,7,0,2026-04-26T05:11:22.908886+05:30
Visakhapatnam,Andhra Pradesh,17.6868,83.2185,26.0,92,0.0,1002.9,8.8,48.6,56,18.6,15.2,7,5,4,1,2026-04-26T05:11:22.908891+05:30
Vijayawada,Andhra Pradesh,16.5062,80.648,27.0,96,0.0,1001.8,8.9,38.9,53,17.9,13.8,7,5,4,1,2026-04-26T05:11:22.908897+05:30
Guntur,Andhra Pradesh,16.3067,80.4365,26.4,99,0.0,1002.8,8.9,41.0,53,16.4,12.2,7,5,4,1,2026-04-26T05:11:22.908902+05:30
Nellore,Andhra Pradesh,14.4426,79.9865,24.9,95,0.0,1005.1,9.2,46.4,45,13.7,10.5,3,5,4,1,2026-04-26T05:11:22.908908+05:30
Kurnool,Andhra Pradesh,15.8281,78.0373,29.2,58,0.0,975.7,9.2,30.2,84,20.1,18.0,4,5,7,1,2026-04-26T05:11:22.908914+05:30
Kakinada,Andhra Pradesh,16.9891,82.2475,27.4,90,0.0,1007.0,8.95,45.4,41,18.3,12.8,7,5,4,1,2026-04-26T05:11:22.908920+05:30
Tirupati,Andhra Pradesh,13.6288,79.4192,25.1,79,0.0,990.9,9.3,35.6,59,24.0,21.2,7,5,7,1,2026-04-26T05:11:22.908925+05:30
Warangal,Telangana,17.9689,79.5941,27.0,65,0.0,977.3,8.85,34.2,89,19.0,16.6,7,5,7,1,2026-04-26T05:11:22.908930+05:30
Nizamabad,Telangana,18.6725,78.0941,28.7,39,0.0,963.2,9.15,36.0,125,36.0,33.5,4,5,7,0,2026-04-26T05:11:22.908936+05:30
Mysore,Karnataka,12.2958,76.6396,22.3,88,0.0,927.4,9.45,38.2,83,34.5,31.9,3,5,7,1,2026-04-26T05:11:22.908941+05:30
Mangalore,Karnataka,12.9141,74.856,27.4,95,0.0,1005.5,9.1,39.2,69,34.6,25.5,7,5,4,1,2026-04-26T05:11:22.908947+05:30
Hubli-Dharwad,Karnataka,15.3647,75.124,23.9,99,0.0,939.8,9.2,53.3,101,33.3,30.2,3,5,7,1,2026-04-26T05:11:22.908952+05:30
Belgaum,Karnataka,15.8497,74.4977,24.8,70,0.0,923.9,9.1,46.1,118,56.7,48.5,3,5,7,1,2026-04-26T05:11:26.181692+05:30
Coimbatore,Tamil Nadu,11.0168,76.9558,25.9,77,0.0,961.0,9.35,39.6,73,34.0,31.3,7,5,7,1,2026-04-26T05:11:26.181718+05:30
Madurai,Tamil Nadu,9.9252,78.1198,27.4,64,0.0,992.7,9.25,43.9,57,17.0,16.6,7,5,7,1,2026-04-26T05:11:26.181731+05:30
Trichy,Tamil Nadu,10.7905,78.7047,25.6,92,0.0,999.4,9.25,29.2,54,14.9,12.9,7,5,7,1,2026-04-26T05:11:26.181740+05:30
Salem,Tamil Nadu,11.6643,78.146,25.2,79,0.0,976.9,9.35,37.8,65,26.8,24.3,7,5,7,1,2026-04-26T05:11:26.181749+05:30
Tirunelveli,Tamil Nadu,8.7139,77.7567,25.9,82,0.0,1002.7,9.2,37.1,54,19.0,18.2,7,5,4,1,2026-04-26T05:11:26.181757+05:30
Vellore,Tamil Nadu,12.9165,79.1325,24.0,83,0.0,984.0,9.35,37.1,80,39.0,36.4,3,5,7,1,2026-04-26T05:11:26.181765+05:30
Erode,Tamil Nadu,11.341,77.7172,26.2,78,0.0,989.0,9.3,39.2,56,17.7,15.9,7,5,7,1,2026-04-26T05:11:26.181772+05:30
Kochi,Kerala,9.9312,76.2673,27.1,90,0.0,1007.9,9.0,37.4,79,28.4,27.2,7,5,4,1,2026-04-26T05:11:26.181779+05:30
Thiruvananthapuram,Kerala,8.5241,76.9366,24.0,94,0.0,1007.1,9.0,32.0,52,13.5,9.7,3,5,4,1,2026-04-26T05:11:26.181785+05:30
Kozhikode,Kerala,11.2588,75.7804,26.3,95,0.0,1007.1,8.05,34.2,61,21.0,16.0,7,5,4,1,2026-04-26T05:11:26.181791+05:30
Thrissur,Kerala,10.5276,76.2144,26.4,95,0.0,1006.3,8.65,36.7,71,27.5,26.0,7,5,4,1,2026-04-26T05:11:26.181797+05:30
Kannur,Kerala,11.8745,75.3704,27.4,89,0.0,1006.0,9.05,35.3,68,27.9,22.2,7,5,4,1,2026-04-26T05:11:26.181803+05:30
Patna,Bihar,25.5941,85.1376,26.2,79,0.0,997.7,8.6,54.7,152,63.3,57.3,7,5,7,1,2026-04-26T05:11:26.181808+05:30
Gaya,Bihar,24.7914,85.0002,25.1,72,0.0,990.4,8.65,41.4,111,57.9,52.7,7,5,7,1,2026-04-26T05:11:26.181814+05:30
Muzaffarpur,Bihar,26.1209,85.3647,25.8,76,0.0,998.3,8.65,53.6,154,67.3,58.4,7,5,7,1,2026-04-26T05:11:26.181820+05:30
Bhagalpur,Bihar,25.2425,87.0117,25.9,81,0.0,999.7,8.6,47.5,150,53.3,47.5,7,5,7,1,2026-04-26T05:11:26.181825+05:30
Ranchi,Jharkhand,23.3441,85.3096,25.5,38,0.0,935.6,9.15,39.2,113,63.3,56.3,4,5,7,0,2026-04-26T05:11:26.181831+05:30
Jamshedpur,Jharkhand,22.8046,86.2029,26.8,75,0.0,988.7,9.0,45.7,140,61.2,53.1,7,5,7,1,2026-04-26T05:11:26.181837+05:30
Dhanbad,Jharkhand,23.7957,86.4304,25.6,98,0.0,977.2,8.95,33.8,155,77.1,71.2,7,5,7,1,2026-04-26T05:11:26.181842+05:30
Bokaro,Jharkhand,23.6693,86.1511,24.6,88,0.0,980.8,8.95,47.5,155,93.6,84.8,3,5,7,1,2026-04-26T05:11:26.181848+05:30
Bhubaneswar,Odisha,20.2961,85.8245,26.4,95,0.0,1001.3,9.1,49.3,59,13.4,9.7,7,5,4,1,2026-04-26T05:11:26.181854+05:30
Cuttack,Odisha,20.4625,85.8828,26.6,94,0.0,1003.3,9.05,45.4,59,13.4,9.7,7,5,4,1,2026-04-26T05:11:26.181859+05:30
Rourkela,Odisha,22.2604,84.8536,26.0,84,0.0,983.3,8.9,40.0,144,82.7,71.5,7,5,7,1,2026-04-26T05:11:26.181865+05:30
Raipur,Chhattisgarh,21.2514,81.6296,28.4,31,0.0,973.0,8.95,41.8,102,47.4,44.8,4,5,7,0,2026-04-26T05:11:26.181870+05:30
Bhilai,Chhattisgarh,21.1938,81.3509,27.8,37,0.0,973.6,9.0,43.2,97,44.2,41.7,4,5,7,0,2026-04-26T05:11:26.181876+05:30
Guwahati,Assam,26.1158,91.7086,22.0,93,0.0,1003.0,3.2,37.1,154,58.2,46.4,3,5,0,1,2026-04-26T05:11:26.181881+05:30
Agartala,Tripura,23.8315,91.2868,26.5,89,0.0,1006.0,8.8,43.2,135,22.9,19.9,7,5,4,1,2026-04-26T05:11:26.181887+05:30
Shillong,Meghalaya,25.5788,91.8933,16.6,89,0.0,856.3,2.55,44.3,142,57.3,35.4,3,10,3,0,2026-04-26T05:11:26.181893+05:30
Imphal,Manipur,24.817,93.9368,18.1,76,0.0,923.0,7.3,33.5,152,136.0,74.7,3,5,7,0,2026-04-26T05:11:26.181899+05:30
Aizawl,Mizoram,23.7271,92.7176,17.8,86,0.0,892.4,9.0,45.7,117,77.8,42.5,3,10,7,0,2026-04-26T05:11:26.181905+05:30
Kohima,Nagaland,25.6701,94.1077,14.9,76,0.0,853.5,6.85,35.6,155,85.7,57.0,3,5,7,0,2026-04-26T05:11:26.181910+05:30
Gangtok,Sikkim,27.3314,88.6138,13.3,76,0.0,835.4,8.95,42.1,78,24.7,15.8,3,5,7,0,2026-04-26T05:11:26.181916+05:30
Siliguri,West Bengal,26.7271,88.3953,21.0,98,0.2,993.8,8.35,38.9,141,71.7,44.7,6,5,7,1,2026-04-26T05:11:29.458946+05:30
Durgapur,West Bengal,23.5204,87.3119,26.2,95,0.0,992.7,8.9,36.7,130,43.0,39.8,7,5,7,1,2026-04-26T05:11:29.458970+05:30
Asansol,West Bengal,23.6739,86.9524,26.0,97,0.0,991.1,8.9,32.0,137,43.7,41.0,7,5,7,1,2026-04-26T05:11:29.458980+05:30
Pondicherry,Puducherry,11.9139,79.8145,27.0,92,0.0,1008.0,9.2,41.0,27,11.6,7.2,7,0,4,1,2026-04-26T05:11:29.458987+05:30
Port Blair,Andaman and Nicobar Islands,11.6234,92.7265,26.6,86,0.0,1007.3,9.1,35.3,52,24.6,16.8,7,5,4,1,2026-04-26T05:11:29.458993+05:30
Haridwar,Uttarakhand,29.9457,78.1642,20.1,61,0.0,969.9,7.2,41.0,67,26.5,24.3,3,5,7,0,2026-04-26T05:11:29.459000+05:30
Rishikesh,Uttarakhand,30.0869,78.2676,19.2,62,0.0,962.8,7.3,33.1,63,28.8,23.7,3,5,7,0,2026-04-26T05:11:29.459005+05:30
Nainital,Uttarakhand,29.3919,79.4542,16.1,44,0.0,803.9,8.15,53.3,74,35.4,26.4,0,5,7,0,2026-04-26T05:11:29.459012+05:30
Mussoorie,Uttarakhand,30.4599,78.0664,16.8,38,0.0,801.5,7.7,55.8,59,23.3,18.5,0,5,7,0,2026-04-26T05:11:29.459018+05:30
Dharamshala,Himachal Pradesh,32.219,76.3234,21.1,36,0.0,868.0,8.05,44.3,46,15.6,5.9,0,5,7,0,2026-04-26T05:11:29.459024+05:30
Dalhousie,Himachal Pradesh,32.5387,75.971,9.7,69,0.0,799.7,8.3,40.0,66,28.5,16.0,3,5,7,0,2026-04-26T05:11:29.459031+05:30
Patiala,Punjab,30.3398,76.3869,26.7,38,0.0,975.6,7.3,46.4,503,366.9,61.5,4,5,7,0,2026-04-26T05:11:29.459037+05:30
Bhatinda,Punjab,30.211,74.9455,27.7,34,0.0,981.7,8.0,40.7,91,83.1,37.7,4,5,7,0,2026-04-26T05:11:29.459043+05:30
Rohtak,Haryana,28.8955,76.6066,25.9,39,0.0,979.3,7.45,45.7,841,448.0,83.1,4,5,7,0,2026-04-26T05:11:29.459048+05:30
Panipat,Haryana,29.3909,76.9635,27.4,34,0.0,977.8,7.25,50.4,1575,860.5,129.0,4,5,7,0,2026-04-26T05:11:29.459054+05:30
Mathura,Uttar Pradesh,27.4924,77.6737,27.5,34,0.0,984.3,7.75,43.2,932,800.9,147.6,4,5,7,0,2026-04-26T05:11:29.459060+05:30
Vrindavan,Uttar Pradesh,27.5823,77.7027,27.0,36,0.0,984.7,7.7,42.8,932,800.9,147.6,4,5,7,0,2026-04-26T05:11:29.459065+05:30
Ayodhya,Uttar Pradesh,26.7922,82.1998,26.0,65,0.0,992.9,8.1,50.0,146,85.7,65.7,7,5,7,1,2026-04-26T05:11:29.459071+05:30
Ratlam,Madhya Pradesh,23.3315,75.0367,27.1,27,0.0,953.2,8.5,33.8,64,14.3,9.9,4,5,7,0,2026-04-26T05:11:29.459077+05:30
Sagar,Madhya Pradesh,23.8388,78.7378,27.7,29,0.0,947.8,8.65,34.9,56,79.2,24.3,4,5,7,0,2026-04-26T05:11:29.459082+05:30
Satna,Madhya Pradesh,24.6005,80.8322,27.9,30,0.0,968.6,8.65,44.6,79,223.5,41.6,4,5,7,0,2026-04-26T05:11:29.459087+05:30
Akola,Maharashtra,20.7002,77.0082,28.0,30,0.0,973.0,8.85,33.1,65,20.5,16.2,4,5,7,0,2026-04-26T05:11:29.459093+05:30
Amravati,Maharashtra,20.9374,77.7796,29.4,26,0.0,965.4,8.85,37.4,69,23.6,19.2,4,5,7,0,2026-04-26T05:11:29.459100+05:30
Latur,Maharashtra,18.4088,76.5604,27.4,41,0.0,938.3,8.85,29.2,111,46.3,42.3,4,5,7,0,2026-04-26T05:11:29.459106+05:30
Nanded,Maharashtra,19.1383,77.3091,27.0,43,0.0,967.1,8.95,28.4,104,59.6,54.0,4,5,7,0,2026-04-26T05:11:29.459111+05:30
Gulbarga,Karnataka,17.3297,76.8343,28.1,42,0.0,957.5,8.2,24.5,116,39.5,35.2,4,5,7,0,2026-04-26T05:11:29.459117+05:30
Bidar,Karnataka,17.9104,77.5199,27.0,41,0.0,933.9,8.7,34.9,123,31.8,28.9,4,5,7,0,2026-04-26T05:11:29.459122+05:30
Hospet,Karnataka,15.2689,76.3909,25.9,51,0.0,954.6,9.0,33.5,103,34.0,31.1,4,5,7,0,2026-04-26T05:11:29.459157+05:30
Tirupur,Tamil Nadu,11.1085,77.3411,26.6,62,0.0,974.6,9.4,33.8,61,27.5,24.3,7,5,7,1,2026-04-26T05:11:29.459166+05:30
Alappuzha,Kerala,9.4981,76.3388,26.0,97,0.0,1007.9,8.85,36.0,73,21.8,20.3,7,5,4,1,2026-04-26T05:11:29.459171+05:30
Munnar,Kerala,10.0889,77.0595,14.9,89,0.0,854.3,9.6,28.4,62,24.1,22.8,3,10,7,0,2026-04-26T05:11:29.459178+05:30
Silchar,Assam,24.8333,92.7789,23.4,96,0.2,1005.2,6.95,32.4,161,123.9,82.2,6,5,4,1,2026-04-26T05:11:29.459184+05:30
Dibrugarh,Assam,27.4728,94.912,21.2,94,0.0,997.3,8.65,27.7,89,38.0,21.7,3,5,7,1,2026-04-26T05:11:29.459189+05:30
