city,state,latitude,longitude,temp,humidity,rain,pressure,uv_index,wind_gusts,aqi,pm10,pm2_5,no2,co,o3,so2,mosquito_risk,arthritis_risk,migraine_risk,frizz_risk,updated_at
Delhi,Delhi,28.6139,77.209,26.8,97,0.0,974.4,6.0,25.6,151,97.8,68.9,45.2,762.0,72.0,39.9,7,5,3,1,2026-07-08T01:28:43.699494+05:30
Mumbai,Maharashtra,19.076,72.8777,25.9,95,0.4,1001.3,1.5,45.0,54,21.5,10.7,4.3,170.0,65.0,3.3,10,5,0,1,2026-07-08T01:28:43.699546+05:30
Bangalore,Karnataka,12.9716,77.5946,21.5,83,0.0,910.0,8.95,69.5,24,7.2,4.5,6.8,179.0,42.0,2.9,3,5,7,1,2026-07-08T01:28:43.699562+05:30
Hyderabad,Telangana,17.385,78.4867,25.4,75,0.0,947.6,8.9,58.7,28,6.9,4.4,6.3,161.0,42.0,4.0,7,5,7,1,2026-07-08T01:28:43.699572+05:30
Chennai,Tamil Nadu,13.0827,80.2707,32.5,47,0.0,1004.9,8.05,55.4,60,16.2,10.6,14.4,182.0,46.0,8.6,0,5,4,1,2026-07-08T01:28:43.699581+05:30
Kolkata,West Bengal,22.5726,88.3639,28.4,86,0.0,1000.4,6.3,30.6,62,21.1,15.7,5.9,187.0,69.0,5.7,7,5,4,1,2026-07-08T01:28:43.699589+05:30
Pune,Maharashtra,18.5204,73.8567,23.2,96,0.9,940.7,2.25,53.3,23,3.1,2.2,4.8,134.0,49.0,3.8,6,5,3,1,2026-07-08T01:28:43.699596+05:30
Ahmedabad,Gujarat,23.0225,72.5714,26.8,97,0.2,993.2,1.9,29.2,89,34.3,25.0,14.4,308.0,52.0,8.0,10,5,3,1,2026-07-08T01:28:43.699603+05:30
Jaipur,Rajasthan,26.9124,75.7873,27.1,85,0.0,950.8,7.3,32.8,71,33.5,30.0,28.1,663.0,50.0,8.5,7,5,7,1,2026-07-08T01:28:43.699610+05:30
Lucknow,Uttar Pradesh,26.8467,80.9462,26.3,96,0.1,984.1,5.65,46.1,57,21.7,21.7,12.2,312.0,82.0,10.1,10,5,3,1,2026-07-08T01:28:43.699625+05:30
Kanpur,Uttar Pradesh,26.4499,80.3319,26.6,96,0.1,981.3,6.9,45.7,58,17.4,17.3,12.1,270.0,74.0,7.3,10,5,7,1,2026-07-08T01:28:43.699631+05:30
Chandigarh,Chandigarh,30.7333,76.7794,27.2,91,0.0,960.6,5.55,31.3,145,77.5,75.0,35.5,1125.0,65.0,11.3,7,5,3,1,2026-07-08T01:28:43.699638+05:30
Srinagar,Jammu and Kashmir,34.0837,74.7973,20.2,89,0.0,836.2,9.0,27.4,73,58.0,52.2,37.8,1199.0,11.0,1.7,3,5,7,1,2026-07-08T01:28:43.699648+05:30
Jammu,Jammu and Kashmir,32.7266,74.857,29.4,75,0.0,963.6,8.45,33.8,112,64.0,60.8,67.5,692.0,18.0,8.4,7,5,7,1,2026-07-08T01:28:43.699654+05:30
Amritsar,Punjab,31.634,74.8723,29.7,82,0.0,971.2,7.5,31.7,156,97.6,77.1,31.9,876.0,62.0,8.4,7,5,7,1,2026-07-08T01:28:43.699660+05:30
Ludhiana,Punjab,30.901,75.8573,28.2,89,0.0,969.9,7.2,31.0,155,52.2,49.1,22.3,1470.0,78.0,9.9,7,5,7,1,2026-07-08T01:28:43.699666+05:30
Jalandhar,Punjab,31.326,75.5762,28.0,91,0.0,970.8,7.4,29.2,160,105.2,77.8,33.7,1039.0,65.0,9.7,7,5,7,1,2026-07-08T01:28:43.699672+05:30
Dehradun,Uttarakhand,30.6284,78.0322,19.2,100,0.0,825.3,3.45,16.9,64,15.4,15.1,12.9,271.0,94.0,2.6,3,10,3,1,2026-07-08T01:28:43.699679+05:30
Shimla,Himachal Pradesh,31.1048,77.1734,16.3,92,0.0,779.5,8.15,17.3,72,49.4,46.8,23.7,423.0,66.0,0.9,3,10,7,0,2026-07-08T01:28:43.699686+05:30
Manali,Himachal Pradesh,32.2396,77.1887,19.3,87,0.1,815.2,8.4,36.4,39,4.4,4.4,21.2,326.0,93.0,0.0,6,10,7,1,2026-07-08T01:28:43.699695+05:30
Gurgaon,Haryana,28.4595,77.0266,26.8,97,0.0,972.8,5.95,24.8,143,318.5,87.3,40.8,581.0,74.0,34.1,7,5,3,1,2026-07-08T01:28:43.699701+05:30
Noida,Uttar Pradesh,28.5355,77.391,26.7,96,0.0,975.8,5.9,26.3,143,318.5,87.3,40.8,682.0,74.0,34.1,7,5,3,1,2026-07-08T01:28:43.699710+05:30
Ghaziabad,Uttar Pradesh,28.6692,77.4538,26.5,93,0.0,974.1,6.75,29.2,141,77.8,50.8,21.2,454.0,77.0,10.6,7,5,7,1,2026-07-08T01:28:43.699716+05:30
Faridabad,Haryana,28.4089,77.3178,26.6,97,0.0,975.1,6.0,29.9,143,318.5,87.3,40.8,528.0,74.0,34.1,7,5,3,1,2026-07-08T01:28:43.699722+05:30
Meerut,Uttar Pradesh,28.9845,77.7064,27.1,88,0.0,973.2,6.45,32.8,141,77.8,50.8,21.2,545.0,77.0,10.6,7,5,7,1,2026-07-08T01:28:43.699728+05:30
Agra,Uttar Pradesh,27.1767,78.0081,26.1,95,0.3,978.2,6.25,32.8,113,13.9,13.9,12.0,277.0,92.0,6.5,10,5,7,1,2026-07-08T01:28:43.699734+05:30
Varanasi,Uttar Pradesh,25.3176,82.9739,28.2,85,0.0,989.1,6.9,32.4,62,34.3,33.8,23.0,347.0,56.0,21.5,7,5,7,1,2026-07-08T01:28:43.699740+05:30
Prayagraj,Uttar Pradesh,25.4358,81.8463,29.0,77,0.0,986.4,7.45,33.8,59,27.2,26.7,17.6,231.0,68.0,14.4,7,5,7,1,2026-07-08T01:28:43.699747+05:30
Gorakhpur,Uttar Pradesh,26.7606,83.3732,26.6,96,0.2,990.0,6.25,37.8,59,18.2,18.2,11.1,298.0,85.0,6.6,10,5,7,1,2026-07-08T01:28:43.699753+05:30
Bareilly,Uttar Pradesh,28.367,79.4304,26.8,94,0.0,978.4,5.45,43.2,103,16.4,16.4,12.3,349.0,75.0,6.5,7,5,3,1,2026-07-08T01:28:43.699760+05:30
Aligarh,Uttar Pradesh,27.8974,78.088,26.3,96,0.4,976.8,4.7,33.5,103,29.9,28.9,16.5,279.0,81.0,11.3,10,5,3,1,2026-07-08T01:28:43.699766+05:30
Moradabad,Uttar Pradesh,28.8386,78.7733,26.8,93,0.2,975.8,7.65,33.1,152,33.2,33.1,17.5,338.0,84.0,14.7,10,5,7,1,2026-07-08T01:28:43.699772+05:30
Saharanpur,Uttar Pradesh,29.9637,77.546,26.7,97,0.0,968.0,3.25,26.3,154,81.3,78.2,36.7,578.0,82.0,17.8,7,5,3,1,2026-07-08T01:28:43.699778+05:30
Jhansi,Uttar Pradesh,25.4484,78.5685,25.8,96,0.2,966.7,5.4,27.0,53,8.2,8.2,8.0,249.0,85.0,3.2,10,5,3,1,2026-07-08T01:28:46.982857+05:30
Surat,Gujarat,21.1702,72.8311,27.0,95,0.2,997.7,1.35,40.3,99,41.7,35.0,40.6,433.0,30.0,50.6,10,5,3,1,2026-07-08T01:28:46.982894+05:30
Vadodara,Gujarat,22.3072,73.1812,26.3,98,0.2,995.6,1.85,37.1,87,25.0,21.5,13.6,311.0,57.0,5.8,10,5,3,1,2026-07-08T01:28:46.982905+05:30
Rajkot,Gujarat,22.3039,70.8022,27.4,91,0.0,985.4,6.95,44.6,76,34.2,18.5,6.6,115.0,47.0,5.9,7,5,7,1,2026-07-08T01:28:46.982914+05:30
Thane,Maharashtra,19.2183,72.9781,25.3,97,0.2,1000.6,1.05,37.8,54,21.5,10.7,4.3,173.0,65.0,3.3,10,5,0,1,2026-07-08T01:28:46.982922+05:30
Nagpur,Maharashtra,21.1458,79.0882,26.4,82,0.0,964.6,6.25,46.8,39,9.6,9.4,12.9,194.0,67.0,14.9,7,5,7,1,2026-07-08T01:28:46.982930+05:30
Nashik,Maharashtra,19.9975,73.7898,23.0,96,0.1,937.7,3.4,51.8,25,3.8,2.8,7.2,146.0,52.0,2.3,6,5,3,1,2026-07-08T01:28:46.982938+05:30
Aurangabad,Maharashtra,19.8762,75.3433,23.5,96,0.1,935.8,6.15,55.4,30,4.7,4.3,12.0,186.0,41.0,9.0,6,5,7,1,2026-07-08T01:28:46.982945+05:30
Solapur,Maharashtra,17.6599,75.9064,25.3,79,0.0,951.2,7.05,58.7,23,2.7,2.2,4.2,121.0,43.0,2.2,7,5,7,1,2026-07-08T01:28:46.982953+05:30
Kolhapur,Maharashtra,16.705,74.2433,22.3,95,0.2,942.8,7.8,69.8,21,3.4,2.6,3.6,116.0,44.0,1.6,6,5,7,1,2026-07-08T01:28:46.982960+05:30
Goa,Goa,15.2993,74.124,24.5,97,0.1,995.7,8.5,50.0,58,25.6,13.0,1.4,207.0,44.0,0.7,6,5,7,1,2026-07-08T01:28:46.982966+05:30
Jodhpur,Rajasthan,26.2389,73.0243,27.5,92,0.6,973.8,8.15,33.8,85,205.4,61.0,7.1,195.0,60.0,3.6,10,5,7,1,2026-07-08T01:28:46.982973+05:30
Udaipur,Rajasthan,24.5854,73.7125,25.5,93,0.0,937.8,7.0,36.4,67,46.3,28.9,10.0,216.0,59.0,5.7,7,5,7,1,2026-07-08T01:28:46.982980+05:30
Kota,Rajasthan,25.2138,75.8648,28.1,83,0.0,969.1,7.1,40.3,63,20.3,18.5,10.5,362.0,72.0,2.2,7,5,7,1,2026-07-08T01:28:46.982987+05:30
Bikaner,Rajasthan,28.0229,73.3119,30.3,70,0.0,971.7,8.45,69.8,95,95.7,39.9,5.4,173.0,61.0,3.6,3,5,7,1,2026-07-08T01:28:46.982994+05:30
Ajmer,Rajasthan,26.4499,74.6399,27.0,84,0.0,946.4,8.1,39.6,66,28.6,23.1,14.6,254.0,63.0,4.8,7,5,7,1,2026-07-08T01:28:46.983000+05:30
Gwalior,Madhya Pradesh,26.2183,78.1828,26.1,94,0.1,972.4,6.65,27.7,66,5.7,5.6,6.4,289.0,96.0,2.6,10,5,7,1,2026-07-08T01:28:46.983007+05:30
Indore,Madhya Pradesh,22.7196,75.8577,24.8,97,0.2,938.6,7.7,46.4,73,18.5,18.3,10.6,570.0,75.0,4.0,6,5,7,1,2026-07-08T01:28:46.983013+05:30
Bhopal,Madhya Pradesh,23.2599,77.4126,24.5,95,0.1,943.4,2.55,41.4,53,11.6,11.5,8.3,325.0,70.0,2.3,6,5,3,1,2026-07-08T01:28:46.983019+05:30
Jabalpur,Madhya Pradesh,23.1815,79.9864,25.5,90,0.0,951.6,2.95,45.0,40,8.1,7.8,8.0,237.0,58.0,6.6,7,5,3,1,2026-07-08T01:28:46.983025+05:30
Ujjain,Madhya Pradesh,23.1765,75.7885,25.0,97,0.6,944.3,2.85,43.9,75,16.8,16.3,7.2,602.0,81.0,2.9,10,5,3,1,2026-07-08T01:28:46.983032+05:30
Visakhapatnam,Andhra Pradesh,17.6868,83.2185,27.8,85,0.0,999.7,9.0,54.0,71,28.8,20.3,11.1,242.0,91.0,21.6,7,5,7,1,2026-07-08T01:28:46.983039+05:30
Vijayawada,Andhra Pradesh,16.5062,80.648,31.2,54,0.0,998.0,8.95,52.6,52,27.4,20.1,9.0,192.0,71.0,5.5,0,5,7,1,2026-07-08T01:28:46.983045+05:30
Guntur,Andhra Pradesh,16.3067,80.4365,31.3,53,0.0,999.4,8.45,52.9,47,22.9,18.0,12.0,142.0,53.0,5.1,0,5,7,1,2026-07-08T01:28:46.983051+05:30
Nellore,Andhra Pradesh,14.4426,79.9865,30.9,54,0.0,1002.8,8.5,55.4,41,21.0,9.9,5.5,100.0,44.0,2.9,0,5,4,1,2026-07-08T01:28:46.983059+05:30
Kurnool,Andhra Pradesh,15.8281,78.0373,27.0,71,0.0,973.5,5.85,61.9,26,6.3,4.1,5.7,115.0,40.0,3.5,7,5,3,1,2026-07-08T01:28:46.983066+05:30
Kakinada,Andhra Pradesh,16.9891,82.2475,29.2,77,0.0,1002.7,8.65,53.3,63,32.6,21.3,2.9,181.0,102.0,3.3,7,5,4,1,2026-07-08T01:28:46.983073+05:30
Tirupati,Andhra Pradesh,13.6288,79.4192,29.9,52,0.0,989.2,8.65,54.0,34,14.3,8.2,6.2,124.0,44.0,2.0,4,5,7,1,2026-07-08T01:28:46.983079+05:30
Warangal,Telangana,17.9689,79.5941,28.1,67,0.0,973.1,6.95,51.1,31,7.2,5.6,7.1,148.0,46.0,4.0,7,5,7,1,2026-07-08T01:28:46.983085+05:30
Nizamabad,Telangana,18.6725,78.0941,26.7,72,0.0,957.7,7.7,50.8,25,4.8,4.1,5.7,129.0,42.0,2.7,7,5,7,1,2026-07-08T01:28:46.983091+05:30
Mysore,Karnataka,12.2958,76.6396,21.6,88,0.0,927.7,7.4,64.1,24,4.2,2.7,4.1,111.0,44.0,1.5,3,5,7,1,2026-07-08T01:28:46.983097+05:30
Mangalore,Karnataka,12.9141,74.856,23.2,96,0.2,1007.2,8.7,60.8,63,32.5,18.3,6.6,150.0,35.0,2.1,6,5,4,1,2026-07-08T01:28:46.983104+05:30
Hubli-Dharwad,Karnataka,15.3647,75.124,21.7,97,0.0,937.3,7.55,66.6,21,3.4,2.0,2.4,98.0,42.0,0.8,3,5,7,1,2026-07-08T01:28:46.983110+05:30
Belgaum,Karnataka,15.8497,74.4977,21.3,97,0.1,921.3,2.85,70.9,21,2.0,1.4,2.5,98.0,45.0,1.1,6,5,3,1,2026-07-08T01:28:50.268556+05:30
Coimbatore,Tamil Nadu,11.0168,76.9558,22.8,92,0.0,961.1,8.7,59.8,30,12.8,8.1,6.4,164.0,37.0,2.4,3,5,7,1,2026-07-08T01:28:50.268593+05:30
Madurai,Tamil Nadu,9.9252,78.1198,28.4,56,0.0,992.2,8.7,44.3,60,39.3,25.6,26.5,138.0,19.0,6.0,4,5,7,1,2026-07-08T01:28:50.268604+05:30
Trichy,Tamil Nadu,10.7905,78.7047,29.4,55,0.0,998.9,8.75,63.4,50,20.8,12.8,4.2,111.0,46.0,2.2,4,5,7,1,2026-07-08T01:28:50.268613+05:30
Salem,Tamil Nadu,11.6643,78.146,25.0,81,0.0,976.8,8.8,46.1,51,27.5,18.2,15.4,275.0,33.0,6.1,7,5,7,1,2026-07-08T01:28:50.268621+05:30
Tirunelveli,Tamil Nadu,8.7139,77.7567,28.2,63,0.0,1003.5,8.6,56.5,52,15.1,9.9,5.3,160.0,42.0,2.0,7,5,4,1,2026-07-08T01:28:50.268629+05:30
Vellore,Tamil Nadu,12.9165,79.1325,28.8,55,0.0,983.0,8.7,55.1,32,13.5,8.2,6.8,127.0,44.0,2.9,4,5,7,1,2026-07-08T01:28:50.268636+05:30
Erode,Tamil Nadu,11.341,77.7172,25.7,78,0.0,988.6,8.7,42.5,50,25.3,17.9,16.1,173.0,32.0,3.9,7,5,7,1,2026-07-08T01:28:50.268643+05:30
Kochi,Kerala,9.9312,76.2673,26.0,90,0.0,1009.8,8.35,43.2,63,24.7,19.5,21.4,136.0,14.0,5.7,7,0,4,1,2026-07-08T01:28:50.268651+05:30
Thiruvananthapuram,Kerala,8.5241,76.9366,25.9,92,0.0,1009.1,8.4,56.5,53,16.4,10.2,3.7,105.0,44.0,1.5,7,0,4,1,2026-07-08T01:28:50.268658+05:30
Kozhikode,Kerala,11.2588,75.7804,23.5,95,0.1,1009.2,8.5,35.6,60,27.4,14.1,2.8,214.0,47.0,1.5,6,0,4,1,2026-07-08T01:28:50.268664+05:30
Thrissur,Kerala,10.5276,76.2144,25.1,96,0.1,1008.4,8.55,44.6,59,26.0,20.9,16.0,196.0,17.0,4.0,10,0,4,1,2026-07-08T01:28:50.268672+05:30
Kannur,Kerala,11.8745,75.3704,23.5,98,0.3,1008.3,8.3,39.6,61,27.0,14.1,8.7,223.0,29.0,2.0,6,0,4,1,2026-07-08T01:28:50.268680+05:30
Patna,Bihar,25.5941,85.1376,28.3,89,0.0,993.4,8.15,25.2,63,27.5,26.3,20.1,273.0,52.0,14.1,7,5,7,1,2026-07-08T01:28:50.268686+05:30
Gaya,Bihar,24.7914,85.0002,28.4,78,0.0,986.7,7.45,26.3,62,24.9,21.2,12.5,198.0,59.0,10.6,7,5,7,1,2026-07-08T01:28:50.268693+05:30
Muzaffarpur,Bihar,26.1209,85.3647,28.0,90,0.0,993.8,6.95,29.5,63,29.2,28.5,21.4,382.0,55.0,14.1,7,5,7,1,2026-07-08T01:28:50.268699+05:30
Bhagalpur,Bihar,25.2425,87.0117,26.9,97,0.1,995.0,7.75,22.0,65,27.0,26.0,15.7,325.0,70.0,21.5,10,5,7,1,2026-07-08T01:28:50.268706+05:30
Ranchi,Jharkhand,23.3441,85.3096,23.2,96,0.0,931.8,8.5,50.0,45,13.3,12.0,10.6,229.0,61.0,17.2,3,5,7,1,2026-07-08T01:28:50.268713+05:30
Jamshedpur,Jharkhand,22.8046,86.2029,26.2,95,0.2,985.2,8.35,33.5,59,25.6,23.4,18.7,480.0,62.0,27.2,10,5,7,1,2026-07-08T01:28:50.268719+05:30
Dhanbad,Jharkhand,23.7957,86.4304,25.6,95,0.0,974.0,6.85,32.8,81,42.4,39.6,45.2,1301.0,33.0,93.1,7,5,7,1,2026-07-08T01:28:50.268726+05:30
Bokaro,Jharkhand,23.6693,86.1511,26.6,90,0.1,977.9,8.2,37.8,69,37.8,33.9,33.2,1707.0,47.0,71.7,10,5,7,1,2026-07-08T01:28:50.268733+05:30
Bhubaneswar,Odisha,20.2961,85.8245,28.0,80,0.0,997.4,7.95,57.2,63,22.8,15.5,4.7,136.0,78.0,4.3,7,5,7,1,2026-07-08T01:28:50.268739+05:30
Cuttack,Odisha,20.4625,85.8828,28.1,79,0.0,999.1,8.2,42.8,63,22.8,15.5,4.7,144.0,78.0,4.3,7,5,7,1,2026-07-08T01:28:50.268745+05:30
Rourkela,Odisha,22.2604,84.8536,26.0,96,0.1,978.9,4.85,41.0,48,18.4,16.6,12.9,253.0,55.0,15.7,10,5,3,1,2026-07-08T01:28:50.268752+05:30
Raipur,Chhattisgarh,21.2514,81.6296,27.2,77,0.0,967.3,6.3,55.4,51,11.2,9.5,11.8,155.0,58.0,20.9,7,5,7,1,2026-07-08T01:28:50.268758+05:30
Bhilai,Chhattisgarh,21.1938,81.3509,26.8,80,0.0,967.6,6.65,60.1,50,9.4,8.6,13.1,250.0,56.0,23.5,7,5,7,1,2026-07-08T01:28:50.268765+05:30
Guwahati,Assam,26.1158,91.7086,25.8,97,0.0,996.9,8.4,22.7,40,12.5,12.4,9.3,240.0,41.0,1.8,7,5,7,1,2026-07-08T01:28:50.268772+05:30
Agartala,Tripura,23.8315,91.2868,24.9,99,0.3,1002.2,1.0,37.4,38,13.6,11.4,8.7,134.0,47.0,2.1,6,5,0,1,2026-07-08T01:28:50.268779+05:30
Shillong,Meghalaya,25.5788,91.8933,20.1,96,0.0,854.1,4.15,25.9,28,1.5,1.5,6.8,217.0,51.0,2.2,3,5,3,1,2026-07-08T01:28:50.268785+05:30
Imphal,Manipur,24.817,93.9368,22.8,97,0.1,919.5,2.5,31.3,22,3.3,3.2,5.2,228.0,48.0,1.6,6,5,3,1,2026-07-08T01:28:50.268792+05:30
Aizawl,Mizoram,23.7271,92.7176,19.4,99,0.2,889.3,1.2,42.5,26,0.8,0.7,3.2,107.0,48.0,1.0,6,10,3,1,2026-07-08T01:28:50.268799+05:30
Kohima,Nagaland,25.6701,94.1077,20.3,100,0.1,852.3,4.35,20.5,22,1.6,1.6,4.4,210.0,45.0,0.6,6,5,3,1,2026-07-08T01:28:50.268805+05:30
Gangtok,Sikkim,27.3314,88.6138,18.8,100,0.0,834.8,6.3,29.2,43,6.7,6.7,5.7,336.0,88.0,2.0,3,10,7,1,2026-07-08T01:28:50.268812+05:30
Siliguri,West Bengal,26.7271,88.3953,25.6,96,0.1,987.8,6.1,27.0,41,14.6,14.4,10.0,397.0,85.0,3.4,10,5,7,1,2026-07-08T01:28:53.589197+05:30
Durgapur,West Bengal,23.5204,87.3119,27.5,94,0.1,989.1,8.35,28.8,79,35.0,31.8,25.0,424.0,44.0,33.4,10,5,7,1,2026-07-08T01:28:53.589233+05:30
Asansol,West Bengal,23.6739,86.9524,26.8,95,0.1,987.9,7.6,36.4,71,28.3,25.7,24.1,335.0,47.0,35.8,10,5,7,1,2026-07-08T01:28:53.589245+05:30
Pondicherry,Puducherry,11.9139,79.8145,30.8,51,0.0,1006.8,8.2,52.6,59,23.2,16.4,15.6,201.0,47.0,7.0,0,5,4,1,2026-07-08T01:28:53.589254+05:30
Port Blair,Andaman and Nicobar Islands,11.6234,92.7265,27.1,81,0.0,1007.8,8.05,43.2,59,29.7,16.9,0.2,93.0,68.0,0.6,7,5,4,1,2026-07-08T01:28:53.589262+05:30
Haridwar,Uttarakhand,29.9457,78.1642,26.3,97,0.0,966.5,4.5,20.5,121,67.8,65.9,29.8,327.0,76.0,11.6,7,5,3,1,2026-07-08T01:28:53.589270+05:30
Rishikesh,Uttarakhand,30.0869,78.2676,25.5,97,0.0,959.4,1.9,15.1,84,36.9,35.9,15.2,358.0,98.0,6.9,7,5,3,1,2026-07-08T01:28:53.589276+05:30
Nainital,Uttarakhand,29.3919,79.4542,18.1,99,0.2,801.2,7.7,31.3,67,14.7,14.5,6.8,228.0,95.0,2.4,6,10,7,1,2026-07-08T01:28:53.589284+05:30
Mussoorie,Uttarakhand,30.4599,78.0664,17.3,100,0.0,797.9,3.4,19.4,85,43.2,42.0,30.3,362.0,91.0,11.7,3,10,3,1,2026-07-08T01:28:53.589291+05:30
Dharamshala,Himachal Pradesh,32.219,76.3234,21.9,93,0.0,863.1,8.05,34.6,42,8.5,7.9,12.7,484.0,52.0,0.3,3,5,7,1,2026-07-08T01:28:53.589298+05:30
Dalhousie,Himachal Pradesh,32.5387,75.971,17.2,97,0.0,799.1,8.65,26.3,83,42.3,40.4,37.1,583.0,34.0,2.3,3,10,7,1,2026-07-08T01:28:53.589305+05:30
Patiala,Punjab,30.3398,76.3869,27.9,88,0.0,969.6,7.55,32.0,150,62.6,59.3,22.8,1286.0,79.0,11.9,7,5,7,1,2026-07-08T01:28:53.589312+05:30
Bhatinda,Punjab,30.211,74.9455,29.8,78,0.0,974.3,7.65,27.7,169,165.3,87.1,32.6,608.0,67.0,12.3,7,5,7,1,2026-07-08T01:28:53.589321+05:30
Rohtak,Haryana,28.8955,76.6066,27.5,90,0.0,973.2,6.2,31.7,129,104.3,71.7,46.4,894.0,78.0,37.7,7,5,7,1,2026-07-08T01:28:53.589328+05:30
Panipat,Haryana,29.3909,76.9635,26.8,97,0.1,972.3,7.5,32.0,131,84.3,78.9,38.2,569.0,80.0,22.8,10,5,7,1,2026-07-08T01:28:53.589335+05:30
Mathura,Uttar Pradesh,27.4924,77.6737,26.6,95,0.1,977.8,6.5,31.0,115,55.4,27.0,15.5,268.0,88.0,10.1,10,5,7,1,2026-07-08T01:28:53.589341+05:30
Vrindavan,Uttar Pradesh,27.5823,77.7027,26.8,94,0.2,978.2,6.55,30.2,115,55.4,27.0,15.5,271.0,88.0,10.1,10,5,7,1,2026-07-08T01:28:53.589348+05:30
Ayodhya,Uttar Pradesh,26.7922,82.1998,26.8,93,0.0,987.0,6.15,38.9,58,21.7,21.7,10.7,372.0,99.0,8.7,7,5,7,1,2026-07-08T01:28:53.589355+05:30
Ratlam,Madhya Pradesh,23.3315,75.0367,25.6,98,0.1,945.5,5.45,45.4,69,15.5,14.8,6.4,283.0,78.0,3.0,10,5,3,1,2026-07-08T01:28:53.589362+05:30
Sagar,Madhya Pradesh,23.8388,78.7378,24.6,96,0.0,939.4,3.55,39.2,37,5.1,4.8,7.5,249.0,80.0,2.7,3,5,3,1,2026-07-08T01:28:53.589369+05:30
Satna,Madhya Pradesh,24.6005,80.8322,26.6,84,0.0,961.1,7.2,44.3,42,11.6,11.4,12.0,214.0,52.0,7.9,7,5,7,1,2026-07-08T01:28:53.589376+05:30
Akola,Maharashtra,20.7002,77.0082,26.7,79,0.0,966.2,6.6,49.0,39,9.8,8.9,9.2,172.0,71.0,9.1,7,5,7,1,2026-07-08T01:28:53.589384+05:30
Amravati,Maharashtra,20.9374,77.7796,26.4,78,0.0,958.7,7.75,47.9,37,8.9,8.1,9.0,184.0,73.0,9.2,7,5,7,1,2026-07-08T01:28:53.589392+05:30
Latur,Maharashtra,18.4088,76.5604,24.6,83,0.0,933.0,8.05,57.2,25,3.6,2.9,4.5,127.0,43.0,2.1,3,5,7,1,2026-07-08T01:28:53.589399+05:30
Nanded,Maharashtra,19.1383,77.3091,26.7,75,0.0,961.0,6.9,49.0,27,4.4,3.6,6.4,138.0,45.0,4.5,7,5,7,1,2026-07-08T01:28:53.589406+05:30
Gulbarga,Karnataka,17.3297,76.8343,25.6,77,0.0,953.3,6.9,63.0,24,3.9,2.8,5.7,124.0,41.0,2.7,7,5,7,1,2026-07-08T01:28:53.589414+05:30
Bidar,Karnataka,17.9104,77.5199,24.6,79,0.0,929.2,8.45,61.6,25,5.6,3.9,5.3,122.0,43.0,2.5,3,5,7,1,2026-07-08T01:28:53.589420+05:30
Hospet,Karnataka,15.2689,76.3909,23.6,87,0.0,952.5,7.95,68.8,22,2.2,1.7,3.4,112.0,41.0,1.3,3,5,7,1,2026-07-08T01:28:53.589427+05:30
Tirupur,Tamil Nadu,11.1085,77.3411,24.8,81,0.0,974.5,8.8,66.2,51,26.5,19.0,20.0,156.0,26.0,5.0,3,5,7,1,2026-07-08T01:28:53.589434+05:30
Alappuzha,Kerala,9.4981,76.3388,27.6,88,0.0,1009.7,8.45,45.4,62,24.7,16.5,11.8,84.0,33.0,3.7,7,0,4,1,2026-07-08T01:28:53.589442+05:30
Munnar,Kerala,10.0889,77.0595,16.5,97,0.0,856.8,6.85,57.2,34,12.0,8.4,7.8,85.0,28.0,1.6,3,10,7,0,2026-07-08T01:28:53.589449+05:30
Silchar,Assam,24.8333,92.7789,25.6,95,1.4,1000.8,0.55,30.6,33,6.2,5.8,5.5,150.0,48.0,1.6,10,5,0,1,2026-07-08T01:28:53.589471+05:30
Dibrugarh,Assam,27.4728,94.912,25.8,98,0.2,990.7,6.1,31.3,33,7.2,6.8,6.8,153.0,48.0,1.3,10,5,7,1,2026-07-08T01:28:53.589478+05:30
