city,state,latitude,longitude,temp,humidity,rain,pressure,uv_index,wind_gusts,aqi,pm10,pm2_5,no2,co,o3,so2,mosquito_risk,arthritis_risk,migraine_risk,frizz_risk,updated_at
Delhi,Delhi,28.6139,77.209,42.9,15,0.0,974.8,7.75,35.6,289,400.5,63.1,5.8,204.0,141.0,7.4,0,5,10,0,2026-05-20T16:23:21.712320+05:30
Mumbai,Maharashtra,19.076,72.8777,31.8,62,0.0,1005.4,7.5,39.6,68,23.7,15.5,5.7,163.0,100.0,6.3,3,5,4,1,2026-05-20T16:23:21.712363+05:30
Bangalore,Karnataka,12.9716,77.5946,25.4,79,0.1,908.8,6.15,38.5,38,7.9,6.5,5.9,325.0,86.0,2.7,10,5,7,1,2026-05-20T16:23:21.712378+05:30
Hyderabad,Telangana,17.385,78.4867,39.8,19,0.0,948.2,9.2,34.6,95,53.3,31.5,2.4,267.0,158.0,5.9,0,5,10,0,2026-05-20T16:23:21.712387+05:30
Chennai,Tamil Nadu,13.0827,80.2707,39.8,32,0.0,999.0,9.1,35.6,92,28.2,22.3,3.2,270.0,171.0,5.3,0,5,10,1,2026-05-20T16:23:21.712396+05:30
Kolkata,West Bengal,22.5726,88.3639,36.5,55,0.0,996.1,8.95,25.6,93,79.2,44.0,6.4,404.0,153.0,14.2,0,5,10,1,2026-05-20T16:23:21.712404+05:30
Pune,Maharashtra,18.5204,73.8567,32.8,42,0.1,945.5,8.45,38.2,73,38.3,21.6,2.7,175.0,126.0,5.7,3,5,7,1,2026-05-20T16:23:21.712411+05:30
Ahmedabad,Gujarat,23.0225,72.5714,42.2,18,0.0,995.5,8.15,36.4,62,83.8,22.4,1.1,147.0,90.0,1.8,0,5,10,0,2026-05-20T16:23:21.712418+05:30
Jaipur,Rajasthan,26.9124,75.7873,40.0,14,0.0,954.0,8.3,40.3,110,162.1,28.9,0.9,160.0,116.0,2.2,0,5,10,0,2026-05-20T16:23:21.712429+05:30
Lucknow,Uttar Pradesh,26.8467,80.9462,42.7,18,0.0,984.6,8.25,41.4,157,173.2,46.3,2.7,225.0,157.0,8.3,0,5,10,0,2026-05-20T16:23:21.712436+05:30
Kanpur,Uttar Pradesh,26.4499,80.3319,43.2,15,0.0,983.3,8.25,42.1,160,430.3,65.7,1.8,158.0,149.0,7.1,0,5,10,0,2026-05-20T16:23:21.712443+05:30
Chandigarh,Chandigarh,30.7333,76.7794,41.3,11,0.0,961.1,7.8,26.3,114,74.7,26.4,1.1,266.0,148.0,7.0,0,5,10,0,2026-05-20T16:23:21.712450+05:30
Srinagar,Jammu and Kashmir,34.0837,74.7973,24.1,39,0.0,844.1,9.05,27.0,88,50.8,17.4,1.9,236.0,128.0,3.1,0,5,7,0,2026-05-20T16:23:21.712460+05:30
Jammu,Jammu and Kashmir,32.7266,74.857,41.9,12,0.0,964.7,8.6,41.8,88,73.6,22.6,0.3,157.0,150.0,3.6,0,5,10,0,2026-05-20T16:23:21.712467+05:30
Amritsar,Punjab,31.634,74.8723,42.3,14,0.0,972.0,8.5,36.0,124,65.2,23.5,1.8,253.0,150.0,5.1,0,5,10,0,2026-05-20T16:23:21.712473+05:30
Ludhiana,Punjab,30.901,75.8573,42.6,11,0.0,970.0,8.05,27.7,157,163.9,41.0,1.0,212.0,137.0,6.5,0,5,10,0,2026-05-20T16:23:21.712479+05:30
Jalandhar,Punjab,31.326,75.5762,42.5,11,0.0,971.1,8.25,27.4,142,109.7,30.4,1.9,214.0,134.0,4.9,0,5,10,0,2026-05-20T16:23:21.712486+05:30
Dehradun,Uttarakhand,30.6284,78.0322,28.0,20,0.0,830.5,8.25,46.4,101,44.4,16.4,0.3,244.0,151.0,4.9,4,5,7,0,2026-05-20T16:23:21.712494+05:30
Shimla,Himachal Pradesh,31.1048,77.1734,26.2,17,0.0,786.2,8.3,41.4,116,33.4,14.6,0.9,194.0,163.0,8.7,4,5,7,1,2026-05-20T16:23:21.712503+05:30
Manali,Himachal Pradesh,32.2396,77.1887,23.8,45,0.0,818.6,10.0,38.9,95,31.2,15.1,5.2,156.0,156.0,0.7,0,5,7,0,2026-05-20T16:23:21.712509+05:30
Gurgaon,Haryana,28.4595,77.0266,42.6,14,0.0,973.3,7.85,34.2,823,828.9,103.1,3.7,205.0,135.0,5.1,0,5,10,0,2026-05-20T16:23:21.712516+05:30
Noida,Uttar Pradesh,28.5355,77.391,42.0,18,0.0,976.1,7.8,33.1,823,828.9,103.1,3.7,274.0,135.0,5.1,0,5,10,0,2026-05-20T16:23:21.712522+05:30
Ghaziabad,Uttar Pradesh,28.6692,77.4538,42.8,14,0.0,974.3,7.75,31.0,218,337.1,62.9,3.9,164.0,167.0,12.0,0,5,10,0,2026-05-20T16:23:21.712529+05:30
Faridabad,Haryana,28.4089,77.3178,42.8,15,0.0,975.5,7.8,35.6,823,828.9,103.1,3.7,194.0,135.0,5.1,0,5,10,0,2026-05-20T16:23:21.712535+05:30
Meerut,Uttar Pradesh,28.9845,77.7064,41.6,17,0.0,973.6,7.7,28.4,218,337.1,62.9,3.9,175.0,167.0,12.0,0,5,10,0,2026-05-20T16:23:21.712541+05:30
Agra,Uttar Pradesh,27.1767,78.0081,42.9,14,0.0,979.8,8.1,37.8,404,427.5,51.2,3.7,144.0,127.0,3.1,0,5,10,0,2026-05-20T16:23:21.712548+05:30
Varanasi,Uttar Pradesh,25.3176,82.9739,41.4,25,0.0,988.8,8.75,39.2,165,147.6,46.8,2.4,208.0,182.0,11.9,0,5,10,1,2026-05-20T16:23:21.712555+05:30
Prayagraj,Uttar Pradesh,25.4358,81.8463,43.2,18,0.0,986.9,8.6,38.2,166,149.9,42.6,1.7,178.0,169.0,10.5,0,5,10,0,2026-05-20T16:23:21.712561+05:30
Gorakhpur,Uttar Pradesh,26.7606,83.3732,36.5,48,0.0,989.0,8.65,29.9,156,156.0,63.8,2.3,422.0,186.0,12.4,0,5,10,1,2026-05-20T16:23:21.712570+05:30
Bareilly,Uttar Pradesh,28.367,79.4304,39.0,33,0.0,978.6,8.05,29.9,157,105.5,38.8,1.9,199.0,175.0,9.9,0,5,10,1,2026-05-20T16:23:21.712576+05:30
Aligarh,Uttar Pradesh,27.8974,78.088,42.1,17,0.0,977.4,7.9,28.4,460,547.6,78.0,2.4,158.0,156.0,7.9,0,5,10,0,2026-05-20T16:23:21.712582+05:30
Moradabad,Uttar Pradesh,28.8386,78.7733,39.5,28,0.0,975.8,7.9,32.0,201,159.7,54.9,3.9,224.0,205.0,14.0,0,5,10,1,2026-05-20T16:23:21.712588+05:30
Saharanpur,Uttar Pradesh,29.9637,77.546,40.2,18,0.0,968.0,7.45,23.0,154,176.0,47.4,4.3,195.0,145.0,10.3,0,5,10,0,2026-05-20T16:23:21.712595+05:30
Jhansi,Uttar Pradesh,25.4484,78.5685,42.9,14,0.0,970.9,8.5,40.7,57,25.5,11.5,1.2,138.0,119.0,3.7,0,5,10,0,2026-05-20T16:23:24.990774+05:30
Surat,Gujarat,21.1702,72.8311,34.0,51,0.0,1002.4,7.65,47.5,73,51.7,24.2,15.6,269.0,62.0,43.6,0,5,4,1,2026-05-20T16:23:24.990815+05:30
Vadodara,Gujarat,22.3072,73.1812,40.9,20,0.0,998.2,8.1,49.3,64,73.6,25.4,1.5,162.0,120.0,4.7,0,5,10,0,2026-05-20T16:23:24.990833+05:30
Rajkot,Gujarat,22.3039,70.8022,40.3,19,0.0,988.8,7.75,42.1,59,87.3,26.0,0.9,125.0,104.0,4.0,0,5,10,0,2026-05-20T16:23:24.990849+05:30
Thane,Maharashtra,19.2183,72.9781,34.1,50,0.0,1004.4,7.7,37.1,68,23.7,15.5,5.7,147.0,100.0,6.3,0,5,4,1,2026-05-20T16:23:24.990863+05:30
Nagpur,Maharashtra,21.1458,79.0882,43.4,12,0.0,965.6,8.9,40.0,104,38.4,16.7,5.1,169.0,161.0,16.6,0,5,10,0,2026-05-20T16:23:24.990878+05:30
Nashik,Maharashtra,19.9975,73.7898,32.3,47,0.2,943.1,8.2,41.4,64,24.4,14.1,1.1,129.0,99.0,1.4,3,5,7,1,2026-05-20T16:23:24.990893+05:30
Aurangabad,Maharashtra,19.8762,75.3433,39.7,18,0.0,940.0,9.05,48.2,68,38.3,20.0,1.1,152.0,129.0,2.8,0,5,10,0,2026-05-20T16:23:24.990909+05:30
Solapur,Maharashtra,17.6599,75.9064,38.8,26,0.0,952.5,5.45,39.2,84,53.0,29.3,1.4,156.0,155.0,6.4,0,5,6,0,2026-05-20T16:23:24.990924+05:30
Kolhapur,Maharashtra,16.705,74.2433,31.6,49,0.0,945.0,3.35,37.8,75,46.9,24.4,2.2,151.0,111.0,2.7,0,5,3,1,2026-05-20T16:23:24.990938+05:30
Goa,Goa,15.2993,74.124,31.4,67,0.1,994.5,7.3,26.3,49,5.6,4.2,0.9,121.0,80.0,0.6,6,5,7,1,2026-05-20T16:23:24.990953+05:30
Jodhpur,Rajasthan,26.2389,73.0243,40.0,24,0.0,976.1,8.45,45.0,129,314.8,50.8,0.5,128.0,104.0,2.7,0,5,10,0,2026-05-20T16:23:24.990968+05:30
Udaipur,Rajasthan,24.5854,73.7125,37.4,19,0.0,942.3,8.85,50.4,60,72.2,20.2,0.5,126.0,96.0,1.7,0,5,10,0,2026-05-20T16:23:24.990982+05:30
Kota,Rajasthan,25.2138,75.8648,42.5,12,0.0,972.3,8.45,37.1,53,43.2,17.5,0.8,134.0,124.0,3.7,0,5,10,0,2026-05-20T16:23:24.990995+05:30
Bikaner,Rajasthan,28.0229,73.3119,42.3,14,0.0,973.9,8.4,34.6,95,81.5,26.2,0.4,131.0,109.0,2.5,0,5,10,0,2026-05-20T16:23:24.991007+05:30
Ajmer,Rajasthan,26.4499,74.6399,37.5,21,0.0,949.5,8.4,44.3,54,50.5,17.9,0.6,137.0,107.0,1.9,0,5,10,0,2026-05-20T16:23:24.991047+05:30
Gwalior,Madhya Pradesh,26.2183,78.1828,42.5,14,0.0,975.9,8.3,44.6,76,39.8,15.9,0.8,156.0,120.0,2.2,0,5,10,0,2026-05-20T16:23:24.991066+05:30
Indore,Madhya Pradesh,22.7196,75.8577,39.5,18,0.0,944.0,8.2,43.6,60,49.5,22.5,1.2,164.0,126.0,4.0,0,5,10,0,2026-05-20T16:23:24.991080+05:30
Bhopal,Madhya Pradesh,23.2599,77.4126,41.2,14,0.0,948.4,8.7,46.1,69,32.8,16.5,1.2,169.0,126.0,3.2,0,5,10,0,2026-05-20T16:23:24.991094+05:30
Jabalpur,Madhya Pradesh,23.1815,79.9864,43.0,12,0.0,954.6,8.85,29.2,108,61.0,21.1,1.2,157.0,139.0,4.9,0,5,10,0,2026-05-20T16:23:24.991107+05:30
Ujjain,Madhya Pradesh,23.1765,75.7885,39.5,18,0.0,949.4,8.3,45.0,58,49.9,20.8,0.7,135.0,117.0,3.1,0,5,10,0,2026-05-20T16:23:24.991123+05:30
Visakhapatnam,Andhra Pradesh,17.6868,83.2185,41.0,29,0.0,994.8,8.65,35.6,150,49.4,44.1,18.5,493.0,187.0,49.8,0,5,10,1,2026-05-20T16:23:24.991137+05:30
Vijayawada,Andhra Pradesh,16.5062,80.648,42.3,24,0.0,994.1,8.65,39.6,119,56.5,39.3,2.5,213.0,161.0,6.2,0,5,10,1,2026-05-20T16:23:24.991152+05:30
Guntur,Andhra Pradesh,16.3067,80.4365,42.5,21,0.0,995.3,8.35,41.4,104,55.9,35.7,1.3,205.0,154.0,5.2,0,5,10,0,2026-05-20T16:23:24.991166+05:30
Nellore,Andhra Pradesh,14.4426,79.9865,42.5,23,0.0,997.2,8.85,46.4,75,39.6,28.7,3.3,200.0,158.0,5.5,0,5,10,1,2026-05-20T16:23:24.991182+05:30
Kurnool,Andhra Pradesh,15.8281,78.0373,39.9,26,0.0,970.8,8.25,38.9,77,53.1,33.5,1.3,182.0,163.0,8.2,0,5,10,1,2026-05-20T16:23:24.991198+05:30
Kakinada,Andhra Pradesh,16.9891,82.2475,39.8,36,0.1,998.9,8.6,39.2,109,28.8,21.9,2.4,251.0,131.0,3.0,3,5,10,1,2026-05-20T16:23:24.991213+05:30
Tirupati,Andhra Pradesh,13.6288,79.4192,39.7,29,0.0,983.8,9.05,34.6,64,21.6,16.7,3.4,196.0,122.0,2.6,0,5,10,1,2026-05-20T16:23:24.991227+05:30
Warangal,Telangana,17.9689,79.5941,40.5,21,0.0,972.0,8.75,29.9,116,57.5,35.0,2.2,211.0,157.0,6.1,0,5,10,0,2026-05-20T16:23:24.991241+05:30
Nizamabad,Telangana,18.6725,78.0941,41.5,16,0.0,958.8,8.9,32.0,101,42.7,23.5,0.7,183.0,151.0,5.6,0,5,10,0,2026-05-20T16:23:24.991255+05:30
Mysore,Karnataka,12.2958,76.6396,25.5,82,0.4,926.0,3.9,43.9,34,5.5,4.5,3.3,167.0,94.0,1.3,10,5,3,1,2026-05-20T16:23:24.991270+05:30
Mangalore,Karnataka,12.9141,74.856,29.2,77,0.0,1003.8,4.5,29.2,37,8.6,5.8,0.9,142.0,71.0,0.9,7,5,0,1,2026-05-20T16:23:24.991283+05:30
Hubli-Dharwad,Karnataka,15.3647,75.124,31.0,58,0.0,937.7,8.8,39.6,36,6.2,4.9,2.4,159.0,89.0,0.7,0,5,7,1,2026-05-20T16:23:24.991297+05:30
Belgaum,Karnataka,15.8497,74.4977,30.0,55,0.0,923.3,8.95,34.9,66,36.7,19.6,2.2,144.0,106.0,2.8,4,5,7,1,2026-05-20T16:23:28.270804+05:30
Coimbatore,Tamil Nadu,11.0168,76.9558,30.6,61,0.0,958.3,7.5,53.6,35,5.5,4.7,2.4,171.0,82.0,1.6,3,5,7,1,2026-05-20T16:23:28.270834+05:30
Madurai,Tamil Nadu,9.9252,78.1198,33.7,53,0.0,988.7,8.65,53.3,74,5.6,4.5,2.3,184.0,96.0,1.4,0,5,7,1,2026-05-20T16:23:28.270844+05:30
Trichy,Tamil Nadu,10.7905,78.7047,34.5,51,0.0,994.6,8.25,40.7,38,6.0,5.0,2.4,168.0,102.0,1.9,0,5,7,1,2026-05-20T16:23:28.270853+05:30
Salem,Tamil Nadu,11.6643,78.146,30.3,71,0.1,973.4,6.8,37.4,51,8.9,7.8,3.6,192.0,120.0,6.9,6,5,7,1,2026-05-20T16:23:28.270861+05:30
Tirunelveli,Tamil Nadu,8.7139,77.7567,35.3,46,0.0,998.9,8.75,39.2,31,5.5,4.3,1.6,136.0,72.0,0.8,0,5,10,1,2026-05-20T16:23:28.270869+05:30
Vellore,Tamil Nadu,12.9165,79.1325,35.2,42,0.1,978.5,8.85,47.9,53,14.5,12.0,2.0,250.0,118.0,2.2,3,5,10,1,2026-05-20T16:23:28.270877+05:30
Erode,Tamil Nadu,11.341,77.7172,33.7,52,0.1,984.8,7.0,36.0,41,6.7,5.8,3.1,193.0,101.0,1.6,3,5,7,1,2026-05-20T16:23:28.270885+05:30
Kochi,Kerala,9.9312,76.2673,29.6,76,0.0,1006.1,7.7,31.3,51,11.3,8.4,2.1,138.0,81.0,2.4,7,5,4,1,2026-05-20T16:23:28.270892+05:30
Thiruvananthapuram,Kerala,8.5241,76.9366,29.0,79,0.0,1005.6,8.15,41.8,28,10.2,6.1,1.0,146.0,63.0,0.5,7,5,4,1,2026-05-20T16:23:28.270900+05:30
Kozhikode,Kerala,11.2588,75.7804,29.6,77,0.1,1005.2,6.35,32.8,32,8.0,5.1,0.4,153.0,66.0,0.3,10,5,4,1,2026-05-20T16:23:28.270907+05:30
Thrissur,Kerala,10.5276,76.2144,29.0,81,0.0,1004.5,7.45,36.0,43,10.4,8.1,1.6,139.0,83.0,1.9,7,5,4,1,2026-05-20T16:23:28.270915+05:30
Kannur,Kerala,11.8745,75.3704,29.8,74,0.1,1004.5,8.1,28.8,34,8.2,5.5,0.8,136.0,68.0,0.6,10,5,4,1,2026-05-20T16:23:28.270923+05:30
Patna,Bihar,25.5941,85.1376,36.0,51,0.0,992.3,8.85,24.5,155,115.9,66.8,4.8,404.0,184.0,14.0,0,5,10,1,2026-05-20T16:23:28.270930+05:30
Gaya,Bihar,24.7914,85.0002,38.0,40,0.0,985.5,8.9,31.0,156,159.7,62.4,2.4,307.0,173.0,11.5,0,5,10,1,2026-05-20T16:23:28.270937+05:30
Muzaffarpur,Bihar,26.1209,85.3647,31.5,70,0.0,992.6,8.85,27.0,153,96.2,65.0,5.1,392.0,181.0,14.4,3,5,7,1,2026-05-20T16:23:28.270944+05:30
Bhagalpur,Bihar,25.2425,87.0117,33.0,66,0.2,993.1,8.7,31.7,153,79.4,57.7,5.8,359.0,205.0,25.2,6,5,7,1,2026-05-20T16:23:28.270951+05:30
Ranchi,Jharkhand,23.3441,85.3096,34.8,31,0.0,931.9,9.3,44.6,141,160.7,39.2,1.7,218.0,147.0,6.6,0,5,7,0,2026-05-20T16:23:28.270958+05:30
Jamshedpur,Jharkhand,22.8046,86.2029,39.5,27,0.0,981.5,9.1,34.6,170,148.1,59.4,7.4,217.0,208.0,30.8,0,5,10,1,2026-05-20T16:23:28.270965+05:30
Dhanbad,Jharkhand,23.7957,86.4304,38.8,30,0.0,971.5,9.1,38.2,166,158.3,67.3,11.0,253.0,211.0,42.8,0,5,10,1,2026-05-20T16:23:28.270973+05:30
Bokaro,Jharkhand,23.6693,86.1511,38.2,33,0.0,975.3,9.1,41.0,167,177.0,57.3,9.3,250.0,176.0,37.1,0,5,10,1,2026-05-20T16:23:28.270980+05:30
Bhubaneswar,Odisha,20.2961,85.8245,38.2,44,0.1,992.9,9.15,37.8,133,87.3,49.2,6.5,317.0,194.0,16.6,3,5,10,1,2026-05-20T16:23:28.270987+05:30
Cuttack,Odisha,20.4625,85.8828,38.8,40,0.0,994.2,9.2,30.2,133,87.3,49.2,6.5,259.0,194.0,16.6,0,5,10,1,2026-05-20T16:23:28.270993+05:30
Rourkela,Odisha,22.2604,84.8536,40.2,25,0.0,976.1,9.0,35.6,155,176.0,34.6,3.3,294.0,137.0,4.0,0,5,10,1,2026-05-20T16:23:28.271000+05:30
Raipur,Chhattisgarh,21.2514,81.6296,42.1,18,0.0,967.5,9.0,33.1,143,72.4,45.2,9.1,162.0,176.0,31.2,0,5,10,0,2026-05-20T16:23:28.271007+05:30
Bhilai,Chhattisgarh,21.1938,81.3509,41.5,19,0.0,967.8,8.9,34.9,135,69.2,39.1,10.2,258.0,160.0,29.7,0,5,10,0,2026-05-20T16:23:28.271014+05:30
Guwahati,Assam,26.1158,91.7086,30.1,76,0.0,993.4,8.2,21.6,138,51.0,34.1,2.6,324.0,125.0,4.1,3,5,7,1,2026-05-20T16:23:28.271021+05:30
Agartala,Tripura,23.8315,91.2868,32.1,74,0.0,997.4,8.85,28.4,85,37.3,25.8,6.6,226.0,130.0,3.0,3,5,7,1,2026-05-20T16:23:28.271028+05:30
Shillong,Meghalaya,25.5788,91.8933,24.4,68,0.0,853.4,8.5,22.7,91,31.0,18.6,2.2,254.0,119.0,2.9,3,5,7,1,2026-05-20T16:23:28.271035+05:30
Imphal,Manipur,24.817,93.9368,29.7,59,0.0,916.6,9.25,30.2,112,44.8,23.5,1.5,229.0,107.0,3.6,4,5,7,1,2026-05-20T16:23:28.271042+05:30
Aizawl,Mizoram,23.7271,92.7176,27.3,60,0.0,887.3,9.1,21.6,83,59.6,31.1,1.9,202.0,109.0,3.5,4,5,7,1,2026-05-20T16:23:28.271048+05:30
Kohima,Nagaland,25.6701,94.1077,22.8,91,0.0,851.0,8.65,29.9,110,46.2,24.4,1.9,230.0,111.0,2.7,3,5,7,1,2026-05-20T16:23:28.271056+05:30
Gangtok,Sikkim,27.3314,88.6138,21.7,84,0.1,835.0,9.2,37.4,83,43.9,25.4,2.6,328.0,131.0,3.0,6,5,7,1,2026-05-20T16:23:28.271063+05:30
Siliguri,West Bengal,26.7271,88.3953,30.7,71,0.0,985.5,8.7,23.4,128,68.0,39.8,4.7,502.0,143.0,5.1,3,5,7,1,2026-05-20T16:23:31.546970+05:30
Durgapur,West Bengal,23.5204,87.3119,37.2,44,0.0,985.9,9.0,24.8,158,146.7,92.9,16.6,568.0,232.0,64.1,0,5,10,1,2026-05-20T16:23:31.547002+05:30
Asansol,West Bengal,23.6739,86.9524,37.2,42,0.0,984.6,9.05,24.1,157,148.1,87.1,15.5,418.0,227.0,54.8,0,5,10,1,2026-05-20T16:23:31.547012+05:30
Pondicherry,Puducherry,11.9139,79.8145,35.2,53,0.0,1001.8,5.3,29.2,82,29.0,25.4,8.7,266.0,170.0,11.0,0,5,3,1,2026-05-20T16:23:31.547021+05:30
Port Blair,Andaman and Nicobar Islands,11.6234,92.7265,29.1,80,0.0,1001.8,8.75,46.8,26,10.6,6.4,0.5,144.0,45.0,0.5,7,5,4,1,2026-05-20T16:23:31.547030+05:30
Haridwar,Uttarakhand,29.9457,78.1642,39.0,25,0.0,966.5,7.6,28.8,140,58.2,25.1,1.3,288.0,146.0,6.7,0,5,10,0,2026-05-20T16:23:31.547038+05:30
Rishikesh,Uttarakhand,30.0869,78.2676,38.5,21,0.0,959.5,7.7,24.1,105,24.9,12.5,0.4,261.0,140.0,3.9,0,5,10,0,2026-05-20T16:23:31.547046+05:30
Nainital,Uttarakhand,29.3919,79.4542,26.6,21,0.0,806.3,8.55,59.0,128,46.9,19.2,1.1,250.0,159.0,6.4,4,5,7,0,2026-05-20T16:23:31.547054+05:30
Mussoorie,Uttarakhand,30.4599,78.0664,25.9,20,0.0,803.9,8.1,54.0,120,33.3,19.0,1.0,248.0,151.0,5.7,4,5,7,0,2026-05-20T16:23:31.547062+05:30
Dharamshala,Himachal Pradesh,32.219,76.3234,30.2,23,0.0,867.2,8.5,46.4,87,56.5,16.1,0.2,175.0,150.0,4.3,0,5,7,0,2026-05-20T16:23:31.547070+05:30
Dalhousie,Himachal Pradesh,32.5387,75.971,25.7,34,0.0,805.2,8.75,42.8,103,75.7,21.9,0.5,175.0,164.0,5.2,4,5,7,0,2026-05-20T16:23:31.547079+05:30
Patiala,Punjab,30.3398,76.3869,43.0,12,0.0,969.5,7.7,23.0,526,624.0,88.9,1.3,214.0,124.0,5.6,0,5,10,0,2026-05-20T16:23:31.547087+05:30
Bhatinda,Punjab,30.211,74.9455,42.8,16,0.0,974.9,8.35,30.2,104,88.9,28.1,1.4,156.0,117.0,5.6,0,5,10,0,2026-05-20T16:23:31.547094+05:30
Rohtak,Haryana,28.8955,76.6066,42.0,16,0.0,973.6,7.8,27.7,414,467.5,64.0,2.3,174.0,124.0,2.3,0,5,10,0,2026-05-20T16:23:31.547101+05:30
Panipat,Haryana,29.3909,76.9635,42.9,13,0.0,971.9,7.65,31.3,972,879.2,105.2,3.5,153.0,126.0,7.0,0,5,10,0,2026-05-20T16:23:31.547109+05:30
Mathura,Uttar Pradesh,27.4924,77.6737,43.2,14,0.0,978.5,8.05,39.6,367,399.5,49.1,2.8,144.0,124.0,2.4,0,5,10,0,2026-05-20T16:23:31.547115+05:30
Vrindavan,Uttar Pradesh,27.5823,77.7027,42.6,16,0.0,978.9,8.0,29.9,367,399.5,49.1,2.8,145.0,124.0,2.4,0,5,10,0,2026-05-20T16:23:31.547122+05:30
Ayodhya,Uttar Pradesh,26.7922,82.1998,39.6,35,0.0,986.3,8.4,21.6,160,169.5,53.6,1.8,308.0,178.0,11.3,0,5,10,1,2026-05-20T16:23:31.547129+05:30
Ratlam,Madhya Pradesh,23.3315,75.0367,38.3,21,0.0,950.7,8.5,47.5,58,54.4,20.7,0.4,127.0,111.0,2.6,0,5,10,0,2026-05-20T16:23:31.547137+05:30
Sagar,Madhya Pradesh,23.8388,78.7378,41.8,13,0.0,944.8,8.75,38.2,71,27.8,11.2,0.5,149.0,133.0,4.0,0,5,10,0,2026-05-20T16:23:31.547143+05:30
Satna,Madhya Pradesh,24.6005,80.8322,42.5,14,0.0,964.0,8.8,38.9,127,137.4,33.5,0.8,156.0,139.0,5.0,0,5,10,0,2026-05-20T16:23:31.547150+05:30
Akola,Maharashtra,20.7002,77.0082,42.5,15,0.0,969.1,8.9,40.3,87,44.9,22.1,1.4,153.0,137.0,6.3,0,5,10,0,2026-05-20T16:23:31.547157+05:30
Amravati,Maharashtra,20.9374,77.7796,42.5,13,0.0,960.7,8.9,41.0,92,39.6,19.9,1.8,173.0,140.0,7.3,0,5,10,0,2026-05-20T16:23:31.547165+05:30
Latur,Maharashtra,18.4088,76.5604,39.5,20,0.0,935.7,6.5,32.8,93,56.0,29.5,0.8,155.0,152.0,6.1,0,5,10,0,2026-05-20T16:23:31.547172+05:30
Nanded,Maharashtra,19.1383,77.3091,42.5,16,0.0,962.5,8.8,35.3,112,43.3,22.2,0.9,166.0,147.0,5.2,0,5,10,0,2026-05-20T16:23:31.547179+05:30
Gulbarga,Karnataka,17.3297,76.8343,39.0,27,0.0,953.7,8.85,37.1,90,57.4,32.4,1.8,187.0,157.0,5.9,0,5,10,1,2026-05-20T16:23:31.547185+05:30
Bidar,Karnataka,17.9104,77.5199,38.4,22,0.0,931.5,8.7,39.2,100,41.7,24.2,0.8,177.0,166.0,6.7,0,5,10,0,2026-05-20T16:23:31.547192+05:30
Hospet,Karnataka,15.2689,76.3909,32.0,57,0.0,952.0,8.2,42.5,37,15.1,11.1,2.0,172.0,109.0,2.2,0,5,7,1,2026-05-20T16:23:31.547199+05:30
Tirupur,Tamil Nadu,11.1085,77.3411,33.2,51,0.0,971.4,7.3,49.3,46,6.3,5.4,2.9,168.0,97.0,2.0,0,5,7,1,2026-05-20T16:23:31.547205+05:30
Alappuzha,Kerala,9.4981,76.3388,29.9,75,0.0,1006.2,7.75,33.1,35,9.8,6.8,2.0,116.0,72.0,1.2,7,5,4,1,2026-05-20T16:23:31.547212+05:30
Munnar,Kerala,10.0889,77.0595,19.6,93,0.1,855.6,8.2,43.6,31,4.9,4.0,1.4,128.0,74.0,0.9,6,10,7,1,2026-05-20T16:23:31.547220+05:30
Silchar,Assam,24.8333,92.7789,32.8,65,0.0,996.2,8.9,27.0,153,51.9,27.9,2.1,265.0,121.0,5.3,3,5,7,1,2026-05-20T16:23:31.547228+05:30
Dibrugarh,Assam,27.4728,94.912,31.8,62,0.0,986.8,8.9,16.9,108,32.9,19.2,4.1,319.0,124.0,3.1,3,5,7,1,2026-05-20T16:23:31.547235+05:30
