city,state,latitude,longitude,temp,humidity,rain,pressure,uv_index,wind_gusts,aqi,pm10,pm2_5,mosquito_risk,arthritis_risk,migraine_risk,frizz_risk,updated_at
Delhi,Delhi,28.6139,77.209,34.7,28,0.0,983.3,7.3,20.5,332,56.7,22.9,0,5,7,0,2026-04-16T11:03:40.107072+05:30
Mumbai,Maharashtra,19.076,72.8777,28.2,74,0.0,1008.5,8.0,19.4,81,57.7,31.8,7,0,4,1,2026-04-16T11:03:40.107113+05:30
Bangalore,Karnataka,12.9716,77.5946,31.7,48,0.0,913.3,9.6,33.8,78,30.0,25.2,0,5,7,1,2026-04-16T11:03:40.107128+05:30
Hyderabad,Telangana,17.385,78.4867,37.3,32,0.0,953.7,9.2,34.6,89,25.4,21.2,0,5,10,1,2026-04-16T11:03:40.107139+05:30
Chennai,Tamil Nadu,13.0827,80.2707,35.1,55,0.0,1007.0,9.35,34.2,30,10.7,8.0,0,5,7,1,2026-04-16T11:03:40.107148+05:30
Kolkata,West Bengal,22.5726,88.3639,32.2,66,0.0,1006.3,8.85,33.5,87,32.8,24.0,3,5,4,1,2026-04-16T11:03:40.107158+05:30
Pune,Maharashtra,18.5204,73.8567,36.6,13,0.0,949.2,8.6,42.1,63,25.4,12.7,0,5,10,0,2026-04-16T11:03:40.107169+05:30
Ahmedabad,Gujarat,23.0225,72.5714,33.4,43,0.0,1002.0,8.1,15.8,84,63.8,23.1,0,5,4,1,2026-04-16T11:03:40.107177+05:30
Jaipur,Rajasthan,26.9124,75.7873,37.4,13,0.0,960.6,7.95,26.6,133,339.9,39.2,0,5,10,0,2026-04-16T11:03:40.107185+05:30
Lucknow,Uttar Pradesh,26.8467,80.9462,35.2,28,0.0,993.7,7.85,23.8,107,108.5,33.1,0,5,10,0,2026-04-16T11:03:40.107193+05:30
Kanpur,Uttar Pradesh,26.4499,80.3319,34.9,31,0.0,992.1,7.85,21.6,140,193.2,40.2,0,5,7,0,2026-04-16T11:03:40.107199+05:30
Chandigarh,Chandigarh,30.7333,76.7794,32.9,35,0.0,969.4,7.2,23.0,45,11.6,6.4,0,5,7,0,2026-04-16T11:03:40.107207+05:30
Srinagar,Jammu and Kashmir,34.0837,74.7973,19.0,49,0.0,844.3,7.85,28.4,67,23.8,14.8,0,5,7,0,2026-04-16T11:03:40.107213+05:30
Jammu,Jammu and Kashmir,32.7266,74.857,33.2,35,0.0,973.0,7.45,31.3,60,10.0,8.4,0,5,7,0,2026-04-16T11:03:40.107223+05:30
Amritsar,Punjab,31.634,74.8723,33.6,38,0.0,980.9,7.95,42.8,71,10.8,8.5,0,5,7,1,2026-04-16T11:03:40.107229+05:30
Ludhiana,Punjab,30.901,75.8573,33.6,30,0.0,979.2,7.5,24.1,76,14.3,14.0,0,5,7,0,2026-04-16T11:03:40.107236+05:30
Jalandhar,Punjab,31.326,75.5762,33.0,35,0.0,980.3,7.0,24.5,65,12.6,10.7,0,5,7,0,2026-04-16T11:03:40.107244+05:30
Dehradun,Uttarakhand,30.6284,78.0322,24.1,43,0.0,833.7,7.35,31.3,36,3.4,2.9,0,5,7,0,2026-04-16T11:03:40.107251+05:30
Shimla,Himachal Pradesh,31.1048,77.1734,22.5,34,0.0,789.1,7.3,42.1,44,1.9,1.5,0,5,7,0,2026-04-16T11:03:40.107257+05:30
Manali,Himachal Pradesh,32.2396,77.1887,23.9,25,0.0,824.5,8.65,36.0,62,11.3,7.2,0,5,7,0,2026-04-16T11:03:40.107264+05:30
Gurgaon,Haryana,28.4595,77.0266,34.5,30,0.0,981.9,7.4,19.4,702,246.8,49.4,0,5,7,0,2026-04-16T11:03:40.107271+05:30
Noida,Uttar Pradesh,28.5355,77.391,34.9,29,0.0,984.9,7.35,22.3,702,246.8,49.4,0,5,7,0,2026-04-16T11:03:40.107277+05:30
Ghaziabad,Uttar Pradesh,28.6692,77.4538,34.4,31,0.0,983.1,7.35,20.9,159,21.0,13.2,0,5,7,0,2026-04-16T11:03:40.107283+05:30
Faridabad,Haryana,28.4089,77.3178,35.5,26,0.0,984.0,7.4,23.8,702,246.8,49.4,0,5,10,0,2026-04-16T11:03:40.107290+05:30
Meerut,Uttar Pradesh,28.9845,77.7064,34.5,29,0.0,981.9,7.25,26.6,159,21.0,13.2,0,5,7,0,2026-04-16T11:03:40.107296+05:30
Agra,Uttar Pradesh,27.1767,78.0081,36.1,26,0.0,988.1,7.75,21.6,441,532.7,83.1,0,5,10,0,2026-04-16T11:03:40.107302+05:30
Varanasi,Uttar Pradesh,25.3176,82.9739,36.0,37,0.0,997.5,8.45,22.0,90,109.2,37.0,0,5,10,1,2026-04-16T11:03:40.107312+05:30
Prayagraj,Uttar Pradesh,25.4358,81.8463,35.8,29,0.0,996.1,8.3,28.1,80,108.5,30.0,0,5,10,0,2026-04-16T11:03:40.107319+05:30
Gorakhpur,Uttar Pradesh,26.7606,83.3732,33.6,49,0.0,997.9,8.25,31.3,106,89.6,65.9,0,5,7,1,2026-04-16T11:03:40.107326+05:30
Bareilly,Uttar Pradesh,28.367,79.4304,34.3,30,0.0,987.3,7.6,24.1,66,20.2,15.5,0,5,7,0,2026-04-16T11:03:40.107332+05:30
Aligarh,Uttar Pradesh,27.8974,78.088,37.2,20,0.0,985.8,7.5,29.2,327,64.7,21.2,0,5,10,0,2026-04-16T11:03:40.107339+05:30
Moradabad,Uttar Pradesh,28.8386,78.7733,33.9,31,0.0,984.1,7.45,26.3,85,20.1,19.6,0,5,7,0,2026-04-16T11:03:40.107345+05:30
Saharanpur,Uttar Pradesh,29.9637,77.546,32.6,38,0.0,976.3,6.9,25.6,72,15.9,13.3,0,5,7,1,2026-04-16T11:03:40.107352+05:30
Jhansi,Uttar Pradesh,25.4484,78.5685,38.9,19,0.0,978.1,8.2,36.4,73,218.4,33.1,0,5,10,0,2026-04-16T11:03:43.452272+05:30
Surat,Gujarat,21.1702,72.8311,29.4,71,0.0,1007.1,7.8,28.1,96,47.5,32.2,7,5,4,1,2026-04-16T11:03:43.452304+05:30
Vadodara,Gujarat,22.3072,73.1812,34.0,51,0.0,1004.2,8.1,23.0,82,53.7,25.3,0,5,4,1,2026-04-16T11:03:43.452314+05:30
Rajkot,Gujarat,22.3039,70.8022,31.2,54,0.0,994.3,7.7,30.2,61,59.6,20.9,0,5,7,1,2026-04-16T11:03:43.452322+05:30
Thane,Maharashtra,19.2183,72.9781,31.3,57,0.0,1008.0,8.0,30.6,81,57.7,31.8,0,0,4,1,2026-04-16T11:03:43.452329+05:30
Nagpur,Maharashtra,21.1458,79.0882,37.0,30,0.0,972.6,8.85,24.8,56,38.3,20.0,0,5,10,1,2026-04-16T11:03:43.452337+05:30
Nashik,Maharashtra,19.9975,73.7898,33.2,20,0.0,946.6,8.3,31.3,57,21.7,12.2,0,5,7,0,2026-04-16T11:03:43.452343+05:30
Aurangabad,Maharashtra,19.8762,75.3433,35.5,19,0.0,945.1,9.0,27.0,37,28.9,10.2,0,5,10,0,2026-04-16T11:03:43.452350+05:30
Solapur,Maharashtra,17.6599,75.9064,36.1,20,0.0,957.9,9.05,23.0,70,32.2,12.8,0,5,10,0,2026-04-16T11:03:43.452358+05:30
Kolhapur,Maharashtra,16.705,74.2433,31.5,42,0.0,948.8,9.0,41.4,74,33.5,20.0,0,5,7,1,2026-04-16T11:03:43.452365+05:30
Goa,Goa,15.2993,74.124,31.3,59,0.0,998.4,9.0,27.7,77,48.1,22.3,0,5,7,1,2026-04-16T11:03:43.452372+05:30
Jodhpur,Rajasthan,26.2389,73.0243,35.6,30,0.0,982.3,8.15,28.8,68,105.0,24.2,0,5,10,0,2026-04-16T11:03:43.452379+05:30
Udaipur,Rajasthan,24.5854,73.7125,36.0,23,0.0,947.1,8.7,29.9,71,98.3,21.3,0,5,10,0,2026-04-16T11:03:43.452386+05:30
Kota,Rajasthan,25.2138,75.8648,36.9,29,0.0,978.5,8.2,16.9,71,165.3,33.1,0,5,10,0,2026-04-16T11:03:43.452392+05:30
Bikaner,Rajasthan,28.0229,73.3119,37.7,17,0.0,981.1,7.8,22.3,53,36.6,10.5,0,5,10,0,2026-04-16T11:03:43.452399+05:30
Ajmer,Rajasthan,26.4499,74.6399,37.0,20,0.0,955.3,8.15,23.8,64,101.0,21.3,0,5,10,0,2026-04-16T11:03:43.452405+05:30
Gwalior,Madhya Pradesh,26.2183,78.1828,38.1,16,0.0,983.7,7.95,30.6,125,376.3,52.4,0,5,10,0,2026-04-16T11:03:43.452412+05:30
Indore,Madhya Pradesh,22.7196,75.8577,34.2,34,0.0,948.6,8.55,26.6,68,65.0,24.7,0,5,7,1,2026-04-16T11:03:43.452418+05:30
Bhopal,Madhya Pradesh,23.2599,77.4126,36.9,28,0.0,954.0,8.55,20.9,65,62.6,21.5,0,5,10,0,2026-04-16T11:03:43.452425+05:30
Jabalpur,Madhya Pradesh,23.1815,79.9864,35.3,32,0.0,961.4,8.7,22.0,45,39.6,17.1,0,5,10,1,2026-04-16T11:03:43.452432+05:30
Ujjain,Madhya Pradesh,23.1765,75.7885,34.1,37,0.0,954.2,8.5,25.9,73,51.3,22.6,0,5,7,1,2026-04-16T11:03:43.452439+05:30
Visakhapatnam,Andhra Pradesh,17.6868,83.2185,33.3,59,0.0,1003.9,9.15,44.6,51,15.8,11.9,0,5,4,1,2026-04-16T11:03:43.452445+05:30
Vijayawada,Andhra Pradesh,16.5062,80.648,33.5,63,0.0,1002.7,9.2,30.2,44,14.9,10.8,3,5,4,1,2026-04-16T11:03:43.452452+05:30
Guntur,Andhra Pradesh,16.3067,80.4365,34.0,60,0.0,1003.9,9.2,33.1,50,14.3,11.8,0,5,4,1,2026-04-16T11:03:43.452458+05:30
Nellore,Andhra Pradesh,14.4426,79.9865,34.3,60,0.0,1005.6,9.3,35.6,46,17.5,16.5,0,5,4,1,2026-04-16T11:03:43.452465+05:30
Kurnool,Andhra Pradesh,15.8281,78.0373,38.7,31,0.0,976.4,9.2,29.9,86,29.5,23.6,0,5,10,1,2026-04-16T11:03:43.452472+05:30
Kakinada,Andhra Pradesh,16.9891,82.2475,34.7,57,0.0,1007.6,9.2,35.6,32,10.8,7.2,0,5,4,1,2026-04-16T11:03:43.452479+05:30
Tirupati,Andhra Pradesh,13.6288,79.4192,34.3,55,0.0,992.0,9.4,33.8,62,23.2,22.4,0,5,7,1,2026-04-16T11:03:43.452485+05:30
Warangal,Telangana,17.9689,79.5941,34.9,54,0.0,978.8,9.1,28.4,72,18.4,16.4,0,5,7,1,2026-04-16T11:03:43.452491+05:30
Nizamabad,Telangana,18.6725,78.0941,37.0,27,0.0,965.4,9.05,25.9,80,38.8,22.2,0,5,10,0,2026-04-16T11:03:43.452497+05:30
Mysore,Karnataka,12.2958,76.6396,33.2,38,0.0,929.8,9.5,39.6,83,32.7,25.8,0,5,7,1,2026-04-16T11:03:43.452503+05:30
Mangalore,Karnataka,12.9141,74.856,29.3,81,0.0,1006.8,8.75,22.0,83,53.2,31.9,7,5,4,1,2026-04-16T11:03:43.452510+05:30
Hubli-Dharwad,Karnataka,15.3647,75.124,29.0,63,0.0,942.0,8.35,31.7,69,31.5,15.9,7,5,7,1,2026-04-16T11:03:43.452516+05:30
Belgaum,Karnataka,15.8497,74.4977,30.2,49,0.0,927.1,9.25,33.8,65,28.3,11.9,0,5,7,1,2026-04-16T11:03:46.796688+05:30
Coimbatore,Tamil Nadu,11.0168,76.9558,33.7,51,0.0,962.6,9.45,37.1,99,33.3,24.9,0,5,7,1,2026-04-16T11:03:46.796720+05:30
Madurai,Tamil Nadu,9.9252,78.1198,35.2,47,0.0,993.3,9.05,42.1,55,13.0,11.6,0,5,10,1,2026-04-16T11:03:46.796730+05:30
Trichy,Tamil Nadu,10.7905,78.7047,34.9,49,0.0,999.9,9.35,28.8,47,12.0,10.4,0,5,7,1,2026-04-16T11:03:46.796739+05:30
Salem,Tamil Nadu,11.6643,78.146,34.2,51,0.0,977.9,9.45,27.7,60,13.2,11.2,0,5,7,1,2026-04-16T11:03:46.796746+05:30
Tirunelveli,Tamil Nadu,8.7139,77.7567,37.3,36,0.0,1003.1,8.45,50.8,69,22.1,17.4,0,5,7,1,2026-04-16T11:03:46.796754+05:30
Vellore,Tamil Nadu,12.9165,79.1325,33.7,57,0.0,985.0,9.4,33.5,76,21.1,19.9,0,5,7,1,2026-04-16T11:03:46.796762+05:30
Erode,Tamil Nadu,11.341,77.7172,35.9,47,0.0,989.1,9.4,30.2,61,33.4,26.4,0,5,10,1,2026-04-16T11:03:46.796769+05:30
Kochi,Kerala,9.9312,76.2673,29.3,82,0.0,1008.7,9.2,29.9,98,43.8,31.4,7,0,4,1,2026-04-16T11:03:46.796777+05:30
Thiruvananthapuram,Kerala,8.5241,76.9366,29.2,82,0.0,1008.1,8.7,33.8,76,38.1,27.4,7,0,4,1,2026-04-16T11:03:46.796784+05:30
Kozhikode,Kerala,11.2588,75.7804,31.4,71,0.0,1007.8,9.15,32.0,83,49.7,32.7,3,5,4,1,2026-04-16T11:03:46.796791+05:30
Thrissur,Kerala,10.5276,76.2144,34.2,59,0.0,1006.9,9.1,35.6,100,47.1,33.4,0,5,4,1,2026-04-16T11:03:46.796798+05:30
Kannur,Kerala,11.8745,75.3704,32.1,66,0.0,1007.2,9.15,31.7,84,49.4,30.9,3,5,4,1,2026-04-16T11:03:46.796805+05:30
Patna,Bihar,25.5941,85.1376,31.2,63,0.0,1001.1,8.55,34.2,129,73.3,61.7,3,5,4,1,2026-04-16T11:03:46.796811+05:30
Gaya,Bihar,24.7914,85.0002,31.7,62,0.0,994.0,8.65,23.0,82,69.8,49.5,3,5,7,1,2026-04-16T11:03:46.796840+05:30
Muzaffarpur,Bihar,26.1209,85.3647,30.2,64,0.0,1001.5,8.55,35.3,145,76.4,61.7,3,5,4,1,2026-04-16T11:03:46.796847+05:30
Bhagalpur,Bihar,25.2425,87.0117,29.0,76,0.0,1002.4,8.55,30.6,136,71.0,60.8,7,5,4,1,2026-04-16T11:03:46.796855+05:30
Ranchi,Jharkhand,23.3441,85.3096,34.1,50,0.0,938.5,9.15,38.9,105,58.1,44.4,0,5,7,1,2026-04-16T11:03:46.796862+05:30
Jamshedpur,Jharkhand,22.8046,86.2029,34.9,60,0.0,990.0,9.0,30.2,128,66.4,55.1,0,5,7,1,2026-04-16T11:03:46.796868+05:30
Dhanbad,Jharkhand,23.7957,86.4304,34.4,54,0.0,979.7,8.95,29.9,150,88.0,75.4,0,5,7,1,2026-04-16T11:03:46.796874+05:30
Bokaro,Jharkhand,23.6693,86.1511,33.9,60,0.0,983.6,8.95,34.6,140,97.1,82.9,0,5,7,1,2026-04-16T11:03:46.796881+05:30
Bhubaneswar,Odisha,20.2961,85.8245,32.8,67,0.0,1002.7,9.1,41.4,61,18.5,13.5,3,5,4,1,2026-04-16T11:03:46.796888+05:30
Cuttack,Odisha,20.4625,85.8828,34.5,61,0.0,1004.2,9.15,37.8,61,18.5,13.5,3,5,4,1,2026-04-16T11:03:46.796894+05:30
Rourkela,Odisha,22.2604,84.8536,36.6,54,0.0,984.1,8.9,32.4,142,51.7,45.6,0,5,10,1,2026-04-16T11:03:46.796900+05:30
Raipur,Chhattisgarh,21.2514,81.6296,39.0,29,0.0,973.8,8.95,32.0,92,28.5,26.6,0,5,10,1,2026-04-16T11:03:46.796906+05:30
Bhilai,Chhattisgarh,21.1938,81.3509,38.5,32,0.0,974.1,8.95,30.2,72,25.1,22.8,0,5,10,1,2026-04-16T11:03:46.796913+05:30
Guwahati,Assam,26.1158,91.7086,29.0,64,0.0,1004.3,8.45,24.5,132,66.6,43.4,7,5,4,1,2026-04-16T11:03:46.796919+05:30
Agartala,Tripura,23.8315,91.2868,30.2,73,0.0,1008.2,8.7,27.4,114,53.9,40.2,3,0,4,1,2026-04-16T11:03:46.796926+05:30
Shillong,Meghalaya,25.5788,91.8933,21.3,53,0.0,860.1,7.6,54.0,106,64.3,36.0,0,5,7,0,2026-04-16T11:03:46.796934+05:30
Imphal,Manipur,24.817,93.9368,23.8,70,0.0,925.8,8.45,65.2,115,88.5,44.7,3,5,7,1,2026-04-16T11:03:46.796940+05:30
Aizawl,Mizoram,23.7271,92.7176,27.9,52,0.0,896.4,8.95,36.7,126,83.8,40.9,4,5,7,1,2026-04-16T11:03:46.796947+05:30
Kohima,Nagaland,25.6701,94.1077,19.4,83,0.0,858.2,8.7,67.3,92,73.8,36.3,3,10,7,1,2026-04-16T11:03:46.796954+05:30
Gangtok,Sikkim,27.3314,88.6138,19.6,76,0.0,840.9,8.8,20.2,130,65.4,40.3,3,5,7,0,2026-04-16T11:03:46.796961+05:30
Siliguri,West Bengal,26.7271,88.3953,26.4,61,0.0,996.6,8.45,25.9,166,117.6,65.9,7,5,7,1,2026-04-16T11:03:50.142661+05:30
Durgapur,West Bengal,23.5204,87.3119,32.9,65,0.0,995.0,8.85,29.2,121,66.1,54.9,3,5,7,1,2026-04-16T11:03:50.142694+05:30
Asansol,West Bengal,23.6739,86.9524,33.3,64,0.0,993.5,8.9,30.6,119,71.7,60.8,3,5,7,1,2026-04-16T11:03:50.142707+05:30
Pondicherry,Puducherry,11.9139,79.8145,34.6,58,0.0,1008.4,9.25,28.1,36,10.0,7.3,0,0,4,1,2026-04-16T11:03:50.142717+05:30
Port Blair,Andaman and Nicobar Islands,11.6234,92.7265,29.5,68,0.0,1007.9,9.2,13.0,63,22.8,16.7,7,5,4,1,2026-04-16T11:03:50.142726+05:30
Haridwar,Uttarakhand,29.9457,78.1642,33.3,37,0.0,974.8,7.05,29.9,55,10.1,7.6,0,5,7,1,2026-04-16T11:03:50.142733+05:30
Rishikesh,Uttarakhand,30.0869,78.2676,32.9,38,0.0,967.7,7.0,32.8,41,6.6,3.9,0,5,7,1,2026-04-16T11:03:50.142740+05:30
Nainital,Uttarakhand,29.3919,79.4542,26.8,30,0.0,810.7,8.1,38.2,52,10.4,5.2,4,5,7,0,2026-04-16T11:03:50.142748+05:30
Mussoorie,Uttarakhand,30.4599,78.0664,24.7,51,0.0,806.8,7.1,35.6,52,7.2,4.4,0,5,7,0,2026-04-16T11:03:50.142755+05:30
Dharamshala,Himachal Pradesh,32.219,76.3234,27.0,45,0.0,871.8,7.2,25.6,65,4.0,2.9,4,5,7,0,2026-04-16T11:03:50.142762+05:30
Dalhousie,Himachal Pradesh,32.5387,75.971,25.5,32,0.0,807.7,7.75,27.0,50,4.6,3.9,4,5,7,0,2026-04-16T11:03:50.142769+05:30
Patiala,Punjab,30.3398,76.3869,34.2,27,0.0,978.7,7.1,22.0,139,60.3,14.8,0,5,7,0,2026-04-16T11:03:50.142776+05:30
Bhatinda,Punjab,30.211,74.9455,36.8,24,0.0,983.7,7.45,27.7,63,28.0,10.5,0,5,10,0,2026-04-16T11:03:50.142783+05:30
Rohtak,Haryana,28.8955,76.6066,35.5,27,0.0,982.2,7.35,24.5,503,168.1,41.2,0,5,10,0,2026-04-16T11:03:50.142790+05:30
Panipat,Haryana,29.3909,76.9635,35.1,26,0.0,980.9,7.2,22.0,654,152.7,33.9,0,5,10,0,2026-04-16T11:03:50.142796+05:30
Mathura,Uttar Pradesh,27.4924,77.6737,38.1,18,0.0,986.9,7.65,22.7,447,365.1,68.7,0,5,10,0,2026-04-16T11:03:50.142803+05:30
Vrindavan,Uttar Pradesh,27.5823,77.7027,37.4,20,0.0,987.3,7.6,23.0,447,365.1,68.7,0,5,10,0,2026-04-16T11:03:50.142809+05:30
Ayodhya,Uttar Pradesh,26.7922,82.1998,35.4,39,0.0,995.7,8.0,24.1,85,75.2,41.0,0,5,10,1,2026-04-16T11:03:50.142836+05:30
Ratlam,Madhya Pradesh,23.3315,75.0367,31.4,53,0.0,955.0,8.4,29.9,66,50.3,21.1,0,5,7,1,2026-04-16T11:03:50.142844+05:30
Sagar,Madhya Pradesh,23.8388,78.7378,36.8,21,0.0,950.9,8.55,19.1,53,89.9,22.0,0,5,10,0,2026-04-16T11:03:50.142850+05:30
Satna,Madhya Pradesh,24.6005,80.8322,38.3,15,0.0,971.7,8.6,27.0,57,147.1,23.2,0,5,10,0,2026-04-16T11:03:50.142857+05:30
Akola,Maharashtra,20.7002,77.0082,36.2,29,0.0,975.3,8.8,25.6,54,52.5,22.7,0,5,10,0,2026-04-16T11:03:50.142864+05:30
Amravati,Maharashtra,20.9374,77.7796,36.4,32,0.0,967.4,8.8,19.4,52,49.1,21.2,0,5,10,1,2026-04-16T11:03:50.142871+05:30
Latur,Maharashtra,18.4088,76.5604,34.9,20,0.0,941.0,9.05,23.0,61,35.2,10.9,0,5,7,0,2026-04-16T11:03:50.142878+05:30
Nanded,Maharashtra,19.1383,77.3091,35.3,30,0.0,969.3,8.95,17.3,63,33.6,13.5,0,5,10,0,2026-04-16T11:03:50.142884+05:30
Gulbarga,Karnataka,17.3297,76.8343,37.4,25,0.0,958.9,9.05,22.3,86,28.5,24.2,0,5,10,0,2026-04-16T11:03:50.142890+05:30
Bidar,Karnataka,17.9104,77.5199,37.0,19,0.0,936.4,9.1,34.2,104,37.5,26.7,0,5,10,0,2026-04-16T11:03:50.142896+05:30
Hospet,Karnataka,15.2689,76.3909,31.8,56,0.0,956.6,9.25,23.8,80,26.2,17.1,0,5,7,1,2026-04-16T11:03:50.142902+05:30
Tirupur,Tamil Nadu,11.1085,77.3411,35.1,45,0.0,975.7,9.5,34.6,76,34.2,26.5,0,5,10,1,2026-04-16T11:03:50.142909+05:30
Alappuzha,Kerala,9.4981,76.3388,29.2,83,0.0,1008.9,8.65,26.6,94,42.0,30.5,7,0,4,1,2026-04-16T11:03:50.142915+05:30
Munnar,Kerala,10.0889,77.0595,28.9,54,0.0,859.8,9.05,32.4,74,19.8,14.9,4,5,7,1,2026-04-16T11:03:50.142923+05:30
Silchar,Assam,24.8333,92.7789,28.8,67,0.0,1007.7,8.7,24.1,114,89.2,48.0,7,5,4,1,2026-04-16T11:03:50.142930+05:30
Dibrugarh,Assam,27.4728,94.912,26.4,63,0.0,998.8,8.55,10.8,149,95.0,46.2,7,5,7,1,2026-04-16T11:03:50.142936+05:30
