city,state,latitude,longitude,temp,humidity,rain,pressure,uv_index,wind_gusts,aqi,pm10,pm2_5,mosquito_risk,arthritis_risk,migraine_risk,frizz_risk,updated_at
Delhi,Delhi,28.6139,77.209,28.6,38,0.0,979.6,7.4,30.6,361,543.9,98.3,4,5,7,0,2026-04-23T00:48:44.800039+05:30
Mumbai,Maharashtra,19.076,72.8777,29.4,73,0.0,1007.3,8.05,24.5,85,35.7,21.6,7,5,4,1,2026-04-23T00:48:44.800093+05:30
Bangalore,Karnataka,12.9716,77.5946,24.9,64,0.0,910.4,9.35,27.0,71,21.0,19.7,3,5,7,1,2026-04-23T00:48:44.800107+05:30
Hyderabad,Telangana,17.385,78.4867,27.5,63,0.0,951.9,7.5,30.2,122,45.2,41.2,7,5,7,1,2026-04-23T00:48:44.800116+05:30
Chennai,Tamil Nadu,13.0827,80.2707,28.6,83,0.0,1005.7,9.1,34.9,30,8.9,6.2,7,5,4,1,2026-04-23T00:48:44.800126+05:30
Kolkata,West Bengal,22.5726,88.3639,27.7,92,0.0,1003.5,8.55,26.6,96,30.2,25.8,7,5,4,1,2026-04-23T00:48:44.800137+05:30
Pune,Maharashtra,18.5204,73.8567,26.6,80,0.0,947.8,8.65,31.7,152,47.5,41.3,7,5,7,1,2026-04-23T00:48:44.800144+05:30
Ahmedabad,Gujarat,23.0225,72.5714,29.1,27,0.0,1001.4,8.2,24.8,47,12.1,7.9,4,5,4,0,2026-04-23T00:48:44.800150+05:30
Jaipur,Rajasthan,26.9124,75.7873,29.1,19,0.0,958.6,8.05,29.2,135,322.2,44.5,4,5,7,0,2026-04-23T00:48:44.800157+05:30
Lucknow,Uttar Pradesh,26.8467,80.9462,28.3,46,0.0,989.7,7.85,34.2,236,465.7,84.1,4,5,7,0,2026-04-23T00:48:44.800164+05:30
Kanpur,Uttar Pradesh,26.4499,80.3319,26.8,50,0.0,988.2,7.85,31.0,406,502.9,86.4,4,5,7,0,2026-04-23T00:48:44.800171+05:30
Chandigarh,Chandigarh,30.7333,76.7794,23.2,47,0.0,965.2,7.4,29.2,78,26.0,21.9,0,5,7,0,2026-04-23T00:48:44.800177+05:30
Srinagar,Jammu and Kashmir,34.0837,74.7973,13.2,81,0.0,840.3,8.6,26.6,70,46.9,36.9,3,10,7,0,2026-04-23T00:48:44.800184+05:30
Jammu,Jammu and Kashmir,32.7266,74.857,24.2,62,0.0,969.8,8.2,28.1,72,31.4,28.3,3,5,7,1,2026-04-23T00:48:44.800190+05:30
Amritsar,Punjab,31.634,74.8723,26.1,55,0.0,977.5,8.1,34.2,96,61.5,47.0,4,5,7,1,2026-04-23T00:48:44.800197+05:30
Ludhiana,Punjab,30.901,75.8573,28.6,40,0.0,975.4,7.7,24.8,81,45.9,32.9,4,5,7,0,2026-04-23T00:48:44.800205+05:30
Jalandhar,Punjab,31.326,75.5762,26.0,48,0.0,976.4,7.85,27.4,84,54.4,41.1,4,5,7,0,2026-04-23T00:48:44.800211+05:30
Dehradun,Uttarakhand,30.6284,78.0322,18.5,58,0.0,830.0,7.85,42.5,85,22.5,17.1,0,5,7,0,2026-04-23T00:48:44.800217+05:30
Shimla,Himachal Pradesh,31.1048,77.1734,16.6,40,0.0,784.6,7.9,53.6,90,29.7,18.6,0,5,7,0,2026-04-23T00:48:44.800224+05:30
Manali,Himachal Pradesh,32.2396,77.1887,19.5,50,0.0,821.9,9.3,31.7,94,30.0,18.1,0,5,7,0,2026-04-23T00:48:44.800230+05:30
Gurgaon,Haryana,28.4595,77.0266,26.1,45,0.0,978.2,7.5,26.3,908,517.8,105.5,4,5,7,0,2026-04-23T00:48:44.800236+05:30
Noida,Uttar Pradesh,28.5355,77.391,29.1,36,0.0,981.1,7.4,31.3,908,517.8,105.5,4,5,7,0,2026-04-23T00:48:44.800241+05:30
Ghaziabad,Uttar Pradesh,28.6692,77.4538,28.3,37,0.0,979.3,7.4,29.9,290,547.6,90.1,4,5,7,0,2026-04-23T00:48:44.800247+05:30
Faridabad,Haryana,28.4089,77.3178,31.1,29,0.0,980.5,7.45,32.0,908,517.8,105.5,0,5,7,0,2026-04-23T00:48:44.800255+05:30
Meerut,Uttar Pradesh,28.9845,77.7064,26.0,43,0.0,977.8,7.3,29.5,290,547.6,90.1,4,5,7,0,2026-04-23T00:48:44.800260+05:30
Agra,Uttar Pradesh,27.1767,78.0081,27.3,46,0.0,984.6,7.75,29.5,671,291.5,60.1,4,5,7,0,2026-04-23T00:48:44.800269+05:30
Varanasi,Uttar Pradesh,25.3176,82.9739,29.4,36,0.0,993.9,8.5,34.9,112,141.6,49.1,4,5,7,0,2026-04-23T00:48:44.800275+05:30
Prayagraj,Uttar Pradesh,25.4358,81.8463,30.4,34,0.0,992.7,8.35,32.4,128,190.5,54.2,0,5,7,0,2026-04-23T00:48:44.800282+05:30
Gorakhpur,Uttar Pradesh,26.7606,83.3732,27.6,35,0.0,993.2,8.25,26.6,116,127.1,38.9,4,5,7,0,2026-04-23T00:48:44.800290+05:30
Bareilly,Uttar Pradesh,28.367,79.4304,26.1,50,0.0,983.0,7.65,27.7,99,186.3,43.7,4,5,7,0,2026-04-23T00:48:44.800296+05:30
Aligarh,Uttar Pradesh,27.8974,78.088,26.4,44,0.0,982.2,7.55,32.0,630,560.7,100.8,4,5,7,0,2026-04-23T00:48:44.800301+05:30
Moradabad,Uttar Pradesh,28.8386,78.7733,26.4,46,0.0,979.9,7.5,28.8,117,257.0,62.6,4,5,7,0,2026-04-23T00:48:44.800307+05:30
Saharanpur,Uttar Pradesh,29.9637,77.546,25.6,50,0.0,972.3,7.1,33.5,96,107.1,41.1,4,5,7,0,2026-04-23T00:48:44.800312+05:30
Jhansi,Uttar Pradesh,25.4484,78.5685,28.2,22,0.0,975.2,8.25,31.3,51,11.7,7.9,4,5,7,0,2026-04-23T00:48:48.107855+05:30
Surat,Gujarat,21.1702,72.8311,27.3,84,0.0,1005.6,7.9,20.5,103,38.4,31.9,7,5,4,1,2026-04-23T00:48:48.107887+05:30
Vadodara,Gujarat,22.3072,73.1812,28.0,63,0.0,1003.1,8.2,23.0,89,52.3,47.5,7,5,4,1,2026-04-23T00:48:48.107896+05:30
Rajkot,Gujarat,22.3039,70.8022,25.8,83,0.0,994.2,7.9,29.9,53,25.8,13.1,7,5,7,1,2026-04-23T00:48:48.107903+05:30
Thane,Maharashtra,19.2183,72.9781,27.3,79,0.0,1006.8,8.05,38.9,85,35.7,21.6,7,5,4,1,2026-04-23T00:48:48.107909+05:30
Nagpur,Maharashtra,21.1458,79.0882,30.8,38,0.0,970.8,8.95,24.8,79,33.1,28.8,0,5,7,0,2026-04-23T00:48:48.107915+05:30
Nashik,Maharashtra,19.9975,73.7898,25.9,56,0.0,945.0,8.35,28.1,114,41.2,32.9,4,5,7,1,2026-04-23T00:48:48.107920+05:30
Aurangabad,Maharashtra,19.8762,75.3433,30.3,35,0.0,943.1,9.05,29.9,87,44.5,36.9,0,5,7,0,2026-04-23T00:48:48.107925+05:30
Solapur,Maharashtra,17.6599,75.9064,30.0,55,0.0,955.6,9.1,32.4,114,53.2,47.1,4,5,7,1,2026-04-23T00:48:48.107931+05:30
Kolhapur,Maharashtra,16.705,74.2433,24.4,91,0.0,946.7,8.8,43.9,110,59.8,56.7,3,5,7,1,2026-04-23T00:48:48.107937+05:30
Goa,Goa,15.2993,74.124,28.5,85,0.0,995.5,9.05,32.0,83,47.0,33.9,7,5,7,1,2026-04-23T00:48:48.107943+05:30
Jodhpur,Rajasthan,26.2389,73.0243,27.3,36,0.0,981.7,8.1,24.1,92,122.0,20.0,4,5,7,0,2026-04-23T00:48:48.107948+05:30
Udaipur,Rajasthan,24.5854,73.7125,25.6,37,0.0,946.5,8.8,28.1,50,17.6,10.5,4,5,7,0,2026-04-23T00:48:48.107953+05:30
Kota,Rajasthan,25.2138,75.8648,28.4,28,0.0,977.8,8.3,30.6,49,17.4,16.0,4,5,7,0,2026-04-23T00:48:48.107959+05:30
Bikaner,Rajasthan,28.0229,73.3119,31.3,22,0.0,979.2,8.0,24.5,77,49.5,11.7,0,5,7,0,2026-04-23T00:48:48.107964+05:30
Ajmer,Rajasthan,26.4499,74.6399,25.1,28,0.0,953.7,8.0,31.7,52,15.2,8.2,4,5,7,0,2026-04-23T00:48:48.107997+05:30
Gwalior,Madhya Pradesh,26.2183,78.1828,29.7,30,0.0,980.4,8.0,39.2,60,8.8,6.4,4,5,7,0,2026-04-23T00:48:48.108005+05:30
Indore,Madhya Pradesh,22.7196,75.8577,26.4,43,0.0,947.4,8.65,35.3,58,23.4,21.7,4,5,7,0,2026-04-23T00:48:48.108011+05:30
Bhopal,Madhya Pradesh,23.2599,77.4126,26.8,37,0.0,952.7,8.65,29.9,55,21.3,19.8,4,5,7,0,2026-04-23T00:48:48.108017+05:30
Jabalpur,Madhya Pradesh,23.1815,79.9864,29.2,39,0.0,959.4,8.8,22.7,58,20.0,17.8,4,5,7,0,2026-04-23T00:48:48.108023+05:30
Ujjain,Madhya Pradesh,23.1765,75.7885,27.4,38,0.0,953.2,8.6,34.6,60,23.8,22.0,4,5,7,0,2026-04-23T00:48:48.108029+05:30
Visakhapatnam,Andhra Pradesh,17.6868,83.2185,27.4,88,0.0,1001.4,9.2,36.7,62,20.3,17.3,7,5,4,1,2026-04-23T00:48:48.108036+05:30
Vijayawada,Andhra Pradesh,16.5062,80.648,27.3,89,0.0,1001.0,8.8,26.3,57,13.0,10.9,7,5,4,1,2026-04-23T00:48:48.108041+05:30
Guntur,Andhra Pradesh,16.3067,80.4365,27.4,89,0.0,1002.3,9.0,29.9,60,13.0,10.9,7,5,4,1,2026-04-23T00:48:48.108046+05:30
Nellore,Andhra Pradesh,14.4426,79.9865,26.9,89,0.0,1004.0,9.2,34.6,46,8.5,6.7,7,5,4,1,2026-04-23T00:48:48.108053+05:30
Kurnool,Andhra Pradesh,15.8281,78.0373,30.9,54,0.0,975.2,8.95,36.0,114,36.4,32.8,0,5,7,1,2026-04-23T00:48:48.108059+05:30
Kakinada,Andhra Pradesh,16.9891,82.2475,27.4,89,0.0,1005.5,9.25,31.3,41,13.7,9.8,7,5,4,1,2026-04-23T00:48:48.108065+05:30
Tirupati,Andhra Pradesh,13.6288,79.4192,27.1,77,0.0,990.7,8.95,33.1,63,23.1,21.4,7,5,7,1,2026-04-23T00:48:48.108070+05:30
Warangal,Telangana,17.9689,79.5941,30.8,59,0.0,976.8,8.7,17.3,108,41.7,39.2,0,5,7,1,2026-04-23T00:48:48.108075+05:30
Nizamabad,Telangana,18.6725,78.0941,30.0,49,0.0,963.3,7.4,34.2,118,57.7,52.9,4,5,7,1,2026-04-23T00:48:48.108080+05:30
Mysore,Karnataka,12.2958,76.6396,24.7,85,0.0,927.5,8.9,40.0,75,23.2,21.7,3,5,7,1,2026-04-23T00:48:48.108086+05:30
Mangalore,Karnataka,12.9141,74.856,30.1,82,0.0,1005.0,9.1,26.3,81,32.8,23.3,3,5,4,1,2026-04-23T00:48:48.108091+05:30
Hubli-Dharwad,Karnataka,15.3647,75.124,25.9,78,0.0,939.1,9.25,50.0,103,35.2,31.3,7,5,7,1,2026-04-23T00:48:48.108097+05:30
Belgaum,Karnataka,15.8497,74.4977,24.7,81,0.0,924.3,9.25,42.5,99,49.7,43.9,3,5,7,1,2026-04-23T00:48:51.422390+05:30
Coimbatore,Tamil Nadu,11.0168,76.9558,25.6,88,0.0,960.5,9.05,34.9,72,36.9,35.3,7,5,7,1,2026-04-23T00:48:51.422422+05:30
Madurai,Tamil Nadu,9.9252,78.1198,28.5,80,0.0,992.0,9.3,37.4,54,11.6,10.9,7,5,7,1,2026-04-23T00:48:51.422430+05:30
Trichy,Tamil Nadu,10.7905,78.7047,28.0,86,0.0,998.6,9.3,20.9,56,11.7,10.8,7,5,7,1,2026-04-23T00:48:51.422437+05:30
Salem,Tamil Nadu,11.6643,78.146,27.1,68,0.0,975.9,9.4,27.7,62,29.9,28.9,7,5,7,1,2026-04-23T00:48:51.422444+05:30
Tirunelveli,Tamil Nadu,8.7139,77.7567,27.3,84,0.0,1001.8,9.1,41.4,66,24.7,23.3,7,5,4,1,2026-04-23T00:48:51.422450+05:30
Vellore,Tamil Nadu,12.9165,79.1325,25.9,78,0.0,983.5,9.4,31.7,75,36.8,35.7,7,5,7,1,2026-04-23T00:48:51.422456+05:30
Erode,Tamil Nadu,11.341,77.7172,29.0,67,0.0,987.7,9.3,28.8,54,13.8,13.1,7,5,7,1,2026-04-23T00:48:51.422462+05:30
Kochi,Kerala,9.9312,76.2673,28.9,83,0.0,1007.1,8.9,33.5,73,39.1,36.9,7,5,4,1,2026-04-23T00:48:51.422468+05:30
Thiruvananthapuram,Kerala,8.5241,76.9366,28.8,84,0.0,1006.2,8.95,23.4,73,19.6,15.0,7,5,4,1,2026-04-23T00:48:51.422474+05:30
Kozhikode,Kerala,11.2588,75.7804,29.7,85,0.0,1006.1,8.9,30.2,68,27.8,22.4,7,5,4,1,2026-04-23T00:48:51.422479+05:30
Thrissur,Kerala,10.5276,76.2144,28.3,86,0.0,1005.5,8.95,39.6,70,40.7,37.0,7,5,4,1,2026-04-23T00:48:51.422485+05:30
Kannur,Kerala,11.8745,75.3704,29.4,82,0.0,1005.5,8.9,31.7,80,31.2,26.5,7,5,4,1,2026-04-23T00:48:51.422491+05:30
Patna,Bihar,25.5941,85.1376,28.3,56,0.0,996.9,8.65,19.4,125,155.5,76.8,4,5,7,1,2026-04-23T00:48:51.422496+05:30
Gaya,Bihar,24.7914,85.0002,30.0,41,0.0,990.6,8.75,24.8,112,115.7,43.9,4,5,7,0,2026-04-23T00:48:51.422500+05:30
Muzaffarpur,Bihar,26.1209,85.3647,26.0,63,0.0,996.9,8.6,24.1,130,138.8,75.7,7,5,7,1,2026-04-23T00:48:51.422505+05:30
Bhagalpur,Bihar,25.2425,87.0117,27.5,62,0.0,997.7,8.65,15.1,111,165.8,58.8,7,5,7,1,2026-04-23T00:48:51.422510+05:30
Ranchi,Jharkhand,23.3441,85.3096,26.4,33,0.0,935.7,8.75,34.6,89,106.6,37.6,4,5,7,0,2026-04-23T00:48:51.422515+05:30
Jamshedpur,Jharkhand,22.8046,86.2029,29.6,70,0.0,987.8,9.0,22.0,137,118.5,44.1,7,5,7,1,2026-04-23T00:48:51.422520+05:30
Dhanbad,Jharkhand,23.7957,86.4304,30.2,59,0.0,977.1,8.7,36.0,153,201.6,108.0,0,5,7,1,2026-04-23T00:48:51.422525+05:30
Bokaro,Jharkhand,23.6693,86.1511,29.1,42,0.0,981.3,8.45,34.6,150,183.9,88.2,4,5,7,0,2026-04-23T00:48:51.422531+05:30
Bhubaneswar,Odisha,20.2961,85.8245,26.9,91,0.0,999.4,9.2,32.4,87,23.0,20.5,7,5,7,1,2026-04-23T00:48:51.422536+05:30
Cuttack,Odisha,20.4625,85.8828,27.8,87,0.0,1001.2,9.2,26.6,87,23.0,20.5,7,5,4,1,2026-04-23T00:48:51.422541+05:30
Rourkela,Odisha,22.2604,84.8536,29.2,51,0.0,981.6,8.55,20.9,105,86.6,53.2,4,5,7,1,2026-04-23T00:48:51.422545+05:30
Raipur,Chhattisgarh,21.2514,81.6296,31.5,35,0.0,972.0,8.05,25.9,110,49.5,43.5,0,5,7,0,2026-04-23T00:48:51.422550+05:30
Bhilai,Chhattisgarh,21.1938,81.3509,31.0,40,0.0,972.2,8.45,23.4,102,52.5,45.1,0,5,7,0,2026-04-23T00:48:51.422554+05:30
Guwahati,Assam,26.1158,91.7086,24.6,93,0.0,999.8,8.6,19.1,104,44.4,32.4,3,5,7,1,2026-04-23T00:48:51.422559+05:30
Agartala,Tripura,23.8315,91.2868,26.9,93,0.0,1004.2,8.25,19.8,80,22.7,20.5,7,5,4,1,2026-04-23T00:48:51.422564+05:30
Shillong,Meghalaya,25.5788,91.8933,15.3,78,0.0,854.6,8.95,38.2,62,57.9,28.2,3,5,7,0,2026-04-23T00:48:51.422569+05:30
Imphal,Manipur,24.817,93.9368,20.9,84,0.0,922.2,8.9,56.9,119,54.6,35.3,3,5,7,1,2026-04-23T00:48:51.422574+05:30
Aizawl,Mizoram,23.7271,92.7176,20.8,88,0.0,891.5,9.05,35.6,95,48.3,32.1,3,5,7,1,2026-04-23T00:48:51.422579+05:30
Kohima,Nagaland,25.6701,94.1077,16.7,80,0.0,853.9,9.1,51.8,91,30.7,13.3,3,5,7,0,2026-04-23T00:48:51.422583+05:30
Gangtok,Sikkim,27.3314,88.6138,16.2,85,0.0,836.7,8.9,21.6,84,55.4,35.7,3,10,7,0,2026-04-23T00:48:51.422589+05:30
Siliguri,West Bengal,26.7271,88.3953,23.3,72,0.0,992.5,8.55,22.0,126,99.7,68.0,3,5,7,1,2026-04-23T00:48:54.743788+05:30
Durgapur,West Bengal,23.5204,87.3119,29.4,73,0.0,992.5,8.9,31.7,158,131.3,71.7,7,5,7,1,2026-04-23T00:48:54.743820+05:30
Asansol,West Bengal,23.6739,86.9524,30.2,74,0.0,990.9,8.95,33.8,150,144.4,69.8,3,5,7,1,2026-04-23T00:48:54.743829+05:30
Pondicherry,Puducherry,11.9139,79.8145,27.0,93,0.0,1007.2,8.95,31.0,25,7.1,4.5,7,5,4,1,2026-04-23T00:48:54.743836+05:30
Port Blair,Andaman and Nicobar Islands,11.6234,92.7265,30.0,69,0.0,1004.8,9.15,20.9,34,15.5,10.4,7,5,4,1,2026-04-23T00:48:54.743843+05:30
Haridwar,Uttarakhand,29.9457,78.1642,23.3,59,0.0,971.0,7.2,37.4,71,37.7,30.0,0,5,7,0,2026-04-23T00:48:54.743850+05:30
Rishikesh,Uttarakhand,30.0869,78.2676,23.8,55,0.0,964.2,7.3,36.7,109,37.3,23.5,0,5,7,0,2026-04-23T00:48:54.743856+05:30
Nainital,Uttarakhand,29.3919,79.4542,23.2,36,0.0,806.4,8.15,50.8,108,27.4,18.5,0,5,7,0,2026-04-23T00:48:54.743863+05:30
Mussoorie,Uttarakhand,30.4599,78.0664,20.9,43,0.0,803.1,7.7,40.0,82,36.9,30.5,0,5,7,0,2026-04-23T00:48:54.743868+05:30
Dharamshala,Himachal Pradesh,32.219,76.3234,24.4,48,0.0,869.2,8.05,32.0,90,23.2,15.4,0,5,7,0,2026-04-23T00:48:54.743874+05:30
Dalhousie,Himachal Pradesh,32.5387,75.971,21.0,48,0.0,804.3,8.35,36.7,71,31.3,26.7,0,5,7,0,2026-04-23T00:48:54.743880+05:30
Patiala,Punjab,30.3398,76.3869,27.1,47,0.0,975.3,7.3,20.2,192,392.1,68.5,4,5,7,0,2026-04-23T00:48:54.743886+05:30
Bhatinda,Punjab,30.211,74.9455,28.6,38,0.0,980.5,8.0,24.8,77,45.2,29.0,4,5,7,0,2026-04-23T00:48:54.743892+05:30
Rohtak,Haryana,28.8955,76.6066,25.8,45,0.0,978.1,7.4,26.6,462,596.0,105.0,4,5,7,0,2026-04-23T00:48:54.743897+05:30
Panipat,Haryana,29.3909,76.9635,25.0,49,0.0,977.0,7.25,24.5,805,901.5,121.1,4,5,7,0,2026-04-23T00:48:54.743903+05:30
Mathura,Uttar Pradesh,27.4924,77.6737,26.4,46,0.0,983.7,7.7,28.1,678,491.7,91.3,4,5,7,0,2026-04-23T00:48:54.743908+05:30
Vrindavan,Uttar Pradesh,27.5823,77.7027,28.1,41,0.0,984.0,7.65,29.5,678,491.7,91.3,4,5,7,0,2026-04-23T00:48:54.743913+05:30
Ayodhya,Uttar Pradesh,26.7922,82.1998,27.4,37,0.0,991.5,8.05,32.4,148,238.4,53.4,4,5,7,0,2026-04-23T00:48:54.743918+05:30
Ratlam,Madhya Pradesh,23.3315,75.0367,28.5,36,0.0,954.1,8.5,31.3,68,22.9,20.6,4,5,7,0,2026-04-23T00:48:54.743924+05:30
Sagar,Madhya Pradesh,23.8388,78.7378,30.2,32,0.0,949.2,8.65,31.7,66,15.0,14.0,0,5,7,0,2026-04-23T00:48:54.743929+05:30
Satna,Madhya Pradesh,24.6005,80.8322,30.8,30,0.0,969.5,8.65,33.1,64,22.8,11.4,0,5,7,0,2026-04-23T00:48:54.743934+05:30
Akola,Maharashtra,20.7002,77.0082,30.4,43,0.0,973.0,8.9,24.5,78,35.7,30.4,0,5,7,1,2026-04-23T00:48:54.743939+05:30
Amravati,Maharashtra,20.9374,77.7796,29.0,43,0.0,965.4,8.9,23.0,82,40.4,35.6,4,5,7,0,2026-04-23T00:48:54.743944+05:30
Latur,Maharashtra,18.4088,76.5604,26.1,65,0.0,938.4,9.1,44.3,114,54.5,49.5,7,5,7,1,2026-04-23T00:48:54.743949+05:30
Nanded,Maharashtra,19.1383,77.3091,30.3,51,0.0,966.9,9.0,31.3,107,63.6,58.7,0,5,7,1,2026-04-23T00:48:54.743954+05:30
Gulbarga,Karnataka,17.3297,76.8343,29.4,57,0.0,957.6,9.15,31.3,99,40.4,37.1,4,5,7,1,2026-04-23T00:48:54.743959+05:30
Bidar,Karnataka,17.9104,77.5199,27.2,58,0.0,934.8,8.4,34.6,111,46.4,43.1,4,5,7,1,2026-04-23T00:48:54.743964+05:30
Hospet,Karnataka,15.2689,76.3909,29.1,59,0.0,954.0,9.15,27.4,120,40.4,36.7,4,5,7,1,2026-04-23T00:48:54.743983+05:30
Tirupur,Tamil Nadu,11.1085,77.3411,28.2,76,0.0,974.0,9.4,32.4,63,21.8,20.7,7,5,7,1,2026-04-23T00:48:54.743988+05:30
Alappuzha,Kerala,9.4981,76.3388,28.4,85,0.0,1007.3,8.6,28.8,71,36.6,31.0,7,5,4,1,2026-04-23T00:48:54.743993+05:30
Munnar,Kerala,10.0889,77.0595,21.8,90,0.0,855.9,9.65,27.7,71,29.6,28.1,3,5,7,1,2026-04-23T00:48:54.744000+05:30
Silchar,Assam,24.8333,92.7789,25.7,90,0.0,1003.2,8.8,23.0,129,61.7,41.8,7,5,4,1,2026-04-23T00:48:54.744005+05:30
Dibrugarh,Assam,27.4728,94.912,22.9,93,0.0,995.2,8.65,10.4,63,34.3,31.8,3,5,7,1,2026-04-23T00:48:54.744009+05:30
