city,state,latitude,longitude,temp,humidity,rain,pressure,uv_index,wind_gusts,aqi,pm10,pm2_5,mosquito_risk,arthritis_risk,migraine_risk,frizz_risk,updated_at
Delhi,Delhi,28.6139,77.209,25.7,59,0.0,984.3,5.85,34.6,434,828.9,142.0,4,5,3,1,2026-03-05T21:02:22.937171+05:30
Mumbai,Maharashtra,19.076,72.8777,29.6,53,0.0,1009.5,7.4,26.6,179,33.2,30.9,4,0,4,1,2026-03-05T21:02:22.937204+05:30
Bangalore,Karnataka,12.9716,77.5946,24.4,42,0.0,913.0,9.15,31.3,133,41.3,39.7,0,5,7,0,2026-03-05T21:02:22.937219+05:30
Hyderabad,Telangana,17.385,78.4867,27.6,41,0.0,954.8,8.45,27.4,143,40.3,38.2,4,5,7,0,2026-03-05T21:02:22.937229+05:30
Chennai,Tamil Nadu,13.0827,80.2707,26.3,82,0.0,1008.9,8.85,31.3,98,27.8,24.0,7,0,4,1,2026-03-05T21:02:22.937236+05:30
Kolkata,West Bengal,22.5726,88.3639,25.1,59,0.0,1007.2,7.8,10.8,208,149.5,131.8,4,5,4,1,2026-03-05T21:02:22.937244+05:30
Pune,Maharashtra,18.5204,73.8567,27.4,35,0.0,950.1,7.95,31.3,116,22.9,21.7,4,5,7,0,2026-03-05T21:02:22.937255+05:30
Ahmedabad,Gujarat,23.0225,72.5714,26.4,37,0.0,1005.5,7.15,28.4,86,37.8,36.7,4,5,4,0,2026-03-05T21:02:22.937261+05:30
Jaipur,Rajasthan,26.9124,75.7873,28.1,28,0.0,962.1,6.65,34.9,96,124.8,35.4,4,5,7,0,2026-03-05T21:02:22.937268+05:30
Lucknow,Uttar Pradesh,26.8467,80.9462,25.8,67,0.0,995.0,6.4,15.1,166,220.7,98.5,7,5,7,1,2026-03-05T21:02:22.937275+05:30
Kanpur,Uttar Pradesh,26.4499,80.3319,24.1,67,0.0,993.0,6.4,28.4,177,297.1,86.1,3,5,7,1,2026-03-05T21:02:22.937281+05:30
Chandigarh,Chandigarh,30.7333,76.7794,22.0,72,0.0,969.7,5.75,31.0,124,53.0,45.2,3,5,3,1,2026-03-05T21:02:22.937288+05:30
Srinagar,Jammu and Kashmir,34.0837,74.7973,12.2,80,0.0,841.1,6.75,14.4,151,77.5,62.6,3,5,7,0,2026-03-05T21:02:22.937295+05:30
Jammu,Jammu and Kashmir,32.7266,74.857,23.7,66,0.0,973.7,6.4,23.8,106,81.0,57.5,3,5,7,1,2026-03-05T21:02:22.937302+05:30
Amritsar,Punjab,31.634,74.8723,21.4,68,0.0,982.0,6.35,22.7,145,61.0,47.0,3,5,7,0,2026-03-05T21:02:22.937308+05:30
Ludhiana,Punjab,30.901,75.8573,24.3,65,0.0,980.3,6.0,25.6,156,125.3,70.5,3,5,3,1,2026-03-05T21:02:22.937315+05:30
Jalandhar,Punjab,31.326,75.5762,23.6,67,0.0,981.4,6.2,24.1,156,79.9,57.3,3,5,7,1,2026-03-05T21:02:22.937323+05:30
Dehradun,Uttarakhand,30.6284,78.0322,14.7,92,0.0,829.7,6.15,31.7,88,39.8,29.6,3,10,7,0,2026-03-05T21:02:22.937332+05:30
Shimla,Himachal Pradesh,31.1048,77.1734,14.2,56,0.0,785.1,6.2,55.1,68,40.9,25.8,0,5,7,0,2026-03-05T21:02:22.937339+05:30
Manali,Himachal Pradesh,32.2396,77.1887,19.5,43,0.0,823.1,7.8,36.7,102,28.4,18.1,0,5,7,0,2026-03-05T21:02:22.937344+05:30
Gurgaon,Haryana,28.4595,77.0266,22.5,71,0.0,982.7,5.95,33.5,1526,1557.2,208.6,3,5,3,1,2026-03-05T21:02:22.937351+05:30
Noida,Uttar Pradesh,28.5355,77.391,25.7,59,0.0,985.8,5.85,34.6,1526,1557.2,208.6,4,5,3,1,2026-03-05T21:02:22.937357+05:30
Ghaziabad,Uttar Pradesh,28.6692,77.4538,25.2,63,0.0,983.8,5.8,31.7,292,683.6,129.0,7,5,3,1,2026-03-05T21:02:22.937363+05:30
Faridabad,Haryana,28.4089,77.3178,25.5,55,0.0,985.2,5.9,33.1,1526,1557.2,208.6,4,5,3,0,2026-03-05T21:02:22.937372+05:30
Meerut,Uttar Pradesh,28.9845,77.7064,23.3,69,0.0,982.1,5.7,30.6,292,683.6,129.0,3,5,3,1,2026-03-05T21:02:22.937377+05:30
Agra,Uttar Pradesh,27.1767,78.0081,23.0,61,0.0,989.2,6.2,37.8,502,851.2,123.4,3,5,7,0,2026-03-05T21:02:22.937383+05:30
Varanasi,Uttar Pradesh,25.3176,82.9739,23.5,70,0.0,999.1,7.05,16.6,157,180.7,98.5,3,5,7,1,2026-03-05T21:02:22.937392+05:30
Prayagraj,Uttar Pradesh,25.4358,81.8463,24.4,71,0.0,997.3,6.9,19.4,157,197.4,97.1,3,5,7,1,2026-03-05T21:02:22.937399+05:30
Gorakhpur,Uttar Pradesh,26.7606,83.3732,23.3,67,0.0,999.0,6.75,11.2,174,163.9,117.6,3,5,7,1,2026-03-05T21:02:22.937405+05:30
Bareilly,Uttar Pradesh,28.367,79.4304,22.6,80,0.0,988.0,6.05,14.0,171,136.9,97.6,3,5,7,1,2026-03-05T21:02:22.937411+05:30
Aligarh,Uttar Pradesh,27.8974,78.088,23.2,63,0.0,986.7,5.95,35.3,730,1113.9,183.0,3,5,3,0,2026-03-05T21:02:22.937417+05:30
Moradabad,Uttar Pradesh,28.8386,78.7733,22.8,78,0.0,984.7,5.85,18.0,175,115.9,87.1,3,5,3,1,2026-03-05T21:02:22.937423+05:30
Saharanpur,Uttar Pradesh,29.9637,77.546,22.0,70,0.0,976.0,5.5,23.4,157,364.1,96.6,3,5,3,1,2026-03-05T21:02:22.937428+05:30
Jhansi,Uttar Pradesh,25.4484,78.5685,26.3,42,0.0,979.7,6.85,35.3,62,36.9,24.4,4,5,7,0,2026-03-05T21:02:26.274096+05:30
Surat,Gujarat,21.1702,72.8311,28.2,40,0.0,1009.0,7.1,29.5,109,60.5,58.4,4,0,4,0,2026-03-05T21:02:26.274122+05:30
Vadodara,Gujarat,22.3072,73.1812,28.7,25,0.0,1007.0,7.2,24.5,115,43.2,41.7,4,5,4,0,2026-03-05T21:02:26.274134+05:30
Rajkot,Gujarat,22.3039,70.8022,26.1,44,0.0,998.3,7.05,36.4,106,16.6,16.0,4,5,7,0,2026-03-05T21:02:26.274177+05:30
Thane,Maharashtra,19.2183,72.9781,29.8,38,0.0,1009.1,7.4,41.4,179,33.2,30.9,4,0,4,0,2026-03-05T21:02:26.274187+05:30
Nagpur,Maharashtra,21.1458,79.0882,27.7,32,0.0,974.7,7.8,27.0,82,26.7,19.9,4,5,7,0,2026-03-05T21:02:26.274196+05:30
Nashik,Maharashtra,19.9975,73.7898,26.4,33,0.0,947.9,7.55,37.4,102,25.1,23.6,4,5,7,0,2026-03-05T21:02:26.274204+05:30
Aurangabad,Maharashtra,19.8762,75.3433,27.0,34,0.0,946.5,8.1,30.2,110,23.7,21.1,4,5,7,0,2026-03-05T21:02:26.274212+05:30
Solapur,Maharashtra,17.6599,75.9064,26.5,44,0.0,958.3,8.35,19.1,145,22.8,21.7,4,5,7,0,2026-03-05T21:02:26.274221+05:30
Kolhapur,Maharashtra,16.705,74.2433,23.9,58,0.0,949.2,8.5,34.6,151,55.6,54.6,0,5,7,0,2026-03-05T21:02:26.274229+05:30
Goa,Goa,15.2993,74.124,27.1,84,0.0,999.5,8.55,36.0,152,60.8,57.3,7,5,7,1,2026-03-05T21:02:26.274237+05:30
Jodhpur,Rajasthan,26.2389,73.0243,26.5,25,0.0,986.0,6.9,24.1,100,95.7,20.3,4,5,7,0,2026-03-05T21:02:26.274247+05:30
Udaipur,Rajasthan,24.5854,73.7125,24.6,25,0.0,949.8,7.55,25.9,86,14.5,13.7,0,5,7,0,2026-03-05T21:02:26.274256+05:30
Kota,Rajasthan,25.2138,75.8648,24.9,49,0.0,981.1,6.95,28.8,76,77.8,37.8,0,5,7,0,2026-03-05T21:02:26.274264+05:30
Bikaner,Rajasthan,28.0229,73.3119,27.5,33,0.0,984.5,6.6,20.9,85,22.9,13.9,4,5,7,0,2026-03-05T21:02:26.274271+05:30
Ajmer,Rajasthan,26.4499,74.6399,26.6,36,0.0,957.5,6.9,25.6,88,27.1,18.7,4,5,7,0,2026-03-05T21:02:26.274279+05:30
Gwalior,Madhya Pradesh,26.2183,78.1828,25.2,54,0.0,984.9,6.55,32.8,73,163.9,40.7,4,5,7,0,2026-03-05T21:02:26.274287+05:30
Indore,Madhya Pradesh,22.7196,75.8577,23.3,45,0.0,950.4,7.5,25.2,93,37.6,27.8,0,5,7,0,2026-03-05T21:02:26.274295+05:30
Bhopal,Madhya Pradesh,23.2599,77.4126,23.7,45,0.0,956.0,7.35,29.5,91,35.9,24.1,0,5,7,0,2026-03-05T21:02:26.274302+05:30
Jabalpur,Madhya Pradesh,23.1815,79.9864,26.2,43,0.0,962.8,7.5,30.2,67,36.4,20.9,4,5,7,0,2026-03-05T21:02:26.274310+05:30
Ujjain,Madhya Pradesh,23.1765,75.7885,22.8,53,0.0,956.2,7.4,23.0,107,46.3,36.7,0,5,7,0,2026-03-05T21:02:26.274318+05:30
Visakhapatnam,Andhra Pradesh,17.6868,83.2185,26.4,77,0.0,1003.9,8.45,33.1,137,44.1,40.3,7,5,4,1,2026-03-05T21:02:26.274325+05:30
Vijayawada,Andhra Pradesh,16.5062,80.648,29.6,48,0.0,1002.9,8.5,17.3,119,54.9,53.2,4,5,4,1,2026-03-05T21:02:26.274333+05:30
Guntur,Andhra Pradesh,16.3067,80.4365,27.6,55,0.0,1004.4,8.5,20.9,134,47.8,45.9,4,5,4,1,2026-03-05T21:02:26.274341+05:30
Nellore,Andhra Pradesh,14.4426,79.9865,26.5,66,0.0,1007.0,8.7,28.4,153,31.0,28.6,7,5,4,1,2026-03-05T21:02:26.274349+05:30
Kurnool,Andhra Pradesh,15.8281,78.0373,31.0,28,0.0,977.7,8.5,27.0,136,25.2,23.8,0,5,7,0,2026-03-05T21:02:26.274358+05:30
Kakinada,Andhra Pradesh,16.9891,82.2475,26.0,78,0.0,1007.4,8.45,27.4,100,35.6,32.5,7,5,4,1,2026-03-05T21:02:26.274365+05:30
Tirupati,Andhra Pradesh,13.6288,79.4192,27.3,52,0.0,993.3,8.8,29.5,125,46.4,43.4,4,5,7,1,2026-03-05T21:02:26.274373+05:30
Warangal,Telangana,17.9689,79.5941,28.5,38,0.0,979.6,8.3,27.4,133,32.5,30.3,4,5,7,0,2026-03-05T21:02:26.274380+05:30
Nizamabad,Telangana,18.6725,78.0941,26.1,50,0.0,966.2,8.15,22.3,98,32.0,30.4,4,5,7,0,2026-03-05T21:02:26.274387+05:30
Mysore,Karnataka,12.2958,76.6396,26.9,49,0.0,929.5,9.15,24.5,158,55.4,54.5,4,5,7,0,2026-03-05T21:02:26.274395+05:30
Mangalore,Karnataka,12.9141,74.856,28.7,79,0.0,1008.6,8.75,30.2,132,46.1,42.1,7,0,4,1,2026-03-05T21:02:26.274402+05:30
Hubli-Dharwad,Karnataka,15.3647,75.124,26.5,37,0.0,942.0,8.7,29.2,159,27.8,26.7,4,5,7,0,2026-03-05T21:02:26.274410+05:30
Belgaum,Karnataka,15.8497,74.4977,24.4,77,0.0,927.3,8.75,36.7,164,41.3,39.9,3,5,7,1,2026-03-05T21:02:29.611545+05:30
Coimbatore,Tamil Nadu,11.0168,76.9558,25.6,75,0.0,963.3,9.15,34.2,137,42.6,41.8,7,5,7,1,2026-03-05T21:02:29.611570+05:30
Madurai,Tamil Nadu,9.9252,78.1198,27.2,60,0.0,994.9,9.1,29.9,127,34.2,32.7,4,5,7,1,2026-03-05T21:02:29.611582+05:30
Trichy,Tamil Nadu,10.7905,78.7047,26.3,70,0.0,1001.4,9.0,33.8,106,29.8,28.5,7,5,4,1,2026-03-05T21:02:29.611592+05:30
Salem,Tamil Nadu,11.6643,78.146,28.2,39,0.0,978.5,9.05,19.8,146,33.3,31.2,4,5,7,0,2026-03-05T21:02:29.611601+05:30
Tirunelveli,Tamil Nadu,8.7139,77.7567,27.4,68,0.0,1005.1,9.15,48.6,89,18.3,17.5,7,5,4,1,2026-03-05T21:02:29.611610+05:30
Vellore,Tamil Nadu,12.9165,79.1325,25.9,50,0.0,986.2,8.9,29.2,123,45.2,42.5,4,5,7,0,2026-03-05T21:02:29.611618+05:30
Erode,Tamil Nadu,11.341,77.7172,28.9,48,0.0,990.0,9.05,19.8,160,37.8,36.6,4,5,7,1,2026-03-05T21:02:29.611626+05:30
Kochi,Kerala,9.9312,76.2673,28.4,79,0.0,1010.4,8.95,38.2,144,60.5,58.0,7,0,4,1,2026-03-05T21:02:29.611634+05:30
Thiruvananthapuram,Kerala,8.5241,76.9366,28.1,76,0.0,1009.9,9.0,32.8,112,31.7,28.4,7,0,4,1,2026-03-05T21:02:29.611643+05:30
Kozhikode,Kerala,11.2588,75.7804,28.6,80,0.0,1009.7,8.85,30.6,127,45.2,40.2,7,0,4,1,2026-03-05T21:02:29.611651+05:30
Thrissur,Kerala,10.5276,76.2144,27.2,84,0.0,1008.9,8.9,36.7,140,49.9,47.5,7,0,4,1,2026-03-05T21:02:29.611660+05:30
Kannur,Kerala,11.8745,75.3704,28.3,79,0.0,1009.1,8.85,37.4,133,44.5,40.0,7,0,4,1,2026-03-05T21:02:29.611668+05:30
Patna,Bihar,25.5941,85.1376,25.3,62,0.0,1002.2,7.2,14.4,169,119.7,87.5,7,5,4,1,2026-03-05T21:02:29.611676+05:30
Gaya,Bihar,24.7914,85.0002,23.2,68,0.0,995.4,7.3,12.6,152,110.6,66.1,3,5,7,1,2026-03-05T21:02:29.611683+05:30
Muzaffarpur,Bihar,26.1209,85.3647,23.9,65,0.0,1002.2,7.15,15.5,176,104.8,82.7,3,5,4,1,2026-03-05T21:02:29.611691+05:30
Bhagalpur,Bihar,25.2425,87.0117,23.7,62,0.0,1003.0,7.25,14.0,163,95.0,78.5,3,5,4,0,2026-03-05T21:02:29.611699+05:30
Ranchi,Jharkhand,23.3441,85.3096,21.2,52,0.0,938.4,7.95,19.1,133,100.8,51.1,0,5,7,0,2026-03-05T21:02:29.611707+05:30
Jamshedpur,Jharkhand,22.8046,86.2029,26.2,49,0.0,991.6,7.85,11.2,200,119.0,72.9,4,5,7,0,2026-03-05T21:02:29.611715+05:30
Dhanbad,Jharkhand,23.7957,86.4304,26.4,40,0.0,981.0,7.75,16.2,179,178.8,134.6,4,5,7,0,2026-03-05T21:02:29.611722+05:30
Bokaro,Jharkhand,23.6693,86.1511,26.0,43,0.0,985.2,7.75,13.3,189,173.7,134.1,4,5,7,0,2026-03-05T21:02:29.611730+05:30
Bhubaneswar,Odisha,20.2961,85.8245,25.9,78,0.0,1003.3,8.15,25.2,155,36.3,31.8,7,5,4,1,2026-03-05T21:02:29.611738+05:30
Cuttack,Odisha,20.4625,85.8828,26.2,77,0.0,1005.3,8.2,26.6,155,36.3,31.8,7,5,4,1,2026-03-05T21:02:29.611745+05:30
Rourkela,Odisha,22.2604,84.8536,27.1,48,0.0,985.4,7.75,23.0,119,125.7,59.3,4,5,7,0,2026-03-05T21:02:29.611753+05:30
Raipur,Chhattisgarh,21.2514,81.6296,28.0,31,0.0,975.3,7.85,27.7,116,74.3,60.5,4,5,7,0,2026-03-05T21:02:29.611760+05:30
Bhilai,Chhattisgarh,21.1938,81.3509,26.8,32,0.0,975.5,7.85,27.7,96,60.5,47.5,4,5,7,0,2026-03-05T21:02:29.611767+05:30
Guwahati,Assam,26.1158,91.7086,26.2,64,0.0,1003.3,7.15,18.0,135,56.0,52.2,7,5,4,1,2026-03-05T21:02:29.611773+05:30
Agartala,Tripura,23.8315,91.2868,23.4,68,0.0,1007.4,7.55,16.2,175,113.9,99.7,3,5,4,1,2026-03-05T21:02:29.611779+05:30
Shillong,Meghalaya,25.5788,91.8933,13.3,90,0.0,857.0,7.55,15.8,111,48.8,44.8,3,10,7,0,2026-03-05T21:02:29.611785+05:30
Imphal,Manipur,24.817,93.9368,16.9,64,0.0,924.3,7.75,23.0,146,54.9,50.3,3,5,7,0,2026-03-05T21:02:29.611791+05:30
Aizawl,Mizoram,23.7271,92.7176,18.1,60,0.0,892.9,7.7,23.8,156,73.8,64.5,0,5,7,0,2026-03-05T21:02:29.611796+05:30
Kohima,Nagaland,25.6701,94.1077,15.5,72,0.0,856.3,7.6,36.7,131,44.8,40.0,3,5,7,0,2026-03-05T21:02:29.611802+05:30
Gangtok,Sikkim,27.3314,88.6138,15.3,88,0.0,839.0,7.5,21.2,112,41.3,37.0,3,10,7,0,2026-03-05T21:02:29.611808+05:30
Siliguri,West Bengal,26.7271,88.3953,21.6,65,0.0,996.3,7.15,22.3,138,55.5,48.1,3,5,7,0,2026-03-05T21:02:32.950576+05:30
Durgapur,West Bengal,23.5204,87.3119,25.7,45,0.0,996.4,7.7,20.2,182,82.7,67.1,4,5,7,0,2026-03-05T21:02:32.950603+05:30
Asansol,West Bengal,23.6739,86.9524,26.3,43,0.0,994.9,7.7,15.1,184,111.1,78.5,4,5,7,0,2026-03-05T21:02:32.950615+05:30
Pondicherry,Puducherry,11.9139,79.8145,24.6,86,0.0,1010.3,8.85,24.5,79,20.0,17.1,3,0,4,1,2026-03-05T21:02:32.950624+05:30
Port Blair,Andaman and Nicobar Islands,11.6234,92.7265,27.0,73,0.0,1008.2,8.8,23.4,60,19.6,12.8,7,0,4,1,2026-03-05T21:02:32.950633+05:30
Haridwar,Uttarakhand,29.9457,78.1642,22.8,80,0.0,975.0,5.65,21.6,162,105.2,70.1,3,5,3,1,2026-03-05T21:02:32.950640+05:30
Rishikesh,Uttarakhand,30.0869,78.2676,21.4,81,0.0,967.9,5.7,20.9,169,82.9,55.1,3,5,3,1,2026-03-05T21:02:32.950649+05:30
Nainital,Uttarakhand,29.3919,79.4542,16.3,84,0.0,806.0,6.5,53.6,154,102.7,71.2,3,10,7,0,2026-03-05T21:02:32.950657+05:30
Mussoorie,Uttarakhand,30.4599,78.0664,16.4,76,0.0,802.7,6.0,37.1,182,77.1,53.9,3,5,3,0,2026-03-05T21:02:32.950665+05:30
Dharamshala,Himachal Pradesh,32.219,76.3234,22.3,44,0.0,871.2,6.3,24.5,84,35.6,23.3,0,5,7,0,2026-03-05T21:02:32.950673+05:30
Dalhousie,Himachal Pradesh,32.5387,75.971,18.2,63,0.0,805.3,6.45,21.2,105,62.6,47.4,3,5,7,0,2026-03-05T21:02:32.950682+05:30
Patiala,Punjab,30.3398,76.3869,22.8,73,0.0,979.3,5.65,28.4,343,404.2,91.5,3,5,3,1,2026-03-05T21:02:32.950690+05:30
Bhatinda,Punjab,30.211,74.9455,23.6,70,0.0,985.3,6.35,27.0,138,64.7,46.7,3,5,7,1,2026-03-05T21:02:32.950697+05:30
Rohtak,Haryana,28.8955,76.6066,23.1,69,0.0,983.1,5.85,33.1,590,864.3,141.6,3,5,3,1,2026-03-05T21:02:32.950705+05:30
Panipat,Haryana,29.3909,76.9635,23.0,73,0.0,981.3,5.65,32.4,1260,1329.9,189.1,3,5,3,1,2026-03-05T21:02:32.950712+05:30
Mathura,Uttar Pradesh,27.4924,77.6737,24.7,52,0.0,988.4,6.1,34.9,674,882.9,132.7,0,5,7,0,2026-03-05T21:02:32.950720+05:30
Vrindavan,Uttar Pradesh,27.5823,77.7027,22.8,62,0.0,988.7,6.1,37.1,674,882.9,132.7,3,5,7,0,2026-03-05T21:02:32.950728+05:30
Ayodhya,Uttar Pradesh,26.7922,82.1998,22.9,73,0.0,996.9,6.55,10.1,177,109.9,86.6,3,5,7,1,2026-03-05T21:02:32.950735+05:30
Ratlam,Madhya Pradesh,23.3315,75.0367,25.2,45,0.0,957.3,7.35,23.0,96,41.9,34.5,4,5,7,0,2026-03-05T21:02:32.950743+05:30
Sagar,Madhya Pradesh,23.8388,78.7378,25.9,38,0.0,951.9,7.3,31.7,74,37.1,18.7,4,5,7,0,2026-03-05T21:02:32.950750+05:30
Satna,Madhya Pradesh,24.6005,80.8322,24.1,44,0.0,972.4,7.3,40.0,101,40.4,25.5,0,5,7,0,2026-03-05T21:02:32.950758+05:30
Akola,Maharashtra,20.7002,77.0082,26.6,32,0.0,976.9,7.8,26.6,100,38.8,32.1,4,5,7,0,2026-03-05T21:02:32.950766+05:30
Amravati,Maharashtra,20.9374,77.7796,24.6,44,0.0,968.8,7.75,16.9,103,38.2,31.0,0,5,7,0,2026-03-05T21:02:32.950774+05:30
Latur,Maharashtra,18.4088,76.5604,26.2,38,0.0,941.4,8.25,32.0,135,30.7,28.3,4,5,7,0,2026-03-05T21:02:32.950781+05:30
Nanded,Maharashtra,19.1383,77.3091,26.2,44,0.0,970.1,8.05,25.2,115,32.9,31.3,4,5,7,0,2026-03-05T21:02:32.950789+05:30
Gulbarga,Karnataka,17.3297,76.8343,28.7,30,0.0,960.0,8.35,22.3,133,17.8,17.1,4,5,7,0,2026-03-05T21:02:32.950796+05:30
Bidar,Karnataka,17.9104,77.5199,26.6,42,0.0,937.1,8.3,24.8,113,24.0,22.2,4,5,7,0,2026-03-05T21:02:32.950803+05:30
Hospet,Karnataka,15.2689,76.3909,29.6,31,0.0,957.3,8.7,25.9,163,35.0,33.4,4,5,7,0,2026-03-05T21:02:32.950811+05:30
Tirupur,Tamil Nadu,11.1085,77.3411,28.8,36,0.0,976.2,9.15,29.2,155,46.7,45.6,4,5,7,0,2026-03-05T21:02:32.950818+05:30
Alappuzha,Kerala,9.4981,76.3388,28.4,77,0.0,1010.6,8.95,35.3,120,52.5,48.8,7,0,4,1,2026-03-05T21:02:32.950825+05:30
Munnar,Kerala,10.0889,77.0595,20.7,88,0.0,858.1,9.45,23.4,108,38.6,37.7,3,5,7,1,2026-03-05T21:02:32.950833+05:30
Silchar,Assam,24.8333,92.7789,24.5,62,0.0,1006.1,7.5,13.7,149,75.9,67.5,3,5,4,1,2026-03-05T21:02:32.950841+05:30
Dibrugarh,Assam,27.4728,94.912,23.4,76,0.0,997.5,7.2,14.4,110,48.4,44.5,3,5,7,1,2026-03-05T21:02:32.950848+05:30
