city,state,latitude,longitude,temp,humidity,rain,pressure,uv_index,wind_gusts,aqi,pm10,pm2_5,no2,co,o3,so2,mosquito_risk,arthritis_risk,migraine_risk,frizz_risk,updated_at
Delhi,Delhi,28.6139,77.209,28.5,82,0.0,978.5,5.85,28.1,114,14.2,13.5,12.9,458.0,111.0,20.7,7,5,3,1,2026-07-21T12:00:17.840555+05:30
Mumbai,Maharashtra,19.076,72.8777,29.0,79,0.1,1006.4,6.95,50.4,63,43.5,21.1,7.6,224.0,61.0,8.4,10,5,4,1,2026-07-21T12:00:17.840596+05:30
Bangalore,Karnataka,12.9716,77.5946,27.8,54,0.0,913.0,8.4,45.7,37,15.7,9.0,5.4,227.0,50.0,3.4,4,5,7,1,2026-07-21T12:00:17.840611+05:30
Hyderabad,Telangana,17.385,78.4867,27.2,65,0.0,952.3,4.0,46.1,36,21.9,11.1,2.4,249.0,62.0,3.4,7,5,3,1,2026-07-21T12:00:17.840620+05:30
Chennai,Tamil Nadu,13.0827,80.2707,32.6,56,0.0,1006.7,7.9,30.2,68,29.4,20.6,11.3,215.0,95.0,11.8,0,5,4,1,2026-07-21T12:00:17.840628+05:30
Kolkata,West Bengal,22.5726,88.3639,25.8,95,0.4,1002.3,6.65,25.9,65,14.2,13.5,7.7,242.0,84.0,9.9,10,5,4,1,2026-07-21T12:00:17.840636+05:30
Pune,Maharashtra,18.5204,73.8567,25.4,78,0.1,946.3,4.7,53.6,24,15.3,7.9,2.7,146.0,59.0,3.8,10,5,3,1,2026-07-21T12:00:17.840643+05:30
Ahmedabad,Gujarat,23.0225,72.5714,29.9,69,0.0,997.6,4.85,38.5,62,32.1,15.0,5.7,163.0,56.0,6.2,7,5,3,1,2026-07-21T12:00:17.840651+05:30
Jaipur,Rajasthan,26.9124,75.7873,27.9,87,0.2,955.0,1.1,23.4,73,20.7,12.8,8.6,184.0,74.0,5.3,10,5,3,1,2026-07-21T12:00:17.840657+05:30
Lucknow,Uttar Pradesh,26.8467,80.9462,30.4,72,0.0,989.3,6.95,33.1,68,6.1,6.1,4.3,338.0,108.0,7.6,3,5,7,1,2026-07-21T12:00:17.840668+05:30
Kanpur,Uttar Pradesh,26.4499,80.3319,30.9,72,0.0,987.3,6.95,32.0,71,8.3,7.4,4.4,206.0,118.0,6.4,3,5,7,1,2026-07-21T12:00:17.840674+05:30
Chandigarh,Chandigarh,30.7333,76.7794,26.4,94,0.2,965.7,6.5,33.1,76,14.1,13.9,11.5,338.0,94.0,5.0,10,5,7,1,2026-07-21T12:00:17.840682+05:30
Srinagar,Jammu and Kashmir,34.0837,74.7973,21.5,99,0.4,840.2,8.15,20.9,53,8.8,8.2,9.6,430.0,94.0,3.9,6,5,7,1,2026-07-21T12:00:17.840691+05:30
Jammu,Jammu and Kashmir,32.7266,74.857,25.9,93,0.2,970.0,6.8,34.9,97,16.2,12.1,14.5,325.0,65.0,5.4,10,5,7,1,2026-07-21T12:00:17.840698+05:30
Amritsar,Punjab,31.634,74.8723,26.6,97,1.1,977.2,8.05,33.5,141,56.1,27.4,5.5,337.0,96.0,5.9,10,5,7,1,2026-07-21T12:00:17.840704+05:30
Ludhiana,Punjab,30.901,75.8573,27.9,87,0.0,975.2,3.75,36.4,93,17.8,17.2,8.4,385.0,96.0,7.2,7,5,3,1,2026-07-21T12:00:17.840710+05:30
Jalandhar,Punjab,31.326,75.5762,28.4,82,0.1,976.2,5.1,37.8,104,18.9,14.5,6.2,385.0,105.0,6.5,10,5,3,1,2026-07-21T12:00:17.840737+05:30
Dehradun,Uttarakhand,30.6284,78.0322,22.4,80,0.0,830.5,2.35,24.8,57,2.9,2.8,3.3,224.0,113.0,1.1,3,5,3,1,2026-07-21T12:00:17.840744+05:30
Shimla,Himachal Pradesh,31.1048,77.1734,17.2,97,0.4,783.9,3.8,21.2,54,2.9,2.7,4.4,262.0,112.0,0.7,6,10,3,1,2026-07-21T12:00:17.840751+05:30
Manali,Himachal Pradesh,32.2396,77.1887,23.0,85,0.2,820.3,5.8,22.7,33,1.4,1.1,4.0,220.0,104.0,0.8,6,5,3,1,2026-07-21T12:00:17.840759+05:30
Gurgaon,Haryana,28.4595,77.0266,27.3,87,0.0,976.8,4.7,23.8,103,13.1,12.2,11.8,717.0,100.0,16.1,7,5,3,1,2026-07-21T12:00:17.840766+05:30
Noida,Uttar Pradesh,28.5355,77.391,30.1,72,0.1,979.9,3.45,27.0,103,13.1,12.2,11.8,351.0,100.0,16.1,6,5,3,1,2026-07-21T12:00:17.840772+05:30
Ghaziabad,Uttar Pradesh,28.6692,77.4538,29.5,76,0.0,978.2,2.6,33.1,96,9.8,9.5,5.3,303.0,113.0,9.3,7,5,3,1,2026-07-21T12:00:17.840778+05:30
Faridabad,Haryana,28.4089,77.3178,29.9,73,0.0,979.1,3.6,28.8,103,13.1,12.2,11.8,399.0,100.0,16.1,7,5,3,1,2026-07-21T12:00:17.840784+05:30
Meerut,Uttar Pradesh,28.9845,77.7064,28.8,79,0.0,977.4,2.25,42.8,96,9.8,9.5,5.3,271.0,113.0,9.3,7,5,3,1,2026-07-21T12:00:17.840792+05:30
Agra,Uttar Pradesh,27.1767,78.0081,29.4,73,0.0,983.5,7.05,21.6,69,25.3,14.7,4.3,294.0,115.0,5.1,7,5,7,1,2026-07-21T12:00:17.840798+05:30
Varanasi,Uttar Pradesh,25.3176,82.9739,27.8,89,0.0,993.1,8.25,35.3,72,22.5,21.5,3.9,996.0,137.0,18.6,7,5,7,1,2026-07-21T12:00:17.840805+05:30
Prayagraj,Uttar Pradesh,25.4358,81.8463,27.6,87,0.3,991.5,7.35,35.3,67,17.5,17.2,4.7,355.0,134.0,14.4,10,5,7,1,2026-07-21T12:00:17.840811+05:30
Gorakhpur,Uttar Pradesh,26.7606,83.3732,29.5,78,0.1,994.0,7.65,40.0,64,17.4,16.6,2.1,280.0,128.0,6.2,10,5,7,1,2026-07-21T12:00:17.840817+05:30
Bareilly,Uttar Pradesh,28.367,79.4304,28.5,84,0.1,983.0,3.85,38.5,62,10.5,10.4,4.1,294.0,105.0,8.6,10,5,3,1,2026-07-21T12:00:17.840825+05:30
Aligarh,Uttar Pradesh,27.8974,78.088,30.4,72,0.0,981.1,6.85,25.9,91,10.3,8.8,5.3,232.0,103.0,8.3,3,5,7,1,2026-07-21T12:00:17.840831+05:30
Moradabad,Uttar Pradesh,28.8386,78.7733,28.2,85,0.1,980.0,3.8,45.4,65,11.0,11.0,3.9,295.0,114.0,8.5,10,5,3,1,2026-07-21T12:00:17.840837+05:30
Saharanpur,Uttar Pradesh,29.9637,77.546,29.7,77,0.0,972.3,6.4,50.8,81,12.1,12.1,2.3,308.0,131.0,4.0,7,5,7,1,2026-07-21T12:00:17.840843+05:30
Jhansi,Uttar Pradesh,25.4484,78.5685,30.8,63,0.1,973.5,3.8,15.1,65,31.4,15.2,3.3,161.0,108.0,10.4,6,5,3,1,2026-07-21T12:00:21.123182+05:30
Surat,Gujarat,21.1702,72.8311,29.2,78,0.1,1002.8,4.7,48.2,67,34.9,23.1,19.3,409.0,32.0,53.1,10,5,0,1,2026-07-21T12:00:21.123216+05:30
Vadodara,Gujarat,22.3072,73.1812,27.2,89,0.1,1000.1,6.3,33.1,58,23.3,13.4,5.9,166.0,57.0,7.0,10,5,4,1,2026-07-21T12:00:21.123229+05:30
Rajkot,Gujarat,22.3039,70.8022,29.8,70,0.0,989.4,4.9,45.0,61,33.2,14.6,1.6,110.0,72.0,4.1,7,5,3,1,2026-07-21T12:00:21.123239+05:30
Thane,Maharashtra,19.2183,72.9781,27.0,87,0.1,1005.8,6.35,41.0,63,43.5,21.1,7.6,287.0,61.0,8.4,10,5,4,1,2026-07-21T12:00:21.123248+05:30
Nagpur,Maharashtra,21.1458,79.0882,27.7,82,0.0,969.6,0.95,33.8,55,9.4,7.2,8.1,184.0,59.0,16.2,7,5,3,1,2026-07-21T12:00:21.123257+05:30
Nashik,Maharashtra,19.9975,73.7898,24.0,90,0.0,942.6,3.5,50.4,22,13.1,6.3,2.2,130.0,52.0,2.0,3,5,3,1,2026-07-21T12:00:21.123266+05:30
Aurangabad,Maharashtra,19.8762,75.3433,26.3,77,0.1,941.7,2.95,54.0,28,12.1,6.5,2.0,126.0,64.0,5.1,10,5,3,1,2026-07-21T12:00:21.123274+05:30
Solapur,Maharashtra,17.6599,75.9064,31.1,54,0.0,956.3,4.65,57.2,29,18.8,8.1,1.2,110.0,64.0,1.7,0,5,3,1,2026-07-21T12:00:21.123283+05:30
Kolhapur,Maharashtra,16.705,74.2433,26.7,72,0.0,947.7,6.65,59.8,28,13.1,7.5,1.8,116.0,59.0,1.8,7,5,7,1,2026-07-21T12:00:21.123292+05:30
Goa,Goa,15.2993,74.124,28.5,79,0.1,999.6,7.65,36.4,58,19.6,10.5,1.0,169.0,53.0,1.3,10,5,7,1,2026-07-21T12:00:21.123301+05:30
Jodhpur,Rajasthan,26.2389,73.0243,34.8,48,0.1,977.5,7.15,35.6,84,174.2,43.9,1.1,118.0,82.0,2.5,3,5,7,1,2026-07-21T12:00:21.123309+05:30
Udaipur,Rajasthan,24.5854,73.7125,26.4,82,0.0,942.3,3.0,28.4,57,33.4,13.8,1.9,112.0,69.0,3.9,7,5,3,1,2026-07-21T12:00:21.123318+05:30
Kota,Rajasthan,25.2138,75.8648,30.8,68,0.0,973.9,2.7,30.6,66,14.7,11.3,5.0,158.0,85.0,8.1,3,5,3,1,2026-07-21T12:00:21.123327+05:30
Bikaner,Rajasthan,28.0229,73.3119,37.4,42,0.0,975.9,8.15,45.0,85,102.0,30.3,0.6,118.0,82.0,3.6,0,5,10,1,2026-07-21T12:00:21.123336+05:30
Ajmer,Rajasthan,26.4499,74.6399,29.6,70,0.0,950.2,4.55,27.4,58,34.6,18.2,3.0,128.0,86.0,3.8,7,5,3,1,2026-07-21T12:00:21.123344+05:30
Gwalior,Madhya Pradesh,26.2183,78.1828,30.8,61,0.1,978.7,5.45,27.4,62,31.9,17.5,1.8,201.0,110.0,4.1,6,5,3,1,2026-07-21T12:00:21.123352+05:30
Indore,Madhya Pradesh,22.7196,75.8577,24.9,94,0.1,944.0,5.65,33.1,52,11.6,8.7,7.5,199.0,46.0,8.0,6,5,3,1,2026-07-21T12:00:21.123360+05:30
Bhopal,Madhya Pradesh,23.2599,77.4126,24.9,95,0.2,949.3,1.15,27.4,60,7.5,7.1,5.8,240.0,58.0,3.2,6,5,3,1,2026-07-21T12:00:21.123369+05:30
Jabalpur,Madhya Pradesh,23.1815,79.9864,26.5,84,0.1,957.1,5.2,31.7,54,4.1,3.9,3.7,213.0,78.0,2.5,10,5,3,1,2026-07-21T12:00:21.123377+05:30
Ujjain,Madhya Pradesh,23.1765,75.7885,25.4,94,0.1,949.7,1.8,29.5,52,14.6,10.0,5.6,218.0,46.0,6.7,10,5,3,1,2026-07-21T12:00:21.123386+05:30
Visakhapatnam,Andhra Pradesh,17.6868,83.2185,30.3,69,0.0,1000.0,8.35,41.4,70,15.4,13.5,12.0,310.0,97.0,33.4,3,5,4,1,2026-07-21T12:00:21.123395+05:30
Vijayawada,Andhra Pradesh,16.5062,80.648,32.3,53,0.0,1001.5,5.0,47.2,56,25.0,13.9,2.2,145.0,80.0,5.4,0,5,0,1,2026-07-21T12:00:21.123403+05:30
Guntur,Andhra Pradesh,16.3067,80.4365,34.4,46,0.0,1002.5,4.75,47.2,53,25.8,14.2,1.9,140.0,79.0,4.9,0,5,0,1,2026-07-21T12:00:21.123412+05:30
Nellore,Andhra Pradesh,14.4426,79.9865,34.0,48,0.0,1005.3,6.7,46.8,54,25.8,12.7,2.4,117.0,73.0,5.7,0,5,4,1,2026-07-21T12:00:21.123421+05:30
Kurnool,Andhra Pradesh,15.8281,78.0373,30.8,55,0.0,977.0,4.55,51.8,43,17.5,8.5,2.4,127.0,58.0,3.8,0,5,3,1,2026-07-21T12:00:21.123429+05:30
Kakinada,Andhra Pradesh,16.9891,82.2475,29.5,70,0.1,1005.4,6.85,52.2,58,12.6,8.3,2.2,194.0,95.0,4.2,10,5,4,1,2026-07-21T12:00:21.123436+05:30
Tirupati,Andhra Pradesh,13.6288,79.4192,33.0,50,0.0,991.0,8.35,31.7,54,25.8,12.5,1.5,123.0,74.0,1.6,0,5,7,1,2026-07-21T12:00:21.123443+05:30
Warangal,Telangana,17.9689,79.5941,26.2,89,0.2,977.4,3.8,28.8,40,14.3,8.5,2.2,134.0,60.0,2.6,10,5,3,1,2026-07-21T12:00:21.123449+05:30
Nizamabad,Telangana,18.6725,78.0941,26.8,78,0.1,963.1,2.55,34.9,38,12.1,8.2,4.6,136.0,49.0,6.2,10,5,3,1,2026-07-21T12:00:21.123456+05:30
Mysore,Karnataka,12.2958,76.6396,27.6,60,0.1,930.1,7.95,45.0,28,12.9,6.6,1.9,121.0,60.0,1.7,7,5,7,1,2026-07-21T12:00:21.123462+05:30
Mangalore,Karnataka,12.9141,74.856,27.7,80,0.1,1009.2,7.75,31.0,52,17.4,9.0,1.7,118.0,50.0,1.8,10,0,4,1,2026-07-21T12:00:21.123469+05:30
Hubli-Dharwad,Karnataka,15.3647,75.124,28.0,61,0.0,941.7,5.55,58.0,18,11.6,5.5,1.5,102.0,53.0,1.0,7,5,3,1,2026-07-21T12:00:21.123475+05:30
Belgaum,Karnataka,15.8497,74.4977,25.6,72,0.0,926.4,8.15,58.7,21,11.5,6.2,1.4,99.0,57.0,1.8,7,5,7,1,2026-07-21T12:00:24.395226+05:30
Coimbatore,Tamil Nadu,11.0168,76.9558,31.6,50,0.1,963.0,8.8,51.1,35,16.9,8.6,1.4,134.0,71.0,2.4,3,5,7,1,2026-07-21T12:00:24.395260+05:30
Madurai,Tamil Nadu,9.9252,78.1198,36.5,35,0.0,993.3,8.45,26.3,56,22.8,12.1,3.5,142.0,88.0,4.3,0,5,10,1,2026-07-21T12:00:24.395274+05:30
Trichy,Tamil Nadu,10.7905,78.7047,36.2,39,0.0,999.7,8.75,45.0,40,15.7,8.4,2.3,118.0,61.0,2.8,0,5,10,1,2026-07-21T12:00:24.395285+05:30
Salem,Tamil Nadu,11.6643,78.146,31.7,57,0.0,978.3,8.15,27.7,57,23.3,14.8,3.4,185.0,104.0,9.1,0,5,7,1,2026-07-21T12:00:24.395295+05:30
Tirunelveli,Tamil Nadu,8.7139,77.7567,37.5,33,0.0,1003.6,8.6,42.8,38,11.3,6.8,1.4,118.0,66.0,1.5,0,5,7,1,2026-07-21T12:00:24.395303+05:30
Vellore,Tamil Nadu,12.9165,79.1325,34.4,45,0.0,984.4,8.0,34.9,59,19.5,11.2,2.4,137.0,82.0,3.7,0,5,7,1,2026-07-21T12:00:24.395313+05:30
Erode,Tamil Nadu,11.341,77.7172,34.8,41,0.0,989.6,8.55,36.4,51,20.0,11.9,2.5,158.0,86.0,3.1,0,5,7,1,2026-07-21T12:00:24.395321+05:30
Kochi,Kerala,9.9312,76.2673,29.1,78,0.0,1011.1,8.65,30.6,56,11.7,7.9,4.0,152.0,54.0,4.0,7,0,4,1,2026-07-21T12:00:24.395330+05:30
Thiruvananthapuram,Kerala,8.5241,76.9366,29.8,70,0.0,1010.2,7.9,37.4,52,18.6,13.7,4.3,133.0,79.0,3.5,7,0,4,1,2026-07-21T12:00:24.395338+05:30
Kozhikode,Kerala,11.2588,75.7804,28.7,76,0.0,1010.4,8.2,31.0,34,9.0,5.0,0.8,138.0,53.0,1.7,7,0,4,1,2026-07-21T12:00:24.395347+05:30
Thrissur,Kerala,10.5276,76.2144,30.1,73,0.0,1009.4,8.3,33.5,52,11.4,7.6,1.8,138.0,61.0,2.4,3,0,4,1,2026-07-21T12:00:24.395356+05:30
Kannur,Kerala,11.8745,75.3704,28.2,77,0.0,1009.8,8.05,34.2,42,13.6,7.8,1.6,130.0,58.0,2.1,7,0,4,1,2026-07-21T12:00:24.395365+05:30
Patna,Bihar,25.5941,85.1376,31.1,71,0.0,996.8,8.1,42.1,72,14.8,14.1,6.2,236.0,100.0,11.7,3,5,7,1,2026-07-21T12:00:24.395373+05:30
Gaya,Bihar,24.7914,85.0002,29.5,74,0.0,989.9,8.25,33.5,70,10.1,9.3,3.4,419.0,99.0,8.2,7,5,7,1,2026-07-21T12:00:24.395381+05:30
Muzaffarpur,Bihar,26.1209,85.3647,30.7,72,0.0,997.2,8.75,45.0,70,16.1,15.6,3.4,234.0,120.0,7.5,3,5,7,1,2026-07-21T12:00:24.395389+05:30
Bhagalpur,Bihar,25.2425,87.0117,27.9,84,0.1,998.3,7.4,37.4,61,9.3,9.2,8.1,222.0,71.0,8.6,10,5,7,1,2026-07-21T12:00:24.395398+05:30
Ranchi,Jharkhand,23.3441,85.3096,24.1,94,0.1,933.7,7.6,31.7,68,7.7,7.3,10.9,289.0,79.0,18.2,6,5,7,1,2026-07-21T12:00:24.395408+05:30
Jamshedpur,Jharkhand,22.8046,86.2029,25.7,93,0.4,986.8,7.8,27.0,76,8.1,7.8,4.1,262.0,99.0,11.1,10,5,7,1,2026-07-21T12:00:24.395416+05:30
Dhanbad,Jharkhand,23.7957,86.4304,28.8,77,0.0,976.1,5.8,35.3,113,20.3,19.8,22.7,420.0,65.0,68.1,7,5,3,1,2026-07-21T12:00:24.395425+05:30
Bokaro,Jharkhand,23.6693,86.1511,28.6,78,0.0,979.9,6.15,38.9,116,19.7,19.2,24.9,336.0,60.0,74.6,7,5,7,1,2026-07-21T12:00:24.395433+05:30
Bhubaneswar,Odisha,20.2961,85.8245,28.8,85,0.1,998.2,8.25,32.8,83,18.7,16.4,3.1,202.0,136.0,9.8,10,5,7,1,2026-07-21T12:00:24.395441+05:30
Cuttack,Odisha,20.4625,85.8828,28.5,82,0.0,1000.0,8.55,31.3,83,18.7,16.4,3.1,216.0,136.0,9.8,7,5,4,1,2026-07-21T12:00:24.395449+05:30
Rourkela,Odisha,22.2604,84.8536,25.8,94,0.5,980.9,1.1,19.1,98,8.8,8.3,10.6,274.0,83.0,16.0,10,5,3,1,2026-07-21T12:00:24.395457+05:30
Raipur,Chhattisgarh,21.2514,81.6296,26.2,93,0.0,970.5,1.55,34.6,84,20.4,19.3,24.0,287.0,41.0,55.0,7,5,3,1,2026-07-21T12:00:24.395465+05:30
Bhilai,Chhattisgarh,21.1938,81.3509,26.7,91,0.0,971.0,1.75,35.6,77,16.3,15.1,17.9,660.0,50.0,45.4,7,5,3,1,2026-07-21T12:00:24.395473+05:30
Guwahati,Assam,26.1158,91.7086,30.7,72,0.0,999.0,7.25,25.2,44,7.6,7.4,1.8,264.0,85.0,2.2,3,5,7,1,2026-07-21T12:00:24.395481+05:30
Agartala,Tripura,23.8315,91.2868,30.9,70,0.1,1003.0,7.5,29.9,51,9.5,8.8,3.3,149.0,88.0,1.7,6,5,4,1,2026-07-21T12:00:24.395490+05:30
Shillong,Meghalaya,25.5788,91.8933,22.9,77,0.0,857.3,6.95,19.4,23,3.0,2.9,2.4,203.0,66.0,1.5,3,5,7,1,2026-07-21T12:00:24.395499+05:30
Imphal,Manipur,24.817,93.9368,28.0,73,0.0,921.8,8.8,20.5,57,4.6,4.1,1.2,175.0,74.0,0.9,7,5,7,1,2026-07-21T12:00:24.395507+05:30
Aizawl,Mizoram,23.7271,92.7176,25.4,70,0.0,891.4,7.85,21.6,25,4.2,3.6,0.7,121.0,81.0,0.6,7,5,7,1,2026-07-21T12:00:24.395515+05:30
Kohima,Nagaland,25.6701,94.1077,24.2,77,0.1,855.4,8.6,22.3,24,3.9,3.6,0.8,144.0,75.0,0.4,6,5,7,1,2026-07-21T12:00:24.395523+05:30
Gangtok,Sikkim,27.3314,88.6138,19.3,95,0.1,838.2,6.8,25.6,31,1.6,1.6,2.0,188.0,75.0,0.8,6,10,7,1,2026-07-21T12:00:24.395532+05:30
Siliguri,West Bengal,26.7271,88.3953,29.0,77,0.0,991.7,6.9,32.8,48,4.2,4.1,1.9,210.0,84.0,1.4,7,5,7,1,2026-07-21T12:00:27.656390+05:30
Durgapur,West Bengal,23.5204,87.3119,26.9,89,0.1,991.1,6.35,32.0,90,11.3,11.1,14.5,241.0,70.0,32.9,10,5,7,1,2026-07-21T12:00:27.656424+05:30
Asansol,West Bengal,23.6739,86.9524,28.5,80,0.0,989.5,7.95,37.4,91,11.8,11.6,15.9,232.0,73.0,37.9,7,5,7,1,2026-07-21T12:00:27.656436+05:30
Pondicherry,Puducherry,11.9139,79.8145,33.6,50,0.0,1008.2,8.2,36.0,84,31.9,23.8,8.4,255.0,106.0,8.0,0,0,4,1,2026-07-21T12:00:27.656446+05:30
Port Blair,Andaman and Nicobar Islands,11.6234,92.7265,30.5,72,0.1,1007.4,8.55,43.2,59,18.0,10.7,0.2,92.0,50.0,0.6,6,5,4,1,2026-07-21T12:00:27.656456+05:30
Haridwar,Uttarakhand,29.9457,78.1642,30.1,72,0.1,970.9,6.65,35.3,81,8.6,8.5,1.8,285.0,117.0,3.3,6,5,7,1,2026-07-21T12:00:27.656465+05:30
Rishikesh,Uttarakhand,30.0869,78.2676,28.9,82,0.0,963.8,4.6,17.6,57,6.1,6.1,1.3,266.0,110.0,2.1,7,5,3,1,2026-07-21T12:00:27.656474+05:30
Nainital,Uttarakhand,29.3919,79.4542,21.5,71,0.1,806.2,5.45,37.8,43,5.3,5.2,1.0,202.0,92.0,1.2,6,5,3,1,2026-07-21T12:00:27.656482+05:30
Mussoorie,Uttarakhand,30.4599,78.0664,22.4,73,0.1,804.0,3.45,31.7,55,5.7,5.5,2.4,254.0,116.0,2.6,6,5,3,1,2026-07-21T12:00:27.656490+05:30
Dharamshala,Himachal Pradesh,32.219,76.3234,21.7,96,0.4,868.2,1.95,25.6,35,1.8,1.5,4.4,251.0,81.0,0.9,6,5,3,1,2026-07-21T12:00:27.656498+05:30
Dalhousie,Himachal Pradesh,32.5387,75.971,18.2,98,0.0,804.3,1.95,24.5,75,7.0,4.6,6.1,338.0,101.0,4.1,3,10,3,1,2026-07-21T12:00:27.656507+05:30
Patiala,Punjab,30.3398,76.3869,27.2,89,0.0,974.6,4.95,32.8,87,18.8,18.5,10.7,374.0,80.0,5.8,7,5,3,1,2026-07-21T12:00:27.656515+05:30
Bhatinda,Punjab,30.211,74.9455,32.3,62,0.0,979.3,8.05,40.0,185,126.7,41.6,3.2,211.0,124.0,8.0,3,5,7,1,2026-07-21T12:00:27.656524+05:30
Rohtak,Haryana,28.8955,76.6066,28.6,80,0.1,977.2,1.85,27.7,124,14.5,14.2,13.2,330.0,113.0,23.5,10,5,3,1,2026-07-21T12:00:27.656531+05:30
Panipat,Haryana,29.3909,76.9635,29.8,75,0.0,976.3,1.3,35.6,132,14.6,14.1,8.1,306.0,120.0,16.4,7,5,3,1,2026-07-21T12:00:27.656539+05:30
Mathura,Uttar Pradesh,27.4924,77.6737,29.7,72,0.1,982.3,6.65,30.2,80,19.2,13.0,8.2,335.0,83.0,3.8,10,5,7,1,2026-07-21T12:00:27.656547+05:30
Vrindavan,Uttar Pradesh,27.5823,77.7027,29.8,73,0.1,982.7,6.75,29.5,80,19.2,13.0,8.2,324.0,83.0,3.8,10,5,7,1,2026-07-21T12:00:27.656554+05:30
Ayodhya,Uttar Pradesh,26.7922,82.1998,29.7,76,0.1,991.6,7.15,38.5,65,17.8,17.3,3.1,309.0,124.0,9.5,10,5,7,1,2026-07-21T12:00:27.656562+05:30
Ratlam,Madhya Pradesh,23.3315,75.0367,25.3,92,0.0,950.5,1.1,32.0,51,18.6,11.2,4.7,131.0,49.0,6.3,7,5,3,1,2026-07-21T12:00:27.656570+05:30
Sagar,Madhya Pradesh,23.8388,78.7378,27.3,80,0.0,945.7,1.0,18.4,51,8.0,6.4,3.5,162.0,76.0,2.7,7,5,3,1,2026-07-21T12:00:27.656578+05:30
Satna,Madhya Pradesh,24.6005,80.8322,25.7,92,0.1,967.0,5.75,19.8,55,10.0,9.0,4.6,200.0,91.0,4.0,10,5,3,1,2026-07-21T12:00:27.656586+05:30
Akola,Maharashtra,20.7002,77.0082,26.0,93,0.2,971.9,1.5,40.0,36,10.2,6.0,3.6,116.0,58.0,7.4,10,5,3,1,2026-07-21T12:00:27.656596+05:30
Amravati,Maharashtra,20.9374,77.7796,28.5,73,0.0,963.7,1.2,52.6,39,12.5,7.0,3.4,133.0,61.0,8.2,7,5,3,1,2026-07-21T12:00:27.656605+05:30
Latur,Maharashtra,18.4088,76.5604,28.4,61,0.0,938.4,3.8,52.2,31,8.2,4.8,1.6,116.0,56.0,1.9,7,5,3,1,2026-07-21T12:00:27.656613+05:30
Nanded,Maharashtra,19.1383,77.3091,27.0,75,0.0,966.7,1.35,43.6,37,10.1,7.2,3.2,122.0,56.0,3.6,7,5,3,1,2026-07-21T12:00:27.656620+05:30
Gulbarga,Karnataka,17.3297,76.8343,30.4,57,0.0,957.9,3.5,55.1,31,21.1,9.2,1.4,121.0,68.0,2.1,0,5,3,1,2026-07-21T12:00:27.656628+05:30
Bidar,Karnataka,17.9104,77.5199,28.3,60,0.0,934.4,4.3,50.8,32,13.9,7.3,1.8,125.0,62.0,1.6,4,5,3,1,2026-07-21T12:00:27.656636+05:30
Hospet,Karnataka,15.2689,76.3909,29.3,58,0.0,956.3,4.7,50.8,22,6.7,3.5,1.7,107.0,59.0,1.9,4,5,3,1,2026-07-21T12:00:27.656643+05:30
Tirupur,Tamil Nadu,11.1085,77.3411,33.8,44,0.0,976.2,8.8,51.1,53,20.0,12.4,2.4,160.0,93.0,3.8,0,5,7,1,2026-07-21T12:00:27.656650+05:30
Alappuzha,Kerala,9.4981,76.3388,29.3,75,0.0,1011.0,8.6,31.0,53,13.6,9.9,5.5,96.0,56.0,5.4,7,0,4,1,2026-07-21T12:00:27.656658+05:30
Munnar,Kerala,10.0889,77.0595,22.1,70,0.0,860.1,9.05,33.5,32,11.9,5.8,1.2,95.0,51.0,1.0,3,5,7,1,2026-07-21T12:00:27.656666+05:30
Silchar,Assam,24.8333,92.7789,32.7,62,0.0,1001.7,8.1,22.0,65,7.9,7.1,1.6,154.0,78.0,2.8,3,5,4,1,2026-07-21T12:00:27.656673+05:30
Dibrugarh,Assam,27.4728,94.912,32.9,66,0.0,991.2,8.6,22.0,74,13.5,12.7,1.2,156.0,123.0,1.6,3,5,7,1,2026-07-21T12:00:27.656681+05:30
