city,state,latitude,longitude,temp,humidity,rain,pressure,uv_index,wind_gusts,aqi,pm10,pm2_5,mosquito_risk,arthritis_risk,migraine_risk,frizz_risk,updated_at
Delhi,Delhi,28.6139,77.209,18.7,69,0.0,986.8,5.85,34.9,348,309.2,77.5,3,5,3,0,2026-03-04T02:06:41.706786+05:30
Mumbai,Maharashtra,19.076,72.8777,28.6,59,0.0,1009.6,7.4,26.6,116,40.5,39.9,4,0,4,1,2026-03-04T02:06:41.706828+05:30
Bangalore,Karnataka,12.9716,77.5946,20.8,65,0.0,912.6,9.1,35.6,98,30.7,29.7,3,5,7,0,2026-03-04T02:06:41.706844+05:30
Hyderabad,Telangana,17.385,78.4867,24.4,58,0.0,955.2,8.4,21.6,123,46.9,45.9,0,5,7,0,2026-03-04T02:06:41.706854+05:30
Chennai,Tamil Nadu,13.0827,80.2707,24.2,85,0.0,1009.5,8.8,29.5,103,35.2,31.3,3,0,4,1,2026-03-04T02:06:41.706863+05:30
Kolkata,West Bengal,22.5726,88.3639,20.7,73,0.0,1009.2,7.75,16.9,166,132.2,102.4,3,0,4,0,2026-03-04T02:06:41.706871+05:30
Pune,Maharashtra,18.5204,73.8567,22.4,70,0.0,949.9,7.95,31.0,83,34.0,33.2,3,5,7,1,2026-03-04T02:06:41.706883+05:30
Ahmedabad,Gujarat,23.0225,72.5714,23.9,57,0.0,1005.9,7.2,22.3,91,56.9,47.0,0,5,4,0,2026-03-04T02:06:41.706891+05:30
Jaipur,Rajasthan,26.9124,75.7873,23.0,30,0.0,963.7,6.6,33.1,109,74.7,48.8,0,5,7,0,2026-03-04T02:06:41.706899+05:30
Lucknow,Uttar Pradesh,26.8467,80.9462,19.5,69,0.0,997.1,6.35,27.0,153,294.3,67.5,3,5,7,0,2026-03-04T02:06:41.706906+05:30
Kanpur,Uttar Pradesh,26.4499,80.3319,17.8,79,0.0,995.4,6.35,29.5,183,326.9,64.3,3,5,7,0,2026-03-04T02:06:41.706914+05:30
Chandigarh,Chandigarh,30.7333,76.7794,17.6,70,0.0,972.0,5.75,34.6,88,34.5,31.5,3,5,3,0,2026-03-04T02:06:41.706921+05:30
Srinagar,Jammu and Kashmir,34.0837,74.7973,5.7,76,0.0,841.5,6.45,15.1,140,88.0,77.3,3,5,7,0,2026-03-04T02:06:41.706928+05:30
Jammu,Jammu and Kashmir,32.7266,74.857,15.8,84,0.0,976.3,6.35,27.7,109,53.7,49.5,3,10,7,0,2026-03-04T02:06:41.706935+05:30
Amritsar,Punjab,31.634,74.8723,18.2,63,0.0,984.6,6.3,23.4,104,94.8,80.1,3,5,7,0,2026-03-04T02:06:41.706941+05:30
Ludhiana,Punjab,30.901,75.8573,19.5,63,0.0,982.6,6.0,29.2,145,94.5,85.0,3,5,3,0,2026-03-04T02:06:41.706948+05:30
Jalandhar,Punjab,31.326,75.5762,16.9,76,0.0,983.6,6.15,26.6,144,101.3,88.7,3,5,7,0,2026-03-04T02:06:41.706957+05:30
Dehradun,Uttarakhand,30.6284,78.0322,11.7,53,0.0,829.9,6.1,30.2,62,23.5,22.2,0,5,7,0,2026-03-04T02:06:41.706964+05:30
Shimla,Himachal Pradesh,31.1048,77.1734,11.0,54,0.0,784.7,6.15,52.9,72,37.3,30.6,0,5,7,0,2026-03-04T02:06:41.706971+05:30
Manali,Himachal Pradesh,32.2396,77.1887,17.0,17,0.0,822.0,7.35,37.4,50,18.8,15.1,0,5,7,1,2026-03-04T02:06:41.706977+05:30
Gurgaon,Haryana,28.4595,77.0266,16.8,73,0.0,985.1,5.95,33.8,1216,1005.8,139.2,3,5,3,0,2026-03-04T02:06:41.706984+05:30
Noida,Uttar Pradesh,28.5355,77.391,18.9,67,0.0,988.4,5.85,33.8,1216,1005.8,139.2,3,5,3,0,2026-03-04T02:06:41.706991+05:30
Ghaziabad,Uttar Pradesh,28.6692,77.4538,18.5,72,0.0,986.4,5.85,30.6,266,285.9,79.6,3,5,3,0,2026-03-04T02:06:41.706998+05:30
Faridabad,Haryana,28.4089,77.3178,19.5,57,0.0,987.5,5.9,32.0,1216,1005.8,139.2,0,5,3,0,2026-03-04T02:06:41.707023+05:30
Meerut,Uttar Pradesh,28.9845,77.7064,16.8,82,0.0,985.0,5.7,33.5,266,285.9,79.6,3,10,3,0,2026-03-04T02:06:41.707032+05:30
Agra,Uttar Pradesh,27.1767,78.0081,17.6,63,0.0,991.5,6.2,37.4,419,385.6,71.2,3,5,7,0,2026-03-04T02:06:41.707039+05:30
Varanasi,Uttar Pradesh,25.3176,82.9739,19.0,64,0.0,1001.3,7.0,18.4,134,101.7,74.7,3,5,4,0,2026-03-04T02:06:41.707049+05:30
Prayagraj,Uttar Pradesh,25.4358,81.8463,19.3,70,0.0,999.9,6.9,25.2,139,147.6,72.6,3,5,7,0,2026-03-04T02:06:41.707059+05:30
Gorakhpur,Uttar Pradesh,26.7606,83.3732,18.5,74,0.0,1000.7,6.75,10.8,156,136.9,112.2,3,5,4,0,2026-03-04T02:06:41.707065+05:30
Bareilly,Uttar Pradesh,28.367,79.4304,16.3,91,0.0,990.1,6.05,19.4,156,421.0,121.1,3,10,7,0,2026-03-04T02:06:41.707072+05:30
Aligarh,Uttar Pradesh,27.8974,78.088,16.9,67,0.0,989.3,5.95,30.2,688,584.9,111.1,3,5,3,0,2026-03-04T02:06:41.707079+05:30
Moradabad,Uttar Pradesh,28.8386,78.7733,17.2,78,0.0,987.0,5.9,22.3,152,352.0,101.0,3,5,3,0,2026-03-04T02:06:41.707085+05:30
Saharanpur,Uttar Pradesh,29.9637,77.546,17.1,74,0.0,978.9,5.5,40.0,148,123.4,80.1,3,5,3,0,2026-03-04T02:06:41.707091+05:30
Jhansi,Uttar Pradesh,25.4484,78.5685,18.8,66,0.0,981.5,6.8,33.5,79,32.4,24.7,3,5,7,0,2026-03-04T02:06:45.051229+05:30
Surat,Gujarat,21.1702,72.8311,25.0,60,0.0,1009.5,7.1,28.4,158,49.0,46.9,4,0,4,1,2026-03-04T02:06:45.051258+05:30
Vadodara,Gujarat,22.3072,73.1812,23.6,62,0.0,1007.6,7.2,17.6,151,88.7,84.8,3,5,4,0,2026-03-04T02:06:45.051269+05:30
Rajkot,Gujarat,22.3039,70.8022,22.7,66,0.0,998.4,7.0,26.3,62,29.3,24.1,3,5,7,0,2026-03-04T02:06:45.051276+05:30
Thane,Maharashtra,19.2183,72.9781,26.7,53,0.0,1009.2,7.4,36.4,116,40.5,39.9,4,0,4,1,2026-03-04T02:06:45.051284+05:30
Nagpur,Maharashtra,21.1458,79.0882,23.4,60,0.0,976.2,7.75,22.7,71,25.2,20.9,0,5,7,0,2026-03-04T02:06:45.051291+05:30
Nashik,Maharashtra,19.9975,73.7898,23.4,49,0.0,947.8,7.55,24.1,91,29.4,28.7,0,5,7,0,2026-03-04T02:06:45.051298+05:30
Aurangabad,Maharashtra,19.8762,75.3433,23.3,46,0.0,946.0,8.1,28.8,78,38.2,37.1,0,5,7,0,2026-03-04T02:06:45.051305+05:30
Solapur,Maharashtra,17.6599,75.9064,23.5,71,0.0,958.1,8.35,18.0,92,23.0,22.4,3,5,7,1,2026-03-04T02:06:45.051312+05:30
Kolhapur,Maharashtra,16.705,74.2433,20.8,85,0.0,948.8,8.45,34.6,152,89.4,88.5,3,5,7,1,2026-03-04T02:06:45.051319+05:30
Goa,Goa,15.2993,74.124,26.5,87,0.0,999.2,8.5,35.3,81,42.4,38.6,7,5,7,1,2026-03-04T02:06:45.051326+05:30
Jodhpur,Rajasthan,26.2389,73.0243,23.5,48,0.0,987.1,6.9,12.2,74,70.8,37.5,0,5,7,0,2026-03-04T02:06:45.051333+05:30
Udaipur,Rajasthan,24.5854,73.7125,18.2,53,0.0,950.0,7.5,13.3,65,45.9,23.5,0,5,7,0,2026-03-04T02:06:45.051341+05:30
Kota,Rajasthan,25.2138,75.8648,17.5,84,0.0,982.4,6.9,16.9,89,57.9,41.8,3,10,7,0,2026-03-04T02:06:45.051348+05:30
Bikaner,Rajasthan,28.0229,73.3119,22.8,44,0.0,985.9,6.6,23.4,68,41.9,20.0,0,5,7,0,2026-03-04T02:06:45.051355+05:30
Ajmer,Rajasthan,26.4499,74.6399,22.1,28,0.0,958.2,6.85,19.8,77,56.3,33.4,0,5,7,0,2026-03-04T02:06:45.051361+05:30
Gwalior,Madhya Pradesh,26.2183,78.1828,20.0,54,0.0,986.9,6.55,31.0,118,59.8,40.0,0,5,7,0,2026-03-04T02:06:45.051368+05:30
Indore,Madhya Pradesh,22.7196,75.8577,21.1,57,0.0,951.1,7.45,18.7,90,39.9,33.6,0,5,7,0,2026-03-04T02:06:45.051375+05:30
Bhopal,Madhya Pradesh,23.2599,77.4126,21.8,48,0.0,956.9,7.35,24.5,81,48.2,36.3,0,5,7,0,2026-03-04T02:06:45.051382+05:30
Jabalpur,Madhya Pradesh,23.1815,79.9864,20.7,58,0.0,964.6,7.4,27.0,77,47.6,33.1,0,5,7,0,2026-03-04T02:06:45.051389+05:30
Ujjain,Madhya Pradesh,23.1765,75.7885,21.0,57,0.0,957.1,7.35,16.9,111,51.6,46.3,0,5,7,0,2026-03-04T02:06:45.051397+05:30
Visakhapatnam,Andhra Pradesh,17.6868,83.2185,23.8,92,0.0,1006.4,8.4,36.7,133,59.6,54.9,3,5,4,1,2026-03-04T02:06:45.051404+05:30
Vijayawada,Andhra Pradesh,16.5062,80.648,23.7,86,0.0,1005.3,8.45,22.3,134,38.0,34.6,3,5,4,1,2026-03-04T02:06:45.051412+05:30
Guntur,Andhra Pradesh,16.3067,80.4365,23.2,85,0.0,1006.4,8.45,27.0,124,32.0,29.2,3,5,4,1,2026-03-04T02:06:45.051418+05:30
Nellore,Andhra Pradesh,14.4426,79.9865,23.2,91,0.0,1008.2,8.65,29.2,99,28.9,27.0,3,0,4,1,2026-03-04T02:06:45.051426+05:30
Kurnool,Andhra Pradesh,15.8281,78.0373,26.5,50,0.0,978.5,8.45,28.4,108,35.3,34.6,4,5,7,0,2026-03-04T02:06:45.051434+05:30
Kakinada,Andhra Pradesh,16.9891,82.2475,22.4,92,0.0,1010.2,8.4,34.2,117,41.4,35.2,3,0,4,1,2026-03-04T02:06:45.051441+05:30
Tirupati,Andhra Pradesh,13.6288,79.4192,22.4,65,0.0,994.1,8.8,31.0,145,66.4,64.5,3,5,7,0,2026-03-04T02:06:45.051447+05:30
Warangal,Telangana,17.9689,79.5941,25.6,52,0.0,980.6,8.2,23.0,123,45.4,44.4,4,5,7,0,2026-03-04T02:06:45.051454+05:30
Nizamabad,Telangana,18.6725,78.0941,21.3,74,0.0,966.6,8.1,23.0,89,26.5,23.6,3,5,7,1,2026-03-04T02:06:45.051460+05:30
Mysore,Karnataka,12.2958,76.6396,20.9,95,0.0,928.9,9.15,39.2,110,30.4,29.6,3,5,7,1,2026-03-04T02:06:45.051467+05:30
Mangalore,Karnataka,12.9141,74.856,28.1,81,0.0,1007.8,8.75,29.9,67,28.2,23.8,7,5,4,1,2026-03-04T02:06:45.051473+05:30
Hubli-Dharwad,Karnataka,15.3647,75.124,22.5,92,0.0,941.5,8.65,23.4,100,35.7,35.0,3,5,7,1,2026-03-04T02:06:45.051481+05:30
Belgaum,Karnataka,15.8497,74.4977,21.5,95,0.0,926.5,8.7,27.4,111,61.2,59.5,3,5,7,1,2026-03-04T02:06:48.395369+05:30
Coimbatore,Tamil Nadu,11.0168,76.9558,22.3,59,0.0,962.8,9.15,43.9,115,37.6,37.0,0,5,7,0,2026-03-04T02:06:48.395397+05:30
Madurai,Tamil Nadu,9.9252,78.1198,22.9,81,0.0,994.7,9.1,26.3,104,41.2,40.5,3,5,7,1,2026-03-04T02:06:48.395407+05:30
Trichy,Tamil Nadu,10.7905,78.7047,21.9,93,0.0,1001.8,9.0,28.4,98,36.0,34.0,3,5,4,1,2026-03-04T02:06:48.395416+05:30
Salem,Tamil Nadu,11.6643,78.146,22.9,76,0.0,978.6,9.05,37.1,128,52.4,51.3,3,5,7,1,2026-03-04T02:06:48.395424+05:30
Tirunelveli,Tamil Nadu,8.7139,77.7567,21.9,89,0.0,1004.9,9.15,34.9,92,33.8,32.9,3,5,4,1,2026-03-04T02:06:48.395432+05:30
Vellore,Tamil Nadu,12.9165,79.1325,21.1,88,0.0,987.0,8.9,34.9,134,64.0,62.4,3,5,7,1,2026-03-04T02:06:48.395439+05:30
Erode,Tamil Nadu,11.341,77.7172,23.2,86,0.0,990.6,9.05,24.5,110,37.3,36.6,3,5,7,1,2026-03-04T02:06:48.395447+05:30
Kochi,Kerala,9.9312,76.2673,26.5,84,0.0,1009.8,8.95,35.6,97,29.6,28.9,7,0,4,1,2026-03-04T02:06:48.395454+05:30
Thiruvananthapuram,Kerala,8.5241,76.9366,27.7,74,0.0,1008.7,9.0,25.9,119,34.0,31.7,7,0,4,1,2026-03-04T02:06:48.395461+05:30
Kozhikode,Kerala,11.2588,75.7804,27.7,81,0.0,1008.8,8.85,30.6,65,29.1,22.3,7,0,4,1,2026-03-04T02:06:48.395468+05:30
Thrissur,Kerala,10.5276,76.2144,24.8,93,0.0,1008.1,8.9,38.9,100,37.0,35.9,3,0,4,1,2026-03-04T02:06:48.395475+05:30
Kannur,Kerala,11.8745,75.3704,27.2,83,0.0,1008.0,8.85,34.9,65,23.2,19.5,7,0,4,1,2026-03-04T02:06:48.395482+05:30
Patna,Bihar,25.5941,85.1376,20.8,64,0.0,1004.1,7.2,12.2,151,119.2,90.8,3,5,4,0,2026-03-04T02:06:48.395488+05:30
Gaya,Bihar,24.7914,85.0002,17.7,58,0.0,997.7,7.3,18.7,116,119.7,76.8,0,5,7,0,2026-03-04T02:06:48.395494+05:30
Muzaffarpur,Bihar,26.1209,85.3647,18.9,64,0.0,1004.0,7.15,11.9,157,141.1,109.9,3,5,4,0,2026-03-04T02:06:48.395501+05:30
Bhagalpur,Bihar,25.2425,87.0117,17.8,74,0.0,1004.9,7.2,8.3,150,136.0,96.4,3,5,4,0,2026-03-04T02:06:48.395507+05:30
Ranchi,Jharkhand,23.3441,85.3096,18.9,50,0.0,940.2,7.95,30.2,77,72.2,41.2,0,5,7,0,2026-03-04T02:06:48.395513+05:30
Jamshedpur,Jharkhand,22.8046,86.2029,19.6,66,0.0,994.0,7.85,25.6,105,75.2,51.6,3,5,7,0,2026-03-04T02:06:48.395520+05:30
Dhanbad,Jharkhand,23.7957,86.4304,18.3,54,0.0,983.1,7.7,23.8,112,77.1,54.1,0,5,7,0,2026-03-04T02:06:48.395526+05:30
Bokaro,Jharkhand,23.6693,86.1511,18.6,49,0.0,987.5,7.7,27.0,115,84.5,58.8,0,5,7,0,2026-03-04T02:06:48.395533+05:30
Bhubaneswar,Odisha,20.2961,85.8245,23.6,97,0.0,1004.9,8.1,28.8,142,48.1,43.7,3,5,4,1,2026-03-04T02:06:48.395540+05:30
Cuttack,Odisha,20.4625,85.8828,23.1,99,0.0,1007.0,8.15,28.1,142,48.1,43.7,3,5,4,1,2026-03-04T02:06:48.395547+05:30
Rourkela,Odisha,22.2604,84.8536,18.8,69,0.0,988.0,7.75,18.7,92,60.1,40.7,3,5,7,0,2026-03-04T02:06:48.395553+05:30
Raipur,Chhattisgarh,21.2514,81.6296,22.2,52,0.0,977.3,7.8,24.1,134,90.1,80.1,0,5,7,0,2026-03-04T02:06:48.395560+05:30
Bhilai,Chhattisgarh,21.1938,81.3509,21.0,56,0.0,977.5,7.8,21.6,128,80.8,73.1,0,5,7,0,2026-03-04T02:06:48.395566+05:30
Guwahati,Assam,26.1158,91.7086,21.5,73,0.0,1004.8,7.1,20.2,156,95.5,84.1,3,5,4,1,2026-03-04T02:06:48.395572+05:30
Agartala,Tripura,23.8315,91.2868,19.8,76,0.0,1009.0,7.5,19.1,169,108.7,97.8,3,0,4,0,2026-03-04T02:06:48.395579+05:30
Shillong,Meghalaya,25.5788,91.8933,10.4,80,0.0,855.9,7.5,20.2,156,81.5,69.4,3,5,7,0,2026-03-04T02:06:48.395585+05:30
Imphal,Manipur,24.817,93.9368,13.2,87,0.0,924.5,7.7,26.3,156,89.9,81.5,3,10,7,0,2026-03-04T02:06:48.395592+05:30
Aizawl,Mizoram,23.7271,92.7176,15.6,69,0.0,893.3,7.7,23.4,156,75.9,65.4,3,5,7,0,2026-03-04T02:06:48.395598+05:30
Kohima,Nagaland,25.6701,94.1077,11.5,65,0.0,854.9,7.55,39.2,152,84.3,73.1,3,5,7,0,2026-03-04T02:06:48.395605+05:30
Gangtok,Sikkim,27.3314,88.6138,10.1,94,0.0,836.7,7.45,22.7,153,59.6,46.4,3,10,7,0,2026-03-04T02:06:48.395611+05:30
Siliguri,West Bengal,26.7271,88.3953,18.2,68,0.0,997.3,7.15,22.3,163,106.6,89.6,3,5,7,0,2026-03-04T02:06:51.746130+05:30
Durgapur,West Bengal,23.5204,87.3119,21.7,55,0.0,998.6,7.7,24.1,93,78.2,47.3,0,5,7,0,2026-03-04T02:06:51.746162+05:30
Asansol,West Bengal,23.6739,86.9524,22.3,56,0.0,997.2,7.7,24.1,90,61.7,34.3,0,5,7,0,2026-03-04T02:06:51.746172+05:30
Pondicherry,Puducherry,11.9139,79.8145,21.6,97,0.0,1010.8,8.85,27.0,97,28.5,24.7,3,0,4,1,2026-03-04T02:06:51.746180+05:30
Port Blair,Andaman and Nicobar Islands,11.6234,92.7265,27.0,77,0.0,1008.3,8.8,24.8,78,35.7,26.5,7,0,4,1,2026-03-04T02:06:51.746188+05:30
Haridwar,Uttarakhand,29.9457,78.1642,16.4,84,0.0,977.4,5.6,20.5,127,80.1,66.4,3,10,3,0,2026-03-04T02:06:51.746196+05:30
Rishikesh,Uttarakhand,30.0869,78.2676,17.4,84,0.0,970.0,5.65,23.8,92,47.3,43.3,3,10,3,0,2026-03-04T02:06:51.746203+05:30
Nainital,Uttarakhand,29.3919,79.4542,14.7,60,0.0,806.2,6.5,51.8,111,64.3,53.1,0,5,7,0,2026-03-04T02:06:51.746211+05:30
Mussoorie,Uttarakhand,30.4599,78.0664,14.0,69,0.0,803.2,6.0,37.1,93,50.1,44.7,3,5,3,0,2026-03-04T02:06:51.746218+05:30
Dharamshala,Himachal Pradesh,32.219,76.3234,19.0,31,0.0,871.6,6.25,28.4,65,13.0,8.9,0,5,7,0,2026-03-04T02:06:51.746225+05:30
Dalhousie,Himachal Pradesh,32.5387,75.971,15.1,27,0.0,805.3,6.45,24.5,86,37.7,34.9,0,5,7,1,2026-03-04T02:06:51.746233+05:30
Patiala,Punjab,30.3398,76.3869,17.1,77,0.0,981.8,5.65,31.7,243,187.2,71.0,3,5,3,0,2026-03-04T02:06:51.746240+05:30
Bhatinda,Punjab,30.211,74.9455,18.8,76,0.0,987.5,6.3,25.6,141,88.7,63.6,3,5,7,0,2026-03-04T02:06:51.746248+05:30
Rohtak,Haryana,28.8955,76.6066,17.3,77,0.0,985.5,5.85,33.5,475,336.2,75.2,3,5,3,0,2026-03-04T02:06:51.746255+05:30
Panipat,Haryana,29.3909,76.9635,16.9,81,0.0,983.9,5.65,32.8,1080,763.7,119.7,3,10,3,0,2026-03-04T02:06:51.746261+05:30
Mathura,Uttar Pradesh,27.4924,77.6737,21.8,42,0.0,990.6,6.1,34.2,466,398.6,73.3,0,5,7,0,2026-03-04T02:06:51.746268+05:30
Vrindavan,Uttar Pradesh,27.5823,77.7027,17.4,62,0.0,990.9,6.1,35.3,466,398.6,73.3,3,5,7,0,2026-03-04T02:06:51.746275+05:30
Ayodhya,Uttar Pradesh,26.7922,82.1998,19.6,75,0.0,998.9,6.5,11.9,152,163.0,79.9,3,5,7,0,2026-03-04T02:06:51.746281+05:30
Ratlam,Madhya Pradesh,23.3315,75.0367,18.4,88,0.0,957.4,7.35,14.8,94,51.5,45.8,3,10,7,1,2026-03-04T02:06:51.746288+05:30
Sagar,Madhya Pradesh,23.8388,78.7378,21.8,54,0.0,953.4,7.3,24.8,68,40.2,29.5,0,5,7,0,2026-03-04T02:06:51.746295+05:30
Satna,Madhya Pradesh,24.6005,80.8322,20.2,53,0.0,974.7,7.25,36.4,78,41.0,24.7,0,5,7,0,2026-03-04T02:06:51.746302+05:30
Akola,Maharashtra,20.7002,77.0082,21.8,59,0.0,977.9,7.8,18.4,77,31.5,27.4,0,5,7,0,2026-03-04T02:06:51.746309+05:30
Amravati,Maharashtra,20.9374,77.7796,23.2,48,0.0,969.8,7.75,19.4,73,29.0,23.5,0,5,7,0,2026-03-04T02:06:51.746316+05:30
Latur,Maharashtra,18.4088,76.5604,24.6,52,0.0,941.5,8.25,27.7,84,34.0,31.9,0,5,7,0,2026-03-04T02:06:51.746322+05:30
Nanded,Maharashtra,19.1383,77.3091,24.4,58,0.0,970.6,8.0,18.0,81,30.7,28.5,0,5,7,0,2026-03-04T02:06:51.746329+05:30
Gulbarga,Karnataka,17.3297,76.8343,25.0,52,0.0,960.4,8.35,19.1,103,26.7,26.3,4,5,7,0,2026-03-04T02:06:51.746335+05:30
Bidar,Karnataka,17.9104,77.5199,22.2,63,0.0,936.9,8.3,23.0,99,41.3,39.2,3,5,7,0,2026-03-04T02:06:51.746341+05:30
Hospet,Karnataka,15.2689,76.3909,27.4,49,0.0,957.1,8.65,23.4,113,46.3,45.5,4,5,7,0,2026-03-04T02:06:51.746347+05:30
Tirupur,Tamil Nadu,11.1085,77.3411,23.7,74,0.0,976.9,9.15,33.5,123,41.1,40.4,3,5,7,1,2026-03-04T02:06:51.746354+05:30
Alappuzha,Kerala,9.4981,76.3388,26.6,83,0.0,1009.8,8.95,35.3,93,38.8,37.0,7,0,4,1,2026-03-04T02:06:51.746360+05:30
Munnar,Kerala,10.0889,77.0595,17.6,57,0.0,855.6,9.45,26.3,100,35.7,34.7,0,5,7,0,2026-03-04T02:06:51.746367+05:30
Silchar,Assam,24.8333,92.7789,20.2,77,0.0,1008.0,7.45,13.7,161,92.7,79.9,3,0,4,1,2026-03-04T02:06:51.746374+05:30
Dibrugarh,Assam,27.4728,94.912,20.8,88,0.0,999.3,7.15,10.4,133,49.5,42.5,3,5,7,1,2026-03-04T02:06:51.746381+05:30
