city,state,latitude,longitude,temp,humidity,rain,pressure,uv_index,wind_gusts,aqi,pm10,pm2_5,mosquito_risk,arthritis_risk,migraine_risk,frizz_risk,updated_at
Delhi,Delhi,28.6139,77.209,25.1,52,0.0,986.2,6.45,28.4,156,493.6,82.0,4,5,7,0,2026-03-22T19:19:52.110889+05:30
Mumbai,Maharashtra,19.076,72.8777,29.2,58,0.0,1009.1,7.9,28.4,184,54.6,41.3,4,0,4,1,2026-03-22T19:19:52.110939+05:30
Bangalore,Karnataka,12.9716,77.5946,26.4,56,0.0,912.8,9.45,25.2,138,54.2,45.2,4,5,7,1,2026-03-22T19:19:52.110955+05:30
Hyderabad,Telangana,17.385,78.4867,28.5,53,0.0,954.6,8.9,26.6,146,54.0,36.7,4,5,7,1,2026-03-22T19:19:52.110965+05:30
Chennai,Tamil Nadu,13.0827,80.2707,28.3,72,0.0,1009.3,9.15,32.4,39,12.8,7.7,7,0,4,1,2026-03-22T19:19:52.110975+05:30
Kolkata,West Bengal,22.5726,88.3639,24.7,65,0.0,1009.8,8.25,16.6,156,65.9,63.1,3,0,4,1,2026-03-22T19:19:52.110984+05:30
Pune,Maharashtra,18.5204,73.8567,30.5,35,0.0,949.4,8.45,29.5,121,20.5,13.4,0,5,7,0,2026-03-22T19:19:52.110997+05:30
Ahmedabad,Gujarat,23.0225,72.5714,31.1,32,0.0,1004.4,7.65,22.7,102,43.1,18.1,0,5,4,0,2026-03-22T19:19:52.111005+05:30
Jaipur,Rajasthan,26.9124,75.7873,27.5,39,0.0,962.5,7.25,29.9,103,96.6,24.8,4,5,7,0,2026-03-22T19:19:52.111013+05:30
Lucknow,Uttar Pradesh,26.8467,80.9462,25.5,46,0.0,996.9,6.95,26.6,120,179.7,39.2,4,5,7,0,2026-03-22T19:19:52.111021+05:30
Kanpur,Uttar Pradesh,26.4499,80.3319,24.2,61,0.0,995.3,7.0,27.7,136,430.3,65.7,3,5,7,1,2026-03-22T19:19:52.111028+05:30
Chandigarh,Chandigarh,30.7333,76.7794,20.2,71,0.0,971.9,6.4,33.1,129,36.0,32.8,3,5,7,0,2026-03-22T19:19:52.111036+05:30
Srinagar,Jammu and Kashmir,34.0837,74.7973,14.3,51,0.0,840.8,7.5,14.0,154,36.8,26.8,0,5,7,0,2026-03-22T19:19:52.111043+05:30
Jammu,Jammu and Kashmir,32.7266,74.857,22.7,62,0.0,975.6,6.85,22.0,113,40.6,35.2,3,5,7,0,2026-03-22T19:19:52.111050+05:30
Amritsar,Punjab,31.634,74.8723,22.2,63,0.0,984.1,7.05,20.5,157,62.2,41.4,3,5,7,0,2026-03-22T19:19:52.111058+05:30
Ludhiana,Punjab,30.901,75.8573,22.2,63,0.0,982.4,6.6,26.6,132,73.8,45.2,3,5,7,0,2026-03-22T19:19:52.111068+05:30
Jalandhar,Punjab,31.326,75.5762,22.7,64,0.0,983.5,6.85,21.6,150,78.5,44.0,3,5,7,0,2026-03-22T19:19:52.111077+05:30
Dehradun,Uttarakhand,30.6284,78.0322,13.2,72,0.0,830.1,6.8,24.1,123,29.7,26.0,3,5,7,0,2026-03-22T19:19:52.111084+05:30
Shimla,Himachal Pradesh,31.1048,77.1734,10.4,85,0.0,783.7,6.85,41.0,110,29.4,25.7,3,10,7,0,2026-03-22T19:19:52.111091+05:30
Manali,Himachal Pradesh,32.2396,77.1887,13.8,65,0.0,818.7,8.9,33.8,146,19.2,10.7,3,5,7,0,2026-03-22T19:19:52.111098+05:30
Gurgaon,Haryana,28.4595,77.0266,23.8,60,0.0,984.5,6.55,23.8,458,702.2,101.5,0,5,7,0,2026-03-22T19:19:52.111105+05:30
Noida,Uttar Pradesh,28.5355,77.391,24.9,52,0.0,987.6,6.45,27.7,458,702.2,101.5,0,5,7,0,2026-03-22T19:19:52.111111+05:30
Ghaziabad,Uttar Pradesh,28.6692,77.4538,23.9,58,0.0,985.9,6.45,28.1,151,448.0,76.1,0,5,7,0,2026-03-22T19:19:52.111118+05:30
Faridabad,Haryana,28.4089,77.3178,23.9,55,0.0,986.9,6.5,24.8,458,702.2,101.5,0,5,7,0,2026-03-22T19:19:52.111124+05:30
Meerut,Uttar Pradesh,28.9845,77.7064,22.2,62,0.0,984.5,6.3,31.7,151,448.0,76.1,3,5,7,0,2026-03-22T19:19:52.111131+05:30
Agra,Uttar Pradesh,27.1767,78.0081,25.1,48,0.0,991.0,6.45,29.9,548,470.3,64.7,4,5,7,0,2026-03-22T19:19:52.111138+05:30
Varanasi,Uttar Pradesh,25.3176,82.9739,24.0,59,0.0,1001.4,7.1,28.4,115,32.0,27.6,0,5,4,0,2026-03-22T19:19:52.111147+05:30
Prayagraj,Uttar Pradesh,25.4358,81.8463,24.6,54,0.0,1000.0,7.5,24.8,118,46.8,27.7,0,5,4,0,2026-03-22T19:19:52.111154+05:30
Gorakhpur,Uttar Pradesh,26.7606,83.3732,22.0,71,0.0,1001.2,7.25,11.2,159,26.8,24.2,3,5,4,1,2026-03-22T19:19:52.111160+05:30
Bareilly,Uttar Pradesh,28.367,79.4304,22.3,64,0.0,989.7,6.65,29.5,125,66.1,33.5,3,5,7,0,2026-03-22T19:19:52.111167+05:30
Aligarh,Uttar Pradesh,27.8974,78.088,23.6,57,0.0,988.7,6.6,27.7,313,773.0,108.0,0,5,7,0,2026-03-22T19:19:52.111173+05:30
Moradabad,Uttar Pradesh,28.8386,78.7733,22.2,63,0.0,986.6,6.5,30.6,137,75.4,34.5,3,5,7,0,2026-03-22T19:19:52.111179+05:30
Saharanpur,Uttar Pradesh,29.9637,77.546,21.1,62,0.0,978.6,6.15,34.2,148,278.5,61.0,3,5,7,0,2026-03-22T19:19:52.111188+05:30
Jhansi,Uttar Pradesh,25.4484,78.5685,26.2,41,0.0,981.3,7.45,32.4,93,49.4,18.5,4,5,7,0,2026-03-22T19:19:55.364123+05:30
Surat,Gujarat,21.1702,72.8311,29.2,46,0.0,1008.8,7.65,24.5,105,57.5,42.1,4,0,4,1,2026-03-22T19:19:55.364159+05:30
Vadodara,Gujarat,22.3072,73.1812,30.9,36,0.0,1006.1,7.8,20.2,137,40.0,24.7,0,5,4,0,2026-03-22T19:19:55.364169+05:30
Rajkot,Gujarat,22.3039,70.8022,30.9,33,0.0,997.2,7.6,28.8,65,59.8,18.9,0,5,7,0,2026-03-22T19:19:55.364177+05:30
Thane,Maharashtra,19.2183,72.9781,29.8,44,0.0,1008.5,7.85,41.0,184,54.6,41.3,4,0,4,1,2026-03-22T19:19:55.364184+05:30
Nagpur,Maharashtra,21.1458,79.0882,30.1,31,0.0,975.2,8.35,19.4,115,26.8,16.5,0,5,7,0,2026-03-22T19:19:55.364191+05:30
Nashik,Maharashtra,19.9975,73.7898,28.1,31,0.0,947.2,8.1,28.8,89,25.1,14.5,4,5,7,0,2026-03-22T19:19:55.364198+05:30
Aurangabad,Maharashtra,19.8762,75.3433,29.0,30,0.0,945.7,8.6,28.4,115,18.3,12.0,4,5,7,0,2026-03-22T19:19:55.364206+05:30
Solapur,Maharashtra,17.6599,75.9064,31.0,27,0.0,957.8,8.75,24.5,114,25.1,14.4,0,5,7,0,2026-03-22T19:19:55.364213+05:30
Kolhapur,Maharashtra,16.705,74.2433,27.5,47,0.0,948.6,8.85,33.1,112,31.8,23.9,4,5,7,0,2026-03-22T19:19:55.364221+05:30
Goa,Goa,15.2993,74.124,28.6,78,0.0,998.6,8.85,35.3,133,36.6,24.9,7,5,7,1,2026-03-22T19:19:55.364227+05:30
Jodhpur,Rajasthan,26.2389,73.0243,25.2,66,0.0,986.8,7.55,39.2,77,104.5,21.9,7,5,7,1,2026-03-22T19:19:55.364234+05:30
Udaipur,Rajasthan,24.5854,73.7125,26.8,37,0.0,949.3,8.15,26.6,74,34.9,12.0,4,5,7,0,2026-03-22T19:19:55.364241+05:30
Kota,Rajasthan,25.2138,75.8648,28.6,32,0.0,980.8,7.4,12.6,119,39.1,24.4,4,5,7,0,2026-03-22T19:19:55.364247+05:30
Bikaner,Rajasthan,28.0229,73.3119,26.9,50,0.0,985.1,7.1,22.3,74,72.4,19.1,4,5,7,0,2026-03-22T19:19:55.364254+05:30
Ajmer,Rajasthan,26.4499,74.6399,27.2,37,0.0,957.3,7.35,25.9,88,35.6,13.0,4,5,7,0,2026-03-22T19:19:55.364261+05:30
Gwalior,Madhya Pradesh,26.2183,78.1828,27.0,49,0.0,986.4,7.15,29.9,135,53.3,19.0,4,5,7,0,2026-03-22T19:19:55.364267+05:30
Indore,Madhya Pradesh,22.7196,75.8577,26.0,41,0.0,950.1,8.05,17.6,92,27.4,16.1,4,5,7,0,2026-03-22T19:19:55.364274+05:30
Bhopal,Madhya Pradesh,23.2599,77.4126,26.3,33,0.0,956.2,7.9,25.9,102,26.8,15.4,4,5,7,0,2026-03-22T19:19:55.364280+05:30
Jabalpur,Madhya Pradesh,23.1815,79.9864,26.1,45,0.0,964.7,8.05,29.9,90,42.0,17.9,4,5,7,0,2026-03-22T19:19:55.364286+05:30
Ujjain,Madhya Pradesh,23.1765,75.7885,26.8,47,0.0,955.8,8.0,13.3,82,32.5,20.4,4,5,7,0,2026-03-22T19:19:55.364293+05:30
Visakhapatnam,Andhra Pradesh,17.6868,83.2185,26.8,79,0.0,1006.2,8.85,36.7,82,23.6,18.4,7,5,4,1,2026-03-22T19:19:55.364300+05:30
Vijayawada,Andhra Pradesh,16.5062,80.648,28.4,69,0.0,1004.6,8.9,18.7,66,29.3,23.7,7,5,4,1,2026-03-22T19:19:55.364323+05:30
Guntur,Andhra Pradesh,16.3067,80.4365,28.1,72,0.0,1005.8,8.9,19.4,70,31.2,24.6,7,5,4,1,2026-03-22T19:19:55.364330+05:30
Nellore,Andhra Pradesh,14.4426,79.9865,27.8,73,0.0,1008.0,9.05,27.7,50,13.5,8.7,7,0,4,1,2026-03-22T19:19:55.364338+05:30
Kurnool,Andhra Pradesh,15.8281,78.0373,33.1,36,0.0,977.2,8.9,20.2,112,41.9,27.1,0,5,7,0,2026-03-22T19:19:55.364345+05:30
Kakinada,Andhra Pradesh,16.9891,82.2475,27.2,74,0.0,1009.7,8.8,28.8,41,17.3,11.0,7,0,4,1,2026-03-22T19:19:55.364352+05:30
Tirupati,Andhra Pradesh,13.6288,79.4192,29.0,58,0.0,993.1,9.2,28.4,73,23.0,18.0,4,5,7,1,2026-03-22T19:19:55.364359+05:30
Warangal,Telangana,17.9689,79.5941,28.7,58,0.0,980.5,8.75,21.2,139,56.6,41.7,4,5,7,1,2026-03-22T19:19:55.364365+05:30
Nizamabad,Telangana,18.6725,78.0941,29.4,41,0.0,965.9,8.65,27.4,123,30.2,23.5,4,5,7,0,2026-03-22T19:19:55.364371+05:30
Mysore,Karnataka,12.2958,76.6396,25.8,67,0.0,929.3,9.4,37.4,133,41.6,30.4,7,5,7,1,2026-03-22T19:19:55.364378+05:30
Mangalore,Karnataka,12.9141,74.856,29.4,75,0.0,1007.1,9.05,28.4,102,34.9,19.7,7,5,4,1,2026-03-22T19:19:55.364384+05:30
Hubli-Dharwad,Karnataka,15.3647,75.124,28.9,48,0.0,941.2,9.05,26.3,161,29.5,21.4,4,5,7,1,2026-03-22T19:19:55.364390+05:30
Belgaum,Karnataka,15.8497,74.4977,26.6,55,0.0,926.6,9.1,35.3,142,34.1,24.2,4,5,7,1,2026-03-22T19:19:58.613177+05:30
Coimbatore,Tamil Nadu,11.0168,76.9558,29.7,51,0.0,962.4,9.3,33.5,116,33.2,23.7,4,5,7,1,2026-03-22T19:19:58.613211+05:30
Madurai,Tamil Nadu,9.9252,78.1198,31.6,45,0.0,993.5,9.35,29.5,71,21.7,14.1,0,5,7,1,2026-03-22T19:19:58.613222+05:30
Trichy,Tamil Nadu,10.7905,78.7047,30.7,56,0.0,1000.3,9.25,23.8,64,22.0,17.7,0,5,4,1,2026-03-22T19:19:58.613231+05:30
Salem,Tamil Nadu,11.6643,78.146,31.0,46,0.0,977.5,9.3,21.2,107,36.2,25.6,0,5,7,1,2026-03-22T19:19:58.613239+05:30
Tirunelveli,Tamil Nadu,8.7139,77.7567,30.4,49,0.0,1003.7,9.3,33.1,90,18.1,13.4,0,5,4,1,2026-03-22T19:19:58.613246+05:30
Vellore,Tamil Nadu,12.9165,79.1325,28.9,57,0.0,985.8,9.25,34.9,93,21.9,16.9,4,5,7,1,2026-03-22T19:19:58.613253+05:30
Erode,Tamil Nadu,11.341,77.7172,32.2,45,0.0,989.0,9.3,32.8,90,27.8,20.7,0,5,7,1,2026-03-22T19:19:58.613261+05:30
Kochi,Kerala,9.9312,76.2673,29.6,75,0.0,1008.8,9.15,34.9,116,31.9,23.2,7,0,4,1,2026-03-22T19:19:58.613268+05:30
Thiruvananthapuram,Kerala,8.5241,76.9366,28.7,79,0.0,1008.6,9.15,26.3,113,16.7,12.8,7,0,4,1,2026-03-22T19:19:58.613276+05:30
Kozhikode,Kerala,11.2588,75.7804,29.7,75,0.0,1008.1,9.1,31.0,62,30.7,16.6,7,0,4,1,2026-03-22T19:19:58.613282+05:30
Thrissur,Kerala,10.5276,76.2144,29.2,75,0.0,1007.1,9.1,38.2,93,34.9,24.7,7,5,4,1,2026-03-22T19:19:58.613290+05:30
Kannur,Kerala,11.8745,75.3704,29.4,76,0.0,1007.6,9.05,34.9,69,36.1,18.8,7,5,4,1,2026-03-22T19:19:58.613297+05:30
Patna,Bihar,25.5941,85.1376,24.0,58,0.0,1004.6,7.55,19.1,161,49.7,45.8,0,5,4,0,2026-03-22T19:19:58.613304+05:30
Gaya,Bihar,24.7914,85.0002,23.1,67,0.0,998.1,7.5,21.6,142,37.1,31.5,3,5,7,1,2026-03-22T19:19:58.613328+05:30
Muzaffarpur,Bihar,26.1209,85.3647,22.3,68,0.0,1004.6,6.15,11.5,162,56.1,51.1,3,5,4,1,2026-03-22T19:19:58.613334+05:30
Bhagalpur,Bihar,25.2425,87.0117,22.5,70,0.0,1005.3,7.05,17.3,155,54.7,49.0,3,5,4,1,2026-03-22T19:19:58.613341+05:30
Ranchi,Jharkhand,23.3441,85.3096,22.1,46,0.0,940.4,8.45,29.5,121,47.3,23.1,0,5,7,0,2026-03-22T19:19:58.613347+05:30
Jamshedpur,Jharkhand,22.8046,86.2029,26.9,39,0.0,994.1,8.35,19.1,121,49.9,25.6,4,5,7,0,2026-03-22T19:19:58.613354+05:30
Dhanbad,Jharkhand,23.7957,86.4304,24.5,49,0.0,983.3,8.2,23.8,136,44.7,34.9,0,5,7,0,2026-03-22T19:19:58.613361+05:30
Bokaro,Jharkhand,23.6693,86.1511,24.2,52,0.0,987.5,8.2,24.5,134,51.9,34.8,0,5,7,0,2026-03-22T19:19:58.613367+05:30
Bhubaneswar,Odisha,20.2961,85.8245,26.5,74,0.0,1005.4,8.65,28.4,149,38.6,34.3,7,5,4,1,2026-03-22T19:19:58.613374+05:30
Cuttack,Odisha,20.4625,85.8828,27.8,54,0.0,1006.9,8.65,20.9,149,38.6,34.3,4,5,4,1,2026-03-22T19:19:58.613381+05:30
Rourkela,Odisha,22.2604,84.8536,26.1,44,0.0,987.9,8.2,20.5,126,31.9,19.7,4,5,7,0,2026-03-22T19:19:58.613387+05:30
Raipur,Chhattisgarh,21.2514,81.6296,29.5,28,0.0,977.0,8.4,23.0,103,48.2,36.4,4,5,7,0,2026-03-22T19:19:58.613393+05:30
Bhilai,Chhattisgarh,21.1938,81.3509,27.8,27,0.0,977.3,8.4,16.9,89,45.5,32.5,4,5,7,0,2026-03-22T19:19:58.613400+05:30
Guwahati,Assam,26.1158,91.7086,22.5,81,0.0,1004.7,7.6,20.5,85,29.0,26.1,3,5,4,1,2026-03-22T19:19:58.613406+05:30
Agartala,Tripura,23.8315,91.2868,23.7,65,0.0,1009.7,7.85,22.0,137,61.0,56.2,3,0,4,1,2026-03-22T19:19:58.613413+05:30
Shillong,Meghalaya,25.5788,91.8933,11.4,88,0.0,856.0,6.7,24.8,72,23.8,21.3,3,10,7,0,2026-03-22T19:19:58.613420+05:30
Imphal,Manipur,24.817,93.9368,15.0,88,0.0,925.0,8.15,51.5,67,13.8,12.7,3,10,7,0,2026-03-22T19:19:58.613427+05:30
Aizawl,Mizoram,23.7271,92.7176,15.8,85,0.0,894.0,8.2,44.6,58,14.6,13.3,3,10,7,0,2026-03-22T19:19:58.613434+05:30
Kohima,Nagaland,25.6701,94.1077,12.1,100,0.0,854.9,7.8,56.9,59,13.2,12.0,3,10,7,0,2026-03-22T19:19:58.613440+05:30
Gangtok,Sikkim,27.3314,88.6138,12.7,83,0.0,837.2,7.85,19.4,89,17.9,17.1,3,10,7,0,2026-03-22T19:19:58.613447+05:30
Siliguri,West Bengal,26.7271,88.3953,18.6,73,0.0,997.2,7.45,17.3,103,31.7,30.4,3,5,7,0,2026-03-22T19:20:14.937293+05:30
Durgapur,West Bengal,23.5204,87.3119,24.9,51,0.0,998.7,8.1,18.4,121,43.0,38.4,0,5,7,0,2026-03-22T19:20:14.937356+05:30
Asansol,West Bengal,23.6739,86.9524,25.0,50,0.0,997.2,8.2,20.5,117,37.4,31.2,4,5,7,0,2026-03-22T19:20:14.937367+05:30
Pondicherry,Puducherry,11.9139,79.8145,27.1,79,0.0,1010.0,9.15,28.8,36,13.4,7.7,7,0,4,1,2026-03-22T19:20:14.937376+05:30
Port Blair,Andaman and Nicobar Islands,11.6234,92.7265,28.8,77,0.0,1008.7,9.1,20.9,44,12.0,9.0,7,0,4,1,2026-03-22T19:20:14.937384+05:30
Haridwar,Uttarakhand,29.9457,78.1642,21.5,61,0.0,977.1,6.25,25.9,132,139.2,41.2,3,5,7,0,2026-03-22T19:20:14.937391+05:30
Rishikesh,Uttarakhand,30.0869,78.2676,21.6,60,0.0,969.8,6.3,25.6,129,62.6,31.8,0,5,7,0,2026-03-22T19:20:14.937399+05:30
Nainital,Uttarakhand,29.3919,79.4542,14.9,67,0.0,806.0,7.15,37.8,131,33.2,29.9,3,5,7,0,2026-03-22T19:20:14.937406+05:30
Mussoorie,Uttarakhand,30.4599,78.0664,13.5,72,0.0,802.6,6.65,25.9,136,58.9,35.2,3,5,7,0,2026-03-22T19:20:14.937414+05:30
Dharamshala,Himachal Pradesh,32.219,76.3234,16.2,78,0.0,870.0,6.75,20.9,130,29.6,23.9,3,5,7,0,2026-03-22T19:20:14.937421+05:30
Dalhousie,Himachal Pradesh,32.5387,75.971,13.9,78,0.0,803.9,7.0,19.1,120,39.2,34.9,3,5,7,0,2026-03-22T19:20:14.937429+05:30
Patiala,Punjab,30.3398,76.3869,21.1,66,0.0,981.6,6.3,31.3,157,529.0,83.4,3,5,7,0,2026-03-22T19:20:14.937437+05:30
Bhatinda,Punjab,30.211,74.9455,23.1,63,0.0,987.2,6.9,19.4,151,97.8,44.2,3,5,7,0,2026-03-22T19:20:14.937443+05:30
Rohtak,Haryana,28.8955,76.6066,23.4,62,0.0,984.9,6.45,24.8,188,480.6,78.2,3,5,7,0,2026-03-22T19:20:14.937451+05:30
Panipat,Haryana,29.3909,76.9635,22.0,65,0.0,983.4,6.25,29.5,434,1035.6,132.2,3,5,7,0,2026-03-22T19:20:14.937458+05:30
Mathura,Uttar Pradesh,27.4924,77.6737,25.0,53,0.0,990.0,6.6,28.1,409,353.0,56.9,4,5,7,0,2026-03-22T19:20:14.937465+05:30
Vrindavan,Uttar Pradesh,27.5823,77.7027,24.4,57,0.0,990.4,6.45,28.1,409,353.0,56.9,0,5,7,0,2026-03-22T19:20:14.937472+05:30
Ayodhya,Uttar Pradesh,26.7922,82.1998,24.4,58,0.0,999.0,7.0,18.7,100,27.5,24.9,0,5,7,0,2026-03-22T19:20:14.937478+05:30
Ratlam,Madhya Pradesh,23.3315,75.0367,27.9,44,0.0,956.6,7.95,14.4,84,27.5,15.1,4,5,7,0,2026-03-22T19:20:14.937485+05:30
Sagar,Madhya Pradesh,23.8388,78.7378,25.6,44,0.0,953.0,7.95,29.9,102,32.5,16.2,4,5,7,0,2026-03-22T19:20:14.937491+05:30
Satna,Madhya Pradesh,24.6005,80.8322,25.0,48,0.0,974.9,7.9,32.4,108,46.7,17.8,4,5,7,0,2026-03-22T19:20:14.937498+05:30
Akola,Maharashtra,20.7002,77.0082,28.9,37,0.0,977.1,8.3,21.2,123,20.5,15.7,4,5,7,0,2026-03-22T19:20:14.937505+05:30
Amravati,Maharashtra,20.9374,77.7796,29.4,34,0.0,969.1,8.3,22.3,121,19.8,13.9,4,5,7,0,2026-03-22T19:20:14.937512+05:30
Latur,Maharashtra,18.4088,76.5604,28.4,34,0.0,940.9,8.7,28.8,115,21.2,16.4,4,5,7,0,2026-03-22T19:20:14.937518+05:30
Nanded,Maharashtra,19.1383,77.3091,30.6,29,0.0,969.9,8.5,28.4,123,19.1,13.7,0,5,7,0,2026-03-22T19:20:14.937524+05:30
Gulbarga,Karnataka,17.3297,76.8343,32.8,25,0.0,959.2,8.75,18.4,129,36.7,22.2,0,5,7,0,2026-03-22T19:20:14.937530+05:30
Bidar,Karnataka,17.9104,77.5199,30.3,31,0.0,936.5,8.75,20.5,123,30.4,22.4,0,5,7,0,2026-03-22T19:20:14.937537+05:30
Hospet,Karnataka,15.2689,76.3909,32.4,38,0.0,955.8,9.0,15.1,190,34.3,28.2,0,5,7,1,2026-03-22T19:20:14.937543+05:30
Tirupur,Tamil Nadu,11.1085,77.3411,32.2,35,0.0,975.5,9.4,31.0,112,33.1,23.5,0,5,7,0,2026-03-22T19:20:14.937549+05:30
Alappuzha,Kerala,9.4981,76.3388,29.4,76,0.0,1009.3,9.15,33.5,125,23.2,16.5,7,0,4,1,2026-03-22T19:20:14.937556+05:30
Munnar,Kerala,10.0889,77.0595,24.3,68,0.0,858.3,8.65,26.6,84,30.7,21.2,3,5,7,1,2026-03-22T19:20:14.937562+05:30
Silchar,Assam,24.8333,92.7789,21.8,86,0.0,1009.1,7.95,22.7,83,39.1,35.5,3,0,4,1,2026-03-22T19:20:14.937569+05:30
Dibrugarh,Assam,27.4728,94.912,21.2,87,0.0,999.5,4.5,28.4,130,29.8,27.3,3,5,3,1,2026-03-22T19:20:14.937576+05:30
