city,state,latitude,longitude,temp,humidity,rain,pressure,uv_index,wind_gusts,aqi,pm10,pm2_5,no2,co,o3,so2,mosquito_risk,arthritis_risk,migraine_risk,frizz_risk,updated_at
Delhi,Delhi,28.6139,77.209,34.0,24,0.0,979.1,7.75,48.2,581,737.6,157.9,20.4,423.0,71.0,13.9,0,5,7,0,2026-05-23T01:21:11.293735+05:30
Mumbai,Maharashtra,19.076,72.8777,30.0,77,0.0,1008.9,7.8,38.5,63,19.7,13.6,12.0,245.0,48.0,11.9,7,0,4,1,2026-05-23T01:21:11.293776+05:30
Bangalore,Karnataka,12.9716,77.5946,22.1,87,0.0,912.9,6.4,34.2,38,13.2,12.3,27.5,532.0,39.0,6.5,3,5,7,1,2026-05-23T01:21:11.293791+05:30
Hyderabad,Telangana,17.385,78.4867,29.3,56,0.0,951.9,9.1,56.5,77,31.1,25.9,6.6,257.0,109.0,7.4,4,5,7,1,2026-05-23T01:21:11.293800+05:30
Chennai,Tamil Nadu,13.0827,80.2707,31.0,79,0.0,1005.2,7.8,33.5,79,27.0,20.4,15.3,213.0,85.0,8.8,3,5,4,1,2026-05-23T01:21:11.293808+05:30
Kolkata,West Bengal,22.5726,88.3639,29.3,92,0.0,1002.1,9.0,36.4,102,35.0,26.8,5.9,291.0,77.0,4.9,7,5,4,1,2026-05-23T01:21:11.293816+05:30
Pune,Maharashtra,18.5204,73.8567,24.8,88,0.0,949.0,8.45,37.8,49,9.6,8.8,15.8,208.0,43.0,10.0,3,5,7,1,2026-05-23T01:21:11.293823+05:30
Ahmedabad,Gujarat,23.0225,72.5714,33.0,50,0.0,1001.3,8.15,35.3,75,29.6,19.7,10.2,180.0,57.0,5.3,0,5,4,1,2026-05-23T01:21:11.293830+05:30
Jaipur,Rajasthan,26.9124,75.7873,32.5,22,0.0,957.6,8.25,47.5,166,330.6,73.3,7.9,190.0,67.0,5.1,0,5,7,0,2026-05-23T01:21:11.293841+05:30
Lucknow,Uttar Pradesh,26.8467,80.9462,33.5,24,0.0,988.2,8.2,51.5,161,387.4,97.8,33.1,287.0,40.0,10.2,0,5,7,0,2026-05-23T01:21:11.293849+05:30
Kanpur,Uttar Pradesh,26.4499,80.3319,33.7,26,0.0,986.8,8.2,46.8,317,376.3,97.1,36.7,371.0,31.0,12.6,0,5,7,0,2026-05-23T01:21:11.293855+05:30
Chandigarh,Chandigarh,30.7333,76.7794,29.8,33,0.0,965.2,7.75,44.3,90,46.2,27.8,18.4,422.0,61.0,9.4,4,5,7,0,2026-05-23T01:21:11.293862+05:30
Srinagar,Jammu and Kashmir,34.0837,74.7973,11.9,99,0.0,843.4,8.75,26.6,59,29.2,26.0,28.1,575.0,8.0,0.0,3,10,7,0,2026-05-23T01:21:11.293869+05:30
Jammu,Jammu and Kashmir,32.7266,74.857,27.3,35,0.0,969.6,8.5,36.0,78,40.6,22.8,9.6,205.0,75.0,2.1,4,5,7,0,2026-05-23T01:21:11.293876+05:30
Amritsar,Punjab,31.634,74.8723,29.1,49,0.0,977.2,8.4,26.6,93,90.6,52.6,32.2,557.0,44.0,9.0,4,5,7,1,2026-05-23T01:21:11.293885+05:30
Ludhiana,Punjab,30.901,75.8573,29.5,43,0.0,975.0,8.0,42.1,87,51.5,33.4,15.1,413.0,66.0,5.8,4,5,7,0,2026-05-23T01:21:11.293891+05:30
Jalandhar,Punjab,31.326,75.5762,29.3,42,0.0,976.1,8.2,37.8,93,57.9,31.3,14.9,653.0,69.0,5.5,4,5,7,0,2026-05-23T01:21:11.293897+05:30
Dehradun,Uttarakhand,30.6284,78.0322,14.4,70,0.0,826.4,8.2,46.4,76,63.8,27.6,39.3,208.0,26.0,1.5,3,5,7,0,2026-05-23T01:21:11.293903+05:30
Shimla,Himachal Pradesh,31.1048,77.1734,13.9,54,0.0,782.3,7.75,52.6,76,43.1,22.1,22.8,191.0,54.0,2.3,0,5,7,0,2026-05-23T01:21:11.293911+05:30
Manali,Himachal Pradesh,32.2396,77.1887,11.3,53,0.0,815.8,9.1,45.4,44,2.2,1.9,26.0,177.0,85.0,0.0,0,5,7,0,2026-05-23T01:21:11.293920+05:30
Gurgaon,Haryana,28.4595,77.0266,31.3,28,0.0,977.5,7.85,45.4,1484,1233.1,217.0,32.5,541.0,55.0,21.8,0,5,7,0,2026-05-23T01:21:11.293926+05:30
Noida,Uttar Pradesh,28.5355,77.391,32.2,33,0.0,980.3,7.75,42.8,1484,1233.1,217.0,32.5,598.0,55.0,21.8,0,5,7,0,2026-05-23T01:21:11.293933+05:30
Ghaziabad,Uttar Pradesh,28.6692,77.4538,31.1,32,0.0,978.5,7.75,43.6,404,583.0,125.3,17.8,432.0,72.0,14.9,0,5,7,0,2026-05-23T01:21:11.293939+05:30
Faridabad,Haryana,28.4089,77.3178,33.8,25,0.0,979.7,7.8,50.8,1484,1233.1,217.0,32.5,641.0,55.0,21.8,0,5,7,0,2026-05-23T01:21:11.293945+05:30
Meerut,Uttar Pradesh,28.9845,77.7064,32.0,27,0.0,977.1,7.65,51.8,404,583.0,125.3,17.8,289.0,72.0,14.9,0,5,7,0,2026-05-23T01:21:11.293951+05:30
Agra,Uttar Pradesh,27.1767,78.0081,32.2,30,0.0,983.7,8.1,39.2,906,823.3,165.8,24.8,360.0,50.0,11.5,0,5,7,0,2026-05-23T01:21:11.293957+05:30
Varanasi,Uttar Pradesh,25.3176,82.9739,34.3,42,0.0,992.5,8.75,51.1,154,109.4,49.9,27.9,886.0,48.0,11.7,0,5,7,1,2026-05-23T01:21:11.293963+05:30
Prayagraj,Uttar Pradesh,25.4358,81.8463,33.1,30,0.0,990.9,8.65,43.6,146,146.2,65.7,40.9,286.0,33.0,13.5,0,5,7,0,2026-05-23T01:21:11.293970+05:30
Gorakhpur,Uttar Pradesh,26.7606,83.3732,29.3,77,0.0,992.8,8.6,33.5,153,85.4,62.9,15.8,507.0,96.0,12.2,7,5,7,1,2026-05-23T01:21:11.293978+05:30
Bareilly,Uttar Pradesh,28.367,79.4304,29.8,41,0.0,981.7,8.05,46.4,165,156.9,79.6,23.0,338.0,76.0,14.9,4,5,7,0,2026-05-23T01:21:11.293984+05:30
Aligarh,Uttar Pradesh,27.8974,78.088,31.7,33,0.0,981.3,7.9,42.8,862,853.1,180.2,27.1,419.0,58.0,19.4,0,5,7,0,2026-05-23T01:21:11.293990+05:30
Moradabad,Uttar Pradesh,28.8386,78.7733,31.2,30,0.0,978.9,7.85,53.3,180,143.0,83.6,32.0,310.0,53.0,11.8,0,5,7,0,2026-05-23T01:21:11.293997+05:30
Saharanpur,Uttar Pradesh,29.9637,77.546,30.1,32,0.0,971.6,7.4,49.7,165,91.3,42.5,13.8,276.0,72.0,10.3,0,5,7,0,2026-05-23T01:21:11.294003+05:30
Jhansi,Uttar Pradesh,25.4484,78.5685,33.0,18,0.0,974.5,8.5,45.0,70,30.3,17.1,4.1,154.0,70.0,1.9,0,5,7,0,2026-05-23T01:21:14.656983+05:30
Surat,Gujarat,21.1702,72.8311,29.8,81,0.0,1006.9,7.65,38.9,72,19.5,14.7,17.3,238.0,36.0,29.4,7,5,4,1,2026-05-23T01:21:14.657015+05:30
Vadodara,Gujarat,22.3072,73.1812,30.5,72,0.0,1003.5,8.1,41.0,73,21.9,17.3,20.6,156.0,26.0,23.3,3,5,4,1,2026-05-23T01:21:14.657025+05:30
Rajkot,Gujarat,22.3039,70.8022,29.0,75,0.0,994.3,7.75,45.0,74,28.6,17.3,5.1,127.0,49.0,4.8,7,5,7,1,2026-05-23T01:21:14.657034+05:30
Thane,Maharashtra,19.2183,72.9781,29.0,87,0.0,1008.3,7.05,31.7,63,19.7,13.6,12.0,287.0,48.0,11.9,7,0,4,1,2026-05-23T01:21:14.657042+05:30
Nagpur,Maharashtra,21.1458,79.0882,36.3,20,0.0,970.1,8.3,56.5,63,23.1,18.8,10.4,234.0,83.0,9.0,0,5,10,0,2026-05-23T01:21:14.657050+05:30
Nashik,Maharashtra,19.9975,73.7898,25.5,85,0.0,946.3,8.15,47.2,51,16.9,12.3,9.2,177.0,48.0,8.0,7,5,7,1,2026-05-23T01:21:14.657058+05:30
Aurangabad,Maharashtra,19.8762,75.3433,29.0,62,0.0,944.6,9.05,40.0,61,17.3,13.4,9.3,183.0,59.0,6.7,7,5,7,1,2026-05-23T01:21:14.657065+05:30
Solapur,Maharashtra,17.6599,75.9064,28.1,68,0.0,957.8,9.0,43.6,61,20.7,17.7,9.0,218.0,75.0,2.8,7,5,7,1,2026-05-23T01:21:14.657072+05:30
Kolhapur,Maharashtra,16.705,74.2433,24.6,91,0.0,949.0,8.8,36.4,34,10.9,9.3,7.9,207.0,45.0,3.1,3,5,7,1,2026-05-23T01:21:14.657079+05:30
Goa,Goa,15.2993,74.124,26.8,91,0.0,999.3,8.75,32.8,36,15.8,13.8,6.7,268.0,46.0,1.2,7,5,7,1,2026-05-23T01:21:14.657087+05:30
Jodhpur,Rajasthan,26.2389,73.0243,32.7,32,0.0,980.5,8.4,42.1,158,228.2,58.6,10.7,213.0,51.0,3.7,0,5,7,0,2026-05-23T01:21:14.657094+05:30
Udaipur,Rajasthan,24.5854,73.7125,30.0,29,0.0,946.0,8.85,42.8,73,97.8,33.1,3.2,177.0,72.0,2.5,4,5,7,0,2026-05-23T01:21:14.657101+05:30
Kota,Rajasthan,25.2138,75.8648,32.9,20,0.0,976.8,8.4,46.1,66,85.9,36.2,7.7,199.0,61.0,3.1,0,5,7,0,2026-05-23T01:21:14.657108+05:30
Bikaner,Rajasthan,28.0229,73.3119,33.4,26,0.0,978.7,8.35,42.5,162,129.0,48.2,3.2,157.0,62.0,2.2,0,5,7,0,2026-05-23T01:21:14.657115+05:30
Ajmer,Rajasthan,26.4499,74.6399,30.3,29,0.0,952.9,8.4,51.5,89,187.2,53.2,5.5,191.0,75.0,5.3,0,5,7,0,2026-05-23T01:21:14.657121+05:30
Gwalior,Madhya Pradesh,26.2183,78.1828,33.5,18,0.0,979.6,8.25,45.0,93,44.9,21.7,5.6,167.0,66.0,2.9,0,5,7,0,2026-05-23T01:21:14.657129+05:30
Indore,Madhya Pradesh,22.7196,75.8577,31.8,34,0.0,947.8,8.7,53.3,67,38.2,25.3,4.5,245.0,96.0,6.5,0,5,7,0,2026-05-23T01:21:14.657136+05:30
Bhopal,Madhya Pradesh,23.2599,77.4126,33.7,24,0.0,952.2,8.75,47.2,58,26.7,22.0,9.1,287.0,61.0,4.7,0,5,7,0,2026-05-23T01:21:14.657143+05:30
Jabalpur,Madhya Pradesh,23.1815,79.9864,31.5,24,0.0,958.5,8.9,41.4,56,54.2,25.7,21.8,336.0,54.0,4.6,0,5,7,0,2026-05-23T01:21:14.657150+05:30
Ujjain,Madhya Pradesh,23.1765,75.7885,32.5,29,0.0,953.2,8.65,50.8,69,40.2,26.5,3.7,213.0,96.0,7.2,0,5,7,0,2026-05-23T01:21:14.657157+05:30
Visakhapatnam,Andhra Pradesh,17.6868,83.2185,31.5,71,0.0,998.7,9.05,33.8,131,71.0,60.1,46.1,597.0,66.0,45.1,3,5,7,1,2026-05-23T01:21:14.657164+05:30
Vijayawada,Andhra Pradesh,16.5062,80.648,33.6,42,0.0,998.5,8.75,49.7,86,29.6,26.8,10.1,324.0,89.0,5.8,0,5,7,1,2026-05-23T01:21:14.657171+05:30
Guntur,Andhra Pradesh,16.3067,80.4365,33.8,42,0.0,1000.0,8.7,50.8,83,30.3,26.7,8.8,296.0,98.0,6.6,0,5,4,1,2026-05-23T01:21:14.657178+05:30
Nellore,Andhra Pradesh,14.4426,79.9865,31.5,58,0.0,1003.6,9.1,60.5,79,39.8,32.1,9.1,283.0,89.0,9.7,0,5,4,1,2026-05-23T01:21:14.657185+05:30
Kurnool,Andhra Pradesh,15.8281,78.0373,28.7,62,0.0,976.6,9.05,46.4,61,13.7,11.8,7.4,204.0,84.0,3.7,7,5,7,1,2026-05-23T01:21:14.657193+05:30
Kakinada,Andhra Pradesh,16.9891,82.2475,30.9,77,0.0,1002.7,9.05,47.9,95,43.0,34.6,10.5,445.0,94.0,5.9,3,5,4,1,2026-05-23T01:21:14.657200+05:30
Tirupati,Andhra Pradesh,13.6288,79.4192,29.1,68,0.0,989.9,8.3,37.1,61,21.0,17.1,11.7,215.0,67.0,2.6,7,5,7,1,2026-05-23T01:21:14.657207+05:30
Warangal,Telangana,17.9689,79.5941,33.3,42,0.0,975.2,9.15,57.2,102,36.1,30.6,12.9,525.0,83.0,5.8,0,5,7,1,2026-05-23T01:21:14.657214+05:30
Nizamabad,Telangana,18.6725,78.0941,33.4,38,0.0,963.2,9.1,49.3,83,39.3,32.7,11.6,193.0,81.0,7.6,0,5,7,1,2026-05-23T01:21:14.657220+05:30
Mysore,Karnataka,12.2958,76.6396,22.4,87,0.0,929.8,8.0,36.0,30,6.9,6.3,9.8,163.0,45.0,2.4,3,5,7,1,2026-05-23T01:21:14.657227+05:30
Mangalore,Karnataka,12.9141,74.856,24.8,96,0.0,1008.8,8.3,25.2,35,13.0,10.7,8.7,327.0,44.0,2.7,3,0,4,1,2026-05-23T01:21:14.657234+05:30
Hubli-Dharwad,Karnataka,15.3647,75.124,23.8,94,0.0,941.9,9.05,37.8,26,5.6,4.9,7.3,137.0,42.0,1.2,3,5,7,1,2026-05-23T01:21:14.657241+05:30
Belgaum,Karnataka,15.8497,74.4977,23.0,96,0.0,926.9,8.85,36.0,27,12.6,11.0,12.1,143.0,32.0,2.3,3,5,7,1,2026-05-23T01:21:18.022518+05:30
Coimbatore,Tamil Nadu,11.0168,76.9558,24.1,91,0.0,962.7,8.5,50.8,29,6.4,5.7,7.6,154.0,44.0,2.9,3,5,7,1,2026-05-23T01:21:18.022549+05:30
Madurai,Tamil Nadu,9.9252,78.1198,28.5,63,0.0,992.7,8.9,42.8,55,16.8,16.0,30.0,150.0,16.0,6.2,7,5,7,1,2026-05-23T01:21:18.022560+05:30
Trichy,Tamil Nadu,10.7905,78.7047,28.5,68,0.0,999.2,8.25,42.5,33,8.7,6.9,7.5,158.0,50.0,2.9,7,5,7,1,2026-05-23T01:21:18.022569+05:30
Salem,Tamil Nadu,11.6643,78.146,28.5,65,0.0,978.0,7.95,35.3,53,22.2,17.5,22.5,184.0,34.0,6.5,7,5,7,1,2026-05-23T01:21:18.022578+05:30
Tirunelveli,Tamil Nadu,8.7139,77.7567,28.3,71,0.0,1003.3,7.3,42.1,27,8.2,6.8,6.9,179.0,43.0,1.8,7,5,4,1,2026-05-23T01:21:18.022605+05:30
Vellore,Tamil Nadu,12.9165,79.1325,27.0,75,0.0,983.8,5.4,40.0,60,28.5,23.3,14.8,205.0,52.0,4.3,7,5,3,1,2026-05-23T01:21:18.022615+05:30
Erode,Tamil Nadu,11.341,77.7172,27.4,73,0.0,989.6,8.25,40.3,34,10.6,9.1,13.6,197.0,38.0,3.5,7,5,7,1,2026-05-23T01:21:18.022623+05:30
Kochi,Kerala,9.9312,76.2673,25.8,98,0.1,1011.0,8.2,31.7,51,27.0,25.7,31.3,356.0,9.0,7.6,10,0,4,1,2026-05-23T01:21:18.022632+05:30
Thiruvananthapuram,Kerala,8.5241,76.9366,25.4,94,0.0,1009.9,7.85,43.9,30,12.0,7.8,2.9,241.0,60.0,1.2,7,0,4,1,2026-05-23T01:21:18.022639+05:30
Kozhikode,Kerala,11.2588,75.7804,25.4,99,0.0,1010.0,7.55,33.5,29,8.5,5.7,2.0,540.0,66.0,0.9,7,0,4,1,2026-05-23T01:21:18.022647+05:30
Thrissur,Kerala,10.5276,76.2144,24.8,99,0.1,1009.2,8.4,34.2,49,31.3,30.5,27.3,391.0,8.0,5.9,6,0,4,1,2026-05-23T01:21:18.022656+05:30
Kannur,Kerala,11.8745,75.3704,25.4,95,0.0,1009.2,7.95,33.5,31,12.4,10.3,12.5,350.0,35.0,2.9,7,0,4,1,2026-05-23T01:21:18.022663+05:30
Patna,Bihar,25.5941,85.1376,29.5,81,0.0,996.0,8.85,29.9,152,48.8,44.2,13.0,496.0,118.0,20.0,7,5,7,1,2026-05-23T01:21:18.022670+05:30
Gaya,Bihar,24.7914,85.0002,29.1,77,0.0,989.1,8.9,34.9,156,70.3,59.8,15.1,595.0,105.0,18.5,7,5,7,1,2026-05-23T01:21:18.022678+05:30
Muzaffarpur,Bihar,26.1209,85.3647,28.1,88,0.0,996.4,8.85,28.1,150,56.8,51.2,15.4,496.0,99.0,17.9,7,5,7,1,2026-05-23T01:21:18.022684+05:30
Bhagalpur,Bihar,25.2425,87.0117,28.5,89,0.0,996.9,8.8,31.7,123,54.1,47.6,13.6,469.0,97.0,16.1,7,5,7,1,2026-05-23T01:21:18.022691+05:30
Ranchi,Jharkhand,23.3441,85.3096,25.0,72,0.0,934.1,9.3,36.0,147,237.0,66.4,30.7,373.0,59.0,7.5,7,5,7,1,2026-05-23T01:21:18.022698+05:30
Jamshedpur,Jharkhand,22.8046,86.2029,29.4,89,0.0,987.0,9.1,26.6,152,72.9,61.0,23.9,545.0,68.0,24.3,7,5,7,1,2026-05-23T01:21:18.022705+05:30
Dhanbad,Jharkhand,23.7957,86.4304,29.3,74,0.0,976.1,9.05,45.7,162,95.9,87.5,58.0,577.0,40.0,135.2,7,5,7,1,2026-05-23T01:21:18.022712+05:30
Bokaro,Jharkhand,23.6693,86.1511,28.8,77,0.0,979.8,9.1,40.3,160,122.5,89.9,62.9,946.0,27.0,116.8,7,5,7,1,2026-05-23T01:21:18.022720+05:30
Bhubaneswar,Odisha,20.2961,85.8245,29.5,94,0.0,998.4,8.4,34.9,96,34.9,25.7,5.7,345.0,94.0,4.9,7,5,7,1,2026-05-23T01:21:18.022726+05:30
Cuttack,Odisha,20.4625,85.8828,29.6,93,0.0,1000.2,8.55,31.7,96,34.9,25.7,5.7,343.0,94.0,4.9,7,5,4,1,2026-05-23T01:21:18.022733+05:30
Rourkela,Odisha,22.2604,84.8536,30.5,73,0.0,980.8,9.0,28.1,163,123.9,92.2,39.3,575.0,57.0,26.8,3,5,7,1,2026-05-23T01:21:18.022740+05:30
Raipur,Chhattisgarh,21.2514,81.6296,33.5,27,0.0,970.3,8.95,36.4,136,63.6,58.2,62.2,402.0,17.0,42.9,0,5,7,0,2026-05-23T01:21:18.022748+05:30
Bhilai,Chhattisgarh,21.1938,81.3509,33.0,29,0.0,971.1,9.0,48.2,89,28.3,24.9,29.4,401.0,55.0,34.9,0,5,7,0,2026-05-23T01:21:18.022755+05:30
Guwahati,Assam,26.1158,91.7086,23.6,99,0.1,998.9,8.75,25.6,79,25.3,19.0,7.9,312.0,69.0,2.5,6,5,7,1,2026-05-23T01:21:18.022762+05:30
Agartala,Tripura,23.8315,91.2868,26.4,94,0.1,1003.7,8.65,35.6,84,27.0,21.0,11.7,253.0,47.0,3.1,10,5,4,1,2026-05-23T01:21:18.022770+05:30
Shillong,Meghalaya,25.5788,91.8933,19.9,93,0.0,855.2,9.1,44.6,58,6.3,4.7,5.4,262.0,84.0,2.9,3,10,7,1,2026-05-23T01:21:18.022777+05:30
Imphal,Manipur,24.817,93.9368,22.6,92,0.0,921.6,9.3,37.4,73,13.4,10.8,8.5,293.0,56.0,2.4,3,5,7,1,2026-05-23T01:21:18.022784+05:30
Aizawl,Mizoram,23.7271,92.7176,19.3,96,0.0,890.6,9.1,37.4,59,12.6,9.4,5.0,199.0,52.0,1.2,3,10,7,1,2026-05-23T01:21:18.022791+05:30
Kohima,Nagaland,25.6701,94.1077,17.5,95,0.0,852.3,9.25,26.3,72,18.0,14.1,7.7,333.0,59.0,1.4,3,10,7,1,2026-05-23T01:21:18.022798+05:30
Gangtok,Sikkim,27.3314,88.6138,15.9,95,0.0,834.8,9.15,37.8,56,17.9,12.8,9.6,588.0,109.0,2.7,3,10,7,0,2026-05-23T01:21:18.022805+05:30
Siliguri,West Bengal,26.7271,88.3953,23.0,98,0.1,990.0,8.75,22.0,88,39.5,26.7,8.8,475.0,111.0,4.0,6,5,7,1,2026-05-23T01:21:21.396282+05:30
Durgapur,West Bengal,23.5204,87.3119,28.6,95,0.0,991.0,9.0,32.0,154,47.1,43.2,25.0,440.0,47.0,29.7,7,5,7,1,2026-05-23T01:21:21.396319+05:30
Asansol,West Bengal,23.6739,86.9524,28.5,93,0.0,989.6,9.05,37.1,154,52.7,47.4,28.3,543.0,49.0,37.7,7,5,7,1,2026-05-23T01:21:21.396333+05:30
Pondicherry,Puducherry,11.9139,79.8145,29.3,78,0.0,1006.6,8.3,31.7,62,35.5,26.0,18.4,234.0,67.0,6.1,7,5,4,1,2026-05-23T01:21:21.396344+05:30
Port Blair,Andaman and Nicobar Islands,11.6234,92.7265,25.5,96,0.2,1005.9,8.2,38.5,29,4.9,3.1,0.3,106.0,71.0,0.3,10,5,4,1,2026-05-23T01:21:21.396354+05:30
Haridwar,Uttarakhand,29.9457,78.1642,25.6,59,0.0,969.4,7.55,47.5,152,66.6,37.0,17.1,371.0,69.0,10.4,4,5,7,1,2026-05-23T01:21:21.396365+05:30
Rishikesh,Uttarakhand,30.0869,78.2676,22.4,60,0.0,961.8,7.65,36.4,132,116.4,38.2,9.7,498.0,100.0,8.5,0,5,7,0,2026-05-23T01:21:21.396374+05:30
Nainital,Uttarakhand,29.3919,79.4542,16.1,53,0.0,803.0,8.5,49.7,157,172.3,65.7,14.5,296.0,102.0,6.5,0,5,7,0,2026-05-23T01:21:21.396383+05:30
Mussoorie,Uttarakhand,30.4599,78.0664,17.7,46,0.0,801.8,8.05,65.2,108,106.6,42.7,31.8,203.0,56.0,7.6,0,5,7,0,2026-05-23T01:21:21.396390+05:30
Dharamshala,Himachal Pradesh,32.219,76.3234,21.5,45,0.0,867.6,7.2,51.1,49,20.1,10.7,15.7,187.0,31.0,0.2,0,5,7,0,2026-05-23T01:21:21.396398+05:30
Dalhousie,Himachal Pradesh,32.5387,75.971,12.3,70,0.0,800.7,7.75,42.1,63,37.3,21.7,34.5,265.0,22.0,1.7,3,5,7,0,2026-05-23T01:21:21.396406+05:30
Patiala,Punjab,30.3398,76.3869,30.0,37,0.0,974.6,7.65,51.1,678,823.3,126.7,11.7,314.0,70.0,5.4,4,5,7,0,2026-05-23T01:21:21.396414+05:30
Bhatinda,Punjab,30.211,74.9455,31.6,36,0.0,980.1,8.3,34.9,92,67.1,37.1,15.5,301.0,73.0,8.0,0,5,7,0,2026-05-23T01:21:21.396421+05:30
Rohtak,Haryana,28.8955,76.6066,30.9,31,0.0,978.0,7.6,43.9,795,922.0,182.5,20.2,269.0,64.0,7.5,0,5,7,0,2026-05-23T01:21:21.396428+05:30
Panipat,Haryana,29.3909,76.9635,31.4,29,0.0,976.5,7.45,47.5,1705,2101.1,322.2,11.9,326.0,80.0,5.8,0,5,7,0,2026-05-23T01:21:21.396435+05:30
Mathura,Uttar Pradesh,27.4924,77.6737,32.0,31,0.0,982.7,8.0,42.1,850,1147.4,217.5,21.9,282.0,64.0,13.2,0,5,7,0,2026-05-23T01:21:21.396442+05:30
Vrindavan,Uttar Pradesh,27.5823,77.7027,31.9,32,0.0,983.2,8.0,41.0,850,1147.4,217.5,21.9,320.0,64.0,13.2,0,5,7,0,2026-05-23T01:21:21.396450+05:30
Ayodhya,Uttar Pradesh,26.7922,82.1998,30.5,69,0.0,990.1,8.4,45.4,153,173.7,68.5,21.9,765.0,72.0,11.5,3,5,7,1,2026-05-23T01:21:21.396457+05:30
Ratlam,Madhya Pradesh,23.3315,75.0367,30.5,40,0.0,954.5,8.55,47.9,71,38.5,26.4,4.3,187.0,90.0,8.8,0,5,7,0,2026-05-23T01:21:21.396465+05:30
Sagar,Madhya Pradesh,23.8388,78.7378,31.4,24,0.0,947.8,8.75,48.6,51,21.5,16.2,10.2,216.0,64.0,4.3,0,5,7,0,2026-05-23T01:21:21.396471+05:30
Satna,Madhya Pradesh,24.6005,80.8322,31.6,26,0.0,967.6,8.8,48.6,54,46.7,20.7,15.2,211.0,59.0,3.8,0,5,7,0,2026-05-23T01:21:21.396479+05:30
Akola,Maharashtra,20.7002,77.0082,34.5,39,0.0,973.4,8.9,50.0,70,28.8,22.2,9.8,184.0,80.0,8.7,0,5,7,1,2026-05-23T01:21:21.396486+05:30
Amravati,Maharashtra,20.9374,77.7796,35.5,31,0.0,965.3,8.8,51.5,68,28.2,22.3,11.3,203.0,74.0,7.5,0,5,10,0,2026-05-23T01:21:21.396494+05:30
Latur,Maharashtra,18.4088,76.5604,29.4,57,0.0,939.7,9.05,54.4,75,24.7,21.5,6.5,193.0,97.0,2.3,4,5,7,1,2026-05-23T01:21:21.396502+05:30
Nanded,Maharashtra,19.1383,77.3091,33.2,42,0.0,967.3,9.0,46.8,85,26.3,21.7,5.1,181.0,104.0,3.5,0,5,7,1,2026-05-23T01:21:21.396509+05:30
Gulbarga,Karnataka,17.3297,76.8343,27.8,66,0.0,958.5,9.05,52.9,61,19.6,17.1,8.0,213.0,87.0,3.1,7,5,7,1,2026-05-23T01:21:21.396517+05:30
Bidar,Karnataka,17.9104,77.5199,28.1,60,0.0,935.0,9.05,45.7,80,33.4,27.3,7.1,205.0,103.0,4.1,4,5,7,1,2026-05-23T01:21:21.396524+05:30
Hospet,Karnataka,15.2689,76.3909,25.2,88,0.0,956.8,8.95,49.3,34,5.8,5.3,8.6,193.0,44.0,1.6,7,5,7,1,2026-05-23T01:21:21.396531+05:30
Tirupur,Tamil Nadu,11.1085,77.3411,25.4,86,0.0,976.1,8.8,50.4,37,12.4,10.9,15.6,151.0,36.0,4.2,7,5,7,1,2026-05-23T01:21:21.396538+05:30
Alappuzha,Kerala,9.4981,76.3388,26.5,93,0.1,1010.9,7.9,33.1,34,16.4,13.0,12.3,183.0,47.0,3.3,10,0,4,1,2026-05-23T01:21:21.396545+05:30
Munnar,Kerala,10.0889,77.0595,17.0,98,0.0,857.9,8.95,31.7,27,7.5,6.7,9.0,121.0,34.0,2.0,3,10,7,1,2026-05-23T01:21:21.396552+05:30
Silchar,Assam,24.8333,92.7789,24.4,99,0.3,1003.6,8.95,28.8,75,26.0,16.6,5.4,275.0,90.0,3.2,6,5,4,1,2026-05-23T01:21:21.396560+05:30
Dibrugarh,Assam,27.4728,94.912,23.7,98,0.1,993.0,8.9,28.8,84,27.0,22.7,10.1,256.0,61.0,0.8,6,5,7,1,2026-05-23T01:21:21.396567+05:30
