city,state,latitude,longitude,temp,humidity,rain,pressure,uv_index,wind_gusts,aqi,pm10,pm2_5,mosquito_risk,arthritis_risk,migraine_risk,frizz_risk,updated_at
Delhi,Delhi,28.6139,77.209,15.2,100,0.0,988.2,6.3,28.1,152,116.6,105.0,3,10,7,0,2026-03-21T05:02:14.069875+05:30
Mumbai,Maharashtra,19.076,72.8777,26.1,74,0.0,1009.5,7.85,28.4,80,47.8,21.6,7,0,4,1,2026-03-21T05:02:14.069921+05:30
Bangalore,Karnataka,12.9716,77.5946,21.7,83,0.0,911.1,9.4,22.0,83,40.7,36.0,3,5,7,1,2026-03-21T05:02:14.069936+05:30
Hyderabad,Telangana,17.385,78.4867,22.7,82,0.0,953.1,8.75,21.6,88,24.6,19.3,3,5,7,1,2026-03-21T05:02:14.069947+05:30
Chennai,Tamil Nadu,13.0827,80.2707,26.3,88,0.0,1007.9,9.15,35.3,37,13.6,9.9,7,5,4,1,2026-03-21T05:02:14.069955+05:30
Kolkata,West Bengal,22.5726,88.3639,21.9,91,0.0,1009.3,3.9,21.6,75,9.3,8.1,3,0,0,1,2026-03-21T05:02:14.069964+05:30
Pune,Maharashtra,18.5204,73.8567,19.9,89,0.0,948.8,8.45,24.1,83,65.4,48.7,3,10,7,1,2026-03-21T05:02:14.069976+05:30
Ahmedabad,Gujarat,23.0225,72.5714,19.6,75,0.0,1004.7,7.5,19.8,74,24.9,18.5,3,5,4,0,2026-03-21T05:02:14.069985+05:30
Jaipur,Rajasthan,26.9124,75.7873,16.1,92,0.0,963.0,6.65,28.8,72,47.3,24.5,3,10,7,0,2026-03-21T05:02:14.069993+05:30
Lucknow,Uttar Pradesh,26.8467,80.9462,19.0,90,0.0,997.8,6.8,27.4,120,63.8,43.3,3,10,7,1,2026-03-21T05:02:14.070002+05:30
Kanpur,Uttar Pradesh,26.4499,80.3319,18.1,94,0.0,996.2,6.15,25.6,128,74.0,39.6,3,10,7,1,2026-03-21T05:02:14.070009+05:30
Chandigarh,Chandigarh,30.7333,76.7794,11.6,99,0.0,973.1,6.35,28.1,80,18.9,17.8,3,10,7,0,2026-03-21T05:02:14.070017+05:30
Srinagar,Jammu and Kashmir,34.0837,74.7973,4.4,88,0.0,838.7,6.6,13.7,65,8.8,8.2,3,10,7,0,2026-03-21T05:02:14.070024+05:30
Jammu,Jammu and Kashmir,32.7266,74.857,13.6,91,0.0,977.1,6.35,24.8,84,64.3,46.6,3,10,7,0,2026-03-21T05:02:14.070031+05:30
Amritsar,Punjab,31.634,74.8723,12.9,97,0.0,985.4,6.15,19.8,95,58.1,42.7,3,10,7,0,2026-03-21T05:02:14.070038+05:30
Ludhiana,Punjab,30.901,75.8573,13.8,99,0.0,983.5,5.5,25.2,117,65.7,58.0,3,10,3,0,2026-03-21T05:02:14.070045+05:30
Jalandhar,Punjab,31.326,75.5762,13.7,98,0.0,984.6,6.3,23.4,100,56.8,49.9,3,10,7,0,2026-03-21T05:02:14.070054+05:30
Dehradun,Uttarakhand,30.6284,78.0322,5.9,84,0.0,827.3,6.2,23.4,42,4.9,4.6,3,10,7,0,2026-03-21T05:02:14.070061+05:30
Shimla,Himachal Pradesh,31.1048,77.1734,3.4,85,0.0,779.5,6.2,32.8,39,6.7,5.8,3,10,7,0,2026-03-21T05:02:14.070068+05:30
Manali,Himachal Pradesh,32.2396,77.1887,7.0,60,0.0,813.5,8.75,29.2,35,5.4,5.3,0,5,7,1,2026-03-21T05:02:14.070075+05:30
Gurgaon,Haryana,28.4595,77.0266,14.2,100,0.0,986.7,6.25,23.8,154,128.1,112.5,3,10,7,0,2026-03-21T05:02:14.070082+05:30
Noida,Uttar Pradesh,28.5355,77.391,15.0,100,0.0,989.7,6.1,27.4,154,128.1,112.5,3,10,7,0,2026-03-21T05:02:14.070089+05:30
Ghaziabad,Uttar Pradesh,28.6692,77.4538,14.6,100,0.0,987.9,6.3,26.3,153,120.1,107.1,3,10,7,0,2026-03-21T05:02:14.070096+05:30
Faridabad,Haryana,28.4089,77.3178,13.8,100,0.0,988.7,6.05,26.3,154,128.1,112.5,3,10,7,0,2026-03-21T05:02:14.070103+05:30
Meerut,Uttar Pradesh,28.9845,77.7064,14.6,100,0.0,986.5,6.25,26.6,153,120.1,107.1,3,10,7,0,2026-03-21T05:02:14.070109+05:30
Agra,Uttar Pradesh,27.1767,78.0081,13.7,100,0.0,992.7,6.8,31.3,151,107.8,69.2,3,10,7,0,2026-03-21T05:02:14.070115+05:30
Varanasi,Uttar Pradesh,25.3176,82.9739,19.7,92,0.0,1001.3,6.9,25.9,97,51.1,37.7,3,10,4,1,2026-03-21T05:02:14.070125+05:30
Prayagraj,Uttar Pradesh,25.4358,81.8463,19.4,92,0.0,1000.1,6.85,27.0,94,52.5,37.3,3,10,4,1,2026-03-21T05:02:14.070132+05:30
Gorakhpur,Uttar Pradesh,26.7606,83.3732,17.6,90,0.0,1001.7,5.65,25.2,133,57.7,43.7,3,10,0,0,2026-03-21T05:02:14.070139+05:30
Bareilly,Uttar Pradesh,28.367,79.4304,16.4,99,0.0,991.4,6.6,23.0,121,100.1,75.0,3,10,7,1,2026-03-21T05:02:14.070145+05:30
Aligarh,Uttar Pradesh,27.8974,78.088,14.3,100,0.0,990.6,6.55,27.7,150,133.2,120.1,3,10,7,0,2026-03-21T05:02:14.070153+05:30
Moradabad,Uttar Pradesh,28.8386,78.7733,15.7,99,0.0,988.3,6.45,23.8,132,102.2,86.4,3,10,7,0,2026-03-21T05:02:14.070160+05:30
Saharanpur,Uttar Pradesh,29.9637,77.546,13.1,100,0.0,980.7,5.95,32.4,149,103.4,94.8,3,10,3,0,2026-03-21T05:02:14.070168+05:30
Jhansi,Uttar Pradesh,25.4484,78.5685,17.0,96,0.0,982.2,7.4,29.2,116,71.0,40.7,3,10,7,1,2026-03-21T05:02:17.294322+05:30
Surat,Gujarat,21.1702,72.8311,23.1,94,0.0,1008.7,7.55,27.0,110,65.0,47.4,3,0,4,1,2026-03-21T05:02:17.294353+05:30
Vadodara,Gujarat,22.3072,73.1812,21.0,66,0.0,1006.7,7.55,14.0,78,25.1,17.9,3,5,4,0,2026-03-21T05:02:17.294364+05:30
Rajkot,Gujarat,22.3039,70.8022,21.1,86,0.0,996.3,7.3,14.8,74,27.5,16.4,3,5,7,1,2026-03-21T05:02:17.294372+05:30
Thane,Maharashtra,19.2183,72.9781,23.2,76,0.0,1009.1,7.85,42.8,80,47.8,21.6,3,0,4,1,2026-03-21T05:02:17.294379+05:30
Nagpur,Maharashtra,21.1458,79.0882,21.9,77,0.0,975.5,8.3,24.5,71,36.4,21.7,3,5,7,1,2026-03-21T05:02:17.294387+05:30
Nashik,Maharashtra,19.9975,73.7898,20.0,80,0.0,946.4,8.05,20.9,60,50.4,29.4,3,5,7,1,2026-03-21T05:02:17.294394+05:30
Aurangabad,Maharashtra,19.8762,75.3433,21.1,68,0.0,945.2,8.6,23.4,67,33.2,18.5,3,5,7,0,2026-03-21T05:02:17.294400+05:30
Solapur,Maharashtra,17.6599,75.9064,22.9,55,0.0,957.8,8.75,30.2,73,25.6,18.0,0,5,7,0,2026-03-21T05:02:17.294408+05:30
Kolhapur,Maharashtra,16.705,74.2433,16.6,84,0.0,947.3,8.85,33.1,78,41.3,35.7,3,10,7,0,2026-03-21T05:02:17.294414+05:30
Goa,Goa,15.2993,74.124,23.5,92,0.0,997.9,8.85,35.6,68,47.4,30.5,3,5,7,1,2026-03-21T05:02:17.294421+05:30
Jodhpur,Rajasthan,26.2389,73.0243,20.7,69,0.0,985.7,6.8,24.1,65,50.3,25.6,3,5,7,0,2026-03-21T05:02:17.294428+05:30
Udaipur,Rajasthan,24.5854,73.7125,15.7,72,0.0,948.2,7.4,13.0,56,32.1,13.9,3,5,7,0,2026-03-21T05:02:17.294434+05:30
Kota,Rajasthan,25.2138,75.8648,17.6,90,0.0,982.6,7.35,19.1,73,57.3,34.7,3,10,7,0,2026-03-21T05:02:17.294441+05:30
Bikaner,Rajasthan,28.0229,73.3119,20.7,60,0.0,984.2,6.8,24.8,57,21.0,15.6,0,5,7,0,2026-03-21T05:02:17.294448+05:30
Ajmer,Rajasthan,26.4499,74.6399,18.9,71,0.0,957.1,7.1,22.3,62,54.5,26.0,3,5,7,0,2026-03-21T05:02:17.294455+05:30
Gwalior,Madhya Pradesh,26.2183,78.1828,16.7,96,0.0,987.7,7.1,27.7,97,58.6,28.3,3,10,7,1,2026-03-21T05:02:17.294462+05:30
Indore,Madhya Pradesh,22.7196,75.8577,16.8,85,0.0,949.7,8.0,23.8,66,30.3,21.2,3,10,7,0,2026-03-21T05:02:17.294470+05:30
Bhopal,Madhya Pradesh,23.2599,77.4126,16.9,90,0.0,955.8,7.9,25.2,68,55.1,30.9,3,10,7,0,2026-03-21T05:02:17.294476+05:30
Jabalpur,Madhya Pradesh,23.1815,79.9864,18.5,87,0.0,964.3,8.0,33.5,58,41.8,28.7,3,10,7,1,2026-03-21T05:02:17.294483+05:30
Ujjain,Madhya Pradesh,23.1765,75.7885,17.2,88,0.0,955.8,7.85,19.8,66,31.8,22.8,3,10,7,0,2026-03-21T05:02:17.294490+05:30
Visakhapatnam,Andhra Pradesh,17.6868,83.2185,21.4,92,0.0,1005.1,8.8,36.0,68,35.3,31.3,3,5,4,1,2026-03-21T05:02:17.294497+05:30
Vijayawada,Andhra Pradesh,16.5062,80.648,24.0,92,0.0,1003.7,8.9,28.4,61,19.6,18.0,3,5,4,1,2026-03-21T05:02:17.294504+05:30
Guntur,Andhra Pradesh,16.3067,80.4365,24.2,94,0.0,1004.7,8.9,21.2,57,13.5,12.2,3,5,4,1,2026-03-21T05:02:17.294510+05:30
Nellore,Andhra Pradesh,14.4426,79.9865,25.5,91,0.0,1006.2,9.05,37.1,33,9.9,7.5,7,5,4,1,2026-03-21T05:02:17.294517+05:30
Kurnool,Andhra Pradesh,15.8281,78.0373,25.5,74,0.0,976.6,8.9,26.6,71,24.0,20.0,7,5,7,1,2026-03-21T05:02:17.294525+05:30
Kakinada,Andhra Pradesh,16.9891,82.2475,21.6,95,0.0,1008.6,8.8,29.2,48,16.4,13.4,3,0,4,1,2026-03-21T05:02:17.294532+05:30
Tirupati,Andhra Pradesh,13.6288,79.4192,24.0,89,0.0,992.4,9.15,28.1,62,34.5,32.6,3,5,7,1,2026-03-21T05:02:17.294538+05:30
Warangal,Telangana,17.9689,79.5941,23.1,77,0.0,979.2,8.7,24.1,111,36.3,34.0,3,5,7,1,2026-03-21T05:02:17.294544+05:30
Nizamabad,Telangana,18.6725,78.0941,23.4,81,0.0,965.9,8.6,24.8,95,50.4,43.5,3,5,7,1,2026-03-21T05:02:17.294551+05:30
Mysore,Karnataka,12.2958,76.6396,21.1,91,0.0,927.8,9.4,36.4,79,34.3,30.3,3,5,7,1,2026-03-21T05:02:17.294557+05:30
Mangalore,Karnataka,12.9141,74.856,28.6,77,0.0,1006.2,9.05,29.5,66,28.9,23.7,7,5,4,1,2026-03-21T05:02:17.294564+05:30
Hubli-Dharwad,Karnataka,15.3647,75.124,20.5,80,0.0,940.2,9.05,35.6,67,24.9,19.0,3,5,7,1,2026-03-21T05:02:17.294570+05:30
Belgaum,Karnataka,15.8497,74.4977,19.0,73,0.0,924.7,9.1,36.0,67,36.4,25.4,3,5,7,0,2026-03-21T05:02:20.510542+05:30
Coimbatore,Tamil Nadu,11.0168,76.9558,21.8,95,0.0,961.4,9.4,40.3,70,34.7,30.0,3,5,7,1,2026-03-21T05:02:20.510571+05:30
Madurai,Tamil Nadu,9.9252,78.1198,23.7,89,0.0,993.0,9.35,37.4,62,35.4,32.7,3,5,7,1,2026-03-21T05:02:20.510582+05:30
Trichy,Tamil Nadu,10.7905,78.7047,24.6,95,0.0,1000.0,8.45,30.2,60,22.5,21.0,3,5,4,1,2026-03-21T05:02:20.510590+05:30
Salem,Tamil Nadu,11.6643,78.146,24.6,91,0.0,977.4,9.2,23.0,77,36.9,33.8,3,5,7,1,2026-03-21T05:02:20.510597+05:30
Tirunelveli,Tamil Nadu,8.7139,77.7567,23.3,91,0.0,1003.1,9.3,40.7,77,58.8,51.9,3,5,4,1,2026-03-21T05:02:20.510604+05:30
Vellore,Tamil Nadu,12.9165,79.1325,22.6,97,0.0,985.3,9.25,32.8,77,57.7,55.6,3,5,7,1,2026-03-21T05:02:20.510611+05:30
Erode,Tamil Nadu,11.341,77.7172,25.5,88,0.0,989.1,9.3,28.8,65,15.3,14.4,7,5,7,1,2026-03-21T05:02:20.510618+05:30
Kochi,Kerala,9.9312,76.2673,28.6,72,0.0,1007.9,9.15,30.6,73,35.2,33.3,7,5,4,1,2026-03-21T05:02:20.510625+05:30
Thiruvananthapuram,Kerala,8.5241,76.9366,27.8,82,0.0,1007.2,8.05,24.8,60,30.2,24.8,7,5,4,1,2026-03-21T05:02:20.510632+05:30
Kozhikode,Kerala,11.2588,75.7804,27.8,83,0.0,1007.4,9.1,29.5,58,24.0,17.6,7,5,4,1,2026-03-21T05:02:20.510639+05:30
Thrissur,Kerala,10.5276,76.2144,25.9,87,0.0,1006.5,9.1,34.6,71,37.0,34.2,7,5,4,1,2026-03-21T05:02:20.510646+05:30
Kannur,Kerala,11.8745,75.3704,27.5,82,0.0,1006.7,9.1,32.8,63,28.5,25.4,7,5,4,1,2026-03-21T05:02:20.510654+05:30
Patna,Bihar,25.5941,85.1376,20.7,88,0.0,1004.4,3.0,29.2,151,65.7,56.8,3,5,0,1,2026-03-21T05:02:20.510660+05:30
Gaya,Bihar,24.7914,85.0002,20.3,91,0.0,997.2,6.95,25.9,112,55.6,46.4,3,5,7,1,2026-03-21T05:02:20.510667+05:30
Muzaffarpur,Bihar,26.1209,85.3647,19.8,91,0.0,1005.1,2.6,28.1,153,61.9,53.3,3,10,0,1,2026-03-21T05:02:20.510673+05:30
Bhagalpur,Bihar,25.2425,87.0117,20.6,93,0.0,1005.0,3.3,27.4,138,47.1,46.0,3,5,0,1,2026-03-21T05:02:20.510680+05:30
Ranchi,Jharkhand,23.3441,85.3096,17.6,91,0.2,938.9,7.6,38.2,92,51.2,39.0,6,10,7,1,2026-03-21T05:02:20.510686+05:30
Jamshedpur,Jharkhand,22.8046,86.2029,21.9,85,0.1,993.7,7.65,30.6,139,77.1,71.7,6,5,7,1,2026-03-21T05:02:20.510693+05:30
Dhanbad,Jharkhand,23.7957,86.4304,21.3,85,0.0,982.2,6.3,29.2,153,73.1,65.2,3,5,7,1,2026-03-21T05:02:20.510699+05:30
Bokaro,Jharkhand,23.6693,86.1511,20.8,86,0.0,986.4,7.35,34.2,137,72.6,62.6,3,5,7,1,2026-03-21T05:02:20.510706+05:30
Bhubaneswar,Odisha,20.2961,85.8245,22.7,89,0.0,1005.1,8.55,29.5,62,25.3,23.1,3,5,4,1,2026-03-21T05:02:20.510712+05:30
Cuttack,Odisha,20.4625,85.8828,22.0,87,0.0,1007.0,8.6,24.8,62,25.3,23.1,3,5,4,1,2026-03-21T05:02:20.510718+05:30
Rourkela,Odisha,22.2604,84.8536,21.0,80,0.0,987.9,8.2,37.1,111,49.8,40.6,3,5,7,1,2026-03-21T05:02:20.510724+05:30
Raipur,Chhattisgarh,21.2514,81.6296,20.5,82,0.0,976.9,8.35,31.7,111,81.5,72.9,3,5,7,1,2026-03-21T05:02:20.510731+05:30
Bhilai,Chhattisgarh,21.1938,81.3509,20.3,76,0.0,977.3,8.35,30.2,102,75.4,64.5,3,5,7,0,2026-03-21T05:02:20.510737+05:30
Guwahati,Assam,26.1158,91.7086,21.6,91,0.0,1006.2,5.9,19.1,95,37.3,31.1,3,5,0,1,2026-03-21T05:02:20.510743+05:30
Agartala,Tripura,23.8315,91.2868,20.1,95,0.0,1009.8,7.05,25.2,101,44.2,38.6,3,0,4,1,2026-03-21T05:02:20.510749+05:30
Shillong,Meghalaya,25.5788,91.8933,11.0,74,0.0,856.4,5.45,21.6,76,24.4,19.4,3,5,3,0,2026-03-21T05:02:20.510755+05:30
Imphal,Manipur,24.817,93.9368,14.5,70,0.0,925.2,7.6,28.8,85,51.5,37.0,3,5,7,0,2026-03-21T05:02:20.510761+05:30
Aizawl,Mizoram,23.7271,92.7176,12.8,90,0.0,892.7,6.85,33.8,97,45.9,40.3,3,10,7,0,2026-03-21T05:02:20.510768+05:30
Kohima,Nagaland,25.6701,94.1077,13.1,61,0.0,855.7,6.65,59.8,73,35.3,23.7,3,5,7,0,2026-03-21T05:02:20.510774+05:30
Gangtok,Sikkim,27.3314,88.6138,10.5,90,0.5,837.7,4.2,16.6,78,9.8,8.5,6,10,3,0,2026-03-21T05:02:20.510780+05:30
Siliguri,West Bengal,26.7271,88.3953,18.7,71,0.2,997.7,6.65,30.6,104,22.7,20.3,6,5,7,0,2026-03-21T05:02:23.731906+05:30
Durgapur,West Bengal,23.5204,87.3119,21.4,89,0.0,997.7,6.2,21.2,152,63.3,59.4,3,5,7,1,2026-03-21T05:02:23.731940+05:30
Asansol,West Bengal,23.6739,86.9524,21.8,87,0.0,996.1,5.8,22.3,151,68.2,61.7,3,5,3,1,2026-03-21T05:02:23.731951+05:30
Pondicherry,Puducherry,11.9139,79.8145,25.0,98,0.0,1009.1,9.15,28.4,49,9.7,6.5,7,0,4,1,2026-03-21T05:02:23.731959+05:30
Port Blair,Andaman and Nicobar Islands,11.6234,92.7265,27.9,78,0.0,1007.9,9.1,15.5,50,21.6,15.9,7,5,4,1,2026-03-21T05:02:23.731968+05:30
Haridwar,Uttarakhand,29.9457,78.1642,13.9,97,0.0,978.7,6.2,28.4,91,47.5,40.5,3,10,7,0,2026-03-21T05:02:23.731975+05:30
Rishikesh,Uttarakhand,30.0869,78.2676,13.5,86,0.0,970.8,6.25,25.2,63,26.7,18.1,3,10,7,0,2026-03-21T05:02:23.731984+05:30
Nainital,Uttarakhand,29.3919,79.4542,10.8,85,0.1,803.7,6.05,40.3,74,19.7,13.4,6,10,7,0,2026-03-21T05:02:23.731994+05:30
Mussoorie,Uttarakhand,30.4599,78.0664,7.4,76,0.0,799.7,6.2,25.6,61,14.1,13.3,3,5,7,0,2026-03-21T05:02:23.732002+05:30
Dharamshala,Himachal Pradesh,32.219,76.3234,10.7,59,0.0,867.9,6.1,20.5,37,3.0,3.0,0,5,7,0,2026-03-21T05:02:23.732009+05:30
Dalhousie,Himachal Pradesh,32.5387,75.971,6.8,70,0.0,800.3,6.4,21.2,65,40.9,28.5,3,5,7,0,2026-03-21T05:02:23.732018+05:30
Patiala,Punjab,30.3398,76.3869,13.4,100,0.0,983.1,6.2,25.6,110,81.7,73.1,3,10,7,0,2026-03-21T05:02:23.732025+05:30
Bhatinda,Punjab,30.211,74.9455,13.8,97,0.0,988.2,6.05,20.2,132,68.0,49.9,3,10,7,0,2026-03-21T05:02:23.732032+05:30
Rohtak,Haryana,28.8955,76.6066,14.2,100,0.0,987.0,6.1,24.5,148,128.1,111.3,3,10,7,0,2026-03-21T05:02:23.732039+05:30
Panipat,Haryana,29.3909,76.9635,13.9,100,0.0,985.8,6.1,25.6,150,127.1,111.3,3,10,7,0,2026-03-21T05:02:23.732046+05:30
Mathura,Uttar Pradesh,27.4924,77.6737,13.9,100,0.0,991.9,6.7,27.4,109,101.7,91.5,3,10,7,0,2026-03-21T05:02:23.732053+05:30
Vrindavan,Uttar Pradesh,27.5823,77.7027,14.1,100,0.0,992.5,6.65,29.2,109,101.7,91.5,3,10,7,0,2026-03-21T05:02:23.732060+05:30
Ayodhya,Uttar Pradesh,26.7922,82.1998,19.0,91,0.0,999.6,6.8,22.0,116,44.6,32.6,3,10,7,1,2026-03-21T05:02:23.732067+05:30
Ratlam,Madhya Pradesh,23.3315,75.0367,18.3,80,0.0,956.4,7.5,23.4,63,31.8,20.4,3,5,7,0,2026-03-21T05:02:23.732073+05:30
Sagar,Madhya Pradesh,23.8388,78.7378,17.1,95,0.0,952.7,7.85,29.2,78,74.0,48.4,3,10,7,1,2026-03-21T05:02:23.732080+05:30
Satna,Madhya Pradesh,24.6005,80.8322,18.6,92,0.0,974.6,7.8,32.8,73,49.8,27.9,3,10,7,1,2026-03-21T05:02:23.732087+05:30
Akola,Maharashtra,20.7002,77.0082,21.7,68,0.0,977.1,8.25,21.6,66,35.3,16.9,3,5,7,0,2026-03-21T05:02:23.732094+05:30
Amravati,Maharashtra,20.9374,77.7796,21.6,65,0.0,969.0,8.25,23.4,67,38.8,17.8,3,5,7,0,2026-03-21T05:02:23.732102+05:30
Latur,Maharashtra,18.4088,76.5604,21.1,63,0.0,940.5,8.7,33.8,83,27.4,17.3,3,5,7,0,2026-03-21T05:02:23.732108+05:30
Nanded,Maharashtra,19.1383,77.3091,23.8,59,0.0,970.6,8.5,25.9,69,33.3,18.9,0,5,7,0,2026-03-21T05:02:23.732115+05:30
Gulbarga,Karnataka,17.3297,76.8343,24.3,51,0.0,958.7,8.75,43.9,70,25.3,20.8,0,5,7,0,2026-03-21T05:02:23.732121+05:30
Bidar,Karnataka,17.9104,77.5199,22.8,53,0.0,935.6,8.75,34.6,82,41.3,34.2,0,5,7,0,2026-03-21T05:02:23.732128+05:30
Hospet,Karnataka,15.2689,76.3909,23.9,66,0.0,955.9,9.0,20.2,73,38.9,35.6,3,5,7,1,2026-03-21T05:02:23.732134+05:30
Tirupur,Tamil Nadu,11.1085,77.3411,24.1,79,0.0,975.2,9.4,33.8,78,32.8,29.9,3,5,7,1,2026-03-21T05:02:23.732141+05:30
Alappuzha,Kerala,9.4981,76.3388,28.5,74,0.0,1007.9,9.15,27.4,72,36.6,32.0,7,5,4,1,2026-03-21T05:02:23.732147+05:30
Munnar,Kerala,10.0889,77.0595,17.8,89,0.0,854.7,9.6,26.3,59,27.0,24.3,3,10,7,0,2026-03-21T05:02:23.732154+05:30
Silchar,Assam,24.8333,92.7789,20.8,78,0.0,1008.5,7.15,22.7,90,29.7,26.0,3,0,4,1,2026-03-21T05:02:23.732161+05:30
Dibrugarh,Assam,27.4728,94.912,21.0,86,0.0,1000.7,6.65,17.3,95,26.2,21.3,3,5,4,1,2026-03-21T05:02:23.732167+05:30
