city,state,latitude,longitude,temp,humidity,rain,pressure,uv_index,wind_gusts,aqi,pm10,pm2_5,mosquito_risk,arthritis_risk,migraine_risk,frizz_risk,updated_at
Delhi,Delhi,28.6139,77.209,27.6,40,0.0,983.7,6.05,27.4,159,555.1,83.6,4,5,7,0,2026-03-24T18:48:56.567526+05:30
Mumbai,Maharashtra,19.076,72.8777,28.8,69,0.0,1006.4,7.9,25.6,198,41.6,35.5,7,5,4,1,2026-03-24T18:48:56.567581+05:30
Bangalore,Karnataka,12.9716,77.5946,29.7,35,0.0,911.0,9.5,30.6,122,32.7,25.1,4,5,7,0,2026-03-24T18:48:56.567602+05:30
Hyderabad,Telangana,17.385,78.4867,28.2,53,0.0,953.2,8.95,23.0,122,42.8,32.9,4,5,7,1,2026-03-24T18:48:56.567618+05:30
Chennai,Tamil Nadu,13.0827,80.2707,28.1,70,0.0,1007.5,9.2,33.8,41,7.9,5.3,7,5,4,1,2026-03-24T18:48:56.567632+05:30
Kolkata,West Bengal,22.5726,88.3639,26.4,78,0.0,1006.7,8.3,21.6,150,59.8,47.3,7,5,4,1,2026-03-24T18:48:56.567645+05:30
Pune,Maharashtra,18.5204,73.8567,32.8,30,0.0,947.0,8.3,32.0,134,33.6,21.8,0,5,7,0,2026-03-24T18:48:56.567662+05:30
Ahmedabad,Gujarat,23.0225,72.5714,33.4,32,0.0,1000.7,7.45,19.4,79,32.9,15.4,0,5,4,0,2026-03-24T18:48:56.567675+05:30
Jaipur,Rajasthan,26.9124,75.7873,29.4,31,0.0,960.1,6.85,21.2,116,129.5,24.5,4,5,7,0,2026-03-24T18:48:56.567688+05:30
Lucknow,Uttar Pradesh,26.8467,80.9462,28.2,44,0.0,993.7,7.05,32.0,114,137.4,36.4,4,5,7,0,2026-03-24T18:48:56.567700+05:30
Kanpur,Uttar Pradesh,26.4499,80.3319,26.4,58,0.0,992.3,7.1,27.7,136,276.6,49.8,4,5,7,1,2026-03-24T18:48:56.567711+05:30
Chandigarh,Chandigarh,30.7333,76.7794,23.1,55,0.0,969.0,6.5,36.4,123,20.5,17.1,0,5,7,0,2026-03-24T18:48:56.567723+05:30
Srinagar,Jammu and Kashmir,34.0837,74.7973,15.1,40,0.0,840.9,7.6,17.6,118,25.8,16.8,0,5,7,0,2026-03-24T18:48:56.567735+05:30
Jammu,Jammu and Kashmir,32.7266,74.857,24.8,48,0.0,973.0,7.15,32.0,97,29.7,23.0,0,5,7,0,2026-03-24T18:48:56.567746+05:30
Amritsar,Punjab,31.634,74.8723,24.9,50,0.0,981.6,7.15,26.3,122,31.1,22.5,0,5,7,0,2026-03-24T18:48:56.567758+05:30
Ludhiana,Punjab,30.901,75.8573,25.7,46,0.0,979.5,6.75,31.3,152,37.5,29.5,4,5,7,0,2026-03-24T18:48:56.567769+05:30
Jalandhar,Punjab,31.326,75.5762,25.1,50,0.0,980.6,6.95,30.2,132,36.8,23.9,4,5,7,0,2026-03-24T18:48:56.567783+05:30
Dehradun,Uttarakhand,30.6284,78.0322,14.8,60,0.0,828.1,6.95,34.2,111,27.5,19.4,0,5,7,0,2026-03-24T18:48:56.567797+05:30
Shimla,Himachal Pradesh,31.1048,77.1734,12.0,64,0.0,782.6,7.0,52.2,102,14.8,9.8,3,5,7,0,2026-03-24T18:48:56.567808+05:30
Manali,Himachal Pradesh,32.2396,77.1887,14.3,58,0.0,817.6,9.15,29.5,123,12.7,6.7,0,5,7,0,2026-03-24T18:48:56.567819+05:30
Gurgaon,Haryana,28.4595,77.0266,26.2,49,0.0,982.1,6.3,25.6,512,1065.4,134.6,4,5,7,0,2026-03-24T18:48:56.567830+05:30
Noida,Uttar Pradesh,28.5355,77.391,27.2,44,0.0,985.1,6.15,25.9,512,1065.4,134.6,4,5,7,0,2026-03-24T18:48:56.567841+05:30
Ghaziabad,Uttar Pradesh,28.6692,77.4538,26.2,51,0.0,983.2,6.25,26.6,155,342.7,60.5,4,5,7,0,2026-03-24T18:48:56.567852+05:30
Faridabad,Haryana,28.4089,77.3178,26.4,48,0.0,984.3,6.2,26.3,512,1065.4,134.6,4,5,7,0,2026-03-24T18:48:56.567863+05:30
Meerut,Uttar Pradesh,28.9845,77.7064,24.8,55,0.0,981.8,6.4,29.2,155,342.7,60.5,0,5,7,0,2026-03-24T18:48:56.567874+05:30
Agra,Uttar Pradesh,27.1767,78.0081,27.9,38,0.0,988.2,6.6,27.4,204,584.9,77.8,4,5,7,0,2026-03-24T18:48:56.567885+05:30
Varanasi,Uttar Pradesh,25.3176,82.9739,28.0,48,0.0,997.1,7.75,25.2,141,55.9,31.9,4,5,7,0,2026-03-24T18:48:56.567899+05:30
Prayagraj,Uttar Pradesh,25.4358,81.8463,28.1,45,0.0,995.9,7.6,22.3,132,57.3,27.9,4,5,7,0,2026-03-24T18:48:56.567911+05:30
Gorakhpur,Uttar Pradesh,26.7606,83.3732,26.9,48,0.0,996.4,7.45,33.8,141,46.0,27.7,4,5,7,0,2026-03-24T18:48:56.567921+05:30
Bareilly,Uttar Pradesh,28.367,79.4304,24.5,65,0.0,986.9,6.75,30.6,129,42.1,35.9,3,5,7,1,2026-03-24T18:48:56.567932+05:30
Aligarh,Uttar Pradesh,27.8974,78.088,25.6,53,0.0,986.1,6.7,27.4,185,586.7,92.7,4,5,7,0,2026-03-24T18:48:56.567943+05:30
Moradabad,Uttar Pradesh,28.8386,78.7733,24.7,58,0.0,983.6,6.6,31.3,147,44.1,35.5,0,5,7,0,2026-03-24T18:48:56.567954+05:30
Saharanpur,Uttar Pradesh,29.9637,77.546,23.9,48,0.0,975.5,6.25,37.1,154,55.3,25.3,0,5,7,0,2026-03-24T18:48:56.567963+05:30
Jhansi,Uttar Pradesh,25.4484,78.5685,29.1,35,0.0,978.0,7.3,27.7,125,58.8,23.8,4,5,7,0,2026-03-24T18:48:59.822245+05:30
Surat,Gujarat,21.1702,72.8311,29.3,61,0.0,1005.2,7.35,25.6,140,57.5,53.3,7,5,4,1,2026-03-24T18:48:59.822275+05:30
Vadodara,Gujarat,22.3072,73.1812,32.6,34,0.0,1002.7,7.85,25.2,110,27.1,21.1,0,5,4,0,2026-03-24T18:48:59.822284+05:30
Rajkot,Gujarat,22.3039,70.8022,31.7,41,0.0,993.3,7.1,22.3,52,20.1,9.3,0,5,7,1,2026-03-24T18:48:59.822293+05:30
Thane,Maharashtra,19.2183,72.9781,30.0,53,0.0,1006.0,7.85,38.9,198,41.6,35.5,4,5,4,1,2026-03-24T18:48:59.822300+05:30
Nagpur,Maharashtra,21.1458,79.0882,31.9,30,0.0,971.1,8.4,30.2,155,34.9,21.3,0,5,7,0,2026-03-24T18:48:59.822307+05:30
Nashik,Maharashtra,19.9975,73.7898,29.4,36,0.0,944.6,8.15,38.9,73,29.9,20.4,4,5,7,0,2026-03-24T18:48:59.822314+05:30
Aurangabad,Maharashtra,19.8762,75.3433,32.0,30,0.0,942.7,8.7,30.6,85,26.0,14.3,0,5,7,0,2026-03-24T18:48:59.822322+05:30
Solapur,Maharashtra,17.6599,75.9064,33.6,26,0.0,955.1,8.8,25.6,140,38.4,28.7,0,5,7,0,2026-03-24T18:48:59.822329+05:30
Kolhapur,Maharashtra,16.705,74.2433,28.5,60,0.0,946.8,8.9,42.5,148,45.8,40.2,4,5,7,1,2026-03-24T18:48:59.822336+05:30
Goa,Goa,15.2993,74.124,28.8,77,0.0,997.2,8.9,29.5,98,38.2,26.7,7,5,7,1,2026-03-24T18:48:59.822343+05:30
Jodhpur,Rajasthan,26.2389,73.0243,32.5,23,0.0,982.3,7.65,11.5,86,25.4,10.3,0,5,7,0,2026-03-24T18:48:59.822350+05:30
Udaipur,Rajasthan,24.5854,73.7125,29.6,26,0.0,946.0,7.65,18.0,62,43.0,12.9,4,5,7,0,2026-03-24T18:48:59.822357+05:30
Kota,Rajasthan,25.2138,75.8648,31.5,30,0.0,978.1,7.65,14.4,113,52.6,23.1,0,5,7,0,2026-03-24T18:48:59.822364+05:30
Bikaner,Rajasthan,28.0229,73.3119,32.1,17,0.0,981.8,7.35,15.8,100,32.2,13.9,0,5,7,0,2026-03-24T18:48:59.822370+05:30
Ajmer,Rajasthan,26.4499,74.6399,29.5,32,0.0,954.5,7.55,15.8,96,30.3,13.2,4,5,7,0,2026-03-24T18:48:59.822377+05:30
Gwalior,Madhya Pradesh,26.2183,78.1828,28.9,40,0.0,983.6,7.25,31.0,119,56.8,21.0,4,5,7,0,2026-03-24T18:48:59.822383+05:30
Indore,Madhya Pradesh,22.7196,75.8577,29.2,35,0.0,946.9,8.15,27.4,65,21.9,13.5,4,5,7,0,2026-03-24T18:48:59.822390+05:30
Bhopal,Madhya Pradesh,23.2599,77.4126,30.0,31,0.0,952.7,8.05,29.2,75,32.0,16.8,4,5,7,0,2026-03-24T18:48:59.822397+05:30
Jabalpur,Madhya Pradesh,23.1815,79.9864,29.8,40,0.0,960.5,8.1,30.2,86,45.8,23.3,4,5,7,0,2026-03-24T18:48:59.822404+05:30
Ujjain,Madhya Pradesh,23.1765,75.7885,28.7,42,0.0,952.5,8.05,21.2,67,28.5,19.0,4,5,7,0,2026-03-24T18:48:59.822411+05:30
Visakhapatnam,Andhra Pradesh,17.6868,83.2185,27.1,75,0.0,1004.5,8.9,34.9,86,23.6,15.7,7,5,4,1,2026-03-24T18:48:59.822417+05:30
Vijayawada,Andhra Pradesh,16.5062,80.648,29.6,63,0.0,1002.5,9.0,27.0,68,18.5,14.2,7,5,4,1,2026-03-24T18:48:59.822423+05:30
Guntur,Andhra Pradesh,16.3067,80.4365,27.9,68,0.0,1004.0,9.0,30.2,65,22.4,17.6,7,5,4,1,2026-03-24T18:48:59.822430+05:30
Nellore,Andhra Pradesh,14.4426,79.9865,28.1,71,0.0,1006.1,9.1,31.7,56,9.8,6.0,7,5,4,1,2026-03-24T18:48:59.822437+05:30
Kurnool,Andhra Pradesh,15.8281,78.0373,32.9,40,0.0,975.7,9.0,27.4,96,34.9,24.5,0,5,7,1,2026-03-24T18:48:59.822445+05:30
Kakinada,Andhra Pradesh,16.9891,82.2475,27.9,70,0.0,1008.0,8.95,29.2,50,17.5,8.8,7,0,4,1,2026-03-24T18:48:59.822451+05:30
Tirupati,Andhra Pradesh,13.6288,79.4192,30.4,53,0.0,991.2,9.25,31.0,93,22.2,18.7,0,5,7,1,2026-03-24T18:48:59.822457+05:30
Warangal,Telangana,17.9689,79.5941,30.2,49,0.0,978.4,8.8,28.1,102,49.7,40.0,0,5,7,1,2026-03-24T18:48:59.822464+05:30
Nizamabad,Telangana,18.6725,78.0941,31.9,37,0.0,963.5,8.7,31.7,118,52.6,40.4,0,5,7,0,2026-03-24T18:48:59.822475+05:30
Mysore,Karnataka,12.2958,76.6396,28.6,51,0.0,928.0,9.4,42.1,137,36.4,27.4,4,5,7,1,2026-03-24T18:48:59.822482+05:30
Mangalore,Karnataka,12.9141,74.856,29.1,78,0.0,1006.1,9.1,24.8,152,55.9,40.2,7,5,4,1,2026-03-24T18:48:59.822489+05:30
Hubli-Dharwad,Karnataka,15.3647,75.124,25.5,75,0.0,940.2,9.05,37.1,143,47.1,38.1,7,5,7,1,2026-03-24T18:48:59.822495+05:30
Belgaum,Karnataka,15.8497,74.4977,25.5,73,0.0,925.0,9.15,42.5,160,40.2,33.2,7,5,7,1,2026-03-24T18:49:03.073986+05:30
Coimbatore,Tamil Nadu,11.0168,76.9558,31.3,39,0.0,960.6,9.4,34.9,102,21.5,15.9,0,5,7,0,2026-03-24T18:49:03.074016+05:30
Madurai,Tamil Nadu,9.9252,78.1198,32.9,41,0.0,991.6,9.35,32.0,75,9.9,6.9,0,5,7,1,2026-03-24T18:49:03.074026+05:30
Trichy,Tamil Nadu,10.7905,78.7047,31.3,54,0.0,998.6,9.3,23.4,76,12.1,10.9,0,5,7,1,2026-03-24T18:49:03.074035+05:30
Salem,Tamil Nadu,11.6643,78.146,32.3,41,0.0,976.1,9.35,27.4,123,31.8,25.1,0,5,7,1,2026-03-24T18:49:03.074063+05:30
Tirunelveli,Tamil Nadu,8.7139,77.7567,31.7,50,0.0,1001.8,9.35,37.4,63,5.2,3.7,0,5,4,1,2026-03-24T18:49:03.074072+05:30
Vellore,Tamil Nadu,12.9165,79.1325,30.5,47,0.0,983.9,9.3,36.4,68,15.1,11.8,0,5,7,1,2026-03-24T18:49:03.074079+05:30
Erode,Tamil Nadu,11.341,77.7172,33.5,41,0.0,987.2,9.3,23.4,96,22.1,17.5,0,5,7,1,2026-03-24T18:49:03.074085+05:30
Kochi,Kerala,9.9312,76.2673,29.1,79,0.0,1007.5,9.15,35.6,112,29.2,21.3,7,5,4,1,2026-03-24T18:49:03.074093+05:30
Thiruvananthapuram,Kerala,8.5241,76.9366,29.2,78,0.0,1007.0,9.2,29.5,114,29.1,19.0,7,5,4,1,2026-03-24T18:49:03.074100+05:30
Kozhikode,Kerala,11.2588,75.7804,29.6,76,0.0,1006.4,9.05,32.0,104,38.9,25.4,7,5,4,1,2026-03-24T18:49:03.074106+05:30
Thrissur,Kerala,10.5276,76.2144,29.3,74,0.0,1005.7,9.15,41.8,108,27.1,21.0,7,5,4,1,2026-03-24T18:49:03.074113+05:30
Kannur,Kerala,11.8745,75.3704,29.9,74,0.0,1006.4,9.05,29.9,122,51.0,35.6,7,5,4,1,2026-03-24T18:49:03.074121+05:30
Patna,Bihar,25.5941,85.1376,28.4,49,0.0,999.8,7.9,33.1,159,68.7,41.4,4,5,7,1,2026-03-24T18:49:03.074127+05:30
Gaya,Bihar,24.7914,85.0002,29.0,50,0.0,993.3,7.95,20.5,122,68.5,39.6,4,5,7,1,2026-03-24T18:49:03.074134+05:30
Muzaffarpur,Bihar,26.1209,85.3647,26.8,53,0.0,999.7,7.85,35.6,161,68.5,43.8,4,5,7,1,2026-03-24T18:49:03.074140+05:30
Bhagalpur,Bihar,25.2425,87.0117,26.4,62,0.0,1000.6,7.85,28.4,151,80.3,46.1,7,5,4,1,2026-03-24T18:49:03.074147+05:30
Ranchi,Jharkhand,23.3441,85.3096,23.5,62,0.0,937.8,8.6,36.4,146,55.5,37.4,3,5,7,0,2026-03-24T18:49:03.074154+05:30
Jamshedpur,Jharkhand,22.8046,86.2029,29.4,50,0.0,990.8,8.2,23.8,161,71.7,48.5,4,5,7,1,2026-03-24T18:49:03.074161+05:30
Dhanbad,Jharkhand,23.7957,86.4304,29.0,43,0.0,979.7,8.35,23.8,163,88.7,60.5,4,5,7,0,2026-03-24T18:49:03.074168+05:30
Bokaro,Jharkhand,23.6693,86.1511,27.8,50,0.0,983.6,8.3,22.0,154,84.8,53.9,4,5,7,1,2026-03-24T18:49:03.074175+05:30
Bhubaneswar,Odisha,20.2961,85.8245,27.2,74,0.0,1003.7,8.7,33.1,117,24.6,20.4,7,5,4,1,2026-03-24T18:49:03.074181+05:30
Cuttack,Odisha,20.4625,85.8828,28.7,65,0.0,1005.1,8.75,29.2,117,24.6,20.4,7,5,4,1,2026-03-24T18:49:03.074188+05:30
Rourkela,Odisha,22.2604,84.8536,29.4,44,0.0,984.6,8.4,24.8,199,64.0,49.0,4,5,7,0,2026-03-24T18:49:03.074194+05:30
Raipur,Chhattisgarh,21.2514,81.6296,32.3,29,0.0,973.1,8.5,23.8,161,52.4,43.0,0,5,7,0,2026-03-24T18:49:03.074200+05:30
Bhilai,Chhattisgarh,21.1938,81.3509,31.0,33,0.0,973.3,8.5,29.9,145,41.8,33.9,0,5,7,0,2026-03-24T18:49:03.074207+05:30
Guwahati,Assam,26.1158,91.7086,23.0,87,0.0,1002.6,7.75,29.5,109,60.8,56.1,3,5,4,1,2026-03-24T18:49:03.074213+05:30
Agartala,Tripura,23.8315,91.2868,26.1,64,0.0,1006.8,8.1,15.1,175,103.6,87.1,7,5,4,1,2026-03-24T18:49:03.074219+05:30
Shillong,Meghalaya,25.5788,91.8933,12.2,88,0.0,854.8,7.0,41.0,106,46.2,42.8,3,10,7,0,2026-03-24T18:49:03.074226+05:30
Imphal,Manipur,24.817,93.9368,16.8,75,0.0,922.7,8.05,38.9,105,43.5,39.0,3,5,7,0,2026-03-24T18:49:03.074233+05:30
Aizawl,Mizoram,23.7271,92.7176,18.0,68,0.0,892.4,8.35,31.0,116,56.5,46.8,3,5,7,0,2026-03-24T18:49:03.074239+05:30
Kohima,Nagaland,25.6701,94.1077,12.9,98,0.0,853.3,8.05,55.4,80,38.3,33.3,3,10,7,0,2026-03-24T18:49:03.074246+05:30
Gangtok,Sikkim,27.3314,88.6138,11.9,94,0.1,834.6,4.1,15.5,100,41.9,31.2,6,10,3,0,2026-03-24T18:49:03.074252+05:30
Siliguri,West Bengal,26.7271,88.3953,18.7,91,0.0,994.1,5.95,38.5,143,79.9,65.9,3,10,3,1,2026-03-24T18:49:06.331765+05:30
Durgapur,West Bengal,23.5204,87.3119,28.1,57,0.0,995.0,8.05,21.2,157,92.0,58.0,4,5,7,1,2026-03-24T18:49:06.331798+05:30
Asansol,West Bengal,23.6739,86.9524,29.4,51,0.0,993.4,7.95,21.2,155,79.9,50.8,4,5,7,1,2026-03-24T18:49:06.331811+05:30
Pondicherry,Puducherry,11.9139,79.8145,27.4,74,0.0,1008.4,9.15,30.2,35,6.7,4.4,7,0,4,1,2026-03-24T18:49:06.331822+05:30
Port Blair,Andaman and Nicobar Islands,11.6234,92.7265,29.1,70,0.0,1007.2,9.15,23.8,76,26.4,16.8,7,5,4,1,2026-03-24T18:49:06.331832+05:30
Haridwar,Uttarakhand,29.9457,78.1642,24.5,47,0.0,973.9,6.4,37.8,136,23.2,21.0,0,5,7,0,2026-03-24T18:49:06.331842+05:30
Rishikesh,Uttarakhand,30.0869,78.2676,23.4,52,0.0,966.7,6.45,35.6,122,25.2,21.2,0,5,7,0,2026-03-24T18:49:06.331851+05:30
Nainital,Uttarakhand,29.3919,79.4542,16.8,58,0.0,804.6,7.3,56.2,123,30.5,24.7,0,5,7,0,2026-03-24T18:49:06.331861+05:30
Mussoorie,Uttarakhand,30.4599,78.0664,15.4,57,0.0,800.9,6.8,46.4,126,23.9,20.4,0,5,7,0,2026-03-24T18:49:06.331871+05:30
Dharamshala,Himachal Pradesh,32.219,76.3234,18.4,63,0.0,868.4,7.05,26.3,102,21.5,13.9,3,5,7,0,2026-03-24T18:49:06.331880+05:30
Dalhousie,Himachal Pradesh,32.5387,75.971,16.7,57,0.0,803.0,7.3,23.0,105,24.0,19.1,0,5,7,0,2026-03-24T18:49:06.331891+05:30
Patiala,Punjab,30.3398,76.3869,24.4,53,0.0,978.8,6.4,33.8,160,324.1,53.0,0,5,7,0,2026-03-24T18:49:06.331901+05:30
Bhatinda,Punjab,30.211,74.9455,26.6,41,0.0,984.4,7.05,25.2,134,40.2,28.7,4,5,7,0,2026-03-24T18:49:06.331909+05:30
Rohtak,Haryana,28.8955,76.6066,26.1,50,0.0,982.4,6.3,26.3,184,705.9,97.8,4,5,7,0,2026-03-24T18:49:06.331917+05:30
Panipat,Haryana,29.3909,76.9635,24.9,52,0.0,980.9,6.0,29.2,363,1385.8,160.7,0,5,3,0,2026-03-24T18:49:06.331924+05:30
Mathura,Uttar Pradesh,27.4924,77.6737,27.1,45,0.0,987.3,6.5,25.2,159,681.7,93.4,4,5,7,0,2026-03-24T18:49:06.331932+05:30
Vrindavan,Uttar Pradesh,27.5823,77.7027,26.3,50,0.0,987.8,6.65,27.0,159,681.7,93.4,4,5,7,0,2026-03-24T18:49:06.331939+05:30
Ayodhya,Uttar Pradesh,26.7922,82.1998,27.6,44,0.0,994.9,7.2,34.6,112,54.1,27.5,4,5,7,0,2026-03-24T18:49:06.331946+05:30
Ratlam,Madhya Pradesh,23.3315,75.0367,29.3,43,0.0,953.4,8.05,23.0,68,22.9,12.9,4,5,7,0,2026-03-24T18:49:06.331954+05:30
Sagar,Madhya Pradesh,23.8388,78.7378,29.0,35,0.0,949.6,8.05,27.4,77,35.5,17.8,4,5,7,0,2026-03-24T18:49:06.331961+05:30
Satna,Madhya Pradesh,24.6005,80.8322,29.3,32,0.0,970.9,7.5,27.7,84,46.4,17.9,4,5,7,0,2026-03-24T18:49:06.331968+05:30
Akola,Maharashtra,20.7002,77.0082,32.1,35,0.0,973.5,8.45,27.7,82,24.2,14.1,0,5,7,0,2026-03-24T18:49:06.331976+05:30
Amravati,Maharashtra,20.9374,77.7796,31.3,33,0.0,966.1,8.45,29.5,98,27.1,15.4,0,5,7,0,2026-03-24T18:49:06.331984+05:30
Latur,Maharashtra,18.4088,76.5604,30.8,37,0.0,938.4,8.75,20.2,123,38.9,31.8,0,5,7,0,2026-03-24T18:49:06.331991+05:30
Nanded,Maharashtra,19.1383,77.3091,32.6,30,0.0,967.0,8.6,16.6,133,29.2,22.2,0,5,7,0,2026-03-24T18:49:06.331999+05:30
Gulbarga,Karnataka,17.3297,76.8343,31.3,40,0.0,957.8,8.8,36.7,134,40.9,31.3,0,5,7,1,2026-03-24T18:49:06.332006+05:30
Bidar,Karnataka,17.9104,77.5199,29.7,43,0.0,935.0,8.8,34.2,112,60.3,48.3,4,5,7,0,2026-03-24T18:49:06.332013+05:30
Hospet,Karnataka,15.2689,76.3909,30.2,51,0.0,955.9,9.05,27.7,157,33.1,27.7,0,5,7,1,2026-03-24T18:49:06.332020+05:30
Tirupur,Tamil Nadu,11.1085,77.3411,33.6,30,0.0,973.6,9.4,28.4,104,28.3,21.8,0,5,7,0,2026-03-24T18:49:06.332028+05:30
Alappuzha,Kerala,9.4981,76.3388,29.1,80,0.0,1007.3,9.15,29.9,113,29.6,19.9,7,5,4,1,2026-03-24T18:49:06.332035+05:30
Munnar,Kerala,10.0889,77.0595,23.8,72,0.0,856.9,9.65,27.0,88,23.2,17.5,3,5,7,1,2026-03-24T18:49:06.332061+05:30
Silchar,Assam,24.8333,92.7789,24.5,69,0.0,1005.7,8.05,18.4,151,86.4,78.2,3,5,4,1,2026-03-24T18:49:06.332069+05:30
Dibrugarh,Assam,27.4728,94.912,22.3,86,0.0,997.0,7.3,14.4,85,27.9,24.4,3,5,7,1,2026-03-24T18:49:06.332076+05:30
