city,state,latitude,longitude,temp,humidity,rain,pressure,uv_index,wind_gusts,aqi,pm10,pm2_5,no2,co,o3,so2,mosquito_risk,arthritis_risk,migraine_risk,frizz_risk,updated_at
Delhi,Delhi,28.6139,77.209,34.5,21,0.0,980.1,7.55,28.4,179,248.7,44.2,6.3,306.0,189.0,15.8,0,5,7,0,2026-05-06T17:20:26.438068+05:30
Mumbai,Maharashtra,19.076,72.8777,31.4,64,0.0,1004.1,7.9,48.6,90,70.8,24.9,6.1,218.0,98.0,12.6,3,5,4,1,2026-05-06T17:20:26.438107+05:30
Bangalore,Karnataka,12.9716,77.5946,29.0,47,0.1,908.9,9.55,34.6,106,43.2,23.9,8.6,351.0,158.0,5.7,7,5,7,1,2026-05-06T17:20:26.438125+05:30
Hyderabad,Telangana,17.385,78.4867,34.5,30,0.0,949.9,9.3,34.6,98,56.5,27.8,3.3,370.0,150.0,5.7,0,5,7,0,2026-05-06T17:20:26.438134+05:30
Chennai,Tamil Nadu,13.0827,80.2707,29.6,72,0.0,1003.7,9.25,43.6,53,12.5,8.2,4.2,213.0,88.0,5.9,7,5,4,1,2026-05-06T17:20:26.438145+05:30
Kolkata,West Bengal,22.5726,88.3639,26.5,81,0.0,1004.4,8.95,33.5,96,27.3,21.9,5.1,491.0,125.0,10.3,7,5,4,1,2026-05-06T17:20:26.438153+05:30
Pune,Maharashtra,18.5204,73.8567,37.0,16,0.0,943.9,8.5,46.8,85,53.1,18.9,2.0,229.0,153.0,4.2,0,5,10,0,2026-05-06T17:20:26.438159+05:30
Ahmedabad,Gujarat,23.0225,72.5714,40.0,18,0.0,997.2,8.1,23.8,137,107.1,30.7,1.9,200.0,172.0,7.6,0,5,10,0,2026-05-06T17:20:26.438166+05:30
Jaipur,Rajasthan,26.9124,75.7873,34.7,19,0.0,957.3,8.1,32.4,140,215.1,36.8,0.1,228.0,161.0,4.4,0,5,7,0,2026-05-06T17:20:26.438173+05:30
Lucknow,Uttar Pradesh,26.8467,80.9462,29.8,51,0.0,991.4,8.05,47.2,149,98.5,30.9,1.4,310.0,173.0,6.6,4,5,7,1,2026-05-06T17:20:26.438179+05:30
Kanpur,Uttar Pradesh,26.4499,80.3319,31.6,42,0.0,989.3,8.05,28.4,151,214.7,40.2,1.7,290.0,170.0,5.1,0,5,7,1,2026-05-06T17:20:26.438185+05:30
Chandigarh,Chandigarh,30.7333,76.7794,29.5,32,0.0,967.0,7.5,47.9,162,35.0,19.6,1.3,248.0,182.0,13.7,4,5,7,0,2026-05-06T17:20:26.438192+05:30
Srinagar,Jammu and Kashmir,34.0837,74.7973,22.4,42,0.0,838.7,8.65,22.7,123,34.1,9.5,0.2,266.0,153.0,1.1,0,5,7,0,2026-05-06T17:20:26.438198+05:30
Jammu,Jammu and Kashmir,32.7266,74.857,29.8,27,0.0,970.1,8.25,33.5,129,31.3,16.1,1.7,222.0,174.0,3.3,4,5,7,0,2026-05-06T17:20:26.438205+05:30
Amritsar,Punjab,31.634,74.8723,32.2,27,0.0,977.9,8.15,33.5,158,42.3,19.3,1.1,216.0,199.0,6.2,0,5,7,0,2026-05-06T17:20:26.438212+05:30
Ludhiana,Punjab,30.901,75.8573,29.2,45,0.0,976.5,7.8,38.5,138,56.1,21.0,0.5,282.0,170.0,3.6,4,5,7,1,2026-05-06T17:20:26.438219+05:30
Jalandhar,Punjab,31.326,75.5762,29.4,39,0.0,977.5,7.95,41.8,138,55.3,21.0,1.3,371.0,176.0,4.6,4,5,7,0,2026-05-06T17:20:26.438224+05:30
Dehradun,Uttarakhand,30.6284,78.0322,16.4,62,0.0,828.8,7.45,38.2,115,40.9,18.8,1.6,170.0,152.0,2.2,3,5,7,0,2026-05-06T17:20:26.438230+05:30
Shimla,Himachal Pradesh,31.1048,77.1734,14.2,51,0.0,782.7,7.45,50.0,137,35.4,17.6,0.4,202.0,168.0,5.3,0,5,7,0,2026-05-06T17:20:26.438238+05:30
Manali,Himachal Pradesh,32.2396,77.1887,12.8,73,0.0,815.0,9.55,36.7,151,7.9,4.7,0.2,163.0,183.0,0.2,3,5,7,0,2026-05-06T17:20:26.438245+05:30
Gurgaon,Haryana,28.4595,77.0266,33.7,23,0.0,978.8,7.65,33.1,200,523.4,71.0,4.2,238.0,215.0,18.9,0,5,7,0,2026-05-06T17:20:26.438250+05:30
Noida,Uttar Pradesh,28.5355,77.391,33.8,25,0.0,981.4,7.55,21.6,200,523.4,71.0,4.2,369.0,215.0,18.9,0,5,7,0,2026-05-06T17:20:26.438256+05:30
Ghaziabad,Uttar Pradesh,28.6692,77.4538,33.2,26,0.0,979.9,7.55,25.6,174,158.3,34.8,4.9,222.0,195.0,13.3,0,5,7,0,2026-05-06T17:20:26.438261+05:30
Faridabad,Haryana,28.4089,77.3178,33.7,25,0.0,980.6,7.6,22.0,200,523.4,71.0,4.2,270.0,215.0,18.9,0,5,7,0,2026-05-06T17:20:26.438266+05:30
Meerut,Uttar Pradesh,28.9845,77.7064,31.6,33,0.0,979.0,7.45,27.4,174,158.3,34.8,4.9,270.0,195.0,13.3,0,5,7,0,2026-05-06T17:20:26.438276+05:30
Agra,Uttar Pradesh,27.1767,78.0081,32.3,39,0.0,984.7,7.9,21.2,161,525.3,65.7,0.9,266.0,183.0,7.6,0,5,7,1,2026-05-06T17:20:26.438282+05:30
Varanasi,Uttar Pradesh,25.3176,82.9739,31.3,53,0.0,994.3,8.6,69.1,165,52.0,30.5,1.3,422.0,185.0,9.7,0,5,7,1,2026-05-06T17:20:26.438287+05:30
Prayagraj,Uttar Pradesh,25.4358,81.8463,32.2,39,0.0,993.2,8.45,60.1,169,64.0,32.6,1.5,284.0,179.0,10.4,0,5,7,1,2026-05-06T17:20:26.438293+05:30
Gorakhpur,Uttar Pradesh,26.7606,83.3732,22.9,83,0.1,996.6,8.45,41.0,159,47.5,23.6,2.0,298.0,168.0,6.1,6,5,7,1,2026-05-06T17:20:26.438298+05:30
Bareilly,Uttar Pradesh,28.367,79.4304,30.8,39,0.0,984.3,7.85,24.5,162,65.2,25.7,1.7,234.0,172.0,8.4,0,5,7,0,2026-05-06T17:20:26.438303+05:30
Aligarh,Uttar Pradesh,27.8974,78.088,33.9,23,0.0,982.6,7.7,25.9,182,382.8,60.5,2.9,263.0,219.0,16.3,0,5,7,0,2026-05-06T17:20:26.438308+05:30
Moradabad,Uttar Pradesh,28.8386,78.7733,31.1,34,0.0,981.2,7.65,32.0,169,49.6,21.4,2.4,247.0,167.0,11.5,0,5,7,0,2026-05-06T17:20:26.438313+05:30
Saharanpur,Uttar Pradesh,29.9637,77.546,30.5,37,0.0,973.0,7.25,28.4,159,74.3,25.8,2.9,293.0,172.0,9.4,0,5,7,0,2026-05-06T17:20:26.438317+05:30
Jhansi,Uttar Pradesh,25.4484,78.5685,34.3,25,0.0,975.2,8.35,29.2,123,60.8,18.3,1.0,216.0,157.0,7.5,0,5,7,0,2026-05-06T17:20:29.770186+05:30
Surat,Gujarat,21.1702,72.8311,34.7,44,0.0,1002.4,7.7,35.3,91,85.9,44.8,35.2,841.0,68.0,89.9,0,5,4,1,2026-05-06T17:20:29.770215+05:30
Vadodara,Gujarat,22.3072,73.1812,39.2,20,0.0,999.4,8.05,28.8,84,111.5,32.8,0.9,205.0,165.0,7.3,0,5,10,0,2026-05-06T17:20:29.770224+05:30
Rajkot,Gujarat,22.3039,70.8022,38.2,19,0.0,990.1,7.7,44.6,71,97.8,24.5,0.9,152.0,145.0,4.9,0,5,10,0,2026-05-06T17:20:29.770231+05:30
Thane,Maharashtra,19.2183,72.9781,33.0,57,0.0,1003.2,7.9,43.9,90,70.8,24.9,6.1,187.0,98.0,12.6,0,5,4,1,2026-05-06T17:20:29.770237+05:30
Nagpur,Maharashtra,21.1458,79.0882,36.3,24,0.0,969.6,8.9,28.8,152,53.9,25.8,4.3,181.0,173.0,19.3,0,5,10,0,2026-05-06T17:20:29.770242+05:30
Nashik,Maharashtra,19.9975,73.7898,35.3,19,0.0,942.3,8.2,36.0,68,44.4,14.7,1.1,147.0,123.0,0.7,0,5,10,0,2026-05-06T17:20:29.770248+05:30
Aurangabad,Maharashtra,19.8762,75.3433,36.5,15,0.0,940.6,9.05,37.8,94,54.2,17.9,0.9,153.0,146.0,3.1,0,5,10,0,2026-05-06T17:20:29.770253+05:30
Solapur,Maharashtra,17.6599,75.9064,38.2,16,0.0,952.4,9.05,42.5,89,46.9,17.1,1.2,161.0,141.0,4.9,0,5,10,0,2026-05-06T17:20:29.770259+05:30
Kolhapur,Maharashtra,16.705,74.2433,35.0,29,0.0,943.2,8.95,42.5,64,47.7,17.8,6.5,169.0,125.0,2.6,0,5,7,0,2026-05-06T17:20:29.770265+05:30
Goa,Goa,15.2993,74.124,33.8,48,0.0,992.7,8.3,42.5,66,47.8,17.4,1.0,142.0,87.0,1.0,0,5,7,1,2026-05-06T17:20:29.770270+05:30
Jodhpur,Rajasthan,26.2389,73.0243,38.4,12,0.0,979.3,8.3,28.8,103,148.1,24.2,0.5,185.0,155.0,3.3,0,5,10,0,2026-05-06T17:20:29.770276+05:30
Udaipur,Rajasthan,24.5854,73.7125,34.5,21,0.0,943.8,8.75,23.0,124,54.6,15.5,0.6,162.0,155.0,3.3,0,5,7,0,2026-05-06T17:20:29.770282+05:30
Kota,Rajasthan,25.2138,75.8648,36.8,16,0.0,975.8,8.3,29.5,130,53.4,17.5,0.4,195.0,161.0,4.5,0,5,10,0,2026-05-06T17:20:29.770287+05:30
Bikaner,Rajasthan,28.0229,73.3119,37.5,13,0.0,978.1,8.25,32.4,120,99.0,24.9,0.2,219.0,149.0,6.4,0,5,10,0,2026-05-06T17:20:29.770292+05:30
Ajmer,Rajasthan,26.4499,74.6399,34.8,16,0.0,952.3,8.25,32.0,118,68.7,19.2,0.1,192.0,156.0,3.3,0,5,7,0,2026-05-06T17:20:29.770297+05:30
Gwalior,Madhya Pradesh,26.2183,78.1828,32.5,37,0.0,980.1,8.1,21.2,136,126.7,29.4,0.3,259.0,167.0,4.2,0,5,7,0,2026-05-06T17:20:29.770303+05:30
Indore,Madhya Pradesh,22.7196,75.8577,37.1,11,0.0,944.8,8.6,30.2,118,23.5,9.1,0.8,186.0,158.0,2.5,0,5,10,0,2026-05-06T17:20:29.770308+05:30
Bhopal,Madhya Pradesh,23.2599,77.4126,36.8,12,0.0,950.4,8.65,37.8,122,20.5,9.7,0.6,183.0,158.0,4.0,0,5,10,0,2026-05-06T17:20:29.770313+05:30
Jabalpur,Madhya Pradesh,23.1815,79.9864,36.5,14,0.0,957.8,8.8,32.4,132,38.1,14.8,1.3,183.0,159.0,3.3,0,5,10,0,2026-05-06T17:20:29.770319+05:30
Ujjain,Madhya Pradesh,23.1765,75.7885,37.7,11,0.0,950.3,8.55,29.5,109,26.8,10.2,0.4,169.0,155.0,3.0,0,5,10,0,2026-05-06T17:20:29.770325+05:30
Visakhapatnam,Andhra Pradesh,17.6868,83.2185,30.1,69,0.0,1001.4,9.15,36.0,80,16.5,11.7,19.9,286.0,52.0,14.3,3,5,4,1,2026-05-06T17:20:29.770331+05:30
Vijayawada,Andhra Pradesh,16.5062,80.648,32.7,55,0.0,999.5,9.2,39.2,62,24.6,17.3,3.6,258.0,96.0,6.3,0,5,7,1,2026-05-06T17:20:29.770337+05:30
Guntur,Andhra Pradesh,16.3067,80.4365,32.8,53,0.0,1000.7,9.2,39.2,67,35.6,25.0,3.2,187.0,118.0,4.7,0,5,4,1,2026-05-06T17:20:29.770343+05:30
Nellore,Andhra Pradesh,14.4426,79.9865,31.0,63,0.0,1002.1,9.25,40.7,55,12.5,9.3,1.6,171.0,104.0,2.3,3,5,4,1,2026-05-06T17:20:29.770349+05:30
Kurnool,Andhra Pradesh,15.8281,78.0373,37.5,26,0.0,971.9,9.2,38.5,98,50.2,25.1,1.2,199.0,137.0,3.0,0,5,10,0,2026-05-06T17:20:29.770354+05:30
Kakinada,Andhra Pradesh,16.9891,82.2475,30.5,69,0.0,1004.7,9.15,32.0,51,13.0,6.9,1.0,158.0,66.0,0.7,3,5,4,1,2026-05-06T17:20:29.770359+05:30
Tirupati,Andhra Pradesh,13.6288,79.4192,32.9,49,0.0,987.3,9.3,41.0,107,32.6,25.6,3.1,215.0,148.0,9.1,0,5,7,1,2026-05-06T17:20:29.770365+05:30
Warangal,Telangana,17.9689,79.5941,36.2,31,0.0,974.8,9.2,41.0,105,52.7,27.5,1.4,216.0,151.0,5.7,0,5,10,1,2026-05-06T17:20:29.770370+05:30
Nizamabad,Telangana,18.6725,78.0941,36.0,23,0.0,961.3,9.15,34.9,111,53.9,24.3,0.3,147.0,152.0,4.3,0,5,10,0,2026-05-06T17:20:29.770375+05:30
Mysore,Karnataka,12.2958,76.6396,31.5,39,0.0,925.0,9.4,31.0,76,39.7,19.0,2.2,205.0,147.0,3.6,0,5,7,0,2026-05-06T17:20:29.770380+05:30
Mangalore,Karnataka,12.9141,74.856,31.6,65,0.0,1001.2,9.05,55.8,65,41.1,16.4,1.3,144.0,83.0,0.7,3,5,4,1,2026-05-06T17:20:29.770386+05:30
Hubli-Dharwad,Karnataka,15.3647,75.124,36.9,18,0.0,936.1,9.05,42.8,68,41.6,16.4,0.8,163.0,148.0,2.2,0,5,10,0,2026-05-06T17:20:29.770391+05:30
Belgaum,Karnataka,15.8497,74.4977,34.7,19,0.0,921.9,8.8,46.4,62,48.7,18.1,1.9,161.0,134.0,2.7,0,5,7,0,2026-05-06T17:20:33.110936+05:30
Coimbatore,Tamil Nadu,11.0168,76.9558,34.8,32,0.0,957.2,9.35,37.8,114,40.2,22.7,2.7,278.0,148.0,3.5,0,5,7,0,2026-05-06T17:20:33.110967+05:30
Madurai,Tamil Nadu,9.9252,78.1198,31.8,56,0.1,989.0,8.9,50.0,121,35.9,23.6,3.0,241.0,149.0,3.6,3,5,7,1,2026-05-06T17:20:33.110977+05:30
Trichy,Tamil Nadu,10.7905,78.7047,32.1,58,0.0,995.9,8.9,42.5,98,38.3,26.3,3.1,246.0,153.0,6.2,0,5,7,1,2026-05-06T17:20:33.110984+05:30
Salem,Tamil Nadu,11.6643,78.146,32.3,49,0.0,973.1,9.25,43.2,160,49.1,30.3,4.0,239.0,188.0,10.8,0,5,7,1,2026-05-06T17:20:33.110990+05:30
Tirunelveli,Tamil Nadu,8.7139,77.7567,28.9,73,0.0,999.6,8.8,48.2,117,45.5,31.4,4.9,241.0,136.0,5.8,7,5,7,1,2026-05-06T17:20:33.110997+05:30
Vellore,Tamil Nadu,12.9165,79.1325,32.2,52,0.0,980.8,9.3,47.9,143,49.0,38.6,3.5,221.0,170.0,10.2,0,5,7,1,2026-05-06T17:20:33.111003+05:30
Erode,Tamil Nadu,11.341,77.7172,35.7,36,0.0,984.2,9.25,42.8,142,66.8,39.9,3.3,245.0,182.0,6.8,0,5,10,1,2026-05-06T17:20:33.111009+05:30
Kochi,Kerala,9.9312,76.2673,29.2,80,0.0,1004.2,7.95,37.8,69,36.4,19.7,2.2,145.0,108.0,1.8,7,5,4,1,2026-05-06T17:20:33.111015+05:30
Thiruvananthapuram,Kerala,8.5241,76.9366,27.1,85,0.0,1004.2,8.35,36.7,62,26.6,14.6,3.3,232.0,110.0,2.0,7,5,4,1,2026-05-06T17:20:33.111021+05:30
Kozhikode,Kerala,11.2588,75.7804,31.2,77,0.0,1002.5,9.05,43.2,66,42.8,18.0,0.7,149.0,80.0,0.7,3,5,4,1,2026-05-06T17:20:33.111027+05:30
Thrissur,Kerala,10.5276,76.2144,28.5,84,0.0,1002.5,9.05,33.5,78,40.9,23.1,1.6,133.0,117.0,2.4,7,5,4,1,2026-05-06T17:20:33.111034+05:30
Kannur,Kerala,11.8745,75.3704,32.5,64,0.0,1001.5,9.05,59.8,64,42.7,17.8,1.5,158.0,93.0,0.9,3,5,4,1,2026-05-06T17:20:33.111039+05:30
Patna,Bihar,25.5941,85.1376,28.5,67,0.0,997.9,8.7,36.7,163,56.2,34.5,2.5,349.0,176.0,6.6,7,5,7,1,2026-05-06T17:20:33.111044+05:30
Gaya,Bihar,24.7914,85.0002,31.0,50,0.0,991.1,8.75,54.7,170,60.8,36.6,1.0,330.0,174.0,3.0,0,5,7,1,2026-05-06T17:20:33.111050+05:30
Muzaffarpur,Bihar,26.1209,85.3647,25.7,73,0.0,998.6,8.7,33.1,163,52.5,32.0,3.1,328.0,182.0,10.1,7,5,7,1,2026-05-06T17:20:33.111056+05:30
Bhagalpur,Bihar,25.2425,87.0117,26.8,72,0.0,999.7,8.7,32.8,186,42.8,34.5,6.4,337.0,201.0,9.0,7,5,7,1,2026-05-06T17:20:33.111061+05:30
Ranchi,Jharkhand,23.3441,85.3096,28.1,46,0.0,935.6,9.2,29.9,167,42.7,23.9,2.8,256.0,186.0,8.3,4,5,7,0,2026-05-06T17:20:33.111067+05:30
Jamshedpur,Jharkhand,22.8046,86.2029,29.2,55,0.0,988.5,9.05,32.8,206,75.2,61.0,10.6,284.0,234.0,39.2,4,5,7,1,2026-05-06T17:20:33.111072+05:30
Dhanbad,Jharkhand,23.7957,86.4304,29.4,56,0.0,977.7,8.95,27.4,176,78.5,60.3,24.0,332.0,186.0,50.4,4,5,7,1,2026-05-06T17:20:33.111077+05:30
Bokaro,Jharkhand,23.6693,86.1511,30.8,50,0.0,981.2,9.0,26.3,187,81.5,61.0,23.5,329.0,202.0,56.7,0,5,7,1,2026-05-06T17:20:33.111083+05:30
Bhubaneswar,Odisha,20.2961,85.8245,30.0,67,0.0,1000.3,9.1,34.9,153,28.3,20.4,3.6,248.0,113.0,4.9,7,5,4,1,2026-05-06T17:20:33.111088+05:30
Cuttack,Odisha,20.4625,85.8828,30.5,65,0.0,1001.9,9.15,36.4,153,28.3,20.4,3.6,281.0,113.0,4.9,3,5,4,1,2026-05-06T17:20:33.111093+05:30
Rourkela,Odisha,22.2604,84.8536,33.5,37,0.0,981.6,8.95,31.0,169,39.9,22.1,6.2,260.0,174.0,14.9,0,5,7,1,2026-05-06T17:20:33.111098+05:30
Raipur,Chhattisgarh,21.2514,81.6296,36.4,24,0.0,971.1,9.0,35.6,157,50.1,26.3,5.8,258.0,177.0,4.1,0,5,10,0,2026-05-06T17:20:33.111103+05:30
Bhilai,Chhattisgarh,21.1938,81.3509,36.0,25,0.0,971.5,9.0,31.7,131,48.1,24.1,5.6,374.0,158.0,3.6,0,5,10,0,2026-05-06T17:20:33.111108+05:30
Guwahati,Assam,26.1158,91.7086,26.9,78,0.0,999.4,8.65,32.4,87,33.4,25.5,2.5,252.0,124.0,1.5,7,5,7,1,2026-05-06T17:20:33.111113+05:30
Agartala,Tripura,23.8315,91.2868,28.9,75,0.0,1004.2,8.85,14.0,88,33.8,27.7,11.3,217.0,134.0,1.8,7,5,4,1,2026-05-06T17:20:33.111118+05:30
Shillong,Meghalaya,25.5788,91.8933,18.9,83,0.0,856.1,8.25,27.0,95,27.2,19.6,2.3,246.0,129.0,1.3,3,10,7,0,2026-05-06T17:20:33.111124+05:30
Imphal,Manipur,24.817,93.9368,24.8,66,0.0,921.5,8.85,33.1,78,22.5,15.6,2.5,244.0,89.0,1.3,3,5,7,1,2026-05-06T17:20:33.111130+05:30
Aizawl,Mizoram,23.7271,92.7176,23.3,68,0.0,891.4,8.75,20.5,63,22.2,13.0,3.7,207.0,91.0,1.3,3,5,7,1,2026-05-06T17:20:33.111135+05:30
Kohima,Nagaland,25.6701,94.1077,18.9,92,0.1,854.4,9.15,31.7,82,32.7,21.7,3.6,241.0,106.0,1.2,6,10,7,1,2026-05-06T17:20:33.111141+05:30
Gangtok,Sikkim,27.3314,88.6138,16.3,87,0.0,835.1,8.7,29.9,86,26.5,15.8,2.4,277.0,133.0,1.2,3,10,7,0,2026-05-06T17:20:33.111146+05:30
Siliguri,West Bengal,26.7271,88.3953,26.4,74,0.0,990.8,8.4,20.5,100,34.8,25.1,6.3,511.0,138.0,2.3,7,5,7,1,2026-05-06T17:20:36.479077+05:30
Durgapur,West Bengal,23.5204,87.3119,28.7,71,0.0,993.0,8.9,27.7,208,95.0,81.0,24.5,326.0,259.0,82.3,7,5,7,1,2026-05-06T17:20:36.479108+05:30
Asansol,West Bengal,23.6739,86.9524,28.7,66,0.0,991.6,8.95,27.0,195,78.9,62.4,19.8,437.0,216.0,58.5,7,5,7,1,2026-05-06T17:20:36.479117+05:30
Pondicherry,Puducherry,11.9139,79.8145,30.2,71,0.0,1004.9,8.75,37.4,68,19.8,12.1,1.7,198.0,105.0,0.6,3,5,4,1,2026-05-06T17:20:36.479125+05:30
Port Blair,Andaman and Nicobar Islands,11.6234,92.7265,28.1,83,0.1,1004.8,9.05,36.7,30,9.4,7.2,0.5,166.0,61.0,0.1,10,5,4,1,2026-05-06T17:20:36.479132+05:30
Haridwar,Uttarakhand,29.9457,78.1642,29.1,44,0.0,971.6,7.35,26.6,152,41.3,19.8,1.9,256.0,171.0,8.2,4,5,7,0,2026-05-06T17:20:36.479139+05:30
Rishikesh,Uttarakhand,30.0869,78.2676,28.1,48,0.0,964.3,7.45,23.4,136,39.0,15.0,0.8,218.0,169.0,5.3,4,5,7,1,2026-05-06T17:20:36.479145+05:30
Nainital,Uttarakhand,29.3919,79.4542,15.6,54,0.0,803.9,6.55,34.2,135,54.9,20.7,1.2,214.0,170.0,4.5,0,5,7,0,2026-05-06T17:20:36.479151+05:30
Mussoorie,Uttarakhand,30.4599,78.0664,12.8,72,0.0,800.3,7.3,40.0,142,44.5,20.4,0.8,173.0,172.0,7.2,3,5,7,0,2026-05-06T17:20:36.479158+05:30
Dharamshala,Himachal Pradesh,32.219,76.3234,18.8,51,0.0,867.0,8.15,40.3,127,18.7,9.8,0.3,206.0,158.0,0.8,0,5,7,0,2026-05-06T17:20:36.479164+05:30
Dalhousie,Himachal Pradesh,32.5387,75.971,15.9,52,0.0,802.6,8.35,38.2,137,26.8,12.1,0.2,191.0,168.0,2.4,0,5,7,0,2026-05-06T17:20:36.479170+05:30
Patiala,Punjab,30.3398,76.3869,30.4,33,0.0,975.9,7.45,41.0,163,429.3,52.9,1.3,214.0,172.0,6.7,0,5,7,0,2026-05-06T17:20:36.479176+05:30
Bhatinda,Punjab,30.211,74.9455,35.0,22,0.0,980.6,8.1,31.3,153,109.7,30.0,1.8,221.0,179.0,11.8,0,5,7,0,2026-05-06T17:20:36.479181+05:30
Rohtak,Haryana,28.8955,76.6066,34.2,22,0.0,978.8,7.55,43.2,164,376.3,50.4,1.4,219.0,175.0,5.8,0,5,7,0,2026-05-06T17:20:36.479187+05:30
Panipat,Haryana,29.3909,76.9635,32.8,26,0.0,977.8,7.4,40.7,277,760.0,80.1,3.4,207.0,171.0,11.1,0,5,7,0,2026-05-06T17:20:36.479193+05:30
Mathura,Uttar Pradesh,27.4924,77.6737,33.8,26,0.0,983.8,7.8,27.4,163,499.2,66.4,1.4,243.0,190.0,9.2,0,5,7,0,2026-05-06T17:20:36.479198+05:30
Vrindavan,Uttar Pradesh,27.5823,77.7027,34.2,23,0.0,984.3,7.8,27.4,163,499.2,66.4,1.4,230.0,190.0,9.2,0,5,7,0,2026-05-06T17:20:36.479203+05:30
Ayodhya,Uttar Pradesh,26.7922,82.1998,22.9,81,0.0,994.4,8.2,53.6,133,44.9,20.8,1.9,274.0,150.0,4.2,3,5,7,1,2026-05-06T17:20:36.479208+05:30
Ratlam,Madhya Pradesh,23.3315,75.0367,36.0,17,0.0,951.8,8.45,29.5,112,39.7,12.6,0.2,156.0,156.0,3.0,0,5,10,0,2026-05-06T17:20:36.479214+05:30
Sagar,Madhya Pradesh,23.8388,78.7378,35.0,15,0.0,947.4,8.65,35.3,127,30.3,12.5,0.3,172.0,160.0,4.2,0,5,7,0,2026-05-06T17:20:36.479220+05:30
Satna,Madhya Pradesh,24.6005,80.8322,32.8,28,0.0,968.6,8.7,33.1,135,56.0,22.2,0.7,214.0,162.0,4.3,0,5,7,0,2026-05-06T17:20:36.479225+05:30
Akola,Maharashtra,20.7002,77.0082,38.8,15,0.0,970.2,8.85,30.2,132,41.9,15.4,1.0,157.0,161.0,9.2,0,5,10,0,2026-05-06T17:20:36.479231+05:30
Amravati,Maharashtra,20.9374,77.7796,38.3,13,0.0,963.0,8.85,42.1,120,42.3,17.5,1.7,157.0,173.0,6.6,0,5,10,0,2026-05-06T17:20:36.479237+05:30
Latur,Maharashtra,18.4088,76.5604,36.3,16,0.0,936.3,9.05,34.9,89,44.0,16.7,0.4,161.0,145.0,9.3,0,5,10,0,2026-05-06T17:20:36.479242+05:30
Nanded,Maharashtra,19.1383,77.3091,38.0,16,0.0,964.1,9.0,29.5,101,43.1,16.0,0.2,131.0,147.0,3.9,0,5,10,0,2026-05-06T17:20:36.479247+05:30
Gulbarga,Karnataka,17.3297,76.8343,37.1,19,0.0,954.2,9.1,35.6,122,47.0,19.6,2.3,157.0,161.0,5.0,0,5,10,0,2026-05-06T17:20:36.479252+05:30
Bidar,Karnataka,17.9104,77.5199,35.2,23,0.0,932.5,9.15,32.8,107,54.4,22.5,1.2,163.0,150.0,4.0,0,5,10,0,2026-05-06T17:20:36.479257+05:30
Hospet,Karnataka,15.2689,76.3909,35.0,27,0.0,951.2,8.85,34.9,90,37.8,20.2,2.9,171.0,175.0,7.7,0,5,7,0,2026-05-06T17:20:36.479262+05:30
Tirupur,Tamil Nadu,11.1085,77.3411,35.0,36,0.0,970.4,9.35,39.6,139,43.7,24.2,2.7,255.0,174.0,4.9,0,5,7,1,2026-05-06T17:20:36.479267+05:30
Alappuzha,Kerala,9.4981,76.3388,29.3,80,0.0,1004.2,8.65,37.1,66,38.0,19.8,4.5,128.0,103.0,2.5,7,5,4,1,2026-05-06T17:20:36.479272+05:30
Munnar,Kerala,10.0889,77.0595,20.4,87,0.0,854.2,6.35,21.6,90,36.8,21.6,3.0,207.0,130.0,2.8,3,5,7,1,2026-05-06T17:20:36.479277+05:30
Silchar,Assam,24.8333,92.7789,29.0,74,0.0,1002.7,8.75,19.8,111,27.0,20.2,4.4,316.0,106.0,4.1,7,5,4,1,2026-05-06T17:20:36.479282+05:30
Dibrugarh,Assam,27.4728,94.912,24.5,83,0.0,994.7,8.8,28.1,86,36.0,24.0,6.2,258.0,118.0,1.9,3,5,7,1,2026-05-06T17:20:36.479287+05:30
