city,state,latitude,longitude,temp,humidity,rain,pressure,uv_index,wind_gusts,aqi,pm10,pm2_5,no2,co,o3,so2,mosquito_risk,arthritis_risk,migraine_risk,frizz_risk,updated_at
Delhi,Delhi,28.6139,77.209,29.6,78,0.0,974.9,5.65,28.1,95,15.3,15.1,14.6,534.0,136.0,20.3,7,5,3,1,2026-07-21T17:18:04.781110+05:30
Mumbai,Maharashtra,19.076,72.8777,25.4,92,0.2,1004.2,7.15,56.9,62,32.8,14.6,9.2,296.0,48.0,5.4,10,5,4,1,2026-07-21T17:18:04.781154+05:30
Bangalore,Karnataka,12.9716,77.5946,26.9,64,0.0,910.6,8.4,47.9,40,17.4,8.9,7.3,335.0,67.0,2.6,7,5,7,1,2026-07-21T17:18:04.781170+05:30
Hyderabad,Telangana,17.385,78.4867,25.5,82,0.0,949.9,3.95,39.2,41,20.7,13.5,12.4,354.0,57.0,4.8,7,5,3,1,2026-07-21T17:18:04.781179+05:30
Chennai,Tamil Nadu,13.0827,80.2707,32.7,60,0.0,1003.5,7.75,30.2,75,41.0,26.9,5.4,318.0,142.0,5.2,0,5,4,1,2026-07-21T17:18:04.781188+05:30
Kolkata,West Bengal,22.5726,88.3639,27.1,92,0.1,999.9,5.65,28.1,60,13.5,13.3,10.6,488.0,77.0,7.1,10,5,3,1,2026-07-21T17:18:04.781195+05:30
Pune,Maharashtra,18.5204,73.8567,24.1,87,0.1,943.8,2.7,56.9,26,7.5,4.4,6.7,180.0,41.0,3.7,6,5,3,1,2026-07-21T17:18:04.781202+05:30
Ahmedabad,Gujarat,23.0225,72.5714,33.0,56,0.0,993.4,4.9,34.2,64,55.5,23.0,4.8,170.0,73.0,4.8,0,5,3,1,2026-07-21T17:18:04.781208+05:30
Jaipur,Rajasthan,26.9124,75.7873,28.3,81,0.1,951.8,1.1,23.8,64,27.2,12.2,6.9,304.0,87.0,3.6,10,5,3,1,2026-07-21T17:18:04.781215+05:30
Lucknow,Uttar Pradesh,26.8467,80.9462,28.4,89,0.1,986.1,6.05,38.9,66,22.2,22.0,6.5,340.0,133.0,10.3,10,5,7,1,2026-07-21T17:18:04.781237+05:30
Kanpur,Uttar Pradesh,26.4499,80.3319,29.3,80,0.1,983.9,7.35,32.4,68,14.3,14.2,6.7,221.0,128.0,8.8,10,5,7,1,2026-07-21T17:18:04.781248+05:30
Chandigarh,Chandigarh,30.7333,76.7794,30.0,75,0.0,962.2,6.0,33.1,69,12.9,12.7,4.4,432.0,138.0,5.5,7,5,3,1,2026-07-21T17:18:04.781255+05:30
Srinagar,Jammu and Kashmir,34.0837,74.7973,20.1,94,0.2,838.8,7.0,21.2,56,9.9,9.5,10.9,677.0,88.0,2.8,6,5,7,1,2026-07-21T17:18:04.781261+05:30
Jammu,Jammu and Kashmir,32.7266,74.857,27.9,82,0.0,966.1,5.8,32.4,98,18.5,12.8,7.5,304.0,102.0,4.1,7,5,3,1,2026-07-21T17:18:04.781268+05:30
Amritsar,Punjab,31.634,74.8723,31.6,68,0.0,973.4,8.25,42.5,111,17.1,14.3,5.2,400.0,128.0,3.8,3,5,7,1,2026-07-21T17:18:04.781276+05:30
Ludhiana,Punjab,30.901,75.8573,31.0,73,0.0,971.6,3.2,42.1,80,14.9,14.7,3.9,402.0,138.0,6.7,3,5,3,1,2026-07-21T17:18:04.781282+05:30
Jalandhar,Punjab,31.326,75.5762,31.2,71,0.0,972.7,6.1,38.2,89,11.7,11.6,2.6,431.0,144.0,6.6,3,5,7,1,2026-07-21T17:18:04.781289+05:30
Dehradun,Uttarakhand,30.6284,78.0322,21.8,85,0.1,827.8,3.65,25.2,57,3.0,2.9,1.1,238.0,118.0,0.7,6,5,3,1,2026-07-21T17:18:04.781295+05:30
Shimla,Himachal Pradesh,31.1048,77.1734,19.5,85,0.1,782.8,6.1,21.2,48,3.8,3.6,3.9,270.0,110.0,1.0,6,10,7,1,2026-07-21T17:18:04.781301+05:30
Manali,Himachal Pradesh,32.2396,77.1887,22.2,99,0.0,817.5,5.8,24.1,49,0.8,0.6,1.7,205.0,109.0,0.8,3,5,3,1,2026-07-21T17:18:04.781309+05:30
Gurgaon,Haryana,28.4595,77.0266,29.5,79,0.1,973.2,5.9,29.2,90,13.2,12.9,12.1,594.0,133.0,14.1,10,5,3,1,2026-07-21T17:18:04.781315+05:30
Noida,Uttar Pradesh,28.5355,77.391,29.9,77,0.0,976.4,6.25,31.7,90,13.2,12.9,12.1,363.0,133.0,14.1,7,5,7,1,2026-07-21T17:18:04.781321+05:30
Ghaziabad,Uttar Pradesh,28.6692,77.4538,30.0,76,0.0,974.7,2.9,33.5,78,12.5,12.4,5.1,249.0,129.0,8.4,7,5,3,1,2026-07-21T17:18:04.781328+05:30
Faridabad,Haryana,28.4089,77.3178,29.4,79,0.0,975.6,6.7,32.8,90,13.2,12.9,12.1,389.0,133.0,14.1,7,5,7,1,2026-07-21T17:18:04.781333+05:30
Meerut,Uttar Pradesh,28.9845,77.7064,29.4,80,0.1,973.9,6.45,43.6,78,12.5,12.4,5.1,307.0,129.0,8.4,10,5,7,1,2026-07-21T17:18:04.781340+05:30
Agra,Uttar Pradesh,27.1767,78.0081,31.1,69,0.0,979.3,6.95,20.9,65,20.3,14.9,3.2,255.0,132.0,4.1,3,5,7,1,2026-07-21T17:18:04.781345+05:30
Varanasi,Uttar Pradesh,25.3176,82.9739,30.2,79,0.1,990.0,8.6,39.2,86,25.1,24.3,5.2,466.0,129.0,13.2,6,5,7,1,2026-07-21T17:18:04.781352+05:30
Prayagraj,Uttar Pradesh,25.4358,81.8463,28.5,89,0.1,988.3,7.7,32.8,96,25.6,24.9,6.0,272.0,149.0,13.9,10,5,7,1,2026-07-21T17:18:04.781359+05:30
Gorakhpur,Uttar Pradesh,26.7606,83.3732,29.8,78,0.1,990.8,7.55,40.7,66,23.5,22.6,5.5,275.0,114.0,4.6,10,5,7,1,2026-07-21T17:18:04.781365+05:30
Bareilly,Uttar Pradesh,28.367,79.4304,27.9,88,0.2,980.2,4.5,50.8,59,11.2,11.1,6.3,342.0,112.0,8.7,10,5,3,1,2026-07-21T17:18:04.781373+05:30
Aligarh,Uttar Pradesh,27.8974,78.088,28.9,86,0.1,977.6,7.05,27.7,79,9.9,9.4,6.3,188.0,120.0,6.2,10,5,7,1,2026-07-21T17:18:04.781379+05:30
Moradabad,Uttar Pradesh,28.8386,78.7733,27.1,91,0.2,977.1,6.15,51.8,62,11.5,11.4,6.5,325.0,105.0,5.9,10,5,7,1,2026-07-21T17:18:04.781386+05:30
Saharanpur,Uttar Pradesh,29.9637,77.546,30.8,72,0.0,968.5,6.35,46.1,87,10.9,10.9,3.1,339.0,117.0,3.0,3,5,7,1,2026-07-21T17:18:04.781392+05:30
Jhansi,Uttar Pradesh,25.4484,78.5685,31.0,63,0.0,969.4,5.5,15.8,67,31.4,18.2,2.9,165.0,136.0,11.1,3,5,3,1,2026-07-21T17:18:08.089199+05:30
Surat,Gujarat,21.1702,72.8311,27.4,89,0.0,1000.0,4.35,52.2,69,24.8,19.1,26.7,338.0,23.0,42.9,7,5,0,1,2026-07-21T17:18:08.089232+05:30
Vadodara,Gujarat,22.3072,73.1812,28.2,86,0.1,996.7,4.95,34.9,61,33.2,17.9,13.1,178.0,48.0,5.1,10,5,3,1,2026-07-21T17:18:08.089243+05:30
Rajkot,Gujarat,22.3039,70.8022,27.8,89,0.2,986.1,5.25,38.9,62,24.1,12.0,3.4,107.0,65.0,3.8,10,5,3,1,2026-07-21T17:18:08.089251+05:30
Thane,Maharashtra,19.2183,72.9781,26.2,91,0.0,1003.4,6.25,46.8,62,32.8,14.6,9.2,312.0,48.0,5.4,7,5,4,1,2026-07-21T17:18:08.089259+05:30
Nagpur,Maharashtra,21.1458,79.0882,25.8,92,0.3,967.4,1.0,31.3,53,7.1,6.6,11.5,224.0,46.0,8.7,10,5,3,1,2026-07-21T17:18:08.089267+05:30
Nashik,Maharashtra,19.9975,73.7898,23.8,92,0.1,940.1,1.6,57.2,24,8.7,5.3,6.5,151.0,45.0,1.7,6,5,3,1,2026-07-21T17:18:08.089276+05:30
Aurangabad,Maharashtra,19.8762,75.3433,24.3,91,0.1,939.0,2.85,50.8,30,10.6,6.9,5.5,140.0,63.0,5.1,6,5,3,1,2026-07-21T17:18:08.089283+05:30
Solapur,Maharashtra,17.6599,75.9064,28.1,64,0.0,953.8,4.6,53.3,31,18.7,8.9,2.8,134.0,59.0,1.4,7,5,3,1,2026-07-21T17:18:08.089291+05:30
Kolhapur,Maharashtra,16.705,74.2433,23.2,89,0.1,945.4,6.4,54.4,30,9.5,6.1,4.5,135.0,44.0,1.6,6,5,7,1,2026-07-21T17:18:08.089300+05:30
Goa,Goa,15.2993,74.124,25.5,96,0.4,997.4,7.35,33.5,58,22.4,11.3,1.8,109.0,50.0,1.0,10,5,7,1,2026-07-21T17:18:08.089308+05:30
Jodhpur,Rajasthan,26.2389,73.0243,36.3,41,0.0,973.3,7.15,35.6,86,93.6,27.8,1.2,117.0,93.0,1.9,0,5,10,1,2026-07-21T17:18:08.089315+05:30
Udaipur,Rajasthan,24.5854,73.7125,26.1,87,0.0,938.9,3.3,28.4,55,20.8,11.4,2.9,122.0,73.0,2.7,7,5,3,1,2026-07-21T17:18:08.089323+05:30
Kota,Rajasthan,25.2138,75.8648,26.6,95,0.5,970.6,2.6,28.8,61,9.3,7.7,4.8,223.0,85.0,4.1,10,5,3,1,2026-07-21T17:18:08.089331+05:30
Bikaner,Rajasthan,28.0229,73.3119,33.1,58,0.3,972.8,8.0,36.4,78,94.1,27.1,0.9,117.0,86.0,2.3,3,5,7,1,2026-07-21T17:18:08.089338+05:30
Ajmer,Rajasthan,26.4499,74.6399,28.3,78,0.0,946.7,4.55,31.0,57,34.0,17.6,3.4,155.0,93.0,2.9,7,5,3,1,2026-07-21T17:18:08.089345+05:30
Gwalior,Madhya Pradesh,26.2183,78.1828,30.7,69,0.0,974.5,7.4,17.6,60,27.2,15.9,1.6,168.0,117.0,3.4,3,5,7,1,2026-07-21T17:18:08.089353+05:30
Indore,Madhya Pradesh,22.7196,75.8577,24.8,92,0.1,941.1,5.85,32.8,52,16.6,12.0,11.5,265.0,48.0,6.0,6,5,3,1,2026-07-21T17:18:08.089360+05:30
Bhopal,Madhya Pradesh,23.2599,77.4126,25.9,83,0.0,946.3,1.55,31.3,57,10.4,10.0,5.9,261.0,61.0,3.5,7,5,3,1,2026-07-21T17:18:08.089368+05:30
Jabalpur,Madhya Pradesh,23.1815,79.9864,25.8,91,0.0,954.2,5.8,20.9,51,4.2,4.1,6.1,211.0,68.0,2.8,7,5,3,1,2026-07-21T17:18:08.089375+05:30
Ujjain,Madhya Pradesh,23.1765,75.7885,25.1,89,0.1,946.6,4.2,27.0,52,17.6,12.9,5.8,214.0,57.0,5.4,10,5,3,1,2026-07-21T17:18:08.089382+05:30
Visakhapatnam,Andhra Pradesh,17.6868,83.2185,29.4,72,0.0,998.2,8.75,40.7,66,13.4,12.3,22.1,349.0,44.0,38.2,7,5,7,1,2026-07-21T17:18:08.089389+05:30
Vijayawada,Andhra Pradesh,16.5062,80.648,30.8,63,0.0,998.5,5.0,49.3,59,35.2,16.9,4.4,158.0,70.0,5.2,3,5,3,1,2026-07-21T17:18:08.089396+05:30
Guntur,Andhra Pradesh,16.3067,80.4365,33.3,49,0.0,999.5,4.75,51.8,56,34.0,16.2,3.7,139.0,66.0,5.4,0,5,3,1,2026-07-21T17:18:08.089403+05:30
Nellore,Andhra Pradesh,14.4426,79.9865,35.0,44,0.0,1001.7,6.8,40.3,54,30.0,15.7,5.1,130.0,88.0,4.9,0,5,4,1,2026-07-21T17:18:08.089411+05:30
Kurnool,Andhra Pradesh,15.8281,78.0373,30.3,61,0.0,973.6,4.55,52.2,43,29.1,12.4,2.1,132.0,72.0,1.5,3,5,3,1,2026-07-21T17:18:08.089419+05:30
Kakinada,Andhra Pradesh,16.9891,82.2475,30.6,66,0.0,1002.7,6.85,55.1,56,22.8,11.8,3.6,199.0,80.0,4.1,3,5,4,1,2026-07-21T17:18:08.089427+05:30
Tirupati,Andhra Pradesh,13.6288,79.4192,33.0,53,0.0,987.7,8.0,34.2,57,26.0,12.3,7.3,118.0,65.0,1.5,0,5,7,1,2026-07-21T17:18:08.089433+05:30
Warangal,Telangana,17.9689,79.5941,27.4,80,0.0,975.1,3.5,46.8,46,15.7,12.1,8.6,188.0,48.0,3.7,7,5,3,1,2026-07-21T17:18:08.089440+05:30
Nizamabad,Telangana,18.6725,78.0941,25.2,94,0.3,960.5,2.55,39.2,43,18.7,11.9,6.9,159.0,57.0,4.9,10,5,3,1,2026-07-21T17:18:08.089447+05:30
Mysore,Karnataka,12.2958,76.6396,27.0,64,0.0,927.8,8.0,47.2,30,10.3,5.8,3.2,136.0,65.0,1.5,7,5,7,1,2026-07-21T17:18:08.089454+05:30
Mangalore,Karnataka,12.9141,74.856,27.0,85,0.0,1006.9,7.85,32.4,53,18.8,10.3,1.2,100.0,50.0,1.4,7,5,4,1,2026-07-21T17:18:08.089461+05:30
Hubli-Dharwad,Karnataka,15.3647,75.124,25.6,74,0.0,939.4,5.9,58.0,24,9.2,5.4,2.4,114.0,53.0,0.9,7,5,3,1,2026-07-21T17:18:08.089468+05:30
Belgaum,Karnataka,15.8497,74.4977,22.4,91,0.0,924.0,7.75,54.7,23,8.3,4.7,2.7,120.0,46.0,1.3,3,5,7,1,2026-07-21T17:18:11.374538+05:30
Coimbatore,Tamil Nadu,11.0168,76.9558,28.9,65,0.0,960.2,8.8,51.1,38,9.8,6.5,3.3,148.0,65.0,2.3,7,5,7,1,2026-07-21T17:18:11.374571+05:30
Madurai,Tamil Nadu,9.9252,78.1198,36.4,33,0.1,990.0,8.5,29.2,57,29.6,12.1,2.8,160.0,94.0,2.2,3,5,10,1,2026-07-21T17:18:11.374585+05:30
Trichy,Tamil Nadu,10.7905,78.7047,36.1,36,0.0,996.5,8.8,46.1,45,28.5,12.7,2.6,118.0,85.0,2.1,0,5,10,1,2026-07-21T17:18:11.374596+05:30
Salem,Tamil Nadu,11.6643,78.146,33.1,49,0.0,974.8,8.2,23.8,58,31.9,14.7,3.6,135.0,94.0,4.8,0,5,7,1,2026-07-21T17:18:11.374607+05:30
Tirunelveli,Tamil Nadu,8.7139,77.7567,35.5,40,0.0,1000.6,8.65,41.8,42,16.2,12.2,2.5,121.0,76.0,1.8,0,5,7,1,2026-07-21T17:18:11.374616+05:30
Vellore,Tamil Nadu,12.9165,79.1325,33.3,47,0.0,981.3,7.8,39.6,63,34.7,16.2,4.9,142.0,87.0,2.4,0,5,7,1,2026-07-21T17:18:11.374625+05:30
Erode,Tamil Nadu,11.341,77.7172,33.3,48,0.1,986.5,8.8,40.0,52,20.6,10.9,3.5,165.0,89.0,2.4,3,5,7,1,2026-07-21T17:18:11.374634+05:30
Kochi,Kerala,9.9312,76.2673,28.0,84,0.0,1008.7,8.65,30.2,57,16.6,10.5,4.1,125.0,53.0,3.0,7,0,4,1,2026-07-21T17:18:11.374643+05:30
Thiruvananthapuram,Kerala,8.5241,76.9366,28.3,78,0.0,1007.8,8.0,36.7,54,18.6,12.1,5.0,109.0,62.0,1.6,7,5,4,1,2026-07-21T17:18:11.374652+05:30
Kozhikode,Kerala,11.2588,75.7804,28.0,81,0.0,1007.9,8.4,30.2,36,12.5,6.4,0.8,110.0,51.0,1.2,7,5,4,1,2026-07-21T17:18:11.374660+05:30
Thrissur,Kerala,10.5276,76.2144,28.2,80,0.0,1007.0,8.5,32.0,54,10.4,7.1,2.6,98.0,48.0,1.8,7,5,4,1,2026-07-21T17:18:11.374669+05:30
Kannur,Kerala,11.8745,75.3704,28.1,79,0.0,1007.2,7.9,29.2,45,16.1,8.0,1.9,96.0,46.0,1.2,7,5,4,1,2026-07-21T17:18:11.374677+05:30
Patna,Bihar,25.5941,85.1376,30.1,75,0.1,993.9,8.0,44.6,75,17.1,16.5,6.1,293.0,125.0,8.2,6,5,7,1,2026-07-21T17:18:11.374686+05:30
Gaya,Bihar,24.7914,85.0002,28.4,87,0.1,986.9,6.9,37.4,69,7.0,6.8,3.4,311.0,98.0,3.8,10,5,7,1,2026-07-21T17:18:11.374694+05:30
Muzaffarpur,Bihar,26.1209,85.3647,30.7,71,0.0,994.0,8.25,42.8,73,20.5,19.8,7.2,269.0,120.0,7.5,3,5,7,1,2026-07-21T17:18:11.374702+05:30
Bhagalpur,Bihar,25.2425,87.0117,29.5,77,0.0,995.3,6.15,38.5,64,16.9,16.6,9.9,224.0,82.0,7.9,7,5,7,1,2026-07-21T17:18:11.374711+05:30
Ranchi,Jharkhand,23.3441,85.3096,25.3,84,0.0,931.5,7.6,38.9,61,4.7,4.6,7.8,249.0,86.0,13.0,7,5,7,1,2026-07-21T17:18:11.374719+05:30
Jamshedpur,Jharkhand,22.8046,86.2029,27.0,86,0.0,984.2,6.2,30.6,62,7.2,7.2,10.5,339.0,71.0,13.4,7,5,7,1,2026-07-21T17:18:11.374727+05:30
Dhanbad,Jharkhand,23.7957,86.4304,27.8,81,0.0,973.5,5.95,37.1,94,20.0,19.7,32.6,445.0,43.0,83.2,7,5,3,1,2026-07-21T17:18:11.374735+05:30
Bokaro,Jharkhand,23.6693,86.1511,28.2,79,0.0,977.3,6.45,41.4,104,19.7,19.5,36.3,688.0,45.0,101.0,7,5,7,1,2026-07-21T17:18:11.374744+05:30
Bhubaneswar,Odisha,20.2961,85.8245,26.7,94,0.4,996.5,8.25,31.0,78,16.7,15.8,9.9,355.0,103.0,7.0,10,5,7,1,2026-07-21T17:18:11.374752+05:30
Cuttack,Odisha,20.4625,85.8828,26.9,93,0.6,998.4,8.55,28.4,78,16.7,15.8,9.9,297.0,103.0,7.0,10,5,7,1,2026-07-21T17:18:11.374760+05:30
Rourkela,Odisha,22.2604,84.8536,26.1,92,0.1,978.7,1.1,23.4,87,9.4,9.2,10.1,472.0,106.0,14.5,10,5,3,1,2026-07-21T17:18:11.374768+05:30
Raipur,Chhattisgarh,21.2514,81.6296,25.2,96,0.3,968.5,1.55,34.9,83,17.1,16.6,29.5,426.0,38.0,48.3,10,5,3,1,2026-07-21T17:18:11.374776+05:30
Bhilai,Chhattisgarh,21.1938,81.3509,25.0,96,0.2,969.1,1.75,38.5,77,15.1,14.3,23.4,820.0,39.0,39.5,10,5,3,1,2026-07-21T17:18:11.374784+05:30
Guwahati,Assam,26.1158,91.7086,26.9,97,0.3,997.0,7.25,22.0,40,4.6,4.5,3.0,254.0,70.0,0.9,10,5,7,1,2026-07-21T17:18:11.374792+05:30
Agartala,Tripura,23.8315,91.2868,27.6,88,0.0,1001.6,7.5,35.6,51,8.8,8.5,7.7,176.0,64.0,1.5,7,5,4,1,2026-07-21T17:18:11.374801+05:30
Shillong,Meghalaya,25.5788,91.8933,22.6,76,0.0,855.6,6.95,20.9,33,4.6,4.4,4.3,171.0,64.0,1.8,3,5,7,1,2026-07-21T17:18:11.374809+05:30
Imphal,Manipur,24.817,93.9368,24.2,91,0.1,920.5,8.8,25.9,58,5.9,5.4,5.1,232.0,56.0,1.1,6,5,7,1,2026-07-21T17:18:11.374817+05:30
Aizawl,Mizoram,23.7271,92.7176,20.9,97,0.0,889.4,8.5,24.5,30,3.6,3.4,3.7,133.0,51.0,0.3,3,5,7,1,2026-07-21T17:18:11.374825+05:30
Kohima,Nagaland,25.6701,94.1077,21.5,97,0.0,853.9,8.6,22.7,34,4.7,4.6,3.3,148.0,66.0,0.6,3,5,7,1,2026-07-21T17:18:11.374833+05:30
Gangtok,Sikkim,27.3314,88.6138,19.5,100,0.1,836.4,6.8,25.6,31,2.1,2.1,4.7,190.0,70.0,0.6,6,10,7,1,2026-07-21T17:18:11.374841+05:30
Siliguri,West Bengal,26.7271,88.3953,30.4,71,0.0,988.2,6.9,41.0,49,6.3,6.1,6.7,390.0,84.0,1.9,3,5,7,1,2026-07-21T17:18:14.692676+05:30
Durgapur,West Bengal,23.5204,87.3119,27.6,85,0.1,988.8,6.15,35.3,80,21.1,20.9,26.5,290.0,50.0,34.3,10,5,7,1,2026-07-21T17:18:14.692709+05:30
Asansol,West Bengal,23.6739,86.9524,27.0,92,0.1,987.2,7.2,34.6,79,19.1,18.9,29.0,284.0,48.0,40.7,10,5,7,1,2026-07-21T17:18:14.692721+05:30
Pondicherry,Puducherry,11.9139,79.8145,30.7,68,0.0,1005.0,8.05,36.4,81,37.4,26.7,17.2,224.0,113.0,11.8,3,5,4,1,2026-07-21T17:18:14.692731+05:30
Port Blair,Andaman and Nicobar Islands,11.6234,92.7265,28.1,80,0.0,1006.6,8.55,42.5,54,14.3,8.3,0.4,105.0,48.0,0.5,7,5,4,1,2026-07-21T17:18:14.692740+05:30
Haridwar,Uttarakhand,29.9457,78.1642,30.9,72,0.0,967.2,6.9,33.1,78,8.6,8.6,2.1,263.0,111.0,3.2,3,5,7,1,2026-07-21T17:18:14.692748+05:30
Rishikesh,Uttarakhand,30.0869,78.2676,29.2,81,0.0,960.2,5.2,21.2,56,6.0,6.0,1.6,279.0,107.0,2.1,7,5,3,1,2026-07-21T17:18:14.692756+05:30
Nainital,Uttarakhand,29.3919,79.4542,21.7,68,0.0,804.2,7.4,49.3,46,5.7,5.6,1.7,205.0,100.0,1.1,3,5,7,0,2026-07-21T17:18:14.692764+05:30
Mussoorie,Uttarakhand,30.4599,78.0664,19.6,96,0.1,800.7,3.45,31.3,68,6.9,6.9,1.3,277.0,118.0,2.0,6,10,3,1,2026-07-21T17:18:14.692772+05:30
Dharamshala,Himachal Pradesh,32.219,76.3234,24.7,77,0.0,865.9,1.6,36.7,46,3.0,2.2,2.1,270.0,105.0,0.8,3,5,3,1,2026-07-21T17:18:14.692779+05:30
Dalhousie,Himachal Pradesh,32.5387,75.971,20.1,91,0.0,803.0,1.95,31.7,74,13.2,8.0,3.6,283.0,131.0,2.5,3,5,3,1,2026-07-21T17:18:14.692786+05:30
Patiala,Punjab,30.3398,76.3869,30.6,73,0.0,971.0,5.9,29.5,76,17.5,17.3,4.0,348.0,143.0,6.7,3,5,3,1,2026-07-21T17:18:14.692794+05:30
Bhatinda,Punjab,30.211,74.9455,33.3,57,0.0,975.9,6.25,42.1,161,50.6,21.8,3.7,254.0,167.0,13.2,0,5,7,1,2026-07-21T17:18:14.692801+05:30
Rohtak,Haryana,28.8955,76.6066,31.0,68,0.0,973.5,1.1,26.6,94,14.7,14.5,11.1,295.0,147.0,17.8,3,5,3,1,2026-07-21T17:18:14.692807+05:30
Panipat,Haryana,29.3909,76.9635,29.3,82,0.0,972.8,1.3,30.6,92,12.3,12.2,7.6,295.0,136.0,13.9,7,5,3,1,2026-07-21T17:18:14.692814+05:30
Mathura,Uttar Pradesh,27.4924,77.6737,31.1,69,0.0,978.3,6.55,30.2,71,12.2,10.4,6.5,267.0,110.0,3.0,3,5,7,1,2026-07-21T17:18:14.692822+05:30
Vrindavan,Uttar Pradesh,27.5823,77.7027,31.2,69,0.0,978.7,6.4,29.5,71,12.2,10.4,6.5,265.0,110.0,3.0,3,5,7,1,2026-07-21T17:18:14.692829+05:30
Ayodhya,Uttar Pradesh,26.7922,82.1998,28.3,88,0.0,988.7,7.15,42.1,82,29.2,28.2,4.9,354.0,132.0,8.2,7,5,7,1,2026-07-21T17:18:14.692836+05:30
Ratlam,Madhya Pradesh,23.3315,75.0367,24.9,94,0.5,947.5,0.95,27.7,51,16.9,10.8,4.3,131.0,62.0,6.0,6,5,3,1,2026-07-21T17:18:14.692843+05:30
Sagar,Madhya Pradesh,23.8388,78.7378,25.8,85,0.1,942.4,1.35,32.0,51,7.8,6.2,1.6,188.0,96.0,1.7,10,5,3,1,2026-07-21T17:18:14.692850+05:30
Satna,Madhya Pradesh,24.6005,80.8322,29.0,75,0.0,963.6,5.75,20.2,56,21.5,11.5,0.7,168.0,116.0,2.4,7,5,3,1,2026-07-21T17:18:14.692857+05:30
Akola,Maharashtra,20.7002,77.0082,26.4,93,0.2,969.4,1.5,44.3,34,8.6,6.7,9.1,144.0,45.0,3.6,10,5,3,1,2026-07-21T17:18:14.692865+05:30
Amravati,Maharashtra,20.9374,77.7796,25.4,94,0.2,961.6,1.15,47.2,35,7.6,5.8,9.6,130.0,43.0,4.1,10,5,3,1,2026-07-21T17:18:14.692873+05:30
Latur,Maharashtra,18.4088,76.5604,25.3,82,0.1,935.9,2.4,46.8,34,17.5,9.6,3.0,143.0,61.0,1.3,10,5,3,1,2026-07-21T17:18:14.692880+05:30
Nanded,Maharashtra,19.1383,77.3091,26.9,83,0.0,964.1,1.15,35.3,41,27.5,14.0,4.4,169.0,61.0,2.7,7,5,3,1,2026-07-21T17:18:14.692888+05:30
Gulbarga,Karnataka,17.3297,76.8343,26.3,83,0.0,955.5,3.5,55.1,38,19.6,10.2,5.3,129.0,66.0,2.2,7,5,3,1,2026-07-21T17:18:14.692895+05:30
Bidar,Karnataka,17.9104,77.5199,24.4,91,0.1,931.7,4.3,50.8,34,18.0,10.8,7.7,166.0,57.0,1.9,6,5,3,1,2026-07-21T17:18:14.692902+05:30
Hospet,Karnataka,15.2689,76.3909,29.2,57,0.0,953.7,4.7,51.8,26,11.3,5.7,2.7,122.0,57.0,1.5,4,5,3,1,2026-07-21T17:18:14.692908+05:30
Tirupur,Tamil Nadu,11.1085,77.3411,30.7,58,0.0,973.1,8.75,56.2,54,17.8,10.3,3.3,144.0,86.0,3.0,0,5,7,1,2026-07-21T17:18:14.692915+05:30
Alappuzha,Kerala,9.4981,76.3388,28.2,83,0.0,1008.7,8.55,31.7,55,17.7,11.4,5.2,93.0,54.0,2.9,7,0,4,1,2026-07-21T17:18:14.692922+05:30
Munnar,Kerala,10.0889,77.0595,19.0,90,0.1,857.2,9.0,33.8,33,10.2,6.8,3.5,112.0,65.0,1.9,6,10,7,1,2026-07-21T17:18:14.692929+05:30
Silchar,Assam,24.8333,92.7789,28.7,85,0.1,1000.9,7.9,27.0,64,10.1,9.3,2.9,186.0,83.0,3.7,10,5,4,1,2026-07-21T17:18:14.692936+05:30
Dibrugarh,Assam,27.4728,94.912,31.8,71,0.0,989.3,8.7,31.0,71,10.3,9.8,3.5,207.0,97.0,1.5,3,5,7,1,2026-07-21T17:18:14.692943+05:30
