city,state,latitude,longitude,temp,humidity,rain,pressure,uv_index,wind_gusts,aqi,pm10,pm2_5,no2,co,o3,so2,mosquito_risk,arthritis_risk,migraine_risk,frizz_risk,updated_at
Delhi,Delhi,28.6139,77.209,29.2,66,0.0,975.1,7.7,36.0,183,229.6,124.8,67.0,932.0,19.0,33.9,7,5,7,1,2026-05-14T03:45:27.041319+05:30
Mumbai,Maharashtra,19.076,72.8777,29.6,74,0.0,1003.3,7.9,45.0,73,27.9,16.2,6.1,340.0,73.0,6.2,7,5,4,1,2026-05-14T03:45:27.041366+05:30
Bangalore,Karnataka,12.9716,77.5946,24.2,66,0.0,907.1,9.45,37.1,78,23.4,20.4,33.2,336.0,43.0,9.6,3,5,7,1,2026-05-14T03:45:27.041384+05:30
Hyderabad,Telangana,17.385,78.4867,29.0,53,0.0,948.6,8.55,24.5,68,23.5,18.5,13.2,269.0,60.0,6.8,4,5,7,1,2026-05-14T03:45:27.041395+05:30
Chennai,Tamil Nadu,13.0827,80.2707,28.1,85,0.0,1000.7,8.45,42.8,26,11.9,9.1,8.9,353.0,35.0,4.8,7,5,4,1,2026-05-14T03:45:27.041405+05:30
Kolkata,West Bengal,22.5726,88.3639,27.8,85,0.0,1000.5,9.0,36.0,55,8.8,7.2,6.0,165.0,32.0,3.2,7,5,4,1,2026-05-14T03:45:27.041414+05:30
Pune,Maharashtra,18.5204,73.8567,25.1,79,0.0,943.6,8.55,42.5,75,43.3,24.7,16.8,263.0,54.0,19.2,7,5,7,1,2026-05-14T03:45:27.041423+05:30
Ahmedabad,Gujarat,23.0225,72.5714,31.5,43,0.0,995.5,8.15,42.8,75,18.8,12.8,5.9,179.0,60.0,3.4,0,5,7,1,2026-05-14T03:45:27.041434+05:30
Jaipur,Rajasthan,26.9124,75.7873,30.5,34,0.0,952.5,8.25,41.4,123,168.1,55.6,17.8,345.0,41.0,8.2,0,5,7,0,2026-05-14T03:45:27.041443+05:30
Lucknow,Uttar Pradesh,26.8467,80.9462,27.8,56,0.0,986.7,8.2,29.9,159,150.9,91.7,30.9,577.0,40.0,14.6,4,5,7,1,2026-05-14T03:45:27.041452+05:30
Kanpur,Uttar Pradesh,26.4499,80.3319,29.5,48,0.0,984.7,8.2,26.3,160,120.6,74.5,18.0,474.0,57.0,11.7,4,5,7,1,2026-05-14T03:45:27.041459+05:30
Chandigarh,Chandigarh,30.7333,76.7794,21.4,69,0.0,960.8,7.65,29.9,131,40.3,30.3,19.2,593.0,49.0,9.3,3,5,7,0,2026-05-14T03:45:27.041467+05:30
Srinagar,Jammu and Kashmir,34.0837,74.7973,9.1,100,0.0,838.9,8.65,31.7,63,25.6,24.3,17.0,443.0,28.0,0.1,3,10,7,0,2026-05-14T03:45:27.041476+05:30
Jammu,Jammu and Kashmir,32.7266,74.857,21.0,64,0.0,966.3,8.45,43.6,71,22.0,20.4,18.0,249.0,23.0,1.2,3,5,7,0,2026-05-14T03:45:27.041484+05:30
Amritsar,Punjab,31.634,74.8723,23.4,68,0.0,974.2,8.3,40.0,151,58.6,45.5,19.4,882.0,52.0,5.4,3,5,7,1,2026-05-14T03:45:27.041491+05:30
Ludhiana,Punjab,30.901,75.8573,24.0,67,0.0,971.5,7.9,42.5,154,44.1,36.8,16.4,630.0,50.0,6.9,3,5,7,1,2026-05-14T03:45:27.041498+05:30
Jalandhar,Punjab,31.326,75.5762,23.0,60,0.0,972.7,8.1,25.2,129,48.4,36.9,15.4,1052.0,54.0,4.5,0,5,7,0,2026-05-14T03:45:27.041506+05:30
Dehradun,Uttarakhand,30.6284,78.0322,11.6,94,0.0,821.7,8.1,41.8,71,18.5,15.6,26.9,317.0,15.0,0.8,3,10,7,0,2026-05-14T03:45:27.041515+05:30
Shimla,Himachal Pradesh,31.1048,77.1734,9.5,72,0.0,776.3,8.15,48.2,68,22.6,17.0,21.7,258.0,36.0,1.5,3,5,7,0,2026-05-14T03:45:27.041523+05:30
Manali,Himachal Pradesh,32.2396,77.1887,8.5,61,0.0,810.4,9.7,44.6,41,6.5,4.6,19.2,161.0,103.0,0.0,3,5,7,0,2026-05-14T03:45:27.041530+05:30
Gurgaon,Haryana,28.4595,77.0266,27.2,63,0.0,973.4,7.8,29.9,617,370.7,143.4,48.2,823.0,44.0,40.9,7,5,7,1,2026-05-14T03:45:27.041537+05:30
Noida,Uttar Pradesh,28.5355,77.391,26.5,80,0.0,976.5,7.7,29.5,617,370.7,143.4,48.2,931.0,44.0,40.9,7,5,7,1,2026-05-14T03:45:27.041546+05:30
Ghaziabad,Uttar Pradesh,28.6692,77.4538,25.8,84,0.0,974.9,7.7,27.7,166,226.8,115.9,37.2,936.0,45.0,22.1,7,5,7,1,2026-05-14T03:45:27.041553+05:30
Faridabad,Haryana,28.4089,77.3178,27.9,73,0.0,975.9,7.75,35.6,617,370.7,143.4,48.2,700.0,44.0,40.9,7,5,7,1,2026-05-14T03:45:27.041560+05:30
Meerut,Uttar Pradesh,28.9845,77.7064,27.5,77,0.0,973.9,7.6,27.0,166,226.8,115.9,37.2,743.0,45.0,22.1,7,5,7,1,2026-05-14T03:45:27.041567+05:30
Agra,Uttar Pradesh,27.1767,78.0081,28.1,64,0.0,980.5,7.95,38.9,491,484.3,124.8,14.2,543.0,67.0,14.2,7,5,7,1,2026-05-14T03:45:27.041589+05:30
Varanasi,Uttar Pradesh,25.3176,82.9739,26.9,72,0.0,991.5,8.7,28.4,158,82.0,73.6,18.6,551.0,75.0,15.6,7,5,7,1,2026-05-14T03:45:27.041596+05:30
Prayagraj,Uttar Pradesh,25.4358,81.8463,28.4,57,0.0,989.3,8.6,25.6,157,88.2,78.0,22.4,525.0,62.0,14.6,4,5,7,1,2026-05-14T03:45:27.041606+05:30
Gorakhpur,Uttar Pradesh,26.7606,83.3732,24.3,85,0.0,992.7,8.6,33.1,144,66.6,57.5,13.4,461.0,86.0,11.9,3,5,7,1,2026-05-14T03:45:27.041613+05:30
Bareilly,Uttar Pradesh,28.367,79.4304,25.8,80,0.0,979.1,8.0,29.9,159,230.5,112.9,42.6,548.0,47.0,22.7,7,5,7,1,2026-05-14T03:45:27.041620+05:30
Aligarh,Uttar Pradesh,27.8974,78.088,27.0,73,0.0,977.8,7.85,22.7,233,234.2,103.1,23.8,642.0,49.0,13.3,7,5,7,1,2026-05-14T03:45:27.041627+05:30
Moradabad,Uttar Pradesh,28.8386,78.7733,25.6,84,0.0,975.9,7.8,33.1,159,191.9,109.7,47.0,643.0,23.0,14.8,7,5,7,1,2026-05-14T03:45:27.041634+05:30
Saharanpur,Uttar Pradesh,29.9637,77.546,24.1,71,0.0,967.8,7.3,30.6,160,130.4,79.6,30.3,827.0,63.0,16.5,3,5,7,1,2026-05-14T03:45:27.041641+05:30
Jhansi,Uttar Pradesh,25.4484,78.5685,28.7,42,0.0,970.5,8.15,31.0,116,92.9,43.0,16.0,375.0,28.0,5.1,4,5,7,0,2026-05-14T03:45:30.381723+05:30
Surat,Gujarat,21.1702,72.8311,29.1,76,0.0,1000.5,7.7,42.5,86,26.2,21.6,32.9,508.0,37.0,47.9,7,5,4,1,2026-05-14T03:45:30.381766+05:30
Vadodara,Gujarat,22.3072,73.1812,29.5,76,0.0,997.8,8.15,39.2,80,26.9,20.1,17.8,193.0,42.0,22.8,7,5,7,1,2026-05-14T03:45:30.381780+05:30
Rajkot,Gujarat,22.3039,70.8022,28.0,60,0.0,988.7,7.75,58.7,61,21.2,14.8,4.8,158.0,65.0,5.1,4,5,7,1,2026-05-14T03:45:30.381792+05:30
Thane,Maharashtra,19.2183,72.9781,29.5,76,0.0,1002.7,7.95,40.7,73,27.9,16.2,6.1,343.0,73.0,6.2,7,5,4,1,2026-05-14T03:45:30.381803+05:30
Nagpur,Maharashtra,21.1458,79.0882,31.9,43,0.0,968.1,8.95,38.9,96,49.6,34.8,16.5,293.0,73.0,19.3,0,5,7,1,2026-05-14T03:45:30.381814+05:30
Nashik,Maharashtra,19.9975,73.7898,24.7,82,0.0,940.7,8.2,41.8,68,29.8,15.7,9.3,186.0,55.0,4.2,3,5,7,1,2026-05-14T03:45:30.381825+05:30
Aurangabad,Maharashtra,19.8762,75.3433,28.7,51,0.0,940.0,9.1,33.1,73,29.3,19.3,11.4,246.0,59.0,6.0,4,5,7,1,2026-05-14T03:45:30.381835+05:30
Solapur,Maharashtra,17.6599,75.9064,28.6,64,0.0,952.2,8.8,30.6,95,36.0,27.7,9.8,299.0,87.0,9.1,7,5,7,1,2026-05-14T03:45:30.381846+05:30
Kolhapur,Maharashtra,16.705,74.2433,24.6,90,0.0,943.6,8.95,42.1,67,33.6,20.4,9.7,175.0,52.0,3.8,3,5,7,1,2026-05-14T03:45:30.381857+05:30
Goa,Goa,15.2993,74.124,26.6,94,0.0,993.2,8.9,35.3,70,66.4,35.3,11.9,197.0,54.0,2.7,7,5,7,1,2026-05-14T03:45:30.381867+05:30
Jodhpur,Rajasthan,26.2389,73.0243,32.2,29,0.0,975.0,8.4,39.2,103,183.0,47.0,4.6,182.0,66.0,1.6,0,5,7,0,2026-05-14T03:45:30.381876+05:30
Udaipur,Rajasthan,24.5854,73.7125,29.2,39,0.0,940.6,8.85,39.2,65,64.7,28.3,4.3,179.0,64.0,3.7,4,5,7,0,2026-05-14T03:45:30.381886+05:30
Kota,Rajasthan,25.2138,75.8648,32.7,26,0.0,971.8,8.4,42.8,68,29.4,19.6,6.3,222.0,70.0,4.5,0,5,7,0,2026-05-14T03:45:30.381897+05:30
Bikaner,Rajasthan,28.0229,73.3119,28.1,48,0.0,973.7,8.35,27.0,109,101.5,47.4,4.3,244.0,93.0,16.1,4,5,7,0,2026-05-14T03:45:30.381907+05:30
Ajmer,Rajasthan,26.4499,74.6399,29.5,33,0.0,947.8,8.4,38.2,71,62.6,26.1,7.2,222.0,72.0,5.3,4,5,7,0,2026-05-14T03:45:30.381918+05:30
Gwalior,Madhya Pradesh,26.2183,78.1828,30.2,33,0.0,975.7,8.25,39.6,144,230.5,70.8,12.4,381.0,58.0,8.8,0,5,7,0,2026-05-14T03:45:30.381928+05:30
Indore,Madhya Pradesh,22.7196,75.8577,31.2,29,0.0,942.5,8.75,45.0,80,30.0,20.8,5.0,265.0,92.0,7.8,0,5,7,0,2026-05-14T03:45:30.381938+05:30
Bhopal,Madhya Pradesh,23.2599,77.4126,31.7,29,0.0,947.1,8.75,40.0,80,30.4,20.9,7.9,262.0,61.0,5.7,0,5,7,0,2026-05-14T03:45:30.381948+05:30
Jabalpur,Madhya Pradesh,23.1815,79.9864,29.8,45,0.0,955.3,8.9,34.2,93,85.0,44.1,41.1,267.0,23.0,7.2,4,5,7,1,2026-05-14T03:45:30.381958+05:30
Ujjain,Madhya Pradesh,23.1765,75.7885,31.0,31,0.0,948.0,8.65,44.3,66,32.2,21.4,4.2,304.0,98.0,9.2,0,5,7,0,2026-05-14T03:45:30.381969+05:30
Visakhapatnam,Andhra Pradesh,17.6868,83.2185,27.6,86,0.0,998.6,8.95,41.4,75,33.4,31.1,26.7,2250.0,15.0,84.8,7,5,7,1,2026-05-14T03:45:30.381979+05:30
Vijayawada,Andhra Pradesh,16.5062,80.648,28.7,81,0.0,997.5,8.5,32.8,52,17.3,15.7,15.0,189.0,21.0,6.3,7,5,7,1,2026-05-14T03:45:30.381989+05:30
Guntur,Andhra Pradesh,16.3067,80.4365,28.6,80,0.0,998.5,8.7,45.7,53,13.0,11.3,11.3,172.0,26.0,6.0,7,5,7,1,2026-05-14T03:45:30.381999+05:30
Nellore,Andhra Pradesh,14.4426,79.9865,26.9,94,0.0,1000.0,8.8,39.6,26,10.3,7.5,8.2,268.0,31.0,2.7,7,5,4,1,2026-05-14T03:45:30.382011+05:30
Kurnool,Andhra Pradesh,15.8281,78.0373,30.6,44,0.0,971.6,6.1,34.2,58,11.7,8.8,6.6,177.0,58.0,2.9,0,5,7,1,2026-05-14T03:45:30.382022+05:30
Kakinada,Andhra Pradesh,16.9891,82.2475,28.5,82,0.0,1002.2,6.4,43.9,32,7.6,4.8,1.8,194.0,45.0,0.9,7,5,4,1,2026-05-14T03:45:30.382032+05:30
Tirupati,Andhra Pradesh,13.6288,79.4192,26.0,82,0.0,985.1,9.25,37.1,52,27.7,25.7,31.7,311.0,0.0,5.0,7,5,7,1,2026-05-14T03:45:30.382042+05:30
Warangal,Telangana,17.9689,79.5941,28.4,66,0.0,973.3,8.2,33.1,71,16.1,13.9,12.5,172.0,40.0,11.0,7,5,7,1,2026-05-14T03:45:30.382053+05:30
Nizamabad,Telangana,18.6725,78.0941,29.6,59,0.1,960.7,8.75,29.2,81,36.7,28.5,12.2,254.0,80.0,6.7,7,5,7,1,2026-05-14T03:45:30.382063+05:30
Mysore,Karnataka,12.2958,76.6396,23.0,90,0.0,923.7,8.9,42.8,79,24.3,19.2,11.5,237.0,66.0,2.7,3,5,7,1,2026-05-14T03:45:30.382073+05:30
Mangalore,Karnataka,12.9141,74.856,27.5,91,0.0,1001.8,8.3,47.2,75,35.6,25.4,17.4,257.0,34.0,4.0,7,5,4,1,2026-05-14T03:45:30.382083+05:30
Hubli-Dharwad,Karnataka,15.3647,75.124,24.2,93,0.0,936.2,9.15,42.8,64,24.0,14.6,8.0,177.0,47.0,2.1,3,5,7,1,2026-05-14T03:45:30.382093+05:30
Belgaum,Karnataka,15.8497,74.4977,23.0,95,0.0,920.9,9.2,47.9,61,37.3,23.1,16.2,163.0,32.0,2.3,3,5,7,1,2026-05-14T03:45:33.739479+05:30
Coimbatore,Tamil Nadu,11.0168,76.9558,24.4,92,0.0,955.8,8.3,40.3,64,24.6,19.2,7.6,265.0,71.0,3.9,3,5,7,1,2026-05-14T03:45:33.739514+05:30
Madurai,Tamil Nadu,9.9252,78.1198,27.5,84,0.0,986.8,8.55,28.1,75,27.6,26.1,29.4,443.0,25.0,8.0,7,5,7,1,2026-05-14T03:45:33.739525+05:30
Trichy,Tamil Nadu,10.7905,78.7047,27.4,89,0.0,993.4,8.1,29.5,76,31.1,29.0,18.8,416.0,53.0,9.0,7,5,7,1,2026-05-14T03:45:33.739533+05:30
Salem,Tamil Nadu,11.6643,78.146,27.2,77,0.0,971.4,8.85,32.0,89,44.7,40.2,31.8,399.0,47.0,14.4,7,5,7,1,2026-05-14T03:45:33.739541+05:30
Tirunelveli,Tamil Nadu,8.7139,77.7567,28.0,73,0.0,997.0,7.3,22.0,56,16.9,13.0,6.0,286.0,63.0,3.3,7,5,7,1,2026-05-14T03:45:33.739547+05:30
Vellore,Tamil Nadu,12.9165,79.1325,26.7,83,0.0,978.5,7.25,31.3,69,42.8,39.5,37.4,275.0,9.0,12.6,7,5,7,1,2026-05-14T03:45:33.739554+05:30
Erode,Tamil Nadu,11.341,77.7172,26.7,83,0.0,983.0,8.5,31.0,90,31.9,26.5,26.4,285.0,40.0,3.9,7,5,7,1,2026-05-14T03:45:33.739562+05:30
Kochi,Kerala,9.9312,76.2673,26.9,93,0.0,1003.4,7.4,37.1,77,28.8,25.7,24.8,329.0,13.0,5.8,7,5,4,1,2026-05-14T03:45:33.739568+05:30
Thiruvananthapuram,Kerala,8.5241,76.9366,26.2,93,0.0,1003.0,6.45,30.2,51,19.1,11.2,2.8,300.0,91.0,1.6,7,5,4,1,2026-05-14T03:45:33.739596+05:30
Kozhikode,Kerala,11.2588,75.7804,25.9,99,0.0,1002.8,6.85,43.2,63,38.4,22.1,4.4,330.0,92.0,2.6,7,5,4,1,2026-05-14T03:45:33.739604+05:30
Thrissur,Kerala,10.5276,76.2144,25.7,97,0.0,1001.8,6.5,38.9,72,31.9,27.5,21.6,366.0,22.0,5.0,7,5,4,1,2026-05-14T03:45:33.739611+05:30
Kannur,Kerala,11.8745,75.3704,26.6,95,0.0,1001.9,8.9,49.0,75,36.1,29.4,17.7,395.0,33.0,3.1,7,5,4,1,2026-05-14T03:45:33.739618+05:30
Patna,Bihar,25.5941,85.1376,24.5,91,0.0,995.2,8.8,36.4,151,33.9,31.7,12.3,381.0,80.0,14.2,3,5,7,1,2026-05-14T03:45:33.739624+05:30
Gaya,Bihar,24.7914,85.0002,25.8,84,0.0,987.6,8.9,24.8,154,63.8,60.1,25.3,411.0,50.0,14.6,7,5,7,1,2026-05-14T03:45:33.739631+05:30
Muzaffarpur,Bihar,26.1209,85.3647,23.6,88,0.0,996.1,8.8,33.1,141,23.6,22.5,10.3,413.0,82.0,8.0,3,5,7,1,2026-05-14T03:45:33.739636+05:30
Bhagalpur,Bihar,25.2425,87.0117,23.4,95,0.0,996.8,8.8,33.8,114,27.1,23.3,10.6,346.0,83.0,11.8,3,5,7,1,2026-05-14T03:45:33.739643+05:30
Ranchi,Jharkhand,23.3441,85.3096,23.0,85,0.0,932.5,9.3,40.7,89,32.7,26.6,10.0,282.0,91.0,24.6,3,5,7,1,2026-05-14T03:45:33.739649+05:30
Jamshedpur,Jharkhand,22.8046,86.2029,26.4,85,0.0,985.7,9.15,37.1,91,22.8,19.7,21.4,241.0,39.0,19.9,7,5,7,1,2026-05-14T03:45:33.739655+05:30
Dhanbad,Jharkhand,23.7957,86.4304,26.1,87,0.0,973.9,9.05,25.2,142,56.2,50.2,45.4,591.0,48.0,103.9,7,5,7,1,2026-05-14T03:45:33.739662+05:30
Bokaro,Jharkhand,23.6693,86.1511,26.5,77,0.0,977.7,9.1,33.8,132,46.9,40.3,27.8,1671.0,79.0,69.4,7,5,7,1,2026-05-14T03:45:33.739669+05:30
Bhubaneswar,Odisha,20.2961,85.8245,27.8,85,0.0,997.8,9.2,49.7,34,8.8,7.6,7.3,160.0,28.0,2.5,7,5,7,1,2026-05-14T03:45:33.739675+05:30
Cuttack,Odisha,20.4625,85.8828,27.9,85,0.0,999.4,9.25,48.6,34,8.8,7.6,7.3,190.0,28.0,2.5,7,5,7,1,2026-05-14T03:45:33.739681+05:30
Rourkela,Odisha,22.2604,84.8536,26.1,84,0.0,979.8,9.05,48.6,83,28.0,24.5,24.4,145.0,43.0,19.8,7,5,7,1,2026-05-14T03:45:33.739688+05:30
Raipur,Chhattisgarh,21.2514,81.6296,29.2,54,0.0,969.3,9.05,41.0,104,47.0,35.5,26.6,478.0,65.0,35.5,4,5,7,1,2026-05-14T03:45:33.739695+05:30
Bhilai,Chhattisgarh,21.1938,81.3509,28.0,60,0.0,969.5,9.05,40.3,99,47.8,37.0,30.3,676.0,63.0,45.3,4,5,7,1,2026-05-14T03:45:33.739701+05:30
Guwahati,Assam,26.1158,91.7086,21.6,99,0.0,998.7,8.55,25.2,107,18.0,16.1,5.6,335.0,82.0,2.0,3,5,7,1,2026-05-14T03:45:33.739707+05:30
Agartala,Tripura,23.8315,91.2868,24.6,95,0.0,1002.1,8.85,30.2,67,10.3,7.8,11.3,185.0,31.0,1.7,3,5,4,1,2026-05-14T03:45:33.739713+05:30
Shillong,Meghalaya,25.5788,91.8933,15.2,98,0.0,852.4,8.95,34.6,58,3.6,2.5,3.5,244.0,86.0,1.8,3,10,7,0,2026-05-14T03:45:33.739720+05:30
Imphal,Manipur,24.817,93.9368,20.0,99,0.0,919.6,9.0,32.8,71,21.0,20.1,12.5,353.0,31.0,2.3,3,5,7,1,2026-05-14T03:45:33.739726+05:30
Aizawl,Mizoram,23.7271,92.7176,16.1,99,0.0,887.9,9.1,29.5,55,14.0,12.1,7.2,217.0,34.0,2.1,3,10,7,0,2026-05-14T03:45:33.739733+05:30
Kohima,Nagaland,25.6701,94.1077,15.4,95,0.0,850.9,8.7,28.8,59,8.7,7.3,7.6,226.0,51.0,1.2,3,10,7,0,2026-05-14T03:45:33.739740+05:30
Gangtok,Sikkim,27.3314,88.6138,13.0,89,0.0,831.9,8.45,38.2,55,14.5,14.0,15.4,447.0,64.0,1.8,3,10,7,0,2026-05-14T03:45:33.739746+05:30
Siliguri,West Bengal,26.7271,88.3953,21.2,98,0.0,989.8,8.65,27.7,97,35.9,33.5,11.3,304.0,92.0,4.9,3,5,7,1,2026-05-14T03:45:37.078092+05:30
Durgapur,West Bengal,23.5204,87.3119,26.8,88,0.0,989.2,9.0,32.0,96,21.0,19.8,26.6,366.0,15.0,37.0,7,5,7,1,2026-05-14T03:45:37.078127+05:30
Asansol,West Bengal,23.6739,86.9524,26.5,89,0.0,987.8,9.05,30.6,106,36.7,33.3,32.8,192.0,33.0,48.6,7,5,7,1,2026-05-14T03:45:37.078138+05:30
Pondicherry,Puducherry,11.9139,79.8145,27.3,93,0.0,1001.8,8.4,35.3,43,9.5,6.7,5.5,392.0,38.0,1.7,7,5,4,1,2026-05-14T03:45:37.078146+05:30
Port Blair,Andaman and Nicobar Islands,11.6234,92.7265,25.5,97,0.0,1002.7,5.7,34.9,20,4.6,2.9,0.2,102.0,46.0,0.2,7,5,0,1,2026-05-14T03:45:37.078154+05:30
Haridwar,Uttarakhand,29.9457,78.1642,23.5,69,0.0,966.2,7.5,36.7,152,72.4,57.6,36.7,351.0,13.0,6.2,3,5,7,1,2026-05-14T03:45:37.078161+05:30
Rishikesh,Uttarakhand,30.0869,78.2676,20.5,78,0.0,959.3,7.6,29.5,131,65.0,45.2,20.8,404.0,60.0,6.1,3,5,7,1,2026-05-14T03:45:37.078169+05:30
Nainital,Uttarakhand,29.3919,79.4542,11.9,100,0.0,798.3,8.45,42.8,141,68.9,51.3,23.7,228.0,45.0,4.7,3,10,7,0,2026-05-14T03:45:37.078177+05:30
Mussoorie,Uttarakhand,30.4599,78.0664,15.6,47,0.0,797.3,7.95,52.9,120,54.8,43.1,42.2,262.0,17.0,5.8,0,5,7,0,2026-05-14T03:45:37.078184+05:30
Dharamshala,Himachal Pradesh,32.219,76.3234,19.5,40,0.0,863.4,8.3,45.7,45,10.9,8.2,12.5,214.0,37.0,0.1,0,5,7,0,2026-05-14T03:45:37.078192+05:30
Dalhousie,Himachal Pradesh,32.5387,75.971,9.8,68,0.0,796.5,8.55,38.2,67,22.6,20.2,37.1,260.0,2.0,0.6,3,5,7,0,2026-05-14T03:45:37.078199+05:30
Patiala,Punjab,30.3398,76.3869,25.8,49,0.0,970.6,7.6,52.2,181,100.6,84.3,30.6,506.0,33.0,13.1,4,5,7,0,2026-05-14T03:45:37.078207+05:30
Bhatinda,Punjab,30.211,74.9455,27.4,46,0.0,976.5,8.2,47.5,165,84.1,54.2,14.5,526.0,52.0,5.8,4,5,7,0,2026-05-14T03:45:37.078214+05:30
Rohtak,Haryana,28.8955,76.6066,26.1,79,0.0,973.8,7.7,23.8,382,364.1,138.3,49.2,660.0,45.0,30.0,7,5,7,1,2026-05-14T03:45:37.078222+05:30
Panipat,Haryana,29.3909,76.9635,26.3,74,0.0,972.6,7.6,24.1,584,478.7,149.9,30.2,674.0,53.0,19.5,7,5,7,1,2026-05-14T03:45:37.078228+05:30
Mathura,Uttar Pradesh,27.4924,77.6737,27.2,71,0.0,979.2,7.95,41.4,435,312.9,107.3,20.2,539.0,58.0,12.7,7,5,7,1,2026-05-14T03:45:37.078236+05:30
Vrindavan,Uttar Pradesh,27.5823,77.7027,27.5,70,0.0,979.6,7.95,37.8,435,312.9,107.3,20.2,547.0,58.0,12.7,7,5,7,1,2026-05-14T03:45:37.078242+05:30
Ayodhya,Uttar Pradesh,26.7922,82.1998,25.7,80,0.0,989.9,8.35,30.2,155,106.6,78.9,30.0,442.0,42.0,11.6,7,5,7,1,2026-05-14T03:45:37.078249+05:30
Ratlam,Madhya Pradesh,23.3315,75.0367,28.9,42,0.0,948.9,8.6,41.0,62,36.3,23.4,4.9,237.0,96.0,12.3,4,5,7,0,2026-05-14T03:45:37.078256+05:30
Sagar,Madhya Pradesh,23.8388,78.7378,30.1,29,0.0,943.7,8.8,35.6,82,54.4,26.1,21.1,247.0,33.0,3.7,0,5,7,0,2026-05-14T03:45:37.078264+05:30
Satna,Madhya Pradesh,24.6005,80.8322,27.3,47,0.0,964.4,8.8,50.0,110,83.4,49.0,42.3,384.0,43.0,8.4,4,5,7,0,2026-05-14T03:45:37.078270+05:30
Akola,Maharashtra,20.7002,77.0082,32.0,45,0.0,969.1,8.95,44.6,95,49.2,36.2,23.1,253.0,52.0,7.6,0,5,7,1,2026-05-14T03:45:37.078278+05:30
Amravati,Maharashtra,20.9374,77.7796,31.4,44,0.0,961.6,8.95,48.6,91,45.4,30.3,12.2,271.0,74.0,5.0,0,5,7,1,2026-05-14T03:45:37.078285+05:30
Latur,Maharashtra,18.4088,76.5604,28.8,55,0.0,935.5,9.0,33.5,102,40.3,32.2,10.3,348.0,90.0,7.0,4,5,7,1,2026-05-14T03:45:37.078292+05:30
Nanded,Maharashtra,19.1383,77.3091,30.1,52,0.0,964.4,9.1,29.9,97,46.8,33.2,16.7,296.0,58.0,5.7,0,5,7,1,2026-05-14T03:45:37.078299+05:30
Gulbarga,Karnataka,17.3297,76.8343,29.5,54,0.0,954.0,8.85,30.2,82,45.6,32.4,23.7,303.0,53.0,8.2,4,5,7,1,2026-05-14T03:45:37.078306+05:30
Bidar,Karnataka,17.9104,77.5199,28.8,50,0.0,931.2,8.25,27.0,75,36.7,28.9,17.4,253.0,64.0,7.0,4,5,7,1,2026-05-14T03:45:37.078312+05:30
Hospet,Karnataka,15.2689,76.3909,26.8,82,0.0,951.2,8.8,56.5,80,17.9,13.9,11.9,189.0,47.0,2.5,7,5,7,1,2026-05-14T03:45:37.078319+05:30
Tirupur,Tamil Nadu,11.1085,77.3411,25.2,87,0.0,969.2,8.15,43.6,86,34.2,28.7,26.5,237.0,44.0,5.8,7,5,7,1,2026-05-14T03:45:37.078326+05:30
Alappuzha,Kerala,9.4981,76.3388,27.0,95,0.0,1003.5,7.85,34.9,71,30.4,20.8,12.0,146.0,61.0,4.8,7,5,4,1,2026-05-14T03:45:37.078333+05:30
Munnar,Kerala,10.0889,77.0595,17.1,98,0.0,851.9,7.6,26.3,64,11.5,10.3,7.4,210.0,46.0,1.2,3,10,7,1,2026-05-14T03:45:37.078341+05:30
Silchar,Assam,24.8333,92.7789,23.0,98,0.0,1001.6,8.9,28.8,88,24.2,21.5,11.8,278.0,43.0,3.3,3,5,4,1,2026-05-14T03:45:37.078348+05:30
Dibrugarh,Assam,27.4728,94.912,21.5,98,0.1,993.0,7.35,20.9,69,17.9,16.5,18.0,264.0,27.0,0.7,6,5,7,1,2026-05-14T03:45:37.078355+05:30
