city,state,latitude,longitude,temp,humidity,rain,pressure,uv_index,wind_gusts,aqi,pm10,pm2_5,no2,co,o3,so2,mosquito_risk,arthritis_risk,migraine_risk,frizz_risk,updated_at
Delhi,Delhi,28.6139,77.209,35.2,58,0.0,974.3,7.75,23.0,123,47.7,41.8,11.7,422.0,229.0,37.7,0,5,10,1,2026-07-06T13:53:10.062735+05:30
Mumbai,Maharashtra,19.076,72.8777,27.0,90,0.5,998.8,0.6,77.8,41,9.5,6.2,6.1,169.0,51.0,3.7,10,5,3,1,2026-07-06T13:53:10.062770+05:30
Bangalore,Karnataka,12.9716,77.5946,29.8,46,0.0,909.9,7.6,69.8,27,5.7,3.2,2.3,181.0,77.0,2.2,4,5,7,1,2026-07-06T13:53:10.062785+05:30
Hyderabad,Telangana,17.385,78.4867,28.2,67,0.0,946.6,5.75,62.6,25,7.5,4.4,1.2,177.0,80.0,2.5,7,5,3,1,2026-07-06T13:53:10.062795+05:30
Chennai,Tamil Nadu,13.0827,80.2707,38.4,32,0.0,1001.5,8.25,58.3,54,25.1,16.9,2.5,173.0,121.0,5.5,0,5,7,1,2026-07-06T13:53:10.062803+05:30
Kolkata,West Bengal,22.5726,88.3639,30.8,72,0.0,994.3,4.1,44.6,44,16.5,12.4,2.2,221.0,83.0,4.6,3,5,3,1,2026-07-06T13:53:10.062810+05:30
Pune,Maharashtra,18.5204,73.8567,26.2,82,0.1,939.5,1.05,61.2,24,2.0,1.8,5.0,144.0,50.0,3.0,10,5,3,1,2026-07-06T13:53:10.062817+05:30
Ahmedabad,Gujarat,23.0225,72.5714,33.1,66,0.0,991.5,8.05,44.3,96,117.3,46.3,1.8,222.0,92.0,4.3,3,5,7,1,2026-07-06T13:53:10.062823+05:30
Jaipur,Rajasthan,26.9124,75.7873,34.3,55,0.0,951.7,8.1,26.3,64,31.8,12.1,1.6,313.0,151.0,5.9,0,5,7,1,2026-07-06T13:53:10.062830+05:30
Lucknow,Uttar Pradesh,26.8467,80.9462,34.8,59,0.0,983.4,6.6,49.0,83,10.9,10.6,1.5,240.0,128.0,3.1,0,5,7,1,2026-07-06T13:53:10.062840+05:30
Kanpur,Uttar Pradesh,26.4499,80.3319,35.4,54,0.0,981.4,7.65,42.1,70,37.4,11.3,1.3,235.0,129.0,3.0,0,5,10,1,2026-07-06T13:53:10.062848+05:30
Chandigarh,Chandigarh,30.7333,76.7794,31.7,70,0.0,961.4,6.0,24.8,130,65.0,49.7,3.1,374.0,178.0,12.8,3,5,3,1,2026-07-06T13:53:10.062854+05:30
Srinagar,Jammu and Kashmir,34.0837,74.7973,31.9,37,0.0,838.5,9.1,33.8,88,32.9,23.3,1.0,270.0,167.0,3.5,0,5,7,0,2026-07-06T13:53:10.062861+05:30
Jammu,Jammu and Kashmir,32.7266,74.857,34.9,54,0.1,964.4,8.15,31.0,154,77.8,57.9,1.8,331.0,182.0,6.0,3,5,7,1,2026-07-06T13:53:10.062867+05:30
Amritsar,Punjab,31.634,74.8723,34.5,61,0.0,972.2,8.05,32.4,164,85.7,57.0,2.3,407.0,186.0,9.2,3,5,7,1,2026-07-06T13:53:10.062873+05:30
Ludhiana,Punjab,30.901,75.8573,33.3,64,0.0,970.4,7.7,41.8,158,123.4,50.4,2.5,388.0,181.0,12.2,3,5,7,1,2026-07-06T13:53:10.062879+05:30
Jalandhar,Punjab,31.326,75.5762,32.9,63,0.0,971.4,7.7,38.2,164,103.4,46.4,2.0,378.0,181.0,9.8,3,5,7,1,2026-07-06T13:53:10.062885+05:30
Dehradun,Uttarakhand,30.6284,78.0322,24.0,73,0.1,828.1,7.1,24.8,57,8.9,8.7,2.2,265.0,132.0,3.5,6,5,7,1,2026-07-06T13:53:10.062891+05:30
Shimla,Himachal Pradesh,31.1048,77.1734,21.8,70,0.0,783.4,7.15,20.9,106,26.8,24.5,1.7,283.0,154.0,7.0,3,5,7,1,2026-07-06T13:53:10.062897+05:30
Manali,Himachal Pradesh,32.2396,77.1887,25.1,79,0.0,816.8,7.7,30.6,47,11.9,11.7,6.5,192.0,129.0,0.7,7,5,7,1,2026-07-06T13:53:10.062905+05:30
Gurgaon,Haryana,28.4595,77.0266,35.6,54,0.0,972.8,7.75,23.0,128,30.5,25.8,7.1,419.0,179.0,17.0,0,5,10,1,2026-07-06T13:53:10.062911+05:30
Noida,Uttar Pradesh,28.5355,77.391,35.9,54,0.0,975.7,7.75,21.2,128,30.5,25.8,7.1,331.0,179.0,17.0,0,5,10,1,2026-07-06T13:53:10.062917+05:30
Ghaziabad,Uttar Pradesh,28.6692,77.4538,35.4,57,0.0,974.1,7.75,20.2,100,28.8,27.9,4.9,286.0,188.0,19.4,0,5,10,1,2026-07-06T13:53:10.062925+05:30
Faridabad,Haryana,28.4089,77.3178,36.2,53,0.0,974.9,7.8,21.2,128,30.5,25.8,7.1,335.0,179.0,17.0,0,5,10,1,2026-07-06T13:53:10.062931+05:30
Meerut,Uttar Pradesh,28.9845,77.7064,34.3,63,0.0,973.1,6.95,19.8,100,28.8,27.9,4.9,289.0,188.0,19.4,3,5,7,1,2026-07-06T13:53:10.062937+05:30
Agra,Uttar Pradesh,27.1767,78.0081,35.4,56,0.0,978.3,7.95,26.3,90,18.0,17.8,1.6,272.0,156.0,5.0,0,5,10,1,2026-07-06T13:53:10.062944+05:30
Varanasi,Uttar Pradesh,25.3176,82.9739,30.1,77,0.1,986.0,5.1,44.6,63,10.8,10.8,6.4,253.0,92.0,5.3,6,5,3,1,2026-07-06T13:53:10.062950+05:30
Prayagraj,Uttar Pradesh,25.4358,81.8463,30.8,79,0.0,984.8,6.7,46.8,67,10.9,10.8,4.0,238.0,112.0,3.4,3,5,7,1,2026-07-06T13:53:10.062957+05:30
Gorakhpur,Uttar Pradesh,26.7606,83.3732,35.2,58,0.0,986.9,4.6,52.9,67,8.9,8.8,2.0,198.0,111.0,3.1,0,5,6,1,2026-07-06T13:53:10.062963+05:30
Bareilly,Uttar Pradesh,28.367,79.4304,35.0,62,0.0,977.7,2.85,16.6,79,29.5,27.8,2.3,238.0,190.0,11.3,3,5,3,1,2026-07-06T13:53:10.062971+05:30
Aligarh,Uttar Pradesh,27.8974,78.088,35.5,58,0.0,976.5,3.3,23.4,96,29.5,27.0,3.1,294.0,183.0,13.8,0,5,6,1,2026-07-06T13:53:10.062976+05:30
Moradabad,Uttar Pradesh,28.8386,78.7733,35.4,56,0.0,975.0,7.65,31.0,87,28.0,27.6,3.0,259.0,172.0,11.3,0,5,10,1,2026-07-06T13:53:10.062982+05:30
Saharanpur,Uttar Pradesh,29.9637,77.546,33.4,65,0.0,968.0,7.35,20.5,92,31.2,30.6,2.3,323.0,169.0,7.4,3,5,7,1,2026-07-06T13:53:10.062988+05:30
Jhansi,Uttar Pradesh,25.4484,78.5685,35.1,57,0.0,968.0,8.4,36.4,55,12.4,12.1,1.5,196.0,147.0,7.5,0,5,10,1,2026-07-06T13:53:13.435875+05:30
Surat,Gujarat,21.1702,72.8311,31.2,77,0.0,996.0,1.25,32.4,96,83.6,54.0,34.5,224.0,44.0,86.8,3,5,3,1,2026-07-06T13:53:13.435903+05:30
Vadodara,Gujarat,22.3072,73.1812,32.3,71,0.0,993.8,6.6,28.1,81,63.1,32.8,4.9,257.0,109.0,9.3,3,5,7,1,2026-07-06T13:53:13.435913+05:30
Rajkot,Gujarat,22.3039,70.8022,28.6,88,0.1,984.8,6.0,40.7,90,102.0,40.9,1.2,119.0,92.0,4.9,10,5,3,1,2026-07-06T13:53:13.435921+05:30
Thane,Maharashtra,19.2183,72.9781,26.8,95,0.3,997.8,0.9,50.8,41,9.5,6.2,6.1,172.0,51.0,3.7,10,5,3,1,2026-07-06T13:53:13.435928+05:30
Nagpur,Maharashtra,21.1458,79.0882,31.9,61,0.0,963.4,6.85,41.4,52,15.1,14.3,8.3,174.0,104.0,30.8,3,5,7,1,2026-07-06T13:53:13.435935+05:30
Nashik,Maharashtra,19.9975,73.7898,25.9,82,0.0,935.9,2.45,52.9,20,3.6,2.8,9.5,157.0,44.0,2.4,7,5,3,1,2026-07-06T13:53:13.435942+05:30
Aurangabad,Maharashtra,19.8762,75.3433,25.0,91,0.2,934.7,4.65,49.7,24,3.6,3.4,5.5,121.0,58.0,3.9,10,5,3,1,2026-07-06T13:53:13.435949+05:30
Solapur,Maharashtra,17.6599,75.9064,30.0,59,0.0,950.2,2.4,69.1,27,4.6,2.7,1.0,103.0,67.0,1.2,4,5,3,1,2026-07-06T13:53:13.435957+05:30
Kolhapur,Maharashtra,16.705,74.2433,25.4,87,0.1,942.6,2.55,72.0,25,7.7,4.8,3.1,130.0,60.0,1.6,10,5,3,1,2026-07-06T13:53:13.435963+05:30
Goa,Goa,15.2993,74.124,26.8,93,0.2,995.3,4.2,41.8,56,28.4,14.2,0.9,145.0,62.0,0.7,10,5,3,1,2026-07-06T13:53:13.435970+05:30
Jodhpur,Rajasthan,26.2389,73.0243,35.8,54,0.0,973.6,8.3,19.1,82,194.6,52.6,0.7,159.0,112.0,3.7,0,5,10,1,2026-07-06T13:53:13.435977+05:30
Udaipur,Rajasthan,24.5854,73.7125,30.4,68,0.1,938.3,6.9,19.4,62,29.8,16.2,1.1,184.0,123.0,3.8,6,5,7,1,2026-07-06T13:53:13.435983+05:30
Kota,Rajasthan,25.2138,75.8648,35.1,54,0.0,968.9,7.5,25.2,77,22.9,22.5,3.4,243.0,157.0,21.5,0,5,10,1,2026-07-06T13:53:13.435990+05:30
Bikaner,Rajasthan,28.0229,73.3119,40.8,31,0.0,971.8,8.3,35.6,92,124.8,39.9,0.4,179.0,112.0,3.4,0,5,10,1,2026-07-06T13:53:13.435996+05:30
Ajmer,Rajasthan,26.4499,74.6399,32.0,64,0.0,946.7,7.2,27.4,53,14.7,13.5,1.1,208.0,140.0,4.4,3,5,7,1,2026-07-06T13:53:13.436003+05:30
Gwalior,Madhya Pradesh,26.2183,78.1828,34.6,58,0.0,973.4,8.15,31.7,57,11.6,11.2,0.9,206.0,131.0,3.1,0,5,7,1,2026-07-06T13:53:13.436009+05:30
Indore,Madhya Pradesh,22.7196,75.8577,29.4,72,0.0,938.3,5.95,24.8,150,29.8,27.9,1.2,354.0,131.0,2.5,7,5,3,1,2026-07-06T13:53:13.436016+05:30
Bhopal,Madhya Pradesh,23.2599,77.4126,31.7,64,0.0,943.8,7.55,36.0,85,12.3,11.9,1.3,265.0,125.0,2.1,3,5,7,1,2026-07-06T13:53:13.436022+05:30
Jabalpur,Madhya Pradesh,23.1815,79.9864,30.6,70,0.0,950.6,8.1,28.1,48,6.3,6.2,1.3,200.0,120.0,2.1,3,5,7,1,2026-07-06T13:53:13.436029+05:30
Ujjain,Madhya Pradesh,23.1765,75.7885,31.5,66,0.0,944.2,7.85,23.4,138,32.9,29.9,1.2,260.0,124.0,3.1,3,5,7,1,2026-07-06T13:53:13.436035+05:30
Visakhapatnam,Andhra Pradesh,17.6868,83.2185,33.5,54,0.0,995.0,8.85,61.2,47,16.1,13.5,9.3,227.0,89.0,26.9,0,5,7,1,2026-07-06T13:53:13.436042+05:30
Vijayawada,Andhra Pradesh,16.5062,80.648,35.5,46,0.0,995.5,4.95,50.8,41,12.8,6.7,1.0,107.0,81.0,3.0,0,5,6,1,2026-07-06T13:53:13.436048+05:30
Guntur,Andhra Pradesh,16.3067,80.4365,36.4,41,0.0,996.8,5.65,58.3,37,12.0,6.3,0.9,107.0,80.0,2.8,0,5,6,1,2026-07-06T13:53:13.436055+05:30
Nellore,Andhra Pradesh,14.4426,79.9865,38.2,33,0.0,999.2,8.45,57.2,38,13.9,6.1,1.4,98.0,83.0,2.5,0,5,10,1,2026-07-06T13:53:13.436062+05:30
Kurnool,Andhra Pradesh,15.8281,78.0373,34.7,44,0.0,970.9,3.45,68.8,27,5.1,3.1,0.6,104.0,78.0,1.7,0,5,3,1,2026-07-06T13:53:13.436069+05:30
Kakinada,Andhra Pradesh,16.9891,82.2475,34.3,52,0.0,999.5,7.1,60.8,51,13.3,9.3,1.6,128.0,88.0,3.4,0,5,7,1,2026-07-06T13:53:13.436076+05:30
Tirupati,Andhra Pradesh,13.6288,79.4192,38.1,30,0.0,985.3,8.55,57.6,36,8.4,4.0,0.7,116.0,82.0,1.3,0,5,10,1,2026-07-06T13:53:13.436083+05:30
Warangal,Telangana,17.9689,79.5941,29.2,71,0.0,971.8,3.5,45.0,24,7.2,4.9,1.1,115.0,78.0,2.3,7,5,3,1,2026-07-06T13:53:13.436090+05:30
Nizamabad,Telangana,18.6725,78.0941,26.9,83,0.1,957.7,2.75,43.9,22,6.3,3.9,1.6,120.0,72.0,2.9,10,5,3,1,2026-07-06T13:53:13.436096+05:30
Mysore,Karnataka,12.2958,76.6396,27.9,59,0.0,927.1,7.1,68.8,26,3.1,1.8,1.1,110.0,69.0,1.1,4,5,7,1,2026-07-06T13:53:13.436103+05:30
Mangalore,Karnataka,12.9141,74.856,29.1,75,0.0,1005.6,7.05,60.5,57,24.5,12.4,0.9,117.0,60.0,1.0,7,5,4,1,2026-07-06T13:53:13.436110+05:30
Hubli-Dharwad,Karnataka,15.3647,75.124,25.9,77,0.2,937.2,4.45,63.7,25,4.2,2.4,1.7,106.0,59.0,0.8,10,5,3,1,2026-07-06T13:53:13.436116+05:30
Belgaum,Karnataka,15.8497,74.4977,22.9,93,0.2,921.2,2.1,69.5,25,3.9,2.3,1.5,102.0,58.0,1.1,6,5,3,1,2026-07-06T13:53:16.813911+05:30
Coimbatore,Tamil Nadu,11.0168,76.9558,30.0,57,0.0,960.6,8.8,72.0,28,10.4,5.8,1.3,134.0,69.0,1.4,4,5,7,1,2026-07-06T13:53:16.813942+05:30
Madurai,Tamil Nadu,9.9252,78.1198,37.5,30,0.0,990.0,8.7,74.2,62,25.6,11.8,1.3,113.0,92.0,1.7,0,5,10,1,2026-07-06T13:53:16.813953+05:30
Trichy,Tamil Nadu,10.7905,78.7047,38.5,28,0.0,995.7,8.6,69.5,45,24.2,11.9,1.1,110.0,89.0,1.7,0,5,10,1,2026-07-06T13:53:16.813963+05:30
Salem,Tamil Nadu,11.6643,78.146,34.5,40,0.0,974.3,8.85,43.2,52,17.0,9.7,1.6,117.0,100.0,4.4,0,5,7,1,2026-07-06T13:53:16.813971+05:30
Tirunelveli,Tamil Nadu,8.7139,77.7567,36.8,31,0.0,1001.2,8.65,59.8,47,21.4,11.7,0.9,104.0,76.0,1.2,0,5,7,1,2026-07-06T13:53:16.813979+05:30
Vellore,Tamil Nadu,12.9165,79.1325,36.7,32,0.0,979.6,8.6,60.1,38,7.5,3.9,1.0,108.0,84.0,1.7,0,5,10,1,2026-07-06T13:53:16.813986+05:30
Erode,Tamil Nadu,11.341,77.7172,35.4,40,0.0,986.0,8.8,64.8,49,15.0,8.6,1.2,121.0,85.0,1.6,0,5,10,1,2026-07-06T13:53:16.813994+05:30
Kochi,Kerala,9.9312,76.2673,29.9,70,0.0,1009.2,8.4,40.3,58,32.8,17.9,1.5,101.0,75.0,2.4,7,0,4,1,2026-07-06T13:53:16.814002+05:30
Thiruvananthapuram,Kerala,8.5241,76.9366,29.3,74,0.0,1008.6,8.4,46.8,56,28.3,14.9,1.2,93.0,70.0,1.0,7,0,4,1,2026-07-06T13:53:16.814009+05:30
Kozhikode,Kerala,11.2588,75.7804,27.7,81,0.0,1008.4,8.15,35.6,58,33.3,17.0,0.5,120.0,61.0,0.7,7,0,4,1,2026-07-06T13:53:16.814016+05:30
Thrissur,Kerala,10.5276,76.2144,29.2,74,0.0,1007.3,8.5,50.0,55,29.1,15.5,0.9,100.0,67.0,1.4,7,5,4,1,2026-07-06T13:53:16.814025+05:30
Kannur,Kerala,11.8745,75.3704,29.1,73,0.0,1007.3,7.95,38.5,56,23.9,12.9,1.5,110.0,59.0,1.1,7,5,4,1,2026-07-06T13:53:16.814032+05:30
Patna,Bihar,25.5941,85.1376,32.0,66,0.0,988.7,4.05,53.3,51,12.1,11.7,3.7,202.0,102.0,4.7,3,5,3,1,2026-07-06T13:53:16.814039+05:30
Gaya,Bihar,24.7914,85.0002,33.1,62,0.0,981.2,6.9,50.8,51,10.7,10.5,2.5,203.0,104.0,4.7,3,5,7,1,2026-07-06T13:53:16.814046+05:30
Muzaffarpur,Bihar,26.1209,85.3647,32.5,69,0.1,989.4,6.15,55.1,50,11.2,10.8,3.1,185.0,106.0,4.1,6,5,7,1,2026-07-06T13:53:16.814053+05:30
Bhagalpur,Bihar,25.2425,87.0117,33.8,59,0.1,989.6,6.6,55.1,41,9.9,9.5,2.5,178.0,105.0,4.2,3,5,7,1,2026-07-06T13:53:16.814060+05:30
Ranchi,Jharkhand,23.3441,85.3096,25.6,90,0.2,925.8,7.25,33.8,53,8.5,8.4,16.4,310.0,69.0,23.4,10,5,7,1,2026-07-06T13:53:16.814068+05:30
Jamshedpur,Jharkhand,22.8046,86.2029,30.4,74,0.0,977.9,2.05,26.3,54,10.7,10.6,2.5,340.0,114.0,7.1,3,5,3,1,2026-07-06T13:53:16.814076+05:30
Dhanbad,Jharkhand,23.7957,86.4304,29.7,77,0.2,967.6,4.55,50.8,61,13.2,13.2,17.7,230.0,78.0,43.0,10,5,3,1,2026-07-06T13:53:16.814084+05:30
Bokaro,Jharkhand,23.6693,86.1511,28.5,81,0.1,971.0,5.6,46.8,61,11.3,11.2,17.5,224.0,76.0,45.0,10,5,3,1,2026-07-06T13:53:16.814092+05:30
Bhubaneswar,Odisha,20.2961,85.8245,32.2,64,0.0,991.9,7.15,54.7,28,7.2,6.7,5.6,143.0,49.0,2.9,3,5,7,1,2026-07-06T13:53:16.814099+05:30
Cuttack,Odisha,20.4625,85.8828,32.2,65,0.0,993.6,5.6,54.4,28,7.2,6.7,5.6,145.0,49.0,2.9,3,5,3,1,2026-07-06T13:53:16.814106+05:30
Rourkela,Odisha,22.2604,84.8536,29.0,84,0.0,972.5,1.5,40.7,62,7.3,7.2,2.5,237.0,96.0,3.9,7,5,3,1,2026-07-06T13:53:16.814113+05:30
Raipur,Chhattisgarh,21.2514,81.6296,26.3,89,0.2,964.8,1.5,46.1,64,15.1,14.8,18.2,331.0,50.0,50.2,10,5,3,1,2026-07-06T13:53:16.814120+05:30
Bhilai,Chhattisgarh,21.1938,81.3509,25.6,93,0.2,965.3,2.4,48.6,59,12.7,12.4,14.1,458.0,58.0,40.5,10,5,3,1,2026-07-06T13:53:16.814128+05:30
Guwahati,Assam,26.1158,91.7086,33.4,66,0.1,992.1,7.5,27.0,32,7.6,7.6,1.7,209.0,97.0,1.4,6,5,7,1,2026-07-06T13:53:16.814135+05:30
Agartala,Tripura,23.8315,91.2868,27.2,95,0.3,998.7,3.25,42.5,31,6.2,5.3,2.3,136.0,86.0,1.1,10,5,3,1,2026-07-06T13:53:16.814142+05:30
Shillong,Meghalaya,25.5788,91.8933,25.8,67,0.0,853.5,4.3,41.0,31,3.9,3.5,0.9,136.0,80.0,1.2,7,5,3,1,2026-07-06T13:53:16.814149+05:30
Imphal,Manipur,24.817,93.9368,28.5,77,0.0,917.6,8.45,27.7,29,2.8,2.8,1.6,154.0,68.0,0.7,7,5,7,1,2026-07-06T13:53:16.814157+05:30
Aizawl,Mizoram,23.7271,92.7176,21.4,92,0.2,887.4,4.1,41.8,25,1.7,1.6,1.3,114.0,57.0,0.5,6,5,3,1,2026-07-06T13:53:16.814164+05:30
Kohima,Nagaland,25.6701,94.1077,25.1,81,0.1,851.5,9.2,21.6,27,3.0,3.0,1.9,120.0,66.0,0.5,10,5,7,1,2026-07-06T13:53:16.814172+05:30
Gangtok,Sikkim,27.3314,88.6138,21.5,91,0.1,834.2,6.9,26.6,37,2.8,2.5,1.2,173.0,88.0,0.8,6,5,7,1,2026-07-06T13:53:16.814179+05:30
Siliguri,West Bengal,26.7271,88.3953,30.2,76,0.1,984.6,7.6,42.5,41,3.3,3.2,1.2,179.0,94.0,1.4,6,5,7,1,2026-07-06T13:53:20.168393+05:30
Durgapur,West Bengal,23.5204,87.3119,31.2,74,0.1,982.5,6.2,53.6,53,16.5,16.5,16.1,251.0,80.0,26.6,6,5,7,1,2026-07-06T13:53:20.168419+05:30
Asansol,West Bengal,23.6739,86.9524,30.7,77,0.0,981.2,6.75,50.8,52,14.4,14.3,15.8,289.0,81.0,26.6,3,5,7,1,2026-07-06T13:53:20.168429+05:30
Pondicherry,Puducherry,11.9139,79.8145,36.3,41,0.0,1003.9,8.75,53.3,57,33.1,20.5,2.7,126.0,120.0,10.2,0,5,7,1,2026-07-06T13:53:20.168437+05:30
Port Blair,Andaman and Nicobar Islands,11.6234,92.7265,31.3,64,0.0,1006.3,8.6,39.6,39,16.8,10.0,0.2,92.0,55.0,0.6,3,5,4,1,2026-07-06T13:53:20.168444+05:30
Haridwar,Uttarakhand,29.9457,78.1642,34.7,57,0.0,966.2,6.7,20.9,79,26.7,25.9,1.4,261.0,152.0,5.2,0,5,7,1,2026-07-06T13:53:20.168451+05:30
Rishikesh,Uttarakhand,30.0869,78.2676,32.6,62,0.0,959.2,6.8,24.1,81,19.3,18.9,1.0,249.0,141.0,3.9,3,5,7,1,2026-07-06T13:53:20.168458+05:30
Nainital,Uttarakhand,29.3919,79.4542,24.1,65,0.1,804.1,5.0,23.8,48,12.3,11.9,0.9,162.0,122.0,1.8,6,5,3,1,2026-07-06T13:53:20.168465+05:30
Mussoorie,Uttarakhand,30.4599,78.0664,22.3,78,0.0,801.4,7.8,31.7,82,17.6,17.0,2.0,264.0,136.0,5.0,3,5,7,1,2026-07-06T13:53:20.168471+05:30
Dharamshala,Himachal Pradesh,32.219,76.3234,25.4,80,0.0,865.3,7.7,31.7,44,9.8,9.3,1.0,326.0,130.0,1.8,7,5,7,1,2026-07-06T13:53:20.168477+05:30
Dalhousie,Himachal Pradesh,32.5387,75.971,21.9,87,0.0,802.6,7.65,20.9,86,25.7,23.2,1.8,298.0,165.0,4.4,3,5,7,1,2026-07-06T13:53:20.168485+05:30
Patiala,Punjab,30.3398,76.3869,32.6,74,0.0,970.1,5.85,34.9,148,55.5,40.3,2.3,316.0,183.0,14.0,3,5,3,1,2026-07-06T13:53:20.168491+05:30
Bhatinda,Punjab,30.211,74.9455,36.3,55,0.0,974.9,7.3,32.8,170,343.7,95.9,3.3,353.0,205.0,17.5,0,5,10,1,2026-07-06T13:53:20.168498+05:30
Rohtak,Haryana,28.8955,76.6066,34.8,58,0.1,973.4,7.1,19.4,146,50.1,34.0,5.7,356.0,184.0,13.8,3,5,7,1,2026-07-06T13:53:20.168504+05:30
Panipat,Haryana,29.3909,76.9635,34.1,63,0.0,972.3,7.5,23.8,135,44.2,33.3,7.8,294.0,165.0,22.9,3,5,7,1,2026-07-06T13:53:20.168511+05:30
Mathura,Uttar Pradesh,27.4924,77.6737,35.5,56,0.0,977.6,5.8,22.0,92,17.6,17.1,2.5,265.0,158.0,3.9,0,5,6,1,2026-07-06T13:53:20.168517+05:30
Vrindavan,Uttar Pradesh,27.5823,77.7027,35.7,55,0.0,978.0,4.45,22.0,92,17.6,17.1,2.5,265.0,158.0,3.9,0,5,6,1,2026-07-06T13:53:20.168523+05:30
Ayodhya,Uttar Pradesh,26.7922,82.1998,35.2,56,0.0,984.9,4.85,49.3,74,13.3,13.1,1.6,190.0,135.0,3.2,0,5,6,1,2026-07-06T13:53:20.168530+05:30
Ratlam,Madhya Pradesh,23.3315,75.0367,29.3,80,0.0,945.4,8.3,27.4,104,32.9,28.5,1.0,210.0,118.0,3.1,7,5,7,1,2026-07-06T13:53:20.168536+05:30
Sagar,Madhya Pradesh,23.8388,78.7378,31.6,61,0.0,940.0,8.0,24.8,46,6.1,6.0,0.8,197.0,120.0,1.7,3,5,7,1,2026-07-06T13:53:20.168542+05:30
Satna,Madhya Pradesh,24.6005,80.8322,29.1,79,0.2,960.4,5.3,31.3,64,9.7,9.6,0.7,210.0,134.0,3.1,10,5,3,1,2026-07-06T13:53:20.168569+05:30
Akola,Maharashtra,20.7002,77.0082,32.3,56,0.1,965.3,2.5,42.8,28,11.1,10.2,1.8,139.0,113.0,10.2,3,5,3,1,2026-07-06T13:53:20.168577+05:30
Amravati,Maharashtra,20.9374,77.7796,31.6,61,0.0,958.0,7.1,38.2,26,8.3,7.7,2.3,147.0,97.0,9.2,3,5,7,1,2026-07-06T13:53:20.168584+05:30
Latur,Maharashtra,18.4088,76.5604,26.4,80,0.0,932.3,6.0,60.8,24,2.8,2.1,0.9,119.0,69.0,1.3,7,5,3,1,2026-07-06T13:53:20.168591+05:30
Nanded,Maharashtra,19.1383,77.3091,25.9,91,0.2,960.8,4.6,40.3,23,4.4,3.6,2.5,119.0,67.0,3.7,10,5,3,1,2026-07-06T13:53:20.168598+05:30
Gulbarga,Karnataka,17.3297,76.8343,31.1,53,0.0,952.1,2.4,73.4,27,6.4,3.1,1.2,109.0,76.0,1.6,0,5,3,1,2026-07-06T13:53:20.168604+05:30
Bidar,Karnataka,17.9104,77.5199,28.4,64,0.0,929.0,2.85,62.6,25,2.9,2.3,1.3,114.0,69.0,1.2,7,5,3,1,2026-07-06T13:53:20.168610+05:30
Hospet,Karnataka,15.2689,76.3909,29.3,60,0.1,951.5,6.35,73.4,26,6.4,3.3,0.9,104.0,68.0,1.2,7,5,7,1,2026-07-06T13:53:20.168616+05:30
Tirupur,Tamil Nadu,11.1085,77.3411,32.7,48,0.0,972.8,8.9,72.7,51,14.2,7.9,1.2,126.0,80.0,1.8,0,5,7,1,2026-07-06T13:53:20.168623+05:30
Alappuzha,Kerala,9.4981,76.3388,29.8,71,0.0,1009.4,8.35,40.0,60,31.0,16.8,1.6,91.0,70.0,1.8,7,0,4,1,2026-07-06T13:53:20.168629+05:30
Munnar,Kerala,10.0889,77.0595,17.3,91,0.3,856.5,6.3,60.8,35,22.2,11.4,0.6,106.0,73.0,1.3,6,10,7,0,2026-07-06T13:53:20.168636+05:30
Silchar,Assam,24.8333,92.7789,32.9,64,0.1,996.8,7.95,25.9,47,5.9,5.6,1.1,158.0,92.0,2.2,6,5,7,1,2026-07-06T13:53:20.168642+05:30
Dibrugarh,Assam,27.4728,94.912,34.5,62,0.0,985.1,8.2,32.8,47,11.2,10.6,1.0,145.0,109.0,1.2,3,5,7,1,2026-07-06T13:53:20.168648+05:30
