city,state,latitude,longitude,temp,humidity,rain,pressure,uv_index,wind_gusts,aqi,pm10,pm2_5,no2,co,o3,so2,mosquito_risk,arthritis_risk,migraine_risk,frizz_risk,updated_at
Delhi,Delhi,28.6139,77.209,31.5,32,0.0,977.2,7.75,56.9,702,732.0,175.6,53.4,580.0,21.0,23.1,0,5,7,0,2026-05-28T04:53:50.967422+05:30
Mumbai,Maharashtra,19.076,72.8777,29.6,73,0.0,1008.7,7.8,40.3,38,23.4,12.2,8.9,148.0,44.0,5.0,7,0,4,1,2026-05-28T04:53:50.967458+05:30
Bangalore,Karnataka,12.9716,77.5946,21.5,94,0.0,911.8,9.25,27.0,70,20.0,18.7,16.0,318.0,45.0,5.8,3,5,7,1,2026-05-28T04:53:50.967471+05:30
Hyderabad,Telangana,17.385,78.4867,26.4,70,0.0,952.0,9.1,32.8,64,23.3,20.0,16.2,298.0,55.0,11.3,7,5,7,1,2026-05-28T04:53:50.967479+05:30
Chennai,Tamil Nadu,13.0827,80.2707,29.5,80,0.0,1005.6,8.8,39.6,76,21.1,18.1,15.1,261.0,50.0,13.3,7,5,4,1,2026-05-28T04:53:50.967485+05:30
Kolkata,West Bengal,22.5726,88.3639,26.7,96,0.0,1004.4,8.9,41.4,104,49.5,38.6,7.7,311.0,98.0,6.0,7,5,4,1,2026-05-28T04:53:50.967491+05:30
Pune,Maharashtra,18.5204,73.8567,24.1,91,0.0,948.4,8.4,37.8,33,7.0,6.2,11.6,150.0,30.0,9.2,3,5,7,1,2026-05-28T04:53:50.967496+05:30
Ahmedabad,Gujarat,23.0225,72.5714,29.5,71,0.0,1000.8,8.1,40.7,68,39.0,21.1,5.5,127.0,42.0,5.0,7,5,4,1,2026-05-28T04:53:50.967501+05:30
Jaipur,Rajasthan,26.9124,75.7873,33.5,32,0.0,955.9,8.25,49.0,204,346.5,61.7,3.4,141.0,71.0,3.6,0,5,7,0,2026-05-28T04:53:50.967510+05:30
Lucknow,Uttar Pradesh,26.8467,80.9462,28.8,64,0.0,990.2,8.2,46.1,105,34.3,24.9,8.2,388.0,111.0,13.3,7,5,7,1,2026-05-28T04:53:50.967515+05:30
Kanpur,Uttar Pradesh,26.4499,80.3319,30.9,55,0.0,987.7,8.2,38.9,197,366.0,60.8,8.7,396.0,119.0,14.9,0,5,7,1,2026-05-28T04:53:50.967520+05:30
Chandigarh,Chandigarh,30.7333,76.7794,27.1,34,0.0,963.4,7.75,55.4,77,54.1,48.9,43.1,295.0,4.0,3.6,4,5,7,0,2026-05-28T04:53:50.967525+05:30
Srinagar,Jammu and Kashmir,34.0837,74.7973,12.1,88,0.0,838.6,6.5,29.5,75,39.1,25.1,23.3,292.0,22.0,1.9,3,10,7,0,2026-05-28T04:53:50.967530+05:30
Jammu,Jammu and Kashmir,32.7266,74.857,24.0,41,0.0,965.8,8.45,43.6,81,38.4,32.1,34.5,256.0,8.0,2.5,0,5,7,0,2026-05-28T04:53:50.967535+05:30
Amritsar,Punjab,31.634,74.8723,28.8,40,0.0,974.3,8.4,41.4,97,84.5,68.7,62.1,577.0,5.0,11.8,4,5,7,0,2026-05-28T04:53:50.967540+05:30
Ludhiana,Punjab,30.901,75.8573,29.0,36,0.0,972.3,8.0,49.3,84,53.8,45.1,31.3,733.0,37.0,8.9,4,5,7,0,2026-05-28T04:53:50.967544+05:30
Jalandhar,Punjab,31.326,75.5762,29.2,31,0.0,973.2,8.2,37.4,95,89.2,63.6,50.2,841.0,14.0,9.6,4,5,7,0,2026-05-28T04:53:50.967549+05:30
Dehradun,Uttarakhand,30.6284,78.0322,18.0,40,0.0,827.8,8.2,40.3,64,28.6,22.6,25.6,197.0,4.0,0.3,0,5,7,0,2026-05-28T04:53:50.967554+05:30
Shimla,Himachal Pradesh,31.1048,77.1734,13.8,38,0.0,780.4,8.25,47.9,58,34.2,20.8,21.1,181.0,61.0,1.3,0,5,7,1,2026-05-28T04:53:50.967560+05:30
Manali,Himachal Pradesh,32.2396,77.1887,11.1,47,0.0,813.4,9.55,58.3,61,17.5,10.3,29.2,196.0,103.0,0.0,0,5,7,0,2026-05-28T04:53:50.967581+05:30
Gurgaon,Haryana,28.4595,77.0266,30.4,30,0.0,975.3,7.85,65.5,1056,616.5,135.0,33.0,359.0,30.0,13.6,0,5,7,0,2026-05-28T04:53:50.967586+05:30
Noida,Uttar Pradesh,28.5355,77.391,28.4,48,0.0,978.9,7.75,64.8,1056,616.5,135.0,33.0,962.0,30.0,13.6,4,5,7,1,2026-05-28T04:53:50.967591+05:30
Ghaziabad,Uttar Pradesh,28.6692,77.4538,28.5,46,0.0,977.3,7.75,77.8,517,435.9,127.1,24.4,734.0,54.0,13.8,4,5,7,0,2026-05-28T04:53:50.967595+05:30
Faridabad,Haryana,28.4089,77.3178,29.1,43,0.0,978.1,7.8,72.4,1056,616.5,135.0,33.0,335.0,30.0,13.6,4,5,7,0,2026-05-28T04:53:50.967600+05:30
Meerut,Uttar Pradesh,28.9845,77.7064,27.9,57,0.0,976.8,7.65,58.7,517,435.9,127.1,24.4,591.0,54.0,13.8,4,5,7,1,2026-05-28T04:53:50.967605+05:30
Agra,Uttar Pradesh,27.1767,78.0081,32.0,30,0.0,982.3,8.1,45.0,778,484.3,99.4,35.3,333.0,19.0,9.6,0,5,7,0,2026-05-28T04:53:50.967609+05:30
Varanasi,Uttar Pradesh,25.3176,82.9739,28.0,68,0.0,993.9,8.7,38.2,112,47.3,42.3,11.8,385.0,95.0,22.0,7,5,7,1,2026-05-28T04:53:50.967615+05:30
Prayagraj,Uttar Pradesh,25.4358,81.8463,29.9,60,0.0,991.8,8.6,38.5,109,44.4,38.3,10.9,442.0,106.0,19.5,4,5,7,1,2026-05-28T04:53:50.967620+05:30
Gorakhpur,Uttar Pradesh,26.7606,83.3732,26.4,74,0.0,995.7,8.6,43.2,83,39.0,35.3,9.9,417.0,80.0,8.1,7,5,7,1,2026-05-28T04:53:50.967626+05:30
Bareilly,Uttar Pradesh,28.367,79.4304,28.0,65,0.0,983.6,8.05,42.1,116,143.0,48.4,9.5,404.0,110.0,12.3,7,5,7,1,2026-05-28T04:53:50.967631+05:30
Aligarh,Uttar Pradesh,27.8974,78.088,29.2,42,0.0,980.4,7.9,71.6,695,763.7,181.6,51.8,701.0,11.0,15.8,4,5,7,0,2026-05-28T04:53:50.967636+05:30
Moradabad,Uttar Pradesh,28.8386,78.7733,28.8,59,0.0,980.1,7.85,48.6,118,64.0,35.0,10.8,425.0,103.0,13.1,4,5,7,1,2026-05-28T04:53:50.967642+05:30
Saharanpur,Uttar Pradesh,29.9637,77.546,28.1,54,0.0,971.3,7.5,48.6,109,61.5,43.5,21.0,449.0,76.0,13.4,4,5,7,1,2026-05-28T04:53:50.967647+05:30
Jhansi,Uttar Pradesh,25.4484,78.5685,32.3,30,0.0,973.2,8.45,46.4,69,20.5,12.3,5.9,187.0,58.0,4.2,0,5,7,0,2026-05-28T04:53:54.382550+05:30
Surat,Gujarat,21.1702,72.8311,29.2,78,0.0,1006.4,7.7,48.6,78,48.2,24.9,18.5,293.0,33.0,31.3,7,5,4,1,2026-05-28T04:53:54.382581+05:30
Vadodara,Gujarat,22.3072,73.1812,29.2,75,0.0,1003.4,8.05,44.6,77,31.3,19.2,8.3,133.0,40.0,8.0,7,5,4,1,2026-05-28T04:53:54.382589+05:30
Rajkot,Gujarat,22.3039,70.8022,27.7,81,0.0,993.0,7.7,48.6,69,44.6,19.8,3.1,107.0,46.0,3.5,7,5,7,1,2026-05-28T04:53:54.382596+05:30
Thane,Maharashtra,19.2183,72.9781,28.7,82,0.0,1008.1,7.8,39.6,38,23.4,12.2,8.9,151.0,44.0,5.0,7,0,4,1,2026-05-28T04:53:54.382602+05:30
Nagpur,Maharashtra,21.1458,79.0882,33.2,31,0.0,970.2,8.8,45.0,61,20.1,13.9,10.2,200.0,71.0,8.5,0,5,7,0,2026-05-28T04:53:54.382608+05:30
Nashik,Maharashtra,19.9975,73.7898,23.7,90,0.0,945.8,8.15,40.0,31,16.1,8.3,7.0,118.0,38.0,3.4,3,5,7,1,2026-05-28T04:53:54.382614+05:30
Aurangabad,Maharashtra,19.8762,75.3433,25.0,77,0.0,943.9,9.0,42.1,38,10.8,7.2,10.0,146.0,38.0,6.5,7,5,7,1,2026-05-28T04:53:54.382620+05:30
Solapur,Maharashtra,17.6599,75.9064,27.1,75,0.0,957.3,8.95,34.9,57,7.1,6.7,9.6,150.0,46.0,5.2,7,5,7,1,2026-05-28T04:53:54.382626+05:30
Kolhapur,Maharashtra,16.705,74.2433,23.6,95,0.0,948.3,8.8,42.5,32,7.2,6.1,6.8,141.0,37.0,2.6,3,5,7,1,2026-05-28T04:53:54.382632+05:30
Goa,Goa,15.2993,74.124,26.4,97,0.0,998.7,7.05,28.8,40,18.3,14.6,4.5,342.0,50.0,1.3,7,5,7,1,2026-05-28T04:53:54.382638+05:30
Jodhpur,Rajasthan,26.2389,73.0243,31.1,47,0.0,979.3,8.4,51.1,166,358.6,76.6,2.4,123.0,64.0,3.0,0,5,7,1,2026-05-28T04:53:54.382644+05:30
Udaipur,Rajasthan,24.5854,73.7125,27.7,57,0.0,944.2,8.8,48.6,63,28.6,17.8,4.4,135.0,57.0,3.4,4,5,7,1,2026-05-28T04:53:54.382650+05:30
Kota,Rajasthan,25.2138,75.8648,33.7,30,0.0,974.8,8.35,42.1,67,32.2,16.8,4.9,166.0,69.0,5.8,0,5,7,0,2026-05-28T04:53:54.382655+05:30
Bikaner,Rajasthan,28.0229,73.3119,33.5,33,0.0,977.1,8.45,41.8,142,210.5,78.5,1.9,121.0,66.0,3.1,0,5,7,0,2026-05-28T04:53:54.382661+05:30
Ajmer,Rajasthan,26.4499,74.6399,31.0,40,0.0,951.6,8.35,54.0,68,35.5,16.8,3.1,140.0,68.0,3.1,0,5,7,0,2026-05-28T04:53:54.382667+05:30
Gwalior,Madhya Pradesh,26.2183,78.1828,33.5,29,0.0,978.3,8.25,49.3,89,43.5,20.5,8.4,174.0,47.0,3.4,0,5,7,0,2026-05-28T04:53:54.382672+05:30
Indore,Madhya Pradesh,22.7196,75.8577,27.9,65,0.0,947.1,8.65,47.2,67,45.1,26.7,6.7,173.0,68.0,12.9,7,5,7,1,2026-05-28T04:53:54.382677+05:30
Bhopal,Madhya Pradesh,23.2599,77.4126,32.5,31,0.0,951.4,8.7,39.6,63,33.8,19.7,3.5,193.0,95.0,6.5,0,5,7,0,2026-05-28T04:53:54.382682+05:30
Jabalpur,Madhya Pradesh,23.1815,79.9864,32.2,25,0.0,958.4,8.85,37.1,65,17.6,12.6,6.3,228.0,74.0,4.0,0,5,7,0,2026-05-28T04:53:54.382688+05:30
Ujjain,Madhya Pradesh,23.1765,75.7885,28.0,67,0.0,952.7,8.6,49.7,68,43.3,25.1,7.0,195.0,59.0,13.6,7,5,7,1,2026-05-28T04:53:54.382693+05:30
Visakhapatnam,Andhra Pradesh,17.6868,83.2185,30.0,82,0.0,1000.2,9.0,47.9,129,37.0,28.5,20.8,515.0,107.0,34.1,7,5,4,1,2026-05-28T04:53:54.382698+05:30
Vijayawada,Andhra Pradesh,16.5062,80.648,30.5,60,0.0,999.8,8.65,35.6,90,33.9,30.6,17.7,281.0,50.0,6.0,0,5,7,1,2026-05-28T04:53:54.382703+05:30
Guntur,Andhra Pradesh,16.3067,80.4365,29.9,62,0.0,1001.1,8.3,32.4,78,28.3,25.5,14.7,259.0,62.0,8.0,7,5,4,1,2026-05-28T04:53:54.382709+05:30
Nellore,Andhra Pradesh,14.4426,79.9865,26.7,84,0.0,1004.5,9.0,35.6,67,27.9,25.1,14.2,341.0,75.0,11.0,7,5,4,1,2026-05-28T04:53:54.382715+05:30
Kurnool,Andhra Pradesh,15.8281,78.0373,27.6,68,0.0,976.4,9.0,67.0,62,15.3,13.9,13.6,180.0,46.0,8.0,7,5,7,1,2026-05-28T04:53:54.382721+05:30
Kakinada,Andhra Pradesh,16.9891,82.2475,30.6,70,0.0,1003.9,9.0,40.7,91,25.5,19.1,3.3,242.0,119.0,3.6,3,5,4,1,2026-05-28T04:53:54.382726+05:30
Tirupati,Andhra Pradesh,13.6288,79.4192,25.4,74,0.0,989.9,9.05,25.9,77,44.7,40.9,38.2,384.0,19.0,6.0,7,5,7,1,2026-05-28T04:53:54.382731+05:30
Warangal,Telangana,17.9689,79.5941,30.0,56,0.0,975.9,9.05,37.8,73,27.7,24.9,15.3,331.0,60.0,7.3,4,5,7,1,2026-05-28T04:53:54.382736+05:30
Nizamabad,Telangana,18.6725,78.0941,29.3,51,0.0,963.1,9.0,34.9,66,27.5,23.9,16.2,336.0,47.0,5.5,4,5,7,1,2026-05-28T04:53:54.382741+05:30
Mysore,Karnataka,12.2958,76.6396,21.7,97,0.0,928.9,9.1,34.9,56,9.4,8.5,6.6,142.0,55.0,2.4,3,5,7,1,2026-05-28T04:53:54.382746+05:30
Mangalore,Karnataka,12.9141,74.856,24.6,97,0.1,1008.3,8.65,41.0,53,12.3,9.9,7.3,218.0,48.0,2.8,6,0,4,1,2026-05-28T04:53:54.382751+05:30
Hubli-Dharwad,Karnataka,15.3647,75.124,23.6,96,0.0,941.5,9.0,47.5,28,5.3,3.9,2.9,137.0,46.0,1.0,3,5,7,1,2026-05-28T04:53:54.382757+05:30
Belgaum,Karnataka,15.8497,74.4977,22.4,99,0.0,926.1,9.0,44.6,30,6.5,5.4,3.9,134.0,41.0,1.0,3,5,7,1,2026-05-28T04:53:57.796769+05:30
Coimbatore,Tamil Nadu,11.0168,76.9558,25.2,84,0.0,962.1,8.4,49.7,41,8.7,7.3,6.8,141.0,46.0,3.1,7,5,7,1,2026-05-28T04:53:57.796801+05:30
Madurai,Tamil Nadu,9.9252,78.1198,27.2,76,0.0,993.0,7.9,47.5,87,36.9,34.2,35.5,260.0,0.0,5.4,7,5,7,1,2026-05-28T04:53:57.796810+05:30
Trichy,Tamil Nadu,10.7905,78.7047,28.0,71,0.0,999.6,7.95,38.5,60,14.1,13.2,17.4,150.0,31.0,4.4,7,5,7,1,2026-05-28T04:53:57.796817+05:30
Salem,Tamil Nadu,11.6643,78.146,27.1,73,0.0,977.6,8.0,34.2,69,18.5,16.5,18.3,278.0,34.0,6.6,7,5,7,1,2026-05-28T04:53:57.796824+05:30
Tirunelveli,Tamil Nadu,8.7139,77.7567,28.5,71,0.0,1003.5,7.8,40.3,28,10.2,8.0,6.9,167.0,33.0,2.3,7,5,4,1,2026-05-28T04:53:57.796831+05:30
Vellore,Tamil Nadu,12.9165,79.1325,25.7,77,0.0,983.6,8.85,34.6,82,47.7,38.8,24.4,250.0,27.0,7.0,7,5,7,1,2026-05-28T04:53:57.796837+05:30
Erode,Tamil Nadu,11.341,77.7172,26.7,79,0.0,989.3,8.05,46.8,54,9.8,8.7,11.5,163.0,35.0,3.7,7,5,7,1,2026-05-28T04:53:57.796843+05:30
Kochi,Kerala,9.9312,76.2673,26.4,95,0.0,1009.6,6.4,28.1,52,15.1,14.3,19.5,228.0,10.0,4.4,7,0,4,1,2026-05-28T04:53:57.796849+05:30
Thiruvananthapuram,Kerala,8.5241,76.9366,25.4,95,0.0,1009.3,6.55,29.9,30,15.3,8.1,3.3,190.0,45.0,1.5,7,0,4,1,2026-05-28T04:53:57.796854+05:30
Kozhikode,Kerala,11.2588,75.7804,24.8,100,0.0,1009.2,8.3,28.8,29,11.1,6.8,1.8,378.0,66.0,1.2,3,0,4,1,2026-05-28T04:53:57.796860+05:30
Thrissur,Kerala,10.5276,76.2144,24.6,97,0.0,1008.1,7.45,28.8,51,17.7,16.5,17.1,230.0,12.0,4.3,3,0,4,1,2026-05-28T04:53:57.796866+05:30
Kannur,Kerala,11.8745,75.3704,24.9,98,0.0,1008.6,8.65,33.8,46,5.0,3.5,4.9,281.0,47.0,2.0,3,0,4,1,2026-05-28T04:53:57.796872+05:30
Patna,Bihar,25.5941,85.1376,25.9,81,0.0,998.4,8.75,49.3,103,43.8,40.9,14.0,332.0,65.0,15.2,7,5,7,1,2026-05-28T04:53:57.796877+05:30
Gaya,Bihar,24.7914,85.0002,26.5,72,0.0,990.4,8.8,38.2,135,33.3,30.6,15.0,462.0,63.0,21.8,7,5,7,1,2026-05-28T04:53:57.796883+05:30
Muzaffarpur,Bihar,26.1209,85.3647,25.1,83,0.0,999.1,8.7,46.4,95,43.1,39.6,11.3,313.0,72.0,9.7,7,5,7,1,2026-05-28T04:53:57.796888+05:30
Bhagalpur,Bihar,25.2425,87.0117,24.6,91,0.0,1000.9,8.65,46.1,98,50.4,36.4,10.0,325.0,97.0,9.5,3,5,4,1,2026-05-28T04:53:57.796893+05:30
Ranchi,Jharkhand,23.3441,85.3096,23.0,75,0.0,935.4,9.05,36.7,139,96.9,69.8,15.6,336.0,115.0,30.9,3,5,7,1,2026-05-28T04:53:57.796899+05:30
Jamshedpur,Jharkhand,22.8046,86.2029,25.0,94,0.0,988.8,9.05,32.4,157,64.0,54.6,17.5,274.0,62.0,20.8,7,5,7,1,2026-05-28T04:53:57.796905+05:30
Dhanbad,Jharkhand,23.7957,86.4304,25.0,89,0.0,978.3,9.0,36.4,163,70.8,64.0,44.2,597.0,46.0,91.1,7,5,7,1,2026-05-28T04:53:57.796911+05:30
Bokaro,Jharkhand,23.6693,86.1511,24.8,88,0.0,982.1,9.0,40.7,167,97.8,87.5,55.9,579.0,29.0,110.6,3,5,7,1,2026-05-28T04:53:57.796916+05:30
Bhubaneswar,Odisha,20.2961,85.8245,28.4,88,0.0,999.7,9.05,44.6,101,41.0,30.6,4.1,297.0,116.0,3.8,7,5,7,1,2026-05-28T04:53:57.796922+05:30
Cuttack,Odisha,20.4625,85.8828,28.1,89,0.0,1001.3,9.1,41.8,101,41.0,30.6,4.1,313.0,116.0,3.8,7,5,4,1,2026-05-28T04:53:57.796927+05:30
Rourkela,Odisha,22.2604,84.8536,26.1,82,0.0,982.0,8.9,36.7,155,93.1,73.6,20.7,278.0,89.0,27.9,7,5,7,1,2026-05-28T04:53:57.796932+05:30
Raipur,Chhattisgarh,21.2514,81.6296,31.5,34,0.0,970.7,8.95,33.1,97,30.5,26.9,37.3,623.0,38.0,52.8,0,5,7,0,2026-05-28T04:53:57.796938+05:30
Bhilai,Chhattisgarh,21.1938,81.3509,30.5,37,0.0,971.1,8.95,37.4,89,26.6,23.2,30.0,711.0,40.0,40.4,0,5,7,0,2026-05-28T04:53:57.796942+05:30
Guwahati,Assam,26.1158,91.7086,21.8,97,0.0,1001.9,8.75,19.4,77,29.7,26.0,15.8,506.0,23.0,1.0,3,5,4,1,2026-05-28T04:53:57.796947+05:30
Agartala,Tripura,23.8315,91.2868,22.6,97,0.0,1006.1,8.85,21.6,89,37.8,30.2,16.4,219.0,46.0,2.8,3,5,4,1,2026-05-28T04:53:57.796952+05:30
Shillong,Meghalaya,25.5788,91.8933,15.6,83,0.0,855.6,8.15,23.8,58,30.0,22.4,9.1,256.0,40.0,2.2,3,10,7,0,2026-05-28T04:53:57.796957+05:30
Imphal,Manipur,24.817,93.9368,19.7,100,0.0,922.9,9.25,31.3,97,55.4,50.1,16.0,640.0,11.0,1.6,3,10,7,1,2026-05-28T04:53:57.796963+05:30
Aizawl,Mizoram,23.7271,92.7176,15.6,98,0.0,890.5,9.05,27.7,73,28.4,22.5,12.2,260.0,17.0,1.2,3,10,7,0,2026-05-28T04:53:57.796968+05:30
Kohima,Nagaland,25.6701,94.1077,16.5,92,0.0,854.7,9.2,31.0,65,25.8,18.0,8.7,235.0,19.0,0.8,3,10,7,0,2026-05-28T04:53:57.796973+05:30
Gangtok,Sikkim,27.3314,88.6138,14.0,89,0.0,836.4,8.3,36.4,65,26.5,18.3,9.9,672.0,82.0,1.7,3,10,7,0,2026-05-28T04:53:57.796978+05:30
Siliguri,West Bengal,26.7271,88.3953,22.5,90,0.0,993.7,6.85,27.0,96,82.4,66.1,26.6,350.0,47.0,7.0,3,5,7,1,2026-05-28T04:54:01.219157+05:30
Durgapur,West Bengal,23.5204,87.3119,25.8,91,0.0,993.5,8.95,31.0,154,56.1,48.0,24.8,482.0,62.0,30.8,7,5,7,1,2026-05-28T04:54:01.219191+05:30
Asansol,West Bengal,23.6739,86.9524,25.6,93,0.0,992.2,8.95,32.4,154,54.1,47.0,26.0,533.0,64.0,38.0,7,5,7,1,2026-05-28T04:54:01.219200+05:30
Pondicherry,Puducherry,11.9139,79.8145,28.6,74,0.0,1007.4,7.45,38.9,77,16.8,14.2,13.2,313.0,47.0,6.9,7,5,4,1,2026-05-28T04:54:01.219208+05:30
Port Blair,Andaman and Nicobar Islands,11.6234,92.7265,24.4,97,0.1,1006.8,8.6,41.4,30,11.1,5.5,0.3,127.0,77.0,0.4,6,5,4,1,2026-05-28T04:54:01.219215+05:30
Haridwar,Uttarakhand,29.9457,78.1642,28.4,54,0.0,970.2,7.6,39.2,78,45.1,38.5,16.5,317.0,92.0,10.9,4,5,7,1,2026-05-28T04:54:01.219221+05:30
Rishikesh,Uttarakhand,30.0869,78.2676,22.0,64,0.0,962.4,7.7,35.3,84,77.5,64.0,25.7,500.0,72.0,8.1,3,5,7,0,2026-05-28T04:54:01.219228+05:30
Nainital,Uttarakhand,29.3919,79.4542,13.2,83,0.0,802.1,8.5,31.0,116,48.7,24.9,4.5,375.0,145.0,9.1,3,10,7,0,2026-05-28T04:54:01.219234+05:30
Mussoorie,Uttarakhand,30.4599,78.0664,16.2,46,0.0,800.5,8.1,50.4,70,39.6,33.8,39.1,203.0,9.0,2.9,0,5,7,0,2026-05-28T04:54:01.219239+05:30
Dharamshala,Himachal Pradesh,32.219,76.3234,24.6,27,0.0,866.3,8.3,42.8,51,15.4,8.9,13.3,165.0,38.0,0.1,0,5,7,0,2026-05-28T04:54:01.219245+05:30
Dalhousie,Himachal Pradesh,32.5387,75.971,12.0,57,0.0,798.8,8.6,39.6,66,23.1,17.2,31.6,212.0,6.0,0.7,0,5,7,0,2026-05-28T04:54:01.219251+05:30
Patiala,Punjab,30.3398,76.3869,29.2,34,0.0,972.4,7.65,48.6,573,108.7,48.5,20.7,553.0,57.0,9.8,4,5,7,0,2026-05-28T04:54:01.219257+05:30
Bhatinda,Punjab,30.211,74.9455,30.8,33,0.0,976.8,8.35,47.2,81,55.3,36.8,26.0,413.0,68.0,7.9,0,5,7,0,2026-05-28T04:54:01.219263+05:30
Rohtak,Haryana,28.8955,76.6066,28.6,40,0.0,975.6,7.8,63.7,764,343.7,82.0,35.0,287.0,25.0,5.2,4,5,7,0,2026-05-28T04:54:01.219268+05:30
Panipat,Haryana,29.3909,76.9635,28.1,49,0.0,975.1,7.65,52.9,1408,668.7,160.2,42.1,528.0,26.0,7.8,4,5,7,1,2026-05-28T04:54:01.219274+05:30
Mathura,Uttar Pradesh,27.4924,77.6737,31.5,31,0.0,981.0,8.05,75.2,692,246.8,64.5,26.3,383.0,31.0,5.4,0,5,7,0,2026-05-28T04:54:01.219279+05:30
Vrindavan,Uttar Pradesh,27.5823,77.7027,31.0,35,0.0,981.4,8.0,76.3,692,246.8,64.5,26.3,344.0,31.0,5.4,0,5,7,0,2026-05-28T04:54:01.219285+05:30
Ayodhya,Uttar Pradesh,26.7922,82.1998,27.0,69,0.0,992.9,8.35,45.7,87,34.5,30.0,9.5,384.0,86.0,10.2,7,5,7,1,2026-05-28T04:54:01.219291+05:30
Ratlam,Madhya Pradesh,23.3315,75.0367,26.8,77,0.0,953.5,8.5,50.8,71,40.4,22.6,8.3,186.0,48.0,14.7,7,5,7,1,2026-05-28T04:54:01.219296+05:30
Sagar,Madhya Pradesh,23.8388,78.7378,32.0,30,0.0,947.5,8.7,44.6,63,26.9,14.8,3.8,177.0,90.0,5.1,0,5,7,0,2026-05-28T04:54:01.219301+05:30
Satna,Madhya Pradesh,24.6005,80.8322,29.1,57,0.0,966.8,8.75,49.3,76,34.2,24.9,16.4,312.0,91.0,12.7,4,5,7,1,2026-05-28T04:54:01.219307+05:30
Akola,Maharashtra,20.7002,77.0082,30.1,54,0.0,973.7,8.8,42.8,56,32.6,21.7,8.3,166.0,71.0,10.8,0,5,7,1,2026-05-28T04:54:01.219313+05:30
Amravati,Maharashtra,20.9374,77.7796,31.0,49,0.0,965.5,8.85,41.0,55,33.5,22.4,8.2,197.0,78.0,10.3,0,5,7,1,2026-05-28T04:54:01.219319+05:30
Latur,Maharashtra,18.4088,76.5604,27.1,65,0.0,939.3,8.95,32.4,59,13.3,13.0,8.4,164.0,85.0,10.4,7,5,7,1,2026-05-28T04:54:01.219324+05:30
Nanded,Maharashtra,19.1383,77.3091,30.7,44,0.0,967.1,8.9,36.0,60,22.9,17.1,12.3,212.0,51.0,6.3,0,5,7,1,2026-05-28T04:54:01.219329+05:30
Gulbarga,Karnataka,17.3297,76.8343,27.4,64,0.0,958.4,8.95,37.8,58,13.2,11.6,14.9,174.0,42.0,4.1,7,5,7,1,2026-05-28T04:54:01.219334+05:30
Bidar,Karnataka,17.9104,77.5199,27.4,56,0.0,934.9,8.15,33.1,65,22.8,19.3,16.7,230.0,51.0,4.7,4,5,7,1,2026-05-28T04:54:01.219339+05:30
Hospet,Karnataka,15.2689,76.3909,25.0,91,0.0,956.3,8.9,51.1,42,6.3,5.3,5.2,139.0,40.0,1.5,7,5,7,1,2026-05-28T04:54:01.219344+05:30
Tirupur,Tamil Nadu,11.1085,77.3411,26.3,79,0.0,975.6,8.1,49.0,54,11.6,10.4,14.3,133.0,30.0,4.4,7,5,7,1,2026-05-28T04:54:01.219350+05:30
Alappuzha,Kerala,9.4981,76.3388,25.7,99,0.0,1009.8,7.7,24.1,40,14.0,9.8,8.7,272.0,37.0,2.3,7,0,4,1,2026-05-28T04:54:01.219355+05:30
Munnar,Kerala,10.0889,77.0595,17.8,100,0.0,857.4,7.5,28.4,29,4.5,4.2,7.6,133.0,27.0,1.0,3,10,7,1,2026-05-28T04:54:01.219361+05:30
Silchar,Assam,24.8333,92.7789,22.9,99,0.1,1005.4,8.9,20.5,112,81.0,65.4,20.8,461.0,42.0,6.2,6,5,4,1,2026-05-28T04:54:01.219366+05:30
Dibrugarh,Assam,27.4728,94.912,23.9,96,0.0,995.8,8.6,34.9,90,49.1,35.6,14.8,619.0,40.0,2.1,3,5,7,1,2026-05-28T04:54:01.219372+05:30
