city,state,latitude,longitude,temp,humidity,rain,pressure,uv_index,wind_gusts,aqi,pm10,pm2_5,mosquito_risk,arthritis_risk,migraine_risk,frizz_risk,updated_at
Delhi,Delhi,28.6139,77.209,19.7,71,0.0,983.7,5.55,33.5,395,480.6,94.8,3,5,3,0,2026-03-14T02:08:54.351029+05:30
Mumbai,Maharashtra,19.076,72.8777,28.9,69,0.0,1007.7,7.7,20.5,124,40.5,31.3,7,5,4,1,2026-03-14T02:08:54.351083+05:30
Bangalore,Karnataka,12.9716,77.5946,21.6,73,0.0,911.7,9.3,24.1,98,39.5,35.3,3,5,7,1,2026-03-14T02:08:54.351100+05:30
Hyderabad,Telangana,17.385,78.4867,23.4,66,0.0,953.1,8.7,32.8,97,33.2,27.9,3,5,7,1,2026-03-14T02:08:54.351110+05:30
Chennai,Tamil Nadu,13.0827,80.2707,25.5,86,0.0,1008.5,9.05,30.2,59,21.1,16.7,7,0,4,1,2026-03-14T02:08:54.351120+05:30
Kolkata,West Bengal,22.5726,88.3639,25.6,88,0.0,1006.5,8.05,33.1,106,22.3,17.9,7,5,4,1,2026-03-14T02:08:54.351129+05:30
Pune,Maharashtra,18.5204,73.8567,22.5,65,0.0,947.6,8.25,43.9,144,51.8,49.4,3,5,7,0,2026-03-14T02:08:54.351143+05:30
Ahmedabad,Gujarat,23.0225,72.5714,23.7,57,0.0,1002.2,7.5,22.3,107,42.1,28.9,0,5,4,0,2026-03-14T02:08:54.351150+05:30
Jaipur,Rajasthan,26.9124,75.7873,22.8,36,0.0,960.0,6.75,26.6,125,299.0,54.4,0,5,7,0,2026-03-14T02:08:54.351158+05:30
Lucknow,Uttar Pradesh,26.8467,80.9462,22.0,62,0.0,993.3,6.7,27.0,156,293.4,74.7,3,5,7,0,2026-03-14T02:08:54.351167+05:30
Kanpur,Uttar Pradesh,26.4499,80.3319,21.5,69,0.0,991.9,6.7,21.2,214,510.4,96.9,3,5,7,0,2026-03-14T02:08:54.351174+05:30
Chandigarh,Chandigarh,30.7333,76.7794,18.0,77,0.0,968.8,4.8,21.2,74,27.2,24.7,3,5,3,0,2026-03-14T02:08:54.351182+05:30
Srinagar,Jammu and Kashmir,34.0837,74.7973,6.1,83,0.0,839.2,6.6,12.6,87,63.6,48.8,3,10,7,0,2026-03-14T02:08:54.351190+05:30
Jammu,Jammu and Kashmir,32.7266,74.857,17.0,70,0.0,973.2,6.35,16.2,69,37.4,34.9,3,5,7,0,2026-03-14T02:08:54.351197+05:30
Amritsar,Punjab,31.634,74.8723,17.7,72,0.0,981.5,6.15,17.6,84,38.8,32.0,3,5,7,0,2026-03-14T02:08:54.351205+05:30
Ludhiana,Punjab,30.901,75.8573,18.4,67,0.0,979.5,5.85,21.6,94,35.0,28.7,3,5,3,0,2026-03-14T02:08:54.351211+05:30
Jalandhar,Punjab,31.326,75.5762,18.2,66,0.0,980.8,6.15,17.6,92,46.3,34.9,3,5,7,0,2026-03-14T02:08:54.351221+05:30
Dehradun,Uttarakhand,30.6284,78.0322,13.1,59,0.0,828.7,5.75,24.1,51,32.8,19.7,0,5,3,0,2026-03-14T02:08:54.351228+05:30
Shimla,Himachal Pradesh,31.1048,77.1734,10.6,66,0.0,781.9,5.55,27.7,54,33.8,23.3,3,5,3,0,2026-03-14T02:08:54.351235+05:30
Manali,Himachal Pradesh,32.2396,77.1887,12.4,28,0.0,818.6,6.5,37.4,40,32.7,17.5,0,5,7,1,2026-03-14T02:08:54.351242+05:30
Gurgaon,Haryana,28.4595,77.0266,17.4,81,0.0,982.0,6.0,31.3,1250,1188.4,162.5,3,10,3,0,2026-03-14T02:08:54.351249+05:30
Noida,Uttar Pradesh,28.5355,77.391,19.6,72,0.0,985.1,5.95,34.2,1250,1188.4,162.5,3,5,3,0,2026-03-14T02:08:54.351256+05:30
Ghaziabad,Uttar Pradesh,28.6692,77.4538,18.7,75,0.0,983.1,5.85,28.8,197,406.1,85.0,3,5,3,0,2026-03-14T02:08:54.351262+05:30
Faridabad,Haryana,28.4089,77.3178,18.9,71,0.0,984.3,6.2,33.8,1250,1188.4,162.5,3,5,7,0,2026-03-14T02:08:54.351269+05:30
Meerut,Uttar Pradesh,28.9845,77.7064,17.2,81,0.0,981.7,5.65,29.2,197,406.1,85.0,3,10,3,0,2026-03-14T02:08:54.351276+05:30
Agra,Uttar Pradesh,27.1767,78.0081,19.5,60,0.0,988.3,6.2,24.1,649,1136.2,161.1,0,5,7,0,2026-03-14T02:08:54.351283+05:30
Varanasi,Uttar Pradesh,25.3176,82.9739,20.5,72,0.0,997.3,7.1,24.1,133,132.2,59.0,3,5,7,0,2026-03-14T02:08:54.351292+05:30
Prayagraj,Uttar Pradesh,25.4358,81.8463,22.4,65,0.0,995.8,7.2,16.2,150,147.6,62.4,3,5,7,0,2026-03-14T02:08:54.351299+05:30
Gorakhpur,Uttar Pradesh,26.7606,83.3732,20.6,70,0.0,996.0,6.45,23.0,175,77.3,40.9,3,5,7,0,2026-03-14T02:08:54.351306+05:30
Bareilly,Uttar Pradesh,28.367,79.4304,18.5,75,0.0,986.7,6.1,24.8,133,158.8,51.8,3,5,7,0,2026-03-14T02:08:54.351313+05:30
Aligarh,Uttar Pradesh,27.8974,78.088,17.3,74,0.0,985.9,6.25,38.2,629,892.2,144.4,3,5,7,0,2026-03-14T02:08:54.351320+05:30
Moradabad,Uttar Pradesh,28.8386,78.7733,18.3,73,0.0,983.5,6.0,26.6,139,189.1,61.7,3,5,3,0,2026-03-14T02:08:54.351326+05:30
Saharanpur,Uttar Pradesh,29.9637,77.546,17.4,81,0.0,975.7,5.15,23.0,123,102.4,56.2,3,10,3,0,2026-03-14T02:08:54.351333+05:30
Jhansi,Uttar Pradesh,25.4484,78.5685,22.0,66,0.0,978.0,7.15,20.2,79,120.6,45.5,3,5,7,0,2026-03-14T02:08:57.704420+05:30
Surat,Gujarat,21.1702,72.8311,24.6,83,0.0,1006.2,7.35,21.2,141,41.2,34.8,3,5,4,1,2026-03-14T02:08:57.704453+05:30
Vadodara,Gujarat,22.3072,73.1812,25.6,56,0.0,1003.9,7.55,26.3,113,47.1,41.8,4,5,4,1,2026-03-14T02:08:57.704463+05:30
Rajkot,Gujarat,22.3039,70.8022,22.9,59,0.0,994.9,7.35,30.2,85,157.4,41.3,0,5,7,0,2026-03-14T02:08:57.704471+05:30
Thane,Maharashtra,19.2183,72.9781,26.9,67,0.0,1007.2,7.65,33.1,124,40.5,31.3,7,5,4,1,2026-03-14T02:08:57.704479+05:30
Nagpur,Maharashtra,21.1458,79.0882,24.1,56,0.0,972.2,8.1,21.6,88,38.9,36.9,0,5,7,0,2026-03-14T02:08:57.704486+05:30
Nashik,Maharashtra,19.9975,73.7898,23.8,51,0.0,945.3,7.85,37.1,101,35.6,31.9,0,5,7,0,2026-03-14T02:08:57.704493+05:30
Aurangabad,Maharashtra,19.8762,75.3433,23.3,50,0.0,943.3,8.4,24.8,74,38.5,36.8,0,5,7,0,2026-03-14T02:08:57.704542+05:30
Solapur,Maharashtra,17.6599,75.9064,26.2,52,0.0,956.0,8.6,18.4,97,41.4,37.3,4,5,7,0,2026-03-14T02:08:57.704554+05:30
Kolhapur,Maharashtra,16.705,74.2433,21.6,94,0.0,947.4,8.7,39.6,146,67.3,65.9,3,5,7,1,2026-03-14T02:08:57.704562+05:30
Goa,Goa,15.2993,74.124,27.3,84,0.0,998.0,8.75,33.5,131,61.5,56.7,7,5,7,1,2026-03-14T02:08:57.704570+05:30
Jodhpur,Rajasthan,26.2389,73.0243,25.1,46,0.0,982.7,7.15,34.9,90,131.8,36.7,4,5,7,0,2026-03-14T02:08:57.704577+05:30
Udaipur,Rajasthan,24.5854,73.7125,22.3,36,0.0,946.6,7.85,32.8,62,47.8,22.8,0,5,7,0,2026-03-14T02:08:57.704584+05:30
Kota,Rajasthan,25.2138,75.8648,22.6,52,0.0,978.3,6.75,22.0,63,37.3,21.1,0,5,7,0,2026-03-14T02:08:57.704591+05:30
Bikaner,Rajasthan,28.0229,73.3119,24.3,39,0.0,982.0,6.5,22.3,73,31.9,15.9,0,5,7,0,2026-03-14T02:08:57.704598+05:30
Ajmer,Rajasthan,26.4499,74.6399,24.2,31,0.0,954.6,7.25,33.8,79,69.4,29.2,0,5,7,0,2026-03-14T02:08:57.704605+05:30
Gwalior,Madhya Pradesh,26.2183,78.1828,24.6,55,0.0,983.8,6.5,18.7,115,383.7,72.6,0,5,7,0,2026-03-14T02:08:57.704613+05:30
Indore,Madhya Pradesh,22.7196,75.8577,21.4,44,0.0,947.4,7.8,31.0,64,35.9,32.7,0,5,7,0,2026-03-14T02:08:57.704619+05:30
Bhopal,Madhya Pradesh,23.2599,77.4126,19.8,40,0.0,953.1,7.65,29.5,68,26.5,25.7,0,5,7,0,2026-03-14T02:08:57.704626+05:30
Jabalpur,Madhya Pradesh,23.1815,79.9864,22.7,46,0.0,960.9,7.8,24.1,79,26.8,26.4,0,5,7,0,2026-03-14T02:08:57.704633+05:30
Ujjain,Madhya Pradesh,23.1765,75.7885,21.4,48,0.0,953.1,7.7,31.0,65,30.6,27.5,0,5,7,0,2026-03-14T02:08:57.704640+05:30
Visakhapatnam,Andhra Pradesh,17.6868,83.2185,25.2,88,0.0,1004.9,8.65,42.8,78,19.8,16.6,7,5,4,1,2026-03-14T02:08:57.704648+05:30
Vijayawada,Andhra Pradesh,16.5062,80.648,24.6,94,0.0,1003.7,8.75,29.2,82,16.1,13.7,3,5,4,1,2026-03-14T02:08:57.704655+05:30
Guntur,Andhra Pradesh,16.3067,80.4365,24.6,94,0.0,1004.9,8.75,31.7,76,14.3,12.0,3,5,4,1,2026-03-14T02:08:57.704662+05:30
Nellore,Andhra Pradesh,14.4426,79.9865,24.5,95,0.0,1006.8,8.9,31.3,69,15.5,12.9,3,5,4,1,2026-03-14T02:08:57.704670+05:30
Kurnool,Andhra Pradesh,15.8281,78.0373,26.8,57,0.0,976.6,8.75,22.3,109,28.8,25.4,4,5,7,1,2026-03-14T02:08:57.704678+05:30
Kakinada,Andhra Pradesh,16.9891,82.2475,24.1,94,0.0,1009.0,8.7,32.0,68,18.2,13.7,3,0,4,1,2026-03-14T02:08:57.704684+05:30
Tirupati,Andhra Pradesh,13.6288,79.4192,22.9,90,0.0,993.1,9.05,29.5,86,30.6,27.7,3,5,7,1,2026-03-14T02:08:57.704691+05:30
Warangal,Telangana,17.9689,79.5941,23.5,86,0.0,978.7,8.55,29.5,111,23.5,21.8,3,5,7,1,2026-03-14T02:08:57.704698+05:30
Nizamabad,Telangana,18.6725,78.0941,26.5,47,0.0,964.0,8.45,30.6,122,48.5,42.6,4,5,7,0,2026-03-14T02:08:57.704705+05:30
Mysore,Karnataka,12.2958,76.6396,21.9,95,0.0,928.7,9.3,31.3,94,48.4,43.4,3,5,7,1,2026-03-14T02:08:57.704711+05:30
Mangalore,Karnataka,12.9141,74.856,28.6,81,0.0,1006.9,8.95,24.8,115,53.3,47.3,7,5,4,1,2026-03-14T02:08:57.704718+05:30
Hubli-Dharwad,Karnataka,15.3647,75.124,22.4,93,0.0,940.7,8.95,41.8,87,40.0,38.1,3,5,7,1,2026-03-14T02:08:57.704726+05:30
Belgaum,Karnataka,15.8497,74.4977,22.1,96,0.0,925.4,9.0,40.3,117,53.3,49.2,3,5,7,1,2026-03-14T02:09:01.052577+05:30
Coimbatore,Tamil Nadu,11.0168,76.9558,22.9,78,0.0,962.4,9.3,34.2,86,36.4,32.7,3,5,7,1,2026-03-14T02:09:01.052609+05:30
Madurai,Tamil Nadu,9.9252,78.1198,24.9,82,0.0,994.2,9.3,29.5,76,31.8,29.3,3,5,7,1,2026-03-14T02:09:01.052619+05:30
Trichy,Tamil Nadu,10.7905,78.7047,23.8,93,0.0,1001.0,9.2,19.4,79,26.4,23.5,3,5,4,1,2026-03-14T02:09:01.052627+05:30
Salem,Tamil Nadu,11.6643,78.146,23.2,89,0.0,978.0,9.2,15.1,108,45.2,41.0,3,5,7,1,2026-03-14T02:09:01.052635+05:30
Tirunelveli,Tamil Nadu,8.7139,77.7567,23.7,87,0.0,1004.1,9.25,40.7,60,25.7,23.7,3,5,4,1,2026-03-14T02:09:01.052643+05:30
Vellore,Tamil Nadu,12.9165,79.1325,21.8,93,0.0,985.9,9.1,32.0,102,46.3,43.9,3,5,7,1,2026-03-14T02:09:01.052650+05:30
Erode,Tamil Nadu,11.341,77.7172,24.6,86,0.0,990.0,9.2,19.4,83,20.5,18.7,3,5,7,1,2026-03-14T02:09:01.052657+05:30
Kochi,Kerala,9.9312,76.2673,26.6,87,0.0,1009.3,9.1,33.5,80,28.1,27.2,7,0,4,1,2026-03-14T02:09:01.052665+05:30
Thiruvananthapuram,Kerala,8.5241,76.9366,27.3,83,0.0,1008.2,9.1,26.3,67,19.6,15.4,7,0,4,1,2026-03-14T02:09:01.052672+05:30
Kozhikode,Kerala,11.2588,75.7804,26.9,86,0.0,1008.7,9.05,28.8,89,30.0,26.4,7,0,4,1,2026-03-14T02:09:01.052679+05:30
Thrissur,Kerala,10.5276,76.2144,25.7,89,0.0,1007.7,9.1,36.4,96,26.5,25.4,7,5,4,1,2026-03-14T02:09:01.052686+05:30
Kannur,Kerala,11.8745,75.3704,27.2,85,0.0,1007.7,9.0,32.0,103,41.1,37.6,7,5,4,1,2026-03-14T02:09:01.052693+05:30
Patna,Bihar,25.5941,85.1376,24.0,68,0.0,999.8,7.5,19.1,169,146.2,68.0,3,5,7,1,2026-03-14T02:09:01.052699+05:30
Gaya,Bihar,24.7914,85.0002,24.6,51,0.0,993.4,7.6,12.2,147,148.5,60.1,0,5,7,0,2026-03-14T02:09:01.052706+05:30
Muzaffarpur,Bihar,26.1209,85.3647,21.9,88,0.0,999.5,7.15,20.9,172,163.9,112.2,3,5,7,1,2026-03-14T02:09:01.052713+05:30
Bhagalpur,Bihar,25.2425,87.0117,23.0,98,0.0,1000.7,7.45,18.4,164,106.2,75.4,3,5,4,1,2026-03-14T02:09:01.052719+05:30
Ranchi,Jharkhand,23.3441,85.3096,22.7,41,0.0,937.6,8.25,26.6,72,87.1,33.2,0,5,7,0,2026-03-14T02:09:01.052725+05:30
Jamshedpur,Jharkhand,22.8046,86.2029,25.7,62,0.0,990.6,8.1,32.0,147,85.7,65.7,7,5,7,1,2026-03-14T02:09:01.052732+05:30
Dhanbad,Jharkhand,23.7957,86.4304,23.4,55,0.0,979.5,7.65,19.1,159,150.9,78.5,0,5,7,0,2026-03-14T02:09:01.052738+05:30
Bokaro,Jharkhand,23.6693,86.1511,21.6,56,0.0,983.7,7.7,19.8,146,140.6,74.5,0,5,7,0,2026-03-14T02:09:01.052745+05:30
Bhubaneswar,Odisha,20.2961,85.8245,25.2,87,0.0,1002.8,8.4,40.0,89,18.9,16.1,7,5,4,1,2026-03-14T02:09:01.052753+05:30
Cuttack,Odisha,20.4625,85.8828,25.2,87,0.0,1004.7,8.45,38.9,89,18.9,16.1,7,5,4,1,2026-03-14T02:09:01.052760+05:30
Rourkela,Odisha,22.2604,84.8536,22.2,74,0.0,984.4,8.05,28.1,90,57.5,42.7,3,5,7,1,2026-03-14T02:09:01.052766+05:30
Raipur,Chhattisgarh,21.2514,81.6296,23.3,45,0.0,973.5,8.15,37.1,128,57.3,51.6,0,5,7,0,2026-03-14T02:09:01.052772+05:30
Bhilai,Chhattisgarh,21.1938,81.3509,21.6,49,0.0,973.8,8.15,36.0,122,63.8,57.9,0,5,7,0,2026-03-14T02:09:01.052778+05:30
Guwahati,Assam,26.1158,91.7086,21.6,95,0.0,1002.2,7.45,33.8,121,27.9,21.5,3,5,4,1,2026-03-14T02:09:01.052785+05:30
Agartala,Tripura,23.8315,91.2868,21.7,94,0.0,1007.8,7.85,37.4,98,18.5,15.9,3,5,4,1,2026-03-14T02:09:01.052791+05:30
Shillong,Meghalaya,25.5788,91.8933,13.1,92,0.0,854.7,7.8,65.5,88,12.4,9.1,3,10,7,0,2026-03-14T02:09:01.052798+05:30
Imphal,Manipur,24.817,93.9368,15.8,93,0.0,923.7,7.6,81.0,155,51.7,44.7,3,10,7,0,2026-03-14T02:09:01.052805+05:30
Aizawl,Mizoram,23.7271,92.7176,17.0,88,0.0,893.4,8.0,69.1,133,33.2,28.6,3,10,7,0,2026-03-14T02:09:01.052812+05:30
Kohima,Nagaland,25.6701,94.1077,14.5,85,0.0,853.5,6.95,93.2,113,16.8,14.9,3,10,7,0,2026-03-14T02:09:01.052818+05:30
Gangtok,Sikkim,27.3314,88.6138,13.0,93,0.0,834.4,7.55,20.9,85,15.9,15.2,3,10,7,0,2026-03-14T02:09:01.052824+05:30
Siliguri,West Bengal,26.7271,88.3953,18.4,94,0.0,993.7,7.35,24.1,132,45.8,37.6,3,10,7,1,2026-03-14T02:09:04.404490+05:30
Durgapur,West Bengal,23.5204,87.3119,24.3,94,0.0,994.7,7.95,30.6,158,114.8,84.3,3,5,7,1,2026-03-14T02:09:04.404568+05:30
Asansol,West Bengal,23.6739,86.9524,24.7,75,0.0,993.2,7.75,23.0,154,121.1,63.6,3,5,7,1,2026-03-14T02:09:04.404581+05:30
Pondicherry,Puducherry,11.9139,79.8145,23.4,95,0.0,1009.7,9.05,29.9,57,18.8,14.6,3,0,4,1,2026-03-14T02:09:04.404590+05:30
Port Blair,Andaman and Nicobar Islands,11.6234,92.7265,27.8,79,0.0,1007.6,8.95,27.4,67,13.9,10.8,7,5,4,1,2026-03-14T02:09:04.404600+05:30
Haridwar,Uttarakhand,29.9457,78.1642,17.5,84,0.0,974.1,5.55,25.9,84,61.7,50.8,3,10,3,0,2026-03-14T02:09:04.404610+05:30
Rishikesh,Uttarakhand,30.0869,78.2676,18.7,67,0.0,966.8,5.35,23.0,62,35.0,27.8,3,5,3,0,2026-03-14T02:09:04.404619+05:30
Nainital,Uttarakhand,29.3919,79.4542,17.9,34,0.0,805.0,6.1,36.0,78,30.4,26.5,0,5,7,0,2026-03-14T02:09:04.404628+05:30
Mussoorie,Uttarakhand,30.4599,78.0664,15.5,54,0.0,801.6,5.55,28.1,72,43.7,38.1,0,5,3,0,2026-03-14T02:09:04.404637+05:30
Dharamshala,Himachal Pradesh,32.219,76.3234,18.3,23,0.0,868.5,4.6,22.3,44,19.0,11.1,0,5,3,1,2026-03-14T02:09:04.404645+05:30
Dalhousie,Himachal Pradesh,32.5387,75.971,14.6,27,0.0,802.4,5.5,20.2,64,33.4,29.2,0,5,3,1,2026-03-14T02:09:04.404654+05:30
Patiala,Punjab,30.3398,76.3869,17.4,78,0.0,978.7,5.5,18.7,368,469.4,63.8,3,5,3,0,2026-03-14T02:09:04.404663+05:30
Bhatinda,Punjab,30.211,74.9455,19.1,76,0.0,984.6,5.95,17.6,104,48.7,36.9,3,5,3,0,2026-03-14T02:09:04.404670+05:30
Rohtak,Haryana,28.8955,76.6066,17.5,80,0.0,982.4,5.55,25.9,546,532.7,95.7,3,5,3,0,2026-03-14T02:09:04.404678+05:30
Panipat,Haryana,29.3909,76.9635,17.3,81,0.0,980.8,5.35,21.2,1014,1039.4,135.5,3,10,3,0,2026-03-14T02:09:04.404686+05:30
Mathura,Uttar Pradesh,27.4924,77.6737,19.2,61,0.0,987.4,6.15,34.6,771,1180.9,177.0,3,5,7,0,2026-03-14T02:09:04.404694+05:30
Vrindavan,Uttar Pradesh,27.5823,77.7027,18.0,67,0.0,987.8,6.3,38.2,771,1180.9,177.0,3,5,7,0,2026-03-14T02:09:04.404702+05:30
Ayodhya,Uttar Pradesh,26.7922,82.1998,20.6,71,0.0,994.6,6.75,23.8,155,166.2,55.4,3,5,7,0,2026-03-14T02:09:04.404710+05:30
Ratlam,Madhya Pradesh,23.3315,75.0367,25.0,39,0.0,954.3,7.65,35.6,75,28.3,23.6,4,5,7,0,2026-03-14T02:09:04.404718+05:30
Sagar,Madhya Pradesh,23.8388,78.7378,22.5,34,0.0,949.6,7.65,29.2,60,16.9,15.8,0,5,7,0,2026-03-14T02:09:04.404726+05:30
Satna,Madhya Pradesh,24.6005,80.8322,22.2,40,0.0,971.2,7.6,29.2,58,52.3,22.2,0,5,7,0,2026-03-14T02:09:04.404733+05:30
Akola,Maharashtra,20.7002,77.0082,25.0,44,0.0,974.2,8.1,21.2,90,52.4,49.0,4,5,7,0,2026-03-14T02:09:04.404742+05:30
Amravati,Maharashtra,20.9374,77.7796,24.2,50,0.0,966.1,8.1,17.6,93,55.6,50.9,0,5,7,0,2026-03-14T02:09:04.404750+05:30
Latur,Maharashtra,18.4088,76.5604,25.0,48,0.0,939.0,8.5,26.3,101,40.4,34.0,4,5,7,0,2026-03-14T02:09:04.404758+05:30
Nanded,Maharashtra,19.1383,77.3091,27.3,44,0.0,967.8,8.3,24.5,120,47.7,40.3,4,5,7,0,2026-03-14T02:09:04.404766+05:30
Gulbarga,Karnataka,17.3297,76.8343,27.3,45,0.0,958.5,8.6,33.5,93,40.3,34.7,4,5,7,0,2026-03-14T02:09:04.404773+05:30
Bidar,Karnataka,17.9104,77.5199,25.4,43,0.0,935.1,8.55,38.9,97,37.5,31.9,4,5,7,0,2026-03-14T02:09:04.404781+05:30
Hospet,Karnataka,15.2689,76.3909,26.6,63,0.0,956.0,8.9,29.2,98,52.2,43.9,7,5,7,1,2026-03-14T02:09:04.404788+05:30
Tirupur,Tamil Nadu,11.1085,77.3411,25.3,71,0.0,976.1,9.3,28.1,92,25.5,22.7,7,5,7,1,2026-03-14T02:09:04.404796+05:30
Alappuzha,Kerala,9.4981,76.3388,26.4,88,0.0,1009.3,9.1,27.7,81,28.8,26.8,7,0,4,1,2026-03-14T02:09:04.404804+05:30
Munnar,Kerala,10.0889,77.0595,18.3,91,0.0,855.7,9.6,31.7,72,27.1,24.6,3,10,7,1,2026-03-14T02:09:04.404813+05:30
Silchar,Assam,24.8333,92.7789,20.7,95,0.0,1007.5,7.75,36.4,155,42.7,36.9,3,5,4,1,2026-03-14T02:09:04.404820+05:30
Dibrugarh,Assam,27.4728,94.912,20.5,88,0.0,996.4,1.2,19.4,130,38.0,34.5,3,5,3,1,2026-03-14T02:09:04.404827+05:30
