city,state,latitude,longitude,temp,humidity,rain,pressure,uv_index,wind_gusts,aqi,pm10,pm2_5,no2,co,o3,so2,mosquito_risk,arthritis_risk,migraine_risk,frizz_risk,updated_at
Delhi,Delhi,28.6139,77.209,29.2,67,0.0,978.1,7.7,36.7,206,187.7,82.4,45.0,268.0,12.0,17.9,7,5,7,1,2026-07-16T05:30:31.324432+05:30
Mumbai,Maharashtra,19.076,72.8777,25.6,91,0.0,1007.3,7.45,34.6,68,38.3,16.2,7.8,133.0,41.0,7.8,7,5,4,1,2026-07-16T05:30:31.324482+05:30
Bangalore,Karnataka,12.9716,77.5946,19.7,91,0.0,911.5,8.7,42.1,55,24.0,15.1,13.9,224.0,37.0,5.5,3,10,7,1,2026-07-16T05:30:31.324499+05:30
Hyderabad,Telangana,17.385,78.4867,25.5,73,0.0,951.7,6.55,42.1,67,20.3,13.0,8.3,165.0,48.0,5.2,7,5,7,1,2026-07-16T05:30:31.324509+05:30
Chennai,Tamil Nadu,13.0827,80.2707,29.0,62,0.0,1005.5,8.2,37.8,79,24.9,20.3,19.6,291.0,40.0,11.3,7,5,4,1,2026-07-16T05:30:31.324518+05:30
Kolkata,West Bengal,22.5726,88.3639,26.6,90,0.0,998.4,7.2,49.0,67,22.1,17.1,8.3,235.0,81.0,7.6,7,5,7,1,2026-07-16T05:30:31.324526+05:30
Pune,Maharashtra,18.5204,73.8567,23.0,87,0.0,946.5,8.1,38.5,52,13.9,8.7,9.3,138.0,32.0,7.8,3,5,7,1,2026-07-16T05:30:31.324533+05:30
Ahmedabad,Gujarat,23.0225,72.5714,26.9,83,0.0,999.6,7.0,36.7,73,48.4,29.7,15.1,234.0,21.0,4.6,7,5,7,1,2026-07-16T05:30:31.324540+05:30
Jaipur,Rajasthan,26.9124,75.7873,28.3,61,0.0,956.3,8.2,37.1,179,495.5,85.2,10.4,171.0,47.0,4.4,7,5,7,1,2026-07-16T05:30:31.324547+05:30
Lucknow,Uttar Pradesh,26.8467,80.9462,28.3,84,0.0,988.5,7.55,36.0,163,143.0,72.4,17.5,339.0,58.0,7.4,7,5,7,1,2026-07-16T05:30:31.324559+05:30
Kanpur,Uttar Pradesh,26.4499,80.3319,28.7,74,0.0,987.0,7.6,33.5,160,156.0,70.1,17.2,248.0,51.0,6.6,7,5,7,1,2026-07-16T05:30:31.324566+05:30
Chandigarh,Chandigarh,30.7333,76.7794,25.9,84,0.0,963.7,7.7,30.2,159,93.1,83.1,38.2,577.0,24.0,7.7,7,5,7,1,2026-07-16T05:30:31.324573+05:30
Srinagar,Jammu and Kashmir,34.0837,74.7973,17.1,95,0.0,838.9,9.0,16.6,93,44.0,41.0,27.6,396.0,4.0,1.4,3,10,7,1,2026-07-16T05:30:31.324580+05:30
Jammu,Jammu and Kashmir,32.7266,74.857,24.6,89,0.0,968.0,8.55,22.0,153,72.9,66.8,49.8,536.0,4.0,3.4,3,5,7,1,2026-07-16T05:30:31.324587+05:30
Amritsar,Punjab,31.634,74.8723,27.1,89,0.0,975.9,7.65,18.7,176,136.4,122.9,63.6,1024.0,18.0,10.3,7,5,7,1,2026-07-16T05:30:31.324594+05:30
Ludhiana,Punjab,30.901,75.8573,27.5,86,0.0,973.8,7.95,30.6,179,224.0,140.6,69.3,1302.0,2.0,10.9,7,5,7,1,2026-07-16T05:30:31.324601+05:30
Jalandhar,Punjab,31.326,75.5762,26.8,88,0.0,974.9,8.2,25.6,184,236.6,174.6,68.2,1241.0,0.0,9.8,7,5,7,1,2026-07-16T05:30:31.324608+05:30
Dehradun,Uttarakhand,30.6284,78.0322,17.0,100,0.0,827.5,7.05,28.8,82,20.4,18.0,14.8,349.0,40.0,0.1,3,10,7,1,2026-07-16T05:30:31.324614+05:30
Shimla,Himachal Pradesh,31.1048,77.1734,13.1,94,0.0,780.6,8.25,35.6,102,41.3,36.3,8.4,331.0,63.0,0.4,3,10,7,0,2026-07-16T05:30:31.324623+05:30
Manali,Himachal Pradesh,32.2396,77.1887,18.4,61,0.0,816.5,9.5,32.4,48,3.1,2.7,8.1,142.0,78.0,0.0,3,5,7,0,2026-07-16T05:30:31.324632+05:30
Gurgaon,Haryana,28.4595,77.0266,28.9,65,0.0,976.7,7.75,35.6,231,155.5,63.3,31.5,226.0,24.0,9.9,7,5,7,1,2026-07-16T05:30:31.324639+05:30
Noida,Uttar Pradesh,28.5355,77.391,29.0,70,0.0,979.4,7.7,25.6,231,155.5,63.3,31.5,272.0,24.0,9.9,7,5,7,1,2026-07-16T05:30:31.324647+05:30
Ghaziabad,Uttar Pradesh,28.6692,77.4538,28.9,73,0.0,977.7,7.65,29.2,187,173.2,90.3,48.3,379.0,14.0,23.0,7,5,7,1,2026-07-16T05:30:31.324654+05:30
Faridabad,Haryana,28.4089,77.3178,29.7,64,0.0,978.8,7.7,36.4,231,155.5,63.3,31.5,237.0,24.0,9.9,7,5,7,1,2026-07-16T05:30:31.324661+05:30
Meerut,Uttar Pradesh,28.9845,77.7064,27.8,87,0.0,976.6,7.6,33.8,187,173.2,90.3,48.3,1237.0,14.0,23.0,7,5,7,1,2026-07-16T05:30:31.324669+05:30
Agra,Uttar Pradesh,27.1767,78.0081,28.6,71,0.0,983.1,6.15,32.4,153,171.8,59.6,26.5,211.0,31.0,6.8,7,5,7,1,2026-07-16T05:30:31.324676+05:30
Varanasi,Uttar Pradesh,25.3176,82.9739,28.6,89,0.0,992.3,6.7,26.3,183,172.3,104.1,29.0,456.0,42.0,16.2,7,5,7,1,2026-07-16T05:30:31.324683+05:30
Prayagraj,Uttar Pradesh,25.4358,81.8463,29.1,87,0.0,990.8,6.45,27.4,172,136.0,82.0,28.2,225.0,41.0,9.5,7,5,7,1,2026-07-16T05:30:31.324690+05:30
Gorakhpur,Uttar Pradesh,26.7606,83.3732,26.3,98,0.0,993.0,7.05,28.8,158,64.5,50.9,13.9,416.0,80.0,6.8,7,5,7,1,2026-07-16T05:30:31.324697+05:30
Bareilly,Uttar Pradesh,28.367,79.4304,26.8,95,0.0,982.0,7.75,30.6,175,183.0,109.9,41.9,532.0,39.0,16.4,7,5,7,1,2026-07-16T05:30:31.324705+05:30
Aligarh,Uttar Pradesh,27.8974,78.088,28.2,74,0.0,980.8,7.6,27.4,170,148.1,61.9,21.7,265.0,38.0,5.4,7,5,7,1,2026-07-16T05:30:31.324712+05:30
Moradabad,Uttar Pradesh,28.8386,78.7733,27.1,96,0.0,978.8,7.8,34.2,183,241.2,151.8,68.4,582.0,10.0,20.6,7,5,7,1,2026-07-16T05:30:31.324719+05:30
Saharanpur,Uttar Pradesh,29.9637,77.546,26.7,94,0.0,970.8,7.4,31.3,174,118.0,91.7,37.4,1020.0,15.0,8.0,7,5,7,1,2026-07-16T05:30:31.324727+05:30
Jhansi,Uttar Pradesh,25.4484,78.5685,28.3,66,0.0,974.0,6.05,35.3,120,58.0,33.3,11.9,197.0,49.0,7.0,7,5,7,1,2026-07-16T05:30:37.029435+05:30
Surat,Gujarat,21.1702,72.8311,24.6,96,0.0,1004.8,7.35,40.3,73,36.2,23.3,27.9,240.0,19.0,38.9,3,5,4,1,2026-07-16T05:30:37.029469+05:30
Vadodara,Gujarat,22.3072,73.1812,26.8,89,0.0,1002.0,5.45,40.3,67,26.9,17.1,14.5,176.0,26.0,13.2,7,5,0,1,2026-07-16T05:30:37.029480+05:30
Rajkot,Gujarat,22.3039,70.8022,25.9,91,0.0,991.3,6.75,37.1,68,23.6,12.1,5.6,106.0,34.0,3.3,7,5,7,1,2026-07-16T05:30:37.029490+05:30
Thane,Maharashtra,19.2183,72.9781,24.7,95,0.0,1006.8,6.25,36.7,68,38.3,16.2,7.8,139.0,41.0,7.8,3,5,4,1,2026-07-16T05:30:37.029498+05:30
Nagpur,Maharashtra,21.1458,79.0882,27.6,68,0.0,970.2,8.85,40.3,95,36.8,23.3,10.2,203.0,52.0,8.7,7,5,7,1,2026-07-16T05:30:37.029506+05:30
Nashik,Maharashtra,19.9975,73.7898,22.4,95,0.0,943.6,8.1,41.4,55,12.5,7.9,11.2,127.0,31.0,12.5,3,5,7,1,2026-07-16T05:30:37.029513+05:30
Aurangabad,Maharashtra,19.8762,75.3433,22.7,92,0.0,942.6,8.9,42.1,55,19.2,11.5,11.5,169.0,31.0,12.3,3,5,7,1,2026-07-16T05:30:37.029521+05:30
Solapur,Maharashtra,17.6599,75.9064,24.3,80,0.0,956.7,8.7,37.8,58,11.4,7.5,7.1,142.0,33.0,2.7,3,5,7,1,2026-07-16T05:30:37.029529+05:30
Kolhapur,Maharashtra,16.705,74.2433,22.5,90,0.0,947.2,7.4,43.6,52,18.5,9.3,3.7,110.0,41.0,2.3,3,5,7,1,2026-07-16T05:30:37.029536+05:30
Goa,Goa,15.2993,74.124,24.4,95,0.0,998.0,7.75,30.6,74,47.5,27.7,7.7,380.0,35.0,2.4,3,5,7,1,2026-07-16T05:30:37.029543+05:30
Jodhpur,Rajasthan,26.2389,73.0243,28.4,64,0.0,979.8,8.4,35.6,115,169.0,47.5,7.1,122.0,43.0,2.5,7,5,7,1,2026-07-16T05:30:37.029549+05:30
Udaipur,Rajasthan,24.5854,73.7125,23.4,86,0.0,943.6,8.25,30.2,68,41.2,24.2,13.1,152.0,38.0,10.5,3,5,7,1,2026-07-16T05:30:37.029557+05:30
Kota,Rajasthan,25.2138,75.8648,27.9,69,0.0,975.6,8.3,31.7,92,35.2,21.6,9.0,177.0,59.0,8.5,7,5,7,1,2026-07-16T05:30:37.029564+05:30
Bikaner,Rajasthan,28.0229,73.3119,30.0,54,0.0,977.7,8.45,34.2,150,99.2,39.6,3.2,116.0,48.0,3.0,4,5,7,1,2026-07-16T05:30:37.029572+05:30
Ajmer,Rajasthan,26.4499,74.6399,26.0,71,0.0,951.6,8.35,41.4,88,39.2,20.7,8.0,139.0,51.0,4.1,7,5,7,1,2026-07-16T05:30:37.029579+05:30
Gwalior,Madhya Pradesh,26.2183,78.1828,28.1,75,0.0,978.9,8.15,36.0,139,73.6,36.2,14.5,145.0,41.0,3.3,7,5,7,1,2026-07-16T05:30:37.029587+05:30
Indore,Madhya Pradesh,22.7196,75.8577,23.7,91,0.0,945.9,7.7,37.1,67,24.6,15.3,9.5,163.0,36.0,11.3,3,5,7,1,2026-07-16T05:30:37.029595+05:30
Bhopal,Madhya Pradesh,23.2599,77.4126,25.0,81,0.0,951.1,8.6,34.2,91,29.5,21.0,8.7,246.0,58.0,5.9,7,5,7,1,2026-07-16T05:30:37.029602+05:30
Jabalpur,Madhya Pradesh,23.1815,79.9864,25.3,83,0.1,957.9,8.7,36.4,115,66.1,36.0,8.7,237.0,51.0,4.2,10,5,7,1,2026-07-16T05:30:37.029609+05:30
Ujjain,Madhya Pradesh,23.1765,75.7885,24.0,92,0.0,951.6,8.4,36.0,67,25.3,15.7,9.7,170.0,35.0,12.8,3,5,7,1,2026-07-16T05:30:37.029617+05:30
Visakhapatnam,Andhra Pradesh,17.6868,83.2185,29.9,51,0.0,998.7,3.35,33.8,111,37.1,27.4,26.0,322.0,43.0,42.3,4,5,3,1,2026-07-16T05:30:37.029624+05:30
Vijayawada,Andhra Pradesh,16.5062,80.648,29.4,57,0.0,999.7,4.1,42.8,78,30.3,19.6,10.0,171.0,47.0,5.6,4,5,3,1,2026-07-16T05:30:37.029631+05:30
Guntur,Andhra Pradesh,16.3067,80.4365,29.9,55,0.0,1001.1,5.3,45.4,74,28.2,18.3,8.9,163.0,48.0,5.2,4,5,0,1,2026-07-16T05:30:37.029638+05:30
Nellore,Andhra Pradesh,14.4426,79.9865,29.1,51,0.0,1004.0,8.0,42.8,64,22.4,17.2,12.6,140.0,49.0,7.1,4,5,4,1,2026-07-16T05:30:37.029645+05:30
Kurnool,Andhra Pradesh,15.8281,78.0373,27.5,62,0.0,976.2,7.9,57.6,70,18.7,12.4,8.3,133.0,38.0,4.2,7,5,7,1,2026-07-16T05:30:37.029653+05:30
Kakinada,Andhra Pradesh,16.9891,82.2475,28.8,56,0.0,1003.5,2.0,42.1,89,31.7,20.3,8.9,237.0,64.0,6.6,4,5,0,1,2026-07-16T05:30:37.029661+05:30
Tirupati,Andhra Pradesh,13.6288,79.4192,27.3,61,0.0,989.6,7.65,31.3,73,17.9,14.7,17.7,158.0,33.0,2.1,7,5,7,1,2026-07-16T05:30:37.029668+05:30
Warangal,Telangana,17.9689,79.5941,27.8,64,0.0,976.3,1.95,44.6,74,19.4,12.5,6.5,177.0,58.0,4.5,7,5,3,1,2026-07-16T05:30:37.029675+05:30
Nizamabad,Telangana,18.6725,78.0941,26.3,72,0.0,963.1,8.6,46.1,67,21.3,14.2,8.3,162.0,47.0,6.3,7,5,7,1,2026-07-16T05:30:37.029682+05:30
Mysore,Karnataka,12.2958,76.6396,20.1,96,0.0,928.4,8.45,45.4,56,26.4,17.2,10.7,126.0,28.0,1.6,3,5,7,1,2026-07-16T05:30:37.029688+05:30
Mangalore,Karnataka,12.9141,74.856,24.3,97,0.1,1007.8,7.75,41.0,74,31.2,17.6,13.0,141.0,26.0,3.8,6,5,4,1,2026-07-16T05:30:37.029696+05:30
Hubli-Dharwad,Karnataka,15.3647,75.124,22.4,89,0.0,940.5,7.75,46.4,55,14.6,6.9,2.3,100.0,45.0,1.5,3,5,7,1,2026-07-16T05:30:37.029703+05:30
Belgaum,Karnataka,15.8497,74.4977,21.1,94,0.0,924.9,7.85,44.3,52,23.1,10.7,3.3,102.0,42.0,1.8,3,5,7,1,2026-07-16T05:30:43.734317+05:30
Coimbatore,Tamil Nadu,11.0168,76.9558,22.5,96,0.0,962.0,8.25,51.8,58,17.0,12.0,8.4,172.0,28.0,3.3,3,5,7,1,2026-07-16T05:30:43.734350+05:30
Madurai,Tamil Nadu,9.9252,78.1198,26.4,72,0.0,993.1,7.9,56.9,87,36.9,31.9,37.4,133.0,2.0,6.2,7,5,7,1,2026-07-16T05:30:43.734362+05:30
Trichy,Tamil Nadu,10.7905,78.7047,27.2,68,0.0,999.7,7.65,44.6,69,21.9,15.2,10.2,118.0,35.0,4.3,7,5,7,1,2026-07-16T05:30:43.734372+05:30
Salem,Tamil Nadu,11.6643,78.146,24.1,87,0.0,977.6,7.7,22.0,76,38.8,30.9,34.6,145.0,13.0,9.4,3,5,7,1,2026-07-16T05:30:43.734381+05:30
Tirunelveli,Tamil Nadu,8.7139,77.7567,27.2,70,0.0,1003.0,7.9,44.3,59,22.2,14.3,6.5,131.0,34.0,2.8,7,5,4,1,2026-07-16T05:30:43.734389+05:30
Vellore,Tamil Nadu,12.9165,79.1325,27.4,61,0.0,983.2,7.9,40.7,72,15.7,12.2,13.2,182.0,45.0,5.2,7,5,7,1,2026-07-16T05:30:43.734397+05:30
Erode,Tamil Nadu,11.341,77.7172,25.5,79,0.0,989.6,7.5,43.2,66,22.2,16.7,15.2,197.0,24.0,3.8,7,5,7,1,2026-07-16T05:30:43.734404+05:30
Kochi,Kerala,9.9312,76.2673,25.7,96,0.0,1010.1,8.15,36.4,76,36.1,24.6,17.9,95.0,18.0,5.6,7,0,4,1,2026-07-16T05:30:43.734412+05:30
Thiruvananthapuram,Kerala,8.5241,76.9366,24.3,97,0.0,1009.4,7.45,44.6,63,36.7,18.6,5.0,227.0,42.0,2.0,3,0,4,1,2026-07-16T05:30:43.734419+05:30
Kozhikode,Kerala,11.2588,75.7804,24.8,95,0.0,1009.0,7.7,34.2,65,37.5,17.5,3.7,206.0,48.0,1.7,3,0,4,1,2026-07-16T05:30:43.734426+05:30
Thrissur,Kerala,10.5276,76.2144,24.4,94,0.0,1008.7,8.05,38.2,72,43.1,24.4,9.8,156.0,31.0,4.2,3,0,4,1,2026-07-16T05:30:43.734435+05:30
Kannur,Kerala,11.8745,75.3704,24.6,95,0.0,1008.2,7.6,31.7,69,33.1,19.1,12.5,177.0,23.0,2.7,3,0,4,1,2026-07-16T05:30:43.734442+05:30
Patna,Bihar,25.5941,85.1376,26.6,97,0.1,995.9,6.15,23.8,160,56.9,49.7,16.4,382.0,72.0,11.2,10,5,7,1,2026-07-16T05:30:43.734449+05:30
Gaya,Bihar,24.7914,85.0002,25.7,97,0.1,989.9,8.15,23.8,158,88.0,60.1,18.9,312.0,55.0,7.5,10,5,7,1,2026-07-16T05:30:43.734456+05:30
Muzaffarpur,Bihar,26.1209,85.3647,27.0,95,0.1,996.2,7.2,29.2,155,43.0,40.0,14.1,450.0,79.0,9.9,10,5,7,1,2026-07-16T05:30:43.734464+05:30
Bhagalpur,Bihar,25.2425,87.0117,27.4,94,0.0,997.0,8.7,32.8,109,33.3,31.3,15.4,252.0,52.0,8.3,7,5,7,1,2026-07-16T05:30:43.734471+05:30
Ranchi,Jharkhand,23.3441,85.3096,22.8,97,0.0,933.0,8.6,36.0,133,30.3,21.0,10.2,232.0,70.0,11.5,3,5,7,1,2026-07-16T05:30:43.734478+05:30
Jamshedpur,Jharkhand,22.8046,86.2029,25.6,96,0.0,985.1,7.6,34.9,112,30.5,27.3,32.8,912.0,35.0,41.0,7,5,7,1,2026-07-16T05:30:43.734487+05:30
Dhanbad,Jharkhand,23.7957,86.4304,25.6,95,0.0,975.0,8.25,36.4,150,43.7,40.6,32.0,236.0,32.0,64.5,7,5,7,1,2026-07-16T05:30:43.734506+05:30
Bokaro,Jharkhand,23.6693,86.1511,25.6,96,0.0,978.9,8.6,32.8,153,43.5,41.9,30.3,240.0,37.0,62.7,7,5,7,1,2026-07-16T05:30:43.734522+05:30
Bhubaneswar,Odisha,20.2961,85.8245,25.4,96,1.4,995.4,8.35,38.9,110,17.1,16.4,8.4,210.0,78.0,12.1,10,5,7,1,2026-07-16T05:30:43.734536+05:30
Cuttack,Odisha,20.4625,85.8828,25.7,95,0.6,997.2,8.6,38.5,110,17.1,16.4,8.4,196.0,78.0,12.1,10,5,7,1,2026-07-16T05:30:43.734551+05:30
Rourkela,Odisha,22.2604,84.8536,24.6,97,0.0,980.2,8.1,41.8,147,63.1,32.7,8.9,232.0,68.0,2.6,3,5,7,1,2026-07-16T05:30:43.734560+05:30
Raipur,Chhattisgarh,21.2514,81.6296,25.3,90,0.0,970.3,6.75,38.9,152,88.0,51.6,32.3,290.0,37.0,51.6,7,5,7,1,2026-07-16T05:30:43.734568+05:30
Bhilai,Chhattisgarh,21.1938,81.3509,26.3,83,0.1,970.9,4.7,38.2,135,80.8,47.0,26.1,747.0,39.0,45.0,10,5,3,1,2026-07-16T05:30:43.734575+05:30
Guwahati,Assam,26.1158,91.7086,26.4,95,0.0,998.1,5.85,19.4,52,15.7,15.3,9.5,288.0,39.0,2.0,7,5,3,1,2026-07-16T05:30:43.734582+05:30
Agartala,Tripura,23.8315,91.2868,26.3,90,0.0,1002.8,8.1,46.4,66,18.3,14.3,9.2,137.0,38.0,2.3,7,5,4,1,2026-07-16T05:30:43.734590+05:30
Shillong,Meghalaya,25.5788,91.8933,20.3,92,0.0,855.7,8.2,37.1,34,6.1,4.4,4.3,169.0,63.0,2.2,3,5,7,1,2026-07-16T05:30:43.734598+05:30
Imphal,Manipur,24.817,93.9368,23.1,96,0.0,921.2,7.2,32.8,55,16.1,14.6,7.2,268.0,44.0,2.4,3,5,7,1,2026-07-16T05:30:43.734605+05:30
Aizawl,Mizoram,23.7271,92.7176,19.9,99,0.0,889.9,8.0,40.3,55,17.5,15.8,7.5,223.0,19.0,0.8,3,10,7,1,2026-07-16T05:30:43.734613+05:30
Kohima,Nagaland,25.6701,94.1077,20.7,95,0.0,854.0,8.45,21.2,45,8.6,7.3,4.6,221.0,37.0,0.8,3,5,7,1,2026-07-16T05:30:43.734620+05:30
Gangtok,Sikkim,27.3314,88.6138,18.1,96,0.0,836.0,7.75,30.2,44,3.1,3.0,2.9,249.0,99.0,1.0,3,10,7,1,2026-07-16T05:30:43.734627+05:30
Siliguri,West Bengal,26.7271,88.3953,25.4,97,0.1,989.8,7.6,25.6,76,8.0,7.7,6.2,333.0,95.0,2.0,10,5,7,1,2026-07-16T05:30:50.252440+05:30
Durgapur,West Bengal,23.5204,87.3119,26.3,90,0.0,989.5,8.5,41.8,101,31.7,27.8,22.6,330.0,37.0,24.4,7,5,7,1,2026-07-16T05:30:50.252472+05:30
Asansol,West Bengal,23.6739,86.9524,26.2,91,0.0,988.5,8.45,38.5,111,32.1,28.2,24.1,317.0,35.0,26.5,7,5,7,1,2026-07-16T05:30:50.252483+05:30
Pondicherry,Puducherry,11.9139,79.8145,27.9,73,0.0,1007.5,7.8,49.7,75,17.6,13.4,11.1,203.0,45.0,8.0,7,5,4,1,2026-07-16T05:30:50.252492+05:30
Port Blair,Andaman and Nicobar Islands,11.6234,92.7265,25.1,94,0.0,1008.0,8.35,50.4,52,23.2,9.8,0.2,93.0,52.0,0.4,7,0,4,1,2026-07-16T05:30:50.252500+05:30
Haridwar,Uttarakhand,29.9457,78.1642,25.9,95,0.0,969.3,7.5,28.8,152,42.6,36.3,21.5,487.0,30.0,3.2,7,5,7,1,2026-07-16T05:30:50.252509+05:30
Rishikesh,Uttarakhand,30.0869,78.2676,24.4,98,0.0,962.0,7.6,23.4,111,28.6,20.4,9.1,360.0,78.0,2.7,3,5,7,1,2026-07-16T05:30:50.252517+05:30
Nainital,Uttarakhand,29.3919,79.4542,16.6,99,0.0,803.5,6.65,29.5,155,93.4,57.4,11.4,361.0,97.0,8.1,3,10,7,1,2026-07-16T05:30:50.252524+05:30
Mussoorie,Uttarakhand,30.4599,78.0664,16.4,100,0.0,800.8,6.3,43.9,102,23.2,19.0,17.1,359.0,53.0,2.9,3,10,7,1,2026-07-16T05:30:50.252532+05:30
Dharamshala,Himachal Pradesh,32.219,76.3234,21.4,63,0.0,866.2,8.4,31.3,72,14.5,11.8,10.0,221.0,36.0,0.2,3,5,7,0,2026-07-16T05:30:50.252539+05:30
Dalhousie,Himachal Pradesh,32.5387,75.971,13.5,90,0.0,800.0,7.75,29.2,128,58.2,48.5,32.4,249.0,41.0,2.9,3,10,7,0,2026-07-16T05:30:50.252547+05:30
Patiala,Punjab,30.3398,76.3869,27.1,84,0.0,973.1,7.5,28.8,185,229.1,146.2,68.0,952.0,2.0,11.6,7,5,7,1,2026-07-16T05:30:50.252555+05:30
Bhatinda,Punjab,30.211,74.9455,30.3,67,0.0,979.1,7.4,28.1,176,207.2,111.1,59.2,478.0,5.0,10.5,3,5,7,1,2026-07-16T05:30:50.252561+05:30
Rohtak,Haryana,28.8955,76.6066,28.9,74,0.0,976.9,6.0,29.9,469,340.9,101.7,35.9,249.0,15.0,5.0,7,5,3,1,2026-07-16T05:30:50.252568+05:30
Panipat,Haryana,29.3909,76.9635,27.8,88,0.0,975.5,6.85,29.9,927,584.9,187.7,59.4,938.0,1.0,9.8,7,5,7,1,2026-07-16T05:30:50.252576+05:30
Mathura,Uttar Pradesh,27.4924,77.6737,28.3,72,0.0,982.1,6.4,29.9,364,167.2,61.7,32.6,256.0,20.0,5.2,7,5,7,1,2026-07-16T05:30:50.252583+05:30
Vrindavan,Uttar Pradesh,27.5823,77.7027,28.4,71,0.0,982.6,7.2,29.2,364,167.2,61.7,32.6,235.0,20.0,5.2,7,5,7,1,2026-07-16T05:30:50.252590+05:30
Ayodhya,Uttar Pradesh,26.7922,82.1998,27.6,94,0.0,990.8,7.65,23.4,181,161.1,105.0,33.3,1017.0,31.0,9.8,7,5,7,1,2026-07-16T05:30:50.252597+05:30
Ratlam,Madhya Pradesh,23.3315,75.0367,23.9,94,0.0,952.4,6.8,34.6,65,24.7,15.3,10.5,142.0,32.0,13.3,3,5,7,1,2026-07-16T05:30:50.252605+05:30
Sagar,Madhya Pradesh,23.8388,78.7378,25.9,77,0.0,947.0,8.15,37.1,101,40.3,24.5,9.0,239.0,54.0,5.5,7,5,7,1,2026-07-16T05:30:50.252612+05:30
Satna,Madhya Pradesh,24.6005,80.8322,27.2,79,0.0,967.0,8.0,34.9,129,72.9,38.5,9.1,210.0,58.0,6.4,7,5,7,1,2026-07-16T05:30:50.252619+05:30
Akola,Maharashtra,20.7002,77.0082,26.5,75,0.0,973.3,8.75,42.5,67,20.7,12.2,9.3,144.0,33.0,8.3,7,5,7,1,2026-07-16T05:30:50.252626+05:30
Amravati,Maharashtra,20.9374,77.7796,26.4,73,0.0,965.3,8.75,42.1,69,20.3,12.3,9.8,151.0,33.0,9.5,7,5,7,1,2026-07-16T05:30:50.252635+05:30
Latur,Maharashtra,18.4088,76.5604,23.3,84,0.0,938.7,4.35,37.8,55,12.3,8.3,8.5,125.0,32.0,3.8,3,5,3,1,2026-07-16T05:30:50.252642+05:30
Nanded,Maharashtra,19.1383,77.3091,26.0,73,0.0,967.2,8.4,38.2,65,21.4,13.6,7.4,151.0,43.0,4.8,7,5,7,1,2026-07-16T05:30:50.252651+05:30
Gulbarga,Karnataka,17.3297,76.8343,24.4,79,0.0,958.0,8.3,42.5,59,8.9,6.1,6.8,122.0,35.0,3.2,3,5,7,1,2026-07-16T05:30:50.252659+05:30
Bidar,Karnataka,17.9104,77.5199,24.2,79,0.0,934.1,8.2,39.2,62,14.6,10.1,7.0,142.0,42.0,2.8,3,5,7,1,2026-07-16T05:30:50.252667+05:30
Hospet,Karnataka,15.2689,76.3909,23.4,85,0.0,955.6,8.85,55.8,56,15.9,8.7,4.2,111.0,40.0,1.9,3,5,7,1,2026-07-16T05:30:50.252674+05:30
Tirupur,Tamil Nadu,11.1085,77.3411,23.8,89,0.0,975.8,8.2,55.8,68,21.6,17.2,17.4,166.0,18.0,4.1,3,5,7,1,2026-07-16T05:30:50.252681+05:30
Alappuzha,Kerala,9.4981,76.3388,25.8,92,0.0,1010.4,8.05,35.3,69,41.3,22.0,10.4,89.0,37.0,4.8,7,0,4,1,2026-07-16T05:30:50.252688+05:30
Munnar,Kerala,10.0889,77.0595,15.2,89,0.0,856.1,8.65,36.4,56,16.6,10.9,5.9,100.0,26.0,1.8,3,10,7,0,2026-07-16T05:30:50.252696+05:30
Silchar,Assam,24.8333,92.7789,26.4,97,0.0,1002.4,6.9,28.1,61,15.7,14.7,7.9,306.0,63.0,2.6,7,5,4,1,2026-07-16T05:30:50.252703+05:30
Dibrugarh,Assam,27.4728,94.912,25.3,99,0.2,992.7,6.85,29.5,50,8.7,8.5,11.0,184.0,40.0,1.1,10,5,7,1,2026-07-16T05:30:50.252710+05:30
