city,state,latitude,longitude,temp,humidity,rain,pressure,uv_index,wind_gusts,aqi,pm10,pm2_5,no2,co,o3,so2,mosquito_risk,arthritis_risk,migraine_risk,frizz_risk,updated_at
Delhi,Delhi,28.6139,77.209,32.8,40,0.0,981.9,7.65,36.4,219,231.4,80.1,33.3,543.0,141.0,28.3,0,5,7,1,2026-05-11T20:46:33.412177+05:30
Mumbai,Maharashtra,19.076,72.8777,30.3,77,0.0,1005.2,7.9,53.6,145,49.8,21.7,10.9,303.0,82.0,8.8,3,5,4,1,2026-05-11T20:46:33.412226+05:30
Bangalore,Karnataka,12.9716,77.5946,28.7,38,0.0,911.9,8.0,46.1,96,32.1,26.0,42.2,367.0,61.0,12.1,4,5,7,0,2026-05-11T20:46:33.412243+05:30
Hyderabad,Telangana,17.385,78.4867,32.9,35,0.0,952.7,9.25,32.0,107,40.7,26.2,16.1,372.0,99.0,8.4,0,5,7,0,2026-05-11T20:46:33.412254+05:30
Chennai,Tamil Nadu,13.0827,80.2707,29.2,75,0.0,1006.5,8.8,39.6,24,7.6,5.7,7.8,125.0,38.0,2.7,7,5,4,1,2026-05-11T20:46:33.412264+05:30
Kolkata,West Bengal,22.5726,88.3639,27.3,77,0.0,1008.3,8.6,42.8,141,44.0,39.9,20.5,382.0,45.0,13.7,7,0,4,1,2026-05-11T20:46:33.412273+05:30
Pune,Maharashtra,18.5204,73.8567,31.0,38,0.0,946.1,8.5,46.8,130,28.5,20.9,16.3,316.0,118.0,13.2,0,5,7,0,2026-05-11T20:46:33.412282+05:30
Ahmedabad,Gujarat,23.0225,72.5714,41.0,14,0.0,998.0,8.15,33.5,87,58.7,32.7,32.2,355.0,71.0,10.6,0,5,10,0,2026-05-11T20:46:33.412294+05:30
Jaipur,Rajasthan,26.9124,75.7873,33.4,35,0.0,958.6,8.2,30.6,161,132.7,44.0,25.1,469.0,94.0,12.2,0,5,7,0,2026-05-11T20:46:33.412302+05:30
Lucknow,Uttar Pradesh,26.8467,80.9462,31.4,42,0.0,992.9,8.15,29.2,139,47.7,40.3,20.2,451.0,92.0,12.3,0,5,7,1,2026-05-11T20:46:33.412309+05:30
Kanpur,Uttar Pradesh,26.4499,80.3319,31.4,44,0.0,991.0,8.15,40.3,165,129.9,41.8,13.2,379.0,112.0,8.7,0,5,7,1,2026-05-11T20:46:33.412317+05:30
Chandigarh,Chandigarh,30.7333,76.7794,24.9,70,0.0,968.1,7.7,41.8,193,105.5,61.2,16.0,836.0,146.0,21.2,3,5,7,1,2026-05-11T20:46:33.412325+05:30
Srinagar,Jammu and Kashmir,34.0837,74.7973,18.0,70,0.0,842.4,8.85,26.3,101,48.8,34.1,20.9,804.0,77.0,4.7,3,5,7,0,2026-05-11T20:46:33.412334+05:30
Jammu,Jammu and Kashmir,32.7266,74.857,26.5,62,0.0,971.6,8.45,44.3,158,77.3,48.2,14.4,650.0,118.0,5.5,7,5,7,1,2026-05-11T20:46:33.412342+05:30
Amritsar,Punjab,31.634,74.8723,27.0,71,0.0,979.2,8.35,69.1,174,212.3,77.3,21.0,777.0,127.0,13.5,7,5,7,1,2026-05-11T20:46:33.412349+05:30
Ludhiana,Punjab,30.901,75.8573,25.5,85,0.0,977.8,7.9,60.5,170,166.2,78.7,24.6,561.0,99.0,15.5,7,5,7,1,2026-05-11T20:46:33.412356+05:30
Jalandhar,Punjab,31.326,75.5762,24.8,85,0.0,978.6,8.1,50.4,164,200.7,77.1,21.3,1144.0,112.0,13.1,3,5,7,1,2026-05-11T20:46:33.412363+05:30
Dehradun,Uttarakhand,30.6284,78.0322,13.6,98,0.0,829.0,5.2,33.1,130,63.6,41.4,20.6,331.0,125.0,3.8,3,10,3,0,2026-05-11T20:46:33.412372+05:30
Shimla,Himachal Pradesh,31.1048,77.1734,11.7,86,0.0,782.7,6.35,44.3,163,85.2,51.6,17.1,469.0,129.0,9.2,3,10,7,0,2026-05-11T20:46:33.412380+05:30
Manali,Himachal Pradesh,32.2396,77.1887,12.3,88,0.0,816.3,9.85,39.2,150,36.4,19.0,34.5,374.0,118.0,0.8,3,10,7,0,2026-05-11T20:46:33.412387+05:30
Gurgaon,Haryana,28.4595,77.0266,32.0,40,0.0,980.1,7.75,30.2,628,407.0,101.5,47.6,825.0,119.0,31.3,0,5,7,1,2026-05-11T20:46:33.412396+05:30
Noida,Uttar Pradesh,28.5355,77.391,29.3,55,0.0,983.1,7.65,25.2,628,407.0,101.5,47.6,531.0,119.0,31.3,4,5,7,1,2026-05-11T20:46:33.412402+05:30
Ghaziabad,Uttar Pradesh,28.6692,77.4538,29.4,56,0.0,981.5,7.65,28.1,208,217.9,76.1,18.2,465.0,129.0,13.9,4,5,7,1,2026-05-11T20:46:33.412409+05:30
Faridabad,Haryana,28.4089,77.3178,31.5,47,0.0,982.5,7.7,26.3,628,407.0,101.5,47.6,718.0,119.0,31.3,0,5,7,1,2026-05-11T20:46:33.412416+05:30
Meerut,Uttar Pradesh,28.9845,77.7064,28.0,63,0.0,980.7,7.55,27.4,208,217.9,76.1,18.2,466.0,129.0,13.9,7,5,7,1,2026-05-11T20:46:33.412423+05:30
Agra,Uttar Pradesh,27.1767,78.0081,31.3,44,0.0,986.3,8.0,25.2,351,704.1,102.9,14.8,435.0,122.0,16.4,0,5,7,1,2026-05-11T20:46:33.412429+05:30
Varanasi,Uttar Pradesh,25.3176,82.9739,30.9,44,0.0,996.5,8.65,27.0,195,60.8,50.5,22.0,520.0,114.0,18.9,0,5,7,1,2026-05-11T20:46:33.412436+05:30
Prayagraj,Uttar Pradesh,25.4358,81.8463,32.5,34,0.0,994.8,8.5,32.0,175,47.6,38.6,16.5,442.0,110.0,12.6,0,5,7,0,2026-05-11T20:46:33.412445+05:30
Gorakhpur,Uttar Pradesh,26.7606,83.3732,27.9,56,0.0,997.0,8.5,32.0,156,38.3,34.0,18.4,428.0,100.0,9.6,4,5,7,1,2026-05-11T20:46:33.412452+05:30
Bareilly,Uttar Pradesh,28.367,79.4304,28.0,61,0.0,986.1,7.95,27.0,165,72.6,49.1,13.8,449.0,121.0,10.2,7,5,7,1,2026-05-11T20:46:33.412459+05:30
Aligarh,Uttar Pradesh,27.8974,78.088,30.4,50,0.0,984.4,7.8,29.9,177,329.7,79.6,15.5,616.0,120.0,17.9,0,5,7,1,2026-05-11T20:46:33.412466+05:30
Moradabad,Uttar Pradesh,28.8386,78.7733,27.8,69,0.0,983.1,7.25,29.9,171,75.9,58.4,16.5,538.0,137.0,17.9,7,5,7,1,2026-05-11T20:46:33.412472+05:30
Saharanpur,Uttar Pradesh,29.9637,77.546,25.7,76,0.0,975.1,7.35,31.7,169,96.6,75.2,36.8,623.0,93.0,18.1,7,5,7,1,2026-05-11T20:46:33.412478+05:30
Jhansi,Uttar Pradesh,25.4484,78.5685,32.2,37,0.0,976.7,8.45,40.7,169,79.6,42.0,4.5,296.0,130.0,10.1,0,5,7,0,2026-05-11T20:46:36.648821+05:30
Surat,Gujarat,21.1702,72.8311,32.8,55,0.0,1002.4,7.75,38.2,103,54.5,44.1,57.0,605.0,59.0,68.0,0,5,4,1,2026-05-11T20:46:36.648856+05:30
Vadodara,Gujarat,22.3072,73.1812,39.2,17,0.0,999.7,8.1,33.5,149,57.6,35.7,31.7,642.0,116.0,18.6,0,5,10,0,2026-05-11T20:46:36.648866+05:30
Rajkot,Gujarat,22.3039,70.8022,32.6,38,0.0,991.7,7.7,49.3,84,35.2,15.2,5.9,167.0,89.0,7.5,0,5,7,1,2026-05-11T20:46:36.648875+05:30
Thane,Maharashtra,19.2183,72.9781,30.5,74,0.0,1004.6,7.9,54.0,145,49.8,21.7,10.9,278.0,82.0,8.8,3,5,4,1,2026-05-11T20:46:36.648882+05:30
Nagpur,Maharashtra,21.1458,79.0882,36.0,24,0.0,970.8,8.9,36.7,157,94.5,56.3,45.7,584.0,81.0,29.0,0,5,10,0,2026-05-11T20:46:36.648890+05:30
Nashik,Maharashtra,19.9975,73.7898,31.8,31,0.0,943.3,8.2,50.4,131,34.6,24.4,9.6,304.0,136.0,17.4,0,5,7,0,2026-05-11T20:46:36.648896+05:30
Aurangabad,Maharashtra,19.8762,75.3433,34.7,16,0.0,941.6,9.05,40.0,152,37.3,22.3,10.9,569.0,130.0,10.5,0,5,7,0,2026-05-11T20:46:36.648903+05:30
Solapur,Maharashtra,17.6599,75.9064,36.5,18,0.0,954.2,9.05,33.8,147,34.7,24.0,9.9,347.0,118.0,8.5,0,5,10,0,2026-05-11T20:46:36.648911+05:30
Kolhapur,Maharashtra,16.705,74.2433,27.6,74,0.0,946.3,8.85,56.2,129,26.8,18.2,8.2,228.0,100.0,6.1,7,5,7,1,2026-05-11T20:46:36.648919+05:30
Goa,Goa,15.2993,74.124,29.6,82,0.0,996.4,8.85,28.4,81,44.4,19.3,4.5,187.0,68.0,1.7,7,5,7,1,2026-05-11T20:46:36.648926+05:30
Jodhpur,Rajasthan,26.2389,73.0243,38.5,13,0.0,979.5,8.4,38.2,114,192.8,28.8,7.3,269.0,104.0,4.3,0,5,10,0,2026-05-11T20:46:36.648934+05:30
Udaipur,Rajasthan,24.5854,73.7125,33.2,22,0.0,945.0,8.8,38.9,88,32.6,12.7,7.1,321.0,100.0,3.7,0,5,7,0,2026-05-11T20:46:36.648941+05:30
Kota,Rajasthan,25.2138,75.8648,34.5,27,0.0,976.2,8.4,36.7,129,136.9,41.2,14.8,462.0,95.0,9.3,0,5,7,0,2026-05-11T20:46:36.648949+05:30
Bikaner,Rajasthan,28.0229,73.3119,36.8,19,0.0,979.0,8.3,43.6,88,66.4,19.3,5.3,284.0,91.0,5.6,0,5,10,0,2026-05-11T20:46:36.648957+05:30
Ajmer,Rajasthan,26.4499,74.6399,33.4,29,0.0,953.0,8.35,32.4,96,98.5,29.3,13.8,203.0,84.0,4.3,0,5,7,0,2026-05-11T20:46:36.648965+05:30
Gwalior,Madhya Pradesh,26.2183,78.1828,32.6,39,0.0,981.9,8.2,29.9,162,91.5,44.1,5.9,489.0,130.0,9.1,0,5,7,1,2026-05-11T20:46:36.648971+05:30
Indore,Madhya Pradesh,22.7196,75.8577,36.3,15,0.0,946.2,8.7,46.4,115,39.6,24.2,11.3,333.0,96.0,8.5,0,5,10,0,2026-05-11T20:46:36.648977+05:30
Bhopal,Madhya Pradesh,23.2599,77.4126,35.5,23,0.0,951.9,8.7,41.4,119,71.0,33.3,12.3,401.0,98.0,7.5,0,5,10,0,2026-05-11T20:46:36.648984+05:30
Jabalpur,Madhya Pradesh,23.1815,79.9864,32.5,31,0.0,960.2,8.85,43.9,147,71.7,35.7,9.7,264.0,121.0,6.2,0,5,7,0,2026-05-11T20:46:36.648991+05:30
Ujjain,Madhya Pradesh,23.1765,75.7885,35.0,18,0.0,951.7,8.65,49.3,101,45.4,24.7,8.7,268.0,98.0,7.8,0,5,7,0,2026-05-11T20:46:36.648998+05:30
Visakhapatnam,Andhra Pradesh,17.6868,83.2185,28.8,76,0.0,1004.4,9.1,34.9,71,14.3,12.7,21.3,610.0,29.0,7.7,7,5,4,1,2026-05-11T20:46:36.649005+05:30
Vijayawada,Andhra Pradesh,16.5062,80.648,29.5,72,0.0,1002.2,8.45,33.8,50,10.2,8.3,7.1,166.0,46.0,6.5,7,5,4,1,2026-05-11T20:46:36.649011+05:30
Guntur,Andhra Pradesh,16.3067,80.4365,29.5,74,0.0,1003.4,8.45,34.6,66,11.6,9.1,6.9,163.0,59.0,7.4,7,5,4,1,2026-05-11T20:46:36.649018+05:30
Nellore,Andhra Pradesh,14.4426,79.9865,28.6,77,0.0,1005.7,9.15,37.1,29,8.0,5.6,3.7,161.0,44.0,2.4,7,5,4,1,2026-05-11T20:46:36.649025+05:30
Kurnool,Andhra Pradesh,15.8281,78.0373,33.8,32,0.0,975.5,8.65,40.3,72,44.1,24.1,11.2,222.0,90.0,4.4,0,5,7,0,2026-05-11T20:46:36.649032+05:30
Kakinada,Andhra Pradesh,16.9891,82.2475,28.6,78,0.0,1007.7,9.1,37.8,28,6.2,3.8,1.1,175.0,54.0,0.5,7,5,4,1,2026-05-11T20:46:36.649038+05:30
Tirupati,Andhra Pradesh,13.6288,79.4192,28.1,75,0.0,991.0,9.05,43.2,45,12.9,10.2,12.8,173.0,36.0,2.4,7,5,7,1,2026-05-11T20:46:36.649044+05:30
Warangal,Telangana,17.9689,79.5941,32.2,41,0.0,977.5,9.15,43.6,97,40.2,28.8,8.9,441.0,114.0,7.4,0,5,7,1,2026-05-11T20:46:36.649050+05:30
Nizamabad,Telangana,18.6725,78.0941,31.6,35,0.0,962.4,9.1,32.0,119,76.4,52.3,33.1,315.0,85.0,9.9,0,5,7,0,2026-05-11T20:46:36.649056+05:30
Mysore,Karnataka,12.2958,76.6396,26.9,55,0.0,927.8,8.6,31.7,116,46.3,33.6,37.3,292.0,82.0,8.3,4,5,7,1,2026-05-11T20:46:36.649063+05:30
Mangalore,Karnataka,12.9141,74.856,27.2,95,0.1,1005.8,8.45,36.4,68,43.8,29.9,17.5,404.0,76.0,6.3,10,5,4,1,2026-05-11T20:46:36.649069+05:30
Hubli-Dharwad,Karnataka,15.3647,75.124,26.8,72,0.0,939.8,8.8,41.4,145,35.0,25.9,15.7,231.0,87.0,4.1,7,5,7,1,2026-05-11T20:46:36.649076+05:30
Belgaum,Karnataka,15.8497,74.4977,25.4,83,0.0,925.1,8.85,46.8,126,28.2,16.4,5.6,169.0,72.0,3.3,7,5,7,1,2026-05-11T20:46:39.894285+05:30
Coimbatore,Tamil Nadu,11.0168,76.9558,26.2,82,0.0,960.5,9.2,28.4,111,30.4,23.6,11.2,367.0,96.0,4.9,7,5,7,1,2026-05-11T20:46:39.894320+05:30
Madurai,Tamil Nadu,9.9252,78.1198,29.4,69,0.0,991.8,8.95,29.9,103,35.5,30.9,26.2,293.0,82.0,11.0,7,5,7,1,2026-05-11T20:46:39.894332+05:30
Trichy,Tamil Nadu,10.7905,78.7047,29.0,74,0.0,998.5,9.15,28.1,77,19.9,19.2,20.5,286.0,61.0,19.3,7,5,7,1,2026-05-11T20:46:39.894340+05:30
Salem,Tamil Nadu,11.6643,78.146,29.5,51,0.0,975.7,9.15,32.4,110,32.4,24.9,23.5,336.0,70.0,7.5,4,5,7,1,2026-05-11T20:46:39.894348+05:30
Tirunelveli,Tamil Nadu,8.7139,77.7567,30.0,66,0.0,1001.5,9.05,42.1,66,22.5,19.6,18.4,422.0,56.0,2.6,7,5,4,1,2026-05-11T20:46:39.894356+05:30
Vellore,Tamil Nadu,12.9165,79.1325,28.5,72,0.0,984.1,8.75,30.6,56,19.2,16.9,17.1,242.0,54.0,10.1,7,5,7,1,2026-05-11T20:46:39.894363+05:30
Erode,Tamil Nadu,11.341,77.7172,28.4,71,0.0,987.1,9.15,22.7,120,49.5,38.4,43.1,661.0,70.0,8.9,7,5,7,1,2026-05-11T20:46:39.894371+05:30
Kochi,Kerala,9.9312,76.2673,26.4,85,0.1,1008.3,8.95,33.5,62,41.1,38.6,53.9,353.0,28.0,9.6,10,0,4,1,2026-05-11T20:46:39.894378+05:30
Thiruvananthapuram,Kerala,8.5241,76.9366,25.5,93,0.0,1007.2,8.75,32.8,49,11.0,7.5,3.3,388.0,97.0,1.7,7,5,4,1,2026-05-11T20:46:39.894386+05:30
Kozhikode,Kerala,11.2588,75.7804,25.4,94,0.0,1006.8,8.8,33.5,58,15.1,11.1,2.8,300.0,108.0,1.9,7,5,4,1,2026-05-11T20:46:39.894392+05:30
Thrissur,Kerala,10.5276,76.2144,25.2,98,0.0,1006.8,8.95,31.7,65,27.1,25.3,17.7,415.0,71.0,3.4,7,5,4,1,2026-05-11T20:46:39.894400+05:30
Kannur,Kerala,11.8745,75.3704,25.7,90,0.0,1006.2,8.65,34.9,54,25.8,22.2,27.8,650.0,50.0,4.1,7,5,4,1,2026-05-11T20:46:39.894407+05:30
Patna,Bihar,25.5941,85.1376,28.2,66,0.0,1000.8,8.7,26.3,204,49.5,46.4,14.1,480.0,155.0,21.5,7,5,4,1,2026-05-11T20:46:39.894414+05:30
Gaya,Bihar,24.7914,85.0002,29.7,49,0.0,993.7,8.75,27.4,191,46.2,40.6,8.0,377.0,159.0,18.5,4,5,7,1,2026-05-11T20:46:39.894421+05:30
Muzaffarpur,Bihar,26.1209,85.3647,27.6,63,0.0,1000.9,8.7,27.4,187,47.3,44.1,17.4,445.0,127.0,17.2,7,5,4,1,2026-05-11T20:46:39.894427+05:30
Bhagalpur,Bihar,25.2425,87.0117,28.1,64,0.0,1002.4,8.6,27.0,200,53.1,49.2,20.8,333.0,120.0,17.0,7,5,4,1,2026-05-11T20:46:39.894433+05:30
Ranchi,Jharkhand,23.3441,85.3096,25.0,68,0.0,938.4,9.2,30.6,145,40.9,33.2,5.9,292.0,133.0,10.2,7,5,7,1,2026-05-11T20:46:39.894440+05:30
Jamshedpur,Jharkhand,22.8046,86.2029,27.2,73,0.0,992.3,9.0,32.4,108,30.6,27.4,17.6,227.0,84.0,16.8,7,5,7,1,2026-05-11T20:46:39.894446+05:30
Dhanbad,Jharkhand,23.7957,86.4304,27.7,69,0.0,981.3,8.95,40.3,153,52.5,50.3,57.6,231.0,58.0,72.2,7,5,7,1,2026-05-11T20:46:39.894452+05:30
Bokaro,Jharkhand,23.6693,86.1511,28.3,67,0.0,984.8,8.95,36.4,153,50.6,48.4,51.4,1344.0,74.0,68.9,7,5,7,1,2026-05-11T20:46:39.894459+05:30
Bhubaneswar,Odisha,20.2961,85.8245,27.5,81,0.0,1004.2,9.1,31.7,75,19.4,17.3,15.7,286.0,39.0,6.2,7,5,4,1,2026-05-11T20:46:39.894466+05:30
Cuttack,Odisha,20.4625,85.8828,28.0,79,0.0,1005.9,9.15,40.7,75,19.4,17.3,15.7,267.0,39.0,6.2,7,5,4,1,2026-05-11T20:46:39.894473+05:30
Rourkela,Odisha,22.2604,84.8536,29.0,62,0.0,985.5,8.95,29.5,147,73.8,52.5,13.6,812.0,122.0,37.8,7,5,7,1,2026-05-11T20:46:39.894480+05:30
Raipur,Chhattisgarh,21.2514,81.6296,33.8,36,0.0,972.9,9.0,31.7,179,73.3,49.2,29.7,420.0,109.0,9.8,0,5,7,1,2026-05-11T20:46:39.894487+05:30
Bhilai,Chhattisgarh,21.1938,81.3509,32.5,41,0.0,973.1,9.0,32.0,150,70.1,47.5,36.7,547.0,88.0,9.9,0,5,7,1,2026-05-11T20:46:39.894493+05:30
Guwahati,Assam,26.1158,91.7086,22.5,86,0.0,1005.4,8.6,32.4,77,37.0,34.3,15.9,526.0,55.0,3.3,3,5,4,1,2026-05-11T20:46:39.894499+05:30
Agartala,Tripura,23.8315,91.2868,22.5,96,0.0,1009.4,8.8,27.7,162,49.7,45.6,17.7,602.0,110.0,3.6,3,0,4,1,2026-05-11T20:46:39.894505+05:30
Shillong,Meghalaya,25.5788,91.8933,14.6,92,0.0,858.1,8.85,22.7,96,27.6,24.4,16.1,607.0,64.0,2.0,3,10,7,0,2026-05-11T20:46:39.894511+05:30
Imphal,Manipur,24.817,93.9368,18.1,95,0.0,926.0,8.55,28.4,79,34.0,31.7,27.0,902.0,39.0,5.0,3,10,7,1,2026-05-11T20:46:39.894518+05:30
Aizawl,Mizoram,23.7271,92.7176,17.0,90,0.0,894.0,9.0,25.2,79,22.5,19.7,6.8,329.0,59.0,0.8,3,10,7,0,2026-05-11T20:46:39.894525+05:30
Kohima,Nagaland,25.6701,94.1077,14.4,95,0.0,856.0,8.65,20.9,53,14.8,13.3,10.7,450.0,49.0,1.3,3,10,7,0,2026-05-11T20:46:39.894531+05:30
Gangtok,Sikkim,27.3314,88.6138,14.4,95,0.0,839.2,8.95,46.4,92,41.7,31.4,19.1,408.0,85.0,2.2,3,10,7,0,2026-05-11T20:46:39.894537+05:30
Siliguri,West Bengal,26.7271,88.3953,23.6,76,0.1,996.6,8.55,26.3,104,52.2,39.0,17.5,612.0,106.0,4.8,6,5,7,1,2026-05-11T20:46:43.132306+05:30
Durgapur,West Bengal,23.5204,87.3119,26.0,83,0.0,997.0,8.85,40.0,158,47.4,45.4,32.6,304.0,81.0,38.1,7,5,7,1,2026-05-11T20:46:43.132344+05:30
Asansol,West Bengal,23.6739,86.9524,26.5,77,0.0,995.3,8.9,38.5,152,41.9,39.8,37.1,767.0,73.0,51.6,7,5,7,1,2026-05-11T20:46:43.132355+05:30
Pondicherry,Puducherry,11.9139,79.8145,28.2,85,0.0,1007.6,8.85,33.5,35,8.0,5.8,4.5,204.0,38.0,0.7,7,5,4,1,2026-05-11T20:46:43.132364+05:30
Port Blair,Andaman and Nicobar Islands,11.6234,92.7265,26.0,93,0.0,1008.6,8.35,34.2,27,2.2,1.7,0.6,184.0,57.0,0.1,7,0,4,1,2026-05-11T20:46:43.132372+05:30
Haridwar,Uttarakhand,29.9457,78.1642,25.4,73,0.0,973.5,6.3,30.6,170,80.3,56.1,20.2,391.0,128.0,12.4,7,5,7,1,2026-05-11T20:46:43.132380+05:30
Rishikesh,Uttarakhand,30.0869,78.2676,25.1,71,0.0,966.3,5.95,27.4,163,78.2,46.4,12.6,474.0,136.0,8.3,7,5,3,1,2026-05-11T20:46:43.132387+05:30
Nainital,Uttarakhand,29.3919,79.4542,12.3,97,0.0,804.4,6.15,32.4,162,79.4,55.4,17.6,351.0,124.0,10.0,3,10,7,0,2026-05-11T20:46:43.132394+05:30
Mussoorie,Uttarakhand,30.4599,78.0664,12.2,100,0.0,801.4,6.15,45.0,167,65.0,46.3,16.2,448.0,146.0,13.1,3,10,7,0,2026-05-11T20:46:43.132401+05:30
Dharamshala,Himachal Pradesh,32.219,76.3234,18.3,79,0.0,868.6,8.35,38.9,116,69.2,36.8,10.3,451.0,95.0,1.6,3,5,7,0,2026-05-11T20:46:43.132409+05:30
Dalhousie,Himachal Pradesh,32.5387,75.971,13.8,83,0.0,803.6,8.55,36.4,156,149.5,65.9,27.8,618.0,119.0,5.5,3,10,7,0,2026-05-11T20:46:43.132417+05:30
Patiala,Punjab,30.3398,76.3869,24.9,81,0.0,977.4,7.55,67.3,490,249.6,74.3,12.2,492.0,126.0,18.0,3,5,7,1,2026-05-11T20:46:43.132425+05:30
Bhatinda,Punjab,30.211,74.9455,28.5,58,0.0,982.1,8.2,43.6,452,324.1,89.2,12.7,569.0,137.0,17.2,4,5,7,1,2026-05-11T20:46:43.132431+05:30
Rohtak,Haryana,28.8955,76.6066,30.0,48,0.0,980.5,7.65,33.8,287,281.3,86.1,35.7,540.0,115.0,24.5,4,5,7,1,2026-05-11T20:46:43.132438+05:30
Panipat,Haryana,29.3909,76.9635,26.6,67,0.0,979.7,7.5,33.8,596,405.1,97.8,22.8,499.0,136.0,22.1,7,5,7,1,2026-05-11T20:46:43.132444+05:30
Mathura,Uttar Pradesh,27.4924,77.6737,30.6,48,0.0,985.3,7.95,27.0,351,568.1,90.8,18.2,485.0,117.0,11.4,0,5,7,1,2026-05-11T20:46:43.132452+05:30
Vrindavan,Uttar Pradesh,27.5823,77.7027,30.5,47,0.0,985.6,7.9,27.7,351,568.1,90.8,18.2,474.0,117.0,11.4,0,5,7,1,2026-05-11T20:46:43.132458+05:30
Ayodhya,Uttar Pradesh,26.7922,82.1998,28.2,53,0.0,994.8,8.25,33.5,139,52.9,44.5,29.0,484.0,96.0,10.7,4,5,7,1,2026-05-11T20:46:43.132465+05:30
Ratlam,Madhya Pradesh,23.3315,75.0367,33.3,20,0.0,952.3,8.55,43.2,96,35.3,18.4,4.1,233.0,106.0,7.6,0,5,7,0,2026-05-11T20:46:43.132472+05:30
Sagar,Madhya Pradesh,23.8388,78.7378,31.4,34,0.0,949.1,8.7,44.6,135,73.3,36.8,5.1,295.0,124.0,7.0,0,5,7,0,2026-05-11T20:46:43.132478+05:30
Satna,Madhya Pradesh,24.6005,80.8322,30.9,37,0.0,970.4,8.75,46.4,178,56.0,35.6,6.2,306.0,148.0,8.5,0,5,7,0,2026-05-11T20:46:43.132484+05:30
Akola,Maharashtra,20.7002,77.0082,36.5,21,0.0,972.1,8.85,43.6,139,67.8,36.9,23.8,302.0,84.0,10.3,0,5,10,0,2026-05-11T20:46:43.132491+05:30
Amravati,Maharashtra,20.9374,77.7796,35.5,25,0.0,965.2,8.9,39.2,143,71.9,38.1,25.4,262.0,89.0,8.3,0,5,10,0,2026-05-11T20:46:43.132499+05:30
Latur,Maharashtra,18.4088,76.5604,33.8,21,0.0,937.8,9.05,39.6,143,44.5,29.7,14.5,366.0,114.0,13.3,0,5,7,0,2026-05-11T20:46:43.132505+05:30
Nanded,Maharashtra,19.1383,77.3091,34.1,28,0.0,965.9,9.0,32.0,138,51.5,33.1,20.3,283.0,91.0,7.0,0,5,7,0,2026-05-11T20:46:43.132512+05:30
Gulbarga,Karnataka,17.3297,76.8343,33.5,30,0.0,956.7,9.05,30.2,137,31.8,21.2,12.4,298.0,111.0,6.3,0,5,7,0,2026-05-11T20:46:43.132518+05:30
Bidar,Karnataka,17.9104,77.5199,30.5,39,0.0,933.9,9.1,32.8,120,46.1,30.4,19.4,271.0,94.0,5.2,0,5,7,0,2026-05-11T20:46:43.132524+05:30
Hospet,Karnataka,15.2689,76.3909,31.7,32,0.0,954.2,8.75,32.4,152,32.6,21.9,14.7,282.0,110.0,10.0,0,5,7,0,2026-05-11T20:46:43.132531+05:30
Tirupur,Tamil Nadu,11.1085,77.3411,28.0,71,0.0,973.6,9.25,32.0,126,37.8,30.9,26.8,346.0,86.0,6.9,7,5,7,1,2026-05-11T20:46:43.132537+05:30
Alappuzha,Kerala,9.4981,76.3388,26.8,92,0.0,1008.2,8.65,33.1,52,24.9,22.0,22.0,162.0,72.0,5.5,7,0,4,1,2026-05-11T20:46:43.132543+05:30
Munnar,Kerala,10.0889,77.0595,18.4,83,0.0,855.9,9.45,24.5,74,30.5,25.7,14.9,334.0,60.0,3.1,3,10,7,0,2026-05-11T20:46:43.132550+05:30
Silchar,Assam,24.8333,92.7789,24.7,84,0.0,1008.2,8.8,19.1,122,40.9,35.6,7.8,735.0,100.0,4.8,3,0,4,1,2026-05-11T20:46:43.132556+05:30
Dibrugarh,Assam,27.4728,94.912,20.6,91,0.0,999.5,6.15,22.3,66,45.6,40.5,26.9,406.0,50.0,4.5,3,5,7,1,2026-05-11T20:46:43.132562+05:30
