city,state,latitude,longitude,temp,humidity,rain,pressure,uv_index,wind_gusts,aqi,pm10,pm2_5,no2,co,o3,so2,mosquito_risk,arthritis_risk,migraine_risk,frizz_risk,updated_at
Delhi,Delhi,28.6139,77.209,41.2,23,0.0,973.0,7.8,41.4,430,1031.9,153.7,6.1,224.0,134.0,8.8,0,5,10,0,2026-06-10T15:36:22.756021+05:30
Mumbai,Maharashtra,19.076,72.8777,31.7,71,0.1,1004.8,7.7,47.5,81,60.8,25.1,3.5,155.0,73.0,3.9,6,5,4,1,2026-06-10T15:36:22.756064+05:30
Bangalore,Karnataka,12.9716,77.5946,31.0,44,0.0,909.8,8.2,50.0,30,11.9,7.6,12.2,399.0,59.0,2.8,0,5,7,1,2026-06-10T15:36:22.756080+05:30
Hyderabad,Telangana,17.385,78.4867,34.9,43,0.0,948.7,9.1,52.2,71,57.2,26.5,1.5,324.0,121.0,3.8,0,5,7,1,2026-06-10T15:36:22.756089+05:30
Chennai,Tamil Nadu,13.0827,80.2707,35.0,45,0.0,1002.1,8.0,50.4,53,30.7,19.0,5.7,226.0,114.0,6.1,0,5,4,1,2026-06-10T15:36:22.756097+05:30
Kolkata,West Bengal,22.5726,88.3639,29.1,88,0.0,997.7,8.95,40.0,123,49.4,36.8,6.8,455.0,124.0,9.5,7,5,7,1,2026-06-10T15:36:22.756106+05:30
Pune,Maharashtra,18.5204,73.8567,32.9,47,0.0,945.2,8.25,51.5,54,29.0,14.6,2.5,137.0,86.0,3.5,0,5,7,1,2026-06-10T15:36:22.756114+05:30
Ahmedabad,Gujarat,23.0225,72.5714,41.2,31,0.0,994.3,8.05,46.1,83,53.7,25.1,1.6,138.0,103.0,3.5,0,5,10,1,2026-06-10T15:36:22.756121+05:30
Jaipur,Rajasthan,26.9124,75.7873,40.8,24,0.0,952.0,8.25,49.7,136,177.4,36.3,1.0,143.0,111.0,2.6,0,5,10,1,2026-06-10T15:36:22.756132+05:30
Lucknow,Uttar Pradesh,26.8467,80.9462,41.0,24,0.0,983.8,8.35,46.4,165,327.8,78.7,2.4,169.0,163.0,6.6,0,5,10,1,2026-06-10T15:36:22.756139+05:30
Kanpur,Uttar Pradesh,26.4499,80.3319,41.8,21,0.0,982.1,8.3,42.8,437,717.1,102.0,1.2,144.0,123.0,3.1,0,5,10,0,2026-06-10T15:36:22.756146+05:30
Chandigarh,Chandigarh,30.7333,76.7794,39.0,28,0.0,959.4,7.85,32.0,170,129.0,45.2,2.3,349.0,197.0,9.1,0,5,10,1,2026-06-10T15:36:22.756153+05:30
Srinagar,Jammu and Kashmir,34.0837,74.7973,29.1,35,0.0,839.7,9.05,18.4,108,19.6,10.9,2.3,282.0,152.0,1.7,4,5,7,0,2026-06-10T15:36:22.756161+05:30
Jammu,Jammu and Kashmir,32.7266,74.857,42.4,15,0.0,962.5,8.65,30.6,136,32.2,17.8,2.3,186.0,184.0,4.0,0,5,10,0,2026-06-10T15:36:22.756167+05:30
Amritsar,Punjab,31.634,74.8723,42.7,18,0.0,969.9,8.5,26.3,135,57.0,27.4,1.6,247.0,187.0,7.5,0,5,10,0,2026-06-10T15:36:22.756174+05:30
Ludhiana,Punjab,30.901,75.8573,42.7,16,0.0,968.2,8.05,33.5,142,74.7,32.4,1.2,232.0,183.0,5.3,0,5,10,0,2026-06-10T15:36:22.756181+05:30
Jalandhar,Punjab,31.326,75.5762,42.7,16,0.0,969.1,8.25,25.9,163,55.8,27.2,2.3,279.0,184.0,5.9,0,5,10,0,2026-06-10T15:36:22.756188+05:30
Dehradun,Uttarakhand,30.6284,78.0322,24.5,59,0.1,827.9,8.3,43.6,133,52.5,26.7,0.7,243.0,182.0,5.7,3,5,7,0,2026-06-10T15:36:22.756195+05:30
Shimla,Himachal Pradesh,31.1048,77.1734,25.1,31,0.0,784.3,8.35,45.7,154,46.6,26.8,1.3,235.0,203.0,9.2,4,5,7,0,2026-06-10T15:36:22.756206+05:30
Manali,Himachal Pradesh,32.2396,77.1887,23.4,56,0.0,816.6,9.95,38.5,93,28.8,20.0,8.4,154.0,154.0,0.5,0,5,7,0,2026-06-10T15:36:22.756213+05:30
Gurgaon,Haryana,28.4595,77.0266,41.1,24,0.0,971.5,7.9,47.2,1400,1486.4,186.7,5.4,159.0,124.0,6.5,0,5,10,1,2026-06-10T15:36:22.756219+05:30
Noida,Uttar Pradesh,28.5355,77.391,41.2,24,0.0,974.1,7.85,36.4,1400,1486.4,186.7,5.4,201.0,124.0,6.5,0,5,10,1,2026-06-10T15:36:22.756227+05:30
Ghaziabad,Uttar Pradesh,28.6692,77.4538,41.7,22,0.0,972.2,7.85,32.0,308,907.1,149.0,4.2,185.0,161.0,13.2,0,5,10,0,2026-06-10T15:36:22.756234+05:30
Faridabad,Haryana,28.4089,77.3178,41.6,23,0.0,973.4,7.9,39.6,1400,1486.4,186.7,5.4,181.0,124.0,6.5,0,5,10,1,2026-06-10T15:36:22.756241+05:30
Meerut,Uttar Pradesh,28.9845,77.7064,40.2,31,0.0,971.2,7.75,34.9,308,907.1,149.0,4.2,171.0,161.0,13.2,0,5,10,1,2026-06-10T15:36:22.756247+05:30
Agra,Uttar Pradesh,27.1767,78.0081,42.2,22,0.0,978.0,8.15,46.4,1170,239.3,46.3,2.7,135.0,115.0,3.0,0,5,10,0,2026-06-10T15:36:22.756254+05:30
Varanasi,Uttar Pradesh,25.3176,82.9739,41.3,23,0.0,987.8,8.8,44.6,105,100.6,36.2,1.6,206.0,150.0,6.7,0,5,10,0,2026-06-10T15:36:22.756260+05:30
Prayagraj,Uttar Pradesh,25.4358,81.8463,40.7,22,0.0,986.7,8.7,44.6,118,167.2,50.2,1.5,142.0,148.0,5.8,0,5,10,0,2026-06-10T15:36:22.756267+05:30
Gorakhpur,Uttar Pradesh,26.7606,83.3732,33.5,59,0.1,988.6,8.7,38.9,174,107.1,61.5,2.5,373.0,206.0,11.2,3,5,7,1,2026-06-10T15:36:22.756275+05:30
Bareilly,Uttar Pradesh,28.367,79.4304,38.3,39,0.0,977.1,8.15,39.6,171,226.3,67.3,2.4,246.0,170.0,7.5,0,5,10,1,2026-06-10T15:36:22.756281+05:30
Aligarh,Uttar Pradesh,27.8974,78.088,40.0,31,0.0,975.7,8.0,33.5,719,638.9,101.5,2.3,146.0,115.0,4.8,0,5,10,1,2026-06-10T15:36:22.756287+05:30
Moradabad,Uttar Pradesh,28.8386,78.7733,37.9,42,0.0,974.2,7.95,40.0,189,400.5,101.7,4.0,267.0,193.0,14.7,0,5,10,1,2026-06-10T15:36:22.756294+05:30
Saharanpur,Uttar Pradesh,29.9637,77.546,37.0,41,0.0,966.3,7.5,36.7,155,381.8,92.4,4.2,289.0,177.0,7.3,0,5,10,1,2026-06-10T15:36:22.756300+05:30
Jhansi,Uttar Pradesh,25.4484,78.5685,40.5,25,0.0,969.8,8.5,44.3,72,38.4,20.3,1.2,134.0,120.0,5.7,0,5,10,1,2026-06-10T15:36:26.011389+05:30
Surat,Gujarat,21.1702,72.8311,34.5,55,0.0,1001.5,7.55,52.9,91,58.8,31.2,9.7,184.0,63.0,30.4,0,5,4,1,2026-06-10T15:36:26.011415+05:30
Vadodara,Gujarat,22.3072,73.1812,39.4,36,0.0,997.2,8.0,52.6,85,71.2,30.0,1.6,137.0,104.0,3.5,0,5,10,1,2026-06-10T15:36:26.011425+05:30
Rajkot,Gujarat,22.3039,70.8022,40.1,33,0.0,987.4,7.55,49.7,80,45.6,22.1,1.1,107.0,98.0,3.9,0,5,10,1,2026-06-10T15:36:26.011433+05:30
Thane,Maharashtra,19.2183,72.9781,33.4,59,0.1,1003.9,7.7,42.8,81,60.8,25.1,3.5,145.0,73.0,3.9,3,5,4,1,2026-06-10T15:36:26.011441+05:30
Nagpur,Maharashtra,21.1458,79.0882,41.4,23,0.0,966.3,6.35,41.4,93,57.5,30.9,4.2,149.0,143.0,16.9,0,5,10,1,2026-06-10T15:36:26.011448+05:30
Nashik,Maharashtra,19.9975,73.7898,33.9,41,0.0,942.1,8.0,49.7,71,53.7,21.1,1.0,115.0,75.0,1.1,0,5,7,1,2026-06-10T15:36:26.011455+05:30
Aurangabad,Maharashtra,19.8762,75.3433,36.4,30,0.0,940.0,8.95,49.0,73,46.7,18.0,1.1,135.0,111.0,2.6,0,5,10,1,2026-06-10T15:36:26.011462+05:30
Solapur,Maharashtra,17.6599,75.9064,36.3,31,0.0,953.2,8.85,43.6,55,61.7,21.5,1.0,129.0,107.0,1.9,0,5,10,1,2026-06-10T15:36:26.011469+05:30
Kolhapur,Maharashtra,16.705,74.2433,28.8,67,0.0,945.8,6.45,51.5,31,24.7,12.1,2.1,121.0,76.0,1.5,7,5,7,1,2026-06-10T15:36:26.011476+05:30
Goa,Goa,15.2993,74.124,29.5,75,0.0,996.7,6.85,33.8,42,21.5,8.7,1.2,140.0,61.0,0.7,7,5,7,1,2026-06-10T15:36:26.011483+05:30
Jodhpur,Rajasthan,26.2389,73.0243,39.8,33,0.0,974.3,8.45,52.6,157,298.0,54.4,0.8,114.0,95.0,1.5,0,5,10,1,2026-06-10T15:36:26.011489+05:30
Udaipur,Rajasthan,24.5854,73.7125,36.8,36,0.0,940.7,8.8,49.0,81,60.8,28.0,0.6,121.0,101.0,3.8,0,5,10,1,2026-06-10T15:36:26.011496+05:30
Kota,Rajasthan,25.2138,75.8648,40.4,30,0.0,970.6,8.4,39.2,76,52.6,25.6,1.0,132.0,118.0,5.0,0,5,10,1,2026-06-10T15:36:26.011503+05:30
Bikaner,Rajasthan,28.0229,73.3119,42.4,26,0.0,971.7,8.5,47.5,121,105.7,39.3,0.4,120.0,99.0,3.2,0,5,10,1,2026-06-10T15:36:26.011509+05:30
Ajmer,Rajasthan,26.4499,74.6399,37.0,37,0.0,947.2,8.4,52.9,73,45.5,20.4,0.7,129.0,106.0,2.2,0,5,10,1,2026-06-10T15:36:26.011516+05:30
Gwalior,Madhya Pradesh,26.2183,78.1828,40.9,27,0.0,974.4,8.3,47.9,73,34.2,19.4,0.6,136.0,114.0,2.6,0,5,10,1,2026-06-10T15:36:26.011522+05:30
Indore,Madhya Pradesh,22.7196,75.8577,37.8,29,0.0,942.9,8.6,47.5,79,42.3,20.7,1.0,157.0,111.0,2.9,0,5,10,1,2026-06-10T15:36:26.011529+05:30
Bhopal,Madhya Pradesh,23.2599,77.4126,39.6,25,0.0,947.7,8.65,39.6,84,38.8,21.4,0.6,155.0,114.0,3.8,0,5,10,0,2026-06-10T15:36:26.011536+05:30
Jabalpur,Madhya Pradesh,23.1815,79.9864,40.2,23,0.0,954.7,8.85,37.1,85,39.8,22.1,0.8,175.0,127.0,4.4,0,5,10,0,2026-06-10T15:36:26.011542+05:30
Ujjain,Madhya Pradesh,23.1765,75.7885,37.8,32,0.0,948.2,8.6,48.6,79,54.0,24.3,0.6,133.0,101.0,2.3,0,5,10,1,2026-06-10T15:36:26.011549+05:30
Visakhapatnam,Andhra Pradesh,17.6868,83.2185,37.5,46,0.1,995.4,8.8,25.2,157,77.5,60.5,12.9,420.0,209.0,47.7,3,5,10,1,2026-06-10T15:36:26.011556+05:30
Vijayawada,Andhra Pradesh,16.5062,80.648,39.1,39,0.0,995.2,8.6,42.5,81,54.4,30.4,1.8,192.0,131.0,5.4,0,5,10,1,2026-06-10T15:36:26.011563+05:30
Guntur,Andhra Pradesh,16.3067,80.4365,38.7,39,0.0,996.4,7.8,45.0,77,54.7,29.2,1.1,173.0,128.0,4.7,0,5,10,1,2026-06-10T15:36:26.011569+05:30
Nellore,Andhra Pradesh,14.4426,79.9865,37.4,39,0.0,999.9,8.1,48.2,44,35.5,19.4,4.2,140.0,110.0,4.6,0,5,10,1,2026-06-10T15:36:26.011576+05:30
Kurnool,Andhra Pradesh,15.8281,78.0373,35.2,42,0.0,972.4,7.85,46.4,54,38.6,18.2,1.1,133.0,110.0,6.1,0,5,10,1,2026-06-10T15:36:26.011584+05:30
Kakinada,Andhra Pradesh,16.9891,82.2475,39.1,41,0.0,998.7,8.95,43.2,93,45.4,30.4,2.8,217.0,150.0,3.9,0,5,10,1,2026-06-10T15:36:26.011591+05:30
Tirupati,Andhra Pradesh,13.6288,79.4192,34.6,45,0.1,986.4,7.55,42.8,39,46.0,21.7,3.1,144.0,88.0,2.0,3,5,7,1,2026-06-10T15:36:26.011597+05:30
Warangal,Telangana,17.9689,79.5941,37.3,38,0.0,972.5,9.0,45.4,91,61.5,31.5,1.1,170.0,126.0,5.3,0,5,10,1,2026-06-10T15:36:26.011604+05:30
Nizamabad,Telangana,18.6725,78.0941,38.1,32,0.0,959.7,8.95,42.8,85,68.5,29.4,0.6,136.0,115.0,3.1,0,5,10,1,2026-06-10T15:36:26.011610+05:30
Mysore,Karnataka,12.2958,76.6396,26.7,67,0.2,927.1,3.2,47.9,28,3.9,3.0,5.0,142.0,58.0,1.4,10,5,3,1,2026-06-10T15:36:26.011617+05:30
Mangalore,Karnataka,12.9141,74.856,26.8,92,0.2,1006.5,5.85,34.6,28,10.0,5.5,4.1,151.0,58.0,1.9,10,5,0,1,2026-06-10T15:36:26.011624+05:30
Hubli-Dharwad,Karnataka,15.3647,75.124,27.8,68,0.1,939.0,7.0,49.3,27,14.8,7.1,2.8,124.0,69.0,0.9,10,5,7,1,2026-06-10T15:36:26.011631+05:30
Belgaum,Karnataka,15.8497,74.4977,27.1,69,0.0,924.1,8.15,49.7,28,17.3,7.2,2.0,111.0,60.0,1.2,7,5,7,1,2026-06-10T15:36:29.269667+05:30
Coimbatore,Tamil Nadu,11.0168,76.9558,29.2,66,0.0,960.2,8.1,52.9,26,5.2,3.6,3.8,161.0,58.0,1.8,7,5,7,1,2026-06-10T15:36:29.269694+05:30
Madurai,Tamil Nadu,9.9252,78.1198,36.1,41,0.0,989.8,8.35,49.7,25,12.0,6.7,3.9,134.0,72.0,2.3,0,5,10,1,2026-06-10T15:36:29.269704+05:30
Trichy,Tamil Nadu,10.7905,78.7047,36.4,38,0.0,995.8,8.25,60.8,29,11.3,5.7,1.9,119.0,82.0,1.6,0,5,10,1,2026-06-10T15:36:29.269712+05:30
Salem,Tamil Nadu,11.6643,78.146,37.3,33,0.0,973.9,8.0,49.7,36,10.1,5.9,3.2,164.0,85.0,3.8,0,5,10,1,2026-06-10T15:36:29.269719+05:30
Tirunelveli,Tamil Nadu,8.7139,77.7567,33.9,50,0.0,1000.9,8.65,51.8,26,9.1,5.3,2.7,122.0,68.0,1.4,0,5,4,1,2026-06-10T15:36:29.269726+05:30
Vellore,Tamil Nadu,12.9165,79.1325,31.6,60,0.1,979.9,7.45,53.6,40,29.0,15.0,3.1,148.0,95.0,1.5,3,5,7,1,2026-06-10T15:36:29.269772+05:30
Erode,Tamil Nadu,11.341,77.7172,34.2,47,0.1,986.0,5.0,45.4,31,10.0,5.7,3.1,162.0,76.0,1.7,3,5,3,1,2026-06-10T15:36:29.269781+05:30
Kochi,Kerala,9.9312,76.2673,27.7,83,0.1,1008.7,5.2,34.6,31,9.5,5.9,3.0,132.0,60.0,2.1,10,0,0,1,2026-06-10T15:36:29.269789+05:30
Thiruvananthapuram,Kerala,8.5241,76.9366,27.2,84,0.0,1008.1,8.4,43.6,31,15.0,7.8,1.7,105.0,65.0,0.9,7,0,4,1,2026-06-10T15:36:29.269796+05:30
Kozhikode,Kerala,11.2588,75.7804,27.8,85,0.1,1007.8,8.2,36.7,28,8.2,3.7,0.8,112.0,63.0,0.5,10,5,4,1,2026-06-10T15:36:29.269803+05:30
Thrissur,Kerala,10.5276,76.2144,28.6,80,0.0,1006.9,6.15,35.6,31,8.3,5.1,2.2,149.0,60.0,1.3,7,5,4,1,2026-06-10T15:36:29.269811+05:30
Kannur,Kerala,11.8745,75.3704,26.5,92,0.1,1007.3,7.95,34.9,27,8.5,5.4,4.9,132.0,57.0,1.4,10,5,4,1,2026-06-10T15:36:29.269818+05:30
Patna,Bihar,25.5941,85.1376,36.6,50,0.0,991.1,8.85,32.0,176,98.3,54.8,6.3,387.0,198.0,13.6,0,5,10,1,2026-06-10T15:36:29.269825+05:30
Gaya,Bihar,24.7914,85.0002,38.5,36,0.0,984.7,8.65,49.7,159,145.8,55.9,3.8,222.0,173.0,9.9,0,5,10,1,2026-06-10T15:36:29.269831+05:30
Muzaffarpur,Bihar,26.1209,85.3647,35.2,56,0.0,991.2,8.85,38.5,183,94.8,57.0,6.7,391.0,199.0,14.8,0,5,10,1,2026-06-10T15:36:29.269838+05:30
Bhagalpur,Bihar,25.2425,87.0117,36.4,51,0.0,992.0,8.85,49.3,168,83.4,56.1,5.5,323.0,219.0,21.1,0,5,10,1,2026-06-10T15:36:29.269844+05:30
Ranchi,Jharkhand,23.3441,85.3096,33.5,39,0.1,931.6,9.0,34.2,129,137.8,39.6,2.8,204.0,154.0,6.9,3,5,7,1,2026-06-10T15:36:29.269851+05:30
Jamshedpur,Jharkhand,22.8046,86.2029,37.9,34,0.0,982.1,9.05,32.0,185,117.8,48.5,5.7,238.0,187.0,20.2,0,5,10,1,2026-06-10T15:36:29.269857+05:30
Dhanbad,Jharkhand,23.7957,86.4304,39.0,30,0.0,971.6,9.05,31.0,159,139.2,48.4,12.2,153.0,167.0,41.9,0,5,10,1,2026-06-10T15:36:29.269864+05:30
Bokaro,Jharkhand,23.6693,86.1511,38.2,33,0.0,975.3,9.1,28.1,156,131.3,47.0,10.6,155.0,173.0,46.3,0,5,10,1,2026-06-10T15:36:29.269871+05:30
Bhubaneswar,Odisha,20.2961,85.8245,37.9,47,0.0,993.3,9.05,27.4,160,66.1,41.1,4.4,276.0,166.0,9.5,0,5,10,1,2026-06-10T15:36:29.269877+05:30
Cuttack,Odisha,20.4625,85.8828,36.3,53,0.0,995.0,9.1,28.1,160,66.1,41.1,4.4,271.0,166.0,9.5,0,5,10,1,2026-06-10T15:36:29.269884+05:30
Rourkela,Odisha,22.2604,84.8536,37.4,37,0.0,976.7,9.0,39.2,152,139.7,46.8,4.1,269.0,167.0,9.8,0,5,10,1,2026-06-10T15:36:29.269890+05:30
Raipur,Chhattisgarh,21.2514,81.6296,41.4,21,0.0,967.0,8.5,30.2,121,72.6,38.3,6.6,142.0,155.0,26.3,0,5,10,0,2026-06-10T15:36:29.269896+05:30
Bhilai,Chhattisgarh,21.1938,81.3509,41.1,22,0.0,967.4,8.9,36.4,116,67.5,36.6,7.9,281.0,143.0,25.8,0,5,10,0,2026-06-10T15:36:29.269903+05:30
Guwahati,Assam,26.1158,91.7086,29.5,77,0.0,994.3,8.75,24.5,82,26.0,18.0,2.5,353.0,128.0,3.5,7,5,7,1,2026-06-10T15:36:29.269909+05:30
Agartala,Tripura,23.8315,91.2868,29.2,80,0.1,1000.1,8.85,37.8,68,38.2,27.0,7.2,201.0,104.0,3.1,10,5,4,1,2026-06-10T15:36:29.269916+05:30
Shillong,Meghalaya,25.5788,91.8933,22.7,79,0.2,853.3,7.2,32.4,74,22.3,15.3,2.7,263.0,127.0,3.1,6,5,7,1,2026-06-10T15:36:29.269923+05:30
Imphal,Manipur,24.817,93.9368,27.4,67,0.1,917.9,7.4,36.0,89,19.3,13.9,3.1,218.0,102.0,2.2,10,5,7,1,2026-06-10T15:36:29.269929+05:30
Aizawl,Mizoram,23.7271,92.7176,21.6,85,0.0,888.2,8.6,36.7,79,19.8,13.0,1.6,164.0,94.0,1.6,3,5,7,1,2026-06-10T15:36:29.269936+05:30
Kohima,Nagaland,25.6701,94.1077,23.8,82,0.1,851.7,9.0,32.0,63,16.7,11.4,2.3,224.0,102.0,1.9,6,5,7,1,2026-06-10T15:36:29.269942+05:30
Gangtok,Sikkim,27.3314,88.6138,19.5,91,0.0,833.4,9.25,35.6,128,20.8,15.3,1.9,325.0,152.0,2.6,3,10,7,1,2026-06-10T15:36:29.269949+05:30
Siliguri,West Bengal,26.7271,88.3953,28.5,81,0.0,985.9,8.75,23.0,152,43.7,31.0,3.7,446.0,165.0,5.4,7,5,7,1,2026-06-10T15:36:32.583588+05:30
Durgapur,West Bengal,23.5204,87.3119,34.1,60,0.0,986.7,9.0,25.2,211,137.8,82.4,11.2,471.0,261.0,50.3,0,5,7,1,2026-06-10T15:36:32.583620+05:30
Asansol,West Bengal,23.6739,86.9524,38.2,34,0.0,984.8,9.0,29.5,183,140.2,61.0,12.8,262.0,199.0,33.9,0,5,10,1,2026-06-10T15:36:32.583634+05:30
Pondicherry,Puducherry,11.9139,79.8145,37.1,38,0.0,1003.3,7.5,50.4,49,20.7,14.8,4.9,158.0,125.0,8.0,0,5,7,1,2026-06-10T15:36:32.583644+05:30
Port Blair,Andaman and Nicobar Islands,11.6234,92.7265,26.1,92,0.0,1005.2,5.8,47.9,27,7.1,4.1,0.5,94.0,52.0,0.4,7,5,0,1,2026-06-10T15:36:32.583654+05:30
Haridwar,Uttarakhand,29.9457,78.1642,36.6,41,0.0,965.0,7.6,40.0,156,361.4,88.7,1.2,293.0,174.0,7.5,0,5,10,1,2026-06-10T15:36:32.583663+05:30
Rishikesh,Uttarakhand,30.0869,78.2676,35.9,37,0.0,958.1,7.7,36.7,165,237.5,66.1,0.9,258.0,178.0,8.4,0,5,10,1,2026-06-10T15:36:32.583670+05:30
Nainital,Uttarakhand,29.3919,79.4542,21.8,64,0.1,803.1,8.4,38.5,158,151.8,51.2,1.2,242.0,173.0,9.1,6,5,7,0,2026-06-10T15:36:32.583676+05:30
Mussoorie,Uttarakhand,30.4599,78.0664,22.9,53,0.0,801.0,8.15,45.0,158,163.4,52.3,0.7,235.0,186.0,8.3,0,5,7,0,2026-06-10T15:36:32.583683+05:30
Dharamshala,Himachal Pradesh,32.219,76.3234,29.7,33,0.0,865.4,8.55,39.2,136,24.4,16.6,0.2,208.0,179.0,2.1,4,5,7,0,2026-06-10T15:36:32.583689+05:30
Dalhousie,Himachal Pradesh,32.5387,75.971,26.0,35,0.1,803.8,8.75,37.8,164,34.5,22.5,1.0,214.0,194.0,3.5,7,5,7,0,2026-06-10T15:36:32.583697+05:30
Patiala,Punjab,30.3398,76.3869,41.8,21,0.0,967.9,7.65,31.3,427,370.7,76.8,0.9,230.0,170.0,6.4,0,5,10,0,2026-06-10T15:36:32.583703+05:30
Bhatinda,Punjab,30.211,74.9455,43.0,22,0.0,973.0,8.35,25.2,157,118.0,47.3,1.4,180.0,167.0,9.8,0,5,10,1,2026-06-10T15:36:32.583710+05:30
Rohtak,Haryana,28.8955,76.6066,41.4,25,0.0,971.4,7.8,41.4,704,1017.0,138.3,3.4,175.0,125.0,4.5,0,5,10,1,2026-06-10T15:36:32.583716+05:30
Panipat,Haryana,29.3909,76.9635,41.0,25,0.0,969.8,7.7,29.2,1520,1356.0,184.9,3.6,171.0,133.0,9.4,0,5,10,1,2026-06-10T15:36:32.583722+05:30
Mathura,Uttar Pradesh,27.4924,77.6737,40.7,28,0.0,976.9,8.1,34.2,711,221.2,50.2,3.1,169.0,111.0,2.7,0,5,10,1,2026-06-10T15:36:32.583728+05:30
Vrindavan,Uttar Pradesh,27.5823,77.7027,40.6,28,0.0,977.3,8.1,33.5,711,221.2,50.2,3.1,163.0,111.0,2.7,0,5,10,1,2026-06-10T15:36:32.583755+05:30
Ayodhya,Uttar Pradesh,26.7922,82.1998,35.1,50,0.1,986.3,8.4,34.9,174,139.7,63.3,2.4,377.0,210.0,10.4,3,5,10,1,2026-06-10T15:36:32.583762+05:30
Ratlam,Madhya Pradesh,23.3315,75.0367,36.7,39,0.0,949.3,8.5,49.0,80,61.9,27.3,0.5,125.0,98.0,2.5,0,5,10,1,2026-06-10T15:36:32.583769+05:30
Sagar,Madhya Pradesh,23.8388,78.7378,39.1,21,0.0,944.1,8.7,43.2,80,37.0,19.6,0.5,134.0,121.0,3.9,0,5,10,0,2026-06-10T15:36:32.583775+05:30
Satna,Madhya Pradesh,24.6005,80.8322,39.9,27,0.0,963.8,8.8,46.8,79,48.0,22.7,0.5,142.0,117.0,3.2,0,5,10,1,2026-06-10T15:36:32.583782+05:30
Akola,Maharashtra,20.7002,77.0082,40.4,22,0.0,968.9,8.8,49.7,80,55.3,25.3,1.3,127.0,118.0,5.1,0,5,10,0,2026-06-10T15:36:32.583789+05:30
Amravati,Maharashtra,20.9374,77.7796,39.2,25,0.0,961.5,8.8,47.5,81,55.5,25.7,1.4,128.0,120.0,5.8,0,5,10,0,2026-06-10T15:36:32.583796+05:30
Latur,Maharashtra,18.4088,76.5604,34.8,38,0.1,936.1,8.95,42.1,71,70.5,26.3,0.4,121.0,105.0,2.2,3,5,7,1,2026-06-10T15:36:32.583802+05:30
Nanded,Maharashtra,19.1383,77.3091,38.4,30,0.0,963.4,8.9,42.5,84,74.7,30.2,0.7,126.0,114.0,2.5,0,5,10,1,2026-06-10T15:36:32.583809+05:30
Gulbarga,Karnataka,17.3297,76.8343,35.0,40,0.0,954.5,8.95,41.4,59,50.9,19.0,0.8,144.0,108.0,2.4,0,5,7,1,2026-06-10T15:36:32.583815+05:30
Bidar,Karnataka,17.9104,77.5199,35.0,41,0.0,931.7,9.0,46.4,75,71.0,29.9,0.7,143.0,118.0,3.7,0,5,7,1,2026-06-10T15:36:32.583821+05:30
Hospet,Karnataka,15.2689,76.3909,30.7,56,0.0,953.0,8.75,43.6,29,24.4,10.5,2.3,146.0,79.0,1.5,0,5,7,1,2026-06-10T15:36:32.583827+05:30
Tirupur,Tamil Nadu,11.1085,77.3411,31.8,55,0.1,973.1,6.5,55.1,29,9.6,5.7,3.6,144.0,70.0,2.2,3,5,7,1,2026-06-10T15:36:32.583833+05:30
Alappuzha,Kerala,9.4981,76.3388,27.5,84,0.0,1008.9,8.35,41.8,30,12.2,7.0,3.5,92.0,65.0,1.8,7,0,4,1,2026-06-10T15:36:32.583839+05:30
Munnar,Kerala,10.0889,77.0595,18.1,95,0.3,856.5,8.35,42.5,23,6.8,4.2,3.1,121.0,54.0,1.1,6,10,7,1,2026-06-10T15:36:32.583846+05:30
Silchar,Assam,24.8333,92.7789,26.7,94,0.4,999.2,7.8,33.5,94,24.0,16.8,2.8,245.0,101.0,3.0,10,5,7,1,2026-06-10T15:36:32.583853+05:30
Dibrugarh,Assam,27.4728,94.912,30.0,75,0.0,987.9,8.9,33.1,103,37.4,24.7,3.7,264.0,132.0,3.2,7,5,7,1,2026-06-10T15:36:32.583859+05:30
