city,state,latitude,longitude,temp,humidity,rain,pressure,uv_index,wind_gusts,aqi,pm10,pm2_5,no2,co,o3,so2,mosquito_risk,arthritis_risk,migraine_risk,frizz_risk,updated_at
Delhi,Delhi,28.6139,77.209,38.7,19,0.0,977.7,7.7,39.6,410,618.4,94.8,7.1,310.0,127.0,8.3,0,5,10,0,2026-05-16T17:24:26.526096+05:30
Mumbai,Maharashtra,19.076,72.8777,31.5,68,0.0,1002.7,7.85,50.4,60,40.4,16.4,7.8,196.0,79.0,4.5,3,5,4,1,2026-05-16T17:24:26.526136+05:30
Bangalore,Karnataka,12.9716,77.5946,32.7,29,0.0,907.5,8.8,43.2,150,103.6,56.8,13.3,338.0,135.0,10.1,0,5,7,0,2026-05-16T17:24:26.526148+05:30
Hyderabad,Telangana,17.385,78.4867,36.5,32,0.1,947.9,9.3,22.7,152,64.3,39.1,3.7,372.0,167.0,6.5,3,5,10,1,2026-05-16T17:24:26.526156+05:30
Chennai,Tamil Nadu,13.0827,80.2707,31.0,69,0.0,1001.1,8.85,32.4,40,11.3,7.8,6.9,177.0,87.0,10.7,3,5,4,1,2026-05-16T17:24:26.526163+05:30
Kolkata,West Bengal,22.5726,88.3639,31.8,69,0.0,999.7,9.0,35.3,60,30.6,18.9,4.0,255.0,79.0,5.4,3,5,7,1,2026-05-16T17:24:26.526169+05:30
Pune,Maharashtra,18.5204,73.8567,36.1,30,0.1,943.3,8.5,36.7,71,29.9,18.9,2.5,189.0,144.0,5.7,3,5,10,0,2026-05-16T17:24:26.526175+05:30
Ahmedabad,Gujarat,23.0225,72.5714,40.7,19,0.0,995.3,8.15,31.0,56,56.9,17.6,1.2,156.0,106.0,2.5,0,5,10,0,2026-05-16T17:24:26.526181+05:30
Jaipur,Rajasthan,26.9124,75.7873,39.2,14,0.0,955.2,8.25,30.2,166,192.3,36.6,0.0,184.0,136.0,3.4,0,5,10,0,2026-05-16T17:24:26.526190+05:30
Lucknow,Uttar Pradesh,26.8467,80.9462,38.8,24,0.0,986.8,8.2,31.7,154,197.4,53.6,4.5,276.0,141.0,9.4,0,5,10,0,2026-05-16T17:24:26.526195+05:30
Kanpur,Uttar Pradesh,26.4499,80.3319,40.0,19,0.0,985.1,8.2,34.2,151,292.4,55.8,3.1,227.0,139.0,7.8,0,5,10,0,2026-05-16T17:24:26.526200+05:30
Chandigarh,Chandigarh,30.7333,76.7794,34.2,29,0.0,964.4,7.7,39.2,132,49.8,21.9,2.3,282.0,157.0,7.4,0,5,7,0,2026-05-16T17:24:26.526205+05:30
Srinagar,Jammu and Kashmir,34.0837,74.7973,20.2,60,0.0,842.5,8.9,36.0,96,15.9,9.5,2.8,299.0,123.0,1.2,0,5,7,0,2026-05-16T17:24:26.526211+05:30
Jammu,Jammu and Kashmir,32.7266,74.857,34.8,25,0.0,968.7,8.45,25.9,96,22.7,11.7,0.0,213.0,153.0,2.4,0,5,7,0,2026-05-16T17:24:26.526215+05:30
Amritsar,Punjab,31.634,74.8723,36.2,27,0.0,976.0,8.35,25.9,132,61.0,24.0,0.2,227.0,174.0,7.4,0,5,10,0,2026-05-16T17:24:26.526220+05:30
Ludhiana,Punjab,30.901,75.8573,36.2,24,0.0,974.1,7.95,42.1,113,90.1,27.1,1.1,279.0,148.0,3.6,0,5,10,0,2026-05-16T17:24:26.526225+05:30
Jalandhar,Punjab,31.326,75.5762,36.0,24,0.0,975.2,8.15,30.2,134,81.7,26.9,1.7,286.0,160.0,5.8,0,5,10,0,2026-05-16T17:24:26.526229+05:30
Dehradun,Uttarakhand,30.6284,78.0322,21.9,50,0.0,829.7,8.1,33.1,83,42.5,16.3,1.4,185.0,131.0,3.1,0,5,7,0,2026-05-16T17:24:26.526234+05:30
Shimla,Himachal Pradesh,31.1048,77.1734,19.5,41,0.0,784.7,8.2,46.4,87,56.7,20.2,0.7,167.0,138.0,3.4,0,5,7,0,2026-05-16T17:24:26.526245+05:30
Manali,Himachal Pradesh,32.2396,77.1887,17.5,63,0.0,817.2,9.9,37.8,111,20.4,10.6,0.0,135.0,163.0,0.4,3,5,7,0,2026-05-16T17:24:26.526251+05:30
Gurgaon,Haryana,28.4595,77.0266,38.0,20,0.0,976.3,7.8,38.2,637,1333.7,169.0,6.8,339.0,136.0,8.1,0,5,10,0,2026-05-16T17:24:26.526256+05:30
Noida,Uttar Pradesh,28.5355,77.391,37.2,24,0.0,978.8,7.7,31.0,637,1333.7,169.0,6.8,378.0,136.0,8.1,0,5,10,0,2026-05-16T17:24:26.526261+05:30
Ghaziabad,Uttar Pradesh,28.6692,77.4538,36.3,27,0.0,977.2,7.7,37.1,192,534.6,87.8,5.0,256.0,142.0,11.3,0,5,10,0,2026-05-16T17:24:26.526268+05:30
Faridabad,Haryana,28.4089,77.3178,38.6,18,0.0,978.2,7.75,40.0,637,1333.7,169.0,6.8,268.0,136.0,8.1,0,5,10,0,2026-05-16T17:24:26.526273+05:30
Meerut,Uttar Pradesh,28.9845,77.7064,36.8,24,0.0,976.0,7.6,41.4,192,534.6,87.8,5.0,227.0,142.0,11.3,0,5,10,0,2026-05-16T17:24:26.526277+05:30
Agra,Uttar Pradesh,27.1767,78.0081,39.4,18,0.0,981.8,8.05,34.2,430,508.5,74.7,6.7,241.0,135.0,8.0,0,5,10,0,2026-05-16T17:24:26.526282+05:30
Varanasi,Uttar Pradesh,25.3176,82.9739,39.7,18,0.0,990.2,8.7,39.6,157,183.0,48.8,2.8,274.0,154.0,9.6,0,5,10,0,2026-05-16T17:24:26.526287+05:30
Prayagraj,Uttar Pradesh,25.4358,81.8463,39.6,21,0.0,988.9,8.6,33.5,155,164.8,45.8,2.9,228.0,146.0,10.1,0,5,10,0,2026-05-16T17:24:26.526292+05:30
Gorakhpur,Uttar Pradesh,26.7606,83.3732,35.7,48,0.0,989.7,8.55,27.0,157,116.4,39.9,2.6,310.0,149.0,8.4,0,5,10,1,2026-05-16T17:24:26.526299+05:30
Bareilly,Uttar Pradesh,28.367,79.4304,34.4,41,0.0,981.0,8.0,28.8,144,59.0,39.7,3.1,276.0,166.0,10.1,0,5,7,1,2026-05-16T17:24:26.526304+05:30
Aligarh,Uttar Pradesh,27.8974,78.088,37.2,25,0.0,979.7,7.85,33.1,253,814.0,117.1,3.5,291.0,163.0,11.7,0,5,10,0,2026-05-16T17:24:26.526309+05:30
Moradabad,Uttar Pradesh,28.8386,78.7733,35.5,33,0.0,978.1,7.85,37.4,154,83.8,43.4,4.0,278.0,150.0,8.8,0,5,10,1,2026-05-16T17:24:26.526316+05:30
Saharanpur,Uttar Pradesh,29.9637,77.546,34.0,33,0.0,970.5,7.4,35.3,143,132.7,40.3,6.0,233.0,147.0,11.6,0,5,7,0,2026-05-16T17:24:26.526321+05:30
Jhansi,Uttar Pradesh,25.4484,78.5685,39.8,20,0.0,972.3,8.5,23.0,95,73.1,24.9,1.1,181.0,136.0,7.5,0,5,10,0,2026-05-16T17:24:29.883566+05:30
Surat,Gujarat,21.1702,72.8311,39.0,23,0.0,1000.0,7.75,36.7,77,75.9,43.4,27.6,199.0,97.0,74.2,0,5,7,0,2026-05-16T17:24:29.883599+05:30
Vadodara,Gujarat,22.3072,73.1812,40.8,18,0.0,997.3,8.1,29.9,61,61.2,23.9,1.4,182.0,141.0,7.8,0,5,10,0,2026-05-16T17:24:29.883607+05:30
Rajkot,Gujarat,22.3039,70.8022,39.1,17,0.0,988.8,7.75,38.5,52,48.2,15.7,1.0,127.0,108.0,4.3,0,5,10,0,2026-05-16T17:24:29.883613+05:30
Thane,Maharashtra,19.2183,72.9781,33.7,57,0.0,1001.8,7.9,44.3,60,40.4,16.4,7.8,164.0,79.0,4.5,0,5,4,1,2026-05-16T17:24:29.883620+05:30
Nagpur,Maharashtra,21.1458,79.0882,41.6,17,0.0,966.2,8.95,38.2,154,60.8,31.3,4.7,183.0,181.0,23.7,0,5,10,0,2026-05-16T17:24:29.883626+05:30
Nashik,Maharashtra,19.9975,73.7898,36.2,29,0.0,941.0,8.2,38.2,47,31.1,16.6,1.4,157.0,126.0,4.2,0,5,10,0,2026-05-16T17:24:29.883632+05:30
Aurangabad,Maharashtra,19.8762,75.3433,38.0,22,0.0,939.4,9.1,37.1,54,30.4,16.4,0.8,168.0,124.0,3.4,0,5,10,0,2026-05-16T17:24:29.883638+05:30
Solapur,Maharashtra,17.6599,75.9064,40.6,16,0.0,950.9,8.65,30.6,102,27.2,16.7,0.0,151.0,156.0,5.3,0,5,10,0,2026-05-16T17:24:29.883645+05:30
Kolhapur,Maharashtra,16.705,74.2433,33.3,47,0.0,942.8,8.75,50.0,97,34.1,21.0,2.8,165.0,153.0,5.4,0,5,7,1,2026-05-16T17:24:29.883650+05:30
Goa,Goa,15.2993,74.124,32.4,61,0.0,992.1,8.9,34.9,65,23.8,14.4,1.1,116.0,67.0,1.4,3,5,7,1,2026-05-16T17:24:29.883656+05:30
Jodhpur,Rajasthan,26.2389,73.0243,40.3,19,0.0,977.3,8.4,31.0,122,173.2,32.7,0.3,132.0,111.0,1.8,0,5,10,0,2026-05-16T17:24:29.883662+05:30
Udaipur,Rajasthan,24.5854,73.7125,36.8,21,0.0,942.0,8.85,32.8,50,43.9,14.1,0.5,129.0,107.0,2.5,0,5,10,0,2026-05-16T17:24:29.883667+05:30
Kota,Rajasthan,25.2138,75.8648,41.5,15,0.0,972.2,8.45,29.5,64,93.4,25.7,0.1,135.0,134.0,5.4,0,5,10,0,2026-05-16T17:24:29.883673+05:30
Bikaner,Rajasthan,28.0229,73.3119,40.8,13,0.0,976.3,8.4,24.8,94,149.0,34.8,0.0,146.0,117.0,3.6,0,5,10,0,2026-05-16T17:24:29.883678+05:30
Ajmer,Rajasthan,26.4499,74.6399,37.6,19,0.0,950.3,8.4,34.2,76,103.4,26.0,0.0,143.0,122.0,2.0,0,5,10,0,2026-05-16T17:24:29.883684+05:30
Gwalior,Madhya Pradesh,26.2183,78.1828,39.7,16,0.0,977.3,8.25,38.2,109,115.0,31.3,0.0,172.0,130.0,4.0,0,5,10,0,2026-05-16T17:24:29.883690+05:30
Indore,Madhya Pradesh,22.7196,75.8577,38.0,17,0.0,943.6,8.7,37.4,54,23.5,11.6,1.2,175.0,124.0,2.3,0,5,10,0,2026-05-16T17:24:29.883695+05:30
Bhopal,Madhya Pradesh,23.2599,77.4126,39.7,14,0.0,948.3,8.7,39.6,71,32.1,13.2,0.4,179.0,126.0,3.2,0,5,10,0,2026-05-16T17:24:29.883700+05:30
Jabalpur,Madhya Pradesh,23.1815,79.9864,39.0,19,0.0,955.9,8.85,34.2,120,56.5,25.9,1.2,173.0,139.0,4.1,0,5,10,0,2026-05-16T17:24:29.883705+05:30
Ujjain,Madhya Pradesh,23.1765,75.7885,38.5,14,0.0,948.9,8.65,38.5,48,25.5,11.6,0.6,139.0,119.0,2.0,0,5,10,0,2026-05-16T17:24:29.883711+05:30
Visakhapatnam,Andhra Pradesh,17.6868,83.2185,31.8,70,0.0,998.6,9.15,40.0,64,15.5,11.5,11.9,274.0,67.0,30.7,3,5,7,1,2026-05-16T17:24:29.883717+05:30
Vijayawada,Andhra Pradesh,16.5062,80.648,35.9,47,0.0,996.1,8.85,33.5,60,17.4,11.9,3.0,175.0,94.0,5.6,0,5,10,1,2026-05-16T17:24:29.883722+05:30
Guntur,Andhra Pradesh,16.3067,80.4365,35.0,54,0.0,997.3,8.9,33.1,65,20.8,12.8,2.2,255.0,94.0,3.0,0,5,7,1,2026-05-16T17:24:29.883727+05:30
Nellore,Andhra Pradesh,14.4426,79.9865,32.8,63,0.0,999.5,7.65,35.6,39,14.1,9.6,2.1,137.0,109.0,5.5,3,5,7,1,2026-05-16T17:24:29.883734+05:30
Kurnool,Andhra Pradesh,15.8281,78.0373,34.3,49,0.1,971.1,8.25,34.9,137,82.2,44.5,1.4,214.0,137.0,5.6,3,5,7,1,2026-05-16T17:24:29.883740+05:30
Kakinada,Andhra Pradesh,16.9891,82.2475,33.0,64,0.0,1001.9,9.15,37.8,35,12.7,8.2,1.3,159.0,76.0,1.1,3,5,4,1,2026-05-16T17:24:29.883746+05:30
Tirupati,Andhra Pradesh,13.6288,79.4192,35.0,42,0.0,984.4,9.25,32.0,49,18.9,12.2,3.1,163.0,133.0,8.4,0,5,7,1,2026-05-16T17:24:29.883751+05:30
Warangal,Telangana,17.9689,79.5941,36.9,41,0.0,972.5,9.1,33.8,125,56.8,36.7,2.2,218.0,126.0,6.2,0,5,10,1,2026-05-16T17:24:29.883756+05:30
Nizamabad,Telangana,18.6725,78.0941,38.9,20,0.0,958.5,9.0,30.6,107,29.5,15.2,0.0,163.0,148.0,4.3,0,5,10,0,2026-05-16T17:24:29.883761+05:30
Mysore,Karnataka,12.2958,76.6396,27.0,64,0.0,923.9,8.0,33.8,107,82.0,48.8,7.0,313.0,139.0,6.1,7,5,7,1,2026-05-16T17:24:29.883766+05:30
Mangalore,Karnataka,12.9141,74.856,27.4,94,0.4,1001.8,7.7,35.6,61,26.1,17.1,1.7,224.0,77.0,1.4,10,5,4,1,2026-05-16T17:24:29.883772+05:30
Hubli-Dharwad,Karnataka,15.3647,75.124,29.4,62,0.1,935.6,8.2,42.8,102,36.1,23.6,3.3,229.0,160.0,4.6,10,5,7,1,2026-05-16T17:24:29.883777+05:30
Belgaum,Karnataka,15.8497,74.4977,30.4,52,0.0,921.3,9.2,45.0,85,35.6,21.2,2.7,178.0,138.0,4.6,0,5,7,1,2026-05-16T17:24:33.249167+05:30
Coimbatore,Tamil Nadu,11.0168,76.9558,30.2,58,0.0,956.4,9.05,40.7,90,69.4,35.5,3.5,280.0,130.0,5.0,0,5,7,1,2026-05-16T17:24:33.249199+05:30
Madurai,Tamil Nadu,9.9252,78.1198,32.7,49,0.0,986.9,8.75,33.5,95,41.3,21.3,12.8,293.0,111.0,3.9,0,5,7,1,2026-05-16T17:24:33.249208+05:30
Trichy,Tamil Nadu,10.7905,78.7047,31.4,68,0.0,993.4,2.7,27.4,90,39.8,23.3,8.1,306.0,121.0,5.1,3,5,3,1,2026-05-16T17:24:33.249215+05:30
Salem,Tamil Nadu,11.6643,78.146,32.7,49,0.0,971.0,8.95,27.0,134,76.6,42.0,9.8,350.0,146.0,22.1,0,5,7,1,2026-05-16T17:24:33.249221+05:30
Tirunelveli,Tamil Nadu,8.7139,77.7567,32.8,50,0.0,996.8,8.3,31.3,58,24.0,13.6,3.6,269.0,110.0,1.3,0,5,7,1,2026-05-16T17:24:33.249228+05:30
Vellore,Tamil Nadu,12.9165,79.1325,33.6,46,0.0,978.0,9.25,35.6,86,26.1,13.0,4.0,201.0,103.0,4.3,0,5,7,1,2026-05-16T17:24:33.249234+05:30
Erode,Tamil Nadu,11.341,77.7172,33.8,43,0.0,982.5,6.85,24.5,104,79.4,40.9,5.4,346.0,145.0,5.4,0,5,7,1,2026-05-16T17:24:33.249240+05:30
Kochi,Kerala,9.9312,76.2673,26.9,89,0.3,1003.9,7.3,31.3,66,25.6,16.5,6.2,242.0,112.0,4.6,10,5,4,1,2026-05-16T17:24:33.249247+05:30
Thiruvananthapuram,Kerala,8.5241,76.9366,26.8,85,0.1,1003.2,7.25,32.0,52,14.3,7.9,1.9,213.0,104.0,0.8,10,5,4,1,2026-05-16T17:24:33.249253+05:30
Kozhikode,Kerala,11.2588,75.7804,27.6,84,0.1,1002.9,8.3,44.3,65,15.9,10.6,1.5,193.0,109.0,1.7,10,5,4,1,2026-05-16T17:24:33.249258+05:30
Thrissur,Kerala,10.5276,76.2144,27.6,81,0.0,1002.0,8.7,37.1,71,33.3,21.0,6.5,217.0,113.0,3.4,7,5,4,1,2026-05-16T17:24:33.249265+05:30
Kannur,Kerala,11.8745,75.3704,25.5,97,0.0,1002.6,8.7,36.4,67,20.7,15.0,3.1,184.0,92.0,1.6,7,5,4,1,2026-05-16T17:24:33.249272+05:30
Patna,Bihar,25.5941,85.1376,35.5,48,0.0,993.2,8.8,22.7,161,95.7,46.6,8.1,401.0,152.0,8.7,0,5,10,1,2026-05-16T17:24:33.249277+05:30
Gaya,Bihar,24.7914,85.0002,36.7,38,0.0,986.5,8.85,29.2,155,102.0,36.4,3.5,303.0,138.0,6.2,0,5,10,1,2026-05-16T17:24:33.249283+05:30
Muzaffarpur,Bihar,26.1209,85.3647,33.5,63,0.0,993.5,8.8,33.5,159,83.1,51.2,11.5,438.0,146.0,10.0,3,5,7,1,2026-05-16T17:24:33.249288+05:30
Bhagalpur,Bihar,25.2425,87.0117,32.8,61,0.0,994.2,8.8,29.9,172,76.6,52.7,6.7,354.0,187.0,18.6,3,5,7,1,2026-05-16T17:24:33.249293+05:30
Ranchi,Jharkhand,23.3441,85.3096,32.1,38,0.0,933.0,9.3,32.8,146,57.0,26.4,3.8,300.0,126.0,7.0,0,5,7,1,2026-05-16T17:24:33.249299+05:30
Jamshedpur,Jharkhand,22.8046,86.2029,35.4,41,0.0,983.8,9.15,27.0,155,80.1,50.8,10.7,331.0,155.0,18.4,0,5,10,1,2026-05-16T17:24:33.249304+05:30
Dhanbad,Jharkhand,23.7957,86.4304,35.5,46,0.0,973.0,9.05,25.9,170,77.1,41.0,22.0,350.0,127.0,70.9,0,5,10,1,2026-05-16T17:24:33.249310+05:30
Bokaro,Jharkhand,23.6693,86.1511,34.7,55,0.0,976.8,9.1,25.9,164,77.5,38.2,16.8,357.0,131.0,74.9,0,5,7,1,2026-05-16T17:24:33.249315+05:30
Bhubaneswar,Odisha,20.2961,85.8245,31.8,68,0.0,997.0,9.2,47.2,46,19.7,9.9,2.8,169.0,62.0,2.2,3,5,7,1,2026-05-16T17:24:33.249321+05:30
Cuttack,Odisha,20.4625,85.8828,32.4,65,0.0,998.6,9.25,45.4,46,19.7,9.9,2.8,184.0,62.0,2.2,3,5,7,1,2026-05-16T17:24:33.249326+05:30
Rourkela,Odisha,22.2604,84.8536,34.2,48,0.0,978.8,8.55,38.2,157,77.5,50.5,7.3,352.0,169.0,13.3,0,5,7,1,2026-05-16T17:24:33.249331+05:30
Raipur,Chhattisgarh,21.2514,81.6296,39.5,26,0.0,968.4,9.05,30.2,162,105.9,69.6,9.6,286.0,195.0,36.9,0,5,10,1,2026-05-16T17:24:33.249337+05:30
Bhilai,Chhattisgarh,21.1938,81.3509,38.7,29,0.0,968.7,9.05,28.4,157,97.8,61.7,10.1,564.0,168.0,35.5,0,5,10,1,2026-05-16T17:24:33.249342+05:30
Guwahati,Assam,26.1158,91.7086,24.5,95,0.0,996.4,6.9,26.3,78,18.9,14.3,2.8,322.0,114.0,3.2,3,5,7,1,2026-05-16T17:24:33.249348+05:30
Agartala,Tripura,23.8315,91.2868,30.4,84,0.0,1000.2,6.8,28.4,70,32.1,22.4,7.7,196.0,104.0,3.5,3,5,4,1,2026-05-16T17:24:33.249354+05:30
Shillong,Meghalaya,25.5788,91.8933,21.6,74,0.0,853.6,8.1,40.3,62,20.4,13.8,2.8,275.0,113.0,3.6,3,5,7,1,2026-05-16T17:24:33.249358+05:30
Imphal,Manipur,24.817,93.9368,25.2,71,0.0,919.1,8.75,32.4,83,24.8,13.7,1.8,215.0,92.0,2.5,7,5,7,1,2026-05-16T17:24:33.249364+05:30
Aizawl,Mizoram,23.7271,92.7176,22.5,90,0.1,888.7,9.15,31.3,57,31.8,16.5,2.7,166.0,92.0,2.8,6,5,7,1,2026-05-16T17:24:33.249370+05:30
Kohima,Nagaland,25.6701,94.1077,19.9,98,0.1,851.8,9.2,26.3,57,25.9,14.1,3.3,221.0,86.0,2.2,6,10,7,1,2026-05-16T17:24:33.249376+05:30
Gangtok,Sikkim,27.3314,88.6138,17.3,95,0.0,833.1,9.1,36.0,99,12.3,10.2,4.6,316.0,121.0,1.5,3,10,7,1,2026-05-16T17:24:33.249381+05:30
Siliguri,West Bengal,26.7271,88.3953,26.4,83,0.0,987.0,8.65,23.8,116,27.5,20.1,5.2,546.0,131.0,3.8,7,5,7,1,2026-05-16T17:24:36.614723+05:30
Durgapur,West Bengal,23.5204,87.3119,35.2,53,0.0,987.8,9.05,33.8,195,118.7,78.0,24.8,646.0,185.0,44.0,0,5,10,1,2026-05-16T17:24:36.614756+05:30
Asansol,West Bengal,23.6739,86.9524,35.9,42,0.0,986.2,9.05,31.7,180,91.7,56.7,21.8,564.0,147.0,27.9,0,5,10,1,2026-05-16T17:24:36.614765+05:30
Pondicherry,Puducherry,11.9139,79.8145,29.4,79,0.0,1002.3,9.05,41.8,74,13.0,10.3,2.7,234.0,111.0,4.7,7,5,4,1,2026-05-16T17:24:36.614772+05:30
Port Blair,Andaman and Nicobar Islands,11.6234,92.7265,29.0,79,0.0,1003.7,5.6,41.0,27,10.4,6.4,0.6,132.0,57.0,0.2,7,5,0,1,2026-05-16T17:24:36.614779+05:30
Haridwar,Uttarakhand,29.9457,78.1642,34.0,34,0.0,968.7,7.5,32.4,135,58.9,31.1,2.6,228.0,160.0,9.9,0,5,7,0,2026-05-16T17:24:36.614786+05:30
Rishikesh,Uttarakhand,30.0869,78.2676,33.3,39,0.0,961.7,7.6,28.1,106,40.5,24.1,0.7,201.0,158.0,6.6,0,5,7,1,2026-05-16T17:24:36.614792+05:30
Nainital,Uttarakhand,29.3919,79.4542,21.5,38,0.0,804.9,8.45,47.2,123,49.5,24.4,1.5,199.0,146.0,5.8,0,5,7,0,2026-05-16T17:24:36.614798+05:30
Mussoorie,Uttarakhand,30.4599,78.0664,20.2,51,0.0,802.6,8.0,46.8,120,45.8,27.4,1.4,180.0,160.0,7.3,0,5,7,0,2026-05-16T17:24:36.614804+05:30
Dharamshala,Himachal Pradesh,32.219,76.3234,24.5,44,0.0,867.8,8.35,35.6,83,31.2,12.4,0.0,176.0,131.0,0.9,0,5,7,0,2026-05-16T17:24:36.614810+05:30
Dalhousie,Himachal Pradesh,32.5387,75.971,20.4,45,0.0,804.9,8.6,40.3,103,39.0,16.9,0.3,149.0,150.0,1.7,0,5,7,0,2026-05-16T17:24:36.614816+05:30
Patiala,Punjab,30.3398,76.3869,36.2,23,0.0,973.5,7.6,43.9,243,735.7,88.9,1.5,227.0,142.0,4.5,0,5,10,0,2026-05-16T17:24:36.614822+05:30
Bhatinda,Punjab,30.211,74.9455,37.7,23,0.0,978.8,8.25,29.9,108,82.4,27.2,1.6,242.0,136.0,6.6,0,5,10,0,2026-05-16T17:24:36.614828+05:30
Rohtak,Haryana,28.8955,76.6066,37.3,24,0.0,976.7,7.75,34.9,549,907.1,113.6,4.1,257.0,124.0,4.6,0,5,10,0,2026-05-16T17:24:36.614834+05:30
Panipat,Haryana,29.3909,76.9635,36.8,24,0.0,975.2,7.55,37.8,1003,2138.3,236.6,3.5,223.0,122.0,7.0,0,5,10,0,2026-05-16T17:24:36.614839+05:30
Mathura,Uttar Pradesh,27.4924,77.6737,38.5,21,0.0,981.1,8.0,34.2,467,564.4,78.9,4.0,248.0,131.0,4.2,0,5,10,0,2026-05-16T17:24:36.614845+05:30
Vrindavan,Uttar Pradesh,27.5823,77.7027,38.0,23,0.0,981.5,7.95,33.1,467,564.4,78.9,4.0,270.0,131.0,4.2,0,5,10,0,2026-05-16T17:24:36.614850+05:30
Ayodhya,Uttar Pradesh,26.7922,82.1998,36.3,35,0.0,988.2,8.35,31.3,159,169.0,53.0,2.3,290.0,157.0,11.9,0,5,10,1,2026-05-16T17:24:36.614856+05:30
Ratlam,Madhya Pradesh,23.3315,75.0367,36.8,23,0.0,950.4,8.55,33.5,49,30.3,12.8,0.4,131.0,114.0,1.8,0,5,10,0,2026-05-16T17:24:36.614862+05:30
Sagar,Madhya Pradesh,23.8388,78.7378,39.0,15,0.0,945.1,8.75,34.9,95,36.3,15.5,0.2,178.0,133.0,3.5,0,5,10,0,2026-05-16T17:24:36.614867+05:30
Satna,Madhya Pradesh,24.6005,80.8322,38.6,21,0.0,965.7,8.75,34.9,121,71.5,30.0,0.6,190.0,131.0,5.3,0,5,10,0,2026-05-16T17:24:36.614872+05:30
Akola,Maharashtra,20.7002,77.0082,41.5,16,0.0,968.4,8.15,42.1,86,23.2,12.9,1.5,165.0,136.0,5.1,0,5,10,0,2026-05-16T17:24:36.614878+05:30
Amravati,Maharashtra,20.9374,77.7796,42.5,12,0.0,960.2,8.9,36.7,93,26.1,12.7,1.1,163.0,141.0,6.6,0,5,10,0,2026-05-16T17:24:36.614885+05:30
Latur,Maharashtra,18.4088,76.5604,38.7,18,0.0,934.7,8.7,38.2,104,24.7,15.3,1.0,161.0,154.0,6.6,0,5,10,0,2026-05-16T17:24:36.614890+05:30
Nanded,Maharashtra,19.1383,77.3091,40.2,16,0.0,962.1,8.4,30.6,116,26.8,14.1,0.0,141.0,146.0,4.6,0,5,10,0,2026-05-16T17:24:36.614895+05:30
Gulbarga,Karnataka,17.3297,76.8343,38.9,19,0.0,952.9,8.2,37.4,117,24.7,15.2,1.3,173.0,156.0,5.6,0,5,10,0,2026-05-16T17:24:36.614900+05:30
Bidar,Karnataka,17.9104,77.5199,37.1,22,0.0,930.8,9.1,31.7,113,23.9,15.0,0.0,186.0,155.0,5.0,0,5,10,0,2026-05-16T17:24:36.614905+05:30
Hospet,Karnataka,15.2689,76.3909,32.2,47,0.1,950.4,8.0,38.2,139,68.9,44.8,7.7,273.0,175.0,15.5,3,5,7,1,2026-05-16T17:24:36.614910+05:30
Tirupur,Tamil Nadu,11.1085,77.3411,33.0,46,0.0,969.2,6.85,34.2,102,80.6,40.9,4.4,277.0,143.0,5.7,0,5,7,1,2026-05-16T17:24:36.614914+05:30
Alappuzha,Kerala,9.4981,76.3388,25.8,95,0.3,1004.2,8.55,30.6,60,18.7,11.6,3.8,164.0,111.0,2.7,10,5,4,1,2026-05-16T17:24:36.614919+05:30
Munnar,Kerala,10.0889,77.0595,19.4,92,0.0,853.0,4.6,28.8,64,51.5,25.4,7.4,200.0,89.0,2.2,3,10,3,1,2026-05-16T17:24:36.614925+05:30
Silchar,Assam,24.8333,92.7789,28.8,79,0.0,999.7,8.75,31.0,73,24.8,13.8,3.4,237.0,94.0,3.7,7,5,7,1,2026-05-16T17:24:36.614929+05:30
Dibrugarh,Assam,27.4728,94.912,27.5,73,0.0,990.5,8.9,24.1,93,22.2,16.0,4.4,244.0,105.0,2.0,7,5,7,1,2026-05-16T17:24:36.614934+05:30
