city,state,latitude,longitude,temp,humidity,rain,pressure,uv_index,wind_gusts,aqi,pm10,pm2_5,no2,co,o3,so2,mosquito_risk,arthritis_risk,migraine_risk,frizz_risk,updated_at
Delhi,Delhi,28.6139,77.209,40.0,26,0.0,978.2,7.75,40.7,164,361.4,88.5,5.7,269.0,205.0,28.8,0,5,10,1,2026-06-06T13:17:35.756574+05:30
Mumbai,Maharashtra,19.076,72.8777,34.3,57,0.0,1005.6,6.6,39.2,75,64.0,31.5,4.6,180.0,116.0,8.9,0,5,4,1,2026-06-06T13:17:35.756616+05:30
Bangalore,Karnataka,12.9716,77.5946,29.2,51,0.1,910.8,8.4,43.9,21,2.4,2.3,2.2,225.0,77.0,2.5,7,5,7,1,2026-06-06T13:17:35.756631+05:30
Hyderabad,Telangana,17.385,78.4867,36.2,34,0.0,950.4,9.0,37.8,92,46.9,26.2,1.5,214.0,142.0,5.7,0,5,10,1,2026-06-06T13:17:35.756641+05:30
Chennai,Tamil Nadu,13.0827,80.2707,38.9,34,0.0,1002.6,8.7,45.7,60,18.6,14.3,3.9,188.0,128.0,8.0,0,5,7,1,2026-06-06T13:17:35.756649+05:30
Kolkata,West Bengal,22.5726,88.3639,35.7,60,0.0,999.1,9.0,45.7,126,32.6,31.5,10.0,532.0,118.0,12.7,0,5,10,1,2026-06-06T13:17:35.756658+05:30
Pune,Maharashtra,18.5204,73.8567,36.4,30,0.0,946.1,8.35,50.4,52,41.4,18.2,1.4,135.0,104.0,4.5,0,5,10,1,2026-06-06T13:17:35.756664+05:30
Ahmedabad,Gujarat,23.0225,72.5714,39.5,35,0.0,997.8,8.1,36.4,92,85.4,34.0,1.5,141.0,97.0,5.7,0,5,10,1,2026-06-06T13:17:35.756671+05:30
Jaipur,Rajasthan,26.9124,75.7873,39.0,26,0.0,956.4,8.25,34.2,108,177.4,41.3,0.4,133.0,110.0,2.8,0,5,10,1,2026-06-06T13:17:35.756683+05:30
Lucknow,Uttar Pradesh,26.8467,80.9462,37.3,37,0.0,988.6,8.3,25.9,155,143.0,44.8,0.8,324.0,153.0,8.0,0,5,10,1,2026-06-06T13:17:35.756690+05:30
Kanpur,Uttar Pradesh,26.4499,80.3319,38.4,31,0.0,986.7,8.3,37.1,164,232.4,60.1,1.0,297.0,158.0,8.9,0,5,10,1,2026-06-06T13:17:35.756696+05:30
Chandigarh,Chandigarh,30.7333,76.7794,36.0,30,0.0,964.7,7.8,32.4,131,68.5,27.0,1.8,334.0,196.0,15.5,0,5,10,0,2026-06-06T13:17:35.756703+05:30
Srinagar,Jammu and Kashmir,34.0837,74.7973,23.6,49,0.0,842.9,9.0,22.0,77,23.2,13.8,1.0,269.0,147.0,2.2,0,5,7,0,2026-06-06T13:17:35.756711+05:30
Jammu,Jammu and Kashmir,32.7266,74.857,36.8,22,0.0,968.8,8.6,30.2,87,24.8,14.6,0.9,260.0,160.0,2.6,0,5,10,0,2026-06-06T13:17:35.756717+05:30
Amritsar,Punjab,31.634,74.8723,38.6,23,0.0,976.4,8.45,25.2,138,38.0,21.5,0.4,295.0,181.0,6.1,0,5,10,0,2026-06-06T13:17:35.756724+05:30
Ludhiana,Punjab,30.901,75.8573,37.7,27,0.0,974.4,8.05,28.4,158,138.3,40.2,0.8,264.0,173.0,7.7,0,5,10,0,2026-06-06T13:17:35.756731+05:30
Jalandhar,Punjab,31.326,75.5762,38.4,24,0.0,975.3,8.25,21.2,152,82.4,31.3,0.7,287.0,184.0,6.7,0,5,10,0,2026-06-06T13:17:35.756738+05:30
Dehradun,Uttarakhand,30.6284,78.0322,24.2,46,0.1,831.0,8.2,33.8,65,31.1,15.9,0.7,197.0,158.0,3.3,3,5,7,0,2026-06-06T13:17:35.756744+05:30
Shimla,Himachal Pradesh,31.1048,77.1734,24.0,24,0.0,787.0,8.3,42.8,87,16.8,10.1,0.7,165.0,153.0,4.5,0,5,7,0,2026-06-06T13:17:35.756753+05:30
Manali,Himachal Pradesh,32.2396,77.1887,23.2,35,0.0,819.8,9.9,36.7,82,12.6,8.2,1.3,138.0,169.0,0.4,0,5,7,0,2026-06-06T13:17:35.756759+05:30
Gurgaon,Haryana,28.4595,77.0266,38.2,28,0.0,977.3,7.85,34.2,293,666.8,109.9,3.6,216.0,170.0,13.8,0,5,10,1,2026-06-06T13:17:35.756787+05:30
Noida,Uttar Pradesh,28.5355,77.391,38.7,32,0.0,979.7,7.8,33.5,293,666.8,109.9,3.6,294.0,170.0,13.8,0,5,10,1,2026-06-06T13:17:35.756797+05:30
Ghaziabad,Uttar Pradesh,28.6692,77.4538,37.5,34,0.0,978.1,7.75,29.2,166,350.2,86.1,4.2,361.0,220.0,32.1,0,5,10,1,2026-06-06T13:17:35.756804+05:30
Faridabad,Haryana,28.4089,77.3178,39.2,29,0.0,979.0,7.8,27.4,293,666.8,109.9,3.6,227.0,170.0,13.8,0,5,10,1,2026-06-06T13:17:35.756810+05:30
Meerut,Uttar Pradesh,28.9845,77.7064,36.4,39,0.0,977.2,7.7,27.7,166,350.2,86.1,4.2,375.0,220.0,32.1,0,5,10,1,2026-06-06T13:17:35.756816+05:30
Agra,Uttar Pradesh,27.1767,78.0081,38.4,32,0.0,983.2,8.1,28.1,457,607.2,91.5,0.8,206.0,159.0,8.2,0,5,10,1,2026-06-06T13:17:35.756822+05:30
Varanasi,Uttar Pradesh,25.3176,82.9739,39.1,32,0.0,992.0,8.8,32.0,154,110.4,55.3,1.2,346.0,178.0,7.7,0,5,10,1,2026-06-06T13:17:35.756829+05:30
Prayagraj,Uttar Pradesh,25.4358,81.8463,36.3,38,0.1,991.3,8.7,36.7,151,100.6,47.7,1.4,268.0,170.0,7.0,3,5,10,1,2026-06-06T13:17:35.756836+05:30
Gorakhpur,Uttar Pradesh,26.7606,83.3732,35.9,44,0.0,992.1,8.7,36.7,164,110.4,77.5,1.3,377.0,194.0,7.9,0,5,10,1,2026-06-06T13:17:35.756844+05:30
Bareilly,Uttar Pradesh,28.367,79.4304,35.9,44,0.0,981.9,8.1,22.0,152,71.5,44.2,1.2,319.0,176.0,6.8,0,5,10,1,2026-06-06T13:17:35.756850+05:30
Aligarh,Uttar Pradesh,27.8974,78.088,37.1,37,0.0,981.1,7.95,23.8,197,400.5,81.3,1.5,295.0,180.0,17.2,0,5,10,1,2026-06-06T13:17:35.756857+05:30
Moradabad,Uttar Pradesh,28.8386,78.7733,36.4,36,0.0,979.1,7.9,25.9,157,100.8,51.1,2.4,340.0,216.0,19.6,0,5,10,1,2026-06-06T13:17:35.756863+05:30
Saharanpur,Uttar Pradesh,29.9637,77.546,34.9,45,0.0,971.5,7.5,26.6,153,109.9,40.4,2.1,363.0,210.0,19.8,0,5,7,1,2026-06-06T13:17:35.756870+05:30
Jhansi,Uttar Pradesh,25.4484,78.5685,37.5,33,0.0,974.2,8.45,32.4,85,192.8,46.8,0.7,163.0,130.0,6.3,0,5,10,1,2026-06-06T13:17:39.118929+05:30
Surat,Gujarat,21.1702,72.8311,35.7,50,0.0,1003.4,7.6,45.0,87,63.6,29.7,8.4,228.0,66.0,29.6,0,5,7,1,2026-06-06T13:17:39.118961+05:30
Vadodara,Gujarat,22.3072,73.1812,38.7,36,0.0,1000.4,8.0,40.0,84,80.1,33.4,1.4,132.0,97.0,3.9,0,5,7,1,2026-06-06T13:17:39.118972+05:30
Rajkot,Gujarat,22.3039,70.8022,39.5,35,0.0,990.2,7.55,43.2,83,117.8,33.8,0.8,111.0,87.0,2.5,0,5,10,1,2026-06-06T13:17:39.118981+05:30
Thane,Maharashtra,19.2183,72.9781,37.1,44,0.0,1004.4,7.45,40.7,75,64.0,31.5,4.6,186.0,116.0,8.9,0,5,7,1,2026-06-06T13:17:39.118989+05:30
Nagpur,Maharashtra,21.1458,79.0882,38.7,28,0.0,969.3,8.65,43.9,77,45.5,21.0,2.6,155.0,138.0,11.5,0,5,10,1,2026-06-06T13:17:39.118997+05:30
Nashik,Maharashtra,19.9975,73.7898,35.3,35,0.0,943.7,8.05,42.1,62,49.0,22.6,1.1,129.0,102.0,4.0,0,5,10,1,2026-06-06T13:17:39.119005+05:30
Aurangabad,Maharashtra,19.8762,75.3433,37.5,26,0.0,942.0,8.95,41.0,64,60.8,25.0,0.7,128.0,106.0,3.5,0,5,10,0,2026-06-06T13:17:39.119012+05:30
Solapur,Maharashtra,17.6599,75.9064,35.5,38,0.0,955.1,8.95,57.2,70,31.9,17.2,1.1,129.0,111.0,3.5,0,5,10,1,2026-06-06T13:17:39.119020+05:30
Kolhapur,Maharashtra,16.705,74.2433,33.9,48,0.0,946.3,8.05,41.8,36,25.6,12.8,1.3,129.0,88.0,1.4,0,5,7,1,2026-06-06T13:17:39.119028+05:30
Goa,Goa,15.2993,74.124,30.0,74,0.1,997.2,6.75,29.5,34,9.1,4.4,0.6,129.0,67.0,0.7,10,5,7,1,2026-06-06T13:17:39.119036+05:30
Jodhpur,Rajasthan,26.2389,73.0243,39.6,34,0.0,978.7,8.45,34.9,128,242.1,53.0,0.5,120.0,94.0,3.2,0,5,10,1,2026-06-06T13:17:39.119043+05:30
Udaipur,Rajasthan,24.5854,73.7125,35.9,37,0.0,944.2,8.8,32.4,95,87.1,30.5,0.4,118.0,92.0,2.7,0,5,10,1,2026-06-06T13:17:39.119050+05:30
Kota,Rajasthan,25.2138,75.8648,38.8,32,0.0,975.0,8.4,28.1,76,76.6,30.9,0.6,140.0,119.0,4.5,0,5,10,1,2026-06-06T13:17:39.119058+05:30
Bikaner,Rajasthan,28.0229,73.3119,40.6,27,0.0,976.8,8.5,41.0,112,227.7,54.5,0.3,135.0,95.0,2.8,0,5,10,1,2026-06-06T13:17:39.119065+05:30
Ajmer,Rajasthan,26.4499,74.6399,36.0,38,0.0,951.8,8.35,36.0,96,106.6,32.5,0.4,123.0,104.0,2.4,0,5,10,1,2026-06-06T13:17:39.119072+05:30
Gwalior,Madhya Pradesh,26.2183,78.1828,38.0,34,0.0,979.2,8.25,32.4,231,140.6,36.3,0.4,159.0,124.0,3.2,0,5,10,1,2026-06-06T13:17:39.119079+05:30
Indore,Madhya Pradesh,22.7196,75.8577,35.1,46,0.0,946.0,8.65,34.9,89,71.7,32.1,0.9,169.0,113.0,6.1,0,5,10,1,2026-06-06T13:17:39.119087+05:30
Bhopal,Madhya Pradesh,23.2599,77.4126,37.4,35,0.0,950.8,8.7,38.2,86,56.9,24.7,0.6,175.0,117.0,4.6,0,5,10,1,2026-06-06T13:17:39.119094+05:30
Jabalpur,Madhya Pradesh,23.1815,79.9864,36.7,32,0.0,957.8,8.35,36.4,84,94.8,27.6,0.5,155.0,122.0,3.7,0,5,10,1,2026-06-06T13:17:39.119101+05:30
Ujjain,Madhya Pradesh,23.1765,75.7885,35.7,43,0.0,951.4,8.6,32.8,88,73.1,33.5,0.7,148.0,108.0,6.8,0,5,10,1,2026-06-06T13:17:39.119108+05:30
Visakhapatnam,Andhra Pradesh,17.6868,83.2185,37.8,48,0.0,996.8,8.9,41.8,100,47.0,34.5,4.6,331.0,179.0,24.3,0,5,10,1,2026-06-06T13:17:39.119116+05:30
Vijayawada,Andhra Pradesh,16.5062,80.648,38.6,38,0.0,996.9,8.8,47.2,70,49.8,31.8,1.3,197.0,149.0,6.9,0,5,10,1,2026-06-06T13:17:39.119123+05:30
Guntur,Andhra Pradesh,16.3067,80.4365,38.4,38,0.0,998.1,9.05,44.3,67,52.2,32.5,1.1,206.0,147.0,5.5,0,5,10,1,2026-06-06T13:17:39.119131+05:30
Nellore,Andhra Pradesh,14.4426,79.9865,36.8,44,0.0,1001.0,8.95,41.4,43,17.2,12.3,1.8,144.0,122.0,6.4,0,5,7,1,2026-06-06T13:17:39.119139+05:30
Kurnool,Andhra Pradesh,15.8281,78.0373,34.5,49,0.0,973.9,8.8,35.3,41,25.4,16.6,1.5,168.0,126.0,7.1,0,5,7,1,2026-06-06T13:17:39.119147+05:30
Kakinada,Andhra Pradesh,16.9891,82.2475,37.7,46,0.0,1001.1,9.0,52.9,72,33.6,23.2,1.7,254.0,135.0,4.3,0,5,7,1,2026-06-06T13:17:39.119155+05:30
Tirupati,Andhra Pradesh,13.6288,79.4192,36.9,39,0.0,986.8,8.6,37.8,47,7.9,5.1,0.5,126.0,93.0,1.2,0,5,10,1,2026-06-06T13:17:39.119162+05:30
Warangal,Telangana,17.9689,79.5941,37.3,34,0.0,974.4,9.05,44.6,103,50.9,26.4,1.1,173.0,135.0,6.3,0,5,10,1,2026-06-06T13:17:39.119169+05:30
Nizamabad,Telangana,18.6725,78.0941,37.2,33,0.0,961.6,9.05,42.5,97,46.3,24.5,0.7,147.0,123.0,5.1,0,5,10,1,2026-06-06T13:17:39.119175+05:30
Mysore,Karnataka,12.2958,76.6396,23.1,90,0.2,927.9,7.75,49.7,21,2.2,2.2,1.8,154.0,71.0,1.5,6,5,7,1,2026-06-06T13:17:39.119183+05:30
Mangalore,Karnataka,12.9141,74.856,26.7,86,0.0,1006.5,1.45,27.7,26,5.0,4.3,6.0,200.0,49.0,1.4,7,5,0,1,2026-06-06T13:17:39.119190+05:30
Hubli-Dharwad,Karnataka,15.3647,75.124,25.9,84,0.2,939.8,8.7,39.6,23,7.9,4.3,2.2,131.0,68.0,0.8,10,5,7,1,2026-06-06T13:17:39.119197+05:30
Belgaum,Karnataka,15.8497,74.4977,23.8,87,0.3,924.8,8.95,38.9,26,15.6,7.5,1.5,118.0,77.0,1.7,6,5,7,1,2026-06-06T13:17:42.537729+05:30
Coimbatore,Tamil Nadu,11.0168,76.9558,24.3,94,0.2,961.3,8.75,41.8,19,1.9,1.7,3.4,132.0,50.0,1.5,6,5,7,1,2026-06-06T13:17:42.537760+05:30
Madurai,Tamil Nadu,9.9252,78.1198,37.3,33,0.0,990.9,8.7,67.0,26,9.1,5.0,1.3,103.0,87.0,1.7,0,5,10,1,2026-06-06T13:17:42.537807+05:30
Trichy,Tamil Nadu,10.7905,78.7047,33.7,53,0.0,997.7,8.8,52.6,25,10.9,6.5,1.2,125.0,91.0,2.2,0,5,7,1,2026-06-06T13:17:42.537825+05:30
Salem,Tamil Nadu,11.6643,78.146,31.2,57,0.0,976.4,8.8,57.2,38,8.9,6.6,2.1,142.0,103.0,5.6,0,5,7,1,2026-06-06T13:17:42.537839+05:30
Tirunelveli,Tamil Nadu,8.7139,77.7567,36.5,40,0.0,1002.1,8.45,47.5,19,4.5,2.6,0.8,108.0,58.0,0.6,0,5,7,1,2026-06-06T13:17:42.537851+05:30
Vellore,Tamil Nadu,12.9165,79.1325,37.1,36,0.0,980.8,9.0,47.2,35,4.3,3.6,1.1,136.0,90.0,1.9,0,5,10,1,2026-06-06T13:17:42.537863+05:30
Erode,Tamil Nadu,11.341,77.7172,28.3,73,0.1,988.1,8.8,60.5,27,3.3,2.6,1.3,123.0,78.0,1.7,10,5,7,1,2026-06-06T13:17:42.537875+05:30
Kochi,Kerala,9.9312,76.2673,26.9,83,0.1,1010.1,7.9,40.3,50,10.7,6.0,3.1,104.0,48.0,1.8,10,0,4,1,2026-06-06T13:17:42.537888+05:30
Thiruvananthapuram,Kerala,8.5241,76.9366,27.3,84,0.2,1009.3,8.15,45.4,27,13.2,6.5,0.9,96.0,61.0,0.8,10,0,4,1,2026-06-06T13:17:42.537902+05:30
Kozhikode,Kerala,11.2588,75.7804,25.1,97,0.9,1009.1,1.0,27.0,26,10.6,4.8,0.7,112.0,58.0,0.4,10,0,0,1,2026-06-06T13:17:42.537910+05:30
Thrissur,Kerala,10.5276,76.2144,25.0,96,0.4,1008.4,6.8,25.2,48,9.1,5.8,4.2,141.0,43.0,1.6,10,0,4,1,2026-06-06T13:17:42.537918+05:30
Kannur,Kerala,11.8745,75.3704,25.7,96,0.4,1007.5,0.45,27.4,25,7.3,5.0,4.7,215.0,46.0,0.8,10,5,0,1,2026-06-06T13:17:42.537925+05:30
Patna,Bihar,25.5941,85.1376,35.4,53,0.0,995.1,8.9,27.4,167,70.3,61.7,2.7,364.0,217.0,20.8,0,5,10,1,2026-06-06T13:17:42.537932+05:30
Gaya,Bihar,24.7914,85.0002,36.6,45,0.0,988.4,8.95,34.2,154,80.1,62.9,1.6,280.0,205.0,16.3,0,5,10,1,2026-06-06T13:17:42.537939+05:30
Muzaffarpur,Bihar,26.1209,85.3647,34.5,60,0.0,995.2,8.9,39.6,167,63.8,56.3,2.5,370.0,213.0,19.2,0,5,7,1,2026-06-06T13:17:42.537946+05:30
Bhagalpur,Bihar,25.2425,87.0117,35.0,58,0.1,995.8,8.9,31.7,152,49.7,45.2,5.2,366.0,200.0,28.5,3,5,7,1,2026-06-06T13:17:42.537953+05:30
Ranchi,Jharkhand,23.3441,85.3096,30.0,62,0.1,934.1,9.3,33.1,123,77.1,48.7,1.2,220.0,190.0,13.8,10,5,7,1,2026-06-06T13:17:42.537959+05:30
Jamshedpur,Jharkhand,22.8046,86.2029,33.7,59,0.0,985.3,9.1,34.9,153,89.6,66.1,4.2,253.0,210.0,30.7,0,5,7,1,2026-06-06T13:17:42.537966+05:30
Dhanbad,Jharkhand,23.7957,86.4304,31.6,70,0.1,975.1,9.1,27.0,166,114.6,93.1,21.7,299.0,228.0,85.0,6,5,7,1,2026-06-06T13:17:42.537977+05:30
Bokaro,Jharkhand,23.6693,86.1511,29.6,79,0.3,979.0,8.45,30.6,157,97.3,72.2,19.6,260.0,200.0,69.6,10,5,7,1,2026-06-06T13:17:42.537989+05:30
Bhubaneswar,Odisha,20.2961,85.8245,34.2,66,0.3,996.1,9.05,19.4,153,44.6,37.1,2.2,267.0,188.0,8.6,6,5,7,1,2026-06-06T13:17:42.537996+05:30
Cuttack,Odisha,20.4625,85.8828,36.0,55,0.0,997.8,9.15,30.2,153,44.6,37.1,2.2,262.0,188.0,8.6,0,5,10,1,2026-06-06T13:17:42.538003+05:30
Rourkela,Odisha,22.2604,84.8536,35.2,48,0.0,979.4,7.4,24.5,153,100.4,63.8,1.6,325.0,189.0,17.2,0,5,10,1,2026-06-06T13:17:42.538010+05:30
Raipur,Chhattisgarh,21.2514,81.6296,40.2,23,0.0,969.1,8.95,34.9,133,70.5,31.8,3.1,164.0,145.0,19.4,0,5,10,0,2026-06-06T13:17:42.538017+05:30
Bhilai,Chhattisgarh,21.1938,81.3509,38.7,26,0.0,969.7,8.95,39.6,122,62.4,27.8,3.4,254.0,133.0,16.1,0,5,10,0,2026-06-06T13:17:42.538024+05:30
Guwahati,Assam,26.1158,91.7086,31.9,69,0.0,996.1,8.7,25.9,89,23.3,21.8,1.3,385.0,147.0,2.7,3,5,7,1,2026-06-06T13:17:42.538031+05:30
Agartala,Tripura,23.8315,91.2868,34.6,56,0.0,1000.0,8.8,24.8,155,54.2,43.3,2.7,216.0,172.0,3.3,0,5,4,1,2026-06-06T13:17:42.538038+05:30
Shillong,Meghalaya,25.5788,91.8933,25.5,57,0.1,855.7,8.95,22.0,64,37.0,30.3,1.0,236.0,137.0,2.9,7,5,7,1,2026-06-06T13:17:42.538045+05:30
Imphal,Manipur,24.817,93.9368,31.0,54,0.0,918.7,9.05,32.4,118,35.2,28.5,0.8,245.0,129.0,2.5,0,5,7,1,2026-06-06T13:17:42.538052+05:30
Aizawl,Mizoram,23.7271,92.7176,27.5,59,0.0,889.6,8.45,26.6,117,39.9,31.7,0.6,198.0,123.0,3.3,4,5,7,1,2026-06-06T13:17:42.538059+05:30
Kohima,Nagaland,25.6701,94.1077,23.4,87,0.1,852.9,9.2,26.3,74,28.2,22.3,0.5,251.0,124.0,1.9,6,5,7,1,2026-06-06T13:17:42.538066+05:30
Gangtok,Sikkim,27.3314,88.6138,21.1,84,0.2,835.4,9.1,36.0,108,13.1,10.4,0.7,296.0,144.0,2.2,6,5,7,1,2026-06-06T13:17:42.538073+05:30
Siliguri,West Bengal,26.7271,88.3953,28.9,79,0.1,988.5,8.8,22.0,123,30.6,24.9,1.4,401.0,164.0,5.0,10,5,7,1,2026-06-06T13:17:45.898241+05:30
Durgapur,West Bengal,23.5204,87.3119,32.8,72,0.1,989.3,9.05,36.7,168,70.5,61.5,14.7,428.0,189.0,53.0,6,5,7,1,2026-06-06T13:17:45.898272+05:30
Asansol,West Bengal,23.6739,86.9524,30.8,78,0.1,988.4,9.05,29.9,164,100.4,83.8,14.7,422.0,217.0,60.8,6,5,7,1,2026-06-06T13:17:45.898283+05:30
Pondicherry,Puducherry,11.9139,79.8145,37.1,40,0.0,1004.6,8.7,46.4,61,25.3,18.7,3.5,151.0,121.0,10.2,0,5,7,1,2026-06-06T13:17:45.898292+05:30
Port Blair,Andaman and Nicobar Islands,11.6234,92.7265,29.2,80,0.1,1005.6,7.85,45.4,26,7.3,4.6,0.4,101.0,59.0,0.3,10,5,4,1,2026-06-06T13:17:45.898300+05:30
Haridwar,Uttarakhand,29.9457,78.1642,34.9,43,0.0,969.8,7.6,22.7,136,76.6,32.8,1.3,318.0,196.0,9.9,0,5,7,1,2026-06-06T13:17:45.898308+05:30
Rishikesh,Uttarakhand,30.0869,78.2676,34.8,37,0.0,962.5,7.65,28.4,107,58.4,27.3,0.8,251.0,175.0,5.8,0,5,7,1,2026-06-06T13:17:45.898315+05:30
Nainital,Uttarakhand,29.3919,79.4542,21.8,56,0.0,806.2,8.3,24.1,90,49.7,28.2,0.9,213.0,157.0,3.3,0,5,7,0,2026-06-06T13:17:45.898323+05:30
Mussoorie,Uttarakhand,30.4599,78.0664,23.2,40,0.1,804.2,8.1,45.0,96,59.4,28.6,1.1,200.0,187.0,8.7,3,5,7,0,2026-06-06T13:17:45.898331+05:30
Dharamshala,Himachal Pradesh,32.219,76.3234,27.3,36,0.0,868.9,8.5,43.6,58,15.4,8.9,0.4,205.0,145.0,1.3,4,5,7,0,2026-06-06T13:17:45.898339+05:30
Dalhousie,Himachal Pradesh,32.5387,75.971,23.5,35,0.1,806.5,8.75,35.3,71,21.3,13.6,0.9,193.0,157.0,3.0,3,5,7,0,2026-06-06T13:17:45.898347+05:30
Patiala,Punjab,30.3398,76.3869,38.2,28,0.0,973.9,7.7,30.2,200,334.3,64.5,1.1,259.0,176.0,12.6,0,5,10,1,2026-06-06T13:17:45.898354+05:30
Bhatinda,Punjab,30.211,74.9455,38.2,27,0.1,979.3,8.35,25.9,159,160.7,53.0,2.7,206.0,191.0,28.6,3,5,10,1,2026-06-06T13:17:45.898361+05:30
Rohtak,Haryana,28.8955,76.6066,37.6,31,0.0,977.5,7.8,22.0,256,353.9,72.2,0.5,200.0,159.0,5.5,0,5,10,1,2026-06-06T13:17:45.898368+05:30
Panipat,Haryana,29.3909,76.9635,37.1,34,0.0,976.0,7.65,27.0,361,562.5,102.2,4.2,288.0,181.0,27.0,0,5,10,1,2026-06-06T13:17:45.898375+05:30
Mathura,Uttar Pradesh,27.4924,77.6737,37.4,38,0.0,982.3,8.05,23.8,415,319.4,63.3,0.8,175.0,149.0,5.1,0,5,10,1,2026-06-06T13:17:45.898382+05:30
Vrindavan,Uttar Pradesh,27.5823,77.7027,37.7,36,0.0,982.7,8.05,26.3,415,319.4,63.3,0.8,178.0,149.0,5.1,0,5,10,1,2026-06-06T13:17:45.898389+05:30
Ayodhya,Uttar Pradesh,26.7922,82.1998,34.8,51,0.0,990.4,8.0,25.9,152,115.3,51.5,1.1,320.0,169.0,5.4,0,5,7,1,2026-06-06T13:17:45.898396+05:30
Ratlam,Madhya Pradesh,23.3315,75.0367,36.0,45,0.0,952.6,8.55,36.7,86,71.7,34.1,0.7,133.0,106.0,6.7,0,5,10,1,2026-06-06T13:17:45.898403+05:30
Sagar,Madhya Pradesh,23.8388,78.7378,36.9,25,0.0,947.2,8.7,38.9,77,106.2,28.5,0.4,144.0,127.0,3.5,0,5,10,0,2026-06-06T13:17:45.898410+05:30
Satna,Madhya Pradesh,24.6005,80.8322,36.6,33,0.0,967.4,8.35,37.1,96,153.7,41.0,0.4,168.0,131.0,3.8,0,5,10,1,2026-06-06T13:17:45.898417+05:30
Akola,Maharashtra,20.7002,77.0082,38.7,30,0.0,971.4,8.8,41.4,76,58.4,28.1,1.1,135.0,117.0,6.8,0,5,10,1,2026-06-06T13:17:45.898424+05:30
Amravati,Maharashtra,20.9374,77.7796,38.8,28,0.0,963.9,8.85,44.6,79,57.6,27.9,1.2,152.0,122.0,7.6,0,5,10,1,2026-06-06T13:17:45.898432+05:30
Latur,Maharashtra,18.4088,76.5604,34.5,37,0.0,938.0,8.9,36.0,75,41.0,20.3,0.8,143.0,107.0,3.4,0,5,7,1,2026-06-06T13:17:45.898440+05:30
Nanded,Maharashtra,19.1383,77.3091,38.1,29,0.0,965.5,8.9,32.8,86,47.8,22.5,0.7,147.0,112.0,3.2,0,5,10,1,2026-06-06T13:17:45.898446+05:30
Gulbarga,Karnataka,17.3297,76.8343,35.4,37,0.0,956.1,8.95,40.7,73,30.5,17.4,1.2,138.0,124.0,4.1,0,5,10,1,2026-06-06T13:17:45.898453+05:30
Bidar,Karnataka,17.9104,77.5199,34.6,38,0.0,933.5,9.0,35.3,98,45.5,24.1,1.0,145.0,129.0,6.2,0,5,7,1,2026-06-06T13:17:45.898460+05:30
Hospet,Karnataka,15.2689,76.3909,24.6,95,0.3,954.3,8.95,41.4,23,11.3,6.6,1.8,134.0,75.0,2.2,6,5,7,1,2026-06-06T13:17:45.898467+05:30
Tirupur,Tamil Nadu,11.1085,77.3411,26.3,85,0.1,974.7,8.95,52.9,31,2.9,2.5,1.9,116.0,72.0,2.0,10,5,7,1,2026-06-06T13:17:45.898474+05:30
Alappuzha,Kerala,9.4981,76.3388,26.6,86,0.1,1010.3,8.3,36.4,39,12.7,6.1,1.5,93.0,57.0,1.1,10,0,4,1,2026-06-06T13:17:45.898481+05:30
Munnar,Kerala,10.0889,77.0595,18.0,92,0.2,857.3,8.8,47.5,18,4.4,2.7,1.2,100.0,58.0,0.9,6,10,7,1,2026-06-06T13:17:45.898489+05:30
Silchar,Assam,24.8333,92.7789,34.4,57,0.0,998.4,8.9,23.4,134,41.6,33.9,1.0,260.0,142.0,4.2,0,5,7,1,2026-06-06T13:17:45.898496+05:30
Dibrugarh,Assam,27.4728,94.912,32.8,60,0.0,989.1,8.95,32.4,116,31.1,27.2,1.0,292.0,158.0,3.1,0,5,7,1,2026-06-06T13:17:45.898503+05:30
