city,state,latitude,longitude,temp,humidity,rain,pressure,uv_index,wind_gusts,aqi,pm10,pm2_5,mosquito_risk,arthritis_risk,migraine_risk,frizz_risk,updated_at
Delhi,Delhi,28.6139,77.209,39.1,15,0.0,978.4,7.35,31.0,435,521.5,59.1,0,5,10,0,2026-04-22T16:38:59.491639+05:30
Mumbai,Maharashtra,19.076,72.8777,29.7,68,0.0,1004.8,8.05,29.2,126,37.3,23.7,7,5,4,1,2026-04-22T16:38:59.491691+05:30
Bangalore,Karnataka,12.9716,77.5946,35.7,19,0.0,908.6,9.6,28.1,134,21.8,16.9,0,5,10,0,2026-04-22T16:38:59.491707+05:30
Hyderabad,Telangana,17.385,78.4867,38.2,22,0.0,949.6,9.3,34.6,158,43.0,37.8,0,5,10,0,2026-04-22T16:38:59.491717+05:30
Chennai,Tamil Nadu,13.0827,80.2707,34.0,50,0.0,1002.9,9.15,32.8,37,9.3,6.5,0,5,4,1,2026-04-22T16:38:59.491725+05:30
Kolkata,West Bengal,22.5726,88.3639,34.6,62,0.0,1000.6,8.95,33.5,157,81.7,41.4,3,5,4,1,2026-04-22T16:38:59.491735+05:30
Pune,Maharashtra,18.5204,73.8567,34.0,43,0.0,946.4,8.6,44.6,172,40.0,33.4,0,5,7,1,2026-04-22T16:38:59.491743+05:30
Ahmedabad,Gujarat,23.0225,72.5714,38.7,20,0.0,999.0,8.2,24.5,50,17.4,10.2,0,5,10,0,2026-04-22T16:38:59.491749+05:30
Jaipur,Rajasthan,26.9124,75.7873,39.1,11,0.0,957.0,8.0,35.3,141,195.1,24.2,0,5,10,0,2026-04-22T16:38:59.491756+05:30
Lucknow,Uttar Pradesh,26.8467,80.9462,39.7,19,0.0,988.0,7.85,45.7,280,280.3,46.3,0,5,10,0,2026-04-22T16:38:59.491763+05:30
Kanpur,Uttar Pradesh,26.4499,80.3319,39.1,16,0.0,986.8,7.9,38.2,436,657.5,72.2,0,5,10,0,2026-04-22T16:38:59.491769+05:30
Chandigarh,Chandigarh,30.7333,76.7794,38.0,18,0.0,964.2,7.35,31.7,141,20.7,12.6,0,5,10,0,2026-04-22T16:38:59.491775+05:30
Srinagar,Jammu and Kashmir,34.0837,74.7973,24.9,44,0.0,842.1,8.5,15.5,85,21.0,8.4,0,5,7,0,2026-04-22T16:38:59.491781+05:30
Jammu,Jammu and Kashmir,32.7266,74.857,38.5,18,0.0,967.9,8.1,28.4,129,22.2,11.1,0,5,10,0,2026-04-22T16:38:59.491787+05:30
Amritsar,Punjab,31.634,74.8723,39.6,18,0.0,975.7,8.05,27.0,152,35.9,18.5,0,5,10,0,2026-04-22T16:38:59.491792+05:30
Ludhiana,Punjab,30.901,75.8573,40.2,16,0.0,973.5,7.6,28.4,116,43.8,14.4,0,5,10,0,2026-04-22T16:38:59.491800+05:30
Jalandhar,Punjab,31.326,75.5762,39.7,15,0.0,974.8,7.8,29.5,131,53.1,16.5,0,5,10,0,2026-04-22T16:38:59.491806+05:30
Dehradun,Uttarakhand,30.6284,78.0322,25.9,39,0.0,831.1,7.75,30.6,124,16.6,10.0,4,5,7,0,2026-04-22T16:38:59.491811+05:30
Shimla,Himachal Pradesh,31.1048,77.1734,25.1,30,0.0,787.4,7.85,54.4,128,19.2,10.1,4,5,7,0,2026-04-22T16:38:59.491817+05:30
Manali,Himachal Pradesh,32.2396,77.1887,26.7,46,0.0,823.0,9.8,31.7,115,21.2,9.9,4,5,7,0,2026-04-22T16:38:59.491823+05:30
Gurgaon,Haryana,28.4595,77.0266,39.2,15,0.0,976.8,7.45,28.1,1094,1456.6,135.5,0,5,10,0,2026-04-22T16:38:59.491828+05:30
Noida,Uttar Pradesh,28.5355,77.391,39.4,15,0.0,979.9,7.4,32.4,1094,1456.6,135.5,0,5,10,0,2026-04-22T16:38:59.491849+05:30
Ghaziabad,Uttar Pradesh,28.6692,77.4538,39.0,15,0.0,978.2,7.35,32.0,341,476.8,55.3,0,5,10,0,2026-04-22T16:38:59.491856+05:30
Faridabad,Haryana,28.4089,77.3178,39.7,15,0.0,979.1,7.4,33.8,1094,1456.6,135.5,0,5,10,0,2026-04-22T16:38:59.491861+05:30
Meerut,Uttar Pradesh,28.9845,77.7064,38.9,17,0.0,976.7,7.25,38.2,341,476.8,55.3,0,5,10,0,2026-04-22T16:38:59.491867+05:30
Agra,Uttar Pradesh,27.1767,78.0081,40.8,14,0.0,983.0,7.75,37.1,711,823.3,72.4,0,5,10,0,2026-04-22T16:38:59.491876+05:30
Varanasi,Uttar Pradesh,25.3176,82.9739,41.4,10,0.0,991.7,8.55,43.2,138,93.1,21.7,0,5,10,0,2026-04-22T16:38:59.491882+05:30
Prayagraj,Uttar Pradesh,25.4358,81.8463,40.9,14,0.0,990.3,8.4,40.7,128,113.2,23.6,0,5,10,0,2026-04-22T16:38:59.491888+05:30
Gorakhpur,Uttar Pradesh,26.7606,83.3732,40.7,9,0.0,990.8,8.25,41.8,146,94.3,26.4,0,5,10,0,2026-04-22T16:38:59.491894+05:30
Bareilly,Uttar Pradesh,28.367,79.4304,39.6,14,0.0,981.3,7.6,43.2,142,31.1,17.9,0,5,10,0,2026-04-22T16:38:59.491900+05:30
Aligarh,Uttar Pradesh,27.8974,78.088,40.7,13,0.0,980.5,7.5,37.4,745,1002.1,99.4,0,5,10,0,2026-04-22T16:38:59.491906+05:30
Moradabad,Uttar Pradesh,28.8386,78.7733,39.1,16,0.0,978.3,7.45,40.0,132,77.8,21.5,0,5,10,0,2026-04-22T16:38:59.491911+05:30
Saharanpur,Uttar Pradesh,29.9637,77.546,37.9,16,0.0,971.0,7.05,36.4,147,128.5,25.1,0,5,10,0,2026-04-22T16:38:59.491917+05:30
Jhansi,Uttar Pradesh,25.4484,78.5685,41.7,6,0.0,973.6,8.3,31.0,88,39.8,10.6,0,5,10,1,2026-04-22T16:39:02.761508+05:30
Surat,Gujarat,21.1702,72.8311,33.4,36,0.0,1004.0,7.9,21.2,110,51.0,43.5,0,5,4,1,2026-04-22T16:39:02.761539+05:30
Vadodara,Gujarat,22.3072,73.1812,39.7,14,0.0,1001.2,8.15,25.9,89,24.3,17.2,0,5,7,0,2026-04-22T16:39:02.761549+05:30
Rajkot,Gujarat,22.3039,70.8022,37.5,25,0.0,991.5,7.85,32.0,57,26.0,12.4,0,5,10,0,2026-04-22T16:39:02.761557+05:30
Thane,Maharashtra,19.2183,72.9781,32.4,54,0.0,1004.4,8.05,41.8,126,37.3,23.7,0,5,4,1,2026-04-22T16:39:02.761564+05:30
Nagpur,Maharashtra,21.1458,79.0882,39.9,15,0.0,968.9,8.65,32.0,133,21.3,16.8,0,5,10,0,2026-04-22T16:39:02.761572+05:30
Nashik,Maharashtra,19.9975,73.7898,35.8,26,0.0,943.2,8.35,37.1,128,37.0,26.9,0,5,10,0,2026-04-22T16:39:02.761579+05:30
Aurangabad,Maharashtra,19.8762,75.3433,38.4,17,0.0,941.0,9.05,33.1,130,29.6,22.4,0,5,10,0,2026-04-22T16:39:02.761586+05:30
Solapur,Maharashtra,17.6599,75.9064,38.3,19,0.0,953.4,9.1,30.6,154,35.0,29.6,0,5,10,0,2026-04-22T16:39:02.761594+05:30
Kolhapur,Maharashtra,16.705,74.2433,32.2,48,0.0,945.5,9.05,41.8,151,36.1,31.7,0,5,7,1,2026-04-22T16:39:02.761602+05:30
Goa,Goa,15.2993,74.124,32.1,66,0.0,994.1,9.0,31.7,78,33.1,20.8,3,5,7,1,2026-04-22T16:39:02.761609+05:30
Jodhpur,Rajasthan,26.2389,73.0243,38.3,12,0.0,979.9,8.2,36.0,91,153.7,18.2,0,5,10,0,2026-04-22T16:39:02.761616+05:30
Udaipur,Rajasthan,24.5854,73.7125,35.4,14,0.0,945.5,8.75,44.3,72,17.4,13.6,0,5,10,0,2026-04-22T16:39:02.761623+05:30
Kota,Rajasthan,25.2138,75.8648,41.5,8,0.0,974.9,8.25,33.8,82,12.6,10.1,0,5,10,0,2026-04-22T16:39:02.761630+05:30
Bikaner,Rajasthan,28.0229,73.3119,40.3,14,0.0,977.7,8.05,32.4,74,86.1,18.7,0,5,10,0,2026-04-22T16:39:02.761637+05:30
Ajmer,Rajasthan,26.4499,74.6399,37.7,10,0.0,952.6,8.2,40.0,74,14.2,6.4,0,5,10,0,2026-04-22T16:39:02.761644+05:30
Gwalior,Madhya Pradesh,26.2183,78.1828,39.6,12,0.0,979.5,8.0,36.4,95,47.0,12.7,0,5,10,0,2026-04-22T16:39:02.761651+05:30
Indore,Madhya Pradesh,22.7196,75.8577,37.3,17,0.0,946.2,8.65,36.0,93,21.1,16.7,0,5,10,0,2026-04-22T16:39:02.761658+05:30
Bhopal,Madhya Pradesh,23.2599,77.4126,38.5,14,0.0,951.3,8.7,36.4,89,19.7,16.2,0,5,10,0,2026-04-22T16:39:02.761665+05:30
Jabalpur,Madhya Pradesh,23.1815,79.9864,39.0,15,0.0,958.1,8.8,32.4,110,15.3,11.4,0,5,10,0,2026-04-22T16:39:02.761672+05:30
Ujjain,Madhya Pradesh,23.1765,75.7885,37.6,16,0.0,952.1,8.6,35.3,82,19.7,15.8,0,5,10,0,2026-04-22T16:39:02.761679+05:30
Visakhapatnam,Andhra Pradesh,17.6868,83.2185,32.3,66,0.0,999.5,9.2,38.5,62,20.9,16.6,3,5,7,1,2026-04-22T16:39:02.761687+05:30
Vijayawada,Andhra Pradesh,16.5062,80.648,38.6,33,0.0,997.2,9.25,28.4,60,25.6,21.5,0,5,10,1,2026-04-22T16:39:02.761693+05:30
Guntur,Andhra Pradesh,16.3067,80.4365,37.6,38,0.0,998.9,9.2,32.0,72,29.2,24.1,0,5,10,1,2026-04-22T16:39:02.761700+05:30
Nellore,Andhra Pradesh,14.4426,79.9865,35.8,46,0.0,1001.1,9.25,32.4,70,15.5,11.8,0,5,7,1,2026-04-22T16:39:02.761708+05:30
Kurnool,Andhra Pradesh,15.8281,78.0373,38.8,29,0.0,972.4,9.25,23.8,147,36.0,30.4,0,5,10,1,2026-04-22T16:39:02.761716+05:30
Kakinada,Andhra Pradesh,16.9891,82.2475,37.4,44,0.0,1002.4,8.9,29.2,43,13.5,9.3,0,5,7,1,2026-04-22T16:39:02.761723+05:30
Tirupati,Andhra Pradesh,13.6288,79.4192,37.4,26,0.0,986.8,9.1,32.8,66,20.3,17.2,0,5,10,0,2026-04-22T16:39:02.761730+05:30
Warangal,Telangana,17.9689,79.5941,39.9,25,0.0,973.9,9.2,22.3,142,44.8,38.3,0,5,10,1,2026-04-22T16:39:02.761736+05:30
Nizamabad,Telangana,18.6725,78.0941,39.1,21,0.0,960.9,8.95,33.5,138,36.1,29.0,0,5,10,0,2026-04-22T16:39:02.761743+05:30
Mysore,Karnataka,12.2958,76.6396,36.3,20,0.0,924.7,9.45,37.4,151,20.9,15.9,0,5,10,0,2026-04-22T16:39:02.761749+05:30
Mangalore,Karnataka,12.9141,74.856,30.4,79,0.0,1001.8,9.1,26.6,100,31.0,23.9,3,5,4,1,2026-04-22T16:39:02.761756+05:30
Hubli-Dharwad,Karnataka,15.3647,75.124,35.9,24,0.0,937.7,9.2,47.5,159,32.0,26.7,0,5,10,0,2026-04-22T16:39:02.761763+05:30
Belgaum,Karnataka,15.8497,74.4977,29.7,59,0.0,923.8,9.25,39.6,165,35.7,30.3,4,5,7,1,2026-04-22T16:39:06.021069+05:30
Coimbatore,Tamil Nadu,11.0168,76.9558,36.6,27,0.0,957.2,9.4,37.8,119,17.0,13.8,0,5,10,0,2026-04-22T16:39:06.021101+05:30
Madurai,Tamil Nadu,9.9252,78.1198,38.0,29,0.0,987.5,9.3,38.2,69,11.0,8.7,0,5,10,1,2026-04-22T16:39:06.021111+05:30
Trichy,Tamil Nadu,10.7905,78.7047,36.9,37,0.0,994.4,9.2,20.2,60,10.1,8.5,0,5,10,1,2026-04-22T16:39:06.021118+05:30
Salem,Tamil Nadu,11.6643,78.146,37.9,27,0.0,972.3,9.0,24.5,90,13.5,11.6,0,5,10,0,2026-04-22T16:39:06.021125+05:30
Tirunelveli,Tamil Nadu,8.7139,77.7567,33.1,58,0.0,998.9,9.2,35.3,91,19.6,17.8,0,5,7,1,2026-04-22T16:39:06.021133+05:30
Vellore,Tamil Nadu,12.9165,79.1325,36.5,26,0.0,980.1,9.05,28.8,73,18.0,15.9,0,5,10,0,2026-04-22T16:39:06.021140+05:30
Erode,Tamil Nadu,11.341,77.7172,38.6,32,0.0,983.4,9.05,24.1,71,12.1,10.3,0,5,10,1,2026-04-22T16:39:06.021147+05:30
Kochi,Kerala,9.9312,76.2673,29.9,80,0.0,1003.3,9.1,31.0,81,23.0,19.6,7,5,4,1,2026-04-22T16:39:06.021155+05:30
Thiruvananthapuram,Kerala,8.5241,76.9366,29.1,81,0.0,1003.8,8.75,27.0,90,20.1,16.1,7,5,4,1,2026-04-22T16:39:06.021162+05:30
Kozhikode,Kerala,11.2588,75.7804,31.4,74,0.0,1002.9,9.1,30.6,71,20.8,17.2,3,5,4,1,2026-04-22T16:39:06.021169+05:30
Thrissur,Kerala,10.5276,76.2144,33.1,62,0.0,1001.7,9.1,38.9,79,21.0,17.5,3,5,4,1,2026-04-22T16:39:06.021177+05:30
Kannur,Kerala,11.8745,75.3704,31.8,69,0.0,1002.4,9.05,34.6,103,29.7,24.3,3,5,4,1,2026-04-22T16:39:06.021184+05:30
Patna,Bihar,25.5941,85.1376,40.1,14,0.0,994.0,8.65,43.6,150,169.5,37.1,0,5,10,0,2026-04-22T16:39:06.021190+05:30
Gaya,Bihar,24.7914,85.0002,40.3,14,0.0,988.0,8.75,41.4,153,177.9,36.1,0,5,10,0,2026-04-22T16:39:06.021197+05:30
Muzaffarpur,Bihar,26.1209,85.3647,38.3,25,0.0,994.0,8.65,16.2,147,167.2,38.8,0,5,10,0,2026-04-22T16:39:06.021204+05:30
Bhagalpur,Bihar,25.2425,87.0117,37.7,25,0.0,994.8,8.7,21.6,164,157.4,40.5,0,5,10,0,2026-04-22T16:39:06.021210+05:30
Ranchi,Jharkhand,23.3441,85.3096,36.6,13,0.0,934.7,9.25,36.4,150,76.6,18.9,0,5,10,0,2026-04-22T16:39:06.021217+05:30
Jamshedpur,Jharkhand,22.8046,86.2029,40.3,19,0.0,984.8,9.05,23.4,192,178.3,40.9,0,5,10,0,2026-04-22T16:39:06.021224+05:30
Dhanbad,Jharkhand,23.7957,86.4304,41.2,11,0.0,974.0,9.0,36.4,151,112.2,33.4,0,5,10,0,2026-04-22T16:39:06.021230+05:30
Bokaro,Jharkhand,23.6693,86.1511,40.8,10,0.0,978.1,9.0,40.7,150,103.4,31.5,0,5,10,0,2026-04-22T16:39:06.021237+05:30
Bhubaneswar,Odisha,20.2961,85.8245,35.1,53,0.0,997.3,9.15,33.1,185,45.3,41.9,0,5,10,1,2026-04-22T16:39:06.021243+05:30
Cuttack,Odisha,20.4625,85.8828,38.7,36,0.0,998.3,9.2,48.6,185,45.3,41.9,0,5,10,1,2026-04-22T16:39:06.021250+05:30
Rourkela,Odisha,22.2604,84.8536,41.7,16,0.0,978.6,9.0,46.4,182,79.9,22.4,0,5,10,0,2026-04-22T16:39:06.021257+05:30
Raipur,Chhattisgarh,21.2514,81.6296,41.5,13,0.0,969.7,8.9,33.5,162,29.2,18.8,0,5,10,0,2026-04-22T16:39:06.021264+05:30
Bhilai,Chhattisgarh,21.1938,81.3509,41.1,14,0.0,970.1,8.95,29.9,145,26.8,17.9,0,5,10,0,2026-04-22T16:39:06.021270+05:30
Guwahati,Assam,26.1158,91.7086,30.5,70,0.0,997.0,8.6,40.7,118,58.0,32.6,3,5,7,1,2026-04-22T16:39:06.021276+05:30
Agartala,Tripura,23.8315,91.2868,34.7,51,0.0,1000.9,8.85,31.7,78,38.4,30.4,0,5,4,1,2026-04-22T16:39:06.021283+05:30
Shillong,Meghalaya,25.5788,91.8933,21.2,51,0.0,855.3,9.05,75.2,69,57.9,25.0,0,5,7,0,2026-04-22T16:39:06.021290+05:30
Imphal,Manipur,24.817,93.9368,24.2,69,0.0,920.4,9.2,77.4,136,62.9,26.5,3,5,7,1,2026-04-22T16:39:06.021295+05:30
Aizawl,Mizoram,23.7271,92.7176,27.3,56,0.0,891.1,9.05,54.0,100,58.7,32.2,4,5,7,1,2026-04-22T16:39:06.021300+05:30
Kohima,Nagaland,25.6701,94.1077,18.4,87,0.0,853.5,9.15,92.2,110,50.8,22.2,3,10,7,1,2026-04-22T16:39:06.021306+05:30
Gangtok,Sikkim,27.3314,88.6138,20.4,72,0.0,837.0,8.9,23.8,141,57.6,32.2,3,5,7,0,2026-04-22T16:39:06.021311+05:30
Siliguri,West Bengal,26.7271,88.3953,28.5,62,0.0,989.8,8.5,22.7,152,74.3,43.4,7,5,7,1,2026-04-22T16:39:09.288013+05:30
Durgapur,West Bengal,23.5204,87.3119,41.5,13,0.0,988.7,8.95,31.7,165,170.0,44.4,0,5,10,0,2026-04-22T16:39:09.288044+05:30
Asansol,West Bengal,23.6739,86.9524,41.5,11,0.0,987.3,9.0,27.4,147,138.8,37.1,0,5,10,0,2026-04-22T16:39:09.288054+05:30
Pondicherry,Puducherry,11.9139,79.8145,35.1,46,0.0,1003.6,9.1,27.7,31,7.0,4.6,0,5,7,1,2026-04-22T16:39:09.288062+05:30
Port Blair,Andaman and Nicobar Islands,11.6234,92.7265,29.8,70,0.0,1004.1,9.15,23.4,36,10.7,7.9,7,5,4,1,2026-04-22T16:39:09.288070+05:30
Haridwar,Uttarakhand,29.9457,78.1642,37.5,22,0.0,969.7,7.15,34.6,156,47.0,15.8,0,5,10,0,2026-04-22T16:39:09.288078+05:30
Rishikesh,Uttarakhand,30.0869,78.2676,35.7,27,0.0,963.0,7.25,33.5,142,19.9,13.4,0,5,10,0,2026-04-22T16:39:09.288085+05:30
Nainital,Uttarakhand,29.3919,79.4542,28.8,22,0.0,807.6,8.05,42.5,147,19.6,13.4,4,5,7,0,2026-04-22T16:39:09.288092+05:30
Mussoorie,Uttarakhand,30.4599,78.0664,26.3,38,0.0,804.3,7.65,41.4,154,21.0,13.8,4,5,7,0,2026-04-22T16:39:09.288099+05:30
Dharamshala,Himachal Pradesh,32.219,76.3234,30.5,31,0.0,868.8,7.95,28.1,111,18.8,10.0,0,5,7,0,2026-04-22T16:39:09.288106+05:30
Dalhousie,Himachal Pradesh,32.5387,75.971,29.1,30,0.0,805.7,8.25,25.6,136,22.1,12.1,4,5,7,0,2026-04-22T16:39:09.288115+05:30
Patiala,Punjab,30.3398,76.3869,39.6,19,0.0,973.0,7.25,25.2,219,597.9,57.6,0,5,10,0,2026-04-22T16:39:09.288122+05:30
Bhatinda,Punjab,30.211,74.9455,41.5,12,0.0,978.3,7.9,29.9,123,40.0,15.7,0,5,10,0,2026-04-22T16:39:09.288128+05:30
Rohtak,Haryana,28.8955,76.6066,39.3,12,0.0,977.2,7.4,34.2,562,653.8,64.5,0,5,10,0,2026-04-22T16:39:09.288135+05:30
Panipat,Haryana,29.3909,76.9635,39.7,15,0.0,975.5,7.2,32.8,932,1274.0,113.9,0,5,10,0,2026-04-22T16:39:09.288142+05:30
Mathura,Uttar Pradesh,27.4924,77.6737,41.0,11,0.0,981.8,7.7,33.8,731,827.0,75.4,0,5,10,0,2026-04-22T16:39:09.288148+05:30
Vrindavan,Uttar Pradesh,27.5823,77.7027,41.0,14,0.0,982.0,7.65,34.6,731,827.0,75.4,0,5,10,0,2026-04-22T16:39:09.288154+05:30
Ayodhya,Uttar Pradesh,26.7922,82.1998,40.8,11,0.0,989.3,8.05,46.1,156,82.4,24.6,0,5,10,0,2026-04-22T16:39:09.288159+05:30
Ratlam,Madhya Pradesh,23.3315,75.0367,35.7,24,0.0,953.1,8.5,29.5,84,19.4,15.3,0,5,10,0,2026-04-22T16:39:09.288164+05:30
Sagar,Madhya Pradesh,23.8388,78.7378,38.6,11,0.0,947.7,8.7,38.5,95,9.6,6.7,0,5,10,0,2026-04-22T16:39:09.288170+05:30
Satna,Madhya Pradesh,24.6005,80.8322,40.3,11,0.0,967.3,8.7,48.6,110,55.8,15.7,0,5,10,0,2026-04-22T16:39:09.288175+05:30
Akola,Maharashtra,20.7002,77.0082,41.3,14,0.0,970.9,8.9,32.0,108,24.7,18.9,0,5,10,0,2026-04-22T16:39:09.288181+05:30
Amravati,Maharashtra,20.9374,77.7796,40.1,17,0.0,963.4,8.8,23.8,110,23.3,18.0,0,5,10,0,2026-04-22T16:39:09.288187+05:30
Latur,Maharashtra,18.4088,76.5604,37.5,19,0.0,936.5,8.35,31.3,147,39.6,32.9,0,5,10,0,2026-04-22T16:39:09.288193+05:30
Nanded,Maharashtra,19.1383,77.3091,39.5,19,0.0,964.3,8.9,22.0,137,29.5,24.0,0,5,10,0,2026-04-22T16:39:09.288198+05:30
Gulbarga,Karnataka,17.3297,76.8343,37.7,22,0.0,955.1,9.15,25.9,153,29.8,25.7,0,5,10,0,2026-04-22T16:39:09.288203+05:30
Bidar,Karnataka,17.9104,77.5199,36.2,23,0.0,932.9,6.95,47.5,141,37.3,31.2,0,5,10,0,2026-04-22T16:39:09.288208+05:30
Hospet,Karnataka,15.2689,76.3909,36.9,27,0.0,951.8,9.25,38.2,163,39.2,33.2,0,5,10,0,2026-04-22T16:39:09.288214+05:30
Tirupur,Tamil Nadu,11.1085,77.3411,38.4,25,0.0,970.1,9.3,27.4,105,13.9,11.6,0,5,10,0,2026-04-22T16:39:09.288219+05:30
Alappuzha,Kerala,9.4981,76.3388,29.6,83,0.0,1003.5,8.8,27.7,94,24.5,20.3,7,5,4,1,2026-04-22T16:39:09.288224+05:30
Munnar,Kerala,10.0889,77.0595,27.1,67,0.0,855.2,9.65,35.6,74,14.8,11.9,7,5,7,1,2026-04-22T16:39:09.288230+05:30
Silchar,Assam,24.8333,92.7789,31.1,64,0.0,1000.7,8.85,46.4,151,58.7,35.9,3,5,4,1,2026-04-22T16:39:09.288235+05:30
Dibrugarh,Assam,27.4728,94.912,25.3,78,0.0,993.6,8.6,23.4,91,13.1,10.2,7,5,7,1,2026-04-22T16:39:09.288240+05:30
