city,state,latitude,longitude,temp,humidity,rain,pressure,uv_index,wind_gusts,aqi,pm10,pm2_5,mosquito_risk,arthritis_risk,migraine_risk,frizz_risk,updated_at
Delhi,Delhi,28.6139,77.209,30.5,37,0.0,985.4,5.95,24.1,187,206.3,50.9,0,5,3,0,2026-03-18T14:25:13.210588+05:30
Mumbai,Maharashtra,19.076,72.8777,26.8,74,0.0,1008.8,7.7,22.3,79,58.6,40.9,7,0,4,1,2026-03-18T14:25:13.210635+05:30
Bangalore,Karnataka,12.9716,77.5946,30.6,33,0.0,912.4,9.35,27.7,102,36.8,30.9,0,5,7,0,2026-03-18T14:25:13.210652+05:30
Hyderabad,Telangana,17.385,78.4867,31.0,29,0.0,954.6,7.45,29.5,77,31.2,23.9,0,5,7,0,2026-03-18T14:25:13.210664+05:30
Chennai,Tamil Nadu,13.0827,80.2707,31.6,56,0.0,1008.7,9.1,32.0,38,11.1,7.5,0,0,4,1,2026-03-18T14:25:13.210674+05:30
Kolkata,West Bengal,22.5726,88.3639,28.0,66,0.0,1008.2,7.85,34.9,57,45.8,36.3,7,0,4,1,2026-03-18T14:25:13.210684+05:30
Pune,Maharashtra,18.5204,73.8567,35.1,20,0.0,947.9,8.25,41.8,103,34.6,25.4,0,5,10,0,2026-03-18T14:25:13.210697+05:30
Ahmedabad,Gujarat,23.0225,72.5714,35.7,28,0.0,1002.4,7.55,23.0,73,32.2,12.3,0,5,7,0,2026-03-18T14:25:13.210705+05:30
Jaipur,Rajasthan,26.9124,75.7873,33.0,24,0.0,961.1,7.0,30.2,182,178.3,34.3,0,5,7,0,2026-03-18T14:25:13.210713+05:30
Lucknow,Uttar Pradesh,26.8467,80.9462,33.9,26,0.0,995.2,6.5,23.4,93,62.9,20.4,0,5,7,0,2026-03-18T14:25:13.210722+05:30
Kanpur,Uttar Pradesh,26.4499,80.3319,34.6,25,0.0,993.0,6.6,23.8,97,85.9,22.5,0,5,7,0,2026-03-18T14:25:13.210729+05:30
Chandigarh,Chandigarh,30.7333,76.7794,25.2,54,0.0,973.0,5.4,27.4,94,56.1,17.6,4,5,3,0,2026-03-18T14:25:13.210737+05:30
Srinagar,Jammu and Kashmir,34.0837,74.7973,9.0,73,0.0,842.5,4.45,23.4,144,59.5,31.3,3,5,3,0,2026-03-18T14:25:13.210745+05:30
Jammu,Jammu and Kashmir,32.7266,74.857,21.9,73,0.0,977.1,2.7,19.8,94,56.2,22.0,3,5,3,1,2026-03-18T14:25:13.210752+05:30
Amritsar,Punjab,31.634,74.8723,21.4,60,0.0,985.6,3.95,22.3,126,102.7,32.4,0,5,3,0,2026-03-18T14:25:13.210760+05:30
Ludhiana,Punjab,30.901,75.8573,21.9,56,0.0,983.5,5.65,29.5,139,82.0,41.7,0,5,3,0,2026-03-18T14:25:13.210767+05:30
Jalandhar,Punjab,31.326,75.5762,19.3,66,0.1,984.7,5.4,32.0,129,80.8,31.0,6,5,3,0,2026-03-18T14:25:13.210777+05:30
Dehradun,Uttarakhand,30.6284,78.0322,16.9,43,0.0,832.4,5.3,25.9,51,49.4,9.3,0,5,3,0,2026-03-18T14:25:13.210785+05:30
Shimla,Himachal Pradesh,31.1048,77.1734,13.9,59,0.0,786.4,4.9,36.4,62,34.7,7.9,0,5,3,0,2026-03-18T14:25:13.210792+05:30
Manali,Himachal Pradesh,32.2396,77.1887,11.0,87,0.0,820.4,6.45,25.9,45,22.4,6.6,3,10,7,0,2026-03-18T14:25:13.210800+05:30
Gurgaon,Haryana,28.4595,77.0266,30.8,39,0.0,983.7,6.25,23.4,604,657.5,98.5,0,5,7,0,2026-03-18T14:25:13.210808+05:30
Noida,Uttar Pradesh,28.5355,77.391,30.6,38,0.0,987.0,6.2,23.8,604,657.5,98.5,0,5,7,0,2026-03-18T14:25:13.210816+05:30
Ghaziabad,Uttar Pradesh,28.6692,77.4538,29.9,41,0.0,985.3,6.1,19.8,153,150.9,43.1,4,5,7,0,2026-03-18T14:25:13.210823+05:30
Faridabad,Haryana,28.4089,77.3178,31.7,34,0.0,986.0,6.25,26.6,604,657.5,98.5,0,5,7,0,2026-03-18T14:25:13.210829+05:30
Meerut,Uttar Pradesh,28.9845,77.7064,29.8,34,0.0,984.2,5.5,18.7,153,150.9,43.1,4,5,3,0,2026-03-18T14:25:13.210837+05:30
Agra,Uttar Pradesh,27.1767,78.0081,33.7,29,0.0,989.4,6.55,29.9,379,274.7,46.1,0,5,7,0,2026-03-18T14:25:13.210843+05:30
Varanasi,Uttar Pradesh,25.3176,82.9739,35.0,29,0.0,997.6,6.65,28.4,97,50.9,32.8,0,5,7,0,2026-03-18T14:25:13.210853+05:30
Prayagraj,Uttar Pradesh,25.4358,81.8463,34.3,33,0.0,996.2,6.55,23.8,102,49.8,24.7,0,5,7,0,2026-03-18T14:25:13.210861+05:30
Gorakhpur,Uttar Pradesh,26.7606,83.3732,32.8,38,0.0,998.6,6.4,22.7,113,51.7,18.2,0,5,7,1,2026-03-18T14:25:13.210868+05:30
Bareilly,Uttar Pradesh,28.367,79.4304,31.3,34,0.0,989.5,6.35,20.9,115,61.0,26.1,0,5,7,0,2026-03-18T14:25:13.210878+05:30
Aligarh,Uttar Pradesh,27.8974,78.088,32.8,29,0.0,987.7,6.35,23.4,155,121.1,37.8,0,5,7,0,2026-03-18T14:25:13.210885+05:30
Moradabad,Uttar Pradesh,28.8386,78.7733,30.5,35,0.0,986.4,6.05,17.3,150,50.5,32.5,0,5,7,0,2026-03-18T14:25:13.210892+05:30
Saharanpur,Uttar Pradesh,29.9637,77.546,27.5,37,0.0,979.2,5.45,25.6,128,74.5,29.8,4,5,3,0,2026-03-18T14:25:13.210899+05:30
Jhansi,Uttar Pradesh,25.4484,78.5685,35.9,18,0.0,978.4,7.2,35.3,77,52.7,23.8,0,5,10,0,2026-03-18T14:25:16.424466+05:30
Surat,Gujarat,21.1702,72.8311,29.1,58,0.0,1007.9,7.4,28.1,84,46.4,28.6,4,5,4,1,2026-03-18T14:25:16.424500+05:30
Vadodara,Gujarat,22.3072,73.1812,36.0,30,0.0,1004.7,7.55,26.3,68,31.7,16.9,0,5,7,0,2026-03-18T14:25:16.424511+05:30
Rajkot,Gujarat,22.3039,70.8022,36.0,21,0.0,994.3,7.05,42.1,45,17.3,7.3,0,5,10,0,2026-03-18T14:25:16.424520+05:30
Thane,Maharashtra,19.2183,72.9781,30.2,53,0.0,1008.4,7.7,34.9,79,58.6,40.9,0,0,4,1,2026-03-18T14:25:16.424527+05:30
Nagpur,Maharashtra,21.1458,79.0882,31.9,36,0.0,974.5,5.55,40.7,86,46.1,38.8,0,5,3,0,2026-03-18T14:25:16.424534+05:30
Nashik,Maharashtra,19.9975,73.7898,31.8,31,0.0,946.0,7.95,24.5,61,25.3,18.1,0,5,7,0,2026-03-18T14:25:16.424542+05:30
Aurangabad,Maharashtra,19.8762,75.3433,34.6,19,0.0,944.1,8.45,31.7,64,24.9,19.1,0,5,7,0,2026-03-18T14:25:16.424550+05:30
Solapur,Maharashtra,17.6599,75.9064,30.9,38,0.0,958.1,8.6,35.6,103,37.1,30.7,0,5,7,0,2026-03-18T14:25:16.424558+05:30
Kolhapur,Maharashtra,16.705,74.2433,32.1,30,0.0,948.0,8.75,37.4,114,42.4,33.3,0,5,7,0,2026-03-18T14:25:16.424565+05:30
Goa,Goa,15.2993,74.124,31.7,56,0.0,998.2,8.6,26.6,83,52.7,23.5,0,5,7,1,2026-03-18T14:25:16.424572+05:30
Jodhpur,Rajasthan,26.2389,73.0243,34.1,26,0.0,983.6,7.05,43.2,72,74.7,13.8,0,5,7,0,2026-03-18T14:25:16.424579+05:30
Udaipur,Rajasthan,24.5854,73.7125,31.8,21,0.0,947.2,7.95,28.4,43,19.7,5.7,0,5,7,0,2026-03-18T14:25:16.424586+05:30
Kota,Rajasthan,25.2138,75.8648,35.4,18,0.0,979.1,7.35,22.3,86,51.8,22.4,0,5,10,0,2026-03-18T14:25:16.424594+05:30
Bikaner,Rajasthan,28.0229,73.3119,27.4,40,0.0,983.6,5.6,37.8,64,100.6,27.2,4,5,3,0,2026-03-18T14:25:16.424600+05:30
Ajmer,Rajasthan,26.4499,74.6399,32.4,24,0.0,955.6,7.15,37.8,94,81.0,21.7,0,5,7,0,2026-03-18T14:25:16.424607+05:30
Gwalior,Madhya Pradesh,26.2183,78.1828,33.5,26,0.0,984.3,6.9,27.0,134,77.1,23.9,0,5,7,0,2026-03-18T14:25:16.424614+05:30
Indore,Madhya Pradesh,22.7196,75.8577,34.2,16,0.0,948.3,7.85,30.2,55,14.5,11.9,0,5,7,0,2026-03-18T14:25:16.424621+05:30
Bhopal,Madhya Pradesh,23.2599,77.4126,35.4,15,0.0,954.0,7.75,27.4,60,13.6,9.3,0,5,10,0,2026-03-18T14:25:16.424629+05:30
Jabalpur,Madhya Pradesh,23.1815,79.9864,34.3,27,0.0,961.9,6.45,29.9,62,17.3,13.0,0,5,7,0,2026-03-18T14:25:16.424636+05:30
Ujjain,Madhya Pradesh,23.1765,75.7885,33.6,21,0.0,954.5,7.75,21.6,53,11.1,9.2,0,5,7,0,2026-03-18T14:25:16.424642+05:30
Visakhapatnam,Andhra Pradesh,17.6868,83.2185,30.9,50,0.0,1005.7,8.0,33.1,49,11.1,8.9,0,5,4,1,2026-03-18T14:25:16.424649+05:30
Vijayawada,Andhra Pradesh,16.5062,80.648,32.9,42,0.0,1004.1,8.45,19.4,50,8.8,6.4,0,5,4,1,2026-03-18T14:25:16.424656+05:30
Guntur,Andhra Pradesh,16.3067,80.4365,33.2,43,0.0,1005.1,8.65,26.6,44,9.9,6.8,0,5,4,1,2026-03-18T14:25:16.424663+05:30
Nellore,Andhra Pradesh,14.4426,79.9865,32.7,46,0.0,1007.1,8.95,29.9,35,11.2,7.7,0,5,4,1,2026-03-18T14:25:16.424671+05:30
Kurnool,Andhra Pradesh,15.8281,78.0373,34.3,34,0.0,977.3,8.55,42.1,70,22.7,16.9,0,5,7,1,2026-03-18T14:25:16.424679+05:30
Kakinada,Andhra Pradesh,16.9891,82.2475,32.9,46,0.0,1009.3,8.4,28.4,33,6.6,4.5,0,0,4,1,2026-03-18T14:25:16.424686+05:30
Tirupati,Andhra Pradesh,13.6288,79.4192,31.9,43,0.0,992.4,9.1,35.6,65,17.1,13.7,0,5,7,1,2026-03-18T14:25:16.424692+05:30
Warangal,Telangana,17.9689,79.5941,29.5,52,0.0,980.6,8.15,27.0,54,18.7,14.2,4,5,7,1,2026-03-18T14:25:16.424699+05:30
Nizamabad,Telangana,18.6725,78.0941,30.9,36,0.0,966.4,7.85,34.2,107,32.1,26.1,0,5,7,0,2026-03-18T14:25:16.424706+05:30
Mysore,Karnataka,12.2958,76.6396,30.8,37,0.0,928.6,9.3,20.5,100,38.3,33.6,0,5,7,0,2026-03-18T14:25:16.424712+05:30
Mangalore,Karnataka,12.9141,74.856,28.3,80,0.0,1006.6,9.0,19.1,66,26.4,19.0,7,5,4,1,2026-03-18T14:25:16.424720+05:30
Hubli-Dharwad,Karnataka,15.3647,75.124,29.1,44,0.0,941.6,8.95,28.8,108,44.7,39.0,4,5,7,0,2026-03-18T14:25:16.424726+05:30
Belgaum,Karnataka,15.8497,74.4977,29.3,44,0.0,926.4,9.0,27.4,88,38.6,31.7,4,5,7,0,2026-03-18T14:25:19.638614+05:30
Coimbatore,Tamil Nadu,11.0168,76.9558,32.8,38,0.0,961.8,8.95,28.8,91,25.0,22.1,0,5,7,1,2026-03-18T14:25:19.638648+05:30
Madurai,Tamil Nadu,9.9252,78.1198,32.5,50,0.0,993.2,8.1,24.1,68,17.9,15.6,0,5,7,1,2026-03-18T14:25:19.638660+05:30
Trichy,Tamil Nadu,10.7905,78.7047,32.7,50,0.0,999.9,9.05,24.1,57,12.5,10.5,0,5,7,1,2026-03-18T14:25:19.638669+05:30
Salem,Tamil Nadu,11.6643,78.146,34.5,34,0.0,977.2,7.9,22.0,81,29.6,25.9,0,5,7,1,2026-03-18T14:25:19.638677+05:30
Tirunelveli,Tamil Nadu,8.7139,77.7567,33.1,52,0.0,1003.0,8.25,26.6,74,21.2,19.9,0,5,4,1,2026-03-18T14:25:19.638684+05:30
Vellore,Tamil Nadu,12.9165,79.1325,31.0,46,0.0,985.5,9.15,36.0,65,16.6,13.0,0,5,7,1,2026-03-18T14:25:19.638692+05:30
Erode,Tamil Nadu,11.341,77.7172,34.5,39,0.0,988.8,9.2,26.6,63,17.2,14.9,0,5,7,1,2026-03-18T14:25:19.638699+05:30
Kochi,Kerala,9.9312,76.2673,28.2,79,0.0,1008.3,9.05,22.7,90,23.3,21.9,7,0,4,1,2026-03-18T14:25:19.638707+05:30
Thiruvananthapuram,Kerala,8.5241,76.9366,28.0,81,0.0,1007.7,8.35,16.2,57,14.4,13.2,7,5,4,1,2026-03-18T14:25:19.638715+05:30
Kozhikode,Kerala,11.2588,75.7804,29.5,73,0.0,1007.6,8.65,27.0,78,25.3,23.2,7,5,4,1,2026-03-18T14:25:19.638723+05:30
Thrissur,Kerala,10.5276,76.2144,32.3,60,0.0,1006.6,8.5,31.3,81,25.3,23.2,0,5,4,1,2026-03-18T14:25:19.638730+05:30
Kannur,Kerala,11.8745,75.3704,30.7,65,0.0,1007.2,9.05,28.4,84,23.6,19.3,3,5,4,1,2026-03-18T14:25:19.638737+05:30
Patna,Bihar,25.5941,85.1376,33.5,39,0.0,1000.9,6.75,23.8,141,65.4,35.3,0,5,4,1,2026-03-18T14:25:19.638744+05:30
Gaya,Bihar,24.7914,85.0002,34.2,38,0.0,993.5,6.45,37.8,89,48.4,27.4,0,5,7,1,2026-03-18T14:25:19.638750+05:30
Muzaffarpur,Bihar,26.1209,85.3647,32.8,41,0.0,1001.2,6.95,21.6,152,72.9,43.0,0,5,4,1,2026-03-18T14:25:19.638757+05:30
Bhagalpur,Bihar,25.2425,87.0117,30.8,52,0.0,1002.0,7.0,27.0,151,64.7,39.6,0,5,4,1,2026-03-18T14:25:19.638764+05:30
Ranchi,Jharkhand,23.3441,85.3096,29.3,35,0.0,939.3,7.65,44.3,106,38.6,28.4,4,5,7,0,2026-03-18T14:25:19.638771+05:30
Jamshedpur,Jharkhand,22.8046,86.2029,33.4,36,0.0,991.6,8.15,41.8,133,55.6,41.9,0,5,7,1,2026-03-18T14:25:19.638777+05:30
Dhanbad,Jharkhand,23.7957,86.4304,35.0,28,0.0,979.5,7.9,51.1,152,57.4,44.4,0,5,7,0,2026-03-18T14:25:19.638784+05:30
Bokaro,Jharkhand,23.6693,86.1511,35.1,23,0.0,983.2,7.85,43.2,150,50.5,38.2,0,5,10,0,2026-03-18T14:25:19.638791+05:30
Bhubaneswar,Odisha,20.2961,85.8245,30.6,58,0.0,1004.5,8.3,26.3,49,20.0,15.5,0,5,4,1,2026-03-18T14:25:19.638797+05:30
Cuttack,Odisha,20.4625,85.8828,30.0,61,0.0,1006.5,8.25,22.3,49,20.0,15.5,7,5,4,1,2026-03-18T14:25:19.638804+05:30
Rourkela,Odisha,22.2604,84.8536,27.7,60,0.0,987.5,8.05,48.2,146,52.9,41.7,4,5,7,1,2026-03-18T14:25:19.638810+05:30
Raipur,Chhattisgarh,21.2514,81.6296,30.7,43,0.0,976.8,6.75,48.2,105,34.7,27.4,0,5,7,1,2026-03-18T14:25:19.638817+05:30
Bhilai,Chhattisgarh,21.1938,81.3509,31.1,42,0.0,976.9,7.05,42.5,104,32.6,25.6,0,5,7,1,2026-03-18T14:25:19.638824+05:30
Guwahati,Assam,26.1158,91.7086,27.9,65,0.0,1002.6,7.5,38.9,110,48.9,39.3,7,5,4,1,2026-03-18T14:25:19.638830+05:30
Agartala,Tripura,23.8315,91.2868,28.2,65,0.0,1008.6,7.85,29.2,64,26.3,18.5,7,0,4,1,2026-03-18T14:25:19.638837+05:30
Shillong,Meghalaya,25.5788,91.8933,18.4,54,0.0,857.9,7.85,61.9,81,38.4,27.2,0,5,7,0,2026-03-18T14:25:19.638843+05:30
Imphal,Manipur,24.817,93.9368,20.8,68,0.0,925.1,8.1,66.2,82,43.1,23.3,3,5,7,0,2026-03-18T14:25:19.638850+05:30
Aizawl,Mizoram,23.7271,92.7176,24.2,50,0.0,895.7,8.05,44.3,76,36.6,19.6,0,5,7,0,2026-03-18T14:25:19.638856+05:30
Kohima,Nagaland,25.6701,94.1077,17.7,62,0.0,856.5,8.0,100.8,70,31.5,20.5,3,5,7,0,2026-03-18T14:25:19.638863+05:30
Gangtok,Sikkim,27.3314,88.6138,19.6,45,0.0,838.8,7.85,19.8,70,44.1,24.4,0,5,7,0,2026-03-18T14:25:19.638869+05:30
Siliguri,West Bengal,26.7271,88.3953,25.8,57,0.0,994.4,7.25,34.6,120,57.5,37.4,4,5,7,1,2026-03-18T14:25:22.855211+05:30
Durgapur,West Bengal,23.5204,87.3119,34.0,33,0.0,995.2,8.05,49.7,130,71.0,56.7,0,5,7,0,2026-03-18T14:25:22.855249+05:30
Asansol,West Bengal,23.6739,86.9524,34.2,34,0.0,993.7,8.05,50.8,133,63.8,50.3,0,5,7,1,2026-03-18T14:25:22.855261+05:30
Pondicherry,Puducherry,11.9139,79.8145,31.4,58,0.0,1009.5,9.1,25.2,37,13.5,9.2,0,0,4,1,2026-03-18T14:25:22.855269+05:30
Port Blair,Andaman and Nicobar Islands,11.6234,92.7265,28.8,74,0.0,1007.5,9.05,22.7,59,16.1,13.2,7,5,4,1,2026-03-18T14:25:22.855278+05:30
Haridwar,Uttarakhand,29.9457,78.1642,28.4,33,0.0,977.6,5.6,22.0,74,56.2,16.9,4,5,3,0,2026-03-18T14:25:22.855286+05:30
Rishikesh,Uttarakhand,30.0869,78.2676,28.1,31,0.0,970.3,5.4,18.4,59,41.1,10.9,4,5,3,0,2026-03-18T14:25:22.855295+05:30
Nainital,Uttarakhand,29.3919,79.4542,21.5,31,0.0,809.6,5.95,34.6,65,41.1,13.1,0,5,3,0,2026-03-18T14:25:22.855302+05:30
Mussoorie,Uttarakhand,30.4599,78.0664,17.5,46,0.0,805.2,5.5,29.5,68,44.5,11.2,0,5,3,0,2026-03-18T14:25:22.855310+05:30
Dharamshala,Himachal Pradesh,32.219,76.3234,18.6,55,0.0,871.5,4.15,29.9,49,30.4,6.8,0,5,3,0,2026-03-18T14:25:22.855318+05:30
Dalhousie,Himachal Pradesh,32.5387,75.971,15.0,55,0.0,805.3,5.15,31.0,83,88.9,26.3,0,5,3,0,2026-03-18T14:25:22.855327+05:30
Patiala,Punjab,30.3398,76.3869,24.2,52,0.0,982.6,4.65,28.8,146,119.0,25.7,0,5,3,0,2026-03-18T14:25:22.855335+05:30
Bhatinda,Punjab,30.211,74.9455,21.8,65,0.1,988.5,6.15,27.7,115,52.9,18.4,6,5,7,0,2026-03-18T14:25:22.855342+05:30
Rohtak,Haryana,28.8955,76.6066,28.5,46,0.0,984.4,5.8,28.8,317,461.9,67.3,4,5,3,0,2026-03-18T14:25:22.855350+05:30
Panipat,Haryana,29.3909,76.9635,28.1,43,0.0,983.6,5.85,29.9,291,895.9,93.1,4,5,3,0,2026-03-18T14:25:22.855357+05:30
Mathura,Uttar Pradesh,27.4924,77.6737,34.2,26,0.0,988.4,6.5,32.4,481,280.3,58.2,0,5,7,0,2026-03-18T14:25:22.855364+05:30
Vrindavan,Uttar Pradesh,27.5823,77.7027,33.9,26,0.0,988.9,6.45,30.2,481,280.3,58.2,0,5,7,0,2026-03-18T14:25:22.855371+05:30
Ayodhya,Uttar Pradesh,26.7922,82.1998,34.2,27,0.0,996.8,6.3,28.4,93,50.9,17.7,0,5,7,0,2026-03-18T14:25:22.855378+05:30
Ratlam,Madhya Pradesh,23.3315,75.0367,33.9,20,0.0,955.5,7.7,28.1,52,11.7,8.8,0,5,7,0,2026-03-18T14:25:22.855386+05:30
Sagar,Madhya Pradesh,23.8388,78.7378,34.4,19,0.0,950.9,7.5,34.9,47,13.8,6.5,0,5,7,0,2026-03-18T14:25:22.855393+05:30
Satna,Madhya Pradesh,24.6005,80.8322,36.3,14,0.0,971.6,6.95,31.3,59,20.2,10.4,0,5,10,0,2026-03-18T14:25:22.855400+05:30
Akola,Maharashtra,20.7002,77.0082,37.2,16,0.0,974.6,8.15,32.0,76,25.7,20.5,0,5,10,0,2026-03-18T14:25:22.855408+05:30
Amravati,Maharashtra,20.9374,77.7796,36.7,19,0.0,967.3,7.85,44.6,86,29.2,23.6,0,5,10,0,2026-03-18T14:25:22.855416+05:30
Latur,Maharashtra,18.4088,76.5604,31.1,34,0.0,941.1,8.55,36.4,105,40.4,33.2,0,5,7,0,2026-03-18T14:25:22.855423+05:30
Nanded,Maharashtra,19.1383,77.3091,31.2,38,0.0,970.5,7.85,32.4,111,46.0,38.9,0,5,7,0,2026-03-18T14:25:22.855430+05:30
Gulbarga,Karnataka,17.3297,76.8343,29.3,45,0.0,960.3,8.65,28.8,104,33.4,27.1,4,5,7,1,2026-03-18T14:25:22.855437+05:30
Bidar,Karnataka,17.9104,77.5199,29.0,47,0.0,937.4,8.6,34.6,97,32.9,26.1,4,5,7,1,2026-03-18T14:25:22.855444+05:30
Hospet,Karnataka,15.2689,76.3909,31.2,41,0.0,956.5,8.9,41.0,109,34.2,27.4,0,5,7,1,2026-03-18T14:25:22.855451+05:30
Tirupur,Tamil Nadu,11.1085,77.3411,33.5,40,0.0,975.1,9.15,29.2,81,19.8,17.3,0,5,7,1,2026-03-18T14:25:22.855458+05:30
Alappuzha,Kerala,9.4981,76.3388,28.1,80,0.0,1008.4,8.7,20.2,77,21.1,19.7,7,0,4,1,2026-03-18T14:25:22.855465+05:30
Munnar,Kerala,10.0889,77.0595,26.6,67,0.0,858.4,9.55,30.2,90,22.2,19.8,7,5,7,1,2026-03-18T14:25:22.855472+05:30
Silchar,Assam,24.8333,92.7789,27.0,67,0.0,1007.9,7.8,43.6,94,30.0,19.2,7,5,4,1,2026-03-18T14:25:22.855479+05:30
Dibrugarh,Assam,27.4728,94.912,23.4,75,0.0,998.2,7.55,28.1,84,32.6,20.3,3,5,7,1,2026-03-18T14:25:22.855486+05:30
