city,state,latitude,longitude,temp,humidity,rain,pressure,uv_index,wind_gusts,aqi,pm10,pm2_5,no2,co,o3,so2,mosquito_risk,arthritis_risk,migraine_risk,frizz_risk,updated_at
Delhi,Delhi,28.6139,77.209,25.8,96,0.1,974.3,6.0,25.6,133,43.0,39.5,27.1,357.0,62.0,17.5,10,5,3,1,2026-07-08T04:34:08.134188+05:30
Mumbai,Maharashtra,19.076,72.8777,26.2,95,0.4,1001.1,1.5,45.0,54,33.6,16.8,2.4,112.0,52.0,2.5,10,5,0,1,2026-07-08T04:34:08.134229+05:30
Bangalore,Karnataka,12.9716,77.5946,21.3,85,0.0,909.9,8.95,69.5,28,4.7,2.9,3.6,114.0,41.0,2.6,3,5,7,1,2026-07-08T04:34:08.134245+05:30
Hyderabad,Telangana,17.385,78.4867,24.5,80,0.0,947.5,8.9,58.7,25,5.2,3.6,5.8,126.0,36.0,4.4,3,5,7,1,2026-07-08T04:34:08.134255+05:30
Chennai,Tamil Nadu,13.0827,80.2707,30.8,51,0.0,1004.8,8.05,55.4,62,26.1,14.4,10.9,157.0,37.0,7.6,0,5,4,1,2026-07-08T04:34:08.134263+05:30
Kolkata,West Bengal,22.5726,88.3639,27.5,86,0.0,1000.6,6.3,30.6,65,27.6,19.9,7.5,172.0,64.0,6.9,7,5,4,1,2026-07-08T04:34:08.134271+05:30
Pune,Maharashtra,18.5204,73.8567,23.6,95,0.1,940.3,2.25,53.3,24,0.8,0.8,2.6,103.0,49.0,1.8,6,5,3,1,2026-07-08T04:34:08.134278+05:30
Ahmedabad,Gujarat,23.0225,72.5714,26.8,97,0.3,992.8,1.9,29.2,90,42.1,22.4,8.9,179.0,45.0,6.0,10,5,3,1,2026-07-08T04:34:08.134284+05:30
Jaipur,Rajasthan,26.9124,75.7873,26.7,91,0.0,950.8,7.3,32.8,60,18.2,15.0,16.7,271.0,53.0,5.6,7,5,7,1,2026-07-08T04:34:08.134291+05:30
Lucknow,Uttar Pradesh,26.8467,80.9462,26.3,96,0.1,984.0,5.65,46.1,69,28.6,27.4,16.7,281.0,51.0,18.4,10,5,3,1,2026-07-08T04:34:08.134302+05:30
Kanpur,Uttar Pradesh,26.4499,80.3319,26.8,93,0.0,981.5,6.9,45.7,68,24.7,24.0,18.1,214.0,41.0,13.6,7,5,7,1,2026-07-08T04:34:08.134309+05:30
Chandigarh,Chandigarh,30.7333,76.7794,26.8,93,0.0,960.7,5.55,31.3,153,65.9,60.5,26.9,378.0,41.0,10.6,7,5,3,1,2026-07-08T04:34:08.134316+05:30
Srinagar,Jammu and Kashmir,34.0837,74.7973,17.6,98,0.0,835.5,9.0,27.4,72,32.1,30.5,23.9,688.0,3.0,0.0,3,10,7,1,2026-07-08T04:34:08.134323+05:30
Jammu,Jammu and Kashmir,32.7266,74.857,25.1,89,0.0,964.9,8.45,33.8,120,40.2,39.0,40.1,599.0,10.0,3.2,7,5,7,1,2026-07-08T04:34:08.134329+05:30
Amritsar,Punjab,31.634,74.8723,28.2,90,0.1,971.5,7.5,31.7,164,150.4,91.7,22.8,792.0,51.0,9.3,10,5,7,1,2026-07-08T04:34:08.134337+05:30
Ludhiana,Punjab,30.901,75.8573,27.4,90,0.0,970.1,7.2,31.0,159,205.8,91.5,24.4,806.0,42.0,15.2,7,5,7,1,2026-07-08T04:34:08.134344+05:30
Jalandhar,Punjab,31.326,75.5762,27.5,92,0.0,971.0,7.4,29.2,161,231.0,105.0,25.9,909.0,42.0,15.8,7,5,7,1,2026-07-08T04:34:08.134350+05:30
Dehradun,Uttarakhand,30.6284,78.0322,19.2,99,0.0,825.2,3.45,16.9,65,23.4,23.2,15.1,247.0,69.0,2.4,3,10,3,1,2026-07-08T04:34:08.134356+05:30
Shimla,Himachal Pradesh,31.1048,77.1734,15.5,96,0.0,779.1,8.15,17.3,68,19.9,17.6,15.7,291.0,72.0,3.7,3,10,7,0,2026-07-08T04:34:08.134362+05:30
Manali,Himachal Pradesh,32.2396,77.1887,19.9,76,0.0,814.5,8.4,36.4,40,3.5,3.5,19.9,199.0,83.0,0.1,3,5,7,0,2026-07-08T04:34:08.134372+05:30
Gurgaon,Haryana,28.4595,77.0266,26.1,95,0.1,972.5,5.95,24.8,125,35.7,32.1,25.2,328.0,65.0,18.6,10,5,3,1,2026-07-08T04:34:08.134378+05:30
Noida,Uttar Pradesh,28.5355,77.391,25.9,97,0.1,975.6,5.9,26.3,125,35.7,32.1,25.2,297.0,65.0,18.6,10,5,3,1,2026-07-08T04:34:08.134384+05:30
Ghaziabad,Uttar Pradesh,28.6692,77.4538,25.8,97,0.2,973.9,6.75,29.2,124,37.3,36.6,18.7,344.0,61.0,3.9,10,5,7,1,2026-07-08T04:34:08.134390+05:30
Faridabad,Haryana,28.4089,77.3178,25.8,97,0.1,974.9,6.0,29.9,125,35.7,32.1,25.2,305.0,65.0,18.6,10,5,3,1,2026-07-08T04:34:08.134396+05:30
Meerut,Uttar Pradesh,28.9845,77.7064,25.8,97,0.2,972.9,6.45,32.8,124,37.3,36.6,18.7,401.0,61.0,3.9,10,5,7,1,2026-07-08T04:34:08.134402+05:30
Agra,Uttar Pradesh,27.1767,78.0081,25.8,96,0.2,977.6,6.25,32.8,101,19.8,19.4,9.2,260.0,86.0,5.1,10,5,7,1,2026-07-08T04:34:08.134408+05:30
Varanasi,Uttar Pradesh,25.3176,82.9739,27.7,83,0.0,989.2,6.9,32.4,65,20.6,19.4,23.5,502.0,39.0,26.8,7,5,7,1,2026-07-08T04:34:08.134414+05:30
Prayagraj,Uttar Pradesh,25.4358,81.8463,27.7,82,0.0,986.6,7.45,33.8,59,18.5,17.6,19.0,273.0,46.0,20.2,7,5,7,1,2026-07-08T04:34:08.134421+05:30
Gorakhpur,Uttar Pradesh,26.7606,83.3732,26.1,96,0.0,989.9,6.25,37.8,73,29.1,28.5,12.3,247.0,76.0,10.7,7,5,7,1,2026-07-08T04:34:08.134427+05:30
Bareilly,Uttar Pradesh,28.367,79.4304,26.0,95,0.0,978.0,5.45,43.2,82,21.7,21.5,7.5,277.0,92.0,6.0,7,5,3,1,2026-07-08T04:34:08.134435+05:30
Aligarh,Uttar Pradesh,27.8974,78.088,25.7,97,0.1,976.2,4.7,33.5,106,22.2,21.9,10.4,281.0,82.0,3.7,10,5,3,1,2026-07-08T04:34:08.134459+05:30
Moradabad,Uttar Pradesh,28.8386,78.7733,25.9,96,0.2,975.2,7.65,33.1,133,19.7,19.7,7.9,287.0,89.0,5.8,10,5,7,1,2026-07-08T04:34:08.134468+05:30
Saharanpur,Uttar Pradesh,29.9637,77.546,26.3,97,0.0,967.7,3.25,26.3,151,60.1,57.4,16.0,362.0,66.0,6.0,7,5,3,1,2026-07-08T04:34:08.134474+05:30
Jhansi,Uttar Pradesh,25.4484,78.5685,25.7,97,0.1,966.4,5.4,27.0,62,11.8,11.7,7.3,245.0,79.0,3.3,10,5,3,1,2026-07-08T04:34:11.389619+05:30
Surat,Gujarat,21.1702,72.8311,26.8,93,0.8,997.1,1.35,40.3,93,31.5,20.8,22.2,367.0,30.0,34.3,10,5,3,1,2026-07-08T04:34:11.389652+05:30
Vadodara,Gujarat,22.3072,73.1812,25.8,96,0.3,994.8,1.85,37.1,84,31.1,23.4,18.0,166.0,29.0,6.0,10,5,3,1,2026-07-08T04:34:11.389662+05:30
Rajkot,Gujarat,22.3039,70.8022,27.3,90,0.0,985.4,6.95,44.6,75,30.2,15.3,5.0,99.0,44.0,4.9,7,5,7,1,2026-07-08T04:34:11.389672+05:30
Thane,Maharashtra,19.2183,72.9781,25.3,97,0.3,1000.4,1.05,37.8,54,33.6,16.8,2.4,124.0,52.0,2.5,10,5,0,1,2026-07-08T04:34:11.389680+05:30
Nagpur,Maharashtra,21.1458,79.0882,26.1,83,0.0,964.4,6.25,46.8,47,9.9,7.1,9.2,179.0,41.0,8.4,7,5,7,1,2026-07-08T04:34:11.389688+05:30
Nashik,Maharashtra,19.9975,73.7898,22.9,97,0.0,937.1,3.4,51.8,25,2.8,1.9,3.6,117.0,52.0,0.8,3,5,3,1,2026-07-08T04:34:11.389695+05:30
Aurangabad,Maharashtra,19.8762,75.3433,22.9,98,0.0,935.5,6.15,55.4,20,4.1,4.0,8.2,151.0,52.0,5.9,3,5,7,1,2026-07-08T04:34:11.389702+05:30
Solapur,Maharashtra,17.6599,75.9064,25.1,81,0.0,951.0,7.05,58.7,20,1.9,1.6,3.4,107.0,38.0,1.9,7,5,7,1,2026-07-08T04:34:11.389710+05:30
Kolhapur,Maharashtra,16.705,74.2433,22.3,95,0.1,942.1,7.8,69.8,19,3.1,2.1,2.0,97.0,40.0,1.2,6,5,7,1,2026-07-08T04:34:11.389717+05:30
Goa,Goa,15.2993,74.124,23.6,98,0.0,995.1,8.5,50.0,56,21.5,11.8,1.2,163.0,42.0,0.5,3,5,7,1,2026-07-08T04:34:11.389724+05:30
Jodhpur,Rajasthan,26.2389,73.0243,27.9,91,0.0,973.2,8.15,33.8,91,253.3,72.6,5.3,154.0,52.0,3.5,7,5,7,1,2026-07-08T04:34:11.389731+05:30
Udaipur,Rajasthan,24.5854,73.7125,25.3,91,0.0,937.3,7.0,36.4,56,39.8,24.2,8.6,156.0,47.0,3.9,7,5,7,1,2026-07-08T04:34:11.389737+05:30
Kota,Rajasthan,25.2138,75.8648,25.4,96,0.1,969.4,7.1,40.3,58,14.3,13.5,15.9,260.0,47.0,7.0,10,5,7,1,2026-07-08T04:34:11.389744+05:30
Bikaner,Rajasthan,28.0229,73.3119,29.5,75,0.0,972.0,8.45,69.8,95,236.1,74.3,3.2,147.0,58.0,4.1,7,5,7,1,2026-07-08T04:34:11.389751+05:30
Ajmer,Rajasthan,26.4499,74.6399,26.0,90,0.0,945.4,8.1,39.6,59,18.7,15.3,15.3,196.0,46.0,3.8,7,5,7,1,2026-07-08T04:34:11.389758+05:30
Gwalior,Madhya Pradesh,26.2183,78.1828,25.4,98,0.2,972.0,6.65,27.7,72,18.0,17.7,9.1,252.0,78.0,4.1,10,5,7,1,2026-07-08T04:34:11.389765+05:30
Indore,Madhya Pradesh,22.7196,75.8577,24.4,96,0.1,938.4,7.7,46.4,78,14.8,14.8,12.5,289.0,53.0,3.7,6,5,7,1,2026-07-08T04:34:11.389772+05:30
Bhopal,Madhya Pradesh,23.2599,77.4126,24.4,96,0.1,943.1,2.55,41.4,68,18.6,18.3,9.2,282.0,62.0,2.6,6,5,3,1,2026-07-08T04:34:11.389778+05:30
Jabalpur,Madhya Pradesh,23.1815,79.9864,25.0,93,0.0,951.6,2.95,45.0,52,11.9,11.8,7.5,232.0,61.0,7.4,7,5,3,1,2026-07-08T04:34:11.389785+05:30
Ujjain,Madhya Pradesh,23.1765,75.7885,24.9,96,0.2,944.1,2.85,43.9,71,14.6,14.6,11.7,333.0,51.0,3.5,6,5,3,1,2026-07-08T04:34:11.389792+05:30
Visakhapatnam,Andhra Pradesh,17.6868,83.2185,27.7,87,0.0,998.9,9.0,54.0,74,34.5,25.3,17.5,338.0,76.0,31.5,7,5,7,1,2026-07-08T04:34:11.389799+05:30
Vijayawada,Andhra Pradesh,16.5062,80.648,29.7,59,0.0,998.2,8.95,52.6,60,18.6,12.3,9.1,127.0,36.0,5.1,4,5,7,1,2026-07-08T04:34:11.389805+05:30
Guntur,Andhra Pradesh,16.3067,80.4365,29.9,57,0.0,999.5,8.45,52.9,58,16.8,10.7,8.8,122.0,32.0,5.1,4,5,7,1,2026-07-08T04:34:11.389813+05:30
Nellore,Andhra Pradesh,14.4426,79.9865,30.1,56,0.0,1002.7,8.5,55.4,46,18.3,9.7,4.4,132.0,42.0,2.6,0,5,4,1,2026-07-08T04:34:11.389820+05:30
Kurnool,Andhra Pradesh,15.8281,78.0373,26.2,74,0.0,973.2,5.85,61.9,24,2.8,2.1,4.8,100.0,37.0,4.1,7,5,3,1,2026-07-08T04:34:11.389827+05:30
Kakinada,Andhra Pradesh,16.9891,82.2475,29.5,63,0.0,1002.6,8.65,53.3,66,32.0,20.6,4.6,161.0,78.0,3.1,7,5,4,1,2026-07-08T04:34:11.389834+05:30
Tirupati,Andhra Pradesh,13.6288,79.4192,28.4,58,0.0,989.0,8.65,54.0,40,14.1,8.4,5.8,109.0,37.0,2.1,4,5,7,1,2026-07-08T04:34:11.389841+05:30
Warangal,Telangana,17.9689,79.5941,26.9,71,0.0,972.9,6.95,51.1,38,8.1,5.7,7.7,141.0,36.0,4.1,7,5,7,1,2026-07-08T04:34:11.389847+05:30
Nizamabad,Telangana,18.6725,78.0941,26.2,74,0.0,957.5,7.7,50.8,22,3.5,2.9,4.7,120.0,40.0,2.0,7,5,7,1,2026-07-08T04:34:11.389854+05:30
Mysore,Karnataka,12.2958,76.6396,21.6,89,0.0,927.6,7.4,64.1,26,4.3,2.6,2.3,93.0,41.0,1.3,3,5,7,1,2026-07-08T04:34:11.389861+05:30
Mangalore,Karnataka,12.9141,74.856,24.1,94,0.3,1007.0,8.7,60.8,64,22.5,11.8,5.0,138.0,28.0,1.4,6,5,4,1,2026-07-08T04:34:11.389868+05:30
Hubli-Dharwad,Karnataka,15.3647,75.124,22.0,96,0.0,937.1,7.55,66.6,19,1.0,0.7,1.4,87.0,41.0,0.7,3,5,7,1,2026-07-08T04:34:11.389875+05:30
Belgaum,Karnataka,15.8497,74.4977,21.7,97,0.1,921.2,2.85,70.9,20,3.7,2.2,1.5,91.0,40.0,0.9,6,5,3,1,2026-07-08T04:34:14.639893+05:30
Coimbatore,Tamil Nadu,11.0168,76.9558,22.0,97,0.0,961.0,8.7,59.8,38,11.4,7.2,4.3,166.0,33.0,2.1,3,5,7,1,2026-07-08T04:34:14.639923+05:30
Madurai,Tamil Nadu,9.9252,78.1198,27.1,62,0.0,992.7,8.7,44.3,66,44.8,30.3,29.2,168.0,0.0,4.7,7,5,7,1,2026-07-08T04:34:14.639933+05:30
Trichy,Tamil Nadu,10.7905,78.7047,28.4,64,0.0,999.0,8.75,63.4,55,21.5,13.6,4.4,99.0,40.0,2.5,7,5,7,1,2026-07-08T04:34:14.639941+05:30
Salem,Tamil Nadu,11.6643,78.146,24.2,85,0.0,976.7,8.8,46.1,55,35.5,23.2,17.1,291.0,22.0,6.2,3,5,7,1,2026-07-08T04:34:14.639948+05:30
Tirunelveli,Tamil Nadu,8.7139,77.7567,27.4,70,0.0,1003.4,8.6,56.5,57,21.0,13.9,5.8,121.0,33.0,2.3,7,5,4,1,2026-07-08T04:34:14.639955+05:30
Vellore,Tamil Nadu,12.9165,79.1325,28.1,59,0.0,982.8,8.7,55.1,42,14.8,9.4,5.4,113.0,40.0,2.6,4,5,7,1,2026-07-08T04:34:14.639961+05:30
Erode,Tamil Nadu,11.341,77.7172,25.2,79,0.0,988.6,8.7,42.5,55,23.4,16.9,13.5,137.0,27.0,3.4,7,5,7,1,2026-07-08T04:34:14.639968+05:30
Kochi,Kerala,9.9312,76.2673,24.9,98,0.1,1009.9,8.35,43.2,69,25.5,19.1,13.1,108.0,17.0,3.3,6,0,4,1,2026-07-08T04:34:14.639975+05:30
Thiruvananthapuram,Kerala,8.5241,76.9366,24.0,96,0.1,1009.7,8.4,56.5,55,21.1,13.0,4.2,86.0,39.0,1.8,6,0,4,1,2026-07-08T04:34:14.639981+05:30
Kozhikode,Kerala,11.2588,75.7804,23.4,99,0.1,1009.0,8.5,35.6,64,26.0,12.3,1.9,180.0,43.0,1.1,6,0,4,1,2026-07-08T04:34:14.639988+05:30
Thrissur,Kerala,10.5276,76.2144,23.6,100,0.0,1008.3,8.55,44.6,66,25.8,19.5,10.4,175.0,19.0,2.8,3,0,4,1,2026-07-08T04:34:14.639995+05:30
Kannur,Kerala,11.8745,75.3704,23.6,98,0.3,1008.3,8.3,39.6,61,15.8,7.6,6.1,144.0,25.0,1.3,6,0,4,1,2026-07-08T04:34:14.640001+05:30
Patna,Bihar,25.5941,85.1376,26.7,97,0.2,993.8,8.15,25.2,79,43.1,41.6,24.2,305.0,34.0,12.9,10,5,7,1,2026-07-08T04:34:14.640008+05:30
Gaya,Bihar,24.7914,85.0002,26.9,90,0.0,987.0,7.45,26.3,64,19.0,16.8,10.2,244.0,55.0,8.3,7,5,7,1,2026-07-08T04:34:14.640014+05:30
Muzaffarpur,Bihar,26.1209,85.3647,27.0,95,0.0,994.0,6.95,29.5,73,27.1,27.0,16.8,302.0,56.0,9.5,7,5,7,1,2026-07-08T04:34:14.640020+05:30
Bhagalpur,Bihar,25.2425,87.0117,27.1,95,0.0,995.2,7.75,22.0,77,48.1,46.2,25.3,342.0,30.0,29.0,7,5,7,1,2026-07-08T04:34:14.640026+05:30
Ranchi,Jharkhand,23.3441,85.3096,23.2,97,0.0,931.8,8.5,50.0,59,20.4,17.9,12.7,197.0,56.0,17.0,3,5,7,1,2026-07-08T04:34:14.640032+05:30
Jamshedpur,Jharkhand,22.8046,86.2029,25.6,97,0.1,985.1,8.35,33.5,66,25.5,21.6,18.7,488.0,46.0,15.5,10,5,7,1,2026-07-08T04:34:14.640038+05:30
Dhanbad,Jharkhand,23.7957,86.4304,25.4,97,0.1,974.3,6.85,32.8,94,43.8,40.9,45.7,1535.0,25.0,98.1,10,5,7,1,2026-07-08T04:34:14.640044+05:30
Bokaro,Jharkhand,23.6693,86.1511,25.0,96,0.2,977.9,8.2,37.8,78,29.7,27.3,25.8,716.0,45.0,64.1,10,5,7,1,2026-07-08T04:34:14.640050+05:30
Bhubaneswar,Odisha,20.2961,85.8245,28.1,76,0.0,997.2,7.95,57.2,67,24.6,15.6,5.4,175.0,72.0,5.1,7,5,7,1,2026-07-08T04:34:14.640056+05:30
Cuttack,Odisha,20.4625,85.8828,28.0,77,0.0,999.0,8.2,42.8,67,24.6,15.6,5.4,176.0,72.0,5.1,7,5,7,1,2026-07-08T04:34:14.640062+05:30
Rourkela,Odisha,22.2604,84.8536,25.7,97,0.0,978.8,4.85,41.0,62,27.5,22.5,14.1,264.0,52.0,18.2,7,5,3,1,2026-07-08T04:34:14.640068+05:30
Raipur,Chhattisgarh,21.2514,81.6296,26.6,78,0.0,967.3,6.3,55.4,59,18.7,15.5,17.6,137.0,45.0,29.3,7,5,7,1,2026-07-08T04:34:14.640074+05:30
Bhilai,Chhattisgarh,21.1938,81.3509,26.3,81,0.0,967.6,6.65,60.1,59,18.1,15.0,18.6,239.0,42.0,31.5,7,5,7,1,2026-07-08T04:34:14.640080+05:30
Guwahati,Assam,26.1158,91.7086,25.8,98,0.1,996.6,8.4,22.7,40,15.6,15.5,8.3,189.0,38.0,2.6,10,5,7,1,2026-07-08T04:34:14.640087+05:30
Agartala,Tripura,23.8315,91.2868,24.8,99,0.7,1002.2,1.0,37.4,43,11.9,9.3,9.2,129.0,51.0,1.9,6,5,0,1,2026-07-08T04:34:14.640093+05:30
Shillong,Meghalaya,25.5788,91.8933,19.9,96,0.0,853.7,4.15,25.9,26,3.7,3.6,3.5,184.0,58.0,2.7,3,10,3,1,2026-07-08T04:34:14.640099+05:30
Imphal,Manipur,24.817,93.9368,22.8,97,0.1,919.3,2.5,31.3,22,2.5,2.5,4.5,206.0,42.0,0.7,6,5,3,1,2026-07-08T04:34:14.640106+05:30
Aizawl,Mizoram,23.7271,92.7176,19.0,99,0.1,889.2,1.2,42.5,25,0.5,0.5,1.8,104.0,56.0,1.1,6,10,3,1,2026-07-08T04:34:14.640113+05:30
Kohima,Nagaland,25.6701,94.1077,20.3,97,0.0,852.0,4.35,20.5,19,1.7,1.6,3.5,172.0,49.0,0.7,3,5,3,1,2026-07-08T04:34:14.640119+05:30
Gangtok,Sikkim,27.3314,88.6138,18.2,99,0.0,833.9,6.3,29.2,43,2.6,2.6,3.4,365.0,93.0,1.9,3,10,7,1,2026-07-08T04:34:14.640126+05:30
Siliguri,West Bengal,26.7271,88.3953,25.2,98,0.0,987.8,6.1,27.0,54,19.7,19.6,9.8,358.0,77.0,4.0,7,5,7,1,2026-07-08T04:34:17.893402+05:30
Durgapur,West Bengal,23.5204,87.3119,26.3,96,0.1,989.2,8.35,28.8,90,43.3,38.8,34.1,566.0,30.0,51.2,10,5,7,1,2026-07-08T04:34:17.893435+05:30
Asansol,West Bengal,23.6739,86.9524,26.6,95,0.1,987.8,7.6,36.4,80,39.9,36.1,35.7,302.0,30.0,55.2,10,5,7,1,2026-07-08T04:34:17.893489+05:30
Pondicherry,Puducherry,11.9139,79.8145,29.3,56,0.0,1007.0,8.2,52.6,64,32.7,20.5,15.0,249.0,32.0,4.4,4,5,4,1,2026-07-08T04:34:17.893507+05:30
Port Blair,Andaman and Nicobar Islands,11.6234,92.7265,27.0,80,0.0,1008.2,8.05,43.2,59,28.1,16.1,0.1,94.0,67.0,0.5,7,0,4,1,2026-07-08T04:34:17.893520+05:30
Haridwar,Uttarakhand,29.9457,78.1642,26.3,97,0.0,966.2,4.5,20.5,130,49.8,47.6,13.1,252.0,66.0,4.2,7,5,3,1,2026-07-08T04:34:17.893532+05:30
Rishikesh,Uttarakhand,30.0869,78.2676,25.3,95,0.0,958.9,1.9,15.1,86,30.2,28.8,5.6,287.0,92.0,2.0,7,5,3,1,2026-07-08T04:34:17.893543+05:30
Nainital,Uttarakhand,29.3919,79.4542,17.5,100,0.1,800.5,7.7,31.3,57,7.7,7.7,3.8,221.0,98.0,1.8,6,10,7,1,2026-07-08T04:34:17.893553+05:30
Mussoorie,Uttarakhand,30.4599,78.0664,16.9,100,0.0,797.5,3.4,19.4,88,21.2,20.5,10.8,285.0,73.0,7.2,3,10,3,1,2026-07-08T04:34:17.893561+05:30
Dharamshala,Himachal Pradesh,32.219,76.3234,20.5,87,0.0,862.7,8.05,34.6,41,5.2,4.8,5.9,370.0,87.0,0.1,3,5,7,1,2026-07-08T04:34:17.893569+05:30
Dalhousie,Himachal Pradesh,32.5387,75.971,16.0,97,0.0,798.1,8.65,26.3,90,13.5,13.2,18.7,289.0,45.0,1.0,3,10,7,0,2026-07-08T04:34:17.893578+05:30
Patiala,Punjab,30.3398,76.3869,27.1,90,0.0,969.8,7.55,32.0,153,99.0,59.8,22.2,534.0,52.0,9.3,7,5,7,1,2026-07-08T04:34:17.893587+05:30
Bhatinda,Punjab,30.211,74.9455,29.3,80,0.0,974.5,7.65,27.7,183,925.7,244.0,20.9,541.0,50.0,12.5,7,5,7,1,2026-07-08T04:34:17.893595+05:30
Rohtak,Haryana,28.8955,76.6066,27.3,90,0.0,973.2,6.2,31.7,140,480.6,92.0,35.0,514.0,54.0,27.3,7,5,7,1,2026-07-08T04:34:17.893603+05:30
Panipat,Haryana,29.3909,76.9635,26.6,95,0.0,972.1,7.5,32.0,129,382.8,79.2,18.2,495.0,73.0,7.6,7,5,7,1,2026-07-08T04:34:17.893611+05:30
Mathura,Uttar Pradesh,27.4924,77.6737,26.4,96,0.2,977.1,6.5,31.0,110,19.8,19.3,9.4,256.0,86.0,3.5,10,5,7,1,2026-07-08T04:34:17.893619+05:30
Vrindavan,Uttar Pradesh,27.5823,77.7027,26.5,96,0.1,977.5,6.55,30.2,110,19.8,19.3,9.4,262.0,86.0,3.5,10,5,7,1,2026-07-08T04:34:17.893626+05:30
Ayodhya,Uttar Pradesh,26.7922,82.1998,26.2,95,0.0,987.1,6.15,38.9,71,36.3,34.7,15.5,268.0,62.0,13.8,7,5,7,1,2026-07-08T04:34:17.893634+05:30
Ratlam,Madhya Pradesh,23.3315,75.0367,24.8,98,0.0,945.4,5.45,45.4,63,12.8,12.7,9.8,223.0,52.0,3.6,3,5,3,1,2026-07-08T04:34:17.893644+05:30
Sagar,Madhya Pradesh,23.8388,78.7378,24.5,96,0.0,939.4,3.55,39.2,56,16.8,16.7,7.5,249.0,67.0,2.0,3,5,3,1,2026-07-08T04:34:17.893652+05:30
Satna,Madhya Pradesh,24.6005,80.8322,25.9,89,0.0,961.2,7.2,44.3,53,19.2,18.7,8.9,229.0,61.0,9.7,7,5,7,1,2026-07-08T04:34:17.893660+05:30
Akola,Maharashtra,20.7002,77.0082,26.0,84,0.0,966.0,6.6,49.0,30,7.9,5.8,7.7,149.0,39.0,4.8,7,5,7,1,2026-07-08T04:34:17.893669+05:30
Amravati,Maharashtra,20.9374,77.7796,25.5,87,0.0,958.4,7.75,47.9,33,8.9,6.1,7.1,160.0,41.0,4.3,7,5,7,1,2026-07-08T04:34:17.893678+05:30
Latur,Maharashtra,18.4088,76.5604,24.0,86,0.0,932.7,8.05,57.2,21,2.2,1.9,3.4,117.0,41.0,1.8,3,5,7,1,2026-07-08T04:34:17.893687+05:30
Nanded,Maharashtra,19.1383,77.3091,26.2,78,0.0,960.7,6.9,49.0,23,2.7,2.5,5.7,126.0,40.0,3.8,7,5,7,1,2026-07-08T04:34:17.893694+05:30
Gulbarga,Karnataka,17.3297,76.8343,25.3,78,0.0,953.0,6.9,63.0,20,2.6,1.9,4.1,107.0,37.0,2.4,7,5,7,1,2026-07-08T04:34:17.893702+05:30
Bidar,Karnataka,17.9104,77.5199,24.3,81,0.0,928.9,8.45,61.6,21,4.0,2.7,4.4,112.0,39.0,2.4,3,5,7,1,2026-07-08T04:34:17.893708+05:30
Hospet,Karnataka,15.2689,76.3909,23.7,85,0.0,952.4,7.95,68.8,19,2.4,1.6,2.0,92.0,39.0,1.2,3,5,7,1,2026-07-08T04:34:17.893715+05:30
Tirupur,Tamil Nadu,11.1085,77.3411,23.4,89,0.0,974.6,8.8,66.2,56,26.0,19.2,17.4,124.0,20.0,4.2,3,5,7,1,2026-07-08T04:34:17.893721+05:30
Alappuzha,Kerala,9.4981,76.3388,25.4,96,0.0,1010.0,8.45,45.4,65,26.0,15.3,7.8,79.0,32.0,3.0,7,0,4,1,2026-07-08T04:34:17.893727+05:30
Munnar,Kerala,10.0889,77.0595,16.5,98,0.2,856.6,6.85,57.2,42,10.1,6.8,4.1,84.0,24.0,0.9,6,10,7,1,2026-07-08T04:34:17.893734+05:30
Silchar,Assam,24.8333,92.7789,25.4,97,0.1,1001.0,0.55,30.6,33,5.8,5.7,6.9,137.0,44.0,1.8,10,5,0,1,2026-07-08T04:34:17.893740+05:30
Dibrugarh,Assam,27.4728,94.912,25.6,96,0.1,990.6,6.1,31.3,47,10.9,10.0,7.6,155.0,43.0,1.0,10,5,7,1,2026-07-08T04:34:17.893746+05:30
