city,state,latitude,longitude,temp,humidity,rain,pressure,uv_index,wind_gusts,aqi,pm10,pm2_5,no2,co,o3,so2,mosquito_risk,arthritis_risk,migraine_risk,frizz_risk,updated_at
Delhi,Delhi,28.6139,77.209,26.5,58,0.0,982.4,7.6,26.6,150,256.1,66.6,22.2,535.0,98.0,19.4,4,5,7,1,2026-05-10T02:19:41.675651+05:30
Mumbai,Maharashtra,19.076,72.8777,28.3,84,0.0,1006.3,7.9,52.2,81,49.5,20.3,14.0,531.0,74.0,9.7,7,5,4,1,2026-05-10T02:19:41.675695+05:30
Bangalore,Karnataka,12.9716,77.5946,21.4,94,0.0,909.5,9.45,37.8,49,13.9,13.7,16.9,212.0,40.0,7.8,3,5,7,1,2026-05-10T02:19:41.675711+05:30
Hyderabad,Telangana,17.385,78.4867,26.8,57,0.0,952.2,9.25,37.8,51,13.2,11.9,10.3,259.0,61.0,5.6,4,5,7,1,2026-05-10T02:19:41.675722+05:30
Chennai,Tamil Nadu,13.0827,80.2707,26.5,90,0.0,1005.3,8.0,35.6,20,6.1,4.5,6.0,216.0,44.0,1.7,7,5,4,1,2026-05-10T02:19:41.675732+05:30
Kolkata,West Bengal,22.5726,88.3639,25.5,86,0.0,1006.1,8.85,33.8,151,87.3,82.2,26.9,685.0,78.0,20.8,7,5,4,1,2026-05-10T02:19:41.675741+05:30
Pune,Maharashtra,18.5204,73.8567,28.0,39,0.0,946.1,8.5,37.1,91,34.5,23.6,21.0,297.0,74.0,15.9,4,5,7,0,2026-05-10T02:19:41.675749+05:30
Ahmedabad,Gujarat,23.0225,72.5714,32.6,20,0.0,999.4,8.1,33.8,63,33.6,21.8,14.5,211.0,57.0,7.6,0,5,7,0,2026-05-10T02:19:41.675767+05:30
Jaipur,Rajasthan,26.9124,75.7873,26.2,49,0.0,958.8,8.15,26.6,159,434.9,78.7,6.6,389.0,113.0,8.3,4,5,7,0,2026-05-10T02:19:41.675775+05:30
Lucknow,Uttar Pradesh,26.8467,80.9462,24.5,65,0.0,993.3,7.95,33.5,112,77.3,54.4,21.2,467.0,84.0,14.8,3,5,7,1,2026-05-10T02:19:41.675783+05:30
Kanpur,Uttar Pradesh,26.4499,80.3319,25.5,65,0.0,991.1,8.1,31.7,161,88.2,42.1,11.1,412.0,97.0,9.0,7,5,7,1,2026-05-10T02:19:41.675791+05:30
Chandigarh,Chandigarh,30.7333,76.7794,22.4,73,0.0,968.0,7.7,38.5,93,62.4,41.0,25.7,413.0,64.0,7.6,3,5,7,1,2026-05-10T02:19:41.675798+05:30
Srinagar,Jammu and Kashmir,34.0837,74.7973,9.6,77,0.0,838.7,8.35,16.2,88,69.8,43.8,31.3,333.0,35.0,5.5,3,5,7,0,2026-05-10T02:19:41.675807+05:30
Jammu,Jammu and Kashmir,32.7266,74.857,24.6,58,0.0,971.5,7.95,34.2,151,74.0,52.5,28.3,405.0,42.0,5.1,0,5,7,0,2026-05-10T02:19:41.675814+05:30
Amritsar,Punjab,31.634,74.8723,26.6,57,0.0,979.4,8.35,32.4,152,141.1,57.7,6.9,550.0,95.0,8.5,4,5,7,1,2026-05-10T02:19:41.675824+05:30
Ludhiana,Punjab,30.901,75.8573,24.9,64,0.0,977.7,7.95,34.2,146,346.5,78.7,9.1,788.0,107.0,10.9,3,5,7,1,2026-05-10T02:19:41.675831+05:30
Jalandhar,Punjab,31.326,75.5762,24.6,62,0.0,978.6,8.15,33.1,145,276.6,70.8,11.5,593.0,97.0,12.2,3,5,7,1,2026-05-10T02:19:41.675838+05:30
Dehradun,Uttarakhand,30.6284,78.0322,10.9,100,0.0,827.5,8.1,35.6,70,46.6,25.6,25.8,273.0,51.0,1.0,3,10,7,0,2026-05-10T02:19:41.675847+05:30
Shimla,Himachal Pradesh,31.1048,77.1734,10.4,82,0.0,781.8,8.2,42.1,106,101.3,42.0,23.6,327.0,84.0,9.5,3,10,7,0,2026-05-10T02:19:41.675854+05:30
Manali,Himachal Pradesh,32.2396,77.1887,7.7,41,0.0,812.0,9.2,42.8,80,37.4,10.6,28.4,231.0,102.0,0.6,0,5,7,1,2026-05-10T02:19:41.675861+05:30
Gurgaon,Haryana,28.4595,77.0266,25.3,62,0.0,980.5,7.75,30.2,842,644.5,110.1,15.7,468.0,102.0,15.0,7,5,7,1,2026-05-10T02:19:41.675869+05:30
Noida,Uttar Pradesh,28.5355,77.391,23.8,71,0.0,983.8,7.65,23.0,842,644.5,110.1,15.7,559.0,102.0,15.0,3,5,7,1,2026-05-10T02:19:41.675876+05:30
Ghaziabad,Uttar Pradesh,28.6692,77.4538,23.8,71,0.0,981.9,7.6,26.6,118,122.5,51.1,11.6,421.0,97.0,9.6,3,5,7,1,2026-05-10T02:19:41.675883+05:30
Faridabad,Haryana,28.4089,77.3178,25.6,63,0.0,983.1,7.7,23.8,842,644.5,110.1,15.7,498.0,102.0,15.0,7,5,7,1,2026-05-10T02:19:41.675890+05:30
Meerut,Uttar Pradesh,28.9845,77.7064,23.5,74,0.0,980.8,7.55,26.6,118,122.5,51.1,11.6,463.0,97.0,9.6,3,5,7,1,2026-05-10T02:19:41.675898+05:30
Agra,Uttar Pradesh,27.1767,78.0081,25.0,64,0.0,987.1,7.95,24.8,866,700.4,95.9,8.2,374.0,101.0,11.6,7,5,7,1,2026-05-10T02:19:41.675905+05:30
Varanasi,Uttar Pradesh,25.3176,82.9739,24.1,74,0.0,996.8,8.55,33.8,129,63.3,52.3,19.4,510.0,85.0,17.1,3,5,7,1,2026-05-10T02:19:41.675912+05:30
Prayagraj,Uttar Pradesh,25.4358,81.8463,25.5,65,0.0,995.0,8.45,32.4,129,65.9,58.8,15.9,528.0,97.0,15.1,7,5,7,1,2026-05-10T02:19:41.675920+05:30
Gorakhpur,Uttar Pradesh,26.7606,83.3732,24.2,67,0.0,998.0,8.4,32.4,116,65.9,56.0,13.6,488.0,110.0,13.0,3,5,7,1,2026-05-10T02:19:41.675928+05:30
Bareilly,Uttar Pradesh,28.367,79.4304,23.3,67,0.0,987.0,7.9,24.5,98,48.4,40.9,26.3,519.0,54.0,5.9,3,5,7,1,2026-05-10T02:19:41.675935+05:30
Aligarh,Uttar Pradesh,27.8974,78.088,24.1,68,0.0,984.8,7.75,24.1,409,365.1,73.1,9.4,442.0,102.0,16.1,3,5,7,1,2026-05-10T02:19:41.675942+05:30
Moradabad,Uttar Pradesh,28.8386,78.7733,23.1,71,0.0,983.5,7.75,27.7,109,112.7,64.5,29.8,597.0,57.0,11.6,3,5,7,1,2026-05-10T02:19:41.675948+05:30
Saharanpur,Uttar Pradesh,29.9637,77.546,23.2,77,0.0,975.1,7.4,30.6,104,69.6,54.2,28.7,557.0,48.0,10.9,3,5,7,1,2026-05-10T02:19:41.675955+05:30
Jhansi,Uttar Pradesh,25.4484,78.5685,24.3,64,0.0,976.6,8.4,26.6,87,73.6,34.7,4.1,344.0,112.0,8.2,3,5,7,1,2026-05-10T02:19:45.053643+05:30
Surat,Gujarat,21.1702,72.8311,30.1,49,0.0,1003.6,7.75,32.0,104,35.7,23.0,27.9,291.0,58.0,43.0,0,5,4,1,2026-05-10T02:19:45.053676+05:30
Vadodara,Gujarat,22.3072,73.1812,31.0,37,0.0,1001.3,8.1,30.2,75,52.5,41.3,40.3,301.0,34.0,17.6,0,5,4,0,2026-05-10T02:19:45.053687+05:30
Rajkot,Gujarat,22.3039,70.8022,25.7,87,0.0,993.1,7.7,40.0,54,29.6,10.5,6.5,174.0,55.0,5.5,7,5,7,1,2026-05-10T02:19:45.053697+05:30
Thane,Maharashtra,19.2183,72.9781,27.4,83,0.0,1005.6,7.9,48.6,81,49.5,20.3,14.0,444.0,74.0,9.7,7,5,4,1,2026-05-10T02:19:45.053706+05:30
Nagpur,Maharashtra,21.1458,79.0882,28.8,46,0.0,971.7,8.9,36.7,92,50.1,34.5,23.1,314.0,72.0,14.1,4,5,7,0,2026-05-10T02:19:45.053713+05:30
Nashik,Maharashtra,19.9975,73.7898,26.9,43,0.0,943.7,8.2,40.3,88,46.8,27.7,21.6,311.0,85.0,14.5,4,5,7,0,2026-05-10T02:19:45.053721+05:30
Aurangabad,Maharashtra,19.8762,75.3433,29.9,26,0.0,942.0,9.05,45.0,83,44.7,23.9,17.4,316.0,94.0,10.3,4,5,7,0,2026-05-10T02:19:45.053728+05:30
Solapur,Maharashtra,17.6599,75.9064,29.9,34,0.0,954.9,9.1,33.8,81,28.1,21.8,12.8,311.0,84.0,5.0,4,5,7,0,2026-05-10T02:19:45.053735+05:30
Kolhapur,Maharashtra,16.705,74.2433,26.1,65,0.0,945.7,8.9,44.6,112,89.4,71.5,36.6,310.0,44.0,9.8,7,5,7,1,2026-05-10T02:19:45.053743+05:30
Goa,Goa,15.2993,74.124,27.4,86,0.0,995.2,6.25,48.6,88,59.0,44.8,13.8,377.0,89.0,5.4,7,5,7,1,2026-05-10T02:19:45.053750+05:30
Jodhpur,Rajasthan,26.2389,73.0243,32.0,19,0.0,980.2,8.35,32.4,91,89.4,34.1,13.5,439.0,62.0,5.7,0,5,7,0,2026-05-10T02:19:45.053758+05:30
Udaipur,Rajasthan,24.5854,73.7125,30.0,23,0.0,944.5,8.8,40.0,47,27.1,13.0,5.4,192.0,65.0,3.0,4,5,7,0,2026-05-10T02:19:45.053766+05:30
Kota,Rajasthan,25.2138,75.8648,28.1,47,0.0,976.9,8.35,33.8,72,77.1,29.5,4.6,404.0,99.0,7.3,4,5,7,0,2026-05-10T02:19:45.053773+05:30
Bikaner,Rajasthan,28.0229,73.3119,29.2,39,0.0,979.6,8.35,28.8,120,102.7,36.4,3.0,291.0,103.0,5.8,4,5,7,0,2026-05-10T02:19:45.053781+05:30
Ajmer,Rajasthan,26.4499,74.6399,27.4,43,0.0,953.0,8.35,33.5,86,122.9,39.5,6.7,339.0,97.0,6.3,4,5,7,0,2026-05-10T02:19:45.053788+05:30
Gwalior,Madhya Pradesh,26.2183,78.1828,25.2,64,0.0,982.2,8.2,24.1,121,156.0,47.7,4.5,309.0,111.0,8.1,7,5,7,1,2026-05-10T02:19:45.053795+05:30
Indore,Madhya Pradesh,22.7196,75.8577,30.0,23,0.0,946.4,8.65,41.4,57,47.6,25.0,9.2,376.0,67.0,5.1,4,5,7,0,2026-05-10T02:19:45.053801+05:30
Bhopal,Madhya Pradesh,23.2599,77.4126,28.0,34,0.0,951.2,8.65,45.0,62,32.8,20.4,4.1,268.0,98.0,6.1,4,5,7,0,2026-05-10T02:19:45.053808+05:30
Jabalpur,Madhya Pradesh,23.1815,79.9864,26.4,52,0.0,959.0,8.8,32.4,67,36.0,24.2,17.1,279.0,63.0,5.3,4,5,7,0,2026-05-10T02:19:45.053815+05:30
Ujjain,Madhya Pradesh,23.1765,75.7885,29.2,23,0.0,951.7,8.6,43.2,55,39.3,24.6,7.3,384.0,64.0,4.7,4,5,7,0,2026-05-10T02:19:45.053823+05:30
Visakhapatnam,Andhra Pradesh,17.6868,83.2185,26.4,91,0.0,1003.3,8.95,35.3,75,28.5,26.5,19.5,1147.0,26.0,6.4,7,5,4,1,2026-05-10T02:19:45.053830+05:30
Vijayawada,Andhra Pradesh,16.5062,80.648,27.6,83,0.0,1002.0,9.05,38.9,44,11.8,10.5,9.5,177.0,29.0,4.8,7,5,4,1,2026-05-10T02:19:45.053836+05:30
Guntur,Andhra Pradesh,16.3067,80.4365,27.8,81,0.0,1003.2,8.9,39.6,44,9.5,8.6,9.6,170.0,29.0,6.8,7,5,4,1,2026-05-10T02:19:45.053843+05:30
Nellore,Andhra Pradesh,14.4426,79.9865,26.8,88,0.0,1004.5,9.2,37.1,21,6.6,4.6,3.9,173.0,39.0,1.9,7,5,4,1,2026-05-10T02:19:45.053850+05:30
Kurnool,Andhra Pradesh,15.8281,78.0373,27.9,62,0.0,975.6,8.8,42.1,36,4.0,3.5,4.4,136.0,40.0,1.1,7,5,7,1,2026-05-10T02:19:45.053858+05:30
Kakinada,Andhra Pradesh,16.9891,82.2475,26.9,89,0.0,1006.9,9.15,36.7,22,7.7,5.3,1.1,179.0,48.0,0.4,7,5,4,1,2026-05-10T02:19:45.053866+05:30
Tirupati,Andhra Pradesh,13.6288,79.4192,25.2,91,0.0,989.6,9.25,40.7,34,23.8,22.4,29.1,193.0,7.0,5.6,7,5,7,1,2026-05-10T02:19:45.053872+05:30
Warangal,Telangana,17.9689,79.5941,27.1,66,0.0,977.6,9.15,44.6,59,11.5,11.0,9.8,207.0,54.0,8.8,7,5,7,1,2026-05-10T02:19:45.053879+05:30
Nizamabad,Telangana,18.6725,78.0941,28.1,50,0.0,962.4,9.1,31.7,74,27.5,23.3,13.4,280.0,78.0,5.2,4,5,7,1,2026-05-10T02:19:45.053885+05:30
Mysore,Karnataka,12.2958,76.6396,22.7,88,0.0,926.1,9.1,36.4,57,13.1,12.8,15.4,224.0,45.0,5.1,3,5,7,1,2026-05-10T02:19:45.053892+05:30
Mangalore,Karnataka,12.9141,74.856,25.5,96,0.0,1004.5,8.95,41.4,70,32.2,25.4,14.7,252.0,57.0,4.6,7,5,4,1,2026-05-10T02:19:45.053899+05:30
Hubli-Dharwad,Karnataka,15.3647,75.124,23.9,89,0.0,938.3,7.2,47.9,54,34.9,31.0,24.4,325.0,41.0,2.6,3,5,7,1,2026-05-10T02:19:45.053906+05:30
Belgaum,Karnataka,15.8497,74.4977,24.2,71,0.0,923.1,8.3,40.0,80,57.5,44.4,25.7,265.0,64.0,7.3,3,5,7,1,2026-05-10T02:19:48.420255+05:30
Coimbatore,Tamil Nadu,11.0168,76.9558,23.5,96,0.0,958.9,9.15,34.6,58,10.5,10.3,13.2,260.0,44.0,4.0,3,5,7,1,2026-05-10T02:19:48.420291+05:30
Madurai,Tamil Nadu,9.9252,78.1198,25.5,92,0.0,989.5,3.4,39.2,62,16.5,16.3,21.2,386.0,33.0,7.9,7,5,3,1,2026-05-10T02:19:48.420304+05:30
Trichy,Tamil Nadu,10.7905,78.7047,25.8,92,0.0,997.0,4.85,40.0,39,9.9,9.4,20.3,257.0,24.0,15.1,7,5,3,1,2026-05-10T02:19:48.420313+05:30
Salem,Tamil Nadu,11.6643,78.146,25.3,87,0.0,975.0,8.5,50.8,52,16.5,16.3,18.7,228.0,42.0,9.4,7,5,7,1,2026-05-10T02:19:48.420321+05:30
Tirunelveli,Tamil Nadu,8.7139,77.7567,26.0,90,0.0,1000.2,3.85,34.9,57,11.7,11.5,8.2,283.0,53.0,3.7,7,5,0,1,2026-05-10T02:19:48.420329+05:30
Vellore,Tamil Nadu,12.9165,79.1325,24.4,98,0.0,982.8,9.25,34.9,52,21.5,19.7,24.2,277.0,20.0,12.9,3,5,7,1,2026-05-10T02:19:48.420336+05:30
Erode,Tamil Nadu,11.341,77.7172,24.7,94,0.0,986.7,6.2,33.5,59,14.2,13.9,16.4,290.0,48.0,6.2,3,5,7,1,2026-05-10T02:19:48.420344+05:30
Kochi,Kerala,9.9312,76.2673,26.1,94,0.0,1005.0,8.65,24.1,70,22.4,21.8,15.7,329.0,41.0,3.7,7,5,4,1,2026-05-10T02:19:48.420352+05:30
Thiruvananthapuram,Kerala,8.5241,76.9366,24.9,96,0.0,1004.6,2.8,25.2,50,11.0,10.4,5.2,435.0,103.0,3.4,3,5,0,1,2026-05-10T02:19:48.420359+05:30
Kozhikode,Kerala,11.2588,75.7804,25.4,94,0.0,1004.6,8.85,38.2,48,11.4,9.6,4.3,272.0,99.0,2.3,7,5,4,1,2026-05-10T02:19:48.420367+05:30
Thrissur,Kerala,10.5276,76.2144,24.6,98,0.0,1003.6,8.95,32.4,71,21.4,20.8,12.5,271.0,54.0,3.6,3,5,4,1,2026-05-10T02:19:48.420375+05:30
Kannur,Kerala,11.8745,75.3704,25.4,92,0.0,1004.1,8.75,45.4,64,22.0,19.5,14.8,255.0,56.0,3.0,7,5,4,1,2026-05-10T02:19:48.420382+05:30
Patna,Bihar,25.5941,85.1376,23.9,83,0.0,1000.9,8.65,34.2,144,61.7,53.4,12.6,389.0,118.0,19.5,3,5,4,1,2026-05-10T02:19:48.420389+05:30
Gaya,Bihar,24.7914,85.0002,22.2,78,0.0,993.4,8.7,33.5,121,68.5,50.9,14.0,347.0,94.0,12.7,3,5,7,1,2026-05-10T02:19:48.420396+05:30
Muzaffarpur,Bihar,26.1209,85.3647,23.2,82,0.0,1001.3,8.65,31.0,151,65.7,59.3,14.8,433.0,99.0,17.3,3,5,4,1,2026-05-10T02:19:48.420402+05:30
Bhagalpur,Bihar,25.2425,87.0117,24.0,86,0.0,1002.0,8.6,25.2,151,71.0,59.1,15.4,372.0,114.0,14.0,3,5,4,1,2026-05-10T02:19:48.420408+05:30
Ranchi,Jharkhand,23.3441,85.3096,21.1,72,0.0,936.7,9.15,46.1,102,78.9,49.2,9.9,258.0,112.0,14.1,3,5,7,0,2026-05-10T02:19:48.420415+05:30
Jamshedpur,Jharkhand,22.8046,86.2029,23.8,89,0.0,990.9,8.95,32.4,100,32.8,27.4,13.6,326.0,81.0,18.2,3,5,7,1,2026-05-10T02:19:48.420422+05:30
Dhanbad,Jharkhand,23.7957,86.4304,22.8,86,0.0,980.1,8.9,29.9,156,105.0,95.2,70.1,355.0,44.0,87.6,3,5,7,1,2026-05-10T02:19:48.420429+05:30
Bokaro,Jharkhand,23.6693,86.1511,22.1,85,0.0,983.9,8.9,27.0,158,122.5,104.3,62.5,2207.0,50.0,74.4,3,5,7,1,2026-05-10T02:19:48.420457+05:30
Bhubaneswar,Odisha,20.2961,85.8245,25.6,94,0.0,1002.5,9.05,32.4,55,24.1,21.7,18.7,321.0,32.0,5.3,7,5,4,1,2026-05-10T02:19:48.420466+05:30
Cuttack,Odisha,20.4625,85.8828,25.6,95,0.0,1004.4,9.1,28.1,55,24.1,21.7,18.7,301.0,32.0,5.3,7,5,4,1,2026-05-10T02:19:48.420473+05:30
Rourkela,Odisha,22.2604,84.8536,25.5,74,0.0,984.5,8.85,38.2,126,82.2,64.3,36.4,465.0,50.0,35.3,7,5,7,1,2026-05-10T02:19:48.420480+05:30
Raipur,Chhattisgarh,21.2514,81.6296,27.0,54,0.0,972.9,8.9,35.6,90,36.4,27.5,14.6,455.0,112.0,6.6,4,5,7,1,2026-05-10T02:19:48.420486+05:30
Bhilai,Chhattisgarh,21.1938,81.3509,26.3,61,0.0,973.1,8.95,33.1,92,39.9,31.3,29.8,431.0,94.0,7.0,7,5,7,1,2026-05-10T02:19:48.420492+05:30
Guwahati,Assam,26.1158,91.7086,21.8,87,0.0,1002.5,8.6,24.1,94,41.4,36.7,17.7,351.0,34.0,3.0,3,5,4,1,2026-05-10T02:19:48.420499+05:30
Agartala,Tripura,23.8315,91.2868,23.5,88,0.0,1006.5,7.65,32.0,158,110.4,100.1,59.8,538.0,25.0,10.7,3,5,4,1,2026-05-10T02:19:48.420506+05:30
Shillong,Meghalaya,25.5788,91.8933,17.5,69,0.0,857.6,9.05,24.8,77,36.6,26.8,13.0,342.0,49.0,1.9,3,5,7,0,2026-05-10T02:19:48.420512+05:30
Imphal,Manipur,24.817,93.9368,17.9,86,0.0,922.8,7.0,22.0,96,57.9,51.5,34.8,500.0,22.0,5.8,3,10,7,0,2026-05-10T02:19:48.420519+05:30
Aizawl,Mizoram,23.7271,92.7176,16.2,81,0.0,891.4,8.55,14.0,90,63.6,43.9,12.7,386.0,53.0,4.3,3,10,7,0,2026-05-10T02:19:48.420526+05:30
Kohima,Nagaland,25.6701,94.1077,14.2,94,0.0,854.1,7.95,24.1,75,38.6,28.3,15.5,276.0,35.0,1.8,3,10,7,0,2026-05-10T02:19:48.420532+05:30
Gangtok,Sikkim,27.3314,88.6138,11.6,90,0.0,837.4,7.1,34.9,60,22.1,16.2,14.4,313.0,69.0,1.1,3,10,7,0,2026-05-10T02:19:48.420539+05:30
Siliguri,West Bengal,26.7271,88.3953,23.0,61,0.0,994.1,8.1,20.9,107,65.7,51.8,32.9,653.0,56.0,5.4,3,5,7,0,2026-05-10T02:19:51.789055+05:30
Durgapur,West Bengal,23.5204,87.3119,23.0,91,0.0,995.3,8.85,32.8,145,67.8,62.6,38.0,630.0,60.0,48.9,3,5,7,1,2026-05-10T02:19:51.789085+05:30
Asansol,West Bengal,23.6739,86.9524,22.9,89,0.0,994.0,8.85,26.3,139,71.7,65.0,40.0,758.0,59.0,59.2,3,5,7,1,2026-05-10T02:19:51.789096+05:30
Pondicherry,Puducherry,11.9139,79.8145,25.6,94,0.1,1006.5,8.0,39.6,21,4.2,3.1,3.2,310.0,45.0,0.4,10,5,4,1,2026-05-10T02:19:51.789105+05:30
Port Blair,Andaman and Nicobar Islands,11.6234,92.7265,24.5,97,0.0,1005.6,9.0,29.9,26,2.4,1.7,0.4,139.0,57.0,0.1,3,5,4,1,2026-05-10T02:19:51.789113+05:30
Haridwar,Uttarakhand,29.9457,78.1642,21.1,79,0.0,973.4,7.45,28.8,96,63.8,46.1,20.9,332.0,67.0,8.2,3,5,7,1,2026-05-10T02:19:51.789120+05:30
Rishikesh,Uttarakhand,30.0869,78.2676,18.8,87,0.0,966.0,7.55,23.8,105,68.7,39.2,13.5,356.0,101.0,6.2,3,10,7,1,2026-05-10T02:19:51.789127+05:30
Nainital,Uttarakhand,29.3919,79.4542,11.8,85,0.0,804.2,8.1,32.8,73,44.1,33.2,22.8,290.0,56.0,3.8,3,10,7,0,2026-05-10T02:19:51.789134+05:30
Mussoorie,Uttarakhand,30.4599,78.0664,12.3,86,0.0,801.2,7.95,39.2,88,65.7,43.9,31.6,302.0,59.0,11.0,3,10,7,0,2026-05-10T02:19:51.789141+05:30
Dharamshala,Himachal Pradesh,32.219,76.3234,20.1,63,0.0,868.9,7.7,35.6,86,44.9,23.0,11.8,290.0,78.0,1.6,3,5,7,0,2026-05-10T02:19:51.789148+05:30
Dalhousie,Himachal Pradesh,32.5387,75.971,9.5,95,0.0,800.4,7.95,35.3,118,71.9,47.3,28.4,475.0,58.0,4.0,3,10,7,0,2026-05-10T02:19:51.789156+05:30
Patiala,Punjab,30.3398,76.3869,23.8,68,0.0,977.3,7.6,34.9,268,448.9,78.5,9.4,461.0,102.0,9.5,3,5,7,1,2026-05-10T02:19:51.789162+05:30
Bhatinda,Punjab,30.211,74.9455,27.4,50,0.0,982.4,8.25,29.2,324,523.4,109.7,9.7,453.0,98.0,12.4,4,5,7,1,2026-05-10T02:19:51.789170+05:30
Rohtak,Haryana,28.8955,76.6066,24.6,68,0.0,980.9,7.7,29.9,298,482.4,90.8,20.9,526.0,95.0,25.4,3,5,7,1,2026-05-10T02:19:51.789177+05:30
Panipat,Haryana,29.3909,76.9635,23.6,71,0.0,979.5,7.55,31.0,624,640.7,96.2,15.0,414.0,97.0,17.0,3,5,7,1,2026-05-10T02:19:51.789183+05:30
Mathura,Uttar Pradesh,27.4924,77.6737,24.9,63,0.0,986.1,7.9,22.0,721,681.7,102.7,7.9,401.0,101.0,11.2,3,5,7,1,2026-05-10T02:19:51.789190+05:30
Vrindavan,Uttar Pradesh,27.5823,77.7027,25.0,62,0.0,986.6,7.9,22.3,721,681.7,102.7,7.9,421.0,101.0,11.2,7,5,7,1,2026-05-10T02:19:51.789197+05:30
Ayodhya,Uttar Pradesh,26.7922,82.1998,23.8,66,0.0,995.7,8.2,32.0,119,77.8,63.6,29.0,454.0,73.0,11.8,3,5,7,1,2026-05-10T02:19:51.789204+05:30
Ratlam,Madhya Pradesh,23.3315,75.0367,28.2,26,0.0,952.6,8.5,43.6,50,23.3,15.3,4.0,245.0,80.0,3.8,4,5,7,0,2026-05-10T02:19:51.789211+05:30
Sagar,Madhya Pradesh,23.8388,78.7378,24.8,46,0.0,947.6,8.65,35.3,104,40.4,27.4,5.6,298.0,122.0,7.8,0,5,7,0,2026-05-10T02:19:51.789218+05:30
Satna,Madhya Pradesh,24.6005,80.8322,24.5,54,0.0,969.4,8.65,28.4,148,52.7,43.0,9.9,389.0,118.0,14.0,0,5,7,0,2026-05-10T02:19:51.789224+05:30
Akola,Maharashtra,20.7002,77.0082,28.7,38,0.0,972.7,8.9,39.6,83,73.6,37.6,26.4,287.0,58.0,11.9,4,5,7,0,2026-05-10T02:19:51.789232+05:30
Amravati,Maharashtra,20.9374,77.7796,28.1,38,0.0,965.6,8.85,38.2,82,72.4,37.5,27.2,307.0,55.0,9.3,4,5,7,0,2026-05-10T02:19:51.789239+05:30
Latur,Maharashtra,18.4088,76.5604,27.5,39,0.0,937.7,9.1,37.4,78,40.3,27.7,12.3,297.0,82.0,5.5,4,5,7,0,2026-05-10T02:19:51.789246+05:30
Nanded,Maharashtra,19.1383,77.3091,28.5,42,0.0,966.2,9.0,31.0,79,55.4,33.5,13.6,309.0,90.0,4.9,4,5,7,0,2026-05-10T02:19:51.789253+05:30
Gulbarga,Karnataka,17.3297,76.8343,28.0,45,0.0,956.8,9.1,35.3,64,19.0,16.2,13.2,298.0,84.0,5.9,4,5,7,0,2026-05-10T02:19:51.789259+05:30
Bidar,Karnataka,17.9104,77.5199,26.3,52,0.0,933.7,9.15,34.9,63,23.5,20.7,16.5,315.0,73.0,7.0,4,5,7,0,2026-05-10T02:19:51.789266+05:30
Hospet,Karnataka,15.2689,76.3909,26.5,57,0.0,954.0,9.2,39.2,45,13.5,12.0,13.6,198.0,52.0,7.1,4,5,7,1,2026-05-10T02:19:51.789273+05:30
Tirupur,Tamil Nadu,11.1085,77.3411,24.0,96,0.0,972.5,7.0,28.1,70,19.0,18.6,20.3,249.0,42.0,6.1,3,5,7,1,2026-05-10T02:19:51.789280+05:30
Alappuzha,Kerala,9.4981,76.3388,26.1,95,0.0,1005.2,7.55,30.2,61,19.6,18.9,13.1,352.0,69.0,4.5,7,5,4,1,2026-05-10T02:19:51.789286+05:30
Munnar,Kerala,10.0889,77.0595,16.9,97,0.0,852.5,5.4,22.7,40,3.8,3.7,10.1,169.0,40.0,1.9,3,10,3,1,2026-05-10T02:19:51.789294+05:30
Silchar,Assam,24.8333,92.7789,22.8,94,0.0,1005.4,8.1,15.8,125,83.6,64.7,27.4,719.0,24.0,8.5,3,5,4,1,2026-05-10T02:19:51.789301+05:30
Dibrugarh,Assam,27.4728,94.912,22.7,95,0.0,995.9,8.75,45.4,103,53.0,48.0,36.9,701.0,7.0,2.2,3,5,7,1,2026-05-10T02:19:51.789307+05:30
