city,state,latitude,longitude,temp,humidity,rain,pressure,uv_index,wind_gusts,aqi,pm10,pm2_5,mosquito_risk,arthritis_risk,migraine_risk,frizz_risk,updated_at
Delhi,Delhi,28.6139,77.209,32.4,33,0.0,981.9,6.65,19.8,202,367.9,76.6,0,5,7,0,2026-04-18T22:16:04.570828+05:30
Mumbai,Maharashtra,19.076,72.8777,30.4,76,0.0,1008.1,7.75,22.7,95,45.2,28.9,3,0,4,1,2026-04-18T22:16:04.570871+05:30
Bangalore,Karnataka,12.9716,77.5946,28.0,41,0.0,912.7,9.0,35.3,109,24.4,22.1,4,5,7,0,2026-04-18T22:16:04.570886+05:30
Hyderabad,Telangana,17.385,78.4867,30.0,50,0.0,954.2,9.25,38.5,124,56.7,50.5,4,5,7,1,2026-04-18T22:16:04.570897+05:30
Chennai,Tamil Nadu,13.0827,80.2707,28.6,83,0.0,1007.9,8.55,32.0,39,11.6,7.2,7,5,4,1,2026-04-18T22:16:04.570906+05:30
Kolkata,West Bengal,22.5726,88.3639,27.9,90,0.0,1005.9,8.85,24.1,77,25.8,20.8,7,5,4,1,2026-04-18T22:16:04.570919+05:30
Pune,Maharashtra,18.5204,73.8567,30.0,66,0.0,949.3,8.45,45.0,162,50.3,42.4,7,5,7,1,2026-04-18T22:16:04.570928+05:30
Ahmedabad,Gujarat,23.0225,72.5714,31.7,27,0.0,1001.5,8.15,27.7,63,49.4,34.2,0,5,4,0,2026-04-18T22:16:04.570935+05:30
Jaipur,Rajasthan,26.9124,75.7873,32.2,21,0.0,959.5,7.95,28.1,228,165.3,43.5,0,5,7,0,2026-04-18T22:16:04.570943+05:30
Lucknow,Uttar Pradesh,26.8467,80.9462,30.2,50,0.0,991.7,7.85,32.0,117,206.8,51.6,0,5,7,1,2026-04-18T22:16:04.570950+05:30
Kanpur,Uttar Pradesh,26.4499,80.3319,28.4,59,0.0,990.1,7.85,27.0,134,324.1,65.4,4,5,7,1,2026-04-18T22:16:04.570957+05:30
Chandigarh,Chandigarh,30.7333,76.7794,25.9,55,0.0,968.5,7.1,29.2,85,45.4,29.1,4,5,7,1,2026-04-18T22:16:04.570965+05:30
Srinagar,Jammu and Kashmir,34.0837,74.7973,11.6,89,0.0,845.7,5.85,30.6,79,49.1,30.0,3,10,3,0,2026-04-18T22:16:04.570972+05:30
Jammu,Jammu and Kashmir,32.7266,74.857,25.1,46,0.0,973.6,7.0,42.5,62,58.8,35.0,4,5,7,0,2026-04-18T22:16:04.570979+05:30
Amritsar,Punjab,31.634,74.8723,25.7,47,0.0,980.9,7.9,43.2,73,48.5,29.3,4,5,7,0,2026-04-18T22:16:04.570986+05:30
Ludhiana,Punjab,30.901,75.8573,29.8,41,0.0,978.5,7.45,32.4,81,76.1,46.1,4,5,7,0,2026-04-18T22:16:04.570996+05:30
Jalandhar,Punjab,31.326,75.5762,27.0,47,0.0,979.8,7.65,42.1,76,84.1,42.5,4,5,7,0,2026-04-18T22:16:04.571003+05:30
Dehradun,Uttarakhand,30.6284,78.0322,17.6,43,0.0,831.5,7.55,46.1,60,32.2,13.9,0,5,7,0,2026-04-18T22:16:04.571009+05:30
Shimla,Himachal Pradesh,31.1048,77.1734,17.3,45,0.0,787.2,7.7,47.9,75,46.2,21.1,0,5,7,0,2026-04-18T22:16:04.571016+05:30
Manali,Himachal Pradesh,32.2396,77.1887,16.9,43,0.0,823.9,8.9,25.2,86,15.4,6.9,0,5,7,0,2026-04-18T22:16:04.571024+05:30
Gurgaon,Haryana,28.4595,77.0266,29.7,47,0.0,980.2,6.9,15.8,469,828.9,117.6,4,5,7,1,2026-04-18T22:16:04.571032+05:30
Noida,Uttar Pradesh,28.5355,77.391,31.4,38,0.0,983.3,6.95,22.0,469,828.9,117.6,0,5,7,0,2026-04-18T22:16:04.571038+05:30
Ghaziabad,Uttar Pradesh,28.6692,77.4538,30.5,40,0.0,981.5,6.65,19.4,153,236.6,66.6,0,5,7,0,2026-04-18T22:16:04.571045+05:30
Faridabad,Haryana,28.4089,77.3178,30.6,41,0.0,982.5,7.25,25.2,469,828.9,117.6,0,5,7,0,2026-04-18T22:16:04.571052+05:30
Meerut,Uttar Pradesh,28.9845,77.7064,29.8,43,0.0,980.4,6.75,20.9,153,236.6,66.6,4,5,7,0,2026-04-18T22:16:04.571058+05:30
Agra,Uttar Pradesh,27.1767,78.0081,29.4,49,0.0,986.2,7.7,16.9,450,291.5,67.3,4,5,7,1,2026-04-18T22:16:04.571067+05:30
Varanasi,Uttar Pradesh,25.3176,82.9739,31.4,43,0.0,995.4,8.25,25.6,129,94.1,50.1,0,5,7,1,2026-04-18T22:16:04.571073+05:30
Prayagraj,Uttar Pradesh,25.4358,81.8463,31.7,42,0.0,994.4,7.85,28.8,120,83.4,36.2,0,5,7,1,2026-04-18T22:16:04.571083+05:30
Gorakhpur,Uttar Pradesh,26.7606,83.3732,29.1,69,0.0,995.6,8.1,28.4,151,50.4,25.3,7,5,7,1,2026-04-18T22:16:04.571089+05:30
Bareilly,Uttar Pradesh,28.367,79.4304,27.6,50,0.0,985.2,7.6,31.0,120,88.5,38.0,4,5,7,1,2026-04-18T22:16:04.571098+05:30
Aligarh,Uttar Pradesh,27.8974,78.088,29.7,44,0.0,984.2,7.35,25.6,249,312.9,83.8,4,5,7,1,2026-04-18T22:16:04.571104+05:30
Moradabad,Uttar Pradesh,28.8386,78.7733,27.4,51,0.0,982.4,7.4,28.8,114,123.4,49.9,4,5,7,1,2026-04-18T22:16:04.571110+05:30
Saharanpur,Uttar Pradesh,29.9637,77.546,26.3,59,0.0,975.0,7.0,23.4,107,120.1,53.3,4,5,7,1,2026-04-18T22:16:04.571117+05:30
Jhansi,Uttar Pradesh,25.4484,78.5685,30.7,47,0.0,976.8,7.85,27.0,122,84.5,31.3,0,5,7,1,2026-04-18T22:16:07.829376+05:30
Surat,Gujarat,21.1702,72.8311,29.0,72,0.0,1006.5,7.8,27.0,112,49.2,38.1,7,5,4,1,2026-04-18T22:16:07.829407+05:30
Vadodara,Gujarat,22.3072,73.1812,30.9,49,0.0,1003.8,8.15,19.4,95,65.7,50.8,0,5,4,1,2026-04-18T22:16:07.829417+05:30
Rajkot,Gujarat,22.3039,70.8022,28.5,39,0.0,994.9,7.8,25.9,78,21.1,11.8,4,5,7,0,2026-04-18T22:16:07.829425+05:30
Thane,Maharashtra,19.2183,72.9781,28.8,76,0.0,1007.6,7.85,33.5,95,45.2,28.9,7,5,4,1,2026-04-18T22:16:07.829432+05:30
Nagpur,Maharashtra,21.1458,79.0882,31.1,48,0.0,972.2,7.6,21.6,142,29.2,26.7,0,5,7,1,2026-04-18T22:16:07.829440+05:30
Nashik,Maharashtra,19.9975,73.7898,28.7,54,0.0,946.7,8.05,29.9,128,33.6,25.8,4,5,7,1,2026-04-18T22:16:07.829447+05:30
Aurangabad,Maharashtra,19.8762,75.3433,30.5,29,0.0,944.7,7.5,36.7,107,20.5,16.1,0,5,7,0,2026-04-18T22:16:07.829455+05:30
Solapur,Maharashtra,17.6599,75.9064,31.4,46,0.0,957.1,7.95,17.6,160,48.2,43.4,0,5,7,1,2026-04-18T22:16:07.829462+05:30
Kolhapur,Maharashtra,16.705,74.2433,26.0,86,0.0,948.8,8.65,44.6,148,44.1,32.4,7,5,7,1,2026-04-18T22:16:07.829469+05:30
Goa,Goa,15.2993,74.124,29.2,77,0.0,998.0,9.0,31.3,77,62.6,29.2,7,5,7,1,2026-04-18T22:16:07.829476+05:30
Jodhpur,Rajasthan,26.2389,73.0243,30.4,30,0.0,982.8,8.15,28.1,99,163.4,24.0,0,5,7,0,2026-04-18T22:16:07.829483+05:30
Udaipur,Rajasthan,24.5854,73.7125,29.6,32,0.0,947.7,8.75,29.5,74,15.2,7.9,4,5,7,0,2026-04-18T22:16:07.829490+05:30
Kota,Rajasthan,25.2138,75.8648,31.8,35,0.0,977.7,8.25,23.0,142,84.3,38.9,0,5,7,0,2026-04-18T22:16:07.829497+05:30
Bikaner,Rajasthan,28.0229,73.3119,32.9,28,0.0,981.1,7.8,29.9,79,49.9,16.7,0,5,7,0,2026-04-18T22:16:07.829503+05:30
Ajmer,Rajasthan,26.4499,74.6399,29.0,33,0.0,954.8,8.15,32.0,67,54.8,17.9,4,5,7,0,2026-04-18T22:16:07.829509+05:30
Gwalior,Madhya Pradesh,26.2183,78.1828,32.0,43,0.0,982.3,7.95,28.4,129,108.5,36.2,0,5,7,1,2026-04-18T22:16:07.829516+05:30
Indore,Madhya Pradesh,22.7196,75.8577,28.0,42,0.0,948.4,8.15,25.6,77,35.5,32.9,4,5,7,0,2026-04-18T22:16:07.829523+05:30
Bhopal,Madhya Pradesh,23.2599,77.4126,30.6,38,0.0,953.5,7.7,24.5,96,25.2,22.8,0,5,7,0,2026-04-18T22:16:07.829530+05:30
Jabalpur,Madhya Pradesh,23.1815,79.9864,30.6,46,0.0,960.5,7.45,24.5,108,19.7,18.3,0,5,7,1,2026-04-18T22:16:07.829536+05:30
Ujjain,Madhya Pradesh,23.1765,75.7885,28.4,42,0.0,954.2,8.5,24.1,66,43.7,41.0,4,5,7,0,2026-04-18T22:16:07.829543+05:30
Visakhapatnam,Andhra Pradesh,17.6868,83.2185,28.0,88,0.0,1004.8,9.15,34.2,61,22.2,15.4,7,5,4,1,2026-04-18T22:16:07.829550+05:30
Vijayawada,Andhra Pradesh,16.5062,80.648,28.7,80,0.0,1003.4,8.8,26.3,57,18.1,14.4,7,5,4,1,2026-04-18T22:16:07.829556+05:30
Guntur,Andhra Pradesh,16.3067,80.4365,28.5,84,0.0,1004.7,8.9,29.5,60,20.4,16.5,7,5,4,1,2026-04-18T22:16:07.829563+05:30
Nellore,Andhra Pradesh,14.4426,79.9865,28.5,79,0.0,1006.3,8.7,32.8,53,11.1,8.0,7,5,4,1,2026-04-18T22:16:07.829570+05:30
Kurnool,Andhra Pradesh,15.8281,78.0373,34.6,37,0.0,976.2,9.2,28.4,115,42.8,37.4,0,5,7,1,2026-04-18T22:16:07.829578+05:30
Kakinada,Andhra Pradesh,16.9891,82.2475,28.3,85,0.0,1008.6,9.1,29.9,52,17.9,10.9,7,0,4,1,2026-04-18T22:16:07.829584+05:30
Tirupati,Andhra Pradesh,13.6288,79.4192,29.3,70,0.0,992.7,9.0,32.0,81,16.1,14.5,7,5,7,1,2026-04-18T22:16:07.829591+05:30
Warangal,Telangana,17.9689,79.5941,31.8,57,0.0,978.6,8.8,26.6,111,37.8,34.3,0,5,7,1,2026-04-18T22:16:07.829597+05:30
Nizamabad,Telangana,18.6725,78.0941,31.5,44,0.0,964.9,8.85,37.4,134,42.1,37.7,0,5,7,1,2026-04-18T22:16:07.829604+05:30
Mysore,Karnataka,12.2958,76.6396,25.5,84,0.0,929.0,9.0,40.3,105,28.9,26.0,7,5,7,1,2026-04-18T22:16:07.829610+05:30
Mangalore,Karnataka,12.9141,74.856,30.8,78,0.0,1006.7,9.1,23.0,63,31.9,17.5,3,5,4,1,2026-04-18T22:16:07.829617+05:30
Hubli-Dharwad,Karnataka,15.3647,75.124,26.4,82,0.0,941.3,9.2,39.2,107,28.1,20.7,7,5,7,1,2026-04-18T22:16:07.829623+05:30
Belgaum,Karnataka,15.8497,74.4977,25.1,87,0.0,926.3,8.85,34.2,113,42.6,27.0,7,5,7,1,2026-04-18T22:16:11.080258+05:30
Coimbatore,Tamil Nadu,11.0168,76.9558,26.6,83,0.0,962.6,9.25,31.3,110,44.0,38.0,7,5,7,1,2026-04-18T22:16:11.080288+05:30
Madurai,Tamil Nadu,9.9252,78.1198,29.3,74,0.0,994.1,9.35,30.6,75,20.3,18.9,7,5,7,1,2026-04-18T22:16:11.080298+05:30
Trichy,Tamil Nadu,10.7905,78.7047,28.8,74,0.0,1000.3,9.35,18.4,56,13.6,12.9,7,5,4,1,2026-04-18T22:16:11.080305+05:30
Salem,Tamil Nadu,11.6643,78.146,28.9,64,0.0,977.5,9.25,19.8,95,23.1,19.6,7,5,7,1,2026-04-18T22:16:11.080313+05:30
Tirunelveli,Tamil Nadu,8.7139,77.7567,29.2,70,0.0,1003.9,9.25,50.4,95,23.1,20.5,7,5,4,1,2026-04-18T22:16:11.080321+05:30
Vellore,Tamil Nadu,12.9165,79.1325,27.5,77,0.0,985.4,8.9,25.6,86,28.9,27.1,7,5,7,1,2026-04-18T22:16:11.080328+05:30
Erode,Tamil Nadu,11.341,77.7172,31.7,48,0.0,989.0,9.35,24.8,85,21.5,18.0,0,5,7,1,2026-04-18T22:16:11.080335+05:30
Kochi,Kerala,9.9312,76.2673,30.0,78,0.0,1009.0,9.15,31.3,80,33.6,27.0,7,0,4,1,2026-04-18T22:16:11.080342+05:30
Thiruvananthapuram,Kerala,8.5241,76.9366,29.0,82,0.0,1008.6,9.1,27.0,77,31.1,19.8,7,0,4,1,2026-04-18T22:16:11.080349+05:30
Kozhikode,Kerala,11.2588,75.7804,30.3,82,0.0,1008.0,9.05,33.1,69,26.3,17.6,3,0,4,1,2026-04-18T22:16:11.080356+05:30
Thrissur,Kerala,10.5276,76.2144,29.6,84,0.0,1007.2,8.65,36.4,75,31.0,26.3,7,5,4,1,2026-04-18T22:16:11.080364+05:30
Kannur,Kerala,11.8745,75.3704,30.5,77,0.0,1007.3,8.6,34.6,68,29.0,20.3,3,5,4,1,2026-04-18T22:16:11.080371+05:30
Patna,Bihar,25.5941,85.1376,30.9,69,0.0,999.0,8.6,25.6,142,71.5,55.8,3,5,7,1,2026-04-18T22:16:11.080378+05:30
Gaya,Bihar,24.7914,85.0002,32.6,41,0.0,992.2,8.65,28.4,135,74.7,36.4,0,5,7,1,2026-04-18T22:16:11.080384+05:30
Muzaffarpur,Bihar,26.1209,85.3647,28.8,78,0.0,999.4,8.6,31.0,152,71.7,63.1,7,5,7,1,2026-04-18T22:16:11.080391+05:30
Bhagalpur,Bihar,25.2425,87.0117,28.7,85,0.0,1000.5,8.25,24.8,155,47.7,43.7,7,5,4,1,2026-04-18T22:16:11.080398+05:30
Ranchi,Jharkhand,23.3441,85.3096,29.1,39,0.0,938.4,9.15,42.1,99,60.1,27.8,4,5,7,0,2026-04-18T22:16:11.080404+05:30
Jamshedpur,Jharkhand,22.8046,86.2029,29.9,85,0.0,990.3,8.9,22.7,154,46.0,38.2,7,5,7,1,2026-04-18T22:16:11.080411+05:30
Dhanbad,Jharkhand,23.7957,86.4304,31.3,64,0.0,979.4,8.95,26.6,156,116.2,88.2,3,5,7,1,2026-04-18T22:16:11.080417+05:30
Bokaro,Jharkhand,23.6693,86.1511,30.9,57,0.0,983.4,8.95,40.0,153,98.3,67.1,0,5,7,1,2026-04-18T22:16:11.080423+05:30
Bhubaneswar,Odisha,20.2961,85.8245,27.3,92,0.0,1003.0,8.65,29.9,59,22.1,17.3,7,5,4,1,2026-04-18T22:16:11.080429+05:30
Cuttack,Odisha,20.4625,85.8828,27.7,90,0.0,1004.6,8.9,29.2,59,22.1,17.3,7,5,4,1,2026-04-18T22:16:11.080436+05:30
Rourkela,Odisha,22.2604,84.8536,31.9,56,0.0,984.4,8.65,28.1,134,73.1,45.9,0,5,7,1,2026-04-18T22:16:11.080442+05:30
Raipur,Chhattisgarh,21.2514,81.6296,31.1,52,0.0,974.5,8.85,29.2,200,86.8,63.8,0,5,7,1,2026-04-18T22:16:11.080448+05:30
Bhilai,Chhattisgarh,21.1938,81.3509,30.7,54,0.0,974.8,8.5,36.4,199,94.8,69.2,0,5,7,1,2026-04-18T22:16:11.080455+05:30
Guwahati,Assam,26.1158,91.7086,24.9,92,0.0,1002.9,8.5,22.7,135,69.2,61.5,3,5,4,1,2026-04-18T22:16:11.080462+05:30
Agartala,Tripura,23.8315,91.2868,27.6,87,0.0,1006.6,8.7,16.9,130,68.0,61.7,7,5,4,1,2026-04-18T22:16:11.080468+05:30
Shillong,Meghalaya,25.5788,91.8933,15.3,91,0.0,857.3,6.85,30.6,125,50.4,42.8,3,10,7,0,2026-04-18T22:16:11.080476+05:30
Imphal,Manipur,24.817,93.9368,19.4,78,0.0,924.8,9.1,48.2,153,75.9,62.2,3,5,7,0,2026-04-18T22:16:11.080483+05:30
Aizawl,Mizoram,23.7271,92.7176,21.0,84,0.0,894.0,8.95,34.6,117,70.1,53.2,3,5,7,1,2026-04-18T22:16:11.080489+05:30
Kohima,Nagaland,25.6701,94.1077,16.6,89,0.0,856.5,9.0,48.6,133,52.5,41.7,3,10,7,0,2026-04-18T22:16:11.080496+05:30
Gangtok,Sikkim,27.3314,88.6138,16.7,92,0.0,838.8,8.85,19.1,112,53.3,41.8,3,10,7,0,2026-04-18T22:16:11.080503+05:30
Siliguri,West Bengal,26.7271,88.3953,22.4,82,0.0,995.3,8.05,20.9,158,89.6,69.4,3,5,7,1,2026-04-18T22:16:14.334585+05:30
Durgapur,West Bengal,23.5204,87.3119,28.9,80,0.0,994.7,8.85,37.1,150,41.9,39.1,7,5,7,1,2026-04-18T22:16:14.334614+05:30
Asansol,West Bengal,23.6739,86.9524,29.6,76,0.0,993.1,8.9,30.2,158,76.6,63.6,7,5,7,1,2026-04-18T22:16:14.334624+05:30
Pondicherry,Puducherry,11.9139,79.8145,27.2,89,0.0,1009.1,9.25,27.0,33,9.8,5.8,7,0,4,1,2026-04-18T22:16:14.334675+05:30
Port Blair,Andaman and Nicobar Islands,11.6234,92.7265,29.5,77,0.0,1008.3,9.2,13.7,54,19.9,15.3,7,0,4,1,2026-04-18T22:16:14.334688+05:30
Haridwar,Uttarakhand,29.9457,78.1642,24.6,68,0.0,973.8,6.6,34.6,86,44.7,27.2,3,5,7,1,2026-04-18T22:16:14.334696+05:30
Rishikesh,Uttarakhand,30.0869,78.2676,23.0,71,0.0,966.9,6.85,38.2,86,48.3,18.6,3,5,7,1,2026-04-18T22:16:14.334704+05:30
Nainital,Uttarakhand,29.3919,79.4542,24.1,33,0.0,809.2,8.05,69.1,98,62.2,23.5,0,5,7,0,2026-04-18T22:16:14.334711+05:30
Mussoorie,Uttarakhand,30.4599,78.0664,19.6,50,0.0,804.5,7.4,51.5,82,52.0,26.0,0,5,7,0,2026-04-18T22:16:14.334723+05:30
Dharamshala,Himachal Pradesh,32.219,76.3234,23.9,34,0.0,871.4,7.45,38.9,70,38.8,15.5,0,5,7,0,2026-04-18T22:16:14.334730+05:30
Dalhousie,Himachal Pradesh,32.5387,75.971,20.0,39,0.0,806.1,6.8,39.6,75,59.1,25.7,0,5,7,0,2026-04-18T22:16:14.334737+05:30
Patiala,Punjab,30.3398,76.3869,26.9,51,0.0,977.7,7.1,19.4,118,89.2,56.9,4,5,7,0,2026-04-18T22:16:14.334745+05:30
Bhatinda,Punjab,30.211,74.9455,29.2,42,0.0,983.1,7.75,36.7,125,81.7,40.4,4,5,7,0,2026-04-18T22:16:14.334751+05:30
Rohtak,Haryana,28.8955,76.6066,28.0,53,0.0,980.7,6.95,14.4,341,380.0,71.9,4,5,7,1,2026-04-18T22:16:14.334757+05:30
Panipat,Haryana,29.3909,76.9635,27.4,53,0.0,979.3,6.6,11.5,493,443.3,86.6,4,5,7,1,2026-04-18T22:16:14.334764+05:30
Mathura,Uttar Pradesh,27.4924,77.6737,30.1,41,0.0,985.2,7.65,22.7,382,294.3,57.9,0,5,7,0,2026-04-18T22:16:14.334770+05:30
Vrindavan,Uttar Pradesh,27.5823,77.7027,30.6,42,0.0,985.6,7.6,24.8,382,294.3,57.9,0,5,7,1,2026-04-18T22:16:14.334776+05:30
Ayodhya,Uttar Pradesh,26.7922,82.1998,30.0,46,0.0,993.5,7.75,36.7,103,97.8,31.5,4,5,7,1,2026-04-18T22:16:14.334783+05:30
Ratlam,Madhya Pradesh,23.3315,75.0367,29.5,47,0.0,954.9,8.3,24.1,72,28.2,23.2,4,5,7,1,2026-04-18T22:16:14.334789+05:30
Sagar,Madhya Pradesh,23.8388,78.7378,31.3,39,0.0,949.8,7.85,29.9,108,22.5,20.3,0,5,7,0,2026-04-18T22:16:14.334796+05:30
Satna,Madhya Pradesh,24.6005,80.8322,31.9,34,0.0,970.7,8.5,24.8,113,63.1,21.7,0,5,7,0,2026-04-18T22:16:14.334802+05:30
Akola,Maharashtra,20.7002,77.0082,31.4,51,0.0,974.8,8.7,31.7,103,29.0,24.5,0,5,7,1,2026-04-18T22:16:14.334809+05:30
Amravati,Maharashtra,20.9374,77.7796,29.9,40,0.0,966.6,8.2,23.0,102,34.5,29.6,4,5,7,0,2026-04-18T22:16:14.334816+05:30
Latur,Maharashtra,18.4088,76.5604,29.3,48,0.0,940.4,9.1,16.6,140,41.8,37.6,4,5,7,1,2026-04-18T22:16:14.334823+05:30
Nanded,Maharashtra,19.1383,77.3091,31.0,52,0.0,968.7,8.85,18.0,118,56.7,48.4,0,5,7,1,2026-04-18T22:16:14.334830+05:30
Gulbarga,Karnataka,17.3297,76.8343,30.2,49,0.0,959.4,9.0,49.3,164,37.5,33.6,0,5,7,1,2026-04-18T22:16:14.334836+05:30
Bidar,Karnataka,17.9104,77.5199,27.9,61,0.0,936.4,9.0,48.6,146,51.1,45.6,7,5,7,1,2026-04-18T22:16:14.334842+05:30
Hospet,Karnataka,15.2689,76.3909,31.6,52,0.0,955.2,9.25,20.9,146,45.2,40.2,0,5,7,1,2026-04-18T22:16:14.334848+05:30
Tirupur,Tamil Nadu,11.1085,77.3411,30.2,54,0.0,975.6,9.3,31.3,98,34.3,27.8,0,5,7,1,2026-04-18T22:16:14.334854+05:30
Alappuzha,Kerala,9.4981,76.3388,29.2,81,0.0,1009.4,9.1,26.6,87,36.2,26.6,7,0,4,1,2026-04-18T22:16:14.334861+05:30
Munnar,Kerala,10.0889,77.0595,21.8,84,0.0,857.8,9.7,23.8,88,36.1,31.4,3,5,7,1,2026-04-18T22:16:14.334868+05:30
Silchar,Assam,24.8333,92.7789,26.7,86,0.0,1006.0,8.75,19.1,157,119.7,99.7,7,5,4,1,2026-04-18T22:16:14.334874+05:30
Dibrugarh,Assam,27.4728,94.912,25.9,86,0.0,996.9,8.65,15.1,122,71.2,57.9,7,5,7,1,2026-04-18T22:16:14.334880+05:30
