city,state,latitude,longitude,temp,humidity,rain,pressure,uv_index,wind_gusts,aqi,pm10,pm2_5,mosquito_risk,arthritis_risk,migraine_risk,frizz_risk,updated_at
Delhi,Delhi,28.6139,77.209,24.6,56,0.0,982.6,5.95,19.1,135,177.4,62.2,0,5,3,0,2026-03-28T00:30:39.331005+05:30
Mumbai,Maharashtra,19.076,72.8777,28.6,77,0.0,1008.6,8.0,23.4,103,30.4,20.8,7,0,4,1,2026-03-28T00:30:39.331043+05:30
Bangalore,Karnataka,12.9716,77.5946,24.2,56,0.0,911.8,9.55,39.2,73,34.9,29.7,0,5,7,0,2026-03-28T00:30:39.331058+05:30
Hyderabad,Telangana,17.385,78.4867,25.4,65,0.0,953.3,9.0,24.1,90,56.3,50.4,7,5,7,1,2026-03-28T00:30:39.331067+05:30
Chennai,Tamil Nadu,13.0827,80.2707,25.7,88,0.0,1007.3,9.3,34.9,67,26.5,16.9,7,5,4,1,2026-03-28T00:30:39.331075+05:30
Kolkata,West Bengal,22.5726,88.3639,26.4,91,0.0,1004.3,8.4,39.2,100,34.5,30.7,7,5,4,1,2026-03-28T00:30:39.331082+05:30
Pune,Maharashtra,18.5204,73.8567,25.2,60,0.0,948.9,8.55,42.1,105,42.5,36.4,4,5,7,1,2026-03-28T00:30:39.331089+05:30
Ahmedabad,Gujarat,23.0225,72.5714,26.7,58,0.0,1002.1,7.95,29.9,62,25.8,18.3,4,5,4,1,2026-03-28T00:30:39.331095+05:30
Jaipur,Rajasthan,26.9124,75.7873,26.2,42,0.0,959.6,7.2,33.8,117,80.8,30.4,4,5,7,0,2026-03-28T00:30:39.331101+05:30
Lucknow,Uttar Pradesh,26.8467,80.9462,22.4,70,0.0,993.3,6.85,31.3,95,159.3,52.5,3,5,7,1,2026-03-28T00:30:39.331107+05:30
Kanpur,Uttar Pradesh,26.4499,80.3319,22.6,72,0.0,991.5,6.85,29.2,136,250.5,67.1,3,5,7,1,2026-03-28T00:30:39.331113+05:30
Chandigarh,Chandigarh,30.7333,76.7794,20.4,73,0.0,968.1,5.45,19.8,79,51.0,41.9,3,5,3,0,2026-03-28T00:30:39.331122+05:30
Srinagar,Jammu and Kashmir,34.0837,74.7973,8.1,80,0.0,835.6,6.15,17.3,100,62.2,52.2,3,5,7,0,2026-03-28T00:30:39.331128+05:30
Jammu,Jammu and Kashmir,32.7266,74.857,20.8,81,0.0,971.8,6.0,14.8,83,42.6,37.6,3,5,3,1,2026-03-28T00:30:39.331134+05:30
Amritsar,Punjab,31.634,74.8723,20.2,72,0.0,980.0,5.55,13.7,89,64.7,56.3,3,5,3,0,2026-03-28T00:30:39.331140+05:30
Ludhiana,Punjab,30.901,75.8573,21.2,68,0.0,978.3,6.25,17.3,91,94.1,52.4,3,5,7,0,2026-03-28T00:30:39.331146+05:30
Jalandhar,Punjab,31.326,75.5762,21.4,68,0.0,979.4,5.4,10.4,91,82.0,57.7,3,5,3,0,2026-03-28T00:30:39.331151+05:30
Dehradun,Uttarakhand,30.6284,78.0322,11.9,90,0.0,827.0,5.8,23.4,54,33.5,22.8,3,10,3,0,2026-03-28T00:30:39.331157+05:30
Shimla,Himachal Pradesh,31.1048,77.1734,10.4,80,0.0,781.0,5.65,30.6,63,37.7,28.8,3,5,3,0,2026-03-28T00:30:39.331163+05:30
Manali,Himachal Pradesh,32.2396,77.1887,13.6,79,0.0,815.6,8.45,26.6,91,28.1,12.7,3,5,7,0,2026-03-28T00:30:39.331169+05:30
Gurgaon,Haryana,28.4595,77.0266,22.9,63,0.0,980.9,6.7,16.9,723,305.5,80.3,3,5,7,0,2026-03-28T00:30:39.331175+05:30
Noida,Uttar Pradesh,28.5355,77.391,23.5,66,0.0,984.1,6.1,18.7,723,305.5,80.3,3,5,7,1,2026-03-28T00:30:39.331182+05:30
Ghaziabad,Uttar Pradesh,28.6692,77.4538,23.2,65,0.0,982.3,5.8,17.6,127,153.2,55.8,3,5,3,1,2026-03-28T00:30:39.331188+05:30
Faridabad,Haryana,28.4089,77.3178,22.0,73,0.0,983.3,6.05,18.4,723,305.5,80.3,3,5,7,1,2026-03-28T00:30:39.331194+05:30
Meerut,Uttar Pradesh,28.9845,77.7064,21.7,70,0.0,981.0,5.4,20.2,127,153.2,55.8,3,5,3,0,2026-03-28T00:30:39.331199+05:30
Agra,Uttar Pradesh,27.1767,78.0081,22.5,74,0.0,987.6,7.05,24.1,706,414.4,82.7,3,5,7,1,2026-03-28T00:30:39.331205+05:30
Varanasi,Uttar Pradesh,25.3176,82.9739,21.4,78,0.0,997.6,7.8,31.7,87,52.7,43.5,3,5,7,1,2026-03-28T00:30:39.331213+05:30
Prayagraj,Uttar Pradesh,25.4358,81.8463,20.7,80,0.0,996.1,7.7,33.1,86,44.5,27.4,3,5,7,1,2026-03-28T00:30:39.331219+05:30
Gorakhpur,Uttar Pradesh,26.7606,83.3732,20.5,75,0.0,996.4,7.5,29.2,94,58.1,33.4,3,5,7,0,2026-03-28T00:30:39.331224+05:30
Bareilly,Uttar Pradesh,28.367,79.4304,20.7,82,0.0,986.2,6.85,27.4,75,33.6,27.1,3,5,7,1,2026-03-28T00:30:39.331230+05:30
Aligarh,Uttar Pradesh,27.8974,78.088,20.9,81,0.0,985.3,6.65,20.9,308,280.3,77.5,3,5,7,1,2026-03-28T00:30:39.331236+05:30
Moradabad,Uttar Pradesh,28.8386,78.7733,20.5,82,0.0,983.2,6.15,24.8,80,44.4,35.3,3,5,7,1,2026-03-28T00:30:39.331244+05:30
Saharanpur,Uttar Pradesh,29.9637,77.546,20.1,76,0.0,975.2,5.4,22.0,91,68.7,58.0,3,5,3,0,2026-03-28T00:30:39.331250+05:30
Jhansi,Uttar Pradesh,25.4484,78.5685,21.2,71,0.0,977.5,7.7,26.6,83,106.9,33.8,3,5,7,0,2026-03-28T00:30:43.566606+05:30
Surat,Gujarat,21.1702,72.8311,27.0,79,0.0,1006.4,7.75,26.6,109,37.8,32.9,7,5,4,1,2026-03-28T00:30:43.566633+05:30
Vadodara,Gujarat,22.3072,73.1812,27.7,51,0.0,1004.2,7.95,31.0,71,53.7,38.5,4,5,4,1,2026-03-28T00:30:43.566645+05:30
Rajkot,Gujarat,22.3039,70.8022,24.5,80,0.0,995.4,7.8,40.3,52,13.8,9.2,3,5,7,1,2026-03-28T00:30:43.566653+05:30
Thane,Maharashtra,19.2183,72.9781,27.3,78,0.0,1008.1,8.0,36.7,103,30.4,20.8,7,0,4,1,2026-03-28T00:30:43.566661+05:30
Nagpur,Maharashtra,21.1458,79.0882,25.2,39,0.0,971.6,8.5,27.4,88,29.9,26.0,4,5,7,0,2026-03-28T00:30:43.566670+05:30
Nashik,Maharashtra,19.9975,73.7898,25.3,48,0.0,945.8,8.25,40.0,66,36.2,28.2,4,5,7,0,2026-03-28T00:30:43.566678+05:30
Aurangabad,Maharashtra,19.8762,75.3433,27.6,29,0.0,944.2,8.75,33.8,64,21.3,17.1,4,5,7,0,2026-03-28T00:30:43.566686+05:30
Solapur,Maharashtra,17.6599,75.9064,28.6,47,0.0,957.0,8.85,27.4,103,43.8,39.3,4,5,7,1,2026-03-28T00:30:43.566694+05:30
Kolhapur,Maharashtra,16.705,74.2433,24.9,91,0.0,948.4,8.95,46.4,153,56.7,53.1,3,5,7,1,2026-03-28T00:30:43.566702+05:30
Goa,Goa,15.2993,74.124,29.0,85,0.0,998.0,8.95,33.1,92,43.9,36.1,7,5,7,1,2026-03-28T00:30:43.566709+05:30
Jodhpur,Rajasthan,26.2389,73.0243,26.7,42,0.0,982.6,7.65,31.0,71,70.1,21.5,4,5,7,0,2026-03-28T00:30:43.566717+05:30
Udaipur,Rajasthan,24.5854,73.7125,24.2,50,0.0,946.5,8.4,32.0,51,61.5,20.3,0,5,7,0,2026-03-28T00:30:43.566725+05:30
Kota,Rajasthan,25.2138,75.8648,27.0,40,0.0,978.2,7.75,21.6,64,27.7,18.5,4,5,7,0,2026-03-28T00:30:43.566732+05:30
Bikaner,Rajasthan,28.0229,73.3119,25.7,46,0.0,981.4,6.8,25.6,61,39.9,14.0,4,5,7,0,2026-03-28T00:30:43.566740+05:30
Ajmer,Rajasthan,26.4499,74.6399,25.8,45,0.0,954.3,7.65,31.0,58,25.2,15.0,4,5,7,0,2026-03-28T00:30:43.566747+05:30
Gwalior,Madhya Pradesh,26.2183,78.1828,24.0,62,0.0,983.2,7.4,34.2,126,393.0,78.5,3,5,7,1,2026-03-28T00:30:43.566754+05:30
Indore,Madhya Pradesh,22.7196,75.8577,24.0,56,0.0,947.6,8.25,33.5,42,22.9,14.5,0,5,7,0,2026-03-28T00:30:43.566762+05:30
Bhopal,Madhya Pradesh,23.2599,77.4126,25.5,42,0.0,952.8,8.15,29.2,45,33.4,16.3,4,5,7,0,2026-03-28T00:30:43.566769+05:30
Jabalpur,Madhya Pradesh,23.1815,79.9864,24.9,53,0.0,959.3,8.25,27.0,54,32.5,17.4,0,5,7,0,2026-03-28T00:30:43.566777+05:30
Ujjain,Madhya Pradesh,23.1765,75.7885,24.5,55,0.0,953.4,8.15,30.6,44,24.3,15.5,0,5,7,0,2026-03-28T00:30:43.566785+05:30
Visakhapatnam,Andhra Pradesh,17.6868,83.2185,26.6,88,0.0,1003.7,9.0,49.3,78,32.9,25.3,7,5,4,1,2026-03-28T00:30:43.566792+05:30
Vijayawada,Andhra Pradesh,16.5062,80.648,25.5,91,0.0,1002.6,9.05,29.2,75,23.7,18.3,7,5,4,1,2026-03-28T00:30:43.566799+05:30
Guntur,Andhra Pradesh,16.3067,80.4365,25.7,92,0.0,1003.8,9.05,32.4,70,22.9,18.1,7,5,4,1,2026-03-28T00:30:43.566808+05:30
Nellore,Andhra Pradesh,14.4426,79.9865,25.4,90,0.0,1005.8,9.2,27.4,66,20.5,14.6,7,5,4,1,2026-03-28T00:30:43.566817+05:30
Kurnool,Andhra Pradesh,15.8281,78.0373,30.9,39,0.0,976.6,9.05,19.8,73,39.1,32.8,0,5,7,0,2026-03-28T00:30:43.566825+05:30
Kakinada,Andhra Pradesh,16.9891,82.2475,24.8,94,0.0,1007.7,9.0,32.8,67,28.3,18.2,3,5,4,1,2026-03-28T00:30:43.566833+05:30
Tirupati,Andhra Pradesh,13.6288,79.4192,25.1,85,0.0,992.0,9.3,22.0,95,37.5,32.7,7,5,7,1,2026-03-28T00:30:43.566839+05:30
Warangal,Telangana,17.9689,79.5941,27.8,59,0.0,977.8,8.9,44.6,82,34.6,30.7,4,5,7,1,2026-03-28T00:30:43.566845+05:30
Nizamabad,Telangana,18.6725,78.0941,28.4,50,0.0,964.3,8.8,24.5,95,48.0,38.9,4,5,7,1,2026-03-28T00:30:43.566850+05:30
Mysore,Karnataka,12.2958,76.6396,23.9,85,0.0,928.9,9.45,37.4,79,39.0,35.7,3,5,7,1,2026-03-28T00:30:43.566856+05:30
Mangalore,Karnataka,12.9141,74.856,28.9,84,0.0,1007.1,9.1,23.8,96,43.4,36.9,7,5,4,1,2026-03-28T00:30:43.566862+05:30
Hubli-Dharwad,Karnataka,15.3647,75.124,24.5,88,0.0,941.0,6.5,33.5,81,29.4,26.9,3,5,7,1,2026-03-28T00:30:43.566868+05:30
Belgaum,Karnataka,15.8497,74.4977,22.6,94,0.0,925.9,9.1,38.5,108,42.1,38.4,3,5,7,1,2026-03-28T00:30:47.670027+05:30
Coimbatore,Tamil Nadu,11.0168,76.9558,25.0,84,0.0,962.3,9.45,49.3,81,36.7,34.5,7,5,7,1,2026-03-28T00:30:47.670055+05:30
Madurai,Tamil Nadu,9.9252,78.1198,26.0,84,0.0,993.5,9.4,33.8,81,38.0,32.9,7,5,7,1,2026-03-28T00:30:47.670068+05:30
Trichy,Tamil Nadu,10.7905,78.7047,24.9,88,0.0,999.9,9.35,23.4,91,31.1,27.1,3,5,7,1,2026-03-28T00:30:47.670078+05:30
Salem,Tamil Nadu,11.6643,78.146,26.1,71,0.0,977.3,9.4,28.8,98,48.8,42.3,7,5,7,1,2026-03-28T00:30:47.670087+05:30
Tirunelveli,Tamil Nadu,8.7139,77.7567,26.8,79,0.0,1003.5,9.35,45.4,61,24.3,21.0,7,5,4,1,2026-03-28T00:30:47.670096+05:30
Vellore,Tamil Nadu,12.9165,79.1325,24.8,85,0.0,984.7,9.35,26.3,97,53.4,47.0,3,5,7,1,2026-03-28T00:30:47.670104+05:30
Erode,Tamil Nadu,11.341,77.7172,27.7,59,0.0,989.2,9.35,14.8,86,36.9,30.9,4,5,7,1,2026-03-28T00:30:47.670112+05:30
Kochi,Kerala,9.9312,76.2673,28.6,79,0.0,1009.3,9.15,31.3,82,33.8,31.4,7,0,4,1,2026-03-28T00:30:47.670120+05:30
Thiruvananthapuram,Kerala,8.5241,76.9366,28.2,82,0.0,1008.5,9.15,41.4,74,25.8,19.4,7,0,4,1,2026-03-28T00:30:47.670129+05:30
Kozhikode,Kerala,11.2588,75.7804,28.4,82,0.0,1008.6,9.1,28.1,87,32.6,25.3,7,0,4,1,2026-03-28T00:30:47.670136+05:30
Thrissur,Kerala,10.5276,76.2144,27.7,84,0.0,1007.7,9.15,36.7,94,34.9,31.1,7,5,4,1,2026-03-28T00:30:47.670145+05:30
Kannur,Kerala,11.8745,75.3704,27.9,86,0.0,1007.7,9.1,29.5,98,36.4,29.7,7,5,4,1,2026-03-28T00:30:47.670153+05:30
Patna,Bihar,25.5941,85.1376,23.4,78,0.0,999.9,7.9,24.1,132,36.8,25.6,3,5,7,1,2026-03-28T00:30:47.670161+05:30
Gaya,Bihar,24.7914,85.0002,22.5,74,0.0,994.8,8.05,22.3,67,39.1,26.8,3,5,7,1,2026-03-28T00:30:47.670169+05:30
Muzaffarpur,Bihar,26.1209,85.3647,21.4,93,0.0,999.8,7.85,29.2,153,47.5,38.2,3,5,7,1,2026-03-28T00:30:47.670177+05:30
Bhagalpur,Bihar,25.2425,87.0117,21.9,89,0.0,1000.4,7.6,29.9,123,46.9,24.0,3,5,4,1,2026-03-28T00:30:47.670184+05:30
Ranchi,Jharkhand,23.3441,85.3096,20.0,76,0.0,938.1,8.65,35.6,77,34.7,29.4,3,5,7,0,2026-03-28T00:30:47.670192+05:30
Jamshedpur,Jharkhand,22.8046,86.2029,26.0,64,0.0,991.0,8.5,39.2,127,43.8,30.6,7,5,7,1,2026-03-28T00:30:47.670200+05:30
Dhanbad,Jharkhand,23.7957,86.4304,24.8,61,0.0,980.2,8.4,32.4,116,72.9,56.1,3,5,7,1,2026-03-28T00:30:47.670208+05:30
Bokaro,Jharkhand,23.6693,86.1511,23.1,68,0.0,984.4,8.45,29.9,113,73.8,57.5,3,5,7,1,2026-03-28T00:30:47.670216+05:30
Bhubaneswar,Odisha,20.2961,85.8245,25.7,91,0.0,1002.2,8.8,31.3,97,35.6,31.5,7,5,4,1,2026-03-28T00:30:47.670224+05:30
Cuttack,Odisha,20.4625,85.8828,25.9,78,0.0,1003.7,8.8,37.1,97,35.6,31.5,7,5,4,1,2026-03-28T00:30:47.670232+05:30
Rourkela,Odisha,22.2604,84.8536,23.7,84,0.0,984.4,8.45,39.2,123,34.8,31.9,3,5,7,1,2026-03-28T00:30:47.670239+05:30
Raipur,Chhattisgarh,21.2514,81.6296,26.0,64,0.0,972.5,8.55,36.0,119,32.1,30.0,7,5,7,1,2026-03-28T00:30:47.670247+05:30
Bhilai,Chhattisgarh,21.1938,81.3509,25.5,63,0.0,972.7,8.55,37.8,107,27.2,24.9,7,5,7,1,2026-03-28T00:30:47.670255+05:30
Guwahati,Assam,26.1158,91.7086,23.4,85,0.0,1001.5,4.15,29.5,156,99.4,79.9,3,5,0,1,2026-03-28T00:30:47.670262+05:30
Agartala,Tripura,23.8315,91.2868,24.0,84,0.0,1004.2,7.3,34.6,155,74.3,67.3,3,5,4,1,2026-03-28T00:30:47.670271+05:30
Shillong,Meghalaya,25.5788,91.8933,11.6,89,0.0,853.2,2.55,56.2,121,45.9,38.2,3,10,3,0,2026-03-28T00:30:47.670279+05:30
Imphal,Manipur,24.817,93.9368,16.1,74,0.0,922.1,7.6,56.9,132,86.8,71.5,3,5,7,0,2026-03-28T00:30:47.670287+05:30
Aizawl,Mizoram,23.7271,92.7176,18.4,64,0.0,891.0,7.55,55.4,106,62.6,49.0,3,5,7,0,2026-03-28T00:30:47.670295+05:30
Kohima,Nagaland,25.6701,94.1077,14.3,68,0.0,853.4,7.1,70.9,99,55.4,43.4,3,5,7,0,2026-03-28T00:30:47.670302+05:30
Gangtok,Sikkim,27.3314,88.6138,12.2,94,0.0,834.5,7.55,17.6,110,56.9,43.8,3,10,7,0,2026-03-28T00:30:47.670310+05:30
Siliguri,West Bengal,26.7271,88.3953,19.3,80,0.0,993.4,7.5,25.2,159,67.5,49.6,3,5,7,0,2026-03-28T00:30:51.130013+05:30
Durgapur,West Bengal,23.5204,87.3119,27.8,61,0.0,994.7,8.35,28.8,139,40.3,25.3,7,5,7,1,2026-03-28T00:30:51.130034+05:30
Asansol,West Bengal,23.6739,86.9524,26.8,57,0.0,993.2,8.35,31.3,95,44.1,28.1,4,5,7,1,2026-03-28T00:30:51.130043+05:30
Pondicherry,Puducherry,11.9139,79.8145,23.9,92,0.0,1008.5,9.25,29.2,67,26.1,16.5,3,0,4,1,2026-03-28T00:30:51.130049+05:30
Port Blair,Andaman and Nicobar Islands,11.6234,92.7265,28.3,79,0.0,1005.8,9.2,19.4,68,29.0,21.9,7,5,4,1,2026-03-28T00:30:51.130055+05:30
Haridwar,Uttarakhand,29.9457,78.1642,18.9,87,0.0,973.7,5.25,25.6,87,49.0,42.5,3,10,3,1,2026-03-28T00:30:51.130061+05:30
Rishikesh,Uttarakhand,30.0869,78.2676,18.9,78,0.0,966.4,5.1,28.4,65,43.4,30.5,3,5,3,0,2026-03-28T00:30:51.130067+05:30
Nainital,Uttarakhand,29.3919,79.4542,15.1,57,0.0,803.4,5.2,30.2,58,27.6,20.4,0,5,3,0,2026-03-28T00:30:51.130073+05:30
Mussoorie,Uttarakhand,30.4599,78.0664,13.4,77,0.0,799.9,4.9,25.6,72,49.2,38.2,3,5,3,0,2026-03-28T00:30:51.130079+05:30
Dharamshala,Himachal Pradesh,32.219,76.3234,17.9,66,0.0,867.3,6.25,22.0,46,25.3,14.8,3,5,7,0,2026-03-28T00:30:51.130084+05:30
Dalhousie,Himachal Pradesh,32.5387,75.971,13.7,79,0.0,800.8,6.1,18.7,72,46.4,37.3,3,5,7,0,2026-03-28T00:30:51.130091+05:30
Patiala,Punjab,30.3398,76.3869,19.6,76,0.0,977.6,5.4,13.7,93,72.4,53.6,3,5,3,0,2026-03-28T00:30:51.130097+05:30
Bhatinda,Punjab,30.211,74.9455,21.3,68,0.0,983.0,6.6,17.3,87,37.1,31.7,3,5,7,0,2026-03-28T00:30:51.130103+05:30
Rohtak,Haryana,28.8955,76.6066,22.0,68,0.0,981.2,6.1,15.1,136,166.2,60.5,3,5,7,0,2026-03-28T00:30:51.130109+05:30
Panipat,Haryana,29.3909,76.9635,21.8,66,0.0,979.9,5.6,18.0,154,74.0,48.4,3,5,3,0,2026-03-28T00:30:51.130114+05:30
Mathura,Uttar Pradesh,27.4924,77.6737,22.3,75,0.0,986.6,7.0,20.9,711,434.9,93.8,3,5,7,1,2026-03-28T00:30:51.130121+05:30
Vrindavan,Uttar Pradesh,27.5823,77.7027,22.4,74,0.0,987.1,6.95,21.2,711,434.9,93.8,3,5,7,1,2026-03-28T00:30:51.130127+05:30
Ayodhya,Uttar Pradesh,26.7922,82.1998,21.0,81,0.0,994.8,7.3,30.2,83,70.3,34.8,3,5,7,1,2026-03-28T00:30:51.130133+05:30
Ratlam,Madhya Pradesh,23.3315,75.0367,25.2,58,0.0,954.3,8.1,32.4,38,24.5,13.9,4,5,7,1,2026-03-28T00:30:51.130139+05:30
Sagar,Madhya Pradesh,23.8388,78.7378,25.6,44,0.0,948.9,8.15,28.1,51,36.1,16.5,4,5,7,0,2026-03-28T00:30:51.130144+05:30
Satna,Madhya Pradesh,24.6005,80.8322,22.4,62,0.0,971.1,8.1,25.6,67,57.7,21.9,3,5,7,0,2026-03-28T00:30:51.130150+05:30
Akola,Maharashtra,20.7002,77.0082,25.5,48,0.0,974.4,8.5,30.6,58,15.7,12.3,4,5,7,0,2026-03-28T00:30:51.130160+05:30
Amravati,Maharashtra,20.9374,77.7796,25.4,40,0.0,966.2,8.5,29.9,59,15.9,12.3,4,5,7,0,2026-03-28T00:30:51.130167+05:30
Latur,Maharashtra,18.4088,76.5604,26.3,45,0.0,939.8,8.85,30.2,93,50.3,37.8,4,5,7,0,2026-03-28T00:30:51.130173+05:30
Nanded,Maharashtra,19.1383,77.3091,28.4,45,0.0,968.6,8.7,23.8,84,39.7,32.7,4,5,7,0,2026-03-28T00:30:51.130178+05:30
Gulbarga,Karnataka,17.3297,76.8343,30.1,38,0.0,958.4,8.9,22.0,97,37.3,32.9,0,5,7,0,2026-03-28T00:30:51.130183+05:30
Bidar,Karnataka,17.9104,77.5199,27.7,49,0.0,935.5,8.9,22.7,89,49.2,42.1,4,5,7,0,2026-03-28T00:30:51.130189+05:30
Hospet,Karnataka,15.2689,76.3909,28.3,68,0.0,955.6,9.15,38.5,84,34.1,29.7,7,5,7,1,2026-03-28T00:30:51.130194+05:30
Tirupur,Tamil Nadu,11.1085,77.3411,26.9,79,0.0,975.5,9.45,36.4,95,43.2,39.1,7,5,7,1,2026-03-28T00:30:51.130200+05:30
Alappuzha,Kerala,9.4981,76.3388,28.2,83,0.0,1009.4,9.15,31.7,82,36.2,31.0,7,0,4,1,2026-03-28T00:30:51.130206+05:30
Munnar,Kerala,10.0889,77.0595,20.1,97,0.0,856.8,9.7,42.5,76,35.4,31.5,3,5,7,1,2026-03-28T00:30:51.130212+05:30
Silchar,Assam,24.8333,92.7789,23.0,78,0.0,1003.6,5.55,38.9,156,100.8,83.8,3,5,0,1,2026-03-28T00:30:51.130217+05:30
Dibrugarh,Assam,27.4728,94.912,23.2,80,0.0,996.4,6.8,26.6,123,49.5,41.2,3,5,7,1,2026-03-28T00:30:51.130222+05:30
