city,state,latitude,longitude,temp,humidity,rain,pressure,uv_index,wind_gusts,aqi,pm10,pm2_5,mosquito_risk,arthritis_risk,migraine_risk,frizz_risk,updated_at
Delhi,Delhi,28.6139,77.209,32.6,25,0.0,983.2,7.1,45.7,561,968.6,151.3,0,5,7,0,2026-04-25T23:10:16.696318+05:30
Mumbai,Maharashtra,19.076,72.8777,30.0,62,0.0,1008.6,8.0,42.8,90,42.3,25.1,7,0,4,1,2026-04-25T23:10:16.696367+05:30
Bangalore,Karnataka,12.9716,77.5946,27.2,49,0.0,913.0,9.3,36.4,86,30.9,27.6,4,5,7,0,2026-04-25T23:10:16.696382+05:30
Hyderabad,Telangana,17.385,78.4867,31.9,34,0.0,955.0,9.3,29.2,135,44.6,40.4,0,5,7,0,2026-04-25T23:10:16.696392+05:30
Chennai,Tamil Nadu,13.0827,80.2707,28.9,81,0.0,1008.0,9.3,50.0,33,12.5,8.5,7,0,4,1,2026-04-25T23:10:16.696402+05:30
Kolkata,West Bengal,22.5726,88.3639,27.7,87,0.0,1005.9,8.55,38.9,75,24.6,19.9,7,5,4,1,2026-04-25T23:10:16.696414+05:30
Pune,Maharashtra,18.5204,73.8567,30.3,37,0.0,949.2,8.35,36.4,135,47.0,41.0,0,5,7,0,2026-04-25T23:10:16.696422+05:30
Ahmedabad,Gujarat,23.0225,72.5714,37.5,14,0.0,1001.9,8.2,24.1,63,39.7,25.9,0,5,7,0,2026-04-25T23:10:16.696430+05:30
Jaipur,Rajasthan,26.9124,75.7873,33.2,22,0.0,960.9,8.05,38.2,133,271.0,51.2,0,5,7,0,2026-04-25T23:10:16.696438+05:30
Lucknow,Uttar Pradesh,26.8467,80.9462,33.5,22,0.0,992.4,7.9,42.1,126,174.2,44.4,0,5,7,0,2026-04-25T23:10:16.696446+05:30
Kanpur,Uttar Pradesh,26.4499,80.3319,34.0,20,0.0,990.9,7.9,39.6,181,392.1,65.9,0,5,7,0,2026-04-25T23:10:16.696453+05:30
Chandigarh,Chandigarh,30.7333,76.7794,28.0,38,0.0,968.9,7.25,59.4,64,42.1,23.6,4,5,7,0,2026-04-25T23:10:16.696461+05:30
Srinagar,Jammu and Kashmir,34.0837,74.7973,12.9,88,0.0,844.7,8.6,31.3,74,65.2,49.5,3,10,7,0,2026-04-25T23:10:16.696469+05:30
Jammu,Jammu and Kashmir,32.7266,74.857,27.5,42,0.0,973.8,8.2,43.6,79,59.1,27.1,4,5,7,0,2026-04-25T23:10:16.696477+05:30
Amritsar,Punjab,31.634,74.8723,29.5,34,0.0,981.2,8.1,38.2,93,128.5,54.0,4,5,7,0,2026-04-25T23:10:16.696484+05:30
Ludhiana,Punjab,30.901,75.8573,28.2,41,0.0,979.0,7.7,54.4,83,88.9,36.2,4,5,7,0,2026-04-25T23:10:16.696494+05:30
Jalandhar,Punjab,31.326,75.5762,28.1,40,0.0,980.0,7.9,37.4,93,106.6,41.7,4,5,7,0,2026-04-25T23:10:16.696503+05:30
Dehradun,Uttarakhand,30.6284,78.0322,15.8,57,0.0,829.6,7.85,50.0,50,43.9,18.1,0,5,7,0,2026-04-25T23:10:16.696510+05:30
Shimla,Himachal Pradesh,31.1048,77.1734,14.0,54,0.0,785.4,7.6,55.1,57,75.4,22.1,0,5,7,0,2026-04-25T23:10:16.696517+05:30
Manali,Himachal Pradesh,32.2396,77.1887,9.0,77,0.0,818.6,9.85,43.9,72,16.4,8.0,3,5,7,0,2026-04-25T23:10:16.696524+05:30
Gurgaon,Haryana,28.4595,77.0266,31.5,26,0.0,981.5,7.5,47.2,1393,1460.3,201.6,0,5,7,0,2026-04-25T23:10:16.696531+05:30
Noida,Uttar Pradesh,28.5355,77.391,31.2,27,0.0,984.4,7.4,33.8,1393,1460.3,201.6,0,5,7,0,2026-04-25T23:10:16.696538+05:30
Ghaziabad,Uttar Pradesh,28.6692,77.4538,31.5,27,0.0,982.8,7.4,46.8,367,851.2,135.5,0,5,7,0,2026-04-25T23:10:16.696545+05:30
Faridabad,Haryana,28.4089,77.3178,33.8,22,0.0,983.8,7.5,48.6,1393,1460.3,201.6,0,5,7,0,2026-04-25T23:10:16.696552+05:30
Meerut,Uttar Pradesh,28.9845,77.7064,30.0,31,0.0,981.3,7.35,47.2,367,851.2,135.5,4,5,7,0,2026-04-25T23:10:16.696561+05:30
Agra,Uttar Pradesh,27.1767,78.0081,33.6,23,0.0,987.5,7.8,45.0,575,1922.2,237.5,0,5,7,0,2026-04-25T23:10:16.696570+05:30
Varanasi,Uttar Pradesh,25.3176,82.9739,31.6,51,0.0,996.7,8.5,38.9,136,182.1,73.1,0,5,7,1,2026-04-25T23:10:16.696577+05:30
Prayagraj,Uttar Pradesh,25.4358,81.8463,32.2,25,0.0,994.5,8.4,31.7,113,173.2,58.4,0,5,7,0,2026-04-25T23:10:16.696584+05:30
Gorakhpur,Uttar Pradesh,26.7606,83.3732,29.1,63,0.0,996.8,8.3,43.2,152,101.5,56.7,7,5,7,1,2026-04-25T23:10:16.696612+05:30
Bareilly,Uttar Pradesh,28.367,79.4304,30.4,34,0.0,985.8,7.7,48.6,102,140.2,41.6,0,5,7,0,2026-04-25T23:10:16.696620+05:30
Aligarh,Uttar Pradesh,27.8974,78.088,32.2,25,0.0,985.3,7.6,40.3,587,1229.3,182.1,0,5,7,0,2026-04-25T23:10:16.696627+05:30
Moradabad,Uttar Pradesh,28.8386,78.7733,30.0,38,0.0,983.0,7.55,57.2,154,291.5,67.5,4,5,7,0,2026-04-25T23:10:16.696633+05:30
Saharanpur,Uttar Pradesh,29.9637,77.546,30.4,31,0.0,975.4,7.15,54.0,104,160.2,42.3,0,5,7,0,2026-04-25T23:10:16.696639+05:30
Jhansi,Uttar Pradesh,25.4484,78.5685,32.8,22,0.0,978.1,8.3,32.0,74,97.6,32.2,0,5,7,0,2026-04-25T23:10:19.913353+05:30
Surat,Gujarat,21.1702,72.8311,31.2,47,0.0,1006.5,7.85,36.0,105,40.7,31.3,0,5,4,1,2026-04-25T23:10:19.913384+05:30
Vadodara,Gujarat,22.3072,73.1812,34.8,20,0.0,1003.9,8.15,30.6,85,44.9,31.0,0,5,4,0,2026-04-25T23:10:19.913393+05:30
Rajkot,Gujarat,22.3039,70.8022,28.5,49,0.0,995.4,7.9,36.0,64,56.9,19.2,4,5,7,1,2026-04-25T23:10:19.913401+05:30
Thane,Maharashtra,19.2183,72.9781,30.5,52,0.0,1008.1,8.0,41.0,90,42.3,25.1,0,0,4,1,2026-04-25T23:10:19.913408+05:30
Nagpur,Maharashtra,21.1458,79.0882,35.5,17,0.0,972.8,8.9,37.1,132,52.9,45.1,0,5,10,0,2026-04-25T23:10:19.913416+05:30
Nashik,Maharashtra,19.9975,73.7898,30.8,20,0.0,946.6,8.3,31.0,129,41.1,28.3,0,5,7,0,2026-04-25T23:10:19.913423+05:30
Aurangabad,Maharashtra,19.8762,75.3433,33.0,20,0.0,944.9,8.75,29.5,103,49.7,40.4,0,5,7,0,2026-04-25T23:10:19.913430+05:30
Solapur,Maharashtra,17.6599,75.9064,32.5,26,0.0,957.3,8.6,25.6,151,47.5,43.7,0,5,7,0,2026-04-25T23:10:19.913438+05:30
Kolhapur,Maharashtra,16.705,74.2433,26.8,80,0.0,949.1,9.05,37.8,151,59.5,56.1,7,5,7,1,2026-04-25T23:10:19.913445+05:30
Goa,Goa,15.2993,74.124,29.4,83,0.0,998.1,8.9,29.5,73,39.8,31.2,7,5,7,1,2026-04-25T23:10:19.913452+05:30
Jodhpur,Rajasthan,26.2389,73.0243,35.6,20,0.0,983.3,8.3,32.8,87,167.2,32.0,0,5,10,0,2026-04-25T23:10:19.913459+05:30
Udaipur,Rajasthan,24.5854,73.7125,31.0,26,0.0,947.6,8.8,41.0,64,48.8,19.8,0,5,7,0,2026-04-25T23:10:19.913466+05:30
Kota,Rajasthan,25.2138,75.8648,31.6,30,0.0,979.2,8.3,31.3,76,108.3,44.4,0,5,7,0,2026-04-25T23:10:19.913472+05:30
Bikaner,Rajasthan,28.0229,73.3119,33.0,30,0.0,982.4,8.15,38.5,75,79.2,25.0,0,5,7,0,2026-04-25T23:10:19.913479+05:30
Ajmer,Rajasthan,26.4499,74.6399,32.5,27,0.0,955.8,8.25,35.6,81,88.9,30.5,0,5,7,0,2026-04-25T23:10:19.913485+05:30
Gwalior,Madhya Pradesh,26.2183,78.1828,34.0,22,0.0,983.5,8.0,41.0,90,228.2,48.2,0,5,7,0,2026-04-25T23:10:19.913492+05:30
Indore,Madhya Pradesh,22.7196,75.8577,33.5,18,0.0,949.2,8.65,32.0,58,62.6,38.2,0,5,7,0,2026-04-25T23:10:19.913498+05:30
Bhopal,Madhya Pradesh,23.2599,77.4126,34.2,16,0.0,953.8,8.65,30.6,82,43.9,28.1,0,5,7,0,2026-04-25T23:10:19.913504+05:30
Jabalpur,Madhya Pradesh,23.1815,79.9864,31.1,22,0.0,961.3,8.75,34.9,82,24.3,17.9,0,5,7,0,2026-04-25T23:10:19.913511+05:30
Ujjain,Madhya Pradesh,23.1765,75.7885,33.0,19,0.0,954.4,8.55,29.2,63,71.9,41.8,0,5,7,0,2026-04-25T23:10:19.913518+05:30
Visakhapatnam,Andhra Pradesh,17.6868,83.2185,28.0,89,0.0,1004.4,8.7,42.8,58,17.4,12.8,7,5,4,1,2026-04-25T23:10:19.913525+05:30
Vijayawada,Andhra Pradesh,16.5062,80.648,28.4,84,0.0,1003.7,8.85,31.0,52,14.9,12.0,7,5,4,1,2026-04-25T23:10:19.913531+05:30
Guntur,Andhra Pradesh,16.3067,80.4365,27.9,89,0.0,1005.0,8.6,36.7,53,15.5,12.2,7,5,4,1,2026-04-25T23:10:19.913538+05:30
Nellore,Andhra Pradesh,14.4426,79.9865,27.8,87,0.0,1006.6,9.25,42.1,43,11.3,8.1,7,5,4,1,2026-04-25T23:10:19.913545+05:30
Kurnool,Andhra Pradesh,15.8281,78.0373,32.8,40,0.0,977.8,8.9,34.2,95,50.3,43.5,0,5,7,1,2026-04-25T23:10:19.913552+05:30
Kakinada,Andhra Pradesh,16.9891,82.2475,28.4,84,0.0,1008.2,8.45,37.1,40,15.1,9.8,7,0,4,1,2026-04-25T23:10:19.913558+05:30
Tirupati,Andhra Pradesh,13.6288,79.4192,29.1,62,0.0,992.3,9.35,34.9,59,18.6,15.9,7,5,7,1,2026-04-25T23:10:19.913564+05:30
Warangal,Telangana,17.9689,79.5941,30.9,44,0.0,979.5,9.0,29.5,110,41.0,37.7,0,5,7,1,2026-04-25T23:10:19.913571+05:30
Nizamabad,Telangana,18.6725,78.0941,31.9,31,0.0,965.2,8.75,27.7,121,60.8,55.5,0,5,7,0,2026-04-25T23:10:19.913577+05:30
Mysore,Karnataka,12.2958,76.6396,26.2,56,0.0,929.1,8.9,45.0,86,28.1,25.1,4,5,7,1,2026-04-25T23:10:19.913584+05:30
Mangalore,Karnataka,12.9141,74.856,29.5,82,0.0,1007.0,9.1,40.7,64,27.6,20.5,7,5,4,1,2026-04-25T23:10:19.913590+05:30
Hubli-Dharwad,Karnataka,15.3647,75.124,27.2,64,0.0,941.0,9.0,47.5,113,34.7,32.7,7,5,7,1,2026-04-25T23:10:19.913618+05:30
Belgaum,Karnataka,15.8497,74.4977,25.1,82,0.0,926.5,9.2,34.9,117,39.5,36.2,7,5,7,1,2026-04-25T23:10:23.136078+05:30
Coimbatore,Tamil Nadu,11.0168,76.9558,28.7,62,0.0,962.7,8.95,46.1,76,36.6,33.4,7,5,7,1,2026-04-25T23:10:23.136109+05:30
Madurai,Tamil Nadu,9.9252,78.1198,29.8,55,0.0,994.3,9.25,39.2,57,12.0,11.4,4,5,7,1,2026-04-25T23:10:23.136119+05:30
Trichy,Tamil Nadu,10.7905,78.7047,28.6,73,0.0,1001.0,9.3,33.8,55,15.4,14.2,7,5,4,1,2026-04-25T23:10:23.136128+05:30
Salem,Tamil Nadu,11.6643,78.146,29.7,55,0.0,978.1,9.0,38.9,84,31.4,28.2,4,5,7,1,2026-04-25T23:10:23.136135+05:30
Tirunelveli,Tamil Nadu,8.7139,77.7567,28.5,73,0.0,1004.3,9.2,40.0,61,15.8,14.9,7,5,4,1,2026-04-25T23:10:23.136143+05:30
Vellore,Tamil Nadu,12.9165,79.1325,28.2,66,0.0,985.4,9.35,35.6,79,32.1,30.0,7,5,7,1,2026-04-25T23:10:23.136150+05:30
Erode,Tamil Nadu,11.341,77.7172,31.5,48,0.0,989.7,9.3,41.8,60,24.2,21.7,0,5,7,1,2026-04-25T23:10:23.136157+05:30
Kochi,Kerala,9.9312,76.2673,28.4,82,0.0,1009.5,8.4,42.1,95,26.3,24.7,7,0,4,1,2026-04-25T23:10:23.136165+05:30
Thiruvananthapuram,Kerala,8.5241,76.9366,26.4,89,0.0,1009.0,8.6,33.8,61,16.8,12.6,7,0,4,1,2026-04-25T23:10:23.136172+05:30
Kozhikode,Kerala,11.2588,75.7804,28.0,89,0.0,1008.2,8.7,36.7,60,18.9,13.4,7,0,4,1,2026-04-25T23:10:23.136179+05:30
Thrissur,Kerala,10.5276,76.2144,27.6,86,0.0,1007.7,8.1,44.6,78,26.6,25.3,7,5,4,1,2026-04-25T23:10:23.136186+05:30
Kannur,Kerala,11.8745,75.3704,29.4,83,0.0,1007.3,8.6,40.0,65,25.2,19.7,7,5,4,1,2026-04-25T23:10:23.136193+05:30
Patna,Bihar,25.5941,85.1376,27.5,77,0.0,1000.5,8.65,60.1,152,73.6,59.3,7,5,4,1,2026-04-25T23:10:23.136200+05:30
Gaya,Bihar,24.7914,85.0002,28.7,68,0.0,993.1,8.7,50.8,140,71.5,55.4,7,5,7,1,2026-04-25T23:10:23.136207+05:30
Muzaffarpur,Bihar,26.1209,85.3647,26.1,78,0.0,1000.5,8.6,50.4,154,76.8,61.0,7,5,4,1,2026-04-25T23:10:23.136214+05:30
Bhagalpur,Bihar,25.2425,87.0117,27.1,81,0.0,1001.3,8.6,55.1,175,63.1,54.9,7,5,4,1,2026-04-25T23:10:23.136220+05:30
Ranchi,Jharkhand,23.3441,85.3096,26.0,38,0.0,937.4,9.2,28.8,141,48.7,41.7,4,5,7,0,2026-04-25T23:10:23.136227+05:30
Jamshedpur,Jharkhand,22.8046,86.2029,30.1,71,0.0,990.0,8.9,33.5,131,40.9,35.2,3,5,7,1,2026-04-25T23:10:23.136233+05:30
Dhanbad,Jharkhand,23.7957,86.4304,29.5,77,0.0,979.9,8.95,48.6,155,46.3,43.0,7,5,7,1,2026-04-25T23:10:23.136240+05:30
Bokaro,Jharkhand,23.6693,86.1511,29.2,79,0.0,983.5,8.95,33.1,154,58.0,52.3,7,5,7,1,2026-04-25T23:10:23.136246+05:30
Bhubaneswar,Odisha,20.2961,85.8245,26.7,94,0.0,1003.2,9.1,41.0,61,15.5,12.0,7,5,4,1,2026-04-25T23:10:23.136253+05:30
Cuttack,Odisha,20.4625,85.8828,26.9,93,0.0,1004.9,9.15,38.2,61,15.5,12.0,7,5,4,1,2026-04-25T23:10:23.136259+05:30
Rourkela,Odisha,22.2604,84.8536,29.9,62,0.0,984.3,8.6,45.0,182,49.7,43.7,7,5,7,1,2026-04-25T23:10:23.136265+05:30
Raipur,Chhattisgarh,21.2514,81.6296,33.8,19,0.0,973.5,8.95,31.0,139,42.0,36.4,0,5,7,0,2026-04-25T23:10:23.136272+05:30
Bhilai,Chhattisgarh,21.1938,81.3509,32.8,24,0.0,974.0,9.0,35.6,111,44.2,39.0,0,5,7,0,2026-04-25T23:10:23.136278+05:30
Guwahati,Assam,26.1158,91.7086,23.4,93,0.0,1003.2,8.55,42.1,159,80.3,65.0,3,5,4,1,2026-04-25T23:10:23.136285+05:30
Agartala,Tripura,23.8315,91.2868,28.5,69,0.0,1007.0,8.75,35.6,151,74.5,61.2,7,5,4,1,2026-04-25T23:10:23.136291+05:30
Shillong,Meghalaya,25.5788,91.8933,17.5,81,0.0,857.8,8.2,29.5,144,66.1,49.2,3,10,7,0,2026-04-25T23:10:23.136298+05:30
Imphal,Manipur,24.817,93.9368,18.9,86,0.0,923.3,9.1,38.5,154,122.9,83.1,3,10,7,1,2026-04-25T23:10:23.136305+05:30
Aizawl,Mizoram,23.7271,92.7176,20.7,64,0.0,893.8,8.95,39.6,117,89.4,43.8,3,5,7,0,2026-04-25T23:10:23.136311+05:30
Kohima,Nagaland,25.6701,94.1077,14.8,93,0.0,854.7,8.8,38.2,157,118.7,87.3,3,10,7,0,2026-04-25T23:10:23.136317+05:30
Gangtok,Sikkim,27.3314,88.6138,13.7,86,0.0,838.1,8.8,41.4,86,44.9,33.2,3,10,7,0,2026-04-25T23:10:23.136324+05:30
Siliguri,West Bengal,26.7271,88.3953,24.0,77,0.0,994.3,8.45,33.8,149,88.9,67.3,3,5,7,1,2026-04-25T23:10:26.368050+05:30
Durgapur,West Bengal,23.5204,87.3119,27.9,85,0.0,995.5,8.9,38.5,130,34.2,31.9,7,5,7,1,2026-04-25T23:10:26.368081+05:30
Asansol,West Bengal,23.6739,86.9524,28.5,83,0.0,993.8,8.95,41.0,135,34.2,32.0,7,5,7,1,2026-04-25T23:10:26.368091+05:30
Pondicherry,Puducherry,11.9139,79.8145,28.8,81,0.0,1009.4,9.2,43.6,28,12.2,7.7,7,0,4,1,2026-04-25T23:10:26.368099+05:30
Port Blair,Andaman and Nicobar Islands,11.6234,92.7265,27.3,86,0.0,1008.5,9.15,33.1,42,24.5,16.9,7,0,4,1,2026-04-25T23:10:26.368107+05:30
Haridwar,Uttarakhand,29.9457,78.1642,24.6,52,0.0,973.0,7.25,35.6,78,62.2,29.2,0,5,7,0,2026-04-25T23:10:26.368115+05:30
Rishikesh,Uttarakhand,30.0869,78.2676,22.6,56,0.0,965.5,7.35,28.4,70,116.9,36.3,0,5,7,0,2026-04-25T23:10:26.368122+05:30
Nainital,Uttarakhand,29.3919,79.4542,15.4,57,0.0,805.6,8.2,40.3,117,76.1,28.1,0,5,7,0,2026-04-25T23:10:26.368129+05:30
Mussoorie,Uttarakhand,30.4599,78.0664,17.9,45,0.0,804.4,7.75,59.4,65,68.7,31.7,0,5,7,0,2026-04-25T23:10:26.368137+05:30
Dharamshala,Himachal Pradesh,32.219,76.3234,21.4,42,0.0,871.2,7.65,59.8,50,44.6,16.8,0,5,7,0,2026-04-25T23:10:26.368144+05:30
Dalhousie,Himachal Pradesh,32.5387,75.971,11.9,69,0.0,803.6,8.1,45.7,62,73.3,33.8,3,5,7,0,2026-04-25T23:10:26.368152+05:30
Patiala,Punjab,30.3398,76.3869,29.3,35,0.0,978.5,7.35,56.2,655,685.5,91.0,4,5,7,0,2026-04-25T23:10:26.368159+05:30
Bhatinda,Punjab,30.211,74.9455,30.1,31,0.0,984.0,8.05,52.9,91,112.9,43.4,0,5,7,0,2026-04-25T23:10:26.368165+05:30
Rohtak,Haryana,28.8955,76.6066,30.1,30,0.0,981.9,7.35,51.1,860,998.4,149.9,0,5,7,0,2026-04-25T23:10:26.368172+05:30
Panipat,Haryana,29.3909,76.9635,30.9,29,0.0,980.5,7.15,54.0,1550,1523.6,197.0,0,5,7,0,2026-04-25T23:10:26.368178+05:30
Mathura,Uttar Pradesh,27.4924,77.6737,32.6,25,0.0,986.6,7.75,45.0,696,1724.8,233.8,0,5,7,0,2026-04-25T23:10:26.368184+05:30
Vrindavan,Uttar Pradesh,27.5823,77.7027,31.9,27,0.0,987.0,7.65,44.6,696,1724.8,233.8,0,5,7,0,2026-04-25T23:10:26.368191+05:30
Ayodhya,Uttar Pradesh,26.7922,82.1998,29.2,62,0.0,994.6,8.05,35.3,140,149.5,65.4,7,5,7,1,2026-04-25T23:10:26.368197+05:30
Ratlam,Madhya Pradesh,23.3315,75.0367,33.0,20,0.0,955.3,8.45,29.9,63,71.9,42.7,0,5,7,0,2026-04-25T23:10:26.368204+05:30
Sagar,Madhya Pradesh,23.8388,78.7378,30.9,23,0.0,950.2,8.65,29.9,79,62.6,22.1,0,5,7,0,2026-04-25T23:10:26.368210+05:30
Satna,Madhya Pradesh,24.6005,80.8322,31.5,25,0.0,970.4,8.65,41.0,86,121.5,33.4,0,5,7,0,2026-04-25T23:10:26.368216+05:30
Akola,Maharashtra,20.7002,77.0082,33.0,22,0.0,974.7,8.7,23.4,105,31.5,22.9,0,5,7,0,2026-04-25T23:10:26.368223+05:30
Amravati,Maharashtra,20.9374,77.7796,35.0,17,0.0,967.3,8.35,27.7,104,40.5,31.0,0,5,7,0,2026-04-25T23:10:26.368230+05:30
Latur,Maharashtra,18.4088,76.5604,30.2,27,0.0,940.3,8.6,32.0,131,52.6,45.9,0,5,7,0,2026-04-25T23:10:26.368236+05:30
Nanded,Maharashtra,19.1383,77.3091,31.4,30,0.0,968.5,8.6,28.8,100,48.2,42.8,0,5,7,0,2026-04-25T23:10:26.368243+05:30
Gulbarga,Karnataka,17.3297,76.8343,32.2,31,0.0,959.5,9.05,27.7,154,48.5,43.8,0,5,7,0,2026-04-25T23:10:26.368249+05:30
Bidar,Karnataka,17.9104,77.5199,29.0,38,0.0,936.3,8.85,27.7,128,62.9,56.3,4,5,7,0,2026-04-25T23:10:26.368255+05:30
Hospet,Karnataka,15.2689,76.3909,31.8,26,0.0,955.8,9.3,27.4,151,43.4,38.9,0,5,7,0,2026-04-25T23:10:26.368261+05:30
Tirupur,Tamil Nadu,11.1085,77.3411,31.6,43,0.0,975.8,9.4,41.8,63,29.8,26.6,0,5,7,1,2026-04-25T23:10:26.368267+05:30
Alappuzha,Kerala,9.4981,76.3388,27.0,94,0.0,1009.7,8.55,39.2,79,23.2,20.2,7,0,4,1,2026-04-25T23:10:26.368274+05:30
Munnar,Kerala,10.0889,77.0595,18.5,71,0.0,857.8,9.15,31.3,61,29.9,28.6,3,5,7,0,2026-04-25T23:10:26.368281+05:30
Silchar,Assam,24.8333,92.7789,24.5,88,0.0,1005.3,8.75,28.8,161,120.1,90.8,3,5,4,1,2026-04-25T23:10:26.368288+05:30
Dibrugarh,Assam,27.4728,94.912,22.9,93,0.0,997.9,8.6,31.7,96,31.1,24.3,3,5,7,1,2026-04-25T23:10:26.368295+05:30
