city,state,latitude,longitude,temp,humidity,rain,pressure,uv_index,wind_gusts,aqi,pm10,pm2_5,mosquito_risk,arthritis_risk,migraine_risk,frizz_risk,updated_at
Delhi,Delhi,28.6139,77.209,33.2,30,0.0,985.3,5.95,20.2,175,170.9,47.3,0,5,3,0,2026-03-07T16:53:12.940572+05:30
Mumbai,Maharashtra,19.076,72.8777,27.1,80,0.0,1007.5,7.5,24.8,146,38.5,32.7,7,5,4,1,2026-03-07T16:53:12.940615+05:30
Bangalore,Karnataka,12.9716,77.5946,31.9,25,0.0,911.4,9.2,24.8,148,33.5,27.5,0,5,7,0,2026-03-07T16:53:12.940630+05:30
Hyderabad,Telangana,17.385,78.4867,35.9,18,0.0,952.8,8.5,27.0,133,24.6,16.9,0,5,10,0,2026-03-07T16:53:12.940641+05:30
Chennai,Tamil Nadu,13.0827,80.2707,31.0,58,0.0,1006.9,8.9,34.6,94,31.9,24.6,0,5,4,1,2026-03-07T16:53:12.940668+05:30
Kolkata,West Bengal,22.5726,88.3639,27.9,67,0.0,1008.4,7.85,18.0,142,68.5,51.9,7,0,4,1,2026-03-07T16:53:12.940678+05:30
Pune,Maharashtra,18.5204,73.8567,37.3,17,0.0,947.9,8.05,24.8,109,17.3,15.0,0,5,10,0,2026-03-07T16:53:12.940690+05:30
Ahmedabad,Gujarat,23.0225,72.5714,36.9,21,0.0,1002.4,7.3,13.7,105,23.5,17.4,0,5,7,0,2026-03-07T16:53:12.940698+05:30
Jaipur,Rajasthan,26.9124,75.7873,36.5,13,0.0,961.9,6.75,20.2,105,49.1,15.3,0,5,10,0,2026-03-07T16:53:12.940705+05:30
Lucknow,Uttar Pradesh,26.8467,80.9462,31.6,41,0.0,996.0,6.5,16.9,169,101.0,69.4,0,5,7,1,2026-03-07T16:53:12.940713+05:30
Kanpur,Uttar Pradesh,26.4499,80.3319,31.1,46,0.0,994.3,6.5,14.4,164,120.6,68.0,0,5,7,1,2026-03-07T16:53:12.940720+05:30
Chandigarh,Chandigarh,30.7333,76.7794,30.7,44,0.0,971.4,5.9,19.1,159,77.8,51.2,0,5,3,1,2026-03-07T16:53:12.940728+05:30
Srinagar,Jammu and Kashmir,34.0837,74.7973,19.3,46,0.0,845.6,5.6,16.9,109,39.3,23.3,0,5,3,0,2026-03-07T16:53:12.940735+05:30
Jammu,Jammu and Kashmir,32.7266,74.857,28.1,64,0.0,975.8,5.35,11.5,136,52.4,43.1,7,5,3,1,2026-03-07T16:53:12.940742+05:30
Amritsar,Punjab,31.634,74.8723,31.1,44,0.0,983.3,6.3,18.7,150,66.6,34.6,0,5,7,1,2026-03-07T16:53:12.940750+05:30
Ludhiana,Punjab,30.901,75.8573,31.8,40,0.0,981.4,6.1,16.2,168,95.5,48.4,0,5,7,1,2026-03-07T16:53:12.940756+05:30
Jalandhar,Punjab,31.326,75.5762,31.6,40,0.0,982.5,6.3,18.4,163,89.4,44.7,0,5,7,1,2026-03-07T16:53:12.940765+05:30
Dehradun,Uttarakhand,30.6284,78.0322,20.7,66,0.0,834.1,6.2,27.0,108,59.8,44.0,3,5,7,0,2026-03-07T16:53:12.940772+05:30
Shimla,Himachal Pradesh,31.1048,77.1734,19.7,61,0.0,789.7,6.3,35.6,127,50.5,39.2,3,5,7,0,2026-03-07T16:53:12.940779+05:30
Manali,Himachal Pradesh,32.2396,77.1887,21.4,36,0.0,825.1,7.2,40.3,92,19.2,8.9,0,5,7,0,2026-03-07T16:53:12.940786+05:30
Gurgaon,Haryana,28.4595,77.0266,33.1,29,0.0,983.6,6.05,13.7,200,411.6,62.6,0,5,7,0,2026-03-07T16:53:12.940792+05:30
Noida,Uttar Pradesh,28.5355,77.391,33.7,27,0.0,986.7,5.95,19.1,200,411.6,62.6,0,5,3,0,2026-03-07T16:53:12.940798+05:30
Ghaziabad,Uttar Pradesh,28.6692,77.4538,32.8,31,0.0,984.9,5.95,17.6,175,146.2,55.3,0,5,3,0,2026-03-07T16:53:12.940805+05:30
Faridabad,Haryana,28.4089,77.3178,32.8,32,0.0,985.9,6.0,14.4,200,411.6,62.6,0,5,3,0,2026-03-07T16:53:12.940811+05:30
Meerut,Uttar Pradesh,28.9845,77.7064,32.1,37,0.0,983.7,5.8,20.2,175,146.2,55.3,0,5,3,0,2026-03-07T16:53:12.940818+05:30
Agra,Uttar Pradesh,27.1767,78.0081,34.6,25,0.0,989.7,6.3,15.8,168,226.8,41.3,0,5,7,0,2026-03-07T16:53:12.940825+05:30
Varanasi,Uttar Pradesh,25.3176,82.9739,31.0,46,0.0,999.7,7.15,16.9,175,87.5,72.2,0,5,7,1,2026-03-07T16:53:12.940836+05:30
Prayagraj,Uttar Pradesh,25.4358,81.8463,30.2,50,0.0,998.3,7.0,14.0,172,85.0,65.4,0,5,7,1,2026-03-07T16:53:12.940843+05:30
Gorakhpur,Uttar Pradesh,26.7606,83.3732,30.7,48,0.0,999.7,6.85,9.4,171,75.0,63.6,0,5,7,1,2026-03-07T16:53:12.940850+05:30
Bareilly,Uttar Pradesh,28.367,79.4304,31.0,48,0.0,989.3,6.15,10.1,165,114.6,75.0,0,5,7,1,2026-03-07T16:53:12.940856+05:30
Aligarh,Uttar Pradesh,27.8974,78.088,33.2,33,0.0,987.6,6.1,17.6,178,216.5,52.3,0,5,7,0,2026-03-07T16:53:12.940862+05:30
Moradabad,Uttar Pradesh,28.8386,78.7733,31.2,46,0.0,986.2,5.95,12.2,167,111.1,71.7,0,5,3,1,2026-03-07T16:53:12.940868+05:30
Saharanpur,Uttar Pradesh,29.9637,77.546,31.4,41,0.0,978.1,5.6,23.0,171,90.1,57.4,0,5,3,1,2026-03-07T16:53:12.940874+05:30
Jhansi,Uttar Pradesh,25.4484,78.5685,34.5,18,0.0,980.0,6.95,25.6,116,92.9,28.1,0,5,7,0,2026-03-07T16:53:16.165505+05:30
Surat,Gujarat,21.1702,72.8311,31.3,47,0.0,1006.8,7.2,24.5,153,65.0,63.8,0,5,4,1,2026-03-07T16:53:16.165534+05:30
Vadodara,Gujarat,22.3072,73.1812,36.2,27,0.0,1004.4,7.35,18.4,158,35.9,34.0,0,5,7,0,2026-03-07T16:53:16.165544+05:30
Rajkot,Gujarat,22.3039,70.8022,36.2,25,0.0,994.7,7.15,23.4,68,30.5,18.9,0,5,10,0,2026-03-07T16:53:16.165553+05:30
Thane,Maharashtra,19.2183,72.9781,29.6,63,0.0,1007.1,7.5,33.8,146,38.5,32.7,7,5,4,1,2026-03-07T16:53:16.165561+05:30
Nagpur,Maharashtra,21.1458,79.0882,36.4,21,0.0,972.8,7.85,21.2,97,30.0,16.4,0,5,10,0,2026-03-07T16:53:16.165568+05:30
Nashik,Maharashtra,19.9975,73.7898,35.5,22,0.0,945.6,7.65,34.2,118,15.8,14.4,0,5,10,0,2026-03-07T16:53:16.165576+05:30
Aurangabad,Maharashtra,19.8762,75.3433,36.7,18,0.0,943.9,8.2,22.7,125,19.0,17.5,0,5,10,0,2026-03-07T16:53:16.165582+05:30
Solapur,Maharashtra,17.6599,75.9064,36.2,17,0.0,956.4,8.4,19.8,119,18.5,13.3,0,5,10,0,2026-03-07T16:53:16.165590+05:30
Kolhapur,Maharashtra,16.705,74.2433,35.4,19,0.0,947.0,8.55,29.2,151,21.0,17.1,0,5,10,0,2026-03-07T16:53:16.165597+05:30
Goa,Goa,15.2993,74.124,29.7,70,0.0,996.8,8.6,31.7,154,48.0,44.9,7,5,7,1,2026-03-07T16:53:16.165604+05:30
Jodhpur,Rajasthan,26.2389,73.0243,36.3,19,0.0,984.5,7.0,20.2,65,45.6,10.9,0,5,10,0,2026-03-07T16:53:16.165611+05:30
Udaipur,Rajasthan,24.5854,73.7125,36.0,18,0.0,948.4,7.65,19.4,68,6.3,5.4,0,5,10,0,2026-03-07T16:53:16.165618+05:30
Kota,Rajasthan,25.2138,75.8648,36.4,20,0.0,980.2,7.05,14.8,88,23.7,20.3,0,5,10,0,2026-03-07T16:53:16.165625+05:30
Bikaner,Rajasthan,28.0229,73.3119,36.3,17,0.0,983.4,6.75,19.4,63,38.2,13.1,0,5,10,0,2026-03-07T16:53:16.165633+05:30
Ajmer,Rajasthan,26.4499,74.6399,35.3,18,0.0,956.8,7.0,16.9,76,12.5,11.1,0,5,10,0,2026-03-07T16:53:16.165639+05:30
Gwalior,Madhya Pradesh,26.2183,78.1828,32.5,31,0.0,985.4,6.65,20.5,115,76.8,20.9,0,5,7,0,2026-03-07T16:53:16.165664+05:30
Indore,Madhya Pradesh,22.7196,75.8577,34.6,20,0.0,949.4,7.6,18.0,86,17.7,14.5,0,5,7,0,2026-03-07T16:53:16.165671+05:30
Bhopal,Madhya Pradesh,23.2599,77.4126,34.1,23,0.0,955.1,7.5,20.9,82,28.9,11.5,0,5,7,0,2026-03-07T16:53:16.165678+05:30
Jabalpur,Madhya Pradesh,23.1815,79.9864,33.4,24,0.0,962.6,7.55,26.3,91,59.1,25.1,0,5,7,0,2026-03-07T16:53:16.165684+05:30
Ujjain,Madhya Pradesh,23.1765,75.7885,34.2,24,0.0,955.2,7.5,13.7,93,16.4,14.6,0,5,7,0,2026-03-07T16:53:16.165692+05:30
Visakhapatnam,Andhra Pradesh,17.6868,83.2185,28.9,68,0.0,1004.0,8.45,38.9,138,43.8,37.0,7,5,4,1,2026-03-07T16:53:16.165699+05:30
Vijayawada,Andhra Pradesh,16.5062,80.648,34.5,43,0.0,1001.5,8.6,30.6,147,47.5,38.5,0,5,4,1,2026-03-07T16:53:16.165706+05:30
Guntur,Andhra Pradesh,16.3067,80.4365,32.9,50,0.0,1003.0,8.6,32.4,148,43.4,32.1,0,5,4,1,2026-03-07T16:53:16.165712+05:30
Nellore,Andhra Pradesh,14.4426,79.9865,32.1,51,0.0,1005.1,8.75,33.8,139,43.9,35.5,0,5,4,1,2026-03-07T16:53:16.165719+05:30
Kurnool,Andhra Pradesh,15.8281,78.0373,37.9,16,0.0,975.4,8.6,24.8,101,30.6,17.9,0,5,10,0,2026-03-07T16:53:16.165726+05:30
Kakinada,Andhra Pradesh,16.9891,82.2475,30.7,61,0.0,1007.4,8.5,32.0,106,39.3,31.3,3,5,4,1,2026-03-07T16:53:16.165733+05:30
Tirupati,Andhra Pradesh,13.6288,79.4192,35.5,26,0.0,990.1,8.9,32.8,148,49.9,41.0,0,5,10,0,2026-03-07T16:53:16.165739+05:30
Warangal,Telangana,17.9689,79.5941,35.6,21,0.0,977.9,8.35,22.0,127,29.5,20.0,0,5,10,0,2026-03-07T16:53:16.165746+05:30
Nizamabad,Telangana,18.6725,78.0941,35.9,18,0.0,964.4,8.2,22.3,116,26.5,17.1,0,5,10,0,2026-03-07T16:53:16.165753+05:30
Mysore,Karnataka,12.2958,76.6396,32.7,26,0.0,927.6,9.2,34.6,128,33.2,29.5,0,5,7,0,2026-03-07T16:53:16.165760+05:30
Mangalore,Karnataka,12.9141,74.856,28.7,79,0.0,1005.1,8.8,26.6,153,50.4,46.6,7,5,4,1,2026-03-07T16:53:16.165767+05:30
Hubli-Dharwad,Karnataka,15.3647,75.124,35.6,16,0.0,939.9,8.8,26.3,163,26.1,21.8,0,5,10,0,2026-03-07T16:53:16.165774+05:30
Belgaum,Karnataka,15.8497,74.4977,34.6,18,0.0,925.3,8.8,41.0,163,22.7,19.1,0,5,7,0,2026-03-07T16:53:19.388725+05:30
Coimbatore,Tamil Nadu,11.0168,76.9558,33.8,32,0.0,960.3,9.2,37.8,142,32.0,28.8,0,5,7,0,2026-03-07T16:53:19.388757+05:30
Madurai,Tamil Nadu,9.9252,78.1198,36.7,23,0.0,990.8,9.15,31.7,134,33.2,28.3,0,5,10,0,2026-03-07T16:53:19.388768+05:30
Trichy,Tamil Nadu,10.7905,78.7047,36.3,26,0.0,997.9,9.05,27.0,94,34.6,28.7,0,5,10,0,2026-03-07T16:53:19.388776+05:30
Salem,Tamil Nadu,11.6643,78.146,35.8,29,0.0,975.4,9.1,20.2,143,34.9,29.6,0,5,10,0,2026-03-07T16:53:19.388783+05:30
Tirunelveli,Tamil Nadu,8.7139,77.7567,33.6,42,0.0,1001.6,9.15,50.0,112,34.3,29.6,0,5,4,1,2026-03-07T16:53:19.388791+05:30
Vellore,Tamil Nadu,12.9165,79.1325,34.9,25,0.0,983.4,9.0,35.3,151,45.3,36.9,0,5,7,0,2026-03-07T16:53:19.388798+05:30
Erode,Tamil Nadu,11.341,77.7172,36.7,29,0.0,986.7,9.1,24.5,129,34.7,31.0,0,5,10,0,2026-03-07T16:53:19.388805+05:30
Kochi,Kerala,9.9312,76.2673,28.0,82,0.0,1007.7,8.6,30.6,134,33.8,31.9,7,5,4,1,2026-03-07T16:53:19.388813+05:30
Thiruvananthapuram,Kerala,8.5241,76.9366,28.2,81,0.0,1006.9,9.0,33.8,105,30.6,27.6,7,5,4,1,2026-03-07T16:53:19.388820+05:30
Kozhikode,Kerala,11.2588,75.7804,29.2,78,0.0,1006.7,8.9,27.4,143,41.2,38.2,7,5,4,1,2026-03-07T16:53:19.388827+05:30
Thrissur,Kerala,10.5276,76.2144,30.3,71,0.0,1005.8,8.95,31.3,129,36.4,34.6,3,5,4,1,2026-03-07T16:53:19.388835+05:30
Kannur,Kerala,11.8745,75.3704,29.8,69,0.0,1006.0,8.9,32.0,151,49.4,45.6,7,5,4,1,2026-03-07T16:53:19.388842+05:30
Patna,Bihar,25.5941,85.1376,31.4,42,0.0,1002.7,7.3,20.2,159,78.2,69.2,0,5,4,1,2026-03-07T16:53:19.388850+05:30
Gaya,Bihar,24.7914,85.0002,28.8,59,0.0,995.7,7.4,25.2,153,68.7,59.8,4,5,7,1,2026-03-07T16:53:19.388857+05:30
Muzaffarpur,Bihar,26.1209,85.3647,31.3,41,0.0,1002.7,7.25,17.6,168,79.9,71.0,0,5,4,1,2026-03-07T16:53:19.388864+05:30
Bhagalpur,Bihar,25.2425,87.0117,29.3,56,0.0,1003.6,7.3,14.8,163,74.0,61.7,4,5,4,1,2026-03-07T16:53:19.388870+05:30
Ranchi,Jharkhand,23.3441,85.3096,28.8,36,0.0,939.3,8.05,28.8,152,100.8,68.0,4,5,7,0,2026-03-07T16:53:19.388877+05:30
Jamshedpur,Jharkhand,22.8046,86.2029,32.3,37,0.0,991.8,7.95,27.4,146,94.3,64.3,0,5,7,0,2026-03-07T16:53:19.388883+05:30
Dhanbad,Jharkhand,23.7957,86.4304,31.9,33,0.0,981.4,7.8,26.3,165,95.9,74.3,0,5,7,0,2026-03-07T16:53:19.388890+05:30
Bokaro,Jharkhand,23.6693,86.1511,31.1,33,0.0,985.3,7.8,25.9,168,101.7,78.0,0,5,7,0,2026-03-07T16:53:19.388897+05:30
Bhubaneswar,Odisha,20.2961,85.8245,30.4,60,0.0,1003.6,8.25,32.4,150,55.5,46.8,0,5,4,1,2026-03-07T16:53:19.388903+05:30
Cuttack,Odisha,20.4625,85.8828,31.4,51,0.0,1005.3,8.25,29.9,150,55.5,46.8,0,5,4,1,2026-03-07T16:53:19.388910+05:30
Rourkela,Odisha,22.2604,84.8536,33.7,28,0.0,985.4,7.85,20.2,172,103.1,65.4,0,5,7,0,2026-03-07T16:53:19.388916+05:30
Raipur,Chhattisgarh,21.2514,81.6296,35.1,28,0.0,974.3,7.95,22.3,152,75.9,34.9,0,5,10,0,2026-03-07T16:53:19.388923+05:30
Bhilai,Chhattisgarh,21.1938,81.3509,36.4,23,0.0,974.5,7.95,18.4,131,68.5,31.0,0,5,10,0,2026-03-07T16:53:19.388929+05:30
Guwahati,Assam,26.1158,91.7086,30.1,53,0.0,1002.7,7.3,20.2,146,63.8,54.9,0,5,4,1,2026-03-07T16:53:19.388936+05:30
Agartala,Tripura,23.8315,91.2868,29.5,49,0.0,1008.1,7.6,19.1,152,64.0,49.6,4,0,4,1,2026-03-07T16:53:19.388942+05:30
Shillong,Meghalaya,25.5788,91.8933,18.2,53,0.0,858.8,7.45,42.1,112,45.6,37.5,0,5,7,0,2026-03-07T16:53:19.388949+05:30
Imphal,Manipur,24.817,93.9368,23.3,53,0.0,925.1,7.85,40.3,184,68.0,60.8,0,5,7,0,2026-03-07T16:53:19.388955+05:30
Aizawl,Mizoram,23.7271,92.7176,24.6,43,0.0,895.0,7.8,31.0,176,78.0,70.3,0,5,7,0,2026-03-07T16:53:19.388961+05:30
Kohima,Nagaland,25.6701,94.1077,17.4,78,0.0,857.0,7.7,51.1,157,54.5,48.2,3,5,7,0,2026-03-07T16:53:19.388968+05:30
Gangtok,Sikkim,27.3314,88.6138,15.1,84,0.0,840.1,7.25,17.6,154,60.5,52.3,3,10,7,0,2026-03-07T16:53:19.388975+05:30
Siliguri,West Bengal,26.7271,88.3953,24.9,60,0.0,996.8,7.25,15.8,153,64.0,53.2,0,5,7,1,2026-03-07T16:53:22.626317+05:30
Durgapur,West Bengal,23.5204,87.3119,31.7,39,0.0,996.7,7.8,22.7,160,94.3,75.9,0,5,7,1,2026-03-07T16:53:22.626351+05:30
Asansol,West Bengal,23.6739,86.9524,31.8,39,0.0,995.1,7.8,19.1,159,91.0,71.7,0,5,7,1,2026-03-07T16:53:22.626364+05:30
Pondicherry,Puducherry,11.9139,79.8145,32.1,55,0.0,1007.7,8.9,33.1,85,27.6,19.7,0,5,4,1,2026-03-07T16:53:22.626374+05:30
Port Blair,Andaman and Nicobar Islands,11.6234,92.7265,28.1,68,0.0,1007.9,8.85,16.6,94,52.9,35.3,7,5,4,1,2026-03-07T16:53:22.626382+05:30
Haridwar,Uttarakhand,29.9457,78.1642,31.0,48,0.0,976.9,5.75,21.6,162,87.1,59.8,0,5,3,1,2026-03-07T16:53:22.626389+05:30
Rishikesh,Uttarakhand,30.0869,78.2676,29.7,52,0.0,969.9,5.8,23.8,160,92.2,65.0,4,5,3,1,2026-03-07T16:53:22.626396+05:30
Nainital,Uttarakhand,29.3919,79.4542,21.8,59,0.0,810.0,6.6,54.4,159,101.7,70.3,0,5,7,0,2026-03-07T16:53:22.626404+05:30
Mussoorie,Uttarakhand,30.4599,78.0664,20.6,66,0.0,806.8,6.1,41.8,160,97.3,68.9,3,5,7,0,2026-03-07T16:53:22.626412+05:30
Dharamshala,Himachal Pradesh,32.219,76.3234,24.9,62,0.0,873.3,6.1,21.6,59,25.1,12.1,3,5,7,1,2026-03-07T16:53:22.626419+05:30
Dalhousie,Himachal Pradesh,32.5387,75.971,22.3,57,0.0,808.3,6.55,17.3,102,38.0,24.0,0,5,7,0,2026-03-07T16:53:22.626427+05:30
Patiala,Punjab,30.3398,76.3869,31.6,41,0.0,980.7,5.8,16.9,170,148.1,50.9,0,5,3,1,2026-03-07T16:53:22.626435+05:30
Bhatinda,Punjab,30.211,74.9455,33.5,30,0.0,985.8,6.45,20.5,133,134.1,40.4,0,5,7,0,2026-03-07T16:53:22.626442+05:30
Rohtak,Haryana,28.8955,76.6066,32.8,32,0.0,984.0,5.95,13.3,171,189.1,39.3,0,5,3,0,2026-03-07T16:53:22.626448+05:30
Panipat,Haryana,29.3909,76.9635,32.4,36,0.0,982.7,5.75,18.7,191,204.9,47.5,0,5,3,0,2026-03-07T16:53:22.626455+05:30
Mathura,Uttar Pradesh,27.4924,77.6737,34.3,23,0.0,988.8,6.2,17.3,169,153.7,37.0,0,5,7,0,2026-03-07T16:53:22.626461+05:30
Vrindavan,Uttar Pradesh,27.5823,77.7027,33.8,26,0.0,989.3,6.2,18.0,169,153.7,37.0,0,5,7,0,2026-03-07T16:53:22.626468+05:30
Ayodhya,Uttar Pradesh,26.7922,82.1998,30.8,48,0.0,997.8,6.65,18.4,173,83.4,64.7,0,5,7,1,2026-03-07T16:53:22.626474+05:30
Ratlam,Madhya Pradesh,23.3315,75.0367,34.4,24,0.0,955.9,7.45,13.7,83,13.6,12.2,0,5,7,0,2026-03-07T16:53:22.626481+05:30
Sagar,Madhya Pradesh,23.8388,78.7378,33.0,28,0.0,951.7,7.4,22.7,90,43.5,14.6,0,5,7,0,2026-03-07T16:53:22.626487+05:30
Satna,Madhya Pradesh,24.6005,80.8322,32.9,35,0.0,972.9,7.4,21.2,152,89.2,53.4,0,5,7,0,2026-03-07T16:53:22.626494+05:30
Akola,Maharashtra,20.7002,77.0082,37.6,21,0.0,974.5,7.9,18.0,109,27.0,19.8,0,5,10,0,2026-03-07T16:53:22.626501+05:30
Amravati,Maharashtra,20.9374,77.7796,37.3,18,0.0,966.8,7.85,13.3,103,26.8,17.3,0,5,10,0,2026-03-07T16:53:22.626509+05:30
Latur,Maharashtra,18.4088,76.5604,35.0,17,0.0,939.9,8.35,28.4,122,22.8,17.6,0,5,7,0,2026-03-07T16:53:22.626516+05:30
Nanded,Maharashtra,19.1383,77.3091,37.7,17,0.0,967.9,8.1,19.8,110,24.7,15.3,0,5,10,0,2026-03-07T16:53:22.626523+05:30
Gulbarga,Karnataka,17.3297,76.8343,37.7,14,0.0,957.7,8.45,21.2,111,19.8,14.5,0,5,10,0,2026-03-07T16:53:22.626529+05:30
Bidar,Karnataka,17.9104,77.5199,35.9,18,0.0,935.4,8.4,20.9,113,23.1,16.2,0,5,10,0,2026-03-07T16:53:22.626535+05:30
Hospet,Karnataka,15.2689,76.3909,35.9,20,0.0,954.9,8.75,19.4,160,28.0,22.8,0,5,10,0,2026-03-07T16:53:22.626542+05:30
Tirupur,Tamil Nadu,11.1085,77.3411,36.2,24,0.0,973.5,9.2,30.6,142,36.1,32.6,0,5,10,0,2026-03-07T16:53:22.626548+05:30
Alappuzha,Kerala,9.4981,76.3388,28.0,82,0.0,1007.8,9.0,28.1,127,31.1,28.9,7,5,4,1,2026-03-07T16:53:22.626555+05:30
Munnar,Kerala,10.0889,77.0595,25.1,69,0.0,857.4,9.5,37.4,96,30.5,27.6,7,5,7,1,2026-03-07T16:53:22.626562+05:30
Silchar,Assam,24.8333,92.7789,30.9,46,0.0,1005.8,7.55,21.2,163,56.0,51.6,0,5,4,1,2026-03-07T16:53:22.626570+05:30
Dibrugarh,Assam,27.4728,94.912,28.6,58,0.0,997.0,7.3,14.8,145,88.5,75.4,4,5,7,1,2026-03-07T16:53:22.626576+05:30
