city,state,latitude,longitude,temp,humidity,rain,pressure,uv_index,wind_gusts,aqi,pm10,pm2_5,mosquito_risk,arthritis_risk,migraine_risk,frizz_risk,updated_at
Delhi,Delhi,28.6139,77.209,25.8,42,0.0,981.7,6.15,23.0,138,149.0,54.9,4,5,7,0,2026-04-17T05:12:56.307357+05:30
Mumbai,Maharashtra,19.076,72.8777,27.4,81,0.0,1007.5,7.0,22.0,78,57.9,26.4,7,5,4,1,2026-04-17T05:12:56.307402+05:30
Bangalore,Karnataka,12.9716,77.5946,22.9,77,0.0,911.0,9.55,35.6,85,41.4,37.1,3,5,7,1,2026-04-17T05:12:56.307418+05:30
Hyderabad,Telangana,17.385,78.4867,28.1,62,0.0,952.1,9.25,27.7,85,24.2,22.1,7,5,7,1,2026-04-17T05:12:56.307428+05:30
Chennai,Tamil Nadu,13.0827,80.2707,27.7,91,0.0,1006.4,9.0,34.2,33,10.9,7.9,7,5,4,1,2026-04-17T05:12:56.307438+05:30
Kolkata,West Bengal,22.5726,88.3639,27.0,94,0.0,1006.8,8.9,24.5,73,19.7,15.5,7,5,4,1,2026-04-17T05:12:56.307451+05:30
Pune,Maharashtra,18.5204,73.8567,20.9,76,0.0,946.9,7.95,45.4,68,41.4,32.2,3,5,7,1,2026-04-17T05:12:56.307458+05:30
Ahmedabad,Gujarat,23.0225,72.5714,26.4,52,0.0,1001.0,7.8,19.1,71,26.3,13.5,4,5,4,0,2026-04-17T05:12:56.307467+05:30
Jaipur,Rajasthan,26.9124,75.7873,28.9,30,0.0,958.7,6.55,32.4,118,92.4,25.3,4,5,7,0,2026-04-17T05:12:56.307475+05:30
Lucknow,Uttar Pradesh,26.8467,80.9462,22.7,60,0.0,992.8,7.25,24.1,102,139.2,40.9,0,5,7,0,2026-04-17T05:12:56.307483+05:30
Kanpur,Uttar Pradesh,26.4499,80.3319,22.6,60,0.0,990.7,7.65,16.2,139,172.8,46.4,0,5,7,0,2026-04-17T05:12:56.307490+05:30
Chandigarh,Chandigarh,30.7333,76.7794,22.7,47,0.0,967.2,7.1,50.4,47,12.9,8.7,0,5,7,0,2026-04-17T05:12:56.307497+05:30
Srinagar,Jammu and Kashmir,34.0837,74.7973,10.6,85,0.0,842.8,5.15,25.9,72,32.8,20.7,3,10,3,0,2026-04-17T05:12:56.307504+05:30
Jammu,Jammu and Kashmir,32.7266,74.857,25.9,39,0.0,972.6,5.25,43.6,52,19.3,14.7,4,5,3,0,2026-04-17T05:12:56.307511+05:30
Amritsar,Punjab,31.634,74.8723,22.0,54,0.0,980.1,7.35,32.4,61,22.6,16.4,0,5,7,0,2026-04-17T05:12:56.307522+05:30
Ludhiana,Punjab,30.901,75.8573,22.4,51,0.0,977.4,7.4,38.2,78,32.6,26.5,0,5,7,0,2026-04-17T05:12:56.307531+05:30
Jalandhar,Punjab,31.326,75.5762,22.4,49,0.0,978.6,7.0,36.0,66,24.0,16.2,0,5,7,0,2026-04-17T05:12:56.307537+05:30
Dehradun,Uttarakhand,30.6284,78.0322,15.4,49,0.0,830.6,6.6,36.4,33,9.7,8.7,0,5,7,0,2026-04-17T05:12:56.307544+05:30
Shimla,Himachal Pradesh,31.1048,77.1734,13.8,55,0.0,784.5,7.2,38.5,39,13.6,9.8,0,5,7,0,2026-04-17T05:12:56.307551+05:30
Manali,Himachal Pradesh,32.2396,77.1887,15.5,42,0.0,821.7,8.3,23.0,47,18.8,12.0,0,5,7,0,2026-04-17T05:12:56.307558+05:30
Gurgaon,Haryana,28.4595,77.0266,23.7,50,0.0,979.5,6.0,27.4,258,194.2,69.6,0,5,3,0,2026-04-17T05:12:56.307581+05:30
Noida,Uttar Pradesh,28.5355,77.391,25.6,44,0.0,983.2,6.6,20.2,258,194.2,69.6,4,5,7,0,2026-04-17T05:12:56.307589+05:30
Ghaziabad,Uttar Pradesh,28.6692,77.4538,23.4,52,0.0,981.3,6.0,23.8,103,121.1,47.4,0,5,3,0,2026-04-17T05:12:56.307595+05:30
Faridabad,Haryana,28.4089,77.3178,25.2,45,0.0,982.4,6.55,18.7,258,194.2,69.6,4,5,7,0,2026-04-17T05:12:56.307601+05:30
Meerut,Uttar Pradesh,28.9845,77.7064,21.0,58,0.0,980.2,4.6,25.9,103,121.1,47.4,0,5,3,0,2026-04-17T05:12:56.307608+05:30
Agra,Uttar Pradesh,27.1767,78.0081,23.4,63,0.0,986.3,7.15,24.1,353,311.1,57.6,3,5,7,0,2026-04-17T05:12:56.307617+05:30
Varanasi,Uttar Pradesh,25.3176,82.9739,25.1,92,0.0,997.0,8.45,23.8,125,72.2,58.0,7,5,7,1,2026-04-17T05:12:56.307624+05:30
Prayagraj,Uttar Pradesh,25.4358,81.8463,22.7,67,0.0,994.9,8.3,20.9,117,99.9,56.3,3,5,7,1,2026-04-17T05:12:56.307631+05:30
Gorakhpur,Uttar Pradesh,26.7606,83.3732,24.2,88,0.0,997.8,7.55,27.4,144,76.6,70.5,3,5,7,1,2026-04-17T05:12:56.307637+05:30
Bareilly,Uttar Pradesh,28.367,79.4304,18.6,75,0.0,985.8,7.0,27.0,76,49.9,41.6,3,5,7,0,2026-04-17T05:12:56.307646+05:30
Aligarh,Uttar Pradesh,27.8974,78.088,24.0,51,0.0,983.9,6.75,33.8,131,142.5,57.2,0,5,7,0,2026-04-17T05:12:56.307652+05:30
Moradabad,Uttar Pradesh,28.8386,78.7733,20.5,66,0.0,982.8,6.0,26.3,82,58.4,40.7,3,5,3,0,2026-04-17T05:12:56.307658+05:30
Saharanpur,Uttar Pradesh,29.9637,77.546,19.9,66,0.0,974.1,5.75,34.6,68,28.6,25.7,3,5,3,0,2026-04-17T05:12:56.307664+05:30
Jhansi,Uttar Pradesh,25.4484,78.5685,27.9,41,0.0,976.7,8.2,33.1,87,124.8,27.2,4,5,7,0,2026-04-17T05:12:59.535466+05:30
Surat,Gujarat,21.1702,72.8311,27.2,87,0.0,1005.7,6.9,22.0,84,40.5,27.3,7,5,4,1,2026-04-17T05:12:59.535498+05:30
Vadodara,Gujarat,22.3072,73.1812,24.9,94,0.0,1003.4,7.1,18.0,74,34.3,24.2,3,5,4,1,2026-04-17T05:12:59.535509+05:30
Rajkot,Gujarat,22.3039,70.8022,23.9,72,0.0,993.5,7.85,25.2,64,70.3,17.9,3,5,7,1,2026-04-17T05:12:59.535517+05:30
Thane,Maharashtra,19.2183,72.9781,23.8,96,0.0,1007.1,7.0,34.2,78,57.9,26.4,3,5,4,1,2026-04-17T05:12:59.535524+05:30
Nagpur,Maharashtra,21.1458,79.0882,27.2,54,0.0,971.1,8.35,22.3,62,33.6,30.2,4,5,7,1,2026-04-17T05:12:59.535531+05:30
Nashik,Maharashtra,19.9975,73.7898,21.8,65,0.0,944.4,7.25,32.0,59,41.4,25.3,3,5,7,0,2026-04-17T05:12:59.535538+05:30
Aurangabad,Maharashtra,19.8762,75.3433,24.8,59,0.0,942.9,7.95,31.7,36,16.5,13.7,0,5,7,1,2026-04-17T05:12:59.535544+05:30
Solapur,Maharashtra,17.6599,75.9064,25.4,55,0.0,955.7,8.65,21.6,63,20.0,19.4,4,5,7,0,2026-04-17T05:12:59.535551+05:30
Kolhapur,Maharashtra,16.705,74.2433,19.4,97,0.0,946.4,8.3,41.0,67,27.8,22.1,3,10,7,1,2026-04-17T05:12:59.535558+05:30
Goa,Goa,15.2993,74.124,26.6,88,0.0,997.2,8.55,31.0,72,32.8,23.1,7,5,7,1,2026-04-17T05:12:59.535584+05:30
Jodhpur,Rajasthan,26.2389,73.0243,28.0,47,0.0,981.5,8.15,29.5,84,147.1,29.6,4,5,7,0,2026-04-17T05:12:59.535592+05:30
Udaipur,Rajasthan,24.5854,73.7125,26.5,46,0.0,945.8,8.05,26.6,64,46.4,18.7,4,5,7,0,2026-04-17T05:12:59.535599+05:30
Kota,Rajasthan,25.2138,75.8648,26.3,60,0.0,976.8,7.4,25.9,81,60.1,24.6,4,5,7,1,2026-04-17T05:12:59.535606+05:30
Bikaner,Rajasthan,28.0229,73.3119,28.6,32,0.0,979.1,8.0,22.3,58,178.8,49.9,4,5,7,0,2026-04-17T05:12:59.535614+05:30
Ajmer,Rajasthan,26.4499,74.6399,26.3,52,0.0,953.4,7.5,30.6,66,47.8,20.0,4,5,7,0,2026-04-17T05:12:59.535620+05:30
Gwalior,Madhya Pradesh,26.2183,78.1828,26.3,44,0.0,981.8,7.05,29.2,119,140.6,28.2,4,5,7,0,2026-04-17T05:12:59.535627+05:30
Indore,Madhya Pradesh,22.7196,75.8577,24.7,65,0.0,946.8,7.8,26.6,75,32.9,23.1,3,5,7,1,2026-04-17T05:12:59.535632+05:30
Bhopal,Madhya Pradesh,23.2599,77.4126,27.8,53,0.0,952.6,7.8,31.7,80,46.4,21.8,4,5,7,1,2026-04-17T05:12:59.535640+05:30
Jabalpur,Madhya Pradesh,23.1815,79.9864,25.1,51,0.0,960.1,8.6,24.1,68,72.9,20.5,4,5,7,0,2026-04-17T05:12:59.535646+05:30
Ujjain,Madhya Pradesh,23.1765,75.7885,25.3,62,0.0,952.7,7.85,26.6,81,33.6,23.7,7,5,7,1,2026-04-17T05:12:59.535652+05:30
Visakhapatnam,Andhra Pradesh,17.6868,83.2185,27.1,87,0.0,1002.5,9.2,39.2,45,14.7,12.3,7,5,4,1,2026-04-17T05:12:59.535659+05:30
Vijayawada,Andhra Pradesh,16.5062,80.648,26.7,93,0.0,1001.6,9.2,22.7,49,11.1,8.8,7,5,4,1,2026-04-17T05:12:59.535665+05:30
Guntur,Andhra Pradesh,16.3067,80.4365,27.0,92,0.0,1002.7,9.2,28.1,53,11.3,8.9,7,5,4,1,2026-04-17T05:12:59.535671+05:30
Nellore,Andhra Pradesh,14.4426,79.9865,26.5,91,0.0,1004.4,9.3,31.0,53,12.2,10.4,7,5,4,1,2026-04-17T05:12:59.535679+05:30
Kurnool,Andhra Pradesh,15.8281,78.0373,30.1,57,0.0,975.5,9.15,21.2,80,26.0,24.0,0,5,7,1,2026-04-17T05:12:59.535686+05:30
Kakinada,Andhra Pradesh,16.9891,82.2475,27.3,90,0.0,1006.7,9.2,28.8,30,12.0,8.0,7,5,4,1,2026-04-17T05:12:59.535693+05:30
Tirupati,Andhra Pradesh,13.6288,79.4192,24.9,96,0.0,990.9,9.35,34.6,70,26.4,25.1,3,5,7,1,2026-04-17T05:12:59.535699+05:30
Warangal,Telangana,17.9689,79.5941,26.6,83,0.0,977.4,9.1,26.6,70,17.5,16.4,7,5,7,1,2026-04-17T05:12:59.535705+05:30
Nizamabad,Telangana,18.6725,78.0941,30.4,49,0.0,963.0,9.05,25.2,86,34.0,33.1,0,5,7,1,2026-04-17T05:12:59.535711+05:30
Mysore,Karnataka,12.2958,76.6396,23.2,92,0.0,927.8,9.35,38.5,84,58.7,49.8,3,5,7,1,2026-04-17T05:12:59.535718+05:30
Mangalore,Karnataka,12.9141,74.856,29.8,79,0.0,1005.6,9.1,25.2,88,51.2,22.6,7,5,4,1,2026-04-17T05:12:59.535724+05:30
Hubli-Dharwad,Karnataka,15.3647,75.124,22.9,94,0.0,940.4,9.15,37.8,65,23.9,15.9,3,5,7,1,2026-04-17T05:12:59.535730+05:30
Belgaum,Karnataka,15.8497,74.4977,20.5,100,0.0,924.3,8.9,40.0,60,25.1,18.7,3,5,7,1,2026-04-17T05:13:02.758234+05:30
Coimbatore,Tamil Nadu,11.0168,76.9558,25.0,90,0.0,961.1,9.15,36.0,96,53.4,48.3,7,5,7,1,2026-04-17T05:13:02.758267+05:30
Madurai,Tamil Nadu,9.9252,78.1198,26.5,90,0.0,992.2,8.8,32.4,71,43.8,40.3,7,5,7,1,2026-04-17T05:13:02.758277+05:30
Trichy,Tamil Nadu,10.7905,78.7047,26.6,90,0.0,999.1,8.5,19.8,60,35.9,33.3,7,5,7,1,2026-04-17T05:13:02.758284+05:30
Salem,Tamil Nadu,11.6643,78.146,25.4,87,0.0,976.6,8.6,22.7,67,32.1,29.6,7,5,7,1,2026-04-17T05:13:02.758292+05:30
Tirunelveli,Tamil Nadu,8.7139,77.7567,25.8,79,0.0,1002.1,8.95,43.6,84,50.8,42.0,7,5,4,1,2026-04-17T05:13:02.758299+05:30
Vellore,Tamil Nadu,12.9165,79.1325,25.0,99,0.0,984.1,8.85,29.9,88,46.1,44.5,7,5,7,1,2026-04-17T05:13:02.758307+05:30
Erode,Tamil Nadu,11.341,77.7172,27.7,81,0.0,988.3,8.55,26.6,69,21.5,19.9,7,5,7,1,2026-04-17T05:13:02.758314+05:30
Kochi,Kerala,9.9312,76.2673,29.3,80,0.0,1007.4,8.25,33.1,100,39.8,37.1,7,5,4,1,2026-04-17T05:13:02.758321+05:30
Thiruvananthapuram,Kerala,8.5241,76.9366,28.5,84,0.0,1006.6,9.0,34.2,92,48.8,36.6,7,5,4,1,2026-04-17T05:13:02.758328+05:30
Kozhikode,Kerala,11.2588,75.7804,29.5,80,0.0,1006.8,9.1,32.0,96,62.6,36.8,7,5,4,1,2026-04-17T05:13:02.758335+05:30
Thrissur,Kerala,10.5276,76.2144,28.2,86,0.0,1006.0,8.7,38.9,97,43.9,37.8,7,5,4,1,2026-04-17T05:13:02.758343+05:30
Kannur,Kerala,11.8745,75.3704,29.2,83,0.0,1006.1,8.65,30.6,105,60.5,36.2,7,5,4,1,2026-04-17T05:13:02.758350+05:30
Patna,Bihar,25.5941,85.1376,25.3,85,0.0,1001.1,8.3,26.3,153,62.6,58.3,7,5,4,1,2026-04-17T05:13:02.758357+05:30
Gaya,Bihar,24.7914,85.0002,25.4,89,0.0,994.0,8.65,17.6,119,66.4,64.0,7,5,7,1,2026-04-17T05:13:02.758363+05:30
Muzaffarpur,Bihar,26.1209,85.3647,23.7,90,0.0,1001.3,8.5,24.5,154,69.8,63.8,3,5,4,1,2026-04-17T05:13:02.758369+05:30
Bhagalpur,Bihar,25.2425,87.0117,24.5,92,0.0,1002.5,8.6,20.9,153,71.7,66.8,3,5,4,1,2026-04-17T05:13:02.758375+05:30
Ranchi,Jharkhand,23.3441,85.3096,23.0,98,0.0,938.3,9.15,33.5,117,42.8,40.9,3,5,7,1,2026-04-17T05:13:02.758382+05:30
Jamshedpur,Jharkhand,22.8046,86.2029,27.3,90,0.0,991.5,9.0,25.6,115,18.3,16.4,7,5,7,1,2026-04-17T05:13:02.758388+05:30
Dhanbad,Jharkhand,23.7957,86.4304,26.3,86,0.0,980.7,8.95,22.7,157,64.7,63.1,7,5,7,1,2026-04-17T05:13:02.758394+05:30
Bokaro,Jharkhand,23.6693,86.1511,25.3,95,0.0,984.9,8.95,25.2,161,80.8,78.7,7,5,7,1,2026-04-17T05:13:02.758401+05:30
Bhubaneswar,Odisha,20.2961,85.8245,26.4,92,0.0,1002.0,9.1,30.2,42,11.5,9.0,7,5,4,1,2026-04-17T05:13:02.758407+05:30
Cuttack,Odisha,20.4625,85.8828,26.7,90,0.0,1004.1,9.15,27.7,42,11.5,9.0,7,5,4,1,2026-04-17T05:13:02.758413+05:30
Rourkela,Odisha,22.2604,84.8536,27.9,84,0.0,985.2,8.9,46.4,106,31.7,31.0,7,5,7,1,2026-04-17T05:13:02.758419+05:30
Raipur,Chhattisgarh,21.2514,81.6296,28.0,44,0.0,973.4,8.95,36.0,87,50.4,37.0,4,5,7,0,2026-04-17T05:13:02.758425+05:30
Bhilai,Chhattisgarh,21.1938,81.3509,28.9,42,0.0,973.8,8.95,38.9,74,45.2,34.1,4,5,7,0,2026-04-17T05:13:02.758431+05:30
Guwahati,Assam,26.1158,91.7086,25.1,83,0.0,1003.5,8.5,24.5,144,84.3,59.3,7,5,4,1,2026-04-17T05:13:02.758436+05:30
Agartala,Tripura,23.8315,91.2868,23.5,94,0.0,1008.6,8.75,19.4,141,56.9,47.0,3,0,4,1,2026-04-17T05:13:02.758442+05:30
Shillong,Meghalaya,25.5788,91.8933,13.4,90,0.0,856.5,6.5,22.7,118,52.7,37.1,3,10,7,0,2026-04-17T05:13:02.758448+05:30
Imphal,Manipur,24.817,93.9368,17.8,83,0.0,924.9,9.1,40.7,139,85.0,59.5,3,10,7,0,2026-04-17T05:13:02.758455+05:30
Aizawl,Mizoram,23.7271,92.7176,18.2,93,0.0,893.9,9.0,33.8,151,70.1,51.0,3,10,7,1,2026-04-17T05:13:02.758461+05:30
Kohima,Nagaland,25.6701,94.1077,15.7,81,0.0,856.4,7.6,50.0,118,65.9,45.3,3,10,7,0,2026-04-17T05:13:02.758467+05:30
Gangtok,Sikkim,27.3314,88.6138,15.2,93,0.0,838.6,8.8,21.6,120,65.2,45.3,3,10,7,0,2026-04-17T05:13:02.758473+05:30
Siliguri,West Bengal,26.7271,88.3953,21.3,72,0.0,996.0,8.5,19.4,161,119.7,84.5,3,5,7,1,2026-04-17T05:13:05.985005+05:30
Durgapur,West Bengal,23.5204,87.3119,26.1,93,0.0,996.0,8.85,22.7,132,44.5,42.5,7,5,7,1,2026-04-17T05:13:05.985039+05:30
Asansol,West Bengal,23.6739,86.9524,26.7,90,0.0,994.5,8.9,23.0,148,48.0,46.6,7,5,7,1,2026-04-17T05:13:05.985051+05:30
Pondicherry,Puducherry,11.9139,79.8145,27.3,95,0.0,1007.8,8.7,28.4,28,10.0,7.1,7,5,4,1,2026-04-17T05:13:05.985059+05:30
Port Blair,Andaman and Nicobar Islands,11.6234,92.7265,29.3,70,0.0,1006.7,9.2,22.3,54,10.4,7.6,7,5,4,1,2026-04-17T05:13:05.985068+05:30
Haridwar,Uttarakhand,29.9457,78.1642,21.0,67,0.0,973.3,6.35,41.0,55,18.6,16.6,3,5,7,0,2026-04-17T05:13:05.985075+05:30
Rishikesh,Uttarakhand,30.0869,78.2676,21.0,63,0.0,966.4,6.25,31.7,42,15.5,13.0,3,5,7,0,2026-04-17T05:13:05.985082+05:30
Nainital,Uttarakhand,29.3919,79.4542,21.5,20,0.0,807.6,8.05,48.6,41,13.6,10.5,0,5,7,1,2026-04-17T05:13:05.985090+05:30
Mussoorie,Uttarakhand,30.4599,78.0664,18.4,43,0.0,803.7,6.55,45.0,51,14.7,12.8,0,5,7,0,2026-04-17T05:13:05.985097+05:30
Dharamshala,Himachal Pradesh,32.219,76.3234,23.0,22,0.0,869.9,6.65,34.2,43,10.7,6.2,0,5,7,0,2026-04-17T05:13:05.985104+05:30
Dalhousie,Himachal Pradesh,32.5387,75.971,19.6,25,0.0,805.1,5.5,34.2,46,13.9,11.6,0,5,3,1,2026-04-17T05:13:05.985112+05:30
Patiala,Punjab,30.3398,76.3869,20.8,59,0.0,976.8,7.1,49.7,107,52.0,23.4,0,5,7,0,2026-04-17T05:13:05.985120+05:30
Bhatinda,Punjab,30.211,74.9455,24.7,51,0.0,982.5,7.15,39.6,67,98.0,34.6,0,5,7,0,2026-04-17T05:13:05.985126+05:30
Rohtak,Haryana,28.8955,76.6066,20.6,63,0.0,980.0,6.1,35.3,189,222.1,67.5,3,5,7,0,2026-04-17T05:13:05.985132+05:30
Panipat,Haryana,29.3909,76.9635,21.9,53,0.0,978.9,5.9,34.2,257,161.1,48.9,0,5,3,0,2026-04-17T05:13:05.985138+05:30
Mathura,Uttar Pradesh,27.4924,77.6737,24.3,51,0.0,985.5,6.5,28.4,221,221.7,52.2,0,5,7,0,2026-04-17T05:13:05.985144+05:30
Vrindavan,Uttar Pradesh,27.5823,77.7027,24.5,50,0.0,985.7,6.95,26.3,221,221.7,52.2,0,5,7,0,2026-04-17T05:13:05.985151+05:30
Ayodhya,Uttar Pradesh,26.7922,82.1998,23.7,92,0.0,995.2,7.25,29.2,117,97.3,61.7,3,5,7,1,2026-04-17T05:13:05.985157+05:30
Ratlam,Madhya Pradesh,23.3315,75.0367,24.4,67,0.0,953.4,7.65,29.2,69,32.1,22.2,3,5,7,1,2026-04-17T05:13:05.985163+05:30
Sagar,Madhya Pradesh,23.8388,78.7378,26.9,36,0.0,949.0,7.9,20.5,76,63.6,17.6,4,5,7,0,2026-04-17T05:13:05.985169+05:30
Satna,Madhya Pradesh,24.6005,80.8322,26.0,41,0.0,970.2,8.6,22.0,78,148.1,29.7,4,5,7,0,2026-04-17T05:13:05.985175+05:30
Akola,Maharashtra,20.7002,77.0082,26.2,65,0.0,973.6,7.85,25.2,57,17.9,14.8,7,5,7,1,2026-04-17T05:13:05.985182+05:30
Amravati,Maharashtra,20.9374,77.7796,25.1,66,0.0,965.4,8.05,17.3,57,17.8,14.4,7,5,7,1,2026-04-17T05:13:05.985188+05:30
Latur,Maharashtra,18.4088,76.5604,24.2,47,0.0,938.4,8.6,31.3,53,23.2,20.3,0,5,7,0,2026-04-17T05:13:05.985195+05:30
Nanded,Maharashtra,19.1383,77.3091,24.1,55,0.0,967.3,8.85,18.0,64,24.1,21.4,0,5,7,0,2026-04-17T05:13:05.985200+05:30
Gulbarga,Karnataka,17.3297,76.8343,28.3,58,0.0,957.1,8.7,22.0,83,31.0,28.6,4,5,7,1,2026-04-17T05:13:05.985206+05:30
Bidar,Karnataka,17.9104,77.5199,28.0,57,0.0,934.2,8.95,20.9,96,28.1,26.7,4,5,7,1,2026-04-17T05:13:05.985212+05:30
Hospet,Karnataka,15.2689,76.3909,26.0,77,0.0,955.4,9.25,22.7,92,27.8,21.4,7,5,7,1,2026-04-17T05:13:05.985218+05:30
Tirupur,Tamil Nadu,11.1085,77.3411,26.6,85,0.0,974.6,8.95,33.8,75,33.2,29.8,7,5,7,1,2026-04-17T05:13:05.985224+05:30
Alappuzha,Kerala,9.4981,76.3388,28.8,84,0.0,1007.5,8.4,29.9,101,51.6,42.6,7,5,4,1,2026-04-17T05:13:05.985230+05:30
Munnar,Kerala,10.0889,77.0595,19.6,74,0.0,855.3,9.1,32.4,76,35.2,32.7,3,5,7,0,2026-04-17T05:13:05.985236+05:30
Silchar,Assam,24.8333,92.7789,23.6,94,0.0,1007.3,8.75,20.2,153,103.6,71.7,3,5,4,1,2026-04-17T05:13:05.985242+05:30
Dibrugarh,Assam,27.4728,94.912,22.1,90,0.0,998.4,8.65,11.2,141,64.3,45.4,3,5,7,1,2026-04-17T05:13:05.985248+05:30
