city,state,latitude,longitude,temp,humidity,rain,pressure,uv_index,wind_gusts,aqi,pm10,pm2_5,mosquito_risk,arthritis_risk,migraine_risk,frizz_risk,updated_at
Delhi,Delhi,28.6139,77.209,31.8,45,0.0,985.1,5.9,19.4,332,157.4,58.7,0,5,3,1,2026-03-06T14:12:36.279204+05:30
Mumbai,Maharashtra,19.076,72.8777,28.4,67,0.0,1008.8,7.4,23.8,102,48.8,47.0,7,0,4,1,2026-03-06T14:12:36.279275+05:30
Bangalore,Karnataka,12.9716,77.5946,32.4,28,0.0,912.4,9.15,22.0,102,32.6,29.7,0,5,7,0,2026-03-06T14:12:36.279295+05:30
Hyderabad,Telangana,17.385,78.4867,36.4,16,0.0,953.7,8.45,23.4,100,16.6,12.4,0,5,10,0,2026-03-06T14:12:36.279306+05:30
Chennai,Tamil Nadu,13.0827,80.2707,34.4,44,0.0,1007.2,8.9,31.3,74,35.6,32.5,0,5,4,1,2026-03-06T14:12:36.279316+05:30
Kolkata,West Bengal,22.5726,88.3639,30.8,46,0.0,1007.1,7.8,15.8,165,71.2,49.5,0,5,4,1,2026-03-06T14:12:36.279325+05:30
Pune,Maharashtra,18.5204,73.8567,36.7,17,0.0,949.9,8.0,27.7,94,18.5,16.1,0,5,10,0,2026-03-06T14:12:36.279338+05:30
Ahmedabad,Gujarat,23.0225,72.5714,34.8,28,0.0,1004.5,7.25,20.5,72,22.4,16.7,0,5,4,0,2026-03-06T14:12:36.279346+05:30
Jaipur,Rajasthan,26.9124,75.7873,35.9,15,0.0,962.5,6.7,25.2,99,132.2,23.0,0,5,10,0,2026-03-06T14:12:36.279355+05:30
Lucknow,Uttar Pradesh,26.8467,80.9462,31.4,43,0.0,996.0,6.4,22.3,167,138.8,70.3,0,5,7,1,2026-03-06T14:12:36.279363+05:30
Kanpur,Uttar Pradesh,26.4499,80.3319,31.1,51,0.0,994.1,6.4,13.3,166,235.2,78.2,0,5,7,1,2026-03-06T14:12:36.279371+05:30
Chandigarh,Chandigarh,30.7333,76.7794,30.8,50,0.0,970.6,5.8,16.2,118,74.3,46.3,0,5,3,1,2026-03-06T14:12:36.279378+05:30
Srinagar,Jammu and Kashmir,34.0837,74.7973,21.2,40,0.0,845.7,6.75,17.6,136,45.1,25.4,0,5,7,0,2026-03-06T14:12:36.279385+05:30
Jammu,Jammu and Kashmir,32.7266,74.857,31.1,47,0.0,973.8,6.4,17.3,122,53.0,30.3,0,5,7,1,2026-03-06T14:12:36.279393+05:30
Amritsar,Punjab,31.634,74.8723,32.2,49,0.0,982.0,6.05,12.2,158,78.7,57.9,0,5,7,1,2026-03-06T14:12:36.279400+05:30
Ludhiana,Punjab,30.901,75.8573,32.0,47,0.0,980.3,6.05,15.1,164,93.4,65.0,0,5,7,1,2026-03-06T14:12:36.279406+05:30
Jalandhar,Punjab,31.326,75.5762,31.8,49,0.0,981.3,6.2,14.0,164,80.6,57.6,0,5,7,1,2026-03-06T14:12:36.279417+05:30
Dehradun,Uttarakhand,30.6284,78.0322,21.7,64,0.0,833.7,6.15,27.0,80,38.8,22.2,3,5,7,0,2026-03-06T14:12:36.279425+05:30
Shimla,Himachal Pradesh,31.1048,77.1734,22.5,49,0.0,789.7,6.25,32.8,75,24.0,13.2,0,5,7,0,2026-03-06T14:12:36.279432+05:30
Manali,Himachal Pradesh,32.2396,77.1887,26.9,15,0.0,825.5,7.95,37.8,65,17.4,9.7,4,5,7,1,2026-03-06T14:12:36.279439+05:30
Gurgaon,Haryana,28.4595,77.0266,32.1,43,0.0,983.6,6.0,17.6,905,388.4,76.4,0,5,3,1,2026-03-06T14:12:36.279446+05:30
Noida,Uttar Pradesh,28.5355,77.391,32.3,44,0.0,986.6,5.9,17.3,905,388.4,76.4,0,5,3,1,2026-03-06T14:12:36.279453+05:30
Ghaziabad,Uttar Pradesh,28.6692,77.4538,30.8,54,0.0,984.9,5.9,14.8,253,177.4,75.4,0,5,3,1,2026-03-06T14:12:36.279460+05:30
Faridabad,Haryana,28.4089,77.3178,31.5,48,0.0,986.0,5.95,16.9,905,388.4,76.4,0,5,3,1,2026-03-06T14:12:36.279466+05:30
Meerut,Uttar Pradesh,28.9845,77.7064,31.1,49,0.0,983.6,5.75,14.8,253,177.4,75.4,0,5,3,1,2026-03-06T14:12:36.279473+05:30
Agra,Uttar Pradesh,27.1767,78.0081,34.1,31,0.0,989.9,6.25,19.4,492,257.0,63.6,0,5,7,0,2026-03-06T14:12:36.279480+05:30
Varanasi,Uttar Pradesh,25.3176,82.9739,30.8,48,0.0,999.7,7.1,17.6,166,127.6,63.8,0,5,7,1,2026-03-06T14:12:36.279489+05:30
Prayagraj,Uttar Pradesh,25.4358,81.8463,30.3,51,0.0,998.2,6.95,16.2,169,152.3,68.9,0,5,7,1,2026-03-06T14:12:36.279499+05:30
Gorakhpur,Uttar Pradesh,26.7606,83.3732,30.9,44,0.0,1000.0,6.8,19.1,171,89.6,58.6,0,5,4,1,2026-03-06T14:12:36.279506+05:30
Bareilly,Uttar Pradesh,28.367,79.4304,30.4,54,0.0,989.2,6.1,14.4,165,144.8,83.1,0,5,7,1,2026-03-06T14:12:36.279513+05:30
Aligarh,Uttar Pradesh,27.8974,78.088,32.4,46,0.0,987.6,6.05,16.6,563,187.2,66.4,0,5,7,1,2026-03-06T14:12:36.279520+05:30
Moradabad,Uttar Pradesh,28.8386,78.7733,30.4,54,0.0,985.9,5.9,18.7,169,139.2,82.0,0,5,3,1,2026-03-06T14:12:36.279526+05:30
Saharanpur,Uttar Pradesh,29.9637,77.546,29.4,57,0.0,977.8,5.55,19.8,160,135.0,69.8,4,5,3,1,2026-03-06T14:12:36.279533+05:30
Jhansi,Uttar Pradesh,25.4484,78.5685,35.5,22,0.0,980.1,6.85,25.2,64,60.8,19.0,0,5,10,0,2026-03-06T14:12:39.598691+05:30
Surat,Gujarat,21.1702,72.8311,33.7,39,0.0,1008.6,7.15,22.7,126,42.7,40.5,0,0,4,1,2026-03-06T14:12:39.598722+05:30
Vadodara,Gujarat,22.3072,73.1812,36.0,29,0.0,1006.3,7.25,18.0,100,29.6,24.9,0,5,7,0,2026-03-06T14:12:39.598732+05:30
Rajkot,Gujarat,22.3039,70.8022,32.6,35,0.0,996.9,7.1,22.0,58,21.8,12.0,0,5,7,0,2026-03-06T14:12:39.598740+05:30
Thane,Maharashtra,19.2183,72.9781,35.7,31,0.0,1008.3,7.4,35.6,102,48.8,47.0,0,0,7,0,2026-03-06T14:12:39.598747+05:30
Nagpur,Maharashtra,21.1458,79.0882,36.6,17,0.0,974.1,7.8,25.9,57,27.1,14.1,0,5,10,0,2026-03-06T14:12:39.598754+05:30
Nashik,Maharashtra,19.9975,73.7898,34.9,15,0.0,947.4,7.6,31.7,70,18.2,15.2,0,5,7,0,2026-03-06T14:12:39.598761+05:30
Aurangabad,Maharashtra,19.8762,75.3433,35.3,18,0.0,945.8,8.15,22.7,83,18.5,14.2,0,5,10,0,2026-03-06T14:12:39.598768+05:30
Solapur,Maharashtra,17.6599,75.9064,35.9,19,0.0,957.9,8.4,20.2,70,17.8,14.2,0,5,10,0,2026-03-06T14:12:39.598775+05:30
Kolhapur,Maharashtra,16.705,74.2433,35.3,18,0.0,948.6,8.55,31.7,148,16.5,14.6,0,5,10,0,2026-03-06T14:12:39.598782+05:30
Goa,Goa,15.2993,74.124,31.1,64,0.0,997.4,8.55,32.4,158,57.7,55.3,3,5,7,1,2026-03-06T14:12:39.598789+05:30
Jodhpur,Rajasthan,26.2389,73.0243,34.1,25,0.0,985.9,6.95,23.0,60,30.2,12.5,0,5,7,0,2026-03-06T14:12:39.598796+05:30
Udaipur,Rajasthan,24.5854,73.7125,34.7,16,0.0,949.6,7.6,20.2,43,9.5,8.4,0,5,7,0,2026-03-06T14:12:39.598804+05:30
Kota,Rajasthan,25.2138,75.8648,36.0,19,0.0,981.2,7.0,17.3,73,32.9,11.4,0,5,10,0,2026-03-06T14:12:39.598810+05:30
Bikaner,Rajasthan,28.0229,73.3119,34.4,16,0.0,984.1,6.65,23.0,56,81.0,16.1,0,5,7,0,2026-03-06T14:12:39.598817+05:30
Ajmer,Rajasthan,26.4499,74.6399,33.9,19,0.0,957.7,6.95,26.3,58,48.8,12.4,0,5,7,0,2026-03-06T14:12:39.598823+05:30
Gwalior,Madhya Pradesh,26.2183,78.1828,33.0,35,0.0,985.6,6.6,20.5,88,67.8,19.7,0,5,7,0,2026-03-06T14:12:39.598830+05:30
Indore,Madhya Pradesh,22.7196,75.8577,34.0,20,0.0,950.8,7.55,22.3,70,13.5,11.3,0,5,7,0,2026-03-06T14:12:39.598836+05:30
Bhopal,Madhya Pradesh,23.2599,77.4126,34.6,22,0.0,956.1,7.4,24.8,72,39.5,14.6,0,5,7,0,2026-03-06T14:12:39.598842+05:30
Jabalpur,Madhya Pradesh,23.1815,79.9864,33.9,30,0.0,963.1,7.5,27.4,66,36.8,15.3,0,5,7,0,2026-03-06T14:12:39.598849+05:30
Ujjain,Madhya Pradesh,23.1765,75.7885,33.8,23,0.0,956.5,7.45,20.2,77,12.8,11.4,0,5,7,0,2026-03-06T14:12:39.598856+05:30
Visakhapatnam,Andhra Pradesh,17.6868,83.2185,32.5,56,0.0,1003.0,8.45,36.7,147,48.3,43.3,0,5,4,1,2026-03-06T14:12:39.598863+05:30
Vijayawada,Andhra Pradesh,16.5062,80.648,36.2,31,0.0,1001.6,8.55,15.1,134,34.7,30.9,0,5,7,1,2026-03-06T14:12:39.598869+05:30
Guntur,Andhra Pradesh,16.3067,80.4365,36.9,26,0.0,1002.8,8.55,15.8,113,29.3,25.4,0,5,7,0,2026-03-06T14:12:39.598876+05:30
Nellore,Andhra Pradesh,14.4426,79.9865,38.4,21,0.0,1004.5,8.75,28.4,87,31.3,28.6,0,5,7,0,2026-03-06T14:12:39.598884+05:30
Kurnool,Andhra Pradesh,15.8281,78.0373,38.4,13,0.0,976.6,8.55,24.5,73,20.6,17.9,0,5,10,0,2026-03-06T14:12:39.598891+05:30
Kakinada,Andhra Pradesh,16.9891,82.2475,36.7,38,0.0,1005.9,8.5,32.0,114,30.0,24.6,0,5,7,1,2026-03-06T14:12:39.598897+05:30
Tirupati,Andhra Pradesh,13.6288,79.4192,37.0,21,0.0,990.6,8.85,30.6,110,30.9,28.3,0,5,10,0,2026-03-06T14:12:39.598904+05:30
Warangal,Telangana,17.9689,79.5941,35.8,24,0.0,979.0,8.3,25.9,81,26.1,16.5,0,5,10,0,2026-03-06T14:12:39.598910+05:30
Nizamabad,Telangana,18.6725,78.0941,35.7,21,0.0,965.8,8.2,32.0,88,24.9,13.7,0,5,10,0,2026-03-06T14:12:39.598917+05:30
Mysore,Karnataka,12.2958,76.6396,33.7,26,0.0,928.9,9.2,35.6,122,31.7,29.8,0,5,7,0,2026-03-06T14:12:39.598923+05:30
Mangalore,Karnataka,12.9141,74.856,28.8,79,0.0,1006.2,8.8,23.4,125,48.7,45.5,7,5,4,1,2026-03-06T14:12:39.598929+05:30
Hubli-Dharwad,Karnataka,15.3647,75.124,36.0,18,0.0,941.1,8.75,37.1,92,28.2,25.8,0,5,10,0,2026-03-06T14:12:39.598936+05:30
Belgaum,Karnataka,15.8497,74.4977,34.8,18,0.0,926.7,8.8,40.0,117,23.0,21.0,0,5,7,0,2026-03-06T14:12:42.916604+05:30
Coimbatore,Tamil Nadu,11.0168,76.9558,33.8,37,0.0,961.8,9.15,44.3,116,36.0,33.2,0,5,7,1,2026-03-06T14:12:42.916634+05:30
Madurai,Tamil Nadu,9.9252,78.1198,34.4,40,0.0,992.7,9.15,33.8,91,30.9,26.5,0,5,7,1,2026-03-06T14:12:42.916644+05:30
Trichy,Tamil Nadu,10.7905,78.7047,35.6,36,0.0,999.1,9.05,25.2,84,28.6,25.4,0,5,10,1,2026-03-06T14:12:42.916651+05:30
Salem,Tamil Nadu,11.6643,78.146,35.5,32,0.0,976.7,9.05,15.8,99,39.3,35.0,0,5,10,1,2026-03-06T14:12:42.916659+05:30
Tirunelveli,Tamil Nadu,8.7139,77.7567,37.8,26,0.0,1002.5,9.15,49.3,93,31.5,26.3,0,5,7,0,2026-03-06T14:12:42.916667+05:30
Vellore,Tamil Nadu,12.9165,79.1325,36.3,23,0.0,983.9,8.95,32.4,118,33.4,30.7,0,5,10,0,2026-03-06T14:12:42.916675+05:30
Erode,Tamil Nadu,11.341,77.7172,36.5,31,0.0,988.1,9.05,19.4,95,36.4,32.6,0,5,10,1,2026-03-06T14:12:42.916682+05:30
Kochi,Kerala,9.9312,76.2673,28.1,81,0.0,1008.5,9.0,33.8,135,40.9,38.5,7,0,4,1,2026-03-06T14:12:42.916689+05:30
Thiruvananthapuram,Kerala,8.5241,76.9366,28.2,78,0.0,1007.9,9.0,33.1,82,26.4,23.8,7,5,4,1,2026-03-06T14:12:42.916696+05:30
Kozhikode,Kerala,11.2588,75.7804,29.9,73,0.0,1007.5,8.85,27.7,109,36.8,34.0,7,5,4,1,2026-03-06T14:12:42.916702+05:30
Thrissur,Kerala,10.5276,76.2144,31.9,65,0.0,1006.9,8.95,34.6,127,39.3,37.1,3,5,4,1,2026-03-06T14:12:42.916709+05:30
Kannur,Kerala,11.8745,75.3704,31.3,66,0.0,1006.8,8.85,32.0,112,40.5,37.8,3,5,4,1,2026-03-06T14:12:42.916716+05:30
Patna,Bihar,25.5941,85.1376,31.5,41,0.0,1002.7,7.25,21.6,165,87.1,67.3,0,5,4,1,2026-03-06T14:12:42.916722+05:30
Gaya,Bihar,24.7914,85.0002,30.1,56,0.0,995.2,7.35,21.6,156,100.1,68.7,0,5,7,1,2026-03-06T14:12:42.916729+05:30
Muzaffarpur,Bihar,26.1209,85.3647,31.6,40,0.0,1002.9,7.2,20.5,170,84.8,66.4,0,5,4,1,2026-03-06T14:12:42.916735+05:30
Bhagalpur,Bihar,25.2425,87.0117,30.9,45,0.0,1003.3,7.3,17.3,161,72.9,58.8,0,5,4,1,2026-03-06T14:12:42.916741+05:30
Ranchi,Jharkhand,23.3441,85.3096,30.1,34,0.0,938.9,8.0,31.0,138,87.5,53.8,0,5,7,0,2026-03-06T14:12:42.916747+05:30
Jamshedpur,Jharkhand,22.8046,86.2029,32.2,37,0.0,991.6,7.9,24.5,152,92.4,54.0,0,5,7,0,2026-03-06T14:12:42.916753+05:30
Dhanbad,Jharkhand,23.7957,86.4304,33.3,27,0.0,981.0,7.75,27.4,171,101.0,73.1,0,5,7,0,2026-03-06T14:12:42.916759+05:30
Bokaro,Jharkhand,23.6693,86.1511,32.1,30,0.0,984.9,7.75,29.5,175,107.8,73.8,0,5,7,0,2026-03-06T14:12:42.916765+05:30
Bhubaneswar,Odisha,20.2961,85.8245,33.4,41,0.0,1002.4,8.2,31.7,145,68.5,48.0,0,5,4,1,2026-03-06T14:12:42.916771+05:30
Cuttack,Odisha,20.4625,85.8828,34.5,37,0.0,1004.2,8.2,35.6,145,68.5,48.0,0,5,4,1,2026-03-06T14:12:42.916777+05:30
Rourkela,Odisha,22.2604,84.8536,34.8,29,0.0,984.9,7.8,11.9,133,106.6,57.2,0,5,7,0,2026-03-06T14:12:42.916783+05:30
Raipur,Chhattisgarh,21.2514,81.6296,36.4,21,0.0,974.9,7.9,23.0,87,62.4,22.8,0,5,10,0,2026-03-06T14:12:42.916789+05:30
Bhilai,Chhattisgarh,21.1938,81.3509,37.4,20,0.0,975.2,7.95,25.6,78,41.2,19.7,0,5,10,0,2026-03-06T14:12:42.916795+05:30
Guwahati,Assam,26.1158,91.7086,31.9,45,0.0,1002.6,7.25,21.2,153,57.9,50.3,0,5,4,1,2026-03-06T14:12:42.916801+05:30
Agartala,Tripura,23.8315,91.2868,31.9,50,0.0,1006.9,7.55,16.9,159,62.9,50.1,0,5,4,1,2026-03-06T14:12:42.916807+05:30
Shillong,Meghalaya,25.5788,91.8933,21.4,38,0.0,859.4,7.6,33.1,128,39.5,34.0,0,5,7,0,2026-03-06T14:12:42.916814+05:30
Imphal,Manipur,24.817,93.9368,26.2,37,0.0,925.1,7.8,34.6,152,39.2,35.4,4,5,7,0,2026-03-06T14:12:42.916820+05:30
Aizawl,Mizoram,23.7271,92.7176,27.8,35,0.0,895.1,7.75,33.1,177,73.3,66.1,4,5,7,0,2026-03-06T14:12:42.916827+05:30
Kohima,Nagaland,25.6701,94.1077,20.5,56,0.0,857.6,7.65,41.8,152,61.5,54.8,0,5,7,0,2026-03-06T14:12:42.916833+05:30
Gangtok,Sikkim,27.3314,88.6138,18.3,70,0.0,840.5,7.55,16.9,100,43.4,37.8,3,5,7,0,2026-03-06T14:12:42.916839+05:30
Siliguri,West Bengal,26.7271,88.3953,26.1,53,0.0,996.4,7.2,15.1,140,53.7,44.1,4,5,7,0,2026-03-06T14:12:46.232571+05:30
Durgapur,West Bengal,23.5204,87.3119,32.9,29,0.0,996.1,7.75,24.1,162,84.5,63.1,0,5,7,0,2026-03-06T14:12:46.232604+05:30
Asansol,West Bengal,23.6739,86.9524,33.5,28,0.0,994.5,7.75,21.6,161,92.7,69.2,0,5,7,0,2026-03-06T14:12:46.232617+05:30
Pondicherry,Puducherry,11.9139,79.8145,35.2,42,0.0,1007.8,8.9,27.0,68,36.6,33.6,0,5,7,1,2026-03-06T14:12:46.232626+05:30
Port Blair,Andaman and Nicobar Islands,11.6234,92.7265,27.7,66,0.0,1007.2,8.85,14.4,51,27.3,17.3,7,5,4,1,2026-03-06T14:12:46.232635+05:30
Haridwar,Uttarakhand,29.9457,78.1642,29.8,52,0.0,976.6,5.65,22.7,153,129.0,69.8,4,5,3,1,2026-03-06T14:12:46.232643+05:30
Rishikesh,Uttarakhand,30.0869,78.2676,29.4,51,0.0,969.3,5.7,23.0,149,112.2,64.3,4,5,3,1,2026-03-06T14:12:46.232650+05:30
Nainital,Uttarakhand,29.3919,79.4542,22.2,56,0.0,809.8,6.5,46.4,159,104.1,64.3,0,5,7,0,2026-03-06T14:12:46.232657+05:30
Mussoorie,Uttarakhand,30.4599,78.0664,21.0,67,0.0,806.2,6.05,40.3,140,109.9,58.1,3,5,7,0,2026-03-06T14:12:46.232664+05:30
Dharamshala,Himachal Pradesh,32.219,76.3234,26.8,49,0.0,872.4,5.6,20.9,57,17.3,7.9,4,5,3,0,2026-03-06T14:12:46.232671+05:30
Dalhousie,Himachal Pradesh,32.5387,75.971,26.3,34,0.0,808.6,5.75,22.3,94,35.0,18.8,4,5,3,0,2026-03-06T14:12:46.232679+05:30
Patiala,Punjab,30.3398,76.3869,31.7,48,0.0,979.9,5.7,12.6,165,187.2,69.8,0,5,3,1,2026-03-06T14:12:46.232686+05:30
Bhatinda,Punjab,30.211,74.9455,33.3,35,0.0,985.2,6.4,18.0,150,37.8,30.6,0,5,7,0,2026-03-06T14:12:46.232693+05:30
Rohtak,Haryana,28.8955,76.6066,32.3,38,0.0,983.8,5.9,19.4,395,146.7,44.9,0,5,3,1,2026-03-06T14:12:46.232700+05:30
Panipat,Haryana,29.3909,76.9635,31.6,51,0.0,982.3,5.7,14.0,772,213.3,66.8,0,5,3,1,2026-03-06T14:12:46.232706+05:30
Mathura,Uttar Pradesh,27.4924,77.6737,33.3,33,0.0,989.1,6.2,19.1,542,220.7,56.3,0,5,7,0,2026-03-06T14:12:46.232712+05:30
Vrindavan,Uttar Pradesh,27.5823,77.7027,32.8,40,0.0,989.5,6.15,17.6,542,220.7,56.3,0,5,7,1,2026-03-06T14:12:46.232718+05:30
Ayodhya,Uttar Pradesh,26.7922,82.1998,30.8,45,0.0,998.1,6.55,19.8,167,94.5,62.6,0,5,7,1,2026-03-06T14:12:46.232725+05:30
Ratlam,Madhya Pradesh,23.3315,75.0367,33.0,25,0.0,957.5,7.4,21.2,67,12.1,10.0,0,5,7,0,2026-03-06T14:12:46.232731+05:30
Sagar,Madhya Pradesh,23.8388,78.7378,34.0,25,0.0,952.4,7.35,22.0,58,41.0,12.2,0,5,7,0,2026-03-06T14:12:46.232737+05:30
Satna,Madhya Pradesh,24.6005,80.8322,34.7,29,0.0,972.7,7.3,32.4,89,201.2,49.2,0,5,7,0,2026-03-06T14:12:46.232744+05:30
Akola,Maharashtra,20.7002,77.0082,37.0,21,0.0,976.3,7.85,18.7,78,26.3,15.0,0,5,10,0,2026-03-06T14:12:46.232750+05:30
Amravati,Maharashtra,20.9374,77.7796,37.3,18,0.0,968.4,7.8,15.5,76,25.6,13.4,0,5,10,0,2026-03-06T14:12:46.232757+05:30
Latur,Maharashtra,18.4088,76.5604,34.5,21,0.0,941.3,8.3,31.7,74,21.1,16.2,0,5,7,0,2026-03-06T14:12:46.232764+05:30
Nanded,Maharashtra,19.1383,77.3091,37.3,19,0.0,969.5,8.1,21.2,93,21.4,12.5,0,5,10,0,2026-03-06T14:12:46.232770+05:30
Gulbarga,Karnataka,17.3297,76.8343,37.4,14,0.0,959.2,8.4,33.1,75,14.7,11.1,0,5,10,0,2026-03-06T14:12:46.232776+05:30
Bidar,Karnataka,17.9104,77.5199,35.2,17,0.0,936.7,8.35,32.8,78,18.6,12.2,0,5,10,0,2026-03-06T14:12:46.232782+05:30
Hospet,Karnataka,15.2689,76.3909,35.9,20,0.0,955.8,8.75,23.0,100,22.2,20.1,0,5,10,0,2026-03-06T14:12:46.232788+05:30
Tirupur,Tamil Nadu,11.1085,77.3411,36.3,28,0.0,974.6,9.2,32.4,125,41.2,37.8,0,5,10,0,2026-03-06T14:12:46.232794+05:30
Alappuzha,Kerala,9.4981,76.3388,28.1,80,0.0,1008.7,8.95,30.6,116,30.2,28.1,7,0,4,1,2026-03-06T14:12:46.232800+05:30
Munnar,Kerala,10.0889,77.0595,28.7,45,0.0,858.7,9.5,29.5,97,32.4,28.6,4,5,7,0,2026-03-06T14:12:46.232807+05:30
Silchar,Assam,24.8333,92.7789,34.0,33,0.0,1005.3,7.55,12.6,165,58.3,51.2,0,5,4,0,2026-03-06T14:12:46.232813+05:30
Dibrugarh,Assam,27.4728,94.912,29.7,50,0.0,996.7,7.25,14.4,108,38.0,32.5,4,5,7,1,2026-03-06T14:12:46.232819+05:30
