city,state,latitude,longitude,temp,humidity,rain,pressure,uv_index,wind_gusts,aqi,pm10,pm2_5,mosquito_risk,arthritis_risk,migraine_risk,frizz_risk,updated_at
Delhi,Delhi,28.6139,77.209,22.8,56,0.0,984.6,6.15,38.9,170,149.9,40.3,0,5,7,0,2026-04-07T00:35:39.163680+05:30
Mumbai,Maharashtra,19.076,72.8777,27.6,70,0.0,1011.5,7.95,22.0,62,30.3,16.1,7,0,4,1,2026-04-07T00:35:39.163723+05:30
Bangalore,Karnataka,12.9716,77.5946,25.1,59,0.0,913.1,9.6,28.1,62,17.6,15.5,4,5,7,1,2026-04-07T00:35:39.163738+05:30
Hyderabad,Telangana,17.385,78.4867,26.9,77,0.0,953.8,9.2,32.8,91,30.2,25.2,7,5,7,1,2026-04-07T00:35:39.163748+05:30
Chennai,Tamil Nadu,13.0827,80.2707,28.3,90,0.0,1008.1,9.35,34.9,67,22.9,17.3,7,0,4,1,2026-04-07T00:35:39.163757+05:30
Kolkata,West Bengal,22.5726,88.3639,24.8,88,0.0,1007.4,8.45,20.5,149,55.6,53.0,3,5,4,1,2026-04-07T00:35:39.163765+05:30
Pune,Maharashtra,18.5204,73.8567,21.7,87,0.0,950.5,8.55,37.4,127,25.5,21.2,3,5,7,1,2026-04-07T00:35:39.163777+05:30
Ahmedabad,Gujarat,23.0225,72.5714,26.4,47,0.0,1004.1,7.9,45.7,58,38.6,16.6,4,5,4,0,2026-04-07T00:35:39.163786+05:30
Jaipur,Rajasthan,26.9124,75.7873,22.0,55,0.0,960.1,4.6,43.2,109,238.4,44.8,0,5,3,0,2026-04-07T00:35:39.163793+05:30
Lucknow,Uttar Pradesh,26.8467,80.9462,23.6,54,0.0,995.0,7.4,24.8,99,209.5,46.6,0,5,7,0,2026-04-07T00:35:39.163801+05:30
Kanpur,Uttar Pradesh,26.4499,80.3319,22.5,69,0.0,993.1,7.25,19.4,139,240.3,52.7,3,5,7,1,2026-04-07T00:35:39.163809+05:30
Chandigarh,Chandigarh,30.7333,76.7794,21.3,54,0.0,969.5,6.65,52.2,62,20.5,19.5,0,5,7,0,2026-04-07T00:35:39.163816+05:30
Srinagar,Jammu and Kashmir,34.0837,74.7973,8.2,87,0.0,837.6,7.7,28.4,89,62.6,58.8,3,10,7,0,2026-04-07T00:35:39.163824+05:30
Jammu,Jammu and Kashmir,32.7266,74.857,20.0,65,0.0,973.0,7.05,51.1,79,36.8,34.2,3,5,7,0,2026-04-07T00:35:39.163831+05:30
Amritsar,Punjab,31.634,74.8723,20.6,66,0.0,981.1,5.85,47.9,99,42.0,37.4,3,5,3,0,2026-04-07T00:35:39.163838+05:30
Ludhiana,Punjab,30.901,75.8573,22.9,49,0.0,979.3,6.15,55.8,105,44.9,42.4,0,5,7,0,2026-04-07T00:35:39.163844+05:30
Jalandhar,Punjab,31.326,75.5762,20.7,62,0.0,980.3,6.5,61.9,93,68.5,58.3,3,5,7,0,2026-04-07T00:35:39.163852+05:30
Dehradun,Uttarakhand,30.6284,78.0322,11.1,77,0.0,829.3,6.75,34.9,47,19.0,13.2,3,5,7,0,2026-04-07T00:35:39.163859+05:30
Shimla,Himachal Pradesh,31.1048,77.1734,10.0,67,0.0,782.6,6.75,57.2,62,14.3,10.7,3,5,7,0,2026-04-07T00:35:39.163866+05:30
Manali,Himachal Pradesh,32.2396,77.1887,11.0,81,0.0,817.1,9.4,31.0,76,11.6,10.1,3,10,7,0,2026-04-07T00:35:39.163873+05:30
Gurgaon,Haryana,28.4595,77.0266,21.1,63,0.0,983.1,5.7,40.3,473,192.3,56.2,3,5,3,0,2026-04-07T00:35:39.163882+05:30
Noida,Uttar Pradesh,28.5355,77.391,23.2,51,0.0,986.2,6.25,40.7,473,192.3,56.2,0,5,7,0,2026-04-07T00:35:39.163888+05:30
Ghaziabad,Uttar Pradesh,28.6692,77.4538,21.9,61,0.0,984.5,6.05,41.4,150,208.6,53.2,3,5,7,0,2026-04-07T00:35:39.163894+05:30
Faridabad,Haryana,28.4089,77.3178,22.2,56,0.0,985.3,6.6,37.8,473,192.3,56.2,0,5,7,0,2026-04-07T00:35:39.163901+05:30
Meerut,Uttar Pradesh,28.9845,77.7064,20.6,65,0.0,982.7,6.15,41.0,150,208.6,53.2,3,5,7,0,2026-04-07T00:35:39.163907+05:30
Agra,Uttar Pradesh,27.1767,78.0081,21.2,70,0.0,989.1,6.3,32.4,345,400.5,70.8,3,5,7,0,2026-04-07T00:35:39.163913+05:30
Varanasi,Uttar Pradesh,25.3176,82.9739,23.1,54,0.0,998.9,8.05,28.4,85,68.0,34.2,0,5,7,0,2026-04-07T00:35:39.163922+05:30
Prayagraj,Uttar Pradesh,25.4358,81.8463,24.6,52,0.0,997.5,7.9,22.7,85,90.6,44.1,0,5,7,0,2026-04-07T00:35:39.163929+05:30
Gorakhpur,Uttar Pradesh,26.7606,83.3732,22.8,58,0.0,998.8,7.85,23.4,72,45.9,26.4,0,5,7,0,2026-04-07T00:35:39.163937+05:30
Bareilly,Uttar Pradesh,28.367,79.4304,20.3,66,0.0,988.7,7.2,28.8,86,137.8,51.1,3,5,7,0,2026-04-07T00:35:39.163943+05:30
Aligarh,Uttar Pradesh,27.8974,78.088,20.8,64,0.0,987.1,6.6,45.0,318,324.1,61.2,3,5,7,0,2026-04-07T00:35:39.163950+05:30
Moradabad,Uttar Pradesh,28.8386,78.7733,22.2,61,0.0,985.4,7.0,42.5,115,147.1,71.9,3,5,7,0,2026-04-07T00:35:39.163956+05:30
Saharanpur,Uttar Pradesh,29.9637,77.546,20.2,65,0.0,977.1,6.45,47.2,101,126.7,60.5,3,5,7,0,2026-04-07T00:35:39.163962+05:30
Jhansi,Uttar Pradesh,25.4484,78.5685,21.3,67,0.0,979.2,7.8,39.2,79,73.3,28.9,3,5,7,0,2026-04-07T00:35:42.392601+05:30
Surat,Gujarat,21.1702,72.8311,26.6,72,0.0,1009.3,7.75,38.2,73,25.8,17.8,7,0,4,1,2026-04-07T00:35:42.392630+05:30
Vadodara,Gujarat,22.3072,73.1812,26.7,63,0.0,1006.2,8.0,41.4,63,18.0,12.6,7,5,4,1,2026-04-07T00:35:42.392640+05:30
Rajkot,Gujarat,22.3039,70.8022,24.2,74,0.0,996.8,7.7,51.1,53,28.8,15.2,3,5,7,1,2026-04-07T00:35:42.392648+05:30
Thane,Maharashtra,19.2183,72.9781,26.2,74,0.0,1011.0,7.95,37.8,62,30.3,16.1,7,0,4,1,2026-04-07T00:35:42.392655+05:30
Nagpur,Maharashtra,21.1458,79.0882,25.1,50,0.0,972.7,8.75,24.8,55,20.9,18.2,4,5,7,0,2026-04-07T00:35:42.392663+05:30
Nashik,Maharashtra,19.9975,73.7898,20.7,79,0.0,947.5,8.2,38.9,62,23.3,12.8,3,5,7,1,2026-04-07T00:35:42.392670+05:30
Aurangabad,Maharashtra,19.8762,75.3433,24.5,56,0.0,945.5,8.9,36.4,65,20.6,16.4,0,5,7,0,2026-04-07T00:35:42.392676+05:30
Solapur,Maharashtra,17.6599,75.9064,26.5,45,0.0,958.5,9.0,25.2,51,15.5,13.6,4,5,7,0,2026-04-07T00:35:42.392684+05:30
Kolhapur,Maharashtra,16.705,74.2433,18.5,90,0.0,949.6,9.05,39.6,62,21.0,17.6,3,10,7,1,2026-04-07T00:35:42.392691+05:30
Goa,Goa,15.2993,74.124,26.3,74,0.0,1000.9,9.0,34.2,63,28.3,19.8,7,5,4,1,2026-04-07T00:35:42.392698+05:30
Jodhpur,Rajasthan,26.2389,73.0243,23.5,46,0.0,982.9,7.9,61.9,91,142.5,24.7,0,5,7,0,2026-04-07T00:35:42.392704+05:30
Udaipur,Rajasthan,24.5854,73.7125,21.8,47,0.0,947.1,8.5,56.5,64,24.2,10.1,0,5,7,0,2026-04-07T00:35:42.392710+05:30
Kota,Rajasthan,25.2138,75.8648,25.7,45,0.0,979.6,7.15,46.1,70,87.5,44.1,4,5,7,0,2026-04-07T00:35:42.392717+05:30
Bikaner,Rajasthan,28.0229,73.3119,23.4,51,0.0,981.2,7.65,40.3,58,200.7,43.2,0,5,7,0,2026-04-07T00:35:42.392724+05:30
Ajmer,Rajasthan,26.4499,74.6399,23.4,46,0.0,954.8,7.25,54.4,59,43.2,22.4,0,5,7,0,2026-04-07T00:35:42.392730+05:30
Gwalior,Madhya Pradesh,26.2183,78.1828,21.5,72,0.0,984.5,7.25,47.5,81,246.8,47.8,3,5,7,1,2026-04-07T00:35:42.392736+05:30
Indore,Madhya Pradesh,22.7196,75.8577,22.5,51,0.0,948.8,8.4,39.6,57,22.3,18.9,0,5,7,0,2026-04-07T00:35:42.392743+05:30
Bhopal,Madhya Pradesh,23.2599,77.4126,24.3,38,0.0,954.2,8.4,38.2,50,37.6,23.2,0,5,7,0,2026-04-07T00:35:42.392749+05:30
Jabalpur,Madhya Pradesh,23.1815,79.9864,25.6,44,0.0,961.7,8.5,36.7,57,43.3,31.7,4,5,7,0,2026-04-07T00:35:42.392756+05:30
Ujjain,Madhya Pradesh,23.1765,75.7885,22.8,50,0.0,954.6,8.3,40.0,51,19.9,16.1,0,5,7,0,2026-04-07T00:35:42.392763+05:30
Visakhapatnam,Andhra Pradesh,17.6868,83.2185,26.8,89,0.0,1004.7,9.1,37.8,98,32.6,28.5,7,5,4,1,2026-04-07T00:35:42.392769+05:30
Vijayawada,Andhra Pradesh,16.5062,80.648,27.3,88,0.0,1003.4,9.2,33.1,69,21.0,18.9,7,5,4,1,2026-04-07T00:35:42.392775+05:30
Guntur,Andhra Pradesh,16.3067,80.4365,27.4,90,0.0,1004.7,9.2,29.9,80,22.2,20.3,7,5,4,1,2026-04-07T00:35:42.392782+05:30
Nellore,Andhra Pradesh,14.4426,79.9865,28.0,89,0.0,1006.7,9.3,37.8,85,21.2,17.5,7,5,4,1,2026-04-07T00:35:42.392789+05:30
Kurnool,Andhra Pradesh,15.8281,78.0373,29.4,32,0.0,976.6,9.2,25.2,74,28.2,21.9,4,5,7,0,2026-04-07T00:35:42.392796+05:30
Kakinada,Andhra Pradesh,16.9891,82.2475,26.5,93,0.0,1008.3,9.15,28.1,57,20.2,15.3,7,0,4,1,2026-04-07T00:35:42.392803+05:30
Tirupati,Andhra Pradesh,13.6288,79.4192,27.2,89,0.0,993.0,9.4,29.2,96,33.3,31.8,7,5,7,1,2026-04-07T00:35:42.392809+05:30
Warangal,Telangana,17.9689,79.5941,27.8,80,0.0,979.3,9.05,29.5,114,59.3,53.3,7,5,7,1,2026-04-07T00:35:42.392816+05:30
Nizamabad,Telangana,18.6725,78.0941,27.3,47,0.0,965.2,9.0,29.9,70,24.3,20.0,4,5,7,0,2026-04-07T00:35:42.392823+05:30
Mysore,Karnataka,12.2958,76.6396,22.8,86,0.0,930.1,9.55,38.5,63,18.3,15.4,3,5,7,1,2026-04-07T00:35:42.392829+05:30
Mangalore,Karnataka,12.9141,74.856,29.0,73,0.0,1009.4,9.15,34.6,60,31.5,17.3,7,0,4,1,2026-04-07T00:35:42.392836+05:30
Hubli-Dharwad,Karnataka,15.3647,75.124,20.8,80,0.0,942.4,9.2,36.7,46,21.6,14.1,3,5,7,1,2026-04-07T00:35:42.392842+05:30
Belgaum,Karnataka,15.8497,74.4977,18.6,89,0.0,926.9,9.25,33.5,57,23.0,18.6,3,10,7,1,2026-04-07T00:35:45.624439+05:30
Coimbatore,Tamil Nadu,11.0168,76.9558,25.0,77,0.0,963.5,9.35,56.5,68,28.3,22.3,7,5,7,1,2026-04-07T00:35:45.624468+05:30
Madurai,Tamil Nadu,9.9252,78.1198,28.1,86,0.0,994.7,8.05,31.0,88,28.7,27.0,7,5,7,1,2026-04-07T00:35:45.624478+05:30
Trichy,Tamil Nadu,10.7905,78.7047,28.3,86,0.0,1001.3,9.05,30.2,85,36.2,34.2,7,5,4,1,2026-04-07T00:35:45.624486+05:30
Salem,Tamil Nadu,11.6643,78.146,28.4,71,0.0,979.1,9.45,32.0,82,25.8,23.1,7,5,7,1,2026-04-07T00:35:45.624493+05:30
Tirunelveli,Tamil Nadu,8.7139,77.7567,28.1,76,0.0,1004.8,8.75,24.1,58,27.7,21.8,7,5,4,1,2026-04-07T00:35:45.624500+05:30
Vellore,Tamil Nadu,12.9165,79.1325,27.5,80,0.0,985.9,9.45,28.8,107,43.2,41.1,7,5,7,1,2026-04-07T00:35:45.624507+05:30
Erode,Tamil Nadu,11.341,77.7172,29.3,63,0.0,990.5,9.45,38.9,66,22.9,18.8,7,5,7,1,2026-04-07T00:35:45.624513+05:30
Kochi,Kerala,9.9312,76.2673,29.5,75,0.0,1011.1,8.9,42.1,68,31.3,22.6,7,0,4,1,2026-04-07T00:35:45.624519+05:30
Thiruvananthapuram,Kerala,8.5241,76.9366,29.7,76,0.0,1010.1,8.8,52.9,60,31.8,18.5,7,0,4,1,2026-04-07T00:35:45.624526+05:30
Kozhikode,Kerala,11.2588,75.7804,29.3,72,0.0,1010.4,9.15,38.2,61,27.9,15.5,7,0,4,1,2026-04-07T00:35:45.624533+05:30
Thrissur,Kerala,10.5276,76.2144,27.7,81,0.0,1009.5,9.2,41.8,69,32.1,21.8,7,0,4,1,2026-04-07T00:35:45.624539+05:30
Kannur,Kerala,11.8745,75.3704,28.0,76,0.0,1009.8,9.15,40.3,58,24.0,14.3,7,0,4,1,2026-04-07T00:35:45.624546+05:30
Patna,Bihar,25.5941,85.1376,25.0,57,0.0,1002.1,8.2,24.5,71,41.8,32.7,4,5,4,0,2026-04-07T00:35:45.624552+05:30
Gaya,Bihar,24.7914,85.0002,23.8,71,0.0,995.4,8.3,23.4,67,45.8,36.1,3,5,7,1,2026-04-07T00:35:45.624559+05:30
Muzaffarpur,Bihar,26.1209,85.3647,23.4,62,0.0,1001.8,8.15,22.0,75,47.3,38.1,3,5,4,0,2026-04-07T00:35:45.624565+05:30
Bhagalpur,Bihar,25.2425,87.0117,23.5,70,0.0,1003.0,8.05,25.2,63,26.7,20.5,3,5,4,1,2026-04-07T00:35:45.624572+05:30
Ranchi,Jharkhand,23.3441,85.3096,20.3,82,0.0,938.9,8.9,36.0,76,32.1,22.5,3,5,7,1,2026-04-07T00:35:45.624579+05:30
Jamshedpur,Jharkhand,22.8046,86.2029,23.2,86,0.0,992.8,8.75,25.2,111,43.7,37.3,3,5,7,1,2026-04-07T00:35:45.624585+05:30
Dhanbad,Jharkhand,23.7957,86.4304,24.0,69,0.0,981.5,8.65,32.8,123,85.4,76.1,3,5,7,1,2026-04-07T00:35:45.624591+05:30
Bokaro,Jharkhand,23.6693,86.1511,23.5,77,0.0,985.6,8.65,33.1,108,66.8,56.8,3,5,7,1,2026-04-07T00:35:45.624597+05:30
Bhubaneswar,Odisha,20.2961,85.8245,24.6,94,0.0,1004.0,8.95,39.6,72,42.1,39.5,3,5,4,1,2026-04-07T00:35:45.624603+05:30
Cuttack,Odisha,20.4625,85.8828,24.4,93,0.0,1005.9,9.0,34.9,72,42.1,39.5,3,5,4,1,2026-04-07T00:35:45.624610+05:30
Rourkela,Odisha,22.2604,84.8536,22.0,85,0.0,987.4,8.7,25.2,108,43.4,38.1,3,5,7,1,2026-04-07T00:35:45.624615+05:30
Raipur,Chhattisgarh,21.2514,81.6296,26.3,69,0.0,974.5,8.8,26.3,115,55.6,49.2,7,5,7,1,2026-04-07T00:35:45.624621+05:30
Bhilai,Chhattisgarh,21.1938,81.3509,26.5,72,0.0,974.8,8.8,24.1,116,55.1,50.1,7,5,7,1,2026-04-07T00:35:45.624627+05:30
Guwahati,Assam,26.1158,91.7086,24.7,83,0.0,1002.4,6.8,29.2,96,50.5,47.7,3,5,4,1,2026-04-07T00:35:45.624632+05:30
Agartala,Tripura,23.8315,91.2868,26.6,78,0.0,1006.5,8.0,30.2,159,114.6,108.5,7,5,4,1,2026-04-07T00:35:45.624638+05:30
Shillong,Meghalaya,25.5788,91.8933,13.9,84,0.0,856.2,5.0,36.7,88,48.7,44.6,3,10,3,0,2026-04-07T00:35:45.624644+05:30
Imphal,Manipur,24.817,93.9368,18.1,77,0.0,923.8,3.6,42.5,121,55.4,50.3,3,5,3,0,2026-04-07T00:35:45.624651+05:30
Aizawl,Mizoram,23.7271,92.7176,18.9,78,0.0,892.7,5.35,52.2,131,60.3,53.9,3,5,3,0,2026-04-07T00:35:45.624657+05:30
Kohima,Nagaland,25.6701,94.1077,16.7,66,0.0,855.4,3.8,61.6,86,38.5,33.3,3,5,3,0,2026-04-07T00:35:45.624663+05:30
Gangtok,Sikkim,27.3314,88.6138,12.2,75,0.0,837.3,8.45,24.1,58,26.5,22.6,3,5,7,0,2026-04-07T00:35:45.624669+05:30
Siliguri,West Bengal,26.7271,88.3953,21.5,63,0.0,995.8,8.1,24.1,79,43.5,38.6,3,5,7,0,2026-04-07T00:35:48.861388+05:30
Durgapur,West Bengal,23.5204,87.3119,24.8,81,0.0,996.8,8.6,28.4,127,72.4,64.0,3,5,7,1,2026-04-07T00:35:48.861422+05:30
Asansol,West Bengal,23.6739,86.9524,25.3,80,0.0,995.4,8.65,14.8,119,69.4,61.0,7,5,7,1,2026-04-07T00:35:48.861433+05:30
Pondicherry,Puducherry,11.9139,79.8145,26.5,92,0.0,1009.9,8.85,26.6,75,25.3,20.1,7,0,4,1,2026-04-07T00:35:48.861443+05:30
Port Blair,Andaman and Nicobar Islands,11.6234,92.7265,28.7,71,0.0,1008.5,9.2,13.3,28,9.3,5.9,7,0,4,1,2026-04-07T00:35:48.861452+05:30
Haridwar,Uttarakhand,29.9457,78.1642,19.8,68,0.0,976.2,6.2,44.6,66,38.2,31.3,3,5,7,0,2026-04-07T00:35:48.861461+05:30
Rishikesh,Uttarakhand,30.0869,78.2676,19.8,62,0.0,968.9,6.25,31.0,52,27.8,19.4,3,5,7,0,2026-04-07T00:35:48.861469+05:30
Nainital,Uttarakhand,29.3919,79.4542,15.2,57,0.0,806.0,5.9,34.6,55,17.5,13.0,0,5,3,0,2026-04-07T00:35:48.861478+05:30
Mussoorie,Uttarakhand,30.4599,78.0664,13.5,60,0.0,802.2,6.6,38.9,60,33.4,26.9,0,5,7,0,2026-04-07T00:35:48.861485+05:30
Dharamshala,Himachal Pradesh,32.219,76.3234,16.6,54,0.0,868.5,7.4,43.2,50,9.2,7.6,0,5,7,0,2026-04-07T00:35:48.861492+05:30
Dalhousie,Himachal Pradesh,32.5387,75.971,12.9,62,0.0,801.9,5.85,43.2,61,27.5,25.8,3,5,3,0,2026-04-07T00:35:48.861499+05:30
Patiala,Punjab,30.3398,76.3869,20.7,55,0.0,979.1,5.9,47.5,108,46.7,43.9,0,5,3,0,2026-04-07T00:35:48.861506+05:30
Bhatinda,Punjab,30.211,74.9455,20.6,69,0.0,984.3,6.3,63.7,90,39.6,32.5,3,5,7,0,2026-04-07T00:35:48.861512+05:30
Rohtak,Haryana,28.8955,76.6066,20.3,66,0.0,983.5,5.0,45.4,195,140.2,42.0,3,5,3,0,2026-04-07T00:35:48.861519+05:30
Panipat,Haryana,29.3909,76.9635,20.3,60,0.0,981.8,5.85,42.8,327,601.6,82.4,0,5,3,0,2026-04-07T00:35:48.861525+05:30
Mathura,Uttar Pradesh,27.4924,77.6737,21.5,64,0.0,988.2,6.1,36.7,353,177.0,50.3,3,5,7,0,2026-04-07T00:35:48.861532+05:30
Vrindavan,Uttar Pradesh,27.5823,77.7027,21.2,67,0.0,988.7,5.7,36.0,353,177.0,50.3,3,5,3,0,2026-04-07T00:35:48.861538+05:30
Ayodhya,Uttar Pradesh,26.7922,82.1998,23.2,51,0.0,997.1,7.6,26.6,83,132.7,33.5,0,5,7,0,2026-04-07T00:35:48.861544+05:30
Ratlam,Madhya Pradesh,23.3315,75.0367,24.9,48,0.0,955.4,8.25,41.8,73,17.8,13.0,0,5,7,0,2026-04-07T00:35:48.861550+05:30
Sagar,Madhya Pradesh,23.8388,78.7378,23.4,59,0.0,950.6,8.35,33.8,50,34.9,15.2,0,5,7,0,2026-04-07T00:35:48.861556+05:30
Satna,Madhya Pradesh,24.6005,80.8322,24.5,48,0.0,972.7,8.0,18.7,71,71.7,24.3,0,5,7,0,2026-04-07T00:35:48.861563+05:30
Akola,Maharashtra,20.7002,77.0082,26.5,43,0.0,975.9,8.7,31.0,85,24.3,19.5,4,5,7,0,2026-04-07T00:35:48.861570+05:30
Amravati,Maharashtra,20.9374,77.7796,25.8,52,0.0,967.5,8.7,28.8,82,24.0,19.4,4,5,7,0,2026-04-07T00:35:48.861577+05:30
Latur,Maharashtra,18.4088,76.5604,24.0,49,0.0,940.2,9.0,27.4,58,29.3,23.2,0,5,7,0,2026-04-07T00:35:48.861583+05:30
Nanded,Maharashtra,19.1383,77.3091,25.2,49,0.0,968.9,8.85,24.8,58,27.8,22.9,4,5,7,0,2026-04-07T00:35:48.861589+05:30
Gulbarga,Karnataka,17.3297,76.8343,28.3,30,0.0,959.2,9.05,28.1,50,12.9,10.7,4,5,7,0,2026-04-07T00:35:48.861595+05:30
Bidar,Karnataka,17.9104,77.5199,26.4,34,0.0,936.0,9.05,33.1,68,25.9,21.8,4,5,7,0,2026-04-07T00:35:48.861601+05:30
Hospet,Karnataka,15.2689,76.3909,26.5,63,0.0,957.5,9.25,29.5,46,15.8,11.4,7,5,7,1,2026-04-07T00:35:48.861607+05:30
Tirupur,Tamil Nadu,11.1085,77.3411,26.7,73,0.0,976.7,9.5,47.5,71,26.4,22.2,7,5,7,1,2026-04-07T00:35:48.861613+05:30
Alappuzha,Kerala,9.4981,76.3388,29.7,75,0.0,1011.1,8.65,41.8,68,32.6,20.4,7,0,4,1,2026-04-07T00:35:48.861619+05:30
Munnar,Kerala,10.0889,77.0595,20.7,98,0.0,858.7,9.75,39.2,60,29.7,23.6,3,5,7,1,2026-04-07T00:35:48.861626+05:30
Silchar,Assam,24.8333,92.7789,24.3,84,0.0,1005.6,6.7,27.4,154,78.0,69.8,3,5,4,1,2026-04-07T00:35:48.861632+05:30
Dibrugarh,Assam,27.4728,94.912,22.5,81,0.0,996.1,5.55,25.2,91,15.2,13.6,3,5,3,1,2026-04-07T00:35:48.861638+05:30
