city,state,latitude,longitude,temp,humidity,rain,pressure,uv_index,wind_gusts,aqi,pm10,pm2_5,mosquito_risk,arthritis_risk,migraine_risk,frizz_risk,updated_at
Delhi,Delhi,28.6139,77.209,27.5,49,0.0,987.8,6.85,22.3,127,183.0,45.9,4,5,7,0,2026-04-01T10:57:18.997515+05:30
Mumbai,Maharashtra,19.076,72.8777,27.8,75,0.0,1011.0,7.85,23.8,61,49.8,24.5,7,0,4,1,2026-04-01T10:57:18.997553+05:30
Bangalore,Karnataka,12.9716,77.5946,29.5,37,0.0,914.7,9.55,29.9,81,28.3,19.3,4,5,7,0,2026-04-01T10:57:18.997590+05:30
Hyderabad,Telangana,17.385,78.4867,32.3,46,0.0,956.6,9.1,22.3,118,39.7,32.9,0,5,7,1,2026-04-01T10:57:18.997601+05:30
Chennai,Tamil Nadu,13.0827,80.2707,31.8,54,0.0,1010.4,9.15,29.2,47,13.9,10.4,0,0,4,1,2026-04-01T10:57:18.997610+05:30
Kolkata,West Bengal,22.5726,88.3639,32.0,66,0.0,1009.5,8.6,20.2,95,51.9,43.2,3,0,4,1,2026-04-01T10:57:18.997618+05:30
Pune,Maharashtra,18.5204,73.8567,32.5,53,0.0,951.2,8.5,30.2,98,41.3,31.5,0,5,7,1,2026-04-01T10:57:18.997630+05:30
Ahmedabad,Gujarat,23.0225,72.5714,31.6,38,0.0,1005.1,7.85,25.6,62,46.2,21.2,0,5,4,0,2026-04-01T10:57:18.997638+05:30
Jaipur,Rajasthan,26.9124,75.7873,28.2,51,0.0,964.1,6.7,34.2,105,196.5,29.9,4,5,7,1,2026-04-01T10:57:18.997646+05:30
Lucknow,Uttar Pradesh,26.8467,80.9462,30.8,44,0.0,997.6,7.15,27.4,116,115.7,38.0,0,5,7,1,2026-04-01T10:57:18.997653+05:30
Kanpur,Uttar Pradesh,26.4499,80.3319,28.3,61,0.0,996.3,7.35,28.8,177,158.3,43.8,7,5,7,1,2026-04-01T10:57:18.997660+05:30
Chandigarh,Chandigarh,30.7333,76.7794,27.5,44,0.0,973.3,6.55,13.3,79,56.3,17.8,4,5,7,0,2026-04-01T10:57:18.997667+05:30
Srinagar,Jammu and Kashmir,34.0837,74.7973,14.3,72,0.0,845.4,7.1,20.5,78,34.0,20.3,3,5,7,0,2026-04-01T10:57:18.997675+05:30
Jammu,Jammu and Kashmir,32.7266,74.857,28.5,40,0.0,977.3,6.4,20.5,78,38.3,17.2,4,5,7,0,2026-04-01T10:57:18.997682+05:30
Amritsar,Punjab,31.634,74.8723,26.9,52,0.0,985.5,6.9,14.0,118,125.3,40.6,4,5,7,1,2026-04-01T10:57:18.997688+05:30
Ludhiana,Punjab,30.901,75.8573,28.0,42,0.0,983.4,6.65,15.1,131,153.2,44.7,4,5,7,0,2026-04-01T10:57:18.997695+05:30
Jalandhar,Punjab,31.326,75.5762,27.1,49,0.0,984.5,6.75,11.9,121,163.9,45.2,4,5,7,0,2026-04-01T10:57:18.997704+05:30
Dehradun,Uttarakhand,30.6284,78.0322,19.8,41,0.0,834.3,6.4,29.9,40,19.0,5.4,0,5,7,0,2026-04-01T10:57:18.997710+05:30
Shimla,Himachal Pradesh,31.1048,77.1734,17.8,47,0.0,788.7,6.1,33.8,50,29.2,7.3,0,5,7,0,2026-04-01T10:57:18.997717+05:30
Manali,Himachal Pradesh,32.2396,77.1887,20.0,31,0.0,823.5,8.45,31.0,56,8.4,3.9,0,5,7,0,2026-04-01T10:57:18.997724+05:30
Gurgaon,Haryana,28.4595,77.0266,27.9,50,0.0,986.4,6.95,25.2,352,376.3,66.6,4,5,7,1,2026-04-01T10:57:18.997730+05:30
Noida,Uttar Pradesh,28.5355,77.391,27.4,51,0.0,989.4,6.85,21.2,352,376.3,66.6,4,5,7,1,2026-04-01T10:57:18.997737+05:30
Ghaziabad,Uttar Pradesh,28.6692,77.4538,27.4,54,0.0,987.5,6.85,21.2,111,158.8,42.8,4,5,7,1,2026-04-01T10:57:18.997744+05:30
Faridabad,Haryana,28.4089,77.3178,27.8,49,0.0,988.7,6.9,22.0,352,376.3,66.6,4,5,7,1,2026-04-01T10:57:18.997752+05:30
Meerut,Uttar Pradesh,28.9845,77.7064,29.2,43,0.0,986.0,6.5,24.1,111,158.8,42.8,4,5,7,0,2026-04-01T10:57:18.997759+05:30
Agra,Uttar Pradesh,27.1767,78.0081,28.0,54,0.0,992.7,7.25,25.6,593,450.8,77.5,4,5,7,1,2026-04-01T10:57:18.997765+05:30
Varanasi,Uttar Pradesh,25.3176,82.9739,32.8,45,0.0,1001.6,7.55,28.1,137,85.7,26.7,0,5,4,1,2026-04-01T10:57:18.997774+05:30
Prayagraj,Uttar Pradesh,25.4358,81.8463,31.2,49,0.0,1000.5,7.9,36.0,110,107.1,33.6,0,5,4,1,2026-04-01T10:57:18.997781+05:30
Gorakhpur,Uttar Pradesh,26.7606,83.3732,30.5,52,0.0,1001.3,7.8,25.2,154,79.9,38.8,0,5,4,1,2026-04-01T10:57:18.997787+05:30
Bareilly,Uttar Pradesh,28.367,79.4304,29.4,42,0.0,991.5,6.95,27.4,86,65.4,25.3,4,5,7,0,2026-04-01T10:57:18.997794+05:30
Aligarh,Uttar Pradesh,27.8974,78.088,29.1,44,0.0,990.4,7.0,28.1,214,238.4,49.1,4,5,7,0,2026-04-01T10:57:18.997800+05:30
Moradabad,Uttar Pradesh,28.8386,78.7733,29.8,39,0.0,988.1,6.85,27.4,97,70.1,30.5,4,5,7,0,2026-04-01T10:57:18.997806+05:30
Saharanpur,Uttar Pradesh,29.9637,77.546,28.3,40,0.0,980.1,6.2,18.7,105,55.4,24.1,4,5,7,0,2026-04-01T10:57:18.997815+05:30
Jhansi,Uttar Pradesh,25.4484,78.5685,30.0,47,0.0,982.5,7.8,33.5,69,148.5,38.2,4,5,7,1,2026-04-01T10:57:22.217055+05:30
Surat,Gujarat,21.1702,72.8311,30.0,54,0.0,1009.7,7.65,25.2,88,49.5,38.9,4,0,4,1,2026-04-01T10:57:22.217081+05:30
Vadodara,Gujarat,22.3072,73.1812,32.3,43,0.0,1007.2,7.9,29.2,67,31.8,19.5,0,5,4,1,2026-04-01T10:57:22.217090+05:30
Rajkot,Gujarat,22.3039,70.8022,28.4,51,0.0,997.5,7.25,35.6,61,47.4,20.2,4,5,7,1,2026-04-01T10:57:22.217097+05:30
Thane,Maharashtra,19.2183,72.9781,30.4,60,0.0,1010.5,7.85,34.6,61,49.8,24.5,0,0,4,1,2026-04-01T10:57:22.217103+05:30
Nagpur,Maharashtra,21.1458,79.0882,32.5,52,0.0,976.7,8.6,37.1,73,26.9,24.0,0,5,7,1,2026-04-01T10:57:22.217109+05:30
Nashik,Maharashtra,19.9975,73.7898,29.2,59,0.0,948.3,8.1,32.0,56,26.0,13.8,4,5,7,1,2026-04-01T10:57:22.217115+05:30
Aurangabad,Maharashtra,19.8762,75.3433,31.7,45,0.0,947.1,8.8,36.4,83,37.0,27.9,0,5,7,1,2026-04-01T10:57:22.217121+05:30
Solapur,Maharashtra,17.6599,75.9064,33.6,40,0.0,959.8,8.9,29.2,107,40.6,33.9,0,5,7,1,2026-04-01T10:57:22.217127+05:30
Kolhapur,Maharashtra,16.705,74.2433,30.3,63,0.0,950.7,8.95,30.6,140,44.9,38.5,3,5,7,1,2026-04-01T10:57:22.217133+05:30
Goa,Goa,15.2993,74.124,32.1,62,0.0,999.9,8.85,32.0,72,27.7,22.2,3,5,7,1,2026-04-01T10:57:22.217139+05:30
Jodhpur,Rajasthan,26.2389,73.0243,29.8,31,0.0,986.4,7.75,32.0,104,226.3,34.6,4,5,7,0,2026-04-01T10:57:22.217145+05:30
Udaipur,Rajasthan,24.5854,73.7125,29.0,45,0.0,949.9,8.4,38.2,52,35.5,14.8,4,5,7,0,2026-04-01T10:57:22.217151+05:30
Kota,Rajasthan,25.2138,75.8648,31.9,42,0.0,982.6,7.45,33.8,56,78.9,20.4,0,5,7,1,2026-04-01T10:57:22.217157+05:30
Bikaner,Rajasthan,28.0229,73.3119,28.6,37,0.0,984.6,6.85,23.8,45,197.0,27.9,4,5,7,0,2026-04-01T10:57:22.217163+05:30
Ajmer,Rajasthan,26.4499,74.6399,29.5,35,0.0,958.3,7.4,28.4,55,103.4,20.3,4,5,7,0,2026-04-01T10:57:22.217169+05:30
Gwalior,Madhya Pradesh,26.2183,78.1828,29.4,52,0.0,987.7,7.5,35.3,107,289.6,61.9,4,5,7,1,2026-04-01T10:57:22.217174+05:30
Indore,Madhya Pradesh,22.7196,75.8577,31.0,46,0.0,951.1,8.3,36.0,69,35.2,19.1,0,5,7,1,2026-04-01T10:57:22.217180+05:30
Bhopal,Madhya Pradesh,23.2599,77.4126,33.5,34,0.0,957.1,8.25,39.2,58,26.4,15.4,0,5,7,0,2026-04-01T10:57:22.217186+05:30
Jabalpur,Madhya Pradesh,23.1815,79.9864,33.3,41,0.0,965.2,8.2,41.4,64,15.7,12.6,0,5,7,1,2026-04-01T10:57:22.217192+05:30
Ujjain,Madhya Pradesh,23.1765,75.7885,31.3,43,0.0,956.9,8.2,32.0,72,39.2,18.4,0,5,7,1,2026-04-01T10:57:22.217198+05:30
Visakhapatnam,Andhra Pradesh,17.6868,83.2185,33.0,53,0.0,1007.7,9.05,33.8,76,25.4,20.3,0,5,4,1,2026-04-01T10:57:22.217203+05:30
Vijayawada,Andhra Pradesh,16.5062,80.648,31.3,60,0.0,1006.5,9.05,28.1,65,20.2,14.9,0,5,4,1,2026-04-01T10:57:22.217209+05:30
Guntur,Andhra Pradesh,16.3067,80.4365,31.8,57,0.0,1007.5,9.1,29.5,65,19.7,14.1,0,5,4,1,2026-04-01T10:57:22.217214+05:30
Nellore,Andhra Pradesh,14.4426,79.9865,31.6,57,0.0,1009.1,9.2,29.5,52,17.6,13.9,0,0,4,1,2026-04-01T10:57:22.217220+05:30
Kurnool,Andhra Pradesh,15.8281,78.0373,33.4,47,0.0,979.9,9.1,27.0,82,24.7,19.5,0,5,7,1,2026-04-01T10:57:22.217227+05:30
Kakinada,Andhra Pradesh,16.9891,82.2475,33.2,52,0.0,1011.3,9.05,33.8,56,18.4,13.2,0,0,4,1,2026-04-01T10:57:22.217233+05:30
Tirupati,Andhra Pradesh,13.6288,79.4192,31.2,49,0.0,995.0,9.35,32.0,65,15.7,13.2,0,5,7,1,2026-04-01T10:57:22.217238+05:30
Warangal,Telangana,17.9689,79.5941,31.0,59,0.0,982.6,8.95,30.6,124,23.7,19.6,0,5,7,1,2026-04-01T10:57:22.217244+05:30
Nizamabad,Telangana,18.6725,78.0941,33.7,44,0.0,967.8,8.85,28.4,138,51.6,45.9,0,5,7,1,2026-04-01T10:57:22.217249+05:30
Mysore,Karnataka,12.2958,76.6396,28.5,53,0.0,931.0,9.5,27.4,97,27.0,20.8,4,5,7,1,2026-04-01T10:57:22.217255+05:30
Mangalore,Karnataka,12.9141,74.856,29.3,75,0.0,1008.7,9.05,20.9,77,36.7,29.8,7,0,4,1,2026-04-01T10:57:22.217261+05:30
Hubli-Dharwad,Karnataka,15.3647,75.124,30.7,55,0.0,943.5,9.15,33.8,115,50.5,42.1,0,5,7,1,2026-04-01T10:57:22.217267+05:30
Belgaum,Karnataka,15.8497,74.4977,30.3,52,0.0,928.4,9.1,27.7,114,48.4,41.2,0,5,7,1,2026-04-01T10:57:25.435404+05:30
Coimbatore,Tamil Nadu,11.0168,76.9558,30.5,52,0.0,964.6,9.45,34.2,69,18.2,12.6,0,5,7,1,2026-04-01T10:57:25.435429+05:30
Madurai,Tamil Nadu,9.9252,78.1198,31.1,53,0.0,995.8,9.0,23.4,61,15.1,11.1,0,5,7,1,2026-04-01T10:57:25.435439+05:30
Trichy,Tamil Nadu,10.7905,78.7047,30.4,57,0.0,1002.9,9.2,24.8,56,16.9,13.2,0,5,4,1,2026-04-01T10:57:25.435446+05:30
Salem,Tamil Nadu,11.6643,78.146,31.1,52,0.0,980.2,9.4,31.3,76,25.5,22.2,0,5,7,1,2026-04-01T10:57:25.435452+05:30
Tirunelveli,Tamil Nadu,8.7139,77.7567,33.0,47,0.0,1005.6,9.35,39.6,61,9.4,7.0,0,5,4,1,2026-04-01T10:57:25.435459+05:30
Vellore,Tamil Nadu,12.9165,79.1325,30.7,49,0.0,987.9,9.4,32.8,73,14.9,11.3,0,5,7,1,2026-04-01T10:57:25.435465+05:30
Erode,Tamil Nadu,11.341,77.7172,31.4,55,0.0,991.9,9.3,20.9,54,13.6,11.4,0,5,7,1,2026-04-01T10:57:25.435471+05:30
Kochi,Kerala,9.9312,76.2673,28.2,78,0.0,1010.5,9.15,29.2,97,29.5,26.7,7,0,4,1,2026-04-01T10:57:25.435477+05:30
Thiruvananthapuram,Kerala,8.5241,76.9366,28.5,78,0.0,1009.6,9.15,28.4,62,18.1,16.3,7,0,4,1,2026-04-01T10:57:25.435483+05:30
Kozhikode,Kerala,11.2588,75.7804,30.1,74,0.0,1009.7,9.15,26.6,76,25.8,20.4,3,0,4,1,2026-04-01T10:57:25.435489+05:30
Thrissur,Kerala,10.5276,76.2144,31.4,66,0.0,1008.6,9.2,34.2,96,29.9,26.1,3,0,4,1,2026-04-01T10:57:25.435495+05:30
Kannur,Kerala,11.8745,75.3704,30.4,69,0.0,1009.1,9.1,28.1,83,32.5,25.6,3,0,4,1,2026-04-01T10:57:25.435501+05:30
Patna,Bihar,25.5941,85.1376,31.3,58,0.0,1004.6,8.2,25.2,166,85.0,52.4,0,5,4,1,2026-04-01T10:57:25.435507+05:30
Gaya,Bihar,24.7914,85.0002,33.3,42,0.0,997.9,7.95,29.9,106,56.5,23.0,0,5,7,1,2026-04-01T10:57:25.435513+05:30
Muzaffarpur,Bihar,26.1209,85.3647,29.2,68,0.0,1004.7,8.15,30.2,168,102.0,73.3,7,5,4,1,2026-04-01T10:57:25.435519+05:30
Bhagalpur,Bihar,25.2425,87.0117,30.7,66,0.0,1004.9,8.25,25.9,159,80.3,54.0,3,5,4,1,2026-04-01T10:57:25.435524+05:30
Ranchi,Jharkhand,23.3441,85.3096,30.7,43,0.0,942.7,8.85,44.6,77,71.0,28.8,0,5,7,1,2026-04-01T10:57:25.435530+05:30
Jamshedpur,Jharkhand,22.8046,86.2029,33.0,53,0.0,995.0,8.7,20.5,128,66.1,44.9,0,5,7,1,2026-04-01T10:57:25.435535+05:30
Dhanbad,Jharkhand,23.7957,86.4304,32.7,46,0.0,983.8,8.6,31.3,164,68.2,36.1,0,5,7,1,2026-04-01T10:57:25.435541+05:30
Bokaro,Jharkhand,23.6693,86.1511,32.8,47,0.0,987.9,8.6,41.0,152,71.5,31.4,0,5,7,1,2026-04-01T10:57:25.435547+05:30
Bhubaneswar,Odisha,20.2961,85.8245,34.1,51,0.0,1006.7,8.85,28.4,112,37.5,31.2,0,5,4,1,2026-04-01T10:57:25.435552+05:30
Cuttack,Odisha,20.4625,85.8828,33.8,54,0.0,1008.6,8.9,23.4,112,37.5,31.2,0,0,4,1,2026-04-01T10:57:25.435558+05:30
Rourkela,Odisha,22.2604,84.8536,32.8,54,0.0,989.5,8.6,12.2,123,90.8,49.6,0,5,7,1,2026-04-01T10:57:25.435601+05:30
Raipur,Chhattisgarh,21.2514,81.6296,34.1,40,0.0,978.9,8.7,18.4,152,47.1,39.0,0,5,7,1,2026-04-01T10:57:25.435609+05:30
Bhilai,Chhattisgarh,21.1938,81.3509,34.0,43,0.0,979.2,8.7,19.8,142,43.0,38.0,0,5,7,1,2026-04-01T10:57:25.435615+05:30
Guwahati,Assam,26.1158,91.7086,25.8,81,0.0,1005.3,8.05,37.8,121,39.6,29.0,7,5,4,1,2026-04-01T10:57:25.435621+05:30
Agartala,Tripura,23.8315,91.2868,30.3,68,0.0,1010.0,8.35,32.0,100,36.8,29.7,3,0,4,1,2026-04-01T10:57:25.435627+05:30
Shillong,Meghalaya,25.5788,91.8933,19.3,61,0.0,859.8,8.45,60.5,73,33.1,22.2,3,5,7,0,2026-04-01T10:57:25.435633+05:30
Imphal,Manipur,24.817,93.9368,20.8,81,0.0,927.1,8.7,64.8,94,31.1,22.6,3,5,7,1,2026-04-01T10:57:25.435639+05:30
Aizawl,Mizoram,23.7271,92.7176,24.2,63,0.0,897.5,8.6,41.4,99,54.9,37.4,3,5,7,1,2026-04-01T10:57:25.435645+05:30
Kohima,Nagaland,25.6701,94.1077,20.2,64,0.0,858.9,8.55,75.2,67,31.5,18.5,3,5,7,0,2026-04-01T10:57:25.435653+05:30
Gangtok,Sikkim,27.3314,88.6138,18.3,80,0.0,840.2,8.45,20.2,107,34.9,23.5,3,5,7,0,2026-04-01T10:57:25.435660+05:30
Siliguri,West Bengal,26.7271,88.3953,22.8,82,0.0,997.7,8.05,32.4,152,43.0,31.3,3,5,7,1,2026-04-01T10:57:28.668146+05:30
Durgapur,West Bengal,23.5204,87.3119,32.6,59,0.0,998.7,8.55,21.6,159,71.7,53.2,0,5,7,1,2026-04-01T10:57:28.668176+05:30
Asansol,West Bengal,23.6739,86.9524,32.5,56,0.0,997.2,8.6,23.4,156,67.1,40.5,0,5,7,1,2026-04-01T10:57:28.668188+05:30
Pondicherry,Puducherry,11.9139,79.8145,31.1,61,0.0,1011.3,8.6,25.9,44,14.4,10.5,3,0,4,1,2026-04-01T10:57:28.668196+05:30
Port Blair,Andaman and Nicobar Islands,11.6234,92.7265,28.6,79,0.0,1009.5,3.85,15.5,38,15.3,13.8,7,0,0,1,2026-04-01T10:57:28.668205+05:30
Haridwar,Uttarakhand,29.9457,78.1642,29.7,33,0.0,978.6,6.6,26.3,75,26.4,12.6,4,5,7,0,2026-04-01T10:57:28.668214+05:30
Rishikesh,Uttarakhand,30.0869,78.2676,29.8,30,0.0,971.1,6.6,29.2,58,20.3,6.8,4,5,7,0,2026-04-01T10:57:28.668223+05:30
Nainital,Uttarakhand,29.3919,79.4542,23.2,37,0.0,811.5,7.45,37.8,59,35.4,10.8,0,5,7,0,2026-04-01T10:57:28.668232+05:30
Mussoorie,Uttarakhand,30.4599,78.0664,21.1,36,0.0,807.4,6.4,38.9,60,19.7,7.7,0,5,7,0,2026-04-01T10:57:28.668240+05:30
Dharamshala,Himachal Pradesh,32.219,76.3234,22.3,54,0.0,873.1,6.25,24.5,47,14.0,4.1,0,5,7,0,2026-04-01T10:57:28.668249+05:30
Dalhousie,Himachal Pradesh,32.5387,75.971,20.6,45,0.0,807.9,5.7,20.9,54,30.7,11.1,0,5,3,0,2026-04-01T10:57:28.668257+05:30
Patiala,Punjab,30.3398,76.3869,28.1,39,0.0,982.7,5.7,13.0,163,136.0,39.1,4,5,3,0,2026-04-01T10:57:28.668265+05:30
Bhatinda,Punjab,30.211,74.9455,27.3,52,0.0,988.4,6.05,20.5,100,136.4,31.8,4,5,7,1,2026-04-01T10:57:28.668271+05:30
Rohtak,Haryana,28.8955,76.6066,27.6,53,0.0,986.6,6.6,29.2,145,213.3,46.3,4,5,7,1,2026-04-01T10:57:28.668276+05:30
Panipat,Haryana,29.3909,76.9635,28.4,44,0.0,985.0,6.25,20.2,158,271.0,48.0,4,5,7,0,2026-04-01T10:57:28.668282+05:30
Mathura,Uttar Pradesh,27.4924,77.6737,27.8,54,0.0,991.9,7.15,24.5,335,318.5,63.8,4,5,7,1,2026-04-01T10:57:28.668288+05:30
Vrindavan,Uttar Pradesh,27.5823,77.7027,28.8,48,0.0,992.3,7.1,28.8,335,318.5,63.8,4,5,7,1,2026-04-01T10:57:28.668293+05:30
Ayodhya,Uttar Pradesh,26.7922,82.1998,30.9,46,0.0,999.6,7.55,29.2,101,88.5,35.7,0,5,7,1,2026-04-01T10:57:28.668299+05:30
Ratlam,Madhya Pradesh,23.3315,75.0367,30.8,47,0.0,957.6,8.15,34.6,68,42.1,19.6,0,5,7,1,2026-04-01T10:57:28.668305+05:30
Sagar,Madhya Pradesh,23.8388,78.7378,31.8,38,0.0,953.9,8.25,37.1,44,29.7,12.3,0,5,7,0,2026-04-01T10:57:28.668310+05:30
Satna,Madhya Pradesh,24.6005,80.8322,31.0,44,0.0,975.9,8.0,24.5,73,62.6,19.7,0,5,7,1,2026-04-01T10:57:28.668316+05:30
Akola,Maharashtra,20.7002,77.0082,33.6,46,0.0,977.9,8.55,20.9,76,28.4,22.6,0,5,7,1,2026-04-01T10:57:28.668322+05:30
Amravati,Maharashtra,20.9374,77.7796,33.7,44,0.0,970.4,8.6,26.3,74,25.4,20.4,0,5,7,1,2026-04-01T10:57:28.668328+05:30
Latur,Maharashtra,18.4088,76.5604,32.4,40,0.0,942.8,8.85,28.1,119,53.4,42.1,0,5,7,1,2026-04-01T10:57:28.668333+05:30
Nanded,Maharashtra,19.1383,77.3091,34.1,43,0.0,971.5,8.75,24.8,110,39.5,34.1,0,5,7,1,2026-04-01T10:57:28.668339+05:30
Gulbarga,Karnataka,17.3297,76.8343,32.8,44,0.0,961.6,8.95,39.6,110,34.0,28.9,0,5,7,1,2026-04-01T10:57:28.668344+05:30
Bidar,Karnataka,17.9104,77.5199,31.8,47,0.0,938.7,8.95,25.2,128,40.7,34.8,0,5,7,1,2026-04-01T10:57:28.668350+05:30
Hospet,Karnataka,15.2689,76.3909,30.0,54,0.0,958.7,9.15,28.8,118,43.2,37.3,4,5,7,1,2026-04-01T10:57:28.668355+05:30
Tirupur,Tamil Nadu,11.1085,77.3411,30.8,53,0.0,978.3,9.4,21.6,59,15.2,12.2,0,5,7,1,2026-04-01T10:57:28.668360+05:30
Alappuzha,Kerala,9.4981,76.3388,28.5,81,0.0,1010.5,9.2,27.0,86,22.2,20.6,7,0,4,1,2026-04-01T10:57:28.668366+05:30
Munnar,Kerala,10.0889,77.0595,26.9,49,0.0,860.2,9.75,29.2,70,16.9,10.5,4,5,7,0,2026-04-01T10:57:28.668372+05:30
Silchar,Assam,24.8333,92.7789,24.5,86,0.0,1010.2,8.4,31.0,112,38.0,30.6,3,0,4,1,2026-04-01T10:57:28.668378+05:30
Dibrugarh,Assam,27.4728,94.912,23.4,88,0.0,998.9,7.65,34.2,98,80.8,52.3,3,5,7,1,2026-04-01T10:57:28.668383+05:30
