city,state,latitude,longitude,temp,humidity,rain,pressure,uv_index,wind_gusts,aqi,pm10,pm2_5,no2,co,o3,so2,mosquito_risk,arthritis_risk,migraine_risk,frizz_risk,updated_at
Delhi,Delhi,28.6139,77.209,25.3,57,0.0,977.9,7.6,31.7,257,340.9,71.7,15.6,445.0,100.0,20.2,4,5,7,0,2026-05-02T05:24:39.973563+05:30
Mumbai,Maharashtra,19.076,72.8777,27.2,85,0.0,1006.4,7.9,41.4,68,68.5,22.2,12.7,236.0,57.0,19.3,7,5,4,1,2026-05-02T05:24:39.973602+05:30
Bangalore,Karnataka,12.9716,77.5946,21.3,89,0.0,909.7,9.5,40.0,91,32.2,28.0,18.5,412.0,58.0,10.2,3,5,7,1,2026-05-02T05:24:39.973618+05:30
Hyderabad,Telangana,17.385,78.4867,28.0,34,0.0,950.7,9.25,33.1,79,34.3,23.8,27.6,230.0,35.0,9.7,4,5,7,0,2026-05-02T05:24:39.973628+05:30
Chennai,Tamil Nadu,13.0827,80.2707,29.1,77,0.0,1004.7,9.25,56.9,57,12.3,10.3,11.8,259.0,57.0,10.4,7,5,4,1,2026-05-02T05:24:39.973638+05:30
Kolkata,West Bengal,22.5726,88.3639,25.0,90,0.0,1002.2,8.9,46.1,66,19.6,16.2,11.0,292.0,79.0,6.8,7,5,4,1,2026-05-02T05:24:39.973653+05:30
Pune,Maharashtra,18.5204,73.8567,22.2,77,0.0,945.5,8.5,47.5,56,48.3,17.2,14.0,181.0,41.0,11.8,3,5,7,1,2026-05-02T05:24:39.973662+05:30
Ahmedabad,Gujarat,23.0225,72.5714,28.1,70,0.0,998.0,8.1,50.4,53,29.7,13.2,5.3,245.0,51.0,6.4,7,5,7,1,2026-05-02T05:24:39.973672+05:30
Jaipur,Rajasthan,26.9124,75.7873,25.2,52,0.0,954.1,8.15,42.8,129,233.3,49.6,14.1,375.0,55.0,6.7,4,5,7,0,2026-05-02T05:24:39.973680+05:30
Lucknow,Uttar Pradesh,26.8467,80.9462,22.9,76,0.0,990.2,8.1,30.6,94,40.6,29.2,9.3,376.0,90.0,7.3,3,5,7,1,2026-05-02T05:24:39.973688+05:30
Kanpur,Uttar Pradesh,26.4499,80.3319,24.4,68,0.0,987.8,8.1,61.9,126,262.6,50.2,8.3,358.0,89.0,8.4,3,5,7,1,2026-05-02T05:24:39.973695+05:30
Chandigarh,Chandigarh,30.7333,76.7794,22.2,59,0.0,963.7,7.6,43.2,96,52.3,31.2,22.1,324.0,43.0,9.3,0,5,7,0,2026-05-02T05:24:39.973703+05:30
Srinagar,Jammu and Kashmir,34.0837,74.7973,8.0,100,0.0,836.3,8.75,29.9,76,39.2,34.5,20.7,398.0,23.0,1.0,3,10,7,0,2026-05-02T05:24:39.973711+05:30
Jammu,Jammu and Kashmir,32.7266,74.857,18.6,71,0.0,966.3,8.4,31.3,61,20.3,19.3,24.9,242.0,18.0,1.8,3,5,7,0,2026-05-02T05:24:39.973719+05:30
Amritsar,Punjab,31.634,74.8723,22.8,62,0.0,974.7,8.25,45.0,130,36.6,27.9,8.8,596.0,73.0,5.5,3,5,7,0,2026-05-02T05:24:39.973726+05:30
Ludhiana,Punjab,30.901,75.8573,23.1,65,0.0,973.2,7.8,33.1,157,234.2,71.9,18.6,724.0,53.0,15.3,3,5,7,1,2026-05-02T05:24:39.973734+05:30
Jalandhar,Punjab,31.326,75.5762,21.6,68,0.0,974.0,8.05,32.4,154,75.9,49.9,23.1,522.0,42.0,8.8,3,5,7,0,2026-05-02T05:24:39.973743+05:30
Dehradun,Uttarakhand,30.6284,78.0322,9.5,94,0.0,823.0,8.05,46.1,69,13.8,11.5,14.3,289.0,49.0,0.0,3,10,7,0,2026-05-02T05:24:39.973753+05:30
Shimla,Himachal Pradesh,31.1048,77.1734,7.7,82,0.0,776.1,8.1,49.3,70,32.1,23.6,21.8,233.0,41.0,2.0,3,10,7,0,2026-05-02T05:24:39.973760+05:30
Manali,Himachal Pradesh,32.2396,77.1887,5.7,62,0.0,808.1,9.6,37.8,43,8.5,6.8,20.3,213.0,108.0,0.0,3,5,7,1,2026-05-02T05:24:39.973767+05:30
Gurgaon,Haryana,28.4595,77.0266,24.3,60,0.0,976.1,7.7,30.6,1115,871.7,125.7,11.0,423.0,98.0,14.4,0,5,7,0,2026-05-02T05:24:39.973774+05:30
Noida,Uttar Pradesh,28.5355,77.391,22.8,68,0.0,979.4,7.65,35.3,1115,871.7,125.7,11.0,423.0,98.0,14.4,3,5,7,1,2026-05-02T05:24:39.973781+05:30
Ghaziabad,Uttar Pradesh,28.6692,77.4538,23.1,67,0.0,977.7,7.6,39.6,161,204.9,54.9,8.9,392.0,101.0,16.6,3,5,7,1,2026-05-02T05:24:39.973788+05:30
Faridabad,Haryana,28.4089,77.3178,24.1,62,0.0,978.7,7.65,25.2,1115,871.7,125.7,11.0,426.0,98.0,14.4,3,5,7,1,2026-05-02T05:24:39.973795+05:30
Meerut,Uttar Pradesh,28.9845,77.7064,22.5,74,0.0,976.9,7.5,34.2,161,204.9,54.9,8.9,377.0,101.0,16.6,3,5,7,1,2026-05-02T05:24:39.973801+05:30
Agra,Uttar Pradesh,27.1767,78.0081,25.8,62,0.0,982.7,7.95,38.2,730,745.1,106.4,7.2,359.0,93.0,9.8,7,5,7,1,2026-05-02T05:24:39.973809+05:30
Varanasi,Uttar Pradesh,25.3176,82.9739,22.8,83,0.0,994.4,8.6,29.2,98,54.4,44.1,14.1,448.0,79.0,14.6,3,5,7,1,2026-05-02T05:24:39.973817+05:30
Prayagraj,Uttar Pradesh,25.4358,81.8463,23.6,76,0.0,992.4,8.5,28.8,98,53.1,42.4,13.2,466.0,84.0,11.9,3,5,7,1,2026-05-02T05:24:39.973826+05:30
Gorakhpur,Uttar Pradesh,26.7606,83.3732,20.9,95,0.0,995.1,8.45,28.4,76,27.3,25.1,11.6,480.0,76.0,6.9,3,5,7,1,2026-05-02T05:24:39.973833+05:30
Bareilly,Uttar Pradesh,28.367,79.4304,22.1,78,0.0,983.2,7.9,32.8,101,98.5,39.5,9.0,335.0,84.0,5.8,3,5,7,1,2026-05-02T05:24:39.973840+05:30
Aligarh,Uttar Pradesh,27.8974,78.088,24.0,69,0.0,980.7,7.75,40.3,565,493.6,79.6,7.8,353.0,95.0,14.3,3,5,7,1,2026-05-02T05:24:39.973847+05:30
Moradabad,Uttar Pradesh,28.8386,78.7733,22.2,79,0.0,979.8,7.7,39.6,118,75.0,38.8,9.7,341.0,86.0,8.4,3,5,7,1,2026-05-02T05:24:39.973854+05:30
Saharanpur,Uttar Pradesh,29.9637,77.546,21.5,78,0.0,971.4,7.35,34.6,120,79.4,48.2,17.1,362.0,49.0,8.3,3,5,7,1,2026-05-02T05:24:39.973860+05:30
Jhansi,Uttar Pradesh,25.4484,78.5685,24.4,63,0.0,972.6,8.4,41.0,73,63.8,27.5,6.7,280.0,60.0,4.8,3,5,7,1,2026-05-02T05:24:43.311733+05:30
Surat,Gujarat,21.1702,72.8311,27.9,84,0.0,1003.4,7.7,54.0,63,35.7,19.0,20.2,262.0,51.0,33.9,7,5,4,1,2026-05-02T05:24:43.311766+05:30
Vadodara,Gujarat,22.3072,73.1812,27.3,88,0.0,1000.7,8.05,49.7,54,23.3,12.7,9.0,173.0,53.0,11.3,7,5,4,1,2026-05-02T05:24:43.311777+05:30
Rajkot,Gujarat,22.3039,70.8022,25.9,87,0.0,989.9,7.75,56.9,49,22.1,10.2,3.1,150.0,62.0,3.6,7,5,7,1,2026-05-02T05:24:43.311786+05:30
Thane,Maharashtra,19.2183,72.9781,26.4,88,0.0,1005.8,7.95,38.9,68,68.5,22.2,12.7,228.0,57.0,19.3,7,5,4,1,2026-05-02T05:24:43.311794+05:30
Nagpur,Maharashtra,21.1458,79.0882,29.1,32,0.0,969.2,8.95,41.8,79,24.9,16.6,8.5,240.0,70.0,12.4,4,5,7,0,2026-05-02T05:24:43.311802+05:30
Nashik,Maharashtra,19.9975,73.7898,22.1,93,0.0,942.7,8.25,47.9,61,57.0,21.7,12.9,204.0,44.0,11.0,3,5,7,1,2026-05-02T05:24:43.311810+05:30
Aurangabad,Maharashtra,19.8762,75.3433,24.1,70,0.0,941.7,9.05,44.3,54,38.2,15.9,12.1,195.0,47.0,11.2,3,5,7,1,2026-05-02T05:24:43.311818+05:30
Solapur,Maharashtra,17.6599,75.9064,25.9,53,0.0,955.0,9.05,42.1,51,28.2,12.3,7.7,179.0,50.0,4.0,4,5,7,0,2026-05-02T05:24:43.311826+05:30
Kolhapur,Maharashtra,16.705,74.2433,21.4,80,0.0,945.4,8.95,49.3,60,41.6,19.6,12.7,173.0,35.0,2.0,3,5,7,1,2026-05-02T05:24:43.311833+05:30
Goa,Goa,15.2993,74.124,24.1,98,0.0,996.4,8.95,40.3,65,49.8,28.3,13.8,248.0,51.0,2.8,3,5,7,1,2026-05-02T05:24:43.311841+05:30
Jodhpur,Rajasthan,26.2389,73.0243,29.2,46,0.0,976.2,8.35,40.7,126,186.3,30.6,3.0,168.0,65.0,3.0,4,5,7,1,2026-05-02T05:24:43.311848+05:30
Udaipur,Rajasthan,24.5854,73.7125,25.0,65,0.0,941.4,8.8,40.7,53,23.2,13.5,6.1,180.0,57.0,8.5,7,5,7,1,2026-05-02T05:24:43.311855+05:30
Kota,Rajasthan,25.2138,75.8648,29.0,53,0.0,973.1,8.35,40.3,63,25.0,11.8,2.9,237.0,86.0,6.7,4,5,7,1,2026-05-02T05:24:43.311863+05:30
Bikaner,Rajasthan,28.0229,73.3119,27.6,30,0.0,973.8,8.3,34.6,68,59.8,18.7,2.8,185.0,83.0,3.7,4,5,7,0,2026-05-02T05:24:43.311870+05:30
Ajmer,Rajasthan,26.4499,74.6399,28.2,42,0.0,948.8,8.3,47.2,62,48.2,15.1,3.2,194.0,71.0,3.7,4,5,7,0,2026-05-02T05:24:43.311877+05:30
Gwalior,Madhya Pradesh,26.2183,78.1828,25.0,58,0.0,977.8,8.2,44.6,86,121.5,39.0,4.9,270.0,94.0,5.9,4,5,7,1,2026-05-02T05:24:43.311885+05:30
Indore,Madhya Pradesh,22.7196,75.8577,25.2,75,0.0,944.5,8.4,49.3,57,19.8,10.9,4.4,171.0,67.0,10.0,7,5,7,1,2026-05-02T05:24:43.311892+05:30
Bhopal,Madhya Pradesh,23.2599,77.4126,27.6,52,0.0,949.4,8.7,64.4,70,21.9,15.4,3.9,201.0,77.0,5.8,4,5,7,1,2026-05-02T05:24:43.311900+05:30
Jabalpur,Madhya Pradesh,23.1815,79.9864,26.0,48,0.0,956.3,8.85,50.0,81,74.3,27.4,17.5,207.0,46.0,4.1,4,5,7,0,2026-05-02T05:24:43.311907+05:30
Ujjain,Madhya Pradesh,23.1765,75.7885,25.2,77,0.0,950.1,8.6,47.5,55,20.4,11.1,4.7,169.0,63.0,9.8,7,5,7,1,2026-05-02T05:24:43.311914+05:30
Visakhapatnam,Andhra Pradesh,17.6868,83.2185,26.7,87,0.0,1001.5,9.1,51.8,60,20.5,15.9,18.0,353.0,54.0,2.2,7,5,4,1,2026-05-02T05:24:43.311922+05:30
Vijayawada,Andhra Pradesh,16.5062,80.648,28.2,91,0.0,999.2,9.15,36.7,69,16.4,13.3,6.0,202.0,82.0,7.0,7,5,7,1,2026-05-02T05:24:43.311929+05:30
Guntur,Andhra Pradesh,16.3067,80.4365,28.9,86,0.0,1000.4,9.2,40.0,71,16.6,14.9,8.1,236.0,87.0,9.4,7,5,4,1,2026-05-02T05:24:43.311936+05:30
Nellore,Andhra Pradesh,14.4426,79.9865,29.7,67,0.0,1002.4,9.2,49.0,79,26.9,25.0,8.6,296.0,101.0,11.9,7,5,4,1,2026-05-02T05:24:43.311944+05:30
Kurnool,Andhra Pradesh,15.8281,78.0373,28.5,48,0.0,974.5,9.2,32.0,60,17.2,11.3,10.2,207.0,49.0,2.6,4,5,7,1,2026-05-02T05:24:43.311952+05:30
Kakinada,Andhra Pradesh,16.9891,82.2475,27.6,99,0.0,1005.1,9.15,45.0,51,15.9,10.8,3.0,215.0,60.0,1.5,7,5,4,1,2026-05-02T05:24:43.311959+05:30
Tirupati,Andhra Pradesh,13.6288,79.4192,27.8,67,0.0,988.6,9.3,47.9,95,35.4,33.2,17.8,340.0,61.0,10.3,7,5,7,1,2026-05-02T05:24:43.311967+05:30
Warangal,Telangana,17.9689,79.5941,26.0,86,0.0,975.6,9.15,40.0,83,35.0,32.0,18.9,346.0,58.0,9.0,7,5,7,1,2026-05-02T05:24:43.311974+05:30
Nizamabad,Telangana,18.6725,78.0941,28.1,42,0.0,962.0,9.1,32.0,68,22.3,16.6,11.9,201.0,57.0,6.5,4,5,7,0,2026-05-02T05:24:43.311981+05:30
Mysore,Karnataka,12.2958,76.6396,21.6,95,0.0,927.0,9.4,43.9,79,32.6,28.7,13.2,265.0,50.0,1.6,3,5,7,1,2026-05-02T05:24:43.311989+05:30
Mangalore,Karnataka,12.9141,74.856,27.2,88,0.0,1005.6,9.05,43.2,69,33.1,25.7,16.7,331.0,31.0,3.3,7,5,4,1,2026-05-02T05:24:43.311996+05:30
Hubli-Dharwad,Karnataka,15.3647,75.124,21.1,97,0.0,938.8,9.2,48.6,56,24.2,17.3,6.0,189.0,54.0,1.0,3,5,7,1,2026-05-02T05:24:43.312003+05:30
Belgaum,Karnataka,15.8497,74.4977,20.1,84,0.0,922.7,9.15,44.6,56,36.2,18.2,11.4,156.0,40.0,0.5,3,5,7,1,2026-05-02T05:24:46.649427+05:30
Coimbatore,Tamil Nadu,11.0168,76.9558,25.2,89,0.0,960.1,9.0,53.3,68,25.3,21.2,8.0,242.0,60.0,3.6,7,5,7,1,2026-05-02T05:24:46.649461+05:30
Madurai,Tamil Nadu,9.9252,78.1198,27.9,87,0.0,991.1,9.2,52.2,71,29.2,27.2,37.9,451.0,0.0,5.8,7,5,7,1,2026-05-02T05:24:46.649475+05:30
Trichy,Tamil Nadu,10.7905,78.7047,28.2,84,0.0,997.9,9.2,45.7,68,19.3,18.2,20.6,322.0,39.0,5.4,7,5,7,1,2026-05-02T05:24:46.649485+05:30
Salem,Tamil Nadu,11.6643,78.146,27.8,67,0.0,975.8,9.3,58.3,93,28.8,26.8,22.1,383.0,42.0,7.8,7,5,7,1,2026-05-02T05:24:46.649495+05:30
Tirunelveli,Tamil Nadu,8.7139,77.7567,27.4,77,0.0,1001.3,9.1,36.4,51,23.4,21.7,8.9,392.0,48.0,1.7,7,5,4,1,2026-05-02T05:24:46.649504+05:30
Vellore,Tamil Nadu,12.9165,79.1325,27.1,80,0.0,982.1,9.3,39.2,99,31.7,29.1,11.7,328.0,66.0,8.3,7,5,7,1,2026-05-02T05:24:46.649513+05:30
Erode,Tamil Nadu,11.341,77.7172,27.2,79,0.0,987.6,9.25,51.8,74,25.4,22.9,19.7,259.0,38.0,3.9,7,5,7,1,2026-05-02T05:24:46.649522+05:30
Kochi,Kerala,9.9312,76.2673,26.4,97,0.0,1007.5,8.4,31.7,69,33.2,28.8,23.7,442.0,19.0,4.3,7,5,4,1,2026-05-02T05:24:46.649531+05:30
Thiruvananthapuram,Kerala,8.5241,76.9366,25.5,97,0.0,1006.7,8.05,35.3,41,18.2,13.3,5.2,393.0,73.0,2.8,7,5,4,1,2026-05-02T05:24:46.649540+05:30
Kozhikode,Kerala,11.2588,75.7804,26.1,95,0.0,1006.8,8.85,44.6,66,29.2,17.9,3.2,708.0,76.0,1.2,7,5,4,1,2026-05-02T05:24:46.649549+05:30
Thrissur,Kerala,10.5276,76.2144,25.6,99,0.0,1006.0,6.45,35.3,72,29.3,24.2,15.5,345.0,36.0,3.2,7,5,4,1,2026-05-02T05:24:46.649558+05:30
Kannur,Kerala,11.8745,75.3704,26.6,93,0.0,1005.9,9.0,48.6,76,40.0,31.7,23.5,629.0,25.0,2.1,7,5,4,1,2026-05-02T05:24:46.649567+05:30
Patna,Bihar,25.5941,85.1376,20.5,96,0.0,998.1,8.65,26.6,93,44.7,38.2,16.0,402.0,58.0,10.0,3,5,7,1,2026-05-02T05:24:46.649576+05:30
Gaya,Bihar,24.7914,85.0002,21.1,91,0.0,990.8,8.75,27.7,92,49.8,37.3,17.9,388.0,70.0,9.8,3,5,7,1,2026-05-02T05:24:46.649585+05:30
Muzaffarpur,Bihar,26.1209,85.3647,20.2,98,0.0,998.4,8.65,28.1,84,44.5,39.6,12.8,399.0,62.0,8.9,3,5,7,1,2026-05-02T05:24:46.649593+05:30
Bhagalpur,Bihar,25.2425,87.0117,21.1,89,0.0,999.0,8.65,30.2,90,51.1,44.7,11.9,268.0,72.0,10.1,3,5,7,1,2026-05-02T05:24:46.649601+05:30
Ranchi,Jharkhand,23.3441,85.3096,21.2,65,0.0,933.4,9.0,44.3,96,101.3,50.4,41.8,249.0,48.0,18.5,3,5,7,0,2026-05-02T05:24:46.649610+05:30
Jamshedpur,Jharkhand,22.8046,86.2029,22.1,92,0.0,987.1,9.0,61.6,96,46.7,41.7,32.9,621.0,35.0,27.8,3,5,7,1,2026-05-02T05:24:46.649619+05:30
Dhanbad,Jharkhand,23.7957,86.4304,21.4,90,0.0,976.4,9.0,29.9,139,64.7,57.6,39.8,1517.0,58.0,51.5,3,5,7,1,2026-05-02T05:24:46.649627+05:30
Bokaro,Jharkhand,23.6693,86.1511,20.8,100,0.0,980.3,8.85,36.4,131,75.7,68.5,45.5,3307.0,43.0,68.4,3,5,7,1,2026-05-02T05:24:46.649636+05:30
Bhubaneswar,Odisha,20.2961,85.8245,24.6,96,0.0,999.2,9.05,46.1,56,12.0,9.7,5.6,210.0,51.0,3.7,3,5,7,1,2026-05-02T05:24:46.649644+05:30
Cuttack,Odisha,20.4625,85.8828,24.9,95,0.0,1001.0,9.1,51.8,56,12.0,9.7,5.6,231.0,51.0,3.7,3,5,4,1,2026-05-02T05:24:46.649652+05:30
Rourkela,Odisha,22.2604,84.8536,21.6,84,0.0,981.4,8.95,47.5,114,99.7,49.4,28.9,439.0,62.0,45.3,3,5,7,1,2026-05-02T05:24:46.649661+05:30
Raipur,Chhattisgarh,21.2514,81.6296,27.4,39,0.0,969.9,9.0,50.0,128,73.6,43.9,36.0,379.0,46.0,6.4,4,5,7,0,2026-05-02T05:24:46.649670+05:30
Bhilai,Chhattisgarh,21.1938,81.3509,27.2,43,0.0,970.3,9.0,48.2,120,82.9,47.5,42.6,447.0,32.0,7.0,4,5,7,0,2026-05-02T05:24:46.649678+05:30
Guwahati,Assam,26.1158,91.7086,19.8,99,0.0,1001.1,6.3,18.0,61,16.3,15.0,8.5,471.0,51.0,1.7,3,10,4,1,2026-05-02T05:24:46.649687+05:30
Agartala,Tripura,23.8315,91.2868,21.1,98,0.0,1005.1,8.75,36.7,59,5.9,4.9,7.9,181.0,58.0,1.6,3,5,4,1,2026-05-02T05:24:46.649695+05:30
Shillong,Meghalaya,25.5788,91.8933,13.9,92,0.0,852.9,5.75,34.9,45,7.5,6.8,5.0,265.0,76.0,1.1,3,10,3,0,2026-05-02T05:24:46.649704+05:30
Imphal,Manipur,24.817,93.9368,16.5,99,0.0,921.4,6.75,33.1,69,20.2,19.3,8.4,386.0,51.0,1.7,3,10,7,1,2026-05-02T05:24:46.649712+05:30
Aizawl,Mizoram,23.7271,92.7176,14.8,97,0.0,889.3,9.0,38.9,31,4.6,3.3,3.4,188.0,53.0,0.3,3,10,7,0,2026-05-02T05:24:46.649721+05:30
Kohima,Nagaland,25.6701,94.1077,14.9,94,0.0,852.1,6.45,29.5,53,8.6,7.6,5.6,270.0,56.0,0.6,3,10,7,0,2026-05-02T05:24:46.649730+05:30
Gangtok,Sikkim,27.3314,88.6138,11.1,92,0.0,832.5,2.95,31.0,52,19.6,14.2,7.3,410.0,96.0,0.7,3,10,3,0,2026-05-02T05:24:46.649738+05:30
Siliguri,West Bengal,26.7271,88.3953,19.4,98,0.4,991.5,1.2,24.1,70,15.5,12.3,9.5,279.0,91.0,1.9,6,10,3,1,2026-05-02T05:24:49.990754+05:30
Durgapur,West Bengal,23.5204,87.3119,22.5,94,0.0,991.5,8.9,31.0,129,54.7,47.1,25.5,585.0,75.0,30.8,3,5,7,1,2026-05-02T05:24:49.990788+05:30
Asansol,West Bengal,23.6739,86.9524,22.0,93,0.0,990.7,8.95,29.5,124,51.9,44.7,25.4,834.0,78.0,34.3,3,5,7,1,2026-05-02T05:24:49.990798+05:30
Pondicherry,Puducherry,11.9139,79.8145,28.5,86,0.0,1006.1,9.15,53.3,54,9.1,7.5,7.9,301.0,69.0,6.1,7,5,4,1,2026-05-02T05:24:49.990808+05:30
Port Blair,Andaman and Nicobar Islands,11.6234,92.7265,24.5,92,0.0,1006.2,9.05,31.3,28,11.0,7.6,0.5,224.0,60.0,0.2,3,5,4,1,2026-05-02T05:24:49.990817+05:30
Haridwar,Uttarakhand,29.9457,78.1642,19.0,87,0.0,969.9,7.4,30.6,118,68.2,43.4,15.5,290.0,46.0,5.3,3,10,7,1,2026-05-02T05:24:49.990825+05:30
Rishikesh,Uttarakhand,30.0869,78.2676,17.0,94,0.0,962.2,7.5,24.8,110,67.8,37.4,7.8,313.0,73.0,2.8,3,10,7,0,2026-05-02T05:24:49.990834+05:30
Nainital,Uttarakhand,29.3919,79.4542,10.2,95,0.0,799.4,8.25,42.1,95,78.7,32.7,18.3,268.0,51.0,2.9,3,10,7,0,2026-05-02T05:24:49.990842+05:30
Mussoorie,Uttarakhand,30.4599,78.0664,11.0,88,0.0,796.8,7.9,52.9,113,56.1,32.0,17.4,282.0,52.0,5.4,3,10,7,0,2026-05-02T05:24:49.990850+05:30
Dharamshala,Himachal Pradesh,32.219,76.3234,18.4,52,0.0,863.7,8.25,48.2,38,5.4,3.7,10.0,212.0,43.0,0.1,0,5,7,0,2026-05-02T05:24:49.990858+05:30
Dalhousie,Himachal Pradesh,32.5387,75.971,7.5,86,0.0,795.4,8.5,42.5,59,17.1,14.1,24.7,270.0,19.0,0.8,3,10,7,0,2026-05-02T05:24:49.990866+05:30
Patiala,Punjab,30.3398,76.3869,22.8,72,0.0,973.2,7.5,35.6,432,666.8,101.5,8.1,475.0,89.0,12.0,3,5,7,1,2026-05-02T05:24:49.990874+05:30
Bhatinda,Punjab,30.211,74.9455,24.4,47,0.0,977.6,8.15,43.6,173,154.1,67.5,16.5,339.0,50.0,9.2,0,5,7,0,2026-05-02T05:24:49.990881+05:30
Rohtak,Haryana,28.8955,76.6066,24.1,61,0.0,976.3,7.65,28.1,505,588.6,108.0,14.4,577.0,98.0,21.2,3,5,7,1,2026-05-02T05:24:49.990888+05:30
Panipat,Haryana,29.3909,76.9635,22.4,72,0.0,975.4,7.45,29.2,813,659.4,105.7,14.0,411.0,86.0,17.7,3,5,7,1,2026-05-02T05:24:49.990896+05:30
Mathura,Uttar Pradesh,27.4924,77.6737,24.9,65,0.0,981.6,7.9,29.2,687,858.7,119.7,6.4,355.0,100.0,10.2,3,5,7,1,2026-05-02T05:24:49.990903+05:30
Vrindavan,Uttar Pradesh,27.5823,77.7027,24.9,64,0.0,982.0,7.85,28.8,687,858.7,119.7,6.4,350.0,100.0,10.2,3,5,7,1,2026-05-02T05:24:49.990911+05:30
Ayodhya,Uttar Pradesh,26.7922,82.1998,21.6,89,0.0,992.6,8.25,27.4,84,26.1,21.9,11.0,381.0,80.0,6.1,3,5,7,1,2026-05-02T05:24:49.990918+05:30
Ratlam,Madhya Pradesh,23.3315,75.0367,24.5,88,0.0,951.0,8.55,49.7,54,21.2,11.4,5.1,164.0,57.0,10.0,3,5,7,1,2026-05-02T05:24:49.990926+05:30
Sagar,Madhya Pradesh,23.8388,78.7378,25.5,33,0.0,945.0,8.7,45.0,64,22.9,15.0,12.1,220.0,55.0,4.3,4,5,7,0,2026-05-02T05:24:49.990933+05:30
Satna,Madhya Pradesh,24.6005,80.8322,23.0,67,0.0,966.2,8.75,60.1,75,47.0,25.1,12.2,333.0,94.0,9.2,3,5,7,1,2026-05-02T05:24:49.990941+05:30
Akola,Maharashtra,20.7002,77.0082,28.4,49,0.0,972.1,8.9,45.0,54,17.8,10.1,5.9,187.0,63.0,13.7,4,5,7,1,2026-05-02T05:24:49.990949+05:30
Amravati,Maharashtra,20.9374,77.7796,28.6,50,0.0,964.2,8.9,41.0,54,18.6,10.8,6.3,186.0,69.0,16.0,4,5,7,1,2026-05-02T05:24:49.990957+05:30
Latur,Maharashtra,18.4088,76.5604,25.8,48,0.0,937.5,9.05,43.6,57,27.1,12.8,7.6,194.0,61.0,3.8,4,5,7,0,2026-05-02T05:24:49.990964+05:30
Nanded,Maharashtra,19.1383,77.3091,28.6,46,0.0,966.0,8.95,36.0,59,20.7,13.1,8.0,188.0,66.0,7.4,4,5,7,0,2026-05-02T05:24:49.990972+05:30
Gulbarga,Karnataka,17.3297,76.8343,27.1,48,0.0,956.4,9.1,42.1,54,21.8,11.2,6.7,176.0,59.0,3.9,4,5,7,0,2026-05-02T05:24:49.990979+05:30
Bidar,Karnataka,17.9104,77.5199,26.7,42,0.0,933.1,9.1,30.2,66,26.1,18.7,17.2,187.0,51.0,5.9,4,5,7,0,2026-05-02T05:24:49.990986+05:30
Hospet,Karnataka,15.2689,76.3909,23.9,86,0.0,954.1,9.25,46.8,54,21.5,13.7,7.7,180.0,53.0,2.4,3,5,7,1,2026-05-02T05:24:49.990993+05:30
Tirupur,Tamil Nadu,11.1085,77.3411,26.1,86,0.0,973.5,9.3,61.6,76,27.7,24.6,20.9,204.0,35.0,4.8,7,5,7,1,2026-05-02T05:24:49.991000+05:30
Alappuzha,Kerala,9.4981,76.3388,27.1,89,0.1,1007.4,8.9,38.2,62,32.8,24.7,13.4,332.0,51.0,4.5,10,5,4,1,2026-05-02T05:24:49.991007+05:30
Munnar,Kerala,10.0889,77.0595,17.2,83,0.0,854.9,8.65,27.4,49,18.2,16.2,11.7,264.0,25.0,0.7,3,10,7,0,2026-05-02T05:24:49.991015+05:30
Silchar,Assam,24.8333,92.7789,20.4,96,0.1,1005.1,4.95,26.6,79,16.9,15.0,8.9,233.0,49.0,3.2,6,5,0,1,2026-05-02T05:24:49.991022+05:30
Dibrugarh,Assam,27.4728,94.912,19.9,99,0.2,995.0,8.4,20.9,61,22.6,18.3,17.7,340.0,24.0,1.5,6,10,7,1,2026-05-02T05:24:49.991030+05:30
