city,state,latitude,longitude,temp,humidity,rain,pressure,uv_index,wind_gusts,aqi,pm10,pm2_5,no2,co,o3,so2,mosquito_risk,arthritis_risk,migraine_risk,frizz_risk,updated_at
Delhi,Delhi,28.6139,77.209,32.5,43,0.0,977.8,7.7,25.2,205,159.3,90.3,51.0,848.0,86.0,40.3,0,5,7,1,2026-05-14T23:24:21.858293+05:30
Mumbai,Maharashtra,19.076,72.8777,29.5,79,0.0,1005.2,7.9,45.4,75,23.5,15.4,7.5,286.0,68.0,5.0,7,5,4,1,2026-05-14T23:24:21.858339+05:30
Bangalore,Karnataka,12.9716,77.5946,28.0,45,0.0,909.7,7.95,39.6,90,43.5,30.2,50.9,589.0,37.0,12.5,4,5,7,0,2026-05-14T23:24:21.858355+05:30
Hyderabad,Telangana,17.385,78.4867,31.9,47,0.0,950.0,8.3,22.0,104,47.5,35.5,20.8,444.0,87.0,9.7,0,5,7,1,2026-05-14T23:24:21.858370+05:30
Chennai,Tamil Nadu,13.0827,80.2707,30.0,74,0.0,1003.3,8.4,42.1,28,9.7,6.4,7.2,143.0,40.0,5.6,7,5,4,1,2026-05-14T23:24:21.858383+05:30
Kolkata,West Bengal,22.5726,88.3639,28.0,83,0.0,1002.6,8.95,38.2,53,12.5,10.4,6.9,217.0,31.0,4.2,7,5,4,1,2026-05-14T23:24:21.858393+05:30
Pune,Maharashtra,18.5204,73.8567,27.9,54,0.0,945.3,5.95,45.4,128,27.6,20.5,15.8,239.0,96.0,21.1,4,5,3,1,2026-05-14T23:24:21.858402+05:30
Ahmedabad,Gujarat,23.0225,72.5714,34.7,37,0.0,997.2,8.15,41.4,56,15.3,11.1,5.3,194.0,81.0,3.1,0,5,7,1,2026-05-14T23:24:21.858412+05:30
Jaipur,Rajasthan,26.9124,75.7873,32.5,28,0.0,955.2,8.25,34.2,125,130.9,58.2,50.5,372.0,38.0,19.0,0,5,7,0,2026-05-14T23:24:21.858421+05:30
Lucknow,Uttar Pradesh,26.8467,80.9462,29.5,64,0.0,988.1,8.15,24.8,156,156.9,96.9,45.9,762.0,58.0,24.5,7,5,7,1,2026-05-14T23:24:21.858430+05:30
Kanpur,Uttar Pradesh,26.4499,80.3319,31.9,49,0.0,986.3,8.2,28.4,159,207.7,82.9,24.4,584.0,74.0,15.5,0,5,7,1,2026-05-14T23:24:21.858437+05:30
Chandigarh,Chandigarh,30.7333,76.7794,26.0,47,0.0,963.4,7.65,29.2,115,45.1,35.6,22.9,624.0,92.0,14.3,4,5,7,0,2026-05-14T23:24:21.858445+05:30
Srinagar,Jammu and Kashmir,34.0837,74.7973,13.8,84,0.0,840.5,8.7,39.2,68,29.5,25.8,35.3,1092.0,37.0,1.9,3,10,7,0,2026-05-14T23:24:21.858454+05:30
Jammu,Jammu and Kashmir,32.7266,74.857,22.0,68,0.0,967.6,8.4,34.2,74,54.1,43.9,39.2,639.0,40.0,5.7,3,5,7,0,2026-05-14T23:24:21.858462+05:30
Amritsar,Punjab,31.634,74.8723,27.0,48,0.0,975.3,8.3,27.7,114,53.9,38.1,19.3,565.0,92.0,9.3,4,5,7,0,2026-05-14T23:24:21.858470+05:30
Ludhiana,Punjab,30.901,75.8573,28.0,52,0.0,973.1,7.9,27.7,148,48.1,43.5,18.5,700.0,76.0,7.6,4,5,7,1,2026-05-14T23:24:21.858477+05:30
Jalandhar,Punjab,31.326,75.5762,26.0,57,0.0,974.3,8.1,25.9,118,70.5,46.2,17.2,749.0,85.0,6.8,4,5,7,1,2026-05-14T23:24:21.858485+05:30
Dehradun,Uttarakhand,30.6284,78.0322,12.6,88,0.0,824.1,8.1,40.0,117,44.4,31.7,34.9,327.0,82.0,5.8,3,10,7,0,2026-05-14T23:24:21.858494+05:30
Shimla,Himachal Pradesh,31.1048,77.1734,13.0,56,0.0,780.5,8.15,50.8,101,36.7,23.1,21.0,332.0,104.0,6.8,0,5,7,0,2026-05-14T23:24:21.858502+05:30
Manali,Himachal Pradesh,32.2396,77.1887,9.5,65,0.0,812.2,9.95,43.6,66,13.6,9.4,58.1,276.0,58.0,0.2,3,5,7,0,2026-05-14T23:24:21.858510+05:30
Gurgaon,Haryana,28.4595,77.0266,30.6,43,0.0,976.3,7.8,36.0,735,765.5,179.3,39.9,1225.0,116.0,43.1,0,5,7,1,2026-05-14T23:24:21.858517+05:30
Noida,Uttar Pradesh,28.5355,77.391,28.4,61,0.0,979.0,7.7,27.7,735,765.5,179.3,39.9,1489.0,116.0,43.1,7,5,7,1,2026-05-14T23:24:21.858525+05:30
Ghaziabad,Uttar Pradesh,28.6692,77.4538,27.7,63,0.0,977.1,7.7,27.7,182,129.5,92.2,32.4,843.0,85.0,25.2,7,5,7,1,2026-05-14T23:24:21.858532+05:30
Faridabad,Haryana,28.4089,77.3178,30.5,49,0.0,978.4,7.75,36.0,735,765.5,179.3,39.9,1177.0,116.0,43.1,0,5,7,1,2026-05-14T23:24:21.858540+05:30
Meerut,Uttar Pradesh,28.9845,77.7064,29.8,51,0.0,976.0,7.6,21.6,182,129.5,92.2,32.4,891.0,85.0,25.2,4,5,7,1,2026-05-14T23:24:21.858548+05:30
Agra,Uttar Pradesh,27.1767,78.0081,30.8,44,0.0,982.1,7.8,32.0,329,929.5,170.0,16.1,586.0,98.0,17.4,0,5,7,1,2026-05-14T23:24:21.858555+05:30
Varanasi,Uttar Pradesh,25.3176,82.9739,30.4,58,0.0,992.5,8.7,27.7,132,107.6,76.6,32.6,686.0,81.0,20.6,0,5,7,1,2026-05-14T23:24:21.858564+05:30
Prayagraj,Uttar Pradesh,25.4358,81.8463,31.8,51,0.0,990.6,8.6,27.7,147,91.7,62.9,27.3,563.0,76.0,16.7,0,5,7,1,2026-05-14T23:24:21.858573+05:30
Gorakhpur,Uttar Pradesh,26.7606,83.3732,26.8,74,0.0,992.7,8.6,34.6,118,75.4,61.7,25.1,537.0,75.0,13.5,7,5,7,1,2026-05-14T23:24:21.858581+05:30
Bareilly,Uttar Pradesh,28.367,79.4304,27.0,71,0.0,981.2,8.0,34.9,155,117.8,79.6,31.9,658.0,79.0,18.9,7,5,7,1,2026-05-14T23:24:21.858588+05:30
Aligarh,Uttar Pradesh,27.8974,78.088,28.6,60,0.0,979.9,7.85,48.6,342,389.3,110.1,16.2,764.0,108.0,20.7,4,5,7,1,2026-05-14T23:24:21.858596+05:30
Moradabad,Uttar Pradesh,28.8386,78.7733,27.5,74,0.0,977.9,7.8,53.3,163,162.5,132.7,63.3,1176.0,61.0,33.0,7,5,7,1,2026-05-14T23:24:21.858603+05:30
Saharanpur,Uttar Pradesh,29.9637,77.546,26.8,45,0.0,970.0,7.35,28.4,149,119.2,98.3,54.1,808.0,50.0,23.0,4,5,7,0,2026-05-14T23:24:21.858610+05:30
Jhansi,Uttar Pradesh,25.4484,78.5685,32.0,38,0.0,972.3,8.5,28.8,112,90.8,37.3,8.1,410.0,74.0,7.0,0,5,7,0,2026-05-14T23:24:25.187452+05:30
Surat,Gujarat,21.1702,72.8311,30.2,78,0.0,1001.8,7.8,43.2,86,29.2,24.3,37.0,381.0,35.0,49.4,3,5,4,1,2026-05-14T23:24:25.187487+05:30
Vadodara,Gujarat,22.3072,73.1812,32.2,59,0.0,999.4,8.15,39.6,70,24.9,16.7,14.4,294.0,70.0,10.2,0,5,7,1,2026-05-14T23:24:25.187499+05:30
Rajkot,Gujarat,22.3039,70.8022,28.1,82,0.0,991.0,7.8,59.8,50,13.8,10.1,7.2,148.0,52.0,6.9,7,5,7,1,2026-05-14T23:24:25.187510+05:30
Thane,Maharashtra,19.2183,72.9781,29.8,74,0.0,1004.7,7.95,40.3,75,23.5,15.4,7.5,263.0,68.0,5.0,7,5,4,1,2026-05-14T23:24:25.187520+05:30
Nagpur,Maharashtra,21.1458,79.0882,35.5,30,0.0,967.9,8.95,34.9,115,70.8,54.0,45.2,337.0,63.0,27.3,0,5,10,0,2026-05-14T23:24:25.187530+05:30
Nashik,Maharashtra,19.9975,73.7898,27.0,61,0.0,942.7,8.25,41.0,78,17.5,12.2,6.1,226.0,76.0,2.7,7,5,7,1,2026-05-14T23:24:25.187539+05:30
Aurangabad,Maharashtra,19.8762,75.3433,33.7,26,0.0,940.4,9.1,38.5,78,39.8,22.8,7.1,203.0,114.0,8.1,0,5,7,0,2026-05-14T23:24:25.187548+05:30
Solapur,Maharashtra,17.6599,75.9064,29.5,61,0.0,953.5,8.75,32.0,111,62.2,45.8,15.8,333.0,92.0,6.9,7,5,7,1,2026-05-14T23:24:25.187558+05:30
Kolhapur,Maharashtra,16.705,74.2433,25.3,90,0.0,945.2,8.95,38.9,84,25.5,18.9,8.3,236.0,77.0,5.0,7,5,7,1,2026-05-14T23:24:25.187565+05:30
Goa,Goa,15.2993,74.124,29.2,82,0.0,995.3,7.4,34.9,84,28.5,20.3,4.8,273.0,64.0,1.8,7,5,7,1,2026-05-14T23:24:25.187572+05:30
Jodhpur,Rajasthan,26.2389,73.0243,34.7,27,0.0,976.6,8.4,36.7,113,187.2,47.1,16.8,447.0,60.0,5.7,0,5,7,0,2026-05-14T23:24:25.187579+05:30
Udaipur,Rajasthan,24.5854,73.7125,32.2,24,0.0,942.3,8.85,40.0,76,36.1,13.9,3.6,180.0,72.0,2.3,0,5,7,0,2026-05-14T23:24:25.187586+05:30
Kota,Rajasthan,25.2138,75.8648,34.7,26,0.0,972.9,8.4,32.0,85,66.4,42.5,26.1,508.0,67.0,9.9,0,5,7,0,2026-05-14T23:24:25.187593+05:30
Bikaner,Rajasthan,28.0229,73.3119,33.8,24,0.0,976.6,8.35,32.8,86,98.7,38.8,3.8,272.0,79.0,3.0,0,5,7,0,2026-05-14T23:24:25.187601+05:30
Ajmer,Rajasthan,26.4499,74.6399,32.0,31,0.0,950.1,8.4,32.4,84,89.4,38.9,18.9,263.0,53.0,5.9,0,5,7,0,2026-05-14T23:24:25.187608+05:30
Gwalior,Madhya Pradesh,26.2183,78.1828,32.7,36,0.0,977.6,8.25,33.1,140,116.6,45.4,12.0,454.0,66.0,7.7,0,5,7,0,2026-05-14T23:24:25.187614+05:30
Indore,Madhya Pradesh,22.7196,75.8577,33.0,29,0.0,943.8,8.75,41.8,82,42.8,25.3,5.8,310.0,94.0,5.7,0,5,7,0,2026-05-14T23:24:25.187621+05:30
Bhopal,Madhya Pradesh,23.2599,77.4126,34.8,23,0.0,948.7,8.75,36.4,78,64.0,41.7,14.6,604.0,65.0,7.1,0,5,7,0,2026-05-14T23:24:25.187629+05:30
Jabalpur,Madhya Pradesh,23.1815,79.9864,32.4,31,0.0,956.6,8.9,40.3,95,65.2,40.0,28.2,277.0,63.0,8.9,0,5,7,0,2026-05-14T23:24:25.187636+05:30
Ujjain,Madhya Pradesh,23.1765,75.7885,33.4,28,0.0,949.1,8.65,41.4,78,46.3,26.8,4.2,269.0,91.0,5.1,0,5,7,0,2026-05-14T23:24:25.187643+05:30
Visakhapatnam,Andhra Pradesh,17.6868,83.2185,29.1,80,0.0,1001.2,8.8,45.4,69,16.8,13.6,24.5,439.0,28.0,50.1,7,5,4,1,2026-05-14T23:24:25.187651+05:30
Vijayawada,Andhra Pradesh,16.5062,80.648,29.6,79,0.0,999.2,8.2,27.7,54,13.0,9.8,7.4,183.0,36.0,6.7,7,5,7,1,2026-05-14T23:24:25.187658+05:30
Guntur,Andhra Pradesh,16.3067,80.4365,29.6,77,0.0,1000.3,8.15,32.0,54,14.2,10.4,7.5,178.0,37.0,6.4,7,5,4,1,2026-05-14T23:24:25.187665+05:30
Nellore,Andhra Pradesh,14.4426,79.9865,28.8,81,0.0,1002.4,9.0,37.1,32,12.1,7.4,4.0,175.0,38.0,2.5,7,5,4,1,2026-05-14T23:24:25.187673+05:30
Kurnool,Andhra Pradesh,15.8281,78.0373,34.2,38,0.0,973.0,9.0,34.9,81,44.1,28.1,7.9,240.0,90.0,5.1,0,5,7,1,2026-05-14T23:24:25.187681+05:30
Kakinada,Andhra Pradesh,16.9891,82.2475,29.5,81,0.0,1004.4,6.7,43.9,30,8.9,5.4,1.4,142.0,53.0,0.9,7,5,4,1,2026-05-14T23:24:25.187688+05:30
Tirupati,Andhra Pradesh,13.6288,79.4192,27.9,77,0.0,988.1,9.1,37.4,58,21.9,16.4,21.1,325.0,18.0,3.3,7,5,7,1,2026-05-14T23:24:25.187694+05:30
Warangal,Telangana,17.9689,79.5941,30.1,60,0.0,975.1,8.3,30.2,95,36.2,30.3,10.2,379.0,107.0,12.4,0,5,7,1,2026-05-14T23:24:25.187701+05:30
Nizamabad,Telangana,18.6725,78.0941,32.8,43,0.0,960.0,9.15,34.2,127,87.8,60.8,22.8,365.0,70.0,7.4,0,5,7,1,2026-05-14T23:24:25.187708+05:30
Mysore,Karnataka,12.2958,76.6396,24.4,88,0.0,926.4,9.25,35.3,88,48.4,31.8,26.9,342.0,69.0,5.8,3,5,7,1,2026-05-14T23:24:25.187715+05:30
Mangalore,Karnataka,12.9141,74.856,24.5,99,0.1,1004.8,8.95,42.1,78,40.2,26.1,11.5,313.0,62.0,3.6,6,5,4,1,2026-05-14T23:24:25.187722+05:30
Hubli-Dharwad,Karnataka,15.3647,75.124,23.8,92,0.0,938.5,8.65,37.4,80,25.3,17.6,11.3,280.0,67.0,2.7,3,5,7,1,2026-05-14T23:24:25.187730+05:30
Belgaum,Karnataka,15.8497,74.4977,24.4,89,0.0,923.5,9.0,35.6,85,27.1,19.8,12.1,243.0,56.0,3.0,3,5,7,1,2026-05-14T23:24:28.511346+05:30
Coimbatore,Tamil Nadu,11.0168,76.9558,24.4,91,0.0,958.8,9.1,40.0,74,15.0,11.1,9.6,272.0,74.0,3.5,3,5,7,1,2026-05-14T23:24:28.511378+05:30
Madurai,Tamil Nadu,9.9252,78.1198,26.6,91,0.0,990.4,7.35,24.8,95,32.8,26.9,22.9,929.0,73.0,7.6,7,5,7,1,2026-05-14T23:24:28.511389+05:30
Trichy,Tamil Nadu,10.7905,78.7047,27.5,84,0.0,997.1,7.7,25.6,89,30.0,27.6,19.7,353.0,69.0,6.2,7,5,7,1,2026-05-14T23:24:28.511397+05:30
Salem,Tamil Nadu,11.6643,78.146,27.8,77,0.0,974.8,9.1,35.3,113,62.2,48.0,34.7,445.0,64.0,13.4,7,5,7,1,2026-05-14T23:24:28.511406+05:30
Tirunelveli,Tamil Nadu,8.7139,77.7567,29.2,75,0.0,1000.4,3.45,17.3,56,10.9,9.3,8.2,251.0,64.0,2.9,7,5,0,1,2026-05-14T23:24:28.511414+05:30
Vellore,Tamil Nadu,12.9165,79.1325,27.6,81,0.0,981.5,8.15,36.4,76,34.3,28.9,25.1,310.0,32.0,11.1,7,5,7,1,2026-05-14T23:24:28.511422+05:30
Erode,Tamil Nadu,11.341,77.7172,27.9,76,0.0,986.3,9.1,28.1,86,41.1,30.6,28.0,268.0,66.0,5.1,7,5,7,1,2026-05-14T23:24:28.511430+05:30
Kochi,Kerala,9.9312,76.2673,25.8,93,0.0,1007.3,8.3,41.8,75,20.7,17.6,21.4,370.0,40.0,7.2,7,5,4,1,2026-05-14T23:24:28.511437+05:30
Thiruvananthapuram,Kerala,8.5241,76.9366,24.8,96,0.0,1006.7,7.5,42.1,55,26.2,14.2,2.0,332.0,89.0,1.0,3,5,4,1,2026-05-14T23:24:28.511445+05:30
Kozhikode,Kerala,11.2588,75.7804,24.7,98,0.0,1006.5,8.25,40.3,74,27.1,12.9,2.2,241.0,93.0,1.6,3,5,4,1,2026-05-14T23:24:28.511452+05:30
Thrissur,Kerala,10.5276,76.2144,23.7,99,0.0,1005.8,8.9,37.8,79,22.2,19.0,16.3,405.0,48.0,5.7,3,5,4,1,2026-05-14T23:24:28.511460+05:30
Kannur,Kerala,11.8745,75.3704,25.8,93,0.0,1005.4,8.95,41.8,90,24.7,15.7,10.4,305.0,75.0,3.0,7,5,4,1,2026-05-14T23:24:28.511466+05:30
Patna,Bihar,25.5941,85.1376,27.3,78,0.0,996.0,8.8,30.2,145,66.4,52.3,19.9,594.0,98.0,19.4,7,5,7,1,2026-05-14T23:24:28.511474+05:30
Gaya,Bihar,24.7914,85.0002,28.0,65,0.0,989.0,8.85,21.2,165,64.5,55.6,13.6,506.0,123.0,20.0,7,5,7,1,2026-05-14T23:24:28.511481+05:30
Muzaffarpur,Bihar,26.1209,85.3647,26.4,80,0.0,996.1,8.85,34.2,109,82.0,64.7,28.6,590.0,79.0,19.5,7,5,7,1,2026-05-14T23:24:28.511487+05:30
Bhagalpur,Bihar,25.2425,87.0117,26.4,82,0.0,997.2,8.75,26.6,130,45.3,36.4,15.3,432.0,100.0,17.3,7,5,7,1,2026-05-14T23:24:28.511494+05:30
Ranchi,Jharkhand,23.3441,85.3096,25.9,69,0.0,933.4,9.3,33.8,89,86.8,56.3,43.0,313.0,57.0,14.2,7,5,7,1,2026-05-14T23:24:28.511501+05:30
Jamshedpur,Jharkhand,22.8046,86.2029,28.4,77,0.0,986.8,9.1,31.0,104,18.9,15.8,14.7,337.0,53.0,20.9,7,5,7,1,2026-05-14T23:24:28.511507+05:30
Dhanbad,Jharkhand,23.7957,86.4304,27.4,83,0.0,975.5,9.05,32.0,152,34.0,30.7,35.1,244.0,61.0,80.5,7,5,7,1,2026-05-14T23:24:28.511515+05:30
Bokaro,Jharkhand,23.6693,86.1511,27.6,79,0.0,979.0,9.1,23.4,149,82.7,66.4,46.4,1158.0,59.0,91.9,7,5,7,1,2026-05-14T23:24:28.511522+05:30
Bhubaneswar,Odisha,20.2961,85.8245,28.1,83,0.0,999.9,9.15,44.3,36,8.4,6.6,5.0,157.0,40.0,2.3,7,5,7,1,2026-05-14T23:24:28.511529+05:30
Cuttack,Odisha,20.4625,85.8828,28.2,83,0.0,1001.7,9.2,47.5,36,8.4,6.6,5.0,175.0,40.0,2.3,7,5,4,1,2026-05-14T23:24:28.511537+05:30
Rourkela,Odisha,22.2604,84.8536,28.2,77,0.0,980.7,9.05,55.1,118,62.2,41.9,13.6,283.0,110.0,22.2,7,5,7,1,2026-05-14T23:24:28.511544+05:30
Raipur,Chhattisgarh,21.2514,81.6296,32.8,42,0.0,969.1,9.1,39.2,139,121.1,84.5,56.5,520.0,41.0,46.5,0,5,7,1,2026-05-14T23:24:28.511551+05:30
Bhilai,Chhattisgarh,21.1938,81.3509,32.8,43,0.0,969.6,9.1,37.8,128,97.3,68.0,52.7,636.0,43.0,49.9,0,5,7,1,2026-05-14T23:24:28.511557+05:30
Guwahati,Assam,26.1158,91.7086,22.2,99,0.0,999.4,8.7,29.9,58,17.2,13.9,9.2,377.0,69.0,2.4,3,5,7,1,2026-05-14T23:24:28.511563+05:30
Agartala,Tripura,23.8315,91.2868,25.3,97,0.0,1003.6,8.8,27.7,58,14.1,13.0,14.2,194.0,21.0,2.2,7,5,4,1,2026-05-14T23:24:28.511570+05:30
Shillong,Meghalaya,25.5788,91.8933,17.5,94,0.0,853.9,8.75,29.9,51,10.3,8.1,7.8,291.0,81.0,3.3,3,10,7,1,2026-05-14T23:24:28.511577+05:30
Imphal,Manipur,24.817,93.9368,21.3,92,0.0,920.9,9.25,29.9,85,45.6,39.2,27.8,702.0,39.0,5.5,3,5,7,1,2026-05-14T23:24:28.511584+05:30
Aizawl,Mizoram,23.7271,92.7176,18.7,92,0.0,890.5,8.5,29.2,47,6.8,5.3,5.7,163.0,52.0,1.9,3,10,7,1,2026-05-14T23:24:28.511591+05:30
Kohima,Nagaland,25.6701,94.1077,16.8,93,0.0,851.8,8.65,29.9,59,24.0,19.4,18.2,361.0,39.0,2.3,3,10,7,0,2026-05-14T23:24:28.511598+05:30
Gangtok,Sikkim,27.3314,88.6138,13.5,94,0.1,833.6,9.0,38.5,52,19.6,17.8,15.2,398.0,91.0,3.0,6,10,7,0,2026-05-14T23:24:28.511606+05:30
Siliguri,West Bengal,26.7271,88.3953,24.0,87,0.0,990.1,8.65,26.3,88,36.8,32.4,15.2,557.0,99.0,5.1,3,5,7,1,2026-05-14T23:24:31.836801+05:30
Durgapur,West Bengal,23.5204,87.3119,27.4,84,0.0,991.1,9.0,39.2,162,25.5,21.4,19.3,209.0,55.0,28.5,7,5,7,1,2026-05-14T23:24:31.836837+05:30
Asansol,West Bengal,23.6739,86.9524,27.6,83,0.0,989.5,9.05,34.6,161,23.6,19.3,19.8,434.0,64.0,32.3,7,5,7,1,2026-05-14T23:24:31.836850+05:30
Pondicherry,Puducherry,11.9139,79.8145,28.5,87,0.0,1004.8,8.45,36.0,51,11.3,7.8,4.5,517.0,46.0,1.7,7,5,4,1,2026-05-14T23:24:31.836861+05:30
Port Blair,Andaman and Nicobar Islands,11.6234,92.7265,25.6,97,0.1,1005.1,7.95,36.4,27,3.7,2.4,0.3,119.0,55.0,0.1,10,5,4,1,2026-05-14T23:24:31.836871+05:30
Haridwar,Uttarakhand,29.9457,78.1642,24.4,77,0.0,968.4,7.5,41.4,140,92.7,72.2,30.4,514.0,92.0,16.7,3,5,7,1,2026-05-14T23:24:31.836881+05:30
Rishikesh,Uttarakhand,30.0869,78.2676,21.5,83,0.0,960.9,7.6,37.1,151,56.3,42.4,14.4,550.0,126.0,10.7,3,5,7,1,2026-05-14T23:24:31.836889+05:30
Nainital,Uttarakhand,29.3919,79.4542,13.3,95,0.0,800.8,8.45,41.8,142,66.4,50.3,17.4,438.0,120.0,13.6,3,10,7,0,2026-05-14T23:24:31.836897+05:30
Mussoorie,Uttarakhand,30.4599,78.0664,15.1,59,0.0,798.8,7.95,50.0,157,76.4,55.2,34.5,320.0,105.0,16.0,0,5,7,0,2026-05-14T23:24:31.836905+05:30
Dharamshala,Himachal Pradesh,32.219,76.3234,20.4,46,0.0,865.8,8.35,48.6,55,19.5,14.7,17.2,249.0,47.0,0.8,0,5,7,0,2026-05-14T23:24:31.836913+05:30
Dalhousie,Himachal Pradesh,32.5387,75.971,13.9,57,0.0,800.5,8.55,36.4,90,37.8,29.7,46.8,459.0,52.0,3.2,0,5,7,0,2026-05-14T23:24:31.836921+05:30
Patiala,Punjab,30.3398,76.3869,28.3,40,0.0,972.7,7.6,33.8,155,272.9,68.7,15.5,400.0,85.0,10.8,4,5,7,0,2026-05-14T23:24:31.836929+05:30
Bhatinda,Punjab,30.211,74.9455,29.9,40,0.0,978.5,8.25,33.1,168,112.2,60.5,15.6,349.0,80.0,10.1,4,5,7,0,2026-05-14T23:24:31.836936+05:30
Rohtak,Haryana,28.8955,76.6066,28.4,50,0.0,976.5,7.75,26.3,265,281.3,103.8,36.4,621.0,114.0,37.0,4,5,7,1,2026-05-14T23:24:31.836942+05:30
Panipat,Haryana,29.3909,76.9635,27.8,55,0.0,974.8,7.55,21.2,235,292.4,104.8,29.7,493.0,89.0,21.3,4,5,7,1,2026-05-14T23:24:31.836949+05:30
Mathura,Uttar Pradesh,27.4924,77.6737,29.2,50,0.0,981.2,7.8,31.7,337,868.0,170.9,14.8,958.0,112.0,18.5,4,5,7,1,2026-05-14T23:24:31.836956+05:30
Vrindavan,Uttar Pradesh,27.5823,77.7027,29.0,50,0.0,981.6,7.8,34.6,337,868.0,170.9,14.8,965.0,112.0,18.5,4,5,7,1,2026-05-14T23:24:31.836963+05:30
Ayodhya,Uttar Pradesh,26.7922,82.1998,27.2,77,0.0,990.3,8.35,32.0,138,120.1,80.8,46.1,910.0,61.0,18.3,7,5,7,1,2026-05-14T23:24:31.836970+05:30
Ratlam,Madhya Pradesh,23.3315,75.0367,30.4,38,0.0,949.9,8.6,38.2,80,48.4,26.5,4.4,264.0,87.0,5.0,0,5,7,0,2026-05-14T23:24:31.836978+05:30
Sagar,Madhya Pradesh,23.8388,78.7378,32.7,29,0.0,945.3,8.8,37.1,73,47.6,23.9,15.5,270.0,71.0,4.2,0,5,7,0,2026-05-14T23:24:31.836984+05:30
Satna,Madhya Pradesh,24.6005,80.8322,30.8,38,0.0,966.2,8.8,41.4,102,144.8,48.5,17.8,326.0,82.0,6.6,0,5,7,0,2026-05-14T23:24:31.836991+05:30
Akola,Maharashtra,20.7002,77.0082,36.5,25,0.0,969.4,8.95,42.8,104,49.4,31.9,10.7,284.0,86.0,6.8,0,5,10,0,2026-05-14T23:24:31.837000+05:30
Amravati,Maharashtra,20.9374,77.7796,35.8,25,0.0,961.9,9.0,45.0,104,51.7,35.9,21.2,314.0,65.0,7.1,0,5,10,0,2026-05-14T23:24:31.837008+05:30
Latur,Maharashtra,18.4088,76.5604,31.3,45,0.0,936.6,8.5,34.6,108,77.5,42.7,18.6,349.0,84.0,9.2,0,5,7,1,2026-05-14T23:24:31.837015+05:30
Nanded,Maharashtra,19.1383,77.3091,33.7,40,0.0,963.6,9.1,29.9,114,103.4,65.0,42.3,400.0,48.0,10.8,0,5,7,1,2026-05-14T23:24:31.837022+05:30
Gulbarga,Karnataka,17.3297,76.8343,30.6,57,0.0,954.9,8.55,31.0,128,81.7,52.7,31.2,364.0,71.0,8.0,0,5,7,1,2026-05-14T23:24:31.837029+05:30
Bidar,Karnataka,17.9104,77.5199,29.3,54,0.0,932.3,9.0,26.3,128,82.7,57.0,23.2,384.0,75.0,5.8,4,5,7,1,2026-05-14T23:24:31.837036+05:30
Hospet,Karnataka,15.2689,76.3909,26.2,79,0.0,953.3,9.05,38.9,96,37.7,29.5,17.2,326.0,94.0,5.0,7,5,7,1,2026-05-14T23:24:31.837043+05:30
Tirupur,Tamil Nadu,11.1085,77.3411,25.5,84,0.0,972.1,9.15,45.7,85,31.4,23.0,23.9,250.0,63.0,5.8,7,5,7,1,2026-05-14T23:24:31.837070+05:30
Alappuzha,Kerala,9.4981,76.3388,25.6,98,0.0,1007.4,7.6,36.7,66,26.4,18.5,13.5,202.0,70.0,4.4,7,5,4,1,2026-05-14T23:24:31.837079+05:30
Munnar,Kerala,10.0889,77.0595,17.8,99,0.0,854.9,9.2,26.3,63,11.1,10.2,8.8,177.0,60.0,2.1,3,10,7,1,2026-05-14T23:24:31.837086+05:30
Silchar,Assam,24.8333,92.7789,24.0,96,0.2,1003.0,8.9,38.9,95,34.6,25.8,12.8,271.0,71.0,6.5,6,5,4,1,2026-05-14T23:24:31.837093+05:30
Dibrugarh,Assam,27.4728,94.912,24.8,84,0.0,992.2,7.75,24.5,81,45.8,43.1,39.3,439.0,14.0,4.1,3,5,7,1,2026-05-14T23:24:31.837100+05:30
