city,state,latitude,longitude,temp,humidity,rain,pressure,uv_index,wind_gusts,aqi,pm10,pm2_5,no2,co,o3,so2,mosquito_risk,arthritis_risk,migraine_risk,frizz_risk,updated_at
Delhi,Delhi,28.6139,77.209,28.1,64,0.0,980.3,7.8,38.2,469,318.5,93.6,35.2,1933.0,80.0,22.0,7,5,7,1,2026-06-16T21:27:18.326291+05:30
Mumbai,Maharashtra,19.076,72.8777,30.4,69,0.0,1008.6,7.7,44.6,60,34.9,15.5,6.9,165.0,46.0,4.5,3,0,4,1,2026-06-16T21:27:18.326339+05:30
Bangalore,Karnataka,12.9716,77.5946,25.9,62,0.0,912.2,8.05,37.4,72,67.3,48.9,79.3,2281.0,3.0,18.1,7,5,7,1,2026-06-16T21:27:18.326354+05:30
Hyderabad,Telangana,17.385,78.4867,31.8,47,0.0,952.3,9.05,39.2,104,73.3,50.3,58.4,558.0,31.0,15.2,0,5,7,1,2026-06-16T21:27:18.326363+05:30
Chennai,Tamil Nadu,13.0827,80.2707,31.4,69,0.0,1005.8,8.85,30.6,149,41.4,29.5,9.0,337.0,136.0,7.5,3,5,4,1,2026-06-16T21:27:18.326371+05:30
Kolkata,West Bengal,22.5726,88.3639,29.8,81,0.0,1004.1,8.95,32.8,113,53.3,44.4,14.9,399.0,66.0,9.6,7,5,4,1,2026-06-16T21:27:18.326380+05:30
Pune,Maharashtra,18.5204,73.8567,26.3,72,0.0,948.5,8.3,47.9,52,21.0,12.3,7.1,145.0,53.0,6.4,7,5,7,1,2026-06-16T21:27:18.326386+05:30
Ahmedabad,Gujarat,23.0225,72.5714,32.6,61,0.0,999.5,8.05,37.8,63,43.4,22.2,12.1,184.0,60.0,5.2,3,5,7,1,2026-06-16T21:27:18.326392+05:30
Jaipur,Rajasthan,26.9124,75.7873,30.8,56,0.0,956.8,8.2,24.5,115,118.3,47.5,27.2,546.0,47.0,9.5,0,5,7,1,2026-06-16T21:27:18.326403+05:30
Lucknow,Uttar Pradesh,26.8467,80.9462,32.7,52,0.0,990.7,8.35,37.1,161,237.0,89.2,32.0,480.0,64.0,16.4,0,5,7,1,2026-06-16T21:27:18.326409+05:30
Kanpur,Uttar Pradesh,26.4499,80.3319,34.8,36,0.0,989.0,8.3,38.5,183,358.6,97.1,34.5,327.0,58.0,13.5,0,5,7,1,2026-06-16T21:27:18.326415+05:30
Chandigarh,Chandigarh,30.7333,76.7794,27.7,62,0.0,966.0,7.8,21.2,142,85.7,58.7,43.3,857.0,90.0,13.5,7,5,7,1,2026-06-16T21:27:18.326421+05:30
Srinagar,Jammu and Kashmir,34.0837,74.7973,21.0,73,0.0,841.7,6.75,25.2,95,43.9,33.5,28.9,660.0,67.0,3.9,3,5,7,0,2026-06-16T21:27:18.326429+05:30
Jammu,Jammu and Kashmir,32.7266,74.857,28.5,58,0.0,970.2,7.8,31.0,140,49.1,39.1,27.1,589.0,88.0,4.6,4,5,7,1,2026-06-16T21:27:18.326435+05:30
Amritsar,Punjab,31.634,74.8723,26.1,77,0.0,978.0,8.0,38.5,130,96.4,71.5,48.2,765.0,61.0,9.3,7,5,7,1,2026-06-16T21:27:18.326441+05:30
Ludhiana,Punjab,30.901,75.8573,28.4,80,0.0,976.1,8.05,31.7,160,98.7,60.8,29.2,622.0,84.0,8.6,7,5,7,1,2026-06-16T21:27:18.326447+05:30
Jalandhar,Punjab,31.326,75.5762,27.0,86,0.0,977.1,8.1,33.8,142,74.5,54.0,32.2,756.0,86.0,6.5,7,5,7,1,2026-06-16T21:27:18.326453+05:30
Dehradun,Uttarakhand,30.6284,78.0322,16.3,99,0.0,828.5,7.7,29.5,97,28.1,17.3,24.3,232.0,91.0,2.5,3,10,7,1,2026-06-16T21:27:18.326460+05:30
Shimla,Himachal Pradesh,31.1048,77.1734,12.7,95,0.0,781.8,7.7,36.7,118,33.3,29.4,21.0,419.0,87.0,1.3,3,10,7,0,2026-06-16T21:27:18.326468+05:30
Manali,Himachal Pradesh,32.2396,77.1887,16.4,85,0.0,817.7,9.55,34.6,117,20.9,16.8,66.8,200.0,80.0,0.4,3,10,7,0,2026-06-16T21:27:18.326475+05:30
Gurgaon,Haryana,28.4595,77.0266,28.3,68,0.0,978.7,7.85,50.4,618,293.4,92.9,64.6,1933.0,27.0,17.1,7,5,7,1,2026-06-16T21:27:18.326481+05:30
Noida,Uttar Pradesh,28.5355,77.391,28.1,62,0.0,981.7,7.85,33.1,618,293.4,92.9,64.6,1367.0,27.0,17.1,7,5,7,1,2026-06-16T21:27:18.326489+05:30
Ghaziabad,Uttar Pradesh,28.6692,77.4538,27.5,70,0.0,979.9,7.8,30.6,413,301.7,116.6,49.1,472.0,83.0,26.1,7,5,7,1,2026-06-16T21:27:18.326496+05:30
Faridabad,Haryana,28.4089,77.3178,28.6,63,0.0,981.1,7.85,42.1,618,293.4,92.9,64.6,927.0,27.0,17.1,7,5,7,1,2026-06-16T21:27:18.326502+05:30
Meerut,Uttar Pradesh,28.9845,77.7064,27.3,73,0.0,978.8,7.7,35.6,413,301.7,116.6,49.1,536.0,83.0,26.1,7,5,7,1,2026-06-16T21:27:18.326508+05:30
Agra,Uttar Pradesh,27.1767,78.0081,32.3,43,0.0,985.2,8.15,39.6,715,158.3,63.8,54.7,348.0,31.0,15.4,0,5,7,1,2026-06-16T21:27:18.326514+05:30
Varanasi,Uttar Pradesh,25.3176,82.9739,35.1,41,0.0,994.5,8.8,39.6,152,130.4,69.2,27.2,390.0,78.0,15.6,0,5,10,1,2026-06-16T21:27:18.326520+05:30
Prayagraj,Uttar Pradesh,25.4358,81.8463,35.6,40,0.0,993.1,8.7,40.7,154,144.4,70.5,29.1,377.0,60.0,15.7,0,5,10,1,2026-06-16T21:27:18.326526+05:30
Gorakhpur,Uttar Pradesh,26.7606,83.3732,31.0,68,0.0,994.0,8.7,25.6,158,97.8,57.5,21.8,552.0,78.0,11.8,3,5,7,1,2026-06-16T21:27:18.326533+05:30
Bareilly,Uttar Pradesh,28.367,79.4304,28.8,67,0.0,984.1,8.15,36.0,158,171.4,79.6,23.7,432.0,88.0,13.5,7,5,7,1,2026-06-16T21:27:18.326538+05:30
Aligarh,Uttar Pradesh,27.8974,78.088,28.7,64,0.0,982.9,8.0,38.5,464,366.0,90.3,44.0,476.0,48.0,12.3,7,5,7,1,2026-06-16T21:27:18.326544+05:30
Moradabad,Uttar Pradesh,28.8386,78.7733,27.6,71,0.0,981.0,7.95,38.2,174,192.3,97.6,38.0,529.0,68.0,15.3,7,5,7,1,2026-06-16T21:27:18.326550+05:30
Saharanpur,Uttar Pradesh,29.9637,77.546,28.5,67,0.0,972.9,7.55,29.9,164,158.3,79.4,32.5,392.0,95.0,22.1,7,5,7,1,2026-06-16T21:27:18.326556+05:30
Jhansi,Uttar Pradesh,25.4484,78.5685,32.4,47,0.0,975.8,8.45,28.8,82,32.1,19.8,8.3,324.0,63.0,3.9,0,5,7,1,2026-06-16T21:27:21.678665+05:30
Surat,Gujarat,21.1702,72.8311,30.2,74,0.0,1005.6,7.55,51.8,67,34.9,18.9,18.2,245.0,32.0,31.3,3,5,4,1,2026-06-16T21:27:21.678697+05:30
Vadodara,Gujarat,22.3072,73.1812,30.8,69,0.0,1002.4,8.0,48.2,66,32.0,18.4,14.2,151.0,46.0,19.0,3,5,4,1,2026-06-16T21:27:21.678707+05:30
Rajkot,Gujarat,22.3039,70.8022,30.9,65,0.0,992.2,7.55,45.7,58,40.0,18.1,3.8,111.0,53.0,3.7,3,5,7,1,2026-06-16T21:27:21.678716+05:30
Thane,Maharashtra,19.2183,72.9781,30.3,68,0.0,1008.0,7.7,40.0,60,34.9,15.5,6.9,165.0,46.0,4.5,3,0,4,1,2026-06-16T21:27:21.678725+05:30
Nagpur,Maharashtra,21.1458,79.0882,30.9,58,0.0,971.9,8.65,60.8,102,42.6,28.9,11.7,232.0,75.0,10.8,0,5,7,1,2026-06-16T21:27:21.678733+05:30
Nashik,Maharashtra,19.9975,73.7898,26.4,73,0.0,945.8,8.05,47.9,51,29.2,13.1,2.8,123.0,53.0,1.2,7,5,7,1,2026-06-16T21:27:21.678741+05:30
Aurangabad,Maharashtra,19.8762,75.3433,31.0,43,0.0,943.9,8.95,42.5,56,29.7,16.0,4.8,131.0,77.0,3.4,0,5,7,1,2026-06-16T21:27:21.678748+05:30
Solapur,Maharashtra,17.6599,75.9064,33.0,26,0.0,956.3,8.9,43.2,60,57.0,30.3,19.4,211.0,67.0,5.1,0,5,7,0,2026-06-16T21:27:21.678756+05:30
Kolhapur,Maharashtra,16.705,74.2433,25.5,78,0.0,948.6,8.75,49.7,52,24.9,13.8,4.8,154.0,56.0,2.3,7,5,7,1,2026-06-16T21:27:21.678763+05:30
Goa,Goa,15.2993,74.124,27.7,84,0.0,998.6,8.4,30.6,55,30.3,14.1,2.6,214.0,48.0,1.5,7,5,7,1,2026-06-16T21:27:21.678800+05:30
Jodhpur,Rajasthan,26.2389,73.0243,34.4,43,0.0,979.8,8.4,36.4,124,205.8,44.7,5.6,217.0,65.0,1.8,0,5,7,1,2026-06-16T21:27:21.678815+05:30
Udaipur,Rajasthan,24.5854,73.7125,30.0,55,0.0,944.9,8.8,38.2,66,38.3,19.3,4.7,140.0,68.0,2.3,4,5,7,1,2026-06-16T21:27:21.678835+05:30
Kota,Rajasthan,25.2138,75.8648,32.3,52,0.0,975.8,8.35,32.0,82,61.0,33.6,12.0,262.0,66.0,6.0,0,5,7,1,2026-06-16T21:27:21.678844+05:30
Bikaner,Rajasthan,28.0229,73.3119,30.8,64,0.0,978.4,8.45,57.6,143,120.6,37.3,4.2,198.0,68.0,2.1,3,5,7,1,2026-06-16T21:27:21.678853+05:30
Ajmer,Rajasthan,26.4499,74.6399,30.7,47,0.0,951.9,8.35,39.2,78,37.0,20.8,7.2,170.0,71.0,3.3,0,5,7,1,2026-06-16T21:27:21.678860+05:30
Gwalior,Madhya Pradesh,26.2183,78.1828,33.1,45,0.0,980.8,8.3,22.3,153,48.9,24.1,11.7,248.0,55.0,4.3,0,5,7,1,2026-06-16T21:27:21.678868+05:30
Indore,Madhya Pradesh,22.7196,75.8577,31.4,40,0.0,947.1,8.6,40.7,82,56.8,32.0,9.6,753.0,72.0,5.2,0,5,7,0,2026-06-16T21:27:21.678875+05:30
Bhopal,Madhya Pradesh,23.2599,77.4126,27.0,82,0.0,952.6,8.05,39.6,89,66.8,41.9,20.8,744.0,50.0,6.2,7,5,7,1,2026-06-16T21:27:21.678883+05:30
Jabalpur,Madhya Pradesh,23.1815,79.9864,29.6,59,0.0,960.7,8.85,43.9,85,66.8,34.5,7.9,258.0,81.0,3.1,4,5,7,1,2026-06-16T21:27:21.678890+05:30
Ujjain,Madhya Pradesh,23.1765,75.7885,32.0,42,0.0,952.7,8.55,40.0,78,50.3,26.7,3.5,218.0,83.0,4.0,0,5,7,1,2026-06-16T21:27:21.678898+05:30
Visakhapatnam,Andhra Pradesh,17.6868,83.2185,31.2,79,0.0,1001.1,9.0,32.0,156,70.8,52.2,36.2,498.0,81.0,54.2,3,5,4,1,2026-06-16T21:27:21.678906+05:30
Vijayawada,Andhra Pradesh,16.5062,80.648,32.5,59,0.0,999.8,8.7,31.3,157,144.8,103.1,43.1,726.0,56.0,17.1,0,5,7,1,2026-06-16T21:27:21.678913+05:30
Guntur,Andhra Pradesh,16.3067,80.4365,32.7,58,0.0,1001.1,8.25,35.3,159,149.0,103.4,47.4,659.0,56.0,17.0,0,5,4,1,2026-06-16T21:27:21.678920+05:30
Nellore,Andhra Pradesh,14.4426,79.9865,31.9,64,0.0,1003.8,8.0,41.0,92,46.2,34.1,9.0,337.0,115.0,5.1,3,5,4,1,2026-06-16T21:27:21.678929+05:30
Kurnool,Andhra Pradesh,15.8281,78.0373,29.3,60,0.0,975.4,4.25,42.8,80,63.3,37.7,23.3,331.0,69.0,10.1,4,5,3,1,2026-06-16T21:27:21.678937+05:30
Kakinada,Andhra Pradesh,16.9891,82.2475,33.4,57,0.0,1004.5,8.9,35.3,128,65.4,38.5,6.7,715.0,104.0,4.4,0,5,4,1,2026-06-16T21:27:21.678945+05:30
Tirupati,Andhra Pradesh,13.6288,79.4192,29.4,65,0.0,990.2,8.7,32.0,99,66.4,47.7,45.7,567.0,48.0,8.6,7,5,7,1,2026-06-16T21:27:21.678952+05:30
Warangal,Telangana,17.9689,79.5941,30.2,67,0.0,976.7,8.4,41.8,155,93.4,63.8,34.0,472.0,57.0,13.0,3,5,7,1,2026-06-16T21:27:21.678959+05:30
Nizamabad,Telangana,18.6725,78.0941,32.0,43,0.0,963.5,8.95,36.0,93,71.2,38.9,16.6,437.0,61.0,4.8,0,5,7,1,2026-06-16T21:27:21.678966+05:30
Mysore,Karnataka,12.2958,76.6396,24.2,87,0.1,929.0,8.45,27.4,60,33.9,21.7,21.9,593.0,59.0,3.5,6,5,7,1,2026-06-16T21:27:21.678973+05:30
Mangalore,Karnataka,12.9141,74.856,27.8,85,0.0,1007.8,8.55,40.0,57,27.0,14.3,6.4,170.0,42.0,2.4,7,5,4,1,2026-06-16T21:27:21.678980+05:30
Hubli-Dharwad,Karnataka,15.3647,75.124,24.8,85,0.0,941.2,8.9,52.6,43,14.3,9.4,6.0,172.0,52.0,1.9,3,5,7,1,2026-06-16T21:27:21.678988+05:30
Belgaum,Karnataka,15.8497,74.4977,23.5,86,0.0,926.2,8.9,38.9,48,18.1,10.8,7.3,144.0,44.0,1.8,3,5,7,1,2026-06-16T21:27:24.996702+05:30
Coimbatore,Tamil Nadu,11.0168,76.9558,25.7,88,0.0,962.1,8.25,37.8,60,21.0,14.5,11.3,247.0,59.0,3.8,7,5,7,1,2026-06-16T21:27:24.996736+05:30
Madurai,Tamil Nadu,9.9252,78.1198,32.3,55,0.0,993.2,8.45,31.0,77,45.9,28.9,18.4,207.0,77.0,6.2,0,5,7,1,2026-06-16T21:27:24.996748+05:30
Trichy,Tamil Nadu,10.7905,78.7047,31.9,58,0.0,999.2,8.3,41.0,78,36.7,26.0,15.1,207.0,71.0,5.1,0,5,7,1,2026-06-16T21:27:24.996759+05:30
Salem,Tamil Nadu,11.6643,78.146,30.0,57,0.0,976.6,7.85,31.7,80,53.6,28.8,16.6,323.0,83.0,8.0,4,5,7,1,2026-06-16T21:27:24.996770+05:30
Tirunelveli,Tamil Nadu,8.7139,77.7567,31.2,58,0.0,1003.4,8.65,38.2,50,14.6,10.6,6.2,236.0,62.0,2.1,0,5,4,1,2026-06-16T21:27:24.996798+05:30
Vellore,Tamil Nadu,12.9165,79.1325,28.5,69,0.0,984.0,8.15,38.9,109,84.3,61.0,55.0,619.0,31.0,11.0,7,5,7,1,2026-06-16T21:27:24.996807+05:30
Erode,Tamil Nadu,11.341,77.7172,29.6,67,0.0,988.8,7.9,36.7,69,31.9,21.8,21.3,254.0,68.0,4.3,7,5,7,1,2026-06-16T21:27:24.996816+05:30
Kochi,Kerala,9.9312,76.2673,25.2,94,0.2,1010.4,8.5,32.0,58,33.9,22.2,19.6,337.0,26.0,4.9,10,0,4,1,2026-06-16T21:27:24.996825+05:30
Thiruvananthapuram,Kerala,8.5241,76.9366,24.5,98,0.1,1010.3,7.75,42.1,53,21.1,9.9,2.8,171.0,60.0,1.2,6,0,4,1,2026-06-16T21:27:24.996833+05:30
Kozhikode,Kerala,11.2588,75.7804,27.2,90,0.0,1008.7,8.2,48.2,54,33.6,14.6,1.6,150.0,55.0,1.1,7,0,4,1,2026-06-16T21:27:24.996840+05:30
Thrissur,Kerala,10.5276,76.2144,26.5,93,0.0,1008.4,7.4,38.5,62,29.6,19.3,11.7,348.0,36.0,3.3,7,0,4,1,2026-06-16T21:27:24.996849+05:30
Kannur,Kerala,11.8745,75.3704,28.4,82,0.0,1008.0,8.5,44.6,54,23.6,12.5,7.7,187.0,41.0,2.0,7,0,4,1,2026-06-16T21:27:24.996856+05:30
Patna,Bihar,25.5941,85.1376,32.4,65,0.0,997.5,8.85,22.7,161,153.2,93.8,49.9,594.0,67.0,24.6,3,5,7,1,2026-06-16T21:27:24.996864+05:30
Gaya,Bihar,24.7914,85.0002,32.7,57,0.0,991.0,8.9,23.0,153,145.8,88.5,39.4,736.0,49.0,15.9,0,5,7,1,2026-06-16T21:27:24.996871+05:30
Muzaffarpur,Bihar,26.1209,85.3647,31.2,71,0.0,997.5,8.85,26.3,159,129.0,87.8,36.7,806.0,74.0,19.2,3,5,7,1,2026-06-16T21:27:24.996879+05:30
Bhagalpur,Bihar,25.2425,87.0117,31.5,71,0.0,998.6,8.85,26.3,179,95.2,69.4,14.4,492.0,146.0,23.5,3,5,7,1,2026-06-16T21:27:24.996886+05:30
Ranchi,Jharkhand,23.3441,85.3096,27.5,63,0.0,936.3,9.25,25.9,139,123.9,64.7,29.7,680.0,71.0,10.0,7,5,7,1,2026-06-16T21:27:24.996893+05:30
Jamshedpur,Jharkhand,22.8046,86.2029,30.2,73,0.0,988.4,9.05,26.3,171,75.0,56.3,13.6,498.0,119.0,17.8,3,5,7,1,2026-06-16T21:27:24.996901+05:30
Dhanbad,Jharkhand,23.7957,86.4304,30.8,67,0.0,978.1,9.05,30.6,166,127.1,92.9,59.2,517.0,94.0,113.8,3,5,7,1,2026-06-16T21:27:24.996908+05:30
Bokaro,Jharkhand,23.6693,86.1511,30.1,68,0.0,981.5,9.1,29.5,167,141.1,88.0,60.1,602.0,52.0,96.6,3,5,7,1,2026-06-16T21:27:24.996915+05:30
Bhubaneswar,Odisha,20.2961,85.8245,29.6,87,0.0,1000.5,9.0,30.2,101,60.3,50.2,22.3,392.0,71.0,10.1,7,5,4,1,2026-06-16T21:27:24.996923+05:30
Cuttack,Odisha,20.4625,85.8828,30.2,80,0.0,1002.1,9.1,36.4,101,60.3,50.2,22.3,705.0,71.0,10.1,3,5,4,1,2026-06-16T21:27:24.996930+05:30
Rourkela,Odisha,22.2604,84.8536,30.9,73,0.0,982.7,9.0,24.5,150,107.1,70.3,30.6,495.0,103.0,18.4,3,5,7,1,2026-06-16T21:27:24.996937+05:30
Raipur,Chhattisgarh,21.2514,81.6296,31.9,50,0.0,973.7,8.95,32.0,148,75.4,52.2,28.5,304.0,77.0,50.6,0,5,7,1,2026-06-16T21:27:24.996944+05:30
Bhilai,Chhattisgarh,21.1938,81.3509,27.8,78,0.1,973.9,8.95,42.5,145,70.3,49.2,28.1,315.0,69.0,45.1,10,5,7,1,2026-06-16T21:27:24.996951+05:30
Guwahati,Assam,26.1158,91.7086,27.8,93,0.0,999.5,8.35,20.9,84,19.2,18.0,10.9,510.0,52.0,2.3,7,5,7,1,2026-06-16T21:27:24.996959+05:30
Agartala,Tripura,23.8315,91.2868,26.7,91,0.0,1005.5,8.85,25.9,95,34.9,31.4,13.3,221.0,58.0,3.4,7,5,4,1,2026-06-16T21:27:24.996966+05:30
Shillong,Meghalaya,25.5788,91.8933,19.3,98,0.0,856.8,8.1,18.7,73,23.3,20.7,8.7,484.0,80.0,3.1,3,10,7,1,2026-06-16T21:27:24.996973+05:30
Imphal,Manipur,24.817,93.9368,23.4,94,0.1,922.9,8.15,29.9,72,31.2,28.7,19.7,500.0,54.0,4.8,6,5,7,1,2026-06-16T21:27:24.996980+05:30
Aizawl,Mizoram,23.7271,92.7176,19.9,98,0.0,892.3,7.45,22.3,51,6.9,6.3,6.2,196.0,48.0,1.0,3,10,7,1,2026-06-16T21:27:24.996987+05:30
Kohima,Nagaland,25.6701,94.1077,19.9,93,0.0,855.1,8.8,24.1,60,23.4,20.1,12.2,434.0,57.0,2.2,3,10,7,1,2026-06-16T21:27:24.996994+05:30
Gangtok,Sikkim,27.3314,88.6138,17.6,93,0.2,837.6,8.4,37.8,85,10.9,9.5,6.8,579.0,124.0,2.4,6,10,7,1,2026-06-16T21:27:24.997001+05:30
Siliguri,West Bengal,26.7271,88.3953,26.4,96,0.1,991.9,8.35,21.2,119,47.7,39.0,11.0,983.0,114.0,5.0,10,5,7,1,2026-06-16T21:27:28.333024+05:30
Durgapur,West Bengal,23.5204,87.3119,29.5,78,0.0,992.8,9.0,27.4,212,68.0,61.0,20.6,577.0,111.0,33.2,7,5,7,1,2026-06-16T21:27:28.333061+05:30
Asansol,West Bengal,23.6739,86.9524,29.7,78,0.0,991.4,9.0,35.6,191,76.8,68.7,24.6,737.0,129.0,53.3,7,5,7,1,2026-06-16T21:27:28.333074+05:30
Pondicherry,Puducherry,11.9139,79.8145,29.7,88,0.0,1007.1,8.3,34.9,135,43.4,28.9,9.3,246.0,114.0,5.7,7,5,4,1,2026-06-16T21:27:28.333085+05:30
Port Blair,Andaman and Nicobar Islands,11.6234,92.7265,27.7,83,0.0,1009.5,8.55,42.1,27,6.8,4.1,0.4,96.0,40.0,0.3,7,0,4,1,2026-06-16T21:27:28.333094+05:30
Haridwar,Uttarakhand,29.9457,78.1642,28.1,76,0.0,971.4,7.6,29.2,149,143.0,71.5,22.8,486.0,115.0,17.7,7,5,7,1,2026-06-16T21:27:28.333102+05:30
Rishikesh,Uttarakhand,30.0869,78.2676,26.3,82,0.0,964.2,7.7,25.2,132,122.5,56.6,12.4,386.0,120.0,9.3,7,5,7,1,2026-06-16T21:27:28.333110+05:30
Nainital,Uttarakhand,29.3919,79.4542,15.9,91,0.0,804.3,8.1,29.2,126,95.2,46.6,13.9,342.0,106.0,7.8,3,10,7,0,2026-06-16T21:27:28.333117+05:30
Mussoorie,Uttarakhand,30.4599,78.0664,15.7,80,0.0,801.7,7.4,32.8,139,84.5,43.7,20.6,325.0,120.0,12.9,3,5,7,0,2026-06-16T21:27:28.333125+05:30
Dharamshala,Himachal Pradesh,32.219,76.3234,20.4,78,0.0,867.6,8.55,46.8,83,15.8,13.7,13.9,409.0,73.0,0.6,3,5,7,1,2026-06-16T21:27:28.333133+05:30
Dalhousie,Himachal Pradesh,32.5387,75.971,15.0,97,0.0,802.5,8.2,31.7,126,34.3,23.5,12.1,600.0,138.0,2.1,3,10,7,0,2026-06-16T21:27:28.333141+05:30
Patiala,Punjab,30.3398,76.3869,29.7,62,0.0,975.4,7.7,31.7,169,173.7,72.6,18.2,345.0,91.0,8.9,7,5,7,1,2026-06-16T21:27:28.333148+05:30
Bhatinda,Punjab,30.211,74.9455,28.7,74,0.0,980.6,8.35,39.2,143,159.3,72.2,38.4,214.0,62.0,11.9,7,5,7,1,2026-06-16T21:27:28.333155+05:30
Rohtak,Haryana,28.8955,76.6066,29.3,72,0.0,979.1,7.8,42.5,527,403.3,103.1,62.6,1013.0,32.0,14.3,7,5,7,1,2026-06-16T21:27:28.333162+05:30
Panipat,Haryana,29.3909,76.9635,28.2,73,0.0,977.5,7.65,22.7,715,480.6,123.4,42.5,400.0,51.0,15.1,7,5,7,1,2026-06-16T21:27:28.333169+05:30
Mathura,Uttar Pradesh,27.4924,77.6737,29.3,51,0.0,983.9,8.1,48.2,464,197.4,59.8,67.9,734.0,14.0,8.3,4,5,7,1,2026-06-16T21:27:28.333177+05:30
Vrindavan,Uttar Pradesh,27.5823,77.7027,29.4,49,0.0,984.4,8.1,49.3,464,197.4,59.8,67.9,781.0,14.0,8.3,4,5,7,1,2026-06-16T21:27:28.333183+05:30
Ayodhya,Uttar Pradesh,26.7922,82.1998,30.4,71,0.0,992.3,8.35,24.5,158,94.5,53.0,18.6,349.0,78.0,10.3,3,5,7,1,2026-06-16T21:27:28.333191+05:30
Ratlam,Madhya Pradesh,23.3315,75.0367,31.0,46,0.0,953.5,8.5,42.5,74,50.8,26.3,2.7,188.0,87.0,4.5,0,5,7,1,2026-06-16T21:27:28.333198+05:30
Sagar,Madhya Pradesh,23.8388,78.7378,28.1,64,0.0,949.1,8.15,45.4,76,42.4,26.8,11.0,192.0,71.0,3.2,7,5,7,1,2026-06-16T21:27:28.333205+05:30
Satna,Madhya Pradesh,24.6005,80.8322,32.2,46,0.0,969.3,8.8,29.5,129,176.5,63.6,11.8,354.0,75.0,4.4,0,5,7,1,2026-06-16T21:27:28.333212+05:30
Akola,Maharashtra,20.7002,77.0082,31.0,55,0.0,973.8,8.8,41.0,75,48.0,26.8,11.3,228.0,70.0,4.9,0,5,7,1,2026-06-16T21:27:28.333220+05:30
Amravati,Maharashtra,20.9374,77.7796,28.3,72,0.0,966.1,8.8,47.5,88,43.7,25.7,8.9,253.0,75.0,5.1,7,5,7,1,2026-06-16T21:27:28.333228+05:30
Latur,Maharashtra,18.4088,76.5604,30.9,29,0.0,938.7,8.9,35.6,65,52.7,29.9,16.7,216.0,59.0,4.5,0,5,7,0,2026-06-16T21:27:28.333235+05:30
Nanded,Maharashtra,19.1383,77.3091,31.8,46,0.0,967.1,8.85,36.0,71,73.8,39.2,22.3,266.0,62.0,5.3,0,5,7,1,2026-06-16T21:27:28.333242+05:30
Gulbarga,Karnataka,17.3297,76.8343,30.3,38,0.0,957.2,8.9,40.3,69,68.5,36.8,43.7,191.0,46.0,6.2,0,5,7,0,2026-06-16T21:27:28.333249+05:30
Bidar,Karnataka,17.9104,77.5199,29.2,50,0.0,934.5,8.95,35.6,84,66.4,39.6,28.7,577.0,53.0,6.2,4,5,7,1,2026-06-16T21:27:28.333256+05:30
Hospet,Karnataka,15.2689,76.3909,28.4,56,0.0,955.7,8.85,31.3,56,33.4,21.3,17.3,219.0,66.0,2.6,4,5,7,1,2026-06-16T21:27:28.333263+05:30
Tirupur,Tamil Nadu,11.1085,77.3411,27.6,78,0.0,975.3,8.2,43.2,71,36.1,23.7,21.2,208.0,61.0,5.8,7,5,7,1,2026-06-16T21:27:28.333269+05:30
Alappuzha,Kerala,9.4981,76.3388,26.2,94,0.1,1010.5,7.8,34.2,57,37.7,20.3,13.7,110.0,42.0,3.5,10,0,4,1,2026-06-16T21:27:28.333276+05:30
Munnar,Kerala,10.0889,77.0595,18.3,98,0.0,857.6,9.0,28.8,45,16.3,12.9,11.4,320.0,42.0,2.3,3,10,7,1,2026-06-16T21:27:28.333284+05:30
Silchar,Assam,24.8333,92.7789,26.5,93,0.0,1004.5,8.95,20.5,115,37.6,31.7,7.5,354.0,88.0,4.2,7,5,4,1,2026-06-16T21:27:28.333291+05:30
Dibrugarh,Assam,27.4728,94.912,27.1,92,0.0,993.3,8.75,20.5,66,47.1,45.6,29.7,445.0,48.0,5.7,7,5,7,1,2026-06-16T21:27:28.333298+05:30
