city,state,latitude,longitude,temp,humidity,rain,pressure,uv_index,wind_gusts,aqi,pm10,pm2_5,mosquito_risk,arthritis_risk,migraine_risk,frizz_risk,updated_at
Delhi,Delhi,28.6139,77.209,25.8,44,0.0,984.5,6.0,24.5,321,206.8,65.2,4,5,3,0,2026-03-14T20:02:51.421037+05:30
Mumbai,Maharashtra,19.076,72.8777,28.0,75,0.0,1009.9,7.65,18.4,165,75.7,38.1,7,0,4,1,2026-03-14T20:02:51.421075+05:30
Bangalore,Karnataka,12.9716,77.5946,26.2,35,0.0,913.5,9.3,32.8,138,33.2,29.9,4,5,7,0,2026-03-14T20:02:51.421090+05:30
Hyderabad,Telangana,17.385,78.4867,29.6,40,0.0,954.9,8.7,30.2,145,50.5,41.0,4,5,7,0,2026-03-14T20:02:51.421100+05:30
Chennai,Tamil Nadu,13.0827,80.2707,27.0,78,0.0,1010.5,9.05,32.0,53,13.2,10.2,7,0,4,1,2026-03-14T20:02:51.421109+05:30
Kolkata,West Bengal,22.5726,88.3639,26.0,83,0.0,1008.8,8.05,33.8,81,21.5,17.6,7,0,4,1,2026-03-14T20:02:51.421118+05:30
Pune,Maharashtra,18.5204,73.8567,28.3,28,0.0,950.3,8.25,47.5,174,32.6,30.6,4,5,7,0,2026-03-14T20:02:51.421144+05:30
Ahmedabad,Gujarat,23.0225,72.5714,30.5,35,0.0,1002.6,7.5,24.8,79,59.8,28.0,0,5,4,0,2026-03-14T20:02:51.421154+05:30
Jaipur,Rajasthan,26.9124,75.7873,27.0,33,0.0,960.2,7.0,28.8,148,109.9,38.5,4,5,7,0,2026-03-14T20:02:51.421162+05:30
Lucknow,Uttar Pradesh,26.8467,80.9462,26.9,48,0.0,994.7,6.7,24.5,165,183.0,58.8,4,5,7,0,2026-03-14T20:02:51.421170+05:30
Kanpur,Uttar Pradesh,26.4499,80.3319,26.5,51,0.0,992.7,6.7,17.3,351,204.0,56.9,4,5,7,0,2026-03-14T20:02:51.421177+05:30
Chandigarh,Chandigarh,30.7333,76.7794,21.0,63,0.0,969.4,5.2,20.2,84,40.4,37.1,3,5,3,0,2026-03-14T20:02:51.421185+05:30
Srinagar,Jammu and Kashmir,34.0837,74.7973,12.1,76,0.0,839.8,5.6,19.1,96,65.4,43.9,3,5,3,0,2026-03-14T20:02:51.421192+05:30
Jammu,Jammu and Kashmir,32.7266,74.857,23.6,57,0.0,972.8,6.35,19.1,80,46.3,36.2,0,5,7,0,2026-03-14T20:02:51.421199+05:30
Amritsar,Punjab,31.634,74.8723,20.8,66,0.0,981.3,4.65,17.6,105,43.2,40.9,3,5,3,0,2026-03-14T20:02:51.421206+05:30
Ludhiana,Punjab,30.901,75.8573,22.3,55,0.0,979.6,5.25,20.2,87,69.6,47.7,0,5,3,0,2026-03-14T20:02:51.421212+05:30
Jalandhar,Punjab,31.326,75.5762,22.1,57,0.0,980.7,6.15,23.0,92,50.4,32.4,0,5,7,0,2026-03-14T20:02:51.421221+05:30
Dehradun,Uttarakhand,30.6284,78.0322,14.2,67,0.0,829.5,4.2,21.6,72,26.9,14.4,3,5,3,0,2026-03-14T20:02:51.421228+05:30
Shimla,Himachal Pradesh,31.1048,77.1734,12.2,67,0.0,783.2,5.5,22.3,73,25.5,17.8,3,5,3,0,2026-03-14T20:02:51.421234+05:30
Manali,Himachal Pradesh,32.2396,77.1887,13.7,42,0.0,819.9,7.3,29.2,70,41.9,12.4,0,5,7,0,2026-03-14T20:02:51.421243+05:30
Gurgaon,Haryana,28.4595,77.0266,23.3,55,0.0,982.8,5.85,19.4,854,306.4,82.4,0,5,3,0,2026-03-14T20:02:51.421251+05:30
Noida,Uttar Pradesh,28.5355,77.391,25.1,47,0.0,986.0,5.75,23.8,854,306.4,82.4,4,5,3,0,2026-03-14T20:02:51.421258+05:30
Ghaziabad,Uttar Pradesh,28.6692,77.4538,24.8,48,0.0,984.1,5.95,23.8,212,224.9,74.7,0,5,3,0,2026-03-14T20:02:51.421264+05:30
Faridabad,Haryana,28.4089,77.3178,23.1,50,0.0,985.3,5.75,22.7,854,306.4,82.4,0,5,3,0,2026-03-14T20:02:51.421270+05:30
Meerut,Uttar Pradesh,28.9845,77.7064,22.9,58,0.0,982.7,5.8,27.4,212,224.9,74.7,0,5,3,0,2026-03-14T20:02:51.421276+05:30
Agra,Uttar Pradesh,27.1767,78.0081,23.5,44,0.0,989.2,6.35,15.5,606,168.1,71.2,0,5,7,0,2026-03-14T20:02:51.421282+05:30
Varanasi,Uttar Pradesh,25.3176,82.9739,28.0,56,0.0,998.5,6.85,27.7,137,105.7,56.2,4,5,7,1,2026-03-14T20:02:51.421291+05:30
Prayagraj,Uttar Pradesh,25.4358,81.8463,27.8,56,0.0,996.8,7.1,15.5,151,85.9,42.0,4,5,7,1,2026-03-14T20:02:51.421298+05:30
Gorakhpur,Uttar Pradesh,26.7606,83.3732,25.4,56,0.0,998.6,6.7,24.8,133,115.3,61.7,4,5,7,0,2026-03-14T20:02:51.421304+05:30
Bareilly,Uttar Pradesh,28.367,79.4304,23.3,65,0.0,988.1,6.4,19.4,131,64.3,36.9,3,5,7,1,2026-03-14T20:02:51.421310+05:30
Aligarh,Uttar Pradesh,27.8974,78.088,22.8,41,0.0,987.0,6.3,26.6,543,304.5,91.5,0,5,7,0,2026-03-14T20:02:51.421317+05:30
Moradabad,Uttar Pradesh,28.8386,78.7733,22.4,57,0.0,984.9,5.95,23.0,138,109.7,55.9,0,5,3,0,2026-03-14T20:02:51.421323+05:30
Saharanpur,Uttar Pradesh,29.9637,77.546,21.4,52,0.0,976.7,4.65,23.8,126,124.8,53.3,0,5,3,0,2026-03-14T20:02:51.421329+05:30
Jhansi,Uttar Pradesh,25.4484,78.5685,26.7,52,0.0,978.9,7.2,20.2,149,115.5,41.8,4,5,7,0,2026-03-14T20:02:54.684373+05:30
Surat,Gujarat,21.1702,72.8311,26.0,69,0.0,1008.2,7.35,23.4,143,87.8,56.5,7,0,4,1,2026-03-14T20:02:54.684401+05:30
Vadodara,Gujarat,22.3072,73.1812,29.9,37,0.0,1004.9,7.5,28.1,99,68.5,39.7,4,5,4,0,2026-03-14T20:02:54.684411+05:30
Rajkot,Gujarat,22.3039,70.8022,29.9,35,0.0,995.7,7.35,34.9,96,63.1,23.6,4,5,7,0,2026-03-14T20:02:54.684419+05:30
Thane,Maharashtra,19.2183,72.9781,27.3,72,0.0,1009.4,7.65,31.7,165,75.7,38.1,7,0,4,1,2026-03-14T20:02:54.684426+05:30
Nagpur,Maharashtra,21.1458,79.0882,29.2,40,0.0,973.5,8.1,19.8,192,46.9,42.3,4,5,7,0,2026-03-14T20:02:54.684433+05:30
Nashik,Maharashtra,19.9975,73.7898,26.0,27,0.0,947.3,7.9,39.2,131,21.9,16.1,4,5,7,0,2026-03-14T20:02:54.684439+05:30
Aurangabad,Maharashtra,19.8762,75.3433,30.1,32,0.0,945.0,8.4,32.8,154,30.3,27.4,0,5,7,0,2026-03-14T20:02:54.684446+05:30
Solapur,Maharashtra,17.6599,75.9064,29.9,43,0.0,957.7,8.6,18.7,171,47.1,40.0,4,5,7,0,2026-03-14T20:02:54.684453+05:30
Kolhapur,Maharashtra,16.705,74.2433,25.7,72,0.0,949.6,8.7,44.6,176,54.6,51.0,7,5,7,1,2026-03-14T20:02:54.684459+05:30
Goa,Goa,15.2993,74.124,28.5,77,0.0,1000.0,8.75,32.4,135,42.0,37.7,7,5,4,1,2026-03-14T20:02:54.684466+05:30
Jodhpur,Rajasthan,26.2389,73.0243,30.5,28,0.0,982.2,7.1,37.4,89,167.6,37.8,0,5,7,0,2026-03-14T20:02:54.684473+05:30
Udaipur,Rajasthan,24.5854,73.7125,27.2,27,0.0,947.3,7.85,37.1,67,33.1,16.6,4,5,7,0,2026-03-14T20:02:54.684479+05:30
Kota,Rajasthan,25.2138,75.8648,27.9,42,0.0,978.7,7.25,13.7,101,46.9,30.4,4,5,7,0,2026-03-14T20:02:54.684485+05:30
Bikaner,Rajasthan,28.0229,73.3119,29.2,30,0.0,981.9,6.7,21.6,98,82.7,24.5,4,5,7,0,2026-03-14T20:02:54.684492+05:30
Ajmer,Rajasthan,26.4499,74.6399,27.6,30,0.0,954.6,7.05,41.4,78,45.6,22.6,4,5,7,0,2026-03-14T20:02:54.684498+05:30
Gwalior,Madhya Pradesh,26.2183,78.1828,26.0,58,0.0,984.2,6.9,22.0,268,77.8,30.0,4,5,7,1,2026-03-14T20:02:54.684504+05:30
Indore,Madhya Pradesh,22.7196,75.8577,26.1,31,0.0,948.7,7.8,38.2,139,24.8,21.7,4,5,7,0,2026-03-14T20:02:54.684511+05:30
Bhopal,Madhya Pradesh,23.2599,77.4126,26.7,33,0.0,954.1,7.65,35.3,139,28.2,25.5,4,5,7,0,2026-03-14T20:02:54.684517+05:30
Jabalpur,Madhya Pradesh,23.1815,79.9864,27.9,34,0.0,962.1,7.8,27.0,128,20.1,19.0,4,5,7,0,2026-03-14T20:02:54.684523+05:30
Ujjain,Madhya Pradesh,23.1765,75.7885,25.3,35,0.0,954.3,7.7,41.8,113,26.1,21.4,4,5,7,0,2026-03-14T20:02:54.684530+05:30
Visakhapatnam,Andhra Pradesh,17.6868,83.2185,26.3,81,0.0,1007.4,8.65,41.0,58,16.1,12.7,7,5,4,1,2026-03-14T20:02:54.684536+05:30
Vijayawada,Andhra Pradesh,16.5062,80.648,26.8,75,0.0,1005.6,8.75,31.3,58,15.7,13.0,7,5,4,1,2026-03-14T20:02:54.684543+05:30
Guntur,Andhra Pradesh,16.3067,80.4365,26.2,81,0.0,1006.7,8.75,33.8,56,15.4,12.4,7,5,4,1,2026-03-14T20:02:54.684549+05:30
Nellore,Andhra Pradesh,14.4426,79.9865,26.5,80,0.0,1008.8,8.9,33.1,74,12.9,10.4,7,0,4,1,2026-03-14T20:02:54.684556+05:30
Kurnool,Andhra Pradesh,15.8281,78.0373,31.9,29,0.0,977.6,8.75,23.4,141,49.8,38.1,0,5,7,0,2026-03-14T20:02:54.684563+05:30
Kakinada,Andhra Pradesh,16.9891,82.2475,25.6,82,0.0,1011.4,8.7,34.6,52,12.1,8.5,7,0,4,1,2026-03-14T20:02:54.684569+05:30
Tirupati,Andhra Pradesh,13.6288,79.4192,27.9,56,0.0,994.6,9.0,32.4,81,18.8,17.1,4,5,7,1,2026-03-14T20:02:54.684575+05:30
Warangal,Telangana,17.9689,79.5941,28.3,58,0.0,980.3,8.5,27.7,98,41.9,36.4,4,5,7,1,2026-03-14T20:02:54.684581+05:30
Nizamabad,Telangana,18.6725,78.0941,28.4,52,0.0,965.8,8.4,30.2,152,67.1,55.3,4,5,7,1,2026-03-14T20:02:54.684587+05:30
Mysore,Karnataka,12.2958,76.6396,27.3,43,0.0,929.7,9.3,32.8,151,40.7,35.5,4,5,7,0,2026-03-14T20:02:54.684593+05:30
Mangalore,Karnataka,12.9141,74.856,28.6,80,0.0,1008.9,8.95,24.8,101,27.9,23.3,7,0,4,1,2026-03-14T20:02:54.684599+05:30
Hubli-Dharwad,Karnataka,15.3647,75.124,26.0,75,0.0,942.5,8.9,46.4,163,50.1,44.0,7,5,7,1,2026-03-14T20:02:54.684605+05:30
Belgaum,Karnataka,15.8497,74.4977,24.3,84,0.0,927.3,8.95,44.3,176,50.4,48.5,3,5,7,1,2026-03-14T20:02:57.944015+05:30
Coimbatore,Tamil Nadu,11.0168,76.9558,26.2,58,0.0,963.8,9.3,37.1,105,23.6,20.7,4,5,7,1,2026-03-14T20:02:57.944047+05:30
Madurai,Tamil Nadu,9.9252,78.1198,29.7,54,0.0,995.2,9.25,28.8,59,12.4,11.3,4,5,7,1,2026-03-14T20:02:57.944058+05:30
Trichy,Tamil Nadu,10.7905,78.7047,29.0,59,0.0,1002.1,9.2,27.0,65,16.0,15.0,4,5,4,1,2026-03-14T20:02:57.944068+05:30
Salem,Tamil Nadu,11.6643,78.146,28.2,46,0.0,979.2,9.2,23.8,97,21.4,19.3,4,5,7,0,2026-03-14T20:02:57.944076+05:30
Tirunelveli,Tamil Nadu,8.7139,77.7567,28.1,72,0.0,1005.5,9.25,36.4,57,9.9,9.4,7,5,4,1,2026-03-14T20:02:57.944083+05:30
Vellore,Tamil Nadu,12.9165,79.1325,27.5,54,0.0,987.4,9.1,32.8,96,23.5,22.0,4,5,7,1,2026-03-14T20:02:57.944089+05:30
Erode,Tamil Nadu,11.341,77.7172,30.6,40,0.0,990.5,9.2,24.8,64,16.9,15.3,0,5,7,0,2026-03-14T20:02:57.944097+05:30
Kochi,Kerala,9.9312,76.2673,28.5,79,0.0,1010.8,9.1,31.3,118,21.5,19.8,7,0,4,1,2026-03-14T20:02:57.944103+05:30
Thiruvananthapuram,Kerala,8.5241,76.9366,28.1,79,0.0,1010.2,9.1,26.3,78,12.9,9.3,7,0,4,1,2026-03-14T20:02:57.944109+05:30
Kozhikode,Kerala,11.2588,75.7804,28.3,82,0.0,1010.3,9.0,24.8,77,22.7,19.5,7,0,4,1,2026-03-14T20:02:57.944116+05:30
Thrissur,Kerala,10.5276,76.2144,27.9,82,0.0,1009.4,9.05,36.0,112,17.8,16.5,7,0,4,1,2026-03-14T20:02:57.944122+05:30
Kannur,Kerala,11.8745,75.3704,28.2,81,0.0,1009.4,8.95,29.2,93,25.0,21.5,7,0,4,1,2026-03-14T20:02:57.944154+05:30
Patna,Bihar,25.5941,85.1376,28.5,59,0.0,1001.6,7.5,20.2,136,103.8,61.5,4,5,4,1,2026-03-14T20:02:57.944170+05:30
Gaya,Bihar,24.7914,85.0002,28.3,49,0.0,995.1,7.55,21.2,123,92.7,47.8,4,5,7,1,2026-03-14T20:02:57.944178+05:30
Muzaffarpur,Bihar,26.1209,85.3647,27.4,56,0.0,1001.7,7.45,24.5,159,108.7,65.2,4,5,4,1,2026-03-14T20:02:57.944185+05:30
Bhagalpur,Bihar,25.2425,87.0117,27.3,58,0.0,1002.7,7.5,20.5,156,125.3,62.9,4,5,4,1,2026-03-14T20:02:57.944192+05:30
Ranchi,Jharkhand,23.3441,85.3096,26.6,27,0.0,939.6,8.2,24.5,122,28.6,21.7,4,5,7,0,2026-03-14T20:02:57.944199+05:30
Jamshedpur,Jharkhand,22.8046,86.2029,29.4,55,0.0,992.0,8.1,29.2,169,56.3,41.0,4,5,7,1,2026-03-14T20:02:57.944204+05:30
Dhanbad,Jharkhand,23.7957,86.4304,30.4,31,0.0,981.4,7.95,19.8,157,84.3,64.3,0,5,7,0,2026-03-14T20:02:57.944211+05:30
Bokaro,Jharkhand,23.6693,86.1511,29.3,31,0.0,985.4,8.0,20.2,152,65.0,49.6,4,5,7,0,2026-03-14T20:02:57.944217+05:30
Bhubaneswar,Odisha,20.2961,85.8245,25.5,85,0.0,1006.1,8.4,38.9,63,14.9,12.3,7,5,4,1,2026-03-14T20:02:57.944223+05:30
Cuttack,Odisha,20.4625,85.8828,26.0,82,0.0,1007.8,8.45,34.2,63,14.9,12.3,7,5,4,1,2026-03-14T20:02:57.944229+05:30
Rourkela,Odisha,22.2604,84.8536,30.9,42,0.0,985.8,8.05,25.2,178,44.1,41.7,0,5,7,1,2026-03-14T20:02:57.944235+05:30
Raipur,Chhattisgarh,21.2514,81.6296,29.7,42,0.0,975.4,8.15,34.2,171,61.9,57.4,4,5,7,0,2026-03-14T20:02:57.944241+05:30
Bhilai,Chhattisgarh,21.1938,81.3509,28.6,45,0.0,975.7,8.15,27.7,160,60.8,55.8,4,5,7,0,2026-03-14T20:02:57.944247+05:30
Guwahati,Assam,26.1158,91.7086,22.5,88,0.0,1005.0,7.35,32.0,69,24.9,20.3,3,5,4,1,2026-03-14T20:02:57.944254+05:30
Agartala,Tripura,23.8315,91.2868,22.9,85,0.0,1010.9,7.8,48.6,80,36.1,30.6,3,0,4,1,2026-03-14T20:02:57.944261+05:30
Shillong,Meghalaya,25.5788,91.8933,13.3,90,0.0,857.8,7.85,73.8,59,29.3,23.2,3,10,7,0,2026-03-14T20:02:57.944268+05:30
Imphal,Manipur,24.817,93.9368,16.7,89,0.0,926.7,7.1,82.8,142,61.9,52.2,3,10,7,0,2026-03-14T20:02:57.944275+05:30
Aizawl,Mizoram,23.7271,92.7176,18.2,78,0.0,896.0,8.0,63.4,109,50.1,37.5,3,5,7,0,2026-03-14T20:02:57.944281+05:30
Kohima,Nagaland,25.6701,94.1077,14.5,75,0.0,856.8,6.9,100.8,105,37.0,28.3,3,5,7,0,2026-03-14T20:02:57.944287+05:30
Gangtok,Sikkim,27.3314,88.6138,13.7,88,0.0,837.9,7.55,20.2,84,20.5,15.8,3,10,7,0,2026-03-14T20:02:57.944293+05:30
Siliguri,West Bengal,26.7271,88.3953,21.3,75,0.0,996.0,7.4,31.7,140,64.7,47.5,3,5,7,1,2026-03-14T20:03:01.203987+05:30
Durgapur,West Bengal,23.5204,87.3119,27.9,67,0.0,996.8,7.95,23.4,154,58.0,48.7,7,5,7,1,2026-03-14T20:03:01.204019+05:30
Asansol,West Bengal,23.6739,86.9524,29.1,61,0.0,995.2,7.95,21.2,148,65.9,49.7,7,5,7,1,2026-03-14T20:03:01.204030+05:30
Pondicherry,Puducherry,11.9139,79.8145,25.9,90,0.0,1011.5,9.05,29.9,50,12.3,9.3,7,0,4,1,2026-03-14T20:03:01.204040+05:30
Port Blair,Andaman and Nicobar Islands,11.6234,92.7265,27.5,80,0.0,1011.0,8.95,23.0,78,14.0,10.8,7,0,4,1,2026-03-14T20:03:01.204049+05:30
Haridwar,Uttarakhand,29.9457,78.1642,24.5,59,0.0,975.4,5.0,21.2,102,49.4,32.2,0,5,3,0,2026-03-14T20:03:01.204058+05:30
Rishikesh,Uttarakhand,30.0869,78.2676,21.9,66,0.0,968.1,4.55,20.9,93,27.4,18.0,3,5,3,0,2026-03-14T20:03:01.204067+05:30
Nainital,Uttarakhand,29.3919,79.4542,17.0,65,0.0,806.4,6.15,34.9,112,45.4,35.2,3,5,7,0,2026-03-14T20:03:01.204075+05:30
Mussoorie,Uttarakhand,30.4599,78.0664,15.2,66,0.0,802.4,4.9,25.2,94,39.1,27.0,3,5,3,0,2026-03-14T20:03:01.204083+05:30
Dharamshala,Himachal Pradesh,32.219,76.3234,19.2,32,0.0,868.9,5.45,17.6,72,33.9,16.5,0,5,3,0,2026-03-14T20:03:01.204091+05:30
Dalhousie,Himachal Pradesh,32.5387,75.971,16.3,49,0.0,803.2,6.05,18.7,79,39.9,24.7,0,5,7,0,2026-03-14T20:03:01.204100+05:30
Patiala,Punjab,30.3398,76.3869,21.8,51,0.0,979.2,5.45,27.0,184,140.6,53.1,0,5,3,0,2026-03-14T20:03:01.204108+05:30
Bhatinda,Punjab,30.211,74.9455,23.1,57,0.0,984.6,6.15,22.0,99,44.5,41.9,0,5,7,0,2026-03-14T20:03:01.204116+05:30
Rohtak,Haryana,28.8955,76.6066,25.1,50,0.0,982.9,5.9,22.0,369,179.7,61.5,4,5,3,0,2026-03-14T20:03:01.204124+05:30
Panipat,Haryana,29.3909,76.9635,22.6,62,0.0,981.5,5.6,23.0,749,354.8,80.6,3,5,3,0,2026-03-14T20:03:01.204184+05:30
Mathura,Uttar Pradesh,27.4924,77.6737,22.8,45,0.0,988.2,5.95,29.2,533,163.4,56.3,0,5,3,0,2026-03-14T20:03:01.204195+05:30
Vrindavan,Uttar Pradesh,27.5823,77.7027,22.4,47,0.0,988.7,5.9,35.3,533,163.4,56.3,0,5,3,0,2026-03-14T20:03:01.204202+05:30
Ayodhya,Uttar Pradesh,26.7922,82.1998,25.1,61,0.0,996.4,6.85,21.6,153,76.8,47.7,7,5,7,1,2026-03-14T20:03:01.204209+05:30
Ratlam,Madhya Pradesh,23.3315,75.0367,27.3,33,0.0,955.3,7.65,39.6,115,23.6,17.6,4,5,7,0,2026-03-14T20:03:01.204216+05:30
Sagar,Madhya Pradesh,23.8388,78.7378,27.2,35,0.0,950.6,7.6,34.2,133,19.7,17.2,4,5,7,0,2026-03-14T20:03:01.204222+05:30
Satna,Madhya Pradesh,24.6005,80.8322,28.8,33,0.0,971.8,7.6,26.3,117,49.9,23.8,4,5,7,0,2026-03-14T20:03:01.204228+05:30
Akola,Maharashtra,20.7002,77.0082,30.4,32,0.0,975.3,8.1,17.3,160,30.7,28.0,0,5,7,0,2026-03-14T20:03:01.204236+05:30
Amravati,Maharashtra,20.9374,77.7796,28.9,32,0.0,967.4,8.05,22.3,163,31.8,29.5,4,5,7,0,2026-03-14T20:03:01.204244+05:30
Latur,Maharashtra,18.4088,76.5604,29.7,40,0.0,940.9,8.5,26.6,161,55.1,46.4,4,5,7,0,2026-03-14T20:03:01.204250+05:30
Nanded,Maharashtra,19.1383,77.3091,30.6,37,0.0,969.0,8.3,31.0,180,59.8,51.1,0,5,7,0,2026-03-14T20:03:01.204257+05:30
Gulbarga,Karnataka,17.3297,76.8343,31.8,35,0.0,959.7,8.6,38.9,170,48.7,39.7,0,5,7,0,2026-03-14T20:03:01.204263+05:30
Bidar,Karnataka,17.9104,77.5199,28.8,41,0.0,936.7,8.55,37.1,155,66.6,52.2,4,5,7,0,2026-03-14T20:03:01.204269+05:30
Hospet,Karnataka,15.2689,76.3909,31.3,48,0.0,956.7,8.85,28.1,182,47.3,40.7,0,5,7,1,2026-03-14T20:03:01.204275+05:30
Tirupur,Tamil Nadu,11.1085,77.3411,30.2,31,0.0,976.9,9.3,30.2,84,22.0,19.7,0,5,7,0,2026-03-14T20:03:01.204281+05:30
Alappuzha,Kerala,9.4981,76.3388,28.7,77,0.0,1010.8,9.1,28.4,104,19.8,16.6,7,0,4,1,2026-03-14T20:03:01.204288+05:30
Munnar,Kerala,10.0889,77.0595,21.9,88,0.0,858.7,9.55,28.8,66,20.7,19.7,3,5,7,1,2026-03-14T20:03:01.204295+05:30
Silchar,Assam,24.8333,92.7789,20.6,91,0.0,1011.0,7.75,39.6,105,38.3,31.7,3,0,4,1,2026-03-14T20:03:01.204302+05:30
Dibrugarh,Assam,27.4728,94.912,19.8,91,0.2,1000.2,4.45,22.0,89,31.3,27.0,6,10,0,1,2026-03-14T20:03:01.204308+05:30
