city,state,latitude,longitude,temp,humidity,rain,pressure,uv_index,wind_gusts,aqi,pm10,pm2_5,no2,co,o3,so2,mosquito_risk,arthritis_risk,migraine_risk,frizz_risk,updated_at
Delhi,Delhi,28.6139,77.209,30.4,64,0.0,976.6,7.7,30.2,543,349.2,131.3,63.6,275.0,7.0,27.2,3,5,7,1,2026-07-18T05:24:12.464265+05:30
Mumbai,Maharashtra,19.076,72.8777,24.8,98,0.2,1006.4,4.25,37.1,68,27.2,13.5,5.4,135.0,43.0,4.3,6,5,0,1,2026-07-18T05:24:12.464339+05:30
Bangalore,Karnataka,12.9716,77.5946,20.2,91,0.0,910.9,3.85,47.5,36,8.6,5.5,6.0,144.0,40.0,3.4,3,5,3,1,2026-07-18T05:24:12.464357+05:30
Hyderabad,Telangana,17.385,78.4867,23.9,88,0.0,950.9,3.1,43.6,62,8.5,6.1,7.1,166.0,46.0,3.5,3,5,3,1,2026-07-18T05:24:12.464367+05:30
Chennai,Tamil Nadu,13.0827,80.2707,26.4,89,0.0,1005.9,6.8,40.0,74,15.8,12.0,18.6,199.0,28.0,8.4,7,5,4,1,2026-07-18T05:24:12.464377+05:30
Kolkata,West Bengal,22.5726,88.3639,26.3,96,0.0,1000.3,7.05,37.1,72,20.5,17.7,9.7,249.0,71.0,7.1,7,5,4,1,2026-07-18T05:24:12.464384+05:30
Pune,Maharashtra,18.5204,73.8567,22.9,89,0.0,945.8,7.75,45.7,39,8.7,5.7,8.0,119.0,31.0,6.8,3,5,7,1,2026-07-18T05:24:12.464392+05:30
Ahmedabad,Gujarat,23.0225,72.5714,28.3,77,0.0,998.4,6.05,34.6,75,29.3,17.3,9.3,128.0,32.0,5.4,7,5,7,1,2026-07-18T05:24:12.464398+05:30
Jaipur,Rajasthan,26.9124,75.7873,29.6,58,0.0,955.0,6.8,36.0,200,501.1,84.8,10.8,167.0,46.0,4.8,4,5,7,1,2026-07-18T05:24:12.464405+05:30
Lucknow,Uttar Pradesh,26.8467,80.9462,27.5,93,0.0,987.5,7.75,26.3,165,75.0,58.0,16.9,411.0,64.0,9.7,7,5,7,1,2026-07-18T05:24:12.464412+05:30
Kanpur,Uttar Pradesh,26.4499,80.3319,28.7,90,0.0,985.7,7.95,25.6,171,112.9,67.1,26.3,296.0,44.0,9.2,7,5,7,1,2026-07-18T05:24:12.464418+05:30
Chandigarh,Chandigarh,30.7333,76.7794,28.7,76,0.0,962.6,7.7,27.7,149,68.7,52.9,32.0,663.0,39.0,9.7,7,5,7,1,2026-07-18T05:24:12.464424+05:30
Srinagar,Jammu and Kashmir,34.0837,74.7973,21.5,86,0.0,838.1,9.05,25.9,101,60.8,49.6,23.8,537.0,29.0,3.2,3,5,7,1,2026-07-18T05:24:12.464431+05:30
Jammu,Jammu and Kashmir,32.7266,74.857,28.0,88,0.0,966.2,8.45,25.2,154,67.8,50.1,34.0,343.0,23.0,4.3,7,5,7,1,2026-07-18T05:24:12.464438+05:30
Amritsar,Punjab,31.634,74.8723,28.1,94,0.0,973.7,7.2,20.5,166,211.4,118.0,61.4,637.0,0.0,7.8,7,5,7,1,2026-07-18T05:24:12.464443+05:30
Ludhiana,Punjab,30.901,75.8573,28.6,87,0.0,972.1,7.95,22.0,176,160.7,122.9,65.9,1270.0,0.0,13.0,7,5,7,1,2026-07-18T05:24:12.464448+05:30
Jalandhar,Punjab,31.326,75.5762,28.2,88,0.0,972.9,8.25,18.7,172,146.7,114.3,48.9,1115.0,5.0,8.6,7,5,7,1,2026-07-18T05:24:12.464454+05:30
Dehradun,Uttarakhand,30.6284,78.0322,19.0,100,0.0,827.0,7.05,25.2,97,39.2,30.2,7.1,340.0,112.0,5.8,3,10,7,1,2026-07-18T05:24:12.464465+05:30
Shimla,Himachal Pradesh,31.1048,77.1734,17.0,93,0.0,782.6,7.4,36.0,92,36.7,21.6,6.3,233.0,114.0,3.6,3,10,7,0,2026-07-18T05:24:12.464471+05:30
Manali,Himachal Pradesh,32.2396,77.1887,20.9,88,0.0,817.2,7.05,29.5,54,19.3,14.7,26.8,228.0,5.0,0.0,3,5,7,1,2026-07-18T05:24:12.464478+05:30
Gurgaon,Haryana,28.4595,77.0266,30.1,63,0.0,975.3,7.75,33.8,487,374.4,102.0,37.7,258.0,22.0,13.4,3,5,7,1,2026-07-18T05:24:12.464484+05:30
Noida,Uttar Pradesh,28.5355,77.391,30.2,68,0.0,977.9,7.7,25.6,487,374.4,102.0,37.7,291.0,22.0,13.4,3,5,7,1,2026-07-18T05:24:12.464489+05:30
Ghaziabad,Uttar Pradesh,28.6692,77.4538,29.7,74,0.0,976.1,7.7,26.3,517,624.0,200.2,74.1,586.0,0.0,30.9,7,5,7,1,2026-07-18T05:24:12.464495+05:30
Faridabad,Haryana,28.4089,77.3178,30.7,63,0.0,977.3,7.75,29.9,487,374.4,102.0,37.7,251.0,22.0,13.4,3,5,7,1,2026-07-18T05:24:12.464501+05:30
Meerut,Uttar Pradesh,28.9845,77.7064,28.7,85,0.0,975.1,7.6,24.5,517,624.0,200.2,74.1,734.0,0.0,30.9,7,5,7,1,2026-07-18T05:24:12.464508+05:30
Agra,Uttar Pradesh,27.1767,78.0081,30.7,66,0.0,981.6,7.3,31.0,168,41.0,27.7,17.5,191.0,44.0,5.5,3,5,7,1,2026-07-18T05:24:12.464514+05:30
Varanasi,Uttar Pradesh,25.3176,82.9739,26.5,96,0.0,992.2,8.3,22.0,118,35.2,34.2,15.3,321.0,75.0,10.0,7,5,7,1,2026-07-18T05:24:12.464520+05:30
Prayagraj,Uttar Pradesh,25.4358,81.8463,28.0,94,0.0,990.2,5.9,27.7,149,50.5,41.7,18.2,239.0,66.0,7.4,7,5,3,1,2026-07-18T05:24:12.464526+05:30
Gorakhpur,Uttar Pradesh,26.7606,83.3732,26.3,98,0.1,992.4,7.25,25.9,98,44.6,43.7,25.5,364.0,40.0,6.6,10,5,7,1,2026-07-18T05:24:12.464531+05:30
Bareilly,Uttar Pradesh,28.367,79.4304,26.9,97,0.0,981.2,8.0,29.5,161,53.1,32.7,12.5,457.0,84.0,4.3,7,5,7,1,2026-07-18T05:24:12.464538+05:30
Aligarh,Uttar Pradesh,27.8974,78.088,29.3,76,0.0,979.1,6.8,27.7,349,271.0,95.5,36.3,325.0,12.0,6.2,7,5,7,1,2026-07-18T05:24:12.464544+05:30
Moradabad,Uttar Pradesh,28.8386,78.7733,26.7,97,0.2,977.8,7.85,24.1,176,84.5,61.2,14.2,477.0,88.0,9.4,10,5,7,1,2026-07-18T05:24:12.464550+05:30
Saharanpur,Uttar Pradesh,29.9637,77.546,27.9,95,0.0,969.5,7.35,32.4,174,223.5,116.2,38.7,677.0,25.0,12.8,7,5,7,1,2026-07-18T05:24:12.464555+05:30
Jhansi,Uttar Pradesh,25.4484,78.5685,26.2,95,0.2,973.3,7.85,37.4,104,50.2,30.5,12.0,192.0,53.0,7.6,10,5,7,1,2026-07-18T05:24:15.792778+05:30
Surat,Gujarat,21.1702,72.8311,25.4,97,0.1,1003.6,7.5,44.6,74,31.1,21.8,29.6,339.0,14.0,43.0,10,5,4,1,2026-07-18T05:24:15.792813+05:30
Vadodara,Gujarat,22.3072,73.1812,27.7,82,0.0,1000.9,6.0,40.0,71,23.7,16.1,13.3,141.0,25.0,7.6,7,5,0,1,2026-07-18T05:24:15.792821+05:30
Rajkot,Gujarat,22.3039,70.8022,26.1,88,0.0,990.4,7.65,48.6,63,17.2,9.1,5.7,99.0,37.0,4.6,7,5,7,1,2026-07-18T05:24:15.792828+05:30
Thane,Maharashtra,19.2183,72.9781,24.7,97,0.0,1005.9,6.0,37.1,68,27.2,13.5,5.4,150.0,43.0,4.3,3,5,0,1,2026-07-18T05:24:15.792836+05:30
Nagpur,Maharashtra,21.1458,79.0882,25.1,94,0.0,969.6,1.2,31.7,86,23.4,16.5,12.2,198.0,42.0,11.2,7,5,3,1,2026-07-18T05:24:15.792843+05:30
Nashik,Maharashtra,19.9975,73.7898,22.6,94,0.0,942.7,6.25,42.1,39,9.4,5.4,7.9,121.0,32.0,7.4,3,5,7,1,2026-07-18T05:24:15.792849+05:30
Aurangabad,Maharashtra,19.8762,75.3433,23.1,91,0.0,941.7,7.65,38.9,51,7.9,4.8,7.8,165.0,33.0,8.1,3,5,7,1,2026-07-18T05:24:15.792855+05:30
Solapur,Maharashtra,17.6599,75.9064,24.1,86,0.0,955.6,3.25,37.4,51,10.8,7.8,9.3,139.0,28.0,2.8,3,5,3,1,2026-07-18T05:24:15.792861+05:30
Kolhapur,Maharashtra,16.705,74.2433,22.5,93,0.0,946.5,5.35,48.2,37,7.0,4.2,3.6,109.0,38.0,2.3,3,5,3,1,2026-07-18T05:24:15.792866+05:30
Goa,Goa,15.2993,74.124,23.6,98,0.0,998.0,6.35,36.0,63,36.1,20.5,3.3,229.0,43.0,1.5,3,5,7,1,2026-07-18T05:24:15.792872+05:30
Jodhpur,Rajasthan,26.2389,73.0243,29.7,60,0.0,978.2,8.4,43.9,119,197.9,51.8,5.6,121.0,47.0,2.4,4,5,7,1,2026-07-18T05:24:15.792877+05:30
Udaipur,Rajasthan,24.5854,73.7125,24.6,80,0.0,942.5,8.3,34.9,75,45.1,27.5,10.2,130.0,41.0,5.1,3,5,7,1,2026-07-18T05:24:15.792883+05:30
Kota,Rajasthan,25.2138,75.8648,30.1,59,0.0,974.2,8.3,32.4,88,42.1,24.9,8.2,182.0,63.0,7.1,0,5,7,1,2026-07-18T05:24:15.792888+05:30
Bikaner,Rajasthan,28.0229,73.3119,31.3,53,0.0,976.3,8.45,40.3,111,87.3,35.0,3.1,111.0,53.0,4.0,0,5,7,1,2026-07-18T05:24:15.792894+05:30
Ajmer,Rajasthan,26.4499,74.6399,27.4,67,0.0,950.3,7.95,43.2,75,27.2,16.7,7.4,139.0,53.0,3.9,7,5,7,1,2026-07-18T05:24:15.792900+05:30
Gwalior,Madhya Pradesh,26.2183,78.1828,25.6,93,0.0,978.0,2.65,31.3,123,48.7,26.0,11.6,147.0,51.0,3.4,7,5,3,1,2026-07-18T05:24:15.792905+05:30
Indore,Madhya Pradesh,22.7196,75.8577,24.8,87,0.0,944.7,2.75,37.4,73,22.2,15.4,9.8,174.0,48.0,10.7,3,5,3,1,2026-07-18T05:24:15.792911+05:30
Bhopal,Madhya Pradesh,23.2599,77.4126,26.3,79,0.0,949.8,5.4,32.8,84,30.0,22.4,9.8,247.0,56.0,5.6,7,5,3,1,2026-07-18T05:24:15.792916+05:30
Jabalpur,Madhya Pradesh,23.1815,79.9864,24.2,97,0.1,957.1,8.75,32.8,87,40.9,26.5,6.3,208.0,64.0,3.5,6,5,7,1,2026-07-18T05:24:15.792922+05:30
Ujjain,Madhya Pradesh,23.1765,75.7885,25.0,88,0.0,950.2,3.25,37.8,73,25.0,16.5,9.8,215.0,44.0,11.6,7,5,3,1,2026-07-18T05:24:15.792928+05:30
Visakhapatnam,Andhra Pradesh,17.6868,83.2185,27.2,81,0.0,999.6,5.4,39.2,89,37.0,28.3,22.5,317.0,50.0,35.5,7,5,3,1,2026-07-18T05:24:15.792933+05:30
Vijayawada,Andhra Pradesh,16.5062,80.648,26.0,95,0.0,999.9,2.75,42.8,85,19.7,14.7,10.3,202.0,44.0,2.5,7,5,3,1,2026-07-18T05:24:15.792938+05:30
Guntur,Andhra Pradesh,16.3067,80.4365,26.3,88,0.0,1001.2,2.85,46.4,81,20.7,15.9,12.7,184.0,35.0,3.1,7,5,0,1,2026-07-18T05:24:15.792944+05:30
Nellore,Andhra Pradesh,14.4426,79.9865,27.1,79,0.0,1004.0,4.7,47.2,58,20.8,12.9,8.9,136.0,38.0,3.8,7,5,0,1,2026-07-18T05:24:15.792950+05:30
Kurnool,Andhra Pradesh,15.8281,78.0373,25.2,81,0.1,975.5,5.65,46.4,54,12.2,7.5,10.1,148.0,30.0,3.7,10,5,3,1,2026-07-18T05:24:15.792957+05:30
Kakinada,Andhra Pradesh,16.9891,82.2475,25.4,94,0.0,1004.7,7.0,42.1,89,31.8,21.7,7.1,237.0,76.0,5.6,7,5,4,1,2026-07-18T05:24:15.792962+05:30
Tirupati,Andhra Pradesh,13.6288,79.4192,26.3,73,0.0,989.8,3.4,39.2,62,10.4,7.9,10.5,143.0,27.0,1.8,7,5,3,1,2026-07-18T05:24:15.792967+05:30
Warangal,Telangana,17.9689,79.5941,24.6,94,0.1,976.0,4.75,39.6,82,17.1,11.2,8.3,193.0,49.0,3.0,6,5,3,1,2026-07-18T05:24:15.792973+05:30
Nizamabad,Telangana,18.6725,78.0941,24.4,91,0.0,962.4,3.4,44.6,73,18.5,13.0,10.0,186.0,46.0,7.1,3,5,3,1,2026-07-18T05:24:15.792978+05:30
Mysore,Karnataka,12.2958,76.6396,20.9,92,0.0,928.4,3.2,53.6,26,8.5,5.3,4.1,107.0,41.0,1.8,3,5,3,1,2026-07-18T05:24:15.792984+05:30
Mangalore,Karnataka,12.9141,74.856,23.5,96,0.0,1007.6,1.45,32.8,57,19.2,13.5,9.5,154.0,24.0,3.0,3,5,0,1,2026-07-18T05:24:15.792989+05:30
Hubli-Dharwad,Karnataka,15.3647,75.124,22.0,93,0.0,940.1,7.75,50.0,21,8.0,4.5,2.9,101.0,39.0,1.4,3,5,7,1,2026-07-18T05:24:15.792995+05:30
Belgaum,Karnataka,15.8497,74.4977,21.1,96,0.0,924.4,6.85,48.6,26,6.0,3.2,2.7,105.0,41.0,1.6,3,5,7,1,2026-07-18T05:24:19.106611+05:30
Coimbatore,Tamil Nadu,11.0168,76.9558,22.1,95,0.0,961.5,7.2,49.7,40,14.3,8.4,7.1,165.0,29.0,2.6,3,5,7,1,2026-07-18T05:24:19.106644+05:30
Madurai,Tamil Nadu,9.9252,78.1198,27.8,61,0.0,992.9,7.95,34.9,73,24.3,20.0,35.9,163.0,0.0,6.3,7,5,7,1,2026-07-18T05:24:19.106654+05:30
Trichy,Tamil Nadu,10.7905,78.7047,28.0,64,0.0,999.6,7.7,41.8,54,15.7,9.3,5.1,105.0,41.0,2.9,7,5,7,1,2026-07-18T05:24:19.106662+05:30
Salem,Tamil Nadu,11.6643,78.146,24.1,89,0.0,977.5,6.05,34.2,69,24.7,19.2,25.3,331.0,16.0,6.9,3,5,7,1,2026-07-18T05:24:19.106670+05:30
Tirunelveli,Tamil Nadu,8.7139,77.7567,27.6,66,0.0,1003.8,8.65,46.8,49,12.8,7.8,6.8,142.0,32.0,2.3,7,5,4,1,2026-07-18T05:24:19.106676+05:30
Vellore,Tamil Nadu,12.9165,79.1325,24.6,88,0.1,983.6,4.75,42.1,51,9.0,7.0,13.3,148.0,29.0,4.2,6,5,3,1,2026-07-18T05:24:19.106683+05:30
Erode,Tamil Nadu,11.341,77.7172,24.7,80,0.0,989.2,5.95,44.3,55,22.4,16.3,17.0,155.0,27.0,4.7,3,5,3,1,2026-07-18T05:24:19.106689+05:30
Kochi,Kerala,9.9312,76.2673,24.1,95,0.0,1010.5,7.8,42.8,58,19.6,14.7,18.3,146.0,8.0,5.7,3,0,4,1,2026-07-18T05:24:19.106695+05:30
Thiruvananthapuram,Kerala,8.5241,76.9366,23.5,98,0.0,1010.0,8.5,42.5,61,25.0,14.7,7.0,158.0,39.0,3.5,3,0,4,1,2026-07-18T05:24:19.106700+05:30
Kozhikode,Kerala,11.2588,75.7804,23.5,99,0.0,1009.2,7.5,34.9,54,24.4,12.5,2.5,277.0,49.0,1.7,3,0,4,1,2026-07-18T05:24:19.106706+05:30
Thrissur,Kerala,10.5276,76.2144,23.0,99,0.0,1008.8,7.8,38.5,58,19.3,14.1,13.5,160.0,12.0,3.7,3,0,4,1,2026-07-18T05:24:19.106712+05:30
Kannur,Kerala,11.8745,75.3704,24.1,95,0.0,1008.3,6.35,32.0,52,13.7,8.6,7.5,169.0,26.0,2.4,3,0,4,1,2026-07-18T05:24:19.106718+05:30
Patna,Bihar,25.5941,85.1376,27.0,96,0.1,994.4,7.2,27.0,95,34.7,34.1,18.5,280.0,47.0,13.1,10,5,7,1,2026-07-18T05:24:19.106723+05:30
Gaya,Bihar,24.7914,85.0002,26.2,99,0.0,987.7,7.1,24.1,106,62.4,60.8,33.1,435.0,26.0,11.6,7,5,7,1,2026-07-18T05:24:19.106729+05:30
Muzaffarpur,Bihar,26.1209,85.3647,26.9,94,0.1,994.5,7.8,29.2,91,31.5,31.1,15.9,296.0,52.0,8.8,10,5,7,1,2026-07-18T05:24:19.106734+05:30
Bhagalpur,Bihar,25.2425,87.0117,26.5,98,0.0,995.2,7.4,27.4,73,29.4,28.9,14.4,374.0,67.0,16.1,7,5,7,1,2026-07-18T05:24:19.106740+05:30
Ranchi,Jharkhand,23.3441,85.3096,23.3,98,0.0,932.0,9.25,24.8,67,15.0,14.0,12.8,284.0,42.0,3.6,3,5,7,1,2026-07-18T05:24:19.106746+05:30
Jamshedpur,Jharkhand,22.8046,86.2029,25.4,99,0.0,984.8,8.8,25.9,96,34.1,30.5,19.7,349.0,53.0,23.4,7,5,7,1,2026-07-18T05:24:19.106752+05:30
Dhanbad,Jharkhand,23.7957,86.4304,25.6,97,0.0,973.7,7.6,27.0,125,74.0,72.6,66.4,280.0,18.0,161.4,7,5,7,1,2026-07-18T05:24:19.106758+05:30
Bokaro,Jharkhand,23.6693,86.1511,25.8,98,0.0,977.7,7.7,29.9,110,54.9,53.2,41.9,425.0,47.0,126.3,7,5,7,1,2026-07-18T05:24:19.106763+05:30
Bhubaneswar,Odisha,20.2961,85.8245,25.4,99,0.1,997.1,7.65,31.7,73,24.3,20.9,10.3,323.0,61.0,4.9,10,5,7,1,2026-07-18T05:24:19.106768+05:30
Cuttack,Odisha,20.4625,85.8828,25.6,97,0.2,998.9,7.95,33.5,73,24.3,20.9,10.3,267.0,61.0,4.9,10,5,7,1,2026-07-18T05:24:19.106774+05:30
Rourkela,Odisha,22.2604,84.8536,25.5,97,0.0,979.2,7.35,25.6,75,26.1,22.7,14.8,288.0,45.0,12.1,7,5,7,1,2026-07-18T05:24:19.106779+05:30
Raipur,Chhattisgarh,21.2514,81.6296,23.4,96,0.1,970.3,3.55,36.0,92,38.2,27.0,27.8,244.0,36.0,38.8,6,5,3,1,2026-07-18T05:24:19.106784+05:30
Bhilai,Chhattisgarh,21.1938,81.3509,23.3,96,0.1,971.0,2.25,39.2,87,36.0,25.6,22.6,531.0,38.0,33.2,6,5,3,1,2026-07-18T05:24:19.106789+05:30
Guwahati,Assam,26.1158,91.7086,25.4,97,0.0,997.4,7.35,20.9,56,12.5,11.6,7.7,247.0,47.0,2.0,7,5,7,1,2026-07-18T05:24:19.106795+05:30
Agartala,Tripura,23.8315,91.2868,25.3,93,0.0,1003.4,7.35,45.7,53,12.1,9.7,6.4,138.0,58.0,2.2,7,5,4,1,2026-07-18T05:24:19.106800+05:30
Shillong,Meghalaya,25.5788,91.8933,19.5,96,0.1,854.2,4.3,38.2,27,0.8,0.7,4.4,139.0,47.0,2.1,6,10,3,1,2026-07-18T05:24:19.106805+05:30
Imphal,Manipur,24.817,93.9368,22.7,96,0.0,921.1,6.45,34.2,64,19.2,13.0,5.7,288.0,47.0,2.0,3,5,7,1,2026-07-18T05:24:19.106811+05:30
Aizawl,Mizoram,23.7271,92.7176,20.3,87,0.0,890.9,8.35,42.8,58,16.5,10.0,1.5,118.0,55.0,1.1,3,5,7,1,2026-07-18T05:24:19.106816+05:30
Kohima,Nagaland,25.6701,94.1077,20.3,93,0.0,853.2,7.15,28.1,52,6.4,5.2,4.1,187.0,44.0,1.0,3,5,7,1,2026-07-18T05:24:19.106821+05:30
Gangtok,Sikkim,27.3314,88.6138,19.2,95,0.2,835.0,7.15,23.0,43,5.5,4.5,4.6,279.0,86.0,2.2,6,10,7,1,2026-07-18T05:24:19.106826+05:30
Siliguri,West Bengal,26.7271,88.3953,25.2,96,0.2,988.5,7.1,38.5,70,24.9,19.6,7.6,245.0,85.0,4.2,10,5,7,1,2026-07-18T05:24:22.467230+05:30
Durgapur,West Bengal,23.5204,87.3119,26.2,98,0.0,988.8,8.6,31.3,93,43.8,43.3,33.4,753.0,43.0,40.7,7,5,7,1,2026-07-18T05:24:22.467264+05:30
Asansol,West Bengal,23.6739,86.9524,26.1,99,0.0,987.4,7.75,29.5,95,50.2,49.7,45.1,382.0,33.0,63.5,7,5,7,1,2026-07-18T05:24:22.467273+05:30
Pondicherry,Puducherry,11.9139,79.8145,27.3,85,0.0,1007.7,4.9,41.8,69,22.7,16.9,14.4,265.0,40.0,7.6,7,5,0,1,2026-07-18T05:24:22.467280+05:30
Port Blair,Andaman and Nicobar Islands,11.6234,92.7265,26.5,84,0.0,1008.1,8.1,40.3,39,21.4,9.1,0.2,92.0,45.0,0.4,7,0,4,1,2026-07-18T05:24:22.467287+05:30
Haridwar,Uttarakhand,29.9457,78.1642,27.1,92,0.0,968.3,7.5,29.2,165,115.9,83.4,13.8,394.0,83.0,12.2,7,5,7,1,2026-07-18T05:24:22.467294+05:30
Rishikesh,Uttarakhand,30.0869,78.2676,25.9,93,0.2,961.0,7.0,29.2,152,162.1,76.1,6.5,297.0,139.0,11.9,10,5,7,1,2026-07-18T05:24:22.467302+05:30
Nainital,Uttarakhand,29.3919,79.4542,17.6,98,0.2,802.5,7.35,23.8,118,22.6,13.6,7.6,271.0,120.0,3.8,6,10,7,1,2026-07-18T05:24:22.467309+05:30
Mussoorie,Uttarakhand,30.4599,78.0664,17.9,100,0.0,800.3,7.35,27.7,144,126.2,65.7,8.1,348.0,133.0,14.8,3,10,7,1,2026-07-18T05:24:22.467332+05:30
Dharamshala,Himachal Pradesh,32.219,76.3234,21.8,100,0.1,865.6,8.25,24.1,66,11.7,7.9,7.9,354.0,73.0,0.9,6,5,7,1,2026-07-18T05:24:22.467339+05:30
Dalhousie,Himachal Pradesh,32.5387,75.971,18.5,100,0.2,802.3,8.15,23.4,105,52.5,30.5,5.5,282.0,128.0,3.9,6,10,7,1,2026-07-18T05:24:22.467347+05:30
Patiala,Punjab,30.3398,76.3869,28.6,87,0.0,971.6,6.9,22.7,184,135.0,100.8,50.7,951.0,25.0,13.4,7,5,7,1,2026-07-18T05:24:22.467353+05:30
Bhatinda,Punjab,30.211,74.9455,31.2,62,0.0,976.8,8.25,31.3,173,154.6,85.9,49.8,531.0,11.0,9.0,3,5,7,1,2026-07-18T05:24:22.467359+05:30
Rohtak,Haryana,28.8955,76.6066,30.0,61,0.0,975.5,7.65,31.3,633,326.0,89.4,33.6,229.0,23.0,4.4,7,5,7,1,2026-07-18T05:24:22.467365+05:30
Panipat,Haryana,29.3909,76.9635,29.1,76,0.0,973.7,7.15,28.1,1008,416.3,138.8,50.3,661.0,6.0,7.1,7,5,7,1,2026-07-18T05:24:22.467371+05:30
Mathura,Uttar Pradesh,27.4924,77.6737,29.6,71,0.0,980.6,7.7,27.0,608,551.3,94.1,21.8,242.0,36.0,5.3,7,5,7,1,2026-07-18T05:24:22.467377+05:30
Vrindavan,Uttar Pradesh,27.5823,77.7027,29.7,71,0.0,981.0,7.85,26.3,608,551.3,94.1,21.8,253.0,36.0,5.3,7,5,7,1,2026-07-18T05:24:22.467383+05:30
Ayodhya,Uttar Pradesh,26.7922,82.1998,26.9,96,0.0,990.1,7.3,20.9,99,41.3,40.4,18.6,701.0,63.0,5.0,7,5,7,1,2026-07-18T05:24:22.467389+05:30
Ratlam,Madhya Pradesh,23.3315,75.0367,24.8,90,0.0,951.3,7.05,33.8,71,23.8,15.7,11.1,200.0,38.0,13.7,3,5,7,1,2026-07-18T05:24:22.467395+05:30
Sagar,Madhya Pradesh,23.8388,78.7378,24.4,95,0.1,945.9,8.15,34.9,94,32.6,24.1,8.3,243.0,56.0,4.3,6,5,7,1,2026-07-18T05:24:22.467401+05:30
Satna,Madhya Pradesh,24.6005,80.8322,26.3,86,0.0,966.1,8.25,35.3,105,51.7,33.5,12.1,200.0,48.0,3.8,7,5,7,1,2026-07-18T05:24:22.467407+05:30
Akola,Maharashtra,20.7002,77.0082,25.7,91,0.0,972.2,2.05,39.6,62,13.7,8.7,9.7,140.0,29.0,7.1,7,5,3,1,2026-07-18T05:24:22.467413+05:30
Amravati,Maharashtra,20.9374,77.7796,25.5,90,0.0,964.1,1.2,40.0,66,13.7,8.9,10.6,155.0,29.0,8.9,7,5,3,1,2026-07-18T05:24:22.467420+05:30
Latur,Maharashtra,18.4088,76.5604,23.2,86,0.0,937.6,1.25,36.0,53,12.5,7.9,7.5,148.0,33.0,4.0,3,5,3,1,2026-07-18T05:24:22.467427+05:30
Nanded,Maharashtra,19.1383,77.3091,24.6,94,0.1,966.1,1.6,33.8,68,15.6,11.0,7.6,172.0,49.0,4.1,6,5,3,1,2026-07-18T05:24:22.467433+05:30
Gulbarga,Karnataka,17.3297,76.8343,24.1,86,0.0,957.1,4.25,42.5,52,9.1,6.4,8.0,128.0,31.0,3.2,3,5,3,1,2026-07-18T05:24:22.467438+05:30
Bidar,Karnataka,17.9104,77.5199,23.3,90,0.0,933.2,2.6,40.3,62,11.5,7.8,6.3,145.0,45.0,2.8,3,5,3,1,2026-07-18T05:24:22.467444+05:30
Hospet,Karnataka,15.2689,76.3909,23.5,85,0.0,955.2,6.8,54.4,25,5.3,3.2,3.3,105.0,41.0,1.7,3,5,7,1,2026-07-18T05:24:22.467450+05:30
Tirupur,Tamil Nadu,11.1085,77.3411,22.8,91,0.0,975.2,5.25,51.1,57,23.3,18.4,22.9,139.0,15.0,5.7,3,5,3,1,2026-07-18T05:24:22.467455+05:30
Alappuzha,Kerala,9.4981,76.3388,24.6,94,0.0,1010.6,8.05,42.5,60,23.9,13.1,9.4,113.0,35.0,4.7,3,0,4,1,2026-07-18T05:24:22.467461+05:30
Munnar,Kerala,10.0889,77.0595,16.0,100,0.0,856.5,7.4,40.7,30,8.4,5.0,5.5,90.0,23.0,0.9,3,10,7,0,2026-07-18T05:24:22.467467+05:30
Silchar,Assam,24.8333,92.7789,26.2,94,0.1,1002.8,8.15,30.6,73,29.2,19.0,5.5,252.0,54.0,3.8,10,5,4,1,2026-07-18T05:24:22.467472+05:30
Dibrugarh,Assam,27.4728,94.912,25.4,98,0.0,991.6,1.75,33.5,58,15.9,12.7,7.3,181.0,57.0,1.6,7,5,3,1,2026-07-18T05:24:22.467478+05:30
