city,state,latitude,longitude,temp,humidity,rain,pressure,uv_index,wind_gusts,aqi,pm10,pm2_5,no2,co,o3,so2,mosquito_risk,arthritis_risk,migraine_risk,frizz_risk,updated_at
Delhi,Delhi,28.6139,77.209,33.2,26,0.0,976.8,7.75,56.9,583,715.3,153.7,58.7,931.0,27.0,19.4,0,5,7,0,2026-05-28T03:28:49.821458+05:30
Mumbai,Maharashtra,19.076,72.8777,29.8,73,0.0,1008.5,7.8,40.3,43,34.9,13.8,5.2,145.0,46.0,3.7,7,0,4,1,2026-05-28T03:28:49.821495+05:30
Bangalore,Karnataka,12.9716,77.5946,22.0,90,0.0,911.6,9.25,27.0,71,15.7,15.1,18.1,347.0,52.0,5.8,3,5,7,1,2026-05-28T03:28:49.821510+05:30
Hyderabad,Telangana,17.385,78.4867,26.8,69,0.0,951.7,9.1,32.8,69,23.2,19.6,14.8,319.0,72.0,13.9,7,5,7,1,2026-05-28T03:28:49.821519+05:30
Chennai,Tamil Nadu,13.0827,80.2707,30.0,81,0.0,1005.5,8.8,39.6,77,15.4,12.7,14.4,257.0,52.0,14.7,7,5,4,1,2026-05-28T03:28:49.821528+05:30
Kolkata,West Bengal,22.5726,88.3639,26.7,95,0.0,1003.5,8.9,41.4,115,41.1,33.6,8.0,299.0,84.0,5.4,7,5,4,1,2026-05-28T03:28:49.821535+05:30
Pune,Maharashtra,18.5204,73.8567,24.4,90,0.0,948.1,8.4,37.8,42,10.2,8.3,11.9,154.0,38.0,11.2,3,5,7,1,2026-05-28T03:28:49.821542+05:30
Ahmedabad,Gujarat,23.0225,72.5714,30.0,72,0.0,1000.5,8.1,40.7,69,37.0,19.2,5.0,126.0,49.0,3.8,7,5,4,1,2026-05-28T03:28:49.821548+05:30
Jaipur,Rajasthan,26.9124,75.7873,34.0,28,0.0,955.7,8.25,49.0,187,395.8,74.0,3.8,158.0,79.0,3.7,0,5,7,0,2026-05-28T03:28:49.821559+05:30
Lucknow,Uttar Pradesh,26.8467,80.9462,29.5,63,0.0,989.6,8.2,46.1,129,62.6,43.5,8.4,397.0,127.0,14.0,7,5,7,1,2026-05-28T03:28:49.821566+05:30
Kanpur,Uttar Pradesh,26.4499,80.3319,31.7,51,0.0,987.1,8.2,38.9,231,261.7,67.1,11.3,406.0,110.0,13.2,0,5,7,1,2026-05-28T03:28:49.821573+05:30
Chandigarh,Chandigarh,30.7333,76.7794,26.0,39,0.0,962.1,7.75,55.4,67,36.4,29.9,32.9,285.0,29.0,5.5,4,5,7,0,2026-05-28T03:28:49.821580+05:30
Srinagar,Jammu and Kashmir,34.0837,74.7973,12.8,86,0.0,838.6,6.5,29.5,76,39.8,30.4,22.5,405.0,18.0,0.1,3,10,7,0,2026-05-28T03:28:49.821587+05:30
Jammu,Jammu and Kashmir,32.7266,74.857,25.0,40,0.0,965.8,8.45,43.6,74,31.3,23.5,27.6,305.0,32.0,2.8,4,5,7,0,2026-05-28T03:28:49.821593+05:30
Amritsar,Punjab,31.634,74.8723,29.1,39,0.0,974.3,8.4,41.4,96,68.2,56.8,46.0,609.0,30.0,10.4,4,5,7,0,2026-05-28T03:28:49.821599+05:30
Ludhiana,Punjab,30.901,75.8573,30.0,33,0.0,972.1,8.0,49.3,81,46.0,40.2,27.4,623.0,51.0,8.7,4,5,7,0,2026-05-28T03:28:49.821605+05:30
Jalandhar,Punjab,31.326,75.5762,30.1,31,0.0,973.2,8.2,37.4,91,79.4,52.9,35.2,808.0,51.0,8.7,0,5,7,0,2026-05-28T03:28:49.821611+05:30
Dehradun,Uttarakhand,30.6284,78.0322,16.5,43,0.0,826.1,8.2,40.3,61,29.4,19.0,29.1,170.0,28.0,0.5,0,5,7,0,2026-05-28T03:28:49.821617+05:30
Shimla,Himachal Pradesh,31.1048,77.1734,15.1,36,0.0,781.1,8.25,47.9,56,37.1,17.8,17.8,196.0,84.0,1.4,0,5,7,0,2026-05-28T03:28:49.821630+05:30
Manali,Himachal Pradesh,32.2396,77.1887,11.3,49,0.0,813.5,9.55,58.3,58,16.1,9.4,62.2,224.0,58.0,0.0,0,5,7,0,2026-05-28T03:28:49.821636+05:30
Gurgaon,Haryana,28.4595,77.0266,31.0,30,0.0,975.2,7.85,65.5,907,1143.7,186.7,37.4,483.0,41.0,13.9,0,5,7,0,2026-05-28T03:28:49.821646+05:30
Noida,Uttar Pradesh,28.5355,77.391,29.0,48,0.0,978.3,7.75,64.8,907,1143.7,186.7,37.4,1195.0,41.0,13.9,4,5,7,1,2026-05-28T03:28:49.821653+05:30
Ghaziabad,Uttar Pradesh,28.6692,77.4538,28.5,49,0.0,977.0,7.75,77.8,433,925.7,188.6,48.4,665.0,39.0,23.1,4,5,7,1,2026-05-28T03:28:49.821659+05:30
Faridabad,Haryana,28.4089,77.3178,31.2,33,0.0,977.5,7.8,72.4,907,1143.7,186.7,37.4,593.0,41.0,13.9,0,5,7,0,2026-05-28T03:28:49.821666+05:30
Meerut,Uttar Pradesh,28.9845,77.7064,28.5,48,0.0,976.2,7.65,58.7,433,925.7,188.6,48.4,874.0,39.0,23.1,4,5,7,1,2026-05-28T03:28:49.821672+05:30
Agra,Uttar Pradesh,27.1767,78.0081,32.5,27,0.0,981.7,8.1,45.0,711,879.2,133.6,26.8,491.0,43.0,9.1,0,5,7,0,2026-05-28T03:28:49.821678+05:30
Varanasi,Uttar Pradesh,25.3176,82.9739,28.9,64,0.0,993.5,8.7,38.2,148,52.4,46.6,8.8,386.0,126.0,20.7,7,5,7,1,2026-05-28T03:28:49.821685+05:30
Prayagraj,Uttar Pradesh,25.4358,81.8463,31.1,55,0.0,991.2,8.6,38.5,125,57.6,49.1,8.5,440.0,139.0,18.1,0,5,7,1,2026-05-28T03:28:49.821691+05:30
Gorakhpur,Uttar Pradesh,26.7606,83.3732,26.9,71,0.0,995.4,8.6,43.2,104,30.9,26.4,9.9,393.0,97.0,10.5,7,5,7,1,2026-05-28T03:28:49.821699+05:30
Bareilly,Uttar Pradesh,28.367,79.4304,28.6,60,0.0,982.9,8.05,42.1,117,68.0,38.3,14.6,436.0,92.0,10.0,4,5,7,1,2026-05-28T03:28:49.821705+05:30
Aligarh,Uttar Pradesh,27.8974,78.088,30.1,38,0.0,979.8,7.9,71.6,620,776.7,154.6,38.3,648.0,41.0,11.0,0,5,7,0,2026-05-28T03:28:49.821712+05:30
Moradabad,Uttar Pradesh,28.8386,78.7733,29.5,56,0.0,979.4,7.85,48.6,130,39.1,37.5,19.2,438.0,86.0,12.5,4,5,7,1,2026-05-28T03:28:49.821718+05:30
Saharanpur,Uttar Pradesh,29.9637,77.546,28.2,50,0.0,970.5,7.5,48.6,111,117.8,57.6,36.8,585.0,54.0,12.6,4,5,7,1,2026-05-28T03:28:49.821724+05:30
Jhansi,Uttar Pradesh,25.4484,78.5685,33.3,26,0.0,972.7,8.45,46.4,74,30.2,16.8,4.5,160.0,65.0,2.5,0,5,7,0,2026-05-28T03:28:53.213232+05:30
Surat,Gujarat,21.1702,72.8311,29.5,77,0.0,1006.3,7.7,48.6,80,47.1,24.4,15.1,235.0,38.0,26.4,7,5,4,1,2026-05-28T03:28:53.213261+05:30
Vadodara,Gujarat,22.3072,73.1812,29.6,75,0.0,1003.1,8.05,44.6,77,32.6,21.5,14.9,126.0,34.0,16.2,7,5,4,1,2026-05-28T03:28:53.213271+05:30
Rajkot,Gujarat,22.3039,70.8022,28.0,80,0.0,993.3,7.7,48.6,69,36.6,17.8,3.9,113.0,45.0,4.3,7,5,7,1,2026-05-28T03:28:53.213280+05:30
Thane,Maharashtra,19.2183,72.9781,29.0,80,0.0,1007.9,7.8,39.6,43,34.9,13.8,5.2,165.0,46.0,3.7,7,5,4,1,2026-05-28T03:28:53.213288+05:30
Nagpur,Maharashtra,21.1458,79.0882,33.8,23,0.0,969.8,8.8,45.0,68,27.2,17.8,12.5,220.0,63.0,9.6,0,5,7,0,2026-05-28T03:28:53.213296+05:30
Nashik,Maharashtra,19.9975,73.7898,24.0,89,0.0,945.7,8.15,40.0,39,22.1,11.3,8.0,123.0,38.0,5.5,3,5,7,1,2026-05-28T03:28:53.213303+05:30
Aurangabad,Maharashtra,19.8762,75.3433,26.2,73,0.0,943.6,9.0,42.1,47,20.6,13.1,9.1,156.0,45.0,5.5,7,5,7,1,2026-05-28T03:28:53.213311+05:30
Solapur,Maharashtra,17.6599,75.9064,27.7,68,0.0,956.9,8.95,34.9,51,12.3,10.6,6.8,152.0,75.0,7.4,7,5,7,1,2026-05-28T03:28:53.213319+05:30
Kolhapur,Maharashtra,16.705,74.2433,23.6,95,0.0,948.1,8.8,42.5,31,7.3,5.6,4.9,146.0,42.0,2.1,3,5,7,1,2026-05-28T03:28:53.213327+05:30
Goa,Goa,15.2993,74.124,26.4,97,0.1,998.5,7.05,28.8,37,17.5,13.9,5.9,321.0,38.0,1.5,10,5,7,1,2026-05-28T03:28:53.213334+05:30
Jodhpur,Rajasthan,26.2389,73.0243,32.8,39,0.0,979.4,8.4,51.1,166,243.1,54.7,3.5,141.0,62.0,2.2,0,5,7,1,2026-05-28T03:28:53.213341+05:30
Udaipur,Rajasthan,24.5854,73.7125,29.0,54,0.0,944.2,8.8,48.6,66,36.8,19.3,3.7,142.0,69.0,2.9,4,5,7,1,2026-05-28T03:28:53.213381+05:30
Kota,Rajasthan,25.2138,75.8648,34.5,28,0.0,974.6,8.35,42.1,74,38.2,22.1,6.2,178.0,65.0,5.9,0,5,7,0,2026-05-28T03:28:53.213392+05:30
Bikaner,Rajasthan,28.0229,73.3119,35.0,25,0.0,976.7,8.45,41.8,141,144.8,53.0,2.4,128.0,73.0,4.5,0,5,7,0,2026-05-28T03:28:53.213400+05:30
Ajmer,Rajasthan,26.4499,74.6399,32.1,36,0.0,951.1,8.35,54.0,74,46.7,19.9,3.6,139.0,73.0,3.5,0,5,7,0,2026-05-28T03:28:53.213408+05:30
Gwalior,Madhya Pradesh,26.2183,78.1828,34.5,26,0.0,977.5,8.25,49.3,92,30.7,20.1,7.4,169.0,55.0,3.4,0,5,7,0,2026-05-28T03:28:53.213415+05:30
Indore,Madhya Pradesh,22.7196,75.8577,29.5,56,0.0,946.6,8.65,47.2,68,50.3,27.8,4.8,219.0,93.0,7.9,4,5,7,1,2026-05-28T03:28:53.213423+05:30
Bhopal,Madhya Pradesh,23.2599,77.4126,32.9,30,0.0,951.0,8.7,39.6,68,38.2,22.3,4.0,184.0,82.0,4.8,0,5,7,0,2026-05-28T03:28:53.213430+05:30
Jabalpur,Madhya Pradesh,23.1815,79.9864,33.3,23,0.0,958.1,8.85,37.1,73,30.5,19.7,10.8,208.0,62.0,4.0,0,5,7,0,2026-05-28T03:28:53.213437+05:30
Ujjain,Madhya Pradesh,23.1765,75.7885,29.5,58,0.0,952.1,8.6,49.7,70,48.5,28.1,4.2,201.0,93.0,9.3,4,5,7,1,2026-05-28T03:28:53.213445+05:30
Visakhapatnam,Andhra Pradesh,17.6868,83.2185,30.2,82,0.0,1000.0,9.0,47.9,138,47.1,36.9,27.0,511.0,70.0,31.6,3,5,4,1,2026-05-28T03:28:53.213455+05:30
Vijayawada,Andhra Pradesh,16.5062,80.648,31.3,57,0.0,999.6,8.65,35.6,85,37.6,33.1,14.3,280.0,76.0,6.3,0,5,7,1,2026-05-28T03:28:53.213462+05:30
Guntur,Andhra Pradesh,16.3067,80.4365,30.4,62,0.0,1001.0,8.3,32.4,77,37.1,31.8,16.2,278.0,68.0,6.5,3,5,4,1,2026-05-28T03:28:53.213470+05:30
Nellore,Andhra Pradesh,14.4426,79.9865,27.0,81,0.0,1004.1,9.0,35.6,75,34.1,31.9,12.0,306.0,91.0,11.6,7,5,4,1,2026-05-28T03:28:53.213478+05:30
Kurnool,Andhra Pradesh,15.8281,78.0373,27.9,63,0.0,976.2,9.0,67.0,60,13.7,12.2,11.8,209.0,61.0,8.4,7,5,7,1,2026-05-28T03:28:53.213486+05:30
Kakinada,Andhra Pradesh,16.9891,82.2475,31.0,68,0.0,1003.7,9.0,40.7,91,31.5,24.6,5.4,283.0,115.0,4.3,3,5,4,1,2026-05-28T03:28:53.213494+05:30
Tirupati,Andhra Pradesh,13.6288,79.4192,25.5,77,0.0,989.8,9.05,25.9,78,44.9,39.1,32.5,513.0,39.0,10.6,7,5,7,1,2026-05-28T03:28:53.213501+05:30
Warangal,Telangana,17.9689,79.5941,29.9,58,0.0,975.7,9.05,37.8,85,35.4,30.4,18.5,332.0,60.0,7.7,4,5,7,1,2026-05-28T03:28:53.213509+05:30
Nizamabad,Telangana,18.6725,78.0941,29.9,52,0.0,962.9,9.0,34.9,65,36.3,29.8,22.9,334.0,44.0,5.5,4,5,7,1,2026-05-28T03:28:53.213516+05:30
Mysore,Karnataka,12.2958,76.6396,22.0,95,0.0,928.8,9.1,34.9,51,6.4,6.1,6.6,148.0,56.0,2.3,3,5,7,1,2026-05-28T03:28:53.213522+05:30
Mangalore,Karnataka,12.9141,74.856,26.0,96,0.0,1007.5,8.65,41.0,51,12.0,9.9,8.4,282.0,46.0,2.7,7,5,4,1,2026-05-28T03:28:53.213530+05:30
Hubli-Dharwad,Karnataka,15.3647,75.124,23.9,96,0.0,941.3,9.0,47.5,24,5.1,4.2,5.7,152.0,38.0,1.4,3,5,7,1,2026-05-28T03:28:53.213537+05:30
Belgaum,Karnataka,15.8497,74.4977,22.6,98,0.0,926.2,9.0,44.6,30,7.7,5.9,4.0,130.0,42.0,1.3,3,5,7,1,2026-05-28T03:28:56.589575+05:30
Coimbatore,Tamil Nadu,11.0168,76.9558,25.5,82,0.0,961.6,8.4,49.7,34,5.0,4.2,3.8,132.0,59.0,2.2,7,5,7,1,2026-05-28T03:28:56.589603+05:30
Madurai,Tamil Nadu,9.9252,78.1198,27.4,75,0.0,992.6,7.9,47.5,88,40.7,37.4,37.7,199.0,9.0,5.5,7,5,7,1,2026-05-28T03:28:56.589613+05:30
Trichy,Tamil Nadu,10.7905,78.7047,28.4,69,0.0,999.2,7.95,38.5,55,12.3,11.6,13.5,160.0,46.0,4.3,7,5,7,1,2026-05-28T03:28:56.589621+05:30
Salem,Tamil Nadu,11.6643,78.146,27.6,70,0.0,977.4,8.0,34.2,66,12.3,11.2,16.2,268.0,40.0,6.6,7,5,7,1,2026-05-28T03:28:56.589628+05:30
Tirunelveli,Tamil Nadu,8.7139,77.7567,28.8,69,0.0,1003.5,7.8,40.3,27,9.1,7.7,7.5,166.0,36.0,1.9,7,5,4,1,2026-05-28T03:28:56.589635+05:30
Vellore,Tamil Nadu,12.9165,79.1325,26.1,79,0.0,983.4,8.85,34.6,88,39.6,33.8,19.7,269.0,51.0,8.3,7,5,7,1,2026-05-28T03:28:56.589641+05:30
Erode,Tamil Nadu,11.341,77.7172,26.9,78,0.0,989.0,8.05,46.8,49,7.3,6.8,9.6,154.0,43.0,3.6,7,5,7,1,2026-05-28T03:28:56.589648+05:30
Kochi,Kerala,9.9312,76.2673,26.2,95,0.0,1009.8,6.4,28.1,51,17.9,16.3,17.6,219.0,18.0,4.8,7,0,4,1,2026-05-28T03:28:56.589655+05:30
Thiruvananthapuram,Kerala,8.5241,76.9366,25.4,94,0.0,1009.2,6.55,29.9,27,12.4,7.0,3.7,234.0,48.0,1.8,7,0,4,1,2026-05-28T03:28:56.589662+05:30
Kozhikode,Kerala,11.2588,75.7804,24.8,99,0.1,1009.1,8.3,28.8,28,9.0,6.6,3.7,499.0,56.0,2.2,6,0,4,1,2026-05-28T03:28:56.589669+05:30
Thrissur,Kerala,10.5276,76.2144,24.8,97,0.0,1008.1,7.45,28.8,47,15.0,13.6,14.1,244.0,27.0,5.0,3,0,4,1,2026-05-28T03:28:56.589676+05:30
Kannur,Kerala,11.8745,75.3704,25.6,98,0.1,1008.3,8.65,33.8,41,8.9,7.4,6.2,208.0,43.0,2.4,10,0,4,1,2026-05-28T03:28:56.589684+05:30
Patna,Bihar,25.5941,85.1376,26.3,78,0.0,998.0,8.75,49.3,105,33.1,30.2,12.3,337.0,91.0,19.1,7,5,7,1,2026-05-28T03:28:56.589691+05:30
Gaya,Bihar,24.7914,85.0002,27.0,70,0.0,990.1,8.8,38.2,132,36.3,33.3,9.8,417.0,96.0,16.8,7,5,7,1,2026-05-28T03:28:56.589697+05:30
Muzaffarpur,Bihar,26.1209,85.3647,25.4,82,0.0,998.8,8.7,46.4,90,29.4,26.7,11.7,324.0,87.0,12.9,7,5,7,1,2026-05-28T03:28:56.589704+05:30
Bhagalpur,Bihar,25.2425,87.0117,25.0,90,0.0,1000.1,8.65,46.1,97,37.4,34.8,14.8,349.0,73.0,9.6,7,5,4,1,2026-05-28T03:28:56.589711+05:30
Ranchi,Jharkhand,23.3441,85.3096,23.4,72,0.0,934.9,9.05,36.7,125,63.6,53.8,10.0,344.0,115.0,23.2,3,5,7,1,2026-05-28T03:28:56.589717+05:30
Jamshedpur,Jharkhand,22.8046,86.2029,25.0,94,0.0,988.4,9.05,32.4,152,34.3,30.3,8.7,278.0,78.0,12.0,7,5,7,1,2026-05-28T03:28:56.589724+05:30
Dhanbad,Jharkhand,23.7957,86.4304,24.9,89,0.0,977.6,9.0,36.4,160,81.0,71.9,32.1,675.0,68.0,81.0,3,5,7,1,2026-05-28T03:28:56.589731+05:30
Bokaro,Jharkhand,23.6693,86.1511,25.2,84,0.0,981.5,9.0,40.7,161,89.9,80.6,38.1,786.0,64.0,95.0,7,5,7,1,2026-05-28T03:28:56.589738+05:30
Bhubaneswar,Odisha,20.2961,85.8245,28.2,88,0.0,999.5,9.05,44.6,104,43.4,32.7,5.3,268.0,107.0,5.1,7,5,7,1,2026-05-28T03:28:56.589744+05:30
Cuttack,Odisha,20.4625,85.8828,27.9,91,0.0,1001.3,9.1,41.8,104,43.4,32.7,5.3,300.0,107.0,5.1,7,5,4,1,2026-05-28T03:28:56.589751+05:30
Rourkela,Odisha,22.2604,84.8536,26.1,81,0.0,981.8,8.9,36.7,150,76.4,59.8,32.2,321.0,43.0,28.3,7,5,7,1,2026-05-28T03:28:56.589757+05:30
Raipur,Chhattisgarh,21.2514,81.6296,32.5,32,0.0,970.2,8.95,33.1,99,40.4,32.1,32.8,544.0,52.0,51.5,0,5,7,0,2026-05-28T03:28:56.589764+05:30
Bhilai,Chhattisgarh,21.1938,81.3509,31.1,37,0.0,970.6,8.95,37.4,91,34.2,27.0,25.7,639.0,56.0,38.6,0,5,7,0,2026-05-28T03:28:56.589771+05:30
Guwahati,Assam,26.1158,91.7086,22.2,94,0.0,1001.3,8.75,19.4,77,44.8,42.6,21.7,525.0,29.0,2.0,3,5,4,1,2026-05-28T03:28:56.589778+05:30
Agartala,Tripura,23.8315,91.2868,22.5,98,0.0,1005.6,8.85,21.6,78,25.8,22.5,13.9,250.0,42.0,2.5,3,5,4,1,2026-05-28T03:28:56.589785+05:30
Shillong,Meghalaya,25.5788,91.8933,15.1,87,0.0,854.9,8.15,23.8,50,10.1,6.3,5.4,238.0,70.0,2.9,3,10,7,0,2026-05-28T03:28:56.589792+05:30
Imphal,Manipur,24.817,93.9368,20.1,99,0.0,922.3,9.25,31.3,92,73.1,60.3,40.4,657.0,24.0,8.0,3,5,7,1,2026-05-28T03:28:56.589799+05:30
Aizawl,Mizoram,23.7271,92.7176,15.9,97,0.0,890.3,9.05,27.7,61,18.0,12.7,8.8,287.0,22.0,0.8,3,10,7,0,2026-05-28T03:28:56.589805+05:30
Kohima,Nagaland,25.6701,94.1077,17.2,91,0.1,854.5,9.2,31.0,68,31.1,21.0,14.8,216.0,26.0,1.3,6,10,7,0,2026-05-28T03:28:56.589812+05:30
Gangtok,Sikkim,27.3314,88.6138,14.0,89,0.0,835.8,8.3,36.4,56,20.8,15.3,9.2,736.0,107.0,2.5,3,10,7,0,2026-05-28T03:28:56.589819+05:30
Siliguri,West Bengal,26.7271,88.3953,22.7,86,0.0,992.6,6.85,27.0,75,45.9,35.6,18.6,301.0,84.0,7.2,3,5,7,1,2026-05-28T03:28:59.966721+05:30
Durgapur,West Bengal,23.5204,87.3119,25.5,92,0.0,993.3,8.95,31.0,155,75.4,64.3,25.9,496.0,68.0,34.8,7,5,7,1,2026-05-28T03:28:59.966749+05:30
Asansol,West Bengal,23.6739,86.9524,25.4,94,0.0,991.6,8.95,32.4,156,71.7,62.4,26.0,525.0,70.0,45.0,7,5,7,1,2026-05-28T03:28:59.966759+05:30
Pondicherry,Puducherry,11.9139,79.8145,29.0,77,0.0,1007.0,7.45,38.9,75,15.5,12.7,12.4,272.0,56.0,8.4,7,5,4,1,2026-05-28T03:28:59.966766+05:30
Port Blair,Andaman and Nicobar Islands,11.6234,92.7265,24.2,98,0.2,1006.5,8.6,41.4,33,10.4,4.9,0.2,118.0,79.0,0.3,6,5,4,1,2026-05-28T03:28:59.966773+05:30
Haridwar,Uttarakhand,29.9457,78.1642,27.8,49,0.0,969.3,7.6,39.2,122,74.5,47.7,27.0,344.0,80.0,12.2,4,5,7,0,2026-05-28T03:28:59.966780+05:30
Rishikesh,Uttarakhand,30.0869,78.2676,21.8,67,0.0,961.4,7.7,35.3,148,64.5,48.3,21.4,505.0,95.0,8.1,3,5,7,0,2026-05-28T03:28:59.966787+05:30
Nainital,Uttarakhand,29.3919,79.4542,13.7,80,0.0,801.8,8.5,31.0,97,47.1,31.2,16.4,383.0,116.0,7.4,3,5,7,0,2026-05-28T03:28:59.966794+05:30
Mussoorie,Uttarakhand,30.4599,78.0664,17.7,39,0.0,800.7,8.1,50.4,73,45.1,36.3,41.7,209.0,37.0,7.7,0,5,7,0,2026-05-28T03:28:59.966800+05:30
Dharamshala,Himachal Pradesh,32.219,76.3234,24.2,29,0.0,866.2,8.3,42.8,51,19.4,12.3,13.0,171.0,46.0,0.3,0,5,7,0,2026-05-28T03:28:59.966807+05:30
Dalhousie,Himachal Pradesh,32.5387,75.971,12.6,55,0.0,798.9,8.6,39.6,64,27.0,19.9,40.0,231.0,10.0,1.1,0,5,7,0,2026-05-28T03:28:59.966815+05:30
Patiala,Punjab,30.3398,76.3869,31.0,30,0.0,971.7,7.65,48.6,473,158.8,52.7,19.4,421.0,66.0,10.1,0,5,7,0,2026-05-28T03:28:59.966821+05:30
Bhatinda,Punjab,30.211,74.9455,31.9,28,0.0,976.8,8.35,47.2,82,55.1,36.3,30.8,468.0,65.0,7.2,0,5,7,0,2026-05-28T03:28:59.966828+05:30
Rohtak,Haryana,28.8955,76.6066,29.6,39,0.0,975.2,7.8,63.7,714,504.8,103.8,40.8,485.0,33.0,6.3,4,5,7,0,2026-05-28T03:28:59.966835+05:30
Panipat,Haryana,29.3909,76.9635,30.6,27,0.0,974.3,7.65,52.9,1328,948.1,184.9,42.9,478.0,39.0,9.2,0,5,7,0,2026-05-28T03:28:59.966842+05:30
Mathura,Uttar Pradesh,27.4924,77.6737,31.9,31,0.0,980.7,8.05,75.2,635,510.4,94.1,29.9,432.0,39.0,6.4,0,5,7,0,2026-05-28T03:28:59.966848+05:30
Vrindavan,Uttar Pradesh,27.5823,77.7027,31.1,37,0.0,981.0,8.0,76.3,635,510.4,94.1,29.9,451.0,39.0,6.4,0,5,7,0,2026-05-28T03:28:59.966855+05:30
Ayodhya,Uttar Pradesh,26.7922,82.1998,27.6,65,0.0,992.7,8.35,45.7,112,42.3,34.3,7.7,382.0,119.0,12.8,7,5,7,1,2026-05-28T03:28:59.966861+05:30
Ratlam,Madhya Pradesh,23.3315,75.0367,27.8,69,0.0,953.4,8.5,50.8,72,44.4,28.1,5.9,227.0,80.0,13.9,7,5,7,1,2026-05-28T03:28:59.966868+05:30
Sagar,Madhya Pradesh,23.8388,78.7378,32.8,27,0.0,947.1,8.7,44.6,70,43.4,23.4,5.5,166.0,80.0,4.9,0,5,7,0,2026-05-28T03:28:59.966875+05:30
Satna,Madhya Pradesh,24.6005,80.8322,29.9,55,0.0,966.4,8.75,49.3,83,137.8,45.2,22.7,272.0,64.0,6.2,4,5,7,1,2026-05-28T03:28:59.966881+05:30
Akola,Maharashtra,20.7002,77.0082,31.4,48,0.0,973.2,8.8,42.8,59,38.9,25.6,8.4,194.0,87.0,12.3,0,5,7,1,2026-05-28T03:28:59.966889+05:30
Amravati,Maharashtra,20.9374,77.7796,32.2,37,0.0,965.2,8.85,41.0,59,34.5,22.7,8.9,196.0,79.0,9.9,0,5,7,0,2026-05-28T03:28:59.966896+05:30
Latur,Maharashtra,18.4088,76.5604,27.8,55,0.0,938.9,8.95,32.4,61,17.8,14.7,9.5,214.0,76.0,6.3,4,5,7,1,2026-05-28T03:28:59.966902+05:30
Nanded,Maharashtra,19.1383,77.3091,31.6,41,0.0,966.8,8.9,36.0,55,31.4,22.6,17.8,254.0,48.0,6.2,0,5,7,1,2026-05-28T03:28:59.966909+05:30
Gulbarga,Karnataka,17.3297,76.8343,28.0,66,0.0,957.9,8.95,37.8,52,12.5,10.4,10.8,186.0,51.0,3.1,7,5,7,1,2026-05-28T03:28:59.966915+05:30
Bidar,Karnataka,17.9104,77.5199,27.7,55,0.0,934.6,8.15,33.1,67,28.7,23.2,19.9,260.0,62.0,7.2,4,5,7,1,2026-05-28T03:28:59.966921+05:30
Hospet,Karnataka,15.2689,76.3909,24.9,93,0.0,956.3,8.9,51.1,35,5.7,4.9,5.4,145.0,43.0,1.4,3,5,7,1,2026-05-28T03:28:59.966928+05:30
Tirupur,Tamil Nadu,11.1085,77.3411,26.5,77,0.0,974.9,8.1,49.0,50,7.9,7.4,9.8,126.0,44.0,3.8,7,5,7,1,2026-05-28T03:28:59.966934+05:30
Alappuzha,Kerala,9.4981,76.3388,25.9,98,0.0,1009.8,7.7,24.1,39,15.3,12.5,11.7,218.0,38.0,3.3,7,0,4,1,2026-05-28T03:28:59.966940+05:30
Munnar,Kerala,10.0889,77.0595,17.8,100,0.0,857.3,7.5,28.4,33,6.5,6.0,7.8,134.0,32.0,1.4,3,10,7,1,2026-05-28T03:28:59.966947+05:30
Silchar,Assam,24.8333,92.7789,23.0,100,0.0,1005.0,8.9,20.5,87,44.6,33.3,11.1,537.0,68.0,5.1,3,5,4,1,2026-05-28T03:28:59.966953+05:30
Dibrugarh,Assam,27.4728,94.912,24.5,90,0.2,994.9,8.6,34.9,92,52.5,44.6,28.7,601.0,0.0,1.2,6,5,7,1,2026-05-28T03:28:59.966960+05:30
