city,state,latitude,longitude,temp,humidity,rain,pressure,uv_index,wind_gusts,aqi,pm10,pm2_5,mosquito_risk,arthritis_risk,migraine_risk,frizz_risk,updated_at
Delhi,Delhi,28.6139,77.209,29.9,32,0.0,977.4,7.45,47.2,544,562.5,109.4,4,5,7,0,2026-04-27T03:11:06.690285+05:30
Mumbai,Maharashtra,19.076,72.8777,27.8,89,0.0,1005.6,8.05,40.3,92,66.8,24.9,7,5,4,1,2026-04-27T03:11:06.690338+05:30
Bangalore,Karnataka,12.9716,77.5946,24.9,50,0.0,910.1,9.55,33.8,86,27.1,25.1,0,5,7,0,2026-04-27T03:11:06.690355+05:30
Hyderabad,Telangana,17.385,78.4867,28.0,60,0.0,950.1,9.2,29.9,99,34.0,29.2,4,5,7,1,2026-04-27T03:11:06.690366+05:30
Chennai,Tamil Nadu,13.0827,80.2707,27.5,92,0.0,1004.6,9.25,56.5,48,19.8,13.4,7,5,4,1,2026-04-27T03:11:06.690376+05:30
Kolkata,West Bengal,22.5726,88.3639,27.9,85,0.0,1000.6,8.8,46.8,58,18.9,13.6,7,5,4,1,2026-04-27T03:11:06.690385+05:30
Pune,Maharashtra,18.5204,73.8567,26.0,64,0.0,944.9,8.1,42.5,94,40.0,24.0,7,5,7,1,2026-04-27T03:11:06.690396+05:30
Ahmedabad,Gujarat,23.0225,72.5714,32.2,28,0.0,997.9,8.2,45.4,60,19.0,10.6,0,5,7,0,2026-04-27T03:11:06.690405+05:30
Jaipur,Rajasthan,26.9124,75.7873,31.5,23,0.0,954.8,8.05,39.6,137,156.9,30.6,0,5,7,0,2026-04-27T03:11:06.690413+05:30
Lucknow,Uttar Pradesh,26.8467,80.9462,27.7,68,0.0,988.2,7.9,42.5,180,261.7,67.1,7,5,7,1,2026-04-27T03:11:06.690421+05:30
Kanpur,Uttar Pradesh,26.4499,80.3319,30.6,28,0.0,985.7,7.95,49.3,530,291.5,51.5,0,5,7,0,2026-04-27T03:11:06.690429+05:30
Chandigarh,Chandigarh,30.7333,76.7794,26.5,29,0.0,962.6,7.3,45.4,61,20.1,16.0,4,5,7,0,2026-04-27T03:11:06.690437+05:30
Srinagar,Jammu and Kashmir,34.0837,74.7973,9.8,88,0.0,837.1,8.3,20.2,75,31.8,26.5,3,10,7,0,2026-04-27T03:11:06.690445+05:30
Jammu,Jammu and Kashmir,32.7266,74.857,21.7,41,0.0,966.3,8.25,30.2,67,25.2,20.7,0,5,7,0,2026-04-27T03:11:06.690453+05:30
Amritsar,Punjab,31.634,74.8723,26.0,38,0.0,974.7,8.15,35.6,74,47.0,29.5,4,5,7,0,2026-04-27T03:11:06.690460+05:30
Ludhiana,Punjab,30.901,75.8573,26.2,39,0.0,972.8,7.7,34.6,76,40.2,29.5,4,5,7,0,2026-04-27T03:11:06.690468+05:30
Jalandhar,Punjab,31.326,75.5762,25.8,38,0.0,973.8,7.9,28.1,82,41.3,34.9,4,5,7,0,2026-04-27T03:11:06.690477+05:30
Dehradun,Uttarakhand,30.6284,78.0322,12.9,52,0.0,824.0,7.9,43.9,40,20.5,11.6,0,5,7,0,2026-04-27T03:11:06.690484+05:30
Shimla,Himachal Pradesh,31.1048,77.1734,11.7,43,0.0,778.6,7.8,50.0,48,24.4,12.9,0,5,7,1,2026-04-27T03:11:06.690490+05:30
Manali,Himachal Pradesh,32.2396,77.1887,6.8,42,0.0,809.7,9.15,41.4,51,22.4,9.2,0,5,7,1,2026-04-27T03:11:06.690497+05:30
Gurgaon,Haryana,28.4595,77.0266,27.3,33,0.0,975.6,7.55,36.4,1354,607.2,105.7,4,5,7,0,2026-04-27T03:11:06.690504+05:30
Noida,Uttar Pradesh,28.5355,77.391,29.0,29,0.0,978.7,7.45,43.9,1354,607.2,105.7,4,5,7,0,2026-04-27T03:11:06.690511+05:30
Ghaziabad,Uttar Pradesh,28.6692,77.4538,27.5,29,0.0,976.8,7.4,41.4,455,536.4,107.6,4,5,7,0,2026-04-27T03:11:06.690518+05:30
Faridabad,Haryana,28.4089,77.3178,31.4,23,0.0,978.1,7.5,47.5,1354,607.2,105.7,0,5,7,0,2026-04-27T03:11:06.690524+05:30
Meerut,Uttar Pradesh,28.9845,77.7064,27.0,31,0.0,975.5,7.35,40.3,455,536.4,107.6,4,5,7,0,2026-04-27T03:11:06.690530+05:30
Agra,Uttar Pradesh,27.1767,78.0081,30.1,30,0.0,981.8,7.8,45.4,800,187.2,41.8,0,5,7,0,2026-04-27T03:11:06.690544+05:30
Varanasi,Uttar Pradesh,25.3176,82.9739,27.8,70,0.0,991.9,8.5,44.3,143,85.0,66.1,7,5,7,1,2026-04-27T03:11:06.690553+05:30
Prayagraj,Uttar Pradesh,25.4358,81.8463,28.0,65,0.0,990.0,8.4,43.6,135,112.5,58.4,7,5,7,1,2026-04-27T03:11:06.690561+05:30
Gorakhpur,Uttar Pradesh,26.7606,83.3732,24.6,74,0.0,993.1,8.35,37.1,151,70.8,55.9,3,5,7,1,2026-04-27T03:11:06.690567+05:30
Bareilly,Uttar Pradesh,28.367,79.4304,26.5,35,0.0,980.9,7.6,45.0,121,264.5,65.0,4,5,7,0,2026-04-27T03:11:06.690577+05:30
Aligarh,Uttar Pradesh,27.8974,78.088,28.0,32,0.0,979.7,7.6,46.8,950,717.1,130.4,4,5,7,0,2026-04-27T03:11:06.690583+05:30
Moradabad,Uttar Pradesh,28.8386,78.7733,27.9,28,0.0,977.6,7.55,48.2,131,368.8,88.0,4,5,7,0,2026-04-27T03:11:06.690590+05:30
Saharanpur,Uttar Pradesh,29.9637,77.546,26.7,29,0.0,969.3,7.05,46.8,85,96.4,36.0,4,5,7,0,2026-04-27T03:11:06.690596+05:30
Jhansi,Uttar Pradesh,25.4484,78.5685,30.5,27,0.0,972.0,8.3,43.6,89,49.2,21.9,0,5,7,0,2026-04-27T03:11:09.935299+05:30
Surat,Gujarat,21.1702,72.8311,28.5,78,0.0,1002.6,7.85,40.7,118,44.4,27.6,7,5,4,1,2026-04-27T03:11:09.935335+05:30
Vadodara,Gujarat,22.3072,73.1812,30.0,41,0.0,999.9,8.15,41.4,78,41.4,27.7,4,5,7,0,2026-04-27T03:11:09.935346+05:30
Rajkot,Gujarat,22.3039,70.8022,26.9,53,0.0,991.1,7.9,49.0,58,35.2,13.8,4,5,7,1,2026-04-27T03:11:09.935354+05:30
Thane,Maharashtra,19.2183,72.9781,27.2,93,0.0,1005.0,8.05,37.1,92,66.8,24.9,7,5,4,1,2026-04-27T03:11:09.935362+05:30
Nagpur,Maharashtra,21.1458,79.0882,31.1,28,0.0,968.7,8.55,36.7,102,58.7,31.3,0,5,7,0,2026-04-27T03:11:09.935369+05:30
Nashik,Maharashtra,19.9975,73.7898,25.8,57,0.0,942.7,8.3,37.8,77,58.3,35.0,4,5,7,1,2026-04-27T03:11:09.935376+05:30
Aurangabad,Maharashtra,19.8762,75.3433,30.5,22,0.0,940.4,9.05,32.8,62,29.8,23.9,0,5,7,0,2026-04-27T03:11:09.935383+05:30
Solapur,Maharashtra,17.6599,75.9064,29.7,43,0.0,954.1,9.1,32.8,106,32.2,28.5,4,5,7,0,2026-04-27T03:11:09.935390+05:30
Kolhapur,Maharashtra,16.705,74.2433,24.3,93,0.0,945.7,9.0,49.7,96,26.7,17.6,3,5,7,1,2026-04-27T03:11:09.935397+05:30
Goa,Goa,15.2993,74.124,28.1,89,0.0,995.5,8.95,37.1,87,38.9,27.5,7,5,7,1,2026-04-27T03:11:09.935404+05:30
Jodhpur,Rajasthan,26.2389,73.0243,32.1,20,0.0,977.8,8.3,41.8,83,160.2,27.5,0,5,7,0,2026-04-27T03:11:09.935411+05:30
Udaipur,Rajasthan,24.5854,73.7125,30.0,19,0.0,942.6,8.75,44.3,47,50.2,15.0,4,5,7,0,2026-04-27T03:11:09.935418+05:30
Kota,Rajasthan,25.2138,75.8648,31.0,22,0.0,973.9,8.25,29.9,89,49.2,29.3,0,5,7,0,2026-04-27T03:11:09.935424+05:30
Bikaner,Rajasthan,28.0229,73.3119,31.0,25,0.0,976.1,8.1,52.2,70,67.5,21.0,0,5,7,0,2026-04-27T03:11:09.935430+05:30
Ajmer,Rajasthan,26.4499,74.6399,29.7,28,0.0,950.5,8.25,46.8,66,29.6,13.1,4,5,7,0,2026-04-27T03:11:09.935437+05:30
Gwalior,Madhya Pradesh,26.2183,78.1828,31.4,25,0.0,977.3,8.05,46.8,115,78.5,23.1,0,5,7,0,2026-04-27T03:11:09.935443+05:30
Indore,Madhya Pradesh,22.7196,75.8577,29.8,19,0.0,944.6,8.6,49.0,70,45.1,29.7,4,5,7,0,2026-04-27T03:11:09.935450+05:30
Bhopal,Madhya Pradesh,23.2599,77.4126,32.2,20,0.0,950.0,8.6,44.6,84,71.9,36.9,0,5,7,0,2026-04-27T03:11:09.935456+05:30
Jabalpur,Madhya Pradesh,23.1815,79.9864,28.6,31,0.0,956.7,8.25,40.0,75,77.1,28.9,4,5,7,0,2026-04-27T03:11:09.935463+05:30
Ujjain,Madhya Pradesh,23.1765,75.7885,29.5,20,0.0,950.0,8.55,46.1,73,33.1,24.5,4,5,7,0,2026-04-27T03:11:09.935470+05:30
Visakhapatnam,Andhra Pradesh,17.6868,83.2185,26.8,91,0.0,1000.4,9.15,54.4,56,20.8,15.3,7,5,4,1,2026-04-27T03:11:09.935476+05:30
Vijayawada,Andhra Pradesh,16.5062,80.648,26.8,93,0.0,999.7,9.2,37.1,58,22.4,16.2,7,5,7,1,2026-04-27T03:11:09.935482+05:30
Guntur,Andhra Pradesh,16.3067,80.4365,27.1,96,0.0,1001.0,9.2,42.1,60,21.3,15.3,7,5,4,1,2026-04-27T03:11:09.935489+05:30
Nellore,Andhra Pradesh,14.4426,79.9865,26.4,89,0.0,1002.7,9.3,49.0,55,14.9,12.0,7,5,4,1,2026-04-27T03:11:09.935497+05:30
Kurnool,Andhra Pradesh,15.8281,78.0373,30.4,52,0.0,973.7,9.2,38.2,87,27.9,24.4,0,5,7,1,2026-04-27T03:11:09.935504+05:30
Kakinada,Andhra Pradesh,16.9891,82.2475,26.8,95,0.0,1004.6,9.2,42.5,51,23.6,15.1,7,5,4,1,2026-04-27T03:11:09.935511+05:30
Tirupati,Andhra Pradesh,13.6288,79.4192,26.5,79,0.0,988.9,9.3,46.4,65,19.4,16.6,7,5,7,1,2026-04-27T03:11:09.935518+05:30
Warangal,Telangana,17.9689,79.5941,26.8,71,0.0,975.2,8.85,40.0,77,23.2,20.3,7,5,7,1,2026-04-27T03:11:09.935524+05:30
Nizamabad,Telangana,18.6725,78.0941,30.3,36,0.0,960.4,9.1,29.9,102,46.8,43.4,0,5,7,0,2026-04-27T03:11:09.935531+05:30
Mysore,Karnataka,12.2958,76.6396,22.9,95,0.0,926.5,9.45,44.3,91,38.2,35.3,3,5,7,1,2026-04-27T03:11:09.935538+05:30
Mangalore,Karnataka,12.9141,74.856,28.6,85,0.0,1004.8,8.45,38.9,84,43.0,35.6,7,5,4,1,2026-04-27T03:11:09.935544+05:30
Hubli-Dharwad,Karnataka,15.3647,75.124,24.0,96,0.0,938.4,9.2,48.2,94,30.9,26.9,3,5,7,1,2026-04-27T03:11:09.935551+05:30
Belgaum,Karnataka,15.8497,74.4977,22.6,98,0.0,922.9,9.25,48.2,103,34.5,29.3,3,5,7,1,2026-04-27T03:11:13.173368+05:30
Coimbatore,Tamil Nadu,11.0168,76.9558,26.1,83,0.0,959.5,9.35,46.8,83,31.4,29.3,7,5,7,1,2026-04-27T03:11:13.173403+05:30
Madurai,Tamil Nadu,9.9252,78.1198,28.0,76,0.0,991.0,9.2,46.4,46,10.8,10.5,7,5,7,1,2026-04-27T03:11:13.173414+05:30
Trichy,Tamil Nadu,10.7905,78.7047,26.5,93,0.0,997.7,9.25,41.0,49,17.4,15.2,7,5,7,1,2026-04-27T03:11:13.173423+05:30
Salem,Tamil Nadu,11.6643,78.146,26.5,75,0.0,975.2,9.3,34.2,64,18.5,17.8,7,5,7,1,2026-04-27T03:11:13.173430+05:30
Tirunelveli,Tamil Nadu,8.7139,77.7567,27.4,76,0.0,1001.0,8.55,46.1,51,15.7,15.3,7,5,4,1,2026-04-27T03:11:13.173438+05:30
Vellore,Tamil Nadu,12.9165,79.1325,25.2,85,0.0,982.0,9.25,40.3,82,35.6,33.4,7,5,7,1,2026-04-27T03:11:13.173446+05:30
Erode,Tamil Nadu,11.341,77.7172,27.7,70,0.0,987.0,9.3,45.4,53,10.8,10.5,7,5,7,1,2026-04-27T03:11:13.173453+05:30
Kochi,Kerala,9.9312,76.2673,27.4,89,0.0,1006.7,9.0,35.3,68,22.2,20.5,7,5,4,1,2026-04-27T03:11:13.173460+05:30
Thiruvananthapuram,Kerala,8.5241,76.9366,25.4,90,0.0,1005.9,8.65,34.9,44,11.4,9.5,7,5,4,1,2026-04-27T03:11:13.173467+05:30
Kozhikode,Kerala,11.2588,75.7804,25.5,92,0.0,1006.3,8.8,38.9,54,22.2,16.9,7,5,4,1,2026-04-27T03:11:13.173473+05:30
Thrissur,Kerala,10.5276,76.2144,25.9,99,0.0,1005.2,9.0,33.8,66,23.2,22.1,7,5,4,1,2026-04-27T03:11:13.173480+05:30
Kannur,Kerala,11.8745,75.3704,25.5,94,0.0,1005.4,9.0,37.4,69,34.8,30.5,7,5,4,1,2026-04-27T03:11:13.173487+05:30
Patna,Bihar,25.5941,85.1376,24.0,83,0.0,995.8,8.6,34.9,151,37.0,34.1,3,5,7,1,2026-04-27T03:11:13.173494+05:30
Gaya,Bihar,24.7914,85.0002,25.9,84,0.0,987.8,8.7,31.0,137,55.5,52.4,7,5,7,1,2026-04-27T03:11:13.173500+05:30
Muzaffarpur,Bihar,26.1209,85.3647,23.2,80,0.0,996.6,8.6,36.7,152,39.9,36.4,3,5,7,1,2026-04-27T03:11:13.173506+05:30
Bhagalpur,Bihar,25.2425,87.0117,23.7,86,0.0,997.2,8.15,32.8,124,26.3,22.2,3,5,7,1,2026-04-27T03:11:13.173512+05:30
Ranchi,Jharkhand,23.3441,85.3096,24.7,64,0.0,932.6,8.55,45.4,118,106.6,49.5,3,5,7,1,2026-04-27T03:11:13.173518+05:30
Jamshedpur,Jharkhand,22.8046,86.2029,27.5,78,0.0,985.4,9.0,52.9,127,54.4,43.2,7,5,7,1,2026-04-27T03:11:13.173524+05:30
Dhanbad,Jharkhand,23.7957,86.4304,26.8,91,0.0,974.4,8.95,55.4,153,58.7,49.9,7,5,7,1,2026-04-27T03:11:13.173531+05:30
Bokaro,Jharkhand,23.6693,86.1511,25.8,99,0.0,978.1,8.95,51.1,153,62.9,55.2,7,5,7,1,2026-04-27T03:11:13.173538+05:30
Bhubaneswar,Odisha,20.2961,85.8245,27.0,90,0.0,997.9,8.9,53.3,53,14.8,10.6,7,5,7,1,2026-04-27T03:11:13.173544+05:30
Cuttack,Odisha,20.4625,85.8828,27.0,90,0.0,999.6,8.9,47.2,53,14.8,10.6,7,5,7,1,2026-04-27T03:11:13.173550+05:30
Rourkela,Odisha,22.2604,84.8536,27.0,82,0.0,980.0,8.95,46.8,130,51.8,36.6,7,5,7,1,2026-04-27T03:11:13.173556+05:30
Raipur,Chhattisgarh,21.2514,81.6296,30.0,30,0.0,970.2,8.4,57.2,119,48.3,45.9,4,5,7,0,2026-04-27T03:11:13.173562+05:30
Bhilai,Chhattisgarh,21.1938,81.3509,29.4,35,0.0,970.5,7.6,47.2,106,48.9,43.0,4,5,7,0,2026-04-27T03:11:13.173568+05:30
Guwahati,Assam,26.1158,91.7086,20.6,97,0.1,999.3,2.45,31.0,126,46.7,32.4,6,5,3,1,2026-04-27T03:11:13.173574+05:30
Agartala,Tripura,23.8315,91.2868,24.4,95,0.0,1003.4,7.8,57.6,71,15.5,11.0,3,5,4,1,2026-04-27T03:11:13.173580+05:30
Shillong,Meghalaya,25.5788,91.8933,14.9,97,0.0,852.0,1.75,43.2,110,10.9,7.0,3,10,3,0,2026-04-27T03:11:13.173587+05:30
Imphal,Manipur,24.817,93.9368,17.7,96,0.1,920.8,8.35,32.0,152,82.4,58.9,6,10,7,1,2026-04-27T03:11:13.173594+05:30
Aizawl,Mizoram,23.7271,92.7176,17.5,98,0.1,890.0,9.0,56.2,95,33.8,22.4,6,10,7,1,2026-04-27T03:11:13.173600+05:30
Kohima,Nagaland,25.6701,94.1077,14.2,97,0.1,851.5,1.2,28.8,132,53.1,32.2,6,10,3,0,2026-04-27T03:11:13.173606+05:30
Gangtok,Sikkim,27.3314,88.6138,12.6,98,0.1,832.0,8.5,41.4,77,36.9,23.2,6,10,7,0,2026-04-27T03:11:13.173612+05:30
Siliguri,West Bengal,26.7271,88.3953,20.0,96,0.1,990.6,8.4,32.4,114,49.9,32.1,6,5,7,1,2026-04-27T03:11:16.424595+05:30
Durgapur,West Bengal,23.5204,87.3119,27.0,93,0.0,989.6,8.8,37.4,114,34.7,31.4,7,5,7,1,2026-04-27T03:11:16.424628+05:30
Asansol,West Bengal,23.6739,86.9524,27.2,93,0.0,988.2,8.75,41.0,125,35.0,32.0,7,5,7,1,2026-04-27T03:11:16.424639+05:30
Pondicherry,Puducherry,11.9139,79.8145,28.1,87,0.0,1005.8,9.2,48.6,42,17.8,12.0,7,5,4,1,2026-04-27T03:11:16.424648+05:30
Port Blair,Andaman and Nicobar Islands,11.6234,92.7265,27.0,87,0.0,1004.7,9.1,34.2,55,17.2,12.8,7,5,4,1,2026-04-27T03:11:16.424656+05:30
Haridwar,Uttarakhand,29.9457,78.1642,19.0,59,0.0,967.0,7.25,27.4,66,25.7,22.4,0,5,7,0,2026-04-27T03:11:16.424663+05:30
Rishikesh,Uttarakhand,30.0869,78.2676,17.8,61,0.0,959.6,7.35,26.6,62,26.1,20.5,3,5,7,0,2026-04-27T03:11:16.424671+05:30
Nainital,Uttarakhand,29.3919,79.4542,15.4,32,0.0,801.4,8.2,38.9,72,37.4,17.5,0,5,7,1,2026-04-27T03:11:16.424679+05:30
Mussoorie,Uttarakhand,30.4599,78.0664,14.0,44,0.0,797.5,7.75,54.0,58,24.6,20.4,0,5,7,0,2026-04-27T03:11:16.424686+05:30
Dharamshala,Himachal Pradesh,32.219,76.3234,22.7,31,0.0,865.7,8.0,47.9,42,14.8,7.7,0,5,7,0,2026-04-27T03:11:16.424693+05:30
Dalhousie,Himachal Pradesh,32.5387,75.971,10.4,72,0.0,797.1,8.25,43.9,59,22.2,16.7,3,5,7,0,2026-04-27T03:11:16.424701+05:30
Patiala,Punjab,30.3398,76.3869,27.3,32,0.0,972.2,7.25,40.0,399,359.5,63.1,4,5,7,0,2026-04-27T03:11:16.424708+05:30
Bhatinda,Punjab,30.211,74.9455,28.0,30,0.0,977.7,7.8,64.1,86,68.2,32.0,4,5,7,0,2026-04-27T03:11:16.424714+05:30
Rohtak,Haryana,28.8955,76.6066,27.3,27,0.0,976.0,7.5,40.7,690,650.1,110.1,4,5,7,0,2026-04-27T03:11:16.424721+05:30
Panipat,Haryana,29.3909,76.9635,27.5,29,0.0,974.5,7.3,43.2,1419,1076.6,153.7,4,5,7,0,2026-04-27T03:11:16.424728+05:30
Mathura,Uttar Pradesh,27.4924,77.6737,27.8,37,0.0,981.1,7.75,38.2,720,204.9,53.2,4,5,7,0,2026-04-27T03:11:16.424734+05:30
Vrindavan,Uttar Pradesh,27.5823,77.7027,27.1,38,0.0,981.5,7.7,37.8,720,204.9,53.2,4,5,7,0,2026-04-27T03:11:16.424741+05:30
Ayodhya,Uttar Pradesh,26.7922,82.1998,25.0,74,0.0,990.9,8.1,33.5,150,67.3,58.6,7,5,7,1,2026-04-27T03:11:16.424747+05:30
Ratlam,Madhya Pradesh,23.3315,75.0367,29.0,21,0.0,950.9,8.45,44.6,64,24.6,18.0,4,5,7,0,2026-04-27T03:11:16.424754+05:30
Sagar,Madhya Pradesh,23.8388,78.7378,27.8,33,0.0,945.5,8.65,38.5,76,54.8,25.0,4,5,7,0,2026-04-27T03:11:16.424761+05:30
Satna,Madhya Pradesh,24.6005,80.8322,29.9,28,0.0,965.7,8.65,52.2,93,58.9,21.6,4,5,7,0,2026-04-27T03:11:16.424768+05:30
Akola,Maharashtra,20.7002,77.0082,32.1,21,0.0,970.3,8.9,33.8,60,23.8,18.8,0,5,7,0,2026-04-27T03:11:16.424774+05:30
Amravati,Maharashtra,20.9374,77.7796,30.8,26,0.0,962.6,8.9,36.7,64,34.8,25.5,0,5,7,0,2026-04-27T03:11:16.424781+05:30
Latur,Maharashtra,18.4088,76.5604,29.5,30,0.0,936.3,9.1,38.9,95,34.8,30.6,4,5,7,0,2026-04-27T03:11:16.424788+05:30
Nanded,Maharashtra,19.1383,77.3091,29.6,33,0.0,964.3,9.0,36.0,87,34.5,29.1,4,5,7,0,2026-04-27T03:11:16.424795+05:30
Gulbarga,Karnataka,17.3297,76.8343,30.0,36,0.0,955.6,9.1,31.3,105,38.1,34.1,4,5,7,0,2026-04-27T03:11:16.424800+05:30
Bidar,Karnataka,17.9104,77.5199,28.6,37,0.0,931.6,9.1,30.6,103,40.9,37.0,4,5,7,0,2026-04-27T03:11:16.424807+05:30
Hospet,Karnataka,15.2689,76.3909,26.7,84,0.0,953.6,9.25,35.6,102,33.8,32.0,7,5,7,1,2026-04-27T03:11:16.424813+05:30
Tirupur,Tamil Nadu,11.1085,77.3411,26.8,84,0.0,972.9,9.35,31.0,65,25.5,24.4,7,5,7,1,2026-04-27T03:11:16.424819+05:30
Alappuzha,Kerala,9.4981,76.3388,26.1,95,0.0,1006.7,8.1,34.6,63,24.0,20.5,7,5,4,1,2026-04-27T03:11:16.424825+05:30
Munnar,Kerala,10.0889,77.0595,16.1,77,0.0,853.8,9.6,27.0,68,28.8,28.0,3,5,7,0,2026-04-27T03:11:16.424832+05:30
Silchar,Assam,24.8333,92.7789,21.8,97,0.2,1003.5,8.75,26.3,157,66.6,44.0,6,5,4,1,2026-04-27T03:11:16.424838+05:30
Dibrugarh,Assam,27.4728,94.912,20.5,98,0.0,994.5,4.3,25.6,92,63.8,39.1,3,5,3,1,2026-04-27T03:11:16.424844+05:30
