city,state,latitude,longitude,temp,humidity,rain,pressure,uv_index,wind_gusts,aqi,pm10,pm2_5,mosquito_risk,arthritis_risk,migraine_risk,frizz_risk,updated_at
Delhi,Delhi,28.6139,77.209,24.3,66,0.0,987.9,6.05,23.4,336,301.7,140.6,3,5,7,1,2026-03-11T00:25:28.011820+05:30
Mumbai,Maharashtra,19.076,72.8777,27.9,79,0.0,1010.3,7.55,19.8,203,30.3,29.3,7,0,4,1,2026-03-11T00:25:28.011858+05:30
Bangalore,Karnataka,12.9716,77.5946,21.3,68,0.0,914.1,9.25,32.4,95,23.0,22.0,3,5,7,0,2026-03-11T00:25:28.011874+05:30
Hyderabad,Telangana,17.385,78.4867,22.8,63,0.0,956.8,8.6,31.0,136,44.9,39.8,3,5,7,0,2026-03-11T00:25:28.011885+05:30
Chennai,Tamil Nadu,13.0827,80.2707,24.8,79,0.0,1011.7,8.95,35.6,75,23.9,19.0,3,0,4,1,2026-03-11T00:25:28.011894+05:30
Kolkata,West Bengal,22.5726,88.3639,24.2,93,0.0,1010.8,5.1,18.0,133,61.5,54.2,3,0,0,1,2026-03-11T00:25:28.011902+05:30
Pune,Maharashtra,18.5204,73.8567,22.1,63,0.0,950.7,8.1,36.4,81,28.8,26.6,3,5,7,0,2026-03-11T00:25:28.011913+05:30
Ahmedabad,Gujarat,23.0225,72.5714,26.0,38,0.0,1005.9,7.4,19.1,74,30.2,29.3,4,5,4,0,2026-03-11T00:25:28.011921+05:30
Jaipur,Rajasthan,26.9124,75.7873,23.6,27,0.0,964.2,6.85,22.0,117,149.5,46.1,0,5,7,0,2026-03-11T00:25:28.011929+05:30
Lucknow,Uttar Pradesh,26.8467,80.9462,25.5,75,0.0,998.6,6.55,20.2,185,178.3,141.1,7,5,7,1,2026-03-11T00:25:28.011936+05:30
Kanpur,Uttar Pradesh,26.4499,80.3319,25.2,69,0.0,996.7,6.6,15.5,175,211.9,124.3,7,5,7,1,2026-03-11T00:25:28.011943+05:30
Chandigarh,Chandigarh,30.7333,76.7794,23.1,75,0.0,974.0,6.0,15.5,150,91.7,80.6,3,5,3,1,2026-03-11T00:25:28.011951+05:30
Srinagar,Jammu and Kashmir,34.0837,74.7973,9.7,92,0.1,847.0,3.95,28.8,121,82.9,70.3,6,10,3,0,2026-03-11T00:25:28.011959+05:30
Jammu,Jammu and Kashmir,32.7266,74.857,20.2,61,0.0,977.5,6.0,38.2,112,58.2,51.6,3,5,3,0,2026-03-11T00:25:28.011966+05:30
Amritsar,Punjab,31.634,74.8723,22.7,82,0.0,985.2,6.0,26.3,159,121.1,78.2,3,5,3,1,2026-03-11T00:25:28.011973+05:30
Ludhiana,Punjab,30.901,75.8573,23.6,69,0.0,983.8,5.7,13.0,174,202.6,159.3,3,5,3,1,2026-03-11T00:25:28.011980+05:30
Jalandhar,Punjab,31.326,75.5762,22.1,85,0.0,984.9,6.0,14.0,169,194.6,134.6,3,5,3,1,2026-03-11T00:25:28.011989+05:30
Dehradun,Uttarakhand,30.6284,78.0322,14.3,96,0.0,834.2,6.4,26.6,90,53.4,38.9,3,10,7,0,2026-03-11T00:25:28.011997+05:30
Shimla,Himachal Pradesh,31.1048,77.1734,13.9,79,0.0,788.9,6.1,37.1,95,79.9,59.3,3,5,7,0,2026-03-11T00:25:28.012004+05:30
Manali,Himachal Pradesh,32.2396,77.1887,15.4,49,0.0,826.5,7.45,41.0,54,31.0,20.3,0,5,7,0,2026-03-11T00:25:28.012011+05:30
Gurgaon,Haryana,28.4595,77.0266,22.1,73,0.0,986.1,5.9,21.2,513,366.9,133.6,3,5,3,1,2026-03-11T00:25:28.012018+05:30
Noida,Uttar Pradesh,28.5355,77.391,23.3,70,0.0,989.4,6.1,23.4,513,366.9,133.6,3,5,7,1,2026-03-11T00:25:28.012024+05:30
Ghaziabad,Uttar Pradesh,28.6692,77.4538,21.7,77,0.0,987.5,5.9,18.7,193,230.5,126.7,3,5,3,1,2026-03-11T00:25:28.012030+05:30
Faridabad,Haryana,28.4089,77.3178,23.5,63,0.0,988.6,6.05,23.0,513,366.9,133.6,3,5,7,1,2026-03-11T00:25:28.012037+05:30
Meerut,Uttar Pradesh,28.9845,77.7064,21.4,84,0.0,986.5,5.7,18.4,193,230.5,126.7,3,5,3,1,2026-03-11T00:25:28.012043+05:30
Agra,Uttar Pradesh,27.1767,78.0081,22.2,74,0.0,992.6,6.45,22.0,237,409.8,140.2,3,5,7,1,2026-03-11T00:25:28.012049+05:30
Varanasi,Uttar Pradesh,25.3176,82.9739,24.2,87,0.0,1002.6,7.2,15.5,186,167.2,159.3,3,5,4,1,2026-03-11T00:25:28.012058+05:30
Prayagraj,Uttar Pradesh,25.4358,81.8463,24.7,80,0.0,1001.0,7.1,15.5,184,127.1,121.5,3,5,4,1,2026-03-11T00:25:28.012065+05:30
Gorakhpur,Uttar Pradesh,26.7606,83.3732,23.8,83,0.0,1002.5,6.95,20.2,183,184.9,170.4,3,5,4,1,2026-03-11T00:25:28.012071+05:30
Bareilly,Uttar Pradesh,28.367,79.4304,22.6,84,0.0,991.9,5.9,18.0,185,172.8,153.2,3,5,3,1,2026-03-11T00:25:28.012082+05:30
Aligarh,Uttar Pradesh,27.8974,78.088,21.3,78,0.0,990.3,6.15,23.4,190,429.3,161.6,3,5,7,1,2026-03-11T00:25:28.012088+05:30
Moradabad,Uttar Pradesh,28.8386,78.7733,22.7,83,0.0,988.9,5.45,23.4,184,197.9,156.0,3,5,3,1,2026-03-11T00:25:28.012094+05:30
Saharanpur,Uttar Pradesh,29.9637,77.546,21.4,90,0.0,981.0,5.7,21.2,165,173.7,126.7,3,5,3,1,2026-03-11T00:25:28.012099+05:30
Jhansi,Uttar Pradesh,25.4484,78.5685,23.7,46,0.0,982.3,7.05,26.3,107,111.8,35.7,0,5,7,0,2026-03-11T00:25:31.320587+05:30
Surat,Gujarat,21.1702,72.8311,28.0,43,0.0,1008.8,7.3,23.8,107,32.5,31.3,4,0,4,0,2026-03-11T00:25:31.320643+05:30
Vadodara,Gujarat,22.3072,73.1812,26.8,44,0.0,1007.5,7.4,17.3,70,33.9,32.1,4,5,4,0,2026-03-11T00:25:31.320654+05:30
Rajkot,Gujarat,22.3039,70.8022,26.5,36,0.0,998.2,7.25,33.5,65,24.9,23.4,4,5,7,0,2026-03-11T00:25:31.320662+05:30
Thane,Maharashtra,19.2183,72.9781,26.0,80,0.0,1009.8,7.55,33.5,203,30.3,29.3,7,0,4,1,2026-03-11T00:25:31.320669+05:30
Nagpur,Maharashtra,21.1458,79.0882,23.6,58,0.0,976.4,7.95,24.8,102,56.7,46.6,0,5,7,0,2026-03-11T00:25:31.320678+05:30
Nashik,Maharashtra,19.9975,73.7898,25.1,40,0.0,948.2,7.75,28.1,88,23.5,21.6,4,5,7,0,2026-03-11T00:25:31.320685+05:30
Aurangabad,Maharashtra,19.8762,75.3433,25.2,50,0.0,946.8,8.3,21.6,86,40.4,36.1,4,5,7,0,2026-03-11T00:25:31.320691+05:30
Solapur,Maharashtra,17.6599,75.9064,25.9,65,0.0,960.1,8.5,29.5,126,50.8,46.1,7,5,7,1,2026-03-11T00:25:31.320698+05:30
Kolhapur,Maharashtra,16.705,74.2433,23.0,74,0.0,950.3,8.6,40.3,127,60.3,55.6,3,5,7,1,2026-03-11T00:25:31.320707+05:30
Goa,Goa,15.2993,74.124,27.6,91,0.0,1000.6,8.6,38.9,150,68.7,60.8,7,5,4,1,2026-03-11T00:25:31.320715+05:30
Jodhpur,Rajasthan,26.2389,73.0243,25.3,31,0.0,988.0,7.15,26.3,80,60.1,22.2,4,5,7,0,2026-03-11T00:25:31.320722+05:30
Udaipur,Rajasthan,24.5854,73.7125,20.7,41,0.0,951.0,7.75,21.6,80,21.2,16.2,0,5,7,0,2026-03-11T00:25:31.320728+05:30
Kota,Rajasthan,25.2138,75.8648,22.3,46,0.0,982.9,7.15,17.3,74,70.5,34.6,0,5,7,0,2026-03-11T00:25:31.320734+05:30
Bikaner,Rajasthan,28.0229,73.3119,25.2,36,0.0,986.7,6.85,29.9,79,58.4,21.4,4,5,7,0,2026-03-11T00:25:31.320741+05:30
Ajmer,Rajasthan,26.4499,74.6399,25.3,29,0.0,959.2,7.1,21.2,67,60.1,32.4,4,5,7,0,2026-03-11T00:25:31.320748+05:30
Gwalior,Madhya Pradesh,26.2183,78.1828,25.3,50,0.0,987.9,6.75,24.5,133,270.1,62.9,4,5,7,0,2026-03-11T00:25:31.320754+05:30
Indore,Madhya Pradesh,22.7196,75.8577,19.5,56,0.0,951.1,7.65,26.3,66,32.2,24.1,0,5,7,0,2026-03-11T00:25:31.320760+05:30
Bhopal,Madhya Pradesh,23.2599,77.4126,23.2,41,0.0,957.4,7.55,23.0,63,25.0,17.5,0,5,7,0,2026-03-11T00:25:31.320766+05:30
Jabalpur,Madhya Pradesh,23.1815,79.9864,25.4,51,0.0,965.2,7.65,26.3,85,52.7,28.6,4,5,7,0,2026-03-11T00:25:31.320773+05:30
Ujjain,Madhya Pradesh,23.1765,75.7885,22.3,50,0.0,957.4,7.55,19.1,84,44.6,34.5,0,5,7,0,2026-03-11T00:25:31.320780+05:30
Visakhapatnam,Andhra Pradesh,17.6868,83.2185,23.5,90,0.0,1008.3,8.55,34.2,123,34.8,30.3,3,0,4,1,2026-03-11T00:25:31.320786+05:30
Vijayawada,Andhra Pradesh,16.5062,80.648,22.8,87,0.0,1007.4,8.6,21.6,121,38.3,35.2,3,5,4,1,2026-03-11T00:25:31.320793+05:30
Guntur,Andhra Pradesh,16.3067,80.4365,21.7,91,0.0,1008.5,8.65,23.4,114,34.1,31.7,3,0,4,1,2026-03-11T00:25:31.320799+05:30
Nellore,Andhra Pradesh,14.4426,79.9865,23.1,87,0.0,1010.5,8.85,28.1,85,21.9,17.9,3,0,4,1,2026-03-11T00:25:31.320809+05:30
Kurnool,Andhra Pradesh,15.8281,78.0373,24.9,48,0.0,980.7,8.65,31.7,102,18.4,16.2,0,5,7,0,2026-03-11T00:25:31.320820+05:30
Kakinada,Andhra Pradesh,16.9891,82.2475,20.8,93,0.0,1012.4,8.6,28.4,107,31.2,26.5,3,0,4,1,2026-03-11T00:25:31.320827+05:30
Tirupati,Andhra Pradesh,13.6288,79.4192,21.3,72,0.0,996.2,8.95,34.6,112,32.4,29.5,3,5,7,1,2026-03-11T00:25:31.320833+05:30
Warangal,Telangana,17.9689,79.5941,25.0,65,0.0,982.3,8.4,27.0,135,41.2,37.5,7,5,7,1,2026-03-11T00:25:31.320840+05:30
Nizamabad,Telangana,18.6725,78.0941,25.9,62,0.0,968.0,8.3,30.6,134,52.6,47.1,7,5,7,1,2026-03-11T00:25:31.320846+05:30
Mysore,Karnataka,12.2958,76.6396,22.8,55,0.0,930.4,9.25,39.2,96,21.2,20.2,0,5,7,0,2026-03-11T00:25:31.320853+05:30
Mangalore,Karnataka,12.9141,74.856,28.8,80,0.0,1009.0,8.85,31.7,109,48.7,40.0,7,0,4,1,2026-03-11T00:25:31.320859+05:30
Hubli-Dharwad,Karnataka,15.3647,75.124,24.6,48,0.0,943.4,8.8,44.3,121,52.2,46.7,0,5,7,0,2026-03-11T00:25:31.320866+05:30
Belgaum,Karnataka,15.8497,74.4977,24.6,53,0.0,928.3,8.85,46.8,118,56.8,50.5,0,5,7,0,2026-03-11T00:25:34.617789+05:30
Coimbatore,Tamil Nadu,11.0168,76.9558,23.3,80,0.0,965.4,9.25,46.4,99,21.3,20.7,3,5,7,1,2026-03-11T00:25:34.617816+05:30
Madurai,Tamil Nadu,9.9252,78.1198,25.0,80,0.0,997.0,9.2,41.4,91,19.2,18.2,7,5,7,1,2026-03-11T00:25:34.617826+05:30
Trichy,Tamil Nadu,10.7905,78.7047,24.0,94,0.0,1003.9,9.05,37.4,86,19.7,17.5,3,5,4,1,2026-03-11T00:25:34.617834+05:30
Salem,Tamil Nadu,11.6643,78.146,23.8,81,0.0,981.0,9.15,33.1,104,22.7,21.1,3,5,7,1,2026-03-11T00:25:34.617842+05:30
Tirunelveli,Tamil Nadu,8.7139,77.7567,25.1,81,0.0,1006.9,9.2,47.2,79,11.0,10.4,7,5,4,1,2026-03-11T00:25:34.617849+05:30
Vellore,Tamil Nadu,12.9165,79.1325,22.1,82,0.0,989.2,9.05,35.6,123,38.4,34.5,3,5,7,1,2026-03-11T00:25:34.617856+05:30
Erode,Tamil Nadu,11.341,77.7172,25.0,83,0.0,993.0,9.1,30.2,100,19.9,18.8,7,5,7,1,2026-03-11T00:25:34.617863+05:30
Kochi,Kerala,9.9312,76.2673,27.9,81,0.0,1011.0,9.05,39.2,149,74.0,69.2,7,0,4,1,2026-03-11T00:25:34.617870+05:30
Thiruvananthapuram,Kerala,8.5241,76.9366,28.6,78,0.0,1009.8,9.1,27.4,99,20.1,15.8,7,0,4,1,2026-03-11T00:25:34.617878+05:30
Kozhikode,Kerala,11.2588,75.7804,28.7,79,0.0,1009.8,8.95,24.8,139,48.8,38.4,7,0,4,1,2026-03-11T00:25:34.617885+05:30
Thrissur,Kerala,10.5276,76.2144,27.0,84,0.0,1009.3,9.0,37.4,129,65.9,59.3,7,0,4,1,2026-03-11T00:25:34.617892+05:30
Kannur,Kerala,11.8745,75.3704,27.7,83,0.0,1009.0,8.95,39.2,109,55.8,46.2,7,0,4,1,2026-03-11T00:25:34.617899+05:30
Patna,Bihar,25.5941,85.1376,26.0,80,0.0,1005.7,7.4,24.5,173,141.1,132.7,7,5,4,1,2026-03-11T00:25:34.617906+05:30
Gaya,Bihar,24.7914,85.0002,24.3,88,0.0,998.9,7.5,15.5,168,142.0,130.9,3,5,7,1,2026-03-11T00:25:34.617912+05:30
Muzaffarpur,Bihar,26.1209,85.3647,24.5,83,0.0,1005.5,7.35,22.0,177,187.2,176.5,3,5,4,1,2026-03-11T00:25:34.617918+05:30
Bhagalpur,Bihar,25.2425,87.0117,25.3,83,0.0,1006.2,7.4,17.6,164,77.3,72.4,7,5,4,1,2026-03-11T00:25:34.617924+05:30
Ranchi,Jharkhand,23.3441,85.3096,21.3,91,0.0,942.0,8.15,29.5,160,105.0,94.1,3,5,7,1,2026-03-11T00:25:34.617930+05:30
Jamshedpur,Jharkhand,22.8046,86.2029,23.9,85,0.0,996.4,8.05,31.0,141,73.8,62.6,3,5,7,1,2026-03-11T00:25:34.617936+05:30
Dhanbad,Jharkhand,23.7957,86.4304,23.7,88,0.0,984.9,7.9,20.9,169,137.4,126.2,3,5,7,1,2026-03-11T00:25:34.617943+05:30
Bokaro,Jharkhand,23.6693,86.1511,23.1,88,0.0,989.1,7.9,20.5,177,171.4,157.4,3,5,7,1,2026-03-11T00:25:34.617949+05:30
Bhubaneswar,Odisha,20.2961,85.8245,24.0,88,0.0,1007.3,8.35,32.4,117,47.6,41.1,3,5,4,1,2026-03-11T00:25:34.617956+05:30
Cuttack,Odisha,20.4625,85.8828,24.6,86,0.0,1009.4,8.35,28.8,117,47.6,41.1,3,0,4,1,2026-03-11T00:25:34.617963+05:30
Rourkela,Odisha,22.2604,84.8536,24.6,76,0.0,989.5,7.95,34.9,158,87.5,79.9,3,5,7,1,2026-03-11T00:25:34.617969+05:30
Raipur,Chhattisgarh,21.2514,81.6296,27.5,45,0.0,977.8,8.05,17.3,155,89.2,69.6,4,5,7,0,2026-03-11T00:25:34.617976+05:30
Bhilai,Chhattisgarh,21.1938,81.3509,25.3,53,0.0,977.9,8.05,13.7,151,85.4,66.1,4,5,7,0,2026-03-11T00:25:34.617982+05:30
Guwahati,Assam,26.1158,91.7086,23.7,85,0.0,1006.1,7.3,11.5,155,59.5,56.0,3,5,4,1,2026-03-11T00:25:34.617988+05:30
Agartala,Tripura,23.8315,91.2868,21.8,85,0.0,1010.6,7.7,14.4,169,102.0,94.5,3,0,4,1,2026-03-11T00:25:34.617994+05:30
Shillong,Meghalaya,25.5788,91.8933,11.3,91,0.0,858.2,6.75,18.4,144,43.7,40.5,3,10,7,0,2026-03-11T00:25:34.618000+05:30
Imphal,Manipur,24.817,93.9368,17.1,83,0.0,927.1,6.2,30.6,153,71.2,68.2,3,10,7,0,2026-03-11T00:25:34.618007+05:30
Aizawl,Mizoram,23.7271,92.7176,16.6,75,0.0,895.4,7.85,27.7,133,32.8,28.8,3,5,7,0,2026-03-11T00:25:34.618014+05:30
Kohima,Nagaland,25.6701,94.1077,14.7,82,0.0,858.1,6.8,50.0,135,48.7,46.1,3,10,7,0,2026-03-11T00:25:34.618020+05:30
Gangtok,Sikkim,27.3314,88.6138,14.5,79,0.0,841.0,6.25,18.7,145,74.5,65.7,3,5,7,0,2026-03-11T00:25:34.618026+05:30
Siliguri,West Bengal,26.7271,88.3953,21.4,68,0.0,999.3,7.3,21.2,163,112.7,99.7,3,5,7,0,2026-03-11T00:25:37.930842+05:30
Durgapur,West Bengal,23.5204,87.3119,23.4,86,0.0,1000.4,7.85,19.4,154,82.4,75.9,3,5,4,1,2026-03-11T00:25:37.930875+05:30
Asansol,West Bengal,23.6739,86.9524,23.8,83,0.0,998.8,7.9,19.1,158,97.3,88.5,3,5,7,1,2026-03-11T00:25:37.930887+05:30
Pondicherry,Puducherry,11.9139,79.8145,23.4,87,0.0,1012.8,8.95,37.8,69,21.5,16.1,3,0,4,1,2026-03-11T00:25:37.930897+05:30
Port Blair,Andaman and Nicobar Islands,11.6234,92.7265,27.7,82,0.0,1009.6,8.95,29.2,69,25.4,21.6,7,0,4,1,2026-03-11T00:25:37.930907+05:30
Haridwar,Uttarakhand,29.9457,78.1642,22.2,93,0.0,979.9,5.85,22.3,157,110.8,90.8,3,5,3,1,2026-03-11T00:25:37.930916+05:30
Rishikesh,Uttarakhand,30.0869,78.2676,21.8,88,0.0,972.8,5.9,23.0,154,111.5,76.1,3,5,3,1,2026-03-11T00:25:37.930925+05:30
Nainital,Uttarakhand,29.3919,79.4542,17.3,81,0.0,809.9,6.75,56.9,176,135.5,110.1,3,10,7,0,2026-03-11T00:25:37.930935+05:30
Mussoorie,Uttarakhand,30.4599,78.0664,15.8,88,0.0,806.9,6.25,38.9,152,116.9,85.2,3,10,7,0,2026-03-11T00:25:37.930943+05:30
Dharamshala,Himachal Pradesh,32.219,76.3234,21.1,53,0.0,874.5,6.45,20.5,56,34.3,20.6,0,5,7,0,2026-03-11T00:25:37.930951+05:30
Dalhousie,Himachal Pradesh,32.5387,75.971,18.4,31,0.0,808.6,6.15,18.4,87,58.9,44.0,0,5,7,0,2026-03-11T00:25:37.930961+05:30
Patiala,Punjab,30.3398,76.3869,21.8,82,0.0,983.3,5.9,14.4,170,181.1,130.9,3,5,3,1,2026-03-11T00:25:37.930969+05:30
Bhatinda,Punjab,30.211,74.9455,21.1,75,0.0,988.6,6.45,16.9,153,136.4,80.3,3,5,7,1,2026-03-11T00:25:37.930977+05:30
Rohtak,Haryana,28.8955,76.6066,21.2,72,0.0,986.5,5.75,20.2,355,322.2,144.8,3,5,3,0,2026-03-11T00:25:37.930986+05:30
Panipat,Haryana,29.3909,76.9635,20.9,77,0.0,985.1,5.9,18.0,303,292.4,132.2,3,5,3,1,2026-03-11T00:25:37.930994+05:30
Mathura,Uttar Pradesh,27.4924,77.6737,21.4,72,0.0,991.6,6.35,23.0,344,431.2,135.5,3,5,7,1,2026-03-11T00:25:37.931001+05:30
Vrindavan,Uttar Pradesh,27.5823,77.7027,21.5,70,0.0,992.0,6.3,24.1,344,431.2,135.5,3,5,7,0,2026-03-11T00:25:37.931009+05:30
Ayodhya,Uttar Pradesh,26.7922,82.1998,24.9,84,0.0,1000.4,6.75,19.4,188,155.5,144.8,3,5,4,1,2026-03-11T00:25:37.931015+05:30
Ratlam,Madhya Pradesh,23.3315,75.0367,19.8,64,0.0,957.7,7.55,18.7,79,38.8,29.3,3,5,7,0,2026-03-11T00:25:37.931021+05:30
Sagar,Madhya Pradesh,23.8388,78.7378,25.7,40,0.0,954.1,7.5,21.2,85,59.4,23.5,4,5,7,0,2026-03-11T00:25:37.931027+05:30
Satna,Madhya Pradesh,24.6005,80.8322,24.1,69,0.0,976.0,7.5,24.5,150,110.4,70.5,3,5,7,1,2026-03-11T00:25:37.931033+05:30
Akola,Maharashtra,20.7002,77.0082,28.5,39,0.0,978.0,8.0,16.9,74,37.4,31.8,4,5,7,0,2026-03-11T00:25:37.931039+05:30
Amravati,Maharashtra,20.9374,77.7796,24.2,57,0.0,970.2,7.95,19.1,70,41.6,34.8,0,5,7,0,2026-03-11T00:25:37.931046+05:30
Latur,Maharashtra,18.4088,76.5604,24.2,55,0.0,942.8,8.4,27.0,108,44.9,38.8,0,5,7,0,2026-03-11T00:25:37.931052+05:30
Nanded,Maharashtra,19.1383,77.3091,26.8,45,0.0,971.5,8.2,19.4,124,61.0,53.7,4,5,7,0,2026-03-11T00:25:37.931058+05:30
Gulbarga,Karnataka,17.3297,76.8343,26.2,53,0.0,962.2,8.5,30.6,126,54.7,49.1,4,5,7,0,2026-03-11T00:25:37.931064+05:30
Bidar,Karnataka,17.9104,77.5199,24.1,61,0.0,938.6,8.45,33.1,131,57.3,51.3,3,5,7,1,2026-03-11T00:25:37.931070+05:30
Hospet,Karnataka,15.2689,76.3909,26.0,45,0.0,958.9,8.8,36.0,119,38.0,33.3,4,5,7,0,2026-03-11T00:25:37.931076+05:30
Tirupur,Tamil Nadu,11.1085,77.3411,24.5,78,0.0,979.1,9.25,45.0,108,22.5,21.5,3,5,7,1,2026-03-11T00:25:37.931082+05:30
Alappuzha,Kerala,9.4981,76.3388,29.5,65,0.0,1010.8,9.05,33.1,146,61.0,49.6,7,0,4,1,2026-03-11T00:25:37.931088+05:30
Munnar,Kerala,10.0889,77.0595,20.5,81,0.0,858.4,9.55,33.8,93,18.2,17.6,3,5,7,1,2026-03-11T00:25:37.931095+05:30
Silchar,Assam,24.8333,92.7789,23.3,84,0.0,1009.5,7.65,14.0,163,86.6,80.1,3,0,4,1,2026-03-11T00:25:37.931100+05:30
Dibrugarh,Assam,27.4728,94.912,24.1,80,0.0,1000.0,7.4,17.3,163,75.9,70.8,3,5,4,1,2026-03-11T00:25:37.931106+05:30
