city,state,latitude,longitude,temp,humidity,rain,pressure,uv_index,wind_gusts,aqi,pm10,pm2_5,mosquito_risk,arthritis_risk,migraine_risk,frizz_risk,updated_at
Delhi,Delhi,28.6139,77.209,26.0,61,0.0,985.7,6.85,23.8,152,138.8,52.0,7,5,7,1,2026-04-01T20:37:23.211435+05:30
Mumbai,Maharashtra,19.076,72.8777,27.4,74,0.0,1009.6,7.85,23.8,62,25.7,14.7,7,0,4,1,2026-04-01T20:37:23.211474+05:30
Bangalore,Karnataka,12.9716,77.5946,27.5,35,0.0,912.3,9.55,28.8,99,19.2,16.9,4,5,7,0,2026-04-01T20:37:23.211489+05:30
Hyderabad,Telangana,17.385,78.4867,28.5,58,0.0,954.4,9.1,27.0,102,38.4,34.6,4,5,7,1,2026-04-01T20:37:23.211499+05:30
Chennai,Tamil Nadu,13.0827,80.2707,27.5,72,0.0,1009.3,9.3,29.5,41,9.8,7.2,7,0,4,1,2026-04-01T20:37:23.211507+05:30
Kolkata,West Bengal,22.5726,88.3639,27.6,82,0.0,1007.8,8.6,19.4,117,32.9,30.3,7,5,4,1,2026-04-01T20:37:23.211536+05:30
Pune,Maharashtra,18.5204,73.8567,28.0,74,0.0,949.1,8.4,32.0,152,49.7,42.3,7,5,7,1,2026-04-01T20:37:23.211549+05:30
Ahmedabad,Gujarat,23.0225,72.5714,30.9,35,0.0,1001.9,7.85,25.9,82,26.2,17.7,0,5,4,0,2026-04-01T20:37:23.211558+05:30
Jaipur,Rajasthan,26.9124,75.7873,25.9,59,0.0,961.6,6.85,31.0,123,86.4,29.5,4,5,7,1,2026-04-01T20:37:23.211566+05:30
Lucknow,Uttar Pradesh,26.8467,80.9462,29.5,41,0.0,995.1,7.3,27.4,89,106.4,29.1,4,5,7,0,2026-04-01T20:37:23.211574+05:30
Kanpur,Uttar Pradesh,26.4499,80.3319,27.5,60,0.0,993.8,7.35,28.8,123,289.6,46.0,4,5,7,1,2026-04-01T20:37:23.211580+05:30
Chandigarh,Chandigarh,30.7333,76.7794,22.5,69,0.0,971.0,6.5,16.6,93,58.2,34.6,3,5,7,1,2026-04-01T20:37:23.211588+05:30
Srinagar,Jammu and Kashmir,34.0837,74.7973,12.5,70,0.0,842.4,7.1,20.5,89,61.7,45.9,3,5,7,0,2026-04-01T20:37:23.211595+05:30
Jammu,Jammu and Kashmir,32.7266,74.857,24.9,55,0.0,975.7,6.5,20.5,80,83.4,45.1,0,5,7,0,2026-04-01T20:37:23.211603+05:30
Amritsar,Punjab,31.634,74.8723,23.4,58,0.0,983.9,6.35,14.4,121,107.8,56.2,0,5,7,0,2026-04-01T20:37:23.211610+05:30
Ludhiana,Punjab,30.901,75.8573,24.5,55,0.0,981.7,6.35,18.4,119,76.6,59.6,0,5,7,0,2026-04-01T20:37:23.211616+05:30
Jalandhar,Punjab,31.326,75.5762,24.6,58,0.0,982.9,7.05,14.8,109,91.7,49.8,0,5,7,0,2026-04-01T20:37:23.211626+05:30
Dehradun,Uttarakhand,30.6284,78.0322,15.1,68,0.0,832.0,6.4,32.0,67,28.4,12.1,3,5,7,0,2026-04-01T20:37:23.211632+05:30
Shimla,Himachal Pradesh,31.1048,77.1734,13.1,66,0.0,785.9,6.15,30.2,85,41.6,22.7,3,5,7,0,2026-04-01T20:37:23.211639+05:30
Manali,Himachal Pradesh,32.2396,77.1887,14.4,83,0.0,821.9,8.65,29.9,104,18.0,9.0,3,10,7,0,2026-04-01T20:37:23.211646+05:30
Gurgaon,Haryana,28.4595,77.0266,25.4,63,0.0,984.2,6.9,30.6,513,303.6,73.6,7,5,7,1,2026-04-01T20:37:23.211652+05:30
Noida,Uttar Pradesh,28.5355,77.391,26.2,59,0.0,987.2,6.85,22.3,513,303.6,73.6,4,5,7,1,2026-04-01T20:37:23.211659+05:30
Ghaziabad,Uttar Pradesh,28.6692,77.4538,25.2,63,0.0,985.3,6.85,22.7,141,232.8,72.6,7,5,7,1,2026-04-01T20:37:23.211665+05:30
Faridabad,Haryana,28.4089,77.3178,24.6,66,0.0,986.4,6.9,26.6,513,303.6,73.6,3,5,7,1,2026-04-01T20:37:23.211672+05:30
Meerut,Uttar Pradesh,28.9845,77.7064,24.2,63,0.0,983.9,6.4,24.1,141,232.8,72.6,3,5,7,1,2026-04-01T20:37:23.211678+05:30
Agra,Uttar Pradesh,27.1767,78.0081,26.2,62,0.0,990.4,7.25,28.8,432,817.7,97.3,7,5,7,1,2026-04-01T20:37:23.211685+05:30
Varanasi,Uttar Pradesh,25.3176,82.9739,28.2,57,0.0,999.0,7.7,25.6,92,36.9,27.5,4,5,7,1,2026-04-01T20:37:23.211693+05:30
Prayagraj,Uttar Pradesh,25.4358,81.8463,30.3,51,0.0,997.7,7.9,36.0,80,35.5,26.4,0,5,7,1,2026-04-01T20:37:23.211702+05:30
Gorakhpur,Uttar Pradesh,26.7606,83.3732,27.3,55,0.0,998.4,7.75,23.8,118,25.1,17.8,4,5,7,1,2026-04-01T20:37:23.211710+05:30
Bareilly,Uttar Pradesh,28.367,79.4304,25.5,54,0.0,988.9,7.1,27.4,105,78.0,34.9,4,5,7,0,2026-04-01T20:37:23.211717+05:30
Aligarh,Uttar Pradesh,27.8974,78.088,25.4,57,0.0,988.1,7.0,21.6,316,294.3,61.9,4,5,7,1,2026-04-01T20:37:23.211723+05:30
Moradabad,Uttar Pradesh,28.8386,78.7733,25.0,55,0.0,985.9,6.9,27.4,116,69.6,40.3,4,5,7,0,2026-04-01T20:37:23.211730+05:30
Saharanpur,Uttar Pradesh,29.9637,77.546,22.6,65,0.0,977.9,6.0,21.2,94,87.1,42.6,3,5,3,0,2026-04-01T20:37:23.211736+05:30
Jhansi,Uttar Pradesh,25.4484,78.5685,29.7,45,0.0,980.2,7.8,32.0,67,39.7,22.4,4,5,7,1,2026-04-01T20:37:26.462165+05:30
Surat,Gujarat,21.1702,72.8311,26.8,75,0.0,1007.3,7.65,25.2,88,32.9,25.4,7,5,4,1,2026-04-01T20:37:26.462197+05:30
Vadodara,Gujarat,22.3072,73.1812,30.4,45,0.0,1004.2,7.85,29.2,115,33.9,26.1,0,5,4,1,2026-04-01T20:37:26.462210+05:30
Rajkot,Gujarat,22.3039,70.8022,26.3,55,0.0,995.3,7.1,33.8,112,21.7,13.8,4,5,7,1,2026-04-01T20:37:26.462221+05:30
Thane,Maharashtra,19.2183,72.9781,26.4,71,0.0,1009.1,7.85,34.2,62,25.7,14.7,7,0,4,1,2026-04-01T20:37:26.462230+05:30
Nagpur,Maharashtra,21.1458,79.0882,25.9,80,0.0,975.1,8.6,48.6,168,55.1,48.2,7,5,7,1,2026-04-01T20:37:26.462241+05:30
Nashik,Maharashtra,19.9975,73.7898,26.1,65,0.0,946.6,8.1,32.0,79,19.3,13.5,7,5,7,1,2026-04-01T20:37:26.462250+05:30
Aurangabad,Maharashtra,19.8762,75.3433,28.5,57,0.0,944.9,8.8,45.7,124,41.6,35.3,4,5,7,1,2026-04-01T20:37:26.462260+05:30
Solapur,Maharashtra,17.6599,75.9064,31.5,43,0.0,957.9,8.9,25.2,128,32.7,28.5,0,5,7,1,2026-04-01T20:37:26.462270+05:30
Kolhapur,Maharashtra,16.705,74.2433,25.7,80,0.0,948.6,8.95,34.2,143,47.5,43.9,7,5,7,1,2026-04-01T20:37:26.462280+05:30
Goa,Goa,15.2993,74.124,28.5,76,0.0,998.7,8.85,32.8,70,27.8,21.0,7,5,7,1,2026-04-01T20:37:26.462289+05:30
Jodhpur,Rajasthan,26.2389,73.0243,28.9,30,0.0,983.5,7.8,33.1,94,129.5,23.5,4,5,7,0,2026-04-01T20:37:26.462299+05:30
Udaipur,Rajasthan,24.5854,73.7125,27.4,39,0.0,947.3,8.4,36.7,53,18.4,9.8,4,5,7,0,2026-04-01T20:37:26.462309+05:30
Kota,Rajasthan,25.2138,75.8648,29.8,46,0.0,979.9,7.45,22.7,71,38.3,24.2,4,5,7,1,2026-04-01T20:37:26.462319+05:30
Bikaner,Rajasthan,28.0229,73.3119,30.1,21,0.0,982.7,6.95,19.4,76,29.2,12.4,0,5,7,0,2026-04-01T20:37:26.462328+05:30
Ajmer,Rajasthan,26.4499,74.6399,29.1,45,0.0,955.5,7.15,26.6,58,39.1,22.2,4,5,7,0,2026-04-01T20:37:26.462336+05:30
Gwalior,Madhya Pradesh,26.2183,78.1828,28.7,52,0.0,986.0,7.5,35.3,74,52.9,22.6,4,5,7,1,2026-04-01T20:37:26.462343+05:30
Indore,Madhya Pradesh,22.7196,75.8577,28.4,53,0.0,948.9,8.3,35.3,99,41.1,32.9,4,5,7,1,2026-04-01T20:37:26.462350+05:30
Bhopal,Madhya Pradesh,23.2599,77.4126,28.1,52,0.0,955.3,8.25,39.2,86,31.5,23.5,4,5,7,1,2026-04-01T20:37:26.462358+05:30
Jabalpur,Madhya Pradesh,23.1815,79.9864,28.6,57,0.0,963.3,8.25,40.7,88,31.1,25.1,4,5,7,1,2026-04-01T20:37:26.462365+05:30
Ujjain,Madhya Pradesh,23.1765,75.7885,29.3,46,0.0,954.6,8.2,30.2,86,37.3,31.9,4,5,7,1,2026-04-01T20:37:26.462373+05:30
Visakhapatnam,Andhra Pradesh,17.6868,83.2185,26.4,80,0.0,1006.3,9.05,35.6,69,19.4,16.4,7,5,4,1,2026-04-01T20:37:26.462380+05:30
Vijayawada,Andhra Pradesh,16.5062,80.648,28.3,65,0.0,1004.3,9.05,29.5,58,13.8,12.3,7,5,4,1,2026-04-01T20:37:26.462388+05:30
Guntur,Andhra Pradesh,16.3067,80.4365,26.6,79,0.0,1005.6,9.1,29.9,56,13.2,11.5,7,5,4,1,2026-04-01T20:37:26.462396+05:30
Nellore,Andhra Pradesh,14.4426,79.9865,26.5,79,0.0,1007.7,9.2,29.9,46,8.7,6.3,7,5,4,1,2026-04-01T20:37:26.462405+05:30
Kurnool,Andhra Pradesh,15.8281,78.0373,33.9,32,0.0,976.6,9.1,23.0,85,34.1,28.5,0,5,7,0,2026-04-01T20:37:26.462413+05:30
Kakinada,Andhra Pradesh,16.9891,82.2475,26.2,79,0.0,1009.9,9.05,35.3,52,10.6,7.8,7,0,4,1,2026-04-01T20:37:26.462421+05:30
Tirupati,Andhra Pradesh,13.6288,79.4192,28.0,54,0.0,993.4,9.35,31.7,79,15.7,14.6,4,5,7,1,2026-04-01T20:37:26.462428+05:30
Warangal,Telangana,17.9689,79.5941,30.1,57,0.0,979.7,8.9,30.6,107,50.6,46.0,0,5,7,1,2026-04-01T20:37:26.462436+05:30
Nizamabad,Telangana,18.6725,78.0941,27.9,59,0.0,967.0,8.85,23.0,132,57.6,50.9,4,5,7,1,2026-04-01T20:37:26.462444+05:30
Mysore,Karnataka,12.2958,76.6396,27.6,48,0.0,928.6,9.5,27.7,119,28.1,25.0,4,5,7,0,2026-04-01T20:37:26.462451+05:30
Mangalore,Karnataka,12.9141,74.856,29.5,81,0.0,1006.9,9.1,22.3,94,34.3,28.2,7,5,4,1,2026-04-01T20:37:26.462459+05:30
Hubli-Dharwad,Karnataka,15.3647,75.124,25.8,75,0.0,941.5,9.15,37.4,140,38.3,35.5,7,5,7,1,2026-04-01T20:37:26.462466+05:30
Belgaum,Karnataka,15.8497,74.4977,24.3,89,0.0,926.3,9.2,26.6,124,46.4,42.3,3,5,7,1,2026-04-01T20:37:29.714102+05:30
Coimbatore,Tamil Nadu,11.0168,76.9558,27.2,74,0.0,962.5,9.45,34.2,89,28.6,23.6,7,5,7,1,2026-04-01T20:37:29.714134+05:30
Madurai,Tamil Nadu,9.9252,78.1198,29.0,56,0.0,993.8,8.9,24.8,62,19.8,16.9,4,5,7,1,2026-04-01T20:37:29.714145+05:30
Trichy,Tamil Nadu,10.7905,78.7047,28.5,62,0.0,1000.8,9.15,26.3,81,16.9,16.0,7,5,4,1,2026-04-01T20:37:29.714155+05:30
Salem,Tamil Nadu,11.6643,78.146,30.3,46,0.0,977.8,9.4,31.0,118,24.6,21.1,0,5,7,1,2026-04-01T20:37:29.714166+05:30
Tirunelveli,Tamil Nadu,8.7139,77.7567,28.5,66,0.0,1004.2,9.35,41.0,52,9.1,8.0,7,5,4,1,2026-04-01T20:37:29.714175+05:30
Vellore,Tamil Nadu,12.9165,79.1325,27.9,57,0.0,986.3,9.4,32.8,68,14.4,12.5,4,5,7,1,2026-04-01T20:37:29.714183+05:30
Erode,Tamil Nadu,11.341,77.7172,31.6,41,0.0,989.2,9.35,21.2,93,26.7,23.6,0,5,7,1,2026-04-01T20:37:29.714191+05:30
Kochi,Kerala,9.9312,76.2673,29.6,79,0.0,1008.9,9.2,28.4,130,26.2,24.1,7,0,4,1,2026-04-01T20:37:29.714200+05:30
Thiruvananthapuram,Kerala,8.5241,76.9366,29.5,74,0.0,1008.6,9.15,28.4,109,18.5,13.4,7,0,4,1,2026-04-01T20:37:29.714208+05:30
Kozhikode,Kerala,11.2588,75.7804,29.8,78,0.0,1008.0,9.15,25.9,67,29.6,22.6,7,0,4,1,2026-04-01T20:37:29.714215+05:30
Thrissur,Kerala,10.5276,76.2144,28.9,81,0.0,1007.4,9.2,33.8,97,22.7,19.8,7,5,4,1,2026-04-01T20:37:29.714225+05:30
Kannur,Kerala,11.8745,75.3704,29.9,74,0.0,1007.5,9.1,26.3,84,36.7,32.2,7,5,4,1,2026-04-01T20:37:29.714234+05:30
Patna,Bihar,25.5941,85.1376,29.7,56,0.0,1001.4,8.2,25.2,160,35.2,25.7,4,5,4,1,2026-04-01T20:37:29.714242+05:30
Gaya,Bihar,24.7914,85.0002,28.9,54,0.0,995.2,7.95,31.3,97,46.4,28.6,4,5,7,1,2026-04-01T20:37:29.714250+05:30
Muzaffarpur,Bihar,26.1209,85.3647,27.8,59,0.0,1001.3,8.15,39.2,163,42.3,35.7,4,5,4,1,2026-04-01T20:37:29.714258+05:30
Bhagalpur,Bihar,25.2425,87.0117,27.2,76,0.0,1002.3,8.25,32.0,154,56.2,44.9,7,5,4,1,2026-04-01T20:37:29.714266+05:30
Ranchi,Jharkhand,23.3441,85.3096,26.4,58,0.0,940.1,8.85,31.3,102,72.6,32.7,4,5,7,1,2026-04-01T20:37:29.714274+05:30
Jamshedpur,Jharkhand,22.8046,86.2029,31.6,46,0.0,992.2,8.7,20.5,131,80.3,46.2,0,5,7,1,2026-04-01T20:37:29.714282+05:30
Dhanbad,Jharkhand,23.7957,86.4304,30.9,43,0.0,981.3,8.6,23.8,161,93.1,58.9,0,5,7,1,2026-04-01T20:37:29.714290+05:30
Bokaro,Jharkhand,23.6693,86.1511,30.7,38,0.0,985.5,8.6,28.4,152,94.1,51.1,0,5,7,0,2026-04-01T20:37:29.714298+05:30
Bhubaneswar,Odisha,20.2961,85.8245,27.2,79,0.0,1005.1,8.85,30.2,94,27.8,25.7,7,5,4,1,2026-04-01T20:37:29.714306+05:30
Cuttack,Odisha,20.4625,85.8828,28.6,73,0.0,1006.7,8.9,24.8,94,27.8,25.7,7,5,4,1,2026-04-01T20:37:29.714313+05:30
Rourkela,Odisha,22.2604,84.8536,29.2,65,0.0,986.3,8.6,14.0,149,99.9,55.2,7,5,7,1,2026-04-01T20:37:29.714322+05:30
Raipur,Chhattisgarh,21.2514,81.6296,30.9,42,0.0,975.8,8.7,18.0,148,56.7,50.2,0,5,7,1,2026-04-01T20:37:29.714330+05:30
Bhilai,Chhattisgarh,21.1938,81.3509,30.3,46,0.0,976.2,8.7,19.1,127,47.7,43.8,0,5,7,1,2026-04-01T20:37:29.714337+05:30
Guwahati,Assam,26.1158,91.7086,24.3,89,0.0,1003.5,8.05,34.6,101,39.6,35.7,3,5,4,1,2026-04-01T20:37:29.714345+05:30
Agartala,Tripura,23.8315,91.2868,25.9,83,0.0,1008.0,8.35,23.4,93,41.1,35.7,7,0,4,1,2026-04-01T20:37:29.714353+05:30
Shillong,Meghalaya,25.5788,91.8933,14.8,91,0.0,857.4,8.45,58.3,82,30.2,26.0,3,10,7,0,2026-04-01T20:37:29.714361+05:30
Imphal,Manipur,24.817,93.9368,18.5,85,0.0,925.3,8.7,63.4,98,55.8,45.6,3,10,7,0,2026-04-01T20:37:29.714369+05:30
Aizawl,Mizoram,23.7271,92.7176,19.7,82,0.0,894.7,8.6,41.4,87,38.4,29.2,3,10,7,1,2026-04-01T20:37:29.714377+05:30
Kohima,Nagaland,25.6701,94.1077,15.9,79,0.0,856.2,8.55,81.7,74,46.1,36.1,3,5,7,0,2026-04-01T20:37:29.714384+05:30
Gangtok,Sikkim,27.3314,88.6138,16.2,86,0.0,838.2,8.45,20.2,91,37.7,32.2,3,10,7,0,2026-04-01T20:37:29.714392+05:30
Siliguri,West Bengal,26.7271,88.3953,21.2,87,0.0,995.6,8.05,32.4,153,74.0,66.4,3,5,7,1,2026-04-01T20:37:32.970349+05:30
Durgapur,West Bengal,23.5204,87.3119,30.6,48,0.0,996.2,8.55,21.2,154,80.3,60.3,0,5,7,1,2026-04-01T20:37:32.970381+05:30
Asansol,West Bengal,23.6739,86.9524,31.6,43,0.0,994.5,8.6,22.0,152,75.2,51.6,0,5,7,1,2026-04-01T20:37:32.970393+05:30
Pondicherry,Puducherry,11.9139,79.8145,25.2,81,0.0,1010.4,8.8,26.6,38,9.4,6.8,7,0,4,1,2026-04-01T20:37:32.970403+05:30
Port Blair,Andaman and Nicobar Islands,11.6234,92.7265,28.8,78,0.0,1009.4,3.85,13.0,43,15.4,13.5,7,0,0,1,2026-04-01T20:37:32.970412+05:30
Haridwar,Uttarakhand,29.9457,78.1642,23.3,62,0.0,976.8,6.5,28.4,81,57.0,31.1,3,5,7,0,2026-04-01T20:37:32.970421+05:30
Rishikesh,Uttarakhand,30.0869,78.2676,22.4,64,0.0,969.6,6.5,32.0,76,41.2,20.2,3,5,7,0,2026-04-01T20:37:32.970430+05:30
Nainital,Uttarakhand,29.3919,79.4542,19.4,43,0.0,808.2,7.55,36.7,110,44.8,22.4,0,5,7,0,2026-04-01T20:37:32.970439+05:30
Mussoorie,Uttarakhand,30.4599,78.0664,16.2,58,0.0,804.7,6.45,38.9,79,55.8,28.8,0,5,7,0,2026-04-01T20:37:32.970447+05:30
Dharamshala,Himachal Pradesh,32.219,76.3234,18.5,60,0.0,871.1,5.85,24.5,69,30.4,15.3,0,5,3,0,2026-04-01T20:37:32.970456+05:30
Dalhousie,Himachal Pradesh,32.5387,75.971,15.4,63,0.0,804.9,6.3,20.9,72,49.5,30.0,3,5,7,0,2026-04-01T20:37:32.970466+05:30
Patiala,Punjab,30.3398,76.3869,22.5,68,0.0,981.2,5.65,16.2,113,94.3,53.4,3,5,3,1,2026-04-01T20:37:32.970475+05:30
Bhatinda,Punjab,30.211,74.9455,23.9,61,0.0,986.6,5.9,24.1,109,160.2,43.8,3,5,3,0,2026-04-01T20:37:32.970483+05:30
Rohtak,Haryana,28.8955,76.6066,24.4,68,0.0,984.5,6.45,26.3,166,361.4,81.5,3,5,7,1,2026-04-01T20:37:32.970492+05:30
Panipat,Haryana,29.3909,76.9635,22.6,69,0.0,983.1,6.15,15.1,140,264.5,62.6,3,5,7,1,2026-04-01T20:37:32.970500+05:30
Mathura,Uttar Pradesh,27.4924,77.6737,25.9,64,0.0,989.5,7.15,30.6,407,370.7,63.1,7,5,7,1,2026-04-01T20:37:32.970509+05:30
Vrindavan,Uttar Pradesh,27.5823,77.7027,25.7,63,0.0,989.9,7.1,26.3,407,370.7,63.1,7,5,7,1,2026-04-01T20:37:32.970546+05:30
Ayodhya,Uttar Pradesh,26.7922,82.1998,28.6,56,0.0,996.6,7.55,25.6,79,36.2,18.5,4,5,7,1,2026-04-01T20:37:32.970558+05:30
Ratlam,Madhya Pradesh,23.3315,75.0367,29.2,37,0.0,955.1,8.15,34.2,92,26.8,23.5,4,5,7,0,2026-04-01T20:37:32.970567+05:30
Sagar,Madhya Pradesh,23.8388,78.7378,29.4,44,0.0,952.4,8.25,33.1,72,23.7,16.5,4,5,7,0,2026-04-01T20:37:32.970576+05:30
Satna,Madhya Pradesh,24.6005,80.8322,30.9,41,0.0,973.6,8.15,26.6,90,27.7,18.0,0,5,7,1,2026-04-01T20:37:32.970586+05:30
Akola,Maharashtra,20.7002,77.0082,29.8,59,0.0,976.1,8.55,27.0,105,34.0,27.3,4,5,7,1,2026-04-01T20:37:32.970597+05:30
Amravati,Maharashtra,20.9374,77.7796,28.2,55,0.0,968.4,8.6,27.0,103,33.1,27.2,4,5,7,1,2026-04-01T20:37:32.970608+05:30
Latur,Maharashtra,18.4088,76.5604,27.6,59,0.0,940.6,8.85,25.6,112,39.8,35.0,4,5,7,1,2026-04-01T20:37:32.970617+05:30
Nanded,Maharashtra,19.1383,77.3091,28.6,59,0.0,969.6,8.75,23.0,112,42.6,36.3,4,5,7,1,2026-04-01T20:37:32.970626+05:30
Gulbarga,Karnataka,17.3297,76.8343,31.3,43,0.0,960.2,8.95,24.1,130,38.5,33.1,0,5,7,1,2026-04-01T20:37:32.970635+05:30
Bidar,Karnataka,17.9104,77.5199,27.0,61,0.0,937.3,8.95,26.6,111,45.6,39.5,7,5,7,1,2026-04-01T20:37:32.970647+05:30
Hospet,Karnataka,15.2689,76.3909,29.1,62,0.0,956.4,9.15,23.4,165,39.0,35.0,7,5,7,1,2026-04-01T20:37:32.970654+05:30
Tirupur,Tamil Nadu,11.1085,77.3411,31.3,37,0.0,975.4,9.45,21.6,98,32.7,27.6,0,5,7,0,2026-04-01T20:37:32.970661+05:30
Alappuzha,Kerala,9.4981,76.3388,29.5,80,0.0,1009.2,9.15,26.6,144,26.1,21.9,7,0,4,1,2026-04-01T20:37:32.970667+05:30
Munnar,Kerala,10.0889,77.0595,22.1,88,0.0,857.8,9.75,30.6,71,31.0,24.6,3,5,7,1,2026-04-01T20:37:32.970675+05:30
Silchar,Assam,24.8333,92.7789,24.6,86,0.0,1007.8,8.4,35.3,116,61.5,54.2,3,5,4,1,2026-04-01T20:37:32.970681+05:30
Dibrugarh,Assam,27.4728,94.912,22.7,92,0.0,997.9,7.65,31.3,109,40.9,34.0,3,5,7,1,2026-04-01T20:37:32.970688+05:30
