city,state,latitude,longitude,temp,humidity,rain,pressure,uv_index,wind_gusts,aqi,pm10,pm2_5,no2,co,o3,so2,mosquito_risk,arthritis_risk,migraine_risk,frizz_risk,updated_at
Delhi,Delhi,28.6139,77.209,29.0,80,0.0,972.9,5.55,29.2,113,19.6,19.3,14.7,475.0,115.0,21.3,7,5,3,1,2026-07-08T14:03:05.568006+05:30
Mumbai,Maharashtra,19.076,72.8777,29.1,82,0.0,1003.0,6.4,60.1,55,41.0,18.5,6.4,237.0,52.0,6.2,7,5,4,1,2026-07-08T14:03:05.568043+05:30
Bangalore,Karnataka,12.9716,77.5946,29.5,52,0.0,910.3,8.4,62.6,29,10.1,5.0,2.4,188.0,66.0,2.1,4,5,7,1,2026-07-08T14:03:05.568058+05:30
Hyderabad,Telangana,17.385,78.4867,32.7,47,0.0,947.3,8.2,60.8,24,6.5,4.6,1.1,172.0,83.0,2.4,0,5,7,1,2026-07-08T14:03:05.568066+05:30
Chennai,Tamil Nadu,13.0827,80.2707,39.3,32,0.0,1002.1,8.0,52.9,59,20.4,12.6,3.6,175.0,101.0,5.7,0,5,7,1,2026-07-08T14:03:05.568074+05:30
Kolkata,West Bengal,22.5726,88.3639,31.6,72,0.1,998.5,7.85,40.0,69,34.2,23.7,5.6,217.0,85.0,8.2,6,5,7,1,2026-07-08T14:03:05.568081+05:30
Pune,Maharashtra,18.5204,73.8567,26.1,77,0.0,943.0,7.25,59.0,20,24.8,10.4,5.8,131.0,47.0,4.9,7,5,7,1,2026-07-08T14:03:05.568088+05:30
Ahmedabad,Gujarat,23.0225,72.5714,33.2,61,0.0,993.2,6.45,37.1,83,57.2,24.2,3.4,141.0,80.0,5.7,3,5,7,1,2026-07-08T14:03:05.568094+05:30
Jaipur,Rajasthan,26.9124,75.7873,30.9,68,0.0,949.7,8.1,39.6,67,124.3,46.2,1.9,212.0,135.0,4.3,3,5,7,1,2026-07-08T14:03:05.568100+05:30
Lucknow,Uttar Pradesh,26.8467,80.9462,30.5,79,0.1,982.0,7.2,47.9,79,26.5,25.2,1.6,232.0,138.0,9.4,6,5,7,1,2026-07-08T14:03:05.568110+05:30
Kanpur,Uttar Pradesh,26.4499,80.3319,30.5,78,0.0,979.6,7.3,43.9,74,27.9,26.1,1.7,226.0,135.0,7.2,3,5,7,1,2026-07-08T14:03:05.568116+05:30
Chandigarh,Chandigarh,30.7333,76.7794,31.4,65,0.0,960.3,6.6,29.2,149,12.5,12.0,3.4,317.0,147.0,6.6,3,5,7,1,2026-07-08T14:03:05.568124+05:30
Srinagar,Jammu and Kashmir,34.0837,74.7973,30.6,38,0.0,837.3,8.9,24.8,80,23.1,16.0,1.0,310.0,168.0,3.1,0,5,7,0,2026-07-08T14:03:05.568131+05:30
Jammu,Jammu and Kashmir,32.7266,74.857,33.0,64,0.1,963.5,8.5,33.8,116,97.6,59.8,1.8,385.0,200.0,6.7,6,5,7,1,2026-07-08T14:03:05.568137+05:30
Amritsar,Punjab,31.634,74.8723,33.8,65,0.0,970.8,8.35,28.8,174,184.9,83.6,2.4,470.0,173.0,10.9,3,5,7,1,2026-07-08T14:03:05.568142+05:30
Ludhiana,Punjab,30.901,75.8573,33.0,65,0.0,969.2,5.7,28.1,155,90.1,29.3,2.4,418.0,151.0,5.9,3,5,3,1,2026-07-08T14:03:05.568148+05:30
Jalandhar,Punjab,31.326,75.5762,32.8,66,0.0,970.1,8.15,32.4,164,69.2,46.6,2.1,391.0,162.0,6.3,3,5,7,1,2026-07-08T14:03:05.568154+05:30
Dehradun,Uttarakhand,30.6284,78.0322,21.4,86,0.1,825.8,1.55,17.3,64,10.3,10.2,7.1,255.0,109.0,1.7,6,5,3,1,2026-07-08T14:03:05.568161+05:30
Shimla,Himachal Pradesh,31.1048,77.1734,18.0,92,0.2,780.3,2.45,20.5,64,9.1,8.8,1.5,285.0,125.0,2.0,6,10,3,1,2026-07-08T14:03:05.568169+05:30
Manali,Himachal Pradesh,32.2396,77.1887,24.2,80,0.1,815.8,6.75,39.6,49,9.0,8.9,5.8,174.0,155.0,1.5,6,5,7,1,2026-07-08T14:03:05.568177+05:30
Gurgaon,Haryana,28.4595,77.0266,29.0,80,0.1,971.3,7.55,29.2,107,17.3,17.1,13.4,453.0,111.0,16.7,10,5,7,1,2026-07-08T14:03:05.568183+05:30
Noida,Uttar Pradesh,28.5355,77.391,29.7,79,0.0,974.2,5.75,32.4,107,17.3,17.1,13.4,340.0,111.0,16.7,7,5,3,1,2026-07-08T14:03:05.568189+05:30
Ghaziabad,Uttar Pradesh,28.6692,77.4538,28.9,85,0.0,972.6,6.5,29.5,103,23.7,23.1,3.7,300.0,139.0,12.9,7,5,7,1,2026-07-08T14:03:05.568194+05:30
Faridabad,Haryana,28.4089,77.3178,29.5,77,0.0,973.5,5.8,32.4,107,17.3,17.1,13.4,324.0,111.0,16.7,7,5,3,1,2026-07-08T14:03:05.568200+05:30
Meerut,Uttar Pradesh,28.9845,77.7064,28.3,89,0.0,971.6,7.05,31.3,103,23.7,23.1,3.7,282.0,139.0,12.9,7,5,7,1,2026-07-08T14:03:05.568206+05:30
Agra,Uttar Pradesh,27.1767,78.0081,27.9,90,0.3,975.5,6.1,33.5,81,25.7,25.6,3.8,302.0,138.0,7.8,10,5,7,1,2026-07-08T14:03:05.568212+05:30
Varanasi,Uttar Pradesh,25.3176,82.9739,28.6,90,0.1,987.5,5.6,41.0,70,24.5,23.7,1.9,323.0,152.0,18.9,10,5,3,1,2026-07-08T14:03:05.568219+05:30
Prayagraj,Uttar Pradesh,25.4358,81.8463,32.3,72,0.0,984.6,6.65,33.1,64,17.8,17.3,1.5,212.0,140.0,7.6,3,5,7,1,2026-07-08T14:03:05.568225+05:30
Gorakhpur,Uttar Pradesh,26.7606,83.3732,32.6,67,0.1,987.2,6.6,36.4,85,25.7,23.9,1.8,223.0,148.0,8.6,6,5,7,1,2026-07-08T14:03:05.568231+05:30
Bareilly,Uttar Pradesh,28.367,79.4304,30.0,82,0.1,976.1,5.75,44.6,72,25.1,23.1,2.0,228.0,142.0,10.3,10,5,3,1,2026-07-08T14:03:05.568239+05:30
Aligarh,Uttar Pradesh,27.8974,78.088,28.2,88,0.2,974.2,5.8,34.6,93,31.9,29.5,4.3,241.0,136.0,13.9,10,5,3,1,2026-07-08T14:03:05.568245+05:30
Moradabad,Uttar Pradesh,28.8386,78.7733,28.8,85,0.1,973.6,7.25,43.2,100,27.8,25.8,3.3,275.0,138.0,13.1,10,5,7,1,2026-07-08T14:03:05.568251+05:30
Saharanpur,Uttar Pradesh,29.9637,77.546,29.1,80,0.1,966.8,6.7,24.8,125,19.6,19.4,5.5,268.0,114.0,5.3,10,5,7,1,2026-07-08T14:03:05.568257+05:30
Jhansi,Uttar Pradesh,25.4484,78.5685,33.1,61,0.1,965.4,7.0,44.6,58,6.1,5.9,3.3,254.0,111.0,5.0,6,5,7,1,2026-07-08T14:03:08.875305+05:30
Surat,Gujarat,21.1702,72.8311,29.6,84,0.0,999.4,2.15,50.8,87,39.9,26.5,22.6,414.0,30.0,47.6,7,5,3,1,2026-07-08T14:03:08.875333+05:30
Vadodara,Gujarat,22.3072,73.1812,29.0,81,0.0,996.4,3.85,34.9,76,43.8,23.6,12.0,167.0,44.0,5.6,7,5,3,1,2026-07-08T14:03:08.875343+05:30
Rajkot,Gujarat,22.3039,70.8022,35.0,51,0.0,985.0,5.95,48.2,73,78.0,27.5,1.1,107.0,95.0,4.8,0,5,3,1,2026-07-08T14:03:08.875350+05:30
Thane,Maharashtra,19.2183,72.9781,28.8,87,0.0,1002.4,4.75,39.6,55,41.0,18.5,6.4,222.0,52.0,6.2,7,5,0,1,2026-07-08T14:03:08.875357+05:30
Nagpur,Maharashtra,21.1458,79.0882,32.2,60,0.0,964.1,8.25,47.2,40,9.0,8.8,5.9,179.0,92.0,18.2,0,5,7,1,2026-07-08T14:03:08.875364+05:30
Nashik,Maharashtra,19.9975,73.7898,26.4,78,0.0,939.6,0.75,53.3,22,11.8,6.1,3.1,131.0,51.0,1.4,7,5,3,1,2026-07-08T14:03:08.875371+05:30
Aurangabad,Maharashtra,19.8762,75.3433,24.1,92,0.1,937.8,6.35,43.2,25,7.6,4.5,3.7,145.0,57.0,2.3,6,5,7,1,2026-07-08T14:03:08.875377+05:30
Solapur,Maharashtra,17.6599,75.9064,32.1,52,0.1,951.4,7.7,59.8,25,10.8,5.1,1.0,106.0,80.0,1.5,3,5,7,1,2026-07-08T14:03:08.875384+05:30
Kolhapur,Maharashtra,16.705,74.2433,25.4,87,0.0,944.2,7.55,63.0,20,8.0,5.3,2.0,122.0,55.0,1.7,7,5,7,1,2026-07-08T14:03:08.875390+05:30
Goa,Goa,15.2993,74.124,26.1,95,0.1,996.3,8.35,44.3,53,22.6,13.9,0.7,115.0,46.0,0.8,10,5,7,1,2026-07-08T14:03:08.875396+05:30
Jodhpur,Rajasthan,26.2389,73.0243,37.5,44,0.0,972.2,6.85,32.4,130,272.9,62.4,0.7,149.0,102.0,4.2,0,5,10,1,2026-07-08T14:03:08.875403+05:30
Udaipur,Rajasthan,24.5854,73.7125,30.6,72,0.0,937.7,6.45,38.2,61,52.5,24.6,0.9,149.0,95.0,3.1,3,5,7,1,2026-07-08T14:03:08.875410+05:30
Kota,Rajasthan,25.2138,75.8648,31.9,66,0.1,967.6,7.25,42.8,56,88.2,33.1,1.3,161.0,113.0,4.9,6,5,7,1,2026-07-08T14:03:08.875416+05:30
Bikaner,Rajasthan,28.0229,73.3119,36.7,42,0.0,971.1,8.05,56.2,151,156.0,58.8,0.4,143.0,91.0,2.5,0,5,10,1,2026-07-08T14:03:08.875423+05:30
Ajmer,Rajasthan,26.4499,74.6399,32.6,63,0.0,945.2,7.25,37.1,71,181.6,54.0,1.2,148.0,101.0,3.7,3,5,7,1,2026-07-08T14:03:08.875429+05:30
Gwalior,Madhya Pradesh,26.2183,78.1828,28.8,84,0.3,970.4,7.2,33.8,64,6.8,6.8,5.5,257.0,97.0,3.6,10,5,7,1,2026-07-08T14:03:08.875435+05:30
Indore,Madhya Pradesh,22.7196,75.8577,24.8,94,0.4,939.9,5.3,47.5,66,17.6,13.5,7.9,308.0,71.0,4.1,6,5,3,1,2026-07-08T14:03:08.875441+05:30
Bhopal,Madhya Pradesh,23.2599,77.4126,28.4,77,0.0,944.0,1.8,41.8,67,9.9,9.3,5.1,281.0,90.0,3.6,7,5,3,1,2026-07-08T14:03:08.875447+05:30
Jabalpur,Madhya Pradesh,23.1815,79.9864,29.8,71,0.1,951.6,6.2,47.9,51,8.4,7.8,4.1,232.0,68.0,7.0,10,5,7,1,2026-07-08T14:03:08.875453+05:30
Ujjain,Madhya Pradesh,23.1765,75.7885,24.8,95,0.3,945.5,1.25,44.3,60,22.6,16.4,7.0,221.0,65.0,5.1,6,5,3,1,2026-07-08T14:03:08.875460+05:30
Visakhapatnam,Andhra Pradesh,17.6868,83.2185,32.0,63,0.0,997.3,9.0,51.5,76,27.6,18.3,4.1,266.0,107.0,15.7,3,5,7,1,2026-07-08T14:03:08.875467+05:30
Vijayawada,Andhra Pradesh,16.5062,80.648,36.7,43,0.0,996.2,6.3,48.2,59,11.7,6.8,1.1,111.0,78.0,3.1,0,5,10,1,2026-07-08T14:03:08.875473+05:30
Guntur,Andhra Pradesh,16.3067,80.4365,38.1,37,0.0,997.3,5.45,53.3,57,11.4,6.3,0.8,111.0,77.0,2.8,0,5,6,1,2026-07-08T14:03:08.875480+05:30
Nellore,Andhra Pradesh,14.4426,79.9865,37.8,36,0.0,1000.4,8.55,47.5,42,10.2,5.2,1.2,94.0,72.0,2.5,0,5,7,1,2026-07-08T14:03:08.875487+05:30
Kurnool,Andhra Pradesh,15.8281,78.0373,35.3,43,0.0,971.8,4.7,68.4,24,9.5,5.0,0.7,107.0,77.0,1.5,0,5,6,1,2026-07-08T14:03:08.875494+05:30
Kakinada,Andhra Pradesh,16.9891,82.2475,34.7,51,0.0,1001.1,8.75,52.6,67,16.3,11.1,1.3,130.0,85.0,2.7,0,5,4,1,2026-07-08T14:03:08.875500+05:30
Tirupati,Andhra Pradesh,13.6288,79.4192,37.0,36,0.0,986.7,8.4,45.4,37,13.8,6.2,1.0,103.0,63.0,1.1,0,5,10,1,2026-07-08T14:03:08.875506+05:30
Warangal,Telangana,17.9689,79.5941,33.3,55,0.0,972.0,5.55,50.0,37,4.7,4.2,1.2,122.0,85.0,2.5,0,5,3,1,2026-07-08T14:03:08.875512+05:30
Nizamabad,Telangana,18.6725,78.0941,30.5,66,0.2,958.0,5.6,59.8,23,4.2,3.8,2.1,121.0,74.0,3.4,6,5,3,1,2026-07-08T14:03:08.875538+05:30
Mysore,Karnataka,12.2958,76.6396,27.4,65,0.2,927.8,5.75,59.8,26,14.2,6.4,1.2,108.0,62.0,1.2,10,5,3,1,2026-07-08T14:03:08.875548+05:30
Mangalore,Karnataka,12.9141,74.856,27.7,84,0.2,1007.0,8.7,52.6,60,28.2,15.8,0.6,92.0,47.0,1.3,10,5,4,1,2026-07-08T14:03:08.875554+05:30
Hubli-Dharwad,Karnataka,15.3647,75.124,26.1,81,0.3,938.1,8.1,69.1,21,8.5,4.4,1.0,100.0,53.0,0.9,10,5,7,1,2026-07-08T14:03:08.875561+05:30
Belgaum,Karnataka,15.8497,74.4977,24.1,89,0.1,922.6,2.05,67.0,20,9.4,4.6,1.2,99.0,50.0,1.2,6,5,3,1,2026-07-08T14:03:12.194495+05:30
Coimbatore,Tamil Nadu,11.0168,76.9558,29.3,64,0.0,960.5,8.4,57.6,41,17.9,8.1,1.0,131.0,62.0,1.6,7,5,7,1,2026-07-08T14:03:12.194551+05:30
Madurai,Tamil Nadu,9.9252,78.1198,36.8,36,0.1,990.1,8.7,42.5,73,32.0,14.7,1.6,129.0,94.0,2.0,3,5,10,1,2026-07-08T14:03:12.194564+05:30
Trichy,Tamil Nadu,10.7905,78.7047,36.9,38,0.0,996.5,8.75,63.0,54,18.4,8.5,1.1,105.0,73.0,1.6,0,5,10,1,2026-07-08T14:03:12.194573+05:30
Salem,Tamil Nadu,11.6643,78.146,33.8,46,0.0,975.1,8.35,39.2,62,24.9,12.0,1.8,113.0,88.0,4.5,0,5,7,1,2026-07-08T14:03:12.194580+05:30
Tirunelveli,Tamil Nadu,8.7139,77.7567,35.3,41,0.1,1001.6,8.65,52.6,55,14.0,7.4,1.1,108.0,68.0,1.3,3,5,7,1,2026-07-08T14:03:12.194587+05:30
Vellore,Tamil Nadu,12.9165,79.1325,37.3,35,0.0,980.6,8.9,50.4,41,18.7,9.1,1.6,113.0,69.0,1.8,0,5,10,1,2026-07-08T14:03:12.194594+05:30
Erode,Tamil Nadu,11.341,77.7172,35.2,42,0.1,986.5,8.8,42.1,58,20.8,10.1,1.5,138.0,80.0,1.8,3,5,10,1,2026-07-08T14:03:12.194600+05:30
Kochi,Kerala,9.9312,76.2673,29.0,78,0.0,1009.2,8.3,41.8,67,18.5,9.9,1.6,110.0,60.0,2.4,7,0,4,1,2026-07-08T14:03:12.194607+05:30
Thiruvananthapuram,Kerala,8.5241,76.9366,27.6,82,0.1,1008.6,8.45,55.8,51,17.6,9.6,1.4,102.0,60.0,1.2,10,0,4,1,2026-07-08T14:03:12.194616+05:30
Kozhikode,Kerala,11.2588,75.7804,27.0,89,0.2,1008.6,7.95,38.9,58,13.9,6.7,0.6,106.0,61.0,1.6,10,0,4,1,2026-07-08T14:03:12.194623+05:30
Thrissur,Kerala,10.5276,76.2144,28.1,82,0.0,1007.8,8.5,40.3,65,15.8,8.6,1.0,101.0,56.0,1.6,7,5,4,1,2026-07-08T14:03:12.194630+05:30
Kannur,Kerala,11.8745,75.3704,28.2,78,0.0,1008.0,8.25,34.9,56,19.0,10.5,0.9,95.0,66.0,1.6,7,0,4,1,2026-07-08T14:03:12.194637+05:30
Patna,Bihar,25.5941,85.1376,34.0,63,0.0,990.8,7.25,25.2,89,19.0,16.1,1.7,207.0,135.0,7.3,3,5,7,1,2026-07-08T14:03:12.194644+05:30
Gaya,Bihar,24.7914,85.0002,31.9,72,0.2,984.8,6.9,28.8,66,13.9,12.0,1.4,161.0,123.0,7.0,6,5,7,1,2026-07-08T14:03:12.194650+05:30
Muzaffarpur,Bihar,26.1209,85.3647,33.5,68,0.0,990.9,7.65,28.4,82,20.5,18.3,1.8,253.0,154.0,8.7,3,5,7,1,2026-07-08T14:03:12.194657+05:30
Bhagalpur,Bihar,25.2425,87.0117,29.9,86,0.0,992.6,6.45,25.9,90,12.3,11.1,3.2,218.0,123.0,9.4,7,5,7,1,2026-07-08T14:03:12.194663+05:30
Ranchi,Jharkhand,23.3441,85.3096,29.3,67,0.0,930.7,8.0,47.5,65,14.2,10.9,0.9,149.0,111.0,5.0,7,5,7,1,2026-07-08T14:03:12.194670+05:30
Jamshedpur,Jharkhand,22.8046,86.2029,31.1,72,0.0,983.2,5.35,35.3,75,24.9,20.4,2.8,261.0,134.0,14.8,3,5,3,1,2026-07-08T14:03:12.194676+05:30
Dhanbad,Jharkhand,23.7957,86.4304,30.7,73,0.0,971.8,7.3,34.9,109,42.8,39.5,29.1,391.0,96.0,70.8,3,5,7,1,2026-07-08T14:03:12.194684+05:30
Bokaro,Jharkhand,23.6693,86.1511,32.0,66,0.0,975.6,8.0,34.2,89,28.8,25.8,17.2,53.0,113.0,51.1,3,5,7,1,2026-07-08T14:03:12.194691+05:30
Bhubaneswar,Odisha,20.2961,85.8245,32.3,66,0.0,995.5,7.95,56.9,68,34.3,23.1,2.2,164.0,101.0,5.9,3,5,7,1,2026-07-08T14:03:12.194698+05:30
Cuttack,Odisha,20.4625,85.8828,32.7,64,0.0,997.0,7.6,47.2,68,34.3,23.1,2.2,159.0,101.0,5.9,3,5,7,1,2026-07-08T14:03:12.194704+05:30
Rourkela,Odisha,22.2604,84.8536,32.9,58,0.1,976.9,6.3,43.9,69,18.1,12.3,1.1,145.0,111.0,5.3,3,5,7,1,2026-07-08T14:03:12.194711+05:30
Raipur,Chhattisgarh,21.2514,81.6296,31.1,62,0.0,966.6,6.25,55.1,57,9.5,9.0,5.2,159.0,92.0,17.7,3,5,7,1,2026-07-08T14:03:12.194717+05:30
Bhilai,Chhattisgarh,21.1938,81.3509,30.2,65,0.0,967.1,6.8,58.7,57,9.3,8.8,5.8,277.0,88.0,18.8,3,5,7,1,2026-07-08T14:03:12.194724+05:30
Guwahati,Assam,26.1158,91.7086,30.5,81,0.2,993.2,6.2,27.7,47,8.4,8.0,1.4,207.0,100.0,2.0,6,5,7,1,2026-07-08T14:03:12.194730+05:30
Agartala,Tripura,23.8315,91.2868,27.2,95,0.0,1000.3,3.65,37.8,49,22.9,16.2,6.7,145.0,87.0,6.1,7,5,0,1,2026-07-08T14:03:12.194737+05:30
Shillong,Meghalaya,25.5788,91.8933,21.6,98,0.1,852.6,3.05,31.0,32,5.7,5.7,3.9,186.0,84.0,3.0,6,5,3,1,2026-07-08T14:03:12.194744+05:30
Imphal,Manipur,24.817,93.9368,26.1,84,0.1,918.0,0.7,32.0,23,4.1,3.9,4.4,172.0,56.0,1.1,10,5,3,1,2026-07-08T14:03:12.194750+05:30
Aizawl,Mizoram,23.7271,92.7176,20.7,95,0.1,888.6,1.0,40.3,26,4.2,2.4,1.6,106.0,62.0,0.9,6,5,3,1,2026-07-08T14:03:12.194757+05:30
Kohima,Nagaland,25.6701,94.1077,22.8,90,0.1,851.1,6.2,18.7,25,2.3,2.3,3.6,140.0,59.0,0.9,6,5,7,1,2026-07-08T14:03:12.194764+05:30
Gangtok,Sikkim,27.3314,88.6138,20.4,97,0.2,833.5,6.75,32.8,46,3.0,3.0,1.1,180.0,107.0,1.1,6,5,7,1,2026-07-08T14:03:12.194770+05:30
Siliguri,West Bengal,26.7271,88.3953,28.3,87,0.2,985.2,7.85,27.0,61,11.3,11.1,2.0,268.0,127.0,3.1,10,5,7,1,2026-07-08T14:03:15.524874+05:30
Durgapur,West Bengal,23.5204,87.3119,28.0,94,0.2,987.3,8.55,42.5,94,37.6,32.6,21.6,595.0,99.0,53.4,10,5,7,1,2026-07-08T14:03:15.524901+05:30
Asansol,West Bengal,23.6739,86.9524,28.8,90,0.2,985.6,7.5,36.0,87,39.5,35.6,22.7,224.0,96.0,50.3,10,5,7,1,2026-07-08T14:03:15.524912+05:30
Pondicherry,Puducherry,11.9139,79.8145,36.1,41,0.0,1004.6,8.0,38.9,71,39.8,24.7,3.4,147.0,112.0,10.2,0,5,7,1,2026-07-08T14:03:15.524920+05:30
Port Blair,Andaman and Nicobar Islands,11.6234,92.7265,30.8,62,0.0,1007.1,7.4,38.5,60,30.6,18.2,0.3,92.0,59.0,0.5,3,5,4,1,2026-07-08T14:03:15.524927+05:30
Haridwar,Uttarakhand,29.9457,78.1642,27.9,88,0.2,965.3,5.2,19.8,116,16.4,16.3,5.6,273.0,109.0,4.4,10,5,3,1,2026-07-08T14:03:15.524935+05:30
Rishikesh,Uttarakhand,30.0869,78.2676,27.6,91,0.3,958.0,3.9,13.7,84,11.8,11.8,3.6,278.0,106.0,1.5,10,5,3,1,2026-07-08T14:03:15.524942+05:30
Nainital,Uttarakhand,29.3919,79.4542,19.6,98,0.1,800.7,7.25,31.0,49,12.3,10.8,1.1,241.0,117.0,5.6,6,10,7,1,2026-07-08T14:03:15.524948+05:30
Mussoorie,Uttarakhand,30.4599,78.0664,19.3,92,0.1,798.5,2.4,18.4,80,9.5,9.5,6.2,270.0,120.0,4.6,6,10,3,1,2026-07-08T14:03:15.524955+05:30
Dharamshala,Himachal Pradesh,32.219,76.3234,23.7,90,0.0,863.4,8.35,26.3,49,10.7,9.8,1.2,327.0,128.0,2.2,3,5,7,1,2026-07-08T14:03:15.524961+05:30
Dalhousie,Himachal Pradesh,32.5387,75.971,21.1,85,0.1,801.0,8.05,26.3,90,33.2,27.5,1.8,339.0,181.0,5.2,6,5,7,1,2026-07-08T14:03:15.524968+05:30
Patiala,Punjab,30.3398,76.3869,31.4,73,0.0,969.0,3.85,25.6,143,18.0,15.1,2.5,306.0,142.0,7.6,3,5,3,1,2026-07-08T14:03:15.524975+05:30
Bhatinda,Punjab,30.211,74.9455,33.3,62,0.0,973.8,7.5,37.1,322,307.3,77.8,3.0,422.0,184.0,15.9,3,5,7,1,2026-07-08T14:03:15.524982+05:30
Rohtak,Haryana,28.8955,76.6066,30.9,72,0.0,971.9,6.0,28.4,140,14.2,14.1,10.6,274.0,130.0,17.4,3,5,3,1,2026-07-08T14:03:15.524989+05:30
Panipat,Haryana,29.3909,76.9635,28.9,83,0.0,971.0,5.35,25.2,128,19.6,19.4,5.9,272.0,131.0,12.4,7,5,3,1,2026-07-08T14:03:15.524996+05:30
Mathura,Uttar Pradesh,27.4924,77.6737,27.9,95,0.2,975.3,5.9,37.1,89,19.1,18.4,5.0,288.0,125.0,7.4,10,5,3,1,2026-07-08T14:03:15.525002+05:30
Vrindavan,Uttar Pradesh,27.5823,77.7027,28.1,93,0.2,975.9,6.7,36.4,89,19.1,18.4,5.0,274.0,125.0,7.4,10,5,7,1,2026-07-08T14:03:15.525008+05:30
Ayodhya,Uttar Pradesh,26.7922,82.1998,32.0,73,0.0,984.7,6.6,41.8,86,26.5,25.0,1.6,218.0,146.0,10.1,3,5,7,1,2026-07-08T14:03:15.525014+05:30
Ratlam,Madhya Pradesh,23.3315,75.0367,26.4,90,0.1,946.4,1.5,41.4,57,26.4,17.5,7.2,165.0,62.0,7.5,10,5,3,1,2026-07-08T14:03:15.525021+05:30
Sagar,Madhya Pradesh,23.8388,78.7378,29.8,71,0.1,939.8,4.55,41.8,55,10.0,9.8,4.5,228.0,90.0,2.2,10,5,3,1,2026-07-08T14:03:15.525027+05:30
Satna,Madhya Pradesh,24.6005,80.8322,27.9,92,0.2,960.4,8.0,40.7,57,7.9,7.7,1.2,249.0,114.0,5.4,10,5,7,1,2026-07-08T14:03:15.525033+05:30
Akola,Maharashtra,20.7002,77.0082,28.2,80,0.1,967.1,6.8,49.0,29,4.2,4.1,4.3,174.0,96.0,8.7,10,5,7,1,2026-07-08T14:03:15.525040+05:30
Amravati,Maharashtra,20.9374,77.7796,28.3,78,0.0,958.7,7.3,53.3,30,4.3,4.3,4.2,207.0,99.0,9.7,7,5,7,1,2026-07-08T14:03:15.525047+05:30
Latur,Maharashtra,18.4088,76.5604,29.8,59,0.0,934.0,6.8,60.1,23,12.1,6.3,2.2,119.0,68.0,1.2,4,5,7,1,2026-07-08T14:03:15.525054+05:30
Nanded,Maharashtra,19.1383,77.3091,30.6,62,0.1,961.5,7.7,63.4,27,4.1,3.6,2.2,137.0,78.0,3.5,6,5,7,1,2026-07-08T14:03:15.525060+05:30
Gulbarga,Karnataka,17.3297,76.8343,32.2,52,0.1,952.9,6.7,65.2,25,7.2,4.0,1.3,111.0,76.0,1.7,3,5,7,1,2026-07-08T14:03:15.525067+05:30
Bidar,Karnataka,17.9104,77.5199,31.5,54,0.0,929.8,7.1,63.4,26,8.2,5.1,1.1,117.0,90.0,1.1,0,5,7,1,2026-07-08T14:03:15.525073+05:30
Hospet,Karnataka,15.2689,76.3909,31.9,49,0.1,952.2,5.75,72.0,22,9.5,4.7,0.9,102.0,63.0,1.4,3,5,3,1,2026-07-08T14:03:15.525079+05:30
Tirupur,Tamil Nadu,11.1085,77.3411,32.1,53,0.0,973.3,8.85,63.7,60,20.7,10.0,1.4,130.0,77.0,2.1,0,5,7,1,2026-07-08T14:03:15.525085+05:30
Alappuzha,Kerala,9.4981,76.3388,28.2,81,0.0,1009.4,8.25,45.0,60,21.8,12.5,2.2,86.0,70.0,3.1,7,0,4,1,2026-07-08T14:03:15.525091+05:30
Munnar,Kerala,10.0889,77.0595,18.0,93,0.2,856.8,5.9,60.1,42,17.1,7.1,0.9,96.0,52.0,1.0,6,10,3,1,2026-07-08T14:03:15.525098+05:30
Silchar,Assam,24.8333,92.7789,28.6,88,0.1,998.8,0.75,40.0,28,10.1,7.8,2.8,133.0,72.0,2.2,10,5,3,1,2026-07-08T14:03:15.525105+05:30
Dibrugarh,Assam,27.4728,94.912,30.9,73,0.1,987.1,7.2,21.2,49,7.9,7.4,1.0,186.0,102.0,1.4,6,5,7,1,2026-07-08T14:03:15.525111+05:30
