city,state,latitude,longitude,temp,humidity,rain,pressure,uv_index,wind_gusts,aqi,pm10,pm2_5,mosquito_risk,arthritis_risk,migraine_risk,frizz_risk,updated_at
Delhi,Delhi,28.6139,77.209,27.8,52,0.0,989.4,5.85,37.1,310,262.6,74.7,4,5,3,1,2026-03-04T11:17:27.613481+05:30
Mumbai,Maharashtra,19.076,72.8777,28.5,65,0.0,1012.8,7.4,24.8,134,50.2,49.5,7,0,4,1,2026-03-04T11:17:27.613528+05:30
Bangalore,Karnataka,12.9716,77.5946,29.1,28,0.0,916.5,9.1,35.3,95,33.1,31.8,4,5,7,0,2026-03-04T11:17:27.613544+05:30
Hyderabad,Telangana,17.385,78.4867,32.6,28,0.0,958.9,8.4,27.4,115,27.8,25.7,0,5,7,0,2026-03-04T11:17:27.613554+05:30
Chennai,Tamil Nadu,13.0827,80.2707,32.0,50,0.0,1012.4,8.8,28.4,115,39.3,34.7,0,0,4,1,2026-03-04T11:17:27.613563+05:30
Kolkata,West Bengal,22.5726,88.3639,29.9,57,0.0,1011.1,7.75,21.2,164,102.9,67.1,4,0,4,1,2026-03-04T11:17:27.613587+05:30
Pune,Maharashtra,18.5204,73.8567,33.6,27,0.0,954.1,7.95,31.3,77,19.0,18.3,0,5,7,0,2026-03-04T11:17:27.613601+05:30
Ahmedabad,Gujarat,23.0225,72.5714,33.0,32,0.0,1009.3,7.2,16.6,79,26.6,21.9,0,0,4,0,2026-03-04T11:17:27.613609+05:30
Jaipur,Rajasthan,26.9124,75.7873,32.8,18,0.0,967.4,6.6,34.6,92,79.4,25.7,0,5,7,0,2026-03-04T11:17:27.613617+05:30
Lucknow,Uttar Pradesh,26.8467,80.9462,26.7,51,0.0,1000.3,6.35,26.6,154,320.4,94.3,4,5,4,0,2026-03-04T11:17:27.613625+05:30
Kanpur,Uttar Pradesh,26.4499,80.3319,27.4,51,0.0,998.7,6.35,28.8,175,308.3,78.9,4,5,7,1,2026-03-04T11:17:27.613632+05:30
Chandigarh,Chandigarh,30.7333,76.7794,27.2,46,0.0,974.8,5.75,36.0,86,31.2,25.4,4,5,3,0,2026-03-04T11:17:27.613639+05:30
Srinagar,Jammu and Kashmir,34.0837,74.7973,15.7,45,0.0,849.8,6.2,16.9,141,58.9,43.9,0,5,7,0,2026-03-04T11:17:27.613647+05:30
Jammu,Jammu and Kashmir,32.7266,74.857,26.6,45,0.0,979.0,6.35,25.6,96,41.4,35.4,4,5,7,0,2026-03-04T11:17:27.613653+05:30
Amritsar,Punjab,31.634,74.8723,27.0,57,0.0,987.4,6.3,23.4,129,82.4,68.5,4,5,7,1,2026-03-04T11:17:27.613660+05:30
Ludhiana,Punjab,30.901,75.8573,27.0,53,0.0,985.3,6.0,30.2,151,71.9,64.5,4,5,3,1,2026-03-04T11:17:27.613667+05:30
Jalandhar,Punjab,31.326,75.5762,26.5,54,0.0,986.4,6.15,28.8,152,72.6,59.8,4,5,7,1,2026-03-04T11:17:27.613676+05:30
Dehradun,Uttarakhand,30.6284,78.0322,22.7,35,0.0,835.9,6.1,31.3,59,13.3,7.9,0,5,7,0,2026-03-04T11:17:27.613683+05:30
Shimla,Himachal Pradesh,31.1048,77.1734,20.9,33,0.0,791.8,6.15,52.6,69,19.3,11.8,0,5,7,0,2026-03-04T11:17:27.613692+05:30
Manali,Himachal Pradesh,32.2396,77.1887,24.3,15,0.0,828.0,7.8,32.8,49,16.9,8.0,0,5,7,1,2026-03-04T11:17:27.613699+05:30
Gurgaon,Haryana,28.4595,77.0266,28.2,51,0.0,988.1,5.95,35.6,1157,976.0,139.2,4,5,3,1,2026-03-04T11:17:27.613706+05:30
Noida,Uttar Pradesh,28.5355,77.391,28.4,49,0.0,990.8,5.85,36.4,1157,976.0,139.2,4,5,3,1,2026-03-04T11:17:27.613713+05:30
Ghaziabad,Uttar Pradesh,28.6692,77.4538,27.1,57,0.0,989.0,5.85,33.8,237,224.9,72.9,4,5,3,1,2026-03-04T11:17:27.613719+05:30
Faridabad,Haryana,28.4089,77.3178,27.6,54,0.0,990.3,5.9,34.2,1157,976.0,139.2,4,5,3,1,2026-03-04T11:17:27.613726+05:30
Meerut,Uttar Pradesh,28.9845,77.7064,26.9,53,0.0,987.5,5.7,35.6,237,224.9,72.9,4,5,3,1,2026-03-04T11:17:27.613732+05:30
Agra,Uttar Pradesh,27.1767,78.0081,29.9,39,0.0,994.8,6.2,35.3,347,292.4,65.0,4,5,7,0,2026-03-04T11:17:27.613739+05:30
Varanasi,Uttar Pradesh,25.3176,82.9739,28.0,51,0.0,1004.5,7.0,19.8,140,240.3,54.7,4,5,4,1,2026-03-04T11:17:27.613750+05:30
Prayagraj,Uttar Pradesh,25.4358,81.8463,28.4,45,0.0,1003.1,6.9,25.9,143,308.3,68.7,4,5,4,0,2026-03-04T11:17:27.613757+05:30
Gorakhpur,Uttar Pradesh,26.7606,83.3732,27.0,60,0.0,1004.2,6.75,10.1,164,98.0,77.1,4,5,4,1,2026-03-04T11:17:27.613764+05:30
Bareilly,Uttar Pradesh,28.367,79.4304,24.6,68,0.0,993.1,6.05,19.1,159,195.6,83.4,3,5,7,1,2026-03-04T11:17:27.613771+05:30
Aligarh,Uttar Pradesh,27.8974,78.088,28.1,52,0.0,992.0,5.95,33.1,666,454.5,97.6,4,5,3,1,2026-03-04T11:17:27.613777+05:30
Moradabad,Uttar Pradesh,28.8386,78.7733,25.0,61,0.0,989.7,5.85,22.3,155,142.5,72.6,7,5,3,1,2026-03-04T11:17:27.613783+05:30
Saharanpur,Uttar Pradesh,29.9637,77.546,25.6,56,0.0,981.2,5.5,45.7,148,90.1,55.9,4,5,3,1,2026-03-04T11:17:27.613790+05:30
Jhansi,Uttar Pradesh,25.4484,78.5685,31.9,28,0.0,985.2,6.8,32.0,64,21.9,12.7,0,5,7,0,2026-03-04T11:17:30.958508+05:30
Surat,Gujarat,21.1702,72.8311,31.6,43,0.0,1012.9,7.1,25.2,152,60.1,56.2,0,0,4,1,2026-03-04T11:17:30.958537+05:30
Vadodara,Gujarat,22.3072,73.1812,33.5,35,0.0,1011.3,7.2,18.0,140,36.2,27.9,0,0,4,0,2026-03-04T11:17:30.958547+05:30
Rajkot,Gujarat,22.3039,70.8022,31.5,39,0.0,1001.6,7.0,24.8,62,27.1,19.4,0,5,4,0,2026-03-04T11:17:30.958556+05:30
Thane,Maharashtra,19.2183,72.9781,33.7,35,0.0,1012.4,7.35,35.6,134,50.2,49.5,0,0,4,1,2026-03-04T11:17:30.958562+05:30
Nagpur,Maharashtra,21.1458,79.0882,32.7,30,0.0,980.1,7.75,23.4,68,22.8,15.2,0,5,7,0,2026-03-04T11:17:30.958598+05:30
Nashik,Maharashtra,19.9975,73.7898,32.3,25,0.0,951.8,7.55,23.4,83,22.6,21.9,0,5,7,0,2026-03-04T11:17:30.958606+05:30
Aurangabad,Maharashtra,19.8762,75.3433,32.6,25,0.0,950.4,8.1,22.7,75,20.0,18.9,0,5,7,0,2026-03-04T11:17:30.958614+05:30
Solapur,Maharashtra,17.6599,75.9064,31.8,39,0.0,962.8,8.35,18.7,76,28.8,27.6,0,5,7,1,2026-03-04T11:17:30.958621+05:30
Kolhapur,Maharashtra,16.705,74.2433,32.0,33,0.0,952.8,8.45,37.4,159,40.2,39.5,0,5,7,0,2026-03-04T11:17:30.958628+05:30
Goa,Goa,15.2993,74.124,31.2,62,0.0,1002.0,8.5,34.9,104,44.6,41.8,3,5,4,1,2026-03-04T11:17:30.958635+05:30
Jodhpur,Rajasthan,26.2389,73.0243,31.9,28,0.0,991.0,6.9,18.7,78,58.6,24.8,0,5,7,0,2026-03-04T11:17:30.958641+05:30
Udaipur,Rajasthan,24.5854,73.7125,31.8,22,0.0,954.1,7.5,23.4,58,31.8,13.4,0,5,7,0,2026-03-04T11:17:30.958648+05:30
Kota,Rajasthan,25.2138,75.8648,31.1,31,0.0,986.6,6.9,17.3,84,28.0,21.7,0,5,7,0,2026-03-04T11:17:30.958655+05:30
Bikaner,Rajasthan,28.0229,73.3119,30.3,32,0.0,989.7,6.6,26.3,67,44.9,19.1,0,5,7,0,2026-03-04T11:17:30.958661+05:30
Ajmer,Rajasthan,26.4499,74.6399,31.4,30,0.0,962.3,6.85,25.2,69,37.7,15.3,0,5,7,0,2026-03-04T11:17:30.958667+05:30
Gwalior,Madhya Pradesh,26.2183,78.1828,30.9,34,0.0,990.4,6.55,31.0,81,26.0,18.4,0,5,7,0,2026-03-04T11:17:30.958674+05:30
Indore,Madhya Pradesh,22.7196,75.8577,31.4,30,0.0,955.3,7.45,17.6,81,30.6,20.5,0,5,7,0,2026-03-04T11:17:30.958680+05:30
Bhopal,Madhya Pradesh,23.2599,77.4126,31.6,30,0.0,961.1,7.35,22.0,75,29.1,17.4,0,5,7,0,2026-03-04T11:17:30.958687+05:30
Jabalpur,Madhya Pradesh,23.1815,79.9864,29.9,39,0.0,968.8,7.45,24.5,71,25.7,17.5,4,5,7,0,2026-03-04T11:17:30.958694+05:30
Ujjain,Madhya Pradesh,23.1765,75.7885,30.5,39,0.0,961.2,7.4,16.2,101,36.8,26.5,0,5,7,0,2026-03-04T11:17:30.958703+05:30
Visakhapatnam,Andhra Pradesh,17.6868,83.2185,33.1,44,0.0,1008.7,8.4,37.1,139,62.4,58.8,0,0,4,1,2026-03-04T11:17:30.958710+05:30
Vijayawada,Andhra Pradesh,16.5062,80.648,31.3,56,0.0,1008.1,8.45,20.5,129,46.4,41.7,0,0,4,1,2026-03-04T11:17:30.958716+05:30
Guntur,Andhra Pradesh,16.3067,80.4365,32.3,47,0.0,1009.2,8.45,25.6,119,43.2,39.0,0,0,4,1,2026-03-04T11:17:30.958723+05:30
Nellore,Andhra Pradesh,14.4426,79.9865,34.0,36,0.0,1010.8,8.65,29.9,114,45.4,41.8,0,0,4,1,2026-03-04T11:17:30.958730+05:30
Kurnool,Andhra Pradesh,15.8281,78.0373,34.6,27,0.0,981.9,8.5,26.3,98,43.9,41.1,0,5,7,0,2026-03-04T11:17:30.958737+05:30
Kakinada,Andhra Pradesh,16.9891,82.2475,33.5,43,0.0,1012.6,8.4,33.8,109,44.6,38.6,0,0,4,1,2026-03-04T11:17:30.958743+05:30
Tirupati,Andhra Pradesh,13.6288,79.4192,33.3,26,0.0,996.6,8.8,32.4,149,40.2,37.1,0,5,7,0,2026-03-04T11:17:30.958750+05:30
Warangal,Telangana,17.9689,79.5941,31.6,44,0.0,984.5,8.25,23.8,117,46.2,44.4,0,5,7,1,2026-03-04T11:17:30.958756+05:30
Nizamabad,Telangana,18.6725,78.0941,32.6,31,0.0,971.0,8.1,28.1,73,24.6,21.1,0,5,7,0,2026-03-04T11:17:30.958762+05:30
Mysore,Karnataka,12.2958,76.6396,29.7,31,0.0,933.0,9.15,39.2,98,35.0,33.9,4,5,7,0,2026-03-04T11:17:30.958768+05:30
Mangalore,Karnataka,12.9141,74.856,27.9,82,0.0,1010.5,8.75,30.2,81,41.8,36.9,7,0,4,1,2026-03-04T11:17:30.958774+05:30
Hubli-Dharwad,Karnataka,15.3647,75.124,30.6,45,0.0,945.8,8.65,24.5,94,37.4,36.0,0,5,7,1,2026-03-04T11:17:30.958781+05:30
Belgaum,Karnataka,15.8497,74.4977,31.9,33,0.0,930.6,8.75,32.0,135,34.6,33.5,0,5,7,0,2026-03-04T11:17:34.303054+05:30
Coimbatore,Tamil Nadu,11.0168,76.9558,30.0,44,0.0,966.5,9.15,41.0,100,32.1,30.6,4,5,7,1,2026-03-04T11:17:34.303085+05:30
Madurai,Tamil Nadu,9.9252,78.1198,30.4,48,0.0,997.9,9.1,24.1,97,29.9,27.2,0,5,7,1,2026-03-04T11:17:34.303097+05:30
Trichy,Tamil Nadu,10.7905,78.7047,30.8,51,0.0,1004.7,9.0,28.8,104,31.5,28.6,0,5,4,1,2026-03-04T11:17:34.303106+05:30
Salem,Tamil Nadu,11.6643,78.146,32.1,37,0.0,982.0,9.05,35.6,123,46.4,43.9,0,5,7,0,2026-03-04T11:17:34.303114+05:30
Tirunelveli,Tamil Nadu,8.7139,77.7567,32.0,45,0.0,1007.8,9.15,38.9,88,21.7,19.9,0,5,4,1,2026-03-04T11:17:34.303123+05:30
Vellore,Tamil Nadu,12.9165,79.1325,32.5,28,0.0,989.6,8.9,36.7,142,39.1,36.0,0,5,7,0,2026-03-04T11:17:34.303131+05:30
Erode,Tamil Nadu,11.341,77.7172,31.5,46,0.0,993.9,9.05,28.8,101,38.6,36.1,0,5,7,1,2026-03-04T11:17:34.303139+05:30
Kochi,Kerala,9.9312,76.2673,27.3,79,0.0,1012.7,8.95,32.8,105,35.0,32.6,7,0,4,1,2026-03-04T11:17:34.303148+05:30
Thiruvananthapuram,Kerala,8.5241,76.9366,27.1,76,0.0,1011.9,9.0,27.4,98,36.4,34.1,7,0,4,1,2026-03-04T11:17:34.303156+05:30
Kozhikode,Kerala,11.2588,75.7804,29.4,72,0.0,1011.7,8.85,30.6,83,45.4,41.0,7,0,4,1,2026-03-04T11:17:34.303164+05:30
Thrissur,Kerala,10.5276,76.2144,33.1,56,0.0,1010.7,8.95,38.9,113,40.4,38.1,0,0,4,1,2026-03-04T11:17:34.303173+05:30
Kannur,Kerala,11.8745,75.3704,30.7,62,0.0,1010.9,8.85,35.3,77,40.5,36.0,3,0,4,1,2026-03-04T11:17:34.303182+05:30
Patna,Bihar,25.5941,85.1376,28.1,47,0.0,1007.5,7.2,15.5,164,126.7,92.4,4,5,4,0,2026-03-04T11:17:34.303190+05:30
Gaya,Bihar,24.7914,85.0002,28.7,44,0.0,1000.6,7.25,18.4,140,78.2,44.4,4,5,4,0,2026-03-04T11:17:34.303197+05:30
Muzaffarpur,Bihar,26.1209,85.3647,28.7,43,0.0,1007.3,7.15,12.2,167,116.2,86.4,4,5,4,0,2026-03-04T11:17:34.303205+05:30
Bhagalpur,Bihar,25.2425,87.0117,28.2,51,0.0,1008.0,7.2,9.4,159,116.4,70.8,4,0,4,1,2026-03-04T11:17:34.303212+05:30
Ranchi,Jharkhand,23.3441,85.3096,27.3,28,0.0,943.7,7.9,31.3,86,97.8,28.4,4,5,7,0,2026-03-04T11:17:34.303220+05:30
Jamshedpur,Jharkhand,22.8046,86.2029,30.4,27,0.0,996.9,7.85,24.5,118,77.5,44.1,0,5,7,0,2026-03-04T11:17:34.303228+05:30
Dhanbad,Jharkhand,23.7957,86.4304,30.8,23,0.0,985.9,7.7,25.2,126,89.6,51.6,0,5,7,0,2026-03-04T11:17:34.303235+05:30
Bokaro,Jharkhand,23.6693,86.1511,30.1,27,0.0,990.1,7.7,26.6,134,110.4,50.1,0,5,7,0,2026-03-04T11:17:34.303243+05:30
Bhubaneswar,Odisha,20.2961,85.8245,33.7,38,0.0,1007.7,8.15,26.6,152,78.2,64.3,0,5,4,1,2026-03-04T11:17:34.303251+05:30
Cuttack,Odisha,20.4625,85.8828,33.8,38,0.0,1009.8,8.15,27.7,152,78.2,64.3,0,0,4,1,2026-03-04T11:17:34.303258+05:30
Rourkela,Odisha,22.2604,84.8536,31.4,27,0.0,991.3,7.75,21.6,94,63.8,36.7,0,5,7,0,2026-03-04T11:17:34.303265+05:30
Raipur,Chhattisgarh,21.2514,81.6296,32.9,25,0.0,981.3,7.8,23.4,140,43.7,34.1,0,5,7,0,2026-03-04T11:17:34.303273+05:30
Bhilai,Chhattisgarh,21.1938,81.3509,33.4,26,0.0,981.7,7.8,20.5,123,36.2,27.1,0,5,7,0,2026-03-04T11:17:34.303280+05:30
Guwahati,Assam,26.1158,91.7086,27.9,54,0.0,1007.4,7.1,16.6,154,57.9,47.4,4,5,4,1,2026-03-04T11:17:34.303288+05:30
Agartala,Tripura,23.8315,91.2868,29.1,50,0.0,1011.2,7.5,21.6,163,83.6,63.6,4,0,4,1,2026-03-04T11:17:34.303296+05:30
Shillong,Meghalaya,25.5788,91.8933,18.0,45,0.0,860.5,7.5,29.2,151,58.3,45.5,0,5,7,0,2026-03-04T11:17:34.303304+05:30
Imphal,Manipur,24.817,93.9368,22.5,46,0.0,927.7,7.7,21.2,137,39.7,32.7,0,5,7,0,2026-03-04T11:17:34.303312+05:30
Aizawl,Mizoram,23.7271,92.7176,23.0,42,0.0,897.0,7.7,24.5,155,61.9,48.4,0,5,7,0,2026-03-04T11:17:34.303320+05:30
Kohima,Nagaland,25.6701,94.1077,18.4,58,0.0,859.4,7.55,39.2,148,53.9,43.0,0,5,7,0,2026-03-04T11:17:34.303328+05:30
Gangtok,Sikkim,27.3314,88.6138,19.2,58,0.0,843.4,7.45,20.9,151,66.4,47.1,0,5,7,0,2026-03-04T11:17:34.303334+05:30
Siliguri,West Bengal,26.7271,88.3953,24.6,62,0.0,1000.4,7.1,20.5,160,77.3,50.4,3,5,4,1,2026-03-04T11:17:37.647528+05:30
Durgapur,West Bengal,23.5204,87.3119,32.0,24,0.0,1000.8,7.7,22.3,104,82.9,46.2,0,5,4,0,2026-03-04T11:17:37.647561+05:30
Asansol,West Bengal,23.6739,86.9524,31.5,25,0.0,999.5,7.7,23.0,95,78.5,46.0,0,5,7,0,2026-03-04T11:17:37.647590+05:30
Pondicherry,Puducherry,11.9139,79.8145,30.8,60,0.0,1013.4,8.85,27.4,105,31.8,27.5,0,0,4,1,2026-03-04T11:17:37.647598+05:30
Port Blair,Andaman and Nicobar Islands,11.6234,92.7265,27.2,73,0.0,1010.2,8.85,26.3,84,48.4,38.6,7,0,4,1,2026-03-04T11:17:37.647606+05:30
Haridwar,Uttarakhand,29.9457,78.1642,26.0,56,0.0,979.7,5.6,19.1,123,45.6,34.2,4,5,3,1,2026-03-04T11:17:37.647614+05:30
Rishikesh,Uttarakhand,30.0869,78.2676,26.7,51,0.0,972.1,5.65,24.1,97,44.0,31.0,4,5,3,0,2026-03-04T11:17:37.647621+05:30
Nainital,Uttarakhand,29.3919,79.4542,19.2,69,0.0,810.3,6.45,57.2,134,56.5,36.8,3,5,7,0,2026-03-04T11:17:37.647629+05:30
Mussoorie,Uttarakhand,30.4599,78.0664,20.5,47,0.0,807.8,6.0,37.8,93,33.2,25.4,0,5,3,0,2026-03-04T11:17:37.647636+05:30
Dharamshala,Himachal Pradesh,32.219,76.3234,24.6,35,0.0,875.3,6.25,29.5,47,19.7,6.8,0,5,7,0,2026-03-04T11:17:37.647642+05:30
Dalhousie,Himachal Pradesh,32.5387,75.971,25.0,17,0.0,811.5,6.45,24.1,84,22.5,13.8,4,5,7,1,2026-03-04T11:17:37.647650+05:30
Patiala,Punjab,30.3398,76.3869,27.6,50,0.0,984.4,5.65,32.8,220,278.5,71.5,4,5,3,1,2026-03-04T11:17:37.647658+05:30
Bhatinda,Punjab,30.211,74.9455,28.6,53,0.0,990.6,6.3,25.6,151,89.9,65.0,4,5,7,1,2026-03-04T11:17:37.647664+05:30
Rohtak,Haryana,28.8955,76.6066,28.2,53,0.0,988.4,5.85,34.6,410,325.0,72.2,4,5,3,1,2026-03-04T11:17:37.647670+05:30
Panipat,Haryana,29.3909,76.9635,27.8,53,0.0,986.6,5.65,34.2,997,765.5,122.5,4,5,3,1,2026-03-04T11:17:37.647676+05:30
Mathura,Uttar Pradesh,27.4924,77.6737,29.8,40,0.0,993.7,6.1,32.8,423,340.9,65.0,4,5,7,0,2026-03-04T11:17:37.647683+05:30
Vrindavan,Uttar Pradesh,27.5823,77.7027,29.2,44,0.0,994.0,6.1,34.9,423,340.9,65.0,4,5,7,0,2026-03-04T11:17:37.647690+05:30
Ayodhya,Uttar Pradesh,26.7922,82.1998,27.3,54,0.0,1002.2,6.5,9.7,159,166.7,82.2,4,5,4,1,2026-03-04T11:17:37.647696+05:30
Ratlam,Madhya Pradesh,23.3315,75.0367,31.1,37,0.0,961.9,7.35,18.0,98,32.8,23.2,0,5,7,0,2026-03-04T11:17:37.647703+05:30
Sagar,Madhya Pradesh,23.8388,78.7378,30.9,32,0.0,957.5,7.25,27.0,64,22.9,12.0,0,5,7,0,2026-03-04T11:17:37.647709+05:30
Satna,Madhya Pradesh,24.6005,80.8322,30.9,31,0.0,978.3,7.25,36.7,67,40.0,16.2,0,5,7,0,2026-03-04T11:17:37.647716+05:30
Akola,Maharashtra,20.7002,77.0082,33.4,28,0.0,982.1,7.8,14.4,73,24.0,18.9,0,5,7,0,2026-03-04T11:17:37.647723+05:30
Amravati,Maharashtra,20.9374,77.7796,34.1,26,0.0,974.2,7.75,16.2,69,22.8,17.0,0,5,7,0,2026-03-04T11:17:37.647730+05:30
Latur,Maharashtra,18.4088,76.5604,32.1,28,0.0,945.9,8.25,20.5,79,19.4,18.0,0,5,7,0,2026-03-04T11:17:37.647736+05:30
Nanded,Maharashtra,19.1383,77.3091,33.7,30,0.0,974.8,8.0,14.4,81,24.7,20.7,0,5,7,0,2026-03-04T11:17:37.647742+05:30
Gulbarga,Karnataka,17.3297,76.8343,34.1,25,0.0,964.3,8.35,25.2,86,38.6,37.3,0,5,7,0,2026-03-04T11:17:37.647748+05:30
Bidar,Karnataka,17.9104,77.5199,33.1,22,0.0,941.3,8.3,26.6,90,20.0,17.9,0,5,7,0,2026-03-04T11:17:37.647754+05:30
Hospet,Karnataka,15.2689,76.3909,30.9,37,0.0,961.1,8.65,25.2,102,38.5,37.3,0,5,7,0,2026-03-04T11:17:37.647761+05:30
Tirupur,Tamil Nadu,11.1085,77.3411,30.9,42,0.0,980.2,9.15,31.0,108,40.7,38.6,0,5,7,1,2026-03-04T11:17:37.647767+05:30
Alappuzha,Kerala,9.4981,76.3388,27.5,79,0.0,1012.7,8.95,32.4,103,38.6,36.7,7,0,4,1,2026-03-04T11:17:37.647773+05:30
Munnar,Kerala,10.0889,77.0595,26.8,44,0.0,861.5,9.45,22.0,88,27.2,26.2,4,5,7,0,2026-03-04T11:17:37.647781+05:30
Silchar,Assam,24.8333,92.7789,29.5,45,0.0,1010.1,7.45,15.8,152,45.6,35.7,4,0,4,1,2026-03-04T11:17:37.647787+05:30
Dibrugarh,Assam,27.4728,94.912,25.9,64,0.0,1001.4,7.15,9.0,134,71.9,53.3,7,5,4,1,2026-03-04T11:17:37.647794+05:30
