city,state,latitude,longitude,temp,humidity,rain,pressure,uv_index,wind_gusts,aqi,pm10,pm2_5,mosquito_risk,arthritis_risk,migraine_risk,frizz_risk,updated_at
Delhi,Delhi,28.6139,77.209,40.0,17,0.0,981.7,7.4,51.8,513,340.9,60.1,0,5,10,0,2026-04-26T11:38:32.412492+05:30
Mumbai,Maharashtra,19.076,72.8777,35.0,51,0.0,1007.8,7.6,36.7,84,77.8,40.4,0,5,4,1,2026-04-26T11:38:32.412536+05:30
Bangalore,Karnataka,12.9716,77.5946,33.2,29,0.0,914.2,9.6,38.2,83,36.1,28.2,0,5,7,0,2026-04-26T11:38:32.412552+05:30
Hyderabad,Telangana,17.385,78.4867,37.3,25,0.0,954.5,9.3,27.0,93,30.9,25.4,0,5,10,0,2026-04-26T11:38:32.412563+05:30
Chennai,Tamil Nadu,13.0827,80.2707,34.7,53,0.0,1007.6,9.25,51.8,36,19.6,12.2,0,5,4,1,2026-04-26T11:38:32.412571+05:30
Kolkata,West Bengal,22.5726,88.3639,35.5,49,0.0,1004.1,8.9,46.8,67,25.3,17.6,0,5,7,1,2026-04-26T11:38:32.412584+05:30
Pune,Maharashtra,18.5204,73.8567,39.7,12,0.0,949.2,8.45,37.1,79,21.8,16.1,0,5,10,0,2026-04-26T11:38:32.412592+05:30
Ahmedabad,Gujarat,23.0225,72.5714,39.1,27,0.0,1001.8,8.2,38.9,65,65.0,22.5,0,5,7,1,2026-04-26T11:38:32.412599+05:30
Jaipur,Rajasthan,26.9124,75.7873,40.6,14,0.0,960.3,8.05,46.1,123,310.1,42.0,0,5,10,0,2026-04-26T11:38:32.412607+05:30
Lucknow,Uttar Pradesh,26.8467,80.9462,40.5,18,0.0,990.8,7.9,49.3,151,203.0,58.4,0,5,10,0,2026-04-26T11:38:32.412614+05:30
Kanpur,Uttar Pradesh,26.4499,80.3319,41.5,15,0.0,989.5,7.9,49.7,383,386.5,68.0,0,5,10,0,2026-04-26T11:38:32.412622+05:30
Chandigarh,Chandigarh,30.7333,76.7794,37.3,16,0.0,968.0,7.4,45.4,69,99.9,25.7,0,5,10,0,2026-04-26T11:38:32.412629+05:30
Srinagar,Jammu and Kashmir,34.0837,74.7973,18.3,62,0.0,846.1,8.6,15.8,80,19.2,9.6,3,5,7,0,2026-04-26T11:38:32.412638+05:30
Jammu,Jammu and Kashmir,32.7266,74.857,35.0,25,0.0,971.9,8.15,35.3,77,66.1,19.7,0,5,7,0,2026-04-26T11:38:32.412645+05:30
Amritsar,Punjab,31.634,74.8723,36.9,20,0.0,980.1,8.1,33.8,97,38.1,13.2,0,5,10,0,2026-04-26T11:38:32.412652+05:30
Ludhiana,Punjab,30.901,75.8573,37.5,18,0.0,978.0,7.65,38.9,86,81.3,23.5,0,5,10,0,2026-04-26T11:38:32.412661+05:30
Jalandhar,Punjab,31.326,75.5762,36.9,20,0.0,978.9,7.85,34.9,95,83.4,22.3,0,5,10,0,2026-04-26T11:38:32.412668+05:30
Dehradun,Uttarakhand,30.6284,78.0322,27.1,23,0.0,833.6,7.8,52.2,43,51.1,11.4,4,5,7,0,2026-04-26T11:38:32.412675+05:30
Shimla,Himachal Pradesh,31.1048,77.1734,23.3,21,0.0,789.1,7.9,48.6,57,79.2,16.6,0,5,7,1,2026-04-26T11:38:32.412682+05:30
Manali,Himachal Pradesh,32.2396,77.1887,21.8,27,0.0,820.5,9.8,45.0,50,21.0,5.8,0,5,7,0,2026-04-26T11:38:32.412689+05:30
Gurgaon,Haryana,28.4595,77.0266,38.8,20,0.0,980.5,7.55,53.6,1426,1125.0,124.8,0,5,10,0,2026-04-26T11:38:32.412696+05:30
Noida,Uttar Pradesh,28.5355,77.391,40.0,18,0.0,982.9,7.45,44.6,1426,1125.0,124.8,0,5,10,0,2026-04-26T11:38:32.412702+05:30
Ghaziabad,Uttar Pradesh,28.6692,77.4538,40.0,17,0.0,981.2,7.4,50.8,392,259.8,52.4,0,5,10,0,2026-04-26T11:38:32.412708+05:30
Faridabad,Haryana,28.4089,77.3178,39.6,17,0.0,982.3,7.5,53.6,1426,1125.0,124.8,0,5,10,0,2026-04-26T11:38:32.412717+05:30
Meerut,Uttar Pradesh,28.9845,77.7064,38.6,20,0.0,979.8,7.35,48.6,392,259.8,52.4,0,5,10,0,2026-04-26T11:38:32.412724+05:30
Agra,Uttar Pradesh,27.1767,78.0081,41.0,15,0.0,986.3,7.8,45.0,1003,668.7,85.9,0,5,10,0,2026-04-26T11:38:32.412733+05:30
Varanasi,Uttar Pradesh,25.3176,82.9739,40.0,28,0.0,994.5,8.5,49.7,143,193.7,59.6,0,5,10,1,2026-04-26T11:38:32.412740+05:30
Prayagraj,Uttar Pradesh,25.4358,81.8463,40.8,18,0.0,993.3,8.4,47.5,132,201.6,57.9,0,5,10,0,2026-04-26T11:38:32.412750+05:30
Gorakhpur,Uttar Pradesh,26.7606,83.3732,36.0,42,0.0,994.5,8.35,45.4,151,96.9,60.8,0,5,10,1,2026-04-26T11:38:32.412758+05:30
Bareilly,Uttar Pradesh,28.367,79.4304,38.4,23,0.0,984.4,7.65,45.4,122,113.4,42.8,0,5,10,0,2026-04-26T11:38:32.412765+05:30
Aligarh,Uttar Pradesh,27.8974,78.088,40.8,16,0.0,983.9,7.6,55.4,849,564.4,79.9,0,5,10,0,2026-04-26T11:38:32.412771+05:30
Moradabad,Uttar Pradesh,28.8386,78.7733,37.7,20,0.0,981.9,7.5,54.0,139,129.0,41.4,0,5,10,0,2026-04-26T11:38:32.412778+05:30
Saharanpur,Uttar Pradesh,29.9637,77.546,37.8,18,0.0,974.1,7.1,53.6,93,143.4,35.9,0,5,10,0,2026-04-26T11:38:32.412784+05:30
Jhansi,Uttar Pradesh,25.4484,78.5685,42.0,13,0.0,977.2,8.3,40.7,103,218.4,48.3,0,5,10,0,2026-04-26T11:38:35.772647+05:30
Surat,Gujarat,21.1702,72.8311,40.7,21,0.0,1006.0,7.85,33.5,107,102.2,55.6,0,5,7,0,2026-04-26T11:38:35.772683+05:30
Vadodara,Gujarat,22.3072,73.1812,39.7,26,0.0,1003.8,8.15,37.1,74,65.4,27.4,0,5,7,1,2026-04-26T11:38:35.772696+05:30
Rajkot,Gujarat,22.3039,70.8022,38.8,25,0.0,994.6,7.85,37.4,60,66.4,19.4,0,5,10,0,2026-04-26T11:38:35.772704+05:30
Thane,Maharashtra,19.2183,72.9781,39.2,26,0.0,1006.8,7.55,30.6,84,77.8,40.4,0,5,7,1,2026-04-26T11:38:35.772711+05:30
Nagpur,Maharashtra,21.1458,79.0882,42.2,11,0.0,973.0,8.9,32.8,98,35.9,30.3,0,5,10,0,2026-04-26T11:38:35.772718+05:30
Nashik,Maharashtra,19.9975,73.7898,39.2,14,0.0,946.9,8.1,39.6,71,27.4,13.2,0,5,10,0,2026-04-26T11:38:35.772726+05:30
Aurangabad,Maharashtra,19.8762,75.3433,40.3,11,0.0,945.5,9.05,37.8,71,18.8,11.9,0,5,10,0,2026-04-26T11:38:35.772733+05:30
Solapur,Maharashtra,17.6599,75.9064,39.2,19,0.0,958.0,9.1,27.0,114,44.6,37.5,0,5,10,0,2026-04-26T11:38:35.772740+05:30
Kolhapur,Maharashtra,16.705,74.2433,38.2,18,0.0,949.1,9.0,46.1,136,39.0,32.1,0,5,10,0,2026-04-26T11:38:35.772747+05:30
Goa,Goa,15.2993,74.124,36.5,49,0.0,998.1,8.95,38.2,84,39.1,28.1,0,5,10,1,2026-04-26T11:38:35.772754+05:30
Jodhpur,Rajasthan,26.2389,73.0243,40.7,17,0.0,982.7,8.3,35.3,79,90.6,18.5,0,5,10,0,2026-04-26T11:38:35.772761+05:30
Udaipur,Rajasthan,24.5854,73.7125,39.0,16,0.0,948.0,8.75,29.9,54,39.2,11.6,0,5,10,0,2026-04-26T11:38:35.772768+05:30
Kota,Rajasthan,25.2138,75.8648,41.2,16,0.0,978.8,8.3,41.4,89,152.7,37.5,0,5,10,0,2026-04-26T11:38:35.772774+05:30
Bikaner,Rajasthan,28.0229,73.3119,41.0,15,0.0,981.3,8.15,32.4,75,152.3,27.6,0,5,10,0,2026-04-26T11:38:35.772781+05:30
Ajmer,Rajasthan,26.4499,74.6399,39.5,15,0.0,955.8,8.25,46.8,74,89.2,20.4,0,5,10,0,2026-04-26T11:38:35.772787+05:30
Gwalior,Madhya Pradesh,26.2183,78.1828,41.3,14,0.0,982.2,8.05,48.6,132,142.5,38.0,0,5,10,0,2026-04-26T11:38:35.772794+05:30
Indore,Madhya Pradesh,22.7196,75.8577,40.5,13,0.0,949.3,8.65,49.0,62,58.8,18.9,0,5,10,0,2026-04-26T11:38:35.772800+05:30
Bhopal,Madhya Pradesh,23.2599,77.4126,41.0,13,0.0,954.4,8.65,34.6,65,109.9,29.5,0,5,10,0,2026-04-26T11:38:35.772807+05:30
Jabalpur,Madhya Pradesh,23.1815,79.9864,41.3,13,0.0,961.4,8.7,39.6,57,380.0,59.3,0,5,10,0,2026-04-26T11:38:35.772814+05:30
Ujjain,Madhya Pradesh,23.1765,75.7885,40.7,14,0.0,954.8,8.55,50.0,70,68.5,21.9,0,5,10,0,2026-04-26T11:38:35.772821+05:30
Visakhapatnam,Andhra Pradesh,17.6868,83.2185,33.8,55,0.0,1004.0,9.05,47.9,55,24.4,16.9,0,5,4,1,2026-04-26T11:38:35.772827+05:30
Vijayawada,Andhra Pradesh,16.5062,80.648,37.8,38,0.0,1002.7,8.8,37.8,53,24.5,15.3,0,5,7,1,2026-04-26T11:38:35.772833+05:30
Guntur,Andhra Pradesh,16.3067,80.4365,37.6,36,0.0,1003.9,8.9,39.6,54,27.5,17.8,0,5,7,1,2026-04-26T11:38:35.772839+05:30
Nellore,Andhra Pradesh,14.4426,79.9865,38.5,31,0.0,1005.5,9.1,45.4,50,25.2,18.0,0,5,7,1,2026-04-26T11:38:35.772846+05:30
Kurnool,Andhra Pradesh,15.8281,78.0373,40.3,20,0.0,977.0,9.2,32.4,84,34.2,27.5,0,5,10,0,2026-04-26T11:38:35.772854+05:30
Kakinada,Andhra Pradesh,16.9891,82.2475,37.5,41,0.0,1007.4,8.9,46.8,43,21.7,12.1,0,5,7,1,2026-04-26T11:38:35.772860+05:30
Tirupati,Andhra Pradesh,13.6288,79.4192,37.5,28,0.0,991.5,9.35,44.3,63,26.4,19.3,0,5,10,0,2026-04-26T11:38:35.772866+05:30
Warangal,Telangana,17.9689,79.5941,37.7,33,0.0,979.2,8.95,36.0,84,28.2,22.7,0,5,10,1,2026-04-26T11:38:35.772873+05:30
Nizamabad,Telangana,18.6725,78.0941,39.2,21,0.0,965.7,8.75,31.0,115,39.3,34.2,0,5,10,0,2026-04-26T11:38:35.772879+05:30
Mysore,Karnataka,12.2958,76.6396,32.6,38,0.0,930.4,9.45,36.7,79,32.1,26.4,0,5,7,1,2026-04-26T11:38:35.772885+05:30
Mangalore,Karnataka,12.9141,74.856,33.0,62,0.0,1007.4,9.1,37.1,72,28.7,21.8,3,5,4,1,2026-04-26T11:38:35.772892+05:30
Hubli-Dharwad,Karnataka,15.3647,75.124,36.2,32,0.0,942.5,9.05,49.7,94,41.3,34.6,0,5,10,1,2026-04-26T11:38:35.772898+05:30
Belgaum,Karnataka,15.8497,74.4977,35.7,27,0.0,927.8,8.85,40.7,120,44.4,36.0,0,5,10,0,2026-04-26T11:38:39.123818+05:30
Coimbatore,Tamil Nadu,11.0168,76.9558,35.2,30,0.0,962.9,9.35,37.1,75,29.0,21.5,0,5,10,0,2026-04-26T11:38:39.123850+05:30
Madurai,Tamil Nadu,9.9252,78.1198,36.5,39,0.0,993.3,9.25,37.8,54,9.8,8.4,0,5,10,1,2026-04-26T11:38:39.123860+05:30
Trichy,Tamil Nadu,10.7905,78.7047,35.3,42,0.0,1000.2,9.25,34.9,53,10.9,8.5,0,5,7,1,2026-04-26T11:38:39.123868+05:30
Salem,Tamil Nadu,11.6643,78.146,35.9,33,0.0,978.3,9.35,42.1,68,21.6,14.5,0,5,10,1,2026-04-26T11:38:39.123876+05:30
Tirunelveli,Tamil Nadu,8.7139,77.7567,35.5,41,0.0,1003.3,9.2,40.3,49,8.8,8.3,0,5,7,1,2026-04-26T11:38:39.123884+05:30
Vellore,Tamil Nadu,12.9165,79.1325,37.2,26,0.0,985.1,9.35,38.9,82,27.5,20.5,0,5,10,0,2026-04-26T11:38:39.123891+05:30
Erode,Tamil Nadu,11.341,77.7172,36.5,33,0.0,989.7,9.3,42.5,57,17.3,11.6,0,5,10,1,2026-04-26T11:38:39.123898+05:30
Kochi,Kerala,9.9312,76.2673,32.3,62,0.0,1008.8,9.0,34.6,76,20.4,18.2,3,0,4,1,2026-04-26T11:38:39.123906+05:30
Thiruvananthapuram,Kerala,8.5241,76.9366,32.4,58,0.1,1007.9,8.85,32.0,49,13.9,11.5,3,5,4,1,2026-04-26T11:38:39.123913+05:30
Kozhikode,Kerala,11.2588,75.7804,31.7,70,0.0,1008.3,8.25,35.3,59,17.8,15.3,3,0,4,1,2026-04-26T11:38:39.123920+05:30
Thrissur,Kerala,10.5276,76.2144,34.5,52,0.0,1007.1,9.0,39.2,69,24.8,21.2,0,5,4,1,2026-04-26T11:38:39.123928+05:30
Kannur,Kerala,11.8745,75.3704,32.6,64,0.0,1007.9,9.0,36.4,68,23.3,18.3,3,5,4,1,2026-04-26T11:38:39.123935+05:30
Patna,Bihar,25.5941,85.1376,35.2,48,0.0,997.9,8.65,50.4,150,70.1,55.9,0,5,10,1,2026-04-26T11:38:39.123942+05:30
Gaya,Bihar,24.7914,85.0002,39.8,22,0.0,990.9,8.7,45.0,123,75.0,51.2,0,5,10,0,2026-04-26T11:38:39.123948+05:30
Muzaffarpur,Bihar,26.1209,85.3647,33.1,55,0.0,998.5,8.65,42.8,153,68.7,56.1,0,5,7,1,2026-04-26T11:38:39.123955+05:30
Bhagalpur,Bihar,25.2425,87.0117,31.3,59,0.0,999.9,8.6,46.8,142,64.7,55.5,0,5,7,1,2026-04-26T11:38:39.123962+05:30
Ranchi,Jharkhand,23.3441,85.3096,36.7,21,0.0,937.9,9.2,39.2,119,99.7,35.3,0,5,10,0,2026-04-26T11:38:39.123968+05:30
Jamshedpur,Jharkhand,22.8046,86.2029,41.4,21,0.0,988.3,8.85,48.2,137,67.5,56.1,0,5,10,0,2026-04-26T11:38:39.123975+05:30
Dhanbad,Jharkhand,23.7957,86.4304,40.5,22,0.0,977.4,8.95,55.4,155,94.1,62.4,0,5,10,0,2026-04-26T11:38:39.123981+05:30
Bokaro,Jharkhand,23.6693,86.1511,42.2,14,0.0,980.9,8.95,45.7,153,109.2,42.3,0,5,10,0,2026-04-26T11:38:39.123988+05:30
Bhubaneswar,Odisha,20.2961,85.8245,35.2,55,0.0,1001.7,9.05,46.8,57,24.9,18.9,0,5,7,1,2026-04-26T11:38:39.123995+05:30
Cuttack,Odisha,20.4625,85.8828,36.0,52,0.0,1003.2,9.05,45.0,57,24.9,18.9,0,5,7,1,2026-04-26T11:38:39.124001+05:30
Rourkela,Odisha,22.2604,84.8536,40.8,19,0.0,983.5,8.6,39.2,146,52.4,46.0,0,5,10,0,2026-04-26T11:38:39.124008+05:30
Raipur,Chhattisgarh,21.2514,81.6296,40.5,21,0.0,974.2,8.95,42.8,98,45.3,40.9,0,5,10,0,2026-04-26T11:38:39.124014+05:30
Bhilai,Chhattisgarh,21.1938,81.3509,39.7,24,0.0,974.7,9.0,43.2,93,42.6,37.7,0,5,10,0,2026-04-26T11:38:39.124020+05:30
Guwahati,Assam,26.1158,91.7086,25.0,80,0.0,1002.9,3.8,40.3,146,57.3,39.2,7,5,0,1,2026-04-26T11:38:39.124027+05:30
Agartala,Tripura,23.8315,91.2868,25.4,86,0.0,1007.7,8.8,41.4,114,36.8,23.4,7,5,4,1,2026-04-26T11:38:39.124034+05:30
Shillong,Meghalaya,25.5788,91.8933,21.6,67,0.0,857.6,4.1,49.3,130,61.7,34.7,3,5,3,0,2026-04-26T11:38:39.124042+05:30
Imphal,Manipur,24.817,93.9368,28.8,41,0.0,924.8,5.7,35.3,151,114.3,48.4,4,5,3,0,2026-04-26T11:38:39.124048+05:30
Aizawl,Mizoram,23.7271,92.7176,26.1,51,0.0,895.1,9.0,42.8,113,72.6,31.0,4,5,7,0,2026-04-26T11:38:39.124055+05:30
Kohima,Nagaland,25.6701,94.1077,20.5,76,0.0,857.2,6.95,34.6,154,100.4,48.9,3,5,7,1,2026-04-26T11:38:39.124061+05:30
Gangtok,Sikkim,27.3314,88.6138,22.3,47,0.0,838.6,8.0,39.2,76,57.5,28.6,0,5,7,0,2026-04-26T11:38:39.124067+05:30
Siliguri,West Bengal,26.7271,88.3953,25.1,74,0.0,994.2,8.4,35.3,141,80.1,42.1,7,5,7,1,2026-04-26T11:38:42.487627+05:30
Durgapur,West Bengal,23.5204,87.3119,36.7,48,0.0,992.7,8.9,38.5,127,78.2,67.8,0,5,10,1,2026-04-26T11:38:42.487659+05:30
Asansol,West Bengal,23.6739,86.9524,38.0,40,0.0,991.1,8.95,49.0,138,88.2,73.8,0,5,10,1,2026-04-26T11:38:42.487669+05:30
Pondicherry,Puducherry,11.9139,79.8145,32.9,60,0.0,1009.4,9.2,43.6,30,18.1,11.6,0,0,4,1,2026-04-26T11:38:42.487677+05:30
Port Blair,Andaman and Nicobar Islands,11.6234,92.7265,34.2,47,0.0,1007.6,9.1,36.7,56,19.7,13.4,0,5,4,1,2026-04-26T11:38:42.487685+05:30
Haridwar,Uttarakhand,29.9457,78.1642,34.8,33,0.0,972.4,7.2,44.6,71,131.3,31.5,0,5,7,1,2026-04-26T11:38:42.487692+05:30
Rishikesh,Uttarakhand,30.0869,78.2676,35.0,28,0.0,965.2,7.3,35.3,66,122.9,24.3,0,5,7,0,2026-04-26T11:38:42.487700+05:30
Nainital,Uttarakhand,29.3919,79.4542,24.2,31,0.0,808.8,8.15,53.3,77,81.3,28.5,0,5,7,0,2026-04-26T11:38:42.487708+05:30
Mussoorie,Uttarakhand,30.4599,78.0664,24.4,26,0.0,806.7,7.7,59.8,61,109.2,24.1,0,5,7,0,2026-04-26T11:38:42.487715+05:30
Dharamshala,Himachal Pradesh,32.219,76.3234,27.4,29,0.0,871.6,8.05,45.0,43,41.3,9.9,4,5,7,0,2026-04-26T11:38:42.487722+05:30
Dalhousie,Himachal Pradesh,32.5387,75.971,23.8,27,0.0,808.4,8.3,41.0,68,70.1,18.3,0,5,7,0,2026-04-26T11:38:42.487730+05:30
Patiala,Punjab,30.3398,76.3869,38.9,16,0.0,977.2,7.3,47.9,446,596.0,64.0,0,5,10,0,2026-04-26T11:38:42.487737+05:30
Bhatinda,Punjab,30.211,74.9455,39.5,17,0.0,983.0,8.0,43.6,94,72.9,20.6,0,5,10,0,2026-04-26T11:38:42.487743+05:30
Rohtak,Haryana,28.8955,76.6066,39.8,18,0.0,980.8,7.45,51.1,722,543.9,70.8,0,5,10,0,2026-04-26T11:38:42.487751+05:30
Panipat,Haryana,29.3909,76.9635,40.5,14,0.0,979.0,7.25,55.4,1427,1244.2,121.5,0,5,10,0,2026-04-26T11:38:42.487757+05:30
Mathura,Uttar Pradesh,27.4924,77.6737,40.3,17,0.0,985.5,7.75,47.5,928,653.8,81.3,0,5,10,0,2026-04-26T11:38:42.487764+05:30
Vrindavan,Uttar Pradesh,27.5823,77.7027,40.3,17,0.0,985.9,7.7,47.9,928,653.8,81.3,0,5,10,0,2026-04-26T11:38:42.487771+05:30
Ayodhya,Uttar Pradesh,26.7922,82.1998,37.2,36,0.0,992.6,8.1,43.9,150,121.1,61.9,0,5,10,1,2026-04-26T11:38:42.487777+05:30
Ratlam,Madhya Pradesh,23.3315,75.0367,40.8,14,0.0,955.7,8.5,34.2,61,64.5,19.4,0,5,10,0,2026-04-26T11:38:42.487783+05:30
Sagar,Madhya Pradesh,23.8388,78.7378,40.7,13,0.0,950.8,8.65,44.3,74,199.8,36.8,0,5,10,0,2026-04-26T11:38:42.487790+05:30
Satna,Madhya Pradesh,24.6005,80.8322,41.5,13,0.0,970.4,8.65,39.6,126,295.2,50.5,0,5,10,0,2026-04-26T11:38:42.487796+05:30
Akola,Maharashtra,20.7002,77.0082,41.1,14,0.0,975.0,8.85,33.8,59,27.7,15.0,0,5,10,0,2026-04-26T11:38:42.487803+05:30
Amravati,Maharashtra,20.9374,77.7796,40.7,14,0.0,967.6,8.85,26.6,64,27.8,14.8,0,5,10,0,2026-04-26T11:38:42.487810+05:30
Latur,Maharashtra,18.4088,76.5604,38.8,17,0.0,941.4,9.0,28.1,112,46.3,38.9,0,5,10,0,2026-04-26T11:38:42.487817+05:30
Nanded,Maharashtra,19.1383,77.3091,41.0,16,0.0,968.8,9.05,29.5,116,47.1,39.7,0,5,10,0,2026-04-26T11:38:42.487824+05:30
Gulbarga,Karnataka,17.3297,76.8343,38.7,23,0.0,959.9,7.8,29.5,107,34.7,29.3,0,5,10,0,2026-04-26T11:38:42.487830+05:30
Bidar,Karnataka,17.9104,77.5199,36.5,27,0.0,937.9,7.95,37.4,109,35.3,29.9,0,5,10,0,2026-04-26T11:38:42.487836+05:30
Hospet,Karnataka,15.2689,76.3909,35.0,39,0.0,957.2,8.9,34.9,95,32.0,27.4,0,5,7,1,2026-04-26T11:38:42.487842+05:30
Tirupur,Tamil Nadu,11.1085,77.3411,36.0,32,0.0,976.1,9.4,33.5,65,21.4,15.3,0,5,10,1,2026-04-26T11:38:42.487849+05:30
Alappuzha,Kerala,9.4981,76.3388,31.5,68,0.0,1008.8,8.95,34.2,66,18.3,16.9,3,0,4,1,2026-04-26T11:38:42.487855+05:30
Munnar,Kerala,10.0889,77.0595,24.6,56,0.0,859.6,9.6,28.1,63,16.2,13.2,0,5,7,0,2026-04-26T11:38:42.487862+05:30
Silchar,Assam,24.8333,92.7789,24.1,96,0.4,1006.8,6.8,46.1,162,88.9,46.9,6,5,4,1,2026-04-26T11:38:42.487869+05:30
Dibrugarh,Assam,27.4728,94.912,26.1,71,0.0,997.2,5.15,22.3,93,55.5,36.6,7,5,3,1,2026-04-26T11:38:42.487876+05:30
