city,state,latitude,longitude,temp,humidity,rain,pressure,uv_index,wind_gusts,aqi,pm10,pm2_5,no2,co,o3,so2,mosquito_risk,arthritis_risk,migraine_risk,frizz_risk,updated_at
Delhi,Delhi,28.6139,77.209,29.6,64,0.0,979.4,7.65,32.4,407,512.2,164.4,97.5,936.0,0.0,44.1,7,5,7,1,2026-06-18T04:57:29.648173+05:30
Mumbai,Maharashtra,19.076,72.8777,28.9,71,0.0,1008.1,7.7,45.0,57,34.0,15.5,5.6,140.0,45.0,4.1,7,0,4,1,2026-06-18T04:57:29.648215+05:30
Bangalore,Karnataka,12.9716,77.5946,21.0,95,0.0,911.4,8.5,31.3,65,15.3,11.6,16.8,265.0,36.0,6.5,3,5,7,1,2026-06-18T04:57:29.648230+05:30
Hyderabad,Telangana,17.385,78.4867,27.6,65,0.0,951.6,9.05,37.4,78,21.8,15.7,12.1,344.0,70.0,8.0,7,5,7,1,2026-06-18T04:57:29.648240+05:30
Chennai,Tamil Nadu,13.0827,80.2707,28.7,76,0.0,1005.6,6.7,36.7,84,31.1,23.6,14.3,241.0,66.0,15.4,7,5,4,1,2026-06-18T04:57:29.648248+05:30
Kolkata,West Bengal,22.5726,88.3639,29.6,92,0.0,1002.4,9.0,51.1,128,58.4,46.1,11.8,345.0,60.0,6.8,7,5,4,1,2026-06-18T04:57:29.648256+05:30
Pune,Maharashtra,18.5204,73.8567,23.5,85,0.0,947.7,8.35,45.4,51,18.0,10.5,8.3,125.0,36.0,8.3,3,5,7,1,2026-06-18T04:57:29.648263+05:30
Ahmedabad,Gujarat,23.0225,72.5714,27.2,86,0.0,1000.8,8.05,41.0,65,33.8,16.5,5.2,152.0,37.0,4.1,7,5,4,1,2026-06-18T04:57:29.648270+05:30
Jaipur,Rajasthan,26.9124,75.7873,28.0,66,0.0,957.0,8.2,29.9,117,153.2,42.0,9.9,144.0,40.0,4.8,7,5,7,1,2026-06-18T04:57:29.648281+05:30
Lucknow,Uttar Pradesh,26.8467,80.9462,29.9,65,0.0,989.6,8.35,32.8,157,159.7,71.2,50.3,433.0,10.0,10.9,7,5,7,1,2026-06-18T04:57:29.648289+05:30
Kanpur,Uttar Pradesh,26.4499,80.3319,31.9,50,0.0,988.0,7.85,33.1,168,189.5,57.7,24.1,303.0,36.0,8.0,0,5,7,1,2026-06-18T04:57:29.648295+05:30
Chandigarh,Chandigarh,30.7333,76.7794,25.1,73,0.0,965.3,7.8,25.2,155,88.5,60.3,49.9,644.0,4.0,4.3,7,5,7,1,2026-06-18T04:57:29.648303+05:30
Srinagar,Jammu and Kashmir,34.0837,74.7973,14.5,100,0.0,840.5,7.5,28.4,74,26.5,24.3,20.7,458.0,21.0,0.9,3,10,7,0,2026-06-18T04:57:29.648312+05:30
Jammu,Jammu and Kashmir,32.7266,74.857,25.9,63,0.0,968.9,8.6,58.7,105,32.1,28.6,44.7,339.0,1.0,2.1,7,5,7,1,2026-06-18T04:57:29.648319+05:30
Amritsar,Punjab,31.634,74.8723,26.5,84,0.0,976.7,8.45,34.9,155,128.1,108.0,80.0,1021.0,7.0,15.3,7,5,7,1,2026-06-18T04:57:29.648325+05:30
Ludhiana,Punjab,30.901,75.8573,26.9,87,0.0,974.9,8.05,27.0,158,152.3,102.0,76.7,1075.0,1.0,14.3,7,5,7,1,2026-06-18T04:57:29.648332+05:30
Jalandhar,Punjab,31.326,75.5762,26.6,83,0.0,975.9,8.25,25.9,156,135.0,107.1,73.1,1157.0,1.0,9.0,7,5,7,1,2026-06-18T04:57:29.648338+05:30
Dehradun,Uttarakhand,30.6284,78.0322,14.8,95,0.0,827.8,7.5,28.4,66,22.9,18.3,26.4,255.0,16.0,0.4,3,10,7,0,2026-06-18T04:57:29.648345+05:30
Shimla,Himachal Pradesh,31.1048,77.1734,11.4,92,0.0,780.7,7.65,37.8,80,41.6,24.0,13.3,254.0,61.0,0.0,3,10,7,0,2026-06-18T04:57:29.648356+05:30
Manali,Himachal Pradesh,32.2396,77.1887,15.7,56,0.0,817.0,9.6,31.7,47,3.3,3.2,11.8,175.0,115.0,0.0,0,5,7,0,2026-06-18T04:57:29.648363+05:30
Gurgaon,Haryana,28.4595,77.0266,27.9,68,0.0,977.6,7.85,29.5,406,317.6,118.0,91.3,1206.0,0.0,35.0,7,5,7,1,2026-06-18T04:57:29.648369+05:30
Noida,Uttar Pradesh,28.5355,77.391,27.6,76,0.0,980.7,7.7,22.3,406,317.6,118.0,91.3,986.0,0.0,35.0,7,5,7,1,2026-06-18T04:57:29.648375+05:30
Ghaziabad,Uttar Pradesh,28.6692,77.4538,26.2,84,0.0,978.7,7.6,22.0,410,547.6,188.1,103.0,916.0,0.0,28.6,7,5,7,1,2026-06-18T04:57:29.648382+05:30
Faridabad,Haryana,28.4089,77.3178,29.3,62,0.0,980.1,7.75,30.6,406,317.6,118.0,91.3,878.0,0.0,35.0,7,5,7,1,2026-06-18T04:57:29.648388+05:30
Meerut,Uttar Pradesh,28.9845,77.7064,28.6,67,0.0,977.7,6.0,24.8,410,547.6,188.1,103.0,949.0,0.0,28.6,7,5,3,1,2026-06-18T04:57:29.648395+05:30
Agra,Uttar Pradesh,27.1767,78.0081,30.6,56,0.0,984.0,8.15,26.3,173,235.2,92.0,63.8,680.0,0.0,17.1,0,5,7,1,2026-06-18T04:57:29.648401+05:30
Varanasi,Uttar Pradesh,25.3176,82.9739,31.3,59,0.0,993.9,8.4,36.0,153,73.1,42.4,14.6,278.0,68.0,8.9,0,5,7,1,2026-06-18T04:57:29.648408+05:30
Prayagraj,Uttar Pradesh,25.4358,81.8463,31.0,64,0.0,992.4,8.25,34.9,154,71.5,43.9,13.5,197.0,70.0,6.2,3,5,7,1,2026-06-18T04:57:29.648415+05:30
Gorakhpur,Uttar Pradesh,26.7606,83.3732,28.5,75,0.0,993.7,8.35,30.2,161,102.4,75.0,45.3,499.0,19.0,12.5,7,5,7,1,2026-06-18T04:57:29.648424+05:30
Bareilly,Uttar Pradesh,28.367,79.4304,27.2,77,0.0,983.0,8.1,26.6,159,246.8,106.6,56.0,744.0,22.0,18.7,7,5,7,1,2026-06-18T04:57:29.648430+05:30
Aligarh,Uttar Pradesh,27.8974,78.088,28.3,70,0.0,981.6,7.85,27.0,280,393.0,142.5,100.4,737.0,0.0,23.2,7,5,7,1,2026-06-18T04:57:29.648436+05:30
Moradabad,Uttar Pradesh,28.8386,78.7733,28.2,70,0.0,980.0,7.9,30.6,175,300.8,159.7,68.8,921.0,0.0,18.0,7,5,7,1,2026-06-18T04:57:29.648442+05:30
Saharanpur,Uttar Pradesh,29.9637,77.546,26.4,80,0.0,972.2,7.55,19.8,304,249.6,129.5,82.1,816.0,0.0,17.5,7,5,7,1,2026-06-18T04:57:29.648449+05:30
Jhansi,Uttar Pradesh,25.4484,78.5685,31.2,48,0.0,974.9,7.9,33.8,91,28.3,19.5,8.4,165.0,62.0,11.2,0,5,7,1,2026-06-18T04:57:32.925948+05:30
Surat,Gujarat,21.1702,72.8311,29.2,73,0.0,1005.7,7.6,50.4,67,39.6,22.5,24.0,338.0,24.0,40.1,7,5,4,1,2026-06-18T04:57:32.925981+05:30
Vadodara,Gujarat,22.3072,73.1812,29.6,62,0.0,1003.1,8.05,53.6,60,28.8,16.7,8.6,140.0,32.0,6.1,7,5,4,1,2026-06-18T04:57:32.925992+05:30
Rajkot,Gujarat,22.3039,70.8022,27.2,84,0.0,992.5,7.0,42.1,58,30.2,14.3,5.2,94.0,37.0,4.2,7,5,7,1,2026-06-18T04:57:32.926001+05:30
Thane,Maharashtra,19.2183,72.9781,28.3,77,0.0,1007.5,7.7,41.4,57,34.0,15.5,5.6,150.0,45.0,4.1,7,5,4,1,2026-06-18T04:57:32.926009+05:30
Nagpur,Maharashtra,21.1458,79.0882,29.1,59,0.0,971.1,8.9,40.3,95,34.7,24.1,11.7,283.0,56.0,8.0,4,5,7,1,2026-06-18T04:57:32.926017+05:30
Nashik,Maharashtra,19.9975,73.7898,23.7,87,0.0,945.0,8.05,43.6,47,25.0,12.1,5.9,107.0,37.0,3.1,3,5,7,1,2026-06-18T04:57:32.926024+05:30
Aurangabad,Maharashtra,19.8762,75.3433,24.6,75,0.0,943.5,8.95,46.1,49,15.4,9.2,6.7,122.0,36.0,4.8,3,5,7,1,2026-06-18T04:57:32.926032+05:30
Solapur,Maharashtra,17.6599,75.9064,26.7,66,0.0,957.1,8.85,52.9,57,19.0,12.0,6.9,131.0,44.0,5.1,7,5,7,1,2026-06-18T04:57:32.926040+05:30
Kolhapur,Maharashtra,16.705,74.2433,23.0,89,0.0,947.9,8.75,46.4,50,17.7,11.3,7.2,130.0,33.0,2.9,3,5,7,1,2026-06-18T04:57:32.926047+05:30
Goa,Goa,15.2993,74.124,25.2,91,0.0,998.1,8.65,27.7,58,37.8,22.8,8.8,430.0,38.0,2.5,7,5,7,1,2026-06-18T04:57:32.926054+05:30
Jodhpur,Rajasthan,26.2389,73.0243,29.7,60,0.0,980.1,8.4,35.6,101,154.6,38.6,5.1,132.0,47.0,2.5,4,5,7,1,2026-06-18T04:57:32.926061+05:30
Udaipur,Rajasthan,24.5854,73.7125,26.1,72,0.0,944.6,8.85,37.1,68,39.5,21.4,7.3,120.0,48.0,3.7,7,5,7,1,2026-06-18T04:57:32.926067+05:30
Kota,Rajasthan,25.2138,75.8648,29.8,56,0.0,976.2,8.35,35.6,76,29.4,18.0,6.6,164.0,60.0,6.0,4,5,7,1,2026-06-18T04:57:32.926074+05:30
Bikaner,Rajasthan,28.0229,73.3119,30.3,61,0.0,978.2,8.45,32.8,121,95.7,31.0,3.0,116.0,57.0,2.8,3,5,7,1,2026-06-18T04:57:32.926082+05:30
Ajmer,Rajasthan,26.4499,74.6399,27.2,66,0.0,951.9,8.35,40.3,88,40.7,21.0,7.5,156.0,50.0,4.2,7,5,7,1,2026-06-18T04:57:32.926089+05:30
Gwalior,Madhya Pradesh,26.2183,78.1828,31.3,50,0.0,979.9,8.25,36.7,102,34.6,19.8,9.3,159.0,47.0,6.4,0,5,7,1,2026-06-18T04:57:32.926097+05:30
Indore,Madhya Pradesh,22.7196,75.8577,25.7,71,0.0,947.0,8.65,60.5,79,26.4,16.8,8.2,177.0,45.0,11.2,7,5,7,1,2026-06-18T04:57:32.926103+05:30
Bhopal,Madhya Pradesh,23.2599,77.4126,26.6,71,0.0,951.9,8.7,28.4,87,33.6,27.1,10.8,248.0,47.0,4.0,7,5,7,1,2026-06-18T04:57:32.926111+05:30
Jabalpur,Madhya Pradesh,23.1815,79.9864,27.5,67,0.0,959.3,6.35,29.9,101,36.2,24.6,13.3,254.0,51.0,3.6,7,5,7,1,2026-06-18T04:57:32.926118+05:30
Ujjain,Madhya Pradesh,23.1765,75.7885,26.6,68,0.0,952.6,8.6,38.9,70,27.1,16.9,8.0,180.0,39.0,11.1,7,5,7,1,2026-06-18T04:57:32.926125+05:30
Visakhapatnam,Andhra Pradesh,17.6868,83.2185,27.0,81,0.0,1000.8,8.95,38.9,140,52.0,38.5,27.8,415.0,73.0,40.9,7,5,4,1,2026-06-18T04:57:32.926132+05:30
Vijayawada,Andhra Pradesh,16.5062,80.648,28.7,88,0.0,999.9,8.95,30.2,112,43.3,33.6,9.1,256.0,88.0,6.7,7,5,7,1,2026-06-18T04:57:32.926139+05:30
Guntur,Andhra Pradesh,16.3067,80.4365,28.5,91,0.0,1001.1,8.95,33.5,118,44.9,36.0,13.6,203.0,69.0,6.4,7,5,4,1,2026-06-18T04:57:32.926147+05:30
Nellore,Andhra Pradesh,14.4426,79.9865,27.9,80,0.0,1004.0,8.0,41.0,88,35.7,25.9,8.8,191.0,78.0,7.1,7,5,4,1,2026-06-18T04:57:32.926154+05:30
Kurnool,Andhra Pradesh,15.8281,78.0373,27.9,57,0.0,976.0,6.0,43.6,70,22.9,17.9,18.7,181.0,37.0,4.5,4,5,3,1,2026-06-18T04:57:32.926162+05:30
Kakinada,Andhra Pradesh,16.9891,82.2475,28.0,89,0.0,1005.1,8.2,45.4,100,49.7,32.8,4.3,344.0,113.0,5.2,7,5,4,1,2026-06-18T04:57:32.926169+05:30
Tirupati,Andhra Pradesh,13.6288,79.4192,26.0,85,0.0,989.8,8.15,38.2,87,36.2,28.5,18.2,169.0,45.0,6.1,7,5,7,1,2026-06-18T04:57:32.926176+05:30
Warangal,Telangana,17.9689,79.5941,27.4,76,0.0,976.8,9.0,28.1,129,67.1,51.6,26.0,496.0,27.0,8.5,7,5,7,1,2026-06-18T04:57:32.926182+05:30
Nizamabad,Telangana,18.6725,78.0941,29.4,45,0.0,963.3,8.85,33.1,86,38.8,30.0,24.9,354.0,29.0,6.0,4,5,7,1,2026-06-18T04:57:32.926189+05:30
Mysore,Karnataka,12.2958,76.6396,21.7,97,0.0,928.5,8.6,27.0,52,14.0,9.8,10.2,164.0,38.0,2.6,3,5,7,1,2026-06-18T04:57:32.926197+05:30
Mangalore,Karnataka,12.9141,74.856,25.0,91,0.0,1007.5,8.15,28.1,61,34.6,27.9,21.2,339.0,14.0,3.9,7,5,4,1,2026-06-18T04:57:32.926204+05:30
Hubli-Dharwad,Karnataka,15.3647,75.124,22.4,90,0.0,940.6,8.85,43.2,45,17.2,10.0,5.2,131.0,37.0,2.0,3,5,7,1,2026-06-18T04:57:32.926211+05:30
Belgaum,Karnataka,15.8497,74.4977,20.8,97,0.0,925.2,8.9,38.2,48,23.7,15.7,9.0,125.0,28.0,0.6,3,5,7,1,2026-06-18T04:57:36.214031+05:30
Coimbatore,Tamil Nadu,11.0168,76.9558,23.0,95,0.0,961.8,3.45,35.3,35,10.6,7.7,10.1,232.0,35.0,3.3,3,5,3,1,2026-06-18T04:57:36.214063+05:30
Madurai,Tamil Nadu,9.9252,78.1198,26.9,75,0.0,992.8,8.0,34.2,88,17.9,12.5,12.9,150.0,51.0,3.3,7,5,7,1,2026-06-18T04:57:36.214075+05:30
Trichy,Tamil Nadu,10.7905,78.7047,27.1,77,0.0,999.4,4.95,45.4,71,15.0,10.4,9.3,155.0,41.0,3.6,7,5,3,1,2026-06-18T04:57:36.214084+05:30
Salem,Tamil Nadu,11.6643,78.146,25.0,93,0.0,977.7,8.7,26.6,75,25.4,17.2,14.3,299.0,48.0,6.9,7,5,7,1,2026-06-18T04:57:36.214092+05:30
Tirunelveli,Tamil Nadu,8.7139,77.7567,29.2,60,0.0,1002.9,8.15,30.6,42,26.9,15.0,9.2,260.0,33.0,3.0,4,5,4,1,2026-06-18T04:57:36.214100+05:30
Vellore,Tamil Nadu,12.9165,79.1325,27.1,72,0.0,983.3,6.95,56.5,86,27.0,19.7,13.1,228.0,60.0,6.4,7,5,7,1,2026-06-18T04:57:36.214108+05:30
Erode,Tamil Nadu,11.341,77.7172,24.4,95,0.2,989.3,7.75,28.1,57,21.2,14.8,14.5,196.0,31.0,4.6,6,5,7,1,2026-06-18T04:57:36.214116+05:30
Kochi,Kerala,9.9312,76.2673,26.5,93,0.0,1009.4,8.25,32.4,68,32.5,27.6,27.3,205.0,0.0,5.7,7,0,4,1,2026-06-18T04:57:36.214123+05:30
Thiruvananthapuram,Kerala,8.5241,76.9366,25.5,91,0.0,1008.9,7.65,38.9,52,43.5,19.9,5.6,232.0,50.0,3.1,7,0,4,1,2026-06-18T04:57:36.214131+05:30
Kozhikode,Kerala,11.2588,75.7804,25.1,95,0.0,1008.5,8.05,34.6,53,30.0,13.6,2.3,129.0,55.0,1.3,7,0,4,1,2026-06-18T04:57:36.214138+05:30
Thrissur,Kerala,10.5276,76.2144,24.8,91,0.0,1007.8,6.9,31.7,75,47.7,39.8,22.5,274.0,0.0,6.7,3,5,4,1,2026-06-18T04:57:36.214145+05:30
Kannur,Kerala,11.8745,75.3704,25.4,97,0.0,1007.9,5.1,30.6,50,17.4,9.9,7.7,374.0,33.0,2.0,7,5,0,1,2026-06-18T04:57:36.214152+05:30
Patna,Bihar,25.5941,85.1376,29.3,74,0.1,997.3,8.6,28.8,163,110.4,85.2,22.8,405.0,58.0,15.6,10,5,7,1,2026-06-18T04:57:36.214160+05:30
Gaya,Bihar,24.7914,85.0002,29.6,60,0.0,990.4,8.95,24.8,159,115.0,78.0,35.6,349.0,36.0,11.0,4,5,7,1,2026-06-18T04:57:36.214167+05:30
Muzaffarpur,Bihar,26.1209,85.3647,27.6,87,0.0,997.4,8.6,25.9,164,98.7,80.1,20.3,862.0,64.0,15.5,7,5,7,1,2026-06-18T04:57:36.214175+05:30
Bhagalpur,Bihar,25.2425,87.0117,27.8,90,0.0,998.1,8.6,27.4,161,63.6,58.9,14.8,607.0,75.0,17.4,7,5,7,1,2026-06-18T04:57:36.214182+05:30
Ranchi,Jharkhand,23.3441,85.3096,25.3,67,0.0,935.3,9.0,32.4,152,78.9,55.8,15.4,360.0,75.0,7.3,7,5,7,1,2026-06-18T04:57:36.214188+05:30
Jamshedpur,Jharkhand,22.8046,86.2029,27.7,74,0.0,987.7,9.05,32.0,166,87.3,70.3,21.1,467.0,78.0,29.0,7,5,7,1,2026-06-18T04:57:36.214195+05:30
Dhanbad,Jharkhand,23.7957,86.4304,28.7,74,0.0,976.7,9.05,34.2,173,139.2,120.6,60.9,431.0,20.0,211.3,7,5,7,1,2026-06-18T04:57:36.214203+05:30
Bokaro,Jharkhand,23.6693,86.1511,28.3,77,0.0,980.5,9.1,26.6,169,178.8,135.5,72.1,450.0,0.0,164.8,7,5,7,1,2026-06-18T04:57:36.214209+05:30
Bhubaneswar,Odisha,20.2961,85.8245,28.3,93,0.0,999.5,9.05,28.1,125,52.9,44.5,9.7,398.0,109.0,8.9,7,5,7,1,2026-06-18T04:57:36.214216+05:30
Cuttack,Odisha,20.4625,85.8828,28.3,93,0.0,1001.2,9.1,28.8,125,52.9,44.5,9.7,408.0,109.0,8.9,7,5,4,1,2026-06-18T04:57:36.214223+05:30
Rourkela,Odisha,22.2604,84.8536,28.2,78,0.0,982.5,9.0,38.2,155,74.0,58.8,11.0,682.0,84.0,5.9,7,5,7,1,2026-06-18T04:57:36.214231+05:30
Raipur,Chhattisgarh,21.2514,81.6296,29.8,62,0.0,972.0,8.95,40.0,153,59.5,48.3,55.4,623.0,16.0,75.5,7,5,7,1,2026-06-18T04:57:36.214237+05:30
Bhilai,Chhattisgarh,21.1938,81.3509,28.2,73,0.0,972.3,8.95,29.5,151,57.3,43.2,39.2,969.0,32.0,54.9,7,5,7,1,2026-06-18T04:57:36.214244+05:30
Guwahati,Assam,26.1158,91.7086,25.0,98,0.0,999.7,8.8,29.5,86,45.6,41.8,12.2,322.0,42.0,4.3,7,5,7,1,2026-06-18T04:57:36.214251+05:30
Agartala,Tripura,23.8315,91.2868,25.4,96,0.0,1004.5,8.55,33.8,78,29.0,27.0,16.0,256.0,36.0,4.2,7,5,4,1,2026-06-18T04:57:36.214257+05:30
Shillong,Meghalaya,25.5788,91.8933,16.9,96,0.0,855.0,6.5,21.6,61,36.0,29.3,5.3,269.0,61.0,2.5,3,10,7,1,2026-06-18T04:57:36.214264+05:30
Imphal,Manipur,24.817,93.9368,22.6,96,0.0,921.9,8.75,28.1,73,45.6,41.4,14.9,361.0,33.0,3.2,3,5,7,1,2026-06-18T04:57:36.214271+05:30
Aizawl,Mizoram,23.7271,92.7176,19.3,97,0.0,891.1,9.0,26.6,49,10.9,10.1,6.2,146.0,24.0,0.6,3,10,7,1,2026-06-18T04:57:36.214278+05:30
Kohima,Nagaland,25.6701,94.1077,18.4,96,0.0,854.0,6.9,23.4,53,18.5,15.4,6.3,250.0,51.0,1.3,3,10,7,1,2026-06-18T04:57:36.214285+05:30
Gangtok,Sikkim,27.3314,88.6138,16.7,87,0.0,835.7,8.3,35.6,72,25.0,22.2,10.2,814.0,106.0,3.5,3,10,7,0,2026-06-18T04:57:36.214291+05:30
Siliguri,West Bengal,26.7271,88.3953,23.8,98,0.1,991.2,8.75,22.0,114,35.9,28.4,8.7,491.0,117.0,5.2,6,5,7,1,2026-06-18T04:57:39.668887+05:30
Durgapur,West Bengal,23.5204,87.3119,28.6,95,0.0,991.4,9.0,36.0,174,103.1,93.4,35.2,825.0,40.0,39.7,7,5,7,1,2026-06-18T04:57:39.668917+05:30
Asansol,West Bengal,23.6739,86.9524,28.3,93,0.0,990.2,9.0,30.6,171,101.3,88.7,36.8,619.0,41.0,45.9,7,5,7,1,2026-06-18T04:57:39.668928+05:30
Pondicherry,Puducherry,11.9139,79.8145,27.9,76,0.0,1007.2,4.1,40.3,77,28.6,20.9,13.1,327.0,58.0,10.8,7,5,0,1,2026-06-18T04:57:39.668937+05:30
Port Blair,Andaman and Nicobar Islands,11.6234,92.7265,26.6,88,0.0,1008.3,8.6,38.9,23,9.0,4.8,0.3,92.0,44.0,0.3,7,0,4,1,2026-06-18T04:57:39.668946+05:30
Haridwar,Uttarakhand,29.9457,78.1642,25.4,83,0.0,970.4,7.1,20.9,161,64.5,51.9,41.1,320.0,20.0,5.6,7,5,7,1,2026-06-18T04:57:39.668954+05:30
Rishikesh,Uttarakhand,30.0869,78.2676,24.0,87,0.0,963.4,6.35,23.0,123,44.6,27.2,13.2,340.0,80.0,2.8,3,5,7,1,2026-06-18T04:57:39.668961+05:30
Nainital,Uttarakhand,29.3919,79.4542,13.7,100,0.0,803.0,5.25,25.2,136,100.1,56.9,29.7,347.0,54.0,8.7,3,10,3,0,2026-06-18T04:57:39.668969+05:30
Mussoorie,Uttarakhand,30.4599,78.0664,15.6,88,0.0,801.5,6.15,36.4,104,53.4,38.0,42.3,242.0,24.0,5.8,3,10,7,0,2026-06-18T04:57:39.668976+05:30
Dharamshala,Himachal Pradesh,32.219,76.3234,21.2,67,0.0,867.5,8.25,40.0,60,12.5,11.7,8.4,319.0,78.0,0.0,3,5,7,0,2026-06-18T04:57:39.668983+05:30
Dalhousie,Himachal Pradesh,32.5387,75.971,12.6,90,0.0,800.6,8.25,36.4,94,24.7,21.2,15.7,268.0,46.0,0.6,3,10,7,0,2026-06-18T04:57:39.668991+05:30
Patiala,Punjab,30.3398,76.3869,27.6,70,0.0,974.7,7.7,29.5,187,168.1,96.4,56.4,600.0,9.0,13.3,7,5,7,1,2026-06-18T04:57:39.668998+05:30
Bhatinda,Punjab,30.211,74.9455,29.0,63,0.0,979.8,8.35,29.9,125,103.6,75.7,69.4,472.0,0.0,8.1,7,5,7,1,2026-06-18T04:57:39.669005+05:30
Rohtak,Haryana,28.8955,76.6066,27.7,73,0.0,978.0,7.65,27.4,321,369.7,129.9,86.1,609.0,0.0,26.1,7,5,7,1,2026-06-18T04:57:39.669012+05:30
Panipat,Haryana,29.3909,76.9635,27.0,77,0.0,976.5,7.25,20.9,589,453.6,144.4,62.9,842.0,0.0,12.2,7,5,7,1,2026-06-18T04:57:39.669019+05:30
Mathura,Uttar Pradesh,27.4924,77.6737,27.7,73,0.0,983.0,8.1,23.8,192,197.9,73.1,65.8,700.0,0.0,8.1,7,5,7,1,2026-06-18T04:57:39.669026+05:30
Vrindavan,Uttar Pradesh,27.5823,77.7027,27.9,72,0.0,983.4,8.05,23.4,192,197.9,73.1,65.8,771.0,0.0,8.1,7,5,7,1,2026-06-18T04:57:39.669033+05:30
Ayodhya,Uttar Pradesh,26.7922,82.1998,28.8,74,0.0,991.5,8.4,29.2,156,111.1,69.6,42.0,660.0,18.0,9.9,7,5,7,1,2026-06-18T04:57:39.669040+05:30
Ratlam,Madhya Pradesh,23.3315,75.0367,26.0,76,0.0,953.5,8.55,38.9,67,29.3,17.8,9.0,179.0,32.0,11.9,7,5,7,1,2026-06-18T04:57:39.669047+05:30
Sagar,Madhya Pradesh,23.8388,78.7378,26.9,66,0.0,948.0,8.75,36.4,89,34.5,23.9,9.4,194.0,57.0,4.1,7,5,7,1,2026-06-18T04:57:39.669054+05:30
Satna,Madhya Pradesh,24.6005,80.8322,29.3,57,0.0,968.5,8.8,30.2,103,37.6,27.8,9.9,194.0,67.0,4.2,4,5,7,1,2026-06-18T04:57:39.669060+05:30
Akola,Maharashtra,20.7002,77.0082,29.0,58,0.0,974.1,8.8,38.9,67,25.0,15.1,10.4,110.0,45.0,7.0,4,5,7,1,2026-06-18T04:57:39.669067+05:30
Amravati,Maharashtra,20.9374,77.7796,28.8,55,0.0,965.8,8.7,38.5,74,28.3,18.6,11.9,212.0,51.0,5.9,4,5,7,1,2026-06-18T04:57:39.669075+05:30
Latur,Maharashtra,18.4088,76.5604,26.5,62,0.0,939.5,8.9,43.9,60,23.4,15.6,6.4,142.0,73.0,8.0,7,5,7,1,2026-06-18T04:57:39.669082+05:30
Nanded,Maharashtra,19.1383,77.3091,29.7,50,0.0,967.7,8.85,35.3,65,20.0,14.2,9.9,155.0,48.0,4.3,4,5,7,1,2026-06-18T04:57:39.669090+05:30
Gulbarga,Karnataka,17.3297,76.8343,26.8,65,0.0,958.1,8.9,40.0,63,17.6,12.4,7.0,141.0,49.0,4.6,7,5,7,1,2026-06-18T04:57:39.669096+05:30
Bidar,Karnataka,17.9104,77.5199,26.8,57,0.0,934.6,8.9,36.0,69,21.2,16.2,11.1,154.0,67.0,6.9,4,5,7,1,2026-06-18T04:57:39.669103+05:30
Hospet,Karnataka,15.2689,76.3909,24.5,83,0.0,955.8,8.9,35.6,53,14.2,9.1,5.6,141.0,41.0,2.3,3,5,7,1,2026-06-18T04:57:39.669109+05:30
Tirupur,Tamil Nadu,11.1085,77.3411,23.7,95,0.0,975.7,8.7,31.7,57,18.3,13.5,15.2,181.0,29.0,4.8,3,5,7,1,2026-06-18T04:57:39.669116+05:30
Alappuzha,Kerala,9.4981,76.3388,26.4,96,0.0,1009.5,7.9,31.3,61,36.8,21.0,16.2,137.0,30.0,5.7,7,0,4,1,2026-06-18T04:57:39.669122+05:30
Munnar,Kerala,10.0889,77.0595,16.2,98,0.0,856.0,5.4,29.5,27,10.7,6.1,6.6,119.0,27.0,1.1,3,10,3,0,2026-06-18T04:57:39.669129+05:30
Silchar,Assam,24.8333,92.7789,25.2,97,0.1,1004.1,8.95,28.1,107,85.0,71.5,21.7,283.0,51.0,9.3,10,5,4,1,2026-06-18T04:57:39.669136+05:30
Dibrugarh,Assam,27.4728,94.912,24.9,97,0.0,993.7,9.0,34.9,67,27.6,26.4,12.7,281.0,52.0,1.4,3,5,7,1,2026-06-18T04:57:39.669143+05:30
