city,state,latitude,longitude,temp,humidity,rain,pressure,uv_index,wind_gusts,aqi,pm10,pm2_5,no2,co,o3,so2,mosquito_risk,arthritis_risk,migraine_risk,frizz_risk,updated_at
Delhi,Delhi,28.6139,77.209,34.2,44,0.0,979.8,7.65,51.5,172,583.0,97.8,5.8,387.0,247.0,29.0,0,5,7,1,2026-05-12T13:14:06.447210+05:30
Mumbai,Maharashtra,19.076,72.8777,34.5,51,0.0,1004.5,7.9,46.1,90,66.1,37.5,7.7,277.0,176.0,27.2,0,5,4,1,2026-05-12T13:14:06.447269+05:30
Bangalore,Karnataka,12.9716,77.5946,34.5,26,0.0,910.2,8.75,42.5,73,30.2,15.9,1.7,260.0,166.0,5.2,0,5,7,0,2026-05-12T13:14:06.447284+05:30
Hyderabad,Telangana,17.385,78.4867,37.3,24,0.0,951.0,8.7,38.5,60,35.0,16.1,1.5,280.0,155.0,4.4,0,5,10,0,2026-05-12T13:14:06.447298+05:30
Chennai,Tamil Nadu,13.0827,80.2707,33.0,58,0.0,1003.6,9.2,41.4,24,8.4,5.2,1.4,116.0,54.0,3.7,0,5,4,1,2026-05-12T13:14:06.447307+05:30
Kolkata,West Bengal,22.5726,88.3639,33.5,56,0.0,1004.4,8.95,32.0,82,29.9,21.0,2.1,251.0,136.0,8.0,0,5,4,1,2026-05-12T13:14:06.447315+05:30
Pune,Maharashtra,18.5204,73.8567,41.7,12,0.0,944.6,8.5,54.4,63,32.7,16.1,1.6,229.0,169.0,10.2,0,5,10,0,2026-05-12T13:14:06.447323+05:30
Ahmedabad,Gujarat,23.0225,72.5714,42.5,15,0.0,998.1,8.15,30.2,60,35.0,14.6,1.9,201.0,143.0,5.1,0,5,10,0,2026-05-12T13:14:06.447336+05:30
Jaipur,Rajasthan,26.9124,75.7873,41.4,15,0.0,956.9,8.2,55.4,132,218.9,40.6,1.4,226.0,155.0,8.3,0,5,10,0,2026-05-12T13:14:06.447344+05:30
Lucknow,Uttar Pradesh,26.8467,80.9462,37.7,32,0.0,991.1,8.15,34.9,105,58.2,47.4,1.5,390.0,220.0,15.9,0,5,10,1,2026-05-12T13:14:06.447351+05:30
Kanpur,Uttar Pradesh,26.4499,80.3319,39.2,24,0.0,989.0,8.15,40.3,110,119.0,43.9,1.4,344.0,216.0,13.1,0,5,10,0,2026-05-12T13:14:06.447357+05:30
Chandigarh,Chandigarh,30.7333,76.7794,32.5,40,0.0,968.1,7.65,43.2,138,135.5,47.5,1.8,383.0,212.0,13.0,0,5,7,1,2026-05-12T13:14:06.447363+05:30
Srinagar,Jammu and Kashmir,34.0837,74.7973,21.1,58,0.0,843.1,8.75,25.6,91,30.2,14.6,1.2,252.0,135.0,1.9,0,5,7,0,2026-05-12T13:14:06.447371+05:30
Jammu,Jammu and Kashmir,32.7266,74.857,30.7,40,0.0,971.9,8.45,50.8,118,54.9,23.9,2.2,231.0,136.0,2.2,0,5,7,0,2026-05-12T13:14:06.447377+05:30
Amritsar,Punjab,31.634,74.8723,36.0,30,0.0,978.7,8.35,43.2,159,118.5,58.1,1.7,305.0,180.0,11.5,0,5,10,0,2026-05-12T13:14:06.447384+05:30
Ludhiana,Punjab,30.901,75.8573,36.5,27,0.0,976.6,7.95,32.8,163,375.3,72.4,1.6,307.0,201.0,14.1,0,5,10,0,2026-05-12T13:14:06.447390+05:30
Jalandhar,Punjab,31.326,75.5762,34.7,37,0.0,977.9,8.1,33.8,161,161.1,57.7,1.6,318.0,200.0,18.4,0,5,7,1,2026-05-12T13:14:06.447396+05:30
Dehradun,Uttarakhand,30.6284,78.0322,21.9,66,0.0,832.0,8.1,34.6,76,67.8,31.9,1.0,294.0,163.0,4.7,3,5,7,0,2026-05-12T13:14:06.447404+05:30
Shimla,Himachal Pradesh,31.1048,77.1734,19.9,44,0.0,787.0,8.2,46.4,108,66.8,28.0,0.9,236.0,162.0,4.6,0,5,7,0,2026-05-12T13:14:06.447411+05:30
Manali,Himachal Pradesh,32.2396,77.1887,19.6,52,0.0,818.8,9.25,38.5,89,30.5,14.1,0.7,172.0,153.0,0.6,0,5,7,0,2026-05-12T13:14:06.447417+05:30
Gurgaon,Haryana,28.4595,77.0266,36.5,33,0.0,978.1,7.8,53.3,583,1411.9,156.5,3.1,354.0,203.0,14.8,0,5,10,1,2026-05-12T13:14:06.447423+05:30
Noida,Uttar Pradesh,28.5355,77.391,34.6,43,0.0,981.6,7.7,49.7,583,1411.9,156.5,3.1,351.0,203.0,14.8,0,5,7,1,2026-05-12T13:14:06.447429+05:30
Ghaziabad,Uttar Pradesh,28.6692,77.4538,34.5,38,0.0,980.1,7.65,40.7,156,373.5,67.1,2.5,333.0,210.0,12.7,0,5,7,1,2026-05-12T13:14:06.447437+05:30
Faridabad,Haryana,28.4089,77.3178,34.8,39,0.0,980.6,7.7,59.8,583,1411.9,156.5,3.1,351.0,203.0,14.8,0,5,7,1,2026-05-12T13:14:06.447444+05:30
Meerut,Uttar Pradesh,28.9845,77.7064,33.5,43,0.0,979.4,7.6,37.1,156,373.5,67.1,2.5,342.0,210.0,12.7,0,5,7,1,2026-05-12T13:14:06.447451+05:30
Agra,Uttar Pradesh,27.1767,78.0081,35.8,34,0.0,985.6,7.85,66.2,352,482.4,66.1,1.2,327.0,187.0,9.1,0,5,10,1,2026-05-12T13:14:06.447457+05:30
Varanasi,Uttar Pradesh,25.3176,82.9739,37.8,31,0.0,993.9,8.7,33.8,129,78.0,50.5,1.6,339.0,214.0,17.4,0,5,10,1,2026-05-12T13:14:06.447463+05:30
Prayagraj,Uttar Pradesh,25.4358,81.8463,39.4,24,0.0,992.5,8.55,36.0,126,63.1,46.1,1.6,346.0,217.0,16.5,0,5,10,0,2026-05-12T13:14:06.447471+05:30
Gorakhpur,Uttar Pradesh,26.7606,83.3732,33.9,46,0.0,995.1,8.5,43.9,116,54.6,45.3,1.5,376.0,196.0,12.8,0,5,7,1,2026-05-12T13:14:06.447477+05:30
Bareilly,Uttar Pradesh,28.367,79.4304,33.2,45,0.0,985.5,7.95,32.8,125,143.9,42.4,2.2,349.0,215.0,14.9,0,5,7,1,2026-05-12T13:14:06.447483+05:30
Aligarh,Uttar Pradesh,27.8974,78.088,32.2,48,0.0,982.4,7.85,57.2,216,466.6,69.6,1.7,333.0,197.0,12.2,0,5,7,1,2026-05-12T13:14:06.447490+05:30
Moradabad,Uttar Pradesh,28.8386,78.7733,33.4,46,0.0,982.2,7.8,28.8,150,59.8,37.4,2.3,317.0,216.0,15.8,0,5,7,1,2026-05-12T13:14:06.447496+05:30
Saharanpur,Uttar Pradesh,29.9637,77.546,33.0,48,0.0,974.2,7.4,34.6,138,137.8,53.6,1.1,328.0,208.0,16.7,0,5,7,1,2026-05-12T13:14:06.447502+05:30
Jhansi,Uttar Pradesh,25.4484,78.5685,40.8,22,0.0,974.8,8.45,30.2,107,111.8,39.1,1.7,279.0,202.0,23.5,0,5,10,0,2026-05-12T13:14:09.789027+05:30
Surat,Gujarat,21.1702,72.8311,42.0,15,0.0,1002.5,7.75,33.8,98,71.2,46.1,39.6,159.0,89.0,111.5,0,5,7,0,2026-05-12T13:14:09.789060+05:30
Vadodara,Gujarat,22.3072,73.1812,42.7,16,0.0,1000.0,8.1,29.9,78,37.7,21.4,2.9,249.0,173.0,12.8,0,5,7,0,2026-05-12T13:14:09.789071+05:30
Rajkot,Gujarat,22.3039,70.8022,41.0,23,0.0,990.7,7.75,51.8,52,57.5,17.9,1.3,149.0,130.0,6.6,0,5,10,0,2026-05-12T13:14:09.789080+05:30
Thane,Maharashtra,19.2183,72.9781,38.5,39,0.0,1003.2,7.9,40.3,90,66.1,37.5,7.7,251.0,176.0,27.2,0,5,7,1,2026-05-12T13:14:09.789088+05:30
Nagpur,Maharashtra,21.1458,79.0882,42.1,16,0.0,969.7,8.95,38.2,116,60.1,33.9,5.8,250.0,211.0,33.4,0,5,10,0,2026-05-12T13:14:09.789095+05:30
Nashik,Maharashtra,19.9975,73.7898,39.3,19,0.0,943.2,8.2,46.4,67,31.5,15.9,1.4,184.0,157.0,8.7,0,5,10,0,2026-05-12T13:14:09.789101+05:30
Aurangabad,Maharashtra,19.8762,75.3433,41.4,13,0.0,941.3,9.05,37.1,79,44.6,18.4,1.0,229.0,174.0,10.3,0,5,10,0,2026-05-12T13:14:09.789107+05:30
Solapur,Maharashtra,17.6599,75.9064,40.2,19,0.0,953.6,8.45,37.4,67,42.4,21.3,1.5,234.0,174.0,7.5,0,5,10,0,2026-05-12T13:14:09.789114+05:30
Kolhapur,Maharashtra,16.705,74.2433,38.8,20,0.0,945.1,8.35,57.6,73,45.6,20.3,1.5,202.0,142.0,5.2,0,5,10,0,2026-05-12T13:14:09.789120+05:30
Goa,Goa,15.2993,74.124,37.7,44,0.0,993.5,8.9,34.2,80,54.4,19.7,0.7,167.0,94.0,1.5,0,5,10,1,2026-05-12T13:14:09.789127+05:30
Jodhpur,Rajasthan,26.2389,73.0243,42.8,12,0.0,979.4,8.35,49.0,107,135.5,25.8,0.7,156.0,145.0,2.4,0,5,10,0,2026-05-12T13:14:09.789133+05:30
Udaipur,Rajasthan,24.5854,73.7125,40.3,13,0.0,944.8,8.85,31.0,52,23.9,8.0,0.6,157.0,143.0,3.2,0,5,10,0,2026-05-12T13:14:09.789138+05:30
Kota,Rajasthan,25.2138,75.8648,42.5,13,0.0,975.5,8.4,39.6,101,69.2,26.2,1.2,230.0,173.0,11.5,0,5,10,0,2026-05-12T13:14:09.789144+05:30
Bikaner,Rajasthan,28.0229,73.3119,42.5,17,0.0,977.8,8.35,40.3,76,65.0,21.6,0.4,282.0,129.0,7.4,0,5,10,0,2026-05-12T13:14:09.789151+05:30
Ajmer,Rajasthan,26.4499,74.6399,40.5,14,0.0,952.6,8.35,54.7,70,53.6,14.8,0.6,155.0,134.0,1.8,0,5,10,0,2026-05-12T13:14:09.789157+05:30
Gwalior,Madhya Pradesh,26.2183,78.1828,40.3,23,0.0,979.7,7.7,46.1,111,119.2,37.6,0.8,303.0,186.0,11.2,0,5,10,0,2026-05-12T13:14:09.789163+05:30
Indore,Madhya Pradesh,22.7196,75.8577,41.9,12,0.0,945.9,8.7,36.0,84,88.2,23.6,0.9,238.0,160.0,6.3,0,5,10,0,2026-05-12T13:14:09.789169+05:30
Bhopal,Madhya Pradesh,23.2599,77.4126,40.8,14,0.0,951.4,8.7,33.5,108,107.1,29.8,0.6,266.0,172.0,6.9,0,5,10,0,2026-05-12T13:14:09.789175+05:30
Jabalpur,Madhya Pradesh,23.1815,79.9864,40.7,16,0.0,958.7,8.85,41.8,120,86.1,32.6,0.8,252.0,179.0,9.3,0,5,10,0,2026-05-12T13:14:09.789181+05:30
Ujjain,Madhya Pradesh,23.1765,75.7885,42.5,12,0.0,951.3,8.6,27.4,84,88.5,21.7,0.5,211.0,158.0,7.1,0,5,10,0,2026-05-12T13:14:09.789187+05:30
Visakhapatnam,Andhra Pradesh,17.6868,83.2185,33.5,52,0.0,1001.3,9.05,39.2,62,19.5,13.5,11.1,680.0,74.0,14.3,0,5,4,1,2026-05-12T13:14:09.789213+05:30
Vijayawada,Andhra Pradesh,16.5062,80.648,37.8,36,0.0,999.1,9.15,37.4,55,26.0,15.8,1.7,169.0,119.0,5.1,0,5,10,1,2026-05-12T13:14:09.789219+05:30
Guntur,Andhra Pradesh,16.3067,80.4365,38.7,35,0.0,1000.1,9.2,33.8,56,29.9,18.5,1.6,192.0,131.0,5.4,0,5,7,1,2026-05-12T13:14:09.789227+05:30
Nellore,Andhra Pradesh,14.4426,79.9865,35.0,48,0.0,1002.5,8.8,37.8,30,15.9,7.9,0.9,119.0,81.0,2.1,0,5,4,1,2026-05-12T13:14:09.789234+05:30
Kurnool,Andhra Pradesh,15.8281,78.0373,39.7,22,0.0,973.4,9.1,42.5,52,28.4,13.2,0.8,183.0,134.0,3.6,0,5,10,0,2026-05-12T13:14:09.789242+05:30
Kakinada,Andhra Pradesh,16.9891,82.2475,33.0,56,0.0,1004.9,9.1,41.8,28,11.2,6.6,0.8,300.0,77.0,0.8,0,5,4,1,2026-05-12T13:14:09.789248+05:30
Tirupati,Andhra Pradesh,13.6288,79.4192,36.5,35,0.0,987.5,9.25,41.4,54,19.8,9.1,0.8,148.0,103.0,1.4,0,5,10,1,2026-05-12T13:14:09.789254+05:30
Warangal,Telangana,17.9689,79.5941,37.2,37,0.0,976.2,8.5,41.0,63,28.8,17.5,1.6,192.0,145.0,7.3,0,5,10,1,2026-05-12T13:14:09.789260+05:30
Nizamabad,Telangana,18.6725,78.0941,38.6,25,0.0,961.9,9.15,29.9,68,35.5,18.0,1.0,212.0,163.0,4.6,0,5,10,0,2026-05-12T13:14:09.789266+05:30
Mysore,Karnataka,12.2958,76.6396,33.8,29,0.0,926.3,8.8,36.0,84,30.4,18.6,2.0,250.0,174.0,5.7,0,5,7,0,2026-05-12T13:14:09.789272+05:30
Mangalore,Karnataka,12.9141,74.856,32.0,72,0.0,1002.7,8.8,37.4,90,47.1,23.1,1.0,160.0,117.0,1.7,3,5,4,1,2026-05-12T13:14:09.789279+05:30
Hubli-Dharwad,Karnataka,15.3647,75.124,36.9,28,0.0,938.7,9.1,43.9,68,38.6,18.1,1.4,201.0,150.0,4.4,0,5,10,0,2026-05-12T13:14:09.789286+05:30
Belgaum,Karnataka,15.8497,74.4977,36.0,25,0.0,924.0,8.45,41.0,68,42.0,17.6,1.5,198.0,142.0,5.9,0,5,10,0,2026-05-12T13:14:13.130096+05:30
Coimbatore,Tamil Nadu,11.0168,76.9558,33.8,43,0.0,958.6,9.05,30.6,73,30.9,17.5,1.6,308.0,165.0,5.2,0,5,7,1,2026-05-12T13:14:13.130129+05:30
Madurai,Tamil Nadu,9.9252,78.1198,36.0,39,0.0,988.9,8.95,31.3,82,29.2,21.5,1.7,263.0,163.0,8.1,0,5,10,1,2026-05-12T13:14:13.130139+05:30
Trichy,Tamil Nadu,10.7905,78.7047,35.5,41,0.0,995.5,9.1,32.0,70,27.0,19.7,1.9,196.0,152.0,12.9,0,5,10,1,2026-05-12T13:14:13.130148+05:30
Salem,Tamil Nadu,11.6643,78.146,36.0,37,0.0,973.4,8.45,31.7,87,36.4,23.9,2.9,227.0,197.0,17.7,0,5,10,1,2026-05-12T13:14:13.130156+05:30
Tirunelveli,Tamil Nadu,8.7139,77.7567,38.0,33,0.0,998.6,9.0,40.0,67,27.4,20.4,1.4,210.0,155.0,3.0,0,5,10,1,2026-05-12T13:14:13.130164+05:30
Vellore,Tamil Nadu,12.9165,79.1325,35.8,37,0.0,980.9,9.0,35.3,70,21.4,11.4,1.1,164.0,120.0,3.8,0,5,10,1,2026-05-12T13:14:13.130172+05:30
Erode,Tamil Nadu,11.341,77.7172,34.8,43,0.0,985.1,9.15,28.1,91,32.9,22.1,2.1,287.0,201.0,5.7,0,5,7,1,2026-05-12T13:14:13.130180+05:30
Kochi,Kerala,9.9312,76.2673,31.3,75,0.0,1004.5,8.15,34.6,86,24.4,19.0,1.7,232.0,135.0,2.0,3,5,4,1,2026-05-12T13:14:13.130187+05:30
Thiruvananthapuram,Kerala,8.5241,76.9366,30.5,74,0.1,1004.4,8.8,40.0,54,22.3,17.7,1.5,223.0,151.0,2.8,6,5,4,1,2026-05-12T13:14:13.130214+05:30
Kozhikode,Kerala,11.2588,75.7804,32.2,69,0.0,1003.5,8.5,37.8,62,33.8,20.5,0.9,193.0,128.0,2.4,3,5,4,1,2026-05-12T13:14:13.130220+05:30
Thrissur,Kerala,10.5276,76.2144,33.4,64,0.0,1002.9,8.25,33.5,85,28.1,20.3,1.4,213.0,134.0,2.2,3,5,4,1,2026-05-12T13:14:13.130227+05:30
Kannur,Kerala,11.8745,75.3704,33.0,68,0.0,1002.8,8.95,48.6,73,34.5,19.2,0.9,203.0,124.0,1.5,3,5,4,1,2026-05-12T13:14:13.130234+05:30
Patna,Bihar,25.5941,85.1376,34.0,52,0.0,997.5,8.6,35.3,125,62.9,54.5,2.3,323.0,207.0,17.1,0,5,7,1,2026-05-12T13:14:13.130239+05:30
Gaya,Bihar,24.7914,85.0002,36.8,40,0.0,990.1,8.7,51.8,110,92.7,58.6,2.0,293.0,226.0,19.5,0,5,10,1,2026-05-12T13:14:13.130246+05:30
Muzaffarpur,Bihar,26.1209,85.3647,32.2,59,0.0,998.1,8.75,43.6,120,55.9,50.2,2.1,306.0,202.0,14.6,0,5,7,1,2026-05-12T13:14:13.130251+05:30
Bhagalpur,Bihar,25.2425,87.0117,30.5,61,0.0,1000.0,8.6,33.8,137,48.4,43.0,4.4,245.0,175.0,9.4,3,5,4,1,2026-05-12T13:14:13.130257+05:30
Ranchi,Jharkhand,23.3441,85.3096,32.4,48,0.0,936.5,9.1,36.4,127,66.8,45.1,1.5,230.0,192.0,23.3,0,5,7,1,2026-05-12T13:14:13.130263+05:30
Jamshedpur,Jharkhand,22.8046,86.2029,36.7,35,0.0,988.5,9.1,41.8,74,57.0,43.3,3.7,372.0,173.0,24.1,0,5,10,1,2026-05-12T13:14:13.130269+05:30
Dhanbad,Jharkhand,23.7957,86.4304,34.3,45,0.0,978.0,8.95,33.1,117,77.1,61.7,19.8,422.0,148.0,52.9,0,5,7,1,2026-05-12T13:14:13.130276+05:30
Bokaro,Jharkhand,23.6693,86.1511,34.6,45,0.0,981.6,8.9,32.0,132,85.9,65.0,16.0,872.0,191.0,53.6,0,5,7,1,2026-05-12T13:14:13.130282+05:30
Bhubaneswar,Odisha,20.2961,85.8245,34.0,51,0.0,1001.0,9.15,34.2,67,21.0,13.8,1.6,188.0,101.0,3.5,0,5,4,1,2026-05-12T13:14:13.130288+05:30
Cuttack,Odisha,20.4625,85.8828,34.5,49,0.0,1002.7,9.2,33.8,67,21.0,13.8,1.6,176.0,101.0,3.5,0,5,4,1,2026-05-12T13:14:13.130295+05:30
Rourkela,Odisha,22.2604,84.8536,36.3,38,0.0,982.8,9.0,40.3,110,61.9,41.6,1.7,206.0,181.0,35.3,0,5,10,1,2026-05-12T13:14:13.130301+05:30
Raipur,Chhattisgarh,21.2514,81.6296,39.5,27,0.0,971.9,9.05,32.0,106,42.0,28.0,5.4,397.0,250.0,7.3,0,5,10,1,2026-05-12T13:14:13.130308+05:30
Bhilai,Chhattisgarh,21.1938,81.3509,38.8,29,0.0,972.3,9.05,33.1,99,42.6,26.4,5.1,578.0,215.0,7.4,0,5,10,1,2026-05-12T13:14:13.130313+05:30
Guwahati,Assam,26.1158,91.7086,29.9,59,0.0,1000.4,8.65,29.2,83,28.0,21.6,1.0,293.0,145.0,1.3,4,5,4,1,2026-05-12T13:14:13.130319+05:30
Agartala,Tripura,23.8315,91.2868,31.0,55,0.0,1005.2,8.85,19.8,89,29.7,24.7,4.0,249.0,162.0,1.4,0,5,4,1,2026-05-12T13:14:13.130325+05:30
Shillong,Meghalaya,25.5788,91.8933,21.2,64,0.0,857.3,5.2,22.3,70,25.7,19.4,1.0,332.0,150.0,1.7,3,5,3,0,2026-05-12T13:14:13.130331+05:30
Imphal,Manipur,24.817,93.9368,27.5,51,0.0,922.3,9.2,24.8,86,25.3,19.3,0.8,274.0,144.0,1.4,4,5,7,1,2026-05-12T13:14:13.130337+05:30
Aizawl,Mizoram,23.7271,92.7176,26.1,49,0.0,892.7,9.05,24.5,68,26.6,19.8,0.7,260.0,126.0,0.7,4,5,7,0,2026-05-12T13:14:13.130343+05:30
Kohima,Nagaland,25.6701,94.1077,23.9,54,0.1,855.7,8.3,29.9,59,21.9,16.2,0.6,265.0,139.0,1.0,3,5,7,0,2026-05-12T13:14:13.130349+05:30
Gangtok,Sikkim,27.3314,88.6138,18.6,83,0.1,837.3,9.05,39.6,77,37.6,27.0,0.7,266.0,140.0,1.9,6,10,7,0,2026-05-12T13:14:13.130356+05:30
Siliguri,West Bengal,26.7271,88.3953,29.0,64,0.1,992.3,8.5,24.5,116,47.5,33.3,1.1,332.0,149.0,1.8,10,5,7,1,2026-05-12T13:14:16.474843+05:30
Durgapur,West Bengal,23.5204,87.3119,33.0,55,0.0,993.5,9.0,28.8,102,45.4,37.0,10.5,193.0,124.0,30.3,0,5,7,1,2026-05-12T13:14:16.474874+05:30
Asansol,West Bengal,23.6739,86.9524,34.0,51,0.0,991.7,8.9,30.6,95,53.7,43.2,10.7,364.0,123.0,30.9,0,5,7,1,2026-05-12T13:14:16.474885+05:30
Pondicherry,Puducherry,11.9139,79.8145,30.5,74,0.0,1004.5,9.1,36.4,35,13.9,11.0,3.8,146.0,84.0,8.4,3,5,4,1,2026-05-12T13:14:16.474894+05:30
Port Blair,Andaman and Nicobar Islands,11.6234,92.7265,28.1,83,0.0,1004.6,2.15,27.4,24,5.5,3.8,0.4,102.0,51.0,0.1,7,5,0,1,2026-05-12T13:14:16.474902+05:30
Haridwar,Uttarakhand,29.9457,78.1642,32.5,48,0.0,972.9,7.45,23.0,119,146.7,51.9,1.0,289.0,204.0,17.6,0,5,7,1,2026-05-12T13:14:16.474911+05:30
Rishikesh,Uttarakhand,30.0869,78.2676,31.2,50,0.0,965.8,7.55,25.2,111,137.4,47.5,0.8,295.0,194.0,14.0,0,5,7,1,2026-05-12T13:14:16.474919+05:30
Nainital,Uttarakhand,29.3919,79.4542,20.0,65,0.0,807.5,8.25,41.0,116,93.4,37.8,0.8,278.0,175.0,5.6,3,5,7,0,2026-05-12T13:14:16.474927+05:30
Mussoorie,Uttarakhand,30.4599,78.0664,20.7,60,0.0,804.9,7.95,45.4,106,120.1,45.3,1.0,310.0,190.0,12.6,0,5,7,0,2026-05-12T13:14:16.474936+05:30
Dharamshala,Himachal Pradesh,32.219,76.3234,25.9,40,0.0,869.9,8.35,42.8,83,55.6,22.5,0.6,254.0,142.0,2.0,4,5,7,0,2026-05-12T13:14:16.474943+05:30
Dalhousie,Himachal Pradesh,32.5387,75.971,22.0,41,0.0,807.0,8.6,37.8,134,78.5,35.0,1.4,263.0,160.0,3.2,0,5,7,0,2026-05-12T13:14:16.474952+05:30
Patiala,Punjab,30.3398,76.3869,34.8,40,0.0,976.3,7.55,39.2,317,823.3,110.4,2.0,320.0,221.0,19.1,0,5,7,1,2026-05-12T13:14:16.474960+05:30
Bhatinda,Punjab,30.211,74.9455,39.2,25,0.0,980.2,8.2,37.4,184,343.7,70.3,1.9,389.0,197.0,17.6,0,5,10,0,2026-05-12T13:14:16.474967+05:30
Rohtak,Haryana,28.8955,76.6066,38.2,29,0.0,978.2,7.7,54.0,288,726.4,107.1,2.5,379.0,226.0,15.9,0,5,10,1,2026-05-12T13:14:16.474975+05:30
Panipat,Haryana,29.3909,76.9635,35.3,37,0.0,978.0,7.55,38.9,533,1229.3,146.2,4.0,339.0,245.0,26.0,0,5,10,1,2026-05-12T13:14:16.474982+05:30
Mathura,Uttar Pradesh,27.4924,77.6737,31.6,48,0.0,984.6,7.95,70.9,369,624.0,78.5,1.1,339.0,188.0,7.5,0,5,7,1,2026-05-12T13:14:16.474990+05:30
Vrindavan,Uttar Pradesh,27.5823,77.7027,32.3,45,0.0,984.9,7.95,70.9,369,624.0,78.5,1.1,346.0,188.0,7.5,0,5,7,1,2026-05-12T13:14:16.474997+05:30
Ayodhya,Uttar Pradesh,26.7922,82.1998,34.3,45,0.0,993.3,8.3,36.4,113,58.1,46.2,1.5,372.0,204.0,14.5,0,5,7,1,2026-05-12T13:14:16.475005+05:30
Ratlam,Madhya Pradesh,23.3315,75.0367,42.3,12,0.0,952.3,8.55,41.0,68,59.8,15.8,0.4,175.0,152.0,6.0,0,5,10,0,2026-05-12T13:14:16.475012+05:30
Sagar,Madhya Pradesh,23.8388,78.7378,40.1,17,0.0,948.2,8.75,32.8,119,86.8,26.1,0.5,233.0,163.0,6.0,0,5,10,0,2026-05-12T13:14:16.475020+05:30
Satna,Madhya Pradesh,24.6005,80.8322,39.6,20,0.0,968.6,8.75,47.9,102,73.3,32.9,0.7,279.0,185.0,7.8,0,5,10,0,2026-05-12T13:14:16.475027+05:30
Akola,Maharashtra,20.7002,77.0082,42.0,16,0.0,971.3,8.9,34.6,82,82.0,29.2,1.9,233.0,195.0,17.4,0,5,10,0,2026-05-12T13:14:16.475035+05:30
Amravati,Maharashtra,20.9374,77.7796,40.8,18,0.0,964.2,8.9,44.3,84,67.1,25.4,2.3,228.0,195.0,9.5,0,5,10,0,2026-05-12T13:14:16.475043+05:30
Latur,Maharashtra,18.4088,76.5604,40.5,17,0.0,937.1,9.05,38.9,65,47.3,20.4,1.0,208.0,169.0,7.6,0,5,10,0,2026-05-12T13:14:16.475051+05:30
Nanded,Maharashtra,19.1383,77.3091,41.3,18,0.0,964.9,9.05,34.6,66,46.7,21.0,1.2,225.0,176.0,9.7,0,5,10,0,2026-05-12T13:14:16.475058+05:30
Gulbarga,Karnataka,17.3297,76.8343,40.0,20,0.0,955.5,8.7,43.6,59,40.6,19.4,1.7,214.0,176.0,7.2,0,5,10,0,2026-05-12T13:14:16.475065+05:30
Bidar,Karnataka,17.9104,77.5199,37.4,24,0.0,933.7,9.15,39.2,62,37.6,17.1,1.4,206.0,164.0,6.6,0,5,10,0,2026-05-12T13:14:16.475073+05:30
Hospet,Karnataka,15.2689,76.3909,35.0,38,0.0,953.3,9.2,28.4,65,37.8,19.5,1.9,203.0,162.0,5.4,0,5,7,1,2026-05-12T13:14:16.475080+05:30
Tirupur,Tamil Nadu,11.1085,77.3411,36.0,34,0.0,971.7,9.25,29.9,89,33.1,22.2,2.1,272.0,200.0,6.6,0,5,10,1,2026-05-12T13:14:16.475087+05:30
Alappuzha,Kerala,9.4981,76.3388,31.1,74,0.0,1004.8,8.75,36.4,73,23.6,18.6,1.9,204.0,145.0,3.1,3,5,4,1,2026-05-12T13:14:16.475094+05:30
Munnar,Kerala,10.0889,77.0595,25.6,33,0.0,856.3,9.1,22.3,77,27.4,15.9,1.0,178.0,143.0,3.4,4,5,7,0,2026-05-12T13:14:16.475101+05:30
Silchar,Assam,24.8333,92.7789,30.6,59,0.0,1003.7,8.85,25.6,101,32.9,26.1,1.0,319.0,149.0,3.5,0,5,4,1,2026-05-12T13:14:16.475109+05:30
Dibrugarh,Assam,27.4728,94.912,29.9,53,0.0,993.6,8.8,18.4,84,18.7,13.2,0.9,222.0,137.0,1.1,4,5,7,1,2026-05-12T13:14:16.475115+05:30
