city,state,latitude,longitude,temp,humidity,rain,pressure,uv_index,wind_gusts,aqi,pm10,pm2_5,mosquito_risk,arthritis_risk,migraine_risk,frizz_risk,updated_at
Delhi,Delhi,28.6139,77.209,26.8,55,0.0,979.2,7.55,33.1,179,288.7,67.3,4,5,7,1,2026-05-01T01:40:21.524089+05:30
Mumbai,Maharashtra,19.076,72.8777,28.2,84,0.0,1007.6,7.9,42.5,70,50.9,17.2,7,5,4,1,2026-05-01T01:40:21.524133+05:30
Bangalore,Karnataka,12.9716,77.5946,23.2,75,0.0,911.5,9.5,47.9,88,44.8,39.5,3,5,7,1,2026-05-01T01:40:21.524149+05:30
Hyderabad,Telangana,17.385,78.4867,30.9,28,0.0,951.5,9.3,38.5,85,35.0,30.9,0,5,7,0,2026-05-01T01:40:21.524159+05:30
Chennai,Tamil Nadu,13.0827,80.2707,29.9,83,0.0,1007.0,9.25,57.2,46,9.7,7.5,7,5,4,1,2026-05-01T01:40:21.524168+05:30
Kolkata,West Bengal,22.5726,88.3639,23.8,99,0.0,1004.5,8.75,49.7,62,14.7,13.2,3,5,4,1,2026-05-01T01:40:21.524177+05:30
Pune,Maharashtra,18.5204,73.8567,24.5,63,0.0,947.0,8.55,51.5,54,27.2,14.2,3,5,7,1,2026-05-01T01:40:21.524188+05:30
Ahmedabad,Gujarat,23.0225,72.5714,30.2,61,0.0,998.8,8.1,42.8,61,38.1,15.2,3,5,7,1,2026-05-01T01:40:21.524196+05:30
Jaipur,Rajasthan,26.9124,75.7873,26.2,41,0.0,954.9,8.1,46.8,166,403.3,71.2,4,5,7,0,2026-05-01T01:40:21.524204+05:30
Lucknow,Uttar Pradesh,26.8467,80.9462,22.9,77,0.0,991.9,8.0,33.1,96,43.0,31.3,3,5,7,1,2026-05-01T01:40:21.524211+05:30
Kanpur,Uttar Pradesh,26.4499,80.3319,25.0,67,0.0,989.2,8.05,39.6,136,280.3,51.6,7,5,7,1,2026-05-01T01:40:21.524219+05:30
Chandigarh,Chandigarh,30.7333,76.7794,21.5,64,0.0,965.5,7.6,34.9,72,26.7,20.2,3,5,7,0,2026-05-01T01:40:21.524226+05:30
Srinagar,Jammu and Kashmir,34.0837,74.7973,10.1,96,0.0,838.9,8.75,27.7,76,51.1,49.5,3,10,7,0,2026-05-01T01:40:21.524234+05:30
Jammu,Jammu and Kashmir,32.7266,74.857,20.2,66,0.0,967.9,8.35,27.4,58,19.8,18.2,3,5,7,0,2026-05-01T01:40:21.524242+05:30
Amritsar,Punjab,31.634,74.8723,24.0,56,0.0,976.8,8.25,32.8,75,43.7,27.0,0,5,7,0,2026-05-01T01:40:21.524248+05:30
Ludhiana,Punjab,30.901,75.8573,23.0,69,0.0,975.1,7.85,33.1,127,380.9,88.7,3,5,7,1,2026-05-01T01:40:21.524255+05:30
Jalandhar,Punjab,31.326,75.5762,22.1,75,0.0,975.9,8.0,29.5,77,223.1,57.7,3,5,7,1,2026-05-01T01:40:21.524264+05:30
Dehradun,Uttarakhand,30.6284,78.0322,9.9,94,0.0,824.4,7.45,43.6,50,22.9,18.1,3,10,7,0,2026-05-01T01:40:21.524271+05:30
Shimla,Himachal Pradesh,31.1048,77.1734,6.2,95,0.0,775.8,8.1,47.5,47,19.3,16.6,3,10,7,0,2026-05-01T01:40:21.524278+05:30
Manali,Himachal Pradesh,32.2396,77.1887,6.4,76,0.0,809.9,9.05,41.4,49,6.1,6.1,3,5,7,0,2026-05-01T01:40:21.524285+05:30
Gurgaon,Haryana,28.4595,77.0266,25.6,59,0.0,977.3,7.65,36.7,868,1069.2,144.4,4,5,7,1,2026-05-01T01:40:21.524292+05:30
Noida,Uttar Pradesh,28.5355,77.391,25.0,63,0.0,980.7,7.6,32.4,868,1069.2,144.4,7,5,7,1,2026-05-01T01:40:21.524299+05:30
Ghaziabad,Uttar Pradesh,28.6692,77.4538,24.5,68,0.0,979.0,7.55,36.0,152,270.1,63.3,3,5,7,1,2026-05-01T01:40:21.524306+05:30
Faridabad,Haryana,28.4089,77.3178,26.0,58,0.0,980.0,7.65,34.6,868,1069.2,144.4,4,5,7,1,2026-05-01T01:40:21.524313+05:30
Meerut,Uttar Pradesh,28.9845,77.7064,23.9,71,0.0,978.4,7.5,37.4,152,270.1,63.3,3,5,7,1,2026-05-01T01:40:21.524320+05:30
Agra,Uttar Pradesh,27.1767,78.0081,27.5,45,0.0,984.3,7.9,29.2,390,1143.7,138.3,4,5,7,0,2026-05-01T01:40:21.524329+05:30
Varanasi,Uttar Pradesh,25.3176,82.9739,26.0,71,0.0,995.4,8.55,45.7,102,59.5,46.3,7,5,7,1,2026-05-01T01:40:21.524339+05:30
Prayagraj,Uttar Pradesh,25.4358,81.8463,26.6,64,0.0,993.9,8.05,30.6,100,52.0,39.1,7,5,7,1,2026-05-01T01:40:21.524347+05:30
Gorakhpur,Uttar Pradesh,26.7606,83.3732,20.8,92,0.0,997.0,8.4,36.4,74,44.5,26.6,3,5,7,1,2026-05-01T01:40:21.524356+05:30
Bareilly,Uttar Pradesh,28.367,79.4304,23.2,74,0.0,985.1,7.85,35.3,120,110.1,39.7,3,5,7,1,2026-05-01T01:40:21.524362+05:30
Aligarh,Uttar Pradesh,27.8974,78.088,25.4,56,0.0,982.2,7.75,34.9,282,938.8,129.5,4,5,7,0,2026-05-01T01:40:21.524369+05:30
Moradabad,Uttar Pradesh,28.8386,78.7733,23.0,75,0.0,981.6,7.7,35.6,131,68.7,41.8,3,5,7,1,2026-05-01T01:40:21.524375+05:30
Saharanpur,Uttar Pradesh,29.9637,77.546,21.7,78,0.0,973.0,7.3,38.9,96,46.4,35.6,3,5,7,1,2026-05-01T01:40:21.524381+05:30
Jhansi,Uttar Pradesh,25.4484,78.5685,27.2,54,0.0,974.2,8.35,51.8,91,89.6,33.6,4,5,7,1,2026-05-01T01:40:24.862856+05:30
Surat,Gujarat,21.1702,72.8311,27.7,89,0.0,1004.8,7.7,53.6,65,32.7,16.8,7,5,4,1,2026-05-01T01:40:24.862886+05:30
Vadodara,Gujarat,22.3072,73.1812,28.6,79,0.0,1001.5,8.05,49.0,59,22.7,13.8,7,5,4,1,2026-05-01T01:40:24.862897+05:30
Rajkot,Gujarat,22.3039,70.8022,26.8,83,0.0,991.5,7.7,56.2,55,25.8,11.9,7,5,7,1,2026-05-01T01:40:24.862909+05:30
Thane,Maharashtra,19.2183,72.9781,28.0,83,0.0,1006.9,7.9,40.0,70,50.9,17.2,7,5,4,1,2026-05-01T01:40:24.862916+05:30
Nagpur,Maharashtra,21.1458,79.0882,31.5,23,0.0,970.4,8.9,41.8,58,37.7,23.5,0,5,7,0,2026-05-01T01:40:24.862924+05:30
Nashik,Maharashtra,19.9975,73.7898,23.6,84,0.0,944.1,8.2,52.6,61,38.3,17.5,3,5,7,1,2026-05-01T01:40:24.862931+05:30
Aurangabad,Maharashtra,19.8762,75.3433,26.4,49,0.0,942.9,9.05,48.2,55,31.0,14.1,4,5,7,0,2026-05-01T01:40:24.862938+05:30
Solapur,Maharashtra,17.6599,75.9064,29.5,41,0.0,956.0,9.1,49.3,56,20.6,11.8,4,5,7,0,2026-05-01T01:40:24.862944+05:30
Kolhapur,Maharashtra,16.705,74.2433,23.2,81,0.0,947.5,9.0,49.7,56,23.1,16.1,3,5,7,1,2026-05-01T01:40:24.862951+05:30
Goa,Goa,15.2993,74.124,28.2,91,0.0,998.2,8.95,38.5,58,33.5,22.1,7,5,7,1,2026-05-01T01:40:24.862958+05:30
Jodhpur,Rajasthan,26.2389,73.0243,32.2,28,0.0,977.4,8.3,48.6,134,265.4,46.1,0,5,7,0,2026-05-01T01:40:24.862965+05:30
Udaipur,Rajasthan,24.5854,73.7125,27.8,43,0.0,942.9,8.8,45.7,63,34.8,17.5,4,5,7,0,2026-05-01T01:40:24.862971+05:30
Kota,Rajasthan,25.2138,75.8648,30.5,27,0.0,974.7,8.3,42.5,71,49.6,21.3,0,5,7,0,2026-05-01T01:40:24.862978+05:30
Bikaner,Rajasthan,28.0229,73.3119,30.1,19,0.0,976.1,8.25,30.2,68,69.4,20.4,0,5,7,0,2026-05-01T01:40:24.862984+05:30
Ajmer,Rajasthan,26.4499,74.6399,30.6,24,0.0,950.0,8.25,52.2,82,107.6,29.0,0,5,7,0,2026-05-01T01:40:24.862991+05:30
Gwalior,Madhya Pradesh,26.2183,78.1828,28.1,47,0.0,979.2,8.1,45.0,107,182.1,49.8,4,5,7,0,2026-05-01T01:40:24.862997+05:30
Indore,Madhya Pradesh,22.7196,75.8577,28.4,38,0.0,945.6,8.65,42.1,62,34.3,19.8,4,5,7,0,2026-05-01T01:40:24.863004+05:30
Bhopal,Madhya Pradesh,23.2599,77.4126,30.5,25,0.0,950.8,8.65,40.3,62,78.2,32.6,0,5,7,0,2026-05-01T01:40:24.863010+05:30
Jabalpur,Madhya Pradesh,23.1815,79.9864,26.2,46,0.0,958.3,8.8,44.3,60,73.1,30.0,4,5,7,0,2026-05-01T01:40:24.863016+05:30
Ujjain,Madhya Pradesh,23.1765,75.7885,28.6,40,0.0,951.0,8.55,44.6,62,28.9,16.9,4,5,7,0,2026-05-01T01:40:24.863023+05:30
Visakhapatnam,Andhra Pradesh,17.6868,83.2185,28.4,91,0.0,1002.3,9.15,51.1,59,17.2,13.0,7,5,4,1,2026-05-01T01:40:24.863030+05:30
Vijayawada,Andhra Pradesh,16.5062,80.648,29.2,85,0.0,1000.9,9.2,38.2,61,11.9,9.1,7,5,4,1,2026-05-01T01:40:24.863036+05:30
Guntur,Andhra Pradesh,16.3067,80.4365,29.4,85,0.0,1002.3,9.2,42.8,65,11.9,9.3,7,5,4,1,2026-05-01T01:40:24.863043+05:30
Nellore,Andhra Pradesh,14.4426,79.9865,29.7,82,0.0,1004.8,9.3,41.0,54,21.7,19.6,7,5,4,1,2026-05-01T01:40:24.863051+05:30
Kurnool,Andhra Pradesh,15.8281,78.0373,31.6,37,0.0,975.3,9.2,41.0,84,27.7,25.5,0,5,7,0,2026-05-01T01:40:24.863059+05:30
Kakinada,Andhra Pradesh,16.9891,82.2475,28.9,86,0.0,1006.3,6.8,49.7,49,17.5,12.3,7,5,4,1,2026-05-01T01:40:24.863065+05:30
Tirupati,Andhra Pradesh,13.6288,79.4192,29.2,79,0.0,991.0,9.3,44.3,66,31.7,27.6,7,5,7,1,2026-05-01T01:40:24.863072+05:30
Warangal,Telangana,17.9689,79.5941,29.5,65,0.0,976.3,9.15,37.1,94,28.6,27.4,7,5,7,1,2026-05-01T01:40:24.863078+05:30
Nizamabad,Telangana,18.6725,78.0941,30.0,23,0.0,962.6,9.15,36.0,76,30.6,24.8,4,5,7,0,2026-05-01T01:40:24.863085+05:30
Mysore,Karnataka,12.2958,76.6396,23.0,90,0.0,928.4,9.4,58.7,69,27.5,23.2,3,5,7,1,2026-05-01T01:40:24.863091+05:30
Mangalore,Karnataka,12.9141,74.856,29.1,76,0.0,1006.7,9.05,40.7,70,44.1,24.7,7,5,4,1,2026-05-01T01:40:24.863098+05:30
Hubli-Dharwad,Karnataka,15.3647,75.124,24.2,96,0.0,940.8,9.2,45.7,52,15.2,9.7,3,5,7,1,2026-05-01T01:40:24.863104+05:30
Belgaum,Karnataka,15.8497,74.4977,22.0,98,0.0,925.5,9.2,45.7,54,21.8,14.9,3,5,7,1,2026-05-01T01:40:28.206155+05:30
Coimbatore,Tamil Nadu,11.0168,76.9558,25.7,84,0.0,961.8,8.6,45.4,59,14.1,12.0,7,5,7,1,2026-05-01T01:40:28.206185+05:30
Madurai,Tamil Nadu,9.9252,78.1198,30.1,60,0.0,993.0,9.2,45.0,63,23.7,22.9,0,5,7,1,2026-05-01T01:40:28.206195+05:30
Trichy,Tamil Nadu,10.7905,78.7047,29.6,74,0.0,999.6,9.25,51.8,49,15.5,14.9,7,5,7,1,2026-05-01T01:40:28.206204+05:30
Salem,Tamil Nadu,11.6643,78.146,29.5,62,0.0,977.2,9.3,36.4,90,44.0,34.1,7,5,7,1,2026-05-01T01:40:28.206211+05:30
Tirunelveli,Tamil Nadu,8.7139,77.7567,27.9,74,0.0,1003.1,9.1,38.9,45,10.7,10.3,7,5,4,1,2026-05-01T01:40:28.206219+05:30
Vellore,Tamil Nadu,12.9165,79.1325,29.2,73,0.0,984.4,9.35,50.4,69,33.9,30.2,7,5,7,1,2026-05-01T01:40:28.206227+05:30
Erode,Tamil Nadu,11.341,77.7172,28.4,70,0.0,988.9,8.45,40.3,71,29.0,24.0,7,5,7,1,2026-05-01T01:40:28.206234+05:30
Kochi,Kerala,9.9312,76.2673,26.0,93,0.0,1009.1,8.9,33.8,62,23.7,21.8,7,0,4,1,2026-05-01T01:40:28.206241+05:30
Thiruvananthapuram,Kerala,8.5241,76.9366,24.5,94,0.0,1008.7,8.85,32.0,38,9.4,7.7,3,0,4,1,2026-05-01T01:40:28.206248+05:30
Kozhikode,Kerala,11.2588,75.7804,26.3,92,0.0,1008.3,8.7,42.8,56,27.1,16.5,7,0,4,1,2026-05-01T01:40:28.206255+05:30
Thrissur,Kerala,10.5276,76.2144,25.6,91,0.0,1007.5,8.9,28.8,66,26.9,25.1,7,5,4,1,2026-05-01T01:40:28.206263+05:30
Kannur,Kerala,11.8745,75.3704,26.0,90,0.0,1007.4,8.95,42.1,67,39.0,21.4,7,5,4,1,2026-05-01T01:40:28.206270+05:30
Patna,Bihar,25.5941,85.1376,23.1,87,0.0,999.9,8.55,31.0,96,56.7,45.9,3,5,7,1,2026-05-01T01:40:28.206278+05:30
Gaya,Bihar,24.7914,85.0002,22.8,84,0.0,992.3,8.7,27.0,107,54.5,49.5,3,5,7,1,2026-05-01T01:40:28.206285+05:30
Muzaffarpur,Bihar,26.1209,85.3647,22.4,82,0.0,1000.3,8.05,33.8,81,53.0,40.3,3,5,4,1,2026-05-01T01:40:28.206292+05:30
Bhagalpur,Bihar,25.2425,87.0117,22.0,97,0.0,1000.4,8.4,34.6,84,66.8,53.4,3,5,4,1,2026-05-01T01:40:28.206299+05:30
Ranchi,Jharkhand,23.3441,85.3096,20.0,78,0.0,935.6,9.0,36.4,101,56.8,44.5,3,5,7,1,2026-05-01T01:40:28.206307+05:30
Jamshedpur,Jharkhand,22.8046,86.2029,22.1,93,0.0,989.3,8.55,39.6,116,48.0,43.8,3,5,7,1,2026-05-01T01:40:28.206314+05:30
Dhanbad,Jharkhand,23.7957,86.4304,21.9,98,0.0,978.0,8.6,32.8,152,83.6,79.4,3,5,7,1,2026-05-01T01:40:28.206321+05:30
Bokaro,Jharkhand,23.6693,86.1511,21.2,94,0.0,982.0,8.55,35.3,151,89.9,84.3,3,5,7,1,2026-05-01T01:40:28.206328+05:30
Bhubaneswar,Odisha,20.2961,85.8245,28.1,86,0.0,1000.1,9.1,44.6,55,10.5,8.2,7,5,4,1,2026-05-01T01:40:28.206335+05:30
Cuttack,Odisha,20.4625,85.8828,28.8,87,0.0,1001.8,9.15,41.8,55,10.5,8.2,7,5,4,1,2026-05-01T01:40:28.206342+05:30
Rourkela,Odisha,22.2604,84.8536,22.9,85,0.0,984.2,8.8,51.5,110,63.8,53.4,3,5,7,1,2026-05-01T01:40:28.206349+05:30
Raipur,Chhattisgarh,21.2514,81.6296,29.3,35,0.0,972.6,8.85,43.2,86,47.3,31.1,4,5,7,0,2026-05-01T01:40:28.206357+05:30
Bhilai,Chhattisgarh,21.1938,81.3509,29.0,36,0.0,973.3,8.85,43.2,82,48.7,31.0,4,5,7,0,2026-05-01T01:40:28.206364+05:30
Guwahati,Assam,26.1158,91.7086,20.0,98,0.0,1002.0,7.35,24.1,66,35.6,26.8,3,5,4,1,2026-05-01T01:40:28.206371+05:30
Agartala,Tripura,23.8315,91.2868,21.9,97,0.0,1006.4,7.6,50.4,76,22.8,19.0,3,5,4,1,2026-05-01T01:40:28.206378+05:30
Shillong,Meghalaya,25.5788,91.8933,13.3,97,0.0,853.9,8.35,23.8,59,21.4,18.5,3,10,7,0,2026-05-01T01:40:28.206385+05:30
Imphal,Manipur,24.817,93.9368,16.5,98,0.0,922.0,3.3,24.5,80,37.4,31.9,3,10,3,1,2026-05-01T01:40:28.206393+05:30
Aizawl,Mizoram,23.7271,92.7176,15.5,96,0.0,890.4,7.6,54.0,54,17.8,15.7,3,10,7,0,2026-05-01T01:40:28.206400+05:30
Kohima,Nagaland,25.6701,94.1077,12.4,97,0.0,852.0,5.15,20.5,56,19.8,15.2,3,10,3,0,2026-05-01T01:40:28.206407+05:30
Gangtok,Sikkim,27.3314,88.6138,11.0,96,0.2,834.1,7.7,39.6,47,12.1,7.9,6,10,7,0,2026-05-01T01:40:28.206414+05:30
Siliguri,West Bengal,26.7271,88.3953,20.9,86,0.0,993.0,8.2,25.9,58,39.5,29.2,3,5,7,1,2026-05-01T01:40:31.559385+05:30
Durgapur,West Bengal,23.5204,87.3119,22.2,98,0.0,993.3,8.4,37.4,110,50.8,48.0,3,5,7,1,2026-05-01T01:40:31.559416+05:30
Asansol,West Bengal,23.6739,86.9524,22.0,100,0.0,991.8,8.75,30.6,114,54.4,50.8,3,5,7,1,2026-05-01T01:40:31.559425+05:30
Pondicherry,Puducherry,11.9139,79.8145,29.5,80,0.0,1008.4,8.5,58.0,37,7.4,6.0,7,0,4,1,2026-05-01T01:40:31.559433+05:30
Port Blair,Andaman and Nicobar Islands,11.6234,92.7265,26.8,86,0.0,1006.4,9.1,28.8,29,6.5,5.2,7,5,4,1,2026-05-01T01:40:31.559441+05:30
Haridwar,Uttarakhand,29.9457,78.1642,20.5,80,0.0,971.3,7.4,23.4,84,38.9,28.3,3,5,7,1,2026-05-01T01:40:31.559448+05:30
Rishikesh,Uttarakhand,30.0869,78.2676,18.2,98,0.0,963.5,7.5,26.3,75,55.8,28.9,3,10,7,1,2026-05-01T01:40:31.559455+05:30
Nainital,Uttarakhand,29.3919,79.4542,10.9,88,0.0,801.2,6.85,37.4,82,56.2,30.2,3,10,7,0,2026-05-01T01:40:31.559462+05:30
Mussoorie,Uttarakhand,30.4599,78.0664,11.4,74,0.0,797.9,7.9,49.0,63,27.8,22.7,3,5,7,0,2026-05-01T01:40:31.559470+05:30
Dharamshala,Himachal Pradesh,32.219,76.3234,19.8,44,0.0,865.7,8.25,48.2,46,14.2,10.8,0,5,7,0,2026-05-01T01:40:31.559477+05:30
Dalhousie,Himachal Pradesh,32.5387,75.971,9.3,75,0.0,797.4,8.5,38.9,55,28.8,24.4,3,5,7,0,2026-05-01T01:40:31.559484+05:30
Patiala,Punjab,30.3398,76.3869,22.4,75,0.0,974.8,7.5,37.1,366,475.0,70.3,3,5,7,1,2026-05-01T01:40:31.559491+05:30
Bhatinda,Punjab,30.211,74.9455,25.3,59,0.0,979.6,8.15,33.1,110,767.4,137.4,4,5,7,1,2026-05-01T01:40:31.559498+05:30
Rohtak,Haryana,28.8955,76.6066,25.3,61,0.0,977.8,7.6,35.6,333,489.9,86.1,7,5,7,1,2026-05-01T01:40:31.559504+05:30
Panipat,Haryana,29.3909,76.9635,23.6,77,0.0,976.8,7.45,37.8,607,849.4,109.0,3,5,7,1,2026-05-01T01:40:31.559511+05:30
Mathura,Uttar Pradesh,27.4924,77.6737,26.9,47,0.0,982.9,7.85,31.0,511,799.1,107.8,4,5,7,0,2026-05-01T01:40:31.559518+05:30
Vrindavan,Uttar Pradesh,27.5823,77.7027,26.6,48,0.0,983.3,7.85,31.3,511,799.1,107.8,4,5,7,0,2026-05-01T01:40:31.559525+05:30
Ayodhya,Uttar Pradesh,26.7922,82.1998,21.8,91,0.0,993.9,8.15,33.5,80,41.4,28.2,3,5,7,1,2026-05-01T01:40:31.559531+05:30
Ratlam,Madhya Pradesh,23.3315,75.0367,27.5,49,0.0,952.3,8.5,47.2,60,25.6,14.7,4,5,7,0,2026-05-01T01:40:31.559537+05:30
Sagar,Madhya Pradesh,23.8388,78.7378,26.6,44,0.0,947.2,8.65,45.0,63,77.3,26.4,4,5,7,0,2026-05-01T01:40:31.559543+05:30
Satna,Madhya Pradesh,24.6005,80.8322,25.2,60,0.0,968.8,8.65,52.6,83,70.3,34.9,4,5,7,1,2026-05-01T01:40:31.559550+05:30
Akola,Maharashtra,20.7002,77.0082,31.0,30,0.0,972.9,8.9,38.9,55,20.7,11.3,0,5,7,0,2026-05-01T01:40:31.559557+05:30
Amravati,Maharashtra,20.9374,77.7796,30.8,26,0.0,964.9,8.9,38.2,54,21.2,12.4,0,5,7,0,2026-05-01T01:40:31.559564+05:30
Latur,Maharashtra,18.4088,76.5604,28.5,33,0.0,938.4,9.1,40.7,65,30.2,15.6,4,5,7,0,2026-05-01T01:40:31.559571+05:30
Nanded,Maharashtra,19.1383,77.3091,31.0,24,0.0,966.6,9.05,34.2,57,25.8,15.5,0,5,7,0,2026-05-01T01:40:31.559577+05:30
Gulbarga,Karnataka,17.3297,76.8343,31.4,30,0.0,957.1,9.15,48.6,59,15.1,11.2,0,5,7,0,2026-05-01T01:40:31.559583+05:30
Bidar,Karnataka,17.9104,77.5199,28.1,31,0.0,933.9,9.15,36.4,82,38.2,33.1,4,5,7,0,2026-05-01T01:40:31.559589+05:30
Hospet,Karnataka,15.2689,76.3909,26.9,83,0.0,955.7,9.25,45.4,63,13.5,11.4,7,5,7,1,2026-05-01T01:40:31.559596+05:30
Tirupur,Tamil Nadu,11.1085,77.3411,26.3,82,0.0,975.0,8.15,41.0,74,27.9,22.8,7,5,7,1,2026-05-01T01:40:31.559602+05:30
Alappuzha,Kerala,9.4981,76.3388,25.5,98,0.0,1009.1,9.0,38.9,60,23.6,20.6,7,0,4,1,2026-05-01T01:40:31.559609+05:30
Munnar,Kerala,10.0889,77.0595,16.8,96,0.0,856.2,9.2,27.0,67,6.7,6.4,3,10,7,1,2026-05-01T01:40:31.559617+05:30
Silchar,Assam,24.8333,92.7789,20.5,97,0.1,1006.4,6.05,33.5,94,42.6,33.3,6,5,4,1,2026-05-01T01:40:31.559624+05:30
Dibrugarh,Assam,27.4728,94.912,20.5,99,0.1,996.1,7.4,27.0,63,28.5,18.5,6,5,7,1,2026-05-01T01:40:31.559630+05:30
