city,state,latitude,longitude,temp,humidity,rain,pressure,uv_index,wind_gusts,aqi,pm10,pm2_5,no2,co,o3,so2,mosquito_risk,arthritis_risk,migraine_risk,frizz_risk,updated_at
Delhi,Delhi,28.6139,77.209,37.2,18,0.0,978.4,7.75,46.4,422,895.9,161.6,27.1,318.0,73.0,15.1,0,5,10,0,2026-05-23T20:33:12.465669+05:30
Mumbai,Maharashtra,19.076,72.8777,30.8,73,0.0,1008.8,7.8,32.8,44,11.2,8.5,10.9,281.0,52.0,6.5,3,0,4,1,2026-05-23T20:33:12.465714+05:30
Bangalore,Karnataka,12.9716,77.5946,22.4,91,0.0,913.8,6.3,34.6,46,20.7,17.1,26.5,788.0,58.0,6.4,3,5,7,1,2026-05-23T20:33:12.465730+05:30
Hyderabad,Telangana,17.385,78.4867,32.3,44,0.0,952.9,9.2,47.9,99,33.5,28.6,12.1,437.0,98.0,6.4,0,5,7,1,2026-05-23T20:33:12.465739+05:30
Chennai,Tamil Nadu,13.0827,80.2707,33.2,55,0.0,1006.4,3.2,45.7,116,33.8,26.3,17.6,285.0,90.0,9.7,0,5,0,1,2026-05-23T20:33:12.465747+05:30
Kolkata,West Bengal,22.5726,88.3639,29.9,84,0.0,1002.2,8.95,44.6,99,31.8,24.8,6.4,300.0,74.0,6.0,7,5,4,1,2026-05-23T20:33:12.465755+05:30
Pune,Maharashtra,18.5204,73.8567,27.2,80,0.0,949.2,8.4,38.9,45,12.5,10.6,13.7,207.0,62.0,7.9,7,5,7,1,2026-05-23T20:33:12.465762+05:30
Ahmedabad,Gujarat,23.0225,72.5714,35.8,46,0.0,999.9,8.15,33.1,75,34.6,23.8,12.2,232.0,66.0,4.4,0,5,10,1,2026-05-23T20:33:12.465768+05:30
Jaipur,Rajasthan,26.9124,75.7873,36.9,18,0.0,957.2,8.25,51.8,185,201.2,63.8,14.7,202.0,69.0,6.6,0,5,10,0,2026-05-23T20:33:12.465780+05:30
Lucknow,Uttar Pradesh,26.8467,80.9462,35.8,24,0.0,988.2,8.2,56.9,164,395.8,94.3,14.4,248.0,95.0,10.6,0,5,10,0,2026-05-23T20:33:12.465787+05:30
Kanpur,Uttar Pradesh,26.4499,80.3319,36.1,22,0.0,986.7,8.25,52.9,397,681.7,130.4,13.5,285.0,94.0,10.7,0,5,10,0,2026-05-23T20:33:12.465793+05:30
Chandigarh,Chandigarh,30.7333,76.7794,32.2,23,0.0,965.1,7.75,37.8,105,52.7,29.7,19.3,444.0,93.0,9.5,0,5,7,0,2026-05-23T20:33:12.465800+05:30
Srinagar,Jammu and Kashmir,34.0837,74.7973,16.9,71,0.0,843.1,8.85,27.7,68,25.8,17.3,20.1,1202.0,68.0,2.6,3,5,7,0,2026-05-23T20:33:12.465806+05:30
Jammu,Jammu and Kashmir,32.7266,74.857,29.2,36,0.0,969.5,8.5,49.0,82,55.3,32.5,28.8,330.0,66.0,4.4,4,5,7,0,2026-05-23T20:33:12.465812+05:30
Amritsar,Punjab,31.634,74.8723,31.6,34,0.0,977.3,8.4,30.2,142,43.8,27.0,15.5,437.0,100.0,8.4,0,5,7,0,2026-05-23T20:33:12.465818+05:30
Ludhiana,Punjab,30.901,75.8573,34.4,20,0.0,974.9,8.0,37.8,108,76.6,34.5,12.5,404.0,103.0,7.3,0,5,7,0,2026-05-23T20:33:12.465824+05:30
Jalandhar,Punjab,31.326,75.5762,33.9,23,0.0,975.9,8.15,35.3,117,94.1,36.9,13.4,595.0,104.0,7.0,0,5,7,0,2026-05-23T20:33:12.465838+05:30
Dehradun,Uttarakhand,30.6284,78.0322,18.6,51,0.0,827.9,8.15,47.5,81,46.9,17.7,22.3,224.0,86.0,1.9,0,5,7,0,2026-05-23T20:33:12.465844+05:30
Shimla,Himachal Pradesh,31.1048,77.1734,16.2,37,0.0,783.5,8.25,46.4,89,54.0,19.7,12.2,210.0,104.0,3.2,0,5,7,0,2026-05-23T20:33:12.465853+05:30
Manali,Himachal Pradesh,32.2396,77.1887,15.5,54,0.0,817.1,9.85,47.5,92,38.4,12.5,42.9,193.0,85.0,0.5,0,5,7,0,2026-05-23T20:33:12.465859+05:30
Gurgaon,Haryana,28.4595,77.0266,35.0,23,0.0,976.9,7.85,47.5,922,990.9,176.5,33.3,704.0,59.0,13.4,0,5,7,0,2026-05-23T20:33:12.465865+05:30
Noida,Uttar Pradesh,28.5355,77.391,35.2,24,0.0,979.7,7.75,44.6,922,990.9,176.5,33.3,390.0,59.0,13.4,0,5,10,0,2026-05-23T20:33:12.465874+05:30
Ghaziabad,Uttar Pradesh,28.6692,77.4538,35.2,21,0.0,977.9,7.75,58.0,190,745.1,134.6,17.2,302.0,90.0,15.1,0,5,10,0,2026-05-23T20:33:12.465880+05:30
Faridabad,Haryana,28.4089,77.3178,36.7,19,0.0,979.1,7.8,50.0,922,990.9,176.5,33.3,460.0,59.0,13.4,0,5,10,0,2026-05-23T20:33:12.465886+05:30
Meerut,Uttar Pradesh,28.9845,77.7064,34.5,23,0.0,976.7,7.65,59.8,190,745.1,134.6,17.2,266.0,90.0,15.1,0,5,7,0,2026-05-23T20:33:12.465892+05:30
Agra,Uttar Pradesh,27.1767,78.0081,35.8,25,0.0,983.3,8.1,42.1,647,855.0,137.4,19.1,313.0,64.0,7.8,0,5,10,0,2026-05-23T20:33:12.465898+05:30
Varanasi,Uttar Pradesh,25.3176,82.9739,36.4,24,0.0,992.0,8.75,49.0,156,156.0,67.3,25.8,396.0,75.0,13.6,0,5,10,0,2026-05-23T20:33:12.465905+05:30
Prayagraj,Uttar Pradesh,25.4358,81.8463,37.2,20,0.0,990.9,8.65,42.8,152,122.9,49.8,15.4,365.0,86.0,10.6,0,5,10,0,2026-05-23T20:33:12.465911+05:30
Gorakhpur,Uttar Pradesh,26.7606,83.3732,32.7,44,0.0,991.3,8.65,42.5,159,74.7,43.5,14.9,281.0,101.0,11.1,0,5,7,1,2026-05-23T20:33:12.465935+05:30
Bareilly,Uttar Pradesh,28.367,79.4304,32.4,34,0.0,981.1,8.05,57.2,145,88.9,41.2,13.9,260.0,97.0,10.8,0,5,7,0,2026-05-23T20:33:12.465941+05:30
Aligarh,Uttar Pradesh,27.8974,78.088,34.6,27,0.0,980.9,7.85,51.1,571,879.2,162.1,19.6,445.0,70.0,8.2,0,5,7,0,2026-05-23T20:33:12.465948+05:30
Moradabad,Uttar Pradesh,28.8386,78.7733,32.5,33,0.0,978.4,7.85,65.9,119,201.2,66.4,21.5,375.0,74.0,9.4,0,5,7,0,2026-05-23T20:33:12.465954+05:30
Saharanpur,Uttar Pradesh,29.9637,77.546,33.6,23,0.0,971.1,7.45,59.8,99,98.5,36.4,13.3,300.0,94.0,9.0,0,5,7,0,2026-05-23T20:33:12.465960+05:30
Jhansi,Uttar Pradesh,25.4484,78.5685,36.9,20,0.0,974.2,8.5,46.8,82,70.5,34.9,6.7,174.0,69.0,3.7,0,5,10,0,2026-05-23T20:33:15.752393+05:30
Surat,Gujarat,21.1702,72.8311,30.8,75,0.0,1006.2,7.65,39.2,58,15.8,13.3,22.8,236.0,31.0,36.2,3,5,4,1,2026-05-23T20:33:15.752428+05:30
Vadodara,Gujarat,22.3072,73.1812,33.3,57,0.0,1002.7,8.1,41.8,62,26.3,19.6,13.4,180.0,65.0,13.0,0,5,4,1,2026-05-23T20:33:15.752438+05:30
Rajkot,Gujarat,22.3039,70.8022,32.0,63,0.0,993.4,7.55,41.0,67,35.0,23.3,5.2,134.0,74.0,6.7,3,5,7,1,2026-05-23T20:33:15.752447+05:30
Thane,Maharashtra,19.2183,72.9781,30.1,77,0.0,1008.2,7.65,29.9,44,11.2,8.5,10.9,291.0,52.0,6.5,3,0,4,1,2026-05-23T20:33:15.752455+05:30
Nagpur,Maharashtra,21.1458,79.0882,38.8,18,0.0,970.3,8.95,56.9,66,35.2,22.1,10.9,194.0,81.0,9.9,0,5,10,0,2026-05-23T20:33:15.752462+05:30
Nashik,Maharashtra,19.9975,73.7898,28.5,66,0.0,946.2,8.1,43.9,43,8.2,6.0,3.9,158.0,60.0,1.1,7,5,7,1,2026-05-23T20:33:15.752470+05:30
Aurangabad,Maharashtra,19.8762,75.3433,32.0,45,0.0,944.5,9.05,44.3,58,23.3,19.7,8.2,208.0,82.0,4.8,0,5,7,1,2026-05-23T20:33:15.752477+05:30
Solapur,Maharashtra,17.6599,75.9064,29.0,60,0.0,958.0,9.0,42.5,66,22.2,19.6,6.8,235.0,92.0,2.9,4,5,7,1,2026-05-23T20:33:15.752484+05:30
Kolhapur,Maharashtra,16.705,74.2433,25.0,88,0.0,949.6,8.85,35.6,41,15.5,13.9,14.0,179.0,48.0,3.6,7,5,7,1,2026-05-23T20:33:15.752491+05:30
Goa,Goa,15.2993,74.124,26.4,95,0.0,1000.5,5.2,27.0,31,15.7,12.2,6.5,326.0,45.0,1.5,7,5,0,1,2026-05-23T20:33:15.752499+05:30
Jodhpur,Rajasthan,26.2389,73.0243,38.0,15,0.0,979.9,8.4,43.2,173,286.8,71.7,8.6,176.0,70.0,3.8,0,5,10,0,2026-05-23T20:33:15.752506+05:30
Udaipur,Rajasthan,24.5854,73.7125,34.2,21,0.0,945.9,8.85,39.2,95,75.9,30.9,3.4,181.0,82.0,2.4,0,5,7,0,2026-05-23T20:33:15.752514+05:30
Kota,Rajasthan,25.2138,75.8648,37.3,19,0.0,976.0,8.4,50.0,94,93.1,41.6,11.0,217.0,67.0,4.3,0,5,10,0,2026-05-23T20:33:15.752521+05:30
Bikaner,Rajasthan,28.0229,73.3119,37.8,11,0.0,978.0,8.4,45.7,129,52.4,23.1,3.2,155.0,88.0,2.2,0,5,10,0,2026-05-23T20:33:15.752527+05:30
Ajmer,Rajasthan,26.4499,74.6399,35.0,22,0.0,952.7,8.4,51.8,120,132.7,47.3,5.3,198.0,85.0,4.0,0,5,7,0,2026-05-23T20:33:15.752534+05:30
Gwalior,Madhya Pradesh,26.2183,78.1828,37.0,19,0.0,979.0,8.25,47.5,92,106.6,42.8,7.4,210.0,73.0,3.7,0,5,10,0,2026-05-23T20:33:15.752541+05:30
Indore,Madhya Pradesh,22.7196,75.8577,34.7,21,0.0,947.1,8.7,54.0,68,48.2,25.7,5.1,241.0,88.0,3.5,0,5,7,0,2026-05-23T20:33:15.752548+05:30
Bhopal,Madhya Pradesh,23.2599,77.4126,35.8,19,0.0,951.4,8.75,44.6,70,61.2,30.9,7.0,297.0,79.0,4.5,0,5,10,0,2026-05-23T20:33:15.752555+05:30
Jabalpur,Madhya Pradesh,23.1815,79.9864,35.5,16,0.0,958.5,8.9,43.9,68,54.2,26.0,11.0,191.0,79.0,4.2,0,5,10,0,2026-05-23T20:33:15.752562+05:30
Ujjain,Madhya Pradesh,23.1765,75.7885,35.0,22,0.0,952.3,8.65,50.0,70,59.0,29.8,3.3,202.0,88.0,3.2,0,5,7,0,2026-05-23T20:33:15.752569+05:30
Visakhapatnam,Andhra Pradesh,17.6868,83.2185,32.0,77,0.0,999.7,9.05,32.0,201,60.3,52.2,35.2,531.0,105.0,46.9,3,5,7,1,2026-05-23T20:33:15.752576+05:30
Vijayawada,Andhra Pradesh,16.5062,80.648,35.9,40,0.0,998.7,8.9,44.6,126,61.7,57.5,26.5,352.0,82.0,12.8,0,5,10,1,2026-05-23T20:33:15.752583+05:30
Guntur,Andhra Pradesh,16.3067,80.4365,36.0,40,0.0,1000.0,8.9,44.6,125,47.1,43.3,17.9,267.0,90.0,11.0,0,5,7,1,2026-05-23T20:33:15.752590+05:30
Nellore,Andhra Pradesh,14.4426,79.9865,32.3,54,0.0,1004.6,8.95,54.0,88,22.8,20.1,6.5,272.0,96.0,4.1,0,5,4,1,2026-05-23T20:33:15.752598+05:30
Kurnool,Andhra Pradesh,15.8281,78.0373,27.1,82,0.0,977.7,9.05,55.8,83,22.2,18.6,9.2,258.0,101.0,10.3,7,5,7,1,2026-05-23T20:33:15.752606+05:30
Kakinada,Andhra Pradesh,16.9891,82.2475,35.3,53,0.0,1002.7,9.05,47.2,156,35.6,28.2,4.8,560.0,133.0,4.0,0,5,7,1,2026-05-23T20:33:15.752613+05:30
Tirupati,Andhra Pradesh,13.6288,79.4192,30.2,62,0.0,991.0,6.65,42.1,72,29.6,24.8,11.0,347.0,92.0,4.9,3,5,7,1,2026-05-23T20:33:15.752620+05:30
Warangal,Telangana,17.9689,79.5941,35.8,30,0.0,975.8,9.1,49.7,130,43.4,39.0,15.4,305.0,89.0,9.3,0,5,10,0,2026-05-23T20:33:15.752626+05:30
Nizamabad,Telangana,18.6725,78.0941,35.1,31,0.0,963.8,9.1,47.2,82,32.4,26.1,9.6,283.0,85.0,4.9,0,5,10,0,2026-05-23T20:33:15.752633+05:30
Mysore,Karnataka,12.2958,76.6396,22.4,94,0.0,930.9,8.7,40.7,43,13.4,11.7,18.6,196.0,58.0,3.0,3,5,7,1,2026-05-23T20:33:15.752640+05:30
Mangalore,Karnataka,12.9141,74.856,24.8,97,0.2,1010.3,7.6,28.4,38,18.3,14.1,11.1,218.0,42.0,2.7,6,0,4,1,2026-05-23T20:33:15.752646+05:30
Hubli-Dharwad,Karnataka,15.3647,75.124,23.9,93,0.0,943.5,9.0,51.8,35,6.4,5.4,7.7,180.0,45.0,1.2,3,5,7,1,2026-05-23T20:33:15.752653+05:30
Belgaum,Karnataka,15.8497,74.4977,23.4,94,0.0,927.9,9.0,37.8,35,12.1,9.6,10.6,166.0,49.0,2.2,3,5,7,1,2026-05-23T20:33:19.017408+05:30
Coimbatore,Tamil Nadu,11.0168,76.9558,25.2,88,0.0,963.8,8.8,49.3,39,10.0,8.7,7.6,226.0,59.0,2.6,7,5,7,1,2026-05-23T20:33:19.017444+05:30
Madurai,Tamil Nadu,9.9252,78.1198,29.8,60,0.0,994.1,8.2,30.6,55,19.2,13.5,12.8,548.0,67.0,4.1,4,5,7,1,2026-05-23T20:33:19.017456+05:30
Trichy,Tamil Nadu,10.7905,78.7047,30.9,62,0.0,1000.4,8.3,46.1,45,36.4,28.9,38.7,177.0,38.0,6.8,3,5,4,1,2026-05-23T20:33:19.017465+05:30
Salem,Tamil Nadu,11.6643,78.146,28.5,66,0.0,979.0,8.3,38.5,68,23.2,16.5,15.7,287.0,71.0,5.5,7,5,7,1,2026-05-23T20:33:19.017473+05:30
Tirunelveli,Tamil Nadu,8.7139,77.7567,29.9,65,0.0,1004.8,8.25,39.2,37,9.7,7.7,5.6,177.0,59.0,1.7,7,5,4,1,2026-05-23T20:33:19.017481+05:30
Vellore,Tamil Nadu,12.9165,79.1325,30.2,60,0.0,984.7,8.1,42.8,75,51.2,44.2,34.9,240.0,41.0,8.2,0,5,7,1,2026-05-23T20:33:19.017489+05:30
Erode,Tamil Nadu,11.341,77.7172,28.2,73,0.0,990.6,8.55,42.8,48,16.8,13.5,16.0,307.0,62.0,3.3,7,5,7,1,2026-05-23T20:33:19.017497+05:30
Kochi,Kerala,9.9312,76.2673,26.1,94,0.0,1012.0,8.05,37.4,58,19.7,16.1,19.8,199.0,32.0,4.9,7,0,4,1,2026-05-23T20:33:19.017505+05:30
Thiruvananthapuram,Kerala,8.5241,76.9366,25.6,94,0.1,1011.5,8.15,43.2,40,16.7,9.8,3.4,133.0,54.0,1.2,10,0,4,1,2026-05-23T20:33:19.017513+05:30
Kozhikode,Kerala,11.2588,75.7804,25.5,97,0.0,1011.0,8.45,25.9,32,15.7,9.4,1.6,326.0,69.0,0.8,7,0,4,1,2026-05-23T20:33:19.017520+05:30
Thrissur,Kerala,10.5276,76.2144,25.0,99,0.0,1010.3,8.6,29.2,58,22.8,19.7,18.0,303.0,36.0,4.5,7,0,4,1,2026-05-23T20:33:19.017528+05:30
Kannur,Kerala,11.8745,75.3704,25.6,98,0.0,1010.3,7.85,24.5,38,18.5,14.1,15.4,218.0,37.0,2.1,7,0,4,1,2026-05-23T20:33:19.017535+05:30
Patna,Bihar,25.5941,85.1376,34.0,61,0.0,994.5,8.85,36.0,157,188.1,102.0,56.1,604.0,70.0,27.0,3,5,7,1,2026-05-23T20:33:19.017542+05:30
Gaya,Bihar,24.7914,85.0002,33.6,37,0.0,988.4,8.9,36.0,158,186.7,76.4,28.8,347.0,73.0,13.3,0,5,7,1,2026-05-23T20:33:19.017549+05:30
Muzaffarpur,Bihar,26.1209,85.3647,31.2,80,0.0,994.6,8.85,21.6,177,124.3,85.9,28.8,448.0,110.0,21.6,3,5,7,1,2026-05-23T20:33:19.017555+05:30
Bhagalpur,Bihar,25.2425,87.0117,31.8,71,0.0,995.7,8.8,38.2,169,129.9,68.5,22.8,487.0,102.0,16.6,3,5,7,1,2026-05-23T20:33:19.017562+05:30
Ranchi,Jharkhand,23.3441,85.3096,28.9,35,0.0,934.7,9.3,41.0,130,70.1,36.0,16.0,320.0,96.0,10.0,4,5,7,0,2026-05-23T20:33:19.017569+05:30
Jamshedpur,Jharkhand,22.8046,86.2029,32.2,55,0.0,986.8,9.1,28.4,162,57.5,46.0,9.5,537.0,116.0,16.2,0,5,7,1,2026-05-23T20:33:19.017576+05:30
Dhanbad,Jharkhand,23.7957,86.4304,31.9,57,0.0,976.3,9.05,38.9,161,225.8,123.9,90.3,389.0,38.0,135.6,0,5,7,1,2026-05-23T20:33:19.017583+05:30
Bokaro,Jharkhand,23.6693,86.1511,32.0,48,0.0,979.6,9.1,31.3,164,204.4,106.4,66.8,367.0,55.0,116.0,0,5,7,1,2026-05-23T20:33:19.017591+05:30
Bhubaneswar,Odisha,20.2961,85.8245,29.4,93,0.1,999.6,8.45,38.9,106,22.8,18.8,6.9,344.0,94.0,5.5,10,5,7,1,2026-05-23T20:33:19.017597+05:30
Cuttack,Odisha,20.4625,85.8828,29.6,93,0.1,1001.1,8.35,31.7,106,22.8,18.8,6.9,332.0,94.0,5.5,10,5,4,1,2026-05-23T20:33:19.017605+05:30
Rourkela,Odisha,22.2604,84.8536,32.8,59,0.0,981.0,9.0,38.2,158,97.1,51.3,25.5,674.0,87.0,10.3,0,5,7,1,2026-05-23T20:33:19.017611+05:30
Raipur,Chhattisgarh,21.2514,81.6296,37.5,16,0.0,970.7,8.85,45.4,136,38.6,33.1,39.7,258.0,50.0,50.0,0,5,10,0,2026-05-23T20:33:19.017618+05:30
Bhilai,Chhattisgarh,21.1938,81.3509,35.9,20,0.0,971.0,8.95,45.7,101,44.6,35.2,33.8,193.0,55.0,37.6,0,5,10,0,2026-05-23T20:33:19.017625+05:30
Guwahati,Assam,26.1158,91.7086,25.4,95,0.0,998.2,8.75,25.9,59,28.4,24.7,11.5,424.0,65.0,4.7,7,5,7,1,2026-05-23T20:33:19.017633+05:30
Agartala,Tripura,23.8315,91.2868,28.4,86,0.0,1004.1,8.8,44.6,79,27.1,21.7,6.9,239.0,54.0,2.0,7,5,4,1,2026-05-23T20:33:19.017640+05:30
Shillong,Meghalaya,25.5788,91.8933,20.4,91,0.0,855.6,9.05,51.5,50,13.0,10.2,6.5,255.0,90.0,3.6,3,5,7,1,2026-05-23T20:33:19.017647+05:30
Imphal,Manipur,24.817,93.9368,23.4,92,0.0,922.3,9.0,36.0,56,24.5,19.6,15.4,376.0,46.0,3.0,3,5,7,1,2026-05-23T20:33:19.017655+05:30
Aizawl,Mizoram,23.7271,92.7176,20.5,95,0.0,891.9,9.0,38.2,59,31.2,20.7,3.5,209.0,76.0,2.2,3,5,7,1,2026-05-23T20:33:19.017662+05:30
Kohima,Nagaland,25.6701,94.1077,18.0,94,0.0,852.8,9.3,26.6,41,18.5,12.1,9.4,398.0,51.0,1.5,3,10,7,1,2026-05-23T20:33:19.017669+05:30
Gangtok,Sikkim,27.3314,88.6138,17.0,93,0.2,834.9,9.15,32.4,80,11.7,6.8,5.5,501.0,120.0,2.7,6,10,7,0,2026-05-23T20:33:19.017676+05:30
Siliguri,West Bengal,26.7271,88.3953,25.1,85,0.0,989.6,8.75,23.8,98,28.3,20.3,11.3,607.0,108.0,5.7,7,5,7,1,2026-05-23T20:33:22.302503+05:30
Durgapur,West Bengal,23.5204,87.3119,29.5,80,0.0,991.5,9.0,34.9,202,62.2,54.1,18.2,378.0,87.0,26.5,7,5,7,1,2026-05-23T20:33:22.302539+05:30
Asansol,West Bengal,23.6739,86.9524,30.1,75,0.0,989.9,9.0,33.1,157,118.5,71.7,41.5,711.0,75.0,32.7,3,5,7,1,2026-05-23T20:33:22.302550+05:30
Pondicherry,Puducherry,11.9139,79.8145,30.8,69,0.0,1008.3,4.65,37.4,95,37.5,28.7,23.9,282.0,101.0,13.9,3,0,0,1,2026-05-23T20:33:22.302559+05:30
Port Blair,Andaman and Nicobar Islands,11.6234,92.7265,26.6,86,0.1,1009.1,8.05,34.9,28,9.1,5.1,0.3,130.0,73.0,0.4,10,0,4,1,2026-05-23T20:33:22.302568+05:30
Haridwar,Uttarakhand,29.9457,78.1642,32.8,25,0.0,969.1,7.55,47.2,108,31.0,22.2,10.2,309.0,107.0,9.4,0,5,7,0,2026-05-23T20:33:22.302576+05:30
Rishikesh,Uttarakhand,30.0869,78.2676,29.1,40,0.0,961.9,7.65,42.8,107,29.3,17.3,5.7,293.0,125.0,7.3,4,5,7,0,2026-05-23T20:33:22.302584+05:30
Nainital,Uttarakhand,29.3919,79.4542,17.3,52,0.0,803.6,8.5,49.0,122,97.3,29.9,5.2,242.0,125.0,6.1,0,5,7,0,2026-05-23T20:33:22.302591+05:30
Mussoorie,Uttarakhand,30.4599,78.0664,17.6,47,0.0,801.1,8.05,54.0,100,32.4,20.3,12.4,288.0,111.0,7.2,0,5,7,0,2026-05-23T20:33:22.302599+05:30
Dharamshala,Himachal Pradesh,32.219,76.3234,20.2,51,0.0,866.8,8.4,48.2,64,32.9,14.5,13.5,277.0,57.0,1.2,0,5,7,0,2026-05-23T20:33:22.302606+05:30
Dalhousie,Himachal Pradesh,32.5387,75.971,13.7,68,0.0,801.7,8.65,45.4,82,54.7,26.0,35.1,303.0,62.0,2.3,3,5,7,0,2026-05-23T20:33:22.302614+05:30
Patiala,Punjab,30.3398,76.3869,34.0,23,0.0,974.2,7.65,50.4,289,704.1,115.5,10.2,292.0,89.0,6.9,0,5,7,0,2026-05-23T20:33:22.302621+05:30
Bhatinda,Punjab,30.211,74.9455,34.7,26,0.0,980.1,8.3,36.4,92,61.0,27.8,9.0,327.0,100.0,7.1,0,5,7,0,2026-05-23T20:33:22.302629+05:30
Rohtak,Haryana,28.8955,76.6066,34.3,23,0.0,977.1,7.75,49.0,753,951.8,169.0,27.2,319.0,66.0,8.6,0,5,7,0,2026-05-23T20:33:22.302636+05:30
Panipat,Haryana,29.3909,76.9635,35.8,20,0.0,975.8,7.4,52.2,1566,1959.5,290.6,13.0,323.0,92.0,8.3,0,5,10,0,2026-05-23T20:33:22.302643+05:30
Mathura,Uttar Pradesh,27.4924,77.6737,34.9,31,0.0,981.9,8.0,48.2,680,484.3,96.2,24.0,381.0,55.0,5.0,0,5,7,0,2026-05-23T20:33:22.302650+05:30
Vrindavan,Uttar Pradesh,27.5823,77.7027,34.2,31,0.0,982.2,8.0,47.2,680,484.3,96.2,24.0,319.0,55.0,5.0,0,5,7,0,2026-05-23T20:33:22.302657+05:30
Ayodhya,Uttar Pradesh,26.7922,82.1998,34.3,29,0.0,989.8,8.35,49.0,154,139.7,49.7,11.9,230.0,101.0,9.8,0,5,7,0,2026-05-23T20:33:22.302664+05:30
Ratlam,Madhya Pradesh,23.3315,75.0367,33.8,24,0.0,953.3,8.55,46.1,71,67.3,31.9,2.8,177.0,86.0,3.2,0,5,7,0,2026-05-23T20:33:22.302671+05:30
Sagar,Madhya Pradesh,23.8388,78.7378,34.9,19,0.0,947.9,8.75,45.0,67,70.8,31.2,10.0,205.0,75.0,3.3,0,5,7,0,2026-05-23T20:33:22.302678+05:30
Satna,Madhya Pradesh,24.6005,80.8322,34.9,25,0.0,967.3,8.8,50.0,95,141.6,49.8,11.4,178.0,80.0,4.1,0,5,7,0,2026-05-23T20:33:22.302685+05:30
Akola,Maharashtra,20.7002,77.0082,36.9,26,0.0,973.3,8.9,50.8,64,27.8,18.7,8.9,155.0,75.0,4.7,0,5,10,0,2026-05-23T20:33:22.302693+05:30
Amravati,Maharashtra,20.9374,77.7796,37.2,23,0.0,965.5,8.9,54.7,66,27.8,18.8,10.6,218.0,73.0,5.0,0,5,10,0,2026-05-23T20:33:22.302701+05:30
Latur,Maharashtra,18.4088,76.5604,29.8,56,0.0,940.1,9.05,43.2,74,29.6,24.5,5.1,198.0,99.0,2.8,4,5,7,1,2026-05-23T20:33:22.302708+05:30
Nanded,Maharashtra,19.1383,77.3091,35.0,36,0.0,967.5,9.0,45.0,75,28.5,22.1,7.2,265.0,89.0,4.0,0,5,7,1,2026-05-23T20:33:22.302715+05:30
Gulbarga,Karnataka,17.3297,76.8343,30.2,57,0.0,959.2,9.0,45.0,65,22.8,18.7,10.2,264.0,92.0,4.1,0,5,7,1,2026-05-23T20:33:22.302722+05:30
Bidar,Karnataka,17.9104,77.5199,30.9,48,0.0,935.7,8.95,45.7,87,32.4,26.6,13.8,250.0,86.0,5.1,0,5,7,1,2026-05-23T20:33:22.302729+05:30
Hospet,Karnataka,15.2689,76.3909,24.0,95,0.3,959.0,8.95,42.5,46,13.2,11.7,12.0,224.0,67.0,2.0,6,5,7,1,2026-05-23T20:33:22.302736+05:30
Tirupur,Tamil Nadu,11.1085,77.3411,27.4,79,0.0,977.0,8.85,45.0,45,17.2,13.9,16.3,205.0,55.0,3.6,7,5,7,1,2026-05-23T20:33:22.302743+05:30
Alappuzha,Kerala,9.4981,76.3388,25.9,93,0.1,1012.3,7.55,41.8,48,16.4,12.3,12.8,94.0,46.0,3.1,10,0,4,1,2026-05-23T20:33:22.302750+05:30
Munnar,Kerala,10.0889,77.0595,17.5,98,0.0,859.0,8.7,32.0,34,11.1,10.0,9.4,178.0,51.0,1.7,3,10,7,1,2026-05-23T20:33:22.302757+05:30
Silchar,Assam,24.8333,92.7789,24.6,97,0.1,1003.6,8.45,38.9,58,27.9,18.0,6.2,313.0,74.0,3.5,6,5,4,1,2026-05-23T20:33:22.302763+05:30
Dibrugarh,Assam,27.4728,94.912,23.8,97,0.1,993.4,8.9,37.1,65,16.7,14.6,10.4,265.0,74.0,1.9,6,5,7,1,2026-05-23T20:33:22.302770+05:30
