city,state,latitude,longitude,temp,humidity,rain,pressure,uv_index,wind_gusts,aqi,pm10,pm2_5,no2,co,o3,so2,mosquito_risk,arthritis_risk,migraine_risk,frizz_risk,updated_at
Delhi,Delhi,28.6139,77.209,33.5,28,0.0,973.7,7.8,40.7,523,659.4,160.7,59.1,702.0,24.0,24.6,0,5,7,0,2026-06-10T02:29:56.380510+05:30
Mumbai,Maharashtra,19.076,72.8777,29.8,73,0.0,1005.7,7.75,45.4,77,54.0,22.0,3.9,210.0,52.0,3.1,7,5,4,1,2026-06-10T02:29:56.380556+05:30
Bangalore,Karnataka,12.9716,77.5946,21.1,88,0.0,910.3,8.4,49.3,22,3.6,3.1,8.4,173.0,41.0,3.5,3,5,7,1,2026-06-10T02:29:56.380573+05:30
Hyderabad,Telangana,17.385,78.4867,25.3,80,0.0,949.9,9.1,44.3,61,10.0,8.2,7.5,200.0,70.0,3.3,7,5,7,1,2026-06-10T02:29:56.380583+05:30
Chennai,Tamil Nadu,13.0827,80.2707,29.5,67,0.0,1003.9,6.6,44.6,40,9.7,7.9,14.1,286.0,46.0,8.6,7,5,4,1,2026-06-10T02:29:56.380592+05:30
Kolkata,West Bengal,22.5726,88.3639,30.0,91,0.0,998.9,8.95,40.3,137,36.3,31.3,10.4,362.0,83.0,8.1,7,5,7,1,2026-06-10T02:29:56.380600+05:30
Pune,Maharashtra,18.5204,73.8567,24.9,86,0.0,945.9,8.2,49.3,49,11.7,5.6,5.8,134.0,47.0,5.2,3,5,7,1,2026-06-10T02:29:56.380607+05:30
Ahmedabad,Gujarat,23.0225,72.5714,31.7,65,0.0,996.9,8.05,45.4,84,39.2,19.0,4.3,148.0,58.0,4.2,3,5,7,1,2026-06-10T02:29:56.380613+05:30
Jaipur,Rajasthan,26.9124,75.7873,32.2,48,0.0,953.1,8.25,46.4,145,254.3,57.0,6.2,202.0,68.0,4.3,0,5,7,1,2026-06-10T02:29:56.380625+05:30
Lucknow,Uttar Pradesh,26.8467,80.9462,31.4,51,0.0,984.1,8.35,62.3,187,532.7,146.7,36.7,446.0,30.0,12.2,0,5,7,1,2026-06-10T02:29:56.380632+05:30
Kanpur,Uttar Pradesh,26.4499,80.3319,32.1,41,0.0,982.7,7.45,49.7,342,372.5,97.3,22.0,256.0,43.0,7.6,0,5,7,1,2026-06-10T02:29:56.380638+05:30
Chandigarh,Chandigarh,30.7333,76.7794,24.9,59,0.0,958.2,7.85,36.4,83,36.7,34.3,43.5,829.0,27.0,7.0,0,5,7,1,2026-06-10T02:29:56.380645+05:30
Srinagar,Jammu and Kashmir,34.0837,74.7973,14.6,88,0.0,835.2,9.0,23.0,72,40.0,36.1,41.1,529.0,25.0,3.2,3,10,7,0,2026-06-10T02:29:56.380653+05:30
Jammu,Jammu and Kashmir,32.7266,74.857,27.1,49,0.0,962.2,8.65,32.0,73,29.6,27.9,32.0,447.0,38.0,4.1,4,5,7,0,2026-06-10T02:29:56.380659+05:30
Amritsar,Punjab,31.634,74.8723,33.1,35,0.0,970.0,8.5,24.5,127,74.7,59.8,49.9,576.0,33.0,10.8,0,5,7,0,2026-06-10T02:29:56.380665+05:30
Ludhiana,Punjab,30.901,75.8573,30.6,36,0.0,968.2,8.05,22.0,115,75.9,50.4,33.4,1067.0,46.0,8.5,0,5,7,0,2026-06-10T02:29:56.380672+05:30
Jalandhar,Punjab,31.326,75.5762,32.5,31,0.0,969.1,8.25,24.5,111,50.8,41.3,30.2,942.0,66.0,8.0,0,5,7,0,2026-06-10T02:29:56.380679+05:30
Dehradun,Uttarakhand,30.6284,78.0322,14.8,86,0.0,822.9,8.3,43.9,60,21.8,19.8,28.0,232.0,33.0,0.7,3,10,7,0,2026-06-10T02:29:56.380685+05:30
Shimla,Himachal Pradesh,31.1048,77.1734,14.6,50,0.0,778.2,8.35,47.5,65,32.1,24.9,21.4,255.0,77.0,1.8,0,5,7,0,2026-06-10T02:29:56.380694+05:30
Manali,Himachal Pradesh,32.2396,77.1887,13.0,62,0.0,812.5,9.65,38.9,39,8.1,7.1,59.5,286.0,44.0,0.0,3,5,7,0,2026-06-10T02:29:56.380701+05:30
Gurgaon,Haryana,28.4595,77.0266,31.7,30,0.0,972.2,7.9,42.5,1368,953.7,159.3,42.7,469.0,27.0,14.9,0,5,7,0,2026-06-10T02:29:56.380707+05:30
Noida,Uttar Pradesh,28.5355,77.391,32.0,34,0.0,974.9,7.85,38.2,1368,953.7,159.3,42.7,1074.0,27.0,14.9,0,5,7,0,2026-06-10T02:29:56.380713+05:30
Ghaziabad,Uttar Pradesh,28.6692,77.4538,33.6,30,0.0,973.2,7.8,37.8,417,705.9,173.7,69.1,940.0,24.0,28.9,0,5,7,0,2026-06-10T02:29:56.380722+05:30
Faridabad,Haryana,28.4089,77.3178,33.0,29,0.0,974.4,7.85,45.4,1368,953.7,159.3,42.7,778.0,27.0,14.9,0,5,7,0,2026-06-10T02:29:56.380728+05:30
Meerut,Uttar Pradesh,28.9845,77.7064,32.7,33,0.0,971.7,7.75,31.3,417,705.9,173.7,69.1,552.0,24.0,28.9,0,5,7,0,2026-06-10T02:29:56.380734+05:30
Agra,Uttar Pradesh,27.1767,78.0081,32.3,33,0.0,978.6,8.15,45.0,989,666.8,92.4,23.0,477.0,44.0,6.6,0,5,7,0,2026-06-10T02:29:56.380741+05:30
Varanasi,Uttar Pradesh,25.3176,82.9739,32.5,41,0.0,989.6,8.8,39.2,106,70.1,35.3,16.9,428.0,66.0,8.9,0,5,7,1,2026-06-10T02:29:56.380748+05:30
Prayagraj,Uttar Pradesh,25.4358,81.8463,32.6,47,0.0,987.5,8.3,50.8,103,119.7,46.7,14.0,195.0,64.0,6.2,0,5,7,1,2026-06-10T02:29:56.380754+05:30
Gorakhpur,Uttar Pradesh,26.7606,83.3732,28.9,70,0.0,989.2,8.7,40.0,161,115.0,84.3,18.8,585.0,101.0,15.9,7,5,7,1,2026-06-10T02:29:56.380763+05:30
Bareilly,Uttar Pradesh,28.367,79.4304,29.3,48,0.0,977.4,8.1,35.6,156,135.5,82.9,50.0,620.0,57.0,18.4,4,5,7,1,2026-06-10T02:29:56.380775+05:30
Aligarh,Uttar Pradesh,27.8974,78.088,31.2,40,0.0,976.0,7.85,37.1,838,399.5,124.3,44.7,550.0,23.0,10.2,0,5,7,0,2026-06-10T02:29:56.380781+05:30
Moradabad,Uttar Pradesh,28.8386,78.7733,31.6,46,0.0,974.2,7.95,31.3,167,174.2,107.6,74.9,773.0,22.0,20.1,0,5,7,1,2026-06-10T02:29:56.380804+05:30
Saharanpur,Uttar Pradesh,29.9637,77.546,28.1,48,0.0,966.0,7.5,26.3,138,210.0,74.7,40.6,548.0,44.0,11.0,4,5,7,0,2026-06-10T02:29:56.380811+05:30
Jhansi,Uttar Pradesh,25.4484,78.5685,32.4,35,0.0,970.4,8.5,47.5,79,29.5,20.3,6.7,158.0,80.0,8.4,0,5,7,0,2026-06-10T02:29:59.654730+05:30
Surat,Gujarat,21.1702,72.8311,28.9,85,0.0,1002.8,7.55,51.8,84,45.6,24.5,12.4,211.0,45.0,21.5,7,5,4,1,2026-06-10T02:29:59.654765+05:30
Vadodara,Gujarat,22.3072,73.1812,30.8,71,0.0,999.7,8.0,49.3,86,33.1,21.9,13.0,156.0,40.0,13.3,3,5,7,1,2026-06-10T02:29:59.654776+05:30
Rajkot,Gujarat,22.3039,70.8022,29.7,71,0.0,989.5,7.55,49.3,76,49.0,23.8,3.3,102.0,55.0,3.6,7,5,7,1,2026-06-10T02:29:59.654802+05:30
Thane,Maharashtra,19.2183,72.9781,28.7,83,0.0,1005.1,7.7,42.1,77,54.0,22.0,3.9,184.0,52.0,3.1,7,5,4,1,2026-06-10T02:29:59.654811+05:30
Nagpur,Maharashtra,21.1458,79.0882,32.8,45,0.0,967.5,7.1,44.3,91,55.9,39.0,27.9,251.0,36.0,11.4,0,5,7,1,2026-06-10T02:29:59.654818+05:30
Nashik,Maharashtra,19.9975,73.7898,24.7,87,0.0,942.8,8.05,51.1,68,39.1,18.0,4.5,125.0,46.0,2.4,3,5,7,1,2026-06-10T02:29:59.654825+05:30
Aurangabad,Maharashtra,19.8762,75.3433,26.1,77,0.0,941.2,9.0,50.8,67,40.5,20.8,7.5,123.0,51.0,8.0,7,5,7,1,2026-06-10T02:29:59.654832+05:30
Solapur,Maharashtra,17.6599,75.9064,26.6,75,0.0,954.8,8.9,45.4,46,11.8,7.9,8.9,170.0,38.0,2.8,7,5,7,1,2026-06-10T02:29:59.654840+05:30
Kolhapur,Maharashtra,16.705,74.2433,23.1,93,0.0,946.3,7.15,52.9,23,5.5,4.7,4.7,127.0,44.0,1.5,3,5,7,1,2026-06-10T02:29:59.654847+05:30
Goa,Goa,15.2993,74.124,25.0,96,0.0,997.4,8.0,34.9,31,23.2,13.2,5.4,241.0,50.0,1.3,7,5,7,1,2026-06-10T02:29:59.654854+05:30
Jodhpur,Rajasthan,26.2389,73.0243,32.8,52,0.0,975.6,8.45,49.7,160,180.7,44.6,4.1,134.0,64.0,2.0,0,5,7,1,2026-06-10T02:29:59.654861+05:30
Udaipur,Rajasthan,24.5854,73.7125,28.0,63,0.0,941.3,8.8,43.2,85,32.8,20.4,5.1,164.0,64.0,3.4,7,5,7,1,2026-06-10T02:29:59.654869+05:30
Kota,Rajasthan,25.2138,75.8648,31.5,53,0.0,972.1,8.4,36.4,76,50.8,31.2,5.1,170.0,88.0,7.9,0,5,7,1,2026-06-10T02:29:59.654876+05:30
Bikaner,Rajasthan,28.0229,73.3119,33.8,46,0.0,973.5,8.5,46.4,136,135.5,46.4,2.4,118.0,72.0,4.7,0,5,7,1,2026-06-10T02:29:59.654883+05:30
Ajmer,Rajasthan,26.4499,74.6399,29.7,59,0.0,948.3,8.35,54.4,77,39.7,21.8,5.0,156.0,70.0,3.8,4,5,7,1,2026-06-10T02:29:59.654890+05:30
Gwalior,Madhya Pradesh,26.2183,78.1828,33.4,27,0.0,975.2,8.3,54.0,85,22.2,16.3,6.5,156.0,71.0,4.3,0,5,7,0,2026-06-10T02:29:59.654898+05:30
Indore,Madhya Pradesh,22.7196,75.8577,27.5,67,0.0,944.3,8.6,45.7,82,48.8,32.0,5.7,192.0,97.0,11.6,7,5,7,1,2026-06-10T02:29:59.654905+05:30
Bhopal,Madhya Pradesh,23.2599,77.4126,30.4,53,0.0,948.4,8.65,38.9,82,36.0,27.1,9.1,246.0,60.0,4.7,0,5,7,1,2026-06-10T02:29:59.654912+05:30
Jabalpur,Madhya Pradesh,23.1815,79.9864,28.6,63,0.0,955.4,8.85,40.3,78,44.6,28.5,10.9,244.0,63.0,4.9,7,5,7,1,2026-06-10T02:29:59.654919+05:30
Ujjain,Madhya Pradesh,23.1765,75.7885,27.7,68,0.0,949.6,8.55,51.1,82,47.4,31.0,4.5,187.0,88.0,10.3,7,5,7,1,2026-06-10T02:29:59.654927+05:30
Visakhapatnam,Andhra Pradesh,17.6868,83.2185,29.3,80,0.0,996.8,8.6,34.6,106,37.3,31.5,27.4,475.0,63.0,37.5,7,5,7,1,2026-06-10T02:29:59.654933+05:30
Vijayawada,Andhra Pradesh,16.5062,80.648,31.7,57,0.0,997.5,8.65,37.8,68,23.7,19.6,10.4,194.0,66.0,3.7,0,5,7,1,2026-06-10T02:29:59.654940+05:30
Guntur,Andhra Pradesh,16.3067,80.4365,30.9,60,0.0,998.9,8.5,40.0,64,20.1,16.2,10.6,200.0,64.0,4.4,0,5,7,1,2026-06-10T02:29:59.654947+05:30
Nellore,Andhra Pradesh,14.4426,79.9865,30.0,63,0.0,1002.2,8.15,45.4,40,11.2,8.5,8.3,155.0,55.0,4.9,7,5,4,1,2026-06-10T02:29:59.654955+05:30
Kurnool,Andhra Pradesh,15.8281,78.0373,26.8,78,0.0,974.7,7.65,49.7,34,6.1,5.2,10.9,152.0,38.0,3.9,7,5,7,1,2026-06-10T02:29:59.654962+05:30
Kakinada,Andhra Pradesh,16.9891,82.2475,30.7,63,0.0,1001.3,9.05,40.0,70,28.3,22.6,8.2,366.0,86.0,6.3,3,5,4,1,2026-06-10T02:29:59.654969+05:30
Tirupati,Andhra Pradesh,13.6288,79.4192,29.2,59,0.0,988.0,7.65,40.0,32,10.9,7.8,10.4,138.0,42.0,2.5,4,5,7,1,2026-06-10T02:29:59.654976+05:30
Warangal,Telangana,17.9689,79.5941,28.6,69,0.0,974.1,9.0,43.2,89,22.8,16.9,10.9,186.0,72.0,4.4,7,5,7,1,2026-06-10T02:29:59.654982+05:30
Nizamabad,Telangana,18.6725,78.0941,28.8,63,0.0,961.1,8.7,42.1,85,18.5,13.4,8.0,181.0,68.0,2.6,7,5,7,1,2026-06-10T02:29:59.654988+05:30
Mysore,Karnataka,12.2958,76.6396,21.5,93,0.0,927.8,2.9,46.4,23,2.3,2.1,5.6,125.0,44.0,1.7,3,5,3,1,2026-06-10T02:29:59.654995+05:30
Mangalore,Karnataka,12.9141,74.856,24.1,98,0.0,1007.1,6.55,36.4,27,11.5,7.5,5.3,258.0,42.0,1.4,3,5,4,1,2026-06-10T02:29:59.655001+05:30
Hubli-Dharwad,Karnataka,15.3647,75.124,22.1,97,0.0,939.6,6.3,44.6,20,2.1,2.0,5.3,125.0,42.0,0.9,3,5,7,1,2026-06-10T02:29:59.655008+05:30
Belgaum,Karnataka,15.8497,74.4977,21.5,96,0.0,924.1,8.3,50.4,22,3.1,2.6,3.7,116.0,47.0,1.3,3,5,7,1,2026-06-10T02:31:10.562938+05:30
Coimbatore,Tamil Nadu,11.0168,76.9558,22.7,96,0.0,961.1,7.55,54.0,20,2.1,1.9,4.3,192.0,43.0,2.2,3,5,7,1,2026-06-10T02:31:10.562973+05:30
Madurai,Tamil Nadu,9.9252,78.1198,29.0,64,0.0,992.5,8.05,44.3,23,4.7,4.2,7.0,127.0,34.0,3.1,7,5,7,1,2026-06-10T02:31:10.562984+05:30
Trichy,Tamil Nadu,10.7905,78.7047,29.0,65,0.0,998.9,6.2,60.1,20,4.0,3.8,8.3,103.0,34.0,3.4,7,5,7,1,2026-06-10T02:31:10.562994+05:30
Salem,Tamil Nadu,11.6643,78.146,26.1,76,0.0,976.7,7.75,45.0,25,7.9,7.4,15.1,237.0,32.0,9.7,7,5,7,1,2026-06-10T02:31:10.563003+05:30
Tirunelveli,Tamil Nadu,8.7139,77.7567,26.7,82,0.0,1003.7,8.65,43.6,18,3.9,3.1,4.7,172.0,35.0,1.4,7,5,4,1,2026-06-10T02:31:10.563011+05:30
Vellore,Tamil Nadu,12.9165,79.1325,29.2,55,0.0,982.1,8.55,49.7,27,6.4,4.4,7.1,165.0,45.0,3.2,4,5,7,1,2026-06-10T02:31:10.563019+05:30
Erode,Tamil Nadu,11.341,77.7172,25.3,81,0.0,988.7,7.5,42.1,20,7.7,7.3,13.7,161.0,32.0,4.1,7,5,7,1,2026-06-10T02:31:10.563027+05:30
Kochi,Kerala,9.9312,76.2673,26.1,93,0.0,1009.7,7.7,41.8,32,9.0,6.2,7.1,89.0,40.0,2.4,7,0,4,1,2026-06-10T02:31:10.563034+05:30
Thiruvananthapuram,Kerala,8.5241,76.9366,26.0,91,0.0,1009.5,8.2,45.4,30,12.5,6.3,1.2,83.0,51.0,0.4,7,0,4,1,2026-06-10T02:31:10.563041+05:30
Kozhikode,Kerala,11.2588,75.7804,24.1,95,0.2,1008.7,8.15,38.5,27,9.9,4.4,0.9,298.0,60.0,0.4,6,0,4,1,2026-06-10T02:31:10.563048+05:30
Thrissur,Kerala,10.5276,76.2144,24.3,99,0.0,1007.9,6.45,42.1,31,8.2,5.9,5.6,276.0,43.0,1.8,3,5,4,1,2026-06-10T02:31:10.563055+05:30
Kannur,Kerala,11.8745,75.3704,24.6,98,0.2,1007.8,8.0,37.4,24,6.6,3.4,5.5,258.0,43.0,1.0,6,5,4,1,2026-06-10T02:31:10.563063+05:30
Patna,Bihar,25.5941,85.1376,28.2,78,0.0,992.3,8.85,45.7,167,68.9,59.1,17.6,680.0,81.0,13.9,7,5,7,1,2026-06-10T02:31:10.563071+05:30
Gaya,Bihar,24.7914,85.0002,29.8,46,0.0,985.8,8.8,24.1,151,136.0,51.7,13.4,251.0,95.0,11.4,4,5,7,1,2026-06-10T02:31:10.563077+05:30
Muzaffarpur,Bihar,26.1209,85.3647,27.5,82,0.0,992.8,8.85,36.7,167,61.5,54.4,10.3,651.0,114.0,12.0,7,5,7,1,2026-06-10T02:31:10.563085+05:30
Bhagalpur,Bihar,25.2425,87.0117,28.4,90,0.0,993.8,8.85,40.3,155,79.6,71.2,12.8,538.0,102.0,18.7,7,5,7,1,2026-06-10T02:31:10.563092+05:30
Ranchi,Jharkhand,23.3441,85.3096,25.6,65,0.0,931.8,8.3,33.5,145,190.9,76.6,30.7,296.0,50.0,7.9,7,5,7,1,2026-06-10T02:31:10.563099+05:30
Jamshedpur,Jharkhand,22.8046,86.2029,27.8,76,0.0,984.1,9.05,30.2,152,74.5,57.3,26.1,419.0,71.0,31.3,7,5,7,1,2026-06-10T02:31:10.563105+05:30
Dhanbad,Jharkhand,23.7957,86.4304,28.5,74,0.0,972.8,9.05,32.8,165,170.0,118.5,76.0,333.0,16.0,185.9,7,5,7,1,2026-06-10T02:31:10.563113+05:30
Bokaro,Jharkhand,23.6693,86.1511,28.6,66,0.0,976.5,8.9,30.6,168,200.7,125.7,69.3,304.0,2.0,122.1,7,5,7,1,2026-06-10T02:31:10.563121+05:30
Bhubaneswar,Odisha,20.2961,85.8245,28.6,83,0.0,995.5,9.05,21.2,110,44.4,39.6,8.6,356.0,123.0,10.6,7,5,7,1,2026-06-10T02:31:10.563128+05:30
Cuttack,Odisha,20.4625,85.8828,28.6,85,0.0,997.4,9.1,22.3,110,44.4,39.6,8.6,367.0,123.0,10.6,7,5,7,1,2026-06-10T02:31:10.563135+05:30
Rourkela,Odisha,22.2604,84.8536,28.7,73,0.0,978.7,9.0,34.2,129,75.9,50.5,22.2,406.0,67.0,24.0,7,5,7,1,2026-06-10T02:31:10.563142+05:30
Raipur,Chhattisgarh,21.2514,81.6296,33.2,44,0.0,969.1,7.5,36.7,118,49.0,38.4,18.1,514.0,82.0,35.4,0,5,7,1,2026-06-10T02:31:10.563149+05:30
Bhilai,Chhattisgarh,21.1938,81.3509,32.0,49,0.0,969.5,8.95,36.0,110,48.5,38.1,17.4,616.0,79.0,32.6,0,5,7,1,2026-06-10T02:31:10.563156+05:30
Guwahati,Assam,26.1158,91.7086,24.8,97,0.0,996.8,8.65,35.3,85,35.9,27.7,6.3,294.0,92.0,5.1,3,5,7,1,2026-06-10T02:31:10.563162+05:30
Agartala,Tripura,23.8315,91.2868,25.0,99,0.0,1001.4,8.25,41.0,72,22.5,16.6,8.7,209.0,76.0,2.2,7,5,4,1,2026-06-10T02:31:10.563169+05:30
Shillong,Meghalaya,25.5788,91.8933,19.1,93,0.0,853.4,7.7,34.6,49,8.0,5.6,3.6,212.0,93.0,3.4,3,10,7,1,2026-06-10T02:31:10.563176+05:30
Imphal,Manipur,24.817,93.9368,22.6,96,0.0,919.3,8.2,38.2,76,49.6,41.6,20.4,892.0,31.0,3.8,3,5,7,1,2026-06-10T02:31:10.563183+05:30
Aizawl,Mizoram,23.7271,92.7176,18.7,93,0.0,887.7,8.95,45.7,60,27.9,17.9,4.8,204.0,64.0,2.0,3,10,7,1,2026-06-10T02:31:10.563190+05:30
Kohima,Nagaland,25.6701,94.1077,18.5,97,0.1,851.1,9.0,28.8,45,8.4,5.9,4.4,247.0,57.0,1.4,6,10,7,1,2026-06-10T02:31:10.563198+05:30
Gangtok,Sikkim,27.3314,88.6138,16.0,92,0.0,832.4,7.5,37.8,69,25.0,18.0,7.8,370.0,114.0,3.9,3,10,7,0,2026-06-10T02:31:10.563205+05:30
Siliguri,West Bengal,26.7271,88.3953,22.8,97,0.0,988.1,8.75,28.8,97,33.3,25.6,10.9,331.0,107.0,3.7,3,5,7,1,2026-06-10T02:31:18.064806+05:30
Durgapur,West Bengal,23.5204,87.3119,28.1,88,0.0,987.9,9.0,33.8,167,122.0,109.4,37.0,1057.0,57.0,37.0,7,5,7,1,2026-06-10T02:31:18.064843+05:30
Asansol,West Bengal,23.6739,86.9524,28.2,77,0.0,986.3,8.85,33.8,160,110.4,84.5,46.9,682.0,49.0,65.7,7,5,7,1,2026-06-10T02:31:18.064855+05:30
Pondicherry,Puducherry,11.9139,79.8145,30.6,58,0.0,1006.2,7.55,47.2,33,9.0,8.4,13.6,207.0,43.0,9.8,0,5,4,1,2026-06-10T02:31:18.064864+05:30
Port Blair,Andaman and Nicobar Islands,11.6234,92.7265,24.9,98,0.1,1005.5,4.85,49.0,28,8.6,4.9,0.3,91.0,61.0,0.4,6,5,0,1,2026-06-10T02:31:18.064874+05:30
Haridwar,Uttarakhand,29.9457,78.1642,25.2,71,0.0,964.5,7.65,41.0,100,59.6,45.9,33.2,310.0,40.0,9.1,7,5,7,1,2026-06-10T02:31:18.064883+05:30
Rishikesh,Uttarakhand,30.0869,78.2676,22.6,80,0.0,957.3,7.75,33.1,123,43.8,34.3,20.7,342.0,87.0,8.3,3,5,7,1,2026-06-10T02:31:18.064891+05:30
Nainital,Uttarakhand,29.3919,79.4542,16.8,64,0.0,800.6,8.1,33.8,76,28.8,26.7,28.4,277.0,40.0,2.4,3,5,7,0,2026-06-10T02:31:18.064898+05:30
Mussoorie,Uttarakhand,30.4599,78.0664,16.6,58,0.0,797.2,8.15,46.8,80,34.9,32.9,37.0,237.0,38.0,6.9,0,5,7,0,2026-06-10T02:31:18.064906+05:30
Dharamshala,Himachal Pradesh,32.219,76.3234,24.1,31,0.0,863.0,8.55,44.3,49,11.2,9.8,14.9,186.0,31.0,0.0,0,5,7,0,2026-06-10T02:31:18.064914+05:30
Dalhousie,Himachal Pradesh,32.5387,75.971,14.4,59,0.0,797.2,8.75,39.2,73,26.0,24.6,40.1,269.0,16.0,1.0,0,5,7,0,2026-06-10T02:31:18.064922+05:30
Patiala,Punjab,30.3398,76.3869,32.1,33,0.0,967.9,7.65,26.3,255,152.3,70.1,30.5,521.0,50.0,10.3,0,5,7,0,2026-06-10T02:31:18.064929+05:30
Bhatinda,Punjab,30.211,74.9455,32.9,36,0.0,973.1,8.35,25.2,136,133.2,83.6,73.2,299.0,0.0,10.6,0,5,7,0,2026-06-10T02:31:18.064937+05:30
Rohtak,Haryana,28.8955,76.6066,32.0,32,0.0,972.3,7.8,41.0,572,858.7,139.2,22.2,219.0,41.0,3.3,0,5,7,0,2026-06-10T02:31:18.064945+05:30
Panipat,Haryana,29.3909,76.9635,29.5,50,0.0,970.5,7.7,27.7,905,2473.6,337.1,34.8,616.0,36.0,6.6,4,5,7,1,2026-06-10T02:31:18.064953+05:30
Mathura,Uttar Pradesh,27.4924,77.6737,30.1,42,0.0,977.4,8.1,36.7,714,780.4,104.8,17.1,371.0,54.0,4.2,0,5,7,0,2026-06-10T02:31:18.064960+05:30
Vrindavan,Uttar Pradesh,27.5823,77.7027,30.3,42,0.0,977.8,8.05,34.9,714,780.4,104.8,17.1,394.0,54.0,4.2,0,5,7,0,2026-06-10T02:31:18.064966+05:30
Ayodhya,Uttar Pradesh,26.7922,82.1998,29.2,71,0.0,986.6,8.45,37.8,159,188.6,78.5,39.8,616.0,23.0,9.3,7,5,7,1,2026-06-10T02:31:18.064973+05:30
Ratlam,Madhya Pradesh,23.3315,75.0367,27.1,75,0.0,950.5,8.5,45.7,82,43.1,26.2,5.2,127.0,66.0,11.2,7,5,7,1,2026-06-10T02:31:18.064980+05:30
Sagar,Madhya Pradesh,23.8388,78.7378,30.7,41,0.0,944.6,8.7,45.0,78,34.6,23.3,10.4,202.0,62.0,4.4,0,5,7,0,2026-06-10T02:31:18.064987+05:30
Satna,Madhya Pradesh,24.6005,80.8322,30.3,51,0.0,964.2,8.75,45.4,79,58.6,31.5,20.4,160.0,44.0,5.1,0,5,7,1,2026-06-10T02:31:18.064994+05:30
Akola,Maharashtra,20.7002,77.0082,31.3,52,0.0,971.0,8.8,49.3,77,41.4,24.3,8.1,135.0,68.0,9.4,0,5,7,1,2026-06-10T02:31:18.065002+05:30
Amravati,Maharashtra,20.9374,77.7796,31.6,42,0.0,962.6,8.8,47.5,78,39.0,23.7,9.2,197.0,72.0,8.7,0,5,7,1,2026-06-10T02:31:18.065010+05:30
Latur,Maharashtra,18.4088,76.5604,26.0,76,0.0,936.8,8.8,38.9,65,21.4,13.2,7.1,139.0,48.0,3.6,7,5,7,1,2026-06-10T02:31:18.065017+05:30
Nanded,Maharashtra,19.1383,77.3091,30.5,52,0.0,965.0,8.9,39.2,84,30.9,20.9,6.8,158.0,79.0,6.7,0,5,7,1,2026-06-10T02:31:18.065023+05:30
Gulbarga,Karnataka,17.3297,76.8343,26.4,78,0.0,955.9,8.8,42.5,46,9.0,6.5,10.9,151.0,39.0,3.1,7,5,7,1,2026-06-10T02:31:18.065029+05:30
Bidar,Karnataka,17.9104,77.5199,25.9,76,0.0,932.5,9.0,41.4,67,9.0,7.7,12.1,170.0,44.0,2.6,7,5,7,1,2026-06-10T02:31:18.065036+05:30
Hospet,Karnataka,15.2689,76.3909,23.8,89,0.0,954.6,6.9,47.9,22,2.6,2.6,5.3,128.0,42.0,1.0,3,5,7,1,2026-06-10T02:31:18.065043+05:30
Tirupur,Tamil Nadu,11.1085,77.3411,23.9,90,0.0,974.8,8.0,54.0,24,8.9,8.5,15.4,149.0,29.0,4.4,3,5,7,1,2026-06-10T02:31:18.065050+05:30
Alappuzha,Kerala,9.4981,76.3388,26.1,94,0.1,1009.8,7.85,43.9,31,11.4,6.5,3.1,85.0,50.0,1.0,10,0,4,1,2026-06-10T02:31:18.065057+05:30
Munnar,Kerala,10.0889,77.0595,17.3,100,0.3,856.6,7.95,44.3,13,2.0,1.9,7.0,95.0,26.0,1.7,6,10,7,1,2026-06-10T02:31:18.065064+05:30
Silchar,Assam,24.8333,92.7789,25.4,98,0.0,1000.3,6.6,40.7,73,33.4,23.0,5.5,249.0,98.0,4.6,7,5,4,1,2026-06-10T02:31:18.065071+05:30
Dibrugarh,Assam,27.4728,94.912,24.2,99,0.3,990.8,8.85,29.5,67,18.2,14.2,9.1,271.0,84.0,1.4,6,5,7,1,2026-06-10T02:31:18.065078+05:30
