city,state,latitude,longitude,temp,humidity,rain,pressure,uv_index,wind_gusts,aqi,pm10,pm2_5,no2,co,o3,so2,mosquito_risk,arthritis_risk,migraine_risk,frizz_risk,updated_at
Delhi,Delhi,28.6139,77.209,37.4,21,0.0,976.3,7.75,32.8,264,230.5,69.8,53.3,600.0,44.0,21.7,0,5,10,0,2026-05-20T22:23:47.537951+05:30
Mumbai,Maharashtra,19.076,72.8777,29.9,72,0.0,1007.3,7.6,39.2,63,19.8,12.0,10.2,192.0,42.0,6.5,7,5,4,1,2026-05-20T22:23:47.537990+05:30
Bangalore,Karnataka,12.9716,77.5946,23.0,91,0.0,911.6,6.15,42.8,37,15.3,14.2,35.4,658.0,38.0,8.0,3,5,7,1,2026-05-20T22:23:47.538005+05:30
Hyderabad,Telangana,17.385,78.4867,32.5,43,0.0,950.7,8.85,34.6,98,70.3,53.8,42.7,682.0,60.0,12.3,0,5,7,1,2026-05-20T22:23:47.538015+05:30
Chennai,Tamil Nadu,13.0827,80.2707,34.2,47,0.0,1003.7,9.1,42.5,119,23.3,20.7,23.8,430.0,81.0,10.4,0,5,4,1,2026-05-20T22:23:47.538031+05:30
Kolkata,West Bengal,22.5726,88.3639,29.9,88,0.0,1000.3,8.95,24.5,91,43.7,36.2,15.3,386.0,64.0,12.0,7,5,4,1,2026-05-20T22:23:47.538039+05:30
Pune,Maharashtra,18.5204,73.8567,26.4,74,0.0,947.5,8.45,41.4,68,24.3,16.2,8.6,165.0,70.0,8.7,7,5,7,1,2026-05-20T22:23:47.538047+05:30
Ahmedabad,Gujarat,23.0225,72.5714,32.0,68,0.0,998.7,8.15,35.6,65,52.5,23.7,10.8,194.0,60.0,4.5,3,5,7,1,2026-05-20T22:23:47.538053+05:30
Jaipur,Rajasthan,26.9124,75.7873,33.8,24,0.0,955.7,8.3,38.2,115,209.1,45.9,11.8,209.0,69.0,5.7,0,5,7,0,2026-05-20T22:23:47.538062+05:30
Lucknow,Uttar Pradesh,26.8467,80.9462,36.4,29,0.0,986.7,8.25,38.2,147,241.2,66.6,22.2,335.0,91.0,12.5,0,5,10,0,2026-05-20T22:23:47.538070+05:30
Kanpur,Uttar Pradesh,26.4499,80.3319,35.8,35,0.0,985.2,8.25,43.6,162,427.5,88.0,24.1,467.0,84.0,13.8,0,5,10,1,2026-05-20T22:23:47.538077+05:30
Chandigarh,Chandigarh,30.7333,76.7794,30.6,26,0.0,961.8,7.8,26.3,107,71.9,47.7,41.6,929.0,72.0,15.7,0,5,7,0,2026-05-20T22:23:47.538084+05:30
Srinagar,Jammu and Kashmir,34.0837,74.7973,17.4,76,0.0,841.9,9.05,25.9,88,44.2,22.5,26.8,923.0,46.0,3.4,3,5,7,0,2026-05-20T22:23:47.538091+05:30
Jammu,Jammu and Kashmir,32.7266,74.857,33.3,21,0.0,966.3,8.6,29.9,88,73.8,46.1,42.9,306.0,64.0,7.5,0,5,7,0,2026-05-20T22:23:47.538097+05:30
Amritsar,Punjab,31.634,74.8723,33.4,30,0.0,974.0,8.45,24.8,127,55.1,37.4,32.0,519.0,71.0,13.0,0,5,7,0,2026-05-20T22:23:47.538104+05:30
Ludhiana,Punjab,30.901,75.8573,32.7,33,0.0,972.0,8.05,22.0,156,98.7,54.1,29.4,1105.0,56.0,10.1,0,5,7,0,2026-05-20T22:23:47.538110+05:30
Jalandhar,Punjab,31.326,75.5762,33.4,28,0.0,972.9,8.25,28.4,141,78.7,39.1,22.9,837.0,67.0,7.3,0,5,7,0,2026-05-20T22:23:47.538116+05:30
Dehradun,Uttarakhand,30.6284,78.0322,17.8,50,0.0,826.9,8.2,45.0,105,49.9,26.0,28.0,205.0,96.0,5.8,0,5,7,0,2026-05-20T22:23:47.538122+05:30
Shimla,Himachal Pradesh,31.1048,77.1734,18.8,32,0.0,783.7,8.3,43.9,130,42.8,22.5,16.3,269.0,124.0,12.7,0,5,7,0,2026-05-20T22:23:47.538130+05:30
Manali,Himachal Pradesh,32.2396,77.1887,14.2,59,0.0,816.1,10.0,38.9,95,17.2,8.5,55.9,362.0,74.0,0.4,0,5,7,0,2026-05-20T22:23:47.538137+05:30
Gurgaon,Haryana,28.4595,77.0266,33.3,27,0.0,974.7,7.85,39.6,786,309.2,100.6,81.3,515.0,13.0,22.3,0,5,7,0,2026-05-20T22:23:47.538145+05:30
Noida,Uttar Pradesh,28.5355,77.391,34.0,28,0.0,977.6,7.8,28.4,786,309.2,100.6,81.3,692.0,13.0,22.3,0,5,7,0,2026-05-20T22:23:47.538151+05:30
Ghaziabad,Uttar Pradesh,28.6692,77.4538,32.2,46,0.0,975.6,7.75,31.0,205,374.4,105.0,55.5,707.0,52.0,27.7,0,5,7,1,2026-05-20T22:23:47.538158+05:30
Faridabad,Haryana,28.4089,77.3178,35.5,23,0.0,977.2,7.8,37.8,786,309.2,100.6,81.3,536.0,13.0,22.3,0,5,10,0,2026-05-20T22:23:47.538165+05:30
Meerut,Uttar Pradesh,28.9845,77.7064,32.8,49,0.0,974.9,7.7,27.7,205,374.4,105.0,55.5,392.0,52.0,27.7,0,5,7,1,2026-05-20T22:23:47.538171+05:30
Agra,Uttar Pradesh,27.1767,78.0081,35.3,21,0.0,981.8,8.1,38.2,433,1553.4,191.9,11.6,228.0,78.0,5.6,0,5,10,0,2026-05-20T22:23:47.538178+05:30
Varanasi,Uttar Pradesh,25.3176,82.9739,34.7,44,0.0,990.8,8.75,42.5,151,164.4,82.0,42.0,914.0,78.0,23.2,0,5,7,1,2026-05-20T22:23:47.538185+05:30
Prayagraj,Uttar Pradesh,25.4358,81.8463,37.2,32,0.0,989.3,8.6,37.1,142,112.2,54.5,28.0,757.0,63.0,14.6,0,5,10,1,2026-05-20T22:23:47.538191+05:30
Gorakhpur,Uttar Pradesh,26.7606,83.3732,30.8,71,0.0,991.3,8.65,29.9,156,87.8,63.3,16.8,476.0,103.0,13.1,3,5,7,1,2026-05-20T22:23:47.538200+05:30
Bareilly,Uttar Pradesh,28.367,79.4304,32.0,50,0.0,979.7,8.05,33.1,151,140.6,66.8,34.2,509.0,88.0,16.3,0,5,7,1,2026-05-20T22:23:47.538206+05:30
Aligarh,Uttar Pradesh,27.8974,78.088,33.6,23,0.0,979.3,7.9,28.8,425,502.9,97.3,40.1,365.0,42.0,11.1,0,5,7,0,2026-05-20T22:23:47.538213+05:30
Moradabad,Uttar Pradesh,28.8386,78.7733,33.5,50,0.0,976.8,7.9,36.4,170,199.3,111.8,72.3,832.0,54.0,25.5,0,5,7,1,2026-05-20T22:23:47.538219+05:30
Saharanpur,Uttar Pradesh,29.9637,77.546,31.3,54,0.0,969.0,7.4,22.3,152,144.4,83.6,49.9,555.0,42.0,17.9,0,5,7,1,2026-05-20T22:23:47.538225+05:30
Jhansi,Uttar Pradesh,25.4484,78.5685,35.7,21,0.0,972.8,8.5,40.7,56,27.7,18.9,6.0,174.0,75.0,4.0,0,5,10,0,2026-05-20T22:23:50.780715+05:30
Surat,Gujarat,21.1702,72.8311,29.5,79,0.0,1004.8,7.7,47.2,68,25.8,15.8,21.0,230.0,35.0,34.1,7,5,4,1,2026-05-20T22:23:50.780751+05:30
Vadodara,Gujarat,22.3072,73.1812,30.3,71,0.0,1001.6,8.1,47.5,69,32.9,20.2,20.7,240.0,52.0,23.4,3,5,4,1,2026-05-20T22:23:50.780765+05:30
Rajkot,Gujarat,22.3039,70.8022,31.2,57,0.0,991.6,7.75,41.4,59,48.2,21.4,7.1,153.0,60.0,7.2,0,5,7,1,2026-05-20T22:23:50.780775+05:30
Thane,Maharashtra,19.2183,72.9781,30.2,70,0.0,1006.7,7.65,40.7,63,19.8,12.0,10.2,199.0,42.0,6.5,3,5,4,1,2026-05-20T22:23:50.780785+05:30
Nagpur,Maharashtra,21.1458,79.0882,37.3,21,0.0,968.7,8.9,39.6,107,22.8,17.2,9.5,449.0,98.0,11.5,0,5,10,0,2026-05-20T22:23:50.780795+05:30
Nashik,Maharashtra,19.9975,73.7898,26.3,76,0.0,944.5,8.15,40.3,59,16.8,10.8,5.5,156.0,58.0,2.1,7,5,7,1,2026-05-20T22:23:50.780804+05:30
Aurangabad,Maharashtra,19.8762,75.3433,32.2,41,0.0,942.9,9.05,51.1,69,29.4,20.1,6.0,174.0,85.0,3.7,0,5,7,1,2026-05-20T22:23:50.780813+05:30
Solapur,Maharashtra,17.6599,75.9064,31.8,49,0.0,956.0,6.45,50.0,104,38.6,27.5,9.6,206.0,98.0,6.1,0,5,7,1,2026-05-20T22:23:50.780822+05:30
Kolhapur,Maharashtra,16.705,74.2433,25.3,77,0.0,947.5,8.85,41.4,74,33.2,21.0,5.4,174.0,57.0,2.4,7,5,7,1,2026-05-20T22:23:50.780832+05:30
Goa,Goa,15.2993,74.124,26.8,97,0.0,998.0,6.6,23.8,43,14.8,12.3,6.2,446.0,61.0,1.5,7,5,7,1,2026-05-20T22:23:50.780842+05:30
Jodhpur,Rajasthan,26.2389,73.0243,35.5,22,0.0,977.9,8.45,43.9,143,248.7,51.1,9.2,174.0,66.0,3.6,0,5,10,0,2026-05-20T22:23:50.780851+05:30
Udaipur,Rajasthan,24.5854,73.7125,30.9,25,0.0,943.8,8.85,50.0,66,45.3,18.3,3.5,212.0,73.0,2.4,0,5,7,0,2026-05-20T22:23:50.780887+05:30
Kota,Rajasthan,25.2138,75.8648,35.0,19,0.0,974.7,8.4,38.5,55,43.0,24.3,10.5,173.0,66.0,4.6,0,5,7,0,2026-05-20T22:23:50.780897+05:30
Bikaner,Rajasthan,28.0229,73.3119,35.8,24,0.0,975.7,8.4,34.6,96,78.2,29.7,3.7,159.0,75.0,2.6,0,5,10,0,2026-05-20T22:23:50.780907+05:30
Ajmer,Rajasthan,26.4499,74.6399,31.9,31,0.0,950.9,8.4,44.3,61,112.5,32.0,6.0,192.0,75.0,4.1,0,5,7,0,2026-05-20T22:23:50.780916+05:30
Gwalior,Madhya Pradesh,26.2183,78.1828,35.5,23,0.0,977.9,8.3,44.6,67,23.5,15.3,5.4,161.0,80.0,3.2,0,5,10,0,2026-05-20T22:23:50.780925+05:30
Indore,Madhya Pradesh,22.7196,75.8577,33.8,25,0.0,946.2,8.1,43.9,63,41.0,22.5,6.0,262.0,87.0,4.8,0,5,7,0,2026-05-20T22:23:50.780933+05:30
Bhopal,Madhya Pradesh,23.2599,77.4126,35.7,22,0.0,950.6,8.7,46.4,59,34.5,25.4,7.9,228.0,77.0,5.0,0,5,10,0,2026-05-20T22:23:50.780942+05:30
Jabalpur,Madhya Pradesh,23.1815,79.9864,35.8,24,0.0,956.8,8.85,29.5,85,51.7,25.9,17.6,233.0,78.0,7.6,0,5,10,0,2026-05-20T22:23:50.780951+05:30
Ujjain,Madhya Pradesh,23.1765,75.7885,33.3,27,0.0,951.5,8.4,45.0,63,46.6,24.7,4.2,217.0,86.0,4.1,0,5,7,0,2026-05-20T22:23:50.780961+05:30
Visakhapatnam,Andhra Pradesh,17.6868,83.2185,30.8,86,0.0,999.2,8.65,35.6,115,54.4,44.7,46.3,625.0,72.0,62.7,3,5,7,1,2026-05-20T22:23:50.780970+05:30
Vijayawada,Andhra Pradesh,16.5062,80.648,35.5,43,0.0,997.7,8.8,39.6,106,97.1,83.1,37.7,739.0,57.0,12.4,0,5,10,1,2026-05-20T22:23:50.780978+05:30
Guntur,Andhra Pradesh,16.3067,80.4365,36.4,34,0.0,999.0,8.55,42.1,104,91.0,74.5,34.2,693.0,58.0,11.2,0,5,10,1,2026-05-20T22:23:50.780988+05:30
Nellore,Andhra Pradesh,14.4426,79.9865,33.5,52,0.0,1002.1,8.9,46.4,132,31.7,25.3,5.4,277.0,141.0,5.7,0,5,4,1,2026-05-20T22:23:50.780997+05:30
Kurnool,Andhra Pradesh,15.8281,78.0373,33.2,47,0.0,974.8,8.45,38.9,122,43.4,32.8,10.1,218.0,107.0,8.4,0,5,7,1,2026-05-20T22:23:50.781007+05:30
Kakinada,Andhra Pradesh,16.9891,82.2475,32.0,76,0.0,1003.2,8.5,41.4,94,39.0,31.4,4.2,487.0,135.0,5.2,3,5,4,1,2026-05-20T22:23:50.781015+05:30
Tirupati,Andhra Pradesh,13.6288,79.4192,28.9,69,0.0,988.6,9.0,34.6,62,23.7,22.3,21.8,283.0,56.0,3.8,7,5,7,1,2026-05-20T22:23:50.781024+05:30
Warangal,Telangana,17.9689,79.5941,33.2,39,0.0,974.5,8.1,28.8,123,103.4,84.3,47.0,446.0,49.0,12.9,0,5,7,1,2026-05-20T22:23:50.781032+05:30
Nizamabad,Telangana,18.6725,78.0941,33.7,33,0.0,961.3,8.85,32.0,92,61.2,42.8,21.6,513.0,71.0,7.5,0,5,7,0,2026-05-20T22:23:50.781040+05:30
Mysore,Karnataka,12.2958,76.6396,23.7,86,0.0,928.9,4.8,43.6,38,9.0,8.3,11.9,212.0,53.0,2.8,3,5,3,1,2026-05-20T22:23:50.781049+05:30
Mangalore,Karnataka,12.9141,74.856,27.7,89,0.0,1007.0,4.9,31.7,37,12.0,9.6,8.1,437.0,50.0,2.8,7,5,0,1,2026-05-20T22:23:50.781058+05:30
Hubli-Dharwad,Karnataka,15.3647,75.124,24.2,92,0.0,940.7,9.0,40.0,38,5.3,4.4,5.8,190.0,59.0,1.0,3,5,7,1,2026-05-20T22:23:50.781067+05:30
Belgaum,Karnataka,15.8497,74.4977,23.5,91,0.0,925.6,9.1,35.3,66,18.5,11.6,7.4,146.0,62.0,2.6,3,5,7,1,2026-05-20T22:23:54.028732+05:30
Coimbatore,Tamil Nadu,11.0168,76.9558,25.9,86,0.0,961.5,7.7,56.9,34,9.3,8.4,8.5,197.0,52.0,3.1,7,5,7,1,2026-05-20T22:23:54.028767+05:30
Madurai,Tamil Nadu,9.9252,78.1198,29.9,64,0.0,991.8,8.85,57.2,70,22.2,21.3,37.9,182.0,17.0,8.4,7,5,7,1,2026-05-20T22:23:54.028779+05:30
Trichy,Tamil Nadu,10.7905,78.7047,30.0,66,0.0,998.2,8.25,46.8,38,23.7,22.8,27.0,185.0,37.0,6.7,7,5,7,1,2026-05-20T22:23:54.028788+05:30
Salem,Tamil Nadu,11.6643,78.146,30.0,61,0.0,976.6,7.15,32.0,49,13.6,12.8,17.8,251.0,65.0,10.5,7,5,7,1,2026-05-20T22:23:54.028797+05:30
Tirunelveli,Tamil Nadu,8.7139,77.7567,30.0,65,0.0,1002.9,8.7,38.2,29,7.9,6.5,6.6,172.0,43.0,1.6,7,5,4,1,2026-05-20T22:23:54.028805+05:30
Vellore,Tamil Nadu,12.9165,79.1325,30.1,59,0.0,982.4,8.75,47.9,48,20.6,19.7,15.9,263.0,56.0,5.7,0,5,7,1,2026-05-20T22:23:54.028814+05:30
Erode,Tamil Nadu,11.341,77.7172,28.5,71,0.0,988.1,8.0,39.6,40,14.0,12.9,19.2,203.0,47.0,3.9,7,5,7,1,2026-05-20T22:23:54.028822+05:30
Kochi,Kerala,9.9312,76.2673,28.0,89,0.0,1009.3,6.75,29.2,51,28.0,26.2,40.2,322.0,3.0,8.6,7,0,4,1,2026-05-20T22:23:54.028830+05:30
Thiruvananthapuram,Kerala,8.5241,76.9366,27.1,86,0.0,1008.9,7.8,39.6,27,9.2,5.4,1.8,121.0,50.0,0.6,7,0,4,1,2026-05-20T22:23:54.028838+05:30
Kozhikode,Kerala,11.2588,75.7804,27.0,94,0.0,1008.6,6.4,26.3,31,9.7,6.7,2.3,462.0,64.0,0.8,7,0,4,1,2026-05-20T22:23:54.028846+05:30
Thrissur,Kerala,10.5276,76.2144,26.1,97,0.1,1007.9,4.7,31.3,43,23.7,22.2,23.9,496.0,18.0,5.7,10,5,0,1,2026-05-20T22:23:54.028879+05:30
Kannur,Kerala,11.8745,75.3704,26.4,90,0.0,1007.7,8.45,29.5,33,13.0,10.8,13.0,419.0,39.0,2.7,7,5,4,1,2026-05-20T22:23:54.028888+05:30
Patna,Bihar,25.5941,85.1376,30.0,78,0.0,994.7,8.85,26.3,156,82.7,70.1,21.0,508.0,103.0,19.7,7,5,7,1,2026-05-20T22:23:54.028896+05:30
Gaya,Bihar,24.7914,85.0002,30.5,69,0.0,988.1,8.9,29.9,157,109.4,79.6,24.1,541.0,88.0,18.0,3,5,7,1,2026-05-20T22:23:54.028903+05:30
Muzaffarpur,Bihar,26.1209,85.3647,29.2,78,0.0,995.0,8.85,27.0,154,88.0,72.9,30.0,495.0,78.0,18.6,7,5,7,1,2026-05-20T22:23:54.028910+05:30
Bhagalpur,Bihar,25.2425,87.0117,29.1,86,0.0,996.0,8.7,31.7,162,58.0,50.3,18.4,415.0,103.0,17.9,7,5,7,1,2026-05-20T22:23:54.028918+05:30
Ranchi,Jharkhand,23.3441,85.3096,26.8,62,0.0,933.2,9.3,46.8,142,151.8,60.1,22.0,496.0,85.0,12.0,7,5,7,1,2026-05-20T22:23:54.028925+05:30
Jamshedpur,Jharkhand,22.8046,86.2029,30.4,66,0.0,985.0,9.1,31.0,150,156.9,89.2,46.7,896.0,65.0,60.0,3,5,7,1,2026-05-20T22:23:54.028932+05:30
Dhanbad,Jharkhand,23.7957,86.4304,30.2,70,0.0,974.9,9.05,37.4,166,177.0,109.9,62.3,445.0,49.0,144.6,3,5,7,1,2026-05-20T22:23:54.028941+05:30
Bokaro,Jharkhand,23.6693,86.1511,30.2,67,0.0,978.6,9.1,42.1,168,193.2,98.3,51.6,627.0,54.0,139.6,3,5,7,1,2026-05-20T22:23:54.028948+05:30
Bhubaneswar,Odisha,20.2961,85.8245,30.6,74,0.0,996.4,9.15,42.8,144,65.0,49.6,15.8,441.0,111.0,15.2,3,5,7,1,2026-05-20T22:23:54.028956+05:30
Cuttack,Odisha,20.4625,85.8828,30.5,76,0.0,998.2,9.2,49.0,144,65.0,49.6,15.8,501.0,111.0,15.2,3,5,7,1,2026-05-20T22:23:54.028964+05:30
Rourkela,Odisha,22.2604,84.8536,31.5,45,0.0,979.4,9.0,32.4,152,136.0,53.1,26.2,647.0,65.0,13.0,0,5,7,1,2026-05-20T22:23:54.028972+05:30
Raipur,Chhattisgarh,21.2514,81.6296,34.5,33,0.0,969.3,9.0,33.1,148,99.9,80.1,58.3,511.0,43.0,47.0,0,5,7,0,2026-05-20T22:23:54.028979+05:30
Bhilai,Chhattisgarh,21.1938,81.3509,34.2,35,0.0,969.6,8.85,34.9,136,81.7,60.8,49.7,698.0,55.0,49.2,0,5,7,1,2026-05-20T22:23:54.028986+05:30
Guwahati,Assam,26.1158,91.7086,26.9,91,0.0,997.1,8.2,22.7,137,41.6,35.9,14.1,473.0,39.0,3.2,7,5,7,1,2026-05-20T22:23:54.028997+05:30
Agartala,Tripura,23.8315,91.2868,27.7,82,0.0,1002.0,8.85,28.4,82,34.9,31.2,22.3,259.0,42.0,5.1,7,5,4,1,2026-05-20T22:23:54.029006+05:30
Shillong,Meghalaya,25.5788,91.8933,18.4,97,0.0,854.4,8.5,19.4,86,30.9,25.8,14.3,602.0,46.0,3.4,3,10,7,1,2026-05-20T22:23:54.029013+05:30
Imphal,Manipur,24.817,93.9368,23.0,95,0.0,920.0,9.25,28.8,112,63.6,49.0,27.1,729.0,30.0,6.2,3,5,7,1,2026-05-20T22:23:54.029020+05:30
Aizawl,Mizoram,23.7271,92.7176,21.3,89,0.0,889.8,9.1,21.6,85,43.7,32.0,12.9,223.0,44.0,2.9,3,5,7,1,2026-05-20T22:23:54.029027+05:30
Kohima,Nagaland,25.6701,94.1077,19.0,95,0.0,852.8,8.65,30.6,105,43.8,29.8,17.4,442.0,47.0,2.7,3,10,7,1,2026-05-20T22:23:54.029035+05:30
Gangtok,Sikkim,27.3314,88.6138,15.6,97,0.0,834.4,9.15,37.4,80,33.1,24.4,18.2,669.0,85.0,2.9,3,10,7,0,2026-05-20T22:23:54.029042+05:30
Siliguri,West Bengal,26.7271,88.3953,26.8,87,0.0,988.5,8.7,23.4,131,85.0,61.0,24.1,1341.0,90.0,8.0,7,5,7,1,2026-05-20T22:23:57.288076+05:30
Durgapur,West Bengal,23.5204,87.3119,30.9,77,0.0,989.7,8.95,22.7,181,127.6,102.7,38.7,894.0,91.0,46.4,3,5,7,1,2026-05-20T22:23:57.288107+05:30
Asansol,West Bengal,23.6739,86.9524,31.0,74,0.0,988.3,9.05,26.6,162,139.7,109.0,53.4,582.0,75.0,47.5,3,5,7,1,2026-05-20T22:23:57.288118+05:30
Pondicherry,Puducherry,11.9139,79.8145,30.5,64,0.0,1005.8,3.4,29.9,112,23.7,20.9,20.1,351.0,85.0,10.8,3,5,0,1,2026-05-20T22:23:57.288128+05:30
Port Blair,Andaman and Nicobar Islands,11.6234,92.7265,25.2,96,0.1,1006.2,8.75,46.4,25,9.5,5.7,0.4,102.0,49.0,0.4,10,5,4,1,2026-05-20T22:23:57.288137+05:30
Haridwar,Uttarakhand,29.9457,78.1642,30.8,38,0.0,967.4,7.6,28.8,108,111.3,59.3,29.0,427.0,75.0,13.4,0,5,7,0,2026-05-20T22:23:57.288145+05:30
Rishikesh,Uttarakhand,30.0869,78.2676,25.6,50,0.0,959.9,7.7,26.6,95,78.5,34.8,14.1,400.0,99.0,7.8,4,5,7,0,2026-05-20T22:23:57.288153+05:30
Nainital,Uttarakhand,29.3919,79.4542,17.9,59,0.0,803.2,8.55,60.5,123,77.8,33.5,10.2,355.0,116.0,6.6,0,5,7,0,2026-05-20T22:23:57.288160+05:30
Mussoorie,Uttarakhand,30.4599,78.0664,19.6,37,0.0,801.9,8.1,54.4,103,87.5,46.8,33.0,241.0,90.0,12.5,0,5,7,0,2026-05-20T22:23:57.288168+05:30
Dharamshala,Himachal Pradesh,32.219,76.3234,26.1,30,0.0,867.2,8.5,48.6,87,36.9,18.4,16.2,296.0,53.0,2.4,4,5,7,0,2026-05-20T22:23:57.288177+05:30
Dalhousie,Himachal Pradesh,32.5387,75.971,16.9,61,0.0,802.1,8.75,42.8,109,63.3,33.9,49.6,482.0,54.0,4.7,3,5,7,0,2026-05-20T22:23:57.288185+05:30
Patiala,Punjab,30.3398,76.3869,34.5,23,0.0,971.2,7.7,25.6,461,345.5,101.0,31.2,462.0,53.0,12.1,0,5,7,0,2026-05-20T22:23:57.288192+05:30
Bhatinda,Punjab,30.211,74.9455,34.6,32,0.0,977.0,8.35,30.6,110,54.7,33.4,17.9,290.0,49.0,5.5,0,5,7,0,2026-05-20T22:23:57.288200+05:30
Rohtak,Haryana,28.8955,76.6066,34.2,31,0.0,974.9,7.8,29.2,385,312.0,79.9,54.3,540.0,30.0,9.5,0,5,7,0,2026-05-20T22:23:57.288207+05:30
Panipat,Haryana,29.3909,76.9635,33.7,25,0.0,973.4,7.65,34.6,840,391.2,93.1,36.2,542.0,41.0,7.9,0,5,7,0,2026-05-20T22:23:57.288214+05:30
Mathura,Uttar Pradesh,27.4924,77.6737,34.2,22,0.0,980.6,8.05,44.6,385,1180.9,143.4,15.8,263.0,72.0,4.3,0,5,7,0,2026-05-20T22:23:57.288222+05:30
Vrindavan,Uttar Pradesh,27.5823,77.7027,34.2,22,0.0,981.0,8.0,29.9,385,1180.9,143.4,15.8,231.0,72.0,4.3,0,5,7,0,2026-05-20T22:23:57.288229+05:30
Ayodhya,Uttar Pradesh,26.7922,82.1998,32.2,64,0.0,988.8,8.35,22.7,154,114.8,58.7,23.7,563.0,83.0,13.2,3,5,7,1,2026-05-20T22:23:57.288236+05:30
Ratlam,Madhya Pradesh,23.3315,75.0367,32.1,29,0.0,952.2,8.55,46.4,64,48.5,24.8,3.6,171.0,84.0,3.9,0,5,7,0,2026-05-20T22:23:57.288244+05:30
Sagar,Madhya Pradesh,23.8388,78.7378,34.2,22,0.0,946.5,8.75,38.2,68,25.1,18.1,8.1,167.0,80.0,3.4,0,5,7,0,2026-05-20T22:23:57.288251+05:30
Satna,Madhya Pradesh,24.6005,80.8322,34.0,28,0.0,965.9,8.8,46.8,104,65.0,26.5,15.5,252.0,72.0,4.6,0,5,7,0,2026-05-20T22:23:57.288258+05:30
Akola,Maharashtra,20.7002,77.0082,36.6,29,0.0,971.8,8.9,40.3,81,39.6,26.5,9.7,188.0,91.0,6.8,0,5,10,0,2026-05-20T22:23:57.288267+05:30
Amravati,Maharashtra,20.9374,77.7796,36.7,23,0.0,963.7,8.9,41.0,83,38.4,26.0,10.6,212.0,87.0,6.3,0,5,10,0,2026-05-20T22:23:57.288276+05:30
Latur,Maharashtra,18.4088,76.5604,32.4,39,0.0,938.4,7.5,31.3,96,56.3,38.4,18.3,271.0,79.0,7.1,0,5,7,1,2026-05-20T22:23:57.288283+05:30
Nanded,Maharashtra,19.1383,77.3091,35.5,29,0.0,965.0,8.65,35.3,90,45.8,32.2,19.0,363.0,70.0,6.5,0,5,10,0,2026-05-20T22:23:57.288290+05:30
Gulbarga,Karnataka,17.3297,76.8343,31.6,45,0.0,957.3,8.75,37.1,107,39.9,29.7,13.4,329.0,98.0,6.3,0,5,7,1,2026-05-20T22:23:57.288297+05:30
Bidar,Karnataka,17.9104,77.5199,30.1,50,0.0,933.5,8.65,39.2,109,64.3,48.4,41.5,368.0,61.0,8.9,0,5,7,1,2026-05-20T22:23:57.288304+05:30
Hospet,Karnataka,15.2689,76.3909,27.9,71,0.0,955.4,8.45,39.6,46,13.0,11.5,10.8,277.0,70.0,2.0,7,5,7,1,2026-05-20T22:23:57.288312+05:30
Tirupur,Tamil Nadu,11.1085,77.3411,26.8,81,0.0,974.7,8.1,50.8,43,16.4,15.2,22.5,192.0,41.0,4.6,7,5,7,1,2026-05-20T22:23:57.288319+05:30
Alappuzha,Kerala,9.4981,76.3388,28.2,88,0.0,1009.3,7.3,31.0,33,19.2,16.7,14.1,89.0,36.0,3.1,7,0,4,1,2026-05-20T22:23:57.288327+05:30
Munnar,Kerala,10.0889,77.0595,17.5,98,0.0,857.3,8.75,43.6,31,9.3,8.4,11.0,134.0,42.0,2.3,3,10,7,1,2026-05-20T22:23:57.288334+05:30
Silchar,Assam,24.8333,92.7789,25.9,95,0.2,1001.4,8.9,27.0,151,82.0,57.4,18.3,586.0,85.0,12.1,10,5,4,1,2026-05-20T22:23:57.288342+05:30
Dibrugarh,Assam,27.4728,94.912,27.9,85,0.0,991.0,8.9,16.9,82,33.2,29.1,21.8,725.0,26.0,2.8,7,5,7,1,2026-05-20T22:23:57.288349+05:30
