city,state,latitude,longitude,temp,humidity,rain,pressure,uv_index,wind_gusts,aqi,pm10,pm2_5,mosquito_risk,arthritis_risk,migraine_risk,frizz_risk,updated_at
Delhi,Delhi,28.6139,77.209,18.3,80,0.0,983.8,5.65,21.2,349,252.4,68.5,3,5,3,0,2026-03-17T04:07:40.162353+05:30
Mumbai,Maharashtra,19.076,72.8777,26.8,77,0.0,1008.3,7.7,18.4,101,100.6,35.0,7,0,4,1,2026-03-17T04:07:40.162400+05:30
Bangalore,Karnataka,12.9716,77.5946,20.2,84,0.0,910.3,9.35,41.0,99,31.5,30.2,3,5,7,1,2026-03-17T04:07:40.162415+05:30
Hyderabad,Telangana,17.385,78.4867,21.4,85,0.0,952.3,7.95,20.9,101,16.3,13.1,3,5,7,1,2026-03-17T04:07:40.162424+05:30
Chennai,Tamil Nadu,13.0827,80.2707,25.9,85,0.0,1007.6,9.1,32.0,36,10.7,8.0,7,5,4,1,2026-03-17T04:07:40.162433+05:30
Kolkata,West Bengal,22.5726,88.3639,23.1,92,0.0,1006.3,8.1,56.2,78,42.4,38.1,3,5,4,1,2026-03-17T04:07:40.162441+05:30
Pune,Maharashtra,18.5204,73.8567,17.6,76,0.0,946.8,8.25,37.1,86,60.1,35.3,3,5,7,0,2026-03-17T04:07:40.162451+05:30
Ahmedabad,Gujarat,23.0225,72.5714,22.7,53,0.0,1001.9,7.55,19.8,57,29.0,14.8,0,5,4,0,2026-03-17T04:07:40.162459+05:30
Jaipur,Rajasthan,26.9124,75.7873,20.1,67,0.0,959.2,6.4,38.5,207,584.9,119.0,3,5,7,0,2026-03-17T04:07:40.162466+05:30
Lucknow,Uttar Pradesh,26.8467,80.9462,20.0,66,0.0,994.0,6.3,22.0,90,48.1,31.4,3,5,7,0,2026-03-17T04:07:40.162472+05:30
Kanpur,Uttar Pradesh,26.4499,80.3319,20.3,70,0.0,991.7,6.55,25.9,119,238.4,51.3,3,5,7,0,2026-03-17T04:07:40.162478+05:30
Chandigarh,Chandigarh,30.7333,76.7794,13.5,68,0.0,969.4,5.7,17.6,62,19.2,11.4,3,5,3,0,2026-03-17T04:07:40.162485+05:30
Srinagar,Jammu and Kashmir,34.0837,74.7973,2.4,88,0.0,838.1,6.95,15.5,78,19.7,18.8,3,10,7,0,2026-03-17T04:07:40.162491+05:30
Jammu,Jammu and Kashmir,32.7266,74.857,12.6,71,0.0,975.2,6.6,16.2,66,31.5,29.2,3,5,7,0,2026-03-17T04:07:40.162497+05:30
Amritsar,Punjab,31.634,74.8723,10.4,92,0.0,983.5,6.65,17.3,80,48.2,31.0,3,10,7,0,2026-03-17T04:07:40.162502+05:30
Ludhiana,Punjab,30.901,75.8573,12.1,76,0.0,980.4,6.35,14.4,77,39.9,21.1,3,5,7,0,2026-03-17T04:07:40.162508+05:30
Jalandhar,Punjab,31.326,75.5762,11.2,84,0.0,981.8,6.45,16.6,70,49.1,18.3,3,10,7,0,2026-03-17T04:07:40.162515+05:30
Dehradun,Uttarakhand,30.6284,78.0322,8.1,53,0.0,826.8,5.4,23.8,42,14.4,5.9,0,5,3,1,2026-03-17T04:07:40.162520+05:30
Shimla,Himachal Pradesh,31.1048,77.1734,6.6,60,0.0,779.7,5.75,23.0,62,19.4,9.6,0,5,3,1,2026-03-17T04:07:40.162526+05:30
Manali,Himachal Pradesh,32.2396,77.1887,5.4,34,0.0,813.5,8.5,29.9,49,8.1,3.4,0,5,7,1,2026-03-17T04:07:40.162531+05:30
Gurgaon,Haryana,28.4595,77.0266,16.1,88,0.0,982.1,5.8,20.2,1770,508.5,103.1,3,10,3,0,2026-03-17T04:07:40.162537+05:30
Noida,Uttar Pradesh,28.5355,77.391,18.4,81,0.0,985.2,5.45,20.5,1770,508.5,103.1,3,10,3,0,2026-03-17T04:07:40.162542+05:30
Ghaziabad,Uttar Pradesh,28.6692,77.4538,17.1,85,0.0,983.3,5.6,21.2,112,78.0,44.4,3,10,3,0,2026-03-17T04:07:40.162547+05:30
Faridabad,Haryana,28.4089,77.3178,17.4,87,0.0,984.3,5.35,20.5,1770,508.5,103.1,3,10,3,0,2026-03-17T04:07:40.162554+05:30
Meerut,Uttar Pradesh,28.9845,77.7064,16.1,84,0.0,982.0,5.9,17.6,112,78.0,44.4,3,10,3,0,2026-03-17T04:07:40.162559+05:30
Agra,Uttar Pradesh,27.1767,78.0081,18.7,80,0.0,988.1,6.2,16.2,822,629.6,95.7,3,5,7,0,2026-03-17T04:07:40.162565+05:30
Varanasi,Uttar Pradesh,25.3176,82.9739,20.4,83,0.0,998.4,7.35,18.0,152,73.1,57.2,3,5,7,1,2026-03-17T04:07:40.162572+05:30
Prayagraj,Uttar Pradesh,25.4358,81.8463,21.9,77,0.0,996.8,7.2,20.9,145,49.0,33.6,3,5,7,1,2026-03-17T04:07:40.162580+05:30
Gorakhpur,Uttar Pradesh,26.7606,83.3732,19.9,64,0.0,997.7,6.55,29.5,100,61.2,38.2,3,5,7,0,2026-03-17T04:07:40.162585+05:30
Bareilly,Uttar Pradesh,28.367,79.4304,18.1,69,0.0,986.8,5.7,16.9,98,51.2,31.5,3,5,3,0,2026-03-17T04:07:40.162590+05:30
Aligarh,Uttar Pradesh,27.8974,78.088,18.0,81,0.0,985.7,5.9,18.0,477,252.4,62.9,3,10,3,0,2026-03-17T04:07:40.162596+05:30
Moradabad,Uttar Pradesh,28.8386,78.7733,17.3,73,0.0,984.0,5.05,17.3,104,62.2,36.8,3,5,3,0,2026-03-17T04:07:40.162601+05:30
Saharanpur,Uttar Pradesh,29.9637,77.546,16.7,68,0.0,976.4,5.15,15.5,113,68.2,52.0,3,5,3,0,2026-03-17T04:07:40.162606+05:30
Jhansi,Uttar Pradesh,25.4484,78.5685,22.6,45,0.0,977.4,7.2,25.9,91,96.2,30.7,0,5,7,0,2026-03-17T04:07:43.428002+05:30
Surat,Gujarat,21.1702,72.8311,25.3,88,0.0,1006.8,7.4,26.3,97,38.3,26.9,7,5,4,1,2026-03-17T04:07:43.428032+05:30
Vadodara,Gujarat,22.3072,73.1812,23.5,85,0.0,1004.2,7.5,25.9,73,35.0,22.8,3,5,4,1,2026-03-17T04:07:43.428041+05:30
Rajkot,Gujarat,22.3039,70.8022,23.0,85,0.0,993.9,7.4,24.5,58,34.0,14.2,3,5,7,1,2026-03-17T04:07:43.428049+05:30
Thane,Maharashtra,19.2183,72.9781,24.7,88,0.0,1007.9,7.7,30.6,101,100.6,35.0,3,5,4,1,2026-03-17T04:07:43.428056+05:30
Nagpur,Maharashtra,21.1458,79.0882,24.7,62,0.0,972.1,8.05,21.2,100,52.7,48.2,3,5,7,1,2026-03-17T04:07:43.428064+05:30
Nashik,Maharashtra,19.9975,73.7898,19.6,72,0.0,944.6,7.9,27.4,76,83.8,29.4,3,5,7,0,2026-03-17T04:07:43.428071+05:30
Aurangabad,Maharashtra,19.8762,75.3433,21.6,61,0.0,943.3,8.35,29.2,64,43.7,18.9,3,5,7,0,2026-03-17T04:07:43.428078+05:30
Solapur,Maharashtra,17.6599,75.9064,22.5,58,0.0,956.0,8.55,24.8,89,42.1,39.3,0,5,7,0,2026-03-17T04:07:43.428086+05:30
Kolhapur,Maharashtra,16.705,74.2433,19.6,84,0.0,946.5,8.45,44.3,91,38.0,30.0,3,10,7,1,2026-03-17T04:07:43.428093+05:30
Goa,Goa,15.2993,74.124,26.7,81,0.0,997.0,8.75,36.7,81,43.1,28.2,7,5,7,1,2026-03-17T04:07:43.428100+05:30
Jodhpur,Rajasthan,26.2389,73.0243,21.6,54,0.0,982.4,6.45,30.6,104,233.8,66.1,0,5,7,0,2026-03-17T04:07:43.428106+05:30
Udaipur,Rajasthan,24.5854,73.7125,21.0,35,0.0,945.2,7.85,34.2,41,43.1,9.7,0,5,7,0,2026-03-17T04:07:43.428113+05:30
Kota,Rajasthan,25.2138,75.8648,20.9,38,0.0,977.8,7.3,28.1,58,25.9,10.5,0,5,7,0,2026-03-17T04:07:43.428120+05:30
Bikaner,Rajasthan,28.0229,73.3119,20.1,69,0.0,982.7,6.9,19.8,64,65.0,31.4,3,5,7,0,2026-03-17T04:07:43.428127+05:30
Ajmer,Rajasthan,26.4499,74.6399,20.3,62,0.0,953.8,7.05,37.4,78,350.2,92.2,3,5,7,0,2026-03-17T04:07:43.428134+05:30
Gwalior,Madhya Pradesh,26.2183,78.1828,21.9,62,0.0,983.1,6.9,30.6,98,122.0,31.4,3,5,7,0,2026-03-17T04:07:43.428140+05:30
Indore,Madhya Pradesh,22.7196,75.8577,20.6,62,0.0,947.1,7.7,31.0,59,20.7,14.3,3,5,7,0,2026-03-17T04:07:43.428147+05:30
Bhopal,Madhya Pradesh,23.2599,77.4126,20.7,52,0.0,952.9,7.65,29.9,48,13.8,11.6,0,5,7,0,2026-03-17T04:07:43.428153+05:30
Jabalpur,Madhya Pradesh,23.1815,79.9864,21.7,46,0.0,960.7,7.75,25.6,56,21.2,15.9,0,5,7,0,2026-03-17T04:07:43.428160+05:30
Ujjain,Madhya Pradesh,23.1765,75.7885,20.9,64,0.0,953.0,7.65,26.3,57,23.9,16.0,3,5,7,0,2026-03-17T04:07:43.428166+05:30
Visakhapatnam,Andhra Pradesh,17.6868,83.2185,24.2,88,0.0,1005.0,8.7,40.0,57,19.6,16.8,3,5,4,1,2026-03-17T04:07:43.428171+05:30
Vijayawada,Andhra Pradesh,16.5062,80.648,23.5,88,0.0,1003.6,8.8,28.4,47,14.4,12.5,3,5,4,1,2026-03-17T04:07:43.428177+05:30
Guntur,Andhra Pradesh,16.3067,80.4365,23.4,90,0.0,1004.6,8.8,28.1,45,12.8,11.2,3,5,4,1,2026-03-17T04:07:43.428182+05:30
Nellore,Andhra Pradesh,14.4426,79.9865,24.8,88,0.0,1006.5,8.95,29.9,41,8.8,6.5,3,5,4,1,2026-03-17T04:07:43.428189+05:30
Kurnool,Andhra Pradesh,15.8281,78.0373,25.2,70,0.0,976.3,8.25,32.0,80,11.7,10.7,7,5,7,1,2026-03-17T04:07:43.428195+05:30
Kakinada,Andhra Pradesh,16.9891,82.2475,22.1,94,0.0,1008.8,8.75,28.1,38,15.4,12.0,3,0,4,1,2026-03-17T04:07:43.428201+05:30
Tirupati,Andhra Pradesh,13.6288,79.4192,23.3,89,0.0,992.3,9.05,27.4,57,17.1,14.8,3,5,7,1,2026-03-17T04:07:43.428206+05:30
Warangal,Telangana,17.9689,79.5941,22.8,83,0.0,978.6,8.3,32.8,69,14.6,13.1,3,5,7,1,2026-03-17T04:07:43.428211+05:30
Nizamabad,Telangana,18.6725,78.0941,24.3,66,0.0,963.8,8.45,31.7,135,39.7,36.1,3,5,7,1,2026-03-17T04:07:43.428216+05:30
Mysore,Karnataka,12.2958,76.6396,20.1,89,0.0,927.3,9.35,36.4,121,59.1,54.9,3,5,7,1,2026-03-17T04:07:43.428222+05:30
Mangalore,Karnataka,12.9141,74.856,27.8,79,0.0,1005.6,8.95,19.8,104,41.3,31.5,7,5,4,1,2026-03-17T04:07:43.428227+05:30
Hubli-Dharwad,Karnataka,15.3647,75.124,21.2,94,0.0,939.5,8.8,32.0,91,25.3,17.8,3,5,7,1,2026-03-17T04:07:43.428233+05:30
Belgaum,Karnataka,15.8497,74.4977,19.7,98,0.0,924.0,8.95,31.0,78,38.6,27.5,3,10,7,1,2026-03-17T04:07:46.707996+05:30
Coimbatore,Tamil Nadu,11.0168,76.9558,21.7,97,0.0,961.3,9.35,29.9,99,47.6,43.7,3,5,7,1,2026-03-17T04:07:46.708023+05:30
Madurai,Tamil Nadu,9.9252,78.1198,24.2,86,0.0,992.9,8.1,21.2,53,16.0,14.6,3,5,7,1,2026-03-17T04:07:46.708032+05:30
Trichy,Tamil Nadu,10.7905,78.7047,25.3,92,0.0,1000.0,9.2,22.7,54,15.4,13.0,7,5,4,1,2026-03-17T04:07:46.708041+05:30
Salem,Tamil Nadu,11.6643,78.146,24.3,87,0.0,977.3,9.25,25.9,69,23.8,22.6,3,5,7,1,2026-03-17T04:07:46.708048+05:30
Tirunelveli,Tamil Nadu,8.7139,77.7567,24.5,87,0.0,1002.8,7.3,36.0,60,25.3,24.1,3,5,4,1,2026-03-17T04:07:46.708055+05:30
Vellore,Tamil Nadu,12.9165,79.1325,22.8,92,0.0,985.2,9.15,32.0,73,20.4,17.9,3,5,7,1,2026-03-17T04:07:46.708063+05:30
Erode,Tamil Nadu,11.341,77.7172,25.4,83,0.0,989.2,9.25,29.9,51,8.1,6.9,7,5,7,1,2026-03-17T04:07:46.708070+05:30
Kochi,Kerala,9.9312,76.2673,27.1,83,0.0,1008.0,8.95,32.0,85,27.6,26.0,7,0,4,1,2026-03-17T04:07:46.708078+05:30
Thiruvananthapuram,Kerala,8.5241,76.9366,27.2,85,0.0,1007.0,7.8,22.7,54,13.7,12.3,7,5,4,1,2026-03-17T04:07:46.708085+05:30
Kozhikode,Kerala,11.2588,75.7804,25.7,84,0.0,1007.5,8.95,28.4,90,44.0,38.0,7,5,4,1,2026-03-17T04:07:46.708092+05:30
Thrissur,Kerala,10.5276,76.2144,24.8,91,0.0,1006.6,9.05,34.2,85,31.2,29.0,3,5,4,1,2026-03-17T04:07:46.708100+05:30
Kannur,Kerala,11.8745,75.3704,26.7,86,0.0,1006.4,9.0,29.5,102,48.7,42.1,7,5,4,1,2026-03-17T04:07:46.708107+05:30
Patna,Bihar,25.5941,85.1376,23.2,73,0.0,1001.1,7.5,25.9,152,89.6,74.7,3,5,4,1,2026-03-17T04:07:46.708114+05:30
Gaya,Bihar,24.7914,85.0002,21.8,77,0.0,994.2,7.6,27.7,118,50.2,42.0,3,5,7,1,2026-03-17T04:07:46.708121+05:30
Muzaffarpur,Bihar,26.1209,85.3647,20.3,78,0.0,1001.1,7.45,34.2,157,102.2,84.5,3,5,4,1,2026-03-17T04:07:46.708128+05:30
Bhagalpur,Bihar,25.2425,87.0117,22.8,84,0.0,1001.2,7.5,27.7,150,57.5,52.9,3,5,4,1,2026-03-17T04:07:46.708135+05:30
Ranchi,Jharkhand,23.3441,85.3096,20.4,81,0.0,937.5,8.2,47.9,120,56.1,49.6,3,5,7,1,2026-03-17T04:07:46.708142+05:30
Jamshedpur,Jharkhand,22.8046,86.2029,21.6,84,0.0,991.5,8.15,39.6,121,57.3,49.5,3,5,7,1,2026-03-17T04:07:46.708148+05:30
Dhanbad,Jharkhand,23.7957,86.4304,22.6,75,0.0,979.9,8.0,47.2,151,79.9,72.2,3,5,7,1,2026-03-17T04:07:46.708155+05:30
Bokaro,Jharkhand,23.6693,86.1511,23.1,71,0.0,984.0,8.0,53.3,136,69.6,62.2,3,5,7,1,2026-03-17T04:07:46.708162+05:30
Bhubaneswar,Odisha,20.2961,85.8245,24.2,87,0.0,1003.3,8.3,35.3,71,15.8,13.4,3,5,4,1,2026-03-17T04:07:46.708169+05:30
Cuttack,Odisha,20.4625,85.8828,24.2,92,0.0,1005.2,8.1,30.6,71,15.8,13.4,3,5,4,1,2026-03-17T04:07:46.708176+05:30
Rourkela,Odisha,22.2604,84.8536,23.2,76,0.0,986.5,8.05,48.6,142,73.1,63.1,3,5,7,1,2026-03-17T04:07:46.708183+05:30
Raipur,Chhattisgarh,21.2514,81.6296,25.0,65,0.0,974.5,8.15,31.3,134,69.8,64.0,7,5,7,1,2026-03-17T04:07:46.708190+05:30
Bhilai,Chhattisgarh,21.1938,81.3509,24.7,66,0.0,974.8,8.15,34.9,129,66.8,61.0,3,5,7,1,2026-03-17T04:07:46.708196+05:30
Guwahati,Assam,26.1158,91.7086,20.0,89,0.0,1002.6,7.45,45.4,80,29.3,24.6,3,5,4,1,2026-03-17T04:07:46.708203+05:30
Agartala,Tripura,23.8315,91.2868,21.8,94,0.0,1008.1,7.85,43.6,70,14.0,11.4,3,0,4,1,2026-03-17T04:07:46.708210+05:30
Shillong,Meghalaya,25.5788,91.8933,12.2,88,0.0,853.8,6.5,77.8,57,19.3,15.5,3,10,7,0,2026-03-17T04:07:46.708217+05:30
Imphal,Manipur,24.817,93.9368,16.0,86,0.0,923.9,8.1,91.4,91,52.3,43.4,3,10,7,0,2026-03-17T04:07:46.708223+05:30
Aizawl,Mizoram,23.7271,92.7176,16.1,88,0.0,893.4,8.05,61.9,93,49.1,38.9,3,10,7,0,2026-03-17T04:07:46.708230+05:30
Kohima,Nagaland,25.6701,94.1077,14.1,76,0.0,853.7,8.05,99.4,78,41.2,33.5,3,5,7,0,2026-03-17T04:07:46.708237+05:30
Gangtok,Sikkim,27.3314,88.6138,9.5,70,0.0,834.1,7.75,19.4,80,62.2,36.7,3,5,7,0,2026-03-17T04:07:46.708244+05:30
Siliguri,West Bengal,26.7271,88.3953,18.4,65,0.0,994.3,7.4,43.2,116,76.6,57.6,3,5,7,0,2026-03-17T04:07:49.975163+05:30
Durgapur,West Bengal,23.5204,87.3119,22.3,89,0.0,995.3,8.0,47.9,153,69.6,63.6,3,5,7,1,2026-03-17T04:07:49.975193+05:30
Asansol,West Bengal,23.6739,86.9524,22.8,82,0.0,993.9,8.0,46.8,146,66.4,60.1,3,5,7,1,2026-03-17T04:07:49.975202+05:30
Pondicherry,Puducherry,11.9139,79.8145,24.2,95,0.0,1008.9,9.1,28.1,32,9.8,6.6,3,0,4,1,2026-03-17T04:07:49.975210+05:30
Port Blair,Andaman and Nicobar Islands,11.6234,92.7265,27.2,80,0.0,1007.4,9.0,19.1,79,14.2,12.1,7,5,4,1,2026-03-17T04:07:49.975218+05:30
Haridwar,Uttarakhand,29.9457,78.1642,17.7,58,0.0,974.9,5.15,18.4,67,18.0,12.5,0,5,3,0,2026-03-17T04:07:49.975226+05:30
Rishikesh,Uttarakhand,30.0869,78.2676,16.5,54,0.0,967.6,5.35,19.8,56,22.4,12.3,0,5,3,0,2026-03-17T04:07:49.975233+05:30
Nainital,Uttarakhand,29.3919,79.4542,14.6,45,0.0,804.1,5.2,37.8,61,20.9,10.9,0,5,3,0,2026-03-17T04:07:49.975241+05:30
Mussoorie,Uttarakhand,30.4599,78.0664,10.7,49,0.0,799.6,5.75,30.2,57,18.1,12.8,0,5,3,0,2026-03-17T04:07:49.975248+05:30
Dharamshala,Himachal Pradesh,32.219,76.3234,13.2,25,0.0,867.2,6.0,26.6,48,7.9,4.1,0,5,3,1,2026-03-17T04:07:49.975255+05:30
Dalhousie,Himachal Pradesh,32.5387,75.971,8.9,26,0.0,800.2,6.25,24.8,56,19.7,15.0,0,5,7,1,2026-03-17T04:07:49.975262+05:30
Patiala,Punjab,30.3398,76.3869,13.2,80,0.0,979.3,5.85,16.9,76,34.7,31.3,3,5,3,0,2026-03-17T04:07:49.975269+05:30
Bhatinda,Punjab,30.211,74.9455,13.0,83,0.0,985.8,6.6,19.1,90,77.5,32.1,3,10,7,0,2026-03-17T04:07:49.975276+05:30
Rohtak,Haryana,28.8955,76.6066,14.8,83,0.0,982.6,6.0,24.1,603,454.5,98.3,3,10,3,0,2026-03-17T04:07:49.975283+05:30
Panipat,Haryana,29.3909,76.9635,14.2,84,0.0,981.2,5.9,16.6,312,344.6,79.2,3,10,3,0,2026-03-17T04:07:49.975290+05:30
Mathura,Uttar Pradesh,27.4924,77.6737,17.6,81,0.0,987.3,6.35,17.6,786,364.1,77.1,3,10,7,0,2026-03-17T04:07:49.975297+05:30
Vrindavan,Uttar Pradesh,27.5823,77.7027,17.6,81,0.0,987.6,6.4,18.0,786,364.1,77.1,3,10,7,0,2026-03-17T04:07:49.975304+05:30
Ayodhya,Uttar Pradesh,26.7922,82.1998,19.5,64,0.0,996.1,6.85,25.2,92,72.6,47.0,3,5,7,0,2026-03-17T04:07:49.975310+05:30
Ratlam,Madhya Pradesh,23.3315,75.0367,23.3,52,0.0,953.9,7.6,33.1,56,28.2,15.6,0,5,7,0,2026-03-17T04:07:49.975317+05:30
Sagar,Madhya Pradesh,23.8388,78.7378,21.0,44,0.0,949.2,7.55,31.3,39,7.8,7.0,0,5,7,0,2026-03-17T04:07:49.975324+05:30
Satna,Madhya Pradesh,24.6005,80.8322,22.3,71,0.0,971.4,7.55,35.3,85,69.4,54.2,3,5,7,1,2026-03-17T04:07:49.975331+05:30
Akola,Maharashtra,20.7002,77.0082,23.5,54,0.0,974.3,8.05,25.9,68,30.6,20.6,0,5,7,0,2026-03-17T04:07:49.975338+05:30
Amravati,Maharashtra,20.9374,77.7796,23.2,52,0.0,966.4,8.0,31.0,74,43.3,33.8,0,5,7,0,2026-03-17T04:07:49.975346+05:30
Latur,Maharashtra,18.4088,76.5604,21.5,67,0.0,938.6,8.55,25.2,90,54.1,48.8,3,5,7,0,2026-03-17T04:07:49.975353+05:30
Nanded,Maharashtra,19.1383,77.3091,23.5,65,0.0,968.0,8.3,19.8,100,53.3,49.2,3,5,7,1,2026-03-17T04:07:49.975359+05:30
Gulbarga,Karnataka,17.3297,76.8343,24.9,61,0.0,957.8,8.3,29.9,114,54.5,46.9,3,5,7,1,2026-03-17T04:07:49.975365+05:30
Bidar,Karnataka,17.9104,77.5199,23.4,62,0.0,934.3,8.55,28.8,131,43.8,39.5,3,5,7,0,2026-03-17T04:07:49.975372+05:30
Hospet,Karnataka,15.2689,76.3909,24.6,74,0.0,955.0,8.7,46.8,123,43.0,39.2,3,5,7,1,2026-03-17T04:07:49.975379+05:30
Tirupur,Tamil Nadu,11.1085,77.3411,23.4,85,0.0,975.1,9.35,34.2,77,29.6,27.4,3,5,7,1,2026-03-17T04:07:49.975385+05:30
Alappuzha,Kerala,9.4981,76.3388,27.3,83,0.0,1008.1,9.05,30.2,82,29.6,27.0,7,0,4,1,2026-03-17T04:07:49.975392+05:30
Munnar,Kerala,10.0889,77.0595,17.0,92,0.0,854.3,9.6,29.2,79,30.4,29.2,3,10,7,0,2026-03-17T04:07:49.975399+05:30
Silchar,Assam,24.8333,92.7789,19.6,95,0.4,1007.9,7.9,43.2,72,37.8,31.9,6,10,4,1,2026-03-17T04:07:49.975406+05:30
Dibrugarh,Assam,27.4728,94.912,18.5,92,0.0,997.1,6.25,42.8,86,44.5,34.5,3,10,7,1,2026-03-17T04:07:49.975413+05:30
