city,state,latitude,longitude,temp,humidity,rain,pressure,uv_index,wind_gusts,aqi,pm10,pm2_5,mosquito_risk,arthritis_risk,migraine_risk,frizz_risk,updated_at
Delhi,Delhi,28.6139,77.209,38.1,15,0.0,975.5,7.05,35.3,154,207.2,43.2,0,5,10,0,2026-04-29T17:10:21.937421+05:30
Mumbai,Maharashtra,19.076,72.8777,31.5,64,0.0,1004.9,8.05,43.2,80,35.0,18.6,3,5,4,1,2026-04-29T17:10:21.937471+05:30
Bangalore,Karnataka,12.9716,77.5946,34.7,25,0.0,909.8,9.5,33.5,169,48.7,32.2,0,5,7,0,2026-04-29T17:10:21.937487+05:30
Hyderabad,Telangana,17.385,78.4867,39.3,16,0.0,948.9,9.3,28.4,156,44.7,33.4,0,5,10,0,2026-04-29T17:10:21.937497+05:30
Chennai,Tamil Nadu,13.0827,80.2707,32.4,65,0.0,1003.1,9.25,55.1,73,18.4,14.5,3,5,4,1,2026-04-29T17:10:21.937506+05:30
Kolkata,West Bengal,22.5726,88.3639,28.0,82,0.0,1002.8,8.85,51.8,74,18.7,13.7,7,5,4,1,2026-04-29T17:10:21.937515+05:30
Pune,Maharashtra,18.5204,73.8567,36.2,24,0.0,945.0,8.6,42.5,86,30.4,18.7,0,5,10,0,2026-04-29T17:10:21.937528+05:30
Ahmedabad,Gujarat,23.0225,72.5714,42.3,13,0.0,994.7,8.2,53.3,49,38.4,11.8,0,5,10,0,2026-04-29T17:10:21.937536+05:30
Jaipur,Rajasthan,26.9124,75.7873,38.3,11,0.0,952.9,8.05,51.5,150,246.8,35.2,0,5,10,0,2026-04-29T17:10:21.937545+05:30
Lucknow,Uttar Pradesh,26.8467,80.9462,36.0,29,0.0,987.1,7.9,47.9,176,92.9,46.3,0,5,10,0,2026-04-29T17:10:21.937554+05:30
Kanpur,Uttar Pradesh,26.4499,80.3319,37.9,22,0.0,984.7,7.9,50.8,181,288.7,51.3,0,5,10,0,2026-04-29T17:10:21.937562+05:30
Chandigarh,Chandigarh,30.7333,76.7794,32.2,31,0.0,963.3,7.4,40.0,92,68.9,18.7,0,5,7,0,2026-04-29T17:10:21.937571+05:30
Srinagar,Jammu and Kashmir,34.0837,74.7973,14.6,89,0.1,839.0,5.8,19.8,98,23.3,17.5,6,10,3,0,2026-04-29T17:10:21.937580+05:30
Jammu,Jammu and Kashmir,32.7266,74.857,24.3,59,0.0,969.1,7.0,53.3,66,43.2,15.7,0,5,7,0,2026-04-29T17:10:21.937588+05:30
Amritsar,Punjab,31.634,74.8723,30.5,43,0.0,976.0,8.1,40.7,134,54.4,25.2,0,5,7,1,2026-04-29T17:10:21.937595+05:30
Ludhiana,Punjab,30.901,75.8573,32.3,33,0.0,973.2,7.7,51.1,91,112.5,28.5,0,5,7,0,2026-04-29T17:10:21.937603+05:30
Jalandhar,Punjab,31.326,75.5762,32.0,34,0.0,974.4,7.9,33.8,96,65.2,28.4,0,5,7,0,2026-04-29T17:10:21.937612+05:30
Dehradun,Uttarakhand,30.6284,78.0322,21.0,43,0.0,828.2,6.15,44.6,59,43.8,13.1,0,5,7,0,2026-04-29T17:10:21.937620+05:30
Shimla,Himachal Pradesh,31.1048,77.1734,18.5,39,0.0,782.5,7.9,34.9,73,37.8,16.5,0,5,7,0,2026-04-29T17:10:21.937627+05:30
Manali,Himachal Pradesh,32.2396,77.1887,15.3,62,0.0,814.8,6.9,38.9,96,14.1,5.5,3,5,7,0,2026-04-29T17:10:21.937635+05:30
Gurgaon,Haryana,28.4595,77.0266,37.5,15,0.0,974.1,7.4,32.4,664,597.9,76.8,0,5,10,0,2026-04-29T17:10:21.937643+05:30
Noida,Uttar Pradesh,28.5355,77.391,38.0,15,0.0,976.6,6.95,33.8,664,597.9,76.8,0,5,10,0,2026-04-29T17:10:21.937651+05:30
Ghaziabad,Uttar Pradesh,28.6692,77.4538,38.0,15,0.0,975.1,6.85,31.3,143,217.9,42.5,0,5,10,0,2026-04-29T17:10:21.937659+05:30
Faridabad,Haryana,28.4089,77.3178,37.8,15,0.0,976.1,6.95,36.0,664,597.9,76.8,0,5,10,0,2026-04-29T17:10:21.937666+05:30
Meerut,Uttar Pradesh,28.9845,77.7064,36.2,22,0.0,974.2,6.45,27.7,143,217.9,42.5,0,5,10,0,2026-04-29T17:10:21.937673+05:30
Agra,Uttar Pradesh,27.1767,78.0081,39.2,15,0.0,979.7,7.5,45.4,934,698.5,75.4,0,5,10,0,2026-04-29T17:10:21.937680+05:30
Varanasi,Uttar Pradesh,25.3176,82.9739,34.8,32,0.0,990.8,8.45,58.3,148,81.7,30.4,0,5,7,0,2026-04-29T17:10:21.937691+05:30
Prayagraj,Uttar Pradesh,25.4358,81.8463,37.8,25,0.0,988.1,8.35,58.7,129,65.7,32.0,0,5,10,0,2026-04-29T17:10:21.937699+05:30
Gorakhpur,Uttar Pradesh,26.7606,83.3732,25.7,82,0.1,992.8,8.25,39.2,129,69.4,37.4,10,5,7,1,2026-04-29T17:10:21.937707+05:30
Bareilly,Uttar Pradesh,28.367,79.4304,33.9,31,0.0,980.5,7.45,41.0,106,125.3,28.3,0,5,7,0,2026-04-29T17:10:21.937714+05:30
Aligarh,Uttar Pradesh,27.8974,78.088,36.8,21,0.0,978.0,5.25,40.3,380,562.5,65.4,0,5,6,0,2026-04-29T17:10:21.937723+05:30
Moradabad,Uttar Pradesh,28.8386,78.7733,36.1,20,0.0,977.1,5.2,29.5,139,147.6,34.0,0,5,6,0,2026-04-29T17:10:21.937732+05:30
Saharanpur,Uttar Pradesh,29.9637,77.546,34.7,24,0.0,969.2,7.05,34.6,106,68.2,17.2,0,5,7,0,2026-04-29T17:10:21.937738+05:30
Jhansi,Uttar Pradesh,25.4484,78.5685,40.3,12,0.0,970.0,7.7,53.6,72,52.4,14.2,0,5,10,0,2026-04-29T17:10:25.263686+05:30
Surat,Gujarat,21.1702,72.8311,32.8,53,0.0,1002.0,7.85,46.1,69,48.9,21.6,0,5,4,1,2026-04-29T17:10:25.263720+05:30
Vadodara,Gujarat,22.3072,73.1812,40.0,23,0.0,997.8,8.15,52.2,59,44.4,16.3,0,5,10,0,2026-04-29T17:10:25.263733+05:30
Rajkot,Gujarat,22.3039,70.8022,40.1,17,0.0,988.2,7.9,54.0,49,41.2,13.1,0,5,10,0,2026-04-29T17:10:25.263744+05:30
Thane,Maharashtra,19.2183,72.9781,33.8,47,0.0,1003.9,8.05,40.3,80,35.0,18.6,0,5,4,1,2026-04-29T17:10:25.263753+05:30
Nagpur,Maharashtra,21.1458,79.0882,41.4,11,0.0,966.6,8.85,55.8,115,18.6,10.4,0,5,10,0,2026-04-29T17:10:25.263762+05:30
Nashik,Maharashtra,19.9975,73.7898,35.5,24,0.0,942.6,8.3,46.1,62,33.9,12.8,0,5,10,0,2026-04-29T17:10:25.263770+05:30
Aurangabad,Maharashtra,19.8762,75.3433,39.2,11,0.0,939.8,9.05,56.5,63,22.1,12.3,0,5,10,0,2026-04-29T17:10:25.263779+05:30
Solapur,Maharashtra,17.6599,75.9064,40.4,14,0.0,952.3,9.1,40.7,113,29.5,18.6,0,5,10,0,2026-04-29T17:10:25.263788+05:30
Kolhapur,Maharashtra,16.705,74.2433,36.1,27,0.0,944.4,9.0,44.6,75,31.8,19.9,0,5,10,0,2026-04-29T17:10:25.263796+05:30
Goa,Goa,15.2993,74.124,32.9,62,0.0,994.7,8.75,45.4,73,34.6,16.5,3,5,7,1,2026-04-29T17:10:25.263805+05:30
Jodhpur,Rajasthan,26.2389,73.0243,39.8,15,0.0,975.4,8.25,41.4,143,210.5,29.8,0,5,10,0,2026-04-29T17:10:25.263814+05:30
Udaipur,Rajasthan,24.5854,73.7125,36.3,17,0.0,941.5,8.75,44.3,58,65.9,16.6,0,5,10,0,2026-04-29T17:10:25.263822+05:30
Kota,Rajasthan,25.2138,75.8648,39.3,16,0.0,971.8,8.3,44.3,71,93.1,22.5,0,5,10,0,2026-04-29T17:10:25.263829+05:30
Bikaner,Rajasthan,28.0229,73.3119,40.1,12,0.0,973.7,8.15,34.2,76,122.5,23.2,0,5,10,0,2026-04-29T17:10:25.263836+05:30
Ajmer,Rajasthan,26.4499,74.6399,37.4,16,0.0,948.5,8.2,49.7,77,83.4,19.0,0,5,10,0,2026-04-29T17:10:25.263842+05:30
Gwalior,Madhya Pradesh,26.2183,78.1828,39.0,15,0.0,975.4,8.05,53.3,160,217.0,44.9,0,5,10,0,2026-04-29T17:10:25.263849+05:30
Indore,Madhya Pradesh,22.7196,75.8577,37.8,14,0.0,943.6,8.65,57.2,74,25.0,9.4,0,5,10,0,2026-04-29T17:10:25.263855+05:30
Bhopal,Madhya Pradesh,23.2599,77.4126,39.3,11,0.0,947.7,8.6,54.0,54,26.8,8.8,0,5,10,0,2026-04-29T17:10:25.263862+05:30
Jabalpur,Madhya Pradesh,23.1815,79.9864,39.8,12,0.0,954.8,8.75,41.4,74,15.3,7.3,0,5,10,0,2026-04-29T17:10:25.263870+05:30
Ujjain,Madhya Pradesh,23.1765,75.7885,37.6,16,0.0,948.9,8.55,53.3,69,28.5,10.2,0,5,10,0,2026-04-29T17:10:25.263877+05:30
Visakhapatnam,Andhra Pradesh,17.6868,83.2185,31.0,73,0.0,999.5,9.1,54.0,60,19.7,15.2,3,5,7,1,2026-04-29T17:10:25.263884+05:30
Vijayawada,Andhra Pradesh,16.5062,80.648,37.0,41,0.0,997.6,8.75,36.0,81,41.0,35.2,0,5,10,1,2026-04-29T17:10:25.263891+05:30
Guntur,Andhra Pradesh,16.3067,80.4365,36.2,48,0.0,998.7,8.9,37.1,102,49.1,40.2,0,5,10,1,2026-04-29T17:10:25.263897+05:30
Nellore,Andhra Pradesh,14.4426,79.9865,34.2,56,0.0,1001.0,9.25,38.2,104,30.3,23.9,0,5,4,1,2026-04-29T17:10:25.263904+05:30
Kurnool,Andhra Pradesh,15.8281,78.0373,41.0,18,0.0,971.3,8.8,33.8,161,56.0,40.5,0,5,10,0,2026-04-29T17:10:25.263912+05:30
Kakinada,Andhra Pradesh,16.9891,82.2475,36.3,42,0.0,1002.9,9.1,43.2,53,20.3,14.9,0,5,7,1,2026-04-29T17:10:25.263919+05:30
Tirupati,Andhra Pradesh,13.6288,79.4192,40.0,20,0.0,986.0,9.3,36.0,74,24.7,19.4,0,5,10,0,2026-04-29T17:10:25.263925+05:30
Warangal,Telangana,17.9689,79.5941,40.0,17,0.0,973.6,9.15,37.4,142,51.3,40.9,0,5,10,0,2026-04-29T17:10:25.263932+05:30
Nizamabad,Telangana,18.6725,78.0941,40.6,14,0.0,959.4,9.1,38.9,102,31.2,20.1,0,5,10,0,2026-04-29T17:10:25.263939+05:30
Mysore,Karnataka,12.2958,76.6396,34.3,28,0.0,925.8,9.35,46.1,138,50.5,33.3,0,5,7,0,2026-04-29T17:10:25.263945+05:30
Mangalore,Karnataka,12.9141,74.856,31.7,64,0.0,1003.8,9.1,43.2,75,55.1,22.9,3,5,4,1,2026-04-29T17:10:25.263952+05:30
Hubli-Dharwad,Karnataka,15.3647,75.124,29.3,55,0.0,938.1,9.0,52.2,114,44.6,31.3,4,5,7,1,2026-04-29T17:10:25.263958+05:30
Belgaum,Karnataka,15.8497,74.4977,30.9,54,0.0,923.1,9.2,49.3,93,34.0,21.1,0,5,7,1,2026-04-29T17:10:28.629215+05:30
Coimbatore,Tamil Nadu,11.0168,76.9558,33.6,42,0.0,958.7,9.3,46.8,106,31.3,22.9,0,5,7,1,2026-04-29T17:10:28.629246+05:30
Madurai,Tamil Nadu,9.9252,78.1198,32.3,55,0.0,990.9,8.35,44.6,110,19.3,17.2,0,5,7,1,2026-04-29T17:10:28.629256+05:30
Trichy,Tamil Nadu,10.7905,78.7047,35.1,46,0.0,995.9,9.2,46.8,70,12.5,11.3,0,5,10,1,2026-04-29T17:10:28.629264+05:30
Salem,Tamil Nadu,11.6643,78.146,38.7,22,0.0,972.9,8.85,42.8,117,25.4,18.5,0,5,10,0,2026-04-29T17:10:28.629272+05:30
Tirunelveli,Tamil Nadu,8.7139,77.7567,32.8,53,0.0,1000.8,8.5,34.6,62,12.7,11.4,0,5,4,1,2026-04-29T17:10:28.629279+05:30
Vellore,Tamil Nadu,12.9165,79.1325,38.5,24,0.0,979.9,9.35,40.7,77,22.5,18.5,0,5,10,0,2026-04-29T17:10:28.629286+05:30
Erode,Tamil Nadu,11.341,77.7172,39.2,21,0.0,984.3,8.65,52.2,114,24.6,17.6,0,5,10,0,2026-04-29T17:10:28.629293+05:30
Kochi,Kerala,9.9312,76.2673,30.2,72,0.0,1006.3,7.7,34.6,85,27.8,22.1,3,5,4,1,2026-04-29T17:10:28.629300+05:30
Thiruvananthapuram,Kerala,8.5241,76.9366,28.0,81,0.0,1006.3,8.05,26.3,48,9.5,6.7,7,5,4,1,2026-04-29T17:10:28.629308+05:30
Kozhikode,Kerala,11.2588,75.7804,30.5,72,0.0,1005.0,9.0,39.2,71,36.9,17.8,3,5,4,1,2026-04-29T17:10:28.629315+05:30
Thrissur,Kerala,10.5276,76.2144,30.5,72,0.0,1004.4,8.05,33.8,88,29.1,22.5,3,5,4,1,2026-04-29T17:10:28.629322+05:30
Kannur,Kerala,11.8745,75.3704,31.6,62,0.0,1004.3,9.0,49.0,83,46.8,21.4,3,5,4,1,2026-04-29T17:10:28.629329+05:30
Patna,Bihar,25.5941,85.1376,24.9,87,0.0,996.3,8.55,40.0,147,54.8,34.7,3,5,7,1,2026-04-29T17:10:28.629336+05:30
Gaya,Bihar,24.7914,85.0002,29.9,60,0.0,988.6,8.65,45.0,168,91.7,32.9,4,5,7,1,2026-04-29T17:10:28.629343+05:30
Muzaffarpur,Bihar,26.1209,85.3647,24.6,93,0.6,996.5,8.55,48.6,134,55.5,33.2,6,5,7,1,2026-04-29T17:10:28.629350+05:30
Bhagalpur,Bihar,25.2425,87.0117,27.8,73,0.0,997.9,8.55,47.5,70,26.8,20.4,7,5,7,1,2026-04-29T17:10:28.629356+05:30
Ranchi,Jharkhand,23.3441,85.3096,32.9,29,0.0,932.7,9.15,40.7,150,31.0,22.6,0,5,7,0,2026-04-29T17:10:28.629363+05:30
Jamshedpur,Jharkhand,22.8046,86.2029,35.4,31,0.0,984.4,8.95,43.9,202,41.1,35.4,0,5,10,0,2026-04-29T17:10:28.629370+05:30
Dhanbad,Jharkhand,23.7957,86.4304,35.0,38,0.0,974.1,8.9,49.7,165,61.5,51.6,0,5,7,1,2026-04-29T17:10:28.629377+05:30
Bokaro,Jharkhand,23.6693,86.1511,36.5,28,0.0,977.4,8.9,49.3,156,44.4,31.0,0,5,10,0,2026-04-29T17:10:28.629404+05:30
Bhubaneswar,Odisha,20.2961,85.8245,31.5,69,0.0,997.6,9.1,55.1,61,18.0,13.9,3,5,7,1,2026-04-29T17:10:28.629413+05:30
Cuttack,Odisha,20.4625,85.8828,32.4,66,0.0,999.1,9.1,48.6,61,18.0,13.9,3,5,7,1,2026-04-29T17:10:28.629420+05:30
Rourkela,Odisha,22.2604,84.8536,35.0,32,0.0,978.3,8.9,61.6,208,34.2,29.5,0,5,7,0,2026-04-29T17:10:28.629426+05:30
Raipur,Chhattisgarh,21.2514,81.6296,40.9,13,0.0,967.8,8.9,52.6,161,28.0,20.7,0,5,10,0,2026-04-29T17:10:28.629433+05:30
Bhilai,Chhattisgarh,21.1938,81.3509,40.0,13,0.0,968.3,8.9,55.1,148,28.5,20.0,0,5,10,0,2026-04-29T17:10:28.629439+05:30
Guwahati,Assam,26.1158,91.7086,24.5,88,0.0,999.1,7.15,30.6,71,14.6,13.3,3,5,7,1,2026-04-29T17:10:28.629445+05:30
Agartala,Tripura,23.8315,91.2868,25.5,84,0.0,1003.4,6.55,50.8,77,37.6,27.9,7,5,4,1,2026-04-29T17:10:28.629452+05:30
Shillong,Meghalaya,25.5788,91.8933,18.4,80,0.0,854.5,7.5,49.3,37,3.8,3.7,3,5,7,0,2026-04-29T17:10:28.629459+05:30
Imphal,Manipur,24.817,93.9368,22.2,75,0.0,921.2,6.15,29.5,87,58.2,26.6,3,5,7,1,2026-04-29T17:10:28.629466+05:30
Aizawl,Mizoram,23.7271,92.7176,20.8,75,0.0,889.7,6.2,40.0,80,49.7,28.3,3,5,7,1,2026-04-29T17:10:28.629472+05:30
Kohima,Nagaland,25.6701,94.1077,16.8,99,0.2,852.7,7.25,20.5,51,32.1,15.8,6,10,7,1,2026-04-29T17:10:28.629479+05:30
Gangtok,Sikkim,27.3314,88.6138,15.9,91,0.0,834.3,5.5,29.2,59,6.0,3.8,3,10,3,0,2026-04-29T17:10:28.629486+05:30
Siliguri,West Bengal,26.7271,88.3953,25.0,76,0.0,990.5,1.8,33.5,76,11.3,7.9,7,5,3,1,2026-04-29T17:10:31.964771+05:30
Durgapur,West Bengal,23.5204,87.3119,25.4,87,0.0,990.4,8.85,45.0,144,55.3,49.0,7,5,7,1,2026-04-29T17:10:31.964804+05:30
Asansol,West Bengal,23.6739,86.9524,28.4,73,0.0,988.7,8.85,47.5,155,60.3,53.8,7,5,7,1,2026-04-29T17:10:31.964815+05:30
Pondicherry,Puducherry,11.9139,79.8145,31.5,74,0.0,1004.8,9.05,54.0,53,16.9,12.7,3,5,4,1,2026-04-29T17:10:31.964823+05:30
Port Blair,Andaman and Nicobar Islands,11.6234,92.7265,31.4,59,0.0,1005.1,9.1,29.2,37,10.3,7.8,0,5,4,1,2026-04-29T17:10:31.964831+05:30
Haridwar,Uttarakhand,29.9457,78.1642,33.7,30,0.0,967.2,6.45,27.4,89,72.4,17.9,0,5,7,0,2026-04-29T17:10:31.964838+05:30
Rishikesh,Uttarakhand,30.0869,78.2676,31.5,36,0.0,960.4,6.85,29.9,84,99.2,19.9,0,5,7,0,2026-04-29T17:10:31.964845+05:30
Nainital,Uttarakhand,29.3919,79.4542,18.7,54,0.0,803.1,5.65,50.8,91,140.2,29.6,0,5,3,0,2026-04-29T17:10:31.964852+05:30
Mussoorie,Uttarakhand,30.4599,78.0664,18.7,42,0.0,800.6,5.9,42.1,73,54.6,14.1,0,5,3,0,2026-04-29T17:10:31.964859+05:30
Dharamshala,Himachal Pradesh,32.219,76.3234,21.2,46,0.0,865.9,7.95,50.8,64,26.5,9.2,0,5,7,0,2026-04-29T17:10:31.964866+05:30
Dalhousie,Himachal Pradesh,32.5387,75.971,17.2,53,0.0,801.8,7.5,54.4,72,34.0,11.4,0,5,7,0,2026-04-29T17:10:31.964875+05:30
Patiala,Punjab,30.3398,76.3869,33.0,28,0.0,972.2,7.35,52.6,139,529.0,56.2,0,5,7,0,2026-04-29T17:10:31.964882+05:30
Bhatinda,Punjab,30.211,74.9455,36.8,20,0.0,976.7,8.05,47.2,91,101.5,25.0,0,5,10,0,2026-04-29T17:10:31.964889+05:30
Rohtak,Haryana,28.8955,76.6066,38.1,13,0.0,974.1,7.45,34.6,299,246.8,43.2,0,5,10,0,2026-04-29T17:10:31.964896+05:30
Panipat,Haryana,29.3909,76.9635,37.2,18,0.0,973.0,7.3,38.5,677,370.7,52.0,0,5,10,0,2026-04-29T17:10:31.964904+05:30
Mathura,Uttar Pradesh,27.4924,77.6737,38.2,17,0.0,979.0,7.6,41.0,788,631.4,74.7,0,5,10,0,2026-04-29T17:10:31.964911+05:30
Vrindavan,Uttar Pradesh,27.5823,77.7027,38.2,17,0.0,979.4,7.5,40.3,788,631.4,74.7,0,5,10,0,2026-04-29T17:10:31.964917+05:30
Ayodhya,Uttar Pradesh,26.7922,82.1998,28.7,61,0.0,989.8,8.05,40.3,156,57.4,43.4,7,5,7,1,2026-04-29T17:10:31.964925+05:30
Ratlam,Madhya Pradesh,23.3315,75.0367,37.3,15,0.0,950.2,8.5,48.2,71,27.4,9.8,0,5,10,0,2026-04-29T17:10:31.964931+05:30
Sagar,Madhya Pradesh,23.8388,78.7378,39.1,11,0.0,943.7,8.65,45.4,54,33.5,9.8,0,5,10,0,2026-04-29T17:10:31.964938+05:30
Satna,Madhya Pradesh,24.6005,80.8322,39.2,14,0.0,964.2,8.6,47.2,88,16.5,9.3,0,5,10,0,2026-04-29T17:10:31.964945+05:30
Akola,Maharashtra,20.7002,77.0082,40.8,10,0.0,969.3,8.85,54.0,73,19.7,11.8,0,5,10,0,2026-04-29T17:10:31.964952+05:30
Amravati,Maharashtra,20.9374,77.7796,40.6,8,0.0,961.5,8.85,60.1,81,19.5,11.9,0,5,10,0,2026-04-29T17:10:31.964960+05:30
Latur,Maharashtra,18.4088,76.5604,39.7,13,0.0,935.8,9.05,29.2,78,25.3,15.8,0,5,10,0,2026-04-29T17:10:31.964967+05:30
Nanded,Maharashtra,19.1383,77.3091,41.2,13,0.0,963.1,9.0,34.6,82,25.8,17.3,0,5,10,0,2026-04-29T17:10:31.964974+05:30
Gulbarga,Karnataka,17.3297,76.8343,40.5,14,0.0,953.4,9.1,25.9,140,36.4,24.9,0,5,10,0,2026-04-29T17:10:31.964980+05:30
Bidar,Karnataka,17.9104,77.5199,38.7,16,0.0,931.7,9.15,32.0,107,31.2,20.1,0,5,10,0,2026-04-29T17:10:31.964986+05:30
Hospet,Karnataka,15.2689,76.3909,37.5,25,0.0,951.5,9.0,42.8,117,48.3,33.9,0,5,10,0,2026-04-29T17:10:31.964992+05:30
Tirupur,Tamil Nadu,11.1085,77.3411,38.5,22,0.0,970.9,8.95,50.8,128,30.3,20.7,0,5,10,0,2026-04-29T17:10:31.964999+05:30
Alappuzha,Kerala,9.4981,76.3388,29.0,78,0.0,1006.5,7.5,28.8,70,22.0,16.7,7,5,4,1,2026-04-29T17:10:31.965005+05:30
Munnar,Kerala,10.0889,77.0595,20.3,87,0.0,856.3,8.25,25.9,84,23.1,18.9,3,5,7,1,2026-04-29T17:10:31.965013+05:30
Silchar,Assam,24.8333,92.7789,25.3,74,0.0,1002.8,6.25,30.6,99,51.1,32.6,7,5,4,1,2026-04-29T17:10:31.965019+05:30
Dibrugarh,Assam,27.4728,94.912,23.6,91,0.1,994.3,6.3,31.3,113,33.8,26.7,6,5,7,1,2026-04-29T17:10:31.965027+05:30
