city,state,latitude,longitude,temp,humidity,rain,pressure,uv_index,wind_gusts,aqi,pm10,pm2_5,no2,co,o3,so2,mosquito_risk,arthritis_risk,migraine_risk,frizz_risk,updated_at
Delhi,Delhi,28.6139,77.209,37.6,39,0.1,977.7,6.1,34.2,721,637.0,126.2,2.6,207.0,160.0,12.6,3,5,10,1,2026-07-17T12:48:42.127545+05:30
Mumbai,Maharashtra,19.076,72.8777,28.8,79,0.1,1007.8,7.5,33.8,69,36.8,19.4,6.0,197.0,83.0,9.1,10,5,4,1,2026-07-17T12:48:42.127602+05:30
Bangalore,Karnataka,12.9716,77.5946,24.3,69,0.1,912.5,5.75,46.1,58,16.0,7.5,6.2,197.0,53.0,2.9,6,5,3,1,2026-07-17T12:48:42.127618+05:30
Hyderabad,Telangana,17.385,78.4867,27.3,75,0.0,952.5,5.35,36.7,68,17.5,11.4,7.4,183.0,44.0,5.7,7,5,3,1,2026-07-17T12:48:42.127627+05:30
Chennai,Tamil Nadu,13.0827,80.2707,35.8,40,0.0,1006.1,7.85,41.0,78,35.2,23.8,4.3,161.0,133.0,7.8,0,5,7,1,2026-07-17T12:48:42.127635+05:30
Kolkata,West Bengal,22.5726,88.3639,31.5,77,0.0,998.4,7.45,34.2,60,27.7,17.2,2.8,314.0,124.0,8.4,3,5,7,1,2026-07-17T12:48:42.127642+05:30
Pune,Maharashtra,18.5204,73.8567,28.1,66,0.1,947.5,7.25,45.4,43,9.4,4.9,2.0,133.0,61.0,3.3,10,5,7,1,2026-07-17T12:48:42.127650+05:30
Ahmedabad,Gujarat,23.0225,72.5714,35.4,46,0.0,999.0,7.85,41.0,72,52.4,20.1,1.8,128.0,83.0,4.3,0,5,10,1,2026-07-17T12:48:42.127656+05:30
Jaipur,Rajasthan,26.9124,75.7873,36.1,40,0.0,956.7,8.05,40.0,318,519.7,86.4,1.3,142.0,105.0,3.4,0,5,10,1,2026-07-17T12:48:42.127663+05:30
Lucknow,Uttar Pradesh,26.8467,80.9462,33.5,67,0.0,988.1,7.25,26.3,156,146.2,59.6,2.1,242.0,161.0,9.5,3,5,7,1,2026-07-17T12:48:42.127673+05:30
Kanpur,Uttar Pradesh,26.4499,80.3319,34.9,60,0.0,986.3,8.1,30.2,169,177.0,70.5,3.8,196.0,167.0,9.1,0,5,7,1,2026-07-17T12:48:42.127680+05:30
Chandigarh,Chandigarh,30.7333,76.7794,34.8,49,0.0,963.5,7.6,32.0,152,79.9,50.8,2.2,483.0,206.0,14.4,0,5,7,1,2026-07-17T12:48:42.127686+05:30
Srinagar,Jammu and Kashmir,34.0837,74.7973,31.4,42,0.0,840.8,9.05,19.1,102,32.5,24.4,1.3,367.0,169.0,3.3,0,5,7,1,2026-07-17T12:48:42.127693+05:30
Jammu,Jammu and Kashmir,32.7266,74.857,34.0,60,0.0,967.3,7.7,34.6,152,120.1,63.3,1.5,299.0,180.0,9.4,0,5,7,1,2026-07-17T12:48:42.127699+05:30
Amritsar,Punjab,31.634,74.8723,34.8,60,0.0,975.2,8.35,20.9,171,134.6,62.2,2.6,392.0,202.0,11.3,0,5,7,1,2026-07-17T12:48:42.127705+05:30
Ludhiana,Punjab,30.901,75.8573,36.7,43,0.1,973.3,7.2,32.8,180,181.6,72.6,1.4,398.0,200.0,7.7,3,5,10,1,2026-07-17T12:48:42.127711+05:30
Jalandhar,Punjab,31.326,75.5762,35.1,57,0.0,974.2,8.15,26.6,187,127.6,65.9,1.5,359.0,213.0,7.8,0,5,10,1,2026-07-17T12:48:42.127717+05:30
Dehradun,Uttarakhand,30.6284,78.0322,24.7,70,0.0,830.2,6.4,27.0,91,33.4,26.6,0.9,295.0,159.0,5.5,3,5,7,1,2026-07-17T12:48:42.127723+05:30
Shimla,Himachal Pradesh,31.1048,77.1734,23.4,58,0.0,786.2,6.85,41.4,105,45.2,31.0,1.0,289.0,154.0,5.7,0,5,7,0,2026-07-17T12:48:42.127729+05:30
Manali,Himachal Pradesh,32.2396,77.1887,26.7,61,0.0,819.8,7.05,33.1,51,14.0,7.5,0.4,186.0,150.0,1.1,7,5,7,1,2026-07-17T12:48:42.127737+05:30
Gurgaon,Haryana,28.4595,77.0266,37.7,38,0.0,976.3,5.9,39.2,544,979.8,172.3,3.5,166.0,143.0,11.5,0,5,6,1,2026-07-17T12:48:42.127744+05:30
Noida,Uttar Pradesh,28.5355,77.391,37.2,43,0.1,978.9,7.7,27.4,544,979.8,172.3,3.5,231.0,143.0,11.5,3,5,10,1,2026-07-17T12:48:42.127750+05:30
Ghaziabad,Uttar Pradesh,28.6692,77.4538,36.0,48,0.1,977.1,7.7,29.5,581,341.8,103.4,4.8,194.0,208.0,25.0,3,5,10,1,2026-07-17T12:48:42.127756+05:30
Faridabad,Haryana,28.4089,77.3178,37.6,39,0.0,978.2,6.05,34.9,544,979.8,172.3,3.5,186.0,143.0,11.5,0,5,10,1,2026-07-17T12:48:42.127765+05:30
Meerut,Uttar Pradesh,28.9845,77.7064,34.8,55,0.0,976.1,7.0,33.8,581,341.8,103.4,4.8,171.0,208.0,25.0,0,5,7,1,2026-07-17T12:48:42.127771+05:30
Agra,Uttar Pradesh,27.1767,78.0081,37.3,43,0.0,982.7,6.8,36.7,151,441.4,94.5,1.8,157.0,134.0,4.3,0,5,10,1,2026-07-17T12:48:42.127777+05:30
Varanasi,Uttar Pradesh,25.3176,82.9739,34.4,64,0.0,991.2,6.15,25.9,155,25.5,22.5,2.7,285.0,147.0,7.6,3,5,7,1,2026-07-17T12:48:42.127784+05:30
Prayagraj,Uttar Pradesh,25.4358,81.8463,32.4,75,0.1,990.1,7.8,26.6,157,64.0,38.8,3.7,187.0,154.0,6.9,6,5,7,1,2026-07-17T12:48:42.127790+05:30
Gorakhpur,Uttar Pradesh,26.7606,83.3732,33.1,69,0.0,991.3,6.8,23.8,81,36.4,33.5,3.9,326.0,151.0,6.9,3,5,7,1,2026-07-17T12:48:42.127796+05:30
Bareilly,Uttar Pradesh,28.367,79.4304,31.0,81,0.0,981.3,7.2,27.7,166,161.1,69.2,4.4,324.0,174.0,17.8,3,5,7,1,2026-07-17T12:48:42.127804+05:30
Aligarh,Uttar Pradesh,27.8974,78.088,35.6,52,0.0,980.2,7.2,26.6,305,769.3,167.6,3.4,193.0,176.0,18.5,0,5,10,1,2026-07-17T12:48:42.127811+05:30
Moradabad,Uttar Pradesh,28.8386,78.7733,32.6,76,0.0,978.0,7.35,29.9,183,186.7,76.4,3.4,328.0,193.0,16.8,3,5,7,1,2026-07-17T12:48:42.127817+05:30
Saharanpur,Uttar Pradesh,29.9637,77.546,34.4,57,0.0,970.1,6.8,39.2,168,101.5,65.0,2.7,436.0,226.0,18.9,0,5,7,1,2026-07-17T12:48:42.127823+05:30
Jhansi,Uttar Pradesh,25.4484,78.5685,33.6,54,0.0,974.1,7.45,31.0,88,87.1,34.1,1.6,148.0,110.0,5.0,0,5,7,1,2026-07-17T12:48:45.562367+05:30
Surat,Gujarat,21.1702,72.8311,30.8,72,0.0,1004.8,7.7,42.8,76,28.8,19.7,13.2,342.0,46.0,44.3,3,5,4,1,2026-07-17T12:48:45.562394+05:30
Vadodara,Gujarat,22.3072,73.1812,32.9,61,0.0,1001.7,5.55,43.6,70,39.0,18.9,2.5,136.0,85.0,6.2,3,5,0,1,2026-07-17T12:48:45.562404+05:30
Rajkot,Gujarat,22.3039,70.8022,32.3,57,0.1,991.4,6.85,42.1,65,39.8,17.1,1.1,102.0,78.0,4.2,3,5,7,1,2026-07-17T12:48:45.562412+05:30
Thane,Maharashtra,19.2183,72.9781,28.3,80,0.0,1007.1,6.75,31.7,69,36.8,19.4,6.0,223.0,83.0,9.1,7,5,4,1,2026-07-17T12:48:45.562420+05:30
Nagpur,Maharashtra,21.1458,79.0882,28.6,77,0.3,971.2,1.7,25.2,89,27.1,19.3,10.6,142.0,70.0,19.6,10,5,3,1,2026-07-17T12:48:45.562427+05:30
Nashik,Maharashtra,19.9975,73.7898,28.0,71,0.1,944.4,7.75,47.2,53,14.0,7.7,2.3,125.0,60.0,3.2,10,5,7,1,2026-07-17T12:48:45.562434+05:30
Aurangabad,Maharashtra,19.8762,75.3433,30.6,54,0.0,942.9,7.85,44.6,60,18.4,9.4,1.2,120.0,86.0,6.2,0,5,7,1,2026-07-17T12:48:45.562441+05:30
Solapur,Maharashtra,17.6599,75.9064,32.1,51,0.0,956.5,6.0,34.2,54,13.2,6.1,1.1,113.0,71.0,1.8,0,5,3,1,2026-07-17T12:48:45.562448+05:30
Kolhapur,Maharashtra,16.705,74.2433,25.9,76,0.0,948.3,8.1,46.8,42,9.3,5.0,1.9,118.0,59.0,1.7,7,5,7,1,2026-07-17T12:48:45.562455+05:30
Goa,Goa,15.2993,74.124,26.7,83,0.0,999.9,7.85,31.7,63,27.4,12.7,0.9,126.0,60.0,1.1,7,5,7,1,2026-07-17T12:48:45.562462+05:30
Jodhpur,Rajasthan,26.2389,73.0243,36.5,38,0.0,979.5,8.4,43.6,131,222.1,48.2,0.6,109.0,81.0,2.6,0,5,10,1,2026-07-17T12:48:45.562469+05:30
Udaipur,Rajasthan,24.5854,73.7125,31.1,54,0.1,944.3,8.75,34.2,80,38.1,17.0,0.9,106.0,81.0,3.0,3,5,7,1,2026-07-17T12:48:45.562476+05:30
Kota,Rajasthan,25.2138,75.8648,36.1,44,0.0,975.5,7.55,32.4,88,63.8,28.5,1.4,130.0,111.0,6.9,0,5,10,1,2026-07-17T12:48:45.562483+05:30
Bikaner,Rajasthan,28.0229,73.3119,38.3,33,0.0,977.1,8.4,39.2,135,143.0,48.2,0.4,102.0,78.0,2.3,0,5,10,1,2026-07-17T12:48:45.562489+05:30
Ajmer,Rajasthan,26.4499,74.6399,33.1,49,0.0,952.1,8.3,45.7,85,84.8,31.1,0.9,116.0,94.0,2.8,0,5,7,1,2026-07-17T12:48:45.562496+05:30
Gwalior,Madhya Pradesh,26.2183,78.1828,33.7,53,0.0,978.8,7.15,41.0,96,124.8,39.7,1.2,140.0,116.0,3.0,0,5,7,1,2026-07-17T12:48:45.562502+05:30
Indore,Madhya Pradesh,22.7196,75.8577,31.6,52,0.0,946.5,8.6,39.2,75,32.7,16.9,1.5,172.0,95.0,5.1,0,5,7,1,2026-07-17T12:48:45.562509+05:30
Bhopal,Madhya Pradesh,23.2599,77.4126,31.6,54,0.0,951.7,8.3,33.5,84,51.7,25.1,1.6,173.0,100.0,6.9,0,5,7,1,2026-07-17T12:48:45.562515+05:30
Jabalpur,Madhya Pradesh,23.1815,79.9864,29.4,74,0.1,958.2,3.6,38.5,85,51.5,30.6,2.0,167.0,111.0,5.7,10,5,3,1,2026-07-17T12:48:45.562522+05:30
Ujjain,Madhya Pradesh,23.1765,75.7885,31.4,57,0.1,951.7,7.9,38.9,76,34.0,17.6,1.1,145.0,95.0,5.1,3,5,7,1,2026-07-17T12:48:45.562529+05:30
Visakhapatnam,Andhra Pradesh,17.6868,83.2185,32.4,62,0.0,999.3,7.8,45.4,90,45.6,25.5,6.6,334.0,119.0,21.0,3,5,7,1,2026-07-17T12:48:45.562535+05:30
Vijayawada,Andhra Pradesh,16.5062,80.648,33.5,56,0.0,1000.0,2.6,40.7,83,40.9,25.0,3.8,178.0,95.0,7.2,0,5,0,1,2026-07-17T12:48:45.562542+05:30
Guntur,Andhra Pradesh,16.3067,80.4365,34.1,49,0.0,1001.3,3.65,43.9,79,34.1,20.1,2.3,145.0,94.0,6.2,0,5,0,1,2026-07-17T12:48:45.562549+05:30
Nellore,Andhra Pradesh,14.4426,79.9865,35.1,45,0.0,1004.1,5.5,45.4,68,23.3,11.4,1.7,109.0,88.0,4.9,0,5,3,1,2026-07-17T12:48:45.562556+05:30
Kurnool,Andhra Pradesh,15.8281,78.0373,30.4,58,0.0,976.7,5.55,41.8,62,21.4,9.9,1.6,113.0,75.0,4.8,0,5,3,1,2026-07-17T12:48:45.562563+05:30
Kakinada,Andhra Pradesh,16.9891,82.2475,34.0,56,0.0,1003.9,8.15,49.3,78,66.8,33.5,2.1,165.0,119.0,6.8,0,5,4,1,2026-07-17T12:48:45.562589+05:30
Tirupati,Andhra Pradesh,13.6288,79.4192,35.7,39,0.0,989.9,7.0,38.5,79,26.5,10.3,1.9,111.0,73.0,1.3,0,5,10,1,2026-07-17T12:48:45.562598+05:30
Warangal,Telangana,17.9689,79.5941,30.5,66,0.0,977.0,5.65,38.9,86,28.3,20.2,5.1,194.0,64.0,5.4,3,5,3,1,2026-07-17T12:48:45.562605+05:30
Nizamabad,Telangana,18.6725,78.0941,29.6,68,0.0,963.9,1.95,36.0,76,36.2,18.3,1.3,120.0,92.0,5.8,7,5,3,1,2026-07-17T12:48:45.562612+05:30
Mysore,Karnataka,12.2958,76.6396,24.1,83,0.0,929.8,2.7,48.6,48,12.4,5.7,1.6,117.0,69.0,1.4,3,5,3,1,2026-07-17T12:48:45.562619+05:30
Mangalore,Karnataka,12.9141,74.856,24.8,92,0.0,1009.6,1.2,31.3,55,19.6,9.6,1.8,131.0,62.0,2.2,3,0,0,1,2026-07-17T12:48:45.562625+05:30
Hubli-Dharwad,Karnataka,15.3647,75.124,25.3,77,0.0,941.6,8.25,47.2,35,6.9,3.4,1.1,110.0,57.0,0.9,7,5,7,1,2026-07-17T12:48:45.562632+05:30
Belgaum,Karnataka,15.8497,74.4977,24.1,81,0.0,926.2,8.7,49.7,36,10.1,4.8,1.2,111.0,54.0,1.3,3,5,7,1,2026-07-17T12:48:48.959182+05:30
Coimbatore,Tamil Nadu,11.0168,76.9558,26.7,71,0.0,963.2,8.5,47.2,52,16.5,7.7,1.0,131.0,70.0,1.6,7,5,7,1,2026-07-17T12:48:48.959214+05:30
Madurai,Tamil Nadu,9.9252,78.1198,34.2,39,0.0,993.4,8.6,37.1,73,28.0,12.3,1.2,116.0,103.0,2.5,0,5,7,1,2026-07-17T12:48:48.959228+05:30
Trichy,Tamil Nadu,10.7905,78.7047,34.4,40,0.0,1000.2,8.8,62.6,62,21.0,10.0,1.5,112.0,77.0,2.2,0,5,4,1,2026-07-17T12:48:48.959238+05:30
Salem,Tamil Nadu,11.6643,78.146,30.2,55,0.0,978.6,7.3,30.2,71,26.0,14.5,3.9,158.0,96.0,8.3,0,5,7,1,2026-07-17T12:48:48.959248+05:30
Tirunelveli,Tamil Nadu,8.7139,77.7567,37.5,32,0.0,1003.5,8.25,46.4,53,13.0,6.8,0.9,129.0,75.0,1.3,0,5,7,1,2026-07-17T12:48:48.959256+05:30
Vellore,Tamil Nadu,12.9165,79.1325,35.7,37,0.0,983.7,7.65,43.2,76,20.5,10.6,1.6,156.0,91.0,2.8,0,5,10,1,2026-07-17T12:48:48.959266+05:30
Erode,Tamil Nadu,11.341,77.7172,29.9,56,0.0,990.4,8.8,39.6,60,18.6,10.2,1.5,150.0,95.0,2.1,4,5,7,1,2026-07-17T12:48:48.959276+05:30
Kochi,Kerala,9.9312,76.2673,27.9,77,0.0,1011.7,7.7,31.0,62,16.5,8.9,2.1,136.0,65.0,2.6,7,0,4,1,2026-07-17T12:48:48.959285+05:30
Thiruvananthapuram,Kerala,8.5241,76.9366,29.0,74,0.0,1010.5,8.35,47.2,62,24.3,13.5,1.8,105.0,80.0,1.6,7,0,4,1,2026-07-17T12:48:48.959294+05:30
Kozhikode,Kerala,11.2588,75.7804,26.5,87,0.0,1011.1,1.4,27.0,55,18.8,8.6,0.5,122.0,66.0,1.3,7,0,0,1,2026-07-17T12:48:48.959302+05:30
Thrissur,Kerala,10.5276,76.2144,28.2,75,0.0,1010.0,3.9,32.0,58,14.8,7.9,1.1,113.0,63.0,1.5,7,0,0,1,2026-07-17T12:48:48.959311+05:30
Kannur,Kerala,11.8745,75.3704,27.0,84,0.1,1010.2,1.9,30.2,55,21.4,9.9,0.8,178.0,71.0,1.5,10,0,0,1,2026-07-17T12:48:48.959318+05:30
Patna,Bihar,25.5941,85.1376,33.4,67,0.0,993.5,8.45,27.4,98,19.2,18.4,3.3,249.0,129.0,6.9,3,5,7,1,2026-07-17T12:48:48.959325+05:30
Gaya,Bihar,24.7914,85.0002,33.4,65,0.0,987.0,7.4,23.0,99,16.6,16.2,2.2,255.0,134.0,8.6,3,5,7,1,2026-07-17T12:48:48.959332+05:30
Muzaffarpur,Bihar,26.1209,85.3647,31.0,77,0.3,993.9,7.4,30.6,95,20.6,19.9,3.3,219.0,122.0,4.2,6,5,7,1,2026-07-17T12:48:48.959338+05:30
Bhagalpur,Bihar,25.2425,87.0117,33.5,66,0.0,994.0,7.7,30.2,73,17.0,14.3,3.0,269.0,129.0,9.6,3,5,7,1,2026-07-17T12:48:48.959345+05:30
Ranchi,Jharkhand,23.3441,85.3096,29.6,70,0.1,932.3,8.85,27.4,72,12.3,12.0,6.0,284.0,114.0,14.5,10,5,7,1,2026-07-17T12:48:48.959352+05:30
Jamshedpur,Jharkhand,22.8046,86.2029,30.0,77,0.2,983.7,8.7,22.7,85,13.7,13.5,7.0,252.0,115.0,23.9,10,5,7,1,2026-07-17T12:48:48.959358+05:30
Dhanbad,Jharkhand,23.7957,86.4304,32.1,72,0.0,973.0,7.15,20.2,93,23.9,23.3,18.3,221.0,122.0,56.6,3,5,7,1,2026-07-17T12:48:48.959365+05:30
Bokaro,Jharkhand,23.6693,86.1511,32.0,72,0.0,976.8,7.7,26.3,93,20.1,19.8,19.0,222.0,122.0,61.1,3,5,7,1,2026-07-17T12:48:48.959372+05:30
Bhubaneswar,Odisha,20.2961,85.8245,30.4,74,0.2,996.3,7.55,37.1,76,8.2,6.6,1.6,184.0,110.0,2.9,6,5,7,1,2026-07-17T12:48:48.959378+05:30
Cuttack,Odisha,20.4625,85.8828,31.1,73,0.0,997.8,7.5,33.8,76,8.2,6.6,1.6,226.0,110.0,2.9,3,5,7,1,2026-07-17T12:48:48.959384+05:30
Rourkela,Odisha,22.2604,84.8536,32.7,65,0.0,978.2,6.45,27.0,77,16.4,14.7,3.4,289.0,112.0,9.2,3,5,7,1,2026-07-17T12:48:48.959391+05:30
Raipur,Chhattisgarh,21.2514,81.6296,28.1,82,0.1,970.7,1.05,41.4,108,37.6,31.2,35.6,253.0,37.0,54.8,10,5,3,1,2026-07-17T12:48:48.959397+05:30
Bhilai,Chhattisgarh,21.1938,81.3509,27.5,91,0.0,971.4,2.5,41.4,101,34.2,28.4,26.8,882.0,49.0,45.9,7,5,3,1,2026-07-17T12:48:48.959404+05:30
Guwahati,Assam,26.1158,91.7086,31.6,71,0.0,995.2,7.3,24.5,57,17.0,11.6,1.0,243.0,106.0,2.2,3,5,7,1,2026-07-17T12:48:48.959410+05:30
Agartala,Tripura,23.8315,91.2868,29.6,83,0.0,1001.0,7.55,51.8,60,11.9,8.2,2.5,149.0,86.0,1.7,7,5,4,1,2026-07-17T12:48:48.959417+05:30
Shillong,Meghalaya,25.5788,91.8933,24.6,74,0.0,855.1,4.4,48.2,38,7.1,5.1,1.3,166.0,96.0,2.3,3,5,3,1,2026-07-17T12:48:48.959424+05:30
Imphal,Manipur,24.817,93.9368,26.0,79,0.1,920.5,5.3,20.5,59,22.4,11.9,0.8,143.0,87.0,1.6,10,5,3,1,2026-07-17T12:48:48.959430+05:30
Aizawl,Mizoram,23.7271,92.7176,22.4,88,0.1,889.9,6.15,42.5,55,19.4,10.6,0.4,117.0,79.0,1.7,6,5,7,1,2026-07-17T12:48:48.959437+05:30
Kohima,Nagaland,25.6701,94.1077,23.4,89,0.0,853.2,3.25,23.0,47,26.9,13.8,0.5,148.0,90.0,1.9,3,5,3,1,2026-07-17T12:48:48.959443+05:30
Gangtok,Sikkim,27.3314,88.6138,24.5,69,0.1,836.4,6.75,30.6,43,7.6,5.6,1.7,200.0,99.0,1.7,6,5,7,1,2026-07-17T12:48:48.959450+05:30
Siliguri,West Bengal,26.7271,88.3953,32.3,70,0.0,986.8,7.85,29.2,69,21.5,13.5,1.4,221.0,115.0,3.1,3,5,7,1,2026-07-17T12:48:52.338198+05:30
Durgapur,West Bengal,23.5204,87.3119,32.8,72,0.0,987.2,8.55,28.4,79,18.0,17.5,16.1,300.0,105.0,36.4,3,5,7,1,2026-07-17T12:48:52.338225+05:30
Asansol,West Bengal,23.6739,86.9524,32.8,71,0.0,986.0,8.05,29.5,76,21.9,21.2,15.7,274.0,119.0,41.8,3,5,7,1,2026-07-17T12:48:52.338235+05:30
Pondicherry,Puducherry,11.9139,79.8145,35.0,42,0.0,1007.7,8.8,38.5,75,35.0,23.6,3.7,182.0,131.0,11.3,0,5,4,1,2026-07-17T12:48:52.338243+05:30
Port Blair,Andaman and Nicobar Islands,11.6234,92.7265,30.2,74,0.0,1007.8,7.3,37.8,45,11.6,5.7,0.2,89.0,47.0,0.5,3,5,4,1,2026-07-17T12:48:52.338251+05:30
Haridwar,Uttarakhand,29.9457,78.1642,33.7,68,0.0,968.6,7.35,26.3,160,99.2,60.5,1.7,357.0,207.0,12.8,3,5,7,1,2026-07-17T12:48:52.338259+05:30
Rishikesh,Uttarakhand,30.0869,78.2676,32.6,70,0.0,961.6,7.4,25.9,137,91.3,50.6,1.1,358.0,182.0,9.8,3,5,7,1,2026-07-17T12:48:52.338266+05:30
Nainital,Uttarakhand,29.3919,79.4542,24.1,63,0.1,806.0,6.15,28.8,136,91.7,44.9,1.2,288.0,162.0,9.0,6,5,7,1,2026-07-17T12:48:52.338273+05:30
Mussoorie,Uttarakhand,30.4599,78.0664,23.2,71,0.0,803.4,6.65,39.2,132,55.1,43.9,1.6,306.0,186.0,11.1,3,5,7,1,2026-07-17T12:48:52.338279+05:30
Dharamshala,Himachal Pradesh,32.219,76.3234,25.2,81,0.1,867.6,8.15,31.0,87,35.6,26.0,0.9,327.0,152.0,2.5,10,5,7,1,2026-07-17T12:48:52.338287+05:30
Dalhousie,Himachal Pradesh,32.5387,75.971,21.4,85,0.2,804.8,7.8,24.8,126,66.1,43.9,1.6,307.0,177.0,4.7,6,5,7,1,2026-07-17T12:48:52.338295+05:30
Patiala,Punjab,30.3398,76.3869,34.4,54,0.1,973.0,6.6,31.7,195,287.8,93.4,2.0,268.0,206.0,12.5,3,5,7,1,2026-07-17T12:48:52.338301+05:30
Bhatinda,Punjab,30.211,74.9455,38.7,35,0.1,978.2,7.65,30.6,177,153.7,54.9,1.5,172.0,135.0,7.0,3,5,10,1,2026-07-17T12:48:52.338308+05:30
Rohtak,Haryana,28.8955,76.6066,36.5,43,0.0,976.5,6.55,33.8,883,1031.9,167.2,1.1,149.0,123.0,4.3,0,5,10,1,2026-07-17T12:48:52.338315+05:30
Panipat,Haryana,29.3909,76.9635,35.0,54,0.0,975.0,7.5,31.7,1241,886.6,150.9,2.2,158.0,144.0,12.6,0,5,7,1,2026-07-17T12:48:52.338322+05:30
Mathura,Uttar Pradesh,27.4924,77.6737,36.1,48,0.1,981.6,7.25,32.0,661,1665.2,236.1,1.5,154.0,123.0,3.5,3,5,10,1,2026-07-17T12:48:52.338328+05:30
Vrindavan,Uttar Pradesh,27.5823,77.7027,36.0,49,0.1,982.0,7.05,31.7,661,1665.2,236.1,1.5,149.0,123.0,3.5,3,5,10,1,2026-07-17T12:48:52.338335+05:30
Ayodhya,Uttar Pradesh,26.7922,82.1998,32.9,70,0.0,989.7,8.15,18.4,114,16.6,16.1,2.5,312.0,137.0,3.9,3,5,7,1,2026-07-17T12:48:52.338341+05:30
Ratlam,Madhya Pradesh,23.3315,75.0367,30.6,61,0.1,952.6,8.5,34.6,74,34.0,17.3,1.0,119.0,94.0,4.7,6,5,7,1,2026-07-17T12:48:52.338348+05:30
Sagar,Madhya Pradesh,23.8388,78.7378,29.6,73,0.0,947.6,7.7,39.6,86,51.8,27.6,1.7,141.0,110.0,6.7,7,5,7,1,2026-07-17T12:48:52.338358+05:30
Satna,Madhya Pradesh,24.6005,80.8322,27.7,88,0.1,967.1,8.45,41.4,131,132.7,44.4,1.5,175.0,113.0,4.5,10,5,7,1,2026-07-17T12:48:52.338368+05:30
Akola,Maharashtra,20.7002,77.0082,33.2,50,0.0,973.4,8.65,42.1,69,39.6,18.0,1.7,114.0,79.0,6.4,0,5,7,1,2026-07-17T12:48:52.338375+05:30
Amravati,Maharashtra,20.9374,77.7796,31.1,56,0.0,965.7,7.8,39.6,70,41.6,18.9,2.4,117.0,74.0,7.5,0,5,7,1,2026-07-17T12:48:52.338382+05:30
Latur,Maharashtra,18.4088,76.5604,30.5,58,0.0,939.2,8.15,35.3,61,17.6,8.1,0.7,113.0,69.0,2.0,0,5,7,1,2026-07-17T12:48:52.338389+05:30
Nanded,Maharashtra,19.1383,77.3091,31.3,59,0.0,967.6,8.4,33.8,72,30.6,15.0,1.2,118.0,85.0,4.1,0,5,7,1,2026-07-17T12:48:52.338395+05:30
Gulbarga,Karnataka,17.3297,76.8343,28.1,68,0.0,958.3,7.7,41.8,56,13.9,6.9,1.6,110.0,71.0,2.4,7,5,7,1,2026-07-17T12:48:52.338402+05:30
Bidar,Karnataka,17.9104,77.5199,28.2,65,0.0,934.8,7.95,31.0,72,25.5,12.3,2.0,124.0,66.0,2.5,7,5,7,1,2026-07-17T12:48:52.338408+05:30
Hospet,Karnataka,15.2689,76.3909,27.3,66,0.0,956.4,4.4,48.2,42,16.5,6.4,1.3,115.0,67.0,1.7,7,5,3,1,2026-07-17T12:48:52.338414+05:30
Tirupur,Tamil Nadu,11.1085,77.3411,29.2,60,0.0,976.7,8.55,49.0,62,20.1,10.6,1.4,156.0,92.0,2.3,4,5,7,1,2026-07-17T12:48:52.338421+05:30
Alappuzha,Kerala,9.4981,76.3388,27.6,78,0.0,1011.8,7.85,37.8,62,22.9,12.3,1.8,118.0,76.0,2.8,7,0,4,1,2026-07-17T12:48:52.338427+05:30
Munnar,Kerala,10.0889,77.0595,18.0,92,0.1,858.7,9.0,38.9,47,12.5,5.7,0.7,99.0,60.0,1.0,6,10,7,1,2026-07-17T12:48:52.338434+05:30
Silchar,Assam,24.8333,92.7789,29.1,82,0.2,1001.1,8.7,34.9,69,24.9,14.6,0.9,148.0,96.0,2.7,10,5,4,1,2026-07-17T12:48:52.338440+05:30
Dibrugarh,Assam,27.4728,94.912,31.3,73,0.1,989.1,3.65,38.5,52,21.9,14.6,1.2,170.0,113.0,2.0,6,5,3,1,2026-07-17T12:48:52.338446+05:30
