city,state,latitude,longitude,temp,humidity,rain,pressure,uv_index,wind_gusts,aqi,pm10,pm2_5,mosquito_risk,arthritis_risk,migraine_risk,frizz_risk,updated_at
Delhi,Delhi,28.6139,77.209,33.6,41,0.0,986.9,5.35,27.7,165,221.2,61.9,0,5,3,1,2026-03-09T14:20:54.680933+05:30
Mumbai,Maharashtra,19.076,72.8777,28.2,78,0.0,1008.4,7.55,24.1,137,60.3,59.3,7,0,4,1,2026-03-09T14:20:54.680973+05:30
Bangalore,Karnataka,12.9716,77.5946,31.5,28,0.0,913.1,9.25,37.4,100,43.4,32.8,0,5,7,0,2026-03-09T14:20:54.680989+05:30
Hyderabad,Telangana,17.385,78.4867,34.8,25,0.0,955.9,8.55,30.2,99,41.1,32.9,0,5,7,0,2026-03-09T14:20:54.680999+05:30
Chennai,Tamil Nadu,13.0827,80.2707,30.7,55,0.0,1010.1,8.95,33.1,84,57.6,41.3,0,0,4,1,2026-03-09T14:20:54.681007+05:30
Kolkata,West Bengal,22.5726,88.3639,30.4,58,0.0,1010.1,7.9,16.6,145,61.0,48.8,0,0,4,1,2026-03-09T14:20:54.681017+05:30
Pune,Maharashtra,18.5204,73.8567,37.9,15,0.0,950.4,8.1,31.0,82,17.9,14.8,0,5,10,0,2026-03-09T14:20:54.681029+05:30
Ahmedabad,Gujarat,23.0225,72.5714,39.0,16,0.0,1005.2,7.4,18.4,61,16.4,11.4,0,5,7,0,2026-03-09T14:20:54.681038+05:30
Jaipur,Rajasthan,26.9124,75.7873,37.8,10,0.0,964.0,6.8,29.2,81,84.3,13.8,0,5,10,0,2026-03-09T14:20:54.681045+05:30
Lucknow,Uttar Pradesh,26.8467,80.9462,33.4,39,0.0,997.3,6.55,20.5,177,171.4,51.8,0,5,7,1,2026-03-09T14:20:54.681053+05:30
Kanpur,Uttar Pradesh,26.4499,80.3319,33.7,42,0.0,995.6,6.55,18.0,164,200.7,44.8,0,5,7,1,2026-03-09T14:20:54.681061+05:30
Chandigarh,Chandigarh,30.7333,76.7794,32.3,41,0.0,972.7,5.95,28.1,114,41.4,21.7,0,5,3,1,2026-03-09T14:20:54.681069+05:30
Srinagar,Jammu and Kashmir,34.0837,74.7973,17.9,45,0.0,847.2,6.3,25.9,136,56.0,28.5,0,5,7,0,2026-03-09T14:20:54.681076+05:30
Jammu,Jammu and Kashmir,32.7266,74.857,31.1,37,0.0,976.6,6.55,20.9,91,41.9,21.6,0,5,7,0,2026-03-09T14:20:54.681084+05:30
Amritsar,Punjab,31.634,74.8723,31.6,48,0.0,984.7,6.5,16.9,159,78.7,48.1,0,5,7,1,2026-03-09T14:20:54.681090+05:30
Ludhiana,Punjab,30.901,75.8573,32.5,41,0.0,982.8,6.1,22.7,154,68.2,44.6,0,5,7,1,2026-03-09T14:20:54.681097+05:30
Jalandhar,Punjab,31.326,75.5762,31.7,45,0.0,983.7,6.35,20.9,157,74.7,44.0,0,5,7,1,2026-03-09T14:20:54.681105+05:30
Dehradun,Uttarakhand,30.6284,78.0322,23.2,44,0.0,835.8,6.3,29.9,73,32.9,16.6,0,5,7,0,2026-03-09T14:20:54.681112+05:30
Shimla,Himachal Pradesh,31.1048,77.1734,22.6,30,0.0,791.7,6.35,50.4,72,21.9,8.7,0,5,7,0,2026-03-09T14:20:54.681119+05:30
Manali,Himachal Pradesh,32.2396,77.1887,25.8,18,0.0,826.8,8.05,35.6,66,21.7,8.5,4,5,7,1,2026-03-09T14:20:54.681125+05:30
Gurgaon,Haryana,28.4595,77.0266,34.1,37,0.0,985.3,5.85,26.3,644,631.4,95.2,0,5,3,1,2026-03-09T14:20:54.681132+05:30
Noida,Uttar Pradesh,28.5355,77.391,34.1,38,0.0,988.3,5.55,27.0,644,631.4,95.2,0,5,3,1,2026-03-09T14:20:54.681139+05:30
Ghaziabad,Uttar Pradesh,28.6692,77.4538,33.5,42,0.0,986.4,5.3,27.4,157,153.7,63.1,0,5,3,1,2026-03-09T14:20:54.681146+05:30
Faridabad,Haryana,28.4089,77.3178,33.5,39,0.0,987.7,6.05,24.5,644,631.4,95.2,0,5,7,1,2026-03-09T14:20:54.681152+05:30
Meerut,Uttar Pradesh,28.9845,77.7064,33.7,39,0.0,985.1,5.5,28.4,157,153.7,63.1,0,5,3,1,2026-03-09T14:20:54.681158+05:30
Agra,Uttar Pradesh,27.1767,78.0081,37.2,25,0.0,991.4,6.4,22.3,188,285.9,67.3,0,5,10,0,2026-03-09T14:20:54.681165+05:30
Varanasi,Uttar Pradesh,25.3176,82.9739,32.5,46,0.0,1001.7,7.2,15.8,182,122.9,87.1,0,5,4,1,2026-03-09T14:20:54.681174+05:30
Prayagraj,Uttar Pradesh,25.4358,81.8463,32.4,46,0.0,1000.1,7.1,14.8,189,143.0,77.1,0,5,4,1,2026-03-09T14:20:54.681182+05:30
Gorakhpur,Uttar Pradesh,26.7606,83.3732,29.4,58,0.0,1002.3,6.9,27.0,186,129.0,112.5,4,5,4,1,2026-03-09T14:20:54.681188+05:30
Bareilly,Uttar Pradesh,28.367,79.4304,32.4,48,0.0,990.4,6.25,18.4,167,173.2,81.7,0,5,7,1,2026-03-09T14:20:54.681197+05:30
Aligarh,Uttar Pradesh,27.8974,78.088,34.8,35,0.0,989.4,6.15,24.8,238,251.5,72.4,0,5,7,1,2026-03-09T14:20:54.681203+05:30
Moradabad,Uttar Pradesh,28.8386,78.7733,32.2,46,0.0,987.4,6.05,19.1,171,143.9,82.0,0,5,7,1,2026-03-09T14:20:54.681210+05:30
Saharanpur,Uttar Pradesh,29.9637,77.546,31.4,46,0.0,979.3,5.7,28.4,160,82.2,50.8,0,5,3,1,2026-03-09T14:20:54.681215+05:30
Jhansi,Uttar Pradesh,25.4484,78.5685,37.6,17,0.0,981.5,7.0,25.6,69,45.2,16.2,0,5,10,0,2026-03-09T14:20:58.013530+05:30
Surat,Gujarat,21.1702,72.8311,38.4,19,0.0,1008.5,7.25,24.8,98,35.0,32.6,0,0,7,0,2026-03-09T14:20:58.013560+05:30
Vadodara,Gujarat,22.3072,73.1812,40.4,16,0.0,1006.7,7.4,15.5,68,19.4,18.5,0,5,7,0,2026-03-09T14:20:58.013569+05:30
Rajkot,Gujarat,22.3039,70.8022,37.4,17,0.0,997.7,7.2,24.1,63,12.9,9.2,0,5,10,0,2026-03-09T14:20:58.013577+05:30
Thane,Maharashtra,19.2183,72.9781,40.6,15,0.0,1007.7,7.55,33.8,137,60.3,59.3,0,5,7,0,2026-03-09T14:20:58.013584+05:30
Nagpur,Maharashtra,21.1458,79.0882,36.6,17,0.0,976.2,7.95,28.8,77,19.8,11.4,0,5,10,0,2026-03-09T14:20:58.013591+05:30
Nashik,Maharashtra,19.9975,73.7898,36.3,15,0.0,948.4,7.75,31.0,68,13.4,12.4,0,5,10,0,2026-03-09T14:20:58.013598+05:30
Aurangabad,Maharashtra,19.8762,75.3433,36.2,16,0.0,947.0,8.25,34.2,65,13.2,8.9,0,5,10,0,2026-03-09T14:20:58.013605+05:30
Solapur,Maharashtra,17.6599,75.9064,36.0,19,0.0,959.0,8.5,26.6,75,20.4,16.2,0,5,10,0,2026-03-09T14:20:58.013612+05:30
Kolhapur,Maharashtra,16.705,74.2433,35.3,20,0.0,949.3,8.6,40.0,140,23.6,19.1,0,5,10,0,2026-03-09T14:20:58.013618+05:30
Goa,Goa,15.2993,74.124,31.8,64,0.0,997.7,8.65,34.2,138,44.6,38.9,3,5,7,1,2026-03-09T14:20:58.013625+05:30
Jodhpur,Rajasthan,26.2389,73.0243,36.7,14,0.0,987.7,7.1,22.7,59,33.6,9.9,0,5,10,0,2026-03-09T14:20:58.013632+05:30
Udaipur,Rajasthan,24.5854,73.7125,36.4,15,0.0,951.3,7.7,14.4,42,10.0,5.9,0,5,10,0,2026-03-09T14:20:58.013638+05:30
Kota,Rajasthan,25.2138,75.8648,38.0,15,0.0,982.7,7.1,17.3,74,24.9,9.3,0,5,10,0,2026-03-09T14:20:58.013645+05:30
Bikaner,Rajasthan,28.0229,73.3119,35.7,16,0.0,986.3,6.8,22.3,55,101.0,19.7,0,5,10,0,2026-03-09T14:20:58.013651+05:30
Ajmer,Rajasthan,26.4499,74.6399,35.6,16,0.0,959.5,7.1,22.3,46,42.8,10.2,0,5,10,0,2026-03-09T14:20:58.013658+05:30
Gwalior,Madhya Pradesh,26.2183,78.1828,35.7,28,0.0,986.9,6.75,23.0,74,67.8,23.1,0,5,10,0,2026-03-09T14:20:58.013665+05:30
Indore,Madhya Pradesh,22.7196,75.8577,36.0,15,0.0,952.3,7.65,24.5,79,18.4,7.2,0,5,10,0,2026-03-09T14:20:58.013671+05:30
Bhopal,Madhya Pradesh,23.2599,77.4126,36.1,18,0.0,957.9,7.55,15.8,67,32.4,10.6,0,5,10,0,2026-03-09T14:20:58.013677+05:30
Jabalpur,Madhya Pradesh,23.1815,79.9864,34.8,21,0.0,965.5,7.65,21.2,106,43.2,17.6,0,5,7,0,2026-03-09T14:20:58.013684+05:30
Ujjain,Madhya Pradesh,23.1765,75.7885,35.2,19,0.0,958.1,7.55,14.8,97,13.6,8.5,0,5,10,0,2026-03-09T14:20:58.013690+05:30
Visakhapatnam,Andhra Pradesh,17.6868,83.2185,30.6,57,0.0,1007.4,8.55,33.8,96,55.9,44.0,0,5,4,1,2026-03-09T14:20:58.013697+05:30
Vijayawada,Andhra Pradesh,16.5062,80.648,31.7,55,0.0,1005.5,8.65,26.3,92,49.5,39.2,0,5,4,1,2026-03-09T14:20:58.013703+05:30
Guntur,Andhra Pradesh,16.3067,80.4365,31.1,57,0.0,1006.8,8.65,27.0,88,48.0,38.0,0,5,4,1,2026-03-09T14:20:58.013709+05:30
Nellore,Andhra Pradesh,14.4426,79.9865,31.7,54,0.0,1008.6,8.8,33.8,77,52.7,39.6,0,0,4,1,2026-03-09T14:20:58.013716+05:30
Kurnool,Andhra Pradesh,15.8281,78.0373,36.3,25,0.0,978.4,8.65,38.5,83,41.0,30.6,0,5,10,0,2026-03-09T14:20:58.013724+05:30
Kakinada,Andhra Pradesh,16.9891,82.2475,31.3,56,0.0,1010.8,8.55,31.7,87,56.1,41.8,0,0,4,1,2026-03-09T14:20:58.013730+05:30
Tirupati,Andhra Pradesh,13.6288,79.4192,32.3,42,0.0,993.5,8.95,38.5,90,52.0,39.6,0,5,7,1,2026-03-09T14:20:58.013736+05:30
Warangal,Telangana,17.9689,79.5941,33.8,45,0.0,981.4,8.4,28.1,109,45.1,36.7,0,5,7,1,2026-03-09T14:20:58.013742+05:30
Nizamabad,Telangana,18.6725,78.0941,35.5,25,0.0,967.5,8.3,31.7,116,35.0,23.9,0,5,10,0,2026-03-09T14:20:58.013748+05:30
Mysore,Karnataka,12.2958,76.6396,32.2,29,0.0,929.3,9.25,41.0,128,41.4,32.9,0,5,7,0,2026-03-09T14:20:58.013754+05:30
Mangalore,Karnataka,12.9141,74.856,29.0,80,0.0,1006.1,8.85,23.8,129,50.2,44.8,7,5,4,1,2026-03-09T14:20:58.013760+05:30
Hubli-Dharwad,Karnataka,15.3647,75.124,35.8,18,0.0,942.0,8.85,36.7,87,28.3,22.2,0,5,10,0,2026-03-09T14:20:58.013767+05:30
Belgaum,Karnataka,15.8497,74.4977,35.0,18,0.0,927.3,8.85,45.0,119,19.3,15.8,0,5,7,0,2026-03-09T14:21:01.342127+05:30
Coimbatore,Tamil Nadu,11.0168,76.9558,33.0,35,0.0,962.2,9.25,47.9,107,40.5,29.3,0,5,7,0,2026-03-09T14:21:01.342155+05:30
Madurai,Tamil Nadu,9.9252,78.1198,33.7,39,0.0,993.3,9.2,36.7,91,39.7,27.9,0,5,7,1,2026-03-09T14:21:01.342165+05:30
Trichy,Tamil Nadu,10.7905,78.7047,33.1,43,0.0,1000.8,9.1,32.4,80,51.8,39.2,0,5,4,1,2026-03-09T14:21:01.342172+05:30
Salem,Tamil Nadu,11.6643,78.146,32.9,39,0.0,978.2,9.15,34.9,108,56.8,41.9,0,5,7,1,2026-03-09T14:21:01.342179+05:30
Tirunelveli,Tamil Nadu,8.7139,77.7567,33.4,40,0.0,1003.8,9.2,31.7,98,32.7,22.5,0,5,4,1,2026-03-09T14:21:01.342185+05:30
Vellore,Tamil Nadu,12.9165,79.1325,31.9,43,0.0,986.5,9.0,41.8,107,48.1,36.0,0,5,7,1,2026-03-09T14:21:01.342192+05:30
Erode,Tamil Nadu,11.341,77.7172,34.2,39,0.0,989.7,9.15,28.8,82,45.5,31.1,0,5,7,1,2026-03-09T14:21:01.342198+05:30
Kochi,Kerala,9.9312,76.2673,28.0,81,0.0,1008.3,8.95,29.9,150,52.5,46.2,7,0,4,1,2026-03-09T14:21:01.342205+05:30
Thiruvananthapuram,Kerala,8.5241,76.9366,28.3,79,0.0,1007.6,9.05,26.6,112,49.8,42.7,7,5,4,1,2026-03-09T14:21:01.342211+05:30
Kozhikode,Kerala,11.2588,75.7804,29.6,76,0.0,1007.4,8.45,24.5,107,26.3,24.7,7,5,4,1,2026-03-09T14:21:01.342217+05:30
Thrissur,Kerala,10.5276,76.2144,31.9,64,0.0,1006.6,9.05,41.4,130,43.1,37.6,3,5,4,1,2026-03-09T14:21:01.342224+05:30
Kannur,Kerala,11.8745,75.3704,30.8,70,0.0,1006.8,8.95,27.0,127,38.1,35.3,3,5,4,1,2026-03-09T14:21:01.342231+05:30
Patna,Bihar,25.5941,85.1376,29.4,59,0.0,1005.4,7.4,30.6,170,98.7,88.9,4,5,4,1,2026-03-09T14:21:01.342237+05:30
Gaya,Bihar,24.7914,85.0002,30.2,60,0.0,997.9,7.5,27.0,164,115.3,99.2,0,5,7,1,2026-03-09T14:21:01.342243+05:30
Muzaffarpur,Bihar,26.1209,85.3647,28.7,60,0.0,1005.8,7.3,34.2,173,96.6,86.6,4,5,4,1,2026-03-09T14:21:01.342249+05:30
Bhagalpur,Bihar,25.2425,87.0117,28.5,66,0.0,1006.3,4.8,25.9,162,84.3,70.3,7,5,0,1,2026-03-09T14:21:01.342256+05:30
Ranchi,Jharkhand,23.3441,85.3096,31.4,37,0.0,941.2,8.15,33.5,162,90.3,71.9,0,5,7,0,2026-03-09T14:21:01.342263+05:30
Jamshedpur,Jharkhand,22.8046,86.2029,33.3,46,0.0,993.6,8.0,28.8,156,88.5,72.4,0,5,7,1,2026-03-09T14:21:01.342269+05:30
Dhanbad,Jharkhand,23.7957,86.4304,32.7,43,0.0,983.2,7.65,32.8,168,100.4,87.3,0,5,7,1,2026-03-09T14:21:01.342275+05:30
Bokaro,Jharkhand,23.6693,86.1511,33.3,38,0.0,987.1,7.6,35.6,173,105.0,87.8,0,5,7,1,2026-03-09T14:21:01.342282+05:30
Bhubaneswar,Odisha,20.2961,85.8245,31.9,51,0.0,1006.2,8.3,31.3,96,57.3,43.7,0,5,4,1,2026-03-09T14:21:01.342288+05:30
Cuttack,Odisha,20.4625,85.8828,34.3,41,0.0,1007.5,8.35,30.2,96,57.3,43.7,0,5,4,1,2026-03-09T14:21:01.342294+05:30
Rourkela,Odisha,22.2604,84.8536,35.1,35,0.0,987.5,7.9,22.7,165,95.7,77.1,0,5,10,1,2026-03-09T14:21:01.342300+05:30
Raipur,Chhattisgarh,21.2514,81.6296,36.2,23,0.0,977.5,8.0,24.8,161,70.3,54.1,0,5,10,0,2026-03-09T14:21:01.342306+05:30
Bhilai,Chhattisgarh,21.1938,81.3509,36.6,22,0.0,978.0,8.05,24.5,155,66.4,49.1,0,5,10,0,2026-03-09T14:21:01.342312+05:30
Guwahati,Assam,26.1158,91.7086,31.3,48,0.0,1005.3,7.3,11.5,154,82.0,67.1,0,5,4,1,2026-03-09T14:21:01.342318+05:30
Agartala,Tripura,23.8315,91.2868,31.1,45,0.0,1010.0,7.7,10.8,161,71.7,58.0,0,0,4,1,2026-03-09T14:21:01.342324+05:30
Shillong,Meghalaya,25.5788,91.8933,16.1,78,0.0,859.9,6.45,26.6,141,64.5,53.2,3,5,7,0,2026-03-09T14:21:01.342331+05:30
Imphal,Manipur,24.817,93.9368,24.0,57,0.0,927.0,7.95,27.0,160,51.7,46.2,0,5,7,0,2026-03-09T14:21:01.342337+05:30
Aizawl,Mizoram,23.7271,92.7176,25.3,45,0.0,896.9,7.85,27.4,163,64.3,53.7,4,5,7,0,2026-03-09T14:21:01.342343+05:30
Kohima,Nagaland,25.6701,94.1077,17.5,85,0.0,858.7,7.0,55.1,155,75.7,67.5,3,10,7,0,2026-03-09T14:21:01.342349+05:30
Gangtok,Sikkim,27.3314,88.6138,17.6,73,0.0,842.8,4.8,18.4,152,78.2,59.0,3,5,3,0,2026-03-09T14:21:01.342355+05:30
Siliguri,West Bengal,26.7271,88.3953,25.6,55,0.0,999.7,7.35,18.4,155,73.1,54.7,4,5,7,0,2026-03-09T14:21:04.674006+05:30
Durgapur,West Bengal,23.5204,87.3119,32.4,48,0.0,998.9,7.6,23.4,159,83.1,71.5,0,5,7,1,2026-03-09T14:21:04.674036+05:30
Asansol,West Bengal,23.6739,86.9524,32.1,48,0.0,997.4,7.55,27.0,159,87.1,75.7,0,5,7,1,2026-03-09T14:21:04.674048+05:30
Pondicherry,Puducherry,11.9139,79.8145,31.8,52,0.0,1010.6,8.95,32.4,77,55.4,39.0,0,0,4,1,2026-03-09T14:21:04.674057+05:30
Port Blair,Andaman and Nicobar Islands,11.6234,92.7265,27.7,74,0.0,1008.6,8.9,27.4,84,29.2,25.1,7,0,4,1,2026-03-09T14:21:04.674066+05:30
Haridwar,Uttarakhand,29.9457,78.1642,31.2,50,0.0,978.0,5.8,25.6,158,95.2,55.3,0,5,3,1,2026-03-09T14:21:04.674074+05:30
Rishikesh,Uttarakhand,30.0869,78.2676,31.1,46,0.0,971.0,5.85,27.0,154,91.3,53.8,0,5,3,1,2026-03-09T14:21:04.674083+05:30
Nainital,Uttarakhand,29.3919,79.4542,23.1,62,0.0,811.7,6.7,55.8,159,112.0,66.4,3,5,7,0,2026-03-09T14:21:04.674091+05:30
Mussoorie,Uttarakhand,30.4599,78.0664,23.2,50,0.0,808.8,6.2,41.0,151,75.7,48.3,0,5,7,0,2026-03-09T14:21:04.674099+05:30
Dharamshala,Himachal Pradesh,32.219,76.3234,27.1,33,0.0,874.7,6.45,26.6,53,29.3,10.5,4,5,7,0,2026-03-09T14:21:04.674107+05:30
Dalhousie,Himachal Pradesh,32.5387,75.971,26.7,23,0.0,810.9,6.65,21.6,82,34.7,15.9,4,5,7,0,2026-03-09T14:21:04.674115+05:30
Patiala,Punjab,30.3398,76.3869,32.3,40,0.0,982.2,5.35,25.6,174,223.5,58.3,0,5,3,1,2026-03-09T14:21:04.674122+05:30
Bhatinda,Punjab,30.211,74.9455,33.4,39,0.0,987.8,6.2,21.6,155,85.9,55.1,0,5,7,1,2026-03-09T14:21:04.674129+05:30
Rohtak,Haryana,28.8955,76.6066,34.2,36,0.0,985.6,6.0,28.4,177,308.3,61.2,0,5,3,1,2026-03-09T14:21:04.674135+05:30
Panipat,Haryana,29.3909,76.9635,34.1,37,0.0,984.2,5.8,28.8,566,504.8,86.6,0,5,3,1,2026-03-09T14:21:04.674142+05:30
Mathura,Uttar Pradesh,27.4924,77.6737,36.6,25,0.0,990.5,6.3,24.1,195,239.3,59.4,0,5,10,0,2026-03-09T14:21:04.674149+05:30
Vrindavan,Uttar Pradesh,27.5823,77.7027,35.8,29,0.0,991.0,6.25,26.3,195,239.3,59.4,0,5,10,0,2026-03-09T14:21:04.674156+05:30
Ayodhya,Uttar Pradesh,26.7922,82.1998,31.9,47,0.0,999.8,6.7,17.3,192,130.9,101.3,0,5,7,1,2026-03-09T14:21:04.674162+05:30
Ratlam,Madhya Pradesh,23.3315,75.0367,35.9,20,0.0,958.6,7.5,11.9,80,8.4,7.8,0,5,10,0,2026-03-09T14:21:04.674168+05:30
Sagar,Madhya Pradesh,23.8388,78.7378,35.5,19,0.0,954.3,7.5,16.9,64,33.4,10.9,0,5,10,0,2026-03-09T14:21:04.674174+05:30
Satna,Madhya Pradesh,24.6005,80.8322,35.4,27,0.0,975.0,7.45,24.1,145,98.3,29.9,0,5,10,0,2026-03-09T14:21:04.674180+05:30
Akola,Maharashtra,20.7002,77.0082,37.9,17,0.0,977.9,7.95,19.1,69,21.8,13.3,0,5,10,0,2026-03-09T14:21:04.674187+05:30
Amravati,Maharashtra,20.9374,77.7796,37.8,15,0.0,970.2,7.9,26.6,63,21.1,12.6,0,5,10,0,2026-03-09T14:21:04.674194+05:30
Latur,Maharashtra,18.4088,76.5604,35.0,17,0.0,942.6,8.4,29.5,96,25.0,18.3,0,5,7,0,2026-03-09T14:21:04.674201+05:30
Nanded,Maharashtra,19.1383,77.3091,37.5,16,0.0,971.1,8.15,29.9,77,25.0,16.1,0,5,10,0,2026-03-09T14:21:04.674207+05:30
Gulbarga,Karnataka,17.3297,76.8343,37.6,13,0.0,960.6,8.5,32.0,82,25.5,20.4,0,5,10,0,2026-03-09T14:21:04.674213+05:30
Bidar,Karnataka,17.9104,77.5199,35.5,14,0.0,938.3,8.45,31.7,102,31.0,22.5,0,5,10,0,2026-03-09T14:21:04.674219+05:30
Hospet,Karnataka,15.2689,76.3909,35.6,23,0.0,956.9,8.8,36.7,89,43.8,32.7,0,5,10,0,2026-03-09T14:21:04.674224+05:30
Tirupur,Tamil Nadu,11.1085,77.3411,34.6,34,0.0,976.0,9.25,39.2,95,43.0,29.5,0,5,7,1,2026-03-09T14:21:04.674230+05:30
Alappuzha,Kerala,9.4981,76.3388,27.8,82,0.0,1008.6,8.95,25.6,130,44.9,40.3,7,0,4,1,2026-03-09T14:21:04.674236+05:30
Munnar,Kerala,10.0889,77.0595,29.2,41,0.0,858.9,9.55,19.1,101,41.1,26.1,4,5,7,0,2026-03-09T14:21:04.674243+05:30
Silchar,Assam,24.8333,92.7789,31.7,46,0.0,1008.3,7.65,12.6,167,80.3,68.0,0,0,4,1,2026-03-09T14:21:04.674249+05:30
Dibrugarh,Assam,27.4728,94.912,30.0,55,0.0,999.1,7.4,14.0,160,93.8,75.4,4,5,7,1,2026-03-09T14:21:04.674255+05:30
