city,state,latitude,longitude,temp,humidity,rain,pressure,uv_index,wind_gusts,aqi,pm10,pm2_5,mosquito_risk,arthritis_risk,migraine_risk,frizz_risk,updated_at
Delhi,Delhi,28.6139,77.209,22.5,52,0.0,984.8,6.0,26.3,195,344.6,94.5,0,5,3,0,2026-03-12T00:31:05.155338+05:30
Mumbai,Maharashtra,19.076,72.8777,27.8,87,0.0,1010.3,7.6,31.0,153,71.5,66.4,7,0,4,1,2026-03-12T00:31:05.155401+05:30
Bangalore,Karnataka,12.9716,77.5946,22.3,63,0.0,913.2,9.3,32.0,60,21.0,20.4,3,5,7,0,2026-03-12T00:31:05.155418+05:30
Hyderabad,Telangana,17.385,78.4867,24.1,56,0.0,955.2,8.65,18.7,75,47.0,37.5,0,5,7,0,2026-03-12T00:31:05.155430+05:30
Chennai,Tamil Nadu,13.0827,80.2707,25.2,87,0.0,1009.7,9.05,29.5,67,27.2,22.7,7,0,4,1,2026-03-12T00:31:05.155440+05:30
Kolkata,West Bengal,22.5726,88.3639,24.2,95,0.0,1007.7,8.0,24.5,135,40.4,37.5,3,5,4,1,2026-03-12T00:31:05.155451+05:30
Pune,Maharashtra,18.5204,73.8567,22.9,87,0.0,950.3,8.15,28.4,118,74.3,70.3,3,5,7,1,2026-03-12T00:31:05.155468+05:30
Ahmedabad,Gujarat,23.0225,72.5714,26.2,30,0.0,1004.4,7.45,29.2,69,26.0,25.0,4,5,4,0,2026-03-12T00:31:05.155478+05:30
Jaipur,Rajasthan,26.9124,75.7873,27.2,22,0.0,962.4,5.9,38.2,102,77.8,30.3,4,5,3,0,2026-03-12T00:31:05.155487+05:30
Lucknow,Uttar Pradesh,26.8467,80.9462,24.2,67,0.0,994.7,6.5,30.2,173,306.4,64.7,3,5,7,1,2026-03-12T00:31:05.155496+05:30
Kanpur,Uttar Pradesh,26.4499,80.3319,24.1,73,0.0,993.1,6.05,25.2,169,450.8,73.8,3,5,7,1,2026-03-12T00:31:05.155504+05:30
Chandigarh,Chandigarh,30.7333,76.7794,21.4,58,0.0,970.4,5.75,27.7,122,61.7,47.0,0,5,3,0,2026-03-12T00:31:05.155513+05:30
Srinagar,Jammu and Kashmir,34.0837,74.7973,8.6,94,0.0,843.8,6.95,22.3,113,64.7,56.3,3,10,7,0,2026-03-12T00:31:05.155522+05:30
Jammu,Jammu and Kashmir,32.7266,74.857,19.3,67,0.0,974.8,6.65,24.8,80,26.9,21.0,3,5,7,0,2026-03-12T00:31:05.155529+05:30
Amritsar,Punjab,31.634,74.8723,21.9,87,0.0,983.2,6.65,18.4,156,75.9,60.1,3,5,7,1,2026-03-12T00:31:05.155536+05:30
Ludhiana,Punjab,30.901,75.8573,23.6,58,0.0,980.8,5.95,37.8,171,152.3,108.0,0,5,3,0,2026-03-12T00:31:05.155562+05:30
Jalandhar,Punjab,31.326,75.5762,22.4,67,0.0,982.1,6.35,31.7,166,143.9,106.2,3,5,7,0,2026-03-12T00:31:05.155573+05:30
Dehradun,Uttarakhand,30.6284,78.0322,14.8,57,0.0,831.0,5.25,29.2,66,39.2,28.4,0,5,3,0,2026-03-12T00:31:05.155580+05:30
Shimla,Himachal Pradesh,31.1048,77.1734,12.5,73,0.0,785.2,5.85,38.2,94,49.5,38.6,3,5,3,0,2026-03-12T00:31:05.155587+05:30
Manali,Himachal Pradesh,32.2396,77.1887,14.0,65,0.0,822.7,3.55,40.7,50,14.5,6.6,3,5,3,0,2026-03-12T00:31:05.155595+05:30
Gurgaon,Haryana,28.4595,77.0266,20.1,61,0.0,983.1,6.05,22.0,658,599.8,123.4,3,5,7,0,2026-03-12T00:31:05.155603+05:30
Noida,Uttar Pradesh,28.5355,77.391,22.4,53,0.0,986.3,6.1,26.3,658,599.8,123.4,0,5,7,0,2026-03-12T00:31:05.155610+05:30
Ghaziabad,Uttar Pradesh,28.6692,77.4538,20.8,61,0.0,984.3,6.05,26.3,166,309.2,79.6,3,5,7,0,2026-03-12T00:31:05.155617+05:30
Faridabad,Haryana,28.4089,77.3178,20.0,59,0.0,985.4,5.75,23.4,658,599.8,123.4,0,5,3,0,2026-03-12T00:31:05.155624+05:30
Meerut,Uttar Pradesh,28.9845,77.7064,19.6,75,0.0,983.0,5.65,31.7,166,309.2,79.6,3,5,3,0,2026-03-12T00:31:05.155632+05:30
Agra,Uttar Pradesh,27.1767,78.0081,19.5,79,0.0,989.8,6.05,19.4,360,517.8,104.3,3,5,7,0,2026-03-12T00:31:05.155641+05:30
Varanasi,Uttar Pradesh,25.3176,82.9739,23.1,74,0.0,999.0,7.3,24.1,177,101.7,57.7,3,5,7,1,2026-03-12T00:31:05.155651+05:30
Prayagraj,Uttar Pradesh,25.4358,81.8463,24.2,64,0.0,997.8,6.75,23.4,177,154.6,80.3,3,5,7,1,2026-03-12T00:31:05.155659+05:30
Gorakhpur,Uttar Pradesh,26.7606,83.3732,23.3,82,0.0,998.3,6.85,20.2,207,164.4,150.9,3,5,7,1,2026-03-12T00:31:05.155666+05:30
Bareilly,Uttar Pradesh,28.367,79.4304,20.3,75,0.0,988.0,5.65,29.5,187,143.0,52.7,3,5,3,0,2026-03-12T00:31:05.155673+05:30
Aligarh,Uttar Pradesh,27.8974,78.088,20.0,59,0.0,987.1,5.35,29.5,425,534.6,121.5,0,5,3,0,2026-03-12T00:31:05.155680+05:30
Moradabad,Uttar Pradesh,28.8386,78.7733,20.2,76,0.0,984.9,5.55,35.3,179,136.0,50.1,3,5,3,0,2026-03-12T00:31:05.155687+05:30
Saharanpur,Uttar Pradesh,29.9637,77.546,20.1,68,0.0,977.0,5.6,34.9,160,97.8,68.7,3,5,3,0,2026-03-12T00:31:05.155694+05:30
Jhansi,Uttar Pradesh,25.4484,78.5685,22.6,54,0.0,979.8,6.75,27.4,92,26.1,18.5,0,5,7,0,2026-03-12T00:31:08.432773+05:30
Surat,Gujarat,21.1702,72.8311,26.6,75,0.0,1008.3,7.35,24.5,151,69.6,67.3,7,0,4,1,2026-03-12T00:31:08.432808+05:30
Vadodara,Gujarat,22.3072,73.1812,27.8,31,0.0,1006.3,7.5,23.8,72,34.0,32.4,4,5,4,0,2026-03-12T00:31:08.432819+05:30
Rajkot,Gujarat,22.3039,70.8022,25.2,35,0.0,997.2,7.3,28.1,82,9.7,9.6,4,5,7,0,2026-03-12T00:31:08.432827+05:30
Thane,Maharashtra,19.2183,72.9781,25.8,95,0.0,1009.9,7.6,42.1,153,71.5,66.4,7,0,4,1,2026-03-12T00:31:08.432835+05:30
Nagpur,Maharashtra,21.1458,79.0882,23.5,64,0.0,974.9,8.05,15.5,84,47.6,33.2,3,5,7,1,2026-03-12T00:31:08.432843+05:30
Nashik,Maharashtra,19.9975,73.7898,23.2,62,0.0,947.5,7.8,34.2,128,58.2,55.1,3,5,7,0,2026-03-12T00:31:08.432851+05:30
Aurangabad,Maharashtra,19.8762,75.3433,23.2,47,0.0,945.6,8.35,20.9,105,52.3,46.8,0,5,7,0,2026-03-12T00:31:08.432859+05:30
Solapur,Maharashtra,17.6599,75.9064,25.9,66,0.0,958.6,8.55,16.6,100,37.1,32.4,7,5,7,1,2026-03-12T00:31:08.432868+05:30
Kolhapur,Maharashtra,16.705,74.2433,23.0,86,0.0,949.8,8.65,26.3,145,66.8,62.9,3,5,7,1,2026-03-12T00:31:08.432876+05:30
Goa,Goa,15.2993,74.124,27.7,83,0.0,1000.0,8.7,36.4,150,76.6,67.3,7,5,4,1,2026-03-12T00:31:08.432884+05:30
Jodhpur,Rajasthan,26.2389,73.0243,25.4,29,0.0,985.7,6.4,28.1,85,127.1,24.0,4,5,7,0,2026-03-12T00:31:08.432891+05:30
Udaipur,Rajasthan,24.5854,73.7125,22.0,35,0.0,949.5,7.4,32.4,66,16.5,15.3,0,5,7,0,2026-03-12T00:31:08.432899+05:30
Kota,Rajasthan,25.2138,75.8648,21.2,52,0.0,981.1,6.7,29.9,77,59.8,31.1,0,5,7,0,2026-03-12T00:31:08.432907+05:30
Bikaner,Rajasthan,28.0229,73.3119,24.9,29,0.0,984.0,5.95,23.0,73,125.7,31.7,0,5,3,0,2026-03-12T00:31:08.432915+05:30
Ajmer,Rajasthan,26.4499,74.6399,22.5,37,0.0,957.1,6.05,34.6,73,51.8,19.0,0,5,7,0,2026-03-12T00:31:08.432922+05:30
Gwalior,Madhya Pradesh,26.2183,78.1828,25.2,39,0.0,985.2,6.45,32.8,101,72.2,28.8,4,5,7,0,2026-03-12T00:31:08.432930+05:30
Indore,Madhya Pradesh,22.7196,75.8577,20.2,47,0.0,949.8,7.75,25.9,66,34.6,25.2,0,5,7,0,2026-03-12T00:31:08.432940+05:30
Bhopal,Madhya Pradesh,23.2599,77.4126,23.9,35,0.0,955.8,7.6,29.5,69,39.1,29.7,0,5,7,0,2026-03-12T00:31:08.432947+05:30
Jabalpur,Madhya Pradesh,23.1815,79.9864,25.4,32,0.0,963.3,7.75,21.2,94,84.1,38.1,4,5,7,0,2026-03-12T00:31:08.432955+05:30
Ujjain,Madhya Pradesh,23.1765,75.7885,22.8,50,0.0,955.8,7.65,23.8,76,50.6,42.6,0,5,7,0,2026-03-12T00:31:08.432962+05:30
Visakhapatnam,Andhra Pradesh,17.6868,83.2185,25.6,84,0.0,1005.6,8.65,41.4,87,21.2,18.3,7,5,4,1,2026-03-12T00:31:08.432969+05:30
Vijayawada,Andhra Pradesh,16.5062,80.648,24.5,78,0.0,1004.9,8.7,27.0,83,16.0,15.3,3,5,4,1,2026-03-12T00:31:08.432976+05:30
Guntur,Andhra Pradesh,16.3067,80.4365,23.7,83,0.0,1006.2,8.7,33.1,73,15.6,15.1,3,5,4,1,2026-03-12T00:31:08.432984+05:30
Nellore,Andhra Pradesh,14.4426,79.9865,23.7,92,0.0,1008.5,8.9,31.3,63,19.4,16.8,3,0,4,1,2026-03-12T00:31:08.432991+05:30
Kurnool,Andhra Pradesh,15.8281,78.0373,27.5,47,0.0,979.0,8.7,24.8,66,31.2,27.1,4,5,7,0,2026-03-12T00:31:08.432999+05:30
Kakinada,Andhra Pradesh,16.9891,82.2475,23.0,91,0.0,1009.8,8.65,34.2,78,17.9,14.6,3,0,4,1,2026-03-12T00:31:08.433006+05:30
Tirupati,Andhra Pradesh,13.6288,79.4192,22.9,76,0.0,994.4,9.05,33.5,77,34.6,33.1,3,5,7,1,2026-03-12T00:31:08.433013+05:30
Warangal,Telangana,17.9689,79.5941,26.4,53,0.0,980.1,8.5,12.2,81,39.9,35.7,4,5,7,0,2026-03-12T00:31:08.433020+05:30
Nizamabad,Telangana,18.6725,78.0941,23.7,51,0.0,966.3,8.35,24.8,118,53.9,48.2,0,5,7,0,2026-03-12T00:31:08.433027+05:30
Mysore,Karnataka,12.2958,76.6396,23.0,58,0.0,929.6,9.3,34.9,60,16.1,15.4,0,5,7,0,2026-03-12T00:31:08.433034+05:30
Mangalore,Karnataka,12.9141,74.856,29.2,77,0.0,1008.7,8.95,32.8,103,47.8,42.0,7,0,4,1,2026-03-12T00:31:08.433041+05:30
Hubli-Dharwad,Karnataka,15.3647,75.124,21.9,63,0.0,942.4,8.85,25.9,68,23.0,20.5,3,5,7,0,2026-03-12T00:31:08.433048+05:30
Belgaum,Karnataka,15.8497,74.4977,22.6,80,0.0,927.5,8.95,33.1,102,53.1,46.1,3,5,7,1,2026-03-12T00:31:11.691747+05:30
Coimbatore,Tamil Nadu,11.0168,76.9558,23.6,69,0.0,964.0,9.3,44.3,71,31.5,30.3,3,5,7,1,2026-03-12T00:31:11.691783+05:30
Madurai,Tamil Nadu,9.9252,78.1198,25.5,86,0.0,995.6,9.25,25.9,63,17.5,16.4,7,5,7,1,2026-03-12T00:31:11.691794+05:30
Trichy,Tamil Nadu,10.7905,78.7047,24.7,92,0.0,1002.3,9.15,23.4,65,21.1,19.4,3,5,4,1,2026-03-12T00:31:11.691803+05:30
Salem,Tamil Nadu,11.6643,78.146,24.9,80,0.0,979.4,9.2,25.9,68,23.6,22.5,3,5,7,1,2026-03-12T00:31:11.691811+05:30
Tirunelveli,Tamil Nadu,8.7139,77.7567,25.2,81,0.0,1005.9,9.05,42.1,54,19.0,17.4,7,5,4,1,2026-03-12T00:31:11.691819+05:30
Vellore,Tamil Nadu,12.9165,79.1325,23.4,90,0.0,987.4,9.1,33.1,89,44.1,42.0,3,5,7,1,2026-03-12T00:31:11.691827+05:30
Erode,Tamil Nadu,11.341,77.7172,25.5,81,0.0,991.4,9.2,23.0,72,20.2,19.3,7,5,7,1,2026-03-12T00:31:11.691835+05:30
Kochi,Kerala,9.9312,76.2673,27.0,84,0.0,1010.7,9.1,36.4,112,52.7,51.0,7,0,4,1,2026-03-12T00:31:11.691843+05:30
Thiruvananthapuram,Kerala,8.5241,76.9366,27.5,82,0.0,1009.7,9.1,24.1,75,22.8,19.3,7,0,4,1,2026-03-12T00:31:11.691851+05:30
Kozhikode,Kerala,11.2588,75.7804,28.6,82,0.0,1009.2,9.0,32.4,112,37.3,31.8,7,0,4,1,2026-03-12T00:31:11.691859+05:30
Thrissur,Kerala,10.5276,76.2144,27.3,85,0.0,1008.7,9.05,38.2,87,51.9,49.6,7,0,4,1,2026-03-12T00:31:11.691868+05:30
Kannur,Kerala,11.8745,75.3704,27.6,84,0.0,1008.7,9.0,32.8,118,41.8,36.9,7,0,4,1,2026-03-12T00:31:11.691876+05:30
Patna,Bihar,25.5941,85.1376,25.4,86,0.0,1002.1,7.5,29.5,201,192.3,181.1,7,5,4,1,2026-03-12T00:31:11.691883+05:30
Gaya,Bihar,24.7914,85.0002,24.9,85,0.0,995.8,7.35,20.2,179,155.1,145.3,3,5,7,1,2026-03-12T00:31:11.691890+05:30
Muzaffarpur,Bihar,26.1209,85.3647,24.2,85,0.0,1002.0,7.45,31.7,213,199.3,186.7,3,5,4,1,2026-03-12T00:31:11.691897+05:30
Bhagalpur,Bihar,25.2425,87.0117,24.5,92,0.0,1002.8,7.5,21.6,174,105.5,96.9,3,5,4,1,2026-03-12T00:31:11.691905+05:30
Ranchi,Jharkhand,23.3441,85.3096,22.9,66,0.0,939.2,8.2,34.9,169,111.3,96.6,3,5,7,1,2026-03-12T00:31:11.691912+05:30
Jamshedpur,Jharkhand,22.8046,86.2029,24.3,86,0.0,992.8,8.05,18.4,162,83.8,72.4,3,5,7,1,2026-03-12T00:31:11.691919+05:30
Dhanbad,Jharkhand,23.7957,86.4304,23.4,82,0.0,981.7,6.9,21.6,195,152.7,144.4,3,5,7,1,2026-03-12T00:31:11.691927+05:30
Bokaro,Jharkhand,23.6693,86.1511,23.6,86,0.0,985.9,8.0,22.0,193,143.0,132.7,3,5,7,1,2026-03-12T00:31:11.691935+05:30
Bhubaneswar,Odisha,20.2961,85.8245,25.4,87,0.0,1003.9,8.35,35.3,92,21.3,18.2,7,5,4,1,2026-03-12T00:31:11.691943+05:30
Cuttack,Odisha,20.4625,85.8828,25.4,89,0.0,1005.7,8.4,31.3,92,21.3,18.2,7,5,4,1,2026-03-12T00:31:11.691950+05:30
Rourkela,Odisha,22.2604,84.8536,24.2,74,0.0,986.4,8.0,16.6,163,91.5,82.4,3,5,7,1,2026-03-12T00:31:11.691957+05:30
Raipur,Chhattisgarh,21.2514,81.6296,24.3,39,0.0,976.3,8.1,15.1,159,128.1,105.5,0,5,7,0,2026-03-12T00:31:11.691965+05:30
Bhilai,Chhattisgarh,21.1938,81.3509,23.5,36,0.0,976.6,8.1,13.7,155,98.5,75.9,0,5,7,0,2026-03-12T00:31:11.691973+05:30
Guwahati,Assam,26.1158,91.7086,24.3,85,0.0,1002.6,6.95,22.0,152,56.2,51.7,3,5,4,1,2026-03-12T00:31:11.691980+05:30
Agartala,Tripura,23.8315,91.2868,22.3,91,0.0,1008.1,7.75,18.4,173,84.8,78.7,3,0,4,1,2026-03-12T00:31:11.691989+05:30
Shillong,Meghalaya,25.5788,91.8933,13.1,91,0.0,856.4,7.55,34.2,115,33.4,31.3,3,10,7,0,2026-03-12T00:31:11.691997+05:30
Imphal,Manipur,24.817,93.9368,18.0,87,0.0,924.8,8.0,39.6,161,120.6,113.2,3,10,7,0,2026-03-12T00:31:11.692005+05:30
Aizawl,Mizoram,23.7271,92.7176,16.3,91,0.0,893.3,7.9,32.8,189,156.9,151.3,3,10,7,0,2026-03-12T00:31:11.692013+05:30
Kohima,Nagaland,25.6701,94.1077,14.7,92,0.0,855.4,7.1,46.8,152,76.4,71.9,3,10,7,0,2026-03-12T00:31:11.692020+05:30
Gangtok,Sikkim,27.3314,88.6138,14.9,90,0.0,838.0,7.4,24.8,118,42.8,38.8,3,10,7,0,2026-03-12T00:31:11.692028+05:30
Siliguri,West Bengal,26.7271,88.3953,21.0,74,0.0,995.7,7.15,23.0,170,118.5,108.0,3,5,7,1,2026-03-12T00:31:15.009119+05:30
Durgapur,West Bengal,23.5204,87.3119,23.4,86,0.0,996.9,7.65,24.1,165,118.5,111.3,3,5,7,1,2026-03-12T00:31:15.009156+05:30
Asansol,West Bengal,23.6739,86.9524,23.6,87,0.0,995.5,7.65,28.8,174,125.3,117.3,3,5,7,1,2026-03-12T00:31:15.009166+05:30
Pondicherry,Puducherry,11.9139,79.8145,24.5,95,0.0,1011.0,9.0,28.4,59,21.8,17.5,3,0,4,1,2026-03-12T00:31:15.009176+05:30
Port Blair,Andaman and Nicobar Islands,11.6234,92.7265,27.6,81,0.0,1008.2,8.95,21.2,55,13.0,10.5,7,0,4,1,2026-03-12T00:31:15.009185+05:30
Haridwar,Uttarakhand,29.9457,78.1642,19.3,83,0.0,975.6,5.45,27.4,141,60.8,50.8,3,10,3,1,2026-03-12T00:31:15.009194+05:30
Rishikesh,Uttarakhand,30.0869,78.2676,19.9,74,0.0,968.4,5.1,22.0,121,45.6,35.9,3,5,3,0,2026-03-12T00:31:15.009203+05:30
Nainital,Uttarakhand,29.3919,79.4542,18.9,48,0.0,807.2,5.95,58.7,153,36.1,27.2,0,5,3,0,2026-03-12T00:31:15.009212+05:30
Mussoorie,Uttarakhand,30.4599,78.0664,17.3,55,0.0,804.1,5.0,35.3,109,53.0,45.2,0,5,3,0,2026-03-12T00:31:15.009220+05:30
Dharamshala,Himachal Pradesh,32.219,76.3234,21.1,28,0.0,871.4,5.95,31.3,52,10.6,4.5,0,5,3,0,2026-03-12T00:31:15.009229+05:30
Dalhousie,Himachal Pradesh,32.5387,75.971,17.3,28,0.0,805.5,6.05,26.6,79,19.8,14.5,0,5,7,1,2026-03-12T00:31:15.009238+05:30
Patiala,Punjab,30.3398,76.3869,21.6,65,0.0,979.9,5.75,33.5,165,137.4,105.0,3,5,3,0,2026-03-12T00:31:15.009247+05:30
Bhatinda,Punjab,30.211,74.9455,22.2,72,0.0,985.7,6.6,40.7,151,113.4,89.9,3,5,7,1,2026-03-12T00:31:15.009255+05:30
Rohtak,Haryana,28.8955,76.6066,20.8,61,0.0,983.6,5.75,23.4,217,383.7,108.7,3,5,3,0,2026-03-12T00:31:15.009264+05:30
Panipat,Haryana,29.3909,76.9635,19.5,74,0.0,981.9,5.85,28.4,357,333.4,92.4,3,5,3,0,2026-03-12T00:31:15.009272+05:30
Mathura,Uttar Pradesh,27.4924,77.6737,19.5,68,0.0,988.9,5.7,25.6,356,421.9,85.7,3,5,3,0,2026-03-12T00:31:15.009281+05:30
Vrindavan,Uttar Pradesh,27.5823,77.7027,20.5,61,0.0,989.1,5.45,28.1,356,421.9,85.7,3,5,3,0,2026-03-12T00:31:15.009289+05:30
Ayodhya,Uttar Pradesh,26.7922,82.1998,22.6,78,0.0,996.4,6.65,27.4,178,130.4,61.7,3,5,7,1,2026-03-12T00:31:15.009297+05:30
Ratlam,Madhya Pradesh,23.3315,75.0367,23.9,42,0.0,956.6,7.6,31.3,72,53.6,46.4,0,5,7,0,2026-03-12T00:31:15.009305+05:30
Sagar,Madhya Pradesh,23.8388,78.7378,24.3,36,0.0,952.3,7.6,27.0,77,53.2,26.3,0,5,7,0,2026-03-12T00:31:15.009314+05:30
Satna,Madhya Pradesh,24.6005,80.8322,23.8,44,0.0,973.1,7.55,33.5,134,52.7,27.1,0,5,7,0,2026-03-12T00:31:15.009322+05:30
Akola,Maharashtra,20.7002,77.0082,26.7,40,0.0,976.6,8.05,24.1,85,49.2,41.0,4,5,7,0,2026-03-12T00:31:15.009331+05:30
Amravati,Maharashtra,20.9374,77.7796,25.0,54,0.0,968.6,8.0,16.6,86,52.5,40.0,4,5,7,0,2026-03-12T00:31:15.009339+05:30
Latur,Maharashtra,18.4088,76.5604,25.7,46,0.0,941.7,8.45,19.4,104,41.9,37.4,4,5,7,0,2026-03-12T00:31:15.009347+05:30
Nanded,Maharashtra,19.1383,77.3091,26.7,51,0.0,970.1,8.25,17.6,117,46.6,42.1,4,5,7,0,2026-03-12T00:31:15.009355+05:30
Gulbarga,Karnataka,17.3297,76.8343,28.1,46,0.0,960.9,8.55,17.3,84,43.7,36.7,4,5,7,0,2026-03-12T00:31:15.009362+05:30
Bidar,Karnataka,17.9104,77.5199,26.4,46,0.0,937.6,8.5,23.0,98,60.8,53.1,4,5,7,0,2026-03-12T00:31:15.009370+05:30
Hospet,Karnataka,15.2689,76.3909,27.0,49,0.0,957.8,8.85,27.7,62,34.1,29.8,4,5,7,0,2026-03-12T00:31:15.009378+05:30
Tirupur,Tamil Nadu,11.1085,77.3411,25.7,76,0.0,977.8,9.3,32.8,79,22.1,21.4,7,5,7,1,2026-03-12T00:31:15.009386+05:30
Alappuzha,Kerala,9.4981,76.3388,27.1,84,0.0,1010.8,9.0,30.6,106,53.6,49.5,7,0,4,1,2026-03-12T00:31:15.009394+05:30
Munnar,Kerala,10.0889,77.0595,19.3,85,0.0,857.3,9.55,27.0,62,25.4,24.4,3,10,7,1,2026-03-12T00:31:15.009402+05:30
Silchar,Assam,24.8333,92.7789,22.4,88,0.0,1007.6,7.7,20.9,175,131.8,122.0,3,5,4,1,2026-03-12T00:31:15.009410+05:30
Dibrugarh,Assam,27.4728,94.912,22.1,91,0.0,997.7,7.45,22.7,157,71.2,68.0,3,5,7,1,2026-03-12T00:31:15.009417+05:30
