city,state,latitude,longitude,temp,humidity,rain,pressure,uv_index,wind_gusts,aqi,pm10,pm2_5,mosquito_risk,arthritis_risk,migraine_risk,frizz_risk,updated_at
Delhi,Delhi,28.6139,77.209,28.4,37,0.0,987.7,7.05,23.8,130,170.9,39.5,4,5,7,0,2026-04-09T14:42:42.797551+05:30
Mumbai,Maharashtra,19.076,72.8777,28.1,75,0.0,1009.9,7.95,19.1,80,131.3,38.9,7,0,4,1,2026-04-09T14:42:42.797604+05:30
Bangalore,Karnataka,12.9716,77.5946,33.7,31,0.0,912.4,9.6,27.4,92,24.0,15.4,0,5,7,0,2026-04-09T14:42:42.797620+05:30
Hyderabad,Telangana,17.385,78.4867,37.9,20,0.0,953.1,9.2,27.7,100,48.8,24.3,0,5,10,0,2026-04-09T14:42:42.797632+05:30
Chennai,Tamil Nadu,13.0827,80.2707,35.5,54,0.0,1006.5,9.35,38.9,65,25.3,20.0,0,5,7,1,2026-04-09T14:42:42.797641+05:30
Kolkata,West Bengal,22.5726,88.3639,27.1,71,0.0,1007.4,8.45,14.4,82,66.6,49.4,7,5,4,1,2026-04-09T14:42:42.797650+05:30
Pune,Maharashtra,18.5204,73.8567,34.3,36,0.0,949.7,8.5,34.2,80,134.6,37.3,0,5,7,1,2026-04-09T14:42:42.797663+05:30
Ahmedabad,Gujarat,23.0225,72.5714,36.4,25,0.0,1003.6,8.0,17.3,79,63.1,21.9,0,5,7,0,2026-04-09T14:42:42.797671+05:30
Jaipur,Rajasthan,26.9124,75.7873,29.6,29,0.0,963.6,7.75,27.0,154,178.8,34.7,4,5,7,0,2026-04-09T14:42:42.797679+05:30
Lucknow,Uttar Pradesh,26.8467,80.9462,31.0,28,0.0,997.0,7.55,32.8,132,74.3,21.0,0,5,7,0,2026-04-09T14:42:42.797686+05:30
Kanpur,Uttar Pradesh,26.4499,80.3319,30.5,30,0.0,995.5,7.6,32.4,132,311.1,40.4,0,5,7,0,2026-04-09T14:42:42.797694+05:30
Chandigarh,Chandigarh,30.7333,76.7794,25.8,43,0.0,974.6,7.05,24.1,76,30.5,17.1,4,5,7,0,2026-04-09T14:42:42.797701+05:30
Srinagar,Jammu and Kashmir,34.0837,74.7973,12.4,71,0.0,843.2,7.9,22.0,77,10.6,6.0,3,5,7,0,2026-04-09T14:42:42.797709+05:30
Jammu,Jammu and Kashmir,32.7266,74.857,24.6,52,0.0,979.4,7.65,27.4,66,17.5,8.5,0,5,7,0,2026-04-09T14:42:42.797716+05:30
Amritsar,Punjab,31.634,74.8723,24.8,53,0.0,987.3,7.6,18.4,77,45.4,20.2,0,5,7,0,2026-04-09T14:42:42.797723+05:30
Ludhiana,Punjab,30.901,75.8573,26.5,41,0.0,984.8,7.25,19.8,95,41.2,18.2,4,5,7,0,2026-04-09T14:42:42.797730+05:30
Jalandhar,Punjab,31.326,75.5762,26.1,43,0.0,986.1,7.4,21.2,89,43.0,16.8,4,5,7,0,2026-04-09T14:42:42.797740+05:30
Dehradun,Uttarakhand,30.6284,78.0322,14.4,67,0.0,832.3,7.05,23.4,74,20.1,10.4,3,5,7,0,2026-04-09T14:42:42.797747+05:30
Shimla,Himachal Pradesh,31.1048,77.1734,12.1,75,0.0,786.3,7.4,27.0,87,20.7,12.7,3,5,7,0,2026-04-09T14:42:42.797754+05:30
Manali,Himachal Pradesh,32.2396,77.1887,14.5,59,0.0,820.1,9.7,24.8,123,7.8,4.6,0,5,7,0,2026-04-09T14:42:42.797761+05:30
Gurgaon,Haryana,28.4595,77.0266,28.2,44,0.0,986.2,7.15,17.3,150,594.2,70.8,4,5,7,0,2026-04-09T14:42:42.797768+05:30
Noida,Uttar Pradesh,28.5355,77.391,28.4,40,0.0,989.3,7.1,22.7,150,594.2,70.8,4,5,7,0,2026-04-09T14:42:42.797775+05:30
Ghaziabad,Uttar Pradesh,28.6692,77.4538,28.3,35,0.0,987.5,7.05,23.8,114,148.5,38.8,4,5,7,0,2026-04-09T14:42:42.797784+05:30
Faridabad,Haryana,28.4089,77.3178,27.9,45,0.0,988.5,7.15,19.4,150,594.2,70.8,4,5,7,0,2026-04-09T14:42:42.797791+05:30
Meerut,Uttar Pradesh,28.9845,77.7064,28.0,34,0.0,986.3,6.95,29.2,114,148.5,38.8,4,5,7,0,2026-04-09T14:42:42.797798+05:30
Agra,Uttar Pradesh,27.1767,78.0081,29.4,41,0.0,992.2,7.45,17.3,512,317.6,44.7,4,5,7,0,2026-04-09T14:42:42.797805+05:30
Varanasi,Uttar Pradesh,25.3176,82.9739,32.5,27,0.0,999.9,8.15,29.2,113,50.8,18.8,0,5,7,0,2026-04-09T14:42:42.797814+05:30
Prayagraj,Uttar Pradesh,25.4358,81.8463,32.1,28,0.0,998.9,8.05,31.0,113,61.7,20.0,0,5,7,0,2026-04-09T14:42:42.797821+05:30
Gorakhpur,Uttar Pradesh,26.7606,83.3732,31.4,31,0.0,999.5,7.95,31.0,152,84.8,32.8,0,5,7,0,2026-04-09T14:42:42.797827+05:30
Bareilly,Uttar Pradesh,28.367,79.4304,29.2,32,0.0,991.1,7.35,33.1,99,43.2,18.9,4,5,7,0,2026-04-09T14:42:42.797834+05:30
Aligarh,Uttar Pradesh,27.8974,78.088,29.8,37,0.0,990.0,7.2,26.6,118,323.2,46.3,4,5,7,0,2026-04-09T14:42:42.797840+05:30
Moradabad,Uttar Pradesh,28.8386,78.7733,28.3,33,0.0,988.2,7.15,30.6,108,54.0,22.5,4,5,7,0,2026-04-09T14:42:42.797847+05:30
Saharanpur,Uttar Pradesh,29.9637,77.546,26.8,40,0.0,981.0,6.75,27.4,93,47.5,18.3,4,5,7,0,2026-04-09T14:42:42.797870+05:30
Jhansi,Uttar Pradesh,25.4484,78.5685,30.4,34,0.0,981.5,8.0,25.2,94,111.8,27.3,0,5,7,0,2026-04-09T14:42:46.023006+05:30
Surat,Gujarat,21.1702,72.8311,30.6,45,0.0,1009.1,7.7,28.1,84,112.9,43.4,0,0,4,1,2026-04-09T14:42:46.023040+05:30
Vadodara,Gujarat,22.3072,73.1812,34.8,35,0.0,1006.1,8.0,20.5,69,47.3,21.9,0,5,4,1,2026-04-09T14:42:46.023051+05:30
Rajkot,Gujarat,22.3039,70.8022,34.8,27,0.0,995.7,7.7,21.2,66,56.3,22.8,0,5,7,0,2026-04-09T14:42:46.023059+05:30
Thane,Maharashtra,19.2183,72.9781,31.6,55,0.0,1009.6,7.95,33.8,80,131.3,38.9,0,0,4,1,2026-04-09T14:42:46.023066+05:30
Nagpur,Maharashtra,21.1458,79.0882,33.7,33,0.0,974.0,8.75,20.5,90,61.0,28.4,0,5,7,0,2026-04-09T14:42:46.023074+05:30
Nashik,Maharashtra,19.9975,73.7898,31.2,38,0.0,947.2,8.2,27.0,66,82.4,21.4,0,5,7,0,2026-04-09T14:42:46.023081+05:30
Aurangabad,Maharashtra,19.8762,75.3433,34.3,24,0.0,945.5,8.9,28.8,66,51.5,16.7,0,5,7,0,2026-04-09T14:42:46.023087+05:30
Solapur,Maharashtra,17.6599,75.9064,37.5,20,0.0,957.6,8.95,23.0,74,109.2,31.1,0,5,10,0,2026-04-09T14:42:46.023094+05:30
Kolhapur,Maharashtra,16.705,74.2433,32.5,43,0.0,949.2,9.0,38.9,79,128.5,28.7,0,5,7,1,2026-04-09T14:42:46.023101+05:30
Goa,Goa,15.2993,74.124,32.3,59,0.0,999.3,9.0,35.3,72,65.4,18.7,0,5,7,1,2026-04-09T14:42:46.023108+05:30
Jodhpur,Rajasthan,26.2389,73.0243,33.6,15,0.0,986.9,8.0,26.3,93,110.1,15.5,0,5,7,0,2026-04-09T14:42:46.023116+05:30
Udaipur,Rajasthan,24.5854,73.7125,32.1,15,0.0,950.0,8.5,39.6,72,83.4,16.6,0,5,7,0,2026-04-09T14:42:46.023123+05:30
Kota,Rajasthan,25.2138,75.8648,33.1,27,0.0,981.7,8.0,21.6,116,102.2,30.5,0,5,7,0,2026-04-09T14:42:46.023130+05:30
Bikaner,Rajasthan,28.0229,73.3119,31.4,20,0.0,986.6,7.8,21.2,85,73.3,17.5,0,5,7,0,2026-04-09T14:42:46.023137+05:30
Ajmer,Rajasthan,26.4499,74.6399,30.9,21,0.0,958.2,7.95,27.4,79,96.2,21.9,0,5,7,0,2026-04-09T14:42:46.023144+05:30
Gwalior,Madhya Pradesh,26.2183,78.1828,30.7,34,0.0,986.6,7.75,34.6,114,128.1,28.1,0,5,7,0,2026-04-09T14:42:46.023150+05:30
Indore,Madhya Pradesh,22.7196,75.8577,32.0,32,0.0,950.4,8.4,23.4,78,38.1,18.0,0,5,7,0,2026-04-09T14:42:46.023156+05:30
Bhopal,Madhya Pradesh,23.2599,77.4126,33.7,23,0.0,955.8,8.4,26.6,72,66.1,21.8,0,5,7,0,2026-04-09T14:42:46.023163+05:30
Jabalpur,Madhya Pradesh,23.1815,79.9864,32.2,30,0.0,963.5,8.55,26.6,130,72.2,26.4,0,5,7,0,2026-04-09T14:42:46.023169+05:30
Ujjain,Madhya Pradesh,23.1765,75.7885,32.8,27,0.0,956.2,8.35,20.5,75,47.4,19.8,0,5,7,0,2026-04-09T14:42:46.023176+05:30
Visakhapatnam,Andhra Pradesh,17.6868,83.2185,33.6,58,0.0,1003.2,9.15,44.6,98,40.4,33.5,0,5,4,1,2026-04-09T14:42:46.023183+05:30
Vijayawada,Andhra Pradesh,16.5062,80.648,37.3,40,0.0,1001.1,9.15,33.1,90,32.0,26.0,0,5,7,1,2026-04-09T14:42:46.023190+05:30
Guntur,Andhra Pradesh,16.3067,80.4365,38.0,39,0.0,1001.9,8.95,33.8,92,33.4,26.1,0,5,7,1,2026-04-09T14:42:46.023197+05:30
Nellore,Andhra Pradesh,14.4426,79.9865,39.9,30,0.0,1003.3,9.3,35.3,77,30.7,25.9,0,5,7,1,2026-04-09T14:42:46.023204+05:30
Kurnool,Andhra Pradesh,15.8281,78.0373,39.9,20,0.0,975.5,9.2,27.7,114,46.7,23.2,0,5,10,0,2026-04-09T14:42:46.023211+05:30
Kakinada,Andhra Pradesh,16.9891,82.2475,35.4,48,0.0,1006.9,9.15,30.6,80,27.9,21.5,0,5,7,1,2026-04-09T14:42:46.023218+05:30
Tirupati,Andhra Pradesh,13.6288,79.4192,36.5,38,0.0,990.3,9.35,29.9,97,33.1,29.8,0,5,10,1,2026-04-09T14:42:46.023225+05:30
Warangal,Telangana,17.9689,79.5941,35.5,45,0.0,978.1,9.05,24.5,105,41.1,30.0,0,5,10,1,2026-04-09T14:42:46.023231+05:30
Nizamabad,Telangana,18.6725,78.0941,35.2,32,0.0,965.5,8.95,25.9,91,86.8,29.8,0,5,10,0,2026-04-09T14:42:46.023237+05:30
Mysore,Karnataka,12.2958,76.6396,34.6,29,0.0,928.7,9.55,37.1,74,19.7,12.0,0,5,7,0,2026-04-09T14:42:46.023244+05:30
Mangalore,Karnataka,12.9141,74.856,29.2,78,0.0,1007.3,9.15,34.2,76,57.0,19.6,7,5,4,1,2026-04-09T14:42:46.023250+05:30
Hubli-Dharwad,Karnataka,15.3647,75.124,33.5,36,0.0,941.6,9.2,40.3,67,72.9,22.2,0,5,7,1,2026-04-09T14:42:46.023257+05:30
Belgaum,Karnataka,15.8497,74.4977,31.2,45,0.0,927.3,9.2,36.4,75,89.9,23.1,0,5,7,1,2026-04-09T14:42:49.245388+05:30
Coimbatore,Tamil Nadu,11.0168,76.9558,33.5,47,0.0,962.1,9.5,38.9,48,13.7,8.7,0,5,7,1,2026-04-09T14:42:49.245422+05:30
Madurai,Tamil Nadu,9.9252,78.1198,36.3,40,0.0,992.3,9.4,21.6,90,32.5,28.1,0,5,10,1,2026-04-09T14:42:49.245433+05:30
Trichy,Tamil Nadu,10.7905,78.7047,36.1,43,0.0,998.8,9.4,20.9,78,30.7,26.1,0,5,10,1,2026-04-09T14:42:49.245441+05:30
Salem,Tamil Nadu,11.6643,78.146,36.2,40,0.0,976.9,9.3,36.4,97,19.0,16.7,0,5,10,1,2026-04-09T14:42:49.245447+05:30
Tirunelveli,Tamil Nadu,8.7139,77.7567,37.5,34,0.0,1001.8,9.25,32.0,68,23.3,19.3,0,5,7,1,2026-04-09T14:42:49.245454+05:30
Vellore,Tamil Nadu,12.9165,79.1325,35.7,44,0.0,983.8,9.45,19.4,117,31.1,27.6,0,5,10,1,2026-04-09T14:42:49.245461+05:30
Erode,Tamil Nadu,11.341,77.7172,37.9,36,0.0,987.8,8.8,22.0,64,12.5,10.4,0,5,10,1,2026-04-09T14:42:49.245469+05:30
Kochi,Kerala,9.9312,76.2673,29.1,78,0.0,1008.7,8.3,25.2,67,29.8,17.4,7,0,4,1,2026-04-09T14:42:49.245476+05:30
Thiruvananthapuram,Kerala,8.5241,76.9366,29.0,80,0.0,1007.8,9.05,30.6,51,23.9,14.4,7,5,4,1,2026-04-09T14:42:49.245483+05:30
Kozhikode,Kerala,11.2588,75.7804,30.9,68,0.0,1007.9,9.15,25.9,66,64.0,23.8,3,5,4,1,2026-04-09T14:42:49.245489+05:30
Thrissur,Kerala,10.5276,76.2144,33.6,56,0.0,1007.1,7.7,28.8,63,30.9,16.5,0,5,4,1,2026-04-09T14:42:49.245496+05:30
Kannur,Kerala,11.8745,75.3704,32.3,59,0.0,1007.4,9.15,32.8,71,52.4,20.1,0,5,4,1,2026-04-09T14:42:49.245502+05:30
Patna,Bihar,25.5941,85.1376,31.4,36,0.0,1001.8,8.3,27.4,114,74.7,33.1,0,5,4,0,2026-04-09T14:42:49.245509+05:30
Gaya,Bihar,24.7914,85.0002,31.3,39,0.0,995.5,8.4,22.7,115,63.1,29.1,0,5,7,0,2026-04-09T14:42:49.245515+05:30
Muzaffarpur,Bihar,26.1209,85.3647,30.8,38,0.0,1001.9,7.75,20.5,122,71.7,33.8,0,5,4,0,2026-04-09T14:42:49.245522+05:30
Bhagalpur,Bihar,25.2425,87.0117,29.5,49,0.0,1002.4,8.25,23.4,130,46.0,29.4,4,5,4,1,2026-04-09T14:42:49.245528+05:30
Ranchi,Jharkhand,23.3441,85.3096,28.9,40,0.0,939.1,8.85,32.4,117,51.6,18.5,4,5,7,0,2026-04-09T14:42:49.245534+05:30
Jamshedpur,Jharkhand,22.8046,86.2029,31.3,47,0.0,991.6,8.6,15.8,113,112.2,53.9,0,5,7,1,2026-04-09T14:42:49.245541+05:30
Dhanbad,Jharkhand,23.7957,86.4304,30.7,41,0.0,981.0,8.7,24.5,151,85.2,37.6,0,5,7,0,2026-04-09T14:42:49.245548+05:30
Bokaro,Jharkhand,23.6693,86.1511,30.2,45,0.0,985.1,8.7,22.7,153,73.8,32.6,0,5,7,1,2026-04-09T14:42:49.245554+05:30
Bhubaneswar,Odisha,20.2961,85.8245,31.3,68,0.0,1002.6,9.0,32.8,90,75.7,48.0,3,5,4,1,2026-04-09T14:42:49.245560+05:30
Cuttack,Odisha,20.4625,85.8828,32.5,60,0.0,1004.4,9.05,31.7,90,75.7,48.0,0,5,4,1,2026-04-09T14:42:49.245565+05:30
Rourkela,Odisha,22.2604,84.8536,32.9,40,0.0,985.6,8.75,20.2,127,70.3,25.4,0,5,7,1,2026-04-09T14:42:49.245571+05:30
Raipur,Chhattisgarh,21.2514,81.6296,35.5,28,0.0,974.9,8.85,27.0,115,86.6,38.5,0,5,10,0,2026-04-09T14:42:49.245577+05:30
Bhilai,Chhattisgarh,21.1938,81.3509,35.8,29,0.0,975.4,8.6,25.9,117,87.1,38.4,0,5,10,0,2026-04-09T14:42:49.245583+05:30
Guwahati,Assam,26.1158,91.7086,27.5,68,0.0,1002.1,8.05,22.3,80,31.3,25.1,7,5,4,1,2026-04-09T14:42:49.245589+05:30
Agartala,Tripura,23.8315,91.2868,25.3,83,0.0,1007.6,8.25,18.7,110,19.2,16.0,7,5,4,1,2026-04-09T14:42:49.245595+05:30
Shillong,Meghalaya,25.5788,91.8933,15.7,72,0.0,855.7,8.3,45.4,80,28.0,22.9,3,5,7,0,2026-04-09T14:42:49.245601+05:30
Imphal,Manipur,24.817,93.9368,18.8,84,0.0,923.8,7.55,53.3,79,28.5,23.7,3,10,7,0,2026-04-09T14:42:49.245608+05:30
Aizawl,Mizoram,23.7271,92.7176,20.3,80,0.0,893.4,6.4,49.3,71,28.1,23.9,3,5,7,1,2026-04-09T14:42:49.245614+05:30
Kohima,Nagaland,25.6701,94.1077,15.8,81,0.1,854.7,6.7,70.6,76,26.1,18.7,6,10,7,0,2026-04-09T14:42:49.245620+05:30
Gangtok,Sikkim,27.3314,88.6138,15.1,79,0.0,836.7,5.8,20.5,103,18.9,14.5,3,5,3,0,2026-04-09T14:42:49.245627+05:30
Siliguri,West Bengal,26.7271,88.3953,23.8,66,0.0,994.7,4.4,21.6,113,31.1,22.6,3,5,3,1,2026-04-09T14:42:52.473130+05:30
Durgapur,West Bengal,23.5204,87.3119,30.5,48,0.0,996.1,8.7,18.0,128,89.6,45.9,0,5,7,1,2026-04-09T14:42:52.473165+05:30
Asansol,West Bengal,23.6739,86.9524,30.4,49,0.0,994.8,8.7,19.8,129,98.0,44.0,0,5,7,1,2026-04-09T14:42:52.473176+05:30
Pondicherry,Puducherry,11.9139,79.8145,36.9,42,0.0,1007.1,9.3,29.9,67,28.3,23.2,0,5,7,1,2026-04-09T14:42:52.473184+05:30
Port Blair,Andaman and Nicobar Islands,11.6234,92.7265,29.5,72,0.0,1007.7,9.25,12.2,33,7.0,5.7,7,5,4,1,2026-04-09T14:42:52.473192+05:30
Haridwar,Uttarakhand,29.9457,78.1642,27.0,38,0.0,979.3,6.9,30.2,69,27.1,12.9,4,5,7,0,2026-04-09T14:42:52.473200+05:30
Rishikesh,Uttarakhand,30.0869,78.2676,26.2,38,0.0,971.7,6.95,29.9,73,19.2,9.1,4,5,7,0,2026-04-09T14:42:52.473207+05:30
Nainital,Uttarakhand,29.3919,79.4542,18.6,45,0.0,808.7,7.8,40.7,75,34.2,16.6,0,5,7,0,2026-04-09T14:42:52.473214+05:30
Mussoorie,Uttarakhand,30.4599,78.0664,15.7,60,0.0,805.1,6.6,27.7,75,18.2,9.1,0,5,7,0,2026-04-09T14:42:52.473221+05:30
Dharamshala,Himachal Pradesh,32.219,76.3234,18.2,65,0.0,872.7,7.5,19.8,118,16.3,7.4,3,5,7,0,2026-04-09T14:42:52.473227+05:30
Dalhousie,Himachal Pradesh,32.5387,75.971,16.1,53,0.0,806.9,7.65,18.4,89,19.2,7.9,0,5,7,0,2026-04-09T14:42:52.473234+05:30
Patiala,Punjab,30.3398,76.3869,26.8,40,0.0,983.8,6.9,25.2,83,243.1,37.7,4,5,7,0,2026-04-09T14:42:52.473242+05:30
Bhatinda,Punjab,30.211,74.9455,28.1,38,0.0,989.2,7.6,25.6,97,58.2,26.4,4,5,7,0,2026-04-09T14:42:52.473248+05:30
Rohtak,Haryana,28.8955,76.6066,29.0,35,0.0,986.4,7.05,19.4,143,271.9,42.4,4,5,7,0,2026-04-09T14:42:52.473255+05:30
Panipat,Haryana,29.3909,76.9635,28.4,35,0.0,985.5,6.9,22.3,130,480.6,61.9,4,5,7,0,2026-04-09T14:42:52.473261+05:30
Mathura,Uttar Pradesh,27.4924,77.6737,29.9,35,0.0,991.1,7.35,25.2,318,321.3,46.8,4,5,7,0,2026-04-09T14:42:52.473268+05:30
Vrindavan,Uttar Pradesh,27.5823,77.7027,29.7,36,0.0,991.6,7.35,24.8,318,321.3,46.8,4,5,7,0,2026-04-09T14:42:52.473274+05:30
Ayodhya,Uttar Pradesh,26.7922,82.1998,31.5,28,0.0,998.2,7.75,32.8,122,56.1,22.5,0,5,7,0,2026-04-09T14:42:52.473281+05:30
Ratlam,Madhya Pradesh,23.3315,75.0367,32.8,28,0.0,957.3,8.3,26.6,67,45.8,17.1,0,5,7,0,2026-04-09T14:42:52.473287+05:30
Sagar,Madhya Pradesh,23.8388,78.7378,32.8,25,0.0,952.6,8.4,27.0,70,70.1,20.2,0,5,7,0,2026-04-09T14:42:52.473293+05:30
Satna,Madhya Pradesh,24.6005,80.8322,31.5,27,0.0,974.0,8.4,25.2,82,66.4,15.7,0,5,7,0,2026-04-09T14:42:52.473299+05:30
Akola,Maharashtra,20.7002,77.0082,35.3,30,0.0,976.0,8.7,25.6,71,51.3,21.1,0,5,10,0,2026-04-09T14:42:52.473307+05:30
Amravati,Maharashtra,20.9374,77.7796,35.7,25,0.0,968.1,8.7,17.6,70,47.5,19.8,0,5,10,0,2026-04-09T14:42:52.473314+05:30
Latur,Maharashtra,18.4088,76.5604,33.5,27,0.0,941.0,8.95,28.4,79,127.1,37.6,0,5,7,0,2026-04-09T14:42:52.473320+05:30
Nanded,Maharashtra,19.1383,77.3091,35.5,28,0.0,969.7,8.85,20.2,77,101.0,31.1,0,5,10,0,2026-04-09T14:42:52.473327+05:30
Gulbarga,Karnataka,17.3297,76.8343,37.9,16,0.0,959.0,9.0,31.3,75,74.3,26.0,0,5,10,0,2026-04-09T14:42:52.473333+05:30
Bidar,Karnataka,17.9104,77.5199,35.3,23,0.0,936.5,9.05,32.4,91,71.5,26.0,0,5,10,0,2026-04-09T14:42:52.473339+05:30
Hospet,Karnataka,15.2689,76.3909,35.8,27,0.0,956.1,9.2,22.7,68,71.7,22.9,0,5,10,0,2026-04-09T14:42:52.473345+05:30
Tirupur,Tamil Nadu,11.1085,77.3411,37.4,30,0.0,974.6,9.25,34.2,63,13.2,10.3,0,5,10,1,2026-04-09T14:42:52.473352+05:30
Alappuzha,Kerala,9.4981,76.3388,29.1,78,0.0,1008.8,8.2,24.5,61,33.3,19.7,7,0,4,1,2026-04-09T14:42:52.473359+05:30
Munnar,Kerala,10.0889,77.0595,25.8,72,0.0,858.6,9.05,33.8,64,21.4,17.6,7,5,7,1,2026-04-09T14:42:52.473366+05:30
Silchar,Assam,24.8333,92.7789,24.8,79,0.0,1006.6,4.85,24.1,91,38.5,32.6,3,5,0,1,2026-04-09T14:42:52.473372+05:30
Dibrugarh,Assam,27.4728,94.912,24.6,72,0.0,997.0,3.6,25.9,94,36.4,23.0,3,5,3,1,2026-04-09T14:42:52.473378+05:30
