city,state,latitude,longitude,temp,humidity,rain,pressure,uv_index,wind_gusts,aqi,pm10,pm2_5,no2,co,o3,so2,mosquito_risk,arthritis_risk,migraine_risk,frizz_risk,updated_at
Delhi,Delhi,28.6139,77.209,30.0,73,0.0,976.4,7.7,40.7,152,168.1,82.0,34.7,592.0,131.0,41.0,7,5,7,1,2026-07-10T10:23:42.421877+05:30
Mumbai,Maharashtra,19.076,72.8777,29.2,77,0.0,1008.8,6.55,49.0,59,36.9,17.1,6.7,185.0,50.0,6.1,7,0,4,1,2026-07-10T10:23:42.421922+05:30
Bangalore,Karnataka,12.9716,77.5946,26.5,60,0.1,914.6,6.2,42.5,36,9.7,6.0,6.8,296.0,45.0,4.0,7,5,7,1,2026-07-10T10:23:42.421934+05:30
Hyderabad,Telangana,17.385,78.4867,29.6,56,0.0,954.2,8.85,46.1,58,25.4,12.2,4.3,241.0,48.0,4.4,4,5,7,1,2026-07-10T10:23:42.421942+05:30
Chennai,Tamil Nadu,13.0827,80.2707,33.0,59,0.0,1008.2,4.95,29.2,64,26.4,20.1,17.3,392.0,66.0,17.6,0,0,0,1,2026-07-10T10:23:42.421948+05:30
Kolkata,West Bengal,22.5726,88.3639,27.3,92,0.2,1001.2,7.2,32.8,67,25.7,21.5,7.9,484.0,89.0,10.7,10,5,4,1,2026-07-10T10:23:42.421954+05:30
Pune,Maharashtra,18.5204,73.8567,26.9,72,0.0,948.3,7.45,49.0,28,13.8,6.0,4.4,150.0,45.0,4.8,7,5,7,1,2026-07-10T10:23:42.421960+05:30
Ahmedabad,Gujarat,23.0225,72.5714,30.3,67,0.0,1000.1,8.15,44.3,74,38.2,16.5,4.5,140.0,48.0,4.8,3,5,4,1,2026-07-10T10:23:42.421966+05:30
Jaipur,Rajasthan,26.9124,75.7873,31.5,64,0.0,954.8,8.2,41.8,147,713.4,121.1,3.8,165.0,73.0,4.9,3,5,7,1,2026-07-10T10:23:42.421971+05:30
Lucknow,Uttar Pradesh,26.8467,80.9462,28.6,87,0.3,988.1,7.25,34.6,74,52.0,27.3,11.8,212.0,87.0,8.9,10,5,7,1,2026-07-10T10:23:42.421980+05:30
Kanpur,Uttar Pradesh,26.4499,80.3319,31.7,71,0.0,986.1,8.15,45.7,76,84.5,41.9,12.3,177.0,77.0,9.6,3,5,7,1,2026-07-10T10:23:42.421985+05:30
Chandigarh,Chandigarh,30.7333,76.7794,25.5,94,0.8,962.6,1.95,18.0,154,38.4,38.0,7.8,990.0,152.0,13.9,10,5,3,1,2026-07-10T10:23:42.421990+05:30
Srinagar,Jammu and Kashmir,34.0837,74.7973,26.7,50,0.0,839.5,9.05,23.0,84,33.2,29.7,4.7,508.0,156.0,6.9,4,5,7,0,2026-07-10T10:23:42.421995+05:30
Jammu,Jammu and Kashmir,32.7266,74.857,32.6,57,0.0,966.3,8.55,41.8,157,76.4,58.4,7.1,439.0,176.0,8.5,0,5,7,1,2026-07-10T10:23:42.422000+05:30
Amritsar,Punjab,31.634,74.8723,30.7,70,0.0,974.3,8.4,25.2,160,104.8,69.4,9.9,540.0,126.0,11.1,3,5,7,1,2026-07-10T10:23:42.422005+05:30
Ludhiana,Punjab,30.901,75.8573,29.6,70,0.0,972.6,7.9,25.6,160,114.6,53.6,10.5,452.0,119.0,12.5,7,5,7,1,2026-07-10T10:23:42.422009+05:30
Jalandhar,Punjab,31.326,75.5762,30.4,68,0.0,973.5,8.15,24.1,160,122.0,70.3,12.3,447.0,127.0,12.3,3,5,7,1,2026-07-10T10:23:42.422014+05:30
Dehradun,Uttarakhand,30.6284,78.0322,19.2,96,0.3,826.8,1.05,23.8,65,18.2,18.1,7.6,199.0,89.0,1.2,6,10,3,1,2026-07-10T10:23:42.422019+05:30
Shimla,Himachal Pradesh,31.1048,77.1734,16.1,97,0.3,781.2,1.9,15.1,58,20.8,19.0,2.1,320.0,123.0,1.5,6,10,3,0,2026-07-10T10:23:42.422024+05:30
Manali,Himachal Pradesh,32.2396,77.1887,22.3,91,0.2,816.5,8.05,31.0,29,5.7,5.5,11.6,245.0,86.0,1.1,6,5,7,1,2026-07-10T10:23:42.422033+05:30
Gurgaon,Haryana,28.4595,77.0266,30.8,69,0.0,975.0,7.75,43.9,157,516.0,119.0,30.9,437.0,99.0,27.6,3,5,7,1,2026-07-10T10:23:42.422037+05:30
Noida,Uttar Pradesh,28.5355,77.391,30.5,70,0.1,977.7,7.75,39.2,157,516.0,119.0,30.9,653.0,99.0,27.6,6,5,7,1,2026-07-10T10:23:42.422042+05:30
Ghaziabad,Uttar Pradesh,28.6692,77.4538,29.9,72,0.0,975.8,7.7,43.2,130,109.2,65.4,19.3,318.0,131.0,30.4,7,5,7,1,2026-07-10T10:23:42.422047+05:30
Faridabad,Haryana,28.4089,77.3178,30.4,72,0.0,977.0,7.75,49.0,157,516.0,119.0,30.9,540.0,99.0,27.6,3,5,7,1,2026-07-10T10:23:42.422051+05:30
Meerut,Uttar Pradesh,28.9845,77.7064,25.9,96,0.8,974.5,7.55,34.2,130,109.2,65.4,19.3,337.0,131.0,30.4,10,5,7,1,2026-07-10T10:23:42.422056+05:30
Agra,Uttar Pradesh,27.1767,78.0081,32.9,65,0.0,981.2,8.0,52.2,150,403.3,77.3,9.3,206.0,77.0,6.6,3,5,7,1,2026-07-10T10:23:42.422061+05:30
Varanasi,Uttar Pradesh,25.3176,82.9739,31.5,72,0.0,992.8,8.3,41.0,70,54.5,35.5,9.9,242.0,74.0,10.5,3,5,7,1,2026-07-10T10:23:42.422065+05:30
Prayagraj,Uttar Pradesh,25.4358,81.8463,30.6,72,0.0,991.4,8.6,39.2,72,58.9,35.6,8.8,210.0,75.0,9.0,3,5,7,1,2026-07-10T10:23:42.422072+05:30
Gorakhpur,Uttar Pradesh,26.7606,83.3732,30.3,78,0.0,991.8,7.35,29.5,91,15.1,14.7,4.8,312.0,111.0,7.1,3,5,7,1,2026-07-10T10:23:42.422077+05:30
Bareilly,Uttar Pradesh,28.367,79.4304,27.9,92,0.1,979.9,7.8,38.5,75,29.2,25.7,11.4,412.0,78.0,8.0,10,5,7,1,2026-07-10T10:23:42.422083+05:30
Aligarh,Uttar Pradesh,27.8974,78.088,31.5,69,0.0,978.4,7.85,50.0,133,287.8,84.5,16.5,364.0,81.0,12.2,3,5,7,1,2026-07-10T10:23:42.422088+05:30
Moradabad,Uttar Pradesh,28.8386,78.7733,26.6,96,0.2,975.7,6.65,41.8,76,31.8,24.3,14.1,353.0,83.0,13.8,10,5,7,1,2026-07-10T10:23:42.422092+05:30
Saharanpur,Uttar Pradesh,29.9637,77.546,26.4,89,0.1,969.6,1.1,30.6,96,29.0,27.6,10.7,441.0,122.0,10.7,10,5,3,1,2026-07-10T10:23:42.422097+05:30
Jhansi,Uttar Pradesh,25.4484,78.5685,32.5,63,0.0,973.3,8.4,46.8,99,59.5,34.8,4.6,164.0,82.0,9.6,3,5,7,1,2026-07-10T10:23:45.788053+05:30
Surat,Gujarat,21.1702,72.8311,30.1,74,0.0,1005.8,7.2,56.5,66,43.2,21.2,11.4,307.0,35.0,31.8,3,5,4,1,2026-07-10T10:23:45.788084+05:30
Vadodara,Gujarat,22.3072,73.1812,30.9,68,0.0,1002.8,8.1,46.8,68,36.0,15.3,4.6,151.0,44.0,4.1,3,5,4,1,2026-07-10T10:23:45.788092+05:30
Rajkot,Gujarat,22.3039,70.8022,30.9,64,0.0,992.1,7.7,52.2,64,37.6,15.6,2.3,105.0,50.0,3.5,3,5,7,1,2026-07-10T10:23:45.788099+05:30
Thane,Maharashtra,19.2183,72.9781,30.4,72,0.0,1008.0,7.2,43.2,59,36.9,17.1,6.7,184.0,50.0,6.1,3,0,4,1,2026-07-10T10:23:45.788105+05:30
Nagpur,Maharashtra,21.1458,79.0882,30.1,64,0.1,971.9,6.85,38.9,75,47.4,21.4,8.0,152.0,49.0,16.6,6,5,7,1,2026-07-10T10:23:45.788112+05:30
Nashik,Maharashtra,19.9975,73.7898,26.3,76,0.0,945.2,7.45,55.4,33,19.9,8.8,3.9,124.0,43.0,2.7,7,5,7,1,2026-07-10T10:23:45.788117+05:30
Aurangabad,Maharashtra,19.8762,75.3433,27.2,68,0.0,944.0,8.85,52.6,48,18.4,7.7,3.7,117.0,48.0,7.0,7,5,7,1,2026-07-10T10:23:45.788123+05:30
Solapur,Maharashtra,17.6599,75.9064,27.7,69,0.0,958.2,7.4,40.7,47,17.5,7.2,2.7,112.0,46.0,2.4,7,5,7,1,2026-07-10T10:23:45.788129+05:30
Kolhapur,Maharashtra,16.705,74.2433,26.6,74,0.0,949.3,7.95,49.3,35,16.2,7.1,4.2,124.0,41.0,2.3,7,5,7,1,2026-07-10T10:23:45.788134+05:30
Goa,Goa,15.2993,74.124,28.0,85,0.1,1000.4,8.4,34.6,61,27.5,12.7,2.0,148.0,44.0,1.4,10,5,4,1,2026-07-10T10:23:45.788141+05:30
Jodhpur,Rajasthan,26.2389,73.0243,30.4,62,0.0,978.6,5.4,48.2,179,317.6,72.6,2.0,111.0,60.0,3.6,3,5,3,1,2026-07-10T10:23:45.788146+05:30
Udaipur,Rajasthan,24.5854,73.7125,27.8,66,0.0,943.5,8.85,48.2,82,46.3,19.2,2.4,109.0,53.0,4.2,7,5,7,1,2026-07-10T10:23:45.788152+05:30
Kota,Rajasthan,25.2138,75.8648,31.9,60,0.0,975.0,6.3,38.2,102,51.8,27.9,4.6,134.0,72.0,7.7,0,5,7,1,2026-07-10T10:23:45.788158+05:30
Bikaner,Rajasthan,28.0229,73.3119,33.8,52,0.0,975.8,8.45,38.9,153,272.9,94.8,1.1,118.0,66.0,4.0,0,5,7,1,2026-07-10T10:23:45.788163+05:30
Ajmer,Rajasthan,26.4499,74.6399,29.2,69,0.0,950.3,8.4,54.0,102,92.7,35.2,2.3,119.0,65.0,3.9,7,5,7,1,2026-07-10T10:23:45.788169+05:30
Gwalior,Madhya Pradesh,26.2183,78.1828,32.3,64,0.0,977.7,8.2,44.6,88,66.8,36.2,3.9,166.0,80.0,4.4,3,5,7,1,2026-07-10T10:23:45.788175+05:30
Indore,Madhya Pradesh,22.7196,75.8577,27.2,74,0.0,946.5,8.45,54.4,80,44.6,18.3,5.2,207.0,48.0,8.4,7,5,7,1,2026-07-10T10:23:45.788180+05:30
Bhopal,Madhya Pradesh,23.2599,77.4126,28.6,74,0.0,951.4,8.25,45.0,83,33.2,17.9,4.0,184.0,53.0,7.9,7,5,7,1,2026-07-10T10:23:45.788185+05:30
Jabalpur,Madhya Pradesh,23.1815,79.9864,29.9,70,0.0,959.2,2.35,38.5,81,55.1,31.3,5.0,190.0,70.0,7.6,7,5,3,1,2026-07-10T10:23:45.788190+05:30
Ujjain,Madhya Pradesh,23.1765,75.7885,28.1,71,0.0,951.9,8.5,54.4,80,44.6,17.9,3.6,154.0,49.0,5.8,7,5,7,1,2026-07-10T10:23:45.788195+05:30
Visakhapatnam,Andhra Pradesh,17.6868,83.2185,30.8,73,0.0,1002.4,7.05,47.5,77,41.4,28.1,13.6,345.0,88.0,35.0,3,5,4,1,2026-07-10T10:23:45.788201+05:30
Vijayawada,Andhra Pradesh,16.5062,80.648,33.3,54,0.0,1002.3,6.35,37.8,63,35.0,21.1,6.2,177.0,64.0,9.4,0,5,4,1,2026-07-10T10:23:45.788205+05:30
Guntur,Andhra Pradesh,16.3067,80.4365,33.7,51,0.0,1003.6,7.1,39.2,66,32.9,18.9,5.6,155.0,58.0,9.0,0,5,4,1,2026-07-10T10:23:45.788210+05:30
Nellore,Andhra Pradesh,14.4426,79.9865,33.5,50,0.0,1006.6,6.0,48.2,53,24.1,12.3,4.7,109.0,54.0,5.2,0,5,0,1,2026-07-10T10:23:45.788216+05:30
Kurnool,Andhra Pradesh,15.8281,78.0373,30.5,55,0.0,978.7,7.25,43.2,51,22.1,10.5,4.1,119.0,43.0,4.8,0,5,7,1,2026-07-10T10:23:45.788222+05:30
Kakinada,Andhra Pradesh,16.9891,82.2475,31.1,68,0.0,1006.9,7.1,42.1,63,33.8,20.6,5.6,188.0,85.0,5.9,3,5,4,1,2026-07-10T10:23:45.788228+05:30
Tirupati,Andhra Pradesh,13.6288,79.4192,33.7,44,0.0,992.4,7.65,37.1,53,23.2,12.2,3.7,111.0,66.0,2.3,0,5,7,1,2026-07-10T10:23:45.788233+05:30
Warangal,Telangana,17.9689,79.5941,31.0,59,0.0,978.7,8.15,34.9,70,33.9,17.7,3.3,155.0,59.0,3.5,0,5,7,1,2026-07-10T10:23:45.788238+05:30
Nizamabad,Telangana,18.6725,78.0941,29.2,62,0.0,965.4,8.4,42.5,68,24.4,12.3,3.8,136.0,46.0,6.3,7,5,7,1,2026-07-10T10:23:45.788243+05:30
Mysore,Karnataka,12.2958,76.6396,26.7,67,0.1,931.4,7.65,43.9,28,6.3,3.7,3.9,125.0,49.0,2.2,10,5,7,1,2026-07-10T10:23:45.788248+05:30
Mangalore,Karnataka,12.9141,74.856,27.2,86,0.1,1010.6,7.65,31.7,60,24.3,11.5,2.6,168.0,47.0,2.0,10,0,4,1,2026-07-10T10:23:45.788254+05:30
Hubli-Dharwad,Karnataka,15.3647,75.124,26.7,72,0.0,942.7,8.45,53.3,27,7.8,4.1,3.9,109.0,41.0,1.5,7,5,7,1,2026-07-10T10:23:45.788259+05:30
Belgaum,Karnataka,15.8497,74.4977,25.8,74,0.0,927.6,8.5,48.2,26,9.5,4.5,3.6,108.0,40.0,1.7,7,5,7,1,2026-07-10T10:23:49.151242+05:30
Coimbatore,Tamil Nadu,11.0168,76.9558,29.3,60,0.0,964.9,7.85,43.9,33,20.1,9.9,2.9,170.0,57.0,2.8,4,5,7,1,2026-07-10T10:23:49.151275+05:30
Madurai,Tamil Nadu,9.9252,78.1198,34.4,44,0.0,995.4,8.75,35.3,54,24.1,15.3,7.3,154.0,67.0,5.9,0,5,7,1,2026-07-10T10:23:49.151284+05:30
Trichy,Tamil Nadu,10.7905,78.7047,33.7,48,0.0,1001.7,8.65,53.6,41,16.5,9.2,3.0,120.0,54.0,3.1,0,5,4,1,2026-07-10T10:23:49.151291+05:30
Salem,Tamil Nadu,11.6643,78.146,29.6,68,0.0,980.4,8.35,37.8,58,25.4,16.5,7.4,221.0,73.0,12.3,7,5,7,1,2026-07-10T10:23:49.151297+05:30
Tirunelveli,Tamil Nadu,8.7139,77.7567,35.0,43,0.0,1005.7,8.6,47.5,39,5.9,4.1,2.8,124.0,54.0,1.9,0,5,4,1,2026-07-10T10:23:49.151331+05:30
Vellore,Tamil Nadu,12.9165,79.1325,32.9,49,0.0,986.2,8.25,38.9,62,22.4,12.7,4.2,128.0,65.0,4.1,0,5,7,1,2026-07-10T10:23:49.151338+05:30
Erode,Tamil Nadu,11.341,77.7172,33.2,48,0.0,991.8,8.3,53.3,48,19.2,11.9,5.3,185.0,61.0,3.9,0,5,7,1,2026-07-10T10:23:49.151344+05:30
Kochi,Kerala,9.9312,76.2673,26.5,86,0.0,1013.5,7.9,33.1,53,17.5,11.2,5.7,166.0,53.0,3.9,7,0,4,1,2026-07-10T10:23:49.151351+05:30
Thiruvananthapuram,Kerala,8.5241,76.9366,28.0,79,0.0,1012.5,7.75,43.9,51,17.8,10.2,3.9,153.0,56.0,1.8,7,0,4,1,2026-07-10T10:23:49.151356+05:30
Kozhikode,Kerala,11.2588,75.7804,26.9,86,0.1,1012.3,7.9,36.7,46,19.7,8.6,1.0,171.0,55.0,1.1,10,0,4,1,2026-07-10T10:23:49.151362+05:30
Thrissur,Kerala,10.5276,76.2144,27.5,86,0.0,1011.5,7.35,36.7,53,14.5,8.8,4.0,158.0,53.0,2.8,7,0,4,1,2026-07-10T10:23:49.151368+05:30
Kannur,Kerala,11.8745,75.3704,26.0,93,0.1,1011.4,8.2,33.8,54,22.6,10.6,3.0,160.0,48.0,1.7,10,0,4,1,2026-07-10T10:23:49.151374+05:30
Patna,Bihar,25.5941,85.1376,30.0,81,0.1,994.9,7.7,28.1,91,14.4,13.6,9.8,309.0,85.0,12.1,10,5,7,1,2026-07-10T10:23:49.151380+05:30
Gaya,Bihar,24.7914,85.0002,30.8,72,0.1,989.0,7.9,37.1,69,13.9,11.6,6.3,249.0,87.0,10.9,6,5,7,1,2026-07-10T10:23:49.151386+05:30
Muzaffarpur,Bihar,26.1209,85.3647,30.8,77,0.0,994.7,7.55,24.5,104,21.5,20.9,7.9,293.0,112.0,15.7,3,5,7,1,2026-07-10T10:23:49.151391+05:30
Bhagalpur,Bihar,25.2425,87.0117,31.0,77,0.0,995.5,7.8,22.0,108,22.5,22.2,9.2,286.0,116.0,31.3,3,5,7,1,2026-07-10T10:23:49.151396+05:30
Ranchi,Jharkhand,23.3441,85.3096,27.3,78,0.0,934.3,7.9,39.2,62,13.5,10.4,5.0,195.0,72.0,5.3,7,5,7,1,2026-07-10T10:23:49.151402+05:30
Jamshedpur,Jharkhand,22.8046,86.2029,29.7,78,0.0,986.5,8.95,39.6,71,16.6,14.8,10.4,238.0,77.0,22.9,7,5,7,1,2026-07-10T10:23:49.151408+05:30
Dhanbad,Jharkhand,23.7957,86.4304,30.7,73,0.0,975.2,7.05,31.7,103,30.2,27.0,21.8,256.0,73.0,63.5,3,5,7,1,2026-07-10T10:23:49.151413+05:30
Bokaro,Jharkhand,23.6693,86.1511,30.8,71,0.0,979.1,8.0,35.6,83,25.0,21.4,15.6,247.0,73.0,47.7,3,5,7,1,2026-07-10T10:23:49.151419+05:30
Bhubaneswar,Odisha,20.2961,85.8245,30.1,83,0.0,999.7,7.85,35.6,74,25.1,19.3,9.2,256.0,70.0,5.5,3,5,7,1,2026-07-10T10:23:49.151423+05:30
Cuttack,Odisha,20.4625,85.8828,28.9,90,0.1,1001.5,7.95,45.7,74,25.1,19.3,9.2,248.0,70.0,5.5,10,5,4,1,2026-07-10T10:23:49.151428+05:30
Rourkela,Odisha,22.2604,84.8536,29.2,81,0.0,981.8,7.45,37.4,78,34.5,25.3,13.0,280.0,61.0,13.5,7,5,7,1,2026-07-10T10:23:49.151433+05:30
Raipur,Chhattisgarh,21.2514,81.6296,30.2,68,0.0,972.6,8.25,41.4,93,57.3,36.0,21.0,379.0,54.0,47.8,3,5,7,1,2026-07-10T10:23:49.151438+05:30
Bhilai,Chhattisgarh,21.1938,81.3509,30.0,68,0.0,973.1,8.1,43.9,92,56.8,33.2,16.9,530.0,58.0,40.1,7,5,7,1,2026-07-10T10:23:49.151443+05:30
Guwahati,Assam,26.1158,91.7086,29.2,81,0.0,996.2,5.85,20.9,53,8.6,8.1,2.0,244.0,96.0,3.5,7,5,3,1,2026-07-10T10:23:49.151448+05:30
Agartala,Tripura,23.8315,91.2868,27.3,96,0.1,1001.1,6.55,50.0,47,10.2,9.1,5.7,173.0,68.0,2.0,10,5,4,1,2026-07-10T10:23:49.151453+05:30
Shillong,Meghalaya,25.5788,91.8933,24.6,74,0.0,855.1,3.1,36.7,26,4.2,3.7,2.1,145.0,85.0,2.3,3,5,3,1,2026-07-10T10:23:49.151459+05:30
Imphal,Manipur,24.817,93.9368,27.1,75,0.1,920.6,2.8,35.6,42,1.8,1.8,1.3,139.0,79.0,1.8,10,5,3,1,2026-07-10T10:23:49.151464+05:30
Aizawl,Mizoram,23.7271,92.7176,23.8,75,0.0,890.4,7.7,56.9,23,3.6,1.9,1.7,117.0,67.0,1.6,3,5,7,1,2026-07-10T10:23:49.151470+05:30
Kohima,Nagaland,25.6701,94.1077,23.6,95,0.0,853.7,7.15,24.5,28,3.6,2.6,0.5,153.0,83.0,1.3,3,5,7,1,2026-07-10T10:23:49.151475+05:30
Gangtok,Sikkim,27.3314,88.6138,21.7,92,0.1,835.7,7.7,30.2,40,2.8,2.8,2.2,229.0,102.0,2.4,6,5,7,1,2026-07-10T10:23:49.151481+05:30
Siliguri,West Bengal,26.7271,88.3953,26.5,96,0.0,988.1,8.2,28.1,68,11.1,10.8,2.8,412.0,114.0,3.9,7,5,7,1,2026-07-10T10:23:52.506008+05:30
Durgapur,West Bengal,23.5204,87.3119,27.7,94,0.2,990.1,8.4,29.5,91,30.7,27.9,23.4,507.0,74.0,53.6,10,5,7,1,2026-07-10T10:23:52.506039+05:30
Asansol,West Bengal,23.6739,86.9524,29.6,84,0.0,988.6,7.7,32.4,87,27.4,24.4,20.3,1095.0,76.0,47.9,7,5,7,1,2026-07-10T10:23:52.506050+05:30
Pondicherry,Puducherry,11.9139,79.8145,33.1,54,0.0,1009.9,6.8,40.7,63,22.6,16.3,9.6,214.0,66.0,11.1,0,0,4,1,2026-07-10T10:23:52.506058+05:30
Port Blair,Andaman and Nicobar Islands,11.6234,92.7265,31.0,67,0.0,1008.9,8.8,47.5,51,21.8,10.8,0.3,90.0,45.0,0.5,3,0,4,1,2026-07-10T10:23:52.506064+05:30
Haridwar,Uttarakhand,29.9457,78.1642,27.7,84,0.0,967.8,3.4,23.8,67,16.6,16.6,8.9,318.0,97.0,4.0,7,5,3,1,2026-07-10T10:23:52.506070+05:30
Rishikesh,Uttarakhand,30.0869,78.2676,26.9,86,0.0,960.5,3.35,18.7,50,8.3,8.3,6.8,286.0,81.0,0.6,7,5,3,1,2026-07-10T10:23:52.506076+05:30
Nainital,Uttarakhand,29.3919,79.4542,22.7,72,0.1,803.9,2.6,36.7,45,8.4,8.3,4.5,248.0,95.0,1.5,6,5,3,1,2026-07-10T10:23:52.506082+05:30
Mussoorie,Uttarakhand,30.4599,78.0664,17.8,99,0.2,799.7,0.95,26.3,67,21.8,21.7,8.6,254.0,100.0,4.6,6,10,3,1,2026-07-10T10:23:52.506088+05:30
Dharamshala,Himachal Pradesh,32.219,76.3234,22.1,90,0.1,865.0,8.45,26.3,81,25.6,23.3,1.3,342.0,133.0,1.5,6,5,7,1,2026-07-10T10:23:52.506094+05:30
Dalhousie,Himachal Pradesh,32.5387,75.971,22.5,76,0.0,803.2,8.65,24.5,150,50.2,44.0,4.7,376.0,160.0,4.3,3,5,7,1,2026-07-10T10:23:52.506101+05:30
Patiala,Punjab,30.3398,76.3869,27.2,90,0.5,972.3,7.3,18.0,155,90.6,40.2,8.4,333.0,115.0,13.8,10,5,7,1,2026-07-10T10:23:52.506107+05:30
Bhatinda,Punjab,30.211,74.9455,33.1,59,0.0,977.1,7.9,22.3,163,297.1,101.3,9.2,376.0,126.0,12.7,0,5,7,1,2026-07-10T10:23:52.506112+05:30
Rohtak,Haryana,28.8955,76.6066,30.7,71,0.0,975.6,7.65,35.6,154,326.0,91.7,20.9,375.0,115.0,19.4,3,5,7,1,2026-07-10T10:23:52.506117+05:30
Panipat,Haryana,29.3909,76.9635,26.2,93,0.4,974.5,5.1,24.8,157,265.4,79.9,18.3,406.0,117.0,26.1,10,5,3,1,2026-07-10T10:23:52.506123+05:30
Mathura,Uttar Pradesh,27.4924,77.6737,32.8,63,0.0,980.0,7.9,48.6,435,1162.3,165.8,10.8,307.0,61.0,4.9,3,5,7,1,2026-07-10T10:23:52.506128+05:30
Vrindavan,Uttar Pradesh,27.5823,77.7027,32.7,64,0.0,980.5,7.95,50.4,435,1162.3,165.8,10.8,330.0,61.0,4.9,3,5,7,1,2026-07-10T10:23:52.506133+05:30
Ayodhya,Uttar Pradesh,26.7922,82.1998,31.1,72,0.1,989.8,7.75,32.0,92,13.0,10.3,5.9,325.0,93.0,5.2,6,5,7,1,2026-07-10T10:23:52.506139+05:30
Ratlam,Madhya Pradesh,23.3315,75.0367,27.9,71,0.0,952.9,8.5,50.0,79,44.1,17.5,3.2,121.0,50.0,5.2,7,5,7,1,2026-07-10T10:23:52.506144+05:30
Sagar,Madhya Pradesh,23.8388,78.7378,29.0,72,0.0,947.5,6.95,46.1,85,46.1,27.6,4.9,152.0,66.0,7.8,7,5,7,1,2026-07-10T10:23:52.506149+05:30
Satna,Madhya Pradesh,24.6005,80.8322,30.4,68,0.0,967.6,8.2,38.2,69,71.5,34.7,4.6,227.0,76.0,4.6,3,5,7,1,2026-07-10T10:23:52.506155+05:30
Akola,Maharashtra,20.7002,77.0082,30.4,59,0.0,974.6,8.5,50.0,60,32.1,12.0,3.6,116.0,50.0,7.7,0,5,7,1,2026-07-10T10:23:52.506160+05:30
Amravati,Maharashtra,20.9374,77.7796,29.7,63,0.0,966.8,5.6,58.0,62,37.7,13.5,4.1,120.0,49.0,8.8,7,5,3,1,2026-07-10T10:23:52.506167+05:30
Latur,Maharashtra,18.4088,76.5604,27.7,65,0.0,940.6,8.75,44.3,52,15.7,6.6,2.7,121.0,43.0,2.9,7,5,7,1,2026-07-10T10:23:52.506172+05:30
Nanded,Maharashtra,19.1383,77.3091,28.2,68,0.0,969.2,8.1,43.6,62,21.9,10.5,4.0,133.0,45.0,4.3,7,5,7,1,2026-07-10T10:23:52.506177+05:30
Gulbarga,Karnataka,17.3297,76.8343,28.6,62,0.0,959.9,7.55,41.0,51,18.5,8.1,3.9,124.0,44.0,3.1,7,5,7,1,2026-07-10T10:23:52.506182+05:30
Bidar,Karnataka,17.9104,77.5199,28.0,61,0.0,936.6,7.55,42.8,56,18.5,9.4,3.8,131.0,44.0,2.2,7,5,7,1,2026-07-10T10:23:52.506188+05:30
Hospet,Karnataka,15.2689,76.3909,28.1,63,0.0,957.9,5.65,44.3,33,14.0,6.5,2.8,112.0,44.0,2.1,7,5,3,1,2026-07-10T10:23:52.506193+05:30
Tirupur,Tamil Nadu,11.1085,77.3411,30.8,55,0.0,978.3,8.2,45.4,51,23.2,13.8,5.6,147.0,62.0,4.6,0,5,7,1,2026-07-10T10:23:52.506199+05:30
Alappuzha,Kerala,9.4981,76.3388,26.3,88,0.1,1013.6,8.4,34.9,52,17.9,10.4,5.5,102.0,58.0,3.5,10,0,4,1,2026-07-10T10:23:52.506204+05:30
Munnar,Kerala,10.0889,77.0595,18.4,98,0.0,860.1,7.85,36.4,26,5.1,2.9,2.3,93.0,49.0,1.4,3,10,7,1,2026-07-10T10:23:52.506211+05:30
Silchar,Assam,24.8333,92.7789,29.3,83,0.0,1000.9,6.5,32.8,39,6.8,6.4,3.3,167.0,66.0,3.6,7,5,4,1,2026-07-10T10:23:52.506216+05:30
Dibrugarh,Assam,27.4728,94.912,30.8,75,0.0,990.0,5.7,28.8,63,13.2,11.7,2.0,178.0,96.0,2.6,3,5,3,1,2026-07-10T10:23:52.506221+05:30
