city,state,latitude,longitude,temp,humidity,rain,pressure,uv_index,wind_gusts,aqi,pm10,pm2_5,mosquito_risk,arthritis_risk,migraine_risk,frizz_risk,updated_at
Delhi,Delhi,28.6139,77.209,17.6,93,0.5,986.6,2.3,21.2,151,117.8,70.1,6,10,3,1,2026-03-20T07:55:46.590800+05:30
Mumbai,Maharashtra,19.076,72.8777,25.9,75,0.0,1011.2,7.8,24.8,71,50.6,28.7,7,0,4,1,2026-03-20T07:55:46.590848+05:30
Bangalore,Karnataka,12.9716,77.5946,20.0,85,0.0,913.4,9.4,16.9,95,24.4,22.2,3,5,7,1,2026-03-20T07:55:46.590864+05:30
Hyderabad,Telangana,17.385,78.4867,21.3,86,0.0,955.8,8.8,25.2,66,24.3,22.1,3,5,7,1,2026-03-20T07:55:46.590874+05:30
Chennai,Tamil Nadu,13.0827,80.2707,25.9,85,0.0,1010.6,9.15,33.5,29,12.9,10.9,7,0,4,1,2026-03-20T07:55:46.590883+05:30
Kolkata,West Bengal,22.5726,88.3639,25.2,90,0.0,1009.9,6.75,39.6,77,28.5,24.9,7,0,4,1,2026-03-20T07:55:46.590893+05:30
Pune,Maharashtra,18.5204,73.8567,18.5,88,0.0,949.8,8.35,36.7,79,51.9,42.4,3,10,7,1,2026-03-20T07:55:46.590905+05:30
Ahmedabad,Gujarat,23.0225,72.5714,19.8,83,0.0,1006.4,7.6,33.8,68,77.1,49.1,3,10,4,1,2026-03-20T07:55:46.590914+05:30
Jaipur,Rajasthan,26.9124,75.7873,18.0,88,0.0,961.8,6.75,25.2,104,61.7,25.4,3,10,7,0,2026-03-20T07:55:46.590922+05:30
Lucknow,Uttar Pradesh,26.8467,80.9462,23.0,59,0.0,995.2,3.55,43.6,91,61.9,45.4,0,5,3,0,2026-03-20T07:55:46.590930+05:30
Kanpur,Uttar Pradesh,26.4499,80.3319,20.5,84,0.0,994.6,3.05,43.6,115,70.5,51.1,3,5,3,1,2026-03-20T07:55:46.590937+05:30
Chandigarh,Chandigarh,30.7333,76.7794,15.9,96,0.0,971.3,0.7,25.2,90,53.1,23.5,3,10,3,0,2026-03-20T07:55:46.590945+05:30
Srinagar,Jammu and Kashmir,34.0837,74.7973,5.9,95,0.2,838.0,4.25,12.6,96,18.5,18.3,6,10,3,0,2026-03-20T07:55:46.590952+05:30
Jammu,Jammu and Kashmir,32.7266,74.857,16.2,91,0.0,975.1,4.25,20.9,94,54.8,40.6,3,10,3,0,2026-03-20T07:55:46.590960+05:30
Amritsar,Punjab,31.634,74.8723,15.3,97,0.0,983.6,3.95,19.4,97,61.9,46.3,3,10,3,0,2026-03-20T07:55:46.590966+05:30
Ludhiana,Punjab,30.901,75.8573,15.6,97,0.0,981.7,2.9,17.3,106,54.0,28.7,3,10,3,0,2026-03-20T07:55:46.590973+05:30
Jalandhar,Punjab,31.326,75.5762,15.3,97,0.0,982.9,3.15,18.0,93,64.5,37.7,3,10,3,0,2026-03-20T07:55:46.590998+05:30
Dehradun,Uttarakhand,30.6284,78.0322,10.3,80,0.0,828.0,0.4,34.6,47,21.9,8.8,3,5,3,0,2026-03-20T07:55:46.591007+05:30
Shimla,Himachal Pradesh,31.1048,77.1734,7.8,91,0.1,780.3,0.7,40.7,43,34.5,13.8,6,10,3,0,2026-03-20T07:55:46.591014+05:30
Manali,Himachal Pradesh,32.2396,77.1887,10.6,98,0.5,813.9,2.95,28.8,46,1.0,1.0,6,10,3,0,2026-03-20T07:55:46.591023+05:30
Gurgaon,Haryana,28.4595,77.0266,17.0,96,0.2,984.8,3.1,18.0,157,124.8,65.7,6,10,3,1,2026-03-20T07:55:46.591030+05:30
Noida,Uttar Pradesh,28.5355,77.391,17.6,93,0.6,988.3,1.65,21.6,157,124.8,65.7,6,10,3,1,2026-03-20T07:55:46.591036+05:30
Ghaziabad,Uttar Pradesh,28.6692,77.4538,17.1,95,0.5,986.6,2.2,20.2,132,95.7,60.5,6,10,3,1,2026-03-20T07:55:46.591043+05:30
Faridabad,Haryana,28.4089,77.3178,17.1,95,0.8,987.1,1.95,19.4,157,124.8,65.7,6,10,3,1,2026-03-20T07:55:46.591050+05:30
Meerut,Uttar Pradesh,28.9845,77.7064,16.7,96,0.3,985.2,2.25,24.8,132,95.7,60.5,6,10,3,0,2026-03-20T07:55:46.591057+05:30
Agra,Uttar Pradesh,27.1767,78.0081,18.1,88,0.0,991.6,4.4,27.4,623,93.6,51.1,3,10,3,1,2026-03-20T07:55:46.591064+05:30
Varanasi,Uttar Pradesh,25.3176,82.9739,24.5,66,0.0,999.8,7.35,43.9,107,75.4,68.5,3,5,7,1,2026-03-20T07:55:46.591077+05:30
Prayagraj,Uttar Pradesh,25.4358,81.8463,23.1,72,0.0,997.9,4.7,51.5,104,75.2,61.9,3,5,3,1,2026-03-20T07:55:46.591085+05:30
Gorakhpur,Uttar Pradesh,26.7606,83.3732,20.9,88,0.0,1000.4,7.1,42.1,131,108.3,84.3,3,5,4,1,2026-03-20T07:55:46.591092+05:30
Bareilly,Uttar Pradesh,28.367,79.4304,18.8,82,0.0,989.5,3.7,35.6,81,35.0,22.8,3,10,3,0,2026-03-20T07:55:46.591100+05:30
Aligarh,Uttar Pradesh,27.8974,78.088,17.1,91,0.0,989.1,3.35,23.4,127,105.2,55.6,3,10,3,0,2026-03-20T07:55:46.591109+05:30
Moradabad,Uttar Pradesh,28.8386,78.7733,17.7,88,0.0,986.7,2.3,25.6,90,75.4,38.6,3,10,3,0,2026-03-20T07:55:46.591116+05:30
Saharanpur,Uttar Pradesh,29.9637,77.546,15.5,94,0.0,978.4,0.8,23.8,125,59.6,44.6,3,10,3,0,2026-03-20T07:55:46.591122+05:30
Jhansi,Uttar Pradesh,25.4484,78.5685,20.6,78,0.0,980.8,6.35,29.5,88,108.0,48.5,3,5,7,1,2026-03-20T07:55:49.812209+05:30
Surat,Gujarat,21.1702,72.8311,22.8,86,0.0,1010.3,7.5,26.3,97,55.9,43.7,3,0,4,1,2026-03-20T07:55:49.812243+05:30
Vadodara,Gujarat,22.3072,73.1812,21.2,91,0.0,1008.1,7.65,30.6,59,60.5,38.2,3,0,4,1,2026-03-20T07:55:49.812255+05:30
Rajkot,Gujarat,22.3039,70.8022,20.3,89,0.0,997.3,7.5,30.2,65,71.5,29.7,3,5,7,1,2026-03-20T07:55:49.812265+05:30
Thane,Maharashtra,19.2183,72.9781,23.3,84,0.0,1010.8,7.8,36.7,71,50.6,28.7,3,0,4,1,2026-03-20T07:55:49.812274+05:30
Nagpur,Maharashtra,21.1458,79.0882,21.1,80,0.0,977.0,7.6,39.2,114,41.1,34.7,3,5,7,1,2026-03-20T07:55:49.812283+05:30
Nashik,Maharashtra,19.9975,73.7898,18.8,88,0.0,947.3,8.0,33.5,53,29.9,17.3,3,10,7,1,2026-03-20T07:55:49.812292+05:30
Aurangabad,Maharashtra,19.8762,75.3433,21.0,70,0.0,946.2,8.5,34.9,76,27.3,20.7,3,5,7,0,2026-03-20T07:55:49.812301+05:30
Solapur,Maharashtra,17.6599,75.9064,22.3,73,0.0,959.4,8.7,28.8,76,43.5,32.1,3,5,7,1,2026-03-20T07:55:49.812310+05:30
Kolhapur,Maharashtra,16.705,74.2433,17.9,91,0.0,949.5,8.85,44.3,84,75.9,69.6,3,10,7,1,2026-03-20T07:55:49.812319+05:30
Goa,Goa,15.2993,74.124,24.5,85,0.0,1000.3,8.85,40.0,64,37.7,32.7,3,5,4,1,2026-03-20T07:55:49.812327+05:30
Jodhpur,Rajasthan,26.2389,73.0243,18.5,86,0.0,985.7,7.25,18.7,72,80.3,22.2,3,10,7,1,2026-03-20T07:55:49.812335+05:30
Udaipur,Rajasthan,24.5854,73.7125,17.1,73,0.0,947.6,7.95,30.6,63,63.1,27.2,3,5,7,0,2026-03-20T07:55:49.812343+05:30
Kota,Rajasthan,25.2138,75.8648,20.4,81,0.0,981.6,5.25,31.7,72,53.7,22.4,3,5,3,1,2026-03-20T07:55:49.812352+05:30
Bikaner,Rajasthan,28.0229,73.3119,18.6,91,0.0,984.5,6.9,17.3,66,30.4,18.7,3,10,7,1,2026-03-20T07:55:49.812361+05:30
Ajmer,Rajasthan,26.4499,74.6399,18.1,89,0.0,956.2,6.55,28.1,67,44.2,18.0,3,10,7,1,2026-03-20T07:55:49.812369+05:30
Gwalior,Madhya Pradesh,26.2183,78.1828,19.3,89,0.0,986.8,5.2,29.5,123,89.9,45.3,3,10,3,1,2026-03-20T07:55:49.812377+05:30
Indore,Madhya Pradesh,22.7196,75.8577,19.7,80,0.0,949.7,7.9,37.4,59,59.1,24.9,3,5,7,1,2026-03-20T07:55:49.812385+05:30
Bhopal,Madhya Pradesh,23.2599,77.4126,19.6,75,0.0,955.7,7.05,35.6,68,40.9,18.2,3,5,7,0,2026-03-20T07:55:49.812394+05:30
Jabalpur,Madhya Pradesh,23.1815,79.9864,22.1,65,0.0,964.0,4.35,29.9,71,34.8,28.0,3,5,3,0,2026-03-20T07:55:49.812401+05:30
Ujjain,Madhya Pradesh,23.1765,75.7885,19.5,84,0.0,955.6,7.8,40.3,58,54.2,28.6,3,10,7,1,2026-03-20T07:55:49.812410+05:30
Visakhapatnam,Andhra Pradesh,17.6868,83.2185,24.2,81,0.0,1007.5,8.8,37.4,66,28.1,24.8,3,5,4,1,2026-03-20T07:55:49.812418+05:30
Vijayawada,Andhra Pradesh,16.5062,80.648,24.6,88,0.0,1006.4,8.85,24.1,61,26.6,24.9,3,5,4,1,2026-03-20T07:55:49.812426+05:30
Guntur,Andhra Pradesh,16.3067,80.4365,24.6,89,0.0,1007.4,8.85,35.6,54,17.2,15.3,3,5,4,1,2026-03-20T07:55:49.812434+05:30
Nellore,Andhra Pradesh,14.4426,79.9865,25.9,84,0.0,1009.1,9.0,32.0,30,11.5,9.5,7,0,4,1,2026-03-20T07:55:49.812442+05:30
Kurnool,Andhra Pradesh,15.8281,78.0373,24.3,76,0.0,979.9,8.85,18.7,63,17.1,15.8,3,5,7,1,2026-03-20T07:55:49.812452+05:30
Kakinada,Andhra Pradesh,16.9891,82.2475,23.5,82,0.0,1011.3,8.8,27.7,46,22.6,19.3,3,0,4,1,2026-03-20T07:55:49.812460+05:30
Tirupati,Andhra Pradesh,13.6288,79.4192,24.2,87,0.0,995.0,9.15,20.5,50,22.7,21.9,3,5,7,1,2026-03-20T07:55:49.812467+05:30
Warangal,Telangana,17.9689,79.5941,22.8,89,0.0,982.6,8.65,25.6,88,16.8,15.1,3,5,7,1,2026-03-20T07:55:49.812475+05:30
Nizamabad,Telangana,18.6725,78.0941,21.8,80,0.0,967.8,8.55,25.2,92,52.6,47.6,3,5,7,1,2026-03-20T07:55:49.812483+05:30
Mysore,Karnataka,12.2958,76.6396,21.6,87,0.0,930.3,9.35,36.0,79,40.5,38.9,3,5,7,1,2026-03-20T07:55:49.812491+05:30
Mangalore,Karnataka,12.9141,74.856,27.8,81,0.0,1008.9,9.0,27.0,72,36.2,32.6,7,0,4,1,2026-03-20T07:55:49.812498+05:30
Hubli-Dharwad,Karnataka,15.3647,75.124,20.1,91,0.0,942.4,9.0,40.7,75,25.1,22.4,3,5,7,1,2026-03-20T07:55:49.812506+05:30
Belgaum,Karnataka,15.8497,74.4977,19.1,88,0.0,926.6,9.1,44.3,74,48.2,43.4,3,10,7,1,2026-03-20T07:55:53.029239+05:30
Coimbatore,Tamil Nadu,11.0168,76.9558,22.6,84,0.0,964.7,9.35,36.7,62,23.2,21.1,3,5,7,1,2026-03-20T07:55:53.029273+05:30
Madurai,Tamil Nadu,9.9252,78.1198,23.7,83,0.0,996.7,9.3,24.8,57,14.7,13.9,3,5,7,1,2026-03-20T07:55:53.029287+05:30
Trichy,Tamil Nadu,10.7905,78.7047,22.9,84,0.0,1003.5,9.25,20.2,58,18.0,16.6,3,5,4,1,2026-03-20T07:55:53.029299+05:30
Salem,Tamil Nadu,11.6643,78.146,23.1,88,0.0,980.7,9.3,20.9,75,29.0,25.6,3,5,7,1,2026-03-20T07:55:53.029309+05:30
Tirunelveli,Tamil Nadu,8.7139,77.7567,24.7,91,0.0,1006.8,9.3,41.4,61,20.8,19.8,3,5,4,1,2026-03-20T07:55:53.029319+05:30
Vellore,Tamil Nadu,12.9165,79.1325,23.8,85,0.0,987.9,9.2,24.1,61,18.8,18.1,3,5,7,1,2026-03-20T07:55:53.029330+05:30
Erode,Tamil Nadu,11.341,77.7172,23.4,80,0.0,992.7,9.3,26.6,71,20.5,18.4,3,5,7,1,2026-03-20T07:55:53.029340+05:30
Kochi,Kerala,9.9312,76.2673,27.8,78,0.0,1010.7,9.15,33.8,62,32.1,31.2,7,0,4,1,2026-03-20T07:55:53.029351+05:30
Thiruvananthapuram,Kerala,8.5241,76.9366,27.6,81,0.0,1010.3,9.15,25.9,45,16.9,14.5,7,0,4,1,2026-03-20T07:55:53.029361+05:30
Kozhikode,Kerala,11.2588,75.7804,26.5,82,0.0,1010.0,9.05,32.4,52,27.8,21.4,7,0,4,1,2026-03-20T07:55:53.029371+05:30
Thrissur,Kerala,10.5276,76.2144,26.6,82,0.0,1009.1,9.15,37.8,62,28.6,27.1,7,0,4,1,2026-03-20T07:55:53.029382+05:30
Kannur,Kerala,11.8745,75.3704,26.1,73,0.0,1009.3,9.05,37.4,56,26.7,23.6,7,0,4,1,2026-03-20T07:55:53.029392+05:30
Patna,Bihar,25.5941,85.1376,23.7,86,0.0,1003.9,7.7,33.1,158,85.9,82.7,3,5,4,1,2026-03-20T07:55:53.029402+05:30
Gaya,Bihar,24.7914,85.0002,24.5,68,0.0,996.5,7.8,20.2,127,44.8,41.0,3,5,7,1,2026-03-20T07:55:53.029412+05:30
Muzaffarpur,Bihar,26.1209,85.3647,22.1,82,0.0,1004.5,7.65,40.3,161,81.0,77.8,3,5,4,1,2026-03-20T07:55:53.029421+05:30
Bhagalpur,Bihar,25.2425,87.0117,22.7,88,0.0,1005.7,7.75,33.8,140,53.8,50.5,3,5,4,1,2026-03-20T07:55:53.029431+05:30
Ranchi,Jharkhand,23.3441,85.3096,22.5,63,0.0,940.1,7.4,35.3,85,31.7,27.8,3,5,7,0,2026-03-20T07:55:53.029441+05:30
Jamshedpur,Jharkhand,22.8046,86.2029,25.9,63,0.0,994.0,7.35,32.0,116,55.4,49.6,7,5,7,1,2026-03-20T07:55:53.029452+05:30
Dhanbad,Jharkhand,23.7957,86.4304,25.1,62,0.0,982.8,8.2,43.6,155,89.6,84.1,7,5,7,1,2026-03-20T07:55:53.029463+05:30
Bokaro,Jharkhand,23.6693,86.1511,24.5,63,0.0,986.9,8.15,40.3,150,69.4,64.0,3,5,7,1,2026-03-20T07:55:53.029473+05:30
Bhubaneswar,Odisha,20.2961,85.8245,25.5,87,0.0,1006.0,8.5,30.6,74,22.3,18.7,7,5,4,1,2026-03-20T07:55:53.029484+05:30
Cuttack,Odisha,20.4625,85.8828,25.6,88,0.0,1007.9,8.4,35.3,74,22.3,18.7,7,5,4,1,2026-03-20T07:55:53.029494+05:30
Rourkela,Odisha,22.2604,84.8536,24.3,78,0.0,988.3,8.2,38.9,117,67.8,61.0,3,5,7,1,2026-03-20T07:55:53.029504+05:30
Raipur,Chhattisgarh,21.2514,81.6296,22.1,73,0.0,978.4,7.15,28.1,139,54.5,52.2,3,5,7,1,2026-03-20T07:55:53.029513+05:30
Bhilai,Chhattisgarh,21.1938,81.3509,22.1,74,0.0,978.7,7.1,27.4,137,47.5,45.5,3,5,7,1,2026-03-20T07:55:53.029523+05:30
Guwahati,Assam,26.1158,91.7086,22.3,86,0.0,1008.2,6.8,26.6,91,42.3,32.6,3,0,4,1,2026-03-20T07:55:53.029533+05:30
Agartala,Tripura,23.8315,91.2868,22.5,89,0.0,1011.7,6.6,29.2,90,27.1,25.0,3,0,4,1,2026-03-20T07:55:53.029542+05:30
Shillong,Meghalaya,25.5788,91.8933,15.3,73,0.0,859.8,6.8,31.7,79,34.6,27.4,3,5,7,0,2026-03-20T07:55:53.029552+05:30
Imphal,Manipur,24.817,93.9368,18.7,77,0.0,927.6,8.1,43.9,88,41.3,36.2,3,5,7,0,2026-03-20T07:55:53.029562+05:30
Aizawl,Mizoram,23.7271,92.7176,17.8,82,0.0,896.2,7.6,40.0,74,26.3,23.3,3,10,7,0,2026-03-20T07:55:53.029572+05:30
Kohima,Nagaland,25.6701,94.1077,15.9,72,0.0,858.9,8.1,64.8,68,28.9,20.4,3,5,7,0,2026-03-20T07:55:53.029582+05:30
Gangtok,Sikkim,27.3314,88.6138,13.5,93,0.0,839.8,7.95,20.5,99,36.8,26.4,3,10,7,0,2026-03-20T07:55:53.029592+05:30
Siliguri,West Bengal,26.7271,88.3953,20.3,77,0.0,999.2,7.65,22.3,150,92.2,70.1,3,5,7,1,2026-03-20T07:55:56.256450+05:30
Durgapur,West Bengal,23.5204,87.3119,24.7,88,0.0,998.7,7.65,47.5,153,81.3,75.7,3,5,7,1,2026-03-20T07:55:56.256481+05:30
Asansol,West Bengal,23.6739,86.9524,24.9,86,0.0,997.1,7.95,46.4,152,73.8,68.9,3,5,7,1,2026-03-20T07:55:56.256491+05:30
Pondicherry,Puducherry,11.9139,79.8145,24.9,88,0.0,1012.0,9.1,25.6,30,14.0,12.4,3,0,4,1,2026-03-20T07:55:56.256499+05:30
Port Blair,Andaman and Nicobar Islands,11.6234,92.7265,28.1,78,0.0,1009.8,9.05,11.9,47,13.8,10.7,7,0,4,1,2026-03-20T07:55:56.256509+05:30
Haridwar,Uttarakhand,29.9457,78.1642,17.7,87,0.0,976.6,1.4,27.7,76,27.4,15.6,3,10,3,0,2026-03-20T07:55:56.256517+05:30
Rishikesh,Uttarakhand,30.0869,78.2676,18.7,71,0.0,968.8,1.3,27.7,64,31.2,14.2,3,5,3,0,2026-03-20T07:55:56.256526+05:30
Nainital,Uttarakhand,29.3919,79.4542,14.3,72,0.0,805.0,3.5,72.4,63,29.1,17.5,3,5,3,0,2026-03-20T07:55:56.256535+05:30
Mussoorie,Uttarakhand,30.4599,78.0664,11.8,73,0.0,800.7,0.4,46.8,65,35.0,15.7,3,5,3,0,2026-03-20T07:55:56.256542+05:30
Dharamshala,Himachal Pradesh,32.219,76.3234,11.9,84,1.6,866.5,1.45,26.3,44,3.4,3.3,6,10,3,0,2026-03-20T07:55:56.256550+05:30
Dalhousie,Himachal Pradesh,32.5387,75.971,8.4,75,1.4,799.6,1.85,24.5,71,13.2,12.5,6,5,3,0,2026-03-20T07:55:56.256558+05:30
Patiala,Punjab,30.3398,76.3869,15.7,98,0.0,981.2,3.65,18.4,100,49.8,24.6,3,10,3,0,2026-03-20T07:55:56.256565+05:30
Bhatinda,Punjab,30.211,74.9455,16.8,97,0.0,986.5,5.7,20.5,100,54.0,41.4,3,10,3,1,2026-03-20T07:55:56.256573+05:30
Rohtak,Haryana,28.8955,76.6066,16.7,97,0.0,985.1,2.2,12.2,150,128.5,65.2,3,10,3,1,2026-03-20T07:55:56.256580+05:30
Panipat,Haryana,29.3909,76.9635,15.8,97,0.0,983.5,2.65,15.5,153,132.2,73.6,3,10,3,0,2026-03-20T07:55:56.256588+05:30
Mathura,Uttar Pradesh,27.4924,77.6737,17.6,94,1.0,990.6,5.0,23.0,147,105.7,52.0,6,10,3,1,2026-03-20T07:55:56.256595+05:30
Vrindavan,Uttar Pradesh,27.5823,77.7027,17.3,95,0.8,991.2,5.0,22.3,147,105.7,52.0,6,10,3,1,2026-03-20T07:55:56.256602+05:30
Ayodhya,Uttar Pradesh,26.7922,82.1998,21.9,61,0.0,997.9,5.6,32.8,127,82.7,67.3,3,5,3,0,2026-03-20T07:55:56.256609+05:30
Ratlam,Madhya Pradesh,23.3315,75.0367,20.4,79,0.0,956.5,7.75,37.8,55,48.3,26.4,3,5,7,1,2026-03-20T07:55:56.256617+05:30
Sagar,Madhya Pradesh,23.8388,78.7378,20.1,72,0.0,951.8,7.35,29.9,58,26.0,18.7,3,5,7,0,2026-03-20T07:55:56.256625+05:30
Satna,Madhya Pradesh,24.6005,80.8322,24.8,52,0.0,972.9,4.55,49.0,65,27.2,19.4,0,5,3,0,2026-03-20T07:55:56.256632+05:30
Akola,Maharashtra,20.7002,77.0082,22.9,73,0.0,978.0,8.2,24.1,82,30.2,21.2,3,5,7,1,2026-03-20T07:55:56.256640+05:30
Amravati,Maharashtra,20.9374,77.7796,22.5,72,0.0,970.2,7.25,21.2,87,27.4,19.3,3,5,7,1,2026-03-20T07:55:56.256648+05:30
Latur,Maharashtra,18.4088,76.5604,20.2,75,0.0,941.8,8.6,29.2,79,53.2,38.2,3,5,7,0,2026-03-20T07:55:56.256655+05:30
Nanded,Maharashtra,19.1383,77.3091,22.4,73,0.0,971.6,8.4,26.6,78,34.2,26.3,3,5,7,1,2026-03-20T07:55:56.256662+05:30
Gulbarga,Karnataka,17.3297,76.8343,22.6,67,0.0,961.0,8.7,24.5,72,44.8,31.5,3,5,7,1,2026-03-20T07:55:56.256669+05:30
Bidar,Karnataka,17.9104,77.5199,22.1,66,0.0,937.5,8.65,24.5,77,47.3,38.9,3,5,7,0,2026-03-20T07:55:56.256676+05:30
Hospet,Karnataka,15.2689,76.3909,23.2,75,0.0,958.3,8.95,21.2,71,42.4,35.6,3,5,7,1,2026-03-20T07:55:56.256683+05:30
Tirupur,Tamil Nadu,11.1085,77.3411,22.9,83,0.0,978.8,9.35,28.1,71,27.5,23.7,3,5,7,1,2026-03-20T07:55:56.256690+05:30
Alappuzha,Kerala,9.4981,76.3388,27.6,80,0.0,1010.9,9.1,30.6,60,26.2,24.1,7,0,4,1,2026-03-20T07:55:56.256697+05:30
Munnar,Kerala,10.0889,77.0595,19.2,66,0.0,857.6,9.6,38.9,48,15.5,14.1,3,5,7,0,2026-03-20T07:55:56.256705+05:30
Silchar,Assam,24.8333,92.7789,21.3,87,0.0,1010.5,7.45,23.4,98,40.6,38.0,3,0,4,1,2026-03-20T07:55:56.256712+05:30
Dibrugarh,Assam,27.4728,94.912,20.5,85,0.0,1002.8,7.75,13.3,85,35.6,28.6,3,5,4,1,2026-03-20T07:55:56.256720+05:30
