city,state,latitude,longitude,temp,humidity,rain,pressure,uv_index,wind_gusts,aqi,pm10,pm2_5,mosquito_risk,arthritis_risk,migraine_risk,frizz_risk,updated_at
Delhi,Delhi,28.6139,77.209,27.8,45,0.0,977.5,7.45,40.7,137,223.1,50.3,4,5,7,0,2026-04-30T01:41:46.589986+05:30
Mumbai,Maharashtra,19.076,72.8777,28.0,84,0.0,1006.9,8.05,40.3,77,46.7,22.3,7,5,4,1,2026-04-30T01:41:46.590028+05:30
Bangalore,Karnataka,12.9716,77.5946,27.5,43,0.0,911.4,9.55,36.7,100,47.7,43.2,4,5,7,0,2026-04-30T01:41:46.590043+05:30
Hyderabad,Telangana,17.385,78.4867,30.5,36,0.0,950.9,9.25,32.8,120,54.0,45.3,0,5,7,0,2026-04-30T01:41:46.590053+05:30
Chennai,Tamil Nadu,13.0827,80.2707,29.8,83,0.0,1006.0,9.2,54.4,55,16.2,12.2,7,5,4,1,2026-04-30T01:41:46.590061+05:30
Kolkata,West Bengal,22.5726,88.3639,27.0,93,0.0,1003.7,6.25,48.6,64,16.8,13.5,7,5,4,1,2026-04-30T01:41:46.590070+05:30
Pune,Maharashtra,18.5204,73.8567,25.0,69,0.0,946.4,8.6,50.0,64,31.8,17.3,7,5,7,1,2026-04-30T01:41:46.590081+05:30
Ahmedabad,Gujarat,23.0225,72.5714,30.9,44,0.0,997.9,8.2,42.1,53,38.2,14.6,0,5,7,1,2026-04-30T01:41:46.590088+05:30
Jaipur,Rajasthan,26.9124,75.7873,30.5,21,0.0,954.4,8.1,42.5,169,258.9,41.1,0,5,7,0,2026-04-30T01:41:46.590096+05:30
Lucknow,Uttar Pradesh,26.8467,80.9462,26.9,66,0.0,989.1,7.75,37.1,140,56.6,43.4,7,5,7,1,2026-04-30T01:41:46.590104+05:30
Kanpur,Uttar Pradesh,26.4499,80.3319,28.7,54,0.0,987.0,7.45,44.6,154,224.9,58.4,4,5,7,1,2026-04-30T01:41:46.590111+05:30
Chandigarh,Chandigarh,30.7333,76.7794,21.0,67,0.0,962.5,6.85,49.0,65,24.2,19.3,3,5,7,0,2026-04-30T01:41:46.590119+05:30
Srinagar,Jammu and Kashmir,34.0837,74.7973,9.1,100,0.0,837.2,7.75,36.0,94,51.9,48.3,3,10,7,0,2026-04-30T01:41:46.590129+05:30
Jammu,Jammu and Kashmir,32.7266,74.857,18.1,69,0.0,967.2,7.9,25.6,68,25.1,18.2,3,5,7,0,2026-04-30T01:41:46.590136+05:30
Amritsar,Punjab,31.634,74.8723,22.3,71,0.0,975.4,7.85,46.4,91,43.3,35.0,3,5,7,1,2026-04-30T01:41:46.590143+05:30
Ludhiana,Punjab,30.901,75.8573,24.8,57,0.0,973.0,7.05,38.2,95,70.1,55.3,0,5,7,0,2026-04-30T01:41:46.590149+05:30
Jalandhar,Punjab,31.326,75.5762,22.8,70,0.0,974.1,7.9,41.8,93,55.9,49.4,3,5,7,1,2026-04-30T01:41:46.590158+05:30
Dehradun,Uttarakhand,30.6284,78.0322,10.3,96,0.0,823.4,7.4,38.2,51,13.0,10.2,3,10,7,0,2026-04-30T01:41:46.590165+05:30
Shimla,Himachal Pradesh,31.1048,77.1734,9.2,72,0.0,777.0,7.95,34.9,52,17.2,11.6,3,5,7,0,2026-04-30T01:41:46.590172+05:30
Manali,Himachal Pradesh,32.2396,77.1887,8.3,90,0.0,811.5,8.9,38.5,59,4.7,3.5,3,10,7,0,2026-04-30T01:41:46.590179+05:30
Gurgaon,Haryana,28.4595,77.0266,26.4,46,0.0,975.9,7.6,39.2,719,1270.3,158.3,4,5,7,0,2026-04-30T01:41:46.590185+05:30
Noida,Uttar Pradesh,28.5355,77.391,25.0,54,0.0,978.8,7.5,39.6,719,1270.3,158.3,4,5,7,0,2026-04-30T01:41:46.590192+05:30
Ghaziabad,Uttar Pradesh,28.6692,77.4538,24.2,60,0.0,977.0,7.4,50.8,130,148.1,39.6,0,5,7,0,2026-04-30T01:41:46.590198+05:30
Faridabad,Haryana,28.4089,77.3178,27.6,42,0.0,978.3,7.5,41.8,719,1270.3,158.3,4,5,7,0,2026-04-30T01:41:46.590204+05:30
Meerut,Uttar Pradesh,28.9845,77.7064,25.0,54,0.0,975.7,7.3,50.4,130,148.1,39.6,4,5,7,0,2026-04-30T01:41:46.590211+05:30
Agra,Uttar Pradesh,27.1767,78.0081,28.4,41,0.0,982.2,7.8,47.9,938,1117.6,143.4,4,5,7,0,2026-04-30T01:41:46.590217+05:30
Varanasi,Uttar Pradesh,25.3176,82.9739,28.5,50,0.0,992.9,8.5,37.4,118,40.9,31.2,4,5,7,1,2026-04-30T01:41:46.590226+05:30
Prayagraj,Uttar Pradesh,25.4358,81.8463,27.5,54,0.0,991.6,8.2,48.6,115,40.2,31.7,4,5,7,1,2026-04-30T01:41:46.590235+05:30
Gorakhpur,Uttar Pradesh,26.7606,83.3732,22.7,89,0.0,994.9,8.25,47.5,110,43.2,32.2,3,5,7,1,2026-04-30T01:41:46.590241+05:30
Bareilly,Uttar Pradesh,28.367,79.4304,25.0,59,0.0,981.7,7.7,47.2,100,72.4,42.1,4,5,7,1,2026-04-30T01:41:46.590248+05:30
Aligarh,Uttar Pradesh,27.8974,78.088,26.3,49,0.0,980.1,7.6,69.1,480,401.4,72.9,4,5,7,0,2026-04-30T01:41:46.590254+05:30
Moradabad,Uttar Pradesh,28.8386,78.7733,24.8,56,0.0,978.2,7.55,38.9,120,91.5,44.7,0,5,7,0,2026-04-30T01:41:46.590260+05:30
Saharanpur,Uttar Pradesh,29.9637,77.546,22.9,64,0.0,969.9,6.55,46.1,89,67.1,38.8,3,5,7,0,2026-04-30T01:41:46.590266+05:30
Jhansi,Uttar Pradesh,25.4484,78.5685,28.7,34,0.0,972.8,8.3,50.4,62,117.6,39.2,4,5,7,0,2026-04-30T01:41:49.859842+05:30
Surat,Gujarat,21.1702,72.8311,27.9,88,0.0,1004.0,7.85,48.6,68,27.6,16.6,7,5,4,1,2026-04-30T01:41:49.859871+05:30
Vadodara,Gujarat,22.3072,73.1812,28.6,76,0.0,1000.7,8.15,43.9,59,20.8,12.8,7,5,4,1,2026-04-30T01:41:49.859881+05:30
Rajkot,Gujarat,22.3039,70.8022,26.1,87,0.0,990.9,7.9,49.7,51,34.8,11.1,7,5,7,1,2026-04-30T01:41:49.859888+05:30
Thane,Maharashtra,19.2183,72.9781,28.0,83,0.0,1006.2,8.05,38.2,77,46.7,22.3,7,5,4,1,2026-04-30T01:41:49.859895+05:30
Nagpur,Maharashtra,21.1458,79.0882,32.7,19,0.0,969.2,8.9,52.9,60,16.1,12.3,0,5,7,0,2026-04-30T01:41:49.859902+05:30
Nashik,Maharashtra,19.9975,73.7898,24.0,65,0.0,943.6,8.3,54.4,59,42.5,16.9,3,5,7,1,2026-04-30T01:41:49.859909+05:30
Aurangabad,Maharashtra,19.8762,75.3433,27.5,47,0.0,942.3,9.05,53.3,50,30.6,12.7,4,5,7,0,2026-04-30T01:41:49.859916+05:30
Solapur,Maharashtra,17.6599,75.9064,31.0,29,0.0,954.6,9.05,36.7,73,22.6,19.7,0,5,7,0,2026-04-30T01:41:49.859923+05:30
Kolhapur,Maharashtra,16.705,74.2433,24.0,81,0.0,946.4,9.0,46.8,69,25.2,15.4,3,5,7,1,2026-04-30T01:41:49.859930+05:30
Goa,Goa,15.2993,74.124,28.5,88,0.0,996.9,8.95,35.3,70,45.6,24.4,7,5,7,1,2026-04-30T01:41:49.859936+05:30
Jodhpur,Rajasthan,26.2389,73.0243,31.1,30,0.0,976.4,8.3,46.8,134,155.5,31.5,0,5,7,0,2026-04-30T01:41:49.859943+05:30
Udaipur,Rajasthan,24.5854,73.7125,28.5,28,0.0,942.3,8.8,46.1,53,27.2,11.9,4,5,7,0,2026-04-30T01:41:49.859949+05:30
Kota,Rajasthan,25.2138,75.8648,32.5,25,0.0,973.3,8.3,46.4,60,45.8,21.4,0,5,7,0,2026-04-30T01:41:49.859956+05:30
Bikaner,Rajasthan,28.0229,73.3119,29.1,27,0.0,975.6,8.2,38.5,81,80.8,27.5,4,5,7,0,2026-04-30T01:41:49.859962+05:30
Ajmer,Rajasthan,26.4499,74.6399,29.1,29,0.0,949.7,8.25,61.2,77,134.1,27.3,4,5,7,0,2026-04-30T01:41:49.859968+05:30
Gwalior,Madhya Pradesh,26.2183,78.1828,29.5,33,0.0,977.8,8.05,48.6,174,268.2,58.3,4,5,7,0,2026-04-30T01:41:49.859974+05:30
Indore,Madhya Pradesh,22.7196,75.8577,29.1,30,0.0,944.9,8.6,45.4,48,24.0,14.3,4,5,7,0,2026-04-30T01:41:49.859980+05:30
Bhopal,Madhya Pradesh,23.2599,77.4126,30.7,21,0.0,949.6,8.65,61.6,52,21.8,12.7,0,5,7,0,2026-04-30T01:41:49.859987+05:30
Jabalpur,Madhya Pradesh,23.1815,79.9864,29.4,22,0.0,956.9,8.5,51.5,40,14.2,9.2,4,5,7,0,2026-04-30T01:41:49.859993+05:30
Ujjain,Madhya Pradesh,23.1765,75.7885,29.0,32,0.0,950.2,8.55,50.4,54,24.0,13.9,4,5,7,0,2026-04-30T01:41:49.859999+05:30
Visakhapatnam,Andhra Pradesh,17.6868,83.2185,28.0,92,0.0,1002.2,9.15,48.2,58,18.2,14.6,7,5,4,1,2026-04-30T01:41:49.860006+05:30
Vijayawada,Andhra Pradesh,16.5062,80.648,28.8,88,0.0,1000.3,9.2,41.8,70,16.5,13.6,7,5,4,1,2026-04-30T01:41:49.860013+05:30
Guntur,Andhra Pradesh,16.3067,80.4365,28.8,89,0.0,1001.7,9.2,40.7,75,15.2,12.7,7,5,4,1,2026-04-30T01:41:49.860019+05:30
Nellore,Andhra Pradesh,14.4426,79.9865,29.2,81,0.0,1004.2,9.25,44.6,62,12.2,11.6,7,5,4,1,2026-04-30T01:41:49.860026+05:30
Kurnool,Andhra Pradesh,15.8281,78.0373,32.8,33,0.0,974.4,9.2,54.7,118,49.6,41.2,0,5,7,0,2026-04-30T01:41:49.860033+05:30
Kakinada,Andhra Pradesh,16.9891,82.2475,28.6,86,0.0,1005.9,9.15,46.4,53,18.4,13.6,7,5,4,1,2026-04-30T01:41:49.860039+05:30
Tirupati,Andhra Pradesh,13.6288,79.4192,29.0,79,0.0,990.3,9.3,33.5,63,11.3,10.6,7,5,7,1,2026-04-30T01:41:49.860046+05:30
Warangal,Telangana,17.9689,79.5941,29.1,67,0.0,975.9,9.15,36.7,109,34.1,32.6,7,5,7,1,2026-04-30T01:41:49.860051+05:30
Nizamabad,Telangana,18.6725,78.0941,30.0,31,0.0,962.2,9.1,42.8,91,40.9,35.2,4,5,7,0,2026-04-30T01:41:49.860058+05:30
Mysore,Karnataka,12.2958,76.6396,23.7,86,0.0,928.0,9.45,60.8,96,34.1,27.5,3,5,7,1,2026-04-30T01:41:49.860064+05:30
Mangalore,Karnataka,12.9141,74.856,29.4,80,0.0,1005.7,8.9,34.9,76,54.8,28.5,7,5,4,1,2026-04-30T01:41:49.860070+05:30
Hubli-Dharwad,Karnataka,15.3647,75.124,24.8,93,0.0,940.0,9.2,48.6,73,25.4,16.1,3,5,7,1,2026-04-30T01:41:49.860076+05:30
Belgaum,Karnataka,15.8497,74.4977,24.0,92,0.0,924.9,9.2,47.2,67,31.5,16.5,3,5,7,1,2026-04-30T01:41:53.114981+05:30
Coimbatore,Tamil Nadu,11.0168,76.9558,26.3,83,0.0,961.0,9.35,58.7,77,24.7,19.7,7,5,7,1,2026-04-30T01:41:53.115009+05:30
Madurai,Tamil Nadu,9.9252,78.1198,29.5,72,0.0,992.4,9.25,55.1,64,17.9,17.3,7,5,7,1,2026-04-30T01:41:53.115018+05:30
Trichy,Tamil Nadu,10.7905,78.7047,28.9,77,0.0,998.9,9.25,47.2,51,7.7,7.2,7,5,7,1,2026-04-30T01:41:53.115026+05:30
Salem,Tamil Nadu,11.6643,78.146,29.7,64,0.0,976.6,9.35,40.0,62,7.9,7.7,7,5,7,1,2026-04-30T01:41:53.115034+05:30
Tirunelveli,Tamil Nadu,8.7139,77.7567,27.5,79,0.0,1002.7,9.15,55.4,51,16.8,15.9,7,5,4,1,2026-04-30T01:41:53.115042+05:30
Vellore,Tamil Nadu,12.9165,79.1325,28.9,73,0.0,983.3,9.35,40.3,68,12.2,11.8,7,5,7,1,2026-04-30T01:41:53.115049+05:30
Erode,Tamil Nadu,11.341,77.7172,29.4,70,0.0,988.3,9.3,49.7,80,32.1,28.9,7,5,7,1,2026-04-30T01:41:53.115056+05:30
Kochi,Kerala,9.9312,76.2673,25.5,92,0.0,1008.9,8.8,37.4,78,31.8,28.8,7,0,4,1,2026-04-30T01:41:53.115062+05:30
Thiruvananthapuram,Kerala,8.5241,76.9366,24.6,98,0.0,1008.3,8.75,41.4,43,9.2,6.6,3,0,4,1,2026-04-30T01:41:53.115069+05:30
Kozhikode,Kerala,11.2588,75.7804,26.7,92,0.0,1007.7,8.95,36.4,69,43.0,20.1,7,5,4,1,2026-04-30T01:41:53.115076+05:30
Thrissur,Kerala,10.5276,76.2144,25.1,96,0.0,1007.2,8.45,36.7,82,35.0,31.8,7,5,4,1,2026-04-30T01:41:53.115082+05:30
Kannur,Kerala,11.8745,75.3704,28.1,86,0.0,1006.6,9.0,33.1,76,46.7,26.3,7,5,4,1,2026-04-30T01:41:53.115089+05:30
Patna,Bihar,25.5941,85.1376,25.0,83,0.0,996.5,8.55,47.5,83,30.2,22.4,7,5,7,1,2026-04-30T01:41:53.115095+05:30
Gaya,Bihar,24.7914,85.0002,26.5,69,0.0,990.1,5.6,40.7,105,37.6,33.5,7,5,3,1,2026-04-30T01:41:53.115101+05:30
Muzaffarpur,Bihar,26.1209,85.3647,23.2,90,0.0,998.2,8.45,51.5,82,31.2,23.2,3,5,7,1,2026-04-30T01:41:53.115108+05:30
Bhagalpur,Bihar,25.2425,87.0117,24.0,83,0.0,999.5,7.4,43.9,59,13.4,11.3,3,5,7,1,2026-04-30T01:41:53.115114+05:30
Ranchi,Jharkhand,23.3441,85.3096,22.2,88,0.0,934.1,9.1,37.1,88,45.9,41.2,3,5,7,1,2026-04-30T01:41:53.115121+05:30
Jamshedpur,Jharkhand,22.8046,86.2029,24.2,91,0.0,988.2,8.95,48.2,122,45.8,44.0,3,5,7,1,2026-04-30T01:41:53.115127+05:30
Dhanbad,Jharkhand,23.7957,86.4304,24.4,88,0.0,977.5,8.4,43.6,157,63.6,61.9,3,5,7,1,2026-04-30T01:41:53.115133+05:30
Bokaro,Jharkhand,23.6693,86.1511,24.1,89,0.0,981.2,7.25,32.0,154,75.4,73.3,3,5,7,1,2026-04-30T01:41:53.115139+05:30
Bhubaneswar,Odisha,20.2961,85.8245,28.0,83,0.0,998.8,9.0,46.1,54,11.6,9.1,7,5,7,1,2026-04-30T01:41:53.115146+05:30
Cuttack,Odisha,20.4625,85.8828,28.2,83,0.0,1000.5,9.15,42.5,54,11.6,9.1,7,5,4,1,2026-04-30T01:41:53.115152+05:30
Rourkela,Odisha,22.2604,84.8536,27.1,64,0.0,981.4,8.9,56.5,113,43.5,40.6,7,5,7,1,2026-04-30T01:41:53.115158+05:30
Raipur,Chhattisgarh,21.2514,81.6296,30.9,24,0.0,970.3,8.95,50.0,99,34.0,30.6,0,5,7,0,2026-04-30T01:41:53.115164+05:30
Bhilai,Chhattisgarh,21.1938,81.3509,30.5,28,0.0,970.8,8.95,50.8,94,26.9,23.1,0,5,7,0,2026-04-30T01:41:53.115170+05:30
Guwahati,Assam,26.1158,91.7086,21.2,97,0.1,1002.8,7.7,36.7,65,26.1,18.9,6,5,4,1,2026-04-30T01:41:53.115176+05:30
Agartala,Tripura,23.8315,91.2868,21.0,92,0.1,1006.5,5.3,62.3,81,30.0,26.4,6,5,0,1,2026-04-30T01:41:53.115183+05:30
Shillong,Meghalaya,25.5788,91.8933,13.8,87,0.0,855.1,5.5,49.3,30,13.4,6.9,3,10,3,0,2026-04-30T01:41:53.115189+05:30
Imphal,Manipur,24.817,93.9368,14.9,97,0.0,922.9,9.0,25.6,82,26.4,26.2,3,10,7,0,2026-04-30T01:41:53.115196+05:30
Aizawl,Mizoram,23.7271,92.7176,14.0,99,0.0,891.9,5.6,38.5,81,16.2,12.7,3,10,3,0,2026-04-30T01:41:53.115202+05:30
Kohima,Nagaland,25.6701,94.1077,13.4,95,0.0,853.3,7.75,31.7,53,13.6,7.7,3,10,7,0,2026-04-30T01:41:53.115208+05:30
Gangtok,Sikkim,27.3314,88.6138,11.5,89,3.0,834.4,7.35,36.4,47,3.5,3.0,6,10,7,0,2026-04-30T01:41:53.115214+05:30
Siliguri,West Bengal,26.7271,88.3953,20.6,97,0.3,992.8,6.0,33.1,54,17.1,11.9,6,5,3,1,2026-04-30T01:41:56.381216+05:30
Durgapur,West Bengal,23.5204,87.3119,23.9,92,0.0,993.2,8.6,35.6,132,38.4,36.9,3,5,7,1,2026-04-30T01:41:56.381247+05:30
Asansol,West Bengal,23.6739,86.9524,23.9,91,0.0,991.7,8.0,31.0,150,43.8,42.5,3,5,7,1,2026-04-30T01:41:56.381257+05:30
Pondicherry,Puducherry,11.9139,79.8145,29.3,81,0.0,1007.3,9.25,52.2,50,10.2,7.8,7,5,4,1,2026-04-30T01:41:56.381264+05:30
Port Blair,Andaman and Nicobar Islands,11.6234,92.7265,26.5,84,0.0,1006.5,9.05,26.6,33,10.0,7.5,7,5,4,1,2026-04-30T01:41:56.381271+05:30
Haridwar,Uttarakhand,29.9457,78.1642,20.5,71,0.0,968.1,7.25,40.0,81,66.6,37.3,3,5,7,0,2026-04-30T01:41:56.381278+05:30
Rishikesh,Uttarakhand,30.0869,78.2676,18.5,79,0.0,960.8,7.35,28.1,81,94.1,35.6,3,5,7,0,2026-04-30T01:41:56.381286+05:30
Nainital,Uttarakhand,29.3919,79.4542,12.0,75,0.0,800.1,8.1,39.6,96,96.6,41.1,3,5,7,0,2026-04-30T01:41:56.381293+05:30
Mussoorie,Uttarakhand,30.4599,78.0664,12.8,63,0.0,797.5,7.7,46.4,67,44.2,25.1,3,5,7,0,2026-04-30T01:41:56.381300+05:30
Dharamshala,Himachal Pradesh,32.219,76.3234,19.5,45,0.0,864.5,7.5,46.4,38,9.2,5.4,0,5,7,0,2026-04-30T01:41:56.381307+05:30
Dalhousie,Himachal Pradesh,32.5387,75.971,8.7,84,0.0,796.4,8.3,30.6,56,29.6,21.9,3,10,7,0,2026-04-30T01:41:56.381314+05:30
Patiala,Punjab,30.3398,76.3869,23.5,67,0.0,972.3,6.1,31.7,157,339.0,58.1,3,5,7,1,2026-04-30T01:41:56.381321+05:30
Bhatinda,Punjab,30.211,74.9455,26.0,53,0.0,978.2,8.05,45.4,100,310.1,79.2,4,5,7,0,2026-04-30T01:41:56.381327+05:30
Rohtak,Haryana,28.8955,76.6066,25.5,48,0.0,976.3,7.5,38.9,194,320.4,61.0,4,5,7,0,2026-04-30T01:41:56.381333+05:30
Panipat,Haryana,29.3909,76.9635,24.5,59,0.0,974.5,7.35,40.3,463,489.9,72.9,0,5,7,0,2026-04-30T01:41:56.381340+05:30
Mathura,Uttar Pradesh,27.4924,77.6737,27.9,41,0.0,981.1,7.75,50.0,799,1203.3,152.7,4,5,7,0,2026-04-30T01:41:56.381346+05:30
Vrindavan,Uttar Pradesh,27.5823,77.7027,27.5,42,0.0,981.5,7.7,45.7,799,1203.3,152.7,4,5,7,0,2026-04-30T01:41:56.381353+05:30
Ayodhya,Uttar Pradesh,26.7922,82.1998,24.1,88,0.0,992.4,8.05,38.5,134,48.1,36.0,3,5,7,1,2026-04-30T01:41:56.381359+05:30
Ratlam,Madhya Pradesh,23.3315,75.0367,27.6,37,0.0,951.3,8.5,46.8,65,24.5,12.7,4,5,7,0,2026-04-30T01:41:56.381365+05:30
Sagar,Madhya Pradesh,23.8388,78.7378,29.0,25,0.0,946.0,8.65,44.3,44,32.5,16.0,4,5,7,0,2026-04-30T01:41:56.381372+05:30
Satna,Madhya Pradesh,24.6005,80.8322,26.9,45,0.0,967.0,8.3,57.2,67,57.7,35.2,4,5,7,0,2026-04-30T01:41:56.381378+05:30
Akola,Maharashtra,20.7002,77.0082,31.3,24,0.0,971.8,8.9,45.4,64,22.8,14.3,0,5,7,0,2026-04-30T01:41:56.381385+05:30
Amravati,Maharashtra,20.9374,77.7796,30.7,22,0.0,963.9,8.85,49.7,63,20.8,13.3,0,5,7,0,2026-04-30T01:41:56.381392+05:30
Latur,Maharashtra,18.4088,76.5604,30.3,24,0.0,937.3,9.1,40.7,70,26.1,22.1,0,5,7,0,2026-04-30T01:41:56.381398+05:30
Nanded,Maharashtra,19.1383,77.3091,30.1,24,0.0,965.3,9.0,34.2,69,20.1,16.6,0,5,7,0,2026-04-30T01:41:56.381425+05:30
Gulbarga,Karnataka,17.3297,76.8343,31.0,37,0.0,956.1,9.1,43.6,87,30.2,26.6,0,5,7,0,2026-04-30T01:41:56.381433+05:30
Bidar,Karnataka,17.9104,77.5199,30.5,34,0.0,933.1,9.1,37.8,95,44.8,38.1,0,5,7,0,2026-04-30T01:41:56.381440+05:30
Hospet,Karnataka,15.2689,76.3909,27.6,75,0.0,955.0,9.25,74.5,84,30.0,24.4,7,5,7,1,2026-04-30T01:41:56.381446+05:30
Tirupur,Tamil Nadu,11.1085,77.3411,27.2,81,0.0,974.3,9.4,67.3,87,31.4,27.4,7,5,7,1,2026-04-30T01:41:56.381452+05:30
Alappuzha,Kerala,9.4981,76.3388,25.2,96,0.0,1008.9,8.65,34.2,66,29.5,25.3,7,0,4,1,2026-04-30T01:41:56.381458+05:30
Munnar,Kerala,10.0889,77.0595,18.4,99,0.0,857.0,8.85,26.3,76,32.4,30.3,3,10,7,1,2026-04-30T01:41:56.381465+05:30
Silchar,Assam,24.8333,92.7789,20.0,99,0.0,1006.9,3.1,31.3,94,34.7,28.4,3,5,0,1,2026-04-30T01:41:56.381470+05:30
Dibrugarh,Assam,27.4728,94.912,21.5,98,0.1,996.4,7.8,32.0,94,16.3,14.1,6,5,7,1,2026-04-30T01:41:56.381477+05:30
