city,state,latitude,longitude,temp,humidity,rain,pressure,uv_index,wind_gusts,aqi,pm10,pm2_5,no2,co,o3,so2,mosquito_risk,arthritis_risk,migraine_risk,frizz_risk,updated_at
Delhi,Delhi,28.6139,77.209,41.3,21,0.0,977.5,7.7,42.5,737,455.4,75.4,2.8,315.0,170.0,13.1,0,5,10,0,2026-05-18T13:41:30.398470+05:30
Mumbai,Maharashtra,19.076,72.8777,33.5,63,0.0,1004.8,7.85,43.6,69,46.6,24.7,4.7,201.0,133.0,7.1,3,5,4,1,2026-05-18T13:41:30.398516+05:30
Bangalore,Karnataka,12.9716,77.5946,33.2,39,0.0,910.4,8.6,30.6,84,31.3,22.8,2.9,274.0,158.0,6.0,0,5,7,1,2026-05-18T13:41:30.398532+05:30
Hyderabad,Telangana,17.385,78.4867,37.5,29,0.0,950.5,9.3,25.6,59,26.4,18.6,1.7,300.0,150.0,4.8,0,5,10,1,2026-05-18T13:41:30.398542+05:30
Chennai,Tamil Nadu,13.0827,80.2707,34.2,60,0.0,1002.9,9.0,43.2,62,24.5,19.3,2.6,262.0,154.0,9.8,0,5,4,1,2026-05-18T13:41:30.398551+05:30
Kolkata,West Bengal,22.5726,88.3639,37.1,57,0.0,999.2,8.95,37.4,63,35.3,27.6,1.9,304.0,144.0,10.7,0,5,10,1,2026-05-18T13:41:30.398558+05:30
Pune,Maharashtra,18.5204,73.8567,39.8,16,0.0,945.3,8.3,48.6,73,33.5,18.1,1.5,176.0,165.0,9.1,0,5,10,0,2026-05-18T13:41:30.398565+05:30
Ahmedabad,Gujarat,23.0225,72.5714,42.5,13,0.0,997.5,8.0,34.9,62,59.4,19.7,1.3,157.0,117.0,3.0,0,5,10,0,2026-05-18T13:41:30.398571+05:30
Jaipur,Rajasthan,26.9124,75.7873,42.1,13,0.0,956.5,8.25,43.6,137,319.4,50.4,0.7,153.0,116.0,2.6,0,5,10,0,2026-05-18T13:41:30.398582+05:30
Lucknow,Uttar Pradesh,26.8467,80.9462,41.7,21,0.0,986.7,8.2,37.1,162,357.6,76.1,0.9,247.0,176.0,9.4,0,5,10,0,2026-05-18T13:41:30.398589+05:30
Kanpur,Uttar Pradesh,26.4499,80.3319,43.1,16,0.0,985.0,8.25,43.2,275,672.4,97.3,0.8,180.0,153.0,8.6,0,5,10,0,2026-05-18T13:41:30.398596+05:30
Chandigarh,Chandigarh,30.7333,76.7794,39.1,21,0.0,963.7,7.75,36.0,96,15.1,12.2,1.6,257.0,170.0,10.0,0,5,10,0,2026-05-18T13:41:30.398604+05:30
Srinagar,Jammu and Kashmir,34.0837,74.7973,27.5,36,0.0,842.9,8.95,20.5,67,26.1,10.9,1.0,317.0,140.0,2.2,4,5,7,0,2026-05-18T13:41:30.398613+05:30
Jammu,Jammu and Kashmir,32.7266,74.857,39.6,21,0.0,966.5,8.55,29.2,65,14.0,10.5,1.3,229.0,181.0,4.2,0,5,10,0,2026-05-18T13:41:30.398621+05:30
Amritsar,Punjab,31.634,74.8723,40.3,23,0.0,974.3,8.45,24.5,78,42.4,20.3,1.5,360.0,179.0,9.6,0,5,10,0,2026-05-18T13:41:30.398627+05:30
Ludhiana,Punjab,30.901,75.8573,40.2,23,0.0,972.9,8.0,26.3,96,54.8,22.8,1.0,357.0,154.0,6.5,0,5,10,0,2026-05-18T13:41:30.398633+05:30
Jalandhar,Punjab,31.326,75.5762,39.9,23,0.0,973.8,8.2,27.7,105,63.8,25.3,1.0,360.0,171.0,8.1,0,5,10,0,2026-05-18T13:41:30.398639+05:30
Dehradun,Uttarakhand,30.6284,78.0322,27.4,35,0.0,831.5,8.2,37.8,52,10.3,7.8,0.8,219.0,162.0,3.8,4,5,7,0,2026-05-18T13:41:30.398645+05:30
Shimla,Himachal Pradesh,31.1048,77.1734,26.6,21,0.0,787.7,8.3,44.6,81,9.6,6.8,0.8,169.0,160.0,4.7,4,5,7,0,2026-05-18T13:41:30.398654+05:30
Manali,Himachal Pradesh,32.2396,77.1887,27.3,22,0.0,819.4,9.9,54.0,76,13.8,8.8,2.7,145.0,146.0,0.4,4,5,7,0,2026-05-18T13:41:30.398660+05:30
Gurgaon,Haryana,28.4595,77.0266,40.5,23,0.0,976.1,7.8,40.0,1143,1207.0,149.0,2.7,275.0,171.0,11.3,0,5,10,0,2026-05-18T13:41:30.398669+05:30
Noida,Uttar Pradesh,28.5355,77.391,40.7,22,0.0,978.6,7.75,33.1,1143,1207.0,149.0,2.7,330.0,171.0,11.3,0,5,10,0,2026-05-18T13:41:30.398676+05:30
Ghaziabad,Uttar Pradesh,28.6692,77.4538,40.0,23,0.0,977.0,7.75,35.6,601,311.1,66.6,2.4,293.0,186.0,16.5,0,5,10,0,2026-05-18T13:41:30.398682+05:30
Faridabad,Haryana,28.4089,77.3178,41.0,20,0.0,978.1,7.8,40.7,1143,1207.0,149.0,2.7,307.0,171.0,11.3,0,5,10,0,2026-05-18T13:41:30.398688+05:30
Meerut,Uttar Pradesh,28.9845,77.7064,39.4,25,0.0,975.9,7.65,37.4,601,311.1,66.6,2.4,306.0,186.0,16.5,0,5,10,0,2026-05-18T13:41:30.398693+05:30
Agra,Uttar Pradesh,27.1767,78.0081,42.0,20,0.0,982.1,8.1,42.1,505,879.2,103.1,0.4,234.0,149.0,5.7,0,5,10,0,2026-05-18T13:41:30.398700+05:30
Varanasi,Uttar Pradesh,25.3176,82.9739,43.8,14,0.0,989.9,8.7,42.8,115,83.4,26.0,0.6,209.0,151.0,5.6,0,5,10,0,2026-05-18T13:41:30.398706+05:30
Prayagraj,Uttar Pradesh,25.4358,81.8463,44.0,14,0.0,988.4,8.6,45.0,131,102.9,29.8,0.8,173.0,154.0,7.2,0,5,10,0,2026-05-18T13:41:30.398713+05:30
Gorakhpur,Uttar Pradesh,26.7606,83.3732,37.8,38,0.0,990.5,8.6,27.4,150,143.4,65.4,1.2,387.0,200.0,12.2,0,5,10,1,2026-05-18T13:41:30.398721+05:30
Bareilly,Uttar Pradesh,28.367,79.4304,37.5,32,0.0,980.7,8.0,36.4,153,102.9,48.4,1.1,327.0,192.0,11.2,0,5,10,1,2026-05-18T13:41:30.398727+05:30
Aligarh,Uttar Pradesh,27.8974,78.088,40.0,23,0.0,979.9,7.9,39.6,694,683.6,100.8,1.5,301.0,195.0,14.5,0,5,10,0,2026-05-18T13:41:30.398734+05:30
Moradabad,Uttar Pradesh,28.8386,78.7733,38.0,32,0.0,977.8,7.85,38.5,165,162.5,68.7,1.7,344.0,196.0,14.7,0,5,10,1,2026-05-18T13:41:30.398741+05:30
Saharanpur,Uttar Pradesh,29.9637,77.546,38.3,26,0.0,970.2,7.4,35.3,112,56.7,26.7,1.7,276.0,191.0,13.3,0,5,10,0,2026-05-18T13:41:30.398747+05:30
Jhansi,Uttar Pradesh,25.4484,78.5685,43.4,15,0.0,972.7,8.5,45.7,79,92.2,24.6,0.7,143.0,127.0,5.5,0,5,10,0,2026-05-18T13:41:33.633464+05:30
Surat,Gujarat,21.1702,72.8311,40.0,21,0.0,1002.4,7.0,33.5,91,59.1,39.0,29.0,112.0,133.0,77.8,0,5,7,0,2026-05-18T13:41:33.633499+05:30
Vadodara,Gujarat,22.3072,73.1812,43.0,14,0.0,999.2,7.65,33.8,68,54.2,23.9,2.2,180.0,152.0,9.9,0,5,10,0,2026-05-18T13:41:33.633511+05:30
Rajkot,Gujarat,22.3039,70.8022,39.8,16,0.0,991.1,7.1,40.0,58,91.0,26.3,1.0,126.0,115.0,3.9,0,5,10,0,2026-05-18T13:41:33.633520+05:30
Thane,Maharashtra,19.2183,72.9781,37.7,48,0.0,1003.5,7.9,39.6,69,46.6,24.7,4.7,219.0,133.0,7.1,0,5,7,1,2026-05-18T13:41:33.633529+05:30
Nagpur,Maharashtra,21.1458,79.0882,43.4,15,0.0,968.6,8.95,36.7,81,24.4,15.3,4.0,214.0,166.0,17.9,0,5,10,0,2026-05-18T13:41:33.633536+05:30
Nashik,Maharashtra,19.9975,73.7898,39.0,20,0.0,943.1,6.8,43.9,66,35.9,17.0,1.1,144.0,131.0,4.4,0,5,10,0,2026-05-18T13:41:33.633543+05:30
Aurangabad,Maharashtra,19.8762,75.3433,40.5,16,0.0,941.5,9.0,29.2,56,32.9,15.2,0.9,156.0,138.0,4.7,0,5,10,0,2026-05-18T13:41:33.633550+05:30
Solapur,Maharashtra,17.6599,75.9064,40.7,21,0.0,953.7,8.5,39.2,74,32.0,23.5,1.3,195.0,170.0,6.7,0,5,10,0,2026-05-18T13:41:33.633558+05:30
Kolhapur,Maharashtra,16.705,74.2433,37.5,27,0.0,944.9,8.35,51.1,59,29.4,18.9,1.5,173.0,155.0,6.8,0,5,10,0,2026-05-18T13:41:33.633565+05:30
Goa,Goa,15.2993,74.124,33.9,61,0.0,994.6,6.55,32.8,67,38.3,17.3,0.7,133.0,85.0,1.9,3,5,7,1,2026-05-18T13:41:33.633572+05:30
Jodhpur,Rajasthan,26.2389,73.0243,42.0,12,0.0,979.0,8.4,41.0,126,193.7,39.6,0.7,142.0,125.0,4.5,0,5,10,0,2026-05-18T13:41:33.633580+05:30
Udaipur,Rajasthan,24.5854,73.7125,40.3,14,0.0,944.1,8.85,45.4,57,45.3,14.9,0.5,139.0,121.0,4.0,0,5,10,0,2026-05-18T13:41:33.633586+05:30
Kota,Rajasthan,25.2138,75.8648,44.4,12,0.0,974.2,8.4,36.0,90,144.8,31.7,0.7,147.0,120.0,4.2,0,5,10,0,2026-05-18T13:41:33.633593+05:30
Bikaner,Rajasthan,28.0229,73.3119,43.7,11,0.0,976.8,8.35,42.1,82,81.0,24.8,0.3,134.0,111.0,2.8,0,5,10,0,2026-05-18T13:41:33.633600+05:30
Ajmer,Rajasthan,26.4499,74.6399,40.2,16,0.0,952.1,8.4,42.5,87,98.0,25.6,0.5,148.0,116.0,2.9,0,5,10,0,2026-05-18T13:41:33.633606+05:30
Gwalior,Madhya Pradesh,26.2183,78.1828,42.8,17,0.0,977.9,8.25,46.4,89,123.9,32.6,0.4,170.0,137.0,5.8,0,5,10,0,2026-05-18T13:41:33.633613+05:30
Indore,Madhya Pradesh,22.7196,75.8577,42.5,12,0.0,944.8,8.7,50.4,69,76.4,21.1,0.8,191.0,136.0,4.7,0,5,10,0,2026-05-18T13:41:33.633619+05:30
Bhopal,Madhya Pradesh,23.2599,77.4126,42.3,13,0.0,950.3,8.7,42.1,59,73.1,20.3,0.5,171.0,135.0,3.7,0,5,10,0,2026-05-18T13:41:33.633626+05:30
Jabalpur,Madhya Pradesh,23.1815,79.9864,42.8,12,0.0,957.1,8.85,34.6,82,74.5,20.1,0.5,175.0,144.0,3.7,0,5,10,0,2026-05-18T13:41:33.633633+05:30
Ujjain,Madhya Pradesh,23.1765,75.7885,42.3,13,0.0,950.4,8.3,34.2,67,65.0,19.3,0.6,166.0,132.0,4.3,0,5,10,0,2026-05-18T13:41:33.633640+05:30
Visakhapatnam,Andhra Pradesh,17.6868,83.2185,34.7,56,0.0,999.9,9.1,49.3,63,32.5,23.1,5.4,310.0,119.0,24.0,0,5,7,1,2026-05-18T13:41:33.633647+05:30
Vijayawada,Andhra Pradesh,16.5062,80.648,38.8,40,0.0,998.2,8.6,33.1,59,24.5,20.1,1.6,235.0,140.0,9.3,0,5,10,1,2026-05-18T13:41:33.633654+05:30
Guntur,Andhra Pradesh,16.3067,80.4365,38.5,40,0.0,999.3,9.2,36.0,63,26.0,21.2,1.3,225.0,139.0,8.0,0,5,10,1,2026-05-18T13:41:33.633661+05:30
Nellore,Andhra Pradesh,14.4426,79.9865,39.3,37,0.0,1000.9,9.1,40.7,66,26.8,22.3,1.6,262.0,161.0,8.1,0,5,7,1,2026-05-18T13:41:33.633668+05:30
Kurnool,Andhra Pradesh,15.8281,78.0373,39.5,27,0.0,973.2,9.05,33.8,60,29.6,21.5,0.9,220.0,138.0,6.0,0,5,10,1,2026-05-18T13:41:33.633676+05:30
Kakinada,Andhra Pradesh,16.9891,82.2475,38.9,40,0.0,1003.1,9.1,38.2,55,20.0,13.3,0.9,228.0,96.0,1.3,0,5,7,1,2026-05-18T13:41:33.633683+05:30
Tirupati,Andhra Pradesh,13.6288,79.4192,37.5,35,0.0,986.8,8.6,29.9,71,29.4,22.6,0.8,223.0,149.0,4.8,0,5,10,1,2026-05-18T13:41:33.633690+05:30
Warangal,Telangana,17.9689,79.5941,37.0,37,0.0,975.6,9.2,36.4,69,24.9,18.5,1.3,220.0,133.0,4.1,0,5,10,1,2026-05-18T13:41:33.633696+05:30
Nizamabad,Telangana,18.6725,78.0941,40.8,22,0.0,961.2,9.15,28.1,70,31.8,23.7,1.1,206.0,158.0,6.6,0,5,10,0,2026-05-18T13:41:33.633703+05:30
Mysore,Karnataka,12.2958,76.6396,31.3,52,0.0,926.5,4.05,33.1,62,27.2,18.9,1.4,206.0,139.0,3.6,0,5,3,1,2026-05-18T13:41:33.633710+05:30
Mangalore,Karnataka,12.9141,74.856,25.4,96,0.1,1005.5,6.85,25.2,57,9.4,6.5,2.1,167.0,91.0,2.5,10,5,4,1,2026-05-18T13:41:33.633717+05:30
Hubli-Dharwad,Karnataka,15.3647,75.124,28.7,71,0.0,938.6,9.05,44.3,55,31.8,21.2,1.3,181.0,147.0,4.0,7,5,7,1,2026-05-18T13:41:33.633724+05:30
Belgaum,Karnataka,15.8497,74.4977,36.0,33,0.0,923.6,7.9,46.8,59,29.9,18.8,1.3,163.0,146.0,6.1,0,5,10,1,2026-05-18T13:41:36.874852+05:30
Coimbatore,Tamil Nadu,11.0168,76.9558,32.8,48,0.0,959.2,5.9,45.7,36,10.1,7.4,1.4,192.0,107.0,2.5,0,5,3,1,2026-05-18T13:41:36.874888+05:30
Madurai,Tamil Nadu,9.9252,78.1198,34.5,52,0.0,989.4,8.35,39.2,73,8.0,6.4,1.2,201.0,128.0,2.0,0,5,7,1,2026-05-18T13:41:36.874900+05:30
Trichy,Tamil Nadu,10.7905,78.7047,35.0,51,0.0,995.8,9.05,29.5,65,13.5,10.8,1.2,204.0,135.0,2.8,0,5,7,1,2026-05-18T13:41:36.874909+05:30
Salem,Tamil Nadu,11.6643,78.146,34.9,46,0.0,974.2,8.8,26.3,65,28.9,20.5,2.3,237.0,162.0,8.7,0,5,7,1,2026-05-18T13:41:36.874918+05:30
Tirunelveli,Tamil Nadu,8.7139,77.7567,36.1,45,0.0,999.8,8.25,17.6,33,5.9,4.4,1.0,162.0,88.0,0.5,0,5,10,1,2026-05-18T13:41:36.874925+05:30
Vellore,Tamil Nadu,12.9165,79.1325,34.2,50,0.1,980.6,9.15,30.6,77,33.3,24.0,1.0,234.0,150.0,5.6,3,5,7,1,2026-05-18T13:41:36.874933+05:30
Erode,Tamil Nadu,11.341,77.7172,35.5,44,0.0,985.3,7.15,38.2,56,18.4,12.9,1.5,220.0,137.0,2.9,0,5,10,1,2026-05-18T13:41:36.874940+05:30
Kochi,Kerala,9.9312,76.2673,30.0,70,0.0,1006.3,7.05,34.2,42,8.4,6.3,2.5,139.0,92.0,2.8,7,5,4,1,2026-05-18T13:41:36.874948+05:30
Thiruvananthapuram,Kerala,8.5241,76.9366,29.3,76,0.0,1006.3,7.15,33.1,35,9.7,6.2,0.9,133.0,83.0,0.6,7,5,4,1,2026-05-18T13:41:36.874955+05:30
Kozhikode,Kerala,11.2588,75.7804,28.9,77,0.0,1005.8,4.2,23.4,39,6.8,4.4,0.7,164.0,83.0,0.9,7,5,0,1,2026-05-18T13:41:36.874962+05:30
Thrissur,Kerala,10.5276,76.2144,29.0,77,0.2,1004.6,5.95,30.6,38,6.1,4.9,1.9,153.0,87.0,2.2,10,5,0,1,2026-05-18T13:41:36.874970+05:30
Kannur,Kerala,11.8745,75.3704,26.9,89,0.1,1005.4,2.55,32.4,57,9.9,6.3,2.3,138.0,78.0,1.6,10,5,0,1,2026-05-18T13:41:36.874977+05:30
Patna,Bihar,25.5941,85.1376,38.2,38,0.0,993.8,8.8,29.5,154,97.3,58.7,2.2,389.0,218.0,15.2,0,5,10,1,2026-05-18T13:41:36.874984+05:30
Gaya,Bihar,24.7914,85.0002,41.0,19,0.0,987.1,8.85,38.9,116,161.6,51.0,2.4,198.0,192.0,17.5,0,5,10,0,2026-05-18T13:41:36.874992+05:30
Muzaffarpur,Bihar,26.1209,85.3647,35.5,56,0.0,994.1,8.8,32.0,155,88.2,61.5,2.2,410.0,214.0,15.8,0,5,10,1,2026-05-18T13:41:36.874998+05:30
Bhagalpur,Bihar,25.2425,87.0117,34.0,59,0.0,995.2,8.8,37.4,153,53.7,43.3,3.7,417.0,199.0,17.9,0,5,7,1,2026-05-18T13:41:36.875004+05:30
Ranchi,Jharkhand,23.3441,85.3096,35.4,26,0.0,934.7,9.25,42.8,143,68.7,30.3,0.9,183.0,169.0,10.0,0,5,10,0,2026-05-18T13:41:36.875012+05:30
Jamshedpur,Jharkhand,22.8046,86.2029,38.0,30,0.0,985.6,9.1,47.9,131,66.6,42.3,1.8,206.0,203.0,17.4,0,5,10,1,2026-05-18T13:41:36.875019+05:30
Dhanbad,Jharkhand,23.7957,86.4304,39.5,21,0.0,974.2,9.0,38.9,157,129.0,45.4,3.2,198.0,189.0,26.4,0,5,10,0,2026-05-18T13:41:36.875026+05:30
Bokaro,Jharkhand,23.6693,86.1511,39.2,25,0.0,978.0,9.05,34.9,153,120.1,41.9,4.2,186.0,174.0,25.2,0,5,10,0,2026-05-18T13:41:36.875033+05:30
Bhubaneswar,Odisha,20.2961,85.8245,38.8,44,0.0,997.1,7.35,42.8,57,28.7,22.1,1.7,260.0,147.0,8.5,0,5,10,1,2026-05-18T13:41:36.875040+05:30
Cuttack,Odisha,20.4625,85.8828,39.8,40,0.0,998.5,9.15,41.4,57,28.7,22.1,1.7,258.0,147.0,8.5,0,5,10,1,2026-05-18T13:41:36.875046+05:30
Rourkela,Odisha,22.2604,84.8536,40.2,28,0.0,979.7,8.95,38.5,152,50.6,36.7,1.4,241.0,204.0,13.3,0,5,10,1,2026-05-18T13:41:36.875053+05:30
Raipur,Chhattisgarh,21.2514,81.6296,40.8,26,0.0,970.4,8.95,42.8,112,40.7,35.4,4.9,276.0,191.0,29.5,0,5,10,1,2026-05-18T13:41:36.875059+05:30
Bhilai,Chhattisgarh,21.1938,81.3509,40.0,27,0.0,971.0,8.95,43.2,98,35.5,30.4,5.0,418.0,175.0,25.6,0,5,10,1,2026-05-18T13:41:36.875066+05:30
Guwahati,Assam,26.1158,91.7086,29.0,73,0.0,997.0,8.3,27.7,80,17.6,11.9,1.4,313.0,126.0,3.7,7,5,7,1,2026-05-18T13:41:36.875072+05:30
Agartala,Tripura,23.8315,91.2868,33.5,61,0.0,1000.6,8.9,47.5,77,39.8,24.4,3.4,196.0,119.0,4.7,3,5,4,1,2026-05-18T13:41:36.875079+05:30
Shillong,Meghalaya,25.5788,91.8933,24.3,54,0.1,855.0,7.8,44.3,56,17.9,10.6,0.9,237.0,127.0,4.6,3,5,7,0,2026-05-18T13:41:36.875085+05:30
Imphal,Manipur,24.817,93.9368,29.0,58,0.0,919.7,9.2,41.4,85,40.3,18.8,0.5,193.0,111.0,3.8,4,5,7,1,2026-05-18T13:41:36.875092+05:30
Aizawl,Mizoram,23.7271,92.7176,27.1,58,0.1,890.3,9.1,33.1,69,39.0,19.0,0.3,172.0,108.0,3.2,7,5,7,1,2026-05-18T13:41:36.875098+05:30
Kohima,Nagaland,25.6701,94.1077,23.2,81,0.1,853.6,8.8,34.2,58,19.1,10.5,0.7,217.0,112.0,2.8,6,5,7,1,2026-05-18T13:41:36.875105+05:30
Gangtok,Sikkim,27.3314,88.6138,21.6,71,0.1,835.1,9.05,35.6,81,37.5,27.8,1.0,298.0,145.0,2.9,6,5,7,1,2026-05-18T13:41:36.875111+05:30
Siliguri,West Bengal,26.7271,88.3953,29.1,68,0.0,988.4,8.75,31.3,119,49.6,34.3,1.6,346.0,152.0,5.3,7,5,7,1,2026-05-18T13:41:40.109837+05:30
Durgapur,West Bengal,23.5204,87.3119,40.5,25,0.0,988.6,8.95,35.6,149,127.1,61.2,5.9,289.0,229.0,42.7,0,5,10,1,2026-05-18T13:41:40.109872+05:30
Asansol,West Bengal,23.6739,86.9524,38.5,26,0.1,987.7,9.0,37.4,151,130.4,49.5,3.9,322.0,206.0,32.5,3,5,10,0,2026-05-18T13:41:40.109883+05:30
Pondicherry,Puducherry,11.9139,79.8145,32.5,70,0.0,1004.4,8.75,41.4,56,27.1,23.7,2.7,221.0,178.0,14.5,3,5,4,1,2026-05-18T13:41:40.109892+05:30
Port Blair,Andaman and Nicobar Islands,11.6234,92.7265,28.8,76,0.0,1005.0,7.7,46.1,23,8.7,5.2,0.4,109.0,53.0,0.3,7,5,4,1,2026-05-18T13:41:40.109901+05:30
Haridwar,Uttarakhand,29.9457,78.1642,37.0,31,0.0,968.6,7.55,27.0,92,20.8,17.5,1.3,285.0,192.0,10.0,0,5,10,1,2026-05-18T13:41:40.109909+05:30
Rishikesh,Uttarakhand,30.0869,78.2676,36.6,29,0.0,961.6,7.65,28.8,101,18.6,14.0,0.8,265.0,175.0,6.5,0,5,10,0,2026-05-18T13:41:40.109916+05:30
Nainital,Uttarakhand,29.3919,79.4542,24.6,50,0.1,806.3,8.5,28.4,95,32.0,18.5,1.2,262.0,183.0,9.7,3,5,7,0,2026-05-18T13:41:40.109924+05:30
Mussoorie,Uttarakhand,30.4599,78.0664,25.8,37,0.0,804.9,8.05,44.6,86,16.7,14.0,1.1,219.0,184.0,7.7,4,5,7,0,2026-05-18T13:41:40.109932+05:30
Dharamshala,Himachal Pradesh,32.219,76.3234,29.8,31,0.0,868.6,8.45,37.1,49,9.5,5.3,0.5,190.0,146.0,1.5,4,5,7,0,2026-05-18T13:41:40.109939+05:30
Dalhousie,Himachal Pradesh,32.5387,75.971,27.4,27,0.0,806.8,8.7,40.0,59,11.8,9.2,1.2,180.0,171.0,2.9,4,5,7,0,2026-05-18T13:41:40.109946+05:30
Patiala,Punjab,30.3398,76.3869,40.7,21,0.0,972.6,7.65,31.7,627,555.1,69.8,1.0,298.0,154.0,8.4,0,5,10,0,2026-05-18T13:41:40.109953+05:30
Bhatinda,Punjab,30.211,74.9455,42.7,17,0.0,977.3,8.3,37.8,84,75.0,23.6,1.6,213.0,145.0,9.2,0,5,10,0,2026-05-18T13:41:40.109961+05:30
Rohtak,Haryana,28.8955,76.6066,40.8,24,0.0,976.2,7.75,40.0,935,717.1,90.1,0.7,243.0,152.0,6.5,0,5,10,1,2026-05-18T13:41:40.109967+05:30
Panipat,Haryana,29.3909,76.9635,40.3,22,0.0,974.8,7.6,33.8,2019,1572.1,171.8,1.7,278.0,153.0,11.6,0,5,10,0,2026-05-18T13:41:40.109974+05:30
Mathura,Uttar Pradesh,27.4924,77.6737,41.7,20,0.0,981.2,8.0,38.5,531,890.3,104.1,0.5,245.0,146.0,5.1,0,5,10,0,2026-05-18T13:41:40.109981+05:30
Vrindavan,Uttar Pradesh,27.5823,77.7027,41.0,22,0.0,981.6,8.0,36.4,531,890.3,104.1,0.5,254.0,146.0,5.1,0,5,10,0,2026-05-18T13:41:40.109988+05:30
Ayodhya,Uttar Pradesh,26.7922,82.1998,38.8,33,0.0,988.5,8.35,25.6,147,310.1,82.7,1.1,341.0,199.0,12.3,0,5,10,1,2026-05-18T13:41:40.109995+05:30
Ratlam,Madhya Pradesh,23.3315,75.0367,42.5,13,0.0,951.4,8.55,47.2,62,59.6,18.3,0.5,151.0,127.0,4.2,0,5,10,0,2026-05-18T13:41:40.110001+05:30
Sagar,Madhya Pradesh,23.8388,78.7378,42.9,11,0.0,946.6,8.75,45.0,71,53.3,16.6,0.4,165.0,127.0,3.4,0,5,10,0,2026-05-18T13:41:40.110008+05:30
Satna,Madhya Pradesh,24.6005,80.8322,42.7,14,0.0,966.2,8.75,50.8,88,58.3,17.8,0.4,155.0,130.0,3.2,0,5,10,0,2026-05-18T13:41:40.110014+05:30
Akola,Maharashtra,20.7002,77.0082,43.5,14,0.0,970.6,8.85,31.7,53,29.3,14.3,1.4,166.0,150.0,8.6,0,5,10,0,2026-05-18T13:41:40.110021+05:30
Amravati,Maharashtra,20.9374,77.7796,43.3,12,0.0,963.1,8.9,29.9,56,28.5,14.3,1.7,171.0,152.0,9.9,0,5,10,0,2026-05-18T13:41:40.110029+05:30
Latur,Maharashtra,18.4088,76.5604,40.7,18,0.0,937.2,9.05,34.9,75,18.6,13.2,1.1,175.0,158.0,6.2,0,5,10,0,2026-05-18T13:41:40.110036+05:30
Nanded,Maharashtra,19.1383,77.3091,42.5,16,0.0,964.4,9.0,30.6,74,23.3,14.9,1.1,206.0,157.0,5.7,0,5,10,0,2026-05-18T13:41:40.110043+05:30
Gulbarga,Karnataka,17.3297,76.8343,39.3,30,0.0,955.4,9.1,36.4,79,34.9,25.4,1.4,211.0,166.0,8.1,0,5,10,1,2026-05-18T13:41:40.110049+05:30
Bidar,Karnataka,17.9104,77.5199,38.0,29,0.0,933.3,9.15,35.6,71,31.4,23.5,1.2,202.0,158.0,6.4,0,5,10,1,2026-05-18T13:41:40.110055+05:30
Hospet,Karnataka,15.2689,76.3909,34.2,46,0.0,952.9,8.3,42.1,77,35.5,25.6,1.9,210.0,160.0,10.1,0,5,7,1,2026-05-18T13:41:40.110061+05:30
Tirupur,Tamil Nadu,11.1085,77.3411,35.7,40,0.0,971.9,8.15,49.3,56,14.2,10.4,1.7,194.0,131.0,3.3,0,5,10,1,2026-05-18T13:41:40.110067+05:30
Alappuzha,Kerala,9.4981,76.3388,29.6,76,0.0,1006.6,7.3,35.3,37,8.4,5.8,2.0,130.0,85.0,1.4,7,5,4,1,2026-05-18T13:41:40.110073+05:30
Munnar,Kerala,10.0889,77.0595,20.3,96,0.1,856.0,5.4,25.9,31,3.6,3.0,1.8,160.0,82.0,0.9,6,5,3,1,2026-05-18T13:41:40.110080+05:30
Silchar,Assam,24.8333,92.7789,31.6,65,0.0,1000.2,7.8,28.4,80,25.2,15.0,1.1,199.0,108.0,4.2,3,5,4,1,2026-05-18T13:41:40.110086+05:30
Dibrugarh,Assam,27.4728,94.912,26.5,76,0.0,992.2,7.85,23.8,81,33.4,21.5,2.7,236.0,117.0,2.2,7,5,7,1,2026-05-18T13:41:40.110093+05:30
