city,state,latitude,longitude,temp,humidity,rain,pressure,uv_index,wind_gusts,aqi,pm10,pm2_5,mosquito_risk,arthritis_risk,migraine_risk,frizz_risk,updated_at
Delhi,Delhi,28.6139,77.209,32.2,25,0.0,981.4,7.1,45.7,578,860.5,143.4,0,5,7,0,2026-04-26T00:28:17.506476+05:30
Mumbai,Maharashtra,19.076,72.8777,29.9,46,0.0,1007.4,8.0,42.8,77,45.6,28.2,4,5,4,1,2026-04-26T00:28:17.506518+05:30
Bangalore,Karnataka,12.9716,77.5946,26.7,50,0.0,912.1,9.3,36.4,75,31.3,28.2,4,5,7,0,2026-04-26T00:28:17.506533+05:30
Hyderabad,Telangana,17.385,78.4867,30.8,36,0.0,953.6,9.3,29.2,126,38.9,35.3,0,5,7,0,2026-04-26T00:28:17.506543+05:30
Chennai,Tamil Nadu,13.0827,80.2707,28.4,87,0.0,1006.6,9.3,50.0,33,12.8,8.6,7,5,4,1,2026-04-26T00:28:17.506552+05:30
Kolkata,West Bengal,22.5726,88.3639,27.8,89,0.0,1004.5,8.55,38.9,75,22.8,17.9,7,5,4,1,2026-04-26T00:28:17.506565+05:30
Pune,Maharashtra,18.5204,73.8567,29.7,28,0.0,948.0,8.35,36.4,125,41.9,35.7,4,5,7,0,2026-04-26T00:28:17.506574+05:30
Ahmedabad,Gujarat,23.0225,72.5714,34.2,18,0.0,1001.1,8.2,24.1,62,33.2,20.4,0,5,4,0,2026-04-26T00:28:17.506581+05:30
Jaipur,Rajasthan,26.9124,75.7873,32.8,22,0.0,959.4,8.05,38.2,136,210.0,46.0,0,5,7,0,2026-04-26T00:28:17.506589+05:30
Lucknow,Uttar Pradesh,26.8467,80.9462,33.2,26,0.0,990.7,7.9,42.1,124,168.1,44.2,0,5,7,0,2026-04-26T00:28:17.506597+05:30
Kanpur,Uttar Pradesh,26.4499,80.3319,33.3,24,0.0,989.2,7.9,39.6,183,340.9,61.7,0,5,7,0,2026-04-26T00:28:17.506604+05:30
Chandigarh,Chandigarh,30.7333,76.7794,29.6,28,0.0,967.2,7.25,59.4,63,41.3,23.9,4,5,7,0,2026-04-26T00:28:17.506611+05:30
Srinagar,Jammu and Kashmir,34.0837,74.7973,11.5,93,0.0,844.2,8.6,31.3,76,69.6,53.7,3,10,7,0,2026-04-26T00:28:17.506618+05:30
Jammu,Jammu and Kashmir,32.7266,74.857,24.8,42,0.0,971.8,8.2,43.6,78,50.2,26.3,0,5,7,0,2026-04-26T00:28:17.506627+05:30
Amritsar,Punjab,31.634,74.8723,29.0,34,0.0,979.7,8.1,38.2,95,129.0,54.6,4,5,7,0,2026-04-26T00:28:17.506634+05:30
Ludhiana,Punjab,30.901,75.8573,28.9,34,0.0,977.4,7.7,54.4,84,88.0,37.3,4,5,7,0,2026-04-26T00:28:17.506642+05:30
Jalandhar,Punjab,31.326,75.5762,27.2,42,0.0,978.4,7.9,37.4,94,105.9,43.2,4,5,7,0,2026-04-26T00:28:17.506649+05:30
Dehradun,Uttarakhand,30.6284,78.0322,14.9,57,0.0,828.2,7.85,50.0,50,41.3,17.5,0,5,7,0,2026-04-26T00:28:17.506656+05:30
Shimla,Himachal Pradesh,31.1048,77.1734,15.3,44,0.0,785.2,7.6,55.1,58,76.8,22.4,0,5,7,0,2026-04-26T00:28:17.506662+05:30
Manali,Himachal Pradesh,32.2396,77.1887,8.7,76,0.0,816.9,9.85,43.9,61,22.8,10.8,3,5,7,0,2026-04-26T00:28:17.506668+05:30
Gurgaon,Haryana,28.4595,77.0266,29.0,30,0.0,979.8,7.5,47.2,1408,1385.8,193.7,4,5,7,0,2026-04-26T00:28:17.506675+05:30
Noida,Uttar Pradesh,28.5355,77.391,31.3,26,0.0,982.5,7.4,33.8,1408,1385.8,193.7,0,5,7,0,2026-04-26T00:28:17.506681+05:30
Ghaziabad,Uttar Pradesh,28.6692,77.4538,31.2,25,0.0,980.9,7.4,46.8,386,799.1,133.2,0,5,7,0,2026-04-26T00:28:17.506687+05:30
Faridabad,Haryana,28.4089,77.3178,33.7,21,0.0,982.1,7.5,48.6,1408,1385.8,193.7,0,5,7,0,2026-04-26T00:28:17.506693+05:30
Meerut,Uttar Pradesh,28.9845,77.7064,30.8,30,0.0,979.5,7.35,47.2,386,799.1,133.2,0,5,7,0,2026-04-26T00:28:17.506699+05:30
Agra,Uttar Pradesh,27.1767,78.0081,31.4,27,0.0,985.8,7.8,45.0,648,1765.8,233.8,0,5,7,0,2026-04-26T00:28:17.506707+05:30
Varanasi,Uttar Pradesh,25.3176,82.9739,31.6,37,0.0,995.1,8.5,38.9,137,163.9,68.2,0,5,7,0,2026-04-26T00:28:17.506714+05:30
Prayagraj,Uttar Pradesh,25.4358,81.8463,30.2,31,0.0,993.4,8.4,31.7,115,135.0,51.5,0,5,7,0,2026-04-26T00:28:17.506721+05:30
Gorakhpur,Uttar Pradesh,26.7606,83.3732,28.1,57,0.0,995.8,8.3,64.8,151,99.9,57.6,4,5,7,1,2026-04-26T00:28:17.506727+05:30
Bareilly,Uttar Pradesh,28.367,79.4304,29.8,34,0.0,984.1,7.7,48.6,100,183.5,47.1,4,5,7,0,2026-04-26T00:28:17.506733+05:30
Aligarh,Uttar Pradesh,27.8974,78.088,30.9,26,0.0,983.5,7.6,40.3,625,1139.9,177.9,0,5,7,0,2026-04-26T00:28:17.506739+05:30
Moradabad,Uttar Pradesh,28.8386,78.7733,29.6,31,0.0,981.2,7.55,57.2,153,322.2,73.8,4,5,7,0,2026-04-26T00:28:17.506745+05:30
Saharanpur,Uttar Pradesh,29.9637,77.546,30.1,27,0.0,973.6,7.15,54.0,105,164.4,43.8,0,5,7,0,2026-04-26T00:28:17.506753+05:30
Jhansi,Uttar Pradesh,25.4484,78.5685,31.9,23,0.0,976.4,8.3,32.0,75,105.5,32.8,0,5,7,0,2026-04-26T00:28:20.792410+05:30
Surat,Gujarat,21.1702,72.8311,30.4,52,0.0,1005.1,7.85,36.0,105,37.3,27.5,0,5,4,1,2026-04-26T00:28:20.792441+05:30
Vadodara,Gujarat,22.3072,73.1812,32.5,24,0.0,1002.8,8.15,28.1,84,42.0,30.2,0,5,4,0,2026-04-26T00:28:20.792452+05:30
Rajkot,Gujarat,22.3039,70.8022,27.0,59,0.0,994.3,7.9,33.8,57,57.3,18.2,4,5,7,1,2026-04-26T00:28:20.792459+05:30
Thane,Maharashtra,19.2183,72.9781,29.3,53,0.0,1006.7,8.0,41.0,77,45.6,28.2,4,5,4,1,2026-04-26T00:28:20.792467+05:30
Nagpur,Maharashtra,21.1458,79.0882,34.3,19,0.0,972.0,8.9,36.7,103,54.6,47.1,0,5,7,0,2026-04-26T00:28:20.792474+05:30
Nashik,Maharashtra,19.9975,73.7898,30.6,15,0.0,945.3,8.3,37.8,120,45.4,30.7,0,5,7,0,2026-04-26T00:28:20.792481+05:30
Aurangabad,Maharashtra,19.8762,75.3433,31.5,21,0.0,943.7,8.75,29.5,84,52.7,43.2,0,5,7,0,2026-04-26T00:28:20.792488+05:30
Solapur,Maharashtra,17.6599,75.9064,31.7,26,0.0,956.4,8.6,26.6,138,46.3,42.7,0,5,7,0,2026-04-26T00:28:20.792495+05:30
Kolhapur,Maharashtra,16.705,74.2433,26.3,80,0.0,947.9,9.05,37.8,150,57.5,54.4,7,5,7,1,2026-04-26T00:28:20.792503+05:30
Goa,Goa,15.2993,74.124,28.8,88,0.0,996.9,8.9,29.5,74,42.4,33.3,7,5,7,1,2026-04-26T00:28:20.792510+05:30
Jodhpur,Rajasthan,26.2389,73.0243,33.8,24,0.0,982.0,8.3,32.4,89,172.3,32.8,0,5,7,0,2026-04-26T00:28:20.792518+05:30
Udaipur,Rajasthan,24.5854,73.7125,31.4,22,0.0,946.5,8.8,34.2,64,45.8,19.3,0,5,7,0,2026-04-26T00:28:20.792525+05:30
Kota,Rajasthan,25.2138,75.8648,31.1,26,0.0,977.1,8.3,31.0,77,115.5,45.2,0,5,7,0,2026-04-26T00:28:20.792532+05:30
Bikaner,Rajasthan,28.0229,73.3119,31.4,30,0.0,981.3,8.15,38.5,76,80.8,25.8,0,5,7,0,2026-04-26T00:28:20.792540+05:30
Ajmer,Rajasthan,26.4499,74.6399,31.1,26,0.0,954.6,8.25,35.6,81,85.0,28.8,0,5,7,0,2026-04-26T00:28:20.792546+05:30
Gwalior,Madhya Pradesh,26.2183,78.1828,33.7,22,0.0,981.4,8.0,41.0,91,382.8,71.7,0,5,7,0,2026-04-26T00:28:20.792553+05:30
Indore,Madhya Pradesh,22.7196,75.8577,32.0,21,0.0,948.0,8.65,28.1,60,68.7,42.5,0,5,7,0,2026-04-26T00:28:20.792560+05:30
Bhopal,Madhya Pradesh,23.2599,77.4126,32.4,17,0.0,952.7,8.65,30.6,69,42.7,28.0,0,5,7,0,2026-04-26T00:28:20.792566+05:30
Jabalpur,Madhya Pradesh,23.1815,79.9864,31.1,21,0.0,960.1,8.75,34.9,67,21.7,16.1,0,5,7,0,2026-04-26T00:28:20.792573+05:30
Ujjain,Madhya Pradesh,23.1765,75.7885,31.9,22,0.0,953.2,8.55,29.2,65,77.3,47.8,0,5,7,0,2026-04-26T00:28:20.792581+05:30
Visakhapatnam,Andhra Pradesh,17.6868,83.2185,27.2,92,0.0,1002.8,8.7,42.8,58,16.9,12.6,7,5,4,1,2026-04-26T00:28:20.792588+05:30
Vijayawada,Andhra Pradesh,16.5062,80.648,27.4,91,0.0,1002.2,8.85,31.0,52,15.0,12.0,7,5,4,1,2026-04-26T00:28:20.792595+05:30
Guntur,Andhra Pradesh,16.3067,80.4365,27.1,95,0.0,1003.5,8.6,36.7,53,15.3,11.9,7,5,4,1,2026-04-26T00:28:20.792601+05:30
Nellore,Andhra Pradesh,14.4426,79.9865,27.1,86,0.0,1005.3,9.25,42.1,43,10.9,8.0,7,5,4,1,2026-04-26T00:28:20.792609+05:30
Kurnool,Andhra Pradesh,15.8281,78.0373,31.3,47,0.0,976.7,8.9,34.2,85,39.7,34.7,0,5,7,1,2026-04-26T00:28:20.792616+05:30
Kakinada,Andhra Pradesh,16.9891,82.2475,27.4,90,0.0,1007.2,8.45,37.1,40,15.4,10.1,7,5,4,1,2026-04-26T00:28:20.792623+05:30
Tirupati,Andhra Pradesh,13.6288,79.4192,28.1,66,0.0,991.0,9.35,33.5,59,19.2,16.7,7,5,7,1,2026-04-26T00:28:20.792629+05:30
Warangal,Telangana,17.9689,79.5941,30.0,48,0.0,978.1,9.0,29.5,98,36.8,34.0,4,5,7,1,2026-04-26T00:28:20.792636+05:30
Nizamabad,Telangana,18.6725,78.0941,31.2,33,0.0,964.1,8.75,30.6,122,57.5,52.9,0,5,7,0,2026-04-26T00:28:20.792643+05:30
Mysore,Karnataka,12.2958,76.6396,25.5,57,0.0,928.2,8.9,45.0,86,28.1,25.0,4,5,7,1,2026-04-26T00:28:20.792650+05:30
Mangalore,Karnataka,12.9141,74.856,29.3,84,0.0,1006.0,9.1,40.7,62,27.5,20.4,7,5,4,1,2026-04-26T00:28:20.792657+05:30
Hubli-Dharwad,Karnataka,15.3647,75.124,27.2,73,0.0,940.0,9.0,47.5,107,24.7,23.5,7,5,7,1,2026-04-26T00:28:20.792665+05:30
Belgaum,Karnataka,15.8497,74.4977,25.0,88,0.0,925.3,9.2,34.9,118,36.2,32.6,7,5,7,1,2026-04-26T00:28:24.068153+05:30
Coimbatore,Tamil Nadu,11.0168,76.9558,28.6,58,0.0,961.7,8.95,46.1,76,36.4,33.3,4,5,7,1,2026-04-26T00:28:24.068184+05:30
Madurai,Tamil Nadu,9.9252,78.1198,28.9,54,0.0,993.2,9.25,39.2,57,12.0,11.7,4,5,7,1,2026-04-26T00:28:24.068193+05:30
Trichy,Tamil Nadu,10.7905,78.7047,27.5,81,0.0,999.7,9.3,33.8,55,14.8,13.3,7,5,7,1,2026-04-26T00:28:24.068202+05:30
Salem,Tamil Nadu,11.6643,78.146,28.8,60,0.0,976.9,9.0,38.9,72,31.4,28.4,4,5,7,1,2026-04-26T00:28:24.068210+05:30
Tirunelveli,Tamil Nadu,8.7139,77.7567,27.8,75,0.0,1003.3,9.2,40.0,60,17.8,16.8,7,5,4,1,2026-04-26T00:28:24.068217+05:30
Vellore,Tamil Nadu,12.9165,79.1325,27.4,74,0.0,984.2,9.35,35.6,79,34.2,32.1,7,5,7,1,2026-04-26T00:28:24.068225+05:30
Erode,Tamil Nadu,11.341,77.7172,30.0,54,0.0,988.8,9.3,41.8,54,21.6,19.3,4,5,7,1,2026-04-26T00:28:24.068232+05:30
Kochi,Kerala,9.9312,76.2673,28.0,87,0.0,1008.4,8.4,42.1,82,26.3,24.9,7,0,4,1,2026-04-26T00:28:24.068239+05:30
Thiruvananthapuram,Kerala,8.5241,76.9366,26.0,89,0.0,1007.9,8.6,33.8,56,16.5,12.5,7,5,4,1,2026-04-26T00:28:24.068246+05:30
Kozhikode,Kerala,11.2588,75.7804,27.4,89,0.0,1007.4,8.7,36.7,60,19.2,13.6,7,5,4,1,2026-04-26T00:28:24.068253+05:30
Thrissur,Kerala,10.5276,76.2144,27.9,86,0.0,1006.7,8.1,44.6,75,27.2,25.9,7,5,4,1,2026-04-26T00:28:24.068260+05:30
Kannur,Kerala,11.8745,75.3704,28.9,73,0.0,1006.4,8.6,40.0,64,25.2,20.5,7,5,4,1,2026-04-26T00:28:24.068268+05:30
Patna,Bihar,25.5941,85.1376,28.0,68,0.0,998.6,8.65,60.1,152,71.9,58.8,7,5,7,1,2026-04-26T00:28:24.068275+05:30
Gaya,Bihar,24.7914,85.0002,28.6,60,0.0,991.8,8.7,50.4,134,66.6,53.0,4,5,7,1,2026-04-26T00:28:24.068282+05:30
Muzaffarpur,Bihar,26.1209,85.3647,26.8,70,0.0,999.0,8.6,50.4,154,75.0,61.0,7,5,7,1,2026-04-26T00:28:24.068289+05:30
Bhagalpur,Bihar,25.2425,87.0117,28.9,72,0.0,999.9,8.6,55.1,156,59.6,52.3,7,5,7,1,2026-04-26T00:28:24.068296+05:30
Ranchi,Jharkhand,23.3441,85.3096,24.9,41,0.0,936.1,9.2,28.8,120,48.1,42.4,0,5,7,0,2026-04-26T00:28:24.068302+05:30
Jamshedpur,Jharkhand,22.8046,86.2029,31.2,56,0.0,989.4,8.9,33.5,128,41.8,35.6,0,5,7,1,2026-04-26T00:28:24.068310+05:30
Dhanbad,Jharkhand,23.7957,86.4304,28.5,84,0.0,978.5,8.95,45.7,155,53.3,49.9,7,5,7,1,2026-04-26T00:28:24.068316+05:30
Bokaro,Jharkhand,23.6693,86.1511,28.0,87,0.0,982.0,8.95,33.1,154,61.0,57.3,7,5,7,1,2026-04-26T00:28:24.068324+05:30
Bhubaneswar,Odisha,20.2961,85.8245,26.5,94,0.0,1001.8,9.1,41.0,60,13.9,10.5,7,5,4,1,2026-04-26T00:28:24.068331+05:30
Cuttack,Odisha,20.4625,85.8828,26.5,94,0.0,1003.5,9.15,38.2,60,13.9,10.5,7,5,4,1,2026-04-26T00:28:24.068338+05:30
Rourkela,Odisha,22.2604,84.8536,29.1,65,0.0,984.1,8.6,45.0,170,46.0,40.0,7,5,7,1,2026-04-26T00:28:24.068344+05:30
Raipur,Chhattisgarh,21.2514,81.6296,31.6,23,0.0,972.9,8.95,31.0,115,43.3,38.1,0,5,7,0,2026-04-26T00:28:24.068351+05:30
Bhilai,Chhattisgarh,21.1938,81.3509,31.6,25,0.0,973.1,9.0,35.6,109,43.9,38.8,0,5,7,0,2026-04-26T00:28:24.068357+05:30
Guwahati,Assam,26.1158,91.7086,22.6,89,0.0,1002.5,8.55,42.1,159,79.6,63.3,3,5,4,1,2026-04-26T00:28:24.068364+05:30
Agartala,Tripura,23.8315,91.2868,26.8,83,0.0,1006.3,8.75,35.6,151,59.0,49.5,7,5,4,1,2026-04-26T00:28:24.068371+05:30
Shillong,Meghalaya,25.5788,91.8933,15.8,85,0.0,856.2,8.2,29.5,142,69.4,48.8,3,10,7,0,2026-04-26T00:28:24.068378+05:30
Imphal,Manipur,24.817,93.9368,18.9,81,0.0,923.0,9.1,38.5,154,128.1,87.3,3,10,7,0,2026-04-26T00:28:24.068385+05:30
Aizawl,Mizoram,23.7271,92.7176,19.3,79,0.0,892.6,8.95,39.6,116,82.4,41.9,3,5,7,0,2026-04-26T00:28:24.068392+05:30
Kohima,Nagaland,25.6701,94.1077,14.8,84,0.0,853.7,8.8,38.2,157,114.6,87.3,3,10,7,0,2026-04-26T00:28:24.068399+05:30
Gangtok,Sikkim,27.3314,88.6138,13.5,75,0.0,835.9,8.8,41.4,85,37.6,28.2,3,5,7,0,2026-04-26T00:28:24.068406+05:30
Siliguri,West Bengal,26.7271,88.3953,21.0,95,0.0,994.5,8.45,33.8,149,79.9,62.6,3,5,7,1,2026-04-26T00:28:27.336403+05:30
Durgapur,West Bengal,23.5204,87.3119,27.4,90,0.0,993.9,8.9,34.2,128,36.9,34.3,7,5,7,1,2026-04-26T00:28:27.336435+05:30
Asansol,West Bengal,23.6739,86.9524,27.9,89,0.0,992.2,8.95,40.3,134,35.6,33.4,7,5,7,1,2026-04-26T00:28:27.336444+05:30
Pondicherry,Puducherry,11.9139,79.8145,28.5,84,0.0,1008.0,9.2,43.6,28,12.4,7.7,7,0,4,1,2026-04-26T00:28:27.336452+05:30
Port Blair,Andaman and Nicobar Islands,11.6234,92.7265,27.4,85,0.0,1007.2,9.15,33.1,44,24.7,17.2,7,5,4,1,2026-04-26T00:28:27.336459+05:30
Haridwar,Uttarakhand,29.9457,78.1642,23.1,57,0.0,971.1,7.25,35.6,77,61.0,30.6,0,5,7,0,2026-04-26T00:28:27.336467+05:30
Rishikesh,Uttarakhand,30.0869,78.2676,19.9,64,0.0,963.4,7.35,28.4,69,104.3,36.3,3,5,7,0,2026-04-26T00:28:27.336474+05:30
Nainital,Uttarakhand,29.3919,79.4542,16.8,48,0.0,804.9,8.2,40.3,98,82.2,29.5,0,5,7,0,2026-04-26T00:28:27.336481+05:30
Mussoorie,Uttarakhand,30.4599,78.0664,18.2,38,0.0,803.4,7.75,59.4,65,68.2,33.5,0,5,7,0,2026-04-26T00:28:27.336488+05:30
Dharamshala,Himachal Pradesh,32.219,76.3234,22.7,33,0.0,870.2,7.65,59.8,50,34.6,14.5,0,5,7,0,2026-04-26T00:28:27.336494+05:30
Dalhousie,Himachal Pradesh,32.5387,75.971,12.2,59,0.0,802.7,8.1,45.7,63,57.7,31.7,0,5,7,0,2026-04-26T00:28:27.336502+05:30
Patiala,Punjab,30.3398,76.3869,29.1,31,0.0,976.9,7.35,56.2,659,584.9,82.9,4,5,7,0,2026-04-26T00:28:27.336509+05:30
Bhatinda,Punjab,30.211,74.9455,30.1,26,0.0,982.8,8.05,52.9,92,119.7,45.9,0,5,7,0,2026-04-26T00:28:27.336516+05:30
Rohtak,Haryana,28.8955,76.6066,29.7,28,0.0,980.1,7.35,51.1,873,849.4,136.0,4,5,7,0,2026-04-26T00:28:27.336523+05:30
Panipat,Haryana,29.3909,76.9635,30.7,31,0.0,978.7,7.15,54.0,1571,1348.6,180.2,0,5,7,0,2026-04-26T00:28:27.336529+05:30
Mathura,Uttar Pradesh,27.4924,77.6737,31.1,27,0.0,984.6,7.75,45.0,763,1423.1,210.9,0,5,7,0,2026-04-26T00:28:27.336536+05:30
Vrindavan,Uttar Pradesh,27.5823,77.7027,30.4,28,0.0,985.1,7.65,44.6,763,1423.1,210.9,0,5,7,0,2026-04-26T00:28:27.336542+05:30
Ayodhya,Uttar Pradesh,26.7922,82.1998,28.1,58,0.0,993.7,8.05,35.3,140,121.1,58.8,4,5,7,1,2026-04-26T00:28:27.336548+05:30
Ratlam,Madhya Pradesh,23.3315,75.0367,30.5,23,0.0,954.2,8.45,27.7,66,53.0,34.0,0,5,7,0,2026-04-26T00:28:27.336555+05:30
Sagar,Madhya Pradesh,23.8388,78.7378,31.0,23,0.0,949.0,8.65,29.9,67,75.2,24.9,0,5,7,0,2026-04-26T00:28:27.336561+05:30
Satna,Madhya Pradesh,24.6005,80.8322,30.9,25,0.0,969.5,8.65,41.0,76,109.9,32.1,0,5,7,0,2026-04-26T00:28:27.336567+05:30
Akola,Maharashtra,20.7002,77.0082,32.5,22,0.0,973.3,8.7,23.4,91,32.4,24.0,0,5,7,0,2026-04-26T00:28:27.336575+05:30
Amravati,Maharashtra,20.9374,77.7796,33.1,19,0.0,966.2,8.35,30.2,85,37.7,29.0,0,5,7,0,2026-04-26T00:28:27.336582+05:30
Latur,Maharashtra,18.4088,76.5604,30.7,27,0.0,939.5,8.6,32.0,110,54.6,48.1,0,5,7,0,2026-04-26T00:28:27.336588+05:30
Nanded,Maharashtra,19.1383,77.3091,29.9,33,0.0,967.7,8.6,29.5,99,48.4,43.2,4,5,7,0,2026-04-26T00:28:27.336595+05:30
Gulbarga,Karnataka,17.3297,76.8343,31.2,34,0.0,958.3,9.05,27.7,136,48.4,43.5,0,5,7,0,2026-04-26T00:28:27.336601+05:30
Bidar,Karnataka,17.9104,77.5199,28.9,37,0.0,935.3,8.85,27.7,124,60.3,54.4,4,5,7,0,2026-04-26T00:28:27.336607+05:30
Hospet,Karnataka,15.2689,76.3909,29.6,30,0.0,955.0,9.3,27.4,127,41.4,37.3,4,5,7,0,2026-04-26T00:28:27.336613+05:30
Tirupur,Tamil Nadu,11.1085,77.3411,30.2,48,0.0,974.8,9.4,41.8,59,27.3,24.1,0,5,7,1,2026-04-26T00:28:27.336619+05:30
Alappuzha,Kerala,9.4981,76.3388,27.2,90,0.0,1008.5,8.55,39.2,78,23.7,20.8,7,0,4,1,2026-04-26T00:28:27.336626+05:30
Munnar,Kerala,10.0889,77.0595,16.8,75,0.0,855.8,9.15,31.3,61,31.1,29.8,3,5,7,0,2026-04-26T00:28:27.336632+05:30
Silchar,Assam,24.8333,92.7789,23.5,91,0.0,1004.7,8.75,28.8,160,105.9,84.5,3,5,4,1,2026-04-26T00:28:27.336638+05:30
Dibrugarh,Assam,27.4728,94.912,21.7,92,0.0,997.4,8.6,31.7,92,25.7,19.8,3,5,7,1,2026-04-26T00:28:27.336645+05:30
