city,state,latitude,longitude,temp,humidity,rain,pressure,uv_index,wind_gusts,aqi,pm10,pm2_5,no2,co,o3,so2,mosquito_risk,arthritis_risk,migraine_risk,frizz_risk,updated_at
Delhi,Delhi,28.6139,77.209,27.9,83,0.0,979.3,5.1,28.1,120,19.4,19.2,22.6,709.0,65.0,26.8,7,5,3,1,2026-07-21T09:03:00.851250+05:30
Mumbai,Maharashtra,19.076,72.8777,27.3,83,0.0,1006.3,6.85,50.4,61,44.9,20.7,11.0,369.0,42.0,6.8,7,5,4,1,2026-07-21T09:03:00.851302+05:30
Bangalore,Karnataka,12.9716,77.5946,23.6,74,0.0,912.7,8.5,45.7,35,12.6,7.6,9.8,360.0,31.0,4.5,3,5,7,1,2026-07-21T09:03:00.851317+05:30
Hyderabad,Telangana,17.385,78.4867,24.2,83,0.0,952.2,3.85,46.1,32,13.4,8.3,6.9,328.0,37.0,4.9,3,5,3,1,2026-07-21T09:03:00.851327+05:30
Chennai,Tamil Nadu,13.0827,80.2707,30.4,66,0.0,1007.7,7.85,30.2,72,17.5,14.5,17.1,640.0,34.0,11.5,3,5,4,1,2026-07-21T09:03:00.851336+05:30
Kolkata,West Bengal,22.5726,88.3639,25.7,96,0.8,1003.2,6.3,25.9,67,14.0,13.0,10.6,280.0,69.0,9.8,10,5,4,1,2026-07-21T09:03:00.851344+05:30
Pune,Maharashtra,18.5204,73.8567,24.3,83,0.0,946.0,2.65,53.6,23,6.5,3.8,4.6,190.0,43.0,3.8,3,5,3,1,2026-07-21T09:03:00.851351+05:30
Ahmedabad,Gujarat,23.0225,72.5714,28.7,75,0.0,997.8,5.9,38.5,62,20.0,12.2,11.1,188.0,32.0,6.3,7,5,3,1,2026-07-21T09:03:00.851358+05:30
Jaipur,Rajasthan,26.9124,75.7873,27.5,84,0.0,955.9,2.5,23.4,81,15.3,11.5,11.8,254.0,60.0,6.6,7,5,3,1,2026-07-21T09:03:00.851365+05:30
Lucknow,Uttar Pradesh,26.8467,80.9462,27.4,86,0.0,990.9,6.15,33.1,71,9.3,9.3,8.4,400.0,82.0,8.2,7,5,7,1,2026-07-21T09:03:00.851375+05:30
Kanpur,Uttar Pradesh,26.4499,80.3319,26.6,89,0.1,988.8,6.85,32.0,72,13.6,12.2,8.8,245.0,92.0,8.0,10,5,7,1,2026-07-21T09:03:00.851382+05:30
Chandigarh,Chandigarh,30.7333,76.7794,25.3,97,0.5,966.4,3.05,33.1,83,12.0,11.6,17.8,584.0,76.0,4.1,10,5,3,1,2026-07-21T09:03:00.851389+05:30
Srinagar,Jammu and Kashmir,34.0837,74.7973,21.0,96,0.1,839.8,8.25,20.9,54,10.0,9.3,20.5,412.0,60.0,4.2,6,5,7,1,2026-07-21T09:03:00.851395+05:30
Jammu,Jammu and Kashmir,32.7266,74.857,25.3,95,0.2,969.2,4.85,34.9,99,18.6,12.6,14.0,293.0,74.0,3.4,10,5,3,1,2026-07-21T09:03:00.851402+05:30
Amritsar,Punjab,31.634,74.8723,25.7,97,0.3,977.3,8.25,33.5,153,61.2,33.2,14.9,383.0,57.0,9.7,10,5,7,1,2026-07-21T09:03:00.851408+05:30
Ludhiana,Punjab,30.901,75.8573,27.1,88,0.1,975.7,6.75,36.4,99,25.0,18.3,13.2,447.0,76.0,6.7,10,5,7,1,2026-07-21T09:03:00.851414+05:30
Jalandhar,Punjab,31.326,75.5762,26.6,93,0.0,976.9,7.6,37.8,118,33.5,22.2,13.3,449.0,70.0,7.1,7,5,7,1,2026-07-21T09:03:00.851420+05:30
Dehradun,Uttarakhand,30.6284,78.0322,18.6,98,0.3,829.8,0.75,24.8,49,1.2,1.1,4.7,217.0,111.0,1.2,6,10,3,1,2026-07-21T09:03:00.851427+05:30
Shimla,Himachal Pradesh,31.1048,77.1734,16.0,99,0.3,783.6,0.7,21.2,58,2.7,2.4,8.7,301.0,98.0,0.5,6,10,3,0,2026-07-21T09:03:00.851433+05:30
Manali,Himachal Pradesh,32.2396,77.1887,21.7,91,0.0,819.5,7.75,22.7,29,3.0,2.8,11.0,220.0,81.0,0.9,3,5,7,1,2026-07-21T09:03:00.851440+05:30
Gurgaon,Haryana,28.4595,77.0266,27.6,86,0.0,977.7,5.85,23.8,106,23.5,22.6,27.8,650.0,53.0,25.6,7,5,3,1,2026-07-21T09:03:00.851447+05:30
Noida,Uttar Pradesh,28.5355,77.391,28.0,82,0.0,980.7,6.15,27.0,106,23.5,22.6,27.8,489.0,53.0,25.6,7,5,7,1,2026-07-21T09:03:00.851453+05:30
Ghaziabad,Uttar Pradesh,28.6692,77.4538,27.3,86,0.0,979.2,5.95,33.1,101,14.0,13.4,9.5,304.0,79.0,12.3,7,5,3,1,2026-07-21T09:03:00.851461+05:30
Faridabad,Haryana,28.4089,77.3178,27.8,82,0.0,979.9,5.85,28.8,106,23.5,22.6,27.8,487.0,53.0,25.6,7,5,3,1,2026-07-21T09:03:00.851467+05:30
Meerut,Uttar Pradesh,28.9845,77.7064,27.3,85,0.0,978.5,6.75,42.8,101,14.0,13.4,9.5,384.0,79.0,12.3,7,5,7,1,2026-07-21T09:03:00.851473+05:30
Agra,Uttar Pradesh,27.1767,78.0081,25.8,91,0.0,984.3,6.65,21.6,69,28.6,18.9,18.6,270.0,51.0,7.0,7,5,7,1,2026-07-21T09:03:00.851480+05:30
Varanasi,Uttar Pradesh,25.3176,82.9739,28.2,84,0.0,994.5,6.4,35.3,72,17.0,16.8,8.6,747.0,93.0,16.1,7,5,7,1,2026-07-21T09:03:00.851486+05:30
Prayagraj,Uttar Pradesh,25.4358,81.8463,27.1,90,0.0,992.7,2.75,35.3,69,12.1,12.0,7.8,376.0,87.0,9.4,7,5,3,1,2026-07-21T09:03:00.851493+05:30
Gorakhpur,Uttar Pradesh,26.7606,83.3732,28.4,79,0.0,995.5,5.25,40.0,63,18.0,17.5,7.0,306.0,77.0,9.8,7,5,3,1,2026-07-21T09:03:00.851498+05:30
Bareilly,Uttar Pradesh,28.367,79.4304,26.4,91,0.1,984.4,3.7,38.5,63,9.3,9.3,7.2,361.0,85.0,7.6,10,5,3,1,2026-07-21T09:03:00.851506+05:30
Aligarh,Uttar Pradesh,27.8974,78.088,27.6,85,0.0,982.2,6.25,25.9,92,23.2,18.1,13.8,276.0,63.0,12.7,7,5,7,1,2026-07-21T09:03:00.851512+05:30
Moradabad,Uttar Pradesh,28.8386,78.7733,26.6,89,0.1,980.9,5.6,45.4,67,10.2,10.2,7.8,329.0,91.0,7.1,10,5,3,1,2026-07-21T09:03:00.851517+05:30
Saharanpur,Uttar Pradesh,29.9637,77.546,26.8,89,0.0,973.3,6.65,50.8,80,25.6,24.7,8.8,342.0,104.0,9.3,7,5,7,1,2026-07-21T09:03:00.851523+05:30
Jhansi,Uttar Pradesh,25.4484,78.5685,28.5,75,0.0,974.5,4.5,15.1,65,23.7,15.3,9.6,187.0,66.0,7.7,7,5,3,1,2026-07-21T09:03:04.192212+05:30
Surat,Gujarat,21.1702,72.8311,26.5,93,0.1,1003.2,6.2,48.2,66,27.9,22.2,24.1,476.0,20.0,48.4,10,5,4,1,2026-07-21T09:03:04.192243+05:30
Vadodara,Gujarat,22.3072,73.1812,27.5,86,0.1,1000.4,6.35,33.1,58,20.6,13.4,12.5,244.0,29.0,6.5,10,5,4,1,2026-07-21T09:03:04.192252+05:30
Rajkot,Gujarat,22.3039,70.8022,28.0,79,0.0,989.6,6.65,45.0,62,19.7,9.5,3.8,112.0,46.0,4.1,7,5,7,1,2026-07-21T09:03:04.192260+05:30
Thane,Maharashtra,19.2183,72.9781,26.3,91,0.1,1005.8,7.05,41.0,61,44.9,20.7,11.0,280.0,42.0,6.8,10,5,4,1,2026-07-21T09:03:04.192268+05:30
Nagpur,Maharashtra,21.1458,79.0882,26.0,88,0.1,970.1,1.85,33.8,56,8.6,7.1,12.2,225.0,30.0,13.2,10,5,3,1,2026-07-21T09:03:04.192276+05:30
Nashik,Maharashtra,19.9975,73.7898,22.7,96,0.3,942.5,4.65,50.4,22,5.2,3.0,5.4,152.0,41.0,4.1,6,5,3,1,2026-07-21T09:03:04.192284+05:30
Aurangabad,Maharashtra,19.8762,75.3433,24.8,83,0.0,941.7,5.65,54.0,28,4.7,3.4,5.8,151.0,39.0,7.4,3,5,3,1,2026-07-21T09:03:04.192292+05:30
Solapur,Maharashtra,17.6599,75.9064,27.2,68,0.0,956.6,6.25,57.2,27,10.3,5.7,3.0,123.0,45.0,2.3,7,5,7,1,2026-07-21T09:03:04.192300+05:30
Kolhapur,Maharashtra,16.705,74.2433,24.1,83,0.1,947.6,8.05,59.8,27,7.6,4.8,3.5,144.0,41.0,2.0,6,5,7,1,2026-07-21T09:03:04.192308+05:30
Goa,Goa,15.2993,74.124,25.9,90,0.1,999.4,7.45,36.4,58,22.4,12.0,2.4,192.0,45.0,1.2,10,5,7,1,2026-07-21T09:03:04.192315+05:30
Jodhpur,Rajasthan,26.2389,73.0243,31.3,60,0.0,978.2,7.9,35.6,82,203.0,49.7,3.5,126.0,55.0,3.2,0,5,7,1,2026-07-21T09:03:04.192322+05:30
Udaipur,Rajasthan,24.5854,73.7125,25.2,85,0.1,942.2,7.45,28.4,58,28.8,12.5,5.1,132.0,48.0,4.7,10,5,7,1,2026-07-21T09:03:04.192329+05:30
Kota,Rajasthan,25.2138,75.8648,28.4,81,0.0,974.6,1.2,30.6,67,14.6,12.3,9.8,221.0,58.0,7.7,7,5,3,1,2026-07-21T09:03:04.192337+05:30
Bikaner,Rajasthan,28.0229,73.3119,33.2,53,0.0,976.6,8.4,45.0,87,74.0,24.4,2.0,130.0,60.0,4.7,0,5,7,1,2026-07-21T09:03:04.192344+05:30
Ajmer,Rajasthan,26.4499,74.6399,26.5,85,0.1,950.6,5.15,27.4,59,17.0,12.2,7.9,141.0,58.0,5.3,10,5,3,1,2026-07-21T09:03:04.192352+05:30
Gwalior,Madhya Pradesh,26.2183,78.1828,28.1,73,0.0,979.7,5.15,27.4,62,23.8,14.0,7.0,187.0,72.0,3.5,7,5,3,1,2026-07-21T09:03:04.192359+05:30
Indore,Madhya Pradesh,22.7196,75.8577,24.1,92,0.3,944.3,4.6,33.1,52,10.0,7.9,10.6,290.0,33.0,8.8,6,5,3,1,2026-07-21T09:03:04.192366+05:30
Bhopal,Madhya Pradesh,23.2599,77.4126,24.1,96,0.9,949.8,3.25,27.4,61,9.3,8.5,7.9,289.0,50.0,2.9,6,5,3,1,2026-07-21T09:03:04.192373+05:30
Jabalpur,Madhya Pradesh,23.1815,79.9864,24.4,95,0.0,957.9,1.65,31.7,57,8.7,8.4,9.3,224.0,50.0,2.4,3,5,3,1,2026-07-21T09:03:04.192381+05:30
Ujjain,Madhya Pradesh,23.1765,75.7885,24.1,94,0.1,950.0,1.5,29.5,52,12.8,9.3,8.4,231.0,37.0,7.3,6,5,3,1,2026-07-21T09:03:04.192388+05:30
Visakhapatnam,Andhra Pradesh,17.6868,83.2185,29.0,77,0.0,1000.4,7.05,41.4,73,16.5,15.0,19.3,385.0,52.0,45.8,7,5,4,1,2026-07-21T09:03:04.192395+05:30
Vijayawada,Andhra Pradesh,16.5062,80.648,28.7,74,0.0,1002.0,3.95,47.2,56,13.6,9.5,7.0,191.0,43.0,7.8,7,5,0,1,2026-07-21T09:03:04.192402+05:30
Guntur,Andhra Pradesh,16.3067,80.4365,30.6,61,0.0,1003.1,6.9,47.2,53,15.0,9.7,6.6,190.0,41.0,7.8,3,5,4,1,2026-07-21T09:03:04.192410+05:30
Nellore,Andhra Pradesh,14.4426,79.9865,31.0,60,0.0,1006.2,5.85,46.8,55,15.9,8.1,5.3,131.0,39.0,5.4,0,5,0,1,2026-07-21T09:03:04.192418+05:30
Kurnool,Andhra Pradesh,15.8281,78.0373,27.8,68,0.0,977.4,8.05,51.8,41,13.1,8.2,5.4,130.0,36.0,3.5,7,5,7,1,2026-07-21T09:03:04.192425+05:30
Kakinada,Andhra Pradesh,16.9891,82.2475,28.7,75,0.0,1005.7,8.05,52.2,61,10.4,8.5,5.9,195.0,61.0,5.3,7,5,4,1,2026-07-21T09:03:04.192432+05:30
Tirupati,Andhra Pradesh,13.6288,79.4192,29.5,62,0.0,991.7,8.4,31.7,54,16.2,9.6,6.2,137.0,44.0,2.4,7,5,7,1,2026-07-21T09:03:04.192440+05:30
Warangal,Telangana,17.9689,79.5941,25.2,91,0.2,977.5,4.1,28.8,38,10.9,8.1,6.4,160.0,34.0,2.9,10,5,3,1,2026-07-21T09:03:04.192447+05:30
Nizamabad,Telangana,18.6725,78.0941,24.2,95,0.2,963.2,4.3,34.9,36,8.2,6.3,8.2,171.0,30.0,5.3,6,5,3,1,2026-07-21T09:03:04.192453+05:30
Mysore,Karnataka,12.2958,76.6396,24.9,70,0.0,930.1,8.3,45.0,26,8.8,5.1,4.9,131.0,36.0,2.2,3,5,7,1,2026-07-21T09:03:04.192460+05:30
Mangalore,Karnataka,12.9141,74.856,25.8,89,0.0,1009.2,8.0,31.0,52,15.3,10.0,5.7,172.0,36.0,3.7,7,0,4,1,2026-07-21T09:03:04.192467+05:30
Hubli-Dharwad,Karnataka,15.3647,75.124,24.3,80,0.0,941.6,5.85,58.0,18,2.5,1.9,4.3,114.0,37.0,1.3,3,5,3,1,2026-07-21T09:03:04.192475+05:30
Belgaum,Karnataka,15.8497,74.4977,22.8,87,0.0,926.0,8.8,58.7,20,5.5,3.5,3.8,118.0,38.0,2.0,3,5,7,1,2026-07-21T09:03:07.512404+05:30
Coimbatore,Tamil Nadu,11.0168,76.9558,26.6,74,0.0,963.2,8.45,51.1,33,15.0,8.1,4.3,198.0,49.0,3.4,7,5,7,1,2026-07-21T09:03:07.512438+05:30
Madurai,Tamil Nadu,9.9252,78.1198,31.3,49,0.0,994.4,8.6,26.3,55,16.8,11.0,11.2,184.0,36.0,6.6,0,5,7,1,2026-07-21T09:03:07.512449+05:30
Trichy,Tamil Nadu,10.7905,78.7047,31.5,55,0.0,1000.9,8.55,45.0,39,10.3,7.1,6.5,136.0,36.0,4.5,0,5,4,1,2026-07-21T09:03:07.512460+05:30
Salem,Tamil Nadu,11.6643,78.146,27.4,74,0.0,979.0,8.15,27.7,57,16.8,13.0,11.7,257.0,44.0,13.3,7,5,7,1,2026-07-21T09:03:07.512469+05:30
Tirunelveli,Tamil Nadu,8.7139,77.7567,32.7,46,0.0,1004.8,8.2,42.8,36,6.9,4.8,4.1,139.0,42.0,2.8,0,5,4,1,2026-07-21T09:03:07.512478+05:30
Vellore,Tamil Nadu,12.9165,79.1325,29.8,57,0.0,985.2,8.1,34.9,58,11.4,7.9,7.4,155.0,42.0,4.8,4,5,7,1,2026-07-21T09:03:07.512488+05:30
Erode,Tamil Nadu,11.341,77.7172,29.9,59,0.0,990.6,8.35,36.4,50,13.6,9.9,8.6,197.0,39.0,5.0,4,5,7,1,2026-07-21T09:03:07.512497+05:30
Kochi,Kerala,9.9312,76.2673,27.7,84,0.0,1011.3,8.55,30.6,55,15.1,12.0,10.7,218.0,41.0,7.8,7,0,4,1,2026-07-21T09:03:07.512506+05:30
Thiruvananthapuram,Kerala,8.5241,76.9366,27.7,80,0.0,1010.8,7.65,37.4,50,16.5,12.5,9.4,173.0,35.0,4.9,7,0,4,1,2026-07-21T09:03:07.512515+05:30
Kozhikode,Kerala,11.2588,75.7804,26.5,90,0.0,1010.6,8.0,31.0,34,8.8,4.8,1.7,217.0,43.0,1.9,7,0,4,1,2026-07-21T09:03:07.512524+05:30
Thrissur,Kerala,10.5276,76.2144,27.9,82,0.0,1009.6,8.3,33.5,51,13.9,10.8,6.1,196.0,49.0,4.7,7,0,4,1,2026-07-21T09:03:07.512538+05:30
Kannur,Kerala,11.8745,75.3704,26.0,91,0.1,1009.9,7.95,34.2,42,12.2,7.3,4.5,208.0,39.0,2.7,10,0,4,1,2026-07-21T09:03:07.512547+05:30
Patna,Bihar,25.5941,85.1376,27.7,88,0.0,998.5,8.7,42.1,73,16.9,15.8,12.9,285.0,60.0,14.5,7,5,7,1,2026-07-21T09:03:07.512556+05:30
Gaya,Bihar,24.7914,85.0002,27.9,83,0.0,991.3,8.05,33.5,71,15.3,14.4,7.6,551.0,77.0,11.5,7,5,7,1,2026-07-21T09:03:07.512564+05:30
Muzaffarpur,Bihar,26.1209,85.3647,28.4,81,0.0,999.1,8.3,45.0,69,16.9,16.2,10.0,264.0,64.0,9.4,7,5,7,1,2026-07-21T09:03:07.512573+05:30
Bhagalpur,Bihar,25.2425,87.0117,26.8,91,0.0,999.8,5.75,37.4,62,8.7,8.5,12.9,270.0,46.0,9.2,7,5,3,1,2026-07-21T09:03:07.512582+05:30
Ranchi,Jharkhand,23.3441,85.3096,23.7,93,0.1,934.5,3.15,31.7,71,12.7,12.2,13.9,381.0,74.0,26.6,6,5,3,1,2026-07-21T09:03:07.512591+05:30
Jamshedpur,Jharkhand,22.8046,86.2029,26.2,95,0.0,987.6,2.8,27.0,83,7.7,7.4,8.9,509.0,68.0,11.0,7,5,3,1,2026-07-21T09:03:07.512600+05:30
Dhanbad,Jharkhand,23.7957,86.4304,26.1,89,0.0,977.4,6.6,35.3,125,16.3,16.1,24.9,278.0,42.0,66.3,7,5,7,1,2026-07-21T09:03:07.512608+05:30
Bokaro,Jharkhand,23.6693,86.1511,26.0,93,0.0,981.1,6.4,38.9,125,17.3,17.1,25.2,1131.0,39.0,67.9,7,5,7,1,2026-07-21T09:03:07.512615+05:30
Bhubaneswar,Odisha,20.2961,85.8245,26.1,94,0.2,999.6,5.8,32.8,85,29.2,25.6,10.5,281.0,81.0,9.2,10,5,3,1,2026-07-21T09:03:07.512623+05:30
Cuttack,Odisha,20.4625,85.8828,26.5,94,0.3,1001.4,6.8,31.3,85,29.2,25.6,10.5,261.0,81.0,9.2,10,5,4,1,2026-07-21T09:03:07.512631+05:30
Rourkela,Odisha,22.2604,84.8536,25.4,98,0.8,981.4,1.05,19.1,107,16.2,14.7,11.7,346.0,86.0,17.7,10,5,3,1,2026-07-21T09:03:07.512639+05:30
Raipur,Chhattisgarh,21.2514,81.6296,25.4,93,0.1,971.1,1.0,34.6,87,18.6,17.8,27.4,587.0,34.0,54.4,10,5,3,1,2026-07-21T09:03:07.512646+05:30
Bhilai,Chhattisgarh,21.1938,81.3509,25.0,96,0.1,971.7,1.05,35.6,79,14.4,13.5,19.7,800.0,42.0,44.0,10,5,3,1,2026-07-21T09:03:07.512653+05:30
Guwahati,Assam,26.1158,91.7086,26.8,90,0.0,1001.7,7.25,25.2,42,10.6,10.3,4.3,338.0,69.0,3.0,7,5,4,1,2026-07-21T09:03:07.512660+05:30
Agartala,Tripura,23.8315,91.2868,28.1,88,0.0,1005.7,8.4,29.9,51,8.4,7.8,8.1,155.0,46.0,1.8,7,5,4,1,2026-07-21T09:03:07.512667+05:30
Shillong,Meghalaya,25.5788,91.8933,22.6,80,0.0,858.9,6.15,19.4,19,1.8,1.7,3.2,282.0,56.0,1.8,3,5,7,1,2026-07-21T09:03:07.512675+05:30
Imphal,Manipur,24.817,93.9368,26.2,77,0.0,924.0,7.8,20.5,58,6.2,5.7,3.1,181.0,73.0,2.1,7,5,7,1,2026-07-21T09:03:07.512682+05:30
Aizawl,Mizoram,23.7271,92.7176,21.2,93,0.0,892.6,3.1,21.6,25,5.3,4.6,2.1,133.0,69.0,0.8,3,5,3,1,2026-07-21T09:03:07.512689+05:30
Kohima,Nagaland,25.6701,94.1077,23.2,80,0.0,857.2,8.3,22.3,23,4.0,3.8,1.4,184.0,77.0,0.9,3,5,7,1,2026-07-21T09:03:07.512697+05:30
Gangtok,Sikkim,27.3314,88.6138,18.5,98,0.1,839.1,8.75,25.6,29,2.5,2.4,2.5,269.0,72.0,0.8,6,10,7,1,2026-07-21T09:03:07.512705+05:30
Siliguri,West Bengal,26.7271,88.3953,27.1,86,0.0,993.3,7.9,32.8,48,4.8,4.7,4.4,362.0,73.0,2.4,7,5,7,1,2026-07-21T09:03:10.823838+05:30
Durgapur,West Bengal,23.5204,87.3119,26.9,89,0.0,992.6,7.3,32.0,96,10.7,10.5,17.8,240.0,53.0,31.2,7,5,7,1,2026-07-21T09:03:10.823872+05:30
Asansol,West Bengal,23.6739,86.9524,26.3,91,0.1,991.2,7.05,37.4,97,10.4,10.2,20.2,252.0,50.0,36.9,10,5,7,1,2026-07-21T09:03:10.823884+05:30
Pondicherry,Puducherry,11.9139,79.8145,31.4,56,0.0,1009.2,7.85,36.0,83,32.5,26.1,18.8,216.0,45.0,8.6,0,0,4,1,2026-07-21T09:03:10.823895+05:30
Port Blair,Andaman and Nicobar Islands,11.6234,92.7265,29.4,74,0.0,1008.7,8.75,43.2,59,15.7,9.1,0.3,95.0,52.0,0.5,7,0,4,1,2026-07-21T09:03:10.823905+05:30
Haridwar,Uttarakhand,29.9457,78.1642,27.5,87,0.0,972.0,6.55,35.3,81,16.9,16.2,5.3,323.0,112.0,6.4,7,5,7,1,2026-07-21T09:03:10.823915+05:30
Rishikesh,Uttarakhand,30.0869,78.2676,25.9,93,0.1,964.7,5.15,17.6,59,8.4,8.1,3.3,296.0,112.0,3.1,10,5,3,1,2026-07-21T09:03:10.823925+05:30
Nainital,Uttarakhand,29.3919,79.4542,19.1,83,0.1,805.9,6.8,37.8,42,4.6,4.6,2.7,249.0,98.0,1.9,6,10,7,1,2026-07-21T09:03:10.823934+05:30
Mussoorie,Uttarakhand,30.4599,78.0664,17.7,98,0.1,802.9,1.05,31.7,53,8.2,7.5,5.4,258.0,121.0,5.8,6,10,3,1,2026-07-21T09:03:10.823943+05:30
Dharamshala,Himachal Pradesh,32.219,76.3234,20.5,98,0.5,867.9,4.0,25.6,35,4.3,2.6,5.9,274.0,75.0,1.0,6,5,3,1,2026-07-21T09:03:10.823952+05:30
Dalhousie,Himachal Pradesh,32.5387,75.971,17.6,100,0.1,803.9,1.65,24.5,80,12.5,6.9,8.2,342.0,88.0,4.0,6,10,3,1,2026-07-21T09:03:10.823962+05:30
Patiala,Punjab,30.3398,76.3869,26.1,92,0.2,975.3,2.8,32.8,90,20.2,18.5,14.7,420.0,69.0,5.7,10,5,3,1,2026-07-21T09:03:10.823970+05:30
Bhatinda,Punjab,30.211,74.9455,26.6,93,0.3,979.7,7.5,40.0,244,165.3,56.3,9.8,300.0,71.0,7.7,10,5,7,1,2026-07-21T09:03:10.823977+05:30
Rohtak,Haryana,28.8955,76.6066,27.4,87,0.0,978.1,5.25,27.7,128,18.3,17.6,24.6,371.0,60.0,26.4,7,5,3,1,2026-07-21T09:03:10.823985+05:30
Panipat,Haryana,29.3909,76.9635,27.0,89,0.0,977.3,4.65,35.6,135,27.1,26.7,16.4,405.0,64.0,11.9,7,5,3,1,2026-07-21T09:03:10.824009+05:30
Mathura,Uttar Pradesh,27.4924,77.6737,26.9,87,0.0,983.3,7.0,30.2,81,23.3,15.9,18.8,284.0,49.0,3.4,7,5,7,1,2026-07-21T09:03:10.824017+05:30
Vrindavan,Uttar Pradesh,27.5823,77.7027,26.9,89,0.0,983.6,6.9,29.5,81,23.3,15.9,18.8,301.0,49.0,3.4,7,5,7,1,2026-07-21T09:03:10.824024+05:30
Ayodhya,Uttar Pradesh,26.7922,82.1998,26.8,90,0.0,993.1,5.3,38.5,64,12.0,11.9,7.5,318.0,73.0,9.1,7,5,3,1,2026-07-21T09:03:10.824031+05:30
Ratlam,Madhya Pradesh,23.3315,75.0367,24.1,95,0.0,950.9,1.0,32.0,51,15.9,10.6,8.0,145.0,36.0,7.4,3,5,3,1,2026-07-21T09:03:10.824039+05:30
Sagar,Madhya Pradesh,23.8388,78.7378,25.3,86,0.0,946.3,1.2,18.4,51,6.2,5.3,5.3,169.0,67.0,1.7,7,5,3,1,2026-07-21T09:03:10.824047+05:30
Satna,Madhya Pradesh,24.6005,80.8322,25.8,93,0.0,967.7,3.85,19.8,57,12.0,10.2,5.9,217.0,74.0,3.6,7,5,3,1,2026-07-21T09:03:10.824054+05:30
Akola,Maharashtra,20.7002,77.0082,26.5,86,0.0,972.5,2.65,40.0,37,8.3,5.1,6.9,146.0,39.0,7.4,7,5,3,1,2026-07-21T09:03:10.824062+05:30
Amravati,Maharashtra,20.9374,77.7796,25.7,86,0.0,964.6,2.0,52.6,41,8.5,5.2,7.4,154.0,38.0,8.4,7,5,3,1,2026-07-21T09:03:10.824071+05:30
Latur,Maharashtra,18.4088,76.5604,26.0,70,0.0,938.5,5.1,52.2,30,7.8,5.0,3.6,126.0,40.0,2.3,7,5,3,1,2026-07-21T09:03:10.824078+05:30
Nanded,Maharashtra,19.1383,77.3091,26.0,82,0.1,967.1,2.9,43.6,35,8.4,6.3,6.9,147.0,33.0,3.7,10,5,3,1,2026-07-21T09:03:10.824085+05:30
Gulbarga,Karnataka,17.3297,76.8343,26.9,68,0.0,958.3,4.95,55.1,28,12.9,7.4,4.0,141.0,42.0,3.1,7,5,3,1,2026-07-21T09:03:10.824092+05:30
Bidar,Karnataka,17.9104,77.5199,25.2,75,0.0,934.4,5.75,50.8,30,8.9,5.9,5.4,140.0,38.0,2.3,7,5,3,1,2026-07-21T09:03:10.824100+05:30
Hospet,Karnataka,15.2689,76.3909,25.8,74,0.0,956.6,7.8,50.8,23,4.8,3.0,3.7,111.0,39.0,2.0,7,5,7,1,2026-07-21T09:03:10.824107+05:30
Tirupur,Tamil Nadu,11.1085,77.3411,28.1,66,0.0,976.8,8.7,51.1,52,15.9,11.6,9.0,172.0,44.0,6.1,7,5,7,1,2026-07-21T09:03:10.824114+05:30
Alappuzha,Kerala,9.4981,76.3388,28.1,80,0.0,1011.4,8.1,31.0,52,13.3,9.9,8.7,107.0,40.0,5.8,7,0,4,1,2026-07-21T09:03:10.824121+05:30
Munnar,Kerala,10.0889,77.0595,20.0,77,0.0,859.4,9.05,33.5,30,9.4,5.5,3.5,102.0,40.0,1.3,3,5,7,0,2026-07-21T09:03:10.824129+05:30
Silchar,Assam,24.8333,92.7789,29.0,77,0.0,1004.6,7.8,22.0,66,12.7,11.7,5.9,241.0,56.0,4.0,7,5,4,1,2026-07-21T09:03:10.824136+05:30
Dibrugarh,Assam,27.4728,94.912,31.1,72,0.0,994.5,8.6,22.0,73,17.3,16.4,2.6,162.0,116.0,2.5,3,5,7,1,2026-07-21T09:03:10.824143+05:30
