city,state,latitude,longitude,temp,humidity,rain,pressure,uv_index,wind_gusts,aqi,pm10,pm2_5,mosquito_risk,arthritis_risk,migraine_risk,frizz_risk,updated_at
Delhi,Delhi,28.6139,77.209,30.4,48,0.0,978.6,7.25,32.0,525,140.6,34.8,0,5,7,1,2026-04-28T23:49:50.215810+05:30
Mumbai,Maharashtra,19.076,72.8777,28.0,86,0.0,1007.6,8.0,40.3,84,32.5,19.6,7,5,4,1,2026-04-28T23:49:50.215862+05:30
Bangalore,Karnataka,12.9716,77.5946,28.9,37,0.0,912.2,9.0,36.7,101,22.2,19.1,4,5,7,0,2026-04-28T23:49:50.215879+05:30
Hyderabad,Telangana,17.385,78.4867,30.5,48,0.0,952.4,8.85,34.9,125,58.0,49.0,0,5,7,1,2026-04-28T23:49:50.215890+05:30
Chennai,Tamil Nadu,13.0827,80.2707,29.0,82,0.0,1006.2,8.25,52.9,49,14.6,10.7,7,5,4,1,2026-04-28T23:49:50.215899+05:30
Kolkata,West Bengal,22.5726,88.3639,26.4,93,0.0,1002.7,8.85,54.4,83,29.3,25.1,7,5,4,1,2026-04-28T23:49:50.215908+05:30
Pune,Maharashtra,18.5204,73.8567,26.6,65,0.0,947.3,8.6,43.9,116,35.6,25.3,7,5,7,1,2026-04-28T23:49:50.215922+05:30
Ahmedabad,Gujarat,23.0225,72.5714,33.1,22,0.0,999.2,8.2,50.4,49,26.5,10.9,0,5,7,0,2026-04-28T23:49:50.215930+05:30
Jaipur,Rajasthan,26.9124,75.7873,29.5,36,0.0,955.5,8.05,42.8,86,279.4,42.0,4,5,7,0,2026-04-28T23:49:50.215938+05:30
Lucknow,Uttar Pradesh,26.8467,80.9462,31.8,36,0.0,989.1,7.9,49.7,151,169.0,57.6,0,5,7,0,2026-04-28T23:49:50.215968+05:30
Kanpur,Uttar Pradesh,26.4499,80.3319,32.8,29,0.0,987.5,7.95,32.4,199,323.2,72.6,0,5,7,0,2026-04-28T23:49:50.215978+05:30
Chandigarh,Chandigarh,30.7333,76.7794,23.8,57,0.0,964.1,4.6,37.1,63,32.2,22.5,0,5,3,0,2026-04-28T23:49:50.215986+05:30
Srinagar,Jammu and Kashmir,34.0837,74.7973,11.8,98,0.0,840.0,5.1,18.0,88,63.1,59.6,3,10,3,0,2026-04-28T23:49:50.215995+05:30
Jammu,Jammu and Kashmir,32.7266,74.857,23.9,61,0.0,968.9,6.6,42.1,77,82.0,55.5,3,5,7,0,2026-04-28T23:49:50.216003+05:30
Amritsar,Punjab,31.634,74.8723,24.4,61,0.0,976.8,6.25,39.2,76,42.7,27.1,3,5,7,1,2026-04-28T23:49:50.216011+05:30
Ludhiana,Punjab,30.901,75.8573,26.9,49,0.0,974.3,6.75,37.1,80,93.6,46.8,4,5,7,0,2026-04-28T23:49:50.216019+05:30
Jalandhar,Punjab,31.326,75.5762,24.9,54,0.0,975.2,7.25,37.8,79,44.7,29.7,0,5,7,0,2026-04-28T23:49:50.216030+05:30
Dehradun,Uttarakhand,30.6284,78.0322,12.7,78,0.0,825.3,4.95,32.8,49,22.6,11.1,3,5,3,0,2026-04-28T23:49:50.216038+05:30
Shimla,Himachal Pradesh,31.1048,77.1734,10.5,74,0.0,779.3,3.75,40.3,50,19.6,10.1,3,5,3,0,2026-04-28T23:49:50.216045+05:30
Manali,Himachal Pradesh,32.2396,77.1887,10.7,78,0.2,814.5,9.85,40.7,108,13.5,10.2,6,5,7,0,2026-04-28T23:49:50.216052+05:30
Gurgaon,Haryana,28.4595,77.0266,27.6,63,0.0,977.0,7.6,36.0,1154,1151.1,133.2,7,5,7,1,2026-04-28T23:49:50.216059+05:30
Noida,Uttar Pradesh,28.5355,77.391,29.6,42,0.0,980.0,7.5,31.7,1154,1151.1,133.2,4,5,7,0,2026-04-28T23:49:50.216067+05:30
Ghaziabad,Uttar Pradesh,28.6692,77.4538,29.1,40,0.0,978.2,7.3,33.5,447,120.1,31.8,4,5,7,0,2026-04-28T23:49:50.216074+05:30
Faridabad,Haryana,28.4089,77.3178,31.2,37,0.0,979.4,7.55,37.4,1154,1151.1,133.2,0,5,7,0,2026-04-28T23:49:50.216081+05:30
Meerut,Uttar Pradesh,28.9845,77.7064,26.9,50,0.0,977.1,7.05,37.1,447,120.1,31.8,4,5,7,0,2026-04-28T23:49:50.216088+05:30
Agra,Uttar Pradesh,27.1767,78.0081,30.3,39,0.0,983.1,7.8,38.9,708,1553.4,182.5,0,5,7,0,2026-04-28T23:49:50.216095+05:30
Varanasi,Uttar Pradesh,25.3176,82.9739,29.9,51,0.0,993.4,8.5,48.2,118,108.0,56.2,4,5,7,1,2026-04-28T23:49:50.216104+05:30
Prayagraj,Uttar Pradesh,25.4358,81.8463,30.9,40,0.0,991.3,8.4,43.9,123,95.0,48.0,0,5,7,0,2026-04-28T23:49:50.216112+05:30
Gorakhpur,Uttar Pradesh,26.7606,83.3732,28.0,66,0.0,994.0,8.3,28.1,136,73.3,47.1,7,5,7,1,2026-04-28T23:49:50.216118+05:30
Bareilly,Uttar Pradesh,28.367,79.4304,28.5,51,0.0,982.3,7.7,33.1,115,64.3,27.0,4,5,7,1,2026-04-28T23:49:50.216125+05:30
Aligarh,Uttar Pradesh,27.8974,78.088,29.5,40,0.0,980.9,7.65,44.6,773,627.7,78.0,4,5,7,0,2026-04-28T23:49:50.216132+05:30
Moradabad,Uttar Pradesh,28.8386,78.7733,28.0,54,0.0,979.3,7.5,40.0,154,68.5,30.7,4,5,7,1,2026-04-28T23:49:50.216139+05:30
Saharanpur,Uttar Pradesh,29.9637,77.546,25.8,62,0.0,971.3,6.65,42.5,73,69.2,35.0,7,5,7,1,2026-04-28T23:49:50.216146+05:30
Jhansi,Uttar Pradesh,25.4484,78.5685,31.0,25,0.0,973.9,8.3,33.8,60,39.5,22.0,0,5,7,0,2026-04-28T23:49:53.480090+05:30
Surat,Gujarat,21.1702,72.8311,28.5,85,0.0,1004.9,7.9,44.3,74,24.6,16.6,7,5,4,1,2026-04-28T23:49:53.480122+05:30
Vadodara,Gujarat,22.3072,73.1812,30.0,67,0.0,1001.7,8.15,46.4,63,19.8,14.5,7,5,4,1,2026-04-28T23:49:53.480132+05:30
Rajkot,Gujarat,22.3039,70.8022,29.2,49,0.0,992.1,7.9,52.2,47,30.3,13.6,4,5,7,1,2026-04-28T23:49:53.480140+05:30
Thane,Maharashtra,19.2183,72.9781,28.1,82,0.0,1007.0,8.05,37.1,84,32.5,19.6,7,5,4,1,2026-04-28T23:49:53.480148+05:30
Nagpur,Maharashtra,21.1458,79.0882,33.6,22,0.0,970.9,8.85,54.0,89,24.3,21.9,0,5,7,0,2026-04-28T23:49:53.480156+05:30
Nashik,Maharashtra,19.9975,73.7898,26.0,54,0.0,944.8,8.3,45.7,64,27.8,16.5,4,5,7,0,2026-04-28T23:49:53.480163+05:30
Aurangabad,Maharashtra,19.8762,75.3433,31.0,25,0.0,943.0,9.0,42.1,77,16.6,11.7,0,5,7,0,2026-04-28T23:49:53.480171+05:30
Solapur,Maharashtra,17.6599,75.9064,32.6,33,0.0,955.7,9.05,37.8,82,58.4,48.4,0,5,7,0,2026-04-28T23:49:53.480179+05:30
Kolhapur,Maharashtra,16.705,74.2433,25.0,87,0.0,947.3,6.4,50.0,72,30.5,20.4,7,5,7,1,2026-04-28T23:49:53.480186+05:30
Goa,Goa,15.2993,74.124,29.8,76,0.0,997.6,8.95,41.4,65,58.3,26.0,7,5,7,1,2026-04-28T23:49:53.480194+05:30
Jodhpur,Rajasthan,26.2389,73.0243,31.6,34,0.0,978.1,8.3,49.7,118,244.9,41.3,0,5,7,0,2026-04-28T23:49:53.480202+05:30
Udaipur,Rajasthan,24.5854,73.7125,30.8,26,0.0,943.6,8.75,49.0,44,21.2,9.3,0,5,7,0,2026-04-28T23:49:53.480209+05:30
Kota,Rajasthan,25.2138,75.8648,33.0,21,0.0,974.0,8.3,40.7,46,18.3,10.6,0,5,7,0,2026-04-28T23:49:53.480216+05:30
Bikaner,Rajasthan,28.0229,73.3119,30.1,34,0.0,976.9,8.15,49.7,62,102.7,28.3,0,5,7,0,2026-04-28T23:49:53.480223+05:30
Ajmer,Rajasthan,26.4499,74.6399,30.9,25,0.0,950.6,8.25,43.6,51,39.3,13.2,0,5,7,0,2026-04-28T23:49:53.480230+05:30
Gwalior,Madhya Pradesh,26.2183,78.1828,31.4,30,0.0,978.6,8.05,39.6,65,185.3,40.6,0,5,7,0,2026-04-28T23:49:53.480237+05:30
Indore,Madhya Pradesh,22.7196,75.8577,30.9,22,0.0,946.0,8.6,56.9,64,25.9,15.4,0,5,7,0,2026-04-28T23:49:53.480243+05:30
Bhopal,Madhya Pradesh,23.2599,77.4126,32.2,19,0.0,951.3,8.6,52.6,70,18.5,11.2,0,5,7,0,2026-04-28T23:49:53.480250+05:30
Jabalpur,Madhya Pradesh,23.1815,79.9864,29.6,21,0.0,958.1,8.75,46.4,71,19.2,17.1,4,5,7,0,2026-04-28T23:49:53.480257+05:30
Ujjain,Madhya Pradesh,23.1765,75.7885,30.8,22,0.0,951.1,8.55,55.4,53,29.6,18.5,0,5,7,0,2026-04-28T23:49:53.480265+05:30
Visakhapatnam,Andhra Pradesh,17.6868,83.2185,26.3,94,0.0,1002.7,9.05,57.2,66,20.7,15.5,7,5,4,1,2026-04-28T23:49:53.480271+05:30
Vijayawada,Andhra Pradesh,16.5062,80.648,29.1,82,0.0,1002.0,9.2,41.0,63,17.5,13.9,7,5,4,1,2026-04-28T23:49:53.480279+05:30
Guntur,Andhra Pradesh,16.3067,80.4365,29.1,84,0.0,1003.2,9.25,43.6,78,18.7,15.1,7,5,4,1,2026-04-28T23:49:53.480285+05:30
Nellore,Andhra Pradesh,14.4426,79.9865,28.7,82,0.0,1005.4,9.25,48.2,70,12.0,10.3,7,5,4,1,2026-04-28T23:49:53.480293+05:30
Kurnool,Andhra Pradesh,15.8281,78.0373,31.2,49,0.0,975.5,9.2,33.1,141,55.8,47.1,0,5,7,1,2026-04-28T23:49:53.480300+05:30
Kakinada,Andhra Pradesh,16.9891,82.2475,27.2,89,0.0,1007.0,9.2,45.0,58,18.7,13.2,7,5,4,1,2026-04-28T23:49:53.480307+05:30
Tirupati,Andhra Pradesh,13.6288,79.4192,28.7,69,0.0,990.8,8.6,36.4,69,13.6,12.8,7,5,7,1,2026-04-28T23:49:53.480314+05:30
Warangal,Telangana,17.9689,79.5941,30.2,58,0.0,977.4,9.15,40.0,106,41.6,37.4,0,5,7,1,2026-04-28T23:49:53.480320+05:30
Nizamabad,Telangana,18.6725,78.0941,31.4,40,0.0,962.8,9.1,36.0,98,52.5,45.8,0,5,7,0,2026-04-28T23:49:53.480327+05:30
Mysore,Karnataka,12.2958,76.6396,24.4,83,0.0,928.3,8.35,38.5,97,38.1,35.2,3,5,7,1,2026-04-28T23:49:53.480334+05:30
Mangalore,Karnataka,12.9141,74.856,29.2,75,0.0,1006.4,8.7,42.8,71,41.6,20.7,7,5,4,1,2026-04-28T23:49:53.480340+05:30
Hubli-Dharwad,Karnataka,15.3647,75.124,25.0,93,0.0,940.5,9.2,38.2,83,31.1,18.1,7,5,7,1,2026-04-28T23:49:53.480347+05:30
Belgaum,Karnataka,15.8497,74.4977,23.5,96,0.0,925.5,9.25,36.0,70,35.2,18.7,3,5,7,1,2026-04-28T23:49:56.746415+05:30
Coimbatore,Tamil Nadu,11.0168,76.9558,26.2,81,0.0,960.9,8.2,49.0,72,24.9,23.2,7,5,7,1,2026-04-28T23:49:56.746448+05:30
Madurai,Tamil Nadu,9.9252,78.1198,29.5,70,0.0,992.5,9.2,41.4,75,16.2,15.6,7,5,7,1,2026-04-28T23:49:56.746458+05:30
Trichy,Tamil Nadu,10.7905,78.7047,29.6,68,0.0,999.1,8.25,43.2,47,10.9,10.2,7,5,7,1,2026-04-28T23:49:56.746468+05:30
Salem,Tamil Nadu,11.6643,78.146,30.6,48,0.0,976.5,8.25,26.6,92,13.2,12.6,0,5,7,1,2026-04-28T23:49:56.746476+05:30
Tirunelveli,Tamil Nadu,8.7139,77.7567,29.7,69,0.0,1002.3,9.15,43.9,63,16.8,15.7,7,5,4,1,2026-04-28T23:49:56.746485+05:30
Vellore,Tamil Nadu,12.9165,79.1325,28.0,75,0.0,983.6,8.35,37.8,69,20.1,19.0,7,5,7,1,2026-04-28T23:49:56.746492+05:30
Erode,Tamil Nadu,11.341,77.7172,29.2,67,0.0,988.2,8.35,36.4,88,17.7,16.2,7,5,7,1,2026-04-28T23:49:56.746500+05:30
Kochi,Kerala,9.9312,76.2673,28.0,86,0.0,1008.3,7.55,35.3,70,30.0,27.7,7,0,4,1,2026-04-28T23:49:56.746507+05:30
Thiruvananthapuram,Kerala,8.5241,76.9366,25.3,94,0.0,1007.7,7.7,29.9,55,13.0,9.5,7,5,4,1,2026-04-28T23:49:56.746515+05:30
Kozhikode,Kerala,11.2588,75.7804,26.9,93,0.0,1007.2,7.55,37.4,61,23.1,16.4,7,5,4,1,2026-04-28T23:49:56.746522+05:30
Thrissur,Kerala,10.5276,76.2144,26.3,99,0.0,1006.6,7.05,37.4,70,29.5,27.0,7,5,4,1,2026-04-28T23:49:56.746529+05:30
Kannur,Kerala,11.8745,75.3704,27.5,89,0.0,1006.6,7.3,45.0,73,29.2,19.5,7,5,4,1,2026-04-28T23:49:56.746537+05:30
Patna,Bihar,25.5941,85.1376,25.7,83,0.0,998.0,8.6,33.8,124,49.9,38.8,7,5,7,1,2026-04-28T23:49:56.746544+05:30
Gaya,Bihar,24.7914,85.0002,27.4,70,0.0,990.7,8.7,31.0,109,74.7,40.6,7,5,7,1,2026-04-28T23:49:56.746551+05:30
Muzaffarpur,Bihar,26.1209,85.3647,25.0,86,0.0,998.8,8.55,46.1,104,48.5,38.9,7,5,7,1,2026-04-28T23:49:56.746558+05:30
Bhagalpur,Bihar,25.2425,87.0117,24.2,93,0.1,999.6,8.55,35.3,100,44.2,25.8,6,5,7,1,2026-04-28T23:49:56.746565+05:30
Ranchi,Jharkhand,23.3441,85.3096,25.8,48,0.0,934.9,8.9,52.6,82,37.0,23.5,4,5,7,0,2026-04-28T23:49:56.746572+05:30
Jamshedpur,Jharkhand,22.8046,86.2029,28.0,68,0.0,988.1,8.8,37.8,117,50.1,38.8,7,5,7,1,2026-04-28T23:49:56.746579+05:30
Dhanbad,Jharkhand,23.7957,86.4304,25.5,87,0.0,977.3,8.75,37.8,152,93.1,75.9,7,5,7,1,2026-04-28T23:49:56.746585+05:30
Bokaro,Jharkhand,23.6693,86.1511,26.4,77,0.0,981.1,8.95,42.5,150,102.4,66.8,7,5,7,1,2026-04-28T23:49:56.746592+05:30
Bhubaneswar,Odisha,20.2961,85.8245,26.9,87,0.0,1000.6,9.1,46.1,70,18.0,14.3,7,5,4,1,2026-04-28T23:49:56.746599+05:30
Cuttack,Odisha,20.4625,85.8828,27.3,83,0.0,1002.2,9.1,45.0,70,18.0,14.3,7,5,4,1,2026-04-28T23:49:56.746606+05:30
Rourkela,Odisha,22.2604,84.8536,30.5,48,0.0,982.5,8.4,49.3,81,39.2,30.9,0,5,7,1,2026-04-28T23:49:56.746613+05:30
Raipur,Chhattisgarh,21.2514,81.6296,30.4,44,0.0,971.8,8.9,52.6,92,37.4,34.6,0,5,7,1,2026-04-28T23:49:56.746620+05:30
Bhilai,Chhattisgarh,21.1938,81.3509,29.7,49,0.0,972.3,8.9,59.8,93,38.3,35.2,4,5,7,1,2026-04-28T23:49:56.746627+05:30
Guwahati,Assam,26.1158,91.7086,21.9,100,0.1,1001.2,7.7,31.0,70,39.9,31.5,6,5,4,1,2026-04-28T23:49:56.746633+05:30
Agartala,Tripura,23.8315,91.2868,24.2,100,0.1,1004.4,4.35,45.0,70,24.6,19.8,6,5,0,1,2026-04-28T23:49:56.746641+05:30
Shillong,Meghalaya,25.5788,91.8933,16.2,97,0.0,854.6,8.85,37.1,38,9.2,6.9,3,10,7,0,2026-04-28T23:49:56.746648+05:30
Imphal,Manipur,24.817,93.9368,18.5,98,0.2,922.5,2.3,25.9,76,11.6,9.7,6,10,3,1,2026-04-28T23:49:56.746655+05:30
Aizawl,Mizoram,23.7271,92.7176,18.5,85,0.1,891.2,5.85,47.5,78,34.7,22.4,6,10,3,0,2026-04-28T23:49:56.746662+05:30
Kohima,Nagaland,25.6701,94.1077,16.4,94,0.1,854.0,8.45,30.2,43,5.3,3.2,6,10,7,0,2026-04-28T23:49:56.746668+05:30
Gangtok,Sikkim,27.3314,88.6138,14.1,97,0.1,835.7,8.45,43.6,79,19.1,13.7,6,10,7,0,2026-04-28T23:49:56.746675+05:30
Siliguri,West Bengal,26.7271,88.3953,22.1,92,0.1,992.6,8.0,33.1,93,55.1,37.0,6,5,7,1,2026-04-28T23:50:00.006569+05:30
Durgapur,West Bengal,23.5204,87.3119,25.1,91,0.0,992.3,8.85,31.7,142,76.6,62.2,7,5,7,1,2026-04-28T23:50:00.006600+05:30
Asansol,West Bengal,23.6739,86.9524,25.3,90,0.0,990.8,8.9,38.5,144,85.2,71.0,7,5,7,1,2026-04-28T23:50:00.006610+05:30
Pondicherry,Puducherry,11.9139,79.8145,29.4,85,0.0,1007.5,8.6,46.4,45,15.8,11.8,7,5,4,1,2026-04-28T23:50:00.006618+05:30
Port Blair,Andaman and Nicobar Islands,11.6234,92.7265,27.5,88,0.0,1007.9,9.1,32.0,51,13.2,10.0,7,5,4,1,2026-04-28T23:50:00.006626+05:30
Haridwar,Uttarakhand,29.9457,78.1642,22.1,72,0.0,969.3,7.0,32.0,70,52.3,27.0,3,5,7,1,2026-04-28T23:50:00.006633+05:30
Rishikesh,Uttarakhand,30.0869,78.2676,18.9,90,0.0,961.7,6.75,25.2,68,103.8,26.5,3,10,7,1,2026-04-28T23:50:00.006641+05:30
Nainital,Uttarakhand,29.3919,79.4542,12.2,82,0.0,800.8,7.8,54.4,89,98.0,27.4,3,10,7,0,2026-04-28T23:50:00.006649+05:30
Mussoorie,Uttarakhand,30.4599,78.0664,13.7,64,0.0,799.1,4.25,37.8,65,58.8,23.5,3,5,3,0,2026-04-28T23:50:00.006656+05:30
Dharamshala,Himachal Pradesh,32.219,76.3234,19.8,49,0.0,865.8,7.45,39.6,54,9.8,7.6,0,5,7,0,2026-04-28T23:50:00.006663+05:30
Dalhousie,Himachal Pradesh,32.5387,75.971,10.0,91,0.0,798.5,7.1,27.4,68,52.5,34.0,3,10,7,0,2026-04-28T23:50:00.006671+05:30
Patiala,Punjab,30.3398,76.3869,27.8,43,0.0,973.9,5.7,43.9,187,154.1,53.1,4,5,3,0,2026-04-28T23:50:00.006678+05:30
Bhatinda,Punjab,30.211,74.9455,28.4,42,0.0,979.0,7.3,40.7,92,112.2,33.5,4,5,7,0,2026-04-28T23:50:00.006686+05:30
Rohtak,Haryana,28.8955,76.6066,27.4,46,0.0,977.4,7.3,42.8,683,504.8,82.4,4,5,7,0,2026-04-28T23:50:00.006693+05:30
Panipat,Haryana,29.3909,76.9635,28.5,40,0.0,976.2,6.5,42.5,1294,745.1,105.2,4,5,7,0,2026-04-28T23:50:00.006700+05:30
Mathura,Uttar Pradesh,27.4924,77.6737,28.6,43,0.0,982.0,7.75,41.4,682,1341.1,168.1,4,5,7,0,2026-04-28T23:50:00.006707+05:30
Vrindavan,Uttar Pradesh,27.5823,77.7027,28.2,44,0.0,982.5,7.75,43.9,682,1341.1,168.1,4,5,7,0,2026-04-28T23:50:00.006714+05:30
Ayodhya,Uttar Pradesh,26.7922,82.1998,29.1,55,0.0,990.9,8.1,37.8,129,86.1,46.2,4,5,7,1,2026-04-28T23:50:00.006721+05:30
Ratlam,Madhya Pradesh,23.3315,75.0367,29.8,25,0.0,952.3,8.45,50.0,60,29.9,17.2,4,5,7,0,2026-04-28T23:50:00.006727+05:30
Sagar,Madhya Pradesh,23.8388,78.7378,30.1,17,0.0,947.4,8.6,46.8,77,12.8,9.3,0,5,7,0,2026-04-28T23:50:00.006733+05:30
Satna,Madhya Pradesh,24.6005,80.8322,29.5,35,0.0,967.2,8.65,47.5,80,40.2,20.9,4,5,7,0,2026-04-28T23:50:00.006740+05:30
Akola,Maharashtra,20.7002,77.0082,34.2,19,0.0,972.9,8.85,40.3,98,22.8,19.2,0,5,7,0,2026-04-28T23:50:00.006747+05:30
Amravati,Maharashtra,20.9374,77.7796,32.9,20,0.0,965.2,8.85,50.0,98,22.1,18.9,0,5,7,0,2026-04-28T23:50:00.006754+05:30
Latur,Maharashtra,18.4088,76.5604,31.7,24,0.0,937.7,9.05,34.9,81,45.8,34.2,0,5,7,0,2026-04-28T23:50:00.006761+05:30
Nanded,Maharashtra,19.1383,77.3091,32.2,28,0.0,966.0,8.95,32.8,80,38.8,30.6,0,5,7,0,2026-04-28T23:50:00.006768+05:30
Gulbarga,Karnataka,17.3297,76.8343,31.1,44,0.0,957.6,9.1,33.5,112,45.5,39.2,0,5,7,1,2026-04-28T23:50:00.006774+05:30
Bidar,Karnataka,17.9104,77.5199,30.0,42,0.0,934.4,7.05,34.6,95,57.5,48.9,4,5,7,0,2026-04-28T23:50:00.006780+05:30
Hospet,Karnataka,15.2689,76.3909,28.5,56,0.0,955.2,9.25,36.4,116,43.8,38.2,4,5,7,1,2026-04-28T23:50:00.006787+05:30
Tirupur,Tamil Nadu,11.1085,77.3411,27.0,81,0.0,974.2,8.25,38.9,85,28.8,26.3,7,5,7,1,2026-04-28T23:50:00.006793+05:30
Alappuzha,Kerala,9.4981,76.3388,27.5,89,0.0,1008.4,7.65,33.8,69,26.2,22.5,7,0,4,1,2026-04-28T23:50:00.006800+05:30
Munnar,Kerala,10.0889,77.0595,18.0,91,0.0,856.3,8.75,27.7,78,30.0,27.5,3,10,7,1,2026-04-28T23:50:00.006808+05:30
Silchar,Assam,24.8333,92.7789,22.0,95,0.3,1004.6,1.95,34.2,75,17.1,12.2,6,5,0,1,2026-04-28T23:50:00.006815+05:30
Dibrugarh,Assam,27.4728,94.912,22.5,90,0.0,995.7,7.3,20.9,100,60.3,51.3,3,5,7,1,2026-04-28T23:50:00.006821+05:30
