city,state,latitude,longitude,temp,humidity,rain,pressure,uv_index,wind_gusts,aqi,pm10,pm2_5,no2,co,o3,so2,mosquito_risk,arthritis_risk,migraine_risk,frizz_risk,updated_at
Delhi,Delhi,28.6139,77.209,27.6,85,0.0,976.1,5.8,37.4,84,23.4,23.4,23.0,582.0,76.0,18.6,7,5,3,1,2026-07-23T23:44:13.725866+05:30
Mumbai,Maharashtra,19.076,72.8777,26.3,88,0.1,1004.0,1.4,69.8,56,39.1,17.5,4.4,128.0,42.0,3.2,10,5,0,1,2026-07-23T23:44:13.725928+05:30
Bangalore,Karnataka,12.9716,77.5946,21.2,87,0.0,912.1,9.1,49.0,35,6.2,5.1,12.8,260.0,27.0,4.2,3,5,7,1,2026-07-23T23:44:13.725946+05:30
Hyderabad,Telangana,17.385,78.4867,25.1,70,0.0,951.3,8.7,60.1,57,47.1,26.5,7.3,190.0,53.0,4.3,7,5,7,1,2026-07-23T23:44:13.725956+05:30
Chennai,Tamil Nadu,13.0827,80.2707,26.1,93,0.0,1007.8,8.9,41.0,74,25.0,17.3,8.6,168.0,79.0,5.0,7,5,4,1,2026-07-23T23:44:13.725968+05:30
Kolkata,West Bengal,22.5726,88.3639,26.0,95,0.1,1002.2,4.5,39.2,67,24.4,19.8,9.6,323.0,71.0,8.6,10,5,0,1,2026-07-23T23:44:13.725977+05:30
Pune,Maharashtra,18.5204,73.8567,22.9,90,0.1,943.7,1.9,60.8,37,2.4,1.7,4.6,121.0,40.0,3.1,6,5,3,1,2026-07-23T23:44:13.725985+05:30
Ahmedabad,Gujarat,23.0225,72.5714,25.3,96,0.4,992.3,2.3,34.6,60,24.6,13.6,10.6,153.0,47.0,3.2,10,5,3,1,2026-07-23T23:44:13.725994+05:30
Jaipur,Rajasthan,26.9124,75.7873,25.8,92,0.1,951.8,7.6,30.6,62,18.1,17.8,12.6,356.0,89.0,6.9,10,5,7,1,2026-07-23T23:44:13.726001+05:30
Lucknow,Uttar Pradesh,26.8467,80.9462,27.1,91,0.0,988.2,6.35,43.9,67,19.3,19.3,10.4,269.0,86.0,9.9,7,5,7,1,2026-07-23T23:44:13.726014+05:30
Kanpur,Uttar Pradesh,26.4499,80.3319,26.1,96,0.1,986.0,5.5,45.7,65,15.0,15.0,12.9,230.0,69.0,9.4,10,5,3,1,2026-07-23T23:44:13.726022+05:30
Chandigarh,Chandigarh,30.7333,76.7794,28.5,75,0.0,963.6,6.75,42.8,84,46.6,46.3,40.2,387.0,46.0,10.0,7,5,7,1,2026-07-23T23:44:13.726030+05:30
Srinagar,Jammu and Kashmir,34.0837,74.7973,18.1,93,0.0,839.1,8.85,26.6,63,43.0,43.0,37.9,1070.0,7.0,1.4,3,10,7,1,2026-07-23T23:44:13.726039+05:30
Jammu,Jammu and Kashmir,32.7266,74.857,25.1,92,0.0,967.4,7.15,38.5,76,56.8,54.8,74.0,770.0,10.0,9.8,7,5,7,1,2026-07-23T23:44:13.726046+05:30
Amritsar,Punjab,31.634,74.8723,27.8,87,0.0,975.0,1.95,30.6,88,94.1,92.7,63.4,634.0,1.0,13.0,7,5,3,1,2026-07-23T23:44:13.726054+05:30
Ludhiana,Punjab,30.901,75.8573,27.4,93,0.0,972.8,6.85,36.0,136,98.0,96.6,63.9,704.0,26.0,20.5,7,5,7,1,2026-07-23T23:44:13.726064+05:30
Jalandhar,Punjab,31.326,75.5762,27.1,98,0.0,974.1,7.3,32.0,112,75.7,74.0,56.9,1310.0,9.0,9.8,7,5,7,1,2026-07-23T23:44:13.726073+05:30
Dehradun,Uttarakhand,30.6284,78.0322,18.0,97,0.0,827.5,7.35,25.6,49,17.0,16.8,37.4,170.0,27.0,0.9,3,10,7,1,2026-07-23T23:44:13.726080+05:30
Shimla,Himachal Pradesh,31.1048,77.1734,15.8,92,0.0,781.6,6.15,24.1,51,18.6,18.6,27.9,436.0,31.0,0.1,3,10,7,0,2026-07-23T23:44:13.726088+05:30
Manali,Himachal Pradesh,32.2396,77.1887,19.5,92,0.0,817.5,6.4,22.3,22,6.3,6.3,25.5,192.0,32.0,0.0,3,10,7,1,2026-07-23T23:44:13.726098+05:30
Gurgaon,Haryana,28.4595,77.0266,27.0,89,0.1,974.4,6.15,42.5,93,23.6,23.6,20.9,467.0,83.0,16.4,10,5,7,1,2026-07-23T23:44:13.726106+05:30
Noida,Uttar Pradesh,28.5355,77.391,27.9,83,0.0,977.6,6.85,39.6,93,23.6,23.6,20.9,432.0,83.0,16.4,7,5,7,1,2026-07-23T23:44:13.726114+05:30
Ghaziabad,Uttar Pradesh,28.6692,77.4538,28.0,81,0.0,976.0,6.95,42.8,69,19.8,19.8,12.5,286.0,81.0,7.5,7,5,7,1,2026-07-23T23:44:13.726121+05:30
Faridabad,Haryana,28.4089,77.3178,27.4,87,0.0,976.9,6.8,42.8,93,23.6,23.6,20.9,421.0,83.0,16.4,7,5,7,1,2026-07-23T23:44:13.726129+05:30
Meerut,Uttar Pradesh,28.9845,77.7064,28.3,79,0.0,975.4,7.35,47.9,69,19.8,19.8,12.5,295.0,81.0,7.5,7,5,7,1,2026-07-23T23:44:13.726152+05:30
Agra,Uttar Pradesh,27.1767,78.0081,26.7,94,0.0,980.6,5.75,37.1,74,17.6,17.6,13.5,289.0,85.0,7.1,7,5,3,1,2026-07-23T23:44:13.726160+05:30
Varanasi,Uttar Pradesh,25.3176,82.9739,27.7,89,0.0,992.6,7.35,36.7,70,19.3,19.3,26.1,864.0,39.0,16.8,7,5,7,1,2026-07-23T23:44:13.726167+05:30
Prayagraj,Uttar Pradesh,25.4358,81.8463,27.2,94,0.0,990.7,7.35,33.1,66,20.9,20.9,21.7,266.0,40.0,12.1,7,5,7,1,2026-07-23T23:44:13.726175+05:30
Gorakhpur,Uttar Pradesh,26.7606,83.3732,26.8,92,0.0,993.0,6.6,47.2,69,24.9,24.9,12.0,359.0,83.0,8.5,7,5,7,1,2026-07-23T23:44:13.726181+05:30
Bareilly,Uttar Pradesh,28.367,79.4304,27.5,83,0.0,981.6,5.45,46.4,65,17.5,17.5,10.3,330.0,78.0,5.8,7,5,3,1,2026-07-23T23:44:13.726190+05:30
Aligarh,Uttar Pradesh,27.8974,78.088,27.2,90,0.0,979.0,6.55,43.6,72,21.0,21.0,13.5,302.0,86.0,14.4,7,5,7,1,2026-07-23T23:44:13.726196+05:30
Moradabad,Uttar Pradesh,28.8386,78.7733,28.5,78,0.0,978.2,6.75,47.9,64,16.9,16.8,10.0,291.0,81.0,5.9,7,5,7,1,2026-07-23T23:44:13.726203+05:30
Saharanpur,Uttar Pradesh,29.9637,77.546,28.2,78,0.0,970.4,7.15,47.5,70,32.4,32.0,27.3,311.0,31.0,7.6,7,5,7,1,2026-07-23T23:44:13.726209+05:30
Jhansi,Uttar Pradesh,25.4484,78.5685,27.3,88,0.0,970.6,6.55,36.4,62,9.0,9.0,11.3,228.0,67.0,4.6,7,5,7,1,2026-07-23T23:44:16.976352+05:30
Surat,Gujarat,21.1702,72.8311,26.4,92,0.3,999.1,0.35,53.6,59,13.5,8.8,10.2,222.0,35.0,15.8,10,5,3,1,2026-07-23T23:44:16.976391+05:30
Vadodara,Gujarat,22.3072,73.1812,25.7,96,1.4,995.2,0.8,63.4,54,15.1,11.1,17.1,156.0,35.0,6.3,10,5,3,1,2026-07-23T23:44:16.976402+05:30
Rajkot,Gujarat,22.3039,70.8022,25.8,95,0.1,986.3,0.8,37.8,58,23.7,10.9,5.2,111.0,41.0,5.2,10,5,3,1,2026-07-23T23:44:16.976411+05:30
Thane,Maharashtra,19.2183,72.9781,25.0,95,0.2,1003.1,1.15,52.2,56,39.1,17.5,4.4,144.0,42.0,3.2,10,5,0,1,2026-07-23T23:44:16.976420+05:30
Nagpur,Maharashtra,21.1458,79.0882,26.3,74,0.0,968.5,4.3,54.0,55,15.0,12.2,7.5,178.0,47.0,8.8,7,5,3,1,2026-07-23T23:44:16.976428+05:30
Nashik,Maharashtra,19.9975,73.7898,22.6,96,0.1,939.3,2.35,73.4,18,8.6,4.2,3.8,117.0,41.0,2.4,6,5,3,1,2026-07-23T23:44:16.976436+05:30
Aurangabad,Maharashtra,19.8762,75.3433,23.0,94,0.0,939.0,6.2,67.7,19,5.4,3.5,6.4,140.0,37.0,5.8,3,5,7,1,2026-07-23T23:44:16.976443+05:30
Solapur,Maharashtra,17.6599,75.9064,24.9,79,0.0,955.0,4.9,66.6,62,19.2,11.1,4.6,122.0,41.0,2.0,3,5,3,1,2026-07-23T23:44:16.976450+05:30
Kolhapur,Maharashtra,16.705,74.2433,22.4,95,0.0,945.9,3.55,58.7,65,35.7,17.4,3.5,115.0,48.0,1.6,3,5,3,1,2026-07-23T23:44:16.976459+05:30
Goa,Goa,15.2993,74.124,24.0,99,0.4,998.7,5.3,38.2,85,130.9,45.1,3.1,251.0,57.0,1.0,6,5,3,1,2026-07-23T23:44:16.976466+05:30
Jodhpur,Rajasthan,26.2389,73.0243,28.1,87,0.0,973.8,8.15,27.0,59,11.2,11.0,9.6,327.0,81.0,1.8,7,5,7,1,2026-07-23T23:44:16.976473+05:30
Udaipur,Rajasthan,24.5854,73.7125,24.1,98,0.0,937.2,8.75,27.0,38,7.7,7.2,8.2,307.0,73.0,2.5,3,5,7,1,2026-07-23T23:44:16.976481+05:30
Kota,Rajasthan,25.2138,75.8648,26.2,96,0.1,969.7,7.45,22.3,69,16.3,16.1,17.2,339.0,55.0,7.7,10,5,7,1,2026-07-23T23:44:16.976487+05:30
Bikaner,Rajasthan,28.0229,73.3119,29.3,83,0.0,973.3,7.25,38.2,84,21.2,20.5,5.8,405.0,117.0,13.4,7,5,7,1,2026-07-23T23:44:16.976495+05:30
Ajmer,Rajasthan,26.4499,74.6399,25.6,98,0.0,945.7,7.15,29.9,56,15.9,15.2,10.5,378.0,85.0,3.1,7,5,7,1,2026-07-23T23:44:16.976503+05:30
Gwalior,Madhya Pradesh,26.2183,78.1828,26.3,94,0.1,975.7,6.45,25.9,66,9.4,9.4,8.3,240.0,85.0,4.3,10,5,7,1,2026-07-23T23:44:16.976512+05:30
Indore,Madhya Pradesh,22.7196,75.8577,24.1,91,0.1,940.2,7.0,34.9,37,8.9,8.8,13.6,224.0,39.0,8.2,6,5,7,1,2026-07-23T23:44:16.976528+05:30
Bhopal,Madhya Pradesh,23.2599,77.4126,24.5,91,0.0,946.2,4.8,49.0,32,7.6,7.2,7.3,182.0,45.0,5.3,3,5,3,1,2026-07-23T23:44:16.976541+05:30
Jabalpur,Madhya Pradesh,23.1815,79.9864,24.6,87,0.0,956.0,2.5,32.8,36,18.7,15.7,8.5,162.0,53.0,7.2,3,5,3,1,2026-07-23T23:44:16.976551+05:30
Ujjain,Madhya Pradesh,23.1765,75.7885,24.3,92,0.1,945.6,5.75,33.8,44,18.1,17.6,16.8,200.0,35.0,7.0,6,5,3,1,2026-07-23T23:44:16.976562+05:30
Visakhapatnam,Andhra Pradesh,17.6868,83.2185,28.2,80,0.0,1001.7,6.65,48.2,71,28.2,21.2,15.7,250.0,74.0,27.4,7,5,4,1,2026-07-23T23:44:16.976573+05:30
Vijayawada,Andhra Pradesh,16.5062,80.648,28.8,78,0.0,1001.0,7.0,41.4,59,26.7,19.9,6.3,304.0,103.0,5.9,7,5,4,1,2026-07-23T23:44:16.976582+05:30
Guntur,Andhra Pradesh,16.3067,80.4365,29.5,76,0.0,1002.4,8.2,49.7,58,24.3,19.3,7.2,329.0,104.0,6.0,7,5,4,1,2026-07-23T23:44:16.976594+05:30
Nellore,Andhra Pradesh,14.4426,79.9865,28.0,81,0.0,1005.8,8.95,40.7,59,24.5,16.9,11.5,126.0,61.0,6.8,7,5,4,1,2026-07-23T23:44:16.976605+05:30
Kurnool,Andhra Pradesh,15.8281,78.0373,27.9,61,0.0,976.3,7.3,51.5,53,54.7,28.4,6.1,135.0,53.0,3.5,7,5,7,1,2026-07-23T23:44:16.976617+05:30
Kakinada,Andhra Pradesh,16.9891,82.2475,27.3,83,0.0,1005.9,8.1,49.7,66,32.5,21.5,3.1,203.0,109.0,3.4,7,5,4,1,2026-07-23T23:44:16.976629+05:30
Tirupati,Andhra Pradesh,13.6288,79.4192,26.2,82,0.0,991.3,8.8,37.1,60,29.7,23.1,26.3,339.0,31.0,5.1,7,5,7,1,2026-07-23T23:44:16.976637+05:30
Warangal,Telangana,17.9689,79.5941,26.3,70,0.0,976.4,8.6,53.6,61,38.2,22.2,6.0,261.0,49.0,2.9,7,5,7,1,2026-07-23T23:44:16.976644+05:30
Nizamabad,Telangana,18.6725,78.0941,25.2,77,0.0,961.6,6.9,58.3,60,17.1,11.7,5.3,132.0,42.0,2.1,7,5,7,1,2026-07-23T23:44:16.976652+05:30
Mysore,Karnataka,12.2958,76.6396,21.6,88,0.0,929.4,9.0,50.8,26,7.1,4.4,7.6,136.0,30.0,2.0,3,5,7,1,2026-07-23T23:44:16.976658+05:30
Mangalore,Karnataka,12.9141,74.856,24.6,96,0.3,1008.8,8.75,39.6,50,33.6,19.0,12.7,222.0,20.0,3.5,6,0,4,1,2026-07-23T23:44:16.976666+05:30
Hubli-Dharwad,Karnataka,15.3647,75.124,22.0,98,0.1,940.0,5.8,59.4,56,53.9,23.2,4.8,114.0,40.0,1.3,6,5,3,1,2026-07-23T23:44:16.976674+05:30
Belgaum,Karnataka,15.8497,74.4977,21.0,97,0.0,924.3,3.75,53.6,65,75.4,31.8,3.5,114.0,58.0,1.7,3,5,3,1,2026-07-23T23:44:20.231097+05:30
Coimbatore,Tamil Nadu,11.0168,76.9558,23.2,90,0.0,962.2,8.95,54.7,37,8.5,7.1,9.6,204.0,29.0,3.4,3,5,7,1,2026-07-23T23:44:20.231136+05:30
Madurai,Tamil Nadu,9.9252,78.1198,29.4,69,0.0,993.4,8.7,28.1,62,33.8,25.0,33.9,182.0,23.0,8.1,7,5,7,1,2026-07-23T23:44:20.231181+05:30
Trichy,Tamil Nadu,10.7905,78.7047,28.6,74,0.0,1000.5,7.75,42.1,57,19.8,16.1,15.7,166.0,46.0,5.5,7,5,4,1,2026-07-23T23:44:20.231194+05:30
Salem,Tamil Nadu,11.6643,78.146,26.0,75,0.0,978.1,8.75,22.3,64,15.3,11.4,13.6,270.0,39.0,6.7,7,5,7,1,2026-07-23T23:44:20.231206+05:30
Tirunelveli,Tamil Nadu,8.7139,77.7567,29.1,61,0.0,1004.3,8.3,43.2,37,9.9,7.1,6.2,145.0,36.0,2.3,7,5,4,1,2026-07-23T23:44:20.231217+05:30
Vellore,Tamil Nadu,12.9165,79.1325,26.8,87,0.0,984.6,9.0,36.7,63,31.2,21.9,19.8,358.0,37.0,7.1,7,5,7,1,2026-07-23T23:44:20.231228+05:30
Erode,Tamil Nadu,11.341,77.7172,26.7,75,0.0,989.7,8.25,35.6,54,13.6,11.0,14.1,184.0,33.0,4.1,7,5,7,1,2026-07-23T23:44:20.231239+05:30
Kochi,Kerala,9.9312,76.2673,25.9,95,0.0,1011.2,8.65,31.3,54,18.8,15.4,17.4,174.0,19.0,5.0,7,0,4,1,2026-07-23T23:44:20.231251+05:30
Thiruvananthapuram,Kerala,8.5241,76.9366,25.3,94,0.1,1010.6,8.0,41.8,50,13.9,8.3,4.1,119.0,40.0,2.0,10,0,4,1,2026-07-23T23:44:20.231262+05:30
Kozhikode,Kerala,11.2588,75.7804,23.5,98,0.0,1010.2,8.65,37.8,35,8.6,5.2,2.9,349.0,41.0,1.5,3,0,4,1,2026-07-23T23:44:20.231274+05:30
Thrissur,Kerala,10.5276,76.2144,25.1,96,0.0,1009.5,8.35,33.1,52,18.0,15.4,13.8,279.0,21.0,4.5,7,0,4,1,2026-07-23T23:44:20.231286+05:30
Kannur,Kerala,11.8745,75.3704,24.2,98,0.0,1009.5,8.8,40.0,38,7.6,5.6,13.4,181.0,19.0,2.8,3,0,4,1,2026-07-23T23:44:20.231294+05:30
Patna,Bihar,25.5941,85.1376,26.8,94,0.1,996.2,6.1,37.1,71,27.4,27.4,18.6,335.0,65.0,15.6,10,5,7,1,2026-07-23T23:44:20.231302+05:30
Gaya,Bihar,24.7914,85.0002,26.1,98,0.1,989.5,8.3,24.5,60,26.0,26.0,23.5,274.0,30.0,11.4,10,5,7,1,2026-07-23T23:44:20.231309+05:30
Muzaffarpur,Bihar,26.1209,85.3647,26.8,92,0.0,996.4,7.35,44.6,70,25.2,25.1,15.9,327.0,73.0,13.4,7,5,7,1,2026-07-23T23:44:20.231317+05:30
Bhagalpur,Bihar,25.2425,87.0117,26.5,97,0.0,997.2,7.55,33.1,63,28.0,27.9,20.7,302.0,45.0,16.1,7,5,7,1,2026-07-23T23:44:20.231324+05:30
Ranchi,Jharkhand,23.3441,85.3096,22.7,94,0.0,933.8,7.5,37.1,34,13.5,12.6,8.9,180.0,58.0,15.0,3,5,7,1,2026-07-23T23:44:20.231331+05:30
Jamshedpur,Jharkhand,22.8046,86.2029,25.6,91,0.0,987.2,2.1,39.2,57,17.5,15.1,18.0,674.0,37.0,21.0,7,5,3,1,2026-07-23T23:44:20.231338+05:30
Dhanbad,Jharkhand,23.7957,86.4304,25.9,94,0.0,975.6,6.1,24.8,79,29.8,28.5,40.7,706.0,24.0,84.2,7,5,7,1,2026-07-23T23:44:20.231345+05:30
Bokaro,Jharkhand,23.6693,86.1511,25.7,88,0.0,979.5,6.9,28.4,64,20.6,19.6,22.5,197.0,45.0,49.4,7,5,7,1,2026-07-23T23:44:20.231352+05:30
Bhubaneswar,Odisha,20.2961,85.8245,27.2,95,0.0,999.2,8.65,45.7,69,19.8,16.3,7.8,186.0,77.0,8.3,7,5,7,1,2026-07-23T23:44:20.231359+05:30
Cuttack,Odisha,20.4625,85.8828,27.0,95,0.0,1001.1,8.35,37.8,69,19.8,16.3,7.8,218.0,77.0,8.3,7,5,4,1,2026-07-23T23:44:20.231366+05:30
Rourkela,Odisha,22.2604,84.8536,25.3,91,0.0,981.6,6.7,37.8,45,17.7,14.5,9.7,245.0,51.0,5.4,7,5,7,1,2026-07-23T23:44:20.231374+05:30
Raipur,Chhattisgarh,21.2514,81.6296,25.0,83,0.0,971.1,4.15,54.0,59,38.8,27.0,22.1,214.0,45.0,33.4,7,5,3,1,2026-07-23T23:44:20.231381+05:30
Bhilai,Chhattisgarh,21.1938,81.3509,25.2,82,0.0,971.4,3.15,57.2,58,38.5,26.8,21.4,325.0,49.0,33.7,7,5,3,1,2026-07-23T23:44:20.231388+05:30
Guwahati,Assam,26.1158,91.7086,25.9,98,0.0,998.7,5.55,22.3,43,10.6,10.5,19.4,237.0,15.0,3.1,7,5,3,1,2026-07-23T23:44:20.231396+05:30
Agartala,Tripura,23.8315,91.2868,24.5,98,0.0,1004.0,8.0,36.7,42,11.8,10.9,11.1,181.0,39.0,2.2,3,5,4,1,2026-07-23T23:44:20.231403+05:30
Shillong,Meghalaya,25.5788,91.8933,19.9,92,0.0,855.7,5.3,29.5,28,2.0,1.9,5.9,202.0,50.0,1.9,3,10,3,1,2026-07-23T23:44:20.231410+05:30
Imphal,Manipur,24.817,93.9368,22.7,94,0.0,921.3,8.6,25.9,35,10.9,10.4,10.7,463.0,31.0,1.9,3,5,7,1,2026-07-23T23:44:20.231417+05:30
Aizawl,Mizoram,23.7271,92.7176,19.4,95,0.0,890.8,8.75,43.2,26,1.1,1.0,3.3,132.0,48.0,0.9,3,10,7,1,2026-07-23T23:44:20.231424+05:30
Kohima,Nagaland,25.6701,94.1077,20.0,95,0.2,854.1,5.45,22.3,21,7.8,7.5,11.6,243.0,25.0,1.2,6,5,3,1,2026-07-23T23:44:20.231430+05:30
Gangtok,Sikkim,27.3314,88.6138,18.1,95,0.0,836.3,6.3,34.2,40,5.3,5.3,6.1,295.0,80.0,1.6,3,10,7,1,2026-07-23T23:44:20.231437+05:30
Siliguri,West Bengal,26.7271,88.3953,25.6,96,0.0,990.1,8.45,31.7,55,14.6,14.4,11.6,281.0,74.0,3.9,7,5,7,1,2026-07-23T23:44:23.483191+05:30
Durgapur,West Bengal,23.5204,87.3119,25.6,96,0.0,990.7,8.0,35.6,73,27.0,25.3,36.3,631.0,19.0,50.2,7,5,7,1,2026-07-23T23:44:23.483232+05:30
Asansol,West Bengal,23.6739,86.9524,25.8,96,0.0,989.4,7.4,33.5,67,24.6,23.1,37.0,353.0,21.0,57.4,7,5,7,1,2026-07-23T23:44:23.483244+05:30
Pondicherry,Puducherry,11.9139,79.8145,29.0,75,0.0,1008.4,8.55,41.4,69,19.3,13.9,10.4,185.0,68.0,7.8,7,0,4,1,2026-07-23T23:44:23.483254+05:30
Port Blair,Andaman and Nicobar Islands,11.6234,92.7265,25.9,89,0.0,1008.0,8.0,36.7,35,11.2,6.3,0.2,92.0,44.0,0.5,7,0,4,1,2026-07-23T23:44:23.483262+05:30
Haridwar,Uttarakhand,29.9457,78.1642,27.6,83,0.0,969.0,7.3,27.7,66,32.6,32.4,29.2,261.0,18.0,5.9,7,5,7,1,2026-07-23T23:44:23.483270+05:30
Rishikesh,Uttarakhand,30.0869,78.2676,26.7,92,0.0,961.8,7.4,27.7,50,15.6,15.5,19.9,420.0,43.0,3.4,7,5,7,1,2026-07-23T23:44:23.483278+05:30
Nainital,Uttarakhand,29.3919,79.4542,16.2,95,0.0,803.0,6.95,52.6,47,12.3,12.2,12.9,180.0,50.0,2.1,3,10,7,0,2026-07-23T23:44:23.483287+05:30
Mussoorie,Uttarakhand,30.4599,78.0664,16.6,100,0.0,800.3,6.8,32.8,54,21.0,20.9,38.8,342.0,24.0,6.3,3,10,7,1,2026-07-23T23:44:23.483295+05:30
Dharamshala,Himachal Pradesh,32.219,76.3234,22.0,87,0.1,866.3,7.4,23.0,44,14.3,14.2,22.8,476.0,14.0,0.6,6,5,7,1,2026-07-23T23:44:23.483302+05:30
Dalhousie,Himachal Pradesh,32.5387,75.971,17.2,97,0.1,802.2,1.1,27.7,62,21.4,20.8,24.9,532.0,71.0,3.5,6,10,3,1,2026-07-23T23:44:23.483310+05:30
Patiala,Punjab,30.3398,76.3869,28.2,82,0.0,972.2,6.85,40.7,79,32.8,32.7,24.8,369.0,62.0,10.2,7,5,7,1,2026-07-23T23:44:23.483318+05:30
Bhatinda,Punjab,30.211,74.9455,28.0,86,0.0,977.0,6.95,32.4,84,46.0,45.3,27.2,475.0,54.0,8.6,7,5,7,1,2026-07-23T23:44:23.483325+05:30
Rohtak,Haryana,28.8955,76.6066,28.7,79,0.0,975.0,6.25,38.5,85,24.7,24.6,24.8,515.0,78.0,21.6,7,5,7,1,2026-07-23T23:44:23.483333+05:30
Panipat,Haryana,29.3909,76.9635,28.6,79,0.0,974.3,7.05,39.2,76,24.4,24.3,18.1,312.0,80.0,14.0,7,5,7,1,2026-07-23T23:44:23.483340+05:30
Mathura,Uttar Pradesh,27.4924,77.6737,26.6,94,0.1,979.6,6.2,39.6,80,17.6,17.6,12.7,302.0,90.0,5.6,10,5,7,1,2026-07-23T23:44:23.483348+05:30
Vrindavan,Uttar Pradesh,27.5823,77.7027,26.7,94,0.1,980.2,6.15,38.9,80,17.6,17.6,12.7,304.0,90.0,5.6,10,5,7,1,2026-07-23T23:44:23.483356+05:30
Ayodhya,Uttar Pradesh,26.7922,82.1998,26.6,92,0.0,991.0,6.2,44.3,69,22.6,22.6,9.8,340.0,91.0,6.5,7,5,7,1,2026-07-23T23:44:23.483364+05:30
Ratlam,Madhya Pradesh,23.3315,75.0367,23.8,97,0.0,946.0,6.1,32.0,37,17.9,17.4,15.4,165.0,33.0,5.4,3,5,7,1,2026-07-23T23:44:23.483371+05:30
Sagar,Madhya Pradesh,23.8388,78.7378,25.5,78,0.0,943.3,4.2,40.0,33,6.1,5.8,7.6,137.0,41.0,6.0,7,5,3,1,2026-07-23T23:44:23.483378+05:30
Satna,Madhya Pradesh,24.6005,80.8322,25.2,89,0.0,965.9,7.8,33.8,52,5.1,4.9,8.2,189.0,46.0,4.9,7,5,7,1,2026-07-23T23:44:23.483386+05:30
Akola,Maharashtra,20.7002,77.0082,24.9,87,0.0,969.8,2.8,57.2,35,4.5,3.4,7.2,140.0,35.0,4.9,3,5,3,1,2026-07-23T23:44:23.483394+05:30
Amravati,Maharashtra,20.9374,77.7796,25.4,81,0.0,962.3,3.15,52.9,44,4.1,3.4,6.9,126.0,34.0,3.9,7,5,3,1,2026-07-23T23:44:23.483403+05:30
Latur,Maharashtra,18.4088,76.5604,24.2,79,0.0,936.5,6.05,64.1,59,6.6,4.4,4.0,124.0,36.0,1.7,3,5,7,1,2026-07-23T23:44:23.483411+05:30
Nanded,Maharashtra,19.1383,77.3091,25.6,75,0.0,965.0,4.8,54.7,59,6.4,4.1,5.4,136.0,35.0,3.6,7,5,3,1,2026-07-23T23:44:23.483419+05:30
Gulbarga,Karnataka,17.3297,76.8343,25.1,77,0.0,956.8,6.7,63.7,61,46.1,23.5,5.9,128.0,46.0,2.4,7,5,7,1,2026-07-23T23:44:23.483427+05:30
Bidar,Karnataka,17.9104,77.5199,24.1,79,0.0,932.9,7.25,66.6,61,31.2,17.8,5.8,126.0,45.0,2.3,3,5,7,1,2026-07-23T23:44:23.483434+05:30
Hospet,Karnataka,15.2689,76.3909,23.7,84,0.0,955.5,6.2,58.3,51,40.4,20.1,5.2,127.0,38.0,1.7,3,5,7,1,2026-07-23T23:44:23.483441+05:30
Tirupur,Tamil Nadu,11.1085,77.3411,24.8,82,0.0,975.9,8.85,58.0,57,16.2,13.3,17.5,181.0,29.0,5.4,3,5,7,1,2026-07-23T23:44:23.483447+05:30
Alappuzha,Kerala,9.4981,76.3388,25.6,95,0.0,1011.4,7.9,34.9,56,20.7,13.8,12.9,89.0,31.0,3.8,7,0,4,1,2026-07-23T23:44:23.483455+05:30
Munnar,Kerala,10.0889,77.0595,16.2,93,0.0,857.6,7.85,34.9,32,9.6,7.8,9.5,116.0,32.0,2.7,3,10,7,0,2026-07-23T23:44:23.483463+05:30
Silchar,Assam,24.8333,92.7789,25.6,97,0.1,1003.3,6.1,28.8,52,11.0,10.4,7.8,298.0,57.0,3.6,10,5,4,1,2026-07-23T23:44:23.483471+05:30
Dibrugarh,Assam,27.4728,94.912,27.6,88,0.0,991.9,7.75,26.6,49,8.8,8.5,8.5,231.0,52.0,0.9,7,5,7,1,2026-07-23T23:44:23.483479+05:30
