city,state,latitude,longitude,temp,humidity,rain,pressure,uv_index,wind_gusts,aqi,pm10,pm2_5,no2,co,o3,so2,mosquito_risk,arthritis_risk,migraine_risk,frizz_risk,updated_at
Delhi,Delhi,28.6139,77.209,34.1,62,0.0,972.5,7.75,18.4,162,36.4,34.9,15.1,683.0,231.0,31.2,3,5,7,1,2026-07-06T18:20:19.145947+05:30
Mumbai,Maharashtra,19.076,72.8777,26.9,90,0.1,998.7,0.65,70.9,40,29.3,16.5,8.4,204.0,71.0,4.7,10,5,3,1,2026-07-06T18:20:19.145987+05:30
Bangalore,Karnataka,12.9716,77.5946,26.0,60,0.0,909.4,5.9,72.7,32,8.5,5.2,5.9,264.0,62.0,2.0,4,5,3,1,2026-07-06T18:20:19.146002+05:30
Hyderabad,Telangana,17.385,78.4867,28.4,63,0.0,945.9,7.4,55.1,26,13.2,8.3,8.5,271.0,60.0,4.1,7,5,7,1,2026-07-06T18:20:19.146011+05:30
Chennai,Tamil Nadu,13.0827,80.2707,38.4,29,0.0,1000.5,8.3,60.1,58,30.3,19.0,4.7,217.0,112.0,5.6,0,5,7,1,2026-07-06T18:20:19.146019+05:30
Kolkata,West Bengal,22.5726,88.3639,29.6,79,0.0,995.4,2.25,47.9,51,27.1,20.5,5.6,340.0,82.0,7.0,7,5,3,1,2026-07-06T18:20:19.146026+05:30
Pune,Maharashtra,18.5204,73.8567,23.8,93,0.3,938.1,1.05,63.0,24,3.7,2.8,5.9,163.0,46.0,2.2,6,5,3,1,2026-07-06T18:20:19.146034+05:30
Ahmedabad,Gujarat,23.0225,72.5714,29.8,89,0.0,990.8,8.1,26.6,98,99.7,43.4,5.0,339.0,112.0,4.7,7,5,7,1,2026-07-06T18:20:19.146041+05:30
Jaipur,Rajasthan,26.9124,75.7873,33.4,60,0.0,949.9,7.4,26.3,101,47.1,17.1,3.7,417.0,138.0,4.9,0,5,7,1,2026-07-06T18:20:19.146047+05:30
Lucknow,Uttar Pradesh,26.8467,80.9462,33.1,68,0.0,982.9,6.6,37.4,86,15.6,15.4,5.5,248.0,127.0,4.2,3,5,7,1,2026-07-06T18:20:19.146071+05:30
Kanpur,Uttar Pradesh,26.4499,80.3319,32.4,72,0.0,981.1,8.1,39.2,88,19.2,15.5,4.2,259.0,139.0,4.2,3,5,7,1,2026-07-06T18:20:19.146079+05:30
Chandigarh,Chandigarh,30.7333,76.7794,31.6,72,0.0,959.1,6.0,29.9,103,21.6,20.2,5.5,476.0,163.0,8.3,3,5,3,1,2026-07-06T18:20:19.146086+05:30
Srinagar,Jammu and Kashmir,34.0837,74.7973,29.4,44,0.0,836.6,9.1,31.7,140,31.1,23.7,5.2,301.0,149.0,3.2,4,5,7,0,2026-07-06T18:20:19.146092+05:30
Jammu,Jammu and Kashmir,32.7266,74.857,33.1,62,0.0,962.8,7.8,29.5,137,19.4,18.7,4.5,389.0,164.0,3.7,3,5,7,1,2026-07-06T18:20:19.146099+05:30
Amritsar,Punjab,31.634,74.8723,33.7,64,0.0,970.2,8.1,32.4,156,27.4,24.4,4.8,402.0,139.0,4.3,3,5,7,1,2026-07-06T18:20:19.146105+05:30
Ludhiana,Punjab,30.901,75.8573,33.0,70,0.0,968.3,7.85,41.8,142,17.1,15.8,6.2,457.0,138.0,6.5,3,5,7,1,2026-07-06T18:20:19.146111+05:30
Jalandhar,Punjab,31.326,75.5762,33.1,66,0.0,969.2,7.7,38.2,154,17.7,15.8,6.5,430.0,140.0,7.4,3,5,7,1,2026-07-06T18:20:19.146116+05:30
Dehradun,Uttarakhand,30.6284,78.0322,22.8,75,0.0,826.1,6.95,28.1,87,9.0,8.8,2.1,252.0,129.0,2.2,3,5,7,1,2026-07-06T18:20:19.146123+05:30
Shimla,Himachal Pradesh,31.1048,77.1734,19.3,89,0.0,780.9,6.95,22.0,84,9.6,9.1,2.9,322.0,137.0,2.9,3,10,7,1,2026-07-06T18:20:19.146129+05:30
Manali,Himachal Pradesh,32.2396,77.1887,22.2,95,0.2,815.3,7.6,29.9,47,19.3,19.0,29.6,220.0,103.0,1.1,6,5,7,1,2026-07-06T18:20:19.146137+05:30
Gurgaon,Haryana,28.4595,77.0266,34.7,60,0.0,970.9,7.8,23.0,135,50.6,28.7,12.0,595.0,185.0,18.4,0,5,7,1,2026-07-06T18:20:19.146143+05:30
Noida,Uttar Pradesh,28.5355,77.391,34.4,60,0.0,974.1,7.75,21.2,135,50.6,28.7,12.0,653.0,185.0,18.4,0,5,7,1,2026-07-06T18:20:19.146149+05:30
Ghaziabad,Uttar Pradesh,28.6692,77.4538,34.4,61,0.0,972.3,7.75,22.0,132,26.5,23.8,7.2,406.0,180.0,15.9,3,5,7,1,2026-07-06T18:20:19.146155+05:30
Faridabad,Haryana,28.4089,77.3178,34.4,61,0.0,973.3,7.8,20.9,135,50.6,28.7,12.0,535.0,185.0,18.4,3,5,7,1,2026-07-06T18:20:19.146163+05:30
Meerut,Uttar Pradesh,28.9845,77.7064,33.3,70,0.0,971.4,7.6,19.8,132,26.5,23.8,7.2,291.0,180.0,15.9,3,5,7,1,2026-07-06T18:20:19.146169+05:30
Agra,Uttar Pradesh,27.1767,78.0081,33.4,68,0.0,977.2,8.05,25.9,103,15.1,13.9,4.5,306.0,132.0,4.1,3,5,7,1,2026-07-06T18:20:19.146175+05:30
Varanasi,Uttar Pradesh,25.3176,82.9739,28.0,92,0.1,986.6,6.75,54.7,59,14.2,13.9,5.8,332.0,111.0,6.4,10,5,7,1,2026-07-06T18:20:19.146181+05:30
Prayagraj,Uttar Pradesh,25.4358,81.8463,30.5,77,0.0,984.8,6.7,48.6,64,13.9,13.7,5.4,308.0,122.0,4.7,3,5,7,1,2026-07-06T18:20:19.146187+05:30
Gorakhpur,Uttar Pradesh,26.7606,83.3732,30.9,78,0.0,987.1,5.8,52.6,71,10.5,10.4,5.3,243.0,109.0,3.4,3,5,3,1,2026-07-06T18:20:19.146193+05:30
Bareilly,Uttar Pradesh,28.367,79.4304,33.1,71,0.0,977.1,5.65,18.4,126,25.6,24.1,4.8,259.0,154.0,7.6,3,5,3,1,2026-07-06T18:20:19.146201+05:30
Aligarh,Uttar Pradesh,27.8974,78.088,33.8,67,0.0,975.2,7.35,23.8,115,26.0,19.9,4.9,276.0,144.0,9.5,3,5,7,1,2026-07-06T18:20:19.146208+05:30
Moradabad,Uttar Pradesh,28.8386,78.7733,34.0,66,0.0,973.8,7.85,31.0,147,25.9,25.2,5.5,303.0,156.0,10.3,3,5,7,1,2026-07-06T18:20:19.146214+05:30
Saharanpur,Uttar Pradesh,29.9637,77.546,32.5,70,0.0,965.8,7.4,21.6,110,25.2,24.7,5.4,348.0,159.0,13.7,3,5,7,1,2026-07-06T18:20:19.146220+05:30
Jhansi,Uttar Pradesh,25.4484,78.5685,29.7,87,0.1,967.4,8.4,37.1,104,10.6,10.0,3.7,197.0,113.0,3.9,10,5,7,1,2026-07-06T18:20:22.518704+05:30
Surat,Gujarat,21.1702,72.8311,27.0,95,0.3,996.2,4.7,31.0,97,54.0,47.8,38.2,441.0,96.0,63.6,10,5,3,1,2026-07-06T18:20:22.518735+05:30
Vadodara,Gujarat,22.3072,73.1812,27.4,94,0.0,993.8,7.9,26.3,98,36.4,27.5,4.5,364.0,145.0,8.0,7,5,7,1,2026-07-06T18:20:22.518746+05:30
Rajkot,Gujarat,22.3039,70.8022,29.5,87,0.0,983.8,6.6,40.0,94,53.7,28.3,5.4,172.0,88.0,4.7,7,5,7,1,2026-07-06T18:20:22.518755+05:30
Thane,Maharashtra,19.2183,72.9781,26.8,93,0.1,997.9,1.0,55.1,40,29.3,16.5,8.4,201.0,71.0,4.7,10,5,3,1,2026-07-06T18:20:22.518762+05:30
Nagpur,Maharashtra,21.1458,79.0882,28.7,76,0.1,962.7,6.85,41.0,52,7.5,7.3,12.6,218.0,63.0,13.7,10,5,7,1,2026-07-06T18:20:22.518770+05:30
Nashik,Maharashtra,19.9975,73.7898,24.2,95,0.1,935.3,5.8,38.2,22,3.6,3.5,10.7,211.0,57.0,4.1,6,5,3,1,2026-07-06T18:20:22.518777+05:30
Aurangabad,Maharashtra,19.8762,75.3433,25.0,91,0.0,933.5,3.1,55.8,24,2.4,2.4,6.2,171.0,43.0,2.8,7,5,3,1,2026-07-06T18:20:22.518784+05:30
Solapur,Maharashtra,17.6599,75.9064,27.8,70,0.1,949.7,4.65,70.6,30,7.2,4.5,2.3,109.0,63.0,1.5,10,5,3,1,2026-07-06T18:20:22.518792+05:30
Kolhapur,Maharashtra,16.705,74.2433,23.0,95,0.2,941.9,2.45,65.2,27,10.7,6.6,4.6,138.0,50.0,1.4,6,5,3,1,2026-07-06T18:20:22.518827+05:30
Goa,Goa,15.2993,74.124,25.0,98,0.3,995.0,5.35,41.8,56,32.1,14.6,1.8,178.0,56.0,0.6,10,5,3,1,2026-07-06T18:20:22.518847+05:30
Jodhpur,Rajasthan,26.2389,73.0243,34.7,58,0.0,971.5,8.2,18.0,89,147.6,47.7,2.4,179.0,108.0,3.7,0,5,7,1,2026-07-06T18:20:22.518856+05:30
Udaipur,Rajasthan,24.5854,73.7125,30.3,70,0.0,936.6,7.1,29.9,55,20.5,13.7,4.0,207.0,95.0,3.4,3,5,7,1,2026-07-06T18:20:22.518864+05:30
Kota,Rajasthan,25.2138,75.8648,32.4,67,0.0,967.8,7.5,23.4,99,27.5,26.8,3.4,251.0,152.0,13.8,3,5,7,1,2026-07-06T18:20:22.518871+05:30
Bikaner,Rajasthan,28.0229,73.3119,39.6,31,0.0,969.8,8.45,28.4,92,98.5,39.8,2.0,198.0,113.0,5.1,0,5,10,1,2026-07-06T18:20:22.518878+05:30
Ajmer,Rajasthan,26.4499,74.6399,32.0,67,0.0,944.8,7.2,20.5,81,17.2,13.5,1.7,245.0,125.0,2.3,3,5,7,1,2026-07-06T18:20:22.518885+05:30
Gwalior,Madhya Pradesh,26.2183,78.1828,32.6,70,0.0,972.7,8.15,38.9,86,12.3,11.2,3.0,209.0,111.0,2.5,3,5,7,1,2026-07-06T18:20:22.518892+05:30
Indore,Madhya Pradesh,22.7196,75.8577,27.6,82,0.0,937.8,8.35,28.1,148,29.6,28.1,7.2,464.0,103.0,2.5,7,5,7,1,2026-07-06T18:20:22.518899+05:30
Bhopal,Madhya Pradesh,23.2599,77.4126,27.2,87,0.1,943.4,8.3,24.8,84,13.7,13.2,3.0,326.0,120.0,2.7,10,5,7,1,2026-07-06T18:20:22.518906+05:30
Jabalpur,Madhya Pradesh,23.1815,79.9864,26.8,87,0.1,950.6,8.15,25.2,59,10.5,10.4,5.8,218.0,93.0,2.4,10,5,7,1,2026-07-06T18:20:22.518913+05:30
Ujjain,Madhya Pradesh,23.1765,75.7885,26.8,88,0.1,943.3,7.65,25.9,152,31.9,30.0,2.6,306.0,116.0,2.6,10,5,7,1,2026-07-06T18:20:22.518920+05:30
Visakhapatnam,Andhra Pradesh,17.6868,83.2185,30.0,72,0.0,995.0,7.9,59.4,53,19.0,12.3,10.9,262.0,68.0,20.0,7,5,7,1,2026-07-06T18:20:22.518927+05:30
Vijayawada,Andhra Pradesh,16.5062,80.648,33.1,58,0.0,994.5,6.65,54.4,45,24.6,15.1,6.4,133.0,68.0,4.0,0,5,7,1,2026-07-06T18:20:22.518933+05:30
Guntur,Andhra Pradesh,16.3067,80.4365,35.4,42,0.0,995.8,6.45,61.6,41,17.9,11.5,5.7,123.0,70.0,4.1,0,5,10,1,2026-07-06T18:20:22.518940+05:30
Nellore,Andhra Pradesh,14.4426,79.9865,34.9,45,0.0,998.7,7.95,54.7,39,16.5,7.1,3.3,115.0,69.0,2.0,0,5,7,1,2026-07-06T18:20:22.518948+05:30
Kurnool,Andhra Pradesh,15.8281,78.0373,31.4,52,0.0,970.9,4.65,67.7,32,8.8,4.5,2.7,116.0,62.0,1.9,0,5,3,1,2026-07-06T18:20:22.518956+05:30
Kakinada,Andhra Pradesh,16.9891,82.2475,31.6,66,0.0,999.2,6.9,63.7,54,26.4,15.8,3.0,177.0,85.0,2.5,3,5,7,1,2026-07-06T18:20:22.518963+05:30
Tirupati,Andhra Pradesh,13.6288,79.4192,35.2,38,0.0,985.3,8.95,57.6,39,20.1,9.5,4.1,118.0,74.0,1.4,0,5,10,1,2026-07-06T18:20:22.518970+05:30
Warangal,Telangana,17.9689,79.5941,29.3,70,0.0,970.6,5.05,45.4,27,10.7,8.1,6.0,145.0,63.0,3.7,7,5,3,1,2026-07-06T18:20:22.518976+05:30
Nizamabad,Telangana,18.6725,78.0941,27.6,77,0.0,955.8,5.5,61.2,27,19.5,11.0,2.7,149.0,76.0,2.8,7,5,3,1,2026-07-06T18:20:22.518983+05:30
Mysore,Karnataka,12.2958,76.6396,23.7,81,0.0,926.5,7.4,70.9,30,5.3,3.2,3.4,123.0,59.0,1.1,3,5,7,1,2026-07-06T18:20:22.518989+05:30
Mangalore,Karnataka,12.9141,74.856,28.2,78,0.1,1005.2,7.9,62.3,56,26.5,13.2,2.2,132.0,58.0,1.0,10,5,4,1,2026-07-06T18:20:22.518996+05:30
Hubli-Dharwad,Karnataka,15.3647,75.124,22.7,94,0.1,936.5,6.45,72.0,27,4.9,2.9,4.3,113.0,53.0,0.7,6,5,7,1,2026-07-06T18:20:22.519002+05:30
Belgaum,Karnataka,15.8497,74.4977,22.0,96,0.0,920.8,2.1,63.0,26,5.3,3.2,3.8,120.0,53.0,1.1,3,5,3,1,2026-07-06T18:20:25.853993+05:30
Coimbatore,Tamil Nadu,11.0168,76.9558,25.3,81,0.0,960.1,8.8,70.9,31,14.3,9.4,4.3,153.0,61.0,1.6,7,5,7,1,2026-07-06T18:20:25.854022+05:30
Madurai,Tamil Nadu,9.9252,78.1198,32.3,45,0.0,989.5,8.7,73.8,61,23.3,11.1,2.9,128.0,75.0,1.6,0,5,7,1,2026-07-06T18:20:25.854033+05:30
Trichy,Tamil Nadu,10.7905,78.7047,33.8,41,0.0,995.7,8.55,75.6,48,21.7,10.4,2.5,118.0,72.0,1.5,0,5,7,1,2026-07-06T18:20:25.854042+05:30
Salem,Tamil Nadu,11.6643,78.146,30.5,58,0.0,974.2,8.8,40.7,52,17.3,10.1,4.6,188.0,80.0,3.9,0,5,7,1,2026-07-06T18:20:25.854051+05:30
Tirunelveli,Tamil Nadu,8.7139,77.7567,31.8,48,0.0,1001.6,8.65,64.4,49,25.6,13.9,1.9,112.0,66.0,1.2,0,5,4,1,2026-07-06T18:20:25.854058+05:30
Vellore,Tamil Nadu,12.9165,79.1325,34.8,36,0.0,979.5,8.5,60.5,40,18.0,8.5,3.8,128.0,76.0,1.8,0,5,7,1,2026-07-06T18:20:25.854065+05:30
Erode,Tamil Nadu,11.341,77.7172,30.5,56,0.0,985.7,8.8,63.7,50,18.4,11.4,4.0,136.0,71.0,1.7,0,5,7,1,2026-07-06T18:20:25.854072+05:30
Kochi,Kerala,9.9312,76.2673,28.4,78,0.0,1008.8,8.35,43.9,59,33.4,18.8,4.6,121.0,58.0,2.5,7,0,4,1,2026-07-06T18:20:25.854080+05:30
Thiruvananthapuram,Kerala,8.5241,76.9366,27.1,85,0.0,1008.3,8.4,44.6,56,26.4,14.2,3.3,114.0,62.0,0.9,7,0,4,1,2026-07-06T18:20:25.854087+05:30
Kozhikode,Kerala,11.2588,75.7804,25.3,97,0.2,1008.2,8.25,36.4,58,28.8,14.9,0.9,127.0,60.0,0.7,10,0,4,1,2026-07-06T18:20:25.854094+05:30
Thrissur,Kerala,10.5276,76.2144,26.6,87,0.0,1007.3,8.5,50.8,56,29.0,17.1,3.4,135.0,54.0,1.6,7,5,4,1,2026-07-06T18:20:25.854102+05:30
Kannur,Kerala,11.8745,75.3704,25.6,91,0.0,1006.8,7.95,47.9,55,24.5,12.5,3.4,129.0,52.0,0.9,7,5,4,1,2026-07-06T18:20:25.854109+05:30
Patna,Bihar,25.5941,85.1376,28.8,89,0.0,989.8,4.2,63.7,70,13.2,12.9,8.6,276.0,98.0,4.9,7,5,3,1,2026-07-06T18:20:25.854116+05:30
Gaya,Bihar,24.7914,85.0002,28.2,89,0.1,982.2,6.3,55.1,51,12.3,12.2,5.6,250.0,92.0,3.1,10,5,7,1,2026-07-06T18:20:25.854122+05:30
Muzaffarpur,Bihar,26.1209,85.3647,29.7,82,0.0,990.2,5.95,59.4,69,11.6,11.4,8.2,235.0,90.0,3.9,7,5,3,1,2026-07-06T18:20:25.854129+05:30
Bhagalpur,Bihar,25.2425,87.0117,30.1,77,0.0,990.6,6.65,60.1,53,11.1,10.9,8.8,199.0,97.0,9.1,3,5,7,1,2026-07-06T18:20:25.854135+05:30
Ranchi,Jharkhand,23.3441,85.3096,24.6,95,0.0,926.4,8.3,38.9,47,8.3,8.3,6.5,330.0,91.0,7.1,3,5,7,1,2026-07-06T18:20:25.854142+05:30
Jamshedpur,Jharkhand,22.8046,86.2029,26.9,96,0.1,979.1,1.6,28.4,52,9.6,9.6,12.9,382.0,66.0,17.9,10,5,3,1,2026-07-06T18:20:25.854149+05:30
Dhanbad,Jharkhand,23.7957,86.4304,26.4,96,0.1,968.4,4.75,51.5,64,24.3,24.2,33.8,384.0,58.0,67.0,10,5,3,1,2026-07-06T18:20:25.854155+05:30
Bokaro,Jharkhand,23.6693,86.1511,26.8,95,0.0,972.0,5.6,43.9,62,25.9,25.8,33.3,624.0,58.0,65.7,7,5,3,1,2026-07-06T18:20:25.854162+05:30
Bhubaneswar,Odisha,20.2961,85.8245,29.4,78,0.0,992.5,3.4,55.1,39,17.3,14.8,6.4,260.0,89.0,6.1,7,5,3,1,2026-07-06T18:20:25.854169+05:30
Cuttack,Odisha,20.4625,85.8828,29.9,77,0.0,994.2,3.4,54.0,39,17.3,14.8,6.4,250.0,89.0,6.1,7,5,3,1,2026-07-06T18:20:25.854176+05:30
Rourkela,Odisha,22.2604,84.8536,26.2,92,0.0,973.9,1.75,37.8,59,12.1,12.1,16.0,363.0,68.0,8.5,7,5,3,1,2026-07-06T18:20:25.854183+05:30
Raipur,Chhattisgarh,21.2514,81.6296,26.8,87,0.0,964.5,1.2,46.8,59,12.9,12.7,20.7,445.0,55.0,38.3,7,5,3,1,2026-07-06T18:20:25.854190+05:30
Bhilai,Chhattisgarh,21.1938,81.3509,26.7,86,0.0,965.0,2.4,44.6,56,12.4,12.3,17.6,699.0,64.0,33.6,7,5,3,1,2026-07-06T18:20:25.854197+05:30
Guwahati,Assam,26.1158,91.7086,29.4,92,0.1,993.6,7.35,27.0,43,8.8,8.8,5.3,270.0,70.0,1.3,10,5,7,1,2026-07-06T18:20:25.854203+05:30
Agartala,Tripura,23.8315,91.2868,26.5,95,0.1,999.6,3.15,42.5,33,12.8,10.9,7.3,162.0,60.0,1.8,10,5,3,1,2026-07-06T18:20:25.854210+05:30
Shillong,Meghalaya,25.5788,91.8933,21.7,90,0.0,853.1,7.4,46.4,35,3.4,3.3,4.3,146.0,63.0,1.3,3,5,7,1,2026-07-06T18:20:25.854217+05:30
Imphal,Manipur,24.817,93.9368,23.8,96,0.4,919.1,8.45,27.0,29,4.9,4.8,6.0,234.0,55.0,1.2,6,5,7,1,2026-07-06T18:20:25.854223+05:30
Aizawl,Mizoram,23.7271,92.7176,20.4,98,0.1,888.0,3.6,40.0,25,4.2,3.1,3.5,126.0,60.0,1.4,6,5,3,1,2026-07-06T18:20:25.854229+05:30
Kohima,Nagaland,25.6701,94.1077,22.1,95,0.1,852.0,9.2,21.6,30,3.8,3.7,4.9,172.0,52.0,0.7,6,5,7,1,2026-07-06T18:20:25.854236+05:30
Gangtok,Sikkim,27.3314,88.6138,19.9,100,0.0,834.1,6.9,28.1,38,3.1,3.0,6.4,212.0,75.0,0.6,3,10,7,1,2026-07-06T18:20:25.854243+05:30
Siliguri,West Bengal,26.7271,88.3953,27.0,94,0.0,984.9,7.75,49.0,44,7.2,7.1,6.1,337.0,87.0,1.8,7,5,7,1,2026-07-06T18:20:29.173350+05:30
Durgapur,West Bengal,23.5204,87.3119,28.2,90,0.0,983.4,5.95,51.8,57,20.8,20.5,18.2,499.0,79.0,25.9,7,5,3,1,2026-07-06T18:20:29.173381+05:30
Asansol,West Bengal,23.6739,86.9524,27.6,93,0.0,981.9,7.0,53.3,55,17.9,17.9,22.8,628.0,70.0,31.5,7,5,7,1,2026-07-06T18:20:29.173392+05:30
Pondicherry,Puducherry,11.9139,79.8145,36.1,37,0.0,1002.5,8.65,47.5,57,30.6,19.6,7.7,145.0,109.0,7.2,0,5,7,1,2026-07-06T18:20:29.173401+05:30
Port Blair,Andaman and Nicobar Islands,11.6234,92.7265,27.6,82,0.0,1006.9,8.6,37.8,42,23.3,13.9,0.4,103.0,55.0,0.5,7,5,4,1,2026-07-06T18:20:29.173409+05:30
Haridwar,Uttarakhand,29.9457,78.1642,32.9,71,0.0,964.2,7.55,18.4,99,18.7,18.3,2.6,264.0,142.0,4.1,3,5,7,1,2026-07-06T18:20:29.173417+05:30
Rishikesh,Uttarakhand,30.0869,78.2676,30.9,72,0.0,957.4,7.6,19.1,84,16.8,16.4,1.6,266.0,125.0,2.4,3,5,7,1,2026-07-06T18:20:29.173425+05:30
Nainital,Uttarakhand,29.3919,79.4542,21.1,79,0.0,802.3,6.45,24.1,81,17.9,17.4,2.8,211.0,141.0,7.1,3,5,7,1,2026-07-06T18:20:29.173432+05:30
Mussoorie,Uttarakhand,30.4599,78.0664,20.9,88,0.0,799.4,6.85,31.3,104,15.7,15.4,2.9,277.0,140.0,4.3,3,5,7,1,2026-07-06T18:20:29.173440+05:30
Dharamshala,Himachal Pradesh,32.219,76.3234,24.0,90,0.1,863.3,7.1,31.0,52,7.7,7.3,3.5,333.0,108.0,0.9,6,5,7,1,2026-07-06T18:20:29.173448+05:30
Dalhousie,Himachal Pradesh,32.5387,75.971,20.4,94,0.0,800.7,7.1,28.1,99,13.4,12.8,4.0,366.0,152.0,2.8,3,5,7,1,2026-07-06T18:20:29.173455+05:30
Patiala,Punjab,30.3398,76.3869,32.6,69,0.0,968.0,7.5,34.9,111,18.2,17.1,5.0,349.0,150.0,7.7,3,5,7,1,2026-07-06T18:20:29.173462+05:30
Bhatinda,Punjab,30.211,74.9455,36.2,53,0.0,972.5,7.95,33.8,151,62.2,32.5,7.2,345.0,164.0,21.3,0,5,10,1,2026-07-06T18:20:29.173469+05:30
Rohtak,Haryana,28.8955,76.6066,34.4,61,0.0,971.2,7.7,20.9,146,33.4,30.5,7.5,458.0,213.0,15.6,3,5,7,1,2026-07-06T18:20:29.173476+05:30
Panipat,Haryana,29.3909,76.9635,33.7,63,0.0,970.0,6.75,27.7,118,35.4,31.9,9.2,310.0,184.0,28.3,3,5,7,1,2026-07-06T18:20:29.173483+05:30
Mathura,Uttar Pradesh,27.4924,77.6737,34.4,63,0.0,976.3,7.75,24.5,107,26.8,16.6,4.9,325.0,139.0,3.7,3,5,7,1,2026-07-06T18:20:29.173490+05:30
Vrindavan,Uttar Pradesh,27.5823,77.7027,34.5,62,0.0,976.8,7.8,25.2,107,26.8,16.6,4.9,278.0,139.0,3.7,3,5,7,1,2026-07-06T18:20:29.173497+05:30
Ayodhya,Uttar Pradesh,26.7922,82.1998,31.3,74,0.0,985.1,6.25,42.1,98,10.4,10.3,4.4,219.0,115.0,3.0,3,5,7,1,2026-07-06T18:20:29.173504+05:30
Ratlam,Madhya Pradesh,23.3315,75.0367,29.3,73,0.0,944.0,8.35,35.3,129,34.3,32.0,1.8,238.0,119.0,3.6,7,5,7,1,2026-07-06T18:20:29.173511+05:30
Sagar,Madhya Pradesh,23.8388,78.7378,26.8,90,0.1,939.5,8.0,27.4,75,10.6,10.2,1.4,191.0,114.0,2.2,10,5,7,1,2026-07-06T18:20:29.173518+05:30
Satna,Madhya Pradesh,24.6005,80.8322,26.8,90,0.1,960.3,5.2,33.8,77,7.4,7.3,6.1,222.0,97.0,3.6,10,5,3,1,2026-07-06T18:20:29.173525+05:30
Akola,Maharashtra,20.7002,77.0082,29.8,66,0.0,964.1,5.4,42.1,37,4.4,4.2,5.1,136.0,65.0,3.8,7,5,3,1,2026-07-06T18:20:29.173533+05:30
Amravati,Maharashtra,20.9374,77.7796,29.4,74,0.0,956.9,7.6,44.3,34,5.1,4.7,5.9,148.0,64.0,3.8,7,5,7,1,2026-07-06T18:20:29.173541+05:30
Latur,Maharashtra,18.4088,76.5604,27.0,73,0.0,931.3,4.1,55.1,29,10.6,5.6,1.7,122.0,61.0,1.2,7,5,3,1,2026-07-06T18:20:29.173548+05:30
Nanded,Maharashtra,19.1383,77.3091,27.5,87,0.0,959.1,6.3,46.4,27,18.2,10.1,3.1,142.0,68.0,2.9,7,5,7,1,2026-07-06T18:20:29.173555+05:30
Gulbarga,Karnataka,17.3297,76.8343,28.6,63,0.0,951.5,5.4,67.7,31,8.5,5.0,3.3,126.0,71.0,1.7,7,5,3,1,2026-07-06T18:20:29.173562+05:30
Bidar,Karnataka,17.9104,77.5199,27.5,66,0.0,927.6,6.7,58.7,29,16.9,9.3,3.0,129.0,74.0,1.6,7,5,7,1,2026-07-06T18:20:29.173569+05:30
Hospet,Karnataka,15.2689,76.3909,26.4,72,0.0,951.5,7.45,75.6,28,3.7,2.4,3.5,109.0,57.0,1.3,7,5,7,1,2026-07-06T18:20:29.173576+05:30
Tirupur,Tamil Nadu,11.1085,77.3411,27.2,71,0.0,972.4,8.85,74.5,52,18.4,11.7,4.4,132.0,71.0,2.2,7,5,7,1,2026-07-06T18:20:29.173583+05:30
Alappuzha,Kerala,9.4981,76.3388,28.5,78,0.0,1008.9,8.4,43.6,61,33.1,18.2,4.8,93.0,62.0,2.2,7,0,4,1,2026-07-06T18:20:29.173590+05:30
Munnar,Kerala,10.0889,77.0595,16.7,99,0.4,855.7,6.3,61.2,36,21.1,12.3,2.9,110.0,62.0,1.5,6,10,7,1,2026-07-06T18:20:29.173597+05:30
Silchar,Assam,24.8333,92.7789,28.4,89,0.0,999.5,4.6,37.8,51,7.7,7.5,4.8,216.0,56.0,2.3,7,5,3,1,2026-07-06T18:20:29.173604+05:30
Dibrugarh,Assam,27.4728,94.912,29.7,88,0.0,987.4,8.2,33.1,49,10.0,9.7,4.4,234.0,79.0,1.3,7,5,7,1,2026-07-06T18:20:29.173610+05:30
