city,state,latitude,longitude,temp,humidity,rain,pressure,uv_index,wind_gusts,aqi,pm10,pm2_5,no2,co,o3,so2,mosquito_risk,arthritis_risk,migraine_risk,frizz_risk,updated_at
Delhi,Delhi,28.6139,77.209,30.0,33,0.0,978.2,7.7,47.9,520,609.1,159.7,27.0,426.0,51.0,13.7,4,5,7,0,2026-05-17T04:20:27.678013+05:30
Mumbai,Maharashtra,19.076,72.8777,28.8,84,0.0,1004.7,7.85,45.0,59,39.7,15.2,7.0,164.0,48.0,3.0,7,5,4,1,2026-05-17T04:20:27.678059+05:30
Bangalore,Karnataka,12.9716,77.5946,22.5,92,0.0,907.6,9.35,35.3,158,136.9,104.3,90.2,487.0,12.0,27.7,3,5,7,1,2026-05-17T04:20:27.678074+05:30
Hyderabad,Telangana,17.385,78.4867,28.3,60,0.0,949.4,9.3,28.4,114,20.8,14.7,12.0,219.0,48.0,3.8,4,5,7,1,2026-05-17T04:20:27.678083+05:30
Chennai,Tamil Nadu,13.0827,80.2707,28.2,84,0.0,1002.7,9.15,41.8,36,17.0,13.2,12.3,215.0,71.0,9.2,7,5,4,1,2026-05-17T04:20:27.678091+05:30
Kolkata,West Bengal,22.5726,88.3639,28.0,90,0.0,1001.7,8.95,35.3,56,18.3,12.4,7.6,201.0,39.0,4.8,7,5,4,1,2026-05-17T04:20:27.678099+05:30
Pune,Maharashtra,18.5204,73.8567,25.5,84,0.0,944.4,8.5,42.1,69,34.9,24.6,23.8,222.0,43.0,23.9,7,5,7,1,2026-05-17T04:20:27.678106+05:30
Ahmedabad,Gujarat,23.0225,72.5714,31.2,55,0.0,997.9,8.15,31.0,61,26.8,15.0,4.3,145.0,51.0,3.0,0,5,7,1,2026-05-17T04:20:27.678113+05:30
Jaipur,Rajasthan,26.9124,75.7873,29.5,32,0.0,955.8,8.25,34.9,157,160.7,47.7,12.9,276.0,50.0,7.0,4,5,7,0,2026-05-17T04:20:27.678126+05:30
Lucknow,Uttar Pradesh,26.8467,80.9462,29.2,46,0.0,988.0,8.2,45.0,154,216.5,77.5,34.7,365.0,38.0,14.5,4,5,7,1,2026-05-17T04:20:27.678133+05:30
Kanpur,Uttar Pradesh,26.4499,80.3319,29.8,39,0.0,986.7,8.2,44.3,155,321.3,90.3,36.1,438.0,27.0,13.5,4,5,7,0,2026-05-17T04:20:27.678141+05:30
Chandigarh,Chandigarh,30.7333,76.7794,24.9,45,0.0,963.4,7.7,46.1,81,36.1,26.3,17.8,285.0,53.0,7.1,0,5,7,0,2026-05-17T04:20:27.678149+05:30
Srinagar,Jammu and Kashmir,34.0837,74.7973,11.3,96,0.0,839.8,8.9,16.2,82,47.0,43.2,30.0,448.0,22.0,1.0,3,10,7,0,2026-05-17T04:20:27.678159+05:30
Jammu,Jammu and Kashmir,32.7266,74.857,23.0,53,0.0,967.6,8.55,39.6,76,25.8,21.9,20.5,245.0,30.0,0.9,0,5,7,0,2026-05-17T04:20:27.678166+05:30
Amritsar,Punjab,31.634,74.8723,25.6,50,0.0,976.0,8.4,32.4,105,79.9,58.1,46.9,527.0,19.0,8.7,4,5,7,0,2026-05-17T04:20:27.678173+05:30
Ludhiana,Punjab,30.901,75.8573,25.6,50,0.0,973.9,8.0,37.1,104,57.3,37.7,15.4,480.0,59.0,7.8,4,5,7,0,2026-05-17T04:20:27.678179+05:30
Jalandhar,Punjab,31.326,75.5762,23.9,61,0.0,974.8,8.15,34.9,121,81.0,55.8,30.8,470.0,30.0,9.0,3,5,7,0,2026-05-17T04:20:27.678185+05:30
Dehradun,Uttarakhand,30.6284,78.0322,11.4,91,0.0,823.5,8.2,45.0,55,20.4,11.1,27.1,181.0,1.0,0.0,3,10,7,0,2026-05-17T04:20:27.678192+05:30
Shimla,Himachal Pradesh,31.1048,77.1734,12.3,54,0.0,779.7,8.25,51.8,66,38.9,19.4,20.6,173.0,41.0,0.9,0,5,7,0,2026-05-17T04:20:27.678200+05:30
Manali,Himachal Pradesh,32.2396,77.1887,7.6,59,0.0,811.0,9.65,37.8,42,7.2,5.4,12.0,211.0,125.0,0.0,0,5,7,0,2026-05-17T04:20:27.678207+05:30
Gurgaon,Haryana,28.4595,77.0266,27.2,43,0.0,976.7,7.8,45.7,732,659.4,156.0,31.9,453.0,41.0,17.1,4,5,7,0,2026-05-17T04:20:27.678213+05:30
Noida,Uttar Pradesh,28.5355,77.391,28.4,42,0.0,979.4,7.75,38.2,732,659.4,156.0,31.9,574.0,41.0,17.1,4,5,7,0,2026-05-17T04:20:27.678219+05:30
Ghaziabad,Uttar Pradesh,28.6692,77.4538,26.5,48,0.0,977.5,7.7,43.2,370,523.4,143.9,22.2,456.0,58.0,13.7,4,5,7,0,2026-05-17T04:20:27.678225+05:30
Faridabad,Haryana,28.4089,77.3178,30.4,32,0.0,978.9,7.75,47.9,732,659.4,156.0,31.9,478.0,41.0,17.1,0,5,7,0,2026-05-17T04:20:27.678231+05:30
Meerut,Uttar Pradesh,28.9845,77.7064,27.6,40,0.0,976.2,7.65,45.4,370,523.4,143.9,22.2,365.0,58.0,13.7,4,5,7,0,2026-05-17T04:20:27.678237+05:30
Agra,Uttar Pradesh,27.1767,78.0081,29.0,37,0.0,983.1,8.05,40.3,478,661.2,127.1,19.0,354.0,42.0,10.6,4,5,7,0,2026-05-17T04:20:27.678243+05:30
Varanasi,Uttar Pradesh,25.3176,82.9739,30.4,44,0.0,992.1,8.7,49.0,157,156.0,80.3,61.8,725.0,18.0,17.7,0,5,7,1,2026-05-17T04:20:27.678250+05:30
Prayagraj,Uttar Pradesh,25.4358,81.8463,29.5,50,0.0,990.8,8.6,40.7,154,169.0,82.2,61.5,475.0,9.0,16.6,4,5,7,1,2026-05-17T04:20:27.678257+05:30
Gorakhpur,Uttar Pradesh,26.7606,83.3732,24.9,86,0.0,991.7,8.6,36.4,148,87.1,64.5,41.6,614.0,25.0,10.6,3,5,7,1,2026-05-17T04:20:27.678266+05:30
Bareilly,Uttar Pradesh,28.367,79.4304,26.3,48,0.0,981.1,8.0,38.9,135,136.0,64.5,26.5,415.0,46.0,11.2,4,5,7,0,2026-05-17T04:20:27.678272+05:30
Aligarh,Uttar Pradesh,27.8974,78.088,27.7,41,0.0,980.5,7.85,46.1,448,732.0,164.8,29.8,519.0,34.0,17.9,4,5,7,0,2026-05-17T04:20:27.678278+05:30
Moradabad,Uttar Pradesh,28.8386,78.7733,26.5,43,0.0,978.1,7.85,47.9,153,209.1,85.0,30.2,383.0,32.0,9.4,4,5,7,0,2026-05-17T04:20:27.678285+05:30
Saharanpur,Uttar Pradesh,29.9637,77.546,25.9,47,0.0,970.3,7.35,51.8,120,64.5,39.7,23.8,347.0,60.0,10.4,4,5,7,0,2026-05-17T04:20:27.678291+05:30
Jhansi,Uttar Pradesh,25.4484,78.5685,29.6,41,0.0,974.0,8.5,32.4,92,112.5,40.2,11.3,265.0,55.0,6.4,4,5,7,0,2026-05-17T04:20:31.064295+05:30
Surat,Gujarat,21.1702,72.8311,29.0,90,0.0,1002.3,7.75,38.5,86,30.9,21.9,32.9,305.0,19.0,47.0,7,5,4,1,2026-05-17T04:20:31.064327+05:30
Vadodara,Gujarat,22.3072,73.1812,30.2,62,0.0,1000.0,8.1,29.5,74,34.9,24.2,22.2,197.0,24.0,16.0,3,5,4,1,2026-05-17T04:20:31.064360+05:30
Rajkot,Gujarat,22.3039,70.8022,26.1,92,0.0,991.3,7.55,40.7,52,27.2,9.9,6.8,120.0,38.0,4.3,7,5,7,1,2026-05-17T04:20:31.064370+05:30
Thane,Maharashtra,19.2183,72.9781,28.4,87,0.0,1004.1,7.8,38.5,59,39.7,15.2,7.0,139.0,48.0,3.0,7,5,4,1,2026-05-17T04:20:31.064378+05:30
Nagpur,Maharashtra,21.1458,79.0882,31.9,48,0.0,969.2,9.0,41.8,119,46.2,39.1,12.6,244.0,85.0,27.1,0,5,7,1,2026-05-17T04:20:31.064386+05:30
Nashik,Maharashtra,19.9975,73.7898,24.8,72,0.0,942.2,8.2,41.8,58,41.7,20.4,15.6,209.0,37.0,2.8,3,5,7,1,2026-05-17T04:20:31.064394+05:30
Aurangabad,Maharashtra,19.8762,75.3433,30.5,29,0.0,940.2,9.1,38.2,57,36.7,20.5,8.6,165.0,91.0,7.7,0,5,7,0,2026-05-17T04:20:31.064401+05:30
Solapur,Maharashtra,17.6599,75.9064,29.5,49,0.0,952.5,9.1,35.3,73,47.5,38.8,24.1,346.0,46.0,9.1,4,5,7,1,2026-05-17T04:20:31.064410+05:30
Kolhapur,Maharashtra,16.705,74.2433,24.8,94,0.0,944.0,8.95,45.7,67,21.4,15.0,8.9,152.0,46.0,3.4,3,5,7,1,2026-05-17T04:20:31.064417+05:30
Goa,Goa,15.2993,74.124,27.7,88,0.0,993.7,8.9,37.1,62,36.7,21.8,6.8,297.0,44.0,1.7,7,5,7,1,2026-05-17T04:20:31.064424+05:30
Jodhpur,Rajasthan,26.2389,73.0243,32.0,28,0.0,978.8,8.45,31.3,112,136.0,30.9,5.8,176.0,60.0,3.2,0,5,7,0,2026-05-17T04:20:31.064431+05:30
Udaipur,Rajasthan,24.5854,73.7125,29.8,35,0.0,943.1,8.85,29.5,58,38.5,17.6,5.8,164.0,40.0,2.7,4,5,7,0,2026-05-17T04:20:31.064439+05:30
Kota,Rajasthan,25.2138,75.8648,30.9,33,0.0,974.6,8.4,35.3,79,86.4,33.6,11.2,269.0,44.0,4.0,0,5,7,0,2026-05-17T04:20:31.064446+05:30
Bikaner,Rajasthan,28.0229,73.3119,30.1,27,0.0,977.3,8.4,34.6,102,99.4,31.4,4.0,259.0,45.0,1.8,0,5,7,0,2026-05-17T04:20:31.064453+05:30
Ajmer,Rajasthan,26.4499,74.6399,30.8,28,0.0,951.3,8.4,34.6,90,90.3,33.9,11.0,173.0,41.0,3.8,0,5,7,0,2026-05-17T04:20:31.064461+05:30
Gwalior,Madhya Pradesh,26.2183,78.1828,30.0,40,0.0,978.9,8.25,44.6,131,504.8,98.0,15.4,361.0,59.0,9.9,4,5,7,0,2026-05-17T04:20:31.064468+05:30
Indore,Madhya Pradesh,22.7196,75.8577,29.7,30,0.0,944.6,8.7,38.5,53,30.0,17.6,4.6,249.0,73.0,3.6,4,5,7,0,2026-05-17T04:20:31.064476+05:30
Bhopal,Madhya Pradesh,23.2599,77.4126,31.0,29,0.0,949.6,8.75,33.5,57,32.9,22.4,9.3,237.0,49.0,4.7,0,5,7,0,2026-05-17T04:20:31.064483+05:30
Jabalpur,Madhya Pradesh,23.1815,79.9864,31.0,46,0.0,957.1,8.9,35.6,110,66.6,45.4,36.4,275.0,37.0,8.7,0,5,7,1,2026-05-17T04:20:31.064491+05:30
Ujjain,Madhya Pradesh,23.1765,75.7885,29.2,33,0.0,950.0,8.65,34.6,55,33.3,19.2,3.8,259.0,75.0,3.7,4,5,7,0,2026-05-17T04:20:31.064498+05:30
Visakhapatnam,Andhra Pradesh,17.6868,83.2185,28.0,90,0.0,1000.1,8.65,45.4,60,15.9,12.9,21.2,333.0,41.0,36.2,7,5,4,1,2026-05-17T04:20:31.064506+05:30
Vijayawada,Andhra Pradesh,16.5062,80.648,28.9,84,0.0,998.4,9.2,33.5,46,16.9,15.1,11.5,237.0,48.0,5.0,7,5,7,1,2026-05-17T04:20:31.064513+05:30
Guntur,Andhra Pradesh,16.3067,80.4365,28.8,85,0.0,999.5,9.25,33.8,47,13.8,11.9,9.4,224.0,51.0,3.2,7,5,7,1,2026-05-17T04:20:31.064520+05:30
Nellore,Andhra Pradesh,14.4426,79.9865,28.5,86,0.0,1001.3,9.2,38.2,37,11.7,8.8,6.2,233.0,70.0,4.6,7,5,4,1,2026-05-17T04:20:31.064528+05:30
Kurnool,Andhra Pradesh,15.8281,78.0373,30.2,67,0.0,972.6,9.2,33.5,99,13.5,9.0,6.1,140.0,59.0,3.0,3,5,7,1,2026-05-17T04:20:31.064536+05:30
Kakinada,Andhra Pradesh,16.9891,82.2475,28.7,86,0.0,1003.6,9.15,39.2,32,9.6,6.5,3.0,323.0,72.0,1.9,7,5,4,1,2026-05-17T04:20:31.064544+05:30
Tirupati,Andhra Pradesh,13.6288,79.4192,27.3,85,0.0,987.0,9.2,36.7,53,22.3,19.7,32.2,356.0,14.0,12.5,7,5,7,1,2026-05-17T04:20:31.064551+05:30
Warangal,Telangana,17.9689,79.5941,28.3,76,0.0,974.4,9.05,30.6,82,14.3,12.4,11.2,210.0,46.0,7.3,7,5,7,1,2026-05-17T04:20:31.064558+05:30
Nizamabad,Telangana,18.6725,78.0941,29.0,56,0.0,960.6,9.1,33.1,88,46.4,37.7,13.7,349.0,63.0,6.9,4,5,7,1,2026-05-17T04:20:31.064565+05:30
Mysore,Karnataka,12.2958,76.6396,21.6,97,0.0,923.9,9.3,28.4,114,38.2,30.6,14.8,403.0,66.0,3.7,3,5,7,1,2026-05-17T04:20:31.064573+05:30
Mangalore,Karnataka,12.9141,74.856,25.6,96,0.0,1002.1,8.5,40.3,63,26.0,17.9,8.8,353.0,31.0,2.2,7,5,4,1,2026-05-17T04:20:31.064580+05:30
Hubli-Dharwad,Karnataka,15.3647,75.124,24.6,90,0.0,937.0,9.15,46.4,61,13.7,9.0,5.8,164.0,35.0,1.4,3,5,7,1,2026-05-17T04:20:31.064587+05:30
Belgaum,Karnataka,15.8497,74.4977,22.6,98,0.0,921.8,9.15,42.5,66,21.4,15.2,8.7,167.0,36.0,1.5,3,5,7,1,2026-05-17T04:20:34.429422+05:30
Coimbatore,Tamil Nadu,11.0168,76.9558,23.8,95,0.0,957.5,9.05,54.4,94,36.8,28.3,8.7,292.0,65.0,5.0,3,5,7,1,2026-05-17T04:20:34.429454+05:30
Madurai,Tamil Nadu,9.9252,78.1198,28.0,82,0.0,988.8,8.4,33.8,86,59.0,53.3,41.3,647.0,22.0,4.8,7,5,7,1,2026-05-17T04:20:34.429465+05:30
Trichy,Tamil Nadu,10.7905,78.7047,26.7,87,0.0,995.4,8.1,33.8,80,42.5,36.4,33.4,399.0,37.0,7.4,7,5,7,1,2026-05-17T04:20:34.429474+05:30
Salem,Tamil Nadu,11.6643,78.146,26.3,82,0.0,973.2,8.6,25.2,136,62.4,46.8,27.2,432.0,44.0,12.2,7,5,7,1,2026-05-17T04:20:34.429482+05:30
Tirunelveli,Tamil Nadu,8.7139,77.7567,28.4,72,0.0,998.6,8.75,25.6,53,11.1,9.8,6.6,387.0,58.0,2.0,7,5,7,1,2026-05-17T04:20:34.429491+05:30
Vellore,Tamil Nadu,12.9165,79.1325,26.2,91,0.0,980.3,8.75,26.6,73,31.8,29.5,23.5,360.0,32.0,7.7,7,5,7,1,2026-05-17T04:20:34.429498+05:30
Erode,Tamil Nadu,11.341,77.7172,25.6,88,0.0,984.9,8.55,43.6,117,63.6,47.3,48.4,315.0,21.0,6.3,7,5,7,1,2026-05-17T04:20:34.429506+05:30
Kochi,Kerala,9.9312,76.2673,26.6,92,0.0,1004.6,8.55,31.7,66,28.8,24.9,23.8,242.0,11.0,5.3,7,5,4,1,2026-05-17T04:20:34.429513+05:30
Thiruvananthapuram,Kerala,8.5241,76.9366,25.6,91,0.0,1004.0,8.5,31.3,47,20.0,12.6,4.7,242.0,87.0,3.0,7,5,4,1,2026-05-17T04:20:34.429521+05:30
Kozhikode,Kerala,11.2588,75.7804,25.8,92,0.0,1003.5,8.9,34.6,59,22.4,15.4,3.2,522.0,76.0,2.1,7,5,4,1,2026-05-17T04:20:34.429528+05:30
Thrissur,Kerala,10.5276,76.2144,25.5,96,0.0,1003.1,8.85,30.6,74,34.5,29.1,20.0,340.0,25.0,4.6,7,5,4,1,2026-05-17T04:20:34.429536+05:30
Kannur,Kerala,11.8745,75.3704,25.0,95,0.0,1002.6,8.6,37.1,63,28.5,24.3,15.2,395.0,32.0,2.7,7,5,4,1,2026-05-17T04:20:34.429543+05:30
Patna,Bihar,25.5941,85.1376,26.8,87,0.0,995.1,8.8,33.1,154,68.9,64.0,27.3,479.0,49.0,14.5,7,5,7,1,2026-05-17T04:20:34.429550+05:30
Gaya,Bihar,24.7914,85.0002,27.8,46,0.0,988.5,8.85,43.6,152,184.4,76.6,40.7,509.0,42.0,12.9,4,5,7,0,2026-05-17T04:20:34.429557+05:30
Muzaffarpur,Bihar,26.1209,85.3647,25.5,86,0.0,995.5,8.8,27.4,152,56.3,52.7,18.7,509.0,63.0,12.0,7,5,7,1,2026-05-17T04:20:34.429564+05:30
Bhagalpur,Bihar,25.2425,87.0117,25.2,89,0.0,996.2,8.8,26.6,145,58.8,53.0,19.7,455.0,57.0,13.4,7,5,7,1,2026-05-17T04:20:34.429571+05:30
Ranchi,Jharkhand,23.3441,85.3096,25.1,69,0.0,934.3,9.3,35.3,135,64.5,54.7,18.5,319.0,77.0,18.8,7,5,7,1,2026-05-17T04:20:34.429578+05:30
Jamshedpur,Jharkhand,22.8046,86.2029,27.0,78,0.0,987.1,9.1,35.6,121,31.7,25.2,16.6,268.0,54.0,20.0,7,5,7,1,2026-05-17T04:20:34.429584+05:30
Dhanbad,Jharkhand,23.7957,86.4304,27.1,62,0.0,975.3,9.05,43.9,159,88.5,73.8,58.0,971.0,34.0,106.1,7,5,7,1,2026-05-17T04:20:34.429592+05:30
Bokaro,Jharkhand,23.6693,86.1511,27.9,62,0.0,979.2,9.05,38.9,157,111.8,78.7,54.9,383.0,20.0,60.6,7,5,7,1,2026-05-17T04:20:34.429599+05:30
Bhubaneswar,Odisha,20.2961,85.8245,28.4,89,0.0,998.8,9.15,44.6,42,12.6,8.5,5.7,164.0,48.0,2.0,7,5,7,1,2026-05-17T04:20:34.429606+05:30
Cuttack,Odisha,20.4625,85.8828,28.3,89,0.0,1000.6,9.2,44.6,42,12.6,8.5,5.7,179.0,48.0,2.0,7,5,4,1,2026-05-17T04:20:34.429612+05:30
Rourkela,Odisha,22.2604,84.8536,27.3,85,0.0,981.7,9.05,37.1,147,40.7,32.1,18.5,288.0,54.0,20.7,7,5,7,1,2026-05-17T04:20:34.429619+05:30
Raipur,Chhattisgarh,21.2514,81.6296,29.0,64,0.0,970.7,9.0,34.2,155,51.1,42.7,24.6,451.0,56.0,32.9,7,5,7,1,2026-05-17T04:20:34.429626+05:30
Bhilai,Chhattisgarh,21.1938,81.3509,28.7,68,0.0,971.2,9.05,34.9,156,51.5,43.0,26.4,689.0,58.0,41.4,7,5,7,1,2026-05-17T04:20:34.429632+05:30
Guwahati,Assam,26.1158,91.7086,22.1,99,0.7,998.7,8.75,23.8,60,15.5,12.7,4.7,317.0,92.0,2.7,6,5,7,1,2026-05-17T04:20:34.429640+05:30
Agartala,Tripura,23.8315,91.2868,25.5,96,0.0,1003.2,8.9,33.8,66,20.8,14.4,12.2,167.0,19.0,2.3,7,5,4,1,2026-05-17T04:20:34.429647+05:30
Shillong,Meghalaya,25.5788,91.8933,18.6,95,0.0,853.9,9.1,45.7,45,8.8,6.5,4.7,249.0,84.0,3.3,3,10,7,1,2026-05-17T04:20:34.429653+05:30
Imphal,Manipur,24.817,93.9368,20.2,99,0.0,920.7,9.0,35.6,71,15.8,12.9,8.3,300.0,46.0,2.5,3,5,7,1,2026-05-17T04:20:34.429661+05:30
Aizawl,Mizoram,23.7271,92.7176,17.8,96,0.0,889.4,9.05,34.6,51,7.6,4.2,3.3,139.0,48.0,1.9,3,10,7,1,2026-05-17T04:20:34.429668+05:30
Kohima,Nagaland,25.6701,94.1077,15.4,96,0.0,851.1,9.2,26.3,55,12.8,8.9,4.0,231.0,59.0,1.4,3,10,7,0,2026-05-17T04:20:34.429675+05:30
Gangtok,Sikkim,27.3314,88.6138,14.4,86,0.0,832.6,8.65,39.6,52,14.3,12.7,13.3,605.0,76.0,1.9,3,10,7,0,2026-05-17T04:20:34.429682+05:30
Siliguri,West Bengal,26.7271,88.3953,21.8,98,0.0,989.4,8.7,30.6,75,23.5,18.0,10.3,319.0,104.0,3.2,3,5,7,1,2026-05-17T04:20:37.810145+05:30
Durgapur,West Bengal,23.5204,87.3119,27.4,85,0.0,990.5,8.95,40.7,151,41.0,36.6,29.8,577.0,33.0,36.8,7,5,7,1,2026-05-17T04:20:37.810178+05:30
Asansol,West Bengal,23.6739,86.9524,27.5,80,0.0,988.9,9.0,36.0,152,61.2,53.3,41.8,368.0,37.0,59.3,7,5,7,1,2026-05-17T04:20:37.810189+05:30
Pondicherry,Puducherry,11.9139,79.8145,26.8,88,0.0,1004.1,8.75,42.1,64,26.1,19.2,11.7,342.0,76.0,12.1,7,5,4,1,2026-05-17T04:20:37.810198+05:30
Port Blair,Andaman and Nicobar Islands,11.6234,92.7265,25.3,94,0.1,1004.9,1.25,42.1,27,9.7,5.8,0.2,109.0,52.0,0.2,10,5,0,1,2026-05-17T04:20:37.810206+05:30
Haridwar,Uttarakhand,29.9457,78.1642,20.8,78,0.0,968.1,7.55,39.6,93,62.6,52.7,42.6,307.0,10.0,6.2,3,5,7,1,2026-05-17T04:20:37.810214+05:30
Rishikesh,Uttarakhand,30.0869,78.2676,19.3,80,0.0,960.7,7.65,34.2,81,49.0,35.7,22.3,326.0,50.0,4.5,3,5,7,0,2026-05-17T04:20:37.810222+05:30
Nainital,Uttarakhand,29.3919,79.4542,13.4,64,0.0,800.2,8.5,38.2,82,46.9,31.0,17.6,229.0,79.0,4.8,3,5,7,0,2026-05-17T04:20:37.810229+05:30
Mussoorie,Uttarakhand,30.4599,78.0664,13.3,65,0.0,797.5,8.05,51.8,83,47.7,36.1,44.5,190.0,10.0,4.7,3,5,7,0,2026-05-17T04:20:37.810236+05:30
Dharamshala,Himachal Pradesh,32.219,76.3234,20.0,42,0.0,865.2,8.4,43.9,47,13.4,9.5,12.2,179.0,43.0,0.1,0,5,7,0,2026-05-17T04:20:37.810243+05:30
Dalhousie,Himachal Pradesh,32.5387,75.971,9.6,78,0.0,797.3,8.65,38.9,67,27.8,22.6,36.2,263.0,5.0,0.8,3,5,7,0,2026-05-17T04:20:37.810251+05:30
Patiala,Punjab,30.3398,76.3869,26.4,46,0.0,973.3,7.6,43.9,397,665.0,110.6,11.6,506.0,69.0,7.6,4,5,7,0,2026-05-17T04:20:37.810258+05:30
Bhatinda,Punjab,30.211,74.9455,28.8,43,0.0,978.9,8.25,38.9,94,66.4,30.9,8.3,384.0,76.0,7.8,4,5,7,0,2026-05-17T04:20:37.810265+05:30
Rohtak,Haryana,28.8955,76.6066,26.8,46,0.0,976.9,7.75,44.6,612,670.6,152.3,22.6,408.0,50.0,7.3,4,5,7,0,2026-05-17T04:20:37.810272+05:30
Panipat,Haryana,29.3909,76.9635,27.0,44,0.0,975.4,7.6,50.8,1273,1292.7,231.0,12.3,351.0,70.0,7.1,4,5,7,0,2026-05-17T04:20:37.810280+05:30
Mathura,Uttar Pradesh,27.4924,77.6737,27.8,41,0.0,981.9,8.0,40.0,510,629.6,135.0,20.8,349.0,42.0,10.5,4,5,7,0,2026-05-17T04:20:37.810287+05:30
Vrindavan,Uttar Pradesh,27.5823,77.7027,26.9,45,0.0,982.3,7.95,38.2,510,629.6,135.0,20.8,355.0,42.0,10.5,4,5,7,0,2026-05-17T04:20:37.810294+05:30
Ayodhya,Uttar Pradesh,26.7922,82.1998,25.9,65,0.0,989.8,8.35,38.9,154,148.5,64.3,31.2,412.0,34.0,11.2,7,5,7,1,2026-05-17T04:20:37.810301+05:30
Ratlam,Madhya Pradesh,23.3315,75.0367,28.1,37,0.0,950.6,8.55,31.7,57,38.3,20.8,3.8,180.0,77.0,4.2,4,5,7,0,2026-05-17T04:20:37.810309+05:30
Sagar,Madhya Pradesh,23.8388,78.7378,30.3,33,0.0,945.8,8.75,37.8,73,46.4,23.0,23.1,250.0,49.0,4.4,0,5,7,0,2026-05-17T04:20:37.810315+05:30
Satna,Madhya Pradesh,24.6005,80.8322,30.9,34,0.0,967.1,8.8,45.0,110,100.4,39.3,30.0,404.0,57.0,5.3,0,5,7,0,2026-05-17T04:20:37.810322+05:30
Akola,Maharashtra,20.7002,77.0082,32.2,29,0.0,970.5,8.9,34.6,55,25.3,17.1,9.0,233.0,67.0,5.1,0,5,7,0,2026-05-17T04:20:37.810361+05:30
Amravati,Maharashtra,20.9374,77.7796,31.0,39,0.0,962.6,8.95,31.0,55,24.4,17.3,11.9,299.0,64.0,4.2,0,5,7,0,2026-05-17T04:20:37.810377+05:30
Latur,Maharashtra,18.4088,76.5604,29.0,53,0.0,936.2,9.1,34.2,63,41.2,30.3,34.4,483.0,54.0,12.8,4,5,7,1,2026-05-17T04:20:37.810386+05:30
Nanded,Maharashtra,19.1383,77.3091,30.8,49,0.0,964.4,9.05,34.2,72,32.5,26.6,26.0,558.0,34.0,5.6,0,5,7,1,2026-05-17T04:20:37.810393+05:30
Gulbarga,Karnataka,17.3297,76.8343,29.5,54,0.0,954.5,9.15,35.3,80,45.9,35.5,14.0,332.0,59.0,11.3,4,5,7,1,2026-05-17T04:20:37.810400+05:30
Bidar,Karnataka,17.9104,77.5199,28.0,58,0.0,931.7,9.15,33.8,86,45.2,35.5,11.5,306.0,66.0,4.4,4,5,7,1,2026-05-17T04:20:37.810407+05:30
Hospet,Karnataka,15.2689,76.3909,25.9,88,0.0,951.9,9.2,51.5,92,15.4,12.9,11.6,252.0,45.0,2.5,7,5,7,1,2026-05-17T04:20:37.810414+05:30
Tirupur,Tamil Nadu,11.1085,77.3411,25.0,87,0.0,971.1,8.65,53.6,117,52.3,40.3,32.8,249.0,47.0,7.1,7,5,7,1,2026-05-17T04:20:37.810421+05:30
Alappuzha,Kerala,9.4981,76.3388,26.2,93,0.2,1004.7,8.3,32.8,59,27.4,20.4,13.5,249.0,59.0,6.8,10,5,4,1,2026-05-17T04:20:37.810428+05:30
Munnar,Kerala,10.0889,77.0595,17.6,96,0.0,852.7,7.3,23.0,66,24.7,18.3,16.7,232.0,11.0,1.2,3,10,7,1,2026-05-17T04:20:37.810436+05:30
Silchar,Assam,24.8333,92.7789,23.5,98,0.2,1003.2,8.9,34.9,66,13.7,9.9,3.9,235.0,82.0,2.3,6,5,4,1,2026-05-17T04:20:37.810443+05:30
Dibrugarh,Assam,27.4728,94.912,21.5,98,0.2,993.7,8.4,24.1,66,17.2,12.4,6.8,241.0,73.0,0.9,6,5,7,1,2026-05-17T04:20:37.810450+05:30
