city,state,latitude,longitude,temp,humidity,rain,pressure,uv_index,wind_gusts,aqi,pm10,pm2_5,no2,co,o3,so2,mosquito_risk,arthritis_risk,migraine_risk,frizz_risk,updated_at
Delhi,Delhi,28.6139,77.209,32.3,72,0.0,976.2,7.4,20.2,151,59.4,44.6,17.6,507.0,154.0,32.2,3,5,7,1,2026-07-05T10:28:07.641999+05:30
Mumbai,Maharashtra,19.076,72.8777,26.4,92,0.8,999.9,0.85,72.0,29,5.0,3.7,5.2,157.0,51.0,3.8,10,5,3,1,2026-07-05T10:28:07.642037+05:30
Bangalore,Karnataka,12.9716,77.5946,25.0,64,0.0,911.2,5.15,70.6,19,6.4,4.0,5.8,239.0,45.0,3.1,7,5,3,1,2026-07-05T10:28:07.642053+05:30
Hyderabad,Telangana,17.385,78.4867,26.9,72,0.0,948.2,3.4,72.0,18,4.1,3.2,5.2,181.0,41.0,3.7,7,5,3,1,2026-07-05T10:28:07.642062+05:30
Chennai,Tamil Nadu,13.0827,80.2707,34.7,42,0.0,1004.8,8.25,56.5,43,10.6,7.0,5.9,155.0,61.0,8.9,0,5,4,1,2026-07-05T10:28:07.642071+05:30
Kolkata,West Bengal,22.5726,88.3639,29.3,82,0.1,994.6,7.6,41.8,42,10.6,8.9,3.8,217.0,89.0,7.5,10,5,7,1,2026-07-05T10:28:07.642079+05:30
Pune,Maharashtra,18.5204,73.8567,23.8,90,0.1,941.1,0.8,61.6,20,1.8,1.8,4.6,135.0,45.0,2.9,6,5,3,1,2026-07-05T10:28:07.642085+05:30
Ahmedabad,Gujarat,23.0225,72.5714,29.3,83,0.0,994.2,6.85,26.6,66,40.7,18.3,8.6,253.0,54.0,6.5,7,5,7,1,2026-07-05T10:28:07.642092+05:30
Jaipur,Rajasthan,26.9124,75.7873,31.5,70,0.0,953.1,7.35,23.0,95,34.9,14.7,5.2,340.0,127.0,6.0,3,5,7,1,2026-07-05T10:28:07.642098+05:30
Lucknow,Uttar Pradesh,26.8467,80.9462,33.1,71,0.0,986.6,7.7,31.3,92,30.6,30.0,5.5,323.0,132.0,7.0,3,5,7,1,2026-07-05T10:28:07.642110+05:30
Kanpur,Uttar Pradesh,26.4499,80.3319,30.7,78,0.1,985.0,8.1,28.4,85,32.7,26.2,4.9,282.0,130.0,6.6,6,5,7,1,2026-07-05T10:28:07.642117+05:30
Chandigarh,Chandigarh,30.7333,76.7794,32.1,68,0.0,962.5,7.1,26.6,151,57.7,54.4,6.0,505.0,165.0,18.0,3,5,7,1,2026-07-05T10:28:07.642124+05:30
Srinagar,Jammu and Kashmir,34.0837,74.7973,27.6,46,0.0,840.0,9.05,26.3,85,37.8,26.7,4.4,460.0,155.0,8.2,4,5,7,0,2026-07-05T10:28:07.642131+05:30
Jammu,Jammu and Kashmir,32.7266,74.857,32.1,68,0.0,966.0,8.5,36.0,123,65.7,51.5,5.0,338.0,173.0,7.6,3,5,7,1,2026-07-05T10:28:07.642137+05:30
Amritsar,Punjab,31.634,74.8723,30.7,80,0.0,973.8,8.4,54.7,155,91.3,73.8,10.3,444.0,142.0,11.9,3,5,7,1,2026-07-05T10:28:07.642143+05:30
Ludhiana,Punjab,30.901,75.8573,31.5,75,0.0,971.9,7.8,31.7,171,96.9,87.3,13.4,536.0,146.0,18.7,3,5,7,1,2026-07-05T10:28:07.642149+05:30
Jalandhar,Punjab,31.326,75.5762,31.5,76,0.0,973.0,7.45,20.9,170,92.7,82.9,12.4,451.0,146.0,9.4,3,5,7,1,2026-07-05T10:28:07.642155+05:30
Dehradun,Uttarakhand,30.6284,78.0322,24.5,69,0.0,829.1,7.25,27.4,47,7.1,7.0,0.4,240.0,123.0,0.5,3,5,7,1,2026-07-05T10:28:07.642161+05:30
Shimla,Himachal Pradesh,31.1048,77.1734,23.6,57,0.0,784.7,6.65,36.7,61,12.3,11.9,1.1,253.0,126.0,1.1,0,5,7,0,2026-07-05T10:28:07.642167+05:30
Manali,Himachal Pradesh,32.2396,77.1887,26.9,54,0.0,818.4,9.4,34.9,43,3.0,2.9,5.5,216.0,108.0,0.5,4,5,7,1,2026-07-05T10:28:07.642175+05:30
Gurgaon,Haryana,28.4595,77.0266,32.3,71,0.1,974.7,5.85,23.8,146,55.8,40.5,11.4,468.0,143.0,19.0,6,5,3,1,2026-07-05T10:28:07.642181+05:30
Noida,Uttar Pradesh,28.5355,77.391,32.4,73,0.0,977.5,6.55,20.5,146,55.8,40.5,11.4,445.0,143.0,19.0,3,5,7,1,2026-07-05T10:28:07.642187+05:30
Ghaziabad,Uttar Pradesh,28.6692,77.4538,32.1,74,0.0,976.0,7.05,22.7,120,36.6,36.2,7.6,367.0,147.0,14.9,3,5,7,1,2026-07-05T10:28:07.642196+05:30
Faridabad,Haryana,28.4089,77.3178,32.3,71,0.0,977.0,5.8,22.7,146,55.8,40.5,11.4,459.0,143.0,19.0,3,5,3,1,2026-07-05T10:28:07.642202+05:30
Meerut,Uttar Pradesh,28.9845,77.7064,31.6,76,0.0,975.0,7.65,24.5,120,36.6,36.2,7.6,371.0,147.0,14.9,3,5,7,1,2026-07-05T10:28:07.642208+05:30
Agra,Uttar Pradesh,27.1767,78.0081,31.8,75,0.0,980.9,8.05,32.0,93,92.7,34.5,8.5,344.0,114.0,8.1,3,5,7,1,2026-07-05T10:28:07.642214+05:30
Varanasi,Uttar Pradesh,25.3176,82.9739,35.4,55,0.0,989.1,6.25,45.0,77,24.3,23.8,4.7,288.0,135.0,12.4,0,5,10,1,2026-07-05T10:28:07.642221+05:30
Prayagraj,Uttar Pradesh,25.4358,81.8463,33.7,65,0.0,988.1,8.05,35.3,86,25.1,24.6,5.4,287.0,131.0,8.2,3,5,7,1,2026-07-05T10:28:07.642228+05:30
Gorakhpur,Uttar Pradesh,26.7606,83.3732,33.8,62,0.0,989.8,7.95,40.0,103,28.0,27.7,4.3,339.0,135.0,6.8,3,5,7,1,2026-07-05T10:28:07.642234+05:30
Bareilly,Uttar Pradesh,28.367,79.4304,29.8,81,0.0,980.9,7.15,27.7,96,26.8,26.4,5.9,308.0,135.0,10.2,7,5,7,1,2026-07-05T10:28:07.642242+05:30
Aligarh,Uttar Pradesh,27.8974,78.088,32.1,72,0.0,978.7,6.55,25.6,101,65.0,32.5,7.8,360.0,120.0,13.3,3,5,7,1,2026-07-05T10:28:07.642248+05:30
Moradabad,Uttar Pradesh,28.8386,78.7733,29.8,80,0.0,977.7,7.3,30.6,114,23.3,23.1,4.7,312.0,143.0,9.1,7,5,7,1,2026-07-05T10:28:07.642254+05:30
Saharanpur,Uttar Pradesh,29.9637,77.546,31.7,75,0.0,969.5,6.8,23.4,151,30.6,30.5,5.4,429.0,129.0,7.8,3,5,7,1,2026-07-05T10:28:07.642261+05:30
Jhansi,Uttar Pradesh,25.4484,78.5685,31.7,70,0.0,971.0,7.7,28.8,73,23.1,22.0,4.4,237.0,124.0,10.1,3,5,7,1,2026-07-05T10:28:10.983409+05:30
Surat,Gujarat,21.1702,72.8311,30.0,75,0.0,998.1,2.55,29.5,75,38.8,26.7,33.3,373.0,35.0,60.0,7,5,3,1,2026-07-05T10:28:10.983437+05:30
Vadodara,Gujarat,22.3072,73.1812,27.2,90,0.1,996.6,6.35,29.2,50,24.1,12.7,9.4,221.0,61.0,5.5,10,5,7,1,2026-07-05T10:28:10.983447+05:30
Rajkot,Gujarat,22.3039,70.8022,30.6,72,0.0,986.2,4.4,37.4,71,68.5,22.6,3.4,102.0,54.0,4.6,3,5,3,1,2026-07-05T10:28:10.983456+05:30
Thane,Maharashtra,19.2183,72.9781,25.9,95,0.5,998.9,0.8,56.5,29,5.0,3.7,5.2,173.0,51.0,3.8,10,5,3,1,2026-07-05T10:28:10.983465+05:30
Nagpur,Maharashtra,21.1458,79.0882,28.8,78,0.0,966.2,6.3,33.8,48,6.7,6.2,10.4,202.0,63.0,19.6,7,5,7,1,2026-07-05T10:28:10.983472+05:30
Nashik,Maharashtra,19.9975,73.7898,24.4,94,0.1,937.4,0.8,49.0,16,2.3,2.1,7.1,159.0,45.0,6.2,6,5,3,1,2026-07-05T10:28:10.983480+05:30
Aurangabad,Maharashtra,19.8762,75.3433,27.1,76,0.0,937.8,7.65,60.5,16,1.7,1.6,2.6,146.0,49.0,3.3,7,5,7,1,2026-07-05T10:28:10.983486+05:30
Solapur,Maharashtra,17.6599,75.9064,24.9,91,0.4,952.4,1.6,64.1,20,2.3,1.8,2.7,111.0,46.0,1.6,6,5,3,1,2026-07-05T10:28:10.983494+05:30
Kolhapur,Maharashtra,16.705,74.2433,23.1,94,0.4,943.7,3.5,61.2,21,2.9,2.4,3.1,120.0,46.0,1.1,6,5,3,1,2026-07-05T10:28:10.983501+05:30
Goa,Goa,15.2993,74.124,25.4,97,0.3,996.9,7.8,37.4,44,30.6,13.4,1.2,175.0,53.0,0.6,10,5,7,1,2026-07-05T10:28:10.983508+05:30
Jodhpur,Rajasthan,26.2389,73.0243,33.1,58,0.0,975.0,8.4,22.0,137,110.1,34.8,3.0,143.0,72.0,2.6,0,5,7,1,2026-07-05T10:28:10.983515+05:30
Udaipur,Rajasthan,24.5854,73.7125,30.5,62,0.0,939.6,8.1,27.7,68,63.6,21.6,2.6,170.0,81.0,4.7,3,5,7,1,2026-07-05T10:28:10.983521+05:30
Kota,Rajasthan,25.2138,75.8648,33.1,64,0.1,971.0,7.5,28.4,79,36.0,19.6,4.6,241.0,106.0,8.9,6,5,7,1,2026-07-05T10:28:10.983528+05:30
Bikaner,Rajasthan,28.0229,73.3119,37.0,41,0.0,973.7,8.25,24.5,118,195.6,55.6,1.9,227.0,74.0,5.7,0,5,10,1,2026-07-05T10:28:10.983535+05:30
Ajmer,Rajasthan,26.4499,74.6399,31.9,60,0.0,947.9,8.35,22.7,100,104.5,38.5,4.2,158.0,92.0,6.2,0,5,7,1,2026-07-05T10:28:10.983543+05:30
Gwalior,Madhya Pradesh,26.2183,78.1828,31.1,77,0.0,976.2,6.95,29.5,73,27.9,24.9,3.9,250.0,120.0,4.6,3,5,7,1,2026-07-05T10:28:10.983550+05:30
Indore,Madhya Pradesh,22.7196,75.8577,27.8,77,0.1,941.1,7.85,29.5,62,17.3,14.8,4.8,276.0,85.0,3.0,10,5,7,1,2026-07-05T10:28:10.983557+05:30
Bhopal,Madhya Pradesh,23.2599,77.4126,29.9,73,0.0,946.7,8.4,27.7,71,33.6,31.2,3.3,285.0,103.0,4.0,7,5,7,1,2026-07-05T10:28:10.983564+05:30
Jabalpur,Madhya Pradesh,23.1815,79.9864,29.3,75,0.0,954.2,8.25,25.6,78,23.3,23.1,2.3,218.0,119.0,5.5,7,5,7,1,2026-07-05T10:28:10.983571+05:30
Ujjain,Madhya Pradesh,23.1765,75.7885,29.1,74,0.1,946.7,8.45,28.1,60,15.7,12.6,2.9,237.0,87.0,2.8,10,5,7,1,2026-07-05T10:28:10.983578+05:30
Visakhapatnam,Andhra Pradesh,17.6868,83.2185,28.5,75,0.0,994.9,2.9,66.6,34,9.3,8.5,11.5,229.0,45.0,24.0,7,5,3,1,2026-07-05T10:28:10.983585+05:30
Vijayawada,Andhra Pradesh,16.5062,80.648,28.0,75,0.0,998.0,4.05,47.9,30,10.3,7.0,4.8,128.0,42.0,4.6,7,5,3,1,2026-07-05T10:28:10.983591+05:30
Guntur,Andhra Pradesh,16.3067,80.4365,29.0,67,0.0,999.3,3.1,51.8,27,8.8,6.3,4.9,125.0,40.0,4.2,7,5,3,1,2026-07-05T10:28:10.983598+05:30
Nellore,Andhra Pradesh,14.4426,79.9865,32.6,49,0.0,1002.5,2.75,53.3,25,7.1,4.3,3.7,120.0,48.0,3.4,0,5,0,1,2026-07-05T10:28:10.983606+05:30
Kurnool,Andhra Pradesh,15.8281,78.0373,29.3,62,0.0,973.7,2.7,73.8,19,5.6,3.3,2.2,106.0,49.0,2.4,7,5,3,1,2026-07-05T10:28:10.983615+05:30
Kakinada,Andhra Pradesh,16.9891,82.2475,28.8,73,0.0,1001.3,4.3,59.8,30,7.0,5.4,4.2,164.0,54.0,5.0,7,5,0,1,2026-07-05T10:28:10.983622+05:30
Tirupati,Andhra Pradesh,13.6288,79.4192,28.8,63,0.0,988.9,4.25,55.4,33,8.4,4.8,3.0,110.0,49.0,1.7,7,5,3,1,2026-07-05T10:28:10.983629+05:30
Warangal,Telangana,17.9689,79.5941,27.0,82,0.1,973.1,1.4,55.8,18,4.3,3.7,3.3,136.0,46.0,2.7,10,5,3,1,2026-07-05T10:28:10.983636+05:30
Nizamabad,Telangana,18.6725,78.0941,26.4,81,0.0,958.9,1.95,58.3,18,3.9,3.5,3.1,140.0,45.0,2.6,7,5,3,1,2026-07-05T10:28:10.983643+05:30
Mysore,Karnataka,12.2958,76.6396,24.6,73,0.0,928.9,7.4,64.1,20,5.2,2.9,2.7,113.0,49.0,1.5,3,5,7,1,2026-07-05T10:28:10.983649+05:30
Mangalore,Karnataka,12.9141,74.856,27.5,76,0.1,1008.0,6.55,59.4,48,24.0,12.5,2.7,98.0,47.0,1.7,10,0,4,1,2026-07-05T10:28:10.983656+05:30
Hubli-Dharwad,Karnataka,15.3647,75.124,22.7,92,0.1,938.4,5.5,62.6,21,9.0,4.8,2.4,106.0,47.0,0.7,6,5,3,1,2026-07-05T10:28:10.983663+05:30
Belgaum,Karnataka,15.8497,74.4977,22.4,95,0.2,922.4,2.85,60.1,22,2.0,1.5,2.6,112.0,47.0,0.9,6,5,3,1,2026-07-05T10:28:14.634461+05:30
Coimbatore,Tamil Nadu,11.0168,76.9558,26.5,73,0.0,962.4,8.35,55.4,19,9.4,4.4,2.2,142.0,50.0,1.9,7,5,7,1,2026-07-05T10:28:14.634493+05:30
Madurai,Tamil Nadu,9.9252,78.1198,33.3,44,0.0,992.6,7.3,70.6,43,15.0,8.9,5.3,113.0,54.0,3.9,0,5,7,1,2026-07-05T10:28:14.634505+05:30
Trichy,Tamil Nadu,10.7905,78.7047,33.6,44,0.0,999.0,8.6,74.5,30,10.7,6.6,4.9,115.0,46.0,3.1,0,5,7,1,2026-07-05T10:28:14.634513+05:30
Salem,Tamil Nadu,11.6643,78.146,29.9,59,0.0,977.2,8.2,41.8,42,12.9,8.5,4.7,135.0,65.0,7.3,4,5,7,1,2026-07-05T10:28:14.634521+05:30
Tirunelveli,Tamil Nadu,8.7139,77.7567,34.1,44,0.0,1003.3,8.6,49.0,25,14.3,7.2,1.8,108.0,56.0,1.6,0,5,4,1,2026-07-05T10:28:14.634529+05:30
Vellore,Tamil Nadu,12.9165,79.1325,32.9,44,0.0,982.6,8.35,58.7,28,7.4,4.4,2.1,113.0,59.0,2.4,0,5,7,1,2026-07-05T10:28:14.634536+05:30
Erode,Tamil Nadu,11.341,77.7172,31.5,52,0.0,988.9,7.75,61.9,32,7.9,5.1,2.6,131.0,56.0,2.6,0,5,7,1,2026-07-05T10:28:14.634543+05:30
Kochi,Kerala,9.9312,76.2673,29.3,74,0.0,1011.0,8.1,39.6,51,26.4,13.4,5.7,106.0,46.0,3.8,7,0,4,1,2026-07-05T10:28:14.634550+05:30
Thiruvananthapuram,Kerala,8.5241,76.9366,28.8,75,0.0,1010.3,8.2,48.2,39,27.4,13.0,2.0,98.0,51.0,0.9,7,0,4,1,2026-07-05T10:28:14.634557+05:30
Kozhikode,Kerala,11.2588,75.7804,25.8,92,0.1,1010.4,8.4,46.8,42,30.4,13.2,0.8,162.0,53.0,0.8,10,0,4,1,2026-07-05T10:28:14.634564+05:30
Thrissur,Kerala,10.5276,76.2144,26.4,93,0.0,1009.4,6.2,46.1,46,18.5,10.2,4.4,160.0,46.0,2.6,7,0,4,1,2026-07-05T10:28:14.634571+05:30
Kannur,Kerala,11.8745,75.3704,24.7,96,0.4,1009.4,7.3,50.8,41,22.1,11.0,2.2,138.0,52.0,1.6,6,0,4,1,2026-07-05T10:28:14.634577+05:30
Patna,Bihar,25.5941,85.1376,33.4,62,0.0,992.0,7.25,50.0,76,19.8,19.7,4.7,237.0,138.0,7.9,3,5,7,1,2026-07-05T10:28:14.634584+05:30
Gaya,Bihar,24.7914,85.0002,33.1,63,0.0,984.8,7.5,47.5,64,14.4,14.1,3.1,212.0,122.0,8.6,3,5,7,1,2026-07-05T10:28:14.634590+05:30
Muzaffarpur,Bihar,26.1209,85.3647,32.7,67,0.0,992.4,8.4,52.9,81,18.7,18.6,3.9,242.0,137.0,6.3,3,5,7,1,2026-07-05T10:28:14.634597+05:30
Bhagalpur,Bihar,25.2425,87.0117,32.5,63,0.0,992.5,8.45,49.3,62,6.4,6.2,3.7,196.0,95.0,6.8,3,5,7,1,2026-07-05T10:28:14.634604+05:30
Ranchi,Jharkhand,23.3441,85.3096,26.1,82,0.1,928.2,5.85,48.2,59,7.0,6.8,6.8,200.0,77.0,14.1,10,5,3,1,2026-07-05T10:28:14.634611+05:30
Jamshedpur,Jharkhand,22.8046,86.2029,27.4,87,0.0,979.5,6.85,47.9,52,10.4,10.2,8.0,213.0,75.0,13.2,7,5,7,1,2026-07-05T10:28:14.634617+05:30
Dhanbad,Jharkhand,23.7957,86.4304,30.2,71,0.0,970.1,6.2,51.8,69,11.3,10.8,10.1,182.0,81.0,26.2,3,5,7,1,2026-07-05T10:28:14.634624+05:30
Bokaro,Jharkhand,23.6693,86.1511,29.3,77,0.1,973.8,6.1,52.9,68,10.5,10.0,10.3,181.0,80.0,27.2,10,5,7,1,2026-07-05T10:28:14.634631+05:30
Bhubaneswar,Odisha,20.2961,85.8245,25.7,95,1.0,989.7,7.0,44.6,48,6.5,6.4,6.2,246.0,72.0,6.3,10,5,7,1,2026-07-05T10:28:14.634639+05:30
Cuttack,Odisha,20.4625,85.8828,26.4,95,1.0,990.9,7.5,41.0,48,6.5,6.4,6.2,242.0,72.0,6.3,10,5,7,1,2026-07-05T10:28:14.634646+05:30
Rourkela,Odisha,22.2604,84.8536,30.6,70,0.0,973.2,7.8,54.7,55,7.2,7.0,7.4,303.0,75.0,17.5,3,5,7,1,2026-07-05T10:28:14.634653+05:30
Raipur,Chhattisgarh,21.2514,81.6296,27.3,88,0.0,965.9,3.95,42.5,74,13.4,13.4,20.9,215.0,55.0,50.4,7,5,3,1,2026-07-05T10:28:14.634659+05:30
Bhilai,Chhattisgarh,21.1938,81.3509,26.3,89,0.1,966.6,5.4,45.0,68,10.2,10.2,14.9,408.0,61.0,38.7,10,5,3,1,2026-07-05T10:28:14.634666+05:30
Guwahati,Assam,26.1158,91.7086,32.6,67,0.0,994.0,8.4,38.2,30,7.0,6.9,2.4,207.0,81.0,1.9,3,5,7,1,2026-07-05T10:28:14.634673+05:30
Agartala,Tripura,23.8315,91.2868,27.8,96,0.2,998.1,1.65,49.0,31,5.5,5.2,2.7,125.0,73.0,1.0,10,5,3,1,2026-07-05T10:28:14.634679+05:30
Shillong,Meghalaya,25.5788,91.8933,25.1,73,0.0,854.7,7.95,42.5,21,2.3,2.2,2.0,136.0,61.0,1.0,7,5,7,1,2026-07-05T10:28:14.634685+05:30
Imphal,Manipur,24.817,93.9368,27.7,69,0.1,919.7,4.4,36.4,23,2.6,2.5,2.9,166.0,52.0,1.3,10,5,3,1,2026-07-05T10:28:14.634692+05:30
Aizawl,Mizoram,23.7271,92.7176,22.8,94,0.5,886.5,3.15,33.8,21,3.9,3.8,0.9,131.0,73.0,0.7,6,5,3,1,2026-07-05T10:28:14.634699+05:30
Kohima,Nagaland,25.6701,94.1077,26.4,65,0.0,853.2,8.2,32.0,21,2.3,2.2,0.8,132.0,66.0,0.6,7,5,7,1,2026-07-05T10:28:14.634705+05:30
Gangtok,Sikkim,27.3314,88.6138,23.7,65,0.1,836.1,8.5,29.9,49,11.3,10.1,0.7,182.0,110.0,1.2,6,5,7,1,2026-07-05T10:28:14.634712+05:30
Siliguri,West Bengal,26.7271,88.3953,31.0,72,0.1,986.5,8.7,38.9,73,10.9,10.4,1.4,259.0,111.0,2.1,6,5,7,1,2026-07-05T10:28:17.998538+05:30
Durgapur,West Bengal,23.5204,87.3119,30.2,74,0.0,984.4,7.65,50.4,59,9.6,9.3,7.9,205.0,79.0,13.5,3,5,7,1,2026-07-05T10:28:17.998569+05:30
Asansol,West Bengal,23.6739,86.9524,30.9,70,0.0,983.2,8.0,49.3,58,9.8,9.4,7.4,201.0,84.0,13.2,3,5,7,1,2026-07-05T10:28:17.998580+05:30
Pondicherry,Puducherry,11.9139,79.8145,32.4,53,0.0,1006.9,5.95,48.6,43,16.4,10.9,8.9,140.0,45.0,11.8,0,5,0,1,2026-07-05T10:28:17.998589+05:30
Port Blair,Andaman and Nicobar Islands,11.6234,92.7265,29.8,76,0.0,1007.3,6.25,47.2,51,15.8,8.9,0.3,93.0,51.0,0.3,7,5,4,1,2026-07-05T10:28:17.998597+05:30
Haridwar,Uttarakhand,29.9457,78.1642,32.6,67,0.0,968.1,6.95,31.0,108,19.9,19.8,3.1,316.0,125.0,6.3,3,5,7,1,2026-07-05T10:28:17.998605+05:30
Rishikesh,Uttarakhand,30.0869,78.2676,31.7,69,0.0,960.9,7.05,29.5,62,9.8,9.7,1.8,263.0,119.0,3.5,3,5,7,1,2026-07-05T10:28:17.998612+05:30
Nainital,Uttarakhand,29.3919,79.4542,22.2,74,0.0,805.0,6.7,25.9,44,7.8,7.7,1.7,227.0,114.0,1.5,3,5,7,1,2026-07-05T10:28:17.998620+05:30
Mussoorie,Uttarakhand,30.4599,78.0664,23.1,67,0.0,802.6,7.2,32.0,83,22.6,22.5,3.4,265.0,151.0,7.7,3,5,7,1,2026-07-05T10:28:17.998627+05:30
Dharamshala,Himachal Pradesh,32.219,76.3234,25.7,77,0.0,866.3,8.25,36.4,40,5.6,5.0,1.2,328.0,107.0,0.5,7,5,7,1,2026-07-05T10:28:17.998635+05:30
Dalhousie,Himachal Pradesh,32.5387,75.971,21.8,85,0.0,803.5,8.05,21.6,71,10.7,9.7,3.5,337.0,143.0,1.5,3,5,7,1,2026-07-05T10:28:17.998643+05:30
Patiala,Punjab,30.3398,76.3869,32.4,69,0.0,971.6,7.1,20.9,165,111.3,87.1,11.1,488.0,143.0,18.6,3,5,7,1,2026-07-05T10:28:17.998651+05:30
Bhatinda,Punjab,30.211,74.9455,34.4,57,0.0,976.5,7.15,36.0,157,103.1,54.8,8.1,430.0,143.0,11.4,0,5,7,1,2026-07-05T10:28:17.998658+05:30
Rohtak,Haryana,28.8955,76.6066,32.7,70,0.0,975.0,7.55,23.0,157,150.4,62.6,12.3,430.0,158.0,28.2,3,5,7,1,2026-07-05T10:28:17.998665+05:30
Panipat,Haryana,29.3909,76.9635,32.6,72,0.0,973.7,7.5,23.4,165,173.7,68.7,14.1,520.0,140.0,33.6,3,5,7,1,2026-07-05T10:28:17.998672+05:30
Mathura,Uttar Pradesh,27.4924,77.6737,31.6,74,0.0,979.9,7.35,32.0,108,45.1,30.5,8.4,352.0,113.0,6.9,3,5,7,1,2026-07-05T10:28:17.998679+05:30
Vrindavan,Uttar Pradesh,27.5823,77.7027,31.6,74,0.0,980.3,7.3,30.6,108,45.1,30.5,8.4,354.0,113.0,6.9,3,5,7,1,2026-07-05T10:28:17.998686+05:30
Ayodhya,Uttar Pradesh,26.7922,82.1998,31.5,75,0.0,988.3,7.5,41.0,99,34.7,34.6,4.9,328.0,138.0,7.8,3,5,7,1,2026-07-05T10:28:17.998693+05:30
Ratlam,Madhya Pradesh,23.3315,75.0367,29.4,70,0.0,947.4,8.3,27.0,52,11.9,9.1,2.3,170.0,88.0,2.9,7,5,7,1,2026-07-05T10:28:17.998700+05:30
Sagar,Madhya Pradesh,23.8388,78.7378,29.9,72,0.0,943.7,8.55,25.9,75,15.7,15.4,1.5,219.0,120.0,3.2,7,5,7,1,2026-07-05T10:28:17.998707+05:30
Satna,Madhya Pradesh,24.6005,80.8322,31.7,66,0.0,964.1,8.15,31.0,64,15.0,14.6,2.3,204.0,116.0,4.4,3,5,7,1,2026-07-05T10:28:17.998714+05:30
Akola,Maharashtra,20.7002,77.0082,29.2,66,0.0,968.4,7.55,45.7,21,4.8,4.3,7.4,142.0,44.0,10.4,7,5,7,1,2026-07-05T10:28:17.998722+05:30
Amravati,Maharashtra,20.9374,77.7796,27.0,82,0.1,960.9,7.2,37.1,21,5.2,4.5,8.2,158.0,43.0,11.7,10,5,7,1,2026-07-05T10:28:17.998730+05:30
Latur,Maharashtra,18.4088,76.5604,25.3,82,0.1,934.3,0.75,55.4,19,1.9,1.9,2.5,121.0,43.0,1.2,10,5,3,1,2026-07-05T10:28:17.998737+05:30
Nanded,Maharashtra,19.1383,77.3091,27.8,74,0.1,962.6,3.45,49.7,19,3.4,3.1,3.1,147.0,49.0,3.5,10,5,3,1,2026-07-05T10:28:17.998744+05:30
Gulbarga,Karnataka,17.3297,76.8343,25.9,77,0.0,954.3,1.7,63.4,19,4.1,2.3,3.2,107.0,47.0,2.1,7,5,3,1,2026-07-05T10:28:17.998751+05:30
Bidar,Karnataka,17.9104,77.5199,26.4,72,0.0,930.5,2.05,69.1,18,3.0,2.6,4.5,114.0,40.0,1.7,7,5,3,1,2026-07-05T10:28:17.998758+05:30
Hospet,Karnataka,15.2689,76.3909,27.8,64,0.1,953.5,4.85,80.3,20,4.6,2.9,2.2,105.0,47.0,1.2,10,5,3,1,2026-07-05T10:28:17.998765+05:30
Tirupur,Tamil Nadu,11.1085,77.3411,28.6,64,0.0,975.6,8.25,71.6,34,7.9,5.3,2.9,125.0,56.0,3.2,7,5,7,1,2026-07-05T10:28:17.998771+05:30
Alappuzha,Kerala,9.4981,76.3388,29.1,74,0.1,1011.1,8.1,40.0,47,28.3,13.9,3.1,88.0,53.0,2.3,10,0,4,1,2026-07-05T10:28:17.998778+05:30
Munnar,Kerala,10.0889,77.0595,16.3,99,0.2,857.5,2.8,54.7,16,8.8,4.3,1.9,97.0,48.0,1.3,6,10,3,1,2026-07-05T10:28:17.998786+05:30
Silchar,Assam,24.8333,92.7789,35.0,56,0.0,996.1,4.7,40.0,42,8.7,8.4,3.0,223.0,68.0,2.7,0,5,3,1,2026-07-05T10:28:17.998793+05:30
Dibrugarh,Assam,27.4728,94.912,34.1,62,0.0,988.6,8.95,26.3,48,7.4,7.1,0.3,168.0,92.0,0.8,3,5,7,1,2026-07-05T10:28:17.998800+05:30
