city,state,latitude,longitude,temp,humidity,rain,pressure,uv_index,wind_gusts,aqi,pm10,pm2_5,no2,co,o3,so2,mosquito_risk,arthritis_risk,migraine_risk,frizz_risk,updated_at
Delhi,Delhi,28.6139,77.209,38.1,22,0.0,980.6,7.6,40.0,179,369.7,72.6,6.5,425.0,234.0,22.5,0,5,10,0,2026-05-10T15:48:49.661671+05:30
Mumbai,Maharashtra,19.076,72.8777,36.5,37,0.0,1002.6,7.9,47.2,149,49.1,27.6,9.9,275.0,160.0,10.0,0,5,7,1,2026-05-10T15:48:49.661730+05:30
Bangalore,Karnataka,12.9716,77.5946,33.4,26,0.0,909.0,9.45,42.1,61,20.7,11.3,5.1,267.0,132.0,3.0,0,5,7,0,2026-05-10T15:48:49.661749+05:30
Hyderabad,Telangana,17.385,78.4867,36.6,24,0.0,950.0,9.25,36.0,62,47.1,21.0,2.3,263.0,160.0,5.4,0,5,10,0,2026-05-10T15:48:49.661764+05:30
Chennai,Tamil Nadu,13.0827,80.2707,31.1,65,0.0,1003.6,9.1,41.8,25,5.7,3.8,2.2,150.0,53.0,3.9,3,5,4,1,2026-05-10T15:48:49.661774+05:30
Kolkata,West Bengal,22.5726,88.3639,29.1,68,0.0,1005.0,8.9,19.1,155,34.6,27.1,6.2,457.0,134.0,10.8,7,5,4,1,2026-05-10T15:48:49.661783+05:30
Pune,Maharashtra,18.5204,73.8567,40.2,11,0.0,943.6,8.5,38.5,106,24.2,11.0,1.2,183.0,155.0,4.4,0,5,10,0,2026-05-10T15:48:49.661791+05:30
Ahmedabad,Gujarat,23.0225,72.5714,43.5,12,0.0,996.8,8.1,38.9,58,51.3,14.7,0.9,192.0,142.0,3.1,0,5,10,0,2026-05-10T15:48:49.661802+05:30
Jaipur,Rajasthan,26.9124,75.7873,38.4,23,0.0,957.6,8.15,28.4,174,293.4,55.6,0.8,293.0,177.0,7.3,0,5,10,0,2026-05-10T15:48:49.661810+05:30
Lucknow,Uttar Pradesh,26.8467,80.9462,35.4,30,0.0,991.3,8.05,35.3,152,65.4,32.7,1.7,303.0,180.0,7.5,0,5,10,0,2026-05-10T15:48:49.661818+05:30
Kanpur,Uttar Pradesh,26.4499,80.3319,36.3,27,0.0,989.1,8.1,33.8,166,172.3,43.3,1.7,314.0,196.0,9.5,0,5,10,0,2026-05-10T15:48:49.661825+05:30
Chandigarh,Chandigarh,30.7333,76.7794,33.4,36,0.0,968.3,7.7,39.2,185,180.2,54.4,1.6,345.0,218.0,14.0,0,5,7,1,2026-05-10T15:48:49.661833+05:30
Srinagar,Jammu and Kashmir,34.0837,74.7973,25.8,38,0.0,842.6,8.45,18.0,117,59.8,20.9,1.4,412.0,159.0,3.4,4,5,7,0,2026-05-10T15:48:49.661841+05:30
Jammu,Jammu and Kashmir,32.7266,74.857,34.7,33,0.0,971.7,8.1,33.8,158,223.5,61.9,1.3,330.0,187.0,10.3,0,5,7,0,2026-05-10T15:48:49.661849+05:30
Amritsar,Punjab,31.634,74.8723,37.3,29,0.0,979.1,8.35,29.9,160,278.5,76.8,1.5,366.0,199.0,15.3,0,5,10,1,2026-05-10T15:48:49.661856+05:30
Ludhiana,Punjab,30.901,75.8573,38.2,22,0.0,976.8,7.95,34.9,176,705.9,106.9,1.9,343.0,204.0,14.1,0,5,10,0,2026-05-10T15:48:49.661863+05:30
Jalandhar,Punjab,31.326,75.5762,36.2,30,0.0,978.3,8.15,33.5,159,463.8,87.1,1.9,355.0,191.0,13.2,0,5,10,0,2026-05-10T15:48:49.661870+05:30
Dehradun,Uttarakhand,30.6284,78.0322,20.9,61,0.0,832.3,8.1,26.6,147,101.3,41.8,0.9,268.0,174.0,5.8,3,5,7,0,2026-05-10T15:48:49.661881+05:30
Shimla,Himachal Pradesh,31.1048,77.1734,19.3,58,0.0,787.2,8.15,42.5,174,130.9,56.2,1.2,260.0,205.0,16.7,0,5,7,0,2026-05-10T15:48:49.661888+05:30
Manali,Himachal Pradesh,32.2396,77.1887,19.9,66,0.0,819.6,9.8,44.6,127,38.6,13.8,1.5,251.0,191.0,1.3,3,5,7,0,2026-05-10T15:48:49.661895+05:30
Gurgaon,Haryana,28.4595,77.0266,36.9,27,0.0,979.2,7.7,31.0,753,905.2,111.8,4.5,333.0,213.0,15.7,0,5,10,0,2026-05-10T15:48:49.661902+05:30
Noida,Uttar Pradesh,28.5355,77.391,35.8,32,0.0,982.6,7.65,29.2,753,905.2,111.8,4.5,360.0,213.0,15.7,0,5,10,1,2026-05-10T15:48:49.661909+05:30
Ghaziabad,Uttar Pradesh,28.6692,77.4538,35.5,32,0.0,981.0,7.6,32.4,149,204.0,48.9,3.2,310.0,191.0,7.7,0,5,10,1,2026-05-10T15:48:49.661916+05:30
Faridabad,Haryana,28.4089,77.3178,35.8,29,0.0,981.7,7.65,30.2,753,905.2,111.8,4.5,338.0,213.0,15.7,0,5,10,0,2026-05-10T15:48:49.661923+05:30
Meerut,Uttar Pradesh,28.9845,77.7064,33.8,38,0.0,980.4,7.55,31.0,149,204.0,48.9,3.2,312.0,191.0,7.7,0,5,7,1,2026-05-10T15:48:49.661930+05:30
Agra,Uttar Pradesh,27.1767,78.0081,36.7,29,0.0,985.3,7.95,26.3,602,380.0,59.3,1.6,308.0,188.0,9.0,0,5,10,0,2026-05-10T15:48:49.661936+05:30
Varanasi,Uttar Pradesh,25.3176,82.9739,35.7,28,0.0,994.7,8.6,32.8,183,60.1,35.5,2.6,284.0,212.0,13.1,0,5,10,0,2026-05-10T15:48:49.661944+05:30
Prayagraj,Uttar Pradesh,25.4358,81.8463,36.7,26,0.0,992.6,8.45,32.8,183,65.2,36.6,2.4,331.0,204.0,11.4,0,5,10,0,2026-05-10T15:48:49.661954+05:30
Gorakhpur,Uttar Pradesh,26.7606,83.3732,32.7,41,0.0,995.5,8.4,33.8,142,45.8,30.4,1.6,333.0,180.0,5.5,0,5,7,1,2026-05-10T15:48:49.661961+05:30
Bareilly,Uttar Pradesh,28.367,79.4304,32.9,37,0.0,985.5,7.9,29.5,148,136.0,37.1,1.8,278.0,182.0,7.3,0,5,7,1,2026-05-10T15:48:49.661971+05:30
Aligarh,Uttar Pradesh,27.8974,78.088,35.3,32,0.0,983.5,7.75,28.4,290,404.2,61.5,1.9,297.0,189.0,10.5,0,5,10,1,2026-05-10T15:48:49.661978+05:30
Moradabad,Uttar Pradesh,28.8386,78.7733,33.4,38,0.0,982.7,7.75,31.7,168,72.6,38.2,2.8,306.0,202.0,15.1,0,5,7,1,2026-05-10T15:48:49.661985+05:30
Saharanpur,Uttar Pradesh,29.9637,77.546,32.2,42,0.0,975.3,7.35,31.7,151,144.8,49.7,2.0,318.0,186.0,10.2,0,5,7,1,2026-05-10T15:48:49.661992+05:30
Jhansi,Uttar Pradesh,25.4484,78.5685,37.1,26,0.0,975.0,8.4,25.9,161,156.5,41.4,1.3,281.0,190.0,16.7,0,5,10,0,2026-05-10T15:48:53.017259+05:30
Surat,Gujarat,21.1702,72.8311,42.5,16,0.0,1001.3,7.7,34.2,98,57.5,36.0,36.4,166.0,121.0,86.2,0,5,7,0,2026-05-10T15:48:53.017287+05:30
Vadodara,Gujarat,22.3072,73.1812,43.5,13,0.0,998.6,8.1,31.7,86,46.9,17.3,1.9,188.0,170.0,8.3,0,5,10,0,2026-05-10T15:48:53.017296+05:30
Rajkot,Gujarat,22.3039,70.8022,41.3,14,0.0,990.4,7.7,39.2,53,43.2,14.0,1.0,141.0,133.0,4.3,0,5,10,0,2026-05-10T15:48:53.017303+05:30
Thane,Maharashtra,19.2183,72.9781,41.0,23,0.0,1001.4,7.9,45.4,149,49.1,27.6,9.9,204.0,160.0,10.0,0,5,7,0,2026-05-10T15:48:53.017309+05:30
Nagpur,Maharashtra,21.1458,79.0882,40.2,14,0.0,968.7,8.9,32.8,157,54.0,22.9,5.1,218.0,190.0,17.8,0,5,10,0,2026-05-10T15:48:53.017316+05:30
Nashik,Maharashtra,19.9975,73.7898,38.4,15,0.0,941.9,8.2,43.9,99,30.6,13.4,1.3,163.0,157.0,7.0,0,5,10,0,2026-05-10T15:48:53.017323+05:30
Aurangabad,Maharashtra,19.8762,75.3433,39.0,13,0.0,940.8,9.05,43.9,105,35.7,12.2,0.9,175.0,149.0,5.0,0,5,10,0,2026-05-10T15:48:53.017329+05:30
Solapur,Maharashtra,17.6599,75.9064,40.4,15,0.0,952.4,9.1,36.4,98,39.7,21.2,0.9,191.0,169.0,6.0,0,5,10,0,2026-05-10T15:48:53.017336+05:30
Kolhapur,Maharashtra,16.705,74.2433,39.2,17,0.0,943.7,8.95,40.7,127,47.7,27.8,2.4,225.0,168.0,5.9,0,5,10,0,2026-05-10T15:48:53.017342+05:30
Goa,Goa,15.2993,74.124,36.2,46,0.0,992.6,7.25,46.8,81,40.4,22.7,1.2,212.0,132.0,2.7,0,5,10,1,2026-05-10T15:48:53.017349+05:30
Jodhpur,Rajasthan,26.2389,73.0243,43.3,11,0.0,978.5,8.4,32.8,90,91.0,17.6,0.0,156.0,134.0,1.8,0,5,10,0,2026-05-10T15:48:53.017355+05:30
Udaipur,Rajasthan,24.5854,73.7125,39.8,13,0.0,943.8,8.8,38.5,65,74.0,12.3,0.4,148.0,135.0,2.5,0,5,10,0,2026-05-10T15:48:53.017362+05:30
Kota,Rajasthan,25.2138,75.8648,40.6,17,0.0,975.0,8.35,33.5,138,136.0,39.0,0.7,249.0,179.0,11.4,0,5,10,0,2026-05-10T15:48:53.017369+05:30
Bikaner,Rajasthan,28.0229,73.3119,42.7,14,0.0,977.8,8.3,32.0,113,75.4,20.1,0.3,231.0,149.0,8.1,0,5,10,0,2026-05-10T15:48:53.017375+05:30
Ajmer,Rajasthan,26.4499,74.6399,40.3,16,0.0,952.0,8.3,33.1,123,108.3,29.6,0.3,252.0,167.0,7.5,0,5,10,0,2026-05-10T15:48:53.017382+05:30
Gwalior,Madhya Pradesh,26.2183,78.1828,36.8,26,0.0,980.5,8.15,26.3,143,121.1,36.4,0.7,286.0,178.0,7.3,0,5,10,0,2026-05-10T15:48:53.017388+05:30
Indore,Madhya Pradesh,22.7196,75.8577,40.3,11,0.0,944.7,8.65,46.1,103,59.3,19.4,0.8,227.0,157.0,4.6,0,5,10,0,2026-05-10T15:48:53.017394+05:30
Bhopal,Madhya Pradesh,23.2599,77.4126,39.3,11,0.0,950.2,8.65,46.4,114,91.5,27.2,0.5,241.0,161.0,4.9,0,5,10,0,2026-05-10T15:48:53.017400+05:30
Jabalpur,Madhya Pradesh,23.1815,79.9864,39.0,16,0.0,957.2,8.8,32.8,154,84.1,25.7,1.3,247.0,175.0,4.7,0,5,10,0,2026-05-10T15:48:53.017406+05:30
Ujjain,Madhya Pradesh,23.1765,75.7885,40.4,12,0.0,950.3,8.6,46.4,90,49.6,16.5,0.4,212.0,152.0,5.4,0,5,10,0,2026-05-10T15:48:53.017412+05:30
Visakhapatnam,Andhra Pradesh,17.6868,83.2185,31.5,61,0.0,1000.9,9.1,35.6,72,14.6,11.4,14.8,455.0,43.0,15.0,3,5,4,1,2026-05-10T15:48:53.017419+05:30
Vijayawada,Andhra Pradesh,16.5062,80.648,37.2,33,0.0,998.2,9.05,41.0,51,18.3,10.3,2.0,168.0,97.0,5.3,0,5,10,1,2026-05-10T15:48:53.017425+05:30
Guntur,Andhra Pradesh,16.3067,80.4365,37.2,35,0.0,999.2,8.85,41.0,50,27.0,14.8,1.7,181.0,119.0,5.1,0,5,10,1,2026-05-10T15:48:53.017431+05:30
Nellore,Andhra Pradesh,14.4426,79.9865,33.0,55,0.0,1002.3,8.95,40.0,29,7.5,4.8,1.2,134.0,61.0,1.5,0,5,4,1,2026-05-10T15:48:53.017438+05:30
Kurnool,Andhra Pradesh,15.8281,78.0373,39.1,20,0.0,972.3,9.0,40.0,45,34.1,15.0,0.8,172.0,134.0,2.3,0,5,10,0,2026-05-10T15:48:53.017445+05:30
Kakinada,Andhra Pradesh,16.9891,82.2475,31.5,62,0.0,1004.4,9.05,38.5,31,8.2,5.3,0.6,147.0,59.0,0.5,3,5,4,1,2026-05-10T15:48:53.017451+05:30
Tirupati,Andhra Pradesh,13.6288,79.4192,33.9,44,0.0,987.2,9.15,45.7,58,7.1,4.4,1.0,143.0,68.0,0.5,0,5,7,1,2026-05-10T15:48:53.017457+05:30
Warangal,Telangana,17.9689,79.5941,38.0,27,0.0,974.8,9.15,42.8,66,43.1,21.5,1.7,207.0,149.0,5.6,0,5,10,0,2026-05-10T15:48:53.017463+05:30
Nizamabad,Telangana,18.6725,78.0941,37.8,22,0.0,961.2,9.1,29.9,91,43.2,20.8,0.6,194.0,163.0,6.3,0,5,10,0,2026-05-10T15:48:53.017469+05:30
Mysore,Karnataka,12.2958,76.6396,33.0,32,0.0,925.3,9.3,36.4,54,23.8,13.9,2.6,190.0,150.0,3.8,0,5,7,0,2026-05-10T15:48:53.017475+05:30
Mangalore,Karnataka,12.9141,74.856,31.0,77,0.0,1001.5,9.0,39.6,72,24.4,16.9,1.5,170.0,126.0,2.2,3,5,4,1,2026-05-10T15:48:53.017481+05:30
Hubli-Dharwad,Karnataka,15.3647,75.124,36.8,22,0.0,937.7,7.95,38.9,86,40.6,17.9,1.3,188.0,160.0,3.5,0,5,10,0,2026-05-10T15:48:53.017487+05:30
Belgaum,Karnataka,15.8497,74.4977,37.0,18,0.0,922.8,8.25,37.1,133,47.6,24.6,1.3,196.0,178.0,4.7,0,5,10,0,2026-05-10T15:48:56.371902+05:30
Coimbatore,Tamil Nadu,11.0168,76.9558,31.4,56,0.0,957.8,8.65,30.6,56,14.9,9.9,1.4,189.0,130.0,3.0,0,5,7,1,2026-05-10T15:48:56.371932+05:30
Madurai,Tamil Nadu,9.9252,78.1198,32.3,53,0.0,988.7,5.2,31.7,58,13.4,13.1,6.2,251.0,98.0,4.6,0,5,3,1,2026-05-10T15:48:56.371942+05:30
Trichy,Tamil Nadu,10.7905,78.7047,30.2,67,0.0,995.4,2.8,36.4,51,18.3,18.0,5.8,171.0,92.0,11.8,3,5,3,1,2026-05-10T15:48:56.371950+05:30
Salem,Tamil Nadu,11.6643,78.146,34.0,45,0.0,972.8,9.05,41.0,56,13.4,11.6,2.9,174.0,119.0,7.7,0,5,7,1,2026-05-10T15:48:56.371958+05:30
Tirunelveli,Tamil Nadu,8.7139,77.7567,27.6,82,0.1,999.6,4.3,29.5,56,9.2,9.0,3.6,175.0,89.0,5.8,10,5,3,1,2026-05-10T15:48:56.371966+05:30
Vellore,Tamil Nadu,12.9165,79.1325,34.0,45,0.0,980.4,9.25,41.4,71,9.8,8.4,2.2,157.0,106.0,5.2,0,5,7,1,2026-05-10T15:48:56.371974+05:30
Erode,Tamil Nadu,11.341,77.7172,33.0,53,0.0,984.5,7.2,37.8,64,13.8,12.1,2.3,193.0,125.0,4.7,0,5,7,1,2026-05-10T15:48:56.371981+05:30
Kochi,Kerala,9.9312,76.2673,28.9,83,0.0,1004.1,8.8,32.4,104,20.6,20.0,6.1,309.0,151.0,4.2,7,5,4,1,2026-05-10T15:48:56.371988+05:30
Thiruvananthapuram,Kerala,8.5241,76.9366,27.8,83,0.1,1004.1,5.4,21.2,101,11.6,9.1,2.4,249.0,140.0,1.4,10,5,0,1,2026-05-10T15:48:56.371995+05:30
Kozhikode,Kerala,11.2588,75.7804,30.7,75,0.0,1002.9,8.85,35.6,104,15.9,14.0,1.1,202.0,154.0,2.3,3,5,4,1,2026-05-10T15:48:56.372002+05:30
Thrissur,Kerala,10.5276,76.2144,30.2,74,0.0,1002.2,9.0,32.8,75,13.6,12.5,2.6,272.0,118.0,3.7,3,5,4,1,2026-05-10T15:48:56.372010+05:30
Kannur,Kerala,11.8745,75.3704,31.4,70,0.0,1002.3,7.5,39.6,77,20.5,14.8,1.6,190.0,141.0,1.9,3,5,4,1,2026-05-10T15:48:56.372017+05:30
Patna,Bihar,25.5941,85.1376,31.1,47,0.0,998.8,8.65,28.8,189,66.4,50.8,3.5,346.0,224.0,20.2,0,5,7,1,2026-05-10T15:48:56.372024+05:30
Gaya,Bihar,24.7914,85.0002,33.7,34,0.0,991.7,8.7,26.3,178,61.7,32.5,2.4,267.0,208.0,11.5,0,5,7,0,2026-05-10T15:48:56.372031+05:30
Muzaffarpur,Bihar,26.1209,85.3647,30.7,53,0.0,999.1,8.55,34.2,167,60.8,46.3,4.0,345.0,204.0,14.3,0,5,7,1,2026-05-10T15:48:56.372037+05:30
Bhagalpur,Bihar,25.2425,87.0117,31.2,47,0.0,999.8,8.6,24.5,195,59.1,47.7,6.5,334.0,222.0,12.8,0,5,7,1,2026-05-10T15:48:56.372043+05:30
Ranchi,Jharkhand,23.3441,85.3096,28.1,45,0.0,937.1,9.15,38.2,135,49.4,30.2,1.8,252.0,178.0,13.9,4,5,7,0,2026-05-10T15:48:56.372049+05:30
Jamshedpur,Jharkhand,22.8046,86.2029,29.9,52,0.0,990.3,8.95,43.9,153,47.7,37.4,7.0,350.0,201.0,25.0,4,5,7,1,2026-05-10T15:48:56.372056+05:30
Dhanbad,Jharkhand,23.7957,86.4304,25.0,77,0.0,979.6,8.9,36.0,155,74.5,60.3,26.4,370.0,211.0,64.8,7,5,7,1,2026-05-10T15:48:56.372062+05:30
Bokaro,Jharkhand,23.6693,86.1511,27.5,63,0.0,983.3,8.9,45.7,154,69.4,52.0,24.1,1068.0,216.0,64.1,7,5,7,1,2026-05-10T15:48:56.372069+05:30
Bhubaneswar,Odisha,20.2961,85.8245,29.7,66,0.0,1001.0,9.05,34.9,51,16.3,9.2,2.2,168.0,97.0,2.8,7,5,4,1,2026-05-10T15:48:56.372075+05:30
Cuttack,Odisha,20.4625,85.8828,28.9,69,0.0,1003.0,9.1,37.4,51,16.3,9.2,2.2,180.0,97.0,2.8,7,5,4,1,2026-05-10T15:48:56.372082+05:30
Rourkela,Odisha,22.2604,84.8536,32.0,46,0.0,983.2,8.9,55.8,129,58.1,29.5,2.1,352.0,177.0,22.2,0,5,7,1,2026-05-10T15:48:56.372088+05:30
Raipur,Chhattisgarh,21.2514,81.6296,38.3,22,0.0,970.9,8.9,29.5,177,67.5,34.6,6.7,266.0,231.0,7.0,0,5,10,0,2026-05-10T15:48:56.372095+05:30
Bhilai,Chhattisgarh,21.1938,81.3509,37.7,24,0.0,971.3,8.95,30.2,122,60.1,30.3,6.5,414.0,193.0,6.0,0,5,10,0,2026-05-10T15:48:56.372101+05:30
Guwahati,Assam,26.1158,91.7086,26.5,72,0.1,1001.2,8.65,27.7,101,39.6,27.5,2.8,283.0,134.0,2.5,10,5,4,1,2026-05-10T15:48:56.372108+05:30
Agartala,Tripura,23.8315,91.2868,25.0,92,0.0,1005.9,8.25,33.1,191,44.5,34.3,7.1,362.0,214.0,4.7,7,5,4,1,2026-05-10T15:48:56.372114+05:30
Shillong,Meghalaya,25.5788,91.8933,19.3,74,0.0,857.4,8.45,29.2,129,36.3,24.0,2.2,272.0,153.0,3.6,3,5,7,0,2026-05-10T15:48:56.372121+05:30
Imphal,Manipur,24.817,93.9368,25.0,63,0.0,923.2,7.85,29.5,99,27.2,17.1,4.1,292.0,100.0,2.0,7,5,7,1,2026-05-10T15:48:56.372127+05:30
Aizawl,Mizoram,23.7271,92.7176,22.9,63,0.0,892.6,6.35,24.5,119,49.8,33.6,2.4,284.0,132.0,4.0,3,5,7,0,2026-05-10T15:48:56.372134+05:30
Kohima,Nagaland,25.6701,94.1077,21.0,79,0.1,855.8,7.95,28.4,82,34.3,21.7,2.6,235.0,114.0,1.3,6,5,7,1,2026-05-10T15:48:56.372141+05:30
Gangtok,Sikkim,27.3314,88.6138,15.2,82,0.1,837.5,7.1,30.2,85,19.8,12.0,1.6,230.0,130.0,1.0,6,10,7,0,2026-05-10T15:48:56.372147+05:30
Siliguri,West Bengal,26.7271,88.3953,30.0,48,0.0,991.6,8.0,26.6,111,35.9,19.0,3.4,536.0,147.0,2.3,4,5,7,1,2026-05-10T15:48:59.720952+05:30
Durgapur,West Bengal,23.5204,87.3119,22.6,92,0.1,995.4,8.85,43.2,154,75.4,63.1,23.1,277.0,200.0,57.4,6,5,7,1,2026-05-10T15:48:59.720982+05:30
Asansol,West Bengal,23.6739,86.9524,22.5,88,0.0,993.7,8.9,51.5,152,70.3,57.0,23.0,541.0,201.0,56.3,3,5,7,1,2026-05-10T15:48:59.720992+05:30
Pondicherry,Puducherry,11.9139,79.8145,28.7,80,0.0,1004.5,8.55,43.6,29,4.5,3.1,1.2,155.0,59.0,0.3,7,5,4,1,2026-05-10T15:48:59.721000+05:30
Port Blair,Andaman and Nicobar Islands,11.6234,92.7265,29.6,73,0.0,1003.8,8.05,27.0,27,2.4,1.6,0.5,149.0,57.0,0.1,7,5,4,1,2026-05-10T15:48:59.721008+05:30
Haridwar,Uttarakhand,29.9457,78.1642,32.4,40,0.0,973.6,7.5,26.3,159,115.0,47.1,1.0,305.0,185.0,6.8,0,5,7,1,2026-05-10T15:48:59.721015+05:30
Rishikesh,Uttarakhand,30.0869,78.2676,30.8,44,0.0,966.5,7.55,20.9,162,90.6,41.6,1.0,281.0,189.0,6.9,0,5,7,1,2026-05-10T15:48:59.721023+05:30
Nainital,Uttarakhand,29.3919,79.4542,18.1,70,0.0,807.0,7.65,27.4,136,49.0,28.6,0.9,266.0,175.0,4.4,3,5,7,0,2026-05-10T15:48:59.721030+05:30
Mussoorie,Uttarakhand,30.4599,78.0664,19.8,64,0.0,805.2,7.95,38.5,160,91.7,40.7,1.2,274.0,180.0,4.8,3,5,7,0,2026-05-10T15:48:59.721037+05:30
Dharamshala,Himachal Pradesh,32.219,76.3234,23.8,63,0.0,870.8,7.75,35.6,144,108.3,42.1,0.5,307.0,171.0,7.2,3,5,7,1,2026-05-10T15:48:59.721043+05:30
Dalhousie,Himachal Pradesh,32.5387,75.971,20.3,63,0.1,807.4,8.1,37.1,162,173.7,50.3,0.9,281.0,183.0,10.1,6,5,7,0,2026-05-10T15:48:59.721051+05:30
Patiala,Punjab,30.3398,76.3869,34.5,35,0.0,977.2,7.6,34.9,397,814.0,111.8,1.9,325.0,214.0,17.1,0,5,7,1,2026-05-10T15:48:59.721059+05:30
Bhatinda,Punjab,30.211,74.9455,38.8,25,0.0,981.1,8.25,30.2,354,366.0,81.3,2.2,322.0,215.0,18.8,0,5,10,0,2026-05-10T15:48:59.721066+05:30
Rohtak,Haryana,28.8955,76.6066,37.2,24,0.0,979.7,7.65,30.6,408,570.0,92.9,2.7,329.0,235.0,17.2,0,5,10,0,2026-05-10T15:48:59.721073+05:30
Panipat,Haryana,29.3909,76.9635,34.8,33,0.0,979.3,7.5,32.4,703,631.4,95.2,3.6,305.0,234.0,21.3,0,5,7,1,2026-05-10T15:48:59.721079+05:30
Mathura,Uttar Pradesh,27.4924,77.6737,36.5,30,0.0,984.4,7.9,24.8,527,457.3,64.5,1.5,308.0,184.0,6.7,0,5,10,0,2026-05-10T15:48:59.721086+05:30
Vrindavan,Uttar Pradesh,27.5823,77.7027,36.2,31,0.0,984.9,7.9,25.6,527,457.3,64.5,1.5,307.0,184.0,6.7,0,5,10,1,2026-05-10T15:48:59.721093+05:30
Ayodhya,Uttar Pradesh,26.7922,82.1998,34.0,36,0.0,993.2,8.2,37.1,142,52.7,26.6,2.2,293.0,166.0,5.1,0,5,7,1,2026-05-10T15:48:59.721099+05:30
Ratlam,Madhya Pradesh,23.3315,75.0367,40.4,12,0.0,951.2,8.5,42.1,84,39.2,13.4,0.5,175.0,151.0,5.7,0,5,10,0,2026-05-10T15:48:59.721106+05:30
Sagar,Madhya Pradesh,23.8388,78.7378,37.0,22,0.0,947.2,8.65,36.0,137,141.1,35.9,0.5,228.0,168.0,5.3,0,5,10,0,2026-05-10T15:48:59.721113+05:30
Satna,Madhya Pradesh,24.6005,80.8322,37.3,21,0.0,967.7,8.65,28.1,170,63.3,30.6,1.2,286.0,206.0,9.9,0,5,10,0,2026-05-10T15:48:59.721119+05:30
Akola,Maharashtra,20.7002,77.0082,41.6,12,0.0,970.0,8.85,36.0,119,45.1,15.5,1.1,180.0,163.0,7.0,0,5,10,0,2026-05-10T15:48:59.721126+05:30
Amravati,Maharashtra,20.9374,77.7796,41.8,11,0.0,962.4,8.85,46.4,125,47.0,16.2,1.5,206.0,168.0,4.0,0,5,10,0,2026-05-10T15:48:59.721133+05:30
Latur,Maharashtra,18.4088,76.5604,39.2,14,0.0,936.2,9.1,41.0,103,34.7,17.3,0.6,183.0,165.0,10.4,0,5,10,0,2026-05-10T15:48:59.721140+05:30
Nanded,Maharashtra,19.1383,77.3091,40.0,15,0.0,964.2,9.0,36.7,127,38.5,18.1,1.4,191.0,173.0,6.7,0,5,10,0,2026-05-10T15:48:59.721147+05:30
Gulbarga,Karnataka,17.3297,76.8343,39.3,19,0.0,954.7,9.1,35.3,74,44.2,20.7,1.5,199.0,166.0,5.7,0,5,10,0,2026-05-10T15:48:59.721153+05:30
Bidar,Karnataka,17.9104,77.5199,36.3,21,0.0,933.1,9.1,31.7,77,44.0,19.7,1.0,209.0,158.0,4.8,0,5,10,0,2026-05-10T15:48:59.721160+05:30
Hospet,Karnataka,15.2689,76.3909,36.2,27,0.0,952.0,8.8,34.2,57,37.1,17.2,2.6,188.0,161.0,7.0,0,5,10,0,2026-05-10T15:48:59.721166+05:30
Tirupur,Tamil Nadu,11.1085,77.3411,33.4,48,0.0,971.0,7.1,30.2,68,15.2,12.3,2.2,185.0,134.0,4.8,0,5,7,1,2026-05-10T15:48:59.721173+05:30
Alappuzha,Kerala,9.4981,76.3388,28.5,84,0.1,1004.3,8.2,25.9,128,17.9,17.1,4.8,196.0,161.0,5.0,10,5,4,1,2026-05-10T15:48:59.721179+05:30
Munnar,Kerala,10.0889,77.0595,20.7,87,0.0,854.3,8.2,24.8,39,8.8,8.6,2.5,163.0,89.0,2.1,3,5,7,1,2026-05-10T15:48:59.721186+05:30
Silchar,Assam,24.8333,92.7789,30.5,61,0.0,1003.4,8.55,27.4,140,52.3,34.9,3.1,402.0,152.0,7.4,3,5,4,1,2026-05-10T15:48:59.721192+05:30
Dibrugarh,Assam,27.4728,94.912,30.8,63,0.0,993.4,8.8,42.5,120,38.9,26.0,4.2,327.0,140.0,2.0,3,5,7,1,2026-05-10T15:48:59.721199+05:30
