city,state,latitude,longitude,temp,humidity,rain,pressure,uv_index,wind_gusts,aqi,pm10,pm2_5,mosquito_risk,arthritis_risk,migraine_risk,frizz_risk,updated_at
Delhi,Delhi,28.6139,77.209,24.5,67,0.0,984.7,6.6,30.6,137,244.0,75.4,3,5,7,1,2026-04-03T08:08:26.485419+05:30
Mumbai,Maharashtra,19.076,72.8777,27.1,79,0.0,1011.1,7.2,23.8,71,44.7,25.7,7,0,4,1,2026-04-03T08:08:26.485460+05:30
Bangalore,Karnataka,12.9716,77.5946,22.9,84,0.0,914.7,9.6,19.8,61,46.4,45.4,3,5,7,1,2026-04-03T08:08:26.485476+05:30
Hyderabad,Telangana,17.385,78.4867,26.0,70,0.0,957.0,8.9,23.4,69,32.2,29.5,7,5,7,1,2026-04-03T08:08:26.485486+05:30
Chennai,Tamil Nadu,13.0827,80.2707,28.2,77,0.0,1011.2,9.3,34.9,44,15.9,12.9,7,0,4,1,2026-04-03T08:08:26.485495+05:30
Kolkata,West Bengal,22.5726,88.3639,28.7,79,0.0,1008.6,8.65,19.8,67,21.7,20.4,7,0,4,1,2026-04-03T08:08:26.485504+05:30
Pune,Maharashtra,18.5204,73.8567,22.9,95,0.0,950.6,8.35,37.4,130,74.3,70.3,3,5,7,1,2026-04-03T08:08:26.485516+05:30
Ahmedabad,Gujarat,23.0225,72.5714,23.8,73,0.0,1005.4,7.6,40.7,59,54.2,31.3,3,5,4,1,2026-04-03T08:08:26.485523+05:30
Jaipur,Rajasthan,26.9124,75.7873,23.8,60,0.0,962.2,7.5,52.6,122,240.3,52.5,0,5,7,0,2026-04-03T08:08:26.485530+05:30
Lucknow,Uttar Pradesh,26.8467,80.9462,26.4,61,0.0,995.1,6.55,28.1,81,64.7,36.2,7,5,7,1,2026-04-03T08:08:26.485537+05:30
Kanpur,Uttar Pradesh,26.4499,80.3319,26.6,69,0.0,993.3,6.95,25.2,100,141.1,46.1,7,5,7,1,2026-04-03T08:08:26.485544+05:30
Chandigarh,Chandigarh,30.7333,76.7794,21.3,71,0.0,970.1,6.7,58.7,66,19.6,15.4,3,5,7,0,2026-04-03T08:08:26.485551+05:30
Srinagar,Jammu and Kashmir,34.0837,74.7973,11.4,84,0.0,841.4,6.15,32.8,103,47.3,37.0,3,10,7,0,2026-04-03T08:08:26.485558+05:30
Jammu,Jammu and Kashmir,32.7266,74.857,20.6,85,0.0,974.9,5.3,49.7,68,24.7,18.9,3,5,3,1,2026-04-03T08:08:26.485565+05:30
Amritsar,Punjab,31.634,74.8723,19.7,86,0.0,983.1,4.4,44.3,91,53.4,29.6,3,10,3,1,2026-04-03T08:08:26.485572+05:30
Ludhiana,Punjab,30.901,75.8573,20.8,82,0.0,981.1,3.65,41.4,109,225.8,55.8,3,5,3,1,2026-04-03T08:08:26.485579+05:30
Jalandhar,Punjab,31.326,75.5762,20.5,83,0.0,982.3,4.55,48.6,89,139.2,40.7,3,5,3,1,2026-04-03T08:08:26.485587+05:30
Dehradun,Uttarakhand,30.6284,78.0322,17.7,46,0.0,832.7,6.45,49.7,29,3.8,2.3,0,5,7,0,2026-04-03T08:08:26.485595+05:30
Shimla,Himachal Pradesh,31.1048,77.1734,16.3,54,0.0,786.3,7.05,58.3,54,11.2,8.4,0,5,7,0,2026-04-03T08:08:26.485603+05:30
Manali,Himachal Pradesh,32.2396,77.1887,18.0,38,0.0,822.5,7.1,49.7,46,4.2,1.7,0,5,7,0,2026-04-03T08:08:26.485609+05:30
Gurgaon,Haryana,28.4595,77.0266,23.4,72,0.0,983.2,6.75,32.8,258,1646.6,197.0,3,5,7,1,2026-04-03T08:08:26.485616+05:30
Noida,Uttar Pradesh,28.5355,77.391,24.7,66,0.0,986.2,6.6,32.8,258,1646.6,197.0,3,5,7,1,2026-04-03T08:08:26.485622+05:30
Ghaziabad,Uttar Pradesh,28.6692,77.4538,23.9,74,0.0,984.3,6.6,32.0,121,96.2,56.3,3,5,7,1,2026-04-03T08:08:26.485629+05:30
Faridabad,Haryana,28.4089,77.3178,24.6,65,0.0,985.6,6.65,35.3,258,1646.6,197.0,3,5,7,1,2026-04-03T08:08:26.485637+05:30
Meerut,Uttar Pradesh,28.9845,77.7064,23.0,70,0.0,982.9,5.55,30.2,121,96.2,56.3,3,5,3,1,2026-04-03T08:08:26.485643+05:30
Agra,Uttar Pradesh,27.1767,78.0081,27.6,56,0.0,989.7,6.9,38.2,184,629.6,78.5,4,5,7,1,2026-04-03T08:08:26.485649+05:30
Varanasi,Uttar Pradesh,25.3176,82.9739,28.7,60,0.0,999.4,7.8,37.4,90,43.2,38.1,4,5,7,1,2026-04-03T08:08:26.485658+05:30
Prayagraj,Uttar Pradesh,25.4358,81.8463,28.5,60,0.0,997.9,7.15,39.2,87,69.4,48.7,4,5,7,1,2026-04-03T08:08:26.485664+05:30
Gorakhpur,Uttar Pradesh,26.7606,83.3732,25.9,58,0.0,998.8,7.35,39.2,61,27.0,20.0,4,5,7,1,2026-04-03T08:08:26.485670+05:30
Bareilly,Uttar Pradesh,28.367,79.4304,23.2,69,0.0,988.2,6.45,20.2,65,54.8,39.7,3,5,7,1,2026-04-03T08:08:26.485679+05:30
Aligarh,Uttar Pradesh,27.8974,78.088,26.1,63,0.0,987.3,6.7,36.0,113,201.6,56.8,7,5,7,1,2026-04-03T08:08:26.485686+05:30
Moradabad,Uttar Pradesh,28.8386,78.7733,23.6,57,0.0,984.8,6.8,23.8,88,65.0,53.7,0,5,7,0,2026-04-03T08:08:26.485692+05:30
Saharanpur,Uttar Pradesh,29.9637,77.546,23.3,60,0.0,976.4,6.55,40.7,83,23.7,20.8,0,5,7,0,2026-04-03T08:08:26.485698+05:30
Jhansi,Uttar Pradesh,25.4484,78.5685,27.7,39,0.0,980.7,7.9,38.9,63,20.5,11.5,4,5,7,0,2026-04-03T08:08:29.706013+05:30
Surat,Gujarat,21.1702,72.8311,27.2,74,0.0,1009.4,7.65,26.3,96,54.6,42.7,7,0,4,1,2026-04-03T08:08:29.706043+05:30
Vadodara,Gujarat,22.3072,73.1812,25.0,63,0.0,1007.9,7.85,26.6,76,46.9,37.7,7,5,4,1,2026-04-03T08:08:29.706053+05:30
Rajkot,Gujarat,22.3039,70.8022,22.0,84,0.0,997.4,7.55,48.2,65,51.9,22.6,3,5,7,1,2026-04-03T08:08:29.706062+05:30
Thane,Maharashtra,19.2183,72.9781,25.8,81,0.0,1010.7,7.15,34.9,71,44.7,25.7,7,0,4,1,2026-04-03T08:08:29.706069+05:30
Nagpur,Maharashtra,21.1458,79.0882,26.3,67,0.0,976.5,8.7,32.0,87,25.5,23.4,7,5,7,1,2026-04-03T08:08:29.706078+05:30
Nashik,Maharashtra,19.9975,73.7898,22.1,90,0.0,947.9,7.55,32.8,76,36.3,27.4,3,5,7,1,2026-04-03T08:08:29.706085+05:30
Aurangabad,Maharashtra,19.8762,75.3433,23.6,79,0.0,946.8,7.45,31.7,108,49.9,46.6,3,5,7,1,2026-04-03T08:08:29.706092+05:30
Solapur,Maharashtra,17.6599,75.9064,25.8,71,0.0,959.9,8.95,31.0,106,46.8,42.7,7,5,7,1,2026-04-03T08:08:29.706099+05:30
Kolhapur,Maharashtra,16.705,74.2433,23.5,90,0.0,950.4,8.9,35.6,143,95.0,92.4,3,5,7,1,2026-04-03T08:08:29.706106+05:30
Goa,Goa,15.2993,74.124,28.3,79,0.0,1000.3,9.0,29.9,77,33.9,31.2,7,5,4,1,2026-04-03T08:08:29.706114+05:30
Jodhpur,Rajasthan,26.2389,73.0243,22.5,66,0.0,985.3,7.4,54.0,119,180.2,51.1,3,5,7,0,2026-04-03T08:08:29.706121+05:30
Udaipur,Rajasthan,24.5854,73.7125,21.5,59,0.0,948.4,8.2,56.9,40,39.0,15.1,0,5,7,0,2026-04-03T08:08:29.706129+05:30
Kota,Rajasthan,25.2138,75.8648,25.9,54,0.0,982.1,7.85,43.6,53,49.7,18.5,4,5,7,0,2026-04-03T08:08:29.706136+05:30
Bikaner,Rajasthan,28.0229,73.3119,23.2,72,0.0,983.7,6.75,48.2,63,33.5,17.2,3,5,7,1,2026-04-03T08:08:29.706143+05:30
Ajmer,Rajasthan,26.4499,74.6399,22.9,61,0.0,956.6,7.6,54.7,65,215.1,53.6,3,5,7,0,2026-04-03T08:08:29.706149+05:30
Gwalior,Madhya Pradesh,26.2183,78.1828,27.5,44,0.0,985.8,7.55,38.5,63,52.6,16.5,4,5,7,0,2026-04-03T08:08:29.706156+05:30
Indore,Madhya Pradesh,22.7196,75.8577,23.6,56,0.0,951.2,8.3,39.6,82,32.7,29.6,0,5,7,0,2026-04-03T08:08:29.706163+05:30
Bhopal,Madhya Pradesh,23.2599,77.4126,25.7,65,0.0,956.8,8.2,32.8,77,26.0,23.3,7,5,7,1,2026-04-03T08:08:29.706170+05:30
Jabalpur,Madhya Pradesh,23.1815,79.9864,26.1,61,0.0,965.1,7.9,22.0,77,25.8,23.5,7,5,7,1,2026-04-03T08:08:29.706177+05:30
Ujjain,Madhya Pradesh,23.1765,75.7885,23.0,63,0.0,956.9,8.2,34.6,76,32.4,29.7,3,5,7,0,2026-04-03T08:08:29.706184+05:30
Visakhapatnam,Andhra Pradesh,17.6868,83.2185,28.7,73,0.0,1007.1,8.8,41.8,53,22.5,20.4,7,5,4,1,2026-04-03T08:08:29.706191+05:30
Vijayawada,Andhra Pradesh,16.5062,80.648,27.4,83,0.0,1006.8,8.65,25.6,50,15.2,13.3,7,5,4,1,2026-04-03T08:08:29.706198+05:30
Guntur,Andhra Pradesh,16.3067,80.4365,27.7,81,0.0,1007.9,8.5,31.0,45,13.3,11.3,7,5,4,1,2026-04-03T08:08:29.706206+05:30
Nellore,Andhra Pradesh,14.4426,79.9865,28.0,78,0.0,1009.8,9.15,33.1,40,15.8,12.8,7,0,4,1,2026-04-03T08:08:29.706214+05:30
Kurnool,Andhra Pradesh,15.8281,78.0373,28.5,58,0.0,980.4,8.85,19.8,51,11.0,10.0,4,5,7,1,2026-04-03T08:08:29.706221+05:30
Kakinada,Andhra Pradesh,16.9891,82.2475,28.7,76,0.0,1011.3,8.85,37.8,36,14.6,12.4,7,0,4,1,2026-04-03T08:08:29.706228+05:30
Tirupati,Andhra Pradesh,13.6288,79.4192,26.1,77,0.0,995.8,9.35,27.7,53,21.7,19.4,7,5,7,1,2026-04-03T08:08:29.706235+05:30
Warangal,Telangana,17.9689,79.5941,27.1,73,0.0,982.5,8.8,16.2,71,17.2,16.5,7,5,7,1,2026-04-03T08:08:29.706242+05:30
Nizamabad,Telangana,18.6725,78.0941,25.9,79,0.0,968.0,8.8,33.8,117,53.7,49.4,7,5,7,1,2026-04-03T08:08:29.706248+05:30
Mysore,Karnataka,12.2958,76.6396,23.4,83,0.0,931.6,9.5,40.7,84,29.9,27.4,3,5,7,1,2026-04-03T08:08:29.706255+05:30
Mangalore,Karnataka,12.9141,74.856,28.1,83,0.0,1009.5,9.2,24.8,73,32.5,30.2,7,0,4,1,2026-04-03T08:08:29.706261+05:30
Hubli-Dharwad,Karnataka,15.3647,75.124,24.0,87,0.0,943.6,9.2,37.1,80,33.3,31.7,3,5,7,1,2026-04-03T08:08:29.706268+05:30
Belgaum,Karnataka,15.8497,74.4977,22.9,89,0.0,928.0,9.25,36.0,95,39.0,36.7,3,5,7,1,2026-04-03T08:08:32.923444+05:30
Coimbatore,Tamil Nadu,11.0168,76.9558,25.6,77,0.0,965.4,9.5,45.7,65,23.7,21.2,7,5,7,1,2026-04-03T08:08:32.923486+05:30
Madurai,Tamil Nadu,9.9252,78.1198,26.4,84,0.0,996.7,8.95,20.9,49,20.3,19.5,7,5,7,1,2026-04-03T08:08:32.923500+05:30
Trichy,Tamil Nadu,10.7905,78.7047,26.7,83,0.0,1003.5,9.35,22.3,55,24.7,21.8,7,5,4,1,2026-04-03T08:08:32.923510+05:30
Salem,Tamil Nadu,11.6643,78.146,27.0,70,0.0,981.2,9.3,26.6,63,21.5,20.2,7,5,7,1,2026-04-03T08:08:32.923519+05:30
Tirunelveli,Tamil Nadu,8.7139,77.7567,27.9,73,0.0,1006.7,9.35,34.2,54,22.9,20.3,7,5,4,1,2026-04-03T08:08:32.923528+05:30
Vellore,Tamil Nadu,12.9165,79.1325,24.8,67,0.0,988.9,9.4,29.2,61,36.7,34.6,3,5,7,1,2026-04-03T08:08:32.923537+05:30
Erode,Tamil Nadu,11.341,77.7172,27.2,76,0.0,992.9,9.4,29.9,43,15.7,13.9,7,5,7,1,2026-04-03T08:08:32.923545+05:30
Kochi,Kerala,9.9312,76.2673,27.9,80,0.0,1011.7,9.25,21.2,68,19.3,18.2,7,0,4,1,2026-04-03T08:08:32.923553+05:30
Thiruvananthapuram,Kerala,8.5241,76.9366,27.8,81,0.0,1010.9,9.2,17.6,59,24.3,20.1,7,0,4,1,2026-04-03T08:08:32.923562+05:30
Kozhikode,Kerala,11.2588,75.7804,27.7,83,0.0,1011.1,9.15,24.8,58,12.7,10.9,7,0,4,1,2026-04-03T08:08:32.923570+05:30
Thrissur,Kerala,10.5276,76.2144,26.8,86,0.0,1010.4,9.2,29.9,64,18.6,17.2,7,0,4,1,2026-04-03T08:08:32.923579+05:30
Kannur,Kerala,11.8745,75.3704,27.6,83,0.0,1010.2,8.75,25.9,72,31.2,29.5,7,0,4,1,2026-04-03T08:08:32.923588+05:30
Patna,Bihar,25.5941,85.1376,27.5,62,0.0,1002.3,8.3,33.8,75,41.3,34.2,7,5,4,1,2026-04-03T08:08:32.923595+05:30
Gaya,Bihar,24.7914,85.0002,28.4,62,0.0,995.8,8.4,34.6,73,28.3,23.9,7,5,7,1,2026-04-03T08:08:32.923604+05:30
Muzaffarpur,Bihar,26.1209,85.3647,26.1,65,0.0,1002.1,8.25,31.3,72,44.1,31.1,7,5,4,1,2026-04-03T08:08:32.923611+05:30
Bhagalpur,Bihar,25.2425,87.0117,27.8,65,0.0,1003.1,8.3,25.9,65,32.5,27.0,7,5,4,1,2026-04-03T08:08:32.923618+05:30
Ranchi,Jharkhand,23.3441,85.3096,27.6,54,0.0,941.3,8.95,31.7,64,22.1,19.9,4,5,7,1,2026-04-03T08:08:32.923625+05:30
Jamshedpur,Jharkhand,22.8046,86.2029,28.8,70,0.0,993.8,8.8,23.4,103,42.1,35.7,7,5,7,1,2026-04-03T08:08:32.923632+05:30
Dhanbad,Jharkhand,23.7957,86.4304,29.3,54,0.0,982.4,8.7,21.6,144,65.4,61.5,4,5,7,1,2026-04-03T08:08:32.923640+05:30
Bokaro,Jharkhand,23.6693,86.1511,29.2,56,0.0,986.8,8.75,24.8,143,70.3,66.8,4,5,7,1,2026-04-03T08:08:32.923647+05:30
Bhubaneswar,Odisha,20.2961,85.8245,28.4,81,0.0,1005.7,8.95,28.1,51,14.4,12.5,7,5,4,1,2026-04-03T08:08:32.923654+05:30
Cuttack,Odisha,20.4625,85.8828,28.1,80,0.0,1007.6,9.0,35.3,51,14.4,12.5,7,5,4,1,2026-04-03T08:08:32.923660+05:30
Rourkela,Odisha,22.2604,84.8536,29.0,74,0.0,988.4,8.7,23.8,119,55.4,47.5,7,5,7,1,2026-04-03T08:08:32.923667+05:30
Raipur,Chhattisgarh,21.2514,81.6296,29.1,58,0.0,978.3,8.8,29.5,145,56.9,54.4,4,5,7,1,2026-04-03T08:08:32.923673+05:30
Bhilai,Chhattisgarh,21.1938,81.3509,28.8,62,0.0,978.6,8.8,22.7,125,46.0,43.8,7,5,7,1,2026-04-03T08:08:32.923679+05:30
Guwahati,Assam,26.1158,91.7086,24.4,89,0.0,1004.9,8.25,43.6,121,52.4,44.8,3,5,4,1,2026-04-03T08:08:32.923685+05:30
Agartala,Tripura,23.8315,91.2868,27.7,84,0.0,1009.3,8.45,26.3,92,12.9,10.5,7,0,4,1,2026-04-03T08:08:32.923691+05:30
Shillong,Meghalaya,25.5788,91.8933,19.3,65,0.0,859.6,8.55,51.5,109,54.6,43.2,3,5,7,0,2026-04-03T08:08:32.923698+05:30
Imphal,Manipur,24.817,93.9368,20.1,87,0.0,926.5,8.8,62.6,112,28.3,23.3,3,5,7,1,2026-04-03T08:08:32.923705+05:30
Aizawl,Mizoram,23.7271,92.7176,23.6,70,0.0,896.8,8.7,42.1,113,57.3,41.0,3,5,7,1,2026-04-03T08:08:32.923712+05:30
Kohima,Nagaland,25.6701,94.1077,19.6,68,0.0,858.5,8.65,84.6,104,36.0,28.3,3,5,7,0,2026-04-03T08:08:32.923719+05:30
Gangtok,Sikkim,27.3314,88.6138,18.3,84,0.0,840.5,8.55,21.6,90,30.3,23.5,3,10,7,0,2026-04-03T08:08:32.923726+05:30
Siliguri,West Bengal,26.7271,88.3953,25.2,67,0.0,996.0,8.25,20.2,144,74.0,55.5,7,5,7,1,2026-04-03T08:08:36.144940+05:30
Durgapur,West Bengal,23.5204,87.3119,29.9,61,0.0,997.4,8.65,17.6,154,93.4,87.8,7,5,7,1,2026-04-03T08:08:36.144970+05:30
Asansol,West Bengal,23.6739,86.9524,30.2,57,0.0,996.0,8.7,18.0,130,56.5,53.0,0,5,7,1,2026-04-03T08:08:36.144980+05:30
Pondicherry,Puducherry,11.9139,79.8145,26.1,86,0.0,1012.7,9.2,32.8,39,15.4,12.5,7,0,4,1,2026-04-03T08:08:36.144988+05:30
Port Blair,Andaman and Nicobar Islands,11.6234,92.7265,28.7,82,0.0,1009.9,9.25,25.6,35,15.7,7.8,7,0,4,1,2026-04-03T08:08:36.144995+05:30
Haridwar,Uttarakhand,29.9457,78.1642,25.3,51,0.0,975.5,5.9,41.4,58,14.8,13.0,4,5,3,0,2026-04-03T08:08:36.145003+05:30
Rishikesh,Uttarakhand,30.0869,78.2676,25.9,46,0.0,968.7,5.65,37.1,41,11.0,8.6,4,5,3,0,2026-04-03T08:08:36.145010+05:30
Nainital,Uttarakhand,29.3919,79.4542,23.3,39,0.0,810.2,5.25,38.2,51,12.7,10.5,0,5,3,0,2026-04-03T08:08:36.145017+05:30
Mussoorie,Uttarakhand,30.4599,78.0664,20.5,39,0.0,806.0,6.25,62.3,53,11.0,9.2,0,5,7,0,2026-04-03T08:08:36.145024+05:30
Dharamshala,Himachal Pradesh,32.219,76.3234,20.6,59,0.0,869.7,5.45,48.2,37,7.7,4.9,0,5,3,0,2026-04-03T08:08:36.145031+05:30
Dalhousie,Himachal Pradesh,32.5387,75.971,17.0,53,0.0,803.9,5.95,52.9,57,12.1,9.4,0,5,3,0,2026-04-03T08:08:36.145039+05:30
Patiala,Punjab,30.3398,76.3869,21.6,77,0.0,979.9,5.85,48.6,100,745.1,95.2,3,5,3,1,2026-04-03T08:08:36.145046+05:30
Bhatinda,Punjab,30.211,74.9455,19.8,91,0.0,985.8,5.1,42.8,93,70.1,23.0,3,10,3,1,2026-04-03T08:08:36.145052+05:30
Rohtak,Haryana,28.8955,76.6066,22.1,80,0.0,983.4,5.9,40.7,151,583.0,102.4,3,5,3,1,2026-04-03T08:08:36.145058+05:30
Panipat,Haryana,29.3909,76.9635,23.0,76,0.0,981.7,6.25,39.2,144,692.9,103.4,3,5,7,1,2026-04-03T08:08:36.145065+05:30
Mathura,Uttar Pradesh,27.4924,77.6737,26.1,64,0.0,988.6,7.05,39.6,239,810.3,95.2,7,5,7,1,2026-04-03T08:08:36.145071+05:30
Vrindavan,Uttar Pradesh,27.5823,77.7027,26.2,61,0.0,989.0,6.95,40.0,239,810.3,95.2,7,5,7,1,2026-04-03T08:08:36.145078+05:30
Ayodhya,Uttar Pradesh,26.7922,82.1998,25.6,64,0.0,997.0,6.15,25.9,66,31.9,22.5,7,5,7,1,2026-04-03T08:08:36.145084+05:30
Ratlam,Madhya Pradesh,23.3315,75.0367,23.1,68,0.0,957.7,8.15,36.0,71,28.3,25.4,3,5,7,1,2026-04-03T08:08:36.145090+05:30
Sagar,Madhya Pradesh,23.8388,78.7378,26.6,56,0.0,953.6,7.55,29.5,72,21.1,18.8,4,5,7,1,2026-04-03T08:08:36.145096+05:30
Satna,Madhya Pradesh,24.6005,80.8322,29.0,49,0.0,974.1,6.85,37.4,68,23.7,20.3,4,5,7,1,2026-04-03T08:08:36.145103+05:30
Akola,Maharashtra,20.7002,77.0082,25.5,79,0.0,978.6,8.5,31.7,89,41.9,37.6,7,5,7,1,2026-04-03T08:08:36.145110+05:30
Amravati,Maharashtra,20.9374,77.7796,25.7,75,0.0,970.5,8.35,37.8,84,40.6,36.1,7,5,7,1,2026-04-03T08:08:36.145116+05:30
Latur,Maharashtra,18.4088,76.5604,24.0,80,0.0,942.5,8.55,31.0,108,58.0,52.2,3,5,7,1,2026-04-03T08:08:36.145123+05:30
Nanded,Maharashtra,19.1383,77.3091,25.8,83,0.0,971.9,8.35,23.0,108,46.3,41.9,7,5,7,1,2026-04-03T08:08:36.145129+05:30
Gulbarga,Karnataka,17.3297,76.8343,26.7,66,0.0,961.9,8.55,41.4,82,42.8,39.5,7,5,7,1,2026-04-03T08:08:36.145135+05:30
Bidar,Karnataka,17.9104,77.5199,24.7,79,0.0,938.6,8.5,39.2,96,54.6,48.9,3,5,7,1,2026-04-03T08:08:36.145141+05:30
Hospet,Karnataka,15.2689,76.3909,26.2,80,0.0,959.0,9.15,37.1,78,46.9,44.1,7,5,7,1,2026-04-03T08:08:36.145147+05:30
Tirupur,Tamil Nadu,11.1085,77.3411,26.4,81,0.0,979.0,9.5,31.7,59,24.3,22.3,7,5,7,1,2026-04-03T08:08:36.145153+05:30
Alappuzha,Kerala,9.4981,76.3388,27.7,82,0.0,1011.8,9.2,19.1,70,21.0,18.9,7,0,4,1,2026-04-03T08:08:36.145159+05:30
Munnar,Kerala,10.0889,77.0595,22.4,78,0.0,859.7,8.85,30.2,66,27.0,25.7,3,5,7,1,2026-04-03T08:08:36.145166+05:30
Silchar,Assam,24.8333,92.7789,23.9,90,0.0,1009.2,8.5,29.2,149,43.7,36.0,3,0,4,1,2026-04-03T08:08:36.145173+05:30
Dibrugarh,Assam,27.4728,94.912,22.6,89,0.0,999.7,8.3,13.0,98,39.2,32.4,3,5,7,1,2026-04-03T08:08:36.145179+05:30
