city,state,latitude,longitude,temp,humidity,rain,pressure,uv_index,wind_gusts,aqi,pm10,pm2_5,mosquito_risk,arthritis_risk,migraine_risk,frizz_risk,updated_at
Delhi,Delhi,28.6139,77.209,19.6,66,0.0,986.8,5.8,36.7,344,392.1,89.9,3,5,3,0,2026-03-04T00:28:01.811361+05:30
Mumbai,Maharashtra,19.076,72.8777,28.7,57,0.0,1010.3,7.35,25.9,127,42.5,41.8,4,0,4,1,2026-03-04T00:28:01.811407+05:30
Bangalore,Karnataka,12.9716,77.5946,22.0,56,0.0,913.8,9.1,36.0,100,31.2,30.4,0,5,7,0,2026-03-04T00:28:01.811423+05:30
Hyderabad,Telangana,17.385,78.4867,24.7,60,0.0,956.0,8.35,23.4,126,47.1,46.1,0,5,7,1,2026-03-04T00:28:01.811432+05:30
Chennai,Tamil Nadu,13.0827,80.2707,25.0,82,0.0,1010.8,8.8,30.2,106,33.2,29.5,7,0,4,1,2026-03-04T00:28:01.811445+05:30
Kolkata,West Bengal,22.5726,88.3639,22.5,61,0.0,1009.6,7.7,16.2,167,123.9,94.8,3,0,4,0,2026-03-04T00:28:01.811455+05:30
Pune,Maharashtra,18.5204,73.8567,24.1,66,0.0,950.7,7.9,32.8,88,35.2,34.6,3,5,7,1,2026-03-04T00:28:01.811465+05:30
Ahmedabad,Gujarat,23.0225,72.5714,25.1,52,0.0,1006.0,7.15,15.5,93,58.8,49.0,4,5,4,0,2026-03-04T00:28:01.811474+05:30
Jaipur,Rajasthan,26.9124,75.7873,24.5,28,0.0,964.0,6.55,29.9,106,82.0,50.6,0,5,7,0,2026-03-04T00:28:01.811482+05:30
Lucknow,Uttar Pradesh,26.8467,80.9462,20.9,63,0.0,997.8,6.3,35.6,153,314.8,70.8,3,5,7,0,2026-03-04T00:28:01.811490+05:30
Kanpur,Uttar Pradesh,26.4499,80.3319,18.8,78,0.0,995.8,6.3,28.4,184,353.0,69.2,3,5,7,0,2026-03-04T00:28:01.811497+05:30
Chandigarh,Chandigarh,30.7333,76.7794,19.2,64,0.0,972.0,5.7,33.5,98,37.6,35.6,3,5,3,0,2026-03-04T00:28:01.811505+05:30
Srinagar,Jammu and Kashmir,34.0837,74.7973,6.1,75,0.0,841.0,6.6,16.2,139,105.9,95.0,3,5,7,0,2026-03-04T00:28:01.811513+05:30
Jammu,Jammu and Kashmir,32.7266,74.857,17.0,81,0.0,976.1,6.3,20.9,109,68.7,59.6,3,10,7,0,2026-03-04T00:28:01.811521+05:30
Amritsar,Punjab,31.634,74.8723,19.2,60,0.0,984.6,6.25,25.9,96,83.8,70.3,0,5,7,0,2026-03-04T00:28:01.811528+05:30
Ludhiana,Punjab,30.901,75.8573,20.3,62,0.0,982.5,5.9,29.9,141,92.9,80.8,3,5,3,0,2026-03-04T00:28:01.811536+05:30
Jalandhar,Punjab,31.326,75.5762,18.4,70,0.0,983.6,6.05,25.9,140,94.8,82.4,3,5,7,0,2026-03-04T00:28:01.811545+05:30
Dehradun,Uttarakhand,30.6284,78.0322,12.3,79,0.0,830.5,6.05,31.0,72,31.8,29.5,3,5,7,0,2026-03-04T00:28:01.811551+05:30
Shimla,Himachal Pradesh,31.1048,77.1734,10.9,60,0.0,784.6,6.1,44.6,86,39.9,33.3,0,5,7,0,2026-03-04T00:28:01.811559+05:30
Manali,Himachal Pradesh,32.2396,77.1887,17.0,18,0.0,822.3,7.7,34.6,58,20.1,16.5,0,5,7,1,2026-03-04T00:28:01.811566+05:30
Gurgaon,Haryana,28.4595,77.0266,17.3,71,0.0,985.1,5.9,33.8,1204,1017.0,143.4,3,5,3,0,2026-03-04T00:28:01.811573+05:30
Noida,Uttar Pradesh,28.5355,77.391,19.8,64,0.0,988.3,5.8,36.4,1204,1017.0,143.4,3,5,3,0,2026-03-04T00:28:01.811580+05:30
Ghaziabad,Uttar Pradesh,28.6692,77.4538,19.7,68,0.0,986.5,5.75,36.0,261,393.0,94.1,3,5,3,0,2026-03-04T00:28:01.811587+05:30
Faridabad,Haryana,28.4089,77.3178,20.9,51,0.0,987.5,5.85,32.8,1204,1017.0,143.4,0,5,3,0,2026-03-04T00:28:01.811593+05:30
Meerut,Uttar Pradesh,28.9845,77.7064,17.8,77,0.0,985.2,5.65,41.4,261,393.0,94.1,3,5,3,0,2026-03-04T00:28:01.811601+05:30
Agra,Uttar Pradesh,27.1767,78.0081,18.2,62,0.0,991.7,6.15,30.6,443,416.3,75.7,3,5,7,0,2026-03-04T00:28:01.811608+05:30
Varanasi,Uttar Pradesh,25.3176,82.9739,21.2,58,0.0,1001.9,6.95,23.0,125,109.0,82.0,0,5,4,0,2026-03-04T00:28:01.811618+05:30
Prayagraj,Uttar Pradesh,25.4358,81.8463,20.8,64,0.0,1000.5,6.8,23.0,132,129.0,75.0,3,5,4,0,2026-03-04T00:28:01.811625+05:30
Gorakhpur,Uttar Pradesh,26.7606,83.3732,20.4,65,0.0,1001.4,6.65,16.9,153,147.6,118.5,3,5,4,0,2026-03-04T00:28:01.811634+05:30
Bareilly,Uttar Pradesh,28.367,79.4304,17.8,85,0.0,990.6,6.0,28.8,152,461.9,116.9,3,10,3,0,2026-03-04T00:28:01.811640+05:30
Aligarh,Uttar Pradesh,27.8974,78.088,17.9,65,0.0,989.3,5.9,34.9,686,661.2,120.1,3,5,3,0,2026-03-04T00:28:01.811647+05:30
Moradabad,Uttar Pradesh,28.8386,78.7733,18.6,73,0.0,987.3,5.8,28.8,151,353.0,95.7,3,5,3,0,2026-03-04T00:28:01.811654+05:30
Saharanpur,Uttar Pradesh,29.9637,77.546,17.9,74,0.0,979.1,5.45,43.2,142,142.0,73.8,3,5,3,0,2026-03-04T00:28:01.811660+05:30
Jhansi,Uttar Pradesh,25.4484,78.5685,20.5,59,0.0,982.1,6.7,26.6,79,40.6,30.9,0,5,7,0,2026-03-04T00:28:05.163339+05:30
Surat,Gujarat,21.1702,72.8311,25.7,57,0.0,1009.7,7.05,27.0,159,55.9,53.9,4,0,4,1,2026-03-04T00:28:05.163370+05:30
Vadodara,Gujarat,22.3072,73.1812,25.0,60,0.0,1007.9,7.15,13.3,151,81.3,77.5,4,5,4,1,2026-03-04T00:28:05.163380+05:30
Rajkot,Gujarat,22.3039,70.8022,24.0,49,0.0,998.6,7.0,17.6,63,30.9,26.1,0,5,7,0,2026-03-04T00:28:05.163388+05:30
Thane,Maharashtra,19.2183,72.9781,27.3,48,0.0,1009.9,7.35,36.7,127,42.5,41.8,4,0,4,0,2026-03-04T00:28:05.163396+05:30
Nagpur,Maharashtra,21.1458,79.0882,24.1,59,0.0,976.8,7.7,17.6,70,26.7,22.8,0,5,7,0,2026-03-04T00:28:05.163404+05:30
Nashik,Maharashtra,19.9975,73.7898,24.2,47,0.0,948.6,7.55,28.8,96,33.6,32.9,0,5,7,0,2026-03-04T00:28:05.163411+05:30
Aurangabad,Maharashtra,19.8762,75.3433,24.4,44,0.0,946.8,8.05,25.2,89,38.2,37.3,0,5,7,0,2026-03-04T00:28:05.163418+05:30
Solapur,Maharashtra,17.6599,75.9064,24.5,66,0.0,958.9,8.25,18.0,108,24.8,24.3,3,5,7,1,2026-03-04T00:28:05.163430+05:30
Kolhapur,Maharashtra,16.705,74.2433,22.0,84,0.0,949.8,8.4,39.2,149,96.2,95.7,3,5,7,1,2026-03-04T00:28:05.163438+05:30
Goa,Goa,15.2993,74.124,26.9,85,0.0,1000.3,8.45,34.2,79,41.0,36.1,7,5,4,1,2026-03-04T00:28:05.163449+05:30
Jodhpur,Rajasthan,26.2389,73.0243,25.9,42,0.0,987.2,6.85,15.8,72,71.0,37.1,4,5,7,0,2026-03-04T00:28:05.163456+05:30
Udaipur,Rajasthan,24.5854,73.7125,19.5,52,0.0,950.5,7.45,18.4,65,43.4,24.3,0,5,7,0,2026-03-04T00:28:05.163462+05:30
Kota,Rajasthan,25.2138,75.8648,20.1,70,0.0,982.9,6.85,19.4,88,61.0,44.4,3,5,7,0,2026-03-04T00:28:05.163469+05:30
Bikaner,Rajasthan,28.0229,73.3119,24.1,42,0.0,986.0,6.55,21.6,67,42.8,20.3,0,5,7,0,2026-03-04T00:28:05.163476+05:30
Ajmer,Rajasthan,26.4499,74.6399,23.9,25,0.0,958.5,6.8,25.9,75,57.5,36.6,0,5,7,0,2026-03-04T00:28:05.163483+05:30
Gwalior,Madhya Pradesh,26.2183,78.1828,21.0,58,0.0,987.3,6.45,29.5,122,81.0,44.9,0,5,7,0,2026-03-04T00:28:05.163489+05:30
Indore,Madhya Pradesh,22.7196,75.8577,22.4,53,0.0,951.6,7.4,16.9,90,38.9,34.5,0,5,7,0,2026-03-04T00:28:05.163496+05:30
Bhopal,Madhya Pradesh,23.2599,77.4126,22.6,50,0.0,957.6,7.3,22.3,79,49.1,37.8,0,5,7,0,2026-03-04T00:28:05.163503+05:30
Jabalpur,Madhya Pradesh,23.1815,79.9864,22.4,53,0.0,965.2,7.4,17.6,75,45.1,31.1,0,5,7,0,2026-03-04T00:28:05.163510+05:30
Ujjain,Madhya Pradesh,23.1765,75.7885,22.5,54,0.0,957.4,7.3,15.5,110,55.4,51.5,0,5,7,0,2026-03-04T00:28:05.163517+05:30
Visakhapatnam,Andhra Pradesh,17.6868,83.2185,24.6,91,0.0,1007.3,8.35,34.2,132,54.2,48.7,3,5,4,1,2026-03-04T00:28:05.163523+05:30
Vijayawada,Andhra Pradesh,16.5062,80.648,24.4,82,0.0,1006.0,8.4,26.6,137,34.9,32.1,3,5,4,1,2026-03-04T00:28:05.163530+05:30
Guntur,Andhra Pradesh,16.3067,80.4365,23.8,84,0.0,1007.1,8.4,25.9,128,32.1,29.6,3,5,4,1,2026-03-04T00:28:05.163536+05:30
Nellore,Andhra Pradesh,14.4426,79.9865,23.9,89,0.0,1009.2,8.6,29.2,101,28.8,26.3,3,0,4,1,2026-03-04T00:28:05.163544+05:30
Kurnool,Andhra Pradesh,15.8281,78.0373,27.8,47,0.0,979.5,8.45,29.2,110,32.2,31.8,4,5,7,0,2026-03-04T00:28:05.163551+05:30
Kakinada,Andhra Pradesh,16.9891,82.2475,23.3,91,0.0,1011.1,8.35,34.9,120,39.9,33.4,3,0,4,1,2026-03-04T00:28:05.163558+05:30
Tirupati,Andhra Pradesh,13.6288,79.4192,23.6,57,0.0,995.2,8.75,37.1,148,61.9,60.1,0,5,7,0,2026-03-04T00:28:05.163564+05:30
Warangal,Telangana,17.9689,79.5941,27.0,46,0.0,981.1,8.2,14.0,128,46.4,45.5,4,5,7,0,2026-03-04T00:28:05.163571+05:30
Nizamabad,Telangana,18.6725,78.0941,22.8,68,0.0,967.1,8.1,24.5,93,28.8,26.4,3,5,7,1,2026-03-04T00:28:05.163577+05:30
Mysore,Karnataka,12.2958,76.6396,22.2,71,0.0,930.1,9.15,32.8,116,31.1,30.6,3,5,7,1,2026-03-04T00:28:05.163587+05:30
Mangalore,Karnataka,12.9141,74.856,28.4,81,0.0,1009.0,8.7,29.2,66,29.5,23.7,7,0,4,1,2026-03-04T00:28:05.163593+05:30
Hubli-Dharwad,Karnataka,15.3647,75.124,23.9,85,0.0,942.6,8.6,25.6,128,35.0,34.6,3,5,7,1,2026-03-04T00:28:05.163600+05:30
Belgaum,Karnataka,15.8497,74.4977,22.2,90,0.0,927.4,8.65,32.0,112,58.8,57.4,3,5,7,1,2026-03-04T00:28:08.509692+05:30
Coimbatore,Tamil Nadu,11.0168,76.9558,22.4,72,0.0,963.9,9.15,43.6,119,38.8,38.1,3,5,7,1,2026-03-04T00:28:08.509722+05:30
Madurai,Tamil Nadu,9.9252,78.1198,23.6,77,0.0,995.9,9.1,33.8,105,38.4,37.7,3,5,7,1,2026-03-04T00:28:08.509732+05:30
Trichy,Tamil Nadu,10.7905,78.7047,23.3,88,0.0,1002.9,9.0,31.0,99,33.3,32.0,3,5,4,1,2026-03-04T00:28:08.509741+05:30
Salem,Tamil Nadu,11.6643,78.146,24.9,67,0.0,979.7,9.0,40.7,129,51.2,50.2,3,5,7,1,2026-03-04T00:28:08.509748+05:30
Tirunelveli,Tamil Nadu,8.7139,77.7567,23.3,83,0.0,1006.0,9.1,42.1,94,28.8,27.9,3,5,4,1,2026-03-04T00:28:08.509756+05:30
Vellore,Tamil Nadu,12.9165,79.1325,22.3,83,0.0,988.1,8.85,38.5,136,59.0,57.4,3,5,7,1,2026-03-04T00:28:08.509763+05:30
Erode,Tamil Nadu,11.341,77.7172,24.5,69,0.0,991.6,9.05,33.5,111,36.8,36.1,3,5,7,1,2026-03-04T00:28:08.509771+05:30
Kochi,Kerala,9.9312,76.2673,26.8,84,0.0,1011.0,8.95,33.1,100,33.9,32.7,7,0,4,1,2026-03-04T00:28:08.509778+05:30
Thiruvananthapuram,Kerala,8.5241,76.9366,28.0,72,0.0,1010.0,8.95,27.0,127,33.8,31.2,7,0,4,1,2026-03-04T00:28:08.509785+05:30
Kozhikode,Kerala,11.2588,75.7804,28.2,80,0.0,1009.9,8.85,36.4,65,28.6,21.4,7,0,4,1,2026-03-04T00:28:08.509792+05:30
Thrissur,Kerala,10.5276,76.2144,25.7,90,0.0,1009.3,8.9,38.9,102,38.4,36.2,7,0,4,1,2026-03-04T00:28:08.509799+05:30
Kannur,Kerala,11.8745,75.3704,27.6,81,0.0,1009.1,8.8,38.2,64,24.9,19.7,7,0,4,1,2026-03-04T00:28:08.509806+05:30
Patna,Bihar,25.5941,85.1376,22.1,58,0.0,1004.9,7.1,16.9,150,105.7,78.2,0,5,4,0,2026-03-04T00:28:08.509814+05:30
Gaya,Bihar,24.7914,85.0002,18.7,56,0.0,998.4,7.2,23.0,108,114.8,71.2,0,5,7,0,2026-03-04T00:28:08.509820+05:30
Muzaffarpur,Bihar,26.1209,85.3647,20.7,58,0.0,1004.9,7.05,10.4,156,125.3,94.5,0,5,4,0,2026-03-04T00:28:08.509827+05:30
Bhagalpur,Bihar,25.2425,87.0117,19.6,65,0.0,1005.6,7.15,13.0,141,130.9,92.2,3,5,4,0,2026-03-04T00:28:08.509834+05:30
Ranchi,Jharkhand,23.3441,85.3096,18.9,53,0.0,941.0,7.9,40.7,82,66.1,36.9,0,5,7,0,2026-03-04T00:28:08.509840+05:30
Jamshedpur,Jharkhand,22.8046,86.2029,21.0,60,0.0,994.6,7.75,14.4,102,68.5,44.6,0,5,7,0,2026-03-04T00:28:08.509847+05:30
Dhanbad,Jharkhand,23.7957,86.4304,20.8,42,0.0,983.9,7.65,27.7,109,68.5,47.0,0,5,7,0,2026-03-04T00:28:08.509853+05:30
Bokaro,Jharkhand,23.6693,86.1511,20.1,43,0.0,988.2,7.65,32.8,113,73.8,50.6,0,5,7,0,2026-03-04T00:28:08.509876+05:30
Bhubaneswar,Odisha,20.2961,85.8245,24.2,97,0.0,1005.9,8.1,25.2,146,47.7,41.8,3,5,4,1,2026-03-04T00:28:08.509884+05:30
Cuttack,Odisha,20.4625,85.8828,23.9,95,0.0,1007.8,8.1,26.3,146,47.7,41.8,3,5,4,1,2026-03-04T00:28:08.509891+05:30
Rourkela,Odisha,22.2604,84.8536,21.1,58,0.0,988.5,7.7,27.4,89,69.8,46.9,0,5,7,0,2026-03-04T00:28:08.509897+05:30
Raipur,Chhattisgarh,21.2514,81.6296,23.5,45,0.0,977.9,7.8,14.4,130,75.7,65.4,0,5,7,0,2026-03-04T00:28:08.509904+05:30
Bhilai,Chhattisgarh,21.1938,81.3509,22.2,55,0.0,978.2,7.8,13.7,126,76.4,67.5,0,5,7,0,2026-03-04T00:28:08.509910+05:30
Guwahati,Assam,26.1158,91.7086,22.2,71,0.0,1005.4,7.1,22.0,156,97.6,85.9,3,5,4,1,2026-03-04T00:28:08.509916+05:30
Agartala,Tripura,23.8315,91.2868,20.4,76,0.0,1009.7,7.45,15.8,172,108.3,97.1,3,0,4,0,2026-03-04T00:28:08.509923+05:30
Shillong,Meghalaya,25.5788,91.8933,10.5,81,0.0,856.6,7.45,28.4,155,89.6,77.3,3,10,7,0,2026-03-04T00:28:08.509930+05:30
Imphal,Manipur,24.817,93.9368,13.9,81,0.0,925.1,7.65,32.8,156,88.7,80.1,3,10,7,0,2026-03-04T00:28:08.509937+05:30
Aizawl,Mizoram,23.7271,92.7176,15.5,67,0.0,893.7,7.65,32.8,158,76.6,65.2,3,5,7,0,2026-03-04T00:28:08.509943+05:30
Kohima,Nagaland,25.6701,94.1077,11.9,70,0.0,855.5,6.65,45.0,152,87.5,74.7,3,5,7,0,2026-03-04T00:28:08.509950+05:30
Gangtok,Sikkim,27.3314,88.6138,10.7,92,0.0,837.9,7.4,19.4,154,80.8,60.8,3,10,7,0,2026-03-04T00:28:08.509957+05:30
Siliguri,West Bengal,26.7271,88.3953,18.9,68,0.0,998.1,7.1,20.2,163,122.5,92.0,3,5,7,0,2026-03-04T00:28:11.865461+05:30
Durgapur,West Bengal,23.5204,87.3119,23.4,52,0.0,999.2,7.65,26.6,90,65.7,38.4,0,5,7,0,2026-03-04T00:28:11.865493+05:30
Asansol,West Bengal,23.6739,86.9524,23.3,53,0.0,997.9,7.65,22.7,88,55.1,31.7,0,5,7,0,2026-03-04T00:28:11.865504+05:30
Pondicherry,Puducherry,11.9139,79.8145,22.7,92,0.0,1011.7,8.85,28.1,99,28.9,25.2,3,0,4,1,2026-03-04T00:28:11.865514+05:30
Port Blair,Andaman and Nicobar Islands,11.6234,92.7265,27.2,75,0.0,1009.2,8.8,15.5,78,34.2,25.3,7,0,4,1,2026-03-04T00:28:11.865523+05:30
Haridwar,Uttarakhand,29.9457,78.1642,16.7,82,0.0,977.4,5.55,22.3,122,100.4,71.5,3,10,3,0,2026-03-04T00:28:11.865531+05:30
Rishikesh,Uttarakhand,30.0869,78.2676,18.0,77,0.0,970.2,5.6,23.8,131,60.1,49.2,3,5,3,0,2026-03-04T00:28:11.865540+05:30
Nainital,Uttarakhand,29.3919,79.4542,15.0,60,0.0,806.9,6.4,54.7,124,69.4,58.1,0,5,7,0,2026-03-04T00:28:11.865548+05:30
Mussoorie,Uttarakhand,30.4599,78.0664,14.1,74,0.0,803.5,5.95,41.8,119,62.9,50.6,3,5,3,0,2026-03-04T00:28:11.865558+05:30
Dharamshala,Himachal Pradesh,32.219,76.3234,19.5,33,0.0,871.5,6.2,23.4,92,19.9,15.4,0,5,7,0,2026-03-04T00:28:11.865567+05:30
Dalhousie,Himachal Pradesh,32.5387,75.971,15.4,36,0.0,805.3,6.4,19.8,87,51.1,47.1,0,5,7,0,2026-03-04T00:28:11.865578+05:30
Patiala,Punjab,30.3398,76.3869,17.9,76,0.0,981.8,5.6,34.2,252,212.3,73.3,3,5,3,0,2026-03-04T00:28:11.865588+05:30
Bhatinda,Punjab,30.211,74.9455,19.7,74,0.0,987.4,6.25,28.1,139,87.5,63.6,3,5,7,0,2026-03-04T00:28:11.865597+05:30
Rohtak,Haryana,28.8955,76.6066,18.3,72,0.0,985.4,5.8,33.8,474,414.4,86.6,3,5,3,0,2026-03-04T00:28:11.865606+05:30
Panipat,Haryana,29.3909,76.9635,17.6,79,0.0,984.0,5.6,37.4,1080,823.3,129.0,3,5,3,0,2026-03-04T00:28:11.865613+05:30
Mathura,Uttar Pradesh,27.4924,77.6737,23.3,40,0.0,990.8,6.1,29.9,484,434.9,78.7,0,5,7,0,2026-03-04T00:28:11.865620+05:30
Vrindavan,Uttar Pradesh,27.5823,77.7027,18.6,59,0.0,991.0,6.05,32.4,484,434.9,78.7,0,5,7,0,2026-03-04T00:28:11.865627+05:30
Ayodhya,Uttar Pradesh,26.7922,82.1998,20.6,72,0.0,999.4,6.45,25.6,151,132.7,78.9,3,5,7,0,2026-03-04T00:28:11.865634+05:30
Ratlam,Madhya Pradesh,23.3315,75.0367,19.4,85,0.0,957.7,7.25,13.0,93,50.3,45.4,3,10,7,1,2026-03-04T00:28:11.865642+05:30
Sagar,Madhya Pradesh,23.8388,78.7378,23.3,49,0.0,954.1,7.2,25.6,67,46.4,31.9,0,5,7,0,2026-03-04T00:28:11.865649+05:30
Satna,Madhya Pradesh,24.6005,80.8322,21.7,50,0.0,975.3,7.2,30.2,77,40.4,23.6,0,5,7,0,2026-03-04T00:28:11.865656+05:30
Akola,Maharashtra,20.7002,77.0082,24.9,47,0.0,978.4,7.75,19.1,77,34.6,31.7,0,5,7,0,2026-03-04T00:28:11.865664+05:30
Amravati,Maharashtra,20.9374,77.7796,24.4,54,0.0,970.4,7.75,16.6,74,32.9,28.9,0,5,7,0,2026-03-04T00:28:11.865671+05:30
Latur,Maharashtra,18.4088,76.5604,24.8,53,0.0,942.3,8.2,31.0,99,34.0,32.2,0,5,7,0,2026-03-04T00:28:11.865677+05:30
Nanded,Maharashtra,19.1383,77.3091,27.3,46,0.0,971.4,8.0,19.4,86,30.9,28.9,4,5,7,0,2026-03-04T00:28:11.865684+05:30
Gulbarga,Karnataka,17.3297,76.8343,26.3,48,0.0,961.1,8.3,17.3,109,27.4,27.0,4,5,7,0,2026-03-04T00:28:11.865689+05:30
Bidar,Karnataka,17.9104,77.5199,23.7,53,0.0,937.8,8.25,19.8,98,38.6,36.8,0,5,7,0,2026-03-04T00:28:11.865695+05:30
Hospet,Karnataka,15.2689,76.3909,28.4,46,0.0,957.9,8.6,25.6,113,45.9,44.9,4,5,7,0,2026-03-04T00:28:11.865701+05:30
Tirupur,Tamil Nadu,11.1085,77.3411,25.5,57,0.0,977.8,9.15,33.8,125,39.3,38.8,4,5,7,1,2026-03-04T00:28:11.865707+05:30
Alappuzha,Kerala,9.4981,76.3388,26.8,82,0.0,1011.2,8.95,30.6,92,41.9,39.2,7,0,4,1,2026-03-04T00:28:11.865713+05:30
Munnar,Kerala,10.0889,77.0595,18.7,58,0.0,857.1,9.45,20.9,101,39.2,38.1,0,5,7,0,2026-03-04T00:28:11.865720+05:30
Silchar,Assam,24.8333,92.7789,21.2,76,0.0,1008.4,7.4,20.2,161,100.8,86.1,3,0,4,1,2026-03-04T00:28:11.865726+05:30
Dibrugarh,Assam,27.4728,94.912,21.7,83,0.0,999.4,7.1,11.2,138,63.3,53.2,3,5,7,1,2026-03-04T00:28:11.865733+05:30
