city,state,latitude,longitude,temp,humidity,rain,pressure,uv_index,wind_gusts,aqi,pm10,pm2_5,mosquito_risk,arthritis_risk,migraine_risk,frizz_risk,updated_at
Delhi,Delhi,28.6139,77.209,33.5,23,0.0,983.3,7.1,45.7,540,1031.9,153.7,0,5,7,0,2026-04-25T22:18:38.646915+05:30
Mumbai,Maharashtra,19.076,72.8777,30.2,63,0.0,1008.5,8.0,42.8,113,40.6,25.1,3,0,4,1,2026-04-25T22:18:38.646958+05:30
Bangalore,Karnataka,12.9716,77.5946,27.9,46,0.0,913.4,9.3,36.4,100,30.4,27.0,4,5,7,0,2026-04-25T22:18:38.646973+05:30
Hyderabad,Telangana,17.385,78.4867,32.4,32,0.0,955.2,9.3,29.2,153,49.2,44.7,0,5,7,0,2026-04-25T22:18:38.646983+05:30
Chennai,Tamil Nadu,13.0827,80.2707,29.1,80,0.0,1008.2,9.3,50.0,33,12.0,8.2,7,0,4,1,2026-04-25T22:18:38.646990+05:30
Kolkata,West Bengal,22.5726,88.3639,28.0,85,0.0,1005.9,8.55,38.9,76,25.1,20.5,7,5,4,1,2026-04-25T22:18:38.647000+05:30
Pune,Maharashtra,18.5204,73.8567,30.9,36,0.0,949.3,8.35,36.4,144,50.5,44.2,0,5,7,0,2026-04-25T22:18:38.647007+05:30
Ahmedabad,Gujarat,23.0225,72.5714,38.7,13,0.0,1001.9,8.2,24.1,69,46.4,30.0,0,5,7,0,2026-04-25T22:18:38.647013+05:30
Jaipur,Rajasthan,26.9124,75.7873,33.6,21,0.0,961.3,8.05,38.2,129,271.9,50.4,0,5,7,0,2026-04-25T22:18:38.647021+05:30
Lucknow,Uttar Pradesh,26.8467,80.9462,34.8,20,0.0,992.4,7.9,42.1,128,161.6,43.1,0,5,7,0,2026-04-25T22:18:38.647027+05:30
Kanpur,Uttar Pradesh,26.4499,80.3319,34.9,19,0.0,991.0,7.9,39.6,177,455.4,71.0,0,5,7,0,2026-04-25T22:18:38.647033+05:30
Chandigarh,Chandigarh,30.7333,76.7794,28.5,38,0.0,969.1,7.25,59.4,64,42.8,22.4,4,5,7,0,2026-04-25T22:18:38.647040+05:30
Srinagar,Jammu and Kashmir,34.0837,74.7973,13.6,84,0.0,844.9,8.6,31.3,73,55.5,39.5,3,10,7,0,2026-04-25T22:18:38.647046+05:30
Jammu,Jammu and Kashmir,32.7266,74.857,28.4,40,0.0,973.9,8.2,43.6,80,69.2,28.5,4,5,7,0,2026-04-25T22:18:38.647052+05:30
Amritsar,Punjab,31.634,74.8723,30.7,31,0.0,981.2,8.1,38.2,91,126.2,52.0,0,5,7,0,2026-04-25T22:18:38.647058+05:30
Ludhiana,Punjab,30.901,75.8573,29.1,38,0.0,979.1,7.7,54.4,83,88.2,33.6,4,5,7,0,2026-04-25T22:18:38.647065+05:30
Jalandhar,Punjab,31.326,75.5762,28.8,39,0.0,980.2,7.9,37.4,93,106.9,39.7,4,5,7,0,2026-04-25T22:18:38.647071+05:30
Dehradun,Uttarakhand,30.6284,78.0322,15.9,59,0.0,829.6,7.85,50.0,50,44.0,17.9,0,5,7,0,2026-04-25T22:18:38.647078+05:30
Shimla,Himachal Pradesh,31.1048,77.1734,14.7,53,0.0,785.9,7.6,55.1,57,72.6,21.0,0,5,7,0,2026-04-25T22:18:38.647083+05:30
Manali,Himachal Pradesh,32.2396,77.1887,9.2,78,0.1,818.4,9.85,43.9,83,15.0,6.7,6,5,7,0,2026-04-25T22:18:38.647089+05:30
Gurgaon,Haryana,28.4595,77.0266,32.0,25,0.0,981.7,7.5,47.2,1363,1724.8,222.1,0,5,7,0,2026-04-25T22:18:38.647094+05:30
Noida,Uttar Pradesh,28.5355,77.391,32.4,25,0.0,984.5,7.4,33.8,1363,1724.8,222.1,0,5,7,0,2026-04-25T22:18:38.647100+05:30
Ghaziabad,Uttar Pradesh,28.6692,77.4538,32.2,25,0.0,982.8,7.4,46.8,343,860.5,131.8,0,5,7,0,2026-04-25T22:18:38.647105+05:30
Faridabad,Haryana,28.4089,77.3178,34.5,21,0.0,984.0,7.5,48.6,1363,1724.8,222.1,0,5,7,0,2026-04-25T22:18:38.647111+05:30
Meerut,Uttar Pradesh,28.9845,77.7064,30.5,30,0.0,981.5,7.35,47.2,343,860.5,131.8,0,5,7,0,2026-04-25T22:18:38.647116+05:30
Agra,Uttar Pradesh,27.1767,78.0081,34.2,22,0.0,987.7,7.8,45.0,509,1750.9,210.5,0,5,7,0,2026-04-25T22:18:38.647124+05:30
Varanasi,Uttar Pradesh,25.3176,82.9739,32.6,43,0.0,996.8,8.5,38.9,134,189.5,74.5,0,5,7,1,2026-04-25T22:18:38.647129+05:30
Prayagraj,Uttar Pradesh,25.4358,81.8463,33.5,22,0.0,994.3,8.4,31.7,110,197.4,61.0,0,5,7,0,2026-04-25T22:18:38.647136+05:30
Gorakhpur,Uttar Pradesh,26.7606,83.3732,29.5,61,0.0,997.0,8.3,43.2,162,99.9,56.1,7,5,7,1,2026-04-25T22:18:38.647141+05:30
Bareilly,Uttar Pradesh,28.367,79.4304,31.2,32,0.0,985.8,7.7,48.6,123,97.8,37.3,0,5,7,0,2026-04-25T22:18:38.647147+05:30
Aligarh,Uttar Pradesh,27.8974,78.088,33.0,24,0.0,985.4,7.6,40.3,544,1322.5,184.4,0,5,7,0,2026-04-25T22:18:38.647152+05:30
Moradabad,Uttar Pradesh,28.8386,78.7733,31.0,37,0.0,983.0,7.55,57.2,154,247.7,58.8,0,5,7,0,2026-04-25T22:18:38.647157+05:30
Saharanpur,Uttar Pradesh,29.9637,77.546,30.8,31,0.0,975.4,7.15,54.0,103,144.8,39.5,0,5,7,0,2026-04-25T22:18:38.647163+05:30
Jhansi,Uttar Pradesh,25.4484,78.5685,33.7,20,0.0,978.1,8.3,32.0,81,101.7,33.3,0,5,7,0,2026-04-25T22:18:41.923009+05:30
Surat,Gujarat,21.1702,72.8311,31.1,50,0.0,1006.5,7.85,36.0,105,47.6,36.8,0,5,4,1,2026-04-25T22:18:41.923036+05:30
Vadodara,Gujarat,22.3072,73.1812,36.0,18,0.0,1003.7,8.15,30.6,103,48.1,32.2,0,5,7,0,2026-04-25T22:18:41.923045+05:30
Rajkot,Gujarat,22.3039,70.8022,29.5,44,0.0,995.3,7.9,36.0,74,58.7,20.6,4,5,7,0,2026-04-25T22:18:41.923053+05:30
Thane,Maharashtra,19.2183,72.9781,30.9,52,0.0,1007.9,8.0,41.0,113,40.6,25.1,0,5,4,1,2026-04-25T22:18:41.923060+05:30
Nagpur,Maharashtra,21.1458,79.0882,35.7,18,0.0,973.1,8.9,37.1,156,49.9,41.9,0,5,10,0,2026-04-25T22:18:41.923067+05:30
Nashik,Maharashtra,19.9975,73.7898,30.9,22,0.0,946.7,8.3,31.0,133,36.9,26.3,0,5,7,0,2026-04-25T22:18:41.923075+05:30
Aurangabad,Maharashtra,19.8762,75.3433,33.5,19,0.0,944.9,8.75,29.5,119,45.6,36.6,0,5,7,0,2026-04-25T22:18:41.923083+05:30
Solapur,Maharashtra,17.6599,75.9064,33.3,24,0.0,957.5,8.6,25.6,162,47.7,43.8,0,5,7,0,2026-04-25T22:18:41.923090+05:30
Kolhapur,Maharashtra,16.705,74.2433,27.5,73,0.0,949.0,9.05,37.8,151,61.2,57.3,7,5,7,1,2026-04-25T22:18:41.923098+05:30
Goa,Goa,15.2993,74.124,29.7,81,0.0,998.1,8.9,29.5,72,36.0,27.7,7,5,7,1,2026-04-25T22:18:41.923105+05:30
Jodhpur,Rajasthan,26.2389,73.0243,36.2,19,0.0,983.3,8.3,32.8,86,148.5,29.5,0,5,10,0,2026-04-25T22:18:41.923112+05:30
Udaipur,Rajasthan,24.5854,73.7125,31.5,25,0.0,947.8,8.8,41.0,67,52.7,20.3,0,5,7,0,2026-04-25T22:18:41.923118+05:30
Kota,Rajasthan,25.2138,75.8648,32.4,28,0.0,979.3,8.3,31.3,82,99.7,41.3,0,5,7,0,2026-04-25T22:18:41.923125+05:30
Bikaner,Rajasthan,28.0229,73.3119,34.0,30,0.0,982.1,8.15,38.5,75,85.0,25.4,0,5,7,0,2026-04-25T22:18:41.923132+05:30
Ajmer,Rajasthan,26.4499,74.6399,32.2,25,0.0,956.0,8.25,35.6,80,92.9,31.0,0,5,7,0,2026-04-25T22:18:41.923139+05:30
Gwalior,Madhya Pradesh,26.2183,78.1828,34.3,22,0.0,983.7,8.0,41.0,90,143.9,36.4,0,5,7,0,2026-04-25T22:18:41.923145+05:30
Indore,Madhya Pradesh,22.7196,75.8577,34.0,17,0.0,949.2,8.65,32.0,69,53.6,31.2,0,5,7,0,2026-04-25T22:18:41.923152+05:30
Bhopal,Madhya Pradesh,23.2599,77.4126,35.1,14,0.0,953.9,8.65,30.6,94,40.9,25.4,0,5,10,0,2026-04-25T22:18:41.923159+05:30
Jabalpur,Madhya Pradesh,23.1815,79.9864,32.1,19,0.0,961.4,8.75,34.9,97,27.4,19.7,0,5,7,0,2026-04-25T22:18:41.923165+05:30
Ujjain,Madhya Pradesh,23.1765,75.7885,33.7,19,0.0,954.6,8.55,29.2,61,62.4,34.9,0,5,7,0,2026-04-25T22:18:41.923173+05:30
Visakhapatnam,Andhra Pradesh,17.6868,83.2185,28.3,88,0.0,1004.8,8.7,42.8,58,17.7,12.9,7,5,4,1,2026-04-25T22:18:41.923180+05:30
Vijayawada,Andhra Pradesh,16.5062,80.648,29.0,80,0.0,1004.0,8.85,31.0,52,14.7,11.8,7,5,4,1,2026-04-25T22:18:41.923186+05:30
Guntur,Andhra Pradesh,16.3067,80.4365,28.2,86,0.0,1005.2,8.6,36.7,53,15.5,12.3,7,5,4,1,2026-04-25T22:18:41.923193+05:30
Nellore,Andhra Pradesh,14.4426,79.9865,28.2,85,0.0,1006.8,9.25,42.1,43,11.7,8.3,7,5,4,1,2026-04-25T22:18:41.923201+05:30
Kurnool,Andhra Pradesh,15.8281,78.0373,33.8,32,0.0,977.8,8.9,34.2,112,56.3,48.2,0,5,7,0,2026-04-25T22:18:41.923208+05:30
Kakinada,Andhra Pradesh,16.9891,82.2475,28.7,82,0.0,1008.5,8.45,37.1,40,14.7,9.5,7,0,4,1,2026-04-25T22:18:41.923215+05:30
Tirupati,Andhra Pradesh,13.6288,79.4192,29.8,58,0.0,992.4,9.35,34.9,69,17.4,15.1,4,5,7,1,2026-04-25T22:18:41.923222+05:30
Warangal,Telangana,17.9689,79.5941,31.5,42,0.0,979.6,9.0,29.5,122,41.9,38.5,0,5,7,1,2026-04-25T22:18:41.923228+05:30
Nizamabad,Telangana,18.6725,78.0941,32.3,29,0.0,965.3,8.75,27.7,139,62.9,56.8,0,5,7,0,2026-04-25T22:18:41.923235+05:30
Mysore,Karnataka,12.2958,76.6396,27.6,43,0.0,929.2,8.9,45.0,91,28.3,25.4,4,5,7,0,2026-04-25T22:18:41.923242+05:30
Mangalore,Karnataka,12.9141,74.856,29.6,80,0.0,1007.0,9.1,40.7,74,25.1,18.4,7,5,4,1,2026-04-25T22:18:41.923248+05:30
Hubli-Dharwad,Karnataka,15.3647,75.124,27.4,61,0.0,941.2,9.0,47.5,136,47.3,43.7,7,5,7,1,2026-04-25T22:18:41.923255+05:30
Belgaum,Karnataka,15.8497,74.4977,25.6,76,0.0,926.6,9.2,34.9,117,43.4,40.0,7,5,7,1,2026-04-25T22:18:45.248263+05:30
Coimbatore,Tamil Nadu,11.0168,76.9558,29.6,55,0.0,962.8,8.95,46.1,83,35.2,32.0,4,5,7,1,2026-04-25T22:18:45.248291+05:30
Madurai,Tamil Nadu,9.9252,78.1198,30.6,48,0.0,994.3,9.25,39.2,57,13.5,12.7,0,5,7,1,2026-04-25T22:18:45.248299+05:30
Trichy,Tamil Nadu,10.7905,78.7047,29.2,69,0.0,1001.1,9.3,33.8,54,16.6,15.6,7,5,4,1,2026-04-25T22:18:45.248305+05:30
Salem,Tamil Nadu,11.6643,78.146,30.8,48,0.0,978.4,9.0,38.9,92,30.0,26.8,0,5,7,1,2026-04-25T22:18:45.248311+05:30
Tirunelveli,Tamil Nadu,8.7139,77.7567,28.8,72,0.0,1004.3,9.2,40.0,61,13.8,12.9,7,5,4,1,2026-04-25T22:18:45.248317+05:30
Vellore,Tamil Nadu,12.9165,79.1325,29.0,62,0.0,985.7,9.35,35.6,79,29.2,26.9,7,5,7,1,2026-04-25T22:18:45.248324+05:30
Erode,Tamil Nadu,11.341,77.7172,32.3,42,0.0,989.7,9.3,41.8,70,25.5,22.8,0,5,7,1,2026-04-25T22:18:45.248330+05:30
Kochi,Kerala,9.9312,76.2673,28.8,78,0.0,1009.6,8.4,42.1,111,25.1,22.9,7,0,4,1,2026-04-25T22:18:45.248336+05:30
Thiruvananthapuram,Kerala,8.5241,76.9366,26.8,89,0.0,1009.1,8.6,33.8,66,16.6,12.5,7,0,4,1,2026-04-25T22:18:45.248342+05:30
Kozhikode,Kerala,11.2588,75.7804,28.5,89,0.0,1008.1,8.7,36.7,66,18.4,12.9,7,0,4,1,2026-04-25T22:18:45.248348+05:30
Thrissur,Kerala,10.5276,76.2144,28.0,85,0.0,1007.8,8.1,44.6,90,26.1,24.3,7,5,4,1,2026-04-25T22:18:45.248354+05:30
Kannur,Kerala,11.8745,75.3704,29.7,82,0.0,1007.4,8.6,40.0,65,24.4,18.2,7,5,4,1,2026-04-25T22:18:45.248360+05:30
Patna,Bihar,25.5941,85.1376,27.7,76,0.0,1000.5,8.65,60.1,164,77.5,58.8,7,5,4,1,2026-04-25T22:18:45.248366+05:30
Gaya,Bihar,24.7914,85.0002,29.1,67,0.0,993.4,8.7,50.8,149,77.3,56.2,7,5,7,1,2026-04-25T22:18:45.248371+05:30
Muzaffarpur,Bihar,26.1209,85.3647,26.4,77,0.0,1000.6,8.6,50.4,168,79.6,60.1,7,5,4,1,2026-04-25T22:18:45.248376+05:30
Bhagalpur,Bihar,25.2425,87.0117,27.4,81,0.0,1001.5,8.6,55.1,192,66.4,55.9,7,5,4,1,2026-04-25T22:18:45.248382+05:30
Ranchi,Jharkhand,23.3441,85.3096,27.0,36,0.0,937.5,9.2,28.8,157,48.8,39.9,4,5,7,0,2026-04-25T22:18:45.248388+05:30
Jamshedpur,Jharkhand,22.8046,86.2029,30.5,71,0.0,990.1,8.9,33.5,157,39.6,34.0,3,5,7,1,2026-04-25T22:18:45.248393+05:30
Dhanbad,Jharkhand,23.7957,86.4304,30.4,72,0.0,980.2,8.95,48.6,163,42.7,39.3,3,5,7,1,2026-04-25T22:18:45.248399+05:30
Bokaro,Jharkhand,23.6693,86.1511,30.1,72,0.0,983.6,8.95,33.1,155,58.4,49.7,3,5,7,1,2026-04-25T22:18:45.248404+05:30
Bhubaneswar,Odisha,20.2961,85.8245,26.8,94,0.0,1003.5,9.1,41.0,61,16.7,13.2,7,5,4,1,2026-04-25T22:18:45.248410+05:30
Cuttack,Odisha,20.4625,85.8828,27.0,92,0.0,1005.2,9.15,38.2,61,16.7,13.2,7,5,4,1,2026-04-25T22:18:45.248415+05:30
Rourkela,Odisha,22.2604,84.8536,30.8,53,0.0,984.2,8.6,45.0,194,52.9,46.4,0,5,7,1,2026-04-25T22:18:45.248420+05:30
Raipur,Chhattisgarh,21.2514,81.6296,35.0,17,0.0,973.7,8.95,31.0,161,40.0,34.5,0,5,7,0,2026-04-25T22:18:45.248426+05:30
Bhilai,Chhattisgarh,21.1938,81.3509,34.3,21,0.0,974.2,9.0,35.6,122,43.7,38.1,0,5,7,0,2026-04-25T22:18:45.248431+05:30
Guwahati,Assam,26.1158,91.7086,23.7,91,0.0,1003.5,8.55,42.1,160,83.1,67.1,3,5,4,1,2026-04-25T22:18:45.248437+05:30
Agartala,Tripura,23.8315,91.2868,29.0,64,0.0,1007.5,8.75,35.6,152,89.2,71.7,7,5,4,1,2026-04-25T22:18:45.248442+05:30
Shillong,Meghalaya,25.5788,91.8933,17.7,79,0.0,858.4,8.2,29.5,145,65.9,50.1,3,5,7,0,2026-04-25T22:18:45.248447+05:30
Imphal,Manipur,24.817,93.9368,19.4,85,0.0,923.8,9.1,38.5,154,115.5,77.3,3,10,7,1,2026-04-25T22:18:45.248453+05:30
Aizawl,Mizoram,23.7271,92.7176,21.2,61,0.0,894.1,8.95,39.6,118,95.2,44.9,3,5,7,0,2026-04-25T22:18:45.248458+05:30
Kohima,Nagaland,25.6701,94.1077,15.4,94,0.0,855.6,8.8,38.2,156,120.1,84.8,3,10,7,0,2026-04-25T22:18:45.248463+05:30
Gangtok,Sikkim,27.3314,88.6138,13.9,84,0.0,838.2,8.8,41.4,94,48.8,35.0,3,10,7,0,2026-04-25T22:18:45.248468+05:30
Siliguri,West Bengal,26.7271,88.3953,24.1,79,0.0,994.5,8.45,33.8,149,92.4,67.8,3,5,7,1,2026-04-25T22:18:48.511951+05:30
Durgapur,West Bengal,23.5204,87.3119,28.4,83,0.0,995.7,8.9,38.5,131,34.0,31.7,7,5,7,1,2026-04-25T22:18:48.511979+05:30
Asansol,West Bengal,23.6739,86.9524,29.1,80,0.0,994.0,8.95,41.0,142,33.8,31.3,7,5,7,1,2026-04-25T22:18:48.511988+05:30
Pondicherry,Puducherry,11.9139,79.8145,29.0,80,0.0,1009.6,9.2,43.6,28,11.8,7.5,7,0,4,1,2026-04-25T22:18:48.511996+05:30
Port Blair,Andaman and Nicobar Islands,11.6234,92.7265,27.6,83,0.0,1008.9,9.15,33.1,41,23.9,16.4,7,0,4,1,2026-04-25T22:18:48.512004+05:30
Haridwar,Uttarakhand,29.9457,78.1642,25.8,48,0.0,973.2,7.25,35.6,79,71.2,30.2,4,5,7,0,2026-04-25T22:18:48.512012+05:30
Rishikesh,Uttarakhand,30.0869,78.2676,24.8,49,0.0,965.8,7.35,28.4,85,125.3,35.0,0,5,7,0,2026-04-25T22:18:48.512020+05:30
Nainital,Uttarakhand,29.3919,79.4542,15.8,56,0.0,805.9,8.2,40.3,134,66.4,25.7,0,5,7,0,2026-04-25T22:18:48.512027+05:30
Mussoorie,Uttarakhand,30.4599,78.0664,17.7,47,0.0,804.2,7.75,59.4,79,69.4,30.0,0,5,7,0,2026-04-25T22:18:48.512034+05:30
Dharamshala,Himachal Pradesh,32.219,76.3234,21.8,42,0.0,871.3,7.65,59.8,50,54.6,18.0,0,5,7,0,2026-04-25T22:18:48.512041+05:30
Dalhousie,Himachal Pradesh,32.5387,75.971,11.6,72,0.0,803.4,8.1,45.7,61,86.4,33.6,3,5,7,0,2026-04-25T22:18:48.512049+05:30
Patiala,Punjab,30.3398,76.3869,30.0,33,0.0,978.5,7.35,56.2,638,717.1,92.7,4,5,7,0,2026-04-25T22:18:48.512056+05:30
Bhatinda,Punjab,30.211,74.9455,30.9,29,0.0,984.1,8.05,52.9,90,107.3,40.3,0,5,7,0,2026-04-25T22:18:48.512064+05:30
Rohtak,Haryana,28.8955,76.6066,30.8,29,0.0,982.0,7.35,51.1,838,1147.4,162.1,0,5,7,0,2026-04-25T22:18:48.512070+05:30
Panipat,Haryana,29.3909,76.9635,31.6,27,0.0,980.6,7.15,54.0,1522,1747.2,215.6,0,5,7,0,2026-04-25T22:18:48.512076+05:30
Mathura,Uttar Pradesh,27.4924,77.6737,33.3,24,0.0,986.7,7.75,45.0,624,1851.5,236.6,0,5,7,0,2026-04-25T22:18:48.512082+05:30
Vrindavan,Uttar Pradesh,27.5823,77.7027,32.7,26,0.0,987.0,7.65,44.6,624,1851.5,236.6,0,5,7,0,2026-04-25T22:18:48.512087+05:30
Ayodhya,Uttar Pradesh,26.7922,82.1998,29.8,60,0.0,994.6,8.05,35.3,139,167.2,67.8,4,5,7,1,2026-04-25T22:18:48.512092+05:30
Ratlam,Madhya Pradesh,23.3315,75.0367,33.8,19,0.0,955.4,8.45,29.9,65,68.0,37.7,0,5,7,0,2026-04-25T22:18:48.512098+05:30
Sagar,Madhya Pradesh,23.8388,78.7378,31.6,22,0.0,950.3,8.65,29.9,89,49.2,19.3,0,5,7,0,2026-04-25T22:18:48.512104+05:30
Satna,Madhya Pradesh,24.6005,80.8322,32.1,24,0.0,970.8,8.65,41.0,102,128.1,33.9,0,5,7,0,2026-04-25T22:18:48.512109+05:30
Akola,Maharashtra,20.7002,77.0082,33.6,22,0.0,974.7,8.7,23.4,117,30.6,22.1,0,5,7,0,2026-04-25T22:18:48.512115+05:30
Amravati,Maharashtra,20.9374,77.7796,35.5,18,0.0,967.5,8.35,27.7,120,41.2,31.2,0,5,10,0,2026-04-25T22:18:48.512122+05:30
Latur,Maharashtra,18.4088,76.5604,30.8,26,0.0,940.3,8.6,32.0,149,47.6,41.4,0,5,7,0,2026-04-25T22:18:48.512127+05:30
Nanded,Maharashtra,19.1383,77.3091,32.2,26,0.0,968.4,8.6,28.8,116,48.2,42.3,0,5,7,0,2026-04-25T22:18:48.512133+05:30
Gulbarga,Karnataka,17.3297,76.8343,32.7,29,0.0,959.5,9.05,27.7,167,48.4,43.7,0,5,7,0,2026-04-25T22:18:48.512138+05:30
Bidar,Karnataka,17.9104,77.5199,29.0,38,0.0,936.4,8.85,27.7,148,60.5,54.1,4,5,7,0,2026-04-25T22:18:48.512144+05:30
Hospet,Karnataka,15.2689,76.3909,32.9,24,0.0,955.9,9.3,27.4,168,43.0,38.3,0,5,7,0,2026-04-25T22:18:48.512149+05:30
Tirupur,Tamil Nadu,11.1085,77.3411,32.5,38,0.0,976.0,9.4,41.8,74,30.3,27.1,0,5,7,1,2026-04-25T22:18:48.512154+05:30
Alappuzha,Kerala,9.4981,76.3388,27.0,94,0.0,1009.9,8.55,39.2,85,21.0,17.8,7,0,4,1,2026-04-25T22:18:48.512159+05:30
Munnar,Kerala,10.0889,77.0595,19.0,69,0.0,858.1,9.15,31.3,61,27.9,26.7,3,5,7,0,2026-04-25T22:18:48.512165+05:30
Silchar,Assam,24.8333,92.7789,25.1,85,0.0,1005.7,8.75,28.8,161,137.8,95.2,7,5,4,1,2026-04-25T22:18:48.512170+05:30
Dibrugarh,Assam,27.4728,94.912,23.6,93,0.0,997.8,8.6,31.7,99,38.5,30.4,3,5,7,1,2026-04-25T22:18:48.512176+05:30
