city,state,latitude,longitude,temp,humidity,rain,pressure,uv_index,wind_gusts,aqi,pm10,pm2_5,mosquito_risk,arthritis_risk,migraine_risk,frizz_risk,updated_at
Delhi,Delhi,28.6139,77.209,27.0,43,0.0,983.8,5.9,23.4,153,198.8,54.7,4,5,3,0,2026-03-17T18:49:18.112468+05:30
Mumbai,Maharashtra,19.076,72.8777,27.5,72,0.0,1007.8,7.7,18.7,142,44.5,20.5,7,5,4,1,2026-03-17T18:49:18.112506+05:30
Bangalore,Karnataka,12.9716,77.5946,23.3,65,0.0,911.8,9.35,42.5,148,49.1,43.3,3,5,7,1,2026-03-17T18:49:18.112521+05:30
Hyderabad,Telangana,17.385,78.4867,25.6,66,0.0,953.9,8.4,19.4,115,42.5,35.5,7,5,7,1,2026-03-17T18:49:18.112531+05:30
Chennai,Tamil Nadu,13.0827,80.2707,27.9,72,0.0,1008.1,9.1,33.1,39,8.4,5.9,7,0,4,1,2026-03-17T18:49:18.112539+05:30
Kolkata,West Bengal,22.5726,88.3639,24.1,81,0.0,1007.9,7.9,53.6,71,21.8,19.2,3,5,4,1,2026-03-17T18:49:18.112548+05:30
Pune,Maharashtra,18.5204,73.8567,28.4,50,0.0,947.4,8.25,36.7,132,40.7,25.6,4,5,7,1,2026-03-17T18:49:18.112560+05:30
Ahmedabad,Gujarat,23.0225,72.5714,33.8,22,0.0,1000.4,7.5,21.2,75,50.5,16.3,0,5,4,0,2026-03-17T18:49:18.112567+05:30
Jaipur,Rajasthan,26.9124,75.7873,29.3,25,0.0,959.4,6.75,38.5,208,151.8,32.5,4,5,7,0,2026-03-17T18:49:18.112576+05:30
Lucknow,Uttar Pradesh,26.8467,80.9462,30.3,32,0.0,992.6,6.65,24.8,117,77.8,32.4,0,5,7,0,2026-03-17T18:49:18.112585+05:30
Kanpur,Uttar Pradesh,26.4499,80.3319,29.4,36,0.0,990.6,6.7,23.8,120,135.5,31.5,4,5,7,0,2026-03-17T18:49:18.112592+05:30
Chandigarh,Chandigarh,30.7333,76.7794,21.9,64,0.0,970.3,5.65,17.3,102,109.9,37.6,3,5,3,0,2026-03-17T18:49:18.112600+05:30
Srinagar,Jammu and Kashmir,34.0837,74.7973,9.4,70,0.0,840.4,7.05,13.7,195,60.1,46.3,3,5,7,0,2026-03-17T18:49:18.112607+05:30
Jammu,Jammu and Kashmir,32.7266,74.857,22.9,56,0.0,974.6,6.7,15.8,81,51.1,27.5,0,5,7,0,2026-03-17T18:49:18.112622+05:30
Amritsar,Punjab,31.634,74.8723,22.7,54,0.0,982.9,6.5,16.9,86,96.9,36.2,0,5,7,0,2026-03-17T18:49:18.112636+05:30
Ludhiana,Punjab,30.901,75.8573,22.5,56,0.0,980.6,6.2,16.2,80,133.6,50.3,0,5,7,0,2026-03-17T18:49:18.112643+05:30
Jalandhar,Punjab,31.326,75.5762,21.7,61,0.0,981.9,6.5,16.9,77,100.6,39.5,3,5,7,0,2026-03-17T18:49:18.112653+05:30
Dehradun,Uttarakhand,30.6284,78.0322,13.7,58,0.0,829.3,4.95,23.8,77,77.8,16.4,0,5,3,0,2026-03-17T18:49:18.112672+05:30
Shimla,Himachal Pradesh,31.1048,77.1734,12.4,71,0.0,783.7,5.45,23.0,83,94.1,22.8,3,5,3,0,2026-03-17T18:49:18.112681+05:30
Manali,Himachal Pradesh,32.2396,77.1887,10.8,50,0.0,818.7,7.35,38.2,111,49.1,11.0,0,5,7,0,2026-03-17T18:49:18.112688+05:30
Gurgaon,Haryana,28.4595,77.0266,25.1,53,0.0,982.2,6.05,22.7,785,310.1,71.0,4,5,7,0,2026-03-17T18:49:18.112694+05:30
Noida,Uttar Pradesh,28.5355,77.391,26.9,45,0.0,985.3,6.0,23.0,785,310.1,71.0,4,5,3,0,2026-03-17T18:49:18.112701+05:30
Ghaziabad,Uttar Pradesh,28.6692,77.4538,25.7,50,0.0,983.5,5.85,20.5,143,88.7,42.6,4,5,3,0,2026-03-17T18:49:18.112708+05:30
Faridabad,Haryana,28.4089,77.3178,25.9,48,0.0,984.4,6.05,21.6,785,310.1,71.0,4,5,7,0,2026-03-17T18:49:18.112715+05:30
Meerut,Uttar Pradesh,28.9845,77.7064,24.4,53,0.0,982.3,5.9,17.3,143,88.7,42.6,0,5,3,0,2026-03-17T18:49:18.112721+05:30
Agra,Uttar Pradesh,27.1767,78.0081,28.0,43,0.0,987.3,6.35,16.6,437,427.5,71.0,4,5,7,0,2026-03-17T18:49:18.112727+05:30
Varanasi,Uttar Pradesh,25.3176,82.9739,30.0,39,0.0,996.8,7.35,20.2,146,55.1,34.8,4,5,7,0,2026-03-17T18:49:18.112738+05:30
Prayagraj,Uttar Pradesh,25.4358,81.8463,28.8,45,0.0,994.9,7.2,20.9,132,49.6,28.6,4,5,7,0,2026-03-17T18:49:18.112745+05:30
Gorakhpur,Uttar Pradesh,26.7606,83.3732,27.6,43,0.0,996.6,7.05,23.4,102,55.9,29.6,4,5,7,0,2026-03-17T18:49:18.112752+05:30
Bareilly,Uttar Pradesh,28.367,79.4304,25.2,48,0.0,987.2,5.4,16.9,104,78.2,36.6,4,5,3,0,2026-03-17T18:49:18.112759+05:30
Aligarh,Uttar Pradesh,27.8974,78.088,27.1,42,0.0,985.4,6.15,16.9,189,130.4,47.1,4,5,7,0,2026-03-17T18:49:18.112766+05:30
Moradabad,Uttar Pradesh,28.8386,78.7733,24.3,53,0.0,984.4,5.45,16.9,117,83.1,43.3,0,5,3,0,2026-03-17T18:49:18.112772+05:30
Saharanpur,Uttar Pradesh,29.9637,77.546,23.3,52,0.0,977.1,4.7,14.8,119,87.1,34.1,0,5,3,0,2026-03-17T18:49:18.112778+05:30
Jhansi,Uttar Pradesh,25.4484,78.5685,30.4,27,0.0,977.0,7.2,24.5,91,44.0,17.5,0,5,7,0,2026-03-17T18:49:21.454919+05:30
Surat,Gujarat,21.1702,72.8311,26.5,72,0.0,1005.9,7.35,29.5,90,52.7,32.0,7,5,4,1,2026-03-17T18:49:21.454946+05:30
Vadodara,Gujarat,22.3072,73.1812,32.7,24,0.0,1002.8,7.5,28.1,88,36.9,20.3,0,5,4,0,2026-03-17T18:49:21.454956+05:30
Rajkot,Gujarat,22.3039,70.8022,33.7,24,0.0,992.5,7.35,24.1,76,34.2,12.4,0,5,7,0,2026-03-17T18:49:21.454964+05:30
Thane,Maharashtra,19.2183,72.9781,27.3,67,0.0,1007.2,7.7,31.3,142,44.5,20.5,7,5,4,1,2026-03-17T18:49:21.454972+05:30
Nagpur,Maharashtra,21.1458,79.0882,31.4,35,0.0,971.8,8.05,19.8,115,26.5,20.5,0,5,7,0,2026-03-17T18:49:21.454979+05:30
Nashik,Maharashtra,19.9975,73.7898,27.4,51,0.0,944.6,7.9,30.6,76,33.4,14.6,4,5,7,1,2026-03-17T18:49:21.454986+05:30
Aurangabad,Maharashtra,19.8762,75.3433,30.9,23,0.0,942.9,8.4,29.5,92,25.8,17.4,0,5,7,0,2026-03-17T18:49:21.454993+05:30
Solapur,Maharashtra,17.6599,75.9064,30.0,36,0.0,956.5,8.6,33.5,162,37.8,32.7,4,5,7,0,2026-03-17T18:49:21.455000+05:30
Kolhapur,Maharashtra,16.705,74.2433,26.1,59,0.0,947.1,8.7,39.2,109,34.0,29.2,4,5,7,1,2026-03-17T18:49:21.455006+05:30
Goa,Goa,15.2993,74.124,28.7,66,0.0,997.7,8.75,33.8,71,52.4,19.0,7,5,7,1,2026-03-17T18:49:21.455013+05:30
Jodhpur,Rajasthan,26.2389,73.0243,31.7,17,0.0,982.0,6.15,30.6,114,131.3,27.0,0,5,7,0,2026-03-17T18:49:21.455020+05:30
Udaipur,Rajasthan,24.5854,73.7125,29.0,18,0.0,945.6,7.85,34.6,80,18.5,7.7,4,5,7,0,2026-03-17T18:49:21.455027+05:30
Kota,Rajasthan,25.2138,75.8648,31.5,23,0.0,976.9,7.25,27.7,85,38.8,17.4,0,5,7,0,2026-03-17T18:49:21.455034+05:30
Bikaner,Rajasthan,28.0229,73.3119,27.7,25,0.0,982.8,6.55,20.9,102,51.9,18.1,4,5,7,0,2026-03-17T18:49:21.455040+05:30
Ajmer,Rajasthan,26.4499,74.6399,29.1,21,0.0,954.0,6.5,37.4,131,68.0,18.4,4,5,7,0,2026-03-17T18:49:21.455046+05:30
Gwalior,Madhya Pradesh,26.2183,78.1828,27.8,57,0.0,982.5,6.9,38.5,109,62.6,22.5,4,5,7,1,2026-03-17T18:49:21.455053+05:30
Indore,Madhya Pradesh,22.7196,75.8577,29.4,28,0.0,946.7,7.75,33.1,97,24.9,13.8,4,5,7,0,2026-03-17T18:49:21.455059+05:30
Bhopal,Madhya Pradesh,23.2599,77.4126,29.3,22,0.0,952.5,7.65,31.3,92,16.4,9.9,4,5,7,0,2026-03-17T18:49:21.455066+05:30
Jabalpur,Madhya Pradesh,23.1815,79.9864,29.5,32,0.0,960.4,7.75,28.4,92,17.6,12.7,4,5,7,0,2026-03-17T18:49:21.455072+05:30
Ujjain,Madhya Pradesh,23.1765,75.7885,28.8,32,0.0,952.6,7.65,27.7,84,24.5,15.8,4,5,7,0,2026-03-17T18:49:21.455079+05:30
Visakhapatnam,Andhra Pradesh,17.6868,83.2185,26.3,75,0.0,1006.1,8.7,36.4,56,13.6,11.3,7,5,4,1,2026-03-17T18:49:21.455085+05:30
Vijayawada,Andhra Pradesh,16.5062,80.648,28.3,59,0.0,1003.8,8.8,27.0,51,13.1,11.5,4,5,4,1,2026-03-17T18:49:21.455092+05:30
Guntur,Andhra Pradesh,16.3067,80.4365,27.6,66,0.0,1004.9,8.8,29.9,48,12.4,10.4,7,5,4,1,2026-03-17T18:49:21.455099+05:30
Nellore,Andhra Pradesh,14.4426,79.9865,27.8,67,0.0,1007.0,8.95,32.4,64,9.3,7.1,7,5,4,1,2026-03-17T18:49:21.455105+05:30
Kurnool,Andhra Pradesh,15.8281,78.0373,29.7,53,0.0,977.6,8.45,26.6,115,39.3,32.5,4,5,7,1,2026-03-17T18:49:21.455113+05:30
Kakinada,Andhra Pradesh,16.9891,82.2475,26.7,71,0.0,1009.6,8.75,31.0,39,9.0,6.4,7,0,4,1,2026-03-17T18:49:21.455119+05:30
Tirupati,Andhra Pradesh,13.6288,79.4192,29.6,51,0.0,992.0,9.1,30.2,84,17.9,16.8,4,5,7,1,2026-03-17T18:49:21.455126+05:30
Warangal,Telangana,17.9689,79.5941,28.6,60,0.0,979.7,8.5,29.9,61,30.9,25.7,4,5,7,1,2026-03-17T18:49:21.455133+05:30
Nizamabad,Telangana,18.6725,78.0941,29.5,42,0.0,964.4,8.45,37.8,135,60.3,50.2,4,5,7,0,2026-03-17T18:49:21.455139+05:30
Mysore,Karnataka,12.2958,76.6396,24.2,69,0.0,928.2,9.35,33.8,157,38.2,34.7,3,5,7,1,2026-03-17T18:49:21.455146+05:30
Mangalore,Karnataka,12.9141,74.856,28.7,77,0.0,1006.5,8.95,19.4,94,31.4,19.6,7,5,4,1,2026-03-17T18:49:21.455152+05:30
Hubli-Dharwad,Karnataka,15.3647,75.124,27.0,51,0.0,941.0,8.7,27.7,139,34.5,29.2,4,5,7,0,2026-03-17T18:49:21.455159+05:30
Belgaum,Karnataka,15.8497,74.4977,25.8,58,0.0,925.5,8.95,38.2,124,34.0,19.2,4,5,7,1,2026-03-17T18:49:24.797161+05:30
Coimbatore,Tamil Nadu,11.0168,76.9558,27.0,63,0.0,961.3,9.3,27.4,118,30.5,27.8,7,5,7,1,2026-03-17T18:49:24.797187+05:30
Madurai,Tamil Nadu,9.9252,78.1198,26.1,80,0.0,993.9,7.55,32.4,54,14.5,13.2,7,5,7,1,2026-03-17T18:49:24.797196+05:30
Trichy,Tamil Nadu,10.7905,78.7047,30.9,54,0.0,999.2,9.2,22.0,51,12.9,11.7,0,5,7,1,2026-03-17T18:49:24.797204+05:30
Salem,Tamil Nadu,11.6643,78.146,30.7,48,0.0,977.1,9.25,21.2,116,35.0,31.3,0,5,7,1,2026-03-17T18:49:24.797210+05:30
Tirunelveli,Tamil Nadu,8.7139,77.7567,26.0,78,0.0,1003.8,7.05,33.8,83,19.1,17.6,7,5,4,1,2026-03-17T18:49:24.797217+05:30
Vellore,Tamil Nadu,12.9165,79.1325,29.1,48,0.0,984.7,9.15,33.8,78,16.4,14.5,4,5,7,1,2026-03-17T18:49:24.797224+05:30
Erode,Tamil Nadu,11.341,77.7172,30.7,54,0.0,988.8,9.25,25.6,70,23.8,20.8,0,5,7,1,2026-03-17T18:49:24.797230+05:30
Kochi,Kerala,9.9312,76.2673,28.1,83,0.0,1008.1,9.0,30.6,109,31.9,28.8,7,0,4,1,2026-03-17T18:49:24.797238+05:30
Thiruvananthapuram,Kerala,8.5241,76.9366,27.8,81,0.0,1007.7,8.3,23.4,92,18.7,16.1,7,5,4,1,2026-03-17T18:49:24.797244+05:30
Kozhikode,Kerala,11.2588,75.7804,29.1,73,0.0,1007.4,8.95,26.6,111,33.8,26.8,7,5,4,1,2026-03-17T18:49:24.797250+05:30
Thrissur,Kerala,10.5276,76.2144,28.3,76,0.0,1006.6,8.75,33.1,101,34.3,31.3,7,5,4,1,2026-03-17T18:49:24.797257+05:30
Kannur,Kerala,11.8745,75.3704,29.3,70,0.0,1006.8,9.0,25.9,117,32.8,22.4,7,5,4,1,2026-03-17T18:49:24.797263+05:30
Patna,Bihar,25.5941,85.1376,29.9,40,0.0,1000.1,7.45,23.8,149,57.4,38.1,4,5,4,0,2026-03-17T18:49:24.797269+05:30
Gaya,Bihar,24.7914,85.0002,28.0,45,0.0,993.4,7.6,27.7,103,42.1,27.0,4,5,7,0,2026-03-17T18:49:24.797276+05:30
Muzaffarpur,Bihar,26.1209,85.3647,28.4,50,0.0,1000.2,7.45,20.9,154,58.3,39.6,4,5,4,1,2026-03-17T18:49:24.797281+05:30
Bhagalpur,Bihar,25.2425,87.0117,28.1,52,0.0,1001.1,7.5,20.2,153,65.9,47.3,4,5,4,1,2026-03-17T18:49:24.797288+05:30
Ranchi,Jharkhand,23.3441,85.3096,25.2,49,0.0,938.7,8.2,54.7,148,64.7,56.9,4,5,7,0,2026-03-17T18:49:24.797294+05:30
Jamshedpur,Jharkhand,22.8046,86.2029,27.2,54,0.0,992.4,8.15,42.1,164,66.6,54.1,4,5,7,1,2026-03-17T18:49:24.797299+05:30
Dhanbad,Jharkhand,23.7957,86.4304,30.2,37,0.0,980.2,8.0,35.3,145,63.1,56.7,0,5,7,0,2026-03-17T18:49:24.797306+05:30
Bokaro,Jharkhand,23.6693,86.1511,28.4,46,0.0,984.4,8.0,40.7,124,55.1,47.7,4,5,7,0,2026-03-17T18:49:24.797312+05:30
Bhubaneswar,Odisha,20.2961,85.8245,26.6,71,0.0,1006.1,7.95,37.4,57,19.7,16.5,7,5,4,1,2026-03-17T18:49:24.797318+05:30
Cuttack,Odisha,20.4625,85.8828,23.4,85,0.0,1008.1,7.95,36.4,57,19.7,16.5,3,0,4,1,2026-03-17T18:49:24.797324+05:30
Rourkela,Odisha,22.2604,84.8536,27.3,55,0.0,986.8,8.05,65.2,187,68.2,58.6,4,5,7,1,2026-03-17T18:49:24.797330+05:30
Raipur,Chhattisgarh,21.2514,81.6296,30.4,38,0.0,975.0,8.15,36.4,141,55.3,46.3,0,5,7,0,2026-03-17T18:49:24.797336+05:30
Bhilai,Chhattisgarh,21.1938,81.3509,29.6,42,0.0,975.1,8.15,37.4,133,47.1,39.0,4,5,7,0,2026-03-17T18:49:24.797342+05:30
Guwahati,Assam,26.1158,91.7086,23.6,79,0.0,1002.9,7.5,43.2,97,43.8,37.1,3,5,4,1,2026-03-17T18:49:24.797348+05:30
Agartala,Tripura,23.8315,91.2868,26.8,61,0.0,1006.9,7.8,43.6,93,38.4,35.0,7,5,4,1,2026-03-17T18:49:24.797354+05:30
Shillong,Meghalaya,25.5788,91.8933,12.8,79,0.0,855.4,7.9,77.8,83,33.8,29.1,3,5,7,0,2026-03-17T18:49:24.797359+05:30
Imphal,Manipur,24.817,93.9368,16.9,83,0.0,923.9,8.05,91.4,102,36.7,30.5,3,10,7,0,2026-03-17T18:49:24.797366+05:30
Aizawl,Mizoram,23.7271,92.7176,19.5,65,0.0,893.7,8.1,61.9,95,43.5,37.0,3,5,7,0,2026-03-17T18:49:24.797372+05:30
Kohima,Nagaland,25.6701,94.1077,15.3,67,0.0,854.7,7.95,97.6,86,34.0,26.7,3,5,7,0,2026-03-17T18:49:24.797378+05:30
Gangtok,Sikkim,27.3314,88.6138,13.7,80,0.0,836.5,7.7,20.2,91,49.9,26.0,3,5,7,0,2026-03-17T18:49:24.797384+05:30
Siliguri,West Bengal,26.7271,88.3953,21.3,69,0.0,993.9,7.4,41.8,137,58.1,37.8,3,5,7,0,2026-03-17T18:49:28.147065+05:30
Durgapur,West Bengal,23.5204,87.3119,27.6,55,0.0,995.6,8.0,33.1,152,53.6,45.8,4,5,7,1,2026-03-17T18:49:28.147094+05:30
Asansol,West Bengal,23.6739,86.9524,28.8,50,0.0,994.0,8.0,32.8,139,54.8,49.2,4,5,7,1,2026-03-17T18:49:28.147104+05:30
Pondicherry,Puducherry,11.9139,79.8145,27.5,76,0.0,1008.8,8.2,29.5,30,8.0,5.3,7,0,4,1,2026-03-17T18:49:28.147112+05:30
Port Blair,Andaman and Nicobar Islands,11.6234,92.7265,28.2,76,0.0,1008.6,9.0,18.4,53,17.8,14.7,7,0,4,1,2026-03-17T18:49:28.147120+05:30
Haridwar,Uttarakhand,29.9457,78.1642,23.1,57,0.0,975.5,4.35,18.4,95,86.4,31.1,0,5,3,0,2026-03-17T18:49:28.147127+05:30
Rishikesh,Uttarakhand,30.0869,78.2676,21.7,58,0.0,968.3,4.55,19.8,98,59.8,18.9,0,5,3,0,2026-03-17T18:49:28.147134+05:30
Nainital,Uttarakhand,29.3919,79.4542,17.5,45,0.0,805.9,5.6,37.8,98,82.2,24.9,0,5,3,0,2026-03-17T18:49:28.147142+05:30
Mussoorie,Uttarakhand,30.4599,78.0664,13.9,62,0.0,801.8,4.9,29.5,86,88.5,23.9,3,5,3,0,2026-03-17T18:49:28.147148+05:30
Dharamshala,Himachal Pradesh,32.219,76.3234,17.6,45,0.0,869.1,5.2,26.3,101,88.2,18.7,0,5,3,0,2026-03-17T18:49:28.147155+05:30
Dalhousie,Himachal Pradesh,32.5387,75.971,15.7,39,0.0,803.4,5.15,24.1,88,104.5,27.5,0,5,3,0,2026-03-17T18:49:28.147163+05:30
Patiala,Punjab,30.3398,76.3869,21.9,65,0.0,979.9,5.35,16.9,101,231.9,56.1,3,5,3,0,2026-03-17T18:49:28.147170+05:30
Bhatinda,Punjab,30.211,74.9455,22.3,51,0.0,985.7,6.45,19.4,91,119.7,37.3,0,5,7,0,2026-03-17T18:49:28.147176+05:30
Rohtak,Haryana,28.8955,76.6066,23.5,60,0.0,982.7,6.15,20.9,204,301.7,64.5,0,5,7,0,2026-03-17T18:49:28.147183+05:30
Panipat,Haryana,29.3909,76.9635,23.3,54,0.0,981.5,6.0,17.6,173,296.2,67.3,0,5,3,0,2026-03-17T18:49:28.147189+05:30
Mathura,Uttar Pradesh,27.4924,77.6737,28.5,35,0.0,986.5,6.25,19.8,459,257.0,58.3,4,5,7,0,2026-03-17T18:49:28.147196+05:30
Vrindavan,Uttar Pradesh,27.5823,77.7027,27.8,40,0.0,987.1,6.2,19.1,459,257.0,58.3,4,5,7,0,2026-03-17T18:49:28.147203+05:30
Ayodhya,Uttar Pradesh,26.7922,82.1998,28.5,46,0.0,994.8,6.85,33.8,98,78.9,35.5,4,5,7,0,2026-03-17T18:49:28.147209+05:30
Ratlam,Madhya Pradesh,23.3315,75.0367,29.9,23,0.0,953.7,7.55,34.2,89,18.3,11.5,4,5,7,0,2026-03-17T18:49:28.147216+05:30
Sagar,Madhya Pradesh,23.8388,78.7378,27.9,32,0.0,949.1,7.65,30.6,91,11.3,7.1,4,5,7,0,2026-03-17T18:49:28.147223+05:30
Satna,Madhya Pradesh,24.6005,80.8322,31.2,19,0.0,970.3,7.55,28.8,98,17.3,9.9,0,5,7,0,2026-03-17T18:49:28.147229+05:30
Akola,Maharashtra,20.7002,77.0082,32.9,22,0.0,973.2,8.05,24.1,122,31.7,23.2,0,5,7,0,2026-03-17T18:49:28.147236+05:30
Amravati,Maharashtra,20.9374,77.7796,31.8,26,0.0,965.6,8.05,29.2,116,35.6,25.1,0,5,7,0,2026-03-17T18:49:28.147244+05:30
Latur,Maharashtra,18.4088,76.5604,28.1,42,0.0,939.4,8.5,29.9,140,49.9,42.1,4,5,7,0,2026-03-17T18:49:28.147250+05:30
Nanded,Maharashtra,19.1383,77.3091,32.2,27,0.0,967.4,8.3,21.6,133,46.4,37.0,0,5,7,0,2026-03-17T18:49:28.147257+05:30
Gulbarga,Karnataka,17.3297,76.8343,26.5,58,0.0,959.3,8.15,38.5,158,41.2,36.0,4,5,7,1,2026-03-17T18:49:28.147262+05:30
Bidar,Karnataka,17.9104,77.5199,23.9,68,0.0,935.9,8.3,49.0,140,43.8,37.1,3,5,7,1,2026-03-17T18:49:28.147268+05:30
Hospet,Karnataka,15.2689,76.3909,27.9,61,0.0,956.1,8.8,32.8,158,47.5,42.3,7,5,7,1,2026-03-17T18:49:28.147275+05:30
Tirupur,Tamil Nadu,11.1085,77.3411,28.4,59,0.0,975.0,9.3,36.7,93,26.1,22.3,4,5,7,1,2026-03-17T18:49:28.147281+05:30
Alappuzha,Kerala,9.4981,76.3388,28.0,83,0.0,1008.3,9.05,27.4,105,28.3,24.8,7,0,4,1,2026-03-17T18:49:28.147287+05:30
Munnar,Kerala,10.0889,77.0595,21.9,80,0.0,856.9,9.6,31.7,80,21.1,19.8,3,5,7,1,2026-03-17T18:49:28.147294+05:30
Silchar,Assam,24.8333,92.7789,23.8,76,0.0,1006.4,7.9,46.8,85,50.6,43.8,3,5,4,1,2026-03-17T18:49:28.147300+05:30
Dibrugarh,Assam,27.4728,94.912,19.7,90,0.0,997.7,7.45,45.0,103,38.8,30.7,3,10,7,1,2026-03-17T18:49:28.147306+05:30
