city,state,latitude,longitude,temp,humidity,rain,pressure,uv_index,wind_gusts,aqi,pm10,pm2_5,no2,co,o3,so2,mosquito_risk,arthritis_risk,migraine_risk,frizz_risk,updated_at
Delhi,Delhi,28.6139,77.209,34.9,36,0.0,977.8,7.75,30.6,535,678.0,132.7,29.3,239.0,68.0,15.6,0,5,7,1,2026-06-21T21:24:40.844859+05:30
Mumbai,Maharashtra,19.076,72.8777,29.9,66,0.0,1006.5,7.7,37.8,50,15.1,10.0,8.5,143.0,40.0,6.5,7,5,4,1,2026-06-21T21:24:40.844893+05:30
Bangalore,Karnataka,12.9716,77.5946,21.3,95,0.1,913.1,7.55,32.0,57,9.7,9.1,20.4,399.0,38.0,5.6,6,5,7,1,2026-06-21T21:24:40.844908+05:30
Hyderabad,Telangana,17.385,78.4867,29.2,61,0.0,952.9,9.0,31.3,69,29.3,24.8,23.8,439.0,48.0,7.5,7,5,7,1,2026-06-21T21:24:40.844918+05:30
Chennai,Tamil Nadu,13.0827,80.2707,28.6,86,0.0,1007.5,7.15,32.8,79,34.7,27.5,19.5,171.0,86.0,11.4,7,5,4,1,2026-06-21T21:24:40.844926+05:30
Kolkata,West Bengal,22.5726,88.3639,28.8,90,0.0,1002.8,6.5,28.4,106,40.7,37.5,11.2,390.0,105.0,12.1,7,5,4,1,2026-06-21T21:24:40.844934+05:30
Pune,Maharashtra,18.5204,73.8567,26.0,77,0.0,946.8,8.25,51.5,44,13.9,10.5,8.2,139.0,61.0,8.0,7,5,7,1,2026-06-21T21:24:40.844940+05:30
Ahmedabad,Gujarat,23.0225,72.5714,32.5,60,0.0,998.3,8.05,37.1,73,64.0,28.3,12.1,150.0,56.0,6.0,0,5,7,1,2026-06-21T21:24:40.844946+05:30
Jaipur,Rajasthan,26.9124,75.7873,28.1,65,0.0,956.0,7.45,41.8,117,129.5,50.4,15.3,266.0,50.0,6.9,7,5,7,1,2026-06-21T21:24:40.844953+05:30
Lucknow,Uttar Pradesh,26.8467,80.9462,35.6,37,0.0,988.2,8.2,39.2,273,321.3,75.9,8.2,178.0,85.0,5.1,0,5,10,1,2026-06-21T21:24:40.844964+05:30
Kanpur,Uttar Pradesh,26.4499,80.3319,35.8,38,0.0,986.8,8.3,44.6,408,333.4,67.1,6.6,175.0,81.0,4.3,0,5,10,1,2026-06-21T21:24:40.844971+05:30
Chandigarh,Chandigarh,30.7333,76.7794,30.2,45,0.0,963.2,7.8,39.6,134,30.4,26.8,16.0,496.0,101.0,9.4,0,5,7,1,2026-06-21T21:24:40.844977+05:30
Srinagar,Jammu and Kashmir,34.0837,74.7973,18.8,79,0.0,839.9,8.95,27.4,88,22.4,19.7,16.9,709.0,87.0,3.3,3,5,7,0,2026-06-21T21:24:40.844984+05:30
Jammu,Jammu and Kashmir,32.7266,74.857,33.0,29,0.0,967.0,8.6,36.7,108,29.6,24.0,23.8,357.0,86.0,4.6,0,5,7,0,2026-06-21T21:24:40.844990+05:30
Amritsar,Punjab,31.634,74.8723,30.0,61,0.0,974.6,8.45,25.2,122,71.9,48.3,25.1,466.0,83.0,10.5,7,5,7,1,2026-06-21T21:24:40.844996+05:30
Ludhiana,Punjab,30.901,75.8573,32.8,45,0.0,972.9,8.05,39.2,141,127.6,54.1,15.7,500.0,85.0,5.7,0,5,7,1,2026-06-21T21:24:40.845002+05:30
Jalandhar,Punjab,31.326,75.5762,32.8,46,0.0,973.7,8.2,33.1,142,83.6,46.7,19.2,602.0,87.0,6.4,0,5,7,1,2026-06-21T21:24:40.845008+05:30
Dehradun,Uttarakhand,30.6284,78.0322,18.4,78,0.0,827.3,8.25,32.0,111,24.9,19.3,12.1,281.0,103.0,2.0,3,5,7,0,2026-06-21T21:24:40.845015+05:30
Shimla,Himachal Pradesh,31.1048,77.1734,16.7,65,0.0,782.7,8.35,45.0,98,19.2,13.4,7.9,290.0,113.0,4.3,3,5,7,0,2026-06-21T21:24:40.845021+05:30
Manali,Himachal Pradesh,32.2396,77.1887,17.1,70,0.0,816.8,9.75,37.1,119,15.8,12.9,49.4,193.0,83.0,0.3,3,5,7,0,2026-06-21T21:24:40.845031+05:30
Gurgaon,Haryana,28.4595,77.0266,32.0,45,0.0,976.3,7.85,29.5,1240,590.5,119.7,34.4,521.0,51.0,13.1,0,5,7,1,2026-06-21T21:24:40.845039+05:30
Noida,Uttar Pradesh,28.5355,77.391,32.2,47,0.0,978.7,7.8,25.2,1240,590.5,119.7,34.4,378.0,51.0,13.1,0,5,7,1,2026-06-21T21:24:40.845045+05:30
Ghaziabad,Uttar Pradesh,28.6692,77.4538,33.0,42,0.0,977.0,7.8,27.7,440,644.5,133.6,27.3,331.0,81.0,18.0,0,5,7,1,2026-06-21T21:24:40.845051+05:30
Faridabad,Haryana,28.4089,77.3178,33.1,44,0.0,978.3,7.85,30.6,1240,590.5,119.7,34.4,405.0,51.0,13.1,0,5,7,1,2026-06-21T21:24:40.845057+05:30
Meerut,Uttar Pradesh,28.9845,77.7064,31.6,53,0.0,975.7,7.7,34.6,440,644.5,133.6,27.3,351.0,81.0,18.0,0,5,7,1,2026-06-21T21:24:40.845063+05:30
Agra,Uttar Pradesh,27.1767,78.0081,32.3,49,0.0,983.2,8.15,37.8,901,149.5,50.9,22.0,258.0,54.0,8.4,0,5,7,1,2026-06-21T21:24:40.845069+05:30
Varanasi,Uttar Pradesh,25.3176,82.9739,35.1,47,0.0,992.9,8.75,40.3,112,81.0,44.7,14.1,242.0,70.0,9.2,0,5,10,1,2026-06-21T21:24:40.845075+05:30
Prayagraj,Uttar Pradesh,25.4358,81.8463,36.3,38,0.0,991.2,8.7,41.0,121,68.5,37.1,9.9,234.0,73.0,7.0,0,5,10,1,2026-06-21T21:24:40.845082+05:30
Gorakhpur,Uttar Pradesh,26.7606,83.3732,32.9,53,0.0,991.9,8.65,37.1,160,150.9,80.6,18.2,337.0,82.0,11.9,0,5,7,1,2026-06-21T21:24:40.845088+05:30
Bareilly,Uttar Pradesh,28.367,79.4304,32.0,49,0.0,981.3,8.1,40.0,163,181.6,77.1,10.8,337.0,137.0,12.6,0,5,7,1,2026-06-21T21:24:40.845096+05:30
Aligarh,Uttar Pradesh,27.8974,78.088,31.2,51,0.0,980.3,8.0,37.1,802,452.6,91.5,16.2,225.0,74.0,7.3,0,5,7,1,2026-06-21T21:24:40.845103+05:30
Moradabad,Uttar Pradesh,28.8386,78.7733,31.1,58,0.0,977.9,7.95,39.2,172,292.4,98.0,19.3,341.0,105.0,13.0,0,5,7,1,2026-06-21T21:24:40.845109+05:30
Saharanpur,Uttar Pradesh,29.9637,77.546,31.0,46,0.0,969.7,7.45,36.4,166,340.9,81.3,11.7,374.0,109.0,10.1,0,5,7,1,2026-06-21T21:24:40.845115+05:30
Jhansi,Uttar Pradesh,25.4484,78.5685,32.0,50,0.0,974.4,8.3,42.1,97,79.2,35.3,5.0,146.0,64.0,2.3,0,5,7,1,2026-06-21T21:24:44.180394+05:30
Surat,Gujarat,21.1702,72.8311,30.0,75,0.0,1004.3,7.6,42.8,59,23.9,15.7,16.8,180.0,33.0,28.1,7,5,4,1,2026-06-21T21:24:44.180421+05:30
Vadodara,Gujarat,22.3072,73.1812,31.0,63,0.0,1001.4,8.0,43.9,55,18.5,13.4,11.8,122.0,46.0,13.3,3,5,4,1,2026-06-21T21:24:44.180431+05:30
Rajkot,Gujarat,22.3039,70.8022,31.9,55,0.0,990.9,7.5,40.3,68,50.5,20.4,3.2,105.0,58.0,3.4,0,5,7,1,2026-06-21T21:24:44.180439+05:30
Thane,Maharashtra,19.2183,72.9781,30.3,64,0.0,1005.9,7.7,37.4,50,15.1,10.0,8.5,143.0,40.0,6.5,3,5,4,1,2026-06-21T21:24:44.180446+05:30
Nagpur,Maharashtra,21.1458,79.0882,30.3,74,0.0,971.4,8.85,40.7,65,36.3,20.8,9.6,174.0,84.0,15.7,3,5,7,1,2026-06-21T21:24:44.180452+05:30
Nashik,Maharashtra,19.9975,73.7898,27.1,68,0.0,944.1,7.95,39.2,32,12.7,8.9,3.8,109.0,57.0,2.1,7,5,7,1,2026-06-21T21:24:44.180459+05:30
Aurangabad,Maharashtra,19.8762,75.3433,30.2,50,0.0,942.6,8.95,47.9,40,13.4,10.5,5.2,151.0,70.0,4.7,0,5,7,1,2026-06-21T21:24:44.180466+05:30
Solapur,Maharashtra,17.6599,75.9064,28.5,60,0.0,956.1,8.9,39.2,51,7.0,5.9,3.8,137.0,72.0,2.0,4,5,7,1,2026-06-21T21:24:44.180473+05:30
Kolhapur,Maharashtra,16.705,74.2433,25.3,84,0.1,947.4,8.05,40.3,35,8.1,7.6,7.1,151.0,46.0,2.8,10,5,7,1,2026-06-21T21:24:44.180480+05:30
Goa,Goa,15.2993,74.124,25.0,98,0.1,997.7,7.65,36.0,27,6.9,5.6,2.9,219.0,42.0,1.0,10,5,7,1,2026-06-21T21:24:44.180487+05:30
Jodhpur,Rajasthan,26.2389,73.0243,34.3,41,0.0,978.2,8.35,43.2,146,229.1,51.1,5.6,149.0,60.0,1.8,0,5,7,1,2026-06-21T21:24:44.180494+05:30
Udaipur,Rajasthan,24.5854,73.7125,29.4,52,0.0,943.4,8.8,41.4,73,45.4,21.4,4.7,130.0,64.0,2.5,4,5,7,1,2026-06-21T21:24:44.180500+05:30
Kota,Rajasthan,25.2138,75.8648,30.3,65,0.0,975.0,8.35,42.8,93,65.9,34.5,9.5,215.0,59.0,5.2,3,5,7,1,2026-06-21T21:24:44.180506+05:30
Bikaner,Rajasthan,28.0229,73.3119,29.9,60,0.0,976.2,8.45,37.8,153,163.4,49.5,3.8,202.0,64.0,1.9,4,5,7,1,2026-06-21T21:24:44.180512+05:30
Ajmer,Rajasthan,26.4499,74.6399,30.0,55,0.0,951.1,8.25,48.2,92,81.3,32.9,7.2,179.0,56.0,3.1,4,5,7,1,2026-06-21T21:24:44.180519+05:30
Gwalior,Madhya Pradesh,26.2183,78.1828,32.6,44,0.0,979.4,8.15,46.4,102,69.8,31.7,6.1,134.0,65.0,2.9,0,5,7,1,2026-06-21T21:24:44.180525+05:30
Indore,Madhya Pradesh,22.7196,75.8577,29.4,65,0.0,946.0,8.5,37.1,77,45.3,29.6,12.2,237.0,58.0,5.9,7,5,7,1,2026-06-21T21:24:44.180531+05:30
Bhopal,Madhya Pradesh,23.2599,77.4126,27.9,79,0.0,951.6,8.0,37.4,82,62.4,36.0,11.7,403.0,58.0,4.5,7,5,7,1,2026-06-21T21:24:44.180538+05:30
Jabalpur,Madhya Pradesh,23.1815,79.9864,31.0,54,0.0,959.4,8.3,37.4,76,27.7,21.9,10.9,235.0,62.0,3.7,0,5,7,1,2026-06-21T21:24:44.180544+05:30
Ujjain,Madhya Pradesh,23.1765,75.7885,31.0,47,0.0,951.7,7.8,40.3,75,42.7,26.1,5.3,218.0,70.0,4.7,0,5,7,1,2026-06-21T21:24:44.180551+05:30
Visakhapatnam,Andhra Pradesh,17.6868,83.2185,28.8,88,0.0,1002.0,4.75,39.2,74,24.4,22.4,21.4,260.0,77.0,34.2,7,5,0,1,2026-06-21T21:24:44.180557+05:30
Vijayawada,Andhra Pradesh,16.5062,80.648,27.7,85,0.0,1001.6,6.8,40.3,82,30.9,29.2,17.1,273.0,57.0,6.9,7,5,4,1,2026-06-21T21:24:44.180563+05:30
Guntur,Andhra Pradesh,16.3067,80.4365,28.4,77,0.0,1003.0,5.55,22.0,82,27.2,25.8,17.2,224.0,56.0,6.5,7,5,0,1,2026-06-21T21:24:44.180570+05:30
Nellore,Andhra Pradesh,14.4426,79.9865,29.2,82,0.0,1005.7,4.55,32.8,92,28.2,23.4,5.0,223.0,131.0,8.1,7,5,0,1,2026-06-21T21:24:44.180577+05:30
Kurnool,Andhra Pradesh,15.8281,78.0373,27.2,74,0.1,977.1,8.05,45.0,74,22.5,18.2,6.8,234.0,87.0,5.4,10,5,7,1,2026-06-21T21:24:44.180584+05:30
Kakinada,Andhra Pradesh,16.9891,82.2475,28.7,80,0.0,1006.0,2.85,42.8,72,26.3,23.1,7.6,244.0,104.0,6.5,7,5,0,1,2026-06-21T21:24:44.180590+05:30
Tirupati,Andhra Pradesh,13.6288,79.4192,27.5,83,0.0,992.0,7.9,22.3,75,31.1,26.0,17.7,279.0,60.0,3.5,7,5,7,1,2026-06-21T21:24:44.180596+05:30
Warangal,Telangana,17.9689,79.5941,28.7,62,0.0,977.7,7.8,34.2,76,34.9,30.0,13.3,256.0,65.0,5.8,7,5,7,1,2026-06-21T21:24:44.180602+05:30
Nizamabad,Telangana,18.6725,78.0941,29.8,66,0.0,963.6,8.7,36.0,63,25.1,22.2,7.9,187.0,87.0,4.1,7,5,7,1,2026-06-21T21:24:44.180608+05:30
Mysore,Karnataka,12.2958,76.6396,22.0,95,0.0,929.6,8.4,43.6,31,6.6,6.3,10.0,185.0,43.0,2.6,3,5,7,1,2026-06-21T21:24:44.180615+05:30
Mangalore,Karnataka,12.9141,74.856,25.6,96,0.1,1008.1,7.85,34.2,26,8.6,6.3,4.4,270.0,43.0,1.7,10,0,4,1,2026-06-21T21:24:44.180621+05:30
Hubli-Dharwad,Karnataka,15.3647,75.124,24.1,89,0.0,941.0,7.55,43.9,27,4.1,3.5,4.9,121.0,40.0,1.2,3,5,7,1,2026-06-21T21:24:44.180627+05:30
Belgaum,Karnataka,15.8497,74.4977,22.9,92,0.0,925.3,8.85,37.4,31,7.0,6.4,7.9,130.0,35.0,2.3,3,5,7,1,2026-06-21T21:24:47.511629+05:30
Coimbatore,Tamil Nadu,11.0168,76.9558,23.7,92,0.0,963.1,8.2,45.4,29,5.8,5.3,7.6,158.0,42.0,3.1,3,5,7,1,2026-06-21T21:24:47.511659+05:30
Madurai,Tamil Nadu,9.9252,78.1198,28.3,78,0.1,994.4,8.15,35.6,71,24.2,20.7,26.3,362.0,39.0,6.5,10,5,7,1,2026-06-21T21:24:47.511672+05:30
Trichy,Tamil Nadu,10.7905,78.7047,26.9,89,0.0,1001.3,8.25,29.2,59,17.0,14.3,11.0,201.0,71.0,3.5,7,5,4,1,2026-06-21T21:24:47.511681+05:30
Salem,Tamil Nadu,11.6643,78.146,25.6,88,0.2,979.2,7.85,22.3,67,13.3,11.8,12.1,220.0,64.0,4.9,10,5,7,1,2026-06-21T21:24:47.511690+05:30
Tirunelveli,Tamil Nadu,8.7139,77.7567,28.7,72,0.0,1004.6,8.55,30.6,31,7.7,6.3,5.1,178.0,46.0,1.4,7,5,4,1,2026-06-21T21:24:47.511698+05:30
Vellore,Tamil Nadu,12.9165,79.1325,26.5,87,0.0,985.4,6.05,28.1,86,32.1,27.3,17.9,473.0,72.0,5.4,7,5,7,1,2026-06-21T21:24:47.511706+05:30
Erode,Tamil Nadu,11.341,77.7172,27.0,76,0.0,990.7,8.7,45.4,48,10.2,9.1,10.3,142.0,55.0,3.2,7,5,7,1,2026-06-21T21:24:47.511713+05:30
Kochi,Kerala,9.9312,76.2673,25.4,94,0.2,1011.7,8.3,29.5,47,10.2,8.4,9.2,137.0,35.0,3.0,10,0,4,1,2026-06-21T21:24:47.511721+05:30
Thiruvananthapuram,Kerala,8.5241,76.9366,24.4,99,0.1,1011.0,8.0,31.7,29,7.9,4.8,2.2,184.0,54.0,0.8,6,0,4,1,2026-06-21T21:24:47.511729+05:30
Kozhikode,Kerala,11.2588,75.7804,24.8,100,0.1,1010.4,8.15,27.0,26,6.9,4.2,0.9,353.0,55.0,0.6,6,0,4,1,2026-06-21T21:24:47.511737+05:30
Thrissur,Kerala,10.5276,76.2144,24.7,96,0.0,1010.1,7.95,32.0,45,10.5,9.3,8.8,289.0,33.0,2.7,3,0,4,1,2026-06-21T21:24:47.511746+05:30
Kannur,Kerala,11.8745,75.3704,25.6,96,0.1,1009.2,8.35,30.6,23,8.7,6.9,7.5,253.0,37.0,1.9,10,0,4,1,2026-06-21T21:24:47.511754+05:30
Patna,Bihar,25.5941,85.1376,32.5,64,0.0,995.4,8.6,31.7,156,155.1,81.3,26.7,308.0,77.0,15.6,3,5,7,1,2026-06-21T21:24:47.511762+05:30
Gaya,Bihar,24.7914,85.0002,31.9,57,0.0,989.5,8.6,37.4,136,108.0,50.5,10.4,253.0,88.0,6.9,0,5,7,1,2026-06-21T21:24:47.511769+05:30
Muzaffarpur,Bihar,26.1209,85.3647,29.4,77,0.0,995.8,8.45,39.6,161,96.9,65.2,18.4,435.0,105.0,14.5,7,5,7,1,2026-06-21T21:24:47.511776+05:30
Bhagalpur,Bihar,25.2425,87.0117,29.6,79,0.0,997.3,8.4,28.8,130,64.7,47.3,10.7,327.0,131.0,20.1,7,5,7,1,2026-06-21T21:24:47.511784+05:30
Ranchi,Jharkhand,23.3441,85.3096,27.1,77,0.0,935.6,6.9,31.0,123,39.6,37.7,8.4,248.0,128.0,8.9,7,5,7,1,2026-06-21T21:24:47.511792+05:30
Jamshedpur,Jharkhand,22.8046,86.2029,29.9,72,0.0,987.7,8.6,27.0,157,55.4,52.2,19.9,886.0,107.0,22.2,7,5,7,1,2026-06-21T21:24:47.511800+05:30
Dhanbad,Jharkhand,23.7957,86.4304,29.4,85,0.0,976.5,5.9,33.8,159,62.9,60.8,39.8,205.0,94.0,107.9,7,5,3,1,2026-06-21T21:24:47.511807+05:30
Bokaro,Jharkhand,23.6693,86.1511,29.5,92,0.0,980.3,6.05,36.7,129,53.4,50.1,26.4,187.0,106.0,75.0,7,5,7,1,2026-06-21T21:24:47.511815+05:30
Bhubaneswar,Odisha,20.2961,85.8245,28.3,96,0.0,1000.3,8.4,32.4,122,41.3,38.6,13.9,311.0,96.0,8.5,7,5,4,1,2026-06-21T21:24:47.511823+05:30
Cuttack,Odisha,20.4625,85.8828,28.1,93,0.0,1002.1,8.5,22.7,122,41.3,38.6,13.9,334.0,96.0,8.5,7,5,4,1,2026-06-21T21:24:47.511830+05:30
Rourkela,Odisha,22.2604,84.8536,28.0,79,0.0,982.2,8.7,53.6,173,41.7,37.7,10.0,372.0,130.0,13.0,7,5,7,1,2026-06-21T21:24:47.511837+05:30
Raipur,Chhattisgarh,21.2514,81.6296,32.4,49,0.0,972.4,8.85,44.6,91,39.3,29.9,20.4,209.0,80.0,36.9,0,5,7,1,2026-06-21T21:24:47.511845+05:30
Bhilai,Chhattisgarh,21.1938,81.3509,31.5,52,0.0,973.1,8.9,49.3,78,37.4,28.3,17.6,253.0,78.0,30.8,0,5,7,1,2026-06-21T21:24:47.511853+05:30
Guwahati,Assam,26.1158,91.7086,25.2,99,0.0,999.4,7.95,25.6,86,16.5,15.1,9.0,327.0,65.0,3.2,7,5,7,1,2026-06-21T21:24:47.511861+05:30
Agartala,Tripura,23.8315,91.2868,26.9,90,0.0,1004.5,8.45,40.0,62,17.2,16.2,9.0,205.0,66.0,2.4,7,5,4,1,2026-06-21T21:24:47.511869+05:30
Shillong,Meghalaya,25.5788,91.8933,19.7,96,0.0,856.0,6.35,37.8,40,3.3,2.7,6.0,228.0,78.0,1.9,3,10,7,1,2026-06-21T21:24:47.511877+05:30
Imphal,Manipur,24.817,93.9368,24.2,91,0.0,922.2,8.8,27.4,70,19.7,17.5,8.3,479.0,53.0,2.4,3,5,7,1,2026-06-21T21:24:47.511885+05:30
Aizawl,Mizoram,23.7271,92.7176,20.3,94,0.0,891.5,9.0,32.0,35,6.3,5.8,3.2,172.0,55.0,0.8,3,5,7,1,2026-06-21T21:24:47.511893+05:30
Kohima,Nagaland,25.6701,94.1077,19.3,96,0.0,854.2,7.95,24.1,50,13.8,11.8,7.5,339.0,56.0,1.7,3,10,7,1,2026-06-21T21:24:47.511900+05:30
Gangtok,Sikkim,27.3314,88.6138,18.3,96,0.3,836.3,8.25,29.2,81,3.5,3.1,4.6,377.0,127.0,3.0,6,10,7,1,2026-06-21T21:24:47.511908+05:30
Siliguri,West Bengal,26.7271,88.3953,24.6,95,0.2,990.6,7.75,29.2,77,21.0,17.3,9.8,572.0,92.0,4.6,6,5,7,1,2026-06-21T21:24:50.844150+05:30
Durgapur,West Bengal,23.5204,87.3119,28.9,92,0.0,991.6,8.75,34.2,153,63.6,62.2,25.2,790.0,107.0,47.1,7,5,7,1,2026-06-21T21:24:50.844178+05:30
Asansol,West Bengal,23.6739,86.9524,29.0,87,0.0,990.2,8.05,40.7,158,59.6,57.9,29.8,386.0,99.0,57.3,7,5,7,1,2026-06-21T21:24:50.844191+05:30
Pondicherry,Puducherry,11.9139,79.8145,29.2,82,0.0,1008.8,8.05,37.1,65,21.2,15.4,6.5,212.0,93.0,6.0,7,0,4,1,2026-06-21T21:24:50.844201+05:30
Port Blair,Andaman and Nicobar Islands,11.6234,92.7265,26.1,91,0.0,1010.6,7.95,33.8,54,10.2,5.3,0.3,93.0,45.0,0.3,7,0,4,1,2026-06-21T21:24:50.844260+05:30
Haridwar,Uttarakhand,29.9457,78.1642,29.6,63,0.0,968.1,7.6,29.9,157,119.7,41.9,10.8,361.0,118.0,11.0,7,5,7,1,2026-06-21T21:24:50.844275+05:30
Rishikesh,Uttarakhand,30.0869,78.2676,27.8,68,0.0,960.9,7.7,23.0,152,52.5,26.4,7.8,395.0,141.0,9.1,7,5,7,1,2026-06-21T21:24:50.844285+05:30
Nainital,Uttarakhand,29.3919,79.4542,16.8,86,0.0,802.9,8.6,31.0,138,73.8,40.6,8.1,326.0,124.0,7.3,3,10,7,0,2026-06-21T21:24:50.844295+05:30
Mussoorie,Uttarakhand,30.4599,78.0664,16.9,74,0.0,800.2,8.15,42.8,151,32.6,24.2,12.9,386.0,125.0,8.4,3,5,7,0,2026-06-21T21:24:50.844303+05:30
Dharamshala,Himachal Pradesh,32.219,76.3234,21.8,56,0.0,865.9,8.5,42.5,76,15.4,12.4,10.3,375.0,75.0,1.2,0,5,7,0,2026-06-21T21:24:50.844312+05:30
Dalhousie,Himachal Pradesh,32.5387,75.971,16.0,73,0.0,801.7,8.75,38.5,99,22.2,17.6,16.6,494.0,120.0,2.6,3,5,7,0,2026-06-21T21:24:50.844322+05:30
Patiala,Punjab,30.3398,76.3869,31.9,44,0.0,972.5,7.7,41.4,415,948.1,167.6,11.6,338.0,90.0,7.1,0,5,7,1,2026-06-21T21:24:50.844331+05:30
Bhatinda,Punjab,30.211,74.9455,32.2,48,0.0,977.9,8.3,40.0,151,66.1,39.9,22.0,261.0,60.0,5.6,0,5,7,1,2026-06-21T21:24:50.844340+05:30
Rohtak,Haryana,28.8955,76.6066,31.5,45,0.0,976.6,7.75,32.4,626,776.7,143.9,37.8,306.0,50.0,9.6,0,5,7,1,2026-06-21T21:24:50.844348+05:30
Panipat,Haryana,29.3909,76.9635,31.5,48,0.0,974.6,7.65,33.8,1743,2645.0,377.2,16.3,350.0,85.0,7.5,0,5,7,1,2026-06-21T21:24:50.844357+05:30
Mathura,Uttar Pradesh,27.4924,77.6737,31.2,50,0.0,981.8,8.05,39.2,811,166.7,50.2,24.5,328.0,50.0,5.2,0,5,7,1,2026-06-21T21:24:50.844365+05:30
Vrindavan,Uttar Pradesh,27.5823,77.7027,30.9,52,0.0,982.1,8.05,34.6,811,166.7,50.2,24.5,259.0,50.0,5.2,0,5,7,1,2026-06-21T21:24:50.844374+05:30
Ayodhya,Uttar Pradesh,26.7922,82.1998,33.1,54,0.0,989.8,8.45,36.7,163,199.8,80.8,14.4,220.0,74.0,7.8,0,5,7,1,2026-06-21T21:24:50.844382+05:30
Ratlam,Madhya Pradesh,23.3315,75.0367,30.1,54,0.0,952.5,8.45,40.7,70,37.0,22.7,3.7,158.0,76.0,4.9,0,5,7,1,2026-06-21T21:24:50.844390+05:30
Sagar,Madhya Pradesh,23.8388,78.7378,27.4,73,0.0,948.0,6.75,41.0,80,41.1,28.5,10.9,168.0,55.0,2.4,7,5,7,1,2026-06-21T21:24:50.844398+05:30
Satna,Madhya Pradesh,24.6005,80.8322,32.4,48,0.0,968.2,8.3,38.2,87,50.2,28.9,8.6,177.0,69.0,3.6,0,5,7,1,2026-06-21T21:24:50.844406+05:30
Akola,Maharashtra,20.7002,77.0082,34.7,38,0.0,972.5,8.8,42.8,56,24.4,17.3,10.7,142.0,68.0,6.2,0,5,7,1,2026-06-21T21:24:50.844416+05:30
Amravati,Maharashtra,20.9374,77.7796,32.8,47,0.0,965.5,8.35,42.5,58,25.2,17.6,9.5,206.0,70.0,6.2,0,5,7,1,2026-06-21T21:24:50.844425+05:30
Latur,Maharashtra,18.4088,76.5604,32.0,40,0.0,938.7,6.85,28.1,66,18.5,13.9,5.8,293.0,83.0,2.1,0,5,7,1,2026-06-21T21:24:50.844433+05:30
Nanded,Maharashtra,19.1383,77.3091,28.1,73,0.1,966.9,8.0,35.3,59,28.0,22.8,9.3,168.0,86.0,6.9,10,5,7,1,2026-06-21T21:24:50.844441+05:30
Gulbarga,Karnataka,17.3297,76.8343,29.1,61,0.0,958.1,8.35,33.5,53,20.7,15.0,12.2,293.0,67.0,3.3,7,5,7,1,2026-06-21T21:24:50.844449+05:30
Bidar,Karnataka,17.9104,77.5199,28.1,71,0.0,934.7,8.8,30.2,67,39.7,31.8,24.4,235.0,51.0,3.9,7,5,7,1,2026-06-21T21:24:50.844457+05:30
Hospet,Karnataka,15.2689,76.3909,25.2,83,0.0,956.4,8.5,44.6,33,5.9,5.4,7.4,137.0,53.0,1.6,7,5,7,1,2026-06-21T21:24:50.844466+05:30
Tirupur,Tamil Nadu,11.1085,77.3411,25.2,86,0.0,976.6,8.45,47.5,50,10.8,9.8,12.0,141.0,47.0,4.3,7,5,7,1,2026-06-21T21:24:50.844473+05:30
Alappuzha,Kerala,9.4981,76.3388,25.6,93,0.1,1011.6,8.1,33.8,33,9.1,6.5,4.5,85.0,45.0,1.5,10,0,4,1,2026-06-21T21:24:50.844481+05:30
Munnar,Kerala,10.0889,77.0595,17.3,99,0.1,858.5,8.25,32.4,39,7.2,6.7,7.3,102.0,40.0,2.2,6,10,7,1,2026-06-21T21:24:50.844490+05:30
Silchar,Assam,24.8333,92.7789,25.5,99,0.0,1003.9,8.85,30.6,73,24.9,20.3,6.8,353.0,76.0,3.2,7,5,4,1,2026-06-21T21:24:50.844498+05:30
Dibrugarh,Assam,27.4728,94.912,25.5,93,0.0,993.4,3.45,35.3,70,22.7,21.1,10.8,239.0,72.0,2.2,7,5,3,1,2026-06-21T21:24:50.844506+05:30
