city,state,latitude,longitude,temp,humidity,rain,pressure,uv_index,wind_gusts,aqi,pm10,pm2_5,mosquito_risk,arthritis_risk,migraine_risk,frizz_risk,updated_at
Delhi,Delhi,28.6139,77.209,27.0,48,0.0,985.1,7.15,31.0,532,501.1,90.3,4,5,7,0,2026-04-11T21:06:41.434788+05:30
Mumbai,Maharashtra,19.076,72.8777,29.0,72,0.0,1009.5,7.95,23.4,167,38.9,31.7,7,0,4,1,2026-04-11T21:06:41.434834+05:30
Bangalore,Karnataka,12.9716,77.5946,29.6,38,0.0,913.2,9.65,27.4,115,38.6,32.0,4,5,7,0,2026-04-11T21:06:41.434850+05:30
Hyderabad,Telangana,17.385,78.4867,33.3,34,0.0,954.7,9.2,18.7,168,47.7,39.6,0,5,7,0,2026-04-11T21:06:41.434860+05:30
Chennai,Tamil Nadu,13.0827,80.2707,29.2,82,0.0,1008.9,9.05,35.6,56,18.2,12.7,7,0,4,1,2026-04-11T21:06:41.434868+05:30
Kolkata,West Bengal,22.5726,88.3639,26.0,79,0.0,1007.3,8.75,18.0,132,85.4,73.6,7,5,4,1,2026-04-11T21:06:41.434877+05:30
Pune,Maharashtra,18.5204,73.8567,29.1,49,0.0,950.2,8.55,38.9,176,50.1,44.4,4,5,7,1,2026-04-11T21:06:41.434888+05:30
Ahmedabad,Gujarat,23.0225,72.5714,33.0,29,0.0,1002.9,8.05,22.3,142,60.3,45.8,0,5,4,0,2026-04-11T21:06:41.434896+05:30
Jaipur,Rajasthan,26.9124,75.7873,29.0,30,0.0,961.3,7.85,40.7,111,160.2,35.5,4,5,7,0,2026-04-11T21:06:41.434903+05:30
Lucknow,Uttar Pradesh,26.8467,80.9462,28.1,38,0.0,995.1,7.65,42.1,277,334.3,62.2,4,5,7,0,2026-04-11T21:06:41.434911+05:30
Kanpur,Uttar Pradesh,26.4499,80.3319,26.3,54,0.0,993.5,7.65,36.4,625,558.8,83.8,4,5,7,1,2026-04-11T21:06:41.434918+05:30
Chandigarh,Chandigarh,30.7333,76.7794,22.4,57,0.0,971.7,7.15,29.9,114,89.9,39.2,0,5,7,0,2026-04-11T21:06:41.434926+05:30
Srinagar,Jammu and Kashmir,34.0837,74.7973,9.6,79,0.0,841.1,7.4,14.0,91,44.4,27.7,3,5,7,0,2026-04-11T21:06:41.434934+05:30
Jammu,Jammu and Kashmir,32.7266,74.857,21.3,64,0.0,976.1,6.8,16.6,98,55.9,31.8,3,5,7,0,2026-04-11T21:06:41.434941+05:30
Amritsar,Punjab,31.634,74.8723,22.5,61,0.0,984.3,7.7,18.7,104,80.8,36.1,3,5,7,0,2026-04-11T21:06:41.434947+05:30
Ludhiana,Punjab,30.901,75.8573,24.3,48,0.0,982.1,7.35,28.8,101,106.9,48.4,0,5,7,0,2026-04-11T21:06:41.434954+05:30
Jalandhar,Punjab,31.326,75.5762,22.7,59,0.0,983.4,7.5,23.4,101,89.2,36.7,0,5,7,0,2026-04-11T21:06:41.434962+05:30
Dehradun,Uttarakhand,30.6284,78.0322,13.6,68,0.0,830.8,7.55,42.5,96,74.5,18.3,3,5,7,0,2026-04-11T21:06:41.434968+05:30
Shimla,Himachal Pradesh,31.1048,77.1734,11.5,68,0.0,784.8,7.5,46.4,96,78.7,23.9,3,5,7,0,2026-04-11T21:06:41.434975+05:30
Manali,Himachal Pradesh,32.2396,77.1887,12.5,86,0.0,820.0,8.5,29.5,136,25.1,8.4,3,10,7,0,2026-04-11T21:06:41.434983+05:30
Gurgaon,Haryana,28.4595,77.0266,26.0,52,0.0,983.4,7.3,26.3,1417,895.9,124.8,4,5,7,0,2026-04-11T21:06:41.434990+05:30
Noida,Uttar Pradesh,28.5355,77.391,26.7,50,0.0,986.5,7.2,31.3,1417,895.9,124.8,4,5,7,0,2026-04-11T21:06:41.434997+05:30
Ghaziabad,Uttar Pradesh,28.6692,77.4538,25.8,55,0.0,984.6,7.15,29.9,411,401.4,77.5,4,5,7,1,2026-04-11T21:06:41.435003+05:30
Faridabad,Haryana,28.4089,77.3178,26.3,52,0.0,985.9,7.25,31.0,1417,895.9,124.8,4,5,7,0,2026-04-11T21:06:41.435010+05:30
Meerut,Uttar Pradesh,28.9845,77.7064,24.2,57,0.0,983.5,7.05,34.2,411,401.4,77.5,0,5,7,0,2026-04-11T21:06:41.435016+05:30
Agra,Uttar Pradesh,27.1767,78.0081,27.7,44,0.0,989.5,7.55,28.8,901,868.0,111.3,4,5,7,0,2026-04-11T21:06:41.435022+05:30
Varanasi,Uttar Pradesh,25.3176,82.9739,27.8,41,0.0,998.9,8.25,37.8,122,93.1,39.7,4,5,7,0,2026-04-11T21:06:41.435031+05:30
Prayagraj,Uttar Pradesh,25.4358,81.8463,28.0,38,0.0,997.8,8.15,39.2,132,158.8,48.0,4,5,7,0,2026-04-11T21:06:41.435039+05:30
Gorakhpur,Uttar Pradesh,26.7606,83.3732,27.4,36,0.0,997.8,8.1,29.2,139,69.6,30.0,4,5,7,0,2026-04-11T21:06:41.435047+05:30
Bareilly,Uttar Pradesh,28.367,79.4304,24.4,55,0.0,988.4,7.45,46.4,101,71.7,29.2,0,5,7,0,2026-04-11T21:06:41.435075+05:30
Aligarh,Uttar Pradesh,27.8974,78.088,24.8,49,0.0,987.5,7.35,37.1,956,700.4,114.3,0,5,7,0,2026-04-11T21:06:41.435082+05:30
Moradabad,Uttar Pradesh,28.8386,78.7733,24.4,59,0.0,985.5,7.3,41.4,101,151.3,45.4,0,5,7,0,2026-04-11T21:06:41.435091+05:30
Saharanpur,Uttar Pradesh,29.9637,77.546,23.2,54,0.0,978.3,6.85,35.3,99,108.0,37.7,0,5,7,0,2026-04-11T21:06:41.435098+05:30
Jhansi,Uttar Pradesh,25.4484,78.5685,29.1,36,0.0,979.9,8.1,25.6,109,34.7,17.3,4,5,7,0,2026-04-11T21:06:44.781956+05:30
Surat,Gujarat,21.1702,72.8311,30.0,47,0.0,1007.4,7.8,27.7,153,80.1,74.5,4,5,4,1,2026-04-11T21:06:44.781988+05:30
Vadodara,Gujarat,22.3072,73.1812,31.2,34,0.0,1004.7,8.05,18.4,174,51.5,43.2,0,5,4,0,2026-04-11T21:06:44.781998+05:30
Rajkot,Gujarat,22.3039,70.8022,29.9,35,0.0,996.4,7.75,31.3,116,67.5,27.0,4,5,7,0,2026-04-11T21:06:44.782006+05:30
Thane,Maharashtra,19.2183,72.9781,28.1,71,0.0,1008.9,7.95,37.1,167,38.9,31.7,7,0,4,1,2026-04-11T21:06:44.782013+05:30
Nagpur,Maharashtra,21.1458,79.0882,29.1,45,0.0,974.7,8.75,22.7,148,33.5,27.7,4,5,7,0,2026-04-11T21:06:44.782021+05:30
Nashik,Maharashtra,19.9975,73.7898,28.5,45,0.0,947.4,8.25,36.7,177,35.9,30.7,4,5,7,0,2026-04-11T21:06:44.782028+05:30
Aurangabad,Maharashtra,19.8762,75.3433,31.0,29,0.0,945.6,8.9,33.1,135,27.9,20.5,0,5,7,0,2026-04-11T21:06:44.782036+05:30
Solapur,Maharashtra,17.6599,75.9064,34.3,28,0.0,957.5,9.0,18.7,157,49.6,36.8,0,5,7,0,2026-04-11T21:06:44.782043+05:30
Kolhapur,Maharashtra,16.705,74.2433,25.8,61,0.0,949.3,8.5,42.5,143,37.0,31.1,7,5,7,1,2026-04-11T21:06:44.782050+05:30
Goa,Goa,15.2993,74.124,28.5,76,0.0,999.8,9.05,34.9,107,70.1,32.2,7,5,7,1,2026-04-11T21:06:44.782080+05:30
Jodhpur,Rajasthan,26.2389,73.0243,30.1,35,0.0,984.4,8.05,33.1,92,256.1,48.4,0,5,7,0,2026-04-11T21:06:44.782087+05:30
Udaipur,Rajasthan,24.5854,73.7125,28.5,35,0.0,948.7,8.6,36.4,114,25.1,14.8,4,5,7,0,2026-04-11T21:06:44.782095+05:30
Kota,Rajasthan,25.2138,75.8648,27.8,49,0.0,980.1,8.1,21.6,127,39.8,29.6,4,5,7,1,2026-04-11T21:06:44.782101+05:30
Bikaner,Rajasthan,28.0229,73.3119,30.1,30,0.0,984.0,7.9,32.8,109,74.0,23.1,0,5,7,0,2026-04-11T21:06:44.782108+05:30
Ajmer,Rajasthan,26.4499,74.6399,26.4,44,0.0,955.9,8.0,40.3,112,68.0,22.9,4,5,7,0,2026-04-11T21:06:44.782115+05:30
Gwalior,Madhya Pradesh,26.2183,78.1828,28.1,46,0.0,984.8,7.8,30.6,115,41.6,22.0,4,5,7,0,2026-04-11T21:06:44.782121+05:30
Indore,Madhya Pradesh,22.7196,75.8577,26.5,41,0.0,949.8,8.5,21.6,146,50.6,39.7,4,5,7,0,2026-04-11T21:06:44.782128+05:30
Bhopal,Madhya Pradesh,23.2599,77.4126,29.2,28,0.0,955.4,8.5,24.5,114,34.0,19.0,4,5,7,0,2026-04-11T21:06:44.782135+05:30
Jabalpur,Madhya Pradesh,23.1815,79.9864,29.3,34,0.0,963.1,8.6,18.4,116,67.1,32.9,4,5,7,0,2026-04-11T21:06:44.782141+05:30
Ujjain,Madhya Pradesh,23.1765,75.7885,27.3,40,0.0,955.7,8.4,20.5,129,61.9,50.2,4,5,7,0,2026-04-11T21:06:44.782148+05:30
Visakhapatnam,Andhra Pradesh,17.6868,83.2185,28.3,85,0.0,1005.6,9.15,39.6,77,27.6,21.3,7,5,4,1,2026-04-11T21:06:44.782155+05:30
Vijayawada,Andhra Pradesh,16.5062,80.648,30.3,63,0.0,1003.7,9.2,25.6,87,21.8,18.3,3,5,4,1,2026-04-11T21:06:44.782163+05:30
Guntur,Andhra Pradesh,16.3067,80.4365,28.7,76,0.0,1005.2,9.25,33.5,109,28.9,24.7,7,5,4,1,2026-04-11T21:06:44.782169+05:30
Nellore,Andhra Pradesh,14.4426,79.9865,28.5,85,0.0,1007.4,9.3,40.7,70,16.4,11.6,7,5,4,1,2026-04-11T21:06:44.782177+05:30
Kurnool,Andhra Pradesh,15.8281,78.0373,35.3,39,0.0,976.7,9.2,27.0,122,34.6,27.1,0,5,10,1,2026-04-11T21:06:44.782185+05:30
Kakinada,Andhra Pradesh,16.9891,82.2475,28.5,84,0.0,1009.1,9.2,33.8,60,21.7,14.2,7,0,4,1,2026-04-11T21:06:44.782192+05:30
Tirupati,Andhra Pradesh,13.6288,79.4192,29.6,68,0.0,993.5,9.4,32.0,94,25.0,21.9,7,5,7,1,2026-04-11T21:06:44.782199+05:30
Warangal,Telangana,17.9689,79.5941,32.5,40,0.0,979.5,9.05,25.2,157,49.8,39.7,0,5,7,1,2026-04-11T21:06:44.782205+05:30
Nizamabad,Telangana,18.6725,78.0941,31.4,45,0.0,965.9,9.0,24.8,161,58.8,46.1,0,5,7,1,2026-04-11T21:06:44.782211+05:30
Mysore,Karnataka,12.2958,76.6396,26.8,71,0.0,929.9,9.35,38.9,115,53.2,43.1,7,5,7,1,2026-04-11T21:06:44.782218+05:30
Mangalore,Karnataka,12.9141,74.856,29.6,81,0.0,1008.0,8.6,25.9,88,71.0,30.2,7,0,4,1,2026-04-11T21:06:44.782225+05:30
Hubli-Dharwad,Karnataka,15.3647,75.124,25.8,79,0.0,942.2,9.25,42.5,163,42.1,27.4,7,5,7,1,2026-04-11T21:06:44.782231+05:30
Belgaum,Karnataka,15.8497,74.4977,24.3,83,0.0,927.1,9.3,43.9,151,44.0,28.8,3,5,7,1,2026-04-11T21:06:48.122575+05:30
Coimbatore,Tamil Nadu,11.0168,76.9558,27.5,76,0.0,963.0,8.2,46.1,106,44.1,37.4,7,5,7,1,2026-04-11T21:06:48.122612+05:30
Madurai,Tamil Nadu,9.9252,78.1198,30.0,65,0.0,994.7,8.45,40.0,84,29.9,25.6,7,5,7,1,2026-04-11T21:06:48.122626+05:30
Trichy,Tamil Nadu,10.7905,78.7047,30.2,69,0.0,1000.9,9.4,27.7,85,24.6,21.7,3,5,4,1,2026-04-11T21:06:48.122637+05:30
Salem,Tamil Nadu,11.6643,78.146,31.8,47,0.0,978.0,9.1,21.6,112,30.6,25.8,0,5,7,1,2026-04-11T21:06:48.122647+05:30
Tirunelveli,Tamil Nadu,8.7139,77.7567,30.2,64,0.0,1004.5,9.25,46.1,100,23.6,20.3,3,5,4,1,2026-04-11T21:06:48.122658+05:30
Vellore,Tamil Nadu,12.9165,79.1325,29.7,62,0.0,986.1,9.45,35.3,101,30.5,27.3,7,5,7,1,2026-04-11T21:06:48.122668+05:30
Erode,Tamil Nadu,11.341,77.7172,33.0,44,0.0,989.4,8.95,31.0,112,28.7,23.9,0,5,7,1,2026-04-11T21:06:48.122681+05:30
Kochi,Kerala,9.9312,76.2673,29.6,82,0.0,1009.6,8.8,29.9,67,34.1,22.8,7,0,4,1,2026-04-11T21:06:48.122691+05:30
Thiruvananthapuram,Kerala,8.5241,76.9366,29.2,81,0.0,1009.4,7.6,36.4,74,32.4,17.4,7,0,4,1,2026-04-11T21:06:48.122699+05:30
Kozhikode,Kerala,11.2588,75.7804,30.0,81,0.0,1008.7,8.75,28.8,60,39.0,16.5,7,0,4,1,2026-04-11T21:06:48.122707+05:30
Thrissur,Kerala,10.5276,76.2144,29.1,82,0.0,1008.0,8.8,31.7,66,31.1,19.6,7,0,4,1,2026-04-11T21:06:48.122716+05:30
Kannur,Kerala,11.8745,75.3704,29.6,79,0.0,1008.2,8.65,31.3,66,63.1,32.4,7,0,4,1,2026-04-11T21:06:48.122724+05:30
Patna,Bihar,25.5941,85.1376,28.0,42,0.0,1000.6,8.45,28.4,129,106.6,56.9,4,5,4,0,2026-04-11T21:06:48.122732+05:30
Gaya,Bihar,24.7914,85.0002,26.9,38,0.0,994.7,8.5,33.5,116,78.5,37.1,4,5,7,0,2026-04-11T21:06:48.122739+05:30
Muzaffarpur,Bihar,26.1209,85.3647,25.6,48,0.0,1000.9,8.4,16.2,125,123.9,65.9,4,5,4,0,2026-04-11T21:06:48.122747+05:30
Bhagalpur,Bihar,25.2425,87.0117,25.2,61,0.0,1001.8,8.45,20.5,148,324.1,79.4,7,5,4,1,2026-04-11T21:06:48.122754+05:30
Ranchi,Jharkhand,23.3441,85.3096,23.9,35,0.0,939.7,9.05,31.7,114,76.8,26.5,0,5,7,0,2026-04-11T21:06:48.122762+05:30
Jamshedpur,Jharkhand,22.8046,86.2029,25.9,61,0.0,992.2,8.85,14.8,129,161.6,46.0,7,5,7,1,2026-04-11T21:06:48.122769+05:30
Dhanbad,Jharkhand,23.7957,86.4304,28.1,37,0.0,980.9,8.8,24.5,148,150.4,64.3,4,5,7,0,2026-04-11T21:06:48.122777+05:30
Bokaro,Jharkhand,23.6693,86.1511,25.0,43,0.0,985.1,8.8,25.6,142,131.3,54.8,4,5,7,0,2026-04-11T21:06:48.122785+05:30
Bhubaneswar,Odisha,20.2961,85.8245,27.4,90,0.0,1004.8,9.0,26.3,155,48.7,43.4,7,5,4,1,2026-04-11T21:06:48.122793+05:30
Cuttack,Odisha,20.4625,85.8828,28.0,84,0.0,1006.5,9.05,20.2,155,48.7,43.4,7,5,4,1,2026-04-11T21:06:48.122800+05:30
Rourkela,Odisha,22.2604,84.8536,24.4,68,0.0,986.6,8.75,16.2,127,149.9,50.2,3,5,7,1,2026-04-11T21:06:48.122808+05:30
Raipur,Chhattisgarh,21.2514,81.6296,31.1,32,0.0,975.9,8.85,21.6,151,49.0,33.6,0,5,7,0,2026-04-11T21:06:48.122815+05:30
Bhilai,Chhattisgarh,21.1938,81.3509,29.3,40,0.0,976.1,8.85,19.8,132,64.0,46.3,4,5,7,0,2026-04-11T21:06:48.122822+05:30
Guwahati,Assam,26.1158,91.7086,25.5,74,0.0,1003.6,8.35,20.2,117,52.6,42.1,7,5,4,1,2026-04-11T21:06:48.122829+05:30
Agartala,Tripura,23.8315,91.2868,25.1,70,0.0,1007.8,8.6,21.6,153,44.6,37.6,7,5,4,1,2026-04-11T21:06:48.122836+05:30
Shillong,Meghalaya,25.5788,91.8933,12.7,80,0.0,856.2,8.75,52.2,142,55.6,41.3,3,5,7,0,2026-04-11T21:06:48.122844+05:30
Imphal,Manipur,24.817,93.9368,16.6,77,0.0,924.7,8.95,52.2,114,49.8,36.2,3,5,7,0,2026-04-11T21:06:48.122852+05:30
Aizawl,Mizoram,23.7271,92.7176,18.1,73,0.0,894.1,8.8,41.8,116,53.7,37.4,3,5,7,0,2026-04-11T21:06:48.122859+05:30
Kohima,Nagaland,25.6701,94.1077,14.0,79,0.0,855.4,7.6,65.9,112,44.5,31.5,3,5,7,0,2026-04-11T21:06:48.122867+05:30
Gangtok,Sikkim,27.3314,88.6138,12.9,94,0.0,837.2,8.55,18.4,103,38.2,33.8,3,10,7,0,2026-04-11T21:06:48.122874+05:30
Siliguri,West Bengal,26.7271,88.3953,20.1,66,0.0,995.6,8.2,18.0,115,63.1,48.3,3,5,7,0,2026-04-11T21:06:51.466518+05:30
Durgapur,West Bengal,23.5204,87.3119,25.5,56,0.0,995.9,8.75,20.9,142,231.0,83.6,4,5,7,0,2026-04-11T21:06:51.466550+05:30
Asansol,West Bengal,23.6739,86.9524,26.8,48,0.0,994.5,8.75,22.7,130,175.6,62.9,4,5,7,0,2026-04-11T21:06:51.466561+05:30
Pondicherry,Puducherry,11.9139,79.8145,28.1,89,0.0,1009.8,9.35,34.9,56,18.0,12.3,7,0,4,1,2026-04-11T21:06:51.466569+05:30
Port Blair,Andaman and Nicobar Islands,11.6234,92.7265,29.0,78,0.0,1009.0,9.25,26.3,30,10.0,6.4,7,0,4,1,2026-04-11T21:06:51.466577+05:30
Haridwar,Uttarakhand,29.9457,78.1642,22.3,59,0.0,976.6,7.0,42.1,96,68.2,28.3,0,5,7,0,2026-04-11T21:06:51.466586+05:30
Rishikesh,Uttarakhand,30.0869,78.2676,20.4,65,0.0,969.4,6.9,42.1,93,65.7,21.7,3,5,7,0,2026-04-11T21:06:51.466594+05:30
Nainital,Uttarakhand,29.3919,79.4542,18.4,43,0.0,807.5,7.85,69.8,85,82.9,24.0,0,5,7,0,2026-04-11T21:06:51.466601+05:30
Mussoorie,Uttarakhand,30.4599,78.0664,14.6,55,0.0,803.3,7.45,59.8,91,102.9,28.7,0,5,7,0,2026-04-11T21:06:51.466609+05:30
Dharamshala,Himachal Pradesh,32.219,76.3234,16.4,62,0.0,870.5,7.5,30.6,110,34.5,13.2,3,5,7,0,2026-04-11T21:06:51.466617+05:30
Dalhousie,Himachal Pradesh,32.5387,75.971,13.1,66,0.0,804.0,6.7,23.4,103,70.3,27.4,3,5,7,0,2026-04-11T21:06:51.466625+05:30
Patiala,Punjab,30.3398,76.3869,23.7,51,0.0,981.2,6.95,30.6,433,135.0,45.9,0,5,7,0,2026-04-11T21:06:51.466633+05:30
Bhatinda,Punjab,30.211,74.9455,24.5,49,0.0,986.8,7.7,30.2,127,120.6,40.3,0,5,7,0,2026-04-11T21:06:51.466640+05:30
Rohtak,Haryana,28.8955,76.6066,24.9,51,0.0,983.8,7.1,25.9,722,616.5,95.2,0,5,7,0,2026-04-11T21:06:51.466648+05:30
Panipat,Haryana,29.3909,76.9635,23.9,52,0.0,982.6,6.95,29.5,1493,1050.5,135.5,0,5,7,0,2026-04-11T21:06:51.466655+05:30
Mathura,Uttar Pradesh,27.4924,77.6737,26.1,48,0.0,988.6,7.5,27.7,936,683.6,99.4,4,5,7,0,2026-04-11T21:06:51.466663+05:30
Vrindavan,Uttar Pradesh,27.5823,77.7027,25.4,48,0.0,989.2,7.45,32.0,936,683.6,99.4,4,5,7,0,2026-04-11T21:06:51.466671+05:30
Ayodhya,Uttar Pradesh,26.7922,82.1998,27.8,35,0.0,996.3,7.85,43.6,151,154.1,39.2,4,5,7,0,2026-04-11T21:06:51.466678+05:30
Ratlam,Madhya Pradesh,23.3315,75.0367,28.3,43,0.0,956.5,8.35,19.8,123,27.0,19.6,4,5,7,0,2026-04-11T21:06:51.466686+05:30
Sagar,Madhya Pradesh,23.8388,78.7378,28.5,36,0.0,952.0,8.5,27.4,108,50.5,17.9,4,5,7,0,2026-04-11T21:06:51.466693+05:30
Satna,Madhya Pradesh,24.6005,80.8322,29.8,30,0.0,973.5,8.5,28.1,116,67.1,23.6,4,5,7,0,2026-04-11T21:06:51.466701+05:30
Akola,Maharashtra,20.7002,77.0082,30.7,30,0.0,976.2,8.75,29.5,159,32.9,24.2,0,5,7,0,2026-04-11T21:06:51.466710+05:30
Amravati,Maharashtra,20.9374,77.7796,30.2,39,0.0,968.3,8.75,23.4,164,35.3,26.5,0,5,7,0,2026-04-11T21:06:51.466718+05:30
Latur,Maharashtra,18.4088,76.5604,29.3,43,0.0,941.2,9.0,20.9,160,30.7,24.3,4,5,7,0,2026-04-11T21:06:51.466726+05:30
Nanded,Maharashtra,19.1383,77.3091,32.0,40,0.0,969.5,8.9,17.3,145,49.1,37.0,0,5,7,1,2026-04-11T21:06:51.466733+05:30
Gulbarga,Karnataka,17.3297,76.8343,34.3,29,0.0,959.5,9.05,19.8,155,40.4,31.5,0,5,7,0,2026-04-11T21:06:51.466740+05:30
Bidar,Karnataka,17.9104,77.5199,31.2,37,0.0,937.0,9.05,25.2,154,31.3,24.8,0,5,7,0,2026-04-11T21:06:51.466747+05:30
Hospet,Karnataka,15.2689,76.3909,34.0,42,0.0,956.3,9.25,27.7,180,46.8,39.8,0,5,7,1,2026-04-11T21:06:51.466754+05:30
Tirupur,Tamil Nadu,11.1085,77.3411,31.0,61,0.0,976.1,8.95,32.4,124,43.8,36.3,3,5,7,1,2026-04-11T21:06:51.466761+05:30
Alappuzha,Kerala,9.4981,76.3388,29.7,81,0.0,1009.8,8.9,30.6,72,44.6,25.7,7,0,4,1,2026-04-11T21:06:51.466768+05:30
Munnar,Kerala,10.0889,77.0595,22.6,94,0.0,858.7,9.65,38.5,77,35.9,30.9,3,5,7,1,2026-04-11T21:06:51.466776+05:30
Silchar,Assam,24.8333,92.7789,24.0,78,0.0,1006.7,8.6,24.5,138,68.7,53.8,3,5,4,1,2026-04-11T21:06:51.466783+05:30
Dibrugarh,Assam,27.4728,94.912,21.9,86,0.0,998.6,8.4,25.2,92,57.4,50.5,3,5,7,1,2026-04-11T21:06:51.466791+05:30
