city,state,latitude,longitude,temp,humidity,rain,pressure,uv_index,wind_gusts,aqi,pm10,pm2_5,mosquito_risk,arthritis_risk,migraine_risk,frizz_risk,updated_at
Delhi,Delhi,28.6139,77.209,23.9,68,0.0,986.2,3.95,33.1,132,106.4,39.1,3,5,3,1,2026-03-19T16:13:58.441774+05:30
Mumbai,Maharashtra,19.076,72.8777,27.2,70,0.0,1009.6,7.75,20.2,73,34.9,20.1,7,0,4,1,2026-03-19T16:13:58.441814+05:30
Bangalore,Karnataka,12.9716,77.5946,29.7,36,0.0,911.4,9.35,24.1,98,31.3,27.3,4,5,7,0,2026-03-19T16:13:58.441829+05:30
Hyderabad,Telangana,17.385,78.4867,29.7,42,0.0,954.0,8.75,33.5,76,25.9,17.9,4,5,7,0,2026-03-19T16:13:58.441839+05:30
Chennai,Tamil Nadu,13.0827,80.2707,30.2,64,0.0,1007.5,9.1,28.8,39,11.9,9.7,3,5,4,1,2026-03-19T16:13:58.441848+05:30
Kolkata,West Bengal,22.5726,88.3639,30.0,61,0.0,1007.1,7.7,25.2,63,43.3,35.5,7,5,4,1,2026-03-19T16:13:58.441861+05:30
Pune,Maharashtra,18.5204,73.8567,31.8,32,0.0,948.9,8.3,34.9,137,35.2,26.7,0,5,7,0,2026-03-19T16:13:58.441873+05:30
Ahmedabad,Gujarat,23.0225,72.5714,33.0,32,0.0,1003.0,7.55,49.7,63,55.6,15.6,0,5,4,0,2026-03-19T16:13:58.441880+05:30
Jaipur,Rajasthan,26.9124,75.7873,27.5,46,0.0,961.1,7.05,34.2,142,137.8,30.7,4,5,7,0,2026-03-19T16:13:58.441888+05:30
Lucknow,Uttar Pradesh,26.8467,80.9462,33.4,23,0.0,993.9,6.8,28.1,101,62.6,24.7,0,5,7,0,2026-03-19T16:13:58.441896+05:30
Kanpur,Uttar Pradesh,26.4499,80.3319,33.0,31,0.0,992.1,6.85,26.6,112,143.4,34.1,0,5,7,0,2026-03-19T16:13:58.441902+05:30
Chandigarh,Chandigarh,30.7333,76.7794,19.4,82,0.0,972.4,3.9,15.8,65,51.1,27.9,3,10,3,1,2026-03-19T16:13:58.441910+05:30
Srinagar,Jammu and Kashmir,34.0837,74.7973,8.7,84,0.1,840.8,0.95,15.1,87,15.8,15.2,6,10,3,0,2026-03-19T16:13:58.441918+05:30
Jammu,Jammu and Kashmir,32.7266,74.857,19.9,76,0.0,976.7,3.0,35.3,60,53.1,23.9,3,5,3,0,2026-03-19T16:13:58.441925+05:30
Amritsar,Punjab,31.634,74.8723,18.1,89,0.1,984.6,2.45,24.8,81,56.6,27.7,6,10,3,1,2026-03-19T16:13:58.441932+05:30
Ludhiana,Punjab,30.901,75.8573,17.9,84,0.2,982.7,1.6,20.9,82,66.4,35.9,6,10,3,0,2026-03-19T16:13:58.441938+05:30
Jalandhar,Punjab,31.326,75.5762,17.7,90,0.1,984.1,2.7,20.2,76,67.8,34.0,6,10,3,1,2026-03-19T16:13:58.441947+05:30
Dehradun,Uttarakhand,30.6284,78.0322,12.5,78,0.4,830.6,5.3,28.8,45,51.9,17.3,6,5,3,0,2026-03-19T16:13:58.441954+05:30
Shimla,Himachal Pradesh,31.1048,77.1734,11.1,83,0.3,783.5,3.7,36.4,46,43.9,19.0,6,10,3,0,2026-03-19T16:13:58.441961+05:30
Manali,Himachal Pradesh,32.2396,77.1887,10.9,91,0.1,817.1,4.3,23.8,49,7.2,3.5,6,10,3,0,2026-03-19T16:13:58.441967+05:30
Gurgaon,Haryana,28.4595,77.0266,22.6,79,0.0,984.4,5.05,29.9,147,216.5,73.8,3,5,3,1,2026-03-19T16:13:58.441974+05:30
Noida,Uttar Pradesh,28.5355,77.391,23.8,71,0.0,987.7,4.25,32.8,147,216.5,73.8,3,5,3,1,2026-03-19T16:13:58.441980+05:30
Ghaziabad,Uttar Pradesh,28.6692,77.4538,23.9,69,0.0,986.2,4.2,34.2,122,67.1,32.4,3,5,3,1,2026-03-19T16:13:58.441985+05:30
Faridabad,Haryana,28.4089,77.3178,23.4,73,0.0,986.7,5.9,33.5,147,216.5,73.8,3,5,3,1,2026-03-19T16:13:58.441991+05:30
Meerut,Uttar Pradesh,28.9845,77.7064,24.9,59,0.0,984.6,3.35,34.6,122,67.1,32.4,0,5,3,1,2026-03-19T16:13:58.441998+05:30
Agra,Uttar Pradesh,27.1767,78.0081,30.7,34,0.0,989.2,6.7,37.8,654,432.1,51.0,0,5,7,0,2026-03-19T16:13:58.442004+05:30
Varanasi,Uttar Pradesh,25.3176,82.9739,32.5,38,0.0,998.2,7.5,19.8,111,24.2,19.5,0,5,7,1,2026-03-19T16:13:58.442013+05:30
Prayagraj,Uttar Pradesh,25.4358,81.8463,33.6,32,0.0,995.8,7.35,22.0,126,38.3,24.9,0,5,7,0,2026-03-19T16:13:58.442020+05:30
Gorakhpur,Uttar Pradesh,26.7606,83.3732,33.7,26,0.0,997.0,7.2,20.9,118,45.8,21.0,0,5,7,0,2026-03-19T16:13:58.442026+05:30
Bareilly,Uttar Pradesh,28.367,79.4304,28.2,44,0.0,989.1,6.15,34.9,92,42.8,17.2,4,5,7,0,2026-03-19T16:13:58.442032+05:30
Aligarh,Uttar Pradesh,27.8974,78.088,27.0,48,0.0,988.1,6.4,37.1,122,584.9,66.6,4,5,7,0,2026-03-19T16:13:58.442038+05:30
Moradabad,Uttar Pradesh,28.8386,78.7733,26.9,48,0.0,986.2,5.5,46.1,116,51.6,21.9,4,5,3,0,2026-03-19T16:13:58.442044+05:30
Saharanpur,Uttar Pradesh,29.9637,77.546,19.8,79,0.0,979.6,3.55,22.7,79,55.2,21.9,3,5,3,0,2026-03-19T16:13:58.442050+05:30
Jhansi,Uttar Pradesh,25.4484,78.5685,32.4,31,0.0,977.3,7.3,38.9,94,36.0,20.5,0,5,7,0,2026-03-19T16:14:01.696475+05:30
Surat,Gujarat,21.1702,72.8311,28.8,52,0.0,1007.8,7.45,28.1,78,31.7,29.6,4,5,4,1,2026-03-19T16:14:01.696503+05:30
Vadodara,Gujarat,22.3072,73.1812,34.7,35,0.0,1004.3,7.35,47.9,58,18.0,9.1,0,5,4,1,2026-03-19T16:14:01.696513+05:30
Rajkot,Gujarat,22.3039,70.8022,26.0,63,0.0,997.5,7.4,51.5,43,34.1,12.6,7,5,7,1,2026-03-19T16:14:01.696520+05:30
Thane,Maharashtra,19.2183,72.9781,29.2,59,0.0,1009.0,7.75,33.5,73,34.9,20.1,4,0,4,1,2026-03-19T16:14:01.696527+05:30
Nagpur,Maharashtra,21.1458,79.0882,32.4,34,0.0,973.4,7.85,26.3,104,46.7,35.2,0,5,7,0,2026-03-19T16:14:01.696533+05:30
Nashik,Maharashtra,19.9975,73.7898,29.0,41,0.0,946.3,7.95,28.8,69,19.2,14.4,4,5,7,0,2026-03-19T16:14:01.696540+05:30
Aurangabad,Maharashtra,19.8762,75.3433,29.0,39,0.0,944.9,8.45,41.8,120,36.1,20.1,4,5,7,0,2026-03-19T16:14:01.696547+05:30
Solapur,Maharashtra,17.6599,75.9064,27.1,54,0.0,958.4,8.65,39.6,108,31.3,19.7,4,5,7,1,2026-03-19T16:14:01.696554+05:30
Kolhapur,Maharashtra,16.705,74.2433,29.6,39,0.0,948.6,8.8,49.0,100,29.7,19.9,4,5,7,0,2026-03-19T16:14:01.696561+05:30
Goa,Goa,15.2993,74.124,30.5,60,0.0,998.9,8.8,33.1,76,27.3,15.1,0,5,7,1,2026-03-19T16:14:01.696568+05:30
Jodhpur,Rajasthan,26.2389,73.0243,27.7,46,0.0,984.7,6.8,44.6,72,84.3,20.3,4,5,7,0,2026-03-19T16:14:01.696575+05:30
Udaipur,Rajasthan,24.5854,73.7125,25.3,53,0.0,947.7,6.6,49.3,46,45.6,14.6,4,5,7,0,2026-03-19T16:14:01.696581+05:30
Kota,Rajasthan,25.2138,75.8648,28.7,45,0.0,980.1,7.35,32.8,81,53.1,25.7,4,5,7,0,2026-03-19T16:14:01.696587+05:30
Bikaner,Rajasthan,28.0229,73.3119,23.9,63,0.0,984.4,5.9,31.0,67,65.4,17.5,3,5,3,1,2026-03-19T16:14:01.696594+05:30
Ajmer,Rajasthan,26.4499,74.6399,27.0,46,0.0,955.6,5.2,30.2,69,79.4,19.6,4,5,3,0,2026-03-19T16:14:01.696601+05:30
Gwalior,Madhya Pradesh,26.2183,78.1828,31.8,33,0.0,983.5,7.0,30.2,127,68.7,27.1,0,5,7,0,2026-03-19T16:14:01.696607+05:30
Indore,Madhya Pradesh,22.7196,75.8577,33.0,17,0.0,947.8,7.9,33.5,64,26.5,16.7,0,5,7,0,2026-03-19T16:14:01.696614+05:30
Bhopal,Madhya Pradesh,23.2599,77.4126,32.6,21,0.0,954.0,7.8,35.6,84,29.3,20.0,0,5,7,0,2026-03-19T16:14:01.696620+05:30
Jabalpur,Madhya Pradesh,23.1815,79.9864,33.3,21,0.0,961.5,7.9,34.6,94,25.3,19.3,0,5,7,0,2026-03-19T16:14:01.696627+05:30
Ujjain,Madhya Pradesh,23.1765,75.7885,32.1,22,0.0,953.5,7.8,29.2,54,18.4,13.7,0,5,7,0,2026-03-19T16:14:01.696634+05:30
Visakhapatnam,Andhra Pradesh,17.6868,83.2185,30.2,57,0.0,1004.9,7.8,32.8,65,16.0,12.2,0,5,4,1,2026-03-19T16:14:01.696640+05:30
Vijayawada,Andhra Pradesh,16.5062,80.648,27.9,64,0.0,1004.1,8.35,28.8,62,15.7,11.7,7,5,4,1,2026-03-19T16:14:01.696647+05:30
Guntur,Andhra Pradesh,16.3067,80.4365,25.7,75,0.0,1005.6,8.4,31.3,62,15.6,10.0,7,5,4,1,2026-03-19T16:14:01.696653+05:30
Nellore,Andhra Pradesh,14.4426,79.9865,31.2,54,0.0,1006.4,9.0,27.0,39,11.6,7.9,0,5,4,1,2026-03-19T16:14:01.696660+05:30
Kurnool,Andhra Pradesh,15.8281,78.0373,32.6,34,0.0,976.9,8.85,33.1,62,22.8,16.5,0,5,7,0,2026-03-19T16:14:01.696667+05:30
Kakinada,Andhra Pradesh,16.9891,82.2475,30.2,55,0.0,1008.4,8.5,23.0,42,9.7,7.3,0,0,4,1,2026-03-19T16:14:01.696674+05:30
Tirupati,Andhra Pradesh,13.6288,79.4192,28.0,64,0.0,991.9,9.1,21.6,58,16.0,12.3,7,5,7,1,2026-03-19T16:14:01.696680+05:30
Warangal,Telangana,17.9689,79.5941,29.6,52,0.0,979.7,8.0,19.8,147,28.4,21.4,4,5,7,1,2026-03-19T16:14:01.696687+05:30
Nizamabad,Telangana,18.6725,78.0941,32.0,31,0.0,965.0,8.45,19.4,112,33.4,24.5,0,5,7,0,2026-03-19T16:14:01.696693+05:30
Mysore,Karnataka,12.2958,76.6396,31.6,27,0.0,927.8,9.35,36.4,95,25.4,22.4,0,5,7,0,2026-03-19T16:14:01.696700+05:30
Mangalore,Karnataka,12.9141,74.856,28.5,75,0.0,1006.8,8.95,26.6,124,26.8,20.4,7,5,4,1,2026-03-19T16:14:01.696706+05:30
Hubli-Dharwad,Karnataka,15.3647,75.124,31.1,32,0.0,941.2,8.95,32.4,123,31.4,21.5,0,5,7,0,2026-03-19T16:14:01.696712+05:30
Belgaum,Karnataka,15.8497,74.4977,28.5,40,0.0,926.6,9.0,37.4,106,30.4,21.4,4,5,7,0,2026-03-19T16:14:04.946722+05:30
Coimbatore,Tamil Nadu,11.0168,76.9558,31.7,45,0.0,961.0,9.3,47.9,95,20.1,16.8,0,5,7,1,2026-03-19T16:14:04.946751+05:30
Madurai,Tamil Nadu,9.9252,78.1198,34.1,42,0.0,991.6,9.25,23.0,83,18.3,14.8,0,5,7,1,2026-03-19T16:14:04.946761+05:30
Trichy,Tamil Nadu,10.7905,78.7047,35.0,39,0.0,997.8,9.2,29.5,55,20.5,16.8,0,5,7,1,2026-03-19T16:14:04.946768+05:30
Salem,Tamil Nadu,11.6643,78.146,35.1,32,0.0,975.6,9.25,25.6,103,29.3,25.4,0,5,10,0,2026-03-19T16:14:04.946776+05:30
Tirunelveli,Tamil Nadu,8.7139,77.7567,31.5,55,0.0,1002.8,8.5,23.0,64,14.3,13.1,0,5,4,1,2026-03-19T16:14:04.946784+05:30
Vellore,Tamil Nadu,12.9165,79.1325,31.5,50,0.0,983.9,9.15,28.1,60,18.9,15.6,0,5,7,1,2026-03-19T16:14:04.946791+05:30
Erode,Tamil Nadu,11.341,77.7172,35.6,34,0.0,986.9,9.25,36.7,104,25.7,21.9,0,5,10,1,2026-03-19T16:14:04.946798+05:30
Kochi,Kerala,9.9312,76.2673,28.9,74,0.0,1008.1,9.1,29.2,59,16.4,13.4,7,0,4,1,2026-03-19T16:14:04.946806+05:30
Thiruvananthapuram,Kerala,8.5241,76.9366,28.7,76,0.0,1007.3,8.1,27.7,71,13.1,11.4,7,5,4,1,2026-03-19T16:14:04.946813+05:30
Kozhikode,Kerala,11.2588,75.7804,29.6,72,0.0,1007.5,9.05,31.0,75,12.5,9.7,7,5,4,1,2026-03-19T16:14:04.946820+05:30
Thrissur,Kerala,10.5276,76.2144,31.7,61,0.0,1006.4,9.1,34.6,55,13.6,11.9,3,5,4,1,2026-03-19T16:14:04.946827+05:30
Kannur,Kerala,11.8745,75.3704,30.5,64,0.0,1007.0,9.0,35.3,66,13.8,11.1,3,5,4,1,2026-03-19T16:14:04.946834+05:30
Patna,Bihar,25.5941,85.1376,31.7,40,0.0,1001.2,7.25,21.6,167,65.4,49.1,0,5,4,1,2026-03-19T16:14:04.946841+05:30
Gaya,Bihar,24.7914,85.0002,32.0,40,0.0,994.1,7.55,20.5,118,40.3,32.5,0,5,7,1,2026-03-19T16:14:04.946847+05:30
Muzaffarpur,Bihar,26.1209,85.3647,31.0,39,0.0,1001.2,7.0,23.4,160,64.7,43.1,0,5,4,0,2026-03-19T16:14:04.946854+05:30
Bhagalpur,Bihar,25.2425,87.0117,30.0,52,0.0,1001.9,6.95,27.4,146,65.4,49.0,4,5,4,1,2026-03-19T16:14:04.946860+05:30
Ranchi,Jharkhand,23.3441,85.3096,28.4,38,0.0,938.6,6.75,38.5,103,35.7,24.7,4,5,7,0,2026-03-19T16:14:04.946866+05:30
Jamshedpur,Jharkhand,22.8046,86.2029,32.9,34,0.0,991.0,7.7,30.6,133,44.4,32.2,0,5,7,0,2026-03-19T16:14:04.946873+05:30
Dhanbad,Jharkhand,23.7957,86.4304,33.9,24,0.0,979.6,7.2,20.5,157,47.7,35.2,0,5,7,0,2026-03-19T16:14:04.946879+05:30
Bokaro,Jharkhand,23.6693,86.1511,33.2,25,0.0,983.7,7.15,41.0,141,41.9,29.5,0,5,7,0,2026-03-19T16:14:04.946886+05:30
Bhubaneswar,Odisha,20.2961,85.8245,29.9,63,0.0,1003.5,7.95,20.9,120,22.2,18.6,7,5,4,1,2026-03-19T16:14:04.946892+05:30
Cuttack,Odisha,20.4625,85.8828,31.0,52,0.0,1005.3,7.9,24.8,120,22.2,18.6,0,5,4,1,2026-03-19T16:14:04.946898+05:30
Rourkela,Odisha,22.2604,84.8536,32.5,37,0.0,985.3,7.15,24.8,120,48.5,34.5,0,5,7,0,2026-03-19T16:14:04.946904+05:30
Raipur,Chhattisgarh,21.2514,81.6296,32.0,35,0.0,975.0,7.75,25.9,138,54.2,42.7,0,5,7,0,2026-03-19T16:14:04.946910+05:30
Bhilai,Chhattisgarh,21.1938,81.3509,32.1,36,0.0,975.4,7.6,24.8,147,51.9,40.6,0,5,7,0,2026-03-19T16:14:04.946916+05:30
Guwahati,Assam,26.1158,91.7086,27.4,59,0.0,1003.1,7.5,25.2,102,33.6,22.9,4,5,4,1,2026-03-19T16:14:04.946921+05:30
Agartala,Tripura,23.8315,91.2868,30.3,50,0.0,1007.3,7.85,23.0,93,24.4,21.0,0,5,4,1,2026-03-19T16:14:04.946927+05:30
Shillong,Meghalaya,25.5788,91.8933,16.7,59,0.0,857.1,7.15,47.2,113,39.5,25.6,0,5,7,0,2026-03-19T16:14:04.946933+05:30
Imphal,Manipur,24.817,93.9368,21.1,64,0.0,924.2,8.25,60.8,106,32.7,19.5,3,5,7,0,2026-03-19T16:14:04.946939+05:30
Aizawl,Mizoram,23.7271,92.7176,23.8,55,0.0,894.7,8.05,38.5,106,33.8,23.8,0,5,7,0,2026-03-19T16:14:04.946946+05:30
Kohima,Nagaland,25.6701,94.1077,15.6,87,0.0,855.6,7.95,86.8,94,37.3,16.8,3,10,7,0,2026-03-19T16:14:04.946952+05:30
Gangtok,Sikkim,27.3314,88.6138,17.1,68,0.0,837.5,7.7,20.2,108,51.0,34.9,3,5,7,0,2026-03-19T16:14:04.946958+05:30
Siliguri,West Bengal,26.7271,88.3953,22.7,73,0.0,995.2,7.4,24.8,126,69.8,51.6,3,5,7,1,2026-03-19T16:14:08.196570+05:30
Durgapur,West Bengal,23.5204,87.3119,30.6,45,0.0,995.9,7.75,26.3,127,61.9,50.2,0,5,7,1,2026-03-19T16:14:08.196599+05:30
Asansol,West Bengal,23.6739,86.9524,32.4,36,0.0,994.0,7.65,31.0,150,52.2,40.2,0,5,7,0,2026-03-19T16:14:08.196609+05:30
Pondicherry,Puducherry,11.9139,79.8145,31.2,63,0.0,1007.9,9.1,28.4,39,10.6,7.7,3,5,4,1,2026-03-19T16:14:08.196617+05:30
Port Blair,Andaman and Nicobar Islands,11.6234,92.7265,27.3,81,0.0,1007.8,9.05,22.0,51,14.0,10.8,7,5,4,1,2026-03-19T16:14:08.196625+05:30
Haridwar,Uttarakhand,29.9457,78.1642,24.1,64,0.0,977.9,3.9,24.8,68,50.8,25.0,3,5,3,1,2026-03-19T16:14:08.196634+05:30
Rishikesh,Uttarakhand,30.0869,78.2676,24.8,47,0.0,970.4,4.2,24.5,64,53.8,21.6,0,5,3,0,2026-03-19T16:14:08.196642+05:30
Nainital,Uttarakhand,29.3919,79.4542,18.6,55,0.0,807.9,5.75,55.4,75,40.5,13.4,0,5,3,0,2026-03-19T16:14:08.196649+05:30
Mussoorie,Uttarakhand,30.4599,78.0664,13.6,77,0.3,803.2,5.1,38.9,62,60.8,24.6,6,5,3,0,2026-03-19T16:14:08.196656+05:30
Dharamshala,Himachal Pradesh,32.219,76.3234,14.5,86,0.3,869.3,3.8,29.9,49,7.5,3.7,6,10,3,0,2026-03-19T16:14:08.196663+05:30
Dalhousie,Himachal Pradesh,32.5387,75.971,11.5,92,0.1,802.8,4.55,25.2,60,52.0,20.0,6,10,3,0,2026-03-19T16:14:08.196671+05:30
Patiala,Punjab,30.3398,76.3869,19.8,83,0.0,981.9,3.85,21.6,98,63.8,31.1,3,10,3,1,2026-03-19T16:14:08.196678+05:30
Bhatinda,Punjab,30.211,74.9455,20.7,85,0.0,986.6,1.4,20.9,86,71.5,29.2,3,5,3,1,2026-03-19T16:14:08.196685+05:30
Rohtak,Haryana,28.8955,76.6066,21.6,83,0.1,984.9,4.9,28.1,134,141.1,47.3,6,5,3,1,2026-03-19T16:14:08.196692+05:30
Panipat,Haryana,29.3909,76.9635,21.7,77,0.0,984.1,3.65,32.8,139,104.8,37.6,3,5,3,1,2026-03-19T16:14:08.196698+05:30
Mathura,Uttar Pradesh,27.4924,77.6737,27.6,46,0.0,989.2,6.6,37.4,119,237.5,44.5,4,5,7,0,2026-03-19T16:14:08.196705+05:30
Vrindavan,Uttar Pradesh,27.5823,77.7027,26.6,51,0.0,990.1,6.55,40.7,119,237.5,44.5,4,5,7,0,2026-03-19T16:14:08.196711+05:30
Ayodhya,Uttar Pradesh,26.7922,82.1998,34.6,21,0.0,995.4,6.9,32.4,116,55.9,22.1,0,5,7,0,2026-03-19T16:14:08.196717+05:30
Ratlam,Madhya Pradesh,23.3315,75.0367,31.7,26,0.0,954.8,7.75,31.7,48,14.6,11.4,0,5,7,0,2026-03-19T16:14:08.196724+05:30
Sagar,Madhya Pradesh,23.8388,78.7378,31.9,22,0.0,950.7,7.75,45.0,81,19.6,12.7,0,5,7,0,2026-03-19T16:14:08.196730+05:30
Satna,Madhya Pradesh,24.6005,80.8322,34.3,21,0.0,971.0,7.7,42.5,93,15.1,10.9,0,5,7,0,2026-03-19T16:14:08.196736+05:30
Akola,Maharashtra,20.7002,77.0082,32.9,27,0.0,975.5,8.2,26.3,92,37.8,27.1,0,5,7,0,2026-03-19T16:14:08.196743+05:30
Amravati,Maharashtra,20.9374,77.7796,32.7,30,0.0,967.7,8.15,33.8,96,38.2,27.9,0,5,7,0,2026-03-19T16:14:08.196750+05:30
Latur,Maharashtra,18.4088,76.5604,23.3,66,0.0,941.3,8.55,45.7,86,36.7,22.4,3,5,7,1,2026-03-19T16:14:08.196757+05:30
Nanded,Maharashtra,19.1383,77.3091,33.3,25,0.0,968.6,8.4,48.6,95,35.2,25.8,0,5,7,0,2026-03-19T16:14:08.196764+05:30
Gulbarga,Karnataka,17.3297,76.8343,30.5,38,0.0,959.8,8.65,23.4,85,32.4,21.9,0,5,7,0,2026-03-19T16:14:08.196770+05:30
Bidar,Karnataka,17.9104,77.5199,28.2,44,0.0,936.2,8.6,31.3,89,28.1,20.0,4,5,7,0,2026-03-19T16:14:08.196776+05:30
Hospet,Karnataka,15.2689,76.3909,31.8,35,0.0,955.8,8.9,21.2,122,32.0,22.3,0,5,7,0,2026-03-19T16:14:08.196781+05:30
Tirupur,Tamil Nadu,11.1085,77.3411,34.4,35,0.0,974.0,9.35,34.9,113,24.0,20.4,0,5,7,1,2026-03-19T16:14:08.196788+05:30
Alappuzha,Kerala,9.4981,76.3388,28.8,76,0.0,1008.3,9.1,27.4,65,17.2,14.3,7,0,4,1,2026-03-19T16:14:08.196794+05:30
Munnar,Kerala,10.0889,77.0595,26.3,62,0.0,858.0,9.6,38.9,58,12.0,9.3,7,5,7,1,2026-03-19T16:14:08.196801+05:30
Silchar,Assam,24.8333,92.7789,29.6,51,0.0,1006.1,7.9,21.2,98,29.9,23.7,4,5,4,1,2026-03-19T16:14:08.196808+05:30
Dibrugarh,Assam,27.4728,94.912,22.6,72,0.0,998.8,6.3,23.4,84,31.4,20.5,3,5,7,1,2026-03-19T16:14:08.196814+05:30
