city,state,latitude,longitude,temp,humidity,rain,pressure,uv_index,aqi,mosquito_risk,arthritis_risk,migraine_risk,frizz_risk,updated_at
Delhi,Delhi,28.6139,77.209,24.3,42,0.0,983.2,5.65,163,0,5,3,0,2026-02-28T19:56:11.250467+05:30
Mumbai,Maharashtra,19.076,72.8777,26.2,71,0.0,1008.9,7.4,77,7,0,4,1,2026-02-28T19:56:11.250510+05:30
Bangalore,Karnataka,12.9716,77.5946,26.2,42,0.0,910.8,9.0,154,4,5,7,0,2026-02-28T19:56:11.250525+05:30
Hyderabad,Telangana,17.385,78.4867,26.9,56,0.0,952.5,8.2,121,4,5,7,1,2026-02-28T19:56:11.250534+05:30
Chennai,Tamil Nadu,13.0827,80.2707,26.3,76,0.0,1007.6,8.7,132,7,5,4,1,2026-02-28T19:56:11.250541+05:30
Kolkata,West Bengal,22.5726,88.3639,25.9,50,0.0,1005.5,7.5,151,4,5,4,0,2026-02-28T19:56:11.250548+05:30
Pune,Maharashtra,18.5204,73.8567,24.3,64,0.0,947.8,7.9,109,3,5,7,1,2026-02-28T19:56:11.250555+05:30
Ahmedabad,Gujarat,23.0225,72.5714,27.7,40,0.0,1002.2,7.15,86,4,5,4,0,2026-02-28T19:56:11.250561+05:30
Jaipur,Rajasthan,26.9124,75.7873,26.5,29,0.0,959.3,6.45,79,4,5,7,0,2026-02-28T19:56:11.250568+05:30
Lucknow,Uttar Pradesh,26.8467,80.9462,23.7,46,0.0,993.4,6.1,151,0,5,7,0,2026-02-28T19:56:11.250574+05:30
Kanpur,Uttar Pradesh,26.4499,80.3319,23.5,54,0.0,991.5,6.1,145,0,5,7,0,2026-02-28T19:56:11.250580+05:30
Chandigarh,Chandigarh,30.7333,76.7794,19.0,68,0.0,968.8,5.5,98,3,5,3,0,2026-02-28T19:56:11.250585+05:30
Srinagar,Jammu and Kashmir,34.0837,74.7973,12.3,34,0.0,839.3,6.4,134,0,5,7,1,2026-02-28T19:56:11.250591+05:30
Jammu,Jammu and Kashmir,32.7266,74.857,20.5,62,0.0,972.7,6.1,99,3,5,7,0,2026-02-28T19:56:11.250596+05:30
Amritsar,Punjab,31.634,74.8723,19.6,66,0.0,981.4,6.1,159,3,5,7,0,2026-02-28T19:56:11.250601+05:30
Ludhiana,Punjab,30.901,75.8573,21.7,67,0.0,979.4,5.75,165,3,5,3,0,2026-02-28T19:56:11.250606+05:30
Jalandhar,Punjab,31.326,75.5762,21.1,66,0.0,980.5,5.95,152,3,5,3,0,2026-02-28T19:56:11.250611+05:30
Dehradun,Uttarakhand,30.6284,78.0322,11.3,67,0.0,826.6,5.85,99,3,5,3,0,2026-02-28T19:56:11.250616+05:30
Shimla,Himachal Pradesh,31.1048,77.1734,9.5,57,0.0,780.9,5.9,90,0,5,3,0,2026-02-28T19:56:11.250623+05:30
Manali,Himachal Pradesh,32.2396,77.1887,11.7,71,0.0,816.3,7.55,125,3,5,7,0,2026-02-28T19:56:11.250628+05:30
Gurgaon,Haryana,28.4595,77.0266,21.2,52,0.0,981.4,5.75,163,0,5,3,0,2026-02-28T19:56:11.250634+05:30
Noida,Uttar Pradesh,28.5355,77.391,24.1,42,0.0,984.7,5.65,163,0,5,3,0,2026-02-28T19:56:11.250639+05:30
Ghaziabad,Uttar Pradesh,28.6692,77.4538,23.2,48,0.0,982.8,5.6,160,0,5,3,0,2026-02-28T19:56:11.250644+05:30
Faridabad,Haryana,28.4089,77.3178,22.3,49,0.0,983.8,5.65,163,0,5,3,0,2026-02-28T19:56:11.250649+05:30
Meerut,Uttar Pradesh,28.9845,77.7064,20.8,56,0.0,981.4,5.45,160,0,5,3,0,2026-02-28T19:56:11.250654+05:30
Agra,Uttar Pradesh,27.1767,78.0081,22.9,62,0.0,987.7,5.95,139,3,5,3,0,2026-02-28T19:56:11.250659+05:30
Varanasi,Uttar Pradesh,25.3176,82.9739,22.7,60,0.0,997.3,6.8,102,0,5,7,0,2026-02-28T19:56:11.250665+05:30
Prayagraj,Uttar Pradesh,25.4358,81.8463,24.1,52,0.0,995.9,6.65,125,0,5,7,0,2026-02-28T19:56:11.250670+05:30
Gorakhpur,Uttar Pradesh,26.7606,83.3732,21.6,59,0.0,996.2,6.5,142,0,5,7,0,2026-02-28T19:56:11.250676+05:30
Bareilly,Uttar Pradesh,28.367,79.4304,21.6,63,0.0,986.5,5.75,153,3,5,3,0,2026-02-28T19:56:11.250681+05:30
Aligarh,Uttar Pradesh,27.8974,78.088,21.9,56,0.0,985.4,5.7,156,0,5,3,0,2026-02-28T19:56:11.250686+05:30
Moradabad,Uttar Pradesh,28.8386,78.7733,20.8,59,0.0,983.4,5.6,154,0,5,3,0,2026-02-28T19:56:11.250692+05:30
Saharanpur,Uttar Pradesh,29.9637,77.546,20.0,66,0.0,975.6,5.25,150,3,5,3,0,2026-02-28T19:56:11.250696+05:30
Jhansi,Uttar Pradesh,25.4484,78.5685,23.7,48,0.0,977.6,6.6,98,0,5,7,0,2026-02-28T19:56:14.558268+05:30
Surat,Gujarat,21.1702,72.8311,24.6,75,0.0,1007.2,7.1,87,3,5,4,1,2026-02-28T19:56:14.558301+05:30
Vadodara,Gujarat,22.3072,73.1812,27.5,51,0.0,1004.4,7.15,105,4,5,4,1,2026-02-28T19:56:14.558312+05:30
Rajkot,Gujarat,22.3039,70.8022,27.1,34,0.0,994.4,7.1,106,4,5,7,0,2026-02-28T19:56:14.558321+05:30
Thane,Maharashtra,19.2183,72.9781,25.0,69,0.0,1008.3,7.4,77,7,0,4,1,2026-02-28T19:56:14.558330+05:30
Nagpur,Maharashtra,21.1458,79.0882,26.8,59,0.0,972.4,7.55,155,4,5,7,1,2026-02-28T19:56:14.558338+05:30
Nashik,Maharashtra,19.9975,73.7898,22.9,60,0.0,945.0,7.55,64,0,5,7,0,2026-02-28T19:56:14.558345+05:30
Aurangabad,Maharashtra,19.8762,75.3433,26.3,41,0.0,943.0,7.9,90,4,5,7,0,2026-02-28T19:56:14.558353+05:30
Solapur,Maharashtra,17.6599,75.9064,26.8,53,0.0,955.7,8.15,105,4,5,7,1,2026-02-28T19:56:14.558361+05:30
Kolhapur,Maharashtra,16.705,74.2433,22.8,49,0.0,947.2,8.35,93,0,5,7,0,2026-02-28T19:56:14.558368+05:30
Goa,Goa,15.2993,74.124,26.3,69,0.0,998.2,8.35,48,7,5,7,1,2026-02-28T19:56:14.558376+05:30
Jodhpur,Rajasthan,26.2389,73.0243,27.0,38,0.0,982.4,6.7,74,4,5,7,0,2026-02-28T19:56:14.558383+05:30
Udaipur,Rajasthan,24.5854,73.7125,23.6,41,0.0,946.2,7.4,85,0,5,7,0,2026-02-28T19:56:14.558391+05:30
Kota,Rajasthan,25.2138,75.8648,25.8,43,0.0,978.4,6.8,83,4,5,7,0,2026-02-28T19:56:14.558398+05:30
Bikaner,Rajasthan,28.0229,73.3119,27.9,28,0.0,981.6,6.4,92,4,5,7,0,2026-02-28T19:56:14.558406+05:30
Ajmer,Rajasthan,26.4499,74.6399,25.9,39,0.0,954.0,6.7,76,4,5,7,0,2026-02-28T19:56:14.558413+05:30
Gwalior,Madhya Pradesh,26.2183,78.1828,24.0,45,0.0,982.8,6.3,78,0,5,7,0,2026-02-28T19:56:14.558420+05:30
Indore,Madhya Pradesh,22.7196,75.8577,21.5,65,0.0,947.4,7.3,86,3,5,7,0,2026-02-28T19:56:14.558428+05:30
Bhopal,Madhya Pradesh,23.2599,77.4126,24.0,60,0.0,953.0,7.15,105,0,5,7,0,2026-02-28T19:56:14.558435+05:30
Jabalpur,Madhya Pradesh,23.1815,79.9864,27.2,42,0.0,961.1,7.2,127,4,5,7,0,2026-02-28T19:56:14.558443+05:30
Ujjain,Madhya Pradesh,23.1765,75.7885,21.7,56,0.0,953.2,7.2,79,0,5,7,0,2026-02-28T19:56:14.558451+05:30
Visakhapatnam,Andhra Pradesh,17.6868,83.2185,25.7,83,0.0,1004.7,8.2,80,7,5,4,1,2026-02-28T19:56:14.558458+05:30
Vijayawada,Andhra Pradesh,16.5062,80.648,27.3,63,0.0,1002.8,8.3,112,7,5,4,1,2026-02-28T19:56:14.558466+05:30
Guntur,Andhra Pradesh,16.3067,80.4365,26.3,71,0.0,1004.0,8.3,107,7,5,4,1,2026-02-28T19:56:14.558474+05:30
Nellore,Andhra Pradesh,14.4426,79.9865,26.2,76,0.0,1006.2,8.55,151,7,5,4,1,2026-02-28T19:56:14.558481+05:30
Kurnool,Andhra Pradesh,15.8281,78.0373,30.6,36,0.0,975.7,8.3,134,0,5,7,0,2026-02-28T19:56:14.558488+05:30
Kakinada,Andhra Pradesh,16.9891,82.2475,25.9,78,0.0,1007.9,8.25,89,7,5,4,1,2026-02-28T19:56:14.558494+05:30
Tirupati,Andhra Pradesh,13.6288,79.4192,27.0,49,0.0,991.5,8.7,117,4,5,7,0,2026-02-28T19:56:14.558501+05:30
Warangal,Telangana,17.9689,79.5941,28.1,59,0.0,978.2,8.0,135,4,5,7,1,2026-02-28T19:56:14.558507+05:30
Nizamabad,Telangana,18.6725,78.0941,28.8,46,0.0,963.9,7.9,119,4,5,7,0,2026-02-28T19:56:14.558513+05:30
Mysore,Karnataka,12.2958,76.6396,25.2,61,0.0,927.4,9.05,135,7,5,7,1,2026-02-28T19:56:14.558519+05:30
Mangalore,Karnataka,12.9141,74.856,28.3,73,0.0,1006.5,8.6,49,7,5,4,1,2026-02-28T19:56:14.558525+05:30
Hubli-Dharwad,Karnataka,15.3647,75.124,24.9,48,0.0,939.6,8.5,127,0,5,7,0,2026-02-28T19:56:14.558531+05:30
Belgaum,Karnataka,15.8497,74.4977,22.5,48,0.0,924.8,8.6,92,0,5,7,0,2026-02-28T19:56:17.875351+05:30
Coimbatore,Tamil Nadu,11.0168,76.9558,25.3,73,0.0,960.9,9.0,138,7,5,7,1,2026-02-28T19:56:17.875385+05:30
Madurai,Tamil Nadu,9.9252,78.1198,28.6,58,0.0,992.5,9.0,146,4,5,7,1,2026-02-28T19:56:17.875395+05:30
Trichy,Tamil Nadu,10.7905,78.7047,28.5,55,0.0,999.1,8.9,140,4,5,7,1,2026-02-28T19:56:17.875405+05:30
Salem,Tamil Nadu,11.6643,78.146,30.6,36,0.0,976.1,8.9,130,0,5,7,0,2026-02-28T19:56:17.875413+05:30
Tirunelveli,Tamil Nadu,8.7139,77.7567,26.9,76,0.0,1002.9,9.0,147,7,5,4,1,2026-02-28T19:56:17.875421+05:30
Vellore,Tamil Nadu,12.9165,79.1325,27.3,48,0.0,984.3,8.8,128,4,5,7,0,2026-02-28T19:56:17.875429+05:30
Erode,Tamil Nadu,11.341,77.7172,30.6,39,0.0,987.3,8.9,118,0,5,7,0,2026-02-28T19:56:17.875437+05:30
Kochi,Kerala,9.9312,76.2673,28.0,78,0.0,1008.3,8.7,131,7,0,4,1,2026-02-28T19:56:17.875445+05:30
Thiruvananthapuram,Kerala,8.5241,76.9366,27.0,82,0.0,1007.9,8.8,172,7,5,4,1,2026-02-28T19:56:17.875452+05:30
Kozhikode,Kerala,11.2588,75.7804,28.8,69,0.0,1007.3,8.7,91,7,5,4,1,2026-02-28T19:56:17.875460+05:30
Thrissur,Kerala,10.5276,76.2144,27.9,73,0.0,1006.4,8.8,120,7,5,4,1,2026-02-28T19:56:17.875468+05:30
Kannur,Kerala,11.8745,75.3704,28.3,70,0.0,1006.6,8.7,55,7,5,4,1,2026-02-28T19:56:17.875476+05:30
Patna,Bihar,25.5941,85.1376,25.1,53,0.0,999.5,6.95,129,4,5,7,0,2026-02-28T19:56:17.875484+05:30
Gaya,Bihar,24.7914,85.0002,23.9,55,0.0,993.3,7.05,92,0,5,7,0,2026-02-28T19:56:17.875491+05:30
Muzaffarpur,Bihar,26.1209,85.3647,23.5,57,0.0,999.4,6.9,146,0,5,7,0,2026-02-28T19:56:17.875497+05:30
Bhagalpur,Bihar,25.2425,87.0117,22.7,58,0.0,1000.5,7.0,123,0,5,4,0,2026-02-28T19:56:17.875503+05:30
Ranchi,Jharkhand,23.3441,85.3096,23.3,37,0.0,937.2,7.65,92,0,5,7,0,2026-02-28T19:56:17.875509+05:30
Jamshedpur,Jharkhand,22.8046,86.2029,28.0,37,0.0,990.2,7.6,108,4,5,7,0,2026-02-28T19:56:17.875516+05:30
Dhanbad,Jharkhand,23.7957,86.4304,26.4,26,0.0,979.1,7.4,110,4,5,7,0,2026-02-28T19:56:17.875522+05:30
Bokaro,Jharkhand,23.6693,86.1511,25.4,36,0.0,983.3,7.45,104,4,5,7,0,2026-02-28T19:56:17.875528+05:30
Bhubaneswar,Odisha,20.2961,85.8245,25.5,78,0.0,1003.0,7.9,157,7,5,4,1,2026-02-28T19:56:17.875534+05:30
Cuttack,Odisha,20.4625,85.8828,27.4,53,0.0,1004.5,7.95,157,4,5,4,1,2026-02-28T19:56:17.875540+05:30
Rourkela,Odisha,22.2604,84.8536,27.0,34,0.0,984.1,7.5,109,4,5,7,0,2026-02-28T19:56:17.875547+05:30
Raipur,Chhattisgarh,21.2514,81.6296,28.7,41,0.0,974.2,7.65,152,4,5,7,0,2026-02-28T19:56:17.875553+05:30
Bhilai,Chhattisgarh,21.1938,81.3509,28.4,42,0.0,974.5,7.65,150,4,5,7,0,2026-02-28T19:56:17.875559+05:30
Guwahati,Assam,26.1158,91.7086,23.7,66,0.0,1001.2,6.95,160,3,5,4,1,2026-02-28T19:56:17.875565+05:30
Agartala,Tripura,23.8315,91.2868,20.8,58,0.0,1005.8,7.3,172,0,5,4,0,2026-02-28T19:56:17.875571+05:30
Shillong,Meghalaya,25.5788,91.8933,9.1,79,0.0,852.2,6.65,153,3,5,7,0,2026-02-28T19:56:17.875577+05:30
Imphal,Manipur,24.817,93.9368,15.0,64,0.0,921.3,7.5,151,3,5,7,0,2026-02-28T19:56:17.875583+05:30
Aizawl,Mizoram,23.7271,92.7176,16.0,53,0.0,890.6,7.45,137,0,5,7,0,2026-02-28T19:56:17.875589+05:30
Kohima,Nagaland,25.6701,94.1077,12.8,72,0.0,852.0,7.35,147,3,5,7,0,2026-02-28T19:56:17.875596+05:30
Gangtok,Sikkim,27.3314,88.6138,10.4,86,0.1,833.3,4.45,134,6,10,3,0,2026-02-28T19:56:17.875603+05:30
Siliguri,West Bengal,26.7271,88.3953,19.6,60,0.0,992.9,6.95,166,0,5,7,0,2026-02-28T19:56:21.191313+05:30
Durgapur,West Bengal,23.5204,87.3119,26.0,33,0.0,994.4,7.45,107,4,5,7,0,2026-02-28T19:56:21.191347+05:30
Asansol,West Bengal,23.6739,86.9524,27.2,31,0.0,992.9,7.4,92,4,5,7,0,2026-02-28T19:56:21.191357+05:30
Pondicherry,Puducherry,11.9139,79.8145,25.1,85,0.0,1008.4,8.75,118,7,0,4,1,2026-02-28T19:56:21.191367+05:30
Port Blair,Andaman and Nicobar Islands,11.6234,92.7265,26.9,76,0.0,1006.6,7.85,76,7,5,4,1,2026-02-28T19:56:21.191376+05:30
Haridwar,Uttarakhand,29.9457,78.1642,20.8,62,0.0,974.1,5.3,114,3,5,3,0,2026-02-28T19:56:21.191384+05:30
Rishikesh,Uttarakhand,30.0869,78.2676,19.4,62,0.0,966.7,5.4,111,3,5,3,0,2026-02-28T19:56:21.191392+05:30
Nainital,Uttarakhand,29.3919,79.4542,14.8,55,0.0,803.6,6.2,111,0,5,7,0,2026-02-28T19:56:21.191400+05:30
Mussoorie,Uttarakhand,30.4599,78.0664,12.5,60,0.0,799.4,5.75,112,0,5,3,0,2026-02-28T19:56:21.191408+05:30
Dharamshala,Himachal Pradesh,32.219,76.3234,16.6,54,0.0,867.6,6.0,103,0,5,3,0,2026-02-28T19:56:21.191415+05:30
Dalhousie,Himachal Pradesh,32.5387,75.971,14.4,46,0.0,801.6,6.25,92,0,5,7,0,2026-02-28T19:56:21.191424+05:30
Patiala,Punjab,30.3398,76.3869,20.0,67,0.0,978.5,5.45,161,3,5,3,0,2026-02-28T19:56:21.191432+05:30
Bhatinda,Punjab,30.211,74.9455,21.1,59,0.0,984.4,6.15,152,0,5,7,0,2026-02-28T19:56:21.191439+05:30
Rohtak,Haryana,28.8955,76.6066,21.5,50,0.0,982.0,5.65,165,0,5,3,0,2026-02-28T19:56:21.191447+05:30
Panipat,Haryana,29.3909,76.9635,20.4,60,0.0,980.6,5.4,169,0,5,3,0,2026-02-28T19:56:21.191454+05:30
Mathura,Uttar Pradesh,27.4924,77.6737,24.8,51,0.0,986.8,5.2,129,0,5,3,0,2026-02-28T19:56:21.191462+05:30
Vrindavan,Uttar Pradesh,27.5823,77.7027,23.1,57,0.0,987.2,5.2,129,0,5,3,0,2026-02-28T19:56:21.191469+05:30
Ayodhya,Uttar Pradesh,26.7922,82.1998,22.0,53,0.0,994.6,6.25,139,0,5,7,0,2026-02-28T19:56:21.191476+05:30
Ratlam,Madhya Pradesh,23.3315,75.0367,23.2,57,0.0,954.4,7.2,93,0,5,7,0,2026-02-28T19:56:21.191484+05:30
Sagar,Madhya Pradesh,23.8388,78.7378,24.9,49,0.0,949.7,7.1,89,0,5,7,0,2026-02-28T19:56:21.191492+05:30
Satna,Madhya Pradesh,24.6005,80.8322,24.9,42,0.0,971.0,7.0,94,0,5,7,0,2026-02-28T19:56:21.191501+05:30
Akola,Maharashtra,20.7002,77.0082,28.0,42,0.0,974.0,7.6,116,4,5,7,0,2026-02-28T19:56:21.191510+05:30
Amravati,Maharashtra,20.9374,77.7796,27.1,42,0.0,966.2,7.55,137,4,5,7,0,2026-02-28T19:56:21.191518+05:30
Latur,Maharashtra,18.4088,76.5604,25.6,48,0.0,939.0,8.05,97,4,5,7,0,2026-02-28T19:56:21.191527+05:30
Nanded,Maharashtra,19.1383,77.3091,28.3,46,0.0,967.8,7.85,111,4,5,7,0,2026-02-28T19:56:21.191534+05:30
Gulbarga,Karnataka,17.3297,76.8343,28.6,44,0.0,957.6,8.15,126,4,5,7,0,2026-02-28T19:56:21.191541+05:30
Bidar,Karnataka,17.9104,77.5199,26.8,54,0.0,934.7,8.1,136,4,5,7,1,2026-02-28T19:56:21.191549+05:30
Hospet,Karnataka,15.2689,76.3909,30.8,38,0.0,954.3,8.5,165,0,5,7,0,2026-02-28T19:56:21.191556+05:30
Tirupur,Tamil Nadu,11.1085,77.3411,29.5,47,0.0,974.0,9.05,147,4,5,7,1,2026-02-28T19:56:21.191563+05:30
Alappuzha,Kerala,9.4981,76.3388,28.1,77,0.0,1008.3,8.65,144,7,0,4,1,2026-02-28T19:56:21.191571+05:30
Munnar,Kerala,10.0889,77.0595,20.6,95,0.0,856.0,7.95,123,3,5,7,1,2026-02-28T19:56:21.191578+05:30
Silchar,Assam,24.8333,92.7789,23.1,57,0.0,1004.3,7.25,157,0,5,4,0,2026-02-28T19:56:21.191586+05:30
Dibrugarh,Assam,27.4728,94.912,19.7,84,0.0,996.2,6.6,147,3,10,7,1,2026-02-28T19:56:21.191593+05:30
