city,state,latitude,longitude,temp,humidity,rain,pressure,uv_index,wind_gusts,aqi,pm10,pm2_5,mosquito_risk,arthritis_risk,migraine_risk,frizz_risk,updated_at
Delhi,Delhi,28.6139,77.209,21.3,70,0.0,984.5,6.9,29.2,198,130.9,41.1,3,5,7,0,2026-04-08T10:44:02.331244+05:30
Mumbai,Maharashtra,19.076,72.8777,28.3,74,0.0,1011.2,7.95,20.5,78,95.2,30.0,7,0,4,1,2026-04-08T10:44:02.331291+05:30
Bangalore,Karnataka,12.9716,77.5946,29.8,43,0.0,914.9,9.6,25.6,52,11.9,11.8,4,5,7,0,2026-04-08T10:44:02.331307+05:30
Hyderabad,Telangana,17.385,78.4867,33.5,29,0.0,956.1,9.15,22.0,93,42.5,25.6,0,5,7,0,2026-04-08T10:44:02.331317+05:30
Chennai,Tamil Nadu,13.0827,80.2707,34.5,56,0.0,1009.0,9.35,36.0,83,35.6,28.6,0,0,4,1,2026-04-08T10:44:02.331326+05:30
Kolkata,West Bengal,22.5726,88.3639,31.1,61,0.0,1008.4,8.7,31.7,101,32.7,27.6,3,0,4,1,2026-04-08T10:44:02.331335+05:30
Pune,Maharashtra,18.5204,73.8567,30.2,48,0.0,951.4,8.5,38.9,75,89.6,25.0,0,5,7,1,2026-04-08T10:44:02.331351+05:30
Ahmedabad,Gujarat,23.0225,72.5714,30.2,53,0.0,1003.6,8.0,33.1,58,30.2,12.0,0,5,4,1,2026-04-08T10:44:02.331360+05:30
Jaipur,Rajasthan,26.9124,75.7873,23.4,64,0.0,960.5,7.65,33.5,132,156.5,26.2,3,5,7,1,2026-04-08T10:44:02.331368+05:30
Lucknow,Uttar Pradesh,26.8467,80.9462,23.9,69,0.0,996.6,7.45,41.0,86,83.1,29.5,3,5,7,1,2026-04-08T10:44:02.331376+05:30
Kanpur,Uttar Pradesh,26.4499,80.3319,25.0,68,0.0,994.0,7.5,35.3,104,140.6,35.9,7,5,7,1,2026-04-08T10:44:02.331383+05:30
Chandigarh,Chandigarh,30.7333,76.7794,18.4,80,0.0,970.1,5.5,30.6,82,52.6,22.3,3,5,3,0,2026-04-08T10:44:02.331391+05:30
Srinagar,Jammu and Kashmir,34.0837,74.7973,10.5,74,0.0,836.7,5.5,22.0,51,5.7,5.7,3,5,3,0,2026-04-08T10:44:02.331398+05:30
Jammu,Jammu and Kashmir,32.7266,74.857,19.4,76,0.0,974.1,7.2,27.7,66,70.1,19.9,3,5,7,0,2026-04-08T10:44:02.331406+05:30
Amritsar,Punjab,31.634,74.8723,19.6,72,0.0,982.4,7.2,19.1,105,81.0,28.2,3,5,7,0,2026-04-08T10:44:02.331413+05:30
Ludhiana,Punjab,30.901,75.8573,18.8,73,0.0,980.2,5.05,20.5,141,74.0,26.4,3,5,3,0,2026-04-08T10:44:02.331421+05:30
Jalandhar,Punjab,31.326,75.5762,18.6,75,0.0,981.4,5.6,20.9,128,77.8,28.5,3,5,3,0,2026-04-08T10:44:02.331429+05:30
Dehradun,Uttarakhand,30.6284,78.0322,10.3,85,0.3,826.7,2.25,42.5,57,29.0,12.5,6,10,3,0,2026-04-08T10:44:02.331437+05:30
Shimla,Himachal Pradesh,31.1048,77.1734,8.8,89,0.3,779.6,5.75,41.8,60,38.4,15.5,6,10,3,0,2026-04-08T10:44:02.331445+05:30
Manali,Himachal Pradesh,32.2396,77.1887,10.1,96,0.4,812.3,5.45,29.9,58,8.2,6.9,6,10,3,0,2026-04-08T10:44:02.331453+05:30
Gurgaon,Haryana,28.4595,77.0266,21.6,72,0.0,982.7,7.05,25.6,888,126.2,38.1,3,5,7,1,2026-04-08T10:44:02.331460+05:30
Noida,Uttar Pradesh,28.5355,77.391,21.2,72,0.0,986.1,6.95,26.3,888,126.2,38.1,3,5,7,0,2026-04-08T10:44:02.331467+05:30
Ghaziabad,Uttar Pradesh,28.6692,77.4538,20.3,79,0.0,984.3,6.9,25.2,135,130.4,37.6,3,5,7,1,2026-04-08T10:44:02.331474+05:30
Faridabad,Haryana,28.4089,77.3178,21.2,76,0.0,985.2,7.0,26.3,888,126.2,38.1,3,5,7,1,2026-04-08T10:44:02.331480+05:30
Meerut,Uttar Pradesh,28.9845,77.7064,19.4,87,0.0,983.0,6.75,25.6,135,130.4,37.6,3,10,7,1,2026-04-08T10:44:02.331486+05:30
Agra,Uttar Pradesh,27.1767,78.0081,24.1,69,0.0,989.5,7.35,31.3,431,129.9,36.8,3,5,7,1,2026-04-08T10:44:02.331493+05:30
Varanasi,Uttar Pradesh,25.3176,82.9739,25.6,57,0.0,1001.3,7.55,36.7,85,59.6,30.4,4,5,4,1,2026-04-08T10:44:02.331502+05:30
Prayagraj,Uttar Pradesh,25.4358,81.8463,24.7,66,0.0,998.8,7.95,33.8,82,83.1,32.9,3,5,7,1,2026-04-08T10:44:02.331509+05:30
Gorakhpur,Uttar Pradesh,26.7606,83.3732,23.6,69,0.2,1001.5,7.0,38.2,82,62.6,37.6,6,5,4,1,2026-04-08T10:44:02.331516+05:30
Bareilly,Uttar Pradesh,28.367,79.4304,20.1,84,0.0,989.3,7.05,29.9,90,69.8,26.5,3,5,7,1,2026-04-08T10:44:02.331522+05:30
Aligarh,Uttar Pradesh,27.8974,78.088,22.9,70,0.0,987.1,7.1,27.0,294,124.3,36.0,3,5,7,1,2026-04-08T10:44:02.331529+05:30
Moradabad,Uttar Pradesh,28.8386,78.7733,19.5,86,0.0,985.9,4.6,27.4,97,94.5,36.1,3,10,3,1,2026-04-08T10:44:02.331535+05:30
Saharanpur,Uttar Pradesh,29.9637,77.546,18.7,81,0.0,977.4,5.45,29.9,86,46.9,19.4,3,10,3,0,2026-04-08T10:44:02.331541+05:30
Jhansi,Uttar Pradesh,25.4484,78.5685,25.3,63,0.0,979.4,7.95,42.8,79,83.8,28.0,7,5,7,1,2026-04-08T10:44:05.583822+05:30
Surat,Gujarat,21.1702,72.8311,29.1,70,0.0,1009.0,7.7,42.5,67,47.7,20.4,7,0,4,1,2026-04-08T10:44:05.583854+05:30
Vadodara,Gujarat,22.3072,73.1812,30.2,65,0.0,1006.0,7.95,39.6,65,39.2,14.7,3,5,4,1,2026-04-08T10:44:05.583865+05:30
Rajkot,Gujarat,22.3039,70.8022,29.8,57,0.0,995.7,7.7,39.6,54,47.4,16.1,4,5,7,1,2026-04-08T10:44:05.583875+05:30
Thane,Maharashtra,19.2183,72.9781,30.9,58,0.0,1010.7,7.95,36.4,78,95.2,30.0,0,0,4,1,2026-04-08T10:44:05.583882+05:30
Nagpur,Maharashtra,21.1458,79.0882,31.2,46,0.0,974.9,8.25,39.6,74,65.0,25.2,0,5,7,1,2026-04-08T10:44:05.583890+05:30
Nashik,Maharashtra,19.9975,73.7898,26.5,63,0.0,948.2,8.2,42.8,64,67.1,22.8,7,5,7,1,2026-04-08T10:44:05.583897+05:30
Aurangabad,Maharashtra,19.8762,75.3433,28.7,51,0.0,946.7,8.85,47.9,61,70.3,21.0,4,5,7,1,2026-04-08T10:44:05.583904+05:30
Solapur,Maharashtra,17.6599,75.9064,32.0,33,0.0,960.3,8.95,26.6,67,97.3,28.8,0,5,7,0,2026-04-08T10:44:05.583912+05:30
Kolhapur,Maharashtra,16.705,74.2433,29.1,48,0.0,951.1,9.0,43.2,64,95.2,29.1,4,5,7,1,2026-04-08T10:44:05.583919+05:30
Goa,Goa,15.2993,74.124,31.1,56,0.0,1000.6,9.0,37.4,56,91.3,24.8,0,5,4,1,2026-04-08T10:44:05.583926+05:30
Jodhpur,Rajasthan,26.2389,73.0243,25.0,66,0.0,984.1,7.9,25.6,104,149.9,28.8,7,5,7,1,2026-04-08T10:44:05.583933+05:30
Udaipur,Rajasthan,24.5854,73.7125,25.9,45,0.0,947.3,8.5,35.3,64,58.1,16.8,4,5,7,0,2026-04-08T10:44:05.583941+05:30
Kota,Rajasthan,25.2138,75.8648,24.0,60,0.0,980.3,7.95,34.2,79,138.3,32.1,0,5,7,0,2026-04-08T10:44:05.583948+05:30
Bikaner,Rajasthan,28.0229,73.3119,24.5,61,0.0,982.8,7.7,26.3,51,55.5,15.3,3,5,7,1,2026-04-08T10:44:05.583954+05:30
Ajmer,Rajasthan,26.4499,74.6399,24.5,58,0.0,955.2,7.85,35.3,72,52.4,14.6,0,5,7,0,2026-04-08T10:44:05.583961+05:30
Gwalior,Madhya Pradesh,26.2183,78.1828,23.6,72,0.0,984.8,7.65,39.2,79,110.8,31.3,3,5,7,1,2026-04-08T10:44:05.583968+05:30
Indore,Madhya Pradesh,22.7196,75.8577,25.8,65,0.0,949.9,8.4,50.0,70,36.4,14.8,7,5,7,1,2026-04-08T10:44:05.583975+05:30
Bhopal,Madhya Pradesh,23.2599,77.4126,29.4,47,0.0,955.0,8.15,53.6,72,37.8,16.5,4,5,7,1,2026-04-08T10:44:05.583981+05:30
Jabalpur,Madhya Pradesh,23.1815,79.9864,30.6,44,0.0,962.7,8.45,46.8,83,114.8,37.5,0,5,7,1,2026-04-08T10:44:05.583989+05:30
Ujjain,Madhya Pradesh,23.1765,75.7885,25.5,66,0.0,955.6,8.3,45.4,69,24.1,12.1,7,5,7,1,2026-04-08T10:44:05.583997+05:30
Visakhapatnam,Andhra Pradesh,17.6868,83.2185,33.0,55,0.0,1005.6,9.1,43.9,74,36.0,31.9,0,5,4,1,2026-04-08T10:44:05.584004+05:30
Vijayawada,Andhra Pradesh,16.5062,80.648,33.1,61,0.0,1004.5,9.15,26.6,101,31.4,28.2,3,5,4,1,2026-04-08T10:44:05.584011+05:30
Guntur,Andhra Pradesh,16.3067,80.4365,33.0,62,0.0,1005.7,9.15,30.2,95,31.0,27.9,3,5,4,1,2026-04-08T10:44:05.584018+05:30
Nellore,Andhra Pradesh,14.4426,79.9865,34.9,55,0.0,1007.2,9.3,37.1,79,41.2,36.3,0,5,4,1,2026-04-08T10:44:05.584026+05:30
Kurnool,Andhra Pradesh,15.8281,78.0373,35.4,29,0.0,979.0,9.15,23.0,74,23.5,21.0,0,5,10,0,2026-04-08T10:44:05.584034+05:30
Kakinada,Andhra Pradesh,16.9891,82.2475,32.8,64,0.0,1009.7,9.1,29.9,70,33.2,27.8,3,0,4,1,2026-04-08T10:44:05.584041+05:30
Tirupati,Andhra Pradesh,13.6288,79.4192,34.0,53,0.0,993.5,9.05,31.3,86,47.3,42.3,0,5,7,1,2026-04-08T10:44:05.584047+05:30
Warangal,Telangana,17.9689,79.5941,33.0,55,0.0,981.1,9.0,25.2,106,45.2,42.7,0,5,7,1,2026-04-08T10:44:05.584053+05:30
Nizamabad,Telangana,18.6725,78.0941,32.0,34,0.0,967.7,8.95,25.9,79,87.1,28.7,0,5,7,0,2026-04-08T10:44:05.584060+05:30
Mysore,Karnataka,12.2958,76.6396,28.9,44,0.0,931.6,9.45,43.2,47,11.0,10.2,4,5,7,0,2026-04-08T10:44:05.584067+05:30
Mangalore,Karnataka,12.9141,74.856,28.0,75,0.0,1009.2,9.15,30.6,53,23.3,14.0,7,0,4,1,2026-04-08T10:44:05.584074+05:30
Hubli-Dharwad,Karnataka,15.3647,75.124,30.0,42,0.0,943.9,9.2,41.8,43,93.4,26.1,4,5,7,0,2026-04-08T10:44:05.584082+05:30
Belgaum,Karnataka,15.8497,74.4977,28.4,45,0.0,928.9,9.2,39.6,56,101.7,26.0,4,5,7,0,2026-04-08T10:44:08.832952+05:30
Coimbatore,Tamil Nadu,11.0168,76.9558,31.0,54,0.0,965.0,9.5,55.8,53,11.3,9.4,0,5,7,1,2026-04-08T10:44:08.832982+05:30
Madurai,Tamil Nadu,9.9252,78.1198,32.8,58,0.0,995.4,9.05,33.1,100,41.1,34.7,0,5,7,1,2026-04-08T10:44:08.832992+05:30
Trichy,Tamil Nadu,10.7905,78.7047,32.0,54,0.0,1002.3,8.9,25.2,89,34.8,28.1,0,5,4,1,2026-04-08T10:44:08.833000+05:30
Salem,Tamil Nadu,11.6643,78.146,33.5,46,0.0,979.9,9.45,28.8,58,18.3,15.4,0,5,7,1,2026-04-08T10:44:08.833007+05:30
Tirunelveli,Tamil Nadu,8.7139,77.7567,34.7,40,0.0,1005.2,9.1,42.1,62,22.3,16.3,0,5,4,1,2026-04-08T10:44:08.833014+05:30
Vellore,Tamil Nadu,12.9165,79.1325,33.4,52,0.0,986.8,9.3,33.1,92,44.7,39.8,0,5,7,1,2026-04-08T10:44:08.833021+05:30
Erode,Tamil Nadu,11.341,77.7172,33.5,51,0.0,991.4,9.4,28.8,60,17.5,13.9,0,5,7,1,2026-04-08T10:44:08.833027+05:30
Kochi,Kerala,9.9312,76.2673,29.7,66,0.0,1011.2,9.2,34.6,60,22.0,14.8,7,0,4,1,2026-04-08T10:44:08.833035+05:30
Thiruvananthapuram,Kerala,8.5241,76.9366,28.8,76,0.0,1010.3,9.15,45.4,56,23.3,15.2,7,0,4,1,2026-04-08T10:44:08.833043+05:30
Kozhikode,Kerala,11.2588,75.7804,29.6,63,0.0,1010.7,9.15,28.4,52,19.7,11.9,7,0,4,1,2026-04-08T10:44:08.833050+05:30
Thrissur,Kerala,10.5276,76.2144,32.2,57,0.0,1009.6,9.2,35.3,63,21.4,14.8,0,0,4,1,2026-04-08T10:44:08.833057+05:30
Kannur,Kerala,11.8745,75.3704,30.5,58,0.0,1009.7,9.15,33.5,51,19.2,11.9,0,0,4,1,2026-04-08T10:44:08.833064+05:30
Patna,Bihar,25.5941,85.1376,26.1,56,0.0,1003.5,7.25,34.2,103,51.0,19.8,4,5,4,1,2026-04-08T10:44:08.833070+05:30
Gaya,Bihar,24.7914,85.0002,28.4,44,0.0,996.1,8.35,31.0,74,48.9,41.7,4,5,7,0,2026-04-08T10:44:08.833076+05:30
Muzaffarpur,Bihar,26.1209,85.3647,25.5,66,0.0,1003.9,6.0,30.6,117,44.4,21.1,7,5,0,1,2026-04-08T10:44:08.833084+05:30
Bhagalpur,Bihar,25.2425,87.0117,28.0,64,0.0,1004.3,8.3,37.1,90,58.1,47.3,7,5,4,1,2026-04-08T10:44:08.833090+05:30
Ranchi,Jharkhand,23.3441,85.3096,26.6,62,0.0,940.2,8.65,42.5,71,43.8,36.7,7,5,7,1,2026-04-08T10:44:08.833097+05:30
Jamshedpur,Jharkhand,22.8046,86.2029,30.4,63,0.0,992.8,8.55,34.2,120,60.3,51.9,3,5,7,1,2026-04-08T10:44:08.833104+05:30
Dhanbad,Jharkhand,23.7957,86.4304,31.4,49,0.0,981.8,7.45,29.5,151,81.0,71.9,0,5,7,1,2026-04-08T10:44:08.833111+05:30
Bokaro,Jharkhand,23.6693,86.1511,29.9,58,0.0,985.9,8.15,34.6,147,66.4,57.5,4,5,7,1,2026-04-08T10:44:08.833119+05:30
Bhubaneswar,Odisha,20.2961,85.8245,31.1,64,0.0,1004.6,8.95,39.6,72,19.3,15.4,3,5,4,1,2026-04-08T10:44:08.833125+05:30
Cuttack,Odisha,20.4625,85.8828,31.2,65,0.0,1006.4,9.0,35.6,72,19.3,15.4,3,5,4,1,2026-04-08T10:44:08.833131+05:30
Rourkela,Odisha,22.2604,84.8536,30.6,63,0.0,986.6,8.55,39.2,113,53.2,47.3,3,5,7,1,2026-04-08T10:44:08.833138+05:30
Raipur,Chhattisgarh,21.2514,81.6296,33.3,36,0.0,976.5,8.45,41.8,117,47.4,34.9,0,5,7,1,2026-04-08T10:44:08.833144+05:30
Bhilai,Chhattisgarh,21.1938,81.3509,33.3,37,0.0,976.7,8.55,43.2,100,50.3,30.5,0,5,7,1,2026-04-08T10:44:08.833150+05:30
Guwahati,Assam,26.1158,91.7086,25.1,71,0.0,1006.6,8.15,24.1,93,36.0,28.5,7,5,4,1,2026-04-08T10:44:08.833157+05:30
Agartala,Tripura,23.8315,91.2868,28.9,61,0.0,1009.9,8.45,11.2,97,26.0,23.3,7,0,4,1,2026-04-08T10:44:08.833164+05:30
Shillong,Meghalaya,25.5788,91.8933,17.6,55,0.0,859.2,5.9,40.3,75,30.3,18.6,0,5,3,0,2026-04-08T10:44:08.833170+05:30
Imphal,Manipur,24.817,93.9368,21.4,70,0.0,926.6,8.75,42.8,85,20.1,14.9,3,5,7,0,2026-04-08T10:44:08.833178+05:30
Aizawl,Mizoram,23.7271,92.7176,24.1,54,0.0,896.5,8.7,34.2,76,18.1,15.6,0,5,7,0,2026-04-08T10:44:08.833184+05:30
Kohima,Nagaland,25.6701,94.1077,17.0,80,0.0,858.1,7.3,64.4,64,21.5,14.3,3,5,7,0,2026-04-08T10:44:08.833191+05:30
Gangtok,Sikkim,27.3314,88.6138,17.5,62,0.0,840.3,7.45,19.1,80,28.2,16.8,3,5,7,0,2026-04-08T10:44:08.833221+05:30
Siliguri,West Bengal,26.7271,88.3953,21.7,75,0.0,998.5,8.05,20.5,89,47.3,35.9,3,5,7,1,2026-04-08T10:44:12.087720+05:30
Durgapur,West Bengal,23.5204,87.3119,30.4,62,0.0,997.3,8.45,28.1,136,70.3,62.9,3,5,7,1,2026-04-08T10:44:12.087751+05:30
Asansol,West Bengal,23.6739,86.9524,30.7,61,0.0,995.8,8.6,27.4,123,75.7,67.1,3,5,7,1,2026-04-08T10:44:12.087761+05:30
Pondicherry,Puducherry,11.9139,79.8145,32.7,67,0.0,1010.6,9.3,25.6,82,32.2,26.7,3,0,4,1,2026-04-08T10:44:12.087769+05:30
Port Blair,Andaman and Nicobar Islands,11.6234,92.7265,29.3,69,0.0,1010.2,9.2,10.4,29,7.4,5.0,7,0,4,1,2026-04-08T10:44:12.087778+05:30
Haridwar,Uttarakhand,29.9457,78.1642,18.4,86,0.0,976.0,6.75,25.2,71,40.0,15.8,3,10,7,0,2026-04-08T10:44:12.087786+05:30
Rishikesh,Uttarakhand,30.0869,78.2676,17.5,90,0.5,968.3,6.65,24.5,80,30.5,12.1,6,10,7,0,2026-04-08T10:44:12.087794+05:30
Nainital,Uttarakhand,29.3919,79.4542,13.3,83,0.0,803.7,5.9,55.4,75,29.2,11.7,3,10,3,0,2026-04-08T10:44:12.087802+05:30
Mussoorie,Uttarakhand,30.4599,78.0664,10.9,87,0.2,799.0,4.4,50.0,68,30.0,13.3,6,10,3,0,2026-04-08T10:44:12.087810+05:30
Dharamshala,Himachal Pradesh,32.219,76.3234,12.6,85,0.4,865.8,5.75,32.4,73,11.8,5.5,6,10,3,0,2026-04-08T10:44:12.087818+05:30
Dalhousie,Himachal Pradesh,32.5387,75.971,9.4,81,0.5,799.1,4.3,34.9,67,51.9,17.6,6,10,3,0,2026-04-08T10:44:12.087826+05:30
Patiala,Punjab,30.3398,76.3869,18.7,79,0.0,979.6,6.0,26.6,188,71.5,25.0,3,5,3,0,2026-04-08T10:44:12.087833+05:30
Bhatinda,Punjab,30.211,74.9455,20.5,67,0.0,985.2,7.45,24.8,124,103.1,32.2,3,5,7,0,2026-04-08T10:44:12.087841+05:30
Rohtak,Haryana,28.8955,76.6066,21.2,71,0.0,983.2,6.9,23.8,269,159.3,46.6,3,5,7,0,2026-04-08T10:44:12.087847+05:30
Panipat,Haryana,29.3909,76.9635,19.4,83,0.0,981.8,6.7,26.6,273,122.0,38.1,3,10,7,1,2026-04-08T10:44:12.087854+05:30
Mathura,Uttar Pradesh,27.4924,77.6737,24.3,64,0.0,988.2,7.25,29.2,440,85.7,27.1,3,5,7,1,2026-04-08T10:44:12.087861+05:30
Vrindavan,Uttar Pradesh,27.5823,77.7027,23.7,66,0.0,988.6,7.2,30.2,440,85.7,27.1,3,5,7,1,2026-04-08T10:44:12.087868+05:30
Ayodhya,Uttar Pradesh,26.7922,82.1998,21.6,80,0.2,999.8,7.55,38.9,88,85.2,40.9,6,5,7,1,2026-04-08T10:44:12.087875+05:30
Ratlam,Madhya Pradesh,23.3315,75.0367,26.6,61,0.0,956.1,8.25,45.0,68,23.2,11.3,7,5,7,1,2026-04-08T10:44:12.087882+05:30
Sagar,Madhya Pradesh,23.8388,78.7378,27.1,54,0.0,951.9,7.75,47.2,66,58.4,22.1,4,5,7,1,2026-04-08T10:44:12.087889+05:30
Satna,Madhya Pradesh,24.6005,80.8322,27.6,48,0.0,972.9,8.35,42.5,71,98.7,35.6,4,5,7,0,2026-04-08T10:44:12.087896+05:30
Akola,Maharashtra,20.7002,77.0082,31.4,46,0.0,977.4,8.7,46.8,65,61.2,19.8,0,5,7,1,2026-04-08T10:44:12.087903+05:30
Amravati,Maharashtra,20.9374,77.7796,31.5,44,0.0,969.3,8.7,42.1,62,60.1,19.8,0,5,7,1,2026-04-08T10:44:12.087911+05:30
Latur,Maharashtra,18.4088,76.5604,30.6,32,0.0,942.6,8.95,34.2,70,105.5,26.8,0,5,7,0,2026-04-08T10:44:12.087918+05:30
Nanded,Maharashtra,19.1383,77.3091,31.3,39,0.0,971.4,8.85,31.7,76,88.0,24.6,0,5,7,0,2026-04-08T10:44:12.087924+05:30
Gulbarga,Karnataka,17.3297,76.8343,33.9,25,0.0,961.6,9.05,31.7,66,93.1,26.1,0,5,7,0,2026-04-08T10:44:12.087930+05:30
Bidar,Karnataka,17.9104,77.5199,32.4,26,0.0,938.5,9.0,28.8,75,91.7,24.6,0,5,7,0,2026-04-08T10:44:12.087937+05:30
Hospet,Karnataka,15.2689,76.3909,29.4,52,0.0,958.7,9.25,27.0,48,58.3,23.1,4,5,7,1,2026-04-08T10:44:12.087943+05:30
Tirupur,Tamil Nadu,11.1085,77.3411,32.4,50,0.0,978.1,9.5,40.0,60,15.3,13.4,0,5,7,1,2026-04-08T10:44:12.087950+05:30
Alappuzha,Kerala,9.4981,76.3388,29.6,67,0.0,1011.3,9.15,31.0,59,25.0,16.3,7,0,4,1,2026-04-08T10:44:12.087958+05:30
Munnar,Kerala,10.0889,77.0595,26.5,60,0.0,861.0,9.25,39.2,59,24.6,17.9,4,5,7,1,2026-04-08T10:44:12.087965+05:30
Silchar,Assam,24.8333,92.7789,28.0,59,0.0,1009.3,8.45,23.0,107,21.7,19.2,4,0,4,1,2026-04-08T10:44:12.087972+05:30
Dibrugarh,Assam,27.4728,94.912,24.7,67,0.0,1000.2,8.2,17.3,73,21.8,16.0,3,5,4,1,2026-04-08T10:44:12.087978+05:30
