city,state,latitude,longitude,temp,humidity,rain,pressure,uv_index,wind_gusts,aqi,pm10,pm2_5,no2,co,o3,so2,mosquito_risk,arthritis_risk,migraine_risk,frizz_risk,updated_at
Delhi,Delhi,28.6139,77.209,29.8,62,0.0,976.7,7.75,32.8,186,540.2,149.9,64.4,394.0,7.0,23.8,7,5,7,1,2026-06-24T01:48:02.687688+05:30
Mumbai,Maharashtra,19.076,72.8777,25.6,95,0.6,1005.2,2.15,34.2,36,34.7,12.7,7.8,374.0,50.0,5.0,10,5,0,1,2026-06-24T01:48:02.687733+05:30
Bangalore,Karnataka,12.9716,77.5946,21.5,77,0.0,910.4,7.4,66.6,20,3.6,3.3,9.1,251.0,36.0,3.7,3,5,7,1,2026-06-24T01:48:02.687748+05:30
Hyderabad,Telangana,17.385,78.4867,26.8,60,0.0,950.5,6.55,43.6,27,6.8,6.0,11.4,186.0,37.0,6.0,4,5,7,1,2026-06-24T01:48:02.687756+05:30
Chennai,Tamil Nadu,13.0827,80.2707,29.0,68,0.0,1004.8,8.7,40.3,52,11.9,10.9,16.0,270.0,54.0,9.3,7,5,4,1,2026-06-24T01:48:02.687764+05:30
Kolkata,West Bengal,22.5726,88.3639,28.1,91,0.0,999.8,5.65,24.5,139,41.2,38.3,14.5,705.0,77.0,12.2,7,5,3,1,2026-06-24T01:48:02.687772+05:30
Pune,Maharashtra,18.5204,73.8567,22.2,96,0.2,944.5,2.0,36.7,21,4.0,3.9,11.1,153.0,33.0,7.2,6,5,3,1,2026-06-24T01:48:02.687779+05:30
Ahmedabad,Gujarat,23.0225,72.5714,31.2,59,0.0,996.5,8.0,37.8,74,35.7,18.0,5.6,137.0,51.0,3.7,0,5,7,1,2026-06-24T01:48:02.687785+05:30
Jaipur,Rajasthan,26.9124,75.7873,28.4,61,0.0,953.7,8.15,32.8,142,98.7,48.4,34.5,485.0,32.0,15.7,7,5,7,1,2026-06-24T01:48:02.687792+05:30
Lucknow,Uttar Pradesh,26.8467,80.9462,33.0,42,0.0,987.0,8.3,35.6,149,266.4,68.0,26.3,299.0,60.0,9.2,0,5,7,1,2026-06-24T01:48:02.687801+05:30
Kanpur,Uttar Pradesh,26.4499,80.3319,33.1,39,0.0,985.3,8.3,34.9,180,340.9,83.4,47.9,267.0,26.0,11.2,0,5,7,1,2026-06-24T01:48:02.687809+05:30
Chandigarh,Chandigarh,30.7333,76.7794,27.5,62,0.0,962.7,7.8,25.9,89,71.0,49.2,46.2,941.0,36.0,10.3,7,5,7,1,2026-06-24T01:48:02.687816+05:30
Srinagar,Jammu and Kashmir,34.0837,74.7973,15.6,95,0.0,835.7,9.1,20.9,80,38.0,37.1,36.8,603.0,0.0,0.4,3,10,7,0,2026-06-24T01:48:02.687823+05:30
Jammu,Jammu and Kashmir,32.7266,74.857,30.3,44,0.0,966.0,8.6,31.3,75,35.4,34.3,53.6,505.0,7.0,3.7,0,5,7,1,2026-06-24T01:48:02.687829+05:30
Amritsar,Punjab,31.634,74.8723,28.6,63,0.0,973.4,8.45,19.8,131,86.8,52.0,31.7,481.0,52.0,11.1,7,5,7,1,2026-06-24T01:48:02.687835+05:30
Ludhiana,Punjab,30.901,75.8573,29.5,61,0.0,971.7,8.0,24.5,118,101.5,57.7,30.1,911.0,65.0,11.6,7,5,7,1,2026-06-24T01:48:02.687842+05:30
Jalandhar,Punjab,31.326,75.5762,29.2,56,0.0,972.9,8.25,25.9,122,85.7,50.4,26.4,774.0,62.0,6.8,4,5,7,1,2026-06-24T01:48:02.687847+05:30
Dehradun,Uttarakhand,30.6284,78.0322,14.8,99,0.0,825.5,7.7,33.8,61,22.1,18.2,24.9,242.0,44.0,0.4,3,10,7,0,2026-06-24T01:48:02.687854+05:30
Shimla,Himachal Pradesh,31.1048,77.1734,13.8,75,0.0,780.1,7.7,35.3,55,25.3,23.8,29.3,359.0,34.0,2.0,3,5,7,0,2026-06-24T01:48:02.687860+05:30
Manali,Himachal Pradesh,32.2396,77.1887,13.4,87,0.0,813.7,8.05,34.2,44,3.2,2.7,88.4,330.0,13.0,0.0,3,10,7,0,2026-06-24T01:48:02.687867+05:30
Gurgaon,Haryana,28.4595,77.0266,28.5,62,0.0,975.0,7.8,28.4,441,692.9,171.8,36.3,394.0,27.0,13.3,7,5,7,1,2026-06-24T01:48:02.687875+05:30
Noida,Uttar Pradesh,28.5355,77.391,28.7,69,0.0,978.0,7.8,19.8,441,692.9,171.8,36.3,422.0,27.0,13.3,7,5,7,1,2026-06-24T01:48:02.687882+05:30
Ghaziabad,Uttar Pradesh,28.6692,77.4538,29.2,62,0.0,976.2,7.75,25.6,167,517.8,132.7,64.8,620.0,17.0,23.9,7,5,7,1,2026-06-24T01:48:02.687888+05:30
Faridabad,Haryana,28.4089,77.3178,29.1,64,0.0,977.3,7.8,30.6,441,692.9,171.8,36.3,415.0,27.0,13.3,7,5,7,1,2026-06-24T01:48:02.687893+05:30
Meerut,Uttar Pradesh,28.9845,77.7064,29.1,61,0.0,975.2,7.65,20.9,167,517.8,132.7,64.8,529.0,17.0,23.9,7,5,7,1,2026-06-24T01:48:02.687899+05:30
Agra,Uttar Pradesh,27.1767,78.0081,30.7,49,0.0,981.6,8.1,28.4,196,123.9,49.4,17.5,332.0,49.0,5.0,0,5,7,1,2026-06-24T01:48:02.687905+05:30
Varanasi,Uttar Pradesh,25.3176,82.9739,32.9,47,0.0,991.0,8.75,36.0,121,62.9,43.7,23.3,196.0,44.0,9.8,0,5,7,1,2026-06-24T01:48:02.687912+05:30
Prayagraj,Uttar Pradesh,25.4358,81.8463,32.7,48,0.0,989.8,8.65,38.9,127,92.7,52.5,39.5,189.0,25.0,10.5,0,5,7,1,2026-06-24T01:48:02.687918+05:30
Gorakhpur,Uttar Pradesh,26.7606,83.3732,29.6,72,0.0,990.5,8.6,25.9,155,188.6,105.2,69.9,812.0,16.0,19.8,7,5,7,1,2026-06-24T01:48:02.687923+05:30
Bareilly,Uttar Pradesh,28.367,79.4304,30.9,43,0.0,980.3,8.1,32.4,153,117.3,66.8,39.0,357.0,56.0,15.5,0,5,7,1,2026-06-24T01:48:02.687930+05:30
Aligarh,Uttar Pradesh,27.8974,78.088,29.0,59,0.0,979.3,7.9,29.5,302,597.9,144.8,30.8,427.0,27.0,5.8,4,5,7,1,2026-06-24T01:48:02.687935+05:30
Moradabad,Uttar Pradesh,28.8386,78.7733,30.1,52,0.0,977.7,7.9,30.6,159,298.0,113.9,61.2,452.0,22.0,15.7,0,5,7,1,2026-06-24T01:48:02.687941+05:30
Saharanpur,Uttar Pradesh,29.9637,77.546,28.0,69,0.0,969.6,7.45,25.2,154,224.4,90.1,48.1,596.0,36.0,13.5,7,5,7,1,2026-06-24T01:48:02.687947+05:30
Jhansi,Uttar Pradesh,25.4484,78.5685,30.6,51,0.0,972.4,7.85,29.9,89,36.6,24.0,9.9,190.0,57.0,5.2,0,5,7,1,2026-06-24T01:48:05.998202+05:30
Surat,Gujarat,21.1702,72.8311,28.7,85,0.0,1001.5,1.4,47.5,70,50.3,26.5,24.2,228.0,29.0,37.9,7,5,0,1,2026-06-24T01:48:05.998235+05:30
Vadodara,Gujarat,22.3072,73.1812,29.3,79,0.0,998.8,4.5,48.6,68,32.7,19.4,20.1,224.0,29.0,18.8,7,5,3,1,2026-06-24T01:48:05.998246+05:30
Rajkot,Gujarat,22.3039,70.8022,28.6,76,0.0,989.2,7.55,43.9,70,35.3,16.2,5.8,109.0,42.0,6.3,7,5,7,1,2026-06-24T01:48:05.998254+05:30
Thane,Maharashtra,19.2183,72.9781,24.9,99,0.3,1004.5,1.8,28.8,36,34.7,12.7,7.8,313.0,50.0,5.0,6,5,0,1,2026-06-24T01:48:05.998262+05:30
Nagpur,Maharashtra,21.1458,79.0882,26.8,89,0.1,969.6,8.85,28.4,54,10.6,10.5,14.7,184.0,56.0,8.0,10,5,7,1,2026-06-24T01:48:05.998271+05:30
Nashik,Maharashtra,19.9975,73.7898,22.8,96,0.0,941.4,2.55,39.2,25,6.5,4.2,9.4,147.0,43.0,6.7,3,5,3,1,2026-06-24T01:48:05.998278+05:30
Aurangabad,Maharashtra,19.8762,75.3433,23.5,93,0.1,940.0,2.1,39.2,28,6.2,5.5,10.7,166.0,48.0,6.5,6,5,3,1,2026-06-24T01:48:05.998287+05:30
Solapur,Maharashtra,17.6599,75.9064,24.0,92,0.0,953.9,5.85,49.3,21,3.4,3.3,7.1,129.0,35.0,2.3,3,5,3,1,2026-06-24T01:48:05.998294+05:30
Kolhapur,Maharashtra,16.705,74.2433,21.9,97,0.1,945.1,4.75,45.4,19,2.5,2.4,4.9,128.0,44.0,1.5,6,5,3,1,2026-06-24T01:48:05.998301+05:30
Goa,Goa,15.2993,74.124,23.2,97,0.2,997.4,6.0,27.0,31,12.9,7.1,1.8,216.0,51.0,0.5,6,5,3,1,2026-06-24T01:48:05.998309+05:30
Jodhpur,Rajasthan,26.2389,73.0243,31.9,45,0.0,975.9,8.4,38.2,137,154.6,43.4,6.9,144.0,46.0,2.0,0,5,7,1,2026-06-24T01:48:05.998316+05:30
Udaipur,Rajasthan,24.5854,73.7125,27.9,53,0.0,941.3,8.8,31.7,71,75.7,29.0,7.7,150.0,52.0,3.9,4,5,7,1,2026-06-24T01:48:05.998323+05:30
Kota,Rajasthan,25.2138,75.8648,30.3,58,0.0,972.8,8.3,32.0,83,38.6,23.1,8.1,191.0,63.0,5.0,0,5,7,1,2026-06-24T01:48:05.998330+05:30
Bikaner,Rajasthan,28.0229,73.3119,32.0,39,0.0,974.2,8.45,31.0,141,229.1,61.5,3.2,152.0,61.0,3.1,0,5,7,1,2026-06-24T01:48:05.998337+05:30
Ajmer,Rajasthan,26.4499,74.6399,28.4,53,0.0,948.5,8.35,41.8,86,77.5,29.9,10.1,239.0,49.0,4.4,4,5,7,1,2026-06-24T01:48:05.998344+05:30
Gwalior,Madhya Pradesh,26.2183,78.1828,30.6,53,0.0,977.3,7.65,34.9,109,99.9,40.6,12.3,177.0,53.0,3.4,0,5,7,1,2026-06-24T01:48:05.998351+05:30
Indore,Madhya Pradesh,22.7196,75.8577,25.5,79,0.0,943.4,7.15,48.2,67,41.7,34.0,21.0,358.0,42.0,8.2,7,5,7,1,2026-06-24T01:48:05.998358+05:30
Bhopal,Madhya Pradesh,23.2599,77.4126,24.8,87,0.0,949.3,2.2,24.5,57,15.7,13.8,7.1,277.0,61.0,2.6,3,5,3,1,2026-06-24T01:48:05.998365+05:30
Jabalpur,Madhya Pradesh,23.1815,79.9864,25.8,88,0.0,957.6,7.85,31.7,66,21.8,16.1,9.0,226.0,62.0,2.7,7,5,7,1,2026-06-24T01:48:05.998372+05:30
Ujjain,Madhya Pradesh,23.1765,75.7885,26.6,72,0.0,949.2,7.3,34.2,71,39.9,29.9,10.3,329.0,58.0,4.7,7,5,7,1,2026-06-24T01:48:05.998380+05:30
Visakhapatnam,Andhra Pradesh,17.6868,83.2185,29.0,69,0.0,999.7,8.05,38.9,74,25.1,22.6,24.2,359.0,62.0,35.5,7,5,7,1,2026-06-24T01:48:05.998387+05:30
Vijayawada,Andhra Pradesh,16.5062,80.648,29.7,60,0.0,999.3,8.8,34.6,64,9.7,9.3,8.5,189.0,46.0,3.2,4,5,7,1,2026-06-24T01:48:05.998394+05:30
Guntur,Andhra Pradesh,16.3067,80.4365,30.0,55,0.0,1000.7,8.7,37.4,54,9.1,8.7,8.3,169.0,45.0,2.9,4,5,4,1,2026-06-24T01:48:05.998401+05:30
Nellore,Andhra Pradesh,14.4426,79.9865,29.5,60,0.0,1003.7,8.85,49.3,38,9.0,8.3,10.3,126.0,45.0,4.1,4,5,4,1,2026-06-24T01:48:05.998409+05:30
Kurnool,Andhra Pradesh,15.8281,78.0373,26.9,66,0.0,975.2,7.75,56.9,22,3.9,3.4,9.3,122.0,33.0,5.7,7,5,7,1,2026-06-24T01:48:05.998417+05:30
Kakinada,Andhra Pradesh,16.9891,82.2475,28.2,88,0.0,1003.7,8.85,35.6,62,17.1,13.3,4.7,391.0,77.0,4.4,7,5,4,1,2026-06-24T01:48:05.998424+05:30
Tirupati,Andhra Pradesh,13.6288,79.4192,28.1,59,0.0,989.3,8.15,40.3,30,11.2,10.4,19.4,134.0,20.0,2.0,4,5,7,1,2026-06-24T01:48:05.998431+05:30
Warangal,Telangana,17.9689,79.5941,28.3,63,0.0,975.4,7.95,43.6,43,10.2,10.0,14.9,190.0,30.0,3.7,7,5,7,1,2026-06-24T01:48:05.998438+05:30
Nizamabad,Telangana,18.6725,78.0941,28.2,58,0.0,961.5,5.2,40.3,27,6.9,6.5,8.8,192.0,39.0,2.7,4,5,3,1,2026-06-24T01:48:05.998445+05:30
Mysore,Karnataka,12.2958,76.6396,21.3,88,0.0,927.6,5.6,54.7,21,2.4,2.2,5.6,129.0,40.0,1.6,3,5,3,1,2026-06-24T01:48:05.998452+05:30
Mangalore,Karnataka,12.9141,74.856,23.6,100,0.1,1007.8,8.55,42.5,31,13.4,8.0,3.9,156.0,38.0,1.5,6,5,4,1,2026-06-24T01:48:05.998458+05:30
Hubli-Dharwad,Karnataka,15.3647,75.124,21.6,97,0.0,939.2,7.5,54.4,20,0.9,0.8,3.3,104.0,41.0,0.7,3,5,7,1,2026-06-24T01:48:05.998466+05:30
Belgaum,Karnataka,15.8497,74.4977,20.6,98,0.1,923.5,6.2,48.2,19,1.5,1.4,3.9,103.0,45.0,0.9,6,5,7,1,2026-06-24T01:48:09.311695+05:30
Coimbatore,Tamil Nadu,11.0168,76.9558,23.4,90,0.0,961.1,8.15,50.0,19,4.8,4.0,7.5,188.0,32.0,2.7,3,5,7,1,2026-06-24T01:48:09.311729+05:30
Madurai,Tamil Nadu,9.9252,78.1198,28.6,62,0.0,992.1,7.4,30.2,66,30.6,28.8,39.7,165.0,3.0,8.7,7,5,7,1,2026-06-24T01:48:09.311742+05:30
Trichy,Tamil Nadu,10.7905,78.7047,28.5,64,0.0,998.7,8.45,47.2,24,7.7,6.0,6.3,117.0,40.0,2.9,7,5,7,1,2026-06-24T01:48:09.311752+05:30
Salem,Tamil Nadu,11.6643,78.146,26.0,80,0.0,976.5,8.45,27.4,46,19.6,17.1,23.1,353.0,30.0,7.7,7,5,7,1,2026-06-24T01:48:09.311762+05:30
Tirunelveli,Tamil Nadu,8.7139,77.7567,28.4,62,0.0,1002.7,8.4,42.1,26,9.5,7.1,5.8,183.0,41.0,2.2,7,5,4,1,2026-06-24T01:48:09.311771+05:30
Vellore,Tamil Nadu,12.9165,79.1325,27.7,59,0.0,983.0,8.1,45.7,38,14.6,13.4,16.8,248.0,30.0,4.1,4,5,7,1,2026-06-24T01:48:09.311781+05:30
Erode,Tamil Nadu,11.341,77.7172,26.7,74,0.0,988.3,7.75,34.2,33,13.4,11.6,16.1,153.0,31.0,4.2,7,5,7,1,2026-06-24T01:48:09.311790+05:30
Kochi,Kerala,9.9312,76.2673,25.8,95,0.0,1009.6,7.65,38.2,44,13.0,10.6,12.2,166.0,25.0,3.3,7,0,4,1,2026-06-24T01:48:09.311798+05:30
Thiruvananthapuram,Kerala,8.5241,76.9366,25.1,91,0.0,1008.7,8.35,46.1,32,10.9,7.0,3.1,197.0,47.0,1.3,7,0,4,1,2026-06-24T01:48:09.311805+05:30
Kozhikode,Kerala,11.2588,75.7804,25.2,91,0.3,1008.7,7.85,26.6,26,11.3,5.9,1.2,193.0,52.0,0.6,10,0,4,1,2026-06-24T01:48:09.311812+05:30
Thrissur,Kerala,10.5276,76.2144,24.6,97,0.1,1007.9,6.85,34.2,41,16.5,14.3,12.5,299.0,24.0,3.4,6,5,4,1,2026-06-24T01:48:09.311821+05:30
Kannur,Kerala,11.8745,75.3704,24.2,98,0.1,1008.3,8.6,31.3,26,12.8,7.6,4.6,171.0,38.0,1.2,6,0,4,1,2026-06-24T01:48:09.311828+05:30
Patna,Bihar,25.5941,85.1376,30.5,78,0.0,993.4,8.85,26.6,155,139.7,103.8,61.7,610.0,19.0,21.6,3,5,7,1,2026-06-24T01:48:09.311836+05:30
Gaya,Bihar,24.7914,85.0002,30.2,57,0.0,987.6,8.9,30.2,124,79.4,44.2,12.9,234.0,74.0,12.5,0,5,7,1,2026-06-24T01:48:09.311843+05:30
Muzaffarpur,Bihar,26.1209,85.3647,28.1,85,0.0,993.7,8.85,27.4,160,106.4,84.3,26.6,968.0,61.0,16.4,7,5,7,1,2026-06-24T01:48:09.311850+05:30
Bhagalpur,Bihar,25.2425,87.0117,28.5,84,0.0,994.3,8.8,30.6,146,72.2,62.4,17.2,462.0,87.0,31.7,7,5,7,1,2026-06-24T01:48:09.311857+05:30
Ranchi,Jharkhand,23.3441,85.3096,24.8,74,0.0,933.0,7.3,30.6,88,41.9,27.4,6.8,227.0,81.0,2.9,3,5,7,1,2026-06-24T01:48:09.311865+05:30
Jamshedpur,Jharkhand,22.8046,86.2029,27.5,80,0.0,985.5,8.65,30.2,112,49.1,43.0,13.8,261.0,105.0,27.4,7,5,7,1,2026-06-24T01:48:09.311872+05:30
Dhanbad,Jharkhand,23.7957,86.4304,27.9,72,0.0,974.0,8.8,30.2,147,61.7,48.5,33.4,225.0,67.0,82.9,7,5,7,1,2026-06-24T01:48:09.311879+05:30
Bokaro,Jharkhand,23.6693,86.1511,28.2,70,0.0,977.9,8.7,28.8,124,58.9,43.4,22.2,248.0,77.0,54.4,7,5,7,1,2026-06-24T01:48:09.311886+05:30
Bhubaneswar,Odisha,20.2961,85.8245,27.8,87,0.1,997.6,8.9,31.3,72,26.4,25.4,11.3,320.0,75.0,7.0,10,5,7,1,2026-06-24T01:48:09.311893+05:30
Cuttack,Odisha,20.4625,85.8828,27.7,90,0.1,999.6,7.35,35.6,72,26.4,25.4,11.3,341.0,75.0,7.0,10,5,7,1,2026-06-24T01:48:09.311900+05:30
Rourkela,Odisha,22.2604,84.8536,25.7,96,0.5,980.4,8.5,28.4,104,44.0,33.5,11.5,392.0,72.0,8.4,10,5,7,1,2026-06-24T01:48:09.311907+05:30
Raipur,Chhattisgarh,21.2514,81.6296,27.4,78,0.0,970.9,8.9,31.7,82,34.7,34.5,47.1,367.0,43.0,64.4,7,5,7,1,2026-06-24T01:48:09.311914+05:30
Bhilai,Chhattisgarh,21.1938,81.3509,26.4,85,0.0,971.4,8.95,29.9,72,25.4,25.2,29.2,415.0,75.0,48.4,7,5,7,1,2026-06-24T01:48:09.311927+05:30
Guwahati,Assam,26.1158,91.7086,24.5,99,0.1,996.3,8.75,25.6,60,22.1,18.7,8.4,428.0,68.0,3.3,6,5,7,1,2026-06-24T01:48:09.311935+05:30
Agartala,Tripura,23.8315,91.2868,26.3,90,0.0,1001.1,8.0,28.1,69,17.5,15.9,14.2,264.0,49.0,3.1,7,5,4,1,2026-06-24T01:48:09.311942+05:30
Shillong,Meghalaya,25.5788,91.8933,19.4,96,0.0,853.2,7.8,21.6,42,5.3,4.0,4.3,221.0,89.0,2.7,3,10,7,1,2026-06-24T01:48:09.311949+05:30
Imphal,Manipur,24.817,93.9368,22.4,95,0.1,919.1,8.15,29.9,53,15.9,15.3,11.3,472.0,44.0,2.9,6,5,7,1,2026-06-24T01:48:09.311956+05:30
Aizawl,Mizoram,23.7271,92.7176,19.5,97,0.0,888.2,8.2,19.4,28,5.9,5.7,5.6,188.0,38.0,0.5,3,10,7,1,2026-06-24T01:48:09.311963+05:30
Kohima,Nagaland,25.6701,94.1077,18.1,95,0.0,850.8,8.45,25.9,40,8.7,6.8,5.0,289.0,57.0,0.9,3,10,7,1,2026-06-24T01:48:09.311985+05:30
Gangtok,Sikkim,27.3314,88.6138,17.3,97,0.1,833.7,9.05,36.7,62,11.1,8.9,6.6,403.0,115.0,3.7,6,10,7,1,2026-06-24T01:48:09.311993+05:30
Siliguri,West Bengal,26.7271,88.3953,24.0,99,0.0,987.9,8.65,22.7,71,24.6,17.3,7.9,413.0,120.0,5.4,3,5,7,1,2026-06-24T01:48:12.631585+05:30
Durgapur,West Bengal,23.5204,87.3119,28.0,82,0.0,988.8,9.0,29.2,158,77.8,71.0,36.4,676.0,57.0,52.4,7,5,7,1,2026-06-24T01:48:12.631618+05:30
Asansol,West Bengal,23.6739,86.9524,28.6,74,0.0,987.2,8.95,33.8,152,64.7,54.1,36.0,783.0,60.0,63.3,7,5,7,1,2026-06-24T01:48:12.631631+05:30
Pondicherry,Puducherry,11.9139,79.8145,28.6,70,0.0,1006.7,7.65,32.8,58,12.3,10.9,12.7,349.0,64.0,9.5,7,5,4,1,2026-06-24T01:48:12.631640+05:30
Port Blair,Andaman and Nicobar Islands,11.6234,92.7265,27.5,82,0.0,1005.7,8.65,43.9,25,6.8,4.1,0.2,83.0,49.0,0.3,7,5,4,1,2026-06-24T01:48:12.631649+05:30
Haridwar,Uttarakhand,29.9457,78.1642,25.2,90,0.0,967.9,7.6,26.3,116,87.8,58.8,42.6,423.0,40.0,12.4,7,5,7,1,2026-06-24T01:48:12.631658+05:30
Rishikesh,Uttarakhand,30.0869,78.2676,23.7,89,0.0,960.5,7.7,23.0,95,37.8,30.2,18.6,374.0,90.0,7.1,3,5,7,1,2026-06-24T01:48:12.631666+05:30
Nainital,Uttarakhand,29.3919,79.4542,16.2,87,0.0,802.1,6.95,29.5,83,54.0,37.0,26.8,362.0,57.0,6.0,3,10,7,0,2026-06-24T01:48:12.631674+05:30
Mussoorie,Uttarakhand,30.4599,78.0664,16.1,86,0.0,799.6,7.55,40.7,80,29.2,26.9,31.9,327.0,59.0,6.3,3,10,7,0,2026-06-24T01:48:12.631681+05:30
Dharamshala,Himachal Pradesh,32.219,76.3234,21.6,62,0.0,865.2,7.85,31.0,41,15.0,14.0,19.2,213.0,23.0,0.0,3,5,7,0,2026-06-24T01:48:12.631688+05:30
Dalhousie,Himachal Pradesh,32.5387,75.971,14.0,83,0.0,799.6,7.9,33.8,69,29.1,26.7,37.1,462.0,33.0,1.8,3,10,7,0,2026-06-24T01:48:12.631696+05:30
Patiala,Punjab,30.3398,76.3869,29.2,62,0.0,971.5,7.55,23.4,153,142.0,71.2,28.3,522.0,68.0,13.3,7,5,7,1,2026-06-24T01:48:12.631703+05:30
Bhatinda,Punjab,30.211,74.9455,30.5,51,0.0,976.5,8.25,27.7,144,129.9,79.9,59.8,401.0,25.0,12.2,0,5,7,1,2026-06-24T01:48:12.631711+05:30
Rohtak,Haryana,28.8955,76.6066,27.7,66,0.0,975.1,7.75,24.1,196,476.8,134.6,52.9,254.0,7.0,7.5,7,5,7,1,2026-06-24T01:48:12.631718+05:30
Panipat,Haryana,29.3909,76.9635,27.8,70,0.0,973.6,7.0,16.6,644,633.3,153.7,60.7,527.0,13.0,10.6,7,5,7,1,2026-06-24T01:48:12.631725+05:30
Mathura,Uttar Pradesh,27.4924,77.6737,30.0,59,0.0,980.4,8.05,25.6,233,895.9,136.4,21.2,398.0,42.0,3.9,4,5,7,1,2026-06-24T01:48:12.631732+05:30
Vrindavan,Uttar Pradesh,27.5823,77.7027,29.4,63,0.0,980.8,8.0,25.6,233,895.9,136.4,21.2,398.0,42.0,3.9,7,5,7,1,2026-06-24T01:48:12.631739+05:30
Ayodhya,Uttar Pradesh,26.7922,82.1998,30.0,62,0.0,988.4,8.4,28.8,144,162.5,57.4,22.1,517.0,64.0,9.0,7,5,7,1,2026-06-24T01:48:12.631746+05:30
Ratlam,Madhya Pradesh,23.3315,75.0367,26.4,74,0.0,950.1,8.0,37.4,73,39.0,27.8,7.4,228.0,68.0,6.7,7,5,7,1,2026-06-24T01:48:12.631753+05:30
Sagar,Madhya Pradesh,23.8388,78.7378,26.4,73,0.0,945.8,8.6,33.5,66,26.9,19.0,9.5,166.0,57.0,2.7,7,5,7,1,2026-06-24T01:48:12.631761+05:30
Satna,Madhya Pradesh,24.6005,80.8322,30.0,56,0.0,966.4,8.75,34.9,94,29.9,23.0,7.8,181.0,73.0,4.0,4,5,7,1,2026-06-24T01:48:12.631769+05:30
Akola,Maharashtra,20.7002,77.0082,25.7,93,0.1,971.3,5.6,37.4,36,8.1,7.7,8.8,174.0,64.0,2.9,10,5,3,1,2026-06-24T01:48:12.631777+05:30
Amravati,Maharashtra,20.9374,77.7796,25.4,88,0.1,963.6,8.5,33.5,37,7.7,7.4,8.8,169.0,61.0,3.2,10,5,7,1,2026-06-24T01:48:12.631785+05:30
Latur,Maharashtra,18.4088,76.5604,24.9,76,0.0,936.3,5.4,42.8,23,3.0,2.9,5.0,130.0,40.0,1.6,3,5,3,1,2026-06-24T01:48:12.631793+05:30
Nanded,Maharashtra,19.1383,77.3091,27.1,72,0.0,964.9,6.0,35.6,24,5.7,5.4,9.3,167.0,35.0,3.3,7,5,3,1,2026-06-24T01:48:12.631800+05:30
Gulbarga,Karnataka,17.3297,76.8343,25.2,75,0.1,955.9,4.55,55.4,23,3.1,2.7,6.9,131.0,37.0,2.6,10,5,3,1,2026-06-24T01:48:12.631807+05:30
Bidar,Karnataka,17.9104,77.5199,25.1,70,0.0,932.6,5.95,46.8,24,4.8,4.3,8.5,140.0,38.0,2.8,7,5,3,1,2026-06-24T01:48:12.631814+05:30
Hospet,Karnataka,15.2689,76.3909,23.3,85,0.0,954.2,5.75,57.2,21,1.8,1.6,4.0,112.0,39.0,1.2,3,5,3,1,2026-06-24T01:48:12.631821+05:30
Tirupur,Tamil Nadu,11.1085,77.3411,24.8,82,0.0,974.6,8.45,55.1,37,15.4,13.7,20.3,140.0,25.0,5.4,3,5,7,1,2026-06-24T01:48:12.631828+05:30
Alappuzha,Kerala,9.4981,76.3388,25.6,94,0.0,1009.5,7.35,40.0,39,11.6,8.2,7.0,139.0,40.0,2.4,7,0,4,1,2026-06-24T01:48:12.631835+05:30
Munnar,Kerala,10.0889,77.0595,16.1,90,0.0,856.0,7.2,38.9,20,4.0,3.3,4.7,89.0,34.0,1.2,3,10,7,0,2026-06-24T01:48:12.631842+05:30
Silchar,Assam,24.8333,92.7789,25.0,96,0.1,1000.7,8.25,22.0,65,21.4,17.2,8.7,223.0,73.0,4.4,10,5,4,1,2026-06-24T01:48:12.631849+05:30
Dibrugarh,Assam,27.4728,94.912,24.4,99,0.3,990.5,7.45,21.6,64,13.5,11.2,8.0,216.0,87.0,1.3,6,5,7,1,2026-06-24T01:48:12.631856+05:30
