city,state,latitude,longitude,temp,humidity,rain,pressure,uv_index,wind_gusts,aqi,pm10,pm2_5,no2,co,o3,so2,mosquito_risk,arthritis_risk,migraine_risk,frizz_risk,updated_at
Delhi,Delhi,28.6139,77.209,43.1,15,0.0,977.1,7.75,35.6,331,404.2,68.0,3.8,207.0,155.0,11.3,0,5,10,0,2026-05-20T13:18:58.628514+05:30
Mumbai,Maharashtra,19.076,72.8777,33.0,56,0.0,1006.8,7.5,39.6,68,26.5,17.5,4.3,158.0,106.0,6.5,0,5,4,1,2026-05-20T13:18:58.628552+05:30
Bangalore,Karnataka,12.9716,77.5946,29.5,56,0.0,911.1,6.15,38.5,38,5.6,4.9,2.0,266.0,102.0,2.4,4,5,7,1,2026-05-20T13:18:58.628565+05:30
Hyderabad,Telangana,17.385,78.4867,39.3,23,0.0,950.2,9.2,34.6,92,45.1,30.6,1.8,264.0,160.0,7.9,0,5,10,0,2026-05-20T13:18:58.628573+05:30
Chennai,Tamil Nadu,13.0827,80.2707,40.0,34,0.0,1001.8,9.1,35.6,62,26.3,21.7,4.9,256.0,170.0,10.5,0,5,7,1,2026-05-20T13:18:58.628579+05:30
Kolkata,West Bengal,22.5726,88.3639,36.8,56,0.0,997.9,8.95,25.6,76,65.9,36.9,2.4,413.0,160.0,14.1,0,5,10,1,2026-05-20T13:18:58.628591+05:30
Pune,Maharashtra,18.5204,73.8567,35.4,34,0.1,947.0,8.45,38.2,73,36.2,20.4,2.3,153.0,113.0,7.5,3,5,10,1,2026-05-20T13:18:58.628597+05:30
Ahmedabad,Gujarat,23.0225,72.5714,40.6,23,0.0,998.4,8.15,36.4,61,69.8,20.3,1.4,159.0,90.0,3.3,0,5,10,0,2026-05-20T13:18:58.628602+05:30
Jaipur,Rajasthan,26.9124,75.7873,40.5,14,0.0,956.2,8.3,40.3,115,222.6,41.8,0.8,147.0,110.0,3.6,0,5,10,0,2026-05-20T13:18:58.628609+05:30
Lucknow,Uttar Pradesh,26.8467,80.9462,42.8,25,0.0,986.6,8.25,41.4,152,268.2,71.5,1.3,264.0,215.0,14.0,0,5,10,1,2026-05-20T13:18:58.628614+05:30
Kanpur,Uttar Pradesh,26.4499,80.3319,44.0,14,0.0,985.0,8.25,42.1,164,443.3,78.7,1.2,205.0,198.0,12.0,0,5,10,0,2026-05-20T13:18:58.628619+05:30
Chandigarh,Chandigarh,30.7333,76.7794,41.7,11,0.0,963.3,7.8,26.3,103,54.7,21.9,1.3,233.0,159.0,8.8,0,5,10,0,2026-05-20T13:18:58.628625+05:30
Srinagar,Jammu and Kashmir,34.0837,74.7973,25.4,34,0.0,844.8,9.05,27.0,88,59.0,22.0,1.1,254.0,144.0,4.1,4,5,7,0,2026-05-20T13:18:58.628631+05:30
Jammu,Jammu and Kashmir,32.7266,74.857,41.8,12,0.0,966.8,8.6,41.8,85,72.9,24.9,0.6,185.0,158.0,2.7,0,5,10,0,2026-05-20T13:18:58.628636+05:30
Amritsar,Punjab,31.634,74.8723,42.0,15,0.0,974.2,8.5,36.0,124,69.8,30.7,1.3,234.0,188.0,9.8,0,5,10,0,2026-05-20T13:18:58.628641+05:30
Ludhiana,Punjab,30.901,75.8573,42.6,12,0.0,972.4,8.05,27.7,156,65.4,26.4,1.0,255.0,154.0,8.8,0,5,10,0,2026-05-20T13:18:58.628646+05:30
Jalandhar,Punjab,31.326,75.5762,42.8,10,0.0,973.4,8.25,27.4,142,82.2,26.1,0.7,274.0,168.0,6.4,0,5,10,0,2026-05-20T13:18:58.628651+05:30
Dehradun,Uttarakhand,30.6284,78.0322,29.0,22,0.0,832.4,8.25,46.4,75,82.9,20.7,0.5,224.0,146.0,4.0,4,5,7,0,2026-05-20T13:18:58.628655+05:30
Shimla,Himachal Pradesh,31.1048,77.1734,27.8,16,0.0,788.3,8.3,41.4,77,98.7,22.5,0.8,191.0,157.0,7.8,4,5,7,1,2026-05-20T13:18:58.628662+05:30
Manali,Himachal Pradesh,32.2396,77.1887,27.5,23,0.0,820.8,10.0,38.9,72,20.2,9.6,2.1,146.0,153.0,0.6,4,5,7,0,2026-05-20T13:18:58.628669+05:30
Gurgaon,Haryana,28.4595,77.0266,42.3,16,0.0,975.9,7.85,34.2,848,895.9,112.5,3.4,157.0,154.0,9.6,0,5,10,0,2026-05-20T13:18:58.628674+05:30
Noida,Uttar Pradesh,28.5355,77.391,42.4,17,0.0,978.2,7.8,33.1,848,895.9,112.5,3.4,222.0,154.0,9.6,0,5,10,0,2026-05-20T13:18:58.628678+05:30
Ghaziabad,Uttar Pradesh,28.6692,77.4538,42.5,17,0.0,976.7,7.75,31.0,248,267.3,57.2,4.0,231.0,181.0,16.3,0,5,10,0,2026-05-20T13:18:58.628683+05:30
Faridabad,Haryana,28.4089,77.3178,42.3,16,0.0,977.9,7.8,35.6,848,895.9,112.5,3.4,186.0,154.0,9.6,0,5,10,0,2026-05-20T13:18:58.628688+05:30
Meerut,Uttar Pradesh,28.9845,77.7064,41.2,22,0.0,975.7,7.7,28.4,248,267.3,57.2,4.0,209.0,181.0,16.3,0,5,10,0,2026-05-20T13:18:58.628693+05:30
Agra,Uttar Pradesh,27.1767,78.0081,43.0,16,0.0,982.1,8.1,37.8,510,508.5,60.5,0.9,142.0,144.0,3.6,0,5,10,0,2026-05-20T13:18:58.628698+05:30
Varanasi,Uttar Pradesh,25.3176,82.9739,41.5,29,0.0,990.8,8.75,39.2,152,187.2,59.0,1.2,310.0,206.0,15.2,0,5,10,1,2026-05-20T13:18:58.628704+05:30
Prayagraj,Uttar Pradesh,25.4358,81.8463,43.3,19,0.0,989.1,8.6,38.2,150,182.1,59.0,1.3,208.0,221.0,17.3,0,5,10,0,2026-05-20T13:18:58.628709+05:30
Gorakhpur,Uttar Pradesh,26.7606,83.3732,36.3,49,0.0,991.3,8.65,29.9,156,120.6,63.6,1.5,449.0,191.0,14.0,0,5,10,1,2026-05-20T13:18:58.628715+05:30
Bareilly,Uttar Pradesh,28.367,79.4304,38.8,39,0.0,980.6,8.05,29.9,151,167.6,53.0,1.2,279.0,192.0,13.0,0,5,10,1,2026-05-20T13:18:58.628720+05:30
Aligarh,Uttar Pradesh,27.8974,78.088,41.6,20,0.0,980.0,7.9,28.4,484,605.4,94.8,2.7,189.0,180.0,14.4,0,5,10,0,2026-05-20T13:18:58.628725+05:30
Moradabad,Uttar Pradesh,28.8386,78.7733,40.0,28,0.0,977.7,7.9,32.0,171,266.4,79.4,2.0,305.0,251.0,22.5,0,5,10,1,2026-05-20T13:18:58.628729+05:30
Saharanpur,Uttar Pradesh,29.9637,77.546,39.8,23,0.0,970.1,7.45,23.0,150,142.5,42.3,2.1,304.0,188.0,14.1,0,5,10,0,2026-05-20T13:18:58.628734+05:30
Jhansi,Uttar Pradesh,25.4484,78.5685,43.0,15,0.0,973.1,8.5,40.7,61,26.3,10.2,0.9,137.0,122.0,3.6,0,5,10,0,2026-05-20T13:19:02.103968+05:30
Surat,Gujarat,21.1702,72.8311,34.8,51,0.0,1004.3,7.65,47.5,80,55.8,27.1,17.7,379.0,64.0,53.4,0,5,4,1,2026-05-20T13:19:02.104000+05:30
Vadodara,Gujarat,22.3072,73.1812,40.8,24,0.0,1000.4,8.1,49.3,64,80.8,30.0,2.5,176.0,118.0,9.5,0,5,7,1,2026-05-20T13:19:02.104008+05:30
Rajkot,Gujarat,22.3039,70.8022,40.0,23,0.0,991.3,7.75,42.1,58,64.7,22.2,1.2,126.0,101.0,6.1,0,5,10,0,2026-05-20T13:19:02.104015+05:30
Thane,Maharashtra,19.2183,72.9781,36.2,44,0.0,1005.5,7.7,37.1,68,26.5,17.5,4.3,163.0,106.0,6.5,0,5,7,1,2026-05-20T13:19:02.104022+05:30
Nagpur,Maharashtra,21.1458,79.0882,44.7,12,0.0,967.9,8.9,40.0,108,14.8,9.8,4.2,194.0,159.0,17.6,0,5,10,0,2026-05-20T13:19:02.104028+05:30
Nashik,Maharashtra,19.9975,73.7898,36.0,36,0.0,944.4,8.2,41.4,65,22.6,12.9,0.9,128.0,93.0,1.3,0,5,10,1,2026-05-20T13:19:02.104033+05:30
Aurangabad,Maharashtra,19.8762,75.3433,39.4,18,0.0,942.2,9.05,48.2,69,26.4,14.5,0.9,142.0,116.0,2.4,0,5,10,0,2026-05-20T13:19:02.104039+05:30
Solapur,Maharashtra,17.6599,75.9064,37.9,29,0.0,955.1,5.45,39.2,83,42.3,24.3,1.5,147.0,145.0,6.6,0,5,6,1,2026-05-20T13:19:02.104046+05:30
Kolhapur,Maharashtra,16.705,74.2433,32.1,48,0.0,947.0,3.35,37.8,76,45.3,22.4,2.3,153.0,95.0,2.3,0,5,3,1,2026-05-20T13:19:02.104052+05:30
Goa,Goa,15.2993,74.124,31.5,68,0.0,996.9,7.3,26.3,52,4.8,3.9,0.7,126.0,85.0,0.5,3,5,7,1,2026-05-20T13:19:02.104058+05:30
Jodhpur,Rajasthan,26.2389,73.0243,38.8,28,0.0,978.4,8.45,45.0,129,228.2,42.3,0.6,134.0,98.0,2.8,0,5,10,1,2026-05-20T13:19:02.104064+05:30
Udaipur,Rajasthan,24.5854,73.7125,37.5,18,0.0,944.2,8.85,50.4,58,86.6,23.4,0.4,126.0,93.0,2.3,0,5,10,0,2026-05-20T13:19:02.104071+05:30
Kota,Rajasthan,25.2138,75.8648,42.0,14,0.0,974.6,8.45,37.1,52,48.5,19.5,0.7,131.0,120.0,4.1,0,5,10,0,2026-05-20T13:19:02.104077+05:30
Bikaner,Rajasthan,28.0229,73.3119,41.8,16,0.0,976.1,8.4,34.6,111,161.6,50.4,0.3,143.0,102.0,3.0,0,5,10,0,2026-05-20T13:19:02.104083+05:30
Ajmer,Rajasthan,26.4499,74.6399,37.3,23,0.0,951.6,8.4,44.3,57,64.0,21.0,0.5,138.0,104.0,2.5,0,5,10,0,2026-05-20T13:19:02.104088+05:30
Gwalior,Madhya Pradesh,26.2183,78.1828,42.8,15,0.0,978.2,8.3,44.6,81,60.5,15.7,0.5,139.0,123.0,2.3,0,5,10,0,2026-05-20T13:19:02.104095+05:30
Indore,Madhya Pradesh,22.7196,75.8577,39.3,21,0.0,946.0,8.2,43.6,59,53.1,22.6,1.0,169.0,126.0,5.0,0,5,10,0,2026-05-20T13:19:02.104101+05:30
Bhopal,Madhya Pradesh,23.2599,77.4126,42.0,13,0.0,950.8,8.7,46.1,65,34.0,15.7,0.7,159.0,129.0,3.8,0,5,10,0,2026-05-20T13:19:02.104106+05:30
Jabalpur,Madhya Pradesh,23.1815,79.9864,43.8,12,0.0,957.0,8.85,29.2,84,102.4,29.7,0.8,162.0,168.0,7.6,0,5,10,0,2026-05-20T13:19:02.104112+05:30
Ujjain,Madhya Pradesh,23.1765,75.7885,39.6,20,0.0,951.4,8.3,45.0,57,60.8,22.9,0.5,148.0,117.0,3.9,0,5,10,0,2026-05-20T13:19:02.104118+05:30
Visakhapatnam,Andhra Pradesh,17.6868,83.2185,39.2,38,0.1,997.5,8.65,35.6,83,46.2,40.3,8.7,588.0,202.0,37.7,3,5,10,1,2026-05-20T13:19:02.104125+05:30
Vijayawada,Andhra Pradesh,16.5062,80.648,42.3,27,0.0,996.5,8.65,39.6,98,53.0,42.1,1.8,217.0,172.0,9.3,0,5,10,1,2026-05-20T13:19:02.104131+05:30
Guntur,Andhra Pradesh,16.3067,80.4365,42.5,26,0.0,997.6,8.35,41.4,100,50.3,37.7,1.4,205.0,163.0,8.3,0,5,10,1,2026-05-20T13:19:02.104137+05:30
Nellore,Andhra Pradesh,14.4426,79.9865,42.0,27,0.0,999.9,8.85,46.4,67,24.7,19.6,2.0,187.0,148.0,6.7,0,5,10,1,2026-05-20T13:19:02.104144+05:30
Kurnool,Andhra Pradesh,15.8281,78.0373,39.5,31,0.0,973.5,8.25,38.9,68,39.9,25.0,1.2,166.0,144.0,5.9,0,5,10,1,2026-05-20T13:19:02.104150+05:30
Kakinada,Andhra Pradesh,16.9891,82.2475,42.5,32,0.0,1000.3,8.6,39.2,83,32.1,25.1,1.9,285.0,148.0,4.6,0,5,7,1,2026-05-20T13:19:02.104157+05:30
Tirupati,Andhra Pradesh,13.6288,79.4192,39.6,31,0.0,986.6,9.05,34.6,65,16.6,13.2,1.0,173.0,124.0,2.1,0,5,10,1,2026-05-20T13:19:02.104162+05:30
Warangal,Telangana,17.9689,79.5941,41.0,23,0.0,973.9,8.75,29.9,112,54.1,38.4,1.1,216.0,167.0,6.2,0,5,10,0,2026-05-20T13:19:02.104167+05:30
Nizamabad,Telangana,18.6725,78.0941,42.0,17,0.0,960.9,8.9,32.0,105,29.6,20.2,1.1,177.0,170.0,8.1,0,5,10,0,2026-05-20T13:19:02.104172+05:30
Mysore,Karnataka,12.2958,76.6396,31.0,52,0.1,927.7,3.9,43.9,27,3.4,2.9,1.5,150.0,83.0,1.3,3,5,3,1,2026-05-20T13:19:02.104178+05:30
Mangalore,Karnataka,12.9141,74.856,30.1,76,0.0,1005.8,4.5,29.2,33,6.7,4.9,1.4,162.0,73.0,1.4,3,5,0,1,2026-05-20T13:19:02.104184+05:30
Hubli-Dharwad,Karnataka,15.3647,75.124,27.7,73,0.0,940.3,8.8,39.6,31,3.8,3.4,2.2,148.0,86.0,1.0,7,5,7,1,2026-05-20T13:19:02.104190+05:30
Belgaum,Karnataka,15.8497,74.4977,28.6,63,0.0,925.6,8.95,34.9,69,45.2,21.8,1.7,136.0,95.0,2.6,7,5,7,1,2026-05-20T13:19:05.576460+05:30
Coimbatore,Tamil Nadu,11.0168,76.9558,32.8,52,0.0,960.3,7.5,53.6,28,3.8,3.1,0.8,160.0,80.0,1.3,0,5,7,1,2026-05-20T13:19:05.576492+05:30
Madurai,Tamil Nadu,9.9252,78.1198,36.7,41,0.0,989.7,8.65,53.3,76,5.1,4.7,1.3,137.0,116.0,2.1,0,5,10,1,2026-05-20T13:19:05.576501+05:30
Trichy,Tamil Nadu,10.7905,78.7047,35.6,47,0.0,996.1,8.25,40.7,39,4.1,3.9,1.2,150.0,101.0,2.1,0,5,10,1,2026-05-20T13:19:05.576509+05:30
Salem,Tamil Nadu,11.6643,78.146,35.9,43,0.0,974.8,6.8,37.4,50,10.1,9.1,2.2,179.0,127.0,8.6,0,5,10,1,2026-05-20T13:19:05.576516+05:30
Tirunelveli,Tamil Nadu,8.7139,77.7567,37.1,41,0.0,1000.3,8.75,39.2,24,4.2,3.4,0.9,163.0,71.0,0.6,0,5,7,1,2026-05-20T13:19:05.576522+05:30
Vellore,Tamil Nadu,12.9165,79.1325,37.8,35,0.0,980.7,8.85,47.9,53,10.0,8.6,1.2,198.0,118.0,2.6,0,5,10,1,2026-05-20T13:19:05.576528+05:30
Erode,Tamil Nadu,11.341,77.7172,37.1,38,0.0,986.1,7.0,36.0,39,4.9,4.3,1.4,187.0,104.0,1.7,0,5,10,1,2026-05-20T13:19:05.576535+05:30
Kochi,Kerala,9.9312,76.2673,30.0,77,0.1,1007.8,7.7,31.3,49,8.3,6.4,1.9,119.0,85.0,2.8,10,5,4,1,2026-05-20T13:19:05.576541+05:30
Thiruvananthapuram,Kerala,8.5241,76.9366,30.3,74,0.0,1007.2,8.15,41.8,26,7.3,4.4,0.9,114.0,61.0,0.5,3,5,4,1,2026-05-20T13:19:05.576547+05:30
Kozhikode,Kerala,11.2588,75.7804,31.2,71,0.0,1006.8,6.35,32.8,30,5.6,3.6,0.4,146.0,69.0,0.5,3,5,4,1,2026-05-20T13:19:05.576552+05:30
Thrissur,Kerala,10.5276,76.2144,30.8,72,0.0,1005.9,7.45,36.0,42,8.7,7.1,1.3,132.0,87.0,2.2,3,5,4,1,2026-05-20T13:19:05.576559+05:30
Kannur,Kerala,11.8745,75.3704,30.6,71,0.1,1006.4,8.1,28.8,30,5.6,4.0,0.9,133.0,70.0,0.8,6,5,4,1,2026-05-20T13:19:05.576565+05:30
Patna,Bihar,25.5941,85.1376,36.0,53,0.0,994.0,8.85,24.5,154,112.0,70.5,1.9,403.0,198.0,17.9,0,5,10,1,2026-05-20T13:19:05.576570+05:30
Gaya,Bihar,24.7914,85.0002,38.5,39,0.0,987.3,8.9,31.0,155,137.4,58.8,0.9,389.0,186.0,14.0,0,5,10,1,2026-05-20T13:19:05.576576+05:30
Muzaffarpur,Bihar,26.1209,85.3647,35.0,58,0.0,994.3,8.85,27.0,153,96.6,70.8,2.1,370.0,194.0,18.0,0,5,7,1,2026-05-20T13:19:05.576581+05:30
Bhagalpur,Bihar,25.2425,87.0117,35.4,54,0.0,994.4,8.7,31.7,152,73.3,59.8,3.9,356.0,205.0,29.0,0,5,10,1,2026-05-20T13:19:05.576585+05:30
Ranchi,Jharkhand,23.3441,85.3096,36.3,28,0.0,933.3,9.3,44.6,136,152.3,37.6,0.8,172.0,162.0,7.0,0,5,10,0,2026-05-20T13:19:05.576591+05:30
Jamshedpur,Jharkhand,22.8046,86.2029,39.8,31,0.0,983.3,9.1,34.6,123,119.7,51.9,2.4,283.0,225.0,29.8,0,5,10,1,2026-05-20T13:19:05.576597+05:30
Dhanbad,Jharkhand,23.7957,86.4304,39.8,29,0.0,973.0,9.1,38.2,167,134.1,72.9,14.8,383.0,228.0,60.8,0,5,10,1,2026-05-20T13:19:05.576602+05:30
Bokaro,Jharkhand,23.6693,86.1511,38.9,34,0.0,976.8,9.1,41.0,167,145.3,71.0,13.4,335.0,223.0,58.1,0,5,10,1,2026-05-20T13:19:05.576607+05:30
Bhubaneswar,Odisha,20.2961,85.8245,41.2,38,0.0,994.6,9.15,37.8,70,52.5,42.0,2.8,251.0,214.0,18.3,0,5,10,1,2026-05-20T13:19:05.576613+05:30
Cuttack,Odisha,20.4625,85.8828,39.5,47,0.0,996.3,9.2,30.2,70,52.5,42.0,2.8,266.0,214.0,18.3,0,5,10,1,2026-05-20T13:19:05.576618+05:30
Rourkela,Odisha,22.2604,84.8536,40.6,25,0.0,978.3,9.0,35.6,155,144.4,55.8,1.5,299.0,221.0,23.7,0,5,10,1,2026-05-20T13:19:05.576622+05:30
Raipur,Chhattisgarh,21.2514,81.6296,43.0,19,0.0,969.3,9.0,33.1,135,66.8,52.7,6.9,344.0,192.0,36.4,0,5,10,0,2026-05-20T13:19:05.576627+05:30
Bhilai,Chhattisgarh,21.1938,81.3509,41.8,21,0.0,969.8,8.9,34.9,128,61.7,46.7,7.1,476.0,181.0,32.1,0,5,10,0,2026-05-20T13:19:05.576632+05:30
Guwahati,Assam,26.1158,91.7086,32.9,62,0.0,994.8,8.2,21.6,128,68.2,41.0,0.9,305.0,145.0,5.6,3,5,7,1,2026-05-20T13:19:05.576637+05:30
Agartala,Tripura,23.8315,91.2868,34.0,60,0.0,999.2,8.85,28.4,82,40.7,25.3,2.5,215.0,143.0,2.7,0,5,7,1,2026-05-20T13:19:05.576642+05:30
Shillong,Meghalaya,25.5788,91.8933,25.4,62,0.1,855.1,8.5,22.7,95,51.8,27.2,0.8,239.0,135.0,4.4,10,5,7,1,2026-05-20T13:19:05.576647+05:30
Imphal,Manipur,24.817,93.9368,31.6,52,0.0,918.2,9.25,30.2,108,49.0,19.9,0.9,212.0,123.0,3.6,0,5,7,1,2026-05-20T13:19:05.576653+05:30
Aizawl,Mizoram,23.7271,92.7176,28.7,52,0.0,889.3,9.1,21.6,82,69.4,31.3,0.4,192.0,115.0,3.9,4,5,7,1,2026-05-20T13:19:05.576658+05:30
Kohima,Nagaland,25.6701,94.1077,25.6,70,0.0,852.7,8.65,29.9,106,62.4,30.5,0.6,225.0,124.0,3.3,7,5,7,1,2026-05-20T13:19:05.576664+05:30
Gangtok,Sikkim,27.3314,88.6138,19.5,88,0.1,835.4,9.2,37.4,79,38.3,22.5,0.6,295.0,133.0,3.1,6,10,7,1,2026-05-20T13:19:05.576669+05:30
Siliguri,West Bengal,26.7271,88.3953,29.9,74,0.0,987.6,8.7,23.4,127,70.8,39.8,1.0,325.0,152.0,6.0,7,5,7,1,2026-05-20T13:19:08.970835+05:30
Durgapur,West Bengal,23.5204,87.3119,37.0,48,0.1,987.8,9.0,24.8,156,103.8,73.1,17.8,568.0,207.0,74.5,3,5,10,1,2026-05-20T13:19:08.970867+05:30
Asansol,West Bengal,23.6739,86.9524,38.0,43,0.0,986.3,9.05,24.1,157,109.4,70.1,17.3,527.0,210.0,70.9,0,5,10,1,2026-05-20T13:19:08.970875+05:30
Pondicherry,Puducherry,11.9139,79.8145,35.2,54,0.0,1004.1,5.3,29.2,59,23.7,21.1,3.8,230.0,163.0,13.2,0,5,3,1,2026-05-20T13:19:08.970881+05:30
Port Blair,Andaman and Nicobar Islands,11.6234,92.7265,30.9,73,0.0,1002.7,8.75,46.8,28,10.6,6.5,0.3,130.0,66.0,0.5,3,5,4,1,2026-05-20T13:19:08.970888+05:30
Haridwar,Uttarakhand,29.9457,78.1642,38.8,27,0.0,968.6,7.6,28.8,111,76.1,22.3,1.3,348.0,161.0,7.3,0,5,10,1,2026-05-20T13:19:08.970894+05:30
Rishikesh,Uttarakhand,30.0869,78.2676,38.7,24,0.0,961.7,7.7,24.1,100,43.5,12.4,0.4,271.0,136.0,2.2,0,5,10,0,2026-05-20T13:19:08.970900+05:30
Nainital,Uttarakhand,29.3919,79.4542,27.3,22,0.0,808.3,8.55,59.0,112,62.2,20.9,1.0,208.0,155.0,4.9,4,5,7,0,2026-05-20T13:19:08.970906+05:30
Mussoorie,Uttarakhand,30.4599,78.0664,27.2,20,0.0,805.9,8.1,54.0,99,82.0,20.5,0.8,219.0,146.0,4.2,4,5,7,0,2026-05-20T13:19:08.970912+05:30
Dharamshala,Himachal Pradesh,32.219,76.3234,30.9,22,0.0,869.2,8.5,46.4,60,53.2,15.7,0.4,184.0,135.0,2.3,0,5,7,0,2026-05-20T13:19:08.970918+05:30
Dalhousie,Himachal Pradesh,32.5387,75.971,27.5,26,0.0,807.5,8.75,42.8,77,79.6,21.4,0.7,174.0,152.0,3.5,4,5,7,0,2026-05-20T13:19:08.970925+05:30
Patiala,Punjab,30.3398,76.3869,43.0,11,0.0,972.1,7.7,23.0,523,273.8,47.8,1.4,217.0,141.0,10.9,0,5,10,0,2026-05-20T13:19:08.970931+05:30
Bhatinda,Punjab,30.211,74.9455,43.1,16,0.0,977.0,8.35,30.2,96,111.3,34.3,4.7,164.0,132.0,16.8,0,5,10,0,2026-05-20T13:19:08.970937+05:30
Rohtak,Haryana,28.8955,76.6066,42.2,18,0.0,975.9,7.8,27.7,450,584.9,78.5,1.0,147.0,128.0,3.0,0,5,10,0,2026-05-20T13:19:08.970943+05:30
Panipat,Haryana,29.3909,76.9635,42.9,14,0.0,974.3,7.65,31.3,1054,1166.0,140.2,2.5,165.0,131.0,10.8,0,5,10,0,2026-05-20T13:19:08.970948+05:30
Mathura,Uttar Pradesh,27.4924,77.6737,43.0,16,0.0,981.2,8.05,39.6,475,454.5,54.9,0.9,143.0,132.0,2.6,0,5,10,0,2026-05-20T13:19:08.970953+05:30
Vrindavan,Uttar Pradesh,27.5823,77.7027,42.3,18,0.0,981.5,8.0,29.9,475,454.5,54.9,0.9,142.0,132.0,2.6,0,5,10,0,2026-05-20T13:19:08.970958+05:30
Ayodhya,Uttar Pradesh,26.7922,82.1998,38.7,42,0.0,988.8,8.4,21.6,154,121.5,65.9,1.3,451.0,207.0,16.3,0,5,10,1,2026-05-20T13:19:08.970964+05:30
Ratlam,Madhya Pradesh,23.3315,75.0367,38.8,22,0.0,952.6,8.5,47.5,57,70.8,23.9,0.4,132.0,110.0,3.6,0,5,10,0,2026-05-20T13:19:08.970969+05:30
Sagar,Madhya Pradesh,23.8388,78.7378,42.8,13,0.0,946.9,8.75,38.2,50,44.8,12.9,0.7,144.0,131.0,4.0,0,5,10,0,2026-05-20T13:19:08.970974+05:30
Satna,Madhya Pradesh,24.6005,80.8322,43.0,15,0.0,966.3,8.8,38.9,94,263.6,49.0,0.4,158.0,169.0,8.7,0,5,10,0,2026-05-20T13:19:08.970980+05:30
Akola,Maharashtra,20.7002,77.0082,42.8,15,0.0,971.1,8.9,40.3,71,33.9,18.7,1.6,160.0,138.0,9.9,0,5,10,0,2026-05-20T13:19:08.970985+05:30
Amravati,Maharashtra,20.9374,77.7796,43.5,12,0.0,963.2,8.9,41.0,76,30.9,17.8,2.0,167.0,145.0,11.4,0,5,10,0,2026-05-20T13:19:08.970992+05:30
Latur,Maharashtra,18.4088,76.5604,39.3,20,0.0,937.9,6.5,32.8,87,34.6,19.4,1.1,156.0,150.0,6.3,0,5,10,0,2026-05-20T13:19:08.970998+05:30
Nanded,Maharashtra,19.1383,77.3091,42.4,16,0.0,964.9,8.8,35.3,99,27.9,17.5,1.2,171.0,158.0,7.2,0,5,10,0,2026-05-20T13:19:08.971003+05:30
Gulbarga,Karnataka,17.3297,76.8343,38.2,33,0.0,956.1,8.85,37.1,87,43.3,26.1,1.7,181.0,150.0,6.8,0,5,10,1,2026-05-20T13:19:08.971008+05:30
Bidar,Karnataka,17.9104,77.5199,38.5,22,0.0,933.4,8.7,39.2,91,36.0,24.7,1.5,180.0,170.0,8.6,0,5,10,0,2026-05-20T13:19:08.971014+05:30
Hospet,Karnataka,15.2689,76.3909,31.5,59,0.0,954.5,8.2,42.5,33,5.4,4.9,1.7,149.0,92.0,2.0,0,5,7,1,2026-05-20T13:19:08.971019+05:30
Tirupur,Tamil Nadu,11.1085,77.3411,34.9,45,0.1,972.9,7.3,49.3,44,5.0,4.3,1.2,164.0,98.0,1.8,3,5,7,1,2026-05-20T13:19:08.971025+05:30
Alappuzha,Kerala,9.4981,76.3388,30.1,74,0.0,1007.8,7.75,33.1,34,7.6,5.6,1.6,114.0,73.0,1.6,3,5,4,1,2026-05-20T13:19:08.971030+05:30
Munnar,Kerala,10.0889,77.0595,21.5,88,0.0,857.7,8.2,43.6,23,4.0,3.3,0.5,119.0,74.0,0.7,3,5,7,1,2026-05-20T13:19:08.971036+05:30
Silchar,Assam,24.8333,92.7789,33.4,63,0.0,998.1,8.9,27.0,151,48.5,24.7,0.9,207.0,120.0,5.5,3,5,7,1,2026-05-20T13:19:08.971041+05:30
Dibrugarh,Assam,27.4728,94.912,32.8,56,0.0,988.3,8.9,16.9,84,30.4,20.5,0.9,296.0,149.0,3.3,0,5,7,1,2026-05-20T13:19:08.971045+05:30
