city,state,latitude,longitude,temp,humidity,rain,pressure,uv_index,wind_gusts,aqi,pm10,pm2_5,no2,co,o3,so2,mosquito_risk,arthritis_risk,migraine_risk,frizz_risk,updated_at
Delhi,Delhi,28.6139,77.209,27.8,86,0.0,977.8,5.65,28.1,84,22.5,22.5,35.1,822.0,72.0,21.9,7,5,3,1,2026-07-21T21:17:22.035620+05:30
Mumbai,Maharashtra,19.076,72.8777,25.7,93,0.2,1006.3,7.15,55.4,63,25.0,12.3,7.4,221.0,43.0,4.8,10,5,4,1,2026-07-21T21:17:22.035658+05:30
Bangalore,Karnataka,12.9716,77.5946,23.0,76,0.0,912.8,8.4,47.2,39,10.5,8.1,17.7,395.0,40.0,4.9,3,5,7,1,2026-07-21T21:17:22.035673+05:30
Hyderabad,Telangana,17.385,78.4867,23.2,91,0.2,952.1,3.95,40.7,46,22.2,13.4,9.4,321.0,57.0,4.0,6,5,3,1,2026-07-21T21:17:22.035682+05:30
Chennai,Tamil Nadu,13.0827,80.2707,29.1,80,0.0,1007.3,7.75,31.0,103,32.2,23.4,15.3,456.0,99.0,9.9,7,5,4,1,2026-07-21T21:17:22.035690+05:30
Kolkata,West Bengal,22.5726,88.3639,26.2,95,0.1,1002.9,5.65,29.5,59,19.6,18.7,14.2,438.0,59.0,9.7,10,5,0,1,2026-07-21T21:17:22.035698+05:30
Pune,Maharashtra,18.5204,73.8567,22.6,93,0.1,945.7,2.7,55.8,26,5.1,3.8,8.8,160.0,36.0,4.4,6,5,3,1,2026-07-21T21:17:22.035704+05:30
Ahmedabad,Gujarat,23.0225,72.5714,27.5,86,0.1,996.3,4.9,33.5,65,19.5,12.5,12.5,187.0,52.0,5.2,10,5,3,1,2026-07-21T21:17:22.035710+05:30
Jaipur,Rajasthan,26.9124,75.7873,26.8,90,0.0,954.1,1.1,36.0,60,33.4,19.6,24.1,635.0,50.0,6.7,7,5,3,1,2026-07-21T21:17:22.035717+05:30
Lucknow,Uttar Pradesh,26.8467,80.9462,26.4,93,0.0,989.8,6.05,42.1,83,29.4,29.1,11.7,402.0,103.0,10.2,7,5,7,1,2026-07-21T21:17:22.035728+05:30
Kanpur,Uttar Pradesh,26.4499,80.3319,26.7,92,0.0,987.4,7.35,32.8,72,19.6,19.5,14.0,390.0,91.0,7.9,7,5,7,1,2026-07-21T21:17:22.035737+05:30
Chandigarh,Chandigarh,30.7333,76.7794,27.8,84,0.0,964.4,6.0,33.1,66,43.0,42.7,49.4,655.0,61.0,11.4,7,5,3,1,2026-07-21T21:17:22.035744+05:30
Srinagar,Jammu and Kashmir,34.0837,74.7973,18.8,98,0.4,839.8,7.0,22.7,56,18.1,17.7,35.1,801.0,38.0,5.0,6,10,7,1,2026-07-21T21:17:22.035750+05:30
Jammu,Jammu and Kashmir,32.7266,74.857,24.7,91,0.1,968.1,5.8,32.4,89,33.6,27.5,42.6,517.0,41.0,6.1,6,5,3,1,2026-07-21T21:17:22.035757+05:30
Amritsar,Punjab,31.634,74.8723,26.7,91,0.0,975.7,8.25,42.5,93,33.5,33.1,27.2,692.0,63.0,6.7,7,5,7,1,2026-07-21T21:17:22.035763+05:30
Ludhiana,Punjab,30.901,75.8573,28.2,88,0.0,973.8,3.2,40.3,76,43.5,43.4,33.2,1143.0,69.0,11.2,7,5,3,1,2026-07-21T21:17:22.035769+05:30
Jalandhar,Punjab,31.326,75.5762,28.0,91,0.0,974.7,6.1,36.0,92,38.9,38.9,33.8,1032.0,64.0,11.5,7,5,7,1,2026-07-21T21:17:22.035775+05:30
Dehradun,Uttarakhand,30.6284,78.0322,19.2,100,0.0,829.3,3.65,25.2,58,7.5,7.5,18.8,268.0,87.0,1.6,3,10,3,1,2026-07-21T21:17:22.035781+05:30
Shimla,Himachal Pradesh,31.1048,77.1734,15.7,98,0.0,782.5,6.1,21.2,48,6.0,5.9,16.6,629.0,78.0,1.3,3,10,7,0,2026-07-21T21:17:22.035787+05:30
Manali,Himachal Pradesh,32.2396,77.1887,21.6,79,0.0,817.8,5.8,25.9,47,3.2,3.1,31.1,248.0,50.0,0.6,3,5,3,1,2026-07-21T21:17:22.035795+05:30
Gurgaon,Haryana,28.4595,77.0266,27.5,87,0.0,976.1,5.9,28.4,83,21.7,21.6,33.9,750.0,68.0,15.1,7,5,3,1,2026-07-21T21:17:22.035801+05:30
Noida,Uttar Pradesh,28.5355,77.391,27.8,86,0.0,979.4,6.25,34.2,83,21.7,21.6,33.9,718.0,68.0,15.1,7,5,7,1,2026-07-21T21:17:22.035807+05:30
Ghaziabad,Uttar Pradesh,28.6692,77.4538,27.6,87,0.1,977.7,2.9,34.9,70,16.9,16.9,14.3,410.0,82.0,7.1,10,5,3,1,2026-07-21T21:17:22.035815+05:30
Faridabad,Haryana,28.4089,77.3178,27.8,86,0.0,978.6,6.7,33.8,83,21.7,21.6,33.9,581.0,68.0,15.1,7,5,7,1,2026-07-21T21:17:22.035821+05:30
Meerut,Uttar Pradesh,28.9845,77.7064,28.0,84,0.0,977.0,6.45,44.3,70,16.9,16.9,14.3,426.0,82.0,7.1,7,5,7,1,2026-07-21T21:17:22.035827+05:30
Agra,Uttar Pradesh,27.1767,78.0081,27.0,93,0.0,982.2,6.95,24.1,69,26.8,23.9,24.5,348.0,67.0,8.0,7,5,7,1,2026-07-21T21:17:22.035833+05:30
Varanasi,Uttar Pradesh,25.3176,82.9739,26.0,95,0.1,994.0,8.6,40.7,81,28.9,28.6,16.0,988.0,78.0,12.1,10,5,7,1,2026-07-21T21:17:22.035840+05:30
Prayagraj,Uttar Pradesh,25.4358,81.8463,26.5,94,0.0,992.3,7.7,35.6,111,34.3,33.9,14.9,500.0,97.0,12.8,7,5,7,1,2026-07-21T21:17:22.035846+05:30
Gorakhpur,Uttar Pradesh,26.7606,83.3732,27.7,84,0.0,994.7,7.55,41.4,69,24.5,24.3,11.5,328.0,84.0,7.0,7,5,7,1,2026-07-21T21:17:22.035852+05:30
Bareilly,Uttar Pradesh,28.367,79.4304,27.6,88,0.0,983.0,4.5,50.8,59,16.3,16.2,10.1,411.0,86.0,4.8,7,5,3,1,2026-07-21T21:17:22.035860+05:30
Aligarh,Uttar Pradesh,27.8974,78.088,27.2,91,0.0,980.5,7.05,33.8,72,15.7,15.6,15.9,392.0,76.0,6.7,7,5,7,1,2026-07-21T21:17:22.035866+05:30
Moradabad,Uttar Pradesh,28.8386,78.7733,27.4,89,0.0,979.5,6.15,52.2,61,16.2,16.1,10.6,402.0,90.0,7.5,7,5,7,1,2026-07-21T21:17:22.035872+05:30
Saharanpur,Uttar Pradesh,29.9637,77.546,28.0,86,0.0,971.6,6.35,46.1,74,18.3,18.3,13.6,407.0,78.0,6.6,7,5,7,1,2026-07-21T21:17:22.035878+05:30
Jhansi,Uttar Pradesh,25.4484,78.5685,28.0,87,0.0,972.3,5.5,16.9,84,31.0,21.6,12.1,337.0,91.0,10.7,7,5,3,1,2026-07-21T21:17:25.432906+05:30
Surat,Gujarat,21.1702,72.8311,26.5,92,0.1,1002.1,4.35,50.4,70,27.1,18.5,24.3,318.0,27.0,35.9,10,5,0,1,2026-07-21T21:17:25.432934+05:30
Vadodara,Gujarat,22.3072,73.1812,26.4,93,0.0,998.9,4.95,34.2,61,15.3,11.0,17.1,215.0,36.0,7.9,7,5,3,1,2026-07-21T21:17:25.432944+05:30
Rajkot,Gujarat,22.3039,70.8022,27.1,85,0.0,988.5,5.25,41.8,60,26.2,14.1,7.6,132.0,42.0,5.4,7,5,3,1,2026-07-21T21:17:25.432951+05:30
Thane,Maharashtra,19.2183,72.9781,25.1,96,0.1,1005.5,6.25,45.0,63,25.0,12.3,7.4,227.0,43.0,4.8,10,5,4,1,2026-07-21T21:17:25.432958+05:30
Nagpur,Maharashtra,21.1458,79.0882,24.8,96,0.4,969.7,1.0,33.8,51,8.6,7.8,17.2,232.0,30.0,13.0,6,5,3,1,2026-07-21T21:17:25.432965+05:30
Nashik,Maharashtra,19.9975,73.7898,22.7,95,0.1,941.6,1.6,58.0,23,1.8,1.4,7.8,148.0,40.0,2.5,6,5,3,1,2026-07-21T21:17:25.432971+05:30
Aurangabad,Maharashtra,19.8762,75.3433,23.1,93,0.1,940.9,2.85,50.4,28,5.7,4.3,7.7,174.0,43.0,4.6,6,5,3,1,2026-07-21T21:17:25.432978+05:30
Solapur,Maharashtra,17.6599,75.9064,24.0,92,0.1,956.4,4.6,52.2,33,8.4,5.4,5.0,136.0,40.0,2.2,6,5,3,1,2026-07-21T21:17:25.432984+05:30
Kolhapur,Maharashtra,16.705,74.2433,21.9,96,0.2,947.5,6.4,54.4,31,7.7,5.6,7.2,153.0,34.0,2.4,6,5,7,1,2026-07-21T21:17:25.432991+05:30
Goa,Goa,15.2993,74.124,23.5,98,0.1,999.6,7.35,36.7,57,31.5,15.2,4.3,243.0,38.0,1.2,6,5,7,1,2026-07-21T21:17:25.432997+05:30
Jodhpur,Rajasthan,26.2389,73.0243,28.4,84,0.1,976.5,7.15,35.6,89,92.4,36.7,14.9,255.0,55.0,2.6,10,5,7,1,2026-07-21T21:17:25.433003+05:30
Udaipur,Rajasthan,24.5854,73.7125,25.1,96,0.0,940.8,3.3,29.5,55,16.5,11.3,8.9,241.0,54.0,3.7,7,5,3,1,2026-07-21T21:17:25.433010+05:30
Kota,Rajasthan,25.2138,75.8648,26.5,97,0.0,973.0,2.6,23.4,59,16.4,13.6,15.5,472.0,57.0,5.7,7,5,3,1,2026-07-21T21:17:25.433016+05:30
Bikaner,Rajasthan,28.0229,73.3119,29.0,79,0.0,975.1,8.0,34.6,82,82.7,32.1,4.1,167.0,81.0,5.5,7,5,7,1,2026-07-21T21:17:25.433023+05:30
Ajmer,Rajasthan,26.4499,74.6399,26.9,86,0.0,949.0,4.55,31.0,59,28.9,19.3,16.5,249.0,54.0,3.5,7,5,3,1,2026-07-21T21:17:25.433030+05:30
Gwalior,Madhya Pradesh,26.2183,78.1828,26.0,93,0.2,977.8,7.4,18.7,60,21.2,15.8,11.3,276.0,74.0,4.0,10,5,7,1,2026-07-21T21:17:25.433037+05:30
Indore,Madhya Pradesh,22.7196,75.8577,23.9,95,0.1,943.0,5.85,32.8,53,18.3,15.3,17.6,392.0,38.0,7.2,6,5,3,1,2026-07-21T21:17:25.433043+05:30
Bhopal,Madhya Pradesh,23.2599,77.4126,23.8,97,0.0,948.4,1.55,31.0,55,10.0,9.4,10.4,383.0,46.0,3.0,3,5,3,1,2026-07-21T21:17:25.433050+05:30
Jabalpur,Madhya Pradesh,23.1815,79.9864,24.5,98,0.0,957.0,5.8,20.9,48,8.1,8.0,11.6,291.0,43.0,4.1,3,5,3,1,2026-07-21T21:17:25.433056+05:30
Ujjain,Madhya Pradesh,23.1765,75.7885,24.2,92,0.0,948.5,4.2,29.9,52,17.8,14.3,10.5,371.0,46.0,6.7,3,5,3,1,2026-07-21T21:17:25.433063+05:30
Visakhapatnam,Andhra Pradesh,17.6868,83.2185,26.2,88,0.0,1000.7,8.75,39.6,61,17.2,14.6,26.9,325.0,27.0,39.5,7,5,4,1,2026-07-21T21:17:25.433070+05:30
Vijayawada,Andhra Pradesh,16.5062,80.648,27.1,83,0.1,1001.7,5.0,52.2,61,37.6,28.2,19.9,261.0,28.0,8.4,10,5,0,1,2026-07-21T21:17:25.433076+05:30
Guntur,Andhra Pradesh,16.3067,80.4365,28.1,78,0.0,1003.1,4.75,50.8,59,44.8,33.6,26.7,326.0,20.0,9.6,7,5,0,1,2026-07-21T21:17:25.433083+05:30
Nellore,Andhra Pradesh,14.4426,79.9865,29.8,65,0.0,1005.3,6.8,42.5,55,36.9,24.9,12.5,262.0,85.0,5.9,7,5,4,1,2026-07-21T21:17:25.433090+05:30
Kurnool,Andhra Pradesh,15.8281,78.0373,26.2,81,0.1,977.4,4.55,50.0,46,22.3,13.6,12.5,174.0,46.0,4.1,10,5,3,1,2026-07-21T21:17:25.433098+05:30
Kakinada,Andhra Pradesh,16.9891,82.2475,28.3,78,0.0,1005.6,6.85,55.1,55,28.4,14.7,8.0,219.0,52.0,5.8,7,5,4,1,2026-07-21T21:17:25.433104+05:30
Tirupati,Andhra Pradesh,13.6288,79.4192,27.5,85,0.0,991.3,8.0,36.7,57,42.4,30.7,40.7,367.0,11.0,4.7,7,5,7,1,2026-07-21T21:17:25.433111+05:30
Warangal,Telangana,17.9689,79.5941,25.7,92,0.1,977.3,3.5,45.4,50,21.1,16.6,13.5,243.0,43.0,5.9,10,5,3,1,2026-07-21T21:17:25.433117+05:30
Nizamabad,Telangana,18.6725,78.0941,23.8,96,0.3,962.8,2.55,38.2,46,17.9,11.8,7.8,166.0,51.0,3.3,6,5,3,1,2026-07-21T21:17:25.433124+05:30
Mysore,Karnataka,12.2958,76.6396,22.6,86,0.0,930.1,8.0,48.6,30,8.8,6.2,9.3,171.0,41.0,2.4,3,5,7,1,2026-07-21T21:17:25.433130+05:30
Mangalore,Karnataka,12.9141,74.856,25.1,98,0.0,1009.2,7.85,33.5,53,25.7,18.9,18.1,351.0,21.0,4.4,7,0,4,1,2026-07-21T21:17:25.433136+05:30
Hubli-Dharwad,Karnataka,15.3647,75.124,22.5,93,0.1,941.5,5.9,58.3,24,7.4,4.9,6.4,132.0,36.0,1.3,6,5,3,1,2026-07-21T21:17:25.433143+05:30
Belgaum,Karnataka,15.8497,74.4977,21.0,98,0.1,925.7,7.75,58.3,23,6.8,3.9,5.2,132.0,37.0,1.9,6,5,7,1,2026-07-21T21:17:28.828593+05:30
Coimbatore,Tamil Nadu,11.0168,76.9558,24.6,88,0.0,963.0,8.8,52.2,40,9.5,7.8,9.3,202.0,38.0,3.6,3,5,7,1,2026-07-21T21:17:28.828676+05:30
Madurai,Tamil Nadu,9.9252,78.1198,31.9,50,0.0,993.6,8.5,33.5,58,31.0,17.3,16.3,177.0,67.0,5.5,0,5,7,1,2026-07-21T21:17:28.828690+05:30
Trichy,Tamil Nadu,10.7905,78.7047,30.1,62,0.0,1000.9,8.8,47.2,50,24.3,17.2,14.6,172.0,56.0,5.0,3,5,4,1,2026-07-21T21:17:28.828701+05:30
Salem,Tamil Nadu,11.6643,78.146,28.9,66,0.0,978.3,8.2,24.1,59,23.7,15.4,14.8,395.0,58.0,6.6,7,5,7,1,2026-07-21T21:17:28.828710+05:30
Tirunelveli,Tamil Nadu,8.7139,77.7567,30.9,55,0.0,1004.5,8.65,46.1,43,10.8,8.0,5.4,129.0,43.0,2.0,0,5,4,1,2026-07-21T21:17:28.828719+05:30
Vellore,Tamil Nadu,12.9165,79.1325,27.5,88,0.0,984.6,7.8,37.1,67,64.7,40.9,36.2,622.0,38.0,8.6,7,5,7,1,2026-07-21T21:17:28.828728+05:30
Erode,Tamil Nadu,11.341,77.7172,28.4,68,0.0,990.0,8.8,37.8,53,17.9,13.3,18.6,205.0,37.0,4.1,7,5,7,1,2026-07-21T21:17:28.828737+05:30
Kochi,Kerala,9.9312,76.2673,27.3,91,0.0,1011.5,8.65,26.3,57,19.1,15.7,20.4,209.0,18.0,5.4,7,0,4,1,2026-07-21T21:17:28.828745+05:30
Thiruvananthapuram,Kerala,8.5241,76.9366,26.3,89,0.1,1011.2,8.0,36.4,54,17.4,10.8,7.3,146.0,38.0,1.9,10,0,4,1,2026-07-21T21:17:28.828754+05:30
Kozhikode,Kerala,11.2588,75.7804,25.9,93,0.0,1010.5,8.4,30.2,36,14.3,8.0,2.6,347.0,46.0,1.7,7,0,4,1,2026-07-21T21:17:28.828763+05:30
Thrissur,Kerala,10.5276,76.2144,26.0,94,0.0,1009.8,8.5,31.3,54,17.2,14.7,14.9,332.0,22.0,4.4,7,0,4,1,2026-07-21T21:17:28.828773+05:30
Kannur,Kerala,11.8745,75.3704,25.3,92,0.1,1009.9,7.9,28.8,46,16.4,11.9,15.9,376.0,19.0,3.0,10,0,4,1,2026-07-21T21:17:28.828781+05:30
Patna,Bihar,25.5941,85.1376,27.7,86,0.0,998.0,8.0,44.6,78,22.1,21.9,15.2,288.0,78.0,11.4,7,5,7,1,2026-07-21T21:17:28.828790+05:30
Gaya,Bihar,24.7914,85.0002,25.4,95,0.2,991.3,6.9,38.9,68,11.8,11.7,9.8,265.0,65.0,7.0,10,5,7,1,2026-07-21T21:17:28.828798+05:30
Muzaffarpur,Bihar,26.1209,85.3647,28.4,77,0.0,998.3,8.25,45.0,75,25.6,25.3,15.3,287.0,76.0,9.3,7,5,7,1,2026-07-21T21:17:28.828806+05:30
Bhagalpur,Bihar,25.2425,87.0117,26.5,93,0.1,999.5,6.15,38.5,64,18.3,18.1,13.8,244.0,60.0,7.6,10,5,7,1,2026-07-21T21:17:28.828814+05:30
Ranchi,Jharkhand,23.3441,85.3096,22.6,99,0.1,934.5,7.6,38.9,56,10.7,10.7,14.0,243.0,71.0,14.2,6,5,7,1,2026-07-21T21:17:28.828823+05:30
Jamshedpur,Jharkhand,22.8046,86.2029,25.5,97,0.3,987.6,6.2,30.6,57,15.7,15.4,21.1,344.0,49.0,17.6,10,5,7,1,2026-07-21T21:17:28.828831+05:30
Dhanbad,Jharkhand,23.7957,86.4304,25.4,94,0.1,977.1,5.95,35.6,89,39.6,39.2,46.7,606.0,23.0,98.2,10,5,3,1,2026-07-21T21:17:28.828839+05:30
Bokaro,Jharkhand,23.6693,86.1511,25.3,94,0.1,980.8,6.45,40.0,97,37.0,36.7,51.9,855.0,17.0,111.2,10,5,7,1,2026-07-21T21:17:28.828847+05:30
Bhubaneswar,Odisha,20.2961,85.8245,26.0,97,0.2,998.9,8.25,24.5,75,26.0,24.9,19.6,423.0,56.0,6.4,10,5,7,1,2026-07-21T21:17:28.828855+05:30
Cuttack,Odisha,20.4625,85.8828,26.4,96,0.2,1000.7,8.55,23.0,75,26.0,24.9,19.6,464.0,56.0,6.4,10,5,4,1,2026-07-21T21:17:28.828863+05:30
Rourkela,Odisha,22.2604,84.8536,24.4,98,0.1,981.7,1.1,22.0,78,16.2,16.0,18.0,400.0,67.0,12.7,6,5,3,1,2026-07-21T21:17:28.828871+05:30
Raipur,Chhattisgarh,21.2514,81.6296,24.6,97,0.2,971.2,1.55,30.2,79,14.8,14.1,28.2,467.0,27.0,37.6,6,5,3,1,2026-07-21T21:17:28.828878+05:30
Bhilai,Chhattisgarh,21.1938,81.3509,24.4,97,0.2,971.8,1.75,37.1,73,13.3,12.7,23.5,503.0,31.0,31.5,6,5,3,1,2026-07-21T21:17:28.828887+05:30
Guwahati,Assam,26.1158,91.7086,27.4,97,0.0,1000.2,7.25,20.2,39,16.1,15.9,13.5,314.0,30.0,3.1,7,5,4,1,2026-07-21T21:17:28.828894+05:30
Agartala,Tripura,23.8315,91.2868,26.3,91,0.0,1005.6,7.5,33.5,51,10.9,10.3,11.1,183.0,45.0,2.7,7,5,4,1,2026-07-21T21:17:28.828902+05:30
Shillong,Meghalaya,25.5788,91.8933,19.8,92,0.0,858.0,6.95,20.9,30,9.3,9.2,11.1,335.0,37.0,2.7,3,10,7,1,2026-07-21T21:17:28.828910+05:30
Imphal,Manipur,24.817,93.9368,23.5,94,0.1,923.2,8.8,22.7,57,15.7,15.2,17.6,733.0,36.0,3.2,6,5,7,1,2026-07-21T21:17:28.828918+05:30
Aizawl,Mizoram,23.7271,92.7176,20.2,98,0.0,892.5,8.5,20.9,24,5.8,5.5,9.5,158.0,24.0,0.8,3,5,7,1,2026-07-21T21:17:28.828926+05:30
Kohima,Nagaland,25.6701,94.1077,20.5,92,0.0,855.9,8.6,24.8,30,9.0,8.8,11.0,332.0,38.0,1.3,3,5,7,1,2026-07-21T21:17:28.828934+05:30
Gangtok,Sikkim,27.3314,88.6138,18.1,98,0.0,838.9,6.8,29.2,32,4.2,4.1,7.4,259.0,67.0,1.0,3,10,7,1,2026-07-21T21:17:28.828942+05:30
Siliguri,West Bengal,26.7271,88.3953,27.4,80,0.0,991.8,6.9,41.0,50,14.8,14.5,16.6,700.0,64.0,4.0,7,5,7,1,2026-07-21T21:17:32.247741+05:30
Durgapur,West Bengal,23.5204,87.3119,26.0,94,0.1,992.1,6.15,35.3,77,32.4,31.7,33.9,403.0,36.0,30.2,10,5,7,1,2026-07-21T21:17:32.247773+05:30
Asansol,West Bengal,23.6739,86.9524,25.8,96,0.1,990.8,7.2,36.0,74,29.9,29.5,41.1,460.0,31.0,40.7,10,5,7,1,2026-07-21T21:17:32.247783+05:30
Pondicherry,Puducherry,11.9139,79.8145,29.5,81,0.0,1008.7,8.05,33.8,80,31.9,23.3,15.7,184.0,79.0,5.3,7,0,4,1,2026-07-21T21:17:32.247792+05:30
Port Blair,Andaman and Nicobar Islands,11.6234,92.7265,26.0,92,0.0,1010.1,8.55,39.6,51,13.0,7.4,0.3,100.0,48.0,0.4,7,0,4,1,2026-07-21T21:17:32.247800+05:30
Haridwar,Uttarakhand,29.9457,78.1642,27.6,93,0.0,970.2,6.9,29.2,75,15.3,15.2,10.5,348.0,75.0,5.4,7,5,7,1,2026-07-21T21:17:32.247808+05:30
Rishikesh,Uttarakhand,30.0869,78.2676,26.8,94,0.0,963.0,5.2,23.8,51,9.7,9.7,7.2,420.0,82.0,3.1,7,5,3,1,2026-07-21T21:17:32.247815+05:30
Nainital,Uttarakhand,29.3919,79.4542,17.0,93,0.0,804.6,7.4,56.2,44,8.1,8.1,6.9,307.0,77.0,1.9,3,10,7,0,2026-07-21T21:17:32.247823+05:30
Mussoorie,Uttarakhand,30.4599,78.0664,17.5,99,0.0,802.0,3.45,29.5,59,19.9,19.8,28.8,431.0,75.0,6.7,3,10,3,1,2026-07-21T21:17:32.247830+05:30
Dharamshala,Himachal Pradesh,32.219,76.3234,22.2,85,0.0,866.4,1.6,36.7,45,6.2,5.7,15.7,508.0,59.0,1.0,3,5,3,1,2026-07-21T21:17:32.247837+05:30
Dalhousie,Himachal Pradesh,32.5387,75.971,18.3,92,0.0,803.0,1.95,31.7,74,17.0,13.4,22.6,786.0,93.0,3.2,3,10,3,1,2026-07-21T21:17:32.247845+05:30
Patiala,Punjab,30.3398,76.3869,28.3,88,0.0,973.4,5.9,40.3,81,31.9,31.8,23.6,542.0,75.0,9.2,7,5,3,1,2026-07-21T21:17:32.247852+05:30
Bhatinda,Punjab,30.211,74.9455,30.0,74,0.0,978.2,6.25,42.1,152,33.1,28.9,20.8,344.0,100.0,12.1,7,5,7,1,2026-07-21T21:17:32.247859+05:30
Rohtak,Haryana,28.8955,76.6066,27.6,88,0.0,976.4,1.1,27.7,88,22.7,22.6,33.3,584.0,84.0,21.0,7,5,3,1,2026-07-21T21:17:32.247866+05:30
Panipat,Haryana,29.3909,76.9635,28.2,83,0.0,975.5,1.3,41.0,81,21.2,21.2,17.9,449.0,97.0,12.3,7,5,3,1,2026-07-21T21:17:32.247873+05:30
Mathura,Uttar Pradesh,27.4924,77.6737,27.7,87,0.0,981.4,6.55,30.2,63,22.0,21.2,34.8,344.0,45.0,5.0,7,5,7,1,2026-07-21T21:17:32.247879+05:30
Vrindavan,Uttar Pradesh,27.5823,77.7027,28.0,85,0.0,981.9,6.4,29.5,63,22.0,21.2,34.8,363.0,45.0,5.0,7,5,7,1,2026-07-21T21:17:32.247886+05:30
Ayodhya,Uttar Pradesh,26.7922,82.1998,27.0,92,0.0,992.3,7.15,42.1,88,28.9,28.5,12.2,359.0,90.0,6.6,7,5,7,1,2026-07-21T21:17:32.247892+05:30
Ratlam,Madhya Pradesh,23.3315,75.0367,24.3,94,0.1,949.4,0.95,28.4,51,15.3,11.9,8.9,210.0,50.0,6.4,6,5,3,1,2026-07-21T21:17:32.247899+05:30
Sagar,Madhya Pradesh,23.8388,78.7378,24.1,96,0.1,944.9,1.35,31.7,48,7.0,6.9,7.8,200.0,62.0,2.4,6,5,3,1,2026-07-21T21:17:32.247905+05:30
Satna,Madhya Pradesh,24.6005,80.8322,25.2,97,0.1,966.8,5.75,22.7,57,23.1,18.9,17.4,330.0,57.0,3.1,10,5,3,1,2026-07-21T21:17:32.247911+05:30
Akola,Maharashtra,20.7002,77.0082,25.3,93,0.2,971.7,1.5,45.0,34,7.2,6.2,8.5,210.0,49.0,3.3,10,5,3,1,2026-07-21T21:17:32.247919+05:30
Amravati,Maharashtra,20.9374,77.7796,24.4,95,0.2,963.9,1.15,47.2,33,7.9,6.7,9.1,189.0,49.0,3.7,6,5,3,1,2026-07-21T21:17:32.247926+05:30
Latur,Maharashtra,18.4088,76.5604,23.4,92,0.3,938.1,2.4,45.4,34,9.7,6.5,4.8,161.0,44.0,2.0,6,5,3,1,2026-07-21T21:17:32.247933+05:30
Nanded,Maharashtra,19.1383,77.3091,24.7,93,0.3,966.5,1.15,34.6,44,12.3,8.9,7.6,175.0,46.0,3.5,6,5,3,1,2026-07-21T21:17:32.247940+05:30
Gulbarga,Karnataka,17.3297,76.8343,24.0,92,0.1,958.2,3.5,52.9,41,12.0,7.5,8.2,136.0,43.0,2.9,6,5,3,1,2026-07-21T21:17:32.247946+05:30
Bidar,Karnataka,17.9104,77.5199,22.9,96,0.2,934.1,4.3,48.6,36,13.6,9.3,10.1,171.0,47.0,1.9,6,5,3,1,2026-07-21T21:17:32.247953+05:30
Hospet,Karnataka,15.2689,76.3909,25.5,74,0.0,956.7,4.7,51.8,27,8.1,5.5,5.7,131.0,41.0,1.7,7,5,3,1,2026-07-21T21:17:32.247959+05:30
Tirupur,Tamil Nadu,11.1085,77.3411,26.4,78,0.0,976.5,8.75,56.9,56,21.8,16.3,22.8,182.0,33.0,5.5,7,5,7,1,2026-07-21T21:17:32.247965+05:30
Alappuzha,Kerala,9.4981,76.3388,27.2,91,0.0,1011.7,8.55,28.8,55,16.5,11.5,11.3,89.0,34.0,3.5,7,0,4,1,2026-07-21T21:17:32.247972+05:30
Munnar,Kerala,10.0889,77.0595,16.4,95,0.0,858.1,9.0,33.8,35,9.7,8.1,10.0,129.0,38.0,2.6,3,10,7,0,2026-07-21T21:17:32.247979+05:30
Silchar,Assam,24.8333,92.7789,25.8,96,0.0,1005.5,7.9,19.1,63,18.1,17.0,8.4,243.0,63.0,5.7,7,5,4,1,2026-07-21T21:17:32.247985+05:30
Dibrugarh,Assam,27.4728,94.912,28.4,85,0.0,993.8,8.7,19.1,72,25.8,25.0,14.8,323.0,61.0,3.2,7,5,7,1,2026-07-21T21:17:32.247992+05:30
