city,state,latitude,longitude,temp,humidity,rain,pressure,uv_index,wind_gusts,aqi,pm10,pm2_5,mosquito_risk,arthritis_risk,migraine_risk,frizz_risk,updated_at
Delhi,Delhi,28.6139,77.209,20.8,69,0.0,987.8,3.1,20.2,152,58.7,33.4,3,5,3,0,2026-03-20T12:30:44.529308+05:30
Mumbai,Maharashtra,19.076,72.8777,27.0,71,0.0,1011.3,7.8,24.5,76,51.5,36.1,7,0,4,1,2026-03-20T12:30:44.529348+05:30
Bangalore,Karnataka,12.9716,77.5946,29.2,42,0.0,913.4,9.4,19.1,89,26.6,18.7,4,5,7,0,2026-03-20T12:30:44.529363+05:30
Hyderabad,Telangana,17.385,78.4867,31.0,38,0.0,955.4,8.8,25.6,66,29.3,17.2,0,5,7,0,2026-03-20T12:30:44.529373+05:30
Chennai,Tamil Nadu,13.0827,80.2707,33.6,47,0.0,1008.7,9.15,30.6,31,16.7,13.6,0,0,4,1,2026-03-20T12:30:44.529382+05:30
Kolkata,West Bengal,22.5726,88.3639,30.3,66,0.0,1007.6,7.15,33.8,82,42.3,35.4,3,5,4,1,2026-03-20T12:30:44.529391+05:30
Pune,Maharashtra,18.5204,73.8567,33.5,22,0.0,950.5,8.35,37.8,73,30.0,21.6,0,5,7,0,2026-03-20T12:30:44.529402+05:30
Ahmedabad,Gujarat,23.0225,72.5714,29.7,41,0.0,1006.2,7.6,33.8,77,87.5,27.5,4,5,4,0,2026-03-20T12:30:44.529410+05:30
Jaipur,Rajasthan,26.9124,75.7873,21.6,68,0.0,963.5,6.7,25.2,91,34.6,15.3,3,5,7,0,2026-03-20T12:30:44.529418+05:30
Lucknow,Uttar Pradesh,26.8467,80.9462,28.2,49,0.0,996.6,4.95,36.0,91,60.3,29.0,4,5,3,1,2026-03-20T12:30:44.529426+05:30
Kanpur,Uttar Pradesh,26.4499,80.3319,25.6,60,0.0,995.5,2.95,37.8,118,285.9,49.6,4,5,3,1,2026-03-20T12:30:44.529433+05:30
Chandigarh,Chandigarh,30.7333,76.7794,18.8,81,0.0,973.5,1.45,25.2,92,56.3,23.9,3,10,3,0,2026-03-20T12:30:44.529441+05:30
Srinagar,Jammu and Kashmir,34.0837,74.7973,9.4,76,0.0,840.7,4.05,14.4,92,10.4,10.3,3,5,3,0,2026-03-20T12:30:44.529447+05:30
Jammu,Jammu and Kashmir,32.7266,74.857,19.7,77,0.0,977.5,4.5,17.3,100,17.5,8.3,3,5,3,0,2026-03-20T12:30:44.529454+05:30
Amritsar,Punjab,31.634,74.8723,20.1,74,0.0,985.7,5.3,16.2,99,44.7,19.2,3,5,3,0,2026-03-20T12:30:44.529461+05:30
Ludhiana,Punjab,30.901,75.8573,19.4,76,0.0,983.7,3.25,15.1,104,55.3,20.8,3,5,3,0,2026-03-20T12:30:44.529467+05:30
Jalandhar,Punjab,31.326,75.5762,19.6,76,0.0,984.9,4.0,14.0,96,61.7,26.3,3,5,3,0,2026-03-20T12:30:44.529476+05:30
Dehradun,Uttarakhand,30.6284,78.0322,10.8,90,0.5,829.6,0.35,34.6,48,11.8,6.0,6,10,3,0,2026-03-20T12:30:44.529483+05:30
Shimla,Himachal Pradesh,31.1048,77.1734,9.2,90,0.4,782.8,0.5,33.5,49,32.2,12.7,6,10,3,0,2026-03-20T12:30:44.529490+05:30
Manali,Himachal Pradesh,32.2396,77.1887,10.3,98,0.9,815.7,3.15,26.3,49,1.2,1.1,6,10,3,0,2026-03-20T12:30:44.529497+05:30
Gurgaon,Haryana,28.4595,77.0266,20.9,74,0.0,986.2,3.0,18.4,158,38.5,23.1,3,5,3,1,2026-03-20T12:30:44.529504+05:30
Noida,Uttar Pradesh,28.5355,77.391,20.8,70,0.0,989.4,2.6,22.3,158,38.5,23.1,3,5,3,0,2026-03-20T12:30:44.529510+05:30
Ghaziabad,Uttar Pradesh,28.6692,77.4538,20.0,75,0.0,987.6,2.25,20.2,134,38.9,22.8,3,5,3,0,2026-03-20T12:30:44.529516+05:30
Faridabad,Haryana,28.4089,77.3178,20.9,70,0.0,988.7,3.7,19.1,158,38.5,23.1,3,5,3,0,2026-03-20T12:30:44.529522+05:30
Meerut,Uttar Pradesh,28.9845,77.7064,18.8,85,0.0,986.5,2.2,24.8,134,38.9,22.8,3,10,3,1,2026-03-20T12:30:44.529528+05:30
Agra,Uttar Pradesh,27.1767,78.0081,22.5,64,0.0,992.5,5.65,24.8,471,30.6,14.4,3,5,3,0,2026-03-20T12:30:44.529538+05:30
Varanasi,Uttar Pradesh,25.3176,82.9739,33.7,33,0.0,999.1,7.35,51.1,116,46.2,38.3,0,5,7,0,2026-03-20T12:30:44.529550+05:30
Prayagraj,Uttar Pradesh,25.4358,81.8463,32.0,38,0.0,997.3,5.95,46.4,106,48.2,33.5,0,5,3,0,2026-03-20T12:30:44.529557+05:30
Gorakhpur,Uttar Pradesh,26.7606,83.3732,31.3,50,0.0,999.6,6.85,49.0,147,78.5,45.6,0,5,7,1,2026-03-20T12:30:44.529563+05:30
Bareilly,Uttar Pradesh,28.367,79.4304,20.3,80,0.0,991.9,4.05,29.9,81,96.9,40.2,3,5,3,1,2026-03-20T12:30:44.529570+05:30
Aligarh,Uttar Pradesh,27.8974,78.088,21.1,75,0.0,990.2,4.05,23.4,133,24.4,15.4,3,5,3,1,2026-03-20T12:30:44.529576+05:30
Moradabad,Uttar Pradesh,28.8386,78.7733,18.9,88,0.2,988.5,2.3,28.8,92,71.0,32.0,6,10,3,1,2026-03-20T12:30:44.529597+05:30
Saharanpur,Uttar Pradesh,29.9637,77.546,18.0,85,0.3,980.6,0.6,14.4,132,59.8,30.6,6,10,3,0,2026-03-20T12:30:44.529604+05:30
Jhansi,Uttar Pradesh,25.4484,78.5685,25.2,56,0.0,981.8,6.1,33.1,90,93.6,31.7,4,5,7,0,2026-03-20T12:30:47.752908+05:30
Surat,Gujarat,21.1702,72.8311,29.2,57,0.0,1010.5,7.5,24.5,104,95.5,45.4,4,0,4,1,2026-03-20T12:30:47.752939+05:30
Vadodara,Gujarat,22.3072,73.1812,30.7,44,0.0,1008.3,7.65,29.2,67,95.9,29.8,0,0,4,1,2026-03-20T12:30:47.752950+05:30
Rajkot,Gujarat,22.3039,70.8022,28.9,52,0.0,998.2,7.4,31.3,72,112.5,25.0,4,5,7,1,2026-03-20T12:30:47.752958+05:30
Thane,Maharashtra,19.2183,72.9781,30.1,54,0.0,1010.8,7.8,37.1,76,51.5,36.1,0,0,4,1,2026-03-20T12:30:47.752965+05:30
Nagpur,Maharashtra,21.1458,79.0882,30.3,41,0.0,975.7,7.85,47.2,103,35.3,20.3,0,5,7,0,2026-03-20T12:30:47.752972+05:30
Nashik,Maharashtra,19.9975,73.7898,28.8,36,0.0,948.3,8.0,35.6,54,42.0,16.0,4,5,7,0,2026-03-20T12:30:47.752979+05:30
Aurangabad,Maharashtra,19.8762,75.3433,31.5,28,0.0,946.5,8.5,34.6,73,38.5,19.0,0,5,7,0,2026-03-20T12:30:47.752986+05:30
Solapur,Maharashtra,17.6599,75.9064,33.6,29,0.0,959.3,8.7,27.4,76,39.5,21.2,0,5,7,0,2026-03-20T12:30:47.752993+05:30
Kolhapur,Maharashtra,16.705,74.2433,31.0,34,0.0,950.1,8.8,43.6,84,28.2,21.8,0,5,7,0,2026-03-20T12:30:47.753000+05:30
Goa,Goa,15.2993,74.124,32.4,45,0.0,999.9,8.85,36.7,64,27.9,18.7,0,5,7,1,2026-03-20T12:30:47.753007+05:30
Jodhpur,Rajasthan,26.2389,73.0243,25.8,49,0.0,987.4,7.25,18.7,68,70.1,19.4,4,5,7,0,2026-03-20T12:30:47.753014+05:30
Udaipur,Rajasthan,24.5854,73.7125,24.8,43,0.0,949.4,6.0,31.0,63,60.1,14.7,0,5,3,0,2026-03-20T12:30:47.753020+05:30
Kota,Rajasthan,25.2138,75.8648,27.1,44,0.0,982.2,7.0,36.0,67,36.9,12.6,4,5,7,0,2026-03-20T12:30:47.753027+05:30
Bikaner,Rajasthan,28.0229,73.3119,24.9,50,0.0,986.5,6.95,16.6,63,60.5,21.1,0,5,7,0,2026-03-20T12:30:47.753033+05:30
Ajmer,Rajasthan,26.4499,74.6399,22.0,65,0.0,958.1,6.85,25.6,62,41.9,14.8,3,5,7,0,2026-03-20T12:30:47.753040+05:30
Gwalior,Madhya Pradesh,26.2183,78.1828,23.5,61,0.0,987.2,6.35,31.0,119,59.0,22.7,3,5,7,0,2026-03-20T12:30:47.753046+05:30
Indore,Madhya Pradesh,22.7196,75.8577,28.1,39,0.0,950.9,7.85,38.5,63,69.2,20.7,4,5,7,0,2026-03-20T12:30:47.753053+05:30
Bhopal,Madhya Pradesh,23.2599,77.4126,29.3,34,0.0,956.5,7.75,37.1,69,64.3,18.5,4,5,7,0,2026-03-20T12:30:47.753059+05:30
Jabalpur,Madhya Pradesh,23.1815,79.9864,25.5,53,0.0,964.1,4.35,34.2,69,32.8,19.6,4,5,3,0,2026-03-20T12:30:47.753065+05:30
Ujjain,Madhya Pradesh,23.1765,75.7885,27.0,45,0.0,956.9,7.75,39.2,62,53.2,16.8,4,5,7,0,2026-03-20T12:30:47.753073+05:30
Visakhapatnam,Andhra Pradesh,17.6868,83.2185,32.6,43,0.0,1005.6,8.8,37.8,63,16.4,13.2,0,5,4,1,2026-03-20T12:30:47.753079+05:30
Vijayawada,Andhra Pradesh,16.5062,80.648,31.2,50,0.0,1005.4,8.85,22.3,60,14.2,10.5,0,5,4,1,2026-03-20T12:30:47.753085+05:30
Guntur,Andhra Pradesh,16.3067,80.4365,31.0,51,0.0,1006.4,8.85,24.8,53,14.2,9.7,0,5,4,1,2026-03-20T12:30:47.753092+05:30
Nellore,Andhra Pradesh,14.4426,79.9865,33.3,45,0.0,1007.3,9.0,29.9,32,14.4,12.3,0,5,4,1,2026-03-20T12:30:47.753099+05:30
Kurnool,Andhra Pradesh,15.8281,78.0373,33.6,38,0.0,978.7,8.85,19.4,61,17.5,12.5,0,5,7,1,2026-03-20T12:30:47.753106+05:30
Kakinada,Andhra Pradesh,16.9891,82.2475,32.3,46,0.0,1009.7,8.8,30.6,50,14.3,11.3,0,0,4,1,2026-03-20T12:30:47.753112+05:30
Tirupati,Andhra Pradesh,13.6288,79.4192,32.9,43,0.0,992.9,9.15,17.6,51,15.6,12.2,0,5,7,1,2026-03-20T12:30:47.753119+05:30
Warangal,Telangana,17.9689,79.5941,27.0,67,0.0,981.8,8.65,28.4,81,16.6,12.5,7,5,7,1,2026-03-20T12:30:47.753125+05:30
Nizamabad,Telangana,18.6725,78.0941,31.1,41,0.0,967.3,8.55,25.6,92,34.3,20.3,0,5,7,1,2026-03-20T12:30:47.753131+05:30
Mysore,Karnataka,12.2958,76.6396,29.9,43,0.0,930.1,9.35,33.5,75,25.6,19.0,4,5,7,0,2026-03-20T12:30:47.753138+05:30
Mangalore,Karnataka,12.9141,74.856,28.2,79,0.0,1008.2,9.0,29.9,71,26.9,19.2,7,0,4,1,2026-03-20T12:30:47.753144+05:30
Hubli-Dharwad,Karnataka,15.3647,75.124,31.3,34,0.0,942.9,9.0,40.7,68,26.3,15.2,0,5,7,0,2026-03-20T12:30:47.753151+05:30
Belgaum,Karnataka,15.8497,74.4977,30.6,31,0.0,928.0,9.1,44.6,72,25.7,19.7,0,5,7,0,2026-03-20T12:30:50.971424+05:30
Coimbatore,Tamil Nadu,11.0168,76.9558,32.2,43,0.0,963.1,9.35,36.7,60,22.6,16.8,0,5,7,1,2026-03-20T12:30:50.971462+05:30
Madurai,Tamil Nadu,9.9252,78.1198,33.3,45,0.0,994.3,9.3,20.9,58,15.8,12.4,0,5,7,1,2026-03-20T12:30:50.971480+05:30
Trichy,Tamil Nadu,10.7905,78.7047,30.8,61,0.0,1001.6,9.25,21.6,60,17.3,15.3,3,5,4,1,2026-03-20T12:30:50.971489+05:30
Salem,Tamil Nadu,11.6643,78.146,31.3,52,0.0,979.0,9.3,20.9,73,26.6,19.8,0,5,7,1,2026-03-20T12:30:50.971498+05:30
Tirunelveli,Tamil Nadu,8.7139,77.7567,33.3,49,0.0,1004.6,9.3,33.5,62,14.9,13.2,0,5,4,1,2026-03-20T12:30:50.971506+05:30
Vellore,Tamil Nadu,12.9165,79.1325,31.8,48,0.0,986.2,9.2,19.4,61,17.8,14.5,0,5,7,1,2026-03-20T12:30:50.971514+05:30
Erode,Tamil Nadu,11.341,77.7172,32.4,50,0.0,990.4,9.3,26.6,66,16.1,13.4,0,5,7,1,2026-03-20T12:30:50.971523+05:30
Kochi,Kerala,9.9312,76.2673,28.3,77,0.0,1009.5,9.15,36.0,65,15.1,12.1,7,0,4,1,2026-03-20T12:30:50.971532+05:30
Thiruvananthapuram,Kerala,8.5241,76.9366,28.6,74,0.0,1008.8,9.15,26.6,49,16.7,14.1,7,0,4,1,2026-03-20T12:30:50.971540+05:30
Kozhikode,Kerala,11.2588,75.7804,30.3,63,0.0,1008.8,9.05,30.2,54,24.7,17.3,3,0,4,1,2026-03-20T12:30:50.971548+05:30
Thrissur,Kerala,10.5276,76.2144,34.7,47,0.0,1007.7,9.15,37.4,65,13.3,10.5,0,5,4,1,2026-03-20T12:30:50.971556+05:30
Kannur,Kerala,11.8745,75.3704,32.1,55,0.0,1008.1,9.05,38.5,56,23.2,16.4,0,0,4,1,2026-03-20T12:30:50.971564+05:30
Patna,Bihar,25.5941,85.1376,31.3,56,0.0,1002.4,7.7,37.1,158,65.9,59.6,0,5,4,1,2026-03-20T12:30:50.971572+05:30
Gaya,Bihar,24.7914,85.0002,34.0,32,0.0,995.1,7.8,27.4,129,46.2,39.6,0,5,7,0,2026-03-20T12:30:50.971599+05:30
Muzaffarpur,Bihar,26.1209,85.3647,30.7,56,0.0,1002.7,7.25,35.6,161,66.1,58.1,0,5,4,1,2026-03-20T12:30:50.971608+05:30
Bhagalpur,Bihar,25.2425,87.0117,30.0,61,0.0,1003.4,7.75,47.2,143,58.0,52.0,7,5,4,1,2026-03-20T12:30:50.971616+05:30
Ranchi,Jharkhand,23.3441,85.3096,28.5,43,0.0,940.1,7.7,31.3,85,36.7,24.9,4,5,7,0,2026-03-20T12:30:50.971624+05:30
Jamshedpur,Jharkhand,22.8046,86.2029,31.6,42,0.0,992.6,7.55,37.8,117,49.8,38.5,0,5,7,1,2026-03-20T12:30:50.971632+05:30
Dhanbad,Jharkhand,23.7957,86.4304,33.7,28,0.0,981.3,7.8,33.1,155,53.3,41.7,0,5,7,0,2026-03-20T12:30:50.971641+05:30
Bokaro,Jharkhand,23.6693,86.1511,33.4,30,0.0,985.3,7.7,33.8,149,42.1,31.4,0,5,7,0,2026-03-20T12:30:50.971647+05:30
Bhubaneswar,Odisha,20.2961,85.8245,33.0,45,0.0,1004.2,8.55,32.0,67,30.6,24.4,0,5,4,1,2026-03-20T12:30:50.971653+05:30
Cuttack,Odisha,20.4625,85.8828,32.8,50,0.0,1006.1,8.45,28.8,67,30.6,24.4,0,5,4,1,2026-03-20T12:30:50.971660+05:30
Rourkela,Odisha,22.2604,84.8536,33.4,36,0.0,986.8,7.9,47.9,118,52.2,41.1,0,5,7,1,2026-03-20T12:30:50.971666+05:30
Raipur,Chhattisgarh,21.2514,81.6296,29.4,47,0.0,977.3,7.4,28.1,132,41.4,34.5,4,5,7,1,2026-03-20T12:30:50.971672+05:30
Bhilai,Chhattisgarh,21.1938,81.3509,29.1,49,0.0,977.7,6.45,27.0,126,40.0,32.2,4,5,7,1,2026-03-20T12:30:50.971678+05:30
Guwahati,Assam,26.1158,91.7086,28.6,59,0.0,1005.0,7.1,27.4,97,42.5,31.2,4,5,4,1,2026-03-20T12:30:50.971683+05:30
Agartala,Tripura,23.8315,91.2868,28.8,67,0.0,1009.1,6.3,29.2,94,31.0,26.3,7,0,4,1,2026-03-20T12:30:50.971689+05:30
Shillong,Meghalaya,25.5788,91.8933,18.6,50,0.0,859.7,7.5,32.4,85,41.3,27.4,0,5,7,0,2026-03-20T12:30:50.971695+05:30
Imphal,Manipur,24.817,93.9368,20.8,70,0.0,926.8,7.9,44.6,90,30.7,19.2,3,5,7,0,2026-03-20T12:30:50.971702+05:30
Aizawl,Mizoram,23.7271,92.7176,23.7,55,0.0,896.2,7.6,23.8,76,34.7,25.0,0,5,7,0,2026-03-20T12:30:50.971708+05:30
Kohima,Nagaland,25.6701,94.1077,17.5,80,0.0,858.2,7.5,62.3,70,37.7,22.3,3,5,7,0,2026-03-20T12:30:50.971715+05:30
Gangtok,Sikkim,27.3314,88.6138,17.8,66,0.0,839.8,7.9,18.4,102,40.9,29.9,3,5,7,0,2026-03-20T12:30:50.971721+05:30
Siliguri,West Bengal,26.7271,88.3953,22.7,73,0.0,997.4,7.6,23.0,152,63.8,46.0,3,5,7,1,2026-03-20T12:30:54.219831+05:30
Durgapur,West Bengal,23.5204,87.3119,33.0,40,0.0,996.3,7.0,42.1,156,74.3,63.3,0,5,7,1,2026-03-20T12:30:54.219859+05:30
Asansol,West Bengal,23.6739,86.9524,32.0,42,0.0,995.1,5.4,40.0,153,62.6,50.3,0,5,3,1,2026-03-20T12:30:54.219868+05:30
Pondicherry,Puducherry,11.9139,79.8145,32.4,57,0.0,1010.0,9.1,23.4,32,14.7,13.7,0,0,4,1,2026-03-20T12:30:54.219875+05:30
Port Blair,Andaman and Nicobar Islands,11.6234,92.7265,29.3,71,0.0,1008.0,7.75,14.8,47,16.3,12.5,7,0,4,1,2026-03-20T12:30:54.219883+05:30
Haridwar,Uttarakhand,29.9457,78.1642,17.8,89,0.9,979.0,0.65,27.7,76,39.1,20.0,6,10,3,0,2026-03-20T12:30:54.219892+05:30
Rishikesh,Uttarakhand,30.0869,78.2676,17.0,92,1.3,971.4,0.8,27.7,65,27.0,13.7,6,10,3,0,2026-03-20T12:30:54.219899+05:30
Nainital,Uttarakhand,29.3919,79.4542,13.3,89,0.1,806.2,2.25,65.2,63,46.1,21.4,6,10,3,0,2026-03-20T12:30:54.219906+05:30
Mussoorie,Uttarakhand,30.4599,78.0664,10.9,89,0.6,801.6,0.45,46.8,66,21.3,12.7,6,10,3,0,2026-03-20T12:30:54.219913+05:30
Dharamshala,Himachal Pradesh,32.219,76.3234,13.8,90,0.0,869.5,2.15,27.0,46,3.0,2.1,3,10,3,0,2026-03-20T12:30:54.219919+05:30
Dalhousie,Himachal Pradesh,32.5387,75.971,9.8,77,0.0,802.3,1.6,25.9,66,12.1,11.0,3,5,3,0,2026-03-20T12:30:54.219927+05:30
Patiala,Punjab,30.3398,76.3869,18.7,82,0.0,983.2,2.6,17.6,95,62.4,22.9,3,10,3,0,2026-03-20T12:30:54.219933+05:30
Bhatinda,Punjab,30.211,74.9455,21.5,69,0.0,988.4,5.85,19.4,101,44.5,26.4,3,5,3,0,2026-03-20T12:30:54.219939+05:30
Rohtak,Haryana,28.8955,76.6066,19.7,83,0.0,986.5,3.65,19.1,150,52.6,20.3,3,10,3,1,2026-03-20T12:30:54.219946+05:30
Panipat,Haryana,29.3909,76.9635,19.2,82,0.0,985.2,2.65,18.7,153,63.1,27.3,3,10,3,1,2026-03-20T12:30:54.219952+05:30
Mathura,Uttar Pradesh,27.4924,77.6737,20.8,76,0.0,991.6,5.55,20.9,146,20.0,13.1,3,5,3,1,2026-03-20T12:30:54.219958+05:30
Vrindavan,Uttar Pradesh,27.5823,77.7027,21.2,74,0.0,992.1,5.4,22.3,146,20.0,13.1,3,5,3,1,2026-03-20T12:30:54.219965+05:30
Ayodhya,Uttar Pradesh,26.7922,82.1998,32.7,31,0.0,997.1,6.05,31.3,131,56.3,29.1,0,5,7,0,2026-03-20T12:30:54.219971+05:30
Ratlam,Madhya Pradesh,23.3315,75.0367,27.0,44,0.0,957.7,7.75,41.4,59,51.7,15.7,4,5,7,0,2026-03-20T12:30:54.219978+05:30
Sagar,Madhya Pradesh,23.8388,78.7378,26.9,48,0.0,952.9,7.65,35.3,61,67.1,24.5,4,5,7,0,2026-03-20T12:30:54.219983+05:30
Satna,Madhya Pradesh,24.6005,80.8322,29.2,42,0.0,974.2,3.95,55.1,62,40.4,21.4,4,5,3,0,2026-03-20T12:30:54.219990+05:30
Akola,Maharashtra,20.7002,77.0082,32.5,34,0.0,977.9,8.2,28.4,75,69.4,20.5,0,5,7,0,2026-03-20T12:30:54.219997+05:30
Amravati,Maharashtra,20.9374,77.7796,31.6,34,0.0,970.2,8.1,25.9,77,61.9,19.3,0,5,7,0,2026-03-20T12:30:54.220004+05:30
Latur,Maharashtra,18.4088,76.5604,30.9,30,0.0,941.9,8.6,26.3,80,38.0,23.6,0,5,7,0,2026-03-20T12:30:54.220010+05:30
Nanded,Maharashtra,19.1383,77.3091,33.0,33,0.0,971.0,8.4,27.7,73,36.8,20.5,0,5,7,0,2026-03-20T12:30:54.220016+05:30
Gulbarga,Karnataka,17.3297,76.8343,33.4,27,0.0,960.7,8.7,25.9,71,38.1,20.0,0,5,7,0,2026-03-20T12:30:54.220022+05:30
Bidar,Karnataka,17.9104,77.5199,31.2,32,0.0,937.6,8.65,27.7,79,35.6,21.5,0,5,7,0,2026-03-20T12:30:54.220028+05:30
Hospet,Karnataka,15.2689,76.3909,31.8,37,0.0,957.9,8.95,14.8,69,32.1,18.6,0,5,7,0,2026-03-20T12:30:54.220034+05:30
Tirupur,Tamil Nadu,11.1085,77.3411,33.2,42,0.0,976.5,9.35,28.1,67,17.2,14.6,0,5,7,1,2026-03-20T12:30:54.220040+05:30
Alappuzha,Kerala,9.4981,76.3388,28.6,75,0.0,1009.6,9.1,32.4,63,20.9,17.3,7,0,4,1,2026-03-20T12:30:54.220046+05:30
Munnar,Kerala,10.0889,77.0595,29.0,39,0.0,859.9,9.6,37.4,49,11.5,8.8,4,5,7,0,2026-03-20T12:30:54.220053+05:30
Silchar,Assam,24.8333,92.7789,28.1,63,0.0,1008.5,7.55,19.1,104,29.9,23.5,7,0,4,1,2026-03-20T12:30:54.220059+05:30
Dibrugarh,Assam,27.4728,94.912,25.6,62,0.0,1000.2,7.75,14.0,87,53.1,31.2,7,5,4,1,2026-03-20T12:30:54.220065+05:30
