city,state,latitude,longitude,temp,humidity,rain,pressure,uv_index,wind_gusts,aqi,pm10,pm2_5,no2,co,o3,so2,mosquito_risk,arthritis_risk,migraine_risk,frizz_risk,updated_at
Delhi,Delhi,28.6139,77.209,26.1,94,0.1,977.8,6.1,34.6,146,48.8,31.3,27.7,285.0,50.0,20.0,10,5,7,1,2026-07-21T03:31:32.615883+05:30
Mumbai,Maharashtra,19.076,72.8777,25.5,92,0.4,1005.2,7.35,53.3,58,31.0,14.7,5.1,134.0,49.0,4.6,10,5,4,1,2026-07-21T03:31:32.615925+05:30
Bangalore,Karnataka,12.9716,77.5946,20.1,94,0.0,911.2,8.6,46.1,35,5.7,4.4,9.7,149.0,30.0,4.3,3,5,7,1,2026-07-21T03:31:32.615940+05:30
Hyderabad,Telangana,17.385,78.4867,23.3,92,0.0,950.7,6.1,47.2,35,5.5,4.1,6.7,140.0,35.0,4.1,3,5,7,1,2026-07-21T03:31:32.615949+05:30
Chennai,Tamil Nadu,13.0827,80.2707,27.0,78,0.0,1006.2,8.3,37.1,77,27.4,20.3,17.7,363.0,58.0,10.2,7,5,4,1,2026-07-21T03:31:32.615957+05:30
Kolkata,West Bengal,22.5726,88.3639,26.1,96,0.1,1001.6,1.4,27.7,72,17.8,16.1,9.9,250.0,49.0,5.6,10,5,0,1,2026-07-21T03:31:32.615965+05:30
Pune,Maharashtra,18.5204,73.8567,22.7,90,0.0,944.7,6.25,54.7,20,2.9,2.0,5.2,104.0,36.0,4.3,3,5,7,1,2026-07-21T03:31:32.615972+05:30
Ahmedabad,Gujarat,23.0225,72.5714,27.4,88,0.0,996.5,5.75,32.0,62,19.4,12.7,10.8,159.0,30.0,4.3,7,5,3,1,2026-07-21T03:31:32.615978+05:30
Jaipur,Rajasthan,26.9124,75.7873,24.9,99,0.1,954.4,4.15,25.9,114,26.4,16.9,14.3,175.0,51.0,5.7,6,5,3,1,2026-07-21T03:31:32.615984+05:30
Lucknow,Uttar Pradesh,26.8467,80.9462,25.5,97,0.1,989.1,5.75,39.2,73,18.0,17.1,11.3,378.0,76.0,5.9,10,5,3,1,2026-07-21T03:31:32.615995+05:30
Kanpur,Uttar Pradesh,26.4499,80.3319,25.7,98,0.2,987.1,6.9,26.3,70,20.7,17.9,11.9,328.0,65.0,4.3,10,5,7,1,2026-07-21T03:31:32.616020+05:30
Chandigarh,Chandigarh,30.7333,76.7794,25.1,91,0.1,964.1,1.35,30.6,107,26.2,17.8,13.2,272.0,63.0,4.4,10,5,3,1,2026-07-21T03:31:32.616030+05:30
Srinagar,Jammu and Kashmir,34.0837,74.7973,19.9,99,0.1,838.7,7.95,18.4,60,11.9,10.8,11.2,215.0,72.0,2.2,6,10,7,1,2026-07-21T03:31:32.616037+05:30
Jammu,Jammu and Kashmir,32.7266,74.857,24.9,97,0.1,967.6,4.75,34.6,96,45.4,28.7,13.8,245.0,66.0,2.3,6,5,3,1,2026-07-21T03:31:32.616043+05:30
Amritsar,Punjab,31.634,74.8723,26.3,95,0.1,975.8,5.2,41.4,160,61.0,35.2,13.0,425.0,75.0,6.5,10,5,3,1,2026-07-21T03:31:32.616049+05:30
Ludhiana,Punjab,30.901,75.8573,26.7,92,0.0,973.0,5.25,42.8,149,36.6,24.0,15.9,393.0,60.0,11.3,7,5,3,1,2026-07-21T03:31:32.616055+05:30
Jalandhar,Punjab,31.326,75.5762,25.9,96,0.0,975.0,7.95,39.2,157,41.0,26.0,16.7,385.0,63.0,11.6,7,5,7,1,2026-07-21T03:31:32.616061+05:30
Dehradun,Uttarakhand,30.6284,78.0322,17.2,99,0.2,827.6,1.05,22.7,54,3.3,3.0,7.9,209.0,84.0,0.5,6,10,3,1,2026-07-21T03:31:32.616067+05:30
Shimla,Himachal Pradesh,31.1048,77.1734,15.1,98,0.0,781.6,1.7,20.2,65,5.9,3.2,8.1,205.0,80.0,1.0,3,10,3,0,2026-07-21T03:31:32.616074+05:30
Manali,Himachal Pradesh,32.2396,77.1887,19.3,89,0.1,816.9,6.4,23.8,25,5.4,5.3,16.0,248.0,41.0,0.0,6,10,7,1,2026-07-21T03:31:32.616082+05:30
Gurgaon,Haryana,28.4595,77.0266,25.1,97,0.1,976.2,6.35,39.6,123,54.5,31.3,24.3,338.0,42.0,11.4,10,5,7,1,2026-07-21T03:31:32.616089+05:30
Noida,Uttar Pradesh,28.5355,77.391,25.9,95,0.0,979.2,7.2,39.2,123,54.5,31.3,24.3,275.0,42.0,11.4,7,5,7,1,2026-07-21T03:31:32.616097+05:30
Ghaziabad,Uttar Pradesh,28.6692,77.4538,25.6,98,0.1,977.5,6.55,43.2,130,19.9,16.8,11.4,335.0,70.0,6.0,10,5,7,1,2026-07-21T03:31:32.616103+05:30
Faridabad,Haryana,28.4089,77.3178,25.9,95,0.1,978.4,7.25,42.5,123,54.5,31.3,24.3,258.0,42.0,11.4,10,5,7,1,2026-07-21T03:31:32.616111+05:30
Meerut,Uttar Pradesh,28.9845,77.7064,25.8,96,0.0,976.6,6.65,42.8,130,19.9,16.8,11.4,345.0,70.0,6.0,7,5,7,1,2026-07-21T03:31:32.616116+05:30
Agra,Uttar Pradesh,27.1767,78.0081,25.8,96,0.5,982.3,7.3,22.0,80,46.9,21.4,9.6,178.0,76.0,2.8,10,5,7,1,2026-07-21T03:31:32.616123+05:30
Varanasi,Uttar Pradesh,25.3176,82.9739,25.4,98,0.2,992.9,1.75,38.2,79,18.5,18.2,14.1,386.0,77.0,8.3,10,5,3,1,2026-07-21T03:31:32.616129+05:30
Prayagraj,Uttar Pradesh,25.4358,81.8463,26.1,94,0.1,991.0,2.45,30.6,82,14.2,13.6,10.9,238.0,87.0,4.6,10,5,3,1,2026-07-21T03:31:32.616136+05:30
Gorakhpur,Uttar Pradesh,26.7606,83.3732,25.2,96,0.0,993.7,4.85,43.2,62,13.2,13.2,9.4,331.0,82.0,6.0,7,5,3,1,2026-07-21T03:31:32.616142+05:30
Bareilly,Uttar Pradesh,28.367,79.4304,25.6,94,0.0,982.3,7.15,47.2,66,18.0,17.7,12.2,367.0,69.0,6.4,7,5,7,1,2026-07-21T03:31:32.616150+05:30
Aligarh,Uttar Pradesh,27.8974,78.088,25.4,97,0.2,979.7,6.8,32.8,103,39.8,25.2,16.7,241.0,60.0,7.7,10,5,7,1,2026-07-21T03:31:32.616156+05:30
Moradabad,Uttar Pradesh,28.8386,78.7733,25.6,94,0.0,979.0,5.15,48.6,68,14.5,14.3,11.6,383.0,73.0,7.1,7,5,3,1,2026-07-21T03:31:32.616162+05:30
Saharanpur,Uttar Pradesh,29.9637,77.546,25.3,97,0.3,971.5,1.6,44.6,74,17.2,15.9,10.6,330.0,74.0,6.0,10,5,3,1,2026-07-21T03:31:32.616168+05:30
Jhansi,Uttar Pradesh,25.4484,78.5685,25.5,98,0.0,972.8,7.9,27.7,61,15.8,13.1,9.5,224.0,63.0,4.1,7,5,7,1,2026-07-21T03:31:36.009487+05:30
Surat,Gujarat,21.1702,72.8311,25.6,96,0.1,1002.1,4.4,51.8,64,24.4,17.1,21.7,287.0,26.0,30.6,10,5,0,1,2026-07-21T03:31:36.009519+05:30
Vadodara,Gujarat,22.3072,73.1812,25.9,95,0.0,999.2,5.65,40.3,56,17.2,11.9,12.1,160.0,30.0,9.2,7,5,3,1,2026-07-21T03:31:36.009529+05:30
Rajkot,Gujarat,22.3039,70.8022,25.8,90,0.0,988.6,5.2,42.8,57,16.2,8.9,5.4,99.0,38.0,4.0,7,5,3,1,2026-07-21T03:31:36.009538+05:30
Thane,Maharashtra,19.2183,72.9781,24.5,97,0.1,1004.6,6.5,44.3,58,31.0,14.7,5.1,148.0,49.0,4.6,6,5,4,1,2026-07-21T03:31:36.009546+05:30
Nagpur,Maharashtra,21.1458,79.0882,24.1,98,0.2,969.1,0.55,37.4,59,5.9,5.4,10.4,168.0,44.0,7.8,6,5,3,1,2026-07-21T03:31:36.009554+05:30
Nashik,Maharashtra,19.9975,73.7898,22.5,96,0.1,941.3,3.25,52.9,20,3.2,2.4,7.9,118.0,36.0,7.1,6,5,3,1,2026-07-21T03:31:36.009561+05:30
Aurangabad,Maharashtra,19.8762,75.3433,22.8,95,0.0,940.4,5.6,57.6,27,3.7,2.7,6.8,130.0,37.0,7.7,3,5,3,1,2026-07-21T03:31:36.009567+05:30
Solapur,Maharashtra,17.6599,75.9064,24.1,83,0.0,955.0,5.05,53.6,23,5.1,3.8,5.5,125.0,34.0,2.4,3,5,3,1,2026-07-21T03:31:36.009575+05:30
Kolhapur,Maharashtra,16.705,74.2433,22.2,93,0.0,946.0,7.65,57.6,24,3.7,2.7,2.9,98.0,37.0,1.8,3,5,7,1,2026-07-21T03:31:36.009582+05:30
Goa,Goa,15.2993,74.124,23.8,98,0.0,997.6,7.6,35.3,57,21.5,12.8,3.5,293.0,37.0,1.0,3,5,7,1,2026-07-21T03:31:36.009589+05:30
Jodhpur,Rajasthan,26.2389,73.0243,29.7,67,0.0,976.5,8.05,34.9,79,43.9,16.7,5.3,124.0,55.0,2.5,7,5,7,1,2026-07-21T03:31:36.009596+05:30
Udaipur,Rajasthan,24.5854,73.7125,24.0,94,0.0,940.7,4.15,31.3,61,16.3,10.3,8.8,130.0,47.0,9.1,3,5,3,1,2026-07-21T03:31:36.009603+05:30
Kota,Rajasthan,25.2138,75.8648,27.2,91,0.0,973.1,0.85,27.7,69,17.9,14.8,11.3,181.0,53.0,6.6,7,5,3,1,2026-07-21T03:31:36.009610+05:30
Bikaner,Rajasthan,28.0229,73.3119,32.1,54,0.0,975.2,8.4,32.4,87,107.8,30.6,2.8,109.0,54.0,3.4,0,5,7,1,2026-07-21T03:31:36.009617+05:30
Ajmer,Rajasthan,26.4499,74.6399,27.6,76,0.0,949.1,3.6,37.8,62,15.3,11.4,7.4,142.0,62.0,5.3,7,5,3,1,2026-07-21T03:31:36.009625+05:30
Gwalior,Madhya Pradesh,26.2183,78.1828,24.7,91,0.1,977.9,7.3,20.2,70,20.0,15.4,11.3,159.0,53.0,4.7,6,5,7,1,2026-07-21T03:31:36.009631+05:30
Indore,Madhya Pradesh,22.7196,75.8577,23.9,94,0.1,943.2,1.55,37.8,53,9.2,7.4,9.6,171.0,37.0,8.9,6,5,3,1,2026-07-21T03:31:36.009638+05:30
Bhopal,Madhya Pradesh,23.2599,77.4126,23.5,97,0.0,948.7,2.65,28.4,60,7.3,6.7,7.8,195.0,48.0,2.5,3,5,3,1,2026-07-21T03:31:36.009645+05:30
Jabalpur,Madhya Pradesh,23.1815,79.9864,24.1,99,0.1,956.4,1.95,22.0,65,15.4,13.1,7.7,210.0,58.0,3.0,6,5,3,1,2026-07-21T03:31:36.009651+05:30
Ujjain,Madhya Pradesh,23.1765,75.7885,24.2,93,0.0,948.8,1.0,31.7,53,10.3,7.9,9.4,211.0,37.0,9.9,3,5,3,1,2026-07-21T03:31:36.009658+05:30
Visakhapatnam,Andhra Pradesh,17.6868,83.2185,26.5,91,0.0,999.0,6.5,35.6,75,12.1,10.4,18.4,276.0,42.0,29.8,7,5,7,1,2026-07-21T03:31:36.009665+05:30
Vijayawada,Andhra Pradesh,16.5062,80.648,26.1,85,0.0,1000.1,7.35,47.5,59,23.8,18.9,14.2,155.0,31.0,4.4,7,5,4,1,2026-07-21T03:31:36.009671+05:30
Guntur,Andhra Pradesh,16.3067,80.4365,26.7,79,0.0,1001.3,7.9,47.2,56,20.3,15.4,14.2,151.0,30.0,5.9,7,5,4,1,2026-07-21T03:31:36.009679+05:30
Nellore,Andhra Pradesh,14.4426,79.9865,27.7,75,0.0,1004.4,7.2,41.0,62,9.0,5.7,6.7,131.0,39.0,4.3,7,5,4,1,2026-07-21T03:31:36.009687+05:30
Kurnool,Andhra Pradesh,15.8281,78.0373,25.0,82,0.0,975.7,8.55,50.8,40,8.5,5.2,6.7,126.0,35.0,2.3,7,5,7,1,2026-07-21T03:31:36.009695+05:30
Kakinada,Andhra Pradesh,16.9891,82.2475,27.5,80,0.0,1003.9,7.95,54.4,64,24.2,17.4,7.5,158.0,63.0,5.0,7,5,4,1,2026-07-21T03:31:36.009701+05:30
Tirupati,Andhra Pradesh,13.6288,79.4192,26.3,75,0.0,990.2,8.45,33.5,66,22.0,16.6,21.1,188.0,14.0,2.5,7,5,7,1,2026-07-21T03:31:36.009707+05:30
Warangal,Telangana,17.9689,79.5941,24.5,93,0.1,975.9,2.35,35.3,38,7.6,6.1,8.2,142.0,33.0,2.7,6,5,3,1,2026-07-21T03:31:36.009714+05:30
Nizamabad,Telangana,18.6725,78.0941,23.7,96,0.0,961.7,4.65,46.8,35,6.5,5.1,7.9,143.0,31.0,4.7,3,5,3,1,2026-07-21T03:31:36.009720+05:30
Mysore,Karnataka,12.2958,76.6396,20.7,95,0.0,928.5,8.15,43.6,25,6.4,4.8,7.8,110.0,28.0,2.2,3,5,7,1,2026-07-21T03:31:36.009727+05:30
Mangalore,Karnataka,12.9141,74.856,23.3,98,0.1,1007.7,8.5,35.3,51,14.0,9.8,8.6,147.0,28.0,3.7,6,5,4,1,2026-07-21T03:31:36.009733+05:30
Hubli-Dharwad,Karnataka,15.3647,75.124,21.6,97,0.0,939.6,8.2,55.4,18,4.9,3.0,2.0,98.0,39.0,1.0,3,5,7,1,2026-07-21T03:31:36.009740+05:30
Belgaum,Karnataka,15.8497,74.4977,20.7,97,0.0,924.2,8.0,53.3,18,4.4,3.0,3.1,122.0,38.0,2.1,3,5,7,1,2026-07-21T03:31:39.431391+05:30
Coimbatore,Tamil Nadu,11.0168,76.9558,22.9,95,0.0,962.1,8.85,47.9,34,8.8,6.8,8.8,155.0,24.0,3.2,3,5,7,1,2026-07-21T03:31:39.431423+05:30
Madurai,Tamil Nadu,9.9252,78.1198,28.3,59,0.0,993.0,8.35,31.7,59,25.5,21.9,34.9,148.0,0.0,6.5,4,5,7,1,2026-07-21T03:31:39.431434+05:30
Trichy,Tamil Nadu,10.7905,78.7047,27.6,66,0.0,999.7,8.75,45.7,43,8.3,5.7,6.0,118.0,33.0,3.2,7,5,7,1,2026-07-21T03:31:39.431443+05:30
Salem,Tamil Nadu,11.6643,78.146,24.3,88,0.0,977.7,8.1,30.2,57,15.4,12.1,17.2,449.0,24.0,7.2,3,5,7,1,2026-07-21T03:31:39.431451+05:30
Tirunelveli,Tamil Nadu,8.7139,77.7567,27.9,68,0.0,1004.0,8.25,40.3,30,8.2,6.2,8.2,150.0,26.0,2.9,7,5,4,1,2026-07-21T03:31:39.431459+05:30
Vellore,Tamil Nadu,12.9165,79.1325,26.5,69,0.0,984.0,8.65,38.2,66,28.6,23.8,28.7,184.0,10.0,5.3,7,5,7,1,2026-07-21T03:31:39.431466+05:30
Erode,Tamil Nadu,11.341,77.7172,25.4,81,0.0,989.5,8.2,37.4,52,16.4,14.0,16.9,133.0,22.0,5.0,7,5,7,1,2026-07-21T03:31:39.431473+05:30
Kochi,Kerala,9.9312,76.2673,25.8,93,0.0,1010.3,8.5,28.8,54,19.9,17.5,19.8,145.0,8.0,5.9,7,0,4,1,2026-07-21T03:31:39.431480+05:30
Thiruvananthapuram,Kerala,8.5241,76.9366,24.8,94,0.0,1009.5,7.9,38.5,44,12.4,8.4,6.8,157.0,34.0,3.3,3,0,4,1,2026-07-21T03:31:39.431488+05:30
Kozhikode,Kerala,11.2588,75.7804,23.9,97,0.0,1009.5,8.35,33.8,32,10.3,6.4,3.0,210.0,43.0,2.0,3,0,4,1,2026-07-21T03:31:39.431495+05:30
Thrissur,Kerala,10.5276,76.2144,24.2,97,0.0,1008.7,8.6,33.1,53,25.1,22.6,20.2,250.0,5.0,5.1,3,0,4,1,2026-07-21T03:31:39.431503+05:30
Kannur,Kerala,11.8745,75.3704,24.2,97,0.0,1008.4,8.2,31.3,43,12.4,10.0,13.3,201.0,15.0,2.9,3,0,4,1,2026-07-21T03:31:39.431510+05:30
Patna,Bihar,25.5941,85.1376,25.2,97,0.3,996.9,8.65,39.2,78,29.6,29.2,15.7,290.0,66.0,12.3,10,5,7,1,2026-07-21T03:31:39.431517+05:30
Gaya,Bihar,24.7914,85.0002,25.7,97,0.1,989.7,7.7,34.6,77,46.1,45.5,21.8,638.0,39.0,21.2,10,5,7,1,2026-07-21T03:31:39.431524+05:30
Muzaffarpur,Bihar,26.1209,85.3647,26.3,91,0.0,997.3,7.3,42.8,69,24.3,24.0,14.0,266.0,68.0,11.6,7,5,7,1,2026-07-21T03:31:39.431531+05:30
Bhagalpur,Bihar,25.2425,87.0117,26.3,92,0.0,998.2,3.9,38.2,71,28.5,27.5,16.8,283.0,45.0,10.8,7,5,3,1,2026-07-21T03:31:39.431537+05:30
Ranchi,Jharkhand,23.3441,85.3096,23.1,99,0.1,932.9,7.1,28.4,82,21.1,19.3,6.3,365.0,104.0,15.1,6,5,7,1,2026-07-21T03:31:39.431545+05:30
Jamshedpur,Jharkhand,22.8046,86.2029,25.2,96,0.0,986.2,5.4,22.0,96,29.3,26.8,17.6,376.0,41.0,16.1,7,5,3,1,2026-07-21T03:31:39.431551+05:30
Dhanbad,Jharkhand,23.7957,86.4304,25.1,99,0.1,975.7,6.3,35.6,150,50.2,48.3,43.0,252.0,20.0,94.2,10,5,7,1,2026-07-21T03:31:39.431558+05:30
Bokaro,Jharkhand,23.6693,86.1511,25.3,98,0.0,979.5,6.85,33.1,151,58.8,56.6,55.1,1422.0,12.0,110.0,7,5,7,1,2026-07-21T03:31:39.431566+05:30
Bhubaneswar,Odisha,20.2961,85.8245,25.8,96,0.1,997.4,3.45,27.7,89,34.9,31.0,13.8,334.0,57.0,6.0,10,5,3,1,2026-07-21T03:31:39.431572+05:30
Cuttack,Odisha,20.4625,85.8828,26.8,96,0.3,999.2,3.6,30.2,89,34.9,31.0,13.8,307.0,57.0,6.0,10,5,3,1,2026-07-21T03:31:39.431579+05:30
Rourkela,Odisha,22.2604,84.8536,25.3,97,0.5,980.0,1.5,21.6,107,8.2,7.4,6.4,221.0,79.0,5.9,10,5,3,1,2026-07-21T03:31:39.431586+05:30
Raipur,Chhattisgarh,21.2514,81.6296,25.0,94,0.1,970.0,1.45,32.4,89,16.4,15.4,24.3,445.0,45.0,38.6,10,5,3,1,2026-07-21T03:31:39.431592+05:30
Bhilai,Chhattisgarh,21.1938,81.3509,24.4,97,0.1,970.6,0.7,38.2,82,15.9,14.8,21.7,523.0,45.0,34.0,6,5,3,1,2026-07-21T03:31:39.431600+05:30
Guwahati,Assam,26.1158,91.7086,24.6,99,0.0,1000.4,7.6,28.4,51,8.8,8.4,6.4,212.0,51.0,1.2,3,5,4,1,2026-07-21T03:31:39.431606+05:30
Agartala,Tripura,23.8315,91.2868,24.9,99,0.1,1004.1,7.55,27.4,52,8.4,7.8,12.0,177.0,36.0,2.8,6,5,4,1,2026-07-21T03:31:39.431613+05:30
Shillong,Meghalaya,25.5788,91.8933,19.0,98,0.0,856.4,3.65,19.8,19,1.3,1.3,4.2,217.0,54.0,1.5,3,10,3,1,2026-07-21T03:31:39.431620+05:30
Imphal,Manipur,24.817,93.9368,22.0,90,0.0,922.1,8.05,24.1,51,9.5,9.3,12.3,273.0,39.0,1.8,3,5,7,1,2026-07-21T03:31:39.431626+05:30
Aizawl,Mizoram,23.7271,92.7176,19.5,100,0.1,890.7,6.75,30.2,21,2.1,2.0,5.6,132.0,18.0,0.4,6,10,7,1,2026-07-21T03:31:39.431633+05:30
Kohima,Nagaland,25.6701,94.1077,18.3,95,0.0,854.2,8.75,23.0,17,2.4,2.3,5.3,260.0,35.0,0.7,3,10,7,1,2026-07-21T03:31:39.431640+05:30
Gangtok,Sikkim,27.3314,88.6138,17.6,100,0.1,837.2,8.35,25.2,28,2.5,2.5,5.2,281.0,68.0,0.7,6,10,7,1,2026-07-21T03:31:39.431647+05:30
Siliguri,West Bengal,26.7271,88.3953,24.9,96,0.0,991.9,6.15,36.0,44,7.9,7.8,9.9,185.0,65.0,3.0,3,5,7,1,2026-07-21T03:31:42.829684+05:30
Durgapur,West Bengal,23.5204,87.3119,25.8,96,0.1,990.9,4.5,31.7,108,30.0,28.4,26.5,322.0,29.0,28.7,10,5,3,1,2026-07-21T03:31:42.829715+05:30
Asansol,West Bengal,23.6739,86.9524,25.7,96,0.1,989.4,5.7,36.7,109,32.4,30.7,31.0,331.0,27.0,37.8,10,5,3,1,2026-07-21T03:31:42.829727+05:30
Pondicherry,Puducherry,11.9139,79.8145,27.7,80,0.0,1007.8,7.65,37.1,74,26.0,20.2,19.0,278.0,41.0,14.3,7,5,4,1,2026-07-21T03:31:42.829736+05:30
Port Blair,Andaman and Nicobar Islands,11.6234,92.7265,27.0,83,0.0,1007.4,8.1,44.3,58,15.3,8.3,0.1,91.0,51.0,0.4,7,5,4,1,2026-07-21T03:31:42.829745+05:30
Haridwar,Uttarakhand,29.9457,78.1642,25.4,99,0.1,969.9,5.2,31.0,66,16.1,15.6,9.9,338.0,72.0,5.3,10,5,3,1,2026-07-21T03:31:42.829753+05:30
Rishikesh,Uttarakhand,30.0869,78.2676,24.8,96,0.2,962.6,5.3,25.6,55,10.3,9.1,6.2,285.0,89.0,3.6,6,5,3,1,2026-07-21T03:31:42.829760+05:30
Nainital,Uttarakhand,29.3919,79.4542,16.3,98,0.0,803.2,4.45,42.5,42,6.0,5.7,5.9,257.0,86.0,1.4,3,10,3,0,2026-07-21T03:31:42.829768+05:30
Mussoorie,Uttarakhand,30.4599,78.0664,16.1,100,0.1,800.4,2.9,27.0,57,6.1,6.0,7.0,239.0,89.0,1.8,6,10,3,1,2026-07-21T03:31:42.829775+05:30
Dharamshala,Himachal Pradesh,32.219,76.3234,20.3,99,0.1,866.0,2.0,25.6,27,4.7,3.3,9.3,243.0,50.0,0.5,6,5,3,1,2026-07-21T03:31:42.829783+05:30
Dalhousie,Himachal Pradesh,32.5387,75.971,17.3,100,0.1,802.2,2.4,30.2,84,36.9,18.5,11.3,360.0,81.0,2.2,6,10,3,1,2026-07-21T03:31:42.829790+05:30
Patiala,Punjab,30.3398,76.3869,26.5,93,0.0,973.2,4.25,37.4,119,40.3,22.9,12.2,366.0,71.0,11.1,7,5,3,1,2026-07-21T03:31:42.829798+05:30
Bhatinda,Punjab,30.211,74.9455,28.7,84,0.0,977.6,8.2,37.4,329,353.0,109.0,21.8,344.0,42.0,8.5,7,5,7,1,2026-07-21T03:31:42.829805+05:30
Rohtak,Haryana,28.8955,76.6066,26.4,96,0.1,976.6,4.9,27.7,267,59.6,35.4,30.4,474.0,42.0,19.8,10,5,3,1,2026-07-21T03:31:42.829811+05:30
Panipat,Haryana,29.3909,76.9635,26.3,95,0.1,975.5,3.4,36.4,313,50.8,34.5,25.1,358.0,53.0,19.2,10,5,3,1,2026-07-21T03:31:42.829818+05:30
Mathura,Uttar Pradesh,27.4924,77.6737,26.1,95,0.2,981.3,7.4,27.4,81,56.0,24.4,11.8,245.0,71.0,2.3,10,5,7,1,2026-07-21T03:31:42.829825+05:30
Vrindavan,Uttar Pradesh,27.5823,77.7027,26.1,95,0.1,981.7,7.75,28.1,81,56.0,24.4,11.8,214.0,71.0,2.3,10,5,7,1,2026-07-21T03:31:42.829832+05:30
Ayodhya,Uttar Pradesh,26.7922,82.1998,25.1,98,0.1,991.3,6.65,43.9,64,20.0,19.6,12.8,337.0,74.0,6.8,10,5,7,1,2026-07-21T03:31:42.829839+05:30
Ratlam,Madhya Pradesh,23.3315,75.0367,23.8,99,0.1,949.6,2.25,36.0,51,10.2,7.5,9.5,181.0,35.0,10.4,6,5,3,1,2026-07-21T03:31:42.829846+05:30
Sagar,Madhya Pradesh,23.8388,78.7378,23.0,98,0.0,945.2,2.45,29.2,57,12.7,10.8,7.7,183.0,55.0,2.9,3,5,3,1,2026-07-21T03:31:42.829853+05:30
Satna,Madhya Pradesh,24.6005,80.8322,24.6,97,0.1,966.4,3.75,24.5,68,12.7,9.8,10.1,230.0,56.0,4.0,6,5,3,1,2026-07-21T03:31:42.829860+05:30
Akola,Maharashtra,20.7002,77.0082,25.0,93,0.1,971.3,1.7,49.3,36,6.7,5.4,9.3,144.0,34.0,7.2,10,5,3,1,2026-07-21T03:31:42.829868+05:30
Amravati,Maharashtra,20.9374,77.7796,24.2,96,0.1,963.5,1.0,50.8,39,6.7,5.5,9.2,139.0,37.0,7.4,6,5,3,1,2026-07-21T03:31:42.829875+05:30
Latur,Maharashtra,18.4088,76.5604,22.9,94,0.0,936.7,6.45,49.3,29,3.9,3.3,5.6,137.0,34.0,2.5,3,5,7,1,2026-07-21T03:31:42.829883+05:30
Nanded,Maharashtra,19.1383,77.3091,24.3,92,0.0,965.5,3.35,45.4,36,5.0,3.8,6.4,134.0,33.0,3.1,3,5,3,1,2026-07-21T03:31:42.829890+05:30
Gulbarga,Karnataka,17.3297,76.8343,23.6,85,0.0,956.4,4.05,52.9,26,7.5,4.8,5.6,132.0,35.0,2.8,3,5,3,1,2026-07-21T03:31:42.829897+05:30
Bidar,Karnataka,17.9104,77.5199,22.6,97,0.1,932.5,4.5,50.4,27,4.2,3.6,6.4,129.0,32.0,2.4,6,5,3,1,2026-07-21T03:31:42.829904+05:30
Hospet,Karnataka,15.2689,76.3909,22.8,89,0.0,954.9,8.15,52.9,21,5.7,3.6,3.7,104.0,38.0,1.6,3,5,7,1,2026-07-21T03:31:42.829910+05:30
Tirupur,Tamil Nadu,11.1085,77.3411,23.8,90,0.0,975.7,8.75,54.4,55,20.7,18.0,21.3,137.0,16.0,6.1,3,5,7,1,2026-07-21T03:31:42.829916+05:30
Alappuzha,Kerala,9.4981,76.3388,25.8,94,0.0,1010.2,8.35,31.0,51,15.8,11.3,11.8,88.0,28.0,4.7,7,0,4,1,2026-07-21T03:31:42.829923+05:30
Munnar,Kerala,10.0889,77.0595,15.8,92,0.0,856.7,9.05,34.6,28,8.5,6.6,8.2,88.0,17.0,1.3,3,10,7,0,2026-07-21T03:31:42.829930+05:30
Silchar,Assam,24.8333,92.7789,24.8,96,0.1,1003.7,8.3,28.1,54,7.3,7.0,6.6,249.0,45.0,2.2,6,5,4,1,2026-07-21T03:31:42.829937+05:30
Dibrugarh,Assam,27.4728,94.912,25.9,91,0.0,993.7,8.6,23.0,58,5.4,4.9,10.4,175.0,40.0,0.9,7,5,7,1,2026-07-21T03:31:42.829944+05:30
