city,state,latitude,longitude,temp,humidity,rain,pressure,uv_index,wind_gusts,aqi,pm10,pm2_5,mosquito_risk,arthritis_risk,migraine_risk,frizz_risk,updated_at
Delhi,Delhi,28.6139,77.209,36.1,20,0.0,978.5,7.4,48.6,576,840.1,114.8,0,5,10,0,2026-04-26T20:18:42.381817+05:30
Mumbai,Maharashtra,19.076,72.8777,29.6,78,0.0,1006.3,7.6,37.1,135,73.3,38.0,7,5,4,1,2026-04-26T20:18:42.381862+05:30
Bangalore,Karnataka,12.9716,77.5946,30.6,33,0.0,911.7,9.55,36.7,164,36.1,30.4,0,5,7,0,2026-04-26T20:18:42.381878+05:30
Hyderabad,Telangana,17.385,78.4867,35.0,27,0.0,952.5,9.25,33.5,163,68.7,60.1,0,5,7,0,2026-04-26T20:18:42.381889+05:30
Chennai,Tamil Nadu,13.0827,80.2707,29.5,79,0.0,1006.4,9.25,49.7,41,19.4,12.7,7,5,4,1,2026-04-26T20:18:42.381898+05:30
Kolkata,West Bengal,22.5726,88.3639,29.5,75,0.0,1004.0,8.9,40.0,61,23.0,16.9,7,5,4,1,2026-04-26T20:18:42.381911+05:30
Pune,Maharashtra,18.5204,73.8567,31.2,54,0.0,946.7,8.35,38.9,166,32.4,25.0,0,5,7,1,2026-04-26T20:18:42.381919+05:30
Ahmedabad,Gujarat,23.0225,72.5714,39.7,11,0.0,998.5,8.2,38.9,89,43.0,20.6,0,5,10,0,2026-04-26T20:18:42.381927+05:30
Jaipur,Rajasthan,26.9124,75.7873,36.5,18,0.0,957.3,8.05,41.8,151,182.1,33.3,0,5,10,0,2026-04-26T20:18:42.381935+05:30
Lucknow,Uttar Pradesh,26.8467,80.9462,37.4,18,0.0,988.7,7.9,52.6,154,336.2,64.3,0,5,10,0,2026-04-26T20:18:42.381943+05:30
Kanpur,Uttar Pradesh,26.4499,80.3319,37.3,17,0.0,987.5,7.9,54.7,487,687.3,95.9,0,5,10,0,2026-04-26T20:18:42.381951+05:30
Chandigarh,Chandigarh,30.7333,76.7794,30.0,30,0.0,964.5,7.4,45.7,109,19.6,13.1,4,5,7,0,2026-04-26T20:18:42.381959+05:30
Srinagar,Jammu and Kashmir,34.0837,74.7973,16.8,67,0.0,839.2,8.6,16.2,92,32.7,23.1,3,5,7,0,2026-04-26T20:18:42.381967+05:30
Jammu,Jammu and Kashmir,32.7266,74.857,31.5,20,0.0,968.2,8.15,33.8,90,38.5,23.9,0,5,7,0,2026-04-26T20:18:42.381975+05:30
Amritsar,Punjab,31.634,74.8723,32.8,24,0.0,976.3,8.1,36.7,115,26.1,14.5,0,5,7,0,2026-04-26T20:18:42.381982+05:30
Ludhiana,Punjab,30.901,75.8573,33.2,23,0.0,974.3,7.65,41.8,98,56.2,20.1,0,5,7,0,2026-04-26T20:18:42.382012+05:30
Jalandhar,Punjab,31.326,75.5762,32.9,24,0.0,975.3,7.85,37.4,110,60.1,20.4,0,5,7,0,2026-04-26T20:18:42.382021+05:30
Dehradun,Uttarakhand,30.6284,78.0322,17.9,46,0.0,826.8,7.8,49.0,96,20.4,9.2,0,5,7,0,2026-04-26T20:18:42.382028+05:30
Shimla,Himachal Pradesh,31.1048,77.1734,15.5,40,0.0,782.8,7.9,52.9,93,22.2,9.3,0,5,7,0,2026-04-26T20:18:42.382035+05:30
Manali,Himachal Pradesh,32.2396,77.1887,13.0,51,0.0,814.9,9.8,45.0,128,23.6,8.8,0,5,7,0,2026-04-26T20:18:42.382042+05:30
Gurgaon,Haryana,28.4595,77.0266,33.5,24,0.0,977.0,7.55,49.7,1594,1907.3,210.0,0,5,7,0,2026-04-26T20:18:42.382050+05:30
Noida,Uttar Pradesh,28.5355,77.391,36.0,19,0.0,979.8,7.45,43.9,1594,1907.3,210.0,0,5,10,0,2026-04-26T20:18:42.382056+05:30
Ghaziabad,Uttar Pradesh,28.6692,77.4538,36.8,17,0.0,977.6,7.4,47.9,466,735.7,102.4,0,5,10,0,2026-04-26T20:18:42.382063+05:30
Faridabad,Haryana,28.4089,77.3178,36.5,19,0.0,979.3,7.5,53.3,1594,1907.3,210.0,0,5,10,0,2026-04-26T20:18:42.382070+05:30
Meerut,Uttar Pradesh,28.9845,77.7064,33.8,22,0.0,976.5,7.3,50.8,466,735.7,102.4,0,5,7,0,2026-04-26T20:18:42.382077+05:30
Agra,Uttar Pradesh,27.1767,78.0081,35.5,23,0.0,983.5,7.8,50.4,1015,871.7,101.7,0,5,10,0,2026-04-26T20:18:42.382086+05:30
Varanasi,Uttar Pradesh,25.3176,82.9739,35.2,30,0.0,993.1,8.5,53.3,156,103.6,48.1,0,5,10,0,2026-04-26T20:18:42.382094+05:30
Prayagraj,Uttar Pradesh,25.4358,81.8463,36.5,20,0.0,991.2,8.4,50.8,138,105.9,37.6,0,5,10,0,2026-04-26T20:18:42.382102+05:30
Gorakhpur,Uttar Pradesh,26.7606,83.3732,29.3,61,0.0,993.9,8.35,40.7,177,79.9,59.8,7,5,7,1,2026-04-26T20:18:42.382109+05:30
Bareilly,Uttar Pradesh,28.367,79.4304,33.8,26,0.0,981.5,7.65,54.7,115,122.9,35.4,0,5,7,0,2026-04-26T20:18:42.382116+05:30
Aligarh,Uttar Pradesh,27.8974,78.088,34.4,22,0.0,981.0,7.6,51.8,1040,1415.6,177.9,0,5,7,0,2026-04-26T20:18:42.382122+05:30
Moradabad,Uttar Pradesh,28.8386,78.7733,33.5,27,0.0,978.2,7.5,55.8,128,231.9,51.2,0,5,7,0,2026-04-26T20:18:42.382128+05:30
Saharanpur,Uttar Pradesh,29.9637,77.546,32.7,20,0.0,970.6,7.1,52.2,98,132.7,29.6,0,5,7,0,2026-04-26T20:18:42.382137+05:30
Jhansi,Uttar Pradesh,25.4484,78.5685,36.3,19,0.0,974.9,8.3,49.0,93,59.4,22.1,0,5,10,0,2026-04-26T20:18:45.624242+05:30
Surat,Gujarat,21.1702,72.8311,30.8,68,0.0,1004.0,7.85,36.0,113,72.2,48.2,3,5,4,1,2026-04-26T20:18:45.624275+05:30
Vadodara,Gujarat,22.3072,73.1812,38.6,16,0.0,1000.4,8.15,41.4,148,49.8,35.6,0,5,7,0,2026-04-26T20:18:45.624285+05:30
Rajkot,Gujarat,22.3039,70.8022,33.8,25,0.0,992.0,7.85,39.2,61,38.3,16.0,0,5,7,0,2026-04-26T20:18:45.624294+05:30
Thane,Maharashtra,19.2183,72.9781,30.4,70,0.0,1005.6,7.6,32.8,135,73.3,38.0,3,5,4,1,2026-04-26T20:18:45.624301+05:30
Nagpur,Maharashtra,21.1458,79.0882,39.5,14,0.0,970.3,8.9,34.6,202,75.9,38.5,0,5,10,0,2026-04-26T20:18:45.624309+05:30
Nashik,Maharashtra,19.9975,73.7898,32.6,30,0.0,944.4,8.1,36.0,143,32.5,23.9,0,5,7,0,2026-04-26T20:18:45.624317+05:30
Aurangabad,Maharashtra,19.8762,75.3433,36.1,14,0.0,942.5,9.05,32.4,118,20.1,14.2,0,5,10,0,2026-04-26T20:18:45.624323+05:30
Solapur,Maharashtra,17.6599,75.9064,37.2,18,0.0,954.9,9.05,25.2,175,49.7,40.6,0,5,10,0,2026-04-26T20:18:45.624331+05:30
Kolhapur,Maharashtra,16.705,74.2433,28.2,71,0.0,947.1,9.0,50.8,164,26.1,22.3,7,5,7,1,2026-04-26T20:18:45.624338+05:30
Goa,Goa,15.2993,74.124,30.5,75,0.0,997.0,8.95,34.9,88,34.6,24.8,3,5,7,1,2026-04-26T20:18:45.624345+05:30
Jodhpur,Rajasthan,26.2389,73.0243,37.7,17,0.0,979.4,8.3,34.2,79,134.6,21.5,0,5,10,0,2026-04-26T20:18:45.624352+05:30
Udaipur,Rajasthan,24.5854,73.7125,34.0,22,0.0,944.9,8.75,47.9,87,13.1,6.7,0,5,7,0,2026-04-26T20:18:45.624359+05:30
Kota,Rajasthan,25.2138,75.8648,35.6,25,0.0,975.8,8.3,46.8,91,66.4,27.2,0,5,10,0,2026-04-26T20:18:45.624367+05:30
Bikaner,Rajasthan,28.0229,73.3119,37.1,23,0.0,978.0,8.15,37.1,72,53.3,16.9,0,5,10,0,2026-04-26T20:18:45.624373+05:30
Ajmer,Rajasthan,26.4499,74.6399,36.0,18,0.0,952.6,8.25,41.4,68,51.6,16.9,0,5,10,0,2026-04-26T20:18:45.624381+05:30
Gwalior,Madhya Pradesh,26.2183,78.1828,36.8,19,0.0,979.6,8.0,45.4,125,62.9,21.5,0,5,10,0,2026-04-26T20:18:45.624388+05:30
Indore,Madhya Pradesh,22.7196,75.8577,34.5,22,0.0,946.7,8.65,37.4,113,46.8,23.4,0,5,7,0,2026-04-26T20:18:45.624395+05:30
Bhopal,Madhya Pradesh,23.2599,77.4126,34.8,26,0.0,952.4,8.65,37.8,123,64.3,27.0,0,5,7,0,2026-04-26T20:18:45.624403+05:30
Jabalpur,Madhya Pradesh,23.1815,79.9864,34.3,21,0.0,959.1,8.7,42.1,85,58.6,22.6,0,5,7,0,2026-04-26T20:18:45.624410+05:30
Ujjain,Madhya Pradesh,23.1765,75.7885,33.4,23,0.0,951.8,8.55,41.4,85,49.4,25.7,0,5,7,0,2026-04-26T20:18:45.624418+05:30
Visakhapatnam,Andhra Pradesh,17.6868,83.2185,28.9,83,0.0,1002.7,8.95,47.5,55,22.1,14.7,7,5,4,1,2026-04-26T20:18:45.624425+05:30
Vijayawada,Andhra Pradesh,16.5062,80.648,30.4,66,0.0,1001.5,8.9,37.4,56,20.8,15.8,3,5,4,1,2026-04-26T20:18:45.624433+05:30
Guntur,Andhra Pradesh,16.3067,80.4365,29.0,80,0.0,1002.8,8.95,40.7,81,22.6,17.9,7,5,4,1,2026-04-26T20:18:45.624440+05:30
Nellore,Andhra Pradesh,14.4426,79.9865,29.5,75,0.0,1004.4,9.1,43.9,81,19.0,13.9,7,5,4,1,2026-04-26T20:18:45.624447+05:30
Kurnool,Andhra Pradesh,15.8281,78.0373,36.0,23,0.0,974.5,9.2,33.8,151,45.6,38.0,0,5,10,0,2026-04-26T20:18:45.624455+05:30
Kakinada,Andhra Pradesh,16.9891,82.2475,29.1,79,0.0,1006.3,8.85,40.3,47,20.2,11.9,7,5,4,1,2026-04-26T20:18:45.624463+05:30
Tirupati,Andhra Pradesh,13.6288,79.4192,32.2,47,0.0,990.0,9.3,40.3,88,25.7,22.5,0,5,7,1,2026-04-26T20:18:45.624469+05:30
Warangal,Telangana,17.9689,79.5941,34.6,28,0.0,976.8,9.0,35.3,130,43.1,37.8,0,5,7,0,2026-04-26T20:18:45.624476+05:30
Nizamabad,Telangana,18.6725,78.0941,34.3,21,0.0,962.3,8.6,31.3,155,46.2,36.4,0,5,7,0,2026-04-26T20:18:45.624483+05:30
Mysore,Karnataka,12.2958,76.6396,29.8,39,0.0,927.8,9.45,40.0,151,48.5,38.2,4,5,7,0,2026-04-26T20:18:45.624490+05:30
Mangalore,Karnataka,12.9141,74.856,30.4,76,0.0,1005.7,9.05,39.2,80,35.0,27.4,3,5,4,1,2026-04-26T20:18:45.624497+05:30
Hubli-Dharwad,Karnataka,15.3647,75.124,28.0,66,0.0,940.2,8.85,45.7,150,37.7,34.7,7,5,7,1,2026-04-26T20:18:45.624505+05:30
Belgaum,Karnataka,15.8497,74.4977,25.8,86,0.0,925.4,8.85,48.2,155,36.0,31.8,7,5,7,1,2026-04-26T20:18:48.853926+05:30
Coimbatore,Tamil Nadu,11.0168,76.9558,30.4,58,0.0,960.8,9.35,39.6,132,35.6,30.3,0,5,7,1,2026-04-26T20:18:48.853958+05:30
Madurai,Tamil Nadu,9.9252,78.1198,32.5,49,0.0,992.4,9.25,37.4,76,12.4,11.9,0,5,7,1,2026-04-26T20:18:48.853968+05:30
Trichy,Tamil Nadu,10.7905,78.7047,32.0,52,0.0,998.8,9.25,30.6,55,15.5,14.8,0,5,7,1,2026-04-26T20:18:48.853977+05:30
Salem,Tamil Nadu,11.6643,78.146,33.2,34,0.0,976.1,9.35,41.8,101,21.1,19.1,0,5,7,0,2026-04-26T20:18:48.853985+05:30
Tirunelveli,Tamil Nadu,8.7139,77.7567,30.5,61,0.0,1002.9,9.2,37.4,82,11.7,11.2,3,5,4,1,2026-04-26T20:18:48.854014+05:30
Vellore,Tamil Nadu,12.9165,79.1325,31.5,54,0.0,983.6,9.3,34.6,91,31.5,28.9,0,5,7,1,2026-04-26T20:18:48.854023+05:30
Erode,Tamil Nadu,11.341,77.7172,34.8,26,0.0,987.4,9.3,39.2,86,20.6,18.7,0,5,7,0,2026-04-26T20:18:48.854031+05:30
Kochi,Kerala,9.9312,76.2673,30.3,73,0.0,1007.9,9.0,39.2,98,18.6,16.6,3,5,4,1,2026-04-26T20:18:48.854038+05:30
Thiruvananthapuram,Kerala,8.5241,76.9366,28.8,77,0.0,1007.7,8.8,32.4,56,11.5,8.6,7,5,4,1,2026-04-26T20:18:48.854045+05:30
Kozhikode,Kerala,11.2588,75.7804,28.9,83,0.0,1006.8,8.4,38.2,62,14.3,10.8,7,5,4,1,2026-04-26T20:18:48.854052+05:30
Thrissur,Kerala,10.5276,76.2144,29.2,80,0.0,1006.1,9.0,41.0,91,15.6,14.1,7,5,4,1,2026-04-26T20:18:48.854059+05:30
Kannur,Kerala,11.8745,75.3704,29.8,80,0.0,1006.1,9.0,39.6,70,22.4,17.4,7,5,4,1,2026-04-26T20:18:48.854066+05:30
Patna,Bihar,25.5941,85.1376,28.4,65,0.0,998.0,8.65,45.4,203,75.0,64.5,7,5,7,1,2026-04-26T20:18:48.854073+05:30
Gaya,Bihar,24.7914,85.0002,30.5,56,0.0,990.8,8.7,36.7,185,75.0,59.8,0,5,7,1,2026-04-26T20:18:48.854080+05:30
Muzaffarpur,Bihar,26.1209,85.3647,27.4,66,0.0,998.4,8.65,48.6,184,77.8,64.7,7,5,7,1,2026-04-26T20:18:48.854087+05:30
Bhagalpur,Bihar,25.2425,87.0117,27.5,70,0.0,999.9,8.6,40.3,154,46.2,41.0,7,5,7,1,2026-04-26T20:18:48.854094+05:30
Ranchi,Jharkhand,23.3441,85.3096,29.6,31,0.0,935.1,9.15,44.3,147,106.6,37.4,4,5,7,0,2026-04-26T20:18:48.854100+05:30
Jamshedpur,Jharkhand,22.8046,86.2029,30.9,72,0.0,987.3,8.85,37.8,197,56.2,38.5,3,5,7,1,2026-04-26T20:18:48.854107+05:30
Dhanbad,Jharkhand,23.7957,86.4304,28.8,68,0.0,977.1,8.95,42.5,172,111.3,60.5,7,5,7,1,2026-04-26T20:18:48.854114+05:30
Bokaro,Jharkhand,23.6693,86.1511,29.9,67,0.0,980.6,8.95,41.0,153,127.1,56.3,7,5,7,1,2026-04-26T20:18:48.854120+05:30
Bhubaneswar,Odisha,20.2961,85.8245,27.8,88,0.0,1000.9,9.1,50.4,53,17.1,12.2,7,5,4,1,2026-04-26T20:18:48.854127+05:30
Cuttack,Odisha,20.4625,85.8828,28.1,85,0.0,1002.4,9.1,47.2,53,17.1,12.2,7,5,4,1,2026-04-26T20:18:48.854134+05:30
Rourkela,Odisha,22.2604,84.8536,34.7,27,0.0,981.5,8.65,46.4,215,77.8,43.2,0,5,7,0,2026-04-26T20:18:48.854141+05:30
Raipur,Chhattisgarh,21.2514,81.6296,36.8,18,0.0,971.2,8.95,41.0,199,56.3,50.8,0,5,10,0,2026-04-26T20:18:48.854148+05:30
Bhilai,Chhattisgarh,21.1938,81.3509,36.3,19,0.0,971.7,9.0,44.3,176,48.1,41.8,0,5,10,0,2026-04-26T20:18:48.854154+05:30
Guwahati,Assam,26.1158,91.7086,21.9,96,0.0,1002.3,3.7,40.3,136,72.6,53.8,3,5,0,1,2026-04-26T20:18:48.854161+05:30
Agartala,Tripura,23.8315,91.2868,23.3,96,0.0,1005.4,8.8,32.0,99,44.8,33.8,3,5,4,1,2026-04-26T20:18:48.854168+05:30
Shillong,Meghalaya,25.5788,91.8933,15.5,95,0.0,855.1,4.65,45.4,131,76.1,46.8,3,10,3,0,2026-04-26T20:18:48.854176+05:30
Imphal,Manipur,24.817,93.9368,19.4,95,0.1,923.1,5.7,24.1,152,101.7,63.6,6,10,3,1,2026-04-26T20:18:48.854183+05:30
Aizawl,Mizoram,23.7271,92.7176,17.5,97,0.1,891.4,9.0,34.9,113,46.1,27.4,6,10,7,1,2026-04-26T20:18:48.854189+05:30
Kohima,Nagaland,25.6701,94.1077,17.4,88,0.0,854.7,6.95,32.0,151,73.6,45.6,3,10,7,0,2026-04-26T20:18:48.854196+05:30
Gangtok,Sikkim,27.3314,88.6138,14.2,96,0.3,835.7,6.75,41.0,125,45.3,26.2,6,10,7,0,2026-04-26T20:18:48.854203+05:30
Siliguri,West Bengal,26.7271,88.3953,21.9,84,0.0,993.0,8.4,33.1,126,69.4,43.2,3,5,7,1,2026-04-26T20:18:52.086216+05:30
Durgapur,West Bengal,23.5204,87.3119,27.2,85,0.0,992.3,8.85,35.6,163,31.3,29.9,7,5,7,1,2026-04-26T20:18:52.086248+05:30
Asansol,West Bengal,23.6739,86.9524,27.8,80,0.0,990.7,8.9,38.5,184,49.8,40.9,7,5,7,1,2026-04-26T20:18:52.086258+05:30
Pondicherry,Puducherry,11.9139,79.8145,29.4,79,0.0,1007.9,9.2,41.8,36,16.1,10.9,7,5,4,1,2026-04-26T20:18:52.086267+05:30
Port Blair,Andaman and Nicobar Islands,11.6234,92.7265,29.0,73,0.0,1007.3,9.1,35.3,58,18.8,14.1,7,5,4,1,2026-04-26T20:18:52.086275+05:30
Haridwar,Uttarakhand,29.9457,78.1642,29.5,27,0.0,968.6,7.2,54.0,102,43.8,16.1,4,5,7,0,2026-04-26T20:18:52.086283+05:30
Rishikesh,Uttarakhand,30.0869,78.2676,26.1,34,0.0,961.4,7.3,42.1,101,36.2,13.7,4,5,7,0,2026-04-26T20:18:52.086291+05:30
Nainital,Uttarakhand,29.3919,79.4542,17.8,40,0.0,803.7,8.15,54.4,109,67.3,19.2,0,5,7,0,2026-04-26T20:18:52.086298+05:30
Mussoorie,Uttarakhand,30.4599,78.0664,16.7,45,0.0,799.9,7.7,65.2,103,17.0,11.7,0,5,7,0,2026-04-26T20:18:52.086305+05:30
Dharamshala,Himachal Pradesh,32.219,76.3234,21.7,39,0.0,866.5,8.05,43.2,85,30.9,12.0,0,5,7,0,2026-04-26T20:18:52.086313+05:30
Dalhousie,Himachal Pradesh,32.5387,75.971,15.7,54,0.0,802.1,8.3,41.0,95,33.8,16.1,0,5,7,0,2026-04-26T20:18:52.086321+05:30
Patiala,Punjab,30.3398,76.3869,33.3,23,0.0,973.7,7.3,47.9,374,651.9,75.2,0,5,7,0,2026-04-26T20:18:52.086329+05:30
Bhatinda,Punjab,30.211,74.9455,35.1,19,0.0,979.3,8.0,37.8,104,70.3,23.2,0,5,10,0,2026-04-26T20:18:52.086336+05:30
Rohtak,Haryana,28.8955,76.6066,34.7,20,0.0,977.2,7.45,44.6,744,1072.9,132.2,0,5,7,0,2026-04-26T20:18:52.086343+05:30
Panipat,Haryana,29.3909,76.9635,34.2,18,0.0,975.6,7.25,48.6,1498,2168.1,238.0,0,5,7,0,2026-04-26T20:18:52.086351+05:30
Mathura,Uttar Pradesh,27.4924,77.6737,33.9,25,0.0,982.5,7.75,50.8,996,856.8,111.8,0,5,7,0,2026-04-26T20:18:52.086358+05:30
Vrindavan,Uttar Pradesh,27.5823,77.7027,33.8,25,0.0,982.8,7.7,47.9,996,856.8,111.8,0,5,7,0,2026-04-26T20:18:52.086366+05:30
Ayodhya,Uttar Pradesh,26.7922,82.1998,32.2,43,0.0,990.9,8.1,42.8,151,96.9,47.5,0,5,7,1,2026-04-26T20:18:52.086372+05:30
Ratlam,Madhya Pradesh,23.3315,75.0367,33.7,19,0.0,952.6,8.5,39.2,80,40.4,21.1,0,5,7,0,2026-04-26T20:18:52.086379+05:30
Sagar,Madhya Pradesh,23.8388,78.7378,32.6,25,0.0,949.0,8.65,41.4,82,56.8,21.0,0,5,7,0,2026-04-26T20:18:52.086386+05:30
Satna,Madhya Pradesh,24.6005,80.8322,35.3,20,0.0,968.4,8.65,50.0,101,80.8,27.9,0,5,10,0,2026-04-26T20:18:52.086393+05:30
Akola,Maharashtra,20.7002,77.0082,37.6,14,0.0,971.9,8.85,34.2,129,35.9,21.0,0,5,10,0,2026-04-26T20:18:52.086401+05:30
Amravati,Maharashtra,20.9374,77.7796,36.7,15,0.0,964.3,8.85,33.8,145,36.1,21.4,0,5,10,0,2026-04-26T20:18:52.086408+05:30
Latur,Maharashtra,18.4088,76.5604,34.5,18,0.0,938.0,8.95,26.6,158,32.7,25.8,0,5,7,0,2026-04-26T20:18:52.086416+05:30
Nanded,Maharashtra,19.1383,77.3091,34.6,21,0.0,965.5,9.0,29.9,134,31.4,23.2,0,5,7,0,2026-04-26T20:18:52.086422+05:30
Gulbarga,Karnataka,17.3297,76.8343,35.0,24,0.0,956.8,7.9,24.5,183,49.7,42.5,0,5,7,0,2026-04-26T20:18:52.086430+05:30
Bidar,Karnataka,17.9104,77.5199,32.5,32,0.0,934.3,7.95,33.8,174,53.1,45.5,0,5,7,0,2026-04-26T20:18:52.086437+05:30
Hospet,Karnataka,15.2689,76.3909,32.7,39,0.0,954.0,8.65,32.4,183,51.2,44.5,0,5,7,1,2026-04-26T20:18:52.086445+05:30
Tirupur,Tamil Nadu,11.1085,77.3411,34.8,26,0.0,973.7,9.4,29.9,110,26.1,22.6,0,5,7,0,2026-04-26T20:18:52.086452+05:30
Alappuzha,Kerala,9.4981,76.3388,28.9,84,0.0,1008.2,8.55,37.8,77,19.0,15.2,7,0,4,1,2026-04-26T20:18:52.086459+05:30
Munnar,Kerala,10.0889,77.0595,20.0,78,0.0,857.3,9.6,26.6,84,23.7,22.4,3,5,7,0,2026-04-26T20:18:52.086467+05:30
Silchar,Assam,24.8333,92.7789,23.9,91,0.1,1004.6,6.8,27.4,162,132.2,85.9,6,5,4,1,2026-04-26T20:18:52.086474+05:30
Dibrugarh,Assam,27.4728,94.912,21.8,93,0.0,996.3,5.15,20.5,90,62.2,41.9,3,5,3,1,2026-04-26T20:18:52.086482+05:30
