city,state,latitude,longitude,temp,humidity,rain,pressure,uv_index,wind_gusts,aqi,pm10,pm2_5,no2,co,o3,so2,mosquito_risk,arthritis_risk,migraine_risk,frizz_risk,updated_at
Delhi,Delhi,28.6139,77.209,32.2,47,0.0,979.4,7.8,38.2,405,657.5,158.8,37.0,437.0,50.0,17.3,0,5,7,1,2026-06-20T02:10:24.225706+05:30
Mumbai,Maharashtra,19.076,72.8777,29.7,65,0.0,1007.8,7.7,43.2,56,25.6,13.1,7.9,140.0,42.0,6.7,7,5,4,1,2026-06-20T02:10:24.225753+05:30
Bangalore,Karnataka,12.9716,77.5946,20.9,95,0.0,911.2,8.25,34.9,59,26.4,22.7,30.7,772.0,35.0,10.7,3,5,7,1,2026-06-20T02:10:24.225768+05:30
Hyderabad,Telangana,17.385,78.4867,29.4,48,0.0,952.2,6.7,37.1,77,42.7,35.6,33.4,548.0,37.0,10.1,4,5,7,1,2026-06-20T02:10:24.225778+05:30
Chennai,Tamil Nadu,13.0827,80.2707,26.5,84,0.0,1006.5,7.7,42.5,97,26.8,22.3,11.0,326.0,107.0,11.7,7,5,4,1,2026-06-20T02:10:24.225786+05:30
Kolkata,West Bengal,22.5726,88.3639,27.0,91,0.0,1003.1,8.75,32.4,107,32.9,30.0,10.5,402.0,91.0,8.0,7,5,4,1,2026-06-20T02:10:24.225793+05:30
Pune,Maharashtra,18.5204,73.8567,24.0,81,0.0,947.6,7.9,43.9,46,13.2,8.5,7.8,139.0,37.0,7.0,3,5,7,1,2026-06-20T02:10:24.225800+05:30
Ahmedabad,Gujarat,23.0225,72.5714,31.3,56,0.0,1000.1,8.1,40.3,66,31.2,17.6,6.7,174.0,46.0,4.0,0,5,4,1,2026-06-20T02:10:24.225806+05:30
Jaipur,Rajasthan,26.9124,75.7873,27.9,63,0.0,957.4,8.25,35.6,118,160.2,48.1,10.4,174.0,48.0,4.4,7,5,7,1,2026-06-20T02:10:24.225813+05:30
Lucknow,Uttar Pradesh,26.8467,80.9462,32.7,45,0.0,988.8,8.35,38.5,158,337.1,99.4,18.5,233.0,66.0,10.3,0,5,7,1,2026-06-20T02:10:24.225822+05:30
Kanpur,Uttar Pradesh,26.4499,80.3319,33.4,42,0.0,987.4,8.3,38.5,158,393.0,95.9,19.3,269.0,49.0,6.8,0,5,7,1,2026-06-20T02:10:24.225828+05:30
Chandigarh,Chandigarh,30.7333,76.7794,26.1,70,0.0,964.9,7.7,34.9,122,53.1,48.8,27.9,668.0,67.0,12.2,7,5,7,1,2026-06-20T02:10:24.225834+05:30
Srinagar,Jammu and Kashmir,34.0837,74.7973,15.1,98,0.0,841.7,7.95,29.5,68,26.1,25.7,28.4,983.0,8.0,0.8,3,10,7,0,2026-06-20T02:10:24.225841+05:30
Jammu,Jammu and Kashmir,32.7266,74.857,24.2,76,0.0,969.2,8.55,35.3,97,56.0,51.1,60.6,622.0,8.0,5.6,3,5,7,1,2026-06-20T02:10:24.225846+05:30
Amritsar,Punjab,31.634,74.8723,26.4,85,0.0,977.5,8.45,28.1,121,51.2,42.0,29.9,594.0,60.0,11.1,7,5,7,1,2026-06-20T02:10:24.225852+05:30
Ludhiana,Punjab,30.901,75.8573,28.2,70,0.0,975.3,8.0,36.7,151,97.6,50.6,18.5,711.0,69.0,8.0,7,5,7,1,2026-06-20T02:10:24.225859+05:30
Jalandhar,Punjab,31.326,75.5762,27.3,74,0.0,976.3,8.2,35.3,151,104.1,54.1,23.7,773.0,65.0,10.4,7,5,7,1,2026-06-20T02:10:24.225865+05:30
Dehradun,Uttarakhand,30.6284,78.0322,15.6,97,0.0,827.7,7.55,31.0,66,27.5,21.8,33.8,211.0,25.0,0.7,3,10,7,0,2026-06-20T02:10:24.225870+05:30
Shimla,Himachal Pradesh,31.1048,77.1734,11.3,97,0.0,780.1,8.0,35.6,81,56.0,43.7,16.5,290.0,79.0,3.4,3,10,7,0,2026-06-20T02:10:24.225876+05:30
Manali,Himachal Pradesh,32.2396,77.1887,14.7,81,0.0,816.9,9.6,41.0,42,3.4,3.4,20.2,278.0,105.0,0.0,3,10,7,0,2026-06-20T02:10:24.225884+05:30
Gurgaon,Haryana,28.4595,77.0266,29.8,59,0.0,977.8,7.9,37.4,503,599.8,129.9,45.5,833.0,31.0,16.1,4,5,7,1,2026-06-20T02:10:24.225889+05:30
Noida,Uttar Pradesh,28.5355,77.391,30.7,57,0.0,980.6,7.85,29.2,503,599.8,129.9,45.5,726.0,31.0,16.1,0,5,7,1,2026-06-20T02:10:24.225895+05:30
Ghaziabad,Uttar Pradesh,28.6692,77.4538,29.2,62,0.0,978.8,7.8,35.3,292,601.6,152.7,33.0,495.0,60.0,19.1,7,5,7,1,2026-06-20T02:10:24.225901+05:30
Faridabad,Haryana,28.4089,77.3178,32.1,48,0.0,980.1,7.85,38.9,503,599.8,129.9,45.5,792.0,31.0,16.1,0,5,7,1,2026-06-20T02:10:24.225906+05:30
Meerut,Uttar Pradesh,28.9845,77.7064,29.2,60,0.0,977.6,7.75,36.7,292,601.6,152.7,33.0,543.0,60.0,19.1,4,5,7,1,2026-06-20T02:10:24.225912+05:30
Agra,Uttar Pradesh,27.1767,78.0081,32.2,44,0.0,984.3,8.2,34.6,390,1341.1,170.9,17.6,235.0,47.0,5.3,0,5,7,1,2026-06-20T02:10:24.225918+05:30
Varanasi,Uttar Pradesh,25.3176,82.9739,30.6,62,0.0,992.9,8.8,37.1,107,55.6,40.3,23.7,269.0,44.0,13.2,3,5,7,1,2026-06-20T02:10:24.225925+05:30
Prayagraj,Uttar Pradesh,25.4358,81.8463,32.6,53,0.0,991.1,8.75,37.1,108,63.1,39.8,19.6,259.0,46.0,7.5,0,5,7,1,2026-06-20T02:10:24.225931+05:30
Gorakhpur,Uttar Pradesh,26.7606,83.3732,28.9,83,0.0,992.9,8.7,29.9,159,148.5,102.7,66.2,582.0,26.0,23.2,7,5,7,1,2026-06-20T02:10:24.225937+05:30
Bareilly,Uttar Pradesh,28.367,79.4304,29.9,59,0.0,982.2,8.15,33.8,155,216.5,102.2,28.8,428.0,63.0,14.6,4,5,7,1,2026-06-20T02:10:24.225944+05:30
Aligarh,Uttar Pradesh,27.8974,78.088,30.2,54,0.0,981.7,8.0,35.3,371,381.8,105.5,32.4,557.0,40.0,9.7,0,5,7,1,2026-06-20T02:10:24.225950+05:30
Moradabad,Uttar Pradesh,28.8386,78.7733,30.2,59,0.0,979.6,7.95,39.2,164,283.1,136.4,50.4,450.0,40.0,17.7,0,5,7,1,2026-06-20T02:10:24.225955+05:30
Saharanpur,Uttar Pradesh,29.9637,77.546,27.4,71,0.0,971.9,7.5,33.8,163,277.5,99.7,25.0,533.0,70.0,11.4,7,5,7,1,2026-06-20T02:10:24.225961+05:30
Jhansi,Uttar Pradesh,25.4484,78.5685,30.7,55,0.0,974.9,8.5,38.2,74,55.4,26.8,4.5,158.0,66.0,1.8,0,5,7,1,2026-06-20T02:10:27.727104+05:30
Surat,Gujarat,21.1702,72.8311,29.0,77,0.0,1005.5,7.6,46.4,66,25.6,16.2,17.5,256.0,33.0,29.5,7,5,4,1,2026-06-20T02:10:27.727136+05:30
Vadodara,Gujarat,22.3072,73.1812,28.9,78,0.0,1002.6,8.05,39.6,60,22.2,14.6,14.1,113.0,33.0,13.7,7,5,4,1,2026-06-20T02:10:27.727146+05:30
Rajkot,Gujarat,22.3039,70.8022,28.6,70,0.0,992.7,7.6,43.9,62,39.5,17.3,4.4,103.0,40.0,3.9,7,5,7,1,2026-06-20T02:10:27.727154+05:30
Thane,Maharashtra,19.2183,72.9781,29.7,65,0.0,1007.1,7.65,41.0,56,25.6,13.1,7.9,153.0,42.0,6.7,7,5,4,1,2026-06-20T02:10:27.727179+05:30
Nagpur,Maharashtra,21.1458,79.0882,32.0,36,0.0,971.1,8.9,43.2,76,28.9,21.8,16.3,253.0,51.0,7.8,0,5,7,0,2026-06-20T02:10:27.727188+05:30
Nashik,Maharashtra,19.9975,73.7898,24.1,84,0.0,944.8,8.05,45.4,48,19.1,11.3,7.2,117.0,40.0,5.5,3,5,7,1,2026-06-20T02:10:27.727196+05:30
Aurangabad,Maharashtra,19.8762,75.3433,27.4,56,0.0,943.7,9.0,39.6,47,14.9,10.4,6.6,124.0,56.0,6.3,4,5,7,1,2026-06-20T02:10:27.727204+05:30
Solapur,Maharashtra,17.6599,75.9064,29.0,52,0.0,956.6,8.9,34.6,52,11.3,8.4,5.2,123.0,55.0,2.4,4,5,7,1,2026-06-20T02:10:27.727212+05:30
Kolhapur,Maharashtra,16.705,74.2433,23.8,86,0.0,947.9,8.15,43.6,46,11.8,8.7,6.8,137.0,34.0,3.1,3,5,7,1,2026-06-20T02:10:27.727220+05:30
Goa,Goa,15.2993,74.124,25.5,87,0.0,998.2,8.6,31.3,57,28.5,20.8,8.6,528.0,38.0,2.4,7,5,7,1,2026-06-20T02:10:27.727228+05:30
Jodhpur,Rajasthan,26.2389,73.0243,30.3,56,0.0,980.2,8.4,36.7,104,105.9,30.3,7.9,128.0,47.0,2.3,0,5,7,1,2026-06-20T02:10:27.727236+05:30
Udaipur,Rajasthan,24.5854,73.7125,26.2,67,0.0,944.6,8.85,30.6,66,38.3,21.4,9.1,165.0,51.0,7.1,7,5,7,1,2026-06-20T02:10:27.727243+05:30
Kota,Rajasthan,25.2138,75.8648,29.3,65,0.0,976.4,8.4,29.5,69,28.6,19.7,10.4,171.0,46.0,4.8,7,5,7,1,2026-06-20T02:10:27.727250+05:30
Bikaner,Rajasthan,28.0229,73.3119,30.0,53,0.0,978.3,8.5,30.2,115,130.9,38.6,4.8,132.0,50.0,2.8,4,5,7,1,2026-06-20T02:10:27.727257+05:30
Ajmer,Rajasthan,26.4499,74.6399,27.7,66,0.0,952.4,8.4,41.8,89,41.4,23.5,9.8,148.0,47.0,4.2,7,5,7,1,2026-06-20T02:10:27.727264+05:30
Gwalior,Madhya Pradesh,26.2183,78.1828,31.0,54,0.0,980.2,8.3,37.8,92,58.7,27.5,5.0,143.0,66.0,1.9,0,5,7,1,2026-06-20T02:10:27.727272+05:30
Indore,Madhya Pradesh,22.7196,75.8577,27.5,55,0.0,947.0,7.45,40.0,62,35.6,24.3,8.5,222.0,69.0,7.6,4,5,7,1,2026-06-20T02:10:27.727278+05:30
Bhopal,Madhya Pradesh,23.2599,77.4126,26.4,66,0.0,951.9,8.7,40.3,64,21.7,17.2,7.1,207.0,57.0,3.1,7,5,7,1,2026-06-20T02:10:27.727285+05:30
Jabalpur,Madhya Pradesh,23.1815,79.9864,28.8,58,0.0,959.4,8.75,29.2,66,21.8,15.8,8.9,201.0,67.0,4.3,4,5,7,1,2026-06-20T02:10:27.727292+05:30
Ujjain,Madhya Pradesh,23.1765,75.7885,27.6,58,0.0,952.5,7.8,36.0,63,34.1,23.4,6.3,208.0,69.0,8.0,4,5,7,1,2026-06-20T02:10:27.727300+05:30
Visakhapatnam,Andhra Pradesh,17.6868,83.2185,29.1,91,0.0,1001.4,4.05,33.1,98,34.5,29.6,31.0,334.0,80.0,37.7,7,5,0,1,2026-06-20T02:10:27.727307+05:30
Vijayawada,Andhra Pradesh,16.5062,80.648,29.2,80,0.0,1000.2,8.8,31.3,82,27.6,23.4,7.7,283.0,91.0,5.3,7,5,4,1,2026-06-20T02:10:27.727314+05:30
Guntur,Andhra Pradesh,16.3067,80.4365,30.0,65,0.0,1001.4,8.35,31.7,78,26.4,22.5,9.3,267.0,86.0,5.6,7,5,4,1,2026-06-20T02:10:27.727321+05:30
Nellore,Andhra Pradesh,14.4426,79.9865,26.8,89,0.2,1004.6,7.75,32.0,83,29.3,26.1,9.2,228.0,105.0,13.7,10,5,4,1,2026-06-20T02:10:27.727329+05:30
Kurnool,Andhra Pradesh,15.8281,78.0373,28.8,58,0.0,975.7,8.25,41.4,71,43.0,35.0,27.4,282.0,51.0,11.5,4,5,7,1,2026-06-20T02:10:27.727337+05:30
Kakinada,Andhra Pradesh,16.9891,82.2475,28.6,82,0.0,1005.2,7.75,34.6,78,26.4,20.0,4.2,346.0,111.0,3.8,7,5,4,1,2026-06-20T02:10:27.727344+05:30
Tirupati,Andhra Pradesh,13.6288,79.4192,26.7,77,0.0,990.4,5.9,35.3,74,24.7,21.7,14.4,288.0,71.0,5.1,7,5,3,1,2026-06-20T02:10:27.727351+05:30
Warangal,Telangana,17.9689,79.5941,29.3,62,0.0,977.0,7.95,25.6,87,47.7,40.7,28.2,528.0,28.0,5.9,7,5,7,1,2026-06-20T02:10:27.727357+05:30
Nizamabad,Telangana,18.6725,78.0941,30.9,45,0.0,963.0,8.8,35.3,70,49.7,40.3,28.3,484.0,44.0,6.0,0,5,7,1,2026-06-20T02:10:27.727364+05:30
Mysore,Karnataka,12.2958,76.6396,21.8,94,0.0,928.4,8.1,31.3,50,21.9,18.0,28.0,253.0,18.0,3.5,3,5,7,1,2026-06-20T02:10:27.727371+05:30
Mangalore,Karnataka,12.9141,74.856,24.8,96,0.0,1007.1,7.4,35.3,59,44.5,33.2,26.6,435.0,18.0,7.6,3,5,4,1,2026-06-20T02:10:27.727378+05:30
Hubli-Dharwad,Karnataka,15.3647,75.124,22.8,91,0.0,941.0,8.8,47.9,48,12.5,7.9,5.6,138.0,36.0,1.8,3,5,7,1,2026-06-20T02:10:27.727385+05:30
Belgaum,Karnataka,15.8497,74.4977,21.3,98,0.0,925.6,8.4,38.5,49,16.6,12.3,8.6,118.0,29.0,2.1,3,5,7,1,2026-06-20T02:10:31.060805+05:30
Coimbatore,Tamil Nadu,11.0168,76.9558,24.1,89,0.0,961.6,8.75,41.4,37,16.9,13.3,20.0,345.0,21.0,4.3,3,5,7,1,2026-06-20T02:10:31.060838+05:30
Madurai,Tamil Nadu,9.9252,78.1198,27.0,90,0.0,992.9,8.75,29.2,56,22.5,20.8,40.5,526.0,8.0,6.7,7,5,7,1,2026-06-20T02:10:31.060849+05:30
Trichy,Tamil Nadu,10.7905,78.7047,26.5,90,0.0,999.5,8.7,31.0,47,19.5,17.0,20.2,216.0,41.0,3.9,7,5,7,1,2026-06-20T02:10:31.060859+05:30
Salem,Tamil Nadu,11.6643,78.146,24.6,93,0.0,977.1,8.15,20.5,60,37.3,33.8,35.1,433.0,50.0,12.1,3,5,7,1,2026-06-20T02:10:31.060867+05:30
Tirunelveli,Tamil Nadu,8.7139,77.7567,27.7,75,0.0,1003.2,8.65,22.3,51,27.1,20.5,13.8,315.0,40.0,3.8,7,5,4,1,2026-06-20T02:10:31.060875+05:30
Vellore,Tamil Nadu,12.9165,79.1325,25.8,78,0.0,983.9,7.7,34.9,70,21.9,19.8,13.6,233.0,68.0,5.1,7,5,7,1,2026-06-20T02:10:31.060883+05:30
Erode,Tamil Nadu,11.341,77.7172,24.9,93,0.0,989.2,8.6,28.1,52,34.2,30.3,45.3,474.0,12.0,6.2,3,5,7,1,2026-06-20T02:10:31.060891+05:30
Kochi,Kerala,9.9312,76.2673,26.0,96,0.0,1009.2,8.55,34.9,68,43.3,32.9,36.8,101.0,13.0,9.7,7,0,4,1,2026-06-20T02:10:31.060898+05:30
Thiruvananthapuram,Kerala,8.5241,76.9366,24.2,93,0.0,1008.9,8.4,35.3,59,33.3,14.5,2.9,405.0,55.0,1.6,3,0,4,1,2026-06-20T02:10:31.060905+05:30
Kozhikode,Kerala,11.2588,75.7804,25.7,93,0.0,1008.3,7.8,31.3,51,30.4,14.0,2.3,236.0,55.0,1.5,7,0,4,1,2026-06-20T02:10:31.060912+05:30
Thrissur,Kerala,10.5276,76.2144,24.8,94,0.0,1007.5,8.45,34.2,70,52.5,42.6,33.3,636.0,15.0,8.7,3,5,4,1,2026-06-20T02:10:31.060921+05:30
Kannur,Kerala,11.8745,75.3704,25.6,93,0.0,1007.5,7.55,32.0,59,41.7,30.9,26.4,774.0,19.0,5.0,7,5,4,1,2026-06-20T02:10:31.060928+05:30
Patna,Bihar,25.5941,85.1376,29.7,66,0.0,995.9,8.8,30.6,155,90.6,69.4,29.0,582.0,57.0,15.3,7,5,7,1,2026-06-20T02:10:31.060936+05:30
Gaya,Bihar,24.7914,85.0002,29.4,68,0.0,990.0,8.95,28.1,133,53.0,36.4,10.1,219.0,74.0,8.9,7,5,7,1,2026-06-20T02:10:31.060943+05:30
Muzaffarpur,Bihar,26.1209,85.3647,28.2,86,0.0,996.1,8.9,34.9,154,81.5,66.4,17.6,461.0,89.0,14.9,7,5,7,1,2026-06-20T02:10:31.060950+05:30
Bhagalpur,Bihar,25.2425,87.0117,28.6,88,0.0,997.3,8.7,22.7,159,73.1,68.9,17.9,446.0,75.0,32.2,7,5,7,1,2026-06-20T02:10:31.060957+05:30
Ranchi,Jharkhand,23.3441,85.3096,24.8,84,0.0,934.9,8.9,39.6,133,44.2,39.8,13.8,319.0,85.0,8.5,3,5,7,1,2026-06-20T02:10:31.060964+05:30
Jamshedpur,Jharkhand,22.8046,86.2029,27.2,87,0.0,988.0,9.1,32.0,152,61.9,58.3,27.1,527.0,60.0,28.5,7,5,7,1,2026-06-20T02:10:31.060971+05:30
Dhanbad,Jharkhand,23.7957,86.4304,27.5,89,0.0,976.4,8.7,22.7,161,78.0,75.4,52.2,761.0,56.0,140.8,7,5,7,1,2026-06-20T02:10:31.060978+05:30
Bokaro,Jharkhand,23.6693,86.1511,27.3,90,0.0,980.1,8.85,25.9,155,67.8,64.7,41.1,437.0,63.0,103.3,7,5,7,1,2026-06-20T02:10:31.060985+05:30
Bhubaneswar,Odisha,20.2961,85.8245,26.3,95,0.0,1000.3,8.8,33.8,86,28.7,26.7,7.7,223.0,117.0,7.1,7,5,4,1,2026-06-20T02:10:31.060992+05:30
Cuttack,Odisha,20.4625,85.8828,26.7,93,0.0,1001.8,9.15,28.1,86,28.7,26.7,7.7,307.0,117.0,7.1,7,5,4,1,2026-06-20T02:10:31.060999+05:30
Rourkela,Odisha,22.2604,84.8536,25.7,92,0.0,982.4,6.35,38.5,151,75.7,71.5,28.1,329.0,75.0,19.7,7,5,7,1,2026-06-20T02:10:31.061006+05:30
Raipur,Chhattisgarh,21.2514,81.6296,28.8,77,0.0,972.2,1.2,27.7,106,62.2,54.1,51.5,492.0,22.0,41.2,7,5,3,1,2026-06-20T02:10:31.061013+05:30
Bhilai,Chhattisgarh,21.1938,81.3509,28.4,80,0.0,972.7,6.95,36.4,107,63.8,54.9,57.8,725.0,28.0,53.5,7,5,7,1,2026-06-20T02:10:31.061020+05:30
Guwahati,Assam,26.1158,91.7086,25.6,95,0.1,998.9,8.7,25.9,100,53.4,43.7,9.4,385.0,75.0,4.7,10,5,7,1,2026-06-20T02:10:31.061028+05:30
Agartala,Tripura,23.8315,91.2868,25.2,93,0.0,1004.3,8.65,32.8,87,28.5,23.3,9.4,187.0,66.0,2.2,7,5,4,1,2026-06-20T02:10:31.061035+05:30
Shillong,Meghalaya,25.5788,91.8933,18.6,93,0.0,855.4,6.35,31.0,55,18.4,14.0,4.6,247.0,95.0,4.1,3,10,7,1,2026-06-20T02:10:31.061042+05:30
Imphal,Manipur,24.817,93.9368,22.3,96,0.0,921.5,9.05,37.1,56,20.9,18.4,9.5,477.0,45.0,2.5,3,5,7,1,2026-06-20T02:10:31.061049+05:30
Aizawl,Mizoram,23.7271,92.7176,19.0,98,0.0,890.9,8.3,35.6,47,8.3,6.6,3.1,167.0,58.0,1.3,3,10,7,1,2026-06-20T02:10:31.061056+05:30
Kohima,Nagaland,25.6701,94.1077,18.5,95,0.0,853.4,8.3,32.4,42,6.9,4.9,3.8,338.0,68.0,1.2,3,10,7,1,2026-06-20T02:10:31.061063+05:30
Gangtok,Sikkim,27.3314,88.6138,17.8,95,0.5,835.7,8.85,33.1,78,16.4,14.0,5.7,387.0,129.0,6.6,6,10,7,1,2026-06-20T02:10:31.061070+05:30
Siliguri,West Bengal,26.7271,88.3953,24.5,98,0.1,990.8,7.2,19.4,101,64.7,54.5,11.0,518.0,104.0,8.9,6,5,7,1,2026-06-20T02:10:34.398536+05:30
Durgapur,West Bengal,23.5204,87.3119,26.2,89,0.0,991.8,9.0,32.0,161,78.9,76.6,37.6,963.0,54.0,54.4,7,5,7,1,2026-06-20T02:10:34.398572+05:30
Asansol,West Bengal,23.6739,86.9524,27.2,86,0.0,990.2,9.05,25.6,160,69.4,67.1,39.7,552.0,56.0,69.1,7,5,7,1,2026-06-20T02:10:34.398585+05:30
Pondicherry,Puducherry,11.9139,79.8145,25.7,95,0.0,1007.9,8.05,37.4,72,18.2,15.4,13.1,298.0,81.0,14.4,7,5,4,1,2026-06-20T02:10:34.398595+05:30
Port Blair,Andaman and Nicobar Islands,11.6234,92.7265,26.6,87,0.0,1007.5,8.75,39.2,27,11.9,5.7,0.2,90.0,43.0,0.4,7,5,4,1,2026-06-20T02:10:34.398605+05:30
Haridwar,Uttarakhand,29.9457,78.1642,26.5,85,0.0,969.9,7.65,25.9,151,160.2,84.3,40.4,495.0,54.0,14.7,7,5,7,1,2026-06-20T02:10:34.398614+05:30
Rishikesh,Uttarakhand,30.0869,78.2676,24.3,84,0.0,962.7,7.7,29.2,125,51.6,42.0,15.7,458.0,108.0,6.9,3,5,7,1,2026-06-20T02:10:34.398621+05:30
Nainital,Uttarakhand,29.3919,79.4542,14.9,92,0.0,802.9,6.85,31.3,109,40.9,36.4,19.9,365.0,58.0,3.2,3,10,7,0,2026-06-20T02:10:34.398630+05:30
Mussoorie,Uttarakhand,30.4599,78.0664,14.4,99,0.0,800.3,7.35,42.1,105,53.9,50.3,41.5,318.0,59.0,9.1,3,10,7,0,2026-06-20T02:10:34.398637+05:30
Dharamshala,Himachal Pradesh,32.219,76.3234,20.1,82,0.0,867.1,8.4,42.8,45,13.0,9.2,9.2,324.0,90.0,0.2,3,5,7,1,2026-06-20T02:10:34.398645+05:30
Dalhousie,Himachal Pradesh,32.5387,75.971,13.6,92,0.0,801.4,8.65,31.7,74,32.8,29.1,38.3,329.0,22.0,0.9,3,10,7,0,2026-06-20T02:10:34.398653+05:30
Patiala,Punjab,30.3398,76.3869,28.2,70,0.0,974.4,7.7,34.6,324,758.1,142.0,15.6,457.0,69.0,8.5,7,5,7,1,2026-06-20T02:10:34.398661+05:30
Bhatinda,Punjab,30.211,74.9455,29.3,63,0.0,980.2,8.3,32.4,130,58.9,43.3,28.9,388.0,42.0,5.3,7,5,7,1,2026-06-20T02:10:34.398668+05:30
Rohtak,Haryana,28.8955,76.6066,28.3,68,0.0,977.9,7.8,33.5,543,586.7,142.5,44.1,391.0,34.0,8.8,7,5,7,1,2026-06-20T02:10:34.398675+05:30
Panipat,Haryana,29.3909,76.9635,28.4,66,0.0,976.6,7.65,32.0,1085,1613.1,267.3,19.3,469.0,75.0,9.6,7,5,7,1,2026-06-20T02:10:34.398682+05:30
Mathura,Uttar Pradesh,27.4924,77.6737,30.1,55,0.0,983.0,8.1,33.5,204,618.4,98.7,31.4,284.0,31.0,5.9,0,5,7,1,2026-06-20T02:10:34.398689+05:30
Vrindavan,Uttar Pradesh,27.5823,77.7027,29.9,56,0.0,983.4,8.1,32.4,204,618.4,98.7,31.4,280.0,31.0,5.9,4,5,7,1,2026-06-20T02:10:34.398696+05:30
Ayodhya,Uttar Pradesh,26.7922,82.1998,30.6,68,0.0,990.3,8.45,32.8,154,142.5,67.5,28.7,438.0,43.0,9.0,3,5,7,1,2026-06-20T02:10:34.398703+05:30
Ratlam,Madhya Pradesh,23.3315,75.0367,26.5,60,0.0,953.5,7.75,40.0,62,24.6,17.6,6.4,151.0,63.0,10.2,4,5,7,1,2026-06-20T02:10:34.398710+05:30
Sagar,Madhya Pradesh,23.8388,78.7378,26.7,69,0.0,948.2,8.75,39.2,58,24.2,17.9,6.0,185.0,70.0,2.8,7,5,7,1,2026-06-20T02:10:34.398717+05:30
Satna,Madhya Pradesh,24.6005,80.8322,30.5,55,0.0,968.2,8.85,34.9,77,28.8,21.1,12.3,174.0,54.0,3.8,0,5,7,1,2026-06-20T02:10:34.398724+05:30
Akola,Maharashtra,20.7002,77.0082,31.5,42,0.0,973.9,8.85,40.0,56,22.1,14.9,10.0,164.0,64.0,5.6,0,5,7,1,2026-06-20T02:10:34.398732+05:30
Amravati,Maharashtra,20.9374,77.7796,30.4,46,0.0,966.0,8.85,40.0,57,22.3,15.0,12.0,268.0,56.0,4.8,0,5,7,1,2026-06-20T02:10:34.398740+05:30
Latur,Maharashtra,18.4088,76.5604,29.1,45,0.0,938.9,8.9,32.4,56,13.8,10.7,6.5,205.0,69.0,3.4,4,5,7,0,2026-06-20T02:10:34.398747+05:30
Nanded,Maharashtra,19.1383,77.3091,31.4,41,0.0,966.6,8.65,31.7,65,46.1,38.5,37.2,463.0,28.0,8.1,0,5,7,1,2026-06-20T02:10:34.398755+05:30
Gulbarga,Karnataka,17.3297,76.8343,29.4,48,0.0,957.8,8.4,35.3,58,20.7,16.6,16.8,174.0,49.0,3.3,4,5,7,1,2026-06-20T02:10:34.398762+05:30
Bidar,Karnataka,17.9104,77.5199,28.4,50,0.0,934.0,8.0,34.9,75,44.0,37.5,43.2,343.0,27.0,6.6,4,5,7,1,2026-06-20T02:10:34.398769+05:30
Hospet,Karnataka,15.2689,76.3909,25.7,75,0.0,956.1,8.9,40.0,52,16.8,11.3,6.9,154.0,45.0,2.2,7,5,7,1,2026-06-20T02:10:34.398776+05:30
Tirupur,Tamil Nadu,11.1085,77.3411,24.8,89,0.0,975.1,8.8,41.8,55,33.5,30.3,43.5,228.0,12.0,8.0,3,5,7,1,2026-06-20T02:10:34.398783+05:30
Alappuzha,Kerala,9.4981,76.3388,27.0,88,0.0,1009.3,8.5,34.2,59,37.6,23.5,15.7,88.0,37.0,4.2,7,0,4,1,2026-06-20T02:10:34.398790+05:30
Munnar,Kerala,10.0889,77.0595,15.4,90,0.0,855.3,8.95,32.4,19,11.8,10.2,16.2,165.0,12.0,1.5,3,10,7,0,2026-06-20T02:10:34.398798+05:30
Silchar,Assam,24.8333,92.7789,25.5,97,0.0,1003.5,8.3,30.6,81,26.5,21.1,7.8,278.0,87.0,4.6,7,5,4,1,2026-06-20T02:10:34.398805+05:30
Dibrugarh,Assam,27.4728,94.912,24.3,98,0.0,993.0,7.95,21.6,65,18.2,16.0,6.6,273.0,87.0,1.6,3,5,7,1,2026-06-20T02:10:34.398812+05:30
