city,state,latitude,longitude,temp,humidity,rain,pressure,uv_index,wind_gusts,aqi,pm10,pm2_5,mosquito_risk,arthritis_risk,migraine_risk,frizz_risk,updated_at
Delhi,Delhi,28.6139,77.209,30.8,35,0.0,980.9,6.8,24.8,211,374.4,75.0,0,5,7,0,2026-04-19T01:12:53.760172+05:30
Mumbai,Maharashtra,19.076,72.8777,30.1,76,0.0,1006.9,6.6,23.4,90,55.8,26.0,3,5,4,1,2026-04-19T01:12:53.760220+05:30
Bangalore,Karnataka,12.9716,77.5946,25.2,54,0.0,911.3,9.6,25.6,95,26.0,22.9,4,5,7,0,2026-04-19T01:12:53.760236+05:30
Hyderabad,Telangana,17.385,78.4867,28.0,59,0.0,952.5,9.3,53.3,97,39.9,35.5,4,5,7,1,2026-04-19T01:12:53.760246+05:30
Chennai,Tamil Nadu,13.0827,80.2707,27.8,86,0.0,1006.7,9.3,34.2,36,11.8,7.4,7,5,4,1,2026-04-19T01:12:53.760259+05:30
Kolkata,West Bengal,22.5726,88.3639,27.4,91,0.0,1004.2,8.9,29.5,78,22.1,17.2,7,5,4,1,2026-04-19T01:12:53.760270+05:30
Pune,Maharashtra,18.5204,73.8567,28.0,80,0.0,948.0,8.55,32.0,135,44.2,35.7,7,5,7,1,2026-04-19T01:12:53.760278+05:30
Ahmedabad,Gujarat,23.0225,72.5714,28.7,36,0.0,1001.0,8.05,24.8,62,26.3,18.0,4,5,4,0,2026-04-19T01:12:53.760286+05:30
Jaipur,Rajasthan,26.9124,75.7873,30.2,25,0.0,958.5,7.7,39.2,196,136.4,35.6,0,5,7,0,2026-04-19T01:12:53.760293+05:30
Lucknow,Uttar Pradesh,26.8467,80.9462,28.3,58,0.0,990.5,7.85,28.4,115,264.5,58.7,4,5,7,1,2026-04-19T01:12:53.760302+05:30
Kanpur,Uttar Pradesh,26.4499,80.3319,26.9,60,0.0,988.7,7.9,22.3,144,330.6,68.0,4,5,7,1,2026-04-19T01:12:53.760330+05:30
Chandigarh,Chandigarh,30.7333,76.7794,25.3,50,0.0,967.2,6.25,27.0,61,34.9,27.1,4,5,7,0,2026-04-19T01:12:53.760339+05:30
Srinagar,Jammu and Kashmir,34.0837,74.7973,11.0,91,0.0,844.3,7.0,17.3,76,56.6,30.3,3,10,7,0,2026-04-19T01:12:53.760347+05:30
Jammu,Jammu and Kashmir,32.7266,74.857,24.3,47,0.0,972.3,5.5,42.8,65,33.6,23.1,0,5,3,0,2026-04-19T01:12:53.760355+05:30
Amritsar,Punjab,31.634,74.8723,23.3,54,0.0,979.9,6.75,32.4,66,45.2,31.1,0,5,7,0,2026-04-19T01:12:53.760362+05:30
Ludhiana,Punjab,30.901,75.8573,26.0,52,0.0,977.1,6.75,30.6,75,101.5,60.3,4,5,7,0,2026-04-19T01:12:53.760372+05:30
Jalandhar,Punjab,31.326,75.5762,24.5,56,0.0,978.5,7.2,32.0,72,65.7,34.2,0,5,7,0,2026-04-19T01:12:53.760380+05:30
Dehradun,Uttarakhand,30.6284,78.0322,17.5,40,0.0,831.0,6.15,38.5,39,20.8,12.2,0,5,7,0,2026-04-19T01:12:53.760386+05:30
Shimla,Himachal Pradesh,31.1048,77.1734,15.5,48,0.0,785.2,5.8,41.4,51,31.8,16.8,0,5,3,0,2026-04-19T01:12:53.760393+05:30
Manali,Himachal Pradesh,32.2396,77.1887,16.5,36,0.0,822.6,7.95,43.6,49,14.6,6.5,0,5,7,0,2026-04-19T01:12:53.760401+05:30
Gurgaon,Haryana,28.4595,77.0266,25.6,54,0.0,979.0,6.85,23.4,480,474.0,88.7,4,5,7,0,2026-04-19T01:12:53.760408+05:30
Noida,Uttar Pradesh,28.5355,77.391,29.5,40,0.0,982.2,6.35,24.8,480,474.0,88.7,4,5,7,0,2026-04-19T01:12:53.760415+05:30
Ghaziabad,Uttar Pradesh,28.6692,77.4538,27.3,48,0.0,980.4,6.65,26.3,154,309.2,67.5,4,5,7,0,2026-04-19T01:12:53.760423+05:30
Faridabad,Haryana,28.4089,77.3178,27.8,45,0.0,981.4,5.95,24.1,480,474.0,88.7,4,5,3,0,2026-04-19T01:12:53.760431+05:30
Meerut,Uttar Pradesh,28.9845,77.7064,26.0,54,0.0,979.3,6.0,27.7,154,309.2,67.5,4,5,3,0,2026-04-19T01:12:53.760439+05:30
Agra,Uttar Pradesh,27.1767,78.0081,27.0,54,0.0,985.0,7.75,30.2,389,890.3,99.4,4,5,7,1,2026-04-19T01:12:53.760448+05:30
Varanasi,Uttar Pradesh,25.3176,82.9739,27.7,49,0.0,994.5,8.5,27.7,114,101.3,46.9,4,5,7,0,2026-04-19T01:12:53.760455+05:30
Prayagraj,Uttar Pradesh,25.4358,81.8463,29.2,49,0.0,993.4,8.35,24.5,99,123.4,37.6,4,5,7,1,2026-04-19T01:12:53.760462+05:30
Gorakhpur,Uttar Pradesh,26.7606,83.3732,27.2,78,0.0,994.6,8.3,28.8,137,88.9,40.4,7,5,7,1,2026-04-19T01:12:53.760470+05:30
Bareilly,Uttar Pradesh,28.367,79.4304,24.8,59,0.0,984.2,7.3,27.7,81,92.2,39.6,0,5,7,1,2026-04-19T01:12:53.760476+05:30
Aligarh,Uttar Pradesh,27.8974,78.088,28.4,43,0.0,983.1,7.45,28.4,243,271.9,91.3,4,5,7,0,2026-04-19T01:12:53.760483+05:30
Moradabad,Uttar Pradesh,28.8386,78.7733,24.9,62,0.0,981.3,6.75,22.7,98,129.5,51.7,3,5,7,1,2026-04-19T01:12:53.760492+05:30
Saharanpur,Uttar Pradesh,29.9637,77.546,23.4,66,0.0,973.8,6.9,40.7,104,99.9,57.6,3,5,7,1,2026-04-19T01:12:53.760498+05:30
Jhansi,Uttar Pradesh,25.4484,78.5685,28.8,50,0.0,975.9,8.25,32.0,89,65.7,30.2,4,5,7,1,2026-04-19T01:12:57.100207+05:30
Surat,Gujarat,21.1702,72.8311,28.8,74,0.0,1005.3,7.85,27.4,111,40.2,25.7,7,5,4,1,2026-04-19T01:12:57.100237+05:30
Vadodara,Gujarat,22.3072,73.1812,28.7,66,0.0,1002.9,8.05,28.1,95,58.3,46.9,7,5,4,1,2026-04-19T01:12:57.100246+05:30
Rajkot,Gujarat,22.3039,70.8022,25.6,62,0.0,994.2,7.65,24.5,55,20.5,11.5,7,5,7,1,2026-04-19T01:12:57.100254+05:30
Thane,Maharashtra,19.2183,72.9781,27.8,82,0.0,1006.5,6.2,35.6,90,55.8,26.0,7,5,4,1,2026-04-19T01:12:57.100261+05:30
Nagpur,Maharashtra,21.1458,79.0882,29.5,56,0.0,971.9,8.9,23.4,88,31.2,28.8,4,5,7,1,2026-04-19T01:12:57.100268+05:30
Nashik,Maharashtra,19.9975,73.7898,26.6,70,0.0,945.2,8.25,28.8,101,39.8,29.4,7,5,7,1,2026-04-19T01:12:57.100274+05:30
Aurangabad,Maharashtra,19.8762,75.3433,29.5,26,0.0,943.0,9.05,23.8,79,25.9,19.3,4,5,7,0,2026-04-19T01:12:57.100281+05:30
Solapur,Maharashtra,17.6599,75.9064,28.6,60,0.0,956.0,9.0,57.2,127,52.5,46.8,4,5,7,1,2026-04-19T01:12:57.100288+05:30
Kolhapur,Maharashtra,16.705,74.2433,25.0,88,0.0,946.9,9.05,38.2,97,51.6,37.6,7,5,7,1,2026-04-19T01:12:57.100295+05:30
Goa,Goa,15.2993,74.124,28.1,83,0.0,996.6,9.05,29.5,79,68.5,33.2,7,5,7,1,2026-04-19T01:12:57.100301+05:30
Jodhpur,Rajasthan,26.2389,73.0243,28.7,35,0.0,982.1,7.6,29.2,98,147.6,22.1,4,5,7,0,2026-04-19T01:12:57.100308+05:30
Udaipur,Rajasthan,24.5854,73.7125,27.3,31,0.0,946.4,8.5,33.8,48,17.8,8.8,4,5,7,0,2026-04-19T01:12:57.100336+05:30
Kota,Rajasthan,25.2138,75.8648,29.6,37,0.0,976.9,8.2,31.3,84,82.9,40.3,4,5,7,0,2026-04-19T01:12:57.100343+05:30
Bikaner,Rajasthan,28.0229,73.3119,31.0,22,0.0,980.4,8.0,32.4,78,253.3,45.6,0,5,7,0,2026-04-19T01:12:57.100349+05:30
Ajmer,Rajasthan,26.4499,74.6399,29.1,30,0.0,954.2,6.95,33.5,63,74.3,15.9,4,5,7,0,2026-04-19T01:12:57.100356+05:30
Gwalior,Madhya Pradesh,26.2183,78.1828,29.6,48,0.0,980.9,7.3,37.4,120,58.6,21.0,4,5,7,1,2026-04-19T01:12:57.100362+05:30
Indore,Madhya Pradesh,22.7196,75.8577,26.0,52,0.0,947.2,8.6,31.0,55,31.9,28.9,4,5,7,0,2026-04-19T01:12:57.100368+05:30
Bhopal,Madhya Pradesh,23.2599,77.4126,27.9,35,0.0,952.6,8.6,30.6,64,24.4,22.9,4,5,7,0,2026-04-19T01:12:57.100375+05:30
Jabalpur,Madhya Pradesh,23.1815,79.9864,28.3,51,0.0,959.4,8.75,28.8,74,19.6,16.9,4,5,7,1,2026-04-19T01:12:57.100381+05:30
Ujjain,Madhya Pradesh,23.1765,75.7885,26.2,52,0.0,952.8,8.5,31.7,58,24.5,19.4,4,5,7,0,2026-04-19T01:12:57.100389+05:30
Visakhapatnam,Andhra Pradesh,17.6868,83.2185,27.5,90,0.0,1002.9,9.2,38.9,61,19.3,13.7,7,5,4,1,2026-04-19T01:12:57.100402+05:30
Vijayawada,Andhra Pradesh,16.5062,80.648,27.5,87,0.0,1002.1,9.25,27.4,57,13.4,10.3,7,5,4,1,2026-04-19T01:12:57.100415+05:30
Guntur,Andhra Pradesh,16.3067,80.4365,27.5,88,0.0,1003.2,9.25,31.0,60,13.9,10.7,7,5,4,1,2026-04-19T01:12:57.100422+05:30
Nellore,Andhra Pradesh,14.4426,79.9865,27.6,83,0.0,1005.0,9.3,36.4,52,9.9,7.3,7,5,4,1,2026-04-19T01:12:57.100429+05:30
Kurnool,Andhra Pradesh,15.8281,78.0373,32.6,52,0.0,975.3,9.25,25.6,89,27.5,24.7,0,5,7,1,2026-04-19T01:12:57.100436+05:30
Kakinada,Andhra Pradesh,16.9891,82.2475,27.5,89,0.0,1007.1,9.2,30.2,52,16.2,10.2,7,5,4,1,2026-04-19T01:12:57.100443+05:30
Tirupati,Andhra Pradesh,13.6288,79.4192,26.7,85,0.0,991.5,9.35,31.3,61,20.1,17.9,7,5,7,1,2026-04-19T01:12:57.100449+05:30
Warangal,Telangana,17.9689,79.5941,29.4,69,0.0,977.9,9.15,29.5,84,28.8,25.6,7,5,7,1,2026-04-19T01:12:57.100455+05:30
Nizamabad,Telangana,18.6725,78.0941,30.1,50,0.0,963.4,9.1,33.1,109,39.9,36.8,0,5,7,1,2026-04-19T01:12:57.100461+05:30
Mysore,Karnataka,12.2958,76.6396,24.5,86,0.0,928.2,9.5,41.4,88,35.3,31.8,3,5,7,1,2026-04-19T01:12:57.100467+05:30
Mangalore,Karnataka,12.9141,74.856,30.7,77,0.0,1005.6,9.15,24.5,63,35.3,20.4,3,5,4,1,2026-04-19T01:12:57.100474+05:30
Hubli-Dharwad,Karnataka,15.3647,75.124,24.6,89,0.0,939.6,9.25,36.0,67,31.0,21.8,3,5,7,1,2026-04-19T01:12:57.100480+05:30
Belgaum,Karnataka,15.8497,74.4977,23.5,94,0.0,924.6,9.25,29.5,81,49.7,31.1,3,5,7,1,2026-04-19T01:13:00.461116+05:30
Coimbatore,Tamil Nadu,11.0168,76.9558,25.1,90,0.0,961.5,9.45,57.2,99,44.1,39.2,7,5,7,1,2026-04-19T01:13:00.461145+05:30
Madurai,Tamil Nadu,9.9252,78.1198,27.8,84,0.0,992.9,9.3,40.7,68,24.4,22.9,7,5,7,1,2026-04-19T01:13:00.461156+05:30
Trichy,Tamil Nadu,10.7905,78.7047,26.8,86,0.0,999.5,9.3,22.0,53,14.5,13.4,7,5,7,1,2026-04-19T01:13:00.461165+05:30
Salem,Tamil Nadu,11.6643,78.146,26.5,78,0.0,976.5,9.4,17.6,77,24.5,21.9,7,5,7,1,2026-04-19T01:13:00.461173+05:30
Tirunelveli,Tamil Nadu,8.7139,77.7567,27.8,76,0.0,1002.8,9.25,48.2,83,26.9,23.4,7,5,4,1,2026-04-19T01:13:00.461180+05:30
Vellore,Tamil Nadu,12.9165,79.1325,25.6,91,0.0,984.4,9.4,28.1,84,36.3,34.6,7,5,7,1,2026-04-19T01:13:00.461188+05:30
Erode,Tamil Nadu,11.341,77.7172,28.5,73,0.0,988.4,9.35,28.1,66,15.4,13.7,7,5,7,1,2026-04-19T01:13:00.461195+05:30
Kochi,Kerala,9.9312,76.2673,28.9,82,0.0,1008.1,9.15,27.0,79,35.0,28.4,7,0,4,1,2026-04-19T01:13:00.461202+05:30
Thiruvananthapuram,Kerala,8.5241,76.9366,28.6,84,0.0,1007.5,9.1,27.0,75,30.0,19.7,7,5,4,1,2026-04-19T01:13:00.461208+05:30
Kozhikode,Kerala,11.2588,75.7804,29.8,83,0.0,1006.9,9.15,29.5,68,26.8,17.5,7,5,4,1,2026-04-19T01:13:00.461215+05:30
Thrissur,Kerala,10.5276,76.2144,28.9,87,0.0,1006.2,9.15,35.3,76,36.1,30.6,7,5,4,1,2026-04-19T01:13:00.461222+05:30
Kannur,Kerala,11.8745,75.3704,29.9,80,0.0,1006.3,9.1,31.0,68,29.1,20.3,7,5,4,1,2026-04-19T01:13:00.461229+05:30
Patna,Bihar,25.5941,85.1376,28.6,79,0.0,997.8,8.6,25.9,142,57.0,53.6,7,5,7,1,2026-04-19T01:13:00.461235+05:30
Gaya,Bihar,24.7914,85.0002,29.7,49,0.0,990.6,8.7,27.0,101,63.3,43.3,4,5,7,1,2026-04-19T01:13:00.461241+05:30
Muzaffarpur,Bihar,26.1209,85.3647,27.2,84,0.0,998.1,8.6,29.9,152,59.6,54.8,7,5,7,1,2026-04-19T01:13:00.461247+05:30
Bhagalpur,Bihar,25.2425,87.0117,27.2,88,0.0,999.2,8.65,30.2,150,52.4,48.5,7,5,7,1,2026-04-19T01:13:00.461254+05:30
Ranchi,Jharkhand,23.3441,85.3096,27.7,44,0.0,936.7,9.2,42.8,80,70.1,29.9,4,5,7,0,2026-04-19T01:13:00.461260+05:30
Jamshedpur,Jharkhand,22.8046,86.2029,28.6,90,0.0,988.6,9.0,32.8,107,45.8,39.1,7,5,7,1,2026-04-19T01:13:00.461267+05:30
Dhanbad,Jharkhand,23.7957,86.4304,29.3,81,0.0,977.6,8.95,39.6,153,88.9,78.7,7,5,7,1,2026-04-19T01:13:00.461273+05:30
Bokaro,Jharkhand,23.6693,86.1511,28.5,81,0.0,981.7,8.95,42.8,152,91.7,62.4,7,5,7,1,2026-04-19T01:13:00.461279+05:30
Bhubaneswar,Odisha,20.2961,85.8245,27.1,92,0.0,1001.0,9.1,30.6,60,20.1,15.0,7,5,4,1,2026-04-19T01:13:00.461285+05:30
Cuttack,Odisha,20.4625,85.8828,27.3,92,0.0,1002.7,9.15,27.4,60,20.1,15.0,7,5,4,1,2026-04-19T01:13:00.461291+05:30
Rourkela,Odisha,22.2604,84.8536,29.9,67,0.0,982.8,8.9,47.5,126,74.0,54.0,7,5,7,1,2026-04-19T01:13:00.461297+05:30
Raipur,Chhattisgarh,21.2514,81.6296,29.0,58,0.0,972.9,8.7,38.2,141,74.7,57.2,4,5,7,1,2026-04-19T01:13:00.461303+05:30
Bhilai,Chhattisgarh,21.1938,81.3509,28.4,62,0.0,973.2,8.45,33.5,151,80.6,63.6,7,5,7,1,2026-04-19T01:13:00.461309+05:30
Guwahati,Assam,26.1158,91.7086,24.6,91,0.0,1001.3,8.55,25.2,136,49.4,42.8,3,5,4,1,2026-04-19T01:13:00.461338+05:30
Agartala,Tripura,23.8315,91.2868,25.6,92,0.0,1005.8,8.75,26.3,120,58.1,52.0,7,5,4,1,2026-04-19T01:13:00.461345+05:30
Shillong,Meghalaya,25.5788,91.8933,15.3,92,0.0,855.7,8.15,43.9,122,42.1,34.0,3,10,7,0,2026-04-19T01:13:00.461352+05:30
Imphal,Manipur,24.817,93.9368,18.8,82,0.0,922.9,8.5,56.5,151,79.9,66.6,3,10,7,0,2026-04-19T01:13:00.461358+05:30
Aizawl,Mizoram,23.7271,92.7176,20.3,86,0.0,891.9,8.3,41.0,119,70.1,54.6,3,5,7,1,2026-04-19T01:13:00.461365+05:30
Kohima,Nagaland,25.6701,94.1077,16.3,88,0.0,854.7,8.2,46.1,129,55.5,43.8,3,10,7,0,2026-04-19T01:13:00.461372+05:30
Gangtok,Sikkim,27.3314,88.6138,16.3,92,0.0,836.8,8.9,22.0,104,39.2,32.0,3,10,7,0,2026-04-19T01:13:00.461379+05:30
Siliguri,West Bengal,26.7271,88.3953,22.2,83,0.0,993.3,8.45,22.0,156,85.9,67.3,3,5,7,1,2026-04-19T01:13:03.811507+05:30
Durgapur,West Bengal,23.5204,87.3119,27.8,87,0.0,992.7,8.9,38.5,122,30.9,28.6,7,5,7,1,2026-04-19T01:13:03.811536+05:30
Asansol,West Bengal,23.6739,86.9524,28.4,85,0.0,991.2,8.95,39.6,131,45.5,44.2,7,5,7,1,2026-04-19T01:13:03.811546+05:30
Pondicherry,Puducherry,11.9139,79.8145,26.3,95,0.0,1008.1,9.25,31.3,31,9.5,5.7,7,0,4,1,2026-04-19T01:13:03.811554+05:30
Port Blair,Andaman and Nicobar Islands,11.6234,92.7265,29.5,75,0.0,1006.2,9.15,15.5,55,19.3,14.9,7,5,4,1,2026-04-19T01:13:03.811562+05:30
Haridwar,Uttarakhand,29.9457,78.1642,23.1,67,0.0,972.5,6.65,31.3,63,36.7,26.0,3,5,7,1,2026-04-19T01:13:03.811569+05:30
Rishikesh,Uttarakhand,30.0869,78.2676,22.6,62,0.0,965.8,6.7,34.2,63,45.6,21.1,3,5,7,0,2026-04-19T01:13:03.811576+05:30
Nainital,Uttarakhand,29.3919,79.4542,23.7,31,0.0,807.8,7.55,59.0,82,54.4,20.2,0,5,7,0,2026-04-19T01:13:03.811583+05:30
Mussoorie,Uttarakhand,30.4599,78.0664,19.7,43,0.0,804.0,6.65,42.1,59,32.6,24.3,0,5,7,0,2026-04-19T01:13:03.811590+05:30
Dharamshala,Himachal Pradesh,32.219,76.3234,23.5,25,0.0,870.3,6.5,31.3,48,27.3,11.5,0,5,7,0,2026-04-19T01:13:03.811596+05:30
Dalhousie,Himachal Pradesh,32.5387,75.971,19.6,28,0.0,805.0,5.6,25.6,55,43.9,24.3,0,5,3,0,2026-04-19T01:13:03.811604+05:30
Patiala,Punjab,30.3398,76.3869,24.2,61,0.0,976.5,6.75,33.1,121,76.1,69.2,3,5,7,1,2026-04-19T01:13:03.811611+05:30
Bhatinda,Punjab,30.211,74.9455,26.0,53,0.0,982.0,7.7,29.2,81,49.9,32.4,4,5,7,0,2026-04-19T01:13:03.811617+05:30
Rohtak,Haryana,28.8955,76.6066,23.1,75,0.0,979.6,6.6,33.5,298,414.4,75.0,3,5,7,1,2026-04-19T01:13:03.811623+05:30
Panipat,Haryana,29.3909,76.9635,24.6,59,0.0,978.5,6.2,46.1,439,597.9,94.5,0,5,7,1,2026-04-19T01:13:03.811629+05:30
Mathura,Uttar Pradesh,27.4924,77.6737,26.1,59,0.0,984.1,7.4,27.0,304,336.2,76.4,4,5,7,1,2026-04-19T01:13:03.811636+05:30
Vrindavan,Uttar Pradesh,27.5823,77.7027,27.4,48,0.0,984.8,7.3,29.2,304,336.2,76.4,4,5,7,0,2026-04-19T01:13:03.811643+05:30
Ayodhya,Uttar Pradesh,26.7922,82.1998,26.4,68,0.0,992.5,8.05,32.4,97,156.5,41.4,7,5,7,1,2026-04-19T01:13:03.811649+05:30
Ratlam,Madhya Pradesh,23.3315,75.0367,28.0,49,0.0,953.6,8.45,23.0,49,18.2,12.3,4,5,7,1,2026-04-19T01:13:03.811655+05:30
Sagar,Madhya Pradesh,23.8388,78.7378,29.3,43,0.0,948.6,8.6,31.0,72,22.6,21.4,4,5,7,0,2026-04-19T01:13:03.811661+05:30
Satna,Madhya Pradesh,24.6005,80.8322,30.0,44,0.0,969.5,8.65,30.2,74,92.0,26.4,4,5,7,1,2026-04-19T01:13:03.811667+05:30
Akola,Maharashtra,20.7002,77.0082,29.2,54,0.0,973.3,8.85,23.0,65,33.3,28.2,4,5,7,1,2026-04-19T01:13:03.811674+05:30
Amravati,Maharashtra,20.9374,77.7796,29.1,40,0.0,965.5,8.85,28.8,66,36.8,32.0,4,5,7,0,2026-04-19T01:13:03.811681+05:30
Latur,Maharashtra,18.4088,76.5604,26.2,64,0.0,939.4,8.85,25.2,106,49.0,44.7,7,5,7,1,2026-04-19T01:13:03.811688+05:30
Nanded,Maharashtra,19.1383,77.3091,28.3,61,0.0,967.4,9.0,25.9,85,55.8,49.2,7,5,7,1,2026-04-19T01:13:03.811694+05:30
Gulbarga,Karnataka,17.3297,76.8343,28.8,57,0.0,957.6,9.1,34.6,113,42.6,38.0,4,5,7,1,2026-04-19T01:13:03.811700+05:30
Bidar,Karnataka,17.9104,77.5199,27.3,64,0.0,934.7,9.15,45.4,100,47.7,42.7,7,5,7,1,2026-04-19T01:13:03.811707+05:30
Hospet,Karnataka,15.2689,76.3909,28.8,73,0.0,955.0,9.3,43.9,91,41.2,37.7,7,5,7,1,2026-04-19T01:13:03.811713+05:30
Tirupur,Tamil Nadu,11.1085,77.3411,27.4,85,0.0,974.8,9.45,31.0,84,30.6,26.1,7,5,7,1,2026-04-19T01:13:03.811719+05:30
Alappuzha,Kerala,9.4981,76.3388,28.6,83,0.0,1008.3,9.05,24.8,84,38.3,28.9,7,0,4,1,2026-04-19T01:13:03.811725+05:30
Munnar,Kerala,10.0889,77.0595,21.5,83,0.0,856.7,9.7,34.9,86,36.9,32.2,3,5,7,1,2026-04-19T01:13:03.811732+05:30
Silchar,Assam,24.8333,92.7789,25.4,89,0.0,1004.0,8.8,25.9,158,96.9,79.6,7,5,4,1,2026-04-19T01:13:03.811739+05:30
Dibrugarh,Assam,27.4728,94.912,24.2,93,0.0,995.6,8.65,24.8,120,68.2,55.2,3,5,7,1,2026-04-19T01:13:03.811745+05:30
