city,state,latitude,longitude,temp,humidity,rain,pressure,uv_index,wind_gusts,aqi,pm10,pm2_5,mosquito_risk,arthritis_risk,migraine_risk,frizz_risk,updated_at
Delhi,Delhi,28.6139,77.209,28.1,38,0.0,986.1,5.7,29.9,155,178.3,61.5,4,5,3,0,2026-03-01T12:23:49.620283+05:30
Mumbai,Maharashtra,19.076,72.8777,26.2,71,0.0,1010.4,7.25,23.8,72,53.3,30.4,7,0,4,1,2026-03-01T12:23:49.620317+05:30
Bangalore,Karnataka,12.9716,77.5946,28.7,43,0.0,913.0,9.05,29.2,151,48.9,47.5,4,5,7,0,2026-03-01T12:23:49.620332+05:30
Hyderabad,Telangana,17.385,78.4867,31.8,36,0.0,954.7,8.3,27.4,124,45.6,44.6,0,5,7,0,2026-03-01T12:23:49.620341+05:30
Chennai,Tamil Nadu,13.0827,80.2707,32.9,45,0.0,1008.7,8.75,33.8,150,51.9,48.3,0,0,4,1,2026-03-01T12:23:49.620349+05:30
Kolkata,West Bengal,22.5726,88.3639,30.8,61,0.0,1006.8,7.6,25.2,85,41.9,39.8,3,5,4,1,2026-03-01T12:23:49.620361+05:30
Pune,Maharashtra,18.5204,73.8567,31.5,30,0.0,949.7,7.85,33.8,80,22.4,20.5,0,5,7,0,2026-03-01T12:23:49.620370+05:30
Ahmedabad,Gujarat,23.0225,72.5714,31.5,37,0.0,1005.2,7.05,21.2,99,51.9,22.1,0,5,4,0,2026-03-01T12:23:49.620376+05:30
Jaipur,Rajasthan,26.9124,75.7873,31.0,27,0.0,963.0,6.45,28.4,89,96.6,29.2,0,5,7,0,2026-03-01T12:23:49.620383+05:30
Lucknow,Uttar Pradesh,26.8467,80.9462,30.0,32,0.0,995.6,6.2,39.2,132,69.2,35.3,4,5,7,0,2026-03-01T12:23:49.620390+05:30
Kanpur,Uttar Pradesh,26.4499,80.3319,29.6,38,0.0,994.3,6.2,31.0,151,143.4,41.0,4,5,7,0,2026-03-01T12:23:49.620396+05:30
Chandigarh,Chandigarh,30.7333,76.7794,26.1,48,0.0,971.5,5.6,32.4,90,44.6,27.1,4,5,3,0,2026-03-01T12:23:49.620402+05:30
Srinagar,Jammu and Kashmir,34.0837,74.7973,15.2,27,0.0,843.6,6.4,14.8,151,53.2,35.6,0,5,7,1,2026-03-01T12:23:49.620409+05:30
Jammu,Jammu and Kashmir,32.7266,74.857,25.7,42,0.0,975.6,6.15,25.2,98,43.7,27.2,4,5,7,0,2026-03-01T12:23:49.620415+05:30
Amritsar,Punjab,31.634,74.8723,25.9,48,0.0,984.3,6.1,22.0,132,80.3,53.0,4,5,7,0,2026-03-01T12:23:49.620421+05:30
Ludhiana,Punjab,30.901,75.8573,26.3,49,0.0,982.0,5.8,27.4,153,83.4,61.2,4,5,3,0,2026-03-01T12:23:49.620427+05:30
Jalandhar,Punjab,31.326,75.5762,26.0,49,0.0,983.2,5.95,24.5,155,85.0,55.9,4,5,3,0,2026-03-01T12:23:49.620435+05:30
Dehradun,Uttarakhand,30.6284,78.0322,18.6,32,0.0,831.0,5.95,35.6,65,33.3,13.5,0,5,3,0,2026-03-01T12:23:49.620441+05:30
Shimla,Himachal Pradesh,31.1048,77.1734,16.2,35,0.0,785.9,6.0,51.8,71,33.4,15.6,0,5,3,0,2026-03-01T12:23:49.620447+05:30
Manali,Himachal Pradesh,32.2396,77.1887,18.7,9,0.0,819.9,7.6,34.9,51,13.7,7.3,0,5,7,1,2026-03-01T12:23:49.620453+05:30
Gurgaon,Haryana,28.4595,77.0266,28.2,40,0.0,984.7,5.8,28.1,292,568.1,97.8,4,5,3,0,2026-03-01T12:23:49.620458+05:30
Noida,Uttar Pradesh,28.5355,77.391,28.8,33,0.0,987.6,5.75,29.5,292,568.1,97.8,4,5,3,0,2026-03-01T12:23:49.620464+05:30
Ghaziabad,Uttar Pradesh,28.6692,77.4538,27.6,42,0.0,985.8,5.7,28.1,151,166.2,61.7,4,5,3,0,2026-03-01T12:23:49.620470+05:30
Faridabad,Haryana,28.4089,77.3178,27.9,41,0.0,986.9,5.75,26.3,292,568.1,97.8,4,5,3,0,2026-03-01T12:23:49.620475+05:30
Meerut,Uttar Pradesh,28.9845,77.7064,27.5,45,0.0,984.3,5.6,33.1,151,166.2,61.7,4,5,3,0,2026-03-01T12:23:49.620481+05:30
Agra,Uttar Pradesh,27.1767,78.0081,29.5,38,0.0,991.0,6.05,22.3,156,262.6,73.3,4,5,7,0,2026-03-01T12:23:49.620487+05:30
Varanasi,Uttar Pradesh,25.3176,82.9739,30.5,46,0.0,999.3,6.85,30.6,137,84.5,42.7,0,5,7,1,2026-03-01T12:23:49.620495+05:30
Prayagraj,Uttar Pradesh,25.4358,81.8463,29.6,48,0.0,998.1,6.75,27.0,135,95.5,45.1,4,5,7,1,2026-03-01T12:23:49.620501+05:30
Gorakhpur,Uttar Pradesh,26.7606,83.3732,28.9,48,0.0,998.7,6.55,33.1,120,81.7,43.9,4,5,7,1,2026-03-01T12:23:49.620507+05:30
Bareilly,Uttar Pradesh,28.367,79.4304,27.3,47,0.0,989.0,5.9,34.2,124,61.9,43.4,4,5,3,0,2026-03-01T12:23:49.620515+05:30
Aligarh,Uttar Pradesh,27.8974,78.088,28.7,39,0.0,988.6,5.8,28.4,156,339.9,83.4,4,5,3,0,2026-03-01T12:23:49.620521+05:30
Moradabad,Uttar Pradesh,28.8386,78.7733,27.0,48,0.0,986.0,5.7,33.5,129,70.5,45.5,4,5,3,0,2026-03-01T12:23:49.620526+05:30
Saharanpur,Uttar Pradesh,29.9637,77.546,26.5,50,0.0,978.1,5.35,41.0,138,69.8,42.4,4,5,3,0,2026-03-01T12:23:49.620532+05:30
Jhansi,Uttar Pradesh,25.4484,78.5685,30.4,42,0.0,980.7,6.65,24.5,68,118.0,33.1,0,5,7,0,2026-03-01T12:23:52.917821+05:30
Surat,Gujarat,21.1702,72.8311,29.7,46,0.0,1009.3,6.95,27.0,97,75.9,55.1,4,0,4,1,2026-03-01T12:23:52.917851+05:30
Vadodara,Gujarat,22.3072,73.1812,31.9,37,0.0,1007.2,7.05,13.0,114,43.9,28.6,0,5,4,0,2026-03-01T12:23:52.917860+05:30
Rajkot,Gujarat,22.3039,70.8022,29.7,41,0.0,997.5,6.9,23.4,63,64.5,23.0,4,5,7,0,2026-03-01T12:23:52.917869+05:30
Thane,Maharashtra,19.2183,72.9781,29.4,49,0.0,1009.8,7.25,36.0,72,53.3,30.4,4,0,4,1,2026-03-01T12:23:52.917876+05:30
Nagpur,Maharashtra,21.1458,79.0882,32.6,32,0.0,974.8,7.65,28.8,131,21.2,20.1,0,5,7,0,2026-03-01T12:23:52.917883+05:30
Nashik,Maharashtra,19.9975,73.7898,29.5,31,0.0,947.4,7.45,25.6,80,26.6,23.6,4,5,7,0,2026-03-01T12:23:52.917889+05:30
Aurangabad,Maharashtra,19.8762,75.3433,31.5,30,0.0,946.0,8.0,25.6,63,25.8,23.2,0,5,7,0,2026-03-01T12:23:52.917895+05:30
Solapur,Maharashtra,17.6599,75.9064,30.6,41,0.0,958.7,8.25,19.8,77,23.0,22.5,0,5,7,0,2026-03-01T12:23:52.917902+05:30
Kolhapur,Maharashtra,16.705,74.2433,30.5,33,0.0,949.1,8.35,38.9,64,19.2,17.8,0,5,7,0,2026-03-01T12:23:52.917908+05:30
Goa,Goa,15.2993,74.124,31.3,42,0.0,999.3,8.4,35.3,53,19.4,14.2,0,5,7,1,2026-03-01T12:23:52.917915+05:30
Jodhpur,Rajasthan,26.2389,73.0243,30.3,40,0.0,986.2,6.75,18.4,71,76.6,23.9,0,5,7,0,2026-03-01T12:23:52.917921+05:30
Udaipur,Rajasthan,24.5854,73.7125,29.4,32,0.0,949.4,7.35,25.2,58,22.9,12.9,4,5,7,0,2026-03-01T12:23:52.917928+05:30
Kota,Rajasthan,25.2138,75.8648,29.9,44,0.0,982.0,6.8,19.8,75,28.8,19.6,4,5,7,1,2026-03-01T12:23:52.917934+05:30
Bikaner,Rajasthan,28.0229,73.3119,30.4,32,0.0,985.1,6.45,16.2,64,44.5,18.9,0,5,7,0,2026-03-01T12:23:52.917940+05:30
Ajmer,Rajasthan,26.4499,74.6399,29.5,38,0.0,957.8,6.7,17.6,76,47.6,18.2,4,5,7,0,2026-03-01T12:23:52.917946+05:30
Gwalior,Madhya Pradesh,26.2183,78.1828,29.3,41,0.0,986.4,6.35,25.9,101,130.9,38.5,4,5,7,0,2026-03-01T12:23:52.917952+05:30
Indore,Madhya Pradesh,22.7196,75.8577,29.2,39,0.0,950.6,7.35,22.3,71,22.2,17.0,4,5,7,0,2026-03-01T12:23:52.917958+05:30
Bhopal,Madhya Pradesh,23.2599,77.4126,28.7,41,0.0,956.3,7.2,24.1,66,20.8,18.3,4,5,7,0,2026-03-01T12:23:52.917964+05:30
Jabalpur,Madhya Pradesh,23.1815,79.9864,30.6,40,0.0,963.5,7.3,32.8,103,14.1,13.6,0,5,7,0,2026-03-01T12:23:52.917970+05:30
Ujjain,Madhya Pradesh,23.1765,75.7885,29.9,38,0.0,956.3,7.25,20.5,81,20.4,15.7,4,5,7,0,2026-03-01T12:23:52.917977+05:30
Visakhapatnam,Andhra Pradesh,17.6868,83.2185,33.6,41,0.0,1004.5,8.3,39.2,144,62.2,59.1,0,5,4,1,2026-03-01T12:23:52.917983+05:30
Vijayawada,Andhra Pradesh,16.5062,80.648,30.8,60,0.0,1004.1,8.4,25.6,151,50.1,47.6,0,5,4,1,2026-03-01T12:23:52.917989+05:30
Guntur,Andhra Pradesh,16.3067,80.4365,32.0,52,0.0,1005.1,8.4,27.4,144,48.2,46.3,0,5,4,1,2026-03-01T12:23:52.917996+05:30
Nellore,Andhra Pradesh,14.4426,79.9865,34.5,35,0.0,1006.8,8.6,32.0,143,42.7,41.1,0,5,4,1,2026-03-01T12:23:52.918003+05:30
Kurnool,Andhra Pradesh,15.8281,78.0373,34.6,33,0.0,977.8,8.4,22.0,114,45.1,44.1,0,5,7,0,2026-03-01T12:23:52.918009+05:30
Kakinada,Andhra Pradesh,16.9891,82.2475,34.8,38,0.0,1008.3,8.3,34.2,150,60.5,56.1,0,0,4,1,2026-03-01T12:23:52.918016+05:30
Tirupati,Andhra Pradesh,13.6288,79.4192,33.0,33,0.0,992.8,8.7,30.6,152,39.2,37.7,0,5,7,0,2026-03-01T12:23:52.918021+05:30
Warangal,Telangana,17.9689,79.5941,30.9,53,0.0,980.6,8.1,27.7,132,51.0,49.8,0,5,7,1,2026-03-01T12:23:52.918027+05:30
Nizamabad,Telangana,18.6725,78.0941,32.0,38,0.0,966.6,8.0,20.9,125,33.4,32.8,0,5,7,0,2026-03-01T12:23:52.918033+05:30
Mysore,Karnataka,12.2958,76.6396,29.9,43,0.0,929.5,9.05,37.1,116,53.1,51.6,4,5,7,0,2026-03-01T12:23:52.918040+05:30
Mangalore,Karnataka,12.9141,74.856,27.8,74,0.0,1007.8,8.65,33.5,46,15.1,11.0,7,5,4,1,2026-03-01T12:23:52.918046+05:30
Hubli-Dharwad,Karnataka,15.3647,75.124,31.8,26,0.0,942.2,8.55,36.4,58,16.4,15.5,0,5,7,0,2026-03-01T12:23:52.918053+05:30
Belgaum,Karnataka,15.8497,74.4977,31.8,20,0.0,927.1,8.6,38.2,56,13.8,13.0,0,5,7,0,2026-03-01T12:23:56.213051+05:30
Coimbatore,Tamil Nadu,11.0168,76.9558,31.4,44,0.0,962.7,9.05,36.4,142,50.8,49.5,0,5,7,1,2026-03-01T12:23:56.213084+05:30
Madurai,Tamil Nadu,9.9252,78.1198,32.5,42,0.0,993.9,9.0,27.7,151,46.0,44.0,0,5,7,1,2026-03-01T12:23:56.213096+05:30
Trichy,Tamil Nadu,10.7905,78.7047,33.3,42,0.0,1000.7,8.9,26.6,151,36.8,34.8,0,5,4,1,2026-03-01T12:23:56.213106+05:30
Salem,Tamil Nadu,11.6643,78.146,34.1,32,0.0,978.0,8.95,25.6,149,43.9,42.3,0,5,7,0,2026-03-01T12:23:56.213115+05:30
Tirunelveli,Tamil Nadu,8.7139,77.7567,33.2,43,0.0,1004.0,9.05,43.9,139,44.7,43.2,0,5,4,1,2026-03-01T12:23:56.213124+05:30
Vellore,Tamil Nadu,12.9165,79.1325,33.4,32,0.0,985.6,8.8,38.5,156,41.1,39.5,0,5,7,0,2026-03-01T12:23:56.213134+05:30
Erode,Tamil Nadu,11.341,77.7172,34.1,35,0.0,989.8,8.95,26.6,138,46.4,44.8,0,5,7,1,2026-03-01T12:23:56.213142+05:30
Kochi,Kerala,9.9312,76.2673,28.0,77,0.0,1009.0,8.9,33.8,106,42.0,40.6,7,0,4,1,2026-03-01T12:23:56.213151+05:30
Thiruvananthapuram,Kerala,8.5241,76.9366,27.8,79,0.0,1008.5,8.95,23.8,90,32.6,31.3,7,0,4,1,2026-03-01T12:23:56.213159+05:30
Kozhikode,Kerala,11.2588,75.7804,29.8,61,0.0,1008.5,8.75,31.3,68,24.7,22.5,7,0,4,1,2026-03-01T12:23:56.213167+05:30
Thrissur,Kerala,10.5276,76.2144,32.6,53,0.0,1007.2,8.85,39.6,109,36.4,35.0,0,5,4,1,2026-03-01T12:23:56.213176+05:30
Kannur,Kerala,11.8745,75.3704,31.3,55,0.0,1007.9,8.75,38.2,50,14.8,11.1,0,5,4,1,2026-03-01T12:23:56.213184+05:30
Patna,Bihar,25.5941,85.1376,30.3,41,0.0,1002.0,7.0,30.2,116,85.7,45.1,0,5,4,0,2026-03-01T12:23:56.213192+05:30
Gaya,Bihar,24.7914,85.0002,30.4,40,0.0,995.4,7.1,21.2,99,63.6,36.4,0,5,7,0,2026-03-01T12:23:56.213200+05:30
Muzaffarpur,Bihar,26.1209,85.3647,30.4,38,0.0,1001.8,6.95,34.2,122,88.7,49.1,0,5,4,0,2026-03-01T12:23:56.213207+05:30
Bhagalpur,Bihar,25.2425,87.0117,29.8,46,0.0,1002.3,7.05,25.2,102,70.5,43.9,4,5,4,1,2026-03-01T12:23:56.213214+05:30
Ranchi,Jharkhand,23.3441,85.3096,28.5,30,0.0,939.3,7.75,27.7,85,36.7,32.4,4,5,7,0,2026-03-01T12:23:56.213220+05:30
Jamshedpur,Jharkhand,22.8046,86.2029,30.9,34,0.0,992.0,7.7,10.8,127,51.5,42.5,0,5,7,0,2026-03-01T12:23:56.213226+05:30
Dhanbad,Jharkhand,23.7957,86.4304,32.5,22,0.0,981.0,7.55,31.0,150,54.0,42.7,0,5,7,0,2026-03-01T12:23:56.213274+05:30
Bokaro,Jharkhand,23.6693,86.1511,32.3,23,0.0,985.1,7.55,30.6,150,51.6,42.0,0,5,7,0,2026-03-01T12:23:56.213284+05:30
Bhubaneswar,Odisha,20.2961,85.8245,34.1,33,0.0,1003.4,8.05,28.1,102,44.0,42.4,0,5,4,0,2026-03-01T12:23:56.213292+05:30
Cuttack,Odisha,20.4625,85.8828,34.7,35,0.0,1005.1,8.05,29.9,102,44.0,42.4,0,5,4,1,2026-03-01T12:23:56.213298+05:30
Rourkela,Odisha,22.2604,84.8536,32.3,27,0.0,986.2,7.6,22.3,116,55.4,53.3,0,5,7,0,2026-03-01T12:23:56.213304+05:30
Raipur,Chhattisgarh,21.2514,81.6296,33.2,36,0.0,975.8,7.75,27.4,158,61.0,60.5,0,5,7,1,2026-03-01T12:23:56.213310+05:30
Bhilai,Chhattisgarh,21.1938,81.3509,33.2,40,0.0,976.2,7.75,26.6,160,47.1,46.6,0,5,7,1,2026-03-01T12:23:56.213316+05:30
Guwahati,Assam,26.1158,91.7086,25.4,67,0.0,1003.0,7.0,32.0,163,82.0,65.4,7,5,4,1,2026-03-01T12:23:56.213322+05:30
Agartala,Tripura,23.8315,91.2868,29.8,55,0.0,1006.8,7.35,29.5,132,38.0,25.2,4,5,4,1,2026-03-01T12:23:56.213329+05:30
Shillong,Meghalaya,25.5788,91.8933,16.4,45,0.0,855.6,6.8,56.9,153,63.1,40.6,0,5,7,0,2026-03-01T12:23:56.213335+05:30
Imphal,Manipur,24.817,93.9368,21.2,43,0.0,923.0,7.55,54.0,151,57.7,36.4,0,5,7,0,2026-03-01T12:23:56.213344+05:30
Aizawl,Mizoram,23.7271,92.7176,23.8,36,0.0,894.1,7.55,40.0,123,56.2,31.4,0,5,7,0,2026-03-01T12:23:56.213350+05:30
Kohima,Nagaland,25.6701,94.1077,16.7,57,0.0,854.8,7.4,76.0,152,59.5,39.7,0,5,7,0,2026-03-01T12:23:56.213356+05:30
Gangtok,Sikkim,27.3314,88.6138,12.7,86,0.1,835.8,5.3,12.2,137,46.2,30.7,6,10,3,0,2026-03-01T12:23:56.213362+05:30
Siliguri,West Bengal,26.7271,88.3953,23.4,54,0.0,994.5,7.0,31.7,171,115.0,75.9,0,5,7,0,2026-03-01T12:23:59.515542+05:30
Durgapur,West Bengal,23.5204,87.3119,34.0,21,0.0,995.6,7.55,28.8,122,56.1,40.6,0,5,7,0,2026-03-01T12:23:59.515568+05:30
Asansol,West Bengal,23.6739,86.9524,33.6,21,0.0,994.3,7.55,28.1,106,53.6,39.9,0,5,7,0,2026-03-01T12:23:59.515577+05:30
Pondicherry,Puducherry,11.9139,79.8145,32.3,53,0.0,1009.7,8.8,29.2,144,52.5,48.8,0,0,4,1,2026-03-01T12:23:59.515584+05:30
Port Blair,Andaman and Nicobar Islands,11.6234,92.7265,28.2,60,0.0,1006.8,8.7,26.3,103,21.1,18.4,4,5,4,1,2026-03-01T12:23:59.515591+05:30
Haridwar,Uttarakhand,29.9457,78.1642,26.6,43,0.0,976.3,5.4,40.3,107,52.0,30.6,4,5,3,0,2026-03-01T12:23:59.515597+05:30
Rishikesh,Uttarakhand,30.0869,78.2676,26.6,39,0.0,968.7,5.5,37.1,89,48.1,22.8,4,5,3,0,2026-03-01T12:23:59.515604+05:30
Nainital,Uttarakhand,29.3919,79.4542,20.0,50,0.0,807.2,6.3,43.9,85,46.8,25.2,0,5,7,0,2026-03-01T12:23:59.515610+05:30
Mussoorie,Uttarakhand,30.4599,78.0664,18.6,36,0.0,803.9,5.85,41.8,88,44.7,21.8,0,5,3,0,2026-03-01T12:23:59.515615+05:30
Dharamshala,Himachal Pradesh,32.219,76.3234,21.2,43,0.0,870.8,6.05,27.7,58,19.0,8.6,0,5,7,0,2026-03-01T12:23:59.515621+05:30
Dalhousie,Himachal Pradesh,32.5387,75.971,20.9,21,0.0,806.2,6.25,28.8,90,39.3,21.5,0,5,7,1,2026-03-01T12:23:59.515627+05:30
Patiala,Punjab,30.3398,76.3869,26.6,50,0.0,981.3,5.5,29.9,154,218.4,65.2,4,5,3,0,2026-03-01T12:23:59.515633+05:30
Bhatinda,Punjab,30.211,74.9455,28.0,43,0.0,987.2,6.2,21.2,146,94.1,63.1,4,5,7,0,2026-03-01T12:23:59.515639+05:30
Rohtak,Haryana,28.8955,76.6066,28.0,40,0.0,985.1,5.7,29.2,157,196.0,61.0,4,5,3,0,2026-03-01T12:23:59.515645+05:30
Panipat,Haryana,29.3909,76.9635,27.5,41,0.0,983.4,5.5,29.9,326,470.3,88.2,4,5,3,0,2026-03-01T12:23:59.515650+05:30
Mathura,Uttar Pradesh,27.4924,77.6737,29.5,36,0.0,990.0,5.95,23.0,156,255.2,63.1,4,5,3,0,2026-03-01T12:23:59.515656+05:30
Vrindavan,Uttar Pradesh,27.5823,77.7027,29.0,38,0.0,990.4,5.95,25.6,156,255.2,63.1,4,5,3,0,2026-03-01T12:23:59.515661+05:30
Ayodhya,Uttar Pradesh,26.7922,82.1998,29.6,39,0.0,997.1,6.35,36.4,121,63.1,37.5,4,5,7,0,2026-03-01T12:23:59.515667+05:30
Ratlam,Madhya Pradesh,23.3315,75.0367,29.3,40,0.0,957.3,7.2,27.7,75,20.5,14.8,4,5,7,0,2026-03-01T12:23:59.515673+05:30
Sagar,Madhya Pradesh,23.8388,78.7378,29.5,39,0.0,952.6,7.15,19.1,53,18.5,14.6,4,5,7,0,2026-03-01T12:23:59.515678+05:30
Satna,Madhya Pradesh,24.6005,80.8322,31.0,33,0.0,973.4,7.1,28.4,103,44.1,29.7,0,5,7,0,2026-03-01T12:23:59.515684+05:30
Akola,Maharashtra,20.7002,77.0082,33.4,29,0.0,977.1,7.7,28.4,71,19.6,17.8,0,5,7,0,2026-03-01T12:23:59.515690+05:30
Amravati,Maharashtra,20.9374,77.7796,33.7,28,0.0,969.4,7.65,27.4,77,15.6,13.9,0,5,7,0,2026-03-01T12:23:59.515697+05:30
Latur,Maharashtra,18.4088,76.5604,30.0,37,0.0,941.7,8.15,25.6,76,21.3,20.4,4,5,7,0,2026-03-01T12:23:59.515702+05:30
Nanded,Maharashtra,19.1383,77.3091,32.8,34,0.0,970.6,7.9,15.5,79,16.1,15.0,0,5,7,0,2026-03-01T12:23:59.515708+05:30
Gulbarga,Karnataka,17.3297,76.8343,32.6,35,0.0,959.9,8.25,14.8,93,40.5,39.7,0,5,7,0,2026-03-01T12:23:59.515714+05:30
Bidar,Karnataka,17.9104,77.5199,30.5,42,0.0,937.1,8.2,19.1,110,31.7,31.1,0,5,7,1,2026-03-01T12:23:59.515719+05:30
Hospet,Karnataka,15.2689,76.3909,31.0,37,0.0,957.1,8.55,24.5,95,28.6,27.9,0,5,7,0,2026-03-01T12:23:59.515725+05:30
Tirupur,Tamil Nadu,11.1085,77.3411,32.7,40,0.0,976.1,9.1,20.5,151,54.0,52.6,0,5,7,1,2026-03-01T12:23:59.515730+05:30
Alappuzha,Kerala,9.4981,76.3388,28.1,77,0.0,1009.1,8.9,31.3,92,38.1,36.8,7,0,4,1,2026-03-01T12:23:59.515736+05:30
Munnar,Kerala,10.0889,77.0595,27.9,40,0.0,859.1,9.4,27.0,128,41.0,39.6,4,5,7,0,2026-03-01T12:23:59.515742+05:30
Silchar,Assam,24.8333,92.7789,29.2,46,0.0,1006.0,7.3,20.5,157,66.4,43.7,4,5,4,1,2026-03-01T12:23:59.515747+05:30
Dibrugarh,Assam,27.4728,94.912,20.2,80,0.0,997.9,7.0,13.7,158,96.4,82.7,3,5,7,1,2026-03-01T12:23:59.515753+05:30
