city,state,latitude,longitude,temp,humidity,rain,pressure,uv_index,wind_gusts,aqi,pm10,pm2_5,no2,co,o3,so2,mosquito_risk,arthritis_risk,migraine_risk,frizz_risk,updated_at
Delhi,Delhi,28.6139,77.209,34.0,26,0.0,979.9,7.7,42.1,466,909.0,187.2,35.4,576.0,52.0,16.6,0,5,7,0,2026-05-16T23:27:02.995576+05:30
Mumbai,Maharashtra,19.076,72.8777,29.1,81,0.0,1005.9,7.85,50.0,59,39.5,16.4,8.5,216.0,52.0,5.1,7,5,4,1,2026-05-16T23:27:02.995614+05:30
Bangalore,Karnataka,12.9716,77.5946,23.3,84,0.0,909.4,8.8,41.0,154,134.1,98.0,94.5,669.0,16.0,26.9,3,5,7,1,2026-05-16T23:27:02.995629+05:30
Hyderabad,Telangana,17.385,78.4867,30.4,56,0.0,951.3,9.3,41.0,145,48.9,35.4,13.9,460.0,74.0,5.7,0,5,7,1,2026-05-16T23:27:02.995639+05:30
Chennai,Tamil Nadu,13.0827,80.2707,29.2,80,0.0,1004.2,8.85,33.5,40,11.3,8.5,8.6,248.0,77.0,5.8,7,5,4,1,2026-05-16T23:27:02.995647+05:30
Kolkata,West Bengal,22.5726,88.3639,28.4,88,0.0,1003.5,9.0,33.5,57,21.1,14.3,6.8,227.0,40.0,4.1,7,5,4,1,2026-05-16T23:27:02.995655+05:30
Pune,Maharashtra,18.5204,73.8567,28.2,73,0.0,946.0,8.5,40.3,92,33.1,23.2,15.4,254.0,93.0,19.7,7,5,7,1,2026-05-16T23:27:02.995662+05:30
Ahmedabad,Gujarat,23.0225,72.5714,35.4,27,0.0,998.8,8.15,32.4,59,46.4,23.4,15.5,296.0,51.0,5.5,0,5,10,0,2026-05-16T23:27:02.995668+05:30
Jaipur,Rajasthan,26.9124,75.7873,32.5,27,0.0,957.7,8.25,35.6,162,170.9,51.6,28.6,348.0,48.0,9.7,0,5,7,0,2026-05-16T23:27:02.995679+05:30
Lucknow,Uttar Pradesh,26.8467,80.9462,32.3,36,0.0,989.6,8.2,35.6,155,204.9,66.6,23.9,350.0,63.0,12.8,0,5,7,0,2026-05-16T23:27:02.995686+05:30
Kanpur,Uttar Pradesh,26.4499,80.3319,32.8,31,0.0,988.1,8.2,36.0,153,284.1,75.7,22.8,351.0,59.0,11.3,0,5,7,0,2026-05-16T23:27:02.995692+05:30
Chandigarh,Chandigarh,30.7333,76.7794,26.8,45,0.0,965.1,7.7,36.7,98,42.0,30.2,20.8,609.0,85.0,10.5,4,5,7,0,2026-05-16T23:27:02.995699+05:30
Srinagar,Jammu and Kashmir,34.0837,74.7973,14.6,84,0.0,841.7,8.9,27.4,90,35.3,30.5,32.3,1145.0,45.0,3.8,3,10,7,0,2026-05-16T23:27:02.995706+05:30
Jammu,Jammu and Kashmir,32.7266,74.857,23.2,68,0.0,969.1,8.45,28.4,86,41.3,37.0,49.0,570.0,23.0,5.5,3,5,7,1,2026-05-16T23:27:02.995712+05:30
Amritsar,Punjab,31.634,74.8723,28.1,50,0.0,977.4,8.35,28.4,108,82.9,60.1,58.0,601.0,31.0,12.1,4,5,7,1,2026-05-16T23:27:02.995718+05:30
Ludhiana,Punjab,30.901,75.8573,29.0,39,0.0,975.4,7.95,42.8,111,63.3,39.1,18.4,654.0,83.0,8.2,4,5,7,0,2026-05-16T23:27:02.995724+05:30
Jalandhar,Punjab,31.326,75.5762,27.2,54,0.0,976.3,8.15,36.4,128,61.7,48.0,28.5,1681.0,67.0,9.5,4,5,7,1,2026-05-16T23:27:02.995730+05:30
Dehradun,Uttarakhand,30.6284,78.0322,14.7,72,0.0,826.4,8.1,37.4,54,46.9,23.7,38.9,192.0,43.0,2.0,3,5,7,0,2026-05-16T23:27:02.995736+05:30
Shimla,Himachal Pradesh,31.1048,77.1734,14.7,50,0.0,782.8,8.2,45.0,79,57.9,24.2,21.0,271.0,83.0,2.9,0,5,7,0,2026-05-16T23:27:02.995745+05:30
Manali,Himachal Pradesh,32.2396,77.1887,8.4,71,0.0,812.5,9.9,38.2,95,12.5,9.9,58.3,378.0,70.0,0.1,3,5,7,0,2026-05-16T23:27:02.995751+05:30
Gurgaon,Haryana,28.4595,77.0266,30.0,38,0.0,978.3,7.8,41.0,680,935.0,173.2,44.6,761.0,44.0,19.3,4,5,7,0,2026-05-16T23:27:02.995758+05:30
Noida,Uttar Pradesh,28.5355,77.391,31.2,36,0.0,981.1,7.7,31.3,680,935.0,173.2,44.6,748.0,44.0,19.3,0,5,7,0,2026-05-16T23:27:02.995764+05:30
Ghaziabad,Uttar Pradesh,28.6692,77.4538,29.2,42,0.0,979.3,7.7,38.9,260,752.5,162.5,28.0,403.0,59.0,16.4,4,5,7,0,2026-05-16T23:27:02.995770+05:30
Faridabad,Haryana,28.4089,77.3178,33.3,27,0.0,980.7,7.75,41.0,680,935.0,173.2,44.6,714.0,44.0,19.3,0,5,7,0,2026-05-16T23:27:02.995778+05:30
Meerut,Uttar Pradesh,28.9845,77.7064,30.0,35,0.0,978.0,7.6,41.4,260,752.5,162.5,28.0,368.0,59.0,16.4,4,5,7,0,2026-05-16T23:27:02.995785+05:30
Agra,Uttar Pradesh,27.1767,78.0081,32.0,32,0.0,984.6,8.05,32.4,464,707.8,134.6,24.7,367.0,65.0,12.9,0,5,7,0,2026-05-16T23:27:02.995791+05:30
Varanasi,Uttar Pradesh,25.3176,82.9739,32.8,34,0.0,994.0,8.7,40.3,157,194.6,90.1,53.5,534.0,54.0,24.2,0,5,7,0,2026-05-16T23:27:02.995798+05:30
Prayagraj,Uttar Pradesh,25.4358,81.8463,33.0,35,0.0,992.2,8.6,38.5,154,127.1,64.5,37.1,435.0,45.0,15.7,0,5,7,0,2026-05-16T23:27:02.995805+05:30
Gorakhpur,Uttar Pradesh,26.7606,83.3732,28.5,62,0.0,993.1,8.6,31.3,151,123.9,66.8,37.0,556.0,60.0,17.3,7,5,7,1,2026-05-16T23:27:02.995813+05:30
Bareilly,Uttar Pradesh,28.367,79.4304,28.3,45,0.0,982.6,8.0,29.2,140,79.6,54.6,24.7,329.0,74.0,13.5,4,5,7,0,2026-05-16T23:27:02.995820+05:30
Aligarh,Uttar Pradesh,27.8974,78.088,29.4,40,0.0,982.2,7.85,35.6,324,631.4,143.9,32.2,447.0,54.0,13.6,4,5,7,0,2026-05-16T23:27:02.995828+05:30
Moradabad,Uttar Pradesh,28.8386,78.7733,28.9,47,0.0,979.8,7.85,46.8,154,157.9,85.2,47.2,490.0,32.0,14.0,4,5,7,1,2026-05-16T23:27:02.995834+05:30
Saharanpur,Uttar Pradesh,29.9637,77.546,28.4,40,0.0,971.8,7.4,40.7,137,60.1,32.1,13.4,318.0,96.0,9.9,4,5,7,0,2026-05-16T23:27:02.995841+05:30
Jhansi,Uttar Pradesh,25.4484,78.5685,33.7,27,0.0,974.5,8.5,23.0,90,75.2,32.2,11.8,267.0,75.0,7.5,0,5,7,0,2026-05-16T23:27:06.275291+05:30
Surat,Gujarat,21.1702,72.8311,30.5,78,0.0,1003.5,7.75,36.7,84,28.9,20.7,28.6,379.0,33.0,43.3,3,5,4,1,2026-05-16T23:27:06.275322+05:30
Vadodara,Gujarat,22.3072,73.1812,33.0,43,0.0,1001.0,8.1,31.7,68,54.4,29.7,26.0,273.0,53.0,12.7,0,5,4,1,2026-05-16T23:27:06.275335+05:30
Rajkot,Gujarat,22.3039,70.8022,28.6,75,0.0,992.1,7.75,38.5,53,31.3,14.0,7.3,151.0,52.0,5.5,7,5,7,1,2026-05-16T23:27:06.275345+05:30
Thane,Maharashtra,19.2183,72.9781,28.7,83,0.0,1005.2,7.9,44.3,59,39.5,16.4,8.5,200.0,52.0,5.1,7,5,4,1,2026-05-16T23:27:06.275354+05:30
Nagpur,Maharashtra,21.1458,79.0882,34.4,37,0.0,970.2,8.95,38.2,106,87.3,62.6,44.9,289.0,66.0,24.8,0,5,7,1,2026-05-16T23:27:06.275362+05:30
Nashik,Maharashtra,19.9975,73.7898,29.5,43,0.0,943.4,8.2,37.4,59,39.6,22.3,16.1,258.0,64.0,5.2,4,5,7,0,2026-05-16T23:27:06.275371+05:30
Aurangabad,Maharashtra,19.8762,75.3433,33.2,28,0.0,941.8,9.1,37.1,55,29.0,19.6,9.6,277.0,84.0,4.7,0,5,7,0,2026-05-16T23:27:06.275379+05:30
Solapur,Maharashtra,17.6599,75.9064,33.3,35,0.0,954.4,8.45,36.4,75,53.4,44.8,48.8,400.0,38.0,10.7,0,5,7,0,2026-05-16T23:27:06.275388+05:30
Kolhapur,Maharashtra,16.705,74.2433,25.5,88,0.0,945.7,8.55,42.1,82,26.4,20.0,9.0,211.0,71.0,6.6,7,5,7,1,2026-05-16T23:27:06.275396+05:30
Goa,Goa,15.2993,74.124,29.4,81,0.0,996.0,8.9,36.4,64,28.8,16.2,4.1,243.0,44.0,1.2,7,5,7,1,2026-05-16T23:27:06.275404+05:30
Jodhpur,Rajasthan,26.2389,73.0243,34.7,28,0.0,980.2,8.4,31.0,114,122.9,29.7,10.7,263.0,65.0,4.0,0,5,7,0,2026-05-16T23:27:06.275412+05:30
Udaipur,Rajasthan,24.5854,73.7125,31.8,33,0.0,944.5,8.85,31.3,54,35.5,16.9,5.2,210.0,66.0,3.1,0,5,7,0,2026-05-16T23:27:06.275420+05:30
Kota,Rajasthan,25.2138,75.8648,34.2,26,0.0,975.5,8.45,29.5,69,102.9,41.1,18.4,349.0,61.0,6.1,0,5,7,0,2026-05-16T23:27:06.275428+05:30
Bikaner,Rajasthan,28.0229,73.3119,33.6,25,0.0,979.4,8.4,25.9,101,115.3,35.0,7.1,297.0,56.0,2.4,0,5,7,0,2026-05-16T23:27:06.275435+05:30
Ajmer,Rajasthan,26.4499,74.6399,32.0,30,0.0,952.7,8.4,34.2,81,121.1,45.4,24.2,293.0,50.0,5.9,0,5,7,0,2026-05-16T23:27:06.275443+05:30
Gwalior,Madhya Pradesh,26.2183,78.1828,33.2,26,0.0,980.0,8.25,36.7,116,228.6,60.3,15.0,322.0,72.0,8.9,0,5,7,0,2026-05-16T23:27:06.275451+05:30
Indore,Madhya Pradesh,22.7196,75.8577,31.9,29,0.0,946.1,8.7,37.4,57,25.4,16.0,6.0,277.0,84.0,4.0,0,5,7,0,2026-05-16T23:27:06.275459+05:30
Bhopal,Madhya Pradesh,23.2599,77.4126,33.9,22,0.0,950.9,8.7,39.6,54,36.8,24.1,13.1,483.0,63.0,6.0,0,5,7,0,2026-05-16T23:27:06.275467+05:30
Jabalpur,Madhya Pradesh,23.1815,79.9864,31.6,37,0.0,958.5,8.9,37.8,108,60.1,38.1,27.5,270.0,61.0,8.4,0,5,7,0,2026-05-16T23:27:06.275475+05:30
Ujjain,Madhya Pradesh,23.1765,75.7885,31.6,28,0.0,951.5,8.65,38.2,51,27.2,16.5,3.5,220.0,84.0,3.1,0,5,7,0,2026-05-16T23:27:06.275483+05:30
Visakhapatnam,Andhra Pradesh,17.6868,83.2185,29.1,85,0.0,1001.9,9.15,39.6,61,19.3,15.2,25.0,258.0,44.0,41.3,7,5,4,1,2026-05-16T23:27:06.275492+05:30
Vijayawada,Andhra Pradesh,16.5062,80.648,30.1,79,0.0,1000.2,8.85,32.4,48,11.9,10.0,8.2,168.0,52.0,6.3,3,5,4,1,2026-05-16T23:27:06.275500+05:30
Guntur,Andhra Pradesh,16.3067,80.4365,29.8,82,0.0,1001.3,8.85,40.7,49,10.8,9.2,6.8,154.0,51.0,2.9,7,5,4,1,2026-05-16T23:27:06.275507+05:30
Nellore,Andhra Pradesh,14.4426,79.9865,29.3,81,0.0,1003.2,8.25,33.8,45,14.1,9.6,2.7,207.0,78.0,1.7,7,5,4,1,2026-05-16T23:27:06.275516+05:30
Kurnool,Andhra Pradesh,15.8281,78.0373,30.4,60,0.0,974.2,8.95,51.8,124,32.9,22.0,5.5,277.0,78.0,2.9,0,5,7,1,2026-05-16T23:27:06.275525+05:30
Kakinada,Andhra Pradesh,16.9891,82.2475,29.2,83,0.0,1005.6,9.15,40.3,34,9.0,5.9,1.9,197.0,67.0,1.3,7,5,4,1,2026-05-16T23:27:06.275534+05:30
Tirupati,Andhra Pradesh,13.6288,79.4192,28.2,79,0.0,988.8,9.25,33.1,56,17.1,15.4,23.1,278.0,56.0,17.4,7,5,7,1,2026-05-16T23:27:06.275543+05:30
Warangal,Telangana,17.9689,79.5941,29.3,71,0.0,976.1,9.15,49.3,101,37.1,29.6,10.5,290.0,82.0,9.0,7,5,7,1,2026-05-16T23:27:06.275551+05:30
Nizamabad,Telangana,18.6725,78.0941,31.4,51,0.0,961.3,9.05,33.1,93,68.9,55.9,36.0,304.0,56.0,8.6,0,5,7,1,2026-05-16T23:27:06.275559+05:30
Mysore,Karnataka,12.2958,76.6396,22.5,90,0.0,926.3,7.2,40.0,113,55.2,41.3,21.4,449.0,80.0,5.7,3,5,7,1,2026-05-16T23:27:06.275567+05:30
Mangalore,Karnataka,12.9141,74.856,26.2,97,0.0,1004.8,7.95,35.6,61,31.9,22.8,12.7,495.0,33.0,3.3,7,5,4,1,2026-05-16T23:27:06.275575+05:30
Hubli-Dharwad,Karnataka,15.3647,75.124,24.6,93,0.0,938.8,7.8,46.1,78,17.2,13.1,8.6,211.0,53.0,2.4,3,5,7,1,2026-05-16T23:27:06.275584+05:30
Belgaum,Karnataka,15.8497,74.4977,24.3,91,0.0,924.5,9.2,40.7,68,19.9,15.3,10.1,158.0,48.0,3.0,3,5,7,1,2026-05-16T23:27:09.553965+05:30
Coimbatore,Tamil Nadu,11.0168,76.9558,24.1,89,0.0,959.3,9.0,45.7,93,39.5,31.8,11.8,306.0,76.0,5.3,3,5,7,1,2026-05-16T23:27:09.553998+05:30
Madurai,Tamil Nadu,9.9252,78.1198,28.5,69,0.0,990.6,8.75,26.3,79,35.4,32.4,46.0,736.0,30.0,9.6,7,5,7,1,2026-05-16T23:27:09.554010+05:30
Trichy,Tamil Nadu,10.7905,78.7047,27.0,85,0.0,997.2,3.75,28.8,81,27.2,25.5,28.2,406.0,44.0,5.8,7,5,3,1,2026-05-16T23:27:09.554025+05:30
Salem,Tamil Nadu,11.6643,78.146,27.7,71,0.0,974.9,8.95,27.0,136,90.8,61.9,43.4,369.0,61.0,20.9,7,5,7,1,2026-05-16T23:27:09.554033+05:30
Tirunelveli,Tamil Nadu,8.7139,77.7567,28.5,67,0.0,1000.4,8.6,33.1,54,13.1,11.3,8.6,282.0,69.0,1.9,7,5,4,1,2026-05-16T23:27:09.554041+05:30
Vellore,Tamil Nadu,12.9165,79.1325,27.4,85,0.0,981.9,9.25,28.8,79,18.3,16.5,17.6,353.0,53.0,5.1,7,5,7,1,2026-05-16T23:27:09.554049+05:30
Erode,Tamil Nadu,11.341,77.7172,26.8,79,0.0,986.5,4.5,37.4,102,95.2,64.7,67.8,421.0,23.0,9.8,7,5,3,1,2026-05-16T23:27:09.554057+05:30
Kochi,Kerala,9.9312,76.2673,25.7,93,0.0,1006.9,5.5,32.4,68,22.8,20.1,33.5,378.0,20.0,7.7,7,5,0,1,2026-05-16T23:27:09.554064+05:30
Thiruvananthapuram,Kerala,8.5241,76.9366,24.8,94,0.0,1006.3,8.2,50.4,48,15.9,10.2,5.5,357.0,90.0,2.5,3,5,4,1,2026-05-16T23:27:09.554071+05:30
Kozhikode,Kerala,11.2588,75.7804,24.6,96,0.0,1005.8,7.55,46.4,62,26.1,16.4,2.5,347.0,81.0,1.4,3,5,4,1,2026-05-16T23:27:09.554078+05:30
Thrissur,Kerala,10.5276,76.2144,24.9,91,0.0,1005.1,8.0,33.1,75,29.7,25.3,27.0,421.0,32.0,6.2,3,5,4,1,2026-05-16T23:27:09.554086+05:30
Kannur,Kerala,11.8745,75.3704,24.9,98,0.0,1005.4,8.7,36.4,63,27.0,22.1,16.7,354.0,47.0,3.1,3,5,4,1,2026-05-16T23:27:09.554093+05:30
Patna,Bihar,25.5941,85.1376,29.6,73,0.0,996.6,8.8,23.4,152,116.2,85.0,57.6,499.0,44.0,24.3,7,5,7,1,2026-05-16T23:27:09.554100+05:30
Gaya,Bihar,24.7914,85.0002,28.5,61,0.0,990.2,8.85,35.6,151,146.7,69.2,36.8,658.0,59.0,15.2,7,5,7,1,2026-05-16T23:27:09.554107+05:30
Muzaffarpur,Bihar,26.1209,85.3647,28.5,74,0.0,996.8,8.8,33.5,152,81.7,71.0,29.9,603.0,77.0,17.1,7,5,7,1,2026-05-16T23:27:09.554113+05:30
Bhagalpur,Bihar,25.2425,87.0117,28.6,81,0.0,997.8,8.8,29.9,147,51.6,46.4,11.9,432.0,108.0,10.8,7,5,7,1,2026-05-16T23:27:09.554120+05:30
Ranchi,Jharkhand,23.3441,85.3096,26.4,61,0.0,935.4,9.25,36.7,136,85.0,59.1,32.1,388.0,63.0,11.4,7,5,7,1,2026-05-16T23:27:09.554127+05:30
Jamshedpur,Jharkhand,22.8046,86.2029,28.5,78,0.0,988.4,9.1,28.1,134,54.5,41.7,15.8,494.0,82.0,20.4,7,5,7,1,2026-05-16T23:27:09.554134+05:30
Dhanbad,Jharkhand,23.7957,86.4304,28.1,75,0.0,976.9,9.05,22.7,162,88.0,73.1,74.9,659.0,28.0,132.4,7,5,7,1,2026-05-16T23:27:09.554141+05:30
Bokaro,Jharkhand,23.6693,86.1511,28.1,67,0.0,980.5,9.05,31.7,158,111.5,76.1,68.2,1635.0,26.0,114.1,7,5,7,1,2026-05-16T23:27:09.554148+05:30
Bhubaneswar,Odisha,20.2961,85.8245,28.9,85,0.0,1000.7,9.2,43.6,42,13.7,9.4,6.3,189.0,41.0,2.5,7,5,4,1,2026-05-16T23:27:09.554155+05:30
Cuttack,Odisha,20.4625,85.8828,29.1,84,0.0,1002.5,9.2,42.8,42,13.7,9.4,6.3,202.0,41.0,2.5,7,5,4,1,2026-05-16T23:27:09.554162+05:30
Rourkela,Odisha,22.2604,84.8536,29.0,72,0.0,982.8,8.4,36.4,153,71.7,54.2,18.3,384.0,113.0,15.7,7,5,7,1,2026-05-16T23:27:09.554169+05:30
Raipur,Chhattisgarh,21.2514,81.6296,30.0,64,0.0,972.5,9.05,28.4,158,63.1,51.8,23.5,380.0,86.0,29.9,7,5,7,1,2026-05-16T23:27:09.554176+05:30
Bhilai,Chhattisgarh,21.1938,81.3509,29.2,64,0.0,972.8,9.05,36.4,158,66.1,55.1,35.1,301.0,75.0,44.4,7,5,7,1,2026-05-16T23:27:09.554182+05:30
Guwahati,Assam,26.1158,91.7086,23.0,99,0.0,999.7,8.5,26.3,69,25.2,22.2,12.7,364.0,52.0,3.5,3,5,7,1,2026-05-16T23:27:09.554189+05:30
Agartala,Tripura,23.8315,91.2868,26.1,96,0.0,1004.2,6.8,32.0,70,28.1,22.1,18.5,260.0,29.0,3.2,7,5,4,1,2026-05-16T23:27:09.554196+05:30
Shillong,Meghalaya,25.5788,91.8933,17.5,95,0.0,854.9,8.05,40.3,48,11.7,9.7,8.1,264.0,69.0,3.4,3,10,7,1,2026-05-16T23:27:09.554203+05:30
Imphal,Manipur,24.817,93.9368,20.9,95,0.0,921.4,8.75,31.7,83,44.5,36.3,23.5,626.0,35.0,4.2,3,5,7,1,2026-05-16T23:27:09.554210+05:30
Aizawl,Mizoram,23.7271,92.7176,19.2,94,0.0,890.8,9.15,29.2,57,15.8,10.0,4.8,179.0,66.0,2.4,3,10,7,1,2026-05-16T23:27:09.554217+05:30
Kohima,Nagaland,25.6701,94.1077,15.3,96,0.0,851.7,9.2,25.9,57,24.4,17.7,15.7,345.0,32.0,1.8,3,10,7,0,2026-05-16T23:27:09.554224+05:30
Gangtok,Sikkim,27.3314,88.6138,14.1,100,0.2,834.6,9.1,36.4,64,15.4,13.6,13.4,647.0,97.0,2.0,6,10,7,0,2026-05-16T23:27:09.554231+05:30
Siliguri,West Bengal,26.7271,88.3953,22.4,97,0.1,991.2,8.65,27.7,78,25.7,21.1,16.4,515.0,95.0,3.6,6,5,7,1,2026-05-16T23:27:12.832130+05:30
Durgapur,West Bengal,23.5204,87.3119,28.0,90,0.0,992.1,9.0,33.8,153,35.7,32.8,22.1,339.0,70.0,32.5,7,5,7,1,2026-05-16T23:27:12.832159+05:30
Asansol,West Bengal,23.6739,86.9524,28.5,86,0.0,990.5,9.05,32.0,154,45.2,39.7,33.6,388.0,60.0,27.5,7,5,7,1,2026-05-16T23:27:12.832170+05:30
Pondicherry,Puducherry,11.9139,79.8145,28.8,84,0.0,1005.3,9.05,32.4,69,20.7,15.3,5.6,367.0,106.0,5.3,7,5,4,1,2026-05-16T23:27:12.832179+05:30
Port Blair,Andaman and Nicobar Islands,11.6234,92.7265,27.9,84,0.0,1006.0,6.6,39.6,26,10.5,6.3,0.3,112.0,53.0,0.3,7,5,4,1,2026-05-16T23:27:12.832187+05:30
Haridwar,Uttarakhand,29.9457,78.1642,25.8,59,0.0,969.8,7.5,35.6,100,49.8,37.6,22.9,471.0,78.0,12.1,4,5,7,1,2026-05-16T23:27:12.832195+05:30
Rishikesh,Uttarakhand,30.0869,78.2676,24.8,51,0.0,962.6,7.6,29.9,112,57.6,37.1,16.9,367.0,107.0,9.1,0,5,7,0,2026-05-16T23:27:12.832203+05:30
Nainital,Uttarakhand,29.3919,79.4542,14.8,61,0.0,802.8,8.45,47.2,96,52.2,31.2,12.0,310.0,110.0,6.8,3,5,7,0,2026-05-16T23:27:12.832210+05:30
Mussoorie,Uttarakhand,30.4599,78.0664,15.9,57,0.0,800.5,8.0,45.7,102,64.0,42.8,39.5,318.0,68.0,11.5,0,5,7,0,2026-05-16T23:27:12.832218+05:30
Dharamshala,Himachal Pradesh,32.219,76.3234,21.1,51,0.0,867.5,8.35,42.5,50,25.0,16.4,16.3,270.0,50.0,0.7,0,5,7,0,2026-05-16T23:27:12.832225+05:30
Dalhousie,Himachal Pradesh,32.5387,75.971,12.1,71,0.0,800.6,8.6,41.0,79,46.8,30.6,45.2,438.0,49.0,2.8,3,5,7,0,2026-05-16T23:27:12.832233+05:30
Patiala,Punjab,30.3398,76.3869,29.1,36,0.0,974.9,7.6,45.4,336,542.0,100.4,12.1,434.0,86.0,7.2,4,5,7,0,2026-05-16T23:27:12.832240+05:30
Bhatinda,Punjab,30.211,74.9455,29.8,44,0.0,980.6,8.25,33.5,100,59.3,32.0,11.4,384.0,76.0,6.2,4,5,7,1,2026-05-16T23:27:12.832247+05:30
Rohtak,Haryana,28.8955,76.6066,29.6,41,0.0,978.5,7.75,38.5,578,901.5,171.8,26.5,425.0,58.0,8.1,4,5,7,0,2026-05-16T23:27:12.832254+05:30
Panipat,Haryana,29.3909,76.9635,29.5,39,0.0,977.0,7.55,41.4,1135,1560.9,264.5,16.1,466.0,73.0,7.8,4,5,7,0,2026-05-16T23:27:12.832261+05:30
Mathura,Uttar Pradesh,27.4924,77.6737,31.4,32,0.0,983.5,8.0,36.4,465,581.1,122.9,24.9,334.0,60.0,7.2,0,5,7,0,2026-05-16T23:27:12.832268+05:30
Vrindavan,Uttar Pradesh,27.5823,77.7027,30.7,35,0.0,984.0,7.95,34.9,465,581.1,122.9,24.9,317.0,60.0,7.2,0,5,7,0,2026-05-16T23:27:12.832275+05:30
Ayodhya,Uttar Pradesh,26.7922,82.1998,28.9,54,0.0,991.2,8.35,33.5,158,131.3,58.2,19.8,388.0,75.0,12.1,4,5,7,1,2026-05-16T23:27:12.832282+05:30
Ratlam,Madhya Pradesh,23.3315,75.0367,30.2,26,0.0,952.3,8.55,33.5,53,30.6,17.6,3.4,189.0,79.0,2.9,0,5,7,0,2026-05-16T23:27:12.832290+05:30
Sagar,Madhya Pradesh,23.8388,78.7378,32.5,29,0.0,947.4,8.75,33.8,76,33.2,19.7,17.7,266.0,56.0,4.3,0,5,7,0,2026-05-16T23:27:12.832298+05:30
Satna,Madhya Pradesh,24.6005,80.8322,32.5,33,0.0,968.1,8.75,33.1,118,69.4,32.0,18.0,342.0,72.0,5.2,0,5,7,0,2026-05-16T23:27:12.832305+05:30
Akola,Maharashtra,20.7002,77.0082,35.8,24,0.0,971.5,8.2,42.1,63,25.1,18.9,11.9,248.0,76.0,5.5,0,5,10,0,2026-05-16T23:27:12.832313+05:30
Amravati,Maharashtra,20.9374,77.7796,35.0,24,0.0,963.9,8.9,36.7,58,29.3,22.7,21.9,303.0,58.0,5.9,0,5,7,0,2026-05-16T23:27:12.832321+05:30
Latur,Maharashtra,18.4088,76.5604,31.4,31,0.0,936.8,8.8,38.2,89,32.8,23.9,18.0,438.0,83.0,10.9,0,5,7,0,2026-05-16T23:27:12.832329+05:30
Nanded,Maharashtra,19.1383,77.3091,32.3,38,0.0,964.7,8.25,30.6,71,51.5,39.9,38.1,716.0,49.0,9.8,0,5,7,1,2026-05-16T23:27:12.832337+05:30
Gulbarga,Karnataka,17.3297,76.8343,29.2,58,0.0,956.5,8.6,46.8,87,45.2,34.6,18.4,328.0,83.0,10.7,4,5,7,1,2026-05-16T23:27:12.832343+05:30
Bidar,Karnataka,17.9104,77.5199,29.0,58,0.0,933.3,8.9,33.5,96,42.3,34.8,27.7,375.0,70.0,6.6,4,5,7,1,2026-05-16T23:27:12.832351+05:30
Hospet,Karnataka,15.2689,76.3909,27.0,74,0.0,954.0,8.6,48.6,116,36.0,30.2,15.3,283.0,89.0,7.5,7,5,7,1,2026-05-16T23:27:12.832357+05:30
Tirupur,Tamil Nadu,11.1085,77.3411,25.0,85,0.0,972.6,7.6,42.8,109,72.2,51.1,40.5,295.0,61.0,8.4,7,5,7,1,2026-05-16T23:27:12.832364+05:30
Alappuzha,Kerala,9.4981,76.3388,26.0,97,0.0,1007.1,7.9,38.9,60,27.7,19.6,16.8,257.0,71.0,5.7,7,5,4,1,2026-05-16T23:27:12.832371+05:30
Munnar,Kerala,10.0889,77.0595,18.0,95,0.0,854.6,3.75,28.4,65,29.5,23.7,18.3,365.0,29.0,2.4,3,10,3,1,2026-05-16T23:27:12.832378+05:30
Silchar,Assam,24.8333,92.7789,24.8,96,0.0,1003.7,8.75,28.4,74,35.2,24.4,10.4,318.0,79.0,5.4,3,5,4,1,2026-05-16T23:27:12.832385+05:30
Dibrugarh,Assam,27.4728,94.912,22.6,96,0.3,993.6,8.9,22.3,83,23.4,20.5,19.1,284.0,25.0,1.6,6,5,7,1,2026-05-16T23:27:12.832392+05:30
