city,state,latitude,longitude,temp,humidity,rain,pressure,uv_index,wind_gusts,aqi,pm10,pm2_5,mosquito_risk,arthritis_risk,migraine_risk,frizz_risk,updated_at
Delhi,Delhi,28.6139,77.209,35.0,22,0.0,978.8,7.4,48.6,561,856.8,122.5,0,5,7,0,2026-04-26T21:15:43.280215+05:30
Mumbai,Maharashtra,19.076,72.8777,29.4,80,0.0,1007.0,7.6,37.1,117,75.2,36.9,7,5,4,1,2026-04-26T21:15:43.280265+05:30
Bangalore,Karnataka,12.9716,77.5946,28.8,38,0.0,912.3,9.55,36.7,157,30.0,26.3,4,5,7,0,2026-04-26T21:15:43.280280+05:30
Hyderabad,Telangana,17.385,78.4867,34.7,27,0.0,952.9,9.25,33.5,155,74.0,65.4,0,5,7,0,2026-04-26T21:15:43.280289+05:30
Chennai,Tamil Nadu,13.0827,80.2707,29.2,80,0.0,1007.0,9.25,49.7,42,19.6,12.9,7,5,4,1,2026-04-26T21:15:43.280297+05:30
Kolkata,West Bengal,22.5726,88.3639,29.0,78,0.0,1004.2,8.9,40.0,61,21.9,16.2,7,5,4,1,2026-04-26T21:15:43.280307+05:30
Pune,Maharashtra,18.5204,73.8567,30.5,56,0.0,947.4,8.35,38.9,165,33.4,24.8,0,5,7,1,2026-04-26T21:15:43.280315+05:30
Ahmedabad,Gujarat,23.0225,72.5714,38.6,12,0.0,999.0,8.2,38.9,81,47.0,23.6,0,5,10,0,2026-04-26T21:15:43.280321+05:30
Jaipur,Rajasthan,26.9124,75.7873,36.1,18,0.0,957.3,8.05,41.8,149,172.8,38.1,0,5,10,0,2026-04-26T21:15:43.280329+05:30
Lucknow,Uttar Pradesh,26.8467,80.9462,36.0,19,0.0,989.2,7.9,52.6,155,410.7,75.7,0,5,10,0,2026-04-26T21:15:43.280336+05:30
Kanpur,Uttar Pradesh,26.4499,80.3319,36.3,19,0.0,987.8,7.9,54.7,501,750.6,105.0,0,5,10,0,2026-04-26T21:15:43.280343+05:30
Chandigarh,Chandigarh,30.7333,76.7794,29.5,29,0.0,964.8,7.4,45.7,106,21.8,15.4,4,5,7,0,2026-04-26T21:15:43.280349+05:30
Srinagar,Jammu and Kashmir,34.0837,74.7973,14.7,75,0.0,838.8,8.6,16.2,86,37.4,27.6,3,5,7,0,2026-04-26T21:15:43.280356+05:30
Jammu,Jammu and Kashmir,32.7266,74.857,30.5,21,0.0,968.5,8.15,33.8,84,45.2,30.9,0,5,7,0,2026-04-26T21:15:43.280362+05:30
Amritsar,Punjab,31.634,74.8723,31.8,25,0.0,976.4,8.1,36.7,109,28.2,16.8,0,5,7,0,2026-04-26T21:15:43.280368+05:30
Ludhiana,Punjab,30.901,75.8573,32.0,25,0.0,974.5,7.65,41.8,95,59.8,23.6,0,5,7,0,2026-04-26T21:15:43.280376+05:30
Jalandhar,Punjab,31.326,75.5762,32.0,25,0.0,975.4,7.85,37.4,107,57.4,23.5,0,5,7,0,2026-04-26T21:15:43.280381+05:30
Dehradun,Uttarakhand,30.6284,78.0322,16.3,48,0.0,826.1,7.8,49.0,94,21.5,10.5,0,5,7,0,2026-04-26T21:15:43.280387+05:30
Shimla,Himachal Pradesh,31.1048,77.1734,15.6,40,0.0,783.0,7.9,52.9,93,24.0,10.5,0,5,7,0,2026-04-26T21:15:43.280393+05:30
Manali,Himachal Pradesh,32.2396,77.1887,10.7,54,0.0,813.5,9.8,45.0,125,24.6,10.0,0,5,7,0,2026-04-26T21:15:43.280399+05:30
Gurgaon,Haryana,28.4595,77.0266,33.0,24,0.0,977.3,7.55,49.7,1567,1538.5,182.1,0,5,7,0,2026-04-26T21:15:43.280407+05:30
Noida,Uttar Pradesh,28.5355,77.391,35.5,20,0.0,980.1,7.45,43.9,1567,1538.5,182.1,0,5,10,0,2026-04-26T21:15:43.280413+05:30
Ghaziabad,Uttar Pradesh,28.6692,77.4538,36.1,18,0.0,978.1,7.4,47.9,460,761.8,111.1,0,5,10,0,2026-04-26T21:15:43.280419+05:30
Faridabad,Haryana,28.4089,77.3178,35.8,20,0.0,979.6,7.5,53.3,1567,1538.5,182.1,0,5,10,0,2026-04-26T21:15:43.280424+05:30
Meerut,Uttar Pradesh,28.9845,77.7064,32.3,24,0.0,976.9,7.3,50.8,460,761.8,111.1,0,5,7,0,2026-04-26T21:15:43.280430+05:30
Agra,Uttar Pradesh,27.1767,78.0081,34.5,24,0.0,983.8,7.8,50.4,972,1020.7,111.5,0,5,7,0,2026-04-26T21:15:43.280437+05:30
Varanasi,Uttar Pradesh,25.3176,82.9739,33.8,38,0.0,993.7,8.5,53.3,143,108.7,52.5,0,5,7,1,2026-04-26T21:15:43.280443+05:30
Prayagraj,Uttar Pradesh,25.4358,81.8463,35.6,21,0.0,991.6,8.4,50.8,136,111.3,41.1,0,5,10,0,2026-04-26T21:15:43.280449+05:30
Gorakhpur,Uttar Pradesh,26.7606,83.3732,27.9,64,0.0,994.6,8.35,40.7,172,75.4,57.5,7,5,7,1,2026-04-26T21:15:43.280455+05:30
Bareilly,Uttar Pradesh,28.367,79.4304,32.5,28,0.0,981.9,7.65,54.7,116,160.7,42.3,0,5,7,0,2026-04-26T21:15:43.280461+05:30
Aligarh,Uttar Pradesh,27.8974,78.088,33.0,26,0.0,981.1,7.6,51.8,1043,1329.9,178.8,0,5,7,0,2026-04-26T21:15:43.280468+05:30
Moradabad,Uttar Pradesh,28.8386,78.7733,32.8,27,0.0,978.8,7.5,55.8,129,244.0,57.2,0,5,7,0,2026-04-26T21:15:43.280474+05:30
Saharanpur,Uttar Pradesh,29.9637,77.546,32.2,21,0.0,970.8,7.1,52.2,93,128.5,30.4,0,5,7,0,2026-04-26T21:15:43.280480+05:30
Jhansi,Uttar Pradesh,25.4484,78.5685,34.7,21,0.0,975.0,8.3,49.0,92,56.2,22.2,0,5,7,0,2026-04-26T21:15:46.570958+05:30
Surat,Gujarat,21.1702,72.8311,30.5,65,0.0,1004.4,7.85,36.0,114,68.9,43.5,3,5,4,1,2026-04-26T21:15:46.570989+05:30
Vadodara,Gujarat,22.3072,73.1812,36.5,20,0.0,1001.5,8.15,41.4,140,53.9,39.2,0,5,7,0,2026-04-26T21:15:46.570999+05:30
Rajkot,Gujarat,22.3039,70.8022,32.0,31,0.0,992.6,7.85,39.2,59,32.9,14.8,0,5,7,0,2026-04-26T21:15:46.571007+05:30
Thane,Maharashtra,19.2183,72.9781,29.9,74,0.0,1006.5,7.6,32.8,117,75.2,36.9,7,5,4,1,2026-04-26T21:15:46.571015+05:30
Nagpur,Maharashtra,21.1458,79.0882,39.3,14,0.0,970.7,8.9,34.6,186,85.0,44.5,0,5,10,0,2026-04-26T21:15:46.571022+05:30
Nashik,Maharashtra,19.9975,73.7898,31.6,30,0.0,944.8,8.1,36.0,141,36.9,26.3,0,5,7,0,2026-04-26T21:15:46.571029+05:30
Aurangabad,Maharashtra,19.8762,75.3433,35.0,15,0.0,942.8,9.05,32.4,111,21.2,15.8,0,5,7,0,2026-04-26T21:15:46.571036+05:30
Solapur,Maharashtra,17.6599,75.9064,36.8,19,0.0,955.4,9.05,25.2,166,54.5,45.9,0,5,10,0,2026-04-26T21:15:46.571043+05:30
Kolhapur,Maharashtra,16.705,74.2433,26.9,76,0.0,947.5,9.0,50.8,153,23.2,18.9,7,5,7,1,2026-04-26T21:15:46.571050+05:30
Goa,Goa,15.2993,74.124,30.3,76,0.0,997.5,8.95,34.9,89,34.8,25.1,3,5,7,1,2026-04-26T21:15:46.571057+05:30
Jodhpur,Rajasthan,26.2389,73.0243,36.5,19,0.0,979.5,8.3,34.2,80,163.0,24.9,0,5,10,0,2026-04-26T21:15:46.571064+05:30
Udaipur,Rajasthan,24.5854,73.7125,34.3,16,0.0,945.5,8.75,47.9,85,15.7,7.4,0,5,7,0,2026-04-26T21:15:46.571070+05:30
Kota,Rajasthan,25.2138,75.8648,34.0,25,0.0,976.1,8.3,46.8,91,58.9,26.1,0,5,7,0,2026-04-26T21:15:46.571077+05:30
Bikaner,Rajasthan,28.0229,73.3119,35.8,22,0.0,978.3,8.15,37.1,72,48.5,16.8,0,5,10,0,2026-04-26T21:15:46.571084+05:30
Ajmer,Rajasthan,26.4499,74.6399,34.9,20,0.0,952.7,8.25,41.4,67,58.3,20.2,0,5,7,0,2026-04-26T21:15:46.571091+05:30
Gwalior,Madhya Pradesh,26.2183,78.1828,35.6,21,0.0,979.9,8.0,45.4,123,63.6,21.8,0,5,10,0,2026-04-26T21:15:46.571098+05:30
Indore,Madhya Pradesh,22.7196,75.8577,33.5,28,0.0,947.1,8.65,37.4,103,48.4,25.1,0,5,7,0,2026-04-26T21:15:46.571104+05:30
Bhopal,Madhya Pradesh,23.2599,77.4126,33.8,25,0.0,952.7,8.65,37.8,111,68.7,30.6,0,5,7,0,2026-04-26T21:15:46.571111+05:30
Jabalpur,Madhya Pradesh,23.1815,79.9864,33.1,22,0.0,959.6,8.7,42.1,73,65.2,26.3,0,5,7,0,2026-04-26T21:15:46.571118+05:30
Ujjain,Madhya Pradesh,23.1765,75.7885,32.1,25,0.0,952.1,8.55,41.4,77,51.5,27.6,0,5,7,0,2026-04-26T21:15:46.571125+05:30
Visakhapatnam,Andhra Pradesh,17.6868,83.2185,28.6,85,0.0,1003.3,8.95,47.5,56,21.8,14.7,7,5,4,1,2026-04-26T21:15:46.571132+05:30
Vijayawada,Andhra Pradesh,16.5062,80.648,29.0,76,0.0,1002.1,8.9,37.4,57,20.6,15.4,7,5,4,1,2026-04-26T21:15:46.571138+05:30
Guntur,Andhra Pradesh,16.3067,80.4365,28.5,84,0.0,1003.3,8.95,40.7,74,21.1,16.4,7,5,4,1,2026-04-26T21:15:46.571145+05:30
Nellore,Andhra Pradesh,14.4426,79.9865,29.2,76,0.0,1005.0,9.1,43.9,73,17.9,13.2,7,5,4,1,2026-04-26T21:15:46.571153+05:30
Kurnool,Andhra Pradesh,15.8281,78.0373,34.9,26,0.0,975.1,9.2,33.8,144,45.1,38.4,0,5,7,0,2026-04-26T21:15:46.571160+05:30
Kakinada,Andhra Pradesh,16.9891,82.2475,28.8,81,0.0,1007.0,8.85,40.3,47,20.5,12.2,7,5,4,1,2026-04-26T21:15:46.571167+05:30
Tirupati,Andhra Pradesh,13.6288,79.4192,30.6,55,0.0,990.9,9.3,40.3,87,22.2,19.6,0,5,7,1,2026-04-26T21:15:46.571174+05:30
Warangal,Telangana,17.9689,79.5941,33.9,29,0.0,977.3,9.0,35.3,127,40.5,35.7,0,5,7,0,2026-04-26T21:15:46.571180+05:30
Nizamabad,Telangana,18.6725,78.0941,33.2,26,0.0,962.7,8.6,31.3,139,46.3,37.8,0,5,7,0,2026-04-26T21:15:46.571187+05:30
Mysore,Karnataka,12.2958,76.6396,26.9,65,0.0,928.1,9.45,40.0,137,43.3,36.1,7,5,7,1,2026-04-26T21:15:46.571193+05:30
Mangalore,Karnataka,12.9141,74.856,30.3,76,0.0,1006.1,9.05,39.2,81,32.8,25.7,3,5,4,1,2026-04-26T21:15:46.571200+05:30
Hubli-Dharwad,Karnataka,15.3647,75.124,27.0,76,0.0,940.7,8.85,45.7,136,37.1,34.0,7,5,7,1,2026-04-26T21:15:46.571207+05:30
Belgaum,Karnataka,15.8497,74.4977,24.5,94,0.0,925.6,8.85,48.2,139,33.8,29.7,3,5,7,1,2026-04-26T21:15:49.855385+05:30
Coimbatore,Tamil Nadu,11.0168,76.9558,28.6,70,0.0,961.7,9.35,39.6,122,37.6,32.7,7,5,7,1,2026-04-26T21:15:49.855415+05:30
Madurai,Tamil Nadu,9.9252,78.1198,31.0,57,0.0,993.4,9.25,37.4,70,10.8,10.4,0,5,7,1,2026-04-26T21:15:49.855424+05:30
Trichy,Tamil Nadu,10.7905,78.7047,30.2,65,0.0,999.7,9.25,30.6,50,14.4,13.8,3,5,7,1,2026-04-26T21:15:49.855433+05:30
Salem,Tamil Nadu,11.6643,78.146,32.3,38,0.0,976.9,9.35,41.8,101,21.1,19.6,0,5,7,1,2026-04-26T21:15:49.855440+05:30
Tirunelveli,Tamil Nadu,8.7139,77.7567,29.9,65,0.0,1003.8,9.2,37.4,77,10.7,10.2,7,5,4,1,2026-04-26T21:15:49.855449+05:30
Vellore,Tamil Nadu,12.9165,79.1325,29.6,66,0.0,984.2,9.3,34.6,88,30.4,28.1,7,5,7,1,2026-04-26T21:15:49.855456+05:30
Erode,Tamil Nadu,11.341,77.7172,33.9,32,0.0,988.3,9.3,39.2,86,18.3,16.9,0,5,7,0,2026-04-26T21:15:49.855464+05:30
Kochi,Kerala,9.9312,76.2673,30.2,73,0.0,1008.8,9.0,39.2,87,22.4,19.6,3,0,4,1,2026-04-26T21:15:49.855471+05:30
Thiruvananthapuram,Kerala,8.5241,76.9366,28.2,81,0.0,1008.3,8.8,32.4,52,11.8,9.0,7,0,4,1,2026-04-26T21:15:49.855479+05:30
Kozhikode,Kerala,11.2588,75.7804,28.7,85,0.0,1007.3,8.4,38.2,56,16.2,12.1,7,5,4,1,2026-04-26T21:15:49.855486+05:30
Thrissur,Kerala,10.5276,76.2144,29.0,82,0.0,1007.0,9.0,41.0,85,16.2,14.6,7,5,4,1,2026-04-26T21:15:49.855493+05:30
Kannur,Kerala,11.8745,75.3704,29.7,80,0.0,1006.5,9.0,39.6,70,23.9,18.7,7,5,4,1,2026-04-26T21:15:49.855500+05:30
Patna,Bihar,25.5941,85.1376,28.0,64,0.0,998.4,8.65,45.4,200,72.9,62.9,7,5,7,1,2026-04-26T21:15:49.855507+05:30
Gaya,Bihar,24.7914,85.0002,28.8,63,0.0,991.2,8.7,36.7,179,70.8,63.3,7,5,7,1,2026-04-26T21:15:49.855513+05:30
Muzaffarpur,Bihar,26.1209,85.3647,26.5,66,0.0,998.7,8.65,48.6,177,75.2,63.8,7,5,7,1,2026-04-26T21:15:49.855520+05:30
Bhagalpur,Bihar,25.2425,87.0117,26.8,73,0.0,1000.3,8.6,40.3,147,33.6,29.7,7,5,4,1,2026-04-26T21:15:49.855526+05:30
Ranchi,Jharkhand,23.3441,85.3096,27.5,38,0.0,935.0,9.15,44.3,136,114.8,39.8,4,5,7,0,2026-04-26T21:15:49.855533+05:30
Jamshedpur,Jharkhand,22.8046,86.2029,29.7,79,0.0,987.9,8.85,37.8,183,48.8,39.0,7,5,7,1,2026-04-26T21:15:49.855540+05:30
Dhanbad,Jharkhand,23.7957,86.4304,28.5,71,0.0,977.8,8.95,42.5,153,91.0,60.3,7,5,7,1,2026-04-26T21:15:49.855547+05:30
Bokaro,Jharkhand,23.6693,86.1511,29.0,69,0.0,981.3,8.95,41.0,153,101.3,58.4,7,5,7,1,2026-04-26T21:15:49.855554+05:30
Bhubaneswar,Odisha,20.2961,85.8245,27.6,89,0.0,1001.3,9.1,50.4,53,16.9,11.8,7,5,4,1,2026-04-26T21:15:49.855561+05:30
Cuttack,Odisha,20.4625,85.8828,27.9,87,0.0,1002.8,9.1,47.2,53,16.9,11.8,7,5,4,1,2026-04-26T21:15:49.855567+05:30
Rourkela,Odisha,22.2604,84.8536,31.6,52,0.0,982.0,8.65,46.4,209,72.2,43.9,0,5,7,1,2026-04-26T21:15:49.855573+05:30
Raipur,Chhattisgarh,21.2514,81.6296,35.8,19,0.0,971.7,8.95,41.0,182,61.2,55.8,0,5,10,0,2026-04-26T21:15:49.855579+05:30
Bhilai,Chhattisgarh,21.1938,81.3509,35.3,20,0.0,971.9,9.0,44.3,162,50.9,44.6,0,5,10,0,2026-04-26T21:15:49.855585+05:30
Guwahati,Assam,26.1158,91.7086,21.9,94,0.1,1002.9,3.7,40.3,135,69.8,51.2,6,5,0,1,2026-04-26T21:15:49.855590+05:30
Agartala,Tripura,23.8315,91.2868,22.9,97,0.2,1006.6,8.8,32.0,94,28.2,21.9,6,5,4,1,2026-04-26T21:15:49.855596+05:30
Shillong,Meghalaya,25.5788,91.8933,15.4,97,0.0,855.7,4.65,45.4,130,65.9,42.7,3,10,3,0,2026-04-26T21:15:49.855601+05:30
Imphal,Manipur,24.817,93.9368,19.1,97,0.0,923.4,5.7,24.1,152,107.3,69.2,3,10,3,1,2026-04-26T21:15:49.855607+05:30
Aizawl,Mizoram,23.7271,92.7176,17.0,99,0.0,892.6,9.0,34.9,111,41.1,25.2,3,10,7,1,2026-04-26T21:15:49.855612+05:30
Kohima,Nagaland,25.6701,94.1077,17.2,86,0.0,854.8,6.95,32.0,151,73.3,43.4,3,10,7,0,2026-04-26T21:15:49.855618+05:30
Gangtok,Sikkim,27.3314,88.6138,14.0,95,0.3,835.7,6.75,41.0,122,44.5,25.7,6,10,7,0,2026-04-26T21:15:49.855623+05:30
Siliguri,West Bengal,26.7271,88.3953,21.8,84,0.0,993.2,8.4,33.1,124,67.8,44.1,3,5,7,1,2026-04-26T21:15:53.136386+05:30
Durgapur,West Bengal,23.5204,87.3119,27.5,86,0.0,992.9,8.85,35.6,151,29.9,28.6,7,5,7,1,2026-04-26T21:15:53.136417+05:30
Asansol,West Bengal,23.6739,86.9524,27.2,83,0.0,991.4,8.9,38.5,169,39.9,37.5,7,5,7,1,2026-04-26T21:15:53.136426+05:30
Pondicherry,Puducherry,11.9139,79.8145,29.2,80,0.0,1008.6,9.2,41.8,37,16.5,11.2,7,0,4,1,2026-04-26T21:15:53.136433+05:30
Port Blair,Andaman and Nicobar Islands,11.6234,92.7265,28.6,74,0.0,1007.7,9.1,35.3,58,19.2,14.2,7,5,4,1,2026-04-26T21:15:53.136442+05:30
Haridwar,Uttarakhand,29.9457,78.1642,26.5,36,0.0,968.9,7.2,54.0,99,34.9,15.3,4,5,7,0,2026-04-26T21:15:53.136450+05:30
Rishikesh,Uttarakhand,30.0869,78.2676,24.0,40,0.0,961.6,7.3,42.1,102,37.1,14.5,0,5,7,0,2026-04-26T21:15:53.136458+05:30
Nainital,Uttarakhand,29.3919,79.4542,17.0,42,0.0,803.5,8.15,54.4,104,81.7,21.5,0,5,7,0,2026-04-26T21:15:53.136465+05:30
Mussoorie,Uttarakhand,30.4599,78.0664,17.1,42,0.0,800.1,7.7,65.2,104,18.2,12.7,0,5,7,0,2026-04-26T21:15:53.136472+05:30
Dharamshala,Himachal Pradesh,32.219,76.3234,22.4,37,0.0,867.2,8.05,43.2,83,32.6,13.9,0,5,7,0,2026-04-26T21:15:53.136479+05:30
Dalhousie,Himachal Pradesh,32.5387,75.971,14.3,59,0.0,801.4,8.3,41.0,92,36.9,19.4,0,5,7,0,2026-04-26T21:15:53.136486+05:30
Patiala,Punjab,30.3398,76.3869,32.3,25,0.0,974.0,7.3,47.9,378,510.4,68.2,0,5,7,0,2026-04-26T21:15:53.136493+05:30
Bhatinda,Punjab,30.211,74.9455,34.0,21,0.0,979.3,8.0,37.8,95,71.5,25.7,0,5,7,0,2026-04-26T21:15:53.136500+05:30
Rohtak,Haryana,28.8955,76.6066,34.2,20,0.0,977.6,7.45,44.6,718,979.8,130.4,0,5,7,0,2026-04-26T21:15:53.136507+05:30
Panipat,Haryana,29.3909,76.9635,32.7,19,0.0,976.0,7.25,48.6,1473,1944.6,226.8,0,5,7,0,2026-04-26T21:15:53.136514+05:30
Mathura,Uttar Pradesh,27.4924,77.6737,32.8,27,0.0,982.7,7.75,50.8,977,642.6,98.0,0,5,7,0,2026-04-26T21:15:53.136521+05:30
Vrindavan,Uttar Pradesh,27.5823,77.7027,32.6,26,0.0,983.0,7.7,47.9,977,642.6,98.0,0,5,7,0,2026-04-26T21:15:53.136527+05:30
Ayodhya,Uttar Pradesh,26.7922,82.1998,31.0,49,0.0,991.7,8.1,42.8,151,93.4,53.7,0,5,7,1,2026-04-26T21:15:53.136534+05:30
Ratlam,Madhya Pradesh,23.3315,75.0367,33.5,17,0.0,953.0,8.5,39.2,74,47.4,27.0,0,5,7,0,2026-04-26T21:15:53.136541+05:30
Sagar,Madhya Pradesh,23.8388,78.7378,31.8,28,0.0,948.8,8.65,41.4,76,62.4,23.4,0,5,7,0,2026-04-26T21:15:53.136548+05:30
Satna,Madhya Pradesh,24.6005,80.8322,33.9,22,0.0,968.8,8.65,50.0,100,78.9,28.8,0,5,7,0,2026-04-26T21:15:53.136555+05:30
Akola,Maharashtra,20.7002,77.0082,35.5,16,0.0,972.5,8.85,34.2,121,38.5,24.2,0,5,10,0,2026-04-26T21:15:53.136562+05:30
Amravati,Maharashtra,20.9374,77.7796,35.8,17,0.0,965.0,8.85,33.8,138,41.2,26.1,0,5,10,0,2026-04-26T21:15:53.136570+05:30
Latur,Maharashtra,18.4088,76.5604,33.2,20,0.0,938.2,8.95,26.6,149,38.0,30.5,0,5,7,0,2026-04-26T21:15:53.136577+05:30
Nanded,Maharashtra,19.1383,77.3091,34.2,20,0.0,965.8,9.0,29.9,121,30.0,23.6,0,5,7,0,2026-04-26T21:15:53.136584+05:30
Gulbarga,Karnataka,17.3297,76.8343,34.0,25,0.0,957.5,7.9,24.5,177,47.4,41.9,0,5,7,0,2026-04-26T21:15:53.136591+05:30
Bidar,Karnataka,17.9104,77.5199,31.6,32,0.0,934.9,7.95,33.8,163,51.9,46.1,0,5,7,0,2026-04-26T21:15:53.136598+05:30
Hospet,Karnataka,15.2689,76.3909,30.8,47,0.0,954.9,8.65,32.4,182,56.2,49.1,0,5,7,1,2026-04-26T21:15:53.136605+05:30
Tirupur,Tamil Nadu,11.1085,77.3411,33.5,31,0.0,974.8,9.4,29.9,105,24.3,21.4,0,5,7,0,2026-04-26T21:15:53.136611+05:30
Alappuzha,Kerala,9.4981,76.3388,28.8,84,0.0,1008.8,8.55,37.8,65,22.5,18.9,7,0,4,1,2026-04-26T21:15:53.136618+05:30
Munnar,Kerala,10.0889,77.0595,19.5,73,0.0,857.9,9.6,26.6,77,27.7,26.5,3,5,7,0,2026-04-26T21:15:53.136625+05:30
Silchar,Assam,24.8333,92.7789,23.8,92,0.0,1006.2,6.8,27.4,162,124.8,81.7,3,5,4,1,2026-04-26T21:15:53.136632+05:30
Dibrugarh,Assam,27.4728,94.912,21.5,95,0.0,996.7,5.15,20.5,90,66.1,44.2,3,5,3,1,2026-04-26T21:15:53.136639+05:30
