city,state,latitude,longitude,temp,humidity,rain,pressure,uv_index,wind_gusts,aqi,pm10,pm2_5,no2,co,o3,so2,mosquito_risk,arthritis_risk,migraine_risk,frizz_risk,updated_at
Delhi,Delhi,28.6139,77.209,33.2,20,0.0,978.0,7.7,41.8,473,776.7,167.2,28.0,487.0,64.0,17.1,0,5,7,0,2026-05-24T00:44:50.245405+05:30
Mumbai,Maharashtra,19.076,72.8777,30.9,73,0.0,1009.3,7.65,36.4,41,9.8,6.9,6.3,251.0,54.0,4.9,3,0,4,1,2026-05-24T00:44:50.245454+05:30
Bangalore,Karnataka,12.9716,77.5946,22.2,92,0.0,913.1,6.2,43.9,43,17.0,15.1,27.3,287.0,41.0,6.5,3,5,7,1,2026-05-24T00:44:50.245470+05:30
Hyderabad,Telangana,17.385,78.4867,30.3,50,0.0,952.6,9.25,47.5,80,22.4,19.5,8.3,222.0,94.0,5.2,0,5,7,1,2026-05-24T00:44:50.245480+05:30
Chennai,Tamil Nadu,13.0827,80.2707,31.8,60,0.0,1005.5,8.55,64.4,74,31.0,26.2,13.3,358.0,82.0,10.0,0,5,4,1,2026-05-24T00:44:50.245489+05:30
Kolkata,West Bengal,22.5726,88.3639,29.6,89,0.0,1002.3,9.0,38.9,97,28.1,22.6,5.0,243.0,91.0,4.7,7,5,4,1,2026-05-24T00:44:50.245498+05:30
Pune,Maharashtra,18.5204,73.8567,26.4,84,0.0,949.5,8.35,41.0,39,11.1,9.9,14.2,198.0,42.0,9.4,7,5,7,1,2026-05-24T00:44:50.245505+05:30
Ahmedabad,Gujarat,23.0225,72.5714,33.7,59,0.0,1001.1,8.1,36.4,74,23.3,18.9,6.7,193.0,63.0,4.1,0,5,4,1,2026-05-24T00:44:50.245512+05:30
Jaipur,Rajasthan,26.9124,75.7873,33.7,23,0.0,957.0,8.25,50.0,180,306.4,74.5,9.8,232.0,63.0,5.8,0,5,7,0,2026-05-24T00:44:50.245526+05:30
Lucknow,Uttar Pradesh,26.8467,80.9462,33.2,29,0.0,987.6,8.2,47.9,167,439.6,109.4,14.7,370.0,80.0,9.5,0,5,7,0,2026-05-24T00:44:50.245533+05:30
Kanpur,Uttar Pradesh,26.4499,80.3319,34.4,25,0.0,986.4,8.2,48.2,455,676.1,137.4,15.2,294.0,71.0,9.1,0,5,7,0,2026-05-24T00:44:50.245539+05:30
Chandigarh,Chandigarh,30.7333,76.7794,29.3,23,0.0,963.3,7.75,48.2,84,38.9,28.8,24.5,350.0,55.0,8.4,4,5,7,0,2026-05-24T00:44:50.245546+05:30
Srinagar,Jammu and Kashmir,34.0837,74.7973,13.1,86,0.0,841.5,8.9,29.5,67,47.8,40.3,39.6,827.0,15.0,2.4,3,10,7,0,2026-05-24T00:44:50.245555+05:30
Jammu,Jammu and Kashmir,32.7266,74.857,27.0,33,0.0,968.7,8.55,32.8,75,31.4,22.2,22.2,289.0,42.0,2.8,4,5,7,0,2026-05-24T00:44:50.245562+05:30
Amritsar,Punjab,31.634,74.8723,28.9,35,0.0,976.5,8.45,23.8,132,60.3,46.2,32.3,355.0,38.0,8.7,4,5,7,0,2026-05-24T00:44:50.245568+05:30
Ludhiana,Punjab,30.901,75.8573,29.5,31,0.0,974.1,8.0,26.3,105,52.9,35.9,17.8,542.0,66.0,7.3,4,5,7,0,2026-05-24T00:44:50.245576+05:30
Jalandhar,Punjab,31.326,75.5762,29.8,30,0.0,975.1,8.2,24.8,111,54.6,34.6,20.8,482.0,68.0,6.4,4,5,7,0,2026-05-24T00:44:50.245582+05:30
Dehradun,Uttarakhand,30.6284,78.0322,15.2,49,0.0,825.0,7.95,52.9,61,45.8,19.2,34.0,199.0,33.0,1.0,0,5,7,0,2026-05-24T00:44:50.245589+05:30
Shimla,Himachal Pradesh,31.1048,77.1734,15.7,32,0.0,782.0,8.25,69.5,66,42.8,20.5,23.2,195.0,56.0,1.9,0,5,7,1,2026-05-24T00:44:50.245598+05:30
Manali,Himachal Pradesh,32.2396,77.1887,9.4,63,0.0,813.0,9.0,47.5,45,19.0,5.8,45.5,263.0,64.0,0.0,3,5,7,0,2026-05-24T00:44:50.245605+05:30
Gurgaon,Haryana,28.4595,77.0266,29.5,32,0.0,976.5,7.85,39.2,886,724.6,153.7,41.6,587.0,38.0,18.7,4,5,7,0,2026-05-24T00:44:50.245614+05:30
Noida,Uttar Pradesh,28.5355,77.391,32.2,24,0.0,979.3,7.75,37.8,886,724.6,153.7,41.6,530.0,38.0,18.7,0,5,7,0,2026-05-24T00:44:50.245622+05:30
Ghaziabad,Uttar Pradesh,28.6692,77.4538,32.2,21,0.0,977.6,7.7,40.7,296,610.9,136.9,18.1,416.0,80.0,16.4,0,5,7,0,2026-05-24T00:44:50.245629+05:30
Faridabad,Haryana,28.4089,77.3178,33.0,21,0.0,978.8,7.8,43.6,886,724.6,153.7,41.6,517.0,38.0,18.7,0,5,7,0,2026-05-24T00:44:50.245638+05:30
Meerut,Uttar Pradesh,28.9845,77.7064,32.2,20,0.0,976.1,7.65,47.5,296,610.9,136.9,18.1,283.0,80.0,16.4,0,5,7,0,2026-05-24T00:44:50.245645+05:30
Agra,Uttar Pradesh,27.1767,78.0081,32.8,26,0.0,982.8,8.05,38.9,657,416.3,84.8,27.2,450.0,31.0,8.2,0,5,7,0,2026-05-24T00:44:50.245651+05:30
Varanasi,Uttar Pradesh,25.3176,82.9739,34.4,26,0.0,991.6,8.7,43.9,154,139.2,68.2,35.8,651.0,45.0,15.1,0,5,7,0,2026-05-24T00:44:50.245658+05:30
Prayagraj,Uttar Pradesh,25.4358,81.8463,34.2,27,0.0,990.4,8.6,45.7,152,254.3,74.0,27.9,399.0,55.0,12.2,0,5,7,0,2026-05-24T00:44:50.245665+05:30
Gorakhpur,Uttar Pradesh,26.7606,83.3732,29.0,54,0.0,991.1,8.55,31.7,155,119.2,71.2,41.8,318.0,51.0,16.2,4,5,7,1,2026-05-24T00:44:50.245679+05:30
Bareilly,Uttar Pradesh,28.367,79.4304,30.6,36,0.0,980.7,8.0,43.9,136,136.9,55.6,20.8,291.0,62.0,10.6,0,5,7,0,2026-05-24T00:44:50.245685+05:30
Aligarh,Uttar Pradesh,27.8974,78.088,31.6,26,0.0,980.5,7.9,41.4,596,646.3,145.8,26.9,350.0,41.0,10.3,0,5,7,0,2026-05-24T00:44:50.245691+05:30
Moradabad,Uttar Pradesh,28.8386,78.7733,30.3,32,0.0,977.7,7.85,48.6,120,210.0,69.8,22.3,346.0,56.0,9.2,0,5,7,0,2026-05-24T00:44:50.245697+05:30
Saharanpur,Uttar Pradesh,29.9637,77.546,29.1,25,0.0,969.7,7.4,46.8,105,118.5,46.6,15.1,273.0,72.0,8.8,4,5,7,0,2026-05-24T00:44:50.245704+05:30
Jhansi,Uttar Pradesh,25.4484,78.5685,33.2,27,0.0,974.0,8.45,46.1,89,84.5,40.0,4.1,168.0,71.0,2.7,0,5,7,0,2026-05-24T00:44:53.582803+05:30
Surat,Gujarat,21.1702,72.8311,30.3,81,0.0,1006.6,7.7,42.5,56,14.5,11.3,15.9,240.0,36.0,26.7,3,5,4,1,2026-05-24T00:44:53.582839+05:30
Vadodara,Gujarat,22.3072,73.1812,30.6,77,0.0,1003.6,8.1,48.2,61,12.9,10.7,19.5,143.0,24.0,20.9,3,5,4,1,2026-05-24T00:44:53.582850+05:30
Rajkot,Gujarat,22.3039,70.8022,30.4,66,0.0,994.6,7.7,50.8,68,27.7,18.9,6.1,124.0,44.0,6.2,3,5,7,1,2026-05-24T00:44:53.582859+05:30
Thane,Maharashtra,19.2183,72.9781,30.3,76,0.0,1008.7,7.5,36.4,41,9.8,6.9,6.3,382.0,54.0,4.9,3,0,4,1,2026-05-24T00:44:53.582867+05:30
Nagpur,Maharashtra,21.1458,79.0882,35.5,24,0.0,970.1,8.9,43.9,66,31.2,21.7,11.2,210.0,69.0,6.5,0,5,10,0,2026-05-24T00:44:53.582874+05:30
Nashik,Maharashtra,19.9975,73.7898,25.8,83,0.0,946.5,7.85,40.3,39,6.6,5.2,6.5,170.0,46.0,3.3,7,5,7,1,2026-05-24T00:44:53.582881+05:30
Aurangabad,Maharashtra,19.8762,75.3433,30.0,56,0.0,944.8,9.05,44.3,57,12.4,9.9,9.1,165.0,57.0,6.2,4,5,7,1,2026-05-24T00:44:53.582889+05:30
Solapur,Maharashtra,17.6599,75.9064,29.9,58,0.0,958.0,8.2,42.1,58,15.6,15.2,13.6,224.0,43.0,2.7,4,5,7,1,2026-05-24T00:44:53.582897+05:30
Kolhapur,Maharashtra,16.705,74.2433,24.9,91,0.0,949.5,8.9,42.5,43,12.7,11.5,11.2,165.0,38.0,3.0,3,5,7,1,2026-05-24T00:44:53.582904+05:30
Goa,Goa,15.2993,74.124,26.6,97,0.0,1000.0,6.8,32.0,36,17.3,13.9,7.9,268.0,40.0,1.6,7,5,4,1,2026-05-24T00:44:53.582911+05:30
Jodhpur,Rajasthan,26.2389,73.0243,34.9,25,0.0,980.2,8.4,56.9,178,275.7,69.8,5.8,142.0,56.0,3.2,0,5,7,0,2026-05-24T00:44:53.582918+05:30
Udaipur,Rajasthan,24.5854,73.7125,31.6,27,0.0,945.6,8.8,54.4,97,88.0,32.5,3.0,150.0,72.0,2.6,0,5,7,0,2026-05-24T00:44:53.582925+05:30
Kota,Rajasthan,25.2138,75.8648,35.2,22,0.0,975.7,8.4,42.5,102,96.2,42.1,11.8,161.0,54.0,4.2,0,5,10,0,2026-05-24T00:44:53.582933+05:30
Bikaner,Rajasthan,28.0229,73.3119,32.5,19,0.0,978.1,8.45,55.1,124,61.2,26.8,6.3,358.0,58.0,2.6,0,5,7,0,2026-05-24T00:44:53.582939+05:30
Ajmer,Rajasthan,26.4499,74.6399,32.5,29,0.0,952.8,8.4,61.9,126,136.4,46.6,3.8,160.0,71.0,3.8,0,5,7,0,2026-05-24T00:44:53.582946+05:30
Gwalior,Madhya Pradesh,26.2183,78.1828,33.8,26,0.0,978.9,8.25,42.8,99,79.9,39.6,6.7,198.0,64.0,3.3,0,5,7,0,2026-05-24T00:44:53.582953+05:30
Indore,Madhya Pradesh,22.7196,75.8577,32.2,29,0.0,947.3,8.7,45.0,72,72.2,33.2,4.3,223.0,86.0,3.9,0,5,7,0,2026-05-24T00:44:53.582960+05:30
Bhopal,Madhya Pradesh,23.2599,77.4126,33.4,23,0.0,952.0,8.7,44.6,76,60.3,34.5,7.7,225.0,64.0,4.8,0,5,7,0,2026-05-24T00:44:53.582966+05:30
Jabalpur,Madhya Pradesh,23.1815,79.9864,32.8,23,0.0,958.4,8.85,40.7,71,77.5,36.7,23.1,309.0,53.0,5.4,0,5,7,0,2026-05-24T00:44:53.582972+05:30
Ujjain,Madhya Pradesh,23.1765,75.7885,32.9,27,0.0,952.7,8.65,46.8,75,73.3,33.4,3.3,205.0,83.0,3.9,0,5,7,0,2026-05-24T00:44:53.582979+05:30
Visakhapatnam,Andhra Pradesh,17.6868,83.2185,30.8,83,0.0,999.5,9.05,31.3,121,52.6,46.1,33.6,347.0,81.0,30.6,3,5,7,1,2026-05-24T00:44:53.582985+05:30
Vijayawada,Andhra Pradesh,16.5062,80.648,34.3,39,0.0,998.4,9.1,48.2,92,29.8,27.1,8.1,265.0,96.0,6.0,0,5,7,1,2026-05-24T00:44:53.582992+05:30
Guntur,Andhra Pradesh,16.3067,80.4365,34.0,40,0.0,999.9,9.15,50.8,87,28.0,25.0,5.8,240.0,104.0,5.2,0,5,7,1,2026-05-24T00:44:53.582998+05:30
Nellore,Andhra Pradesh,14.4426,79.9865,32.8,53,0.0,1003.2,7.0,49.7,67,25.8,22.3,6.9,186.0,97.0,8.2,0,5,4,1,2026-05-24T00:44:53.583006+05:30
Kurnool,Andhra Pradesh,15.8281,78.0373,29.4,59,0.0,977.2,8.0,58.3,57,22.0,19.4,7.7,216.0,92.0,2.2,4,5,7,1,2026-05-24T00:44:53.583014+05:30
Kakinada,Andhra Pradesh,16.9891,82.2475,32.3,70,0.0,1003.2,8.4,34.2,106,30.4,22.9,4.2,345.0,116.0,3.3,3,5,4,1,2026-05-24T00:44:53.583021+05:30
Tirupati,Andhra Pradesh,13.6288,79.4192,30.4,56,0.0,989.7,8.65,44.6,68,25.5,21.7,7.8,178.0,87.0,4.1,0,5,7,1,2026-05-24T00:44:53.583027+05:30
Warangal,Telangana,17.9689,79.5941,34.5,32,0.0,975.6,9.15,51.8,95,34.7,30.9,10.6,249.0,82.0,5.0,0,5,7,0,2026-05-24T00:44:53.583033+05:30
Nizamabad,Telangana,18.6725,78.0941,33.7,37,0.0,963.5,9.1,45.4,75,34.6,29.5,11.4,176.0,69.0,5.3,0,5,7,1,2026-05-24T00:44:53.583039+05:30
Mysore,Karnataka,12.2958,76.6396,22.2,93,0.0,930.7,7.65,42.5,32,9.0,8.2,11.1,280.0,49.0,2.3,3,5,7,1,2026-05-24T00:44:53.583046+05:30
Mangalore,Karnataka,12.9141,74.856,25.7,95,0.0,1009.5,7.25,37.1,41,16.4,12.0,8.6,356.0,44.0,2.4,7,0,4,1,2026-05-24T00:44:53.583052+05:30
Hubli-Dharwad,Karnataka,15.3647,75.124,24.1,96,0.0,942.7,9.05,40.0,25,6.2,4.9,6.0,141.0,39.0,1.3,3,5,7,1,2026-05-24T00:44:53.583059+05:30
Belgaum,Karnataka,15.8497,74.4977,23.2,97,0.0,927.6,8.1,39.6,26,8.9,7.0,8.6,141.0,39.0,1.8,3,5,7,1,2026-05-24T00:44:56.844051+05:30
Coimbatore,Tamil Nadu,11.0168,76.9558,25.4,87,0.0,963.5,6.4,51.1,31,7.7,6.5,6.4,219.0,54.0,2.7,7,5,7,1,2026-05-24T00:44:56.844087+05:30
Madurai,Tamil Nadu,9.9252,78.1198,29.1,66,0.0,993.7,8.9,44.3,54,19.8,18.3,29.8,391.0,18.0,5.9,7,5,7,1,2026-05-24T00:44:56.844098+05:30
Trichy,Tamil Nadu,10.7905,78.7047,28.8,70,0.0,1000.2,7.2,45.7,48,12.4,10.3,9.9,158.0,61.0,3.6,7,5,4,1,2026-05-24T00:44:56.844107+05:30
Salem,Tamil Nadu,11.6643,78.146,27.8,68,0.0,978.8,6.8,39.6,56,28.3,21.7,24.9,204.0,42.0,7.5,7,5,7,1,2026-05-24T00:44:56.844116+05:30
Tirunelveli,Tamil Nadu,8.7139,77.7567,29.8,65,0.0,1003.9,8.85,36.7,30,10.9,9.2,8.6,158.0,40.0,2.2,7,5,4,1,2026-05-24T00:44:56.844124+05:30
Vellore,Tamil Nadu,12.9165,79.1325,29.5,64,0.0,983.9,8.95,66.6,70,23.4,20.7,8.2,368.0,73.0,2.9,7,5,7,1,2026-05-24T00:44:56.844131+05:30
Erode,Tamil Nadu,11.341,77.7172,28.0,74,0.0,990.3,7.4,46.4,39,15.6,13.4,17.2,219.0,36.0,3.2,7,5,7,1,2026-05-24T00:44:56.844138+05:30
Kochi,Kerala,9.9312,76.2673,26.3,95,0.0,1011.7,7.95,33.1,60,28.4,25.6,27.6,288.0,12.0,6.5,7,0,4,1,2026-05-24T00:44:56.844146+05:30
Thiruvananthapuram,Kerala,8.5241,76.9366,24.9,94,0.0,1011.0,8.3,42.8,41,14.5,9.1,4.1,214.0,50.0,1.7,3,0,4,1,2026-05-24T00:44:56.844154+05:30
Kozhikode,Kerala,11.2588,75.7804,26.5,94,0.0,1010.6,8.55,36.7,31,13.1,8.5,2.0,115.0,66.0,1.0,7,0,4,1,2026-05-24T00:44:56.844161+05:30
Thrissur,Kerala,10.5276,76.2144,25.4,98,0.0,1010.0,7.75,34.6,61,30.4,28.1,22.0,589.0,20.0,5.1,7,0,4,1,2026-05-24T00:44:56.844169+05:30
Kannur,Kerala,11.8745,75.3704,26.2,94,0.0,1009.8,8.5,40.7,37,12.1,8.9,9.9,230.0,41.0,2.0,7,0,4,1,2026-05-24T00:44:56.844176+05:30
Patna,Bihar,25.5941,85.1376,30.2,67,0.0,994.3,8.8,25.9,160,147.1,97.1,50.2,780.0,60.0,26.5,3,5,7,1,2026-05-24T00:44:56.844184+05:30
Gaya,Bihar,24.7914,85.0002,30.9,47,0.0,988.5,8.9,34.6,158,152.3,68.9,26.3,626.0,54.0,9.7,0,5,7,1,2026-05-24T00:44:56.844191+05:30
Muzaffarpur,Bihar,26.1209,85.3647,29.4,75,0.0,994.3,8.8,33.1,157,94.5,72.6,16.7,684.0,103.0,17.9,7,5,7,1,2026-05-24T00:44:56.844198+05:30
Bhagalpur,Bihar,25.2425,87.0117,31.0,60,0.0,996.0,8.8,33.8,151,76.6,59.6,14.5,503.0,98.0,19.1,0,5,7,1,2026-05-24T00:44:56.844205+05:30
Ranchi,Jharkhand,23.3441,85.3096,27.1,35,0.0,934.2,9.25,28.1,125,122.5,46.7,18.2,235.0,75.0,7.4,4,5,7,0,2026-05-24T00:44:56.844211+05:30
Jamshedpur,Jharkhand,22.8046,86.2029,29.3,90,0.0,986.7,9.1,42.5,152,52.9,43.8,14.0,514.0,84.0,19.4,7,5,7,1,2026-05-24T00:44:56.844219+05:30
Dhanbad,Jharkhand,23.7957,86.4304,29.8,83,0.0,975.8,8.9,32.4,163,65.7,57.7,41.3,546.0,64.0,80.3,7,5,7,1,2026-05-24T00:44:56.844227+05:30
Bokaro,Jharkhand,23.6693,86.1511,30.0,70,0.0,979.5,9.05,29.5,163,125.7,78.2,49.1,1422.0,39.0,57.5,7,5,7,1,2026-05-24T00:44:56.844234+05:30
Bhubaneswar,Odisha,20.2961,85.8245,29.0,95,0.0,998.8,9.15,44.6,85,21.7,16.6,4.9,266.0,90.0,3.8,7,5,7,1,2026-05-24T00:44:56.844241+05:30
Cuttack,Odisha,20.4625,85.8828,29.1,95,0.0,1000.5,9.2,40.0,85,21.7,16.6,4.9,292.0,90.0,3.8,7,5,4,1,2026-05-24T00:44:56.844247+05:30
Rourkela,Odisha,22.2604,84.8536,30.1,69,0.0,980.9,9.0,54.7,156,109.2,70.3,43.4,309.0,34.0,12.8,3,5,7,1,2026-05-24T00:44:56.844254+05:30
Raipur,Chhattisgarh,21.2514,81.6296,33.5,24,0.0,970.6,9.0,44.3,123,56.8,43.5,45.7,460.0,28.0,41.5,0,5,7,0,2026-05-24T00:44:56.844260+05:30
Bhilai,Chhattisgarh,21.1938,81.3509,33.2,25,0.0,971.2,9.0,31.0,102,56.2,43.5,39.7,579.0,31.0,32.1,0,5,7,0,2026-05-24T00:44:56.844267+05:30
Guwahati,Assam,26.1158,91.7086,23.0,98,0.0,998.7,8.75,23.0,56,17.2,11.3,5.0,355.0,95.0,2.6,3,5,7,1,2026-05-24T00:44:56.844273+05:30
Agartala,Tripura,23.8315,91.2868,27.5,91,0.0,1003.9,8.35,43.2,74,29.6,23.4,6.5,198.0,57.0,2.3,7,5,4,1,2026-05-24T00:44:56.844280+05:30
Shillong,Meghalaya,25.5788,91.8933,20.1,91,0.0,854.8,8.8,52.6,43,2.2,1.5,4.8,196.0,79.0,2.7,3,5,7,1,2026-05-24T00:44:56.844287+05:30
Imphal,Manipur,24.817,93.9368,21.3,97,0.0,922.2,9.3,34.6,54,15.4,12.2,8.7,257.0,49.0,2.3,3,5,7,1,2026-05-24T00:44:56.844294+05:30
Aizawl,Mizoram,23.7271,92.7176,20.5,89,0.0,891.8,8.5,44.6,59,19.7,13.1,2.1,178.0,61.0,1.0,3,5,7,1,2026-05-24T00:44:56.844301+05:30
Kohima,Nagaland,25.6701,94.1077,15.6,94,0.0,851.4,9.3,34.9,29,10.7,7.9,5.9,234.0,52.0,1.2,3,10,7,0,2026-05-24T00:44:56.844308+05:30
Gangtok,Sikkim,27.3314,88.6138,16.4,83,0.1,834.7,9.15,36.7,75,22.3,11.0,2.8,450.0,139.0,3.3,6,10,7,0,2026-05-24T00:44:56.844314+05:30
Siliguri,West Bengal,26.7271,88.3953,22.7,96,0.0,989.7,8.7,24.8,81,45.3,24.4,7.3,437.0,120.0,4.8,3,5,7,1,2026-05-24T00:45:00.175178+05:30
Durgapur,West Bengal,23.5204,87.3119,29.0,92,0.0,990.8,9.0,35.3,154,42.6,37.3,16.4,319.0,69.0,25.6,7,5,7,1,2026-05-24T00:45:00.175221+05:30
Asansol,West Bengal,23.6739,86.9524,29.0,91,0.0,989.4,8.85,33.8,153,40.2,35.7,13.2,432.0,77.0,23.1,7,5,7,1,2026-05-24T00:45:00.175233+05:30
Pondicherry,Puducherry,11.9139,79.8145,29.7,71,0.0,1007.7,8.8,32.8,67,31.5,25.8,15.0,366.0,78.0,7.0,7,5,4,1,2026-05-24T00:45:00.175242+05:30
Port Blair,Andaman and Nicobar Islands,11.6234,92.7265,27.0,91,0.0,1006.8,8.0,33.5,32,11.0,6.2,0.3,115.0,80.0,0.6,7,5,4,1,2026-05-24T00:45:00.175251+05:30
Haridwar,Uttarakhand,29.9457,78.1642,26.5,39,0.0,967.7,7.55,53.3,89,41.6,26.8,14.2,300.0,79.0,9.2,4,5,7,0,2026-05-24T00:45:00.175259+05:30
Rishikesh,Uttarakhand,30.0869,78.2676,23.0,51,0.0,960.1,7.65,48.2,89,36.3,21.9,11.4,302.0,103.0,8.2,0,5,7,0,2026-05-24T00:45:00.175267+05:30
Nainital,Uttarakhand,29.3919,79.4542,14.3,57,0.0,800.5,8.5,45.4,107,46.4,22.3,9.8,249.0,106.0,5.8,0,5,7,0,2026-05-24T00:45:00.175274+05:30
Mussoorie,Uttarakhand,30.4599,78.0664,17.6,36,0.0,800.1,7.9,72.0,79,46.0,27.0,29.4,214.0,60.0,6.6,0,5,7,0,2026-05-24T00:45:00.175282+05:30
Dharamshala,Himachal Pradesh,32.219,76.3234,22.4,32,0.0,866.5,8.4,54.0,52,29.5,11.8,16.1,184.0,26.0,0.3,0,5,7,0,2026-05-24T00:45:00.175289+05:30
Dalhousie,Himachal Pradesh,32.5387,75.971,12.2,55,0.0,799.8,8.7,44.6,68,47.0,26.0,48.1,414.0,1.0,1.7,0,5,7,0,2026-05-24T00:45:00.175297+05:30
Patiala,Punjab,30.3398,76.3869,29.7,26,0.0,973.3,7.65,41.0,387,650.1,120.1,12.2,358.0,77.0,7.5,4,5,7,0,2026-05-24T00:45:00.175305+05:30
Bhatinda,Punjab,30.211,74.9455,32.0,26,0.0,979.5,8.3,29.2,89,53.3,35.9,18.0,357.0,74.0,8.7,0,5,7,0,2026-05-24T00:45:00.175313+05:30
Rohtak,Haryana,28.8955,76.6066,31.9,20,0.0,976.8,7.75,34.2,674,873.6,175.6,28.6,324.0,56.0,9.4,0,5,7,0,2026-05-24T00:45:00.175320+05:30
Panipat,Haryana,29.3909,76.9635,31.0,23,0.0,975.1,7.6,44.3,1454,1467.8,241.2,14.8,290.0,76.0,8.3,0,5,7,0,2026-05-24T00:45:00.175327+05:30
Mathura,Uttar Pradesh,27.4924,77.6737,32.0,28,0.0,982.0,8.0,37.1,597,226.8,64.3,31.7,338.0,27.0,5.8,0,5,7,0,2026-05-24T00:45:00.175347+05:30
Vrindavan,Uttar Pradesh,27.5823,77.7027,31.8,28,0.0,982.4,8.0,36.0,597,226.8,64.3,31.7,334.0,27.0,5.8,0,5,7,0,2026-05-24T00:45:00.175353+05:30
Ayodhya,Uttar Pradesh,26.7922,82.1998,32.0,33,0.0,989.1,8.35,32.4,154,269.2,77.1,16.0,248.0,76.0,10.5,0,5,7,0,2026-05-24T00:45:00.175361+05:30
Ratlam,Madhya Pradesh,23.3315,75.0367,31.8,30,0.0,953.8,8.55,49.7,75,68.7,31.9,3.8,178.0,78.0,5.0,0,5,7,0,2026-05-24T00:45:00.175368+05:30
Sagar,Madhya Pradesh,23.8388,78.7378,32.7,28,0.0,948.1,8.75,50.8,73,56.5,31.9,13.8,227.0,55.0,4.0,0,5,7,0,2026-05-24T00:45:00.175375+05:30
Satna,Madhya Pradesh,24.6005,80.8322,32.6,30,0.0,967.4,8.8,48.2,105,104.8,45.5,17.7,223.0,51.0,3.8,0,5,7,0,2026-05-24T00:45:00.175382+05:30
Akola,Maharashtra,20.7002,77.0082,34.5,40,0.0,973.7,8.85,52.2,64,24.2,19.4,7.8,183.0,80.0,9.0,0,5,7,1,2026-05-24T00:45:00.175390+05:30
Amravati,Maharashtra,20.9374,77.7796,34.5,29,0.0,965.8,8.85,50.4,66,23.1,17.9,10.0,167.0,67.0,6.8,0,5,7,0,2026-05-24T00:45:00.175398+05:30
Latur,Maharashtra,18.4088,76.5604,30.0,49,0.0,940.0,9.05,40.3,66,23.5,21.9,12.7,249.0,63.0,3.5,4,5,7,1,2026-05-24T00:45:00.175406+05:30
Nanded,Maharashtra,19.1383,77.3091,34.8,33,0.0,967.6,8.85,45.7,67,26.5,22.0,7.0,187.0,79.0,4.0,0,5,7,0,2026-05-24T00:45:00.175413+05:30
Gulbarga,Karnataka,17.3297,76.8343,29.4,57,0.0,959.2,9.05,54.4,57,18.8,17.3,12.2,235.0,64.0,2.5,4,5,7,1,2026-05-24T00:45:00.175420+05:30
Bidar,Karnataka,17.9104,77.5199,29.7,48,0.0,935.5,9.1,43.6,78,24.4,21.8,8.9,251.0,86.0,3.3,4,5,7,1,2026-05-24T00:45:00.175428+05:30
Hospet,Karnataka,15.2689,76.3909,25.6,89,0.0,957.4,6.5,46.4,34,7.4,6.7,11.7,198.0,37.0,1.6,7,5,7,1,2026-05-24T00:45:00.175435+05:30
Tirupur,Tamil Nadu,11.1085,77.3411,26.0,86,0.0,976.8,6.35,51.5,40,16.7,14.2,18.5,194.0,36.0,3.7,7,5,7,1,2026-05-24T00:45:00.175442+05:30
Alappuzha,Kerala,9.4981,76.3388,26.3,95,0.0,1011.7,8.65,34.2,49,17.5,13.9,14.3,98.0,41.0,3.9,7,0,4,1,2026-05-24T00:45:00.175450+05:30
Munnar,Kerala,10.0889,77.0595,17.3,98,0.0,858.5,7.7,32.8,28,10.1,9.5,8.8,154.0,36.0,1.5,3,10,7,1,2026-05-24T00:45:00.175457+05:30
Silchar,Assam,24.8333,92.7789,24.9,97,0.4,1003.4,8.95,36.4,54,26.9,15.5,4.8,267.0,75.0,2.1,6,5,4,1,2026-05-24T00:45:00.175465+05:30
Dibrugarh,Assam,27.4728,94.912,22.9,99,0.1,992.9,7.3,37.1,54,15.4,12.2,7.2,243.0,89.0,1.7,6,5,7,1,2026-05-24T00:45:00.175472+05:30
