city,state,latitude,longitude,temp,humidity,rain,pressure,uv_index,wind_gusts,aqi,pm10,pm2_5,mosquito_risk,arthritis_risk,migraine_risk,frizz_risk,updated_at
Delhi,Delhi,28.6139,77.209,35.5,29,0.0,982.7,7.25,32.8,225,236.1,59.8,0,5,10,0,2026-04-20T11:17:23.203466+05:30
Mumbai,Maharashtra,19.076,72.8777,28.3,77,0.0,1009.3,8.05,21.6,75,45.3,28.2,7,0,4,1,2026-04-20T11:17:23.203515+05:30
Bangalore,Karnataka,12.9716,77.5946,30.9,50,0.0,913.5,9.55,29.5,74,29.5,25.6,0,5,7,1,2026-04-20T11:17:23.203531+05:30
Hyderabad,Telangana,17.385,78.4867,36.4,29,0.0,954.9,9.3,47.2,110,44.5,35.0,0,5,10,0,2026-04-20T11:17:23.203542+05:30
Chennai,Tamil Nadu,13.0827,80.2707,34.9,51,0.0,1007.9,9.25,35.3,34,14.8,10.2,0,5,4,1,2026-04-20T11:17:23.203551+05:30
Kolkata,West Bengal,22.5726,88.3639,33.7,71,0.0,1004.2,8.9,33.1,82,40.4,31.9,3,5,4,1,2026-04-20T11:17:23.203564+05:30
Pune,Maharashtra,18.5204,73.8567,36.3,23,0.0,950.2,8.55,44.3,107,43.9,35.6,0,5,10,0,2026-04-20T11:17:23.203572+05:30
Ahmedabad,Gujarat,23.0225,72.5714,34.9,40,0.0,1003.1,8.15,25.6,50,33.3,13.6,0,5,4,1,2026-04-20T11:17:23.203580+05:30
Jaipur,Rajasthan,26.9124,75.7873,36.7,21,0.0,960.4,7.95,26.6,111,199.3,30.6,0,5,10,0,2026-04-20T11:17:23.203588+05:30
Lucknow,Uttar Pradesh,26.8467,80.9462,38.2,25,0.0,991.7,7.9,39.6,122,207.2,49.5,0,5,10,0,2026-04-20T11:17:23.203596+05:30
Kanpur,Uttar Pradesh,26.4499,80.3319,36.1,38,0.0,990.5,7.9,30.2,189,292.4,56.3,0,5,10,1,2026-04-20T11:17:23.203604+05:30
Chandigarh,Chandigarh,30.7333,76.7794,35.8,18,0.0,968.6,7.25,34.2,65,37.7,16.4,0,5,10,0,2026-04-20T11:17:23.203612+05:30
Srinagar,Jammu and Kashmir,34.0837,74.7973,17.5,68,0.0,845.3,8.25,15.5,96,38.4,20.3,3,5,7,0,2026-04-20T11:17:23.203619+05:30
Jammu,Jammu and Kashmir,32.7266,74.857,34.1,26,0.0,972.8,7.9,28.1,61,33.4,13.5,0,5,7,0,2026-04-20T11:17:23.203626+05:30
Amritsar,Punjab,31.634,74.8723,34.1,31,0.0,981.2,7.9,32.4,79,46.2,17.1,0,5,7,0,2026-04-20T11:17:23.203633+05:30
Ludhiana,Punjab,30.901,75.8573,36.3,20,0.0,978.6,7.5,32.4,68,41.2,19.0,0,5,10,0,2026-04-20T11:17:23.203642+05:30
Jalandhar,Punjab,31.326,75.5762,35.5,24,0.0,979.9,7.65,31.3,76,60.3,24.0,0,5,10,0,2026-04-20T11:17:23.203648+05:30
Dehradun,Uttarakhand,30.6284,78.0322,26.1,24,0.0,833.6,7.7,41.0,44,34.9,8.9,4,5,7,0,2026-04-20T11:17:23.203658+05:30
Shimla,Himachal Pradesh,31.1048,77.1734,25.0,19,0.0,789.5,7.75,47.9,54,33.6,8.4,4,5,7,1,2026-04-20T11:17:23.203665+05:30
Manali,Himachal Pradesh,32.2396,77.1887,24.6,23,0.0,824.5,9.85,28.4,62,8.2,2.7,0,5,7,0,2026-04-20T11:17:23.203672+05:30
Gurgaon,Haryana,28.4595,77.0266,35.9,29,0.0,981.3,7.4,32.8,822,659.4,102.7,0,5,10,0,2026-04-20T11:17:23.203678+05:30
Noida,Uttar Pradesh,28.5355,77.391,36.2,29,0.0,984.1,7.3,32.8,822,659.4,102.7,0,5,10,0,2026-04-20T11:17:23.203684+05:30
Ghaziabad,Uttar Pradesh,28.6692,77.4538,35.6,32,0.0,982.2,7.3,32.4,133,138.3,39.6,0,5,10,1,2026-04-20T11:17:23.203691+05:30
Faridabad,Haryana,28.4089,77.3178,36.8,26,0.0,983.5,7.35,32.0,822,659.4,102.7,0,5,10,0,2026-04-20T11:17:23.203697+05:30
Meerut,Uttar Pradesh,28.9845,77.7064,36.9,26,0.0,980.8,7.2,35.3,133,138.3,39.6,0,5,10,0,2026-04-20T11:17:23.203703+05:30
Agra,Uttar Pradesh,27.1767,78.0081,37.0,28,0.0,987.4,7.7,23.8,544,553.2,83.4,0,5,10,0,2026-04-20T11:17:23.203714+05:30
Varanasi,Uttar Pradesh,25.3176,82.9739,40.4,22,0.0,995.1,8.4,34.2,110,140.6,37.0,0,5,10,0,2026-04-20T11:17:23.203721+05:30
Prayagraj,Uttar Pradesh,25.4358,81.8463,39.7,25,0.0,993.9,7.8,34.9,94,159.7,42.4,0,5,10,0,2026-04-20T11:17:23.203728+05:30
Gorakhpur,Uttar Pradesh,26.7606,83.3732,36.2,47,0.0,995.1,8.35,37.1,134,71.0,52.9,0,5,10,1,2026-04-20T11:17:23.203734+05:30
Bareilly,Uttar Pradesh,28.367,79.4304,36.9,28,0.0,985.6,7.55,35.6,80,142.0,28.5,0,5,10,0,2026-04-20T11:17:23.203741+05:30
Aligarh,Uttar Pradesh,27.8974,78.088,38.8,21,0.0,984.7,7.45,32.4,396,348.3,55.1,0,5,10,0,2026-04-20T11:17:23.203747+05:30
Moradabad,Uttar Pradesh,28.8386,78.7733,37.0,26,0.0,982.7,7.4,38.5,88,71.7,24.1,0,5,10,0,2026-04-20T11:17:23.203753+05:30
Saharanpur,Uttar Pradesh,29.9637,77.546,33.9,31,0.0,975.2,6.95,30.2,71,48.2,23.7,0,5,7,0,2026-04-20T11:17:23.203759+05:30
Jhansi,Uttar Pradesh,25.4484,78.5685,39.4,20,0.0,977.2,8.05,29.9,54,140.6,30.5,0,5,10,0,2026-04-20T11:17:26.424120+05:30
Surat,Gujarat,21.1702,72.8311,32.1,59,0.0,1007.8,7.85,23.8,107,49.1,42.3,0,5,4,1,2026-04-20T11:17:26.424153+05:30
Vadodara,Gujarat,22.3072,73.1812,35.7,35,0.0,1005.2,8.1,25.6,81,30.4,18.8,0,5,7,1,2026-04-20T11:17:26.424164+05:30
Rajkot,Gujarat,22.3039,70.8022,33.1,42,0.0,995.8,7.85,27.7,44,51.5,14.8,0,5,7,1,2026-04-20T11:17:26.424171+05:30
Thane,Maharashtra,19.2183,72.9781,32.8,51,0.0,1008.8,8.05,31.7,75,45.3,28.2,0,0,4,1,2026-04-20T11:17:26.424178+05:30
Nagpur,Maharashtra,21.1458,79.0882,37.3,25,0.0,973.6,8.6,37.4,84,27.6,22.8,0,5,10,0,2026-04-20T11:17:26.424186+05:30
Nashik,Maharashtra,19.9975,73.7898,33.0,23,0.0,947.7,8.3,34.6,87,27.5,14.7,0,5,7,0,2026-04-20T11:17:26.424193+05:30
Aurangabad,Maharashtra,19.8762,75.3433,36.2,23,0.0,946.1,8.85,21.2,83,35.3,29.5,0,5,10,0,2026-04-20T11:17:26.424199+05:30
Solapur,Maharashtra,17.6599,75.9064,36.4,31,0.0,958.3,8.75,24.8,127,43.9,36.9,0,5,10,1,2026-04-20T11:17:26.424207+05:30
Kolhapur,Maharashtra,16.705,74.2433,33.0,48,0.0,949.7,9.05,29.5,110,46.6,38.9,0,5,7,1,2026-04-20T11:17:26.424214+05:30
Goa,Goa,15.2993,74.124,32.6,63,0.0,998.7,9.0,28.8,84,42.5,29.3,3,5,7,1,2026-04-20T11:17:26.424220+05:30
Jodhpur,Rajasthan,26.2389,73.0243,36.0,22,0.0,983.7,8.15,25.2,88,170.4,30.4,0,5,10,0,2026-04-20T11:17:26.424228+05:30
Udaipur,Rajasthan,24.5854,73.7125,34.6,20,0.0,948.3,8.7,30.6,42,17.2,6.6,0,5,7,0,2026-04-20T11:17:26.424234+05:30
Kota,Rajasthan,25.2138,75.8648,38.7,16,0.0,978.8,8.25,26.6,52,17.6,7.2,0,5,10,0,2026-04-20T11:17:26.424241+05:30
Bikaner,Rajasthan,28.0229,73.3119,36.6,23,0.0,982.6,8.0,31.0,57,85.2,23.9,0,5,10,0,2026-04-20T11:17:26.424247+05:30
Ajmer,Rajasthan,26.4499,74.6399,34.4,26,0.0,955.7,8.1,25.2,54,113.2,20.3,0,5,7,0,2026-04-20T11:17:26.424253+05:30
Gwalior,Madhya Pradesh,26.2183,78.1828,38.2,23,0.0,982.9,8.0,37.1,77,273.8,54.2,0,5,10,0,2026-04-20T11:17:26.424259+05:30
Indore,Madhya Pradesh,22.7196,75.8577,35.5,19,0.0,949.9,8.6,35.6,59,13.7,9.9,0,5,10,0,2026-04-20T11:17:26.424266+05:30
Bhopal,Madhya Pradesh,23.2599,77.4126,38.3,16,0.0,954.9,7.1,35.6,62,10.6,7.7,0,5,10,0,2026-04-20T11:17:26.424272+05:30
Jabalpur,Madhya Pradesh,23.1815,79.9864,36.9,27,0.0,961.6,8.45,37.1,61,17.8,13.8,0,5,10,0,2026-04-20T11:17:26.424279+05:30
Ujjain,Madhya Pradesh,23.1765,75.7885,36.0,19,0.0,955.5,8.55,34.9,54,9.8,7.3,0,5,10,0,2026-04-20T11:17:26.424285+05:30
Visakhapatnam,Andhra Pradesh,17.6868,83.2185,33.9,56,0.0,1004.0,9.2,45.4,56,19.9,15.4,0,5,4,1,2026-04-20T11:17:26.424292+05:30
Vijayawada,Andhra Pradesh,16.5062,80.648,34.3,56,0.0,1003.3,9.2,27.7,53,19.2,13.7,0,5,4,1,2026-04-20T11:17:26.424298+05:30
Guntur,Andhra Pradesh,16.3067,80.4365,34.9,54,0.0,1004.4,9.25,31.0,55,18.4,15.1,0,5,4,1,2026-04-20T11:17:26.424304+05:30
Nellore,Andhra Pradesh,14.4426,79.9865,36.0,52,0.0,1006.0,9.25,38.5,46,15.8,14.1,0,5,7,1,2026-04-20T11:17:26.424311+05:30
Kurnool,Andhra Pradesh,15.8281,78.0373,37.6,32,0.0,977.6,9.2,43.2,94,30.2,24.2,0,5,10,1,2026-04-20T11:17:26.424340+05:30
Kakinada,Andhra Pradesh,16.9891,82.2475,35.2,50,0.0,1008.0,9.2,34.9,39,16.4,10.4,0,0,7,1,2026-04-20T11:17:26.424347+05:30
Tirupati,Andhra Pradesh,13.6288,79.4192,35.2,52,0.0,992.3,9.3,29.9,63,19.1,17.5,0,5,10,1,2026-04-20T11:17:26.424353+05:30
Warangal,Telangana,17.9689,79.5941,35.9,43,0.0,979.5,9.15,27.7,89,32.2,28.2,0,5,10,1,2026-04-20T11:17:26.424360+05:30
Nizamabad,Telangana,18.6725,78.0941,38.0,27,0.0,965.7,9.15,33.8,116,41.3,37.1,0,5,10,0,2026-04-20T11:17:26.424366+05:30
Mysore,Karnataka,12.2958,76.6396,32.0,46,0.0,929.7,9.45,38.2,81,31.4,26.0,0,5,7,1,2026-04-20T11:17:26.424372+05:30
Mangalore,Karnataka,12.9141,74.856,30.2,70,0.0,1006.9,9.1,23.0,77,36.3,22.4,3,5,4,1,2026-04-20T11:17:26.424378+05:30
Hubli-Dharwad,Karnataka,15.3647,75.124,32.8,49,0.0,942.4,9.25,33.5,91,50.6,42.7,0,5,7,1,2026-04-20T11:17:26.424385+05:30
Belgaum,Karnataka,15.8497,74.4977,30.7,53,0.0,927.4,9.25,26.6,95,48.3,41.4,0,5,7,1,2026-04-20T11:17:29.643378+05:30
Coimbatore,Tamil Nadu,11.0168,76.9558,32.6,52,0.0,962.8,9.4,49.3,103,28.8,24.9,0,5,7,1,2026-04-20T11:17:29.643412+05:30
Madurai,Tamil Nadu,9.9252,78.1198,34.9,44,0.0,993.7,9.3,39.6,63,16.1,13.8,0,5,7,1,2026-04-20T11:17:29.643422+05:30
Trichy,Tamil Nadu,10.7905,78.7047,35.0,43,0.0,1000.4,9.3,25.2,61,16.4,14.2,0,5,4,1,2026-04-20T11:17:29.643431+05:30
Salem,Tamil Nadu,11.6643,78.146,34.5,48,0.0,978.2,9.35,19.8,59,15.4,12.2,0,5,7,1,2026-04-20T11:17:29.643439+05:30
Tirunelveli,Tamil Nadu,8.7139,77.7567,37.3,31,0.0,1003.4,9.2,50.4,65,20.7,16.0,0,5,7,1,2026-04-20T11:17:29.643445+05:30
Vellore,Tamil Nadu,12.9165,79.1325,34.4,48,0.0,985.4,9.35,30.6,74,18.5,16.4,0,5,7,1,2026-04-20T11:17:29.643452+05:30
Erode,Tamil Nadu,11.341,77.7172,35.5,48,0.0,989.5,9.35,27.4,58,20.1,17.4,0,5,10,1,2026-04-20T11:17:29.643460+05:30
Kochi,Kerala,9.9312,76.2673,28.8,82,0.0,1009.0,9.05,29.9,60,13.8,11.5,7,0,4,1,2026-04-20T11:17:29.643468+05:30
Thiruvananthapuram,Kerala,8.5241,76.9366,28.9,82,0.0,1008.3,8.9,32.0,66,24.8,19.6,7,0,4,1,2026-04-20T11:17:29.643475+05:30
Kozhikode,Kerala,11.2588,75.7804,30.7,74,0.0,1008.0,9.1,28.8,61,25.8,18.3,3,0,4,1,2026-04-20T11:17:29.643482+05:30
Thrissur,Kerala,10.5276,76.2144,33.8,59,0.0,1007.3,9.05,36.7,65,18.4,14.9,0,5,4,1,2026-04-20T11:17:29.643489+05:30
Kannur,Kerala,11.8745,75.3704,32.0,66,0.0,1007.3,9.1,30.6,73,33.2,21.3,3,5,4,1,2026-04-20T11:17:29.643496+05:30
Patna,Bihar,25.5941,85.1376,35.6,53,0.0,997.9,8.15,37.1,137,74.0,56.9,0,5,10,1,2026-04-20T11:17:29.643503+05:30
Gaya,Bihar,24.7914,85.0002,39.4,27,0.0,991.4,8.6,34.6,101,96.4,36.1,0,5,10,1,2026-04-20T11:17:29.643509+05:30
Muzaffarpur,Bihar,26.1209,85.3647,34.6,59,0.0,998.2,8.3,23.0,141,71.9,57.9,0,5,7,1,2026-04-20T11:17:29.643516+05:30
Bhagalpur,Bihar,25.2425,87.0117,34.5,63,0.0,998.7,8.65,19.1,150,80.3,66.6,3,5,7,1,2026-04-20T11:17:29.643522+05:30
Ranchi,Jharkhand,23.3441,85.3096,36.1,36,0.0,938.0,9.25,38.2,90,100.1,28.5,0,5,10,1,2026-04-20T11:17:29.643529+05:30
Jamshedpur,Jharkhand,22.8046,86.2029,36.9,49,0.0,988.7,9.05,32.8,151,66.1,57.0,0,5,10,1,2026-04-20T11:17:29.643535+05:30
Dhanbad,Jharkhand,23.7957,86.4304,39.2,32,0.0,977.7,9.0,25.6,156,114.1,49.7,0,5,10,1,2026-04-20T11:17:29.643542+05:30
Bokaro,Jharkhand,23.6693,86.1511,38.2,37,0.0,981.9,9.0,37.8,135,116.4,37.4,0,5,10,1,2026-04-20T11:17:29.643548+05:30
Bhubaneswar,Odisha,20.2961,85.8245,33.0,71,0.0,1001.9,9.1,36.7,71,38.0,29.6,3,5,4,1,2026-04-20T11:17:29.643554+05:30
Cuttack,Odisha,20.4625,85.8828,35.4,60,0.0,1003.5,9.15,36.4,71,38.0,29.6,0,5,7,1,2026-04-20T11:17:29.643560+05:30
Rourkela,Odisha,22.2604,84.8536,37.5,40,0.0,983.6,8.95,41.0,151,54.1,46.1,0,5,10,1,2026-04-20T11:17:29.643567+05:30
Raipur,Chhattisgarh,21.2514,81.6296,38.6,27,0.0,974.1,8.65,40.3,111,44.1,37.7,0,5,10,1,2026-04-20T11:17:29.643573+05:30
Bhilai,Chhattisgarh,21.1938,81.3509,38.7,26,0.0,974.5,8.25,38.2,102,41.0,36.3,0,5,10,0,2026-04-20T11:17:29.643579+05:30
Guwahati,Assam,26.1158,91.7086,27.3,80,0.0,1001.2,8.5,43.9,118,21.5,18.6,7,5,4,1,2026-04-20T11:17:29.643585+05:30
Agartala,Tripura,23.8315,91.2868,33.5,58,0.0,1005.3,8.6,33.1,101,47.7,37.3,0,5,4,1,2026-04-20T11:17:29.643591+05:30
Shillong,Meghalaya,25.5788,91.8933,22.1,59,0.0,858.1,7.2,73.8,75,11.1,8.7,0,5,7,0,2026-04-20T11:17:29.643597+05:30
Imphal,Manipur,24.817,93.9368,22.7,79,0.0,923.9,9.15,79.2,120,57.4,35.4,3,5,7,1,2026-04-20T11:17:29.643603+05:30
Aizawl,Mizoram,23.7271,92.7176,27.6,55,0.0,894.8,8.95,58.7,137,52.7,34.7,4,5,7,1,2026-04-20T11:17:29.643610+05:30
Kohima,Nagaland,25.6701,94.1077,20.4,81,0.0,856.2,7.75,98.6,94,28.3,19.5,3,5,7,1,2026-04-20T11:17:29.643616+05:30
Gangtok,Sikkim,27.3314,88.6138,21.3,75,0.0,838.9,8.8,17.6,67,13.0,10.4,3,5,7,1,2026-04-20T11:17:29.643623+05:30
Siliguri,West Bengal,26.7271,88.3953,26.9,71,0.0,993.0,8.45,23.8,91,37.8,30.0,7,5,7,1,2026-04-20T11:17:32.858296+05:30
Durgapur,West Bengal,23.5204,87.3119,37.3,50,0.0,992.6,8.9,26.3,146,102.9,80.3,0,5,10,1,2026-04-20T11:17:32.858350+05:30
Asansol,West Bengal,23.6739,86.9524,37.6,47,0.0,991.1,8.95,51.1,143,108.0,69.6,0,5,10,1,2026-04-20T11:17:32.858361+05:30
Pondicherry,Puducherry,11.9139,79.8145,34.9,53,0.0,1009.0,9.25,32.8,33,13.5,9.4,0,0,4,1,2026-04-20T11:17:32.858370+05:30
Port Blair,Andaman and Nicobar Islands,11.6234,92.7265,29.8,72,0.0,1008.0,9.05,19.8,60,19.4,16.2,7,0,4,1,2026-04-20T11:17:32.858377+05:30
Haridwar,Uttarakhand,29.9457,78.1642,35.5,26,0.0,973.7,7.05,33.5,60,35.4,13.2,0,5,10,0,2026-04-20T11:17:32.858385+05:30
Rishikesh,Uttarakhand,30.0869,78.2676,34.7,26,0.0,966.6,7.2,35.6,54,55.9,11.6,0,5,7,0,2026-04-20T11:17:32.858393+05:30
Nainital,Uttarakhand,29.3919,79.4542,29.6,25,0.0,810.9,8.05,62.6,54,82.2,16.0,4,5,7,0,2026-04-20T11:17:32.858401+05:30
Mussoorie,Uttarakhand,30.4599,78.0664,26.9,27,0.0,807.1,7.55,44.3,56,36.2,9.3,4,5,7,0,2026-04-20T11:17:32.858410+05:30
Dharamshala,Himachal Pradesh,32.219,76.3234,29.0,25,0.0,871.6,7.8,33.8,40,18.2,4.2,4,5,7,0,2026-04-20T11:17:32.858420+05:30
Dalhousie,Himachal Pradesh,32.5387,75.971,27.7,16,0.0,808.1,8.05,29.5,52,41.8,11.1,4,5,7,1,2026-04-20T11:17:32.858429+05:30
Patiala,Punjab,30.3398,76.3869,36.1,20,0.0,978.0,7.15,29.5,325,476.8,57.3,0,5,10,0,2026-04-20T11:17:32.858436+05:30
Bhatinda,Punjab,30.211,74.9455,37.1,19,0.0,984.0,7.8,32.8,72,68.9,21.8,0,5,10,0,2026-04-20T11:17:32.858444+05:30
Rohtak,Haryana,28.8955,76.6066,36.4,24,0.0,981.7,7.3,31.3,563,352.0,69.2,0,5,10,0,2026-04-20T11:17:32.858452+05:30
Panipat,Haryana,29.3909,76.9635,36.9,21,0.0,980.0,7.1,28.1,946,581.1,81.0,0,5,10,0,2026-04-20T11:17:32.858459+05:30
Mathura,Uttar Pradesh,27.4924,77.6737,37.3,26,0.0,986.5,7.6,24.1,544,547.6,88.5,0,5,10,0,2026-04-20T11:17:32.858465+05:30
Vrindavan,Uttar Pradesh,27.5823,77.7027,38.0,24,0.0,986.8,7.55,29.2,544,547.6,88.5,0,5,10,0,2026-04-20T11:17:32.858472+05:30
Ayodhya,Uttar Pradesh,26.7922,82.1998,37.5,39,0.0,993.4,8.1,34.9,105,85.9,45.5,0,5,10,1,2026-04-20T11:17:32.858478+05:30
Ratlam,Madhya Pradesh,23.3315,75.0367,32.8,33,0.0,956.3,8.45,30.2,53,9.8,7.0,0,5,7,0,2026-04-20T11:17:32.858485+05:30
Sagar,Madhya Pradesh,23.8388,78.7378,38.7,19,0.0,950.8,8.35,36.7,52,14.1,7.0,0,5,10,0,2026-04-20T11:17:32.858492+05:30
Satna,Madhya Pradesh,24.6005,80.8322,40.7,17,0.0,970.2,7.75,36.0,62,29.3,11.6,0,5,10,0,2026-04-20T11:17:32.858498+05:30
Akola,Maharashtra,20.7002,77.0082,38.1,24,0.0,976.2,8.9,29.5,74,26.0,21.8,0,5,10,0,2026-04-20T11:17:32.858506+05:30
Amravati,Maharashtra,20.9374,77.7796,38.0,26,0.0,968.2,8.85,25.9,75,24.9,20.7,0,5,10,0,2026-04-20T11:17:32.858514+05:30
Latur,Maharashtra,18.4088,76.5604,36.1,25,0.0,941.5,8.9,27.7,120,34.0,28.1,0,5,10,0,2026-04-20T11:17:32.858520+05:30
Nanded,Maharashtra,19.1383,77.3091,38.4,27,0.0,969.5,8.85,25.2,111,35.0,30.2,0,5,10,1,2026-04-20T11:17:32.858526+05:30
Gulbarga,Karnataka,17.3297,76.8343,36.9,28,0.0,959.9,9.1,26.3,131,50.1,43.3,0,5,10,0,2026-04-20T11:17:32.858532+05:30
Bidar,Karnataka,17.9104,77.5199,36.8,26,0.0,937.3,8.65,33.5,127,48.2,42.1,0,5,10,0,2026-04-20T11:17:32.858538+05:30
Hospet,Karnataka,15.2689,76.3909,32.2,53,0.0,957.1,9.25,28.4,113,49.6,41.9,0,5,7,1,2026-04-20T11:17:32.858545+05:30
Tirupur,Tamil Nadu,11.1085,77.3411,34.6,45,0.0,976.0,9.4,29.5,69,21.4,18.4,0,5,7,1,2026-04-20T11:17:32.858551+05:30
Alappuzha,Kerala,9.4981,76.3388,29.2,78,0.0,1009.2,8.6,27.4,67,17.5,14.6,7,0,4,1,2026-04-20T11:17:32.858557+05:30
Munnar,Kerala,10.0889,77.0595,29.6,48,0.0,860.0,9.65,31.3,74,18.3,15.0,4,5,7,1,2026-04-20T11:17:32.858564+05:30
Silchar,Assam,24.8333,92.7789,26.0,89,0.0,1005.7,8.1,42.8,123,54.1,39.9,7,5,4,1,2026-04-20T11:17:32.858571+05:30
Dibrugarh,Assam,27.4728,94.912,26.0,79,0.0,994.9,8.75,16.6,131,36.4,28.3,7,5,7,1,2026-04-20T11:17:32.858577+05:30
