city,state,latitude,longitude,temp,humidity,rain,pressure,uv_index,wind_gusts,aqi,pm10,pm2_5,no2,co,o3,so2,mosquito_risk,arthritis_risk,migraine_risk,frizz_risk,updated_at
Delhi,Delhi,28.6139,77.209,37.6,35,0.0,975.7,7.75,38.5,169,382.8,103.4,18.0,498.0,109.0,22.4,0,5,10,1,2026-06-29T09:42:31.775332+05:30
Mumbai,Maharashtra,19.076,72.8777,26.8,88,0.1,1005.6,0.95,34.9,51,18.4,11.4,11.5,340.0,55.0,12.9,10,5,0,1,2026-06-29T09:42:31.775378+05:30
Bangalore,Karnataka,12.9716,77.5946,24.5,72,0.0,911.4,8.3,50.8,22,3.3,3.2,7.9,327.0,52.0,4.2,3,5,7,1,2026-06-29T09:42:31.775394+05:30
Hyderabad,Telangana,17.385,78.4867,27.7,71,0.0,950.5,7.7,33.1,42,11.8,10.1,6.1,289.0,89.0,4.6,7,5,7,1,2026-06-29T09:42:31.775404+05:30
Chennai,Tamil Nadu,13.0827,80.2707,32.0,61,0.0,1004.9,8.8,39.2,60,13.7,12.2,10.4,376.0,79.0,11.9,3,5,4,1,2026-06-29T09:42:31.775413+05:30
Kolkata,West Bengal,22.5726,88.3639,29.2,90,0.1,1001.1,8.8,28.4,86,38.2,36.3,5.8,338.0,141.0,12.8,10,5,4,1,2026-06-29T09:42:31.775425+05:30
Pune,Maharashtra,18.5204,73.8567,25.8,82,0.0,945.3,3.8,37.8,29,5.8,4.1,5.5,156.0,53.0,7.0,7,5,3,1,2026-06-29T09:42:31.775432+05:30
Ahmedabad,Gujarat,23.0225,72.5714,31.5,65,0.0,998.0,8.05,41.4,62,38.8,16.4,3.5,143.0,61.0,4.8,3,5,7,1,2026-06-29T09:42:31.775438+05:30
Jaipur,Rajasthan,26.9124,75.7873,34.4,43,0.0,954.8,8.2,34.6,162,482.4,82.4,3.2,159.0,73.0,4.0,0,5,7,1,2026-06-29T09:42:31.775444+05:30
Lucknow,Uttar Pradesh,26.8467,80.9462,34.6,56,0.0,986.4,8.1,31.3,127,62.4,34.3,6.0,274.0,112.0,7.7,0,5,7,1,2026-06-29T09:42:31.775453+05:30
Kanpur,Uttar Pradesh,26.4499,80.3319,36.1,49,0.0,984.6,8.3,31.3,113,65.2,33.3,4.8,183.0,99.0,7.0,0,5,10,1,2026-06-29T09:42:31.775459+05:30
Chandigarh,Chandigarh,30.7333,76.7794,34.6,46,0.0,962.3,7.85,29.9,149,63.3,44.8,5.1,422.0,164.0,15.2,0,5,7,1,2026-06-29T09:42:31.775465+05:30
Srinagar,Jammu and Kashmir,34.0837,74.7973,26.6,49,0.0,839.8,9.1,22.7,79,26.1,20.7,4.0,468.0,125.0,4.8,4,5,7,0,2026-06-29T09:42:31.775472+05:30
Jammu,Jammu and Kashmir,32.7266,74.857,32.3,59,0.0,965.4,8.65,31.7,105,44.9,31.2,6.5,342.0,146.0,5.4,0,5,7,1,2026-06-29T09:42:31.775479+05:30
Amritsar,Punjab,31.634,74.8723,31.6,69,0.0,973.3,8.5,31.7,150,77.8,50.5,6.6,360.0,142.0,8.6,3,5,7,1,2026-06-29T09:42:31.775484+05:30
Ludhiana,Punjab,30.901,75.8573,34.4,48,0.0,971.6,7.85,32.0,154,89.9,49.2,8.1,407.0,152.0,13.7,0,5,7,1,2026-06-29T09:42:31.775491+05:30
Jalandhar,Punjab,31.326,75.5762,33.1,55,0.0,972.6,8.25,27.4,152,90.3,51.8,7.5,313.0,152.0,12.8,0,5,7,1,2026-06-29T09:42:31.775496+05:30
Dehradun,Uttarakhand,30.6284,78.0322,23.1,75,0.1,828.5,6.3,28.4,79,23.7,17.1,1.4,225.0,132.0,2.0,6,5,7,1,2026-06-29T09:42:31.775502+05:30
Shimla,Himachal Pradesh,31.1048,77.1734,19.7,74,0.0,783.5,7.15,43.6,93,31.9,20.7,0.8,260.0,147.0,4.4,3,5,7,0,2026-06-29T09:42:31.775511+05:30
Manali,Himachal Pradesh,32.2396,77.1887,24.9,46,0.0,818.0,8.15,36.0,54,5.4,3.9,7.3,167.0,94.0,0.3,0,5,7,0,2026-06-29T09:42:31.775525+05:30
Gurgaon,Haryana,28.4595,77.0266,36.5,38,0.0,974.4,7.8,40.0,279,685.5,120.6,14.8,297.0,82.0,13.7,0,5,10,1,2026-06-29T09:42:31.775531+05:30
Noida,Uttar Pradesh,28.5355,77.391,36.5,43,0.0,977.1,7.8,25.2,279,685.5,120.6,14.8,556.0,82.0,13.7,0,5,10,1,2026-06-29T09:42:31.775537+05:30
Ghaziabad,Uttar Pradesh,28.6692,77.4538,36.5,43,0.0,975.5,7.8,36.0,164,201.2,82.7,16.0,408.0,152.0,28.6,0,5,10,1,2026-06-29T09:42:31.775543+05:30
Faridabad,Haryana,28.4089,77.3178,37.2,38,0.0,976.5,7.85,32.4,279,685.5,120.6,14.8,445.0,82.0,13.7,0,5,10,1,2026-06-29T09:42:31.775548+05:30
Meerut,Uttar Pradesh,28.9845,77.7064,35.4,52,0.0,974.4,7.1,40.0,164,201.2,82.7,16.0,518.0,152.0,28.6,0,5,10,1,2026-06-29T09:42:31.775555+05:30
Agra,Uttar Pradesh,27.1767,78.0081,35.4,45,0.0,981.0,8.0,37.8,374,821.4,134.1,8.6,206.0,110.0,11.0,0,5,10,1,2026-06-29T09:42:31.775561+05:30
Varanasi,Uttar Pradesh,25.3176,82.9739,34.6,56,0.0,991.2,7.3,32.8,108,36.9,27.8,4.3,278.0,123.0,7.2,0,5,7,1,2026-06-29T09:42:31.775567+05:30
Prayagraj,Uttar Pradesh,25.4358,81.8463,36.9,46,0.0,989.1,8.25,42.5,93,41.0,26.1,4.7,194.0,113.0,6.9,0,5,10,1,2026-06-29T09:42:31.775574+05:30
Gorakhpur,Uttar Pradesh,26.7606,83.3732,31.8,71,0.0,991.3,8.3,45.0,133,47.7,32.2,4.6,328.0,138.0,6.3,3,5,7,1,2026-06-29T09:42:31.775580+05:30
Bareilly,Uttar Pradesh,28.367,79.4304,33.9,59,0.0,979.8,7.55,31.0,144,156.5,58.8,8.3,363.0,148.0,20.1,0,5,7,1,2026-06-29T09:42:31.775588+05:30
Aligarh,Uttar Pradesh,27.8974,78.088,35.5,47,0.0,978.5,7.95,43.6,166,258.0,83.6,11.5,387.0,126.0,15.7,0,5,10,1,2026-06-29T09:42:31.775594+05:30
Moradabad,Uttar Pradesh,28.8386,78.7733,34.1,57,0.0,976.7,7.95,40.3,155,143.9,59.5,6.9,361.0,159.0,19.2,0,5,7,1,2026-06-29T09:42:31.775599+05:30
Saharanpur,Uttar Pradesh,29.9637,77.546,32.2,61,0.1,969.3,7.5,29.2,158,105.2,59.6,7.3,346.0,169.0,10.8,6,5,7,1,2026-06-29T09:42:31.775605+05:30
Jhansi,Uttar Pradesh,25.4484,78.5685,35.0,49,0.0,972.2,8.45,42.8,74,41.9,22.5,4.0,165.0,84.0,5.9,0,5,7,1,2026-06-29T09:42:35.067905+05:30
Surat,Gujarat,21.1702,72.8311,32.0,60,0.0,1002.7,6.85,45.0,75,54.1,27.4,18.5,356.0,40.0,56.8,0,5,4,1,2026-06-29T09:42:35.067943+05:30
Vadodara,Gujarat,22.3072,73.1812,29.1,82,0.1,1000.3,5.7,45.0,71,35.3,17.9,4.6,157.0,61.0,6.4,10,5,0,1,2026-06-29T09:42:35.067955+05:30
Rajkot,Gujarat,22.3039,70.8022,32.2,57,0.0,990.1,7.55,39.6,59,27.7,12.5,2.6,107.0,61.0,4.6,0,5,7,1,2026-06-29T09:42:35.067963+05:30
Thane,Maharashtra,19.2183,72.9781,27.6,88,0.1,1004.8,0.95,30.6,51,18.4,11.4,11.5,242.0,55.0,12.9,10,5,0,1,2026-06-29T09:42:35.067972+05:30
Nagpur,Maharashtra,21.1458,79.0882,30.3,72,0.0,969.7,7.95,25.2,87,26.1,18.6,11.1,238.0,99.0,24.6,3,5,7,1,2026-06-29T09:42:35.067980+05:30
Nashik,Maharashtra,19.9975,73.7898,27.2,69,0.0,942.5,4.05,40.0,39,13.6,7.9,4.9,150.0,54.0,8.2,7,5,3,1,2026-06-29T09:42:35.067988+05:30
Aurangabad,Maharashtra,19.8762,75.3433,27.7,71,0.0,941.3,7.3,36.7,55,16.2,8.7,2.7,155.0,61.0,6.0,7,5,7,1,2026-06-29T09:42:35.067996+05:30
Solapur,Maharashtra,17.6599,75.9064,27.0,78,0.0,954.8,7.05,35.3,36,6.1,5.1,3.4,130.0,64.0,4.2,7,5,7,1,2026-06-29T09:42:35.068003+05:30
Kolhapur,Maharashtra,16.705,74.2433,24.8,86,0.1,946.1,7.35,49.7,20,5.3,4.1,3.1,140.0,58.0,2.0,6,5,7,1,2026-06-29T09:42:35.068011+05:30
Goa,Goa,15.2993,74.124,25.6,95,0.0,997.7,4.05,33.5,28,8.6,5.8,2.1,225.0,58.0,0.8,7,5,3,1,2026-06-29T09:42:35.068018+05:30
Jodhpur,Rajasthan,26.2389,73.0243,33.3,48,0.0,977.8,8.4,47.5,144,247.7,55.4,1.6,113.0,61.0,3.5,0,5,7,1,2026-06-29T09:42:35.068025+05:30
Udaipur,Rajasthan,24.5854,73.7125,29.6,65,0.0,942.6,8.85,35.6,62,27.0,13.2,1.4,118.0,63.0,2.9,7,5,7,1,2026-06-29T09:42:35.068032+05:30
Kota,Rajasthan,25.2138,75.8648,32.8,55,0.0,973.9,8.35,35.3,72,36.8,21.2,4.4,182.0,79.0,6.4,0,5,7,1,2026-06-29T09:42:35.068039+05:30
Bikaner,Rajasthan,28.0229,73.3119,35.6,42,0.0,975.1,8.5,40.7,147,345.5,109.2,0.8,109.0,63.0,1.6,0,5,10,1,2026-06-29T09:42:35.068046+05:30
Ajmer,Rajasthan,26.4499,74.6399,31.9,50,0.0,949.8,8.35,49.3,94,113.9,35.3,1.9,125.0,70.0,3.4,0,5,7,1,2026-06-29T09:42:35.068053+05:30
Gwalior,Madhya Pradesh,26.2183,78.1828,35.3,46,0.0,976.9,8.25,46.8,97,112.7,39.6,3.2,154.0,82.0,3.8,0,5,10,1,2026-06-29T09:42:35.068060+05:30
Indore,Madhya Pradesh,22.7196,75.8577,28.2,72,0.0,944.7,8.25,31.7,87,33.3,21.0,5.7,226.0,68.0,12.2,7,5,7,1,2026-06-29T09:42:35.068067+05:30
Bhopal,Madhya Pradesh,23.2599,77.4126,28.4,72,0.1,949.8,7.55,34.9,82,46.2,29.3,3.4,268.0,95.0,6.0,10,5,7,1,2026-06-29T09:42:35.068074+05:30
Jabalpur,Madhya Pradesh,23.1815,79.9864,28.5,80,0.1,957.8,7.6,37.8,75,24.0,16.5,2.6,191.0,103.0,3.1,10,5,7,1,2026-06-29T09:42:35.068080+05:30
Ujjain,Madhya Pradesh,23.1765,75.7885,27.6,78,0.0,950.1,8.25,33.5,83,31.4,20.0,4.8,161.0,66.0,11.3,7,5,7,1,2026-06-29T09:42:35.068088+05:30
Visakhapatnam,Andhra Pradesh,17.6868,83.2185,30.1,71,0.0,1000.0,5.15,50.8,71,19.2,17.7,17.3,376.0,97.0,48.5,3,5,0,1,2026-06-29T09:42:35.068094+05:30
Vijayawada,Andhra Pradesh,16.5062,80.648,31.8,64,0.0,999.4,7.4,47.9,64,8.0,7.5,3.8,178.0,71.0,5.4,3,5,7,1,2026-06-29T09:42:35.068101+05:30
Guntur,Andhra Pradesh,16.3067,80.4365,31.8,58,0.0,1000.7,7.35,41.4,60,6.9,6.6,3.8,191.0,68.0,5.5,0,5,4,1,2026-06-29T09:42:35.068108+05:30
Nellore,Andhra Pradesh,14.4426,79.9865,32.5,50,0.0,1003.1,8.6,44.3,50,7.7,5.6,3.7,148.0,62.0,4.6,0,5,4,1,2026-06-29T09:42:35.068115+05:30
Kurnool,Andhra Pradesh,15.8281,78.0373,29.0,64,0.0,975.0,6.8,51.8,25,5.1,4.0,4.5,129.0,52.0,3.7,7,5,7,1,2026-06-29T09:42:35.068123+05:30
Kakinada,Andhra Pradesh,16.9891,82.2475,30.0,74,0.0,1004.1,8.9,50.8,64,16.8,13.1,3.5,210.0,111.0,6.2,7,5,4,1,2026-06-29T09:42:35.068129+05:30
Tirupati,Andhra Pradesh,13.6288,79.4192,32.0,52,0.0,988.9,8.45,38.5,48,6.1,5.1,3.2,127.0,68.0,2.1,0,5,7,1,2026-06-29T09:42:35.068135+05:30
Warangal,Telangana,17.9689,79.5941,30.5,66,0.0,975.7,8.65,29.5,64,14.1,12.2,4.2,177.0,96.0,4.9,3,5,7,1,2026-06-29T09:42:35.068141+05:30
Nizamabad,Telangana,18.6725,78.0941,28.1,75,0.1,962.1,7.9,38.2,66,21.2,14.4,4.6,174.0,84.0,5.9,10,5,7,1,2026-06-29T09:42:35.068147+05:30
Mysore,Karnataka,12.2958,76.6396,25.8,68,0.1,928.9,7.1,53.6,18,2.0,1.9,3.9,151.0,54.0,1.9,10,5,7,1,2026-06-29T09:42:35.068154+05:30
Mangalore,Karnataka,12.9141,74.856,25.8,93,0.1,1008.2,6.1,47.2,25,10.6,7.6,5.9,212.0,49.0,1.8,10,0,4,1,2026-06-29T09:42:35.068160+05:30
Hubli-Dharwad,Karnataka,15.3647,75.124,24.9,79,0.0,939.8,7.3,59.8,21,1.8,1.4,2.6,115.0,57.0,1.0,3,5,7,1,2026-06-29T09:42:35.068167+05:30
Belgaum,Karnataka,15.8497,74.4977,23.7,83,0.0,924.5,7.45,51.8,22,4.4,3.0,3.8,121.0,52.0,1.4,3,5,7,1,2026-06-29T09:42:38.355883+05:30
Coimbatore,Tamil Nadu,11.0168,76.9558,27.5,69,0.0,961.9,8.85,57.6,19,2.5,2.3,2.8,168.0,55.0,2.1,7,5,7,1,2026-06-29T09:42:38.355920+05:30
Madurai,Tamil Nadu,9.9252,78.1198,33.1,47,0.0,992.6,8.75,28.4,53,5.9,5.3,3.7,163.0,76.0,4.3,0,5,7,1,2026-06-29T09:42:38.355931+05:30
Trichy,Tamil Nadu,10.7905,78.7047,32.4,52,0.0,999.1,8.8,59.0,36,3.0,2.7,2.7,128.0,62.0,2.6,0,5,7,1,2026-06-29T09:42:38.355940+05:30
Salem,Tamil Nadu,11.6643,78.146,29.3,63,0.0,977.4,8.65,33.5,45,6.4,6.0,5.6,185.0,68.0,8.8,7,5,7,1,2026-06-29T09:42:38.355948+05:30
Tirunelveli,Tamil Nadu,8.7139,77.7567,33.1,49,0.0,1003.1,8.55,49.7,19,2.7,2.1,2.1,120.0,58.0,1.2,0,5,4,1,2026-06-29T09:42:38.355956+05:30
Vellore,Tamil Nadu,12.9165,79.1325,30.7,57,0.0,982.7,8.9,42.1,49,4.3,4.2,3.0,144.0,69.0,3.5,0,5,7,1,2026-06-29T09:42:38.355963+05:30
Erode,Tamil Nadu,11.341,77.7172,31.2,54,0.0,989.1,8.85,39.6,30,3.9,3.7,3.8,179.0,62.0,2.8,0,5,7,1,2026-06-29T09:42:38.355970+05:30
Kochi,Kerala,9.9312,76.2673,26.0,85,0.2,1010.7,8.55,41.4,30,10.9,8.1,8.3,188.0,50.0,3.4,10,0,4,1,2026-06-29T09:42:38.355978+05:30
Thiruvananthapuram,Kerala,8.5241,76.9366,26.3,88,0.0,1009.9,8.25,49.0,27,10.3,6.1,2.0,171.0,60.0,1.0,7,0,4,1,2026-06-29T09:42:38.355985+05:30
Kozhikode,Kerala,11.2588,75.7804,26.0,95,0.1,1010.0,8.6,38.9,28,10.2,5.1,0.8,192.0,64.0,0.5,10,0,4,1,2026-06-29T09:42:38.355992+05:30
Thrissur,Kerala,10.5276,76.2144,27.0,85,0.0,1009.1,8.5,41.0,28,9.6,7.3,4.8,215.0,52.0,2.1,7,0,4,1,2026-06-29T09:42:38.356000+05:30
Kannur,Kerala,11.8745,75.3704,25.1,94,0.2,1009.3,8.7,39.2,27,11.1,6.8,3.2,200.0,52.0,1.1,10,0,4,1,2026-06-29T09:42:38.356007+05:30
Patna,Bihar,25.5941,85.1376,31.4,74,0.0,994.9,7.8,22.7,145,42.1,35.7,6.5,292.0,143.0,12.1,3,5,7,1,2026-06-29T09:42:38.356014+05:30
Gaya,Bihar,24.7914,85.0002,32.9,63,0.0,988.4,8.3,35.6,124,39.3,37.7,4.2,245.0,145.0,14.6,3,5,7,1,2026-06-29T09:42:38.356021+05:30
Muzaffarpur,Bihar,26.1209,85.3647,31.0,75,0.0,994.9,7.6,24.1,145,29.4,25.3,7.0,324.0,136.0,11.9,3,5,7,1,2026-06-29T09:42:38.356027+05:30
Bhagalpur,Bihar,25.2425,87.0117,29.8,78,0.1,996.4,8.15,24.8,120,42.4,40.7,11.3,578.0,118.0,29.2,10,5,7,1,2026-06-29T09:42:38.356034+05:30
Ranchi,Jharkhand,23.3441,85.3096,30.2,66,0.0,934.1,9.0,32.4,114,36.7,35.4,4.7,236.0,119.0,19.9,3,5,7,1,2026-06-29T09:42:38.356041+05:30
Jamshedpur,Jharkhand,22.8046,86.2029,31.5,67,0.0,985.9,8.95,31.7,118,38.3,36.8,7.2,270.0,137.0,28.1,3,5,7,1,2026-06-29T09:42:38.356047+05:30
Dhanbad,Jharkhand,23.7957,86.4304,33.5,57,0.0,974.9,8.8,31.7,153,54.2,53.1,23.5,243.0,132.0,72.8,0,5,7,1,2026-06-29T09:42:38.356055+05:30
Bokaro,Jharkhand,23.6693,86.1511,33.7,58,0.0,978.6,8.75,36.4,139,45.3,44.1,15.5,260.0,131.0,50.3,0,5,7,1,2026-06-29T09:42:38.356063+05:30
Bhubaneswar,Odisha,20.2961,85.8245,32.0,71,0.0,998.2,8.75,29.2,88,25.2,22.5,4.9,256.0,116.0,9.8,3,5,7,1,2026-06-29T09:42:38.356069+05:30
Cuttack,Odisha,20.4625,85.8828,31.9,70,0.0,999.9,8.85,29.2,88,25.2,22.5,4.9,254.0,116.0,9.8,3,5,7,1,2026-06-29T09:42:38.356076+05:30
Rourkela,Odisha,22.2604,84.8536,28.6,86,0.0,980.9,9.0,30.2,104,37.1,34.6,6.0,260.0,127.0,20.2,7,5,7,1,2026-06-29T09:42:38.356084+05:30
Raipur,Chhattisgarh,21.2514,81.6296,30.6,66,0.0,970.9,8.25,33.1,101,20.8,19.0,18.5,445.0,89.0,48.8,3,5,7,1,2026-06-29T09:42:38.356092+05:30
Bhilai,Chhattisgarh,21.1938,81.3509,30.2,68,0.0,971.4,8.4,37.1,95,21.7,19.3,15.8,667.0,93.0,43.1,3,5,7,1,2026-06-29T09:42:38.356098+05:30
Guwahati,Assam,26.1158,91.7086,26.3,95,0.2,998.3,4.1,20.5,52,8.9,8.7,3.7,261.0,90.0,2.6,10,5,3,1,2026-06-29T09:42:38.356105+05:30
Agartala,Tripura,23.8315,91.2868,28.8,82,0.0,1002.7,7.35,37.1,44,11.6,9.3,3.9,161.0,84.0,1.6,7,5,4,1,2026-06-29T09:42:38.356111+05:30
Shillong,Meghalaya,25.5788,91.8933,22.8,82,0.0,855.6,6.35,30.2,24,3.9,3.8,5.4,166.0,64.0,2.6,3,5,7,1,2026-06-29T09:42:38.356117+05:30
Imphal,Manipur,24.817,93.9368,27.8,68,0.0,921.2,8.7,29.2,41,5.5,4.2,1.1,155.0,69.0,1.1,7,5,7,1,2026-06-29T09:42:38.356124+05:30
Aizawl,Mizoram,23.7271,92.7176,22.2,90,0.1,890.4,8.6,35.6,20,3.3,2.5,0.7,119.0,67.0,0.6,6,5,7,1,2026-06-29T09:42:38.356130+05:30
Kohima,Nagaland,25.6701,94.1077,21.9,100,0.2,854.1,7.75,21.2,24,3.3,2.7,0.6,163.0,71.0,0.8,6,5,7,1,2026-06-29T09:42:38.356137+05:30
Gangtok,Sikkim,27.3314,88.6138,19.5,94,1.1,834.5,6.45,27.7,57,3.1,2.9,3.3,307.0,122.0,2.2,6,10,7,1,2026-06-29T09:42:38.356144+05:30
Siliguri,West Bengal,26.7271,88.3953,25.1,96,0.6,988.7,8.1,25.2,63,9.0,8.5,4.9,438.0,130.0,4.4,10,5,7,1,2026-06-29T09:42:41.658846+05:30
Durgapur,West Bengal,23.5204,87.3119,32.9,64,0.0,989.8,8.7,28.1,154,63.1,61.7,32.4,676.0,117.0,87.3,3,5,7,1,2026-06-29T09:42:41.658883+05:30
Asansol,West Bengal,23.6739,86.9524,33.1,61,0.0,988.4,8.8,29.9,152,59.4,58.1,26.5,681.0,133.0,79.5,3,5,7,1,2026-06-29T09:42:41.658896+05:30
Pondicherry,Puducherry,11.9139,79.8145,33.1,49,0.0,1006.8,8.8,54.4,59,14.7,12.6,8.6,263.0,74.0,10.8,0,5,4,1,2026-06-29T09:42:41.658906+05:30
Port Blair,Andaman and Nicobar Islands,11.6234,92.7265,26.4,94,0.2,1008.1,7.0,43.9,24,8.1,4.9,0.3,97.0,49.0,0.3,10,0,4,1,2026-06-29T09:42:41.658915+05:30
Haridwar,Uttarakhand,29.9457,78.1642,32.3,64,0.0,967.7,7.05,37.8,142,86.1,47.4,2.9,297.0,168.0,7.1,3,5,7,1,2026-06-29T09:42:41.658923+05:30
Rishikesh,Uttarakhand,30.0869,78.2676,32.2,59,0.0,960.6,6.05,29.2,110,68.7,40.7,1.6,277.0,159.0,5.6,0,5,7,1,2026-06-29T09:42:41.658930+05:30
Nainital,Uttarakhand,29.3919,79.4542,22.0,72,0.1,804.4,6.8,28.8,118,84.5,43.9,1.6,265.0,160.0,6.5,6,5,7,1,2026-06-29T09:42:41.658939+05:30
Mussoorie,Uttarakhand,30.4599,78.0664,21.0,78,0.1,801.6,5.45,39.6,115,67.3,46.7,2.7,250.0,166.0,7.1,6,5,3,1,2026-06-29T09:42:41.658946+05:30
Dharamshala,Himachal Pradesh,32.219,76.3234,25.1,78,0.0,866.1,8.55,33.8,55,17.8,13.1,1.6,293.0,113.0,1.1,7,5,7,1,2026-06-29T09:42:41.658954+05:30
Dalhousie,Himachal Pradesh,32.5387,75.971,22.9,76,0.0,803.7,8.1,33.1,83,30.4,21.4,4.0,283.0,137.0,2.3,3,5,7,1,2026-06-29T09:42:41.658962+05:30
Patiala,Punjab,30.3398,76.3869,34.9,51,0.0,971.1,5.9,34.9,159,61.0,44.8,6.1,384.0,151.0,11.7,0,5,3,1,2026-06-29T09:42:41.658970+05:30
Bhatinda,Punjab,30.211,74.9455,36.4,43,0.0,975.7,8.35,29.9,152,294.3,85.4,8.3,233.0,105.0,7.3,0,5,10,1,2026-06-29T09:42:41.658977+05:30
Rohtak,Haryana,28.8955,76.6066,35.8,45,0.0,974.4,7.75,34.2,205,817.7,135.5,6.9,284.0,84.0,4.6,0,5,10,1,2026-06-29T09:42:41.658984+05:30
Panipat,Haryana,29.3909,76.9635,34.7,57,0.0,973.2,7.05,45.0,200,646.3,119.7,10.8,299.0,123.0,14.0,0,5,7,1,2026-06-29T09:42:41.658991+05:30
Mathura,Uttar Pradesh,27.4924,77.6737,34.4,51,0.0,980.1,6.25,32.8,311,443.3,82.9,7.0,236.0,92.0,6.6,0,5,7,1,2026-06-29T09:42:41.658998+05:30
Vrindavan,Uttar Pradesh,27.5823,77.7027,34.5,50,0.0,980.4,8.0,37.1,311,443.3,82.9,7.0,245.0,92.0,6.6,0,5,7,1,2026-06-29T09:42:41.659004+05:30
Ayodhya,Uttar Pradesh,26.7922,82.1998,32.2,68,0.0,988.9,8.45,28.8,145,56.2,32.5,5.3,436.0,125.0,7.6,3,5,7,1,2026-06-29T09:42:41.659011+05:30
Ratlam,Madhya Pradesh,23.3315,75.0367,25.9,90,0.1,951.1,7.95,32.4,80,30.9,19.0,4.5,134.0,68.0,10.6,10,5,7,1,2026-06-29T09:42:41.659018+05:30
Sagar,Madhya Pradesh,23.8388,78.7378,30.1,64,0.0,946.2,8.2,36.7,71,33.1,17.9,2.7,182.0,90.0,3.0,3,5,7,1,2026-06-29T09:42:41.659025+05:30
Satna,Madhya Pradesh,24.6005,80.8322,34.4,53,0.0,966.0,8.35,40.0,80,44.0,22.5,2.4,179.0,98.0,3.5,0,5,7,1,2026-06-29T09:42:41.659032+05:30
Akola,Maharashtra,20.7002,77.0082,29.3,68,0.0,972.2,5.65,38.5,74,41.9,23.5,5.6,139.0,85.0,11.8,7,5,3,1,2026-06-29T09:42:41.659039+05:30
Amravati,Maharashtra,20.9374,77.7796,29.4,70,0.0,964.2,6.75,32.8,73,40.4,23.2,5.8,166.0,95.0,12.9,7,5,7,1,2026-06-29T09:42:41.659047+05:30
Latur,Maharashtra,18.4088,76.5604,27.0,74,0.0,937.2,5.9,32.4,57,15.0,10.0,3.4,142.0,75.0,6.0,7,5,3,1,2026-06-29T09:42:41.659055+05:30
Nanded,Maharashtra,19.1383,77.3091,28.7,72,0.0,965.7,5.45,25.9,60,23.0,15.9,4.8,169.0,75.0,3.6,7,5,3,1,2026-06-29T09:42:41.659061+05:30
Gulbarga,Karnataka,17.3297,76.8343,26.5,78,0.0,956.2,6.3,36.0,25,7.2,6.1,4.1,150.0,73.0,4.8,7,5,7,1,2026-06-29T09:42:41.659067+05:30
Bidar,Karnataka,17.9104,77.5199,25.6,82,0.0,932.8,6.95,36.0,48,20.7,13.9,4.0,164.0,94.0,4.8,7,5,7,1,2026-06-29T09:42:41.659074+05:30
Hospet,Karnataka,15.2689,76.3909,27.0,69,0.0,954.6,8.55,52.2,20,5.0,3.0,2.4,113.0,59.0,1.7,7,5,7,1,2026-06-29T09:42:41.659080+05:30
Tirupur,Tamil Nadu,11.1085,77.3411,29.6,60,0.0,975.4,8.9,57.2,35,4.6,4.3,4.0,157.0,61.0,3.4,4,5,7,1,2026-06-29T09:42:41.659086+05:30
Alappuzha,Kerala,9.4981,76.3388,25.9,94,0.2,1010.7,8.5,42.5,30,11.5,7.1,4.3,93.0,60.0,2.1,10,0,4,1,2026-06-29T09:42:41.659093+05:30
Munnar,Kerala,10.0889,77.0595,17.7,94,0.2,857.3,8.8,46.4,15,1.3,1.2,2.7,98.0,50.0,1.3,6,10,7,1,2026-06-29T09:42:41.659100+05:30
Silchar,Assam,24.8333,92.7789,29.3,80,0.0,1001.8,8.2,36.7,44,6.3,5.5,2.6,169.0,63.0,2.6,7,5,4,1,2026-06-29T09:42:41.659106+05:30
Dibrugarh,Assam,27.4728,94.912,26.8,95,0.0,992.3,5.65,29.5,43,9.9,9.6,5.2,230.0,71.0,1.4,7,5,3,1,2026-06-29T09:42:41.659113+05:30
