city,state,latitude,longitude,temp,humidity,rain,pressure,uv_index,wind_gusts,aqi,pm10,pm2_5,mosquito_risk,arthritis_risk,migraine_risk,frizz_risk,updated_at
Delhi,Delhi,28.6139,77.209,21.5,79,0.0,985.6,5.6,35.3,127,159.3,57.7,3,5,3,1,2026-04-04T21:06:18.756483+05:30
Mumbai,Maharashtra,19.076,72.8777,27.5,78,0.0,1010.3,7.9,20.9,72,50.2,18.7,7,0,4,1,2026-04-04T21:06:18.756527+05:30
Bangalore,Karnataka,12.9716,77.5946,25.2,70,0.0,912.9,9.1,24.5,130,58.9,55.8,7,5,7,1,2026-04-04T21:06:18.756543+05:30
Hyderabad,Telangana,17.385,78.4867,27.4,64,0.0,954.3,7.95,43.9,156,57.7,49.6,7,5,7,1,2026-04-04T21:06:18.756553+05:30
Chennai,Tamil Nadu,13.0827,80.2707,29.1,80,0.0,1007.4,8.75,31.0,82,16.9,13.3,7,5,4,1,2026-04-04T21:06:18.756562+05:30
Kolkata,West Bengal,22.5726,88.3639,28.5,81,0.0,1005.0,8.55,20.5,186,58.9,55.2,7,5,4,1,2026-04-04T21:06:18.756571+05:30
Pune,Maharashtra,18.5204,73.8567,24.8,68,0.0,949.6,8.5,40.0,134,27.4,23.3,3,5,7,1,2026-04-04T21:06:18.756583+05:30
Ahmedabad,Gujarat,23.0225,72.5714,28.2,40,0.0,1003.4,7.5,24.8,68,22.9,15.5,4,5,4,0,2026-04-04T21:06:18.756591+05:30
Jaipur,Rajasthan,26.9124,75.7873,22.7,72,0.0,961.5,7.45,41.4,81,70.1,23.9,3,5,7,1,2026-04-04T21:06:18.756599+05:30
Lucknow,Uttar Pradesh,26.8467,80.9462,25.4,64,0.0,995.5,6.3,52.2,155,231.4,57.4,7,5,7,1,2026-04-04T21:06:18.756607+05:30
Kanpur,Uttar Pradesh,26.4499,80.3319,23.7,75,0.0,994.4,6.75,39.6,280,462.9,75.2,3,5,7,1,2026-04-04T21:06:18.756615+05:30
Chandigarh,Chandigarh,30.7333,76.7794,19.6,89,0.0,971.3,5.9,28.8,91,84.3,43.4,3,10,3,1,2026-04-04T21:06:18.756623+05:30
Srinagar,Jammu and Kashmir,34.0837,74.7973,8.2,84,0.0,840.9,5.25,29.5,63,37.0,34.7,3,10,3,0,2026-04-04T21:06:18.756630+05:30
Jammu,Jammu and Kashmir,32.7266,74.857,18.4,81,0.0,975.4,6.55,46.4,63,110.1,46.6,3,10,7,0,2026-04-04T21:06:18.756638+05:30
Amritsar,Punjab,31.634,74.8723,17.5,95,0.0,984.0,6.15,32.0,84,85.2,42.5,3,10,7,1,2026-04-04T21:06:18.756645+05:30
Ludhiana,Punjab,30.901,75.8573,19.3,87,0.0,981.8,6.7,28.4,120,78.2,36.9,3,10,7,1,2026-04-04T21:06:18.756653+05:30
Jalandhar,Punjab,31.326,75.5762,18.3,90,0.0,983.1,6.75,34.2,102,93.8,33.1,3,10,7,1,2026-04-04T21:06:18.756661+05:30
Dehradun,Uttarakhand,30.6284,78.0322,12.9,67,0.0,829.7,3.85,34.2,49,24.2,11.8,3,5,3,0,2026-04-04T21:06:18.756668+05:30
Shimla,Himachal Pradesh,31.1048,77.1734,10.5,94,0.0,783.2,5.55,49.7,54,23.3,12.9,3,10,3,0,2026-04-04T21:06:18.756675+05:30
Manali,Himachal Pradesh,32.2396,77.1887,13.5,55,0.0,818.0,7.2,31.3,71,15.3,6.3,0,5,7,0,2026-04-04T21:06:18.756682+05:30
Gurgaon,Haryana,28.4595,77.0266,19.7,88,0.0,983.9,6.2,28.8,390,94.5,46.2,3,10,7,1,2026-04-04T21:06:18.756689+05:30
Noida,Uttar Pradesh,28.5355,77.391,22.4,79,0.0,987.1,5.7,29.9,390,94.5,46.2,3,5,3,1,2026-04-04T21:06:18.756696+05:30
Ghaziabad,Uttar Pradesh,28.6692,77.4538,21.9,86,0.0,985.0,5.55,29.9,140,212.8,58.2,3,5,3,1,2026-04-04T21:06:18.756703+05:30
Faridabad,Haryana,28.4089,77.3178,20.1,84,0.0,986.6,5.8,29.5,390,94.5,46.2,3,5,3,1,2026-04-04T21:06:18.756710+05:30
Meerut,Uttar Pradesh,28.9845,77.7064,20.7,90,0.0,983.6,6.45,46.4,140,212.8,58.2,3,5,7,1,2026-04-04T21:06:18.756717+05:30
Agra,Uttar Pradesh,27.1767,78.0081,22.1,82,0.0,990.1,6.8,35.6,502,171.8,44.8,3,5,7,1,2026-04-04T21:06:18.756724+05:30
Varanasi,Uttar Pradesh,25.3176,82.9739,27.6,69,0.0,998.3,6.05,24.8,75,42.1,36.0,7,5,7,1,2026-04-04T21:06:18.756733+05:30
Prayagraj,Uttar Pradesh,25.4358,81.8463,25.3,78,0.0,997.6,5.45,37.1,88,90.6,43.0,7,5,3,1,2026-04-04T21:06:18.756741+05:30
Gorakhpur,Uttar Pradesh,26.7606,83.3732,29.0,45,0.0,996.7,6.8,37.1,98,79.9,40.9,4,5,7,0,2026-04-04T21:06:18.756750+05:30
Bareilly,Uttar Pradesh,28.367,79.4304,23.8,76,0.0,988.3,5.35,24.5,103,37.6,27.1,3,5,3,1,2026-04-04T21:06:18.756758+05:30
Aligarh,Uttar Pradesh,27.8974,78.088,22.0,82,0.0,987.6,5.3,40.7,567,957.4,130.9,3,5,3,1,2026-04-04T21:06:18.756764+05:30
Moradabad,Uttar Pradesh,28.8386,78.7733,21.1,88,0.0,985.4,6.0,31.0,119,57.2,27.0,3,5,3,1,2026-04-04T21:06:18.756770+05:30
Saharanpur,Uttar Pradesh,29.9637,77.546,21.3,84,0.0,977.7,5.6,29.5,149,75.7,33.2,3,5,3,1,2026-04-04T21:06:18.756779+05:30
Jhansi,Uttar Pradesh,25.4484,78.5685,26.3,60,0.0,980.1,7.15,45.0,83,28.6,15.5,4,5,7,1,2026-04-04T21:06:21.977361+05:30
Surat,Gujarat,21.1702,72.8311,26.8,80,0.0,1008.4,7.6,25.6,77,42.8,24.9,7,0,4,1,2026-04-04T21:06:21.977395+05:30
Vadodara,Gujarat,22.3072,73.1812,27.9,59,0.0,1005.4,7.85,25.9,77,50.5,27.2,4,5,4,1,2026-04-04T21:06:21.977405+05:30
Rajkot,Gujarat,22.3039,70.8022,26.0,34,0.0,996.1,7.55,34.9,107,21.0,14.4,4,5,7,0,2026-04-04T21:06:21.977413+05:30
Thane,Maharashtra,19.2183,72.9781,26.6,80,0.0,1009.7,7.9,36.7,72,50.2,18.7,7,0,4,1,2026-04-04T21:06:21.977420+05:30
Nagpur,Maharashtra,21.1458,79.0882,25.2,74,0.0,974.7,7.65,35.3,144,61.2,56.1,7,5,7,1,2026-04-04T21:06:21.977427+05:30
Nashik,Maharashtra,19.9975,73.7898,23.3,75,0.0,946.9,8.15,37.4,57,25.6,11.3,3,5,7,1,2026-04-04T21:06:21.977434+05:30
Aurangabad,Maharashtra,19.8762,75.3433,27.2,53,0.0,944.7,8.85,36.7,83,18.5,13.2,4,5,7,1,2026-04-04T21:06:21.977441+05:30
Solapur,Maharashtra,17.6599,75.9064,30.1,49,0.0,956.9,8.9,22.0,128,40.5,34.1,0,5,7,1,2026-04-04T21:06:21.977448+05:30
Kolhapur,Maharashtra,16.705,74.2433,23.4,73,0.0,948.9,8.95,44.6,85,27.1,21.0,3,5,7,1,2026-04-04T21:06:21.977455+05:30
Goa,Goa,15.2993,74.124,27.8,75,0.0,999.8,8.15,36.4,65,37.1,17.3,7,5,7,1,2026-04-04T21:06:21.977462+05:30
Jodhpur,Rajasthan,26.2389,73.0243,25.9,38,0.0,984.6,7.6,28.4,97,137.4,23.6,4,5,7,0,2026-04-04T21:06:21.977469+05:30
Udaipur,Rajasthan,24.5854,73.7125,22.9,42,0.0,947.6,7.5,37.8,63,12.9,7.4,0,5,7,0,2026-04-04T21:06:21.977476+05:30
Kota,Rajasthan,25.2138,75.8648,26.1,58,0.0,979.4,7.8,34.2,67,32.1,15.7,4,5,7,1,2026-04-04T21:06:21.977482+05:30
Bikaner,Rajasthan,28.0229,73.3119,24.5,43,0.0,984.2,7.15,30.2,93,21.7,11.0,0,5,7,0,2026-04-04T21:06:21.977488+05:30
Ajmer,Rajasthan,26.4499,74.6399,23.8,45,0.0,955.9,7.65,36.0,74,25.1,12.6,0,5,7,0,2026-04-04T21:06:21.977495+05:30
Gwalior,Madhya Pradesh,26.2183,78.1828,23.0,75,0.0,985.5,7.3,29.5,108,39.9,17.2,3,5,7,1,2026-04-04T21:06:21.977501+05:30
Indore,Madhya Pradesh,22.7196,75.8577,23.7,75,0.0,948.9,8.35,38.9,64,27.9,17.3,3,5,7,1,2026-04-04T21:06:21.977507+05:30
Bhopal,Madhya Pradesh,23.2599,77.4126,24.6,68,0.0,954.8,8.3,34.6,70,29.7,20.1,3,5,7,1,2026-04-04T21:06:21.977513+05:30
Jabalpur,Madhya Pradesh,23.1815,79.9864,27.1,61,0.0,963.1,6.8,30.6,76,24.2,21.2,7,5,7,1,2026-04-04T21:06:21.977519+05:30
Ujjain,Madhya Pradesh,23.1765,75.7885,24.2,69,0.0,954.7,8.25,33.8,64,41.2,22.2,3,5,7,1,2026-04-04T21:06:21.977527+05:30
Visakhapatnam,Andhra Pradesh,17.6868,83.2185,27.5,81,0.0,1004.5,8.4,36.7,60,16.7,13.5,7,5,4,1,2026-04-04T21:06:21.977533+05:30
Vijayawada,Andhra Pradesh,16.5062,80.648,28.9,62,0.0,1002.9,8.8,19.8,68,26.8,26.0,7,5,4,1,2026-04-04T21:06:21.977540+05:30
Guntur,Andhra Pradesh,16.3067,80.4365,28.2,67,0.0,1004.1,8.6,30.6,70,31.4,29.9,7,5,4,1,2026-04-04T21:06:21.977546+05:30
Nellore,Andhra Pradesh,14.4426,79.9865,27.8,88,0.0,1006.3,8.75,31.0,82,17.9,15.0,7,5,4,1,2026-04-04T21:06:21.977553+05:30
Kurnool,Andhra Pradesh,15.8281,78.0373,32.6,42,0.0,976.7,8.15,22.0,130,27.8,23.1,0,5,7,1,2026-04-04T21:06:21.977560+05:30
Kakinada,Andhra Pradesh,16.9891,82.2475,27.6,72,0.0,1008.2,8.5,34.6,36,13.6,10.3,7,0,4,1,2026-04-04T21:06:21.977567+05:30
Tirupati,Andhra Pradesh,13.6288,79.4192,29.3,67,0.0,992.2,8.8,26.3,94,26.8,25.6,7,5,7,1,2026-04-04T21:06:21.977573+05:30
Warangal,Telangana,17.9689,79.5941,25.1,80,0.0,980.0,8.0,37.1,151,72.9,64.7,7,5,7,1,2026-04-04T21:06:21.977579+05:30
Nizamabad,Telangana,18.6725,78.0941,27.9,67,0.0,965.5,8.2,29.2,127,61.0,54.5,7,5,7,1,2026-04-04T21:06:21.977586+05:30
Mysore,Karnataka,12.2958,76.6396,24.1,81,0.0,929.8,9.05,32.0,118,23.5,22.4,3,5,7,1,2026-04-04T21:06:21.977593+05:30
Mangalore,Karnataka,12.9141,74.856,28.9,79,0.0,1008.9,8.1,20.5,60,22.1,17.5,7,0,4,1,2026-04-04T21:06:21.977599+05:30
Hubli-Dharwad,Karnataka,15.3647,75.124,25.2,73,0.0,942.0,8.6,41.8,110,18.7,16.5,7,5,7,1,2026-04-04T21:06:21.977606+05:30
Belgaum,Karnataka,15.8497,74.4977,23.0,81,0.0,926.7,9.1,37.8,74,23.5,15.2,3,5,7,1,2026-04-04T21:06:25.188015+05:30
Coimbatore,Tamil Nadu,11.0168,76.9558,25.0,80,0.0,963.3,8.95,50.4,84,17.6,16.9,7,5,7,1,2026-04-04T21:06:25.188046+05:30
Madurai,Tamil Nadu,9.9252,78.1198,28.0,73,0.0,994.2,8.6,28.1,131,34.6,33.2,7,5,7,1,2026-04-04T21:06:25.188056+05:30
Trichy,Tamil Nadu,10.7905,78.7047,28.0,72,0.0,1001.0,9.15,29.9,102,29.9,28.8,7,5,4,1,2026-04-04T21:06:25.188064+05:30
Salem,Tamil Nadu,11.6643,78.146,27.9,71,0.0,978.4,8.5,41.0,168,36.4,32.5,7,5,7,1,2026-04-04T21:06:25.188071+05:30
Tirunelveli,Tamil Nadu,8.7139,77.7567,28.4,70,0.0,1004.2,8.45,24.5,62,19.2,18.3,7,5,4,1,2026-04-04T21:06:25.188079+05:30
Vellore,Tamil Nadu,12.9165,79.1325,27.3,73,0.0,985.5,8.75,26.6,131,34.7,33.2,7,5,7,1,2026-04-04T21:06:25.188085+05:30
Erode,Tamil Nadu,11.341,77.7172,28.0,77,0.0,989.8,8.8,39.6,138,24.9,23.5,7,5,7,1,2026-04-04T21:06:25.188093+05:30
Kochi,Kerala,9.9312,76.2673,28.6,81,0.0,1010.4,8.7,21.2,62,17.9,15.7,7,0,4,1,2026-04-04T21:06:25.188100+05:30
Thiruvananthapuram,Kerala,8.5241,76.9366,29.0,79,0.0,1009.4,8.55,29.5,59,14.5,10.3,7,0,4,1,2026-04-04T21:06:25.188107+05:30
Kozhikode,Kerala,11.2588,75.7804,28.8,78,0.0,1009.8,8.25,26.3,53,15.3,11.1,7,0,4,1,2026-04-04T21:06:25.188114+05:30
Thrissur,Kerala,10.5276,76.2144,27.8,85,0.0,1008.8,8.5,28.1,53,25.1,23.2,7,0,4,1,2026-04-04T21:06:25.188123+05:30
Kannur,Kerala,11.8745,75.3704,28.1,81,0.0,1009.3,8.2,24.1,60,14.6,12.0,7,0,4,1,2026-04-04T21:06:25.188130+05:30
Patna,Bihar,25.5941,85.1376,29.6,56,0.0,999.3,7.95,34.6,116,40.6,28.0,4,5,7,1,2026-04-04T21:06:25.188136+05:30
Gaya,Bihar,24.7914,85.0002,28.4,56,0.0,993.5,8.4,22.7,102,28.0,25.4,4,5,7,1,2026-04-04T21:06:25.188142+05:30
Muzaffarpur,Bihar,26.1209,85.3647,28.6,47,0.0,998.7,7.9,32.8,111,57.5,33.3,4,5,7,1,2026-04-04T21:06:25.188148+05:30
Bhagalpur,Bihar,25.2425,87.0117,28.1,62,0.0,999.3,8.25,27.0,130,44.6,26.8,7,5,7,1,2026-04-04T21:06:25.188154+05:30
Ranchi,Jharkhand,23.3441,85.3096,24.7,62,0.0,938.3,8.2,37.8,100,23.3,21.0,3,5,7,1,2026-04-04T21:06:25.188160+05:30
Jamshedpur,Jharkhand,22.8046,86.2029,31.4,44,0.0,990.3,8.5,21.2,136,32.4,29.0,0,5,7,1,2026-04-04T21:06:25.188167+05:30
Dhanbad,Jharkhand,23.7957,86.4304,31.0,33,0.0,979.3,8.55,19.8,94,29.2,25.8,0,5,7,0,2026-04-04T21:06:25.188174+05:30
Bokaro,Jharkhand,23.6693,86.1511,30.6,35,0.0,983.8,8.15,20.2,97,27.6,24.9,0,5,7,0,2026-04-04T21:06:25.188181+05:30
Bhubaneswar,Odisha,20.2961,85.8245,28.0,83,0.0,1003.4,8.95,26.3,154,27.0,24.5,7,5,4,1,2026-04-04T21:06:25.188188+05:30
Cuttack,Odisha,20.4625,85.8828,29.2,75,0.0,1005.3,9.0,31.7,154,27.0,24.5,7,5,4,1,2026-04-04T21:06:25.188194+05:30
Rourkela,Odisha,22.2604,84.8536,27.3,66,0.0,986.2,8.45,59.4,131,37.3,34.1,7,5,7,1,2026-04-04T21:06:25.188200+05:30
Raipur,Chhattisgarh,21.2514,81.6296,26.3,74,0.0,977.2,7.75,41.4,136,72.9,65.9,7,5,7,1,2026-04-04T21:06:25.188206+05:30
Bhilai,Chhattisgarh,21.1938,81.3509,26.3,77,0.0,977.5,8.15,37.8,111,53.4,48.2,7,5,7,1,2026-04-04T21:06:25.188212+05:30
Guwahati,Assam,26.1158,91.7086,26.8,84,0.0,1000.5,8.25,31.0,121,64.0,56.3,7,5,4,1,2026-04-04T21:06:25.188219+05:30
Agartala,Tripura,23.8315,91.2868,28.0,83,0.0,1004.8,8.45,25.6,120,41.9,39.0,7,5,4,1,2026-04-04T21:06:25.188226+05:30
Shillong,Meghalaya,25.5788,91.8933,15.9,86,0.0,855.9,8.4,55.1,91,40.0,35.3,3,10,7,0,2026-04-04T21:06:25.188233+05:30
Imphal,Manipur,24.817,93.9368,20.1,78,0.0,923.1,8.75,76.0,123,54.7,45.5,3,5,7,1,2026-04-04T21:06:25.188240+05:30
Aizawl,Mizoram,23.7271,92.7176,21.2,82,0.0,892.7,8.55,55.1,108,44.1,37.3,3,5,7,1,2026-04-04T21:06:25.188246+05:30
Kohima,Nagaland,25.6701,94.1077,17.0,82,0.0,854.5,8.55,74.2,99,45.1,36.0,3,10,7,0,2026-04-04T21:06:25.188253+05:30
Gangtok,Sikkim,27.3314,88.6138,16.7,94,0.0,837.0,8.45,18.4,127,55.8,47.0,3,10,7,0,2026-04-04T21:06:25.188259+05:30
Siliguri,West Bengal,26.7271,88.3953,23.4,77,0.0,992.5,8.2,28.8,161,90.3,74.5,3,5,7,1,2026-04-04T21:06:28.404406+05:30
Durgapur,West Bengal,23.5204,87.3119,30.8,54,0.0,993.8,8.35,15.8,112,62.9,60.5,0,5,7,1,2026-04-04T21:06:28.404440+05:30
Asansol,West Bengal,23.6739,86.9524,32.4,48,0.0,992.4,8.45,15.5,92,37.0,33.3,0,5,7,1,2026-04-04T21:06:28.404451+05:30
Pondicherry,Puducherry,11.9139,79.8145,28.1,90,0.0,1008.6,8.9,23.8,74,14.7,10.6,7,0,4,1,2026-04-04T21:06:28.404461+05:30
Port Blair,Andaman and Nicobar Islands,11.6234,92.7265,29.0,71,0.0,1007.4,8.75,18.7,45,16.4,9.7,7,5,4,1,2026-04-04T21:06:28.404471+05:30
Haridwar,Uttarakhand,29.9457,78.1642,20.2,83,0.0,976.0,5.55,37.1,89,35.7,19.2,3,5,3,1,2026-04-04T21:06:28.404479+05:30
Rishikesh,Uttarakhand,30.0869,78.2676,20.2,64,0.0,968.4,6.05,25.6,59,25.6,12.8,3,5,7,0,2026-04-04T21:06:28.404488+05:30
Nainital,Uttarakhand,29.3919,79.4542,17.7,48,0.0,806.6,4.95,39.2,66,29.7,17.9,0,5,3,0,2026-04-04T21:06:28.404496+05:30
Mussoorie,Uttarakhand,30.4599,78.0664,14.3,56,0.0,802.3,5.1,47.2,63,27.4,14.9,0,5,3,0,2026-04-04T21:06:28.404505+05:30
Dharamshala,Himachal Pradesh,32.219,76.3234,15.0,75,0.0,869.7,5.7,47.5,48,12.2,8.2,3,5,3,0,2026-04-04T21:06:28.404513+05:30
Dalhousie,Himachal Pradesh,32.5387,75.971,11.6,77,0.1,802.8,5.65,52.6,68,70.8,29.7,6,5,3,0,2026-04-04T21:06:28.404522+05:30
Patiala,Punjab,30.3398,76.3869,20.3,82,0.0,980.9,5.4,27.4,169,185.3,45.6,3,5,3,1,2026-04-04T21:06:28.404531+05:30
Bhatinda,Punjab,30.211,74.9455,18.7,87,0.0,986.8,6.95,32.8,88,77.5,27.8,3,10,7,1,2026-04-04T21:06:28.404539+05:30
Rohtak,Haryana,28.8955,76.6066,19.5,85,0.0,984.2,6.55,24.5,93,118.7,53.4,3,10,7,1,2026-04-04T21:06:28.404548+05:30
Panipat,Haryana,29.3909,76.9635,20.9,83,0.0,982.7,5.75,27.0,199,358.6,77.5,3,5,3,1,2026-04-04T21:06:28.404556+05:30
Mathura,Uttar Pradesh,27.4924,77.6737,21.6,83,0.0,989.0,5.25,40.7,461,299.9,58.2,3,5,3,1,2026-04-04T21:06:28.404565+05:30
Vrindavan,Uttar Pradesh,27.5823,77.7027,21.0,85,0.0,989.5,5.45,45.7,461,299.9,58.2,3,5,3,1,2026-04-04T21:06:28.404573+05:30
Ayodhya,Uttar Pradesh,26.7922,82.1998,27.2,62,0.0,996.1,7.2,35.3,114,109.2,47.4,7,5,7,1,2026-04-04T21:06:28.404581+05:30
Ratlam,Madhya Pradesh,23.3315,75.0367,24.9,57,0.0,955.5,8.1,36.7,61,46.9,22.3,0,5,7,0,2026-04-04T21:06:28.404587+05:30
Sagar,Madhya Pradesh,23.8388,78.7378,24.1,67,0.0,951.7,8.3,36.0,66,21.2,15.0,3,5,7,1,2026-04-04T21:06:28.404593+05:30
Satna,Madhya Pradesh,24.6005,80.8322,26.8,62,0.0,973.5,5.05,28.8,86,26.6,18.7,7,5,3,1,2026-04-04T21:06:28.404600+05:30
Akola,Maharashtra,20.7002,77.0082,29.5,47,0.0,975.8,7.25,25.6,112,44.1,37.1,4,5,7,1,2026-04-04T21:06:28.404607+05:30
Amravati,Maharashtra,20.9374,77.7796,27.6,62,0.0,968.1,7.7,41.4,113,42.3,36.0,7,5,7,1,2026-04-04T21:06:28.404614+05:30
Latur,Maharashtra,18.4088,76.5604,27.1,59,0.0,939.7,8.9,28.8,119,42.3,37.4,4,5,7,1,2026-04-04T21:06:28.404620+05:30
Nanded,Maharashtra,19.1383,77.3091,28.6,59,0.0,968.5,8.25,21.2,110,45.3,39.7,4,5,7,1,2026-04-04T21:06:28.404627+05:30
Gulbarga,Karnataka,17.3297,76.8343,29.5,57,0.0,959.0,8.45,32.0,158,56.1,46.9,4,5,7,1,2026-04-04T21:06:28.404633+05:30
Bidar,Karnataka,17.9104,77.5199,28.5,58,0.0,936.2,8.6,31.3,135,52.3,45.4,4,5,7,1,2026-04-04T21:06:28.404639+05:30
Hospet,Karnataka,15.2689,76.3909,30.5,51,0.0,956.7,8.1,22.7,135,51.5,43.4,0,5,7,1,2026-04-04T21:06:28.404646+05:30
Tirupur,Tamil Nadu,11.1085,77.3411,27.4,73,0.0,976.4,8.6,31.3,115,24.6,23.4,7,5,7,1,2026-04-04T21:06:28.404652+05:30
Alappuzha,Kerala,9.4981,76.3388,28.6,82,0.0,1010.5,9.15,21.6,63,17.9,15.0,7,0,4,1,2026-04-04T21:06:28.404658+05:30
Munnar,Kerala,10.0889,77.0595,20.7,97,0.0,858.2,6.2,33.5,58,19.3,18.9,3,5,7,1,2026-04-04T21:06:28.404665+05:30
Silchar,Assam,24.8333,92.7789,26.4,83,0.0,1004.1,8.45,26.6,133,83.8,73.3,7,5,4,1,2026-04-04T21:06:28.404672+05:30
Dibrugarh,Assam,27.4728,94.912,24.9,86,0.0,994.9,8.3,14.8,111,54.8,49.2,3,5,7,1,2026-04-04T21:06:28.404678+05:30
