city,state,latitude,longitude,temp,humidity,rain,pressure,uv_index,wind_gusts,aqi,pm10,pm2_5,mosquito_risk,arthritis_risk,migraine_risk,frizz_risk,updated_at
Delhi,Delhi,28.6139,77.209,30.7,32,0.0,986.3,7.15,33.8,736,502.9,66.1,0,5,7,0,2026-04-11T14:19:58.156842+05:30
Mumbai,Maharashtra,19.076,72.8777,28.5,85,0.0,1008.9,7.95,24.1,140,71.9,48.0,7,0,4,1,2026-04-11T14:19:58.156889+05:30
Bangalore,Karnataka,12.9716,77.5946,34.1,33,0.0,913.0,9.65,27.4,85,38.3,26.7,0,5,7,0,2026-04-11T14:19:58.156925+05:30
Hyderabad,Telangana,17.385,78.4867,38.6,24,0.0,954.0,9.2,19.1,103,36.1,24.9,0,5,10,0,2026-04-11T14:19:58.156936+05:30
Chennai,Tamil Nadu,13.0827,80.2707,35.0,55,0.0,1007.7,9.15,36.4,58,25.1,17.1,0,5,4,1,2026-04-11T14:19:58.156945+05:30
Kolkata,West Bengal,22.5726,88.3639,32.5,48,0.0,1006.3,8.75,20.2,138,56.2,35.7,0,5,4,1,2026-04-11T14:19:58.156954+05:30
Pune,Maharashtra,18.5204,73.8567,39.4,21,0.0,949.3,8.55,39.6,98,36.4,20.5,0,5,10,0,2026-04-11T14:19:58.156966+05:30
Ahmedabad,Gujarat,23.0225,72.5714,39.5,15,0.0,1003.7,8.05,18.4,74,27.3,14.6,0,5,7,0,2026-04-11T14:19:58.156974+05:30
Jaipur,Rajasthan,26.9124,75.7873,35.0,18,0.0,962.5,7.85,37.4,95,167.2,21.5,0,5,7,0,2026-04-11T14:19:58.156982+05:30
Lucknow,Uttar Pradesh,26.8467,80.9462,35.0,22,0.0,994.7,7.65,46.1,257,210.5,42.5,0,5,7,0,2026-04-11T14:19:58.156990+05:30
Kanpur,Uttar Pradesh,26.4499,80.3319,33.9,27,0.0,993.9,7.65,40.7,614,614.7,76.4,0,5,7,0,2026-04-11T14:19:58.156998+05:30
Chandigarh,Chandigarh,30.7333,76.7794,30.6,30,0.0,971.4,7.15,33.8,78,40.5,17.1,0,5,7,0,2026-04-11T14:19:58.157005+05:30
Srinagar,Jammu and Kashmir,34.0837,74.7973,12.7,70,0.1,842.9,7.45,18.0,85,40.0,11.6,6,5,7,0,2026-04-11T14:19:58.157013+05:30
Jammu,Jammu and Kashmir,32.7266,74.857,27.5,37,0.0,976.2,6.65,17.6,64,92.7,19.0,4,5,7,0,2026-04-11T14:19:58.157020+05:30
Amritsar,Punjab,31.634,74.8723,28.0,41,0.0,984.2,7.7,20.9,58,82.9,22.9,4,5,7,0,2026-04-11T14:19:58.157030+05:30
Ludhiana,Punjab,30.901,75.8573,30.4,31,0.0,981.8,7.35,33.8,58,51.5,17.5,0,5,7,0,2026-04-11T14:19:58.157037+05:30
Jalandhar,Punjab,31.326,75.5762,29.3,34,0.0,983.2,7.5,27.0,60,72.4,19.2,4,5,7,0,2026-04-11T14:19:58.157045+05:30
Dehradun,Uttarakhand,30.6284,78.0322,20.2,48,0.0,832.4,7.5,48.6,76,46.9,11.8,0,5,7,0,2026-04-11T14:19:58.157052+05:30
Shimla,Himachal Pradesh,31.1048,77.1734,17.0,50,0.0,787.3,7.5,46.1,82,40.0,11.9,0,5,7,0,2026-04-11T14:19:58.157059+05:30
Manali,Himachal Pradesh,32.2396,77.1887,17.0,52,0.0,821.2,9.1,33.1,119,33.2,8.6,0,5,7,0,2026-04-11T14:19:58.157066+05:30
Gurgaon,Haryana,28.4595,77.0266,29.9,36,0.0,984.8,7.3,26.3,1895,1590.7,153.7,4,5,7,0,2026-04-11T14:19:58.157073+05:30
Noida,Uttar Pradesh,28.5355,77.391,31.0,33,0.0,987.8,7.2,33.5,1895,1590.7,153.7,0,5,7,0,2026-04-11T14:19:58.157080+05:30
Ghaziabad,Uttar Pradesh,28.6692,77.4538,30.5,34,0.0,985.8,7.15,32.4,565,419.1,59.6,0,5,7,0,2026-04-11T14:19:58.157086+05:30
Faridabad,Haryana,28.4089,77.3178,30.6,33,0.0,987.1,7.25,33.1,1895,1590.7,153.7,0,5,7,0,2026-04-11T14:19:58.157092+05:30
Meerut,Uttar Pradesh,28.9845,77.7064,31.0,33,0.0,984.2,7.05,33.5,565,419.1,59.6,0,5,7,0,2026-04-11T14:19:58.157099+05:30
Agra,Uttar Pradesh,27.1767,78.0081,34.4,26,0.0,990.8,7.55,29.9,1219,737.6,82.9,0,5,7,0,2026-04-11T14:19:58.157105+05:30
Varanasi,Uttar Pradesh,25.3176,82.9739,36.3,19,0.0,998.3,8.3,41.4,100,112.5,32.5,0,5,10,0,2026-04-11T14:19:58.157114+05:30
Prayagraj,Uttar Pradesh,25.4358,81.8463,35.8,19,0.0,997.8,8.15,43.9,126,106.2,33.1,0,5,10,0,2026-04-11T14:19:58.157121+05:30
Gorakhpur,Uttar Pradesh,26.7606,83.3732,34.7,22,0.0,997.2,8.1,34.9,108,106.4,38.3,0,5,7,0,2026-04-11T14:19:58.157128+05:30
Bareilly,Uttar Pradesh,28.367,79.4304,32.7,26,0.0,988.6,7.45,50.0,90,42.8,15.4,0,5,7,0,2026-04-11T14:19:58.157134+05:30
Aligarh,Uttar Pradesh,27.8974,78.088,33.7,26,0.0,988.5,7.35,38.9,1220,1005.8,109.0,0,5,7,0,2026-04-11T14:19:58.157141+05:30
Moradabad,Uttar Pradesh,28.8386,78.7733,31.7,28,0.0,985.8,7.25,42.5,103,70.3,21.8,0,5,7,0,2026-04-11T14:19:58.157146+05:30
Saharanpur,Uttar Pradesh,29.9637,77.546,31.9,29,0.0,978.0,6.85,40.7,69,65.9,19.3,0,5,7,0,2026-04-11T14:19:58.157152+05:30
Jhansi,Uttar Pradesh,25.4484,78.5685,36.6,19,0.0,980.7,8.1,28.8,59,104.3,21.2,0,5,10,0,2026-04-11T14:20:18.957866+05:30
Surat,Gujarat,21.1702,72.8311,36.1,29,0.0,1008.0,7.8,28.4,116,79.9,72.6,0,0,7,0,2026-04-11T14:20:18.957922+05:30
Vadodara,Gujarat,22.3072,73.1812,39.3,18,0.0,1005.6,8.05,16.6,61,19.0,10.6,0,5,7,0,2026-04-11T14:20:18.957934+05:30
Rajkot,Gujarat,22.3039,70.8022,38.0,24,0.0,996.3,7.75,31.7,71,34.8,16.8,0,5,10,0,2026-04-11T14:20:18.957942+05:30
Thane,Maharashtra,19.2183,72.9781,32.9,55,0.0,1008.7,7.95,37.8,140,71.9,48.0,0,0,4,1,2026-04-11T14:20:18.957949+05:30
Nagpur,Maharashtra,21.1458,79.0882,35.8,23,0.0,975.0,8.75,22.7,98,33.8,13.5,0,5,10,0,2026-04-11T14:20:18.957956+05:30
Nashik,Maharashtra,19.9975,73.7898,36.9,22,0.0,947.2,8.25,37.8,110,41.2,25.8,0,5,10,0,2026-04-11T14:20:18.957963+05:30
Aurangabad,Maharashtra,19.8762,75.3433,38.2,18,0.0,945.5,8.9,29.5,93,27.3,15.5,0,5,10,0,2026-04-11T14:20:18.957970+05:30
Solapur,Maharashtra,17.6599,75.9064,40.2,20,0.0,957.5,9.0,18.7,83,30.7,18.2,0,5,10,0,2026-04-11T14:20:18.957977+05:30
Kolhapur,Maharashtra,16.705,74.2433,37.7,26,0.0,948.7,8.5,43.9,104,36.0,22.9,0,5,10,0,2026-04-11T14:20:18.957984+05:30
Goa,Goa,15.2993,74.124,31.8,62,0.0,998.9,9.05,33.8,110,85.2,34.3,3,5,7,1,2026-04-11T14:20:18.957991+05:30
Jodhpur,Rajasthan,26.2389,73.0243,36.1,21,0.0,985.3,8.05,28.4,62,118.7,22.2,0,5,10,0,2026-04-11T14:20:18.957998+05:30
Udaipur,Rajasthan,24.5854,73.7125,35.1,21,0.0,949.7,8.6,33.8,97,16.5,5.8,0,5,10,0,2026-04-11T14:20:18.958004+05:30
Kota,Rajasthan,25.2138,75.8648,36.1,22,0.0,981.4,8.1,17.6,71,20.9,7.7,0,5,10,0,2026-04-11T14:20:18.958010+05:30
Bikaner,Rajasthan,28.0229,73.3119,34.3,22,0.0,984.3,7.4,32.8,59,57.6,15.9,0,5,7,0,2026-04-11T14:20:18.958017+05:30
Ajmer,Rajasthan,26.4499,74.6399,34.6,19,0.0,957.7,8.0,37.8,63,13.3,5.1,0,5,7,0,2026-04-11T14:20:18.958023+05:30
Gwalior,Madhya Pradesh,26.2183,78.1828,34.7,27,0.0,986.3,7.8,28.1,102,83.4,20.5,0,5,7,0,2026-04-11T14:20:18.958029+05:30
Indore,Madhya Pradesh,22.7196,75.8577,35.4,16,0.0,951.2,8.5,21.6,86,33.4,12.5,0,5,10,0,2026-04-11T14:20:18.958035+05:30
Bhopal,Madhya Pradesh,23.2599,77.4126,36.9,15,0.0,956.8,8.45,22.3,76,45.8,10.8,0,5,10,0,2026-04-11T14:20:18.958041+05:30
Jabalpur,Madhya Pradesh,23.1815,79.9864,34.7,21,0.0,964.4,8.6,20.5,94,46.4,16.8,0,5,7,0,2026-04-11T14:20:18.958048+05:30
Ujjain,Madhya Pradesh,23.1765,75.7885,35.8,17,0.0,956.9,8.4,20.5,69,26.4,11.6,0,5,10,0,2026-04-11T14:20:18.958055+05:30
Visakhapatnam,Andhra Pradesh,17.6868,83.2185,34.1,56,0.0,1004.1,9.15,40.3,82,37.8,30.2,0,5,4,1,2026-04-11T14:20:18.958061+05:30
Vijayawada,Andhra Pradesh,16.5062,80.648,37.6,37,0.0,1002.4,9.2,26.3,75,36.4,27.0,0,5,7,1,2026-04-11T14:20:18.958067+05:30
Guntur,Andhra Pradesh,16.3067,80.4365,38.1,36,0.0,1003.6,9.25,33.8,74,35.7,26.1,0,5,7,1,2026-04-11T14:20:18.958073+05:30
Nellore,Andhra Pradesh,14.4426,79.9865,39.2,33,0.0,1005.2,9.25,41.8,64,35.6,24.9,0,5,7,1,2026-04-11T14:20:18.958081+05:30
Kurnool,Andhra Pradesh,15.8281,78.0373,39.1,29,0.0,976.5,9.2,26.6,82,37.7,24.3,0,5,10,1,2026-04-11T14:20:18.958088+05:30
Kakinada,Andhra Pradesh,16.9891,82.2475,38.0,39,0.0,1007.1,9.2,35.6,63,25.3,17.3,0,5,7,1,2026-04-11T14:20:18.958096+05:30
Tirupati,Andhra Pradesh,13.6288,79.4192,37.6,30,0.0,991.3,9.4,29.9,76,38.0,25.2,0,5,10,1,2026-04-11T14:20:18.958103+05:30
Warangal,Telangana,17.9689,79.5941,38.1,31,0.0,979.1,9.1,25.2,103,33.2,23.4,0,5,10,1,2026-04-11T14:20:18.958109+05:30
Nizamabad,Telangana,18.6725,78.0941,37.9,25,0.0,966.0,9.0,24.8,93,28.9,16.9,0,5,10,0,2026-04-11T14:20:18.958115+05:30
Mysore,Karnataka,12.2958,76.6396,34.0,39,0.0,929.1,9.4,34.2,82,33.6,24.7,0,5,7,1,2026-04-11T14:20:18.958121+05:30
Mangalore,Karnataka,12.9141,74.856,29.5,80,0.0,1007.3,8.75,24.5,84,78.7,29.9,7,5,4,1,2026-04-11T14:20:18.958128+05:30
Hubli-Dharwad,Karnataka,15.3647,75.124,37.4,27,0.0,941.4,9.25,41.4,96,47.5,26.0,0,5,10,0,2026-04-11T14:20:18.958135+05:30
Belgaum,Karnataka,15.8497,74.4977,34.4,37,0.0,927.2,9.3,41.0,96,45.3,25.3,0,5,7,1,2026-04-11T14:20:22.253202+05:30
Coimbatore,Tamil Nadu,11.0168,76.9558,36.1,36,0.0,962.0,7.35,32.0,74,35.0,23.7,0,5,10,1,2026-04-11T14:20:22.253233+05:30
Madurai,Tamil Nadu,9.9252,78.1198,37.6,34,0.0,992.3,8.45,40.3,72,29.0,19.3,0,5,10,1,2026-04-11T14:20:22.253244+05:30
Trichy,Tamil Nadu,10.7905,78.7047,37.1,38,0.0,999.1,9.4,26.6,69,26.3,17.7,0,5,10,1,2026-04-11T14:20:22.253252+05:30
Salem,Tamil Nadu,11.6643,78.146,37.1,34,0.0,977.1,9.05,20.2,71,36.2,24.2,0,5,10,1,2026-04-11T14:20:22.253260+05:30
Tirunelveli,Tamil Nadu,8.7139,77.7567,38.3,33,0.0,1002.1,9.35,41.4,72,25.3,17.6,0,5,7,1,2026-04-11T14:20:22.253267+05:30
Vellore,Tamil Nadu,12.9165,79.1325,37.5,30,0.0,984.6,9.45,34.9,84,35.9,24.7,0,5,10,1,2026-04-11T14:20:22.253274+05:30
Erode,Tamil Nadu,11.341,77.7172,38.6,29,0.0,988.3,8.75,32.0,63,34.0,20.7,0,5,10,1,2026-04-11T14:20:22.253281+05:30
Kochi,Kerala,9.9312,76.2673,29.2,80,0.0,1008.4,8.85,28.4,66,23.3,15.8,7,0,4,1,2026-04-11T14:20:22.253289+05:30
Thiruvananthapuram,Kerala,8.5241,76.9366,29.0,81,0.0,1007.4,7.75,33.8,61,23.1,14.6,7,5,4,1,2026-04-11T14:20:22.253296+05:30
Kozhikode,Kerala,11.2588,75.7804,30.3,77,0.0,1007.9,8.7,27.4,62,26.8,13.0,3,5,4,1,2026-04-11T14:20:22.253302+05:30
Thrissur,Kerala,10.5276,76.2144,33.3,64,0.0,1006.8,9.0,31.7,66,26.5,16.5,3,5,4,1,2026-04-11T14:20:22.253310+05:30
Kannur,Kerala,11.8745,75.3704,31.0,70,0.0,1007.6,8.65,29.2,62,33.4,14.3,3,5,4,1,2026-04-11T14:20:22.253316+05:30
Patna,Bihar,25.5941,85.1376,34.4,24,0.0,1000.4,8.45,31.3,97,247.7,50.6,0,5,4,0,2026-04-11T14:20:22.253323+05:30
Gaya,Bihar,24.7914,85.0002,34.9,20,0.0,994.3,8.55,35.3,85,183.0,36.2,0,5,7,0,2026-04-11T14:20:22.253329+05:30
Muzaffarpur,Bihar,26.1209,85.3647,33.8,28,0.0,1000.3,8.4,20.2,93,263.6,52.9,0,5,4,0,2026-04-11T14:20:22.253335+05:30
Bhagalpur,Bihar,25.2425,87.0117,31.7,32,0.0,1001.8,8.45,23.0,103,291.5,49.5,0,5,4,0,2026-04-11T14:20:22.253342+05:30
Ranchi,Jharkhand,23.3441,85.3096,31.7,18,0.0,939.6,9.05,35.6,101,148.1,26.7,0,5,7,0,2026-04-11T14:20:22.253348+05:30
Jamshedpur,Jharkhand,22.8046,86.2029,33.2,30,0.0,991.8,8.85,17.6,116,174.2,32.4,0,5,7,0,2026-04-11T14:20:22.253354+05:30
Dhanbad,Jharkhand,23.7957,86.4304,34.1,21,0.0,980.7,8.8,26.3,129,256.1,47.7,0,5,7,0,2026-04-11T14:20:22.253360+05:30
Bokaro,Jharkhand,23.6693,86.1511,34.0,21,0.0,984.5,8.8,29.5,126,208.2,40.3,0,5,7,0,2026-04-11T14:20:22.253367+05:30
Bhubaneswar,Odisha,20.2961,85.8245,35.6,44,0.0,1002.7,9.0,23.0,121,64.5,43.1,0,5,7,1,2026-04-11T14:20:22.253373+05:30
Cuttack,Odisha,20.4625,85.8828,36.2,40,0.0,1004.6,9.05,18.4,121,64.5,43.1,0,5,7,1,2026-04-11T14:20:22.253379+05:30
Rourkela,Odisha,22.2604,84.8536,34.3,26,0.0,986.5,8.75,18.7,89,152.3,27.1,0,5,7,0,2026-04-11T14:20:22.253385+05:30
Raipur,Chhattisgarh,21.2514,81.6296,37.6,15,0.0,976.0,8.85,21.6,107,56.5,19.2,0,5,10,0,2026-04-11T14:20:22.253391+05:30
Bhilai,Chhattisgarh,21.1938,81.3509,37.5,17,0.0,976.4,8.85,19.8,103,53.0,20.4,0,5,10,0,2026-04-11T14:20:22.253397+05:30
Guwahati,Assam,26.1158,91.7086,28.6,56,0.0,1001.4,8.35,20.2,108,32.6,22.2,4,5,4,1,2026-04-11T14:20:22.253403+05:30
Agartala,Tripura,23.8315,91.2868,31.7,44,0.0,1005.9,8.6,23.0,146,62.2,40.6,0,5,4,1,2026-04-11T14:20:22.253410+05:30
Shillong,Meghalaya,25.5788,91.8933,17.9,51,0.0,856.3,8.75,52.2,120,38.6,25.3,0,5,7,0,2026-04-11T14:20:22.253416+05:30
Imphal,Manipur,24.817,93.9368,21.5,50,0.0,923.2,8.95,51.1,109,31.3,19.9,0,5,7,0,2026-04-11T14:20:22.253423+05:30
Aizawl,Mizoram,23.7271,92.7176,24.8,40,0.0,894.0,8.8,42.1,90,44.5,23.6,0,5,7,0,2026-04-11T14:20:22.253429+05:30
Kohima,Nagaland,25.6701,94.1077,17.8,53,0.0,854.9,7.6,66.2,111,23.0,15.8,0,5,7,0,2026-04-11T14:20:22.253435+05:30
Gangtok,Sikkim,27.3314,88.6138,16.8,66,0.0,837.1,8.55,18.4,106,38.9,31.4,3,5,7,0,2026-04-11T14:20:22.253441+05:30
Siliguri,West Bengal,26.7271,88.3953,24.0,58,0.0,994.4,8.2,18.0,120,30.9,24.3,0,5,7,0,2026-04-11T14:20:25.548895+05:30
Durgapur,West Bengal,23.5204,87.3119,32.4,31,0.0,995.8,8.75,21.2,114,257.0,48.2,0,5,7,0,2026-04-11T14:20:25.548952+05:30
Asansol,West Bengal,23.6739,86.9524,32.7,30,0.0,994.4,8.75,22.7,97,273.8,50.9,0,5,7,0,2026-04-11T14:20:25.548965+05:30
Pondicherry,Puducherry,11.9139,79.8145,37.0,45,0.0,1007.8,9.35,36.7,55,20.4,14.6,0,5,7,1,2026-04-11T14:20:25.548975+05:30
Port Blair,Andaman and Nicobar Islands,11.6234,92.7265,29.0,71,0.0,1007.4,9.25,25.2,27,9.0,5.9,7,5,4,1,2026-04-11T14:20:25.548984+05:30
Haridwar,Uttarakhand,29.9457,78.1642,32.1,28,0.0,976.1,6.95,49.0,61,37.5,15.7,0,5,7,0,2026-04-11T14:20:25.548993+05:30
Rishikesh,Uttarakhand,30.0869,78.2676,31.3,31,0.0,968.6,7.0,48.6,68,41.6,14.7,0,5,7,0,2026-04-11T14:20:25.549002+05:30
Nainital,Uttarakhand,29.3919,79.4542,22.6,45,0.0,809.0,7.7,69.8,90,45.4,14.7,0,5,7,0,2026-04-11T14:20:25.549011+05:30
Mussoorie,Uttarakhand,30.4599,78.0664,21.1,44,0.0,805.5,7.45,65.2,54,37.5,13.6,0,5,7,0,2026-04-11T14:20:25.549020+05:30
Dharamshala,Himachal Pradesh,32.219,76.3234,18.8,79,0.0,871.1,7.5,30.2,124,53.4,11.8,3,5,7,0,2026-04-11T14:20:25.549029+05:30
Dalhousie,Himachal Pradesh,32.5387,75.971,17.0,66,0.0,805.4,7.0,20.9,69,79.2,18.4,3,5,7,0,2026-04-11T14:20:25.549038+05:30
Patiala,Punjab,30.3398,76.3869,31.4,29,0.0,980.9,6.95,34.6,683,568.1,58.6,0,5,7,0,2026-04-11T14:20:25.549046+05:30
Bhatinda,Punjab,30.211,74.9455,32.2,29,0.0,986.3,7.7,28.4,71,77.5,22.4,0,5,7,0,2026-04-11T14:20:25.549053+05:30
Rohtak,Haryana,28.8955,76.6066,31.1,32,0.0,985.1,7.1,26.6,1048,700.4,75.7,0,5,7,0,2026-04-11T14:20:25.549060+05:30
Panipat,Haryana,29.3909,76.9635,32.0,29,0.0,983.2,6.95,29.9,1916,1281.5,122.0,0,5,7,0,2026-04-11T14:20:25.549067+05:30
Mathura,Uttar Pradesh,27.4924,77.6737,33.9,27,0.0,990.0,7.5,27.7,1286,793.5,88.2,0,5,7,0,2026-04-11T14:20:25.549073+05:30
Vrindavan,Uttar Pradesh,27.5823,77.7027,33.7,27,0.0,990.4,7.45,32.0,1286,793.5,88.2,0,5,7,0,2026-04-11T14:20:25.549079+05:30
Ayodhya,Uttar Pradesh,26.7922,82.1998,36.1,18,0.0,995.8,7.85,46.4,135,70.5,26.4,0,5,10,0,2026-04-11T14:20:25.549086+05:30
Ratlam,Madhya Pradesh,23.3315,75.0367,34.8,22,0.0,957.8,8.35,17.3,76,22.1,8.3,0,5,7,0,2026-04-11T14:20:25.549093+05:30
Sagar,Madhya Pradesh,23.8388,78.7378,36.6,14,0.0,953.4,8.5,28.1,79,51.5,13.3,0,5,10,0,2026-04-11T14:20:25.549099+05:30
Satna,Madhya Pradesh,24.6005,80.8322,35.7,17,0.0,974.0,8.5,33.5,85,110.6,21.8,0,5,10,0,2026-04-11T14:20:25.549106+05:30
Akola,Maharashtra,20.7002,77.0082,39.3,18,0.0,976.2,8.75,25.6,75,23.7,14.3,0,5,10,0,2026-04-11T14:20:25.549113+05:30
Amravati,Maharashtra,20.9374,77.7796,38.3,18,0.0,968.9,8.75,23.4,73,21.0,11.5,0,5,10,0,2026-04-11T14:20:25.549120+05:30
Latur,Maharashtra,18.4088,76.5604,36.5,26,0.0,941.3,9.0,21.2,90,28.6,18.3,0,5,10,0,2026-04-11T14:20:25.549126+05:30
Nanded,Maharashtra,19.1383,77.3091,38.3,27,0.0,969.4,8.9,17.3,85,27.3,14.8,0,5,10,0,2026-04-11T14:20:25.549132+05:30
Gulbarga,Karnataka,17.3297,76.8343,39.8,21,0.0,959.0,9.05,19.4,80,38.3,25.7,0,5,10,0,2026-04-11T14:20:25.549138+05:30
Bidar,Karnataka,17.9104,77.5199,37.9,23,0.0,936.9,9.05,23.0,106,25.5,15.9,0,5,10,0,2026-04-11T14:20:25.549144+05:30
Hospet,Karnataka,15.2689,76.3909,36.8,31,0.0,956.2,9.3,26.3,86,42.7,28.2,0,5,10,1,2026-04-11T14:20:25.549150+05:30
Tirupur,Tamil Nadu,11.1085,77.3411,37.8,32,0.0,974.9,9.1,26.6,75,39.2,24.2,0,5,10,1,2026-04-11T14:20:25.549157+05:30
Alappuzha,Kerala,9.4981,76.3388,29.1,81,0.0,1008.5,8.65,29.2,66,22.8,14.8,7,0,4,1,2026-04-11T14:20:25.549163+05:30
Munnar,Kerala,10.0889,77.0595,29.2,56,0.0,859.3,9.6,36.7,81,30.6,18.5,4,5,7,1,2026-04-11T14:20:25.549170+05:30
Silchar,Assam,24.8333,92.7789,31.0,44,0.0,1004.8,8.6,22.3,141,54.6,34.5,0,5,4,1,2026-04-11T14:20:25.549177+05:30
Dibrugarh,Assam,27.4728,94.912,25.5,61,0.0,996.1,8.4,24.5,89,26.3,19.4,7,5,7,1,2026-04-11T14:20:25.549183+05:30
