city,state,latitude,longitude,temp,humidity,rain,pressure,uv_index,wind_gusts,aqi,pm10,pm2_5,mosquito_risk,arthritis_risk,migraine_risk,frizz_risk,updated_at
Delhi,Delhi,28.6139,77.209,21.8,70,0.0,980.6,6.05,25.9,133,128.5,63.6,3,5,7,1,2026-03-29T05:05:06.088781+05:30
Mumbai,Maharashtra,19.076,72.8777,27.7,79,0.0,1007.8,8.0,24.8,66,22.2,13.0,7,5,4,1,2026-03-29T05:05:06.088823+05:30
Bangalore,Karnataka,12.9716,77.5946,21.4,88,0.0,910.9,9.5,28.1,123,53.3,48.5,3,5,7,1,2026-03-29T05:05:06.088838+05:30
Hyderabad,Telangana,17.385,78.4867,25.6,56,0.0,951.1,9.05,28.4,116,40.9,35.3,4,5,7,1,2026-03-29T05:05:06.088848+05:30
Chennai,Tamil Nadu,13.0827,80.2707,26.2,88,0.0,1006.8,9.3,35.6,63,19.5,14.3,7,5,4,1,2026-03-29T05:05:06.088857+05:30
Kolkata,West Bengal,22.5726,88.3639,22.8,93,0.0,1006.5,8.45,26.3,139,41.4,35.5,3,5,4,1,2026-03-29T05:05:06.088865+05:30
Pune,Maharashtra,18.5204,73.8567,20.3,58,0.0,946.7,8.55,34.9,67,56.2,26.0,0,5,7,0,2026-03-29T05:05:06.088877+05:30
Ahmedabad,Gujarat,23.0225,72.5714,24.9,83,0.0,1000.9,7.85,25.6,32,20.2,6.8,3,5,4,1,2026-03-29T05:05:06.088884+05:30
Jaipur,Rajasthan,26.9124,75.7873,24.7,54,0.0,956.8,7.15,34.9,75,95.5,24.0,0,5,7,0,2026-03-29T05:05:06.088892+05:30
Lucknow,Uttar Pradesh,26.8467,80.9462,22.3,70,0.0,991.7,7.25,20.2,119,195.6,56.1,3,5,7,1,2026-03-29T05:05:06.088900+05:30
Kanpur,Uttar Pradesh,26.4499,80.3319,21.5,76,0.0,989.6,7.1,16.9,154,162.5,45.6,3,5,7,1,2026-03-29T05:05:06.088907+05:30
Chandigarh,Chandigarh,30.7333,76.7794,21.3,77,0.0,965.8,6.6,23.8,81,32.5,31.7,3,5,7,1,2026-03-29T05:05:06.088914+05:30
Srinagar,Jammu and Kashmir,34.0837,74.7973,10.9,92,0.2,838.4,7.4,22.3,92,46.4,34.7,6,10,7,0,2026-03-29T05:05:06.088922+05:30
Jammu,Jammu and Kashmir,32.7266,74.857,20.0,94,0.5,971.5,7.35,17.6,80,36.9,33.4,6,5,7,1,2026-03-29T05:05:06.088929+05:30
Amritsar,Punjab,31.634,74.8723,20.2,92,0.3,979.7,7.3,35.3,100,41.6,29.9,6,5,7,1,2026-03-29T05:05:06.088936+05:30
Ludhiana,Punjab,30.901,75.8573,21.9,75,0.0,976.9,6.95,30.6,102,53.7,42.1,3,5,7,1,2026-03-29T05:05:06.088942+05:30
Jalandhar,Punjab,31.326,75.5762,21.3,79,0.0,978.0,7.15,32.8,105,45.6,38.8,3,5,7,1,2026-03-29T05:05:06.088950+05:30
Dehradun,Uttarakhand,30.6284,78.0322,13.9,83,0.0,827.2,4.8,19.1,64,27.1,19.0,3,10,3,0,2026-03-29T05:05:06.088957+05:30
Shimla,Himachal Pradesh,31.1048,77.1734,12.9,75,0.0,781.2,6.8,26.3,71,39.0,31.1,3,5,7,0,2026-03-29T05:05:06.088963+05:30
Manali,Himachal Pradesh,32.2396,77.1887,14.1,82,0.1,817.0,8.45,25.6,44,38.2,18.6,6,10,7,0,2026-03-29T05:05:06.088971+05:30
Gurgaon,Haryana,28.4595,77.0266,21.6,69,0.0,978.9,6.1,25.6,231,289.6,76.4,3,5,7,0,2026-03-29T05:05:06.088977+05:30
Noida,Uttar Pradesh,28.5355,77.391,21.4,72,0.0,982.1,6.05,24.1,231,289.6,76.4,3,5,7,1,2026-03-29T05:05:06.088983+05:30
Ghaziabad,Uttar Pradesh,28.6692,77.4538,20.1,79,0.0,980.2,6.4,22.0,139,113.9,74.3,3,5,7,1,2026-03-29T05:05:06.088991+05:30
Faridabad,Haryana,28.4089,77.3178,21.3,67,0.0,981.4,6.15,21.6,231,289.6,76.4,3,5,7,0,2026-03-29T05:05:06.088998+05:30
Meerut,Uttar Pradesh,28.9845,77.7064,19.5,83,0.0,978.9,5.75,23.8,139,113.9,74.3,3,10,3,1,2026-03-29T05:05:06.089004+05:30
Agra,Uttar Pradesh,27.1767,78.0081,20.7,75,0.0,985.5,6.95,30.6,350,282.2,53.7,3,5,7,1,2026-03-29T05:05:06.089010+05:30
Varanasi,Uttar Pradesh,25.3176,82.9739,22.0,69,0.0,995.8,7.95,23.8,88,53.4,29.4,3,5,7,1,2026-03-29T05:05:06.089021+05:30
Prayagraj,Uttar Pradesh,25.4358,81.8463,23.1,65,0.0,994.2,7.8,20.9,98,77.1,49.8,3,5,7,1,2026-03-29T05:05:06.089027+05:30
Gorakhpur,Uttar Pradesh,26.7606,83.3732,19.9,93,0.0,996.3,7.3,25.6,105,73.3,58.2,3,10,7,1,2026-03-29T05:05:06.089034+05:30
Bareilly,Uttar Pradesh,28.367,79.4304,19.0,89,0.0,984.6,7.0,18.4,93,41.8,38.3,3,10,7,1,2026-03-29T05:05:06.089041+05:30
Aligarh,Uttar Pradesh,27.8974,78.088,19.6,79,0.0,983.1,6.8,20.2,181,214.7,58.3,3,5,7,0,2026-03-29T05:05:06.089048+05:30
Moradabad,Uttar Pradesh,28.8386,78.7733,20.0,84,0.0,981.4,6.55,22.7,127,69.2,62.9,3,5,7,1,2026-03-29T05:05:06.089054+05:30
Saharanpur,Uttar Pradesh,29.9637,77.546,20.0,84,0.0,973.0,5.7,22.3,110,47.0,42.8,3,5,3,1,2026-03-29T05:05:06.089060+05:30
Jhansi,Uttar Pradesh,25.4484,78.5685,24.5,57,0.0,975.3,7.75,25.6,79,119.2,29.1,0,5,7,0,2026-03-29T05:05:09.417610+05:30
Surat,Gujarat,21.1702,72.8311,26.9,87,0.0,1005.7,7.75,25.9,76,21.1,19.0,7,5,4,1,2026-03-29T05:05:09.417646+05:30
Vadodara,Gujarat,22.3072,73.1812,26.1,68,0.0,1003.3,7.95,25.2,53,26.8,10.9,7,5,4,1,2026-03-29T05:05:09.417659+05:30
Rajkot,Gujarat,22.3039,70.8022,24.8,84,0.0,993.3,7.75,33.1,35,15.8,6.8,3,5,7,1,2026-03-29T05:05:09.417669+05:30
Thane,Maharashtra,19.2183,72.9781,26.5,84,0.0,1007.3,8.0,37.4,66,22.2,13.0,7,5,4,1,2026-03-29T05:05:09.417679+05:30
Nagpur,Maharashtra,21.1458,79.0882,24.0,51,0.0,970.7,8.55,27.0,58,32.8,29.7,0,5,7,0,2026-03-29T05:05:09.417688+05:30
Nashik,Maharashtra,19.9975,73.7898,20.5,84,0.0,944.3,8.25,31.0,54,47.0,15.2,3,5,7,1,2026-03-29T05:05:09.417697+05:30
Aurangabad,Maharashtra,19.8762,75.3433,22.6,51,0.0,942.5,8.75,29.5,43,29.2,12.5,0,5,7,0,2026-03-29T05:05:09.417706+05:30
Solapur,Maharashtra,17.6599,75.9064,23.8,47,0.0,955.9,8.9,23.0,66,15.9,13.4,0,5,7,0,2026-03-29T05:05:09.417714+05:30
Kolhapur,Maharashtra,16.705,74.2433,18.3,79,0.0,946.1,9.0,33.8,92,26.7,23.9,3,5,7,0,2026-03-29T05:05:09.417723+05:30
Goa,Goa,15.2993,74.124,26.5,81,0.0,996.8,8.95,35.3,95,43.9,40.6,7,5,7,1,2026-03-29T05:05:09.417730+05:30
Jodhpur,Rajasthan,26.2389,73.0243,25.7,60,0.0,979.5,7.8,41.4,96,177.4,26.9,4,5,7,1,2026-03-29T05:05:09.417737+05:30
Udaipur,Rajasthan,24.5854,73.7125,22.9,70,0.0,944.1,8.4,32.8,27,16.8,6.7,3,5,7,1,2026-03-29T05:05:09.417744+05:30
Kota,Rajasthan,25.2138,75.8648,25.5,53,0.0,975.9,7.45,34.2,56,7.7,5.3,4,5,7,0,2026-03-29T05:05:09.417751+05:30
Bikaner,Rajasthan,28.0229,73.3119,27.6,49,0.0,977.0,7.55,32.4,49,220.7,53.8,4,5,7,0,2026-03-29T05:05:09.417758+05:30
Ajmer,Rajasthan,26.4499,74.6399,24.0,65,0.0,951.2,7.75,41.8,33,5.9,3.1,3,5,7,1,2026-03-29T05:05:09.417785+05:30
Gwalior,Madhya Pradesh,26.2183,78.1828,23.2,64,0.0,980.6,7.45,27.7,116,162.1,34.5,3,5,7,0,2026-03-29T05:05:09.417793+05:30
Indore,Madhya Pradesh,22.7196,75.8577,22.7,66,0.0,945.9,8.25,32.4,38,16.9,12.0,3,5,7,0,2026-03-29T05:05:09.417800+05:30
Bhopal,Madhya Pradesh,23.2599,77.4126,22.6,63,0.0,951.3,8.2,35.3,33,8.9,6.4,3,5,7,0,2026-03-29T05:05:09.417807+05:30
Jabalpur,Madhya Pradesh,23.1815,79.9864,23.5,65,0.0,958.8,8.3,33.5,58,30.7,26.3,3,5,7,1,2026-03-29T05:05:09.417814+05:30
Ujjain,Madhya Pradesh,23.1765,75.7885,22.6,70,0.0,951.6,8.15,32.8,38,16.9,12.2,3,5,7,1,2026-03-29T05:05:09.417821+05:30
Visakhapatnam,Andhra Pradesh,17.6868,83.2185,26.6,86,0.0,1002.3,9.0,40.0,83,28.2,21.0,7,5,4,1,2026-03-29T05:05:09.417829+05:30
Vijayawada,Andhra Pradesh,16.5062,80.648,26.4,90,0.0,1001.1,9.05,29.9,81,20.0,15.2,7,5,4,1,2026-03-29T05:05:09.417835+05:30
Guntur,Andhra Pradesh,16.3067,80.4365,26.3,90,0.0,1002.3,9.05,28.4,84,19.6,14.9,7,5,4,1,2026-03-29T05:05:09.417842+05:30
Nellore,Andhra Pradesh,14.4426,79.9865,25.6,86,0.0,1004.4,8.9,33.5,73,21.0,17.9,7,5,4,1,2026-03-29T05:05:09.417850+05:30
Kurnool,Andhra Pradesh,15.8281,78.0373,27.6,59,0.0,976.1,9.1,26.6,123,48.8,42.6,4,5,7,1,2026-03-29T05:05:09.417858+05:30
Kakinada,Andhra Pradesh,16.9891,82.2475,25.5,93,0.0,1006.4,9.0,28.8,67,25.6,16.2,7,5,4,1,2026-03-29T05:05:09.417864+05:30
Tirupati,Andhra Pradesh,13.6288,79.4192,23.8,88,0.0,991.4,9.1,32.0,97,34.2,31.9,3,5,7,1,2026-03-29T05:05:09.417871+05:30
Warangal,Telangana,17.9689,79.5941,26.0,73,0.0,976.1,8.9,28.4,112,39.0,35.4,7,5,7,1,2026-03-29T05:05:09.417877+05:30
Nizamabad,Telangana,18.6725,78.0941,25.8,50,0.0,963.4,8.85,28.4,78,25.9,24.8,4,5,7,0,2026-03-29T05:05:09.417884+05:30
Mysore,Karnataka,12.2958,76.6396,22.0,88,0.0,927.9,9.45,29.5,110,43.1,39.9,3,5,7,1,2026-03-29T05:05:09.417891+05:30
Mangalore,Karnataka,12.9141,74.856,27.6,85,0.0,1006.2,9.15,31.7,101,41.4,37.6,7,5,4,1,2026-03-29T05:05:09.417897+05:30
Hubli-Dharwad,Karnataka,15.3647,75.124,22.1,92,0.0,939.2,9.15,31.0,103,46.9,43.4,3,5,7,1,2026-03-29T05:05:09.417904+05:30
Belgaum,Karnataka,15.8497,74.4977,20.4,78,0.0,923.7,9.2,35.3,100,29.1,28.1,3,5,7,1,2026-03-29T05:05:12.746910+05:30
Coimbatore,Tamil Nadu,11.0168,76.9558,23.3,89,0.0,960.7,9.45,41.0,90,36.6,33.4,3,5,7,1,2026-03-29T05:05:12.746947+05:30
Madurai,Tamil Nadu,9.9252,78.1198,25.2,83,0.0,991.5,9.4,30.6,80,38.9,37.0,7,5,7,1,2026-03-29T05:05:12.746961+05:30
Trichy,Tamil Nadu,10.7905,78.7047,24.9,88,0.0,999.0,9.15,28.4,65,33.6,30.7,3,5,7,1,2026-03-29T05:05:12.746971+05:30
Salem,Tamil Nadu,11.6643,78.146,25.5,79,0.0,976.6,9.4,34.2,94,17.1,15.5,7,5,7,1,2026-03-29T05:05:12.746980+05:30
Tirunelveli,Tamil Nadu,8.7139,77.7567,26.3,72,0.0,1001.3,9.35,47.5,74,20.5,19.3,7,5,4,1,2026-03-29T05:05:12.746988+05:30
Vellore,Tamil Nadu,12.9165,79.1325,24.5,91,0.0,984.2,9.35,33.5,126,54.7,52.4,3,5,7,1,2026-03-29T05:05:12.746995+05:30
Erode,Tamil Nadu,11.341,77.7172,26.6,81,0.0,988.1,8.85,33.5,97,43.5,41.0,7,5,7,1,2026-03-29T05:05:12.747003+05:30
Kochi,Kerala,9.9312,76.2673,28.0,82,0.0,1007.2,9.15,29.2,93,32.4,30.3,7,5,4,1,2026-03-29T05:05:12.747010+05:30
Thiruvananthapuram,Kerala,8.5241,76.9366,27.9,84,0.0,1006.1,9.05,38.2,73,28.4,24.7,7,5,4,1,2026-03-29T05:05:12.747018+05:30
Kozhikode,Kerala,11.2588,75.7804,27.0,87,0.0,1006.9,9.15,30.6,80,28.1,24.4,7,5,4,1,2026-03-29T05:05:12.747025+05:30
Thrissur,Kerala,10.5276,76.2144,25.7,94,0.0,1005.8,9.15,34.9,89,35.3,32.4,7,5,4,1,2026-03-29T05:05:12.747034+05:30
Kannur,Kerala,11.8745,75.3704,26.6,84,0.0,1006.6,9.15,35.6,89,32.1,29.7,7,5,4,1,2026-03-29T05:05:12.747041+05:30
Patna,Bihar,25.5941,85.1376,21.5,90,0.0,999.7,8.1,23.8,98,60.3,47.6,3,5,7,1,2026-03-29T05:05:12.747048+05:30
Gaya,Bihar,24.7914,85.0002,20.7,87,0.0,992.5,8.15,19.1,85,42.4,38.5,3,5,7,1,2026-03-29T05:05:12.747056+05:30
Muzaffarpur,Bihar,26.1209,85.3647,20.0,93,0.0,1000.3,8.05,27.7,112,60.1,49.6,3,5,4,1,2026-03-29T05:05:12.747062+05:30
Bhagalpur,Bihar,25.2425,87.0117,20.6,95,0.0,1001.3,8.1,20.5,102,65.2,47.6,3,5,4,1,2026-03-29T05:05:12.747069+05:30
Ranchi,Jharkhand,23.3441,85.3096,20.1,90,0.0,936.2,8.75,31.3,101,68.9,63.8,3,5,7,1,2026-03-29T05:05:12.747076+05:30
Jamshedpur,Jharkhand,22.8046,86.2029,24.0,85,0.0,990.5,8.55,27.4,134,59.0,52.5,3,5,7,1,2026-03-29T05:05:12.747083+05:30
Dhanbad,Jharkhand,23.7957,86.4304,22.4,84,0.0,979.4,8.5,22.7,150,89.9,82.4,3,5,7,1,2026-03-29T05:05:12.747090+05:30
Bokaro,Jharkhand,23.6693,86.1511,21.8,91,0.0,983.5,8.5,24.8,150,100.6,91.7,3,5,7,1,2026-03-29T05:05:12.747098+05:30
Bhubaneswar,Odisha,20.2961,85.8245,26.7,87,0.0,1000.9,8.8,32.0,101,25.1,18.7,7,5,4,1,2026-03-29T05:05:12.747105+05:30
Cuttack,Odisha,20.4625,85.8828,26.4,89,0.0,1002.7,8.85,35.3,101,25.1,18.7,7,5,4,1,2026-03-29T05:05:12.747112+05:30
Rourkela,Odisha,22.2604,84.8536,25.0,78,0.0,983.7,8.5,21.2,105,43.3,41.4,7,5,7,1,2026-03-29T05:05:12.747119+05:30
Raipur,Chhattisgarh,21.2514,81.6296,27.4,47,0.0,972.2,8.6,26.3,94,50.2,46.7,4,5,7,0,2026-03-29T05:05:12.747125+05:30
Bhilai,Chhattisgarh,21.1938,81.3509,26.2,52,0.0,972.4,8.6,26.6,75,38.6,35.7,4,5,7,0,2026-03-29T05:05:12.747132+05:30
Guwahati,Assam,26.1158,91.7086,20.2,95,0.0,1002.9,7.1,28.1,114,48.9,41.2,3,5,4,1,2026-03-29T05:05:12.747139+05:30
Agartala,Tripura,23.8315,91.2868,20.1,97,0.0,1006.9,8.2,36.4,122,45.4,40.9,3,5,4,1,2026-03-29T05:05:12.747147+05:30
Shillong,Meghalaya,25.5788,91.8933,10.8,91,0.0,853.3,4.1,39.2,71,32.7,17.2,3,10,3,0,2026-03-29T05:05:12.747154+05:30
Imphal,Manipur,24.817,93.9368,14.5,94,0.0,922.4,7.3,65.9,133,57.3,46.8,3,10,7,0,2026-03-29T05:05:12.747161+05:30
Aizawl,Mizoram,23.7271,92.7176,13.7,93,0.0,891.1,7.9,52.2,121,59.4,51.7,3,10,7,0,2026-03-29T05:05:12.747168+05:30
Kohima,Nagaland,25.6701,94.1077,11.9,92,0.0,852.3,6.6,81.0,106,46.9,35.6,3,10,7,0,2026-03-29T05:05:12.747175+05:30
Gangtok,Sikkim,27.3314,88.6138,9.7,78,0.0,832.7,8.15,20.5,66,15.0,13.3,3,5,7,0,2026-03-29T05:05:12.747182+05:30
Siliguri,West Bengal,26.7271,88.3953,16.9,81,0.0,994.5,6.35,11.9,134,62.9,54.4,3,10,7,0,2026-03-29T05:05:16.076965+05:30
Durgapur,West Bengal,23.5204,87.3119,22.6,90,0.0,995.0,8.45,21.6,131,66.8,61.7,3,5,7,1,2026-03-29T05:05:16.077000+05:30
Asansol,West Bengal,23.6739,86.9524,23.0,89,0.0,993.5,8.45,20.9,131,68.5,62.4,3,5,7,1,2026-03-29T05:05:16.077012+05:30
Pondicherry,Puducherry,11.9139,79.8145,25.5,94,0.0,1007.9,9.15,34.2,58,17.3,12.4,7,5,4,1,2026-03-29T05:05:16.077022+05:30
Port Blair,Andaman and Nicobar Islands,11.6234,92.7265,28.1,74,0.0,1006.6,9.15,16.6,66,21.9,17.4,7,5,4,1,2026-03-29T05:05:16.077031+05:30
Haridwar,Uttarakhand,29.9457,78.1642,21.5,76,0.0,972.2,4.2,27.7,86,36.6,34.3,3,5,3,1,2026-03-29T05:05:16.077039+05:30
Rishikesh,Uttarakhand,30.0869,78.2676,20.9,74,0.0,965.1,4.15,25.6,71,31.9,29.3,3,5,3,0,2026-03-29T05:05:16.077048+05:30
Nainital,Uttarakhand,29.3919,79.4542,16.3,67,0.0,803.2,7.25,41.0,75,29.3,26.3,3,5,7,0,2026-03-29T05:05:16.077057+05:30
Mussoorie,Uttarakhand,30.4599,78.0664,15.5,71,0.0,800.1,4.7,22.3,83,34.7,31.7,3,5,3,0,2026-03-29T05:05:16.077066+05:30
Dharamshala,Himachal Pradesh,32.219,76.3234,17.9,61,0.0,866.2,7.05,29.2,50,26.8,13.0,3,5,7,0,2026-03-29T05:05:16.077074+05:30
Dalhousie,Himachal Pradesh,32.5387,75.971,14.6,76,0.1,800.4,7.1,24.1,72,35.7,29.9,6,5,7,0,2026-03-29T05:05:16.077084+05:30
Patiala,Punjab,30.3398,76.3869,20.6,83,0.0,975.8,6.6,25.6,104,297.1,51.8,3,5,7,1,2026-03-29T05:05:16.077092+05:30
Bhatinda,Punjab,30.211,74.9455,21.9,72,0.0,981.0,6.65,36.0,76,144.4,39.8,3,5,7,1,2026-03-29T05:05:16.077100+05:30
Rohtak,Haryana,28.8955,76.6066,20.2,77,0.0,979.2,6.8,28.8,133,259.8,75.4,3,5,7,1,2026-03-29T05:05:16.077108+05:30
Panipat,Haryana,29.3909,76.9635,19.9,78,0.0,977.8,6.55,27.4,172,267.3,63.8,3,5,7,0,2026-03-29T05:05:16.077117+05:30
Mathura,Uttar Pradesh,27.4924,77.6737,20.7,76,0.0,984.5,6.95,20.5,198,253.3,55.5,3,5,7,1,2026-03-29T05:05:16.077124+05:30
Vrindavan,Uttar Pradesh,27.5823,77.7027,20.3,78,0.0,985.0,6.85,23.0,198,253.3,55.5,3,5,7,1,2026-03-29T05:05:16.077132+05:30
Ayodhya,Uttar Pradesh,26.7922,82.1998,19.4,88,0.0,994.0,7.45,22.7,115,101.0,68.0,3,10,7,1,2026-03-29T05:05:16.077139+05:30
Ratlam,Madhya Pradesh,23.3315,75.0367,22.7,75,0.0,952.6,8.1,32.4,33,18.6,12.4,3,5,7,1,2026-03-29T05:05:16.077147+05:30
Sagar,Madhya Pradesh,23.8388,78.7378,24.9,56,0.0,947.8,8.2,32.4,52,20.8,11.0,0,5,7,0,2026-03-29T05:05:16.077154+05:30
Satna,Madhya Pradesh,24.6005,80.8322,23.1,62,0.0,969.0,8.15,37.4,68,71.7,24.5,3,5,7,0,2026-03-29T05:05:16.077162+05:30
Akola,Maharashtra,20.7002,77.0082,23.5,68,0.0,973.4,8.55,27.7,40,13.4,12.5,3,5,7,1,2026-03-29T05:05:16.077171+05:30
Amravati,Maharashtra,20.9374,77.7796,23.0,66,0.0,965.1,8.5,27.0,39,10.8,10.1,3,5,7,1,2026-03-29T05:05:16.077179+05:30
Latur,Maharashtra,18.4088,76.5604,23.3,50,0.0,938.2,8.85,29.9,60,14.3,9.2,0,5,7,0,2026-03-29T05:05:16.077187+05:30
Nanded,Maharashtra,19.1383,77.3091,23.7,61,0.0,967.1,8.7,19.4,56,17.6,16.4,3,5,7,0,2026-03-29T05:05:16.077195+05:30
Gulbarga,Karnataka,17.3297,76.8343,25.6,49,0.0,957.2,8.9,32.0,79,13.6,12.9,4,5,7,0,2026-03-29T05:05:16.077203+05:30
Bidar,Karnataka,17.9104,77.5199,25.1,49,0.0,933.8,8.9,30.2,82,36.7,33.2,4,5,7,0,2026-03-29T05:05:16.077211+05:30
Hospet,Karnataka,15.2689,76.3909,25.4,83,0.0,955.1,9.15,17.6,110,37.5,34.6,7,5,7,1,2026-03-29T05:05:16.077219+05:30
Tirupur,Tamil Nadu,11.1085,77.3411,25.6,81,0.0,974.3,9.4,41.8,102,46.4,43.8,7,5,7,1,2026-03-29T05:05:16.077227+05:30
Alappuzha,Kerala,9.4981,76.3388,27.9,82,0.0,1007.2,9.15,25.9,88,32.1,28.7,7,5,4,1,2026-03-29T05:05:16.077235+05:30
Munnar,Kerala,10.0889,77.0595,18.1,90,0.0,854.2,8.85,34.2,82,28.5,26.8,3,10,7,1,2026-03-29T05:05:16.077244+05:30
Silchar,Assam,24.8333,92.7789,19.4,91,0.0,1006.3,8.0,32.4,150,61.0,52.3,3,10,4,1,2026-03-29T05:05:16.077250+05:30
Dibrugarh,Assam,27.4728,94.912,19.4,88,0.0,997.3,6.55,14.0,93,28.5,23.3,3,10,7,1,2026-03-29T05:05:16.077257+05:30
