city,state,latitude,longitude,temp,humidity,rain,pressure,uv_index,wind_gusts,aqi,pm10,pm2_5,mosquito_risk,arthritis_risk,migraine_risk,frizz_risk,updated_at
Delhi,Delhi,28.6139,77.209,25.2,65,0.0,987.5,5.9,19.4,386,270.1,91.3,7,5,3,1,2026-03-06T10:14:17.621094+05:30
Mumbai,Maharashtra,19.076,72.8777,28.1,59,0.0,1011.6,7.4,23.8,100,41.3,39.8,4,0,4,1,2026-03-06T10:14:17.621142+05:30
Bangalore,Karnataka,12.9716,77.5946,26.0,56,0.0,915.2,9.15,22.0,100,37.5,33.8,4,5,7,1,2026-03-06T10:14:17.621157+05:30
Hyderabad,Telangana,17.385,78.4867,30.4,30,0.0,957.3,8.5,23.4,101,26.3,25.0,0,5,7,0,2026-03-06T10:14:17.621167+05:30
Chennai,Tamil Nadu,13.0827,80.2707,30.9,55,0.0,1010.5,8.9,31.3,75,26.8,24.6,0,0,4,1,2026-03-06T10:14:17.621176+05:30
Kolkata,West Bengal,22.5726,88.3639,27.4,74,0.0,1010.7,7.8,15.8,165,84.3,63.3,7,0,4,1,2026-03-06T10:14:17.621185+05:30
Pune,Maharashtra,18.5204,73.8567,30.7,29,0.0,952.8,8.0,27.7,93,25.8,22.9,0,5,7,0,2026-03-06T10:14:17.621198+05:30
Ahmedabad,Gujarat,23.0225,72.5714,26.0,63,0.0,1007.9,7.25,20.5,71,22.2,16.3,7,5,4,1,2026-03-06T10:14:17.621206+05:30
Jaipur,Rajasthan,26.9124,75.7873,29.2,26,0.0,964.8,6.7,25.2,98,155.5,30.4,4,5,7,0,2026-03-06T10:14:17.621213+05:30
Lucknow,Uttar Pradesh,26.8467,80.9462,26.9,61,0.0,998.4,6.4,22.3,169,130.9,91.0,7,5,7,1,2026-03-06T10:14:17.621221+05:30
Kanpur,Uttar Pradesh,26.4499,80.3319,26.3,73,0.0,996.5,6.4,13.3,175,232.8,98.5,7,5,7,1,2026-03-06T10:14:17.621228+05:30
Chandigarh,Chandigarh,30.7333,76.7794,24.3,68,0.0,972.7,5.8,16.2,112,67.8,42.0,3,5,3,1,2026-03-06T10:14:17.621236+05:30
Srinagar,Jammu and Kashmir,34.0837,74.7973,14.9,64,0.0,846.1,6.7,17.6,138,71.9,51.6,3,5,7,0,2026-03-06T10:14:17.621244+05:30
Jammu,Jammu and Kashmir,32.7266,74.857,25.6,65,0.0,975.8,6.45,17.3,121,49.8,41.6,7,5,7,1,2026-03-06T10:14:17.621252+05:30
Amritsar,Punjab,31.634,74.8723,25.6,76,0.0,984.0,6.05,12.2,155,117.1,102.7,7,5,7,1,2026-03-06T10:14:17.621260+05:30
Ludhiana,Punjab,30.901,75.8573,25.7,73,0.0,982.4,6.05,15.1,162,105.2,93.8,7,5,7,1,2026-03-06T10:14:17.621267+05:30
Jalandhar,Punjab,31.326,75.5762,25.1,75,0.0,983.4,6.15,14.0,163,115.0,100.4,7,5,7,1,2026-03-06T10:14:17.621276+05:30
Dehradun,Uttarakhand,30.6284,78.0322,19.6,43,0.0,833.8,6.15,27.0,78,27.4,20.7,0,5,7,0,2026-03-06T10:14:17.621284+05:30
Shimla,Himachal Pradesh,31.1048,77.1734,20.4,39,0.0,789.9,6.25,32.8,74,42.5,21.8,0,5,7,0,2026-03-06T10:14:17.621294+05:30
Manali,Himachal Pradesh,32.2396,77.1887,24.0,13,0.0,826.2,7.2,37.8,64,28.9,16.5,0,5,7,1,2026-03-06T10:14:17.621302+05:30
Gurgaon,Haryana,28.4595,77.0266,24.9,66,0.0,986.0,6.0,17.6,1127,226.8,86.6,3,5,3,1,2026-03-06T10:14:17.621309+05:30
Noida,Uttar Pradesh,28.5355,77.391,25.7,65,0.0,989.0,5.9,17.3,1127,226.8,86.6,7,5,3,1,2026-03-06T10:14:17.621316+05:30
Ghaziabad,Uttar Pradesh,28.6692,77.4538,24.7,76,0.0,987.1,5.9,14.8,284,302.7,104.1,3,5,3,1,2026-03-06T10:14:17.621323+05:30
Faridabad,Haryana,28.4089,77.3178,25.5,66,0.0,988.3,5.95,16.9,1127,226.8,86.6,7,5,3,1,2026-03-06T10:14:17.621329+05:30
Meerut,Uttar Pradesh,28.9845,77.7064,23.7,83,0.0,986.0,5.75,14.8,284,302.7,104.1,3,5,3,1,2026-03-06T10:14:17.621336+05:30
Agra,Uttar Pradesh,27.1767,78.0081,27.6,54,0.0,992.4,6.3,19.4,514,376.3,97.8,4,5,7,1,2026-03-06T10:14:17.621343+05:30
Varanasi,Uttar Pradesh,25.3176,82.9739,27.0,66,0.0,1002.4,7.1,17.6,165,177.0,78.9,7,5,4,1,2026-03-06T10:14:17.621355+05:30
Prayagraj,Uttar Pradesh,25.4358,81.8463,26.7,70,0.0,1000.8,6.95,16.2,168,176.0,99.2,7,5,4,1,2026-03-06T10:14:17.621362+05:30
Gorakhpur,Uttar Pradesh,26.7606,83.3732,27.0,67,0.0,1002.7,6.8,19.1,171,93.4,85.4,7,5,4,1,2026-03-06T10:14:17.621370+05:30
Bareilly,Uttar Pradesh,28.367,79.4304,25.2,75,0.0,991.5,6.1,14.4,165,105.5,85.7,7,5,7,1,2026-03-06T10:14:17.621377+05:30
Aligarh,Uttar Pradesh,27.8974,78.088,26.0,69,0.0,990.0,6.05,16.6,649,287.8,110.6,7,5,7,1,2026-03-06T10:14:17.621383+05:30
Moradabad,Uttar Pradesh,28.8386,78.7733,24.8,74,0.0,988.2,5.9,18.7,171,98.5,82.0,3,5,3,1,2026-03-06T10:14:17.621390+05:30
Saharanpur,Uttar Pradesh,29.9637,77.546,23.9,77,0.0,980.0,5.55,19.8,159,102.9,69.2,3,5,3,1,2026-03-06T10:14:17.621396+05:30
Jhansi,Uttar Pradesh,25.4484,78.5685,29.7,43,0.0,982.7,6.9,25.2,62,36.6,17.3,4,5,7,0,2026-03-06T10:14:20.868241+05:30
Surat,Gujarat,21.1702,72.8311,27.2,62,0.0,1011.6,7.15,22.7,122,40.7,39.7,7,0,4,1,2026-03-06T10:14:20.868271+05:30
Vadodara,Gujarat,22.3072,73.1812,27.9,57,0.0,1009.9,7.25,18.0,96,30.7,28.5,4,0,4,1,2026-03-06T10:14:20.868281+05:30
Rajkot,Gujarat,22.3039,70.8022,24.0,74,0.0,999.8,7.1,22.0,57,26.3,14.6,3,5,7,1,2026-03-06T10:14:20.868289+05:30
Thane,Maharashtra,19.2183,72.9781,30.9,37,0.0,1011.2,7.4,35.6,100,41.3,39.8,0,0,4,0,2026-03-06T10:14:20.868297+05:30
Nagpur,Maharashtra,21.1458,79.0882,31.0,32,0.0,977.8,7.85,25.9,56,26.7,19.0,0,5,7,0,2026-03-06T10:14:20.868304+05:30
Nashik,Maharashtra,19.9975,73.7898,29.2,29,0.0,950.2,7.6,31.7,71,17.2,15.8,4,5,7,0,2026-03-06T10:14:20.868311+05:30
Aurangabad,Maharashtra,19.8762,75.3433,30.5,27,0.0,948.9,8.1,22.7,66,19.7,17.3,0,5,7,0,2026-03-06T10:14:20.868318+05:30
Solapur,Maharashtra,17.6599,75.9064,28.0,39,0.0,961.4,8.4,20.2,72,22.4,20.1,4,5,7,0,2026-03-06T10:14:20.868326+05:30
Kolhapur,Maharashtra,16.705,74.2433,29.3,32,0.0,951.7,8.55,31.7,149,46.4,45.1,4,5,7,0,2026-03-06T10:14:20.868334+05:30
Goa,Goa,15.2993,74.124,29.3,67,0.0,1000.6,8.6,32.4,156,74.3,71.9,7,5,4,1,2026-03-06T10:14:20.868341+05:30
Jodhpur,Rajasthan,26.2389,73.0243,26.0,48,0.0,988.4,6.95,23.0,64,43.7,17.1,4,5,7,0,2026-03-06T10:14:20.868348+05:30
Udaipur,Rajasthan,24.5854,73.7125,28.5,23,0.0,951.4,7.6,20.2,41,12.0,11.3,4,5,7,0,2026-03-06T10:14:20.868354+05:30
Kota,Rajasthan,25.2138,75.8648,28.0,38,0.0,983.9,7.0,17.3,76,18.3,13.0,4,5,7,0,2026-03-06T10:14:20.868361+05:30
Bikaner,Rajasthan,28.0229,73.3119,26.0,40,0.0,986.4,6.65,23.0,59,52.0,17.9,4,5,7,0,2026-03-06T10:14:20.868368+05:30
Ajmer,Rajasthan,26.4499,74.6399,26.0,40,0.0,959.8,6.95,26.3,63,22.0,11.3,4,5,7,0,2026-03-06T10:14:20.868375+05:30
Gwalior,Madhya Pradesh,26.2183,78.1828,28.6,54,0.0,987.8,6.6,20.5,87,34.6,22.8,4,5,7,1,2026-03-06T10:14:20.868381+05:30
Indore,Madhya Pradesh,22.7196,75.8577,27.6,36,0.0,953.3,7.55,22.3,71,15.0,14.5,4,5,7,0,2026-03-06T10:14:20.868387+05:30
Bhopal,Madhya Pradesh,23.2599,77.4126,28.0,40,0.0,958.9,7.4,24.8,70,36.6,23.1,4,5,7,0,2026-03-06T10:14:20.868394+05:30
Jabalpur,Madhya Pradesh,23.1815,79.9864,27.9,47,0.0,966.0,7.5,27.4,64,34.0,21.2,4,5,7,0,2026-03-06T10:14:20.868400+05:30
Ujjain,Madhya Pradesh,23.1765,75.7885,26.9,44,0.0,958.9,7.45,20.2,80,16.5,15.9,4,5,7,0,2026-03-06T10:14:20.868408+05:30
Visakhapatnam,Andhra Pradesh,17.6868,83.2185,30.0,65,0.0,1006.5,8.45,36.7,143,61.0,57.9,7,5,4,1,2026-03-06T10:14:20.868415+05:30
Vijayawada,Andhra Pradesh,16.5062,80.648,30.1,56,0.0,1005.8,8.55,15.1,136,47.7,45.2,0,5,4,1,2026-03-06T10:14:20.868422+05:30
Guntur,Andhra Pradesh,16.3067,80.4365,30.5,56,0.0,1006.9,8.55,15.8,115,43.4,40.6,0,5,4,1,2026-03-06T10:14:20.868429+05:30
Nellore,Andhra Pradesh,14.4426,79.9865,31.3,52,0.0,1009.0,8.75,28.4,89,32.5,30.5,0,0,4,1,2026-03-06T10:14:20.868436+05:30
Kurnool,Andhra Pradesh,15.8281,78.0373,32.6,27,0.0,980.6,8.55,24.5,75,32.8,29.7,0,5,7,0,2026-03-06T10:14:20.868443+05:30
Kakinada,Andhra Pradesh,16.9891,82.2475,30.5,65,0.0,1010.1,8.5,32.0,120,39.1,35.0,3,0,4,1,2026-03-06T10:14:20.868449+05:30
Tirupati,Andhra Pradesh,13.6288,79.4192,32.1,41,0.0,994.9,8.85,30.6,109,36.3,33.4,0,5,7,1,2026-03-06T10:14:20.868456+05:30
Warangal,Telangana,17.9689,79.5941,30.3,42,0.0,982.4,8.3,25.9,80,26.6,25.1,0,5,7,0,2026-03-06T10:14:20.868462+05:30
Nizamabad,Telangana,18.6725,78.0941,29.6,32,0.0,969.3,8.2,32.0,87,32.6,29.0,4,5,7,0,2026-03-06T10:14:20.868468+05:30
Mysore,Karnataka,12.2958,76.6396,26.1,68,0.0,931.7,9.2,35.6,119,45.9,44.7,7,5,7,1,2026-03-06T10:14:20.868475+05:30
Mangalore,Karnataka,12.9141,74.856,28.1,86,0.0,1009.2,8.8,23.4,125,55.4,52.3,7,0,4,1,2026-03-06T10:14:20.868481+05:30
Hubli-Dharwad,Karnataka,15.3647,75.124,30.7,28,0.0,944.3,8.75,37.1,91,42.3,40.7,0,5,7,0,2026-03-06T10:14:20.868489+05:30
Belgaum,Karnataka,15.8497,74.4977,30.0,29,0.0,929.3,8.8,40.0,117,35.3,34.0,4,5,7,0,2026-03-06T10:14:24.113967+05:30
Coimbatore,Tamil Nadu,11.0168,76.9558,28.8,58,0.0,965.4,9.15,44.3,110,43.2,41.3,4,5,7,1,2026-03-06T10:14:24.113998+05:30
Madurai,Tamil Nadu,9.9252,78.1198,29.2,66,0.0,996.8,9.15,33.8,90,23.7,21.5,7,5,7,1,2026-03-06T10:14:24.114009+05:30
Trichy,Tamil Nadu,10.7905,78.7047,29.3,66,0.0,1003.6,9.05,25.2,87,23.5,20.7,7,5,4,1,2026-03-06T10:14:24.114017+05:30
Salem,Tamil Nadu,11.6643,78.146,29.9,54,0.0,981.0,9.05,15.8,98,34.5,30.0,4,5,7,1,2026-03-06T10:14:24.114025+05:30
Tirunelveli,Tamil Nadu,8.7139,77.7567,31.7,49,0.0,1006.9,9.15,49.3,89,34.7,32.5,0,5,4,1,2026-03-06T10:14:24.114031+05:30
Vellore,Tamil Nadu,12.9165,79.1325,30.6,49,0.0,988.1,8.95,32.4,116,40.7,37.4,0,5,7,1,2026-03-06T10:14:24.114038+05:30
Erode,Tamil Nadu,11.341,77.7172,29.8,59,0.0,992.7,9.05,19.4,92,38.1,35.6,4,5,7,1,2026-03-06T10:14:24.114045+05:30
Kochi,Kerala,9.9312,76.2673,27.5,81,0.0,1011.9,9.0,33.8,139,44.7,42.3,7,0,4,1,2026-03-06T10:14:24.114052+05:30
Thiruvananthapuram,Kerala,8.5241,76.9366,27.8,77,0.0,1011.3,9.0,33.1,86,28.1,25.8,7,0,4,1,2026-03-06T10:14:24.114059+05:30
Kozhikode,Kerala,11.2588,75.7804,29.1,75,0.0,1010.7,8.9,27.7,112,49.0,46.1,7,0,4,1,2026-03-06T10:14:24.114066+05:30
Thrissur,Kerala,10.5276,76.2144,30.3,69,0.0,1010.0,8.95,34.6,128,44.9,42.3,3,0,4,1,2026-03-06T10:14:24.114074+05:30
Kannur,Kerala,11.8745,75.3704,30.3,64,0.0,1009.9,8.85,32.0,115,46.0,43.4,3,0,4,1,2026-03-06T10:14:24.114080+05:30
Patna,Bihar,25.5941,85.1376,27.4,58,0.0,1005.6,7.25,21.6,163,103.1,92.4,4,5,4,1,2026-03-06T10:14:24.114087+05:30
Gaya,Bihar,24.7914,85.0002,26.7,68,0.0,998.4,7.35,21.6,155,86.4,67.5,7,5,7,1,2026-03-06T10:14:24.114093+05:30
Muzaffarpur,Bihar,26.1209,85.3647,28.1,56,0.0,1005.9,7.2,20.5,170,104.5,94.1,4,5,4,1,2026-03-06T10:14:24.114099+05:30
Bhagalpur,Bihar,25.2425,87.0117,28.0,64,0.0,1006.5,7.3,17.3,162,80.1,70.1,7,5,4,1,2026-03-06T10:14:24.114106+05:30
Ranchi,Jharkhand,23.3441,85.3096,26.8,44,0.0,941.3,8.0,31.0,131,84.8,59.8,4,5,7,0,2026-03-06T10:14:24.114113+05:30
Jamshedpur,Jharkhand,22.8046,86.2029,27.8,59,0.0,995.1,7.9,24.5,153,95.5,56.7,4,5,7,1,2026-03-06T10:14:24.114119+05:30
Dhanbad,Jharkhand,23.7957,86.4304,29.3,42,0.0,984.4,7.75,27.4,170,115.0,88.9,4,5,7,0,2026-03-06T10:14:24.114125+05:30
Bokaro,Jharkhand,23.6693,86.1511,29.0,44,0.0,988.2,7.8,29.5,174,120.1,88.7,4,5,7,0,2026-03-06T10:14:24.114132+05:30
Bhubaneswar,Odisha,20.2961,85.8245,29.5,64,0.0,1006.2,8.2,31.7,149,70.3,54.6,7,5,4,1,2026-03-06T10:14:24.114139+05:30
Cuttack,Odisha,20.4625,85.8828,29.6,64,0.0,1008.2,8.25,35.6,149,70.3,54.6,7,0,4,1,2026-03-06T10:14:24.114145+05:30
Rourkela,Odisha,22.2604,84.8536,29.3,44,0.0,988.7,7.8,11.9,125,90.3,62.6,4,5,7,0,2026-03-06T10:14:24.114151+05:30
Raipur,Chhattisgarh,21.2514,81.6296,31.2,31,0.0,978.7,7.9,23.0,86,43.0,33.4,0,5,7,0,2026-03-06T10:14:24.114157+05:30
Bhilai,Chhattisgarh,21.1938,81.3509,31.8,32,0.0,979.0,7.95,25.6,75,46.1,34.3,0,5,7,0,2026-03-06T10:14:24.114162+05:30
Guwahati,Assam,26.1158,91.7086,28.9,61,0.0,1006.7,7.25,21.2,151,65.7,57.3,7,5,4,1,2026-03-06T10:14:24.114169+05:30
Agartala,Tripura,23.8315,91.2868,29.4,61,0.0,1010.7,7.6,16.9,160,73.3,60.8,7,0,4,1,2026-03-06T10:14:24.114175+05:30
Shillong,Meghalaya,25.5788,91.8933,19.7,43,0.0,861.7,7.6,33.1,126,50.3,41.0,0,5,7,0,2026-03-06T10:14:24.114181+05:30
Imphal,Manipur,24.817,93.9368,24.4,50,0.0,928.1,7.8,34.6,152,49.2,44.1,0,5,7,0,2026-03-06T10:14:24.114188+05:30
Aizawl,Mizoram,23.7271,92.7176,25.2,50,0.0,897.4,7.75,33.1,175,83.8,73.1,4,5,7,0,2026-03-06T10:14:24.114195+05:30
Kohima,Nagaland,25.6701,94.1077,20.7,54,0.0,860.4,7.65,41.8,151,57.7,51.0,0,5,7,0,2026-03-06T10:14:24.114201+05:30
Gangtok,Sikkim,27.3314,88.6138,17.1,78,0.0,842.7,7.55,16.9,98,39.8,34.1,3,5,7,0,2026-03-06T10:14:24.114207+05:30
Siliguri,West Bengal,26.7271,88.3953,24.0,66,0.0,999.4,7.2,15.1,134,59.8,50.9,3,5,7,1,2026-03-06T10:14:27.364649+05:30
Durgapur,West Bengal,23.5204,87.3119,30.4,45,0.0,999.7,7.75,24.1,161,111.1,87.3,0,5,7,1,2026-03-06T10:14:27.364705+05:30
Asansol,West Bengal,23.6739,86.9524,30.2,44,0.0,998.1,7.75,21.6,160,109.9,86.8,0,5,7,1,2026-03-06T10:14:27.364716+05:30
Pondicherry,Puducherry,11.9139,79.8145,30.2,60,0.0,1012.0,8.9,27.0,67,27.9,25.5,0,0,4,1,2026-03-06T10:14:27.364726+05:30
Port Blair,Andaman and Nicobar Islands,11.6234,92.7265,26.8,70,0.0,1010.8,8.85,14.4,51,21.9,13.5,7,0,4,1,2026-03-06T10:14:27.364735+05:30
Haridwar,Uttarakhand,29.9457,78.1642,25.8,66,0.0,978.7,5.7,22.7,151,96.4,63.6,7,5,3,1,2026-03-06T10:14:27.364744+05:30
Rishikesh,Uttarakhand,30.0869,78.2676,25.6,65,0.0,971.3,5.75,23.0,139,86.8,56.7,7,5,3,1,2026-03-06T10:14:27.364752+05:30
Nainital,Uttarakhand,29.3919,79.4542,19.5,68,0.0,809.7,6.55,46.4,158,107.6,65.0,3,5,7,0,2026-03-06T10:14:27.364761+05:30
Mussoorie,Uttarakhand,30.4599,78.0664,18.0,70,0.0,805.9,6.05,40.3,131,103.4,54.2,3,5,7,0,2026-03-06T10:14:27.364770+05:30
Dharamshala,Himachal Pradesh,32.219,76.3234,24.8,35,0.0,873.0,5.6,20.9,56,21.8,9.8,0,5,3,0,2026-03-06T10:14:27.364778+05:30
Dalhousie,Himachal Pradesh,32.5387,75.971,23.4,23,0.0,808.7,5.8,22.3,92,36.1,23.0,0,5,3,0,2026-03-06T10:14:27.364787+05:30
Patiala,Punjab,30.3398,76.3869,25.7,73,0.0,982.2,5.7,12.6,181,96.2,85.7,7,5,3,1,2026-03-06T10:14:27.364795+05:30
Bhatinda,Punjab,30.211,74.9455,26.0,64,0.0,987.4,6.4,18.0,150,84.8,77.3,7,5,7,1,2026-03-06T10:14:27.364803+05:30
Rohtak,Haryana,28.8955,76.6066,24.9,65,0.0,986.2,5.9,19.4,469,189.1,75.0,3,5,3,1,2026-03-06T10:14:27.364811+05:30
Panipat,Haryana,29.3909,76.9635,25.1,76,0.0,984.7,5.7,14.0,934,311.1,95.5,7,5,3,1,2026-03-06T10:14:27.364819+05:30
Mathura,Uttar Pradesh,27.4924,77.6737,26.9,58,0.0,991.3,6.2,19.1,604,334.3,87.5,4,5,7,1,2026-03-06T10:14:27.364827+05:30
Vrindavan,Uttar Pradesh,27.5823,77.7027,26.7,59,0.0,991.8,6.15,17.6,604,334.3,87.5,4,5,7,1,2026-03-06T10:14:27.364834+05:30
Ayodhya,Uttar Pradesh,26.7922,82.1998,26.7,67,0.0,1000.6,6.55,19.8,167,121.5,95.9,7,5,4,1,2026-03-06T10:14:27.364842+05:30
Ratlam,Madhya Pradesh,23.3315,75.0367,26.4,44,0.0,959.5,7.4,21.2,70,13.0,12.4,4,5,7,0,2026-03-06T10:14:27.364850+05:30
Sagar,Madhya Pradesh,23.8388,78.7378,28.6,42,0.0,954.9,7.35,22.0,57,42.1,15.9,4,5,7,0,2026-03-06T10:14:27.364858+05:30
Satna,Madhya Pradesh,24.6005,80.8322,29.0,47,0.0,975.6,7.3,32.4,77,271.9,54.4,4,5,7,1,2026-03-06T10:14:27.364865+05:30
Akola,Maharashtra,20.7002,77.0082,29.8,41,0.0,980.2,7.85,18.7,76,31.1,24.7,4,5,7,0,2026-03-06T10:14:27.364873+05:30
Amravati,Maharashtra,20.9374,77.7796,30.4,33,0.0,972.5,7.8,15.5,75,31.0,23.3,0,5,7,0,2026-03-06T10:14:27.364882+05:30
Latur,Maharashtra,18.4088,76.5604,29.5,31,0.0,944.3,8.3,31.7,75,25.8,23.1,4,5,7,0,2026-03-06T10:14:27.364889+05:30
Nanded,Maharashtra,19.1383,77.3091,30.2,33,0.0,973.4,8.1,21.2,93,29.8,26.6,0,5,7,0,2026-03-06T10:14:27.364897+05:30
Gulbarga,Karnataka,17.3297,76.8343,31.6,24,0.0,963.0,8.4,33.1,77,27.5,25.5,0,5,7,0,2026-03-06T10:14:27.364905+05:30
Bidar,Karnataka,17.9104,77.5199,30.1,26,0.0,939.9,8.35,32.8,78,24.9,22.9,0,5,7,0,2026-03-06T10:14:27.364912+05:30
Hospet,Karnataka,15.2689,76.3909,27.7,56,0.0,959.5,8.75,23.0,102,36.6,34.3,4,5,7,1,2026-03-06T10:14:27.364920+05:30
Tirupur,Tamil Nadu,11.1085,77.3411,29.9,52,0.0,978.9,9.2,32.4,118,49.2,47.0,4,5,7,1,2026-03-06T10:14:27.364926+05:30
Alappuzha,Kerala,9.4981,76.3388,27.5,81,0.0,1012.0,9.0,30.6,118,40.5,37.8,7,0,4,1,2026-03-06T10:14:27.364932+05:30
Munnar,Kerala,10.0889,77.0595,25.1,59,0.0,860.6,9.5,29.5,94,27.9,25.7,4,5,7,1,2026-03-06T10:14:27.364938+05:30
Silchar,Assam,24.8333,92.7789,28.7,55,0.0,1009.9,7.55,12.6,164,81.5,73.8,4,0,4,1,2026-03-06T10:14:27.364944+05:30
Dibrugarh,Assam,27.4728,94.912,26.2,62,0.0,1000.8,7.25,14.4,110,37.8,32.1,7,5,4,1,2026-03-06T10:14:27.364950+05:30
