city,state,latitude,longitude,temp,humidity,rain,pressure,uv_index,wind_gusts,aqi,pm10,pm2_5,no2,co,o3,so2,mosquito_risk,arthritis_risk,migraine_risk,frizz_risk,updated_at
Delhi,Delhi,28.6139,77.209,28.2,82,0.0,976.8,6.5,32.4,89,28.5,28.4,13.8,463.0,115.0,22.8,7,5,7,1,2026-07-24T09:46:37.978499+05:30
Mumbai,Maharashtra,19.076,72.8777,28.0,85,0.1,1004.6,7.7,63.0,60,39.3,15.8,6.3,196.0,45.0,5.5,10,5,4,1,2026-07-24T09:46:37.978560+05:30
Bangalore,Karnataka,12.9716,77.5946,24.8,68,0.0,912.7,8.75,52.9,41,14.3,7.2,6.3,316.0,48.0,3.3,3,5,7,1,2026-07-24T09:46:37.978577+05:30
Hyderabad,Telangana,17.385,78.4867,27.0,68,0.0,951.7,6.55,58.0,66,13.1,8.3,3.9,285.0,51.0,4.0,7,5,7,1,2026-07-24T09:46:37.978587+05:30
Chennai,Tamil Nadu,13.0827,80.2707,31.1,64,0.0,1006.9,7.95,35.3,71,31.9,23.2,15.9,380.0,74.0,18.2,3,5,4,1,2026-07-24T09:46:37.978596+05:30
Kolkata,West Bengal,22.5726,88.3639,29.4,79,0.0,1001.5,3.3,28.8,69,27.8,23.1,6.9,391.0,87.0,10.8,7,5,0,1,2026-07-24T09:46:37.978604+05:30
Pune,Maharashtra,18.5204,73.8567,24.6,85,0.1,944.5,7.15,64.4,21,6.4,3.8,4.2,161.0,41.0,3.1,6,5,7,1,2026-07-24T09:46:37.978611+05:30
Ahmedabad,Gujarat,23.0225,72.5714,25.6,95,2.0,994.2,2.0,42.5,53,6.6,5.3,12.6,200.0,46.0,3.8,10,5,3,1,2026-07-24T09:46:37.978618+05:30
Jaipur,Rajasthan,26.9124,75.7873,28.5,76,0.0,952.5,6.3,30.2,73,12.9,12.6,6.4,279.0,78.0,7.3,7,5,7,1,2026-07-24T09:46:37.978625+05:30
Lucknow,Uttar Pradesh,26.8467,80.9462,29.3,81,0.0,988.7,6.5,24.5,75,9.0,8.6,5.6,216.0,70.0,7.0,7,5,7,1,2026-07-24T09:46:37.978636+05:30
Kanpur,Uttar Pradesh,26.4499,80.3319,30.1,76,0.0,986.5,7.15,25.9,66,12.0,11.4,5.5,209.0,72.0,6.5,3,5,7,1,2026-07-24T09:46:37.978642+05:30
Chandigarh,Chandigarh,30.7333,76.7794,30.4,66,0.0,964.1,7.55,26.6,83,18.4,18.2,5.4,319.0,137.0,8.4,3,5,7,1,2026-07-24T09:46:37.978649+05:30
Srinagar,Jammu and Kashmir,34.0837,74.7973,19.8,85,0.3,841.0,6.85,18.4,74,15.0,14.8,15.9,369.0,45.0,3.4,6,10,7,1,2026-07-24T09:46:37.978657+05:30
Jammu,Jammu and Kashmir,32.7266,74.857,26.8,83,0.0,969.0,8.3,31.7,98,23.2,22.5,18.2,344.0,57.0,2.5,7,5,7,1,2026-07-24T09:46:37.978664+05:30
Amritsar,Punjab,31.634,74.8723,28.8,79,0.0,976.4,8.05,26.6,98,31.3,30.4,10.9,405.0,78.0,5.9,7,5,7,1,2026-07-24T09:46:37.978670+05:30
Ludhiana,Punjab,30.901,75.8573,30.2,75,0.0,973.6,7.85,32.0,109,26.5,26.4,8.1,379.0,123.0,11.9,3,5,7,1,2026-07-24T09:46:37.978676+05:30
Jalandhar,Punjab,31.326,75.5762,29.6,80,0.0,975.0,8.05,27.0,123,29.9,28.7,9.4,414.0,123.0,13.8,7,5,7,1,2026-07-24T09:46:37.978682+05:30
Dehradun,Uttarakhand,30.6284,78.0322,23.1,75,0.0,829.2,7.6,23.4,53,6.0,5.8,0.6,161.0,113.0,1.3,3,5,7,1,2026-07-24T09:46:37.978689+05:30
Shimla,Himachal Pradesh,31.1048,77.1734,20.3,76,0.0,784.3,5.05,23.4,47,6.3,6.1,2.0,215.0,102.0,0.9,3,5,3,0,2026-07-24T09:46:37.978696+05:30
Manali,Himachal Pradesh,32.2396,77.1887,25.7,61,0.0,818.7,9.3,32.0,16,2.1,1.9,3.1,180.0,68.0,0.5,7,5,7,1,2026-07-24T09:46:37.978704+05:30
Gurgaon,Haryana,28.4595,77.0266,28.4,80,0.0,975.0,6.65,35.3,101,21.2,21.2,12.9,386.0,97.0,18.3,7,5,7,1,2026-07-24T09:46:37.978713+05:30
Noida,Uttar Pradesh,28.5355,77.391,28.9,78,0.0,978.3,6.05,33.8,101,21.2,21.2,12.9,365.0,97.0,18.3,7,5,7,1,2026-07-24T09:46:37.978719+05:30
Ghaziabad,Uttar Pradesh,28.6692,77.4538,28.9,79,0.0,976.7,6.5,39.2,81,25.0,25.0,6.1,293.0,112.0,12.0,7,5,7,1,2026-07-24T09:46:37.978725+05:30
Faridabad,Haryana,28.4089,77.3178,28.3,80,0.0,977.4,5.95,34.9,101,21.2,21.2,12.9,332.0,97.0,18.3,7,5,3,1,2026-07-24T09:46:37.978731+05:30
Meerut,Uttar Pradesh,28.9845,77.7064,29.0,78,0.0,975.9,6.15,42.8,81,25.0,25.0,6.1,313.0,112.0,12.0,7,5,7,1,2026-07-24T09:46:37.978743+05:30
Agra,Uttar Pradesh,27.1767,78.0081,29.9,77,0.1,981.2,6.55,32.0,88,12.8,12.4,7.4,236.0,82.0,6.5,10,5,7,1,2026-07-24T09:46:37.978750+05:30
Varanasi,Uttar Pradesh,25.3176,82.9739,29.1,81,0.0,993.5,8.15,22.7,78,14.8,13.2,6.9,551.0,78.0,13.3,7,5,7,1,2026-07-24T09:46:37.978756+05:30
Prayagraj,Uttar Pradesh,25.4358,81.8463,29.7,75,0.0,991.4,8.35,19.1,66,14.6,13.2,7.4,212.0,68.0,8.6,7,5,7,1,2026-07-24T09:46:37.978762+05:30
Gorakhpur,Uttar Pradesh,26.7606,83.3732,29.8,76,0.0,993.3,6.6,27.7,82,16.2,16.1,4.5,301.0,111.0,8.5,7,5,7,1,2026-07-24T09:46:37.978769+05:30
Bareilly,Uttar Pradesh,28.367,79.4304,29.2,79,0.0,981.8,6.75,39.6,78,21.7,21.6,4.8,275.0,114.0,9.4,7,5,7,1,2026-07-24T09:46:37.978777+05:30
Aligarh,Uttar Pradesh,27.8974,78.088,28.3,83,0.0,979.3,6.95,34.6,87,12.7,12.6,7.2,222.0,82.0,10.7,7,5,7,1,2026-07-24T09:46:37.978783+05:30
Moradabad,Uttar Pradesh,28.8386,78.7733,29.5,73,0.1,978.4,6.5,47.9,73,23.1,23.1,4.8,311.0,120.0,9.8,10,5,7,1,2026-07-24T09:46:37.978789+05:30
Saharanpur,Uttar Pradesh,29.9637,77.546,29.8,74,0.0,970.8,7.05,46.4,75,23.2,23.1,3.5,282.0,126.0,6.7,7,5,7,1,2026-07-24T09:46:37.978795+05:30
Jhansi,Uttar Pradesh,25.4484,78.5685,29.3,71,0.0,972.0,6.95,35.3,63,6.3,5.5,3.6,158.0,62.0,7.5,7,5,7,1,2026-07-24T09:46:41.327646+05:30
Surat,Gujarat,21.1702,72.8311,29.3,77,0.0,1000.3,6.3,59.4,60,29.7,16.9,14.0,321.0,28.0,29.7,7,5,4,1,2026-07-24T09:46:41.327682+05:30
Vadodara,Gujarat,22.3072,73.1812,26.2,93,0.1,997.1,5.7,51.5,47,10.0,6.4,9.3,189.0,30.0,3.1,10,5,3,1,2026-07-24T09:46:41.327693+05:30
Rajkot,Gujarat,22.3039,70.8022,25.6,93,0.0,986.5,1.25,60.1,53,16.5,8.4,5.7,127.0,40.0,3.5,7,5,3,1,2026-07-24T09:46:41.327700+05:30
Thane,Maharashtra,19.2183,72.9781,27.0,91,0.1,1004.0,7.75,51.5,60,39.3,15.8,6.3,205.0,45.0,5.5,10,5,4,1,2026-07-24T09:46:41.327708+05:30
Nagpur,Maharashtra,21.1458,79.0882,28.0,73,0.0,969.8,7.4,51.1,58,7.8,6.3,7.5,160.0,42.0,13.8,7,5,7,1,2026-07-24T09:46:41.327716+05:30
Nashik,Maharashtra,19.9975,73.7898,24.2,85,0.4,940.6,4.2,65.5,17,6.8,3.4,4.6,138.0,40.0,3.2,6,5,3,1,2026-07-24T09:46:41.327723+05:30
Aurangabad,Maharashtra,19.8762,75.3433,26.6,73,0.0,939.7,7.95,63.7,19,5.7,3.5,2.4,142.0,49.0,4.1,7,5,7,1,2026-07-24T09:46:41.327730+05:30
Solapur,Maharashtra,17.6599,75.9064,28.1,65,0.0,955.3,5.35,69.5,58,9.3,4.7,1.7,106.0,47.0,1.6,7,5,3,1,2026-07-24T09:46:41.327738+05:30
Kolhapur,Maharashtra,16.705,74.2433,24.2,85,0.1,946.8,8.85,70.9,56,9.5,5.9,2.5,132.0,41.0,1.5,6,5,7,1,2026-07-24T09:46:41.327745+05:30
Goa,Goa,15.2993,74.124,25.3,96,0.3,998.8,8.7,50.0,95,36.6,16.3,1.6,169.0,41.0,0.8,10,5,7,1,2026-07-24T09:46:41.327751+05:30
Jodhpur,Rajasthan,26.2389,73.0243,30.4,75,0.0,974.3,8.1,24.8,61,21.2,18.5,4.8,267.0,109.0,4.6,3,5,7,1,2026-07-24T09:46:41.327759+05:30
Udaipur,Rajasthan,24.5854,73.7125,27.4,77,0.0,938.1,5.1,24.1,55,11.3,11.0,3.6,198.0,83.0,4.8,7,5,3,1,2026-07-24T09:46:41.327766+05:30
Kota,Rajasthan,25.2138,75.8648,29.0,74,0.0,971.0,8.2,46.1,68,6.9,6.5,5.8,268.0,48.0,9.6,7,5,7,1,2026-07-24T09:46:41.327774+05:30
Bikaner,Rajasthan,28.0229,73.3119,31.6,68,0.1,974.2,8.2,26.3,73,31.8,29.9,3.7,300.0,120.0,7.2,6,5,7,1,2026-07-24T09:46:41.327780+05:30
Ajmer,Rajasthan,26.4499,74.6399,28.1,78,0.0,947.0,8.2,32.4,66,15.5,15.1,4.7,291.0,86.0,7.7,7,5,7,1,2026-07-24T09:46:41.327787+05:30
Gwalior,Madhya Pradesh,26.2183,78.1828,29.6,73,0.0,976.7,7.85,28.8,73,10.0,9.4,4.0,176.0,68.0,4.4,7,5,7,1,2026-07-24T09:46:41.327794+05:30
Indore,Madhya Pradesh,22.7196,75.8577,26.5,76,0.0,941.7,5.9,52.9,27,6.1,4.9,7.9,204.0,35.0,6.7,7,5,3,1,2026-07-24T09:46:41.327801+05:30
Bhopal,Madhya Pradesh,23.2599,77.4126,26.2,80,0.0,948.2,8.45,41.0,35,4.9,3.8,4.8,176.0,43.0,4.7,7,5,7,1,2026-07-24T09:46:41.327808+05:30
Jabalpur,Madhya Pradesh,23.1815,79.9864,28.6,68,0.0,957.0,7.0,32.0,53,10.9,8.6,5.5,155.0,44.0,6.5,7,5,7,1,2026-07-24T09:46:41.327815+05:30
Ujjain,Madhya Pradesh,23.1765,75.7885,25.7,79,0.0,947.1,5.6,51.1,29,5.3,4.3,5.4,163.0,38.0,6.0,7,5,3,1,2026-07-24T09:46:41.327823+05:30
Visakhapatnam,Andhra Pradesh,17.6868,83.2185,29.6,75,0.0,1001.6,8.0,45.0,72,40.0,27.2,12.7,298.0,91.0,33.9,7,5,4,1,2026-07-24T09:46:41.327830+05:30
Vijayawada,Andhra Pradesh,16.5062,80.648,30.9,60,0.0,1001.5,5.25,45.4,68,57.7,27.8,7.4,167.0,55.0,6.9,0,5,0,1,2026-07-24T09:46:41.327836+05:30
Guntur,Andhra Pradesh,16.3067,80.4365,30.2,60,0.0,1002.9,4.85,44.6,69,61.9,27.8,6.9,133.0,48.0,6.7,0,5,0,1,2026-07-24T09:46:41.327844+05:30
Nellore,Andhra Pradesh,14.4426,79.9865,31.8,56,0.0,1005.4,7.6,42.8,68,30.5,14.9,3.4,120.0,70.0,4.7,0,5,4,1,2026-07-24T09:46:41.327851+05:30
Kurnool,Andhra Pradesh,15.8281,78.0373,27.6,69,0.0,976.7,7.5,58.7,65,37.1,16.8,2.2,111.0,56.0,3.3,7,5,7,1,2026-07-24T09:46:41.327859+05:30
Kakinada,Andhra Pradesh,16.9891,82.2475,32.6,55,0.0,1005.7,8.85,52.6,65,40.6,24.3,3.6,202.0,96.0,6.7,0,5,4,1,2026-07-24T09:46:41.327867+05:30
Tirupati,Andhra Pradesh,13.6288,79.4192,31.6,53,0.0,990.8,6.5,36.4,66,15.3,9.4,4.0,131.0,67.0,2.2,0,5,7,1,2026-07-24T09:46:41.327873+05:30
Warangal,Telangana,17.9689,79.5941,28.9,67,0.1,977.2,3.8,47.2,73,17.9,10.6,2.9,146.0,51.0,3.4,10,5,3,1,2026-07-24T09:46:41.327880+05:30
Nizamabad,Telangana,18.6725,78.0941,28.2,67,0.0,962.6,6.4,52.2,63,10.1,5.7,2.0,126.0,50.0,2.4,7,5,7,1,2026-07-24T09:46:41.327887+05:30
Mysore,Karnataka,12.2958,76.6396,26.5,61,0.0,930.0,7.2,46.4,29,30.4,11.1,3.0,127.0,55.0,1.6,7,5,7,1,2026-07-24T09:46:41.327893+05:30
Mangalore,Karnataka,12.9141,74.856,27.6,81,0.1,1008.7,8.65,42.1,52,30.6,13.1,3.3,143.0,46.0,2.2,10,0,4,1,2026-07-24T09:46:41.327900+05:30
Hubli-Dharwad,Karnataka,15.3647,75.124,24.4,80,0.0,940.8,8.95,62.6,63,40.4,17.4,2.8,111.0,45.0,1.0,3,5,7,1,2026-07-24T09:46:41.327907+05:30
Belgaum,Karnataka,15.8497,74.4977,22.7,88,0.1,925.1,8.9,67.3,61,9.3,5.2,2.9,124.0,37.0,1.4,6,5,7,1,2026-07-24T09:46:44.682732+05:30
Coimbatore,Tamil Nadu,11.0168,76.9558,28.5,64,0.0,963.0,8.8,49.0,39,10.9,6.3,2.6,194.0,53.0,2.6,7,5,7,1,2026-07-24T09:46:44.682769+05:30
Madurai,Tamil Nadu,9.9252,78.1198,33.2,43,0.0,993.6,8.85,25.9,65,19.2,12.7,6.5,158.0,75.0,5.6,0,5,7,1,2026-07-24T09:46:44.682781+05:30
Trichy,Tamil Nadu,10.7905,78.7047,32.8,48,0.0,999.8,8.75,45.0,52,9.5,6.0,2.7,125.0,49.0,3.2,0,5,7,1,2026-07-24T09:46:44.682789+05:30
Salem,Tamil Nadu,11.6643,78.146,29.5,63,0.0,978.4,8.0,41.0,63,22.4,15.0,7.7,191.0,69.0,13.1,7,5,7,1,2026-07-24T09:46:44.682797+05:30
Tirunelveli,Tamil Nadu,8.7139,77.7567,34.2,41,0.0,1003.9,8.75,50.0,41,9.3,5.3,2.0,143.0,51.0,1.5,0,5,4,1,2026-07-24T09:46:44.682805+05:30
Vellore,Tamil Nadu,12.9165,79.1325,31.1,54,0.0,984.4,6.85,38.2,76,15.3,9.3,2.9,138.0,64.0,3.6,0,5,7,1,2026-07-24T09:46:44.682813+05:30
Erode,Tamil Nadu,11.341,77.7172,31.3,52,0.0,990.0,8.35,38.5,53,14.1,9.5,5.0,189.0,56.0,3.8,0,5,7,1,2026-07-24T09:46:44.682820+05:30
Kochi,Kerala,9.9312,76.2673,28.6,76,0.0,1011.0,8.25,27.7,56,10.9,8.3,7.1,186.0,54.0,5.6,7,0,4,1,2026-07-24T09:46:44.682827+05:30
Thiruvananthapuram,Kerala,8.5241,76.9366,28.4,74,0.0,1010.2,8.55,42.5,51,12.3,9.1,4.5,187.0,58.0,4.0,7,0,4,1,2026-07-24T09:46:44.682834+05:30
Kozhikode,Kerala,11.2588,75.7804,27.2,79,0.1,1010.2,8.5,33.8,37,11.6,6.0,1.7,212.0,51.0,2.1,10,0,4,1,2026-07-24T09:46:44.682840+05:30
Thrissur,Kerala,10.5276,76.2144,28.4,75,0.1,1009.4,8.6,33.8,53,12.0,9.2,4.5,208.0,56.0,3.7,10,0,4,1,2026-07-24T09:46:44.682847+05:30
Kannur,Kerala,11.8745,75.3704,25.9,88,0.0,1009.5,8.4,34.9,42,18.3,8.9,4.8,182.0,44.0,2.3,7,0,4,1,2026-07-24T09:46:44.682854+05:30
Patna,Bihar,25.5941,85.1376,29.1,82,0.0,996.3,6.85,28.8,85,17.0,16.9,7.5,268.0,102.0,14.7,7,5,7,1,2026-07-24T09:46:44.682861+05:30
Gaya,Bihar,24.7914,85.0002,29.7,75,0.1,989.7,7.55,28.8,81,15.0,14.4,6.6,172.0,85.0,14.0,10,5,7,1,2026-07-24T09:46:44.682868+05:30
Muzaffarpur,Bihar,26.1209,85.3647,29.5,80,0.0,996.5,6.35,29.2,87,16.7,16.6,6.7,285.0,96.0,9.9,7,5,7,1,2026-07-24T09:46:44.682875+05:30
Bhagalpur,Bihar,25.2425,87.0117,30.3,74,0.1,996.8,6.5,29.9,72,17.0,16.8,10.9,295.0,84.0,32.2,6,5,7,1,2026-07-24T09:46:44.682882+05:30
Ranchi,Jharkhand,23.3441,85.3096,26.5,75,0.0,934.2,6.1,27.4,55,15.0,12.2,6.7,161.0,59.0,14.8,7,5,7,1,2026-07-24T09:46:44.682889+05:30
Jamshedpur,Jharkhand,22.8046,86.2029,29.4,72,0.0,986.8,8.45,33.8,63,23.9,18.7,9.9,290.0,70.0,23.5,7,5,7,1,2026-07-24T09:46:44.682896+05:30
Dhanbad,Jharkhand,23.7957,86.4304,29.0,76,0.0,975.6,7.45,22.3,82,27.2,25.6,20.9,207.0,60.0,59.2,7,5,7,1,2026-07-24T09:46:44.682902+05:30
Bokaro,Jharkhand,23.6693,86.1511,29.6,72,0.0,979.4,7.6,25.6,69,24.2,22.1,16.4,228.0,68.0,58.5,7,5,7,1,2026-07-24T09:46:44.682909+05:30
Bhubaneswar,Odisha,20.2961,85.8245,31.0,67,0.0,999.3,7.85,38.9,69,37.3,24.4,7.5,278.0,80.0,10.4,3,5,7,1,2026-07-24T09:46:44.682916+05:30
Cuttack,Odisha,20.4625,85.8828,30.7,69,0.0,1001.0,8.1,43.2,69,37.3,24.4,7.5,268.0,80.0,10.4,3,5,4,1,2026-07-24T09:46:44.682922+05:30
Rourkela,Odisha,22.2604,84.8536,25.9,91,0.1,982.0,5.05,38.5,61,35.6,23.8,7.5,254.0,73.0,15.2,10,5,3,1,2026-07-24T09:46:44.682928+05:30
Raipur,Chhattisgarh,21.2514,81.6296,28.8,67,0.0,971.3,6.1,46.1,74,22.2,17.8,12.4,279.0,47.0,32.8,7,5,7,1,2026-07-24T09:46:44.682934+05:30
Bhilai,Chhattisgarh,21.1938,81.3509,28.3,69,0.1,971.8,5.6,54.4,72,20.5,16.6,11.1,474.0,48.0,29.9,10,5,3,1,2026-07-24T09:46:44.682940+05:30
Guwahati,Assam,26.1158,91.7086,29.7,78,0.0,997.9,8.5,20.5,52,10.5,9.9,2.0,221.0,94.0,3.4,7,5,7,1,2026-07-24T09:46:44.682946+05:30
Agartala,Tripura,23.8315,91.2868,29.4,74,0.1,1002.5,7.9,34.6,47,8.9,6.6,3.4,145.0,76.0,2.0,10,5,4,1,2026-07-24T09:46:44.682952+05:30
Shillong,Meghalaya,25.5788,91.8933,23.9,72,0.2,856.3,8.05,23.4,27,3.5,3.0,1.9,185.0,76.0,1.9,6,5,7,1,2026-07-24T09:46:44.682959+05:30
Imphal,Manipur,24.817,93.9368,27.0,72,0.0,921.1,8.5,21.2,39,3.8,3.1,1.3,154.0,75.0,1.2,7,5,7,1,2026-07-24T09:46:44.682966+05:30
Aizawl,Mizoram,23.7271,92.7176,24.7,66,0.1,890.8,8.75,27.7,22,3.1,2.2,0.8,118.0,68.0,0.9,6,5,7,1,2026-07-24T09:46:44.682972+05:30
Kohima,Nagaland,25.6701,94.1077,23.9,78,0.1,854.4,8.5,21.6,23,3.8,3.1,0.8,132.0,79.0,0.9,6,5,7,1,2026-07-24T09:46:44.682978+05:30
Gangtok,Sikkim,27.3314,88.6138,22.1,82,0.0,837.4,7.65,31.7,34,4.6,4.5,1.2,174.0,91.0,1.5,3,5,7,1,2026-07-24T09:46:44.682985+05:30
Siliguri,West Bengal,26.7271,88.3953,29.4,79,0.0,989.7,7.95,26.3,61,10.9,10.3,2.4,310.0,102.0,2.8,7,5,7,1,2026-07-24T09:46:48.022259+05:30
Durgapur,West Bengal,23.5204,87.3119,28.8,78,0.0,990.5,5.25,25.6,87,27.4,26.4,24.6,325.0,54.0,63.9,7,5,3,1,2026-07-24T09:46:48.022296+05:30
Asansol,West Bengal,23.6739,86.9524,27.4,89,0.0,989.1,6.35,31.0,77,27.3,26.1,23.4,779.0,52.0,55.1,7,5,7,1,2026-07-24T09:46:48.022308+05:30
Pondicherry,Puducherry,11.9139,79.8145,32.6,52,0.0,1008.3,7.65,42.5,66,18.9,14.2,9.9,189.0,60.0,9.0,0,0,4,1,2026-07-24T09:46:48.022318+05:30
Port Blair,Andaman and Nicobar Islands,11.6234,92.7265,30.6,68,0.0,1007.6,5.3,46.4,38,14.8,8.7,0.4,95.0,48.0,0.5,3,5,0,1,2026-07-24T09:46:48.022327+05:30
Haridwar,Uttarakhand,29.9457,78.1642,30.6,69,0.1,969.3,6.25,38.5,74,18.9,18.7,1.9,220.0,128.0,5.9,6,5,7,1,2026-07-24T09:46:48.022338+05:30
Rishikesh,Uttarakhand,30.0869,78.2676,29.6,73,0.0,962.1,6.45,25.9,57,13.1,12.9,1.7,228.0,121.0,3.6,7,5,7,1,2026-07-24T09:46:48.022346+05:30
Nainital,Uttarakhand,29.3919,79.4542,21.5,70,0.0,805.0,7.8,42.8,54,12.4,12.3,1.4,171.0,109.0,2.6,3,5,7,0,2026-07-24T09:46:48.022353+05:30
Mussoorie,Uttarakhand,30.4599,78.0664,22.1,71,0.0,802.8,7.25,31.7,63,12.0,11.8,1.9,180.0,136.0,5.0,3,5,7,1,2026-07-24T09:46:48.022361+05:30
Dharamshala,Himachal Pradesh,32.219,76.3234,23.2,89,0.0,866.8,6.4,33.5,42,6.2,5.9,1.3,216.0,80.0,0.9,3,5,7,1,2026-07-24T09:46:48.022370+05:30
Dalhousie,Himachal Pradesh,32.5387,75.971,19.7,86,0.0,803.5,8.6,34.9,84,27.7,27.0,11.0,203.0,113.0,2.9,3,10,7,1,2026-07-24T09:46:48.022380+05:30
Patiala,Punjab,30.3398,76.3869,30.0,75,0.0,972.9,7.5,37.4,80,26.4,26.3,5.5,320.0,126.0,10.4,7,5,7,1,2026-07-24T09:46:48.022389+05:30
Bhatinda,Punjab,30.211,74.9455,30.8,72,0.0,978.0,7.75,34.9,112,34.8,34.7,9.7,285.0,113.0,15.8,3,5,7,1,2026-07-24T09:46:48.022396+05:30
Rohtak,Haryana,28.8955,76.6066,29.2,77,0.1,975.5,5.95,35.6,92,28.3,28.3,12.2,339.0,119.0,22.3,10,5,3,1,2026-07-24T09:46:48.022404+05:30
Panipat,Haryana,29.3909,76.9635,29.5,76,0.0,974.7,6.7,41.0,84,28.6,28.6,7.8,325.0,122.0,17.0,7,5,7,1,2026-07-24T09:46:48.022410+05:30
Mathura,Uttar Pradesh,27.4924,77.6737,29.3,77,0.1,980.2,6.6,32.0,85,11.6,11.4,7.1,252.0,82.0,5.9,10,5,7,1,2026-07-24T09:46:48.022417+05:30
Vrindavan,Uttar Pradesh,27.5823,77.7027,29.3,78,0.1,980.7,6.35,31.0,85,11.6,11.4,7.1,249.0,82.0,5.9,10,5,7,1,2026-07-24T09:46:48.022424+05:30
Ayodhya,Uttar Pradesh,26.7922,82.1998,29.8,77,0.0,991.0,6.2,28.8,89,14.6,14.3,5.3,259.0,88.0,8.9,7,5,7,1,2026-07-24T09:46:48.022431+05:30
Ratlam,Madhya Pradesh,23.3315,75.0367,23.5,94,0.4,946.6,7.8,50.8,24,4.7,3.6,4.6,120.0,40.0,5.4,6,5,7,1,2026-07-24T09:46:48.022438+05:30
Sagar,Madhya Pradesh,23.8388,78.7378,27.8,69,0.0,945.2,7.7,35.3,35,6.2,4.6,5.2,126.0,41.0,6.3,7,5,7,1,2026-07-24T09:46:48.022446+05:30
Satna,Madhya Pradesh,24.6005,80.8322,29.5,68,0.0,966.7,7.35,30.2,46,11.1,8.9,3.2,158.0,66.0,6.9,7,5,7,1,2026-07-24T09:46:48.022453+05:30
Akola,Maharashtra,20.7002,77.0082,29.0,68,0.0,971.0,8.05,50.4,41,10.4,6.0,4.6,123.0,44.0,4.9,7,5,7,1,2026-07-24T09:46:48.022462+05:30
Amravati,Maharashtra,20.9374,77.7796,27.8,72,0.1,963.7,7.85,47.2,48,10.9,6.2,4.9,126.0,42.0,4.8,10,5,7,1,2026-07-24T09:46:48.022469+05:30
Latur,Maharashtra,18.4088,76.5604,27.2,68,0.0,937.3,7.7,62.6,54,6.8,3.7,1.6,111.0,45.0,1.3,7,5,7,1,2026-07-24T09:46:48.022477+05:30
Nanded,Maharashtra,19.1383,77.3091,28.6,67,0.1,965.9,7.75,52.2,57,9.6,5.5,2.4,124.0,51.0,3.5,10,5,7,1,2026-07-24T09:46:48.022483+05:30
Gulbarga,Karnataka,17.3297,76.8343,28.0,66,0.0,957.3,7.2,64.1,62,8.1,4.4,2.3,110.0,49.0,2.3,7,5,7,1,2026-07-24T09:46:48.022490+05:30
Bidar,Karnataka,17.9104,77.5199,27.1,66,0.0,933.7,6.2,61.2,62,6.9,4.3,2.8,114.0,48.0,2.1,7,5,7,1,2026-07-24T09:46:48.022497+05:30
Hospet,Karnataka,15.2689,76.3909,26.5,71,0.0,955.9,8.9,63.7,58,49.8,20.3,2.5,108.0,51.0,1.6,7,5,7,1,2026-07-24T09:46:48.022503+05:30
Tirupur,Tamil Nadu,11.1085,77.3411,30.2,55,0.0,976.4,8.65,47.9,56,15.5,10.6,5.2,183.0,60.0,4.5,0,5,7,1,2026-07-24T09:46:48.022509+05:30
Alappuzha,Kerala,9.4981,76.3388,28.4,75,0.0,1011.1,8.6,29.9,56,12.5,9.3,6.2,117.0,57.0,6.0,7,0,4,1,2026-07-24T09:46:48.022533+05:30
Munnar,Kerala,10.0889,77.0595,20.1,77,0.0,859.0,9.0,37.1,37,7.8,4.2,1.3,94.0,49.0,1.1,3,5,7,0,2026-07-24T09:46:48.022541+05:30
Silchar,Assam,24.8333,92.7789,30.1,75,0.0,1001.9,8.8,23.0,52,7.8,6.2,1.3,183.0,82.0,3.0,3,5,4,1,2026-07-24T09:46:48.022548+05:30
Dibrugarh,Assam,27.4728,94.912,30.2,75,0.1,991.5,6.15,21.6,54,7.5,7.2,1.5,164.0,94.0,1.4,6,5,7,1,2026-07-24T09:46:48.022555+05:30
