city,state,latitude,longitude,temp,humidity,rain,pressure,uv_index,wind_gusts,aqi,pm10,pm2_5,no2,co,o3,so2,mosquito_risk,arthritis_risk,migraine_risk,frizz_risk,updated_at
Delhi,Delhi,28.6139,77.209,31.1,30,0.0,978.8,7.7,47.9,501,732.0,174.2,30.0,509.0,52.0,14.8,0,5,7,0,2026-05-17T02:22:54.859503+05:30
Mumbai,Maharashtra,19.076,72.8777,29.0,82,0.0,1004.9,7.85,46.4,59,36.4,14.7,6.2,163.0,51.0,3.6,7,5,4,1,2026-05-17T02:22:54.859544+05:30
Bangalore,Karnataka,12.9716,77.5946,22.2,91,0.0,907.9,9.35,43.6,156,134.1,99.7,87.9,561.0,18.0,25.6,3,5,7,1,2026-05-17T02:22:54.859562+05:30
Hyderabad,Telangana,17.385,78.4867,29.0,55,0.0,949.3,9.3,27.0,126,27.0,19.3,10.8,307.0,61.0,4.1,4,5,7,1,2026-05-17T02:22:54.859573+05:30
Chennai,Tamil Nadu,13.0827,80.2707,28.6,82,0.0,1002.9,9.15,39.2,37,14.0,10.9,9.9,228.0,74.0,7.1,7,5,4,1,2026-05-17T02:22:54.859582+05:30
Kolkata,West Bengal,22.5726,88.3639,28.1,91,0.0,1001.9,8.95,34.2,57,18.6,12.3,6.7,191.0,41.0,4.0,7,5,4,1,2026-05-17T02:22:54.859612+05:30
Pune,Maharashtra,18.5204,73.8567,26.9,77,0.0,944.7,8.5,43.2,68,34.8,24.5,20.7,219.0,61.0,22.4,7,5,7,1,2026-05-17T02:22:54.859620+05:30
Ahmedabad,Gujarat,23.0225,72.5714,32.3,47,0.0,998.0,8.15,31.3,61,28.6,15.8,7.9,191.0,52.0,3.7,0,5,7,1,2026-05-17T02:22:54.859627+05:30
Jaipur,Rajasthan,26.9124,75.7873,29.9,30,0.0,956.3,8.25,33.5,161,198.4,52.5,16.5,296.0,54.0,7.7,4,5,7,0,2026-05-17T02:22:54.859638+05:30
Lucknow,Uttar Pradesh,26.8467,80.9462,29.9,45,0.0,988.5,8.2,45.4,154,232.4,74.3,29.7,362.0,51.0,14.3,4,5,7,1,2026-05-17T02:22:54.859646+05:30
Kanpur,Uttar Pradesh,26.4499,80.3319,30.8,38,0.0,987.1,8.2,42.8,154,310.1,83.1,30.6,403.0,42.0,13.1,0,5,7,0,2026-05-17T02:22:54.859653+05:30
Chandigarh,Chandigarh,30.7333,76.7794,25.4,45,0.0,964.3,7.7,46.8,82,37.0,28.7,19.6,375.0,63.0,8.4,4,5,7,0,2026-05-17T02:22:54.859661+05:30
Srinagar,Jammu and Kashmir,34.0837,74.7973,11.4,100,0.0,840.3,8.9,16.2,84,48.9,44.9,35.3,689.0,24.0,1.9,3,10,7,0,2026-05-17T02:22:54.859668+05:30
Jammu,Jammu and Kashmir,32.7266,74.857,23.2,54,0.0,968.6,8.55,40.7,80,29.2,26.7,32.9,340.0,21.0,2.4,0,5,7,0,2026-05-17T02:22:54.859675+05:30
Amritsar,Punjab,31.634,74.8723,26.4,48,0.0,976.8,8.4,32.4,105,79.2,59.6,56.6,577.0,17.0,10.4,4,5,7,0,2026-05-17T02:22:54.859682+05:30
Ludhiana,Punjab,30.901,75.8573,26.8,47,0.0,974.7,8.0,38.2,107,64.0,39.9,16.0,540.0,69.0,7.9,4,5,7,0,2026-05-17T02:22:54.859689+05:30
Jalandhar,Punjab,31.326,75.5762,25.1,54,0.0,975.7,8.15,35.6,122,84.5,54.7,30.5,869.0,42.0,9.4,4,5,7,0,2026-05-17T02:22:54.859696+05:30
Dehradun,Uttarakhand,30.6284,78.0322,12.8,85,0.0,825.1,8.2,44.3,55,33.4,17.2,35.3,172.0,13.0,0.4,3,10,7,0,2026-05-17T02:22:54.859703+05:30
Shimla,Himachal Pradesh,31.1048,77.1734,12.8,55,0.0,781.0,8.25,52.6,66,43.0,21.7,23.5,211.0,48.0,1.6,0,5,7,0,2026-05-17T02:22:54.859713+05:30
Manali,Himachal Pradesh,32.2396,77.1887,6.7,67,0.0,810.9,9.65,33.8,47,9.2,7.1,30.4,285.0,100.0,0.0,3,5,7,0,2026-05-17T02:22:54.859720+05:30
Gurgaon,Haryana,28.4595,77.0266,28.6,37,0.0,977.1,7.8,46.4,713,827.0,173.2,36.2,576.0,43.0,18.4,4,5,7,0,2026-05-17T02:22:54.859727+05:30
Noida,Uttar Pradesh,28.5355,77.391,29.5,39,0.0,980.0,7.75,37.8,713,827.0,173.2,36.2,706.0,43.0,18.4,4,5,7,0,2026-05-17T02:22:54.859734+05:30
Ghaziabad,Uttar Pradesh,28.6692,77.4538,27.6,43,0.0,978.2,7.7,43.2,337,622.1,154.1,23.8,451.0,59.0,14.8,4,5,7,0,2026-05-17T02:22:54.859740+05:30
Faridabad,Haryana,28.4089,77.3178,31.4,29,0.0,979.4,7.75,47.9,713,827.0,173.2,36.2,585.0,43.0,18.4,0,5,7,0,2026-05-17T02:22:54.859759+05:30
Meerut,Uttar Pradesh,28.9845,77.7064,28.5,37,0.0,976.9,7.65,49.3,337,622.1,154.1,23.8,376.0,59.0,14.8,4,5,7,0,2026-05-17T02:22:54.859767+05:30
Agra,Uttar Pradesh,27.1767,78.0081,30.5,35,0.0,983.2,8.05,39.2,458,644.5,125.7,19.9,353.0,53.0,10.9,0,5,7,0,2026-05-17T02:22:54.859773+05:30
Varanasi,Uttar Pradesh,25.3176,82.9739,30.8,42,0.0,992.4,8.7,49.7,157,198.8,92.0,62.8,646.0,30.0,22.0,0,5,7,1,2026-05-17T02:22:54.859781+05:30
Prayagraj,Uttar Pradesh,25.4358,81.8463,30.8,45,0.0,991.1,8.6,39.6,154,160.2,74.3,54.0,441.0,23.0,16.3,0,5,7,1,2026-05-17T02:22:54.859788+05:30
Gorakhpur,Uttar Pradesh,26.7606,83.3732,25.6,83,0.0,992.0,8.6,40.0,147,114.8,75.0,46.2,613.0,29.0,13.5,7,5,7,1,2026-05-17T02:22:54.859797+05:30
Bareilly,Uttar Pradesh,28.367,79.4304,25.8,54,0.0,981.8,8.0,43.2,138,97.3,57.0,26.3,383.0,57.0,12.2,4,5,7,0,2026-05-17T02:22:54.859803+05:30
Aligarh,Uttar Pradesh,27.8974,78.088,27.2,40,0.0,980.8,7.85,44.6,398,832.6,164.4,29.7,477.0,42.0,16.5,4,5,7,0,2026-05-17T02:22:54.859810+05:30
Moradabad,Uttar Pradesh,28.8386,78.7733,26.9,42,0.0,978.9,7.85,48.6,154,203.0,86.8,39.9,420.0,26.0,11.2,4,5,7,0,2026-05-17T02:22:54.859817+05:30
Saharanpur,Uttar Pradesh,29.9637,77.546,27.0,44,0.0,971.1,7.35,51.5,127,60.5,34.7,18.7,357.0,77.0,10.3,4,5,7,0,2026-05-17T02:22:54.859823+05:30
Jhansi,Uttar Pradesh,25.4484,78.5685,31.3,34,0.0,973.7,8.5,32.4,91,98.0,37.5,11.5,254.0,68.0,7.2,0,5,7,0,2026-05-17T02:22:58.236531+05:30
Surat,Gujarat,21.1702,72.8311,29.2,86,0.0,1002.5,7.75,40.0,86,28.7,18.9,28.1,329.0,27.0,42.5,7,5,4,1,2026-05-17T02:22:58.236562+05:30
Vadodara,Gujarat,22.3072,73.1812,30.9,60,0.0,1000.0,8.1,30.6,71,40.6,26.5,24.7,215.0,31.0,15.4,0,5,4,1,2026-05-17T02:22:58.236572+05:30
Rajkot,Gujarat,22.3039,70.8022,26.9,87,0.0,991.3,7.55,39.6,53,22.9,9.4,7.4,131.0,39.0,4.6,7,5,7,1,2026-05-17T02:22:58.236581+05:30
Thane,Maharashtra,19.2183,72.9781,28.5,86,0.0,1004.3,7.8,40.7,59,36.4,14.7,6.2,151.0,51.0,3.6,7,5,4,1,2026-05-17T02:22:58.236611+05:30
Nagpur,Maharashtra,21.1458,79.0882,32.0,46,0.0,969.3,9.0,31.7,116,56.6,47.5,20.3,248.0,87.0,25.3,0,5,7,1,2026-05-17T02:22:58.236622+05:30
Nashik,Maharashtra,19.9975,73.7898,26.5,46,0.0,942.2,8.2,40.0,56,40.5,21.4,16.6,259.0,43.0,3.5,4,5,7,0,2026-05-17T02:22:58.236630+05:30
Aurangabad,Maharashtra,19.8762,75.3433,31.1,27,0.0,940.6,9.1,33.5,55,30.9,18.6,8.3,189.0,90.0,5.6,0,5,7,0,2026-05-17T02:22:58.236638+05:30
Solapur,Maharashtra,17.6599,75.9064,30.0,45,0.0,953.0,9.1,36.4,72,39.2,34.0,34.8,348.0,41.0,9.5,4,5,7,1,2026-05-17T02:22:58.236645+05:30
Kolhapur,Maharashtra,16.705,74.2433,24.7,94,0.0,944.5,8.95,45.0,68,20.7,15.7,9.6,174.0,55.0,4.8,3,5,7,1,2026-05-17T02:22:58.236653+05:30
Goa,Goa,15.2993,74.124,28.5,85,0.0,994.1,8.9,35.3,63,34.8,20.6,6.3,285.0,44.0,1.5,7,5,7,1,2026-05-17T02:22:58.236661+05:30
Jodhpur,Rajasthan,26.2389,73.0243,33.2,29,0.0,979.2,8.45,32.4,111,142.0,31.8,7.0,209.0,63.0,3.5,0,5,7,0,2026-05-17T02:22:58.236669+05:30
Udaipur,Rajasthan,24.5854,73.7125,30.5,33,0.0,943.3,8.85,29.9,57,37.6,17.1,5.4,183.0,50.0,2.9,0,5,7,0,2026-05-17T02:22:58.236677+05:30
Kota,Rajasthan,25.2138,75.8648,31.6,30,0.0,974.7,8.4,30.2,74,97.3,36.7,13.7,288.0,52.0,4.7,0,5,7,0,2026-05-17T02:22:58.236684+05:30
Bikaner,Rajasthan,28.0229,73.3119,31.0,27,0.0,977.8,8.4,34.2,102,104.8,32.5,4.6,292.0,49.0,1.8,0,5,7,0,2026-05-17T02:22:58.236691+05:30
Ajmer,Rajasthan,26.4499,74.6399,31.3,26,0.0,951.7,8.4,33.1,87,89.2,35.2,14.9,209.0,44.0,4.6,0,5,7,0,2026-05-17T02:22:58.236699+05:30
Gwalior,Madhya Pradesh,26.2183,78.1828,30.7,38,0.0,979.1,8.25,41.0,123,422.8,87.1,14.1,329.0,66.0,9.7,0,5,7,0,2026-05-17T02:22:58.236706+05:30
Indore,Madhya Pradesh,22.7196,75.8577,30.0,32,0.0,944.8,8.7,34.2,52,27.7,16.8,5.0,257.0,76.0,3.6,4,5,7,0,2026-05-17T02:22:58.236713+05:30
Bhopal,Madhya Pradesh,23.2599,77.4126,31.4,27,0.0,949.9,8.75,33.5,55,33.8,24.9,11.7,260.0,52.0,5.4,0,5,7,0,2026-05-17T02:22:58.236720+05:30
Jabalpur,Madhya Pradesh,23.1815,79.9864,31.1,43,0.0,957.6,8.9,33.1,109,63.1,41.4,35.6,248.0,44.0,9.2,0,5,7,1,2026-05-17T02:22:58.236728+05:30
Ujjain,Madhya Pradesh,23.1765,75.7885,29.6,33,0.0,950.1,8.65,40.3,53,30.6,17.9,3.6,245.0,77.0,3.2,4,5,7,0,2026-05-17T02:22:58.236735+05:30
Visakhapatnam,Andhra Pradesh,17.6868,83.2185,28.4,87,0.0,1000.4,8.65,41.0,60,16.6,13.0,20.8,267.0,46.0,35.4,7,5,4,1,2026-05-17T02:22:58.236743+05:30
Vijayawada,Andhra Pradesh,16.5062,80.648,29.0,84,0.0,998.8,9.2,36.7,46,13.5,11.7,9.0,196.0,53.0,5.5,7,5,7,1,2026-05-17T02:22:58.236750+05:30
Guntur,Andhra Pradesh,16.3067,80.4365,28.9,85,0.0,999.9,9.25,33.1,47,11.8,10.1,7.6,186.0,53.0,2.9,7,5,7,1,2026-05-17T02:22:58.236757+05:30
Nellore,Andhra Pradesh,14.4426,79.9865,28.4,87,0.0,1001.8,9.2,37.4,39,12.9,9.2,3.7,211.0,78.0,2.1,7,5,4,1,2026-05-17T02:22:58.236765+05:30
Kurnool,Andhra Pradesh,15.8281,78.0373,29.7,66,0.0,972.6,9.2,37.1,110,17.4,11.1,5.4,175.0,65.0,2.4,7,5,7,1,2026-05-17T02:22:58.236773+05:30
Kakinada,Andhra Pradesh,16.9891,82.2475,28.5,87,0.0,1003.9,9.15,41.4,32,8.8,5.8,2.0,246.0,71.0,1.5,7,5,4,1,2026-05-17T02:22:58.236781+05:30
Tirupati,Andhra Pradesh,13.6288,79.4192,27.0,85,0.0,987.3,9.2,29.9,52,20.1,17.6,28.3,317.0,29.0,14.9,7,5,7,1,2026-05-17T02:22:58.236788+05:30
Warangal,Telangana,17.9689,79.5941,29.0,67,0.0,974.6,9.05,28.8,88,20.4,17.3,10.9,240.0,59.0,8.5,7,5,7,1,2026-05-17T02:22:58.236795+05:30
Nizamabad,Telangana,18.6725,78.0941,29.5,55,0.0,960.6,9.1,34.6,91,50.2,41.4,20.1,314.0,64.0,7.4,4,5,7,1,2026-05-17T02:22:58.236801+05:30
Mysore,Karnataka,12.2958,76.6396,21.7,97,0.0,924.7,9.3,40.3,114,39.5,31.8,15.9,398.0,72.0,4.0,3,5,7,1,2026-05-17T02:22:58.236808+05:30
Mangalore,Karnataka,12.9141,74.856,25.5,99,0.0,1003.2,8.5,36.7,62,26.8,19.0,10.7,418.0,31.0,2.7,7,5,4,1,2026-05-17T02:22:58.236816+05:30
Hubli-Dharwad,Karnataka,15.3647,75.124,24.1,94,0.0,937.2,9.15,42.1,61,14.3,10.0,6.5,175.0,41.0,1.7,3,5,7,1,2026-05-17T02:22:58.236823+05:30
Belgaum,Karnataka,15.8497,74.4977,23.1,96,0.0,922.0,9.15,44.6,67,19.6,14.5,10.7,167.0,34.0,2.2,3,5,7,1,2026-05-17T02:23:01.629140+05:30
Coimbatore,Tamil Nadu,11.0168,76.9558,23.5,97,0.0,957.7,9.05,49.3,94,36.0,28.2,7.9,289.0,78.0,5.1,3,5,7,1,2026-05-17T02:23:01.629173+05:30
Madurai,Tamil Nadu,9.9252,78.1198,27.5,84,0.0,989.0,8.4,40.0,81,57.2,52.7,48.5,774.0,24.0,7.3,7,5,7,1,2026-05-17T02:23:01.629185+05:30
Trichy,Tamil Nadu,10.7905,78.7047,26.8,88,0.0,995.6,8.1,29.9,80,35.7,31.0,30.0,373.0,41.0,6.6,7,5,7,1,2026-05-17T02:23:01.629195+05:30
Salem,Tamil Nadu,11.6643,78.146,27.0,81,0.0,973.3,8.6,25.2,137,71.5,51.1,31.2,409.0,50.0,15.1,7,5,7,1,2026-05-17T02:23:01.629203+05:30
Tirunelveli,Tamil Nadu,8.7139,77.7567,27.5,76,0.0,998.9,8.75,29.9,53,11.5,10.2,7.4,323.0,61.0,1.8,7,5,7,1,2026-05-17T02:23:01.629212+05:30
Vellore,Tamil Nadu,12.9165,79.1325,26.6,88,0.0,980.4,8.75,25.9,75,26.7,24.5,19.0,362.0,42.0,6.0,7,5,7,1,2026-05-17T02:23:01.629220+05:30
Erode,Tamil Nadu,11.341,77.7172,26.2,85,0.0,984.9,8.55,31.7,112,70.3,51.0,57.6,367.0,17.0,7.2,7,5,7,1,2026-05-17T02:23:01.629228+05:30
Kochi,Kerala,9.9312,76.2673,26.0,94,0.0,1005.3,8.55,33.8,67,28.2,24.4,28.2,330.0,13.0,6.2,7,5,4,1,2026-05-17T02:23:01.629235+05:30
Thiruvananthapuram,Kerala,8.5241,76.9366,24.6,97,0.0,1004.8,8.5,33.8,47,18.9,12.6,5.9,281.0,86.0,3.4,3,5,4,1,2026-05-17T02:23:01.629243+05:30
Kozhikode,Kerala,11.2588,75.7804,24.2,100,0.0,1004.2,8.9,32.0,60,22.8,15.5,2.9,477.0,77.0,1.8,3,5,4,1,2026-05-17T02:23:01.629250+05:30
Thrissur,Kerala,10.5276,76.2144,24.5,100,0.0,1003.6,8.85,33.1,74,33.8,27.6,23.4,380.0,26.0,5.2,3,5,4,1,2026-05-17T02:23:01.629258+05:30
Kannur,Kerala,11.8745,75.3704,24.4,100,0.0,1003.4,8.6,37.4,63,26.8,22.6,16.3,416.0,37.0,2.9,3,5,4,1,2026-05-17T02:23:01.629266+05:30
Patna,Bihar,25.5941,85.1376,27.9,80,0.0,995.7,8.8,38.9,154,76.1,67.3,34.4,479.0,55.0,17.8,7,5,7,1,2026-05-17T02:23:01.629273+05:30
Gaya,Bihar,24.7914,85.0002,27.5,63,0.0,989.0,8.85,45.0,152,172.3,75.2,43.5,578.0,46.0,14.7,7,5,7,1,2026-05-17T02:23:01.629281+05:30
Muzaffarpur,Bihar,26.1209,85.3647,27.0,79,0.0,995.9,8.8,28.4,152,61.2,55.9,17.6,536.0,77.0,13.1,7,5,7,1,2026-05-17T02:23:01.629288+05:30
Bhagalpur,Bihar,25.2425,87.0117,27.1,84,0.0,996.2,8.8,25.2,144,54.5,49.9,15.9,436.0,76.0,12.7,7,5,7,1,2026-05-17T02:23:01.629296+05:30
Ranchi,Jharkhand,23.3441,85.3096,24.6,68,0.0,934.7,9.3,34.2,136,78.9,61.7,26.9,312.0,68.0,15.2,3,5,7,1,2026-05-17T02:23:01.629303+05:30
Jamshedpur,Jharkhand,22.8046,86.2029,27.8,75,0.0,987.1,9.1,24.8,128,36.6,30.3,15.4,305.0,69.0,19.9,7,5,7,1,2026-05-17T02:23:01.629310+05:30
Dhanbad,Jharkhand,23.7957,86.4304,27.1,74,0.0,975.6,9.05,33.5,161,86.6,72.9,64.3,1153.0,31.0,116.5,7,5,7,1,2026-05-17T02:23:01.629317+05:30
Bokaro,Jharkhand,23.6693,86.1511,28.0,57,0.0,979.5,9.05,34.9,158,122.9,84.1,64.3,875.0,17.0,76.1,4,5,7,1,2026-05-17T02:23:01.629325+05:30
Bhubaneswar,Odisha,20.2961,85.8245,28.3,90,0.0,999.3,9.15,40.0,42,12.0,8.0,4.9,168.0,48.0,2.0,7,5,7,1,2026-05-17T02:23:01.629332+05:30
Cuttack,Odisha,20.4625,85.8828,28.5,89,0.0,1001.1,9.2,42.8,42,12.0,8.0,4.9,182.0,48.0,2.0,7,5,4,1,2026-05-17T02:23:01.629339+05:30
Rourkela,Odisha,22.2604,84.8536,27.4,84,0.0,982.0,9.05,38.2,151,51.6,40.0,13.1,222.0,82.0,18.8,7,5,7,1,2026-05-17T02:23:01.629346+05:30
Raipur,Chhattisgarh,21.2514,81.6296,28.6,64,0.0,971.0,9.0,29.9,156,50.1,41.8,17.7,293.0,71.0,25.0,7,5,7,1,2026-05-17T02:23:01.629352+05:30
Bhilai,Chhattisgarh,21.1938,81.3509,28.3,69,0.0,971.5,9.05,30.2,156,51.7,43.1,23.2,346.0,69.0,38.7,7,5,7,1,2026-05-17T02:23:01.629359+05:30
Guwahati,Assam,26.1158,91.7086,22.2,98,0.2,998.9,8.75,30.6,63,21.2,17.2,6.7,334.0,81.0,2.9,6,5,7,1,2026-05-17T02:23:01.629367+05:30
Agartala,Tripura,23.8315,91.2868,25.8,95,0.0,1002.7,8.9,38.2,67,21.1,14.9,11.9,176.0,21.0,2.1,7,5,4,1,2026-05-17T02:23:01.629374+05:30
Shillong,Meghalaya,25.5788,91.8933,18.6,92,0.1,853.8,9.1,37.4,46,13.1,9.4,5.5,254.0,83.0,3.1,6,10,7,1,2026-05-17T02:23:01.629381+05:30
Imphal,Manipur,24.817,93.9368,20.4,100,0.0,920.5,9.0,36.4,77,16.6,13.3,13.1,356.0,43.0,2.6,3,5,7,1,2026-05-17T02:23:01.629388+05:30
Aizawl,Mizoram,23.7271,92.7176,20.0,86,0.0,890.1,9.05,34.2,54,6.8,4.3,3.9,152.0,54.0,2.1,3,5,7,1,2026-05-17T02:23:01.629396+05:30
Kohima,Nagaland,25.6701,94.1077,15.1,97,0.0,850.5,9.2,32.4,56,15.0,10.7,8.1,249.0,45.0,1.3,3,10,7,0,2026-05-17T02:23:01.629405+05:30
Gangtok,Sikkim,27.3314,88.6138,13.9,97,0.0,832.8,8.65,39.6,53,16.8,15.4,16.5,631.0,73.0,2.0,3,10,7,0,2026-05-17T02:23:01.629412+05:30
Siliguri,West Bengal,26.7271,88.3953,21.5,100,0.2,989.6,8.7,24.5,76,28.5,22.9,12.5,340.0,103.0,3.2,6,5,7,1,2026-05-17T02:23:05.017457+05:30
Durgapur,West Bengal,23.5204,87.3119,27.8,86,0.0,990.7,8.95,31.7,152,31.8,28.2,23.8,467.0,42.0,28.6,7,5,7,1,2026-05-17T02:23:05.017487+05:30
Asansol,West Bengal,23.6739,86.9524,27.6,88,0.0,989.3,9.0,32.4,152,44.8,39.6,32.1,291.0,49.0,43.9,7,5,7,1,2026-05-17T02:23:05.017498+05:30
Pondicherry,Puducherry,11.9139,79.8145,27.6,85,0.0,1004.0,8.75,43.6,67,22.8,16.9,10.2,354.0,86.0,8.9,7,5,4,1,2026-05-17T02:23:05.017507+05:30
Port Blair,Andaman and Nicobar Islands,11.6234,92.7265,25.4,93,0.5,1005.0,1.25,42.8,27,13.3,7.9,0.2,108.0,52.0,0.2,10,5,0,1,2026-05-17T02:23:05.017516+05:30
Haridwar,Uttarakhand,29.9457,78.1642,22.6,71,0.0,968.8,7.55,42.1,90,59.8,48.8,36.7,396.0,35.0,9.1,3,5,7,1,2026-05-17T02:23:05.017524+05:30
Rishikesh,Uttarakhand,30.0869,78.2676,20.0,79,0.0,961.3,7.65,35.6,80,57.0,38.9,20.8,345.0,76.0,6.6,3,5,7,1,2026-05-17T02:23:05.017532+05:30
Nainital,Uttarakhand,29.3919,79.4542,13.6,66,0.0,801.2,8.5,37.8,83,48.1,29.9,14.5,259.0,97.0,5.7,3,5,7,0,2026-05-17T02:23:05.017539+05:30
Mussoorie,Uttarakhand,30.4599,78.0664,15.6,57,0.0,799.8,8.05,54.0,81,61.0,43.2,47.6,219.0,29.0,7.7,0,5,7,0,2026-05-17T02:23:05.017547+05:30
Dharamshala,Himachal Pradesh,32.219,76.3234,20.1,44,0.0,866.3,8.4,45.7,48,16.3,12.1,15.0,206.0,34.0,0.2,0,5,7,0,2026-05-17T02:23:05.017554+05:30
Dalhousie,Himachal Pradesh,32.5387,75.971,11.1,73,0.0,799.3,8.65,38.9,68,35.2,26.9,44.4,313.0,12.0,1.7,3,5,7,0,2026-05-17T02:23:05.017562+05:30
Patiala,Punjab,30.3398,76.3869,27.0,44,0.0,974.0,7.6,46.8,377,590.5,105.5,11.7,509.0,77.0,7.3,4,5,7,0,2026-05-17T02:23:05.017569+05:30
Bhatinda,Punjab,30.211,74.9455,28.4,46,0.0,979.6,8.25,39.6,96,67.1,32.7,8.7,391.0,80.0,6.7,4,5,7,0,2026-05-17T02:23:05.017577+05:30
Rohtak,Haryana,28.8955,76.6066,27.4,42,0.0,977.4,7.75,44.6,589,789.8,164.8,24.2,384.0,53.0,7.7,4,5,7,0,2026-05-17T02:23:05.017584+05:30
Panipat,Haryana,29.3909,76.9635,27.5,41,0.0,975.7,7.6,54.4,1216,1367.2,241.2,13.9,381.0,71.0,7.3,4,5,7,0,2026-05-17T02:23:05.017612+05:30
Mathura,Uttar Pradesh,27.4924,77.6737,29.1,37,0.0,982.2,8.0,41.4,479,737.6,135.5,20.6,318.0,52.0,9.6,4,5,7,0,2026-05-17T02:23:05.017621+05:30
Vrindavan,Uttar Pradesh,27.5823,77.7027,28.0,41,0.0,982.5,7.95,39.6,479,737.6,135.5,20.6,330.0,52.0,9.6,4,5,7,0,2026-05-17T02:23:05.017627+05:30
Ayodhya,Uttar Pradesh,26.7922,82.1998,27.2,57,0.0,990.0,8.35,41.8,156,145.3,61.0,25.4,366.0,51.0,11.3,4,5,7,1,2026-05-17T02:23:05.017635+05:30
Ratlam,Madhya Pradesh,23.3315,75.0367,28.5,37,0.0,950.9,8.55,31.0,56,35.3,19.3,3.5,177.0,78.0,3.4,4,5,7,0,2026-05-17T02:23:05.017642+05:30
Sagar,Madhya Pradesh,23.8388,78.7378,30.6,32,0.0,946.3,8.75,37.8,74,38.6,21.2,22.8,241.0,45.0,4.3,0,5,7,0,2026-05-17T02:23:05.017648+05:30
Satna,Madhya Pradesh,24.6005,80.8322,29.6,37,0.0,967.1,8.8,46.4,113,88.7,35.7,24.1,423.0,65.0,5.2,4,5,7,0,2026-05-17T02:23:05.017655+05:30
Akola,Maharashtra,20.7002,77.0082,32.9,27,0.0,970.5,8.9,31.3,54,24.3,17.9,10.3,249.0,70.0,5.8,0,5,7,0,2026-05-17T02:23:05.017663+05:30
Amravati,Maharashtra,20.9374,77.7796,32.8,36,0.0,962.9,8.95,32.8,53,24.3,18.8,13.6,292.0,64.0,4.7,0,5,7,0,2026-05-17T02:23:05.017672+05:30
Latur,Maharashtra,18.4088,76.5604,28.8,50,0.0,936.2,9.1,36.7,63,38.1,26.3,26.6,533.0,73.0,13.7,4,5,7,1,2026-05-17T02:23:05.017679+05:30
Nanded,Maharashtra,19.1383,77.3091,29.4,45,0.0,964.2,9.05,34.6,72,35.4,28.8,28.0,698.0,43.0,7.0,4,5,7,1,2026-05-17T02:23:05.017686+05:30
Gulbarga,Karnataka,17.3297,76.8343,28.4,58,0.0,954.8,9.15,32.8,82,54.0,41.1,13.9,316.0,73.0,12.6,4,5,7,1,2026-05-17T02:23:05.017693+05:30
Bidar,Karnataka,17.9104,77.5199,27.2,61,0.0,931.8,9.15,37.1,89,49.6,39.3,14.2,336.0,75.0,5.4,7,5,7,1,2026-05-17T02:23:05.017700+05:30
Hospet,Karnataka,15.2689,76.3909,25.9,87,0.0,952.4,9.2,41.4,95,15.4,13.2,10.5,284.0,62.0,2.6,7,5,7,1,2026-05-17T02:23:05.017706+05:30
Tirupur,Tamil Nadu,11.1085,77.3411,24.6,90,0.0,971.2,8.65,49.3,115,55.2,41.3,34.2,252.0,56.0,7.3,3,5,7,1,2026-05-17T02:23:05.017714+05:30
Alappuzha,Kerala,9.4981,76.3388,25.8,99,0.0,1005.5,8.3,27.4,59,25.9,18.9,15.2,294.0,64.0,6.8,7,5,4,1,2026-05-17T02:23:05.017720+05:30
Munnar,Kerala,10.0889,77.0595,17.8,99,0.0,853.1,7.3,23.8,66,25.7,20.1,17.4,287.0,16.0,1.5,3,10,7,1,2026-05-17T02:23:05.017728+05:30
Silchar,Assam,24.8333,92.7789,23.8,98,0.2,1002.6,8.9,28.8,70,24.7,16.6,4.0,226.0,89.0,2.6,6,5,4,1,2026-05-17T02:23:05.017735+05:30
Dibrugarh,Assam,27.4728,94.912,21.9,96,0.3,993.0,8.4,22.7,72,16.4,12.8,10.9,258.0,56.0,0.8,6,5,7,1,2026-05-17T02:23:05.017742+05:30
