city,state,latitude,longitude,temp,humidity,rain,pressure,uv_index,wind_gusts,aqi,pm10,pm2_5,no2,co,o3,so2,mosquito_risk,arthritis_risk,migraine_risk,frizz_risk,updated_at
Delhi,Delhi,28.6139,77.209,35.8,29,0.0,979.7,7.7,27.0,185,313.9,102.0,40.6,841.0,177.0,50.8,0,5,10,0,2026-05-14T10:15:12.151819+05:30
Mumbai,Maharashtra,19.076,72.8777,33.0,61,0.0,1005.8,7.9,46.1,80,47.1,30.5,11.8,309.0,101.0,12.7,3,5,4,1,2026-05-14T10:15:12.151866+05:30
Bangalore,Karnataka,12.9716,77.5946,30.5,46,0.0,910.6,9.35,40.3,87,41.2,30.0,20.6,829.0,81.0,11.6,0,5,7,1,2026-05-14T10:15:12.151883+05:30
Hyderabad,Telangana,17.385,78.4867,34.6,35,0.0,951.4,7.5,24.8,71,29.1,19.9,8.9,460.0,108.0,8.6,0,5,7,1,2026-05-14T10:15:12.151895+05:30
Chennai,Tamil Nadu,13.0827,80.2707,33.5,55,0.0,1004.2,8.65,42.8,26,8.3,5.4,4.3,294.0,52.0,8.6,0,5,4,1,2026-05-14T10:15:12.151910+05:30
Kolkata,West Bengal,22.5726,88.3639,32.1,67,0.0,1003.2,8.95,32.8,51,16.6,11.7,2.5,232.0,84.0,6.4,3,5,4,1,2026-05-14T10:15:12.151920+05:30
Pune,Maharashtra,18.5204,73.8567,34.0,33,0.0,946.7,7.4,50.0,80,66.6,28.8,9.7,286.0,93.0,14.4,0,5,7,0,2026-05-14T10:15:12.151928+05:30
Ahmedabad,Gujarat,23.0225,72.5714,36.5,32,0.0,998.5,8.2,41.4,76,18.9,13.0,4.7,241.0,87.0,5.2,0,5,10,1,2026-05-14T10:15:12.151938+05:30
Jaipur,Rajasthan,26.9124,75.7873,35.9,23,0.0,957.5,8.25,27.7,120,162.1,42.7,7.3,430.0,107.0,8.6,0,5,10,0,2026-05-14T10:15:12.151947+05:30
Lucknow,Uttar Pradesh,26.8467,80.9462,34.6,39,0.0,990.6,8.2,28.1,156,55.6,48.2,7.2,548.0,140.0,16.8,0,5,7,1,2026-05-14T10:15:12.151955+05:30
Kanpur,Uttar Pradesh,26.4499,80.3319,37.2,27,0.0,988.4,8.2,29.5,157,138.8,58.9,7.4,417.0,146.0,16.4,0,5,10,0,2026-05-14T10:15:12.151963+05:30
Chandigarh,Chandigarh,30.7333,76.7794,33.1,28,0.0,965.5,7.65,24.8,116,56.8,29.1,8.9,701.0,148.0,10.4,0,5,7,0,2026-05-14T10:15:12.151971+05:30
Srinagar,Jammu and Kashmir,34.0837,74.7973,15.9,69,0.0,843.6,8.75,22.3,69,28.4,20.0,5.4,392.0,99.0,3.0,3,5,7,0,2026-05-14T10:15:12.151980+05:30
Jammu,Jammu and Kashmir,32.7266,74.857,31.1,40,0.0,969.3,8.45,31.3,80,25.5,15.7,9.0,366.0,100.0,3.0,0,5,7,0,2026-05-14T10:15:12.151988+05:30
Amritsar,Punjab,31.634,74.8723,31.9,36,0.0,977.4,8.3,56.2,134,47.1,29.8,9.3,474.0,106.0,5.5,0,5,7,0,2026-05-14T10:15:12.151996+05:30
Ludhiana,Punjab,30.901,75.8573,32.5,35,0.0,975.2,7.95,41.4,157,59.4,33.4,9.8,619.0,124.0,10.1,0,5,7,0,2026-05-14T10:15:12.152003+05:30
Jalandhar,Punjab,31.326,75.5762,32.1,33,0.0,976.3,8.05,47.9,125,55.5,30.4,7.5,786.0,120.0,4.4,0,5,7,0,2026-05-14T10:15:12.152010+05:30
Dehradun,Uttarakhand,30.6284,78.0322,24.1,32,0.0,831.2,8.1,40.7,60,23.1,10.0,1.0,202.0,141.0,1.8,0,5,7,0,2026-05-14T10:15:12.152019+05:30
Shimla,Himachal Pradesh,31.1048,77.1734,21.8,22,0.0,786.1,8.15,46.4,74,34.6,14.0,0.2,178.0,141.0,1.3,0,5,7,1,2026-05-14T10:15:12.152027+05:30
Manali,Himachal Pradesh,32.2396,77.1887,21.2,27,0.0,817.5,9.75,43.2,46,12.7,5.3,5.8,173.0,129.0,0.2,0,5,7,0,2026-05-14T10:15:12.152033+05:30
Gurgaon,Haryana,28.4595,77.0266,35.8,28,0.0,978.1,7.8,36.0,538,653.8,129.5,27.4,663.0,149.0,33.0,0,5,10,0,2026-05-14T10:15:12.152043+05:30
Noida,Uttar Pradesh,28.5355,77.391,33.5,43,0.0,981.3,7.7,27.7,538,653.8,129.5,27.4,698.0,149.0,33.0,0,5,7,1,2026-05-14T10:15:12.152050+05:30
Ghaziabad,Uttar Pradesh,28.6692,77.4538,32.4,46,0.0,979.8,7.7,27.7,180,280.3,88.0,10.7,827.0,182.0,26.3,0,5,7,1,2026-05-14T10:15:12.152058+05:30
Faridabad,Haryana,28.4089,77.3178,35.0,31,0.0,980.6,7.75,36.0,538,653.8,129.5,27.4,584.0,149.0,33.0,0,5,7,0,2026-05-14T10:15:12.152065+05:30
Meerut,Uttar Pradesh,28.9845,77.7064,32.0,42,0.0,979.0,7.6,20.5,180,280.3,88.0,10.7,609.0,182.0,26.3,0,5,7,1,2026-05-14T10:15:12.152072+05:30
Agra,Uttar Pradesh,27.1767,78.0081,36.0,32,0.0,984.4,8.05,28.8,263,300.8,76.4,9.9,471.0,144.0,14.5,0,5,10,1,2026-05-14T10:15:12.152078+05:30
Varanasi,Uttar Pradesh,25.3176,82.9739,34.2,44,0.0,994.3,8.75,25.6,141,51.2,43.1,8.9,802.0,150.0,25.8,0,5,7,1,2026-05-14T10:15:12.152086+05:30
Prayagraj,Uttar Pradesh,25.4358,81.8463,36.7,32,0.0,992.2,8.6,27.7,150,49.1,44.7,8.9,491.0,151.0,20.6,0,5,10,1,2026-05-14T10:15:12.152095+05:30
Gorakhpur,Uttar Pradesh,26.7606,83.3732,30.2,63,0.0,995.2,8.6,31.0,126,50.3,34.0,3.3,361.0,141.0,8.3,3,5,7,1,2026-05-14T10:15:12.152101+05:30
Bareilly,Uttar Pradesh,28.367,79.4304,32.9,51,0.0,984.4,8.0,34.9,158,112.5,60.8,6.4,490.0,141.0,12.8,0,5,7,1,2026-05-14T10:15:12.152109+05:30
Aligarh,Uttar Pradesh,27.8974,78.088,33.2,42,0.0,982.7,7.85,48.6,171,310.1,83.8,6.8,485.0,154.0,20.0,0,5,7,1,2026-05-14T10:15:12.152116+05:30
Moradabad,Uttar Pradesh,28.8386,78.7733,31.4,54,0.0,981.5,7.8,53.3,167,134.1,70.5,9.1,564.0,142.0,16.0,0,5,7,1,2026-05-14T10:15:12.152122+05:30
Saharanpur,Uttar Pradesh,29.9637,77.546,30.6,43,0.0,973.1,7.35,26.3,154,65.0,39.6,13.5,577.0,151.0,15.8,0,5,7,1,2026-05-14T10:15:12.152129+05:30
Jhansi,Uttar Pradesh,25.4484,78.5685,37.0,31,0.0,974.9,8.45,28.1,90,36.2,21.2,2.8,309.0,117.0,7.3,0,5,10,1,2026-05-14T10:15:15.381031+05:30
Surat,Gujarat,21.1702,72.8311,36.2,30,0.0,1003.6,7.7,41.8,90,40.0,33.1,35.3,934.0,60.0,83.6,0,5,7,0,2026-05-14T10:15:15.381067+05:30
Vadodara,Gujarat,22.3072,73.1812,36.3,30,0.0,1001.1,8.15,37.8,82,30.0,19.2,6.5,245.0,91.0,9.9,0,5,7,1,2026-05-14T10:15:15.381078+05:30
Rajkot,Gujarat,22.3039,70.8022,35.7,38,0.0,991.0,7.75,59.0,63,14.5,10.2,3.2,169.0,88.0,5.2,0,5,10,1,2026-05-14T10:15:15.381087+05:30
Thane,Maharashtra,19.2183,72.9781,35.1,49,0.0,1004.9,7.9,41.0,80,47.1,30.5,11.8,273.0,101.0,12.7,0,5,7,1,2026-05-14T10:15:15.381095+05:30
Nagpur,Maharashtra,21.1458,79.0882,37.0,33,0.0,970.3,8.95,32.4,101,83.4,51.1,9.1,327.0,139.0,22.8,0,5,10,1,2026-05-14T10:15:15.381103+05:30
Nashik,Maharashtra,19.9975,73.7898,34.7,28,0.0,944.2,8.25,38.2,75,48.5,23.9,5.5,208.0,90.0,9.1,0,5,7,0,2026-05-14T10:15:15.381110+05:30
Aurangabad,Maharashtra,19.8762,75.3433,35.2,34,0.0,942.5,9.1,36.7,75,50.5,23.6,4.7,235.0,101.0,6.9,0,5,10,1,2026-05-14T10:15:15.381118+05:30
Solapur,Maharashtra,17.6599,75.9064,34.4,40,0.0,955.1,8.25,28.1,109,67.1,33.9,4.6,279.0,114.0,9.9,0,5,7,1,2026-05-14T10:15:15.381125+05:30
Kolhapur,Maharashtra,16.705,74.2433,30.6,47,0.0,946.1,8.55,39.6,75,67.3,29.6,6.4,274.0,94.0,4.9,0,5,7,1,2026-05-14T10:15:15.381132+05:30
Goa,Goa,15.2993,74.124,33.5,58,0.0,994.7,4.95,33.8,78,65.2,27.7,1.9,175.0,84.0,2.5,0,5,3,1,2026-05-14T10:15:15.381140+05:30
Jodhpur,Rajasthan,26.2389,73.0243,37.5,27,0.0,978.7,8.4,39.2,101,197.4,50.6,2.9,188.0,95.0,4.5,0,5,10,0,2026-05-14T10:15:15.381147+05:30
Udaipur,Rajasthan,24.5854,73.7125,35.6,29,0.0,944.2,8.85,38.2,69,75.7,28.8,1.7,187.0,98.0,4.3,0,5,10,0,2026-05-14T10:15:15.381155+05:30
Kota,Rajasthan,25.2138,75.8648,39.3,16,0.0,975.6,8.4,32.8,73,49.9,24.7,3.7,252.0,103.0,6.2,0,5,10,0,2026-05-14T10:15:15.381162+05:30
Bikaner,Rajasthan,28.0229,73.3119,38.3,21,0.0,977.2,8.35,33.5,95,88.2,32.1,3.0,236.0,85.0,4.5,0,5,10,0,2026-05-14T10:15:15.381169+05:30
Ajmer,Rajasthan,26.4499,74.6399,35.5,30,0.0,952.4,8.3,36.4,74,69.4,27.5,3.1,214.0,101.0,4.9,0,5,10,0,2026-05-14T10:15:15.381176+05:30
Gwalior,Madhya Pradesh,26.2183,78.1828,37.2,29,0.0,980.0,8.25,34.2,118,53.7,25.4,3.8,346.0,114.0,8.5,0,5,10,1,2026-05-14T10:15:15.381183+05:30
Indore,Madhya Pradesh,22.7196,75.8577,37.5,25,0.0,946.1,8.75,43.6,82,61.9,31.8,5.2,334.0,106.0,15.1,0,5,10,0,2026-05-14T10:15:15.381190+05:30
Bhopal,Madhya Pradesh,23.2599,77.4126,38.4,19,0.0,951.3,8.8,34.9,71,37.5,23.5,3.3,337.0,117.0,8.4,0,5,10,0,2026-05-14T10:15:15.381198+05:30
Jabalpur,Madhya Pradesh,23.1815,79.9864,37.2,32,0.0,958.9,8.9,38.5,87,74.7,45.4,4.2,285.0,138.0,15.2,0,5,10,1,2026-05-14T10:15:15.381205+05:30
Ujjain,Madhya Pradesh,23.1765,75.7885,38.2,22,0.0,951.4,8.65,46.1,74,57.6,30.5,4.6,247.0,96.0,15.3,0,5,10,0,2026-05-14T10:15:15.381213+05:30
Visakhapatnam,Andhra Pradesh,17.6868,83.2185,33.7,57,0.0,999.9,8.75,41.0,75,25.5,22.3,22.6,1373.0,29.0,91.5,0,5,7,1,2026-05-14T10:15:15.381220+05:30
Vijayawada,Andhra Pradesh,16.5062,80.648,35.2,50,0.0,999.2,9.05,40.0,52,16.6,12.8,5.3,197.0,64.0,11.9,0,5,10,1,2026-05-14T10:15:15.381226+05:30
Guntur,Andhra Pradesh,16.3067,80.4365,35.5,50,0.0,1000.5,8.5,44.6,53,15.2,11.9,5.3,173.0,61.0,10.0,0,5,7,1,2026-05-14T10:15:15.381234+05:30
Nellore,Andhra Pradesh,14.4426,79.9865,34.0,56,0.0,1002.7,9.2,35.6,29,10.4,6.7,3.4,154.0,56.0,4.7,0,5,4,1,2026-05-14T10:15:15.381242+05:30
Kurnool,Andhra Pradesh,15.8281,78.0373,37.6,29,0.0,974.1,8.95,31.0,63,34.7,22.1,4.8,188.0,95.0,9.1,0,5,10,1,2026-05-14T10:15:15.381250+05:30
Kakinada,Andhra Pradesh,16.9891,82.2475,33.2,59,0.0,1003.7,7.3,42.1,29,9.4,6.0,2.2,143.0,52.0,4.0,0,5,4,1,2026-05-14T10:15:15.381257+05:30
Tirupati,Andhra Pradesh,13.6288,79.4192,34.0,47,0.0,988.2,9.0,41.4,53,16.3,11.5,4.9,205.0,68.0,4.4,0,5,7,1,2026-05-14T10:15:15.381264+05:30
Warangal,Telangana,17.9689,79.5941,34.8,47,0.0,976.3,9.05,35.6,69,21.6,16.3,5.6,187.0,70.0,9.7,0,5,7,1,2026-05-14T10:15:15.381271+05:30
Nizamabad,Telangana,18.6725,78.0941,36.5,32,0.0,962.7,8.7,34.2,102,90.1,51.6,4.6,288.0,134.0,7.1,0,5,10,1,2026-05-14T10:15:15.381278+05:30
Mysore,Karnataka,12.2958,76.6396,30.5,55,0.0,927.1,9.15,46.1,86,41.3,27.6,7.6,269.0,102.0,4.4,0,5,7,1,2026-05-14T10:15:15.381284+05:30
Mangalore,Karnataka,12.9141,74.856,33.2,62,0.0,1003.5,8.95,46.1,79,53.0,25.6,3.2,239.0,90.0,2.9,3,5,4,1,2026-05-14T10:15:15.381291+05:30
Hubli-Dharwad,Karnataka,15.3647,75.124,33.0,44,0.0,939.3,9.1,37.4,71,52.5,27.8,4.5,227.0,100.0,3.5,0,5,7,1,2026-05-14T10:15:15.381297+05:30
Belgaum,Karnataka,15.8497,74.4977,33.3,34,0.0,924.9,9.15,38.2,72,73.6,34.2,4.6,236.0,110.0,4.3,0,5,7,0,2026-05-14T10:15:18.620395+05:30
Coimbatore,Tamil Nadu,11.0168,76.9558,29.5,68,0.0,959.6,7.85,38.2,68,48.1,28.0,4.5,260.0,118.0,4.9,7,5,7,1,2026-05-14T10:15:18.620431+05:30
Madurai,Tamil Nadu,9.9252,78.1198,30.5,62,0.0,990.2,8.65,18.0,84,32.7,27.1,9.9,317.0,123.0,12.5,3,5,7,1,2026-05-14T10:15:18.620443+05:30
Trichy,Tamil Nadu,10.7905,78.7047,31.5,66,0.0,996.5,9.1,23.0,78,30.6,25.5,12.0,196.0,99.0,18.9,3,5,7,1,2026-05-14T10:15:18.620452+05:30
Salem,Tamil Nadu,11.6643,78.146,32.4,56,0.0,974.7,8.9,36.0,107,46.9,34.8,15.1,296.0,103.0,15.1,0,5,7,1,2026-05-14T10:15:18.620460+05:30
Tirunelveli,Tamil Nadu,8.7139,77.7567,32.8,56,0.0,1000.1,4.75,19.4,62,32.6,19.6,5.8,194.0,89.0,3.9,0,5,0,1,2026-05-14T10:15:18.620468+05:30
Vellore,Tamil Nadu,12.9165,79.1325,33.7,47,0.0,981.7,8.45,37.8,69,29.3,22.1,9.0,231.0,70.0,12.0,0,5,7,1,2026-05-14T10:15:18.620493+05:30
Erode,Tamil Nadu,11.341,77.7172,32.7,57,0.0,986.4,8.95,31.3,82,40.0,26.4,9.0,321.0,102.0,5.0,0,5,7,1,2026-05-14T10:15:18.620501+05:30
Kochi,Kerala,9.9312,76.2673,30.0,78,0.0,1006.3,8.55,40.7,88,42.6,27.8,11.8,229.0,84.0,7.6,7,5,4,1,2026-05-14T10:15:18.620508+05:30
Thiruvananthapuram,Kerala,8.5241,76.9366,28.0,81,0.0,1006.2,7.15,34.9,60,34.5,18.9,3.2,218.0,95.0,2.1,7,5,4,1,2026-05-14T10:15:18.620516+05:30
Kozhikode,Kerala,11.2588,75.7804,31.9,71,0.0,1004.7,8.55,40.0,70,45.8,25.1,2.4,221.0,94.0,3.1,3,5,4,1,2026-05-14T10:15:18.620523+05:30
Thrissur,Kerala,10.5276,76.2144,31.8,71,0.0,1004.1,8.85,37.1,86,41.4,25.1,4.6,258.0,99.0,5.1,3,5,4,1,2026-05-14T10:15:18.620532+05:30
Kannur,Kerala,11.8745,75.3704,32.5,69,0.0,1003.9,8.55,44.6,83,39.8,23.0,3.8,299.0,94.0,3.2,3,5,4,1,2026-05-14T10:15:18.620539+05:30
Patna,Bihar,25.5941,85.1376,30.5,65,0.0,998.0,8.8,29.9,122,41.2,33.8,6.0,429.0,129.0,20.6,3,5,7,1,2026-05-14T10:15:18.620547+05:30
Gaya,Bihar,24.7914,85.0002,32.6,55,0.0,991.1,8.85,24.1,131,52.3,43.3,7.8,450.0,131.0,22.5,0,5,7,1,2026-05-14T10:15:18.620554+05:30
Muzaffarpur,Bihar,26.1209,85.3647,28.8,70,0.0,998.7,8.8,33.8,113,47.0,35.5,5.4,346.0,130.0,16.5,7,5,7,1,2026-05-14T10:15:18.620560+05:30
Bhagalpur,Bihar,25.2425,87.0117,27.5,75,0.0,999.7,8.8,28.1,98,15.6,11.9,6.9,315.0,103.0,16.4,7,5,7,1,2026-05-14T10:15:18.620568+05:30
Ranchi,Jharkhand,23.3441,85.3096,31.4,49,0.0,936.0,9.3,36.7,82,42.4,29.5,3.4,214.0,145.0,17.3,0,5,7,1,2026-05-14T10:15:18.620575+05:30
Jamshedpur,Jharkhand,22.8046,86.2029,33.0,56,0.0,988.0,9.15,32.8,80,24.4,19.5,9.3,205.0,104.0,33.3,0,5,7,1,2026-05-14T10:15:18.620582+05:30
Dhanbad,Jharkhand,23.7957,86.4304,31.6,50,0.0,977.3,9.1,26.3,125,45.5,39.1,21.0,255.0,117.0,72.3,0,5,7,1,2026-05-14T10:15:18.620589+05:30
Bokaro,Jharkhand,23.6693,86.1511,32.2,51,0.0,980.9,9.1,29.5,120,44.0,35.3,12.8,261.0,133.0,49.4,0,5,7,1,2026-05-14T10:15:18.620596+05:30
Bhubaneswar,Odisha,20.2961,85.8245,33.8,57,0.0,999.5,9.2,49.0,30,14.7,9.5,1.9,163.0,72.0,3.7,0,5,7,1,2026-05-14T10:15:18.620603+05:30
Cuttack,Odisha,20.4625,85.8828,33.5,59,0.0,1001.4,9.2,48.6,30,14.7,9.5,1.9,177.0,72.0,3.7,0,5,4,1,2026-05-14T10:15:18.620610+05:30
Rourkela,Odisha,22.2604,84.8536,32.8,60,0.0,982.6,9.05,53.3,82,22.8,16.8,5.0,222.0,110.0,16.0,0,5,7,1,2026-05-14T10:15:18.620617+05:30
Raipur,Chhattisgarh,21.2514,81.6296,36.2,37,0.0,972.1,9.05,39.2,120,61.0,44.8,28.9,604.0,119.0,72.0,0,5,10,1,2026-05-14T10:15:18.620625+05:30
Bhilai,Chhattisgarh,21.1938,81.3509,35.5,39,0.0,972.5,9.05,37.8,111,60.3,41.8,21.3,888.0,124.0,59.8,0,5,10,1,2026-05-14T10:15:18.620631+05:30
Guwahati,Assam,26.1158,91.7086,25.7,78,0.1,1000.9,8.55,29.9,88,9.5,7.9,2.0,249.0,110.0,2.3,10,5,4,1,2026-05-14T10:15:18.620638+05:30
Agartala,Tripura,23.8315,91.2868,30.2,71,0.0,1004.6,8.8,31.0,71,17.8,12.3,5.3,166.0,80.0,2.1,3,5,4,1,2026-05-14T10:15:18.620645+05:30
Shillong,Meghalaya,25.5788,91.8933,21.3,73,0.1,856.8,8.9,33.5,63,9.8,5.9,2.2,235.0,91.0,2.0,6,5,7,1,2026-05-14T10:15:18.620652+05:30
Imphal,Manipur,24.817,93.9368,26.5,60,0.0,922.9,9.25,28.8,98,33.2,19.0,0.1,215.0,120.0,2.9,4,5,7,1,2026-05-14T10:15:18.620659+05:30
Aizawl,Mizoram,23.7271,92.7176,24.5,59,0.1,892.8,8.5,28.4,62,14.1,7.9,0.3,136.0,91.0,1.6,3,5,7,0,2026-05-14T10:15:18.620667+05:30
Kohima,Nagaland,25.6701,94.1077,22.0,76,0.1,855.3,9.15,28.1,67,29.1,16.6,0.4,215.0,120.0,1.9,6,5,7,1,2026-05-14T10:15:18.620674+05:30
Gangtok,Sikkim,27.3314,88.6138,19.9,71,0.0,837.0,8.95,37.1,52,13.7,11.4,1.3,309.0,123.0,2.5,3,5,7,0,2026-05-14T10:15:18.620681+05:30
Siliguri,West Bengal,26.7271,88.3953,27.4,68,0.0,991.9,8.7,28.1,91,32.4,24.9,2.7,346.0,122.0,4.1,7,5,7,1,2026-05-14T10:15:21.859527+05:30
Durgapur,West Bengal,23.5204,87.3119,32.0,64,0.0,992.2,9.0,35.6,92,32.4,30.0,23.7,769.0,70.0,75.3,3,5,7,1,2026-05-14T10:15:21.859565+05:30
Asansol,West Bengal,23.6739,86.9524,32.8,52,0.0,990.7,9.05,35.6,97,38.3,34.1,22.6,294.0,97.0,73.0,0,5,7,1,2026-05-14T10:15:21.859577+05:30
Pondicherry,Puducherry,11.9139,79.8145,31.0,76,0.0,1005.1,8.75,34.2,49,18.0,13.8,10.5,240.0,42.0,14.8,3,5,4,1,2026-05-14T10:15:21.859586+05:30
Port Blair,Andaman and Nicobar Islands,11.6234,92.7265,29.5,78,0.1,1005.1,3.6,36.4,23,5.3,3.5,0.4,121.0,61.0,0.2,10,5,0,1,2026-05-14T10:15:21.859595+05:30
Haridwar,Uttarakhand,29.9457,78.1642,31.1,47,0.0,971.8,7.5,35.6,118,64.0,32.4,3.5,356.0,161.0,9.1,0,5,7,1,2026-05-14T10:15:21.859604+05:30
Rishikesh,Uttarakhand,30.0869,78.2676,31.6,40,0.0,964.3,7.6,32.8,90,57.5,24.2,0.5,291.0,157.0,7.3,0,5,7,1,2026-05-14T10:15:21.859611+05:30
Nainital,Uttarakhand,29.3919,79.4542,21.6,42,0.0,806.9,8.45,38.2,117,89.6,34.7,0.2,266.0,154.0,6.2,0,5,7,0,2026-05-14T10:15:21.859619+05:30
Mussoorie,Uttarakhand,30.4599,78.0664,22.1,34,0.0,804.1,8.0,46.1,89,41.2,21.3,1.9,208.0,162.0,6.3,0,5,7,0,2026-05-14T10:15:21.859626+05:30
Dharamshala,Himachal Pradesh,32.219,76.3234,25.4,36,0.0,867.8,8.3,40.0,51,25.1,9.7,0.6,237.0,126.0,0.7,4,5,7,0,2026-05-14T10:15:21.859633+05:30
Dalhousie,Himachal Pradesh,32.5387,75.971,23.1,21,0.0,805.3,8.55,36.7,72,38.4,16.4,4.0,222.0,133.0,1.3,0,5,7,1,2026-05-14T10:15:21.859642+05:30
Patiala,Punjab,30.3398,76.3869,34.2,27,0.0,974.9,7.6,46.8,164,136.4,49.1,8.4,471.0,129.0,15.4,0,5,7,0,2026-05-14T10:15:21.859649+05:30
Bhatinda,Punjab,30.211,74.9455,35.7,30,0.0,979.8,8.25,59.8,160,76.6,40.0,6.9,425.0,112.0,10.1,0,5,10,0,2026-05-14T10:15:21.859655+05:30
Rohtak,Haryana,28.8955,76.6066,35.1,33,0.0,978.2,7.75,26.3,301,383.7,107.1,29.5,574.0,169.0,42.0,0,5,10,1,2026-05-14T10:15:21.859662+05:30
Panipat,Haryana,29.3909,76.9635,32.5,44,0.0,977.3,7.6,21.6,417,278.5,84.5,18.2,490.0,147.0,27.7,0,5,7,1,2026-05-14T10:15:21.859669+05:30
Mathura,Uttar Pradesh,27.4924,77.6737,35.2,35,0.0,983.4,7.95,31.7,232,326.9,78.9,9.0,496.0,138.0,13.5,0,5,10,1,2026-05-14T10:15:21.859676+05:30
Vrindavan,Uttar Pradesh,27.5823,77.7027,35.1,36,0.0,983.9,7.95,34.6,232,326.9,78.9,9.0,499.0,138.0,13.5,0,5,10,1,2026-05-14T10:15:21.859682+05:30
Ayodhya,Uttar Pradesh,26.7922,82.1998,30.9,60,0.0,993.0,8.35,28.8,150,41.0,33.9,4.3,469.0,134.0,9.7,0,5,7,1,2026-05-14T10:15:21.859689+05:30
Ratlam,Madhya Pradesh,23.3315,75.0367,35.8,37,0.0,952.6,8.6,39.6,72,53.7,29.0,4.9,209.0,92.0,15.6,0,5,10,1,2026-05-14T10:15:21.859696+05:30
Sagar,Madhya Pradesh,23.8388,78.7378,38.7,17,0.0,948.0,8.8,34.9,74,64.7,29.2,3.8,220.0,124.0,9.5,0,5,10,0,2026-05-14T10:15:21.859702+05:30
Satna,Madhya Pradesh,24.6005,80.8322,37.9,26,0.0,968.0,8.8,43.2,93,59.8,25.6,4.7,346.0,131.0,13.8,0,5,10,0,2026-05-14T10:15:21.859709+05:30
Akola,Maharashtra,20.7002,77.0082,38.4,28,0.0,971.9,8.95,42.5,122,56.9,31.8,5.2,260.0,127.0,14.0,0,5,10,1,2026-05-14T10:15:21.859716+05:30
Amravati,Maharashtra,20.9374,77.7796,38.3,25,0.0,964.2,8.95,45.0,120,63.3,39.2,5.3,261.0,134.0,14.9,0,5,10,0,2026-05-14T10:15:21.859724+05:30
Latur,Maharashtra,18.4088,76.5604,36.0,31,0.0,938.2,8.85,39.2,120,65.0,36.3,3.3,232.0,127.0,8.7,0,5,10,1,2026-05-14T10:15:21.859732+05:30
Nanded,Maharashtra,19.1383,77.3091,37.6,33,0.0,966.0,9.1,29.9,119,74.5,49.5,4.3,273.0,138.0,8.7,0,5,10,1,2026-05-14T10:15:21.859738+05:30
Gulbarga,Karnataka,17.3297,76.8343,35.7,35,0.0,956.7,8.9,31.0,116,81.7,50.6,7.5,269.0,126.0,10.7,0,5,10,1,2026-05-14T10:15:21.859745+05:30
Bidar,Karnataka,17.9104,77.5199,34.8,35,0.0,934.2,9.0,32.4,98,86.1,49.9,6.0,259.0,135.0,8.4,0,5,7,1,2026-05-14T10:15:21.859751+05:30
Hospet,Karnataka,15.2689,76.3909,31.6,56,0.0,954.2,8.85,40.7,84,49.1,29.9,6.1,217.0,104.0,6.3,0,5,7,1,2026-05-14T10:15:21.859757+05:30
Tirupur,Tamil Nadu,11.1085,77.3411,32.0,57,0.0,972.8,8.8,43.6,82,44.4,28.3,8.7,254.0,110.0,5.3,0,5,7,1,2026-05-14T10:15:21.859764+05:30
Alappuzha,Kerala,9.4981,76.3388,27.0,91,0.1,1006.9,6.95,38.2,72,36.8,22.6,8.5,163.0,94.0,5.7,10,5,4,1,2026-05-14T10:15:21.859771+05:30
Munnar,Kerala,10.0889,77.0595,22.6,73,0.0,856.3,8.5,23.0,62,34.5,18.8,2.0,211.0,98.0,2.2,3,5,7,1,2026-05-14T10:15:21.859778+05:30
Silchar,Assam,24.8333,92.7789,29.1,72,0.0,1004.5,8.9,28.8,110,29.2,19.2,1.1,231.0,105.0,4.1,7,5,4,1,2026-05-14T10:15:21.859785+05:30
Dibrugarh,Assam,27.4728,94.912,26.2,77,0.1,995.2,7.5,23.8,78,32.4,26.5,0.9,266.0,138.0,1.9,10,5,7,1,2026-05-14T10:15:21.859791+05:30
