city,state,latitude,longitude,temp,humidity,rain,pressure,uv_index,wind_gusts,aqi,pm10,pm2_5,mosquito_risk,arthritis_risk,migraine_risk,frizz_risk,updated_at
Delhi,Delhi,28.6139,77.209,19.5,75,0.0,983.9,5.65,21.6,403,170.9,56.6,3,5,3,0,2026-03-17T02:11:56.434101+05:30
Mumbai,Maharashtra,19.076,72.8777,26.8,81,0.0,1008.8,7.7,17.6,104,105.9,35.3,7,0,4,1,2026-03-17T02:11:56.434147+05:30
Bangalore,Karnataka,12.9716,77.5946,21.0,78,0.0,911.0,9.35,31.0,91,33.5,32.0,3,5,7,1,2026-03-17T02:11:56.434163+05:30
Hyderabad,Telangana,17.385,78.4867,22.5,79,0.0,953.0,7.95,22.0,96,24.2,20.9,3,5,7,1,2026-03-17T02:11:56.434173+05:30
Chennai,Tamil Nadu,13.0827,80.2707,25.9,85,0.0,1007.9,9.1,33.1,34,9.6,7.1,7,5,4,1,2026-03-17T02:11:56.434183+05:30
Kolkata,West Bengal,22.5726,88.3639,23.3,92,0.0,1006.6,8.1,38.9,74,21.5,18.5,3,5,4,1,2026-03-17T02:11:56.434192+05:30
Pune,Maharashtra,18.5204,73.8567,18.8,81,0.0,947.6,8.25,38.5,88,59.3,35.5,3,10,7,0,2026-03-17T02:11:56.434205+05:30
Ahmedabad,Gujarat,23.0225,72.5714,23.4,62,0.0,1002.0,7.55,17.3,64,39.6,20.5,3,5,4,0,2026-03-17T02:11:56.434213+05:30
Jaipur,Rajasthan,26.9124,75.7873,21.7,58,0.0,959.2,6.4,31.7,164,627.7,111.1,0,5,7,0,2026-03-17T02:11:56.434220+05:30
Lucknow,Uttar Pradesh,26.8467,80.9462,20.5,58,0.0,994.6,6.3,23.8,90,60.8,45.3,0,5,7,0,2026-03-17T02:11:56.434227+05:30
Kanpur,Uttar Pradesh,26.4499,80.3319,20.4,68,0.0,992.2,6.55,22.7,114,161.6,47.8,3,5,7,0,2026-03-17T02:11:56.434234+05:30
Chandigarh,Chandigarh,30.7333,76.7794,13.7,73,0.0,969.9,5.7,11.9,66,26.4,18.0,3,5,3,0,2026-03-17T02:11:56.434242+05:30
Srinagar,Jammu and Kashmir,34.0837,74.7973,3.2,89,0.0,838.3,6.95,19.1,67,24.5,24.2,3,10,7,0,2026-03-17T02:11:56.434249+05:30
Jammu,Jammu and Kashmir,32.7266,74.857,13.3,74,0.0,975.3,6.6,13.3,69,38.3,33.5,3,5,7,0,2026-03-17T02:11:56.434256+05:30
Amritsar,Punjab,31.634,74.8723,10.8,91,0.0,983.4,6.65,17.3,80,46.7,29.3,3,10,7,0,2026-03-17T02:11:56.434279+05:30
Ludhiana,Punjab,30.901,75.8573,12.5,77,0.0,980.7,6.35,11.5,78,34.1,18.2,3,5,7,0,2026-03-17T02:11:56.434287+05:30
Jalandhar,Punjab,31.326,75.5762,11.5,89,0.0,982.1,6.45,14.0,69,44.9,15.8,3,10,7,0,2026-03-17T02:11:56.434296+05:30
Dehradun,Uttarakhand,30.6284,78.0322,8.8,60,0.0,827.7,5.4,24.5,47,31.3,9.1,0,5,3,0,2026-03-17T02:11:56.434304+05:30
Shimla,Himachal Pradesh,31.1048,77.1734,7.0,61,0.0,780.5,5.75,22.3,69,36.0,10.5,3,5,3,0,2026-03-17T02:11:56.434311+05:30
Manali,Himachal Pradesh,32.2396,77.1887,5.7,41,0.0,814.6,8.5,29.9,61,23.9,10.5,0,5,7,1,2026-03-17T02:11:56.434318+05:30
Gurgaon,Haryana,28.4595,77.0266,17.4,86,0.0,982.3,5.8,21.2,1584,599.8,108.3,3,10,3,0,2026-03-17T02:11:56.434325+05:30
Noida,Uttar Pradesh,28.5355,77.391,19.3,74,0.0,985.4,5.45,22.0,1584,599.8,108.3,3,5,3,0,2026-03-17T02:11:56.434332+05:30
Ghaziabad,Uttar Pradesh,28.6692,77.4538,18.1,82,0.0,983.5,5.6,18.7,116,85.9,42.8,3,10,3,0,2026-03-17T02:11:56.434341+05:30
Faridabad,Haryana,28.4089,77.3178,18.1,76,0.0,984.5,5.35,20.5,1584,599.8,108.3,3,5,3,0,2026-03-17T02:11:56.434348+05:30
Meerut,Uttar Pradesh,28.9845,77.7064,17.3,81,0.0,982.2,5.9,20.5,116,85.9,42.8,3,10,3,0,2026-03-17T02:11:56.434354+05:30
Agra,Uttar Pradesh,27.1767,78.0081,19.0,79,0.0,988.1,6.2,25.9,892,1128.8,137.8,3,5,7,0,2026-03-17T02:11:56.434361+05:30
Varanasi,Uttar Pradesh,25.3176,82.9739,21.9,78,0.0,997.7,7.35,18.4,147,70.5,55.2,3,5,7,1,2026-03-17T02:11:56.434370+05:30
Prayagraj,Uttar Pradesh,25.4358,81.8463,22.4,79,0.0,996.3,7.2,18.7,132,54.5,44.0,3,5,7,1,2026-03-17T02:11:56.434377+05:30
Gorakhpur,Uttar Pradesh,26.7606,83.3732,19.1,71,0.0,997.9,6.55,24.5,118,92.2,63.1,3,5,7,0,2026-03-17T02:11:56.434384+05:30
Bareilly,Uttar Pradesh,28.367,79.4304,19.3,68,0.0,987.5,5.7,18.4,100,73.3,46.1,3,5,3,0,2026-03-17T02:11:56.434390+05:30
Aligarh,Uttar Pradesh,27.8974,78.088,18.6,76,0.0,985.9,5.9,18.7,495,149.0,39.8,3,5,3,0,2026-03-17T02:11:56.434396+05:30
Moradabad,Uttar Pradesh,28.8386,78.7733,18.4,69,0.0,984.4,5.05,22.7,97,70.1,43.2,3,5,3,0,2026-03-17T02:11:56.434402+05:30
Saharanpur,Uttar Pradesh,29.9637,77.546,17.1,62,0.0,976.9,5.15,17.6,92,94.8,70.3,3,5,3,0,2026-03-17T02:11:56.434408+05:30
Jhansi,Uttar Pradesh,25.4484,78.5685,23.4,46,0.0,977.4,7.2,29.2,93,134.1,42.8,0,5,7,0,2026-03-17T02:11:59.690155+05:30
Surat,Gujarat,21.1702,72.8311,25.2,90,0.0,1007.0,7.4,25.2,99,41.1,27.4,7,5,4,1,2026-03-17T02:11:59.690188+05:30
Vadodara,Gujarat,22.3072,73.1812,24.3,78,0.0,1004.4,7.5,23.8,77,46.1,27.1,3,5,4,1,2026-03-17T02:11:59.690198+05:30
Rajkot,Gujarat,22.3039,70.8022,23.8,80,0.0,994.3,7.4,27.0,62,39.6,18.7,3,5,7,1,2026-03-17T02:11:59.690206+05:30
Thane,Maharashtra,19.2183,72.9781,25.2,88,0.0,1008.4,7.7,30.2,104,105.9,35.3,7,0,4,1,2026-03-17T02:11:59.690213+05:30
Nagpur,Maharashtra,21.1458,79.0882,24.6,62,0.0,972.6,8.05,16.9,98,47.7,43.5,3,5,7,1,2026-03-17T02:11:59.690220+05:30
Nashik,Maharashtra,19.9975,73.7898,20.4,74,0.0,945.3,7.9,25.9,79,85.2,32.6,3,5,7,0,2026-03-17T02:11:59.690227+05:30
Aurangabad,Maharashtra,19.8762,75.3433,22.7,55,0.0,943.6,8.35,25.6,66,38.3,19.9,0,5,7,0,2026-03-17T02:11:59.690233+05:30
Solapur,Maharashtra,17.6599,75.9064,22.7,57,0.0,956.5,8.55,37.1,90,42.5,39.7,0,5,7,0,2026-03-17T02:11:59.690241+05:30
Kolhapur,Maharashtra,16.705,74.2433,19.3,89,0.0,947.2,8.45,40.0,96,39.5,30.5,3,10,7,1,2026-03-17T02:11:59.690248+05:30
Goa,Goa,15.2993,74.124,26.8,82,0.0,997.8,8.75,34.6,87,56.0,32.4,7,5,7,1,2026-03-17T02:11:59.690256+05:30
Jodhpur,Rajasthan,26.2389,73.0243,22.2,31,0.0,982.2,6.45,24.1,101,118.5,28.2,0,5,7,0,2026-03-17T02:11:59.690281+05:30
Udaipur,Rajasthan,24.5854,73.7125,21.4,34,0.0,945.7,7.85,35.6,51,38.9,14.4,0,5,7,0,2026-03-17T02:11:59.690288+05:30
Kota,Rajasthan,25.2138,75.8648,22.4,33,0.0,977.6,7.3,32.0,72,15.5,11.5,0,5,7,0,2026-03-17T02:11:59.690295+05:30
Bikaner,Rajasthan,28.0229,73.3119,21.9,57,0.0,982.4,6.9,20.9,65,173.7,62.4,0,5,7,0,2026-03-17T02:11:59.690301+05:30
Ajmer,Rajasthan,26.4499,74.6399,21.5,34,0.0,953.7,7.05,27.0,65,115.0,33.4,0,5,7,0,2026-03-17T02:11:59.690308+05:30
Gwalior,Madhya Pradesh,26.2183,78.1828,22.7,59,0.0,982.8,6.9,36.4,104,79.2,29.6,0,5,7,0,2026-03-17T02:11:59.690314+05:30
Indore,Madhya Pradesh,22.7196,75.8577,21.4,61,0.0,947.5,7.7,30.2,64,31.1,20.3,3,5,7,0,2026-03-17T02:11:59.690320+05:30
Bhopal,Madhya Pradesh,23.2599,77.4126,21.5,51,0.0,953.0,7.65,30.2,53,39.8,27.5,0,5,7,0,2026-03-17T02:11:59.690327+05:30
Jabalpur,Madhya Pradesh,23.1815,79.9864,24.2,42,0.0,960.7,7.75,31.0,60,25.3,16.4,0,5,7,0,2026-03-17T02:11:59.690334+05:30
Ujjain,Madhya Pradesh,23.1765,75.7885,21.9,60,0.0,953.4,7.65,28.4,62,30.3,18.9,0,5,7,0,2026-03-17T02:11:59.690341+05:30
Visakhapatnam,Andhra Pradesh,17.6868,83.2185,24.1,86,0.0,1005.2,8.7,38.2,55,16.1,13.9,3,5,4,1,2026-03-17T02:11:59.690348+05:30
Vijayawada,Andhra Pradesh,16.5062,80.648,23.7,87,0.0,1004.1,8.8,26.6,43,10.8,9.6,3,5,4,1,2026-03-17T02:11:59.690355+05:30
Guntur,Andhra Pradesh,16.3067,80.4365,23.6,88,0.0,1005.2,8.8,27.4,41,9.8,8.7,3,5,4,1,2026-03-17T02:11:59.690361+05:30
Nellore,Andhra Pradesh,14.4426,79.9865,24.7,88,0.0,1006.9,8.95,31.3,39,6.9,5.0,3,5,4,1,2026-03-17T02:11:59.690368+05:30
Kurnool,Andhra Pradesh,15.8281,78.0373,25.9,59,0.0,976.7,8.25,35.3,76,15.1,14.1,4,5,7,1,2026-03-17T02:11:59.690375+05:30
Kakinada,Andhra Pradesh,16.9891,82.2475,22.3,91,0.0,1009.2,8.75,26.6,34,10.9,8.4,3,0,4,1,2026-03-17T02:11:59.690382+05:30
Tirupati,Andhra Pradesh,13.6288,79.4192,23.4,89,0.0,992.6,9.05,25.6,58,20.0,18.1,3,5,7,1,2026-03-17T02:11:59.690388+05:30
Warangal,Telangana,17.9689,79.5941,23.6,78,0.0,979.3,8.3,31.0,70,14.6,13.5,3,5,7,1,2026-03-17T02:11:59.690394+05:30
Nizamabad,Telangana,18.6725,78.0941,24.8,60,0.0,964.3,8.45,23.4,129,49.9,46.0,0,5,7,1,2026-03-17T02:11:59.690400+05:30
Mysore,Karnataka,12.2958,76.6396,21.4,89,0.0,928.3,9.35,32.0,113,47.6,44.7,3,5,7,1,2026-03-17T02:11:59.690407+05:30
Mangalore,Karnataka,12.9141,74.856,29.1,73,0.0,1006.3,8.95,19.4,102,41.4,30.7,7,5,4,1,2026-03-17T02:11:59.690413+05:30
Hubli-Dharwad,Karnataka,15.3647,75.124,21.7,91,0.0,940.1,8.8,27.7,99,29.7,22.7,3,5,7,1,2026-03-17T02:11:59.690420+05:30
Belgaum,Karnataka,15.8497,74.4977,20.0,97,0.0,924.8,8.95,31.7,83,43.1,27.5,3,5,7,1,2026-03-17T02:12:02.944427+05:30
Coimbatore,Tamil Nadu,11.0168,76.9558,22.9,92,0.0,961.8,9.35,29.2,93,42.4,40.0,3,5,7,1,2026-03-17T02:12:02.944461+05:30
Madurai,Tamil Nadu,9.9252,78.1198,25.1,82,0.0,993.4,8.1,22.3,54,17.3,15.7,7,5,7,1,2026-03-17T02:12:02.944473+05:30
Trichy,Tamil Nadu,10.7905,78.7047,25.1,91,0.0,1000.4,9.2,24.5,56,15.7,14.0,7,5,4,1,2026-03-17T02:12:02.944481+05:30
Salem,Tamil Nadu,11.6643,78.146,24.9,81,0.0,977.7,9.25,27.4,70,28.2,26.8,3,5,7,1,2026-03-17T02:12:02.944489+05:30
Tirunelveli,Tamil Nadu,8.7139,77.7567,25.3,83,0.0,1003.2,7.3,49.7,60,25.9,24.7,7,5,4,1,2026-03-17T02:12:02.944496+05:30
Vellore,Tamil Nadu,12.9165,79.1325,23.1,89,0.0,985.5,9.15,31.0,77,29.3,27.2,3,5,7,1,2026-03-17T02:12:02.944503+05:30
Erode,Tamil Nadu,11.341,77.7172,25.8,76,0.0,989.3,9.25,29.5,53,12.9,11.9,7,5,7,1,2026-03-17T02:12:02.944510+05:30
Kochi,Kerala,9.9312,76.2673,27.2,83,0.0,1008.7,8.95,32.4,81,32.8,31.9,7,0,4,1,2026-03-17T02:12:02.944517+05:30
Thiruvananthapuram,Kerala,8.5241,76.9366,27.4,83,0.0,1007.8,7.8,25.9,65,16.1,14.2,7,5,4,1,2026-03-17T02:12:02.944524+05:30
Kozhikode,Kerala,11.2588,75.7804,27.2,83,0.0,1007.8,8.95,29.9,79,39.6,33.8,7,5,4,1,2026-03-17T02:12:02.944531+05:30
Thrissur,Kerala,10.5276,76.2144,26.0,89,0.0,1007.0,9.05,36.7,82,33.4,31.3,7,5,4,1,2026-03-17T02:12:02.944538+05:30
Kannur,Kerala,11.8745,75.3704,26.9,79,0.0,1006.9,9.0,27.7,95,50.2,45.9,7,5,4,1,2026-03-17T02:12:02.944547+05:30
Patna,Bihar,25.5941,85.1376,24.6,72,0.0,1000.5,7.5,39.2,153,76.6,62.9,3,5,4,1,2026-03-17T02:12:02.944554+05:30
Gaya,Bihar,24.7914,85.0002,23.1,68,0.0,993.4,7.6,22.3,123,47.8,37.8,3,5,7,1,2026-03-17T02:12:02.944559+05:30
Muzaffarpur,Bihar,26.1209,85.3647,20.5,85,0.0,1000.6,7.45,29.5,156,98.7,80.8,3,5,4,1,2026-03-17T02:12:02.944565+05:30
Bhagalpur,Bihar,25.2425,87.0117,23.1,81,0.0,1000.8,7.5,39.2,152,59.8,42.6,3,5,4,1,2026-03-17T02:12:02.944571+05:30
Ranchi,Jharkhand,23.3441,85.3096,20.6,80,0.0,937.7,8.2,49.7,126,46.8,41.7,3,5,7,1,2026-03-17T02:12:02.944577+05:30
Jamshedpur,Jharkhand,22.8046,86.2029,20.9,85,0.0,991.6,8.15,35.3,138,61.5,54.8,3,5,7,1,2026-03-17T02:12:02.944583+05:30
Dhanbad,Jharkhand,23.7957,86.4304,22.0,75,0.0,980.0,8.0,38.2,157,100.1,89.2,3,5,7,1,2026-03-17T02:12:02.944590+05:30
Bokaro,Jharkhand,23.6693,86.1511,21.5,80,0.0,984.0,8.0,38.2,152,81.3,72.2,3,5,7,1,2026-03-17T02:12:02.944596+05:30
Bhubaneswar,Odisha,20.2961,85.8245,24.8,86,0.0,1003.5,8.3,34.6,71,13.3,11.4,3,5,4,1,2026-03-17T02:12:02.944602+05:30
Cuttack,Odisha,20.4625,85.8828,24.1,94,0.0,1005.5,8.1,37.1,71,13.3,11.4,3,5,4,1,2026-03-17T02:12:02.944608+05:30
Rourkela,Odisha,22.2604,84.8536,22.5,81,0.0,985.7,8.05,44.6,139,52.7,46.0,3,5,7,1,2026-03-17T02:12:02.944613+05:30
Raipur,Chhattisgarh,21.2514,81.6296,23.6,64,0.0,975.3,8.15,38.2,126,51.5,48.2,3,5,7,1,2026-03-17T02:12:02.944618+05:30
Bhilai,Chhattisgarh,21.1938,81.3509,23.1,65,0.0,975.5,8.15,33.1,122,53.9,50.5,3,5,7,1,2026-03-17T02:12:02.944624+05:30
Guwahati,Assam,26.1158,91.7086,20.4,88,0.0,1003.2,7.45,39.2,78,26.9,23.1,3,5,4,1,2026-03-17T02:12:02.944629+05:30
Agartala,Tripura,23.8315,91.2868,22.1,96,0.0,1007.2,7.85,46.4,70,26.5,23.9,3,5,4,1,2026-03-17T02:12:02.944635+05:30
Shillong,Meghalaya,25.5788,91.8933,12.1,90,0.0,854.6,6.5,70.9,51,16.2,13.4,3,10,7,0,2026-03-17T02:12:02.944642+05:30
Imphal,Manipur,24.817,93.9368,14.9,88,0.0,923.7,8.1,75.2,82,29.0,26.0,3,10,7,0,2026-03-17T02:12:02.944649+05:30
Aizawl,Mizoram,23.7271,92.7176,16.2,87,0.0,892.8,8.05,63.7,94,54.5,44.6,3,10,7,0,2026-03-17T02:12:02.944655+05:30
Kohima,Nagaland,25.6701,94.1077,14.5,70,0.0,853.7,8.05,100.1,70,23.1,19.3,3,5,7,0,2026-03-17T02:12:02.944660+05:30
Gangtok,Sikkim,27.3314,88.6138,10.3,64,0.0,833.8,7.75,19.4,72,41.4,22.1,3,5,7,0,2026-03-17T02:12:02.944666+05:30
Siliguri,West Bengal,26.7271,88.3953,18.2,72,0.0,993.8,7.4,46.1,109,59.6,41.7,3,5,7,0,2026-03-17T02:12:06.202940+05:30
Durgapur,West Bengal,23.5204,87.3119,22.0,83,0.0,995.2,8.0,32.4,153,86.1,74.3,3,5,7,1,2026-03-17T02:12:06.202974+05:30
Asansol,West Bengal,23.6739,86.9524,22.3,76,0.0,993.8,8.0,46.4,152,80.1,67.8,3,5,7,1,2026-03-17T02:12:06.202984+05:30
Pondicherry,Puducherry,11.9139,79.8145,24.4,93,0.0,1009.1,9.1,30.2,33,9.3,6.4,3,0,4,1,2026-03-17T02:12:06.202992+05:30
Port Blair,Andaman and Nicobar Islands,11.6234,92.7265,27.3,83,0.0,1006.7,9.0,18.0,72,13.5,11.7,7,5,4,1,2026-03-17T02:12:06.203000+05:30
Haridwar,Uttarakhand,29.9457,78.1642,17.6,62,0.0,975.4,5.15,18.0,67,24.7,17.3,3,5,3,0,2026-03-17T02:12:06.203007+05:30
Rishikesh,Uttarakhand,30.0869,78.2676,17.4,52,0.0,968.3,5.35,20.5,54,23.5,10.9,0,5,3,0,2026-03-17T02:12:06.203015+05:30
Nainital,Uttarakhand,29.3919,79.4542,15.1,47,0.0,805.0,5.2,42.8,62,19.2,12.8,0,5,3,0,2026-03-17T02:12:06.203022+05:30
Mussoorie,Uttarakhand,30.4599,78.0664,11.6,48,0.0,800.7,5.75,28.4,59,25.7,14.3,0,5,3,0,2026-03-17T02:12:06.203029+05:30
Dharamshala,Himachal Pradesh,32.219,76.3234,13.5,29,0.0,867.7,6.0,27.0,63,15.0,5.8,0,5,3,1,2026-03-17T02:12:06.203036+05:30
Dalhousie,Himachal Pradesh,32.5387,75.971,9.4,36,0.0,800.7,6.25,25.2,56,23.6,16.1,0,5,7,1,2026-03-17T02:12:06.203043+05:30
Patiala,Punjab,30.3398,76.3869,13.4,84,0.0,979.8,5.85,13.7,75,40.3,28.8,3,10,3,0,2026-03-17T02:12:06.203051+05:30
Bhatinda,Punjab,30.211,74.9455,13.5,80,0.0,985.8,6.6,18.4,87,46.9,25.6,3,5,7,0,2026-03-17T02:12:06.203058+05:30
Rohtak,Haryana,28.8955,76.6066,16.5,83,0.0,982.8,6.0,16.9,688,239.3,69.6,3,10,3,0,2026-03-17T02:12:06.203064+05:30
Panipat,Haryana,29.3909,76.9635,15.8,84,0.0,981.5,5.9,18.7,302,135.5,56.5,3,10,3,0,2026-03-17T02:12:06.203070+05:30
Mathura,Uttar Pradesh,27.4924,77.6737,18.8,78,0.0,987.1,6.35,18.0,899,538.3,86.6,3,5,7,0,2026-03-17T02:12:06.203076+05:30
Vrindavan,Uttar Pradesh,27.5823,77.7027,18.7,77,0.0,987.6,6.4,18.0,899,538.3,86.6,3,5,7,0,2026-03-17T02:12:06.203083+05:30
Ayodhya,Uttar Pradesh,26.7922,82.1998,19.9,61,0.0,996.2,6.85,24.8,102,99.0,69.4,3,5,7,0,2026-03-17T02:12:06.203089+05:30
Ratlam,Madhya Pradesh,23.3315,75.0367,24.0,56,0.0,954.2,7.6,33.5,59,33.5,18.5,0,5,7,0,2026-03-17T02:12:06.203095+05:30
Sagar,Madhya Pradesh,23.8388,78.7378,22.6,41,0.0,949.2,7.55,30.6,49,18.4,11.8,0,5,7,0,2026-03-17T02:12:06.203101+05:30
Satna,Madhya Pradesh,24.6005,80.8322,22.8,75,0.0,971.1,7.55,37.4,85,55.9,46.1,3,5,7,1,2026-03-17T02:12:06.203107+05:30
Akola,Maharashtra,20.7002,77.0082,25.2,45,0.0,974.5,8.05,24.1,69,47.6,31.0,4,5,7,0,2026-03-17T02:12:06.203114+05:30
Amravati,Maharashtra,20.9374,77.7796,25.3,48,0.0,966.6,8.0,30.6,73,49.1,35.4,4,5,7,0,2026-03-17T02:12:06.203121+05:30
Latur,Maharashtra,18.4088,76.5604,21.6,69,0.0,939.1,8.55,23.4,94,45.4,42.3,3,5,7,0,2026-03-17T02:12:06.203128+05:30
Nanded,Maharashtra,19.1383,77.3091,24.4,63,0.0,968.1,8.3,19.1,106,61.7,56.8,3,5,7,1,2026-03-17T02:12:06.203134+05:30
Gulbarga,Karnataka,17.3297,76.8343,24.1,65,0.0,958.3,8.3,24.5,109,45.1,41.0,3,5,7,1,2026-03-17T02:12:06.203140+05:30
Bidar,Karnataka,17.9104,77.5199,23.2,65,0.0,934.6,8.55,34.9,123,45.3,41.0,3,5,7,1,2026-03-17T02:12:06.203145+05:30
Hospet,Karnataka,15.2689,76.3909,24.2,75,0.0,955.8,8.7,27.7,118,46.9,42.7,3,5,7,1,2026-03-17T02:12:06.203151+05:30
Tirupur,Tamil Nadu,11.1085,77.3411,24.2,83,0.0,975.4,9.35,37.1,73,30.5,29.0,3,5,7,1,2026-03-17T02:12:06.203156+05:30
Alappuzha,Kerala,9.4981,76.3388,27.1,83,0.0,1008.7,9.05,30.2,79,24.5,22.7,7,0,4,1,2026-03-17T02:12:06.203161+05:30
Munnar,Kerala,10.0889,77.0595,17.8,91,0.0,855.1,9.6,33.5,72,26.3,25.2,3,10,7,1,2026-03-17T02:12:06.203168+05:30
Silchar,Assam,24.8333,92.7789,19.2,94,0.0,1007.9,7.9,41.0,66,22.9,19.8,3,10,4,1,2026-03-17T02:12:06.203174+05:30
Dibrugarh,Assam,27.4728,94.912,18.5,91,0.0,996.8,6.25,33.1,78,30.4,25.4,3,10,7,1,2026-03-17T02:12:06.203180+05:30
