city,state,latitude,longitude,temp,humidity,rain,pressure,uv_index,wind_gusts,aqi,pm10,pm2_5,mosquito_risk,arthritis_risk,migraine_risk,frizz_risk,updated_at
Delhi,Delhi,28.6139,77.209,29.5,41,0.0,985.9,5.8,32.8,188,319.4,88.0,4,5,3,0,2026-03-12T10:19:40.788369+05:30
Mumbai,Maharashtra,19.076,72.8777,27.5,85,0.0,1011.1,7.6,26.6,155,95.0,89.9,7,0,4,1,2026-03-12T10:19:40.788411+05:30
Bangalore,Karnataka,12.9716,77.5946,27.3,46,0.0,915.6,9.3,31.7,67,21.2,20.0,4,5,7,0,2026-03-12T10:19:40.788426+05:30
Hyderabad,Telangana,17.385,78.4867,31.8,35,0.0,957.6,8.65,23.0,97,37.1,29.2,0,5,7,0,2026-03-12T10:19:40.788436+05:30
Chennai,Tamil Nadu,13.0827,80.2707,31.2,58,0.0,1011.2,9.05,29.2,72,30.2,26.2,0,0,4,1,2026-03-12T10:19:40.788445+05:30
Kolkata,West Bengal,22.5726,88.3639,28.5,73,0.0,1009.9,8.0,20.9,134,48.2,39.7,7,0,4,1,2026-03-12T10:19:40.788454+05:30
Pune,Maharashtra,18.5204,73.8567,33.6,28,0.0,952.4,8.15,25.9,146,70.1,64.0,0,5,7,0,2026-03-12T10:19:40.788466+05:30
Ahmedabad,Gujarat,23.0225,72.5714,30.9,36,0.0,1006.9,7.45,28.4,71,22.1,20.8,0,5,4,0,2026-03-12T10:19:40.788473+05:30
Jaipur,Rajasthan,26.9124,75.7873,31.1,20,0.0,964.1,6.1,43.2,101,177.0,34.1,0,5,7,0,2026-03-12T10:19:40.788482+05:30
Lucknow,Uttar Pradesh,26.8467,80.9462,29.0,49,0.0,996.3,6.1,27.7,155,327.8,79.9,4,5,7,1,2026-03-12T10:19:40.788489+05:30
Kanpur,Uttar Pradesh,26.4499,80.3319,28.9,64,0.0,994.8,6.5,22.0,171,233.8,56.1,7,5,7,1,2026-03-12T10:19:40.788496+05:30
Chandigarh,Chandigarh,30.7333,76.7794,23.9,67,0.0,972.4,5.85,32.0,101,51.8,37.8,3,5,3,1,2026-03-12T10:19:40.788504+05:30
Srinagar,Jammu and Kashmir,34.0837,74.7973,10.8,88,0.0,842.7,6.9,24.8,109,6.7,6.6,3,10,7,0,2026-03-12T10:19:40.788512+05:30
Jammu,Jammu and Kashmir,32.7266,74.857,22.9,68,0.0,977.1,6.65,39.6,79,42.3,29.0,3,5,7,1,2026-03-12T10:19:40.788520+05:30
Amritsar,Punjab,31.634,74.8723,21.8,79,0.0,984.5,6.65,32.4,158,84.3,61.5,3,5,7,1,2026-03-12T10:19:40.788527+05:30
Ludhiana,Punjab,30.901,75.8573,23.4,75,0.0,982.3,6.15,59.4,162,75.7,68.0,3,5,7,1,2026-03-12T10:19:40.788533+05:30
Jalandhar,Punjab,31.326,75.5762,22.5,72,0.0,983.6,6.25,31.7,155,81.5,62.9,3,5,7,1,2026-03-12T10:19:40.788543+05:30
Dehradun,Uttarakhand,30.6284,78.0322,19.9,46,0.0,833.6,5.9,37.4,59,28.8,9.7,0,5,3,0,2026-03-12T10:19:40.788550+05:30
Shimla,Himachal Pradesh,31.1048,77.1734,17.9,47,0.0,788.3,6.5,42.1,71,42.0,14.7,0,5,7,0,2026-03-12T10:19:40.788557+05:30
Manali,Himachal Pradesh,32.2396,77.1887,11.0,100,0.8,819.8,4.45,44.3,46,10.8,4.2,6,10,3,0,2026-03-12T10:19:40.788564+05:30
Gurgaon,Haryana,28.4595,77.0266,28.4,49,0.0,984.3,5.95,34.2,757,1367.2,195.1,4,5,3,1,2026-03-12T10:19:40.788571+05:30
Noida,Uttar Pradesh,28.5355,77.391,29.8,42,0.0,987.3,6.0,32.0,757,1367.2,195.1,4,5,3,0,2026-03-12T10:19:40.788578+05:30
Ghaziabad,Uttar Pradesh,28.6692,77.4538,28.0,52,0.0,985.5,5.95,28.1,156,254.3,83.8,4,5,3,1,2026-03-12T10:19:40.788584+05:30
Faridabad,Haryana,28.4089,77.3178,29.9,43,0.0,986.6,6.1,32.0,757,1367.2,195.1,4,5,7,0,2026-03-12T10:19:40.788593+05:30
Meerut,Uttar Pradesh,28.9845,77.7064,28.1,53,0.0,984.4,6.05,24.1,156,254.3,83.8,4,5,7,1,2026-03-12T10:19:40.788600+05:30
Agra,Uttar Pradesh,27.1767,78.0081,31.2,42,0.0,990.9,6.0,32.4,427,588.6,80.1,0,5,3,1,2026-03-12T10:19:40.788607+05:30
Varanasi,Uttar Pradesh,25.3176,82.9739,30.0,54,0.0,1000.7,7.3,26.6,159,75.7,37.1,4,5,4,1,2026-03-12T10:19:40.788616+05:30
Prayagraj,Uttar Pradesh,25.4358,81.8463,30.0,50,0.0,999.2,6.7,25.6,157,87.5,37.7,4,5,7,1,2026-03-12T10:19:40.788623+05:30
Gorakhpur,Uttar Pradesh,26.7606,83.3732,28.6,71,0.0,1000.1,6.6,21.6,231,198.8,160.2,7,5,4,1,2026-03-12T10:19:40.788632+05:30
Bareilly,Uttar Pradesh,28.367,79.4304,26.4,65,0.0,989.6,5.95,23.8,153,71.5,46.1,7,5,3,1,2026-03-12T10:19:40.788639+05:30
Aligarh,Uttar Pradesh,27.8974,78.088,29.7,43,0.0,988.4,5.7,33.1,447,514.1,108.0,4,5,3,0,2026-03-12T10:19:40.788645+05:30
Moradabad,Uttar Pradesh,28.8386,78.7733,26.8,61,0.0,986.3,5.9,27.0,151,87.1,55.6,7,5,3,1,2026-03-12T10:19:40.788651+05:30
Saharanpur,Uttar Pradesh,29.9637,77.546,26.9,63,0.0,978.6,5.15,31.7,151,101.5,78.0,7,5,3,1,2026-03-12T10:19:40.788656+05:30
Jhansi,Uttar Pradesh,25.4484,78.5685,33.2,26,0.0,981.7,6.65,31.3,70,23.7,13.2,0,5,7,0,2026-03-12T10:19:44.040232+05:30
Surat,Gujarat,21.1702,72.8311,32.0,32,0.0,1010.5,7.3,26.6,151,50.3,49.4,0,0,4,0,2026-03-12T10:19:44.040265+05:30
Vadodara,Gujarat,22.3072,73.1812,32.4,29,0.0,1008.8,7.45,24.5,76,25.8,25.2,0,0,4,0,2026-03-12T10:19:44.040277+05:30
Rajkot,Gujarat,22.3039,70.8022,29.1,44,0.0,999.1,7.3,29.9,59,30.9,17.6,4,5,7,0,2026-03-12T10:19:44.040287+05:30
Thane,Maharashtra,19.2183,72.9781,31.5,58,0.0,1010.8,7.6,39.6,155,95.0,89.9,0,0,4,1,2026-03-12T10:19:44.040296+05:30
Nagpur,Maharashtra,21.1458,79.0882,32.6,37,0.0,977.9,8.05,15.8,92,42.3,22.4,0,5,7,1,2026-03-12T10:19:44.040305+05:30
Nashik,Maharashtra,19.9975,73.7898,32.7,23,0.0,949.8,7.8,25.2,110,21.4,18.9,0,5,7,0,2026-03-12T10:19:44.040314+05:30
Aurangabad,Maharashtra,19.8762,75.3433,32.8,26,0.0,948.4,8.35,20.5,101,24.4,19.8,0,5,7,0,2026-03-12T10:19:44.040322+05:30
Solapur,Maharashtra,17.6599,75.9064,30.2,45,0.0,961.1,8.55,17.6,100,46.9,38.2,0,5,7,1,2026-03-12T10:19:44.040331+05:30
Kolhapur,Maharashtra,16.705,74.2433,30.6,44,0.0,951.7,8.65,25.9,152,81.5,75.4,0,5,7,1,2026-03-12T10:19:44.040339+05:30
Goa,Goa,15.2993,74.124,30.7,64,0.0,1000.9,8.7,34.9,148,67.1,59.5,3,5,4,1,2026-03-12T10:19:44.040348+05:30
Jodhpur,Rajasthan,26.2389,73.0243,29.3,27,0.0,987.4,6.3,27.0,73,56.3,18.5,4,5,7,0,2026-03-12T10:19:44.040357+05:30
Udaipur,Rajasthan,24.5854,73.7125,31.1,14,0.0,951.4,7.45,38.9,51,12.8,11.8,0,5,7,0,2026-03-12T10:19:44.040365+05:30
Kota,Rajasthan,25.2138,75.8648,32.4,23,0.0,983.1,6.7,34.6,80,21.9,17.3,0,5,7,0,2026-03-12T10:19:44.040373+05:30
Bikaner,Rajasthan,28.0229,73.3119,27.8,32,0.0,985.4,6.3,22.7,88,111.8,43.0,4,5,7,0,2026-03-12T10:19:44.040381+05:30
Ajmer,Rajasthan,26.4499,74.6399,27.9,31,0.0,959.0,6.4,36.0,59,25.0,13.8,4,5,7,0,2026-03-12T10:19:44.040389+05:30
Gwalior,Madhya Pradesh,26.2183,78.1828,32.2,30,0.0,986.5,6.4,37.8,71,34.8,16.6,0,5,7,0,2026-03-12T10:19:44.040398+05:30
Indore,Madhya Pradesh,22.7196,75.8577,31.0,30,0.0,953.1,7.75,28.1,72,36.1,25.2,0,5,7,0,2026-03-12T10:19:44.040406+05:30
Bhopal,Madhya Pradesh,23.2599,77.4126,31.7,32,0.0,958.6,7.6,29.5,66,31.9,16.1,0,5,7,0,2026-03-12T10:19:44.040414+05:30
Jabalpur,Madhya Pradesh,23.1815,79.9864,30.3,40,0.0,966.2,7.7,21.2,95,56.6,27.0,0,5,7,0,2026-03-12T10:19:44.040422+05:30
Ujjain,Madhya Pradesh,23.1765,75.7885,29.4,41,0.0,958.6,7.65,27.7,93,42.4,36.3,4,5,7,0,2026-03-12T10:19:44.040430+05:30
Visakhapatnam,Andhra Pradesh,17.6868,83.2185,32.0,44,0.0,1007.2,8.65,37.1,86,35.2,32.8,0,5,4,1,2026-03-12T10:19:44.040440+05:30
Vijayawada,Andhra Pradesh,16.5062,80.648,31.1,48,0.0,1006.8,8.7,29.2,69,22.8,21.4,0,5,4,1,2026-03-12T10:19:44.040448+05:30
Guntur,Andhra Pradesh,16.3067,80.4365,31.5,44,0.0,1007.8,8.7,30.6,65,21.0,19.9,0,5,4,1,2026-03-12T10:19:44.040454+05:30
Nellore,Andhra Pradesh,14.4426,79.9865,31.4,52,0.0,1010.0,8.9,26.6,64,25.4,22.9,0,0,4,1,2026-03-12T10:19:44.040462+05:30
Kurnool,Andhra Pradesh,15.8281,78.0373,32.2,39,0.0,981.0,8.7,25.2,72,17.9,16.6,0,5,7,1,2026-03-12T10:19:44.040469+05:30
Kakinada,Andhra Pradesh,16.9891,82.2475,32.0,50,0.0,1011.2,8.65,37.1,72,24.5,22.2,0,0,4,1,2026-03-12T10:19:44.040475+05:30
Tirupati,Andhra Pradesh,13.6288,79.4192,30.7,47,0.0,995.8,9.05,34.9,85,36.0,33.4,0,5,7,1,2026-03-12T10:19:44.040482+05:30
Warangal,Telangana,17.9689,79.5941,30.8,47,0.0,982.9,8.5,14.0,97,43.4,38.3,0,5,7,1,2026-03-12T10:19:44.040488+05:30
Nizamabad,Telangana,18.6725,78.0941,31.4,41,0.0,969.1,8.35,20.2,112,45.4,39.8,0,5,7,1,2026-03-12T10:19:44.040495+05:30
Mysore,Karnataka,12.2958,76.6396,27.6,53,0.0,932.0,9.3,33.5,64,21.0,19.6,4,5,7,1,2026-03-12T10:19:44.040501+05:30
Mangalore,Karnataka,12.9141,74.856,29.0,77,0.0,1008.9,8.95,33.8,98,51.8,45.4,7,0,4,1,2026-03-12T10:19:44.040508+05:30
Hubli-Dharwad,Karnataka,15.3647,75.124,30.0,40,0.0,944.7,8.85,34.9,66,32.6,28.1,4,5,7,0,2026-03-12T10:19:44.040514+05:30
Belgaum,Karnataka,15.8497,74.4977,30.9,29,0.0,929.6,8.95,37.8,112,30.3,24.7,0,5,7,0,2026-03-12T10:19:47.288296+05:30
Coimbatore,Tamil Nadu,11.0168,76.9558,28.6,56,0.0,965.4,9.3,45.4,74,20.8,19.2,4,5,7,1,2026-03-12T10:19:47.288328+05:30
Madurai,Tamil Nadu,9.9252,78.1198,30.1,58,0.0,996.8,9.25,33.1,71,24.3,21.1,0,5,7,1,2026-03-12T10:19:47.288339+05:30
Trichy,Tamil Nadu,10.7905,78.7047,30.0,61,0.0,1003.8,9.15,27.0,75,33.2,29.9,7,5,4,1,2026-03-12T10:19:47.288348+05:30
Salem,Tamil Nadu,11.6643,78.146,29.0,63,0.0,981.5,9.2,28.8,72,29.7,27.1,7,5,7,1,2026-03-12T10:19:47.288356+05:30
Tirunelveli,Tamil Nadu,8.7139,77.7567,30.6,56,0.0,1006.6,8.8,34.6,61,18.5,15.8,0,5,4,1,2026-03-12T10:19:47.288364+05:30
Vellore,Tamil Nadu,12.9165,79.1325,29.6,55,0.0,988.9,9.1,34.9,92,27.8,25.0,4,5,7,1,2026-03-12T10:19:47.288372+05:30
Erode,Tamil Nadu,11.341,77.7172,29.6,65,0.0,993.1,9.15,22.7,73,27.2,24.5,7,5,7,1,2026-03-12T10:19:47.288379+05:30
Kochi,Kerala,9.9312,76.2673,27.7,82,0.0,1011.0,9.05,33.8,98,33.6,31.2,7,0,4,1,2026-03-12T10:19:47.288387+05:30
Thiruvananthapuram,Kerala,8.5241,76.9366,27.3,80,0.0,1010.4,9.05,25.9,60,16.5,15.1,7,0,4,1,2026-03-12T10:19:47.288394+05:30
Kozhikode,Kerala,11.2588,75.7804,29.8,72,0.0,1010.0,9.0,31.3,98,48.1,44.0,7,0,4,1,2026-03-12T10:19:47.288401+05:30
Thrissur,Kerala,10.5276,76.2144,32.5,57,0.0,1009.1,9.05,39.6,94,39.1,36.8,0,0,4,1,2026-03-12T10:19:47.288409+05:30
Kannur,Kerala,11.8745,75.3704,30.8,60,0.0,1009.3,9.0,31.7,102,42.0,38.0,0,0,4,1,2026-03-12T10:19:47.288417+05:30
Patna,Bihar,25.5941,85.1376,30.1,64,0.0,1003.5,7.45,24.1,233,191.9,175.6,3,5,4,1,2026-03-12T10:19:47.288424+05:30
Gaya,Bihar,24.7914,85.0002,30.8,54,0.0,996.8,7.3,22.7,195,141.1,111.3,0,5,7,1,2026-03-12T10:19:47.288431+05:30
Muzaffarpur,Bihar,26.1209,85.3647,28.9,68,0.0,1003.6,7.45,25.6,238,204.9,188.6,7,5,4,1,2026-03-12T10:19:47.288438+05:30
Bhagalpur,Bihar,25.2425,87.0117,26.8,75,0.0,1005.2,7.2,33.5,186,109.9,100.4,7,5,4,1,2026-03-12T10:19:47.288446+05:30
Ranchi,Jharkhand,23.3441,85.3096,28.4,42,0.0,941.8,8.2,35.6,169,137.4,59.1,4,5,7,0,2026-03-12T10:19:47.288453+05:30
Jamshedpur,Jharkhand,22.8046,86.2029,30.4,64,0.0,994.5,8.1,19.8,169,120.1,104.8,3,5,7,1,2026-03-12T10:19:47.288460+05:30
Dhanbad,Jharkhand,23.7957,86.4304,30.5,49,0.0,983.2,8.0,21.6,198,156.0,137.4,0,5,7,1,2026-03-12T10:19:47.288467+05:30
Bokaro,Jharkhand,23.6693,86.1511,30.6,46,0.0,987.4,8.0,24.1,194,143.9,118.7,0,5,7,1,2026-03-12T10:19:47.288474+05:30
Bhubaneswar,Odisha,20.2961,85.8245,30.9,65,0.0,1006.2,8.35,31.0,99,41.1,35.5,3,5,4,1,2026-03-12T10:19:47.288481+05:30
Cuttack,Odisha,20.4625,85.8828,31.0,64,0.0,1008.1,8.35,30.2,99,41.1,35.5,3,0,4,1,2026-03-12T10:19:47.288488+05:30
Rourkela,Odisha,22.2604,84.8536,30.8,53,0.0,989.2,8.0,16.9,160,128.1,101.0,0,5,7,1,2026-03-12T10:19:47.288494+05:30
Raipur,Chhattisgarh,21.2514,81.6296,31.8,31,0.0,979.6,8.1,15.5,167,92.0,72.9,0,5,7,0,2026-03-12T10:19:47.288502+05:30
Bhilai,Chhattisgarh,21.1938,81.3509,31.9,32,0.0,980.0,8.1,13.7,160,102.9,82.2,0,5,7,0,2026-03-12T10:19:47.288509+05:30
Guwahati,Assam,26.1158,91.7086,25.7,78,0.0,1006.7,7.3,24.1,153,72.2,64.7,7,5,4,1,2026-03-12T10:19:47.288515+05:30
Agartala,Tripura,23.8315,91.2868,25.6,83,0.0,1011.1,7.75,19.1,165,62.6,55.4,7,0,4,1,2026-03-12T10:19:47.288522+05:30
Shillong,Meghalaya,25.5788,91.8933,18.4,61,0.0,860.3,6.85,26.3,120,64.0,55.4,3,5,7,0,2026-03-12T10:19:47.288529+05:30
Imphal,Manipur,24.817,93.9368,22.5,69,0.0,927.3,8.0,31.0,170,86.4,77.3,3,5,7,1,2026-03-12T10:19:47.288537+05:30
Aizawl,Mizoram,23.7271,92.7176,23.6,60,0.0,897.2,7.9,36.4,188,112.9,99.4,0,5,7,0,2026-03-12T10:19:47.288544+05:30
Kohima,Nagaland,25.6701,94.1077,18.1,83,0.0,859.0,7.1,47.5,152,61.2,54.8,3,10,7,0,2026-03-12T10:19:47.288551+05:30
Gangtok,Sikkim,27.3314,88.6138,20.1,61,0.0,841.6,6.35,22.3,133,45.6,40.5,3,5,7,0,2026-03-12T10:19:47.288558+05:30
Siliguri,West Bengal,26.7271,88.3953,25.0,72,0.0,997.8,7.0,23.8,177,97.1,87.1,7,5,7,1,2026-03-12T10:19:50.540880+05:30
Durgapur,West Bengal,23.5204,87.3119,29.4,68,0.0,998.7,7.95,25.6,184,135.5,122.5,7,5,7,1,2026-03-12T10:19:50.540910+05:30
Asansol,West Bengal,23.6739,86.9524,29.5,66,0.0,997.1,7.65,26.3,184,149.0,134.1,7,5,7,1,2026-03-12T10:19:50.540919+05:30
Pondicherry,Puducherry,11.9139,79.8145,30.7,64,0.0,1012.4,9.0,28.4,68,28.7,24.2,3,0,4,1,2026-03-12T10:19:50.540927+05:30
Port Blair,Andaman and Nicobar Islands,11.6234,92.7265,28.7,71,0.0,1009.6,8.95,21.6,47,12.9,10.1,7,0,4,1,2026-03-12T10:19:50.540935+05:30
Haridwar,Uttarakhand,29.9457,78.1642,29.0,50,0.0,976.9,5.6,29.9,108,42.6,29.1,4,5,3,1,2026-03-12T10:19:50.540942+05:30
Rishikesh,Uttarakhand,30.0869,78.2676,29.5,41,0.0,969.6,5.6,26.6,86,30.5,21.8,4,5,3,0,2026-03-12T10:19:50.540950+05:30
Nainital,Uttarakhand,29.3919,79.4542,23.3,47,0.0,810.2,6.65,55.1,99,40.5,21.6,0,5,7,0,2026-03-12T10:19:50.540957+05:30
Mussoorie,Uttarakhand,30.4599,78.0664,21.9,39,0.0,807.0,5.75,45.7,87,31.3,19.1,0,5,3,0,2026-03-12T10:19:50.540964+05:30
Dharamshala,Himachal Pradesh,32.219,76.3234,19.4,59,0.1,872.5,6.2,36.4,56,21.2,12.8,3,5,7,0,2026-03-12T10:19:50.540972+05:30
Dalhousie,Himachal Pradesh,32.5387,75.971,15.6,65,0.0,806.2,5.0,36.0,80,49.8,30.4,3,5,3,0,2026-03-12T10:19:50.540979+05:30
Patiala,Punjab,30.3398,76.3869,24.4,68,0.0,981.9,5.75,31.0,159,274.7,85.2,3,5,3,1,2026-03-12T10:19:50.540986+05:30
Bhatinda,Punjab,30.211,74.9455,26.1,69,0.0,986.9,6.65,27.4,154,91.5,62.4,7,5,7,1,2026-03-12T10:19:50.540993+05:30
Rohtak,Haryana,28.8955,76.6066,28.0,50,0.0,984.6,6.05,27.7,277,448.0,89.6,4,5,7,1,2026-03-12T10:19:50.541000+05:30
Panipat,Haryana,29.3909,76.9635,27.7,58,0.0,983.4,5.85,24.5,377,702.2,115.7,4,5,3,1,2026-03-12T10:19:50.541007+05:30
Mathura,Uttar Pradesh,27.4924,77.6737,31.2,39,0.0,989.8,5.65,35.3,400,512.2,71.0,0,5,3,0,2026-03-12T10:19:50.541014+05:30
Vrindavan,Uttar Pradesh,27.5823,77.7027,30.7,41,0.0,990.3,5.7,36.7,400,512.2,71.0,0,5,3,0,2026-03-12T10:19:50.541020+05:30
Ayodhya,Uttar Pradesh,26.7922,82.1998,28.5,61,0.0,997.9,6.8,30.6,164,245.9,73.6,7,5,7,1,2026-03-12T10:19:50.541027+05:30
Ratlam,Madhya Pradesh,23.3315,75.0367,30.8,33,0.0,959.4,7.6,32.0,82,27.4,24.0,0,5,7,0,2026-03-12T10:19:50.541034+05:30
Sagar,Madhya Pradesh,23.8388,78.7378,32.6,25,0.0,954.8,7.35,27.4,67,29.9,11.8,0,5,7,0,2026-03-12T10:19:50.541041+05:30
Satna,Madhya Pradesh,24.6005,80.8322,33.0,29,0.0,975.2,7.55,33.5,79,42.0,18.0,0,5,7,0,2026-03-12T10:19:50.541048+05:30
Akola,Maharashtra,20.7002,77.0082,32.8,32,0.0,979.8,8.05,20.9,98,38.5,27.4,0,5,7,0,2026-03-12T10:19:50.541071+05:30
Amravati,Maharashtra,20.9374,77.7796,34.2,25,0.0,972.0,8.0,16.9,97,43.1,32.0,0,5,7,0,2026-03-12T10:19:50.541080+05:30
Latur,Maharashtra,18.4088,76.5604,30.6,39,0.0,944.3,8.45,19.1,93,43.7,35.5,0,5,7,0,2026-03-12T10:19:50.541087+05:30
Nanded,Maharashtra,19.1383,77.3091,32.9,35,0.0,973.0,8.25,16.6,101,41.6,36.9,0,5,7,0,2026-03-12T10:19:50.541094+05:30
Gulbarga,Karnataka,17.3297,76.8343,31.8,37,0.0,962.9,8.55,18.0,101,42.6,35.0,0,5,7,0,2026-03-12T10:19:50.541101+05:30
Bidar,Karnataka,17.9104,77.5199,31.6,34,0.0,940.0,8.5,19.1,103,42.6,34.9,0,5,7,0,2026-03-12T10:19:50.541108+05:30
Hospet,Karnataka,15.2689,76.3909,29.0,47,0.0,959.9,8.85,32.4,74,20.0,18.6,4,5,7,1,2026-03-12T10:19:50.541114+05:30
Tirupur,Tamil Nadu,11.1085,77.3411,29.3,57,0.0,979.2,9.3,32.8,79,28.0,25.6,4,5,7,1,2026-03-12T10:19:50.541120+05:30
Alappuzha,Kerala,9.4981,76.3388,27.5,81,0.0,1011.1,8.85,30.6,88,27.5,26.0,7,0,4,1,2026-03-12T10:19:50.541127+05:30
Munnar,Kerala,10.0889,77.0595,27.5,50,0.0,860.7,9.55,20.5,73,20.5,18.6,4,5,7,1,2026-03-12T10:19:50.541135+05:30
Silchar,Assam,24.8333,92.7789,26.6,73,0.0,1010.0,7.7,23.8,184,122.0,110.8,7,0,4,1,2026-03-12T10:19:50.541141+05:30
Dibrugarh,Assam,27.4728,94.912,25.1,71,0.0,1000.4,7.45,20.2,155,78.7,70.5,7,5,4,1,2026-03-12T10:19:50.541148+05:30
