city,state,latitude,longitude,temp,humidity,rain,pressure,uv_index,wind_gusts,aqi,pm10,pm2_5,mosquito_risk,arthritis_risk,migraine_risk,frizz_risk,updated_at
Delhi,Delhi,28.6139,77.209,31.0,37,0.0,985.1,6.5,46.8,169,245.9,40.2,0,5,7,0,2026-03-26T17:22:44.818065+05:30
Mumbai,Maharashtra,19.076,72.8777,29.2,67,0.0,1007.7,7.95,29.2,120,48.8,43.0,7,5,4,1,2026-03-26T17:22:44.818107+05:30
Bangalore,Karnataka,12.9716,77.5946,32.1,23,0.0,912.4,9.45,33.5,103,21.2,15.7,0,5,7,0,2026-03-26T17:22:44.818122+05:30
Hyderabad,Telangana,17.385,78.4867,32.8,37,0.0,954.4,9.0,16.2,118,31.8,24.4,0,5,7,1,2026-03-26T17:22:44.818131+05:30
Chennai,Tamil Nadu,13.0827,80.2707,30.3,59,0.0,1007.9,9.2,31.3,59,26.8,16.2,0,5,4,1,2026-03-26T17:22:44.818140+05:30
Kolkata,West Bengal,22.5726,88.3639,31.3,58,0.0,1006.6,8.4,14.0,155,64.3,53.9,0,5,4,1,2026-03-26T17:22:44.818149+05:30
Pune,Maharashtra,18.5204,73.8567,35.4,32,0.0,948.9,8.5,39.2,106,48.1,36.6,0,5,10,1,2026-03-26T17:22:44.818161+05:30
Ahmedabad,Gujarat,23.0225,72.5714,36.9,19,0.0,1002.7,7.9,27.7,66,29.6,11.6,0,5,7,0,2026-03-26T17:22:44.818168+05:30
Jaipur,Rajasthan,26.9124,75.7873,31.6,30,0.0,962.1,7.2,29.5,95,108.5,23.7,0,5,7,0,2026-03-26T17:22:44.818176+05:30
Lucknow,Uttar Pradesh,26.8467,80.9462,34.4,22,0.0,994.1,7.1,34.9,119,97.3,24.2,0,5,7,0,2026-03-26T17:22:44.818184+05:30
Kanpur,Uttar Pradesh,26.4499,80.3319,32.7,33,0.0,992.9,7.15,27.0,175,333.4,44.0,0,5,7,0,2026-03-26T17:22:44.818191+05:30
Chandigarh,Chandigarh,30.7333,76.7794,27.8,47,0.0,971.7,6.55,34.9,68,21.1,14.6,4,5,7,0,2026-03-26T17:22:44.818198+05:30
Srinagar,Jammu and Kashmir,34.0837,74.7973,14.8,56,0.1,844.6,7.45,16.2,94,28.9,18.4,3,5,7,0,2026-03-26T17:22:44.818206+05:30
Jammu,Jammu and Kashmir,32.7266,74.857,26.9,55,0.0,976.4,6.8,23.4,78,22.5,12.0,4,5,7,1,2026-03-26T17:22:44.818214+05:30
Amritsar,Punjab,31.634,74.8723,26.7,51,0.0,985.0,6.6,24.1,88,50.4,20.1,4,5,7,0,2026-03-26T17:22:44.818220+05:30
Ludhiana,Punjab,30.901,75.8573,27.9,46,0.0,982.4,6.15,32.0,91,32.8,19.3,4,5,7,0,2026-03-26T17:22:44.818227+05:30
Jalandhar,Punjab,31.326,75.5762,27.5,47,0.0,983.7,6.8,26.6,87,44.9,18.6,4,5,7,0,2026-03-26T17:22:44.818235+05:30
Dehradun,Uttarakhand,30.6284,78.0322,19.7,46,0.0,832.3,6.95,39.2,87,18.2,9.7,0,5,7,0,2026-03-26T17:22:44.818242+05:30
Shimla,Himachal Pradesh,31.1048,77.1734,16.1,55,0.0,787.3,7.0,43.2,84,15.6,10.0,0,5,7,0,2026-03-26T17:22:44.818248+05:30
Manali,Himachal Pradesh,32.2396,77.1887,17.4,58,0.0,822.4,8.75,23.4,113,14.3,8.3,0,5,7,0,2026-03-26T17:22:44.818254+05:30
Gurgaon,Haryana,28.4595,77.0266,29.1,45,0.0,984.1,5.8,36.0,275,754.4,84.5,4,5,3,0,2026-03-26T17:22:44.818261+05:30
Noida,Uttar Pradesh,28.5355,77.391,31.0,39,0.0,986.5,6.45,47.9,275,754.4,84.5,0,5,7,0,2026-03-26T17:22:44.818268+05:30
Ghaziabad,Uttar Pradesh,28.6692,77.4538,30.4,41,0.0,984.6,6.5,32.8,140,208.2,36.7,0,5,7,0,2026-03-26T17:22:44.818274+05:30
Faridabad,Haryana,28.4089,77.3178,30.0,39,0.0,986.2,6.2,47.2,275,754.4,84.5,4,5,7,0,2026-03-26T17:22:44.818281+05:30
Meerut,Uttar Pradesh,28.9845,77.7064,29.9,42,0.0,983.2,6.4,28.8,140,208.2,36.7,4,5,7,0,2026-03-26T17:22:44.818287+05:30
Agra,Uttar Pradesh,27.1767,78.0081,34.5,23,0.0,989.0,6.95,29.2,182,491.7,54.1,0,5,7,0,2026-03-26T17:22:44.818293+05:30
Varanasi,Uttar Pradesh,25.3176,82.9739,33.8,24,0.0,998.1,7.8,28.8,140,86.6,22.7,0,5,7,0,2026-03-26T17:22:44.818302+05:30
Prayagraj,Uttar Pradesh,25.4358,81.8463,33.2,26,0.0,996.8,7.7,28.1,146,75.7,20.3,0,5,7,0,2026-03-26T17:22:44.818309+05:30
Gorakhpur,Uttar Pradesh,26.7606,83.3732,32.8,33,0.0,997.3,7.55,11.5,149,88.7,24.0,0,5,7,0,2026-03-26T17:22:44.818316+05:30
Bareilly,Uttar Pradesh,28.367,79.4304,31.5,35,0.0,987.6,6.8,30.2,99,27.6,14.1,0,5,7,0,2026-03-26T17:22:44.818322+05:30
Aligarh,Uttar Pradesh,27.8974,78.088,30.9,40,0.0,987.1,6.7,28.1,193,455.4,59.6,0,5,7,0,2026-03-26T17:22:44.818329+05:30
Moradabad,Uttar Pradesh,28.8386,78.7733,30.7,35,0.0,984.7,6.6,34.2,93,43.7,15.0,0,5,7,0,2026-03-26T17:22:44.818338+05:30
Saharanpur,Uttar Pradesh,29.9637,77.546,29.2,37,0.0,977.7,6.25,41.8,89,62.4,20.1,4,5,7,0,2026-03-26T17:22:44.818360+05:30
Jhansi,Uttar Pradesh,25.4484,78.5685,34.7,23,0.0,978.9,7.6,23.0,125,75.0,24.0,0,5,7,0,2026-03-26T17:22:48.074972+05:30
Surat,Gujarat,21.1702,72.8311,34.0,40,0.0,1007.1,7.7,25.9,100,36.9,29.8,0,5,4,1,2026-03-26T17:22:48.074999+05:30
Vadodara,Gujarat,22.3072,73.1812,37.3,25,0.0,1004.4,7.9,28.8,94,24.4,14.8,0,5,7,0,2026-03-26T17:22:48.075007+05:30
Rajkot,Gujarat,22.3039,70.8022,35.6,20,0.0,995.6,7.75,29.5,52,23.9,9.4,0,5,10,0,2026-03-26T17:22:48.075015+05:30
Thane,Maharashtra,19.2183,72.9781,33.1,43,0.0,1007.4,7.95,41.8,120,48.8,43.0,0,5,4,1,2026-03-26T17:22:48.075022+05:30
Nagpur,Maharashtra,21.1458,79.0882,37.3,21,0.0,972.4,8.45,25.2,168,41.1,33.5,0,5,10,0,2026-03-26T17:22:48.075028+05:30
Nashik,Maharashtra,19.9975,73.7898,33.5,28,0.0,946.5,8.15,33.1,88,35.6,25.1,0,5,7,0,2026-03-26T17:22:48.075034+05:30
Aurangabad,Maharashtra,19.8762,75.3433,35.9,21,0.0,944.5,8.65,27.7,96,25.1,17.0,0,5,10,0,2026-03-26T17:22:48.075040+05:30
Solapur,Maharashtra,17.6599,75.9064,36.8,24,0.0,957.0,8.8,22.0,117,30.4,23.1,0,5,10,0,2026-03-26T17:22:48.075047+05:30
Kolhapur,Maharashtra,16.705,74.2433,34.2,29,0.0,948.2,8.8,30.6,154,40.0,33.3,0,5,7,0,2026-03-26T17:22:48.075053+05:30
Goa,Goa,15.2993,74.124,32.3,65,0.0,996.9,8.75,34.2,136,38.3,30.6,3,5,7,1,2026-03-26T17:22:48.075059+05:30
Jodhpur,Rajasthan,26.2389,73.0243,34.9,21,0.0,984.3,7.55,33.1,80,111.8,19.6,0,5,7,0,2026-03-26T17:22:48.075065+05:30
Udaipur,Rajasthan,24.5854,73.7125,32.8,24,0.0,948.4,7.95,35.3,46,19.3,6.9,0,5,7,0,2026-03-26T17:22:48.075070+05:30
Kota,Rajasthan,25.2138,75.8648,36.5,20,0.0,979.3,7.7,23.4,93,25.4,15.3,0,5,10,0,2026-03-26T17:22:48.075077+05:30
Bikaner,Rajasthan,28.0229,73.3119,33.0,24,0.0,983.9,7.15,24.1,57,42.0,13.4,0,5,7,0,2026-03-26T17:22:48.075083+05:30
Ajmer,Rajasthan,26.4499,74.6399,32.7,24,0.0,956.5,7.15,33.1,92,26.2,10.2,0,5,7,0,2026-03-26T17:22:48.075089+05:30
Gwalior,Madhya Pradesh,26.2183,78.1828,33.9,29,0.0,984.6,7.3,23.4,94,66.1,15.8,0,5,7,0,2026-03-26T17:22:48.075095+05:30
Indore,Madhya Pradesh,22.7196,75.8577,34.7,21,0.0,949.0,8.15,32.4,64,12.1,6.3,0,5,7,0,2026-03-26T17:22:48.075102+05:30
Bhopal,Madhya Pradesh,23.2599,77.4126,36.1,17,0.0,954.1,8.1,31.0,80,17.0,9.8,0,5,10,0,2026-03-26T17:22:48.075107+05:30
Jabalpur,Madhya Pradesh,23.1815,79.9864,34.8,25,0.0,961.9,8.2,20.5,99,28.8,12.3,0,5,7,0,2026-03-26T17:22:48.075113+05:30
Ujjain,Madhya Pradesh,23.1765,75.7885,34.3,23,0.0,954.6,8.1,31.3,61,8.7,4.6,0,5,7,0,2026-03-26T17:22:48.075119+05:30
Visakhapatnam,Andhra Pradesh,17.6868,83.2185,30.2,66,0.0,1004.6,8.7,33.8,81,32.9,23.0,3,5,4,1,2026-03-26T17:22:48.075125+05:30
Vijayawada,Andhra Pradesh,16.5062,80.648,34.3,47,0.0,1002.6,9.0,22.0,70,32.7,23.2,0,5,4,1,2026-03-26T17:22:48.075131+05:30
Guntur,Andhra Pradesh,16.3067,80.4365,33.3,44,0.0,1004.1,9.0,27.4,67,33.3,23.4,0,5,4,1,2026-03-26T17:22:48.075137+05:30
Nellore,Andhra Pradesh,14.4426,79.9865,31.3,52,0.0,1006.4,9.1,30.2,59,24.3,15.3,0,5,4,1,2026-03-26T17:22:48.075144+05:30
Kurnool,Andhra Pradesh,15.8281,78.0373,37.9,22,0.0,976.4,9.0,26.3,99,30.5,21.5,0,5,10,0,2026-03-26T17:22:48.075151+05:30
Kakinada,Andhra Pradesh,16.9891,82.2475,32.9,53,0.0,1008.1,8.95,23.8,61,23.0,15.1,0,0,4,1,2026-03-26T17:22:48.075158+05:30
Tirupati,Andhra Pradesh,13.6288,79.4192,33.3,40,0.0,991.7,9.2,34.6,89,29.8,22.5,0,5,7,1,2026-03-26T17:22:48.075163+05:30
Warangal,Telangana,17.9689,79.5941,36.3,31,0.0,978.5,8.8,25.2,87,35.9,27.1,0,5,10,1,2026-03-26T17:22:48.075169+05:30
Nizamabad,Telangana,18.6725,78.0941,36.6,23,0.0,964.7,8.75,28.1,102,21.1,15.2,0,5,10,0,2026-03-26T17:22:48.075175+05:30
Mysore,Karnataka,12.2958,76.6396,33.8,25,0.0,928.2,9.4,37.8,115,23.3,17.8,0,5,7,0,2026-03-26T17:22:48.075181+05:30
Mangalore,Karnataka,12.9141,74.856,29.8,83,0.0,1004.8,9.1,31.0,147,38.8,30.9,7,5,4,1,2026-03-26T17:22:48.075188+05:30
Hubli-Dharwad,Karnataka,15.3647,75.124,33.0,33,0.0,941.3,9.1,29.5,129,28.4,22.5,0,5,7,0,2026-03-26T17:22:48.075194+05:30
Belgaum,Karnataka,15.8497,74.4977,30.8,41,0.0,926.6,9.05,33.1,131,34.1,27.3,0,5,7,0,2026-03-26T17:22:51.332651+05:30
Coimbatore,Tamil Nadu,11.0168,76.9558,34.5,25,0.0,960.9,9.4,41.4,99,25.7,20.4,0,5,7,0,2026-03-26T17:22:51.332687+05:30
Madurai,Tamil Nadu,9.9252,78.1198,34.7,37,0.0,991.9,9.35,27.0,72,28.2,19.7,0,5,7,1,2026-03-26T17:22:51.332699+05:30
Trichy,Tamil Nadu,10.7905,78.7047,33.4,44,0.0,999.2,9.3,27.4,83,38.4,29.9,0,5,7,1,2026-03-26T17:22:51.332709+05:30
Salem,Tamil Nadu,11.6643,78.146,34.4,35,0.0,976.8,9.35,34.6,123,30.0,22.9,0,5,7,1,2026-03-26T17:22:51.332718+05:30
Tirunelveli,Tamil Nadu,8.7139,77.7567,35.3,39,0.0,1001.3,9.3,40.0,53,16.1,11.0,0,5,7,1,2026-03-26T17:22:51.332726+05:30
Vellore,Tamil Nadu,12.9165,79.1325,32.1,44,0.0,984.9,9.3,34.9,86,23.7,16.7,0,5,7,1,2026-03-26T17:22:51.332734+05:30
Erode,Tamil Nadu,11.341,77.7172,36.6,29,0.0,987.8,9.3,25.2,83,35.2,27.9,0,5,10,0,2026-03-26T17:22:51.332742+05:30
Kochi,Kerala,9.9312,76.2673,29.7,77,0.0,1006.4,9.2,36.4,108,32.6,27.1,7,5,4,1,2026-03-26T17:22:51.332751+05:30
Thiruvananthapuram,Kerala,8.5241,76.9366,29.7,73,0.0,1006.4,9.2,30.2,103,17.5,12.0,7,5,4,1,2026-03-26T17:22:51.332759+05:30
Kozhikode,Kerala,11.2588,75.7804,30.4,78,0.0,1006.0,9.1,31.7,92,36.8,28.2,3,5,4,1,2026-03-26T17:22:51.332767+05:30
Thrissur,Kerala,10.5276,76.2144,31.5,67,0.0,1005.0,9.15,40.0,124,28.2,21.6,3,5,4,1,2026-03-26T17:22:51.332775+05:30
Kannur,Kerala,11.8745,75.3704,31.3,71,0.0,1005.7,9.1,35.6,99,40.0,32.1,3,5,4,1,2026-03-26T17:22:51.332783+05:30
Patna,Bihar,25.5941,85.1376,32.0,29,0.0,1001.0,7.95,22.7,163,47.7,17.8,0,5,4,0,2026-03-26T17:22:51.332791+05:30
Gaya,Bihar,24.7914,85.0002,31.2,34,0.0,994.4,8.05,25.6,132,44.8,14.2,0,5,7,0,2026-03-26T17:22:51.332799+05:30
Muzaffarpur,Bihar,26.1209,85.3647,30.9,42,0.0,1000.9,7.95,17.6,176,43.4,22.4,0,5,4,1,2026-03-26T17:22:51.332807+05:30
Bhagalpur,Bihar,25.2425,87.0117,29.5,55,0.0,1001.8,8.0,16.2,149,45.1,21.6,4,5,4,1,2026-03-26T17:22:51.332815+05:30
Ranchi,Jharkhand,23.3441,85.3096,30.3,23,0.0,939.2,8.7,34.9,115,17.9,6.1,0,5,7,0,2026-03-26T17:22:51.332823+05:30
Jamshedpur,Jharkhand,22.8046,86.2029,34.4,27,0.0,990.9,8.5,26.6,187,67.1,42.7,0,5,7,0,2026-03-26T17:22:51.332830+05:30
Dhanbad,Jharkhand,23.7957,86.4304,34.1,22,0.0,980.1,8.45,23.0,157,44.4,22.8,0,5,7,0,2026-03-26T17:22:51.332837+05:30
Bokaro,Jharkhand,23.6693,86.1511,33.8,22,0.0,984.0,8.45,19.8,149,32.0,14.9,0,5,7,0,2026-03-26T17:22:51.332843+05:30
Bhubaneswar,Odisha,20.2961,85.8245,30.4,64,0.0,1003.7,8.75,18.7,119,59.6,47.8,3,5,4,1,2026-03-26T17:22:51.332849+05:30
Cuttack,Odisha,20.4625,85.8828,32.2,55,0.0,1005.5,8.8,15.8,119,59.6,47.8,0,5,4,1,2026-03-26T17:22:51.332855+05:30
Rourkela,Odisha,22.2604,84.8536,35.5,26,0.0,984.7,8.45,23.8,158,36.2,13.2,0,5,10,0,2026-03-26T17:22:51.332860+05:30
Raipur,Chhattisgarh,21.2514,81.6296,37.0,22,0.0,974.2,8.5,23.8,177,40.9,28.9,0,5,10,0,2026-03-26T17:22:51.332866+05:30
Bhilai,Chhattisgarh,21.1938,81.3509,36.8,23,0.0,974.5,8.5,22.3,138,40.3,29.1,0,5,10,0,2026-03-26T17:22:51.332871+05:30
Guwahati,Assam,26.1158,91.7086,27.8,63,0.0,1002.7,7.9,23.0,131,56.7,39.6,7,5,4,1,2026-03-26T17:22:51.332877+05:30
Agartala,Tripura,23.8315,91.2868,30.1,55,0.0,1006.4,8.2,17.6,170,58.3,43.5,0,5,4,1,2026-03-26T17:22:51.332883+05:30
Shillong,Meghalaya,25.5788,91.8933,16.7,64,0.0,857.1,8.3,26.3,132,52.0,36.9,3,5,7,0,2026-03-26T17:22:51.332888+05:30
Imphal,Manipur,24.817,93.9368,19.9,49,0.0,923.6,8.55,43.9,134,39.0,28.1,0,5,7,0,2026-03-26T17:22:51.332894+05:30
Aizawl,Mizoram,23.7271,92.7176,22.7,53,0.0,893.7,8.45,32.8,130,38.1,25.0,0,5,7,0,2026-03-26T17:22:51.332900+05:30
Kohima,Nagaland,25.6701,94.1077,16.2,82,0.0,855.3,8.45,47.5,109,37.7,26.4,3,10,7,0,2026-03-26T17:22:51.332906+05:30
Gangtok,Sikkim,27.3314,88.6138,15.2,84,0.0,838.0,8.2,18.7,112,59.3,45.1,3,10,7,0,2026-03-26T17:22:51.332912+05:30
Siliguri,West Bengal,26.7271,88.3953,22.9,68,0.0,995.6,7.9,32.4,153,64.7,43.9,3,5,7,1,2026-03-26T17:22:54.616684+05:30
Durgapur,West Bengal,23.5204,87.3119,33.8,32,0.0,995.2,8.4,21.2,178,76.4,55.3,0,5,7,0,2026-03-26T17:22:54.616717+05:30
Asansol,West Bengal,23.6739,86.9524,33.9,30,0.0,993.8,8.4,17.6,167,62.6,40.0,0,5,7,0,2026-03-26T17:22:54.616729+05:30
Pondicherry,Puducherry,11.9139,79.8145,30.1,60,0.0,1009.0,9.2,29.2,55,30.0,17.3,0,0,4,1,2026-03-26T17:22:54.616739+05:30
Port Blair,Andaman and Nicobar Islands,11.6234,92.7265,28.6,77,0.0,1006.6,9.15,29.5,63,12.6,8.4,7,5,4,1,2026-03-26T17:22:54.616748+05:30
Haridwar,Uttarakhand,29.9457,78.1642,30.5,32,0.0,975.9,6.4,48.6,78,25.3,15.3,0,5,7,0,2026-03-26T17:22:54.616757+05:30
Rishikesh,Uttarakhand,30.0869,78.2676,29.3,34,0.0,968.5,6.45,45.7,68,16.6,12.3,4,5,7,0,2026-03-26T17:22:54.616765+05:30
Nainital,Uttarakhand,29.3919,79.4542,22.5,35,0.0,808.7,7.3,65.9,95,14.9,10.0,0,5,7,0,2026-03-26T17:22:54.616773+05:30
Mussoorie,Uttarakhand,30.4599,78.0664,20.1,44,0.0,805.2,6.8,57.2,69,17.2,13.0,0,5,7,0,2026-03-26T17:22:54.616782+05:30
Dharamshala,Himachal Pradesh,32.219,76.3234,21.7,51,0.0,872.1,6.9,19.1,92,18.6,9.8,0,5,7,0,2026-03-26T17:22:54.616790+05:30
Dalhousie,Himachal Pradesh,32.5387,75.971,20.0,40,0.0,807.1,6.85,22.3,69,18.6,9.9,0,5,7,0,2026-03-26T17:22:54.616799+05:30
Patiala,Punjab,30.3398,76.3869,28.1,45,0.0,981.4,5.95,33.5,158,581.1,65.9,4,5,3,0,2026-03-26T17:22:54.616807+05:30
Bhatinda,Punjab,30.211,74.9455,27.9,49,0.0,987.8,5.9,29.2,92,41.4,19.3,4,5,3,1,2026-03-26T17:22:54.616815+05:30
Rohtak,Haryana,28.8955,76.6066,29.4,47,0.0,984.3,5.8,20.9,186,246.8,42.0,4,5,3,1,2026-03-26T17:22:54.616823+05:30
Panipat,Haryana,29.3909,76.9635,29.9,38,0.0,982.9,6.15,23.4,446,462.9,59.6,4,5,7,0,2026-03-26T17:22:54.616831+05:30
Mathura,Uttar Pradesh,27.4924,77.6737,32.3,34,0.0,988.3,6.8,34.9,169,292.4,43.9,0,5,7,0,2026-03-26T17:22:54.616838+05:30
Vrindavan,Uttar Pradesh,27.5823,77.7027,31.6,38,0.0,988.8,6.75,33.1,169,292.4,43.9,0,5,7,0,2026-03-26T17:22:54.616846+05:30
Ayodhya,Uttar Pradesh,26.7922,82.1998,34.2,22,0.0,995.5,7.3,32.4,140,38.3,20.4,0,5,7,0,2026-03-26T17:22:54.616854+05:30
Ratlam,Madhya Pradesh,23.3315,75.0367,33.9,26,0.0,955.8,8.05,28.8,49,8.1,4.1,0,5,7,0,2026-03-26T17:22:54.616862+05:30
Sagar,Madhya Pradesh,23.8388,78.7378,35.1,19,0.0,950.9,8.1,24.8,87,23.2,8.3,0,5,10,0,2026-03-26T17:22:54.616870+05:30
Satna,Madhya Pradesh,24.6005,80.8322,35.0,20,0.0,972.2,8.05,26.6,113,61.2,14.6,0,5,7,0,2026-03-26T17:22:54.616878+05:30
Akola,Maharashtra,20.7002,77.0082,37.7,20,0.0,974.8,8.4,28.1,117,23.4,15.9,0,5,10,0,2026-03-26T17:22:54.616887+05:30
Amravati,Maharashtra,20.9374,77.7796,37.7,19,0.0,966.8,8.4,25.9,122,21.5,14.3,0,5,10,0,2026-03-26T17:22:54.616896+05:30
Latur,Maharashtra,18.4088,76.5604,35.4,22,0.0,940.0,8.75,22.0,89,22.5,17.3,0,5,10,0,2026-03-26T17:22:54.616904+05:30
Nanded,Maharashtra,19.1383,77.3091,38.4,19,0.0,967.9,8.6,25.2,86,19.6,13.6,0,5,10,0,2026-03-26T17:22:54.616912+05:30
Gulbarga,Karnataka,17.3297,76.8343,35.3,29,0.0,959.2,8.85,16.9,131,31.5,24.8,0,5,10,0,2026-03-26T17:22:54.616919+05:30
Bidar,Karnataka,17.9104,77.5199,33.8,29,0.0,936.6,8.85,20.5,103,23.9,18.1,0,5,7,0,2026-03-26T17:22:54.616927+05:30
Hospet,Karnataka,15.2689,76.3909,36.0,26,0.0,955.8,9.05,28.1,119,31.7,25.3,0,5,10,0,2026-03-26T17:22:54.616935+05:30
Tirupur,Tamil Nadu,11.1085,77.3411,35.3,30,0.0,974.4,9.4,32.4,96,35.3,28.3,0,5,10,0,2026-03-26T17:22:54.616942+05:30
Alappuzha,Kerala,9.4981,76.3388,29.7,77,0.0,1006.4,9.15,30.2,103,27.7,21.9,7,5,4,1,2026-03-26T17:22:54.616950+05:30
Munnar,Kerala,10.0889,77.0595,30.6,37,0.0,858.7,9.7,28.8,86,24.3,16.4,0,5,7,0,2026-03-26T17:22:54.616959+05:30
Silchar,Assam,24.8333,92.7789,29.2,55,0.0,1005.3,8.25,16.6,155,57.3,41.3,4,5,4,1,2026-03-26T17:22:54.616967+05:30
Dibrugarh,Assam,27.4728,94.912,26.4,59,0.0,996.9,8.05,8.6,107,42.5,29.7,4,5,7,1,2026-03-26T17:22:54.616974+05:30
