city,state,latitude,longitude,temp,humidity,rain,pressure,uv_index,wind_gusts,aqi,pm10,pm2_5,no2,co,o3,so2,mosquito_risk,arthritis_risk,migraine_risk,frizz_risk,updated_at
Delhi,Delhi,28.6139,77.209,41.0,20,0.0,977.8,7.7,48.2,566,791.6,110.4,2.5,268.0,142.0,8.7,0,5,10,0,2026-05-17T14:37:33.891321+05:30
Mumbai,Maharashtra,19.076,72.8777,33.5,62,0.0,1004.1,7.45,45.4,60,39.8,20.3,5.3,171.0,109.0,5.2,3,5,4,1,2026-05-17T14:37:33.891368+05:30
Bangalore,Karnataka,12.9716,77.5946,34.6,28,0.0,908.6,9.45,35.3,108,28.4,16.5,3.6,230.0,137.0,5.9,0,5,7,0,2026-05-17T14:37:33.891384+05:30
Hyderabad,Telangana,17.385,78.4867,36.9,30,0.1,949.4,9.3,23.4,77,41.0,22.0,1.6,251.0,143.0,4.7,3,5,10,1,2026-05-17T14:37:33.891394+05:30
Chennai,Tamil Nadu,13.0827,80.2707,33.5,57,0.1,1001.6,9.15,43.9,57,28.6,19.9,1.9,199.0,130.0,6.8,3,5,4,1,2026-05-17T14:37:33.891402+05:30
Kolkata,West Bengal,22.5726,88.3639,35.4,57,0.0,998.7,8.95,36.4,62,36.3,23.2,2.2,249.0,126.0,8.0,0,5,10,1,2026-05-17T14:37:33.891409+05:30
Pune,Maharashtra,18.5204,73.8567,39.5,19,0.0,944.6,8.5,43.9,67,30.6,17.6,1.5,174.0,149.0,7.5,0,5,10,0,2026-05-17T14:37:33.891430+05:30
Ahmedabad,Gujarat,23.0225,72.5714,42.0,20,0.0,997.5,8.15,29.9,61,52.6,18.2,1.0,152.0,109.0,3.5,0,5,10,0,2026-05-17T14:37:33.891438+05:30
Jaipur,Rajasthan,26.9124,75.7873,41.5,14,0.0,956.6,8.25,39.2,126,90.8,24.3,0.7,167.0,128.0,4.1,0,5,10,0,2026-05-17T14:37:33.891451+05:30
Lucknow,Uttar Pradesh,26.8467,80.9462,40.8,20,0.0,987.1,8.2,48.2,150,136.4,38.8,1.1,243.0,147.0,6.8,0,5,10,0,2026-05-17T14:37:33.891458+05:30
Kanpur,Uttar Pradesh,26.4499,80.3319,41.7,17,0.0,985.8,8.2,46.1,160,493.6,71.9,1.0,219.0,140.0,6.2,0,5,10,0,2026-05-17T14:37:33.891465+05:30
Chandigarh,Chandigarh,30.7333,76.7794,37.5,22,0.0,964.0,7.7,42.5,101,19.8,13.2,1.5,255.0,162.0,7.0,0,5,10,0,2026-05-17T14:37:33.891471+05:30
Srinagar,Jammu and Kashmir,34.0837,74.7973,25.9,38,0.0,843.0,8.9,17.3,80,13.3,7.8,1.0,293.0,138.0,1.9,4,5,7,0,2026-05-17T14:37:33.891479+05:30
Jammu,Jammu and Kashmir,32.7266,74.857,38.2,20,0.0,967.6,8.5,38.2,62,19.0,10.0,1.0,183.0,147.0,2.4,0,5,10,0,2026-05-17T14:37:33.891486+05:30
Amritsar,Punjab,31.634,74.8723,39.0,21,0.0,975.7,8.4,30.6,101,47.1,19.8,1.3,244.0,158.0,7.8,0,5,10,0,2026-05-17T14:37:33.891492+05:30
Ludhiana,Punjab,30.901,75.8573,38.8,20,0.0,973.8,8.0,38.9,88,65.7,20.0,0.9,261.0,142.0,3.6,0,5,10,0,2026-05-17T14:37:33.891498+05:30
Jalandhar,Punjab,31.326,75.5762,38.9,20,0.0,974.7,8.15,34.9,106,78.9,22.9,0.9,255.0,152.0,5.3,0,5,10,0,2026-05-17T14:37:33.891506+05:30
Dehradun,Uttarakhand,30.6284,78.0322,25.4,41,0.0,830.5,8.15,45.0,59,15.0,8.4,0.6,192.0,144.0,1.9,4,5,7,0,2026-05-17T14:37:33.891513+05:30
Shimla,Himachal Pradesh,31.1048,77.1734,24.0,27,0.0,786.5,8.25,49.3,80,17.1,10.0,0.7,187.0,148.0,3.0,0,5,7,0,2026-05-17T14:37:33.891526+05:30
Manali,Himachal Pradesh,32.2396,77.1887,23.7,36,0.0,818.0,9.85,39.6,102,12.2,7.2,1.3,154.0,154.0,0.3,0,5,7,0,2026-05-17T14:37:33.891532+05:30
Gurgaon,Haryana,28.4595,77.0266,40.3,21,0.0,976.6,7.8,46.1,956,2235.2,263.6,2.3,243.0,142.0,8.1,0,5,10,0,2026-05-17T14:37:33.891538+05:30
Noida,Uttar Pradesh,28.5355,77.391,40.0,23,0.0,979.0,7.75,39.6,956,2235.2,263.6,2.3,290.0,142.0,8.1,0,5,10,0,2026-05-17T14:37:33.891544+05:30
Ghaziabad,Uttar Pradesh,28.6692,77.4538,39.4,24,0.0,977.3,7.7,45.0,413,715.3,102.7,2.1,277.0,154.0,10.7,0,5,10,0,2026-05-17T14:37:33.891550+05:30
Faridabad,Haryana,28.4089,77.3178,40.7,21,0.0,978.4,7.75,49.3,956,2235.2,263.6,2.3,267.0,142.0,8.1,0,5,10,0,2026-05-17T14:37:33.891556+05:30
Meerut,Uttar Pradesh,28.9845,77.7064,38.9,24,0.0,976.3,7.65,48.2,413,715.3,102.7,2.1,289.0,154.0,10.7,0,5,10,0,2026-05-17T14:37:33.891562+05:30
Agra,Uttar Pradesh,27.1767,78.0081,41.2,18,0.0,982.7,8.05,41.8,723,968.6,114.8,1.0,219.0,137.0,6.0,0,5,10,0,2026-05-17T14:37:33.891569+05:30
Varanasi,Uttar Pradesh,25.3176,82.9739,42.2,14,0.0,990.6,8.7,49.7,153,191.9,46.8,1.2,228.0,162.0,9.3,0,5,10,0,2026-05-17T14:37:33.891575+05:30
Prayagraj,Uttar Pradesh,25.4358,81.8463,42.0,15,0.0,989.6,8.6,41.0,153,205.4,45.4,1.2,196.0,150.0,7.2,0,5,10,0,2026-05-17T14:37:33.891582+05:30
Gorakhpur,Uttar Pradesh,26.7606,83.3732,38.9,26,0.0,989.7,8.6,40.3,147,71.2,29.5,1.2,275.0,162.0,7.8,0,5,10,0,2026-05-17T14:37:33.891590+05:30
Bareilly,Uttar Pradesh,28.367,79.4304,37.4,28,0.0,980.9,8.0,37.1,119,41.3,26.3,1.3,259.0,170.0,8.0,0,5,10,0,2026-05-17T14:37:33.891596+05:30
Aligarh,Uttar Pradesh,27.8974,78.088,39.7,23,0.0,980.3,7.9,45.4,623,1303.9,159.3,1.6,243.0,164.0,10.2,0,5,10,0,2026-05-17T14:37:33.891602+05:30
Moradabad,Uttar Pradesh,28.8386,78.7733,38.1,25,0.0,978.0,7.85,43.6,148,59.6,26.8,1.6,260.0,163.0,7.9,0,5,10,0,2026-05-17T14:37:33.891608+05:30
Saharanpur,Uttar Pradesh,29.9637,77.546,37.0,25,0.0,970.3,7.35,44.6,95,143.9,30.5,1.8,233.0,162.0,8.3,0,5,10,0,2026-05-17T14:37:33.891614+05:30
Jhansi,Uttar Pradesh,25.4484,78.5685,41.8,14,0.0,973.5,8.45,31.0,122,187.2,37.8,0.8,178.0,133.0,6.1,0,5,10,0,2026-05-17T14:37:37.127517+05:30
Surat,Gujarat,21.1702,72.8311,41.7,17,0.0,1001.7,7.75,40.7,87,64.0,30.7,7.9,145.0,144.0,31.7,0,5,7,0,2026-05-17T14:37:37.127552+05:30
Vadodara,Gujarat,22.3072,73.1812,42.7,19,0.0,998.9,8.1,29.9,71,46.6,19.4,1.3,164.0,136.0,6.5,0,5,10,0,2026-05-17T14:37:37.127563+05:30
Rajkot,Gujarat,22.3039,70.8022,40.8,15,0.0,990.8,7.15,37.8,54,56.3,18.4,0.7,124.0,110.0,3.5,0,5,10,0,2026-05-17T14:37:37.127572+05:30
Thane,Maharashtra,19.2183,72.9781,37.1,50,0.0,1002.9,7.55,39.2,60,39.8,20.3,5.3,161.0,109.0,5.2,0,5,7,1,2026-05-17T14:37:37.127579+05:30
Nagpur,Maharashtra,21.1458,79.0882,43.0,15,0.0,968.0,8.95,33.1,106,25.7,18.4,4.2,196.0,168.0,20.6,0,5,10,0,2026-05-17T14:37:37.127587+05:30
Nashik,Maharashtra,19.9975,73.7898,38.2,21,0.0,942.9,8.2,41.4,62,28.5,13.6,0.9,135.0,123.0,2.9,0,5,10,0,2026-05-17T14:37:37.127594+05:30
Aurangabad,Maharashtra,19.8762,75.3433,40.0,16,0.0,941.1,9.05,37.1,75,22.6,11.4,0.9,153.0,134.0,4.5,0,5,10,0,2026-05-17T14:37:37.127601+05:30
Solapur,Maharashtra,17.6599,75.9064,42.2,15,0.0,952.2,9.1,33.8,93,26.0,19.3,1.2,158.0,157.0,7.0,0,5,10,0,2026-05-17T14:37:37.127608+05:30
Kolhapur,Maharashtra,16.705,74.2433,39.0,20,0.0,943.9,8.95,46.4,59,24.6,16.8,1.4,173.0,151.0,6.2,0,5,10,0,2026-05-17T14:37:37.127615+05:30
Goa,Goa,15.2993,74.124,33.5,62,0.0,992.9,8.9,43.9,56,35.6,16.4,0.7,123.0,76.0,1.6,3,5,7,1,2026-05-17T14:37:37.127622+05:30
Jodhpur,Rajasthan,26.2389,73.0243,42.4,15,0.0,979.3,8.4,34.2,76,101.5,22.5,0.4,141.0,115.0,3.3,0,5,10,0,2026-05-17T14:37:37.127629+05:30
Udaipur,Rajasthan,24.5854,73.7125,39.5,17,0.0,944.2,8.85,33.5,51,70.5,17.8,0.5,142.0,115.0,3.1,0,5,10,0,2026-05-17T14:37:37.127636+05:30
Kota,Rajasthan,25.2138,75.8648,43.1,12,0.0,974.4,8.4,31.7,103,161.6,33.3,0.6,179.0,134.0,5.0,0,5,10,0,2026-05-17T14:37:37.127643+05:30
Bikaner,Rajasthan,28.0229,73.3119,42.7,15,0.0,977.6,8.4,37.8,84,116.9,24.7,0.2,139.0,104.0,1.8,0,5,10,0,2026-05-17T14:37:37.127650+05:30
Ajmer,Rajasthan,26.4499,74.6399,40.2,14,0.0,952.1,8.4,33.1,87,84.5,23.3,0.4,149.0,128.0,3.8,0,5,10,0,2026-05-17T14:37:37.127657+05:30
Gwalior,Madhya Pradesh,26.2183,78.1828,41.7,14,0.0,978.6,8.25,37.4,299,185.8,41.2,0.5,197.0,130.0,5.2,0,5,10,0,2026-05-17T14:37:37.127663+05:30
Indore,Madhya Pradesh,22.7196,75.8577,41.3,12,0.0,944.4,8.7,36.0,53,30.7,12.1,0.7,172.0,130.0,3.2,0,5,10,0,2026-05-17T14:37:37.127670+05:30
Bhopal,Madhya Pradesh,23.2599,77.4126,41.8,14,0.0,949.7,8.7,33.1,54,24.0,11.6,0.7,161.0,132.0,3.7,0,5,10,0,2026-05-17T14:37:37.127677+05:30
Jabalpur,Madhya Pradesh,23.1815,79.9864,41.4,15,0.0,957.0,8.9,41.4,94,32.8,16.0,0.8,179.0,138.0,3.6,0,5,10,0,2026-05-17T14:37:37.127683+05:30
Ujjain,Madhya Pradesh,23.1765,75.7885,41.4,14,0.0,949.9,8.65,38.2,51,49.4,16.8,0.5,162.0,133.0,4.6,0,5,10,0,2026-05-17T14:37:37.127691+05:30
Visakhapatnam,Andhra Pradesh,17.6868,83.2185,34.4,55,0.0,998.7,8.6,43.6,58,23.4,17.2,5.2,278.0,102.0,22.3,0,5,7,1,2026-05-17T14:37:37.127698+05:30
Vijayawada,Andhra Pradesh,16.5062,80.648,39.2,37,0.0,997.0,9.2,36.0,48,17.2,12.3,1.8,215.0,102.0,5.0,0,5,10,1,2026-05-17T14:37:37.127705+05:30
Guntur,Andhra Pradesh,16.3067,80.4365,38.5,39,0.0,998.3,9.2,32.0,46,16.9,11.6,1.3,203.0,99.0,2.6,0,5,10,1,2026-05-17T14:37:37.127712+05:30
Nellore,Andhra Pradesh,14.4426,79.9865,37.5,41,0.0,1000.0,9.1,39.2,64,26.4,19.9,1.2,225.0,141.0,6.5,0,5,7,1,2026-05-17T14:37:37.127721+05:30
Kurnool,Andhra Pradesh,15.8281,78.0373,38.7,31,0.1,971.8,9.2,32.8,67,42.7,19.7,0.7,179.0,110.0,2.5,3,5,10,1,2026-05-17T14:37:37.127730+05:30
Kakinada,Andhra Pradesh,16.9891,82.2475,38.7,36,0.0,1001.7,8.7,42.1,40,18.3,11.9,0.7,192.0,88.0,1.7,0,5,7,1,2026-05-17T14:37:37.127737+05:30
Tirupati,Andhra Pradesh,13.6288,79.4192,36.8,38,0.0,985.3,9.25,31.3,63,25.0,20.3,1.4,239.0,145.0,9.3,0,5,10,1,2026-05-17T14:37:37.127744+05:30
Warangal,Telangana,17.9689,79.5941,37.2,41,0.0,974.4,8.8,31.0,72,34.3,19.3,1.3,198.0,125.0,4.2,0,5,10,1,2026-05-17T14:37:37.127750+05:30
Nizamabad,Telangana,18.6725,78.0941,40.4,20,0.0,960.3,9.15,33.1,87,32.9,23.9,1.1,219.0,156.0,6.8,0,5,10,0,2026-05-17T14:37:37.127757+05:30
Mysore,Karnataka,12.2958,76.6396,32.7,39,0.0,924.5,8.9,36.7,84,37.3,21.4,1.6,236.0,148.0,4.0,0,5,7,1,2026-05-17T14:37:37.127764+05:30
Mangalore,Karnataka,12.9141,74.856,27.5,87,0.3,1003.5,8.7,37.4,66,18.2,10.8,1.1,159.0,79.0,1.6,10,5,4,1,2026-05-17T14:37:37.127770+05:30
Hubli-Dharwad,Karnataka,15.3647,75.124,37.5,31,0.0,937.1,9.15,55.4,58,30.2,20.8,1.6,192.0,149.0,5.3,0,5,10,1,2026-05-17T14:37:37.127777+05:30
Belgaum,Karnataka,15.8497,74.4977,35.7,31,0.0,922.9,9.15,52.2,57,25.4,16.9,1.5,174.0,142.0,5.4,0,5,10,0,2026-05-17T14:37:40.357990+05:30
Coimbatore,Tamil Nadu,11.0168,76.9558,31.5,55,0.0,957.5,8.7,47.2,66,36.2,21.8,2.5,245.0,122.0,3.8,0,5,7,1,2026-05-17T14:37:40.358025+05:30
Madurai,Tamil Nadu,9.9252,78.1198,35.0,48,0.1,987.5,8.75,28.1,98,28.6,17.5,1.9,230.0,147.0,4.4,3,5,7,1,2026-05-17T14:37:40.358036+05:30
Trichy,Tamil Nadu,10.7905,78.7047,35.0,48,0.0,993.8,8.35,28.1,87,40.6,22.5,1.5,227.0,135.0,3.3,0,5,7,1,2026-05-17T14:37:40.358045+05:30
Salem,Tamil Nadu,11.6643,78.146,34.6,45,0.0,972.2,8.55,30.2,104,43.7,28.5,3.1,275.0,173.0,13.0,0,5,7,1,2026-05-17T14:37:40.358054+05:30
Tirunelveli,Tamil Nadu,8.7139,77.7567,36.2,42,0.1,997.7,8.95,39.2,51,9.7,6.3,1.4,194.0,88.0,0.9,3,5,10,1,2026-05-17T14:37:40.358063+05:30
Vellore,Tamil Nadu,12.9165,79.1325,35.7,42,0.0,979.0,9.2,27.0,94,27.0,23.2,1.5,244.0,147.0,12.4,0,5,10,1,2026-05-17T14:37:40.358070+05:30
Erode,Tamil Nadu,11.341,77.7172,35.5,43,0.0,983.4,8.55,33.8,84,43.4,24.6,1.8,270.0,161.0,4.5,0,5,10,1,2026-05-17T14:37:40.358078+05:30
Kochi,Kerala,9.9312,76.2673,27.9,83,0.1,1005.5,8.65,34.9,54,11.3,7.9,2.3,165.0,99.0,3.1,10,5,4,1,2026-05-17T14:37:40.358085+05:30
Thiruvananthapuram,Kerala,8.5241,76.9366,28.8,76,0.0,1005.0,8.3,38.2,46,15.0,9.5,1.1,153.0,88.0,0.6,7,5,4,1,2026-05-17T14:37:40.358092+05:30
Kozhikode,Kerala,11.2588,75.7804,26.4,94,0.1,1004.4,8.9,40.7,50,16.8,10.0,0.6,159.0,85.0,0.9,10,5,4,1,2026-05-17T14:37:40.358099+05:30
Thrissur,Kerala,10.5276,76.2144,28.2,82,0.0,1003.7,8.9,35.3,57,11.5,8.8,3.0,153.0,84.0,2.4,7,5,4,1,2026-05-17T14:37:40.358107+05:30
Kannur,Kerala,11.8745,75.3704,29.8,77,0.1,1003.0,8.95,43.6,58,21.8,14.5,1.3,177.0,95.0,1.8,10,5,4,1,2026-05-17T14:37:40.358114+05:30
Patna,Bihar,25.5941,85.1376,38.8,27,0.0,993.1,8.8,40.3,151,184.9,55.1,1.7,253.0,184.0,9.6,0,5,10,1,2026-05-17T14:37:40.358120+05:30
Gaya,Bihar,24.7914,85.0002,40.8,20,0.0,986.6,8.85,43.2,150,117.1,37.7,1.2,228.0,165.0,9.8,0,5,10,0,2026-05-17T14:37:40.358127+05:30
Muzaffarpur,Bihar,26.1209,85.3647,36.2,41,0.0,993.3,8.8,32.0,150,145.3,56.6,2.3,336.0,202.0,12.5,0,5,10,1,2026-05-17T14:37:40.358134+05:30
Bhagalpur,Bihar,25.2425,87.0117,35.2,54,0.0,994.1,8.8,28.8,152,121.5,49.2,2.8,316.0,196.0,16.0,0,5,10,1,2026-05-17T14:37:40.358141+05:30
Ranchi,Jharkhand,23.3441,85.3096,34.7,33,0.0,934.1,9.3,41.8,117,73.1,44.1,1.3,195.0,161.0,11.8,0,5,7,0,2026-05-17T14:37:40.358149+05:30
Jamshedpur,Jharkhand,22.8046,86.2029,36.5,41,0.0,984.9,9.1,53.3,106,84.3,49.5,2.1,232.0,181.0,16.8,0,5,10,1,2026-05-17T14:37:40.358155+05:30
Dhanbad,Jharkhand,23.7957,86.4304,37.8,30,0.1,973.7,9.05,43.2,151,94.5,46.6,5.1,200.0,176.0,28.3,3,5,10,1,2026-05-17T14:37:40.358162+05:30
Bokaro,Jharkhand,23.6693,86.1511,37.5,34,0.0,977.4,9.05,48.6,152,86.1,43.7,5.4,211.0,170.0,29.4,0,5,10,1,2026-05-17T14:37:40.358169+05:30
Bhubaneswar,Odisha,20.2961,85.8245,36.9,49,0.0,996.8,8.95,42.1,49,30.6,19.4,1.6,210.0,115.0,7.4,0,5,10,1,2026-05-17T14:37:40.358175+05:30
Cuttack,Odisha,20.4625,85.8828,38.7,43,0.0,997.9,9.0,42.5,49,30.6,19.4,1.6,239.0,115.0,7.4,0,5,10,1,2026-05-17T14:37:40.358182+05:30
Rourkela,Odisha,22.2604,84.8536,36.2,45,0.0,979.9,9.05,41.4,119,77.5,54.7,1.7,252.0,189.0,14.2,0,5,10,1,2026-05-17T14:37:40.358189+05:30
Raipur,Chhattisgarh,21.2514,81.6296,40.0,26,0.0,970.0,9.05,32.4,136,61.7,42.7,4.5,272.0,177.0,25.9,0,5,10,1,2026-05-17T14:37:40.358195+05:30
Bhilai,Chhattisgarh,21.1938,81.3509,39.2,26,0.0,970.3,9.0,31.7,131,46.8,33.2,4.9,382.0,163.0,24.4,0,5,10,1,2026-05-17T14:37:40.358201+05:30
Guwahati,Assam,26.1158,91.7086,30.0,67,0.0,995.4,8.75,25.6,86,21.7,16.4,1.2,296.0,132.0,3.8,7,5,7,1,2026-05-17T14:37:40.358207+05:30
Agartala,Tripura,23.8315,91.2868,34.0,57,0.0,999.9,8.9,30.6,71,38.4,22.6,2.8,200.0,127.0,4.0,0,5,7,1,2026-05-17T14:37:40.358214+05:30
Shillong,Meghalaya,25.5788,91.8933,22.8,72,0.1,853.9,9.15,45.4,59,19.6,11.8,1.2,241.0,121.0,4.2,6,5,7,1,2026-05-17T14:37:40.358221+05:30
Imphal,Manipur,24.817,93.9368,27.9,62,0.0,919.4,9.0,37.8,71,30.3,18.3,0.8,228.0,105.0,3.9,7,5,7,1,2026-05-17T14:37:40.358227+05:30
Aizawl,Mizoram,23.7271,92.7176,27.5,55,0.0,889.9,9.05,34.2,49,31.3,16.9,0.5,179.0,103.0,3.1,4,5,7,1,2026-05-17T14:37:40.358234+05:30
Kohima,Nagaland,25.6701,94.1077,21.2,91,0.0,852.7,8.7,32.4,65,23.9,13.7,0.6,218.0,111.0,2.8,3,5,7,1,2026-05-17T14:37:40.358240+05:30
Gangtok,Sikkim,27.3314,88.6138,18.8,90,0.0,833.3,9.15,33.8,79,19.7,16.1,1.2,287.0,131.0,2.1,3,10,7,1,2026-05-17T14:37:40.358247+05:30
Siliguri,West Bengal,26.7271,88.3953,28.7,69,0.1,987.2,8.7,31.0,100,40.9,29.3,1.8,367.0,144.0,6.1,10,5,7,1,2026-05-17T14:37:43.594749+05:30
Durgapur,West Bengal,23.5204,87.3119,32.5,50,0.1,988.3,8.95,48.2,138,116.9,56.3,5.1,286.0,204.0,31.8,3,5,7,1,2026-05-17T14:37:43.594786+05:30
Asansol,West Bengal,23.6739,86.9524,38.2,29,0.0,986.7,9.0,40.0,134,105.2,51.6,4.4,226.0,190.0,26.0,0,5,10,1,2026-05-17T14:37:43.594798+05:30
Pondicherry,Puducherry,11.9139,79.8145,31.0,77,0.0,1002.8,9.05,36.0,70,38.0,27.4,1.9,204.0,154.0,9.7,3,5,4,1,2026-05-17T14:37:43.594807+05:30
Port Blair,Andaman and Nicobar Islands,11.6234,92.7265,27.1,91,0.1,1004.4,1.25,38.5,31,7.5,4.5,0.3,115.0,57.0,0.2,10,5,0,1,2026-05-17T14:37:43.594815+05:30
Haridwar,Uttarakhand,29.9457,78.1642,36.9,27,0.0,968.5,7.5,35.6,108,30.2,14.9,1.3,214.0,172.0,8.0,0,5,10,0,2026-05-17T14:37:43.594823+05:30
Rishikesh,Uttarakhand,30.0869,78.2676,36.1,30,0.0,961.4,7.65,32.8,104,16.8,12.8,0.9,211.0,172.0,6.4,0,5,10,0,2026-05-17T14:37:43.594830+05:30
Nainital,Uttarakhand,29.3919,79.4542,24.6,38,0.0,806.2,8.5,36.7,112,22.2,16.1,1.2,224.0,171.0,6.8,0,5,7,0,2026-05-17T14:37:43.594837+05:30
Mussoorie,Uttarakhand,30.4599,78.0664,23.8,36,0.0,803.7,8.05,53.3,98,15.8,12.0,1.0,203.0,168.0,6.1,0,5,7,0,2026-05-17T14:37:43.594845+05:30
Dharamshala,Himachal Pradesh,32.219,76.3234,27.6,38,0.0,868.5,8.4,41.4,72,17.2,8.9,0.4,185.0,140.0,1.1,4,5,7,0,2026-05-17T14:37:43.594852+05:30
Dalhousie,Himachal Pradesh,32.5387,75.971,24.5,34,0.0,806.2,8.65,38.2,80,23.2,13.0,1.0,193.0,156.0,2.0,0,5,7,0,2026-05-17T14:37:43.594860+05:30
Patiala,Punjab,30.3398,76.3869,39.3,19,0.0,973.2,7.6,42.5,522,1139.9,124.3,0.9,259.0,144.0,4.7,0,5,10,0,2026-05-17T14:37:43.594868+05:30
Bhatinda,Punjab,30.211,74.9455,40.0,22,0.0,978.9,8.25,37.4,89,53.9,21.0,1.3,242.0,135.0,7.5,0,5,10,0,2026-05-17T14:37:43.594875+05:30
Rohtak,Haryana,28.8955,76.6066,39.7,23,0.0,976.9,7.75,47.2,715,1136.2,134.1,1.1,235.0,133.0,5.4,0,5,10,0,2026-05-17T14:37:43.594881+05:30
Panipat,Haryana,29.3909,76.9635,39.2,22,0.0,975.1,7.6,49.7,1540,2853.6,304.5,1.6,270.0,134.0,7.9,0,5,10,0,2026-05-17T14:37:43.594888+05:30
Mathura,Uttar Pradesh,27.4924,77.6737,40.8,20,0.0,981.6,8.0,42.8,755,1076.6,123.4,0.8,208.0,130.0,4.6,0,5,10,0,2026-05-17T14:37:43.594896+05:30
Vrindavan,Uttar Pradesh,27.5823,77.7027,40.7,21,0.0,982.0,7.95,41.0,755,1076.6,123.4,0.8,206.0,130.0,4.6,0,5,10,0,2026-05-17T14:37:43.594903+05:30
Ayodhya,Uttar Pradesh,26.7922,82.1998,39.1,24,0.0,988.3,8.35,41.8,150,74.0,28.5,1.1,242.0,158.0,7.4,0,5,10,0,2026-05-17T14:37:43.594910+05:30
Ratlam,Madhya Pradesh,23.3315,75.0367,41.7,14,0.0,951.0,8.55,34.2,53,57.4,18.4,0.5,166.0,130.0,4.6,0,5,10,0,2026-05-17T14:37:43.594918+05:30
Sagar,Madhya Pradesh,23.8388,78.7378,40.7,15,0.0,946.6,8.75,37.1,73,69.2,21.7,0.5,157.0,132.0,3.8,0,5,10,0,2026-05-17T14:37:43.594924+05:30
Satna,Madhya Pradesh,24.6005,80.8322,41.3,16,0.0,966.4,8.75,48.2,106,171.8,37.5,0.6,184.0,138.0,5.2,0,5,10,0,2026-05-17T14:37:43.594932+05:30
Akola,Maharashtra,20.7002,77.0082,43.0,14,0.0,970.2,8.95,32.0,73,18.2,11.3,1.3,157.0,142.0,5.2,0,5,10,0,2026-05-17T14:37:43.594940+05:30
Amravati,Maharashtra,20.9374,77.7796,42.3,15,0.0,962.7,8.95,28.1,61,18.5,12.1,1.5,155.0,146.0,7.0,0,5,10,0,2026-05-17T14:37:43.594947+05:30
Latur,Maharashtra,18.4088,76.5604,40.5,16,0.0,936.4,9.1,37.8,76,18.0,12.7,1.2,161.0,151.0,6.7,0,5,10,0,2026-05-17T14:37:43.594955+05:30
Nanded,Maharashtra,19.1383,77.3091,41.9,17,0.0,963.8,9.0,34.9,74,16.7,11.5,1.0,184.0,144.0,4.5,0,5,10,0,2026-05-17T14:37:43.594963+05:30
Gulbarga,Karnataka,17.3297,76.8343,39.8,23,0.0,954.3,9.1,34.2,90,41.1,28.1,1.5,200.0,161.0,8.1,0,5,10,0,2026-05-17T14:37:43.594969+05:30
Bidar,Karnataka,17.9104,77.5199,39.0,21,0.0,932.3,9.15,34.2,83,35.7,24.6,1.2,206.0,154.0,7.9,0,5,10,0,2026-05-17T14:37:43.594976+05:30
Hospet,Karnataka,15.2689,76.3909,34.7,44,0.0,951.6,9.2,61.9,89,44.2,30.7,2.2,214.0,167.0,15.0,0,5,7,1,2026-05-17T14:37:43.594983+05:30
Tirupur,Tamil Nadu,11.1085,77.3411,36.2,35,0.0,969.9,8.9,48.6,89,48.8,28.2,1.9,227.0,165.0,5.7,0,5,10,1,2026-05-17T14:37:43.594989+05:30
Alappuzha,Kerala,9.4981,76.3388,28.4,82,0.1,1005.5,8.65,29.5,52,11.2,7.3,1.7,143.0,93.0,1.5,10,5,4,1,2026-05-17T14:37:43.594995+05:30
Munnar,Kerala,10.0889,77.0595,19.2,100,0.2,854.2,7.8,25.6,56,15.1,9.4,1.4,186.0,97.0,1.5,6,10,7,1,2026-05-17T14:37:43.595002+05:30
Silchar,Assam,24.8333,92.7789,31.4,65,0.0,999.5,8.9,27.7,66,24.9,14.0,1.2,189.0,103.0,3.6,3,5,7,1,2026-05-17T14:37:43.595008+05:30
Dibrugarh,Assam,27.4728,94.912,27.9,72,0.0,991.1,5.05,27.0,75,28.5,18.7,1.2,226.0,115.0,1.9,7,5,3,1,2026-05-17T14:37:43.595014+05:30
