city,state,latitude,longitude,temp,humidity,rain,pressure,uv_index,wind_gusts,aqi,pm10,pm2_5,no2,co,o3,so2,mosquito_risk,arthritis_risk,migraine_risk,frizz_risk,updated_at
Delhi,Delhi,28.6139,77.209,32.2,48,0.0,984.0,7.25,24.5,150,153.2,53.0,12.5,483.0,168.0,26.9,0,5,7,1,2026-06-02T11:21:46.531288+05:30
Mumbai,Maharashtra,19.076,72.8777,32.8,60,0.0,1009.0,7.7,42.1,59,48.7,23.0,7.2,194.0,92.0,10.6,0,0,4,1,2026-06-02T11:21:46.531330+05:30
Bangalore,Karnataka,12.9716,77.5946,29.9,47,0.0,914.2,9.2,38.2,83,18.2,15.0,7.6,405.0,145.0,6.7,4,5,7,1,2026-06-02T11:21:46.531342+05:30
Hyderabad,Telangana,17.385,78.4867,35.3,30,0.0,954.3,9.1,27.7,93,47.3,24.4,4.2,343.0,138.0,5.8,0,5,10,0,2026-06-02T11:21:46.531350+05:30
Chennai,Tamil Nadu,13.0827,80.2707,36.8,43,0.0,1007.1,8.95,41.4,75,24.9,20.0,9.0,341.0,114.0,16.6,0,5,7,1,2026-06-02T11:21:46.531358+05:30
Kolkata,West Bengal,22.5726,88.3639,36.2,48,0.0,1005.4,8.6,29.9,117,51.2,35.9,2.7,416.0,150.0,10.3,0,5,7,1,2026-06-02T11:21:46.531364+05:30
Pune,Maharashtra,18.5204,73.8567,34.9,35,0.0,949.1,8.3,50.4,48,36.3,14.9,3.1,157.0,92.0,6.3,0,5,7,1,2026-06-02T11:21:46.531370+05:30
Ahmedabad,Gujarat,23.0225,72.5714,32.8,61,0.0,1002.9,8.05,28.4,79,67.3,29.1,2.7,170.0,77.0,5.6,3,5,4,1,2026-06-02T11:21:46.531376+05:30
Jaipur,Rajasthan,26.9124,75.7873,32.8,44,0.0,960.8,8.2,27.7,99,178.8,46.1,3.0,256.0,105.0,6.5,0,5,7,1,2026-06-02T11:21:46.531384+05:30
Lucknow,Uttar Pradesh,26.8467,80.9462,33.2,45,0.0,994.6,8.15,43.2,140,71.2,45.2,3.6,322.0,156.0,7.7,0,5,7,1,2026-06-02T11:21:46.531389+05:30
Kanpur,Uttar Pradesh,26.4499,80.3319,34.0,45,0.0,992.5,7.6,41.8,126,224.9,58.4,2.9,273.0,158.0,7.0,0,5,7,1,2026-06-02T11:21:46.531395+05:30
Chandigarh,Chandigarh,30.7333,76.7794,32.7,41,0.0,970.5,7.85,22.0,91,39.6,26.8,3.6,523.0,191.0,15.5,0,5,7,1,2026-06-02T11:21:46.531400+05:30
Srinagar,Jammu and Kashmir,34.0837,74.7973,25.6,44,0.0,845.8,9.1,24.5,127,84.3,43.9,2.6,407.0,153.0,4.8,4,5,7,0,2026-06-02T11:21:46.531405+05:30
Jammu,Jammu and Kashmir,32.7266,74.857,32.3,42,0.0,974.2,8.65,31.0,139,104.8,38.4,3.0,309.0,161.0,4.2,0,5,7,1,2026-06-02T11:21:46.531411+05:30
Amritsar,Punjab,31.634,74.8723,34.5,37,0.0,981.9,8.45,23.0,149,484.3,94.8,3.2,327.0,152.0,10.0,0,5,7,1,2026-06-02T11:21:46.531417+05:30
Ludhiana,Punjab,30.901,75.8573,34.5,35,0.0,980.4,8.05,27.7,134,87.1,34.0,4.3,424.0,171.0,15.2,0,5,7,1,2026-06-02T11:21:46.531422+05:30
Jalandhar,Punjab,31.326,75.5762,35.2,35,0.0,981.3,8.25,26.3,124,93.4,35.7,3.8,383.0,159.0,10.6,0,5,10,1,2026-06-02T11:21:46.531427+05:30
Dehradun,Uttarakhand,30.6284,78.0322,23.1,51,0.0,834.7,8.25,29.2,54,20.7,9.8,1.1,197.0,137.0,0.8,0,5,7,0,2026-06-02T11:21:46.531432+05:30
Shimla,Himachal Pradesh,31.1048,77.1734,21.3,43,0.0,789.3,8.35,34.9,58,22.5,9.8,1.0,267.0,142.0,1.4,0,5,7,0,2026-06-02T11:21:46.531440+05:30
Manali,Himachal Pradesh,32.2396,77.1887,24.2,45,0.0,823.2,9.75,32.4,38,13.4,6.1,6.9,142.0,121.0,0.3,0,5,7,0,2026-06-02T11:21:46.531445+05:30
Gurgaon,Haryana,28.4595,77.0266,33.0,42,0.0,982.3,7.25,29.9,318,269.2,67.5,9.9,388.0,155.0,18.6,0,5,7,1,2026-06-02T11:21:46.531450+05:30
Noida,Uttar Pradesh,28.5355,77.391,32.8,46,0.0,985.3,7.8,27.0,318,269.2,67.5,9.9,398.0,155.0,18.6,0,5,7,1,2026-06-02T11:21:46.531456+05:30
Ghaziabad,Uttar Pradesh,28.6692,77.4538,32.8,47,0.0,983.5,7.75,26.3,128,127.1,45.8,4.5,291.0,158.0,13.5,0,5,7,1,2026-06-02T11:21:46.531461+05:30
Faridabad,Haryana,28.4089,77.3178,32.2,48,0.0,984.6,7.8,29.2,318,269.2,67.5,9.9,399.0,155.0,18.6,0,5,7,1,2026-06-02T11:21:46.531466+05:30
Meerut,Uttar Pradesh,28.9845,77.7064,32.3,47,0.0,982.6,7.15,29.2,128,127.1,45.8,4.5,342.0,158.0,13.5,0,5,7,1,2026-06-02T11:21:46.531473+05:30
Agra,Uttar Pradesh,27.1767,78.0081,32.0,52,0.0,988.7,8.1,28.8,255,529.0,84.1,3.0,279.0,139.0,6.5,0,5,7,1,2026-06-02T11:21:46.531478+05:30
Varanasi,Uttar Pradesh,25.3176,82.9739,37.0,35,0.0,997.8,8.75,30.6,152,68.5,52.7,4.5,716.0,186.0,12.9,0,5,10,1,2026-06-02T11:21:46.531483+05:30
Prayagraj,Uttar Pradesh,25.4358,81.8463,33.8,45,0.0,996.6,8.7,19.1,134,69.6,48.1,4.7,326.0,161.0,8.7,0,5,7,1,2026-06-02T11:21:46.531489+05:30
Gorakhpur,Uttar Pradesh,26.7606,83.3732,35.3,41,0.0,997.6,8.5,23.0,156,65.7,42.6,2.7,309.0,181.0,7.7,0,5,10,1,2026-06-02T11:21:46.531496+05:30
Bareilly,Uttar Pradesh,28.367,79.4304,31.6,51,0.0,987.9,8.05,24.5,127,105.0,45.6,4.3,261.0,157.0,20.1,0,5,7,1,2026-06-02T11:21:46.531501+05:30
Aligarh,Uttar Pradesh,27.8974,78.088,31.8,52,0.0,986.5,7.95,24.8,151,263.6,61.5,3.0,299.0,144.0,9.2,0,5,7,1,2026-06-02T11:21:46.531506+05:30
Moradabad,Uttar Pradesh,28.8386,78.7733,32.2,50,0.0,985.0,7.9,25.2,125,107.8,47.1,4.4,275.0,156.0,19.1,0,5,7,1,2026-06-02T11:21:46.531510+05:30
Saharanpur,Uttar Pradesh,29.9637,77.546,31.3,50,0.0,977.2,7.55,23.4,135,59.8,31.4,3.0,334.0,173.0,7.9,0,5,7,1,2026-06-02T11:21:46.531515+05:30
Jhansi,Uttar Pradesh,25.4484,78.5685,33.5,43,0.0,979.1,8.25,30.6,82,81.3,30.6,2.2,162.0,114.0,11.0,0,5,7,1,2026-06-02T11:21:49.790192+05:30
Surat,Gujarat,21.1702,72.8311,32.8,61,0.1,1007.4,7.6,35.3,72,49.9,25.3,15.3,366.0,47.0,49.0,6,5,4,1,2026-06-02T11:21:49.790223+05:30
Vadodara,Gujarat,22.3072,73.1812,33.5,58,0.0,1005.0,8.0,37.4,70,50.9,23.2,2.8,164.0,73.0,5.1,0,5,4,1,2026-06-02T11:21:49.790232+05:30
Rajkot,Gujarat,22.3039,70.8022,35.6,45,0.0,994.3,7.55,40.7,69,76.6,27.5,1.8,116.0,74.0,4.8,0,5,10,1,2026-06-02T11:21:49.790239+05:30
Thane,Maharashtra,19.2183,72.9781,35.5,50,0.0,1008.0,7.7,35.6,59,48.7,23.0,7.2,183.0,92.0,10.6,0,0,7,1,2026-06-02T11:21:49.790245+05:30
Nagpur,Maharashtra,21.1458,79.0882,37.0,26,0.0,973.6,8.85,34.9,80,56.6,28.3,11.6,206.0,118.0,34.3,0,5,10,0,2026-06-02T11:21:49.790252+05:30
Nashik,Maharashtra,19.9975,73.7898,32.3,44,0.0,947.2,8.0,43.6,54,47.7,18.3,2.4,129.0,81.0,4.5,0,5,7,1,2026-06-02T11:21:49.790257+05:30
Aurangabad,Maharashtra,19.8762,75.3433,32.7,40,0.0,945.7,8.95,52.2,59,45.4,17.5,2.1,134.0,90.0,5.4,0,5,7,1,2026-06-02T11:21:49.790264+05:30
Solapur,Maharashtra,17.6599,75.9064,34.2,40,0.0,958.3,8.95,51.5,70,43.9,23.1,2.3,164.0,126.0,6.8,0,5,7,1,2026-06-02T11:21:49.790270+05:30
Kolhapur,Maharashtra,16.705,74.2433,33.2,41,0.0,949.4,8.75,49.3,41,28.7,12.0,2.3,144.0,90.0,2.5,0,5,7,1,2026-06-02T11:21:49.790276+05:30
Goa,Goa,15.2993,74.124,31.9,63,0.0,999.6,8.4,32.4,52,15.1,9.3,1.1,166.0,71.0,2.2,3,5,7,1,2026-06-02T11:21:49.790282+05:30
Jodhpur,Rajasthan,26.2389,73.0243,35.2,42,0.0,983.5,8.4,37.4,97,129.9,37.0,2.1,149.0,92.0,3.7,0,5,10,1,2026-06-02T11:21:49.790288+05:30
Udaipur,Rajasthan,24.5854,73.7125,32.3,42,0.0,947.8,8.8,27.0,78,57.5,28.1,1.6,149.0,84.0,4.6,0,5,7,1,2026-06-02T11:21:49.790294+05:30
Kota,Rajasthan,25.2138,75.8648,34.5,38,0.0,979.5,8.4,27.0,77,71.0,30.9,2.2,156.0,107.0,6.8,0,5,7,1,2026-06-02T11:21:49.790300+05:30
Bikaner,Rajasthan,28.0229,73.3119,36.2,36,0.0,981.9,8.45,36.0,127,187.2,52.7,1.2,187.0,104.0,5.3,0,5,10,1,2026-06-02T11:21:49.790306+05:30
Ajmer,Rajasthan,26.4499,74.6399,32.2,46,0.0,955.7,8.3,34.9,80,150.9,41.4,1.8,140.0,98.0,4.6,0,5,7,1,2026-06-02T11:21:49.790311+05:30
Gwalior,Madhya Pradesh,26.2183,78.1828,31.7,51,0.0,984.4,8.25,32.0,96,81.7,30.4,1.4,173.0,108.0,6.0,0,5,7,1,2026-06-02T11:21:49.790317+05:30
Indore,Madhya Pradesh,22.7196,75.8577,31.9,41,0.0,949.4,8.6,29.9,85,55.8,28.2,2.6,236.0,96.0,8.9,0,5,7,1,2026-06-02T11:21:49.790322+05:30
Bhopal,Madhya Pradesh,23.2599,77.4126,33.8,25,0.0,955.1,8.65,37.4,71,53.6,26.5,1.3,182.0,113.0,4.2,0,5,7,0,2026-06-02T11:21:49.790327+05:30
Jabalpur,Madhya Pradesh,23.1815,79.9864,34.5,34,0.0,962.6,8.85,25.9,86,60.3,24.4,1.5,173.0,120.0,3.5,0,5,7,1,2026-06-02T11:21:49.790333+05:30
Ujjain,Madhya Pradesh,23.1765,75.7885,32.8,38,0.0,955.1,8.55,27.7,84,46.1,25.1,2.0,179.0,82.0,9.4,0,5,7,1,2026-06-02T11:21:49.790339+05:30
Visakhapatnam,Andhra Pradesh,17.6868,83.2185,35.5,54,0.0,1003.0,9.0,44.3,91,42.8,32.5,12.7,330.0,147.0,40.2,0,5,7,1,2026-06-02T11:21:49.790344+05:30
Vijayawada,Andhra Pradesh,16.5062,80.648,37.3,40,0.0,1001.9,9.0,24.5,92,35.5,24.2,2.9,219.0,146.0,9.4,0,5,7,1,2026-06-02T11:21:49.790349+05:30
Guntur,Andhra Pradesh,16.3067,80.4365,37.7,35,0.0,1002.9,9.0,27.7,96,36.0,22.9,2.8,220.0,142.0,6.9,0,5,7,1,2026-06-02T11:21:49.790355+05:30
Nellore,Andhra Pradesh,14.4426,79.9865,36.3,43,0.0,1005.5,8.8,34.6,74,27.4,20.3,3.5,173.0,140.0,5.1,0,5,7,1,2026-06-02T11:21:49.790360+05:30
Kurnool,Andhra Pradesh,15.8281,78.0373,35.7,41,0.0,977.5,9.0,31.7,82,35.6,20.6,4.3,193.0,132.0,11.3,0,5,10,1,2026-06-02T11:21:49.790366+05:30
Kakinada,Andhra Pradesh,16.9891,82.2475,35.5,54,0.0,1007.0,9.0,34.9,77,43.0,27.4,1.5,237.0,136.0,5.3,0,5,7,1,2026-06-02T11:21:49.790372+05:30
Tirupati,Andhra Pradesh,13.6288,79.4192,36.5,35,0.0,991.2,9.0,32.4,65,28.8,20.3,2.8,183.0,143.0,3.5,0,5,10,1,2026-06-02T11:21:49.790377+05:30
Warangal,Telangana,17.9689,79.5941,35.7,35,0.0,979.2,9.0,32.0,124,57.7,32.5,2.9,221.0,134.0,6.6,0,5,10,1,2026-06-02T11:21:49.790383+05:30
Nizamabad,Telangana,18.6725,78.0941,34.0,37,0.0,966.1,8.95,29.2,96,70.8,31.0,2.1,173.0,121.0,4.3,0,5,7,1,2026-06-02T11:21:49.790388+05:30
Mysore,Karnataka,12.2958,76.6396,29.8,59,0.0,930.9,8.95,42.8,54,11.8,9.7,2.9,233.0,128.0,2.8,4,5,7,1,2026-06-02T11:21:49.790393+05:30
Mangalore,Karnataka,12.9141,74.856,28.2,78,0.0,1009.4,1.85,32.8,52,13.3,8.7,2.3,172.0,82.0,3.4,7,0,0,1,2026-06-02T11:21:49.790399+05:30
Hubli-Dharwad,Karnataka,15.3647,75.124,32.0,48,0.0,943.1,8.6,41.4,37,18.0,8.3,1.8,150.0,82.0,1.5,0,5,7,1,2026-06-02T11:21:49.790404+05:30
Belgaum,Karnataka,15.8497,74.4977,30.3,51,0.0,928.0,8.95,41.0,41,23.8,9.7,1.8,133.0,81.0,1.8,0,5,7,1,2026-06-02T11:21:53.052531+05:30
Coimbatore,Tamil Nadu,11.0168,76.9558,33.2,45,0.0,963.3,9.0,46.1,52,9.2,7.4,2.3,216.0,119.0,3.4,0,5,7,1,2026-06-02T11:21:53.052561+05:30
Madurai,Tamil Nadu,9.9252,78.1198,35.4,44,0.0,993.9,8.85,48.6,78,28.2,18.6,5.6,206.0,139.0,6.5,0,5,10,1,2026-06-02T11:21:53.052569+05:30
Trichy,Tamil Nadu,10.7905,78.7047,34.5,51,0.0,1000.5,8.85,42.1,53,20.4,14.1,3.7,165.0,121.0,5.7,0,5,4,1,2026-06-02T11:21:53.052577+05:30
Salem,Tamil Nadu,11.6643,78.146,34.6,44,0.0,978.5,8.95,34.6,73,22.2,19.8,5.4,212.0,159.0,14.2,0,5,7,1,2026-06-02T11:21:53.052583+05:30
Tirunelveli,Tamil Nadu,8.7139,77.7567,37.5,37,0.0,1003.7,8.75,30.6,36,6.3,4.9,1.6,139.0,69.0,1.0,0,5,7,1,2026-06-02T11:21:53.052590+05:30
Vellore,Tamil Nadu,12.9165,79.1325,35.2,41,0.0,985.0,9.0,30.2,79,26.0,20.3,3.2,245.0,157.0,7.0,0,5,10,1,2026-06-02T11:21:53.052596+05:30
Erode,Tamil Nadu,11.341,77.7172,35.1,42,0.0,990.0,8.9,51.1,59,15.9,13.2,4.4,281.0,136.0,3.9,0,5,10,1,2026-06-02T11:21:53.052602+05:30
Kochi,Kerala,9.9312,76.2673,28.9,76,0.1,1011.1,8.55,29.5,47,11.1,8.8,3.8,192.0,96.0,5.0,10,0,4,1,2026-06-02T11:21:53.052608+05:30
Thiruvananthapuram,Kerala,8.5241,76.9366,28.2,79,0.1,1010.7,8.25,35.3,27,7.7,4.7,1.5,135.0,55.0,0.7,10,0,4,1,2026-06-02T11:21:53.052614+05:30
Kozhikode,Kerala,11.2588,75.7804,26.0,94,0.3,1010.9,7.9,27.4,36,6.4,4.2,1.0,206.0,82.0,0.9,10,0,4,1,2026-06-02T11:21:53.052620+05:30
Thrissur,Kerala,10.5276,76.2144,28.4,80,0.0,1009.7,8.65,28.8,50,9.9,8.3,2.9,209.0,90.0,3.8,7,0,4,1,2026-06-02T11:21:53.052626+05:30
Kannur,Kerala,11.8745,75.3704,27.0,88,0.2,1009.9,2.9,24.8,39,7.5,4.9,2.0,206.0,74.0,1.3,10,0,0,1,2026-06-02T11:21:53.052633+05:30
Patna,Bihar,25.5941,85.1376,35.3,45,0.0,1000.3,8.85,18.7,169,86.1,67.1,4.0,405.0,220.0,18.8,0,5,7,1,2026-06-02T11:21:53.052638+05:30
Gaya,Bihar,24.7914,85.0002,36.0,40,0.0,993.9,8.9,20.2,145,59.3,45.6,1.6,405.0,199.0,15.8,0,5,10,1,2026-06-02T11:21:53.052643+05:30
Muzaffarpur,Bihar,26.1209,85.3647,35.0,45,0.0,1000.3,8.85,22.3,172,87.1,68.0,4.0,417.0,212.0,17.1,0,5,4,1,2026-06-02T11:21:53.052649+05:30
Bhagalpur,Bihar,25.2425,87.0117,35.5,49,0.0,1000.7,8.85,18.4,150,55.4,48.5,4.7,372.0,209.0,27.5,0,5,7,1,2026-06-02T11:21:53.052654+05:30
Ranchi,Jharkhand,23.3441,85.3096,32.3,44,0.0,939.4,8.95,31.7,155,73.3,55.3,0.7,276.0,204.0,26.0,0,5,7,1,2026-06-02T11:21:53.052659+05:30
Jamshedpur,Jharkhand,22.8046,86.2029,34.5,50,0.0,991.0,9.05,21.6,137,70.8,55.3,6.6,333.0,210.0,35.3,0,5,7,1,2026-06-02T11:21:53.052664+05:30
Dhanbad,Jharkhand,23.7957,86.4304,34.6,43,0.0,980.4,9.05,22.3,174,76.6,65.4,32.8,307.0,167.0,98.1,0,5,7,1,2026-06-02T11:21:53.052670+05:30
Bokaro,Jharkhand,23.6693,86.1511,34.7,46,0.0,984.0,8.6,22.3,178,80.8,65.9,25.2,343.0,190.0,91.8,0,5,7,1,2026-06-02T11:21:53.052675+05:30
Bhubaneswar,Odisha,20.2961,85.8245,34.9,56,0.0,1002.1,9.0,31.3,100,38.1,31.0,2.4,290.0,172.0,11.4,0,5,4,1,2026-06-02T11:21:53.052680+05:30
Cuttack,Odisha,20.4625,85.8828,34.2,61,0.0,1004.0,9.05,38.5,100,38.1,31.0,2.4,306.0,172.0,11.4,3,5,4,1,2026-06-02T11:21:53.052685+05:30
Rourkela,Odisha,22.2604,84.8536,36.0,40,0.0,985.4,5.3,31.3,158,61.0,47.1,3.4,476.0,205.0,28.7,0,5,6,1,2026-06-02T11:21:53.052690+05:30
Raipur,Chhattisgarh,21.2514,81.6296,37.7,29,0.0,974.7,8.95,31.3,153,92.4,52.0,21.6,506.0,145.0,57.2,0,5,10,1,2026-06-02T11:21:53.052695+05:30
Bhilai,Chhattisgarh,21.1938,81.3509,36.3,32,0.0,975.2,8.95,30.6,155,91.0,49.1,18.2,852.0,137.0,50.6,0,5,10,1,2026-06-02T11:21:53.052700+05:30
Guwahati,Assam,26.1158,91.7086,32.2,62,0.0,1000.6,8.7,31.7,92,48.4,37.7,1.0,370.0,163.0,5.8,3,5,4,1,2026-06-02T11:21:53.052705+05:30
Agartala,Tripura,23.8315,91.2868,33.0,66,0.0,1005.7,8.75,19.4,115,41.2,29.0,4.5,235.0,146.0,6.6,3,5,4,1,2026-06-02T11:21:53.052709+05:30
Shillong,Meghalaya,25.5788,91.8933,26.6,52,0.1,859.8,7.85,24.5,60,33.3,25.7,1.0,305.0,158.0,4.1,7,5,7,0,2026-06-02T11:21:53.052714+05:30
Imphal,Manipur,24.817,93.9368,28.3,70,0.1,923.1,8.8,30.2,64,9.1,7.3,1.2,260.0,121.0,2.3,10,5,7,1,2026-06-02T11:21:53.052719+05:30
Aizawl,Mizoram,23.7271,92.7176,21.7,88,0.1,893.1,8.3,24.8,54,30.2,16.8,1.0,208.0,119.0,3.7,6,5,7,1,2026-06-02T11:21:53.052724+05:30
Kohima,Nagaland,25.6701,94.1077,24.2,76,0.0,856.9,8.55,30.6,38,16.5,11.9,0.6,241.0,124.0,1.5,3,5,7,1,2026-06-02T11:21:53.052729+05:30
Gangtok,Sikkim,27.3314,88.6138,24.8,56,0.1,840.9,9.1,40.0,66,23.3,17.2,0.8,280.0,132.0,1.7,3,5,7,0,2026-06-02T11:21:53.052734+05:30
Siliguri,West Bengal,26.7271,88.3953,33.3,56,0.0,992.3,8.75,31.3,130,45.8,35.6,1.7,439.0,170.0,4.9,0,5,7,1,2026-06-02T11:21:56.318566+05:30
Durgapur,West Bengal,23.5204,87.3119,34.0,61,0.1,994.9,8.95,21.2,157,57.2,51.5,17.3,718.0,169.0,66.9,6,5,7,1,2026-06-02T11:21:56.318598+05:30
Asansol,West Bengal,23.6739,86.9524,34.8,53,0.0,993.5,9.0,24.5,157,59.5,52.6,17.2,756.0,172.0,63.0,0,5,7,1,2026-06-02T11:21:56.318607+05:30
Pondicherry,Puducherry,11.9139,79.8145,33.8,59,0.0,1008.7,8.85,43.2,65,17.5,14.1,5.4,265.0,106.0,13.7,0,0,4,1,2026-06-02T11:21:56.318615+05:30
Port Blair,Andaman and Nicobar Islands,11.6234,92.7265,28.0,83,0.1,1008.0,1.7,38.5,33,13.0,7.5,0.5,119.0,69.0,0.5,10,0,0,1,2026-06-02T11:21:56.318622+05:30
Haridwar,Uttarakhand,29.9457,78.1642,32.5,45,0.0,975.4,7.6,23.0,96,52.6,27.4,1.2,267.0,170.0,7.4,0,5,7,1,2026-06-02T11:21:56.318628+05:30
Rishikesh,Uttarakhand,30.0869,78.2676,31.7,44,0.0,968.3,7.65,22.3,86,42.8,23.3,1.1,278.0,161.0,5.4,0,5,7,1,2026-06-02T11:21:56.318634+05:30
Nainital,Uttarakhand,29.3919,79.4542,22.2,51,0.1,810.0,7.25,32.0,70,55.4,24.4,0.3,215.0,143.0,3.6,3,5,7,0,2026-06-02T11:21:56.318640+05:30
Mussoorie,Uttarakhand,30.4599,78.0664,21.6,50,0.1,807.4,8.15,33.5,78,36.2,21.7,1.5,228.0,170.0,5.6,3,5,7,0,2026-06-02T11:21:56.318646+05:30
Dharamshala,Himachal Pradesh,32.219,76.3234,23.9,63,0.0,872.9,8.55,41.8,52,26.0,14.3,0.5,216.0,137.0,0.7,3,5,7,1,2026-06-02T11:21:56.318652+05:30
Dalhousie,Himachal Pradesh,32.5387,75.971,19.7,63,0.1,809.1,8.8,30.2,74,26.3,18.0,1.1,226.0,159.0,1.8,6,5,7,0,2026-06-02T11:21:56.318659+05:30
Patiala,Punjab,30.3398,76.3869,33.2,43,0.0,979.7,7.7,28.8,233,274.7,54.6,3.3,327.0,175.0,15.5,0,5,7,1,2026-06-02T11:21:56.318665+05:30
Bhatinda,Punjab,30.211,74.9455,35.5,34,0.0,984.9,8.3,29.2,425,201.6,65.2,4.6,266.0,151.0,15.6,0,5,10,1,2026-06-02T11:21:56.318671+05:30
Rohtak,Haryana,28.8955,76.6066,33.3,40,0.0,982.7,7.8,25.9,189,344.6,72.2,9.4,360.0,170.0,23.4,0,5,7,1,2026-06-02T11:21:56.318676+05:30
Panipat,Haryana,29.3909,76.9635,33.0,42,0.0,981.7,7.65,27.4,611,841.9,114.6,6.2,293.0,163.0,21.6,0,5,7,1,2026-06-02T11:21:56.318681+05:30
Mathura,Uttar Pradesh,27.4924,77.6737,32.2,50,0.0,987.8,8.05,20.9,209,275.7,61.0,3.0,340.0,139.0,5.2,0,5,7,1,2026-06-02T11:21:56.318687+05:30
Vrindavan,Uttar Pradesh,27.5823,77.7027,32.4,49,0.0,988.2,8.05,36.0,209,275.7,61.0,3.0,382.0,139.0,5.2,0,5,7,1,2026-06-02T11:21:56.318692+05:30
Ayodhya,Uttar Pradesh,26.7922,82.1998,33.5,46,0.0,996.2,8.35,26.3,156,69.4,40.9,4.3,367.0,148.0,5.9,0,5,7,1,2026-06-02T11:21:56.318697+05:30
Ratlam,Madhya Pradesh,23.3315,75.0367,32.6,44,0.0,956.2,8.5,30.6,80,41.2,23.3,2.2,150.0,79.0,9.0,0,5,7,1,2026-06-02T11:21:56.318703+05:30
Sagar,Madhya Pradesh,23.8388,78.7378,33.3,35,0.0,951.7,8.7,24.8,66,58.6,23.8,1.0,157.0,115.0,1.9,0,5,7,0,2026-06-02T11:21:56.318708+05:30
Satna,Madhya Pradesh,24.6005,80.8322,33.7,40,0.0,972.5,8.8,19.8,110,71.0,44.0,2.2,246.0,156.0,12.7,0,5,7,1,2026-06-02T11:21:56.318713+05:30
Akola,Maharashtra,20.7002,77.0082,34.2,43,0.0,975.8,8.8,34.9,73,58.9,26.8,3.0,144.0,119.0,11.2,0,5,7,1,2026-06-02T11:21:56.318719+05:30
Amravati,Maharashtra,20.9374,77.7796,35.4,33,0.0,968.1,8.8,33.1,73,56.2,26.5,3.9,164.0,121.0,12.4,0,5,10,1,2026-06-02T11:21:56.318727+05:30
Latur,Maharashtra,18.4088,76.5604,34.5,34,0.0,941.2,8.95,48.2,78,45.3,21.4,1.7,150.0,119.0,5.3,0,5,7,1,2026-06-02T11:21:56.318741+05:30
Nanded,Maharashtra,19.1383,77.3091,35.3,37,0.0,969.3,8.9,27.7,86,58.7,27.0,2.1,183.0,124.0,5.3,0,5,10,1,2026-06-02T11:21:56.318750+05:30
Gulbarga,Karnataka,17.3297,76.8343,35.1,36,0.0,959.8,8.95,40.3,76,60.8,28.9,3.9,164.0,133.0,6.7,0,5,10,1,2026-06-02T11:21:56.318758+05:30
Bidar,Karnataka,17.9104,77.5199,33.2,38,0.0,937.1,8.95,36.7,83,65.7,29.7,2.8,178.0,129.0,4.2,0,5,7,1,2026-06-02T11:21:56.318765+05:30
Hospet,Karnataka,15.2689,76.3909,31.1,52,0.0,957.5,8.95,39.6,53,19.3,9.6,2.2,171.0,92.0,3.4,0,5,7,1,2026-06-02T11:21:56.318773+05:30
Tirupur,Tamil Nadu,11.1085,77.3411,34.5,43,0.0,976.3,9.0,48.6,62,14.4,12.0,4.5,197.0,138.0,4.8,0,5,7,1,2026-06-02T11:21:56.318780+05:30
Alappuzha,Kerala,9.4981,76.3388,27.6,85,0.1,1011.2,8.55,36.0,42,11.3,9.2,3.2,160.0,95.0,3.8,10,0,4,1,2026-06-02T11:21:56.318788+05:30
Munnar,Kerala,10.0889,77.0595,21.4,83,0.1,859.8,9.15,25.9,55,29.2,13.7,1.3,143.0,107.0,2.0,6,5,7,1,2026-06-02T11:21:56.318797+05:30
Silchar,Assam,24.8333,92.7789,30.8,70,0.0,1004.6,8.7,19.8,91,32.8,21.5,1.3,263.0,135.0,5.7,3,5,4,1,2026-06-02T11:21:56.318805+05:30
Dibrugarh,Assam,27.4728,94.912,30.5,72,0.1,994.1,8.9,23.4,65,9.6,9.2,1.1,223.0,120.0,1.4,6,5,7,1,2026-06-02T11:21:56.318813+05:30
