city,state,latitude,longitude,temp,humidity,rain,pressure,uv_index,wind_gusts,aqi,pm10,pm2_5,no2,co,o3,so2,mosquito_risk,arthritis_risk,migraine_risk,frizz_risk,updated_at
Delhi,Delhi,28.6139,77.209,40.0,31,0.0,978.2,7.75,33.5,727,735.7,156.9,8.9,460.0,291.0,36.9,0,5,10,1,2026-05-28T13:33:24.205120+05:30
Mumbai,Maharashtra,19.076,72.8777,33.9,55,0.0,1009.0,7.8,40.7,50,49.8,21.5,4.0,162.0,103.0,5.4,0,0,4,1,2026-05-28T13:33:24.205159+05:30
Bangalore,Karnataka,12.9716,77.5946,30.8,53,0.0,913.2,8.6,29.5,67,23.4,14.9,3.1,282.0,151.0,4.0,0,5,7,1,2026-05-28T13:33:24.205175+05:30
Hyderabad,Telangana,17.385,78.4867,36.0,38,0.0,952.8,7.8,33.1,68,23.5,16.8,1.6,232.0,157.0,6.8,0,5,10,1,2026-05-28T13:33:24.205185+05:30
Chennai,Tamil Nadu,13.0827,80.2707,39.3,32,0.0,1005.4,8.5,38.9,77,36.7,28.9,3.5,277.0,192.0,8.1,0,5,7,1,2026-05-28T13:33:24.205212+05:30
Kolkata,West Bengal,22.5726,88.3639,34.2,54,0.0,1003.2,8.9,23.8,104,64.5,39.6,1.5,277.0,132.0,6.7,0,5,4,1,2026-05-28T13:33:24.205223+05:30
Pune,Maharashtra,18.5204,73.8567,36.8,29,0.0,949.0,8.4,41.0,33,18.8,11.7,1.6,157.0,123.0,6.2,0,5,10,0,2026-05-28T13:33:24.205230+05:30
Ahmedabad,Gujarat,23.0225,72.5714,40.5,28,0.0,999.9,8.1,40.7,71,62.2,25.2,1.6,147.0,104.0,4.5,0,5,10,1,2026-05-28T13:33:24.205237+05:30
Jaipur,Rajasthan,26.9124,75.7873,42.5,16,0.0,956.1,8.25,42.8,195,250.5,45.2,1.0,149.0,119.0,3.4,0,5,10,0,2026-05-28T13:33:24.205249+05:30
Lucknow,Uttar Pradesh,26.8467,80.9462,37.8,37,0.0,990.2,8.2,46.4,104,84.1,44.1,1.7,367.0,191.0,12.8,0,5,10,1,2026-05-28T13:33:24.205256+05:30
Kanpur,Uttar Pradesh,26.4499,80.3319,39.3,34,0.0,987.8,8.2,40.3,231,234.7,61.0,1.7,353.0,203.0,14.6,0,5,10,1,2026-05-28T13:33:24.205262+05:30
Chandigarh,Chandigarh,30.7333,76.7794,37.6,30,0.0,965.0,7.75,53.3,109,95.2,40.5,5.0,326.0,202.0,13.8,0,5,10,1,2026-05-28T13:33:24.205269+05:30
Srinagar,Jammu and Kashmir,34.0837,74.7973,26.5,26,0.0,844.3,8.9,43.6,68,30.0,11.1,0.9,191.0,144.0,2.0,4,5,7,0,2026-05-28T13:33:24.205276+05:30
Jammu,Jammu and Kashmir,32.7266,74.857,37.7,20,0.0,969.1,7.65,39.2,87,40.4,17.2,1.0,202.0,161.0,2.3,0,5,10,0,2026-05-28T13:33:24.205283+05:30
Amritsar,Punjab,31.634,74.8723,39.2,20,0.0,976.3,8.4,38.5,112,42.6,17.5,0.6,284.0,162.0,3.9,0,5,10,0,2026-05-28T13:33:24.205290+05:30
Ludhiana,Punjab,30.901,75.8573,40.2,24,0.0,973.5,8.0,41.8,139,674.3,122.5,2.2,336.0,202.0,13.8,0,5,10,0,2026-05-28T13:33:24.205302+05:30
Jalandhar,Punjab,31.326,75.5762,40.0,20,0.0,975.1,8.2,40.3,124,278.5,65.7,1.7,332.0,203.0,9.6,0,5,10,0,2026-05-28T13:33:24.205308+05:30
Dehradun,Uttarakhand,30.6284,78.0322,24.6,53,0.0,832.6,8.2,30.6,77,51.3,24.9,1.3,287.0,178.0,7.1,0,5,7,0,2026-05-28T13:33:24.205315+05:30
Shimla,Himachal Pradesh,31.1048,77.1734,25.0,22,0.0,788.2,8.25,41.4,89,33.4,16.2,1.6,164.0,155.0,3.7,4,5,7,0,2026-05-28T13:33:24.205324+05:30
Manali,Himachal Pradesh,32.2396,77.1887,24.9,32,0.0,821.5,10.0,42.5,97,20.8,8.5,1.9,128.0,159.0,0.7,0,5,7,0,2026-05-28T13:33:24.205331+05:30
Gurgaon,Haryana,28.4595,77.0266,40.5,27,0.0,976.6,7.8,42.5,986,1069.2,186.7,6.5,488.0,269.0,26.8,0,5,10,1,2026-05-28T13:33:24.205337+05:30
Noida,Uttar Pradesh,28.5355,77.391,38.9,37,0.0,980.0,7.75,33.5,986,1069.2,186.7,6.5,418.0,269.0,26.8,0,5,10,1,2026-05-28T13:33:24.205344+05:30
Ghaziabad,Uttar Pradesh,28.6692,77.4538,38.2,39,0.0,978.4,7.75,38.5,594,763.7,136.0,2.4,377.0,213.0,17.3,0,5,10,1,2026-05-28T13:33:24.205350+05:30
Faridabad,Haryana,28.4089,77.3178,39.0,35,0.0,979.1,7.8,38.2,986,1069.2,186.7,6.5,383.0,269.0,26.8,0,5,10,1,2026-05-28T13:33:24.205357+05:30
Meerut,Uttar Pradesh,28.9845,77.7064,36.7,41,0.0,978.0,7.65,51.8,594,763.7,136.0,2.4,376.0,213.0,17.3,0,5,10,1,2026-05-28T13:33:24.205363+05:30
Agra,Uttar Pradesh,27.1767,78.0081,42.0,21,0.0,982.9,8.05,45.7,637,543.9,87.1,0.7,178.0,163.0,5.6,0,5,10,0,2026-05-28T13:33:24.205369+05:30
Varanasi,Uttar Pradesh,25.3176,82.9739,37.8,36,0.0,993.7,8.7,37.8,109,82.2,52.7,2.1,359.0,210.0,18.4,0,5,10,1,2026-05-28T13:33:24.205376+05:30
Prayagraj,Uttar Pradesh,25.4358,81.8463,39.2,33,0.0,991.7,8.6,36.4,109,84.5,51.2,2.1,366.0,212.0,16.9,0,5,10,1,2026-05-28T13:33:24.205384+05:30
Gorakhpur,Uttar Pradesh,26.7606,83.3732,34.8,43,0.0,995.1,8.6,45.0,93,63.3,38.6,1.5,301.0,178.0,11.4,0,5,7,1,2026-05-28T13:33:24.205392+05:30
Bareilly,Uttar Pradesh,28.367,79.4304,36.1,43,0.0,984.0,8.0,44.6,114,321.3,64.5,1.7,333.0,191.0,13.9,0,5,10,1,2026-05-28T13:33:24.205399+05:30
Aligarh,Uttar Pradesh,27.8974,78.088,39.3,34,0.0,981.2,7.9,34.6,895,1110.1,177.4,2.2,358.0,224.0,17.8,0,5,10,1,2026-05-28T13:33:24.205405+05:30
Moradabad,Uttar Pradesh,28.8386,78.7733,36.5,41,0.0,980.8,7.85,51.8,122,166.2,50.8,1.9,335.0,199.0,14.7,0,5,10,1,2026-05-28T13:33:24.205412+05:30
Saharanpur,Uttar Pradesh,29.9637,77.546,36.5,40,0.0,972.6,7.5,47.5,132,118.5,41.2,1.1,356.0,192.0,11.7,0,5,10,1,2026-05-28T13:33:24.205418+05:30
Jhansi,Uttar Pradesh,25.4484,78.5685,43.3,17,0.0,973.9,8.45,43.9,65,104.1,26.3,0.8,135.0,110.0,3.9,0,5,10,0,2026-05-28T13:33:27.508106+05:30
Surat,Gujarat,21.1702,72.8311,35.1,49,0.0,1006.5,7.7,47.9,80,67.8,32.1,10.9,258.0,65.0,36.8,0,5,7,1,2026-05-28T13:33:27.508135+05:30
Vadodara,Gujarat,22.3072,73.1812,39.3,33,0.0,1002.7,8.05,47.2,77,60.1,26.5,1.6,149.0,104.0,3.5,0,5,7,1,2026-05-28T13:33:27.508144+05:30
Rajkot,Gujarat,22.3039,70.8022,40.8,27,0.0,992.8,7.7,49.3,72,66.1,26.9,1.0,120.0,103.0,4.2,0,5,10,1,2026-05-28T13:33:27.508152+05:30
Thane,Maharashtra,19.2183,72.9781,35.8,47,0.0,1007.9,7.8,39.2,50,49.8,21.5,4.0,159.0,103.0,5.4,0,5,7,1,2026-05-28T13:33:27.508159+05:30
Nagpur,Maharashtra,21.1458,79.0882,44.1,17,0.0,970.1,8.85,38.5,75,56.0,24.6,3.6,162.0,154.0,16.6,0,5,10,0,2026-05-28T13:33:27.508167+05:30
Nashik,Maharashtra,19.9975,73.7898,35.5,39,0.0,946.6,8.1,42.8,41,40.4,17.3,0.8,130.0,91.0,1.2,0,5,10,1,2026-05-28T13:33:27.508173+05:30
Aurangabad,Maharashtra,19.8762,75.3433,39.0,21,0.0,944.5,8.95,43.2,44,37.8,15.9,0.8,138.0,118.0,2.8,0,5,10,0,2026-05-28T13:33:27.508180+05:30
Solapur,Maharashtra,17.6599,75.9064,37.1,30,0.0,957.5,8.95,34.9,55,9.6,7.5,1.2,139.0,126.0,3.8,0,5,10,1,2026-05-28T13:33:27.508188+05:30
Kolhapur,Maharashtra,16.705,74.2433,34.7,42,0.0,948.9,8.8,43.2,31,13.7,8.4,1.2,135.0,104.0,1.7,0,5,7,1,2026-05-28T13:33:27.508233+05:30
Goa,Goa,15.2993,74.124,32.7,64,0.1,998.6,8.0,31.7,41,8.1,5.7,0.6,129.0,71.0,1.0,6,5,7,1,2026-05-28T13:33:27.508247+05:30
Jodhpur,Rajasthan,26.2389,73.0243,39.2,33,0.0,979.0,8.4,53.3,176,459.1,80.1,0.6,122.0,90.0,2.4,0,5,10,1,2026-05-28T13:33:27.508256+05:30
Udaipur,Rajasthan,24.5854,73.7125,38.5,23,0.0,945.4,8.8,51.8,65,53.6,21.8,0.6,126.0,103.0,2.9,0,5,10,0,2026-05-28T13:33:27.508263+05:30
Kota,Rajasthan,25.2138,75.8648,44.5,17,0.0,974.8,8.35,46.1,65,40.3,17.9,1.0,138.0,124.0,5.4,0,5,10,0,2026-05-28T13:33:27.508270+05:30
Bikaner,Rajasthan,28.0229,73.3119,42.8,23,0.0,976.0,8.45,46.4,154,163.4,70.1,0.4,131.0,94.0,3.1,0,5,10,1,2026-05-28T13:33:27.508277+05:30
Ajmer,Rajasthan,26.4499,74.6399,39.0,26,0.0,951.5,8.35,57.2,66,49.9,21.8,0.8,135.0,111.0,3.4,0,5,10,0,2026-05-28T13:33:27.508284+05:30
Gwalior,Madhya Pradesh,26.2183,78.1828,43.0,19,0.0,978.7,8.25,48.2,83,98.3,29.6,0.6,140.0,112.0,3.2,0,5,10,0,2026-05-28T13:33:27.508291+05:30
Indore,Madhya Pradesh,22.7196,75.8577,39.9,26,0.0,947.6,8.65,47.2,70,44.9,22.1,1.0,168.0,116.0,5.8,0,5,10,1,2026-05-28T13:33:27.508298+05:30
Bhopal,Madhya Pradesh,23.2599,77.4126,42.3,17,0.0,952.1,8.65,39.6,65,48.2,20.8,0.8,158.0,122.0,5.7,0,5,10,0,2026-05-28T13:33:27.508305+05:30
Jabalpur,Madhya Pradesh,23.1815,79.9864,43.8,15,0.0,958.6,8.85,38.9,59,53.4,18.5,0.7,150.0,126.0,3.4,0,5,10,0,2026-05-28T13:33:27.508311+05:30
Ujjain,Madhya Pradesh,23.1765,75.7885,40.3,24,0.0,952.9,8.55,48.6,71,45.6,22.6,0.7,148.0,110.0,5.3,0,5,10,1,2026-05-28T13:33:27.508319+05:30
Visakhapatnam,Andhra Pradesh,17.6868,83.2185,37.7,52,0.0,999.4,9.0,43.6,109,42.4,35.2,7.9,440.0,201.0,35.1,0,5,10,1,2026-05-28T13:33:27.508326+05:30
Vijayawada,Andhra Pradesh,16.5062,80.648,40.8,32,0.0,999.4,8.5,36.0,98,31.8,24.0,1.3,196.0,163.0,8.7,0,5,10,1,2026-05-28T13:33:27.508333+05:30
Guntur,Andhra Pradesh,16.3067,80.4365,40.5,32,0.0,1000.6,7.6,33.5,84,29.1,20.8,1.1,187.0,155.0,6.6,0,5,7,1,2026-05-28T13:33:27.508340+05:30
Nellore,Andhra Pradesh,14.4426,79.9865,38.0,42,0.0,1003.8,9.0,35.6,69,28.1,20.4,2.5,161.0,169.0,8.4,0,5,7,1,2026-05-28T13:33:27.508348+05:30
Kurnool,Andhra Pradesh,15.8281,78.0373,37.3,38,0.0,976.2,9.0,45.7,59,17.2,14.2,1.4,159.0,141.0,9.0,0,5,10,1,2026-05-28T13:33:27.508356+05:30
Kakinada,Andhra Pradesh,16.9891,82.2475,40.2,38,0.0,1003.5,8.95,35.6,111,33.6,26.5,2.3,274.0,164.0,4.8,0,5,7,1,2026-05-28T13:33:27.508363+05:30
Tirupati,Andhra Pradesh,13.6288,79.4192,38.2,38,0.0,989.5,9.0,28.4,85,26.6,16.8,0.6,165.0,149.0,3.0,0,5,10,1,2026-05-28T13:33:27.508370+05:30
Warangal,Telangana,17.9689,79.5941,39.1,31,0.0,976.7,9.05,36.0,76,32.6,22.8,1.3,197.0,162.0,7.0,0,5,10,1,2026-05-28T13:33:27.508377+05:30
Nizamabad,Telangana,18.6725,78.0941,38.8,29,0.0,963.9,9.0,35.3,69,26.0,13.9,0.9,155.0,128.0,3.0,0,5,10,1,2026-05-28T13:33:27.508383+05:30
Mysore,Karnataka,12.2958,76.6396,32.5,46,0.0,929.6,9.1,45.4,52,14.6,10.1,1.5,157.0,129.0,1.9,0,5,7,1,2026-05-28T13:33:27.508389+05:30
Mangalore,Karnataka,12.9141,74.856,30.0,78,0.0,1008.3,7.45,29.9,45,11.5,7.4,1.1,131.0,86.0,1.5,7,0,4,1,2026-05-28T13:33:27.508397+05:30
Hubli-Dharwad,Karnataka,15.3647,75.124,33.5,47,0.0,942.2,8.95,43.6,31,13.9,9.2,1.3,133.0,104.0,1.2,0,5,7,1,2026-05-28T13:33:27.508403+05:30
Belgaum,Karnataka,15.8497,74.4977,32.8,46,0.0,927.5,8.7,41.8,29,13.4,8.3,1.2,142.0,92.0,1.4,0,5,7,1,2026-05-28T13:33:30.807085+05:30
Coimbatore,Tamil Nadu,11.0168,76.9558,31.8,52,0.2,963.1,8.8,50.8,40,13.2,9.1,1.3,173.0,102.0,2.1,3,5,7,1,2026-05-28T13:33:30.807122+05:30
Madurai,Tamil Nadu,9.9252,78.1198,35.7,46,0.0,992.6,7.1,40.3,85,26.9,19.8,1.7,169.0,160.0,3.2,0,5,10,1,2026-05-28T13:33:30.807133+05:30
Trichy,Tamil Nadu,10.7905,78.7047,37.3,41,0.0,998.7,7.8,52.2,61,19.8,14.9,1.0,150.0,129.0,2.7,0,5,10,1,2026-05-28T13:33:30.807143+05:30
Salem,Tamil Nadu,11.6643,78.146,37.3,35,0.0,977.1,8.5,39.6,67,26.0,20.0,2.1,206.0,170.0,9.0,0,5,10,1,2026-05-28T13:33:30.807152+05:30
Tirunelveli,Tamil Nadu,8.7139,77.7567,39.2,33,0.0,1002.5,7.85,30.2,29,9.3,6.3,1.6,125.0,81.0,1.0,0,5,7,1,2026-05-28T13:33:30.807160+05:30
Vellore,Tamil Nadu,12.9165,79.1325,36.5,41,0.0,983.4,8.65,40.3,83,22.0,15.3,0.6,178.0,156.0,2.8,0,5,10,1,2026-05-28T13:33:30.807168+05:30
Erode,Tamil Nadu,11.341,77.7172,36.6,38,0.0,988.5,8.25,48.6,53,17.6,13.2,1.5,175.0,135.0,2.1,0,5,10,1,2026-05-28T13:33:30.807177+05:30
Kochi,Kerala,9.9312,76.2673,29.5,76,0.0,1011.0,8.2,29.2,52,11.2,7.9,2.6,112.0,82.0,2.7,7,0,4,1,2026-05-28T13:33:30.807185+05:30
Thiruvananthapuram,Kerala,8.5241,76.9366,27.9,82,0.0,1010.5,7.4,27.4,32,10.0,5.5,0.9,106.0,58.0,0.6,7,0,4,1,2026-05-28T13:33:30.807192+05:30
Kozhikode,Kerala,11.2588,75.7804,29.0,76,0.0,1009.9,7.65,36.0,33,6.9,4.3,0.5,128.0,71.0,0.7,7,0,4,1,2026-05-28T13:33:30.807222+05:30
Thrissur,Kerala,10.5276,76.2144,30.0,74,0.1,1009.1,8.45,32.8,53,10.5,8.1,2.0,121.0,81.0,2.3,10,0,4,1,2026-05-28T13:33:30.807232+05:30
Kannur,Kerala,11.8745,75.3704,29.5,74,0.0,1009.2,8.35,37.4,37,9.3,5.9,1.0,118.0,77.0,1.0,7,0,4,1,2026-05-28T13:33:30.807240+05:30
Patna,Bihar,25.5941,85.1376,35.0,46,0.0,997.9,8.75,45.0,103,43.1,33.2,3.0,273.0,175.0,16.4,0,5,7,1,2026-05-28T13:33:30.807248+05:30
Gaya,Bihar,24.7914,85.0002,36.6,40,0.0,990.7,8.85,34.6,127,36.9,32.5,2.8,341.0,182.0,15.0,0,5,10,1,2026-05-28T13:33:30.807256+05:30
Muzaffarpur,Bihar,26.1209,85.3647,33.1,52,0.0,998.5,8.75,47.5,99,51.8,35.3,2.3,291.0,177.0,13.8,0,5,7,1,2026-05-28T13:33:30.807263+05:30
Bhagalpur,Bihar,25.2425,87.0117,33.2,53,0.0,999.2,8.7,38.2,89,30.0,20.3,4.7,237.0,144.0,15.3,0,5,7,1,2026-05-28T13:33:30.807270+05:30
Ranchi,Jharkhand,23.3441,85.3096,32.1,46,0.0,936.4,9.2,39.2,150,177.9,51.1,0.8,224.0,176.0,9.4,0,5,7,1,2026-05-28T13:33:30.807278+05:30
Jamshedpur,Jharkhand,22.8046,86.2029,35.8,47,0.0,987.2,9.05,31.7,155,97.6,71.0,2.5,319.0,257.0,28.4,0,5,10,1,2026-05-28T13:33:30.807285+05:30
Dhanbad,Jharkhand,23.7957,86.4304,35.5,45,0.0,977.5,9.0,34.2,160,100.8,72.2,12.3,405.0,190.0,44.3,0,5,10,1,2026-05-28T13:33:30.807293+05:30
Bokaro,Jharkhand,23.6693,86.1511,36.2,43,0.0,980.9,9.0,35.6,166,118.5,89.6,14.1,483.0,226.0,59.2,0,5,10,1,2026-05-28T13:33:30.807300+05:30
Bhubaneswar,Odisha,20.2961,85.8245,36.3,49,0.0,998.2,9.05,46.8,109,46.7,34.3,2.0,233.0,165.0,8.5,0,5,10,1,2026-05-28T13:33:30.807308+05:30
Cuttack,Odisha,20.4625,85.8828,36.5,49,0.0,999.8,9.1,43.6,109,46.7,34.3,2.0,249.0,165.0,8.5,0,5,10,1,2026-05-28T13:33:30.807315+05:30
Rourkela,Odisha,22.2604,84.8536,38.2,41,0.0,981.1,8.9,32.8,154,99.9,46.9,0.7,269.0,214.0,13.3,0,5,10,1,2026-05-28T13:33:30.807323+05:30
Raipur,Chhattisgarh,21.2514,81.6296,43.4,15,0.0,971.0,8.9,32.4,93,52.9,24.0,5.9,144.0,158.0,25.2,0,5,10,0,2026-05-28T13:33:30.807330+05:30
Bhilai,Chhattisgarh,21.1938,81.3509,41.8,19,0.0,971.6,8.95,39.2,86,52.5,22.7,5.9,153.0,147.0,22.2,0,5,10,0,2026-05-28T13:33:30.807337+05:30
Guwahati,Assam,26.1158,91.7086,29.8,70,0.0,1001.2,8.75,37.4,85,29.0,19.2,0.9,304.0,138.0,2.5,7,5,4,1,2026-05-28T13:33:30.807344+05:30
Agartala,Tripura,23.8315,91.2868,31.8,63,0.0,1005.0,8.85,21.2,88,41.8,24.1,2.6,184.0,142.0,2.8,3,5,4,1,2026-05-28T13:33:30.807351+05:30
Shillong,Meghalaya,25.5788,91.8933,23.2,56,0.0,858.9,8.0,19.8,67,39.9,19.5,0.8,216.0,141.0,3.4,0,5,7,0,2026-05-28T13:33:30.807358+05:30
Imphal,Manipur,24.817,93.9368,30.1,44,0.0,923.0,9.25,31.7,102,50.5,18.6,0.6,169.0,119.0,2.3,0,5,7,1,2026-05-28T13:33:30.807365+05:30
Aizawl,Mizoram,23.7271,92.7176,27.8,54,0.0,893.3,9.05,21.2,69,40.4,15.1,0.4,161.0,111.0,2.2,4,5,7,1,2026-05-28T13:33:30.807373+05:30
Kohima,Nagaland,25.6701,94.1077,22.7,82,0.1,856.8,9.25,28.4,65,32.7,16.7,0.6,194.0,115.0,1.8,6,5,7,1,2026-05-28T13:33:30.807381+05:30
Gangtok,Sikkim,27.3314,88.6138,21.4,54,0.1,839.5,8.95,38.5,66,22.3,14.8,1.0,249.0,130.0,1.7,3,5,7,0,2026-05-28T13:33:30.807388+05:30
Siliguri,West Bengal,26.7271,88.3953,30.3,59,0.1,992.1,7.45,26.3,114,38.6,23.7,1.3,259.0,145.0,2.9,3,5,7,1,2026-05-28T13:33:34.137532+05:30
Durgapur,West Bengal,23.5204,87.3119,33.6,58,0.0,992.5,8.95,29.2,151,68.0,48.7,9.8,288.0,159.0,27.7,0,5,7,1,2026-05-28T13:33:34.137562+05:30
Asansol,West Bengal,23.6739,86.9524,34.2,50,0.0,991.0,8.95,31.3,152,79.2,53.6,8.6,354.0,163.0,27.4,0,5,7,1,2026-05-28T13:33:34.137573+05:30
Pondicherry,Puducherry,11.9139,79.8145,35.9,49,0.0,1006.9,7.95,38.5,74,37.3,31.8,5.5,227.0,202.0,13.1,0,5,7,1,2026-05-28T13:33:34.137581+05:30
Port Blair,Andaman and Nicobar Islands,11.6234,92.7265,27.8,79,0.1,1006.3,6.0,40.3,39,12.2,6.4,0.5,124.0,80.0,0.5,10,5,0,1,2026-05-28T13:33:34.137590+05:30
Haridwar,Uttarakhand,29.9457,78.1642,36.3,37,0.0,971.4,7.55,41.0,152,104.8,36.2,1.2,342.0,196.0,13.0,0,5,10,1,2026-05-28T13:33:34.137597+05:30
Rishikesh,Uttarakhand,30.0869,78.2676,35.5,32,0.1,964.4,7.7,33.8,141,96.2,32.7,0.9,314.0,186.0,12.1,3,5,10,1,2026-05-28T13:33:34.137605+05:30
Nainital,Uttarakhand,29.3919,79.4542,22.8,53,0.1,808.8,8.5,33.5,135,78.7,27.6,0.9,367.0,168.0,7.4,3,5,7,0,2026-05-28T13:33:34.137612+05:30
Mussoorie,Uttarakhand,30.4599,78.0664,21.1,49,0.1,805.7,8.1,45.0,115,94.1,36.0,1.5,272.0,196.0,12.6,3,5,7,0,2026-05-28T13:33:34.137619+05:30
Dharamshala,Himachal Pradesh,32.219,76.3234,27.3,32,0.1,869.9,6.85,40.3,57,27.0,9.7,0.5,153.0,138.0,1.1,7,5,7,0,2026-05-28T13:33:34.137626+05:30
Dalhousie,Himachal Pradesh,32.5387,75.971,22.8,32,0.1,807.8,6.5,37.4,68,37.1,15.4,1.7,182.0,155.0,1.8,3,5,7,0,2026-05-28T13:33:34.137634+05:30
Patiala,Punjab,30.3398,76.3869,38.7,32,0.0,973.7,7.65,46.4,815,1214.4,169.0,2.1,346.0,205.0,15.3,0,5,10,1,2026-05-28T13:33:34.137641+05:30
Bhatinda,Punjab,30.211,74.9455,41.8,18,0.0,978.0,8.3,47.5,101,104.8,35.7,2.9,239.0,210.0,20.7,0,5,10,0,2026-05-28T13:33:34.137650+05:30
Rohtak,Haryana,28.8955,76.6066,40.5,26,0.0,976.7,7.75,44.6,695,529.0,110.1,3.6,464.0,252.0,17.6,0,5,10,1,2026-05-28T13:33:34.137657+05:30
Panipat,Haryana,29.3909,76.9635,38.2,37,0.0,976.3,7.65,44.3,1511,1344.8,193.2,4.4,381.0,269.0,27.4,0,5,10,1,2026-05-28T13:33:34.137665+05:30
Mathura,Uttar Pradesh,27.4924,77.6737,41.6,21,0.0,982.0,8.0,55.8,541,504.8,87.1,1.2,177.0,146.0,5.2,0,5,10,0,2026-05-28T13:33:34.137672+05:30
Vrindavan,Uttar Pradesh,27.5823,77.7027,40.8,23,0.0,982.4,8.0,48.6,541,504.8,87.1,1.2,187.0,146.0,5.2,0,5,10,0,2026-05-28T13:33:34.137678+05:30
Ayodhya,Uttar Pradesh,26.7922,82.1998,35.8,42,0.0,992.7,8.3,45.0,95,81.3,41.8,1.4,319.0,183.0,11.7,0,5,10,1,2026-05-28T13:33:34.137685+05:30
Ratlam,Madhya Pradesh,23.3315,75.0367,39.0,30,0.0,954.2,8.5,52.2,73,48.0,23.7,0.6,134.0,107.0,5.3,0,5,10,1,2026-05-28T13:33:34.137692+05:30
Sagar,Madhya Pradesh,23.8388,78.7378,42.7,14,0.0,948.1,8.7,47.2,61,48.0,18.6,0.6,147.0,127.0,4.0,0,5,10,0,2026-05-28T13:33:34.137699+05:30
Satna,Madhya Pradesh,24.6005,80.8322,42.0,19,0.0,967.4,8.75,44.3,74,123.9,30.2,0.8,139.0,136.0,4.5,0,5,10,0,2026-05-28T13:33:34.137706+05:30
Akola,Maharashtra,20.7002,77.0082,42.1,21,0.0,973.4,8.8,42.1,60,43.8,20.7,1.3,143.0,124.0,6.6,0,5,10,0,2026-05-28T13:33:34.137714+05:30
Amravati,Maharashtra,20.9374,77.7796,42.0,18,0.0,965.5,8.85,42.1,61,44.2,20.8,1.4,147.0,128.0,7.4,0,5,10,0,2026-05-28T13:33:34.137721+05:30
Latur,Maharashtra,18.4088,76.5604,37.1,30,0.0,940.4,8.95,33.5,58,24.7,12.7,0.9,147.0,122.0,4.0,0,5,10,1,2026-05-28T13:33:34.137729+05:30
Nanded,Maharashtra,19.1383,77.3091,40.5,23,0.0,967.6,8.9,38.2,64,26.6,13.6,0.9,154.0,124.0,2.4,0,5,10,0,2026-05-28T13:33:34.137736+05:30
Gulbarga,Karnataka,17.3297,76.8343,37.1,34,0.0,958.7,8.95,38.9,56,11.8,8.7,1.4,149.0,131.0,4.2,0,5,10,1,2026-05-28T13:33:34.137743+05:30
Bidar,Karnataka,17.9104,77.5199,36.5,33,0.0,936.0,9.0,33.8,66,22.9,13.1,1.1,155.0,138.0,5.4,0,5,10,1,2026-05-28T13:33:34.137749+05:30
Hospet,Karnataka,15.2689,76.3909,33.8,50,0.0,956.5,8.95,57.6,41,17.9,11.6,1.4,147.0,111.0,3.4,0,5,7,1,2026-05-28T13:33:34.137756+05:30
Tirupur,Tamil Nadu,11.1085,77.3411,36.5,38,0.0,975.4,7.9,54.4,53,15.7,11.6,1.6,162.0,125.0,2.6,0,5,10,1,2026-05-28T13:33:34.137762+05:30
Alappuzha,Kerala,9.4981,76.3388,28.7,79,0.0,1011.0,8.1,29.5,41,9.6,6.4,1.8,102.0,76.0,1.5,7,0,4,1,2026-05-28T13:33:34.137769+05:30
Munnar,Kerala,10.0889,77.0595,18.9,94,0.1,858.8,8.0,24.1,28,10.5,7.7,1.2,125.0,86.0,0.9,6,10,7,1,2026-05-28T13:33:34.137777+05:30
Silchar,Assam,24.8333,92.7789,32.1,58,0.0,1003.4,8.9,23.4,113,27.5,18.2,1.1,199.0,133.0,3.6,0,5,4,1,2026-05-28T13:33:34.137785+05:30
Dibrugarh,Assam,27.4728,94.912,27.8,81,0.0,995.5,3.85,26.3,93,48.2,19.0,0.7,198.0,127.0,1.6,7,5,3,1,2026-05-28T13:33:34.137791+05:30
