city,state,latitude,longitude,temp,humidity,rain,pressure,uv_index,wind_gusts,aqi,pm10,pm2_5,mosquito_risk,arthritis_risk,migraine_risk,frizz_risk,updated_at
Delhi,Delhi,28.6139,77.209,30.2,33,0.0,980.1,6.15,22.3,134,103.1,26.6,0,5,7,0,2026-03-28T15:11:21.960526+05:30
Mumbai,Maharashtra,19.076,72.8777,28.3,75,0.0,1006.9,8.0,25.2,78,26.1,19.0,7,5,4,1,2026-03-28T15:11:21.960571+05:30
Bangalore,Karnataka,12.9716,77.5946,32.1,40,0.0,910.2,9.5,47.2,91,40.9,32.4,0,5,7,1,2026-03-28T15:11:21.960586+05:30
Hyderabad,Telangana,17.385,78.4867,38.1,18,0.0,949.9,9.0,24.8,111,44.1,34.9,0,5,10,0,2026-03-28T15:11:21.960597+05:30
Chennai,Tamil Nadu,13.0827,80.2707,33.9,55,0.0,1004.4,9.25,34.9,68,29.6,21.0,0,5,4,1,2026-03-28T15:11:21.960605+05:30
Kolkata,West Bengal,22.5726,88.3639,32.2,54,0.0,1002.7,8.4,31.7,126,71.5,57.4,0,5,4,1,2026-03-28T15:11:21.960612+05:30
Pune,Maharashtra,18.5204,73.8567,36.8,21,0.0,947.0,8.5,46.8,78,10.8,8.1,0,5,10,0,2026-03-28T15:11:21.960622+05:30
Ahmedabad,Gujarat,23.0225,72.5714,35.5,31,0.0,999.2,7.95,35.3,37,51.1,11.2,0,5,10,0,2026-03-28T15:11:21.960628+05:30
Jaipur,Rajasthan,26.9124,75.7873,33.5,22,0.0,956.8,7.25,32.0,109,164.8,20.0,0,5,7,0,2026-03-28T15:11:21.960635+05:30
Lucknow,Uttar Pradesh,26.8467,80.9462,31.9,29,0.0,989.8,7.15,29.5,131,106.9,24.1,0,5,7,0,2026-03-28T15:11:21.960642+05:30
Kanpur,Uttar Pradesh,26.4499,80.3319,31.5,37,0.0,988.5,6.95,29.2,189,283.1,39.3,0,5,7,0,2026-03-28T15:11:21.960648+05:30
Chandigarh,Chandigarh,30.7333,76.7794,29.2,45,0.0,966.2,5.25,23.0,73,22.7,14.5,4,5,3,1,2026-03-28T15:11:21.960655+05:30
Srinagar,Jammu and Kashmir,34.0837,74.7973,19.3,44,0.0,838.9,6.0,16.2,88,28.8,12.8,0,5,3,0,2026-03-28T15:11:21.960661+05:30
Jammu,Jammu and Kashmir,32.7266,74.857,28.8,46,0.0,970.3,6.85,15.8,73,11.6,11.4,4,5,7,0,2026-03-28T15:11:21.960667+05:30
Amritsar,Punjab,31.634,74.8723,28.9,42,0.0,978.0,6.15,14.8,135,17.2,14.6,4,5,7,0,2026-03-28T15:11:21.960674+05:30
Ludhiana,Punjab,30.901,75.8573,29.8,39,0.0,976.1,6.15,14.0,95,27.3,14.4,4,5,7,0,2026-03-28T15:11:21.960680+05:30
Jalandhar,Punjab,31.326,75.5762,28.9,43,0.0,977.4,6.25,12.2,99,26.2,13.8,4,5,7,0,2026-03-28T15:11:21.960687+05:30
Dehradun,Uttarakhand,30.6284,78.0322,18.7,64,0.0,828.0,5.8,22.3,56,24.0,14.9,3,5,3,0,2026-03-28T15:11:21.960692+05:30
Shimla,Himachal Pradesh,31.1048,77.1734,16.4,62,0.0,782.6,6.0,32.0,61,20.6,12.4,3,5,3,0,2026-03-28T15:11:21.960698+05:30
Manali,Himachal Pradesh,32.2396,77.1887,21.0,54,0.0,818.3,8.55,28.1,98,22.5,6.9,0,5,7,0,2026-03-28T15:11:21.960704+05:30
Gurgaon,Haryana,28.4595,77.0266,30.5,32,0.0,978.6,6.3,17.3,378,410.7,53.0,0,5,7,0,2026-03-28T15:11:21.960709+05:30
Noida,Uttar Pradesh,28.5355,77.391,30.6,32,0.0,981.7,6.05,21.6,378,410.7,53.0,0,5,7,0,2026-03-28T15:11:21.960715+05:30
Ghaziabad,Uttar Pradesh,28.6692,77.4538,29.9,37,0.0,979.9,5.8,21.2,125,69.2,25.2,4,5,3,0,2026-03-28T15:11:21.960720+05:30
Faridabad,Haryana,28.4089,77.3178,30.7,32,0.0,981.0,6.3,19.4,378,410.7,53.0,0,5,7,0,2026-03-28T15:11:21.960725+05:30
Meerut,Uttar Pradesh,28.9845,77.7064,29.4,40,0.0,978.7,5.85,23.0,125,69.2,25.2,4,5,3,0,2026-03-28T15:11:21.960732+05:30
Agra,Uttar Pradesh,27.1767,78.0081,34.5,26,0.0,984.0,6.35,27.0,406,516.0,51.5,0,5,7,0,2026-03-28T15:11:21.960738+05:30
Varanasi,Uttar Pradesh,25.3176,82.9739,33.5,32,0.0,994.1,7.8,37.4,81,75.9,22.2,0,5,7,0,2026-03-28T15:11:21.960745+05:30
Prayagraj,Uttar Pradesh,25.4358,81.8463,33.1,33,0.0,992.3,7.7,30.2,81,95.0,23.1,0,5,7,0,2026-03-28T15:11:21.960751+05:30
Gorakhpur,Uttar Pradesh,26.7606,83.3732,31.2,37,0.0,993.8,7.0,23.8,101,103.4,29.9,0,5,7,0,2026-03-28T15:11:21.960758+05:30
Bareilly,Uttar Pradesh,28.367,79.4304,30.0,40,0.0,983.6,6.35,26.3,83,31.7,16.4,4,5,7,0,2026-03-28T15:11:21.960764+05:30
Aligarh,Uttar Pradesh,27.8974,78.088,31.0,35,0.0,982.4,6.45,24.1,193,326.9,44.2,0,5,7,0,2026-03-28T15:11:21.960769+05:30
Moradabad,Uttar Pradesh,28.8386,78.7733,29.5,43,0.0,980.5,6.1,25.2,91,46.4,22.6,4,5,7,0,2026-03-28T15:11:21.960775+05:30
Saharanpur,Uttar Pradesh,29.9637,77.546,29.4,44,0.0,972.8,5.25,24.8,102,25.1,16.5,4,5,3,0,2026-03-28T15:11:21.960781+05:30
Jhansi,Uttar Pradesh,25.4484,78.5685,35.9,20,0.0,973.7,7.1,33.8,100,88.9,22.0,0,5,10,0,2026-03-28T15:11:25.277815+05:30
Surat,Gujarat,21.1702,72.8311,31.2,53,0.0,1005.1,7.75,27.4,85,27.7,26.1,0,5,4,1,2026-03-28T15:11:25.277845+05:30
Vadodara,Gujarat,22.3072,73.1812,36.4,28,0.0,1001.4,7.95,33.1,61,20.7,9.8,0,5,7,0,2026-03-28T15:11:25.277855+05:30
Rajkot,Gujarat,22.3039,70.8022,33.8,37,0.0,992.1,7.75,44.3,31,27.2,10.0,0,5,7,1,2026-03-28T15:11:25.277863+05:30
Thane,Maharashtra,19.2183,72.9781,31.6,59,0.0,1006.5,8.0,38.5,78,26.1,19.0,0,5,4,1,2026-03-28T15:11:25.277870+05:30
Nagpur,Maharashtra,21.1458,79.0882,37.9,19,0.0,968.8,8.5,31.7,59,15.5,10.4,0,5,10,0,2026-03-28T15:11:25.277878+05:30
Nashik,Maharashtra,19.9975,73.7898,34.4,22,0.0,944.0,8.2,42.5,59,32.6,10.5,0,5,7,0,2026-03-28T15:11:25.277885+05:30
Aurangabad,Maharashtra,19.8762,75.3433,36.8,16,0.0,941.6,8.75,38.5,54,10.5,5.8,0,5,10,0,2026-03-28T15:11:25.277893+05:30
Solapur,Maharashtra,17.6599,75.9064,38.6,17,0.0,954.2,8.85,28.4,91,25.9,19.6,0,5,10,0,2026-03-28T15:11:25.277900+05:30
Kolhapur,Maharashtra,16.705,74.2433,34.0,35,0.0,946.5,8.95,46.4,134,32.6,25.8,0,5,7,1,2026-03-28T15:11:25.277907+05:30
Goa,Goa,15.2993,74.124,32.4,67,0.0,995.9,8.95,31.7,96,41.6,34.1,3,5,7,1,2026-03-28T15:11:25.277915+05:30
Jodhpur,Rajasthan,26.2389,73.0243,34.8,27,0.0,979.6,7.8,29.9,61,154.1,20.7,0,5,7,0,2026-03-28T15:11:25.277921+05:30
Udaipur,Rajasthan,24.5854,73.7125,32.7,32,0.0,944.4,8.35,33.1,40,15.4,5.2,0,5,7,0,2026-03-28T15:11:25.277928+05:30
Kota,Rajasthan,25.2138,75.8648,37.3,21,0.0,974.7,7.65,24.5,50,111.8,18.9,0,5,10,0,2026-03-28T15:11:25.277935+05:30
Bikaner,Rajasthan,28.0229,73.3119,34.7,24,0.0,977.7,7.2,25.2,38,30.2,9.3,0,5,7,0,2026-03-28T15:11:25.277942+05:30
Ajmer,Rajasthan,26.4499,74.6399,33.3,25,0.0,951.4,7.65,30.6,40,80.6,15.3,0,5,7,0,2026-03-28T15:11:25.277948+05:30
Gwalior,Madhya Pradesh,26.2183,78.1828,34.3,27,0.0,979.6,6.95,35.3,150,86.1,21.1,0,5,7,0,2026-03-28T15:11:25.277955+05:30
Indore,Madhya Pradesh,22.7196,75.8577,35.1,24,0.0,945.1,8.2,36.7,43,13.5,7.0,0,5,10,0,2026-03-28T15:11:25.277961+05:30
Bhopal,Madhya Pradesh,23.2599,77.4126,36.0,21,0.0,950.4,8.15,31.3,42,39.0,9.4,0,5,10,0,2026-03-28T15:11:25.277968+05:30
Jabalpur,Madhya Pradesh,23.1815,79.9864,34.7,26,0.0,957.7,8.25,29.9,53,30.5,10.1,0,5,7,0,2026-03-28T15:11:25.277974+05:30
Ujjain,Madhya Pradesh,23.1765,75.7885,34.4,25,0.0,951.0,8.15,34.6,40,12.5,5.6,0,5,7,0,2026-03-28T15:11:25.277981+05:30
Visakhapatnam,Andhra Pradesh,17.6868,83.2185,33.1,51,0.0,1000.2,9.0,44.6,92,44.2,31.3,0,5,4,1,2026-03-28T15:11:25.277988+05:30
Vijayawada,Andhra Pradesh,16.5062,80.648,37.2,33,0.0,998.2,9.05,32.0,77,45.5,34.2,0,5,10,1,2026-03-28T15:11:25.277995+05:30
Guntur,Andhra Pradesh,16.3067,80.4365,37.1,36,0.0,999.6,9.05,32.8,79,48.4,36.6,0,5,10,1,2026-03-28T15:11:25.278002+05:30
Nellore,Andhra Pradesh,14.4426,79.9865,37.3,41,0.0,1002.1,9.2,38.2,74,45.5,33.9,0,5,7,1,2026-03-28T15:11:25.278010+05:30
Kurnool,Andhra Pradesh,15.8281,78.0373,38.9,23,0.0,973.1,9.0,33.5,100,60.8,46.7,0,5,10,0,2026-03-28T15:11:25.278018+05:30
Kakinada,Andhra Pradesh,16.9891,82.2475,37.3,35,0.0,1003.1,9.0,34.6,71,33.4,20.6,0,5,7,1,2026-03-28T15:11:25.278025+05:30
Tirupati,Andhra Pradesh,13.6288,79.4192,36.3,28,0.0,987.9,9.3,28.1,100,47.5,34.7,0,5,10,0,2026-03-28T15:11:25.278032+05:30
Warangal,Telangana,17.9689,79.5941,38.7,24,0.0,974.4,8.85,25.6,96,26.2,22.6,0,5,10,0,2026-03-28T15:11:25.278038+05:30
Nizamabad,Telangana,18.6725,78.0941,38.1,18,0.0,961.4,8.8,24.5,92,14.3,10.7,0,5,10,0,2026-03-28T15:11:25.278044+05:30
Mysore,Karnataka,12.2958,76.6396,34.8,26,0.0,925.9,9.45,47.2,92,36.0,29.2,0,5,7,0,2026-03-28T15:11:25.278051+05:30
Mangalore,Karnataka,12.9141,74.856,29.4,81,0.0,1003.8,9.1,25.9,90,34.1,26.2,7,5,4,1,2026-03-28T15:11:25.278057+05:30
Hubli-Dharwad,Karnataka,15.3647,75.124,34.9,33,0.0,939.2,9.1,50.0,95,48.5,37.3,0,5,7,1,2026-03-28T15:11:25.278064+05:30
Belgaum,Karnataka,15.8497,74.4977,28.7,47,0.0,924.1,9.2,39.6,111,41.1,31.5,4,5,7,1,2026-03-28T15:11:28.592737+05:30
Coimbatore,Tamil Nadu,11.0168,76.9558,35.0,44,0.0,959.3,9.45,54.7,84,35.2,27.8,0,5,7,1,2026-03-28T15:11:28.592766+05:30
Madurai,Tamil Nadu,9.9252,78.1198,36.5,35,0.0,989.1,9.4,34.2,80,28.1,21.3,0,5,10,1,2026-03-28T15:11:28.592775+05:30
Trichy,Tamil Nadu,10.7905,78.7047,36.5,35,0.0,995.9,9.35,23.4,78,28.7,21.3,0,5,10,1,2026-03-28T15:11:28.592783+05:30
Salem,Tamil Nadu,11.6643,78.146,37.9,28,0.0,973.6,9.4,23.8,102,42.1,33.6,0,5,10,1,2026-03-28T15:11:28.592790+05:30
Tirunelveli,Tamil Nadu,8.7139,77.7567,38.9,23,0.0,998.9,9.35,45.0,66,25.0,20.1,0,5,10,0,2026-03-28T15:11:28.592796+05:30
Vellore,Tamil Nadu,12.9165,79.1325,35.7,33,0.0,981.1,9.35,28.4,118,49.6,38.0,0,5,10,1,2026-03-28T15:11:28.592802+05:30
Erode,Tamil Nadu,11.341,77.7172,38.4,26,0.0,984.7,9.35,22.3,90,37.0,29.1,0,5,10,0,2026-03-28T15:11:28.592808+05:30
Kochi,Kerala,9.9312,76.2673,28.9,80,0.0,1005.9,8.8,31.3,92,29.8,25.6,7,5,4,1,2026-03-28T15:11:28.592814+05:30
Thiruvananthapuram,Kerala,8.5241,76.9366,29.0,79,0.0,1005.4,9.15,41.0,66,24.5,19.3,7,5,4,1,2026-03-28T15:11:28.592820+05:30
Kozhikode,Kerala,11.2588,75.7804,30.2,77,0.0,1005.2,9.1,28.8,80,27.1,21.2,3,5,4,1,2026-03-28T15:11:28.592826+05:30
Thrissur,Kerala,10.5276,76.2144,33.0,61,0.0,1004.2,9.15,36.7,88,30.0,25.6,3,5,4,1,2026-03-28T15:11:28.592832+05:30
Kannur,Kerala,11.8745,75.3704,31.0,67,0.0,1004.8,9.1,30.6,87,28.9,22.6,3,5,4,1,2026-03-28T15:11:28.592837+05:30
Patna,Bihar,25.5941,85.1376,30.9,47,0.0,997.8,7.9,29.5,99,70.5,26.7,0,5,7,1,2026-03-28T15:11:28.592843+05:30
Gaya,Bihar,24.7914,85.0002,30.4,49,0.0,991.2,7.7,24.1,76,67.8,23.3,0,5,7,1,2026-03-28T15:11:28.592848+05:30
Muzaffarpur,Bihar,26.1209,85.3647,30.4,47,0.0,997.9,7.85,19.8,120,75.4,32.6,0,5,7,1,2026-03-28T15:11:28.592854+05:30
Bhagalpur,Bihar,25.2425,87.0117,28.9,58,0.0,999.3,7.3,25.2,118,65.2,35.6,4,5,7,1,2026-03-28T15:11:28.592860+05:30
Ranchi,Jharkhand,23.3441,85.3096,29.1,39,0.0,934.7,8.7,33.1,111,49.0,30.9,4,5,7,0,2026-03-28T15:11:28.592865+05:30
Jamshedpur,Jharkhand,22.8046,86.2029,33.0,45,0.0,987.2,8.5,32.4,108,69.6,53.2,0,5,7,1,2026-03-28T15:11:28.592871+05:30
Dhanbad,Jharkhand,23.7957,86.4304,32.3,36,0.0,976.5,8.4,33.8,152,82.0,63.3,0,5,7,0,2026-03-28T15:11:28.592877+05:30
Bokaro,Jharkhand,23.6693,86.1511,32.0,45,0.0,980.4,8.45,31.0,138,73.1,54.5,0,5,7,1,2026-03-28T15:11:28.592883+05:30
Bhubaneswar,Odisha,20.2961,85.8245,34.0,50,0.0,998.8,8.8,36.7,116,54.0,44.6,0,5,7,1,2026-03-28T15:11:28.592889+05:30
Cuttack,Odisha,20.4625,85.8828,36.5,44,0.0,1000.2,8.85,34.6,116,54.0,44.6,0,5,7,1,2026-03-28T15:11:28.592895+05:30
Rourkela,Odisha,22.2604,84.8536,35.3,36,0.0,981.1,8.45,43.9,133,39.1,25.2,0,5,10,1,2026-03-28T15:11:28.592901+05:30
Raipur,Chhattisgarh,21.2514,81.6296,38.6,19,0.0,970.1,8.55,34.6,99,24.8,15.0,0,5,10,0,2026-03-28T15:11:28.592907+05:30
Bhilai,Chhattisgarh,21.1938,81.3509,38.7,20,0.0,970.4,8.6,33.8,84,20.2,11.4,0,5,10,0,2026-03-28T15:11:28.592912+05:30
Guwahati,Assam,26.1158,91.7086,22.3,84,0.1,1000.4,4.5,28.1,151,48.5,34.2,6,5,0,1,2026-03-28T15:11:28.592919+05:30
Agartala,Tripura,23.8315,91.2868,23.5,75,0.0,1004.9,6.4,38.5,150,52.3,41.6,3,5,4,1,2026-03-28T15:11:28.592924+05:30
Shillong,Meghalaya,25.5788,91.8933,13.3,82,0.0,852.7,4.85,43.9,103,34.9,22.6,3,10,3,0,2026-03-28T15:11:28.592930+05:30
Imphal,Manipur,24.817,93.9368,19.1,80,0.0,921.1,7.7,55.1,144,49.2,34.9,3,5,7,0,2026-03-28T15:11:28.592936+05:30
Aizawl,Mizoram,23.7271,92.7176,19.6,77,0.0,890.6,7.2,43.9,109,42.7,30.0,3,5,7,0,2026-03-28T15:11:28.592941+05:30
Kohima,Nagaland,25.6701,94.1077,14.2,92,0.0,852.2,4.95,77.0,105,37.0,28.5,3,10,3,0,2026-03-28T15:11:28.592947+05:30
Gangtok,Sikkim,27.3314,88.6138,15.2,83,0.0,834.0,7.6,20.2,105,26.0,16.2,3,10,7,0,2026-03-28T15:11:28.592953+05:30
Siliguri,West Bengal,26.7271,88.3953,21.9,79,0.0,992.4,7.35,26.3,153,51.3,33.3,3,5,7,1,2026-03-28T15:11:31.917134+05:30
Durgapur,West Bengal,23.5204,87.3119,32.6,45,0.0,991.7,8.35,35.6,126,78.7,59.3,0,5,7,1,2026-03-28T15:11:31.917162+05:30
Asansol,West Bengal,23.6739,86.9524,32.7,42,0.0,990.3,8.4,35.3,128,81.5,62.4,0,5,7,1,2026-03-28T15:11:31.917171+05:30
Pondicherry,Puducherry,11.9139,79.8145,35.0,50,0.0,1004.8,9.25,31.3,63,28.4,22.7,0,5,4,1,2026-03-28T15:11:31.917180+05:30
Port Blair,Andaman and Nicobar Islands,11.6234,92.7265,28.1,81,0.0,1004.0,9.15,25.6,73,38.1,25.7,7,5,4,1,2026-03-28T15:11:31.917188+05:30
Haridwar,Uttarakhand,29.9457,78.1642,30.1,42,0.0,971.2,5.7,27.0,76,21.2,14.2,0,5,3,0,2026-03-28T15:11:31.917196+05:30
Rishikesh,Uttarakhand,30.0869,78.2676,28.8,44,0.0,964.0,5.8,25.2,61,21.5,12.6,4,5,3,0,2026-03-28T15:11:31.917204+05:30
Nainital,Uttarakhand,29.3919,79.4542,20.7,52,0.0,804.1,4.8,27.0,63,32.2,16.3,0,5,3,0,2026-03-28T15:11:31.917211+05:30
Mussoorie,Uttarakhand,30.4599,78.0664,19.1,59,0.0,800.7,5.65,26.6,69,20.7,15.5,0,5,3,0,2026-03-28T15:11:31.917219+05:30
Dharamshala,Himachal Pradesh,32.219,76.3234,20.8,72,0.0,866.8,6.9,20.2,75,17.9,9.2,3,5,7,0,2026-03-28T15:11:31.917226+05:30
Dalhousie,Himachal Pradesh,32.5387,75.971,19.3,61,0.0,802.2,6.5,18.7,62,15.9,11.9,3,5,7,0,2026-03-28T15:11:31.917234+05:30
Patiala,Punjab,30.3398,76.3869,29.8,39,0.0,975.6,5.9,17.6,97,126.7,25.3,4,5,3,0,2026-03-28T15:11:31.917241+05:30
Bhatinda,Punjab,30.211,74.9455,32.0,29,0.0,980.5,6.9,17.3,79,32.7,12.0,0,5,7,0,2026-03-28T15:11:31.917248+05:30
Rohtak,Haryana,28.8955,76.6066,30.3,35,0.0,979.0,6.55,14.8,148,119.0,21.8,0,5,7,0,2026-03-28T15:11:31.917254+05:30
Panipat,Haryana,29.3909,76.9635,29.7,37,0.0,977.7,5.7,19.4,225,135.5,27.2,4,5,3,0,2026-03-28T15:11:31.917261+05:30
Mathura,Uttar Pradesh,27.4924,77.6737,32.7,30,0.0,983.5,6.35,21.6,236,337.1,38.3,0,5,7,0,2026-03-28T15:11:31.917268+05:30
Vrindavan,Uttar Pradesh,27.5823,77.7027,32.1,32,0.0,984.0,6.35,22.7,236,337.1,38.3,0,5,7,0,2026-03-28T15:11:31.917275+05:30
Ayodhya,Uttar Pradesh,26.7922,82.1998,31.9,33,0.0,991.7,6.85,31.0,97,85.7,27.4,0,5,7,0,2026-03-28T15:11:31.917282+05:30
Ratlam,Madhya Pradesh,23.3315,75.0367,33.3,31,0.0,952.1,8.1,37.1,41,13.7,5.4,0,5,7,0,2026-03-28T15:11:31.917289+05:30
Sagar,Madhya Pradesh,23.8388,78.7378,34.8,22,0.0,946.8,8.15,32.8,51,62.2,12.5,0,5,7,0,2026-03-28T15:11:31.917296+05:30
Satna,Madhya Pradesh,24.6005,80.8322,34.8,25,0.0,967.4,8.1,29.2,70,46.3,15.9,0,5,7,0,2026-03-28T15:11:31.917303+05:30
Akola,Maharashtra,20.7002,77.0082,37.9,20,0.0,971.6,8.5,34.2,46,13.1,6.8,0,5,10,0,2026-03-28T15:11:31.917311+05:30
Amravati,Maharashtra,20.9374,77.7796,37.9,22,0.0,963.6,8.45,32.8,46,13.4,6.8,0,5,10,0,2026-03-28T15:11:31.917318+05:30
Latur,Maharashtra,18.4088,76.5604,36.8,17,0.0,937.2,8.8,29.9,80,15.6,11.5,0,5,10,0,2026-03-28T15:11:31.917325+05:30
Nanded,Maharashtra,19.1383,77.3091,39.2,17,0.0,965.1,8.7,25.9,75,9.6,6.8,0,5,10,0,2026-03-28T15:11:31.917332+05:30
Gulbarga,Karnataka,17.3297,76.8343,39.3,15,0.0,955.6,8.9,28.8,104,30.3,22.5,0,5,10,0,2026-03-28T15:11:31.917339+05:30
Bidar,Karnataka,17.9104,77.5199,37.4,16,0.0,932.9,8.85,25.9,102,21.1,16.3,0,5,10,0,2026-03-28T15:11:31.917345+05:30
Hospet,Karnataka,15.2689,76.3909,36.5,28,0.0,953.2,9.1,36.7,109,54.1,41.8,0,5,10,0,2026-03-28T15:11:31.917352+05:30
Tirupur,Tamil Nadu,11.1085,77.3411,38.0,22,0.0,971.3,9.45,43.9,97,34.8,27.3,0,5,10,0,2026-03-28T15:11:31.917359+05:30
Alappuzha,Kerala,9.4981,76.3388,28.8,80,0.0,1006.0,9.15,30.2,86,29.2,24.6,7,5,4,1,2026-03-28T15:11:31.917366+05:30
Munnar,Kerala,10.0889,77.0595,27.3,67,0.0,856.8,9.7,38.9,77,25.6,20.2,7,5,7,1,2026-03-28T15:11:31.917373+05:30
Silchar,Assam,24.8333,92.7789,22.9,78,0.0,1004.4,3.4,30.2,155,61.0,44.8,3,5,0,1,2026-03-28T15:11:31.917379+05:30
Dibrugarh,Assam,27.4728,94.912,21.4,84,0.1,995.9,4.5,25.9,128,65.9,45.8,6,5,3,1,2026-03-28T15:11:31.917386+05:30
