city,state,latitude,longitude,temp,humidity,rain,pressure,uv_index,wind_gusts,aqi,pm10,pm2_5,mosquito_risk,arthritis_risk,migraine_risk,frizz_risk,updated_at
Delhi,Delhi,28.6139,77.209,16.1,77,0.0,986.7,5.8,35.6,227,376.3,85.9,3,5,3,0,2026-03-03T07:59:16.021940+05:30
Mumbai,Maharashtra,19.076,72.8777,26.1,82,0.0,1011.1,7.35,27.4,92,41.6,32.9,7,0,4,1,2026-03-03T07:59:16.021986+05:30
Bangalore,Karnataka,12.9716,77.5946,20.5,57,0.0,913.6,9.1,39.2,122,44.2,43.2,0,5,7,0,2026-03-03T07:59:16.022003+05:30
Hyderabad,Telangana,17.385,78.4867,22.7,72,0.0,956.3,8.35,23.8,144,74.0,72.9,3,5,7,1,2026-03-03T07:59:16.022014+05:30
Chennai,Tamil Nadu,13.0827,80.2707,23.6,85,0.0,1011.0,8.8,29.5,121,53.0,49.0,3,0,4,1,2026-03-03T07:59:16.022024+05:30
Kolkata,West Bengal,22.5726,88.3639,21.3,85,0.0,1010.7,7.7,18.0,174,180.2,170.0,3,0,4,1,2026-03-03T07:59:16.022034+05:30
Pune,Maharashtra,18.5204,73.8567,23.6,62,0.0,951.1,7.9,32.0,87,41.1,38.4,3,5,7,0,2026-03-03T07:59:16.022047+05:30
Ahmedabad,Gujarat,23.0225,72.5714,21.4,68,0.0,1006.5,7.15,20.2,104,46.1,37.7,3,5,4,0,2026-03-03T07:59:16.022056+05:30
Jaipur,Rajasthan,26.9124,75.7873,20.7,55,0.0,963.8,6.6,28.8,97,176.0,54.7,0,5,7,0,2026-03-03T07:59:16.022065+05:30
Lucknow,Uttar Pradesh,26.8467,80.9462,17.7,72,0.0,997.3,6.3,34.6,153,187.2,68.2,3,5,7,0,2026-03-03T07:59:16.022073+05:30
Kanpur,Uttar Pradesh,26.4499,80.3319,17.6,83,0.0,995.8,6.3,28.8,181,335.3,78.5,3,10,7,0,2026-03-03T07:59:16.022081+05:30
Chandigarh,Chandigarh,30.7333,76.7794,16.0,76,0.0,971.3,5.7,34.2,80,32.2,29.8,3,5,3,0,2026-03-03T07:59:16.022090+05:30
Srinagar,Jammu and Kashmir,34.0837,74.7973,2.7,66,0.0,841.0,6.6,15.8,142,66.1,55.1,3,5,7,1,2026-03-03T07:59:16.022097+05:30
Jammu,Jammu and Kashmir,32.7266,74.857,12.3,72,0.0,975.3,6.3,24.5,103,38.0,35.5,3,5,7,0,2026-03-03T07:59:16.022105+05:30
Amritsar,Punjab,31.634,74.8723,14.1,84,0.0,984.4,6.25,28.4,104,44.0,39.2,3,10,7,0,2026-03-03T07:59:16.022113+05:30
Ludhiana,Punjab,30.901,75.8573,15.3,76,0.0,982.2,5.9,30.6,148,67.5,53.8,3,5,3,0,2026-03-03T07:59:16.022121+05:30
Jalandhar,Punjab,31.326,75.5762,14.7,79,0.0,983.3,6.1,26.6,149,93.1,67.8,3,5,7,0,2026-03-03T07:59:16.022131+05:30
Dehradun,Uttarakhand,30.6284,78.0322,11.6,57,0.0,828.5,6.05,31.0,58,10.7,9.9,0,5,7,0,2026-03-03T07:59:16.022138+05:30
Shimla,Himachal Pradesh,31.1048,77.1734,9.3,58,0.0,782.4,6.1,43.6,72,33.1,29.7,0,5,7,0,2026-03-03T07:59:16.022145+05:30
Manali,Himachal Pradesh,32.2396,77.1887,16.2,8,0.0,820.0,7.45,35.3,53,18.8,15.5,0,5,7,1,2026-03-03T07:59:16.022153+05:30
Gurgaon,Haryana,28.4595,77.0266,14.2,87,0.0,985.3,5.9,32.4,947,1356.0,181.1,3,10,3,0,2026-03-03T07:59:16.022160+05:30
Noida,Uttar Pradesh,28.5355,77.391,16.5,76,0.0,988.3,5.85,34.9,947,1356.0,181.1,3,5,3,0,2026-03-03T07:59:16.022167+05:30
Ghaziabad,Uttar Pradesh,28.6692,77.4538,16.3,78,0.0,986.2,5.8,34.9,184,305.5,74.3,3,5,3,0,2026-03-03T07:59:16.022174+05:30
Faridabad,Haryana,28.4089,77.3178,16.6,75,0.0,987.6,5.85,31.7,947,1356.0,181.1,3,5,3,0,2026-03-03T07:59:16.022182+05:30
Meerut,Uttar Pradesh,28.9845,77.7064,16.0,77,0.0,984.4,5.65,41.0,184,305.5,74.3,3,5,3,0,2026-03-03T07:59:16.022189+05:30
Agra,Uttar Pradesh,27.1767,78.0081,17.0,85,0.0,992.0,6.15,29.5,419,502.9,87.8,3,10,7,0,2026-03-03T07:59:16.022196+05:30
Varanasi,Uttar Pradesh,25.3176,82.9739,18.8,76,0.0,1001.9,6.95,25.2,92,100.4,37.6,3,5,4,0,2026-03-03T07:59:16.022205+05:30
Prayagraj,Uttar Pradesh,25.4358,81.8463,18.4,75,0.0,1000.5,6.8,24.5,109,154.1,51.5,3,5,4,0,2026-03-03T07:59:16.022213+05:30
Gorakhpur,Uttar Pradesh,26.7606,83.3732,16.7,79,0.0,1001.0,6.7,21.6,137,183.5,76.8,3,5,4,0,2026-03-03T07:59:16.022220+05:30
Bareilly,Uttar Pradesh,28.367,79.4304,15.8,82,0.0,989.8,6.0,31.0,126,83.4,59.3,3,10,3,0,2026-03-03T07:59:16.022227+05:30
Aligarh,Uttar Pradesh,27.8974,78.088,16.0,80,0.0,989.3,5.95,34.9,542,711.5,125.7,3,5,3,0,2026-03-03T07:59:16.022235+05:30
Moradabad,Uttar Pradesh,28.8386,78.7733,15.6,82,0.0,986.4,5.85,30.2,134,89.2,58.1,3,10,3,0,2026-03-03T07:59:16.022244+05:30
Saharanpur,Uttar Pradesh,29.9637,77.546,15.1,84,0.0,977.9,5.45,44.3,114,98.3,65.9,3,10,3,0,2026-03-03T07:59:16.022251+05:30
Jhansi,Uttar Pradesh,25.4484,78.5685,18.1,77,0.0,982.2,6.75,25.2,76,154.6,38.3,3,5,7,0,2026-03-03T07:59:19.233793+05:30
Surat,Gujarat,21.1702,72.8311,22.5,69,0.0,1010.3,7.05,24.8,157,116.9,109.0,3,0,4,1,2026-03-03T07:59:19.233849+05:30
Vadodara,Gujarat,22.3072,73.1812,20.9,72,0.0,1008.5,7.15,15.8,154,105.9,100.6,3,0,4,0,2026-03-03T07:59:19.233868+05:30
Rajkot,Gujarat,22.3039,70.8022,20.3,82,0.0,998.2,7.0,21.2,66,32.0,19.4,3,5,7,1,2026-03-03T07:59:19.233884+05:30
Thane,Maharashtra,19.2183,72.9781,22.6,87,0.0,1010.7,7.35,38.2,92,41.6,32.9,3,0,4,1,2026-03-03T07:59:19.233898+05:30
Nagpur,Maharashtra,21.1458,79.0882,19.9,64,0.0,977.5,7.75,19.1,69,26.1,22.1,3,5,7,0,2026-03-03T07:59:19.233912+05:30
Nashik,Maharashtra,19.9975,73.7898,21.8,57,0.0,948.5,7.55,28.8,86,46.7,45.1,0,5,7,0,2026-03-03T07:59:19.233925+05:30
Aurangabad,Maharashtra,19.8762,75.3433,21.2,64,0.0,947.2,8.05,24.1,76,31.0,29.1,3,5,7,0,2026-03-03T07:59:19.233939+05:30
Solapur,Maharashtra,17.6599,75.9064,22.2,75,0.0,960.0,8.3,18.0,123,29.2,28.9,3,5,7,1,2026-03-03T07:59:19.233951+05:30
Kolhapur,Maharashtra,16.705,74.2433,20.5,86,0.0,949.9,8.4,40.0,120,64.5,62.9,3,5,7,1,2026-03-03T07:59:19.233962+05:30
Goa,Goa,15.2993,74.124,25.9,81,0.0,1000.1,8.4,36.0,73,36.8,32.2,7,5,4,1,2026-03-03T07:59:19.233972+05:30
Jodhpur,Rajasthan,26.2389,73.0243,18.2,60,0.0,987.6,6.85,12.2,77,41.9,22.2,0,5,7,0,2026-03-03T07:59:19.233983+05:30
Udaipur,Rajasthan,24.5854,73.7125,16.7,61,0.0,950.0,7.45,16.6,67,34.0,19.3,3,5,7,0,2026-03-03T07:59:19.233994+05:30
Kota,Rajasthan,25.2138,75.8648,17.9,74,0.0,983.0,6.85,19.8,88,48.9,37.6,3,5,7,0,2026-03-03T07:59:19.234004+05:30
Bikaner,Rajasthan,28.0229,73.3119,18.5,70,0.0,986.5,6.55,19.8,68,40.7,23.3,3,5,7,0,2026-03-03T07:59:19.234015+05:30
Ajmer,Rajasthan,26.4499,74.6399,18.8,53,0.0,958.3,6.8,24.1,74,74.3,33.3,0,5,7,0,2026-03-03T07:59:19.234025+05:30
Gwalior,Madhya Pradesh,26.2183,78.1828,19.3,75,0.0,987.6,6.45,27.4,121,285.9,62.9,3,5,7,0,2026-03-03T07:59:19.234035+05:30
Indore,Madhya Pradesh,22.7196,75.8577,17.4,71,0.0,951.3,7.45,15.1,89,55.3,51.0,3,5,7,0,2026-03-03T07:59:19.234046+05:30
Bhopal,Madhya Pradesh,23.2599,77.4126,19.4,59,0.0,957.3,7.3,23.0,78,50.5,37.5,0,5,7,0,2026-03-03T07:59:19.234056+05:30
Jabalpur,Madhya Pradesh,23.1815,79.9864,18.5,62,0.0,965.7,7.4,18.4,71,44.0,33.6,3,5,7,0,2026-03-03T07:59:19.234066+05:30
Ujjain,Madhya Pradesh,23.1765,75.7885,17.5,73,0.0,957.3,7.35,15.1,105,63.1,59.8,3,5,7,0,2026-03-03T07:59:19.234077+05:30
Visakhapatnam,Andhra Pradesh,17.6868,83.2185,25.8,69,0.0,1007.3,8.35,34.6,132,53.6,52.3,7,5,4,1,2026-03-03T07:59:19.234087+05:30
Vijayawada,Andhra Pradesh,16.5062,80.648,23.9,86,0.0,1006.6,8.4,24.5,141,71.5,69.4,3,5,4,1,2026-03-03T07:59:19.234098+05:30
Guntur,Andhra Pradesh,16.3067,80.4365,23.9,82,0.0,1007.8,8.4,27.4,134,62.6,60.8,3,5,4,1,2026-03-03T07:59:19.234108+05:30
Nellore,Andhra Pradesh,14.4426,79.9865,24.2,77,0.0,1009.6,8.65,29.5,118,48.4,46.3,3,0,4,1,2026-03-03T07:59:19.234120+05:30
Kurnool,Andhra Pradesh,15.8281,78.0373,25.7,60,0.0,980.0,8.45,29.2,123,55.1,53.9,4,5,7,1,2026-03-03T07:59:19.234132+05:30
Kakinada,Andhra Pradesh,16.9891,82.2475,24.8,83,0.0,1011.2,8.35,34.6,129,55.9,53.4,3,0,4,1,2026-03-03T07:59:19.234143+05:30
Tirupati,Andhra Pradesh,13.6288,79.4192,21.1,75,0.0,995.1,8.75,38.2,152,79.6,77.8,3,5,7,1,2026-03-03T07:59:19.234153+05:30
Warangal,Telangana,17.9689,79.5941,23.2,80,0.0,982.1,8.2,18.7,151,68.5,67.8,3,5,7,1,2026-03-03T07:59:19.234163+05:30
Nizamabad,Telangana,18.6725,78.0941,23.9,59,0.0,968.4,8.1,29.2,92,36.6,35.6,0,5,7,0,2026-03-03T07:59:19.234174+05:30
Mysore,Karnataka,12.2958,76.6396,20.4,96,0.0,930.5,9.15,33.8,137,62.4,61.2,3,5,7,1,2026-03-03T07:59:19.234184+05:30
Mangalore,Karnataka,12.9141,74.856,27.6,81,0.0,1009.1,8.75,29.5,59,28.8,25.7,7,0,4,1,2026-03-03T07:59:19.234195+05:30
Hubli-Dharwad,Karnataka,15.3647,75.124,20.2,94,0.0,942.6,8.6,28.4,86,36.8,34.7,3,5,7,1,2026-03-03T07:59:19.234205+05:30
Belgaum,Karnataka,15.8497,74.4977,20.4,85,0.0,927.0,8.65,33.1,80,41.3,38.9,3,5,7,1,2026-03-03T07:59:22.445197+05:30
Coimbatore,Tamil Nadu,11.0168,76.9558,23.1,78,0.0,964.7,9.15,43.2,132,59.8,59.5,3,5,7,1,2026-03-03T07:59:22.445228+05:30
Madurai,Tamil Nadu,9.9252,78.1198,22.8,90,0.0,996.7,9.1,34.9,118,65.2,64.0,3,5,7,1,2026-03-03T07:59:22.445241+05:30
Trichy,Tamil Nadu,10.7905,78.7047,21.8,95,0.0,1003.8,9.0,31.7,124,65.4,62.4,3,5,4,1,2026-03-03T07:59:22.445252+05:30
Salem,Tamil Nadu,11.6643,78.146,22.2,84,0.0,980.8,9.0,40.7,137,74.3,73.1,3,5,7,1,2026-03-03T07:59:22.445263+05:30
Tirunelveli,Tamil Nadu,8.7139,77.7567,21.7,90,0.0,1006.9,9.1,37.8,116,51.2,50.1,3,5,4,1,2026-03-03T07:59:22.445273+05:30
Vellore,Tamil Nadu,12.9165,79.1325,20.6,76,0.0,988.1,8.9,38.9,152,79.9,78.5,3,5,7,1,2026-03-03T07:59:22.445283+05:30
Erode,Tamil Nadu,11.341,77.7172,23.3,87,0.0,992.8,9.05,36.4,119,53.4,52.3,3,5,7,1,2026-03-03T07:59:22.445292+05:30
Kochi,Kerala,9.9312,76.2673,27.8,79,0.0,1011.0,8.95,33.8,105,47.7,46.9,7,0,4,1,2026-03-03T07:59:22.445302+05:30
Thiruvananthapuram,Kerala,8.5241,76.9366,26.9,86,0.0,1010.3,9.0,27.0,78,37.7,36.2,7,0,4,1,2026-03-03T07:59:22.445312+05:30
Kozhikode,Kerala,11.2588,75.7804,26.9,84,0.0,1010.3,8.85,36.0,62,26.0,23.7,7,0,4,1,2026-03-03T07:59:22.445322+05:30
Thrissur,Kerala,10.5276,76.2144,25.7,91,0.0,1009.4,8.95,38.9,102,46.4,44.5,7,0,4,1,2026-03-03T07:59:22.445332+05:30
Kannur,Kerala,11.8745,75.3704,26.7,74,0.0,1009.7,8.85,40.0,60,24.0,22.5,7,0,4,1,2026-03-03T07:59:22.445342+05:30
Patna,Bihar,25.5941,85.1376,18.5,73,0.0,1004.9,7.15,17.6,127,85.2,67.3,3,5,4,0,2026-03-03T07:59:22.445352+05:30
Gaya,Bihar,24.7914,85.0002,19.2,60,0.0,998.4,7.25,22.7,92,50.6,31.3,0,5,7,0,2026-03-03T07:59:22.445361+05:30
Muzaffarpur,Bihar,26.1209,85.3647,17.8,72,0.0,1004.9,7.1,14.0,148,106.6,93.4,3,5,4,0,2026-03-03T07:59:22.445370+05:30
Bhagalpur,Bihar,25.2425,87.0117,17.0,89,0.0,1006.1,7.15,11.5,118,83.4,58.3,3,10,4,0,2026-03-03T07:59:22.445380+05:30
Ranchi,Jharkhand,23.3441,85.3096,21.1,37,0.0,941.8,7.9,44.6,63,48.1,22.8,0,5,7,0,2026-03-03T07:59:22.445390+05:30
Jamshedpur,Jharkhand,22.8046,86.2029,18.2,76,0.0,996.0,7.75,13.7,96,69.8,51.0,3,5,7,0,2026-03-03T07:59:22.445399+05:30
Dhanbad,Jharkhand,23.7957,86.4304,19.8,53,0.0,984.5,7.65,28.8,99,67.5,54.4,0,5,7,0,2026-03-03T07:59:22.445409+05:30
Bokaro,Jharkhand,23.6693,86.1511,20.0,52,0.0,988.7,7.65,31.7,101,65.2,54.4,0,5,7,0,2026-03-03T07:59:22.445418+05:30
Bhubaneswar,Odisha,20.2961,85.8245,24.8,89,0.0,1006.9,8.1,24.5,154,77.1,74.0,3,5,4,1,2026-03-03T07:59:22.445427+05:30
Cuttack,Odisha,20.4625,85.8828,24.5,85,0.0,1009.0,8.1,24.8,154,77.1,74.0,3,0,4,1,2026-03-03T07:59:22.445437+05:30
Rourkela,Odisha,22.2604,84.8536,19.9,64,0.0,990.2,7.7,23.0,77,53.2,39.1,3,5,7,0,2026-03-03T07:59:22.445446+05:30
Raipur,Chhattisgarh,21.2514,81.6296,21.1,57,0.0,979.4,7.8,16.2,110,65.2,58.1,0,5,7,0,2026-03-03T07:59:22.445455+05:30
Bhilai,Chhattisgarh,21.1938,81.3509,21.2,57,0.0,979.7,7.8,14.8,108,57.5,50.6,0,5,7,0,2026-03-03T07:59:22.445464+05:30
Guwahati,Assam,26.1158,91.7086,21.4,83,0.0,1007.5,7.1,22.3,153,84.3,71.9,3,5,4,1,2026-03-03T07:59:22.445474+05:30
Agartala,Tripura,23.8315,91.2868,22.7,89,0.0,1011.2,7.45,19.8,175,122.9,121.1,3,0,4,1,2026-03-03T07:59:22.445483+05:30
Shillong,Meghalaya,25.5788,91.8933,12.5,52,0.0,857.8,7.45,28.1,125,73.8,57.9,0,5,7,0,2026-03-03T07:59:22.445492+05:30
Imphal,Manipur,24.817,93.9368,16.3,70,0.0,927.0,7.6,28.8,156,126.2,112.9,3,5,7,0,2026-03-03T07:59:22.445501+05:30
Aizawl,Mizoram,23.7271,92.7176,17.5,82,0.0,895.8,7.65,34.2,161,77.8,75.0,3,10,7,0,2026-03-03T07:59:22.445511+05:30
Kohima,Nagaland,25.6701,94.1077,13.7,71,0.0,857.2,6.5,45.0,148,69.2,59.3,3,5,7,0,2026-03-03T07:59:22.445520+05:30
Gangtok,Sikkim,27.3314,88.6138,11.6,83,0.0,838.2,7.4,19.1,145,62.2,47.7,3,10,7,0,2026-03-03T07:59:22.445529+05:30
Siliguri,West Bengal,26.7271,88.3953,19.2,75,0.0,999.0,7.1,18.4,166,137.4,112.0,3,5,7,0,2026-03-03T07:59:25.658779+05:30
Durgapur,West Bengal,23.5204,87.3119,22.3,42,0.0,1000.1,7.65,28.1,87,66.6,46.8,0,5,4,0,2026-03-03T07:59:25.658815+05:30
Asansol,West Bengal,23.6739,86.9524,23.2,40,0.0,998.5,7.65,23.4,81,55.1,39.1,0,5,7,0,2026-03-03T07:59:25.658848+05:30
Pondicherry,Puducherry,11.9139,79.8145,23.3,91,0.0,1012.2,8.85,27.7,111,51.6,47.6,3,0,4,1,2026-03-03T07:59:25.658860+05:30
Port Blair,Andaman and Nicobar Islands,11.6234,92.7265,26.9,76,0.0,1010.1,8.8,16.2,84,38.0,27.2,7,0,4,1,2026-03-03T07:59:25.658872+05:30
Haridwar,Uttarakhand,29.9457,78.1642,14.2,88,0.0,976.3,5.55,24.5,96,47.4,45.6,3,10,3,0,2026-03-03T07:59:25.658883+05:30
Rishikesh,Uttarakhand,30.0869,78.2676,16.1,78,0.0,968.6,5.6,23.4,75,29.9,29.3,3,5,3,0,2026-03-03T07:59:25.658893+05:30
Nainital,Uttarakhand,29.3919,79.4542,15.0,60,0.0,805.0,6.45,54.4,80,36.3,34.6,0,5,7,0,2026-03-03T07:59:25.658904+05:30
Mussoorie,Uttarakhand,30.4599,78.0664,13.6,50,0.0,801.5,5.95,40.7,78,25.7,25.2,0,5,3,0,2026-03-03T07:59:25.658914+05:30
Dharamshala,Himachal Pradesh,32.219,76.3234,18.0,24,0.0,869.7,6.2,22.7,52,10.8,7.4,0,5,7,1,2026-03-03T07:59:25.658924+05:30
Dalhousie,Himachal Pradesh,32.5387,75.971,14.2,21,0.0,803.6,6.4,20.9,93,24.9,23.1,0,5,7,1,2026-03-03T07:59:25.658936+05:30
Patiala,Punjab,30.3398,76.3869,15.4,80,0.0,981.5,5.6,35.3,161,370.7,72.4,3,5,3,0,2026-03-03T07:59:25.658947+05:30
Bhatinda,Punjab,30.211,74.9455,15.1,82,0.0,987.9,6.25,28.8,150,73.1,60.3,3,10,7,0,2026-03-03T07:59:25.658958+05:30
Rohtak,Haryana,28.8955,76.6066,14.9,83,0.0,985.7,5.8,33.5,333,506.6,95.9,3,10,3,0,2026-03-03T07:59:25.658968+05:30
Panipat,Haryana,29.3909,76.9635,15.1,81,0.0,983.8,5.6,37.1,831,1106.4,152.7,3,10,3,0,2026-03-03T07:59:25.658978+05:30
Mathura,Uttar Pradesh,27.4924,77.6737,16.9,82,0.0,991.0,6.1,28.8,457,529.0,89.4,3,10,7,0,2026-03-03T07:59:25.658988+05:30
Vrindavan,Uttar Pradesh,27.5823,77.7027,17.1,79,0.0,991.3,6.05,31.7,457,529.0,89.4,3,5,7,0,2026-03-03T07:59:25.658998+05:30
Ayodhya,Uttar Pradesh,26.7922,82.1998,17.5,77,0.0,998.9,6.45,30.6,141,156.0,62.2,3,5,7,0,2026-03-03T07:59:25.659009+05:30
Ratlam,Madhya Pradesh,23.3315,75.0367,19.8,71,0.0,958.1,7.3,10.1,92,53.3,48.9,3,5,7,0,2026-03-03T07:59:25.659021+05:30
Sagar,Madhya Pradesh,23.8388,78.7378,18.8,65,0.0,953.6,7.25,28.4,64,33.1,25.4,3,5,7,0,2026-03-03T07:59:25.659033+05:30
Satna,Madhya Pradesh,24.6005,80.8322,21.2,47,0.0,975.7,7.2,32.0,65,85.4,28.1,0,5,7,0,2026-03-03T07:59:25.659045+05:30
Akola,Maharashtra,20.7002,77.0082,21.5,68,0.0,979.3,7.8,21.2,77,34.3,30.6,3,5,7,0,2026-03-03T07:59:25.659054+05:30
Amravati,Maharashtra,20.9374,77.7796,21.1,59,0.0,971.3,7.75,17.3,75,34.6,29.2,0,5,7,0,2026-03-03T07:59:25.659064+05:30
Latur,Maharashtra,18.4088,76.5604,21.6,62,0.0,942.7,8.2,34.2,82,45.8,45.3,3,5,7,0,2026-03-03T07:59:25.659074+05:30
Nanded,Maharashtra,19.1383,77.3091,21.9,64,0.0,972.4,8.0,22.3,96,34.3,33.4,3,5,7,0,2026-03-03T07:59:25.659083+05:30
Gulbarga,Karnataka,17.3297,76.8343,24.2,65,0.0,961.7,8.3,22.3,137,48.1,47.6,3,5,7,1,2026-03-03T07:59:25.659091+05:30
Bidar,Karnataka,17.9104,77.5199,22.2,74,0.0,938.1,8.25,24.5,115,62.2,61.2,3,5,7,1,2026-03-03T07:59:25.659100+05:30
Hospet,Karnataka,15.2689,76.3909,24.0,82,0.0,958.8,8.6,27.4,106,44.7,44.1,3,5,7,1,2026-03-03T07:59:25.659109+05:30
Tirupur,Tamil Nadu,11.1085,77.3411,23.5,76,0.0,978.6,9.15,33.5,133,68.9,68.2,3,5,7,1,2026-03-03T07:59:25.659119+05:30
Alappuzha,Kerala,9.4981,76.3388,27.3,80,0.0,1011.1,8.95,30.2,95,41.4,39.5,7,0,4,1,2026-03-03T07:59:25.659128+05:30
Munnar,Kerala,10.0889,77.0595,17.9,69,0.0,857.1,9.45,22.7,108,40.4,39.9,3,5,7,0,2026-03-03T07:59:25.659137+05:30
Silchar,Assam,24.8333,92.7789,22.1,82,0.0,1010.2,7.4,20.2,159,81.5,72.4,3,0,4,1,2026-03-03T07:59:25.659146+05:30
Dibrugarh,Assam,27.4728,94.912,19.8,88,0.0,1002.2,7.1,9.0,157,52.9,45.6,3,10,4,1,2026-03-03T07:59:25.659156+05:30
