city,state,latitude,longitude,temp,humidity,rain,pressure,uv_index,wind_gusts,aqi,pm10,pm2_5,no2,co,o3,so2,mosquito_risk,arthritis_risk,migraine_risk,frizz_risk,updated_at
Delhi,Delhi,28.6139,77.209,31.2,68,0.0,975.2,7.7,28.4,164,211.9,83.1,42.5,878.0,106.0,37.4,3,5,7,1,2026-07-11T09:04:04.559451+05:30
Mumbai,Maharashtra,19.076,72.8777,28.2,81,0.0,1008.5,5.7,52.9,58,33.1,13.7,6.5,163.0,44.0,4.8,7,0,0,1,2026-07-11T09:04:04.559490+05:30
Bangalore,Karnataka,12.9716,77.5946,24.1,70,0.0,913.4,7.9,46.8,39,17.9,8.6,9.3,322.0,32.0,3.9,3,5,7,1,2026-07-11T09:04:04.559504+05:30
Hyderabad,Telangana,17.385,78.4867,27.9,62,0.0,953.1,8.7,47.2,66,24.7,11.7,5.3,233.0,40.0,4.3,7,5,7,1,2026-07-11T09:04:04.559514+05:30
Chennai,Tamil Nadu,13.0827,80.2707,31.7,60,0.0,1007.1,8.05,33.8,67,24.8,17.9,16.2,377.0,53.0,11.5,0,5,4,1,2026-07-11T09:04:04.559522+05:30
Kolkata,West Bengal,22.5726,88.3639,30.0,80,0.0,1000.4,8.4,33.8,92,49.0,38.3,10.6,503.0,87.0,15.3,7,5,4,1,2026-07-11T09:04:04.559529+05:30
Pune,Maharashtra,18.5204,73.8567,25.4,81,0.0,947.8,7.3,57.2,34,17.9,7.3,4.6,145.0,43.0,4.4,7,5,7,1,2026-07-11T09:04:04.559536+05:30
Ahmedabad,Gujarat,23.0225,72.5714,29.2,74,0.0,998.2,5.95,50.8,71,28.6,13.1,4.8,136.0,41.0,4.2,7,5,3,1,2026-07-11T09:04:04.559542+05:30
Jaipur,Rajasthan,26.9124,75.7873,28.6,68,0.0,953.7,8.15,36.0,476,618.4,103.4,3.6,148.0,60.0,4.2,7,5,7,1,2026-07-11T09:04:04.559553+05:30
Lucknow,Uttar Pradesh,26.8467,80.9462,30.6,74,0.0,985.6,7.7,52.2,135,85.9,47.7,12.0,230.0,75.0,9.8,3,5,7,1,2026-07-11T09:04:04.559566+05:30
Kanpur,Uttar Pradesh,26.4499,80.3319,31.8,63,0.0,984.3,7.1,46.8,117,93.6,38.5,8.1,171.0,76.0,8.2,3,5,7,1,2026-07-11T09:04:04.559573+05:30
Chandigarh,Chandigarh,30.7333,76.7794,27.8,84,0.0,961.2,7.7,25.2,123,40.7,31.3,12.7,464.0,101.0,12.9,7,5,7,1,2026-07-11T09:04:04.559580+05:30
Srinagar,Jammu and Kashmir,34.0837,74.7973,26.0,54,0.0,837.3,9.05,32.0,89,40.9,33.3,6.8,629.0,134.0,5.4,4,5,7,0,2026-07-11T09:04:04.559586+05:30
Jammu,Jammu and Kashmir,32.7266,74.857,28.3,79,0.0,964.8,8.55,22.7,158,55.5,46.4,11.6,392.0,126.0,4.1,7,5,7,1,2026-07-11T09:04:04.559592+05:30
Amritsar,Punjab,31.634,74.8723,27.9,84,0.0,972.4,8.45,28.4,156,114.3,49.2,7.9,446.0,109.0,3.2,7,5,7,1,2026-07-11T09:04:04.559598+05:30
Ludhiana,Punjab,30.901,75.8573,28.1,84,0.1,970.9,7.65,31.0,147,97.3,43.8,11.8,514.0,93.0,8.3,10,5,7,1,2026-07-11T09:04:04.559605+05:30
Jalandhar,Punjab,31.326,75.5762,26.7,94,0.6,971.7,8.15,23.8,156,95.7,40.4,7.6,498.0,105.0,3.0,10,5,7,1,2026-07-11T09:04:04.559611+05:30
Dehradun,Uttarakhand,30.6284,78.0322,21.6,81,0.0,826.5,7.35,24.8,35,8.9,8.5,6.6,234.0,83.0,1.0,3,5,7,1,2026-07-11T09:04:04.559617+05:30
Shimla,Himachal Pradesh,31.1048,77.1734,18.8,77,0.0,781.3,8.2,33.8,56,26.1,22.6,5.6,282.0,128.0,12.1,3,5,7,0,2026-07-11T09:04:04.559623+05:30
Manali,Himachal Pradesh,32.2396,77.1887,21.3,91,0.0,815.3,7.35,28.1,57,17.3,16.6,24.6,266.0,45.0,0.6,3,5,7,1,2026-07-11T09:04:04.559631+05:30
Gurgaon,Haryana,28.4595,77.0266,31.5,62,0.0,973.7,7.7,30.6,193,315.7,110.6,37.8,422.0,82.0,28.0,3,5,7,1,2026-07-11T09:04:04.559637+05:30
Noida,Uttar Pradesh,28.5355,77.391,31.8,67,0.0,976.7,7.7,28.1,193,315.7,110.6,37.8,624.0,82.0,28.0,3,5,7,1,2026-07-11T09:04:04.559643+05:30
Ghaziabad,Uttar Pradesh,28.6692,77.4538,31.1,74,0.0,975.0,7.7,30.6,125,138.3,54.8,19.8,383.0,118.0,22.4,3,5,7,1,2026-07-11T09:04:04.559651+05:30
Faridabad,Haryana,28.4089,77.3178,31.5,66,0.0,976.0,7.75,29.2,193,315.7,110.6,37.8,605.0,82.0,28.0,3,5,7,1,2026-07-11T09:04:04.559657+05:30
Meerut,Uttar Pradesh,28.9845,77.7064,29.7,76,0.0,974.0,7.6,31.3,125,138.3,54.8,19.8,433.0,118.0,22.4,7,5,7,1,2026-07-11T09:04:04.559663+05:30
Agra,Uttar Pradesh,27.1767,78.0081,31.4,63,0.0,980.7,7.95,35.6,160,344.6,72.4,7.2,194.0,73.0,6.1,3,5,7,1,2026-07-11T09:04:04.559670+05:30
Varanasi,Uttar Pradesh,25.3176,82.9739,29.2,79,0.0,990.8,8.0,47.5,105,69.2,42.0,9.6,311.0,69.0,9.0,7,5,7,1,2026-07-11T09:04:04.559676+05:30
Prayagraj,Uttar Pradesh,25.4358,81.8463,31.9,64,0.0,989.2,8.1,45.7,109,59.1,37.4,7.0,203.0,77.0,8.1,3,5,7,1,2026-07-11T09:04:04.559683+05:30
Gorakhpur,Uttar Pradesh,26.7606,83.3732,29.0,84,0.0,990.1,7.5,35.6,86,97.1,48.0,8.1,235.0,89.0,8.0,7,5,7,1,2026-07-11T09:04:04.559689+05:30
Bareilly,Uttar Pradesh,28.367,79.4304,28.7,84,0.0,979.1,6.8,29.2,99,39.2,31.0,9.6,347.0,110.0,13.0,7,5,7,1,2026-07-11T09:04:04.559697+05:30
Aligarh,Uttar Pradesh,27.8974,78.088,31.2,67,0.0,978.1,7.25,33.5,160,229.1,82.4,16.8,361.0,94.0,13.2,3,5,7,1,2026-07-11T09:04:04.559703+05:30
Moradabad,Uttar Pradesh,28.8386,78.7733,29.6,79,0.0,976.3,7.8,32.4,97,42.8,34.5,13.3,328.0,117.0,26.9,7,5,7,1,2026-07-11T09:04:04.559709+05:30
Saharanpur,Uttar Pradesh,29.9637,77.546,28.5,81,0.0,968.3,7.35,52.2,79,27.5,25.4,11.4,364.0,105.0,7.1,7,5,7,1,2026-07-11T09:04:04.559715+05:30
Jhansi,Uttar Pradesh,25.4484,78.5685,30.7,65,0.0,972.4,8.4,43.9,98,49.8,30.9,5.6,149.0,74.0,11.0,3,5,7,1,2026-07-11T09:04:07.787073+05:30
Surat,Gujarat,21.1702,72.8311,29.3,79,0.0,1004.6,5.1,65.9,64,31.0,16.1,11.6,259.0,34.0,27.2,7,5,0,1,2026-07-11T09:04:07.787107+05:30
Vadodara,Gujarat,22.3072,73.1812,29.0,77,0.0,1001.2,7.95,55.1,65,27.7,13.1,5.2,151.0,38.0,3.7,7,5,4,1,2026-07-11T09:04:07.787120+05:30
Rajkot,Gujarat,22.3039,70.8022,29.5,71,0.0,990.7,7.3,59.8,62,28.9,12.3,2.7,102.0,45.0,3.2,7,5,7,1,2026-07-11T09:04:07.787131+05:30
Thane,Maharashtra,19.2183,72.9781,28.6,81,0.1,1007.7,5.8,46.4,58,33.1,13.7,6.5,200.0,44.0,4.8,10,5,0,1,2026-07-11T09:04:07.787140+05:30
Nagpur,Maharashtra,21.1458,79.0882,28.7,68,0.0,971.2,7.5,52.2,91,43.8,18.6,7.5,159.0,46.0,15.5,7,5,7,1,2026-07-11T09:04:07.787151+05:30
Nashik,Maharashtra,19.9975,73.7898,25.8,76,0.0,944.3,7.9,63.7,40,17.1,7.6,4.3,122.0,39.0,2.6,7,5,7,1,2026-07-11T09:04:07.787160+05:30
Aurangabad,Maharashtra,19.8762,75.3433,25.8,75,0.1,942.9,8.9,60.1,51,20.0,8.1,4.1,116.0,43.0,6.3,10,5,7,1,2026-07-11T09:04:07.787169+05:30
Solapur,Maharashtra,17.6599,75.9064,27.3,69,0.0,957.4,8.1,50.0,48,14.9,6.2,2.6,112.0,45.0,2.1,7,5,7,1,2026-07-11T09:04:07.787177+05:30
Kolhapur,Maharashtra,16.705,74.2433,25.0,80,0.0,948.8,7.65,53.6,35,22.1,8.8,3.5,136.0,42.0,2.2,7,5,7,1,2026-07-11T09:04:07.787184+05:30
Goa,Goa,15.2993,74.124,27.0,91,0.0,1000.1,7.6,36.4,57,33.8,13.4,1.9,187.0,44.0,1.5,7,5,4,1,2026-07-11T09:04:07.787192+05:30
Jodhpur,Rajasthan,26.2389,73.0243,29.0,64,0.0,976.5,8.45,57.2,208,222.6,63.1,2.2,107.0,53.0,2.9,7,5,7,1,2026-07-11T09:04:07.787199+05:30
Udaipur,Rajasthan,24.5854,73.7125,26.2,73,0.0,941.5,8.8,56.9,77,35.4,15.8,2.6,105.0,46.0,3.6,7,5,7,1,2026-07-11T09:04:07.787206+05:30
Kota,Rajasthan,25.2138,75.8648,29.5,63,0.0,973.8,8.3,41.4,92,58.6,26.4,3.8,127.0,59.0,6.4,7,5,7,1,2026-07-11T09:04:07.787213+05:30
Bikaner,Rajasthan,28.0229,73.3119,29.6,65,0.0,973.7,8.45,41.0,158,265.4,86.8,1.5,108.0,57.0,4.8,7,5,7,1,2026-07-11T09:04:07.787221+05:30
Ajmer,Rajasthan,26.4499,74.6399,27.0,70,0.0,948.7,8.4,52.2,88,76.6,30.7,2.5,114.0,57.0,3.4,7,5,7,1,2026-07-11T09:04:07.787228+05:30
Gwalior,Madhya Pradesh,26.2183,78.1828,30.2,63,0.0,976.9,8.15,42.1,95,41.4,27.9,4.1,147.0,73.0,5.1,3,5,7,1,2026-07-11T09:04:07.787234+05:30
Indore,Madhya Pradesh,22.7196,75.8577,26.3,74,0.0,944.9,7.9,57.6,74,39.0,16.9,5.0,184.0,43.0,6.1,7,5,7,1,2026-07-11T09:04:07.787241+05:30
Bhopal,Madhya Pradesh,23.2599,77.4126,27.2,73,0.0,950.3,8.6,47.2,82,29.7,14.6,4.2,189.0,47.0,6.9,7,5,7,1,2026-07-11T09:04:07.787248+05:30
Jabalpur,Madhya Pradesh,23.1815,79.9864,27.3,77,0.0,957.9,7.65,38.9,90,45.4,27.7,4.7,184.0,66.0,6.9,7,5,7,1,2026-07-11T09:04:07.787255+05:30
Ujjain,Madhya Pradesh,23.1765,75.7885,26.5,77,0.0,950.2,8.45,56.9,74,35.6,15.7,3.6,151.0,43.0,4.7,7,5,7,1,2026-07-11T09:04:07.787262+05:30
Visakhapatnam,Andhra Pradesh,17.6868,83.2185,31.2,69,0.0,1001.0,7.9,38.5,89,47.3,33.6,18.5,379.0,74.0,40.3,3,5,4,1,2026-07-11T09:04:07.787269+05:30
Vijayawada,Andhra Pradesh,16.5062,80.648,32.6,56,0.0,1001.3,5.5,42.5,92,41.7,26.4,8.5,152.0,62.0,9.7,0,5,0,1,2026-07-11T09:04:07.787277+05:30
Guntur,Andhra Pradesh,16.3067,80.4365,32.9,53,0.0,1002.6,6.5,45.4,89,28.5,18.6,7.2,155.0,52.0,8.4,0,5,4,1,2026-07-11T09:04:07.787283+05:30
Nellore,Andhra Pradesh,14.4426,79.9865,31.6,58,0.0,1005.5,8.2,41.4,64,26.2,11.8,4.5,119.0,44.0,6.1,0,5,4,1,2026-07-11T09:04:07.787291+05:30
Kurnool,Andhra Pradesh,15.8281,78.0373,29.6,60,0.0,977.4,7.85,48.6,61,20.9,9.5,4.7,119.0,38.0,4.6,4,5,7,1,2026-07-11T09:04:07.787298+05:30
Kakinada,Andhra Pradesh,16.9891,82.2475,32.0,66,0.0,1005.2,4.55,41.0,78,32.8,22.4,4.7,242.0,104.0,6.3,3,5,0,1,2026-07-11T09:04:07.787306+05:30
Tirupati,Andhra Pradesh,13.6288,79.4192,31.7,52,0.0,991.3,8.8,36.4,60,29.5,11.8,3.0,120.0,52.0,1.6,0,5,7,1,2026-07-11T09:04:07.787312+05:30
Warangal,Telangana,17.9689,79.5941,29.4,64,0.0,978.1,8.35,37.4,81,25.3,13.8,4.1,148.0,51.0,3.5,7,5,7,1,2026-07-11T09:04:07.787319+05:30
Nizamabad,Telangana,18.6725,78.0941,27.5,69,0.0,964.5,8.7,46.1,72,23.2,10.7,4.5,144.0,41.0,6.4,7,5,7,1,2026-07-11T09:04:07.787325+05:30
Mysore,Karnataka,12.2958,76.6396,25.4,72,0.0,930.7,6.6,47.2,29,8.6,4.5,5.3,135.0,39.0,2.5,7,5,7,1,2026-07-11T09:04:07.787332+05:30
Mangalore,Karnataka,12.9141,74.856,26.9,87,0.0,1009.6,8.35,46.1,52,30.9,13.5,4.0,162.0,40.0,2.4,7,0,4,1,2026-07-11T09:04:07.787339+05:30
Hubli-Dharwad,Karnataka,15.3647,75.124,25.6,75,0.0,942.1,8.15,53.3,32,18.6,7.4,3.3,116.0,41.0,1.5,7,5,7,1,2026-07-11T09:04:07.787345+05:30
Belgaum,Karnataka,15.8497,74.4977,24.6,77,0.0,926.9,8.7,52.9,29,21.5,8.3,3.2,108.0,41.0,1.5,3,5,7,1,2026-07-11T09:04:11.014765+05:30
Coimbatore,Tamil Nadu,11.0168,76.9558,26.8,76,0.0,963.8,8.2,48.6,30,15.0,7.3,3.8,190.0,47.0,3.1,7,5,7,1,2026-07-11T09:04:11.014797+05:30
Madurai,Tamil Nadu,9.9252,78.1198,31.0,55,0.0,994.7,8.1,26.6,55,23.1,13.4,9.7,157.0,57.0,5.9,0,5,7,1,2026-07-11T09:04:11.014808+05:30
Trichy,Tamil Nadu,10.7905,78.7047,31.5,57,0.0,1001.4,7.6,49.0,42,22.8,10.5,3.8,118.0,46.0,3.2,0,5,4,1,2026-07-11T09:04:11.014817+05:30
Salem,Tamil Nadu,11.6643,78.146,27.5,76,0.0,979.6,8.25,32.8,57,24.2,14.8,11.0,238.0,49.0,13.0,7,5,7,1,2026-07-11T09:04:11.014825+05:30
Tirunelveli,Tamil Nadu,8.7139,77.7567,32.5,53,0.0,1005.1,8.4,48.2,28,6.4,4.3,3.7,137.0,47.0,2.3,0,5,4,1,2026-07-11T09:04:11.014833+05:30
Vellore,Tamil Nadu,12.9165,79.1325,31.0,53,0.0,985.1,8.15,41.4,52,24.9,11.6,4.9,145.0,52.0,3.9,0,5,7,1,2026-07-11T09:04:11.014841+05:30
Erode,Tamil Nadu,11.341,77.7172,30.0,61,0.0,991.4,8.15,38.2,45,15.8,10.0,7.6,188.0,46.0,4.4,7,5,7,1,2026-07-11T09:04:11.014849+05:30
Kochi,Kerala,9.9312,76.2673,26.4,88,0.1,1012.3,7.8,38.2,51,15.0,8.5,6.8,140.0,41.0,3.5,10,0,4,1,2026-07-11T09:04:11.014857+05:30
Thiruvananthapuram,Kerala,8.5241,76.9366,27.0,83,0.1,1011.4,8.05,49.3,38,11.7,6.5,3.4,139.0,51.0,1.4,10,0,4,1,2026-07-11T09:04:11.014864+05:30
Kozhikode,Kerala,11.2588,75.7804,26.1,93,0.1,1011.2,7.55,40.3,38,21.5,8.5,1.1,154.0,49.0,1.0,10,0,4,1,2026-07-11T09:04:11.014871+05:30
Thrissur,Kerala,10.5276,76.2144,26.3,92,0.1,1010.6,7.8,39.6,53,14.4,9.1,5.2,163.0,42.0,2.6,10,0,4,1,2026-07-11T09:04:11.014878+05:30
Kannur,Kerala,11.8745,75.3704,26.1,93,0.0,1010.3,7.75,45.0,48,24.1,11.6,5.1,160.0,39.0,1.8,7,0,4,1,2026-07-11T09:04:11.014886+05:30
Patna,Bihar,25.5941,85.1376,26.6,96,0.9,993.8,5.55,34.6,90,50.9,34.1,11.6,293.0,71.0,7.3,10,5,3,1,2026-07-11T09:04:11.014893+05:30
Gaya,Bihar,24.7914,85.0002,28.8,84,0.1,987.6,7.45,45.4,92,61.0,36.6,9.6,213.0,74.0,15.7,10,5,7,1,2026-07-11T09:04:11.014900+05:30
Muzaffarpur,Bihar,26.1209,85.3647,29.1,82,0.0,993.3,5.3,35.3,97,53.3,34.2,11.3,291.0,80.0,8.1,7,5,3,1,2026-07-11T09:04:11.014907+05:30
Bhagalpur,Bihar,25.2425,87.0117,29.8,83,0.0,994.3,5.75,34.6,77,39.1,29.9,10.5,243.0,80.0,7.6,7,5,3,1,2026-07-11T09:04:11.014913+05:30
Ranchi,Jharkhand,23.3441,85.3096,26.1,82,0.0,933.0,6.5,39.6,87,61.0,30.9,4.2,194.0,84.0,7.0,7,5,7,1,2026-07-11T09:04:11.014920+05:30
Jamshedpur,Jharkhand,22.8046,86.2029,28.3,84,0.0,985.8,8.3,34.2,93,79.2,46.6,12.4,302.0,81.0,34.1,7,5,7,1,2026-07-11T09:04:11.014949+05:30
Dhanbad,Jharkhand,23.7957,86.4304,29.0,77,0.0,974.1,5.35,36.4,125,72.9,50.6,26.6,236.0,64.0,65.6,7,5,3,1,2026-07-11T09:04:11.014957+05:30
Bokaro,Jharkhand,23.6693,86.1511,29.0,73,0.0,978.1,4.0,38.5,116,69.8,42.6,18.8,225.0,73.0,55.9,7,5,3,1,2026-07-11T09:04:11.014965+05:30
Bhubaneswar,Odisha,20.2961,85.8245,31.2,73,0.0,998.7,7.7,36.4,77,39.5,26.4,8.4,279.0,74.0,7.3,3,5,7,1,2026-07-11T09:04:11.014972+05:30
Cuttack,Odisha,20.4625,85.8828,31.2,73,0.0,1000.5,8.15,36.0,77,39.5,26.4,8.4,253.0,74.0,7.3,3,5,4,1,2026-07-11T09:04:11.014979+05:30
Rourkela,Odisha,22.2604,84.8536,28.2,86,0.0,980.6,2.95,33.5,124,80.6,45.4,10.0,383.0,78.0,19.1,7,5,3,1,2026-07-11T09:04:11.014986+05:30
Raipur,Chhattisgarh,21.2514,81.6296,29.2,68,0.0,971.8,8.15,40.3,119,67.8,43.3,20.3,414.0,56.0,51.2,7,5,7,1,2026-07-11T09:04:11.014993+05:30
Bhilai,Chhattisgarh,21.1938,81.3509,29.3,65,0.0,972.3,7.85,42.8,113,64.7,39.5,15.4,590.0,63.0,39.3,7,5,7,1,2026-07-11T09:04:11.014999+05:30
Guwahati,Assam,26.1158,91.7086,27.4,93,0.4,994.5,7.9,25.2,43,8.8,8.8,5.0,317.0,83.0,2.4,10,5,7,1,2026-07-11T09:04:11.015007+05:30
Agartala,Tripura,23.8315,91.2868,26.7,96,0.0,1000.0,7.9,36.4,58,13.8,12.6,7.0,266.0,83.0,4.2,7,5,4,1,2026-07-11T09:04:11.015014+05:30
Shillong,Meghalaya,25.5788,91.8933,21.8,92,0.0,852.9,3.95,24.5,27,3.7,3.6,4.7,219.0,82.0,5.2,3,5,3,1,2026-07-11T09:04:11.015021+05:30
Imphal,Manipur,24.817,93.9368,25.9,82,0.1,918.6,7.75,29.5,34,3.1,3.0,1.9,280.0,89.0,2.5,10,5,7,1,2026-07-11T09:04:11.015028+05:30
Aizawl,Mizoram,23.7271,92.7176,22.3,89,0.1,888.3,8.3,43.6,27,1.5,1.2,1.3,144.0,86.0,2.0,6,5,7,1,2026-07-11T09:04:11.015034+05:30
Kohima,Nagaland,25.6701,94.1077,24.8,84,0.0,852.2,4.8,26.6,25,2.1,2.0,1.2,176.0,91.0,2.0,3,5,3,1,2026-07-11T09:04:11.015041+05:30
Gangtok,Sikkim,27.3314,88.6138,20.4,96,0.1,833.8,6.7,28.4,45,11.9,11.6,4.4,292.0,90.0,1.8,6,5,7,1,2026-07-11T09:04:11.015048+05:30
Siliguri,West Bengal,26.7271,88.3953,27.4,93,0.0,985.9,6.55,19.4,95,31.9,31.0,6.6,442.0,95.0,4.6,7,5,7,1,2026-07-11T09:04:14.250176+05:30
Durgapur,West Bengal,23.5204,87.3119,28.4,91,0.0,989.1,1.1,39.6,122,77.8,60.5,39.5,373.0,39.0,72.5,7,5,3,1,2026-07-11T09:04:14.250211+05:30
Asansol,West Bengal,23.6739,86.9524,30.4,73,0.0,987.7,2.95,38.9,111,72.2,53.4,32.3,1282.0,52.0,63.4,3,5,3,1,2026-07-11T09:04:14.250224+05:30
Pondicherry,Puducherry,11.9139,79.8145,31.4,61,0.0,1009.2,8.0,41.4,65,24.1,17.6,12.7,220.0,51.0,9.3,3,0,4,1,2026-07-11T09:04:14.250235+05:30
Port Blair,Andaman and Nicobar Islands,11.6234,92.7265,29.3,78,0.1,1007.7,8.8,57.6,38,13.7,7.2,0.3,87.0,43.0,0.4,10,5,4,1,2026-07-11T09:04:14.250245+05:30
Haridwar,Uttarakhand,29.9457,78.1642,28.1,85,0.0,966.8,6.8,28.4,64,13.1,12.2,4.9,307.0,119.0,4.9,7,5,7,1,2026-07-11T09:04:14.250254+05:30
Rishikesh,Uttarakhand,30.0869,78.2676,27.1,86,0.0,959.5,6.05,23.4,42,5.2,4.7,3.2,280.0,109.0,3.1,7,5,7,1,2026-07-11T09:04:14.250262+05:30
Nainital,Uttarakhand,29.3919,79.4542,18.3,99,0.0,801.3,1.05,23.4,37,11.3,8.4,4.8,253.0,106.0,2.6,3,10,3,1,2026-07-11T09:04:14.250272+05:30
Mussoorie,Uttarakhand,30.4599,78.0664,19.7,82,0.0,799.4,6.4,29.5,52,9.5,8.7,4.7,251.0,116.0,3.6,3,10,7,1,2026-07-11T09:04:14.250281+05:30
Dharamshala,Himachal Pradesh,32.219,76.3234,23.7,76,0.0,864.1,8.45,34.9,51,6.9,6.0,2.9,299.0,110.0,1.0,3,5,7,1,2026-07-11T09:04:14.250290+05:30
Dalhousie,Himachal Pradesh,32.5387,75.971,21.2,77,0.0,801.4,8.7,25.9,102,26.1,21.1,8.2,415.0,125.0,2.1,3,5,7,1,2026-07-11T09:04:14.250299+05:30
Patiala,Punjab,30.3398,76.3869,27.0,90,0.0,970.2,7.55,30.6,120,89.4,42.4,15.8,407.0,70.0,10.9,7,5,7,1,2026-07-11T09:04:14.250308+05:30
Bhatinda,Punjab,30.211,74.9455,32.3,66,0.0,974.9,8.3,24.8,165,129.5,57.2,11.0,234.0,84.0,4.6,3,5,7,1,2026-07-11T09:04:14.250317+05:30
Rohtak,Haryana,28.8955,76.6066,31.7,64,0.0,974.0,7.6,28.4,417,327.8,101.0,22.2,588.0,98.0,14.5,3,5,7,1,2026-07-11T09:04:14.250326+05:30
Panipat,Haryana,29.3909,76.9635,30.1,78,0.0,972.6,7.45,23.0,499,204.0,67.5,18.0,319.0,93.0,20.4,3,5,7,1,2026-07-11T09:04:14.250335+05:30
Mathura,Uttar Pradesh,27.4924,77.6737,31.4,64,0.0,979.6,7.9,30.6,203,284.1,69.8,10.7,212.0,57.0,4.8,3,5,7,1,2026-07-11T09:04:14.250342+05:30
Vrindavan,Uttar Pradesh,27.5823,77.7027,31.6,63,0.0,979.9,7.85,30.6,203,284.1,69.8,10.7,208.0,57.0,4.8,3,5,7,1,2026-07-11T09:04:14.250349+05:30
Ayodhya,Uttar Pradesh,26.7922,82.1998,28.9,85,0.1,987.9,7.7,35.6,114,125.3,51.0,6.2,230.0,96.0,6.0,10,5,7,1,2026-07-11T09:04:14.250356+05:30
Ratlam,Madhya Pradesh,23.3315,75.0367,26.5,77,0.0,951.0,8.4,55.4,72,34.5,15.3,3.5,115.0,43.0,4.7,7,5,7,1,2026-07-11T09:04:14.250363+05:30
Sagar,Madhya Pradesh,23.8388,78.7378,27.6,74,0.1,946.2,8.65,47.9,90,38.9,22.9,4.0,148.0,58.0,8.1,10,5,7,1,2026-07-11T09:04:14.250369+05:30
Satna,Madhya Pradesh,24.6005,80.8322,30.3,63,0.0,966.1,8.7,45.4,101,61.0,34.8,3.2,162.0,87.0,5.4,3,5,7,1,2026-07-11T09:04:14.250376+05:30
Akola,Maharashtra,20.7002,77.0082,28.5,67,0.0,973.7,8.75,51.8,68,33.1,13.8,5.4,116.0,38.0,7.8,7,5,7,1,2026-07-11T09:04:14.250384+05:30
Amravati,Maharashtra,20.9374,77.7796,27.8,70,0.0,965.9,8.5,52.2,70,35.6,14.1,5.6,125.0,38.0,8.9,7,5,7,1,2026-07-11T09:04:14.250391+05:30
Latur,Maharashtra,18.4088,76.5604,26.2,70,0.0,939.5,8.4,45.4,52,17.9,7.3,2.7,113.0,42.0,2.8,7,5,7,1,2026-07-11T09:04:14.250398+05:30
Nanded,Maharashtra,19.1383,77.3091,27.8,69,0.0,968.2,8.8,46.1,62,24.6,11.1,4.3,131.0,43.0,4.9,7,5,7,1,2026-07-11T09:04:14.250404+05:30
Gulbarga,Karnataka,17.3297,76.8343,26.8,70,0.0,958.9,7.7,50.8,54,14.3,6.6,4.0,123.0,40.0,2.9,7,5,7,1,2026-07-11T09:04:14.250411+05:30
Bidar,Karnataka,17.9104,77.5199,26.4,69,0.0,935.4,5.0,46.4,61,16.2,8.0,4.1,132.0,40.0,2.3,7,5,3,1,2026-07-11T09:04:14.250417+05:30
Hospet,Karnataka,15.2689,76.3909,27.0,67,0.0,957.0,7.65,51.8,40,20.0,7.8,3.3,112.0,40.0,2.1,7,5,7,1,2026-07-11T09:04:14.250424+05:30
Tirupur,Tamil Nadu,11.1085,77.3411,28.5,67,0.0,977.6,8.15,54.0,49,19.7,11.8,8.1,157.0,47.0,5.1,7,5,7,1,2026-07-11T09:04:14.250430+05:30
Alappuzha,Kerala,9.4981,76.3388,25.9,92,0.1,1012.5,7.9,39.6,46,16.5,9.3,5.9,88.0,49.0,3.0,10,0,4,1,2026-07-11T09:04:14.250437+05:30
Munnar,Kerala,10.0889,77.0595,17.8,98,0.0,858.9,8.2,38.2,20,7.0,4.1,4.4,96.0,42.0,1.6,3,10,7,1,2026-07-11T09:04:14.250444+05:30
Silchar,Assam,24.8333,92.7789,28.9,84,0.0,998.9,7.05,30.2,33,6.4,5.5,2.4,236.0,86.0,4.9,7,5,7,1,2026-07-11T09:04:14.250451+05:30
Dibrugarh,Assam,27.4728,94.912,30.3,78,0.0,988.6,4.0,30.2,53,9.7,8.7,2.0,174.0,89.0,1.5,3,5,3,1,2026-07-11T09:04:14.250457+05:30
