city,state,latitude,longitude,temp,humidity,rain,pressure,uv_index,wind_gusts,aqi,pm10,pm2_5,mosquito_risk,arthritis_risk,migraine_risk,frizz_risk,updated_at
Delhi,Delhi,28.6139,77.209,24.8,51,0.0,985.5,5.9,18.7,169,273.8,113.6,0,5,3,0,2026-03-06T23:07:46.356761+05:30
Mumbai,Maharashtra,19.076,72.8777,27.2,74,0.0,1009.5,7.4,25.6,155,32.7,29.9,7,0,4,1,2026-03-06T23:07:46.356801+05:30
Bangalore,Karnataka,12.9716,77.5946,23.2,48,0.0,912.0,9.15,24.5,110,51.5,49.5,0,5,7,0,2026-03-06T23:07:46.356816+05:30
Hyderabad,Telangana,17.385,78.4867,25.4,46,0.0,954.2,8.45,24.1,101,52.7,44.4,4,5,7,0,2026-03-06T23:07:46.356825+05:30
Chennai,Tamil Nadu,13.0827,80.2707,26.0,89,0.0,1008.2,8.9,33.8,75,29.3,23.9,7,0,4,1,2026-03-06T23:07:46.356833+05:30
Kolkata,West Bengal,22.5726,88.3639,23.5,92,0.0,1009.6,7.8,13.0,156,52.5,43.0,3,0,4,1,2026-03-06T23:07:46.356841+05:30
Pune,Maharashtra,18.5204,73.8567,24.0,59,0.0,949.4,8.0,27.7,95,37.7,36.0,0,5,7,0,2026-03-06T23:07:46.356850+05:30
Ahmedabad,Gujarat,23.0225,72.5714,24.7,51,0.0,1003.9,7.25,20.5,78,65.0,61.9,0,5,4,0,2026-03-06T23:07:46.356856+05:30
Jaipur,Rajasthan,26.9124,75.7873,26.8,25,0.0,961.8,6.7,24.5,89,120.1,44.4,4,5,7,0,2026-03-06T23:07:46.356862+05:30
Lucknow,Uttar Pradesh,26.8467,80.9462,23.4,72,0.0,996.9,6.4,22.3,167,93.6,74.5,3,5,7,1,2026-03-06T23:07:46.356868+05:30
Kanpur,Uttar Pradesh,26.4499,80.3319,23.4,76,0.0,994.8,6.4,13.3,168,146.7,82.0,3,5,7,1,2026-03-06T23:07:46.356873+05:30
Chandigarh,Chandigarh,30.7333,76.7794,22.3,73,0.0,971.2,5.8,15.8,132,102.4,84.3,3,5,3,1,2026-03-06T23:07:46.356879+05:30
Srinagar,Jammu and Kashmir,34.0837,74.7973,10.5,70,0.0,841.0,6.75,16.6,137,98.7,80.3,3,5,7,0,2026-03-06T23:07:46.356885+05:30
Jammu,Jammu and Kashmir,32.7266,74.857,21.3,79,0.0,974.3,6.45,18.7,131,74.7,65.7,3,5,7,1,2026-03-06T23:07:46.356891+05:30
Amritsar,Punjab,31.634,74.8723,22.5,69,0.0,982.4,6.2,12.2,159,66.4,65.2,3,5,7,1,2026-03-06T23:07:46.356896+05:30
Ludhiana,Punjab,30.901,75.8573,23.2,71,0.0,980.9,6.05,15.1,163,175.6,106.6,3,5,7,1,2026-03-06T23:07:46.356901+05:30
Jalandhar,Punjab,31.326,75.5762,23.0,76,0.0,981.9,6.2,13.7,163,98.5,82.0,3,5,7,1,2026-03-06T23:07:46.356908+05:30
Dehradun,Uttarakhand,30.6284,78.0322,14.1,95,0.0,831.9,6.15,28.1,154,87.5,63.3,3,10,7,0,2026-03-06T23:07:46.356914+05:30
Shimla,Himachal Pradesh,31.1048,77.1734,13.9,75,0.0,786.5,6.25,34.9,113,68.0,53.3,3,5,7,0,2026-03-06T23:07:46.356920+05:30
Manali,Himachal Pradesh,32.2396,77.1887,18.4,20,0.0,823.7,7.9,39.2,113,23.2,15.4,0,5,7,1,2026-03-06T23:07:46.356925+05:30
Gurgaon,Haryana,28.4595,77.0266,23.0,51,0.0,983.7,6.0,16.9,447,266.4,111.1,0,5,3,0,2026-03-06T23:07:46.356931+05:30
Noida,Uttar Pradesh,28.5355,77.391,24.4,57,0.0,987.1,5.9,17.3,447,266.4,111.1,0,5,3,0,2026-03-06T23:07:46.356936+05:30
Ghaziabad,Uttar Pradesh,28.6692,77.4538,23.4,75,0.0,985.2,5.85,14.4,169,244.9,133.2,3,5,3,1,2026-03-06T23:07:46.356942+05:30
Faridabad,Haryana,28.4089,77.3178,22.8,54,0.0,986.2,5.95,16.6,447,266.4,111.1,0,5,3,0,2026-03-06T23:07:46.356949+05:30
Meerut,Uttar Pradesh,28.9845,77.7064,22.2,78,0.0,984.1,5.75,14.0,169,244.9,133.2,3,5,3,1,2026-03-06T23:07:46.356954+05:30
Agra,Uttar Pradesh,27.1767,78.0081,23.2,55,0.0,990.1,6.25,18.7,275,262.6,103.6,0,5,7,0,2026-03-06T23:07:46.356960+05:30
Varanasi,Uttar Pradesh,25.3176,82.9739,23.1,75,0.0,1000.6,7.1,17.6,166,159.7,131.8,3,5,4,1,2026-03-06T23:07:46.356967+05:30
Prayagraj,Uttar Pradesh,25.4358,81.8463,23.8,69,0.0,999.2,6.95,16.2,168,121.1,88.5,3,5,7,1,2026-03-06T23:07:46.356972+05:30
Gorakhpur,Uttar Pradesh,26.7606,83.3732,22.4,75,0.0,1000.7,6.75,17.3,168,96.4,85.0,3,5,4,1,2026-03-06T23:07:46.356977+05:30
Bareilly,Uttar Pradesh,28.367,79.4304,22.5,81,0.0,990.0,6.1,14.4,167,100.4,82.7,3,5,7,1,2026-03-06T23:07:46.356983+05:30
Aligarh,Uttar Pradesh,27.8974,78.088,21.6,77,0.0,988.0,6.0,16.6,256,204.0,116.4,3,5,3,1,2026-03-06T23:07:46.356990+05:30
Moradabad,Uttar Pradesh,28.8386,78.7733,22.1,84,0.0,986.8,5.9,18.4,169,110.6,92.0,3,5,3,1,2026-03-06T23:07:46.356995+05:30
Saharanpur,Uttar Pradesh,29.9637,77.546,22.4,79,0.0,978.4,5.55,19.8,164,117.6,96.4,3,5,3,1,2026-03-06T23:07:46.357000+05:30
Jhansi,Uttar Pradesh,25.4484,78.5685,23.0,48,0.0,980.0,6.85,24.1,75,75.0,32.5,0,5,7,0,2026-03-06T23:07:49.667634+05:30
Surat,Gujarat,21.1702,72.8311,24.5,79,0.0,1008.3,7.15,24.1,137,77.3,75.9,3,0,4,1,2026-03-06T23:07:49.667665+05:30
Vadodara,Gujarat,22.3072,73.1812,26.1,67,0.0,1005.8,7.25,20.2,110,65.9,64.5,7,5,4,1,2026-03-06T23:07:49.667676+05:30
Rajkot,Gujarat,22.3039,70.8022,22.7,61,0.0,996.4,7.1,24.1,68,36.4,19.3,3,5,7,0,2026-03-06T23:07:49.667686+05:30
Thane,Maharashtra,19.2183,72.9781,25.3,73,0.0,1009.0,7.4,37.8,155,32.7,29.9,7,0,4,1,2026-03-06T23:07:49.667695+05:30
Nagpur,Maharashtra,21.1458,79.0882,26.5,34,0.0,974.1,7.8,25.9,60,31.3,22.4,4,5,7,0,2026-03-06T23:07:49.667705+05:30
Nashik,Maharashtra,19.9975,73.7898,23.9,51,0.0,946.9,7.6,33.5,110,34.0,33.2,0,5,7,0,2026-03-06T23:07:49.667713+05:30
Aurangabad,Maharashtra,19.8762,75.3433,24.9,40,0.0,945.0,8.1,23.4,90,38.1,35.4,0,5,7,0,2026-03-06T23:07:49.667722+05:30
Solapur,Maharashtra,17.6599,75.9064,25.3,49,0.0,957.4,8.4,18.0,110,24.9,22.1,4,5,7,0,2026-03-06T23:07:49.667732+05:30
Kolhapur,Maharashtra,16.705,74.2433,20.6,53,0.0,948.5,8.5,31.7,144,64.7,63.3,0,5,7,0,2026-03-06T23:07:49.667740+05:30
Goa,Goa,15.2993,74.124,26.5,87,0.0,998.9,8.55,32.0,154,60.1,56.8,7,5,7,1,2026-03-06T23:07:49.667749+05:30
Jodhpur,Rajasthan,26.2389,73.0243,27.3,34,0.0,984.9,6.95,22.7,83,72.6,26.4,4,5,7,0,2026-03-06T23:07:49.667758+05:30
Udaipur,Rajasthan,24.5854,73.7125,20.3,54,0.0,948.3,7.6,22.3,59,18.0,15.2,0,5,7,0,2026-03-06T23:07:49.667766+05:30
Kota,Rajasthan,25.2138,75.8648,25.0,46,0.0,980.5,7.0,17.3,68,49.2,32.5,4,5,7,0,2026-03-06T23:07:49.667774+05:30
Bikaner,Rajasthan,28.0229,73.3119,24.9,33,0.0,983.3,6.65,23.8,69,13.6,11.4,0,5,7,0,2026-03-06T23:07:49.667783+05:30
Ajmer,Rajasthan,26.4499,74.6399,24.8,33,0.0,956.5,6.95,26.3,73,22.9,21.4,0,5,7,0,2026-03-06T23:07:49.667791+05:30
Gwalior,Madhya Pradesh,26.2183,78.1828,22.2,62,0.0,985.5,6.6,20.9,101,125.7,41.9,3,5,7,0,2026-03-06T23:07:49.667799+05:30
Indore,Madhya Pradesh,22.7196,75.8577,20.2,61,0.0,949.3,7.55,22.3,68,35.5,34.1,3,5,7,0,2026-03-06T23:07:49.667805+05:30
Bhopal,Madhya Pradesh,23.2599,77.4126,23.2,43,0.0,955.1,7.4,24.8,80,40.6,34.1,0,5,7,0,2026-03-06T23:07:49.667812+05:30
Jabalpur,Madhya Pradesh,23.1815,79.9864,24.9,45,0.0,962.9,7.5,26.6,71,50.8,26.3,0,5,7,0,2026-03-06T23:07:49.667819+05:30
Ujjain,Madhya Pradesh,23.1765,75.7885,21.4,61,0.0,955.4,7.45,19.1,73,41.8,40.4,3,5,7,0,2026-03-06T23:07:49.667827+05:30
Visakhapatnam,Andhra Pradesh,17.6868,83.2185,26.2,91,0.0,1005.0,8.45,35.3,128,35.2,30.6,7,5,4,1,2026-03-06T23:07:49.667833+05:30
Vijayawada,Andhra Pradesh,16.5062,80.648,25.7,75,0.0,1002.9,8.55,12.2,117,37.7,36.1,7,5,4,1,2026-03-06T23:07:49.667840+05:30
Guntur,Andhra Pradesh,16.3067,80.4365,25.3,77,0.0,1004.1,8.55,18.0,101,38.6,36.4,7,5,4,1,2026-03-06T23:07:49.667848+05:30
Nellore,Andhra Pradesh,14.4426,79.9865,25.1,82,0.0,1006.6,8.75,28.8,123,30.4,28.4,7,5,4,1,2026-03-06T23:07:49.667856+05:30
Kurnool,Andhra Pradesh,15.8281,78.0373,28.0,32,0.0,977.0,8.55,23.4,90,21.1,18.0,4,5,7,0,2026-03-06T23:07:49.667864+05:30
Kakinada,Andhra Pradesh,16.9891,82.2475,24.7,96,0.0,1008.3,8.5,31.0,98,32.6,27.1,3,0,4,1,2026-03-06T23:07:49.667870+05:30
Tirupati,Andhra Pradesh,13.6288,79.4192,26.3,59,0.0,992.9,8.85,30.6,110,55.4,54.0,4,5,7,1,2026-03-06T23:07:49.667877+05:30
Warangal,Telangana,17.9689,79.5941,27.8,40,0.0,978.6,8.3,24.5,89,36.8,29.7,4,5,7,0,2026-03-06T23:07:49.667884+05:30
Nizamabad,Telangana,18.6725,78.0941,23.7,50,0.0,965.0,8.2,28.8,89,52.9,42.5,0,5,7,0,2026-03-06T23:07:49.667890+05:30
Mysore,Karnataka,12.2958,76.6396,22.9,87,0.0,929.2,9.2,37.1,135,58.2,56.5,3,5,7,1,2026-03-06T23:07:49.667896+05:30
Mangalore,Karnataka,12.9141,74.856,29.0,77,0.0,1008.2,8.8,23.8,125,54.4,49.9,7,0,4,1,2026-03-06T23:07:49.667901+05:30
Hubli-Dharwad,Karnataka,15.3647,75.124,23.2,77,0.0,941.5,8.75,36.7,115,38.2,36.9,3,5,7,1,2026-03-06T23:07:49.667907+05:30
Belgaum,Karnataka,15.8497,74.4977,22.3,70,0.0,926.3,8.8,40.0,121,48.8,47.6,3,5,7,1,2026-03-06T23:07:52.991644+05:30
Coimbatore,Tamil Nadu,11.0168,76.9558,24.6,83,0.0,962.8,9.15,41.0,123,28.7,28.1,3,5,7,1,2026-03-06T23:07:52.991676+05:30
Madurai,Tamil Nadu,9.9252,78.1198,25.9,79,0.0,994.9,9.15,29.9,108,27.5,25.7,7,5,7,1,2026-03-06T23:07:52.991687+05:30
Trichy,Tamil Nadu,10.7905,78.7047,25.7,76,0.0,1001.1,9.05,26.6,90,30.4,28.3,7,5,4,1,2026-03-06T23:07:52.991698+05:30
Salem,Tamil Nadu,11.6643,78.146,27.3,58,0.0,977.8,9.05,16.2,156,36.9,35.4,4,5,7,1,2026-03-06T23:07:52.991707+05:30
Tirunelveli,Tamil Nadu,8.7139,77.7567,26.7,71,0.0,1004.9,9.15,48.6,105,34.5,33.2,7,5,4,1,2026-03-06T23:07:52.991717+05:30
Vellore,Tamil Nadu,12.9165,79.1325,25.3,69,0.0,985.7,8.95,31.3,118,58.9,57.4,7,5,7,1,2026-03-06T23:07:52.991726+05:30
Erode,Tamil Nadu,11.341,77.7172,28.0,58,0.0,990.1,9.05,19.8,140,33.9,32.2,4,5,7,1,2026-03-06T23:07:52.991735+05:30
Kochi,Kerala,9.9312,76.2673,27.9,81,0.0,1010.4,8.95,34.6,131,58.9,57.6,7,0,4,1,2026-03-06T23:07:52.991744+05:30
Thiruvananthapuram,Kerala,8.5241,76.9366,27.4,82,0.0,1009.9,9.0,35.3,82,30.5,27.1,7,0,4,1,2026-03-06T23:07:52.991753+05:30
Kozhikode,Kerala,11.2588,75.7804,28.6,76,0.0,1009.5,8.85,27.0,107,43.7,39.9,7,0,4,1,2026-03-06T23:07:52.991762+05:30
Thrissur,Kerala,10.5276,76.2144,27.1,86,0.0,1008.6,8.95,33.5,125,46.1,44.4,7,0,4,1,2026-03-06T23:07:52.991771+05:30
Kannur,Kerala,11.8745,75.3704,28.1,81,0.0,1008.7,8.85,32.0,111,54.0,50.8,7,0,4,1,2026-03-06T23:07:52.991779+05:30
Patna,Bihar,25.5941,85.1376,25.0,68,0.0,1003.6,7.25,21.6,165,73.6,67.1,7,5,4,1,2026-03-06T23:07:52.991788+05:30
Gaya,Bihar,24.7914,85.0002,22.7,80,0.0,996.6,7.35,20.5,162,62.6,57.9,3,5,7,1,2026-03-06T23:07:52.991796+05:30
Muzaffarpur,Bihar,26.1209,85.3647,22.8,75,0.0,1003.6,7.2,20.5,168,87.1,79.4,3,5,4,1,2026-03-06T23:07:52.991803+05:30
Bhagalpur,Bihar,25.2425,87.0117,23.1,74,0.0,1004.2,7.25,17.3,160,73.3,65.7,3,5,4,1,2026-03-06T23:07:52.991810+05:30
Ranchi,Jharkhand,23.3441,85.3096,22.7,58,0.0,939.4,8.0,31.0,168,70.8,53.2,0,5,7,0,2026-03-06T23:07:52.991817+05:30
Jamshedpur,Jharkhand,22.8046,86.2029,25.2,75,0.0,993.5,7.9,19.1,150,48.8,38.8,7,5,7,1,2026-03-06T23:07:52.991823+05:30
Dhanbad,Jharkhand,23.7957,86.4304,26.7,52,0.0,982.4,7.75,27.4,168,76.1,68.2,4,5,7,0,2026-03-06T23:07:52.991830+05:30
Bokaro,Jharkhand,23.6693,86.1511,25.5,55,0.0,986.6,7.75,29.5,186,86.1,75.4,4,5,7,0,2026-03-06T23:07:52.991838+05:30
Bhubaneswar,Odisha,20.2961,85.8245,25.3,87,0.0,1005.4,8.2,29.9,136,48.9,43.9,7,5,4,1,2026-03-06T23:07:52.991845+05:30
Cuttack,Odisha,20.4625,85.8828,25.6,84,0.0,1007.5,8.2,31.3,136,48.9,43.9,7,5,4,1,2026-03-06T23:07:52.991852+05:30
Rourkela,Odisha,22.2604,84.8536,25.5,65,0.0,986.3,7.8,10.4,171,99.7,72.4,7,5,7,1,2026-03-06T23:07:52.991859+05:30
Raipur,Chhattisgarh,21.2514,81.6296,25.7,49,0.0,975.4,7.9,22.7,94,110.6,83.4,4,5,7,0,2026-03-06T23:07:52.991865+05:30
Bhilai,Chhattisgarh,21.1938,81.3509,25.1,46,0.0,975.7,7.9,23.8,85,87.5,71.7,4,5,7,0,2026-03-06T23:07:52.991872+05:30
Guwahati,Assam,26.1158,91.7086,24.1,80,0.0,1004.4,7.2,20.5,153,67.1,62.9,3,5,4,1,2026-03-06T23:07:52.991878+05:30
Agartala,Tripura,23.8315,91.2868,21.8,77,0.0,1009.4,7.55,16.9,159,100.8,92.7,3,0,4,1,2026-03-06T23:07:52.991885+05:30
Shillong,Meghalaya,25.5788,91.8933,12.5,74,0.0,857.5,7.6,33.1,120,46.2,43.2,3,5,7,0,2026-03-06T23:07:52.991891+05:30
Imphal,Manipur,24.817,93.9368,17.5,61,0.0,925.7,7.8,34.9,156,91.5,86.1,3,5,7,0,2026-03-06T23:07:52.991898+05:30
Aizawl,Mizoram,23.7271,92.7176,19.8,57,0.0,895.6,7.7,34.6,183,137.4,129.9,0,5,7,0,2026-03-06T23:07:52.991905+05:30
Kohima,Nagaland,25.6701,94.1077,16.2,59,0.0,857.4,7.65,46.8,159,100.4,94.3,0,5,7,0,2026-03-06T23:07:52.991911+05:30
Gangtok,Sikkim,27.3314,88.6138,14.4,87,0.0,840.1,7.55,18.0,113,64.5,58.0,3,10,7,0,2026-03-06T23:07:52.991918+05:30
Siliguri,West Bengal,26.7271,88.3953,22.5,59,0.0,997.6,7.2,15.5,147,69.8,62.4,0,5,7,0,2026-03-06T23:07:56.304534+05:30
Durgapur,West Bengal,23.5204,87.3119,25.6,64,0.0,997.9,7.75,24.1,161,71.9,62.9,7,5,7,1,2026-03-06T23:07:56.304566+05:30
Asansol,West Bengal,23.6739,86.9524,26.4,58,0.0,996.5,7.75,21.6,162,71.0,62.9,4,5,7,1,2026-03-06T23:07:56.304576+05:30
Pondicherry,Puducherry,11.9139,79.8145,24.2,95,0.0,1009.6,8.9,32.4,72,27.5,21.3,3,0,4,1,2026-03-06T23:07:56.304586+05:30
Port Blair,Andaman and Nicobar Islands,11.6234,92.7265,27.1,71,0.0,1009.1,8.85,14.4,68,54.0,32.5,7,0,4,1,2026-03-06T23:07:56.304595+05:30
Haridwar,Uttarakhand,29.9457,78.1642,22.7,80,0.0,977.6,5.65,23.4,157,101.0,84.8,3,5,3,1,2026-03-06T23:07:56.304604+05:30
Rishikesh,Uttarakhand,30.0869,78.2676,21.4,79,0.0,970.4,5.7,21.6,168,111.5,80.6,3,5,3,1,2026-03-06T23:07:56.304613+05:30
Nainital,Uttarakhand,29.3919,79.4542,16.2,70,0.0,807.8,6.5,46.4,160,105.5,78.7,3,5,7,0,2026-03-06T23:07:56.304622+05:30
Mussoorie,Uttarakhand,30.4599,78.0664,15.2,87,0.0,804.5,6.05,40.7,164,128.1,89.2,3,10,7,0,2026-03-06T23:07:56.304632+05:30
Dharamshala,Himachal Pradesh,32.219,76.3234,21.7,60,0.0,871.8,5.75,21.2,89,33.8,23.4,0,5,3,0,2026-03-06T23:07:56.304640+05:30
Dalhousie,Himachal Pradesh,32.5387,75.971,17.7,67,0.0,805.7,5.85,20.9,94,65.2,54.0,3,5,3,0,2026-03-06T23:07:56.304649+05:30
Patiala,Punjab,30.3398,76.3869,22.7,74,0.0,980.6,5.7,13.0,161,314.8,110.8,3,5,3,1,2026-03-06T23:07:56.304657+05:30
Bhatinda,Punjab,30.211,74.9455,23.4,53,0.0,985.5,6.4,16.9,137,71.7,59.0,0,5,7,0,2026-03-06T23:07:56.304665+05:30
Rohtak,Haryana,28.8955,76.6066,23.1,53,0.0,984.0,5.9,19.4,169,281.3,121.1,0,5,3,0,2026-03-06T23:07:56.304673+05:30
Panipat,Haryana,29.3909,76.9635,23.0,72,0.0,982.9,5.7,14.0,405,410.7,131.8,3,5,3,1,2026-03-06T23:07:56.304682+05:30
Mathura,Uttar Pradesh,27.4924,77.6737,20.4,64,0.0,989.0,6.2,19.1,198,200.2,97.8,3,5,7,0,2026-03-06T23:07:56.304690+05:30
Vrindavan,Uttar Pradesh,27.5823,77.7027,21.9,61,0.0,989.6,6.15,17.6,198,200.2,97.8,3,5,7,0,2026-03-06T23:07:56.304698+05:30
Ayodhya,Uttar Pradesh,26.7922,82.1998,22.5,77,0.0,998.9,6.55,19.4,167,137.8,108.5,3,5,7,1,2026-03-06T23:07:56.304706+05:30
Ratlam,Madhya Pradesh,23.3315,75.0367,24.0,53,0.0,956.2,7.4,20.9,64,44.7,43.3,0,5,7,0,2026-03-06T23:07:56.304714+05:30
Sagar,Madhya Pradesh,23.8388,78.7378,23.6,49,0.0,951.6,7.35,21.6,71,48.1,21.4,0,5,7,0,2026-03-06T23:07:56.304722+05:30
Satna,Madhya Pradesh,24.6005,80.8322,22.9,71,0.0,973.8,7.3,31.3,113,124.8,61.7,3,5,7,1,2026-03-06T23:07:56.304729+05:30
Akola,Maharashtra,20.7002,77.0082,24.6,50,0.0,975.9,7.85,19.8,81,39.5,33.3,0,5,7,0,2026-03-06T23:07:56.304736+05:30
Amravati,Maharashtra,20.9374,77.7796,24.6,58,0.0,967.8,7.75,15.1,78,46.0,37.5,0,5,7,0,2026-03-06T23:07:56.304744+05:30
Latur,Maharashtra,18.4088,76.5604,25.7,40,0.0,940.4,8.3,31.7,100,36.8,30.5,4,5,7,0,2026-03-06T23:07:56.304751+05:30
Nanded,Maharashtra,19.1383,77.3091,26.6,46,0.0,969.1,8.1,20.9,91,56.8,48.1,4,5,7,0,2026-03-06T23:07:56.304758+05:30
Gulbarga,Karnataka,17.3297,76.8343,27.0,38,0.0,958.9,8.4,33.1,82,24.9,20.3,4,5,7,0,2026-03-06T23:07:56.304764+05:30
Bidar,Karnataka,17.9104,77.5199,25.5,42,0.0,936.0,8.35,32.8,75,37.7,27.4,4,5,7,0,2026-03-06T23:07:56.304770+05:30
Hospet,Karnataka,15.2689,76.3909,27.2,38,0.0,956.1,8.75,20.2,130,34.3,32.0,4,5,7,0,2026-03-06T23:07:56.304777+05:30
Tirupur,Tamil Nadu,11.1085,77.3411,26.4,78,0.0,976.2,9.2,30.2,139,44.4,42.6,7,5,7,1,2026-03-06T23:07:56.304783+05:30
Alappuzha,Kerala,9.4981,76.3388,27.6,82,0.0,1010.7,8.95,31.0,107,41.4,38.5,7,0,4,1,2026-03-06T23:07:56.304790+05:30
Munnar,Kerala,10.0889,77.0595,19.8,93,0.0,857.5,9.45,29.9,100,51.9,50.1,3,10,7,1,2026-03-06T23:07:56.304796+05:30
Silchar,Assam,24.8333,92.7789,26.8,60,0.0,1007.7,7.55,12.6,170,122.9,118.5,4,5,4,1,2026-03-06T23:07:56.304803+05:30
Dibrugarh,Assam,27.4728,94.912,24.0,78,0.0,998.1,7.25,16.6,96,46.8,44.0,3,5,7,1,2026-03-06T23:07:56.304809+05:30
