city,state,latitude,longitude,temp,humidity,rain,pressure,uv_index,wind_gusts,aqi,pm10,pm2_5,no2,co,o3,so2,mosquito_risk,arthritis_risk,migraine_risk,frizz_risk,updated_at
Delhi,Delhi,28.6139,77.209,35.2,55,0.0,970.7,7.7,29.5,638,851.2,167.6,10.4,246.0,110.0,10.5,0,5,10,1,2026-07-12T16:42:15.238362+05:30
Mumbai,Maharashtra,19.076,72.8777,28.8,80,0.0,1004.6,7.55,57.6,51,35.6,14.6,4.6,135.0,56.0,5.3,7,5,4,1,2026-07-12T16:42:15.238399+05:30
Bangalore,Karnataka,12.9716,77.5946,31.2,44,0.0,908.9,8.8,47.2,51,35.7,14.3,2.9,205.0,80.0,2.1,0,5,7,1,2026-07-12T16:42:15.238414+05:30
Hyderabad,Telangana,17.385,78.4867,32.6,41,0.0,948.1,8.7,53.3,60,42.0,17.1,2.2,157.0,87.0,2.4,0,5,7,1,2026-07-12T16:42:15.238423+05:30
Chennai,Tamil Nadu,13.0827,80.2707,34.0,57,0.0,1000.5,8.8,42.5,76,47.5,24.0,4.8,211.0,129.0,5.6,0,5,4,1,2026-07-12T16:42:15.238430+05:30
Kolkata,West Bengal,22.5726,88.3639,31.5,76,0.1,994.3,8.65,24.1,147,65.2,47.8,8.7,424.0,109.0,10.8,6,5,7,1,2026-07-12T16:42:15.238438+05:30
Pune,Maharashtra,18.5204,73.8567,27.8,69,0.0,944.1,8.35,55.4,34,29.1,10.5,1.7,118.0,57.0,3.1,7,5,7,1,2026-07-12T16:42:15.238445+05:30
Ahmedabad,Gujarat,23.0225,72.5714,37.2,40,0.0,992.3,8.1,51.5,66,56.5,22.9,2.0,118.0,81.0,3.1,0,5,10,1,2026-07-12T16:42:15.238452+05:30
Jaipur,Rajasthan,26.9124,75.7873,33.6,49,0.0,950.0,8.2,37.8,374,476.8,78.9,1.3,133.0,100.0,3.1,0,5,7,1,2026-07-12T16:42:15.238459+05:30
Lucknow,Uttar Pradesh,26.8467,80.9462,34.1,60,0.0,980.9,8.2,38.2,146,136.4,46.4,3.6,168.0,100.0,3.8,0,5,7,1,2026-07-12T16:42:15.238469+05:30
Kanpur,Uttar Pradesh,26.4499,80.3319,34.5,55,0.0,979.6,7.9,40.3,124,137.4,40.5,3.0,133.0,103.0,4.1,0,5,7,1,2026-07-12T16:42:15.238476+05:30
Chandigarh,Chandigarh,30.7333,76.7794,33.2,64,0.0,956.8,7.7,25.9,156,192.8,73.3,1.8,554.0,162.0,13.5,3,5,7,1,2026-07-12T16:42:15.238483+05:30
Srinagar,Jammu and Kashmir,34.0837,74.7973,19.4,90,0.2,835.6,8.3,24.8,93,9.8,7.2,2.0,291.0,136.0,1.7,6,10,7,1,2026-07-12T16:42:15.238490+05:30
Jammu,Jammu and Kashmir,32.7266,74.857,33.1,60,0.0,961.4,8.6,27.7,133,119.2,54.1,0.7,299.0,164.0,3.4,0,5,7,1,2026-07-12T16:42:15.238496+05:30
Amritsar,Punjab,31.634,74.8723,33.3,65,0.0,968.7,8.45,37.1,162,249.6,79.9,1.5,288.0,135.0,5.3,3,5,7,1,2026-07-12T16:42:15.238502+05:30
Ludhiana,Punjab,30.901,75.8573,34.7,61,0.0,966.3,7.95,41.0,171,323.2,104.8,2.0,336.0,158.0,8.2,3,5,7,1,2026-07-12T16:42:15.238508+05:30
Jalandhar,Punjab,31.326,75.5762,33.4,64,0.0,967.4,8.15,47.9,165,223.5,80.8,2.0,312.0,158.0,5.6,3,5,7,1,2026-07-12T16:42:15.238513+05:30
Dehradun,Uttarakhand,30.6284,78.0322,23.4,84,0.0,824.0,8.05,29.9,110,86.1,39.5,0.5,219.0,143.0,4.8,3,5,7,1,2026-07-12T16:42:15.238522+05:30
Shimla,Himachal Pradesh,31.1048,77.1734,22.1,71,0.0,780.3,8.25,40.3,108,75.9,36.7,0.6,192.0,146.0,7.3,3,5,7,1,2026-07-12T16:42:15.238528+05:30
Manali,Himachal Pradesh,32.2396,77.1887,24.7,60,0.0,814.4,9.4,34.6,107,8.7,6.0,0.8,222.0,162.0,1.0,0,5,7,1,2026-07-12T16:42:15.238536+05:30
Gurgaon,Haryana,28.4595,77.0266,35.4,52,0.0,969.3,7.7,32.4,707,730.2,131.3,9.0,254.0,105.0,7.2,0,5,10,1,2026-07-12T16:42:15.238542+05:30
Noida,Uttar Pradesh,28.5355,77.391,35.6,54,0.0,972.1,7.7,28.1,707,730.2,131.3,9.0,235.0,105.0,7.2,0,5,10,1,2026-07-12T16:42:15.238548+05:30
Ghaziabad,Uttar Pradesh,28.6692,77.4538,35.1,57,0.0,970.3,7.7,29.2,510,855.0,182.1,6.8,205.0,132.0,13.6,0,5,10,1,2026-07-12T16:42:15.238554+05:30
Faridabad,Haryana,28.4089,77.3178,35.4,54,0.0,971.4,7.75,31.3,707,730.2,131.3,9.0,232.0,105.0,7.2,0,5,10,1,2026-07-12T16:42:15.238560+05:30
Meerut,Uttar Pradesh,28.9845,77.7064,34.5,59,0.0,968.9,7.6,31.7,510,855.0,182.1,6.8,163.0,132.0,13.6,0,5,7,1,2026-07-12T16:42:15.238565+05:30
Agra,Uttar Pradesh,27.1767,78.0081,34.8,52,0.0,976.1,8.0,38.2,139,228.6,51.8,2.5,138.0,99.0,2.8,0,5,7,1,2026-07-12T16:42:15.238572+05:30
Varanasi,Uttar Pradesh,25.3176,82.9739,33.7,61,0.0,985.3,8.4,37.4,96,71.2,34.3,3.8,229.0,113.0,6.3,3,5,7,1,2026-07-12T16:42:15.238578+05:30
Prayagraj,Uttar Pradesh,25.4358,81.8463,33.7,59,0.0,984.1,8.5,41.4,99,63.1,33.2,4.3,161.0,103.0,6.4,0,5,7,1,2026-07-12T16:42:15.238584+05:30
Gorakhpur,Uttar Pradesh,26.7606,83.3732,33.3,64,0.1,984.1,6.8,38.9,135,75.7,40.7,6.3,238.0,113.0,7.2,6,5,7,1,2026-07-12T16:42:15.238590+05:30
Bareilly,Uttar Pradesh,28.367,79.4304,34.8,61,0.0,973.9,8.0,33.8,167,280.3,103.1,3.5,199.0,122.0,6.5,3,5,7,1,2026-07-12T16:42:15.238598+05:30
Aligarh,Uttar Pradesh,27.8974,78.088,34.8,57,0.0,973.6,7.85,36.0,581,800.9,136.4,3.8,156.0,99.0,4.6,0,5,7,1,2026-07-12T16:42:15.238605+05:30
Moradabad,Uttar Pradesh,28.8386,78.7733,34.5,62,0.0,970.9,7.8,36.0,179,472.2,143.9,3.3,227.0,136.0,8.9,3,5,7,1,2026-07-12T16:42:15.238611+05:30
Saharanpur,Uttar Pradesh,29.9637,77.546,33.9,65,0.0,963.1,7.35,25.9,171,277.5,98.0,3.4,288.0,133.0,9.7,3,5,7,1,2026-07-12T16:42:15.238617+05:30
Jhansi,Uttar Pradesh,25.4484,78.5685,33.8,52,0.0,967.8,8.35,45.0,84,79.9,34.3,2.2,133.0,104.0,7.0,0,5,7,1,2026-07-12T16:42:18.466403+05:30
Surat,Gujarat,21.1702,72.8311,30.1,74,0.0,1000.7,5.9,66.6,57,40.7,19.3,7.2,158.0,44.0,18.3,3,5,0,1,2026-07-12T16:42:18.466434+05:30
Vadodara,Gujarat,22.3072,73.1812,32.2,67,0.0,996.2,8.05,59.0,57,49.4,21.8,2.3,114.0,76.0,4.4,3,5,7,1,2026-07-12T16:42:18.466444+05:30
Rajkot,Gujarat,22.3039,70.8022,33.8,51,0.0,985.7,7.7,61.2,60,51.3,20.0,1.0,94.0,64.0,2.5,0,5,7,1,2026-07-12T16:42:18.466452+05:30
Thane,Maharashtra,19.2183,72.9781,30.0,72,0.0,1003.8,7.0,50.4,51,35.6,14.6,4.6,131.0,56.0,5.3,7,5,4,1,2026-07-12T16:42:18.466459+05:30
Nagpur,Maharashtra,21.1458,79.0882,32.3,54,0.0,965.9,8.45,42.1,75,61.0,26.2,6.5,141.0,78.0,13.4,0,5,7,1,2026-07-12T16:42:18.466467+05:30
Nashik,Maharashtra,19.9975,73.7898,28.0,67,0.0,940.8,8.05,65.2,35,30.5,12.7,1.8,100.0,64.0,3.3,7,5,7,1,2026-07-12T16:42:18.466474+05:30
Aurangabad,Maharashtra,19.8762,75.3433,31.3,51,0.0,938.6,8.95,55.4,51,52.4,20.0,1.4,116.0,93.0,4.8,0,5,7,1,2026-07-12T16:42:18.466480+05:30
Solapur,Maharashtra,17.6599,75.9064,32.8,44,0.0,952.5,8.85,52.9,50,40.3,14.7,1.1,104.0,74.0,1.4,0,5,7,1,2026-07-12T16:42:18.466488+05:30
Kolhapur,Maharashtra,16.705,74.2433,26.8,72,0.0,945.3,8.2,54.0,35,24.8,10.1,1.7,107.0,52.0,1.6,7,5,7,1,2026-07-12T16:42:18.466495+05:30
Goa,Goa,15.2993,74.124,30.2,68,0.0,996.1,7.4,38.2,55,21.1,9.7,0.9,102.0,50.0,1.2,3,5,7,1,2026-07-12T16:42:18.466503+05:30
Jodhpur,Rajasthan,26.2389,73.0243,37.2,36,0.0,971.5,8.45,52.9,182,330.6,63.1,0.8,102.0,82.0,1.9,0,5,10,1,2026-07-12T16:42:18.466510+05:30
Udaipur,Rajasthan,24.5854,73.7125,31.8,50,0.0,937.7,8.8,51.8,71,74.5,28.9,0.9,107.0,88.0,3.2,0,5,7,1,2026-07-12T16:42:18.466517+05:30
Kota,Rajasthan,25.2138,75.8648,34.8,47,0.0,968.9,8.3,37.1,78,73.3,29.2,1.7,133.0,101.0,5.3,0,5,7,1,2026-07-12T16:42:18.466524+05:30
Bikaner,Rajasthan,28.0229,73.3119,38.1,37,0.0,969.4,8.45,41.0,159,146.2,45.4,0.4,105.0,90.0,3.0,0,5,10,1,2026-07-12T16:42:18.466532+05:30
Ajmer,Rajasthan,26.4499,74.6399,32.7,48,0.0,945.0,8.35,48.2,75,69.4,27.6,1.0,111.0,96.0,2.7,0,5,7,1,2026-07-12T16:42:18.466539+05:30
Gwalior,Madhya Pradesh,26.2183,78.1828,33.6,54,0.0,972.5,8.15,43.2,83,84.8,33.8,1.1,122.0,99.0,3.4,0,5,7,1,2026-07-12T16:42:18.466546+05:30
Indore,Madhya Pradesh,22.7196,75.8577,30.3,60,0.0,940.9,8.55,52.9,62,67.8,31.2,2.4,157.0,90.0,5.1,0,5,7,1,2026-07-12T16:42:18.466553+05:30
Bhopal,Madhya Pradesh,23.2599,77.4126,30.6,61,0.0,945.9,8.3,43.2,69,62.2,27.8,2.1,164.0,81.0,4.2,3,5,7,1,2026-07-12T16:42:18.466560+05:30
Jabalpur,Madhya Pradesh,23.1815,79.9864,31.1,60,0.0,953.2,6.2,38.5,75,56.3,23.2,1.5,150.0,95.0,3.5,0,5,7,1,2026-07-12T16:42:18.466567+05:30
Ujjain,Madhya Pradesh,23.1765,75.7885,31.2,55,0.0,946.3,8.45,51.5,62,65.4,29.5,1.8,139.0,85.0,3.9,0,5,7,1,2026-07-12T16:42:18.466574+05:30
Visakhapatnam,Andhra Pradesh,17.6868,83.2185,36.2,43,0.0,993.7,8.6,41.4,102,59.6,28.1,8.8,266.0,126.0,24.0,0,5,10,1,2026-07-12T16:42:18.466581+05:30
Vijayawada,Andhra Pradesh,16.5062,80.648,35.9,41,0.0,995.2,7.45,45.0,89,49.8,21.1,2.3,135.0,91.0,3.4,0,5,10,1,2026-07-12T16:42:18.466588+05:30
Guntur,Andhra Pradesh,16.3067,80.4365,36.8,36,0.0,996.3,7.8,45.4,82,50.8,20.8,2.0,124.0,90.0,3.0,0,5,10,1,2026-07-12T16:42:18.466596+05:30
Nellore,Andhra Pradesh,14.4426,79.9865,38.0,30,0.0,998.6,8.1,45.7,71,66.8,24.2,3.1,110.0,107.0,4.7,0,5,10,1,2026-07-12T16:42:18.466603+05:30
Kurnool,Andhra Pradesh,15.8281,78.0373,36.1,35,0.0,971.2,8.1,48.2,57,41.0,16.9,1.6,112.0,96.0,4.9,0,5,10,1,2026-07-12T16:42:18.466611+05:30
Kakinada,Andhra Pradesh,16.9891,82.2475,35.2,46,0.0,998.6,8.4,47.5,92,54.2,21.9,2.4,149.0,116.0,3.3,0,5,10,1,2026-07-12T16:42:18.466618+05:30
Tirupati,Andhra Pradesh,13.6288,79.4192,37.6,32,0.0,984.6,8.7,33.1,79,68.2,19.4,4.3,97.0,88.0,1.6,0,5,10,1,2026-07-12T16:42:18.466625+05:30
Warangal,Telangana,17.9689,79.5941,32.8,47,0.0,972.3,8.85,42.1,75,54.4,22.6,1.9,129.0,84.0,2.4,0,5,7,1,2026-07-12T16:42:18.466632+05:30
Nizamabad,Telangana,18.6725,78.0941,31.9,51,0.0,959.0,8.9,45.7,64,46.3,20.1,1.6,125.0,87.0,3.9,0,5,7,1,2026-07-12T16:42:18.466638+05:30
Mysore,Karnataka,12.2958,76.6396,27.9,64,0.0,926.0,8.5,47.2,42,29.4,11.3,1.9,114.0,71.0,1.5,7,5,7,1,2026-07-12T16:42:18.466645+05:30
Mangalore,Karnataka,12.9141,74.856,28.5,76,0.0,1005.3,6.75,41.8,42,17.7,8.7,1.0,96.0,51.0,1.2,7,5,4,1,2026-07-12T16:42:18.466651+05:30
Hubli-Dharwad,Karnataka,15.3647,75.124,28.2,58,0.0,938.3,8.85,51.1,31,21.4,8.6,1.2,100.0,54.0,1.1,4,5,7,1,2026-07-12T16:42:18.466658+05:30
Belgaum,Karnataka,15.8497,74.4977,25.6,75,0.0,923.6,8.8,51.1,32,20.7,8.7,1.4,95.0,50.0,1.4,7,5,7,1,2026-07-12T16:42:21.706100+05:30
Coimbatore,Tamil Nadu,11.0168,76.9558,29.9,62,0.0,958.4,8.2,56.5,44,19.4,8.2,1.4,116.0,65.0,1.7,7,5,7,1,2026-07-12T16:42:21.706126+05:30
Madurai,Tamil Nadu,9.9252,78.1198,36.7,37,0.0,987.7,7.85,34.9,65,53.8,16.0,2.0,119.0,90.0,2.0,0,5,10,1,2026-07-12T16:42:21.706136+05:30
Trichy,Tamil Nadu,10.7905,78.7047,38.3,31,0.0,993.8,8.4,55.8,50,47.0,16.0,1.0,115.0,84.0,1.7,0,5,10,1,2026-07-12T16:42:21.706144+05:30
Salem,Tamil Nadu,11.6643,78.146,34.6,45,0.0,972.4,8.6,28.8,63,46.1,16.9,2.9,157.0,92.0,4.7,0,5,7,1,2026-07-12T16:42:21.706151+05:30
Tirunelveli,Tamil Nadu,8.7139,77.7567,35.3,42,0.0,998.8,7.9,45.0,33,16.8,7.8,1.5,106.0,65.0,1.3,0,5,10,1,2026-07-12T16:42:21.706157+05:30
Vellore,Tamil Nadu,12.9165,79.1325,38.4,29,0.0,978.0,8.25,41.0,70,69.4,22.3,4.3,124.0,94.0,2.4,0,5,10,1,2026-07-12T16:42:21.706163+05:30
Erode,Tamil Nadu,11.341,77.7172,34.6,46,0.0,984.1,8.3,52.9,54,30.3,11.8,2.2,130.0,83.0,1.9,0,5,7,1,2026-07-12T16:42:21.706170+05:30
Kochi,Kerala,9.9312,76.2673,28.7,77,0.0,1007.3,7.65,43.9,50,17.2,9.0,1.8,100.0,58.0,1.9,7,5,4,1,2026-07-12T16:42:21.706177+05:30
Thiruvananthapuram,Kerala,8.5241,76.9366,28.3,79,0.0,1006.5,7.7,49.0,36,17.2,9.3,2.1,91.0,56.0,1.0,7,5,4,1,2026-07-12T16:42:21.706183+05:30
Kozhikode,Kerala,11.2588,75.7804,28.9,74,0.0,1006.4,7.95,45.7,35,16.3,7.6,0.5,93.0,54.0,0.9,7,5,4,1,2026-07-12T16:42:21.706190+05:30
Thrissur,Kerala,10.5276,76.2144,29.1,74,0.0,1005.5,7.7,41.0,44,15.4,8.2,1.1,96.0,56.0,1.4,7,5,4,1,2026-07-12T16:42:21.706197+05:30
Kannur,Kerala,11.8745,75.3704,28.9,74,0.0,1005.8,8.2,46.4,39,18.9,9.3,1.4,95.0,50.0,1.1,7,5,4,1,2026-07-12T16:42:21.706204+05:30
Patna,Bihar,25.5941,85.1376,34.1,58,0.0,987.2,8.6,39.6,135,121.5,52.2,5.6,220.0,112.0,6.1,0,5,7,1,2026-07-12T16:42:21.706210+05:30
Gaya,Bihar,24.7914,85.0002,34.0,58,0.0,981.3,8.85,41.8,113,75.7,39.5,3.7,195.0,110.0,5.3,0,5,7,1,2026-07-12T16:42:21.706216+05:30
Muzaffarpur,Bihar,26.1209,85.3647,32.9,66,0.0,987.0,7.2,42.5,129,143.0,60.1,6.0,278.0,116.0,7.1,3,5,7,1,2026-07-12T16:42:21.706223+05:30
Bhagalpur,Bihar,25.2425,87.0117,33.7,65,0.0,987.8,8.45,40.3,104,83.8,47.5,6.0,229.0,122.0,9.9,3,5,7,1,2026-07-12T16:42:21.706229+05:30
Ranchi,Jharkhand,23.3441,85.3096,28.0,80,0.1,928.0,9.2,37.8,96,46.6,25.6,2.8,178.0,112.0,7.0,10,5,7,1,2026-07-12T16:42:21.706273+05:30
Jamshedpur,Jharkhand,22.8046,86.2029,33.3,61,0.0,979.3,9.1,29.2,113,57.3,32.1,6.0,212.0,112.0,10.5,3,5,7,1,2026-07-12T16:42:21.706284+05:30
Dhanbad,Jharkhand,23.7957,86.4304,33.7,60,0.0,967.9,9.0,29.9,148,65.2,40.6,15.9,153.0,113.0,48.6,0,5,7,1,2026-07-12T16:42:21.706291+05:30
Bokaro,Jharkhand,23.6693,86.1511,33.7,61,0.0,971.7,9.1,32.4,141,63.1,38.9,14.6,203.0,122.0,54.5,3,5,7,1,2026-07-12T16:42:21.706298+05:30
Bhubaneswar,Odisha,20.2961,85.8245,32.8,68,0.0,992.1,8.5,37.1,127,47.0,27.0,4.8,191.0,108.0,7.2,3,5,7,1,2026-07-12T16:42:21.706305+05:30
Cuttack,Odisha,20.4625,85.8828,33.6,62,0.0,993.6,8.5,39.6,127,47.0,27.0,4.8,179.0,108.0,7.2,3,5,7,1,2026-07-12T16:42:21.706311+05:30
Rourkela,Odisha,22.2604,84.8536,32.6,62,0.0,974.2,8.8,32.8,111,45.1,25.8,3.5,292.0,119.0,6.6,3,5,7,1,2026-07-12T16:42:21.706317+05:30
Raipur,Chhattisgarh,21.2514,81.6296,32.7,55,0.0,966.0,8.3,45.7,100,56.7,29.2,8.0,151.0,109.0,23.2,0,5,7,1,2026-07-12T16:42:21.706323+05:30
Bhilai,Chhattisgarh,21.1938,81.3509,32.0,56,0.0,966.7,7.4,47.2,94,58.8,28.8,6.9,342.0,108.0,19.2,0,5,7,1,2026-07-12T16:42:21.706330+05:30
Guwahati,Assam,26.1158,91.7086,28.1,93,0.0,989.2,3.65,16.2,43,6.5,6.3,5.0,313.0,82.0,2.1,7,5,3,1,2026-07-12T16:42:21.706336+05:30
Agartala,Tripura,23.8315,91.2868,27.5,97,0.2,994.6,7.9,31.7,88,39.6,35.2,11.8,234.0,115.0,6.4,10,5,7,1,2026-07-12T16:42:21.706343+05:30
Shillong,Meghalaya,25.5788,91.8933,23.4,81,0.0,849.4,3.3,37.1,40,5.0,3.9,4.0,268.0,86.0,3.6,3,5,3,1,2026-07-12T16:42:21.706349+05:30
Imphal,Manipur,24.817,93.9368,24.6,94,0.2,913.8,7.15,24.8,46,17.1,12.1,5.7,252.0,78.0,3.3,6,5,7,1,2026-07-12T16:42:21.706356+05:30
Aizawl,Mizoram,23.7271,92.7176,23.7,83,0.1,883.6,8.0,36.7,47,28.4,16.5,1.4,157.0,82.0,3.1,6,5,7,1,2026-07-12T16:42:21.706362+05:30
Kohima,Nagaland,25.6701,94.1077,22.1,97,0.1,847.9,8.05,19.4,45,8.6,6.7,3.3,211.0,71.0,2.1,6,5,7,1,2026-07-12T16:42:21.706368+05:30
Gangtok,Sikkim,27.3314,88.6138,21.2,99,0.1,829.6,4.55,30.2,49,1.5,1.5,3.7,250.0,103.0,0.9,6,5,3,1,2026-07-12T16:42:21.706375+05:30
Siliguri,West Bengal,26.7271,88.3953,29.0,85,0.1,980.0,8.65,18.7,58,13.8,12.3,7.0,436.0,108.0,2.4,10,5,7,1,2026-07-12T16:42:24.961080+05:30
Durgapur,West Bengal,23.5204,87.3119,33.8,61,0.0,982.5,5.2,28.1,150,66.1,42.5,12.4,573.0,120.0,27.8,3,5,3,1,2026-07-12T16:42:24.961108+05:30
Asansol,West Bengal,23.6739,86.9524,33.8,62,0.0,981.2,8.15,29.5,133,64.3,41.0,12.1,290.0,117.0,25.2,3,5,7,1,2026-07-12T16:42:24.961118+05:30
Pondicherry,Puducherry,11.9139,79.8145,33.1,65,0.0,1002.1,8.55,48.2,68,53.9,29.0,8.7,173.0,129.0,10.9,3,5,4,1,2026-07-12T16:42:24.961126+05:30
Port Blair,Andaman and Nicobar Islands,11.6234,92.7265,27.7,87,0.0,1002.4,8.7,56.2,52,24.4,11.7,0.3,91.0,46.0,0.4,7,5,4,1,2026-07-12T16:42:24.961134+05:30
Haridwar,Uttarakhand,29.9457,78.1642,34.3,61,0.0,961.5,7.45,37.4,156,203.5,82.4,1.3,243.0,155.0,10.8,3,5,7,1,2026-07-12T16:42:24.961141+05:30
Rishikesh,Uttarakhand,30.0869,78.2676,32.6,66,0.1,954.5,7.6,24.8,117,153.2,66.4,1.0,215.0,155.0,9.9,6,5,7,1,2026-07-12T16:42:24.961149+05:30
Nainital,Uttarakhand,29.3919,79.4542,23.2,68,0.0,800.2,6.3,32.4,142,203.0,76.6,1.9,201.0,150.0,8.8,3,5,7,1,2026-07-12T16:42:24.961156+05:30
Mussoorie,Uttarakhand,30.4599,78.0664,21.7,84,0.0,797.3,8.0,43.6,120,163.9,67.8,1.5,209.0,149.0,8.3,3,5,7,1,2026-07-12T16:42:24.961163+05:30
Dharamshala,Himachal Pradesh,32.219,76.3234,24.8,75,0.0,861.9,8.45,34.9,99,35.3,18.4,0.2,388.0,137.0,1.4,3,5,7,1,2026-07-12T16:42:24.961169+05:30
Dalhousie,Himachal Pradesh,32.5387,75.971,21.5,78,0.0,799.8,8.65,25.6,120,62.4,30.6,0.5,350.0,153.0,2.1,3,5,7,1,2026-07-12T16:42:24.961177+05:30
Patiala,Punjab,30.3398,76.3869,34.7,60,0.0,965.6,7.5,24.8,165,371.6,113.2,2.2,370.0,138.0,7.3,0,5,7,1,2026-07-12T16:42:24.961184+05:30
Bhatinda,Punjab,30.211,74.9455,37.2,47,0.0,970.9,8.25,29.2,344,454.5,149.5,1.7,118.0,129.0,9.2,0,5,10,1,2026-07-12T16:42:24.961190+05:30
Rohtak,Haryana,28.8955,76.6066,35.8,52,0.0,969.3,7.6,32.0,1030,1080.3,166.7,4.9,179.0,98.0,3.0,0,5,10,1,2026-07-12T16:42:24.961197+05:30
Panipat,Haryana,29.3909,76.9635,35.3,57,0.0,967.7,7.45,30.2,1294,2637.5,346.5,5.2,154.0,103.0,8.3,0,5,10,1,2026-07-12T16:42:24.961204+05:30
Mathura,Uttar Pradesh,27.4924,77.6737,35.0,54,0.0,975.1,7.95,36.7,797,890.3,121.1,3.0,148.0,99.0,2.6,0,5,7,1,2026-07-12T16:42:24.961210+05:30
Vrindavan,Uttar Pradesh,27.5823,77.7027,35.1,54,0.0,975.4,7.9,36.0,797,890.3,121.1,3.0,151.0,99.0,2.6,0,5,10,1,2026-07-12T16:42:24.961217+05:30
Ayodhya,Uttar Pradesh,26.7922,82.1998,29.9,86,0.1,982.9,7.05,35.6,146,109.0,47.4,5.2,189.0,98.0,4.2,10,5,7,1,2026-07-12T16:42:24.961223+05:30
Ratlam,Madhya Pradesh,23.3315,75.0367,30.8,57,0.0,947.2,8.45,51.5,61,66.4,29.0,1.3,116.0,86.0,3.8,0,5,7,1,2026-07-12T16:42:24.961230+05:30
Sagar,Madhya Pradesh,23.8388,78.7378,30.4,57,0.0,942.0,7.25,44.3,73,65.2,27.3,1.3,139.0,86.0,2.9,0,5,7,1,2026-07-12T16:42:24.961236+05:30
Satna,Madhya Pradesh,24.6005,80.8322,33.3,55,0.0,961.0,8.2,45.7,81,56.8,25.1,1.4,133.0,96.0,3.2,0,5,7,1,2026-07-12T16:42:24.961265+05:30
Akola,Maharashtra,20.7002,77.0082,33.5,51,0.0,968.0,7.9,45.0,58,50.2,20.2,2.1,115.0,89.0,6.3,0,5,7,1,2026-07-12T16:42:24.961272+05:30
Amravati,Maharashtra,20.9374,77.7796,31.8,55,0.0,960.4,6.0,49.0,60,52.6,21.3,2.6,120.0,87.0,7.2,0,5,3,1,2026-07-12T16:42:24.961279+05:30
Latur,Maharashtra,18.4088,76.5604,32.2,46,0.0,934.8,8.9,46.8,52,46.8,17.5,1.2,112.0,81.0,1.9,0,5,7,1,2026-07-12T16:42:24.961287+05:30
Nanded,Maharashtra,19.1383,77.3091,32.6,51,0.0,962.5,8.85,40.3,58,45.5,19.5,1.9,135.0,81.0,2.3,0,5,7,1,2026-07-12T16:42:24.961293+05:30
Gulbarga,Karnataka,17.3297,76.8343,33.6,39,0.0,953.5,8.7,49.3,52,39.1,14.6,1.5,118.0,80.0,1.7,0,5,7,1,2026-07-12T16:42:24.961299+05:30
Bidar,Karnataka,17.9104,77.5199,30.9,48,0.0,930.8,8.95,50.4,56,40.0,17.0,2.2,126.0,80.0,1.7,0,5,7,1,2026-07-12T16:42:24.961306+05:30
Hospet,Karnataka,15.2689,76.3909,32.6,42,0.0,952.0,8.55,51.8,40,27.6,10.9,1.5,107.0,66.0,1.7,0,5,7,1,2026-07-12T16:42:24.961312+05:30
Tirupur,Tamil Nadu,11.1085,77.3411,32.0,55,0.0,970.9,8.3,64.1,58,29.2,11.5,1.9,117.0,79.0,2.2,0,5,7,1,2026-07-12T16:42:24.961319+05:30
Alappuzha,Kerala,9.4981,76.3388,28.8,77,0.0,1007.4,7.8,43.9,45,17.2,8.5,2.3,84.0,58.0,1.7,7,5,4,1,2026-07-12T16:42:24.961325+05:30
Munnar,Kerala,10.0889,77.0595,19.3,91,0.0,855.7,7.95,38.9,34,17.6,8.0,1.1,98.0,64.0,1.3,3,10,7,1,2026-07-12T16:42:24.961333+05:30
Silchar,Assam,24.8333,92.7789,29.2,85,0.2,993.4,6.05,30.6,68,36.0,20.0,3.0,240.0,94.0,5.2,10,5,7,1,2026-07-12T16:42:24.961339+05:30
Dibrugarh,Assam,27.4728,94.912,29.1,95,0.3,983.6,1.95,24.5,68,9.9,9.7,4.7,273.0,107.0,2.3,10,5,3,1,2026-07-12T16:42:24.961346+05:30
