city,state,latitude,longitude,temp,humidity,rain,pressure,uv_index,wind_gusts,aqi,pm10,pm2_5,mosquito_risk,arthritis_risk,migraine_risk,frizz_risk,updated_at
Delhi,Delhi,28.6139,77.209,31.1,37,0.0,986.1,5.4,28.4,152,88.5,23.7,0,5,3,0,2026-03-31T12:50:26.232427+05:30
Mumbai,Maharashtra,19.076,72.8777,27.9,78,0.0,1009.9,8.0,25.2,67,39.0,26.6,7,0,4,1,2026-03-31T12:50:26.232472+05:30
Bangalore,Karnataka,12.9716,77.5946,31.9,36,0.0,913.0,9.55,24.8,88,31.5,23.9,0,5,7,0,2026-03-31T12:50:26.232488+05:30
Hyderabad,Telangana,17.385,78.4867,32.4,47,0.0,955.2,9.05,37.4,105,37.7,31.2,0,5,7,1,2026-03-31T12:50:26.232499+05:30
Chennai,Tamil Nadu,13.0827,80.2707,33.6,51,0.0,1008.3,9.25,30.2,49,16.7,12.8,0,0,4,1,2026-03-31T12:50:26.232507+05:30
Kolkata,West Bengal,22.5726,88.3639,32.0,66,0.0,1007.7,7.6,27.0,88,36.7,31.2,3,5,4,1,2026-03-31T12:50:26.232516+05:30
Pune,Maharashtra,18.5204,73.8567,35.0,33,0.0,949.9,8.55,31.0,91,34.7,25.0,0,5,7,1,2026-03-31T12:50:26.232528+05:30
Ahmedabad,Gujarat,23.0225,72.5714,34.8,38,0.0,1003.5,7.8,27.4,68,38.8,19.4,0,5,4,1,2026-03-31T12:50:26.232535+05:30
Jaipur,Rajasthan,26.9124,75.7873,26.2,56,0.0,963.9,7.45,50.4,67,116.2,18.9,4,5,7,1,2026-03-31T12:50:26.232543+05:30
Lucknow,Uttar Pradesh,26.8467,80.9462,35.6,26,0.0,995.2,7.3,27.0,152,93.1,28.2,0,5,10,0,2026-03-31T12:50:26.232550+05:30
Kanpur,Uttar Pradesh,26.4499,80.3319,33.7,34,0.0,994.1,7.25,28.1,485,314.8,49.4,0,5,7,0,2026-03-31T12:50:26.232558+05:30
Chandigarh,Chandigarh,30.7333,76.7794,30.6,37,0.0,971.5,6.05,23.0,112,87.5,27.0,0,5,7,0,2026-03-31T12:50:26.232565+05:30
Srinagar,Jammu and Kashmir,34.0837,74.7973,15.4,63,0.0,845.3,7.65,16.9,72,23.3,9.7,3,5,7,0,2026-03-31T12:50:26.232572+05:30
Jammu,Jammu and Kashmir,32.7266,74.857,32.9,26,0.0,975.0,6.8,38.2,72,79.9,20.4,0,5,7,0,2026-03-31T12:50:26.232579+05:30
Amritsar,Punjab,31.634,74.8723,31.0,41,0.0,983.3,6.35,28.4,150,128.1,34.1,0,5,7,1,2026-03-31T12:50:26.232586+05:30
Ludhiana,Punjab,30.901,75.8573,31.4,36,0.0,981.3,6.35,20.2,334,172.3,44.4,0,5,7,0,2026-03-31T12:50:26.232593+05:30
Jalandhar,Punjab,31.326,75.5762,31.6,35,0.0,982.3,6.35,27.0,214,174.6,40.4,0,5,7,0,2026-03-31T12:50:26.232602+05:30
Dehradun,Uttarakhand,30.6284,78.0322,22.1,41,0.0,834.0,6.5,34.9,46,17.6,5.6,0,5,7,0,2026-03-31T12:50:26.232608+05:30
Shimla,Himachal Pradesh,31.1048,77.1734,19.5,51,0.0,788.5,6.5,32.4,56,27.2,9.0,0,5,7,0,2026-03-31T12:50:26.232615+05:30
Manali,Himachal Pradesh,32.2396,77.1887,22.5,23,0.0,823.2,9.0,35.6,53,4.0,2.3,0,5,7,0,2026-03-31T12:50:26.232622+05:30
Gurgaon,Haryana,28.4595,77.0266,30.2,43,0.0,984.8,5.95,27.0,567,380.0,54.7,0,5,3,1,2026-03-31T12:50:26.232628+05:30
Noida,Uttar Pradesh,28.5355,77.391,31.6,35,0.0,987.6,5.7,27.0,567,380.0,54.7,0,5,3,0,2026-03-31T12:50:26.232635+05:30
Ghaziabad,Uttar Pradesh,28.6692,77.4538,31.4,37,0.0,985.7,5.6,25.2,145,66.6,19.9,0,5,3,0,2026-03-31T12:50:26.232641+05:30
Faridabad,Haryana,28.4089,77.3178,31.2,37,0.0,987.1,5.95,29.5,567,380.0,54.7,0,5,3,0,2026-03-31T12:50:26.232648+05:30
Meerut,Uttar Pradesh,28.9845,77.7064,32.1,33,0.0,984.3,5.8,28.1,145,66.6,19.9,0,5,3,0,2026-03-31T12:50:26.232655+05:30
Agra,Uttar Pradesh,27.1767,78.0081,35.0,27,0.0,990.5,7.15,31.7,550,369.7,41.7,0,5,7,0,2026-03-31T12:50:26.232663+05:30
Varanasi,Uttar Pradesh,25.3176,82.9739,36.5,31,0.0,998.8,7.65,29.9,127,231.0,65.2,0,5,10,1,2026-03-31T12:50:26.232673+05:30
Prayagraj,Uttar Pradesh,25.4358,81.8463,36.5,28,0.0,997.7,7.8,26.6,137,163.4,53.9,0,5,10,0,2026-03-31T12:50:26.232680+05:30
Gorakhpur,Uttar Pradesh,26.7606,83.3732,32.8,50,0.0,999.0,7.45,22.0,158,96.4,46.1,0,5,7,1,2026-03-31T12:50:26.232687+05:30
Bareilly,Uttar Pradesh,28.367,79.4304,33.8,31,0.0,988.8,6.4,32.0,104,38.9,15.9,0,5,7,0,2026-03-31T12:50:26.232694+05:30
Aligarh,Uttar Pradesh,27.8974,78.088,32.8,32,0.0,988.4,6.45,36.7,577,204.0,37.5,0,5,7,0,2026-03-31T12:50:26.232703+05:30
Moradabad,Uttar Pradesh,28.8386,78.7733,33.1,31,0.0,986.0,6.3,29.9,116,57.3,21.2,0,5,7,0,2026-03-31T12:50:26.232709+05:30
Saharanpur,Uttar Pradesh,29.9637,77.546,31.4,36,0.0,978.4,5.7,26.3,153,88.2,28.3,0,5,3,0,2026-03-31T12:50:26.232715+05:30
Jhansi,Uttar Pradesh,25.4484,78.5685,36.5,25,0.0,980.3,7.75,32.8,55,35.9,14.5,0,5,10,0,2026-03-31T12:50:29.592831+05:30
Surat,Gujarat,21.1702,72.8311,31.2,62,0.0,1008.8,7.8,28.8,88,50.6,36.1,3,0,4,1,2026-03-31T12:50:29.592866+05:30
Vadodara,Gujarat,22.3072,73.1812,36.1,37,0.0,1005.7,8.0,28.4,87,40.2,28.2,0,5,7,1,2026-03-31T12:50:29.592878+05:30
Rajkot,Gujarat,22.3039,70.8022,33.5,40,0.0,996.1,7.75,40.0,57,56.0,20.3,0,5,7,1,2026-03-31T12:50:29.592889+05:30
Thane,Maharashtra,19.2183,72.9781,32.2,56,0.0,1009.4,8.05,37.4,67,39.0,26.6,0,0,4,1,2026-03-31T12:50:29.592897+05:30
Nagpur,Maharashtra,21.1458,79.0882,34.6,35,0.0,975.6,8.3,20.2,61,28.6,17.6,0,5,7,1,2026-03-31T12:50:29.592905+05:30
Nashik,Maharashtra,19.9975,73.7898,32.5,42,0.0,947.4,8.25,29.5,66,29.3,16.7,0,5,7,1,2026-03-31T12:50:29.592912+05:30
Aurangabad,Maharashtra,19.8762,75.3433,33.7,36,0.0,946.3,8.75,22.7,64,29.0,21.0,0,5,7,1,2026-03-31T12:50:29.592919+05:30
Solapur,Maharashtra,17.6599,75.9064,32.2,43,0.0,959.1,8.9,24.8,91,43.5,33.1,0,5,7,1,2026-03-31T12:50:29.592927+05:30
Kolhapur,Maharashtra,16.705,74.2433,32.4,44,0.0,949.6,8.9,34.9,93,42.0,33.5,0,5,7,1,2026-03-31T12:50:29.592934+05:30
Goa,Goa,15.2993,74.124,33.0,54,0.0,998.8,9.0,32.8,75,37.7,25.0,0,5,7,1,2026-03-31T12:50:29.592941+05:30
Jodhpur,Rajasthan,26.2389,73.0243,33.0,36,0.0,984.8,7.7,36.4,72,74.7,15.7,0,5,7,0,2026-03-31T12:50:29.592949+05:30
Udaipur,Rajasthan,24.5854,73.7125,31.6,32,0.0,948.5,8.35,37.1,40,18.8,7.7,0,5,7,0,2026-03-31T12:50:29.592955+05:30
Kota,Rajasthan,25.2138,75.8648,36.7,28,0.0,980.5,7.8,42.5,54,32.2,16.9,0,5,10,0,2026-03-31T12:50:29.592962+05:30
Bikaner,Rajasthan,28.0229,73.3119,29.9,45,0.0,984.4,7.35,38.5,74,61.0,17.9,4,5,7,1,2026-03-31T12:50:29.592968+05:30
Ajmer,Rajasthan,26.4499,74.6399,31.0,42,0.0,957.2,7.7,37.1,43,33.4,9.7,0,5,7,1,2026-03-31T12:50:29.592975+05:30
Gwalior,Madhya Pradesh,26.2183,78.1828,36.3,26,0.0,985.7,7.45,26.3,53,12.1,5.5,0,5,10,0,2026-03-31T12:50:29.592981+05:30
Indore,Madhya Pradesh,22.7196,75.8577,34.5,31,0.0,950.3,8.3,26.3,50,20.4,12.0,0,5,7,0,2026-03-31T12:50:29.592988+05:30
Bhopal,Madhya Pradesh,23.2599,77.4126,36.1,25,0.0,956.1,8.25,26.6,50,22.9,11.3,0,5,10,0,2026-03-31T12:50:29.592994+05:30
Jabalpur,Madhya Pradesh,23.1815,79.9864,34.9,32,0.0,964.1,8.35,18.0,63,106.6,23.6,0,5,7,0,2026-03-31T12:50:29.593001+05:30
Ujjain,Madhya Pradesh,23.1765,75.7885,34.9,31,0.0,956.0,8.2,27.7,50,20.1,10.9,0,5,7,0,2026-03-31T12:50:29.593008+05:30
Visakhapatnam,Andhra Pradesh,17.6868,83.2185,34.7,46,0.0,1005.4,9.05,34.6,63,27.8,23.5,0,5,4,1,2026-03-31T12:50:29.593014+05:30
Vijayawada,Andhra Pradesh,16.5062,80.648,33.7,51,0.0,1004.3,9.05,23.8,63,25.0,20.3,0,5,4,1,2026-03-31T12:50:29.593022+05:30
Guntur,Andhra Pradesh,16.3067,80.4365,34.3,49,0.0,1005.2,9.1,27.7,63,25.4,20.5,0,5,4,1,2026-03-31T12:50:29.593028+05:30
Nellore,Andhra Pradesh,14.4426,79.9865,34.4,51,0.0,1006.8,9.2,30.2,55,21.9,18.4,0,5,4,1,2026-03-31T12:50:29.593036+05:30
Kurnool,Andhra Pradesh,15.8281,78.0373,35.3,40,0.0,977.9,9.1,31.7,84,31.2,25.7,0,5,10,1,2026-03-31T12:50:29.593043+05:30
Kakinada,Andhra Pradesh,16.9891,82.2475,35.2,45,0.0,1009.1,9.05,31.3,48,19.0,14.6,0,0,7,1,2026-03-31T12:50:29.593050+05:30
Tirupati,Andhra Pradesh,13.6288,79.4192,34.4,45,0.0,992.5,9.3,32.8,80,22.5,19.6,0,5,7,1,2026-03-31T12:50:29.593056+05:30
Warangal,Telangana,17.9689,79.5941,33.2,51,0.0,980.8,8.9,26.3,104,39.7,33.4,0,5,7,1,2026-03-31T12:50:29.593063+05:30
Nizamabad,Telangana,18.6725,78.0941,33.9,41,0.0,967.0,8.8,38.5,97,55.1,43.9,0,5,7,1,2026-03-31T12:50:29.593069+05:30
Mysore,Karnataka,12.2958,76.6396,30.8,46,0.0,929.5,9.5,30.6,109,35.2,29.6,0,5,7,1,2026-03-31T12:50:29.593076+05:30
Mangalore,Karnataka,12.9141,74.856,29.5,80,0.0,1006.7,8.8,27.0,95,27.0,20.8,7,5,4,1,2026-03-31T12:50:29.593082+05:30
Hubli-Dharwad,Karnataka,15.3647,75.124,33.9,37,0.0,942.2,9.05,27.4,76,40.9,33.2,0,5,7,1,2026-03-31T12:50:29.593089+05:30
Belgaum,Karnataka,15.8497,74.4977,31.5,42,0.0,927.5,9.1,36.4,78,44.2,34.9,0,5,7,1,2026-03-31T12:50:32.949963+05:30
Coimbatore,Tamil Nadu,11.0168,76.9558,34.0,40,0.0,962.3,9.5,38.2,89,14.4,10.9,0,5,7,1,2026-03-31T12:50:32.949997+05:30
Madurai,Tamil Nadu,9.9252,78.1198,35.3,36,0.0,993.2,9.25,31.0,69,15.5,13.6,0,5,10,1,2026-03-31T12:50:32.950010+05:30
Trichy,Tamil Nadu,10.7905,78.7047,34.5,45,0.0,1000.2,9.35,24.1,61,13.4,11.6,0,5,4,1,2026-03-31T12:50:32.950020+05:30
Salem,Tamil Nadu,11.6643,78.146,35.2,41,0.0,977.7,9.45,31.0,67,19.7,15.6,0,5,10,1,2026-03-31T12:50:32.950029+05:30
Tirunelveli,Tamil Nadu,8.7139,77.7567,36.1,37,0.0,1002.7,8.65,43.6,79,20.8,18.5,0,5,7,1,2026-03-31T12:50:32.950038+05:30
Vellore,Tamil Nadu,12.9165,79.1325,34.5,42,0.0,985.4,9.35,32.4,99,27.4,25.0,0,5,7,1,2026-03-31T12:50:32.950046+05:30
Erode,Tamil Nadu,11.341,77.7172,35.6,41,0.0,989.2,9.4,29.2,57,12.2,10.2,0,5,10,1,2026-03-31T12:50:32.950055+05:30
Kochi,Kerala,9.9312,76.2673,29.3,79,0.0,1008.2,9.2,27.7,111,38.2,33.9,7,0,4,1,2026-03-31T12:50:32.950063+05:30
Thiruvananthapuram,Kerala,8.5241,76.9366,29.1,76,0.0,1007.6,9.05,24.5,82,29.7,25.6,7,5,4,1,2026-03-31T12:50:32.950071+05:30
Kozhikode,Kerala,11.2588,75.7804,30.9,72,0.0,1007.5,8.95,27.7,113,45.5,38.8,3,5,4,1,2026-03-31T12:50:32.950079+05:30
Thrissur,Kerala,10.5276,76.2144,35.1,50,0.0,1006.4,8.7,37.4,133,31.8,27.8,0,5,7,1,2026-03-31T12:50:32.950088+05:30
Kannur,Kerala,11.8745,75.3704,32.2,64,0.0,1007.0,8.75,30.2,116,39.9,33.4,3,5,4,1,2026-03-31T12:50:32.950096+05:30
Patna,Bihar,25.5941,85.1376,31.9,59,0.0,1002.1,8.0,28.1,166,102.0,70.1,0,5,4,1,2026-03-31T12:50:32.950103+05:30
Gaya,Bihar,24.7914,85.0002,35.3,37,0.0,995.0,8.2,20.9,132,82.4,33.9,0,5,10,1,2026-03-31T12:50:32.950111+05:30
Muzaffarpur,Bihar,26.1209,85.3647,31.2,59,0.0,1002.4,7.8,26.6,172,109.0,81.7,0,5,4,1,2026-03-31T12:50:32.950119+05:30
Bhagalpur,Bihar,25.2425,87.0117,30.7,62,0.0,1003.3,8.15,21.6,164,92.9,75.7,3,5,4,1,2026-03-31T12:50:32.950127+05:30
Ranchi,Jharkhand,23.3441,85.3096,32.8,37,0.0,940.0,8.45,27.0,127,49.4,26.9,0,5,7,1,2026-03-31T12:50:32.950135+05:30
Jamshedpur,Jharkhand,22.8046,86.2029,35.4,43,0.0,991.9,8.65,27.4,152,72.9,59.8,0,5,10,1,2026-03-31T12:50:32.950143+05:30
Dhanbad,Jharkhand,23.7957,86.4304,34.6,40,0.0,981.1,8.55,30.2,171,82.2,60.5,0,5,7,1,2026-03-31T12:50:32.950181+05:30
Bokaro,Jharkhand,23.6693,86.1511,34.4,43,0.0,985.1,8.55,31.7,168,77.1,52.0,0,5,7,1,2026-03-31T12:50:32.950191+05:30
Bhubaneswar,Odisha,20.2961,85.8245,34.4,52,0.0,1003.8,8.85,26.6,64,41.7,35.4,0,5,4,1,2026-03-31T12:50:32.950199+05:30
Cuttack,Odisha,20.4625,85.8828,34.1,53,0.0,1005.8,8.9,30.6,64,41.7,35.4,0,5,4,1,2026-03-31T12:50:32.950208+05:30
Rourkela,Odisha,22.2604,84.8536,36.2,37,0.0,986.2,8.3,47.9,113,52.6,36.8,0,5,10,1,2026-03-31T12:50:32.950215+05:30
Raipur,Chhattisgarh,21.2514,81.6296,34.4,32,0.0,976.5,7.0,33.1,112,149.9,44.4,0,5,7,0,2026-03-31T12:50:32.950223+05:30
Bhilai,Chhattisgarh,21.1938,81.3509,34.0,35,0.0,976.7,8.35,29.2,91,106.6,30.4,0,5,7,1,2026-03-31T12:50:32.950230+05:30
Guwahati,Assam,26.1158,91.7086,28.0,69,0.0,1004.1,8.0,22.7,133,51.2,37.4,7,5,4,1,2026-03-31T12:50:32.950237+05:30
Agartala,Tripura,23.8315,91.2868,27.9,79,0.0,1008.7,8.3,20.2,113,29.3,25.7,7,0,4,1,2026-03-31T12:50:32.950244+05:30
Shillong,Meghalaya,25.5788,91.8933,18.3,77,0.0,858.7,8.35,37.4,116,39.5,26.9,3,5,7,0,2026-03-31T12:50:32.950250+05:30
Imphal,Manipur,24.817,93.9368,19.6,88,0.0,925.3,8.6,55.1,74,18.3,13.3,3,10,7,1,2026-03-31T12:50:32.950258+05:30
Aizawl,Mizoram,23.7271,92.7176,23.2,74,0.0,895.5,8.55,40.7,123,46.4,35.6,3,5,7,1,2026-03-31T12:50:32.950264+05:30
Kohima,Nagaland,25.6701,94.1077,19.1,78,0.0,857.6,8.45,66.6,76,28.8,18.3,3,5,7,0,2026-03-31T12:50:32.950271+05:30
Gangtok,Sikkim,27.3314,88.6138,19.2,74,0.0,840.1,8.15,16.6,134,26.1,19.9,3,5,7,0,2026-03-31T12:50:32.950277+05:30
Siliguri,West Bengal,26.7271,88.3953,23.2,72,0.0,996.9,7.5,20.5,164,61.9,46.1,3,5,7,1,2026-03-31T12:50:36.307241+05:30
Durgapur,West Bengal,23.5204,87.3119,33.9,52,0.0,996.4,8.5,20.9,160,94.5,84.8,0,5,7,1,2026-03-31T12:50:36.307276+05:30
Asansol,West Bengal,23.6739,86.9524,33.9,51,0.0,994.8,8.5,26.6,160,90.1,73.6,0,5,7,1,2026-03-31T12:50:36.307288+05:30
Pondicherry,Puducherry,11.9139,79.8145,33.5,55,0.0,1009.0,9.25,26.3,44,14.9,10.7,0,0,4,1,2026-03-31T12:50:36.307298+05:30
Port Blair,Andaman and Nicobar Islands,11.6234,92.7265,28.9,75,0.0,1007.6,9.15,12.6,52,17.1,14.6,7,5,4,1,2026-03-31T12:50:36.307307+05:30
Haridwar,Uttarakhand,29.9457,78.1642,32.5,33,0.0,976.8,6.0,30.6,100,59.1,19.0,0,5,3,0,2026-03-31T12:50:36.307316+05:30
Rishikesh,Uttarakhand,30.0869,78.2676,32.1,30,0.0,969.5,6.1,28.4,72,38.2,12.1,0,5,7,0,2026-03-31T12:50:36.307325+05:30
Nainital,Uttarakhand,29.3919,79.4542,26.1,37,0.0,811.1,7.4,43.6,78,30.9,11.3,4,5,7,0,2026-03-31T12:50:36.307333+05:30
Mussoorie,Uttarakhand,30.4599,78.0664,23.0,38,0.0,807.2,6.4,34.6,71,33.1,11.3,0,5,7,0,2026-03-31T12:50:36.307341+05:30
Dharamshala,Himachal Pradesh,32.219,76.3234,24.7,47,0.0,872.4,6.65,22.7,41,12.4,4.0,0,5,7,0,2026-03-31T12:50:36.307349+05:30
Dalhousie,Himachal Pradesh,32.5387,75.971,22.6,39,0.0,807.6,6.95,27.4,70,54.7,14.0,0,5,7,0,2026-03-31T12:50:36.307358+05:30
Patiala,Punjab,30.3398,76.3869,31.2,35,0.0,980.9,5.3,24.1,454,258.9,49.6,0,5,3,0,2026-03-31T12:50:36.307366+05:30
Bhatinda,Punjab,30.211,74.9455,29.9,43,0.0,986.5,6.15,34.9,117,109.2,29.7,4,5,7,0,2026-03-31T12:50:36.307374+05:30
Rohtak,Haryana,28.8955,76.6066,28.1,53,0.0,985.1,6.2,28.1,162,112.7,23.5,4,5,7,1,2026-03-31T12:50:36.307382+05:30
Panipat,Haryana,29.3909,76.9635,30.4,40,0.0,983.5,5.25,24.1,286,215.1,31.1,0,5,3,0,2026-03-31T12:50:36.307390+05:30
Mathura,Uttar Pradesh,27.4924,77.6737,32.2,38,0.0,990.4,6.9,30.6,292,210.9,31.8,0,5,7,1,2026-03-31T12:50:36.307397+05:30
Vrindavan,Uttar Pradesh,27.5823,77.7027,32.8,36,0.0,990.5,6.8,35.6,292,210.9,31.8,0,5,7,0,2026-03-31T12:50:36.307405+05:30
Ayodhya,Uttar Pradesh,26.7922,82.1998,35.3,35,0.0,996.9,7.15,30.6,127,86.6,32.4,0,5,10,1,2026-03-31T12:50:36.307413+05:30
Ratlam,Madhya Pradesh,23.3315,75.0367,34.2,35,0.0,956.8,8.1,29.2,46,17.9,9.8,0,5,7,1,2026-03-31T12:50:36.307420+05:30
Sagar,Madhya Pradesh,23.8388,78.7378,35.9,24,0.0,952.8,8.2,23.8,54,65.2,16.3,0,5,10,0,2026-03-31T12:50:36.307428+05:30
Satna,Madhya Pradesh,24.6005,80.8322,36.4,24,0.0,973.8,8.2,23.8,134,162.1,34.8,0,5,10,0,2026-03-31T12:50:36.307436+05:30
Akola,Maharashtra,20.7002,77.0082,36.5,31,0.0,977.3,8.55,18.0,70,28.8,21.3,0,5,10,1,2026-03-31T12:50:36.307445+05:30
Amravati,Maharashtra,20.9374,77.7796,36.0,33,0.0,969.7,8.55,17.3,66,27.1,19.8,0,5,10,1,2026-03-31T12:50:36.307453+05:30
Latur,Maharashtra,18.4088,76.5604,32.7,39,0.0,942.2,8.85,29.2,87,47.6,36.3,0,5,7,1,2026-03-31T12:50:36.307461+05:30
Nanded,Maharashtra,19.1383,77.3091,35.2,37,0.0,970.9,8.7,26.3,79,50.1,38.6,0,5,10,1,2026-03-31T12:50:36.307469+05:30
Gulbarga,Karnataka,17.3297,76.8343,34.6,37,0.0,960.5,8.95,40.7,113,49.9,40.4,0,5,7,1,2026-03-31T12:50:36.307476+05:30
Bidar,Karnataka,17.9104,77.5199,33.1,40,0.0,937.7,8.95,40.3,110,49.2,39.5,0,5,7,1,2026-03-31T12:50:36.307484+05:30
Hospet,Karnataka,15.2689,76.3909,32.7,49,0.0,956.8,8.8,21.6,94,50.3,43.9,0,5,7,1,2026-03-31T12:50:36.307491+05:30
Tirupur,Tamil Nadu,11.1085,77.3411,34.5,42,0.0,975.8,9.5,28.1,73,13.3,11.1,0,5,7,1,2026-03-31T12:50:36.307498+05:30
Alappuzha,Kerala,9.4981,76.3388,28.9,81,0.0,1008.4,9.2,25.9,109,44.1,39.9,7,0,4,1,2026-03-31T12:50:36.307506+05:30
Munnar,Kerala,10.0889,77.0595,30.6,39,0.0,859.5,9.75,28.4,79,14.1,11.2,0,5,7,0,2026-03-31T12:50:36.307514+05:30
Silchar,Assam,24.8333,92.7789,24.4,87,0.0,1008.4,8.35,23.4,94,27.2,22.1,3,0,4,1,2026-03-31T12:50:36.307522+05:30
Dibrugarh,Assam,27.4728,94.912,26.7,66,0.0,997.7,8.15,13.7,95,35.5,24.0,7,5,7,1,2026-03-31T12:50:36.307530+05:30
