city,state,latitude,longitude,temp,humidity,rain,pressure,uv_index,wind_gusts,aqi,pm10,pm2_5,mosquito_risk,arthritis_risk,migraine_risk,frizz_risk,updated_at
Delhi,Delhi,28.6139,77.209,22.8,72,0.0,985.0,6.7,15.5,152,150.4,53.6,3,5,7,1,2026-04-02T00:45:10.974809+05:30
Mumbai,Maharashtra,19.076,72.8777,27.4,75,0.0,1009.3,6.5,21.6,63,26.4,17.4,7,0,4,1,2026-04-02T00:45:10.974845+05:30
Bangalore,Karnataka,12.9716,77.5946,23.0,65,0.0,912.3,9.6,23.8,69,15.8,14.0,3,5,7,1,2026-04-02T00:45:10.974861+05:30
Hyderabad,Telangana,17.385,78.4867,25.5,72,0.0,954.5,9.15,19.8,93,25.4,22.7,7,5,7,1,2026-04-02T00:45:10.974872+05:30
Chennai,Tamil Nadu,13.0827,80.2707,26.5,78,0.0,1009.0,9.3,31.0,39,11.6,8.8,7,0,4,1,2026-04-02T00:45:10.974899+05:30
Kolkata,West Bengal,22.5726,88.3639,26.2,94,0.0,1006.8,8.6,24.1,100,26.8,23.2,7,5,4,1,2026-04-02T00:45:10.974911+05:30
Pune,Maharashtra,18.5204,73.8567,25.3,90,0.0,949.1,8.5,23.8,106,57.0,50.6,7,5,7,1,2026-04-02T00:45:10.974923+05:30
Ahmedabad,Gujarat,23.0225,72.5714,26.9,44,0.0,1002.8,7.7,30.2,59,23.5,17.2,4,5,4,0,2026-04-02T00:45:10.974932+05:30
Jaipur,Rajasthan,26.9124,75.7873,24.7,62,0.0,960.8,7.5,26.3,111,269.2,44.2,3,5,7,1,2026-04-02T00:45:10.974939+05:30
Lucknow,Uttar Pradesh,26.8467,80.9462,25.7,58,0.0,994.5,7.3,32.0,85,139.7,34.7,4,5,7,1,2026-04-02T00:45:10.974950+05:30
Kanpur,Uttar Pradesh,26.4499,80.3319,26.0,57,0.0,992.7,7.2,25.2,115,291.5,49.4,4,5,7,1,2026-04-02T00:45:10.974957+05:30
Chandigarh,Chandigarh,30.7333,76.7794,20.3,69,0.0,971.5,5.6,16.9,73,46.3,37.0,3,5,3,0,2026-04-02T00:45:10.974965+05:30
Srinagar,Jammu and Kashmir,34.0837,74.7973,9.6,76,0.0,841.6,6.75,18.7,97,82.7,67.3,3,5,7,0,2026-04-02T00:45:10.974972+05:30
Jammu,Jammu and Kashmir,32.7266,74.857,20.1,77,0.0,975.8,7.45,20.9,82,51.1,38.5,3,5,7,0,2026-04-02T00:45:10.974979+05:30
Amritsar,Punjab,31.634,74.8723,21.8,62,0.0,983.8,7.35,17.6,125,103.1,59.0,3,5,7,0,2026-04-02T00:45:10.974985+05:30
Ludhiana,Punjab,30.901,75.8573,22.0,63,0.0,981.5,6.9,15.8,123,108.5,83.1,3,5,7,0,2026-04-02T00:45:10.974991+05:30
Jalandhar,Punjab,31.326,75.5762,21.3,70,0.0,982.8,7.1,13.0,114,104.1,56.3,3,5,7,0,2026-04-02T00:45:10.975000+05:30
Dehradun,Uttarakhand,30.6284,78.0322,13.2,67,0.0,831.3,5.8,29.2,38,22.6,12.3,3,5,3,0,2026-04-02T00:45:10.975007+05:30
Shimla,Himachal Pradesh,31.1048,77.1734,11.6,67,0.0,785.0,4.75,29.5,51,33.3,21.8,3,5,3,0,2026-04-02T00:45:10.975014+05:30
Manali,Himachal Pradesh,32.2396,77.1887,13.4,70,0.0,820.7,8.2,21.2,62,14.6,10.3,3,5,7,0,2026-04-02T00:45:10.975021+05:30
Gurgaon,Haryana,28.4595,77.0266,20.8,81,0.0,983.3,6.25,16.2,355,282.2,84.8,3,5,7,1,2026-04-02T00:45:10.975028+05:30
Noida,Uttar Pradesh,28.5355,77.391,22.4,75,0.0,986.6,5.95,15.5,355,282.2,84.8,3,5,3,1,2026-04-02T00:45:10.975035+05:30
Ghaziabad,Uttar Pradesh,28.6692,77.4538,21.0,77,0.0,984.6,6.75,15.8,150,122.5,58.6,3,5,7,1,2026-04-02T00:45:10.975041+05:30
Faridabad,Haryana,28.4089,77.3178,21.0,76,0.0,985.7,5.85,17.6,355,282.2,84.8,3,5,3,1,2026-04-02T00:45:10.975048+05:30
Meerut,Uttar Pradesh,28.9845,77.7064,20.7,75,0.0,983.4,6.4,17.6,150,122.5,58.6,3,5,7,1,2026-04-02T00:45:10.975054+05:30
Agra,Uttar Pradesh,27.1767,78.0081,24.5,67,0.0,989.0,7.05,12.6,443,414.4,73.8,3,5,7,1,2026-04-02T00:45:10.975060+05:30
Varanasi,Uttar Pradesh,25.3176,82.9739,25.5,70,0.0,998.4,8.05,29.2,81,37.8,29.6,7,5,7,1,2026-04-02T00:45:10.975069+05:30
Prayagraj,Uttar Pradesh,25.4358,81.8463,26.6,64,0.0,997.2,7.75,21.2,67,59.5,31.0,7,5,7,1,2026-04-02T00:45:10.975078+05:30
Gorakhpur,Uttar Pradesh,26.7606,83.3732,24.3,61,0.0,997.7,7.85,40.7,100,69.4,25.3,3,5,7,1,2026-04-02T00:45:10.975085+05:30
Bareilly,Uttar Pradesh,28.367,79.4304,22.0,70,0.0,988.3,7.1,28.1,106,69.8,36.1,3,5,7,1,2026-04-02T00:45:10.975091+05:30
Aligarh,Uttar Pradesh,27.8974,78.088,24.1,54,0.0,987.3,6.7,25.2,288,321.3,77.1,0,5,7,0,2026-04-02T00:45:10.975098+05:30
Moradabad,Uttar Pradesh,28.8386,78.7733,21.2,67,0.0,985.2,6.85,25.6,114,45.9,33.2,3,5,7,0,2026-04-02T00:45:10.975104+05:30
Saharanpur,Uttar Pradesh,29.9637,77.546,19.7,76,0.0,978.2,6.5,21.2,96,99.9,55.4,3,5,7,0,2026-04-02T00:45:10.975110+05:30
Jhansi,Uttar Pradesh,25.4484,78.5685,26.2,65,0.0,979.3,7.05,15.5,67,52.9,28.0,7,5,7,1,2026-04-02T00:45:14.196314+05:30
Surat,Gujarat,21.1702,72.8311,26.1,82,0.0,1007.4,7.15,33.1,88,23.5,19.8,7,5,4,1,2026-04-02T00:45:14.196341+05:30
Vadodara,Gujarat,22.3072,73.1812,25.9,71,0.0,1004.9,7.65,37.8,68,28.2,23.5,7,5,4,1,2026-04-02T00:45:14.196350+05:30
Rajkot,Gujarat,22.3039,70.8022,23.8,68,0.0,995.4,6.75,53.6,77,25.9,13.9,3,5,7,1,2026-04-02T00:45:14.196357+05:30
Thane,Maharashtra,19.2183,72.9781,25.5,77,0.0,1008.7,7.15,33.5,63,26.4,17.4,7,0,4,1,2026-04-02T00:45:14.196364+05:30
Nagpur,Maharashtra,21.1458,79.0882,26.3,70,0.0,973.9,8.6,39.6,86,33.5,29.0,7,5,7,1,2026-04-02T00:45:14.196370+05:30
Nashik,Maharashtra,19.9975,73.7898,22.9,84,0.0,945.8,7.6,34.9,60,27.0,19.7,3,5,7,1,2026-04-02T00:45:14.196377+05:30
Aurangabad,Maharashtra,19.8762,75.3433,23.7,75,0.0,945.4,7.5,42.8,100,43.9,38.0,3,5,7,1,2026-04-02T00:45:14.196383+05:30
Solapur,Maharashtra,17.6599,75.9064,25.9,70,0.0,958.6,8.95,22.7,104,43.5,38.9,7,5,7,1,2026-04-02T00:45:14.196390+05:30
Kolhapur,Maharashtra,16.705,74.2433,23.3,95,0.0,948.5,8.85,33.5,129,53.7,50.1,3,5,7,1,2026-04-02T00:45:14.196396+05:30
Goa,Goa,15.2993,74.124,28.4,73,0.0,998.3,8.85,28.4,71,32.9,23.3,7,5,7,1,2026-04-02T00:45:14.196403+05:30
Jodhpur,Rajasthan,26.2389,73.0243,26.2,36,0.0,983.8,7.8,38.5,90,164.8,27.5,4,5,7,0,2026-04-02T00:45:14.196409+05:30
Udaipur,Rajasthan,24.5854,73.7125,24.8,46,0.0,947.5,8.2,37.1,53,27.2,14.6,0,5,7,0,2026-04-02T00:45:14.196416+05:30
Kota,Rajasthan,25.2138,75.8648,26.6,60,0.0,979.7,7.25,30.6,59,32.0,20.0,4,5,7,1,2026-04-02T00:45:14.196422+05:30
Bikaner,Rajasthan,28.0229,73.3119,25.5,49,0.0,982.5,7.55,28.4,51,44.7,15.3,4,5,7,0,2026-04-02T00:45:14.196428+05:30
Ajmer,Rajasthan,26.4499,74.6399,25.1,64,0.0,955.5,7.05,31.3,62,40.4,20.8,7,5,7,1,2026-04-02T00:45:14.196435+05:30
Gwalior,Madhya Pradesh,26.2183,78.1828,25.3,74,0.0,984.6,6.9,20.2,76,170.4,39.0,7,5,7,1,2026-04-02T00:45:14.196441+05:30
Indore,Madhya Pradesh,22.7196,75.8577,24.9,58,0.0,948.4,8.05,29.9,80,42.5,37.4,0,5,7,0,2026-04-02T00:45:14.196447+05:30
Bhopal,Madhya Pradesh,23.2599,77.4126,24.0,72,0.0,954.5,8.05,26.6,66,35.4,26.0,3,5,7,1,2026-04-02T00:45:14.196453+05:30
Jabalpur,Madhya Pradesh,23.1815,79.9864,24.2,71,0.0,962.9,7.95,26.3,64,38.9,31.8,3,5,7,1,2026-04-02T00:45:14.196459+05:30
Ujjain,Madhya Pradesh,23.1765,75.7885,24.6,57,0.0,954.0,8.2,30.6,76,29.9,27.4,0,5,7,0,2026-04-02T00:45:14.196465+05:30
Visakhapatnam,Andhra Pradesh,17.6868,83.2185,25.6,86,0.0,1005.9,9.05,36.0,65,17.9,15.2,7,5,4,1,2026-04-02T00:45:14.196472+05:30
Vijayawada,Andhra Pradesh,16.5062,80.648,25.5,84,0.0,1004.7,9.15,24.5,56,13.1,11.5,7,5,4,1,2026-04-02T00:45:14.196478+05:30
Guntur,Andhra Pradesh,16.3067,80.4365,25.2,88,0.0,1005.7,9.15,28.4,53,12.0,10.6,7,5,4,1,2026-04-02T00:45:14.196484+05:30
Nellore,Andhra Pradesh,14.4426,79.9865,25.3,85,0.0,1007.7,9.25,29.9,41,9.0,6.7,7,5,4,1,2026-04-02T00:45:14.196491+05:30
Kurnool,Andhra Pradesh,15.8281,78.0373,29.2,56,0.0,977.5,9.15,22.0,68,12.9,10.0,4,5,7,1,2026-04-02T00:45:14.196498+05:30
Kakinada,Andhra Pradesh,16.9891,82.2475,24.6,88,0.0,1009.7,9.05,30.6,49,11.4,8.6,3,0,4,1,2026-04-02T00:45:14.196504+05:30
Tirupati,Andhra Pradesh,13.6288,79.4192,23.6,80,0.0,993.7,9.35,32.8,56,14.7,12.9,3,5,7,1,2026-04-02T00:45:14.196510+05:30
Warangal,Telangana,17.9689,79.5941,27.4,64,0.0,980.3,9.0,25.9,92,21.2,19.6,7,5,7,1,2026-04-02T00:45:14.196516+05:30
Nizamabad,Telangana,18.6725,78.0941,25.8,73,0.0,965.3,8.9,34.2,123,39.3,36.1,7,5,7,1,2026-04-02T00:45:14.196521+05:30
Mysore,Karnataka,12.2958,76.6396,23.6,88,0.0,928.9,9.5,36.0,84,29.7,26.7,3,5,7,1,2026-04-02T00:45:14.196527+05:30
Mangalore,Karnataka,12.9141,74.856,29.3,81,0.0,1006.8,8.3,22.0,84,44.1,40.0,7,5,4,1,2026-04-02T00:45:14.196533+05:30
Hubli-Dharwad,Karnataka,15.3647,75.124,24.3,91,0.0,941.1,9.15,33.1,101,37.1,34.3,3,5,7,1,2026-04-02T00:45:14.196539+05:30
Belgaum,Karnataka,15.8497,74.4977,22.6,96,0.0,926.1,9.1,36.7,116,45.3,41.3,3,5,7,1,2026-04-02T00:45:17.416702+05:30
Coimbatore,Tamil Nadu,11.0168,76.9558,24.4,93,0.0,962.8,9.4,46.4,67,30.7,26.3,3,5,7,1,2026-04-02T00:45:17.416730+05:30
Madurai,Tamil Nadu,9.9252,78.1198,25.9,81,0.0,994.9,9.4,28.1,57,18.3,16.4,7,5,7,1,2026-04-02T00:45:17.416742+05:30
Trichy,Tamil Nadu,10.7905,78.7047,24.6,85,0.0,1001.6,9.4,16.6,57,13.6,12.1,3,5,4,1,2026-04-02T00:45:17.416750+05:30
Salem,Tamil Nadu,11.6643,78.146,25.9,76,0.0,978.4,9.45,13.0,76,25.8,23.6,7,5,7,1,2026-04-02T00:45:17.416759+05:30
Tirunelveli,Tamil Nadu,8.7139,77.7567,26.3,80,0.0,1004.8,9.25,46.1,50,19.6,17.8,7,5,4,1,2026-04-02T00:45:17.416767+05:30
Vellore,Tamil Nadu,12.9165,79.1325,23.9,75,0.0,986.5,9.3,28.1,60,21.0,19.4,3,5,7,1,2026-04-02T00:45:17.416774+05:30
Erode,Tamil Nadu,11.341,77.7172,27.1,73,0.0,990.2,9.15,20.9,57,16.1,15.1,7,5,7,1,2026-04-02T00:45:17.416782+05:30
Kochi,Kerala,9.9312,76.2673,28.6,81,0.0,1009.5,9.2,29.2,81,30.0,28.6,7,0,4,1,2026-04-02T00:45:17.416789+05:30
Thiruvananthapuram,Kerala,8.5241,76.9366,28.8,79,0.0,1008.9,9.15,25.9,79,17.1,12.6,7,0,4,1,2026-04-02T00:45:17.416798+05:30
Kozhikode,Kerala,11.2588,75.7804,28.9,82,0.0,1008.3,9.15,24.8,69,31.3,24.7,7,0,4,1,2026-04-02T00:45:17.416805+05:30
Thrissur,Kerala,10.5276,76.2144,27.9,88,0.0,1007.5,9.2,32.8,77,36.2,33.4,7,5,4,1,2026-04-02T00:45:17.416813+05:30
Kannur,Kerala,11.8745,75.3704,28.9,81,0.0,1007.3,9.1,24.1,90,44.8,41.6,7,5,4,1,2026-04-02T00:45:17.416820+05:30
Patna,Bihar,25.5941,85.1376,26.5,67,0.0,1000.8,8.25,34.9,154,31.5,26.4,7,5,4,1,2026-04-02T00:45:17.416827+05:30
Gaya,Bihar,24.7914,85.0002,28.1,58,0.0,994.7,8.35,27.7,90,44.6,30.0,4,5,7,1,2026-04-02T00:45:17.416834+05:30
Muzaffarpur,Bihar,26.1209,85.3647,24.1,66,0.0,1000.7,8.25,32.0,157,32.1,27.8,3,5,4,1,2026-04-02T00:45:17.416842+05:30
Bhagalpur,Bihar,25.2425,87.0117,25.5,79,0.0,1000.9,8.25,28.8,151,37.1,26.1,7,5,4,1,2026-04-02T00:45:17.416849+05:30
Ranchi,Jharkhand,23.3441,85.3096,25.2,54,0.0,939.1,8.9,32.4,88,51.7,26.4,4,5,7,0,2026-04-02T00:45:17.416856+05:30
Jamshedpur,Jharkhand,22.8046,86.2029,29.0,62,0.0,991.7,8.75,29.5,122,76.6,50.2,7,5,7,1,2026-04-02T00:45:17.416864+05:30
Dhanbad,Jharkhand,23.7957,86.4304,27.7,57,0.0,980.5,8.65,30.2,159,105.7,69.8,4,5,7,1,2026-04-02T00:45:17.416871+05:30
Bokaro,Jharkhand,23.6693,86.1511,27.9,54,0.0,984.8,8.65,32.8,151,102.2,67.5,4,5,7,1,2026-04-02T00:45:17.416878+05:30
Bhubaneswar,Odisha,20.2961,85.8245,25.9,90,0.0,1004.4,8.9,31.0,85,20.6,17.9,7,5,4,1,2026-04-02T00:45:17.416919+05:30
Cuttack,Odisha,20.4625,85.8828,25.6,93,0.0,1006.2,8.95,24.1,85,20.6,17.9,7,5,4,1,2026-04-02T00:45:17.416930+05:30
Rourkela,Odisha,22.2604,84.8536,27.3,69,0.0,985.9,8.65,26.6,134,92.7,51.7,7,5,7,1,2026-04-02T00:45:17.416937+05:30
Raipur,Chhattisgarh,21.2514,81.6296,27.4,60,0.0,976.0,8.75,29.2,138,64.5,57.2,4,5,7,1,2026-04-02T00:45:17.416944+05:30
Bhilai,Chhattisgarh,21.1938,81.3509,26.7,59,0.0,976.6,8.75,27.7,124,65.9,60.1,4,5,7,1,2026-04-02T00:45:17.416951+05:30
Guwahati,Assam,26.1158,91.7086,22.2,91,0.0,1002.3,8.15,37.4,93,39.6,35.6,3,5,4,1,2026-04-02T00:45:17.416958+05:30
Agartala,Tripura,23.8315,91.2868,24.5,94,0.0,1006.4,8.4,43.9,87,30.7,28.9,3,5,4,1,2026-04-02T00:45:17.416965+05:30
Shillong,Meghalaya,25.5788,91.8933,15.3,90,0.0,855.8,8.55,70.9,71,21.5,18.8,3,10,7,0,2026-04-02T00:45:17.416976+05:30
Imphal,Manipur,24.817,93.9368,18.3,88,0.0,923.9,8.75,83.9,96,51.9,43.1,3,10,7,1,2026-04-02T00:45:17.416986+05:30
Aizawl,Mizoram,23.7271,92.7176,18.9,87,0.0,893.1,8.6,52.9,87,41.4,34.3,3,10,7,1,2026-04-02T00:45:17.416994+05:30
Kohima,Nagaland,25.6701,94.1077,16.6,75,0.0,855.0,8.65,99.0,77,39.0,30.3,3,5,7,0,2026-04-02T00:45:17.417004+05:30
Gangtok,Sikkim,27.3314,88.6138,14.3,80,0.0,835.8,8.5,19.8,83,26.4,23.5,3,5,7,0,2026-04-02T00:45:17.417011+05:30
Siliguri,West Bengal,26.7271,88.3953,21.0,80,0.0,993.9,8.05,23.0,154,82.7,74.7,3,5,7,1,2026-04-02T00:45:20.642127+05:30
Durgapur,West Bengal,23.5204,87.3119,28.2,80,0.0,995.9,8.6,25.2,151,75.0,60.5,7,5,7,1,2026-04-02T00:45:20.642158+05:30
Asansol,West Bengal,23.6739,86.9524,28.8,72,0.0,994.1,8.6,24.8,151,71.0,48.4,7,5,7,1,2026-04-02T00:45:20.642171+05:30
Pondicherry,Puducherry,11.9139,79.8145,24.5,81,0.0,1010.4,9.25,27.7,36,10.7,7.9,3,0,4,1,2026-04-02T00:45:20.642180+05:30
Port Blair,Andaman and Nicobar Islands,11.6234,92.7265,28.4,80,0.0,1007.5,9.15,28.4,46,12.9,11.1,7,5,4,1,2026-04-02T00:45:20.642189+05:30
Haridwar,Uttarakhand,29.9457,78.1642,19.7,74,0.0,976.8,6.1,25.9,71,41.7,29.6,3,5,7,0,2026-04-02T00:45:20.642197+05:30
Rishikesh,Uttarakhand,30.0869,78.2676,18.9,67,0.0,969.6,5.9,29.2,56,39.0,19.9,3,5,3,0,2026-04-02T00:45:20.642205+05:30
Nainital,Uttarakhand,29.3919,79.4542,18.1,45,0.0,807.4,7.65,36.4,64,30.9,19.3,0,5,7,0,2026-04-02T00:45:20.642213+05:30
Mussoorie,Uttarakhand,30.4599,78.0664,15.5,51,0.0,804.2,5.85,34.9,61,47.0,27.5,0,5,3,0,2026-04-02T00:45:20.642221+05:30
Dharamshala,Himachal Pradesh,32.219,76.3234,18.9,43,0.0,871.2,7.35,21.2,44,23.1,13.0,0,5,7,0,2026-04-02T00:45:20.642229+05:30
Dalhousie,Himachal Pradesh,32.5387,75.971,14.9,55,0.0,804.9,7.1,20.2,59,38.1,30.4,0,5,7,0,2026-04-02T00:45:20.642238+05:30
Patiala,Punjab,30.3398,76.3869,20.9,68,0.0,980.9,6.6,15.5,115,99.0,76.1,3,5,7,0,2026-04-02T00:45:20.642246+05:30
Bhatinda,Punjab,30.211,74.9455,22.3,69,0.0,986.3,7.35,23.8,112,244.0,61.7,3,5,7,1,2026-04-02T00:45:20.642254+05:30
Rohtak,Haryana,28.8955,76.6066,21.1,77,0.0,983.6,6.65,13.7,159,197.0,59.8,3,5,7,1,2026-04-02T00:45:20.642262+05:30
Panipat,Haryana,29.3909,76.9635,20.5,76,0.0,982.4,6.7,12.2,143,168.6,58.7,3,5,7,1,2026-04-02T00:45:20.642270+05:30
Mathura,Uttar Pradesh,27.4924,77.6737,23.3,71,0.0,988.4,7.1,18.0,302,238.0,66.6,3,5,7,1,2026-04-02T00:45:20.642277+05:30
Vrindavan,Uttar Pradesh,27.5823,77.7027,21.5,81,0.0,988.9,6.95,16.9,302,238.0,66.6,3,5,7,1,2026-04-02T00:45:20.642286+05:30
Ayodhya,Uttar Pradesh,26.7922,82.1998,24.5,65,0.0,996.1,7.65,36.4,77,116.2,31.7,3,5,7,1,2026-04-02T00:45:20.642293+05:30
Ratlam,Madhya Pradesh,23.3315,75.0367,27.0,51,0.0,955.0,8.15,32.8,71,24.5,21.0,4,5,7,0,2026-04-02T00:45:20.642302+05:30
Sagar,Madhya Pradesh,23.8388,78.7378,24.3,63,0.0,952.2,7.35,28.8,57,30.4,21.4,3,5,7,1,2026-04-02T00:45:20.642309+05:30
Satna,Madhya Pradesh,24.6005,80.8322,26.6,61,0.0,972.8,7.85,25.6,58,33.6,19.7,7,5,7,1,2026-04-02T00:45:20.642317+05:30
Akola,Maharashtra,20.7002,77.0082,25.2,77,0.0,976.4,8.6,22.7,85,35.4,29.9,7,5,7,1,2026-04-02T00:45:20.642326+05:30
Amravati,Maharashtra,20.9374,77.7796,25.1,78,0.0,968.4,8.5,29.2,81,31.9,26.8,7,5,7,1,2026-04-02T00:45:20.642335+05:30
Latur,Maharashtra,18.4088,76.5604,24.4,72,0.0,941.3,8.9,29.2,104,41.6,37.0,3,5,7,1,2026-04-02T00:45:20.642343+05:30
Nanded,Maharashtra,19.1383,77.3091,25.5,76,0.0,969.6,8.8,27.7,109,34.3,31.2,7,5,7,1,2026-04-02T00:45:20.642351+05:30
Gulbarga,Karnataka,17.3297,76.8343,25.9,74,0.0,959.3,9.0,52.6,94,35.2,31.8,7,5,7,1,2026-04-02T00:45:20.642358+05:30
Bidar,Karnataka,17.9104,77.5199,24.9,75,0.0,936.2,9.0,42.5,104,43.1,39.5,3,5,7,1,2026-04-02T00:45:20.642366+05:30
Hospet,Karnataka,15.2689,76.3909,27.9,72,0.0,956.8,9.2,35.3,110,41.4,37.1,7,5,7,1,2026-04-02T00:45:20.642374+05:30
Tirupur,Tamil Nadu,11.1085,77.3411,27.1,69,0.0,976.5,9.15,28.4,61,24.0,21.2,7,5,7,1,2026-04-02T00:45:20.642381+05:30
Alappuzha,Kerala,9.4981,76.3388,28.0,81,0.0,1009.8,9.2,28.4,73,23.7,19.5,7,0,4,1,2026-04-02T00:45:20.642389+05:30
Munnar,Kerala,10.0889,77.0595,19.2,73,0.0,856.9,9.75,32.0,67,35.4,30.5,3,5,7,0,2026-04-02T00:45:20.642397+05:30
Silchar,Assam,24.8333,92.7789,22.6,88,0.0,1006.8,8.45,31.3,113,56.6,49.5,3,5,4,1,2026-04-02T00:45:20.642404+05:30
Dibrugarh,Assam,27.4728,94.912,21.7,87,0.0,996.3,6.9,22.0,101,33.1,27.2,3,5,7,1,2026-04-02T00:45:20.642412+05:30
