city,state,latitude,longitude,temp,humidity,rain,pressure,uv_index,wind_gusts,aqi,pm10,pm2_5,no2,co,o3,so2,mosquito_risk,arthritis_risk,migraine_risk,frizz_risk,updated_at
Delhi,Delhi,28.6139,77.209,33.7,40,0.0,978.2,7.65,51.5,215,407.0,82.7,31.4,735.0,155.0,34.3,0,5,7,1,2026-05-12T18:35:36.244463+05:30
Mumbai,Maharashtra,19.076,72.8777,31.0,73,0.0,1002.0,7.9,47.5,139,39.1,17.6,9.7,284.0,87.0,8.1,3,5,4,1,2026-05-12T18:35:36.244516+05:30
Bangalore,Karnataka,12.9716,77.5946,30.0,41,0.0,908.8,8.95,43.6,129,29.4,20.6,20.0,354.0,112.0,5.9,4,5,7,0,2026-05-12T18:35:36.244532+05:30
Hyderabad,Telangana,17.385,78.4867,32.2,48,0.0,949.6,8.7,29.5,122,46.4,23.5,9.8,335.0,139.0,6.8,0,5,7,1,2026-05-12T18:35:36.244542+05:30
Chennai,Tamil Nadu,13.0827,80.2707,30.1,72,0.0,1003.1,9.2,43.9,26,7.3,5.0,4.2,146.0,37.0,3.6,3,5,4,1,2026-05-12T18:35:36.244550+05:30
Kolkata,West Bengal,22.5726,88.3639,28.9,72,0.0,1004.0,8.95,31.0,78,28.7,24.7,12.3,334.0,54.0,8.7,7,5,4,1,2026-05-12T18:35:36.244558+05:30
Pune,Maharashtra,18.5204,73.8567,32.9,47,0.0,942.9,8.5,56.5,143,35.6,22.1,6.4,298.0,159.0,11.4,0,5,7,1,2026-05-12T18:35:36.244566+05:30
Ahmedabad,Gujarat,23.0225,72.5714,42.4,15,0.0,995.0,8.15,30.2,98,34.2,16.4,13.3,235.0,119.0,6.5,0,5,10,0,2026-05-12T18:35:36.244576+05:30
Jaipur,Rajasthan,26.9124,75.7873,39.6,13,0.0,954.6,8.2,51.5,143,294.3,41.6,6.3,179.0,116.0,2.9,0,5,10,0,2026-05-12T18:35:36.244583+05:30
Lucknow,Uttar Pradesh,26.8467,80.9462,34.8,35,0.0,989.0,8.15,25.2,198,85.9,52.7,8.7,415.0,166.0,12.2,0,5,7,1,2026-05-12T18:35:36.244590+05:30
Kanpur,Uttar Pradesh,26.4499,80.3319,36.2,31,0.0,986.9,8.15,28.8,198,148.5,51.3,6.1,389.0,176.0,11.0,0,5,10,1,2026-05-12T18:35:36.244596+05:30
Chandigarh,Chandigarh,30.7333,76.7794,31.1,52,0.0,965.1,7.65,43.2,173,88.7,40.9,10.3,977.0,163.0,14.5,0,5,7,1,2026-05-12T18:35:36.244603+05:30
Srinagar,Jammu and Kashmir,34.0837,74.7973,16.0,77,0.1,841.6,8.85,28.1,95,44.1,22.6,8.3,625.0,114.0,1.9,6,5,7,0,2026-05-12T18:35:36.244610+05:30
Jammu,Jammu and Kashmir,32.7266,74.857,30.5,48,0.0,969.2,8.45,50.8,130,122.5,50.9,13.7,411.0,143.0,6.4,0,5,7,1,2026-05-12T18:35:36.244616+05:30
Amritsar,Punjab,31.634,74.8723,31.3,49,0.0,976.6,8.35,43.2,155,124.8,49.7,5.2,432.0,140.0,6.0,0,5,7,1,2026-05-12T18:35:36.244623+05:30
Ludhiana,Punjab,30.901,75.8573,33.3,38,0.0,974.5,7.95,28.8,187,140.6,59.5,11.1,407.0,170.0,15.9,0,5,7,1,2026-05-12T18:35:36.244630+05:30
Jalandhar,Punjab,31.326,75.5762,31.9,43,0.0,975.7,8.1,27.0,162,103.1,50.6,7.9,556.0,151.0,10.1,0,5,7,1,2026-05-12T18:35:36.244637+05:30
Dehradun,Uttarakhand,30.6284,78.0322,18.7,86,0.0,829.3,8.1,33.8,121,59.1,24.5,7.9,299.0,133.0,3.1,3,10,7,1,2026-05-12T18:35:36.244645+05:30
Shimla,Himachal Pradesh,31.1048,77.1734,16.3,69,0.0,783.5,8.2,40.7,120,67.8,26.5,6.7,300.0,141.0,6.7,3,5,7,0,2026-05-12T18:35:36.244651+05:30
Manali,Himachal Pradesh,32.2396,77.1887,12.7,86,0.0,816.3,9.25,37.4,104,19.4,8.1,10.1,195.0,129.0,0.5,3,10,7,0,2026-05-12T18:35:36.244657+05:30
Gurgaon,Haryana,28.4595,77.0266,33.7,40,0.0,976.7,7.8,53.3,879,689.2,112.9,37.4,654.0,150.0,35.3,0,5,7,1,2026-05-12T18:35:36.244663+05:30
Noida,Uttar Pradesh,28.5355,77.391,31.5,55,0.0,979.4,7.7,49.7,879,689.2,112.9,37.4,620.0,150.0,35.3,0,5,7,1,2026-05-12T18:35:36.244669+05:30
Ghaziabad,Uttar Pradesh,28.6692,77.4538,30.8,59,0.0,978.2,7.65,45.7,180,221.7,59.0,13.5,390.0,149.0,10.5,0,5,7,1,2026-05-12T18:35:36.244675+05:30
Faridabad,Haryana,28.4089,77.3178,33.5,41,0.0,978.7,7.75,59.8,879,689.2,112.9,37.4,557.0,150.0,35.3,0,5,7,1,2026-05-12T18:35:36.244681+05:30
Meerut,Uttar Pradesh,28.9845,77.7064,31.8,53,0.0,977.4,7.6,42.8,180,221.7,59.0,13.5,397.0,149.0,10.5,0,5,7,1,2026-05-12T18:35:36.244687+05:30
Agra,Uttar Pradesh,27.1767,78.0081,36.0,35,0.0,982.3,7.85,31.3,444,1605.6,169.5,13.2,358.0,138.0,15.7,0,5,10,1,2026-05-12T18:35:36.244693+05:30
Varanasi,Uttar Pradesh,25.3176,82.9739,34.3,41,0.0,992.9,8.7,32.0,199,70.1,52.3,8.8,424.0,172.0,15.8,0,5,7,1,2026-05-12T18:35:36.244699+05:30
Prayagraj,Uttar Pradesh,25.4358,81.8463,36.0,33,0.0,990.9,8.55,34.9,194,73.3,48.5,9.0,390.0,158.0,12.1,0,5,10,1,2026-05-12T18:35:36.244706+05:30
Gorakhpur,Uttar Pradesh,26.7606,83.3732,29.9,64,0.0,993.5,8.5,43.9,173,56.6,43.7,5.5,385.0,157.0,6.6,7,5,7,1,2026-05-12T18:35:36.244712+05:30
Bareilly,Uttar Pradesh,28.367,79.4304,31.0,59,0.0,982.5,7.95,32.8,185,134.6,53.4,6.5,435.0,169.0,11.4,0,5,7,1,2026-05-12T18:35:36.244718+05:30
Aligarh,Uttar Pradesh,27.8974,78.088,33.8,49,0.0,980.5,7.85,57.2,344,345.5,73.1,13.7,391.0,147.0,18.4,0,5,7,1,2026-05-12T18:35:36.244723+05:30
Moradabad,Uttar Pradesh,28.8386,78.7733,31.5,60,0.0,979.8,7.8,30.2,182,86.6,50.9,13.3,484.0,152.0,16.1,0,5,7,1,2026-05-12T18:35:36.244729+05:30
Saharanpur,Uttar Pradesh,29.9637,77.546,30.2,65,0.0,971.9,7.4,37.4,179,170.9,65.4,14.1,447.0,155.0,15.5,3,5,7,1,2026-05-12T18:35:36.244735+05:30
Jhansi,Uttar Pradesh,25.4484,78.5685,35.8,37,0.0,972.8,8.45,30.2,148,67.3,23.2,4.1,258.0,115.0,8.8,0,5,10,1,2026-05-12T18:35:39.562634+05:30
Surat,Gujarat,21.1702,72.8311,34.3,50,0.0,1000.1,7.75,34.9,101,49.4,34.7,42.8,347.0,65.0,72.8,0,5,4,1,2026-05-12T18:35:39.562666+05:30
Vadodara,Gujarat,22.3072,73.1812,42.8,14,0.0,996.5,8.1,28.1,143,34.0,21.0,14.8,261.0,142.0,10.0,0,5,10,0,2026-05-12T18:35:39.562676+05:30
Rajkot,Gujarat,22.3039,70.8022,36.5,42,0.0,988.2,7.75,50.0,85,43.0,16.1,3.1,162.0,121.0,6.8,0,5,10,1,2026-05-12T18:35:39.562684+05:30
Thane,Maharashtra,19.2183,72.9781,32.2,61,0.0,1001.1,7.9,42.5,139,39.1,17.6,9.7,236.0,87.0,8.1,3,5,4,1,2026-05-12T18:35:39.562692+05:30
Nagpur,Maharashtra,21.1458,79.0882,39.5,19,0.0,967.9,8.95,40.3,177,113.6,42.3,15.7,251.0,156.0,26.1,0,5,10,0,2026-05-12T18:35:39.562700+05:30
Nashik,Maharashtra,19.9975,73.7898,34.5,35,0.0,940.1,8.2,52.2,135,32.0,20.2,3.2,255.0,151.0,9.1,0,5,7,1,2026-05-12T18:35:39.562708+05:30
Aurangabad,Maharashtra,19.8762,75.3433,38.5,16,0.0,939.1,9.05,42.1,150,56.0,22.9,5.7,262.0,151.0,11.6,0,5,10,0,2026-05-12T18:35:39.562716+05:30
Solapur,Maharashtra,17.6599,75.9064,36.0,31,0.0,952.0,8.35,37.4,152,44.7,22.1,4.3,280.0,149.0,5.5,0,5,10,0,2026-05-12T18:35:39.562724+05:30
Kolhapur,Maharashtra,16.705,74.2433,30.4,55,0.0,943.1,8.35,48.6,103,32.1,19.2,9.4,189.0,112.0,5.3,0,5,7,1,2026-05-12T18:35:39.562731+05:30
Goa,Goa,15.2993,74.124,32.0,66,0.0,992.9,8.9,31.0,79,48.5,17.2,3.3,144.0,72.0,1.5,3,5,7,1,2026-05-12T18:35:39.562738+05:30
Jodhpur,Rajasthan,26.2389,73.0243,41.0,12,0.0,976.6,8.35,44.3,115,199.8,27.2,3.1,197.0,137.0,2.4,0,5,10,0,2026-05-12T18:35:39.562746+05:30
Udaipur,Rajasthan,24.5854,73.7125,37.2,17,0.0,942.3,8.85,33.1,101,22.3,9.7,2.0,176.0,132.0,2.4,0,5,10,0,2026-05-12T18:35:39.562753+05:30
Kota,Rajasthan,25.2138,75.8648,40.3,14,0.0,973.0,8.4,38.5,113,64.0,17.3,5.3,307.0,119.0,3.6,0,5,10,0,2026-05-12T18:35:39.562761+05:30
Bikaner,Rajasthan,28.0229,73.3119,37.0,24,0.0,976.1,8.35,46.8,95,153.7,30.5,1.5,248.0,114.0,5.0,0,5,10,0,2026-05-12T18:35:39.562768+05:30
Ajmer,Rajasthan,26.4499,74.6399,37.8,15,0.0,950.0,8.35,52.2,95,55.6,15.0,3.0,171.0,126.0,2.5,0,5,10,0,2026-05-12T18:35:39.562775+05:30
Gwalior,Madhya Pradesh,26.2183,78.1828,36.0,31,0.0,977.6,7.7,32.8,137,67.3,27.6,2.7,245.0,128.0,6.5,0,5,10,1,2026-05-12T18:35:39.562782+05:30
Indore,Madhya Pradesh,22.7196,75.8577,39.5,12,0.0,943.4,8.65,37.1,127,73.1,23.7,4.0,336.0,130.0,5.9,0,5,10,0,2026-05-12T18:35:39.562789+05:30
Bhopal,Madhya Pradesh,23.2599,77.4126,37.7,17,0.0,949.7,8.7,40.0,136,82.2,25.7,3.2,249.0,132.0,6.4,0,5,10,0,2026-05-12T18:35:39.562796+05:30
Jabalpur,Madhya Pradesh,23.1815,79.9864,36.9,20,0.0,957.0,8.85,39.2,132,89.2,31.0,7.8,224.0,130.0,5.6,0,5,10,0,2026-05-12T18:35:39.562803+05:30
Ujjain,Madhya Pradesh,23.1765,75.7885,39.0,14,0.0,948.9,8.6,34.6,124,65.0,22.9,4.8,234.0,129.0,5.7,0,5,10,0,2026-05-12T18:35:39.562811+05:30
Visakhapatnam,Andhra Pradesh,17.6868,83.2185,29.4,74,0.0,1000.8,9.1,41.8,63,13.0,10.4,19.7,606.0,33.0,11.1,7,5,4,1,2026-05-12T18:35:39.562818+05:30
Vijayawada,Andhra Pradesh,16.5062,80.648,32.7,56,0.0,998.4,9.15,38.2,53,13.6,9.7,4.5,164.0,76.0,6.3,0,5,7,1,2026-05-12T18:35:39.562826+05:30
Guntur,Andhra Pradesh,16.3067,80.4365,31.4,64,0.0,999.7,9.2,38.9,70,23.2,16.2,4.3,156.0,103.0,6.0,3,5,7,1,2026-05-12T18:35:39.562833+05:30
Nellore,Andhra Pradesh,14.4426,79.9865,30.2,69,0.0,1001.9,9.15,37.4,29,8.5,5.3,2.2,129.0,45.0,1.9,3,5,4,1,2026-05-12T18:35:39.562841+05:30
Kurnool,Andhra Pradesh,15.8281,78.0373,35.3,36,0.0,972.2,9.15,37.8,88,39.1,18.6,5.8,202.0,123.0,3.4,0,5,10,1,2026-05-12T18:35:39.562849+05:30
Kakinada,Andhra Pradesh,16.9891,82.2475,29.4,75,0.0,1004.1,9.1,40.7,28,7.2,4.4,1.1,147.0,51.0,0.6,7,5,4,1,2026-05-12T18:35:39.562856+05:30
Tirupati,Andhra Pradesh,13.6288,79.4192,31.0,55,0.0,987.2,9.25,37.8,53,10.9,7.1,5.0,139.0,62.0,1.4,0,5,7,1,2026-05-12T18:35:39.562862+05:30
Warangal,Telangana,17.9689,79.5941,33.5,49,0.0,974.6,8.6,41.0,106,49.4,25.4,5.8,267.0,140.0,6.7,0,5,7,1,2026-05-12T18:35:39.562868+05:30
Nizamabad,Telangana,18.6725,78.0941,35.7,30,0.0,960.3,9.05,35.6,137,46.7,25.6,4.4,275.0,141.0,5.0,0,5,10,0,2026-05-12T18:35:39.562874+05:30
Mysore,Karnataka,12.2958,76.6396,28.1,61,0.1,924.7,8.85,29.9,149,41.8,26.6,13.3,282.0,143.0,5.2,10,5,7,1,2026-05-12T18:35:39.562880+05:30
Mangalore,Karnataka,12.9141,74.856,30.2,79,0.1,1002.4,8.95,41.4,92,41.7,19.8,5.2,180.0,81.0,2.4,6,5,4,1,2026-05-12T18:35:39.562886+05:30
Hubli-Dharwad,Karnataka,15.3647,75.124,32.7,42,0.0,936.6,9.1,36.7,138,43.7,23.6,5.9,213.0,145.0,4.3,0,5,7,1,2026-05-12T18:35:39.562892+05:30
Belgaum,Karnataka,15.8497,74.4977,32.4,33,0.0,922.1,8.2,37.1,125,45.4,27.8,7.0,169.0,129.0,5.8,0,5,7,0,2026-05-12T18:35:42.881691+05:30
Coimbatore,Tamil Nadu,11.0168,76.9558,31.2,48,0.0,957.4,9.05,25.6,149,38.2,25.4,9.5,289.0,140.0,4.3,0,5,7,1,2026-05-12T18:35:42.881723+05:30
Madurai,Tamil Nadu,9.9252,78.1198,31.6,55,0.0,988.5,9.05,42.5,116,39.8,31.5,16.4,264.0,120.0,9.9,0,5,7,1,2026-05-12T18:35:42.881733+05:30
Trichy,Tamil Nadu,10.7905,78.7047,28.5,75,0.0,995.4,9.1,33.5,70,22.8,20.2,11.5,221.0,100.0,15.8,7,5,7,1,2026-05-12T18:35:42.881741+05:30
Salem,Tamil Nadu,11.6643,78.146,32.4,46,0.0,972.8,8.8,31.0,164,30.5,19.0,7.8,302.0,129.0,7.8,0,5,7,1,2026-05-12T18:35:42.881749+05:30
Tirunelveli,Tamil Nadu,8.7139,77.7567,30.5,67,0.0,999.1,9.0,42.5,126,31.7,24.8,7.7,286.0,128.0,5.0,3,5,7,1,2026-05-12T18:35:42.881757+05:30
Vellore,Tamil Nadu,12.9165,79.1325,31.5,52,0.0,980.5,9.1,33.5,69,19.7,14.6,7.7,210.0,95.0,6.9,0,5,7,1,2026-05-12T18:35:42.881765+05:30
Erode,Tamil Nadu,11.341,77.7172,32.9,48,0.0,984.2,9.15,24.5,185,42.0,27.8,12.6,435.0,159.0,8.6,0,5,7,1,2026-05-12T18:35:42.881772+05:30
Kochi,Kerala,9.9312,76.2673,26.0,93,0.4,1005.3,7.9,37.1,90,32.7,23.5,11.0,262.0,92.0,2.9,10,5,4,1,2026-05-12T18:35:42.881780+05:30
Thiruvananthapuram,Kerala,8.5241,76.9366,26.8,92,0.1,1004.7,8.55,36.7,81,28.3,17.6,3.3,228.0,113.0,1.5,10,5,4,1,2026-05-12T18:35:42.881787+05:30
Kozhikode,Kerala,11.2588,75.7804,26.8,89,0.0,1003.9,8.7,41.8,68,42.6,21.4,1.4,232.0,97.0,1.1,7,5,4,1,2026-05-12T18:35:42.881794+05:30
Thrissur,Kerala,10.5276,76.2144,27.1,86,0.0,1003.0,8.7,35.6,91,34.2,24.9,9.5,283.0,88.0,2.5,7,5,4,1,2026-05-12T18:35:42.881802+05:30
Kannur,Kerala,11.8745,75.3704,25.5,100,0.2,1003.5,8.95,48.6,78,41.7,23.8,7.9,225.0,85.0,2.2,10,5,4,1,2026-05-12T18:35:42.881809+05:30
Patna,Bihar,25.5941,85.1376,29.2,70,0.0,997.1,8.65,35.3,195,69.2,58.3,9.0,361.0,174.0,12.1,7,5,7,1,2026-05-12T18:35:42.881817+05:30
Gaya,Bihar,24.7914,85.0002,30.9,58,0.0,989.8,8.65,29.5,201,78.9,61.0,5.0,314.0,184.0,13.1,0,5,7,1,2026-05-12T18:35:42.881824+05:30
Muzaffarpur,Bihar,26.1209,85.3647,26.3,83,0.1,997.9,8.75,43.6,177,62.9,55.6,10.1,374.0,160.0,10.2,10,5,7,1,2026-05-12T18:35:42.881831+05:30
Bhagalpur,Bihar,25.2425,87.0117,28.4,73,0.0,998.7,8.6,35.6,144,50.2,45.2,13.2,296.0,133.0,13.4,7,5,7,1,2026-05-12T18:35:42.881838+05:30
Ranchi,Jharkhand,23.3441,85.3096,25.8,73,0.0,934.2,9.1,35.3,132,57.2,40.7,5.7,256.0,134.0,13.2,7,5,7,1,2026-05-12T18:35:42.881846+05:30
Jamshedpur,Jharkhand,22.8046,86.2029,29.6,66,0.1,987.7,9.1,36.4,145,54.6,43.0,12.7,322.0,127.0,16.5,10,5,7,1,2026-05-12T18:35:42.881853+05:30
Dhanbad,Jharkhand,23.7957,86.4304,26.8,81,0.1,977.3,9.05,31.0,154,69.2,58.0,34.6,279.0,115.0,48.0,10,5,7,1,2026-05-12T18:35:42.881861+05:30
Bokaro,Jharkhand,23.6693,86.1511,27.2,79,0.0,980.9,9.05,32.0,158,71.0,60.1,29.9,1162.0,128.0,50.1,7,5,7,1,2026-05-12T18:35:42.881869+05:30
Bhubaneswar,Odisha,20.2961,85.8245,29.0,70,0.0,1000.5,9.15,37.4,63,13.2,9.8,5.4,223.0,64.0,3.0,7,5,4,1,2026-05-12T18:35:42.881876+05:30
Cuttack,Odisha,20.4625,85.8828,29.6,65,0.0,1002.0,9.2,34.6,63,13.2,9.8,5.4,210.0,64.0,3.0,7,5,4,1,2026-05-12T18:35:42.881883+05:30
Rourkela,Odisha,22.2604,84.8536,31.9,53,0.0,980.9,9.0,42.1,136,61.9,42.7,6.7,382.0,158.0,37.1,0,5,7,1,2026-05-12T18:35:42.881890+05:30
Raipur,Chhattisgarh,21.2514,81.6296,37.2,25,0.0,969.3,9.0,32.0,207,92.9,42.3,14.6,291.0,159.0,6.6,0,5,10,0,2026-05-12T18:35:42.881898+05:30
Bhilai,Chhattisgarh,21.1938,81.3509,36.4,27,0.0,969.4,9.0,33.1,182,93.4,42.1,19.3,285.0,148.0,6.8,0,5,10,0,2026-05-12T18:35:42.881905+05:30
Guwahati,Assam,26.1158,91.7086,25.4,81,0.0,1000.4,8.65,23.0,116,28.7,25.3,6.2,377.0,110.0,1.7,7,5,4,1,2026-05-12T18:35:42.881912+05:30
Agartala,Tripura,23.8315,91.2868,27.3,79,0.0,1004.6,8.85,19.8,122,51.9,47.8,26.9,498.0,113.0,3.9,7,5,4,1,2026-05-12T18:35:42.881919+05:30
Shillong,Meghalaya,25.5788,91.8933,17.1,97,0.0,855.6,5.2,22.3,123,24.0,21.4,7.7,524.0,116.0,1.9,3,10,3,1,2026-05-12T18:35:42.881926+05:30
Imphal,Manipur,24.817,93.9368,22.7,72,0.0,921.3,9.2,24.5,98,37.8,31.3,14.8,594.0,99.0,3.1,3,5,7,1,2026-05-12T18:35:42.881933+05:30
Aizawl,Mizoram,23.7271,92.7176,20.1,83,0.0,891.1,9.05,21.2,66,32.1,26.5,8.9,290.0,78.0,1.2,3,5,7,1,2026-05-12T18:35:42.881940+05:30
Kohima,Nagaland,25.6701,94.1077,17.7,89,0.0,854.0,8.3,29.5,93,23.1,19.0,7.9,357.0,103.0,1.3,3,10,7,0,2026-05-12T18:35:42.881947+05:30
Gangtok,Sikkim,27.3314,88.6138,15.4,95,0.1,835.4,9.05,39.6,83,25.8,21.1,8.5,319.0,117.0,1.0,6,10,7,0,2026-05-12T18:35:42.881955+05:30
Siliguri,West Bengal,26.7271,88.3953,24.6,82,0.0,991.8,8.25,26.3,121,49.4,43.5,16.9,767.0,106.0,2.8,3,5,7,1,2026-05-12T18:35:46.221200+05:30
Durgapur,West Bengal,23.5204,87.3119,25.9,95,0.4,992.4,9.0,28.4,105,72.4,61.7,27.7,563.0,98.0,36.9,10,5,7,1,2026-05-12T18:35:46.221262+05:30
Asansol,West Bengal,23.6739,86.9524,24.7,93,0.3,991.3,9.0,28.8,116,65.9,53.6,31.2,483.0,101.0,44.1,6,5,7,1,2026-05-12T18:35:46.221274+05:30
Pondicherry,Puducherry,11.9139,79.8145,29.0,81,0.0,1004.4,9.1,37.1,31,7.7,5.3,2.3,161.0,40.0,0.4,7,5,4,1,2026-05-12T18:35:46.221283+05:30
Port Blair,Andaman and Nicobar Islands,11.6234,92.7265,25.0,99,0.4,1005.5,2.15,29.2,25,4.2,2.9,0.8,140.0,50.0,0.1,10,5,0,1,2026-05-12T18:35:46.221292+05:30
Haridwar,Uttarakhand,29.9457,78.1642,30.0,62,0.0,970.3,7.45,24.5,180,156.5,58.6,8.1,355.0,170.0,14.0,7,5,7,1,2026-05-12T18:35:46.221300+05:30
Rishikesh,Uttarakhand,30.0869,78.2676,29.0,66,0.0,963.2,7.55,20.5,170,126.7,48.8,3.6,356.0,173.0,11.0,7,5,7,1,2026-05-12T18:35:46.221308+05:30
Nainital,Uttarakhand,29.3919,79.4542,16.6,83,0.0,804.0,7.95,42.1,162,107.1,44.6,5.4,334.0,161.0,7.4,3,10,7,0,2026-05-12T18:35:46.221316+05:30
Mussoorie,Uttarakhand,30.4599,78.0664,16.5,86,0.0,801.8,7.95,50.8,167,111.5,46.0,6.9,327.0,164.0,10.4,3,10,7,0,2026-05-12T18:35:46.221324+05:30
Dharamshala,Himachal Pradesh,32.219,76.3234,21.3,63,0.0,867.3,8.35,45.7,107,55.2,21.8,4.1,282.0,128.0,1.9,3,5,7,0,2026-05-12T18:35:46.221331+05:30
Dalhousie,Himachal Pradesh,32.5387,75.971,17.0,73,0.0,803.2,8.6,37.8,132,97.8,36.8,8.6,423.0,142.0,3.7,3,5,7,0,2026-05-12T18:35:46.221339+05:30
Patiala,Punjab,30.3398,76.3869,32.5,46,0.0,974.0,7.55,40.7,361,285.0,69.6,9.2,376.0,178.0,16.1,0,5,7,1,2026-05-12T18:35:46.221346+05:30
Bhatinda,Punjab,30.211,74.9455,35.2,29,0.0,978.3,8.2,35.6,284,735.7,117.6,8.3,372.0,175.0,21.2,0,5,10,0,2026-05-12T18:35:46.221354+05:30
Rohtak,Haryana,28.8955,76.6066,32.0,47,0.0,976.9,7.7,55.8,481,592.3,104.8,23.3,422.0,176.0,30.9,0,5,7,1,2026-05-12T18:35:46.221361+05:30
Panipat,Haryana,29.3909,76.9635,31.0,56,0.0,976.0,7.55,41.8,771,661.2,100.8,14.4,388.0,175.0,22.5,0,5,7,1,2026-05-12T18:35:46.221369+05:30
Mathura,Uttar Pradesh,27.4924,77.6737,34.5,41,0.0,981.4,7.95,35.3,487,983.5,122.5,14.5,373.0,149.0,15.6,0,5,7,1,2026-05-12T18:35:46.221377+05:30
Vrindavan,Uttar Pradesh,27.5823,77.7027,33.2,47,0.0,981.8,7.95,35.6,487,983.5,122.5,14.5,383.0,149.0,15.6,0,5,7,1,2026-05-12T18:35:46.221384+05:30
Ayodhya,Uttar Pradesh,26.7922,82.1998,32.0,58,0.0,991.1,8.3,36.4,177,66.8,50.1,13.6,382.0,138.0,8.7,0,5,7,1,2026-05-12T18:35:46.221391+05:30
Ratlam,Madhya Pradesh,23.3315,75.0367,37.8,18,0.0,949.8,8.55,42.8,115,44.8,15.6,2.5,173.0,130.0,4.5,0,5,10,0,2026-05-12T18:35:46.221398+05:30
Sagar,Madhya Pradesh,23.8388,78.7378,36.7,21,0.0,946.4,8.75,41.4,132,86.1,25.4,3.3,239.0,136.0,6.5,0,5,10,0,2026-05-12T18:35:46.221405+05:30
Satna,Madhya Pradesh,24.6005,80.8322,35.4,31,0.0,966.6,8.75,31.7,170,87.8,35.9,3.7,289.0,149.0,6.5,0,5,10,0,2026-05-12T18:35:46.221412+05:30
Akola,Maharashtra,20.7002,77.0082,40.6,16,0.0,969.1,8.9,33.5,155,71.5,25.9,5.5,312.0,148.0,9.0,0,5,10,0,2026-05-12T18:35:46.221420+05:30
Amravati,Maharashtra,20.9374,77.7796,38.2,21,0.0,962.0,8.9,43.6,153,66.6,24.3,7.3,260.0,143.0,4.7,0,5,10,0,2026-05-12T18:35:46.221428+05:30
Latur,Maharashtra,18.4088,76.5604,36.3,22,0.0,935.8,9.05,42.8,149,40.6,21.5,5.2,227.0,143.0,9.4,0,5,10,0,2026-05-12T18:35:46.221436+05:30
Nanded,Maharashtra,19.1383,77.3091,37.4,23,0.0,963.4,9.0,31.0,140,46.1,22.4,6.0,268.0,130.0,4.4,0,5,10,0,2026-05-12T18:35:46.221443+05:30
Gulbarga,Karnataka,17.3297,76.8343,35.5,28,0.0,954.3,8.7,33.1,151,40.7,21.0,5.7,244.0,149.0,5.6,0,5,10,0,2026-05-12T18:35:46.221450+05:30
Bidar,Karnataka,17.9104,77.5199,33.4,34,0.0,931.9,9.15,38.5,136,44.1,23.7,6.0,263.0,139.0,4.4,0,5,7,0,2026-05-12T18:35:46.221457+05:30
Hospet,Karnataka,15.2689,76.3909,32.6,53,0.0,951.2,9.2,28.4,148,39.9,23.5,12.5,261.0,150.0,7.5,0,5,7,1,2026-05-12T18:35:46.221464+05:30
Tirupur,Tamil Nadu,11.1085,77.3411,33.0,42,0.0,970.6,9.25,31.3,183,44.7,29.8,16.6,299.0,152.0,6.5,0,5,7,1,2026-05-12T18:35:46.221470+05:30
Alappuzha,Kerala,9.4981,76.3388,26.1,96,0.2,1005.6,8.75,33.8,89,33.5,20.9,6.0,162.0,103.0,2.6,10,5,4,1,2026-05-12T18:35:46.221475+05:30
Munnar,Kerala,10.0889,77.0595,18.9,99,0.0,854.2,9.25,22.0,114,34.1,24.3,7.2,272.0,120.0,3.1,3,10,7,1,2026-05-12T18:35:46.221481+05:30
Silchar,Assam,24.8333,92.7789,27.3,74,0.0,1003.3,8.85,21.2,94,39.0,34.8,10.6,488.0,103.0,6.7,7,5,4,1,2026-05-12T18:35:46.221487+05:30
Dibrugarh,Assam,27.4728,94.912,25.2,72,0.0,993.6,8.8,19.1,86,30.5,26.4,11.8,387.0,89.0,2.5,7,5,7,1,2026-05-12T18:35:46.221493+05:30
