city,state,latitude,longitude,temp,humidity,rain,pressure,uv_index,wind_gusts,aqi,pm10,pm2_5,no2,co,o3,so2,mosquito_risk,arthritis_risk,migraine_risk,frizz_risk,updated_at
Delhi,Delhi,28.6139,77.209,26.8,96,0.4,972.6,4.75,25.2,114,38.5,38.0,43.0,862.0,78.0,25.7,10,5,3,1,2026-07-08T19:49:17.423316+05:30
Mumbai,Maharashtra,19.076,72.8777,28.0,90,0.0,1002.7,5.85,60.1,59,40.7,18.4,9.9,251.0,37.0,5.5,7,5,0,1,2026-07-08T19:49:17.423354+05:30
Bangalore,Karnataka,12.9716,77.5946,23.4,78,0.0,910.5,5.95,62.6,28,11.9,7.9,11.6,283.0,44.0,3.4,3,5,3,1,2026-07-08T19:49:17.423366+05:30
Hyderabad,Telangana,17.385,78.4867,28.6,65,0.0,948.1,8.45,62.6,38,12.3,8.7,7.6,291.0,65.0,3.6,7,5,7,1,2026-07-08T19:49:17.423374+05:30
Chennai,Tamil Nadu,13.0827,80.2707,31.5,71,0.0,1003.6,8.2,52.2,65,35.4,23.6,9.4,222.0,96.0,6.8,3,5,4,1,2026-07-08T19:49:17.423380+05:30
Kolkata,West Bengal,22.5726,88.3639,28.8,91,0.0,1000.5,7.2,40.0,69,28.4,22.1,8.5,303.0,64.0,7.3,7,5,4,1,2026-07-08T19:49:17.423386+05:30
Pune,Maharashtra,18.5204,73.8567,23.9,88,0.0,943.1,7.75,59.0,24,4.8,3.9,11.7,200.0,37.0,6.8,3,5,7,1,2026-07-08T19:49:17.423391+05:30
Ahmedabad,Gujarat,23.0225,72.5714,30.5,73,0.0,992.3,6.85,40.0,80,55.6,28.4,10.3,304.0,80.0,6.0,3,5,7,1,2026-07-08T19:49:17.423396+05:30
Jaipur,Rajasthan,26.9124,75.7873,29.1,78,0.0,949.9,8.1,36.7,87,150.4,44.9,22.3,421.0,79.0,8.9,7,5,7,1,2026-07-08T19:49:17.423401+05:30
Lucknow,Uttar Pradesh,26.8467,80.9462,27.6,93,0.0,983.5,6.65,47.9,74,19.2,19.2,14.3,334.0,87.0,7.4,7,5,7,1,2026-07-08T19:49:17.423422+05:30
Kanpur,Uttar Pradesh,26.4499,80.3319,28.3,92,0.0,981.2,7.35,43.9,65,14.9,14.3,13.4,315.0,80.0,4.8,7,5,7,1,2026-07-08T19:49:17.423427+05:30
Chandigarh,Chandigarh,30.7333,76.7794,28.0,85,0.0,959.6,4.6,29.2,139,35.6,35.5,41.3,1234.0,64.0,13.2,7,5,3,1,2026-07-08T19:49:17.423432+05:30
Srinagar,Jammu and Kashmir,34.0837,74.7973,26.9,48,0.0,835.0,9.1,26.6,133,26.7,21.8,24.9,816.0,95.0,3.8,4,5,7,0,2026-07-08T19:49:17.423437+05:30
Jammu,Jammu and Kashmir,32.7266,74.857,28.6,79,0.0,962.9,8.2,31.7,181,83.6,66.4,15.0,491.0,147.0,6.5,7,5,7,1,2026-07-08T19:49:17.423442+05:30
Amritsar,Punjab,31.634,74.8723,29.4,80,0.0,970.6,8.4,38.9,169,59.6,51.6,18.1,559.0,109.0,7.1,7,5,7,1,2026-07-08T19:49:17.423448+05:30
Ludhiana,Punjab,30.901,75.8573,28.9,83,0.0,968.9,5.95,28.1,152,36.6,31.7,29.1,712.0,64.0,11.9,7,5,3,1,2026-07-08T19:49:17.423453+05:30
Jalandhar,Punjab,31.326,75.5762,29.2,83,0.0,969.8,7.45,32.4,155,36.8,36.1,20.7,486.0,97.0,10.5,7,5,7,1,2026-07-08T19:49:17.423458+05:30
Dehradun,Uttarakhand,30.6284,78.0322,19.8,98,0.0,824.3,1.35,17.6,64,9.2,9.1,22.2,274.0,76.0,1.5,3,10,3,1,2026-07-08T19:49:17.423464+05:30
Shimla,Himachal Pradesh,31.1048,77.1734,16.4,95,0.0,778.9,3.3,17.3,59,17.1,16.4,17.6,556.0,83.0,1.7,3,10,3,0,2026-07-08T19:49:17.423469+05:30
Manali,Himachal Pradesh,32.2396,77.1887,21.7,80,0.2,813.8,6.75,39.6,85,12.6,12.5,72.2,252.0,59.0,0.7,6,5,7,1,2026-07-08T19:49:17.423480+05:30
Gurgaon,Haryana,28.4595,77.0266,27.2,93,0.3,971.1,6.45,27.7,118,49.2,48.8,59.2,848.0,77.0,34.4,10,5,7,1,2026-07-08T19:49:17.423485+05:30
Noida,Uttar Pradesh,28.5355,77.391,27.0,95,0.1,973.9,5.75,32.4,118,49.2,48.8,59.2,638.0,77.0,34.4,10,5,3,1,2026-07-08T19:49:17.423490+05:30
Ghaziabad,Uttar Pradesh,28.6692,77.4538,27.0,95,0.1,972.2,6.5,29.5,101,36.9,36.3,20.3,420.0,88.0,11.6,10,5,7,1,2026-07-08T19:49:17.423495+05:30
Faridabad,Haryana,28.4089,77.3178,26.8,95,0.3,973.1,3.65,32.4,118,49.2,48.8,59.2,594.0,77.0,34.4,10,5,3,1,2026-07-08T19:49:17.423499+05:30
Meerut,Uttar Pradesh,28.9845,77.7064,27.2,94,0.5,971.4,7.4,29.2,101,36.9,36.3,20.3,435.0,88.0,11.6,10,5,7,1,2026-07-08T19:49:17.423504+05:30
Agra,Uttar Pradesh,27.1767,78.0081,26.7,95,0.1,976.2,6.0,31.7,81,21.9,21.0,17.4,362.0,85.0,7.9,10,5,3,1,2026-07-08T19:49:17.423509+05:30
Varanasi,Uttar Pradesh,25.3176,82.9739,30.6,81,0.0,988.7,5.6,25.9,66,19.0,19.0,23.3,816.0,65.0,22.5,3,5,3,1,2026-07-08T19:49:17.423514+05:30
Prayagraj,Uttar Pradesh,25.4358,81.8463,29.1,88,0.0,986.4,6.65,37.4,61,18.2,18.2,16.3,302.0,69.0,7.3,7,5,7,1,2026-07-08T19:49:17.423519+05:30
Gorakhpur,Uttar Pradesh,26.7606,83.3732,28.4,92,0.1,989.3,6.6,36.4,80,24.4,24.2,9.8,350.0,97.0,6.8,10,5,7,1,2026-07-08T19:49:17.423523+05:30
Bareilly,Uttar Pradesh,28.367,79.4304,26.7,95,0.1,976.5,6.1,47.2,71,20.8,20.3,9.2,309.0,90.0,5.0,10,5,7,1,2026-07-08T19:49:17.423529+05:30
Aligarh,Uttar Pradesh,27.8974,78.088,26.6,95,0.0,974.3,5.8,37.1,91,23.7,23.5,14.0,383.0,91.0,5.8,7,5,3,1,2026-07-08T19:49:17.423534+05:30
Moradabad,Uttar Pradesh,28.8386,78.7733,26.7,94,0.0,973.8,7.25,44.6,94,27.5,26.5,13.8,545.0,87.0,9.4,7,5,7,1,2026-07-08T19:49:17.423538+05:30
Saharanpur,Uttar Pradesh,29.9637,77.546,27.5,90,0.0,966.0,2.35,25.6,110,24.9,24.6,33.7,514.0,44.0,8.6,7,5,3,1,2026-07-08T19:49:17.423543+05:30
Jhansi,Uttar Pradesh,25.4484,78.5685,29.1,80,0.0,967.2,7.85,45.0,59,6.5,6.5,6.3,260.0,101.0,4.0,7,5,7,1,2026-07-08T19:49:20.827433+05:30
Surat,Gujarat,21.1702,72.8311,28.9,89,0.0,998.5,1.8,47.2,79,38.3,24.0,25.1,316.0,29.0,39.4,7,5,3,1,2026-07-08T19:49:20.827466+05:30
Vadodara,Gujarat,22.3072,73.1812,29.6,82,0.0,995.3,6.75,37.1,74,38.3,24.9,21.3,228.0,40.0,14.1,7,5,7,1,2026-07-08T19:49:20.827475+05:30
Rajkot,Gujarat,22.3039,70.8022,30.6,64,0.0,985.0,5.85,46.4,70,45.3,22.4,4.4,133.0,59.0,4.8,3,5,3,1,2026-07-08T19:49:20.827483+05:30
Thane,Maharashtra,19.2183,72.9781,27.0,95,0.1,1002.3,4.75,39.6,59,40.7,18.4,9.9,298.0,37.0,5.5,10,5,0,1,2026-07-08T19:49:20.827489+05:30
Nagpur,Maharashtra,21.1458,79.0882,27.6,82,0.0,966.1,8.2,47.2,40,10.5,10.3,12.2,278.0,81.0,8.7,7,5,7,1,2026-07-08T19:49:20.827496+05:30
Nashik,Maharashtra,19.9975,73.7898,23.5,96,0.0,939.3,0.85,46.4,26,18.7,10.1,7.8,162.0,37.0,2.5,3,5,3,1,2026-07-08T19:49:20.827502+05:30
Aurangabad,Maharashtra,19.8762,75.3433,25.4,81,0.0,938.1,6.7,45.7,36,15.2,9.8,7.9,164.0,52.0,5.5,7,5,7,1,2026-07-08T19:49:20.827509+05:30
Solapur,Maharashtra,17.6599,75.9064,25.2,91,0.0,952.6,7.7,63.4,31,6.5,4.7,5.3,143.0,47.0,2.2,7,5,7,1,2026-07-08T19:49:20.827515+05:30
Kolhapur,Maharashtra,16.705,74.2433,23.2,94,0.0,944.3,7.4,63.0,23,5.5,4.4,6.2,154.0,35.0,2.1,3,5,7,1,2026-07-08T19:49:20.827521+05:30
Goa,Goa,15.2993,74.124,25.1,98,0.1,996.1,8.1,44.3,52,28.5,15.7,2.1,181.0,44.0,0.9,10,5,7,1,2026-07-08T19:49:20.827527+05:30
Jodhpur,Rajasthan,26.2389,73.0243,34.0,56,0.0,971.7,6.9,56.2,142,183.9,57.4,6.7,165.0,77.0,3.1,0,5,7,1,2026-07-08T19:49:20.827533+05:30
Udaipur,Rajasthan,24.5854,73.7125,26.1,89,0.0,937.2,8.15,37.1,68,40.6,23.9,3.9,159.0,91.0,5.0,7,5,7,1,2026-07-08T19:49:20.827539+05:30
Kota,Rajasthan,25.2138,75.8648,27.3,89,0.4,969.3,7.6,39.6,67,46.4,25.5,9.7,457.0,75.0,5.2,10,5,7,1,2026-07-08T19:49:20.827545+05:30
Bikaner,Rajasthan,28.0229,73.3119,35.3,46,0.0,970.6,8.05,30.6,151,95.0,46.2,6.1,193.0,74.0,3.1,0,5,10,1,2026-07-08T19:49:20.827551+05:30
Ajmer,Rajasthan,26.4499,74.6399,26.0,94,0.0,945.0,7.9,39.6,98,161.1,69.2,13.2,221.0,69.0,4.4,7,5,7,1,2026-07-08T19:49:20.827557+05:30
Gwalior,Madhya Pradesh,26.2183,78.1828,27.3,90,0.0,972.0,7.15,24.8,62,13.9,13.4,11.0,314.0,97.0,5.0,7,5,7,1,2026-07-08T19:49:20.827563+05:30
Indore,Madhya Pradesh,22.7196,75.8577,26.0,70,0.0,940.4,4.95,46.8,65,40.0,22.7,9.9,301.0,64.0,5.7,7,5,3,1,2026-07-08T19:49:20.827568+05:30
Bhopal,Madhya Pradesh,23.2599,77.4126,25.3,94,0.1,945.3,0.5,44.6,66,13.8,12.0,8.2,302.0,70.0,3.5,10,5,3,1,2026-07-08T19:49:20.827574+05:30
Jabalpur,Madhya Pradesh,23.1815,79.9864,24.5,99,0.3,953.8,5.95,43.6,50,11.5,11.1,7.1,283.0,82.0,2.8,6,5,3,1,2026-07-08T19:49:20.827580+05:30
Ujjain,Madhya Pradesh,23.1765,75.7885,26.4,73,0.0,945.5,1.25,43.6,60,39.8,22.6,7.7,249.0,63.0,6.7,7,5,3,1,2026-07-08T19:49:20.827585+05:30
Visakhapatnam,Andhra Pradesh,17.6868,83.2185,28.7,76,0.0,998.6,9.0,50.4,77,32.4,23.2,16.5,233.0,71.0,29.6,7,5,7,1,2026-07-08T19:49:20.827591+05:30
Vijayawada,Andhra Pradesh,16.5062,80.648,34.0,48,0.0,996.8,6.3,49.3,57,24.4,18.0,5.6,310.0,93.0,5.8,0,5,7,1,2026-07-08T19:49:20.827597+05:30
Guntur,Andhra Pradesh,16.3067,80.4365,34.8,43,0.0,998.2,5.45,53.3,56,28.3,21.6,11.0,229.0,72.0,4.8,0,5,3,1,2026-07-08T19:49:20.827604+05:30
Nellore,Andhra Pradesh,14.4426,79.9865,35.0,41,0.0,1001.4,8.5,48.2,42,19.3,11.2,5.3,120.0,64.0,2.3,0,5,4,1,2026-07-08T19:49:20.827610+05:30
Kurnool,Andhra Pradesh,15.8281,78.0373,31.1,52,0.0,972.6,4.7,60.8,35,10.7,6.5,4.4,130.0,60.0,2.0,0,5,3,1,2026-07-08T19:49:20.827617+05:30
Kakinada,Andhra Pradesh,16.9891,82.2475,29.6,71,0.0,1002.3,8.45,52.6,66,30.2,20.5,3.0,191.0,97.0,2.8,7,5,4,1,2026-07-08T19:49:20.827622+05:30
Tirupati,Andhra Pradesh,13.6288,79.4192,33.0,46,0.0,987.7,8.4,46.1,40,14.5,10.7,11.2,169.0,55.0,2.5,0,5,7,1,2026-07-08T19:49:20.827628+05:30
Warangal,Telangana,17.9689,79.5941,30.2,62,0.0,972.6,5.55,54.0,38,15.4,13.4,10.3,247.0,62.0,3.6,3,5,3,1,2026-07-08T19:49:20.827633+05:30
Nizamabad,Telangana,18.6725,78.0941,27.3,79,0.0,958.9,5.6,59.8,37,9.9,7.5,7.4,215.0,61.0,6.8,7,5,3,1,2026-07-08T19:49:20.827637+05:30
Mysore,Karnataka,12.2958,76.6396,23.3,83,0.0,928.0,6.15,55.8,26,10.6,7.0,6.6,142.0,43.0,1.8,3,5,7,1,2026-07-08T19:49:20.827642+05:30
Mangalore,Karnataka,12.9141,74.856,27.2,79,0.1,1006.5,8.65,52.6,58,23.1,14.0,6.8,137.0,33.0,2.2,10,5,4,1,2026-07-08T19:49:20.827648+05:30
Hubli-Dharwad,Karnataka,15.3647,75.124,23.1,94,0.0,938.4,7.3,71.3,22,9.8,6.0,5.2,132.0,38.0,1.1,3,5,7,1,2026-07-08T19:49:20.827653+05:30
Belgaum,Karnataka,15.8497,74.4977,21.5,98,0.1,922.6,2.5,64.1,20,5.5,3.6,4.4,107.0,37.0,1.2,6,5,3,1,2026-07-08T19:49:24.212177+05:30
Coimbatore,Tamil Nadu,11.0168,76.9558,23.5,95,0.0,961.0,8.8,51.1,32,10.0,6.6,7.3,182.0,40.0,2.5,3,5,7,1,2026-07-08T19:49:24.212209+05:30
Madurai,Tamil Nadu,9.9252,78.1198,30.8,56,0.0,991.8,8.7,52.2,69,16.9,8.3,7.5,171.0,46.0,2.5,0,5,7,1,2026-07-08T19:49:24.212218+05:30
Trichy,Tamil Nadu,10.7905,78.7047,29.3,66,0.0,998.8,8.75,69.1,52,13.6,7.6,5.9,119.0,47.0,2.3,7,5,7,1,2026-07-08T19:49:24.212226+05:30
Salem,Tamil Nadu,11.6643,78.146,27.7,77,0.0,976.5,8.55,43.9,60,16.9,10.1,10.3,414.0,52.0,5.1,7,5,7,1,2026-07-08T19:49:24.212233+05:30
Tirunelveli,Tamil Nadu,8.7139,77.7567,30.7,54,0.0,1002.6,8.65,55.8,50,11.9,7.6,4.1,124.0,50.0,1.7,0,5,4,1,2026-07-08T19:49:24.212239+05:30
Vellore,Tamil Nadu,12.9165,79.1325,30.6,56,0.0,981.9,8.9,50.4,44,10.8,8.7,9.5,134.0,60.0,3.1,0,5,7,1,2026-07-08T19:49:24.212246+05:30
Erode,Tamil Nadu,11.341,77.7172,26.6,82,0.0,988.4,8.8,50.4,55,13.3,8.6,8.2,186.0,49.0,2.5,7,5,7,1,2026-07-08T19:49:24.212251+05:30
Kochi,Kerala,9.9312,76.2673,24.9,94,0.0,1010.1,8.5,40.3,61,21.4,14.6,16.4,181.0,29.0,4.9,3,0,4,1,2026-07-08T19:49:24.212258+05:30
Thiruvananthapuram,Kerala,8.5241,76.9366,25.6,90,0.1,1008.9,8.45,56.2,49,16.1,9.5,5.0,124.0,47.0,1.7,10,0,4,1,2026-07-08T19:49:24.212264+05:30
Kozhikode,Kerala,11.2588,75.7804,24.3,99,0.1,1008.7,8.15,38.9,54,19.7,10.4,2.1,235.0,47.0,1.4,6,0,4,1,2026-07-08T19:49:24.212270+05:30
Thrissur,Kerala,10.5276,76.2144,24.9,97,0.0,1008.1,8.45,40.0,59,21.5,16.1,17.2,293.0,25.0,4.4,3,0,4,1,2026-07-08T19:49:24.212276+05:30
Kannur,Kerala,11.8745,75.3704,24.8,98,0.1,1008.0,8.25,29.9,53,20.4,13.4,10.3,177.0,29.0,2.1,6,0,4,1,2026-07-08T19:49:24.212283+05:30
Patna,Bihar,25.5941,85.1376,29.2,87,0.0,993.0,7.25,26.6,87,23.5,23.2,21.8,330.0,61.0,9.5,7,5,7,1,2026-07-08T19:49:24.212289+05:30
Gaya,Bihar,24.7914,85.0002,29.7,78,0.0,986.2,6.95,32.4,64,20.3,19.9,12.6,333.0,65.0,8.9,7,5,7,1,2026-07-08T19:49:24.212295+05:30
Muzaffarpur,Bihar,26.1209,85.3647,28.2,93,0.2,993.6,7.65,27.7,83,24.9,24.6,19.4,354.0,71.0,9.5,10,5,7,1,2026-07-08T19:49:24.212300+05:30
Bhagalpur,Bihar,25.2425,87.0117,27.2,97,0.2,995.1,6.1,23.0,93,31.1,30.4,18.9,302.0,71.0,11.0,10,5,7,1,2026-07-08T19:49:24.212306+05:30
Ranchi,Jharkhand,23.3441,85.3096,26.2,79,0.0,931.9,8.0,47.5,60,12.6,11.2,5.7,189.0,87.0,7.4,7,5,7,1,2026-07-08T19:49:24.212312+05:30
Jamshedpur,Jharkhand,22.8046,86.2029,27.4,93,0.0,984.6,5.35,36.0,77,31.7,27.3,16.6,447.0,69.0,21.6,7,5,3,1,2026-07-08T19:49:24.212317+05:30
Dhanbad,Jharkhand,23.7957,86.4304,28.0,87,0.0,973.8,7.3,34.9,119,47.6,44.5,48.9,352.0,43.0,87.0,7,5,7,1,2026-07-08T19:49:24.212322+05:30
Bokaro,Jharkhand,23.6693,86.1511,28.3,85,0.0,977.5,8.0,34.2,91,44.2,40.3,43.3,1514.0,38.0,78.2,7,5,7,1,2026-07-08T19:49:24.212327+05:30
Bhubaneswar,Odisha,20.2961,85.8245,28.4,78,0.0,997.0,7.85,56.9,69,29.2,22.1,6.3,192.0,82.0,7.1,7,5,7,1,2026-07-08T19:49:24.212333+05:30
Cuttack,Odisha,20.4625,85.8828,28.8,76,0.0,998.7,7.45,47.2,69,29.2,22.1,6.3,220.0,82.0,7.1,7,5,7,1,2026-07-08T19:49:24.212339+05:30
Rourkela,Odisha,22.2604,84.8536,29.3,76,0.0,978.3,6.2,43.9,63,16.4,14.1,9.7,386.0,66.0,4.1,7,5,7,1,2026-07-08T19:49:24.212345+05:30
Raipur,Chhattisgarh,21.2514,81.6296,28.5,72,0.0,967.5,6.9,55.1,55,14.0,13.7,15.7,253.0,68.0,27.6,7,5,7,1,2026-07-08T19:49:24.212350+05:30
Bhilai,Chhattisgarh,21.1938,81.3509,28.2,74,0.0,967.9,8.05,58.7,56,14.8,14.5,16.1,472.0,71.0,29.2,7,5,7,1,2026-07-08T19:49:24.212356+05:30
Guwahati,Assam,26.1158,91.7086,27.5,93,0.1,996.7,6.3,20.2,47,12.4,12.3,8.9,474.0,56.0,2.0,10,5,7,1,2026-07-08T19:49:24.212361+05:30
Agartala,Tripura,23.8315,91.2868,24.5,99,0.7,1002.8,5.95,36.4,51,14.8,12.6,10.6,165.0,51.0,2.7,6,5,0,1,2026-07-08T19:49:24.212366+05:30
Shillong,Meghalaya,25.5788,91.8933,21.1,87,0.0,854.9,2.85,25.9,36,5.0,4.8,9.9,250.0,57.0,2.6,3,5,3,1,2026-07-08T19:49:24.212372+05:30
Imphal,Manipur,24.817,93.9368,23.4,96,0.0,920.4,1.15,29.5,24,10.7,9.5,9.6,404.0,44.0,2.0,3,5,3,1,2026-07-08T19:49:24.212377+05:30
Aizawl,Mizoram,23.7271,92.7176,19.3,97,0.1,889.8,0.95,41.4,30,1.3,1.1,3.4,126.0,51.0,0.8,6,10,3,1,2026-07-08T19:49:24.212383+05:30
Kohima,Nagaland,25.6701,94.1077,21.3,96,0.1,853.0,6.2,19.1,28,3.1,3.0,6.5,244.0,44.0,0.9,6,5,7,1,2026-07-08T19:49:24.212388+05:30
Gangtok,Sikkim,27.3314,88.6138,19.7,98,0.0,835.1,5.2,32.4,44,5.4,5.3,5.9,256.0,91.0,2.2,3,10,3,1,2026-07-08T19:49:24.212393+05:30
Siliguri,West Bengal,26.7271,88.3953,26.2,95,0.0,987.8,7.35,27.0,60,18.9,18.8,11.0,437.0,98.0,5.1,7,5,7,1,2026-07-08T19:49:27.609741+05:30
Durgapur,West Bengal,23.5204,87.3119,27.7,95,0.0,989.1,8.55,36.7,102,39.9,37.7,32.2,345.0,49.0,36.9,7,5,7,1,2026-07-08T19:49:27.609773+05:30
Asansol,West Bengal,23.6739,86.9524,27.9,92,0.0,987.6,7.5,35.6,97,35.3,33.3,34.7,718.0,52.0,43.7,7,5,7,1,2026-07-08T19:49:27.609782+05:30
Pondicherry,Puducherry,11.9139,79.8145,30.0,68,0.1,1006.2,8.0,46.4,75,32.5,20.5,11.2,184.0,84.0,7.9,10,5,4,1,2026-07-08T19:49:27.609790+05:30
Port Blair,Andaman and Nicobar Islands,11.6234,92.7265,28.1,72,0.0,1008.9,7.9,38.5,60,23.9,14.3,0.4,101.0,53.0,0.4,7,0,4,1,2026-07-08T19:49:27.609797+05:30
Haridwar,Uttarakhand,29.9457,78.1642,27.1,88,0.0,964.5,5.2,22.3,94,16.2,16.1,21.5,368.0,67.0,6.4,7,5,3,1,2026-07-08T19:49:27.609804+05:30
Rishikesh,Uttarakhand,30.0869,78.2676,26.0,96,0.0,957.2,5.8,14.8,68,6.6,6.5,6.3,333.0,99.0,2.4,7,5,3,1,2026-07-08T19:49:27.609811+05:30
Nainital,Uttarakhand,29.3919,79.4542,17.5,99,0.1,800.0,8.05,39.6,57,17.3,16.1,8.9,304.0,86.0,3.8,6,10,7,1,2026-07-08T19:49:27.609818+05:30
Mussoorie,Uttarakhand,30.4599,78.0664,17.9,100,0.0,797.0,0.85,18.7,69,12.5,12.4,29.0,428.0,68.0,5.6,3,10,3,1,2026-07-08T19:49:27.609824+05:30
Dharamshala,Himachal Pradesh,32.219,76.3234,21.6,99,0.0,861.9,7.75,24.8,81,4.7,4.5,9.7,556.0,100.0,1.5,3,5,7,1,2026-07-08T19:49:27.609830+05:30
Dalhousie,Himachal Pradesh,32.5387,75.971,18.5,95,0.0,798.5,8.2,26.3,164,37.6,34.5,14.9,651.0,141.0,4.6,3,10,7,1,2026-07-08T19:49:27.609836+05:30
Patiala,Punjab,30.3398,76.3869,28.2,89,0.0,968.5,6.2,28.4,146,36.0,35.9,29.7,447.0,56.0,10.4,7,5,7,1,2026-07-08T19:49:27.609842+05:30
Bhatinda,Punjab,30.211,74.9455,30.7,71,0.0,973.6,8.05,37.1,460,560.7,115.7,12.5,436.0,136.0,15.5,3,5,7,1,2026-07-08T19:49:27.609848+05:30
Rohtak,Haryana,28.8955,76.6066,28.6,81,0.0,971.7,6.05,31.3,135,29.5,29.0,28.0,403.0,91.0,21.0,7,5,7,1,2026-07-08T19:49:27.609854+05:30
Panipat,Haryana,29.3909,76.9635,28.1,85,0.0,970.3,6.0,25.2,122,29.6,29.3,23.4,373.0,78.0,18.8,7,5,3,1,2026-07-08T19:49:27.609859+05:30
Mathura,Uttar Pradesh,27.4924,77.6737,26.8,96,0.0,975.5,4.85,37.1,94,20.0,19.7,18.2,385.0,87.0,4.7,7,5,3,1,2026-07-08T19:49:27.609865+05:30
Vrindavan,Uttar Pradesh,27.5823,77.7027,26.7,95,0.1,976.0,5.2,36.4,94,20.0,19.7,18.2,380.0,87.0,4.7,10,5,3,1,2026-07-08T19:49:27.609871+05:30
Ayodhya,Uttar Pradesh,26.7922,82.1998,29.0,88,0.0,986.3,6.6,41.8,80,21.4,21.2,9.3,312.0,103.0,6.1,7,5,7,1,2026-07-08T19:49:27.609877+05:30
Ratlam,Madhya Pradesh,23.3315,75.0367,24.9,94,0.2,946.3,1.4,43.9,59,38.9,21.9,7.3,175.0,62.0,6.4,6,5,3,1,2026-07-08T19:49:27.609883+05:30
Sagar,Madhya Pradesh,23.8388,78.7378,24.9,96,0.0,941.3,4.55,41.8,55,10.9,10.4,3.7,264.0,109.0,2.1,3,5,3,1,2026-07-08T19:49:27.609889+05:30
Satna,Madhya Pradesh,24.6005,80.8322,27.9,78,0.1,962.2,8.55,46.1,53,9.0,8.8,8.8,264.0,76.0,4.8,10,5,7,1,2026-07-08T19:49:27.609895+05:30
Akola,Maharashtra,20.7002,77.0082,27.8,77,0.0,968.6,6.9,38.9,39,10.6,8.5,12.5,235.0,64.0,11.9,7,5,7,1,2026-07-08T19:49:27.609902+05:30
Amravati,Maharashtra,20.9374,77.7796,27.2,78,0.0,960.8,8.0,41.4,41,8.5,7.1,12.3,222.0,64.0,10.6,7,5,7,1,2026-07-08T19:49:27.609908+05:30
Latur,Maharashtra,18.4088,76.5604,25.9,80,0.0,934.3,5.65,60.1,32,9.3,6.5,5.1,167.0,63.0,3.0,7,5,3,1,2026-07-08T19:49:27.609915+05:30
Nanded,Maharashtra,19.1383,77.3091,27.8,76,0.0,962.6,7.7,55.1,31,7.3,6.4,7.4,190.0,61.0,3.3,7,5,7,1,2026-07-08T19:49:27.609921+05:30
Gulbarga,Karnataka,17.3297,76.8343,25.7,83,0.1,954.1,6.0,65.2,33,9.3,5.8,6.3,168.0,51.0,2.4,10,5,3,1,2026-07-08T19:49:27.609927+05:30
Bidar,Karnataka,17.9104,77.5199,25.6,83,0.0,930.4,7.1,64.1,36,16.6,10.4,7.8,159.0,66.0,2.1,7,5,7,1,2026-07-08T19:49:27.609932+05:30
Hospet,Karnataka,15.2689,76.3909,26.6,73,0.0,953.1,7.25,67.7,27,8.5,5.5,4.4,118.0,43.0,1.5,7,5,7,1,2026-07-08T19:49:27.609938+05:30
Tirupur,Tamil Nadu,11.1085,77.3411,24.3,90,0.0,974.4,8.85,56.2,56,13.2,8.8,9.0,168.0,46.0,3.3,3,5,7,1,2026-07-08T19:49:27.609943+05:30
Alappuzha,Kerala,9.4981,76.3388,25.1,97,0.2,1010.4,8.5,43.9,57,21.1,13.0,10.2,94.0,43.0,4.0,10,0,4,1,2026-07-08T19:49:27.609949+05:30
Munnar,Kerala,10.0889,77.0595,16.6,100,0.1,856.8,6.75,60.1,34,7.0,5.3,7.9,93.0,34.0,1.5,6,10,7,1,2026-07-08T19:49:27.609955+05:30
Silchar,Assam,24.8333,92.7789,26.3,95,0.1,1001.8,1.0,37.1,29,9.6,8.8,5.9,243.0,51.0,2.3,10,5,0,1,2026-07-08T19:49:27.609960+05:30
Dibrugarh,Assam,27.4728,94.912,26.1,97,0.0,990.4,7.55,27.7,47,23.5,22.9,14.9,256.0,55.0,2.8,7,5,7,1,2026-07-08T19:49:27.609965+05:30
