city,state,latitude,longitude,temp,humidity,rain,pressure,uv_index,wind_gusts,aqi,pm10,pm2_5,no2,co,o3,so2,mosquito_risk,arthritis_risk,migraine_risk,frizz_risk,updated_at
Delhi,Delhi,28.6139,77.209,30.5,56,0.0,980.9,7.65,34.6,403,516.0,87.8,5.6,354.0,198.0,18.2,0,5,7,1,2026-05-30T14:50:39.241952+05:30
Mumbai,Maharashtra,19.076,72.8777,34.2,56,0.0,1006.9,7.6,40.0,67,28.1,18.4,4.3,155.0,93.0,5.8,0,5,4,1,2026-05-30T14:50:39.242001+05:30
Bangalore,Karnataka,12.9716,77.5946,31.6,47,0.0,911.5,8.95,38.9,58,20.9,13.1,3.4,288.0,132.0,3.0,0,5,7,1,2026-05-30T14:50:39.242017+05:30
Hyderabad,Telangana,17.385,78.4867,37.7,24,0.0,951.3,8.95,43.6,59,38.8,21.0,2.0,221.0,133.0,4.0,0,5,10,0,2026-05-30T14:50:39.242027+05:30
Chennai,Tamil Nadu,13.0827,80.2707,35.5,50,0.0,1004.5,9.0,42.5,90,35.0,27.4,3.4,254.0,191.0,6.0,0,5,7,1,2026-05-30T14:50:39.242036+05:30
Kolkata,West Bengal,22.5726,88.3639,33.3,61,0.0,1002.8,8.9,18.0,151,53.1,28.6,2.7,352.0,147.0,8.5,3,5,4,1,2026-05-30T14:50:39.242044+05:30
Pune,Maharashtra,18.5204,73.8567,35.5,35,0.0,947.4,8.35,42.5,49,24.7,12.9,1.5,135.0,99.0,3.1,0,5,10,1,2026-05-30T14:50:39.242051+05:30
Ahmedabad,Gujarat,23.0225,72.5714,40.2,29,0.0,996.7,8.1,55.8,71,47.6,19.7,1.4,134.0,91.0,3.2,0,5,10,1,2026-05-30T14:50:39.242057+05:30
Jaipur,Rajasthan,26.9124,75.7873,34.8,34,0.1,957.6,8.15,42.8,111,161.1,38.4,1.5,240.0,127.0,5.5,3,5,7,1,2026-05-30T14:50:39.242069+05:30
Lucknow,Uttar Pradesh,26.8467,80.9462,33.8,41,0.0,991.1,8.15,31.7,119,35.5,22.4,1.6,280.0,166.0,4.8,0,5,7,1,2026-05-30T14:50:39.242078+05:30
Kanpur,Uttar Pradesh,26.4499,80.3319,34.8,34,0.0,989.1,8.1,41.8,125,65.9,23.5,1.7,291.0,177.0,5.7,0,5,7,1,2026-05-30T14:50:39.242084+05:30
Chandigarh,Chandigarh,30.7333,76.7794,33.1,26,0.0,967.5,7.2,40.0,139,76.6,27.5,2.4,430.0,181.0,6.3,0,5,7,0,2026-05-30T14:50:39.242092+05:30
Srinagar,Jammu and Kashmir,34.0837,74.7973,25.9,31,0.0,843.1,8.95,37.1,90,23.2,14.5,1.6,241.0,169.0,4.1,4,5,7,0,2026-05-30T14:50:39.242099+05:30
Jammu,Jammu and Kashmir,32.7266,74.857,35.0,22,0.0,971.8,8.5,46.4,151,301.7,64.7,2.3,248.0,182.0,9.8,0,5,7,0,2026-05-30T14:50:39.242106+05:30
Amritsar,Punjab,31.634,74.8723,34.7,29,0.0,979.2,8.35,51.8,326,547.6,103.8,1.6,297.0,165.0,9.2,0,5,7,0,2026-05-30T14:50:39.242114+05:30
Ludhiana,Punjab,30.901,75.8573,33.0,34,0.0,977.1,7.95,49.0,469,476.8,78.5,1.7,342.0,174.0,8.0,0,5,7,0,2026-05-30T14:50:39.242121+05:30
Jalandhar,Punjab,31.326,75.5762,34.0,29,0.0,978.1,7.85,44.6,310,443.3,79.2,1.8,302.0,175.0,8.6,0,5,7,0,2026-05-30T14:50:39.242142+05:30
Dehradun,Uttarakhand,30.6284,78.0322,22.4,42,0.0,832.3,7.9,35.6,115,34.8,18.4,1.6,264.0,166.0,2.7,0,5,7,0,2026-05-30T14:50:39.242149+05:30
Shimla,Himachal Pradesh,31.1048,77.1734,19.5,32,0.0,786.5,5.6,43.9,127,58.4,32.9,4.6,293.0,172.0,4.4,0,5,3,0,2026-05-30T14:50:39.242163+05:30
Manali,Himachal Pradesh,32.2396,77.1887,20.2,45,0.0,819.4,8.1,39.6,116,13.8,7.0,1.0,166.0,168.0,0.2,0,5,7,0,2026-05-30T14:50:39.242169+05:30
Gurgaon,Haryana,28.4595,77.0266,33.5,42,0.0,979.1,7.75,41.4,1314,1121.3,143.9,4.1,297.0,170.0,10.6,0,5,7,1,2026-05-30T14:50:39.242175+05:30
Noida,Uttar Pradesh,28.5355,77.391,29.0,65,0.1,982.9,7.65,35.3,1314,1121.3,143.9,4.1,299.0,170.0,10.6,10,5,7,1,2026-05-30T14:50:39.242182+05:30
Ghaziabad,Uttar Pradesh,28.6692,77.4538,30.7,56,0.0,980.8,7.65,37.1,170,236.1,46.1,2.5,256.0,169.0,9.1,0,5,7,1,2026-05-30T14:50:39.242192+05:30
Faridabad,Haryana,28.4089,77.3178,30.5,56,0.1,982.0,7.7,36.0,1314,1121.3,143.9,4.1,277.0,170.0,10.6,3,5,7,1,2026-05-30T14:50:39.242199+05:30
Meerut,Uttar Pradesh,28.9845,77.7064,31.9,50,0.0,980.0,7.55,47.2,170,236.1,46.1,2.5,252.0,169.0,9.1,0,5,7,1,2026-05-30T14:50:39.242205+05:30
Agra,Uttar Pradesh,27.1767,78.0081,35.0,37,0.0,985.1,8.0,29.5,267,303.6,47.8,1.6,230.0,152.0,5.1,0,5,7,1,2026-05-30T14:50:39.242212+05:30
Varanasi,Uttar Pradesh,25.3176,82.9739,32.8,45,0.0,994.6,8.55,36.7,145,52.0,28.9,1.8,329.0,196.0,8.9,0,5,7,1,2026-05-30T14:50:39.242218+05:30
Prayagraj,Uttar Pradesh,25.4358,81.8463,34.3,41,0.0,993.0,8.3,31.7,138,45.2,22.8,1.7,323.0,187.0,6.0,0,5,7,1,2026-05-30T14:50:39.242225+05:30
Gorakhpur,Uttar Pradesh,26.7606,83.3732,31.0,55,0.1,994.7,8.5,45.7,136,40.7,30.9,1.8,280.0,186.0,11.3,3,5,7,1,2026-05-30T14:50:39.242233+05:30
Bareilly,Uttar Pradesh,28.367,79.4304,33.2,42,0.0,985.3,7.95,35.3,110,197.0,43.7,1.7,260.0,174.0,8.4,0,5,7,1,2026-05-30T14:50:39.242239+05:30
Aligarh,Uttar Pradesh,27.8974,78.088,34.4,47,0.0,983.3,7.8,30.2,328,312.0,51.5,1.9,247.0,160.0,7.2,0,5,7,1,2026-05-30T14:50:39.242245+05:30
Moradabad,Uttar Pradesh,28.8386,78.7733,29.2,61,0.0,982.2,7.75,45.7,112,98.0,31.4,2.2,278.0,173.0,8.5,7,5,7,1,2026-05-30T14:50:39.242252+05:30
Saharanpur,Uttar Pradesh,29.9637,77.546,31.2,47,0.0,974.3,7.4,47.2,123,57.6,23.2,1.8,288.0,172.0,4.6,0,5,7,1,2026-05-30T14:50:39.242258+05:30
Jhansi,Uttar Pradesh,25.4484,78.5685,34.4,42,0.0,974.9,8.35,53.6,115,51.5,21.8,1.5,212.0,162.0,10.6,0,5,7,1,2026-05-30T14:50:42.533791+05:30
Surat,Gujarat,21.1702,72.8311,35.0,51,0.0,1003.6,7.65,56.9,86,42.0,23.8,5.9,167.0,66.0,20.7,0,5,4,1,2026-05-30T14:50:42.533827+05:30
Vadodara,Gujarat,22.3072,73.1812,38.7,34,0.0,999.6,8.0,54.4,79,53.6,24.2,1.5,130.0,98.0,3.8,0,5,10,1,2026-05-30T14:50:42.533838+05:30
Rajkot,Gujarat,22.3039,70.8022,38.8,35,0.0,989.6,7.7,52.9,68,44.2,21.4,0.8,111.0,82.0,2.7,0,5,10,1,2026-05-30T14:50:42.533847+05:30
Thane,Maharashtra,19.2183,72.9781,36.3,45,0.0,1005.7,7.8,38.9,67,28.1,18.4,4.3,148.0,93.0,5.8,0,5,7,1,2026-05-30T14:50:42.533855+05:30
Nagpur,Maharashtra,21.1458,79.0882,40.6,22,0.0,968.5,8.85,41.8,70,50.8,26.0,3.4,148.0,135.0,14.7,0,5,10,0,2026-05-30T14:50:42.533863+05:30
Nashik,Maharashtra,19.9975,73.7898,34.9,38,0.0,944.1,8.1,51.1,63,37.5,18.2,0.9,121.0,87.0,1.6,0,5,7,1,2026-05-30T14:50:42.533870+05:30
Aurangabad,Maharashtra,19.8762,75.3433,37.3,28,0.0,942.0,8.95,48.6,65,57.4,22.6,1.0,127.0,107.0,3.2,0,5,10,0,2026-05-30T14:50:42.533877+05:30
Solapur,Maharashtra,17.6599,75.9064,38.2,25,0.0,955.3,8.95,37.8,49,20.4,10.6,1.1,129.0,112.0,1.7,0,5,10,0,2026-05-30T14:50:42.533885+05:30
Kolhapur,Maharashtra,16.705,74.2433,35.2,41,0.0,947.1,8.75,45.0,36,14.5,9.1,1.3,129.0,97.0,1.4,0,5,10,1,2026-05-30T14:50:42.533892+05:30
Goa,Goa,15.2993,74.124,32.4,66,0.2,996.8,6.85,31.7,55,12.1,8.0,0.6,125.0,65.0,0.8,6,5,7,1,2026-05-30T14:50:42.533898+05:30
Jodhpur,Rajasthan,26.2389,73.0243,39.9,29,0.0,977.1,8.35,75.6,160,187.2,38.0,0.7,115.0,97.0,2.1,0,5,10,1,2026-05-30T14:50:42.533905+05:30
Udaipur,Rajasthan,24.5854,73.7125,37.0,29,0.0,942.5,8.75,69.8,70,64.7,25.4,0.7,128.0,104.0,4.6,0,5,10,0,2026-05-30T14:50:42.533912+05:30
Kota,Rajasthan,25.2138,75.8648,39.0,28,0.0,973.9,8.3,58.0,73,91.5,30.9,1.0,151.0,121.0,5.9,0,5,10,1,2026-05-30T14:50:42.533919+05:30
Bikaner,Rajasthan,28.0229,73.3119,31.0,55,0.0,978.2,8.35,85.0,107,79.6,31.5,1.8,125.0,113.0,6.2,0,5,7,1,2026-05-30T14:50:42.533926+05:30
Ajmer,Rajasthan,26.4499,74.6399,34.2,31,0.1,951.8,8.3,76.3,76,83.6,25.4,0.8,143.0,112.0,2.6,3,5,7,0,2026-05-30T14:50:42.533933+05:30
Gwalior,Madhya Pradesh,26.2183,78.1828,34.0,45,0.0,979.9,8.15,29.9,106,50.3,20.0,0.8,218.0,149.0,5.8,0,5,7,1,2026-05-30T14:50:42.533939+05:30
Indore,Madhya Pradesh,22.7196,75.8577,36.8,24,0.0,945.3,8.6,66.6,78,81.5,28.7,0.9,162.0,100.0,3.6,0,5,10,0,2026-05-30T14:50:42.533946+05:30
Bhopal,Madhya Pradesh,23.2599,77.4126,37.8,22,0.0,950.5,8.65,52.9,70,53.9,25.6,0.7,154.0,110.0,4.5,0,5,10,0,2026-05-30T14:50:42.533952+05:30
Jabalpur,Madhya Pradesh,23.1815,79.9864,37.4,27,0.0,957.9,8.8,33.8,96,38.3,16.9,1.0,209.0,147.0,5.6,0,5,10,0,2026-05-30T14:50:42.533959+05:30
Ujjain,Madhya Pradesh,23.1765,75.7885,38.4,23,0.0,950.4,8.55,71.3,77,80.8,27.5,0.6,133.0,95.0,2.9,0,5,10,0,2026-05-30T14:50:42.533967+05:30
Visakhapatnam,Andhra Pradesh,17.6868,83.2185,36.2,58,0.0,998.2,8.65,34.6,121,47.5,40.9,9.6,473.0,202.0,41.0,0,5,10,1,2026-05-30T14:50:42.533973+05:30
Vijayawada,Andhra Pradesh,16.5062,80.648,40.4,31,0.0,998.0,8.85,44.6,79,31.0,22.9,1.9,180.0,156.0,6.6,0,5,10,1,2026-05-30T14:50:42.533979+05:30
Guntur,Andhra Pradesh,16.3067,80.4365,39.5,34,0.0,999.3,8.65,36.4,71,34.8,23.1,1.5,167.0,145.0,5.5,0,5,10,1,2026-05-30T14:50:42.533986+05:30
Nellore,Andhra Pradesh,14.4426,79.9865,37.3,42,0.0,1002.6,8.35,35.3,72,25.0,18.8,2.6,151.0,142.0,5.8,0,5,7,1,2026-05-30T14:50:42.533994+05:30
Kurnool,Andhra Pradesh,15.8281,78.0373,37.5,36,0.0,974.4,9.0,58.7,58,20.9,14.6,1.3,150.0,130.0,7.4,0,5,10,1,2026-05-30T14:50:42.534001+05:30
Kakinada,Andhra Pradesh,16.9891,82.2475,39.5,38,0.0,1001.9,7.55,40.0,129,32.7,25.0,2.2,250.0,161.0,3.5,0,5,7,1,2026-05-30T14:50:42.534007+05:30
Tirupati,Andhra Pradesh,13.6288,79.4192,25.9,100,0.3,989.6,9.05,40.7,75,23.2,15.2,1.5,150.0,124.0,2.5,10,5,7,1,2026-05-30T14:50:42.534014+05:30
Warangal,Telangana,17.9689,79.5941,38.5,30,0.0,975.0,9.05,45.7,79,53.6,30.4,1.7,178.0,138.0,5.3,0,5,10,1,2026-05-30T14:50:42.534021+05:30
Nizamabad,Telangana,18.6725,78.0941,38.5,24,0.0,961.9,8.95,41.4,73,60.3,26.7,1.0,157.0,118.0,3.7,0,5,10,0,2026-05-30T14:50:42.534027+05:30
Mysore,Karnataka,12.2958,76.6396,33.0,47,0.0,927.9,9.0,49.0,37,16.1,9.7,1.8,151.0,118.0,1.4,0,5,7,1,2026-05-30T14:50:42.534034+05:30
Mangalore,Karnataka,12.9141,74.856,30.0,76,0.0,1006.2,7.95,30.6,38,7.7,5.1,1.0,121.0,73.0,1.3,7,5,4,1,2026-05-30T14:50:42.534040+05:30
Hubli-Dharwad,Karnataka,15.3647,75.124,33.5,44,0.1,940.5,8.9,40.7,38,13.6,8.6,1.2,136.0,91.0,0.9,3,5,7,1,2026-05-30T14:50:42.534046+05:30
Belgaum,Karnataka,15.8497,74.4977,30.6,57,0.1,925.9,8.65,42.5,32,11.1,7.6,1.3,130.0,81.0,1.3,3,5,7,1,2026-05-30T14:50:45.817241+05:30
Coimbatore,Tamil Nadu,11.0168,76.9558,32.8,48,0.0,960.9,9.0,52.2,34,11.1,7.1,1.5,155.0,96.0,1.8,0,5,7,1,2026-05-30T14:50:45.817279+05:30
Madurai,Tamil Nadu,9.9252,78.1198,38.3,32,0.0,990.4,8.65,28.1,66,16.9,9.9,2.1,156.0,135.0,2.2,0,5,10,1,2026-05-30T14:50:45.817290+05:30
Trichy,Tamil Nadu,10.7905,78.7047,37.8,37,0.0,996.8,8.4,41.4,38,15.4,9.2,1.6,142.0,115.0,2.0,0,5,10,1,2026-05-30T14:50:45.817300+05:30
Salem,Tamil Nadu,11.6643,78.146,38.4,32,0.0,975.0,8.7,44.6,58,25.4,16.0,2.5,149.0,152.0,7.8,0,5,10,1,2026-05-30T14:50:45.817308+05:30
Tirunelveli,Tamil Nadu,8.7139,77.7567,36.5,39,0.0,1000.9,8.5,37.4,26,17.4,8.4,1.3,123.0,79.0,0.8,0,5,7,1,2026-05-30T14:50:45.817316+05:30
Vellore,Tamil Nadu,12.9165,79.1325,29.3,75,0.1,983.0,8.95,41.4,68,25.5,15.8,1.5,186.0,141.0,2.4,10,5,7,1,2026-05-30T14:50:45.817324+05:30
Erode,Tamil Nadu,11.341,77.7172,38.1,31,0.0,986.5,8.9,54.4,37,15.1,9.2,1.9,164.0,122.0,1.7,0,5,10,1,2026-05-30T14:50:45.817332+05:30
Kochi,Kerala,9.9312,76.2673,28.1,82,0.0,1008.8,8.15,27.7,38,8.8,6.3,2.1,114.0,85.0,2.4,7,0,4,1,2026-05-30T14:50:45.817340+05:30
Thiruvananthapuram,Kerala,8.5241,76.9366,28.2,80,0.0,1008.3,7.7,37.8,29,7.8,4.7,0.8,108.0,68.0,0.5,7,0,4,1,2026-05-30T14:50:45.817347+05:30
Kozhikode,Kerala,11.2588,75.7804,29.8,75,0.1,1007.6,8.2,33.5,32,6.9,4.1,0.4,116.0,70.0,0.4,10,5,4,1,2026-05-30T14:50:45.817355+05:30
Thrissur,Kerala,10.5276,76.2144,28.7,78,0.1,1006.9,8.1,32.0,38,8.6,6.4,1.9,117.0,82.0,1.8,10,5,4,1,2026-05-30T14:50:45.817363+05:30
Kannur,Kerala,11.8745,75.3704,30.0,76,0.1,1007.0,8.35,33.5,32,7.2,4.7,0.9,120.0,74.0,0.8,10,5,4,1,2026-05-30T14:50:45.817370+05:30
Patna,Bihar,25.5941,85.1376,33.0,48,0.0,997.6,8.7,30.6,134,65.2,49.1,2.4,275.0,195.0,15.0,0,5,7,1,2026-05-30T14:50:45.817377+05:30
Gaya,Bihar,24.7914,85.0002,33.9,45,0.0,990.7,8.8,26.6,127,59.5,45.8,2.0,332.0,192.0,15.2,0,5,7,1,2026-05-30T14:50:45.817384+05:30
Muzaffarpur,Bihar,26.1209,85.3647,31.5,55,0.0,997.9,8.2,35.3,142,68.9,52.3,2.7,264.0,204.0,18.2,0,5,7,1,2026-05-30T14:50:45.817391+05:30
Bhagalpur,Bihar,25.2425,87.0117,33.0,53,0.0,998.5,8.7,21.6,164,110.8,66.4,3.6,330.0,232.0,29.1,0,5,7,1,2026-05-30T14:50:45.817398+05:30
Ranchi,Jharkhand,23.3441,85.3096,31.1,57,0.0,935.8,9.25,29.9,134,50.3,33.5,1.5,288.0,160.0,9.1,0,5,7,1,2026-05-30T14:50:45.817405+05:30
Jamshedpur,Jharkhand,22.8046,86.2029,32.0,60,0.0,987.5,9.0,40.3,115,48.8,31.2,3.5,268.0,154.0,13.9,0,5,7,1,2026-05-30T14:50:45.817411+05:30
Dhanbad,Jharkhand,23.7957,86.4304,32.2,58,0.0,977.3,9.05,45.7,157,77.1,58.0,15.9,404.0,185.0,59.9,0,5,7,1,2026-05-30T14:50:45.817418+05:30
Bokaro,Jharkhand,23.6693,86.1511,32.7,58,0.0,980.9,9.05,52.6,156,67.8,55.8,17.7,1096.0,181.0,68.8,0,5,7,1,2026-05-30T14:50:45.817426+05:30
Bhubaneswar,Odisha,20.2961,85.8245,34.2,60,0.0,998.5,9.05,41.4,106,44.4,28.6,1.7,231.0,132.0,4.6,0,5,7,1,2026-05-30T14:50:45.817433+05:30
Cuttack,Odisha,20.4625,85.8828,34.8,59,0.0,1000.0,9.1,42.5,106,44.4,28.6,1.7,237.0,132.0,4.6,0,5,4,1,2026-05-30T14:50:45.817440+05:30
Rourkela,Odisha,22.2604,84.8536,34.0,55,0.0,981.2,8.95,37.4,145,54.8,35.5,2.6,402.0,170.0,11.2,0,5,7,1,2026-05-30T14:50:45.817465+05:30
Raipur,Chhattisgarh,21.2514,81.6296,38.2,33,0.0,970.1,8.95,53.6,146,56.3,41.7,5.6,256.0,203.0,31.1,0,5,10,1,2026-05-30T14:50:45.817471+05:30
Bhilai,Chhattisgarh,21.1938,81.3509,38.0,31,0.0,970.6,8.95,43.9,131,51.8,34.0,6.1,522.0,169.0,28.1,0,5,10,1,2026-05-30T14:50:45.817478+05:30
Guwahati,Assam,26.1158,91.7086,29.7,76,0.0,998.8,8.7,33.8,91,40.2,22.5,1.4,279.0,127.0,2.5,7,5,7,1,2026-05-30T14:50:45.817485+05:30
Agartala,Tripura,23.8315,91.2868,32.8,55,0.0,1003.1,8.85,22.0,171,91.0,49.5,4.0,269.0,222.0,10.7,0,5,4,1,2026-05-30T14:50:45.817491+05:30
Shillong,Meghalaya,25.5788,91.8933,23.3,70,0.1,857.4,8.05,26.3,80,65.2,26.0,1.1,216.0,132.0,3.3,6,5,7,1,2026-05-30T14:50:45.817498+05:30
Imphal,Manipur,24.817,93.9368,28.2,65,0.0,921.4,8.9,26.6,123,67.1,27.5,1.9,223.0,112.0,2.5,7,5,7,1,2026-05-30T14:50:45.817505+05:30
Aizawl,Mizoram,23.7271,92.7176,20.9,95,0.2,890.8,9.1,28.4,71,43.5,20.6,0.9,206.0,125.0,3.0,6,5,7,1,2026-05-30T14:50:45.817512+05:30
Kohima,Nagaland,25.6701,94.1077,23.4,79,0.0,855.3,8.0,23.4,89,39.1,23.1,2.3,219.0,106.0,1.6,3,5,7,1,2026-05-30T14:50:45.817518+05:30
Gangtok,Sikkim,27.3314,88.6138,23.1,48,0.0,839.2,9.15,34.2,63,27.6,14.4,0.8,225.0,126.0,1.6,0,5,7,0,2026-05-30T14:50:45.817524+05:30
Siliguri,West Bengal,26.7271,88.3953,32.1,57,0.0,990.6,8.65,50.4,110,59.3,25.2,1.6,340.0,151.0,3.0,0,5,7,1,2026-05-30T14:50:49.112695+05:30
Durgapur,West Bengal,23.5204,87.3119,32.2,62,0.0,992.2,8.95,17.6,163,91.5,59.8,10.6,273.0,214.0,42.6,3,5,7,1,2026-05-30T14:50:49.112730+05:30
Asansol,West Bengal,23.6739,86.9524,32.0,59,0.0,990.9,9.0,24.8,158,86.1,59.4,10.2,593.0,205.0,41.4,0,5,7,1,2026-05-30T14:50:49.112742+05:30
Pondicherry,Puducherry,11.9139,79.8145,33.8,60,0.0,1005.6,8.9,35.6,66,38.6,32.7,8.2,240.0,198.0,13.7,0,5,4,1,2026-05-30T14:50:49.112751+05:30
Port Blair,Andaman and Nicobar Islands,11.6234,92.7265,29.2,78,0.0,1004.6,8.7,34.2,37,10.2,6.2,0.4,117.0,73.0,0.5,7,5,4,1,2026-05-30T14:50:49.112760+05:30
Haridwar,Uttarakhand,29.9457,78.1642,31.8,42,0.0,973.0,7.45,59.4,126,46.2,21.4,1.3,238.0,173.0,4.7,0,5,7,1,2026-05-30T14:50:49.112768+05:30
Rishikesh,Uttarakhand,30.0869,78.2676,31.5,38,0.0,965.8,7.6,57.6,132,39.9,19.6,0.9,283.0,172.0,4.5,0,5,7,0,2026-05-30T14:50:49.112776+05:30
Nainital,Uttarakhand,29.3919,79.4542,15.1,91,0.2,805.9,7.75,30.6,118,39.9,20.0,1.3,223.0,164.0,3.5,6,10,7,0,2026-05-30T14:50:49.112784+05:30
Mussoorie,Uttarakhand,30.4599,78.0664,20.7,40,0.0,805.1,7.9,40.0,124,50.1,20.5,1.3,285.0,173.0,4.2,0,5,7,0,2026-05-30T14:50:49.112792+05:30
Dharamshala,Himachal Pradesh,32.219,76.3234,21.9,57,0.1,869.7,6.6,42.1,108,41.1,18.9,1.2,222.0,156.0,2.8,3,5,7,0,2026-05-30T14:50:49.112800+05:30
Dalhousie,Himachal Pradesh,32.5387,75.971,18.4,60,0.1,805.8,8.0,28.8,130,95.2,31.4,1.9,242.0,183.0,7.3,3,5,7,0,2026-05-30T14:50:49.112808+05:30
Patiala,Punjab,30.3398,76.3869,32.9,42,0.0,976.8,7.55,47.2,1169,362.3,63.6,1.8,320.0,179.0,8.4,0,5,7,1,2026-05-30T14:50:49.112815+05:30
Bhatinda,Punjab,30.211,74.9455,34.8,33,0.0,981.1,8.2,65.5,1032,1464.0,225.8,2.4,249.0,166.0,12.1,0,5,7,1,2026-05-30T14:50:49.112822+05:30
Rohtak,Haryana,28.8955,76.6066,33.0,46,0.1,980.1,7.65,44.3,764,817.7,122.0,2.9,298.0,188.0,11.3,3,5,7,1,2026-05-30T14:50:49.112829+05:30
Panipat,Haryana,29.3909,76.9635,33.0,44,0.0,978.6,7.5,47.5,1466,491.7,83.8,3.2,284.0,198.0,16.2,0,5,7,1,2026-05-30T14:50:49.112836+05:30
Mathura,Uttar Pradesh,27.4924,77.6737,34.5,42,0.0,984.2,7.9,34.9,329,516.0,72.4,1.7,230.0,154.0,4.6,0,5,7,1,2026-05-30T14:50:49.112843+05:30
Vrindavan,Uttar Pradesh,27.5823,77.7027,34.5,42,0.0,984.6,7.9,36.4,329,516.0,72.4,1.7,232.0,154.0,4.6,0,5,7,1,2026-05-30T14:50:49.112850+05:30
Ayodhya,Uttar Pradesh,26.7922,82.1998,32.2,48,0.1,993.1,8.25,36.4,121,32.1,22.8,1.5,277.0,176.0,6.3,3,5,7,1,2026-05-30T14:50:49.112857+05:30
Ratlam,Madhya Pradesh,23.3315,75.0367,37.7,29,0.0,951.4,8.45,48.2,76,74.5,26.6,0.5,120.0,94.0,2.9,0,5,10,1,2026-05-30T14:50:49.112864+05:30
Sagar,Madhya Pradesh,23.8388,78.7378,36.2,27,0.0,947.6,8.7,72.7,98,51.2,19.6,0.6,141.0,127.0,2.8,0,5,10,0,2026-05-30T14:50:49.112870+05:30
Satna,Madhya Pradesh,24.6005,80.8322,34.7,37,0.1,968.4,8.75,28.8,110,54.4,21.3,0.9,183.0,141.0,3.3,3,5,7,1,2026-05-30T14:50:49.112877+05:30
Akola,Maharashtra,20.7002,77.0082,39.3,27,0.0,971.3,8.8,52.2,67,71.2,28.1,1.3,125.0,106.0,5.3,0,5,10,1,2026-05-30T14:50:49.112885+05:30
Amravati,Maharashtra,20.9374,77.7796,38.2,30,0.0,963.8,8.8,48.2,66,69.2,27.5,1.4,124.0,107.0,5.7,0,5,10,1,2026-05-30T14:50:49.112893+05:30
Latur,Maharashtra,18.4088,76.5604,36.8,29,0.0,938.4,8.95,37.8,54,27.8,13.5,0.8,128.0,107.0,1.8,0,5,10,0,2026-05-30T14:50:49.112900+05:30
Nanded,Maharashtra,19.1383,77.3091,39.6,21,0.0,965.4,8.85,41.0,70,65.0,25.7,1.0,145.0,111.0,2.8,0,5,10,0,2026-05-30T14:50:49.112907+05:30
Gulbarga,Karnataka,17.3297,76.8343,38.7,25,0.0,956.6,8.75,40.3,51,20.8,11.5,1.4,140.0,117.0,2.1,0,5,10,0,2026-05-30T14:50:49.112913+05:30
Bidar,Karnataka,17.9104,77.5199,36.5,28,0.0,934.0,8.9,40.0,63,44.0,21.1,1.3,143.0,123.0,4.2,0,5,10,0,2026-05-30T14:50:49.112920+05:30
Hospet,Karnataka,15.2689,76.3909,34.8,45,0.0,954.3,8.95,47.9,47,17.6,10.7,1.4,143.0,108.0,2.1,0,5,7,1,2026-05-30T14:50:49.112926+05:30
Tirupur,Tamil Nadu,11.1085,77.3411,35.3,39,0.2,973.3,9.0,52.9,37,14.6,8.9,1.9,148.0,116.0,2.1,3,5,10,1,2026-05-30T14:50:49.112933+05:30
Alappuzha,Kerala,9.4981,76.3388,28.2,79,0.0,1009.1,8.0,32.0,31,7.4,5.1,1.7,102.0,75.0,1.1,7,0,4,1,2026-05-30T14:50:49.112940+05:30
Munnar,Kerala,10.0889,77.0595,20.7,90,0.0,858.0,7.0,29.2,28,10.1,5.9,1.0,117.0,85.0,1.1,3,5,7,1,2026-05-30T14:50:49.112948+05:30
Silchar,Assam,24.8333,92.7789,30.9,74,0.0,1001.6,7.8,20.9,134,73.1,35.7,1.8,338.0,163.0,7.1,3,5,4,1,2026-05-30T14:50:49.112955+05:30
Dibrugarh,Assam,27.4728,94.912,33.2,57,0.0,991.5,2.1,16.2,113,42.5,27.7,1.6,259.0,148.0,3.1,0,5,3,1,2026-05-30T14:50:49.112961+05:30
