city,state,latitude,longitude,temp,humidity,rain,pressure,uv_index,wind_gusts,aqi,pm10,pm2_5,no2,co,o3,so2,mosquito_risk,arthritis_risk,migraine_risk,frizz_risk,updated_at
Delhi,Delhi,28.6139,77.209,33.6,51,0.0,978.3,7.7,30.2,512,838.2,146.2,15.4,327.0,68.0,12.8,0,5,7,1,2026-07-18T10:58:56.422495+05:30
Mumbai,Maharashtra,19.076,72.8777,26.6,86,0.0,1008.5,4.25,32.0,68,31.2,16.2,7.3,219.0,69.0,7.8,7,0,0,1,2026-07-18T10:58:56.422541+05:30
Bangalore,Karnataka,12.9716,77.5946,25.2,62,0.1,913.4,3.85,45.4,37,15.3,8.6,6.4,275.0,51.0,3.2,10,5,3,1,2026-07-18T10:58:56.422557+05:30
Hyderabad,Telangana,17.385,78.4867,26.3,74,0.1,952.9,3.1,43.6,58,18.3,11.3,9.3,227.0,39.0,5.2,10,5,3,1,2026-07-18T10:58:56.422567+05:30
Chennai,Tamil Nadu,13.0827,80.2707,32.2,55,0.0,1007.1,6.8,43.6,68,16.4,11.4,12.6,302.0,62.0,14.3,0,5,4,1,2026-07-18T10:58:56.422575+05:30
Kolkata,West Bengal,22.5726,88.3639,31.7,72,0.0,1001.2,7.05,40.7,70,17.5,13.4,3.6,288.0,114.0,9.5,3,5,4,1,2026-07-18T10:58:56.422584+05:30
Pune,Maharashtra,18.5204,73.8567,25.4,78,0.0,947.9,7.75,41.8,40,7.6,4.9,5.1,143.0,49.0,5.4,7,5,7,1,2026-07-18T10:58:56.422591+05:30
Ahmedabad,Gujarat,23.0225,72.5714,32.3,56,0.0,999.7,6.05,34.9,74,30.3,14.1,3.4,135.0,65.0,4.8,0,5,7,1,2026-07-18T10:58:56.422598+05:30
Jaipur,Rajasthan,26.9124,75.7873,34.3,43,0.0,956.8,6.8,36.0,204,573.7,93.8,2.9,153.0,85.0,3.6,0,5,7,1,2026-07-18T10:58:56.422605+05:30
Lucknow,Uttar Pradesh,26.8467,80.9462,31.8,76,0.0,989.0,7.75,24.5,164,110.8,45.6,4.2,318.0,140.0,8.3,3,5,7,1,2026-07-18T10:58:56.422616+05:30
Kanpur,Uttar Pradesh,26.4499,80.3319,33.2,61,0.0,987.2,7.95,32.8,169,151.8,61.2,5.0,213.0,128.0,8.6,3,5,7,1,2026-07-18T10:58:56.422623+05:30
Chandigarh,Chandigarh,30.7333,76.7794,32.8,63,0.0,963.8,7.7,24.1,145,160.7,67.8,5.2,529.0,172.0,16.7,3,5,7,1,2026-07-18T10:58:56.422629+05:30
Srinagar,Jammu and Kashmir,34.0837,74.7973,29.1,51,0.0,840.4,9.05,19.4,101,56.0,37.0,4.0,476.0,146.0,5.3,4,5,7,1,2026-07-18T10:58:56.422637+05:30
Jammu,Jammu and Kashmir,32.7266,74.857,32.6,68,0.0,966.6,8.45,23.4,152,116.9,56.2,3.7,331.0,152.0,8.3,3,5,7,1,2026-07-18T10:58:56.422644+05:30
Amritsar,Punjab,31.634,74.8723,33.9,64,0.0,974.7,7.2,19.1,169,260.8,88.0,9.9,672.0,158.0,10.2,3,5,7,1,2026-07-18T10:58:56.422650+05:30
Ludhiana,Punjab,30.901,75.8573,35.9,46,0.0,972.9,7.95,21.2,174,271.0,95.9,9.0,516.0,165.0,11.2,0,5,10,1,2026-07-18T10:58:56.422657+05:30
Jalandhar,Punjab,31.326,75.5762,34.2,62,0.0,973.9,8.25,18.4,170,219.8,95.2,12.2,574.0,170.0,9.8,3,5,7,1,2026-07-18T10:58:56.422666+05:30
Dehradun,Uttarakhand,30.6284,78.0322,22.5,87,0.0,829.4,7.05,24.5,94,23.3,15.2,1.6,281.0,145.0,4.2,3,5,7,1,2026-07-18T10:58:56.422673+05:30
Shimla,Himachal Pradesh,31.1048,77.1734,20.4,73,0.0,785.0,7.4,37.4,81,42.3,20.7,2.7,187.0,138.0,7.0,3,5,7,0,2026-07-18T10:58:56.422682+05:30
Manali,Himachal Pradesh,32.2396,77.1887,25.0,77,0.0,819.0,7.05,29.5,57,14.1,8.4,4.4,230.0,110.0,0.8,7,5,7,1,2026-07-18T10:58:56.422691+05:30
Gurgaon,Haryana,28.4595,77.0266,34.7,47,0.0,976.8,7.75,33.8,497,949.9,165.8,14.7,222.0,78.0,11.0,0,5,7,1,2026-07-18T10:58:56.422698+05:30
Noida,Uttar Pradesh,28.5355,77.391,33.9,52,0.0,979.6,7.7,26.3,497,949.9,165.8,14.7,327.0,78.0,11.0,0,5,7,1,2026-07-18T10:58:56.422704+05:30
Ghaziabad,Uttar Pradesh,28.6692,77.4538,32.8,55,0.0,977.8,7.7,28.1,471,406.1,95.7,24.8,292.0,91.0,22.8,0,5,7,1,2026-07-18T10:58:56.422710+05:30
Faridabad,Haryana,28.4089,77.3178,34.5,48,0.0,978.9,7.75,31.3,497,949.9,165.8,14.7,251.0,78.0,11.0,0,5,7,1,2026-07-18T10:58:56.422716+05:30
Meerut,Uttar Pradesh,28.9845,77.7064,32.6,61,0.0,976.6,7.6,25.6,471,406.1,95.7,24.8,236.0,91.0,22.8,3,5,7,1,2026-07-18T10:58:56.422723+05:30
Agra,Uttar Pradesh,27.1767,78.0081,35.5,46,0.0,983.3,7.3,31.3,165,195.6,52.9,7.2,197.0,110.0,5.6,0,5,10,1,2026-07-18T10:58:56.422729+05:30
Varanasi,Uttar Pradesh,25.3176,82.9739,30.8,79,0.0,992.9,8.3,23.4,100,18.7,16.5,4.5,324.0,143.0,7.9,3,5,7,1,2026-07-18T10:58:56.422736+05:30
Prayagraj,Uttar Pradesh,25.4358,81.8463,32.1,71,0.0,991.5,5.9,30.6,132,67.8,35.3,5.0,198.0,148.0,8.8,3,5,3,1,2026-07-18T10:58:56.422743+05:30
Gorakhpur,Uttar Pradesh,26.7606,83.3732,27.9,92,0.3,993.1,7.25,21.2,102,20.6,19.1,4.0,295.0,116.0,5.0,10,5,7,1,2026-07-18T10:58:56.422750+05:30
Bareilly,Uttar Pradesh,28.367,79.4304,29.3,84,0.0,982.4,8.0,28.1,157,173.7,66.8,6.0,394.0,147.0,13.7,7,5,7,1,2026-07-18T10:58:56.422758+05:30
Aligarh,Uttar Pradesh,27.8974,78.088,34.1,54,0.0,980.8,6.8,28.4,301,419.1,96.6,9.2,238.0,110.0,9.9,0,5,7,1,2026-07-18T10:58:56.422764+05:30
Moradabad,Uttar Pradesh,28.8386,78.7733,32.0,72,0.0,978.9,7.85,25.9,172,242.1,77.5,6.0,462.0,153.0,13.8,3,5,7,1,2026-07-18T10:58:56.422771+05:30
Saharanpur,Uttar Pradesh,29.9637,77.546,31.9,75,0.0,970.7,7.35,30.6,177,328.8,111.8,8.4,494.0,162.0,15.5,3,5,7,1,2026-07-18T10:58:56.422777+05:30
Jhansi,Uttar Pradesh,25.4484,78.5685,33.2,59,0.0,974.5,7.85,32.4,104,34.5,21.1,3.2,152.0,96.0,5.9,0,5,7,1,2026-07-18T10:58:59.783122+05:30
Surat,Gujarat,21.1702,72.8311,29.9,73,0.1,1005.2,7.5,45.4,74,24.4,18.4,15.8,398.0,41.0,44.7,10,5,4,1,2026-07-18T10:58:59.783170+05:30
Vadodara,Gujarat,22.3072,73.1812,30.9,64,0.1,1002.2,6.0,42.8,70,31.7,15.6,4.1,153.0,63.0,5.3,6,5,0,1,2026-07-18T10:58:59.783189+05:30
Rajkot,Gujarat,22.3039,70.8022,31.3,59,0.0,991.7,7.65,49.3,61,28.0,12.9,2.1,103.0,62.0,4.4,0,5,7,1,2026-07-18T10:58:59.783204+05:30
Thane,Maharashtra,19.2183,72.9781,27.4,86,0.0,1007.6,6.0,33.8,68,31.2,16.2,7.3,213.0,69.0,7.8,7,5,0,1,2026-07-18T10:58:59.783218+05:30
Nagpur,Maharashtra,21.1458,79.0882,26.6,90,0.1,971.3,1.2,30.2,77,15.3,11.8,11.4,210.0,52.0,16.8,10,5,3,1,2026-07-18T10:58:59.783234+05:30
Nashik,Maharashtra,19.9975,73.7898,24.8,83,0.1,944.6,6.25,43.6,38,11.1,6.3,3.2,131.0,50.0,2.8,6,5,7,1,2026-07-18T10:58:59.783247+05:30
Aurangabad,Maharashtra,19.8762,75.3433,25.6,78,0.2,943.5,7.65,38.2,48,13.0,7.2,4.0,162.0,51.0,6.5,10,5,7,1,2026-07-18T10:58:59.783255+05:30
Solapur,Maharashtra,17.6599,75.9064,27.0,71,0.0,957.6,3.25,38.9,48,15.7,7.3,1.9,125.0,57.0,2.3,7,5,3,1,2026-07-18T10:58:59.783262+05:30
Kolhapur,Maharashtra,16.705,74.2433,25.4,79,0.0,948.7,5.35,46.1,38,7.5,4.4,2.8,138.0,50.0,2.0,7,5,3,1,2026-07-18T10:58:59.783276+05:30
Goa,Goa,15.2993,74.124,28.2,79,0.1,1000.1,6.35,34.9,65,21.9,10.6,1.6,168.0,55.0,1.3,10,5,4,1,2026-07-18T10:58:59.783290+05:30
Jodhpur,Rajasthan,26.2389,73.0243,33.4,48,0.0,979.6,8.4,43.6,133,231.4,56.1,1.3,110.0,68.0,3.1,0,5,7,1,2026-07-18T10:58:59.783307+05:30
Udaipur,Rajasthan,24.5854,73.7125,29.4,59,0.0,944.2,8.3,38.2,75,41.9,17.0,1.3,108.0,60.0,2.6,4,5,7,1,2026-07-18T10:58:59.783321+05:30
Kota,Rajasthan,25.2138,75.8648,34.0,47,0.0,975.8,8.3,35.6,89,61.5,32.2,3.2,141.0,95.0,7.8,0,5,7,1,2026-07-18T10:58:59.783334+05:30
Bikaner,Rajasthan,28.0229,73.3119,35.8,39,0.0,977.1,8.45,39.2,117,200.7,66.6,0.8,109.0,67.0,3.0,0,5,10,1,2026-07-18T10:58:59.783346+05:30
Ajmer,Rajasthan,26.4499,74.6399,31.1,55,0.0,952.0,7.95,42.8,77,86.4,34.7,1.8,120.0,77.0,3.2,0,5,7,1,2026-07-18T10:58:59.783360+05:30
Gwalior,Madhya Pradesh,26.2183,78.1828,32.9,57,0.0,979.5,2.65,32.4,118,58.1,24.7,3.2,154.0,99.0,3.3,0,5,3,1,2026-07-18T10:58:59.783375+05:30
Indore,Madhya Pradesh,22.7196,75.8577,29.1,66,0.0,946.5,2.75,37.4,72,38.5,21.1,3.5,189.0,84.0,8.1,7,5,3,1,2026-07-18T10:58:59.783388+05:30
Bhopal,Madhya Pradesh,23.2599,77.4126,29.9,62,0.0,951.8,5.4,34.2,84,51.8,28.1,2.7,193.0,94.0,7.6,7,5,3,1,2026-07-18T10:58:59.783401+05:30
Jabalpur,Madhya Pradesh,23.1815,79.9864,29.2,77,0.0,958.8,8.75,34.9,87,30.7,20.0,3.3,254.0,93.0,4.4,7,5,7,1,2026-07-18T10:58:59.783414+05:30
Ujjain,Madhya Pradesh,23.1765,75.7885,29.5,67,0.0,952.0,3.25,35.6,73,40.4,21.8,2.8,165.0,81.0,7.9,7,5,3,1,2026-07-18T10:58:59.783422+05:30
Visakhapatnam,Andhra Pradesh,17.6868,83.2185,30.7,70,0.0,1000.4,5.4,42.1,88,31.5,23.2,10.6,335.0,113.0,32.3,3,5,0,1,2026-07-18T10:58:59.783429+05:30
Vijayawada,Andhra Pradesh,16.5062,80.648,29.3,74,0.0,1001.3,2.75,40.3,77,16.6,10.4,3.6,144.0,81.0,5.6,7,5,0,1,2026-07-18T10:58:59.783436+05:30
Guntur,Andhra Pradesh,16.3067,80.4365,30.2,65,0.0,1002.7,2.85,44.6,74,15.3,9.5,3.2,144.0,76.0,4.9,3,5,0,1,2026-07-18T10:58:59.783443+05:30
Nellore,Andhra Pradesh,14.4426,79.9865,29.1,72,0.0,1005.8,4.7,41.8,57,16.8,9.5,4.5,125.0,58.0,6.4,7,5,0,1,2026-07-18T10:58:59.783451+05:30
Kurnool,Andhra Pradesh,15.8281,78.0373,29.4,61,0.0,977.4,5.65,44.6,54,19.3,9.1,3.4,133.0,55.0,5.6,7,5,3,1,2026-07-18T10:58:59.783459+05:30
Kakinada,Andhra Pradesh,16.9891,82.2475,30.9,65,0.0,1005.1,7.0,47.2,83,20.7,14.4,3.9,214.0,100.0,5.5,3,5,4,1,2026-07-18T10:58:59.783466+05:30
Tirupati,Andhra Pradesh,13.6288,79.4192,31.7,53,0.0,991.2,3.4,39.6,54,15.6,7.7,2.3,116.0,59.0,1.5,0,5,3,1,2026-07-18T10:58:59.783473+05:30
Warangal,Telangana,17.9689,79.5941,30.7,62,0.0,977.5,4.75,42.1,73,22.1,13.4,3.4,150.0,75.0,5.2,3,5,3,1,2026-07-18T10:58:59.783479+05:30
Nizamabad,Telangana,18.6725,78.0941,25.1,92,0.0,964.3,3.4,40.7,68,26.8,13.5,3.2,137.0,65.0,6.3,7,5,3,1,2026-07-18T10:58:59.783486+05:30
Mysore,Karnataka,12.2958,76.6396,26.8,58,0.0,930.5,3.2,47.5,27,9.4,5.4,2.6,126.0,59.0,1.7,4,5,3,1,2026-07-18T10:58:59.783492+05:30
Mangalore,Karnataka,12.9141,74.856,27.8,80,0.0,1009.9,1.45,35.3,57,18.9,10.7,3.0,160.0,53.0,2.5,7,0,0,1,2026-07-18T10:58:59.783499+05:30
Hubli-Dharwad,Karnataka,15.3647,75.124,26.1,72,0.0,942.4,7.75,50.4,23,7.0,3.8,2.5,114.0,51.0,1.2,7,5,7,1,2026-07-18T10:58:59.783508+05:30
Belgaum,Karnataka,15.8497,74.4977,23.9,82,0.0,926.8,6.85,45.7,27,5.6,3.1,2.6,111.0,44.0,1.3,3,5,7,1,2026-07-18T10:59:03.241859+05:30
Coimbatore,Tamil Nadu,11.0168,76.9558,30.1,55,0.0,963.7,7.2,49.0,42,17.1,9.2,2.6,156.0,65.0,2.5,0,5,7,1,2026-07-18T10:59:03.241912+05:30
Madurai,Tamil Nadu,9.9252,78.1198,33.7,42,0.0,994.7,7.95,24.1,68,26.0,12.7,4.1,157.0,81.0,4.0,0,5,7,1,2026-07-18T10:59:03.241923+05:30
Trichy,Tamil Nadu,10.7905,78.7047,33.8,43,0.0,1001.0,7.7,44.6,53,21.5,11.7,2.6,124.0,67.0,2.8,0,5,4,1,2026-07-18T10:59:03.241932+05:30
Salem,Tamil Nadu,11.6643,78.146,30.8,55,0.0,978.9,6.05,36.7,68,22.3,14.0,5.5,192.0,77.0,8.2,0,5,7,1,2026-07-18T10:59:03.241940+05:30
Tirunelveli,Tamil Nadu,8.7139,77.7567,35.0,40,0.0,1004.8,8.65,50.0,50,14.4,8.6,1.7,120.0,72.0,1.8,0,5,4,1,2026-07-18T10:59:03.241947+05:30
Vellore,Tamil Nadu,12.9165,79.1325,31.9,50,0.0,984.9,4.75,45.0,48,18.9,10.4,3.2,129.0,67.0,3.0,0,5,3,1,2026-07-18T10:59:03.241956+05:30
Erode,Tamil Nadu,11.341,77.7172,32.8,43,0.0,990.6,5.95,42.8,57,23.5,14.0,4.5,174.0,75.0,3.6,0,5,3,1,2026-07-18T10:59:03.241964+05:30
Kochi,Kerala,9.9312,76.2673,28.2,76,0.0,1012.2,7.8,45.4,59,15.9,9.7,5.8,166.0,58.0,4.7,7,0,4,1,2026-07-18T10:59:03.241972+05:30
Thiruvananthapuram,Kerala,8.5241,76.9366,28.3,74,0.0,1011.2,8.5,50.0,62,26.0,16.6,3.9,166.0,77.0,3.3,7,0,4,1,2026-07-18T10:59:03.241979+05:30
Kozhikode,Kerala,11.2588,75.7804,28.4,78,0.0,1011.1,7.5,36.4,55,14.2,7.7,1.1,167.0,58.0,1.6,7,0,4,1,2026-07-18T10:59:03.241986+05:30
Thrissur,Kerala,10.5276,76.2144,29.0,76,0.0,1010.4,7.8,39.2,59,18.0,11.3,2.9,149.0,63.0,2.8,7,0,4,1,2026-07-18T10:59:03.241994+05:30
Kannur,Kerala,11.8745,75.3704,27.2,84,0.0,1010.6,6.35,31.3,53,16.6,9.9,2.7,143.0,55.0,2.2,7,0,4,1,2026-07-18T10:59:03.242000+05:30
Patna,Bihar,25.5941,85.1376,30.8,79,0.1,995.6,7.2,26.3,91,24.2,24.0,5.2,302.0,140.0,16.1,6,5,7,1,2026-07-18T10:59:03.242007+05:30
Gaya,Bihar,24.7914,85.0002,31.7,72,0.0,988.9,7.1,22.3,106,28.6,27.7,3.2,328.0,152.0,11.0,3,5,7,1,2026-07-18T10:59:03.242015+05:30
Muzaffarpur,Bihar,26.1209,85.3647,31.3,74,0.0,995.7,7.8,26.6,85,21.3,21.1,4.6,306.0,131.0,12.3,3,5,7,1,2026-07-18T10:59:03.242022+05:30
Bhagalpur,Bihar,25.2425,87.0117,30.9,76,0.0,996.4,7.4,27.0,76,16.5,15.7,9.1,379.0,111.0,22.8,3,5,7,1,2026-07-18T10:59:03.242028+05:30
Ranchi,Jharkhand,23.3441,85.3096,26.6,82,0.0,933.4,9.25,29.2,66,12.3,11.7,4.0,273.0,112.0,10.1,7,5,7,1,2026-07-18T10:59:03.242036+05:30
Jamshedpur,Jharkhand,22.8046,86.2029,30.9,77,0.0,985.8,8.8,22.3,92,20.7,18.3,7.2,300.0,127.0,26.3,3,5,7,1,2026-07-18T10:59:03.242043+05:30
Dhanbad,Jharkhand,23.7957,86.4304,30.8,77,0.0,975.2,7.6,25.9,143,34.1,33.3,35.7,337.0,83.0,86.8,3,5,7,1,2026-07-18T10:59:03.242050+05:30
Bokaro,Jharkhand,23.6693,86.1511,30.6,76,0.0,978.8,7.7,28.4,118,28.7,28.1,34.1,241.0,78.0,85.6,3,5,7,1,2026-07-18T10:59:03.242058+05:30
Bhubaneswar,Odisha,20.2961,85.8245,30.7,75,0.0,998.0,7.65,33.1,69,19.7,13.9,4.4,236.0,98.0,4.6,3,5,7,1,2026-07-18T10:59:03.242064+05:30
Cuttack,Odisha,20.4625,85.8828,30.2,77,0.0,999.5,7.95,32.4,69,19.7,13.9,4.4,261.0,98.0,4.6,3,5,7,1,2026-07-18T10:59:03.242071+05:30
Rourkela,Odisha,22.2604,84.8536,29.8,81,0.0,980.2,7.35,24.5,75,10.8,9.8,4.3,275.0,111.0,11.8,7,5,7,1,2026-07-18T10:59:03.242078+05:30
Raipur,Chhattisgarh,21.2514,81.6296,27.1,86,0.0,972.0,3.55,37.4,88,28.2,22.4,25.1,262.0,44.0,39.5,7,5,3,1,2026-07-18T10:59:03.242085+05:30
Bhilai,Chhattisgarh,21.1938,81.3509,26.8,84,0.1,972.7,2.25,41.0,82,25.5,20.8,21.8,630.0,47.0,37.7,10,5,3,1,2026-07-18T10:59:03.242092+05:30
Guwahati,Assam,26.1158,91.7086,29.3,82,0.1,998.7,7.35,22.3,55,7.0,6.5,2.0,281.0,96.0,2.1,10,5,7,1,2026-07-18T10:59:03.242100+05:30
Agartala,Tripura,23.8315,91.2868,29.6,76,0.0,1004.2,7.35,45.7,53,9.4,6.9,2.4,142.0,83.0,1.5,7,5,4,1,2026-07-18T10:59:03.242107+05:30
Shillong,Meghalaya,25.5788,91.8933,22.9,80,0.1,857.0,4.3,41.4,26,2.8,2.6,3.0,154.0,78.0,2.4,6,5,3,1,2026-07-18T10:59:03.242114+05:30
Imphal,Manipur,24.817,93.9368,28.0,66,0.0,922.2,6.45,34.9,62,11.0,7.6,3.3,138.0,64.0,1.3,7,5,7,1,2026-07-18T10:59:03.242121+05:30
Aizawl,Mizoram,23.7271,92.7176,25.2,63,0.1,892.7,8.35,43.9,55,14.2,9.1,0.5,117.0,74.0,0.9,10,5,7,1,2026-07-18T10:59:03.242128+05:30
Kohima,Nagaland,25.6701,94.1077,22.4,94,0.0,855.2,7.15,24.1,49,5.2,3.7,2.1,160.0,71.0,1.0,3,5,7,1,2026-07-18T10:59:03.242135+05:30
Gangtok,Sikkim,27.3314,88.6138,20.2,97,0.1,837.0,7.15,22.3,40,1.3,1.2,3.2,212.0,87.0,1.6,6,5,7,1,2026-07-18T10:59:03.242142+05:30
Siliguri,West Bengal,26.7271,88.3953,25.9,99,0.3,990.0,7.1,31.0,68,9.7,9.0,5.1,319.0,92.0,3.3,10,5,7,1,2026-07-18T10:59:06.607298+05:30
Durgapur,West Bengal,23.5204,87.3119,30.7,76,0.1,990.2,8.6,33.1,102,31.7,30.3,20.6,671.0,106.0,50.3,6,5,7,1,2026-07-18T10:59:06.607330+05:30
Asansol,West Bengal,23.6739,86.9524,30.8,76,0.0,988.6,7.75,29.2,108,31.1,29.7,26.0,327.0,96.0,62.6,3,5,7,1,2026-07-18T10:59:06.607342+05:30
Pondicherry,Puducherry,11.9139,79.8145,32.4,52,0.0,1008.9,4.9,40.3,71,28.0,19.8,10.1,233.0,65.0,10.3,0,0,0,1,2026-07-18T10:59:06.607351+05:30
Port Blair,Andaman and Nicobar Islands,11.6234,92.7265,31.3,62,0.0,1008.4,8.1,41.4,40,18.4,8.9,0.2,93.0,47.0,0.5,3,0,4,1,2026-07-18T10:59:06.607359+05:30
Haridwar,Uttarakhand,29.9457,78.1642,30.2,81,0.1,969.5,7.5,28.8,165,226.8,83.1,4.0,349.0,148.0,17.2,6,5,7,1,2026-07-18T10:59:06.607367+05:30
Rishikesh,Uttarakhand,30.0869,78.2676,30.4,74,0.2,962.2,7.0,25.9,155,192.3,66.4,2.0,330.0,147.0,13.8,6,5,7,1,2026-07-18T10:59:06.607375+05:30
Nainital,Uttarakhand,29.3919,79.4542,19.5,96,0.1,804.6,7.35,25.6,104,68.7,28.9,3.4,250.0,143.0,6.5,6,10,7,1,2026-07-18T10:59:06.607383+05:30
Mussoorie,Uttarakhand,30.4599,78.0664,20.4,90,0.1,802.3,7.35,31.7,147,109.2,50.8,4.1,261.0,145.0,9.6,6,5,7,1,2026-07-18T10:59:06.607390+05:30
Dharamshala,Himachal Pradesh,32.219,76.3234,23.0,98,0.2,866.6,8.25,24.1,58,25.8,13.8,2.4,309.0,126.0,3.2,6,5,7,1,2026-07-18T10:59:06.607398+05:30
Dalhousie,Himachal Pradesh,32.5387,75.971,20.0,98,0.2,803.3,8.15,25.2,105,83.8,40.6,3.8,285.0,144.0,6.5,6,5,7,1,2026-07-18T10:59:06.607406+05:30
Patiala,Punjab,30.3398,76.3869,34.0,61,0.0,972.8,6.9,18.7,180,381.8,104.1,7.4,430.0,159.0,8.5,3,5,7,1,2026-07-18T10:59:06.607414+05:30
Bhatinda,Punjab,30.211,74.9455,37.4,39,0.0,977.9,8.25,32.0,169,327.8,101.0,6.3,152.0,124.0,6.2,0,5,10,1,2026-07-18T10:59:06.607421+05:30
Rohtak,Haryana,28.8955,76.6066,33.5,55,0.0,976.8,7.65,29.5,720,1836.6,249.6,8.3,238.0,70.0,4.3,0,5,7,1,2026-07-18T10:59:06.607428+05:30
Panipat,Haryana,29.3909,76.9635,33.8,56,0.0,975.2,7.15,26.3,989,3248.5,387.4,9.2,212.0,65.0,8.5,0,5,7,1,2026-07-18T10:59:06.607436+05:30
Mathura,Uttar Pradesh,27.4924,77.6737,35.0,51,0.0,982.1,7.7,27.0,606,987.2,142.0,7.6,222.0,91.0,3.9,0,5,7,1,2026-07-18T10:59:06.607443+05:30
Vrindavan,Uttar Pradesh,27.5823,77.7027,34.7,53,0.0,982.5,7.85,26.3,606,987.2,142.0,7.6,209.0,91.0,3.9,0,5,7,1,2026-07-18T10:59:06.607450+05:30
Ayodhya,Uttar Pradesh,26.7922,82.1998,31.0,76,0.0,991.1,7.3,25.2,96,21.5,20.4,3.8,380.0,130.0,5.0,3,5,7,1,2026-07-18T10:59:06.607458+05:30
Ratlam,Madhya Pradesh,23.3315,75.0367,28.7,70,0.0,952.9,7.05,34.2,71,35.7,19.7,2.7,129.0,80.0,7.5,7,5,7,1,2026-07-18T10:59:06.607465+05:30
Sagar,Madhya Pradesh,23.8388,78.7378,28.7,74,0.1,948.0,8.15,33.8,91,47.3,27.2,3.2,181.0,98.0,6.4,10,5,7,1,2026-07-18T10:59:06.607472+05:30
Satna,Madhya Pradesh,24.6005,80.8322,31.1,66,0.0,967.8,8.25,35.3,104,118.5,45.5,2.7,192.0,103.0,6.1,3,5,7,1,2026-07-18T10:59:06.607478+05:30
Akola,Maharashtra,20.7002,77.0082,28.6,71,0.0,974.3,2.05,38.9,60,18.4,10.0,6.8,132.0,38.0,8.1,7,5,3,1,2026-07-18T10:59:06.607487+05:30
Amravati,Maharashtra,20.9374,77.7796,28.1,71,0.1,966.2,1.2,41.4,63,17.9,10.1,7.8,134.0,37.0,9.6,10,5,3,1,2026-07-18T10:59:06.607494+05:30
Latur,Maharashtra,18.4088,76.5604,27.6,67,0.0,939.7,1.25,42.1,53,18.5,8.6,2.1,120.0,52.0,2.6,7,5,3,1,2026-07-18T10:59:06.607502+05:30
Nanded,Maharashtra,19.1383,77.3091,29.2,67,0.0,968.2,1.6,37.1,65,18.8,10.3,4.0,143.0,54.0,5.5,7,5,3,1,2026-07-18T10:59:06.607509+05:30
Gulbarga,Karnataka,17.3297,76.8343,29.0,63,0.0,958.9,4.25,40.0,50,17.5,8.5,2.7,131.0,59.0,2.6,7,5,3,1,2026-07-18T10:59:06.607516+05:30
Bidar,Karnataka,17.9104,77.5199,25.6,77,0.1,935.4,2.6,37.1,59,24.6,12.5,3.4,137.0,58.0,3.7,10,5,3,1,2026-07-18T10:59:06.607522+05:30
Hospet,Karnataka,15.2689,76.3909,27.8,62,0.0,957.1,6.8,45.4,25,9.5,4.7,1.9,118.0,58.0,2.0,7,5,7,1,2026-07-18T10:59:06.607529+05:30
Tirupur,Tamil Nadu,11.1085,77.3411,31.7,46,0.0,977.0,5.25,47.9,59,23.2,14.4,4.9,152.0,77.0,4.3,0,5,3,1,2026-07-18T10:59:06.607535+05:30
Alappuzha,Kerala,9.4981,76.3388,28.2,75,0.0,1012.2,8.05,47.9,60,19.4,11.6,5.5,138.0,65.0,4.2,7,0,4,1,2026-07-18T10:59:06.607541+05:30
Munnar,Kerala,10.0889,77.0595,20.0,76,0.1,859.8,7.4,40.0,33,11.8,6.5,1.6,94.0,58.0,1.1,6,5,7,0,2026-07-18T10:59:06.607549+05:30
Silchar,Assam,24.8333,92.7789,30.6,74,0.0,1003.3,8.15,31.3,73,21.0,14.5,2.7,161.0,75.0,3.2,3,5,4,1,2026-07-18T10:59:06.607555+05:30
Dibrugarh,Assam,27.4728,94.912,29.2,82,0.0,992.1,1.75,38.9,61,19.0,15.1,5.6,206.0,65.0,2.0,7,5,3,1,2026-07-18T10:59:06.607562+05:30
