city,state,latitude,longitude,temp,humidity,rain,pressure,uv_index,wind_gusts,aqi,pm10,pm2_5,mosquito_risk,arthritis_risk,migraine_risk,frizz_risk,updated_at
Delhi,Delhi,28.6139,77.209,29.0,47,0.0,984.2,5.8,32.8,285,309.2,44.4,4,5,3,1,2026-04-03T17:10:17.015155+05:30
Mumbai,Maharashtra,19.076,72.8777,28.2,73,0.0,1008.5,7.45,25.2,81,53.9,23.1,7,0,4,1,2026-04-03T17:10:17.015193+05:30
Bangalore,Karnataka,12.9716,77.5946,32.6,33,0.0,910.7,9.6,26.6,158,22.4,18.8,0,5,7,0,2026-04-03T17:10:17.015208+05:30
Hyderabad,Telangana,17.385,78.4867,35.3,26,0.0,951.8,8.85,19.8,81,25.4,18.0,0,5,10,0,2026-04-03T17:10:17.015218+05:30
Chennai,Tamil Nadu,13.0827,80.2707,31.3,55,0.0,1006.1,9.3,36.7,44,13.3,10.7,0,5,4,1,2026-04-03T17:10:17.015226+05:30
Kolkata,West Bengal,22.5726,88.3639,34.3,52,0.0,1003.4,8.65,20.2,113,41.7,35.6,0,5,4,1,2026-04-03T17:10:17.015235+05:30
Pune,Maharashtra,18.5204,73.8567,32.2,40,0.0,948.1,8.5,36.4,142,43.2,35.4,0,5,7,1,2026-04-03T17:10:17.015246+05:30
Ahmedabad,Gujarat,23.0225,72.5714,32.1,34,0.0,1001.9,7.2,42.1,64,46.2,13.9,0,5,4,0,2026-04-03T17:10:17.015255+05:30
Jaipur,Rajasthan,26.9124,75.7873,26.7,56,0.0,960.1,7.45,55.8,125,197.9,29.5,4,5,7,1,2026-04-03T17:10:17.015263+05:30
Lucknow,Uttar Pradesh,26.8467,80.9462,34.1,37,0.0,992.7,6.75,28.8,99,167.6,36.3,0,5,7,1,2026-04-03T17:10:17.015270+05:30
Kanpur,Uttar Pradesh,26.4499,80.3319,33.3,41,0.0,991.0,5.2,26.3,153,226.3,33.9,0,5,3,1,2026-04-03T17:10:17.015277+05:30
Chandigarh,Chandigarh,30.7333,76.7794,23.9,70,0.0,970.8,5.85,49.3,78,69.2,26.0,3,5,3,1,2026-04-03T17:10:17.015285+05:30
Srinagar,Jammu and Kashmir,34.0837,74.7973,13.5,66,0.0,840.4,6.65,35.3,100,21.5,14.5,3,5,7,0,2026-04-03T17:10:17.015292+05:30
Jammu,Jammu and Kashmir,32.7266,74.857,20.8,88,0.0,975.0,5.1,35.3,74,35.2,16.3,3,5,3,1,2026-04-03T17:10:17.015299+05:30
Amritsar,Punjab,31.634,74.8723,20.6,87,0.0,982.4,4.55,57.6,91,39.2,14.8,3,5,3,1,2026-04-03T17:10:17.015306+05:30
Ludhiana,Punjab,30.901,75.8573,22.1,75,0.0,981.4,4.9,45.4,104,61.7,22.2,3,5,3,1,2026-04-03T17:10:17.015312+05:30
Jalandhar,Punjab,31.326,75.5762,21.2,86,0.0,982.2,5.85,41.8,87,61.2,19.8,3,5,3,1,2026-04-03T17:10:17.015320+05:30
Dehradun,Uttarakhand,30.6284,78.0322,20.3,56,0.0,832.0,5.7,34.2,55,24.0,10.1,0,5,3,0,2026-04-03T17:10:17.015327+05:30
Shimla,Himachal Pradesh,31.1048,77.1734,17.0,65,0.0,785.8,5.95,51.5,68,23.2,12.1,3,5,3,0,2026-04-03T17:10:17.015333+05:30
Manali,Himachal Pradesh,32.2396,77.1887,17.8,67,0.0,820.9,7.1,46.1,60,7.8,3.9,3,5,7,0,2026-04-03T17:10:17.015340+05:30
Gurgaon,Haryana,28.4595,77.0266,29.4,41,0.0,982.7,6.45,32.0,733,491.7,56.8,4,5,7,0,2026-04-03T17:10:17.015347+05:30
Noida,Uttar Pradesh,28.5355,77.391,29.2,46,0.0,985.8,6.1,29.5,733,491.7,56.8,4,5,7,1,2026-04-03T17:10:17.015353+05:30
Ghaziabad,Uttar Pradesh,28.6692,77.4538,28.2,52,0.0,984.1,6.25,30.6,182,372.5,59.8,4,5,7,1,2026-04-03T17:10:17.015359+05:30
Faridabad,Haryana,28.4089,77.3178,30.1,38,0.0,984.8,6.5,30.2,733,491.7,56.8,0,5,7,0,2026-04-03T17:10:17.015366+05:30
Meerut,Uttar Pradesh,28.9845,77.7064,27.6,59,0.0,982.9,6.1,26.3,182,372.5,59.8,4,5,7,1,2026-04-03T17:10:17.015372+05:30
Agra,Uttar Pradesh,27.1767,78.0081,32.9,30,0.0,988.1,7.35,35.6,555,339.0,45.1,0,5,7,0,2026-04-03T17:10:17.015379+05:30
Varanasi,Uttar Pradesh,25.3176,82.9739,34.6,37,0.0,996.4,7.8,32.0,107,22.4,14.9,0,5,7,1,2026-04-03T17:10:17.015388+05:30
Prayagraj,Uttar Pradesh,25.4358,81.8463,34.3,37,0.0,995.1,7.25,36.7,85,33.4,17.1,0,5,7,1,2026-04-03T17:10:17.015395+05:30
Gorakhpur,Uttar Pradesh,26.7606,83.3732,34.8,27,0.0,995.5,7.1,39.6,102,26.2,14.8,0,5,7,0,2026-04-03T17:10:17.015405+05:30
Bareilly,Uttar Pradesh,28.367,79.4304,31.3,42,0.0,987.1,6.25,19.1,86,107.3,38.4,0,5,7,1,2026-04-03T17:10:17.015412+05:30
Aligarh,Uttar Pradesh,27.8974,78.088,31.5,36,0.0,986.1,7.1,28.1,490,633.3,80.1,0,5,7,0,2026-04-03T17:10:17.015419+05:30
Moradabad,Uttar Pradesh,28.8386,78.7733,30.0,52,0.0,984.4,6.05,20.5,129,176.5,58.4,4,5,7,1,2026-04-03T17:10:17.015425+05:30
Saharanpur,Uttar Pradesh,29.9637,77.546,27.1,59,0.0,977.0,6.55,29.9,116,221.7,48.7,4,5,7,1,2026-04-03T17:10:17.015431+05:30
Jhansi,Uttar Pradesh,25.4484,78.5685,31.0,41,0.0,977.7,7.7,40.3,83,35.7,17.9,0,5,7,1,2026-04-03T17:10:20.238637+05:30
Surat,Gujarat,21.1702,72.8311,29.7,56,0.0,1007.0,7.65,30.6,95,46.8,30.2,4,5,4,1,2026-04-03T17:10:20.238668+05:30
Vadodara,Gujarat,22.3072,73.1812,33.5,36,0.0,1003.9,7.85,33.1,77,44.2,18.7,0,5,4,1,2026-04-03T17:10:20.238680+05:30
Rajkot,Gujarat,22.3039,70.8022,27.7,60,0.0,995.0,7.15,45.4,65,27.5,8.9,4,5,7,1,2026-04-03T17:10:20.238689+05:30
Thane,Maharashtra,19.2183,72.9781,29.4,64,0.0,1008.0,7.6,37.1,81,53.9,23.1,7,0,4,1,2026-04-03T17:10:20.238697+05:30
Nagpur,Maharashtra,21.1458,79.0882,34.0,38,0.0,972.1,8.7,23.4,125,36.3,28.5,0,5,7,1,2026-04-03T17:10:20.238705+05:30
Nashik,Maharashtra,19.9975,73.7898,29.4,46,0.0,945.7,7.95,40.0,69,27.8,11.9,4,5,7,1,2026-04-03T17:10:20.238712+05:30
Aurangabad,Maharashtra,19.8762,75.3433,32.8,34,0.0,943.3,8.85,29.5,107,35.5,27.1,0,5,7,0,2026-04-03T17:10:20.238720+05:30
Solapur,Maharashtra,17.6599,75.9064,35.9,28,0.0,955.3,8.95,50.8,120,26.9,21.5,0,5,10,0,2026-04-03T17:10:20.238729+05:30
Kolhapur,Maharashtra,16.705,74.2433,29.3,59,0.0,947.6,8.95,34.6,144,39.0,33.6,4,5,7,1,2026-04-03T17:10:20.238737+05:30
Goa,Goa,15.2993,74.124,30.6,69,0.0,997.3,9.0,31.7,75,22.6,18.2,3,5,7,1,2026-04-03T17:10:20.238746+05:30
Jodhpur,Rajasthan,26.2389,73.0243,29.1,33,0.0,982.6,6.9,44.6,137,240.3,31.0,4,5,7,0,2026-04-03T17:10:20.238753+05:30
Udaipur,Rajasthan,24.5854,73.7125,27.1,38,0.0,946.4,8.1,54.7,49,55.5,17.1,4,5,7,0,2026-04-03T17:10:20.238759+05:30
Kota,Rajasthan,25.2138,75.8648,34.5,23,0.0,977.3,7.85,48.2,60,37.8,13.0,0,5,7,0,2026-04-03T17:10:20.238764+05:30
Bikaner,Rajasthan,28.0229,73.3119,24.5,56,0.0,982.8,7.15,54.7,62,39.6,13.9,0,5,7,0,2026-04-03T17:10:20.238770+05:30
Ajmer,Rajasthan,26.4499,74.6399,27.5,45,0.0,954.4,7.55,59.8,78,58.8,16.1,4,5,7,0,2026-04-03T17:10:20.238776+05:30
Gwalior,Madhya Pradesh,26.2183,78.1828,27.8,54,0.0,983.8,7.65,42.1,70,69.8,20.1,4,5,7,1,2026-04-03T17:10:20.238782+05:30
Indore,Madhya Pradesh,22.7196,75.8577,33.1,23,0.0,947.5,8.3,37.1,89,25.1,15.0,0,5,7,0,2026-04-03T17:10:20.238788+05:30
Bhopal,Madhya Pradesh,23.2599,77.4126,29.2,50,0.0,953.8,7.9,31.7,89,24.2,19.1,4,5,7,1,2026-04-03T17:10:20.238793+05:30
Jabalpur,Madhya Pradesh,23.1815,79.9864,33.9,32,0.0,961.0,8.3,22.3,96,26.5,21.8,0,5,7,0,2026-04-03T17:10:20.238799+05:30
Ujjain,Madhya Pradesh,23.1765,75.7885,32.8,28,0.0,952.9,8.2,36.0,73,29.0,12.7,0,5,7,0,2026-04-03T17:10:20.238805+05:30
Visakhapatnam,Andhra Pradesh,17.6868,83.2185,30.3,69,0.0,1002.9,9.0,41.8,58,22.5,19.3,3,5,4,1,2026-04-03T17:10:20.238811+05:30
Vijayawada,Andhra Pradesh,16.5062,80.648,36.3,36,0.0,1000.5,8.5,31.0,48,10.6,8.8,0,5,7,1,2026-04-03T17:10:20.238817+05:30
Guntur,Andhra Pradesh,16.3067,80.4365,34.9,40,0.0,1002.2,8.45,32.8,43,9.3,7.1,0,5,4,1,2026-04-03T17:10:20.238823+05:30
Nellore,Andhra Pradesh,14.4426,79.9865,32.5,53,0.0,1004.3,9.25,34.2,63,14.5,12.1,0,5,4,1,2026-04-03T17:10:20.238830+05:30
Kurnool,Andhra Pradesh,15.8281,78.0373,37.6,23,0.0,974.5,8.8,20.5,64,22.1,14.9,0,5,10,0,2026-04-03T17:10:20.238837+05:30
Kakinada,Andhra Pradesh,16.9891,82.2475,33.1,52,0.0,1006.0,8.85,39.6,35,5.9,4.2,0,5,4,1,2026-04-03T17:10:20.238843+05:30
Tirupati,Andhra Pradesh,13.6288,79.4192,35.1,35,0.0,989.5,9.35,31.7,65,12.9,9.9,0,5,10,1,2026-04-03T17:10:20.238849+05:30
Warangal,Telangana,17.9689,79.5941,35.9,36,0.0,977.0,8.75,17.6,73,20.8,15.3,0,5,10,1,2026-04-03T17:10:20.238856+05:30
Nizamabad,Telangana,18.6725,78.0941,34.7,35,0.0,963.4,8.4,25.9,110,30.7,23.3,0,5,7,1,2026-04-03T17:10:20.238862+05:30
Mysore,Karnataka,12.2958,76.6396,32.2,37,0.0,927.5,9.5,45.7,131,19.0,15.3,0,5,7,0,2026-04-03T17:10:20.238868+05:30
Mangalore,Karnataka,12.9141,74.856,29.6,82,0.0,1005.5,9.15,24.5,94,21.5,16.7,7,5,4,1,2026-04-03T17:10:20.238874+05:30
Hubli-Dharwad,Karnataka,15.3647,75.124,30.2,55,0.0,940.2,9.2,38.9,142,28.9,23.3,0,5,7,1,2026-04-03T17:10:20.238880+05:30
Belgaum,Karnataka,15.8497,74.4977,27.9,64,0.0,925.6,9.25,33.1,155,30.9,27.2,7,5,7,1,2026-04-03T17:10:23.456564+05:30
Coimbatore,Tamil Nadu,11.0168,76.9558,30.5,56,0.0,960.7,9.45,45.0,126,22.1,19.3,0,5,7,1,2026-04-03T17:10:23.456598+05:30
Madurai,Tamil Nadu,9.9252,78.1198,31.6,59,0.0,992.3,9.2,34.6,84,13.9,12.2,0,5,7,1,2026-04-03T17:10:23.456610+05:30
Trichy,Tamil Nadu,10.7905,78.7047,35.9,37,0.0,997.6,9.4,34.6,63,15.2,13.8,0,5,10,1,2026-04-03T17:10:23.456620+05:30
Salem,Tamil Nadu,11.6643,78.146,37.0,28,0.0,974.8,9.45,33.1,83,16.0,14.2,0,5,10,0,2026-04-03T17:10:23.456630+05:30
Tirunelveli,Tamil Nadu,8.7139,77.7567,30.4,68,0.0,1002.6,9.35,37.1,85,18.8,17.1,3,5,4,1,2026-04-03T17:10:23.456639+05:30
Vellore,Tamil Nadu,12.9165,79.1325,34.5,37,0.0,982.7,9.4,37.1,89,26.1,22.8,0,5,7,1,2026-04-03T17:10:23.456647+05:30
Erode,Tamil Nadu,11.341,77.7172,37.7,27,0.0,986.1,9.4,29.2,78,14.1,12.3,0,5,10,0,2026-04-03T17:10:23.456656+05:30
Kochi,Kerala,9.9312,76.2673,29.4,78,0.0,1007.6,9.05,24.1,100,18.6,16.2,7,5,4,1,2026-04-03T17:10:23.456665+05:30
Thiruvananthapuram,Kerala,8.5241,76.9366,28.8,80,0.0,1007.5,9.0,23.8,82,21.8,17.1,7,5,4,1,2026-04-03T17:10:23.456673+05:30
Kozhikode,Kerala,11.2588,75.7804,30.2,76,0.0,1006.7,9.15,25.2,73,16.4,13.3,3,5,4,1,2026-04-03T17:10:23.456682+05:30
Thrissur,Kerala,10.5276,76.2144,31.5,66,0.0,1005.7,9.2,30.2,75,19.9,17.4,3,5,4,1,2026-04-03T17:10:23.456690+05:30
Kannur,Kerala,11.8745,75.3704,30.8,71,0.0,1006.1,9.15,27.4,73,19.0,15.3,3,5,4,1,2026-04-03T17:10:23.456698+05:30
Patna,Bihar,25.5941,85.1376,37.3,25,0.0,997.5,8.3,36.4,138,32.2,23.3,0,5,10,0,2026-04-03T17:10:23.456706+05:30
Gaya,Bihar,24.7914,85.0002,36.4,30,0.0,991.5,8.4,27.0,144,28.9,21.1,0,5,10,0,2026-04-03T17:10:23.456714+05:30
Muzaffarpur,Bihar,26.1209,85.3647,36.8,23,0.0,997.2,8.25,39.2,127,34.2,22.4,0,5,10,0,2026-04-03T17:10:23.456721+05:30
Bhagalpur,Bihar,25.2425,87.0117,34.5,40,0.0,998.2,8.3,23.8,134,36.0,22.1,0,5,7,1,2026-04-03T17:10:23.456729+05:30
Ranchi,Jharkhand,23.3441,85.3096,33.7,25,0.0,937.4,8.95,26.6,127,24.3,19.3,0,5,7,0,2026-04-03T17:10:23.456737+05:30
Jamshedpur,Jharkhand,22.8046,86.2029,37.0,33,0.0,988.3,8.8,23.4,187,31.1,24.0,0,5,10,1,2026-04-03T17:10:23.456745+05:30
Dhanbad,Jharkhand,23.7957,86.4304,38.3,20,0.0,977.1,8.7,21.6,150,35.4,28.9,0,5,10,0,2026-04-03T17:10:23.456753+05:30
Bokaro,Jharkhand,23.6693,86.1511,37.3,22,0.0,981.2,8.7,19.8,148,34.6,28.5,0,5,10,0,2026-04-03T17:10:23.456761+05:30
Bhubaneswar,Odisha,20.2961,85.8245,33.4,56,0.0,1001.2,8.95,30.2,92,28.7,22.9,0,5,4,1,2026-04-03T17:10:23.456769+05:30
Cuttack,Odisha,20.4625,85.8828,33.2,55,0.0,1002.9,9.0,37.8,92,28.7,22.9,0,5,4,1,2026-04-03T17:10:23.456777+05:30
Rourkela,Odisha,22.2604,84.8536,37.5,27,0.0,983.0,8.7,26.6,180,36.8,30.4,0,5,10,0,2026-04-03T17:10:23.456783+05:30
Raipur,Chhattisgarh,21.2514,81.6296,36.3,32,0.0,973.0,8.8,26.3,153,32.8,27.4,0,5,10,1,2026-04-03T17:10:23.456789+05:30
Bhilai,Chhattisgarh,21.1938,81.3509,36.5,30,0.0,973.2,8.8,27.7,124,29.8,24.2,0,5,10,1,2026-04-03T17:10:23.456796+05:30
Guwahati,Assam,26.1158,91.7086,28.9,72,0.0,999.9,8.25,43.6,138,56.5,47.3,7,5,7,1,2026-04-03T17:10:23.456802+05:30
Agartala,Tripura,23.8315,91.2868,32.8,62,0.0,1003.8,8.45,23.8,75,37.0,30.0,3,5,4,1,2026-04-03T17:10:23.456809+05:30
Shillong,Meghalaya,25.5788,91.8933,19.0,65,0.0,856.4,8.55,55.1,118,38.6,29.9,3,5,7,0,2026-04-03T17:10:23.456815+05:30
Imphal,Manipur,24.817,93.9368,22.0,71,0.0,922.6,8.85,60.8,112,49.4,39.7,3,5,7,1,2026-04-03T17:10:23.456822+05:30
Aizawl,Mizoram,23.7271,92.7176,25.5,59,0.0,892.9,8.7,52.9,128,51.9,37.1,4,5,7,1,2026-04-03T17:10:23.456829+05:30
Kohima,Nagaland,25.6701,94.1077,18.1,87,0.0,855.1,8.75,80.3,110,50.9,37.5,3,10,7,0,2026-04-03T17:10:23.456836+05:30
Gangtok,Sikkim,27.3314,88.6138,19.5,79,0.0,837.8,7.55,19.1,122,56.1,44.0,3,5,7,0,2026-04-03T17:10:23.456843+05:30
Siliguri,West Bengal,26.7271,88.3953,26.6,66,0.0,992.0,8.2,18.7,152,59.8,46.7,7,5,7,1,2026-04-03T17:10:26.682961+05:30
Durgapur,West Bengal,23.5204,87.3119,37.8,27,0.0,992.1,8.65,17.3,158,47.4,40.5,0,5,10,0,2026-04-03T17:10:26.682988+05:30
Asansol,West Bengal,23.6739,86.9524,37.3,29,0.0,990.6,8.65,16.9,150,39.9,33.3,0,5,10,1,2026-04-03T17:10:26.682998+05:30
Pondicherry,Puducherry,11.9139,79.8145,31.9,57,0.0,1006.9,9.3,34.6,44,16.1,12.3,0,5,4,1,2026-04-03T17:10:26.683005+05:30
Port Blair,Andaman and Nicobar Islands,11.6234,92.7265,28.8,75,0.0,1006.9,9.2,22.7,43,19.5,10.3,7,5,4,1,2026-04-03T17:10:26.683012+05:30
Haridwar,Uttarakhand,29.9457,78.1642,28.4,56,0.0,975.2,6.15,22.0,87,128.5,41.2,4,5,7,1,2026-04-03T17:10:26.683018+05:30
Rishikesh,Uttarakhand,30.0869,78.2676,28.6,43,0.0,968.0,5.6,23.8,76,70.1,27.1,4,5,3,0,2026-04-03T17:10:26.683026+05:30
Nainital,Uttarakhand,29.3919,79.4542,22.9,53,0.0,808.8,5.0,36.4,86,42.7,18.0,0,5,3,0,2026-04-03T17:10:26.683033+05:30
Mussoorie,Uttarakhand,30.4599,78.0664,20.7,53,0.0,804.9,5.6,45.4,76,51.7,20.8,0,5,3,0,2026-04-03T17:10:26.683040+05:30
Dharamshala,Himachal Pradesh,32.219,76.3234,20.0,74,0.0,868.8,4.55,51.5,49,12.2,6.7,3,5,3,0,2026-04-03T17:10:26.683081+05:30
Dalhousie,Himachal Pradesh,32.5387,75.971,18.0,61,0.0,803.7,4.95,50.4,57,26.5,15.3,3,5,3,0,2026-04-03T17:10:26.683092+05:30
Patiala,Punjab,30.3398,76.3869,24.9,61,0.0,980.4,5.55,42.8,113,347.4,46.7,3,5,3,1,2026-04-03T17:10:26.683099+05:30
Bhatinda,Punjab,30.211,74.9455,22.7,75,0.0,985.5,6.45,44.6,88,87.5,20.3,3,5,7,1,2026-04-03T17:10:26.683106+05:30
Rohtak,Haryana,28.8955,76.6066,28.3,47,0.0,983.2,5.9,31.7,439,240.3,32.1,4,5,3,0,2026-04-03T17:10:26.683112+05:30
Panipat,Haryana,29.3909,76.9635,27.1,53,0.0,982.0,6.2,43.9,733,551.3,57.9,4,5,7,1,2026-04-03T17:10:26.683119+05:30
Mathura,Uttar Pradesh,27.4924,77.6737,31.0,36,0.0,987.6,7.25,31.7,640,249.6,40.0,0,5,7,0,2026-04-03T17:10:26.683125+05:30
Vrindavan,Uttar Pradesh,27.5823,77.7027,31.1,35,0.0,988.2,7.2,34.9,640,249.6,40.0,0,5,7,0,2026-04-03T17:10:26.683131+05:30
Ayodhya,Uttar Pradesh,26.7922,82.1998,33.7,34,0.0,994.3,6.6,36.0,82,53.9,21.6,0,5,7,0,2026-04-03T17:10:26.683137+05:30
Ratlam,Madhya Pradesh,23.3315,75.0367,31.2,36,0.0,954.3,8.15,42.8,69,30.2,12.0,0,5,7,0,2026-04-03T17:10:26.683143+05:30
Sagar,Madhya Pradesh,23.8388,78.7378,33.6,29,0.0,949.7,7.5,26.6,89,21.4,16.5,0,5,7,0,2026-04-03T17:10:26.683150+05:30
Satna,Madhya Pradesh,24.6005,80.8322,34.2,31,0.0,971.0,7.65,36.0,88,24.7,19.4,0,5,7,0,2026-04-03T17:10:26.683156+05:30
Akola,Maharashtra,20.7002,77.0082,33.6,40,0.0,974.2,8.6,31.3,118,39.9,33.4,0,5,7,1,2026-04-03T17:10:26.683163+05:30
Amravati,Maharashtra,20.9374,77.7796,33.8,38,0.0,966.5,8.65,43.6,116,41.6,34.5,0,5,7,1,2026-04-03T17:10:26.683169+05:30
Latur,Maharashtra,18.4088,76.5604,32.6,36,0.0,938.8,8.8,33.5,110,27.1,20.8,0,5,7,0,2026-04-03T17:10:26.683176+05:30
Nanded,Maharashtra,19.1383,77.3091,34.9,34,0.0,967.3,8.3,29.5,110,32.1,25.1,0,5,7,1,2026-04-03T17:10:26.683182+05:30
Gulbarga,Karnataka,17.3297,76.8343,37.1,20,0.0,956.6,8.5,36.7,139,24.0,19.5,0,5,10,0,2026-04-03T17:10:26.683188+05:30
Bidar,Karnataka,17.9104,77.5199,35.0,24,0.0,934.3,8.3,33.5,105,21.5,15.9,0,5,7,0,2026-04-03T17:10:26.683194+05:30
Hospet,Karnataka,15.2689,76.3909,35.7,20,0.0,954.0,9.2,36.4,156,23.2,18.9,0,5,10,0,2026-04-03T17:10:26.683199+05:30
Tirupur,Tamil Nadu,11.1085,77.3411,35.4,33,0.0,973.1,9.5,43.6,125,18.0,15.7,0,5,10,1,2026-04-03T17:10:26.683205+05:30
Alappuzha,Kerala,9.4981,76.3388,29.4,79,0.0,1007.8,9.2,23.0,101,19.0,15.9,7,5,4,1,2026-04-03T17:10:26.683211+05:30
Munnar,Kerala,10.0889,77.0595,23.0,83,0.0,857.3,8.0,29.2,65,13.2,12.0,3,5,7,1,2026-04-03T17:10:26.683217+05:30
Silchar,Assam,24.8333,92.7789,30.2,66,0.0,1003.2,8.5,29.2,151,63.1,49.9,3,5,4,1,2026-04-03T17:10:26.683223+05:30
Dibrugarh,Assam,27.4728,94.912,26.8,70,0.0,994.8,8.3,12.6,98,31.3,25.4,7,5,7,1,2026-04-03T17:10:26.683229+05:30
