city,state,latitude,longitude,temp,humidity,rain,pressure,uv_index,wind_gusts,aqi,pm10,pm2_5,no2,co,o3,so2,mosquito_risk,arthritis_risk,migraine_risk,frizz_risk,updated_at
Delhi,Delhi,28.6139,77.209,31.3,54,0.0,977.4,7.65,26.6,227,338.1,119.7,56.8,707.0,39.0,31.8,0,5,7,1,2026-06-25T02:55:09.648555+05:30
Mumbai,Maharashtra,19.076,72.8777,25.4,94,0.0,1005.5,0.95,35.6,51,32.4,13.7,10.1,170.0,43.0,9.2,7,5,0,1,2026-06-25T02:55:09.648621+05:30
Bangalore,Karnataka,12.9716,77.5946,20.3,92,0.0,910.2,9.05,49.7,29,5.2,4.3,9.2,191.0,35.0,4.0,3,5,7,1,2026-06-25T02:55:09.648640+05:30
Hyderabad,Telangana,17.385,78.4867,25.1,73,0.0,949.9,7.45,45.0,27,4.6,4.1,8.7,168.0,44.0,4.5,7,5,7,1,2026-06-25T02:55:09.648651+05:30
Chennai,Tamil Nadu,13.0827,80.2707,29.1,68,0.0,1004.3,8.05,43.2,62,17.4,14.6,15.8,386.0,50.0,8.7,7,5,4,1,2026-06-25T02:55:09.648659+05:30
Kolkata,West Bengal,22.5726,88.3639,28.9,92,0.0,1001.2,9.0,28.1,143,46.0,45.1,15.0,387.0,88.0,13.3,7,5,4,1,2026-06-25T02:55:09.648667+05:30
Pune,Maharashtra,18.5204,73.8567,22.7,88,0.0,944.6,4.95,41.4,29,15.2,11.8,10.2,126.0,34.0,6.0,3,5,3,1,2026-06-25T02:55:09.648674+05:30
Ahmedabad,Gujarat,23.0225,72.5714,30.3,59,0.0,997.2,8.0,38.5,70,37.1,18.0,4.3,108.0,44.0,3.3,0,5,7,1,2026-06-25T02:55:09.648681+05:30
Jaipur,Rajasthan,26.9124,75.7873,29.6,56,0.0,954.4,8.15,24.1,123,110.1,49.2,32.6,228.0,23.0,9.1,4,5,7,1,2026-06-25T02:55:09.648687+05:30
Lucknow,Uttar Pradesh,26.8467,80.9462,32.4,47,0.0,987.5,8.3,25.2,157,218.4,71.2,34.6,444.0,36.0,9.8,0,5,7,1,2026-06-25T02:55:09.648698+05:30
Kanpur,Uttar Pradesh,26.4499,80.3319,33.8,41,0.0,985.7,4.05,32.0,152,197.9,63.3,32.9,218.0,33.0,8.0,0,5,3,1,2026-06-25T02:55:09.648705+05:30
Chandigarh,Chandigarh,30.7333,76.7794,26.6,71,0.0,963.9,7.8,23.4,147,121.1,83.8,62.1,741.0,6.0,8.1,7,5,7,1,2026-06-25T02:55:09.648713+05:30
Srinagar,Jammu and Kashmir,34.0837,74.7973,16.4,96,0.0,836.5,9.1,22.0,70,33.9,32.9,29.7,461.0,14.0,0.1,3,10,7,0,2026-06-25T02:55:09.648720+05:30
Jammu,Jammu and Kashmir,32.7266,74.857,28.3,62,0.1,967.7,8.65,24.8,93,45.4,41.9,56.2,301.0,4.0,3.5,10,5,7,1,2026-06-25T02:55:09.648727+05:30
Amritsar,Punjab,31.634,74.8723,27.5,70,0.1,975.1,8.5,38.5,124,94.5,56.3,33.4,469.0,48.0,9.4,10,5,7,1,2026-06-25T02:55:09.648732+05:30
Ludhiana,Punjab,30.901,75.8573,28.5,63,0.0,973.2,8.05,20.2,160,225.4,102.2,53.1,735.0,35.0,12.2,7,5,7,1,2026-06-25T02:55:09.648738+05:30
Jalandhar,Punjab,31.326,75.5762,28.5,65,0.1,974.3,4.15,24.1,137,118.7,63.8,31.7,636.0,71.0,11.7,10,5,3,1,2026-06-25T02:55:09.648744+05:30
Dehradun,Uttarakhand,30.6284,78.0322,15.1,98,0.0,826.4,6.85,34.6,72,35.0,35.0,32.9,214.0,11.0,0.4,3,10,7,0,2026-06-25T02:55:09.648751+05:30
Shimla,Himachal Pradesh,31.1048,77.1734,12.3,86,0.0,780.0,7.2,31.0,86,46.4,43.1,31.4,344.0,20.0,0.4,3,10,7,0,2026-06-25T02:55:09.648757+05:30
Manali,Himachal Pradesh,32.2396,77.1887,15.6,69,0.0,815.7,8.1,33.5,40,5.9,4.8,81.9,243.0,4.0,0.0,3,5,7,0,2026-06-25T02:55:09.648765+05:30
Gurgaon,Haryana,28.4595,77.0266,29.0,61,0.0,975.7,7.75,21.2,595,328.8,122.9,70.7,860.0,9.0,25.1,7,5,7,1,2026-06-25T02:55:09.648771+05:30
Noida,Uttar Pradesh,28.5355,77.391,28.2,74,0.0,978.6,7.8,20.5,595,328.8,122.9,70.7,642.0,9.0,25.1,7,5,7,1,2026-06-25T02:55:09.648779+05:30
Ghaziabad,Uttar Pradesh,28.6692,77.4538,27.1,74,0.0,976.8,7.8,23.0,246,362.3,134.1,59.3,839.0,32.0,17.2,7,5,7,1,2026-06-25T02:55:09.648785+05:30
Faridabad,Haryana,28.4089,77.3178,29.4,71,0.0,978.0,7.8,24.1,595,328.8,122.9,70.7,882.0,9.0,25.1,7,5,7,1,2026-06-25T02:55:09.648791+05:30
Meerut,Uttar Pradesh,28.9845,77.7064,29.0,66,0.0,976.0,7.1,20.9,246,362.3,134.1,59.3,542.0,32.0,17.2,7,5,7,1,2026-06-25T02:55:09.648797+05:30
Agra,Uttar Pradesh,27.1767,78.0081,31.9,48,0.0,981.7,8.1,28.4,237,140.6,56.0,30.8,469.0,27.0,6.9,0,5,7,1,2026-06-25T02:55:09.648804+05:30
Varanasi,Uttar Pradesh,25.3176,82.9739,32.4,54,0.0,991.9,8.15,24.8,113,32.1,26.5,21.7,220.0,48.0,15.9,0,5,7,1,2026-06-25T02:55:09.648810+05:30
Prayagraj,Uttar Pradesh,25.4358,81.8463,32.5,54,0.0,990.0,8.25,28.4,121,74.7,44.7,22.3,209.0,52.0,8.1,0,5,7,1,2026-06-25T02:55:09.648816+05:30
Gorakhpur,Uttar Pradesh,26.7606,83.3732,29.6,68,0.0,992.2,8.65,29.2,160,119.7,82.0,38.2,478.0,42.0,13.0,7,5,7,1,2026-06-25T02:55:09.648822+05:30
Bareilly,Uttar Pradesh,28.367,79.4304,29.7,61,0.0,981.1,8.1,22.7,164,251.5,115.0,55.5,824.0,29.0,16.1,7,5,7,1,2026-06-25T02:55:09.648830+05:30
Aligarh,Uttar Pradesh,27.8974,78.088,29.2,55,0.0,979.7,7.95,21.6,411,393.0,128.1,68.4,721.0,1.0,13.1,4,5,7,1,2026-06-25T02:55:09.648836+05:30
Moradabad,Uttar Pradesh,28.8386,78.7733,31.0,57,0.0,978.4,7.4,28.8,190,266.4,143.0,74.8,1069.0,27.0,21.4,0,5,7,1,2026-06-25T02:55:09.648842+05:30
Saharanpur,Uttar Pradesh,29.9637,77.546,27.8,71,0.0,970.8,6.85,21.2,156,101.3,75.7,39.1,785.0,50.0,14.2,7,5,7,1,2026-06-25T02:55:09.648848+05:30
Jhansi,Uttar Pradesh,25.4484,78.5685,30.2,54,0.0,973.1,5.5,28.8,75,46.4,24.8,10.8,202.0,53.0,2.7,0,5,3,1,2026-06-25T02:55:12.994950+05:30
Surat,Gujarat,21.1702,72.8311,29.0,77,0.0,1002.4,4.75,45.4,77,39.8,21.6,17.4,301.0,31.0,28.9,7,5,0,1,2026-06-25T02:55:12.994978+05:30
Vadodara,Gujarat,22.3072,73.1812,30.7,63,0.0,999.5,8.0,46.1,75,30.9,19.0,12.8,121.0,34.0,11.9,3,5,7,1,2026-06-25T02:55:12.994989+05:30
Rajkot,Gujarat,22.3039,70.8022,28.4,73,0.0,989.7,7.55,45.4,67,43.4,18.9,4.7,98.0,42.0,4.9,7,5,7,1,2026-06-25T02:55:12.994998+05:30
Thane,Maharashtra,19.2183,72.9781,25.3,94,0.0,1004.8,2.05,32.0,51,32.4,13.7,10.1,158.0,43.0,9.2,7,5,0,1,2026-06-25T02:55:12.995007+05:30
Nagpur,Maharashtra,21.1458,79.0882,25.8,90,0.0,968.7,7.75,29.9,50,21.5,19.1,22.3,304.0,41.0,17.8,7,5,7,1,2026-06-25T02:55:12.995015+05:30
Nashik,Maharashtra,19.9975,73.7898,22.8,92,0.0,941.8,1.9,39.6,47,13.4,8.8,16.2,136.0,29.0,17.5,3,5,3,1,2026-06-25T02:55:12.995023+05:30
Aurangabad,Maharashtra,19.8762,75.3433,23.6,88,0.0,940.5,2.95,41.4,59,25.3,14.4,11.3,145.0,56.0,18.9,3,5,3,1,2026-06-25T02:55:12.995031+05:30
Solapur,Maharashtra,17.6599,75.9064,25.0,80,0.0,954.2,2.0,44.3,22,4.8,4.3,8.6,143.0,37.0,2.4,7,5,3,1,2026-06-25T02:55:12.995039+05:30
Kolhapur,Maharashtra,16.705,74.2433,22.0,96,0.0,945.1,3.3,41.4,20,3.3,3.2,5.6,121.0,41.0,2.0,3,5,3,1,2026-06-25T02:55:12.995047+05:30
Goa,Goa,15.2993,74.124,23.8,98,0.3,996.8,7.2,28.4,44,25.5,17.3,7.0,225.0,39.0,1.7,6,5,7,1,2026-06-25T02:55:12.995055+05:30
Jodhpur,Rajasthan,26.2389,73.0243,31.7,49,0.0,976.2,4.3,55.8,145,133.6,39.9,7.0,133.0,42.0,1.9,0,5,3,1,2026-06-25T02:55:12.995063+05:30
Udaipur,Rajasthan,24.5854,73.7125,24.8,72,0.0,941.3,8.8,33.1,75,36.7,22.6,6.5,135.0,51.0,3.5,3,5,7,1,2026-06-25T02:55:12.995071+05:30
Kota,Rajasthan,25.2138,75.8648,28.9,64,0.0,973.5,7.8,37.1,87,43.7,23.3,8.9,172.0,54.0,4.8,7,5,7,1,2026-06-25T02:55:12.995078+05:30
Bikaner,Rajasthan,28.0229,73.3119,29.7,57,0.0,975.0,8.45,27.7,155,161.6,47.1,3.1,136.0,58.0,2.3,4,5,7,1,2026-06-25T02:55:12.995086+05:30
Ajmer,Rajasthan,26.4499,74.6399,26.8,63,0.0,949.1,8.3,50.0,96,80.8,30.4,8.6,170.0,46.0,4.5,7,5,7,1,2026-06-25T02:55:12.995094+05:30
Gwalior,Madhya Pradesh,26.2183,78.1828,30.5,45,0.0,977.4,8.25,35.3,90,43.7,22.2,9.7,168.0,45.0,2.4,0,5,7,1,2026-06-25T02:55:12.995101+05:30
Indore,Madhya Pradesh,22.7196,75.8577,23.8,90,0.0,943.9,5.3,37.8,75,40.3,28.8,10.6,294.0,67.0,8.3,3,5,3,1,2026-06-25T02:55:12.995109+05:30
Bhopal,Madhya Pradesh,23.2599,77.4126,23.8,94,0.0,949.3,7.2,22.3,66,30.6,23.8,7.9,239.0,65.0,2.9,3,5,7,1,2026-06-25T02:55:12.995117+05:30
Jabalpur,Madhya Pradesh,23.1815,79.9864,25.1,94,0.0,957.1,8.85,32.4,54,25.4,18.9,10.7,246.0,58.0,3.2,7,5,7,1,2026-06-25T02:55:12.995125+05:30
Ujjain,Madhya Pradesh,23.1765,75.7885,24.4,89,0.0,949.6,6.45,36.7,79,39.8,26.4,6.5,243.0,78.0,10.2,3,5,7,1,2026-06-25T02:55:12.995133+05:30
Visakhapatnam,Andhra Pradesh,17.6868,83.2185,28.6,75,0.0,998.8,8.25,31.7,69,21.0,17.8,19.7,336.0,52.0,31.9,7,5,7,1,2026-06-25T02:55:12.995141+05:30
Vijayawada,Andhra Pradesh,16.5062,80.648,29.1,68,0.0,998.4,8.8,32.0,53,27.5,24.1,17.0,302.0,41.0,4.9,7,5,7,1,2026-06-25T02:55:12.995148+05:30
Guntur,Andhra Pradesh,16.3067,80.4365,29.4,61,0.0,999.8,8.7,34.2,50,19.1,17.3,16.9,246.0,35.0,6.8,7,5,7,1,2026-06-25T02:55:12.995156+05:30
Nellore,Andhra Pradesh,14.4426,79.9865,30.6,51,0.0,1002.6,7.9,45.0,38,7.4,4.8,6.1,125.0,42.0,4.0,0,5,4,1,2026-06-25T02:55:12.995164+05:30
Kurnool,Andhra Pradesh,15.8281,78.0373,26.7,71,0.0,974.4,6.65,46.1,24,6.5,5.0,8.3,125.0,38.0,2.3,7,5,7,1,2026-06-25T02:55:12.995172+05:30
Kakinada,Andhra Pradesh,16.9891,82.2475,28.1,84,0.0,1002.7,8.95,34.9,57,20.6,14.9,4.5,180.0,89.0,4.2,7,5,4,1,2026-06-25T02:55:12.995180+05:30
Tirupati,Andhra Pradesh,13.6288,79.4192,28.4,56,0.0,988.6,8.0,42.8,46,10.0,8.9,14.7,129.0,25.0,2.8,4,5,7,1,2026-06-25T02:55:12.995188+05:30
Warangal,Telangana,17.9689,79.5941,26.4,73,0.0,974.8,5.25,37.1,39,25.7,17.7,11.0,215.0,47.0,5.2,7,5,3,1,2026-06-25T02:55:12.995195+05:30
Nizamabad,Telangana,18.6725,78.0941,25.4,79,0.0,960.9,6.7,42.5,36,35.7,21.5,12.1,245.0,44.0,5.7,7,5,7,1,2026-06-25T02:55:12.995203+05:30
Mysore,Karnataka,12.2958,76.6396,21.3,93,0.0,927.0,9.0,50.0,23,3.3,2.9,5.8,112.0,38.0,1.8,3,5,7,1,2026-06-25T02:55:12.995210+05:30
Mangalore,Karnataka,12.9141,74.856,23.7,99,0.3,1006.2,8.7,37.8,43,16.7,11.7,10.4,236.0,27.0,3.0,6,5,4,1,2026-06-25T02:55:12.995218+05:30
Hubli-Dharwad,Karnataka,15.3647,75.124,21.7,94,0.0,938.6,7.3,51.5,20,3.2,1.9,2.3,102.0,45.0,1.0,3,5,7,1,2026-06-25T02:55:12.995226+05:30
Belgaum,Karnataka,15.8497,74.4977,20.8,98,0.1,923.0,2.2,42.5,20,2.7,2.4,4.3,108.0,40.0,1.4,6,5,3,1,2026-06-25T02:55:16.352993+05:30
Coimbatore,Tamil Nadu,11.0168,76.9558,23.1,96,0.0,960.5,8.05,53.6,29,4.5,4.0,6.0,163.0,35.0,2.7,3,5,7,1,2026-06-25T02:55:16.353028+05:30
Madurai,Tamil Nadu,9.9252,78.1198,28.6,62,0.0,991.4,8.55,35.6,68,30.2,28.6,41.9,133.0,2.0,7.7,7,5,7,1,2026-06-25T02:55:16.353043+05:30
Trichy,Tamil Nadu,10.7905,78.7047,27.8,68,0.0,998.0,8.45,50.4,45,3.4,3.1,6.1,118.0,33.0,2.7,7,5,7,1,2026-06-25T02:55:16.353054+05:30
Salem,Tamil Nadu,11.6643,78.146,24.6,87,0.0,976.4,8.6,35.3,57,14.0,12.7,19.5,342.0,27.0,6.9,3,5,7,1,2026-06-25T02:55:16.353064+05:30
Tirunelveli,Tamil Nadu,8.7139,77.7567,28.4,69,0.0,1002.2,8.0,49.3,23,3.3,2.9,5.0,135.0,37.0,2.1,7,5,4,1,2026-06-25T02:55:16.353074+05:30
Vellore,Tamil Nadu,12.9165,79.1325,26.4,62,0.0,982.5,8.05,45.4,48,10.9,8.8,12.3,188.0,34.0,4.5,7,5,7,1,2026-06-25T02:55:16.353084+05:30
Erode,Tamil Nadu,11.341,77.7172,25.2,84,0.0,988.0,7.95,44.3,51,11.2,10.5,15.8,145.0,27.0,3.7,7,5,7,1,2026-06-25T02:55:16.353093+05:30
Kochi,Kerala,9.9312,76.2673,25.5,94,0.1,1008.8,8.3,42.5,41,9.7,8.1,10.3,92.0,25.0,3.3,10,0,4,1,2026-06-25T02:55:16.353102+05:30
Thiruvananthapuram,Kerala,8.5241,76.9366,24.4,98,0.0,1008.4,8.0,54.7,30,8.0,5.2,3.0,92.0,46.0,1.4,3,0,4,1,2026-06-25T02:55:16.353113+05:30
Kozhikode,Kerala,11.2588,75.7804,23.7,99,0.2,1008.4,8.05,32.4,26,10.0,5.6,1.3,121.0,53.0,0.7,6,0,4,1,2026-06-25T02:55:16.353123+05:30
Thrissur,Kerala,10.5276,76.2144,23.7,99,0.1,1007.5,7.85,36.7,43,10.2,9.1,8.0,136.0,30.0,2.7,6,5,4,1,2026-06-25T02:55:16.353133+05:30
Kannur,Kerala,11.8745,75.3704,23.5,99,0.1,1007.2,8.65,33.1,30,6.8,4.2,6.9,182.0,31.0,1.5,6,5,4,1,2026-06-25T02:55:16.353142+05:30
Patna,Bihar,25.5941,85.1376,30.3,67,0.0,995.4,8.85,26.6,157,69.8,58.0,30.9,281.0,39.0,12.7,3,5,7,1,2026-06-25T02:55:16.353149+05:30
Gaya,Bihar,24.7914,85.0002,29.3,67,0.0,988.7,8.65,22.0,102,18.7,17.5,10.0,234.0,65.0,5.1,7,5,7,1,2026-06-25T02:55:16.353156+05:30
Muzaffarpur,Bihar,26.1209,85.3647,27.5,85,0.3,995.4,8.8,28.1,159,92.7,79.6,24.0,1008.0,66.0,15.8,10,5,7,1,2026-06-25T02:55:16.353163+05:30
Bhagalpur,Bihar,25.2425,87.0117,29.1,73,0.0,995.6,8.85,26.6,153,93.1,71.5,21.1,492.0,71.0,13.0,7,5,7,1,2026-06-25T02:55:16.353170+05:30
Ranchi,Jharkhand,23.3441,85.3096,25.2,77,0.0,933.7,9.3,24.5,81,26.9,26.7,9.8,258.0,79.0,6.9,7,5,7,1,2026-06-25T02:55:16.353177+05:30
Jamshedpur,Jharkhand,22.8046,86.2029,27.6,76,0.0,986.4,9.1,31.3,106,29.7,29.4,16.4,329.0,83.0,29.7,7,5,7,1,2026-06-25T02:55:16.353185+05:30
Dhanbad,Jharkhand,23.7957,86.4304,28.0,80,0.0,975.1,9.05,23.4,147,50.3,48.2,46.0,291.0,42.0,102.8,7,5,7,1,2026-06-25T02:55:16.353192+05:30
Bokaro,Jharkhand,23.6693,86.1511,27.8,78,0.0,979.0,9.1,29.2,124,35.5,34.9,27.5,237.0,62.0,66.3,7,5,7,1,2026-06-25T02:55:16.353198+05:30
Bhubaneswar,Odisha,20.2961,85.8245,27.7,93,0.0,997.7,8.8,29.9,83,32.9,32.5,14.8,394.0,68.0,7.5,7,5,7,1,2026-06-25T02:55:16.353204+05:30
Cuttack,Odisha,20.4625,85.8828,27.8,90,0.0,999.5,8.7,29.5,83,32.9,32.5,14.8,458.0,68.0,7.5,7,5,7,1,2026-06-25T02:55:16.353210+05:30
Rourkela,Odisha,22.2604,84.8536,27.1,82,0.0,980.4,9.0,34.9,96,38.5,38.2,16.0,454.0,59.0,8.4,7,5,7,1,2026-06-25T02:55:16.353216+05:30
Raipur,Chhattisgarh,21.2514,81.6296,29.0,62,0.0,970.3,8.85,29.2,60,28.5,28.4,52.0,604.0,18.0,76.2,7,5,7,1,2026-06-25T02:55:16.353222+05:30
Bhilai,Chhattisgarh,21.1938,81.3509,28.2,66,0.0,970.7,8.9,38.2,56,23.9,23.9,40.0,752.0,30.0,62.0,7,5,7,1,2026-06-25T02:55:16.353228+05:30
Guwahati,Assam,26.1158,91.7086,24.9,99,0.0,998.3,8.8,25.9,62,29.1,22.2,5.8,365.0,82.0,3.2,3,5,7,1,2026-06-25T02:55:16.353234+05:30
Agartala,Tripura,23.8315,91.2868,26.6,93,0.0,1002.4,8.8,25.2,74,25.1,22.0,14.6,240.0,48.0,4.4,7,5,4,1,2026-06-25T02:55:16.353240+05:30
Shillong,Meghalaya,25.5788,91.8933,19.8,97,0.0,854.9,8.85,18.7,38,9.0,6.0,3.9,260.0,93.0,3.5,3,10,7,1,2026-06-25T02:55:16.353246+05:30
Imphal,Manipur,24.817,93.9368,22.7,96,0.0,920.2,8.15,23.0,51,16.9,14.7,7.0,593.0,53.0,2.0,3,5,7,1,2026-06-25T02:55:16.353252+05:30
Aizawl,Mizoram,23.7271,92.7176,19.6,99,0.0,889.3,9.0,20.5,33,8.8,7.4,4.4,211.0,47.0,0.8,3,10,7,1,2026-06-25T02:55:16.353258+05:30
Kohima,Nagaland,25.6701,94.1077,20.0,92,0.0,853.1,8.85,19.8,32,8.9,6.7,5.6,222.0,56.0,1.0,3,5,7,1,2026-06-25T02:55:16.353264+05:30
Gangtok,Sikkim,27.3314,88.6138,17.0,91,0.0,834.1,8.9,37.8,45,8.5,7.5,16.1,632.0,36.0,1.3,3,10,7,0,2026-06-25T02:55:16.353270+05:30
Siliguri,West Bengal,26.7271,88.3953,24.3,98,0.0,989.2,8.75,27.0,89,49.9,41.1,27.9,532.0,55.0,4.2,3,5,7,1,2026-06-25T02:55:19.709871+05:30
Durgapur,West Bengal,23.5204,87.3119,28.0,84,0.0,990.2,9.0,28.1,160,60.8,59.1,45.8,901.0,39.0,70.9,7,5,7,1,2026-06-25T02:55:19.709902+05:30
Asansol,West Bengal,23.6739,86.9524,28.3,80,0.0,988.7,8.85,34.6,152,51.3,49.0,46.3,432.0,37.0,73.7,7,5,7,1,2026-06-25T02:55:19.709914+05:30
Pondicherry,Puducherry,11.9139,79.8145,28.4,68,0.0,1006.1,7.95,40.7,62,17.6,15.3,17.5,321.0,46.0,10.9,7,5,4,1,2026-06-25T02:55:19.709923+05:30
Port Blair,Andaman and Nicobar Islands,11.6234,92.7265,27.2,86,0.0,1005.8,6.9,47.5,31,13.0,7.9,0.2,86.0,50.0,0.4,7,5,4,1,2026-06-25T02:55:19.709932+05:30
Haridwar,Uttarakhand,29.9457,78.1642,25.6,86,0.0,969.1,7.05,26.6,124,86.6,68.2,41.8,324.0,40.0,11.5,7,5,7,1,2026-06-25T02:55:19.709940+05:30
Rishikesh,Uttarakhand,30.0869,78.2676,23.7,87,0.0,961.7,7.15,22.0,102,60.3,44.4,20.8,390.0,89.0,7.8,3,5,7,1,2026-06-25T02:55:19.709948+05:30
Nainital,Uttarakhand,29.3919,79.4542,14.8,95,0.0,802.6,5.15,29.5,103,70.5,46.0,29.1,313.0,41.0,3.4,3,10,3,0,2026-06-25T02:55:19.709957+05:30
Mussoorie,Uttarakhand,30.4599,78.0664,16.5,77,0.0,800.6,6.35,31.0,86,55.6,48.0,41.5,339.0,46.0,8.5,3,5,7,0,2026-06-25T02:55:19.709965+05:30
Dharamshala,Himachal Pradesh,32.219,76.3234,21.8,58,0.0,866.1,8.5,41.8,48,8.7,8.0,22.9,252.0,14.0,0.0,0,5,7,0,2026-06-25T02:55:19.709972+05:30
Dalhousie,Himachal Pradesh,32.5387,75.971,14.0,90,0.0,800.2,7.8,31.7,79,33.3,30.9,33.4,347.0,27.0,0.6,3,10,7,0,2026-06-25T02:55:19.709981+05:30
Patiala,Punjab,30.3398,76.3869,27.4,71,0.0,973.0,7.65,22.0,218,326.9,124.3,49.1,675.0,31.0,10.0,7,5,7,1,2026-06-25T02:55:19.709988+05:30
Bhatinda,Punjab,30.211,74.9455,29.4,65,0.0,977.5,8.3,24.5,154,150.9,71.7,40.9,391.0,49.0,13.8,7,5,7,1,2026-06-25T02:55:19.709995+05:30
Rohtak,Haryana,28.8955,76.6066,27.8,76,0.0,975.9,7.75,20.5,236,322.2,117.6,68.0,692.0,13.0,20.9,7,5,7,1,2026-06-25T02:55:19.710002+05:30
Panipat,Haryana,29.3909,76.9635,27.2,77,0.0,974.7,7.65,18.7,533,372.5,132.7,66.5,906.0,17.0,15.0,7,5,7,1,2026-06-25T02:55:19.710010+05:30
Mathura,Uttar Pradesh,27.4924,77.6737,29.9,53,0.0,980.8,7.95,18.0,351,353.0,74.7,26.3,420.0,37.0,4.3,4,5,7,1,2026-06-25T02:55:19.710018+05:30
Vrindavan,Uttar Pradesh,27.5823,77.7027,29.3,58,0.0,981.3,7.9,15.5,351,353.0,74.7,26.3,498.0,37.0,4.3,4,5,7,1,2026-06-25T02:55:19.710026+05:30
Ayodhya,Uttar Pradesh,26.7922,82.1998,29.4,59,0.0,989.4,8.4,17.6,161,222.1,112.9,67.8,587.0,20.0,16.8,4,5,7,1,2026-06-25T02:55:19.710032+05:30
Ratlam,Madhya Pradesh,23.3315,75.0367,25.4,83,0.0,950.5,8.45,37.4,75,35.0,21.1,6.1,169.0,70.0,12.1,7,5,7,1,2026-06-25T02:55:19.710040+05:30
Sagar,Madhya Pradesh,23.8388,78.7378,24.2,91,0.0,945.3,7.9,29.5,66,30.2,21.5,6.3,212.0,77.0,3.3,3,5,7,1,2026-06-25T02:55:19.710046+05:30
Satna,Madhya Pradesh,24.6005,80.8322,29.2,64,0.0,966.2,8.3,26.6,79,25.2,19.2,7.7,183.0,73.0,3.0,7,5,7,1,2026-06-25T02:55:19.710053+05:30
Akola,Maharashtra,20.7002,77.0082,25.2,94,0.1,971.1,8.35,40.7,53,30.7,19.9,9.3,204.0,67.0,8.9,10,5,7,1,2026-06-25T02:55:19.710061+05:30
Amravati,Maharashtra,20.9374,77.7796,24.5,95,0.1,963.0,8.55,41.0,49,28.4,19.7,9.5,193.0,64.0,7.3,6,5,7,1,2026-06-25T02:55:19.710069+05:30
Latur,Maharashtra,18.4088,76.5604,24.6,74,0.0,936.4,4.9,41.0,33,13.0,7.3,9.8,164.0,41.0,3.8,3,5,3,1,2026-06-25T02:55:19.710077+05:30
Nanded,Maharashtra,19.1383,77.3091,25.8,79,0.0,964.9,6.7,39.6,43,29.2,18.0,11.1,402.0,48.0,3.7,7,5,7,1,2026-06-25T02:55:19.710084+05:30
Gulbarga,Karnataka,17.3297,76.8343,25.3,76,0.0,955.6,4.2,53.6,22,3.8,3.3,8.1,132.0,40.0,2.8,7,5,3,1,2026-06-25T02:55:19.710091+05:30
Bidar,Karnataka,17.9104,77.5199,25.4,70,0.0,931.9,7.4,40.0,29,7.6,5.5,9.0,152.0,42.0,2.5,7,5,7,1,2026-06-25T02:55:19.710098+05:30
Hospet,Karnataka,15.2689,76.3909,23.2,88,0.0,954.0,8.1,46.8,20,4.8,3.0,2.9,106.0,43.0,1.2,3,5,7,1,2026-06-25T02:55:19.710105+05:30
Tirupur,Tamil Nadu,11.1085,77.3411,24.2,91,0.0,974.1,7.95,49.3,54,14.4,13.5,19.4,136.0,22.0,4.7,3,5,7,1,2026-06-25T02:55:19.710111+05:30
Alappuzha,Kerala,9.4981,76.3388,25.4,94,0.1,1009.1,8.3,43.9,35,8.8,6.3,5.8,79.0,39.0,2.2,10,0,4,1,2026-06-25T02:55:19.710119+05:30
Munnar,Kerala,10.0889,77.0595,16.1,99,0.1,855.8,8.75,43.9,20,2.3,2.3,6.0,94.0,26.0,1.5,6,10,7,0,2026-06-25T02:55:19.710126+05:30
Silchar,Assam,24.8333,92.7789,25.8,96,0.0,1001.7,8.7,23.0,61,25.7,16.5,6.7,277.0,88.0,3.1,7,5,4,1,2026-06-25T02:55:19.710133+05:30
Dibrugarh,Assam,27.4728,94.912,26.3,96,0.0,991.4,8.85,23.8,57,12.7,11.8,10.7,260.0,60.0,1.3,7,5,7,1,2026-06-25T02:55:19.710140+05:30
