city,state,latitude,longitude,temp,humidity,rain,pressure,uv_index,wind_gusts,aqi,pm10,pm2_5,no2,co,o3,so2,mosquito_risk,arthritis_risk,migraine_risk,frizz_risk,updated_at
Delhi,Delhi,28.6139,77.209,38.8,21,0.0,981.3,7.75,34.6,618,523.4,105.9,9.9,362.0,133.0,14.1,0,5,10,0,2026-05-22T10:33:15.307931+05:30
Mumbai,Maharashtra,19.076,72.8777,32.9,62,0.1,1009.9,6.75,37.8,56,30.5,20.6,9.3,206.0,88.0,14.0,6,0,4,1,2026-05-22T10:33:15.307989+05:30
Bangalore,Karnataka,12.9716,77.5946,26.9,70,0.0,914.1,6.65,30.6,36,9.2,7.4,5.5,345.0,85.0,4.1,7,5,7,1,2026-05-22T10:33:15.308005+05:30
Hyderabad,Telangana,17.385,78.4867,36.5,36,0.0,953.6,6.45,51.1,81,21.8,16.1,3.3,292.0,124.0,6.6,0,5,10,1,2026-05-22T10:33:15.308014+05:30
Chennai,Tamil Nadu,13.0827,80.2707,39.0,37,0.0,1005.7,9.05,43.2,66,20.6,18.6,8.8,318.0,161.0,10.1,0,5,7,1,2026-05-22T10:33:15.308023+05:30
Kolkata,West Bengal,22.5726,88.3639,34.8,66,0.0,1003.9,8.95,31.7,128,73.8,47.7,2.5,345.0,129.0,8.3,3,5,4,1,2026-05-22T10:33:15.308030+05:30
Pune,Maharashtra,18.5204,73.8567,33.3,45,0.0,950.4,8.4,51.8,54,17.8,11.8,3.9,203.0,100.0,7.8,0,5,7,1,2026-05-22T10:33:15.308037+05:30
Ahmedabad,Gujarat,23.0225,72.5714,36.2,32,0.0,1003.2,8.2,34.6,72,88.9,33.6,3.0,197.0,94.0,4.4,0,5,7,1,2026-05-22T10:33:15.308044+05:30
Jaipur,Rajasthan,26.9124,75.7873,37.4,25,0.0,960.4,8.25,45.0,149,469.4,84.5,1.9,172.0,97.0,4.1,0,5,10,0,2026-05-22T10:33:15.308067+05:30
Lucknow,Uttar Pradesh,26.8467,80.9462,38.7,26,0.0,991.4,8.25,33.1,193,362.3,94.5,5.7,290.0,171.0,12.3,0,5,10,0,2026-05-22T10:33:15.308074+05:30
Kanpur,Uttar Pradesh,26.4499,80.3319,39.8,17,0.0,990.0,8.25,37.8,429,704.1,117.1,3.5,206.0,135.0,7.9,0,5,10,0,2026-05-22T10:33:15.308081+05:30
Chandigarh,Chandigarh,30.7333,76.7794,38.0,21,0.0,967.8,7.75,45.4,94,52.9,27.9,4.8,467.0,168.0,12.8,0,5,10,0,2026-05-22T10:33:15.308088+05:30
Srinagar,Jammu and Kashmir,34.0837,74.7973,18.2,68,0.0,846.3,8.95,29.9,66,68.0,17.8,2.9,212.0,112.0,3.0,3,5,7,0,2026-05-22T10:33:15.308095+05:30
Jammu,Jammu and Kashmir,32.7266,74.857,35.6,25,0.0,972.5,8.55,41.8,77,58.9,20.0,3.5,185.0,119.0,2.4,0,5,10,0,2026-05-22T10:33:15.308102+05:30
Amritsar,Punjab,31.634,74.8723,33.9,36,0.0,980.3,8.45,56.2,80,70.1,23.3,3.0,229.0,121.0,3.8,0,5,7,1,2026-05-22T10:33:15.308108+05:30
Ludhiana,Punjab,30.901,75.8573,35.3,28,0.0,978.1,8.0,42.8,90,46.4,20.5,4.1,250.0,120.0,5.5,0,5,10,0,2026-05-22T10:33:15.308114+05:30
Jalandhar,Punjab,31.326,75.5762,35.6,26,0.0,979.2,7.15,43.6,95,55.1,22.2,3.6,256.0,118.0,3.3,0,5,10,0,2026-05-22T10:33:15.308120+05:30
Dehradun,Uttarakhand,30.6284,78.0322,27.7,29,0.0,835.1,8.2,36.0,79,88.2,29.9,0.5,180.0,150.0,6.3,4,5,7,0,2026-05-22T10:33:15.308126+05:30
Shimla,Himachal Pradesh,31.1048,77.1734,22.6,38,0.0,790.0,8.1,38.9,77,56.2,21.3,0.4,167.0,137.0,3.9,0,5,7,0,2026-05-22T10:33:15.308135+05:30
Manali,Himachal Pradesh,32.2396,77.1887,15.2,93,0.5,823.6,7.65,51.8,47,39.9,13.8,3.9,149.0,125.0,1.3,6,10,7,0,2026-05-22T10:33:15.308144+05:30
Gurgaon,Haryana,28.4595,77.0266,38.2,22,0.0,979.9,7.85,34.2,1737,2019.1,279.4,8.3,273.0,120.0,11.0,0,5,10,0,2026-05-22T10:33:15.308150+05:30
Noida,Uttar Pradesh,28.5355,77.391,39.2,21,0.0,982.5,7.8,29.9,1737,2019.1,279.4,8.3,385.0,120.0,11.0,0,5,10,0,2026-05-22T10:33:15.308157+05:30
Ghaziabad,Uttar Pradesh,28.6692,77.4538,39.3,20,0.0,980.8,7.8,34.2,546,430.3,102.2,10.0,301.0,163.0,21.5,0,5,10,0,2026-05-22T10:33:15.308162+05:30
Faridabad,Haryana,28.4089,77.3178,38.9,21,0.0,981.9,7.85,37.8,1737,2019.1,279.4,8.3,298.0,120.0,11.0,0,5,10,0,2026-05-22T10:33:15.308168+05:30
Meerut,Uttar Pradesh,28.9845,77.7064,37.4,22,0.0,979.9,7.7,30.6,546,430.3,102.2,10.0,270.0,163.0,21.5,0,5,10,0,2026-05-22T10:33:15.308174+05:30
Agra,Uttar Pradesh,27.1767,78.0081,39.6,22,0.0,986.3,8.1,36.7,924,1154.8,146.2,3.5,192.0,116.0,4.7,0,5,10,0,2026-05-22T10:33:15.308181+05:30
Varanasi,Uttar Pradesh,25.3176,82.9739,39.3,36,0.0,995.3,8.75,33.5,129,55.5,31.3,6.8,399.0,171.0,15.2,0,5,10,1,2026-05-22T10:33:15.308187+05:30
Prayagraj,Uttar Pradesh,25.4358,81.8463,39.7,21,0.0,993.8,8.65,36.0,110,87.8,38.8,7.0,213.0,164.0,13.4,0,5,10,0,2026-05-22T10:33:15.308194+05:30
Gorakhpur,Uttar Pradesh,26.7606,83.3732,35.0,54,0.0,995.7,8.65,29.9,157,69.6,54.4,3.6,387.0,177.0,16.4,0,5,7,1,2026-05-22T10:33:15.308202+05:30
Bareilly,Uttar Pradesh,28.367,79.4304,35.8,43,0.0,985.1,8.05,27.0,190,257.0,101.3,6.9,519.0,206.0,14.1,0,5,10,1,2026-05-22T10:33:15.308209+05:30
Aligarh,Uttar Pradesh,27.8974,78.088,38.3,25,0.0,984.0,7.9,33.5,1017,1244.2,201.6,5.1,209.0,127.0,9.8,0,5,10,0,2026-05-22T10:33:15.308215+05:30
Moradabad,Uttar Pradesh,28.8386,78.7733,37.5,25,0.0,982.1,7.9,29.5,242,299.9,112.5,14.3,572.0,218.0,24.5,0,5,10,0,2026-05-22T10:33:15.308221+05:30
Saharanpur,Uttar Pradesh,29.9637,77.546,36.1,31,0.0,974.2,7.5,36.7,162,187.7,80.1,8.1,409.0,205.0,15.4,0,5,10,1,2026-05-22T10:33:15.308227+05:30
Jhansi,Uttar Pradesh,25.4484,78.5685,39.3,20,0.0,977.6,8.5,43.6,53,139.7,27.8,1.4,139.0,106.0,3.0,0,5,10,0,2026-05-22T10:33:18.614839+05:30
Surat,Gujarat,21.1702,72.8311,34.8,50,0.0,1008.0,7.75,40.3,78,36.3,25.9,18.3,408.0,47.0,58.8,0,0,4,1,2026-05-22T10:33:18.614871+05:30
Vadodara,Gujarat,22.3072,73.1812,37.2,32,0.0,1005.1,8.15,41.4,78,66.4,31.5,4.3,217.0,101.0,10.5,0,5,7,1,2026-05-22T10:33:18.614883+05:30
Rajkot,Gujarat,22.3039,70.8022,35.2,39,0.0,995.6,7.8,48.6,76,81.5,29.5,2.5,151.0,93.0,7.3,0,5,10,1,2026-05-22T10:33:18.614893+05:30
Thane,Maharashtra,19.2183,72.9781,35.1,54,0.0,1009.0,6.95,36.7,56,30.5,20.6,9.3,228.0,88.0,14.0,0,0,7,1,2026-05-22T10:33:18.614903+05:30
Nagpur,Maharashtra,21.1458,79.0882,41.8,12,0.0,972.5,8.9,41.8,67,21.5,13.4,4.8,186.0,138.0,15.0,0,5,10,0,2026-05-22T10:33:18.614911+05:30
Nashik,Maharashtra,19.9975,73.7898,32.8,49,0.0,948.0,8.15,36.0,52,24.0,15.2,5.0,159.0,77.0,9.6,0,5,7,1,2026-05-22T10:33:18.614920+05:30
Aurangabad,Maharashtra,19.8762,75.3433,34.8,34,0.0,946.3,6.35,56.2,63,32.9,17.2,2.5,191.0,103.0,6.2,0,5,7,1,2026-05-22T10:33:18.614928+05:30
Solapur,Maharashtra,17.6599,75.9064,34.9,43,0.0,958.8,9.0,41.8,64,21.1,13.7,1.9,168.0,109.0,4.6,0,5,7,1,2026-05-22T10:33:18.614936+05:30
Kolhapur,Maharashtra,16.705,74.2433,31.8,49,0.0,950.5,8.3,40.7,49,7.7,6.0,2.1,155.0,80.0,1.6,0,5,7,1,2026-05-22T10:33:18.614944+05:30
Goa,Goa,15.2993,74.124,31.8,69,0.0,999.5,6.0,28.8,30,6.7,4.7,0.9,139.0,62.0,0.8,3,5,3,1,2026-05-22T10:33:18.614995+05:30
Jodhpur,Rajasthan,26.2389,73.0243,36.0,30,0.0,983.8,8.45,36.4,158,269.2,58.9,1.6,138.0,95.0,4.4,0,5,10,0,2026-05-22T10:33:18.615006+05:30
Udaipur,Rajasthan,24.5854,73.7125,35.5,21,0.0,948.5,8.9,40.3,57,84.3,25.4,1.1,141.0,101.0,3.6,0,5,10,0,2026-05-22T10:33:18.615015+05:30
Kota,Rajasthan,25.2138,75.8648,39.6,16,0.0,979.3,8.4,42.8,64,68.2,22.0,1.7,142.0,98.0,3.4,0,5,10,0,2026-05-22T10:33:18.615024+05:30
Bikaner,Rajasthan,28.0229,73.3119,37.2,27,0.0,981.9,8.4,25.9,165,167.2,70.1,0.5,164.0,101.0,4.4,0,5,10,0,2026-05-22T10:33:18.615033+05:30
Ajmer,Rajasthan,26.4499,74.6399,36.0,20,0.0,956.0,8.4,42.8,73,106.2,32.2,1.4,149.0,91.0,3.7,0,5,10,0,2026-05-22T10:33:18.615042+05:30
Gwalior,Madhya Pradesh,26.2183,78.1828,39.3,20,0.0,982.5,8.3,45.4,63,169.0,39.1,1.3,148.0,104.0,3.0,0,5,10,0,2026-05-22T10:33:18.615050+05:30
Indore,Madhya Pradesh,22.7196,75.8577,36.3,27,0.0,950.2,8.7,42.5,68,33.4,18.6,3.2,208.0,107.0,10.2,0,5,10,0,2026-05-22T10:33:18.615058+05:30
Bhopal,Madhya Pradesh,23.2599,77.4126,38.5,14,0.0,955.0,8.75,41.0,63,35.5,13.6,1.5,178.0,115.0,5.3,0,5,10,0,2026-05-22T10:33:18.615068+05:30
Jabalpur,Madhya Pradesh,23.1815,79.9864,40.3,10,0.0,962.0,8.9,39.2,60,15.3,8.1,2.0,159.0,127.0,3.6,0,5,10,0,2026-05-22T10:33:18.615078+05:30
Ujjain,Madhya Pradesh,23.1765,75.7885,36.5,26,0.0,955.6,8.65,40.0,68,36.2,19.8,2.8,172.0,100.0,8.7,0,5,10,0,2026-05-22T10:33:18.615087+05:30
Visakhapatnam,Andhra Pradesh,17.6868,83.2185,37.7,52,0.0,1000.0,9.05,36.7,132,56.8,46.0,13.4,457.0,174.0,44.0,0,5,7,1,2026-05-22T10:33:18.615096+05:30
Vijayawada,Andhra Pradesh,16.5062,80.648,39.7,36,0.0,999.5,9.1,46.4,111,22.9,19.7,4.7,228.0,133.0,8.4,0,5,10,1,2026-05-22T10:33:18.615104+05:30
Guntur,Andhra Pradesh,16.3067,80.4365,39.7,36,0.0,1000.9,9.1,46.8,110,19.1,16.2,4.5,221.0,124.0,7.1,0,5,7,1,2026-05-22T10:33:18.615113+05:30
Nellore,Andhra Pradesh,14.4426,79.9865,37.7,39,0.0,1004.3,8.6,49.7,73,13.3,10.8,3.1,167.0,120.0,6.7,0,5,7,1,2026-05-22T10:33:18.615122+05:30
Kurnool,Andhra Pradesh,15.8281,78.0373,35.8,42,0.0,978.0,6.8,45.0,71,8.1,7.0,2.9,154.0,95.0,7.4,0,5,10,1,2026-05-22T10:33:18.615131+05:30
Kakinada,Andhra Pradesh,16.9891,82.2475,39.2,40,0.0,1003.7,9.1,39.6,97,40.4,31.9,4.5,322.0,176.0,10.2,0,5,7,1,2026-05-22T10:33:18.615139+05:30
Tirupati,Andhra Pradesh,13.6288,79.4192,38.3,35,0.0,990.1,8.1,43.2,73,13.0,10.3,2.6,167.0,118.0,2.3,0,5,10,1,2026-05-22T10:33:18.615148+05:30
Warangal,Telangana,17.9689,79.5941,39.6,28,0.0,976.7,9.1,46.1,126,33.6,25.9,3.2,227.0,146.0,10.0,0,5,10,1,2026-05-22T10:33:18.615156+05:30
Nizamabad,Telangana,18.6725,78.0941,39.6,22,0.0,965.0,9.1,41.8,88,35.9,21.2,2.8,190.0,133.0,7.9,0,5,10,0,2026-05-22T10:33:18.615164+05:30
Mysore,Karnataka,12.2958,76.6396,30.2,53,0.0,931.0,8.25,56.2,24,7.5,5.9,2.7,151.0,80.0,1.7,0,5,7,1,2026-05-22T10:33:18.615171+05:30
Mangalore,Karnataka,12.9141,74.856,29.5,75,0.1,1009.0,8.05,44.6,40,8.2,6.0,2.0,172.0,72.0,1.9,10,0,4,1,2026-05-22T10:33:18.615186+05:30
Hubli-Dharwad,Karnataka,15.3647,75.124,29.8,59,0.0,943.5,8.7,49.7,22,3.8,2.9,1.7,130.0,68.0,0.7,4,5,7,1,2026-05-22T10:33:18.615195+05:30
Belgaum,Karnataka,15.8497,74.4977,29.5,57,0.0,928.6,8.4,42.5,30,5.6,4.1,1.7,126.0,72.0,1.4,4,5,7,1,2026-05-22T10:33:21.926499+05:30
Coimbatore,Tamil Nadu,11.0168,76.9558,31.2,56,0.0,963.8,8.8,58.7,24,7.4,5.5,1.9,165.0,78.0,2.1,0,5,7,1,2026-05-22T10:33:21.926528+05:30
Madurai,Tamil Nadu,9.9252,78.1198,36.8,39,0.0,993.4,8.8,53.3,62,16.8,13.6,5.7,160.0,119.0,5.1,0,5,10,1,2026-05-22T10:33:21.926538+05:30
Trichy,Tamil Nadu,10.7905,78.7047,34.3,51,0.0,999.6,8.95,45.7,38,10.5,8.1,2.8,154.0,80.0,3.2,0,5,7,1,2026-05-22T10:33:21.926546+05:30
Salem,Tamil Nadu,11.6643,78.146,33.9,50,0.0,978.4,8.8,47.2,50,14.4,12.6,5.5,166.0,119.0,14.5,0,5,7,1,2026-05-22T10:33:21.926553+05:30
Tirunelveli,Tamil Nadu,8.7139,77.7567,36.1,42,0.0,1003.8,8.1,56.5,20,3.8,3.1,1.7,136.0,69.0,1.1,0,5,7,1,2026-05-22T10:33:21.926560+05:30
Vellore,Tamil Nadu,12.9165,79.1325,35.1,46,0.0,984.2,7.2,53.3,66,10.3,8.8,3.0,173.0,115.0,3.5,0,5,10,1,2026-05-22T10:33:21.926567+05:30
Erode,Tamil Nadu,11.341,77.7172,35.7,38,0.0,989.9,8.1,53.3,36,10.2,8.1,3.2,192.0,92.0,2.5,0,5,10,1,2026-05-22T10:33:21.926575+05:30
Kochi,Kerala,9.9312,76.2673,28.6,76,0.0,1011.7,8.55,36.7,51,10.7,8.4,4.0,159.0,80.0,4.3,7,0,4,1,2026-05-22T10:33:21.926582+05:30
Thiruvananthapuram,Kerala,8.5241,76.9366,27.8,82,0.1,1011.5,7.7,44.3,25,6.9,4.4,1.4,135.0,65.0,0.9,10,0,4,1,2026-05-22T10:33:21.926589+05:30
Kozhikode,Kerala,11.2588,75.7804,29.1,77,0.1,1010.7,7.8,30.6,28,7.2,4.6,0.7,163.0,66.0,0.8,10,0,4,1,2026-05-22T10:33:21.926596+05:30
Thrissur,Kerala,10.5276,76.2144,28.4,79,0.0,1010.0,7.9,37.4,50,11.1,9.2,3.6,183.0,80.0,4.0,7,0,4,1,2026-05-22T10:33:21.926604+05:30
Kannur,Kerala,11.8745,75.3704,28.9,79,0.1,1009.9,7.7,37.1,36,9.2,6.9,1.8,151.0,77.0,1.9,10,0,4,1,2026-05-22T10:33:21.926611+05:30
Patna,Bihar,25.5941,85.1376,35.0,61,0.0,998.6,8.85,28.8,154,75.0,61.0,5.1,475.0,194.0,22.8,3,5,7,1,2026-05-22T10:33:21.926617+05:30
Gaya,Bihar,24.7914,85.0002,37.5,47,0.0,991.8,8.9,25.2,154,119.2,71.5,4.4,441.0,179.0,30.9,0,5,10,1,2026-05-22T10:33:21.926624+05:30
Muzaffarpur,Bihar,26.1209,85.3647,33.2,66,0.0,999.2,8.85,35.6,151,68.9,54.8,4.8,397.0,183.0,19.9,3,5,7,1,2026-05-22T10:33:21.926630+05:30
Bhagalpur,Bihar,25.2425,87.0117,31.7,70,0.0,1000.3,8.85,33.5,123,69.2,52.4,8.8,458.0,151.0,24.5,3,5,4,1,2026-05-22T10:33:21.926637+05:30
Ranchi,Jharkhand,23.3441,85.3096,35.8,28,0.0,938.2,9.3,27.4,153,122.0,64.5,2.5,272.0,183.0,22.1,0,5,10,0,2026-05-22T10:33:21.926643+05:30
Jamshedpur,Jharkhand,22.8046,86.2029,37.4,49,0.0,988.9,9.1,32.4,151,91.7,65.7,6.4,628.0,177.0,34.8,0,5,10,1,2026-05-22T10:33:21.926650+05:30
Dhanbad,Jharkhand,23.7957,86.4304,37.3,47,0.0,978.3,9.1,38.9,162,104.8,78.7,22.2,1088.0,155.0,89.2,0,5,10,1,2026-05-22T10:33:21.926656+05:30
Bokaro,Jharkhand,23.6693,86.1511,37.4,48,0.0,982.0,9.1,28.8,160,117.6,84.5,18.8,1222.0,182.0,85.1,0,5,10,1,2026-05-22T10:33:21.926663+05:30
Bhubaneswar,Odisha,20.2961,85.8245,36.2,62,0.0,1000.5,9.15,37.1,144,44.1,31.2,2.1,272.0,128.0,9.2,3,5,7,1,2026-05-22T10:33:21.926669+05:30
Cuttack,Odisha,20.4625,85.8828,35.9,63,0.0,1002.2,9.2,33.8,144,44.1,31.2,2.1,287.0,128.0,9.2,3,5,7,1,2026-05-22T10:33:21.926675+05:30
Rourkela,Odisha,22.2604,84.8536,38.5,40,0.0,983.1,9.0,38.2,164,126.7,83.6,6.1,450.0,231.0,34.8,0,5,10,1,2026-05-22T10:33:21.926682+05:30
Raipur,Chhattisgarh,21.2514,81.6296,41.6,14,0.0,973.3,8.95,37.1,154,48.0,33.9,15.3,201.0,143.0,37.3,0,5,10,0,2026-05-22T10:33:21.926688+05:30
Bhilai,Chhattisgarh,21.1938,81.3509,40.5,17,0.0,973.8,9.0,35.6,110,31.1,24.3,16.4,231.0,128.0,48.1,0,5,10,0,2026-05-22T10:33:21.926695+05:30
Guwahati,Assam,26.1158,91.7086,30.6,74,0.0,1000.7,8.75,22.7,97,27.5,20.1,1.2,357.0,129.0,2.3,3,5,4,1,2026-05-22T10:33:21.926701+05:30
Agartala,Tripura,23.8315,91.2868,32.1,68,0.0,1005.7,8.4,31.7,86,68.2,33.5,3.9,219.0,121.0,3.5,3,5,4,1,2026-05-22T10:33:21.926708+05:30
Shillong,Meghalaya,25.5788,91.8933,20.7,91,0.0,858.2,7.1,24.1,75,16.9,10.7,1.5,241.0,113.0,2.1,3,5,7,1,2026-05-22T10:33:21.926714+05:30
Imphal,Manipur,24.817,93.9368,30.1,59,0.0,923.9,8.75,40.3,104,29.2,18.0,0.9,249.0,119.0,2.8,0,5,7,1,2026-05-22T10:33:21.926720+05:30
Aizawl,Mizoram,23.7271,92.7176,27.6,59,0.0,894.2,8.5,27.7,78,26.8,13.5,0.3,196.0,88.0,1.5,4,5,7,1,2026-05-22T10:33:21.926727+05:30
Kohima,Nagaland,25.6701,94.1077,22.4,88,0.3,857.0,8.75,27.4,98,38.2,23.6,0.9,217.0,113.0,2.2,6,5,7,1,2026-05-22T10:33:21.926733+05:30
Gangtok,Sikkim,27.3314,88.6138,20.4,86,0.0,839.9,9.15,34.2,65,12.1,7.9,1.2,292.0,130.0,2.7,3,5,7,1,2026-05-22T10:33:21.926740+05:30
Siliguri,West Bengal,26.7271,88.3953,31.1,62,0.0,992.8,8.4,23.8,101,36.7,23.3,1.5,353.0,150.0,4.6,3,5,7,1,2026-05-22T10:33:25.244920+05:30
Durgapur,West Bengal,23.5204,87.3119,35.5,66,0.0,993.2,9.0,39.6,160,87.5,66.6,11.9,606.0,157.0,48.4,3,5,10,1,2026-05-22T10:33:25.244975+05:30
Asansol,West Bengal,23.6739,86.9524,36.5,58,0.0,991.7,9.05,31.3,159,85.0,63.3,10.9,352.0,149.0,42.9,0,5,10,1,2026-05-22T10:33:25.244988+05:30
Pondicherry,Puducherry,11.9139,79.8145,33.4,61,0.0,1007.5,8.95,39.6,61,20.9,17.5,6.1,238.0,124.0,8.2,3,5,4,1,2026-05-22T10:33:25.244997+05:30
Port Blair,Andaman and Nicobar Islands,11.6234,92.7265,27.7,89,0.1,1007.9,4.55,32.4,30,6.5,4.4,0.4,108.0,67.0,0.3,10,5,0,1,2026-05-22T10:33:25.245005+05:30
Haridwar,Uttarakhand,29.9457,78.1642,36.2,37,0.0,972.6,7.55,31.0,152,210.0,75.2,3.8,291.0,205.0,12.9,0,5,10,1,2026-05-22T10:33:25.245013+05:30
Rishikesh,Uttarakhand,30.0869,78.2676,35.7,37,0.0,965.6,7.7,32.8,132,161.6,48.8,1.2,244.0,168.0,9.2,0,5,10,1,2026-05-22T10:33:25.245025+05:30
Nainital,Uttarakhand,29.3919,79.4542,25.7,35,0.0,810.7,8.55,48.6,159,233.8,69.4,1.0,241.0,177.0,10.7,4,5,7,0,2026-05-22T10:33:25.245033+05:30
Mussoorie,Uttarakhand,30.4599,78.0664,25.0,32,0.0,808.1,8.1,46.1,119,94.3,35.7,1.7,178.0,171.0,8.9,4,5,7,0,2026-05-22T10:33:25.245041+05:30
Dharamshala,Himachal Pradesh,32.219,76.3234,24.4,46,0.0,872.9,7.95,43.2,51,35.4,13.2,1.7,155.0,114.0,1.5,0,5,7,0,2026-05-22T10:33:25.245049+05:30
Dalhousie,Himachal Pradesh,32.5387,75.971,19.0,52,0.0,808.9,6.5,56.2,69,47.8,19.3,5.3,160.0,111.0,1.6,0,5,7,0,2026-05-22T10:33:25.245061+05:30
Patiala,Punjab,30.3398,76.3869,37.0,23,0.0,977.1,7.7,58.0,195,1344.8,159.3,4.3,279.0,142.0,11.0,0,5,10,0,2026-05-22T10:33:25.245068+05:30
Bhatinda,Punjab,30.211,74.9455,36.3,27,0.0,983.1,8.3,34.2,95,142.0,34.7,3.7,205.0,120.0,7.8,0,5,10,0,2026-05-22T10:33:25.245075+05:30
Rohtak,Haryana,28.8955,76.6066,36.9,26,0.0,980.4,7.8,41.0,812,771.1,121.5,4.6,263.0,114.0,4.9,0,5,10,0,2026-05-22T10:33:25.245083+05:30
Panipat,Haryana,29.3909,76.9635,37.8,25,0.0,978.6,7.65,33.5,1688,1326.2,184.4,7.7,273.0,117.0,15.5,0,5,10,0,2026-05-22T10:33:25.245089+05:30
Mathura,Uttar Pradesh,27.4924,77.6737,39.9,21,0.0,985.3,8.0,39.2,804,1184.6,160.2,3.5,188.0,107.0,3.4,0,5,10,0,2026-05-22T10:33:25.245096+05:30
Vrindavan,Uttar Pradesh,27.5823,77.7027,39.7,23,0.0,985.6,8.0,33.1,804,1184.6,160.2,3.5,184.0,107.0,3.4,0,5,10,0,2026-05-22T10:33:25.245103+05:30
Ayodhya,Uttar Pradesh,26.7922,82.1998,35.2,55,0.0,993.5,8.4,29.2,152,83.4,58.7,3.6,425.0,178.0,13.9,0,5,10,1,2026-05-22T10:33:25.245110+05:30
Ratlam,Madhya Pradesh,23.3315,75.0367,36.0,30,0.0,956.7,8.6,38.5,69,38.4,21.0,2.4,144.0,98.0,7.8,0,5,10,0,2026-05-22T10:33:25.245117+05:30
Sagar,Madhya Pradesh,23.8388,78.7378,39.0,11,0.0,951.5,8.75,39.2,46,31.7,11.5,1.5,147.0,113.0,4.2,0,5,10,0,2026-05-22T10:33:25.245123+05:30
Satna,Madhya Pradesh,24.6005,80.8322,40.0,13,0.0,971.0,8.8,36.0,51,22.6,9.5,1.6,145.0,117.0,3.0,0,5,10,0,2026-05-22T10:33:25.245130+05:30
Akola,Maharashtra,20.7002,77.0082,39.2,22,0.0,975.7,8.9,46.8,74,34.2,19.3,2.5,180.0,133.0,11.0,0,5,10,0,2026-05-22T10:33:25.245138+05:30
Amravati,Maharashtra,20.9374,77.7796,40.3,15,0.0,967.7,8.9,40.7,73,28.9,15.3,2.5,161.0,127.0,8.2,0,5,10,0,2026-05-22T10:33:25.245146+05:30
Latur,Maharashtra,18.4088,76.5604,36.0,35,0.0,941.6,8.9,42.8,74,37.5,21.6,2.1,167.0,125.0,10.0,0,5,10,1,2026-05-22T10:33:25.245153+05:30
Nanded,Maharashtra,19.1383,77.3091,38.8,26,0.0,969.3,8.95,51.8,84,38.8,23.3,2.2,197.0,142.0,10.8,0,5,10,0,2026-05-22T10:33:25.245160+05:30
Gulbarga,Karnataka,17.3297,76.8343,35.2,43,0.0,960.0,8.8,63.4,66,17.8,12.0,2.2,173.0,109.0,4.2,0,5,10,1,2026-05-22T10:33:25.245167+05:30
Bidar,Karnataka,17.9104,77.5199,36.2,34,0.0,937.0,9.0,47.9,79,32.4,20.9,2.9,195.0,130.0,9.9,0,5,10,1,2026-05-22T10:33:25.245174+05:30
Hospet,Karnataka,15.2689,76.3909,30.6,61,0.0,958.3,8.65,43.9,34,6.0,4.5,2.3,144.0,73.0,2.2,3,5,7,1,2026-05-22T10:33:25.245180+05:30
Tirupur,Tamil Nadu,11.1085,77.3411,33.8,49,0.0,976.5,8.8,64.4,38,9.8,7.8,2.8,171.0,90.0,2.7,0,5,7,1,2026-05-22T10:33:25.245187+05:30
Alappuzha,Kerala,9.4981,76.3388,29.1,74,0.0,1011.8,8.5,34.9,40,8.6,6.0,2.6,115.0,75.0,2.1,7,0,4,1,2026-05-22T10:33:25.245194+05:30
Munnar,Kerala,10.0889,77.0595,20.5,86,0.1,860.1,5.85,32.4,24,4.7,3.8,1.3,122.0,70.0,1.1,6,5,3,1,2026-05-22T10:33:25.245201+05:30
Silchar,Assam,24.8333,92.7789,31.8,71,0.0,1004.3,8.95,32.8,98,29.6,18.2,1.3,255.0,117.0,4.8,3,5,4,1,2026-05-22T10:33:25.245208+05:30
Dibrugarh,Assam,27.4728,94.912,30.6,70,0.0,994.5,8.9,27.4,93,37.7,26.7,1.2,277.0,147.0,1.8,3,5,7,1,2026-05-22T10:33:25.245215+05:30
