city,state,latitude,longitude,temp,humidity,rain,pressure,uv_index,wind_gusts,aqi,pm10,pm2_5,mosquito_risk,arthritis_risk,migraine_risk,frizz_risk,updated_at
Delhi,Delhi,28.6139,77.209,24.7,53,0.0,980.2,7.25,29.2,173,588.6,101.7,0,5,7,0,2026-04-20T03:09:20.655690+05:30
Mumbai,Maharashtra,19.076,72.8777,29.1,73,0.0,1006.5,7.3,20.5,77,34.2,18.0,7,5,4,1,2026-04-20T03:09:20.655733+05:30
Bangalore,Karnataka,12.9716,77.5946,23.3,72,0.0,910.2,9.55,17.6,80,31.5,27.2,3,5,7,1,2026-04-20T03:09:20.655749+05:30
Hyderabad,Telangana,17.385,78.4867,25.3,75,0.0,952.2,9.3,46.1,111,35.7,32.4,7,5,7,1,2026-04-20T03:09:20.655759+05:30
Chennai,Tamil Nadu,13.0827,80.2707,27.6,87,0.0,1005.5,9.3,34.6,36,14.4,9.8,7,5,4,1,2026-04-20T03:09:20.655769+05:30
Kolkata,West Bengal,22.5726,88.3639,27.5,91,0.0,1002.6,8.9,34.2,78,31.7,25.3,7,5,4,1,2026-04-20T03:09:20.655780+05:30
Pune,Maharashtra,18.5204,73.8567,24.9,75,0.0,946.8,7.3,35.6,103,66.4,58.8,3,5,7,1,2026-04-20T03:09:20.655789+05:30
Ahmedabad,Gujarat,23.0225,72.5714,25.6,50,0.0,1000.6,8.15,20.2,54,15.1,10.8,4,5,4,0,2026-04-20T03:09:20.655796+05:30
Jaipur,Rajasthan,26.9124,75.7873,26.5,27,0.0,957.4,7.9,22.0,108,202.1,33.6,4,5,7,0,2026-04-20T03:09:20.655804+05:30
Lucknow,Uttar Pradesh,26.8467,80.9462,26.9,53,0.0,989.4,7.9,34.6,128,143.9,43.8,4,5,7,1,2026-04-20T03:09:20.655812+05:30
Kanpur,Uttar Pradesh,26.4499,80.3319,25.6,61,0.0,987.9,7.9,27.0,184,259.8,58.7,7,5,7,1,2026-04-20T03:09:20.655819+05:30
Chandigarh,Chandigarh,30.7333,76.7794,21.6,57,0.0,966.1,7.25,32.4,66,19.6,15.9,0,5,7,0,2026-04-20T03:09:20.655827+05:30
Srinagar,Jammu and Kashmir,34.0837,74.7973,8.8,92,0.0,841.9,8.3,15.8,75,71.2,51.2,3,10,7,0,2026-04-20T03:09:20.655834+05:30
Jammu,Jammu and Kashmir,32.7266,74.857,22.3,52,0.0,971.7,7.95,32.0,62,27.0,19.1,0,5,7,0,2026-04-20T03:09:20.655841+05:30
Amritsar,Punjab,31.634,74.8723,21.7,68,0.0,979.5,7.9,28.4,75,74.5,36.0,3,5,7,0,2026-04-20T03:09:20.655848+05:30
Ludhiana,Punjab,30.901,75.8573,22.9,56,0.0,976.7,7.5,31.3,73,28.5,18.6,0,5,7,0,2026-04-20T03:09:20.655857+05:30
Jalandhar,Punjab,31.326,75.5762,21.4,54,0.0,978.1,7.65,31.3,72,49.9,27.2,0,5,7,0,2026-04-20T03:09:20.655863+05:30
Dehradun,Uttarakhand,30.6284,78.0322,16.3,41,0.0,829.1,7.7,42.8,40,14.4,9.1,0,5,7,0,2026-04-20T03:09:20.655869+05:30
Shimla,Himachal Pradesh,31.1048,77.1734,14.1,53,0.0,783.3,7.75,44.6,51,21.2,11.8,0,5,7,0,2026-04-20T03:09:20.655876+05:30
Manali,Himachal Pradesh,32.2396,77.1887,14.4,51,0.0,820.5,9.25,29.2,50,8.1,5.1,0,5,7,0,2026-04-20T03:09:20.655883+05:30
Gurgaon,Haryana,28.4595,77.0266,21.3,67,0.0,978.6,7.4,27.4,568,990.9,135.5,3,5,7,0,2026-04-20T03:09:20.655890+05:30
Noida,Uttar Pradesh,28.5355,77.391,24.6,54,0.0,981.7,7.3,29.5,568,990.9,135.5,0,5,7,0,2026-04-20T03:09:20.655896+05:30
Ghaziabad,Uttar Pradesh,28.6692,77.4538,23.4,58,0.0,979.7,7.3,28.1,151,314.8,65.9,0,5,7,0,2026-04-20T03:09:20.655902+05:30
Faridabad,Haryana,28.4089,77.3178,23.4,55,0.0,980.8,7.35,29.2,568,990.9,135.5,0,5,7,0,2026-04-20T03:09:20.655909+05:30
Meerut,Uttar Pradesh,28.9845,77.7064,22.5,62,0.0,978.3,7.2,28.8,151,314.8,65.9,3,5,7,0,2026-04-20T03:09:20.655915+05:30
Agra,Uttar Pradesh,27.1767,78.0081,23.8,54,0.0,984.8,7.7,22.3,415,401.4,94.3,0,5,7,0,2026-04-20T03:09:20.655924+05:30
Varanasi,Uttar Pradesh,25.3176,82.9739,26.1,51,0.0,993.3,8.45,36.4,114,108.3,50.8,4,5,7,0,2026-04-20T03:09:20.655931+05:30
Prayagraj,Uttar Pradesh,25.4358,81.8463,27.8,52,0.0,992.0,8.1,31.7,110,114.3,40.2,4,5,7,1,2026-04-20T03:09:20.655938+05:30
Gorakhpur,Uttar Pradesh,26.7606,83.3732,26.7,81,0.0,993.5,8.35,38.9,134,71.2,60.8,7,5,7,1,2026-04-20T03:09:20.655947+05:30
Bareilly,Uttar Pradesh,28.367,79.4304,23.6,59,0.0,982.9,7.6,29.9,91,62.6,27.9,0,5,7,0,2026-04-20T03:09:20.655953+05:30
Aligarh,Uttar Pradesh,27.8974,78.088,23.5,53,0.0,982.2,7.45,33.5,225,215.6,68.9,0,5,7,0,2026-04-20T03:09:20.655959+05:30
Moradabad,Uttar Pradesh,28.8386,78.7733,22.8,61,0.0,980.0,7.4,28.8,114,86.1,43.0,3,5,7,0,2026-04-20T03:09:20.655965+05:30
Saharanpur,Uttar Pradesh,29.9637,77.546,21.6,69,0.0,972.5,6.95,30.2,99,83.4,44.8,3,5,7,0,2026-04-20T03:09:20.655971+05:30
Jhansi,Uttar Pradesh,25.4484,78.5685,27.1,51,0.0,974.4,8.05,28.8,55,25.1,13.5,4,5,7,1,2026-04-20T03:09:23.902701+05:30
Surat,Gujarat,21.1702,72.8311,27.0,85,0.0,1004.7,7.85,27.7,95,37.1,27.6,7,5,4,1,2026-04-20T03:09:23.902735+05:30
Vadodara,Gujarat,22.3072,73.1812,26.9,72,0.0,1002.6,8.1,26.3,78,51.2,43.4,7,5,4,1,2026-04-20T03:09:23.902745+05:30
Rajkot,Gujarat,22.3039,70.8022,23.4,82,0.0,993.3,7.85,23.8,52,32.8,13.2,3,5,7,1,2026-04-20T03:09:23.902754+05:30
Thane,Maharashtra,19.2183,72.9781,27.4,80,0.0,1006.0,8.05,32.4,77,34.2,18.0,7,5,4,1,2026-04-20T03:09:23.902762+05:30
Nagpur,Maharashtra,21.1458,79.0882,27.8,63,0.0,972.0,8.8,32.8,88,39.5,34.6,7,5,7,1,2026-04-20T03:09:23.902768+05:30
Nashik,Maharashtra,19.9975,73.7898,26.4,44,0.0,944.1,8.25,30.2,91,54.6,45.3,4,5,7,0,2026-04-20T03:09:23.902775+05:30
Aurangabad,Maharashtra,19.8762,75.3433,27.7,51,0.0,942.8,9.05,24.8,84,44.7,39.3,4,5,7,1,2026-04-20T03:09:23.902781+05:30
Solapur,Maharashtra,17.6599,75.9064,26.1,79,0.0,955.9,9.1,33.1,147,70.3,62.9,7,5,7,1,2026-04-20T03:09:23.902788+05:30
Kolhapur,Maharashtra,16.705,74.2433,22.8,96,0.0,945.9,9.05,38.9,102,38.9,32.5,3,5,7,1,2026-04-20T03:09:23.902794+05:30
Goa,Goa,15.2993,74.124,27.8,85,0.0,996.2,9.0,34.6,87,57.0,34.7,7,5,7,1,2026-04-20T03:09:23.902801+05:30
Jodhpur,Rajasthan,26.2389,73.0243,26.8,38,0.0,981.3,8.15,23.8,99,127.1,21.1,4,5,7,0,2026-04-20T03:09:23.902807+05:30
Udaipur,Rajasthan,24.5854,73.7125,24.3,38,0.0,945.3,8.7,24.8,45,22.1,9.2,0,5,7,0,2026-04-20T03:09:23.902813+05:30
Kota,Rajasthan,25.2138,75.8648,25.8,41,0.0,976.2,8.25,21.6,57,11.4,9.0,4,5,7,0,2026-04-20T03:09:23.902819+05:30
Bikaner,Rajasthan,28.0229,73.3119,28.1,43,0.0,980.3,7.95,21.2,75,36.6,18.7,4,5,7,0,2026-04-20T03:09:23.902825+05:30
Ajmer,Rajasthan,26.4499,74.6399,26.3,36,0.0,953.0,8.15,22.3,66,50.3,14.6,4,5,7,0,2026-04-20T03:09:23.902831+05:30
Gwalior,Madhya Pradesh,26.2183,78.1828,26.8,49,0.0,980.2,8.0,33.8,68,63.1,18.9,4,5,7,0,2026-04-20T03:09:23.902837+05:30
Indore,Madhya Pradesh,22.7196,75.8577,26.4,55,0.0,946.7,8.25,34.9,59,21.9,18.0,4,5,7,1,2026-04-20T03:09:23.902843+05:30
Bhopal,Madhya Pradesh,23.2599,77.4126,27.4,45,0.0,951.6,5.75,30.6,62,23.6,21.5,4,5,3,0,2026-04-20T03:09:23.902849+05:30
Jabalpur,Madhya Pradesh,23.1815,79.9864,29.7,39,0.0,959.0,8.55,35.3,64,29.6,23.3,4,5,7,0,2026-04-20T03:09:23.902855+05:30
Ujjain,Madhya Pradesh,23.1765,75.7885,26.4,58,0.0,952.5,7.55,32.0,57,21.2,16.4,4,5,7,1,2026-04-20T03:09:23.902861+05:30
Visakhapatnam,Andhra Pradesh,17.6868,83.2185,26.8,90,0.0,1001.7,9.2,38.5,59,16.0,12.4,7,5,4,1,2026-04-20T03:09:23.902867+05:30
Vijayawada,Andhra Pradesh,16.5062,80.648,26.4,91,0.0,1001.0,9.2,29.5,52,16.6,13.0,7,5,4,1,2026-04-20T03:09:23.902873+05:30
Guntur,Andhra Pradesh,16.3067,80.4365,26.9,92,0.0,1001.9,9.25,32.8,54,14.8,11.5,7,5,4,1,2026-04-20T03:09:23.902879+05:30
Nellore,Andhra Pradesh,14.4426,79.9865,27.1,85,0.0,1003.5,9.3,34.6,48,12.4,9.7,7,5,4,1,2026-04-20T03:09:23.902887+05:30
Kurnool,Andhra Pradesh,15.8281,78.0373,29.5,60,0.0,975.3,9.25,47.9,92,31.7,28.1,4,5,7,1,2026-04-20T03:09:23.902894+05:30
Kakinada,Andhra Pradesh,16.9891,82.2475,26.2,91,0.0,1005.9,9.2,33.5,46,16.4,11.2,7,5,4,1,2026-04-20T03:09:23.902900+05:30
Tirupati,Andhra Pradesh,13.6288,79.4192,25.8,89,0.0,990.3,9.35,35.6,61,21.3,18.9,7,5,7,1,2026-04-20T03:09:23.902906+05:30
Warangal,Telangana,17.9689,79.5941,28.3,64,0.0,977.7,9.15,33.5,88,21.7,19.2,7,5,7,1,2026-04-20T03:09:23.902912+05:30
Nizamabad,Telangana,18.6725,78.0941,28.4,55,0.0,963.9,9.15,31.3,129,54.5,50.6,4,5,7,1,2026-04-20T03:09:23.902917+05:30
Mysore,Karnataka,12.2958,76.6396,23.2,91,0.0,927.2,9.45,36.7,87,32.2,29.6,3,5,7,1,2026-04-20T03:09:23.902923+05:30
Mangalore,Karnataka,12.9141,74.856,29.8,73,0.0,1005.2,9.1,25.2,79,48.7,33.9,7,5,4,1,2026-04-20T03:09:23.902929+05:30
Hubli-Dharwad,Karnataka,15.3647,75.124,24.0,93,0.0,939.8,9.25,40.7,85,35.4,26.4,3,5,7,1,2026-04-20T03:09:23.902935+05:30
Belgaum,Karnataka,15.8497,74.4977,22.8,96,0.0,924.1,9.25,37.8,95,52.5,40.5,3,5,7,1,2026-04-20T03:09:27.126812+05:30
Coimbatore,Tamil Nadu,11.0168,76.9558,24.9,87,0.0,960.2,9.4,45.4,89,31.5,28.8,3,5,7,1,2026-04-20T03:09:27.126846+05:30
Madurai,Tamil Nadu,9.9252,78.1198,26.1,89,0.0,991.4,9.3,37.1,64,22.2,20.7,7,5,7,1,2026-04-20T03:09:27.126857+05:30
Trichy,Tamil Nadu,10.7905,78.7047,26.2,91,0.0,998.5,9.3,22.3,59,20.4,18.8,7,5,7,1,2026-04-20T03:09:27.126864+05:30
Salem,Tamil Nadu,11.6643,78.146,26.7,79,0.0,975.9,9.4,16.9,63,21.7,19.6,7,5,7,1,2026-04-20T03:09:27.126871+05:30
Tirunelveli,Tamil Nadu,8.7139,77.7567,25.7,79,0.0,1001.5,9.25,50.4,65,23.6,20.0,7,5,4,1,2026-04-20T03:09:27.126878+05:30
Vellore,Tamil Nadu,12.9165,79.1325,25.5,94,0.0,983.0,9.4,29.2,78,36.0,34.1,7,5,7,1,2026-04-20T03:09:27.126884+05:30
Erode,Tamil Nadu,11.341,77.7172,28.3,75,0.0,987.4,9.35,24.5,63,18.0,16.5,7,5,7,1,2026-04-20T03:09:27.126891+05:30
Kochi,Kerala,9.9312,76.2673,28.5,81,0.0,1007.0,9.05,31.7,66,32.4,29.7,7,5,4,1,2026-04-20T03:09:27.126897+05:30
Thiruvananthapuram,Kerala,8.5241,76.9366,28.2,84,0.0,1006.2,9.1,32.0,65,21.5,14.9,7,5,4,1,2026-04-20T03:09:27.126903+05:30
Kozhikode,Kerala,11.2588,75.7804,29.1,81,0.0,1006.3,9.1,29.5,65,36.1,23.3,7,5,4,1,2026-04-20T03:09:27.126909+05:30
Thrissur,Kerala,10.5276,76.2144,27.3,89,0.0,1005.5,9.15,37.8,67,45.6,40.7,7,5,4,1,2026-04-20T03:09:27.126915+05:30
Kannur,Kerala,11.8745,75.3704,28.8,81,0.0,1005.7,9.1,33.1,75,40.2,34.1,7,5,4,1,2026-04-20T03:09:27.126921+05:30
Patna,Bihar,25.5941,85.1376,27.3,83,0.0,996.4,8.5,34.9,129,55.5,50.8,7,5,7,1,2026-04-20T03:09:27.126928+05:30
Gaya,Bihar,24.7914,85.0002,28.1,65,0.0,989.3,8.6,33.1,101,53.4,39.5,7,5,7,1,2026-04-20T03:09:27.126934+05:30
Muzaffarpur,Bihar,26.1209,85.3647,25.7,87,0.0,996.7,8.65,34.9,133,52.2,48.1,7,5,7,1,2026-04-20T03:09:27.126940+05:30
Bhagalpur,Bihar,25.2425,87.0117,26.5,91,0.0,997.2,8.65,25.6,124,46.7,44.2,7,5,7,1,2026-04-20T03:09:27.126946+05:30
Ranchi,Jharkhand,23.3441,85.3096,25.6,70,0.0,935.2,9.2,40.0,93,105.2,34.5,7,5,7,1,2026-04-20T03:09:27.126951+05:30
Jamshedpur,Jharkhand,22.8046,86.2029,28.3,80,0.0,987.5,9.0,29.2,143,61.0,52.7,7,5,7,1,2026-04-20T03:09:27.126957+05:30
Dhanbad,Jharkhand,23.7957,86.4304,28.7,87,0.0,976.1,9.0,44.6,156,110.1,92.9,7,5,7,1,2026-04-20T03:09:27.126964+05:30
Bokaro,Jharkhand,23.6693,86.1511,27.8,75,0.0,980.3,9.0,45.7,143,106.9,74.7,7,5,7,1,2026-04-20T03:09:27.126969+05:30
Bhubaneswar,Odisha,20.2961,85.8245,26.4,92,0.0,1000.0,9.1,29.2,67,16.3,12.7,7,5,4,1,2026-04-20T03:09:27.126975+05:30
Cuttack,Odisha,20.4625,85.8828,26.9,92,0.0,1001.8,9.15,28.8,67,16.3,12.7,7,5,4,1,2026-04-20T03:09:27.126982+05:30
Rourkela,Odisha,22.2604,84.8536,29.3,72,0.0,981.8,8.95,29.9,151,70.1,57.6,7,5,7,1,2026-04-20T03:09:27.126988+05:30
Raipur,Chhattisgarh,21.2514,81.6296,29.0,58,0.0,973.1,8.1,37.1,119,49.1,46.4,4,5,7,1,2026-04-20T03:09:27.126995+05:30
Bhilai,Chhattisgarh,21.1938,81.3509,28.6,61,0.0,973.4,8.5,37.1,112,42.3,40.0,7,5,7,1,2026-04-20T03:09:27.127001+05:30
Guwahati,Assam,26.1158,91.7086,24.4,92,0.0,998.7,8.5,32.4,113,51.8,46.0,3,5,7,1,2026-04-20T03:09:27.127007+05:30
Agartala,Tripura,23.8315,91.2868,24.4,93,0.0,1004.7,8.8,34.9,104,42.8,38.2,3,5,4,1,2026-04-20T03:09:27.127012+05:30
Shillong,Meghalaya,25.5788,91.8933,15.8,91,0.0,854.0,6.35,68.0,76,29.9,24.5,3,10,7,0,2026-04-20T03:09:27.127019+05:30
Imphal,Manipur,24.817,93.9368,18.5,91,0.0,921.5,8.95,80.3,137,50.2,42.8,3,10,7,1,2026-04-20T03:09:27.127025+05:30
Aizawl,Mizoram,23.7271,92.7176,19.7,89,0.0,891.5,9.0,53.6,147,51.9,43.5,3,10,7,1,2026-04-20T03:09:27.127030+05:30
Kohima,Nagaland,25.6701,94.1077,16.2,87,0.0,852.6,8.4,95.8,97,22.1,16.2,3,10,7,0,2026-04-20T03:09:27.127036+05:30
Gangtok,Sikkim,27.3314,88.6138,15.9,90,0.0,834.9,8.9,18.4,55,15.7,14.6,3,10,7,0,2026-04-20T03:09:27.127042+05:30
Siliguri,West Bengal,26.7271,88.3953,22.0,78,0.0,991.2,8.55,28.8,102,40.4,35.2,3,5,7,1,2026-04-20T03:09:30.350394+05:30
Durgapur,West Bengal,23.5204,87.3119,27.4,93,0.0,991.4,8.9,29.9,141,39.9,37.4,7,5,7,1,2026-04-20T03:09:30.350429+05:30
Asansol,West Bengal,23.6739,86.9524,28.2,90,0.0,989.9,8.95,37.1,143,59.1,56.3,7,5,7,1,2026-04-20T03:09:30.350440+05:30
Pondicherry,Puducherry,11.9139,79.8145,26.4,95,0.0,1007.0,9.25,32.4,35,12.1,7.9,7,5,4,1,2026-04-20T03:09:30.350448+05:30
Port Blair,Andaman and Nicobar Islands,11.6234,92.7265,28.9,79,0.0,1006.1,9.05,18.0,50,12.3,9.8,7,5,4,1,2026-04-20T03:09:30.350455+05:30
Haridwar,Uttarakhand,29.9457,78.1642,22.3,64,0.0,971.2,7.1,34.9,69,41.7,25.4,3,5,7,0,2026-04-20T03:09:30.350462+05:30
Rishikesh,Uttarakhand,30.0869,78.2676,21.9,58,0.0,964.3,7.2,36.0,65,63.1,21.9,0,5,7,0,2026-04-20T03:09:30.350469+05:30
Nainital,Uttarakhand,29.3919,79.4542,22.7,29,0.0,805.9,8.05,55.4,64,38.9,17.6,0,5,7,0,2026-04-20T03:09:30.350476+05:30
Mussoorie,Uttarakhand,30.4599,78.0664,18.8,40,0.0,802.2,7.55,45.7,62,29.7,19.6,0,5,7,0,2026-04-20T03:09:30.350483+05:30
Dharamshala,Himachal Pradesh,32.219,76.3234,21.6,25,0.0,868.8,7.8,30.6,41,6.3,4.1,0,5,7,0,2026-04-20T03:09:30.350490+05:30
Dalhousie,Himachal Pradesh,32.5387,75.971,17.8,27,0.0,803.4,8.05,28.8,56,18.9,15.7,0,5,7,1,2026-04-20T03:09:30.350498+05:30
Patiala,Punjab,30.3398,76.3869,21.8,66,0.0,975.6,7.15,29.2,409,694.8,80.8,3,5,7,0,2026-04-20T03:09:30.350505+05:30
Bhatinda,Punjab,30.211,74.9455,23.8,57,0.0,982.0,7.8,30.6,71,80.6,31.1,0,5,7,0,2026-04-20T03:09:30.350511+05:30
Rohtak,Haryana,28.8955,76.6066,21.0,67,0.0,979.0,7.3,26.6,340,1218.2,171.8,3,5,7,0,2026-04-20T03:09:30.350517+05:30
Panipat,Haryana,29.3909,76.9635,21.8,65,0.0,977.8,7.15,27.7,638,1944.6,237.0,3,5,7,0,2026-04-20T03:09:30.350523+05:30
Mathura,Uttar Pradesh,27.4924,77.6737,23.8,54,0.0,983.9,7.6,24.5,411,579.3,107.3,0,5,7,0,2026-04-20T03:09:30.350530+05:30
Vrindavan,Uttar Pradesh,27.5823,77.7027,22.7,58,0.0,984.1,7.6,28.8,411,579.3,107.3,0,5,7,0,2026-04-20T03:09:30.350535+05:30
Ayodhya,Uttar Pradesh,26.7922,82.1998,25.5,71,0.0,991.1,8.1,36.7,106,95.7,33.6,7,5,7,1,2026-04-20T03:09:30.350541+05:30
Ratlam,Madhya Pradesh,23.3315,75.0367,26.5,56,0.0,953.2,8.45,27.4,84,21.4,15.4,4,5,7,1,2026-04-20T03:09:30.350547+05:30
Sagar,Madhya Pradesh,23.8388,78.7378,28.6,38,0.0,947.9,8.25,31.7,56,29.6,21.5,4,5,7,0,2026-04-20T03:09:30.350553+05:30
Satna,Madhya Pradesh,24.6005,80.8322,27.9,49,0.0,968.4,8.4,38.9,69,33.9,15.6,4,5,7,1,2026-04-20T03:09:30.350559+05:30
Akola,Maharashtra,20.7002,77.0082,28.0,60,0.0,973.5,8.85,25.9,75,31.0,28.6,4,5,7,1,2026-04-20T03:09:30.350566+05:30
Amravati,Maharashtra,20.9374,77.7796,27.1,64,0.0,965.4,8.85,18.7,72,31.4,29.3,7,5,7,1,2026-04-20T03:09:30.350572+05:30
Latur,Maharashtra,18.4088,76.5604,25.5,64,0.0,939.2,9.1,30.6,130,81.3,72.9,7,5,7,1,2026-04-20T03:09:30.350578+05:30
Nanded,Maharashtra,19.1383,77.3091,26.6,67,0.0,967.2,9.0,19.8,93,38.8,34.8,7,5,7,1,2026-04-20T03:09:30.350584+05:30
Gulbarga,Karnataka,17.3297,76.8343,25.0,71,0.0,958.1,9.15,44.3,112,65.0,59.8,7,5,7,1,2026-04-20T03:09:30.350589+05:30
Bidar,Karnataka,17.9104,77.5199,25.2,70,0.0,934.9,9.15,32.0,119,56.6,51.8,7,5,7,1,2026-04-20T03:09:30.350595+05:30
Hospet,Karnataka,15.2689,76.3909,26.1,84,0.0,954.6,9.3,32.4,96,39.3,36.6,7,5,7,1,2026-04-20T03:09:30.350602+05:30
Tirupur,Tamil Nadu,11.1085,77.3411,26.4,83,0.0,973.7,9.45,31.0,77,27.6,25.1,7,5,7,1,2026-04-20T03:09:30.350608+05:30
Alappuzha,Kerala,9.4981,76.3388,27.5,85,0.0,1007.3,8.05,29.2,71,34.3,27.3,7,5,4,1,2026-04-20T03:09:30.350613+05:30
Munnar,Kerala,10.0889,77.0595,20.5,95,0.0,855.2,9.65,31.7,76,30.9,28.4,3,5,7,1,2026-04-20T03:09:30.350620+05:30
Silchar,Assam,24.8333,92.7789,23.8,92,0.0,1003.9,8.8,36.4,145,39.2,30.5,3,5,4,1,2026-04-20T03:09:30.350626+05:30
Dibrugarh,Assam,27.4728,94.912,23.3,91,0.0,993.7,6.7,15.8,139,58.3,47.8,3,5,7,1,2026-04-20T03:09:30.350632+05:30
