city,state,latitude,longitude,temp,humidity,rain,pressure,uv_index,wind_gusts,aqi,pm10,pm2_5,no2,co,o3,so2,mosquito_risk,arthritis_risk,migraine_risk,frizz_risk,updated_at
Delhi,Delhi,28.6139,77.209,39.0,32,0.0,972.7,7.45,37.8,640,486.2,112.2,18.9,266.0,174.0,25.9,0,5,10,1,2026-06-30T17:41:16.545422+05:30
Mumbai,Maharashtra,19.076,72.8777,26.2,91,0.5,1003.4,5.3,37.8,42,15.8,9.5,9.5,357.0,53.0,5.5,10,5,0,1,2026-06-30T17:41:16.545464+05:30
Bangalore,Karnataka,12.9716,77.5946,23.4,88,0.2,909.2,8.3,55.4,29,5.2,4.5,13.2,469.0,55.0,3.0,6,5,7,1,2026-06-30T17:41:16.545480+05:30
Hyderabad,Telangana,17.385,78.4867,27.1,79,0.1,947.8,6.9,47.9,32,5.4,5.2,7.7,433.0,71.0,2.8,10,5,7,1,2026-06-30T17:41:16.545490+05:30
Chennai,Tamil Nadu,13.0827,80.2707,32.7,57,0.0,1001.9,8.0,46.4,46,19.7,14.2,5.0,393.0,105.0,4.0,0,5,4,1,2026-06-30T17:41:16.545498+05:30
Kolkata,West Bengal,22.5726,88.3639,27.8,93,0.3,997.5,8.9,23.4,114,30.0,29.7,12.3,594.0,106.0,9.7,10,5,7,1,2026-06-30T17:41:16.545507+05:30
Pune,Maharashtra,18.5204,73.8567,24.0,92,0.2,943.0,2.6,45.7,26,4.4,3.8,10.3,175.0,41.0,3.6,6,5,3,1,2026-06-30T17:41:16.545514+05:30
Ahmedabad,Gujarat,23.0225,72.5714,35.0,50,0.2,993.0,7.95,47.2,56,20.7,11.4,2.8,153.0,86.0,3.0,3,5,7,1,2026-06-30T17:41:16.545520+05:30
Jaipur,Rajasthan,26.9124,75.7873,37.1,36,0.0,951.1,8.2,40.0,175,113.6,26.9,2.7,155.0,93.0,2.6,0,5,10,1,2026-06-30T17:41:16.545526+05:30
Lucknow,Uttar Pradesh,26.8467,80.9462,34.2,50,0.0,983.9,7.85,34.6,108,82.2,35.0,10.0,245.0,97.0,7.2,0,5,7,1,2026-06-30T17:41:16.545537+05:30
Kanpur,Uttar Pradesh,26.4499,80.3319,33.3,66,0.0,982.2,7.7,37.4,128,127.6,41.7,8.1,189.0,115.0,7.6,3,5,7,1,2026-06-30T17:41:16.545545+05:30
Chandigarh,Chandigarh,30.7333,76.7794,26.5,98,0.2,960.6,7.65,34.6,131,62.2,34.9,11.2,489.0,152.0,9.6,10,5,7,1,2026-06-30T17:41:16.545552+05:30
Srinagar,Jammu and Kashmir,34.0837,74.7973,34.0,31,0.0,836.5,9.1,23.0,164,23.1,18.3,4.1,340.0,150.0,3.7,0,5,7,0,2026-06-30T17:41:16.545559+05:30
Jammu,Jammu and Kashmir,32.7266,74.857,27.0,85,0.0,964.3,8.6,61.9,152,93.6,50.3,4.5,284.0,149.0,6.5,7,5,7,1,2026-06-30T17:41:16.545565+05:30
Amritsar,Punjab,31.634,74.8723,34.6,59,0.0,970.9,8.45,44.3,154,109.9,55.4,7.0,372.0,125.0,5.3,0,5,7,1,2026-06-30T17:41:16.545571+05:30
Ludhiana,Punjab,30.901,75.8573,32.9,71,0.0,969.1,5.85,41.8,171,128.1,49.0,8.8,414.0,163.0,10.4,3,5,3,1,2026-06-30T17:41:16.545577+05:30
Jalandhar,Punjab,31.326,75.5762,33.3,64,0.1,969.9,8.0,38.2,158,126.2,58.4,7.4,346.0,162.0,8.9,6,5,7,1,2026-06-30T17:41:16.545583+05:30
Dehradun,Uttarakhand,30.6284,78.0322,21.4,93,0.1,826.4,6.6,23.8,68,25.0,10.4,7.3,223.0,113.0,1.9,6,5,7,1,2026-06-30T17:41:16.545589+05:30
Shimla,Himachal Pradesh,31.1048,77.1734,18.2,95,0.0,781.8,5.2,39.2,88,32.8,17.8,5.7,259.0,125.0,5.2,3,10,3,1,2026-06-30T17:41:16.545596+05:30
Manali,Himachal Pradesh,32.2396,77.1887,22.9,88,0.0,816.7,7.2,34.6,59,29.9,28.5,55.9,182.0,87.0,1.3,3,5,7,1,2026-06-30T17:41:16.545604+05:30
Gurgaon,Haryana,28.4595,77.0266,38.3,34,0.0,971.4,7.8,38.5,1028,1013.3,196.0,20.3,201.0,151.0,24.7,0,5,10,1,2026-06-30T17:41:16.545612+05:30
Noida,Uttar Pradesh,28.5355,77.391,36.8,47,0.0,973.8,7.45,29.5,1028,1013.3,196.0,20.3,763.0,151.0,24.7,0,5,10,1,2026-06-30T17:41:16.545618+05:30
Ghaziabad,Uttar Pradesh,28.6692,77.4538,34.7,63,0.0,972.5,7.25,32.8,242,275.7,66.8,8.5,203.0,174.0,20.2,3,5,7,1,2026-06-30T17:41:16.545624+05:30
Faridabad,Haryana,28.4089,77.3178,38.9,33,0.0,973.2,7.75,36.7,1028,1013.3,196.0,20.3,376.0,151.0,24.7,0,5,10,1,2026-06-30T17:41:16.545630+05:30
Meerut,Uttar Pradesh,28.9845,77.7064,32.2,74,0.0,972.0,7.55,39.6,242,275.7,66.8,8.5,264.0,174.0,20.2,3,5,7,1,2026-06-30T17:41:16.545636+05:30
Agra,Uttar Pradesh,27.1767,78.0081,38.2,33,0.0,977.7,6.7,37.1,404,609.1,149.5,11.2,158.0,113.0,9.0,0,5,10,1,2026-06-30T17:41:16.545642+05:30
Varanasi,Uttar Pradesh,25.3176,82.9739,33.0,65,0.1,988.3,8.65,25.9,88,42.1,27.5,5.7,393.0,130.0,6.1,6,5,7,1,2026-06-30T17:41:16.545649+05:30
Prayagraj,Uttar Pradesh,25.4358,81.8463,34.1,63,0.1,986.5,6.7,32.4,99,63.8,34.3,7.8,204.0,128.0,8.2,6,5,7,1,2026-06-30T17:41:16.545655+05:30
Gorakhpur,Uttar Pradesh,26.7606,83.3732,32.6,67,0.0,987.5,1.6,30.2,100,34.6,30.4,5.1,306.0,153.0,8.0,3,5,3,1,2026-06-30T17:41:16.545662+05:30
Bareilly,Uttar Pradesh,28.367,79.4304,31.0,73,0.0,977.4,7.6,43.6,109,34.5,21.4,11.5,269.0,93.0,7.2,3,5,7,1,2026-06-30T17:41:16.545669+05:30
Aligarh,Uttar Pradesh,27.8974,78.088,35.6,50,0.0,975.5,7.4,39.2,451,474.0,112.2,9.4,177.0,157.0,15.2,0,5,10,1,2026-06-30T17:41:16.545676+05:30
Moradabad,Uttar Pradesh,28.8386,78.7733,29.3,84,0.0,974.6,7.65,37.8,124,11.7,10.9,10.0,275.0,104.0,10.0,7,5,7,1,2026-06-30T17:41:16.545682+05:30
Saharanpur,Uttar Pradesh,29.9637,77.546,28.3,92,0.3,967.3,7.45,51.8,139,55.5,22.2,5.1,307.0,142.0,7.7,10,5,7,1,2026-06-30T17:41:16.545688+05:30
Jhansi,Uttar Pradesh,25.4484,78.5685,35.2,49,0.1,969.1,7.3,40.7,74,45.5,22.0,3.2,138.0,92.0,3.2,3,5,10,1,2026-06-30T17:41:19.805589+05:30
Surat,Gujarat,21.1702,72.8311,29.6,76,0.0,999.9,7.1,45.7,61,18.9,13.4,14.3,231.0,42.0,32.7,7,5,7,1,2026-06-30T17:41:19.805619+05:30
Vadodara,Gujarat,22.3072,73.1812,32.1,63,0.1,996.3,6.15,46.4,59,15.4,11.6,5.6,147.0,88.0,7.4,6,5,7,1,2026-06-30T17:41:19.805629+05:30
Rajkot,Gujarat,22.3039,70.8022,35.2,44,0.0,985.4,6.05,41.0,51,23.3,13.1,1.9,126.0,82.0,3.8,0,5,10,1,2026-06-30T17:41:19.805637+05:30
Thane,Maharashtra,19.2183,72.9781,26.0,94,0.5,1002.6,5.5,27.0,42,15.8,9.5,9.5,323.0,53.0,5.5,10,5,0,1,2026-06-30T17:41:19.805646+05:30
Nagpur,Maharashtra,21.1458,79.0882,28.6,79,0.0,966.4,8.2,28.8,68,20.3,17.0,11.0,261.0,81.0,11.1,7,5,7,1,2026-06-30T17:41:19.805653+05:30
Nashik,Maharashtra,19.9975,73.7898,24.6,89,0.2,940.1,6.85,43.9,32,4.9,3.3,4.0,135.0,67.0,3.6,6,5,7,1,2026-06-30T17:41:19.805660+05:30
Aurangabad,Maharashtra,19.8762,75.3433,24.7,94,0.4,938.5,4.05,38.9,37,6.3,5.4,3.7,160.0,79.0,3.4,6,5,3,1,2026-06-30T17:41:19.805667+05:30
Solapur,Maharashtra,17.6599,75.9064,26.1,85,0.2,952.5,5.5,47.5,30,3.0,2.8,3.9,129.0,58.0,1.4,10,5,3,1,2026-06-30T17:41:19.805675+05:30
Kolhapur,Maharashtra,16.705,74.2433,24.3,88,0.0,944.3,7.45,52.6,24,3.1,2.9,6.7,146.0,43.0,1.4,3,5,7,1,2026-06-30T17:41:19.805682+05:30
Goa,Goa,15.2993,74.124,25.4,95,0.0,996.0,5.25,37.1,29,10.6,6.6,2.1,185.0,50.0,0.5,7,5,3,1,2026-06-30T17:41:19.805689+05:30
Jodhpur,Rajasthan,26.2389,73.0243,37.7,34,0.0,972.8,8.05,47.2,165,325.0,54.9,1.3,116.0,80.0,1.1,0,5,10,1,2026-06-30T17:41:19.805696+05:30
Udaipur,Rajasthan,24.5854,73.7125,32.7,47,0.0,938.4,8.7,38.5,53,28.1,14.0,1.0,123.0,84.0,1.7,0,5,7,1,2026-06-30T17:41:19.805703+05:30
Kota,Rajasthan,25.2138,75.8648,36.1,44,0.0,969.4,7.55,49.0,62,25.7,15.3,1.7,139.0,108.0,4.8,0,5,10,1,2026-06-30T17:41:19.805711+05:30
Bikaner,Rajasthan,28.0229,73.3119,40.2,27,0.0,970.7,8.5,45.0,162,173.2,55.2,0.6,115.0,80.0,2.0,0,5,10,1,2026-06-30T17:41:19.805717+05:30
Ajmer,Rajasthan,26.4499,74.6399,34.8,41,0.0,946.2,8.35,48.6,69,25.8,14.3,1.5,128.0,88.0,1.8,0,5,7,1,2026-06-30T17:41:19.805744+05:30
Gwalior,Madhya Pradesh,26.2183,78.1828,37.5,37,0.0,973.8,7.65,38.5,84,88.0,29.9,3.4,140.0,88.0,2.1,0,5,10,1,2026-06-30T17:41:19.805752+05:30
Indore,Madhya Pradesh,22.7196,75.8577,29.0,77,0.0,941.4,6.7,44.6,62,25.5,21.3,13.1,465.0,72.0,4.7,7,5,7,1,2026-06-30T17:41:19.805759+05:30
Bhopal,Madhya Pradesh,23.2599,77.4126,28.0,78,0.1,946.9,7.9,41.4,66,22.9,17.7,5.6,306.0,80.0,4.4,10,5,7,1,2026-06-30T17:41:19.805766+05:30
Jabalpur,Madhya Pradesh,23.1815,79.9864,28.8,82,0.1,953.6,2.35,35.3,55,17.0,13.2,5.9,185.0,84.0,5.3,10,5,3,1,2026-06-30T17:41:19.805773+05:30
Ujjain,Madhya Pradesh,23.1765,75.7885,29.1,75,0.0,946.8,6.4,44.6,61,28.5,18.2,2.5,258.0,91.0,3.2,7,5,7,1,2026-06-30T17:41:19.805780+05:30
Visakhapatnam,Andhra Pradesh,17.6868,83.2185,32.2,71,0.0,995.2,8.45,37.4,95,25.7,23.6,25.5,352.0,97.0,38.5,3,5,7,1,2026-06-30T17:41:19.805787+05:30
Vijayawada,Andhra Pradesh,16.5062,80.648,33.4,54,0.0,995.5,7.45,44.6,49,8.1,7.7,5.2,160.0,74.0,3.4,0,5,7,1,2026-06-30T17:41:19.805793+05:30
Guntur,Andhra Pradesh,16.3067,80.4365,33.6,53,0.1,996.8,7.3,48.6,42,6.8,6.5,4.3,160.0,74.0,2.8,3,5,7,1,2026-06-30T17:41:19.805801+05:30
Nellore,Andhra Pradesh,14.4426,79.9865,34.3,51,0.0,999.6,7.95,52.6,38,12.4,9.0,5.2,147.0,87.0,4.1,0,5,7,1,2026-06-30T17:41:19.805808+05:30
Kurnool,Andhra Pradesh,15.8281,78.0373,32.8,47,0.0,971.3,7.15,55.8,34,7.6,5.1,3.6,122.0,74.0,2.2,0,5,7,1,2026-06-30T17:41:19.805816+05:30
Kakinada,Andhra Pradesh,16.9891,82.2475,31.4,72,0.0,1000.1,8.5,52.2,59,13.9,11.3,4.8,211.0,103.0,3.6,3,5,4,1,2026-06-30T17:41:19.805822+05:30
Tirupati,Andhra Pradesh,13.6288,79.4192,35.1,41,0.0,985.4,7.55,48.6,32,10.2,7.4,10.3,154.0,56.0,1.4,0,5,10,1,2026-06-30T17:41:19.805829+05:30
Warangal,Telangana,17.9689,79.5941,31.2,60,0.0,972.1,6.95,37.8,40,13.4,9.1,3.1,215.0,81.0,2.5,0,5,7,1,2026-06-30T17:41:19.805836+05:30
Nizamabad,Telangana,18.6725,78.0941,29.0,72,0.1,958.6,7.45,41.0,53,24.6,13.9,2.8,180.0,79.0,3.4,10,5,7,1,2026-06-30T17:41:19.805843+05:30
Mysore,Karnataka,12.2958,76.6396,24.9,73,0.1,927.0,7.45,55.4,30,3.7,2.7,4.4,132.0,54.0,1.1,6,5,7,1,2026-06-30T17:41:19.805850+05:30
Mangalore,Karnataka,12.9141,74.856,25.6,94,0.3,1006.3,5.0,43.6,32,9.3,5.9,4.7,139.0,42.0,1.0,10,5,0,1,2026-06-30T17:41:19.805857+05:30
Hubli-Dharwad,Karnataka,15.3647,75.124,23.6,89,0.0,938.1,5.5,59.8,26,2.2,1.6,3.6,122.0,48.0,0.6,3,5,3,1,2026-06-30T17:41:19.805864+05:30
Belgaum,Karnataka,15.8497,74.4977,22.9,91,0.1,922.7,5.95,54.0,23,1.9,1.8,5.7,150.0,43.0,0.9,6,5,3,1,2026-06-30T17:41:23.058301+05:30
Coimbatore,Tamil Nadu,11.0168,76.9558,27.0,73,0.0,959.9,8.5,63.7,30,8.2,5.3,3.9,152.0,56.0,1.5,7,5,7,1,2026-06-30T17:41:23.058337+05:30
Madurai,Tamil Nadu,9.9252,78.1198,33.6,46,0.0,990.0,8.15,40.3,59,19.8,8.8,3.9,134.0,65.0,1.5,0,5,7,1,2026-06-30T17:41:23.058348+05:30
Trichy,Tamil Nadu,10.7905,78.7047,33.3,47,0.0,996.3,8.3,65.5,35,15.0,7.9,2.9,114.0,70.0,1.5,0,5,7,1,2026-06-30T17:41:23.058356+05:30
Salem,Tamil Nadu,11.6643,78.146,29.4,70,0.1,974.8,7.55,34.9,42,11.4,8.4,8.4,221.0,71.0,3.7,10,5,7,1,2026-06-30T17:41:23.058365+05:30
Tirunelveli,Tamil Nadu,8.7139,77.7567,32.5,48,0.0,1001.1,8.4,52.2,31,11.6,7.0,2.4,113.0,62.0,1.1,0,5,4,1,2026-06-30T17:41:23.058372+05:30
Vellore,Tamil Nadu,12.9165,79.1325,32.7,50,0.0,979.6,8.8,53.3,38,9.6,7.4,6.6,178.0,72.0,2.0,0,5,7,1,2026-06-30T17:41:23.058380+05:30
Erode,Tamil Nadu,11.341,77.7172,31.7,53,0.0,986.2,8.65,46.4,42,13.6,8.6,6.4,156.0,68.0,1.7,0,5,7,1,2026-06-30T17:41:23.058388+05:30
Kochi,Kerala,9.9312,76.2673,25.8,91,0.1,1009.2,8.25,46.8,45,15.5,8.6,4.2,150.0,51.0,2.3,10,0,4,1,2026-06-30T17:41:23.058395+05:30
Thiruvananthapuram,Kerala,8.5241,76.9366,27.2,84,0.0,1008.0,8.4,52.9,37,17.2,9.5,2.1,104.0,54.0,0.9,7,0,4,1,2026-06-30T17:41:23.058403+05:30
Kozhikode,Kerala,11.2588,75.7804,25.4,96,0.1,1008.3,8.05,40.7,26,14.0,7.0,1.0,142.0,51.0,0.6,10,0,4,1,2026-06-30T17:41:23.058410+05:30
Thrissur,Kerala,10.5276,76.2144,25.9,92,0.0,1007.6,7.7,38.2,42,11.4,7.2,4.4,134.0,46.0,1.4,7,5,4,1,2026-06-30T17:41:23.058418+05:30
Kannur,Kerala,11.8745,75.3704,25.2,97,0.1,1007.4,8.55,42.1,31,10.9,6.0,3.9,140.0,43.0,0.9,10,5,4,1,2026-06-30T17:41:23.058424+05:30
Patna,Bihar,25.5941,85.1376,31.7,75,0.0,991.2,8.5,27.7,155,41.7,38.3,7.4,392.0,173.0,15.4,3,5,7,1,2026-06-30T17:41:23.058432+05:30
Gaya,Bihar,24.7914,85.0002,28.7,87,0.0,985.2,8.45,30.2,161,39.8,37.8,5.0,260.0,174.0,11.4,7,5,7,1,2026-06-30T17:41:23.058438+05:30
Muzaffarpur,Bihar,26.1209,85.3647,29.4,82,0.0,991.2,8.35,29.5,152,38.4,34.7,8.8,344.0,161.0,14.8,7,5,7,1,2026-06-30T17:41:23.058445+05:30
Bhagalpur,Bihar,25.2425,87.0117,31.0,78,0.0,992.1,8.05,28.1,182,51.9,50.6,9.4,296.0,196.0,23.4,3,5,7,1,2026-06-30T17:41:23.058452+05:30
Ranchi,Jharkhand,23.3441,85.3096,27.3,79,0.0,930.7,6.0,29.9,126,34.9,33.5,3.4,276.0,144.0,10.0,7,5,3,1,2026-06-30T17:41:23.058459+05:30
Jamshedpur,Jharkhand,22.8046,86.2029,27.8,88,0.1,982.5,8.15,25.9,163,45.1,43.8,8.5,382.0,172.0,27.1,10,5,7,1,2026-06-30T17:41:23.058466+05:30
Dhanbad,Jharkhand,23.7957,86.4304,27.8,89,0.1,971.8,8.8,24.1,169,62.4,61.2,24.0,327.0,178.0,66.4,10,5,7,1,2026-06-30T17:41:23.058473+05:30
Bokaro,Jharkhand,23.6693,86.1511,28.2,85,0.1,975.8,9.0,38.2,156,52.6,51.3,21.8,261.0,149.0,59.6,10,5,7,1,2026-06-30T17:41:23.058480+05:30
Bhubaneswar,Odisha,20.2961,85.8245,29.8,82,0.0,994.3,3.2,32.8,75,18.2,18.0,10.0,384.0,136.0,18.8,7,5,3,1,2026-06-30T17:41:23.058488+05:30
Cuttack,Odisha,20.4625,85.8828,30.0,80,0.0,996.0,3.55,27.7,75,18.2,18.0,10.0,370.0,136.0,18.8,7,5,3,1,2026-06-30T17:41:23.058494+05:30
Rourkela,Odisha,22.2604,84.8536,29.7,79,0.0,977.0,6.8,32.8,100,24.7,24.1,4.9,465.0,159.0,14.5,7,5,7,1,2026-06-30T17:41:23.058503+05:30
Raipur,Chhattisgarh,21.2514,81.6296,31.7,62,0.0,966.6,3.3,38.5,81,19.4,18.9,26.1,204.0,76.0,38.6,3,5,3,1,2026-06-30T17:41:23.058510+05:30
Bhilai,Chhattisgarh,21.1938,81.3509,32.1,56,0.0,967.2,7.2,43.6,77,18.6,17.6,25.4,550.0,77.0,38.1,0,5,7,1,2026-06-30T17:41:23.058517+05:30
Guwahati,Assam,26.1158,91.7086,27.7,94,0.1,994.4,7.7,22.3,64,14.6,14.1,5.7,326.0,82.0,1.2,10,5,7,1,2026-06-30T17:41:23.058524+05:30
Agartala,Tripura,23.8315,91.2868,28.1,91,0.0,998.2,6.95,29.2,68,18.7,18.2,13.6,261.0,102.0,6.2,7,5,7,1,2026-06-30T17:41:23.058531+05:30
Shillong,Meghalaya,25.5788,91.8933,23.0,79,0.0,853.0,7.8,23.8,42,5.8,5.7,8.6,241.0,65.0,1.8,3,5,7,1,2026-06-30T17:41:23.058537+05:30
Imphal,Manipur,24.817,93.9368,23.8,94,0.2,917.6,6.65,32.8,38,7.5,7.3,7.7,247.0,58.0,1.5,6,5,7,1,2026-06-30T17:41:23.058544+05:30
Aizawl,Mizoram,23.7271,92.7176,21.9,95,0.0,886.7,8.4,18.0,32,4.7,4.6,4.8,165.0,47.0,0.4,3,5,7,1,2026-06-30T17:41:23.058550+05:30
Kohima,Nagaland,25.6701,94.1077,22.3,96,0.1,851.3,8.7,19.4,34,6.6,6.5,6.3,168.0,55.0,0.6,6,5,7,1,2026-06-30T17:41:23.058557+05:30
Gangtok,Sikkim,27.3314,88.6138,20.4,93,0.1,833.3,6.5,29.2,72,3.8,3.5,3.7,301.0,126.0,2.2,6,5,7,1,2026-06-30T17:41:23.058564+05:30
Siliguri,West Bengal,26.7271,88.3953,30.0,75,0.0,984.7,7.55,26.6,101,24.9,22.8,7.3,713.0,139.0,4.4,7,5,7,1,2026-06-30T17:41:26.334193+05:30
Durgapur,West Bengal,23.5204,87.3119,27.2,95,0.2,986.6,8.7,26.3,183,76.8,76.1,28.5,1054.0,182.0,68.9,10,5,7,1,2026-06-30T17:41:26.334226+05:30
Asansol,West Bengal,23.6739,86.9524,29.5,81,0.0,985.2,8.85,22.3,186,68.5,67.8,23.6,631.0,197.0,57.0,7,5,7,1,2026-06-30T17:41:26.334237+05:30
Pondicherry,Puducherry,11.9139,79.8145,33.9,49,0.1,1003.6,8.2,44.3,49,24.0,18.1,8.3,177.0,120.0,7.6,3,5,4,1,2026-06-30T17:41:26.334246+05:30
Port Blair,Andaman and Nicobar Islands,11.6234,92.7265,25.5,92,0.2,1005.1,7.85,44.6,29,12.5,7.3,0.5,114.0,54.0,0.3,10,5,4,1,2026-06-30T17:41:26.334255+05:30
Haridwar,Uttarakhand,29.9457,78.1642,30.1,80,0.0,965.6,7.0,42.5,110,24.7,13.4,5.1,281.0,120.0,6.6,3,5,7,1,2026-06-30T17:41:26.334263+05:30
Rishikesh,Uttarakhand,30.0869,78.2676,28.3,88,0.0,958.4,7.15,32.4,92,31.9,14.4,3.9,289.0,111.0,3.2,7,5,7,1,2026-06-30T17:41:26.334270+05:30
Nainital,Uttarakhand,29.3919,79.4542,19.1,98,0.1,800.8,5.75,21.6,71,8.5,7.6,5.9,236.0,115.0,1.5,6,10,3,1,2026-06-30T17:41:26.334279+05:30
Mussoorie,Uttarakhand,30.4599,78.0664,19.4,97,0.1,799.3,6.65,32.4,89,35.2,17.5,6.7,249.0,127.0,5.0,6,10,7,1,2026-06-30T17:41:26.334287+05:30
Dharamshala,Himachal Pradesh,32.219,76.3234,23.1,95,0.1,863.9,6.55,27.0,84,9.0,6.4,4.9,292.0,112.0,1.0,6,5,7,1,2026-06-30T17:41:26.334294+05:30
Dalhousie,Himachal Pradesh,32.5387,75.971,20.8,93,0.0,801.2,6.65,22.7,121,31.8,18.7,6.8,285.0,133.0,2.5,3,5,7,1,2026-06-30T17:41:26.334302+05:30
Patiala,Punjab,30.3398,76.3869,31.6,74,0.0,969.2,7.6,46.4,195,73.1,32.0,6.1,234.0,171.0,10.3,3,5,7,1,2026-06-30T17:41:26.334309+05:30
Bhatinda,Punjab,30.211,74.9455,39.4,33,0.0,972.8,8.25,34.9,162,193.7,69.2,7.5,149.0,124.0,10.3,0,5,10,1,2026-06-30T17:41:26.334316+05:30
Rohtak,Haryana,28.8955,76.6066,38.8,36,0.0,971.3,7.55,35.3,1136,1348.6,214.7,12.4,164.0,134.0,10.5,0,5,10,1,2026-06-30T17:41:26.334323+05:30
Panipat,Haryana,29.3909,76.9635,32.3,73,0.0,970.7,7.6,38.9,1351,2913.2,352.0,12.5,169.0,171.0,22.0,3,5,7,1,2026-06-30T17:41:26.334329+05:30
Mathura,Uttar Pradesh,27.4924,77.6737,37.5,38,0.0,976.6,7.45,33.8,499,834.5,177.0,12.0,152.0,106.0,8.0,0,5,10,1,2026-06-30T17:41:26.334337+05:30
Vrindavan,Uttar Pradesh,27.5823,77.7027,37.2,41,0.0,976.9,7.45,30.6,499,834.5,177.0,12.0,163.0,106.0,8.0,0,5,10,1,2026-06-30T17:41:26.334343+05:30
Ayodhya,Uttar Pradesh,26.7922,82.1998,32.8,63,0.0,985.5,6.4,24.5,96,43.3,30.4,8.2,293.0,117.0,3.6,3,5,7,1,2026-06-30T17:41:26.334350+05:30
Ratlam,Madhya Pradesh,23.3315,75.0367,32.2,54,0.0,947.2,7.6,42.1,59,34.2,18.9,1.2,127.0,97.0,3.4,0,5,7,1,2026-06-30T17:41:26.334357+05:30
Sagar,Madhya Pradesh,23.8388,78.7378,26.7,93,0.7,943.0,8.7,37.8,62,19.3,14.8,5.7,189.0,77.0,3.7,10,5,7,1,2026-06-30T17:41:26.334365+05:30
Satna,Madhya Pradesh,24.6005,80.8322,32.0,67,0.0,962.8,7.9,37.1,72,49.2,21.2,3.8,147.0,106.0,2.6,3,5,7,1,2026-06-30T17:41:26.334372+05:30
Akola,Maharashtra,20.7002,77.0082,28.7,77,0.0,968.6,5.6,35.6,58,21.0,15.2,4.7,154.0,94.0,7.5,7,5,3,1,2026-06-30T17:41:26.334380+05:30
Amravati,Maharashtra,20.9374,77.7796,29.7,69,0.0,960.8,7.95,38.9,61,18.2,13.4,5.5,157.0,92.0,7.8,7,5,7,1,2026-06-30T17:41:26.334388+05:30
Latur,Maharashtra,18.4088,76.5604,26.9,79,0.1,934.7,6.3,39.2,29,3.5,3.3,3.0,131.0,64.0,0.9,10,5,7,1,2026-06-30T17:41:26.334396+05:30
Nanded,Maharashtra,19.1383,77.3091,30.3,64,0.0,962.5,8.5,35.3,53,19.8,11.3,2.7,158.0,76.0,2.0,3,5,7,1,2026-06-30T17:41:26.334403+05:30
Gulbarga,Karnataka,17.3297,76.8343,26.0,84,0.1,953.5,6.4,51.1,32,3.5,2.8,4.4,156.0,65.0,1.6,10,5,7,1,2026-06-30T17:41:26.334410+05:30
Bidar,Karnataka,17.9104,77.5199,27.7,72,0.1,930.4,6.75,46.8,33,5.7,4.8,5.7,145.0,65.0,1.2,10,5,7,1,2026-06-30T17:41:26.334417+05:30
Hospet,Karnataka,15.2689,76.3909,27.2,73,0.2,952.2,7.4,55.1,29,2.5,1.8,2.8,128.0,57.0,1.2,10,5,7,1,2026-06-30T17:41:26.334424+05:30
Tirupur,Tamil Nadu,11.1085,77.3411,28.6,66,0.0,972.6,8.45,66.2,48,12.7,8.1,6.0,141.0,67.0,2.0,7,5,7,1,2026-06-30T17:41:26.334430+05:30
Alappuzha,Kerala,9.4981,76.3388,27.7,79,0.1,1009.0,8.3,43.9,41,17.6,9.6,4.2,87.0,53.0,1.8,10,0,4,1,2026-06-30T17:41:26.334437+05:30
Munnar,Kerala,10.0889,77.0595,16.9,97,0.2,856.1,7.1,52.2,26,7.1,4.6,4.2,96.0,50.0,1.0,6,10,7,1,2026-06-30T17:41:26.334444+05:30
Silchar,Assam,24.8333,92.7789,28.2,94,0.3,997.1,8.2,22.7,64,13.4,13.0,4.4,224.0,98.0,4.8,10,5,7,1,2026-06-30T17:41:26.334451+05:30
Dibrugarh,Assam,27.4728,94.912,31.5,78,0.0,987.4,7.6,14.8,76,15.8,15.1,6.4,211.0,78.0,1.5,3,5,7,1,2026-06-30T17:41:26.334458+05:30
