city,state,latitude,longitude,temp,humidity,rain,pressure,uv_index,wind_gusts,aqi,pm10,pm2_5,mosquito_risk,arthritis_risk,migraine_risk,frizz_risk,updated_at
Delhi,Delhi,28.6139,77.209,20.2,65,0.0,991.1,7.15,41.8,162,406.1,86.1,3,5,7,0,2026-04-10T08:19:38.959924+05:30
Mumbai,Maharashtra,19.076,72.8777,27.6,75,0.0,1012.8,7.95,25.9,94,130.9,37.0,7,0,4,1,2026-04-10T08:19:38.959972+05:30
Bangalore,Karnataka,12.9716,77.5946,25.2,75,0.0,915.6,9.65,43.2,77,41.2,34.0,7,5,7,1,2026-04-10T08:19:38.959988+05:30
Hyderabad,Telangana,17.385,78.4867,29.2,68,0.0,957.9,9.15,18.7,94,55.8,51.9,7,5,7,1,2026-04-10T08:19:38.960000+05:30
Chennai,Tamil Nadu,13.0827,80.2707,30.4,76,0.0,1011.0,9.4,34.6,66,24.7,18.5,3,0,4,1,2026-04-10T08:19:38.960009+05:30
Kolkata,West Bengal,22.5726,88.3639,25.0,90,0.0,1011.9,8.7,27.0,150,107.8,92.7,7,0,4,1,2026-04-10T08:19:38.960019+05:30
Pune,Maharashtra,18.5204,73.8567,25.6,65,0.0,953.0,8.55,31.7,106,129.5,60.1,7,5,7,1,2026-04-10T08:19:38.960031+05:30
Ahmedabad,Gujarat,23.0225,72.5714,27.7,53,0.0,1008.4,8.0,33.8,91,36.9,16.6,4,0,4,1,2026-04-10T08:19:38.960040+05:30
Jaipur,Rajasthan,26.9124,75.7873,21.7,52,0.0,967.9,7.75,27.7,140,363.2,68.2,0,5,7,0,2026-04-10T08:19:38.960048+05:30
Lucknow,Uttar Pradesh,26.8467,80.9462,22.9,56,0.0,1000.4,7.65,43.9,96,63.1,33.8,0,5,4,0,2026-04-10T08:19:38.960057+05:30
Kanpur,Uttar Pradesh,26.4499,80.3319,22.2,64,0.0,999.1,7.65,38.5,131,204.4,47.4,3,5,7,0,2026-04-10T08:19:38.960064+05:30
Chandigarh,Chandigarh,30.7333,76.7794,19.1,67,0.0,976.0,7.1,43.9,66,19.0,18.9,3,5,7,0,2026-04-10T08:19:38.960071+05:30
Srinagar,Jammu and Kashmir,34.0837,74.7973,8.2,92,0.0,845.8,8.1,13.0,55,17.2,16.8,3,10,7,0,2026-04-10T08:19:38.960079+05:30
Jammu,Jammu and Kashmir,32.7266,74.857,18.0,60,0.0,980.4,7.75,33.8,70,23.4,23.1,0,5,7,0,2026-04-10T08:19:38.960086+05:30
Amritsar,Punjab,31.634,74.8723,18.1,74,0.0,989.6,7.7,29.9,86,34.2,31.9,3,5,7,0,2026-04-10T08:19:38.960093+05:30
Ludhiana,Punjab,30.901,75.8573,19.0,69,0.0,987.3,7.3,34.9,78,30.7,28.9,3,5,7,0,2026-04-10T08:19:38.960100+05:30
Jalandhar,Punjab,31.326,75.5762,18.4,73,0.0,988.4,7.45,32.8,78,51.1,41.1,3,5,7,0,2026-04-10T08:19:38.960109+05:30
Dehradun,Uttarakhand,30.6284,78.0322,11.6,57,0.0,831.5,7.5,30.2,35,6.2,5.4,0,5,7,0,2026-04-10T08:19:38.960116+05:30
Shimla,Himachal Pradesh,31.1048,77.1734,10.6,61,0.0,786.1,7.6,51.8,59,10.2,9.7,3,5,7,0,2026-04-10T08:19:38.960123+05:30
Manali,Himachal Pradesh,32.2396,77.1887,14.1,30,0.0,820.3,9.85,28.4,53,8.2,7.4,0,5,7,1,2026-04-10T08:19:38.960131+05:30
Gurgaon,Haryana,28.4595,77.0266,19.4,74,0.0,989.8,7.25,39.6,648,1650.3,223.5,3,5,7,0,2026-04-10T08:19:38.960139+05:30
Noida,Uttar Pradesh,28.5355,77.391,20.6,65,0.0,992.6,7.15,41.0,648,1650.3,223.5,3,5,7,0,2026-04-10T08:19:38.960148+05:30
Ghaziabad,Uttar Pradesh,28.6692,77.4538,19.9,68,0.0,990.5,7.15,41.4,124,312.0,65.9,3,5,7,0,2026-04-10T08:19:38.960155+05:30
Faridabad,Haryana,28.4089,77.3178,20.4,66,0.0,992.0,7.2,40.0,648,1650.3,223.5,3,5,7,0,2026-04-10T08:19:38.960161+05:30
Meerut,Uttar Pradesh,28.9845,77.7064,19.8,67,0.0,988.8,7.05,44.3,124,312.0,65.9,3,5,7,0,2026-04-10T08:19:38.960167+05:30
Agra,Uttar Pradesh,27.1767,78.0081,21.3,67,0.0,996.4,7.5,39.6,375,1002.1,145.8,3,5,7,0,2026-04-10T08:19:38.960173+05:30
Varanasi,Uttar Pradesh,25.3176,82.9739,24.5,55,0.0,1004.4,8.2,40.3,92,68.2,32.4,0,5,4,0,2026-04-10T08:19:38.960182+05:30
Prayagraj,Uttar Pradesh,25.4358,81.8463,24.5,56,0.0,1003.2,8.1,35.3,85,86.4,34.8,0,5,4,0,2026-04-10T08:19:38.960189+05:30
Gorakhpur,Uttar Pradesh,26.7606,83.3732,23.6,48,0.0,1003.0,8.05,51.5,75,33.5,23.9,0,5,4,0,2026-04-10T08:19:38.960195+05:30
Bareilly,Uttar Pradesh,28.367,79.4304,20.5,63,0.0,993.6,7.4,40.0,71,27.5,27.2,3,5,7,0,2026-04-10T08:19:38.960201+05:30
Aligarh,Uttar Pradesh,27.8974,78.088,21.1,64,0.0,993.7,7.3,43.6,178,830.7,129.0,3,5,7,0,2026-04-10T08:19:38.960207+05:30
Moradabad,Uttar Pradesh,28.8386,78.7733,19.5,65,0.0,990.4,7.2,41.4,79,38.2,30.3,3,5,7,0,2026-04-10T08:19:38.960214+05:30
Saharanpur,Uttar Pradesh,29.9637,77.546,18.8,68,0.0,982.3,6.85,56.5,81,68.7,34.2,3,5,7,0,2026-04-10T08:19:38.960219+05:30
Jhansi,Uttar Pradesh,25.4484,78.5685,23.6,61,0.0,985.9,8.0,34.2,92,136.9,34.9,3,5,7,0,2026-04-10T08:19:42.258789+05:30
Surat,Gujarat,21.1702,72.8311,25.8,81,0.0,1011.9,7.75,22.0,122,116.6,66.6,7,0,4,1,2026-04-10T08:19:42.258825+05:30
Vadodara,Gujarat,22.3072,73.1812,26.6,67,0.0,1010.1,8.0,28.8,80,46.8,34.3,7,0,4,1,2026-04-10T08:19:42.258836+05:30
Rajkot,Gujarat,22.3039,70.8022,25.6,82,0.0,999.9,7.75,22.3,72,42.7,20.3,7,5,7,1,2026-04-10T08:19:42.258844+05:30
Thane,Maharashtra,19.2183,72.9781,26.5,56,0.0,1012.3,7.95,37.1,94,130.9,37.0,4,0,4,1,2026-04-10T08:19:42.258850+05:30
Nagpur,Maharashtra,21.1458,79.0882,26.9,50,0.0,979.2,8.7,25.6,76,45.1,24.4,4,5,7,0,2026-04-10T08:19:42.258858+05:30
Nashik,Maharashtra,19.9975,73.7898,24.4,54,0.0,950.1,8.2,27.7,83,97.3,42.1,0,5,7,0,2026-04-10T08:19:42.258865+05:30
Aurangabad,Maharashtra,19.8762,75.3433,26.8,54,0.0,948.9,8.85,28.4,68,45.3,28.1,4,5,7,1,2026-04-10T08:19:42.258872+05:30
Solapur,Maharashtra,17.6599,75.9064,28.1,45,0.0,961.8,8.95,23.8,86,34.8,23.9,4,5,7,0,2026-04-10T08:19:42.258880+05:30
Kolhapur,Maharashtra,16.705,74.2433,24.5,75,0.0,952.1,9.0,33.8,85,88.9,49.0,3,5,7,1,2026-04-10T08:19:42.258887+05:30
Goa,Goa,15.2993,74.124,27.3,78,0.0,1001.3,9.0,36.7,66,54.6,24.0,7,5,4,1,2026-04-10T08:19:42.258894+05:30
Jodhpur,Rajasthan,26.2389,73.0243,22.1,48,0.0,990.5,8.0,24.5,68,130.9,32.0,0,5,7,0,2026-04-10T08:19:42.258900+05:30
Udaipur,Rajasthan,24.5854,73.7125,23.6,35,0.0,953.7,8.55,29.5,54,18.9,7.3,0,5,7,0,2026-04-10T08:19:42.258907+05:30
Kota,Rajasthan,25.2138,75.8648,22.2,67,0.0,986.7,8.0,19.4,82,36.0,17.9,3,5,7,0,2026-04-10T08:19:42.258914+05:30
Bikaner,Rajasthan,28.0229,73.3119,22.5,54,0.0,990.1,7.85,22.0,68,51.7,26.8,0,5,7,0,2026-04-10T08:19:42.258921+05:30
Ajmer,Rajasthan,26.4499,74.6399,22.4,48,0.0,962.1,7.95,20.9,71,220.3,51.6,0,5,7,0,2026-04-10T08:19:42.258927+05:30
Gwalior,Madhya Pradesh,26.2183,78.1828,23.7,62,0.0,991.3,7.75,36.7,119,183.5,52.6,3,5,7,0,2026-04-10T08:19:42.258934+05:30
Indore,Madhya Pradesh,22.7196,75.8577,23.1,50,0.0,954.2,8.45,28.4,78,47.1,28.7,0,5,7,0,2026-04-10T08:19:42.258940+05:30
Bhopal,Madhya Pradesh,23.2599,77.4126,24.8,48,0.0,960.6,8.4,28.8,75,64.3,26.1,0,5,7,0,2026-04-10T08:19:42.258946+05:30
Jabalpur,Madhya Pradesh,23.1815,79.9864,24.4,48,0.0,968.6,8.55,22.7,80,53.2,24.2,0,5,7,0,2026-04-10T08:19:42.258953+05:30
Ujjain,Madhya Pradesh,23.1765,75.7885,23.2,50,0.0,960.4,8.35,28.8,74,45.9,25.7,0,5,7,0,2026-04-10T08:19:42.258960+05:30
Visakhapatnam,Andhra Pradesh,17.6868,83.2185,29.5,80,0.0,1008.1,9.1,36.7,93,50.1,45.1,7,0,4,1,2026-04-10T08:19:42.258967+05:30
Vijayawada,Andhra Pradesh,16.5062,80.648,29.9,78,0.0,1006.8,9.2,34.6,87,27.2,22.0,7,5,4,1,2026-04-10T08:19:42.258973+05:30
Guntur,Andhra Pradesh,16.3067,80.4365,30.3,76,0.0,1007.9,9.2,37.1,88,26.1,21.7,3,5,4,1,2026-04-10T08:19:42.258980+05:30
Nellore,Andhra Pradesh,14.4426,79.9865,30.8,74,0.0,1009.7,9.3,32.0,76,23.4,21.1,3,0,4,1,2026-04-10T08:19:42.258987+05:30
Kurnool,Andhra Pradesh,15.8281,78.0373,30.5,66,0.0,980.8,9.2,24.5,77,38.4,35.9,3,5,7,1,2026-04-10T08:19:42.258994+05:30
Kakinada,Andhra Pradesh,16.9891,82.2475,30.1,77,0.0,1011.9,9.15,34.9,76,32.4,24.3,3,0,4,1,2026-04-10T08:19:42.259001+05:30
Tirupati,Andhra Pradesh,13.6288,79.4192,28.4,81,0.0,995.8,8.75,27.7,93,30.3,28.8,7,5,7,1,2026-04-10T08:19:42.259007+05:30
Warangal,Telangana,17.9689,79.5941,29.3,76,0.0,983.0,9.05,24.1,118,53.6,50.8,7,5,7,1,2026-04-10T08:19:42.259014+05:30
Nizamabad,Telangana,18.6725,78.0941,27.6,56,0.0,969.6,8.95,29.5,89,44.8,29.5,4,5,7,1,2026-04-10T08:19:42.259021+05:30
Mysore,Karnataka,12.2958,76.6396,25.1,77,0.0,932.4,9.55,28.4,61,43.0,33.2,7,5,7,1,2026-04-10T08:19:42.259027+05:30
Mangalore,Karnataka,12.9141,74.856,28.7,83,0.0,1009.9,9.1,31.7,69,51.0,28.9,7,0,4,1,2026-04-10T08:19:42.259033+05:30
Hubli-Dharwad,Karnataka,15.3647,75.124,26.3,58,0.0,944.4,9.2,40.3,65,56.9,22.0,4,5,7,1,2026-04-10T08:19:42.259041+05:30
Belgaum,Karnataka,15.8497,74.4977,24.3,66,0.0,929.5,9.25,36.0,72,95.5,31.3,3,5,7,1,2026-04-10T08:19:45.557933+05:30
Coimbatore,Tamil Nadu,11.0168,76.9558,27.6,68,0.0,965.7,9.5,41.0,57,35.0,27.2,7,5,7,1,2026-04-10T08:19:45.557972+05:30
Madurai,Tamil Nadu,9.9252,78.1198,28.9,72,0.0,996.7,9.4,37.4,96,38.3,36.7,7,5,7,1,2026-04-10T08:19:45.557983+05:30
Trichy,Tamil Nadu,10.7905,78.7047,28.8,73,0.0,1003.5,9.4,29.5,69,19.8,15.8,7,5,4,1,2026-04-10T08:19:45.557992+05:30
Salem,Tamil Nadu,11.6643,78.146,27.4,78,0.0,981.2,9.45,24.1,77,29.2,26.2,7,5,7,1,2026-04-10T08:19:45.558000+05:30
Tirunelveli,Tamil Nadu,8.7139,77.7567,28.4,71,0.0,1006.8,9.35,39.2,64,25.2,21.8,7,5,4,1,2026-04-10T08:19:45.558008+05:30
Vellore,Tamil Nadu,12.9165,79.1325,28.5,74,0.0,988.7,9.45,34.9,96,37.5,35.6,7,5,7,1,2026-04-10T08:19:45.558015+05:30
Erode,Tamil Nadu,11.341,77.7172,27.8,80,0.0,992.9,9.45,30.6,63,34.1,25.2,7,5,7,1,2026-04-10T08:19:45.558023+05:30
Kochi,Kerala,9.9312,76.2673,29.2,82,0.0,1011.2,9.25,33.5,68,32.5,28.1,7,0,4,1,2026-04-10T08:19:45.558030+05:30
Thiruvananthapuram,Kerala,8.5241,76.9366,28.5,80,0.0,1010.6,9.2,30.2,60,30.9,21.3,7,0,4,1,2026-04-10T08:19:45.558038+05:30
Kozhikode,Kerala,11.2588,75.7804,29.4,77,0.0,1010.9,9.15,30.2,70,53.3,23.6,7,0,4,1,2026-04-10T08:19:45.558045+05:30
Thrissur,Kerala,10.5276,76.2144,29.9,77,0.0,1009.8,9.2,39.6,77,44.0,30.9,7,0,4,1,2026-04-10T08:19:45.558052+05:30
Kannur,Kerala,11.8745,75.3704,28.7,74,0.0,1010.5,9.15,36.4,70,45.8,26.9,7,0,4,1,2026-04-10T08:19:45.558062+05:30
Patna,Bihar,25.5941,85.1376,24.6,45,0.0,1006.4,8.35,41.0,85,35.6,21.7,0,5,4,0,2026-04-10T08:19:45.558069+05:30
Gaya,Bihar,24.7914,85.0002,25.0,48,0.0,1000.4,8.45,39.2,93,38.1,28.9,4,5,4,0,2026-04-10T08:19:45.558076+05:30
Muzaffarpur,Bihar,26.1209,85.3647,23.9,47,0.0,1006.1,8.35,40.0,85,33.1,23.1,0,5,4,0,2026-04-10T08:19:45.558082+05:30
Bhagalpur,Bihar,25.2425,87.0117,25.3,56,0.0,1006.8,8.4,34.6,124,63.6,53.6,4,5,4,0,2026-04-10T08:19:45.558090+05:30
Ranchi,Jharkhand,23.3441,85.3096,23.2,45,0.0,943.6,9.0,40.0,77,38.2,21.5,0,5,7,0,2026-04-10T08:19:45.558096+05:30
Jamshedpur,Jharkhand,22.8046,86.2029,26.5,80,0.0,997.3,8.85,19.4,147,99.7,73.6,7,5,7,1,2026-04-10T08:19:45.558103+05:30
Dhanbad,Jharkhand,23.7957,86.4304,25.2,48,0.0,985.9,8.75,36.4,155,75.9,64.0,4,5,7,0,2026-04-10T08:19:45.558109+05:30
Bokaro,Jharkhand,23.6693,86.1511,25.1,50,0.0,990.3,8.8,38.9,148,71.9,59.6,4,5,7,0,2026-04-10T08:19:45.558117+05:30
Bhubaneswar,Odisha,20.2961,85.8245,27.3,84,0.0,1008.1,9.0,29.9,123,58.6,47.6,7,0,4,1,2026-04-10T08:19:45.558123+05:30
Cuttack,Odisha,20.4625,85.8828,27.5,83,0.0,1010.3,9.0,25.9,123,58.6,47.6,7,0,4,1,2026-04-10T08:19:45.558129+05:30
Rourkela,Odisha,22.2604,84.8536,27.6,51,0.0,991.7,8.75,23.0,96,40.3,27.0,4,5,7,1,2026-04-10T08:19:45.558135+05:30
Raipur,Chhattisgarh,21.2514,81.6296,28.0,40,0.0,980.8,8.8,27.4,147,42.5,30.0,4,5,7,0,2026-04-10T08:19:45.558141+05:30
Bhilai,Chhattisgarh,21.1938,81.3509,27.7,44,0.0,981.2,8.8,25.6,131,46.3,31.8,4,5,7,0,2026-04-10T08:19:45.558146+05:30
Guwahati,Assam,26.1158,91.7086,22.3,85,0.0,1006.6,7.55,34.9,76,18.2,13.6,3,5,4,1,2026-04-10T08:19:45.558152+05:30
Agartala,Tripura,23.8315,91.2868,24.6,83,0.0,1011.9,8.55,25.2,155,56.2,55.1,3,0,4,1,2026-04-10T08:19:45.558159+05:30
Shillong,Meghalaya,25.5788,91.8933,14.8,67,0.0,858.2,6.45,48.6,75,19.3,13.3,3,5,7,0,2026-04-10T08:19:45.558164+05:30
Imphal,Manipur,24.817,93.9368,16.6,88,0.0,926.6,8.9,58.0,114,41.6,36.8,3,10,7,0,2026-04-10T08:19:45.558171+05:30
Aizawl,Mizoram,23.7271,92.7176,19.4,78,0.0,896.8,8.8,55.8,78,13.0,12.0,3,5,7,0,2026-04-10T08:19:45.558178+05:30
Kohima,Nagaland,25.6701,94.1077,15.0,80,0.0,856.9,8.75,58.3,77,27.0,21.1,3,5,7,0,2026-04-10T08:19:45.558184+05:30
Gangtok,Sikkim,27.3314,88.6138,14.0,80,0.0,838.7,8.05,16.9,72,16.7,11.9,3,5,7,0,2026-04-10T08:19:45.558190+05:30
Siliguri,West Bengal,26.7271,88.3953,19.6,77,0.0,998.6,6.05,29.5,83,39.7,35.4,3,5,7,0,2026-04-10T08:19:48.856884+05:30
Durgapur,West Bengal,23.5204,87.3119,27.0,69,0.0,1000.9,8.7,24.5,156,105.0,88.2,7,5,4,1,2026-04-10T08:19:48.856919+05:30
Asansol,West Bengal,23.6739,86.9524,27.0,59,0.0,999.6,8.75,29.9,150,72.4,59.8,4,5,7,1,2026-04-10T08:19:48.856930+05:30
Pondicherry,Puducherry,11.9139,79.8145,30.0,80,0.0,1012.0,9.1,33.8,67,22.9,17.6,7,0,4,1,2026-04-10T08:19:48.856938+05:30
Port Blair,Andaman and Nicobar Islands,11.6234,92.7265,28.6,79,0.0,1011.1,8.6,19.1,30,8.9,6.2,7,0,4,1,2026-04-10T08:19:48.856946+05:30
Haridwar,Uttarakhand,29.9457,78.1642,19.6,65,0.0,980.6,6.95,49.7,66,32.9,31.9,3,5,7,0,2026-04-10T08:19:48.856953+05:30
Rishikesh,Uttarakhand,30.0869,78.2676,20.2,62,0.0,972.9,7.0,39.2,54,21.5,18.1,3,5,7,0,2026-04-10T08:19:48.856962+05:30
Nainital,Uttarakhand,29.3919,79.4542,15.9,48,0.0,808.1,7.9,64.4,54,18.5,14.2,0,5,7,0,2026-04-10T08:19:48.856969+05:30
Mussoorie,Uttarakhand,30.4599,78.0664,13.2,56,0.0,804.2,7.4,41.0,60,24.5,23.3,0,5,7,0,2026-04-10T08:19:48.856976+05:30
Dharamshala,Himachal Pradesh,32.219,76.3234,16.9,44,0.0,872.6,7.6,28.1,94,6.2,5.0,0,5,7,0,2026-04-10T08:19:48.856984+05:30
Dalhousie,Himachal Pradesh,32.5387,75.971,13.0,49,0.0,805.9,7.85,22.0,61,16.6,16.0,0,5,7,0,2026-04-10T08:19:48.856991+05:30
Patiala,Punjab,30.3398,76.3869,19.4,67,0.0,986.3,7.0,40.0,239,661.2,81.5,3,5,7,0,2026-04-10T08:19:48.856998+05:30
Bhatinda,Punjab,30.211,74.9455,19.6,68,0.0,992.8,7.65,32.4,92,50.6,41.9,3,5,7,0,2026-04-10T08:19:48.857005+05:30
Rohtak,Haryana,28.8955,76.6066,20.0,66,0.0,990.2,7.15,41.4,336,698.5,111.3,3,5,7,0,2026-04-10T08:19:48.857011+05:30
Panipat,Haryana,29.3909,76.9635,20.1,65,0.0,988.3,6.95,43.6,723,1631.7,200.2,3,5,7,0,2026-04-10T08:19:48.857017+05:30
Mathura,Uttar Pradesh,27.4924,77.6737,22.0,64,0.0,995.5,7.45,36.7,336,1125.0,167.2,3,5,7,0,2026-04-10T08:19:48.857023+05:30
Vrindavan,Uttar Pradesh,27.5823,77.7027,21.4,67,0.0,995.7,7.4,40.3,336,1125.0,167.2,3,5,7,0,2026-04-10T08:19:48.857029+05:30
Ayodhya,Uttar Pradesh,26.7922,82.1998,24.0,48,0.0,1001.6,7.8,49.7,79,43.0,29.5,0,5,4,0,2026-04-10T08:19:48.857035+05:30
Ratlam,Madhya Pradesh,23.3315,75.0367,23.3,45,0.0,960.8,8.3,30.6,66,33.1,18.6,0,5,7,0,2026-04-10T08:19:48.857042+05:30
Sagar,Madhya Pradesh,23.8388,78.7378,25.3,44,0.0,957.4,8.4,28.1,82,112.2,29.0,4,5,7,0,2026-04-10T08:19:48.857048+05:30
Satna,Madhya Pradesh,24.6005,80.8322,25.5,48,0.0,978.5,8.45,36.4,79,97.1,29.2,4,5,7,0,2026-04-10T08:19:48.857054+05:30
Akola,Maharashtra,20.7002,77.0082,28.3,54,0.0,980.6,8.7,21.6,73,36.2,27.9,4,5,7,1,2026-04-10T08:19:48.857061+05:30
Amravati,Maharashtra,20.9374,77.7796,28.6,43,0.0,973.0,8.7,29.9,74,43.8,32.6,4,5,7,0,2026-04-10T08:19:48.857067+05:30
Latur,Maharashtra,18.4088,76.5604,25.5,58,0.0,944.6,8.95,30.6,89,36.1,23.5,4,5,7,1,2026-04-10T08:19:48.857074+05:30
Nanded,Maharashtra,19.1383,77.3091,27.1,59,0.0,973.9,8.85,21.2,88,27.6,21.4,4,5,7,1,2026-04-10T08:19:48.857081+05:30
Gulbarga,Karnataka,17.3297,76.8343,28.4,45,0.0,963.6,9.05,28.8,77,49.4,28.6,4,5,7,0,2026-04-10T08:19:48.857086+05:30
Bidar,Karnataka,17.9104,77.5199,26.6,52,0.0,940.3,9.05,27.7,83,82.7,44.5,4,5,7,0,2026-04-10T08:19:48.857092+05:30
Hospet,Karnataka,15.2689,76.3909,27.0,66,0.0,959.5,9.25,31.7,70,43.1,22.4,7,5,7,1,2026-04-10T08:19:48.857099+05:30
Tirupur,Tamil Nadu,11.1085,77.3411,28.3,67,0.0,979.1,9.5,28.8,62,37.3,29.4,7,5,7,1,2026-04-10T08:19:48.857104+05:30
Alappuzha,Kerala,9.4981,76.3388,28.9,83,0.0,1011.3,9.2,28.4,70,32.7,24.8,7,0,4,1,2026-04-10T08:19:48.857110+05:30
Munnar,Kerala,10.0889,77.0595,24.7,72,0.0,860.8,8.55,28.4,68,31.8,29.7,3,5,7,1,2026-04-10T08:19:48.857117+05:30
Silchar,Assam,24.8333,92.7789,20.8,89,0.0,1011.2,8.55,26.3,136,53.8,45.6,3,0,4,1,2026-04-10T08:19:48.857123+05:30
Dibrugarh,Assam,27.4728,94.912,20.3,87,0.0,1001.0,8.35,16.2,102,59.6,42.0,3,5,4,1,2026-04-10T08:19:48.857129+05:30
