city,state,latitude,longitude,temp,humidity,rain,pressure,uv_index,wind_gusts,aqi,pm10,pm2_5,no2,co,o3,so2,mosquito_risk,arthritis_risk,migraine_risk,frizz_risk,updated_at
Delhi,Delhi,28.6139,77.209,38.0,37,0.0,975.4,6.1,34.2,638,696.6,129.9,6.2,215.0,134.0,10.2,0,5,10,1,2026-07-17T15:30:13.501080+05:30
Mumbai,Maharashtra,19.076,72.8777,27.0,83,0.1,1006.7,7.5,33.8,69,45.4,23.9,11.3,205.0,73.0,11.4,10,5,4,1,2026-07-17T15:30:13.501123+05:30
Bangalore,Karnataka,12.9716,77.5946,22.7,81,0.2,910.7,5.75,46.1,54,7.6,6.0,14.8,264.0,42.0,4.1,6,5,3,1,2026-07-17T15:30:13.501138+05:30
Hyderabad,Telangana,17.385,78.4867,27.0,74,0.1,950.2,5.35,36.7,70,24.7,14.4,4.6,230.0,76.0,4.1,10,5,3,1,2026-07-17T15:30:13.501148+05:30
Chennai,Tamil Nadu,13.0827,80.2707,32.5,54,0.0,1003.8,7.85,41.0,80,34.5,21.8,4.1,195.0,129.0,5.5,0,5,4,1,2026-07-17T15:30:13.501156+05:30
Kolkata,West Bengal,22.5726,88.3639,30.7,78,0.2,996.9,7.45,34.2,65,27.6,21.1,5.0,370.0,114.0,7.3,6,5,7,1,2026-07-17T15:30:13.501164+05:30
Pune,Maharashtra,18.5204,73.8567,27.0,67,0.0,945.9,7.25,45.4,43,16.5,8.8,4.0,134.0,57.0,4.3,7,5,7,1,2026-07-17T15:30:13.501171+05:30
Ahmedabad,Gujarat,23.0225,72.5714,36.6,40,0.0,996.6,7.85,41.0,72,55.8,20.7,2.2,134.0,86.0,3.4,0,5,10,1,2026-07-17T15:30:13.501178+05:30
Jaipur,Rajasthan,26.9124,75.7873,36.5,39,0.0,954.2,8.05,40.0,295,321.3,61.7,1.4,144.0,105.0,3.1,0,5,10,1,2026-07-17T15:30:13.501184+05:30
Lucknow,Uttar Pradesh,26.8467,80.9462,32.5,75,0.0,985.7,7.25,26.3,159,272.9,89.6,3.7,254.0,169.0,11.6,3,5,7,1,2026-07-17T15:30:13.501196+05:30
Kanpur,Uttar Pradesh,26.4499,80.3319,36.0,51,0.0,983.8,8.1,30.2,169,278.5,84.8,3.7,202.0,154.0,8.0,0,5,10,1,2026-07-17T15:30:13.501205+05:30
Chandigarh,Chandigarh,30.7333,76.7794,34.8,50,0.0,961.4,7.6,32.0,176,88.5,52.9,3.0,388.0,206.0,12.3,0,5,7,1,2026-07-17T15:30:13.501213+05:30
Srinagar,Jammu and Kashmir,34.0837,74.7973,33.5,36,0.0,838.8,9.05,19.1,124,21.4,15.5,1.0,357.0,150.0,2.2,0,5,7,1,2026-07-17T15:30:13.501220+05:30
Jammu,Jammu and Kashmir,32.7266,74.857,35.1,57,0.0,965.3,7.7,34.6,154,115.5,57.9,2.3,305.0,161.0,6.8,0,5,10,1,2026-07-17T15:30:13.501226+05:30
Amritsar,Punjab,31.634,74.8723,36.1,50,0.0,972.9,8.35,20.9,170,106.6,54.0,3.4,344.0,203.0,9.9,0,5,10,1,2026-07-17T15:30:13.501233+05:30
Ludhiana,Punjab,30.901,75.8573,37.1,42,0.0,971.1,7.2,32.8,179,117.6,55.9,2.0,334.0,176.0,5.6,0,5,10,1,2026-07-17T15:30:13.501239+05:30
Jalandhar,Punjab,31.326,75.5762,35.6,53,0.0,972.1,8.15,26.6,182,108.0,55.2,2.4,305.0,183.0,6.6,0,5,10,1,2026-07-17T15:30:13.501246+05:30
Dehradun,Uttarakhand,30.6284,78.0322,23.5,79,0.1,828.3,6.4,27.0,121,39.8,32.0,1.0,379.0,164.0,5.8,6,5,7,1,2026-07-17T15:30:13.501255+05:30
Shimla,Himachal Pradesh,31.1048,77.1734,22.7,63,0.0,784.1,6.85,41.4,117,43.8,31.8,1.0,289.0,161.0,7.5,3,5,7,0,2026-07-17T15:30:13.501262+05:30
Manali,Himachal Pradesh,32.2396,77.1887,25.2,72,0.0,818.3,7.05,33.1,54,13.4,7.9,0.1,180.0,146.0,1.1,7,5,7,1,2026-07-17T15:30:13.501270+05:30
Gurgaon,Haryana,28.4595,77.0266,38.0,36,0.0,974.1,5.9,39.2,497,644.5,126.2,8.0,189.0,129.0,8.7,0,5,6,1,2026-07-17T15:30:13.501277+05:30
Noida,Uttar Pradesh,28.5355,77.391,37.5,41,0.0,976.6,7.7,27.4,497,644.5,126.2,8.0,262.0,129.0,8.7,0,5,10,1,2026-07-17T15:30:13.501283+05:30
Ghaziabad,Uttar Pradesh,28.6692,77.4538,36.5,45,0.0,974.9,7.7,29.5,526,446.1,106.4,6.2,179.0,159.0,14.6,0,5,10,1,2026-07-17T15:30:13.501289+05:30
Faridabad,Haryana,28.4089,77.3178,37.9,37,0.0,976.0,6.05,34.9,497,644.5,126.2,8.0,183.0,129.0,8.7,0,5,10,1,2026-07-17T15:30:13.501295+05:30
Meerut,Uttar Pradesh,28.9845,77.7064,34.9,55,0.0,973.8,7.0,33.8,526,446.1,106.4,6.2,183.0,159.0,14.6,0,5,7,1,2026-07-17T15:30:13.501306+05:30
Agra,Uttar Pradesh,27.1767,78.0081,37.6,41,0.0,980.3,6.8,36.7,152,450.8,99.2,5.6,161.0,124.0,4.3,0,5,10,1,2026-07-17T15:30:13.501313+05:30
Varanasi,Uttar Pradesh,25.3176,82.9739,31.8,78,0.0,988.8,6.15,25.9,154,53.6,38.5,5.4,358.0,151.0,6.9,3,5,7,1,2026-07-17T15:30:13.501320+05:30
Prayagraj,Uttar Pradesh,25.4358,81.8463,30.0,85,0.2,988.0,7.8,26.6,159,124.3,59.5,3.0,194.0,161.0,9.0,10,5,7,1,2026-07-17T15:30:13.501326+05:30
Gorakhpur,Uttar Pradesh,26.7606,83.3732,30.8,83,0.2,989.0,6.8,23.8,91,25.0,23.6,2.1,314.0,164.0,4.9,6,5,7,1,2026-07-17T15:30:13.501333+05:30
Bareilly,Uttar Pradesh,28.367,79.4304,32.4,73,0.0,979.3,7.2,27.7,167,194.6,79.4,5.4,330.0,166.0,14.4,3,5,7,1,2026-07-17T15:30:13.501341+05:30
Aligarh,Uttar Pradesh,27.8974,78.088,35.7,49,0.0,978.0,7.2,26.6,335,646.3,144.4,6.6,207.0,154.0,11.8,0,5,10,1,2026-07-17T15:30:13.501348+05:30
Moradabad,Uttar Pradesh,28.8386,78.7733,29.9,87,0.3,976.0,7.35,29.9,184,218.4,89.9,5.3,364.0,205.0,15.8,10,5,7,1,2026-07-17T15:30:13.501354+05:30
Saharanpur,Uttar Pradesh,29.9637,77.546,33.5,63,0.0,968.0,6.8,39.2,173,113.9,59.4,3.9,478.0,190.0,13.8,3,5,7,1,2026-07-17T15:30:13.501360+05:30
Jhansi,Uttar Pradesh,25.4484,78.5685,34.9,50,0.0,971.5,7.45,31.0,90,124.3,43.4,1.9,129.0,103.0,3.9,0,5,7,1,2026-07-17T15:30:17.097078+05:30
Surat,Gujarat,21.1702,72.8311,30.9,72,0.0,1003.0,7.7,42.8,76,32.0,21.4,13.3,263.0,50.0,40.2,3,5,4,1,2026-07-17T15:30:17.097110+05:30
Vadodara,Gujarat,22.3072,73.1812,34.0,54,0.0,999.3,5.55,43.6,70,49.1,20.9,3.0,144.0,86.0,4.8,0,5,3,1,2026-07-17T15:30:17.097120+05:30
Rajkot,Gujarat,22.3039,70.8022,33.3,55,0.0,989.3,6.85,42.1,64,40.0,17.3,1.5,102.0,79.0,4.2,0,5,7,1,2026-07-17T15:30:17.097129+05:30
Thane,Maharashtra,19.2183,72.9781,27.5,84,0.1,1005.8,6.75,31.7,69,45.4,23.9,11.3,212.0,73.0,11.4,10,5,4,1,2026-07-17T15:30:17.097138+05:30
Nagpur,Maharashtra,21.1458,79.0882,28.0,81,0.2,968.8,1.7,25.2,95,30.7,23.8,16.6,158.0,69.0,14.7,10,5,3,1,2026-07-17T15:30:17.097147+05:30
Nashik,Maharashtra,19.9975,73.7898,26.4,76,0.1,942.9,7.75,47.2,51,15.3,7.7,2.5,115.0,61.0,1.7,10,5,7,1,2026-07-17T15:30:17.097155+05:30
Aurangabad,Maharashtra,19.8762,75.3433,30.9,53,0.0,940.9,7.85,44.6,60,50.3,20.7,2.2,140.0,78.0,3.3,0,5,7,1,2026-07-17T15:30:17.097162+05:30
Solapur,Maharashtra,17.6599,75.9064,27.6,74,0.1,954.3,6.0,34.2,56,27.0,10.6,1.8,115.0,72.0,1.7,10,5,3,1,2026-07-17T15:30:17.097170+05:30
Kolhapur,Maharashtra,16.705,74.2433,25.1,81,0.0,946.6,8.1,46.8,39,16.9,8.7,2.4,127.0,56.0,1.5,7,5,7,1,2026-07-17T15:30:17.097177+05:30
Goa,Goa,15.2993,74.124,27.2,80,0.0,998.1,7.85,31.7,61,25.6,11.2,1.4,132.0,57.0,1.0,7,5,7,1,2026-07-17T15:30:17.097185+05:30
Jodhpur,Rajasthan,26.2389,73.0243,37.1,36,0.0,976.8,8.4,43.6,125,231.0,44.7,0.9,107.0,84.0,1.7,0,5,10,1,2026-07-17T15:30:17.097193+05:30
Udaipur,Rajasthan,24.5854,73.7125,30.5,58,0.1,942.1,8.75,34.2,78,41.6,17.3,0.8,112.0,83.0,2.5,3,5,7,1,2026-07-17T15:30:17.097200+05:30
Kota,Rajasthan,25.2138,75.8648,36.0,43,0.0,972.9,7.55,32.4,88,75.0,30.2,1.7,129.0,113.0,6.4,0,5,10,1,2026-07-17T15:30:17.097207+05:30
Bikaner,Rajasthan,28.0229,73.3119,39.5,29,0.0,974.7,8.4,39.2,127,107.3,36.4,0.4,105.0,83.0,2.1,0,5,10,1,2026-07-17T15:30:17.097214+05:30
Ajmer,Rajasthan,26.4499,74.6399,34.0,45,0.0,949.7,8.3,45.7,82,82.0,30.4,1.0,118.0,98.0,2.5,0,5,7,1,2026-07-17T15:30:17.097221+05:30
Gwalior,Madhya Pradesh,26.2183,78.1828,35.2,50,0.0,976.4,7.15,41.0,102,155.5,48.8,1.7,131.0,103.0,2.8,0,5,10,1,2026-07-17T15:30:17.097228+05:30
Indore,Madhya Pradesh,22.7196,75.8577,31.2,56,0.0,944.1,8.6,39.2,76,48.7,21.5,2.8,179.0,92.0,4.0,0,5,7,1,2026-07-17T15:30:17.097235+05:30
Bhopal,Madhya Pradesh,23.2599,77.4126,31.5,53,0.0,949.2,8.3,33.5,86,58.0,26.5,2.5,183.0,102.0,5.3,0,5,7,1,2026-07-17T15:30:17.097242+05:30
Jabalpur,Madhya Pradesh,23.1815,79.9864,27.7,82,0.1,955.7,3.6,38.5,83,42.7,26.3,3.6,206.0,97.0,5.2,10,5,3,1,2026-07-17T15:30:17.097250+05:30
Ujjain,Madhya Pradesh,23.1765,75.7885,31.3,59,0.1,949.5,7.9,38.9,76,53.0,23.9,1.7,148.0,92.0,3.7,3,5,7,1,2026-07-17T15:30:17.097258+05:30
Visakhapatnam,Andhra Pradesh,17.6868,83.2185,31.4,68,0.1,997.0,7.8,45.4,93,48.5,28.0,9.2,322.0,128.0,23.3,6,5,7,1,2026-07-17T15:30:17.097265+05:30
Vijayawada,Andhra Pradesh,16.5062,80.648,30.5,70,0.1,998.0,2.6,40.7,85,47.0,27.0,3.1,167.0,108.0,7.0,6,5,3,1,2026-07-17T15:30:17.097273+05:30
Guntur,Andhra Pradesh,16.3067,80.4365,35.7,44,0.0,998.8,3.65,43.9,82,39.8,21.5,2.7,150.0,99.0,5.3,0,5,6,1,2026-07-17T15:30:17.097280+05:30
Nellore,Andhra Pradesh,14.4426,79.9865,35.4,44,0.0,1001.6,5.5,45.4,65,19.4,10.7,2.5,127.0,84.0,3.2,0,5,3,1,2026-07-17T15:30:17.097289+05:30
Kurnool,Andhra Pradesh,15.8281,78.0373,31.3,54,0.0,974.2,5.55,41.8,63,33.4,14.2,3.0,122.0,70.0,5.3,0,5,3,1,2026-07-17T15:30:17.097296+05:30
Kakinada,Andhra Pradesh,16.9891,82.2475,30.8,69,0.2,1002.3,8.15,49.3,82,46.3,24.5,2.8,176.0,119.0,4.5,6,5,4,1,2026-07-17T15:30:17.097304+05:30
Tirupati,Andhra Pradesh,13.6288,79.4192,32.5,50,0.2,987.5,7.0,38.5,83,15.9,9.0,3.8,134.0,71.0,1.3,3,5,7,1,2026-07-17T15:30:17.097311+05:30
Warangal,Telangana,17.9689,79.5941,31.8,55,0.0,974.7,5.65,38.9,90,34.1,21.2,3.6,182.0,82.0,5.1,0,5,3,1,2026-07-17T15:30:17.097318+05:30
Nizamabad,Telangana,18.6725,78.0941,29.7,63,0.0,961.4,1.95,36.0,79,36.8,20.4,3.9,132.0,84.0,6.8,7,5,3,1,2026-07-17T15:30:17.097325+05:30
Mysore,Karnataka,12.2958,76.6396,26.0,66,0.0,928.1,2.7,48.6,40,4.4,2.8,4.5,126.0,58.0,1.3,7,5,3,1,2026-07-17T15:30:17.097332+05:30
Mangalore,Karnataka,12.9141,74.856,27.2,80,0.0,1007.8,1.2,31.3,55,26.1,11.8,2.3,101.0,57.0,1.8,7,5,0,1,2026-07-17T15:30:17.097339+05:30
Hubli-Dharwad,Karnataka,15.3647,75.124,25.3,75,0.0,939.7,8.25,47.2,29,13.3,6.5,2.0,113.0,57.0,1.0,7,5,7,1,2026-07-17T15:30:17.097346+05:30
Belgaum,Karnataka,15.8497,74.4977,23.6,81,0.0,924.7,8.7,49.7,31,15.5,7.4,2.7,121.0,56.0,1.5,3,5,7,1,2026-07-17T15:30:20.587741+05:30
Coimbatore,Tamil Nadu,11.0168,76.9558,26.6,73,0.0,961.2,8.5,47.2,51,12.5,5.8,2.4,145.0,60.0,1.7,7,5,7,1,2026-07-17T15:30:20.587774+05:30
Madurai,Tamil Nadu,9.9252,78.1198,35.1,38,0.0,991.2,8.6,37.1,75,32.9,14.4,3.3,136.0,84.0,2.2,0,5,10,1,2026-07-17T15:30:20.587785+05:30
Trichy,Tamil Nadu,10.7905,78.7047,32.5,46,0.0,998.1,8.8,62.6,61,18.9,9.8,3.3,120.0,60.0,2.2,0,5,7,1,2026-07-17T15:30:20.587794+05:30
Salem,Tamil Nadu,11.6643,78.146,30.4,53,0.0,976.3,7.3,30.2,70,25.3,15.1,7.0,144.0,73.0,8.6,0,5,7,1,2026-07-17T15:30:20.587803+05:30
Tirunelveli,Tamil Nadu,8.7139,77.7567,35.2,40,0.0,1001.4,8.25,46.4,52,15.7,8.7,1.5,116.0,74.0,1.3,0,5,7,1,2026-07-17T15:30:20.587811+05:30
Vellore,Tamil Nadu,12.9165,79.1325,35.2,39,0.0,981.1,7.65,43.2,73,13.6,7.2,2.9,163.0,76.0,2.2,0,5,10,1,2026-07-17T15:30:20.587818+05:30
Erode,Tamil Nadu,11.341,77.7172,31.9,48,0.0,987.9,8.8,39.6,58,14.1,8.8,5.2,172.0,67.0,2.7,0,5,7,1,2026-07-17T15:30:20.587826+05:30
Kochi,Kerala,9.9312,76.2673,28.0,78,0.0,1009.7,7.7,31.0,61,14.6,8.4,2.6,114.0,65.0,2.2,7,0,4,1,2026-07-17T15:30:20.587833+05:30
Thiruvananthapuram,Kerala,8.5241,76.9366,27.3,78,0.0,1009.0,8.35,47.2,62,23.9,13.4,2.3,103.0,73.0,1.2,7,0,4,1,2026-07-17T15:30:20.587841+05:30
Kozhikode,Kerala,11.2588,75.7804,28.0,79,0.0,1008.8,1.4,27.0,55,20.7,8.6,0.6,119.0,61.0,0.9,7,0,0,1,2026-07-17T15:30:20.587848+05:30
Thrissur,Kerala,10.5276,76.2144,28.3,75,0.0,1007.9,3.9,32.0,56,11.6,6.7,1.8,102.0,66.0,1.6,7,5,0,1,2026-07-17T15:30:20.587856+05:30
Kannur,Kerala,11.8745,75.3704,27.0,82,0.0,1008.4,1.9,30.2,53,23.9,10.7,1.6,124.0,59.0,1.2,7,0,0,1,2026-07-17T15:30:20.587863+05:30
Patna,Bihar,25.5941,85.1376,33.5,69,0.0,990.6,8.45,27.4,108,31.2,29.7,4.4,277.0,143.0,6.5,3,5,7,1,2026-07-17T15:30:20.587869+05:30
Gaya,Bihar,24.7914,85.0002,33.4,63,0.0,983.9,7.4,23.0,104,20.3,19.4,3.5,261.0,138.0,6.3,3,5,7,1,2026-07-17T15:30:20.587877+05:30
Muzaffarpur,Bihar,26.1209,85.3647,33.2,67,0.0,990.8,7.4,30.6,99,22.4,21.2,5.0,242.0,127.0,5.6,3,5,7,1,2026-07-17T15:30:20.587884+05:30
Bhagalpur,Bihar,25.2425,87.0117,33.0,71,0.0,991.1,7.7,30.2,73,17.7,15.7,5.1,274.0,128.0,10.2,3,5,7,1,2026-07-17T15:30:20.587890+05:30
Ranchi,Jharkhand,23.3441,85.3096,28.6,79,0.0,929.7,8.85,27.4,72,13.6,13.0,4.7,264.0,118.0,6.2,7,5,7,1,2026-07-17T15:30:20.587897+05:30
Jamshedpur,Jharkhand,22.8046,86.2029,29.7,82,0.1,981.5,8.7,22.7,89,34.9,34.5,13.9,317.0,140.0,34.2,10,5,7,1,2026-07-17T15:30:20.587904+05:30
Dhanbad,Jharkhand,23.7957,86.4304,30.7,80,0.0,970.4,7.15,20.2,93,35.0,34.5,25.2,248.0,125.0,65.1,3,5,7,1,2026-07-17T15:30:20.587912+05:30
Bokaro,Jharkhand,23.6693,86.1511,30.7,78,0.0,974.3,7.7,26.3,94,28.6,28.4,25.2,266.0,103.0,65.8,3,5,7,1,2026-07-17T15:30:20.587919+05:30
Bhubaneswar,Odisha,20.2961,85.8245,29.9,79,0.1,994.6,7.55,37.1,75,16.2,12.3,4.3,222.0,94.0,3.2,10,5,7,1,2026-07-17T15:30:20.587926+05:30
Cuttack,Odisha,20.4625,85.8828,29.0,89,0.1,996.3,7.5,33.8,75,16.2,12.3,4.3,235.0,94.0,3.2,10,5,7,1,2026-07-17T15:30:20.587934+05:30
Rourkela,Odisha,22.2604,84.8536,30.3,77,0.1,976.2,6.45,27.0,75,17.1,15.8,4.1,295.0,127.0,6.6,6,5,7,1,2026-07-17T15:30:20.587941+05:30
Raipur,Chhattisgarh,21.2514,81.6296,29.9,73,0.0,968.4,1.05,41.4,104,31.3,25.5,28.1,321.0,60.0,55.8,7,5,3,1,2026-07-17T15:30:20.587948+05:30
Bhilai,Chhattisgarh,21.1938,81.3509,29.3,74,0.0,969.2,2.5,41.4,97,25.4,19.6,20.7,916.0,65.0,38.1,7,5,3,1,2026-07-17T15:30:20.587955+05:30
Guwahati,Assam,26.1158,91.7086,28.0,95,0.1,993.6,7.3,24.5,56,13.2,10.0,2.6,235.0,94.0,1.8,10,5,7,1,2026-07-17T15:30:20.587962+05:30
Agartala,Tripura,23.8315,91.2868,29.2,82,0.1,999.2,7.55,51.8,60,11.6,9.9,3.8,148.0,84.0,1.5,10,5,7,1,2026-07-17T15:30:20.587969+05:30
Shillong,Meghalaya,25.5788,91.8933,22.7,84,0.0,852.6,4.4,48.2,40,9.0,6.8,3.2,159.0,89.0,2.3,3,5,3,1,2026-07-17T15:30:20.587976+05:30
Imphal,Manipur,24.817,93.9368,26.1,77,0.0,918.7,5.3,20.5,61,21.0,11.8,1.7,160.0,87.0,1.9,7,5,3,1,2026-07-17T15:30:20.587983+05:30
Aizawl,Mizoram,23.7271,92.7176,22.1,85,0.0,888.5,6.15,42.5,59,12.6,9.2,1.5,119.0,68.0,1.0,3,5,7,1,2026-07-17T15:30:20.587989+05:30
Kohima,Nagaland,25.6701,94.1077,22.6,91,0.0,851.5,3.25,23.0,50,20.8,11.3,1.5,160.0,84.0,1.5,3,5,3,1,2026-07-17T15:30:20.587997+05:30
Gangtok,Sikkim,27.3314,88.6138,21.6,90,0.0,834.1,6.75,30.6,46,4.0,3.3,2.4,192.0,101.0,1.3,3,5,7,1,2026-07-17T15:30:20.588004+05:30
Siliguri,West Bengal,26.7271,88.3953,29.1,88,0.1,984.8,7.85,29.2,69,16.7,12.7,2.8,331.0,120.0,2.3,10,5,7,1,2026-07-17T15:30:25.209953+05:30
Durgapur,West Bengal,23.5204,87.3119,29.4,86,0.0,985.5,8.55,28.4,81,27.2,26.9,21.1,324.0,119.0,41.6,7,5,7,1,2026-07-17T15:30:25.209986+05:30
Asansol,West Bengal,23.6739,86.9524,31.6,74,0.0,983.6,8.05,29.5,79,28.2,27.6,19.8,318.0,132.0,42.0,3,5,7,1,2026-07-17T15:30:25.209998+05:30
Pondicherry,Puducherry,11.9139,79.8145,33.0,56,0.0,1005.2,8.8,38.5,74,35.2,24.4,7.0,221.0,143.0,11.0,0,5,4,1,2026-07-17T15:30:25.210007+05:30
Port Blair,Andaman and Nicobar Islands,11.6234,92.7265,29.3,75,0.1,1006.3,7.3,37.8,45,14.6,6.9,0.4,95.0,44.0,0.5,10,5,4,1,2026-07-17T15:30:25.210015+05:30
Haridwar,Uttarakhand,29.9457,78.1642,34.7,55,0.0,966.4,7.35,26.3,161,83.8,59.4,2.1,379.0,204.0,13.6,0,5,7,1,2026-07-17T15:30:25.210023+05:30
Rishikesh,Uttarakhand,30.0869,78.2676,33.3,62,0.0,959.3,7.4,25.9,147,88.0,54.2,1.5,404.0,187.0,10.3,3,5,7,1,2026-07-17T15:30:25.210031+05:30
Nainital,Uttarakhand,29.3919,79.4542,22.0,77,0.1,803.6,6.15,28.8,140,116.2,58.2,2.0,295.0,172.0,11.5,6,5,7,1,2026-07-17T15:30:25.210039+05:30
Mussoorie,Uttarakhand,30.4599,78.0664,22.1,78,0.0,801.5,6.65,39.2,159,58.3,49.8,2.9,392.0,193.0,10.4,3,5,7,1,2026-07-17T15:30:25.210047+05:30
Dharamshala,Himachal Pradesh,32.219,76.3234,24.6,86,0.1,865.7,8.15,31.0,103,22.7,16.8,1.1,312.0,146.0,1.9,6,5,7,1,2026-07-17T15:30:25.210054+05:30
Dalhousie,Himachal Pradesh,32.5387,75.971,22.0,83,0.2,803.2,7.8,24.8,142,59.6,38.2,1.8,289.0,164.0,3.8,6,5,7,1,2026-07-17T15:30:25.210062+05:30
Patiala,Punjab,30.3398,76.3869,35.2,53,0.0,970.7,6.6,31.7,192,248.7,75.0,2.5,277.0,167.0,7.7,0,5,10,1,2026-07-17T15:30:25.210069+05:30
Bhatinda,Punjab,30.211,74.9455,39.1,32,0.0,976.1,7.65,30.6,174,159.7,50.5,1.9,139.0,115.0,5.1,0,5,10,1,2026-07-17T15:30:25.210076+05:30
Rohtak,Haryana,28.8955,76.6066,36.7,42,0.0,974.3,6.55,33.8,814,774.9,135.5,3.5,161.0,118.0,5.0,0,5,10,1,2026-07-17T15:30:25.210083+05:30
Panipat,Haryana,29.3909,76.9635,35.4,51,0.0,972.9,7.5,31.7,1248,2145.8,258.0,3.6,160.0,125.0,8.7,0,5,10,1,2026-07-17T15:30:25.210090+05:30
Mathura,Uttar Pradesh,27.4924,77.6737,36.9,44,0.0,979.3,7.25,32.0,611,920.1,156.0,7.9,197.0,103.0,3.6,0,5,10,1,2026-07-17T15:30:25.210097+05:30
Vrindavan,Uttar Pradesh,27.5823,77.7027,36.5,46,0.0,979.7,7.05,31.7,611,920.1,156.0,7.9,192.0,103.0,3.6,0,5,10,1,2026-07-17T15:30:25.210104+05:30
Ayodhya,Uttar Pradesh,26.7922,82.1998,29.4,93,0.3,987.4,8.15,18.4,111,39.2,31.8,2.2,304.0,167.0,3.8,10,5,7,1,2026-07-17T15:30:25.210111+05:30
Ratlam,Madhya Pradesh,23.3315,75.0367,31.8,60,0.0,950.4,8.5,34.6,74,58.0,25.0,1.3,123.0,91.0,3.6,0,5,7,1,2026-07-17T15:30:25.210118+05:30
Sagar,Madhya Pradesh,23.8388,78.7378,26.0,95,0.2,945.2,7.7,39.6,86,62.4,30.0,1.9,148.0,108.0,6.0,10,5,7,1,2026-07-17T15:30:25.210124+05:30
Satna,Madhya Pradesh,24.6005,80.8322,27.2,92,0.2,964.5,8.45,41.4,127,99.0,40.2,1.8,151.0,124.0,3.9,10,5,7,1,2026-07-17T15:30:25.210131+05:30
Akola,Maharashtra,20.7002,77.0082,32.0,54,0.0,971.2,8.65,42.1,69,40.0,18.0,3.3,117.0,81.0,7.3,0,5,7,1,2026-07-17T15:30:25.210139+05:30
Amravati,Maharashtra,20.9374,77.7796,30.8,56,0.0,963.4,7.8,39.6,70,41.7,19.8,4.1,124.0,77.0,8.9,0,5,7,1,2026-07-17T15:30:25.210147+05:30
Latur,Maharashtra,18.4088,76.5604,26.2,80,0.0,936.9,8.15,35.3,61,25.6,10.5,1.7,124.0,71.0,2.0,7,5,7,1,2026-07-17T15:30:25.210155+05:30
Nanded,Maharashtra,19.1383,77.3091,31.1,59,0.0,965.0,8.4,33.8,74,37.4,18.9,3.9,135.0,78.0,4.7,0,5,7,1,2026-07-17T15:30:25.210162+05:30
Gulbarga,Karnataka,17.3297,76.8343,30.3,56,0.0,956.0,7.7,41.8,57,28.1,11.3,2.8,126.0,71.0,2.2,0,5,7,1,2026-07-17T15:30:25.210169+05:30
Bidar,Karnataka,17.9104,77.5199,24.4,92,0.2,932.6,7.95,31.0,73,38.8,17.7,4.4,156.0,68.0,2.7,6,5,7,1,2026-07-17T15:30:25.210175+05:30
Hospet,Karnataka,15.2689,76.3909,25.9,76,0.1,954.4,4.4,48.2,39,13.6,7.1,2.8,120.0,60.0,1.8,10,5,3,1,2026-07-17T15:30:25.210182+05:30
Tirupur,Tamil Nadu,11.1085,77.3411,27.4,67,0.0,974.4,8.55,49.0,61,15.4,9.1,4.6,137.0,69.0,3.0,7,5,7,1,2026-07-17T15:30:25.210188+05:30
Alappuzha,Kerala,9.4981,76.3388,27.8,79,0.0,1009.7,7.85,37.8,62,20.5,11.3,2.6,94.0,76.0,2.6,7,0,4,1,2026-07-17T15:30:25.210195+05:30
Munnar,Kerala,10.0889,77.0595,17.9,91,0.1,856.9,9.0,38.9,42,12.5,6.8,2.1,110.0,60.0,1.3,6,10,7,1,2026-07-17T15:30:25.210203+05:30
Silchar,Assam,24.8333,92.7789,29.9,77,0.0,998.8,8.7,34.9,70,30.3,19.4,2.8,157.0,90.0,3.7,7,5,7,1,2026-07-17T15:30:25.210210+05:30
Dibrugarh,Assam,27.4728,94.912,28.7,88,0.0,987.4,3.65,38.5,52,13.3,9.8,2.3,193.0,96.0,2.0,7,5,3,1,2026-07-17T15:30:25.210216+05:30
