city,state,latitude,longitude,temp,humidity,rain,pressure,uv_index,wind_gusts,aqi,pm10,pm2_5,no2,co,o3,so2,mosquito_risk,arthritis_risk,migraine_risk,frizz_risk,updated_at
Delhi,Delhi,28.6139,77.209,39.9,33,0.0,972.7,7.0,36.4,173,618.4,119.7,4.0,205.0,158.0,11.6,0,5,10,1,2026-06-29T15:19:07.007001+05:30
Mumbai,Maharashtra,19.076,72.8777,27.9,82,0.1,1003.6,2.4,39.2,47,14.6,9.4,7.6,171.0,67.0,7.4,10,5,0,1,2026-06-29T15:19:07.007062+05:30
Bangalore,Karnataka,12.9716,77.5946,29.7,52,0.0,908.6,7.8,52.6,27,2.7,2.5,4.2,239.0,70.0,2.0,4,5,7,1,2026-06-29T15:19:07.007079+05:30
Hyderabad,Telangana,17.385,78.4867,29.3,68,0.0,947.7,7.7,36.4,45,14.3,11.9,4.8,326.0,104.0,3.3,7,5,7,1,2026-06-29T15:19:07.007089+05:30
Chennai,Tamil Nadu,13.0827,80.2707,33.1,69,0.0,1001.4,8.65,36.7,57,20.5,15.8,3.0,235.0,130.0,4.9,3,5,4,1,2026-06-29T15:19:07.007097+05:30
Kolkata,West Bengal,22.5726,88.3639,29.4,86,0.0,998.4,8.35,26.3,98,33.4,32.1,7.6,413.0,118.0,8.8,7,5,7,1,2026-06-29T15:19:07.007105+05:30
Pune,Maharashtra,18.5204,73.8567,26.0,83,0.3,943.3,6.55,40.0,27,5.5,4.2,4.0,151.0,69.0,4.2,10,5,7,1,2026-06-29T15:19:07.007112+05:30
Ahmedabad,Gujarat,23.0225,72.5714,39.0,35,0.0,993.7,8.0,46.8,61,42.5,17.6,1.5,127.0,91.0,3.1,0,5,10,1,2026-06-29T15:19:07.007119+05:30
Jaipur,Rajasthan,26.9124,75.7873,37.9,36,0.0,952.2,8.15,35.6,171,150.9,40.6,1.2,140.0,96.0,3.1,0,5,10,1,2026-06-29T15:19:07.007126+05:30
Lucknow,Uttar Pradesh,26.8467,80.9462,38.3,41,0.1,983.0,7.85,32.8,133,153.2,53.3,1.8,218.0,149.0,6.4,3,5,10,1,2026-06-29T15:19:07.007136+05:30
Kanpur,Uttar Pradesh,26.4499,80.3319,40.5,35,0.0,981.1,8.3,39.2,116,250.5,63.1,1.6,204.0,149.0,7.1,0,5,10,1,2026-06-29T15:19:07.007144+05:30
Chandigarh,Chandigarh,30.7333,76.7794,35.8,50,0.0,959.7,7.85,34.2,139,78.2,36.4,2.0,285.0,162.0,11.5,0,5,10,1,2026-06-29T15:19:07.007151+05:30
Srinagar,Jammu and Kashmir,34.0837,74.7973,34.6,28,0.0,837.8,9.1,23.8,79,19.8,12.5,1.4,332.0,156.0,2.3,0,5,7,0,2026-06-29T15:19:07.007157+05:30
Jammu,Jammu and Kashmir,32.7266,74.857,38.8,41,0.0,962.9,8.65,37.1,105,60.8,36.7,1.6,284.0,160.0,6.4,0,5,10,1,2026-06-29T15:19:07.007164+05:30
Amritsar,Punjab,31.634,74.8723,36.7,56,0.0,970.2,8.5,34.6,149,88.0,41.8,2.3,315.0,180.0,8.2,0,5,10,1,2026-06-29T15:19:07.007170+05:30
Ludhiana,Punjab,30.901,75.8573,39.6,39,0.0,968.5,8.05,38.2,153,218.4,59.3,1.8,310.0,153.0,7.1,0,5,10,1,2026-06-29T15:19:07.007176+05:30
Jalandhar,Punjab,31.326,75.5762,38.7,43,0.0,969.6,8.25,40.7,152,160.2,52.5,1.8,319.0,156.0,6.6,0,5,10,1,2026-06-29T15:19:07.007182+05:30
Dehradun,Uttarakhand,30.6284,78.0322,22.0,89,0.1,826.6,6.45,29.2,82,35.3,26.4,1.4,247.0,162.0,4.2,6,5,7,1,2026-06-29T15:19:07.007191+05:30
Shimla,Himachal Pradesh,31.1048,77.1734,21.5,70,0.0,782.7,6.5,40.0,92,34.1,23.2,1.2,210.0,148.0,8.2,3,5,7,0,2026-06-29T15:19:07.007198+05:30
Manali,Himachal Pradesh,32.2396,77.1887,26.5,65,0.0,816.7,8.9,36.4,54,24.3,20.4,12.2,185.0,120.0,0.6,7,5,7,1,2026-06-29T15:19:07.007214+05:30
Gurgaon,Haryana,28.4595,77.0266,40.4,32,0.0,971.4,7.75,43.2,404,1020.7,159.7,3.9,164.0,146.0,10.1,0,5,10,1,2026-06-29T15:19:07.007221+05:30
Noida,Uttar Pradesh,28.5355,77.391,41.1,31,0.0,973.6,6.7,26.6,404,1020.7,159.7,3.9,222.0,146.0,10.1,0,5,10,1,2026-06-29T15:19:07.007229+05:30
Ghaziabad,Uttar Pradesh,28.6692,77.4538,40.0,34,0.0,972.3,6.25,28.1,166,318.5,89.9,3.6,185.0,206.0,18.0,0,5,10,1,2026-06-29T15:19:07.007235+05:30
Faridabad,Haryana,28.4089,77.3178,40.7,30,0.0,973.3,6.55,36.7,404,1020.7,159.7,3.9,177.0,146.0,10.1,0,5,10,1,2026-06-29T15:19:07.007241+05:30
Meerut,Uttar Pradesh,28.9845,77.7064,39.2,39,0.0,971.3,7.7,28.8,166,318.5,89.9,3.6,246.0,206.0,18.0,0,5,10,1,2026-06-29T15:19:07.007247+05:30
Agra,Uttar Pradesh,27.1767,78.0081,40.0,34,0.0,977.8,8.1,43.9,403,892.2,124.3,1.7,151.0,112.0,3.0,0,5,10,1,2026-06-29T15:19:07.007253+05:30
Varanasi,Uttar Pradesh,25.3176,82.9739,36.1,51,0.1,987.6,7.3,43.2,103,41.1,24.7,1.6,358.0,139.0,5.3,3,5,10,1,2026-06-29T15:19:07.007259+05:30
Prayagraj,Uttar Pradesh,25.4358,81.8463,38.3,44,0.0,985.8,8.65,40.7,91,76.4,33.3,1.5,169.0,130.0,4.9,0,5,10,1,2026-06-29T15:19:07.007265+05:30
Gorakhpur,Uttar Pradesh,26.7606,83.3732,34.5,60,0.0,987.3,8.55,45.0,127,74.0,38.1,2.5,288.0,145.0,4.0,0,5,7,1,2026-06-29T15:19:07.007271+05:30
Bareilly,Uttar Pradesh,28.367,79.4304,35.9,54,0.1,976.8,7.55,34.2,146,143.0,55.5,2.4,286.0,182.0,10.9,3,5,10,1,2026-06-29T15:19:07.007279+05:30
Aligarh,Uttar Pradesh,27.8974,78.088,39.4,36,0.0,975.5,7.95,43.6,168,584.9,114.1,2.4,175.0,164.0,10.7,0,5,10,1,2026-06-29T15:19:07.007285+05:30
Moradabad,Uttar Pradesh,28.8386,78.7733,38.4,42,0.0,973.6,7.95,31.3,154,115.0,57.0,2.6,314.0,204.0,14.1,0,5,10,1,2026-06-29T15:19:07.007291+05:30
Saharanpur,Uttar Pradesh,29.9637,77.546,35.2,54,0.0,966.2,7.45,36.7,157,86.1,46.2,2.3,254.0,191.0,13.0,0,5,10,1,2026-06-29T15:19:07.007297+05:30
Jhansi,Uttar Pradesh,25.4484,78.5685,38.5,39,0.0,969.0,8.45,42.8,76,109.4,36.2,1.1,132.0,107.0,3.9,0,5,10,1,2026-06-29T15:19:10.245739+05:30
Surat,Gujarat,21.1702,72.8311,32.0,63,0.2,1000.3,7.0,45.0,74,27.2,17.9,11.4,230.0,60.0,37.3,6,5,4,1,2026-06-29T15:19:10.245770+05:30
Vadodara,Gujarat,22.3072,73.1812,37.4,40,0.0,996.1,5.55,41.4,68,49.0,19.7,1.4,130.0,94.0,3.0,0,5,6,1,2026-06-29T15:19:10.245780+05:30
Rajkot,Gujarat,22.3039,70.8022,38.3,36,0.0,986.4,7.55,42.8,56,37.1,16.4,1.0,103.0,89.0,3.6,0,5,10,1,2026-06-29T15:19:10.245788+05:30
Thane,Maharashtra,19.2183,72.9781,28.9,81,0.0,1002.9,1.85,32.8,47,14.6,9.4,7.6,185.0,67.0,7.4,7,5,0,1,2026-06-29T15:19:10.245797+05:30
Nagpur,Maharashtra,21.1458,79.0882,30.6,71,0.0,966.6,8.05,37.4,82,38.0,27.7,6.9,199.0,142.0,29.0,3,5,7,1,2026-06-29T15:19:10.245804+05:30
Nashik,Maharashtra,19.9975,73.7898,28.9,67,0.0,940.5,5.65,41.8,35,11.4,6.6,1.7,120.0,79.0,2.9,7,5,3,1,2026-06-29T15:19:10.245812+05:30
Aurangabad,Maharashtra,19.8762,75.3433,30.7,59,0.0,938.4,7.2,51.5,52,25.2,12.8,1.3,130.0,93.0,3.0,0,5,7,1,2026-06-29T15:19:10.245818+05:30
Solapur,Maharashtra,17.6599,75.9064,32.3,54,0.0,951.7,6.6,45.0,35,12.2,8.4,1.2,120.0,102.0,2.9,0,5,7,1,2026-06-29T15:19:10.245826+05:30
Kolhapur,Maharashtra,16.705,74.2433,26.2,77,0.1,944.6,8.0,48.6,27,4.2,3.4,2.1,121.0,65.0,1.5,10,5,7,1,2026-06-29T15:19:10.245834+05:30
Goa,Goa,15.2993,74.124,25.4,100,0.1,996.1,3.55,32.4,28,6.9,4.3,1.3,174.0,60.0,0.7,10,5,3,1,2026-06-29T15:19:10.245842+05:30
Jodhpur,Rajasthan,26.2389,73.0243,39.3,28,0.0,974.2,8.4,46.8,141,242.1,45.3,0.7,111.0,82.0,1.2,0,5,10,1,2026-06-29T15:19:10.245849+05:30
Udaipur,Rajasthan,24.5854,73.7125,33.5,47,0.0,940.0,8.8,34.9,59,33.2,14.6,0.6,112.0,81.0,1.7,0,5,7,1,2026-06-29T15:19:10.245857+05:30
Kota,Rajasthan,25.2138,75.8648,37.5,42,0.0,970.6,5.8,34.6,70,47.4,22.7,1.0,131.0,105.0,3.9,0,5,6,1,2026-06-29T15:19:10.245864+05:30
Bikaner,Rajasthan,28.0229,73.3119,42.1,22,0.0,971.8,8.45,40.3,152,82.4,34.1,0.4,109.0,82.0,1.8,0,5,10,0,2026-06-29T15:19:10.245871+05:30
Ajmer,Rajasthan,26.4499,74.6399,36.2,37,0.0,947.5,8.35,49.0,88,45.6,21.4,0.7,117.0,89.0,2.1,0,5,10,1,2026-06-29T15:19:10.245878+05:30
Gwalior,Madhya Pradesh,26.2183,78.1828,39.2,34,0.0,973.9,8.25,46.8,104,200.7,49.9,0.7,128.0,99.0,2.3,0,5,10,1,2026-06-29T15:19:10.245885+05:30
Indore,Madhya Pradesh,22.7196,75.8577,31.5,63,0.0,941.8,7.7,32.0,86,33.3,19.3,2.3,219.0,99.0,3.9,3,5,7,1,2026-06-29T15:19:10.245892+05:30
Bhopal,Madhya Pradesh,23.2599,77.4126,33.7,52,0.0,946.5,8.45,38.9,83,54.0,27.5,1.0,161.0,110.0,4.4,0,5,7,1,2026-06-29T15:19:10.245899+05:30
Jabalpur,Madhya Pradesh,23.1815,79.9864,35.5,47,0.0,954.1,7.95,32.0,70,26.8,14.4,0.9,174.0,115.0,2.3,0,5,10,1,2026-06-29T15:19:10.245907+05:30
Ujjain,Madhya Pradesh,23.1765,75.7885,33.3,53,0.0,947.0,8.35,36.0,80,50.3,26.9,1.1,136.0,100.0,3.8,0,5,7,1,2026-06-29T15:19:10.245914+05:30
Visakhapatnam,Andhra Pradesh,17.6868,83.2185,32.1,71,0.0,996.4,8.5,50.8,69,22.2,18.8,7.0,334.0,131.0,27.9,3,5,7,1,2026-06-29T15:19:10.245921+05:30
Vijayawada,Andhra Pradesh,16.5062,80.648,34.1,53,0.0,995.7,7.7,47.9,58,9.4,9.1,1.6,160.0,114.0,5.3,0,5,7,1,2026-06-29T15:19:10.245928+05:30
Guntur,Andhra Pradesh,16.3067,80.4365,35.0,48,0.0,996.9,7.9,41.4,55,8.0,7.7,1.4,148.0,109.0,4.0,0,5,7,1,2026-06-29T15:19:10.245935+05:30
Nellore,Andhra Pradesh,14.4426,79.9865,35.7,44,0.0,999.3,8.3,37.4,47,13.5,10.1,2.3,115.0,104.0,4.2,0,5,10,1,2026-06-29T15:19:10.245942+05:30
Kurnool,Andhra Pradesh,15.8281,78.0373,33.6,50,0.0,971.0,5.75,54.4,30,8.7,7.6,1.7,116.0,107.0,5.9,0,5,3,1,2026-06-29T15:19:10.245950+05:30
Kakinada,Andhra Pradesh,16.9891,82.2475,33.7,59,0.0,1000.3,8.15,50.8,61,14.5,11.5,1.3,183.0,114.0,4.5,0,5,4,1,2026-06-29T15:19:10.245957+05:30
Tirupati,Andhra Pradesh,13.6288,79.4192,34.9,46,0.1,985.3,8.4,37.1,43,8.1,4.7,1.1,106.0,77.0,0.9,3,5,7,1,2026-06-29T15:19:10.245964+05:30
Warangal,Telangana,17.9689,79.5941,32.3,58,0.1,972.2,7.7,32.4,61,15.5,12.8,1.8,176.0,118.0,3.5,3,5,7,1,2026-06-29T15:19:10.245971+05:30
Nizamabad,Telangana,18.6725,78.0941,32.2,60,0.0,958.7,5.4,36.4,63,21.6,15.7,2.0,145.0,101.0,2.6,0,5,3,1,2026-06-29T15:19:10.245978+05:30
Mysore,Karnataka,12.2958,76.6396,26.8,66,0.2,926.0,7.7,55.4,26,2.4,2.0,2.2,131.0,70.0,1.1,10,5,7,1,2026-06-29T15:19:10.245985+05:30
Mangalore,Karnataka,12.9141,74.856,26.2,93,0.3,1005.6,8.6,45.7,26,10.2,6.1,2.8,126.0,53.0,1.3,10,5,4,1,2026-06-29T15:19:10.245992+05:30
Hubli-Dharwad,Karnataka,15.3647,75.124,26.3,76,0.1,937.5,7.05,56.2,27,1.5,1.3,1.5,116.0,63.0,0.7,10,5,7,1,2026-06-29T15:19:10.245998+05:30
Belgaum,Karnataka,15.8497,74.4977,24.2,86,0.0,922.7,7.5,47.5,25,1.8,1.5,1.9,109.0,57.0,1.1,3,5,7,1,2026-06-29T15:19:13.497948+05:30
Coimbatore,Tamil Nadu,11.0168,76.9558,30.0,57,0.0,959.0,8.85,62.6,26,4.6,3.1,1.5,148.0,65.0,1.4,4,5,7,1,2026-06-29T15:19:13.497979+05:30
Madurai,Tamil Nadu,9.9252,78.1198,33.8,48,0.1,988.9,8.75,49.0,48,5.3,4.2,1.8,127.0,102.0,2.0,3,5,7,1,2026-06-29T15:19:13.497990+05:30
Trichy,Tamil Nadu,10.7905,78.7047,35.4,39,0.0,995.1,8.8,57.6,30,3.6,2.7,1.3,107.0,82.0,1.5,0,5,10,1,2026-06-29T15:19:13.497998+05:30
Salem,Tamil Nadu,11.6643,78.146,31.6,60,0.0,973.2,8.45,29.5,36,3.8,3.5,2.2,142.0,90.0,3.8,0,5,7,1,2026-06-29T15:19:13.498006+05:30
Tirunelveli,Tamil Nadu,8.7139,77.7567,33.2,48,0.0,1000.5,8.55,54.0,27,8.1,5.0,1.1,113.0,72.0,1.0,0,5,4,1,2026-06-29T15:19:13.498014+05:30
Vellore,Tamil Nadu,12.9165,79.1325,33.9,49,0.0,978.9,8.9,37.8,40,4.2,3.6,1.5,144.0,96.0,2.0,0,5,7,1,2026-06-29T15:19:13.498021+05:30
Erode,Tamil Nadu,11.341,77.7172,34.0,45,0.1,985.0,8.85,47.9,31,5.3,3.9,1.6,152.0,88.0,1.5,3,5,7,1,2026-06-29T15:19:13.498048+05:30
Kochi,Kerala,9.9312,76.2673,26.8,87,0.2,1008.4,4.65,46.4,31,11.6,6.6,1.9,110.0,68.0,2.0,10,0,0,1,2026-06-29T15:19:13.498059+05:30
Thiruvananthapuram,Kerala,8.5241,76.9366,28.0,77,0.1,1007.2,7.3,51.8,29,12.6,6.7,1.0,98.0,68.0,0.8,10,5,4,1,2026-06-29T15:19:13.498066+05:30
Kozhikode,Kerala,11.2588,75.7804,26.2,93,0.3,1007.6,8.6,44.6,29,11.6,5.7,0.6,138.0,62.0,0.6,10,5,4,1,2026-06-29T15:19:13.498073+05:30
Thrissur,Kerala,10.5276,76.2144,26.9,93,0.1,1006.7,8.55,43.9,27,9.4,5.7,1.7,110.0,61.0,1.2,10,5,4,1,2026-06-29T15:19:13.498081+05:30
Kannur,Kerala,11.8745,75.3704,26.6,93,0.2,1006.6,8.45,44.3,27,10.2,5.4,1.7,192.0,56.0,0.7,10,5,4,1,2026-06-29T15:19:13.498088+05:30
Patna,Bihar,25.5941,85.1376,35.1,60,0.1,990.2,7.6,29.5,137,51.9,40.6,3.3,259.0,176.0,7.8,3,5,10,1,2026-06-29T15:19:13.498096+05:30
Gaya,Bihar,24.7914,85.0002,35.9,54,0.0,984.2,8.65,34.2,124,43.8,35.9,2.0,201.0,171.0,9.5,0,5,10,1,2026-06-29T15:19:13.498103+05:30
Muzaffarpur,Bihar,26.1209,85.3647,33.3,72,0.0,990.8,8.55,32.4,130,48.5,37.1,3.4,280.0,185.0,9.5,3,5,7,1,2026-06-29T15:19:13.498110+05:30
Bhagalpur,Bihar,25.2425,87.0117,34.1,63,0.0,991.6,7.25,24.1,122,62.9,50.6,5.7,357.0,176.0,20.2,3,5,7,1,2026-06-29T15:19:13.498116+05:30
Ranchi,Jharkhand,23.3441,85.3096,27.5,84,0.0,931.7,8.9,40.0,113,36.6,35.3,2.3,216.0,150.0,9.3,7,5,7,1,2026-06-29T15:19:13.498124+05:30
Jamshedpur,Jharkhand,22.8046,86.2029,27.2,93,0.4,984.4,8.8,37.1,120,44.6,43.4,3.5,220.0,181.0,20.0,10,5,7,1,2026-06-29T15:19:13.498130+05:30
Dhanbad,Jharkhand,23.7957,86.4304,31.9,67,0.0,972.5,8.45,33.1,153,56.5,55.1,16.2,210.0,175.0,55.4,3,5,7,1,2026-06-29T15:19:13.498137+05:30
Bokaro,Jharkhand,23.6693,86.1511,31.4,72,0.0,976.5,9.0,32.8,140,50.5,48.9,16.4,234.0,160.0,51.0,3,5,7,1,2026-06-29T15:19:13.498144+05:30
Bhubaneswar,Odisha,20.2961,85.8245,32.0,76,0.0,994.9,7.65,36.4,85,23.0,20.7,5.0,281.0,128.0,8.2,3,5,7,1,2026-06-29T15:19:13.498150+05:30
Cuttack,Odisha,20.4625,85.8828,30.4,82,0.0,996.8,7.85,43.9,85,23.0,20.7,5.0,256.0,128.0,8.2,3,5,7,1,2026-06-29T15:19:13.498157+05:30
Rourkela,Odisha,22.2604,84.8536,29.7,87,0.2,978.1,8.6,33.8,109,40.4,38.5,2.4,226.0,187.0,15.9,10,5,7,1,2026-06-29T15:19:13.498163+05:30
Raipur,Chhattisgarh,21.2514,81.6296,35.2,49,0.0,967.1,8.4,36.7,93,38.0,35.7,8.7,307.0,159.0,42.5,0,5,10,1,2026-06-29T15:19:13.498170+05:30
Bhilai,Chhattisgarh,21.1938,81.3509,32.9,56,0.0,967.8,8.4,41.8,88,31.3,28.7,9.4,715.0,136.0,34.7,0,5,7,1,2026-06-29T15:19:13.498177+05:30
Guwahati,Assam,26.1158,91.7086,29.1,87,0.0,993.0,4.95,25.2,52,10.3,10.1,2.4,256.0,105.0,2.8,7,5,3,1,2026-06-29T15:19:13.498183+05:30
Agartala,Tripura,23.8315,91.2868,30.4,80,0.1,998.5,7.95,34.2,44,15.0,12.2,3.0,152.0,114.0,2.2,6,5,7,1,2026-06-29T15:19:13.498189+05:30
Shillong,Meghalaya,25.5788,91.8933,24.2,74,0.0,852.7,7.4,26.6,32,7.2,6.5,2.6,202.0,88.0,1.8,3,5,7,1,2026-06-29T15:19:13.498195+05:30
Imphal,Manipur,24.817,93.9368,27.7,73,0.0,916.9,8.5,29.2,40,5.0,4.3,1.1,144.0,72.0,1.0,7,5,7,1,2026-06-29T15:19:13.498202+05:30
Aizawl,Mizoram,23.7271,92.7176,22.1,93,0.2,886.6,8.7,33.8,29,3.1,2.8,0.7,130.0,63.0,0.3,6,5,7,1,2026-06-29T15:19:13.498209+05:30
Kohima,Nagaland,25.6701,94.1077,22.7,95,0.0,850.9,7.35,23.0,30,4.1,3.6,1.1,150.0,66.0,0.7,3,5,7,1,2026-06-29T15:19:13.498215+05:30
Gangtok,Sikkim,27.3314,88.6138,23.8,72,0.1,833.4,7.4,32.4,83,2.6,2.5,1.6,303.0,138.0,3.0,6,5,7,1,2026-06-29T15:19:13.498222+05:30
Siliguri,West Bengal,26.7271,88.3953,29.5,75,0.0,984.4,8.6,27.7,87,9.8,9.4,2.5,376.0,145.0,5.2,7,5,7,1,2026-06-29T15:19:16.754867+05:30
Durgapur,West Bengal,23.5204,87.3119,30.0,82,0.2,986.9,8.65,28.4,156,65.7,64.7,24.8,524.0,172.0,67.1,10,5,7,1,2026-06-29T15:19:16.754897+05:30
Asansol,West Bengal,23.6739,86.9524,31.2,75,0.1,985.7,8.75,31.3,153,58.3,56.9,18.1,427.0,171.0,51.1,6,5,7,1,2026-06-29T15:19:16.754908+05:30
Pondicherry,Puducherry,11.9139,79.8145,33.2,61,0.0,1003.1,8.8,59.8,56,21.9,18.3,2.9,175.0,140.0,11.0,3,5,4,1,2026-06-29T15:19:16.754918+05:30
Port Blair,Andaman and Nicobar Islands,11.6234,92.7265,28.9,78,0.0,1004.4,6.7,43.6,23,6.0,3.6,0.3,96.0,47.0,0.2,7,5,4,1,2026-06-29T15:19:16.754926+05:30
Haridwar,Uttarakhand,29.9457,78.1642,36.1,48,0.0,964.8,7.2,37.8,140,89.9,49.4,1.6,297.0,187.0,9.1,0,5,10,1,2026-06-29T15:19:16.754934+05:30
Rishikesh,Uttarakhand,30.0869,78.2676,33.8,55,0.0,958.0,6.65,27.0,128,79.6,45.4,1.1,269.0,176.0,7.8,0,5,7,1,2026-06-29T15:19:16.754942+05:30
Nainital,Uttarakhand,29.3919,79.4542,21.9,81,0.1,802.6,5.6,31.0,126,68.0,40.2,1.9,256.0,173.0,8.4,6,5,3,1,2026-06-29T15:19:16.754949+05:30
Mussoorie,Uttarakhand,30.4599,78.0664,20.8,88,0.1,799.9,6.05,37.1,129,71.2,45.6,1.7,247.0,189.0,9.1,6,5,7,1,2026-06-29T15:19:16.754957+05:30
Dharamshala,Himachal Pradesh,32.219,76.3234,26.3,78,0.1,864.9,8.3,29.9,64,26.8,19.4,0.7,249.0,142.0,2.8,10,5,7,1,2026-06-29T15:19:16.754964+05:30
Dalhousie,Himachal Pradesh,32.5387,75.971,21.7,86,0.2,801.8,7.95,29.5,102,46.1,31.0,1.4,256.0,164.0,4.8,6,5,7,1,2026-06-29T15:19:16.754971+05:30
Patiala,Punjab,30.3398,76.3869,38.5,40,0.0,968.5,6.95,51.1,158,534.6,95.7,1.7,204.0,166.0,8.5,0,5,10,1,2026-06-29T15:19:16.754979+05:30
Bhatinda,Punjab,30.211,74.9455,41.1,33,0.0,973.1,7.85,32.0,154,137.8,54.9,2.4,140.0,139.0,8.1,0,5,10,1,2026-06-29T15:19:16.754986+05:30
Rohtak,Haryana,28.8955,76.6066,39.9,35,0.0,971.6,7.75,31.0,406,1005.8,150.9,1.9,145.0,122.0,4.7,0,5,10,1,2026-06-29T15:19:16.754993+05:30
Panipat,Haryana,29.3909,76.9635,39.0,40,0.0,970.2,7.65,28.1,369,845.6,140.2,2.8,163.0,151.0,14.3,0,5,10,1,2026-06-29T15:19:16.755000+05:30
Mathura,Uttar Pradesh,27.4924,77.6737,39.7,34,0.0,976.9,8.05,40.7,303,1072.9,152.3,1.7,141.0,112.0,2.9,0,5,10,1,2026-06-29T15:19:16.755007+05:30
Vrindavan,Uttar Pradesh,27.5823,77.7027,39.4,35,0.0,977.3,8.0,38.9,303,1072.9,152.3,1.7,141.0,112.0,2.9,0,5,10,1,2026-06-29T15:19:16.755014+05:30
Ayodhya,Uttar Pradesh,26.7922,82.1998,35.3,58,0.0,985.1,8.4,28.1,142,79.2,35.9,1.4,312.0,147.0,4.9,0,5,10,1,2026-06-29T15:19:16.755020+05:30
Ratlam,Madhya Pradesh,23.3315,75.0367,33.6,51,0.0,948.2,8.15,36.4,78,34.7,18.6,0.8,117.0,99.0,3.8,0,5,7,1,2026-06-29T15:19:16.755028+05:30
Sagar,Madhya Pradesh,23.8388,78.7378,33.3,56,0.0,943.2,8.75,43.2,71,57.9,26.6,0.6,164.0,107.0,2.5,0,5,7,1,2026-06-29T15:19:16.755055+05:30
Satna,Madhya Pradesh,24.6005,80.8322,37.1,43,0.0,962.8,8.8,37.8,81,70.1,29.9,0.8,171.0,112.0,2.5,0,5,10,1,2026-06-29T15:19:16.755064+05:30
Akola,Maharashtra,20.7002,77.0082,31.5,61,0.0,968.5,6.35,32.4,73,59.8,33.2,2.0,140.0,106.0,6.4,3,5,7,1,2026-06-29T15:19:16.755071+05:30
Amravati,Maharashtra,20.9374,77.7796,30.6,68,0.1,960.7,6.2,33.1,72,45.3,25.3,2.7,149.0,109.0,8.1,6,5,7,1,2026-06-29T15:19:16.755080+05:30
Latur,Maharashtra,18.4088,76.5604,30.9,59,0.0,934.3,6.5,30.2,54,20.7,12.3,1.6,125.0,81.0,2.2,0,5,7,1,2026-06-29T15:19:16.755087+05:30
Nanded,Maharashtra,19.1383,77.3091,31.9,63,0.0,962.3,8.1,38.5,58,25.3,15.8,2.0,145.0,99.0,3.0,3,5,7,1,2026-06-29T15:19:16.755095+05:30
Gulbarga,Karnataka,17.3297,76.8343,31.7,55,0.0,953.1,6.3,33.5,37,13.1,9.3,1.8,122.0,107.0,3.5,0,5,7,1,2026-06-29T15:19:16.755101+05:30
Bidar,Karnataka,17.9104,77.5199,26.8,83,0.2,930.4,7.4,36.4,51,20.8,14.3,2.2,136.0,103.0,4.2,10,5,7,1,2026-06-29T15:19:16.755109+05:30
Hospet,Karnataka,15.2689,76.3909,28.6,68,0.1,951.5,7.1,56.9,29,5.9,3.5,1.5,120.0,72.0,1.4,10,5,7,1,2026-06-29T15:19:16.755116+05:30
Tirupur,Tamil Nadu,11.1085,77.3411,31.9,53,0.1,971.7,8.9,61.9,30,5.2,3.9,1.8,142.0,82.0,1.9,3,5,7,1,2026-06-29T15:19:16.755123+05:30
Alappuzha,Kerala,9.4981,76.3388,26.5,91,0.1,1008.5,8.45,41.0,30,13.1,7.8,2.2,91.0,76.0,2.1,10,0,4,1,2026-06-29T15:19:16.755130+05:30
Munnar,Kerala,10.0889,77.0595,17.5,96,0.4,855.7,7.85,51.5,23,6.2,3.2,0.9,102.0,58.0,0.7,6,10,7,1,2026-06-29T15:19:16.755138+05:30
Silchar,Assam,24.8333,92.7789,29.9,84,0.1,996.7,8.3,26.3,43,7.4,6.2,1.2,152.0,80.0,1.8,10,5,7,1,2026-06-29T15:19:16.755145+05:30
Dibrugarh,Assam,27.4728,94.912,30.7,73,0.0,987.7,2.95,25.6,43,7.0,6.7,2.9,203.0,74.0,0.9,3,5,3,1,2026-06-29T15:19:16.755152+05:30
