city,state,latitude,longitude,temp,humidity,rain,pressure,uv_index,wind_gusts,aqi,pm10,pm2_5,no2,co,o3,so2,mosquito_risk,arthritis_risk,migraine_risk,frizz_risk,updated_at
Delhi,Delhi,28.6139,77.209,32.2,39,0.0,977.8,7.7,63.0,576,903.4,199.8,34.9,280.0,49.0,18.6,0,5,7,1,2026-06-22T01:16:24.311506+05:30
Mumbai,Maharashtra,19.076,72.8777,29.4,76,0.0,1005.8,7.7,41.8,49,13.3,8.4,6.4,137.0,38.0,4.8,7,5,4,1,2026-06-22T01:16:24.311543+05:30
Bangalore,Karnataka,12.9716,77.5946,21.9,94,0.0,911.0,8.9,41.0,43,7.6,7.2,16.2,320.0,33.0,6.4,3,5,7,1,2026-06-22T01:16:24.311558+05:30
Hyderabad,Telangana,17.385,78.4867,27.5,69,0.0,951.5,8.2,36.0,67,23.3,18.7,14.5,380.0,59.0,5.3,7,5,7,1,2026-06-22T01:16:24.311567+05:30
Chennai,Tamil Nadu,13.0827,80.2707,27.6,86,0.0,1006.0,8.7,37.1,74,24.4,20.2,12.9,224.0,80.0,12.2,7,5,4,1,2026-06-22T01:16:24.311576+05:30
Kolkata,West Bengal,22.5726,88.3639,26.8,95,0.1,1002.6,8.5,30.2,101,37.3,33.4,8.9,397.0,116.0,9.0,10,5,4,1,2026-06-22T01:16:24.311583+05:30
Pune,Maharashtra,18.5204,73.8567,25.3,82,0.0,946.1,8.2,46.1,44,14.3,10.9,11.8,121.0,40.0,9.7,7,5,7,1,2026-06-22T01:16:24.311590+05:30
Ahmedabad,Gujarat,23.0225,72.5714,32.4,49,0.0,998.6,8.0,42.5,71,31.3,18.1,7.3,147.0,48.0,5.2,0,5,7,1,2026-06-22T01:16:24.311601+05:30
Jaipur,Rajasthan,26.9124,75.7873,28.4,62,0.0,955.7,8.2,56.9,122,151.8,52.9,15.3,250.0,41.0,6.0,7,5,7,1,2026-06-22T01:16:24.311608+05:30
Lucknow,Uttar Pradesh,26.8467,80.9462,33.1,45,0.0,988.1,7.85,37.8,266,323.2,91.7,13.7,198.0,69.0,6.9,0,5,7,1,2026-06-22T01:16:24.311617+05:30
Kanpur,Uttar Pradesh,26.4499,80.3319,33.3,42,0.0,986.6,8.3,40.0,362,339.0,79.4,14.6,146.0,54.0,5.8,0,5,7,1,2026-06-22T01:16:24.311624+05:30
Chandigarh,Chandigarh,30.7333,76.7794,27.7,60,0.0,962.8,7.3,43.6,98,36.3,33.3,26.6,444.0,59.0,9.8,4,5,7,1,2026-06-22T01:16:24.311630+05:30
Srinagar,Jammu and Kashmir,34.0837,74.7973,15.2,98,0.0,838.5,9.0,28.8,73,41.7,40.4,28.6,722.0,7.0,1.0,3,10,7,0,2026-06-22T01:16:24.311637+05:30
Jammu,Jammu and Kashmir,32.7266,74.857,29.7,48,0.0,967.2,8.6,43.6,69,36.2,33.9,41.5,552.0,19.0,4.6,4,5,7,1,2026-06-22T01:16:24.311644+05:30
Amritsar,Punjab,31.634,74.8723,26.9,71,0.0,974.9,8.1,47.5,120,66.6,47.1,31.0,485.0,54.0,10.5,7,5,7,1,2026-06-22T01:16:24.311651+05:30
Ludhiana,Punjab,30.901,75.8573,29.9,55,0.0,973.1,7.25,56.2,139,142.0,61.2,19.9,710.0,62.0,6.3,4,5,7,1,2026-06-22T01:16:24.311659+05:30
Jalandhar,Punjab,31.326,75.5762,29.0,57,0.0,974.1,7.05,51.8,139,111.3,59.3,32.0,714.0,50.0,8.3,4,5,7,1,2026-06-22T01:16:24.311665+05:30
Dehradun,Uttarakhand,30.6284,78.0322,17.1,90,0.0,827.0,7.35,36.4,60,28.8,21.5,23.4,275.0,44.0,0.9,3,10,7,0,2026-06-22T01:16:24.311671+05:30
Shimla,Himachal Pradesh,31.1048,77.1734,14.8,65,0.0,781.1,6.2,41.0,72,26.7,19.9,18.4,267.0,80.0,4.6,3,5,7,0,2026-06-22T01:16:24.311677+05:30
Manali,Himachal Pradesh,32.2396,77.1887,13.9,73,0.0,814.9,7.35,37.8,47,6.3,4.4,39.0,237.0,79.0,0.0,3,5,7,0,2026-06-22T01:16:24.311686+05:30
Gurgaon,Haryana,28.4595,77.0266,29.9,44,0.0,976.1,7.85,67.0,1227,1031.9,186.3,34.7,170.0,33.0,13.8,4,5,7,1,2026-06-22T01:16:24.311692+05:30
Noida,Uttar Pradesh,28.5355,77.391,30.9,48,0.0,979.1,7.8,50.8,1227,1031.9,186.3,34.7,370.0,33.0,13.8,0,5,7,1,2026-06-22T01:16:24.311698+05:30
Ghaziabad,Uttar Pradesh,28.6692,77.4538,30.9,45,0.0,977.3,7.8,56.9,475,802.8,182.5,39.2,352.0,50.0,20.8,0,5,7,1,2026-06-22T01:16:24.311704+05:30
Faridabad,Haryana,28.4089,77.3178,31.9,39,0.0,978.4,7.85,59.8,1227,1031.9,186.3,34.7,217.0,33.0,13.8,0,5,7,1,2026-06-22T01:16:24.311710+05:30
Meerut,Uttar Pradesh,28.9845,77.7064,30.4,49,0.0,976.0,7.7,49.3,475,802.8,182.5,39.2,352.0,50.0,20.8,0,5,7,1,2026-06-22T01:16:24.311715+05:30
Agra,Uttar Pradesh,27.1767,78.0081,31.6,47,0.0,982.9,7.2,72.0,758,318.5,62.9,28.4,174.0,33.0,8.1,0,5,7,1,2026-06-22T01:16:24.311721+05:30
Varanasi,Uttar Pradesh,25.3176,82.9739,32.6,54,0.0,992.2,8.8,36.0,109,58.1,33.2,11.0,197.0,60.0,5.5,0,5,7,1,2026-06-22T01:16:24.311727+05:30
Prayagraj,Uttar Pradesh,25.4358,81.8463,33.5,52,0.0,990.9,8.55,37.4,121,49.5,32.6,13.7,165.0,54.0,6.7,0,5,7,1,2026-06-22T01:16:24.311734+05:30
Gorakhpur,Uttar Pradesh,26.7606,83.3732,30.4,64,0.1,992.1,8.3,31.7,161,172.3,101.0,36.4,328.0,45.0,14.6,6,5,7,1,2026-06-22T01:16:24.311740+05:30
Bareilly,Uttar Pradesh,28.367,79.4304,30.7,55,0.0,981.6,8.1,42.8,165,258.9,97.1,16.3,384.0,85.0,11.7,0,5,7,1,2026-06-22T01:16:24.311748+05:30
Aligarh,Uttar Pradesh,27.8974,78.088,30.1,54,0.0,980.4,7.85,51.1,799,495.5,92.4,18.9,295.0,48.0,5.5,0,5,7,1,2026-06-22T01:16:24.311754+05:30
Moradabad,Uttar Pradesh,28.8386,78.7733,30.5,55,0.0,977.9,7.9,47.5,173,348.3,114.1,25.5,411.0,60.0,12.7,0,5,7,1,2026-06-22T01:16:24.311760+05:30
Saharanpur,Uttar Pradesh,29.9637,77.546,29.1,53,0.0,969.9,7.0,47.9,166,516.0,129.5,22.7,352.0,69.0,10.3,4,5,7,1,2026-06-22T01:16:24.311766+05:30
Jhansi,Uttar Pradesh,25.4484,78.5685,30.4,55,0.0,974.0,7.85,43.2,98,67.5,34.5,8.0,146.0,47.0,2.4,0,5,7,1,2026-06-22T01:16:27.565095+05:30
Surat,Gujarat,21.1702,72.8311,29.7,78,0.0,1003.9,7.45,34.2,59,20.9,14.4,16.6,207.0,32.0,27.5,7,5,4,1,2026-06-22T01:16:27.565126+05:30
Vadodara,Gujarat,22.3072,73.1812,29.9,75,0.0,1001.2,8.0,45.0,55,16.8,12.2,14.2,173.0,29.0,14.3,7,5,4,1,2026-06-22T01:16:27.565137+05:30
Rajkot,Gujarat,22.3039,70.8022,28.7,70,0.0,991.5,7.55,35.3,70,44.4,18.6,4.1,98.0,42.0,3.5,7,5,7,1,2026-06-22T01:16:27.565145+05:30
Thane,Maharashtra,19.2183,72.9781,29.9,71,0.0,1005.3,7.7,35.3,49,13.3,8.4,6.4,142.0,38.0,4.8,7,5,4,1,2026-06-22T01:16:27.565153+05:30
Nagpur,Maharashtra,21.1458,79.0882,31.2,52,0.0,970.6,8.2,49.0,67,43.5,27.4,15.4,261.0,56.0,12.0,0,5,7,1,2026-06-22T01:16:27.565160+05:30
Nashik,Maharashtra,19.9975,73.7898,25.3,79,0.0,943.6,7.7,41.4,32,12.0,8.2,4.4,135.0,44.0,2.7,7,5,7,1,2026-06-22T01:16:27.565167+05:30
Aurangabad,Maharashtra,19.8762,75.3433,29.2,56,0.0,942.3,8.85,62.3,40,15.5,12.5,12.8,142.0,44.0,7.1,4,5,7,1,2026-06-22T01:16:27.565174+05:30
Solapur,Maharashtra,17.6599,75.9064,29.0,61,0.0,955.8,8.8,63.0,41,6.6,5.9,5.1,116.0,54.0,1.9,7,5,7,1,2026-06-22T01:16:27.565182+05:30
Kolhapur,Maharashtra,16.705,74.2433,24.7,85,0.0,946.4,7.85,53.6,33,7.8,7.2,6.6,168.0,36.0,2.8,3,5,7,1,2026-06-22T01:16:27.565189+05:30
Goa,Goa,15.2993,74.124,25.7,95,0.0,996.7,8.35,42.5,22,7.7,5.6,1.9,226.0,45.0,0.8,7,5,7,1,2026-06-22T01:16:27.565196+05:30
Jodhpur,Rajasthan,26.2389,73.0243,31.9,45,0.0,978.3,8.4,41.8,150,168.1,43.4,6.9,150.0,48.0,2.1,0,5,7,1,2026-06-22T01:16:27.565203+05:30
Udaipur,Rajasthan,24.5854,73.7125,28.0,50,0.0,943.2,8.8,38.5,72,48.9,23.6,7.0,129.0,57.0,5.6,4,5,7,1,2026-06-22T01:16:27.565210+05:30
Kota,Rajasthan,25.2138,75.8648,29.7,56,0.0,974.9,8.35,41.8,88,47.8,27.9,8.9,262.0,50.0,4.6,4,5,7,1,2026-06-22T01:16:27.565217+05:30
Bikaner,Rajasthan,28.0229,73.3119,31.2,48,0.0,975.8,8.45,64.1,154,193.7,51.9,2.9,119.0,61.0,2.6,0,5,7,1,2026-06-22T01:16:27.565224+05:30
Ajmer,Rajasthan,26.4499,74.6399,28.6,58,0.0,950.8,8.35,57.2,94,54.7,25.0,8.1,142.0,48.0,4.2,4,5,7,1,2026-06-22T01:16:27.565231+05:30
Gwalior,Madhya Pradesh,26.2183,78.1828,30.5,53,0.0,978.8,7.65,64.4,101,77.5,35.0,7.0,127.0,52.0,2.6,0,5,7,1,2026-06-22T01:16:27.565237+05:30
Indore,Madhya Pradesh,22.7196,75.8577,28.9,55,0.0,945.8,8.5,52.2,76,34.9,25.7,11.0,189.0,55.0,6.6,4,5,7,1,2026-06-22T01:16:27.565244+05:30
Bhopal,Madhya Pradesh,23.2599,77.4126,27.6,72,0.0,950.6,8.6,28.4,88,49.7,31.8,10.8,270.0,50.0,4.6,7,5,7,1,2026-06-22T01:16:27.565251+05:30
Jabalpur,Madhya Pradesh,23.1815,79.9864,29.2,71,0.0,958.5,7.25,40.7,77,37.8,26.2,14.1,233.0,51.0,4.8,7,5,7,1,2026-06-22T01:16:27.565258+05:30
Ujjain,Madhya Pradesh,23.1765,75.7885,29.1,56,0.0,951.2,7.8,41.8,71,32.1,22.8,6.1,202.0,64.0,5.6,4,5,7,1,2026-06-22T01:16:27.565266+05:30
Visakhapatnam,Andhra Pradesh,17.6868,83.2185,28.7,94,0.0,1001.6,5.25,48.6,73,27.6,24.7,18.4,267.0,73.0,29.4,7,5,0,1,2026-06-22T01:16:27.565273+05:30
Vijayawada,Andhra Pradesh,16.5062,80.648,29.1,81,0.0,1000.5,8.9,42.1,81,35.2,31.5,16.5,252.0,57.0,6.4,7,5,4,1,2026-06-22T01:16:27.565279+05:30
Guntur,Andhra Pradesh,16.3067,80.4365,29.5,78,0.0,1001.8,8.8,46.4,79,27.8,25.9,17.4,242.0,53.0,5.7,7,5,4,1,2026-06-22T01:16:27.565287+05:30
Nellore,Andhra Pradesh,14.4426,79.9865,28.0,77,0.0,1004.2,3.7,36.4,78,24.3,19.7,6.5,224.0,99.0,5.6,7,5,0,1,2026-06-22T01:16:27.565295+05:30
Kurnool,Andhra Pradesh,15.8281,78.0373,28.4,62,0.0,975.6,8.5,51.1,57,14.9,13.2,7.8,151.0,67.0,5.6,7,5,7,1,2026-06-22T01:16:27.565303+05:30
Kakinada,Andhra Pradesh,16.9891,82.2475,28.8,87,0.0,1005.6,7.65,43.9,72,34.5,27.1,4.5,291.0,112.0,6.2,7,5,4,1,2026-06-22T01:16:27.565310+05:30
Tirupati,Andhra Pradesh,13.6288,79.4192,26.1,80,0.0,990.2,8.2,42.5,75,26.0,22.7,12.2,191.0,69.0,2.6,7,5,7,1,2026-06-22T01:16:27.565317+05:30
Warangal,Telangana,17.9689,79.5941,28.4,71,0.0,976.9,8.45,40.7,74,31.2,27.0,15.4,268.0,46.0,5.4,7,5,7,1,2026-06-22T01:16:27.565323+05:30
Nizamabad,Telangana,18.6725,78.0941,29.9,60,0.0,962.6,6.05,51.5,65,28.8,25.5,13.1,194.0,59.0,3.9,4,5,7,1,2026-06-22T01:16:27.565330+05:30
Mysore,Karnataka,12.2958,76.6396,21.8,95,0.0,927.6,8.85,43.6,24,4.2,4.0,6.3,175.0,37.0,2.2,3,5,7,1,2026-06-22T01:16:27.565337+05:30
Mangalore,Karnataka,12.9141,74.856,24.8,98,0.1,1006.8,8.45,46.4,25,9.4,7.3,6.0,172.0,35.0,2.5,6,5,4,1,2026-06-22T01:16:27.565344+05:30
Hubli-Dharwad,Karnataka,15.3647,75.124,23.2,92,0.0,939.8,8.9,51.5,20,1.9,1.5,3.5,112.0,40.0,1.2,3,5,7,1,2026-06-22T01:16:27.565350+05:30
Belgaum,Karnataka,15.8497,74.4977,22.9,91,0.0,924.4,8.05,48.2,26,3.3,3.0,3.4,109.0,41.0,1.5,3,5,7,1,2026-06-22T01:16:30.797058+05:30
Coimbatore,Tamil Nadu,11.0168,76.9558,23.6,92,0.0,961.2,8.7,59.4,22,4.3,4.0,5.4,146.0,40.0,2.8,3,5,7,1,2026-06-22T01:16:30.797085+05:30
Madurai,Tamil Nadu,9.9252,78.1198,28.6,66,0.0,992.8,7.35,46.4,72,29.0,25.9,38.3,286.0,8.0,7.8,7,5,7,1,2026-06-22T01:16:30.797096+05:30
Trichy,Tamil Nadu,10.7905,78.7047,28.0,77,0.0,999.5,7.3,37.1,57,14.6,12.3,12.8,280.0,51.0,3.8,7,5,7,1,2026-06-22T01:16:30.797104+05:30
Salem,Tamil Nadu,11.6643,78.146,26.6,79,0.0,977.2,8.25,33.8,61,17.6,16.1,20.0,279.0,37.0,6.6,7,5,7,1,2026-06-22T01:16:30.797111+05:30
Tirunelveli,Tamil Nadu,8.7139,77.7567,28.5,69,0.0,1003.3,8.05,36.4,27,6.2,5.3,5.7,199.0,36.0,1.7,7,5,4,1,2026-06-22T01:16:30.797117+05:30
Vellore,Tamil Nadu,12.9165,79.1325,25.0,97,0.0,983.6,8.6,29.5,80,28.6,24.3,16.1,195.0,56.0,4.6,7,5,7,1,2026-06-22T01:16:30.797124+05:30
Erode,Tamil Nadu,11.341,77.7172,26.2,80,0.0,989.0,8.2,58.7,40,10.3,9.5,12.2,185.0,34.0,3.9,7,5,7,1,2026-06-22T01:16:30.797130+05:30
Kochi,Kerala,9.9312,76.2673,25.1,94,0.0,1009.8,8.1,39.2,44,12.6,11.6,13.1,128.0,21.0,5.0,7,0,4,1,2026-06-22T01:16:30.797137+05:30
Thiruvananthapuram,Kerala,8.5241,76.9366,23.7,98,0.0,1009.8,6.95,40.7,25,8.0,5.0,2.5,144.0,52.0,1.1,3,0,4,1,2026-06-22T01:16:30.797144+05:30
Kozhikode,Kerala,11.2588,75.7804,24.4,99,0.0,1008.3,8.45,36.7,26,5.4,3.2,0.9,264.0,53.0,0.6,3,0,4,1,2026-06-22T01:16:30.797150+05:30
Thrissur,Kerala,10.5276,76.2144,23.9,99,0.0,1007.8,7.95,35.6,43,13.6,12.8,12.2,283.0,22.0,4.2,3,5,4,1,2026-06-22T01:16:30.797157+05:30
Kannur,Kerala,11.8745,75.3704,24.9,98,0.0,1007.4,8.55,41.8,21,7.9,6.3,5.3,185.0,36.0,1.9,3,5,4,1,2026-06-22T01:16:30.797164+05:30
Patna,Bihar,25.5941,85.1376,30.4,66,0.0,995.1,8.9,29.5,156,85.0,56.0,20.9,290.0,55.0,12.6,3,5,7,1,2026-06-22T01:16:30.797170+05:30
Gaya,Bihar,24.7914,85.0002,29.2,68,0.0,989.0,8.65,35.3,135,55.9,35.3,13.8,215.0,71.0,19.4,7,5,7,1,2026-06-22T01:16:30.797177+05:30
Muzaffarpur,Bihar,26.1209,85.3647,28.3,83,0.0,995.8,8.9,30.6,158,84.8,58.4,18.4,299.0,79.0,12.5,7,5,7,1,2026-06-22T01:16:30.797183+05:30
Bhagalpur,Bihar,25.2425,87.0117,29.7,79,0.0,996.2,8.7,24.5,127,63.6,52.6,14.3,174.0,92.0,19.3,7,5,7,1,2026-06-22T01:16:30.797189+05:30
Ranchi,Jharkhand,23.3441,85.3096,25.5,76,0.0,934.6,6.6,33.5,98,42.8,40.9,9.4,282.0,120.0,11.7,7,5,7,1,2026-06-22T01:16:30.797195+05:30
Jamshedpur,Jharkhand,22.8046,86.2029,27.1,94,0.1,987.7,6.7,38.5,128,51.5,48.2,20.9,496.0,76.0,22.2,10,5,7,1,2026-06-22T01:16:30.797202+05:30
Dhanbad,Jharkhand,23.7957,86.4304,26.7,90,0.0,976.1,7.25,37.1,145,64.0,61.9,39.0,344.0,78.0,92.7,7,5,7,1,2026-06-22T01:16:30.797208+05:30
Bokaro,Jharkhand,23.6693,86.1511,27.1,86,0.0,980.0,6.85,35.3,118,53.7,51.2,25.9,366.0,97.0,63.6,7,5,7,1,2026-06-22T01:16:30.797215+05:30
Bhubaneswar,Odisha,20.2961,85.8245,28.7,87,0.0,999.0,8.35,36.4,97,30.9,29.3,10.8,273.0,87.0,7.0,7,5,7,1,2026-06-22T01:16:30.797220+05:30
Cuttack,Odisha,20.4625,85.8828,28.3,90,0.0,1000.6,8.35,37.8,97,30.9,29.3,10.8,281.0,87.0,7.0,7,5,4,1,2026-06-22T01:16:30.797227+05:30
Rourkela,Odisha,22.2604,84.8536,27.6,77,0.0,981.5,8.9,51.8,111,46.3,42.0,15.3,529.0,81.0,8.3,7,5,7,1,2026-06-22T01:16:30.797233+05:30
Raipur,Chhattisgarh,21.2514,81.6296,31.7,48,0.0,971.8,8.95,42.8,82,38.9,33.9,32.5,487.0,49.0,43.9,0,5,7,1,2026-06-22T01:16:30.797239+05:30
Bhilai,Chhattisgarh,21.1938,81.3509,31.1,52,0.0,972.4,8.95,42.8,77,43.3,36.3,32.2,832.0,40.0,37.9,0,5,7,1,2026-06-22T01:16:30.797245+05:30
Guwahati,Assam,26.1158,91.7086,25.5,95,0.1,998.7,6.8,26.3,70,19.8,17.7,10.1,352.0,55.0,3.1,10,5,7,1,2026-06-22T01:16:30.797251+05:30
Agartala,Tripura,23.8315,91.2868,25.4,96,0.0,1003.9,8.4,32.8,59,12.9,12.1,8.7,217.0,67.0,2.1,7,5,4,1,2026-06-22T01:16:30.797258+05:30
Shillong,Meghalaya,25.5788,91.8933,19.8,94,0.0,855.4,5.25,32.4,37,2.1,1.6,5.2,200.0,68.0,1.7,3,10,3,1,2026-06-22T01:16:30.797264+05:30
Imphal,Manipur,24.817,93.9368,22.2,98,0.1,921.5,7.55,32.4,59,16.6,15.1,7.3,508.0,48.0,2.2,6,5,7,1,2026-06-22T01:16:30.797270+05:30
Aizawl,Mizoram,23.7271,92.7176,19.2,98,0.0,890.6,6.8,34.9,27,3.2,3.0,2.3,158.0,49.0,0.3,3,10,7,1,2026-06-22T01:16:30.797276+05:30
Kohima,Nagaland,25.6701,94.1077,19.2,94,0.0,853.2,7.65,23.4,40,8.2,6.6,3.7,250.0,58.0,0.9,3,10,7,1,2026-06-22T01:16:30.797283+05:30
Gangtok,Sikkim,27.3314,88.6138,18.4,92,1.2,835.3,8.4,30.6,76,2.5,2.2,3.5,348.0,128.0,5.1,6,10,7,1,2026-06-22T01:16:30.797289+05:30
Siliguri,West Bengal,26.7271,88.3953,24.2,99,0.1,990.1,7.85,25.6,62,10.4,8.2,8.1,404.0,91.0,3.8,6,5,7,1,2026-06-22T01:16:34.037249+05:30
Durgapur,West Bengal,23.5204,87.3119,27.0,89,0.0,991.4,8.9,29.5,154,65.4,63.8,25.7,1176.0,77.0,39.2,7,5,7,1,2026-06-22T01:16:34.037278+05:30
Asansol,West Bengal,23.6739,86.9524,26.9,90,0.0,989.8,8.85,29.9,150,61.2,59.6,32.2,771.0,66.0,52.5,7,5,7,1,2026-06-22T01:16:34.037289+05:30
Pondicherry,Puducherry,11.9139,79.8145,28.3,85,0.0,1007.8,8.1,40.0,60,15.4,12.7,13.3,210.0,61.0,13.9,7,5,4,1,2026-06-22T01:16:34.037297+05:30
Port Blair,Andaman and Nicobar Islands,11.6234,92.7265,26.6,88,0.0,1009.0,8.75,38.9,48,9.0,5.1,0.2,85.0,45.0,0.3,7,0,4,1,2026-06-22T01:16:34.037304+05:30
Haridwar,Uttarakhand,29.9457,78.1642,27.4,74,0.0,968.3,7.15,38.5,133,172.3,67.1,32.2,535.0,53.0,12.3,7,5,7,1,2026-06-22T01:16:34.037312+05:30
Rishikesh,Uttarakhand,30.0869,78.2676,24.7,84,0.0,961.0,7.15,30.2,114,52.3,32.2,16.8,367.0,100.0,8.6,3,5,7,1,2026-06-22T01:16:34.037319+05:30
Nainital,Uttarakhand,29.3919,79.4542,15.6,93,0.0,802.5,6.9,34.9,119,107.1,49.8,17.2,369.0,86.0,7.2,3,10,7,0,2026-06-22T01:16:34.037327+05:30
Mussoorie,Uttarakhand,30.4599,78.0664,16.9,76,0.0,800.4,7.35,38.9,84,35.6,31.4,30.1,353.0,62.0,8.4,3,5,7,0,2026-06-22T01:16:34.037334+05:30
Dharamshala,Himachal Pradesh,32.219,76.3234,22.3,51,0.0,865.7,6.6,42.1,42,13.5,12.1,16.4,268.0,28.0,0.4,0,5,7,0,2026-06-22T01:16:34.037341+05:30
Dalhousie,Himachal Pradesh,32.5387,75.971,14.4,80,0.0,800.2,7.15,32.8,62,28.1,24.6,31.2,288.0,51.0,2.6,3,5,7,0,2026-06-22T01:16:34.037349+05:30
Patiala,Punjab,30.3398,76.3869,30.2,50,0.0,972.4,5.45,50.4,460,692.9,143.9,15.9,336.0,63.0,7.1,0,5,3,1,2026-06-22T01:16:34.037356+05:30
Bhatinda,Punjab,30.211,74.9455,29.7,53,0.0,977.9,8.05,60.8,145,81.5,49.9,40.2,326.0,33.0,5.5,4,5,7,1,2026-06-22T01:16:34.037363+05:30
Rohtak,Haryana,28.8955,76.6066,29.8,55,0.0,976.3,7.5,62.3,703,855.0,185.3,40.7,185.0,35.0,9.1,4,5,7,1,2026-06-22T01:16:34.037370+05:30
Panipat,Haryana,29.3909,76.9635,29.7,53,0.0,974.7,7.2,51.5,1855,1549.7,273.8,19.2,372.0,75.0,9.4,4,5,7,1,2026-06-22T01:16:34.037377+05:30
Mathura,Uttar Pradesh,27.4924,77.6737,29.9,54,0.0,981.8,8.05,65.2,739,661.2,96.9,23.4,170.0,42.0,5.0,4,5,7,1,2026-06-22T01:16:34.037384+05:30
Vrindavan,Uttar Pradesh,27.5823,77.7027,29.7,55,0.0,982.2,8.05,59.8,739,661.2,96.9,23.4,165.0,42.0,5.0,4,5,7,1,2026-06-22T01:16:34.037391+05:30
Ayodhya,Uttar Pradesh,26.7922,82.1998,32.8,52,0.0,989.4,8.05,28.4,163,191.4,76.8,18.3,219.0,52.0,7.1,0,5,7,1,2026-06-22T01:16:34.037397+05:30
Ratlam,Madhya Pradesh,23.3315,75.0367,28.6,61,0.0,952.2,8.45,44.3,66,25.1,17.9,5.2,150.0,67.0,6.4,7,5,7,1,2026-06-22T01:16:34.037404+05:30
Sagar,Madhya Pradesh,23.8388,78.7378,28.8,66,0.0,947.3,8.7,32.4,81,49.0,31.4,11.4,171.0,51.0,2.9,7,5,7,1,2026-06-22T01:16:34.037410+05:30
Satna,Madhya Pradesh,24.6005,80.8322,30.1,62,0.0,967.6,8.3,38.5,89,35.7,24.6,5.9,154.0,75.0,3.7,3,5,7,1,2026-06-22T01:16:34.037417+05:30
Akola,Maharashtra,20.7002,77.0082,32.5,46,0.1,972.1,8.85,42.8,58,31.1,24.7,25.5,129.0,38.0,7.7,3,5,7,1,2026-06-22T01:16:34.037425+05:30
Amravati,Maharashtra,20.9374,77.7796,31.6,48,0.0,964.7,8.7,42.1,60,36.7,28.8,25.2,148.0,37.0,6.8,0,5,7,1,2026-06-22T01:16:34.037432+05:30
Latur,Maharashtra,18.4088,76.5604,29.1,56,0.0,938.2,8.05,46.1,57,10.7,9.2,6.0,180.0,52.0,1.8,4,5,7,1,2026-06-22T01:16:34.037439+05:30
Nanded,Maharashtra,19.1383,77.3091,25.8,89,0.5,966.3,8.85,52.9,61,22.0,18.3,8.4,218.0,71.0,6.2,10,5,7,1,2026-06-22T01:16:34.037446+05:30
Gulbarga,Karnataka,17.3297,76.8343,29.0,61,0.0,957.4,8.9,52.9,49,6.5,5.8,6.1,135.0,59.0,1.9,7,5,7,1,2026-06-22T01:16:34.037452+05:30
Bidar,Karnataka,17.9104,77.5199,27.6,62,0.0,934.0,8.95,58.3,68,25.1,20.7,16.9,192.0,52.0,4.0,7,5,7,1,2026-06-22T01:16:34.037459+05:30
Hospet,Karnataka,15.2689,76.3909,25.4,81,0.0,955.0,8.95,44.6,27,3.9,3.4,5.1,144.0,40.0,1.5,7,5,7,1,2026-06-22T01:16:34.037465+05:30
Tirupur,Tamil Nadu,11.1085,77.3411,24.4,89,0.0,974.8,8.9,60.1,42,10.9,10.2,13.7,140.0,32.0,4.6,3,5,7,1,2026-06-22T01:16:34.037472+05:30
Alappuzha,Kerala,9.4981,76.3388,24.9,96,0.0,1010.1,7.75,35.3,33,9.6,7.7,7.2,85.0,38.0,2.8,3,0,4,1,2026-06-22T01:16:34.037478+05:30
Munnar,Kerala,10.0889,77.0595,17.4,99,0.0,856.4,6.3,38.9,29,4.5,4.3,6.6,101.0,31.0,2.0,3,10,7,1,2026-06-22T01:16:34.037486+05:30
Silchar,Assam,24.8333,92.7789,25.1,97,0.3,1003.4,8.6,33.1,62,17.2,14.1,4.9,262.0,82.0,2.9,10,5,4,1,2026-06-22T01:16:34.037492+05:30
Dibrugarh,Assam,27.4728,94.912,25.2,98,0.2,992.7,4.95,26.6,67,16.6,14.7,8.2,222.0,76.0,1.5,10,5,3,1,2026-06-22T01:16:34.037498+05:30
