city,state,latitude,longitude,temp,humidity,rain,pressure,uv_index,wind_gusts,aqi,pm10,pm2_5,mosquito_risk,arthritis_risk,migraine_risk,frizz_risk,updated_at
Delhi,Delhi,28.6139,77.209,25.4,51,0.0,985.8,5.9,22.3,251,120.1,43.9,4,5,3,0,2026-03-17T11:31:27.487956+05:30
Mumbai,Maharashtra,19.076,72.8777,26.6,75,0.0,1011.1,7.7,18.7,105,112.5,45.3,7,0,4,1,2026-03-17T11:31:27.488016+05:30
Bangalore,Karnataka,12.9716,77.5946,28.3,52,0.0,914.2,9.35,44.6,97,32.6,29.8,4,5,7,1,2026-03-17T11:31:27.488032+05:30
Hyderabad,Telangana,17.385,78.4867,30.0,46,0.0,956.0,8.05,21.2,90,23.5,18.3,4,5,7,1,2026-03-17T11:31:27.488042+05:30
Chennai,Tamil Nadu,13.0827,80.2707,32.0,53,0.0,1010.3,9.1,31.7,33,10.9,7.8,0,0,4,1,2026-03-17T11:31:27.488052+05:30
Kolkata,West Bengal,22.5726,88.3639,30.8,64,0.0,1009.2,7.9,53.6,88,46.3,39.5,3,0,4,1,2026-03-17T11:31:27.488062+05:30
Pune,Maharashtra,18.5204,73.8567,32.8,19,0.0,950.8,8.25,34.9,87,34.2,16.2,0,5,7,0,2026-03-17T11:31:27.488082+05:30
Ahmedabad,Gujarat,23.0225,72.5714,31.2,44,0.0,1004.4,7.5,22.3,56,42.7,16.4,0,5,4,1,2026-03-17T11:31:27.488091+05:30
Jaipur,Rajasthan,26.9124,75.7873,30.6,29,0.0,961.4,6.65,38.5,224,369.7,75.7,0,5,7,0,2026-03-17T11:31:27.488100+05:30
Lucknow,Uttar Pradesh,26.8467,80.9462,32.0,34,0.0,995.5,6.6,25.2,95,68.9,33.9,0,5,7,0,2026-03-17T11:31:27.488109+05:30
Kanpur,Uttar Pradesh,26.4499,80.3319,32.6,31,0.0,993.5,6.7,21.6,121,98.7,44.0,0,5,7,0,2026-03-17T11:31:27.488117+05:30
Chandigarh,Chandigarh,30.7333,76.7794,25.3,43,0.0,971.7,5.5,12.2,62,99.7,23.3,4,5,3,0,2026-03-17T11:31:27.488125+05:30
Srinagar,Jammu and Kashmir,34.0837,74.7973,9.7,66,0.0,842.5,7.0,13.0,81,28.5,20.5,3,5,7,0,2026-03-17T11:31:27.488133+05:30
Jammu,Jammu and Kashmir,32.7266,74.857,24.7,37,0.0,976.3,6.7,16.9,76,31.0,14.2,0,5,7,0,2026-03-17T11:31:27.488142+05:30
Amritsar,Punjab,31.634,74.8723,23.2,48,0.0,984.9,6.45,16.6,85,63.3,22.5,0,5,7,0,2026-03-17T11:31:27.488149+05:30
Ludhiana,Punjab,30.901,75.8573,23.5,44,0.0,982.3,6.25,16.2,75,56.3,27.1,0,5,7,0,2026-03-17T11:31:27.488156+05:30
Jalandhar,Punjab,31.326,75.5762,22.4,46,0.0,983.9,6.5,16.6,74,64.5,27.9,0,5,7,0,2026-03-17T11:31:27.488166+05:30
Dehradun,Uttarakhand,30.6284,78.0322,15.3,36,0.0,831.1,4.85,23.8,37,90.3,14.1,0,5,3,0,2026-03-17T11:31:27.488173+05:30
Shimla,Himachal Pradesh,31.1048,77.1734,14.6,40,0.0,785.5,5.4,23.0,44,87.3,14.4,0,5,3,0,2026-03-17T11:31:27.488180+05:30
Manali,Himachal Pradesh,32.2396,77.1887,14.7,20,0.0,818.8,6.95,38.2,51,19.5,5.8,0,5,7,1,2026-03-17T11:31:27.488188+05:30
Gurgaon,Haryana,28.4595,77.0266,25.5,52,0.0,984.4,6.25,22.7,1464,726.4,100.8,4,5,7,0,2026-03-17T11:31:27.488197+05:30
Noida,Uttar Pradesh,28.5355,77.391,26.0,50,0.0,987.3,5.9,22.3,1464,726.4,100.8,4,5,3,0,2026-03-17T11:31:27.488204+05:30
Ghaziabad,Uttar Pradesh,28.6692,77.4538,25.1,56,0.0,985.5,5.8,19.8,122,117.8,39.9,4,5,3,0,2026-03-17T11:31:27.488211+05:30
Faridabad,Haryana,28.4089,77.3178,26.4,50,0.0,986.4,6.2,21.2,1464,726.4,100.8,4,5,7,0,2026-03-17T11:31:27.488218+05:30
Meerut,Uttar Pradesh,28.9845,77.7064,25.9,49,0.0,984.3,5.65,15.1,122,117.8,39.9,4,5,3,0,2026-03-17T11:31:27.488225+05:30
Agra,Uttar Pradesh,27.1767,78.0081,29.6,43,0.0,989.8,6.45,16.6,521,383.7,75.2,4,5,7,0,2026-03-17T11:31:27.488233+05:30
Varanasi,Uttar Pradesh,25.3176,82.9739,33.5,36,0.0,999.6,7.35,21.6,151,67.5,28.5,0,5,7,1,2026-03-17T11:31:27.488242+05:30
Prayagraj,Uttar Pradesh,25.4358,81.8463,32.2,43,0.0,998.1,7.2,20.9,134,69.6,34.9,0,5,7,1,2026-03-17T11:31:27.488251+05:30
Gorakhpur,Uttar Pradesh,26.7606,83.3732,31.6,38,0.0,999.5,7.05,23.0,91,63.3,32.4,0,5,7,0,2026-03-17T11:31:27.488258+05:30
Bareilly,Uttar Pradesh,28.367,79.4304,26.7,43,0.0,989.7,5.45,16.6,99,65.4,27.0,4,5,3,0,2026-03-17T11:31:27.488266+05:30
Aligarh,Uttar Pradesh,27.8974,78.088,28.7,43,0.0,987.9,6.15,18.0,334,272.9,60.8,4,5,7,0,2026-03-17T11:31:27.488272+05:30
Moradabad,Uttar Pradesh,28.8386,78.7733,25.8,48,0.0,986.6,5.45,16.2,109,56.6,30.4,4,5,3,0,2026-03-17T11:31:27.488279+05:30
Saharanpur,Uttar Pradesh,29.9637,77.546,24.5,39,0.0,978.8,4.55,14.8,125,39.2,19.4,0,5,3,0,2026-03-17T11:31:27.488286+05:30
Jhansi,Uttar Pradesh,25.4484,78.5685,33.8,20,0.0,979.1,7.2,25.2,87,34.7,15.5,0,5,7,0,2026-03-17T11:31:30.782581+05:30
Surat,Gujarat,21.1702,72.8311,28.2,71,0.0,1009.7,7.4,29.5,96,64.7,36.0,7,0,4,1,2026-03-17T11:31:30.782613+05:30
Vadodara,Gujarat,22.3072,73.1812,32.6,46,0.0,1006.8,7.55,28.1,72,36.3,19.2,0,5,4,1,2026-03-17T11:31:30.782623+05:30
Rajkot,Gujarat,22.3039,70.8022,32.0,36,0.0,996.3,7.35,24.5,55,54.4,14.4,0,5,7,0,2026-03-17T11:31:30.782631+05:30
Thane,Maharashtra,19.2183,72.9781,29.8,57,0.0,1010.5,7.7,30.2,105,112.5,45.3,4,0,4,1,2026-03-17T11:31:30.782638+05:30
Nagpur,Maharashtra,21.1458,79.0882,33.1,32,0.0,975.9,8.05,18.0,108,52.9,44.9,0,5,7,0,2026-03-17T11:31:30.782645+05:30
Nashik,Maharashtra,19.9975,73.7898,29.3,30,0.0,948.3,7.9,27.4,72,79.4,16.9,4,5,7,0,2026-03-17T11:31:30.782653+05:30
Aurangabad,Maharashtra,19.8762,75.3433,32.2,20,0.0,947.0,8.4,27.4,61,40.5,13.5,0,5,7,0,2026-03-17T11:31:30.782661+05:30
Solapur,Maharashtra,17.6599,75.9064,32.3,32,0.0,959.7,8.6,26.6,90,39.5,28.5,0,5,7,0,2026-03-17T11:31:30.782669+05:30
Kolhapur,Maharashtra,16.705,74.2433,29.7,35,0.0,950.5,8.75,37.4,89,30.0,23.2,4,5,7,0,2026-03-17T11:31:30.782676+05:30
Goa,Goa,15.2993,74.124,30.8,58,0.0,1000.7,8.75,36.0,74,44.9,21.0,0,5,4,1,2026-03-17T11:31:30.782683+05:30
Jodhpur,Rajasthan,26.2389,73.0243,30.7,29,0.0,984.5,6.1,30.6,111,167.6,47.3,0,5,7,0,2026-03-17T11:31:30.782690+05:30
Udaipur,Rajasthan,24.5854,73.7125,31.9,20,0.0,948.0,7.85,34.2,38,42.1,11.1,0,5,7,0,2026-03-17T11:31:30.782697+05:30
Kota,Rajasthan,25.2138,75.8648,33.7,19,0.0,980.0,7.25,28.8,80,308.3,63.3,0,5,7,0,2026-03-17T11:31:30.782704+05:30
Bikaner,Rajasthan,28.0229,73.3119,25.8,46,0.0,984.7,6.8,19.8,86,125.3,34.5,4,5,7,0,2026-03-17T11:31:30.782711+05:30
Ajmer,Rajasthan,26.4499,74.6399,29.9,29,0.0,956.0,6.9,37.4,121,244.0,53.6,4,5,7,0,2026-03-17T11:31:30.782717+05:30
Gwalior,Madhya Pradesh,26.2183,78.1828,31.3,33,0.0,984.4,6.9,34.9,88,102.7,32.2,0,5,7,0,2026-03-17T11:31:30.782724+05:30
Indore,Madhya Pradesh,22.7196,75.8577,31.8,22,0.0,950.4,7.75,31.7,57,24.2,10.4,0,5,7,0,2026-03-17T11:31:30.782732+05:30
Bhopal,Madhya Pradesh,23.2599,77.4126,32.8,20,0.0,956.0,7.7,32.0,46,13.2,7.7,0,5,7,0,2026-03-17T11:31:30.782739+05:30
Jabalpur,Madhya Pradesh,23.1815,79.9864,31.5,32,0.0,964.2,7.8,32.0,56,12.0,8.3,0,5,7,0,2026-03-17T11:31:30.782746+05:30
Ujjain,Madhya Pradesh,23.1765,75.7885,30.9,32,0.0,956.0,7.65,28.4,56,28.2,11.1,0,5,7,0,2026-03-17T11:31:30.782754+05:30
Visakhapatnam,Andhra Pradesh,17.6868,83.2185,30.8,54,0.0,1007.8,8.7,37.4,57,16.6,13.0,0,5,4,1,2026-03-17T11:31:30.782761+05:30
Vijayawada,Andhra Pradesh,16.5062,80.648,30.3,60,0.0,1006.2,8.8,27.0,50,11.9,9.1,0,5,4,1,2026-03-17T11:31:30.782768+05:30
Guntur,Andhra Pradesh,16.3067,80.4365,31.4,54,0.0,1007.2,8.8,31.0,48,10.9,8.1,0,5,4,1,2026-03-17T11:31:30.782774+05:30
Nellore,Andhra Pradesh,14.4426,79.9865,31.9,54,0.0,1009.0,8.95,30.6,38,14.0,11.2,0,0,4,1,2026-03-17T11:31:30.782782+05:30
Kurnool,Andhra Pradesh,15.8281,78.0373,33.2,43,0.0,979.5,8.4,37.4,73,19.3,16.4,0,5,7,1,2026-03-17T11:31:30.782789+05:30
Kakinada,Andhra Pradesh,16.9891,82.2475,31.3,56,0.0,1011.3,8.75,29.2,41,11.8,8.6,0,0,4,1,2026-03-17T11:31:30.782796+05:30
Tirupati,Andhra Pradesh,13.6288,79.4192,30.7,54,0.0,994.8,9.1,28.1,54,11.2,9.3,0,5,7,1,2026-03-17T11:31:30.782803+05:30
Warangal,Telangana,17.9689,79.5941,29.4,61,0.0,982.5,8.5,29.9,67,13.4,11.3,7,5,7,1,2026-03-17T11:31:30.782809+05:30
Nizamabad,Telangana,18.6725,78.0941,34.2,29,0.0,967.4,8.45,26.3,123,32.8,28.2,0,5,7,0,2026-03-17T11:31:30.782816+05:30
Mysore,Karnataka,12.2958,76.6396,29.3,48,0.0,930.7,9.35,39.2,124,23.5,21.7,4,5,7,1,2026-03-17T11:31:30.782823+05:30
Mangalore,Karnataka,12.9141,74.856,27.3,81,0.0,1009.1,8.95,20.9,103,39.2,27.7,7,0,4,1,2026-03-17T11:31:30.782829+05:30
Hubli-Dharwad,Karnataka,15.3647,75.124,30.6,36,0.0,943.5,8.6,25.6,80,28.7,23.5,0,5,7,0,2026-03-17T11:31:30.782836+05:30
Belgaum,Karnataka,15.8497,74.4977,29.2,29,0.0,928.6,8.95,35.3,77,29.7,22.2,4,5,7,0,2026-03-17T11:31:34.152742+05:30
Coimbatore,Tamil Nadu,11.0168,76.9558,31.6,45,0.0,964.1,9.3,34.9,100,23.4,21.4,0,5,7,1,2026-03-17T11:31:34.152775+05:30
Madurai,Tamil Nadu,9.9252,78.1198,32.0,53,0.0,995.0,7.55,25.9,48,10.0,7.9,0,5,7,1,2026-03-17T11:31:34.152785+05:30
Trichy,Tamil Nadu,10.7905,78.7047,31.5,56,0.0,1002.2,9.2,20.9,53,12.5,10.2,0,5,4,1,2026-03-17T11:31:34.152794+05:30
Salem,Tamil Nadu,11.6643,78.146,31.4,53,0.0,979.8,9.25,19.1,71,20.5,18.5,0,5,7,1,2026-03-17T11:31:34.152801+05:30
Tirunelveli,Tamil Nadu,8.7139,77.7567,33.3,48,0.0,1004.9,7.05,39.2,61,14.1,12.4,0,5,4,1,2026-03-17T11:31:34.152808+05:30
Vellore,Tamil Nadu,12.9165,79.1325,31.6,46,0.0,987.4,9.15,32.0,62,20.0,17.6,0,5,7,1,2026-03-17T11:31:34.152815+05:30
Erode,Tamil Nadu,11.341,77.7172,32.4,53,0.0,991.3,9.25,28.8,50,12.7,10.9,0,5,7,1,2026-03-17T11:31:34.152822+05:30
Kochi,Kerala,9.9312,76.2673,28.2,77,0.0,1010.2,8.9,32.4,86,32.4,29.3,7,0,4,1,2026-03-17T11:31:34.152829+05:30
Thiruvananthapuram,Kerala,8.5241,76.9366,27.7,80,0.0,1009.3,8.5,24.8,54,16.2,14.8,7,0,4,1,2026-03-17T11:31:34.152837+05:30
Kozhikode,Kerala,11.2588,75.7804,29.5,73,0.0,1009.6,8.9,29.9,99,38.5,33.9,7,0,4,1,2026-03-17T11:31:34.152844+05:30
Thrissur,Kerala,10.5276,76.2144,31.8,62,0.0,1008.6,8.85,34.2,87,37.1,33.4,3,0,4,1,2026-03-17T11:31:34.152850+05:30
Kannur,Kerala,11.8745,75.3704,30.5,64,0.0,1009.2,9.0,27.4,111,40.6,33.8,3,0,4,1,2026-03-17T11:31:34.152858+05:30
Patna,Bihar,25.5941,85.1376,32.4,41,0.0,1002.6,7.5,27.0,152,75.9,46.7,0,5,4,1,2026-03-17T11:31:34.152864+05:30
Gaya,Bihar,24.7914,85.0002,33.1,38,0.0,996.2,7.6,27.7,103,46.6,35.6,0,5,7,1,2026-03-17T11:31:34.152871+05:30
Muzaffarpur,Bihar,26.1209,85.3647,31.1,49,0.0,1002.7,7.45,27.7,155,76.6,40.0,0,5,4,1,2026-03-17T11:31:34.152877+05:30
Bhagalpur,Bihar,25.2425,87.0117,30.8,57,0.0,1003.4,7.5,28.8,143,60.3,51.5,0,5,4,1,2026-03-17T11:31:34.152883+05:30
Ranchi,Jharkhand,23.3441,85.3096,27.7,54,0.0,941.2,8.2,54.7,114,54.1,46.4,4,5,7,1,2026-03-17T11:31:34.152890+05:30
Jamshedpur,Jharkhand,22.8046,86.2029,31.4,46,0.0,993.8,8.15,36.0,128,77.1,66.4,0,5,7,1,2026-03-17T11:31:34.152896+05:30
Dhanbad,Jharkhand,23.7957,86.4304,33.3,33,0.0,982.4,8.0,37.8,152,71.0,62.4,0,5,7,0,2026-03-17T11:31:34.152903+05:30
Bokaro,Jharkhand,23.6693,86.1511,33.6,30,0.0,986.6,8.0,40.7,136,62.9,53.7,0,5,7,0,2026-03-17T11:31:34.152910+05:30
Bhubaneswar,Odisha,20.2961,85.8245,31.1,58,0.0,1006.5,8.05,36.7,67,31.5,24.1,0,5,4,1,2026-03-17T11:31:34.152916+05:30
Cuttack,Odisha,20.4625,85.8828,31.3,58,0.0,1008.2,8.0,33.8,67,31.5,24.1,0,0,4,1,2026-03-17T11:31:34.152922+05:30
Rourkela,Odisha,22.2604,84.8536,31.8,47,0.0,989.0,8.05,45.0,150,71.9,62.9,0,5,7,1,2026-03-17T11:31:34.152929+05:30
Raipur,Chhattisgarh,21.2514,81.6296,33.7,39,0.0,977.3,8.15,43.2,146,45.6,37.8,0,5,7,1,2026-03-17T11:31:34.152934+05:30
Bhilai,Chhattisgarh,21.1938,81.3509,34.3,39,0.0,977.6,8.15,40.0,135,39.3,32.6,0,5,7,1,2026-03-17T11:31:34.152940+05:30
Guwahati,Assam,26.1158,91.7086,22.5,83,0.0,1004.3,7.5,46.4,83,31.4,24.7,3,5,4,1,2026-03-17T11:31:34.152947+05:30
Agartala,Tripura,23.8315,91.2868,30.3,54,0.0,1009.4,7.15,43.6,68,24.4,20.8,0,0,4,1,2026-03-17T11:31:34.152953+05:30
Shillong,Meghalaya,25.5788,91.8933,16.5,69,0.0,857.7,7.45,77.8,59,23.1,16.6,3,5,7,0,2026-03-17T11:31:34.152959+05:30
Imphal,Manipur,24.817,93.9368,19.1,80,0.0,926.3,8.05,91.4,106,32.6,24.5,3,5,7,0,2026-03-17T11:31:34.152965+05:30
Aizawl,Mizoram,23.7271,92.7176,22.4,56,0.0,897.0,8.1,61.9,98,27.3,19.3,0,5,7,0,2026-03-17T11:31:34.152972+05:30
Kohima,Nagaland,25.6701,94.1077,18.1,58,0.0,856.7,7.95,102.2,88,31.4,22.3,0,5,7,0,2026-03-17T11:31:34.152978+05:30
Gangtok,Sikkim,27.3314,88.6138,17.9,50,0.0,838.2,7.55,19.4,87,45.3,18.0,0,5,7,0,2026-03-17T11:31:34.152984+05:30
Siliguri,West Bengal,26.7271,88.3953,22.6,67,0.0,996.2,7.45,42.5,132,61.5,38.5,3,5,7,1,2026-03-17T11:31:37.433669+05:30
Durgapur,West Bengal,23.5204,87.3119,31.5,45,0.0,997.9,8.05,33.5,154,82.0,72.9,0,5,7,1,2026-03-17T11:31:37.433703+05:30
Asansol,West Bengal,23.6739,86.9524,32.3,44,0.0,996.3,8.0,33.8,146,76.4,67.5,0,5,7,1,2026-03-17T11:31:37.433715+05:30
Pondicherry,Puducherry,11.9139,79.8145,32.1,54,0.0,1010.9,9.05,27.4,31,9.0,6.1,0,0,4,1,2026-03-17T11:31:37.433724+05:30
Port Blair,Andaman and Nicobar Islands,11.6234,92.7265,29.0,70,0.0,1009.3,9.0,20.5,82,14.8,11.8,7,0,4,1,2026-03-17T11:31:37.433733+05:30
Haridwar,Uttarakhand,29.9457,78.1642,25.3,38,0.0,977.3,4.2,18.4,64,39.5,11.0,4,5,3,0,2026-03-17T11:31:37.433742+05:30
Rishikesh,Uttarakhand,30.0869,78.2676,24.8,33,0.0,969.8,4.4,19.8,54,134.6,20.1,0,5,3,0,2026-03-17T11:31:37.433751+05:30
Nainital,Uttarakhand,29.3919,79.4542,20.1,35,0.0,808.5,5.3,37.8,59,95.9,17.1,0,5,3,0,2026-03-17T11:31:37.433760+05:30
Mussoorie,Uttarakhand,30.4599,78.0664,16.7,39,0.0,804.0,4.85,29.5,56,153.2,22.2,0,5,3,0,2026-03-17T11:31:37.433769+05:30
Dharamshala,Himachal Pradesh,32.219,76.3234,17.9,41,0.0,870.2,5.1,26.3,49,45.2,9.0,0,5,3,0,2026-03-17T11:31:37.433776+05:30
Dalhousie,Himachal Pradesh,32.5387,75.971,17.0,21,0.0,804.9,5.05,24.1,57,83.6,17.3,0,5,3,1,2026-03-17T11:31:37.433784+05:30
Patiala,Punjab,30.3398,76.3869,23.8,49,0.0,981.4,5.55,16.9,85,117.1,31.9,0,5,3,0,2026-03-17T11:31:37.433791+05:30
Bhatinda,Punjab,30.211,74.9455,23.7,46,0.0,987.5,6.5,18.4,94,96.4,27.6,0,5,7,0,2026-03-17T11:31:37.433798+05:30
Rohtak,Haryana,28.8955,76.6066,25.0,53,0.0,984.7,6.15,18.7,476,165.3,49.5,4,5,7,0,2026-03-17T11:31:37.433805+05:30
Panipat,Haryana,29.3909,76.9635,25.8,47,0.0,983.4,5.75,15.1,264,114.8,42.1,4,5,3,0,2026-03-17T11:31:37.433811+05:30
Mathura,Uttar Pradesh,27.4924,77.6737,29.0,42,0.0,988.8,6.45,20.5,511,640.7,96.6,4,5,7,0,2026-03-17T11:31:37.433817+05:30
Vrindavan,Uttar Pradesh,27.5823,77.7027,29.0,43,0.0,989.5,6.35,20.2,511,640.7,96.6,4,5,7,0,2026-03-17T11:31:37.433823+05:30
Ayodhya,Uttar Pradesh,26.7922,82.1998,32.8,33,0.0,997.3,6.85,25.9,99,65.0,31.4,0,5,7,0,2026-03-17T11:31:37.433830+05:30
Ratlam,Madhya Pradesh,23.3315,75.0367,30.5,39,0.0,956.9,7.6,35.3,55,31.4,11.3,0,5,7,0,2026-03-17T11:31:37.433836+05:30
Sagar,Madhya Pradesh,23.8388,78.7378,32.0,23,0.0,952.5,7.65,31.7,38,22.1,7.6,0,5,7,0,2026-03-17T11:31:37.433842+05:30
Satna,Madhya Pradesh,24.6005,80.8322,34.2,22,0.0,973.3,7.55,34.9,94,45.3,24.6,0,5,7,0,2026-03-17T11:31:37.433849+05:30
Akola,Maharashtra,20.7002,77.0082,34.1,29,0.0,977.7,8.1,25.6,71,39.9,21.7,0,5,7,0,2026-03-17T11:31:37.433856+05:30
Amravati,Maharashtra,20.9374,77.7796,35.0,23,0.0,970.0,8.05,32.4,80,30.4,17.3,0,5,7,0,2026-03-17T11:31:37.433863+05:30
Latur,Maharashtra,18.4088,76.5604,31.8,31,0.0,942.4,8.5,27.7,90,47.3,32.9,0,5,7,0,2026-03-17T11:31:37.433871+05:30
Nanded,Maharashtra,19.1383,77.3091,34.4,28,0.0,971.4,8.3,20.9,100,43.5,25.7,0,5,7,0,2026-03-17T11:31:37.433877+05:30
Gulbarga,Karnataka,17.3297,76.8343,32.1,37,0.0,961.4,8.45,37.4,112,36.1,31.4,0,5,7,0,2026-03-17T11:31:37.433883+05:30
Bidar,Karnataka,17.9104,77.5199,27.8,48,0.0,938.6,7.85,33.8,115,29.5,24.2,4,5,7,0,2026-03-17T11:31:37.433890+05:30
Hospet,Karnataka,15.2689,76.3909,31.3,46,0.0,958.2,8.8,23.8,114,38.4,31.7,0,5,7,1,2026-03-17T11:31:37.433896+05:30
Tirupur,Tamil Nadu,11.1085,77.3411,31.8,48,0.0,977.5,9.3,32.0,75,19.8,17.6,0,5,7,1,2026-03-17T11:31:37.433901+05:30
Alappuzha,Kerala,9.4981,76.3388,28.1,80,0.0,1010.2,9.05,30.6,80,30.2,27.4,7,0,4,1,2026-03-17T11:31:37.433907+05:30
Munnar,Kerala,10.0889,77.0595,28.7,46,0.0,860.4,9.6,32.4,79,17.7,15.7,4,5,7,0,2026-03-17T11:31:37.433914+05:30
Silchar,Assam,24.8333,92.7789,21.1,75,0.0,1010.2,7.9,49.7,83,25.8,19.6,3,0,4,1,2026-03-17T11:31:37.433920+05:30
Dibrugarh,Assam,27.4728,94.912,20.3,83,0.0,998.9,7.4,51.8,95,46.1,33.6,3,5,7,1,2026-03-17T11:31:37.433926+05:30
