city,state,latitude,longitude,temp,humidity,rain,pressure,uv_index,wind_gusts,aqi,pm10,pm2_5,mosquito_risk,arthritis_risk,migraine_risk,frizz_risk,updated_at
Delhi,Delhi,28.6139,77.209,25.9,53,0.0,986.7,6.0,25.9,166,383.7,80.1,4,5,3,0,2026-03-08T20:57:38.159135+05:30
Mumbai,Maharashtra,19.076,72.8777,28.9,66,0.0,1009.4,7.5,25.6,225,45.9,44.2,7,0,4,1,2026-03-08T20:57:38.159174+05:30
Bangalore,Karnataka,12.9716,77.5946,25.8,38,0.0,913.2,9.25,28.4,158,39.9,35.3,4,5,7,0,2026-03-08T20:57:38.159206+05:30
Hyderabad,Telangana,17.385,78.4867,27.6,48,0.0,955.9,8.55,24.5,136,40.6,33.1,4,5,7,0,2026-03-08T20:57:38.159217+05:30
Chennai,Tamil Nadu,13.0827,80.2707,27.5,72,0.0,1010.0,8.95,32.4,75,26.8,18.8,7,0,4,1,2026-03-08T20:57:38.159226+05:30
Kolkata,West Bengal,22.5726,88.3639,24.4,87,0.0,1011.1,7.3,15.8,151,65.7,60.8,3,0,4,1,2026-03-08T20:57:38.159236+05:30
Pune,Maharashtra,18.5204,73.8567,30.8,25,0.0,950.3,8.05,30.6,129,17.5,16.1,0,5,7,0,2026-03-08T20:57:38.159248+05:30
Ahmedabad,Gujarat,23.0225,72.5714,28.5,35,0.0,1005.4,7.35,21.2,142,26.5,24.0,4,5,4,0,2026-03-08T20:57:38.159256+05:30
Jaipur,Rajasthan,26.9124,75.7873,28.9,17,0.0,963.9,6.75,25.9,91,103.8,28.1,4,5,7,0,2026-03-08T20:57:38.159264+05:30
Lucknow,Uttar Pradesh,26.8467,80.9462,27.7,61,0.0,997.8,6.5,19.4,179,169.5,95.0,7,5,7,1,2026-03-08T20:57:38.159272+05:30
Kanpur,Uttar Pradesh,26.4499,80.3319,26.0,64,0.0,995.9,6.5,16.9,172,192.8,85.0,7,5,7,1,2026-03-08T20:57:38.159279+05:30
Chandigarh,Chandigarh,30.7333,76.7794,22.6,70,0.0,972.6,5.9,28.1,153,64.5,54.6,3,5,3,1,2026-03-08T20:57:38.159286+05:30
Srinagar,Jammu and Kashmir,34.0837,74.7973,12.0,71,0.0,843.9,6.8,17.6,118,68.7,54.2,3,5,7,0,2026-03-08T20:57:38.159293+05:30
Jammu,Jammu and Kashmir,32.7266,74.857,24.8,58,0.0,977.0,6.45,25.2,97,72.4,53.8,0,5,7,0,2026-03-08T20:57:38.159300+05:30
Amritsar,Punjab,31.634,74.8723,23.5,66,0.0,985.2,6.45,19.1,164,101.0,75.9,3,5,7,1,2026-03-08T20:57:38.159306+05:30
Ludhiana,Punjab,30.901,75.8573,25.1,71,0.0,983.1,6.15,25.2,171,97.8,62.2,7,5,7,1,2026-03-08T20:57:38.159315+05:30
Jalandhar,Punjab,31.326,75.5762,24.2,72,0.0,984.3,6.3,23.4,170,96.4,63.1,3,5,7,1,2026-03-08T20:57:38.159331+05:30
Dehradun,Uttarakhand,30.6284,78.0322,16.0,93,0.0,833.2,6.3,37.1,93,50.4,36.7,3,10,7,0,2026-03-08T20:57:38.159339+05:30
Shimla,Himachal Pradesh,31.1048,77.1734,14.1,82,0.0,787.6,6.3,46.4,101,42.4,24.7,3,10,7,0,2026-03-08T20:57:38.159346+05:30
Manali,Himachal Pradesh,32.2396,77.1887,16.5,67,0.0,825.0,8.05,30.6,92,33.6,15.9,3,5,7,0,2026-03-08T20:57:38.159352+05:30
Gurgaon,Haryana,28.4595,77.0266,23.3,60,0.0,985.1,6.1,20.5,353,586.7,103.6,0,5,7,0,2026-03-08T20:57:38.159359+05:30
Noida,Uttar Pradesh,28.5355,77.391,25.6,52,0.0,988.3,6.0,25.9,353,586.7,103.6,4,5,3,0,2026-03-08T20:57:38.159366+05:30
Ghaziabad,Uttar Pradesh,28.6692,77.4538,25.4,57,0.0,986.4,5.95,25.6,170,314.8,68.5,4,5,3,1,2026-03-08T20:57:38.159373+05:30
Faridabad,Haryana,28.4089,77.3178,23.4,57,0.0,987.4,6.05,22.0,353,586.7,103.6,0,5,7,0,2026-03-08T20:57:38.159379+05:30
Meerut,Uttar Pradesh,28.9845,77.7064,24.2,65,0.0,984.9,5.85,28.4,170,314.8,68.5,3,5,3,1,2026-03-08T20:57:38.159385+05:30
Agra,Uttar Pradesh,27.1767,78.0081,26.1,45,0.0,991.4,6.4,20.9,157,308.3,83.1,4,5,7,0,2026-03-08T20:57:38.159391+05:30
Varanasi,Uttar Pradesh,25.3176,82.9739,25.0,74,0.0,1002.0,7.2,11.2,174,120.6,111.5,7,5,4,1,2026-03-08T20:57:38.159403+05:30
Prayagraj,Uttar Pradesh,25.4358,81.8463,26.1,64,0.0,1000.6,7.05,13.3,178,129.0,116.4,7,5,4,1,2026-03-08T20:57:38.159410+05:30
Gorakhpur,Uttar Pradesh,26.7606,83.3732,25.2,70,0.0,1001.5,6.9,13.7,174,118.5,109.4,7,5,4,1,2026-03-08T20:57:38.159418+05:30
Bareilly,Uttar Pradesh,28.367,79.4304,25.9,62,0.0,990.4,6.2,21.6,171,118.3,83.6,7,5,7,1,2026-03-08T20:57:38.159424+05:30
Aligarh,Uttar Pradesh,27.8974,78.088,23.7,54,0.0,989.2,6.1,24.5,174,599.8,103.4,0,5,7,0,2026-03-08T20:57:38.159431+05:30
Moradabad,Uttar Pradesh,28.8386,78.7733,24.6,68,0.0,987.1,6.0,25.2,181,149.5,109.4,3,5,3,1,2026-03-08T20:57:38.159439+05:30
Saharanpur,Uttar Pradesh,29.9637,77.546,24.0,65,0.0,978.9,5.65,34.2,171,191.9,64.7,3,5,3,1,2026-03-08T20:57:38.159445+05:30
Jhansi,Uttar Pradesh,25.4484,78.5685,26.3,45,0.0,982.0,6.95,26.3,100,43.0,24.8,4,5,7,0,2026-03-08T20:57:41.368677+05:30
Surat,Gujarat,21.1702,72.8311,28.7,43,0.0,1008.5,7.25,27.0,136,34.7,34.2,4,0,4,0,2026-03-08T20:57:41.368705+05:30
Vadodara,Gujarat,22.3072,73.1812,30.2,34,0.0,1006.8,7.35,19.4,124,31.1,30.5,0,5,4,0,2026-03-08T20:57:41.368714+05:30
Rajkot,Gujarat,22.3039,70.8022,28.6,38,0.0,997.8,7.15,22.3,117,33.2,25.6,4,5,7,0,2026-03-08T20:57:41.368722+05:30
Thane,Maharashtra,19.2183,72.9781,29.4,51,0.0,1008.8,7.5,33.1,225,45.9,44.2,4,0,4,1,2026-03-08T20:57:41.368729+05:30
Nagpur,Maharashtra,21.1458,79.0882,26.2,41,0.0,976.0,7.9,25.6,115,38.8,29.8,4,5,7,0,2026-03-08T20:57:41.368736+05:30
Nashik,Maharashtra,19.9975,73.7898,27.9,24,0.0,948.0,7.7,27.7,130,17.1,15.9,4,5,7,0,2026-03-08T20:57:41.368743+05:30
Aurangabad,Maharashtra,19.8762,75.3433,29.9,17,0.0,946.6,8.2,31.7,126,27.5,23.1,4,5,7,0,2026-03-08T20:57:41.368750+05:30
Solapur,Maharashtra,17.6599,75.9064,28.6,46,0.0,958.4,8.45,19.8,153,23.3,20.4,4,5,7,0,2026-03-08T20:57:41.368757+05:30
Kolhapur,Maharashtra,16.705,74.2433,24.9,49,0.0,949.2,8.6,37.1,159,52.2,48.7,0,5,7,0,2026-03-08T20:57:41.368764+05:30
Goa,Goa,15.2993,74.124,27.6,80,0.0,999.8,8.65,35.6,124,42.3,37.0,7,5,7,1,2026-03-08T20:57:41.368771+05:30
Jodhpur,Rajasthan,26.2389,73.0243,28.1,33,0.0,987.1,7.05,18.7,85,41.9,17.5,4,5,7,0,2026-03-08T20:57:41.368777+05:30
Udaipur,Rajasthan,24.5854,73.7125,26.3,27,0.0,951.1,7.7,19.8,109,10.9,10.4,4,5,7,0,2026-03-08T20:57:41.368784+05:30
Kota,Rajasthan,25.2138,75.8648,28.1,42,0.0,982.6,7.05,11.2,104,26.0,26.0,4,5,7,0,2026-03-08T20:57:41.368790+05:30
Bikaner,Rajasthan,28.0229,73.3119,29.3,31,0.0,986.2,6.75,19.4,63,27.5,9.7,4,5,7,0,2026-03-08T20:57:41.368797+05:30
Ajmer,Rajasthan,26.4499,74.6399,27.5,27,0.0,958.9,7.05,23.0,83,23.7,16.0,4,5,7,0,2026-03-08T20:57:41.368803+05:30
Gwalior,Madhya Pradesh,26.2183,78.1828,27.5,46,0.0,987.3,6.65,23.4,90,99.2,29.3,4,5,7,0,2026-03-08T20:57:41.368809+05:30
Indore,Madhya Pradesh,22.7196,75.8577,22.8,46,0.0,951.1,7.6,23.0,99,25.3,23.9,0,5,7,0,2026-03-08T20:57:41.368815+05:30
Bhopal,Madhya Pradesh,23.2599,77.4126,23.4,52,0.0,957.1,7.5,22.7,97,30.7,19.4,0,5,7,0,2026-03-08T20:57:41.368822+05:30
Jabalpur,Madhya Pradesh,23.1815,79.9864,25.8,52,0.0,965.0,7.6,24.8,128,77.3,47.7,4,5,7,0,2026-03-08T20:57:41.368828+05:30
Ujjain,Madhya Pradesh,23.1765,75.7885,24.9,47,0.0,957.2,7.5,19.1,94,38.5,37.3,0,5,7,0,2026-03-08T20:57:41.368835+05:30
Visakhapatnam,Andhra Pradesh,17.6868,83.2185,26.0,77,0.0,1008.3,8.25,38.9,93,37.8,29.6,7,0,4,1,2026-03-08T20:57:41.368841+05:30
Vijayawada,Andhra Pradesh,16.5062,80.648,27.2,71,0.0,1006.0,8.6,28.4,95,30.7,25.3,7,5,4,1,2026-03-08T20:57:41.368847+05:30
Guntur,Andhra Pradesh,16.3067,80.4365,26.1,81,0.0,1007.2,8.6,27.4,95,31.8,26.7,7,5,4,1,2026-03-08T20:57:41.368853+05:30
Nellore,Andhra Pradesh,14.4426,79.9865,26.5,81,0.0,1009.0,8.8,33.1,88,29.2,21.1,7,0,4,1,2026-03-08T20:57:41.368861+05:30
Kurnool,Andhra Pradesh,15.8281,78.0373,30.6,30,0.0,978.2,8.6,25.6,139,31.5,25.8,0,5,7,0,2026-03-08T20:57:41.368868+05:30
Kakinada,Andhra Pradesh,16.9891,82.2475,26.1,78,0.0,1011.5,8.55,33.8,77,36.0,24.9,7,0,4,1,2026-03-08T20:57:41.368875+05:30
Tirupati,Andhra Pradesh,13.6288,79.4192,26.8,67,0.0,994.6,8.95,31.3,113,37.0,31.4,7,5,7,1,2026-03-08T20:57:41.368881+05:30
Warangal,Telangana,17.9689,79.5941,28.7,56,0.0,980.8,8.35,27.7,122,64.7,53.9,4,5,7,1,2026-03-08T20:57:41.368887+05:30
Nizamabad,Telangana,18.6725,78.0941,27.2,54,0.0,967.1,8.25,31.0,135,51.2,40.2,4,5,7,1,2026-03-08T20:57:41.368893+05:30
Mysore,Karnataka,12.2958,76.6396,27.2,39,0.0,929.3,9.25,29.9,160,59.5,53.1,4,5,7,0,2026-03-08T20:57:41.368900+05:30
Mangalore,Karnataka,12.9141,74.856,28.7,79,0.0,1008.8,8.85,25.2,112,40.2,36.8,7,0,4,1,2026-03-08T20:57:41.368907+05:30
Hubli-Dharwad,Karnataka,15.3647,75.124,28.0,39,0.0,942.3,8.8,27.7,175,29.2,25.7,4,5,7,0,2026-03-08T20:57:41.368914+05:30
Belgaum,Karnataka,15.8497,74.4977,25.0,76,0.0,927.3,8.85,33.8,171,44.8,42.0,7,5,7,1,2026-03-08T20:57:44.581378+05:30
Coimbatore,Tamil Nadu,11.0168,76.9558,25.8,77,0.0,963.1,9.2,40.0,142,48.7,42.5,7,5,7,1,2026-03-08T20:57:44.581404+05:30
Madurai,Tamil Nadu,9.9252,78.1198,28.2,54,0.0,994.7,9.15,28.8,103,33.3,27.1,4,5,7,1,2026-03-08T20:57:44.581414+05:30
Trichy,Tamil Nadu,10.7905,78.7047,27.9,71,0.0,1001.8,9.05,31.0,98,30.2,25.3,7,5,4,1,2026-03-08T20:57:44.581421+05:30
Salem,Tamil Nadu,11.6643,78.146,29.0,45,0.0,978.6,9.1,22.0,155,44.4,38.5,4,5,7,0,2026-03-08T20:57:44.581427+05:30
Tirunelveli,Tamil Nadu,8.7139,77.7567,27.8,72,0.0,1005.2,9.15,41.0,111,37.6,29.2,7,5,4,1,2026-03-08T20:57:44.581434+05:30
Vellore,Tamil Nadu,12.9165,79.1325,27.1,64,0.0,987.1,9.0,35.6,131,38.8,32.7,7,5,7,1,2026-03-08T20:57:44.581441+05:30
Erode,Tamil Nadu,11.341,77.7172,30.4,43,0.0,990.0,9.1,22.3,133,41.8,36.4,0,5,7,1,2026-03-08T20:57:44.581448+05:30
Kochi,Kerala,9.9312,76.2673,28.6,78,0.0,1010.3,9.0,35.6,130,45.5,43.2,7,0,4,1,2026-03-08T20:57:44.581454+05:30
Thiruvananthapuram,Kerala,8.5241,76.9366,27.9,80,0.0,1009.8,9.05,31.7,112,33.2,27.7,7,0,4,1,2026-03-08T20:57:44.581460+05:30
Kozhikode,Kerala,11.2588,75.7804,28.8,77,0.0,1009.6,8.8,29.5,87,32.4,28.7,7,0,4,1,2026-03-08T20:57:44.581466+05:30
Thrissur,Kerala,10.5276,76.2144,28.0,80,0.0,1008.6,9.0,36.7,121,33.4,31.9,7,0,4,1,2026-03-08T20:57:44.581473+05:30
Kannur,Kerala,11.8745,75.3704,28.7,76,0.0,1008.8,8.9,28.4,99,36.6,32.5,7,0,4,1,2026-03-08T20:57:44.581479+05:30
Patna,Bihar,25.5941,85.1376,26.0,70,0.0,1005.0,7.35,18.0,174,98.5,90.6,7,5,4,1,2026-03-08T20:57:44.581484+05:30
Gaya,Bihar,24.7914,85.0002,24.2,81,0.0,998.2,7.45,17.6,161,88.0,80.8,3,5,7,1,2026-03-08T20:57:44.581490+05:30
Muzaffarpur,Bihar,26.1209,85.3647,24.1,77,0.0,1005.2,7.3,19.1,177,101.7,93.8,3,5,4,1,2026-03-08T20:57:44.581495+05:30
Bhagalpur,Bihar,25.2425,87.0117,24.0,79,0.0,1006.0,7.35,15.8,163,99.4,86.4,3,5,4,1,2026-03-08T20:57:44.581501+05:30
Ranchi,Jharkhand,23.3441,85.3096,24.0,66,0.0,941.5,8.1,23.0,162,96.9,82.2,3,5,7,1,2026-03-08T20:57:44.581506+05:30
Jamshedpur,Jharkhand,22.8046,86.2029,26.5,71,0.0,994.7,8.0,20.9,157,86.1,77.1,7,5,7,1,2026-03-08T20:57:44.581512+05:30
Dhanbad,Jharkhand,23.7957,86.4304,27.5,53,0.0,984.1,7.85,22.7,168,112.0,102.4,4,5,7,1,2026-03-08T20:57:44.581517+05:30
Bokaro,Jharkhand,23.6693,86.1511,26.4,59,0.0,988.1,7.85,17.6,170,115.9,105.2,4,5,7,1,2026-03-08T20:57:44.581523+05:30
Bhubaneswar,Odisha,20.2961,85.8245,25.7,83,0.0,1007.4,8.25,32.4,115,37.7,32.7,7,5,4,1,2026-03-08T20:57:44.581529+05:30
Cuttack,Odisha,20.4625,85.8828,26.3,76,0.0,1009.3,8.3,27.7,115,37.7,32.7,7,0,4,1,2026-03-08T20:57:44.581535+05:30
Rourkela,Odisha,22.2604,84.8536,27.8,49,0.0,987.8,7.9,22.7,165,135.5,108.5,4,5,7,1,2026-03-08T20:57:44.581541+05:30
Raipur,Chhattisgarh,21.2514,81.6296,30.0,37,0.0,977.2,8.0,23.4,162,97.3,83.4,4,5,7,0,2026-03-08T20:57:44.581546+05:30
Bhilai,Chhattisgarh,21.1938,81.3509,28.9,40,0.0,977.5,8.0,23.4,153,86.8,75.4,4,5,7,0,2026-03-08T20:57:44.581558+05:30
Guwahati,Assam,26.1158,91.7086,25.1,72,0.0,1006.2,7.3,22.7,152,62.2,56.7,7,5,4,1,2026-03-08T20:57:44.581570+05:30
Agartala,Tripura,23.8315,91.2868,23.7,75,0.0,1011.1,7.6,18.7,153,104.1,94.3,3,0,4,1,2026-03-08T20:57:44.581581+05:30
Shillong,Meghalaya,25.5788,91.8933,12.9,94,0.0,859.1,7.35,26.6,124,48.0,43.3,3,10,7,0,2026-03-08T20:57:44.581591+05:30
Imphal,Manipur,24.817,93.9368,18.1,88,0.0,927.5,7.9,32.0,158,89.9,82.9,3,10,7,1,2026-03-08T20:57:44.581601+05:30
Aizawl,Mizoram,23.7271,92.7176,18.0,82,0.0,896.1,7.85,31.0,152,74.5,67.1,3,10,7,0,2026-03-08T20:57:44.581612+05:30
Kohima,Nagaland,25.6701,94.1077,15.2,79,0.0,858.4,7.0,51.8,161,91.7,85.7,3,5,7,0,2026-03-08T20:57:44.581621+05:30
Gangtok,Sikkim,27.3314,88.6138,14.5,84,0.0,841.1,5.1,16.2,155,73.6,57.9,3,10,3,0,2026-03-08T20:57:44.581631+05:30
Siliguri,West Bengal,26.7271,88.3953,21.6,64,0.0,999.2,7.3,15.8,156,90.3,69.2,3,5,7,0,2026-03-08T20:57:47.792773+05:30
Durgapur,West Bengal,23.5204,87.3119,26.4,67,0.0,999.7,7.85,20.9,161,91.3,83.4,7,5,7,1,2026-03-08T20:57:47.792803+05:30
Asansol,West Bengal,23.6739,86.9524,27.0,62,0.0,998.3,7.85,19.8,160,96.6,88.5,7,5,7,1,2026-03-08T20:57:47.792814+05:30
Pondicherry,Puducherry,11.9139,79.8145,25.6,85,0.0,1011.1,8.95,32.4,72,23.6,16.1,7,0,4,1,2026-03-08T20:57:47.792823+05:30
Port Blair,Andaman and Nicobar Islands,11.6234,92.7265,27.2,80,0.0,1010.3,8.9,25.2,85,38.2,29.1,7,0,4,1,2026-03-08T20:57:47.792831+05:30
Haridwar,Uttarakhand,29.9457,78.1642,25.4,63,0.0,977.7,5.75,26.6,176,123.4,68.5,7,5,3,1,2026-03-08T20:57:47.792839+05:30
Rishikesh,Uttarakhand,30.0869,78.2676,22.8,75,0.0,970.4,5.8,22.3,171,80.3,62.9,3,5,3,1,2026-03-08T20:57:47.792847+05:30
Nainital,Uttarakhand,29.3919,79.4542,18.9,68,0.0,809.6,6.65,63.0,182,108.3,83.8,3,5,7,0,2026-03-08T20:57:47.792854+05:30
Mussoorie,Uttarakhand,30.4599,78.0664,17.0,81,0.0,805.7,6.15,48.6,187,91.0,69.2,3,10,7,0,2026-03-08T20:57:47.792861+05:30
Dharamshala,Himachal Pradesh,32.219,76.3234,21.7,46,0.0,873.7,6.4,24.8,71,41.7,21.9,0,5,7,0,2026-03-08T20:57:47.792869+05:30
Dalhousie,Himachal Pradesh,32.5387,75.971,17.6,54,0.0,807.5,6.65,23.4,93,55.2,38.2,0,5,7,0,2026-03-08T20:57:47.792877+05:30
Patiala,Punjab,30.3398,76.3869,23.1,76,0.0,982.3,5.65,26.3,168,319.4,77.5,3,5,3,1,2026-03-08T20:57:47.792884+05:30
Bhatinda,Punjab,30.211,74.9455,24.8,66,0.0,988.0,6.5,16.9,150,109.7,67.5,3,5,7,1,2026-03-08T20:57:47.792891+05:30
Rohtak,Haryana,28.8955,76.6066,22.8,65,0.0,985.5,6.0,20.9,169,424.7,87.5,3,5,3,0,2026-03-08T20:57:47.792898+05:30
Panipat,Haryana,29.3909,76.9635,23.2,70,0.0,984.0,5.8,26.3,207,856.8,121.1,3,5,3,1,2026-03-08T20:57:47.792905+05:30
Mathura,Uttar Pradesh,27.4924,77.6737,23.4,61,0.0,990.5,6.3,22.7,158,448.0,76.4,3,5,7,0,2026-03-08T20:57:47.792912+05:30
Vrindavan,Uttar Pradesh,27.5823,77.7027,23.7,57,0.0,990.9,6.25,23.8,158,448.0,76.4,0,5,7,0,2026-03-08T20:57:47.792919+05:30
Ayodhya,Uttar Pradesh,26.7922,82.1998,25.7,67,0.0,999.6,6.65,11.2,185,136.9,116.9,7,5,7,1,2026-03-08T20:57:47.792926+05:30
Ratlam,Madhya Pradesh,23.3315,75.0367,26.8,48,0.0,957.8,7.5,21.6,107,25.4,24.9,4,5,7,0,2026-03-08T20:57:47.792933+05:30
Sagar,Madhya Pradesh,23.8388,78.7378,26.7,41,0.0,953.8,7.45,21.6,92,29.8,17.4,4,5,7,0,2026-03-08T20:57:47.792940+05:30
Satna,Madhya Pradesh,24.6005,80.8322,26.1,52,0.0,975.7,7.4,25.2,158,68.7,45.1,4,5,7,0,2026-03-08T20:57:47.792947+05:30
Akola,Maharashtra,20.7002,77.0082,28.3,32,0.0,977.3,7.95,16.2,122,39.8,31.8,4,5,7,0,2026-03-08T20:57:47.792955+05:30
Amravati,Maharashtra,20.9374,77.7796,26.9,43,0.0,969.6,7.9,20.5,106,36.6,27.1,4,5,7,0,2026-03-08T20:57:47.792963+05:30
Latur,Maharashtra,18.4088,76.5604,28.0,39,0.0,941.9,8.4,24.1,154,36.9,30.2,4,5,7,0,2026-03-08T20:57:47.792970+05:30
Nanded,Maharashtra,19.1383,77.3091,27.8,45,0.0,970.6,8.15,25.2,132,30.6,24.8,4,5,7,0,2026-03-08T20:57:47.792977+05:30
Gulbarga,Karnataka,17.3297,76.8343,30.8,24,0.0,960.5,8.45,28.4,159,26.4,22.4,0,5,7,0,2026-03-08T20:57:47.792984+05:30
Bidar,Karnataka,17.9104,77.5199,27.1,31,0.0,937.7,8.4,29.5,144,46.3,35.6,4,5,7,0,2026-03-08T20:57:47.792991+05:30
Hospet,Karnataka,15.2689,76.3909,30.6,31,0.0,957.3,8.75,25.6,180,41.4,34.5,0,5,7,0,2026-03-08T20:57:47.792997+05:30
Tirupur,Tamil Nadu,11.1085,77.3411,30.5,35,0.0,976.2,9.2,29.2,146,52.6,45.6,0,5,7,0,2026-03-08T20:57:47.793004+05:30
Alappuzha,Kerala,9.4981,76.3388,28.3,80,0.0,1010.6,9.0,32.0,147,37.7,35.0,7,0,4,1,2026-03-08T20:57:47.793011+05:30
Munnar,Kerala,10.0889,77.0595,21.1,89,0.0,858.1,9.5,21.2,105,49.4,43.9,3,5,7,1,2026-03-08T20:57:47.793018+05:30
Silchar,Assam,24.8333,92.7789,24.7,77,0.0,1009.9,7.6,19.4,162,91.0,84.3,3,0,4,1,2026-03-08T20:57:47.793025+05:30
Dibrugarh,Assam,27.4728,94.912,24.5,73,0.0,1000.1,6.15,24.8,158,77.3,68.0,3,5,4,1,2026-03-08T20:57:47.793034+05:30
