city,state,latitude,longitude,temp,humidity,rain,pressure,uv_index,wind_gusts,aqi,pm10,pm2_5,no2,co,o3,so2,mosquito_risk,arthritis_risk,migraine_risk,frizz_risk,updated_at
Delhi,Delhi,28.6139,77.209,22.2,85,0.0,985.2,7.05,41.0,118,98.5,56.3,37.2,845.0,81.0,24.7,3,5,7,1,2026-05-05T23:42:39.731235+05:30
Mumbai,Maharashtra,19.076,72.8777,28.3,78,0.0,1009.1,7.85,40.7,73,70.1,25.0,10.2,310.0,65.0,26.2,7,0,4,1,2026-05-05T23:42:39.731327+05:30
Bangalore,Karnataka,12.9716,77.5946,25.1,59,0.0,912.4,8.85,34.2,96,71.7,48.4,51.0,477.0,57.0,14.2,4,5,7,1,2026-05-05T23:42:39.731349+05:30
Hyderabad,Telangana,17.385,78.4867,28.8,54,0.0,953.4,9.25,38.2,81,45.1,36.8,14.4,348.0,97.0,8.5,4,5,7,1,2026-05-05T23:42:39.731361+05:30
Chennai,Tamil Nadu,13.0827,80.2707,29.0,82,0.0,1007.6,8.7,36.7,70,19.4,12.7,6.4,183.0,71.0,3.3,7,5,4,1,2026-05-05T23:42:39.731371+05:30
Kolkata,West Bengal,22.5726,88.3639,25.6,91,0.0,1008.1,8.65,45.7,79,20.3,18.8,14.0,423.0,45.0,6.5,7,0,4,1,2026-05-05T23:42:39.731381+05:30
Pune,Maharashtra,18.5204,73.8567,24.4,85,0.0,948.7,8.45,45.0,59,38.4,19.7,12.6,241.0,70.0,13.3,3,5,7,1,2026-05-05T23:42:39.731390+05:30
Ahmedabad,Gujarat,23.0225,72.5714,32.0,49,0.0,1001.9,8.1,29.9,81,119.0,54.0,37.5,227.0,43.0,17.5,0,5,4,1,2026-05-05T23:42:39.731402+05:30
Jaipur,Rajasthan,26.9124,75.7873,23.5,67,0.0,961.5,8.05,35.3,132,353.9,66.4,12.2,453.0,88.0,5.8,3,5,7,1,2026-05-05T23:42:39.731411+05:30
Lucknow,Uttar Pradesh,26.8467,80.9462,23.2,87,0.0,995.3,6.25,28.4,111,78.9,64.7,32.5,591.0,65.0,18.7,3,5,7,1,2026-05-05T23:42:39.731422+05:30
Kanpur,Uttar Pradesh,26.4499,80.3319,23.5,90,0.0,993.7,8.05,31.3,127,100.6,64.7,27.1,598.0,82.0,16.3,3,5,7,1,2026-05-05T23:42:39.731431+05:30
Chandigarh,Chandigarh,30.7333,76.7794,19.4,81,0.0,970.5,7.3,42.1,71,54.4,39.7,51.0,1101.0,22.0,5.3,3,10,7,0,2026-05-05T23:42:39.731439+05:30
Srinagar,Jammu and Kashmir,34.0837,74.7973,9.1,94,0.0,841.4,8.7,25.2,57,45.9,42.6,36.9,1187.0,30.0,3.6,3,10,7,0,2026-05-05T23:42:39.731449+05:30
Jammu,Jammu and Kashmir,32.7266,74.857,19.6,59,0.0,974.2,8.3,30.2,72,39.5,26.9,29.6,400.0,45.0,4.0,0,5,7,0,2026-05-05T23:42:39.731457+05:30
Amritsar,Punjab,31.634,74.8723,23.6,56,0.0,982.4,8.2,45.0,112,61.7,32.5,4.7,477.0,120.0,8.3,0,5,7,0,2026-05-05T23:42:39.731465+05:30
Ludhiana,Punjab,30.901,75.8573,22.2,66,0.0,980.7,7.8,33.8,120,104.8,72.6,31.3,1466.0,64.0,21.5,3,5,7,0,2026-05-05T23:42:39.731472+05:30
Jalandhar,Punjab,31.326,75.5762,21.5,66,0.0,981.4,7.95,41.8,101,97.3,52.5,17.2,805.0,83.0,14.4,3,5,7,0,2026-05-05T23:42:39.731480+05:30
Dehradun,Uttarakhand,30.6284,78.0322,8.2,97,0.0,827.4,7.35,35.3,72,71.9,23.7,28.7,218.0,66.0,1.3,3,10,7,0,2026-05-05T23:42:39.731490+05:30
Shimla,Himachal Pradesh,31.1048,77.1734,7.9,77,0.0,781.8,4.75,37.8,58,57.3,25.7,30.5,350.0,52.0,1.4,3,5,3,0,2026-05-05T23:42:39.731498+05:30
Manali,Himachal Pradesh,32.2396,77.1887,7.7,72,0.0,815.1,9.65,43.2,116,12.6,7.4,30.2,352.0,110.0,0.3,3,5,7,0,2026-05-05T23:42:39.731505+05:30
Gurgaon,Haryana,28.4595,77.0266,22.1,84,0.0,983.5,7.55,32.4,197,144.4,68.5,43.0,1251.0,70.0,31.8,3,5,7,1,2026-05-05T23:42:39.731512+05:30
Noida,Uttar Pradesh,28.5355,77.391,21.3,84,0.0,986.7,7.25,40.7,197,144.4,68.5,43.0,745.0,70.0,31.8,3,5,7,1,2026-05-05T23:42:39.731520+05:30
Ghaziabad,Uttar Pradesh,28.6692,77.4538,21.1,87,0.0,984.9,6.95,47.5,99,107.3,47.6,15.7,497.0,96.0,9.8,3,5,7,1,2026-05-05T23:42:39.731527+05:30
Faridabad,Haryana,28.4089,77.3178,21.8,84,0.0,985.9,7.0,35.6,197,144.4,68.5,43.0,1097.0,70.0,31.8,3,5,7,1,2026-05-05T23:42:39.731534+05:30
Meerut,Uttar Pradesh,28.9845,77.7064,20.6,87,0.0,983.5,4.2,50.0,99,107.3,47.6,15.7,560.0,96.0,9.8,3,5,3,1,2026-05-05T23:42:39.731541+05:30
Agra,Uttar Pradesh,27.1767,78.0081,23.6,80,0.0,989.5,7.9,35.6,274,203.5,65.0,18.3,521.0,74.0,17.9,3,5,7,1,2026-05-05T23:42:39.731548+05:30
Varanasi,Uttar Pradesh,25.3176,82.9739,25.0,78,0.0,999.1,8.4,33.8,138,62.4,50.2,14.4,792.0,105.0,16.2,7,5,7,1,2026-05-05T23:42:39.731556+05:30
Prayagraj,Uttar Pradesh,25.4358,81.8463,24.9,81,0.0,997.5,8.2,29.9,119,67.3,54.9,22.0,672.0,69.0,14.9,3,5,7,1,2026-05-05T23:42:39.731566+05:30
Gorakhpur,Uttar Pradesh,26.7606,83.3732,23.3,82,0.0,998.9,7.8,22.7,86,38.9,35.2,19.4,658.0,70.0,8.8,3,5,7,1,2026-05-05T23:42:39.731573+05:30
Bareilly,Uttar Pradesh,28.367,79.4304,21.1,78,0.0,988.5,7.5,37.8,117,85.7,68.7,35.6,412.0,60.0,16.0,3,5,7,1,2026-05-05T23:42:39.731579+05:30
Aligarh,Uttar Pradesh,27.8974,78.088,22.5,79,0.0,987.6,7.15,41.8,168,174.6,55.3,13.6,522.0,88.0,13.2,3,5,7,1,2026-05-05T23:42:39.731586+05:30
Moradabad,Uttar Pradesh,28.8386,78.7733,20.2,87,0.0,985.3,6.4,46.4,115,67.3,49.8,18.4,581.0,93.0,15.7,3,5,7,1,2026-05-05T23:42:39.731593+05:30
Saharanpur,Uttar Pradesh,29.9637,77.546,20.0,83,0.0,977.4,6.85,45.7,89,66.4,41.4,20.6,888.0,79.0,10.7,3,5,7,1,2026-05-05T23:42:39.731599+05:30
Jhansi,Uttar Pradesh,25.4484,78.5685,24.9,65,0.0,979.6,7.9,34.6,117,122.5,39.9,4.4,368.0,98.0,5.0,3,5,7,1,2026-05-05T23:42:43.015486+05:30
Surat,Gujarat,21.1702,72.8311,28.3,82,0.0,1007.1,7.7,41.4,81,42.8,24.0,22.8,291.0,52.0,36.6,7,5,4,1,2026-05-05T23:42:43.015518+05:30
Vadodara,Gujarat,22.3072,73.1812,28.7,72,0.0,1004.2,8.05,36.7,75,39.0,25.2,25.2,299.0,42.0,31.0,7,5,4,1,2026-05-05T23:42:43.015528+05:30
Rajkot,Gujarat,22.3039,70.8022,27.5,77,0.0,994.1,7.7,43.6,67,46.2,17.9,6.6,182.0,65.0,6.8,7,5,7,1,2026-05-05T23:42:43.015536+05:30
Thane,Maharashtra,19.2183,72.9781,28.1,76,0.0,1008.5,7.85,38.2,73,70.1,25.0,10.2,268.0,65.0,26.2,7,0,4,1,2026-05-05T23:42:43.015544+05:30
Nagpur,Maharashtra,21.1458,79.0882,32.1,26,0.0,973.1,8.9,33.1,85,42.5,27.0,13.4,311.0,83.0,11.1,0,5,7,0,2026-05-05T23:42:43.015552+05:30
Nashik,Maharashtra,19.9975,73.7898,24.7,83,0.0,945.9,8.2,40.0,63,42.4,18.7,8.7,224.0,54.0,1.4,3,5,7,1,2026-05-05T23:42:43.015560+05:30
Aurangabad,Maharashtra,19.8762,75.3433,30.0,30,0.0,944.5,9.0,38.2,63,38.4,19.6,7.1,183.0,80.0,4.2,4,5,7,0,2026-05-05T23:42:43.015567+05:30
Solapur,Maharashtra,17.6599,75.9064,31.0,32,0.0,956.8,9.1,35.6,58,41.6,22.6,16.4,199.0,57.0,4.7,0,5,7,0,2026-05-05T23:42:43.015576+05:30
Kolhapur,Maharashtra,16.705,74.2433,24.1,85,0.0,948.0,8.95,46.8,62,33.1,17.9,10.3,187.0,49.0,3.2,3,5,7,1,2026-05-05T23:42:43.015583+05:30
Goa,Goa,15.2993,74.124,28.7,79,0.0,998.1,8.9,35.6,67,45.1,21.1,6.0,188.0,53.0,1.8,7,5,7,1,2026-05-05T23:42:43.015591+05:30
Jodhpur,Rajasthan,26.2389,73.0243,29.9,29,0.0,984.1,8.3,47.5,110,239.3,49.2,25.0,253.0,67.0,7.5,4,5,7,0,2026-05-05T23:42:43.015598+05:30
Udaipur,Rajasthan,24.5854,73.7125,25.0,54,0.0,946.8,8.75,40.7,81,119.7,35.7,5.9,239.0,80.0,4.7,4,5,7,0,2026-05-05T23:42:43.015605+05:30
Kota,Rajasthan,25.2138,75.8648,26.7,54,0.0,979.8,8.3,28.8,85,93.6,38.1,12.1,483.0,69.0,5.9,4,5,7,1,2026-05-05T23:42:43.015612+05:30
Bikaner,Rajasthan,28.0229,73.3119,28.5,36,0.0,983.9,8.2,30.6,119,71.2,30.9,2.4,328.0,122.0,5.1,4,5,7,0,2026-05-05T23:42:43.015619+05:30
Ajmer,Rajasthan,26.4499,74.6399,25.7,38,0.0,956.2,8.2,37.4,72,79.6,34.0,15.4,284.0,68.0,6.3,4,5,7,0,2026-05-05T23:42:43.015626+05:30
Gwalior,Madhya Pradesh,26.2183,78.1828,23.4,81,0.0,984.9,8.1,42.8,111,231.4,56.5,8.6,430.0,89.0,6.7,3,5,7,1,2026-05-05T23:42:43.015633+05:30
Indore,Madhya Pradesh,22.7196,75.8577,28.1,40,0.0,949.0,8.6,44.3,74,42.8,21.1,5.7,281.0,97.0,4.8,4,5,7,0,2026-05-05T23:42:43.015640+05:30
Bhopal,Madhya Pradesh,23.2599,77.4126,27.9,42,0.0,954.3,8.65,37.8,73,38.3,21.9,4.4,269.0,99.0,5.0,4,5,7,0,2026-05-05T23:42:43.015647+05:30
Jabalpur,Madhya Pradesh,23.1815,79.9864,26.8,54,0.0,962.4,8.3,33.5,103,46.6,34.5,5.7,266.0,134.0,9.0,4,5,7,1,2026-05-05T23:42:43.015654+05:30
Ujjain,Madhya Pradesh,23.1765,75.7885,27.3,43,0.0,954.2,8.55,46.1,73,52.9,24.6,4.2,247.0,95.0,5.0,4,5,7,0,2026-05-05T23:42:43.015662+05:30
Visakhapatnam,Andhra Pradesh,17.6868,83.2185,26.3,89,0.0,1005.2,9.2,37.4,81,42.7,33.1,36.2,379.0,34.0,7.1,7,5,4,1,2026-05-05T23:42:43.015669+05:30
Vijayawada,Andhra Pradesh,16.5062,80.648,29.1,81,0.0,1003.4,9.2,35.3,76,24.6,21.1,8.9,213.0,59.0,5.5,7,5,4,1,2026-05-05T23:42:43.015677+05:30
Guntur,Andhra Pradesh,16.3067,80.4365,29.1,82,0.0,1004.5,9.2,37.8,81,27.2,23.1,7.9,205.0,68.0,5.8,7,5,4,1,2026-05-05T23:42:43.015684+05:30
Nellore,Andhra Pradesh,14.4426,79.9865,28.3,89,0.0,1006.3,9.0,39.6,79,20.2,14.8,6.7,196.0,68.0,6.7,7,5,4,1,2026-05-05T23:42:43.015692+05:30
Kurnool,Andhra Pradesh,15.8281,78.0373,30.0,51,0.0,976.1,9.2,45.0,93,41.0,33.1,4.3,240.0,111.0,5.9,4,5,7,1,2026-05-05T23:42:43.015700+05:30
Kakinada,Andhra Pradesh,16.9891,82.2475,27.4,93,0.0,1008.8,9.15,29.9,62,26.2,17.3,3.6,269.0,66.0,1.1,7,0,4,1,2026-05-05T23:42:43.015707+05:30
Tirupati,Andhra Pradesh,13.6288,79.4192,28.4,75,0.0,991.6,8.8,29.9,120,47.6,40.0,24.5,276.0,56.0,13.1,7,5,7,1,2026-05-05T23:42:43.015715+05:30
Warangal,Telangana,17.9689,79.5941,29.0,60,0.0,978.7,9.15,47.9,83,39.3,33.9,7.4,281.0,100.0,11.5,4,5,7,1,2026-05-05T23:42:43.015721+05:30
Nizamabad,Telangana,18.6725,78.0941,31.8,27,0.0,964.0,9.1,32.8,88,82.0,45.1,26.8,365.0,71.0,9.1,0,5,7,0,2026-05-05T23:42:43.015728+05:30
Mysore,Karnataka,12.2958,76.6396,23.7,76,0.0,928.8,9.35,29.5,72,49.5,32.0,25.0,254.0,70.0,6.0,3,5,7,1,2026-05-05T23:42:43.015734+05:30
Mangalore,Karnataka,12.9141,74.856,29.1,77,0.0,1006.9,8.85,48.2,63,33.6,16.4,3.5,166.0,57.0,1.5,7,5,4,1,2026-05-05T23:42:43.015741+05:30
Hubli-Dharwad,Karnataka,15.3647,75.124,24.6,83,0.0,941.0,9.2,52.9,59,24.3,13.9,8.2,192.0,51.0,2.5,3,5,7,1,2026-05-05T23:42:43.015748+05:30
Belgaum,Karnataka,15.8497,74.4977,22.5,94,0.0,925.7,9.2,55.1,60,33.8,18.4,12.4,189.0,39.0,2.6,3,5,7,1,2026-05-05T23:42:46.294616+05:30
Coimbatore,Tamil Nadu,11.0168,76.9558,24.0,96,0.0,961.9,9.0,39.2,64,31.3,21.0,15.9,277.0,69.0,4.8,3,5,7,1,2026-05-05T23:42:46.294651+05:30
Madurai,Tamil Nadu,9.9252,78.1198,26.5,87,0.0,993.1,5.7,50.8,82,47.6,32.5,16.8,354.0,81.0,6.4,7,5,3,1,2026-05-05T23:42:46.294665+05:30
Trichy,Tamil Nadu,10.7905,78.7047,27.1,79,0.0,1000.1,8.75,34.6,97,43.4,34.9,16.4,313.0,71.0,4.8,7,5,4,1,2026-05-05T23:42:46.294676+05:30
Salem,Tamil Nadu,11.6643,78.146,26.5,72,0.0,977.9,9.2,39.6,100,76.1,49.0,22.3,343.0,79.0,10.7,7,5,7,1,2026-05-05T23:42:46.294685+05:30
Tirunelveli,Tamil Nadu,8.7139,77.7567,28.5,70,0.0,1003.3,8.75,46.4,74,36.6,24.8,12.1,413.0,70.0,7.2,7,5,4,1,2026-05-05T23:42:46.294694+05:30
Vellore,Tamil Nadu,12.9165,79.1325,27.3,79,0.0,984.9,9.05,37.8,120,48.7,42.1,19.5,274.0,51.0,7.5,7,5,7,1,2026-05-05T23:42:46.294703+05:30
Erode,Tamil Nadu,11.341,77.7172,27.7,70,0.0,989.5,9.0,37.8,91,36.4,24.9,20.0,364.0,67.0,3.8,7,5,7,1,2026-05-05T23:42:46.294711+05:30
Kochi,Kerala,9.9312,76.2673,26.2,94,0.0,1009.1,2.85,27.0,59,50.2,42.3,44.0,204.0,9.0,8.4,7,0,0,1,2026-05-05T23:42:46.294720+05:30
Thiruvananthapuram,Kerala,8.5241,76.9366,25.5,93,0.0,1008.2,8.4,29.9,59,25.9,12.3,4.6,412.0,87.0,2.4,7,0,4,1,2026-05-05T23:42:46.294728+05:30
Kozhikode,Kerala,11.2588,75.7804,26.7,92,0.0,1008.1,8.7,35.6,57,41.0,19.4,4.4,697.0,66.0,2.5,7,0,4,1,2026-05-05T23:42:46.294737+05:30
Thrissur,Kerala,10.5276,76.2144,25.0,100,0.0,1007.5,2.75,27.4,59,61.5,50.6,39.9,490.0,15.0,6.4,7,5,0,1,2026-05-05T23:42:46.294747+05:30
Kannur,Kerala,11.8745,75.3704,28.9,77,0.0,1007.3,8.9,43.9,64,38.6,18.9,8.4,241.0,45.0,1.9,7,5,4,1,2026-05-05T23:42:46.294755+05:30
Patna,Bihar,25.5941,85.1376,25.0,78,0.0,1002.1,8.7,29.2,141,105.0,89.2,43.8,792.0,70.0,25.0,7,5,4,1,2026-05-05T23:42:46.294763+05:30
Gaya,Bihar,24.7914,85.0002,25.5,73,0.0,995.8,8.75,31.7,125,50.1,41.3,11.1,438.0,121.0,12.0,7,5,7,1,2026-05-05T23:42:46.294772+05:30
Muzaffarpur,Bihar,26.1209,85.3647,24.0,83,0.0,1002.0,8.5,30.6,141,112.2,97.1,48.3,850.0,64.0,25.8,3,5,4,1,2026-05-05T23:42:46.294780+05:30
Bhagalpur,Bihar,25.2425,87.0117,25.9,76,0.0,1003.0,8.6,25.9,119,56.8,49.8,17.0,383.0,94.0,12.3,7,5,4,1,2026-05-05T23:42:46.294788+05:30
Ranchi,Jharkhand,23.3441,85.3096,20.6,81,0.0,940.4,9.2,31.7,114,46.1,33.8,5.1,347.0,137.0,8.6,3,5,7,1,2026-05-05T23:42:46.294796+05:30
Jamshedpur,Jharkhand,22.8046,86.2029,24.5,79,0.0,993.3,8.95,29.5,99,39.7,33.6,18.1,330.0,98.0,33.9,3,5,7,1,2026-05-05T23:42:46.294805+05:30
Dhanbad,Jharkhand,23.7957,86.4304,24.5,87,0.0,982.1,8.8,28.8,151,78.9,70.5,48.7,1421.0,71.0,61.8,3,5,7,1,2026-05-05T23:42:46.294812+05:30
Bokaro,Jharkhand,23.6693,86.1511,25.0,78,0.0,986.0,9.0,28.4,154,74.7,59.8,31.0,313.0,106.0,36.5,7,5,7,1,2026-05-05T23:42:46.294821+05:30
Bhubaneswar,Odisha,20.2961,85.8245,24.8,92,0.0,1004.7,9.1,33.8,41,16.2,12.9,7.9,237.0,45.0,3.1,3,5,4,1,2026-05-05T23:42:46.294830+05:30
Cuttack,Odisha,20.4625,85.8828,24.5,94,0.0,1007.0,9.15,29.5,41,16.2,12.9,7.9,231.0,45.0,3.1,3,5,4,1,2026-05-05T23:42:46.294838+05:30
Rourkela,Odisha,22.2604,84.8536,22.5,94,0.6,988.2,8.95,42.5,116,54.7,40.6,12.4,375.0,109.0,44.2,6,5,7,1,2026-05-05T23:42:46.294845+05:30
Raipur,Chhattisgarh,21.2514,81.6296,27.6,59,0.0,975.5,8.95,50.4,107,53.4,40.7,19.9,273.0,82.0,6.2,4,5,7,1,2026-05-05T23:42:46.294851+05:30
Bhilai,Chhattisgarh,21.1938,81.3509,27.5,58,0.0,975.9,8.95,43.9,113,51.9,40.4,35.9,283.0,56.0,8.3,4,5,7,1,2026-05-05T23:42:46.294858+05:30
Guwahati,Assam,26.1158,91.7086,23.1,84,0.0,1003.4,8.65,28.1,71,33.2,28.1,11.8,298.0,50.0,1.8,3,5,4,1,2026-05-05T23:42:46.294865+05:30
Agartala,Tripura,23.8315,91.2868,23.9,96,0.0,1008.7,8.75,23.0,112,32.8,28.9,21.3,401.0,36.0,3.4,3,0,4,1,2026-05-05T23:42:46.294871+05:30
Shillong,Meghalaya,25.5788,91.8933,15.1,98,0.0,857.4,8.6,29.9,64,30.5,25.8,11.8,261.0,66.0,1.2,3,10,7,0,2026-05-05T23:42:46.294878+05:30
Imphal,Manipur,24.817,93.9368,19.9,95,0.0,924.3,9.2,25.9,91,44.7,36.4,19.5,282.0,36.0,4.2,3,10,7,1,2026-05-05T23:42:46.294886+05:30
Aizawl,Mizoram,23.7271,92.7176,18.0,90,0.0,893.7,9.05,33.8,68,24.8,19.6,12.7,240.0,33.0,0.7,3,10,7,1,2026-05-05T23:42:46.294893+05:30
Kohima,Nagaland,25.6701,94.1077,15.2,87,0.0,855.3,9.15,30.6,64,42.1,25.8,12.3,379.0,63.0,2.2,3,10,7,0,2026-05-05T23:42:46.294899+05:30
Gangtok,Sikkim,27.3314,88.6138,11.7,99,0.0,836.8,9.0,33.5,51,22.0,19.0,22.5,403.0,60.0,1.3,3,10,7,0,2026-05-05T23:42:46.294905+05:30
Siliguri,West Bengal,26.7271,88.3953,21.9,85,0.0,995.8,8.6,29.5,74,43.2,35.9,24.0,1176.0,80.0,4.4,3,5,7,1,2026-05-05T23:42:49.580260+05:30
Durgapur,West Bengal,23.5204,87.3119,24.0,91,0.0,997.2,7.65,28.1,123,34.9,32.4,27.8,996.0,63.0,42.9,3,5,7,1,2026-05-05T23:42:49.580328+05:30
Asansol,West Bengal,23.6739,86.9524,24.2,89,0.0,995.7,8.5,32.0,121,47.8,44.1,33.3,321.0,62.0,48.3,3,5,7,1,2026-05-05T23:42:49.580341+05:30
Pondicherry,Puducherry,11.9139,79.8145,28.4,84,0.0,1008.7,8.9,46.8,69,21.8,13.1,1.9,207.0,78.0,0.4,7,0,4,1,2026-05-05T23:42:49.580351+05:30
Port Blair,Andaman and Nicobar Islands,11.6234,92.7265,26.5,91,0.0,1007.8,8.4,38.9,28,5.8,5.1,0.8,263.0,59.0,2.2,7,5,4,1,2026-05-05T23:42:49.580359+05:30
Haridwar,Uttarakhand,29.9457,78.1642,19.0,80,0.0,975.5,5.9,35.3,84,57.7,34.8,18.0,301.0,57.0,5.5,3,5,3,0,2026-05-05T23:42:49.580368+05:30
Rishikesh,Uttarakhand,30.0869,78.2676,16.6,89,0.0,968.0,6.15,33.1,66,58.1,23.4,10.2,382.0,81.0,1.4,3,10,7,0,2026-05-05T23:42:49.580376+05:30
Nainital,Uttarakhand,29.3919,79.4542,9.3,76,0.0,803.2,6.55,32.4,70,48.2,30.3,18.7,269.0,66.0,4.4,3,5,7,0,2026-05-05T23:42:49.580384+05:30
Mussoorie,Uttarakhand,30.4599,78.0664,9.0,78,0.0,800.5,7.35,37.1,83,82.7,32.1,24.4,269.0,77.0,8.8,3,5,7,0,2026-05-05T23:42:49.580392+05:30
Dharamshala,Himachal Pradesh,32.219,76.3234,15.2,59,0.0,868.8,7.5,45.0,82,34.0,15.8,13.9,227.0,71.0,0.7,0,5,7,0,2026-05-05T23:42:49.580400+05:30
Dalhousie,Himachal Pradesh,32.5387,75.971,8.1,79,0.0,801.4,6.15,41.4,75,59.5,31.8,45.0,526.0,50.0,3.5,3,5,7,0,2026-05-05T23:42:49.580408+05:30
Patiala,Punjab,30.3398,76.3869,22.5,70,0.0,980.4,6.95,66.6,338,85.2,49.2,22.1,424.0,72.0,9.9,3,5,7,1,2026-05-05T23:42:49.580416+05:30
Bhatinda,Punjab,30.211,74.9455,23.9,56,0.0,985.8,8.1,37.4,223,219.3,59.3,8.4,409.0,101.0,8.2,0,5,7,0,2026-05-05T23:42:49.580422+05:30
Rohtak,Haryana,28.8955,76.6066,22.2,78,0.0,984.0,7.55,37.1,184,203.0,72.4,33.1,586.0,87.0,35.1,3,5,7,1,2026-05-05T23:42:49.580430+05:30
Panipat,Haryana,29.3909,76.9635,20.5,87,0.0,982.4,6.65,42.8,649,484.3,86.8,14.7,596.0,101.0,13.7,3,5,7,1,2026-05-05T23:42:49.580437+05:30
Mathura,Uttar Pradesh,27.4924,77.6737,23.5,74,0.0,988.7,7.6,33.8,190,180.2,57.9,18.3,473.0,81.0,12.3,3,5,7,1,2026-05-05T23:42:49.580444+05:30
Vrindavan,Uttar Pradesh,27.5823,77.7027,23.7,74,0.0,989.3,7.45,32.8,190,180.2,57.9,18.3,462.0,81.0,12.3,3,5,7,1,2026-05-05T23:42:49.580451+05:30
Ayodhya,Uttar Pradesh,26.7922,82.1998,22.3,91,0.0,997.0,4.65,23.4,84,46.3,39.6,18.7,609.0,77.0,8.2,3,5,3,1,2026-05-05T23:42:49.580458+05:30
Ratlam,Madhya Pradesh,23.3315,75.0367,26.0,51,0.0,954.9,8.45,47.2,69,53.4,24.2,3.5,247.0,94.0,4.5,4,5,7,0,2026-05-05T23:42:49.580466+05:30
Sagar,Madhya Pradesh,23.8388,78.7378,25.7,53,0.0,951.0,8.65,42.1,109,52.2,38.2,3.9,276.0,126.0,8.0,4,5,7,0,2026-05-05T23:42:49.580473+05:30
Satna,Madhya Pradesh,24.6005,80.8322,24.1,76,0.0,972.5,8.7,39.2,122,53.2,40.5,10.7,458.0,103.0,9.6,3,5,7,1,2026-05-05T23:42:49.580480+05:30
Akola,Maharashtra,20.7002,77.0082,31.9,30,0.0,974.5,8.9,38.5,64,40.9,19.3,6.9,227.0,89.0,9.7,0,5,7,0,2026-05-05T23:42:49.580488+05:30
Amravati,Maharashtra,20.9374,77.7796,31.4,28,0.0,966.8,8.85,38.2,64,35.0,18.5,7.9,201.0,87.0,8.8,0,5,7,0,2026-05-05T23:42:49.580496+05:30
Latur,Maharashtra,18.4088,76.5604,29.5,27,0.0,938.7,9.05,38.5,67,63.6,32.0,20.6,493.0,66.0,11.9,4,5,7,0,2026-05-05T23:42:49.580504+05:30
Nanded,Maharashtra,19.1383,77.3091,31.5,27,0.0,967.4,8.95,33.1,71,78.5,42.6,33.6,708.0,44.0,7.4,0,5,7,0,2026-05-05T23:42:49.580511+05:30
Gulbarga,Karnataka,17.3297,76.8343,32.2,21,0.0,957.8,9.1,36.7,63,35.4,20.9,18.4,338.0,78.0,7.9,0,5,7,0,2026-05-05T23:42:49.580517+05:30
Bidar,Karnataka,17.9104,77.5199,29.5,28,0.0,934.8,9.15,32.4,70,67.3,39.0,25.4,303.0,78.0,7.2,4,5,7,0,2026-05-05T23:42:49.580524+05:30
Hospet,Karnataka,15.2689,76.3909,27.3,61,0.0,955.4,9.25,28.4,68,58.1,35.4,38.7,195.0,46.0,7.2,7,5,7,1,2026-05-05T23:42:49.580531+05:30
Tirupur,Tamil Nadu,11.1085,77.3411,25.6,84,0.0,975.4,9.3,55.4,76,40.0,28.9,27.8,271.0,43.0,7.0,7,5,7,1,2026-05-05T23:42:49.580539+05:30
Alappuzha,Kerala,9.4981,76.3388,26.3,93,0.0,1009.2,7.75,31.0,53,40.0,22.9,16.5,130.0,54.0,4.9,7,0,4,1,2026-05-05T23:42:49.580546+05:30
Munnar,Kerala,10.0889,77.0595,16.9,97,0.0,856.1,6.95,24.5,59,38.8,27.3,14.2,297.0,45.0,2.7,3,10,7,1,2026-05-05T23:42:49.580553+05:30
Silchar,Assam,24.8333,92.7789,22.9,94,0.0,1007.7,8.85,25.9,93,38.8,30.2,9.1,263.0,71.0,4.1,3,5,4,1,2026-05-05T23:42:49.580560+05:30
Dibrugarh,Assam,27.4728,94.912,21.5,96,0.1,997.3,8.35,34.9,60,20.3,17.8,18.5,234.0,34.0,0.7,6,5,7,1,2026-05-05T23:42:49.580568+05:30
