city,state,latitude,longitude,temp,humidity,rain,pressure,uv_index,wind_gusts,aqi,pm10,pm2_5,no2,co,o3,so2,mosquito_risk,arthritis_risk,migraine_risk,frizz_risk,updated_at
Delhi,Delhi,28.6139,77.209,35.4,30,0.0,978.9,7.75,44.3,749,560.7,149.0,20.5,679.0,93.0,21.4,0,5,10,0,2026-05-18T09:27:28.235259+05:30
Mumbai,Maharashtra,19.076,72.8777,32.0,65,0.0,1006.3,7.6,43.6,67,42.8,20.8,11.4,299.0,70.0,12.5,3,5,4,1,2026-05-18T09:27:28.235303+05:30
Bangalore,Karnataka,12.9716,77.5946,27.5,64,0.0,911.4,6.7,33.8,86,26.3,20.0,12.7,584.0,86.0,9.0,7,5,7,1,2026-05-18T09:27:28.235319+05:30
Hyderabad,Telangana,17.385,78.4867,32.2,48,0.0,952.2,9.25,29.2,59,17.6,14.1,6.6,399.0,85.0,5.7,0,5,7,1,2026-05-18T09:27:28.235329+05:30
Chennai,Tamil Nadu,13.0827,80.2707,32.5,57,0.0,1005.0,9.1,45.4,64,17.2,13.2,10.6,377.0,85.0,17.5,0,5,4,1,2026-05-18T09:27:28.235336+05:30
Kolkata,West Bengal,22.5726,88.3639,33.5,70,0.0,1002.5,8.95,36.0,61,22.5,18.3,4.4,459.0,99.0,9.3,3,5,4,1,2026-05-18T09:27:28.235343+05:30
Pune,Maharashtra,18.5204,73.8567,31.4,39,0.0,947.2,8.15,45.4,72,51.5,28.3,12.3,228.0,96.0,24.6,0,5,7,0,2026-05-18T09:27:28.235350+05:30
Ahmedabad,Gujarat,23.0225,72.5714,35.0,29,0.0,999.7,8.15,34.9,60,63.6,21.2,5.1,217.0,62.0,5.6,0,5,7,0,2026-05-18T09:27:28.235356+05:30
Jaipur,Rajasthan,26.9124,75.7873,36.9,21,0.0,957.5,8.25,43.9,122,395.8,72.6,5.1,229.0,77.0,5.1,0,5,10,0,2026-05-18T09:27:28.235368+05:30
Lucknow,Uttar Pradesh,26.8467,80.9462,37.7,26,0.0,988.5,8.2,35.3,158,314.8,88.2,16.1,367.0,109.0,13.6,0,5,10,0,2026-05-18T09:27:28.235374+05:30
Kanpur,Uttar Pradesh,26.4499,80.3319,37.8,25,0.0,986.9,8.25,41.4,250,218.9,57.4,10.2,283.0,100.0,9.7,0,5,10,0,2026-05-18T09:27:28.235380+05:30
Chandigarh,Chandigarh,30.7333,76.7794,33.9,30,0.0,964.2,7.75,36.0,61,19.8,18.5,8.8,673.0,144.0,12.3,0,5,7,0,2026-05-18T09:27:28.235386+05:30
Srinagar,Jammu and Kashmir,34.0837,74.7973,20.5,54,0.0,842.8,8.95,19.8,68,27.8,21.0,7.3,422.0,97.0,5.0,0,5,7,0,2026-05-18T09:27:28.235393+05:30
Jammu,Jammu and Kashmir,32.7266,74.857,33.0,29,0.0,967.1,8.55,30.2,66,22.8,20.1,13.7,344.0,106.0,4.5,0,5,7,0,2026-05-18T09:27:28.235399+05:30
Amritsar,Punjab,31.634,74.8723,33.3,42,0.0,975.1,8.45,23.8,79,41.4,29.8,12.9,595.0,92.0,10.2,0,5,7,1,2026-05-18T09:27:28.235407+05:30
Ludhiana,Punjab,30.901,75.8573,33.5,37,0.0,973.7,8.05,26.6,93,46.0,36.4,11.7,612.0,103.0,11.7,0,5,7,1,2026-05-18T09:27:28.235413+05:30
Jalandhar,Punjab,31.326,75.5762,32.9,38,0.0,974.4,8.2,26.3,101,57.9,41.7,14.3,595.0,98.0,10.4,0,5,7,1,2026-05-18T09:27:28.235419+05:30
Dehradun,Uttarakhand,30.6284,78.0322,24.5,38,0.0,830.6,8.2,36.0,40,6.0,3.8,2.2,190.0,129.0,0.9,0,5,7,0,2026-05-18T09:27:28.235425+05:30
Shimla,Himachal Pradesh,31.1048,77.1734,22.9,28,0.0,785.9,8.3,44.6,47,10.4,7.0,2.1,192.0,146.0,1.8,0,5,7,0,2026-05-18T09:27:28.235433+05:30
Manali,Himachal Pradesh,32.2396,77.1887,24.9,20,0.0,818.6,9.6,47.5,68,8.0,4.5,8.6,208.0,111.0,0.2,0,5,7,0,2026-05-18T09:27:28.235442+05:30
Gurgaon,Haryana,28.4595,77.0266,34.8,32,0.0,977.4,7.85,44.3,1143,1255.4,233.3,20.1,544.0,85.0,18.3,0,5,7,0,2026-05-18T09:27:28.235448+05:30
Noida,Uttar Pradesh,28.5355,77.391,35.0,33,0.0,980.2,7.75,33.8,1143,1255.4,233.3,20.1,746.0,85.0,18.3,0,5,7,1,2026-05-18T09:27:28.235455+05:30
Ghaziabad,Uttar Pradesh,28.6692,77.4538,34.5,34,0.0,978.5,7.75,37.1,601,579.3,165.8,16.8,475.0,108.0,23.3,0,5,7,1,2026-05-18T09:27:28.235460+05:30
Faridabad,Haryana,28.4089,77.3178,35.2,30,0.0,979.6,7.8,44.6,1143,1255.4,233.3,20.1,576.0,85.0,18.3,0,5,10,0,2026-05-18T09:27:28.235466+05:30
Meerut,Uttar Pradesh,28.9845,77.7064,33.7,37,0.0,977.2,7.65,38.5,601,579.3,165.8,16.8,431.0,108.0,23.3,0,5,7,1,2026-05-18T09:27:28.235472+05:30
Agra,Uttar Pradesh,27.1767,78.0081,36.8,28,0.0,983.5,8.1,42.1,484,789.8,133.2,15.0,303.0,87.0,11.2,0,5,10,0,2026-05-18T09:27:28.235478+05:30
Varanasi,Uttar Pradesh,25.3176,82.9739,39.0,23,0.0,992.9,8.7,47.2,122,92.9,36.6,13.5,471.0,104.0,16.5,0,5,10,0,2026-05-18T09:27:28.235484+05:30
Prayagraj,Uttar Pradesh,25.4358,81.8463,38.4,26,0.0,991.2,8.6,45.4,136,135.0,46.7,17.0,299.0,96.0,10.8,0,5,10,0,2026-05-18T09:27:28.235490+05:30
Gorakhpur,Uttar Pradesh,26.7606,83.3732,32.5,65,0.0,993.1,8.6,31.7,146,82.2,72.2,8.4,514.0,134.0,15.7,3,5,7,1,2026-05-18T09:27:28.235498+05:30
Bareilly,Uttar Pradesh,28.367,79.4304,32.2,44,0.0,982.5,8.05,38.2,141,317.6,101.5,14.4,438.0,107.0,13.2,0,5,7,1,2026-05-18T09:27:28.235504+05:30
Aligarh,Uttar Pradesh,27.8974,78.088,34.8,34,0.0,981.4,7.9,39.6,670,886.6,204.9,13.7,409.0,83.0,14.5,0,5,7,1,2026-05-18T09:27:28.235510+05:30
Moradabad,Uttar Pradesh,28.8386,78.7733,32.3,39,0.0,979.3,7.85,38.9,158,392.1,135.5,12.3,470.0,99.0,11.9,0,5,7,1,2026-05-18T09:27:28.235516+05:30
Saharanpur,Uttar Pradesh,29.9637,77.546,31.1,43,0.0,971.2,7.4,37.4,103,169.0,65.2,15.5,424.0,105.0,12.4,0,5,7,1,2026-05-18T09:27:28.235521+05:30
Jhansi,Uttar Pradesh,25.4484,78.5685,38.1,23,0.0,974.3,8.45,43.2,93,49.5,18.4,3.5,203.0,85.0,6.1,0,5,10,0,2026-05-18T09:27:31.547705+05:30
Surat,Gujarat,21.1702,72.8311,35.4,32,0.0,1004.3,7.6,36.7,91,52.4,35.9,37.1,198.0,44.0,82.8,0,5,7,0,2026-05-18T09:27:31.547740+05:30
Vadodara,Gujarat,22.3072,73.1812,35.5,29,0.0,1001.9,7.5,37.4,68,40.2,18.3,7.8,238.0,66.0,9.8,0,5,7,0,2026-05-18T09:27:31.547750+05:30
Rajkot,Gujarat,22.3039,70.8022,31.5,55,0.0,992.8,7.75,40.3,57,46.7,16.0,4.2,138.0,58.0,4.7,0,5,7,1,2026-05-18T09:27:31.547759+05:30
Thane,Maharashtra,19.2183,72.9781,32.5,63,0.0,1005.7,7.7,38.9,67,42.8,20.8,11.4,252.0,70.0,12.5,3,5,4,1,2026-05-18T09:27:31.547766+05:30
Nagpur,Maharashtra,21.1458,79.0882,36.3,37,0.0,971.5,8.95,34.6,86,30.2,25.0,9.3,309.0,107.0,16.6,0,5,10,1,2026-05-18T09:27:31.547774+05:30
Nashik,Maharashtra,19.9975,73.7898,33.0,34,0.0,944.4,5.5,43.2,65,45.6,18.7,4.5,191.0,87.0,3.6,0,5,3,0,2026-05-18T09:27:31.547781+05:30
Aurangabad,Maharashtra,19.8762,75.3433,34.8,25,0.0,943.2,8.7,32.8,54,45.9,22.5,5.1,183.0,108.0,9.4,0,5,7,0,2026-05-18T09:27:31.547787+05:30
Solapur,Maharashtra,17.6599,75.9064,34.6,38,0.0,955.3,8.75,41.8,73,29.9,22.9,6.4,235.0,100.0,8.8,0,5,7,1,2026-05-18T09:27:31.547794+05:30
Kolhapur,Maharashtra,16.705,74.2433,30.5,56,0.0,946.3,8.9,45.4,58,28.6,17.2,4.8,196.0,78.0,4.3,0,5,7,1,2026-05-18T09:27:31.547800+05:30
Goa,Goa,15.2993,74.124,30.5,73,0.0,996.1,6.6,34.2,65,42.3,18.7,2.2,162.0,72.0,2.6,3,5,7,1,2026-05-18T09:27:31.547807+05:30
Jodhpur,Rajasthan,26.2389,73.0243,34.8,20,0.0,980.8,8.4,42.1,103,290.6,82.9,3.0,181.0,80.0,4.4,0,5,7,0,2026-05-18T09:27:31.547814+05:30
Udaipur,Rajasthan,24.5854,73.7125,35.8,18,0.0,945.1,8.85,45.4,56,42.7,16.8,1.9,170.0,102.0,6.1,0,5,10,0,2026-05-18T09:27:31.547820+05:30
Kota,Rajasthan,25.2138,75.8648,38.6,19,0.0,976.0,8.4,39.6,96,84.5,25.5,3.8,183.0,87.0,6.0,0,5,10,0,2026-05-18T09:27:31.547827+05:30
Bikaner,Rajasthan,28.0229,73.3119,36.2,17,0.0,978.6,8.4,42.1,79,91.7,35.2,1.2,149.0,83.0,3.0,0,5,10,0,2026-05-18T09:27:31.547833+05:30
Ajmer,Rajasthan,26.4499,74.6399,34.2,23,0.0,953.2,8.4,41.0,78,223.5,51.5,3.1,186.0,83.0,5.1,0,5,7,0,2026-05-18T09:27:31.547840+05:30
Gwalior,Madhya Pradesh,26.2183,78.1828,38.2,23,0.0,979.1,8.25,46.4,112,78.7,25.3,5.2,195.0,78.0,5.1,0,5,10,0,2026-05-18T09:27:31.547847+05:30
Indore,Madhya Pradesh,22.7196,75.8577,36.3,22,0.0,946.7,8.65,40.7,66,26.8,16.0,3.6,296.0,85.0,4.9,0,5,10,0,2026-05-18T09:27:31.547853+05:30
Bhopal,Madhya Pradesh,23.2599,77.4126,38.3,19,0.0,951.6,8.7,46.4,57,26.8,18.3,4.6,339.0,107.0,5.6,0,5,10,0,2026-05-18T09:27:31.547860+05:30
Jabalpur,Madhya Pradesh,23.1815,79.9864,36.7,30,0.0,959.6,8.85,32.4,81,32.1,26.5,10.2,288.0,118.0,7.9,0,5,10,1,2026-05-18T09:27:31.547867+05:30
Ujjain,Madhya Pradesh,23.1765,75.7885,36.6,23,0.0,952.2,8.35,38.2,65,29.5,16.6,2.6,236.0,82.0,5.0,0,5,10,0,2026-05-18T09:27:31.547874+05:30
Visakhapatnam,Andhra Pradesh,17.6868,83.2185,33.5,59,0.0,1001.8,9.05,49.3,60,27.5,20.0,12.3,360.0,75.0,32.4,0,5,4,1,2026-05-18T09:27:31.547882+05:30
Vijayawada,Andhra Pradesh,16.5062,80.648,34.2,56,0.0,1000.3,8.5,31.7,56,24.5,17.9,3.3,232.0,116.0,9.6,0,5,4,1,2026-05-18T09:27:31.547888+05:30
Guntur,Andhra Pradesh,16.3067,80.4365,34.2,57,0.0,1001.5,8.8,37.1,55,26.0,19.7,3.1,239.0,122.0,9.7,0,5,4,1,2026-05-18T09:27:31.547896+05:30
Nellore,Andhra Pradesh,14.4426,79.9865,34.2,54,0.0,1003.2,8.8,38.9,65,20.5,16.9,8.6,265.0,93.0,19.0,0,5,4,1,2026-05-18T09:27:31.547904+05:30
Kurnool,Andhra Pradesh,15.8281,78.0373,33.3,54,0.0,975.1,9.1,56.5,58,21.9,19.1,2.9,258.0,105.0,8.1,0,5,7,1,2026-05-18T09:27:31.547912+05:30
Kakinada,Andhra Pradesh,16.9891,82.2475,34.4,55,0.0,1005.6,8.45,41.0,53,23.9,15.4,1.5,216.0,96.0,2.2,0,5,4,1,2026-05-18T09:27:31.547919+05:30
Tirupati,Andhra Pradesh,13.6288,79.4192,32.3,56,0.0,989.1,8.1,29.2,70,27.7,22.0,5.9,300.0,106.0,10.2,0,5,7,1,2026-05-18T09:27:31.547925+05:30
Warangal,Telangana,17.9689,79.5941,31.8,60,0.0,977.9,9.2,36.4,67,21.9,16.8,4.7,239.0,75.0,6.1,0,5,7,1,2026-05-18T09:27:31.547932+05:30
Nizamabad,Telangana,18.6725,78.0941,35.5,39,0.0,963.2,9.15,30.2,74,21.6,18.2,5.6,272.0,106.0,6.6,0,5,10,1,2026-05-18T09:27:31.547938+05:30
Mysore,Karnataka,12.2958,76.6396,25.1,80,0.0,927.6,5.9,47.9,65,14.5,10.3,6.8,212.0,75.0,3.2,7,5,3,1,2026-05-18T09:27:31.547945+05:30
Mangalore,Karnataka,12.9141,74.856,26.0,93,0.0,1006.2,5.1,29.9,60,23.1,14.5,4.9,205.0,74.0,3.0,7,5,0,1,2026-05-18T09:27:31.547952+05:30
Hubli-Dharwad,Karnataka,15.3647,75.124,31.6,53,0.0,939.6,8.2,43.9,54,26.4,15.8,4.5,189.0,74.0,3.0,0,5,7,1,2026-05-18T09:27:31.547958+05:30
Belgaum,Karnataka,15.8497,74.4977,30.1,55,0.0,924.9,9.15,43.9,58,32.2,17.9,4.1,165.0,89.0,4.8,0,5,7,1,2026-05-18T09:27:34.865601+05:30
Coimbatore,Tamil Nadu,11.0168,76.9558,28.2,70,0.0,960.7,7.5,51.5,39,7.0,5.6,5.6,206.0,74.0,3.4,7,5,7,1,2026-05-18T09:27:34.865636+05:30
Madurai,Tamil Nadu,9.9252,78.1198,30.9,67,0.0,991.9,9.0,36.0,80,16.1,13.7,8.9,287.0,86.0,6.3,3,5,7,1,2026-05-18T09:27:34.865647+05:30
Trichy,Tamil Nadu,10.7905,78.7047,30.5,71,0.0,998.3,8.75,28.8,71,19.2,16.4,8.4,284.0,84.0,6.5,3,5,7,1,2026-05-18T09:27:34.865655+05:30
Salem,Tamil Nadu,11.6643,78.146,30.0,66,0.0,976.4,8.45,40.3,69,15.6,11.6,9.0,267.0,80.0,10.5,7,5,7,1,2026-05-18T09:27:34.865663+05:30
Tirunelveli,Tamil Nadu,8.7139,77.7567,31.5,60,0.0,1002.6,8.9,23.0,28,7.2,5.7,3.3,199.0,69.0,1.7,0,5,4,1,2026-05-18T09:27:34.865670+05:30
Vellore,Tamil Nadu,12.9165,79.1325,31.5,59,0.0,982.8,8.6,31.0,77,33.4,25.0,5.6,293.0,105.0,8.8,0,5,7,1,2026-05-18T09:27:34.865677+05:30
Erode,Tamil Nadu,11.341,77.7172,30.1,66,0.0,988.0,6.95,47.9,59,12.6,10.2,10.3,243.0,65.0,4.5,3,5,7,1,2026-05-18T09:27:34.865684+05:30
Kochi,Kerala,9.9312,76.2673,28.1,83,0.1,1007.9,8.1,39.6,46,11.6,10.1,9.7,271.0,61.0,4.9,10,5,4,1,2026-05-18T09:27:34.865692+05:30
Thiruvananthapuram,Kerala,8.5241,76.9366,27.2,87,0.1,1008.0,7.5,35.6,32,10.7,6.7,2.0,173.0,73.0,0.7,10,0,4,1,2026-05-18T09:27:34.865699+05:30
Kozhikode,Kerala,11.2588,75.7804,25.8,96,0.1,1007.4,3.15,28.8,45,8.1,5.0,1.4,280.0,81.0,0.9,10,5,0,1,2026-05-18T09:27:34.865706+05:30
Thrissur,Kerala,10.5276,76.2144,27.2,87,0.1,1006.4,7.65,32.0,42,9.4,8.6,9.1,323.0,55.0,3.8,10,5,4,1,2026-05-18T09:27:34.865714+05:30
Kannur,Kerala,11.8745,75.3704,24.9,98,0.3,1006.7,4.3,32.8,60,14.4,9.7,4.8,191.0,70.0,2.0,6,5,0,1,2026-05-18T09:27:34.865721+05:30
Patna,Bihar,25.5941,85.1376,32.7,67,0.0,996.3,8.8,26.6,154,70.8,58.6,9.1,526.0,119.0,15.2,3,5,7,1,2026-05-18T09:27:34.865727+05:30
Gaya,Bihar,24.7914,85.0002,37.0,33,0.0,989.5,8.85,45.7,120,64.0,34.7,9.6,283.0,119.0,23.4,0,5,10,1,2026-05-18T09:27:34.865734+05:30
Muzaffarpur,Bihar,26.1209,85.3647,31.2,69,0.0,996.6,8.8,36.0,155,68.5,56.9,7.8,461.0,124.0,13.4,3,5,7,1,2026-05-18T09:27:34.865741+05:30
Bhagalpur,Bihar,25.2425,87.0117,30.1,73,0.0,997.6,8.8,33.8,153,54.2,48.2,11.7,596.0,104.0,20.5,3,5,7,1,2026-05-18T09:27:34.865747+05:30
Ranchi,Jharkhand,23.3441,85.3096,32.2,48,0.0,936.4,9.25,41.0,149,53.7,45.8,4.8,298.0,150.0,18.0,0,5,7,1,2026-05-18T09:27:34.865753+05:30
Jamshedpur,Jharkhand,22.8046,86.2029,34.5,52,0.0,988.0,9.05,44.6,136,42.5,36.7,10.8,379.0,139.0,39.2,0,5,7,1,2026-05-18T09:27:34.865759+05:30
Dhanbad,Jharkhand,23.7957,86.4304,34.6,47,0.0,976.6,9.0,41.0,156,75.4,67.1,28.2,351.0,128.0,84.8,0,5,7,1,2026-05-18T09:27:34.865765+05:30
Bokaro,Jharkhand,23.6693,86.1511,35.4,45,0.0,980.2,9.05,37.1,153,69.6,61.0,16.0,362.0,143.0,50.4,0,5,10,1,2026-05-18T09:27:34.865772+05:30
Bhubaneswar,Odisha,20.2961,85.8245,34.8,58,0.0,999.7,4.8,38.5,56,20.4,15.9,3.8,249.0,87.0,9.3,0,5,3,1,2026-05-18T09:27:34.865779+05:30
Cuttack,Odisha,20.4625,85.8828,34.5,61,0.0,1001.5,6.4,37.8,56,20.4,15.9,3.8,275.0,87.0,9.3,3,5,4,1,2026-05-18T09:27:34.865785+05:30
Rourkela,Odisha,22.2604,84.8536,33.9,51,0.0,983.1,8.95,38.9,154,40.6,34.6,5.5,392.0,140.0,13.1,0,5,7,1,2026-05-18T09:27:34.865792+05:30
Raipur,Chhattisgarh,21.2514,81.6296,35.2,46,0.0,973.1,8.95,40.7,115,36.1,31.5,21.0,602.0,100.0,51.2,0,5,10,1,2026-05-18T09:27:34.865798+05:30
Bhilai,Chhattisgarh,21.1938,81.3509,34.0,50,0.0,973.6,8.95,40.0,99,30.0,26.7,16.4,889.0,100.0,42.1,0,5,7,1,2026-05-18T09:27:34.865804+05:30
Guwahati,Assam,26.1158,91.7086,24.2,96,0.4,1000.4,8.55,24.5,80,19.2,13.5,3.8,338.0,101.0,3.6,6,5,4,1,2026-05-18T09:27:34.865810+05:30
Agartala,Tripura,23.8315,91.2868,29.3,83,0.0,1004.2,8.9,47.5,76,29.5,18.7,4.4,185.0,78.0,2.3,7,5,4,1,2026-05-18T09:27:34.865817+05:30
Shillong,Meghalaya,25.5788,91.8933,23.5,62,0.0,856.8,8.1,37.4,58,9.9,5.8,3.8,229.0,99.0,3.7,3,5,7,0,2026-05-18T09:27:34.865823+05:30
Imphal,Manipur,24.817,93.9368,24.4,78,0.0,922.7,7.95,33.5,81,24.1,13.2,1.4,269.0,113.0,4.0,3,5,7,1,2026-05-18T09:27:34.865829+05:30
Aizawl,Mizoram,23.7271,92.7176,25.6,61,0.0,892.7,9.05,38.5,68,28.9,15.1,1.3,160.0,78.0,2.7,7,5,7,1,2026-05-18T09:27:34.865835+05:30
Kohima,Nagaland,25.6701,94.1077,24.6,65,0.0,855.7,3.9,34.2,55,27.6,13.6,1.3,226.0,111.0,3.1,3,5,3,1,2026-05-18T09:27:34.865841+05:30
Gangtok,Sikkim,27.3314,88.6138,20.6,72,0.0,836.6,9.1,36.0,78,33.6,24.2,1.9,353.0,130.0,2.5,3,5,7,0,2026-05-18T09:27:34.865848+05:30
Siliguri,West Bengal,26.7271,88.3953,27.0,74,0.0,990.8,8.75,29.2,117,66.1,49.2,4.5,395.0,140.0,5.4,7,5,7,1,2026-05-18T09:27:38.188051+05:30
Durgapur,West Bengal,23.5204,87.3119,34.9,56,0.0,991.1,8.95,44.6,144,70.5,63.8,31.7,453.0,119.0,82.0,0,5,7,1,2026-05-18T09:27:38.188086+05:30
Asansol,West Bengal,23.6739,86.9524,35.5,50,0.0,989.7,9.0,42.1,150,72.6,65.2,30.1,1077.0,120.0,81.8,0,5,10,1,2026-05-18T09:27:38.188098+05:30
Pondicherry,Puducherry,11.9139,79.8145,30.4,75,0.0,1006.5,7.1,42.1,62,12.8,10.6,8.7,286.0,78.0,11.6,3,5,4,1,2026-05-18T09:27:38.188106+05:30
Port Blair,Andaman and Nicobar Islands,11.6234,92.7265,29.2,77,0.0,1007.1,4.3,42.8,21,10.4,6.1,0.4,115.0,47.0,0.3,7,5,0,1,2026-05-18T09:27:38.188114+05:30
Haridwar,Uttarakhand,29.9457,78.1642,30.5,47,0.0,969.6,7.55,25.9,75,36.4,24.6,5.9,358.0,148.0,9.8,0,5,7,1,2026-05-18T09:27:38.188122+05:30
Rishikesh,Uttarakhand,30.0869,78.2676,31.8,41,0.0,962.3,7.65,27.7,62,17.0,13.0,2.1,254.0,159.0,6.7,0,5,7,1,2026-05-18T09:27:38.188129+05:30
Nainital,Uttarakhand,29.3919,79.4542,23.2,39,0.0,806.6,8.5,29.9,66,25.1,13.0,1.9,217.0,151.0,4.7,0,5,7,0,2026-05-18T09:27:38.188137+05:30
Mussoorie,Uttarakhand,30.4599,78.0664,23.4,39,0.0,803.8,8.05,44.3,62,13.5,12.2,3.5,224.0,158.0,8.1,0,5,7,0,2026-05-18T09:27:38.188144+05:30
Dharamshala,Himachal Pradesh,32.219,76.3234,27.0,35,0.0,867.5,8.45,42.1,36,6.1,3.4,2.2,220.0,103.0,0.6,4,5,7,0,2026-05-18T09:27:38.188152+05:30
Dalhousie,Himachal Pradesh,32.5387,75.971,25.5,22,0.0,805.4,8.7,41.0,55,11.0,8.1,6.4,228.0,109.0,1.1,4,5,7,0,2026-05-18T09:27:38.188159+05:30
Patiala,Punjab,30.3398,76.3869,34.8,33,0.0,973.4,7.65,33.5,649,360.4,75.2,7.8,500.0,102.0,10.6,0,5,7,1,2026-05-18T09:27:38.188182+05:30
Bhatinda,Punjab,30.211,74.9455,36.5,33,0.0,978.9,8.3,41.0,84,47.7,29.6,7.1,417.0,108.0,6.8,0,5,10,1,2026-05-18T09:27:38.188189+05:30
Rohtak,Haryana,28.8955,76.6066,34.5,38,0.0,977.6,7.75,43.6,953,599.8,133.6,14.0,473.0,85.0,10.9,0,5,7,1,2026-05-18T09:27:38.188196+05:30
Panipat,Haryana,29.3909,76.9635,35.0,34,0.0,975.8,7.6,35.6,2053,1352.3,223.1,9.6,436.0,98.0,13.4,0,5,7,1,2026-05-18T09:27:38.188203+05:30
Mathura,Uttar Pradesh,27.4924,77.6737,36.7,29,0.0,982.6,8.0,40.7,508,773.0,140.2,11.6,300.0,76.0,8.2,0,5,10,0,2026-05-18T09:27:38.188210+05:30
Vrindavan,Uttar Pradesh,27.5823,77.7027,36.1,32,0.0,983.1,8.0,38.9,508,773.0,140.2,11.6,300.0,76.0,8.2,0,5,10,1,2026-05-18T09:27:38.188217+05:30
Ayodhya,Uttar Pradesh,26.7922,82.1998,33.8,48,0.0,990.9,8.35,26.3,143,90.8,63.1,16.5,490.0,111.0,14.3,0,5,7,1,2026-05-18T09:27:38.188223+05:30
Ratlam,Madhya Pradesh,23.3315,75.0367,36.0,22,0.0,953.3,8.15,44.6,61,28.2,15.2,2.1,195.0,80.0,4.1,0,5,10,0,2026-05-18T09:27:38.188230+05:30
Sagar,Madhya Pradesh,23.8388,78.7378,39.8,15,0.0,948.2,8.75,40.3,77,26.0,12.5,3.4,177.0,113.0,3.4,0,5,10,0,2026-05-18T09:27:38.188237+05:30
Satna,Madhya Pradesh,24.6005,80.8322,38.5,24,0.0,968.1,8.75,56.2,94,88.2,29.7,8.1,236.0,111.0,11.3,0,5,10,0,2026-05-18T09:27:38.188244+05:30
Akola,Maharashtra,20.7002,77.0082,37.5,24,0.0,972.9,8.9,31.7,50,30.7,17.4,7.0,225.0,103.0,15.2,0,5,10,0,2026-05-18T09:27:38.188252+05:30
Amravati,Maharashtra,20.9374,77.7796,37.4,23,0.0,965.4,8.9,27.7,54,25.0,15.5,6.8,201.0,104.0,12.9,0,5,10,0,2026-05-18T09:27:38.188261+05:30
Latur,Maharashtra,18.4088,76.5604,35.1,32,0.0,938.7,9.05,34.2,70,36.3,29.7,5.4,242.0,121.0,7.3,0,5,10,0,2026-05-18T09:27:38.188267+05:30
Nanded,Maharashtra,19.1383,77.3091,37.0,30,0.0,966.6,9.0,30.2,73,32.0,26.8,6.8,294.0,118.0,8.9,0,5,10,1,2026-05-18T09:27:38.188274+05:30
Gulbarga,Karnataka,17.3297,76.8343,34.8,39,0.0,956.8,9.1,30.2,80,30.3,23.3,7.0,240.0,105.0,8.8,0,5,7,1,2026-05-18T09:27:38.188281+05:30
Bidar,Karnataka,17.9104,77.5199,33.7,42,0.0,934.4,9.0,32.8,76,24.9,19.9,5.9,246.0,107.0,8.6,0,5,7,1,2026-05-18T09:27:38.188287+05:30
Hospet,Karnataka,15.2689,76.3909,30.1,64,0.0,954.6,8.45,44.3,77,20.0,14.5,6.6,216.0,80.0,4.8,3,5,7,1,2026-05-18T09:27:38.188293+05:30
Tirupur,Tamil Nadu,11.1085,77.3411,29.7,63,0.0,974.1,4.6,52.9,60,13.8,11.1,9.9,190.0,70.0,5.5,7,5,3,1,2026-05-18T09:27:38.188300+05:30
Alappuzha,Kerala,9.4981,76.3388,27.9,86,0.1,1008.2,7.1,36.7,41,10.8,8.2,5.2,188.0,77.0,2.6,10,0,4,1,2026-05-18T09:27:38.188306+05:30
Munnar,Kerala,10.0889,77.0595,20.0,87,0.0,857.1,5.0,29.5,24,4.7,4.2,3.4,183.0,67.0,1.9,3,5,3,1,2026-05-18T09:27:38.188313+05:30
Silchar,Assam,24.8333,92.7789,26.3,83,0.1,1004.2,8.75,23.8,78,21.4,14.3,3.1,224.0,88.0,4.2,10,5,4,1,2026-05-18T09:27:38.188321+05:30
Dibrugarh,Assam,27.4728,94.912,22.8,95,0.4,995.2,7.5,25.6,81,27.5,18.9,2.3,288.0,111.0,1.6,6,5,7,1,2026-05-18T09:27:38.188328+05:30
