city,state,latitude,longitude,temp,humidity,rain,pressure,uv_index,wind_gusts,aqi,pm10,pm2_5,mosquito_risk,arthritis_risk,migraine_risk,frizz_risk,updated_at
Delhi,Delhi,28.6139,77.209,17.6,93,0.0,984.0,6.7,38.9,126,123.9,38.9,3,10,7,1,2026-04-05T03:04:40.129225+05:30
Mumbai,Maharashtra,19.076,72.8777,27.4,78,0.0,1009.2,7.9,24.1,73,71.5,24.6,7,0,4,1,2026-04-05T03:04:40.129274+05:30
Bangalore,Karnataka,12.9716,77.5946,22.5,82,0.0,910.6,9.6,34.6,87,24.9,23.7,3,5,7,1,2026-04-05T03:04:40.129290+05:30
Hyderabad,Telangana,17.385,78.4867,25.1,75,0.0,951.6,9.15,31.0,100,55.1,49.1,7,5,7,1,2026-04-05T03:04:40.129300+05:30
Chennai,Tamil Nadu,13.0827,80.2707,28.0,88,0.0,1005.8,9.4,34.6,54,15.8,12.2,7,5,4,1,2026-04-05T03:04:40.129310+05:30
Kolkata,West Bengal,22.5726,88.3639,27.1,94,0.0,1002.9,7.25,28.4,113,36.4,34.1,7,5,4,1,2026-04-05T03:04:40.129319+05:30
Pune,Maharashtra,18.5204,73.8567,21.3,79,0.0,948.0,8.5,39.2,80,30.5,22.9,3,5,7,1,2026-04-05T03:04:40.129330+05:30
Ahmedabad,Gujarat,23.0225,72.5714,24.0,54,0.0,1003.0,7.65,23.8,52,30.4,20.4,0,5,4,0,2026-04-05T03:04:40.129339+05:30
Jaipur,Rajasthan,26.9124,75.7873,20.3,82,0.0,959.8,7.55,35.6,85,87.5,27.9,3,5,7,1,2026-04-05T03:04:40.129347+05:30
Lucknow,Uttar Pradesh,26.8467,80.9462,22.8,76,0.0,992.9,7.45,34.2,154,94.8,31.8,3,5,7,1,2026-04-05T03:04:40.129355+05:30
Kanpur,Uttar Pradesh,26.4499,80.3319,22.0,86,0.0,991.4,7.45,33.8,246,61.7,27.1,3,5,7,1,2026-04-05T03:04:40.129362+05:30
Chandigarh,Chandigarh,30.7333,76.7794,16.8,88,0.0,969.3,6.85,26.3,86,25.6,20.7,3,10,7,0,2026-04-05T03:04:40.129370+05:30
Srinagar,Jammu and Kashmir,34.0837,74.7973,6.9,91,0.0,839.6,7.8,18.0,69,39.1,33.2,3,10,7,0,2026-04-05T03:04:40.129378+05:30
Jammu,Jammu and Kashmir,32.7266,74.857,14.6,84,0.0,974.5,7.5,26.3,76,29.1,21.7,3,10,7,0,2026-04-05T03:04:40.129386+05:30
Amritsar,Punjab,31.634,74.8723,14.7,98,0.0,982.7,7.45,27.7,96,90.3,51.8,3,10,7,0,2026-04-05T03:04:40.129393+05:30
Ludhiana,Punjab,30.901,75.8573,16.0,93,0.0,980.1,7.05,30.6,108,95.7,58.7,3,10,7,0,2026-04-05T03:04:40.129401+05:30
Jalandhar,Punjab,31.326,75.5762,16.1,93,0.0,981.4,7.25,30.2,99,83.4,44.1,3,10,7,0,2026-04-05T03:04:40.129410+05:30
Dehradun,Uttarakhand,30.6284,78.0322,12.2,75,0.0,828.2,6.6,41.0,34,15.9,10.3,3,5,7,0,2026-04-05T03:04:40.129417+05:30
Shimla,Himachal Pradesh,31.1048,77.1734,9.5,77,0.0,781.3,6.65,39.2,45,23.2,11.5,3,5,7,0,2026-04-05T03:04:40.129424+05:30
Manali,Himachal Pradesh,32.2396,77.1887,11.9,66,0.0,816.5,9.35,33.5,41,15.6,10.9,3,5,7,0,2026-04-05T03:04:40.129431+05:30
Gurgaon,Haryana,28.4595,77.0266,16.6,96,0.0,982.5,6.9,38.9,377,103.6,36.7,3,10,7,0,2026-04-05T03:04:40.129438+05:30
Noida,Uttar Pradesh,28.5355,77.391,17.7,93,0.0,985.5,6.6,36.7,377,103.6,36.7,3,10,7,1,2026-04-05T03:04:40.129446+05:30
Ghaziabad,Uttar Pradesh,28.6692,77.4538,17.3,94,0.0,983.6,6.75,32.4,126,223.5,55.3,3,10,7,1,2026-04-05T03:04:40.129453+05:30
Faridabad,Haryana,28.4089,77.3178,17.4,93,0.0,984.9,6.65,32.4,377,103.6,36.7,3,10,7,1,2026-04-05T03:04:40.129461+05:30
Meerut,Uttar Pradesh,28.9845,77.7064,17.3,96,0.0,982.4,6.8,33.1,126,223.5,55.3,3,10,7,1,2026-04-05T03:04:40.129467+05:30
Agra,Uttar Pradesh,27.1767,78.0081,19.4,87,0.0,988.7,7.3,41.4,290,174.2,55.2,3,10,7,1,2026-04-05T03:04:40.129474+05:30
Varanasi,Uttar Pradesh,25.3176,82.9739,23.5,91,0.0,997.3,8.1,35.3,82,84.5,37.8,3,5,7,1,2026-04-05T03:04:40.129483+05:30
Prayagraj,Uttar Pradesh,25.4358,81.8463,23.1,88,0.0,995.6,7.95,33.8,85,79.4,30.6,3,5,7,1,2026-04-05T03:04:40.129491+05:30
Gorakhpur,Uttar Pradesh,26.7606,83.3732,26.7,42,0.0,994.7,7.85,43.6,96,129.0,47.6,4,5,7,0,2026-04-05T03:04:40.129498+05:30
Bareilly,Uttar Pradesh,28.367,79.4304,20.4,84,0.0,986.4,7.2,30.2,89,95.0,39.5,3,5,7,1,2026-04-05T03:04:40.129505+05:30
Aligarh,Uttar Pradesh,27.8974,78.088,18.0,90,0.0,986.5,7.1,41.8,490,393.9,78.9,3,10,7,1,2026-04-05T03:04:40.129512+05:30
Moradabad,Uttar Pradesh,28.8386,78.7733,19.4,90,0.0,983.8,7.0,31.3,99,89.9,39.5,3,10,7,1,2026-04-05T03:04:40.129518+05:30
Saharanpur,Uttar Pradesh,29.9637,77.546,17.9,92,0.0,976.2,6.6,37.4,121,46.3,30.9,3,10,7,1,2026-04-05T03:04:40.129525+05:30
Jhansi,Uttar Pradesh,25.4484,78.5685,21.6,90,0.0,977.6,7.85,33.1,86,33.4,18.9,3,5,7,1,2026-04-05T03:04:43.390409+05:30
Surat,Gujarat,21.1702,72.8311,26.1,66,0.0,1007.3,7.7,28.4,78,37.8,21.9,7,5,4,1,2026-04-05T03:04:43.390440+05:30
Vadodara,Gujarat,22.3072,73.1812,25.1,90,0.0,1004.8,7.8,18.0,76,38.8,22.7,7,5,4,1,2026-04-05T03:04:43.390450+05:30
Rajkot,Gujarat,22.3039,70.8022,21.4,79,0.0,995.6,7.65,30.2,56,24.3,10.9,3,5,7,1,2026-04-05T03:04:43.390458+05:30
Thane,Maharashtra,19.2183,72.9781,25.9,83,0.0,1008.7,7.9,34.9,73,71.5,24.6,7,0,4,1,2026-04-05T03:04:43.390466+05:30
Nagpur,Maharashtra,21.1458,79.0882,24.4,81,0.0,972.3,8.7,29.2,101,33.4,30.5,3,5,7,1,2026-04-05T03:04:43.390473+05:30
Nashik,Maharashtra,19.9975,73.7898,19.9,85,0.0,945.3,8.15,34.6,55,34.3,16.5,3,10,7,1,2026-04-05T03:04:43.390481+05:30
Aurangabad,Maharashtra,19.8762,75.3433,23.7,64,0.0,943.9,8.85,40.7,59,27.2,17.3,3,5,7,1,2026-04-05T03:04:43.390488+05:30
Solapur,Maharashtra,17.6599,75.9064,25.8,62,0.0,957.1,8.6,27.4,83,26.3,24.3,7,5,7,1,2026-04-05T03:04:43.390496+05:30
Kolhapur,Maharashtra,16.705,74.2433,19.6,82,0.0,947.6,8.15,42.8,82,27.4,22.7,3,10,7,1,2026-04-05T03:04:43.390503+05:30
Goa,Goa,15.2993,74.124,26.7,77,0.0,998.2,8.9,37.1,65,34.5,20.6,7,5,7,1,2026-04-05T03:04:43.390510+05:30
Jodhpur,Rajasthan,26.2389,73.0243,21.1,49,0.0,984.2,7.8,26.6,82,204.0,31.7,0,5,7,0,2026-04-05T03:04:43.390517+05:30
Udaipur,Rajasthan,24.5854,73.7125,19.1,55,0.0,946.5,8.0,33.5,49,18.2,9.7,0,5,7,0,2026-04-05T03:04:43.390524+05:30
Kota,Rajasthan,25.2138,75.8648,23.3,54,0.0,979.2,7.85,28.4,66,20.3,13.2,0,5,7,0,2026-04-05T03:04:43.390531+05:30
Bikaner,Rajasthan,28.0229,73.3119,20.5,61,0.0,983.6,7.6,25.6,60,53.9,18.8,3,5,7,0,2026-04-05T03:04:43.390537+05:30
Ajmer,Rajasthan,26.4499,74.6399,20.5,59,0.0,954.8,7.75,29.5,67,68.2,21.0,0,5,7,0,2026-04-05T03:04:43.390544+05:30
Gwalior,Madhya Pradesh,26.2183,78.1828,19.5,89,0.0,984.7,7.6,49.0,102,42.7,20.3,3,10,7,1,2026-04-05T03:04:43.390550+05:30
Indore,Madhya Pradesh,22.7196,75.8577,21.4,76,0.0,947.7,8.35,28.4,68,48.3,28.7,3,5,7,1,2026-04-05T03:04:43.390557+05:30
Bhopal,Madhya Pradesh,23.2599,77.4126,21.1,78,0.0,953.3,8.3,32.8,61,21.1,14.3,3,5,7,1,2026-04-05T03:04:43.390564+05:30
Jabalpur,Madhya Pradesh,23.1815,79.9864,23.1,76,0.0,961.1,8.5,41.4,73,25.3,19.9,3,5,7,1,2026-04-05T03:04:43.390570+05:30
Ujjain,Madhya Pradesh,23.1765,75.7885,22.0,63,0.0,953.6,8.25,32.4,70,39.9,23.3,3,5,7,0,2026-04-05T03:04:43.390577+05:30
Visakhapatnam,Andhra Pradesh,17.6868,83.2185,26.2,92,0.0,1002.0,9.1,32.8,60,21.5,18.6,7,5,4,1,2026-04-05T03:04:43.390585+05:30
Vijayawada,Andhra Pradesh,16.5062,80.648,26.1,87,0.0,1001.1,8.65,20.5,60,26.7,25.4,7,5,4,1,2026-04-05T03:04:43.390592+05:30
Guntur,Andhra Pradesh,16.3067,80.4365,26.1,90,0.0,1002.3,8.65,19.4,59,24.6,23.3,7,5,4,1,2026-04-05T03:04:43.390599+05:30
Nellore,Andhra Pradesh,14.4426,79.9865,26.6,93,0.0,1004.1,9.3,26.3,56,15.5,14.4,7,5,4,1,2026-04-05T03:04:43.390606+05:30
Kurnool,Andhra Pradesh,15.8281,78.0373,28.5,59,0.0,975.4,9.2,28.4,66,33.1,29.1,4,5,7,1,2026-04-05T03:04:43.390614+05:30
Kakinada,Andhra Pradesh,16.9891,82.2475,25.0,93,0.0,1005.9,9.05,32.8,38,21.8,18.3,7,5,4,1,2026-04-05T03:04:43.390620+05:30
Tirupati,Andhra Pradesh,13.6288,79.4192,26.5,90,0.0,990.4,8.6,37.8,67,26.5,25.7,7,5,7,1,2026-04-05T03:04:43.390627+05:30
Warangal,Telangana,17.9689,79.5941,24.8,83,0.0,977.5,7.25,38.5,114,47.8,43.7,3,5,7,1,2026-04-05T03:04:43.390633+05:30
Nizamabad,Telangana,18.6725,78.0941,25.7,73,0.0,963.6,8.3,42.8,118,64.3,55.5,7,5,7,1,2026-04-05T03:04:43.390640+05:30
Mysore,Karnataka,12.2958,76.6396,21.8,93,0.0,927.4,8.3,36.4,69,21.5,20.6,3,5,7,1,2026-04-05T03:04:43.390646+05:30
Mangalore,Karnataka,12.9141,74.856,28.6,82,0.0,1006.2,9.2,34.6,64,31.0,27.1,7,5,4,1,2026-04-05T03:04:43.390653+05:30
Hubli-Dharwad,Karnataka,15.3647,75.124,21.8,90,0.0,940.4,9.25,36.4,65,21.0,13.0,3,5,7,1,2026-04-05T03:04:43.390660+05:30
Belgaum,Karnataka,15.8497,74.4977,19.5,90,0.0,924.9,9.3,38.9,68,32.4,20.8,3,10,7,1,2026-04-05T03:04:46.648884+05:30
Coimbatore,Tamil Nadu,11.0168,76.9558,24.5,79,0.0,961.1,9.3,45.7,60,20.3,19.3,3,5,7,1,2026-04-05T03:04:46.648917+05:30
Madurai,Tamil Nadu,9.9252,78.1198,25.7,87,0.0,991.9,6.05,15.5,79,33.5,32.8,7,5,7,1,2026-04-05T03:04:46.648929+05:30
Trichy,Tamil Nadu,10.7905,78.7047,25.8,89,0.0,998.9,8.9,34.9,68,31.1,30.0,7,5,7,1,2026-04-05T03:04:46.648939+05:30
Salem,Tamil Nadu,11.6643,78.146,25.4,85,0.0,976.6,9.5,31.7,93,26.1,24.2,7,5,7,1,2026-04-05T03:04:46.648997+05:30
Tirunelveli,Tamil Nadu,8.7139,77.7567,26.3,76,0.0,1002.0,9.4,31.3,59,17.2,16.5,7,5,4,1,2026-04-05T03:04:46.649005+05:30
Vellore,Tamil Nadu,12.9165,79.1325,25.7,85,0.0,983.7,8.75,37.4,78,39.5,37.8,7,5,7,1,2026-04-05T03:04:46.649013+05:30
Erode,Tamil Nadu,11.341,77.7172,27.0,76,0.0,988.4,9.45,36.7,71,27.6,26.2,7,5,7,1,2026-04-05T03:04:46.649020+05:30
Kochi,Kerala,9.9312,76.2673,28.5,82,0.0,1008.2,9.15,30.6,62,25.6,24.4,7,0,4,1,2026-04-05T03:04:46.649028+05:30
Thiruvananthapuram,Kerala,8.5241,76.9366,27.9,84,0.0,1007.5,9.05,33.8,54,17.2,13.0,7,5,4,1,2026-04-05T03:04:46.649036+05:30
Kozhikode,Kerala,11.2588,75.7804,28.1,83,0.0,1007.4,9.15,33.5,44,16.0,12.0,7,5,4,1,2026-04-05T03:04:46.649042+05:30
Thrissur,Kerala,10.5276,76.2144,26.6,92,0.0,1006.5,8.95,34.9,59,28.3,25.6,7,5,4,1,2026-04-05T03:04:46.649050+05:30
Kannur,Kerala,11.8745,75.3704,27.2,83,0.0,1006.6,9.2,37.4,59,23.2,21.2,7,5,4,1,2026-04-05T03:04:46.649057+05:30
Patna,Bihar,25.5941,85.1376,27.2,62,0.0,998.9,8.25,44.6,83,64.7,37.5,7,5,7,1,2026-04-05T03:04:46.649064+05:30
Gaya,Bihar,24.7914,85.0002,25.0,76,0.0,993.6,8.4,30.6,75,34.1,27.0,7,5,7,1,2026-04-05T03:04:46.649070+05:30
Muzaffarpur,Bihar,26.1209,85.3647,26.2,67,0.0,998.2,8.25,37.4,87,69.6,39.1,7,5,7,1,2026-04-05T03:04:46.649076+05:30
Bhagalpur,Bihar,25.2425,87.0117,26.2,69,0.0,997.9,7.95,38.2,81,44.0,28.3,7,5,7,1,2026-04-05T03:04:46.649083+05:30
Ranchi,Jharkhand,23.3441,85.3096,22.8,70,0.0,936.5,8.55,32.4,75,22.0,19.9,3,5,7,1,2026-04-05T03:04:46.649089+05:30
Jamshedpur,Jharkhand,22.8046,86.2029,27.1,63,0.0,988.4,8.15,30.6,103,38.5,35.7,7,5,7,1,2026-04-05T03:04:46.649095+05:30
Dhanbad,Jharkhand,23.7957,86.4304,26.3,57,0.0,977.6,8.05,43.6,88,35.3,33.2,4,5,7,1,2026-04-05T03:04:46.649102+05:30
Bokaro,Jharkhand,23.6693,86.1511,26.5,52,0.0,982.2,8.65,39.2,91,36.7,34.8,4,5,7,0,2026-04-05T03:04:46.649108+05:30
Bhubaneswar,Odisha,20.2961,85.8245,26.2,94,0.0,1000.5,8.5,26.3,88,27.6,25.1,7,5,4,1,2026-04-05T03:04:46.649116+05:30
Cuttack,Odisha,20.4625,85.8828,26.3,89,0.0,1002.2,8.45,26.3,88,27.6,25.1,7,5,4,1,2026-04-05T03:04:46.649123+05:30
Rourkela,Odisha,22.2604,84.8536,25.7,76,0.0,983.5,8.55,38.2,115,54.4,51.2,7,5,7,1,2026-04-05T03:04:46.649129+05:30
Raipur,Chhattisgarh,21.2514,81.6296,25.1,73,0.0,973.8,8.65,28.1,122,55.5,51.7,7,5,7,1,2026-04-05T03:04:46.649135+05:30
Bhilai,Chhattisgarh,21.1938,81.3509,24.6,79,0.0,974.1,8.7,28.1,109,55.3,51.8,3,5,7,1,2026-04-05T03:04:46.649142+05:30
Guwahati,Assam,26.1158,91.7086,24.8,89,0.0,997.8,7.45,45.4,121,49.5,44.6,3,5,7,1,2026-04-05T03:04:46.649148+05:30
Agartala,Tripura,23.8315,91.2868,26.3,96,0.0,1003.1,8.5,29.9,82,20.1,18.6,7,5,4,1,2026-04-05T03:04:46.649155+05:30
Shillong,Meghalaya,25.5788,91.8933,15.4,86,0.0,853.6,7.6,62.6,89,47.3,40.9,3,10,7,0,2026-04-05T03:04:46.649161+05:30
Imphal,Manipur,24.817,93.9368,19.8,82,0.0,920.9,8.85,73.8,113,56.5,49.9,3,10,7,1,2026-04-05T03:04:46.649168+05:30
Aizawl,Mizoram,23.7271,92.7176,18.8,94,0.0,890.1,8.5,49.3,103,39.2,33.6,3,10,7,1,2026-04-05T03:04:46.649174+05:30
Kohima,Nagaland,25.6701,94.1077,16.8,65,0.0,852.6,8.45,80.3,92,48.7,41.4,3,5,7,0,2026-04-05T03:04:46.649181+05:30
Gangtok,Sikkim,27.3314,88.6138,14.7,97,0.0,834.7,8.05,29.5,115,30.4,25.2,3,10,7,0,2026-04-05T03:04:46.649187+05:30
Siliguri,West Bengal,26.7271,88.3953,22.2,74,0.0,990.8,8.1,33.5,159,85.2,75.0,3,5,7,1,2026-04-05T03:04:49.907249+05:30
Durgapur,West Bengal,23.5204,87.3119,27.7,71,0.0,991.7,7.85,39.6,100,29.9,25.0,7,5,7,1,2026-04-05T03:04:49.907279+05:30
Asansol,West Bengal,23.6739,86.9524,28.4,54,0.0,990.5,7.7,41.0,81,26.6,23.6,4,5,7,1,2026-04-05T03:04:49.907288+05:30
Pondicherry,Puducherry,11.9139,79.8145,26.5,92,0.0,1007.3,9.35,24.8,51,25.1,21.8,7,5,4,1,2026-04-05T03:04:49.907296+05:30
Port Blair,Andaman and Nicobar Islands,11.6234,92.7265,28.8,72,0.0,1004.9,8.7,20.5,44,13.4,8.9,7,5,4,1,2026-04-05T03:04:49.907304+05:30
Haridwar,Uttarakhand,29.9457,78.1642,18.8,81,0.0,974.3,6.6,27.4,73,21.7,15.4,3,10,7,0,2026-04-05T03:04:49.907311+05:30
Rishikesh,Uttarakhand,30.0869,78.2676,18.9,72,0.0,966.8,6.75,24.8,46,21.5,10.9,3,5,7,0,2026-04-05T03:04:49.907318+05:30
Nainital,Uttarakhand,29.3919,79.4542,17.9,48,0.0,804.5,5.45,37.4,54,17.5,12.5,0,5,3,0,2026-04-05T03:04:49.907325+05:30
Mussoorie,Uttarakhand,30.4599,78.0664,13.8,63,0.0,800.5,6.5,47.2,52,19.8,13.9,3,5,7,0,2026-04-05T03:04:49.907331+05:30
Dharamshala,Himachal Pradesh,32.219,76.3234,15.8,57,0.0,867.9,7.35,42.8,39,3.8,2.0,0,5,7,0,2026-04-05T03:04:49.907338+05:30
Dalhousie,Himachal Pradesh,32.5387,75.971,11.8,63,0.0,801.5,7.35,25.2,72,30.4,20.4,3,5,7,0,2026-04-05T03:04:49.907346+05:30
Patiala,Punjab,30.3398,76.3869,16.2,95,0.0,978.9,6.7,27.7,147,87.5,50.8,3,10,7,0,2026-04-05T03:04:49.907352+05:30
Bhatinda,Punjab,30.211,74.9455,16.3,95,0.0,985.4,7.35,33.1,87,150.4,40.5,3,10,7,0,2026-04-05T03:04:49.907358+05:30
Rohtak,Haryana,28.8955,76.6066,16.1,95,0.0,982.6,6.15,32.4,104,50.3,30.9,3,10,7,0,2026-04-05T03:04:49.907365+05:30
Panipat,Haryana,29.3909,76.9635,15.4,95,0.0,981.0,6.75,32.8,224,196.0,63.1,3,10,7,0,2026-04-05T03:04:49.907371+05:30
Mathura,Uttar Pradesh,27.4924,77.6737,18.7,92,0.0,988.1,7.2,34.6,329,170.0,47.4,3,10,7,1,2026-04-05T03:04:49.907377+05:30
Vrindavan,Uttar Pradesh,27.5823,77.7027,18.1,91,0.0,988.5,7.2,34.6,329,170.0,47.4,3,10,7,1,2026-04-05T03:04:49.907383+05:30
Ayodhya,Uttar Pradesh,26.7922,82.1998,23.3,75,0.0,993.7,7.6,42.5,125,114.8,39.0,3,5,7,1,2026-04-05T03:04:49.907389+05:30
Ratlam,Madhya Pradesh,23.3315,75.0367,22.3,57,0.0,954.3,8.15,33.1,65,29.1,18.0,0,5,7,0,2026-04-05T03:04:49.907396+05:30
Sagar,Madhya Pradesh,23.8388,78.7378,22.1,75,0.0,949.5,8.3,34.2,57,30.9,17.6,3,5,7,1,2026-04-05T03:04:49.907402+05:30
Satna,Madhya Pradesh,24.6005,80.8322,23.2,85,0.0,971.2,8.3,31.0,68,56.1,26.1,3,5,7,1,2026-04-05T03:04:49.907408+05:30
Akola,Maharashtra,20.7002,77.0082,26.2,58,0.0,975.4,8.7,32.4,88,32.8,27.1,4,5,7,1,2026-04-05T03:04:49.907414+05:30
Amravati,Maharashtra,20.9374,77.7796,24.6,74,0.0,967.1,8.7,36.0,88,42.1,35.4,3,5,7,1,2026-04-05T03:04:49.907421+05:30
Latur,Maharashtra,18.4088,76.5604,24.2,59,0.0,939.4,8.45,31.3,99,48.3,43.0,0,5,7,0,2026-04-05T03:04:49.907427+05:30
Nanded,Maharashtra,19.1383,77.3091,24.5,70,0.0,968.4,8.7,35.6,95,56.5,50.4,3,5,7,1,2026-04-05T03:04:49.907433+05:30
Gulbarga,Karnataka,17.3297,76.8343,26.8,64,0.0,958.1,8.85,29.2,107,45.3,40.6,7,5,7,1,2026-04-05T03:04:49.907439+05:30
Bidar,Karnataka,17.9104,77.5199,24.6,71,0.0,934.4,9.0,31.7,108,68.2,58.2,3,5,7,1,2026-04-05T03:04:49.907444+05:30
Hospet,Karnataka,15.2689,76.3909,26.0,74,0.0,955.3,9.2,25.6,77,14.8,13.1,7,5,7,1,2026-04-05T03:04:49.907450+05:30
Tirupur,Tamil Nadu,11.1085,77.3411,25.6,82,0.0,974.6,9.55,37.8,69,23.7,22.5,7,5,7,1,2026-04-05T03:04:49.907456+05:30
Alappuzha,Kerala,9.4981,76.3388,28.3,82,0.0,1008.3,9.15,29.5,61,23.0,19.8,7,0,4,1,2026-04-05T03:04:49.907463+05:30
Munnar,Kerala,10.0889,77.0595,19.4,97,0.0,855.7,9.75,38.9,58,14.3,13.9,3,10,7,1,2026-04-05T03:04:49.907469+05:30
Silchar,Assam,24.8333,92.7789,23.6,89,0.0,1002.8,8.55,29.5,134,73.6,62.4,3,5,4,1,2026-04-05T03:04:49.907476+05:30
Dibrugarh,Assam,27.4728,94.912,22.9,91,0.0,992.8,7.7,41.4,102,37.0,33.1,3,5,7,1,2026-04-05T03:04:49.907481+05:30
