city,state,latitude,longitude,temp,humidity,rain,pressure,uv_index,wind_gusts,aqi,pm10,pm2_5,no2,co,o3,so2,mosquito_risk,arthritis_risk,migraine_risk,frizz_risk,updated_at
Delhi,Delhi,28.6139,77.209,30.1,37,0.0,975.9,7.7,40.0,184,212.8,113.6,51.5,379.0,43.0,39.2,0,5,7,0,2026-05-15T04:29:21.998545+05:30
Mumbai,Maharashtra,19.076,72.8777,29.1,81,0.0,1004.1,7.9,47.9,71,22.8,14.9,6.0,235.0,65.0,3.6,7,5,4,1,2026-05-15T04:29:21.998589+05:30
Bangalore,Karnataka,12.9716,77.5946,24.2,60,0.0,906.9,9.45,40.0,92,51.0,35.2,40.1,367.0,35.0,11.0,0,5,7,0,2026-05-15T04:29:21.998604+05:30
Hyderabad,Telangana,17.385,78.4867,28.5,61,0.0,948.8,7.1,32.4,99,21.1,17.3,9.6,260.0,65.0,6.3,7,5,7,1,2026-05-15T04:29:21.998614+05:30
Chennai,Tamil Nadu,13.0827,80.2707,28.1,87,0.0,1001.0,8.3,36.7,29,12.6,9.8,16.2,232.0,27.0,14.3,7,5,4,1,2026-05-15T04:29:21.998623+05:30
Kolkata,West Bengal,22.5726,88.3639,27.9,85,0.0,1001.4,9.0,36.4,53,10.9,8.2,6.0,159.0,36.0,3.3,7,5,4,1,2026-05-15T04:29:21.998631+05:30
Pune,Maharashtra,18.5204,73.8567,25.9,61,0.0,943.8,8.5,43.6,78,24.8,17.3,19.2,215.0,51.0,21.7,7,5,7,1,2026-05-15T04:29:21.998638+05:30
Ahmedabad,Gujarat,23.0225,72.5714,29.0,69,0.0,996.9,8.15,35.6,50,12.0,8.8,4.3,141.0,49.0,2.6,7,5,7,1,2026-05-15T04:29:21.998644+05:30
Jaipur,Rajasthan,26.9124,75.7873,29.5,40,0.0,953.2,8.25,34.9,129,172.8,62.2,9.3,263.0,84.0,8.2,4,5,7,0,2026-05-15T04:29:21.998657+05:30
Lucknow,Uttar Pradesh,26.8467,80.9462,27.5,69,0.0,987.3,8.2,30.2,161,195.1,125.7,70.3,596.0,12.0,26.9,7,5,7,1,2026-05-15T04:29:21.998664+05:30
Kanpur,Uttar Pradesh,26.4499,80.3319,28.9,63,0.0,985.5,8.2,43.6,161,159.3,87.3,33.0,510.0,41.0,14.4,7,5,7,1,2026-05-15T04:29:21.998672+05:30
Chandigarh,Chandigarh,30.7333,76.7794,22.2,60,0.0,961.1,7.65,27.7,92,31.8,27.0,19.4,366.0,52.0,8.7,0,5,7,0,2026-05-15T04:29:21.998679+05:30
Srinagar,Jammu and Kashmir,34.0837,74.7973,9.5,100,0.0,837.9,8.0,36.0,70,48.3,44.5,28.1,445.0,27.0,1.0,3,10,7,0,2026-05-15T04:29:21.998686+05:30
Jammu,Jammu and Kashmir,32.7266,74.857,20.9,59,0.0,965.4,8.45,27.4,76,23.4,21.7,23.0,327.0,22.0,1.7,0,5,7,0,2026-05-15T04:29:21.998693+05:30
Amritsar,Punjab,31.634,74.8723,23.5,60,0.0,974.2,8.35,40.3,116,51.2,39.6,19.7,432.0,61.0,7.7,0,5,7,0,2026-05-15T04:29:21.998700+05:30
Ludhiana,Punjab,30.901,75.8573,26.8,40,0.0,971.3,7.2,41.4,122,34.7,31.5,11.6,366.0,75.0,7.1,4,5,7,0,2026-05-15T04:29:21.998706+05:30
Jalandhar,Punjab,31.326,75.5762,25.1,47,0.0,972.6,8.05,34.9,117,52.3,39.9,15.2,438.0,60.0,6.8,4,5,7,0,2026-05-15T04:29:21.998713+05:30
Dehradun,Uttarakhand,30.6284,78.0322,11.1,76,0.0,822.3,7.6,44.6,64,18.2,14.2,26.5,310.0,10.0,0.4,3,5,7,0,2026-05-15T04:29:21.998719+05:30
Shimla,Himachal Pradesh,31.1048,77.1734,11.6,43,0.0,778.0,7.35,47.5,63,26.7,20.1,25.9,216.0,39.0,2.5,0,5,7,1,2026-05-15T04:29:21.998729+05:30
Manali,Himachal Pradesh,32.2396,77.1887,9.0,60,0.0,811.1,9.4,42.8,34,9.5,5.1,21.8,199.0,97.0,0.0,0,5,7,0,2026-05-15T04:29:21.998736+05:30
Gurgaon,Haryana,28.4595,77.0266,28.5,41,0.0,974.2,7.8,38.2,741,361.4,145.3,30.1,322.0,61.0,30.8,4,5,7,0,2026-05-15T04:29:21.998745+05:30
Noida,Uttar Pradesh,28.5355,77.391,28.9,48,0.0,977.3,7.7,39.2,741,361.4,145.3,30.1,364.0,61.0,30.8,4,5,7,1,2026-05-15T04:29:21.998751+05:30
Ghaziabad,Uttar Pradesh,28.6692,77.4538,26.1,77,0.0,975.4,7.7,48.6,178,156.9,103.1,40.0,354.0,51.0,28.2,7,5,7,1,2026-05-15T04:29:21.998760+05:30
Faridabad,Haryana,28.4089,77.3178,30.0,37,0.0,976.6,7.75,42.8,741,361.4,145.3,30.1,331.0,61.0,30.8,4,5,7,0,2026-05-15T04:29:21.998766+05:30
Meerut,Uttar Pradesh,28.9845,77.7064,27.2,67,0.0,974.5,7.6,60.8,178,156.9,103.1,40.0,317.0,51.0,28.2,7,5,7,1,2026-05-15T04:29:21.998773+05:30
Agra,Uttar Pradesh,27.1767,78.0081,29.2,57,0.0,980.9,8.05,31.0,412,474.0,122.5,15.8,642.0,70.0,16.0,4,5,7,1,2026-05-15T04:29:21.998780+05:30
Varanasi,Uttar Pradesh,25.3176,82.9739,28.0,70,0.0,991.7,8.75,29.5,146,82.2,70.3,28.1,586.0,54.0,15.8,7,5,7,1,2026-05-15T04:29:21.998786+05:30
Prayagraj,Uttar Pradesh,25.4358,81.8463,29.1,63,0.0,989.7,8.6,37.8,151,92.2,75.7,34.2,573.0,37.0,14.0,7,5,7,1,2026-05-15T04:29:21.998793+05:30
Gorakhpur,Uttar Pradesh,26.7606,83.3732,25.5,80,0.0,992.2,8.6,30.2,125,66.8,58.8,17.0,619.0,82.0,14.6,7,5,7,1,2026-05-15T04:29:21.998802+05:30
Bareilly,Uttar Pradesh,28.367,79.4304,24.7,86,0.0,980.2,8.0,34.6,156,143.9,110.4,55.0,661.0,31.0,21.2,3,5,7,1,2026-05-15T04:29:21.998808+05:30
Aligarh,Uttar Pradesh,27.8974,78.088,27.2,72,0.0,978.4,7.85,32.0,348,265.4,104.3,20.4,612.0,68.0,17.8,7,5,7,1,2026-05-15T04:29:21.998814+05:30
Moradabad,Uttar Pradesh,28.8386,78.7733,25.7,79,0.0,976.9,7.8,33.8,165,176.5,152.3,79.6,648.0,17.0,29.2,7,5,7,1,2026-05-15T04:29:21.998820+05:30
Saharanpur,Uttar Pradesh,29.9637,77.546,22.8,77,0.0,968.8,7.25,39.2,153,122.5,95.7,53.8,491.0,26.0,18.0,3,5,7,1,2026-05-15T04:29:21.998827+05:30
Jhansi,Uttar Pradesh,25.4484,78.5685,29.0,50,0.0,971.0,8.5,25.2,115,92.2,39.1,9.5,379.0,48.0,6.1,4,5,7,1,2026-05-15T04:29:25.389946+05:30
Surat,Gujarat,21.1702,72.8311,29.8,57,0.0,1001.5,7.75,42.1,87,25.3,23.3,31.9,314.0,37.0,40.0,4,5,4,1,2026-05-15T04:29:25.389977+05:30
Vadodara,Gujarat,22.3072,73.1812,30.1,49,0.0,999.0,8.1,34.2,64,14.2,11.8,7.1,170.0,58.0,5.5,0,5,7,1,2026-05-15T04:29:25.389987+05:30
Rajkot,Gujarat,22.3039,70.8022,26.4,87,0.0,989.9,7.75,45.4,43,9.2,6.6,6.1,122.0,38.0,6.5,7,5,7,1,2026-05-15T04:29:25.389996+05:30
Thane,Maharashtra,19.2183,72.9781,28.9,80,0.0,1003.6,7.85,42.5,71,22.8,14.9,6.0,231.0,65.0,3.6,7,5,4,1,2026-05-15T04:29:25.390004+05:30
Nagpur,Maharashtra,21.1458,79.0882,32.5,44,0.0,967.1,9.0,41.4,119,58.4,44.7,15.8,308.0,84.0,23.6,0,5,7,1,2026-05-15T04:29:25.390013+05:30
Nashik,Maharashtra,19.9975,73.7898,26.0,69,0.0,941.5,8.15,45.0,61,15.8,11.7,9.8,165.0,49.0,2.4,7,5,7,1,2026-05-15T04:29:25.390021+05:30
Aurangabad,Maharashtra,19.8762,75.3433,28.8,42,0.0,939.3,8.15,40.3,76,20.5,13.5,8.4,206.0,86.0,7.8,4,5,7,0,2026-05-15T04:29:25.390028+05:30
Solapur,Maharashtra,17.6599,75.9064,30.1,57,0.0,952.4,8.55,37.8,105,39.9,30.6,9.4,236.0,86.0,7.2,0,5,7,1,2026-05-15T04:29:25.390036+05:30
Kolhapur,Maharashtra,16.705,74.2433,24.0,91,0.0,943.9,8.15,43.9,82,22.6,16.6,10.3,225.0,62.0,5.2,3,5,7,1,2026-05-15T04:29:25.390043+05:30
Goa,Goa,15.2993,74.124,28.3,86,0.0,993.4,4.25,40.7,79,28.8,22.1,8.3,400.0,55.0,2.3,7,5,3,1,2026-05-15T04:29:25.390050+05:30
Jodhpur,Rajasthan,26.2389,73.0243,30.5,39,0.0,976.8,8.4,37.1,119,360.4,81.5,6.1,185.0,62.0,3.9,0,5,7,0,2026-05-15T04:29:25.390058+05:30
Udaipur,Rajasthan,24.5854,73.7125,28.6,32,0.0,941.4,8.85,38.2,70,15.2,9.0,2.2,143.0,73.0,2.6,4,5,7,0,2026-05-15T04:29:25.390065+05:30
Kota,Rajasthan,25.2138,75.8648,31.0,32,0.0,972.3,8.45,34.6,92,59.3,38.4,17.4,220.0,34.0,5.7,0,5,7,0,2026-05-15T04:29:25.390072+05:30
Bikaner,Rajasthan,28.0229,73.3119,27.0,61,0.0,974.7,8.35,58.0,88,55.1,25.9,3.4,274.0,81.0,4.3,7,5,7,1,2026-05-15T04:29:25.390080+05:30
Ajmer,Rajasthan,26.4499,74.6399,29.6,35,0.0,948.5,7.6,49.3,86,102.9,35.5,6.4,195.0,67.0,5.1,4,5,7,0,2026-05-15T04:29:25.390087+05:30
Gwalior,Madhya Pradesh,26.2183,78.1828,29.0,46,0.0,976.5,8.25,43.6,139,165.3,57.0,13.8,380.0,44.0,7.5,4,5,7,1,2026-05-15T04:29:25.390094+05:30
Indore,Madhya Pradesh,22.7196,75.8577,29.6,40,0.0,943.0,8.7,43.6,79,33.3,18.1,4.4,241.0,86.0,5.9,4,5,7,0,2026-05-15T04:29:25.390101+05:30
Bhopal,Madhya Pradesh,23.2599,77.4126,31.6,30,0.0,947.2,8.7,38.9,85,38.1,26.8,7.3,245.0,61.0,5.7,0,5,7,0,2026-05-15T04:29:25.390108+05:30
Jabalpur,Madhya Pradesh,23.1815,79.9864,31.4,40,0.0,955.2,8.9,35.6,99,67.8,31.5,16.8,321.0,57.0,7.4,0,5,7,1,2026-05-15T04:29:25.390114+05:30
Ujjain,Madhya Pradesh,23.1765,75.7885,29.7,32,0.0,948.2,8.65,41.8,78,28.9,16.8,4.1,258.0,77.0,5.2,4,5,7,0,2026-05-15T04:29:25.390122+05:30
Visakhapatnam,Andhra Pradesh,17.6868,83.2185,26.9,92,0.0,999.1,8.7,36.7,66,29.3,26.0,27.0,546.0,24.0,82.8,7,5,7,1,2026-05-15T04:29:25.390129+05:30
Vijayawada,Andhra Pradesh,16.5062,80.648,28.0,87,0.0,997.5,8.55,44.3,55,12.2,10.2,10.6,183.0,29.0,6.4,7,5,7,1,2026-05-15T04:29:25.390136+05:30
Guntur,Andhra Pradesh,16.3067,80.4365,27.9,87,0.0,998.8,8.65,39.2,55,11.3,9.1,9.0,176.0,30.0,6.0,7,5,7,1,2026-05-15T04:29:25.390143+05:30
Nellore,Andhra Pradesh,14.4426,79.9865,26.7,96,0.0,1000.0,8.55,38.9,32,10.4,7.2,6.8,221.0,32.0,3.0,7,5,4,1,2026-05-15T04:29:25.390172+05:30
Kurnool,Andhra Pradesh,15.8281,78.0373,31.5,48,0.0,972.2,6.6,37.8,74,25.5,19.2,7.1,272.0,70.0,4.9,0,5,7,1,2026-05-15T04:29:25.390182+05:30
Kakinada,Andhra Pradesh,16.9891,82.2475,28.0,84,0.0,1002.6,8.45,38.5,31,9.6,5.7,1.6,200.0,50.0,0.9,7,5,4,1,2026-05-15T04:29:25.390190+05:30
Tirupati,Andhra Pradesh,13.6288,79.4192,26.4,87,0.0,985.3,9.25,34.2,59,29.3,25.1,31.1,286.0,0.0,6.2,7,5,7,1,2026-05-15T04:29:25.390197+05:30
Warangal,Telangana,17.9689,79.5941,27.8,77,0.0,973.9,8.9,33.8,79,18.1,14.4,10.8,243.0,42.0,9.9,7,5,7,1,2026-05-15T04:29:25.390204+05:30
Nizamabad,Telangana,18.6725,78.0941,30.5,51,0.0,960.0,9.0,34.2,131,50.2,41.2,12.9,386.0,80.0,7.4,0,5,7,1,2026-05-15T04:29:25.390211+05:30
Mysore,Karnataka,12.2958,76.6396,22.9,96,0.0,923.7,9.1,31.3,85,23.5,18.6,10.4,220.0,66.0,2.5,3,5,7,1,2026-05-15T04:29:25.390218+05:30
Mangalore,Karnataka,12.9141,74.856,26.6,96,0.0,1002.3,8.75,51.1,80,34.7,26.5,11.9,274.0,49.0,4.4,7,5,4,1,2026-05-15T04:29:25.390225+05:30
Hubli-Dharwad,Karnataka,15.3647,75.124,24.6,95,0.0,936.3,8.05,52.2,78,14.1,10.6,9.8,202.0,39.0,2.0,3,5,7,1,2026-05-15T04:29:25.390232+05:30
Belgaum,Karnataka,15.8497,74.4977,23.0,97,0.0,921.6,8.25,39.2,83,24.7,19.0,14.7,228.0,37.0,2.5,3,5,7,1,2026-05-15T04:29:28.779852+05:30
Coimbatore,Tamil Nadu,11.0168,76.9558,23.1,95,0.0,956.0,8.6,42.5,71,23.6,16.2,6.6,213.0,72.0,3.1,3,5,7,1,2026-05-15T04:29:28.779884+05:30
Madurai,Tamil Nadu,9.9252,78.1198,27.1,94,0.0,987.2,7.7,43.9,94,33.9,30.0,40.2,341.0,5.0,5.6,7,5,7,1,2026-05-15T04:29:28.779895+05:30
Trichy,Tamil Nadu,10.7905,78.7047,27.1,79,0.0,993.9,4.4,28.1,89,33.4,28.7,20.6,258.0,52.0,5.9,7,5,3,1,2026-05-15T04:29:28.779909+05:30
Salem,Tamil Nadu,11.6643,78.146,25.8,85,0.0,971.7,9.15,29.2,109,42.6,34.9,21.4,393.0,55.0,9.3,7,5,7,1,2026-05-15T04:29:28.779918+05:30
Tirunelveli,Tamil Nadu,8.7139,77.7567,28.8,74,0.0,997.5,1.6,24.1,51,9.5,7.8,5.2,190.0,61.0,2.1,7,5,3,1,2026-05-15T04:29:28.779926+05:30
Vellore,Tamil Nadu,12.9165,79.1325,26.0,90,0.0,978.8,9.25,31.0,79,46.3,41.8,33.3,358.0,9.0,9.8,7,5,7,1,2026-05-15T04:29:28.779934+05:30
Erode,Tamil Nadu,11.341,77.7172,25.7,86,0.0,983.3,8.85,27.4,85,19.3,15.1,17.9,244.0,52.0,3.3,7,5,7,1,2026-05-15T04:29:28.779941+05:30
Kochi,Kerala,9.9312,76.2673,26.4,91,0.0,1003.6,8.65,37.8,66,18.9,15.0,14.9,296.0,39.0,6.1,7,5,4,1,2026-05-15T04:29:28.779949+05:30
Thiruvananthapuram,Kerala,8.5241,76.9366,25.6,91,0.0,1003.2,1.45,29.9,53,25.1,13.6,2.8,255.0,80.0,1.8,7,5,0,1,2026-05-15T04:29:28.779957+05:30
Kozhikode,Kerala,11.2588,75.7804,24.3,96,0.0,1003.0,8.75,43.6,68,15.2,7.8,1.5,266.0,88.0,1.2,3,5,4,1,2026-05-15T04:29:28.779965+05:30
Thrissur,Kerala,10.5276,76.2144,24.8,99,0.0,1002.2,8.6,32.8,69,16.8,12.9,12.5,295.0,44.0,5.8,3,5,4,1,2026-05-15T04:29:28.779973+05:30
Kannur,Kerala,11.8745,75.3704,24.7,98,0.0,1002.2,8.85,51.5,80,17.2,11.7,8.7,322.0,50.0,2.8,3,5,4,1,2026-05-15T04:29:28.779980+05:30
Patna,Bihar,25.5941,85.1376,25.8,84,0.0,995.1,8.8,28.8,117,54.5,44.2,17.6,496.0,70.0,17.1,7,5,7,1,2026-05-15T04:29:28.779987+05:30
Gaya,Bihar,24.7914,85.0002,26.0,79,0.0,988.0,8.9,23.0,139,66.1,55.5,23.1,508.0,60.0,15.0,7,5,7,1,2026-05-15T04:29:28.779994+05:30
Muzaffarpur,Bihar,26.1209,85.3647,24.8,87,0.0,995.8,8.8,32.4,124,55.9,47.8,18.7,483.0,61.0,14.2,3,5,7,1,2026-05-15T04:29:28.780001+05:30
Bhagalpur,Bihar,25.2425,87.0117,25.1,93,0.0,996.6,8.8,32.8,106,53.4,45.6,15.3,457.0,77.0,13.8,7,5,7,1,2026-05-15T04:29:28.780008+05:30
Ranchi,Jharkhand,23.3441,85.3096,23.2,94,0.0,933.2,9.3,38.2,99,36.2,30.2,13.0,236.0,74.0,27.3,3,5,7,1,2026-05-15T04:29:28.780015+05:30
Jamshedpur,Jharkhand,22.8046,86.2029,26.6,85,0.0,986.1,9.15,43.2,83,15.7,13.1,16.8,246.0,30.0,18.3,7,5,7,1,2026-05-15T04:29:28.780022+05:30
Dhanbad,Jharkhand,23.7957,86.4304,26.5,89,0.0,974.8,9.05,32.4,150,34.7,31.1,38.4,1106.0,23.0,81.9,7,5,7,1,2026-05-15T04:29:28.780029+05:30
Bokaro,Jharkhand,23.6693,86.1511,26.9,81,0.0,978.5,9.1,33.5,149,44.1,36.3,27.8,707.0,52.0,60.3,7,5,7,1,2026-05-15T04:29:28.780036+05:30
Bhubaneswar,Odisha,20.2961,85.8245,27.7,86,0.0,998.0,9.2,41.8,36,9.7,7.1,5.7,148.0,40.0,2.4,7,5,7,1,2026-05-15T04:29:28.780043+05:30
Cuttack,Odisha,20.4625,85.8828,27.8,87,0.0,999.9,9.25,40.7,36,9.7,7.1,5.7,159.0,40.0,2.4,7,5,7,1,2026-05-15T04:29:28.780050+05:30
Rourkela,Odisha,22.2604,84.8536,26.2,90,0.0,980.3,9.05,44.6,101,17.5,13.6,19.0,176.0,27.0,21.4,7,5,7,1,2026-05-15T04:29:28.780057+05:30
Raipur,Chhattisgarh,21.2514,81.6296,31.0,47,0.0,969.3,9.05,37.8,150,61.5,47.8,29.6,340.0,56.0,36.7,0,5,7,1,2026-05-15T04:29:28.780064+05:30
Bhilai,Chhattisgarh,21.1938,81.3509,31.0,50,0.0,969.8,9.05,43.2,136,51.2,40.9,26.4,476.0,70.0,40.3,0,5,7,1,2026-05-15T04:29:28.780070+05:30
Guwahati,Assam,26.1158,91.7086,21.8,99,0.5,998.8,8.7,23.8,53,12.3,9.2,6.7,285.0,73.0,2.4,6,5,7,1,2026-05-15T04:29:28.780077+05:30
Agartala,Tripura,23.8315,91.2868,25.0,98,0.0,1002.3,8.8,35.3,53,14.1,9.7,11.0,136.0,21.0,2.4,7,5,4,1,2026-05-15T04:29:28.780084+05:30
Shillong,Meghalaya,25.5788,91.8933,16.8,97,0.0,853.0,8.95,27.4,39,5.4,3.0,4.2,190.0,87.0,3.1,3,10,7,1,2026-05-15T04:29:28.780092+05:30
Imphal,Manipur,24.817,93.9368,21.1,90,0.0,919.6,9.2,29.2,73,29.1,25.7,13.4,562.0,27.0,1.8,3,5,7,1,2026-05-15T04:29:28.780098+05:30
Aizawl,Mizoram,23.7271,92.7176,17.5,92,0.1,888.8,8.95,37.1,33,4.2,3.2,3.2,131.0,46.0,1.1,6,10,7,1,2026-05-15T04:29:28.780106+05:30
Kohima,Nagaland,25.6701,94.1077,15.5,94,0.1,850.3,8.5,24.8,55,11.6,8.4,7.4,266.0,39.0,1.1,6,10,7,0,2026-05-15T04:29:28.780114+05:30
Gangtok,Sikkim,27.3314,88.6138,14.5,91,0.1,833.2,9.1,42.1,52,12.9,12.1,10.1,415.0,85.0,2.0,6,10,7,0,2026-05-15T04:29:28.780121+05:30
Siliguri,West Bengal,26.7271,88.3953,21.2,98,0.2,990.1,8.65,22.3,87,36.2,32.6,13.1,342.0,90.0,4.9,6,5,7,1,2026-05-15T04:29:32.158420+05:30
Durgapur,West Bengal,23.5204,87.3119,26.9,89,0.0,990.3,9.0,30.2,134,18.0,16.0,19.8,409.0,21.0,28.5,7,5,7,1,2026-05-15T04:29:32.158452+05:30
Asansol,West Bengal,23.6739,86.9524,26.5,89,0.0,988.7,9.05,37.8,132,19.3,17.1,22.0,207.0,21.0,31.3,7,5,7,1,2026-05-15T04:29:32.158463+05:30
Pondicherry,Puducherry,11.9139,79.8145,27.4,90,0.0,1002.5,9.1,30.2,51,20.1,15.5,12.0,461.0,45.0,11.2,7,5,4,1,2026-05-15T04:29:32.158472+05:30
Port Blair,Andaman and Nicobar Islands,11.6234,92.7265,26.0,95,0.0,1002.9,3.25,42.1,26,5.1,3.1,0.2,119.0,62.0,0.1,7,5,0,1,2026-05-15T04:29:32.158481+05:30
Haridwar,Uttarakhand,29.9457,78.1642,21.9,76,0.0,967.4,7.5,39.2,115,68.9,54.0,32.8,367.0,24.0,6.8,3,5,7,1,2026-05-15T04:29:32.158488+05:30
Rishikesh,Uttarakhand,30.0869,78.2676,19.3,82,0.0,960.1,7.6,36.4,87,51.5,40.9,20.9,400.0,63.0,6.2,3,10,7,1,2026-05-15T04:29:32.158496+05:30
Nainital,Uttarakhand,29.3919,79.4542,13.9,75,0.0,799.6,8.45,44.6,113,50.8,44.1,23.6,357.0,62.0,6.6,3,5,7,0,2026-05-15T04:29:32.158504+05:30
Mussoorie,Uttarakhand,30.4599,78.0664,15.1,47,0.0,797.6,7.95,58.0,97,52.7,43.3,41.0,258.0,19.0,6.4,0,5,7,0,2026-05-15T04:29:32.158511+05:30
Dharamshala,Himachal Pradesh,32.219,76.3234,20.8,36,0.0,863.9,8.35,41.4,39,11.9,7.8,13.4,211.0,34.0,0.1,0,5,7,0,2026-05-15T04:29:32.158518+05:30
Dalhousie,Himachal Pradesh,32.5387,75.971,12.6,60,0.0,798.0,8.6,46.4,62,22.2,18.7,34.1,297.0,2.0,0.4,0,5,7,0,2026-05-15T04:29:32.158526+05:30
Patiala,Punjab,30.3398,76.3869,25.2,52,0.0,970.7,7.0,36.7,155,327.8,70.1,12.2,418.0,71.0,7.5,4,5,7,0,2026-05-15T04:29:32.158534+05:30
Bhatinda,Punjab,30.211,74.9455,28.0,34,0.0,976.2,7.95,55.8,160,91.7,40.4,6.4,375.0,94.0,4.4,4,5,7,0,2026-05-15T04:29:32.158541+05:30
Rohtak,Haryana,28.8955,76.6066,26.9,53,0.0,974.4,7.7,33.1,244,339.0,132.7,33.9,396.0,56.0,28.9,4,5,7,1,2026-05-15T04:29:32.158548+05:30
Panipat,Haryana,29.3909,76.9635,25.6,65,0.0,973.3,7.55,28.8,228,365.1,122.9,34.4,347.0,37.0,17.2,7,5,7,1,2026-05-15T04:29:32.158555+05:30
Mathura,Uttar Pradesh,27.4924,77.6737,28.2,63,0.0,980.2,8.0,27.4,411,392.1,121.5,16.5,652.0,68.0,15.4,7,5,7,1,2026-05-15T04:29:32.158562+05:30
Vrindavan,Uttar Pradesh,27.5823,77.7027,27.7,69,0.0,980.7,7.95,27.0,411,392.1,121.5,16.5,612.0,68.0,15.4,7,5,7,1,2026-05-15T04:29:32.158569+05:30
Ayodhya,Uttar Pradesh,26.7922,82.1998,25.9,77,0.0,989.8,8.35,28.1,151,115.5,92.7,59.4,592.0,17.0,14.3,7,5,7,1,2026-05-15T04:29:32.158576+05:30
Ratlam,Madhya Pradesh,23.3315,75.0367,28.2,39,0.0,949.5,8.55,41.4,79,24.3,15.6,5.0,212.0,67.0,5.6,4,5,7,0,2026-05-15T04:29:32.158584+05:30
Sagar,Madhya Pradesh,23.8388,78.7378,29.8,34,0.0,943.8,8.75,37.4,74,53.1,24.2,14.8,254.0,56.0,3.9,4,5,7,0,2026-05-15T04:29:32.158591+05:30
Satna,Madhya Pradesh,24.6005,80.8322,28.6,53,0.0,965.1,8.8,29.2,111,140.2,55.8,30.2,461.0,48.0,9.0,4,5,7,1,2026-05-15T04:29:32.158598+05:30
Akola,Maharashtra,20.7002,77.0082,32.8,32,0.0,969.5,8.8,40.0,91,36.4,22.6,7.5,229.0,80.0,7.6,0,5,7,0,2026-05-15T04:29:32.158606+05:30
Amravati,Maharashtra,20.9374,77.7796,33.0,29,0.0,961.6,8.95,42.5,95,38.2,24.4,8.4,300.0,74.0,6.9,0,5,7,0,2026-05-15T04:29:32.158618+05:30
Latur,Maharashtra,18.4088,76.5604,29.2,51,0.0,935.4,9.1,35.3,106,63.6,46.2,9.8,229.0,84.0,6.2,4,5,7,1,2026-05-15T04:29:32.158626+05:30
Nanded,Maharashtra,19.1383,77.3091,30.6,47,0.0,963.5,9.05,38.5,123,78.9,51.1,33.9,277.0,32.0,7.2,0,5,7,1,2026-05-15T04:29:32.158633+05:30
Gulbarga,Karnataka,17.3297,76.8343,28.5,55,0.0,954.1,8.5,34.9,125,39.0,31.2,9.2,253.0,86.0,3.4,4,5,7,1,2026-05-15T04:29:32.158640+05:30
Bidar,Karnataka,17.9104,77.5199,28.1,60,0.0,931.3,9.15,37.8,132,53.1,40.3,11.9,294.0,88.0,6.2,4,5,7,1,2026-05-15T04:29:32.158647+05:30
Hospet,Karnataka,15.2689,76.3909,25.2,95,0.0,951.2,9.2,46.8,94,21.1,16.1,10.3,252.0,59.0,2.0,7,5,7,1,2026-05-15T04:29:32.158654+05:30
Tirupur,Tamil Nadu,11.1085,77.3411,23.8,92,0.0,969.4,8.7,29.5,83,28.1,21.5,22.7,186.0,47.0,4.8,3,5,7,1,2026-05-15T04:29:32.158661+05:30
Alappuzha,Kerala,9.4981,76.3388,26.2,97,0.0,1003.6,8.6,38.5,61,20.0,12.2,6.9,142.0,66.0,2.5,7,5,4,1,2026-05-15T04:29:32.158668+05:30
Munnar,Kerala,10.0889,77.0595,17.1,97,0.0,851.7,8.4,23.4,57,7.2,5.2,5.8,169.0,50.0,1.8,3,10,7,1,2026-05-15T04:29:32.158676+05:30
Silchar,Assam,24.8333,92.7789,23.0,96,0.6,1002.4,8.95,31.3,79,28.1,20.5,8.3,260.0,59.0,4.2,6,5,4,1,2026-05-15T04:29:32.158683+05:30
Dibrugarh,Assam,27.4728,94.912,22.0,98,0.0,992.4,7.7,28.8,86,19.6,16.5,14.3,264.0,53.0,0.8,3,5,7,1,2026-05-15T04:29:32.158690+05:30
