city,state,latitude,longitude,temp,humidity,rain,pressure,uv_index,wind_gusts,aqi,pm10,pm2_5,mosquito_risk,arthritis_risk,migraine_risk,frizz_risk,updated_at
Delhi,Delhi,28.6139,77.209,16.7,81,0.0,984.7,6.1,43.2,181,323.2,54.4,3,10,7,0,2026-03-16T05:03:15.972686+05:30
Mumbai,Maharashtra,19.076,72.8777,27.1,80,0.0,1008.8,7.65,19.4,103,71.9,31.8,7,0,4,1,2026-03-16T05:03:15.972724+05:30
Bangalore,Karnataka,12.9716,77.5946,18.9,79,0.0,911.1,9.35,18.0,82,35.4,34.9,3,5,7,0,2026-03-16T05:03:15.972739+05:30
Hyderabad,Telangana,17.385,78.4867,22.6,76,0.0,952.9,8.75,27.4,96,30.6,23.9,3,5,7,1,2026-03-16T05:03:15.972749+05:30
Chennai,Tamil Nadu,13.0827,80.2707,25.1,84,0.0,1008.5,9.05,32.4,38,14.8,11.7,7,0,4,1,2026-03-16T05:03:15.972758+05:30
Kolkata,West Bengal,22.5726,88.3639,24.3,89,0.0,1006.4,8.05,33.5,64,29.9,24.9,3,5,4,1,2026-03-16T05:03:15.972766+05:30
Pune,Maharashtra,18.5204,73.8567,17.3,74,0.0,947.4,8.25,40.7,91,63.1,43.4,3,5,7,0,2026-03-16T05:03:15.972777+05:30
Ahmedabad,Gujarat,23.0225,72.5714,22.3,70,0.0,1002.2,7.45,25.6,66,35.7,18.6,3,5,4,1,2026-03-16T05:03:15.972785+05:30
Jaipur,Rajasthan,26.9124,75.7873,21.2,30,0.0,958.7,6.85,36.0,135,428.4,82.7,0,5,7,0,2026-03-16T05:03:15.972792+05:30
Lucknow,Uttar Pradesh,26.8467,80.9462,19.2,70,0.0,993.1,6.65,61.6,98,41.2,35.5,3,5,7,0,2026-03-16T05:03:15.972800+05:30
Kanpur,Uttar Pradesh,26.4499,80.3319,19.2,72,0.0,991.5,6.7,50.4,134,82.4,31.7,3,5,7,0,2026-03-16T05:03:15.972807+05:30
Chandigarh,Chandigarh,30.7333,76.7794,13.5,82,0.0,969.0,5.55,50.8,71,16.6,13.0,3,10,3,0,2026-03-16T05:03:15.972815+05:30
Srinagar,Jammu and Kashmir,34.0837,74.7973,4.6,93,0.0,836.3,5.25,19.8,66,5.7,5.6,3,10,3,0,2026-03-16T05:03:15.972823+05:30
Jammu,Jammu and Kashmir,32.7266,74.857,14.1,83,0.0,973.0,6.2,42.1,83,19.0,14.9,3,10,7,0,2026-03-16T05:03:15.972830+05:30
Amritsar,Punjab,31.634,74.8723,13.2,91,0.0,980.7,5.65,35.6,94,36.0,23.1,3,10,3,0,2026-03-16T05:03:15.972836+05:30
Ludhiana,Punjab,30.901,75.8573,13.7,90,0.0,978.5,6.15,50.8,93,41.1,28.9,3,10,7,0,2026-03-16T05:03:15.972843+05:30
Jalandhar,Punjab,31.326,75.5762,13.5,88,0.0,979.4,6.05,47.5,91,23.2,14.6,3,10,7,0,2026-03-16T05:03:15.972852+05:30
Dehradun,Uttarakhand,30.6284,78.0322,7.7,74,0.0,826.6,5.95,39.2,51,15.7,5.7,3,5,3,0,2026-03-16T05:03:15.972858+05:30
Shimla,Himachal Pradesh,31.1048,77.1734,6.0,75,0.0,779.1,5.8,50.8,51,9.4,4.6,3,5,3,0,2026-03-16T05:03:15.972867+05:30
Manali,Himachal Pradesh,32.2396,77.1887,7.7,65,0.0,813.8,6.3,29.5,50,7.4,3.6,3,5,7,0,2026-03-16T05:03:15.972873+05:30
Gurgaon,Haryana,28.4595,77.0266,16.3,84,0.0,982.7,6.25,46.1,1522,2145.8,234.2,3,10,7,0,2026-03-16T05:03:15.972880+05:30
Noida,Uttar Pradesh,28.5355,77.391,16.5,83,0.0,986.3,6.15,42.8,1522,2145.8,234.2,3,10,7,0,2026-03-16T05:03:15.972887+05:30
Ghaziabad,Uttar Pradesh,28.6692,77.4538,15.9,84,0.0,984.5,6.1,45.7,107,46.7,26.1,3,10,7,0,2026-03-16T05:03:15.972893+05:30
Faridabad,Haryana,28.4089,77.3178,16.3,85,0.0,985.5,6.15,42.1,1522,2145.8,234.2,3,10,7,0,2026-03-16T05:03:15.972900+05:30
Meerut,Uttar Pradesh,28.9845,77.7064,15.5,85,0.0,983.2,6.0,53.6,107,46.7,26.1,3,10,3,0,2026-03-16T05:03:15.972906+05:30
Agra,Uttar Pradesh,27.1767,78.0081,17.2,87,0.0,989.0,6.45,36.7,925,1072.9,127.6,3,10,7,0,2026-03-16T05:03:15.972912+05:30
Varanasi,Uttar Pradesh,25.3176,82.9739,20.6,76,0.0,997.5,7.35,39.2,143,116.2,87.5,3,5,7,1,2026-03-16T05:03:15.972921+05:30
Prayagraj,Uttar Pradesh,25.4358,81.8463,20.2,77,0.0,995.5,7.2,35.3,110,62.9,52.4,3,5,7,0,2026-03-16T05:03:15.972928+05:30
Gorakhpur,Uttar Pradesh,26.7606,83.3732,18.8,72,0.0,997.1,7.05,52.9,151,91.0,76.1,3,5,7,0,2026-03-16T05:03:15.972934+05:30
Bareilly,Uttar Pradesh,28.367,79.4304,17.1,83,0.0,988.9,6.35,60.8,112,37.0,26.8,3,10,7,0,2026-03-16T05:03:15.972942+05:30
Aligarh,Uttar Pradesh,27.8974,78.088,17.1,86,0.0,987.3,6.2,37.4,420,622.1,78.5,3,10,7,0,2026-03-16T05:03:15.972949+05:30
Moradabad,Uttar Pradesh,28.8386,78.7733,16.5,81,0.0,986.0,6.15,69.1,119,59.5,36.8,3,10,7,0,2026-03-16T05:03:15.972955+05:30
Saharanpur,Uttar Pradesh,29.9637,77.546,14.2,87,0.0,977.0,5.75,42.5,115,30.6,25.0,3,10,3,0,2026-03-16T05:03:15.972961+05:30
Jhansi,Uttar Pradesh,25.4484,78.5685,21.3,70,0.0,976.6,7.15,28.8,78,21.5,17.9,3,5,7,0,2026-03-16T05:03:19.222388+05:30
Surat,Gujarat,21.1702,72.8311,25.6,89,0.0,1007.0,7.4,24.1,123,49.2,29.3,7,5,4,1,2026-03-16T05:03:19.222423+05:30
Vadodara,Gujarat,22.3072,73.1812,23.8,95,0.0,1004.5,7.35,25.2,84,38.0,24.3,3,5,4,1,2026-03-16T05:03:19.222435+05:30
Rajkot,Gujarat,22.3039,70.8022,22.5,88,0.0,994.9,7.3,30.2,68,41.8,19.6,3,5,7,1,2026-03-16T05:03:19.222445+05:30
Thane,Maharashtra,19.2183,72.9781,25.2,90,0.0,1008.4,7.7,32.0,103,71.9,31.8,7,0,4,1,2026-03-16T05:03:19.222454+05:30
Nagpur,Maharashtra,21.1458,79.0882,24.4,73,0.0,972.3,8.0,22.0,126,52.3,47.4,3,5,7,1,2026-03-16T05:03:19.222462+05:30
Nashik,Maharashtra,19.9975,73.7898,19.0,69,0.0,945.1,7.45,28.1,75,73.6,34.0,3,5,7,0,2026-03-16T05:03:19.222470+05:30
Aurangabad,Maharashtra,19.8762,75.3433,21.5,56,0.0,943.4,8.1,30.2,75,49.4,28.2,0,5,7,0,2026-03-16T05:03:19.222479+05:30
Solapur,Maharashtra,17.6599,75.9064,21.5,63,0.0,956.6,8.65,25.6,108,31.0,28.3,3,5,7,0,2026-03-16T05:03:19.222487+05:30
Kolhapur,Maharashtra,16.705,74.2433,18.1,79,0.0,946.9,8.75,35.6,114,48.5,36.2,3,5,7,0,2026-03-16T05:03:19.222495+05:30
Goa,Goa,15.2993,74.124,26.2,85,0.0,997.9,8.8,32.0,115,59.4,39.2,7,5,7,1,2026-03-16T05:03:19.222503+05:30
Jodhpur,Rajasthan,26.2389,73.0243,23.2,27,0.0,981.8,7.2,38.9,97,145.8,23.7,0,5,7,0,2026-03-16T05:03:19.222512+05:30
Udaipur,Rajasthan,24.5854,73.7125,21.0,39,0.0,945.7,7.85,33.1,56,17.2,9.2,0,5,7,0,2026-03-16T05:03:19.222520+05:30
Kota,Rajasthan,25.2138,75.8648,20.2,41,0.0,977.5,7.2,25.6,61,14.2,9.3,0,5,7,0,2026-03-16T05:03:19.222528+05:30
Bikaner,Rajasthan,28.0229,73.3119,22.6,28,0.0,980.3,6.9,25.9,46,27.5,8.1,0,5,7,0,2026-03-16T05:03:19.222536+05:30
Ajmer,Rajasthan,26.4499,74.6399,20.0,46,0.0,953.1,7.15,38.9,70,53.4,20.0,0,5,7,0,2026-03-16T05:03:19.222543+05:30
Gwalior,Madhya Pradesh,26.2183,78.1828,20.9,75,0.0,982.1,6.85,27.7,96,100.1,33.1,3,5,7,1,2026-03-16T05:03:19.222550+05:30
Indore,Madhya Pradesh,22.7196,75.8577,20.3,51,0.0,947.4,7.75,31.3,62,29.3,16.6,0,5,7,0,2026-03-16T05:03:19.222557+05:30
Bhopal,Madhya Pradesh,23.2599,77.4126,19.6,52,0.0,952.7,7.65,32.0,56,20.3,11.6,0,5,7,0,2026-03-16T05:03:19.222564+05:30
Jabalpur,Madhya Pradesh,23.1815,79.9864,22.1,53,0.0,960.2,7.8,41.0,66,30.9,24.0,0,5,7,0,2026-03-16T05:03:19.222571+05:30
Ujjain,Madhya Pradesh,23.1765,75.7885,20.5,50,0.0,953.2,7.65,29.9,65,29.3,17.3,0,5,7,0,2026-03-16T05:03:19.222579+05:30
Visakhapatnam,Andhra Pradesh,17.6868,83.2185,24.7,87,0.0,1005.4,8.7,40.0,66,23.0,18.7,3,5,4,1,2026-03-16T05:03:19.222586+05:30
Vijayawada,Andhra Pradesh,16.5062,80.648,23.5,89,0.0,1004.1,8.8,27.0,57,13.3,11.1,3,5,4,1,2026-03-16T05:03:19.222593+05:30
Guntur,Andhra Pradesh,16.3067,80.4365,23.9,88,0.0,1005.2,8.8,28.1,54,12.3,10.2,3,5,4,1,2026-03-16T05:03:19.222600+05:30
Nellore,Andhra Pradesh,14.4426,79.9865,23.9,92,0.0,1007.0,8.95,30.2,49,9.9,8.5,3,5,4,1,2026-03-16T05:03:19.222607+05:30
Kurnool,Andhra Pradesh,15.8281,78.0373,25.1,66,0.0,977.1,8.8,20.5,85,20.5,18.6,7,5,7,1,2026-03-16T05:03:19.222614+05:30
Kakinada,Andhra Pradesh,16.9891,82.2475,23.0,89,0.0,1009.5,8.7,26.6,57,16.9,11.9,3,0,4,1,2026-03-16T05:03:19.222621+05:30
Tirupati,Andhra Pradesh,13.6288,79.4192,21.4,90,0.0,992.9,9.05,25.6,64,26.4,25.6,3,5,7,1,2026-03-16T05:03:19.222628+05:30
Warangal,Telangana,17.9689,79.5941,22.9,90,0.0,979.2,8.55,31.7,78,14.2,12.0,3,5,7,1,2026-03-16T05:03:19.222635+05:30
Nizamabad,Telangana,18.6725,78.0941,24.9,62,0.0,964.4,8.45,26.3,135,44.0,39.2,3,5,7,1,2026-03-16T05:03:19.222641+05:30
Mysore,Karnataka,12.2958,76.6396,20.6,94,0.0,928.4,9.35,29.2,96,55.4,51.7,3,5,7,1,2026-03-16T05:03:19.222648+05:30
Mangalore,Karnataka,12.9141,74.856,28.0,83,0.0,1006.7,9.0,20.9,90,42.0,38.1,7,5,4,1,2026-03-16T05:03:19.222655+05:30
Hubli-Dharwad,Karnataka,15.3647,75.124,21.6,89,0.0,940.3,8.7,29.9,110,40.2,36.7,3,5,7,1,2026-03-16T05:03:19.222661+05:30
Belgaum,Karnataka,15.8497,74.4977,20.4,100,0.0,924.8,9.0,34.2,109,51.7,33.2,3,5,7,1,2026-03-16T05:03:22.475788+05:30
Coimbatore,Tamil Nadu,11.0168,76.9558,21.9,97,0.0,962.1,9.3,33.5,76,46.3,42.8,3,5,7,1,2026-03-16T05:03:22.475817+05:30
Madurai,Tamil Nadu,9.9252,78.1198,24.5,87,0.0,993.9,9.25,20.2,52,21.5,20.2,3,5,7,1,2026-03-16T05:03:22.475827+05:30
Trichy,Tamil Nadu,10.7905,78.7047,24.2,97,0.0,1001.0,9.2,22.0,50,21.7,19.4,3,5,4,1,2026-03-16T05:03:22.475835+05:30
Salem,Tamil Nadu,11.6643,78.146,23.2,86,0.0,978.1,9.25,13.3,66,26.9,26.4,3,5,7,1,2026-03-16T05:03:22.475843+05:30
Tirunelveli,Tamil Nadu,8.7139,77.7567,23.5,89,0.0,1003.9,9.3,40.3,51,28.6,27.1,3,5,4,1,2026-03-16T05:03:22.475850+05:30
Vellore,Tamil Nadu,12.9165,79.1325,20.2,91,0.0,985.7,9.15,32.0,83,40.4,39.7,3,5,7,1,2026-03-16T05:03:22.475856+05:30
Erode,Tamil Nadu,11.341,77.7172,24.3,92,0.0,990.0,9.2,22.0,46,10.0,9.1,3,5,7,1,2026-03-16T05:03:22.475863+05:30
Kochi,Kerala,9.9312,76.2673,26.9,84,0.0,1009.2,9.1,37.1,74,28.2,26.8,7,0,4,1,2026-03-16T05:03:22.475870+05:30
Thiruvananthapuram,Kerala,8.5241,76.9366,27.1,85,0.0,1008.1,9.15,31.0,49,11.3,9.1,7,0,4,1,2026-03-16T05:03:22.475877+05:30
Kozhikode,Kerala,11.2588,75.7804,27.5,81,0.0,1008.2,9.0,31.3,67,24.5,20.8,7,0,4,1,2026-03-16T05:03:22.475884+05:30
Thrissur,Kerala,10.5276,76.2144,26.1,89,0.0,1007.4,9.05,39.2,75,26.4,24.0,7,5,4,1,2026-03-16T05:03:22.475891+05:30
Kannur,Kerala,11.8745,75.3704,26.8,84,0.0,1007.5,8.9,32.0,80,32.7,29.3,7,5,4,1,2026-03-16T05:03:22.475898+05:30
Patna,Bihar,25.5941,85.1376,22.4,82,0.0,1000.8,7.55,53.3,158,99.2,81.3,3,5,4,1,2026-03-16T05:03:22.475905+05:30
Gaya,Bihar,24.7914,85.0002,21.1,92,0.0,994.4,7.25,45.4,143,90.1,64.0,3,5,7,1,2026-03-16T05:03:22.475911+05:30
Muzaffarpur,Bihar,26.1209,85.3647,19.8,96,0.0,1000.5,7.5,50.8,160,108.0,93.6,3,10,4,1,2026-03-16T05:03:22.475918+05:30
Bhagalpur,Bihar,25.2425,87.0117,21.5,85,0.0,1002.2,7.5,53.6,152,90.8,85.0,3,5,4,1,2026-03-16T05:03:22.475924+05:30
Ranchi,Jharkhand,23.3441,85.3096,20.4,92,0.0,937.2,7.9,37.1,128,80.6,70.5,3,5,7,1,2026-03-16T05:03:22.475931+05:30
Jamshedpur,Jharkhand,22.8046,86.2029,22.8,86,0.0,991.2,7.95,41.0,151,85.0,75.4,3,5,7,1,2026-03-16T05:03:22.475937+05:30
Dhanbad,Jharkhand,23.7957,86.4304,22.7,77,0.0,979.5,7.45,44.6,168,136.9,130.9,3,5,7,1,2026-03-16T05:03:22.475943+05:30
Bokaro,Jharkhand,23.6693,86.1511,23.2,73,0.0,983.5,7.55,33.1,158,110.1,100.8,3,5,7,1,2026-03-16T05:03:22.475949+05:30
Bhubaneswar,Odisha,20.2961,85.8245,24.6,88,0.0,1003.7,8.5,39.6,65,22.1,17.4,3,5,4,1,2026-03-16T05:03:22.475955+05:30
Cuttack,Odisha,20.4625,85.8828,24.4,91,0.0,1005.7,8.5,43.6,65,22.1,17.4,3,5,4,1,2026-03-16T05:03:22.475961+05:30
Rourkela,Odisha,22.2604,84.8536,23.2,90,0.0,985.4,8.05,47.2,155,75.4,64.7,3,5,7,1,2026-03-16T05:03:22.475967+05:30
Raipur,Chhattisgarh,21.2514,81.6296,24.0,66,0.0,974.1,8.2,43.9,140,60.3,54.1,3,5,7,1,2026-03-16T05:03:22.475973+05:30
Bhilai,Chhattisgarh,21.1938,81.3509,23.8,70,0.0,974.4,8.25,44.3,135,56.8,50.6,3,5,7,1,2026-03-16T05:03:22.475979+05:30
Guwahati,Assam,26.1158,91.7086,20.4,92,0.0,1003.8,6.95,33.5,80,33.2,27.8,3,5,4,1,2026-03-16T05:03:22.475985+05:30
Agartala,Tripura,23.8315,91.2868,22.6,94,0.0,1008.2,6.95,37.1,62,12.5,10.1,3,0,4,1,2026-03-16T05:03:22.475991+05:30
Shillong,Meghalaya,25.5788,91.8933,12.3,93,0.0,855.1,7.9,74.2,51,9.5,7.4,3,10,7,0,2026-03-16T05:03:22.475998+05:30
Imphal,Manipur,24.817,93.9368,15.6,86,0.0,924.2,8.2,66.2,92,42.7,35.3,3,10,7,0,2026-03-16T05:03:22.476005+05:30
Aizawl,Mizoram,23.7271,92.7176,16.6,85,0.0,893.6,8.1,48.2,84,43.8,29.2,3,10,7,0,2026-03-16T05:03:22.476011+05:30
Kohima,Nagaland,25.6701,94.1077,13.7,79,0.0,854.2,7.65,100.4,73,31.5,24.3,3,5,7,0,2026-03-16T05:03:22.476017+05:30
Gangtok,Sikkim,27.3314,88.6138,10.8,75,0.0,833.5,7.65,23.4,110,45.4,30.9,3,5,7,0,2026-03-16T05:03:22.476023+05:30
Siliguri,West Bengal,26.7271,88.3953,18.1,83,0.0,994.7,7.45,27.4,152,96.9,76.6,3,10,7,0,2026-03-16T05:03:25.727972+05:30
Durgapur,West Bengal,23.5204,87.3119,22.4,91,0.0,994.8,7.8,33.1,151,70.3,65.4,3,5,7,1,2026-03-16T05:03:25.728003+05:30
Asansol,West Bengal,23.6739,86.9524,22.7,86,0.0,993.5,7.85,39.2,156,97.1,92.2,3,5,7,1,2026-03-16T05:03:25.728012+05:30
Pondicherry,Puducherry,11.9139,79.8145,23.8,97,0.0,1009.6,9.05,31.7,29,11.1,7.9,3,0,4,1,2026-03-16T05:03:25.728020+05:30
Port Blair,Andaman and Nicobar Islands,11.6234,92.7265,27.7,80,0.0,1008.0,9.0,22.7,85,20.8,16.8,7,0,4,1,2026-03-16T05:03:25.728028+05:30
Haridwar,Uttarakhand,29.9457,78.1642,16.0,74,0.0,975.8,5.85,51.8,75,17.1,13.1,3,5,3,0,2026-03-16T05:03:25.728036+05:30
Rishikesh,Uttarakhand,30.0869,78.2676,15.1,72,0.0,968.3,5.95,44.6,62,18.2,10.2,3,5,3,0,2026-03-16T05:03:25.728043+05:30
Nainital,Uttarakhand,29.3919,79.4542,12.5,55,0.0,803.9,6.75,68.8,68,24.3,11.6,0,5,7,0,2026-03-16T05:03:25.728050+05:30
Mussoorie,Uttarakhand,30.4599,78.0664,9.2,66,0.0,799.0,5.95,58.3,66,17.6,10.4,3,5,3,0,2026-03-16T05:03:25.728057+05:30
Dharamshala,Himachal Pradesh,32.219,76.3234,13.0,54,0.0,865.6,4.9,34.9,47,8.6,3.6,0,5,3,0,2026-03-16T05:03:25.728064+05:30
Dalhousie,Himachal Pradesh,32.5387,75.971,8.5,64,0.0,798.4,4.0,28.1,69,13.0,8.8,3,5,3,0,2026-03-16T05:03:25.728072+05:30
Patiala,Punjab,30.3398,76.3869,13.8,89,0.0,978.5,5.85,47.9,91,35.6,25.4,3,10,3,0,2026-03-16T05:03:25.728079+05:30
Bhatinda,Punjab,30.211,74.9455,15.5,90,0.0,982.1,6.55,31.7,88,27.6,23.1,3,10,7,0,2026-03-16T05:03:25.728086+05:30
Rohtak,Haryana,28.8955,76.6066,15.4,85,0.0,982.5,6.15,47.5,223,438.7,66.6,3,10,7,0,2026-03-16T05:03:25.728092+05:30
Panipat,Haryana,29.3909,76.9635,14.9,85,0.0,981.2,5.9,49.7,119,251.5,40.5,3,10,3,0,2026-03-16T05:03:25.728099+05:30
Mathura,Uttar Pradesh,27.4924,77.6737,16.8,88,0.0,988.1,6.35,34.6,900,1125.0,133.6,3,10,7,0,2026-03-16T05:03:25.728105+05:30
Vrindavan,Uttar Pradesh,27.5823,77.7027,16.5,91,0.0,988.6,6.35,38.2,900,1125.0,133.6,3,10,7,0,2026-03-16T05:03:25.728112+05:30
Ayodhya,Uttar Pradesh,26.7922,82.1998,18.8,69,0.0,994.9,6.75,57.6,122,68.5,59.1,3,5,7,0,2026-03-16T05:03:25.728119+05:30
Ratlam,Madhya Pradesh,23.3315,75.0367,21.7,49,0.0,954.2,7.6,34.2,64,30.9,17.9,0,5,7,0,2026-03-16T05:03:25.728126+05:30
Sagar,Madhya Pradesh,23.8388,78.7378,22.3,42,0.0,949.0,7.6,30.6,52,18.7,12.2,0,5,7,0,2026-03-16T05:03:25.728132+05:30
Satna,Madhya Pradesh,24.6005,80.8322,21.2,69,0.0,970.6,7.6,43.6,75,52.7,37.4,3,5,7,0,2026-03-16T05:03:25.728138+05:30
Akola,Maharashtra,20.7002,77.0082,23.7,59,0.0,974.5,8.1,24.8,77,26.5,18.2,0,5,7,0,2026-03-16T05:03:25.728145+05:30
Amravati,Maharashtra,20.9374,77.7796,22.7,62,0.0,966.4,8.1,29.9,81,30.0,21.3,3,5,7,0,2026-03-16T05:03:25.728152+05:30
Latur,Maharashtra,18.4088,76.5604,20.2,68,0.0,939.1,8.55,20.9,106,38.3,32.4,3,5,7,0,2026-03-16T05:03:25.728158+05:30
Nanded,Maharashtra,19.1383,77.3091,22.6,57,0.0,967.9,8.35,20.5,124,62.9,55.4,0,5,7,0,2026-03-16T05:03:25.728165+05:30
Gulbarga,Karnataka,17.3297,76.8343,24.6,65,0.0,958.4,8.65,22.0,118,42.0,38.0,3,5,7,1,2026-03-16T05:03:25.728171+05:30
Bidar,Karnataka,17.9104,77.5199,23.5,66,0.0,934.9,8.6,41.0,107,41.8,36.4,3,5,7,1,2026-03-16T05:03:25.728177+05:30
Hospet,Karnataka,15.2689,76.3909,25.2,78,0.0,955.8,8.9,19.1,122,48.0,46.3,7,5,7,1,2026-03-16T05:03:25.728184+05:30
Tirupur,Tamil Nadu,11.1085,77.3411,23.9,87,0.0,975.9,9.3,40.0,60,27.7,25.6,3,5,7,1,2026-03-16T05:03:25.728191+05:30
Alappuzha,Kerala,9.4981,76.3388,26.0,87,0.0,1009.4,9.1,32.4,70,26.7,24.7,7,0,4,1,2026-03-16T05:03:25.728198+05:30
Munnar,Kerala,10.0889,77.0595,17.2,92,0.0,855.2,9.6,30.2,64,31.4,30.3,3,10,7,0,2026-03-16T05:03:25.728205+05:30
Silchar,Assam,24.8333,92.7789,20.0,95,0.0,1008.5,7.9,37.1,87,25.5,22.4,3,0,4,1,2026-03-16T05:03:25.728212+05:30
Dibrugarh,Assam,27.4728,94.912,17.8,95,0.7,998.4,4.55,36.7,80,35.0,25.2,6,10,3,1,2026-03-16T05:03:25.728219+05:30
