city,state,latitude,longitude,temp,humidity,rain,pressure,uv_index,wind_gusts,aqi,pm10,pm2_5,mosquito_risk,arthritis_risk,migraine_risk,frizz_risk,updated_at
Delhi,Delhi,28.6139,77.209,38.6,21,0.0,981.4,6.7,19.8,188,325.0,51.0,0,5,10,0,2026-04-18T16:14:47.759783+05:30
Mumbai,Maharashtra,19.076,72.8777,30.2,75,0.0,1005.9,7.0,22.7,89,44.6,28.5,3,5,4,1,2026-04-18T16:14:47.759829+05:30
Bangalore,Karnataka,12.9716,77.5946,35.6,23,0.0,910.5,8.8,35.3,128,28.4,23.7,0,5,10,0,2026-04-18T16:14:47.759844+05:30
Hyderabad,Telangana,17.385,78.4867,38.6,24,0.0,951.0,9.3,38.5,123,37.8,29.3,0,5,10,0,2026-04-18T16:14:47.759853+05:30
Chennai,Tamil Nadu,13.0827,80.2707,34.0,54,0.0,1004.5,8.7,32.0,43,12.7,8.1,0,5,4,1,2026-04-18T16:14:47.759862+05:30
Kolkata,West Bengal,22.5726,88.3639,33.8,62,0.0,1002.9,8.85,24.1,74,43.2,34.9,3,5,4,1,2026-04-18T16:14:47.759872+05:30
Pune,Maharashtra,18.5204,73.8567,36.1,36,0.0,947.4,8.45,45.0,109,44.0,36.8,0,5,10,1,2026-04-18T16:14:47.759879+05:30
Ahmedabad,Gujarat,23.0225,72.5714,41.4,13,0.0,999.6,8.15,27.7,63,32.2,11.2,0,5,10,0,2026-04-18T16:14:47.759886+05:30
Jaipur,Rajasthan,26.9124,75.7873,40.6,13,0.0,958.6,7.95,28.1,204,244.0,31.8,0,5,10,0,2026-04-18T16:14:47.759893+05:30
Lucknow,Uttar Pradesh,26.8467,80.9462,40.4,18,0.0,990.3,7.85,32.0,112,144.8,28.9,0,5,10,0,2026-04-18T16:14:47.759899+05:30
Kanpur,Uttar Pradesh,26.4499,80.3319,39.2,23,0.0,989.1,7.85,27.0,118,342.7,44.8,0,5,10,0,2026-04-18T16:14:47.759905+05:30
Chandigarh,Chandigarh,30.7333,76.7794,37.3,21,0.0,968.1,7.1,29.2,81,51.6,14.3,0,5,10,0,2026-04-18T16:14:47.759912+05:30
Srinagar,Jammu and Kashmir,34.0837,74.7973,14.9,83,0.0,845.9,5.85,30.6,81,42.1,10.9,3,10,3,0,2026-04-18T16:14:47.759918+05:30
Jammu,Jammu and Kashmir,32.7266,74.857,33.5,26,0.0,974.5,6.7,42.5,62,71.7,18.0,0,5,7,0,2026-04-18T16:14:47.759926+05:30
Amritsar,Punjab,31.634,74.8723,34.7,26,0.0,981.3,7.65,43.2,60,51.0,14.3,0,5,7,0,2026-04-18T16:14:47.759932+05:30
Ludhiana,Punjab,30.901,75.8573,37.4,21,0.0,978.2,7.55,32.4,77,67.1,17.8,0,5,10,0,2026-04-18T16:14:47.759939+05:30
Jalandhar,Punjab,31.326,75.5762,37.0,21,0.0,979.7,7.65,42.1,77,72.4,18.2,0,5,10,0,2026-04-18T16:14:47.759946+05:30
Dehradun,Uttarakhand,30.6284,78.0322,26.2,34,0.0,834.0,7.7,46.1,60,32.9,9.3,4,5,7,0,2026-04-18T16:14:47.759951+05:30
Shimla,Himachal Pradesh,31.1048,77.1734,25.0,25,0.0,790.2,7.75,47.9,69,38.4,11.3,4,5,7,0,2026-04-18T16:14:47.759957+05:30
Manali,Himachal Pradesh,32.2396,77.1887,21.9,36,0.0,825.9,8.9,25.2,83,27.2,6.8,0,5,7,0,2026-04-18T16:14:47.759963+05:30
Gurgaon,Haryana,28.4595,77.0266,39.1,20,0.0,979.6,7.0,15.8,571,661.2,74.0,0,5,10,0,2026-04-18T16:14:47.759969+05:30
Noida,Uttar Pradesh,28.5355,77.391,38.9,21,0.0,982.8,6.8,22.0,571,661.2,74.0,0,5,10,0,2026-04-18T16:14:47.759974+05:30
Ghaziabad,Uttar Pradesh,28.6692,77.4538,38.6,22,0.0,981.1,6.6,19.4,151,293.4,54.4,0,5,10,0,2026-04-18T16:14:47.759979+05:30
Faridabad,Haryana,28.4089,77.3178,39.4,22,0.0,981.9,6.95,25.2,571,661.2,74.0,0,5,10,0,2026-04-18T16:14:47.759985+05:30
Meerut,Uttar Pradesh,28.9845,77.7064,38.8,21,0.0,979.8,6.8,20.9,151,293.4,54.4,0,5,10,0,2026-04-18T16:14:47.759991+05:30
Agra,Uttar Pradesh,27.1767,78.0081,40.9,20,0.0,985.4,7.7,16.9,688,466.6,48.1,0,5,10,0,2026-04-18T16:14:47.759998+05:30
Varanasi,Uttar Pradesh,25.3176,82.9739,41.7,17,0.0,993.7,7.95,25.6,153,84.3,24.7,0,5,10,0,2026-04-18T16:14:47.760005+05:30
Prayagraj,Uttar Pradesh,25.4358,81.8463,41.2,16,0.0,992.5,7.9,28.8,140,90.6,25.2,0,5,10,0,2026-04-18T16:14:47.760011+05:30
Gorakhpur,Uttar Pradesh,26.7606,83.3732,39.1,27,0.0,993.2,8.15,28.4,160,54.1,23.9,0,5,10,1,2026-04-18T16:14:47.760018+05:30
Bareilly,Uttar Pradesh,28.367,79.4304,40.1,17,0.0,984.3,7.6,31.0,115,47.0,18.8,0,5,10,0,2026-04-18T16:14:47.760024+05:30
Aligarh,Uttar Pradesh,27.8974,78.088,41.1,16,0.0,983.1,7.35,25.6,286,457.3,55.9,0,5,10,0,2026-04-18T16:14:47.760029+05:30
Moradabad,Uttar Pradesh,28.8386,78.7733,39.2,18,0.0,981.5,7.4,28.8,121,98.5,26.7,0,5,10,0,2026-04-18T16:14:47.760034+05:30
Saharanpur,Uttar Pradesh,29.9637,77.546,37.5,22,0.0,974.4,7.0,23.4,104,90.6,21.7,0,5,10,0,2026-04-18T16:14:47.760040+05:30
Jhansi,Uttar Pradesh,25.4484,78.5685,42.0,14,0.0,975.2,7.85,27.0,124,90.3,24.1,0,5,10,0,2026-04-18T16:14:51.079479+05:30
Surat,Gujarat,21.1702,72.8311,34.8,44,0.0,1004.9,7.8,27.0,116,52.0,32.5,0,5,4,1,2026-04-18T16:14:51.079507+05:30
Vadodara,Gujarat,22.3072,73.1812,42.4,16,0.0,1001.2,8.15,19.4,93,34.3,15.7,0,5,7,0,2026-04-18T16:14:51.079516+05:30
Rajkot,Gujarat,22.3039,70.8022,39.2,17,0.0,992.6,7.8,28.1,57,45.8,14.1,0,5,10,0,2026-04-18T16:14:51.079525+05:30
Thane,Maharashtra,19.2183,72.9781,32.6,58,0.0,1005.7,7.75,33.5,89,44.6,28.5,0,5,4,1,2026-04-18T16:14:51.079532+05:30
Nagpur,Maharashtra,21.1458,79.0882,41.4,17,0.0,969.8,7.6,21.6,141,39.8,32.9,0,5,10,0,2026-04-18T16:14:51.079540+05:30
Nashik,Maharashtra,19.9975,73.7898,36.6,22,0.0,945.0,8.1,29.9,84,25.0,15.5,0,5,10,0,2026-04-18T16:14:51.079547+05:30
Aurangabad,Maharashtra,19.8762,75.3433,39.2,14,0.0,943.0,6.55,36.7,91,27.3,20.2,0,5,10,0,2026-04-18T16:14:51.079555+05:30
Solapur,Maharashtra,17.6599,75.9064,39.2,22,0.0,954.6,8.0,19.8,129,40.5,34.3,0,5,10,0,2026-04-18T16:14:51.079562+05:30
Kolhapur,Maharashtra,16.705,74.2433,33.8,51,0.0,946.7,8.7,44.6,132,41.8,34.8,0,5,7,1,2026-04-18T16:14:51.079569+05:30
Goa,Goa,15.2993,74.124,32.0,67,0.0,995.7,9.05,31.3,73,57.2,23.2,3,5,7,1,2026-04-18T16:14:51.079576+05:30
Jodhpur,Rajasthan,26.2389,73.0243,40.4,13,0.0,981.5,8.15,28.1,98,125.3,19.8,0,5,10,0,2026-04-18T16:14:51.079584+05:30
Udaipur,Rajasthan,24.5854,73.7125,38.0,18,0.0,946.4,8.7,29.5,64,72.4,15.0,0,5,10,0,2026-04-18T16:14:51.079591+05:30
Kota,Rajasthan,25.2138,75.8648,42.5,13,0.0,976.0,8.25,23.0,134,88.2,26.7,0,5,10,0,2026-04-18T16:14:51.079597+05:30
Bikaner,Rajasthan,28.0229,73.3119,40.6,15,0.0,980.0,7.45,29.9,75,73.6,18.2,0,5,10,0,2026-04-18T16:14:51.079604+05:30
Ajmer,Rajasthan,26.4499,74.6399,38.9,16,0.0,954.0,8.15,32.0,58,110.1,17.6,0,5,10,0,2026-04-18T16:14:51.079611+05:30
Gwalior,Madhya Pradesh,26.2183,78.1828,41.0,18,0.0,981.1,7.95,28.4,125,119.7,25.2,0,5,10,0,2026-04-18T16:14:51.079618+05:30
Indore,Madhya Pradesh,22.7196,75.8577,38.4,14,0.0,947.2,8.45,25.6,74,9.7,6.9,0,5,10,0,2026-04-18T16:14:51.079625+05:30
Bhopal,Madhya Pradesh,23.2599,77.4126,41.2,10,0.0,952.0,7.9,24.5,99,22.7,15.8,0,5,10,0,2026-04-18T16:14:51.079631+05:30
Jabalpur,Madhya Pradesh,23.1815,79.9864,38.6,25,0.0,959.2,7.5,24.5,136,30.2,17.9,0,5,10,0,2026-04-18T16:14:51.079638+05:30
Ujjain,Madhya Pradesh,23.1765,75.7885,38.9,15,0.0,952.8,8.5,24.1,62,9.5,6.7,0,5,10,0,2026-04-18T16:14:51.079645+05:30
Visakhapatnam,Andhra Pradesh,17.6868,83.2185,32.6,62,0.0,1001.6,9.15,34.2,60,29.5,19.8,3,5,4,1,2026-04-18T16:14:51.079653+05:30
Vijayawada,Andhra Pradesh,16.5062,80.648,37.6,39,0.0,999.4,8.9,26.3,57,29.0,19.7,0,5,10,1,2026-04-18T16:14:51.079660+05:30
Guntur,Andhra Pradesh,16.3067,80.4365,36.6,41,0.0,1000.9,8.9,29.5,60,33.2,23.2,0,5,7,1,2026-04-18T16:14:51.079666+05:30
Nellore,Andhra Pradesh,14.4426,79.9865,36.1,50,0.0,1002.5,8.65,32.8,56,25.5,19.2,0,5,7,1,2026-04-18T16:14:51.079674+05:30
Kurnool,Andhra Pradesh,15.8281,78.0373,42.0,18,0.0,972.7,9.2,33.8,112,34.8,28.5,0,5,10,0,2026-04-18T16:14:51.079681+05:30
Kakinada,Andhra Pradesh,16.9891,82.2475,36.7,49,0.0,1004.7,9.1,29.9,51,22.2,13.0,0,5,7,1,2026-04-18T16:14:51.079688+05:30
Tirupati,Andhra Pradesh,13.6288,79.4192,37.0,33,0.0,988.7,8.95,32.0,70,26.1,20.8,0,5,10,1,2026-04-18T16:14:51.079694+05:30
Warangal,Telangana,17.9689,79.5941,39.7,30,0.0,975.4,8.8,26.6,87,33.5,26.8,0,5,10,1,2026-04-18T16:14:51.079701+05:30
Nizamabad,Telangana,18.6725,78.0941,41.0,21,0.0,961.9,8.8,37.8,131,32.9,23.3,0,5,10,0,2026-04-18T16:14:51.079708+05:30
Mysore,Karnataka,12.2958,76.6396,36.7,20,0.0,926.4,8.9,40.3,116,24.2,19.8,0,5,10,0,2026-04-18T16:14:51.079714+05:30
Mangalore,Karnataka,12.9141,74.856,30.3,76,0.0,1003.7,9.15,23.0,64,30.5,18.2,3,5,4,1,2026-04-18T16:14:51.079721+05:30
Hubli-Dharwad,Karnataka,15.3647,75.124,36.0,30,0.0,939.2,9.25,39.2,84,31.4,24.3,0,5,10,0,2026-04-18T16:14:51.079728+05:30
Belgaum,Karnataka,15.8497,74.4977,31.6,55,0.0,924.9,9.25,34.2,143,40.7,30.0,0,5,7,1,2026-04-18T16:14:54.394880+05:30
Coimbatore,Tamil Nadu,11.0168,76.9558,37.6,25,0.0,958.9,9.2,31.3,120,26.3,19.1,0,5,10,0,2026-04-18T16:14:54.394906+05:30
Madurai,Tamil Nadu,9.9252,78.1198,38.6,29,0.0,989.1,9.35,34.2,78,16.1,11.5,0,5,10,1,2026-04-18T16:14:54.394914+05:30
Trichy,Tamil Nadu,10.7905,78.7047,37.4,37,0.0,996.0,9.35,18.4,65,9.2,6.7,0,5,10,1,2026-04-18T16:14:54.394920+05:30
Salem,Tamil Nadu,11.6643,78.146,37.9,30,0.0,974.0,9.35,19.8,88,21.9,15.3,0,5,10,1,2026-04-18T16:14:54.394926+05:30
Tirunelveli,Tamil Nadu,8.7139,77.7567,37.8,36,0.0,999.1,9.25,50.4,100,20.2,17.1,0,5,10,1,2026-04-18T16:14:54.394932+05:30
Vellore,Tamil Nadu,12.9165,79.1325,35.5,35,0.0,981.9,8.9,25.6,94,26.4,21.5,0,5,10,1,2026-04-18T16:14:54.394938+05:30
Erode,Tamil Nadu,11.341,77.7172,39.5,27,0.0,985.3,9.35,24.8,75,21.2,13.9,0,5,10,1,2026-04-18T16:14:54.394944+05:30
Kochi,Kerala,9.9312,76.2673,30.0,83,0.0,1005.0,9.1,31.3,86,29.9,21.5,7,5,4,1,2026-04-18T16:14:54.394951+05:30
Thiruvananthapuram,Kerala,8.5241,76.9366,29.9,80,0.0,1004.7,9.1,27.0,79,33.2,21.5,7,5,4,1,2026-04-18T16:14:54.394956+05:30
Kozhikode,Kerala,11.2588,75.7804,31.7,74,0.0,1004.5,8.65,33.1,74,24.6,16.0,3,5,4,1,2026-04-18T16:14:54.394962+05:30
Thrissur,Kerala,10.5276,76.2144,33.3,67,0.0,1003.4,8.8,36.4,82,29.6,21.2,3,5,4,1,2026-04-18T16:14:54.394969+05:30
Kannur,Kerala,11.8745,75.3704,32.2,68,0.0,1004.2,8.55,34.6,70,29.9,19.6,3,5,4,1,2026-04-18T16:14:54.394974+05:30
Patna,Bihar,25.5941,85.1376,38.2,35,0.0,996.5,8.6,24.5,171,70.5,31.3,0,5,10,1,2026-04-18T16:14:54.394980+05:30
Gaya,Bihar,24.7914,85.0002,40.3,19,0.0,989.9,8.6,28.4,160,73.3,24.8,0,5,10,0,2026-04-18T16:14:54.394985+05:30
Muzaffarpur,Bihar,26.1209,85.3647,35.3,50,0.0,997.0,8.6,31.0,171,72.2,40.7,0,5,10,1,2026-04-18T16:14:54.394991+05:30
Bhagalpur,Bihar,25.2425,87.0117,32.3,65,0.0,998.5,8.3,24.8,154,69.4,47.8,3,5,7,1,2026-04-18T16:14:54.394996+05:30
Ranchi,Jharkhand,23.3441,85.3096,38.1,14,0.0,936.0,9.1,42.1,156,54.1,17.1,0,5,10,0,2026-04-18T16:14:54.395002+05:30
Jamshedpur,Jharkhand,22.8046,86.2029,39.1,29,0.0,986.8,8.95,37.1,165,63.8,36.2,0,5,10,1,2026-04-18T16:14:54.395007+05:30
Dhanbad,Jharkhand,23.7957,86.4304,38.2,30,0.0,976.4,8.95,26.6,161,73.6,44.5,0,5,10,1,2026-04-18T16:14:54.395013+05:30
Bokaro,Jharkhand,23.6693,86.1511,38.2,32,0.0,980.2,8.95,40.0,176,64.5,29.7,0,5,10,1,2026-04-18T16:14:54.395018+05:30
Bhubaneswar,Odisha,20.2961,85.8245,31.7,72,0.0,1000.3,8.65,29.9,59,23.2,17.8,3,5,4,1,2026-04-18T16:14:54.395024+05:30
Cuttack,Odisha,20.4625,85.8828,34.8,60,0.0,1001.6,8.9,29.2,59,23.2,17.8,0,5,4,1,2026-04-18T16:14:54.395029+05:30
Rourkela,Odisha,22.2604,84.8536,38.7,33,0.0,981.6,8.5,28.1,162,68.7,25.7,0,5,10,1,2026-04-18T16:14:54.395034+05:30
Raipur,Chhattisgarh,21.2514,81.6296,41.8,20,0.0,970.9,8.9,31.3,184,61.2,36.0,0,5,10,0,2026-04-18T16:14:54.395040+05:30
Bhilai,Chhattisgarh,21.1938,81.3509,41.7,21,0.0,971.3,8.8,36.4,185,64.7,33.9,0,5,10,0,2026-04-18T16:14:54.395045+05:30
Guwahati,Assam,26.1158,91.7086,29.4,74,0.0,999.9,8.5,22.7,141,53.7,42.6,7,5,7,1,2026-04-18T16:14:54.395051+05:30
Agartala,Tripura,23.8315,91.2868,32.0,61,0.0,1003.9,8.7,16.9,134,54.4,38.5,3,5,4,1,2026-04-18T16:14:54.395057+05:30
Shillong,Meghalaya,25.5788,91.8933,20.0,62,0.0,856.6,6.85,34.2,128,57.4,42.4,3,5,7,0,2026-04-18T16:14:54.395062+05:30
Imphal,Manipur,24.817,93.9368,24.2,65,0.0,922.3,9.1,46.4,155,52.7,36.7,3,5,7,1,2026-04-18T16:14:54.395068+05:30
Aizawl,Mizoram,23.7271,92.7176,27.5,46,0.0,892.7,8.95,34.6,129,62.4,41.3,4,5,7,0,2026-04-18T16:14:54.395073+05:30
Kohima,Nagaland,25.6701,94.1077,18.6,89,0.0,854.9,9.0,48.6,138,67.1,45.4,3,10,7,1,2026-04-18T16:14:54.395079+05:30
Gangtok,Sikkim,27.3314,88.6138,20.0,77,0.0,838.1,8.9,19.1,126,46.3,34.0,3,5,7,0,2026-04-18T16:14:54.395085+05:30
Siliguri,West Bengal,26.7271,88.3953,24.5,84,0.0,993.1,8.05,20.9,160,76.4,54.6,3,5,7,1,2026-04-18T16:14:57.714874+05:30
Durgapur,West Bengal,23.5204,87.3119,35.0,52,0.0,991.9,8.85,37.1,130,75.2,59.6,0,5,7,1,2026-04-18T16:14:57.714901+05:30
Asansol,West Bengal,23.6739,86.9524,36.5,45,0.0,990.1,8.9,30.6,132,76.4,53.8,0,5,10,1,2026-04-18T16:14:57.714910+05:30
Pondicherry,Puducherry,11.9139,79.8145,35.9,49,0.0,1004.9,9.15,27.0,38,11.6,7.1,0,5,7,1,2026-04-18T16:14:57.714918+05:30
Port Blair,Andaman and Nicobar Islands,11.6234,92.7265,29.1,77,0.0,1005.6,9.2,16.6,51,20.7,15.4,7,5,4,1,2026-04-18T16:14:57.714926+05:30
Haridwar,Uttarakhand,29.9457,78.1642,37.9,21,0.0,972.9,6.7,34.6,82,52.7,14.7,0,5,10,0,2026-04-18T16:14:57.714933+05:30
Rishikesh,Uttarakhand,30.0869,78.2676,36.5,24,0.0,965.9,6.95,38.2,70,41.4,11.8,0,5,10,0,2026-04-18T16:14:57.714941+05:30
Nainital,Uttarakhand,29.3919,79.4542,30.1,23,0.0,810.4,8.0,69.1,101,31.2,11.6,0,5,7,0,2026-04-18T16:14:57.714948+05:30
Mussoorie,Uttarakhand,30.4599,78.0664,27.0,36,0.0,807.2,7.55,51.5,78,40.4,12.1,4,5,7,0,2026-04-18T16:14:57.714955+05:30
Dharamshala,Himachal Pradesh,32.219,76.3234,28.4,35,0.0,872.6,6.8,38.9,59,36.8,8.6,4,5,7,0,2026-04-18T16:14:57.714962+05:30
Dalhousie,Himachal Pradesh,32.5387,75.971,24.1,36,0.0,808.5,6.65,39.6,57,50.9,11.8,0,5,7,0,2026-04-18T16:14:57.714970+05:30
Patiala,Punjab,30.3398,76.3869,38.2,20,0.0,977.1,7.2,19.4,127,212.8,33.6,0,5,10,0,2026-04-18T16:14:57.714977+05:30
Bhatinda,Punjab,30.211,74.9455,39.9,15,0.0,982.0,7.7,36.7,96,141.6,29.5,0,5,10,0,2026-04-18T16:14:57.714984+05:30
Rohtak,Haryana,28.8955,76.6066,38.3,24,0.0,979.9,6.85,14.4,383,392.1,50.3,0,5,10,0,2026-04-18T16:14:57.714990+05:30
Panipat,Haryana,29.3909,76.9635,38.3,23,0.0,978.9,6.6,12.2,593,586.7,68.5,0,5,10,0,2026-04-18T16:14:57.714997+05:30
Mathura,Uttar Pradesh,27.4924,77.6737,41.0,18,0.0,984.6,7.65,22.7,613,399.5,42.5,0,5,10,0,2026-04-18T16:14:57.715004+05:30
Vrindavan,Uttar Pradesh,27.5823,77.7027,41.1,16,0.0,985.0,7.6,24.8,613,399.5,42.5,0,5,10,0,2026-04-18T16:14:57.715011+05:30
Ayodhya,Uttar Pradesh,26.7922,82.1998,40.8,19,0.0,991.6,7.8,36.7,114,54.8,16.4,0,5,10,0,2026-04-18T16:14:57.715018+05:30
Ratlam,Madhya Pradesh,23.3315,75.0367,36.6,26,0.0,953.8,8.35,24.1,68,9.3,5.8,0,5,10,0,2026-04-18T16:14:57.715025+05:30
Sagar,Madhya Pradesh,23.8388,78.7378,41.1,13,0.0,948.6,7.95,29.9,113,22.2,12.0,0,5,10,0,2026-04-18T16:14:57.715032+05:30
Satna,Madhya Pradesh,24.6005,80.8322,42.0,13,0.0,968.4,8.4,28.8,139,87.3,22.1,0,5,10,0,2026-04-18T16:14:57.715038+05:30
Akola,Maharashtra,20.7002,77.0082,42.0,11,0.0,972.5,8.7,31.7,85,24.6,18.0,0,5,10,0,2026-04-18T16:14:57.715046+05:30
Amravati,Maharashtra,20.9374,77.7796,41.7,15,0.0,964.7,8.05,23.4,86,23.0,16.8,0,5,10,0,2026-04-18T16:14:57.715054+05:30
Latur,Maharashtra,18.4088,76.5604,36.8,23,0.0,938.5,9.05,16.6,107,38.3,30.0,0,5,10,0,2026-04-18T16:14:57.715061+05:30
Nanded,Maharashtra,19.1383,77.3091,40.5,20,0.0,965.7,8.8,18.0,111,30.2,21.4,0,5,10,0,2026-04-18T16:14:57.715067+05:30
Gulbarga,Karnataka,17.3297,76.8343,40.5,20,0.0,956.0,9.0,49.3,131,40.2,34.0,0,5,10,0,2026-04-18T16:14:57.715074+05:30
Bidar,Karnataka,17.9104,77.5199,37.0,28,0.0,934.0,9.05,28.1,129,40.5,33.1,0,5,10,0,2026-04-18T16:14:57.715081+05:30
Hospet,Karnataka,15.2689,76.3909,37.7,25,0.0,953.3,9.25,20.9,96,33.6,26.5,0,5,10,0,2026-04-18T16:14:57.715087+05:30
Tirupur,Tamil Nadu,11.1085,77.3411,39.2,24,0.0,971.9,9.15,31.3,98,25.1,17.3,0,5,10,0,2026-04-18T16:14:57.715094+05:30
Alappuzha,Kerala,9.4981,76.3388,30.0,81,0.0,1005.3,9.1,26.6,93,33.4,22.0,7,5,4,1,2026-04-18T16:14:57.715101+05:30
Munnar,Kerala,10.0889,77.0595,32.0,35,0.0,857.8,9.7,23.8,92,23.0,14.4,0,5,7,0,2026-04-18T16:14:57.715108+05:30
Silchar,Assam,24.8333,92.7789,31.8,57,0.0,1002.5,8.75,19.1,159,74.5,53.8,0,5,4,1,2026-04-18T16:14:57.715115+05:30
Dibrugarh,Assam,27.4728,94.912,30.7,58,0.0,993.2,8.65,13.7,129,52.2,34.3,0,5,7,1,2026-04-18T16:14:57.715121+05:30
