city,state,latitude,longitude,temp,humidity,rain,pressure,uv_index,wind_gusts,aqi,pm10,pm2_5,mosquito_risk,arthritis_risk,migraine_risk,frizz_risk,updated_at
Delhi,Delhi,28.6139,77.209,22.8,53,0.0,984.9,5.7,31.7,157,385.6,79.6,0,5,3,0,2026-03-01T19:57:49.432508+05:30
Mumbai,Maharashtra,19.076,72.8777,26.3,71,0.0,1009.4,7.25,24.1,92,52.9,27.5,7,0,4,1,2026-03-01T19:57:49.432549+05:30
Bangalore,Karnataka,12.9716,77.5946,26.5,45,0.0,911.9,9.05,22.7,153,57.7,56.8,4,5,7,0,2026-03-01T19:57:49.432565+05:30
Hyderabad,Telangana,17.385,78.4867,28.5,51,0.0,953.6,8.3,27.4,129,62.2,61.9,4,5,7,1,2026-03-01T19:57:49.432575+05:30
Chennai,Tamil Nadu,13.0827,80.2707,26.8,70,0.0,1009.2,8.75,33.1,139,44.9,41.1,7,0,4,1,2026-03-01T19:57:49.432584+05:30
Kolkata,West Bengal,22.5726,88.3639,25.5,72,0.0,1006.9,7.6,25.2,106,51.9,50.5,7,5,4,1,2026-03-01T19:57:49.432594+05:30
Pune,Maharashtra,18.5204,73.8567,26.1,57,0.0,948.5,7.8,34.2,160,32.1,29.9,4,5,7,1,2026-03-01T19:57:49.432606+05:30
Ahmedabad,Gujarat,23.0225,72.5714,29.3,42,0.0,1002.9,7.05,21.2,95,43.0,29.7,4,5,4,0,2026-03-01T19:57:49.432614+05:30
Jaipur,Rajasthan,26.9124,75.7873,27.3,26,0.0,961.6,6.45,25.2,90,71.9,30.2,4,5,7,0,2026-03-01T19:57:49.432621+05:30
Lucknow,Uttar Pradesh,26.8467,80.9462,23.5,35,0.0,994.9,6.2,38.5,127,125.7,38.9,0,5,7,0,2026-03-01T19:57:49.432629+05:30
Kanpur,Uttar Pradesh,26.4499,80.3319,21.2,46,0.0,993.5,6.2,31.3,152,232.4,48.5,0,5,7,0,2026-03-01T19:57:49.432636+05:30
Chandigarh,Chandigarh,30.7333,76.7794,18.6,55,0.0,970.3,5.6,31.0,106,36.7,31.9,0,5,3,0,2026-03-01T19:57:49.432644+05:30
Srinagar,Jammu and Kashmir,34.0837,74.7973,11.1,45,0.0,839.6,6.45,15.1,150,61.9,52.7,0,5,7,1,2026-03-01T19:57:49.432651+05:30
Jammu,Jammu and Kashmir,32.7266,74.857,21.5,58,0.0,974.4,6.15,25.2,98,51.7,42.1,0,5,7,0,2026-03-01T19:57:49.432659+05:30
Amritsar,Punjab,31.634,74.8723,20.7,62,0.0,983.0,6.1,20.5,127,56.3,39.6,3,5,7,0,2026-03-01T19:57:49.432669+05:30
Ludhiana,Punjab,30.901,75.8573,21.5,53,0.0,980.9,5.8,25.9,153,82.7,56.0,0,5,3,0,2026-03-01T19:57:49.432676+05:30
Jalandhar,Punjab,31.326,75.5762,21.1,54,0.0,982.0,5.95,23.0,155,68.7,52.6,0,5,3,0,2026-03-01T19:57:49.432684+05:30
Dehradun,Uttarakhand,30.6284,78.0322,11.7,60,0.0,827.7,5.95,32.4,99,22.5,17.4,0,5,3,0,2026-03-01T19:57:49.432692+05:30
Shimla,Himachal Pradesh,31.1048,77.1734,10.2,53,0.0,782.6,6.0,50.4,97,22.9,16.5,0,5,3,0,2026-03-01T19:57:49.432698+05:30
Manali,Himachal Pradesh,32.2396,77.1887,12.2,83,0.0,818.0,7.6,34.9,98,21.0,13.6,3,10,7,0,2026-03-01T19:57:49.432706+05:30
Gurgaon,Haryana,28.4595,77.0266,20.4,59,0.0,983.2,5.8,31.0,528,719.0,115.9,0,5,3,0,2026-03-01T19:57:49.432713+05:30
Noida,Uttar Pradesh,28.5355,77.391,23.2,50,0.0,986.4,5.75,31.3,528,719.0,115.9,0,5,3,0,2026-03-01T19:57:49.432720+05:30
Ghaziabad,Uttar Pradesh,28.6692,77.4538,22.3,55,0.0,984.5,5.7,28.1,153,312.0,67.1,0,5,3,0,2026-03-01T19:57:49.432726+05:30
Faridabad,Haryana,28.4089,77.3178,22.1,49,0.0,985.7,5.75,28.8,528,719.0,115.9,0,5,3,0,2026-03-01T19:57:49.432733+05:30
Meerut,Uttar Pradesh,28.9845,77.7064,19.9,59,0.0,983.0,5.6,31.7,153,312.0,67.1,0,5,3,0,2026-03-01T19:57:49.432739+05:30
Agra,Uttar Pradesh,27.1767,78.0081,22.1,49,0.0,989.6,6.05,27.4,193,423.8,68.5,0,5,7,0,2026-03-01T19:57:49.432746+05:30
Varanasi,Uttar Pradesh,25.3176,82.9739,22.1,65,0.0,998.8,6.85,26.6,141,55.2,39.6,3,5,7,0,2026-03-01T19:57:49.432755+05:30
Prayagraj,Uttar Pradesh,25.4358,81.8463,22.8,49,0.0,997.4,6.7,28.1,140,52.3,28.6,0,5,7,0,2026-03-01T19:57:49.432762+05:30
Gorakhpur,Uttar Pradesh,26.7606,83.3732,21.2,50,0.0,997.8,6.55,32.4,110,36.4,30.6,0,5,7,0,2026-03-01T19:57:49.432768+05:30
Bareilly,Uttar Pradesh,28.367,79.4304,20.3,57,0.0,988.0,5.9,35.6,129,81.5,38.8,0,5,3,0,2026-03-01T19:57:49.432778+05:30
Aligarh,Uttar Pradesh,27.8974,78.088,20.8,50,0.0,987.2,5.8,31.3,240,627.7,100.8,0,5,3,0,2026-03-01T19:57:49.432784+05:30
Moradabad,Uttar Pradesh,28.8386,78.7733,19.9,57,0.0,984.9,5.7,33.8,129,64.7,33.5,0,5,3,0,2026-03-01T19:57:49.432791+05:30
Saharanpur,Uttar Pradesh,29.9637,77.546,19.3,53,0.0,976.7,5.35,38.2,136,85.0,36.7,0,5,3,0,2026-03-01T19:57:49.432797+05:30
Jhansi,Uttar Pradesh,25.4484,78.5685,22.8,54,0.0,979.7,6.65,24.5,83,48.1,25.3,0,5,7,0,2026-03-01T19:57:52.764147+05:30
Surat,Gujarat,21.1702,72.8311,25.9,64,0.0,1007.4,6.95,28.4,107,72.6,61.7,7,5,4,1,2026-03-01T19:57:52.764182+05:30
Vadodara,Gujarat,22.3072,73.1812,28.3,51,0.0,1005.1,7.05,11.9,129,52.5,44.1,4,5,4,1,2026-03-01T19:57:52.764194+05:30
Rajkot,Gujarat,22.3039,70.8022,28.2,36,0.0,995.3,6.9,23.4,98,38.9,25.3,4,5,7,0,2026-03-01T19:57:52.764204+05:30
Thane,Maharashtra,19.2183,72.9781,25.2,71,0.0,1008.8,7.25,36.4,92,52.9,27.5,7,0,4,1,2026-03-01T19:57:52.764213+05:30
Nagpur,Maharashtra,21.1458,79.0882,27.3,51,0.0,973.6,7.65,30.6,105,27.9,27.2,4,5,7,1,2026-03-01T19:57:52.764222+05:30
Nashik,Maharashtra,19.9975,73.7898,25.4,49,0.0,945.7,7.45,28.8,94,22.6,18.8,4,5,7,0,2026-03-01T19:57:52.764231+05:30
Aurangabad,Maharashtra,19.8762,75.3433,28.2,37,0.0,944.0,7.95,28.8,122,27.4,26.4,4,5,7,0,2026-03-01T19:57:52.764240+05:30
Solapur,Maharashtra,17.6599,75.9064,28.1,48,0.0,956.9,8.25,19.8,152,32.8,32.2,4,5,7,0,2026-03-01T19:57:52.764248+05:30
Kolhapur,Maharashtra,16.705,74.2433,24.1,59,0.0,947.9,8.35,38.2,126,31.9,31.3,0,5,7,0,2026-03-01T19:57:52.764257+05:30
Goa,Goa,15.2993,74.124,26.4,70,0.0,999.0,8.4,35.3,65,23.3,19.2,7,5,7,1,2026-03-01T19:57:52.764264+05:30
Jodhpur,Rajasthan,26.2389,73.0243,27.1,37,0.0,984.1,6.75,18.0,95,43.4,22.9,4,5,7,0,2026-03-01T19:57:52.764273+05:30
Udaipur,Rajasthan,24.5854,73.7125,25.1,47,0.0,947.9,7.35,25.2,86,26.8,16.4,4,5,7,0,2026-03-01T19:57:52.764281+05:30
Kota,Rajasthan,25.2138,75.8648,26.2,43,0.0,980.1,6.8,20.2,84,40.6,27.5,4,5,7,0,2026-03-01T19:57:52.764289+05:30
Bikaner,Rajasthan,28.0229,73.3119,28.2,31,0.0,983.4,6.45,16.2,79,31.0,19.2,4,5,7,0,2026-03-01T19:57:52.764297+05:30
Ajmer,Rajasthan,26.4499,74.6399,26.0,37,0.0,956.0,6.7,17.6,95,45.1,26.1,4,5,7,0,2026-03-01T19:57:52.764304+05:30
Gwalior,Madhya Pradesh,26.2183,78.1828,24.1,51,0.0,985.1,6.35,28.8,98,83.6,27.0,0,5,7,0,2026-03-01T19:57:52.764312+05:30
Indore,Madhya Pradesh,22.7196,75.8577,23.4,55,0.0,948.7,7.35,22.3,85,32.4,28.1,0,5,7,0,2026-03-01T19:57:52.764319+05:30
Bhopal,Madhya Pradesh,23.2599,77.4126,23.6,53,0.0,954.9,7.2,25.9,88,23.8,20.7,0,5,7,0,2026-03-01T19:57:52.764327+05:30
Jabalpur,Madhya Pradesh,23.1815,79.9864,23.2,55,0.0,962.2,7.3,39.2,79,21.8,20.8,0,5,7,0,2026-03-01T19:57:52.764334+05:30
Ujjain,Madhya Pradesh,23.1765,75.7885,23.5,62,0.0,954.7,7.2,20.5,86,39.5,33.6,3,5,7,0,2026-03-01T19:57:52.764343+05:30
Visakhapatnam,Andhra Pradesh,17.6868,83.2185,26.1,75,0.0,1005.7,8.3,39.2,151,52.2,48.5,7,5,4,1,2026-03-01T19:57:52.764350+05:30
Vijayawada,Andhra Pradesh,16.5062,80.648,27.2,61,0.0,1003.9,8.4,28.1,149,42.1,40.7,7,5,4,1,2026-03-01T19:57:52.764356+05:30
Guntur,Andhra Pradesh,16.3067,80.4365,26.4,68,0.0,1005.2,8.4,28.4,143,42.1,41.1,7,5,4,1,2026-03-01T19:57:52.764362+05:30
Nellore,Andhra Pradesh,14.4426,79.9865,26.9,69,0.0,1007.6,8.6,31.0,138,39.2,36.8,7,5,4,1,2026-03-01T19:57:52.764369+05:30
Kurnool,Andhra Pradesh,15.8281,78.0373,31.1,34,0.0,976.8,8.4,20.5,139,35.3,34.9,0,5,7,0,2026-03-01T19:57:52.764377+05:30
Kakinada,Andhra Pradesh,16.9891,82.2475,25.8,74,0.0,1009.1,8.3,33.5,151,45.1,41.6,7,0,4,1,2026-03-01T19:57:52.764384+05:30
Tirupati,Andhra Pradesh,13.6288,79.4192,27.3,57,0.0,993.1,8.7,28.4,152,42.6,41.6,4,5,7,1,2026-03-01T19:57:52.764390+05:30
Warangal,Telangana,17.9689,79.5941,28.3,59,0.0,979.2,8.1,27.7,138,68.5,68.0,4,5,7,1,2026-03-01T19:57:52.764397+05:30
Nizamabad,Telangana,18.6725,78.0941,29.8,41,0.0,965.1,8.0,20.9,115,36.8,36.4,4,5,7,0,2026-03-01T19:57:52.764404+05:30
Mysore,Karnataka,12.2958,76.6396,27.5,44,0.0,928.0,9.05,36.0,156,63.6,62.4,4,5,7,0,2026-03-01T19:57:52.764410+05:30
Mangalore,Karnataka,12.9141,74.856,28.2,73,0.0,1007.4,8.65,32.0,49,16.9,12.0,7,5,4,1,2026-03-01T19:57:52.764416+05:30
Hubli-Dharwad,Karnataka,15.3647,75.124,25.0,62,0.0,940.7,8.55,33.5,139,40.5,39.7,7,5,7,1,2026-03-01T19:57:52.764423+05:30
Belgaum,Karnataka,15.8497,74.4977,23.0,68,0.0,925.7,8.6,38.5,134,20.1,19.2,3,5,7,1,2026-03-01T19:57:56.093956+05:30
Coimbatore,Tamil Nadu,11.0168,76.9558,26.4,67,0.0,962.1,9.05,34.9,153,54.9,54.0,7,5,7,1,2026-03-01T19:57:56.093990+05:30
Madurai,Tamil Nadu,9.9252,78.1198,28.4,51,0.0,993.8,9.0,26.3,150,35.4,34.5,4,5,7,1,2026-03-01T19:57:56.094000+05:30
Trichy,Tamil Nadu,10.7905,78.7047,28.5,57,0.0,1000.7,8.9,27.7,148,41.9,40.4,4,5,4,1,2026-03-01T19:57:56.094009+05:30
Salem,Tamil Nadu,11.6643,78.146,30.2,43,0.0,977.6,8.95,26.3,150,42.6,41.7,0,5,7,1,2026-03-01T19:57:56.094017+05:30
Tirunelveli,Tamil Nadu,8.7139,77.7567,27.4,73,0.0,1004.2,9.05,43.6,135,36.7,35.5,7,5,4,1,2026-03-01T19:57:56.094025+05:30
Vellore,Tamil Nadu,12.9165,79.1325,27.3,55,0.0,985.8,8.8,36.7,155,41.3,40.3,4,5,7,1,2026-03-01T19:57:56.094033+05:30
Erode,Tamil Nadu,11.341,77.7172,31.2,38,0.0,988.5,8.95,27.7,140,41.0,40.0,0,5,7,0,2026-03-01T19:57:56.094040+05:30
Kochi,Kerala,9.9312,76.2673,28.5,75,0.0,1009.1,8.9,36.4,118,32.0,30.2,7,0,4,1,2026-03-01T19:57:56.094052+05:30
Thiruvananthapuram,Kerala,8.5241,76.9366,27.6,80,0.0,1008.9,8.95,24.1,152,22.8,19.2,7,0,4,1,2026-03-01T19:57:56.094059+05:30
Kozhikode,Kerala,11.2588,75.7804,28.4,74,0.0,1008.2,8.75,31.3,64,16.8,11.7,7,0,4,1,2026-03-01T19:57:56.094065+05:30
Thrissur,Kerala,10.5276,76.2144,27.6,78,0.0,1007.4,8.85,40.3,109,23.8,21.7,7,5,4,1,2026-03-01T19:57:56.094073+05:30
Kannur,Kerala,11.8745,75.3704,27.9,72,0.0,1007.8,8.75,38.2,56,16.7,12.3,7,5,4,1,2026-03-01T19:57:56.094080+05:30
Patna,Bihar,25.5941,85.1376,24.7,53,0.0,1001.0,7.0,28.8,137,84.5,55.5,0,5,4,0,2026-03-01T19:57:56.094087+05:30
Gaya,Bihar,24.7914,85.0002,24.5,57,0.0,994.9,7.1,19.1,116,81.3,50.8,0,5,7,0,2026-03-01T19:57:56.094093+05:30
Muzaffarpur,Bihar,26.1209,85.3647,23.2,54,0.0,1000.8,6.95,31.0,131,73.3,47.4,0,5,4,0,2026-03-01T19:57:56.094099+05:30
Bhagalpur,Bihar,25.2425,87.0117,22.5,65,0.0,1001.9,7.05,22.3,145,86.8,52.3,3,5,4,0,2026-03-01T19:57:56.094106+05:30
Ranchi,Jharkhand,23.3441,85.3096,23.5,46,0.0,938.6,7.75,24.5,98,37.3,35.5,0,5,7,0,2026-03-01T19:57:56.094112+05:30
Jamshedpur,Jharkhand,22.8046,86.2029,27.9,41,0.0,991.5,7.7,10.8,151,67.5,63.8,4,5,7,0,2026-03-01T19:57:56.094119+05:30
Dhanbad,Jharkhand,23.7957,86.4304,27.7,31,0.0,980.7,7.55,24.1,155,65.0,59.0,4,5,7,0,2026-03-01T19:57:56.094126+05:30
Bokaro,Jharkhand,23.6693,86.1511,24.9,42,0.0,984.8,7.55,22.0,154,62.6,58.1,0,5,7,0,2026-03-01T19:57:56.094133+05:30
Bhubaneswar,Odisha,20.2961,85.8245,25.7,79,0.0,1003.9,8.05,27.0,117,53.3,51.9,7,5,4,1,2026-03-01T19:57:56.094139+05:30
Cuttack,Odisha,20.4625,85.8828,27.0,65,0.0,1005.4,8.05,27.0,117,53.3,51.9,7,5,4,1,2026-03-01T19:57:56.094146+05:30
Rourkela,Odisha,22.2604,84.8536,26.9,50,0.0,985.1,7.6,18.0,147,80.8,79.6,4,5,7,0,2026-03-01T19:57:56.094151+05:30
Raipur,Chhattisgarh,21.2514,81.6296,28.1,38,0.0,974.8,7.75,27.4,155,51.7,51.2,4,5,7,0,2026-03-01T19:57:56.094158+05:30
Bhilai,Chhattisgarh,21.1938,81.3509,26.7,42,0.0,975.0,7.75,28.1,155,36.3,36.0,4,5,7,0,2026-03-01T19:57:56.094164+05:30
Guwahati,Assam,26.1158,91.7086,21.7,82,0.0,1003.2,7.0,32.0,161,79.4,68.7,3,5,4,1,2026-03-01T19:57:56.094170+05:30
Agartala,Tripura,23.8315,91.2868,23.9,70,0.0,1007.1,7.35,27.4,121,54.6,51.0,3,5,4,1,2026-03-01T19:57:56.094177+05:30
Shillong,Meghalaya,25.5788,91.8933,10.7,87,0.0,854.2,6.8,56.9,145,73.8,57.6,3,10,7,0,2026-03-01T19:57:56.094184+05:30
Imphal,Manipur,24.817,93.9368,14.8,70,0.0,922.9,7.55,49.3,153,78.2,62.9,3,5,7,0,2026-03-01T19:57:56.094190+05:30
Aizawl,Mizoram,23.7271,92.7176,17.1,66,0.0,892.4,7.55,40.3,128,65.0,51.1,3,5,7,0,2026-03-01T19:57:56.094197+05:30
Kohima,Nagaland,25.6701,94.1077,12.7,80,0.0,853.4,7.4,70.9,154,99.4,77.3,3,5,7,0,2026-03-01T19:57:56.094203+05:30
Gangtok,Sikkim,27.3314,88.6138,11.3,88,0.0,835.0,5.3,12.6,134,78.0,57.2,3,10,3,0,2026-03-01T19:57:56.094210+05:30
Siliguri,West Bengal,26.7271,88.3953,19.1,68,0.0,994.6,7.0,31.0,173,124.8,92.2,3,5,7,0,2026-03-01T19:57:59.434052+05:30
Durgapur,West Bengal,23.5204,87.3119,28.9,35,0.0,995.5,7.55,26.3,143,64.3,56.7,4,5,7,0,2026-03-01T19:57:59.434089+05:30
Asansol,West Bengal,23.6739,86.9524,29.4,33,0.0,994.1,7.5,22.7,127,55.3,48.1,4,5,7,0,2026-03-01T19:57:59.434102+05:30
Pondicherry,Puducherry,11.9139,79.8145,25.1,85,0.0,1010.3,8.8,28.1,135,44.1,39.8,7,0,4,1,2026-03-01T19:57:59.434113+05:30
Port Blair,Andaman and Nicobar Islands,11.6234,92.7265,28.0,68,0.0,1007.6,8.75,25.6,78,24.8,21.7,7,5,4,1,2026-03-01T19:57:59.434121+05:30
Haridwar,Uttarakhand,29.9457,78.1642,20.7,53,0.0,975.3,5.4,37.1,114,40.7,27.3,0,5,3,0,2026-03-01T19:57:59.434129+05:30
Rishikesh,Uttarakhand,30.0869,78.2676,20.2,52,0.0,967.9,5.5,34.9,119,24.9,20.3,0,5,3,0,2026-03-01T19:57:59.434137+05:30
Nainital,Uttarakhand,29.3919,79.4542,14.6,51,0.0,804.3,6.3,40.0,124,31.8,23.7,0,5,7,0,2026-03-01T19:57:59.434144+05:30
Mussoorie,Uttarakhand,30.4599,78.0664,12.8,53,0.0,800.4,5.85,39.6,117,28.0,23.9,0,5,3,0,2026-03-01T19:57:59.434152+05:30
Dharamshala,Himachal Pradesh,32.219,76.3234,16.7,51,0.0,869.1,6.05,27.4,107,37.8,26.6,0,5,7,0,2026-03-01T19:57:59.434159+05:30
Dalhousie,Himachal Pradesh,32.5387,75.971,14.9,40,0.0,803.3,6.25,30.2,113,51.5,41.4,0,5,7,0,2026-03-01T19:57:59.434166+05:30
Patiala,Punjab,30.3398,76.3869,19.5,59,0.0,980.0,5.5,28.4,154,303.6,72.2,0,5,3,0,2026-03-01T19:57:59.434174+05:30
Bhatinda,Punjab,30.211,74.9455,21.8,60,0.0,985.8,6.2,21.2,152,88.9,66.6,0,5,7,0,2026-03-01T19:57:59.434180+05:30
Rohtak,Haryana,28.8955,76.6066,21.5,59,0.0,983.7,5.7,30.6,159,407.0,83.8,0,5,3,0,2026-03-01T19:57:59.434187+05:30
Panipat,Haryana,29.3909,76.9635,19.8,59,0.0,982.2,5.5,29.9,323,814.0,120.6,0,5,3,0,2026-03-01T19:57:59.434194+05:30
Mathura,Uttar Pradesh,27.4924,77.6737,22.8,42,0.0,988.7,5.95,25.6,206,489.9,76.1,0,5,3,0,2026-03-01T19:57:59.434200+05:30
Vrindavan,Uttar Pradesh,27.5823,77.7027,21.3,49,0.0,989.2,5.95,28.4,206,489.9,76.1,0,5,3,0,2026-03-01T19:57:59.434207+05:30
Ayodhya,Uttar Pradesh,26.7922,82.1998,21.8,43,0.0,996.4,6.35,36.4,112,41.8,26.9,0,5,7,0,2026-03-01T19:57:59.434213+05:30
Ratlam,Madhya Pradesh,23.3315,75.0367,25.4,52,0.0,955.6,7.2,27.7,84,33.6,27.7,4,5,7,0,2026-03-01T19:57:59.434219+05:30
Sagar,Madhya Pradesh,23.8388,78.7378,23.8,50,0.0,951.1,7.15,20.2,97,23.2,18.5,0,5,7,0,2026-03-01T19:57:59.434226+05:30
Satna,Madhya Pradesh,24.6005,80.8322,23.8,43,0.0,972.7,7.1,31.7,93,36.1,22.4,0,5,7,0,2026-03-01T19:57:59.434233+05:30
Akola,Maharashtra,20.7002,77.0082,28.1,36,0.0,975.5,7.7,28.4,112,24.3,23.5,4,5,7,0,2026-03-01T19:57:59.434240+05:30
Amravati,Maharashtra,20.9374,77.7796,27.3,44,0.0,967.7,7.65,27.4,112,20.8,20.3,4,5,7,0,2026-03-01T19:57:59.434247+05:30
Latur,Maharashtra,18.4088,76.5604,27.9,48,0.0,939.9,8.15,25.6,129,28.9,28.5,4,5,7,0,2026-03-01T19:57:59.434253+05:30
Nanded,Maharashtra,19.1383,77.3091,28.7,47,0.0,968.7,7.9,15.5,119,22.9,22.6,4,5,7,1,2026-03-01T19:57:59.434260+05:30
Gulbarga,Karnataka,17.3297,76.8343,30.7,42,0.0,958.6,8.25,17.6,157,43.0,42.5,0,5,7,1,2026-03-01T19:57:59.434266+05:30
Bidar,Karnataka,17.9104,77.5199,29.1,45,0.0,936.0,8.2,20.5,152,37.3,37.0,4,5,7,0,2026-03-01T19:57:59.434272+05:30
Hospet,Karnataka,15.2689,76.3909,31.5,34,0.0,955.7,8.55,24.5,168,46.7,46.2,0,5,7,0,2026-03-01T19:57:59.434278+05:30
Tirupur,Tamil Nadu,11.1085,77.3411,30.9,37,0.0,974.8,9.05,21.2,156,58.7,57.5,0,5,7,0,2026-03-01T19:57:59.434285+05:30
Alappuzha,Kerala,9.4981,76.3388,28.6,75,0.0,1009.3,8.9,34.9,125,24.9,21.0,7,0,4,1,2026-03-01T19:57:59.434291+05:30
Munnar,Kerala,10.0889,77.0595,21.6,90,0.0,857.5,9.35,25.2,131,49.4,48.4,3,5,7,1,2026-03-01T19:57:59.434299+05:30
Silchar,Assam,24.8333,92.7789,24.0,67,0.0,1005.8,7.3,20.5,157,96.4,75.0,3,5,4,1,2026-03-01T19:57:59.434306+05:30
Dibrugarh,Assam,27.4728,94.912,20.4,81,0.0,998.1,7.0,13.7,158,100.4,86.6,3,5,7,1,2026-03-01T19:57:59.434312+05:30
