city,state,latitude,longitude,temp,humidity,rain,pressure,uv_index,wind_gusts,aqi,pm10,pm2_5,no2,co,o3,so2,mosquito_risk,arthritis_risk,migraine_risk,frizz_risk,updated_at
Delhi,Delhi,28.6139,77.209,42.0,13,0.0,977.3,7.75,43.9,637,590.5,88.5,4.5,200.0,137.0,6.9,0,5,10,0,2026-05-24T16:52:06.602585+05:30
Mumbai,Maharashtra,19.076,72.8777,32.0,68,0.0,1008.4,7.15,46.8,39,11.8,8.8,4.5,166.0,68.0,4.2,3,0,4,1,2026-05-24T16:52:06.602625+05:30
Bangalore,Karnataka,12.9716,77.5946,28.1,62,0.0,911.5,4.45,33.8,52,20.3,16.6,6.3,351.0,103.0,3.0,7,5,3,1,2026-05-24T16:52:06.602640+05:30
Hyderabad,Telangana,17.385,78.4867,37.5,24,0.0,951.2,9.25,47.5,74,20.5,14.0,2.1,211.0,123.0,4.3,0,5,10,0,2026-05-24T16:52:06.602650+05:30
Chennai,Tamil Nadu,13.0827,80.2707,35.4,54,0.0,1003.2,8.6,40.0,102,29.8,23.8,5.5,268.0,160.0,7.3,0,5,7,1,2026-05-24T16:52:06.602659+05:30
Kolkata,West Bengal,22.5726,88.3639,33.3,68,0.0,1000.5,8.95,40.3,94,46.6,35.0,3.6,302.0,117.0,6.8,3,5,4,1,2026-05-24T16:52:06.602667+05:30
Pune,Maharashtra,18.5204,73.8567,29.8,66,0.0,948.4,8.2,44.3,38,12.1,8.6,2.4,171.0,92.0,4.0,7,5,7,1,2026-05-24T16:52:06.602673+05:30
Ahmedabad,Gujarat,23.0225,72.5714,41.5,25,0.0,999.0,8.15,39.2,56,11.9,8.4,1.2,137.0,75.0,1.8,0,5,10,1,2026-05-24T16:52:06.602680+05:30
Jaipur,Rajasthan,26.9124,75.7873,41.2,12,0.0,956.6,8.25,47.9,193,416.3,71.7,0.9,137.0,109.0,2.3,0,5,10,0,2026-05-24T16:52:06.602691+05:30
Lucknow,Uttar Pradesh,26.8467,80.9462,41.5,15,0.0,987.1,8.2,48.6,186,332.5,66.4,2.4,210.0,152.0,7.2,0,5,10,0,2026-05-24T16:52:06.602700+05:30
Kanpur,Uttar Pradesh,26.4499,80.3319,42.2,13,0.0,985.9,8.2,44.3,517,732.0,99.2,1.6,192.0,149.0,6.3,0,5,10,0,2026-05-24T16:52:06.602706+05:30
Chandigarh,Chandigarh,30.7333,76.7794,38.9,17,0.0,963.6,7.75,47.9,103,58.4,22.1,1.1,189.0,144.0,6.0,0,5,10,0,2026-05-24T16:52:06.602713+05:30
Srinagar,Jammu and Kashmir,34.0837,74.7973,22.8,47,0.0,842.9,8.7,29.9,80,20.6,10.0,2.3,213.0,122.0,1.7,0,5,7,0,2026-05-24T16:52:06.602720+05:30
Jammu,Jammu and Kashmir,32.7266,74.857,37.3,19,0.0,967.9,8.55,36.4,78,66.4,23.1,0.2,164.0,140.0,3.8,0,5,10,0,2026-05-24T16:52:06.602727+05:30
Amritsar,Punjab,31.634,74.8723,38.5,20,0.0,975.2,8.4,42.5,90,64.0,22.2,1.3,181.0,133.0,3.0,0,5,10,0,2026-05-24T16:52:06.602734+05:30
Ludhiana,Punjab,30.901,75.8573,39.8,15,0.0,972.9,8.0,30.6,101,67.1,21.9,0.7,168.0,136.0,2.6,0,5,10,0,2026-05-24T16:52:06.602740+05:30
Jalandhar,Punjab,31.326,75.5762,39.5,20,0.0,974.0,8.2,30.6,99,74.5,23.7,0.0,162.0,140.0,2.4,0,5,10,0,2026-05-24T16:52:06.602746+05:30
Dehradun,Uttarakhand,30.6284,78.0322,27.8,25,0.0,831.2,8.2,47.2,71,52.7,16.2,0.0,159.0,119.0,1.9,4,5,7,0,2026-05-24T16:52:06.602752+05:30
Shimla,Himachal Pradesh,31.1048,77.1734,23.2,26,0.0,786.8,8.25,65.5,80,106.4,26.3,0.0,150.0,123.0,2.8,0,5,7,0,2026-05-24T16:52:06.602761+05:30
Manali,Himachal Pradesh,32.2396,77.1887,22.2,44,0.0,820.2,9.45,49.7,93,25.4,8.5,1.0,131.0,139.0,0.7,0,5,7,0,2026-05-24T16:52:06.602769+05:30
Gurgaon,Haryana,28.4595,77.0266,42.2,13,0.0,975.7,7.8,38.9,1157,1791.9,218.9,3.1,192.0,129.0,5.6,0,5,10,0,2026-05-24T16:52:06.602793+05:30
Noida,Uttar Pradesh,28.5355,77.391,41.8,14,0.0,978.7,7.75,40.0,1157,1791.9,218.9,3.1,205.0,129.0,5.6,0,5,10,0,2026-05-24T16:52:06.602802+05:30
Ghaziabad,Uttar Pradesh,28.6692,77.4538,41.5,14,0.0,977.0,7.75,42.8,459,590.5,87.1,3.3,199.0,152.0,9.7,0,5,10,0,2026-05-24T16:52:06.602808+05:30
Faridabad,Haryana,28.4089,77.3178,42.0,13,0.0,978.0,7.8,46.1,1157,1791.9,218.9,3.1,173.0,129.0,5.6,0,5,10,0,2026-05-24T16:52:06.602814+05:30
Meerut,Uttar Pradesh,28.9845,77.7064,40.5,15,0.0,975.8,7.65,45.4,459,590.5,87.1,3.3,181.0,152.0,9.7,0,5,10,0,2026-05-24T16:52:06.602820+05:30
Agra,Uttar Pradesh,27.1767,78.0081,42.8,12,0.0,982.3,8.1,41.8,766,1307.6,150.9,2.8,157.0,126.0,3.9,0,5,10,0,2026-05-24T16:52:06.602827+05:30
Varanasi,Uttar Pradesh,25.3176,82.9739,42.6,14,0.0,990.4,8.75,46.4,154,150.9,42.7,3.5,178.0,143.0,7.0,0,5,10,0,2026-05-24T16:52:06.602833+05:30
Prayagraj,Uttar Pradesh,25.4358,81.8463,42.3,15,0.0,989.4,8.6,46.4,154,143.0,39.0,2.1,174.0,145.0,6.3,0,5,10,0,2026-05-24T16:52:06.602840+05:30
Gorakhpur,Uttar Pradesh,26.7606,83.3732,38.6,25,0.0,990.6,8.6,34.9,177,120.6,44.4,3.9,224.0,161.0,8.2,0,5,10,0,2026-05-24T16:52:06.602849+05:30
Bareilly,Uttar Pradesh,28.367,79.4304,38.8,24,0.0,980.7,8.05,43.6,146,79.4,34.7,2.5,212.0,169.0,8.3,0,5,10,0,2026-05-24T16:52:06.602856+05:30
Aligarh,Uttar Pradesh,27.8974,78.088,40.8,16,0.0,980.1,7.9,42.8,774,1173.5,147.1,2.7,196.0,142.0,7.0,0,5,10,0,2026-05-24T16:52:06.602862+05:30
Moradabad,Uttar Pradesh,28.8386,78.7733,39.4,20,0.0,977.8,7.85,48.2,146,170.0,46.6,2.9,207.0,151.0,6.9,0,5,10,0,2026-05-24T16:52:06.602868+05:30
Saharanpur,Uttar Pradesh,29.9637,77.546,38.9,18,0.0,970.2,7.4,54.0,118,159.7,37.3,4.4,202.0,134.0,8.0,0,5,10,0,2026-05-24T16:52:06.602875+05:30
Jhansi,Uttar Pradesh,25.4484,78.5685,42.1,13,0.0,973.6,8.45,45.7,91,77.5,30.6,1.3,151.0,118.0,3.9,0,5,10,0,2026-05-24T16:52:09.966756+05:30
Surat,Gujarat,21.1702,72.8311,34.3,58,0.0,1005.5,7.7,43.9,54,20.5,16.2,12.3,246.0,49.0,35.6,0,5,4,1,2026-05-24T16:52:09.966816+05:30
Vadodara,Gujarat,22.3072,73.1812,41.0,25,0.0,1001.3,8.1,42.8,51,14.0,9.2,0.9,143.0,91.0,2.1,0,5,7,1,2026-05-24T16:52:09.966828+05:30
Rajkot,Gujarat,22.3039,70.8022,35.7,49,0.0,993.0,7.7,47.2,57,19.9,13.1,1.1,115.0,90.0,4.3,0,5,10,1,2026-05-24T16:52:09.966837+05:30
Thane,Maharashtra,19.2183,72.9781,31.8,69,0.0,1007.7,7.3,40.0,39,11.8,8.8,4.5,139.0,68.0,4.2,3,5,4,1,2026-05-24T16:52:09.966846+05:30
Nagpur,Maharashtra,21.1458,79.0882,42.7,13,0.0,969.1,8.9,46.8,86,57.5,24.8,4.7,150.0,130.0,11.9,0,5,10,0,2026-05-24T16:52:09.966853+05:30
Nashik,Maharashtra,19.9975,73.7898,29.4,67,0.1,945.9,8.15,46.8,32,6.5,4.5,1.0,126.0,64.0,0.6,10,5,7,1,2026-05-24T16:52:09.966861+05:30
Aurangabad,Maharashtra,19.8762,75.3433,38.0,21,0.0,943.2,8.95,49.0,49,27.8,12.3,0.9,137.0,107.0,1.2,0,5,10,0,2026-05-24T16:52:09.966868+05:30
Solapur,Maharashtra,17.6599,75.9064,36.5,33,0.1,955.7,9.05,46.8,68,21.0,14.0,1.0,153.0,109.0,2.3,3,5,10,1,2026-05-24T16:52:09.966877+05:30
Kolhapur,Maharashtra,16.705,74.2433,31.6,53,0.0,947.9,8.7,42.8,42,17.8,13.0,2.5,147.0,86.0,1.8,0,5,7,1,2026-05-24T16:52:09.966884+05:30
Goa,Goa,15.2993,74.124,33.5,55,0.0,996.9,5.75,28.8,44,15.7,10.5,0.7,128.0,60.0,0.9,0,5,3,1,2026-05-24T16:52:09.966891+05:30
Jodhpur,Rajasthan,26.2389,73.0243,41.2,15,0.0,979.3,8.45,54.7,186,469.4,75.0,0.7,121.0,107.0,2.0,0,5,10,0,2026-05-24T16:52:09.966899+05:30
Udaipur,Rajasthan,24.5854,73.7125,37.7,22,0.0,945.7,8.8,54.0,73,54.0,18.4,0.4,129.0,94.0,1.7,0,5,10,0,2026-05-24T16:52:09.966906+05:30
Kota,Rajasthan,25.2138,75.8648,43.0,13,0.0,975.1,8.4,44.3,88,133.6,36.3,0.7,130.0,111.0,3.2,0,5,10,0,2026-05-24T16:52:09.966914+05:30
Bikaner,Rajasthan,28.0229,73.3119,44.3,10,0.0,975.6,8.45,57.2,152,253.3,85.4,0.3,121.0,107.0,1.4,0,5,10,0,2026-05-24T16:52:09.966921+05:30
Ajmer,Rajasthan,26.4499,74.6399,38.7,16,0.0,952.1,8.4,63.0,100,119.7,34.8,0.6,126.0,108.0,1.9,0,5,10,0,2026-05-24T16:52:09.966927+05:30
Gwalior,Madhya Pradesh,26.2183,78.1828,42.5,13,0.0,978.3,8.25,46.1,104,84.8,32.5,1.0,154.0,122.0,3.1,0,5,10,0,2026-05-24T16:52:09.966934+05:30
Indore,Madhya Pradesh,22.7196,75.8577,36.8,28,0.0,947.5,8.7,45.4,65,63.6,23.7,1.0,159.0,117.0,3.2,0,5,10,0,2026-05-24T16:52:09.966940+05:30
Bhopal,Madhya Pradesh,23.2599,77.4126,41.1,14,0.0,951.2,8.7,45.7,77,96.6,28.5,0.4,145.0,116.0,2.2,0,5,10,0,2026-05-24T16:52:09.966947+05:30
Jabalpur,Madhya Pradesh,23.1815,79.9864,41.7,14,0.0,957.9,8.85,38.5,82,102.2,31.4,1.1,141.0,120.0,2.9,0,5,10,0,2026-05-24T16:52:09.966953+05:30
Ujjain,Madhya Pradesh,23.1765,75.7885,38.8,24,0.0,952.5,8.6,45.4,65,59.6,22.5,0.6,138.0,112.0,3.5,0,5,10,0,2026-05-24T16:52:09.966961+05:30
Visakhapatnam,Andhra Pradesh,17.6868,83.2185,37.4,48,0.0,997.2,9.1,32.8,157,51.3,45.4,21.1,619.0,175.0,56.6,0,5,10,1,2026-05-24T16:52:09.966967+05:30
Vijayawada,Andhra Pradesh,16.5062,80.648,40.5,28,0.0,997.0,9.1,49.3,112,36.2,27.0,4.1,211.0,143.0,6.8,0,5,10,1,2026-05-24T16:52:09.966974+05:30
Guntur,Andhra Pradesh,16.3067,80.4365,39.7,30,0.0,998.5,9.15,48.2,103,34.2,23.3,2.0,195.0,142.0,5.5,0,5,10,1,2026-05-24T16:52:09.966981+05:30
Nellore,Andhra Pradesh,14.4426,79.9865,39.2,34,0.0,1001.0,8.9,45.0,88,32.5,25.2,3.3,197.0,147.0,4.4,0,5,7,1,2026-05-24T16:52:09.966989+05:30
Kurnool,Andhra Pradesh,15.8281,78.0373,37.7,35,0.0,973.9,9.05,47.2,62,21.4,16.8,1.6,178.0,135.0,7.4,0,5,10,1,2026-05-24T16:52:09.966996+05:30
Kakinada,Andhra Pradesh,16.9891,82.2475,41.9,27,0.0,1000.4,8.65,36.4,153,35.9,27.6,2.6,232.0,151.0,2.6,0,5,7,1,2026-05-24T16:52:09.967004+05:30
Tirupati,Andhra Pradesh,13.6288,79.4192,33.0,54,0.0,988.3,9.1,42.5,86,43.5,38.4,6.3,203.0,156.0,4.6,0,5,7,1,2026-05-24T16:52:09.967010+05:30
Warangal,Telangana,17.9689,79.5941,40.5,19,0.0,974.6,9.0,49.3,101,45.5,24.5,3.0,203.0,136.0,6.2,0,5,10,0,2026-05-24T16:52:09.967017+05:30
Nizamabad,Telangana,18.6725,78.0941,39.6,19,0.0,962.3,9.1,45.4,78,37.4,17.0,0.3,135.0,117.0,2.4,0,5,10,0,2026-05-24T16:52:09.967024+05:30
Mysore,Karnataka,12.2958,76.6396,25.5,82,0.1,928.4,7.55,42.5,40,12.3,10.0,3.9,151.0,87.0,1.7,10,5,7,1,2026-05-24T16:52:09.967031+05:30
Mangalore,Karnataka,12.9141,74.856,29.1,77,0.0,1006.8,8.3,35.3,54,12.5,8.1,1.6,101.0,63.0,1.4,7,5,4,1,2026-05-24T16:52:09.967037+05:30
Hubli-Dharwad,Karnataka,15.3647,75.124,32.7,47,0.0,940.3,9.1,35.6,32,13.9,10.4,1.5,154.0,79.0,1.1,0,5,7,1,2026-05-24T16:52:09.967044+05:30
Belgaum,Karnataka,15.8497,74.4977,31.4,49,0.0,925.8,9.05,38.2,33,11.9,9.1,2.1,141.0,72.0,1.3,0,5,7,1,2026-05-24T16:52:13.341379+05:30
Coimbatore,Tamil Nadu,11.0168,76.9558,29.6,65,0.0,961.2,8.6,48.2,36,9.5,7.5,2.9,174.0,75.0,1.8,7,5,7,1,2026-05-24T16:52:13.341412+05:30
Madurai,Tamil Nadu,9.9252,78.1198,29.1,74,0.3,991.4,8.9,44.3,61,19.9,12.7,2.6,159.0,95.0,1.7,10,5,7,1,2026-05-24T16:52:13.341423+05:30
Trichy,Tamil Nadu,10.7905,78.7047,35.2,47,0.0,996.9,8.4,52.6,54,20.7,13.4,4.1,171.0,103.0,2.7,0,5,10,1,2026-05-24T16:52:13.341432+05:30
Salem,Tamil Nadu,11.6643,78.146,28.2,77,0.2,976.3,8.9,49.0,65,19.3,13.2,4.2,175.0,100.0,4.7,10,5,7,1,2026-05-24T16:52:13.341440+05:30
Tirunelveli,Tamil Nadu,8.7139,77.7567,35.2,45,0.1,1001.3,8.85,44.3,33,6.3,4.8,1.7,130.0,73.0,1.0,3,5,7,1,2026-05-24T16:52:13.341448+05:30
Vellore,Tamil Nadu,12.9165,79.1325,30.1,74,0.0,981.8,9.05,47.2,65,26.4,20.9,6.5,189.0,105.0,2.8,3,5,7,1,2026-05-24T16:52:13.341456+05:30
Erode,Tamil Nadu,11.341,77.7172,28.4,80,0.2,988.1,8.95,62.6,51,13.7,9.6,3.6,205.0,91.0,1.7,10,5,7,1,2026-05-24T16:52:13.341464+05:30
Kochi,Kerala,9.9312,76.2673,27.3,89,0.1,1009.6,8.6,36.4,51,9.8,7.0,3.5,135.0,59.0,1.8,10,0,4,1,2026-05-24T16:52:13.341472+05:30
Thiruvananthapuram,Kerala,8.5241,76.9366,27.9,81,0.1,1008.6,8.3,46.4,33,11.5,6.7,1.4,123.0,64.0,0.7,10,0,4,1,2026-05-24T16:52:13.341480+05:30
Kozhikode,Kerala,11.2588,75.7804,25.9,97,0.1,1008.6,8.35,37.4,32,10.1,6.1,0.6,120.0,67.0,0.7,10,0,4,1,2026-05-24T16:52:13.341487+05:30
Thrissur,Kerala,10.5276,76.2144,26.4,95,0.2,1007.9,8.2,37.4,54,9.1,6.9,3.0,124.0,60.0,1.3,10,5,4,1,2026-05-24T16:52:13.341496+05:30
Kannur,Kerala,11.8745,75.3704,26.5,97,0.2,1008.0,7.2,41.4,49,11.3,7.2,1.2,125.0,67.0,1.0,10,0,4,1,2026-05-24T16:52:13.341503+05:30
Patna,Bihar,25.5941,85.1376,39.5,24,0.0,993.3,8.8,31.7,188,214.2,67.8,10.7,277.0,169.0,11.8,0,5,10,0,2026-05-24T16:52:13.341510+05:30
Gaya,Bihar,24.7914,85.0002,40.5,18,0.0,986.9,8.65,30.6,157,259.8,65.2,6.3,260.0,139.0,8.1,0,5,10,0,2026-05-24T16:52:13.341517+05:30
Muzaffarpur,Bihar,26.1209,85.3647,35.8,52,0.0,993.8,8.8,29.9,185,147.6,63.1,9.4,384.0,190.0,15.0,0,5,10,1,2026-05-24T16:52:13.341524+05:30
Bhagalpur,Bihar,25.2425,87.0117,37.0,45,0.0,994.1,8.75,25.6,158,185.8,57.4,5.6,279.0,182.0,16.5,0,5,10,1,2026-05-24T16:52:13.341531+05:30
Ranchi,Jharkhand,23.3441,85.3096,34.5,30,0.0,934.1,9.3,34.6,134,156.9,45.3,3.8,248.0,125.0,4.9,0,5,7,0,2026-05-24T16:52:13.341538+05:30
Jamshedpur,Jharkhand,22.8046,86.2029,32.8,57,0.0,985.7,9.1,49.7,184,134.1,54.6,6.0,267.0,176.0,15.1,0,5,7,1,2026-05-24T16:52:13.341545+05:30
Dhanbad,Jharkhand,23.7957,86.4304,38.7,24,0.0,974.0,9.05,36.0,182,212.8,69.8,24.4,188.0,150.0,75.8,0,5,10,0,2026-05-24T16:52:13.341552+05:30
Bokaro,Jharkhand,23.6693,86.1511,39.2,23,0.0,977.6,9.1,30.2,168,240.3,67.8,19.6,175.0,145.0,74.2,0,5,10,0,2026-05-24T16:52:13.341560+05:30
Bhubaneswar,Odisha,20.2961,85.8245,33.1,73,0.0,997.1,9.15,42.8,122,33.2,25.1,2.9,244.0,119.0,5.5,3,5,7,1,2026-05-24T16:52:13.341566+05:30
Cuttack,Odisha,20.4625,85.8828,33.2,73,0.0,998.6,9.2,40.0,122,33.2,25.1,2.9,254.0,119.0,5.5,3,5,7,1,2026-05-24T16:52:13.341573+05:30
Rourkela,Odisha,22.2604,84.8536,38.2,31,0.0,979.7,8.95,44.3,168,160.7,56.2,8.2,275.0,146.0,9.9,0,5,10,1,2026-05-24T16:52:13.341581+05:30
Raipur,Chhattisgarh,21.2514,81.6296,41.5,17,0.0,969.9,9.0,36.7,107,90.3,39.8,13.5,142.0,107.0,22.0,0,5,10,0,2026-05-24T16:52:13.341587+05:30
Bhilai,Chhattisgarh,21.1938,81.3509,40.5,19,0.0,970.3,9.0,30.2,99,88.2,39.8,16.3,167.0,102.0,27.1,0,5,10,0,2026-05-24T16:52:13.341594+05:30
Guwahati,Assam,26.1158,91.7086,28.1,83,0.0,996.2,8.75,24.8,65,23.1,14.5,2.5,297.0,105.0,3.8,7,5,7,1,2026-05-24T16:52:13.341601+05:30
Agartala,Tripura,23.8315,91.2868,28.0,97,0.3,1002.0,7.8,43.9,76,39.7,21.0,6.1,177.0,93.0,2.0,10,5,4,1,2026-05-24T16:52:13.341609+05:30
Shillong,Meghalaya,25.5788,91.8933,22.8,78,0.0,855.2,9.15,49.0,47,25.6,14.3,2.8,223.0,106.0,2.9,3,5,7,1,2026-05-24T16:52:13.341615+05:30
Imphal,Manipur,24.817,93.9368,28.0,65,0.0,920.5,9.05,38.9,77,35.5,16.8,4.5,207.0,68.0,1.7,7,5,7,1,2026-05-24T16:52:13.341622+05:30
Aizawl,Mizoram,23.7271,92.7176,24.8,71,0.0,890.7,8.65,38.9,68,33.1,15.0,1.8,178.0,85.0,1.4,3,5,7,1,2026-05-24T16:52:13.341629+05:30
Kohima,Nagaland,25.6701,94.1077,24.4,69,0.0,854.0,9.3,33.1,56,32.6,14.1,1.9,214.0,80.0,1.4,3,5,7,1,2026-05-24T16:52:13.341636+05:30
Gangtok,Sikkim,27.3314,88.6138,20.6,84,0.1,835.5,8.8,34.9,105,53.1,24.6,2.4,282.0,134.0,3.4,6,5,7,1,2026-05-24T16:52:13.341642+05:30
Siliguri,West Bengal,26.7271,88.3953,30.1,69,0.0,987.5,8.7,26.6,126,63.8,36.8,3.7,466.0,148.0,7.7,3,5,7,1,2026-05-24T16:52:16.689939+05:30
Durgapur,West Bengal,23.5204,87.3119,30.0,84,0.0,988.7,8.9,48.6,195,112.7,74.3,17.7,545.0,209.0,51.6,7,5,7,1,2026-05-24T16:52:16.689969+05:30
Asansol,West Bengal,23.6739,86.9524,32.8,64,0.0,987.2,8.9,37.8,198,164.8,71.0,18.8,419.0,182.0,40.9,3,5,7,1,2026-05-24T16:52:16.689980+05:30
Pondicherry,Puducherry,11.9139,79.8145,32.2,75,0.0,1005.1,8.7,47.9,90,34.3,27.9,9.2,234.0,159.0,12.8,3,5,4,1,2026-05-24T16:52:16.689988+05:30
Port Blair,Andaman and Nicobar Islands,11.6234,92.7265,26.9,91,0.0,1006.2,8.9,34.2,30,8.9,5.1,0.5,108.0,60.0,0.4,7,5,4,1,2026-05-24T16:52:16.689996+05:30
Haridwar,Uttarakhand,29.9457,78.1642,39.1,17,0.0,968.2,7.55,57.2,130,77.1,26.0,2.0,176.0,144.0,7.0,0,5,10,0,2026-05-24T16:52:16.690004+05:30
Rishikesh,Uttarakhand,30.0869,78.2676,37.7,19,0.0,961.1,7.65,49.7,122,55.2,21.8,0.8,158.0,147.0,5.5,0,5,10,0,2026-05-24T16:52:16.690012+05:30
Nainital,Uttarakhand,29.3919,79.4542,23.4,42,0.0,806.5,8.5,53.3,148,58.1,24.9,1.3,210.0,167.0,7.1,0,5,7,0,2026-05-24T16:52:16.690019+05:30
Mussoorie,Uttarakhand,30.4599,78.0664,24.3,29,0.0,804.2,8.05,67.0,102,61.0,23.0,0.7,160.0,130.0,4.0,0,5,7,0,2026-05-24T16:52:16.690027+05:30
Dharamshala,Himachal Pradesh,32.219,76.3234,27.7,28,0.0,868.4,8.4,37.1,74,49.0,14.5,0.0,142.0,124.0,1.6,4,5,7,0,2026-05-24T16:52:16.690034+05:30
Dalhousie,Himachal Pradesh,32.5387,75.971,22.6,32,0.0,806.0,8.65,43.2,82,64.5,19.6,0.0,132.0,132.0,2.5,0,5,7,0,2026-05-24T16:52:16.690043+05:30
Patiala,Punjab,30.3398,76.3869,40.3,16,0.0,972.4,7.65,38.9,501,376.3,50.4,1.9,170.0,132.0,3.3,0,5,10,0,2026-05-24T16:52:16.690050+05:30
Bhatinda,Punjab,30.211,74.9455,42.2,14,0.0,976.7,8.3,34.9,140,137.4,41.6,1.5,153.0,157.0,12.3,0,5,10,0,2026-05-24T16:52:16.690057+05:30
Rohtak,Haryana,28.8955,76.6066,41.9,13,0.0,975.6,7.75,32.0,817,810.3,102.2,1.5,163.0,127.0,3.5,0,5,10,0,2026-05-24T16:52:16.690064+05:30
Panipat,Haryana,29.3909,76.9635,41.5,13,0.0,974.5,7.6,44.6,1696,1560.9,172.3,2.1,154.0,133.0,7.1,0,5,10,0,2026-05-24T16:52:16.690070+05:30
Mathura,Uttar Pradesh,27.4924,77.6737,42.8,13,0.0,981.3,8.0,40.0,620,1113.9,128.1,1.5,169.0,122.0,3.0,0,5,10,0,2026-05-24T16:52:16.690077+05:30
Vrindavan,Uttar Pradesh,27.5823,77.7027,42.3,14,0.0,981.6,8.0,38.2,620,1113.9,128.1,1.5,172.0,122.0,3.0,0,5,10,0,2026-05-24T16:52:16.690084+05:30
Ayodhya,Uttar Pradesh,26.7922,82.1998,39.8,19,0.0,988.4,8.35,37.1,155,101.7,40.5,1.4,205.0,158.0,7.0,0,5,10,0,2026-05-24T16:52:16.690090+05:30
Ratlam,Madhya Pradesh,23.3315,75.0367,38.3,24,0.0,953.7,8.55,49.7,62,51.9,20.9,0.4,128.0,112.0,3.8,0,5,10,0,2026-05-24T16:52:16.690097+05:30
Sagar,Madhya Pradesh,23.8388,78.7378,40.4,14,0.0,947.9,8.75,46.4,83,111.5,33.1,0.1,131.0,123.0,3.1,0,5,10,0,2026-05-24T16:52:16.690104+05:30
Satna,Madhya Pradesh,24.6005,80.8322,40.8,15,0.0,967.1,8.8,47.2,116,77.5,26.9,0.6,161.0,128.0,2.9,0,5,10,0,2026-05-24T16:52:16.690110+05:30
Akola,Maharashtra,20.7002,77.0082,40.4,22,0.0,972.3,8.85,51.5,58,47.1,20.1,1.1,125.0,121.0,4.8,0,5,10,0,2026-05-24T16:52:16.690118+05:30
Amravati,Maharashtra,20.9374,77.7796,40.9,18,0.0,964.4,8.85,47.5,59,50.1,21.2,1.3,135.0,123.0,5.6,0,5,10,0,2026-05-24T16:52:16.690125+05:30
Latur,Maharashtra,18.4088,76.5604,37.0,23,0.0,938.7,9.05,38.9,66,20.5,10.8,0.6,131.0,126.0,3.4,0,5,10,0,2026-05-24T16:52:16.690132+05:30
Nanded,Maharashtra,19.1383,77.3091,39.8,19,0.0,966.1,9.0,38.9,60,31.4,14.5,0.4,141.0,113.0,2.0,0,5,10,0,2026-05-24T16:52:16.690139+05:30
Gulbarga,Karnataka,17.3297,76.8343,36.8,33,0.0,956.6,6.65,45.4,69,23.0,16.0,1.2,181.0,114.0,2.4,0,5,10,1,2026-05-24T16:52:16.690145+05:30
Bidar,Karnataka,17.9104,77.5199,36.7,26,0.0,934.3,9.1,46.4,78,20.3,12.5,0.5,149.0,126.0,4.4,0,5,10,0,2026-05-24T16:52:16.690152+05:30
Hospet,Karnataka,15.2689,76.3909,34.2,42,0.0,954.5,8.9,40.7,39,20.4,15.7,3.4,173.0,96.0,2.6,0,5,7,1,2026-05-24T16:52:16.690158+05:30
Tirupur,Tamil Nadu,11.1085,77.3411,31.4,58,0.1,974.2,8.9,49.7,51,11.6,8.3,3.7,160.0,87.0,2.3,3,5,7,1,2026-05-24T16:52:16.690164+05:30
Alappuzha,Kerala,9.4981,76.3388,26.6,91,0.1,1009.8,8.5,37.4,42,10.1,6.6,3.9,98.0,64.0,1.7,10,0,4,1,2026-05-24T16:52:16.690171+05:30
Munnar,Kerala,10.0889,77.0595,19.2,93,0.0,857.5,8.95,31.3,29,5.4,4.3,2.6,140.0,62.0,0.9,3,10,7,1,2026-05-24T16:52:16.690178+05:30
Silchar,Assam,24.8333,92.7789,29.0,79,0.1,1001.0,8.95,43.2,66,24.9,14.2,2.5,249.0,88.0,3.0,10,5,4,1,2026-05-24T16:52:16.690185+05:30
Dibrugarh,Assam,27.4728,94.912,25.4,98,0.3,991.3,8.45,37.1,63,29.7,19.4,3.3,227.0,99.0,1.9,10,5,7,1,2026-05-24T16:52:16.690191+05:30
