city,state,latitude,longitude,temp,humidity,rain,pressure,uv_index,wind_gusts,aqi,pm10,pm2_5,no2,co,o3,so2,mosquito_risk,arthritis_risk,migraine_risk,frizz_risk,updated_at
Delhi,Delhi,28.6139,77.209,26.4,92,0.0,975.8,6.45,36.0,85,20.7,20.6,18.8,385.0,73.0,17.9,7,5,7,1,2026-07-24T01:44:42.770228+05:30
Mumbai,Maharashtra,19.076,72.8777,27.6,83,0.0,1002.4,7.75,64.4,56,40.3,15.1,3.3,107.0,40.0,2.6,7,5,4,1,2026-07-24T01:44:42.770275+05:30
Bangalore,Karnataka,12.9716,77.5946,19.6,98,0.0,910.8,8.45,51.1,34,13.9,7.0,9.8,179.0,27.0,3.9,3,10,7,1,2026-07-24T01:44:42.770291+05:30
Hyderabad,Telangana,17.385,78.4867,24.6,74,0.0,950.0,5.95,62.3,60,45.8,24.7,6.1,155.0,49.0,3.8,3,5,3,1,2026-07-24T01:44:42.770300+05:30
Chennai,Tamil Nadu,13.0827,80.2707,28.0,79,0.0,1005.7,7.2,43.9,73,22.8,16.4,11.8,217.0,67.0,9.1,7,5,4,1,2026-07-24T01:44:42.770309+05:30
Kolkata,West Bengal,22.5726,88.3639,26.4,93,0.0,1000.5,7.8,31.3,67,23.2,18.7,9.1,270.0,68.0,8.9,7,5,4,1,2026-07-24T01:44:42.770317+05:30
Pune,Maharashtra,18.5204,73.8567,22.8,89,0.0,942.8,7.1,67.3,36,1.2,0.9,3.3,105.0,39.0,2.5,3,5,7,1,2026-07-24T01:44:42.770324+05:30
Ahmedabad,Gujarat,23.0225,72.5714,25.7,96,0.5,991.2,4.7,58.3,60,22.0,10.8,7.3,126.0,43.0,3.0,10,5,3,1,2026-07-24T01:44:42.770332+05:30
Jaipur,Rajasthan,26.9124,75.7873,25.6,93,0.0,950.9,6.55,28.4,61,18.7,18.5,12.7,318.0,79.0,7.1,7,5,7,1,2026-07-24T01:44:42.770339+05:30
Lucknow,Uttar Pradesh,26.8467,80.9462,25.8,96,0.0,987.5,4.6,26.3,66,16.1,16.1,9.7,274.0,79.0,8.5,7,5,3,1,2026-07-24T01:44:42.770371+05:30
Kanpur,Uttar Pradesh,26.4499,80.3319,25.5,98,0.2,985.1,7.2,27.4,64,11.0,10.9,12.2,225.0,59.0,7.5,10,5,7,1,2026-07-24T01:44:42.770383+05:30
Chandigarh,Chandigarh,30.7333,76.7794,27.8,76,0.0,962.7,7.65,28.1,84,38.5,38.4,36.4,279.0,34.0,7.9,7,5,7,1,2026-07-24T01:44:42.770391+05:30
Srinagar,Jammu and Kashmir,34.0837,74.7973,17.1,94,0.1,838.3,6.05,22.3,66,43.9,43.9,32.9,510.0,4.0,1.0,6,10,7,1,2026-07-24T01:44:42.770399+05:30
Jammu,Jammu and Kashmir,32.7266,74.857,24.3,90,0.1,967.0,8.0,28.1,78,53.7,51.6,62.5,408.0,1.0,6.6,6,5,7,1,2026-07-24T01:44:42.770406+05:30
Amritsar,Punjab,31.634,74.8723,26.6,82,0.0,974.2,8.05,30.2,95,72.6,71.0,52.3,546.0,8.0,9.6,7,5,7,1,2026-07-24T01:44:42.770412+05:30
Ludhiana,Punjab,30.901,75.8573,28.0,86,0.0,972.1,7.85,36.7,139,65.0,64.5,43.7,634.0,41.0,16.7,7,5,7,1,2026-07-24T01:44:42.770421+05:30
Jalandhar,Punjab,31.326,75.5762,27.1,90,0.0,973.2,7.95,28.8,115,70.8,68.9,53.0,713.0,11.0,9.3,7,5,7,1,2026-07-24T01:44:42.770428+05:30
Dehradun,Uttarakhand,30.6284,78.0322,17.4,100,0.0,826.2,7.25,27.4,51,4.5,4.5,22.2,167.0,36.0,0.6,3,10,7,1,2026-07-24T01:44:42.770435+05:30
Shimla,Himachal Pradesh,31.1048,77.1734,14.5,96,0.0,780.1,7.0,24.8,52,13.3,13.3,18.4,345.0,41.0,0.1,3,10,7,0,2026-07-24T01:44:42.770442+05:30
Manali,Himachal Pradesh,32.2396,77.1887,20.2,82,0.0,816.1,9.25,30.2,17,2.7,2.6,19.9,205.0,31.0,0.2,3,5,7,1,2026-07-24T01:44:42.770452+05:30
Gurgaon,Haryana,28.4595,77.0266,26.3,93,0.0,974.1,6.6,37.1,94,20.6,20.5,17.0,365.0,77.0,15.8,7,5,7,1,2026-07-24T01:44:42.770459+05:30
Noida,Uttar Pradesh,28.5355,77.391,26.4,93,0.0,977.2,6.25,38.9,94,20.6,20.5,17.0,329.0,77.0,15.8,7,5,7,1,2026-07-24T01:44:42.770465+05:30
Ghaziabad,Uttar Pradesh,28.6692,77.4538,26.5,91,0.0,975.6,6.0,43.9,70,18.2,18.2,11.8,282.0,77.0,8.7,7,5,3,1,2026-07-24T01:44:42.770473+05:30
Faridabad,Haryana,28.4089,77.3178,26.4,93,0.0,976.4,6.6,42.8,94,20.6,20.5,17.0,331.0,77.0,15.8,7,5,7,1,2026-07-24T01:44:42.770480+05:30
Meerut,Uttar Pradesh,28.9845,77.7064,26.9,87,0.0,975.0,6.95,49.3,70,18.2,18.2,11.8,295.0,77.0,8.7,7,5,7,1,2026-07-24T01:44:42.770487+05:30
Agra,Uttar Pradesh,27.1767,78.0081,26.1,97,0.0,979.8,6.2,32.8,74,16.5,16.5,12.2,245.0,80.0,7.4,7,5,7,1,2026-07-24T01:44:42.770494+05:30
Varanasi,Uttar Pradesh,25.3176,82.9739,26.7,99,0.0,991.7,7.9,22.7,68,13.9,13.9,24.4,495.0,37.0,18.0,7,5,7,1,2026-07-24T01:44:42.770501+05:30
Prayagraj,Uttar Pradesh,25.4358,81.8463,26.1,97,0.0,990.0,8.1,19.8,66,18.2,18.2,20.1,272.0,37.0,10.8,7,5,7,1,2026-07-24T01:44:42.770509+05:30
Gorakhpur,Uttar Pradesh,26.7606,83.3732,26.5,94,0.0,992.1,6.5,28.8,70,26.2,26.2,12.6,330.0,72.0,6.4,7,5,7,1,2026-07-24T01:44:42.770516+05:30
Bareilly,Uttar Pradesh,28.367,79.4304,26.0,91,0.0,980.6,7.3,43.2,65,19.3,19.2,11.1,350.0,75.0,7.1,7,5,7,1,2026-07-24T01:44:42.770524+05:30
Aligarh,Uttar Pradesh,27.8974,78.088,26.6,89,0.0,977.9,6.2,35.6,72,19.3,19.3,11.7,272.0,83.0,10.4,7,5,7,1,2026-07-24T01:44:42.770532+05:30
Moradabad,Uttar Pradesh,28.8386,78.7733,26.9,86,0.0,977.6,6.55,50.0,65,16.9,16.9,10.2,297.0,79.0,7.1,7,5,7,1,2026-07-24T01:44:42.770539+05:30
Saharanpur,Uttar Pradesh,29.9637,77.546,27.6,80,0.0,969.7,7.3,46.8,70,32.2,32.0,28.5,279.0,23.0,6.9,7,5,7,1,2026-07-24T01:44:42.770545+05:30
Jhansi,Uttar Pradesh,25.4484,78.5685,26.7,84,0.0,970.1,7.05,36.0,61,10.1,10.0,13.4,210.0,50.0,4.6,7,5,7,1,2026-07-24T01:44:46.153213+05:30
Surat,Gujarat,21.1702,72.8311,26.7,92,0.1,997.9,7.2,63.7,58,12.7,8.1,9.3,204.0,34.0,15.7,10,5,7,1,2026-07-24T01:44:46.153249+05:30
Vadodara,Gujarat,22.3072,73.1812,25.6,95,0.3,994.5,5.95,59.4,54,9.8,7.2,11.1,109.0,38.0,4.4,10,5,3,1,2026-07-24T01:44:46.153262+05:30
Rajkot,Gujarat,22.3039,70.8022,25.5,96,0.6,984.1,0.65,51.5,57,19.2,8.7,4.4,99.0,40.0,4.6,10,5,3,1,2026-07-24T01:44:46.153273+05:30
Thane,Maharashtra,19.2183,72.9781,25.7,91,0.0,1001.7,7.7,52.6,56,40.3,15.1,3.3,117.0,40.0,2.6,7,5,4,1,2026-07-24T01:44:46.153283+05:30
Nagpur,Maharashtra,21.1458,79.0882,25.3,81,0.0,967.8,6.9,46.1,56,8.8,7.9,7.9,151.0,38.0,6.7,7,5,7,1,2026-07-24T01:44:46.153294+05:30
Nashik,Maharashtra,19.9975,73.7898,22.8,96,0.0,938.4,6.55,68.0,19,10.0,4.9,3.1,104.0,41.0,2.0,3,5,7,1,2026-07-24T01:44:46.153304+05:30
Aurangabad,Maharashtra,19.8762,75.3433,22.4,96,0.2,938.0,7.55,66.6,19,5.1,3.1,5.5,120.0,36.0,5.6,6,5,7,1,2026-07-24T01:44:46.153313+05:30
Solapur,Maharashtra,17.6599,75.9064,24.8,76,0.0,954.1,6.95,66.2,63,15.4,9.0,3.7,112.0,42.0,1.8,3,5,7,1,2026-07-24T01:44:46.153321+05:30
Kolhapur,Maharashtra,16.705,74.2433,22.2,93,0.0,944.8,8.7,68.4,66,9.3,4.9,2.6,105.0,46.0,1.4,3,5,7,1,2026-07-24T01:44:46.153329+05:30
Goa,Goa,15.2993,74.124,23.0,98,0.3,997.1,8.65,48.6,89,139.2,48.2,3.0,232.0,53.0,0.9,6,5,7,1,2026-07-24T01:44:46.153336+05:30
Jodhpur,Rajasthan,26.2389,73.0243,27.4,96,0.0,972.9,7.15,23.4,57,12.0,11.7,10.3,264.0,72.0,1.9,7,5,7,1,2026-07-24T01:44:46.153343+05:30
Udaipur,Rajasthan,24.5854,73.7125,23.7,98,0.1,936.5,8.1,42.1,35,6.5,6.3,6.9,253.0,77.0,2.2,6,5,7,1,2026-07-24T01:44:46.153372+05:30
Kota,Rajasthan,25.2138,75.8648,26.3,95,0.0,969.1,6.95,40.0,67,15.4,15.3,15.7,282.0,46.0,6.8,7,5,7,1,2026-07-24T01:44:46.153382+05:30
Bikaner,Rajasthan,28.0229,73.3119,28.7,83,0.0,972.3,8.2,28.8,74,23.6,21.8,6.1,324.0,110.0,13.8,7,5,7,1,2026-07-24T01:44:46.153390+05:30
Ajmer,Rajasthan,26.4499,74.6399,25.9,91,0.0,945.4,8.0,32.8,56,17.1,16.2,10.2,344.0,80.0,3.4,7,5,7,1,2026-07-24T01:44:46.153397+05:30
Gwalior,Madhya Pradesh,26.2183,78.1828,25.8,97,0.0,974.9,7.9,32.0,66,7.7,7.7,8.1,227.0,79.0,4.2,7,5,7,1,2026-07-24T01:44:46.153405+05:30
Indore,Madhya Pradesh,22.7196,75.8577,23.9,88,0.0,940.2,6.7,51.8,35,4.6,4.5,10.4,157.0,34.0,7.5,3,5,7,1,2026-07-24T01:44:46.153413+05:30
Bhopal,Madhya Pradesh,23.2599,77.4126,23.7,92,0.0,946.1,4.0,46.8,31,4.9,4.8,7.7,162.0,36.0,4.7,3,5,3,1,2026-07-24T01:44:46.153420+05:30
Jabalpur,Madhya Pradesh,23.1815,79.9864,24.3,89,0.0,955.5,7.8,37.1,40,22.3,18.3,9.0,157.0,50.0,8.1,3,5,7,1,2026-07-24T01:44:46.153427+05:30
Ujjain,Madhya Pradesh,23.1765,75.7885,23.9,91,0.0,945.3,6.65,54.0,45,9.1,9.0,12.2,178.0,33.0,6.8,3,5,7,1,2026-07-24T01:44:46.153435+05:30
Visakhapatnam,Andhra Pradesh,17.6868,83.2185,27.1,84,0.0,1000.5,8.4,47.9,71,28.2,21.2,14.4,261.0,79.0,26.1,7,5,4,1,2026-07-24T01:44:46.153443+05:30
Vijayawada,Andhra Pradesh,16.5062,80.648,28.7,83,0.0,999.9,8.85,45.4,60,25.8,19.1,6.8,248.0,91.0,6.2,7,5,7,1,2026-07-24T01:44:46.153450+05:30
Guntur,Andhra Pradesh,16.3067,80.4365,29.5,76,0.0,1001.3,8.95,45.0,59,23.5,18.6,8.5,217.0,83.0,5.6,7,5,4,1,2026-07-24T01:44:46.153458+05:30
Nellore,Andhra Pradesh,14.4426,79.9865,25.4,90,0.2,1004.8,8.1,43.2,59,23.3,14.4,10.9,133.0,50.0,5.2,10,5,4,1,2026-07-24T01:44:46.153466+05:30
Kurnool,Andhra Pradesh,15.8281,78.0373,26.3,72,0.0,975.5,8.1,56.5,56,59.6,30.3,6.2,124.0,47.0,4.0,7,5,7,1,2026-07-24T01:44:46.153475+05:30
Kakinada,Andhra Pradesh,16.9891,82.2475,28.9,76,0.0,1004.5,8.4,57.6,66,24.9,15.9,2.5,183.0,108.0,4.1,7,5,4,1,2026-07-24T01:44:46.153483+05:30
Tirupati,Andhra Pradesh,13.6288,79.4192,26.2,89,0.0,990.0,8.4,36.7,60,24.0,17.7,26.4,183.0,19.0,4.1,7,5,7,1,2026-07-24T01:44:46.153491+05:30
Warangal,Telangana,17.9689,79.5941,26.1,67,0.0,975.5,7.4,48.6,63,38.2,22.6,6.4,182.0,46.0,3.3,7,5,7,1,2026-07-24T01:44:46.153498+05:30
Nizamabad,Telangana,18.6725,78.0941,25.3,76,0.0,960.7,7.6,54.7,61,14.0,9.2,4.8,126.0,37.0,2.0,7,5,7,1,2026-07-24T01:44:46.153506+05:30
Mysore,Karnataka,12.2958,76.6396,21.0,95,0.1,928.1,8.2,46.4,25,11.5,5.4,5.9,109.0,30.0,1.7,6,5,7,1,2026-07-24T01:44:46.153514+05:30
Mangalore,Karnataka,12.9141,74.856,24.9,97,0.0,1007.5,8.6,43.2,51,29.8,14.6,8.3,182.0,27.0,2.2,3,5,4,1,2026-07-24T01:44:46.153521+05:30
Hubli-Dharwad,Karnataka,15.3647,75.124,21.8,97,0.1,939.0,8.95,64.1,59,55.6,24.6,3.9,102.0,42.0,1.2,6,5,7,1,2026-07-24T01:44:46.153528+05:30
Belgaum,Karnataka,15.8497,74.4977,20.8,96,0.0,923.4,8.85,67.7,69,65.9,26.9,2.7,101.0,57.0,1.6,3,5,7,1,2026-07-24T01:44:49.529852+05:30
Coimbatore,Tamil Nadu,11.0168,76.9558,22.6,96,0.0,961.2,8.95,51.1,36,7.0,5.7,7.8,187.0,26.0,2.8,3,5,7,1,2026-07-24T01:44:49.529885+05:30
Madurai,Tamil Nadu,9.9252,78.1198,29.0,59,0.0,992.5,8.75,33.1,63,28.0,22.8,35.5,152.0,10.0,7.0,4,5,7,1,2026-07-24T01:44:49.529896+05:30
Trichy,Tamil Nadu,10.7905,78.7047,28.9,56,0.0,999.2,8.25,44.6,56,13.6,10.5,11.1,133.0,34.0,4.3,4,5,7,1,2026-07-24T01:44:49.529905+05:30
Salem,Tamil Nadu,11.6643,78.146,25.9,79,0.0,977.0,7.65,33.8,61,14.6,11.3,14.9,264.0,30.0,6.8,7,5,7,1,2026-07-24T01:44:49.529913+05:30
Tirunelveli,Tamil Nadu,8.7139,77.7567,28.2,68,0.0,1003.2,8.7,50.8,37,9.1,7.2,6.7,146.0,32.0,2.3,7,5,4,1,2026-07-24T01:44:49.529921+05:30
Vellore,Tamil Nadu,12.9165,79.1325,26.8,80,0.0,983.4,6.8,39.6,60,20.4,15.4,16.1,197.0,30.0,5.2,7,5,7,1,2026-07-24T01:44:49.529929+05:30
Erode,Tamil Nadu,11.341,77.7172,26.2,74,0.0,988.9,8.05,40.7,53,12.1,9.9,14.4,156.0,28.0,4.0,7,5,7,1,2026-07-24T01:44:49.529937+05:30
Kochi,Kerala,9.9312,76.2673,25.2,93,0.0,1009.8,8.25,35.6,54,17.9,15.3,17.5,181.0,13.0,5.0,7,0,4,1,2026-07-24T01:44:49.529945+05:30
Thiruvananthapuram,Kerala,8.5241,76.9366,24.6,95,0.0,1009.3,8.55,41.4,50,11.4,7.1,4.5,132.0,38.0,2.5,3,0,4,1,2026-07-24T01:44:49.529953+05:30
Kozhikode,Kerala,11.2588,75.7804,24.0,98,0.3,1009.1,8.3,35.6,34,7.2,4.7,2.9,288.0,39.0,1.7,6,0,4,1,2026-07-24T01:44:49.529960+05:30
Thrissur,Kerala,10.5276,76.2144,23.9,97,0.0,1008.1,8.6,36.7,52,18.3,15.7,14.0,331.0,16.0,4.1,3,0,4,1,2026-07-24T01:44:49.529968+05:30
Kannur,Kerala,11.8745,75.3704,23.1,98,0.1,1008.5,7.9,38.9,36,8.8,5.5,8.4,168.0,25.0,2.1,6,0,4,1,2026-07-24T01:44:49.529975+05:30
Patna,Bihar,25.5941,85.1376,25.8,96,0.3,995.2,5.7,24.5,71,28.5,28.5,16.9,304.0,61.0,15.6,10,5,3,1,2026-07-24T01:44:49.529983+05:30
Gaya,Bihar,24.7914,85.0002,26.2,95,0.0,988.4,6.45,25.2,62,21.9,21.9,20.3,222.0,35.0,9.9,7,5,7,1,2026-07-24T01:44:49.529991+05:30
Muzaffarpur,Bihar,26.1209,85.3647,25.9,97,0.2,995.3,6.95,27.7,71,27.2,27.1,15.8,348.0,65.0,15.0,10,5,7,1,2026-07-24T01:44:49.529999+05:30
Bhagalpur,Bihar,25.2425,87.0117,26.8,95,0.0,995.8,7.85,26.3,65,29.6,29.4,22.4,335.0,33.0,19.1,7,5,7,1,2026-07-24T01:44:49.530005+05:30
Ranchi,Jharkhand,23.3441,85.3096,22.5,93,0.0,932.5,6.6,28.8,34,15.3,13.9,10.2,186.0,50.0,18.1,3,5,7,1,2026-07-24T01:44:49.530013+05:30
Jamshedpur,Jharkhand,22.8046,86.2029,25.9,86,0.0,985.7,7.1,38.9,57,18.2,15.8,19.6,363.0,34.0,22.6,7,5,7,1,2026-07-24T01:44:49.530020+05:30
Dhanbad,Jharkhand,23.7957,86.4304,25.3,90,0.0,974.3,6.7,27.4,78,27.5,26.4,36.7,370.0,26.0,79.4,7,5,7,1,2026-07-24T01:44:49.530028+05:30
Bokaro,Jharkhand,23.6693,86.1511,25.2,90,0.1,978.3,4.65,29.5,64,21.2,20.2,23.0,123.0,40.0,51.0,10,5,3,1,2026-07-24T01:44:49.530036+05:30
Bhubaneswar,Odisha,20.2961,85.8245,26.3,96,0.0,998.1,8.7,37.1,68,19.0,15.1,7.6,183.0,69.0,8.8,7,5,7,1,2026-07-24T01:44:49.530043+05:30
Cuttack,Odisha,20.4625,85.8828,26.4,97,0.0,999.8,8.65,38.9,68,19.0,15.1,7.6,204.0,69.0,8.8,7,5,7,1,2026-07-24T01:44:49.530050+05:30
Rourkela,Odisha,22.2604,84.8536,25.6,84,0.0,980.4,8.4,36.0,48,18.7,15.0,10.5,227.0,45.0,5.6,7,5,7,1,2026-07-24T01:44:49.530057+05:30
Raipur,Chhattisgarh,21.2514,81.6296,24.6,87,0.0,970.1,7.1,47.2,62,38.0,26.3,17.1,185.0,48.0,27.3,3,5,7,1,2026-07-24T01:44:49.530064+05:30
Bhilai,Chhattisgarh,21.1938,81.3509,24.4,87,0.0,970.4,6.1,52.2,61,32.8,23.8,15.8,296.0,48.0,26.3,3,5,7,1,2026-07-24T01:44:49.530071+05:30
Guwahati,Assam,26.1158,91.7086,25.8,99,0.0,997.3,8.4,19.4,44,11.4,11.0,13.9,225.0,29.0,3.2,7,5,7,1,2026-07-24T01:44:49.530078+05:30
Agartala,Tripura,23.8315,91.2868,24.5,98,0.0,1002.3,7.05,35.3,43,11.4,10.0,9.8,182.0,42.0,2.2,3,5,4,1,2026-07-24T01:44:49.530085+05:30
Shillong,Meghalaya,25.5788,91.8933,19.9,95,0.0,854.5,7.85,25.6,26,1.4,1.4,4.8,183.0,50.0,1.8,3,10,7,1,2026-07-24T01:44:49.530092+05:30
Imphal,Manipur,24.817,93.9368,22.3,95,0.0,920.1,6.65,17.3,36,9.4,8.9,8.2,338.0,29.0,1.6,3,5,7,1,2026-07-24T01:44:49.530100+05:30
Aizawl,Mizoram,23.7271,92.7176,19.5,93,0.0,889.2,8.8,27.7,24,1.0,0.9,2.7,130.0,44.0,0.9,3,10,7,1,2026-07-24T01:44:49.530108+05:30
Kohima,Nagaland,25.6701,94.1077,19.6,97,0.1,852.9,5.9,22.0,21,7.3,7.0,10.3,235.0,20.0,0.9,6,10,3,1,2026-07-24T01:44:49.530115+05:30
Gangtok,Sikkim,27.3314,88.6138,17.6,96,0.0,834.8,6.7,32.4,39,4.4,4.3,5.4,324.0,78.0,1.7,3,10,7,1,2026-07-24T01:44:49.530122+05:30
Siliguri,West Bengal,26.7271,88.3953,24.3,98,0.3,988.7,7.75,27.7,54,15.2,15.1,11.2,219.0,72.0,4.1,6,5,7,1,2026-07-24T01:44:52.932165+05:30
Durgapur,West Bengal,23.5204,87.3119,25.9,97,0.0,989.4,6.7,30.6,74,24.1,22.7,32.1,630.0,25.0,44.9,7,5,7,1,2026-07-24T01:44:52.932198+05:30
Asansol,West Bengal,23.6739,86.9524,25.8,91,0.0,987.9,6.75,26.3,67,21.7,20.5,32.8,363.0,26.0,52.7,7,5,7,1,2026-07-24T01:44:52.932209+05:30
Pondicherry,Puducherry,11.9139,79.8145,28.4,77,0.0,1007.1,7.9,50.4,68,16.1,11.2,10.0,177.0,62.0,8.9,7,5,4,1,2026-07-24T01:44:52.932218+05:30
Port Blair,Andaman and Nicobar Islands,11.6234,92.7265,26.8,82,0.0,1006.1,7.1,45.7,35,11.3,6.4,0.1,89.0,45.0,0.4,7,5,4,1,2026-07-24T01:44:52.932227+05:30
Haridwar,Uttarakhand,29.9457,78.1642,26.2,96,0.0,968.2,6.7,38.2,66,31.4,31.2,28.7,226.0,20.0,5.1,7,5,7,1,2026-07-24T01:44:52.932235+05:30
Rishikesh,Uttarakhand,30.0869,78.2676,25.6,92,0.0,960.9,6.7,24.8,51,15.3,15.1,12.5,427.0,59.0,3.1,7,5,7,1,2026-07-24T01:44:52.932242+05:30
Nainital,Uttarakhand,29.3919,79.4542,15.3,100,0.0,801.8,7.85,44.3,49,9.9,9.9,8.3,190.0,64.0,1.9,3,10,7,0,2026-07-24T01:44:52.932251+05:30
Mussoorie,Uttarakhand,30.4599,78.0664,16.1,100,0.0,799.0,6.4,33.5,55,13.9,13.9,34.8,262.0,20.0,4.4,3,10,7,1,2026-07-24T01:44:52.932259+05:30
Dharamshala,Himachal Pradesh,32.219,76.3234,21.5,85,0.0,864.9,7.05,31.3,44,13.2,13.1,18.5,399.0,24.0,0.5,3,5,7,1,2026-07-24T01:44:52.932267+05:30
Dalhousie,Himachal Pradesh,32.5387,75.971,16.1,98,0.2,800.6,8.4,30.2,62,23.4,22.9,22.9,423.0,68.0,3.6,6,10,7,0,2026-07-24T01:44:52.932276+05:30
Patiala,Punjab,30.3398,76.3869,28.1,81,0.0,971.6,7.5,46.1,79,25.7,25.6,21.3,356.0,58.0,8.9,7,5,7,1,2026-07-24T01:44:52.932285+05:30
Bhatinda,Punjab,30.211,74.9455,28.8,81,0.0,976.3,7.35,33.8,84,42.1,41.3,27.2,461.0,46.0,7.3,7,5,7,1,2026-07-24T01:44:52.932292+05:30
Rohtak,Haryana,28.8955,76.6066,26.5,91,0.0,974.5,6.15,40.0,86,21.4,21.3,20.3,449.0,74.0,20.0,7,5,7,1,2026-07-24T01:44:52.932300+05:30
Panipat,Haryana,29.3909,76.9635,27.4,85,0.0,973.8,6.45,43.9,77,20.7,20.6,16.7,302.0,74.0,14.3,7,5,7,1,2026-07-24T01:44:52.932307+05:30
Mathura,Uttar Pradesh,27.4924,77.6737,26.6,95,0.1,978.8,5.95,34.2,78,17.3,17.3,10.9,259.0,88.0,5.2,10,5,3,1,2026-07-24T01:44:52.932315+05:30
Vrindavan,Uttar Pradesh,27.5823,77.7027,26.6,95,0.0,979.2,5.75,33.8,78,17.3,17.3,10.9,258.0,88.0,5.2,7,5,3,1,2026-07-24T01:44:52.932322+05:30
Ayodhya,Uttar Pradesh,26.7922,82.1998,26.6,93,0.0,989.8,5.8,26.6,70,21.3,21.2,9.2,363.0,86.0,5.9,7,5,3,1,2026-07-24T01:44:52.932329+05:30
Ratlam,Madhya Pradesh,23.3315,75.0367,23.4,99,0.6,945.3,6.45,54.7,39,8.3,8.1,11.7,155.0,33.0,6.0,6,5,7,1,2026-07-24T01:44:52.932335+05:30
Sagar,Madhya Pradesh,23.8388,78.7378,24.5,83,0.0,943.1,8.2,41.0,30,9.2,8.1,8.1,138.0,40.0,6.3,3,5,7,1,2026-07-24T01:44:52.932342+05:30
Satna,Madhya Pradesh,24.6005,80.8322,25.3,86,0.0,965.1,6.8,32.0,49,7.3,6.7,8.6,168.0,43.0,5.9,7,5,7,1,2026-07-24T01:44:52.932371+05:30
Akola,Maharashtra,20.7002,77.0082,24.4,94,0.1,969.1,6.9,51.5,34,6.9,4.2,7.0,132.0,33.0,5.2,6,5,7,1,2026-07-24T01:44:52.932381+05:30
Amravati,Maharashtra,20.9374,77.7796,24.8,85,0.0,961.7,6.25,50.8,43,6.4,3.9,6.9,127.0,32.0,4.6,3,5,7,1,2026-07-24T01:44:52.932390+05:30
Latur,Maharashtra,18.4088,76.5604,22.7,89,0.0,935.5,6.7,59.8,58,4.7,3.3,3.8,114.0,36.0,1.6,3,5,7,1,2026-07-24T01:44:52.932397+05:30
Nanded,Maharashtra,19.1383,77.3091,25.7,77,0.0,964.0,7.35,54.0,58,7.9,4.3,5.0,125.0,34.0,3.3,7,5,7,1,2026-07-24T01:44:52.932404+05:30
Gulbarga,Karnataka,17.3297,76.8343,24.7,77,0.0,956.0,6.4,61.6,64,43.8,23.4,5.2,116.0,47.0,2.3,3,5,7,1,2026-07-24T01:44:52.932411+05:30
Bidar,Karnataka,17.9104,77.5199,22.4,92,0.2,931.3,7.4,61.2,62,30.3,16.6,5.1,120.0,43.0,2.2,6,5,7,1,2026-07-24T01:44:52.932418+05:30
Hospet,Karnataka,15.2689,76.3909,23.5,85,0.0,954.5,8.9,65.9,54,24.2,11.4,4.4,121.0,35.0,1.6,3,5,7,1,2026-07-24T01:44:52.932424+05:30
Tirupur,Tamil Nadu,11.1085,77.3411,24.1,87,0.0,974.9,8.9,52.6,56,15.3,12.6,18.5,154.0,23.0,5.0,3,5,7,1,2026-07-24T01:44:52.932431+05:30
Alappuzha,Kerala,9.4981,76.3388,25.6,98,0.1,1009.9,8.55,33.5,56,14.7,10.2,12.4,143.0,30.0,4.6,10,0,4,1,2026-07-24T01:44:52.932438+05:30
Munnar,Kerala,10.0889,77.0595,16.2,97,0.1,856.7,8.45,39.6,33,7.9,6.3,8.3,96.0,27.0,2.2,6,10,7,0,2026-07-24T01:44:52.932445+05:30
Silchar,Assam,24.8333,92.7789,25.2,98,0.0,1001.9,8.5,23.4,51,7.1,6.6,6.9,252.0,54.0,3.3,7,5,4,1,2026-07-24T01:44:52.932452+05:30
Dibrugarh,Assam,27.4728,94.912,25.2,96,0.2,991.2,7.15,22.0,47,7.0,6.8,6.3,199.0,59.0,0.7,10,5,7,1,2026-07-24T01:44:52.932459+05:30
