city,state,latitude,longitude,temp,humidity,rain,pressure,uv_index,wind_gusts,aqi,pm10,pm2_5,no2,co,o3,so2,mosquito_risk,arthritis_risk,migraine_risk,frizz_risk,updated_at
Delhi,Delhi,28.6139,77.209,34.4,31,0.0,983.0,7.55,36.7,380,521.5,74.0,5.0,346.0,210.0,18.7,0,5,7,0,2026-05-08T14:55:46.775379+05:30
Mumbai,Maharashtra,19.076,72.8777,34.0,54,0.0,1005.6,7.85,47.2,96,73.3,37.4,7.4,255.0,185.0,21.4,0,5,4,1,2026-05-08T14:55:46.775438+05:30
Bangalore,Karnataka,12.9716,77.5946,33.0,33,0.0,910.0,9.45,45.0,53,8.2,7.5,3.3,253.0,92.0,3.4,0,5,7,0,2026-05-08T14:55:46.775455+05:30
Hyderabad,Telangana,17.385,78.4867,35.0,34,0.0,952.5,9.25,31.3,52,16.9,12.0,1.8,237.0,141.0,3.6,0,5,7,1,2026-05-08T14:55:46.775466+05:30
Chennai,Tamil Nadu,13.0827,80.2707,31.2,66,0.0,1004.4,7.6,36.7,24,3.9,2.8,2.3,141.0,50.0,4.9,3,5,4,1,2026-05-08T14:55:46.775477+05:30
Kolkata,West Bengal,22.5726,88.3639,31.7,70,0.0,1005.4,8.9,41.4,150,47.8,41.4,3.5,377.0,226.0,18.6,3,5,4,1,2026-05-08T14:55:46.775486+05:30
Pune,Maharashtra,18.5204,73.8567,36.8,19,0.0,946.6,8.45,34.6,118,61.9,31.0,1.7,213.0,170.0,8.7,0,5,10,0,2026-05-08T14:55:46.775501+05:30
Ahmedabad,Gujarat,23.0225,72.5714,42.2,11,0.0,999.1,8.1,29.2,85,52.4,15.8,1.6,188.0,141.0,4.2,0,5,10,0,2026-05-08T14:55:46.775514+05:30
Jaipur,Rajasthan,26.9124,75.7873,36.5,21,0.0,959.2,8.1,40.3,152,255.2,42.5,1.3,193.0,159.0,4.7,0,5,10,0,2026-05-08T14:55:46.775523+05:30
Lucknow,Uttar Pradesh,26.8467,80.9462,33.1,38,0.0,993.9,8.05,28.4,118,61.5,23.7,1.5,287.0,177.0,7.0,0,5,7,1,2026-05-08T14:55:46.775532+05:30
Kanpur,Uttar Pradesh,26.4499,80.3319,34.6,33,0.0,991.5,8.05,27.4,146,224.9,37.6,1.5,254.0,187.0,8.4,0,5,7,0,2026-05-08T14:55:46.775540+05:30
Chandigarh,Chandigarh,30.7333,76.7794,31.5,33,0.0,970.6,7.6,38.2,154,201.2,40.9,1.9,253.0,196.0,7.4,0,5,7,0,2026-05-08T14:55:46.775548+05:30
Srinagar,Jammu and Kashmir,34.0837,74.7973,25.5,37,0.0,842.9,8.8,22.0,81,51.9,10.6,1.1,276.0,141.0,1.2,4,5,7,0,2026-05-08T14:55:46.775558+05:30
Jammu,Jammu and Kashmir,32.7266,74.857,32.4,33,0.0,974.3,8.35,34.9,130,206.8,44.6,1.6,283.0,183.0,8.5,0,5,7,0,2026-05-08T14:55:46.775566+05:30
Amritsar,Punjab,31.634,74.8723,34.1,30,0.0,981.7,8.25,31.3,149,395.8,68.2,1.2,276.0,184.0,9.8,0,5,7,0,2026-05-08T14:55:46.775574+05:30
Ludhiana,Punjab,30.901,75.8573,33.3,33,0.0,979.8,7.8,30.2,222,549.5,75.4,1.4,275.0,184.0,6.9,0,5,7,0,2026-05-08T14:55:46.775581+05:30
Jalandhar,Punjab,31.326,75.5762,32.3,35,0.0,981.2,8.0,31.3,147,335.3,57.9,1.2,279.0,183.0,8.4,0,5,7,0,2026-05-08T14:55:46.775589+05:30
Dehradun,Uttarakhand,30.6284,78.0322,18.6,61,0.0,832.9,5.7,22.7,113,38.6,18.6,2.0,195.0,153.0,1.1,3,5,3,0,2026-05-08T14:55:46.775601+05:30
Shimla,Himachal Pradesh,31.1048,77.1734,16.5,57,0.0,787.0,7.45,25.9,140,78.2,28.3,1.4,214.0,174.0,5.0,0,5,7,0,2026-05-08T14:55:46.775610+05:30
Manali,Himachal Pradesh,32.2396,77.1887,16.8,68,0.0,819.5,9.9,34.6,86,31.8,6.3,0.8,178.0,165.0,0.4,3,5,7,0,2026-05-08T14:55:46.775618+05:30
Gurgaon,Haryana,28.4595,77.0266,34.5,30,0.0,981.1,7.65,40.3,1785,1564.6,159.7,3.7,299.0,197.0,15.2,0,5,7,0,2026-05-08T14:55:46.775625+05:30
Noida,Uttar Pradesh,28.5355,77.391,33.7,35,0.0,984.5,7.6,34.9,1785,1564.6,159.7,3.7,300.0,197.0,15.2,0,5,7,0,2026-05-08T14:55:46.775633+05:30
Ghaziabad,Uttar Pradesh,28.6692,77.4538,33.5,35,0.0,983.0,7.55,37.4,163,323.2,48.1,2.1,249.0,183.0,7.1,0,5,7,0,2026-05-08T14:55:46.775640+05:30
Faridabad,Haryana,28.4089,77.3178,33.7,34,0.0,983.6,7.6,37.4,1785,1564.6,159.7,3.7,283.0,197.0,15.2,0,5,7,0,2026-05-08T14:55:46.775648+05:30
Meerut,Uttar Pradesh,28.9845,77.7064,31.7,42,0.0,982.4,7.5,38.2,163,323.2,48.1,2.1,260.0,183.0,7.1,0,5,7,1,2026-05-08T14:55:46.775655+05:30
Agra,Uttar Pradesh,27.1767,78.0081,34.8,32,0.0,986.5,7.9,32.4,1141,754.4,81.3,1.5,270.0,181.0,9.9,0,5,7,0,2026-05-08T14:55:46.775663+05:30
Varanasi,Uttar Pradesh,25.3176,82.9739,35.5,29,0.0,997.2,8.55,28.1,147,54.0,27.6,1.9,334.0,200.0,10.4,0,5,10,0,2026-05-08T14:55:46.775671+05:30
Prayagraj,Uttar Pradesh,25.4358,81.8463,34.8,31,0.0,995.9,8.45,32.0,136,51.8,26.5,2.2,266.0,195.0,8.6,0,5,7,0,2026-05-08T14:55:46.775681+05:30
Gorakhpur,Uttar Pradesh,26.7606,83.3732,32.2,40,0.0,998.3,8.4,28.1,125,62.4,25.0,1.5,337.0,182.0,4.9,0,5,7,1,2026-05-08T14:55:46.775688+05:30
Bareilly,Uttar Pradesh,28.367,79.4304,32.5,39,0.0,987.3,7.85,34.9,127,159.7,35.5,1.8,259.0,188.0,9.1,0,5,7,1,2026-05-08T14:55:46.775696+05:30
Aligarh,Uttar Pradesh,27.8974,78.088,34.0,32,0.0,985.2,7.75,36.4,700,814.0,85.7,1.5,240.0,179.0,10.1,0,5,7,0,2026-05-08T14:55:46.775703+05:30
Moradabad,Uttar Pradesh,28.8386,78.7733,31.8,41,0.0,984.7,7.65,37.1,127,87.5,26.3,2.2,262.0,192.0,10.9,0,5,7,1,2026-05-08T14:55:46.775710+05:30
Saharanpur,Uttar Pradesh,29.9637,77.546,30.6,40,0.0,977.5,7.25,36.0,129,170.9,37.5,1.7,266.0,185.0,6.7,0,5,7,0,2026-05-08T14:55:46.775736+05:30
Jhansi,Uttar Pradesh,25.4484,78.5685,38.2,20,0.0,976.8,8.35,24.1,122,54.1,21.4,1.4,193.0,178.0,15.9,0,5,10,0,2026-05-08T14:55:50.002461+05:30
Surat,Gujarat,21.1702,72.8311,38.0,33,0.0,1004.3,7.7,33.5,124,82.2,43.3,43.5,876.0,95.0,88.2,0,5,7,1,2026-05-08T14:55:50.002493+05:30
Vadodara,Gujarat,22.3072,73.1812,41.8,14,0.0,1001.4,8.05,28.8,91,56.3,20.3,2.3,229.0,173.0,12.3,0,5,7,0,2026-05-08T14:55:50.002503+05:30
Rajkot,Gujarat,22.3039,70.8022,41.8,12,0.0,991.8,7.7,47.5,55,49.9,16.5,0.9,155.0,142.0,4.5,0,5,10,0,2026-05-08T14:55:50.002512+05:30
Thane,Maharashtra,19.2183,72.9781,38.3,34,0.0,1004.2,7.85,43.2,96,73.3,37.4,7.4,204.0,185.0,21.4,0,5,7,1,2026-05-08T14:55:50.002521+05:30
Nagpur,Maharashtra,21.1458,79.0882,39.2,18,0.0,972.1,8.9,32.0,167,37.6,26.0,5.0,218.0,232.0,20.5,0,5,10,0,2026-05-08T14:55:50.002528+05:30
Nashik,Maharashtra,19.9975,73.7898,37.4,17,0.0,944.7,8.15,42.8,97,66.1,22.5,1.3,186.0,149.0,4.1,0,5,10,0,2026-05-08T14:55:50.002536+05:30
Aurangabad,Maharashtra,19.8762,75.3433,37.9,19,0.0,943.2,9.05,31.7,108,55.1,26.9,1.3,209.0,169.0,9.0,0,5,10,0,2026-05-08T14:55:50.002543+05:30
Solapur,Maharashtra,17.6599,75.9064,38.7,23,0.0,955.4,9.05,37.4,88,32.2,19.7,1.2,199.0,155.0,3.5,0,5,10,0,2026-05-08T14:55:50.002551+05:30
Kolhapur,Maharashtra,16.705,74.2433,37.6,24,0.0,946.0,8.95,51.8,136,45.1,28.5,1.8,225.0,164.0,4.4,0,5,10,0,2026-05-08T14:55:50.002558+05:30
Goa,Goa,15.2993,74.124,33.8,62,0.1,994.0,8.85,42.8,111,47.1,24.3,1.3,216.0,139.0,3.2,6,5,7,1,2026-05-08T14:55:50.002566+05:30
Jodhpur,Rajasthan,26.2389,73.0243,41.5,11,0.0,980.7,8.3,38.9,129,170.9,26.8,0.7,152.0,135.0,2.5,0,5,10,0,2026-05-08T14:55:50.002574+05:30
Udaipur,Rajasthan,24.5854,73.7125,38.6,11,0.0,945.6,8.75,32.4,69,83.6,16.8,0.5,159.0,135.0,2.7,0,5,10,0,2026-05-08T14:55:50.002581+05:30
Kota,Rajasthan,25.2138,75.8648,41.2,12,0.0,976.3,8.35,38.9,74,99.0,20.7,1.0,176.0,144.0,3.5,0,5,10,0,2026-05-08T14:55:50.002589+05:30
Bikaner,Rajasthan,28.0229,73.3119,40.2,14,0.0,979.8,8.25,32.4,90,109.4,28.9,0.5,236.0,163.0,7.7,0,5,10,0,2026-05-08T14:55:50.002596+05:30
Ajmer,Rajasthan,26.4499,74.6399,38.9,14,0.0,953.2,8.25,55.8,63,65.7,18.3,0.6,154.0,133.0,2.9,0,5,10,0,2026-05-08T14:55:50.002604+05:30
Gwalior,Madhya Pradesh,26.2183,78.1828,35.6,30,0.0,981.6,8.15,62.3,119,39.2,20.5,1.0,209.0,172.0,9.3,0,5,10,0,2026-05-08T14:55:50.002611+05:30
Indore,Madhya Pradesh,22.7196,75.8577,39.2,12,0.0,947.4,8.65,31.0,96,46.6,15.8,1.0,208.0,158.0,3.7,0,5,10,0,2026-05-08T14:55:50.002619+05:30
Bhopal,Madhya Pradesh,23.2599,77.4126,39.8,14,0.0,952.6,8.65,38.9,115,36.1,18.6,0.7,199.0,159.0,4.9,0,5,10,0,2026-05-08T14:55:50.002626+05:30
Jabalpur,Madhya Pradesh,23.1815,79.9864,38.0,17,0.0,961.0,8.8,35.3,139,32.0,16.7,1.0,193.0,168.0,5.1,0,5,10,0,2026-05-08T14:55:50.002633+05:30
Ujjain,Madhya Pradesh,23.1765,75.7885,40.2,11,0.0,952.7,8.55,26.6,87,55.5,19.2,0.9,201.0,154.0,4.3,0,5,10,0,2026-05-08T14:55:50.002640+05:30
Visakhapatnam,Andhra Pradesh,17.6868,83.2185,32.2,61,0.0,1002.4,9.15,35.6,63,17.9,13.6,12.8,564.0,53.0,16.3,3,5,4,1,2026-05-08T14:55:50.002647+05:30
Vijayawada,Andhra Pradesh,16.5062,80.648,35.8,43,0.1,1000.3,9.2,39.6,50,12.2,8.0,1.3,175.0,85.0,3.6,3,5,7,1,2026-05-08T14:55:50.002654+05:30
Guntur,Andhra Pradesh,16.3067,80.4365,36.8,37,0.1,1001.3,9.2,41.4,50,13.5,9.2,1.2,239.0,97.0,3.5,3,5,7,1,2026-05-08T14:55:50.002662+05:30
Nellore,Andhra Pradesh,14.4426,79.9865,33.2,57,0.0,1003.7,9.1,42.5,25,5.7,4.0,0.9,127.0,62.0,1.6,0,5,4,1,2026-05-08T14:55:50.002669+05:30
Kurnool,Andhra Pradesh,15.8281,78.0373,39.0,25,0.0,974.2,9.15,52.6,35,13.3,8.6,0.8,172.0,108.0,0.8,0,5,10,0,2026-05-08T14:55:50.002677+05:30
Kakinada,Andhra Pradesh,16.9891,82.2475,31.2,68,0.0,1006.0,9.15,40.7,27,9.6,6.5,0.6,133.0,54.0,0.5,3,5,4,1,2026-05-08T14:55:50.002684+05:30
Tirupati,Andhra Pradesh,13.6288,79.4192,34.5,44,0.1,988.2,8.4,49.0,31,3.0,2.3,0.8,132.0,58.0,0.5,3,5,7,1,2026-05-08T14:55:50.002691+05:30
Warangal,Telangana,17.9689,79.5941,36.6,35,0.0,977.6,9.15,27.7,63,19.4,14.6,1.6,211.0,147.0,5.5,0,5,10,1,2026-05-08T14:55:50.002698+05:30
Nizamabad,Telangana,18.6725,78.0941,37.0,28,0.0,963.7,9.1,26.3,84,28.2,18.0,1.2,213.0,159.0,3.7,0,5,10,0,2026-05-08T14:55:50.002705+05:30
Mysore,Karnataka,12.2958,76.6396,32.7,42,0.0,926.2,8.9,32.4,76,12.3,10.2,1.8,204.0,119.0,3.5,0,5,7,1,2026-05-08T14:55:50.002712+05:30
Mangalore,Karnataka,12.9141,74.856,32.5,67,0.0,1002.5,9.0,37.8,80,46.3,28.6,1.3,195.0,149.0,3.0,3,5,4,1,2026-05-08T14:55:50.002740+05:30
Hubli-Dharwad,Karnataka,15.3647,75.124,36.7,25,0.0,938.8,9.1,39.6,83,17.9,12.5,1.5,186.0,146.0,3.2,0,5,10,0,2026-05-08T14:55:50.002749+05:30
Belgaum,Karnataka,15.8497,74.4977,34.5,27,0.0,924.6,9.15,39.6,96,29.2,19.3,1.8,204.0,155.0,3.8,0,5,7,0,2026-05-08T14:55:53.233397+05:30
Coimbatore,Tamil Nadu,11.0168,76.9558,32.3,51,0.0,958.4,9.15,31.0,66,15.4,13.8,1.6,213.0,120.0,4.9,0,5,7,1,2026-05-08T14:55:53.233433+05:30
Madurai,Tamil Nadu,9.9252,78.1198,31.8,59,0.0,989.3,8.5,36.0,51,9.8,9.6,3.0,193.0,86.0,4.0,0,5,7,1,2026-05-08T14:55:53.233446+05:30
Trichy,Tamil Nadu,10.7905,78.7047,31.7,60,0.0,995.9,8.55,43.2,47,10.6,10.4,6.1,159.0,78.0,14.6,0,5,7,1,2026-05-08T14:55:53.233456+05:30
Salem,Tamil Nadu,11.6643,78.146,34.3,45,0.0,973.5,7.6,35.3,64,8.5,8.1,2.8,185.0,86.0,6.4,0,5,7,1,2026-05-08T14:55:53.233466+05:30
Tirunelveli,Tamil Nadu,8.7139,77.7567,37.2,38,0.0,998.4,8.55,37.4,53,4.9,4.6,1.4,182.0,86.0,1.5,0,5,10,1,2026-05-08T14:55:53.233475+05:30
Vellore,Tamil Nadu,12.9165,79.1325,36.0,41,0.0,981.0,7.05,47.2,41,7.0,6.7,1.8,144.0,89.0,4.2,0,5,10,1,2026-05-08T14:55:53.233483+05:30
Erode,Tamil Nadu,11.341,77.7172,34.5,49,0.0,984.9,9.0,33.8,56,19.4,18.9,2.7,198.0,105.0,5.6,0,5,7,1,2026-05-08T14:55:53.233490+05:30
Kochi,Kerala,9.9312,76.2673,30.5,75,0.0,1004.6,7.4,26.6,66,18.1,16.9,4.5,318.0,166.0,4.4,3,5,4,1,2026-05-08T14:55:53.233497+05:30
Thiruvananthapuram,Kerala,8.5241,76.9366,27.4,89,0.1,1004.3,8.3,21.6,68,15.9,13.2,1.7,249.0,155.0,3.1,10,5,4,1,2026-05-08T14:55:53.233504+05:30
Kozhikode,Kerala,11.2588,75.7804,30.1,78,0.0,1003.8,9.0,31.0,97,34.5,22.9,0.8,268.0,143.0,2.6,3,5,4,1,2026-05-08T14:55:53.233511+05:30
Thrissur,Kerala,10.5276,76.2144,31.4,71,0.0,1002.5,9.0,27.4,67,17.1,16.5,2.3,302.0,122.0,4.8,3,5,4,1,2026-05-08T14:55:53.233519+05:30
Kannur,Kerala,11.8745,75.3704,32.3,64,0.1,1003.4,8.95,40.0,78,42.1,26.1,1.4,211.0,137.0,1.8,6,5,4,1,2026-05-08T14:55:53.233526+05:30
Patna,Bihar,25.5941,85.1376,31.5,48,0.0,1001.1,8.45,25.6,154,67.5,31.3,2.1,343.0,199.0,8.8,0,5,4,1,2026-05-08T14:55:53.233533+05:30
Gaya,Bihar,24.7914,85.0002,32.5,41,0.0,994.0,8.75,31.7,167,62.9,34.8,1.7,358.0,202.0,11.2,0,5,7,1,2026-05-08T14:55:53.233540+05:30
Muzaffarpur,Bihar,26.1209,85.3647,29.5,55,0.0,1002.0,8.45,26.3,152,66.8,36.2,2.5,364.0,209.0,12.0,4,5,4,1,2026-05-08T14:55:53.233546+05:30
Bhagalpur,Bihar,25.2425,87.0117,32.8,41,0.0,1001.4,8.6,25.6,166,64.0,49.9,4.5,318.0,220.0,9.7,0,5,4,1,2026-05-08T14:55:53.233553+05:30
Ranchi,Jharkhand,23.3441,85.3096,28.5,46,0.0,938.4,9.2,40.7,131,51.1,30.7,2.0,210.0,187.0,12.8,4,5,7,0,2026-05-08T14:55:53.233560+05:30
Jamshedpur,Jharkhand,22.8046,86.2029,31.5,47,0.0,991.1,9.0,47.5,127,57.4,34.1,2.6,318.0,199.0,17.9,0,5,7,1,2026-05-08T14:55:53.233566+05:30
Dhanbad,Jharkhand,23.7957,86.4304,27.0,67,0.0,981.2,8.95,28.1,168,79.9,56.3,12.7,969.0,199.0,39.9,7,5,7,1,2026-05-08T14:55:53.233573+05:30
Bokaro,Jharkhand,23.6693,86.1511,29.2,50,0.1,984.8,8.95,36.4,162,74.5,46.2,10.1,333.0,176.0,30.2,7,5,7,1,2026-05-08T14:55:53.233580+05:30
Bhubaneswar,Odisha,20.2961,85.8245,35.0,46,0.0,1001.2,9.1,36.0,47,19.1,13.3,1.7,183.0,110.0,4.9,0,5,4,1,2026-05-08T14:55:53.233587+05:30
Cuttack,Odisha,20.4625,85.8828,35.8,41,0.0,1002.8,9.15,33.1,47,19.1,13.3,1.7,193.0,110.0,4.9,0,5,7,1,2026-05-08T14:55:53.233593+05:30
Rourkela,Odisha,22.2604,84.8536,30.6,54,0.0,985.2,8.9,38.5,155,43.1,28.5,1.9,213.0,203.0,25.0,0,5,7,1,2026-05-08T14:55:53.233600+05:30
Raipur,Chhattisgarh,21.2514,81.6296,38.5,18,0.0,973.6,8.95,26.6,151,31.3,21.5,5.7,258.0,233.0,6.1,0,5,10,0,2026-05-08T14:55:53.233606+05:30
Bhilai,Chhattisgarh,21.1938,81.3509,38.7,17,0.0,973.8,8.95,28.1,116,31.2,21.0,7.2,513.0,220.0,4.8,0,5,10,0,2026-05-08T14:55:53.233612+05:30
Guwahati,Assam,26.1158,91.7086,30.7,51,0.0,1001.3,8.65,23.8,109,39.7,28.2,1.2,317.0,155.0,2.3,0,5,4,1,2026-05-08T14:55:53.233619+05:30
Agartala,Tripura,23.8315,91.2868,31.6,55,0.0,1005.6,8.85,19.8,165,43.8,32.4,4.0,295.0,216.0,3.3,0,5,4,1,2026-05-08T14:55:53.233626+05:30
Shillong,Meghalaya,25.5788,91.8933,22.8,50,0.0,858.7,7.7,20.2,107,41.2,26.1,1.3,255.0,151.0,2.0,0,5,7,0,2026-05-08T14:55:53.233632+05:30
Imphal,Manipur,24.817,93.9368,28.5,41,0.0,923.2,9.2,31.7,109,21.6,13.0,1.1,211.0,146.0,1.6,4,5,7,0,2026-05-08T14:55:53.233639+05:30
Aizawl,Mizoram,23.7271,92.7176,26.3,46,0.0,893.6,8.5,23.0,78,27.9,17.8,0.7,199.0,134.0,1.6,4,5,7,0,2026-05-08T14:55:53.233645+05:30
Kohima,Nagaland,25.6701,94.1077,21.0,76,0.1,856.6,9.15,29.5,86,27.0,18.3,0.8,243.0,139.0,1.3,6,5,7,1,2026-05-08T14:55:53.233651+05:30
Gangtok,Sikkim,27.3314,88.6138,17.3,77,0.0,839.2,8.95,35.3,81,24.6,17.2,0.8,230.0,137.0,0.8,3,5,7,0,2026-05-08T14:55:53.233658+05:30
Siliguri,West Bengal,26.7271,88.3953,28.8,51,0.0,994.4,8.6,23.8,115,37.4,26.3,1.6,371.0,153.0,2.4,4,5,7,1,2026-05-08T14:55:56.459827+05:30
Durgapur,West Bengal,23.5204,87.3119,31.5,62,0.0,994.9,8.85,31.7,164,70.1,57.9,11.2,495.0,215.0,45.2,3,5,7,1,2026-05-08T14:55:56.459859+05:30
Asansol,West Bengal,23.6739,86.9524,31.9,57,0.0,993.7,8.85,29.2,162,67.3,55.6,11.4,280.0,208.0,44.1,0,5,7,1,2026-05-08T14:55:56.459870+05:30
Pondicherry,Puducherry,11.9139,79.8145,29.7,73,0.0,1005.4,7.7,38.5,23,3.8,2.7,1.5,132.0,53.0,0.3,7,5,4,1,2026-05-08T14:55:56.459879+05:30
Port Blair,Andaman and Nicobar Islands,11.6234,92.7265,27.0,85,0.0,1004.9,9.1,38.2,34,5.9,4.5,0.5,128.0,68.0,0.2,7,5,4,1,2026-05-08T14:55:56.459887+05:30
Haridwar,Uttarakhand,29.9457,78.1642,31.2,36,0.0,975.7,7.4,29.9,130,97.1,24.8,1.3,234.0,186.0,5.2,0,5,7,0,2026-05-08T14:55:56.459896+05:30
Rishikesh,Uttarakhand,30.0869,78.2676,29.8,38,0.0,968.4,7.45,19.1,133,66.6,19.3,0.9,217.0,179.0,3.7,4,5,7,0,2026-05-08T14:55:56.459904+05:30
Nainital,Uttarakhand,29.3919,79.4542,17.9,52,0.0,808.0,8.2,30.2,108,33.3,11.6,0.8,222.0,154.0,1.3,0,5,7,0,2026-05-08T14:55:56.459912+05:30
Mussoorie,Uttarakhand,30.4599,78.0664,16.6,64,0.0,805.3,6.15,24.8,123,49.6,20.4,1.6,215.0,176.0,3.9,3,5,7,0,2026-05-08T14:55:56.459920+05:30
Dharamshala,Himachal Pradesh,32.219,76.3234,20.2,69,0.0,871.2,8.2,30.2,93,47.6,20.8,0.7,240.0,159.0,5.1,3,5,7,0,2026-05-08T14:55:56.459928+05:30
Dalhousie,Himachal Pradesh,32.5387,75.971,15.9,82,0.1,806.4,8.45,37.8,145,98.5,35.6,1.7,251.0,191.0,11.7,6,10,7,0,2026-05-08T14:55:56.459936+05:30
Patiala,Punjab,30.3398,76.3869,32.1,36,0.0,979.5,7.5,38.5,759,709.7,85.7,1.6,255.0,191.0,8.8,0,5,7,0,2026-05-08T14:55:56.459944+05:30
Bhatinda,Punjab,30.211,74.9455,36.2,25,0.0,983.6,8.1,35.3,837,564.4,89.4,2.2,268.0,204.0,17.3,0,5,10,0,2026-05-08T14:55:56.459951+05:30
Rohtak,Haryana,28.8955,76.6066,34.5,31,0.0,981.9,7.6,37.4,797,778.6,100.6,3.1,338.0,220.0,18.4,0,5,7,0,2026-05-08T14:55:56.459958+05:30
Panipat,Haryana,29.3909,76.9635,32.2,38,0.0,981.5,7.45,38.5,1380,951.8,103.1,3.3,271.0,212.0,17.7,0,5,7,0,2026-05-08T14:55:56.459965+05:30
Mathura,Uttar Pradesh,27.4924,77.6737,34.7,30,0.0,986.1,7.85,35.6,1181,998.4,103.4,1.4,268.0,179.0,9.0,0,5,7,0,2026-05-08T14:55:56.459972+05:30
Vrindavan,Uttar Pradesh,27.5823,77.7027,34.9,29,0.0,986.5,7.85,36.0,1181,998.4,103.4,1.4,254.0,179.0,9.0,0,5,7,0,2026-05-08T14:55:56.459979+05:30
Ayodhya,Uttar Pradesh,26.7922,82.1998,31.9,38,0.0,996.2,8.2,28.8,109,70.8,23.9,1.2,259.0,171.0,5.0,0,5,7,0,2026-05-08T14:55:56.459987+05:30
Ratlam,Madhya Pradesh,23.3315,75.0367,39.4,13,0.0,953.7,8.5,26.3,102,53.4,18.1,0.7,164.0,158.0,5.6,0,5,10,0,2026-05-08T14:55:56.459994+05:30
Sagar,Madhya Pradesh,23.8388,78.7378,36.9,18,0.0,950.1,8.65,36.4,118,43.8,16.6,0.6,168.0,159.0,4.8,0,5,10,0,2026-05-08T14:55:56.460001+05:30
Satna,Madhya Pradesh,24.6005,80.8322,36.5,20,0.0,971.2,8.7,42.8,124,49.7,19.7,1.2,180.0,179.0,7.2,0,5,10,0,2026-05-08T14:55:56.460008+05:30
Akola,Maharashtra,20.7002,77.0082,39.6,19,0.0,973.4,8.85,26.3,93,42.8,23.5,1.5,200.0,170.0,7.7,0,5,10,0,2026-05-08T14:55:56.460016+05:30
Amravati,Maharashtra,20.9374,77.7796,39.2,20,0.0,966.3,8.85,27.0,93,37.4,21.4,1.6,197.0,170.0,5.0,0,5,10,0,2026-05-08T14:55:56.460024+05:30
Latur,Maharashtra,18.4088,76.5604,37.1,24,0.0,939.1,9.05,27.0,89,33.3,19.7,1.1,200.0,155.0,3.6,0,5,10,0,2026-05-08T14:55:56.460031+05:30
Nanded,Maharashtra,19.1383,77.3091,38.8,25,0.0,967.3,8.95,25.9,85,33.2,19.8,1.1,213.0,160.0,4.2,0,5,10,0,2026-05-08T14:55:56.460038+05:30
Gulbarga,Karnataka,17.3297,76.8343,37.7,26,0.0,957.3,9.05,32.8,66,26.4,16.7,1.5,191.0,150.0,3.3,0,5,10,0,2026-05-08T14:55:56.460045+05:30
Bidar,Karnataka,17.9104,77.5199,35.5,30,0.0,935.3,9.1,27.4,79,26.2,16.6,1.4,209.0,154.0,3.1,0,5,10,0,2026-05-08T14:55:56.460052+05:30
Hospet,Karnataka,15.2689,76.3909,35.3,29,0.0,953.7,9.2,36.4,64,17.6,12.7,2.2,172.0,142.0,6.0,0,5,10,0,2026-05-08T14:55:56.460058+05:30
Tirupur,Tamil Nadu,11.1085,77.3411,34.0,47,0.0,971.6,9.05,40.7,66,20.8,20.1,2.3,206.0,135.0,7.8,0,5,7,1,2026-05-08T14:55:56.460066+05:30
Alappuzha,Kerala,9.4981,76.3388,31.1,71,0.0,1004.8,8.95,31.3,92,21.4,18.7,3.4,206.0,176.0,5.7,3,5,4,1,2026-05-08T14:55:56.460073+05:30
Munnar,Kerala,10.0889,77.0595,22.2,70,0.0,855.3,9.45,24.5,44,9.7,9.3,1.7,173.0,86.0,1.8,3,5,7,1,2026-05-08T14:55:56.460081+05:30
Silchar,Assam,24.8333,92.7789,32.9,44,0.0,1003.8,6.75,22.7,121,32.6,21.1,1.3,263.0,157.0,3.8,0,5,4,1,2026-05-08T14:55:56.460088+05:30
Dibrugarh,Assam,27.4728,94.912,30.6,54,0.0,995.3,8.8,50.0,82,36.0,22.9,1.3,271.0,140.0,1.3,0,5,7,1,2026-05-08T14:55:56.460095+05:30
