city,state,latitude,longitude,temp,humidity,rain,pressure,uv_index,wind_gusts,aqi,pm10,pm2_5,no2,co,o3,so2,mosquito_risk,arthritis_risk,migraine_risk,frizz_risk,updated_at
Delhi,Delhi,28.6139,77.209,30.2,72,0.0,976.9,7.05,38.2,295,190.0,83.8,45.3,771.0,37.0,21.5,3,5,7,1,2026-07-14T23:35:41.360212+05:30
Mumbai,Maharashtra,19.076,72.8777,27.0,84,0.1,1008.1,6.55,41.0,72,33.5,15.5,6.7,224.0,44.0,5.3,10,0,4,1,2026-07-14T23:35:41.360259+05:30
Bangalore,Karnataka,12.9716,77.5946,23.5,69,0.0,912.2,8.55,40.3,59,21.9,17.1,22.4,389.0,48.0,6.6,3,5,7,1,2026-07-14T23:35:41.360274+05:30
Hyderabad,Telangana,17.385,78.4867,28.2,62,0.0,951.6,8.05,47.5,63,30.0,23.1,18.2,536.0,46.0,6.8,7,5,7,1,2026-07-14T23:35:41.360285+05:30
Chennai,Tamil Nadu,13.0827,80.2707,30.8,70,0.0,1004.8,8.25,37.1,93,34.7,23.7,10.8,256.0,101.0,6.4,3,5,4,1,2026-07-14T23:35:41.360294+05:30
Kolkata,West Bengal,22.5726,88.3639,27.7,93,0.0,999.9,8.7,27.4,132,96.6,95.0,54.2,1364.0,9.0,25.4,7,5,7,1,2026-07-14T23:35:41.360302+05:30
Pune,Maharashtra,18.5204,73.8567,23.5,87,0.0,947.8,8.4,47.9,57,20.5,11.5,10.5,171.0,35.0,7.6,3,5,7,1,2026-07-14T23:35:41.360309+05:30
Ahmedabad,Gujarat,23.0225,72.5714,29.2,73,0.0,999.4,6.1,43.9,64,34.9,17.5,8.7,180.0,41.0,4.6,7,5,7,1,2026-07-14T23:35:41.360316+05:30
Jaipur,Rajasthan,26.9124,75.7873,29.5,60,0.0,955.6,8.1,41.0,437,540.2,102.9,11.9,193.0,45.0,5.3,4,5,7,1,2026-07-14T23:35:41.360323+05:30
Lucknow,Uttar Pradesh,26.8467,80.9462,29.8,75,0.0,987.6,7.8,24.5,159,146.2,83.1,35.1,331.0,36.0,12.5,7,5,7,1,2026-07-14T23:35:41.360335+05:30
Kanpur,Uttar Pradesh,26.4499,80.3319,30.3,68,0.0,986.2,7.55,31.0,149,102.0,48.1,15.1,218.0,56.0,6.2,3,5,7,1,2026-07-14T23:35:41.360343+05:30
Chandigarh,Chandigarh,30.7333,76.7794,27.7,77,0.0,962.6,7.7,24.5,173,129.5,102.7,48.5,1199.0,72.0,23.4,7,5,7,1,2026-07-14T23:35:41.360350+05:30
Srinagar,Jammu and Kashmir,34.0837,74.7973,19.5,89,0.0,837.2,8.85,22.0,83,36.7,34.5,35.7,1042.0,24.0,3.4,3,10,7,1,2026-07-14T23:35:41.360358+05:30
Jammu,Jammu and Kashmir,32.7266,74.857,27.1,87,0.0,966.1,8.25,22.7,153,113.4,81.3,67.1,962.0,29.0,10.0,7,5,7,1,2026-07-14T23:35:41.360367+05:30
Amritsar,Punjab,31.634,74.8723,29.3,80,0.0,974.1,8.2,14.8,186,163.4,124.3,71.4,1239.0,20.0,12.5,7,5,7,1,2026-07-14T23:35:41.360374+05:30
Ludhiana,Punjab,30.901,75.8573,29.5,82,0.0,972.1,7.85,24.1,188,170.9,137.4,79.7,1263.0,28.0,16.7,7,5,7,1,2026-07-14T23:35:41.360380+05:30
Jalandhar,Punjab,31.326,75.5762,28.9,86,0.0,973.1,7.5,19.8,195,239.3,180.7,111.0,1629.0,1.0,16.9,7,5,7,1,2026-07-14T23:35:41.360387+05:30
Dehradun,Uttarakhand,30.6284,78.0322,18.7,99,0.0,827.6,8.1,27.0,118,75.0,40.5,38.2,314.0,52.0,3.0,3,10,7,1,2026-07-14T23:35:41.360396+05:30
Shimla,Himachal Pradesh,31.1048,77.1734,15.1,95,0.0,781.3,7.85,32.8,152,98.3,66.8,29.4,471.0,66.0,4.5,3,10,7,0,2026-07-14T23:35:41.360403+05:30
Manali,Himachal Pradesh,32.2396,77.1887,18.8,93,0.0,816.9,9.55,31.7,64,38.4,29.2,59.6,256.0,47.0,0.0,3,10,7,1,2026-07-14T23:35:41.360412+05:30
Gurgaon,Haryana,28.4595,77.0266,30.3,65,0.0,975.4,6.8,34.2,356,142.0,67.1,39.3,613.0,44.0,16.2,3,5,7,1,2026-07-14T23:35:41.360419+05:30
Noida,Uttar Pradesh,28.5355,77.391,30.4,72,0.0,978.4,7.05,30.6,356,142.0,67.1,39.3,806.0,44.0,16.2,3,5,7,1,2026-07-14T23:35:41.360426+05:30
Ghaziabad,Uttar Pradesh,28.6692,77.4538,30.4,74,0.0,976.5,7.25,30.6,205,203.5,94.3,46.4,353.0,33.0,22.6,3,5,7,1,2026-07-14T23:35:41.360432+05:30
Faridabad,Haryana,28.4089,77.3178,30.9,63,0.0,977.7,7.45,43.9,356,142.0,67.1,39.3,662.0,44.0,16.2,3,5,7,1,2026-07-14T23:35:41.360438+05:30
Meerut,Uttar Pradesh,28.9845,77.7064,30.0,78,0.0,975.4,7.55,29.9,205,203.5,94.3,46.4,806.0,33.0,22.6,7,5,7,1,2026-07-14T23:35:41.360445+05:30
Agra,Uttar Pradesh,27.1767,78.0081,30.6,66,0.0,982.1,7.95,28.4,153,147.6,51.1,13.3,202.0,58.0,5.7,3,5,7,1,2026-07-14T23:35:41.360451+05:30
Varanasi,Uttar Pradesh,25.3176,82.9739,30.3,78,0.0,992.0,6.5,22.3,154,184.4,99.0,43.6,1050.0,40.0,20.3,3,5,7,1,2026-07-14T23:35:41.360458+05:30
Prayagraj,Uttar Pradesh,25.4358,81.8463,31.0,66,0.0,990.6,7.7,29.2,152,134.1,71.7,28.1,347.0,46.0,11.7,3,5,7,1,2026-07-14T23:35:41.360465+05:30
Gorakhpur,Uttar Pradesh,26.7606,83.3732,27.2,92,0.1,991.8,7.75,32.0,156,117.1,78.2,27.9,645.0,58.0,12.6,10,5,7,1,2026-07-14T23:35:41.360473+05:30
Bareilly,Uttar Pradesh,28.367,79.4304,29.6,84,0.0,980.9,8.0,28.8,181,197.4,94.5,19.9,283.0,84.0,11.3,7,5,7,1,2026-07-14T23:35:41.360481+05:30
Aligarh,Uttar Pradesh,27.8974,78.088,30.1,70,0.0,979.6,7.8,46.1,236,150.4,71.9,24.3,322.0,52.0,8.6,3,5,7,1,2026-07-14T23:35:41.360488+05:30
Moradabad,Uttar Pradesh,28.8386,78.7733,28.9,86,0.0,977.6,7.5,30.2,193,259.8,107.1,19.5,1035.0,92.0,13.4,7,5,7,1,2026-07-14T23:35:41.360494+05:30
Saharanpur,Uttar Pradesh,29.9637,77.546,29.9,80,0.0,969.7,7.35,30.6,192,252.4,156.5,88.2,740.0,23.0,32.0,7,5,7,1,2026-07-14T23:35:41.360500+05:30
Jhansi,Uttar Pradesh,25.4484,78.5685,29.5,69,0.0,973.6,8.4,41.4,105,80.1,40.4,10.8,209.0,53.0,6.0,7,5,7,1,2026-07-14T23:35:44.726216+05:30
Surat,Gujarat,21.1702,72.8311,26.9,87,0.1,1005.5,4.3,53.6,71,23.6,15.9,20.3,313.0,27.0,32.0,10,5,0,1,2026-07-14T23:35:44.726249+05:30
Vadodara,Gujarat,22.3072,73.1812,28.6,78,0.0,1002.2,5.35,48.2,64,21.8,14.4,11.6,157.0,34.0,8.3,7,5,0,1,2026-07-14T23:35:44.726260+05:30
Rajkot,Gujarat,22.3039,70.8022,27.4,83,0.0,991.8,7.2,52.2,57,18.3,10.4,5.3,109.0,39.0,4.0,7,5,7,1,2026-07-14T23:35:44.726269+05:30
Thane,Maharashtra,19.2183,72.9781,26.0,90,0.1,1007.5,6.9,34.9,72,33.5,15.5,6.7,232.0,44.0,5.3,10,5,4,1,2026-07-14T23:35:44.726277+05:30
Nagpur,Maharashtra,21.1458,79.0882,28.0,61,0.0,970.5,8.15,47.9,76,30.6,23.1,14.5,238.0,50.0,9.8,7,5,7,1,2026-07-14T23:35:44.726286+05:30
Nashik,Maharashtra,19.9975,73.7898,23.0,92,0.0,944.6,7.2,50.8,58,16.4,8.9,9.3,140.0,35.0,6.0,3,5,7,1,2026-07-14T23:35:44.726293+05:30
Aurangabad,Maharashtra,19.8762,75.3433,24.1,81,0.0,943.1,7.7,50.4,61,22.6,14.2,8.5,164.0,55.0,10.6,3,5,7,1,2026-07-14T23:35:44.726301+05:30
Solapur,Maharashtra,17.6599,75.9064,26.6,63,0.0,956.9,8.5,38.9,59,23.7,16.2,5.9,151.0,52.0,2.7,7,5,7,1,2026-07-14T23:35:44.726309+05:30
Kolhapur,Maharashtra,16.705,74.2433,22.5,94,0.0,948.6,8.8,43.9,55,23.2,13.7,6.8,161.0,37.0,3.1,3,5,7,1,2026-07-14T23:35:44.726317+05:30
Goa,Goa,15.2993,74.124,26.0,90,0.0,999.4,7.65,31.3,71,45.2,25.9,7.2,566.0,43.0,2.3,7,5,7,1,2026-07-14T23:35:44.726325+05:30
Jodhpur,Rajasthan,26.2389,73.0243,31.1,55,0.0,978.3,8.2,47.5,195,193.7,51.7,6.5,128.0,50.0,2.3,0,5,7,1,2026-07-14T23:35:44.726333+05:30
Udaipur,Rajasthan,24.5854,73.7125,26.4,72,0.0,943.3,8.1,47.9,72,53.3,25.0,7.3,123.0,56.0,4.3,7,5,7,1,2026-07-14T23:35:44.726341+05:30
Kota,Rajasthan,25.2138,75.8648,30.0,60,0.0,974.8,8.3,38.5,88,41.3,24.3,8.2,177.0,65.0,6.5,4,5,7,1,2026-07-14T23:35:44.726349+05:30
Bikaner,Rajasthan,28.0229,73.3119,32.9,47,0.0,975.7,8.4,39.6,170,354.8,99.0,2.9,127.0,62.0,3.1,0,5,7,1,2026-07-14T23:35:44.726356+05:30
Ajmer,Rajasthan,26.4499,74.6399,28.2,61,0.0,950.6,8.25,56.2,102,66.1,29.5,7.5,186.0,51.0,4.0,7,5,7,1,2026-07-14T23:35:44.726364+05:30
Gwalior,Madhya Pradesh,26.2183,78.1828,29.5,72,0.0,978.2,8.05,42.5,110,84.1,39.0,10.5,162.0,48.0,3.2,7,5,7,1,2026-07-14T23:35:44.726371+05:30
Indore,Madhya Pradesh,22.7196,75.8577,24.9,82,0.0,945.7,8.4,52.2,67,25.3,18.6,9.4,239.0,64.0,8.5,3,5,7,1,2026-07-14T23:35:44.726378+05:30
Bhopal,Madhya Pradesh,23.2599,77.4126,26.1,68,0.0,950.7,8.55,42.1,75,30.6,22.0,10.7,260.0,52.0,4.3,7,5,7,1,2026-07-14T23:35:44.726386+05:30
Jabalpur,Madhya Pradesh,23.1815,79.9864,26.6,74,0.0,958.2,8.1,38.2,91,49.6,30.9,8.7,250.0,59.0,4.5,7,5,7,1,2026-07-14T23:35:44.726393+05:30
Ujjain,Madhya Pradesh,23.1765,75.7885,25.6,78,0.0,951.4,8.5,50.8,67,24.9,17.9,7.3,205.0,62.0,7.1,7,5,7,1,2026-07-14T23:35:44.726401+05:30
Visakhapatnam,Andhra Pradesh,17.6868,83.2185,30.7,67,0.0,998.5,8.5,26.3,137,48.5,36.1,39.8,320.0,42.0,51.7,3,5,7,1,2026-07-14T23:35:44.726409+05:30
Vijayawada,Andhra Pradesh,16.5062,80.648,30.7,55,0.0,999.4,6.65,48.6,79,37.7,30.4,17.8,217.0,43.0,9.7,0,5,7,1,2026-07-14T23:35:44.726416+05:30
Guntur,Andhra Pradesh,16.3067,80.4365,30.6,56,0.0,1000.8,6.35,49.3,71,38.0,31.3,19.9,260.0,39.0,9.6,0,5,4,1,2026-07-14T23:35:44.726423+05:30
Nellore,Andhra Pradesh,14.4426,79.9865,31.3,46,0.0,1003.1,8.25,48.2,68,32.6,24.6,9.6,336.0,90.0,4.0,0,5,4,1,2026-07-14T23:35:44.726431+05:30
Kurnool,Andhra Pradesh,15.8281,78.0373,31.6,44,0.0,975.6,7.3,43.2,60,24.2,16.8,9.3,210.0,66.0,6.1,0,5,7,1,2026-07-14T23:35:44.726439+05:30
Kakinada,Andhra Pradesh,16.9891,82.2475,30.7,68,0.0,1003.2,8.15,52.6,93,43.2,27.9,8.8,248.0,76.0,8.5,3,5,4,1,2026-07-14T23:35:44.726447+05:30
Tirupati,Andhra Pradesh,13.6288,79.4192,29.5,49,0.0,988.9,8.4,38.5,79,76.6,60.3,64.5,237.0,5.0,8.5,4,5,7,1,2026-07-14T23:35:44.726454+05:30
Warangal,Telangana,17.9689,79.5941,28.6,65,0.0,976.2,7.25,43.2,69,28.8,23.6,11.1,242.0,58.0,5.7,7,5,7,1,2026-07-14T23:35:44.726462+05:30
Nizamabad,Telangana,18.6725,78.0941,27.2,64,0.0,962.8,5.4,43.9,67,31.4,24.2,11.5,246.0,59.0,5.9,7,5,3,1,2026-07-14T23:35:44.726469+05:30
Mysore,Karnataka,12.2958,76.6396,21.5,96,0.0,929.0,8.9,34.2,56,21.3,15.9,15.8,178.0,44.0,3.5,3,5,7,1,2026-07-14T23:35:44.726476+05:30
Mangalore,Karnataka,12.9141,74.856,26.5,87,0.0,1008.5,8.5,38.9,62,31.3,19.7,11.1,226.0,32.0,3.7,7,0,4,1,2026-07-14T23:35:44.726484+05:30
Hubli-Dharwad,Karnataka,15.3647,75.124,21.8,97,0.0,941.6,9.0,44.6,54,18.0,11.5,6.6,157.0,38.0,1.9,3,5,7,1,2026-07-14T23:35:44.726492+05:30
Belgaum,Karnataka,15.8497,74.4977,20.7,98,0.0,926.2,8.4,41.0,53,18.2,11.5,7.8,123.0,33.0,2.3,3,5,7,1,2026-07-14T23:35:48.084128+05:30
Coimbatore,Tamil Nadu,11.0168,76.9558,24.4,90,0.0,962.1,8.35,52.6,56,19.2,15.0,10.1,210.0,41.0,4.0,3,5,7,1,2026-07-14T23:35:48.084161+05:30
Madurai,Tamil Nadu,9.9252,78.1198,30.7,58,0.0,992.4,8.55,29.9,75,42.8,30.3,34.0,284.0,44.0,10.7,0,5,7,1,2026-07-14T23:35:48.084172+05:30
Trichy,Tamil Nadu,10.7905,78.7047,30.1,68,0.0,999.3,8.65,46.4,68,32.0,25.4,27.0,216.0,33.0,6.8,3,5,7,1,2026-07-14T23:35:48.084182+05:30
Salem,Tamil Nadu,11.6643,78.146,27.5,74,0.0,977.2,8.35,28.4,72,27.6,21.1,19.8,362.0,44.0,6.8,7,5,7,1,2026-07-14T23:35:48.084190+05:30
Tirunelveli,Tamil Nadu,8.7139,77.7567,29.6,63,0.0,1002.6,7.55,38.2,51,17.0,12.2,7.7,155.0,43.0,2.8,7,5,4,1,2026-07-14T23:35:48.084198+05:30
Vellore,Tamil Nadu,12.9165,79.1325,30.4,51,0.0,982.9,8.9,42.8,76,70.8,55.2,51.4,286.0,21.0,12.0,0,5,7,1,2026-07-14T23:35:48.084206+05:30
Erode,Tamil Nadu,11.341,77.7172,27.9,71,0.0,988.6,8.6,53.6,62,27.5,20.2,19.6,172.0,36.0,4.9,7,5,7,1,2026-07-14T23:35:48.084213+05:30
Kochi,Kerala,9.9312,76.2673,27.4,86,0.0,1010.7,8.3,42.1,58,31.7,23.5,18.3,126.0,22.0,5.3,7,0,4,1,2026-07-14T23:35:48.084221+05:30
Thiruvananthapuram,Kerala,8.5241,76.9366,26.3,87,0.0,1010.0,7.95,50.8,55,25.7,13.9,4.2,142.0,47.0,1.5,7,0,4,1,2026-07-14T23:35:48.084228+05:30
Kozhikode,Kerala,11.2588,75.7804,25.7,90,0.0,1009.6,8.15,46.4,56,27.2,14.0,2.1,220.0,53.0,1.4,7,0,4,1,2026-07-14T23:35:48.084236+05:30
Thrissur,Kerala,10.5276,76.2144,25.9,91,0.0,1009.1,7.9,43.9,56,26.1,17.3,8.5,256.0,34.0,3.3,7,0,4,1,2026-07-14T23:35:48.084243+05:30
Kannur,Kerala,11.8745,75.3704,26.7,85,0.0,1008.8,8.4,48.2,58,23.3,14.8,10.7,273.0,32.0,2.8,7,0,4,1,2026-07-14T23:35:48.084251+05:30
Patna,Bihar,25.5941,85.1376,29.1,89,0.2,995.1,7.6,19.8,155,129.0,89.2,39.4,465.0,52.0,15.9,10,5,7,1,2026-07-14T23:35:48.084259+05:30
Gaya,Bihar,24.7914,85.0002,30.3,82,0.0,988.6,8.45,21.6,160,130.9,88.7,34.2,322.0,45.0,13.6,3,5,7,1,2026-07-14T23:35:48.084267+05:30
Muzaffarpur,Bihar,26.1209,85.3647,28.6,89,0.0,995.3,7.55,20.9,155,114.3,92.0,40.2,562.0,48.0,16.7,7,5,7,1,2026-07-14T23:35:48.084273+05:30
Bhagalpur,Bihar,25.2425,87.0117,28.6,96,0.0,996.1,8.2,27.7,108,53.8,48.3,21.1,469.0,72.0,11.7,7,5,7,1,2026-07-14T23:35:48.084281+05:30
Ranchi,Jharkhand,23.3441,85.3096,25.4,85,0.0,933.5,8.75,40.0,150,116.6,70.3,30.6,406.0,37.0,10.0,7,5,7,1,2026-07-14T23:35:48.084288+05:30
Jamshedpur,Jharkhand,22.8046,86.2029,27.3,95,0.0,985.7,6.2,31.3,154,76.4,57.9,29.2,981.0,59.0,32.2,7,5,7,1,2026-07-14T23:35:48.084296+05:30
Dhanbad,Jharkhand,23.7957,86.4304,26.9,94,0.0,974.8,8.8,28.8,163,105.7,83.1,64.7,671.0,22.0,178.7,7,5,7,1,2026-07-14T23:35:48.084303+05:30
Bokaro,Jharkhand,23.6693,86.1511,26.7,100,0.0,978.7,8.7,29.5,165,118.0,84.3,49.9,573.0,32.0,154.4,7,5,7,1,2026-07-14T23:35:48.084311+05:30
Bhubaneswar,Odisha,20.2961,85.8245,27.1,93,0.0,996.7,3.95,37.8,119,57.5,44.1,23.5,497.0,47.0,15.2,7,5,3,1,2026-07-14T23:35:48.084319+05:30
Cuttack,Odisha,20.4625,85.8828,27.1,92,0.0,998.6,2.05,29.2,119,57.5,44.1,23.5,293.0,47.0,15.2,7,5,3,1,2026-07-14T23:35:48.084326+05:30
Rourkela,Odisha,22.2604,84.8536,26.8,93,0.0,980.1,7.8,30.2,145,109.7,61.2,20.2,1055.0,80.0,23.4,7,5,7,1,2026-07-14T23:35:48.084333+05:30
Raipur,Chhattisgarh,21.2514,81.6296,27.4,79,0.0,970.9,8.75,33.8,126,71.5,44.4,37.7,487.0,38.0,59.1,7,5,7,1,2026-07-14T23:35:48.084341+05:30
Bhilai,Chhattisgarh,21.1938,81.3509,27.8,78,0.0,971.6,8.75,35.6,110,63.1,39.8,27.2,1017.0,50.0,44.3,7,5,7,1,2026-07-14T23:35:48.084349+05:30
Guwahati,Assam,26.1158,91.7086,26.8,96,0.0,996.4,8.1,25.2,52,14.5,14.1,11.1,294.0,35.0,1.5,7,5,7,1,2026-07-14T23:35:48.084356+05:30
Agartala,Tripura,23.8315,91.2868,26.6,96,0.0,1001.4,8.65,25.2,74,30.3,29.5,21.4,230.0,31.0,2.7,7,5,4,1,2026-07-14T23:35:48.084364+05:30
Shillong,Meghalaya,25.5788,91.8933,18.4,99,0.0,853.5,8.65,25.9,57,11.6,11.1,8.2,371.0,61.0,2.5,3,10,7,1,2026-07-14T23:35:48.084371+05:30
Imphal,Manipur,24.817,93.9368,24.3,93,0.1,919.6,9.2,25.9,52,14.0,13.0,11.5,715.0,39.0,1.9,6,5,7,1,2026-07-14T23:35:48.084378+05:30
Aizawl,Mizoram,23.7271,92.7176,20.1,100,0.2,888.4,8.95,19.8,45,2.6,2.4,4.3,173.0,45.0,0.4,6,5,7,1,2026-07-14T23:35:48.084386+05:30
Kohima,Nagaland,25.6701,94.1077,19.7,96,0.0,851.9,8.15,24.8,42,9.7,9.4,13.6,292.0,24.0,1.0,3,10,7,1,2026-07-14T23:35:48.084394+05:30
Gangtok,Sikkim,27.3314,88.6138,18.6,92,0.1,835.6,8.7,27.7,41,6.1,5.7,10.3,390.0,69.0,1.2,6,10,7,1,2026-07-14T23:35:48.084401+05:30
Siliguri,West Bengal,26.7271,88.3953,27.9,89,0.0,988.0,8.45,27.0,69,31.9,29.6,22.1,1185.0,63.0,6.0,7,5,7,1,2026-07-14T23:35:51.457794+05:30
Durgapur,West Bengal,23.5204,87.3119,27.1,98,0.0,989.7,7.65,26.3,161,92.0,77.3,46.7,491.0,43.0,52.8,7,5,7,1,2026-07-14T23:35:51.457854+05:30
Asansol,West Bengal,23.6739,86.9524,26.9,96,0.0,988.3,7.4,26.3,157,81.5,63.1,51.3,850.0,33.0,61.8,7,5,7,1,2026-07-14T23:35:51.457868+05:30
Pondicherry,Puducherry,11.9139,79.8145,29.9,74,0.0,1006.9,8.05,43.2,78,25.9,16.8,8.7,203.0,72.0,5.5,7,5,4,1,2026-07-14T23:35:51.457878+05:30
Port Blair,Andaman and Nicobar Islands,11.6234,92.7265,27.2,85,0.1,1006.5,8.3,61.2,49,17.2,8.7,0.2,85.0,50.0,0.3,10,5,4,1,2026-07-14T23:35:51.457888+05:30
Haridwar,Uttarakhand,29.9457,78.1642,28.0,88,0.0,968.0,7.5,32.8,180,220.3,124.8,48.7,431.0,52.0,21.7,7,5,7,1,2026-07-14T23:35:51.457897+05:30
Rishikesh,Uttarakhand,30.0869,78.2676,26.7,87,0.0,961.0,7.6,28.4,164,188.1,82.9,12.8,463.0,110.0,12.1,7,5,7,1,2026-07-14T23:35:51.457907+05:30
Nainital,Uttarakhand,29.3919,79.4542,16.6,99,0.0,802.9,8.5,27.7,166,158.3,73.3,18.8,370.0,70.0,8.7,3,10,7,1,2026-07-14T23:35:51.457916+05:30
Mussoorie,Uttarakhand,30.4599,78.0664,16.9,99,0.0,800.1,8.0,38.2,161,134.6,74.0,41.1,416.0,65.0,14.4,3,10,7,1,2026-07-14T23:35:51.457925+05:30
Dharamshala,Himachal Pradesh,32.219,76.3234,22.1,74,0.0,865.5,8.3,30.6,75,26.1,17.1,18.4,419.0,37.0,1.0,3,5,7,1,2026-07-14T23:35:51.457933+05:30
Dalhousie,Himachal Pradesh,32.5387,75.971,16.0,97,0.0,800.8,8.6,31.3,153,113.2,71.9,57.8,648.0,53.0,6.2,3,10,7,0,2026-07-14T23:35:51.457943+05:30
Patiala,Punjab,30.3398,76.3869,29.4,81,0.0,971.8,7.5,45.7,191,268.2,134.6,51.8,854.0,45.0,14.7,7,5,7,1,2026-07-14T23:35:51.457952+05:30
Bhatinda,Punjab,30.211,74.9455,32.7,56,0.0,977.0,8.2,28.1,180,209.5,129.9,79.2,670.0,21.0,13.5,0,5,7,1,2026-07-14T23:35:51.457961+05:30
Rohtak,Haryana,28.8955,76.6066,30.4,72,0.0,975.9,7.35,36.7,479,136.4,65.4,27.1,397.0,47.0,5.2,3,5,7,1,2026-07-14T23:35:51.457970+05:30
Panipat,Haryana,29.3909,76.9635,29.6,81,0.0,974.1,7.35,42.1,727,168.1,73.3,20.3,563.0,56.0,4.8,7,5,7,1,2026-07-14T23:35:51.457979+05:30
Mathura,Uttar Pradesh,27.4924,77.6737,30.6,67,0.0,981.1,7.9,29.9,640,482.4,119.0,27.4,280.0,37.0,5.5,3,5,7,1,2026-07-14T23:35:51.457988+05:30
Vrindavan,Uttar Pradesh,27.5823,77.7027,30.8,66,0.0,981.4,7.9,29.2,640,482.4,119.0,27.4,315.0,37.0,5.5,3,5,7,1,2026-07-14T23:35:51.457996+05:30
Ayodhya,Uttar Pradesh,26.7922,82.1998,29.0,91,0.0,989.6,7.95,34.2,164,167.2,85.2,23.0,767.0,64.0,8.8,7,5,7,1,2026-07-14T23:35:51.458004+05:30
Ratlam,Madhya Pradesh,23.3315,75.0367,25.3,84,0.0,952.2,8.4,50.8,65,22.2,15.5,7.5,140.0,56.0,8.5,7,5,7,1,2026-07-14T23:35:51.458012+05:30
Sagar,Madhya Pradesh,23.8388,78.7378,26.6,68,0.0,946.9,8.6,44.3,89,30.6,20.9,6.9,189.0,62.0,3.7,7,5,7,1,2026-07-14T23:35:51.458021+05:30
Satna,Madhya Pradesh,24.6005,80.8322,28.8,72,0.0,967.2,6.9,41.4,108,73.8,35.4,7.6,170.0,68.0,4.6,7,5,7,1,2026-07-14T23:35:51.458029+05:30
Akola,Maharashtra,20.7002,77.0082,28.4,65,0.0,973.3,5.35,51.1,64,25.7,18.2,11.2,156.0,55.0,8.0,7,5,3,1,2026-07-14T23:35:51.458038+05:30
Amravati,Maharashtra,20.9374,77.7796,27.5,64,0.0,965.0,7.65,50.4,64,25.7,18.3,11.1,182.0,60.0,8.1,7,5,7,1,2026-07-14T23:35:51.458047+05:30
Latur,Maharashtra,18.4088,76.5604,25.5,63,0.0,938.8,7.15,41.0,60,25.4,17.5,5.6,167.0,64.0,3.6,7,5,7,1,2026-07-14T23:35:51.458056+05:30
Nanded,Maharashtra,19.1383,77.3091,27.5,54,0.0,966.8,8.5,41.0,67,30.3,23.1,10.4,291.0,64.0,5.3,4,5,7,1,2026-07-14T23:35:51.458064+05:30
Gulbarga,Karnataka,17.3297,76.8343,28.3,53,0.0,958.1,8.35,44.3,59,20.3,14.9,6.8,169.0,57.0,3.0,4,5,7,1,2026-07-14T23:35:51.458073+05:30
Bidar,Karnataka,17.9104,77.5199,26.6,59,0.0,934.3,7.25,41.0,63,30.5,24.0,18.0,305.0,43.0,4.6,4,5,7,1,2026-07-14T23:35:51.458081+05:30
Hospet,Karnataka,15.2689,76.3909,25.4,75,0.0,956.3,8.3,43.2,55,21.9,14.8,5.8,153.0,48.0,2.1,7,5,7,1,2026-07-14T23:35:51.458089+05:30
Tirupur,Tamil Nadu,11.1085,77.3411,25.2,86,0.0,975.3,8.35,58.0,64,30.5,22.7,23.7,174.0,29.0,5.9,7,5,7,1,2026-07-14T23:35:51.458097+05:30
Alappuzha,Kerala,9.4981,76.3388,27.6,86,0.0,1010.8,8.05,42.1,58,31.0,18.2,9.2,89.0,42.0,3.4,7,0,4,1,2026-07-14T23:35:51.458106+05:30
Munnar,Kerala,10.0889,77.0595,18.0,99,0.0,857.9,8.6,31.0,51,14.0,11.7,11.8,159.0,27.0,2.6,3,10,7,1,2026-07-14T23:35:51.458115+05:30
Silchar,Assam,24.8333,92.7789,26.6,97,0.3,1000.4,8.85,19.1,77,7.7,7.2,6.1,190.0,60.0,2.3,10,5,4,1,2026-07-14T23:35:51.458124+05:30
Dibrugarh,Assam,27.4728,94.912,27.5,95,0.1,990.0,8.6,23.4,78,16.5,16.3,12.1,368.0,41.0,1.0,10,5,7,1,2026-07-14T23:35:51.458132+05:30
