city,state,latitude,longitude,temp,humidity,rain,pressure,uv_index,wind_gusts,aqi,pm10,pm2_5,mosquito_risk,arthritis_risk,migraine_risk,frizz_risk,updated_at
Delhi,Delhi,28.6139,77.209,18.0,80,0.0,983.7,5.85,21.2,347,255.2,68.9,3,5,3,0,2026-03-17T05:05:18.134791+05:30
Mumbai,Maharashtra,19.076,72.8777,26.7,76,0.0,1008.6,7.7,18.4,101,102.9,37.3,7,0,4,1,2026-03-17T05:05:18.134847+05:30
Bangalore,Karnataka,12.9716,77.5946,19.9,85,0.0,910.6,9.35,41.0,99,30.9,29.6,3,10,7,1,2026-03-17T05:05:18.134864+05:30
Hyderabad,Telangana,17.385,78.4867,21.0,89,0.0,952.7,7.65,20.9,99,17.6,13.5,3,5,7,1,2026-03-17T05:05:18.134874+05:30
Chennai,Tamil Nadu,13.0827,80.2707,25.9,85,0.0,1008.1,9.1,32.0,35,10.8,8.0,7,0,4,1,2026-03-17T05:05:18.134883+05:30
Kolkata,West Bengal,22.5726,88.3639,23.0,94,0.0,1007.0,7.85,56.2,79,44.8,40.6,3,5,4,1,2026-03-17T05:05:18.134892+05:30
Pune,Maharashtra,18.5204,73.8567,17.2,74,0.0,947.0,8.25,37.1,86,66.8,37.6,3,5,7,0,2026-03-17T05:05:18.134905+05:30
Ahmedabad,Gujarat,23.0225,72.5714,22.0,61,0.0,1002.0,7.55,19.8,57,28.7,14.6,3,5,4,0,2026-03-17T05:05:18.134912+05:30
Jaipur,Rajasthan,26.9124,75.7873,19.8,65,0.0,959.1,6.85,38.5,218,532.7,109.0,3,5,7,0,2026-03-17T05:05:18.134919+05:30
Lucknow,Uttar Pradesh,26.8467,80.9462,19.8,67,0.0,994.2,6.45,22.0,89,47.1,30.5,3,5,7,0,2026-03-17T05:05:18.134927+05:30
Kanpur,Uttar Pradesh,26.4499,80.3319,19.8,72,0.0,992.3,6.7,25.9,122,232.4,49.5,3,5,7,0,2026-03-17T05:05:18.134934+05:30
Chandigarh,Chandigarh,30.7333,76.7794,13.3,66,0.0,969.4,5.65,17.6,61,21.3,11.6,3,5,3,0,2026-03-17T05:05:18.134941+05:30
Srinagar,Jammu and Kashmir,34.0837,74.7973,2.3,89,0.0,838.2,6.8,15.5,79,19.0,17.8,3,10,7,0,2026-03-17T05:05:18.134948+05:30
Jammu,Jammu and Kashmir,32.7266,74.857,12.4,70,0.0,975.2,6.75,16.2,67,31.2,28.9,3,5,7,0,2026-03-17T05:05:18.134955+05:30
Amritsar,Punjab,31.634,74.8723,10.6,90,0.0,983.6,6.55,17.3,81,48.1,30.6,3,10,7,0,2026-03-17T05:05:18.134962+05:30
Ludhiana,Punjab,30.901,75.8573,11.5,78,0.0,980.6,6.3,14.4,76,43.5,23.6,3,5,7,0,2026-03-17T05:05:18.134971+05:30
Jalandhar,Punjab,31.326,75.5762,11.2,85,0.0,982.0,6.4,16.6,70,51.5,20.1,3,10,7,0,2026-03-17T05:05:18.134979+05:30
Dehradun,Uttarakhand,30.6284,78.0322,7.9,47,0.0,826.7,5.2,23.8,40,14.4,5.5,0,5,3,1,2026-03-17T05:05:18.134986+05:30
Shimla,Himachal Pradesh,31.1048,77.1734,6.7,58,0.0,779.7,5.65,23.0,60,23.4,10.5,0,5,3,1,2026-03-17T05:05:18.134993+05:30
Manali,Himachal Pradesh,32.2396,77.1887,5.6,30,0.0,813.6,8.55,29.9,47,8.5,3.3,0,5,7,1,2026-03-17T05:05:18.135000+05:30
Gurgaon,Haryana,28.4595,77.0266,15.6,88,0.0,982.1,5.4,20.2,1711,812.1,129.0,3,10,3,0,2026-03-17T05:05:18.135006+05:30
Noida,Uttar Pradesh,28.5355,77.391,18.0,81,0.0,985.3,5.45,20.5,1711,812.1,129.0,3,10,3,0,2026-03-17T05:05:18.135013+05:30
Ghaziabad,Uttar Pradesh,28.6692,77.4538,16.8,84,0.0,983.3,5.6,21.2,114,83.6,45.3,3,10,3,0,2026-03-17T05:05:18.135019+05:30
Faridabad,Haryana,28.4089,77.3178,16.9,88,0.0,984.4,5.3,20.5,1711,812.1,129.0,3,10,3,0,2026-03-17T05:05:18.135025+05:30
Meerut,Uttar Pradesh,28.9845,77.7064,15.6,85,0.0,982.0,5.8,17.6,114,83.6,45.3,3,10,3,0,2026-03-17T05:05:18.135032+05:30
Agra,Uttar Pradesh,27.1767,78.0081,18.1,82,0.0,988.2,6.55,16.2,800,566.2,91.0,3,10,7,0,2026-03-17T05:05:18.135041+05:30
Varanasi,Uttar Pradesh,25.3176,82.9739,20.4,81,0.0,998.7,7.35,18.0,151,76.6,58.7,3,5,7,1,2026-03-17T05:05:18.135050+05:30
Prayagraj,Uttar Pradesh,25.4358,81.8463,21.0,78,0.0,997.1,7.2,20.9,144,50.8,34.5,3,5,7,1,2026-03-17T05:05:18.135057+05:30
Gorakhpur,Uttar Pradesh,26.7606,83.3732,18.9,68,0.0,998.1,7.05,29.5,97,69.6,43.0,3,5,7,0,2026-03-17T05:05:18.135063+05:30
Bareilly,Uttar Pradesh,28.367,79.4304,17.8,70,0.0,987.1,5.3,16.9,97,49.2,30.6,3,5,3,0,2026-03-17T05:05:18.135070+05:30
Aligarh,Uttar Pradesh,27.8974,78.088,17.3,85,0.0,986.1,5.6,18.0,464,217.0,62.9,3,10,3,0,2026-03-17T05:05:18.135076+05:30
Moradabad,Uttar Pradesh,28.8386,78.7733,17.0,73,0.0,984.2,5.0,17.3,105,61.2,36.3,3,5,3,0,2026-03-17T05:05:18.135082+05:30
Saharanpur,Uttar Pradesh,29.9637,77.546,16.4,68,0.0,976.4,4.8,15.5,116,56.7,44.6,3,5,3,0,2026-03-17T05:05:18.135088+05:30
Jhansi,Uttar Pradesh,25.4484,78.5685,22.3,44,0.0,977.7,7.2,25.9,92,83.8,27.8,0,5,7,0,2026-03-17T05:05:21.354345+05:30
Surat,Gujarat,21.1702,72.8311,25.3,87,0.0,1007.0,7.4,26.3,97,40.7,28.6,7,5,4,1,2026-03-17T05:05:21.354377+05:30
Vadodara,Gujarat,22.3072,73.1812,22.9,88,0.0,1004.5,7.5,25.9,73,34.0,23.0,3,5,4,1,2026-03-17T05:05:21.354388+05:30
Rajkot,Gujarat,22.3039,70.8022,22.5,87,0.0,994.1,7.35,24.5,58,36.3,14.1,3,5,7,1,2026-03-17T05:05:21.354397+05:30
Thane,Maharashtra,19.2183,72.9781,24.4,89,0.0,1008.1,7.7,30.6,101,102.9,37.3,3,0,4,1,2026-03-17T05:05:21.354405+05:30
Nagpur,Maharashtra,21.1458,79.0882,24.0,66,0.0,972.7,8.05,21.2,100,51.2,46.4,3,5,7,1,2026-03-17T05:05:21.354414+05:30
Nashik,Maharashtra,19.9975,73.7898,19.1,71,0.0,944.8,7.9,27.4,76,88.2,30.0,3,5,7,0,2026-03-17T05:05:21.354422+05:30
Aurangabad,Maharashtra,19.8762,75.3433,21.2,62,0.0,943.5,8.4,29.2,63,48.2,19.5,3,5,7,0,2026-03-17T05:05:21.354429+05:30
Solapur,Maharashtra,17.6599,75.9064,22.4,58,0.0,956.3,8.5,24.8,89,36.4,34.1,0,5,7,0,2026-03-17T05:05:21.354437+05:30
Kolhapur,Maharashtra,16.705,74.2433,19.4,84,0.0,946.7,8.7,44.3,90,43.0,34.5,3,10,7,1,2026-03-17T05:05:21.354445+05:30
Goa,Goa,15.2993,74.124,26.6,80,0.0,997.3,8.75,36.7,81,44.6,29.5,7,5,7,1,2026-03-17T05:05:21.354454+05:30
Jodhpur,Rajasthan,26.2389,73.0243,20.9,60,0.0,982.4,6.0,30.6,106,246.8,70.5,0,5,3,0,2026-03-17T05:05:21.354461+05:30
Udaipur,Rajasthan,24.5854,73.7125,20.9,35,0.0,945.3,7.85,34.2,39,50.3,10.5,0,5,7,0,2026-03-17T05:05:21.354469+05:30
Kota,Rajasthan,25.2138,75.8648,20.3,41,0.0,978.3,7.3,28.1,58,59.6,18.5,0,5,7,0,2026-03-17T05:05:21.354476+05:30
Bikaner,Rajasthan,28.0229,73.3119,19.6,71,0.0,982.9,6.7,19.8,67,78.2,33.2,3,5,7,0,2026-03-17T05:05:21.354483+05:30
Ajmer,Rajasthan,26.4499,74.6399,20.0,61,0.0,953.9,6.9,37.4,85,332.5,86.8,3,5,7,0,2026-03-17T05:05:21.354490+05:30
Gwalior,Madhya Pradesh,26.2183,78.1828,21.1,65,0.0,983.3,6.9,30.6,98,148.1,35.5,3,5,7,0,2026-03-17T05:05:21.354498+05:30
Indore,Madhya Pradesh,22.7196,75.8577,20.2,63,0.0,947.4,7.75,31.0,59,21.8,14.6,3,5,7,0,2026-03-17T05:05:21.354505+05:30
Bhopal,Madhya Pradesh,23.2599,77.4126,20.7,51,0.0,953.2,7.7,29.9,48,12.3,10.8,0,5,7,0,2026-03-17T05:05:21.354513+05:30
Jabalpur,Madhya Pradesh,23.1815,79.9864,21.1,48,0.0,961.2,7.75,25.6,56,22.5,17.9,0,5,7,0,2026-03-17T05:05:21.354521+05:30
Ujjain,Madhya Pradesh,23.1765,75.7885,20.6,64,0.0,953.2,7.65,26.3,57,26.0,16.5,3,5,7,0,2026-03-17T05:05:21.354529+05:30
Visakhapatnam,Andhra Pradesh,17.6868,83.2185,24.1,87,0.0,1005.5,8.7,40.0,57,20.1,17.3,3,5,4,1,2026-03-17T05:05:21.354537+05:30
Vijayawada,Andhra Pradesh,16.5062,80.648,23.4,88,0.0,1004.0,8.8,28.4,47,14.6,12.7,3,5,4,1,2026-03-17T05:05:21.354544+05:30
Guntur,Andhra Pradesh,16.3067,80.4365,23.3,90,0.0,1005.0,8.8,28.1,45,13.0,11.3,3,5,4,1,2026-03-17T05:05:21.354552+05:30
Nellore,Andhra Pradesh,14.4426,79.9865,24.7,89,0.0,1006.9,8.95,29.9,40,9.0,6.7,3,5,4,1,2026-03-17T05:05:21.354560+05:30
Kurnool,Andhra Pradesh,15.8281,78.0373,25.1,74,0.0,976.9,8.3,32.0,79,10.6,9.7,7,5,7,1,2026-03-17T05:05:21.354569+05:30
Kakinada,Andhra Pradesh,16.9891,82.2475,22.3,93,0.0,1009.2,8.75,28.1,38,16.2,12.9,3,0,4,1,2026-03-17T05:05:21.354576+05:30
Tirupati,Andhra Pradesh,13.6288,79.4192,23.2,90,0.0,992.7,9.1,27.4,56,17.1,14.6,3,5,7,1,2026-03-17T05:05:21.354584+05:30
Warangal,Telangana,17.9689,79.5941,22.5,87,0.0,978.9,8.25,32.8,69,14.2,12.6,3,5,7,1,2026-03-17T05:05:21.354592+05:30
Nizamabad,Telangana,18.6725,78.0941,24.0,69,0.0,964.3,8.45,31.7,135,35.6,32.4,3,5,7,1,2026-03-17T05:05:21.354599+05:30
Mysore,Karnataka,12.2958,76.6396,19.9,92,0.0,927.4,9.35,36.4,122,59.6,55.5,3,10,7,1,2026-03-17T05:05:21.354607+05:30
Mangalore,Karnataka,12.9141,74.856,27.2,81,0.0,1006.0,8.95,19.8,103,43.8,34.6,7,5,4,1,2026-03-17T05:05:21.354614+05:30
Hubli-Dharwad,Karnataka,15.3647,75.124,20.8,95,0.0,939.6,8.85,32.0,90,26.7,18.5,3,5,7,1,2026-03-17T05:05:21.354621+05:30
Belgaum,Karnataka,15.8497,74.4977,19.6,98,0.0,924.2,8.95,31.0,78,41.1,29.9,3,10,7,1,2026-03-17T05:05:24.574452+05:30
Coimbatore,Tamil Nadu,11.0168,76.9558,21.3,96,0.0,961.5,9.3,29.9,99,48.4,44.4,3,5,7,1,2026-03-17T05:05:24.574484+05:30
Madurai,Tamil Nadu,9.9252,78.1198,24.0,87,0.0,993.2,7.0,21.2,52,16.6,15.1,3,5,7,1,2026-03-17T05:05:24.574496+05:30
Trichy,Tamil Nadu,10.7905,78.7047,25.0,93,0.0,1000.4,9.2,22.7,54,15.9,12.8,7,5,4,1,2026-03-17T05:05:24.574506+05:30
Salem,Tamil Nadu,11.6643,78.146,24.1,88,0.0,977.7,9.25,25.9,69,22.9,21.3,3,5,7,1,2026-03-17T05:05:24.574514+05:30
Tirunelveli,Tamil Nadu,8.7139,77.7567,24.1,89,0.0,1003.2,7.15,36.0,60,25.6,24.4,3,5,4,1,2026-03-17T05:05:24.574523+05:30
Vellore,Tamil Nadu,12.9165,79.1325,22.7,92,0.0,985.5,9.15,32.0,71,21.4,18.7,3,5,7,1,2026-03-17T05:05:24.574531+05:30
Erode,Tamil Nadu,11.341,77.7172,25.2,84,0.0,989.5,9.25,29.9,51,8.0,6.8,7,5,7,1,2026-03-17T05:05:24.574539+05:30
Kochi,Kerala,9.9312,76.2673,27.2,81,0.0,1008.2,8.75,32.0,85,27.9,26.3,7,0,4,1,2026-03-17T05:05:24.574547+05:30
Thiruvananthapuram,Kerala,8.5241,76.9366,27.1,85,0.0,1007.1,8.2,22.7,54,12.9,11.6,7,5,4,1,2026-03-17T05:05:24.574555+05:30
Kozhikode,Kerala,11.2588,75.7804,25.4,84,0.0,1007.7,9.0,28.4,91,43.4,37.4,7,5,4,1,2026-03-17T05:05:24.574563+05:30
Thrissur,Kerala,10.5276,76.2144,24.7,93,0.0,1006.7,8.25,34.2,86,31.0,28.5,3,5,4,1,2026-03-17T05:05:24.574571+05:30
Kannur,Kerala,11.8745,75.3704,25.4,86,0.0,1007.0,9.0,29.5,103,48.2,42.7,7,5,4,1,2026-03-17T05:05:24.574579+05:30
Patna,Bihar,25.5941,85.1376,23.0,74,0.0,1001.5,7.5,25.9,152,95.2,79.6,3,5,4,1,2026-03-17T05:05:24.574587+05:30
Gaya,Bihar,24.7914,85.0002,21.2,80,0.0,994.8,7.6,27.7,116,44.7,38.9,3,5,7,1,2026-03-17T05:05:24.574595+05:30
Muzaffarpur,Bihar,26.1209,85.3647,19.5,82,0.0,1001.6,7.45,34.2,157,102.7,83.8,3,10,4,1,2026-03-17T05:05:24.574603+05:30
Bhagalpur,Bihar,25.2425,87.0117,22.4,85,0.0,1001.9,7.5,27.7,147,56.7,52.5,3,5,4,1,2026-03-17T05:05:24.574610+05:30
Ranchi,Jharkhand,23.3441,85.3096,20.2,82,0.0,938.0,8.2,47.9,118,55.5,48.7,3,5,7,1,2026-03-17T05:05:24.574618+05:30
Jamshedpur,Jharkhand,22.8046,86.2029,21.7,85,0.0,992.0,8.15,39.6,119,62.9,54.4,3,5,7,1,2026-03-17T05:05:24.574625+05:30
Dhanbad,Jharkhand,23.7957,86.4304,22.2,77,0.0,980.4,8.0,47.2,150,95.0,86.8,3,5,7,1,2026-03-17T05:05:24.574633+05:30
Bokaro,Jharkhand,23.6693,86.1511,23.0,72,0.0,984.4,8.0,53.3,132,81.3,73.1,3,5,7,1,2026-03-17T05:05:24.574640+05:30
Bhubaneswar,Odisha,20.2961,85.8245,24.0,90,0.0,1003.8,8.45,35.3,70,14.2,11.8,3,5,4,1,2026-03-17T05:05:24.574647+05:30
Cuttack,Odisha,20.4625,85.8828,23.9,92,0.0,1005.9,8.5,30.6,70,14.2,11.8,3,5,4,1,2026-03-17T05:05:24.574654+05:30
Rourkela,Odisha,22.2604,84.8536,22.3,79,0.0,987.6,8.05,48.6,142,75.4,65.2,3,5,7,1,2026-03-17T05:05:24.574661+05:30
Raipur,Chhattisgarh,21.2514,81.6296,25.0,66,0.0,974.8,8.15,31.3,135,74.7,68.2,7,5,7,1,2026-03-17T05:05:24.574668+05:30
Bhilai,Chhattisgarh,21.1938,81.3509,24.5,70,0.0,975.2,8.15,34.9,129,68.5,62.2,3,5,7,1,2026-03-17T05:05:24.574676+05:30
Guwahati,Assam,26.1158,91.7086,19.6,89,0.0,1003.4,7.5,45.4,80,32.5,27.0,3,10,4,1,2026-03-17T05:05:24.574682+05:30
Agartala,Tripura,23.8315,91.2868,20.8,92,0.0,1008.0,7.9,43.6,70,9.3,7.5,3,0,4,1,2026-03-17T05:05:24.574690+05:30
Shillong,Meghalaya,25.5788,91.8933,12.4,86,0.0,854.3,7.2,77.8,58,20.9,16.3,3,10,7,0,2026-03-17T05:05:24.574699+05:30
Imphal,Manipur,24.817,93.9368,15.5,83,0.5,925.4,8.1,91.4,92,55.6,46.2,6,10,7,0,2026-03-17T05:05:24.574707+05:30
Aizawl,Mizoram,23.7271,92.7176,15.5,92,0.0,894.0,7.95,61.9,94,45.1,35.0,3,10,7,0,2026-03-17T05:05:24.574714+05:30
Kohima,Nagaland,25.6701,94.1077,14.4,70,0.0,854.5,8.05,99.4,78,41.3,33.8,3,5,7,0,2026-03-17T05:05:24.574722+05:30
Gangtok,Sikkim,27.3314,88.6138,9.7,62,0.0,834.3,7.55,19.4,80,59.8,33.8,3,5,7,0,2026-03-17T05:05:24.574730+05:30
Siliguri,West Bengal,26.7271,88.3953,17.9,63,0.0,994.6,7.4,43.2,114,77.8,58.7,3,5,7,0,2026-03-17T05:05:27.801665+05:30
Durgapur,West Bengal,23.5204,87.3119,22.2,89,0.0,996.0,8.0,47.9,153,75.2,68.7,3,5,7,1,2026-03-17T05:05:27.801697+05:30
Asansol,West Bengal,23.6739,86.9524,22.6,82,0.0,994.4,8.0,46.8,143,74.7,68.2,3,5,7,1,2026-03-17T05:05:27.801710+05:30
Pondicherry,Puducherry,11.9139,79.8145,23.9,97,0.0,1009.3,9.05,28.1,32,9.7,6.5,3,0,4,1,2026-03-17T05:05:27.801719+05:30
Port Blair,Andaman and Nicobar Islands,11.6234,92.7265,27.3,80,0.0,1008.1,9.0,19.1,81,14.0,11.9,7,0,4,1,2026-03-17T05:05:27.801728+05:30
Haridwar,Uttarakhand,29.9457,78.1642,17.3,58,0.0,974.9,4.75,18.4,67,15.8,11.1,0,5,3,0,2026-03-17T05:05:27.801736+05:30
Rishikesh,Uttarakhand,30.0869,78.2676,16.2,52,0.0,967.6,4.65,19.8,56,21.8,11.9,0,5,3,0,2026-03-17T05:05:27.801745+05:30
Nainital,Uttarakhand,29.3919,79.4542,14.4,43,0.0,804.0,4.85,37.8,61,19.4,10.8,0,5,3,0,2026-03-17T05:05:27.801753+05:30
Mussoorie,Uttarakhand,30.4599,78.0664,10.6,45,0.0,799.5,5.55,30.2,57,16.8,11.2,0,5,3,1,2026-03-17T05:05:27.801761+05:30
Dharamshala,Himachal Pradesh,32.219,76.3234,13.5,23,0.0,867.2,5.75,26.6,47,6.8,3.8,0,5,3,1,2026-03-17T05:05:27.801769+05:30
Dalhousie,Himachal Pradesh,32.5387,75.971,9.1,24,0.0,800.2,6.15,24.8,56,18.7,14.5,0,5,7,1,2026-03-17T05:05:27.801778+05:30
Patiala,Punjab,30.3398,76.3869,12.8,80,0.0,979.4,5.75,16.9,77,38.4,33.3,3,5,3,0,2026-03-17T05:05:27.801787+05:30
Bhatinda,Punjab,30.211,74.9455,12.7,83,0.0,985.7,6.55,19.1,91,71.0,32.1,3,10,7,0,2026-03-17T05:05:27.801795+05:30
Rohtak,Haryana,28.8955,76.6066,14.3,84,0.0,982.6,5.85,24.1,604,383.7,90.3,3,10,3,0,2026-03-17T05:05:27.801803+05:30
Panipat,Haryana,29.3909,76.9635,13.7,86,0.0,981.2,5.9,16.6,317,280.3,70.3,3,10,3,0,2026-03-17T05:05:27.801811+05:30
Mathura,Uttar Pradesh,27.4924,77.6737,16.8,84,0.0,987.3,6.1,17.6,751,299.0,71.9,3,10,7,0,2026-03-17T05:05:27.801819+05:30
Vrindavan,Uttar Pradesh,27.5823,77.7027,16.8,85,0.0,987.9,6.1,18.0,751,299.0,71.9,3,10,7,0,2026-03-17T05:05:27.801872+05:30
Ayodhya,Uttar Pradesh,26.7922,82.1998,18.7,66,0.0,996.3,6.5,25.2,92,72.2,50.3,3,5,7,0,2026-03-17T05:05:27.801884+05:30
Ratlam,Madhya Pradesh,23.3315,75.0367,22.3,51,0.0,954.1,7.6,33.1,55,31.0,16.2,0,5,7,0,2026-03-17T05:05:27.801894+05:30
Sagar,Madhya Pradesh,23.8388,78.7378,20.8,44,0.0,949.6,7.65,31.3,38,7.8,7.4,0,5,7,0,2026-03-17T05:05:27.801902+05:30
Satna,Madhya Pradesh,24.6005,80.8322,22.0,72,0.0,971.6,7.55,35.3,87,74.3,58.6,3,5,7,1,2026-03-17T05:05:27.801910+05:30
Akola,Maharashtra,20.7002,77.0082,22.9,59,0.0,974.9,8.05,25.9,68,31.7,21.0,0,5,7,0,2026-03-17T05:05:27.801917+05:30
Amravati,Maharashtra,20.9374,77.7796,22.1,55,0.0,966.9,8.05,31.0,75,40.7,31.3,0,5,7,0,2026-03-17T05:05:27.801923+05:30
Latur,Maharashtra,18.4088,76.5604,21.2,64,0.0,939.1,8.5,25.2,90,47.7,43.1,3,5,7,0,2026-03-17T05:05:27.801929+05:30
Nanded,Maharashtra,19.1383,77.3091,23.1,60,0.0,968.4,8.3,19.8,99,47.6,44.0,0,5,7,0,2026-03-17T05:05:27.801934+05:30
Gulbarga,Karnataka,17.3297,76.8343,24.7,61,0.0,958.1,7.65,29.9,115,52.9,46.0,3,5,7,1,2026-03-17T05:05:27.801940+05:30
Bidar,Karnataka,17.9104,77.5199,23.1,65,0.0,934.8,7.9,28.8,131,38.6,34.8,3,5,7,1,2026-03-17T05:05:27.801946+05:30
Hospet,Karnataka,15.2689,76.3909,24.4,78,0.0,955.4,8.65,46.8,122,40.4,36.7,3,5,7,1,2026-03-17T05:05:27.801951+05:30
Tirupur,Tamil Nadu,11.1085,77.3411,23.1,87,0.0,975.4,9.35,34.2,78,29.1,26.9,3,5,7,1,2026-03-17T05:05:27.801957+05:30
Alappuzha,Kerala,9.4981,76.3388,27.3,82,0.0,1008.3,9.05,30.2,83,28.1,25.8,7,0,4,1,2026-03-17T05:05:27.801963+05:30
Munnar,Kerala,10.0889,77.0595,16.8,92,0.0,854.4,9.6,29.2,79,30.3,29.1,3,10,7,0,2026-03-17T05:05:27.801969+05:30
Silchar,Assam,24.8333,92.7789,19.4,92,2.6,1008.6,7.9,43.2,73,38.3,32.5,6,5,4,1,2026-03-17T05:05:27.801976+05:30
Dibrugarh,Assam,27.4728,94.912,18.4,93,0.0,997.4,5.75,42.8,87,43.7,33.3,3,10,3,1,2026-03-17T05:05:27.801982+05:30
