city,state,latitude,longitude,temp,humidity,rain,pressure,uv_index,wind_gusts,aqi,pm10,pm2_5,no2,co,o3,so2,mosquito_risk,arthritis_risk,migraine_risk,frizz_risk,updated_at
Delhi,Delhi,28.6139,77.209,30.3,80,0.0,978.9,5.95,21.6,199,163.4,60.3,17.7,317.0,126.0,26.6,3,5,3,1,2026-07-20T12:22:28.306321+05:30
Mumbai,Maharashtra,19.076,72.8777,27.4,85,0.3,1007.2,7.75,47.5,55,34.9,16.4,7.2,211.0,67.0,9.9,10,5,4,1,2026-07-20T12:22:28.306370+05:30
Bangalore,Karnataka,12.9716,77.5946,27.6,58,0.0,913.1,9.0,54.0,46,8.0,4.4,3.3,217.0,59.0,2.7,4,5,7,1,2026-07-20T12:22:28.306386+05:30
Hyderabad,Telangana,17.385,78.4867,29.8,62,0.0,952.2,8.0,50.8,42,5.3,4.1,4.1,187.0,50.0,4.1,7,5,7,1,2026-07-20T12:22:28.306396+05:30
Chennai,Tamil Nadu,13.0827,80.2707,32.2,58,0.0,1006.5,8.2,43.9,76,25.9,18.3,13.0,212.0,80.0,14.9,0,5,4,1,2026-07-20T12:22:28.306405+05:30
Kolkata,West Bengal,22.5726,88.3639,30.9,77,0.1,1002.1,8.8,28.4,74,22.9,17.3,3.0,338.0,113.0,7.4,6,5,4,1,2026-07-20T12:22:28.306413+05:30
Pune,Maharashtra,18.5204,73.8567,25.6,78,0.0,946.9,5.75,51.1,19,6.1,3.1,3.4,144.0,50.0,4.1,7,5,3,1,2026-07-20T12:22:28.306420+05:30
Ahmedabad,Gujarat,23.0225,72.5714,32.3,64,0.3,997.6,6.25,35.6,62,33.4,14.5,2.6,136.0,78.0,5.2,6,5,7,1,2026-07-20T12:22:28.306427+05:30
Jaipur,Rajasthan,26.9124,75.7873,34.5,50,0.1,956.1,6.05,28.8,120,70.5,27.6,5.1,200.0,92.0,7.0,3,5,7,1,2026-07-20T12:22:28.306434+05:30
Lucknow,Uttar Pradesh,26.8467,80.9462,30.5,74,0.1,989.3,7.15,28.4,120,22.8,16.1,4.8,331.0,123.0,6.2,6,5,7,1,2026-07-20T12:22:28.306445+05:30
Kanpur,Uttar Pradesh,26.4499,80.3319,28.1,89,0.1,988.2,4.35,23.4,105,11.8,9.1,5.1,194.0,101.0,5.6,10,5,3,1,2026-07-20T12:22:28.306453+05:30
Chandigarh,Chandigarh,30.7333,76.7794,26.3,94,0.0,964.8,4.05,27.7,163,187.2,61.5,4.6,341.0,137.0,11.9,7,5,3,1,2026-07-20T12:22:28.306460+05:30
Srinagar,Jammu and Kashmir,34.0837,74.7973,28.6,57,0.0,839.5,8.75,18.7,73,16.9,12.7,1.8,317.0,140.0,4.0,4,5,7,1,2026-07-20T12:22:28.306467+05:30
Jammu,Jammu and Kashmir,32.7266,74.857,31.4,72,0.0,967.4,8.45,25.9,132,132.2,53.8,3.5,246.0,133.0,5.4,3,5,7,1,2026-07-20T12:22:28.306474+05:30
Amritsar,Punjab,31.634,74.8723,31.6,77,0.1,975.3,8.3,33.5,183,493.6,149.5,4.3,329.0,164.0,10.9,6,5,7,1,2026-07-20T12:22:28.306481+05:30
Ludhiana,Punjab,30.901,75.8573,30.3,82,0.0,973.9,5.85,31.0,190,291.5,85.7,4.9,315.0,143.0,9.7,3,5,3,1,2026-07-20T12:22:28.306487+05:30
Jalandhar,Punjab,31.326,75.5762,30.8,79,0.0,974.8,7.75,31.7,185,390.2,113.4,5.3,303.0,153.0,11.6,3,5,7,1,2026-07-20T12:22:28.306495+05:30
Dehradun,Uttarakhand,30.6284,78.0322,19.0,100,0.0,829.0,5.35,17.3,57,28.6,12.8,2.2,210.0,105.0,2.6,3,10,3,1,2026-07-20T12:22:28.306502+05:30
Shimla,Himachal Pradesh,31.1048,77.1734,17.1,89,0.0,782.9,7.4,21.6,88,96.9,36.2,3.2,188.0,112.0,4.5,3,10,7,0,2026-07-20T12:22:28.306512+05:30
Manali,Himachal Pradesh,32.2396,77.1887,23.8,90,0.1,818.6,8.45,27.4,32,3.5,2.9,4.1,189.0,111.0,0.4,6,5,7,1,2026-07-20T12:22:28.306521+05:30
Gurgaon,Haryana,28.4595,77.0266,30.2,76,0.0,977.5,7.3,25.6,371,138.3,47.1,11.8,208.0,97.0,12.7,3,5,7,1,2026-07-20T12:22:28.306528+05:30
Noida,Uttar Pradesh,28.5355,77.391,30.1,84,0.1,980.4,6.05,24.8,371,138.3,47.1,11.8,464.0,97.0,12.7,6,5,7,1,2026-07-20T12:22:28.306534+05:30
Ghaziabad,Uttar Pradesh,28.6692,77.4538,30.3,81,0.1,978.7,4.35,29.2,161,93.1,38.5,8.1,341.0,124.0,17.1,6,5,3,1,2026-07-20T12:22:28.306541+05:30
Faridabad,Haryana,28.4089,77.3178,29.5,82,0.0,979.7,5.5,31.3,371,138.3,47.1,11.8,354.0,97.0,12.7,7,5,3,1,2026-07-20T12:22:28.306548+05:30
Meerut,Uttar Pradesh,28.9845,77.7064,29.8,81,0.2,977.5,6.15,27.0,161,93.1,38.5,8.1,288.0,124.0,17.1,10,5,7,1,2026-07-20T12:22:28.306555+05:30
Agra,Uttar Pradesh,27.1767,78.0081,30.2,82,0.4,984.1,1.3,25.2,89,31.7,20.4,10.4,179.0,71.0,5.6,6,5,3,1,2026-07-20T12:22:28.306562+05:30
Varanasi,Uttar Pradesh,25.3176,82.9739,29.8,81,0.0,993.5,4.25,18.4,116,29.0,24.7,4.7,321.0,157.0,12.7,7,5,3,1,2026-07-20T12:22:28.306569+05:30
Prayagraj,Uttar Pradesh,25.4358,81.8463,31.5,73,0.0,991.8,7.15,24.8,115,29.2,21.5,3.5,236.0,162.0,10.9,3,5,7,1,2026-07-20T12:22:28.306576+05:30
Gorakhpur,Uttar Pradesh,26.7606,83.3732,27.5,92,0.0,994.0,8.2,24.8,70,7.3,7.3,3.3,338.0,133.0,7.8,7,5,7,1,2026-07-20T12:22:28.306582+05:30
Bareilly,Uttar Pradesh,28.367,79.4304,27.5,92,0.0,983.4,0.7,23.8,99,20.3,18.3,10.0,318.0,87.0,4.4,7,5,3,1,2026-07-20T12:22:28.306591+05:30
Aligarh,Uttar Pradesh,27.8974,78.088,29.0,87,0.3,981.9,2.6,23.4,134,51.9,28.1,8.3,227.0,96.0,8.8,10,5,3,1,2026-07-20T12:22:28.306598+05:30
Moradabad,Uttar Pradesh,28.8386,78.7733,27.0,94,0.0,980.4,5.85,25.9,123,22.9,19.4,10.2,318.0,90.0,6.2,7,5,3,1,2026-07-20T12:22:28.306605+05:30
Saharanpur,Uttar Pradesh,29.9637,77.546,28.3,87,0.1,972.1,5.1,24.5,150,54.4,22.1,4.9,244.0,97.0,8.4,10,5,3,1,2026-07-20T12:22:28.306612+05:30
Jhansi,Uttar Pradesh,25.4484,78.5685,30.6,86,0.3,974.4,1.9,25.9,81,21.5,16.2,7.9,226.0,67.0,8.2,6,5,3,1,2026-07-20T12:22:31.558200+05:30
Surat,Gujarat,21.1702,72.8311,27.5,90,0.0,1003.8,7.15,49.3,64,28.3,17.3,16.1,338.0,37.0,41.3,7,5,4,1,2026-07-20T12:22:31.558233+05:30
Vadodara,Gujarat,22.3072,73.1812,30.1,76,0.0,1000.5,6.9,40.0,61,28.6,13.0,3.3,136.0,64.0,4.7,3,5,4,1,2026-07-20T12:22:31.558244+05:30
Rajkot,Gujarat,22.3039,70.8022,31.5,63,0.1,989.7,6.35,53.3,58,33.8,14.1,1.5,106.0,70.0,3.9,6,5,7,1,2026-07-20T12:22:31.558253+05:30
Thane,Maharashtra,19.2183,72.9781,26.7,90,0.4,1006.5,7.7,36.4,55,34.9,16.4,7.2,246.0,67.0,9.9,10,5,4,1,2026-07-20T12:22:31.558261+05:30
Nagpur,Maharashtra,21.1458,79.0882,30.3,69,0.1,969.9,5.4,30.2,67,13.7,9.6,9.7,179.0,66.0,21.6,6,5,3,1,2026-07-20T12:22:31.558269+05:30
Nashik,Maharashtra,19.9975,73.7898,25.4,85,0.0,943.1,6.35,51.5,20,14.9,5.7,1.8,136.0,54.0,2.1,7,5,7,1,2026-07-20T12:22:31.558277+05:30
Aurangabad,Maharashtra,19.8762,75.3433,28.5,67,0.0,942.4,7.35,53.3,31,6.7,3.8,1.6,121.0,66.0,4.7,7,5,7,1,2026-07-20T12:22:31.558285+05:30
Solapur,Maharashtra,17.6599,75.9064,30.7,56,0.0,956.7,7.4,47.5,34,4.3,2.7,1.3,109.0,62.0,1.9,0,5,7,1,2026-07-20T12:22:31.558293+05:30
Kolhapur,Maharashtra,16.705,74.2433,24.5,84,0.0,948.3,7.85,47.9,27,7.2,5.0,3.6,135.0,46.0,2.3,3,5,7,1,2026-07-20T12:22:31.558301+05:30
Goa,Goa,15.2993,74.124,26.1,94,0.0,1000.2,5.25,34.6,58,18.2,8.7,1.2,129.0,51.0,0.9,7,5,0,1,2026-07-20T12:22:31.558309+05:30
Jodhpur,Rajasthan,26.2389,73.0243,33.7,51,0.0,978.2,7.9,37.1,86,160.2,39.2,1.0,111.0,76.0,2.5,0,5,7,1,2026-07-20T12:22:31.558317+05:30
Udaipur,Rajasthan,24.5854,73.7125,28.9,64,0.1,943.0,6.05,32.8,64,24.2,12.4,3.5,110.0,58.0,5.2,10,5,7,1,2026-07-20T12:22:31.558324+05:30
Kota,Rajasthan,25.2138,75.8648,31.5,64,0.0,975.3,1.35,29.2,75,26.7,17.1,6.1,154.0,71.0,13.0,3,5,3,1,2026-07-20T12:22:31.558331+05:30
Bikaner,Rajasthan,28.0229,73.3119,37.6,39,0.0,976.2,8.4,36.7,98,137.4,43.0,0.5,110.0,77.0,2.8,0,5,10,1,2026-07-20T12:22:31.558340+05:30
Ajmer,Rajasthan,26.4499,74.6399,31.6,59,0.0,951.2,7.45,34.9,68,48.5,23.7,2.1,119.0,88.0,5.1,0,5,7,1,2026-07-20T12:22:31.558347+05:30
Gwalior,Madhya Pradesh,26.2183,78.1828,29.9,73,0.0,979.7,1.4,29.5,74,19.8,14.9,7.7,177.0,64.0,5.6,7,5,3,1,2026-07-20T12:22:31.558355+05:30
Indore,Madhya Pradesh,22.7196,75.8577,31.0,60,0.1,945.6,5.4,33.1,60,18.5,11.5,3.6,184.0,66.0,6.4,3,5,3,1,2026-07-20T12:22:31.558362+05:30
Bhopal,Madhya Pradesh,23.2599,77.4126,29.1,70,0.0,950.8,6.2,29.9,69,20.4,13.0,2.2,244.0,89.0,5.4,7,5,7,1,2026-07-20T12:22:31.558370+05:30
Jabalpur,Madhya Pradesh,23.1815,79.9864,29.4,76,0.8,957.9,1.95,27.0,83,24.6,16.4,2.0,192.0,99.0,3.5,10,5,3,1,2026-07-20T12:22:31.558377+05:30
Ujjain,Madhya Pradesh,23.1765,75.7885,29.4,70,0.0,950.7,4.55,29.5,61,19.6,12.1,2.1,156.0,74.0,6.3,7,5,3,1,2026-07-20T12:22:31.558385+05:30
Visakhapatnam,Andhra Pradesh,17.6868,83.2185,32.3,66,0.1,999.5,7.5,38.9,75,28.6,22.9,15.8,328.0,88.0,39.6,6,5,7,1,2026-07-20T12:22:31.558393+05:30
Vijayawada,Andhra Pradesh,16.5062,80.648,31.7,58,0.0,1000.4,6.65,42.1,57,10.2,7.2,2.2,128.0,78.0,5.8,0,5,4,1,2026-07-20T12:22:31.558401+05:30
Guntur,Andhra Pradesh,16.3067,80.4365,31.3,54,0.0,1001.8,6.5,40.0,54,10.9,7.0,2.3,131.0,71.0,5.7,0,5,4,1,2026-07-20T12:22:31.558409+05:30
Nellore,Andhra Pradesh,14.4426,79.9865,31.8,57,0.0,1005.2,6.85,36.7,61,13.2,7.0,2.6,113.0,67.0,5.4,0,5,4,1,2026-07-20T12:22:31.558417+05:30
Kurnool,Andhra Pradesh,15.8281,78.0373,31.8,57,0.1,976.8,8.55,49.0,42,7.5,4.1,1.8,111.0,60.0,2.1,3,5,7,1,2026-07-20T12:22:31.558426+05:30
Kakinada,Andhra Pradesh,16.9891,82.2475,33.3,59,0.0,1003.9,7.75,49.3,65,16.9,12.4,2.1,165.0,105.0,5.4,0,5,4,1,2026-07-20T12:22:31.558433+05:30
Tirupati,Andhra Pradesh,13.6288,79.4192,32.5,52,0.0,990.6,8.75,31.0,61,14.5,6.7,1.5,104.0,66.0,1.5,0,5,7,1,2026-07-20T12:22:31.558441+05:30
Warangal,Telangana,17.9689,79.5941,30.9,67,1.2,976.5,5.5,45.7,56,11.1,6.5,1.9,130.0,65.0,2.4,6,5,3,1,2026-07-20T12:22:31.558448+05:30
Nizamabad,Telangana,18.6725,78.0941,28.3,78,1.3,963.4,6.85,46.1,50,12.2,6.8,1.6,118.0,71.0,4.9,10,5,7,1,2026-07-20T12:22:31.558455+05:30
Mysore,Karnataka,12.2958,76.6396,28.5,57,0.0,930.4,7.9,49.7,30,5.9,3.1,1.6,115.0,62.0,1.5,4,5,7,1,2026-07-20T12:22:31.558462+05:30
Mangalore,Karnataka,12.9141,74.856,27.2,82,0.2,1009.8,8.55,37.4,54,17.5,8.1,1.7,168.0,57.0,2.1,10,0,4,1,2026-07-20T12:22:31.558470+05:30
Hubli-Dharwad,Karnataka,15.3647,75.124,26.8,69,0.0,941.9,8.1,56.2,21,4.4,2.7,3.5,103.0,43.0,1.1,7,5,7,1,2026-07-20T12:22:31.558477+05:30
Belgaum,Karnataka,15.8497,74.4977,23.5,86,0.0,926.5,6.6,49.3,21,3.5,2.4,3.4,110.0,41.0,1.7,3,5,7,1,2026-07-20T12:22:34.829069+05:30
Coimbatore,Tamil Nadu,11.0168,76.9558,30.8,53,0.0,962.7,8.45,53.3,35,9.0,4.7,1.2,131.0,63.0,1.7,0,5,7,1,2026-07-20T12:22:34.829106+05:30
Madurai,Tamil Nadu,9.9252,78.1198,36.5,36,0.0,993.0,7.15,34.9,64,12.1,6.8,1.9,142.0,83.0,2.4,0,5,10,1,2026-07-20T12:22:34.829120+05:30
Trichy,Tamil Nadu,10.7905,78.7047,34.9,43,0.0,999.3,7.6,52.6,52,8.6,5.0,1.4,115.0,69.0,2.1,0,5,7,1,2026-07-20T12:22:34.829130+05:30
Salem,Tamil Nadu,11.6643,78.146,32.0,55,0.0,977.9,8.6,33.8,58,16.2,10.3,2.8,163.0,94.0,7.6,0,5,7,1,2026-07-20T12:22:34.829141+05:30
Tirunelveli,Tamil Nadu,8.7139,77.7567,37.7,33,0.0,1003.5,8.25,44.6,33,6.1,3.8,1.1,126.0,66.0,1.1,0,5,7,1,2026-07-20T12:22:34.829150+05:30
Vellore,Tamil Nadu,12.9165,79.1325,35.2,41,0.0,983.8,8.2,38.9,71,16.8,8.6,1.9,146.0,78.0,2.8,0,5,10,1,2026-07-20T12:22:34.829159+05:30
Erode,Tamil Nadu,11.341,77.7172,35.2,41,0.0,989.2,8.0,42.1,51,10.3,6.4,2.0,145.0,77.0,2.4,0,5,10,1,2026-07-20T12:22:34.829168+05:30
Kochi,Kerala,9.9312,76.2673,28.5,77,0.0,1011.6,7.75,34.2,51,10.2,5.8,2.7,126.0,57.0,2.6,7,0,4,1,2026-07-20T12:22:34.829179+05:30
Thiruvananthapuram,Kerala,8.5241,76.9366,28.8,74,0.1,1010.6,7.4,42.8,44,13.1,8.2,2.1,107.0,68.0,1.6,10,0,4,1,2026-07-20T12:22:34.829188+05:30
Kozhikode,Kerala,11.2588,75.7804,28.8,75,0.1,1010.7,8.0,32.4,33,11.5,5.3,0.6,113.0,59.0,1.1,10,0,4,1,2026-07-20T12:22:34.829198+05:30
Thrissur,Kerala,10.5276,76.2144,29.0,75,0.1,1009.7,8.35,35.3,50,9.0,5.4,1.5,115.0,58.0,1.6,10,0,4,1,2026-07-20T12:22:34.829208+05:30
Kannur,Kerala,11.8745,75.3704,28.1,76,0.0,1010.3,8.55,32.8,43,11.4,5.6,1.5,114.0,58.0,1.4,7,0,4,1,2026-07-20T12:22:34.829216+05:30
Patna,Bihar,25.5941,85.1376,28.3,92,0.1,997.3,5.15,25.9,88,32.7,32.1,11.6,383.0,96.0,19.8,10,5,3,1,2026-07-20T12:22:34.829226+05:30
Gaya,Bihar,24.7914,85.0002,28.9,88,0.0,990.4,1.15,23.0,82,17.6,16.1,4.7,301.0,118.0,10.6,7,5,3,1,2026-07-20T12:22:34.829235+05:30
Muzaffarpur,Bihar,26.1209,85.3647,27.8,90,0.0,997.6,7.9,31.7,76,25.2,25.0,10.6,361.0,100.0,16.2,7,5,7,1,2026-07-20T12:22:34.829244+05:30
Bhagalpur,Bihar,25.2425,87.0117,29.4,85,0.3,998.3,4.55,28.4,79,14.8,13.5,9.4,281.0,95.0,18.8,10,5,3,1,2026-07-20T12:22:34.829252+05:30
Ranchi,Jharkhand,23.3441,85.3096,28.0,76,0.1,934.5,4.6,31.3,65,13.4,10.3,2.2,220.0,117.0,11.1,10,5,3,1,2026-07-20T12:22:34.829261+05:30
Jamshedpur,Jharkhand,22.8046,86.2029,31.3,75,0.4,986.5,7.75,31.0,87,33.8,29.1,4.9,297.0,153.0,27.1,6,5,7,1,2026-07-20T12:22:34.829269+05:30
Dhanbad,Jharkhand,23.7957,86.4304,29.7,80,0.1,976.3,7.4,32.0,136,44.7,42.3,27.7,946.0,121.0,71.5,10,5,7,1,2026-07-20T12:22:34.829278+05:30
Bokaro,Jharkhand,23.6693,86.1511,29.8,79,0.1,980.1,7.15,35.3,133,35.6,32.2,18.5,1273.0,137.0,58.6,10,5,7,1,2026-07-20T12:22:34.829287+05:30
Bhubaneswar,Odisha,20.2961,85.8245,31.9,76,0.0,998.2,8.05,27.4,87,25.4,20.3,2.9,209.0,145.0,11.4,3,5,7,1,2026-07-20T12:22:34.829296+05:30
Cuttack,Odisha,20.4625,85.8828,32.5,72,0.1,999.9,8.45,30.6,87,25.4,20.3,2.9,235.0,145.0,11.4,6,5,7,1,2026-07-20T12:22:34.829305+05:30
Rourkela,Odisha,22.2604,84.8536,30.8,73,0.0,980.6,5.65,29.2,81,28.1,21.4,4.0,248.0,129.0,19.1,3,5,3,1,2026-07-20T12:22:34.829313+05:30
Raipur,Chhattisgarh,21.2514,81.6296,30.6,72,1.2,970.7,6.85,31.7,91,17.3,16.2,23.7,213.0,56.0,47.1,6,5,7,1,2026-07-20T12:22:34.829322+05:30
Bhilai,Chhattisgarh,21.1938,81.3509,30.0,76,0.5,971.1,6.95,32.4,84,16.7,15.0,19.2,564.0,62.0,41.4,10,5,7,1,2026-07-20T12:22:34.829331+05:30
Guwahati,Assam,26.1158,91.7086,28.5,87,0.1,999.6,5.6,20.2,50,5.0,4.9,1.4,196.0,95.0,1.6,10,5,3,1,2026-07-20T12:22:34.829339+05:30
Agartala,Tripura,23.8315,91.2868,27.0,92,1.6,1004.5,5.6,30.2,49,8.9,7.9,5.0,138.0,68.0,1.4,10,5,0,1,2026-07-20T12:22:34.829348+05:30
Shillong,Meghalaya,25.5788,91.8933,20.0,100,0.3,856.7,2.85,24.1,21,2.5,2.4,2.9,218.0,68.0,1.7,6,5,3,1,2026-07-20T12:22:34.829357+05:30
Imphal,Manipur,24.817,93.9368,28.3,66,0.0,922.4,2.2,27.4,43,3.4,3.4,3.8,185.0,57.0,1.0,7,5,3,1,2026-07-20T12:22:34.829365+05:30
Aizawl,Mizoram,23.7271,92.7176,20.8,93,0.2,891.7,1.05,19.1,46,5.6,4.4,2.1,111.0,51.0,0.6,6,5,3,1,2026-07-20T12:22:34.829373+05:30
Kohima,Nagaland,25.6701,94.1077,21.0,98,1.3,854.9,6.2,23.0,21,2.2,2.2,1.1,147.0,66.0,0.6,6,5,7,1,2026-07-20T12:22:34.829382+05:30
Gangtok,Sikkim,27.3314,88.6138,19.8,98,0.2,838.5,7.25,32.8,38,3.0,3.0,3.4,244.0,86.0,0.9,6,10,7,1,2026-07-20T12:22:34.829391+05:30
Siliguri,West Bengal,26.7271,88.3953,28.1,87,0.0,991.5,3.3,27.0,51,9.5,9.4,8.2,348.0,87.0,2.5,7,5,3,1,2026-07-20T12:22:38.090699+05:30
Durgapur,West Bengal,23.5204,87.3119,29.6,89,0.3,991.7,8.7,28.8,105,39.2,35.3,19.6,243.0,122.0,49.8,10,5,7,1,2026-07-20T12:22:38.090732+05:30
Asansol,West Bengal,23.6739,86.9524,30.5,81,0.6,990.1,7.95,30.2,99,37.6,35.9,21.3,366.0,119.0,54.4,6,5,7,1,2026-07-20T12:22:38.090744+05:30
Pondicherry,Puducherry,11.9139,79.8145,32.9,55,0.0,1007.9,8.4,40.0,66,18.9,13.5,4.6,211.0,94.0,7.7,0,5,4,1,2026-07-20T12:22:38.090754+05:30
Port Blair,Andaman and Nicobar Islands,11.6234,92.7265,31.5,60,0.0,1007.8,7.1,43.2,51,22.5,11.7,0.2,85.0,48.0,0.5,0,5,4,1,2026-07-20T12:22:38.090762+05:30
Haridwar,Uttarakhand,29.9457,78.1642,26.0,100,0.1,970.8,5.15,28.8,128,39.0,14.2,3.7,251.0,96.0,7.6,10,5,3,1,2026-07-20T12:22:38.090771+05:30
Rishikesh,Uttarakhand,30.0869,78.2676,25.6,100,0.1,963.5,5.25,23.0,91,12.9,6.4,3.2,229.0,92.0,2.9,10,5,3,1,2026-07-20T12:22:38.090779+05:30
Nainital,Uttarakhand,29.3919,79.4542,20.5,84,0.0,805.6,1.25,37.1,55,10.0,9.3,3.7,272.0,96.0,1.1,3,5,3,1,2026-07-20T12:22:38.090787+05:30
Mussoorie,Uttarakhand,30.4599,78.0664,17.7,100,0.6,801.9,4.85,23.8,89,17.0,8.0,5.9,218.0,92.0,7.6,6,10,3,1,2026-07-20T12:22:38.090796+05:30
Dharamshala,Himachal Pradesh,32.219,76.3234,22.0,100,0.0,866.4,5.75,25.6,45,17.3,8.6,3.3,294.0,93.0,1.1,3,5,3,1,2026-07-20T12:22:38.090804+05:30
Dalhousie,Himachal Pradesh,32.5387,75.971,18.9,100,0.0,803.0,4.0,21.2,91,77.8,30.7,5.4,394.0,113.0,3.1,3,10,3,1,2026-07-20T12:22:38.090813+05:30
Patiala,Punjab,30.3398,76.3869,30.1,80,0.0,973.7,7.3,29.5,182,191.9,64.0,5.1,269.0,132.0,9.0,3,5,7,1,2026-07-20T12:22:38.090822+05:30
Bhatinda,Punjab,30.211,74.9455,36.8,51,0.0,978.0,6.25,33.8,372,312.9,103.1,4.5,149.0,146.0,10.6,0,5,10,1,2026-07-20T12:22:38.090830+05:30
Rohtak,Haryana,28.8955,76.6066,29.3,84,0.0,977.6,5.25,25.9,504,436.8,72.9,4.1,165.0,110.0,3.4,7,5,3,1,2026-07-20T12:22:38.090839+05:30
Panipat,Haryana,29.3909,76.9635,28.8,89,0.0,976.1,5.2,35.6,545,373.5,76.4,6.1,327.0,122.0,13.6,7,5,3,1,2026-07-20T12:22:38.090847+05:30
Mathura,Uttar Pradesh,27.4924,77.6737,29.6,86,0.2,983.2,2.3,25.9,147,56.5,27.5,8.5,192.0,73.0,4.7,10,5,3,1,2026-07-20T12:22:38.090855+05:30
Vrindavan,Uttar Pradesh,27.5823,77.7027,29.7,86,0.2,983.5,2.1,25.6,147,56.5,27.5,8.5,198.0,73.0,4.7,10,5,3,1,2026-07-20T12:22:38.090863+05:30
Ayodhya,Uttar Pradesh,26.7922,82.1998,30.6,77,0.1,991.6,7.5,27.4,80,9.7,9.7,4.1,375.0,124.0,7.5,6,5,7,1,2026-07-20T12:22:38.090871+05:30
Ratlam,Madhya Pradesh,23.3315,75.0367,30.0,68,0.0,951.7,5.85,31.3,61,18.2,10.9,1.8,124.0,75.0,6.2,7,5,3,1,2026-07-20T12:22:38.090879+05:30
Sagar,Madhya Pradesh,23.8388,78.7378,26.4,89,0.2,946.8,7.15,30.2,74,22.8,14.1,1.6,147.0,95.0,3.1,10,5,7,1,2026-07-20T12:22:38.090887+05:30
Satna,Madhya Pradesh,24.6005,80.8322,30.2,73,0.0,967.4,1.55,28.4,94,45.5,20.3,1.4,154.0,114.0,4.1,3,5,3,1,2026-07-20T12:22:38.090894+05:30
Akola,Maharashtra,20.7002,77.0082,32.5,54,0.0,972.7,8.5,47.9,50,15.4,8.2,2.8,121.0,68.0,8.4,0,5,7,1,2026-07-20T12:22:38.090902+05:30
Amravati,Maharashtra,20.9374,77.7796,30.4,64,0.0,965.0,7.35,39.2,51,16.7,8.9,3.2,126.0,68.0,9.7,3,5,7,1,2026-07-20T12:22:38.090911+05:30
Latur,Maharashtra,18.4088,76.5604,28.2,66,0.0,938.9,3.0,42.5,32,6.1,3.5,1.4,120.0,56.0,1.9,7,5,3,1,2026-07-20T12:22:38.090918+05:30
Nanded,Maharashtra,19.1383,77.3091,27.4,75,0.0,967.1,2.55,40.7,49,10.4,5.5,1.2,121.0,68.0,2.4,7,5,3,1,2026-07-20T12:22:38.090926+05:30
Gulbarga,Karnataka,17.3297,76.8343,30.1,68,0.6,958.3,6.8,55.4,33,4.6,3.0,1.9,112.0,59.0,2.6,6,5,7,1,2026-07-20T12:22:38.090934+05:30
Bidar,Karnataka,17.9104,77.5199,27.9,69,0.0,934.8,7.8,49.7,46,5.7,4.2,2.7,120.0,57.0,2.0,7,5,7,1,2026-07-20T12:22:38.090941+05:30
Hospet,Karnataka,15.2689,76.3909,30.7,60,0.3,956.5,8.6,56.5,31,3.6,2.6,2.8,110.0,49.0,1.9,3,5,7,1,2026-07-20T12:22:38.090949+05:30
Tirupur,Tamil Nadu,11.1085,77.3411,33.3,48,0.0,976.0,8.35,53.3,53,11.0,6.7,1.9,140.0,76.0,2.6,0,5,7,1,2026-07-20T12:22:38.090956+05:30
Alappuzha,Kerala,9.4981,76.3388,28.7,77,0.0,1011.5,8.45,34.9,51,12.5,7.2,2.5,91.0,62.0,2.7,7,0,4,1,2026-07-20T12:22:38.090964+05:30
Munnar,Kerala,10.0889,77.0595,19.1,90,0.0,859.1,8.25,38.9,24,5.4,2.8,0.8,95.0,55.0,1.0,3,10,7,1,2026-07-20T12:22:38.090972+05:30
Silchar,Assam,24.8333,92.7789,27.9,77,0.2,1004.3,1.0,19.4,61,11.1,9.5,3.6,155.0,61.0,2.9,10,5,0,1,2026-07-20T12:22:38.090980+05:30
Dibrugarh,Assam,27.4728,94.912,31.9,64,0.0,992.4,8.05,26.3,78,11.4,10.5,1.2,134.0,115.0,1.6,3,5,7,1,2026-07-20T12:22:38.090987+05:30
