city,state,latitude,longitude,temp,humidity,rain,pressure,uv_index,wind_gusts,aqi,pm10,pm2_5,no2,co,o3,so2,mosquito_risk,arthritis_risk,migraine_risk,frizz_risk,updated_at
Delhi,Delhi,28.6139,77.209,37.5,26,0.0,980.3,7.8,33.5,165,215.6,71.7,15.1,346.0,201.0,32.5,0,5,10,0,2026-06-07T10:53:52.142963+05:30
Mumbai,Maharashtra,19.076,72.8777,33.5,56,0.0,1008.2,7.6,40.0,76,72.6,29.5,5.7,172.0,90.0,10.5,0,0,4,1,2026-06-07T10:53:52.143009+05:30
Bangalore,Karnataka,12.9716,77.5946,25.9,67,0.0,913.4,8.25,43.2,21,2.4,2.4,3.6,293.0,65.0,3.8,7,5,7,1,2026-06-07T10:53:52.143024+05:30
Hyderabad,Telangana,17.385,78.4867,30.1,59,0.0,952.8,4.05,44.3,81,36.1,22.9,4.9,249.0,109.0,7.0,0,5,3,1,2026-06-07T10:53:52.143033+05:30
Chennai,Tamil Nadu,13.0827,80.2707,36.3,41,0.0,1006.2,7.2,45.0,52,9.9,8.6,6.0,225.0,94.0,10.6,0,5,7,1,2026-06-07T10:53:52.143041+05:30
Kolkata,West Bengal,22.5726,88.3639,27.8,91,0.2,1003.7,6.6,28.1,138,44.6,38.8,9.7,511.0,125.0,20.4,10,5,4,1,2026-06-07T10:53:52.143049+05:30
Pune,Maharashtra,18.5204,73.8567,32.3,49,0.0,948.7,8.3,43.2,58,55.4,21.4,2.5,133.0,87.0,6.1,0,5,7,1,2026-06-07T10:53:52.143055+05:30
Ahmedabad,Gujarat,23.0225,72.5714,35.4,48,0.0,1000.4,8.05,39.6,82,59.8,24.6,2.3,148.0,79.0,6.2,0,5,7,1,2026-06-07T10:53:52.143062+05:30
Jaipur,Rajasthan,26.9124,75.7873,35.0,42,0.0,958.0,8.25,25.2,136,259.8,51.8,1.8,171.0,94.0,4.8,0,5,7,1,2026-06-07T10:53:52.143072+05:30
Lucknow,Uttar Pradesh,26.8467,80.9462,36.9,40,0.0,990.4,8.35,34.9,154,178.3,60.5,4.6,324.0,180.0,13.4,0,5,10,1,2026-06-07T10:53:52.143078+05:30
Kanpur,Uttar Pradesh,26.4499,80.3319,37.6,34,0.0,988.9,8.35,31.3,171,353.0,69.2,4.2,280.0,159.0,9.5,0,5,10,1,2026-06-07T10:53:52.143084+05:30
Chandigarh,Chandigarh,30.7333,76.7794,34.2,37,0.0,966.5,7.8,27.0,91,40.6,25.5,3.0,365.0,183.0,12.0,0,5,7,1,2026-06-07T10:53:52.143091+05:30
Srinagar,Jammu and Kashmir,34.0837,74.7973,22.9,50,0.0,844.2,9.0,30.6,82,21.0,14.2,2.2,361.0,146.0,3.6,0,5,7,0,2026-06-07T10:53:52.143097+05:30
Jammu,Jammu and Kashmir,32.7266,74.857,36.0,24,0.0,970.1,8.6,27.7,74,21.0,14.8,4.1,229.0,154.0,3.8,0,5,10,0,2026-06-07T10:53:52.143103+05:30
Amritsar,Punjab,31.634,74.8723,37.9,22,0.0,977.7,8.5,25.9,131,42.1,28.0,2.4,365.0,169.0,7.8,0,5,10,0,2026-06-07T10:53:52.143109+05:30
Ludhiana,Punjab,30.901,75.8573,36.9,30,0.0,975.8,8.05,30.6,148,73.8,39.5,5.9,438.0,179.0,10.5,0,5,10,1,2026-06-07T10:53:52.143115+05:30
Jalandhar,Punjab,31.326,75.5762,37.2,27,0.0,976.7,8.25,29.2,151,47.1,33.3,5.7,383.0,177.0,7.3,0,5,10,0,2026-06-07T10:53:52.143122+05:30
Dehradun,Uttarakhand,30.6284,78.0322,25.4,35,0.0,832.4,8.25,40.7,56,21.4,12.7,0.3,199.0,152.0,3.0,4,5,7,0,2026-06-07T10:53:52.143128+05:30
Shimla,Himachal Pradesh,31.1048,77.1734,22.8,27,0.0,787.9,8.35,40.3,56,17.7,9.8,0.0,163.0,152.0,1.7,0,5,7,0,2026-06-07T10:53:52.143136+05:30
Manali,Himachal Pradesh,32.2396,77.1887,24.1,34,0.0,820.8,8.95,36.0,88,7.4,5.3,3.1,145.0,148.0,0.2,0,5,7,0,2026-06-07T10:53:52.143142+05:30
Gurgaon,Haryana,28.4595,77.0266,37.2,27,0.0,978.9,7.9,28.4,175,745.1,129.9,15.9,259.0,173.0,31.1,0,5,10,0,2026-06-07T10:53:52.143148+05:30
Noida,Uttar Pradesh,28.5355,77.391,36.8,30,0.0,981.7,7.85,20.2,175,745.1,129.9,15.9,396.0,173.0,31.1,0,5,10,1,2026-06-07T10:53:52.143156+05:30
Ghaziabad,Uttar Pradesh,28.6692,77.4538,35.0,39,0.0,980.1,7.8,25.9,172,229.6,71.9,8.1,408.0,208.0,23.3,0,5,7,1,2026-06-07T10:53:52.143163+05:30
Faridabad,Haryana,28.4089,77.3178,37.1,27,0.0,980.9,7.85,36.0,175,745.1,129.9,15.9,300.0,173.0,31.1,0,5,10,0,2026-06-07T10:53:52.143169+05:30
Meerut,Uttar Pradesh,28.9845,77.7064,33.7,44,0.0,979.0,7.7,26.3,172,229.6,71.9,8.1,318.0,208.0,23.3,0,5,7,1,2026-06-07T10:53:52.143176+05:30
Agra,Uttar Pradesh,27.1767,78.0081,36.3,30,0.0,985.4,8.15,29.2,269,979.8,129.5,3.4,224.0,118.0,5.3,0,5,10,0,2026-06-07T10:53:52.143182+05:30
Varanasi,Uttar Pradesh,25.3176,82.9739,37.1,36,0.0,993.9,8.75,40.3,150,170.4,58.1,4.6,283.0,157.0,17.2,0,5,10,1,2026-06-07T10:53:52.143189+05:30
Prayagraj,Uttar Pradesh,25.4358,81.8463,37.9,31,0.0,992.6,8.7,38.2,160,204.4,69.2,5.1,294.0,171.0,14.2,0,5,10,1,2026-06-07T10:53:52.143196+05:30
Gorakhpur,Uttar Pradesh,26.7606,83.3732,32.9,58,0.0,994.2,8.7,29.9,140,89.4,48.2,2.3,347.0,163.0,7.6,0,5,7,1,2026-06-07T10:53:52.143203+05:30
Bareilly,Uttar Pradesh,28.367,79.4304,34.8,47,0.0,983.7,8.15,30.6,124,105.0,45.6,3.2,407.0,178.0,13.4,0,5,7,1,2026-06-07T10:53:52.143209+05:30
Aligarh,Uttar Pradesh,27.8974,78.088,35.1,38,0.0,983.1,8.0,23.8,162,271.0,73.8,9.1,296.0,158.0,14.9,0,5,10,1,2026-06-07T10:53:52.143215+05:30
Moradabad,Uttar Pradesh,28.8386,78.7733,35.2,42,0.0,980.9,7.95,34.2,156,91.0,46.1,4.5,431.0,185.0,16.2,0,5,10,1,2026-06-07T10:53:52.143220+05:30
Saharanpur,Uttar Pradesh,29.9637,77.546,32.6,53,0.0,973.2,7.5,25.2,114,53.4,32.4,3.7,453.0,186.0,9.9,0,5,7,1,2026-06-07T10:53:52.143226+05:30
Jhansi,Uttar Pradesh,25.4484,78.5685,36.4,31,0.0,976.2,8.5,27.7,87,105.5,38.0,1.4,149.0,104.0,6.0,0,5,10,1,2026-06-07T10:53:55.492610+05:30
Surat,Gujarat,21.1702,72.8311,34.4,56,0.0,1005.8,7.15,46.1,92,93.8,34.5,12.6,331.0,57.0,37.5,0,5,4,1,2026-06-07T10:53:55.492639+05:30
Vadodara,Gujarat,22.3072,73.1812,35.8,45,0.0,1002.8,7.35,45.0,90,67.3,28.3,2.5,143.0,78.0,5.0,0,5,7,1,2026-06-07T10:53:55.492647+05:30
Rajkot,Gujarat,22.3039,70.8022,34.6,49,0.0,992.7,6.85,47.5,74,60.8,21.0,1.6,114.0,79.0,4.6,0,5,7,1,2026-06-07T10:53:55.492654+05:30
Thane,Maharashtra,19.2183,72.9781,35.1,51,0.0,1007.3,7.55,36.0,76,72.6,29.5,5.7,171.0,90.0,10.5,0,5,7,1,2026-06-07T10:53:55.492661+05:30
Nagpur,Maharashtra,21.1458,79.0882,37.8,30,0.0,971.5,8.2,36.4,90,81.0,39.9,4.7,179.0,129.0,16.5,0,5,10,1,2026-06-07T10:53:55.492668+05:30
Nashik,Maharashtra,19.9975,73.7898,32.2,48,0.0,946.1,8.05,40.3,63,69.4,25.2,2.3,125.0,81.0,5.6,0,5,7,1,2026-06-07T10:53:55.492674+05:30
Aurangabad,Maharashtra,19.8762,75.3433,33.4,40,0.0,945.0,9.0,45.4,65,69.6,24.9,1.9,130.0,88.0,4.4,0,5,7,1,2026-06-07T10:53:55.492680+05:30
Solapur,Maharashtra,17.6599,75.9064,32.8,49,0.0,957.8,8.5,36.4,63,38.2,19.9,2.6,129.0,87.0,5.2,0,5,7,1,2026-06-07T10:53:55.492686+05:30
Kolhapur,Maharashtra,16.705,74.2433,30.2,58,0.0,948.8,4.75,41.4,40,24.6,11.0,2.3,129.0,67.0,1.8,0,5,3,1,2026-06-07T10:53:55.492693+05:30
Goa,Goa,15.2993,74.124,28.9,76,0.0,999.1,2.65,23.0,44,12.2,6.9,1.2,134.0,65.0,1.1,7,5,3,1,2026-06-07T10:53:55.492698+05:30
Jodhpur,Rajasthan,26.2389,73.0243,35.3,46,0.0,980.4,8.45,36.4,133,225.8,53.7,1.0,122.0,80.0,3.2,0,5,10,1,2026-06-07T10:53:55.492705+05:30
Udaipur,Rajasthan,24.5854,73.7125,33.8,41,0.0,945.5,8.8,34.6,82,53.2,22.4,0.8,127.0,85.0,3.3,0,5,7,1,2026-06-07T10:53:55.492710+05:30
Kota,Rajasthan,25.2138,75.8648,36.4,42,0.0,976.8,8.4,24.8,98,55.6,29.6,1.7,166.0,107.0,6.6,0,5,10,1,2026-06-07T10:53:55.492716+05:30
Bikaner,Rajasthan,28.0229,73.3119,38.2,37,0.0,978.3,8.45,33.5,142,269.2,100.6,0.6,139.0,88.0,3.5,0,5,10,1,2026-06-07T10:53:55.492722+05:30
Ajmer,Rajasthan,26.4499,74.6399,34.1,48,0.0,952.9,8.35,40.3,93,89.6,30.0,1.2,128.0,86.0,3.5,0,5,7,1,2026-06-07T10:53:55.492728+05:30
Gwalior,Madhya Pradesh,26.2183,78.1828,36.3,31,0.0,981.2,8.3,30.6,90,98.3,32.9,1.2,141.0,100.0,3.1,0,5,10,1,2026-06-07T10:53:55.492734+05:30
Indore,Madhya Pradesh,22.7196,75.8577,32.5,52,0.0,947.9,8.65,32.0,95,66.4,33.1,2.3,172.0,90.0,9.4,0,5,7,1,2026-06-07T10:53:55.492739+05:30
Bhopal,Madhya Pradesh,23.2599,77.4126,34.4,43,0.0,953.0,8.7,32.0,100,67.1,30.3,1.1,216.0,108.0,4.4,0,5,7,1,2026-06-07T10:53:55.492745+05:30
Jabalpur,Madhya Pradesh,23.1815,79.9864,36.4,32,0.0,960.0,8.85,28.1,111,93.8,40.5,1.2,169.0,118.0,4.5,0,5,10,1,2026-06-07T10:53:55.492751+05:30
Ujjain,Madhya Pradesh,23.1765,75.7885,32.8,53,0.0,953.3,8.6,33.5,91,58.6,30.5,2.2,154.0,87.0,9.4,0,5,7,1,2026-06-07T10:53:55.492758+05:30
Visakhapatnam,Andhra Pradesh,17.6868,83.2185,36.7,50,0.0,999.6,8.3,42.1,101,38.1,30.0,9.3,340.0,147.0,34.0,0,5,10,1,2026-06-07T10:53:55.492764+05:30
Vijayawada,Andhra Pradesh,16.5062,80.648,36.6,45,0.0,1000.3,8.95,40.3,83,35.3,25.3,3.1,201.0,132.0,9.3,0,5,7,1,2026-06-07T10:53:55.492769+05:30
Guntur,Andhra Pradesh,16.3067,80.4365,36.4,46,0.0,1001.6,8.6,38.5,84,32.1,22.4,3.0,201.0,126.0,8.1,0,5,7,1,2026-06-07T10:53:55.492783+05:30
Nellore,Andhra Pradesh,14.4426,79.9865,34.7,50,0.0,1004.4,8.45,38.9,58,12.5,9.7,3.2,149.0,101.0,6.3,0,5,4,1,2026-06-07T10:53:55.492792+05:30
Kurnool,Andhra Pradesh,15.8281,78.0373,32.6,54,0.0,977.1,8.4,37.4,63,24.1,14.6,3.2,161.0,103.0,8.5,0,5,7,1,2026-06-07T10:53:55.492799+05:30
Kakinada,Andhra Pradesh,16.9891,82.2475,36.1,50,0.0,1003.9,8.2,38.2,73,34.6,26.2,2.9,262.0,146.0,6.0,0,5,7,1,2026-06-07T10:53:55.492804+05:30
Tirupati,Andhra Pradesh,13.6288,79.4192,34.9,43,0.0,990.4,8.85,31.0,43,12.3,7.8,1.9,152.0,93.0,1.8,0,5,7,1,2026-06-07T10:53:55.492809+05:30
Warangal,Telangana,17.9689,79.5941,34.9,44,0.0,977.1,7.95,37.4,91,47.8,29.1,3.2,199.0,118.0,5.8,0,5,7,1,2026-06-07T10:53:55.492815+05:30
Nizamabad,Telangana,18.6725,78.0941,34.5,42,0.0,964.3,8.8,44.6,86,52.6,29.3,2.3,156.0,117.0,6.5,0,5,7,1,2026-06-07T10:53:55.492821+05:30
Mysore,Karnataka,12.2958,76.6396,25.2,78,0.0,930.2,7.35,46.1,17,2.1,2.1,2.5,143.0,66.0,1.7,7,5,7,1,2026-06-07T10:53:55.492826+05:30
Mangalore,Karnataka,12.9141,74.856,27.4,82,0.0,1008.7,2.0,36.0,23,5.1,4.2,3.4,159.0,60.0,2.3,7,0,0,1,2026-06-07T10:53:55.492832+05:30
Hubli-Dharwad,Karnataka,15.3647,75.124,27.9,63,0.0,942.2,2.05,39.6,25,11.2,5.6,2.1,121.0,63.0,1.1,7,5,3,1,2026-06-07T10:53:55.492839+05:30
Belgaum,Karnataka,15.8497,74.4977,27.6,64,0.0,927.1,8.15,39.2,26,19.7,8.7,2.8,115.0,55.0,1.8,7,5,7,1,2026-06-07T10:53:58.833573+05:30
Coimbatore,Tamil Nadu,11.0168,76.9558,26.8,74,0.0,963.6,6.1,61.9,17,1.5,1.3,2.5,139.0,53.0,1.5,7,5,7,1,2026-06-07T10:53:58.833605+05:30
Madurai,Tamil Nadu,9.9252,78.1198,34.7,42,0.0,994.3,8.55,65.9,26,3.7,3.0,2.0,116.0,63.0,1.9,0,5,7,1,2026-06-07T10:53:58.833615+05:30
Trichy,Tamil Nadu,10.7905,78.7047,33.9,49,0.0,1000.7,8.4,42.8,31,10.1,7.1,2.2,120.0,71.0,2.8,0,5,4,1,2026-06-07T10:53:58.833622+05:30
Salem,Tamil Nadu,11.6643,78.146,32.6,48,0.0,978.9,8.7,42.8,34,5.0,4.3,3.0,140.0,76.0,6.3,0,5,7,1,2026-06-07T10:53:58.833631+05:30
Tirunelveli,Tamil Nadu,8.7139,77.7567,33.3,52,0.0,1005.8,7.85,45.4,18,3.5,2.1,1.4,116.0,50.0,0.7,0,5,4,1,2026-06-07T10:53:58.833639+05:30
Vellore,Tamil Nadu,12.9165,79.1325,34.1,45,0.0,984.2,8.1,43.2,27,4.7,4.2,1.9,150.0,79.0,3.1,0,5,7,1,2026-06-07T10:53:58.833646+05:30
Erode,Tamil Nadu,11.341,77.7172,32.3,52,0.0,990.6,8.05,58.0,25,2.0,2.0,2.2,130.0,62.0,1.9,0,5,7,1,2026-06-07T10:53:58.833654+05:30
Kochi,Kerala,9.9312,76.2673,27.5,82,0.1,1012.1,7.5,44.3,39,9.0,5.5,3.0,105.0,50.0,1.9,10,0,4,1,2026-06-07T10:53:58.833662+05:30
Thiruvananthapuram,Kerala,8.5241,76.9366,26.3,91,0.1,1012.3,7.35,50.4,30,12.1,6.0,0.9,92.0,54.0,0.4,10,0,4,1,2026-06-07T10:53:58.833670+05:30
Kozhikode,Kerala,11.2588,75.7804,26.9,89,0.0,1010.8,4.65,33.5,27,4.8,2.7,0.7,212.0,63.0,0.3,7,0,0,1,2026-06-07T10:53:58.833678+05:30
Thrissur,Kerala,10.5276,76.2144,27.0,89,0.0,1010.1,7.05,38.9,40,7.5,5.2,3.1,124.0,46.0,1.6,7,0,4,1,2026-06-07T10:53:58.833687+05:30
Kannur,Kerala,11.8745,75.3704,26.8,92,0.1,1009.7,4.65,35.3,21,3.8,2.8,2.9,178.0,58.0,1.3,10,0,0,1,2026-06-07T10:53:58.833694+05:30
Patna,Bihar,25.5941,85.1376,32.6,65,0.0,997.1,8.75,30.2,156,85.0,67.1,4.0,333.0,194.0,14.7,3,5,7,1,2026-06-07T10:53:58.833701+05:30
Gaya,Bihar,24.7914,85.0002,35.4,44,0.0,990.4,8.4,27.7,156,100.6,63.8,2.2,261.0,158.0,7.8,0,5,10,1,2026-06-07T10:53:58.833708+05:30
Muzaffarpur,Bihar,26.1209,85.3647,32.1,66,0.0,997.0,8.85,20.9,154,77.1,64.3,3.8,401.0,188.0,14.5,3,5,7,1,2026-06-07T10:53:58.833715+05:30
Bhagalpur,Bihar,25.2425,87.0117,33.7,58,0.0,998.1,8.85,29.5,154,66.1,55.9,4.9,348.0,194.0,25.0,0,5,7,1,2026-06-07T10:53:58.833722+05:30
Ranchi,Jharkhand,23.3441,85.3096,32.0,51,0.0,936.3,9.0,29.9,143,98.5,54.9,1.7,226.0,155.0,10.0,0,5,7,1,2026-06-07T10:53:58.833729+05:30
Jamshedpur,Jharkhand,22.8046,86.2029,33.9,59,0.0,987.9,9.1,33.1,162,87.1,66.8,5.9,298.0,197.0,33.4,0,5,7,1,2026-06-07T10:53:58.833736+05:30
Dhanbad,Jharkhand,23.7957,86.4304,33.7,54,0.0,977.2,8.4,48.2,177,100.8,79.4,21.9,276.0,174.0,73.1,0,5,7,1,2026-06-07T10:53:58.833743+05:30
Bokaro,Jharkhand,23.6693,86.1511,34.3,53,0.0,980.8,8.65,33.8,165,102.4,75.7,21.9,288.0,164.0,74.0,0,5,7,1,2026-06-07T10:53:58.833750+05:30
Bhubaneswar,Odisha,20.2961,85.8245,34.2,68,0.0,998.9,9.1,30.6,130,57.4,43.9,3.7,237.0,159.0,12.3,3,5,7,1,2026-06-07T10:53:58.833758+05:30
Cuttack,Odisha,20.4625,85.8828,33.8,69,0.0,1000.8,9.2,24.8,130,57.4,43.9,3.7,260.0,159.0,12.3,3,5,4,1,2026-06-07T10:53:58.833765+05:30
Rourkela,Odisha,22.2604,84.8536,33.6,57,0.0,982.3,8.7,33.8,152,85.7,58.4,2.8,287.0,174.0,21.7,0,5,7,1,2026-06-07T10:53:58.833772+05:30
Raipur,Chhattisgarh,21.2514,81.6296,37.7,30,0.0,972.4,8.6,30.2,127,131.3,53.1,12.9,192.0,133.0,42.6,0,5,10,1,2026-06-07T10:53:58.833779+05:30
Bhilai,Chhattisgarh,21.1938,81.3509,36.9,31,0.0,973.0,8.8,25.9,127,129.0,50.8,17.5,342.0,119.0,53.3,0,5,10,1,2026-06-07T10:53:58.833786+05:30
Guwahati,Assam,26.1158,91.7086,30.7,71,0.0,998.0,8.8,32.0,101,57.6,49.1,1.1,303.0,154.0,5.2,3,5,7,1,2026-06-07T10:53:58.833793+05:30
Agartala,Tripura,23.8315,91.2868,30.0,77,0.0,1003.5,6.85,29.9,121,20.3,16.5,3.9,203.0,109.0,1.4,7,5,4,1,2026-06-07T10:53:58.833800+05:30
Shillong,Meghalaya,25.5788,91.8933,22.8,81,0.0,856.4,9.1,23.8,91,30.6,25.6,1.0,252.0,140.0,3.6,3,5,7,1,2026-06-07T10:53:58.833807+05:30
Imphal,Manipur,24.817,93.9368,26.0,79,0.0,920.9,9.0,31.3,98,30.2,25.1,0.6,215.0,121.0,2.7,7,5,7,1,2026-06-07T10:53:58.833814+05:30
Aizawl,Mizoram,23.7271,92.7176,23.5,78,0.0,891.3,9.1,25.9,102,27.1,22.0,0.4,167.0,102.0,1.5,3,5,7,1,2026-06-07T10:53:58.833821+05:30
Kohima,Nagaland,25.6701,94.1077,22.8,92,0.1,854.4,9.25,25.6,76,30.5,25.0,0.5,228.0,121.0,2.2,6,5,7,1,2026-06-07T10:53:58.833828+05:30
Gangtok,Sikkim,27.3314,88.6138,23.9,58,0.0,837.7,8.7,38.9,72,30.5,23.8,0.9,292.0,141.0,3.2,0,5,7,0,2026-06-07T10:53:58.833835+05:30
Siliguri,West Bengal,26.7271,88.3953,31.3,69,0.0,989.6,8.7,22.3,151,68.2,55.9,1.7,393.0,172.0,6.0,3,5,7,1,2026-06-07T10:54:02.201860+05:30
Durgapur,West Bengal,23.5204,87.3119,33.5,57,0.0,992.1,9.0,32.8,171,112.2,100.1,27.5,560.0,183.0,102.9,0,5,7,1,2026-06-07T10:54:02.201893+05:30
Asansol,West Bengal,23.6739,86.9524,33.9,56,0.0,990.6,8.7,32.4,171,103.8,88.2,24.3,434.0,173.0,80.1,0,5,7,1,2026-06-07T10:54:02.201904+05:30
Pondicherry,Puducherry,11.9139,79.8145,33.7,52,0.0,1008.1,7.8,42.5,56,17.5,12.1,4.8,152.0,80.0,11.8,0,0,4,1,2026-06-07T10:54:02.201913+05:30
Port Blair,Andaman and Nicobar Islands,11.6234,92.7265,30.4,74,0.0,1008.1,6.75,41.8,26,9.3,5.1,0.3,95.0,53.0,0.4,3,0,4,1,2026-06-07T10:54:02.201921+05:30
Haridwar,Uttarakhand,29.9457,78.1642,33.0,49,0.0,971.6,7.65,26.3,93,53.6,28.5,1.5,302.0,181.0,10.2,0,5,7,1,2026-06-07T10:54:02.201929+05:30
Rishikesh,Uttarakhand,30.0869,78.2676,32.9,48,0.0,964.3,7.75,30.2,72,40.7,22.2,0.8,253.0,171.0,8.7,0,5,7,1,2026-06-07T10:54:02.201936+05:30
Nainital,Uttarakhand,29.3919,79.4542,23.4,41,0.0,807.9,8.6,37.1,86,60.1,24.6,0.2,202.0,167.0,7.0,0,5,7,0,2026-06-07T10:54:02.201944+05:30
Mussoorie,Uttarakhand,30.4599,78.0664,23.1,35,0.0,805.3,8.15,45.0,81,36.6,22.8,0.9,204.0,168.0,7.5,0,5,7,0,2026-06-07T10:54:02.201951+05:30
Dharamshala,Himachal Pradesh,32.219,76.3234,26.5,37,0.0,870.1,8.5,41.4,51,18.4,12.2,0.2,180.0,147.0,1.3,4,5,7,0,2026-06-07T10:54:02.201958+05:30
Dalhousie,Himachal Pradesh,32.5387,75.971,23.5,32,0.0,807.5,8.75,37.8,74,25.2,16.4,0.7,184.0,161.0,2.3,0,5,7,0,2026-06-07T10:54:02.201966+05:30
Patiala,Punjab,30.3398,76.3869,36.4,32,0.0,975.5,7.7,31.3,153,345.5,70.1,3.2,292.0,177.0,13.3,0,5,10,1,2026-06-07T10:54:02.201974+05:30
Bhatinda,Punjab,30.211,74.9455,38.5,25,0.0,980.3,8.35,24.1,150,159.3,53.4,4.9,196.0,154.0,15.4,0,5,10,0,2026-06-07T10:54:02.201981+05:30
Rohtak,Haryana,28.8955,76.6066,36.5,33,0.0,979.1,7.8,25.9,165,305.5,81.0,11.9,270.0,166.0,19.5,0,5,10,1,2026-06-07T10:54:02.201989+05:30
Panipat,Haryana,29.3909,76.9635,35.4,37,0.0,977.8,7.65,26.3,381,301.7,78.2,10.6,302.0,165.0,30.3,0,5,10,1,2026-06-07T10:54:02.201996+05:30
Mathura,Uttar Pradesh,27.4924,77.6737,35.2,37,0.0,984.3,8.1,27.0,158,776.7,108.5,4.3,238.0,106.0,4.5,0,5,10,1,2026-06-07T10:54:02.202003+05:30
Vrindavan,Uttar Pradesh,27.5823,77.7027,35.6,35,0.0,984.8,8.05,25.9,158,776.7,108.5,4.3,239.0,106.0,4.5,0,5,10,1,2026-06-07T10:54:02.202010+05:30
Ayodhya,Uttar Pradesh,26.7922,82.1998,33.5,57,0.0,992.3,8.4,24.1,151,109.4,52.7,2.7,369.0,158.0,8.3,0,5,7,1,2026-06-07T10:54:02.202016+05:30
Ratlam,Madhya Pradesh,23.3315,75.0367,33.5,54,0.0,954.4,8.4,36.4,89,56.6,29.5,2.2,130.0,88.0,9.1,0,5,7,1,2026-06-07T10:54:02.202024+05:30
Sagar,Madhya Pradesh,23.8388,78.7378,35.6,32,0.0,949.3,8.2,29.5,86,106.6,37.6,1.0,152.0,110.0,4.1,0,5,10,1,2026-06-07T10:54:02.202030+05:30
Satna,Madhya Pradesh,24.6005,80.8322,37.1,27,0.0,969.2,8.8,37.8,151,154.6,37.8,1.4,164.0,127.0,5.0,0,5,10,0,2026-06-07T10:54:02.202037+05:30
Akola,Maharashtra,20.7002,77.0082,35.0,43,0.0,974.6,8.8,35.3,86,67.3,32.9,2.3,130.0,116.0,10.0,0,5,7,1,2026-06-07T10:54:02.202045+05:30
Amravati,Maharashtra,20.9374,77.7796,35.2,41,0.0,966.6,8.85,35.6,91,63.3,32.8,2.5,170.0,123.0,9.8,0,5,10,1,2026-06-07T10:54:02.202053+05:30
Latur,Maharashtra,18.4088,76.5604,32.0,51,0.0,940.4,7.9,40.7,79,42.7,23.8,2.0,146.0,105.0,6.5,0,5,7,1,2026-06-07T10:54:02.202060+05:30
Nanded,Maharashtra,19.1383,77.3091,34.4,43,0.0,968.4,8.9,36.4,85,48.8,25.8,1.9,164.0,107.0,4.9,0,5,7,1,2026-06-07T10:54:02.202066+05:30
Gulbarga,Karnataka,17.3297,76.8343,31.8,55,0.0,959.2,6.9,42.5,63,29.1,18.0,4.2,150.0,82.0,6.1,0,5,7,1,2026-06-07T10:54:02.202071+05:30
Bidar,Karnataka,17.9104,77.5199,32.1,50,0.0,935.9,7.15,36.0,82,45.2,27.3,5.2,159.0,97.0,6.1,0,5,7,1,2026-06-07T10:54:02.202077+05:30
Hospet,Karnataka,15.2689,76.3909,28.1,68,0.0,956.8,5.0,40.7,31,13.9,7.4,2.3,129.0,71.0,2.4,7,5,3,1,2026-06-07T10:54:02.202083+05:30
Tirupur,Tamil Nadu,11.1085,77.3411,30.6,57,0.0,977.1,8.2,65.5,26,2.4,2.3,2.5,119.0,62.0,2.4,0,5,7,1,2026-06-07T10:54:02.202088+05:30
Alappuzha,Kerala,9.4981,76.3388,27.0,86,0.1,1012.5,7.15,50.0,35,10.5,5.5,1.7,86.0,56.0,1.1,10,0,4,1,2026-06-07T10:54:02.202094+05:30
Munnar,Kerala,10.0889,77.0595,18.2,99,0.2,859.1,1.1,47.5,15,1.3,1.2,2.0,106.0,51.0,1.2,6,10,3,1,2026-06-07T10:54:02.202100+05:30
Silchar,Assam,24.8333,92.7789,29.3,78,0.0,1002.4,8.25,20.9,125,27.0,22.5,1.2,231.0,123.0,3.9,7,5,4,1,2026-06-07T10:54:02.202105+05:30
Dibrugarh,Assam,27.4728,94.912,30.7,69,0.0,991.7,8.3,32.4,88,31.9,27.4,0.9,273.0,145.0,2.2,3,5,7,1,2026-06-07T10:54:02.202111+05:30
