city,state,latitude,longitude,temp,humidity,rain,pressure,uv_index,wind_gusts,aqi,pm10,pm2_5,mosquito_risk,arthritis_risk,migraine_risk,frizz_risk,updated_at
Delhi,Delhi,28.6139,77.209,21.8,71,0.0,985.6,5.9,27.4,165,321.3,87.5,3,5,3,1,2026-03-09T02:00:57.859294+05:30
Mumbai,Maharashtra,19.076,72.8777,29.0,64,0.0,1008.1,7.55,22.7,186,31.2,29.6,7,0,4,1,2026-03-09T02:00:57.859340+05:30
Bangalore,Karnataka,12.9716,77.5946,21.4,61,0.0,911.9,9.25,38.5,109,44.4,38.4,3,5,7,0,2026-03-09T02:00:57.859356+05:30
Hyderabad,Telangana,17.385,78.4867,23.2,68,0.0,954.2,8.55,29.9,101,46.3,36.0,3,5,7,1,2026-03-09T02:00:57.859366+05:30
Chennai,Tamil Nadu,13.0827,80.2707,26.3,79,0.0,1009.0,8.95,33.5,74,31.2,23.1,7,0,4,1,2026-03-09T02:00:57.859375+05:30
Kolkata,West Bengal,22.5726,88.3639,23.3,97,0.0,1009.8,7.95,17.6,150,47.1,42.7,3,0,4,1,2026-03-09T02:00:57.859383+05:30
Pune,Maharashtra,18.5204,73.8567,22.5,61,0.0,948.8,8.1,32.4,93,29.6,26.0,3,5,7,0,2026-03-09T02:00:57.859396+05:30
Ahmedabad,Gujarat,23.0225,72.5714,22.8,49,0.0,1004.4,7.4,18.7,83,20.1,16.3,0,5,4,0,2026-03-09T02:00:57.859405+05:30
Jaipur,Rajasthan,26.9124,75.7873,25.5,28,0.0,962.3,6.7,22.0,80,109.2,25.9,4,5,7,0,2026-03-09T02:00:57.859413+05:30
Lucknow,Uttar Pradesh,26.8467,80.9462,23.9,74,0.0,996.4,6.55,19.4,178,231.9,131.8,3,5,7,1,2026-03-09T02:00:57.859422+05:30
Kanpur,Uttar Pradesh,26.4499,80.3319,22.9,75,0.0,994.4,6.55,16.2,171,206.3,107.6,3,5,7,1,2026-03-09T02:00:57.859429+05:30
Chandigarh,Chandigarh,30.7333,76.7794,20.5,77,0.0,971.2,5.95,23.8,149,44.5,37.4,3,5,3,1,2026-03-09T02:00:57.859437+05:30
Srinagar,Jammu and Kashmir,34.0837,74.7973,6.9,79,0.0,841.8,6.35,20.2,115,82.4,66.4,3,5,7,0,2026-03-09T02:00:57.859444+05:30
Jammu,Jammu and Kashmir,32.7266,74.857,18.5,87,0.0,976.0,6.4,24.1,88,42.8,37.7,3,10,7,1,2026-03-09T02:00:57.859452+05:30
Amritsar,Punjab,31.634,74.8723,20.9,72,0.0,983.9,6.5,20.2,162,92.0,75.7,3,5,7,0,2026-03-09T02:00:57.859459+05:30
Ludhiana,Punjab,30.901,75.8573,22.0,77,0.0,981.8,6.1,25.6,165,87.1,73.1,3,5,7,1,2026-03-09T02:00:57.859465+05:30
Jalandhar,Punjab,31.326,75.5762,20.8,84,0.0,983.0,6.2,23.8,165,99.7,79.9,3,5,7,1,2026-03-09T02:00:57.859475+05:30
Dehradun,Uttarakhand,30.6284,78.0322,14.0,67,0.0,831.3,6.3,28.8,80,42.5,32.5,3,5,7,0,2026-03-09T02:00:57.859482+05:30
Shimla,Himachal Pradesh,31.1048,77.1734,12.3,65,0.0,785.6,6.35,49.3,85,44.6,24.3,3,5,7,0,2026-03-09T02:00:57.859489+05:30
Manali,Himachal Pradesh,32.2396,77.1887,15.8,37,0.0,823.4,7.6,34.6,41,34.7,18.7,0,5,7,0,2026-03-09T02:00:57.859496+05:30
Gurgaon,Haryana,28.4595,77.0266,18.6,81,0.0,983.9,5.95,26.6,436,501.1,103.6,3,10,3,0,2026-03-09T02:00:57.859503+05:30
Noida,Uttar Pradesh,28.5355,77.391,21.3,73,0.0,987.1,5.75,26.6,436,501.1,103.6,3,5,3,1,2026-03-09T02:00:57.859510+05:30
Ghaziabad,Uttar Pradesh,28.6692,77.4538,20.7,79,0.0,985.2,5.95,24.5,167,304.5,81.5,3,5,3,1,2026-03-09T02:00:57.859517+05:30
Faridabad,Haryana,28.4089,77.3178,17.9,83,0.0,986.2,5.6,25.2,436,501.1,103.6,3,10,3,0,2026-03-09T02:00:57.859523+05:30
Meerut,Uttar Pradesh,28.9845,77.7064,20.5,84,0.0,983.8,5.85,24.8,167,304.5,81.5,3,5,3,1,2026-03-09T02:00:57.859530+05:30
Agra,Uttar Pradesh,27.1767,78.0081,18.4,84,0.0,990.4,6.05,23.4,158,360.4,94.5,3,10,7,0,2026-03-09T02:00:57.859537+05:30
Varanasi,Uttar Pradesh,25.3176,82.9739,22.6,81,0.0,1000.6,7.2,14.4,175,124.3,116.6,3,5,4,1,2026-03-09T02:00:57.859546+05:30
Prayagraj,Uttar Pradesh,25.4358,81.8463,22.7,77,0.0,999.0,7.1,15.8,179,128.5,120.1,3,5,7,1,2026-03-09T02:00:57.859553+05:30
Gorakhpur,Uttar Pradesh,26.7606,83.3732,21.1,92,0.0,1000.5,6.9,27.7,173,129.0,123.4,3,5,4,1,2026-03-09T02:00:57.859559+05:30
Bareilly,Uttar Pradesh,28.367,79.4304,21.4,87,0.0,989.2,6.25,14.4,169,117.3,104.8,3,5,7,1,2026-03-09T02:00:57.859566+05:30
Aligarh,Uttar Pradesh,27.8974,78.088,18.9,76,0.0,988.0,6.15,24.1,193,422.8,99.7,3,5,7,0,2026-03-09T02:00:57.859572+05:30
Moradabad,Uttar Pradesh,28.8386,78.7733,22.1,75,0.0,986.1,6.05,14.4,178,217.9,113.4,3,5,7,1,2026-03-09T02:00:57.859579+05:30
Saharanpur,Uttar Pradesh,29.9637,77.546,19.7,83,0.0,978.0,5.7,20.5,165,131.3,85.7,3,10,3,1,2026-03-09T02:00:57.859584+05:30
Jhansi,Uttar Pradesh,25.4484,78.5685,21.4,58,0.0,980.3,7.0,25.6,88,39.5,27.4,0,5,7,0,2026-03-09T02:01:01.111769+05:30
Surat,Gujarat,21.1702,72.8311,25.6,61,0.0,1007.8,7.25,24.8,122,34.6,34.0,7,5,4,1,2026-03-09T02:01:01.111800+05:30
Vadodara,Gujarat,22.3072,73.1812,24.0,53,0.0,1006.2,7.4,15.8,83,24.4,23.5,0,5,4,0,2026-03-09T02:01:01.111811+05:30
Rajkot,Gujarat,22.3039,70.8022,22.6,54,0.0,996.9,7.2,26.3,71,28.3,18.1,0,5,7,0,2026-03-09T02:01:01.111819+05:30
Thane,Maharashtra,19.2183,72.9781,27.0,53,0.0,1007.6,7.55,36.4,186,31.2,29.6,4,5,4,1,2026-03-09T02:01:01.111826+05:30
Nagpur,Maharashtra,21.1458,79.0882,22.8,46,0.0,974.5,7.95,27.7,82,46.3,32.0,0,5,7,0,2026-03-09T02:01:01.111834+05:30
Nashik,Maharashtra,19.9975,73.7898,24.6,37,0.0,946.7,7.75,30.2,68,21.4,19.4,0,5,7,0,2026-03-09T02:01:01.111841+05:30
Aurangabad,Maharashtra,19.8762,75.3433,24.4,49,0.0,945.1,8.25,38.2,71,38.1,32.6,0,5,7,0,2026-03-09T02:01:01.111848+05:30
Solapur,Maharashtra,17.6599,75.9064,23.7,66,0.0,957.4,8.45,23.8,81,28.5,23.6,3,5,7,1,2026-03-09T02:01:01.111855+05:30
Kolhapur,Maharashtra,16.705,74.2433,18.7,82,0.0,947.6,8.6,34.2,137,89.2,87.1,3,10,7,0,2026-03-09T02:01:01.111863+05:30
Goa,Goa,15.2993,74.124,26.2,89,0.0,998.5,8.65,32.8,123,55.2,51.3,7,5,7,1,2026-03-09T02:01:01.111870+05:30
Jodhpur,Rajasthan,26.2389,73.0243,25.2,37,0.0,986.1,7.1,21.2,59,56.0,16.5,4,5,7,0,2026-03-09T02:01:01.111877+05:30
Udaipur,Rajasthan,24.5854,73.7125,21.2,40,0.0,949.5,7.7,14.8,43,12.5,11.8,0,5,7,0,2026-03-09T02:01:01.111884+05:30
Kota,Rajasthan,25.2138,75.8648,20.5,65,0.0,981.2,7.1,15.1,83,29.6,29.5,3,5,7,0,2026-03-09T02:01:01.111890+05:30
Bikaner,Rajasthan,28.0229,73.3119,25.4,46,0.0,985.1,6.8,18.0,55,22.8,9.2,4,5,7,0,2026-03-09T02:01:01.111897+05:30
Ajmer,Rajasthan,26.4499,74.6399,22.8,38,0.0,957.3,7.1,20.9,60,17.5,10.0,0,5,7,0,2026-03-09T02:01:01.111904+05:30
Gwalior,Madhya Pradesh,26.2183,78.1828,23.7,54,0.0,985.8,6.75,23.0,87,103.4,31.9,0,5,7,0,2026-03-09T02:01:01.111911+05:30
Indore,Madhya Pradesh,22.7196,75.8577,21.4,43,0.0,949.8,7.65,20.5,71,33.1,31.1,0,5,7,0,2026-03-09T02:01:01.111918+05:30
Bhopal,Madhya Pradesh,23.2599,77.4126,21.8,50,0.0,955.7,7.55,17.6,70,44.7,33.8,0,5,7,0,2026-03-09T02:01:01.111925+05:30
Jabalpur,Madhya Pradesh,23.1815,79.9864,22.4,56,0.0,963.6,7.65,21.2,136,71.2,49.4,0,5,7,0,2026-03-09T02:01:01.111932+05:30
Ujjain,Madhya Pradesh,23.1765,75.7885,21.5,48,0.0,955.9,7.55,11.9,94,46.0,44.1,0,5,7,0,2026-03-09T02:01:01.111939+05:30
Visakhapatnam,Andhra Pradesh,17.6868,83.2185,25.2,83,0.0,1006.6,8.55,33.5,92,39.8,30.9,7,5,4,1,2026-03-09T02:01:01.111947+05:30
Vijayawada,Andhra Pradesh,16.5062,80.648,25.1,86,0.0,1004.9,8.65,26.3,91,32.4,26.0,7,5,4,1,2026-03-09T02:01:01.111970+05:30
Guntur,Andhra Pradesh,16.3067,80.4365,25.3,86,0.0,1006.0,8.65,28.4,90,31.2,25.1,7,5,4,1,2026-03-09T02:01:01.111978+05:30
Nellore,Andhra Pradesh,14.4426,79.9865,25.6,84,0.0,1007.7,8.8,32.8,81,24.4,18.0,7,5,4,1,2026-03-09T02:01:01.111986+05:30
Kurnool,Andhra Pradesh,15.8281,78.0373,26.2,67,0.0,977.7,8.65,37.1,102,37.4,33.6,7,5,7,1,2026-03-09T02:01:01.111994+05:30
Kakinada,Andhra Pradesh,16.9891,82.2475,25.5,83,0.0,1010.1,8.55,30.2,77,41.0,28.6,7,0,4,1,2026-03-09T02:01:01.112001+05:30
Tirupati,Andhra Pradesh,13.6288,79.4192,23.2,88,0.0,993.7,8.95,37.1,106,36.8,30.9,3,5,7,1,2026-03-09T02:01:01.112008+05:30
Warangal,Telangana,17.9689,79.5941,24.0,83,0.0,980.3,8.4,29.9,122,41.0,37.4,3,5,7,1,2026-03-09T02:01:01.112015+05:30
Nizamabad,Telangana,18.6725,78.0941,22.8,57,0.0,965.4,8.25,31.3,96,46.3,38.1,0,5,7,0,2026-03-09T02:01:01.112022+05:30
Mysore,Karnataka,12.2958,76.6396,22.2,91,0.0,928.7,9.25,40.7,122,55.6,50.4,3,5,7,1,2026-03-09T02:01:01.112029+05:30
Mangalore,Karnataka,12.9141,74.856,28.5,78,0.0,1007.0,8.85,25.2,107,45.1,41.0,7,5,4,1,2026-03-09T02:01:01.112036+05:30
Hubli-Dharwad,Karnataka,15.3647,75.124,21.7,93,0.0,940.8,8.85,35.3,97,41.1,37.0,3,5,7,1,2026-03-09T02:01:01.112042+05:30
Belgaum,Karnataka,15.8497,74.4977,20.5,100,0.0,925.6,8.85,42.1,112,58.2,55.1,3,5,7,1,2026-03-09T02:01:04.364267+05:30
Coimbatore,Tamil Nadu,11.0168,76.9558,23.0,96,0.0,962.3,9.25,47.5,117,43.8,39.3,3,5,7,1,2026-03-09T02:01:04.364299+05:30
Madurai,Tamil Nadu,9.9252,78.1198,24.6,80,0.0,994.4,9.2,36.7,99,48.3,40.2,3,5,7,1,2026-03-09T02:01:04.364308+05:30
Trichy,Tamil Nadu,10.7905,78.7047,23.9,91,0.0,1001.3,9.1,31.3,93,25.2,21.8,3,5,4,1,2026-03-09T02:01:04.364317+05:30
Salem,Tamil Nadu,11.6643,78.146,24.4,80,0.0,978.3,9.15,33.5,110,46.0,38.9,3,5,7,1,2026-03-09T02:01:04.364325+05:30
Tirunelveli,Tamil Nadu,8.7139,77.7567,25.8,79,0.0,1004.0,9.2,36.7,104,57.6,48.3,7,5,4,1,2026-03-09T02:01:04.364332+05:30
Vellore,Tamil Nadu,12.9165,79.1325,23.0,88,0.0,986.4,9.05,37.1,127,50.1,43.5,3,5,7,1,2026-03-09T02:01:04.364339+05:30
Erode,Tamil Nadu,11.341,77.7172,25.9,80,0.0,990.2,9.15,23.0,91,29.3,23.1,7,5,7,1,2026-03-09T02:01:04.364345+05:30
Kochi,Kerala,9.9312,76.2673,26.7,87,0.0,1009.3,8.95,25.9,125,51.1,49.8,7,0,4,1,2026-03-09T02:01:04.364353+05:30
Thiruvananthapuram,Kerala,8.5241,76.9366,27.4,85,0.0,1008.1,9.1,28.4,86,31.8,26.7,7,0,4,1,2026-03-09T02:01:04.364360+05:30
Kozhikode,Kerala,11.2588,75.7804,27.4,83,0.0,1008.3,8.15,26.3,84,37.3,32.9,7,0,4,1,2026-03-09T02:01:04.364366+05:30
Thrissur,Kerala,10.5276,76.2144,25.8,90,0.0,1007.6,9.05,31.3,115,42.8,41.3,7,5,4,1,2026-03-09T02:01:04.364374+05:30
Kannur,Kerala,11.8745,75.3704,27.7,83,0.0,1007.4,8.95,28.4,97,39.8,37.0,7,5,4,1,2026-03-09T02:01:04.364380+05:30
Patna,Bihar,25.5941,85.1376,23.5,84,0.0,1003.7,7.4,27.7,174,103.4,94.8,3,5,4,1,2026-03-09T02:01:04.364387+05:30
Gaya,Bihar,24.7914,85.0002,22.4,85,0.0,996.6,7.5,23.0,161,85.0,76.1,3,5,7,1,2026-03-09T02:01:04.364393+05:30
Muzaffarpur,Bihar,26.1209,85.3647,22.4,85,0.0,1004.0,7.35,33.5,177,114.6,105.7,3,5,4,1,2026-03-09T02:01:04.364400+05:30
Bhagalpur,Bihar,25.2425,87.0117,23.0,86,0.0,1004.7,5.45,25.2,162,95.2,83.6,3,5,0,1,2026-03-09T02:01:04.364406+05:30
Ranchi,Jharkhand,23.3441,85.3096,21.5,83,0.0,939.9,8.15,25.9,164,110.1,94.3,3,5,7,1,2026-03-09T02:01:04.364412+05:30
Jamshedpur,Jharkhand,22.8046,86.2029,24.4,93,0.0,994.0,8.0,29.5,158,64.5,58.1,3,5,7,1,2026-03-09T02:01:04.364419+05:30
Dhanbad,Jharkhand,23.7957,86.4304,24.5,82,0.0,983.2,7.9,36.7,169,99.4,92.7,3,5,7,1,2026-03-09T02:01:04.364425+05:30
Bokaro,Jharkhand,23.6693,86.1511,23.7,85,0.0,987.2,7.9,37.8,173,135.0,124.3,3,5,7,1,2026-03-09T02:01:04.364432+05:30
Bhubaneswar,Odisha,20.2961,85.8245,25.3,85,0.0,1005.8,8.3,32.8,103,33.6,28.9,7,5,4,1,2026-03-09T02:01:04.364439+05:30
Cuttack,Odisha,20.4625,85.8828,25.4,85,0.0,1007.8,8.35,30.2,103,33.6,28.9,7,5,4,1,2026-03-09T02:01:04.364446+05:30
Rourkela,Odisha,22.2604,84.8536,25.2,75,0.0,987.4,7.9,29.9,166,100.1,83.8,7,5,7,1,2026-03-09T02:01:04.364452+05:30
Raipur,Chhattisgarh,21.2514,81.6296,25.7,50,0.0,975.9,8.0,28.4,160,124.8,112.7,4,5,7,0,2026-03-09T02:01:04.364459+05:30
Bhilai,Chhattisgarh,21.1938,81.3509,24.4,56,0.0,976.1,8.0,28.8,156,94.8,85.9,0,5,7,0,2026-03-09T02:01:04.364465+05:30
Guwahati,Assam,26.1158,91.7086,24.7,75,0.0,1004.9,7.25,14.8,147,51.7,46.6,3,5,4,1,2026-03-09T02:01:04.364471+05:30
Agartala,Tripura,23.8315,91.2868,21.1,87,0.0,1010.1,7.7,12.2,154,68.5,63.6,3,0,4,1,2026-03-09T02:01:04.364478+05:30
Shillong,Meghalaya,25.5788,91.8933,11.6,85,0.0,857.2,5.65,24.5,118,43.9,38.4,3,10,3,0,2026-03-09T02:01:04.364485+05:30
Imphal,Manipur,24.817,93.9368,16.5,92,0.0,926.2,7.95,25.9,160,111.1,104.8,3,10,7,0,2026-03-09T02:01:04.364492+05:30
Aizawl,Mizoram,23.7271,92.7176,16.1,84,0.0,894.6,7.85,25.2,154,79.9,72.9,3,10,7,0,2026-03-09T02:01:04.364498+05:30
Kohima,Nagaland,25.6701,94.1077,14.2,87,0.0,857.1,6.9,53.3,160,81.0,76.4,3,10,7,0,2026-03-09T02:01:04.364505+05:30
Gangtok,Sikkim,27.3314,88.6138,13.2,78,0.0,838.9,3.1,20.2,152,76.8,61.5,3,5,3,0,2026-03-09T02:01:04.364511+05:30
Siliguri,West Bengal,26.7271,88.3953,21.2,58,0.0,998.0,7.35,15.8,155,91.7,70.1,0,5,7,0,2026-03-09T02:01:07.615282+05:30
Durgapur,West Bengal,23.5204,87.3119,24.0,91,0.0,998.7,7.55,23.8,162,68.2,64.5,3,5,7,1,2026-03-09T02:01:07.615313+05:30
Asansol,West Bengal,23.6739,86.9524,24.3,88,0.0,997.1,7.55,20.9,161,71.0,66.4,3,5,7,1,2026-03-09T02:01:07.615323+05:30
Pondicherry,Puducherry,11.9139,79.8145,23.6,95,0.0,1010.2,8.95,32.0,68,25.2,18.0,3,0,4,1,2026-03-09T02:01:07.615331+05:30
Port Blair,Andaman and Nicobar Islands,11.6234,92.7265,27.0,82,0.0,1007.8,8.9,27.0,85,40.9,31.7,7,5,4,1,2026-03-09T02:01:07.615339+05:30
Haridwar,Uttarakhand,29.9457,78.1642,20.2,90,0.0,976.5,5.8,28.8,159,108.5,89.4,3,5,3,1,2026-03-09T02:01:07.615347+05:30
Rishikesh,Uttarakhand,30.0869,78.2676,20.4,88,0.0,969.4,5.85,28.1,156,78.9,68.7,3,5,3,1,2026-03-09T02:01:07.615355+05:30
Nainital,Uttarakhand,29.3919,79.4542,17.4,80,0.0,807.6,6.7,54.4,159,90.1,75.0,3,5,7,0,2026-03-09T02:01:07.615362+05:30
Mussoorie,Uttarakhand,30.4599,78.0664,16.4,68,0.0,804.4,6.2,40.0,154,70.5,63.6,3,5,7,0,2026-03-09T02:01:07.615369+05:30
Dharamshala,Himachal Pradesh,32.219,76.3234,21.0,34,0.0,872.4,6.25,23.8,54,33.8,15.5,0,5,7,0,2026-03-09T02:01:07.615376+05:30
Dalhousie,Himachal Pradesh,32.5387,75.971,17.3,39,0.0,806.6,6.65,24.5,83,39.6,32.9,0,5,7,0,2026-03-09T02:01:07.615384+05:30
Patiala,Punjab,30.3398,76.3869,20.2,87,0.0,980.9,5.65,22.3,165,299.0,80.3,3,5,3,1,2026-03-09T02:01:07.615391+05:30
Bhatinda,Punjab,30.211,74.9455,21.7,79,0.0,986.7,5.95,19.4,151,92.4,62.4,3,5,3,1,2026-03-09T02:01:07.615398+05:30
Rohtak,Haryana,28.8955,76.6066,19.1,84,0.0,984.2,6.05,26.3,177,356.7,92.7,3,10,7,1,2026-03-09T02:01:07.615406+05:30
Panipat,Haryana,29.3909,76.9635,19.8,88,0.0,982.9,5.8,25.6,343,594.2,104.5,3,10,3,1,2026-03-09T02:01:07.615413+05:30
Mathura,Uttar Pradesh,27.4924,77.6737,19.7,73,0.0,989.5,6.25,24.5,158,326.9,79.9,3,5,7,0,2026-03-09T02:01:07.615419+05:30
Vrindavan,Uttar Pradesh,27.5823,77.7027,17.2,83,0.0,989.9,6.2,25.9,158,326.9,79.9,3,10,7,0,2026-03-09T02:01:07.615426+05:30
Ayodhya,Uttar Pradesh,26.7922,82.1998,21.4,89,0.0,998.3,6.7,18.4,183,119.2,107.3,3,5,7,1,2026-03-09T02:01:07.615433+05:30
Ratlam,Madhya Pradesh,23.3315,75.0367,19.3,86,0.0,956.3,7.5,14.8,84,32.5,31.0,3,10,7,1,2026-03-09T02:01:07.615440+05:30
Sagar,Madhya Pradesh,23.8388,78.7378,22.3,51,0.0,952.3,7.5,18.4,80,45.3,23.9,0,5,7,0,2026-03-09T02:01:07.615447+05:30
Satna,Madhya Pradesh,24.6005,80.8322,21.4,67,0.0,974.0,7.45,24.8,155,88.5,63.1,3,5,7,0,2026-03-09T02:01:07.615453+05:30
Akola,Maharashtra,20.7002,77.0082,24.8,46,0.0,976.5,7.95,17.6,74,38.0,30.5,0,5,7,0,2026-03-09T02:01:07.615461+05:30
Amravati,Maharashtra,20.9374,77.7796,22.7,48,0.0,968.5,7.9,23.4,71,34.0,25.1,0,5,7,0,2026-03-09T02:01:07.615468+05:30
Latur,Maharashtra,18.4088,76.5604,24.5,48,0.0,940.6,8.4,26.6,89,49.2,39.0,0,5,7,0,2026-03-09T02:01:07.615475+05:30
Nanded,Maharashtra,19.1383,77.3091,24.1,52,0.0,969.4,8.15,24.8,84,32.7,25.0,0,5,7,0,2026-03-09T02:01:07.615482+05:30
Gulbarga,Karnataka,17.3297,76.8343,25.1,41,0.0,959.5,8.5,31.3,79,32.1,26.5,4,5,7,0,2026-03-09T02:01:07.615488+05:30
Bidar,Karnataka,17.9104,77.5199,22.8,58,0.0,936.1,8.45,32.4,97,61.0,49.4,0,5,7,0,2026-03-09T02:01:07.615495+05:30
Hospet,Karnataka,15.2689,76.3909,27.6,46,0.0,955.8,8.8,37.4,107,47.8,36.2,4,5,7,0,2026-03-09T02:01:07.615501+05:30
Tirupur,Tamil Nadu,11.1085,77.3411,25.6,85,0.0,976.1,9.25,35.6,114,38.4,32.0,7,5,7,1,2026-03-09T02:01:07.615508+05:30
Alappuzha,Kerala,9.4981,76.3388,26.4,85,0.0,1009.4,8.95,25.6,114,40.5,38.1,7,0,4,1,2026-03-09T02:01:07.615515+05:30
Munnar,Kerala,10.0889,77.0595,18.0,90,0.0,855.7,9.55,21.6,105,49.7,43.1,3,10,7,1,2026-03-09T02:01:07.615522+05:30
Silchar,Assam,24.8333,92.7789,22.4,90,0.0,1009.5,7.65,23.0,162,100.6,92.4,3,0,4,1,2026-03-09T02:01:07.615529+05:30
Dibrugarh,Assam,27.4728,94.912,23.1,83,0.0,999.8,7.4,21.6,154,68.0,61.7,3,5,7,1,2026-03-09T02:01:07.615536+05:30
