city,state,latitude,longitude,temp,humidity,rain,pressure,uv_index,wind_gusts,aqi,pm10,pm2_5,mosquito_risk,arthritis_risk,migraine_risk,frizz_risk,updated_at
Delhi,Delhi,28.6139,77.209,34.1,29,0.0,985.8,6.0,24.8,166,205.4,42.0,0,5,3,0,2026-03-08T15:03:16.954460+05:30
Mumbai,Maharashtra,19.076,72.8777,27.9,74,0.0,1007.5,7.5,25.9,148,52.5,50.2,7,5,4,1,2026-03-08T15:03:16.954503+05:30
Bangalore,Karnataka,12.9716,77.5946,32.7,24,0.0,911.7,9.25,27.4,109,39.5,30.9,0,5,7,0,2026-03-08T15:03:16.954518+05:30
Hyderabad,Telangana,17.385,78.4867,35.9,24,0.0,953.5,8.55,25.6,112,35.2,24.5,0,5,10,0,2026-03-08T15:03:16.954528+05:30
Chennai,Tamil Nadu,13.0827,80.2707,31.6,52,0.0,1007.7,8.95,32.4,78,39.5,26.3,0,5,4,1,2026-03-08T15:03:16.954537+05:30
Kolkata,West Bengal,22.5726,88.3639,29.8,57,0.0,1008.7,7.25,15.8,151,65.4,54.8,4,0,4,1,2026-03-08T15:03:16.954545+05:30
Pune,Maharashtra,18.5204,73.8567,38.5,17,0.0,948.7,8.05,29.5,109,13.9,12.4,0,5,10,0,2026-03-08T15:03:16.954557+05:30
Ahmedabad,Gujarat,23.0225,72.5714,37.8,20,0.0,1003.8,7.35,16.6,101,15.1,12.7,0,5,7,0,2026-03-08T15:03:16.954565+05:30
Jaipur,Rajasthan,26.9124,75.7873,37.5,11,0.0,963.1,6.8,23.0,84,109.9,17.5,0,5,10,0,2026-03-08T15:03:16.954572+05:30
Lucknow,Uttar Pradesh,26.8467,80.9462,32.8,40,0.0,996.3,6.5,21.6,181,111.8,69.4,0,5,7,1,2026-03-08T15:03:16.954580+05:30
Kanpur,Uttar Pradesh,26.4499,80.3319,32.7,42,0.0,994.7,6.5,16.9,175,144.4,64.7,0,5,7,1,2026-03-08T15:03:16.954586+05:30
Chandigarh,Chandigarh,30.7333,76.7794,32.5,33,0.0,971.6,5.9,30.2,153,55.5,36.7,0,5,3,0,2026-03-08T15:03:16.954593+05:30
Srinagar,Jammu and Kashmir,34.0837,74.7973,21.9,27,0.0,848.3,6.8,16.2,136,40.3,19.4,0,5,7,0,2026-03-08T15:03:16.954601+05:30
Jammu,Jammu and Kashmir,32.7266,74.857,32.7,37,0.0,976.0,6.4,29.5,128,42.5,23.1,0,5,7,1,2026-03-08T15:03:16.954608+05:30
Amritsar,Punjab,31.634,74.8723,32.4,42,0.0,984.5,6.4,23.4,165,62.9,39.2,0,5,7,1,2026-03-08T15:03:16.954614+05:30
Ludhiana,Punjab,30.901,75.8573,33.2,36,0.0,981.9,6.15,27.7,172,70.3,51.2,0,5,7,1,2026-03-08T15:03:16.954621+05:30
Jalandhar,Punjab,31.326,75.5762,32.8,38,0.0,983.1,6.3,26.3,171,82.9,47.0,0,5,7,1,2026-03-08T15:03:16.954629+05:30
Dehradun,Uttarakhand,30.6284,78.0322,23.2,54,0.0,834.8,6.3,37.8,102,29.6,15.8,0,5,7,0,2026-03-08T15:03:16.954636+05:30
Shimla,Himachal Pradesh,31.1048,77.1734,21.9,43,0.0,790.7,6.35,51.8,119,27.9,12.5,0,5,7,0,2026-03-08T15:03:16.954643+05:30
Manali,Himachal Pradesh,32.2396,77.1887,24.6,23,0.0,826.0,8.05,30.6,72,22.1,8.8,0,5,7,0,2026-03-08T15:03:16.954649+05:30
Gurgaon,Haryana,28.4595,77.0266,34.5,29,0.0,984.3,6.1,19.8,176,774.9,83.4,0,5,7,0,2026-03-08T15:03:16.954656+05:30
Noida,Uttar Pradesh,28.5355,77.391,34.7,27,0.0,987.3,6.0,24.8,176,774.9,83.4,0,5,3,0,2026-03-08T15:03:16.954662+05:30
Ghaziabad,Uttar Pradesh,28.6692,77.4538,33.7,34,0.0,985.4,6.0,24.5,168,142.0,46.2,0,5,3,0,2026-03-08T15:03:16.954669+05:30
Faridabad,Haryana,28.4089,77.3178,34.3,29,0.0,986.6,6.05,21.6,176,774.9,83.4,0,5,7,0,2026-03-08T15:03:16.954676+05:30
Meerut,Uttar Pradesh,28.9845,77.7064,33.6,38,0.0,984.0,5.85,29.2,168,142.0,46.2,0,5,3,1,2026-03-08T15:03:16.954683+05:30
Agra,Uttar Pradesh,27.1767,78.0081,36.5,26,0.0,990.4,6.4,20.5,157,322.2,44.0,0,5,10,0,2026-03-08T15:03:16.954689+05:30
Varanasi,Uttar Pradesh,25.3176,82.9739,32.2,49,0.0,1000.1,7.2,11.5,173,83.1,68.9,0,5,4,1,2026-03-08T15:03:16.954698+05:30
Prayagraj,Uttar Pradesh,25.4358,81.8463,31.7,49,0.0,998.8,7.05,14.8,179,90.1,73.1,0,5,7,1,2026-03-08T15:03:16.954707+05:30
Gorakhpur,Uttar Pradesh,26.7606,83.3732,31.6,47,0.0,1000.1,6.9,16.2,174,78.2,69.6,0,5,4,1,2026-03-08T15:03:16.954714+05:30
Bareilly,Uttar Pradesh,28.367,79.4304,32.2,45,0.0,989.5,6.2,19.8,173,112.2,56.6,0,5,7,1,2026-03-08T15:03:16.954720+05:30
Aligarh,Uttar Pradesh,27.8974,78.088,34.8,30,0.0,988.2,6.1,23.4,171,285.0,66.1,0,5,7,0,2026-03-08T15:03:16.954726+05:30
Moradabad,Uttar Pradesh,28.8386,78.7733,32.7,41,0.0,986.1,6.05,23.8,182,108.5,68.0,0,5,7,1,2026-03-08T15:03:16.954732+05:30
Saharanpur,Uttar Pradesh,29.9637,77.546,33.4,33,0.0,977.9,5.65,36.7,172,90.1,61.7,0,5,3,0,2026-03-08T15:03:16.954738+05:30
Jhansi,Uttar Pradesh,25.4484,78.5685,36.2,19,0.0,980.8,7.0,26.3,105,50.9,22.5,0,5,10,0,2026-03-08T15:03:20.232409+05:30
Surat,Gujarat,21.1702,72.8311,36.9,29,0.0,1007.0,7.25,24.5,151,38.1,36.4,0,5,7,0,2026-03-08T15:03:20.232461+05:30
Vadodara,Gujarat,22.3072,73.1812,39.6,20,0.0,1005.3,7.35,16.6,104,10.2,9.5,0,5,7,0,2026-03-08T15:03:20.232472+05:30
Rajkot,Gujarat,22.3039,70.8022,35.8,30,0.0,996.2,7.15,20.9,73,24.9,14.0,0,5,10,0,2026-03-08T15:03:20.232480+05:30
Thane,Maharashtra,19.2183,72.9781,32.9,51,0.0,1007.4,7.5,33.1,148,52.5,50.2,0,5,4,1,2026-03-08T15:03:20.232487+05:30
Nagpur,Maharashtra,21.1458,79.0882,36.7,18,0.0,974.1,7.9,27.0,85,34.1,22.4,0,5,10,0,2026-03-08T15:03:20.232495+05:30
Nashik,Maharashtra,19.9975,73.7898,37.2,17,0.0,946.6,7.7,28.4,86,13.1,12.2,0,5,10,0,2026-03-08T15:03:20.232502+05:30
Aurangabad,Maharashtra,19.8762,75.3433,37.1,15,0.0,945.0,8.2,32.0,85,17.4,11.5,0,5,10,0,2026-03-08T15:03:20.232509+05:30
Solapur,Maharashtra,17.6599,75.9064,36.6,20,0.0,957.1,8.45,19.4,94,21.2,15.8,0,5,10,0,2026-03-08T15:03:20.232520+05:30
Kolhapur,Maharashtra,16.705,74.2433,36.4,18,0.0,947.6,8.6,34.6,128,26.3,21.2,0,5,10,0,2026-03-08T15:03:20.232527+05:30
Goa,Goa,15.2993,74.124,30.7,65,0.0,996.8,8.65,36.0,132,34.9,32.2,3,5,7,1,2026-03-08T15:03:20.232534+05:30
Jodhpur,Rajasthan,26.2389,73.0243,37.3,17,0.0,985.9,7.05,17.6,64,24.6,7.3,0,5,10,0,2026-03-08T15:03:20.232541+05:30
Udaipur,Rajasthan,24.5854,73.7125,36.3,20,0.0,949.8,7.7,17.6,49,5.2,4.6,0,5,10,0,2026-03-08T15:03:20.232548+05:30
Kota,Rajasthan,25.2138,75.8648,37.2,18,0.0,981.6,7.1,9.4,89,10.6,9.2,0,5,10,0,2026-03-08T15:03:20.232554+05:30
Bikaner,Rajasthan,28.0229,73.3119,36.3,19,0.0,984.9,6.75,18.0,58,119.7,19.7,0,5,10,0,2026-03-08T15:03:20.232561+05:30
Ajmer,Rajasthan,26.4499,74.6399,36.1,13,0.0,958.2,7.05,20.5,68,27.2,7.9,0,5,10,0,2026-03-08T15:03:20.232567+05:30
Gwalior,Madhya Pradesh,26.2183,78.1828,34.9,23,0.0,986.3,6.7,23.8,98,35.2,14.2,0,5,7,0,2026-03-08T15:03:20.232574+05:30
Indore,Madhya Pradesh,22.7196,75.8577,35.7,17,0.0,950.8,7.65,20.2,76,13.3,11.5,0,5,10,0,2026-03-08T15:03:20.232580+05:30
Bhopal,Madhya Pradesh,23.2599,77.4126,35.4,20,0.0,956.5,7.5,21.2,69,29.6,13.6,0,5,10,0,2026-03-08T15:03:20.232587+05:30
Jabalpur,Madhya Pradesh,23.1815,79.9864,33.6,29,0.0,963.8,7.6,25.2,120,66.6,37.1,0,5,7,0,2026-03-08T15:03:20.232593+05:30
Ujjain,Madhya Pradesh,23.1765,75.7885,35.2,20,0.0,956.6,7.55,15.8,99,14.1,13.0,0,5,10,0,2026-03-08T15:03:20.232601+05:30
Visakhapatnam,Andhra Pradesh,17.6868,83.2185,30.0,60,0.0,1005.0,8.2,37.4,96,36.3,28.3,4,5,4,1,2026-03-08T15:03:20.232608+05:30
Vijayawada,Andhra Pradesh,16.5062,80.648,34.3,43,0.0,1002.4,8.6,29.5,99,40.9,31.1,0,5,4,1,2026-03-08T15:03:20.232614+05:30
Guntur,Andhra Pradesh,16.3067,80.4365,33.5,45,0.0,1003.9,8.6,28.8,97,40.7,30.6,0,5,4,1,2026-03-08T15:03:20.232621+05:30
Nellore,Andhra Pradesh,14.4426,79.9865,33.1,48,0.0,1005.8,8.8,32.8,88,45.1,33.6,0,5,4,1,2026-03-08T15:03:20.232628+05:30
Kurnool,Andhra Pradesh,15.8281,78.0373,38.2,17,0.0,976.1,8.6,25.6,106,42.4,30.6,0,5,10,0,2026-03-08T15:03:20.232635+05:30
Kakinada,Andhra Pradesh,16.9891,82.2475,32.0,52,0.0,1008.0,8.55,34.6,82,34.8,23.9,0,0,4,1,2026-03-08T15:03:20.232641+05:30
Tirupati,Andhra Pradesh,13.6288,79.4192,35.1,26,0.0,990.7,8.95,33.1,117,44.9,33.9,0,5,10,0,2026-03-08T15:03:20.232648+05:30
Warangal,Telangana,17.9689,79.5941,34.4,41,0.0,978.9,8.35,27.7,118,50.5,39.1,0,5,7,1,2026-03-08T15:03:20.232655+05:30
Nizamabad,Telangana,18.6725,78.0941,35.6,23,0.0,965.5,8.25,33.8,98,33.5,20.0,0,5,10,0,2026-03-08T15:03:20.232661+05:30
Mysore,Karnataka,12.2958,76.6396,33.4,27,0.0,928.2,9.25,33.5,131,39.0,31.1,0,5,7,0,2026-03-08T15:03:20.232667+05:30
Mangalore,Karnataka,12.9141,74.856,28.6,78,0.0,1005.3,8.85,24.8,110,40.6,36.8,7,5,4,1,2026-03-08T15:03:20.232674+05:30
Hubli-Dharwad,Karnataka,15.3647,75.124,36.8,17,0.0,940.3,8.8,25.6,101,30.7,24.6,0,5,10,0,2026-03-08T15:03:20.232681+05:30
Belgaum,Karnataka,15.8497,74.4977,36.2,17,0.0,925.7,8.85,33.8,122,26.1,21.4,0,5,10,0,2026-03-08T15:03:23.516284+05:30
Coimbatore,Tamil Nadu,11.0168,76.9558,34.6,27,0.0,960.7,9.2,38.5,130,36.2,28.4,0,5,7,0,2026-03-08T15:03:23.516318+05:30
Madurai,Tamil Nadu,9.9252,78.1198,35.4,31,0.0,991.7,9.15,32.0,101,42.7,33.2,0,5,10,0,2026-03-08T15:03:23.516330+05:30
Trichy,Tamil Nadu,10.7905,78.7047,35.4,37,0.0,998.8,9.05,27.4,97,44.7,33.2,0,5,10,1,2026-03-08T15:03:23.516341+05:30
Salem,Tamil Nadu,11.6643,78.146,35.6,29,0.0,976.1,9.1,21.2,107,46.0,35.9,0,5,10,0,2026-03-08T15:03:23.516350+05:30
Tirunelveli,Tamil Nadu,8.7139,77.7567,34.7,38,0.0,1002.3,9.15,36.0,107,41.3,32.6,0,5,4,1,2026-03-08T15:03:23.516359+05:30
Vellore,Tamil Nadu,12.9165,79.1325,34.9,25,0.0,984.0,9.0,37.8,139,49.1,38.2,0,5,7,0,2026-03-08T15:03:23.516365+05:30
Erode,Tamil Nadu,11.341,77.7172,36.4,28,0.0,987.7,9.1,20.9,90,41.9,33.1,0,5,10,0,2026-03-08T15:03:23.516372+05:30
Kochi,Kerala,9.9312,76.2673,28.7,80,0.0,1007.1,8.9,35.6,140,47.5,43.5,7,5,4,1,2026-03-08T15:03:23.516379+05:30
Thiruvananthapuram,Kerala,8.5241,76.9366,28.6,79,0.0,1006.5,9.05,27.7,84,29.2,27.3,7,5,4,1,2026-03-08T15:03:23.516386+05:30
Kozhikode,Kerala,11.2588,75.7804,29.9,72,0.0,1006.7,8.95,28.1,91,23.5,21.9,7,5,4,1,2026-03-08T15:03:23.516393+05:30
Thrissur,Kerala,10.5276,76.2144,32.6,61,0.0,1005.5,9.0,37.8,131,40.5,35.2,3,5,4,1,2026-03-08T15:03:23.516401+05:30
Kannur,Kerala,11.8745,75.3704,30.7,69,0.0,1006.1,8.9,28.8,111,31.5,29.2,3,5,4,1,2026-03-08T15:03:23.516408+05:30
Patna,Bihar,25.5941,85.1376,32.1,44,0.0,1003.0,7.35,18.0,172,96.2,80.8,0,5,4,1,2026-03-08T15:03:23.516415+05:30
Gaya,Bihar,24.7914,85.0002,31.6,52,0.0,996.0,7.45,18.7,159,84.3,71.0,0,5,7,1,2026-03-08T15:03:23.516438+05:30
Muzaffarpur,Bihar,26.1209,85.3647,31.5,45,0.0,1003.4,7.3,19.1,175,95.7,81.0,0,5,4,1,2026-03-08T15:03:23.516446+05:30
Bhagalpur,Bihar,25.2425,87.0117,30.7,50,0.0,1004.1,7.35,15.8,162,97.6,74.7,0,5,4,1,2026-03-08T15:03:23.516452+05:30
Ranchi,Jharkhand,23.3441,85.3096,31.5,32,0.0,939.7,8.1,23.0,160,93.8,68.5,0,5,7,0,2026-03-08T15:03:23.516459+05:30
Jamshedpur,Jharkhand,22.8046,86.2029,32.4,46,0.0,992.4,8.0,23.8,155,99.0,79.2,0,5,7,1,2026-03-08T15:03:23.516465+05:30
Dhanbad,Jharkhand,23.7957,86.4304,32.3,37,0.0,981.9,7.85,22.7,167,104.1,85.9,0,5,7,0,2026-03-08T15:03:23.516472+05:30
Bokaro,Jharkhand,23.6693,86.1511,31.5,43,0.0,986.0,7.85,20.5,169,99.2,79.9,0,5,7,1,2026-03-08T15:03:23.516479+05:30
Bhubaneswar,Odisha,20.2961,85.8245,31.9,51,0.0,1004.2,8.2,33.1,127,49.2,36.6,0,5,4,1,2026-03-08T15:03:23.516486+05:30
Cuttack,Odisha,20.4625,85.8828,33.0,47,0.0,1005.8,8.3,28.4,127,49.2,36.6,0,5,4,1,2026-03-08T15:03:23.516492+05:30
Rourkela,Odisha,22.2604,84.8536,35.3,29,0.0,985.9,7.9,28.4,164,109.2,77.5,0,5,10,0,2026-03-08T15:03:23.516498+05:30
Raipur,Chhattisgarh,21.2514,81.6296,36.0,23,0.0,975.4,8.0,23.4,155,80.1,61.5,0,5,10,0,2026-03-08T15:03:23.516505+05:30
Bhilai,Chhattisgarh,21.1938,81.3509,36.4,22,0.0,975.7,8.0,23.4,152,70.8,54.5,0,5,10,0,2026-03-08T15:03:23.516511+05:30
Guwahati,Assam,26.1158,91.7086,30.7,44,0.0,1003.6,7.3,22.3,153,68.9,52.5,0,5,4,1,2026-03-08T15:03:23.516518+05:30
Agartala,Tripura,23.8315,91.2868,29.7,53,0.0,1008.9,7.6,18.7,153,60.8,48.0,4,0,4,1,2026-03-08T15:03:23.516525+05:30
Shillong,Meghalaya,25.5788,91.8933,17.3,56,0.0,858.6,7.35,26.6,127,47.6,37.1,0,5,7,0,2026-03-08T15:03:23.516531+05:30
Imphal,Manipur,24.817,93.9368,24.1,53,0.0,925.2,7.9,35.6,161,58.2,51.1,0,5,7,0,2026-03-08T15:03:23.516538+05:30
Aizawl,Mizoram,23.7271,92.7176,24.8,49,0.0,895.4,7.85,31.3,154,59.1,50.3,0,5,7,0,2026-03-08T15:03:23.516545+05:30
Kohima,Nagaland,25.6701,94.1077,17.8,76,0.0,857.3,7.0,49.3,162,79.2,70.5,3,5,7,0,2026-03-08T15:03:23.516551+05:30
Gangtok,Sikkim,27.3314,88.6138,17.3,69,0.0,840.6,5.1,15.1,157,49.2,38.0,3,5,3,0,2026-03-08T15:03:23.516558+05:30
Siliguri,West Bengal,26.7271,88.3953,24.1,62,0.0,997.8,7.3,16.6,158,73.1,52.9,3,5,7,1,2026-03-08T15:03:26.797823+05:30
Durgapur,West Bengal,23.5204,87.3119,32.4,39,0.0,997.4,7.85,20.9,160,102.2,86.1,0,5,7,1,2026-03-08T15:03:26.797852+05:30
Asansol,West Bengal,23.6739,86.9524,32.8,37,0.0,995.7,7.85,19.8,159,97.3,81.3,0,5,7,1,2026-03-08T15:03:26.797862+05:30
Pondicherry,Puducherry,11.9139,79.8145,33.6,49,0.0,1008.1,8.95,32.0,76,34.7,21.8,0,0,4,1,2026-03-08T15:03:26.797870+05:30
Port Blair,Andaman and Nicobar Islands,11.6234,92.7265,26.8,80,0.0,1007.8,8.9,27.0,88,35.9,27.2,7,5,4,1,2026-03-08T15:03:26.797878+05:30
Haridwar,Uttarakhand,29.9457,78.1642,32.5,43,0.0,976.6,5.8,28.4,160,73.6,53.0,0,5,3,1,2026-03-08T15:03:26.797885+05:30
Rishikesh,Uttarakhand,30.0869,78.2676,31.3,47,0.0,969.6,5.85,24.8,158,69.2,46.4,0,5,3,1,2026-03-08T15:03:26.797892+05:30
Nainital,Uttarakhand,29.3919,79.4542,23.0,62,0.0,810.5,6.65,67.3,157,86.4,57.7,3,5,7,0,2026-03-08T15:03:26.797899+05:30
Mussoorie,Uttarakhand,30.4599,78.0664,23.1,55,0.0,807.6,6.2,47.5,157,71.9,53.8,0,5,7,0,2026-03-08T15:03:26.797906+05:30
Dharamshala,Himachal Pradesh,32.219,76.3234,27.3,36,0.0,874.2,6.4,27.4,61,34.8,13.4,4,5,7,0,2026-03-08T15:03:26.797913+05:30
Dalhousie,Himachal Pradesh,32.5387,75.971,26.7,28,0.0,810.5,6.65,26.3,107,42.7,22.1,4,5,7,0,2026-03-08T15:03:26.797920+05:30
Patiala,Punjab,30.3398,76.3869,33.5,37,0.0,981.0,5.65,29.2,166,348.3,71.7,0,5,3,1,2026-03-08T15:03:26.797927+05:30
Bhatinda,Punjab,30.211,74.9455,34.6,33,0.0,987.0,6.5,17.3,151,85.9,38.3,0,5,7,0,2026-03-08T15:03:26.797934+05:30
Rohtak,Haryana,28.8955,76.6066,34.3,30,0.0,984.7,6.05,20.9,169,263.6,40.5,0,5,7,0,2026-03-08T15:03:26.797940+05:30
Panipat,Haryana,29.3909,76.9635,34.1,34,0.0,983.1,5.8,28.1,168,510.4,66.6,0,5,3,1,2026-03-08T15:03:26.797947+05:30
Mathura,Uttar Pradesh,27.4924,77.6737,36.1,24,0.0,989.5,6.3,22.3,156,252.4,41.0,0,5,10,0,2026-03-08T15:03:26.797954+05:30
Vrindavan,Uttar Pradesh,27.5823,77.7027,35.5,26,0.0,990.0,6.25,23.0,156,252.4,41.0,0,5,10,0,2026-03-08T15:03:26.797960+05:30
Ayodhya,Uttar Pradesh,26.7922,82.1998,31.9,45,0.0,998.3,6.65,10.4,183,99.2,76.8,0,5,7,1,2026-03-08T15:03:26.797966+05:30
Ratlam,Madhya Pradesh,23.3315,75.0367,35.4,26,0.0,957.2,7.5,19.1,92,12.0,11.5,0,5,10,0,2026-03-08T15:03:26.797973+05:30
Sagar,Madhya Pradesh,23.8388,78.7378,34.6,26,0.0,952.9,7.45,21.6,81,35.9,16.5,0,5,7,0,2026-03-08T15:03:26.797980+05:30
Satna,Madhya Pradesh,24.6005,80.8322,35.0,24,0.0,973.8,7.4,27.4,160,72.2,47.7,0,5,7,0,2026-03-08T15:03:26.797986+05:30
Akola,Maharashtra,20.7002,77.0082,38.1,16,0.0,975.8,7.95,15.5,78,25.3,14.8,0,5,10,0,2026-03-08T15:03:26.797993+05:30
Amravati,Maharashtra,20.9374,77.7796,37.8,18,0.0,968.2,7.9,21.6,79,25.0,14.3,0,5,10,0,2026-03-08T15:03:26.798000+05:30
Latur,Maharashtra,18.4088,76.5604,35.8,20,0.0,940.5,8.4,23.8,108,22.7,18.2,0,5,10,0,2026-03-08T15:03:26.798007+05:30
Nanded,Maharashtra,19.1383,77.3091,38.2,18,0.0,968.9,8.15,25.2,89,27.6,16.8,0,5,10,0,2026-03-08T15:03:26.798013+05:30
Gulbarga,Karnataka,17.3297,76.8343,38.3,16,0.0,958.5,8.5,28.8,99,28.9,20.4,0,5,10,0,2026-03-08T15:03:26.798019+05:30
Bidar,Karnataka,17.9104,77.5199,36.0,18,0.0,936.2,8.4,29.2,110,29.2,19.4,0,5,10,0,2026-03-08T15:03:26.798026+05:30
Hospet,Karnataka,15.2689,76.3909,36.3,20,0.0,955.2,8.75,24.5,111,37.0,27.2,0,5,10,0,2026-03-08T15:03:26.798032+05:30
Tirupur,Tamil Nadu,11.1085,77.3411,36.2,25,0.0,974.1,9.2,30.2,117,41.6,32.8,0,5,10,0,2026-03-08T15:03:26.798038+05:30
Alappuzha,Kerala,9.4981,76.3388,28.7,80,0.0,1007.2,8.95,29.2,124,47.4,44.2,7,5,4,1,2026-03-08T15:03:26.798045+05:30
Munnar,Kerala,10.0889,77.0595,29.4,41,0.0,858.3,9.5,24.5,105,39.0,29.5,4,5,7,0,2026-03-08T15:03:26.798052+05:30
Silchar,Assam,24.8333,92.7789,31.7,45,0.0,1006.3,7.6,20.9,163,66.4,56.0,0,5,4,1,2026-03-08T15:03:26.798058+05:30
Dibrugarh,Assam,27.4728,94.912,28.9,55,0.0,997.8,6.3,20.5,164,96.2,76.4,4,5,7,1,2026-03-08T15:03:26.798065+05:30
