city,state,latitude,longitude,temp,humidity,rain,pressure,uv_index,wind_gusts,aqi,pm10,pm2_5,mosquito_risk,arthritis_risk,migraine_risk,frizz_risk,updated_at
Delhi,Delhi,28.6139,77.209,22.5,80,0.0,987.0,6.4,20.9,161,80.6,49.9,3,5,7,1,2026-03-23T20:28:42.673446+05:30
Mumbai,Maharashtra,19.076,72.8777,29.4,63,0.0,1008.8,7.9,23.0,204,50.1,39.5,7,0,4,1,2026-03-23T20:28:42.673489+05:30
Bangalore,Karnataka,12.9716,77.5946,27.1,43,0.0,912.7,9.45,25.6,117,39.1,33.9,4,5,7,0,2026-03-23T20:28:42.673504+05:30
Hyderabad,Telangana,17.385,78.4867,29.2,44,0.0,954.7,8.9,24.5,117,48.9,37.5,4,5,7,0,2026-03-23T20:28:42.673514+05:30
Chennai,Tamil Nadu,13.0827,80.2707,27.8,72,0.0,1009.6,9.2,31.7,38,10.1,6.4,7,0,4,1,2026-03-23T20:28:42.673522+05:30
Kolkata,West Bengal,22.5726,88.3639,25.0,72,0.0,1009.8,8.3,20.5,155,88.0,79.4,7,0,4,1,2026-03-23T20:28:42.673531+05:30
Pune,Maharashtra,18.5204,73.8567,29.0,38,0.0,949.6,8.45,45.7,130,26.9,21.4,4,5,7,0,2026-03-23T20:28:42.673543+05:30
Ahmedabad,Gujarat,23.0225,72.5714,29.5,36,0.0,1003.6,7.85,32.4,85,44.9,26.2,4,5,4,0,2026-03-23T20:28:42.673551+05:30
Jaipur,Rajasthan,26.9124,75.7873,24.2,60,0.0,962.8,7.25,40.3,112,155.5,39.7,0,5,7,0,2026-03-23T20:28:42.673559+05:30
Lucknow,Uttar Pradesh,26.8467,80.9462,24.0,62,0.0,997.3,6.6,37.8,162,98.5,45.2,3,5,7,1,2026-03-23T20:28:42.673567+05:30
Kanpur,Uttar Pradesh,26.4499,80.3319,23.4,68,0.0,995.6,4.7,29.2,264,239.3,60.3,3,5,3,1,2026-03-23T20:28:42.673575+05:30
Chandigarh,Chandigarh,30.7333,76.7794,20.3,76,0.0,972.1,6.45,27.4,116,50.5,38.4,3,5,7,0,2026-03-23T20:28:42.673583+05:30
Srinagar,Jammu and Kashmir,34.0837,74.7973,10.1,83,0.0,841.7,6.3,18.7,116,39.7,31.2,3,10,7,0,2026-03-23T20:28:42.673591+05:30
Jammu,Jammu and Kashmir,32.7266,74.857,20.9,69,0.0,975.8,7.0,16.2,112,46.6,39.2,3,5,7,0,2026-03-23T20:28:42.673598+05:30
Amritsar,Punjab,31.634,74.8723,21.2,68,0.0,984.0,7.05,16.9,128,59.6,47.3,3,5,7,0,2026-03-23T20:28:42.673605+05:30
Ludhiana,Punjab,30.901,75.8573,22.2,67,0.0,982.3,6.65,23.4,139,60.8,46.3,3,5,7,0,2026-03-23T20:28:42.673612+05:30
Jalandhar,Punjab,31.326,75.5762,21.4,70,0.0,983.4,6.85,23.0,138,46.4,35.7,3,5,7,0,2026-03-23T20:28:42.673620+05:30
Dehradun,Uttarakhand,30.6284,78.0322,11.3,88,0.0,830.0,6.85,21.6,101,29.5,22.8,3,10,7,0,2026-03-23T20:28:42.673628+05:30
Shimla,Himachal Pradesh,31.1048,77.1734,9.2,88,0.0,783.4,6.9,33.1,105,31.8,25.3,3,10,7,0,2026-03-23T20:28:42.673635+05:30
Manali,Himachal Pradesh,32.2396,77.1887,11.5,83,0.0,817.7,8.85,27.7,122,15.3,10.8,3,10,7,0,2026-03-23T20:28:42.673642+05:30
Gurgaon,Haryana,28.4595,77.0266,21.0,89,0.0,985.2,6.55,18.4,277,183.0,59.3,3,5,7,1,2026-03-23T20:28:42.673648+05:30
Noida,Uttar Pradesh,28.5355,77.391,22.5,80,0.0,988.4,6.4,20.2,277,183.0,59.3,3,5,7,1,2026-03-23T20:28:42.673655+05:30
Ghaziabad,Uttar Pradesh,28.6692,77.4538,21.4,88,0.0,986.7,6.35,22.0,155,102.2,58.3,3,5,7,1,2026-03-23T20:28:42.673665+05:30
Faridabad,Haryana,28.4089,77.3178,21.3,86,0.0,987.5,6.4,20.9,277,183.0,59.3,3,5,7,1,2026-03-23T20:28:42.673671+05:30
Meerut,Uttar Pradesh,28.9845,77.7064,20.2,90,0.0,985.7,6.25,27.0,155,102.2,58.3,3,5,7,1,2026-03-23T20:28:42.673678+05:30
Agra,Uttar Pradesh,27.1767,78.0081,22.5,74,0.0,991.6,5.15,24.8,220,128.5,69.6,3,5,3,1,2026-03-23T20:28:42.673684+05:30
Varanasi,Uttar Pradesh,25.3176,82.9739,25.4,56,0.0,1001.1,7.65,27.4,125,118.5,51.3,4,5,4,0,2026-03-23T20:28:42.673694+05:30
Prayagraj,Uttar Pradesh,25.4358,81.8463,26.2,55,0.0,999.4,7.55,20.5,126,83.6,34.5,4,5,7,1,2026-03-23T20:28:42.673701+05:30
Gorakhpur,Uttar Pradesh,26.7606,83.3732,23.1,69,0.0,1001.0,7.4,23.0,148,87.1,39.7,3,5,4,1,2026-03-23T20:28:42.673708+05:30
Bareilly,Uttar Pradesh,28.367,79.4304,21.4,84,0.0,990.9,5.25,25.2,108,48.8,29.8,3,5,3,1,2026-03-23T20:28:42.673715+05:30
Aligarh,Uttar Pradesh,27.8974,78.088,21.2,85,0.0,989.5,4.35,20.9,181,159.7,49.4,3,5,3,1,2026-03-23T20:28:42.673722+05:30
Moradabad,Uttar Pradesh,28.8386,78.7733,20.6,87,0.0,987.8,5.9,27.4,126,66.6,41.0,3,5,3,1,2026-03-23T20:28:42.673728+05:30
Saharanpur,Uttar Pradesh,29.9637,77.546,19.9,89,0.0,979.6,6.2,25.2,150,55.2,39.6,3,10,7,1,2026-03-23T20:28:42.673735+05:30
Jhansi,Uttar Pradesh,25.4484,78.5685,24.6,60,0.0,981.1,7.4,33.1,106,86.8,34.9,0,5,7,1,2026-03-23T20:28:45.891343+05:30
Surat,Gujarat,21.1702,72.8311,28.8,52,0.0,1007.5,7.65,25.6,111,80.8,60.5,4,5,4,1,2026-03-23T20:28:45.891377+05:30
Vadodara,Gujarat,22.3072,73.1812,29.8,50,0.0,1005.2,7.85,25.9,101,65.2,36.1,4,5,4,1,2026-03-23T20:28:45.891389+05:30
Rajkot,Gujarat,22.3039,70.8022,28.1,30,0.0,996.4,7.7,35.6,64,23.2,16.7,4,5,7,0,2026-03-23T20:28:45.891399+05:30
Thane,Maharashtra,19.2183,72.9781,29.4,49,0.0,1008.2,7.9,37.8,204,50.1,39.5,4,0,4,1,2026-03-23T20:28:45.891409+05:30
Nagpur,Maharashtra,21.1458,79.0882,29.4,37,0.0,975.1,8.1,20.5,155,37.8,29.5,4,5,7,0,2026-03-23T20:28:45.891418+05:30
Nashik,Maharashtra,19.9975,73.7898,26.9,46,0.0,946.9,8.15,36.4,122,27.8,16.9,4,5,7,0,2026-03-23T20:28:45.891426+05:30
Aurangabad,Maharashtra,19.8762,75.3433,28.5,38,0.0,945.0,8.65,27.0,114,15.4,11.5,4,5,7,0,2026-03-23T20:28:45.891435+05:30
Solapur,Maharashtra,17.6599,75.9064,30.4,37,0.0,957.5,8.8,27.4,116,46.2,33.4,0,5,7,0,2026-03-23T20:28:45.891444+05:30
Kolhapur,Maharashtra,16.705,74.2433,25.9,60,0.0,948.6,8.85,37.8,131,56.2,46.8,4,5,7,1,2026-03-23T20:28:45.891452+05:30
Goa,Goa,15.2993,74.124,28.4,78,0.0,999.0,8.9,33.8,123,37.5,25.0,7,5,7,1,2026-03-23T20:28:45.891460+05:30
Jodhpur,Rajasthan,26.2389,73.0243,28.9,36,0.0,985.0,7.5,27.4,74,69.6,20.4,4,5,7,0,2026-03-23T20:28:45.891468+05:30
Udaipur,Rajasthan,24.5854,73.7125,25.8,41,0.0,948.6,7.55,38.5,55,32.6,16.8,4,5,7,0,2026-03-23T20:28:45.891476+05:30
Kota,Rajasthan,25.2138,75.8648,25.2,61,0.0,981.6,7.1,34.2,75,89.4,32.1,7,5,7,1,2026-03-23T20:28:45.891484+05:30
Bikaner,Rajasthan,28.0229,73.3119,28.7,39,0.0,984.1,7.25,15.8,74,39.7,16.1,4,5,7,0,2026-03-23T20:28:45.891492+05:30
Ajmer,Rajasthan,26.4499,74.6399,25.7,53,0.0,957.0,7.5,31.7,62,47.4,18.5,4,5,7,0,2026-03-23T20:28:45.891500+05:30
Gwalior,Madhya Pradesh,26.2183,78.1828,23.4,74,0.0,986.7,4.35,31.7,96,105.9,36.8,3,5,3,1,2026-03-23T20:28:45.891508+05:30
Indore,Madhya Pradesh,22.7196,75.8577,26.3,50,0.0,949.5,8.1,26.6,68,34.7,18.4,4,5,7,0,2026-03-23T20:28:45.891516+05:30
Bhopal,Madhya Pradesh,23.2599,77.4126,25.8,46,0.0,955.5,8.0,33.8,94,22.2,13.9,4,5,7,0,2026-03-23T20:28:45.891524+05:30
Jabalpur,Madhya Pradesh,23.1815,79.9864,26.1,51,0.0,964.1,7.8,20.9,89,28.3,18.0,4,5,7,0,2026-03-23T20:28:45.891532+05:30
Ujjain,Madhya Pradesh,23.1765,75.7885,24.7,51,0.0,955.1,8.0,25.6,81,35.9,19.4,0,5,7,0,2026-03-23T20:28:45.891540+05:30
Visakhapatnam,Andhra Pradesh,17.6868,83.2185,26.0,82,0.0,1007.2,8.85,33.8,94,27.1,19.6,7,5,4,1,2026-03-23T20:28:45.891548+05:30
Vijayawada,Andhra Pradesh,16.5062,80.648,27.9,71,0.0,1004.9,8.95,23.0,73,19.1,15.3,7,5,4,1,2026-03-23T20:28:45.891556+05:30
Guntur,Andhra Pradesh,16.3067,80.4365,26.4,79,0.0,1006.2,8.95,26.6,72,21.1,16.9,7,5,4,1,2026-03-23T20:28:45.891563+05:30
Nellore,Andhra Pradesh,14.4426,79.9865,27.1,77,0.0,1008.2,9.1,28.4,51,10.9,6.9,7,0,4,1,2026-03-23T20:28:45.891572+05:30
Kurnool,Andhra Pradesh,15.8281,78.0373,32.8,37,0.0,977.3,8.95,25.9,89,35.7,25.6,0,5,7,1,2026-03-23T20:28:45.891581+05:30
Kakinada,Andhra Pradesh,16.9891,82.2475,26.1,81,0.0,1010.9,8.9,30.6,60,20.0,11.3,7,0,4,1,2026-03-23T20:28:45.891589+05:30
Tirupati,Andhra Pradesh,13.6288,79.4192,28.0,64,0.0,993.9,9.2,29.9,92,21.1,17.4,7,5,7,1,2026-03-23T20:28:45.891596+05:30
Warangal,Telangana,17.9689,79.5941,29.3,50,0.0,980.2,8.8,24.1,114,59.0,48.8,4,5,7,1,2026-03-23T20:28:45.891603+05:30
Nizamabad,Telangana,18.6725,78.0941,29.1,42,0.0,965.9,8.7,25.2,130,48.5,39.8,4,5,7,0,2026-03-23T20:28:45.891611+05:30
Mysore,Karnataka,12.2958,76.6396,27.3,59,0.0,929.4,9.4,26.6,121,38.6,31.3,4,5,7,1,2026-03-23T20:28:45.891619+05:30
Mangalore,Karnataka,12.9141,74.856,29.6,75,0.0,1007.6,9.05,26.6,75,27.8,18.2,7,5,4,1,2026-03-23T20:28:45.891626+05:30
Hubli-Dharwad,Karnataka,15.3647,75.124,26.6,67,0.0,941.5,9.1,35.6,155,44.1,33.8,7,5,7,1,2026-03-23T20:28:45.891633+05:30
Belgaum,Karnataka,15.8497,74.4977,25.0,72,0.0,926.5,9.15,41.8,154,30.0,26.1,7,5,7,1,2026-03-23T20:28:49.113659+05:30
Coimbatore,Tamil Nadu,11.0168,76.9558,27.1,57,0.0,962.6,9.4,37.1,110,27.9,21.5,4,5,7,1,2026-03-23T20:28:49.113694+05:30
Madurai,Tamil Nadu,9.9252,78.1198,29.8,55,0.0,994.1,9.35,30.6,71,18.9,14.8,4,5,7,1,2026-03-23T20:28:49.113707+05:30
Trichy,Tamil Nadu,10.7905,78.7047,28.7,66,0.0,1001.1,9.3,23.8,73,18.8,16.1,7,5,4,1,2026-03-23T20:28:49.113716+05:30
Salem,Tamil Nadu,11.6643,78.146,30.0,49,0.0,978.1,9.35,29.2,118,30.7,24.3,4,5,7,1,2026-03-23T20:28:49.113724+05:30
Tirunelveli,Tamil Nadu,8.7139,77.7567,29.1,56,0.0,1004.3,9.3,34.2,71,14.5,10.1,4,5,4,1,2026-03-23T20:28:49.113731+05:30
Vellore,Tamil Nadu,12.9165,79.1325,27.9,59,0.0,986.5,9.25,36.0,80,20.8,16.9,4,5,7,1,2026-03-23T20:28:49.113738+05:30
Erode,Tamil Nadu,11.341,77.7172,30.7,50,0.0,989.6,9.35,18.4,92,25.6,19.9,0,5,7,1,2026-03-23T20:28:49.113745+05:30
Kochi,Kerala,9.9312,76.2673,29.4,78,0.0,1009.2,9.15,33.5,131,35.9,27.8,7,0,4,1,2026-03-23T20:28:49.113752+05:30
Thiruvananthapuram,Kerala,8.5241,76.9366,29.3,72,0.0,1008.9,9.15,24.1,117,22.6,15.5,7,0,4,1,2026-03-23T20:28:49.113759+05:30
Kozhikode,Kerala,11.2588,75.7804,29.9,75,0.0,1008.3,9.1,28.4,98,30.6,17.4,7,0,4,1,2026-03-23T20:28:49.113766+05:30
Thrissur,Kerala,10.5276,76.2144,28.8,79,0.0,1007.4,9.1,38.9,105,34.2,26.3,7,5,4,1,2026-03-23T20:28:49.113773+05:30
Kannur,Kerala,11.8745,75.3704,29.5,72,0.0,1007.7,9.1,27.4,69,23.8,14.4,7,5,4,1,2026-03-23T20:28:49.113781+05:30
Patna,Bihar,25.5941,85.1376,26.5,50,0.0,1003.8,7.85,20.9,151,101.3,54.2,4,5,4,0,2026-03-23T20:28:49.113787+05:30
Gaya,Bihar,24.7914,85.0002,24.4,60,0.0,997.4,7.95,17.6,108,83.4,36.6,0,5,7,1,2026-03-23T20:28:49.113794+05:30
Muzaffarpur,Bihar,26.1209,85.3647,23.4,67,0.0,1003.9,7.8,15.8,151,116.2,70.5,3,5,4,1,2026-03-23T20:28:49.113800+05:30
Bhagalpur,Bihar,25.2425,87.0117,24.0,68,0.0,1005.1,7.85,14.4,139,46.6,42.6,3,5,4,1,2026-03-23T20:28:49.113807+05:30
Ranchi,Jharkhand,23.3441,85.3096,22.7,48,0.0,940.8,8.55,27.7,83,30.4,14.8,0,5,7,0,2026-03-23T20:28:49.113814+05:30
Jamshedpur,Jharkhand,22.8046,86.2029,27.3,48,0.0,994.1,8.4,18.7,152,58.1,41.6,4,5,7,0,2026-03-23T20:28:49.113821+05:30
Dhanbad,Jharkhand,23.7957,86.4304,24.7,55,0.0,983.3,8.3,16.9,153,101.0,81.7,0,5,7,0,2026-03-23T20:28:49.113827+05:30
Bokaro,Jharkhand,23.6693,86.1511,24.8,56,0.0,987.5,8.3,18.7,152,85.4,64.7,0,5,7,0,2026-03-23T20:28:49.113834+05:30
Bhubaneswar,Odisha,20.2961,85.8245,26.1,81,0.0,1006.3,8.65,32.4,153,45.4,37.3,7,5,4,1,2026-03-23T20:28:49.113841+05:30
Cuttack,Odisha,20.4625,85.8828,27.5,67,0.0,1007.9,8.7,24.8,153,45.4,37.3,7,5,4,1,2026-03-23T20:28:49.113848+05:30
Rourkela,Odisha,22.2604,84.8536,24.7,57,0.0,987.8,8.3,19.1,123,45.8,29.4,0,5,7,0,2026-03-23T20:28:49.113854+05:30
Raipur,Chhattisgarh,21.2514,81.6296,28.8,37,0.0,977.0,8.45,18.7,141,46.7,35.0,4,5,7,0,2026-03-23T20:28:49.113860+05:30
Bhilai,Chhattisgarh,21.1938,81.3509,28.4,40,0.0,977.3,8.45,16.6,151,48.8,38.1,4,5,7,0,2026-03-23T20:28:49.113866+05:30
Guwahati,Assam,26.1158,91.7086,23.1,80,0.0,1006.2,7.6,20.9,91,33.9,32.4,3,5,4,1,2026-03-23T20:28:49.113873+05:30
Agartala,Tripura,23.8315,91.2868,24.1,62,0.0,1010.4,8.05,13.3,157,84.8,80.6,3,0,4,1,2026-03-23T20:28:49.113879+05:30
Shillong,Meghalaya,25.5788,91.8933,11.4,90,0.0,857.2,7.15,25.2,96,27.5,26.0,3,10,7,0,2026-03-23T20:28:49.113886+05:30
Imphal,Manipur,24.817,93.9368,15.0,82,0.0,926.0,8.35,36.7,81,29.2,27.4,3,10,7,0,2026-03-23T20:28:49.113892+05:30
Aizawl,Mizoram,23.7271,92.7176,16.0,69,0.0,894.8,8.3,33.5,85,30.9,27.4,3,5,7,0,2026-03-23T20:28:49.113899+05:30
Kohima,Nagaland,25.6701,94.1077,12.1,94,0.0,856.0,8.0,39.2,71,24.5,21.8,3,10,7,0,2026-03-23T20:28:49.113906+05:30
Gangtok,Sikkim,27.3314,88.6138,12.1,98,0.2,838.1,6.5,18.7,91,30.3,29.6,6,10,7,0,2026-03-23T20:28:49.113913+05:30
Siliguri,West Bengal,26.7271,88.3953,18.9,68,0.0,997.8,7.1,20.5,111,36.3,34.8,3,5,7,0,2026-03-23T20:28:52.338533+05:30
Durgapur,West Bengal,23.5204,87.3119,25.9,52,0.0,998.7,8.25,16.2,158,75.4,67.3,4,5,7,0,2026-03-23T20:28:52.338567+05:30
Asansol,West Bengal,23.6739,86.9524,25.7,52,0.0,997.1,8.25,16.6,126,71.7,58.4,4,5,7,0,2026-03-23T20:28:52.338579+05:30
Pondicherry,Puducherry,11.9139,79.8145,25.7,86,0.0,1010.4,9.15,29.2,31,9.3,5.7,7,0,4,1,2026-03-23T20:28:52.338588+05:30
Port Blair,Andaman and Nicobar Islands,11.6234,92.7265,28.7,75,0.0,1008.9,9.1,23.4,31,3.8,2.5,7,0,4,1,2026-03-23T20:28:52.338597+05:30
Haridwar,Uttarakhand,29.9457,78.1642,18.8,89,0.0,978.9,6.35,24.8,126,51.3,36.3,3,10,7,1,2026-03-23T20:28:52.338606+05:30
Rishikesh,Uttarakhand,30.0869,78.2676,19.3,86,0.0,971.1,6.4,21.2,117,54.5,34.8,3,10,7,1,2026-03-23T20:28:52.338615+05:30
Nainital,Uttarakhand,29.3919,79.4542,13.8,83,0.0,806.1,7.0,45.0,104,48.3,33.8,3,10,7,0,2026-03-23T20:28:52.338624+05:30
Mussoorie,Uttarakhand,30.4599,78.0664,11.7,89,0.0,802.4,6.65,24.5,122,48.8,37.8,3,10,7,0,2026-03-23T20:28:52.338632+05:30
Dharamshala,Himachal Pradesh,32.219,76.3234,15.9,71,0.0,869.9,6.95,19.4,120,24.7,18.9,3,5,7,0,2026-03-23T20:28:52.338640+05:30
Dalhousie,Himachal Pradesh,32.5387,75.971,12.7,70,0.0,803.3,7.15,17.3,112,36.8,31.1,3,5,7,0,2026-03-23T20:28:52.338649+05:30
Patiala,Punjab,30.3398,76.3869,21.7,74,0.0,981.8,6.3,23.8,143,65.4,47.5,3,5,7,1,2026-03-23T20:28:52.338657+05:30
Bhatinda,Punjab,30.211,74.9455,22.6,67,0.0,986.8,7.0,18.4,133,75.9,45.8,3,5,7,1,2026-03-23T20:28:52.338666+05:30
Rohtak,Haryana,28.8955,76.6066,21.5,84,0.0,985.7,6.45,20.5,157,79.4,42.3,3,5,7,1,2026-03-23T20:28:52.338674+05:30
Panipat,Haryana,29.3909,76.9635,20.8,86,0.0,984.5,6.3,23.0,184,62.9,39.0,3,5,7,1,2026-03-23T20:28:52.338681+05:30
Mathura,Uttar Pradesh,27.4924,77.6737,22.2,80,0.0,990.5,5.9,20.2,196,115.5,54.5,3,5,3,1,2026-03-23T20:28:52.338689+05:30
Vrindavan,Uttar Pradesh,27.5823,77.7027,22.8,77,0.0,991.0,6.05,19.8,196,115.5,54.5,3,5,7,1,2026-03-23T20:28:52.338696+05:30
Ayodhya,Uttar Pradesh,26.7922,82.1998,24.8,54,0.0,999.0,7.1,29.2,147,63.6,35.7,0,5,7,0,2026-03-23T20:28:52.338704+05:30
Ratlam,Madhya Pradesh,23.3315,75.0367,25.8,49,0.0,955.9,7.95,29.2,76,29.8,15.1,4,5,7,0,2026-03-23T20:28:52.338711+05:30
Sagar,Madhya Pradesh,23.8388,78.7378,25.5,49,0.0,952.5,8.0,31.0,78,19.7,12.2,4,5,7,0,2026-03-23T20:28:52.338719+05:30
Satna,Madhya Pradesh,24.6005,80.8322,26.8,42,0.0,974.4,7.95,23.4,93,33.5,19.2,4,5,7,0,2026-03-23T20:28:52.338727+05:30
Akola,Maharashtra,20.7002,77.0082,29.2,44,0.0,976.4,8.35,16.6,140,26.7,22.3,4,5,7,0,2026-03-23T20:28:52.338735+05:30
Amravati,Maharashtra,20.9374,77.7796,28.5,43,0.0,968.7,8.35,22.0,144,27.8,23.2,4,5,7,0,2026-03-23T20:28:52.338744+05:30
Latur,Maharashtra,18.4088,76.5604,27.9,45,0.0,940.6,8.6,22.3,114,35.2,29.3,4,5,7,0,2026-03-23T20:28:52.338752+05:30
Nanded,Maharashtra,19.1383,77.3091,30.4,36,0.0,969.4,8.55,18.0,141,46.6,37.8,0,5,7,0,2026-03-23T20:28:52.338760+05:30
Gulbarga,Karnataka,17.3297,76.8343,29.7,44,0.0,960.0,8.8,29.2,125,45.2,32.2,4,5,7,1,2026-03-23T20:28:52.338767+05:30
Bidar,Karnataka,17.9104,77.5199,29.4,42,0.0,937.0,8.8,22.7,129,48.0,38.1,4,5,7,0,2026-03-23T20:28:52.338775+05:30
Hospet,Karnataka,15.2689,76.3909,30.8,48,0.0,956.2,9.05,28.8,155,45.2,37.6,0,5,7,1,2026-03-23T20:28:52.338782+05:30
Tirupur,Tamil Nadu,11.1085,77.3411,30.7,37,0.0,976.0,9.4,31.3,104,28.2,21.7,0,5,7,0,2026-03-23T20:28:52.338789+05:30
Alappuzha,Kerala,9.4981,76.3388,29.4,76,0.0,1009.6,9.15,33.1,136,38.9,25.6,7,0,4,1,2026-03-23T20:28:52.338797+05:30
Munnar,Kerala,10.0889,77.0595,24.1,70,0.0,858.5,9.65,29.5,85,31.7,23.2,3,5,7,1,2026-03-23T20:28:52.338806+05:30
Silchar,Assam,24.8333,92.7789,21.9,79,0.0,1009.7,8.05,18.7,120,54.9,51.9,3,0,4,1,2026-03-23T20:28:52.338814+05:30
Dibrugarh,Assam,27.4728,94.912,21.4,90,0.0,1000.7,7.75,14.8,67,30.3,29.5,3,5,4,1,2026-03-23T20:28:52.338821+05:30
