city,state,latitude,longitude,temp,humidity,rain,pressure,uv_index,wind_gusts,aqi,pm10,pm2_5,no2,co,o3,so2,mosquito_risk,arthritis_risk,migraine_risk,frizz_risk,updated_at
Delhi,Delhi,28.6139,77.209,25.8,93,0.0,975.9,6.0,38.2,86,72.4,71.5,82.3,834.0,5.0,39.7,7,5,3,1,2026-07-09T23:34:28.688064+05:30
Mumbai,Maharashtra,19.076,72.8777,27.3,85,0.0,1007.6,6.8,47.5,58,33.8,14.2,6.4,168.0,39.0,4.9,7,5,4,1,2026-07-09T23:34:28.688112+05:30
Bangalore,Karnataka,12.9716,77.5946,22.0,86,0.0,913.0,8.25,50.8,26,10.6,8.0,14.2,284.0,36.0,4.6,3,5,7,1,2026-07-09T23:34:28.688128+05:30
Hyderabad,Telangana,17.385,78.4867,26.7,74,0.0,952.0,8.45,47.5,39,21.9,13.7,10.0,258.0,55.0,5.5,7,5,7,1,2026-07-09T23:34:28.688138+05:30
Chennai,Tamil Nadu,13.0827,80.2707,29.7,77,0.0,1007.1,7.8,41.0,60,23.9,17.9,18.1,297.0,67.0,8.3,7,5,4,1,2026-07-09T23:34:28.688148+05:30
Kolkata,West Bengal,22.5726,88.3639,27.7,94,0.0,1001.3,5.35,45.7,63,26.5,21.2,8.4,254.0,64.0,7.3,7,5,0,1,2026-07-09T23:34:28.688157+05:30
Pune,Maharashtra,18.5204,73.8567,24.1,90,0.0,947.2,7.4,50.0,26,8.4,4.9,8.3,140.0,32.0,5.9,3,5,7,1,2026-07-09T23:34:28.688165+05:30
Ahmedabad,Gujarat,23.0225,72.5714,29.6,72,0.0,998.0,7.9,42.1,77,39.9,21.4,7.4,155.0,52.0,5.0,7,5,7,1,2026-07-09T23:34:28.688172+05:30
Jaipur,Rajasthan,26.9124,75.7873,27.2,82,0.0,953.8,8.1,38.5,151,159.7,49.4,9.1,261.0,69.0,4.6,7,5,7,1,2026-07-09T23:34:28.688179+05:30
Lucknow,Uttar Pradesh,26.8467,80.9462,26.9,94,0.0,987.1,6.85,35.3,77,60.3,40.3,36.4,381.0,35.0,13.1,7,5,7,1,2026-07-09T23:34:28.688190+05:30
Kanpur,Uttar Pradesh,26.4499,80.3319,28.8,79,0.0,985.2,6.95,32.0,65,71.5,37.0,22.3,314.0,61.0,10.6,7,5,7,1,2026-07-09T23:34:28.688198+05:30
Chandigarh,Chandigarh,30.7333,76.7794,25.0,100,0.3,962.5,1.5,21.6,152,45.5,45.3,43.7,742.0,41.0,8.6,10,5,3,1,2026-07-09T23:34:28.688206+05:30
Srinagar,Jammu and Kashmir,34.0837,74.7973,22.5,75,0.0,837.0,9.05,20.9,82,31.7,30.7,33.2,936.0,33.0,3.5,3,5,7,1,2026-07-09T23:34:28.688237+05:30
Jammu,Jammu and Kashmir,32.7266,74.857,29.5,69,0.0,965.8,8.6,24.5,155,86.1,78.2,58.0,514.0,23.0,8.1,7,5,7,1,2026-07-09T23:34:28.688248+05:30
Amritsar,Punjab,31.634,74.8723,28.0,84,0.0,973.5,8.45,27.7,157,92.9,63.3,20.8,580.0,90.0,9.2,7,5,7,1,2026-07-09T23:34:28.688255+05:30
Ludhiana,Punjab,30.901,75.8573,25.9,84,0.0,971.8,3.25,41.0,150,27.6,27.6,18.9,612.0,68.0,7.3,7,5,3,1,2026-07-09T23:34:28.688261+05:30
Jalandhar,Punjab,31.326,75.5762,26.1,79,0.0,972.8,7.5,32.8,154,68.2,38.1,21.3,666.0,65.0,7.0,7,5,7,1,2026-07-09T23:34:28.688268+05:30
Dehradun,Uttarakhand,30.6284,78.0322,17.6,98,0.3,825.5,0.45,34.9,67,13.0,13.0,40.9,194.0,23.0,1.2,6,10,3,1,2026-07-09T23:34:28.688279+05:30
Shimla,Himachal Pradesh,31.1048,77.1734,15.3,98,0.2,780.2,1.5,24.5,53,10.5,10.3,30.0,567.0,51.0,3.5,6,10,3,0,2026-07-09T23:34:28.688287+05:30
Manali,Himachal Pradesh,32.2396,77.1887,21.0,84,0.4,816.0,6.75,35.3,43,13.3,13.2,87.2,269.0,5.0,0.5,6,5,7,1,2026-07-09T23:34:28.688301+05:30
Gurgaon,Haryana,28.4595,77.0266,26.0,92,0.0,974.5,6.55,37.8,116,93.8,87.5,97.0,916.0,5.0,44.3,7,5,7,1,2026-07-09T23:34:28.688313+05:30
Noida,Uttar Pradesh,28.5355,77.391,25.9,93,0.0,977.4,5.4,44.6,116,93.8,87.5,97.0,818.0,5.0,44.3,7,5,3,1,2026-07-09T23:34:28.688319+05:30
Ghaziabad,Uttar Pradesh,28.6692,77.4538,25.9,97,0.0,975.5,5.8,32.8,82,63.6,57.9,42.7,410.0,41.0,20.3,7,5,3,1,2026-07-09T23:34:28.688326+05:30
Faridabad,Haryana,28.4089,77.3178,25.8,92,0.0,976.7,5.7,56.5,116,93.8,87.5,97.0,824.0,5.0,44.3,7,5,3,1,2026-07-09T23:34:28.688333+05:30
Meerut,Uttar Pradesh,28.9845,77.7064,26.2,96,0.3,974.2,2.9,36.4,82,63.6,57.9,42.7,365.0,41.0,20.3,10,5,3,1,2026-07-09T23:34:28.688339+05:30
Agra,Uttar Pradesh,27.1767,78.0081,27.8,83,0.0,980.8,6.65,58.0,105,298.0,70.3,19.1,373.0,71.0,7.6,7,5,7,1,2026-07-09T23:34:28.688348+05:30
Varanasi,Uttar Pradesh,25.3176,82.9739,28.0,90,0.0,992.1,7.3,26.6,76,19.0,15.6,12.5,574.0,69.0,5.7,7,5,7,1,2026-07-09T23:34:28.688355+05:30
Prayagraj,Uttar Pradesh,25.4358,81.8463,28.4,88,0.0,990.4,7.95,27.7,74,28.4,21.7,12.3,282.0,70.0,6.6,7,5,7,1,2026-07-09T23:34:28.688362+05:30
Gorakhpur,Uttar Pradesh,26.7606,83.3732,26.3,98,0.2,992.2,7.15,27.7,84,24.2,23.6,10.5,331.0,96.0,5.1,10,5,7,1,2026-07-09T23:34:28.688369+05:30
Bareilly,Uttar Pradesh,28.367,79.4304,26.5,93,0.1,980.1,7.1,45.4,65,21.4,21.4,17.0,353.0,70.0,9.1,10,5,7,1,2026-07-09T23:34:28.688377+05:30
Aligarh,Uttar Pradesh,27.8974,78.088,26.3,91,0.0,978.5,7.8,35.6,122,218.9,78.5,30.8,545.0,56.0,16.2,7,5,7,1,2026-07-09T23:34:28.688384+05:30
Moradabad,Uttar Pradesh,28.8386,78.7733,26.1,96,0.0,976.9,6.1,46.4,66,23.0,22.9,17.3,316.0,70.0,7.5,7,5,7,1,2026-07-09T23:34:28.688390+05:30
Saharanpur,Uttar Pradesh,29.9637,77.546,25.6,95,0.1,969.2,1.4,27.0,83,22.5,22.2,21.4,454.0,53.0,5.0,10,5,3,1,2026-07-09T23:34:28.688396+05:30
Jhansi,Uttar Pradesh,25.4484,78.5685,26.7,93,0.1,972.5,4.7,46.8,77,52.5,32.2,9.3,171.0,67.0,7.7,10,5,3,1,2026-07-09T23:34:31.970412+05:30
Surat,Gujarat,21.1702,72.8311,28.2,87,0.0,1004.2,6.4,56.2,67,28.6,16.5,16.9,266.0,29.0,28.0,7,5,4,1,2026-07-09T23:34:31.970444+05:30
Vadodara,Gujarat,22.3072,73.1812,28.6,84,0.0,1000.8,6.55,49.7,68,32.8,18.7,10.7,140.0,39.0,9.0,7,5,4,1,2026-07-09T23:34:31.970455+05:30
Rajkot,Gujarat,22.3039,70.8022,27.3,85,0.0,990.6,7.55,50.4,67,39.5,19.8,5.0,112.0,40.0,4.4,7,5,7,1,2026-07-09T23:34:31.970464+05:30
Thane,Maharashtra,19.2183,72.9781,26.3,94,0.1,1006.9,7.1,41.0,58,33.8,14.2,6.4,193.0,39.0,4.9,10,5,4,1,2026-07-09T23:34:31.970472+05:30
Nagpur,Maharashtra,21.1458,79.0882,27.4,78,0.0,970.0,5.6,46.4,62,30.6,18.5,12.7,279.0,46.0,13.4,7,5,3,1,2026-07-09T23:34:31.970480+05:30
Nashik,Maharashtra,19.9975,73.7898,23.8,95,0.0,943.6,5.85,55.4,38,11.1,6.6,9.6,126.0,29.0,4.7,3,5,3,1,2026-07-09T23:34:31.970487+05:30
Aurangabad,Maharashtra,19.8762,75.3433,25.0,83,0.0,942.7,7.5,53.3,45,20.0,11.1,8.6,159.0,40.0,9.1,7,5,7,1,2026-07-09T23:34:31.970495+05:30
Solapur,Maharashtra,17.6599,75.9064,26.1,75,0.0,956.8,6.0,46.8,33,15.9,9.8,5.8,136.0,37.0,2.6,7,5,3,1,2026-07-09T23:34:31.970503+05:30
Kolhapur,Maharashtra,16.705,74.2433,23.1,95,0.0,948.1,8.5,52.2,27,10.0,6.7,5.9,140.0,34.0,2.7,3,5,7,1,2026-07-09T23:34:31.970510+05:30
Goa,Goa,15.2993,74.124,25.2,97,0.0,999.6,7.65,34.9,54,27.7,16.7,4.8,398.0,36.0,1.5,7,5,7,1,2026-07-09T23:34:31.970517+05:30
Jodhpur,Rajasthan,26.2389,73.0243,30.9,62,0.0,976.5,8.45,41.8,173,236.1,61.0,6.8,137.0,57.0,2.9,3,5,7,1,2026-07-09T23:34:31.970524+05:30
Udaipur,Rajasthan,24.5854,73.7125,26.8,69,0.0,941.9,8.8,50.4,81,40.2,22.5,5.6,127.0,68.0,3.8,7,5,7,1,2026-07-09T23:34:31.970531+05:30
Kota,Rajasthan,25.2138,75.8648,27.8,81,0.0,973.6,8.3,40.0,89,62.9,31.5,7.7,166.0,68.0,6.5,7,5,7,1,2026-07-09T23:34:31.970538+05:30
Bikaner,Rajasthan,28.0229,73.3119,31.6,59,0.0,974.2,8.45,31.3,157,243.1,79.6,2.4,160.0,74.0,4.5,0,5,7,1,2026-07-09T23:34:31.970544+05:30
Ajmer,Rajasthan,26.4499,74.6399,27.7,71,0.0,949.0,8.35,46.8,102,83.1,32.8,6.0,141.0,68.0,4.0,7,5,7,1,2026-07-09T23:34:31.970551+05:30
Gwalior,Madhya Pradesh,26.2183,78.1828,27.0,85,0.0,977.0,5.9,41.8,78,59.5,35.0,9.2,143.0,68.0,5.8,7,5,3,1,2026-07-09T23:34:31.970558+05:30
Indore,Madhya Pradesh,22.7196,75.8577,25.3,83,0.0,944.5,5.5,49.0,71,44.4,26.8,8.8,242.0,67.0,10.4,7,5,3,1,2026-07-09T23:34:31.970565+05:30
Bhopal,Madhya Pradesh,23.2599,77.4126,26.2,77,0.0,949.6,6.3,54.0,70,45.2,26.5,7.4,224.0,65.0,6.9,7,5,7,1,2026-07-09T23:34:31.970571+05:30
Jabalpur,Madhya Pradesh,23.1815,79.9864,26.8,79,0.0,957.6,7.35,45.7,61,45.3,25.7,6.4,213.0,64.0,6.5,7,5,7,1,2026-07-09T23:34:31.970578+05:30
Ujjain,Madhya Pradesh,23.1765,75.7885,25.8,81,0.0,950.0,7.2,50.8,72,45.4,27.1,6.7,215.0,68.0,8.9,7,5,7,1,2026-07-09T23:34:31.970586+05:30
Visakhapatnam,Andhra Pradesh,17.6868,83.2185,28.3,82,0.0,1001.0,8.25,46.1,80,20.7,17.8,19.3,296.0,56.0,30.3,7,5,4,1,2026-07-09T23:34:31.970593+05:30
Vijayawada,Andhra Pradesh,16.5062,80.648,28.9,79,0.0,1001.0,6.45,39.6,57,22.1,16.5,6.1,170.0,93.0,6.2,7,5,4,1,2026-07-09T23:34:31.970600+05:30
Guntur,Andhra Pradesh,16.3067,80.4365,28.4,83,0.0,1002.3,6.3,43.2,55,19.8,14.7,6.5,182.0,89.0,5.2,7,5,4,1,2026-07-09T23:34:31.970607+05:30
Nellore,Andhra Pradesh,14.4426,79.9865,27.5,93,0.0,1005.6,8.55,45.7,44,14.1,9.7,7.9,190.0,57.0,2.6,7,5,4,1,2026-07-09T23:34:31.970615+05:30
Kurnool,Andhra Pradesh,15.8281,78.0373,27.9,69,0.0,976.7,5.45,49.3,36,20.7,12.4,9.5,181.0,50.0,3.1,7,5,3,1,2026-07-09T23:34:31.970622+05:30
Kakinada,Andhra Pradesh,16.9891,82.2475,28.9,77,0.0,1005.6,8.1,50.4,68,24.7,17.8,5.5,271.0,85.0,4.1,7,5,4,1,2026-07-09T23:34:31.970629+05:30
Tirupati,Andhra Pradesh,13.6288,79.4192,28.1,70,0.0,991.3,7.85,42.5,40,14.1,10.7,20.1,238.0,32.0,2.4,7,5,7,1,2026-07-09T23:34:31.970636+05:30
Warangal,Telangana,17.9689,79.5941,27.5,81,0.0,976.6,8.0,36.0,52,36.3,24.0,13.5,206.0,45.0,4.1,7,5,7,1,2026-07-09T23:34:31.970643+05:30
Nizamabad,Telangana,18.6725,78.0941,27.8,70,0.0,962.8,6.0,46.1,54,34.2,22.2,12.2,194.0,47.0,6.0,7,5,3,1,2026-07-09T23:34:31.970651+05:30
Mysore,Karnataka,12.2958,76.6396,21.9,91,0.0,930.2,6.85,45.0,25,8.9,6.5,9.0,145.0,37.0,2.5,3,5,7,1,2026-07-09T23:34:31.970657+05:30
Mangalore,Karnataka,12.9141,74.856,24.9,98,0.0,1009.4,8.3,37.8,55,29.2,17.2,10.9,249.0,32.0,3.5,3,0,4,1,2026-07-09T23:34:31.970665+05:30
Hubli-Dharwad,Karnataka,15.3647,75.124,23.0,93,0.0,941.7,8.05,55.1,21,10.4,6.8,6.7,122.0,33.0,1.8,3,5,7,1,2026-07-09T23:34:31.970672+05:30
Belgaum,Karnataka,15.8497,74.4977,22.0,96,0.0,926.1,7.6,54.7,21,7.4,4.2,3.9,107.0,38.0,1.6,3,5,7,1,2026-07-09T23:34:35.252685+05:30
Coimbatore,Tamil Nadu,11.0168,76.9558,23.6,93,0.0,963.3,8.8,47.2,22,11.8,8.9,10.3,221.0,31.0,3.6,3,5,7,1,2026-07-09T23:34:35.252717+05:30
Madurai,Tamil Nadu,9.9252,78.1198,30.1,60,0.0,994.2,8.7,35.3,47,32.4,26.3,40.6,141.0,9.0,8.8,0,5,7,1,2026-07-09T23:34:35.252729+05:30
Trichy,Tamil Nadu,10.7905,78.7047,30.0,58,0.0,1000.9,8.5,54.4,30,13.9,9.9,10.0,126.0,40.0,4.0,4,5,4,1,2026-07-09T23:34:35.252738+05:30
Salem,Tamil Nadu,11.6643,78.146,26.7,79,0.0,978.7,7.95,31.7,49,26.3,21.5,30.3,432.0,20.0,8.2,7,5,7,1,2026-07-09T23:34:35.252748+05:30
Tirunelveli,Tamil Nadu,8.7139,77.7567,29.3,60,0.0,1004.3,8.3,49.0,33,14.0,9.4,7.2,143.0,38.0,2.4,4,5,4,1,2026-07-09T23:34:35.252756+05:30
Vellore,Tamil Nadu,12.9165,79.1325,26.5,93,0.2,985.3,8.35,42.8,42,24.8,19.4,24.8,439.0,28.0,4.5,10,5,7,1,2026-07-09T23:34:35.252764+05:30
Erode,Tamil Nadu,11.341,77.7172,27.2,74,0.0,990.4,8.05,48.2,35,18.8,14.8,17.7,214.0,28.0,4.3,7,5,7,1,2026-07-09T23:34:35.252772+05:30
Kochi,Kerala,9.9312,76.2673,26.2,93,0.1,1011.7,8.55,44.6,52,21.9,17.9,20.0,236.0,16.0,5.0,10,0,4,1,2026-07-09T23:34:35.252780+05:30
Thiruvananthapuram,Kerala,8.5241,76.9366,25.3,92,0.0,1010.9,8.2,52.9,48,19.5,12.0,5.9,161.0,44.0,2.4,7,0,4,1,2026-07-09T23:34:35.252788+05:30
Kozhikode,Kerala,11.2588,75.7804,25.2,95,0.0,1010.9,8.45,35.3,45,17.5,9.4,1.9,158.0,51.0,1.0,7,0,4,1,2026-07-09T23:34:35.252795+05:30
Thrissur,Kerala,10.5276,76.2144,25.5,94,0.0,1010.0,8.55,36.0,51,22.7,17.1,12.6,327.0,27.0,4.0,7,0,4,1,2026-07-09T23:34:35.252803+05:30
Kannur,Kerala,11.8745,75.3704,25.5,96,0.0,1010.1,8.2,30.6,49,22.7,13.3,10.4,289.0,32.0,2.3,7,0,4,1,2026-07-09T23:34:35.252810+05:30
Patna,Bihar,25.5941,85.1376,27.2,96,0.1,995.3,8.65,25.6,96,34.8,34.0,18.7,333.0,67.0,9.3,10,5,7,1,2026-07-09T23:34:35.252817+05:30
Gaya,Bihar,24.7914,85.0002,27.3,96,0.1,988.7,8.5,32.8,76,22.2,21.4,18.3,392.0,57.0,9.7,10,5,7,1,2026-07-09T23:34:35.252824+05:30
Muzaffarpur,Bihar,26.1209,85.3647,26.7,98,0.4,995.6,8.75,26.6,97,40.2,38.9,18.4,359.0,70.0,9.2,10,5,7,1,2026-07-09T23:34:35.252831+05:30
Bhagalpur,Bihar,25.2425,87.0117,27.6,92,0.0,995.8,6.9,24.1,92,34.1,33.8,20.1,502.0,63.0,20.3,7,5,7,1,2026-07-09T23:34:35.252838+05:30
Ranchi,Jharkhand,23.3441,85.3096,23.5,97,0.0,933.5,7.7,46.4,62,18.1,16.2,6.7,239.0,90.0,10.8,3,5,7,1,2026-07-09T23:34:35.252845+05:30
Jamshedpur,Jharkhand,22.8046,86.2029,26.8,89,0.0,986.5,7.45,45.0,79,20.5,18.3,16.0,353.0,66.0,21.0,7,5,7,1,2026-07-09T23:34:35.252852+05:30
Dhanbad,Jharkhand,23.7957,86.4304,26.8,92,0.0,974.8,8.7,36.0,122,32.2,30.9,33.5,650.0,57.0,70.7,7,5,7,1,2026-07-09T23:34:35.252859+05:30
Bokaro,Jharkhand,23.6693,86.1511,26.8,90,0.0,978.8,6.6,35.3,95,25.0,23.4,18.2,295.0,73.0,43.9,7,5,7,1,2026-07-09T23:34:35.252867+05:30
Bhubaneswar,Odisha,20.2961,85.8245,27.8,88,0.0,998.9,7.75,51.8,68,25.3,21.7,8.7,232.0,81.0,7.0,7,5,7,1,2026-07-09T23:34:35.252874+05:30
Cuttack,Odisha,20.4625,85.8828,28.0,89,0.0,1000.6,7.7,45.0,68,25.3,21.7,8.7,265.0,81.0,7.0,7,5,4,1,2026-07-09T23:34:35.252881+05:30
Rourkela,Odisha,22.2604,84.8536,26.2,95,0.0,981.3,6.55,46.8,72,27.0,20.7,8.6,295.0,73.0,4.5,7,5,7,1,2026-07-09T23:34:35.252889+05:30
Raipur,Chhattisgarh,21.2514,81.6296,27.5,80,0.0,971.1,7.15,45.7,80,49.0,35.4,29.8,638.0,52.0,45.0,7,5,7,1,2026-07-09T23:34:35.252896+05:30
Bhilai,Chhattisgarh,21.1938,81.3509,27.3,79,0.0,971.6,6.9,47.2,79,39.8,29.5,24.1,663.0,62.0,40.0,7,5,7,1,2026-07-09T23:34:35.252903+05:30
Guwahati,Assam,26.1158,91.7086,26.4,99,0.0,997.3,3.55,26.6,49,17.3,16.5,12.5,361.0,41.0,3.1,7,5,3,1,2026-07-09T23:34:35.252910+05:30
Agartala,Tripura,23.8315,91.2868,25.4,97,0.0,1002.5,3.05,39.2,44,11.6,10.7,8.6,163.0,53.0,1.7,7,5,0,1,2026-07-09T23:34:35.252917+05:30
Shillong,Meghalaya,25.5788,91.8933,20.2,98,0.1,854.4,2.5,41.8,28,1.2,1.1,7.0,237.0,43.0,2.1,6,5,3,1,2026-07-09T23:34:35.252923+05:30
Imphal,Manipur,24.817,93.9368,22.5,94,0.0,920.2,3.5,32.8,24,6.2,5.5,6.1,396.0,41.0,1.8,3,5,3,1,2026-07-09T23:34:35.252930+05:30
Aizawl,Mizoram,23.7271,92.7176,19.7,97,0.0,889.8,0.55,45.0,25,1.0,0.9,3.2,119.0,49.0,1.0,3,10,3,1,2026-07-09T23:34:35.252937+05:30
Kohima,Nagaland,25.6701,94.1077,20.5,90,0.0,852.8,1.15,22.7,23,9.1,7.5,8.4,286.0,34.0,1.6,3,5,3,1,2026-07-09T23:34:35.252944+05:30
Gangtok,Sikkim,27.3314,88.6138,19.0,98,0.1,835.0,7.7,28.8,45,3.9,3.9,5.8,320.0,95.0,1.2,6,10,7,1,2026-07-09T23:34:35.252951+05:30
Siliguri,West Bengal,26.7271,88.3953,25.8,99,0.1,988.3,7.1,26.3,56,19.0,18.9,13.1,421.0,74.0,3.6,10,5,7,1,2026-07-09T23:34:38.537852+05:30
Durgapur,West Bengal,23.5204,87.3119,26.1,97,0.0,990.3,6.95,38.2,94,29.2,28.5,26.5,691.0,60.0,35.7,7,5,7,1,2026-07-09T23:34:38.537884+05:30
Asansol,West Bengal,23.6739,86.9524,27.2,94,0.0,988.5,7.7,37.8,91,26.7,25.7,28.6,417.0,61.0,41.0,7,5,7,1,2026-07-09T23:34:38.537894+05:30
Pondicherry,Puducherry,11.9139,79.8145,28.4,86,0.2,1009.2,7.7,42.1,62,26.4,18.8,19.3,225.0,58.0,10.6,10,0,4,1,2026-07-09T23:34:38.537903+05:30
Port Blair,Andaman and Nicobar Islands,11.6234,92.7265,27.2,84,0.0,1008.9,8.75,41.0,53,31.4,14.8,0.2,91.0,52.0,0.4,7,0,4,1,2026-07-09T23:34:38.537912+05:30
Haridwar,Uttarakhand,29.9457,78.1642,25.4,97,0.0,967.5,0.65,29.5,67,15.3,15.2,12.8,358.0,69.0,3.5,7,5,3,1,2026-07-09T23:34:38.537921+05:30
Rishikesh,Uttarakhand,30.0869,78.2676,25.5,92,0.1,960.3,1.8,26.3,40,9.7,9.6,6.9,345.0,89.0,1.8,10,5,3,1,2026-07-09T23:34:38.537928+05:30
Nainital,Uttarakhand,29.3919,79.4542,17.3,99,0.2,802.2,7.7,51.1,41,12.2,12.0,8.1,266.0,80.0,2.1,6,10,7,1,2026-07-09T23:34:38.537936+05:30
Mussoorie,Uttarakhand,30.4599,78.0664,16.2,99,0.0,798.4,0.45,45.0,67,31.7,31.4,55.6,229.0,21.0,10.1,3,10,3,1,2026-07-09T23:34:38.537944+05:30
Dharamshala,Himachal Pradesh,32.219,76.3234,21.2,95,0.0,864.5,8.4,38.2,63,4.1,4.0,15.9,681.0,37.0,0.4,3,5,7,1,2026-07-09T23:34:38.537951+05:30
Dalhousie,Himachal Pradesh,32.5387,75.971,17.4,93,0.0,800.7,8.4,29.9,117,40.3,38.9,38.3,856.0,43.0,2.6,3,10,7,1,2026-07-09T23:34:38.537959+05:30
Patiala,Punjab,30.3398,76.3869,25.9,87,0.0,971.3,5.95,31.0,142,13.9,13.8,12.3,383.0,74.0,2.4,7,5,3,1,2026-07-09T23:34:38.537966+05:30
Bhatinda,Punjab,30.211,74.9455,29.0,81,0.0,976.3,8.25,33.8,149,84.1,21.6,13.0,423.0,73.0,5.6,7,5,7,1,2026-07-09T23:34:38.537973+05:30
Rohtak,Haryana,28.8955,76.6066,26.2,91,0.0,974.8,5.35,29.2,93,31.3,30.6,35.9,502.0,40.0,10.0,7,5,3,1,2026-07-09T23:34:38.537979+05:30
Panipat,Haryana,29.3909,76.9635,25.8,96,0.6,973.4,3.1,32.4,90,27.7,27.7,24.3,360.0,54.0,9.5,10,5,3,1,2026-07-09T23:34:38.537986+05:30
Mathura,Uttar Pradesh,27.4924,77.6737,27.7,85,0.0,979.8,7.8,48.2,155,715.3,115.0,20.5,424.0,69.0,5.4,7,5,7,1,2026-07-09T23:34:38.537992+05:30
Vrindavan,Uttar Pradesh,27.5823,77.7027,27.7,85,0.0,980.3,7.3,50.0,155,715.3,115.0,20.5,440.0,69.0,5.4,7,5,7,1,2026-07-09T23:34:38.537999+05:30
Ayodhya,Uttar Pradesh,26.7922,82.1998,26.9,97,0.0,990.0,7.45,27.4,92,27.0,26.7,17.1,335.0,65.0,5.4,7,5,7,1,2026-07-09T23:34:38.538005+05:30
Ratlam,Madhya Pradesh,23.3315,75.0367,25.8,85,0.0,950.9,7.95,51.1,73,37.7,22.4,7.0,170.0,60.0,10.7,7,5,7,1,2026-07-09T23:34:38.538013+05:30
Sagar,Madhya Pradesh,23.8388,78.7378,27.3,72,0.0,945.8,7.05,50.8,63,50.8,29.2,5.5,180.0,72.0,4.9,7,5,7,1,2026-07-09T23:34:38.538019+05:30
Satna,Madhya Pradesh,24.6005,80.8322,26.8,86,0.0,966.5,8.2,46.4,52,20.6,14.4,6.1,200.0,72.0,3.4,7,5,7,1,2026-07-09T23:34:38.538026+05:30
Akola,Maharashtra,20.7002,77.0082,28.9,65,0.0,972.5,5.65,51.8,53,25.3,15.8,9.9,169.0,43.0,8.3,7,5,3,1,2026-07-09T23:34:38.538034+05:30
Amravati,Maharashtra,20.9374,77.7796,27.5,76,0.0,964.4,8.15,51.5,54,27.0,16.6,10.9,242.0,43.0,9.9,7,5,7,1,2026-07-09T23:34:38.538041+05:30
Latur,Maharashtra,18.4088,76.5604,25.8,75,0.0,938.8,5.55,49.3,38,15.5,9.1,5.0,122.0,44.0,3.0,7,5,3,1,2026-07-09T23:34:38.538048+05:30
Nanded,Maharashtra,19.1383,77.3091,28.4,65,0.0,966.8,7.9,45.7,52,20.1,14.0,7.9,232.0,52.0,5.1,7,5,7,1,2026-07-09T23:34:38.538055+05:30
Gulbarga,Karnataka,17.3297,76.8343,26.8,72,0.0,958.3,5.2,51.1,34,18.5,11.3,7.4,130.0,39.0,3.1,7,5,3,1,2026-07-09T23:34:38.538062+05:30
Bidar,Karnataka,17.9104,77.5199,26.3,72,0.0,934.4,5.8,47.5,41,16.8,11.1,8.2,155.0,48.0,2.8,7,5,3,1,2026-07-09T23:34:38.538069+05:30
Hospet,Karnataka,15.2689,76.3909,24.7,82,0.0,956.6,7.35,53.3,25,10.7,6.8,5.9,136.0,36.0,1.9,3,5,7,1,2026-07-09T23:34:38.538075+05:30
Tirupur,Tamil Nadu,11.1085,77.3411,25.0,86,0.0,976.8,8.5,50.8,39,20.1,16.9,22.5,175.0,22.0,5.7,7,5,7,1,2026-07-09T23:34:38.538082+05:30
Alappuzha,Kerala,9.4981,76.3388,26.2,95,0.0,1011.6,8.5,48.6,51,21.4,14.6,12.7,88.0,35.0,4.0,7,0,4,1,2026-07-09T23:34:38.538089+05:30
Munnar,Kerala,10.0889,77.0595,16.9,100,0.0,858.4,8.8,36.0,18,11.2,8.5,10.7,104.0,20.0,1.5,3,10,7,1,2026-07-09T23:34:38.538096+05:30
Silchar,Assam,24.8333,92.7789,26.0,95,0.0,1001.9,0.35,29.5,33,7.2,6.6,6.4,338.0,47.0,3.0,7,5,0,1,2026-07-09T23:34:38.538103+05:30
Dibrugarh,Assam,27.4728,94.912,26.4,97,0.2,990.8,5.25,28.4,47,8.4,8.0,8.1,192.0,58.0,1.3,10,5,3,1,2026-07-09T23:34:38.538109+05:30
