city,state,latitude,longitude,temp,humidity,rain,pressure,uv_index,wind_gusts,aqi,pm10,pm2_5,mosquito_risk,arthritis_risk,migraine_risk,frizz_risk,updated_at
Delhi,Delhi,28.6139,77.209,30.7,48,0.0,983.3,5.95,32.4,151,536.4,78.7,0,5,3,1,2026-03-29T12:38:46.243304+05:30
Mumbai,Maharashtra,19.076,72.8777,28.3,79,0.0,1009.6,8.0,24.5,60,42.7,22.5,7,0,4,1,2026-03-29T12:38:46.243344+05:30
Bangalore,Karnataka,12.9716,77.5946,31.6,42,0.0,912.4,9.55,28.8,136,61.9,50.9,0,5,7,1,2026-03-29T12:38:46.243359+05:30
Hyderabad,Telangana,17.385,78.4867,36.0,30,0.0,953.2,9.05,31.0,105,30.2,26.0,0,5,10,0,2026-03-29T12:38:46.243369+05:30
Chennai,Tamil Nadu,13.0827,80.2707,34.5,54,0.0,1006.7,9.25,37.4,59,23.9,18.0,0,5,4,1,2026-03-29T12:38:46.243378+05:30
Kolkata,West Bengal,22.5726,88.3639,31.2,70,0.0,1006.0,8.45,27.7,117,46.6,32.9,3,5,4,1,2026-03-29T12:38:46.243387+05:30
Pune,Maharashtra,18.5204,73.8567,34.5,32,0.0,949.7,8.55,33.8,67,34.2,13.4,0,5,7,0,2026-03-29T12:38:46.243418+05:30
Ahmedabad,Gujarat,23.0225,72.5714,33.9,45,0.0,1003.0,7.85,30.6,35,59.6,15.1,0,5,4,1,2026-03-29T12:38:46.243428+05:30
Jaipur,Rajasthan,26.9124,75.7873,34.7,30,0.0,959.3,7.2,38.2,73,159.3,21.9,0,5,7,0,2026-03-29T12:38:46.243436+05:30
Lucknow,Uttar Pradesh,26.8467,80.9462,32.6,40,0.0,993.9,7.25,16.6,119,152.7,34.2,0,5,7,1,2026-03-29T12:38:46.243444+05:30
Kanpur,Uttar Pradesh,26.4499,80.3319,32.6,43,0.0,992.0,7.25,16.9,130,165.3,33.5,0,5,7,1,2026-03-29T12:38:46.243450+05:30
Chandigarh,Chandigarh,30.7333,76.7794,23.4,73,0.0,970.3,6.5,28.1,86,58.8,17.3,3,5,7,1,2026-03-29T12:38:46.243458+05:30
Srinagar,Jammu and Kashmir,34.0837,74.7973,13.7,70,0.0,842.4,7.35,22.3,84,8.2,4.9,3,5,7,0,2026-03-29T12:38:46.243465+05:30
Jammu,Jammu and Kashmir,32.7266,74.857,21.4,80,0.0,975.2,6.75,28.1,85,29.2,11.5,3,5,7,1,2026-03-29T12:38:46.243472+05:30
Amritsar,Punjab,31.634,74.8723,25.3,69,0.0,981.9,7.3,35.3,72,38.2,15.0,7,5,7,1,2026-03-29T12:38:46.243479+05:30
Ludhiana,Punjab,30.901,75.8573,25.3,66,0.0,980.1,6.95,31.7,97,68.9,25.4,7,5,7,1,2026-03-29T12:38:46.243486+05:30
Jalandhar,Punjab,31.326,75.5762,23.4,78,0.0,981.3,7.1,29.2,90,68.5,21.8,3,5,7,1,2026-03-29T12:38:46.243495+05:30
Dehradun,Uttarakhand,30.6284,78.0322,18.1,72,0.0,831.6,3.05,19.4,71,57.2,22.7,3,5,3,0,2026-03-29T12:38:46.243502+05:30
Shimla,Himachal Pradesh,31.1048,77.1734,17.4,63,0.0,786.2,1.8,22.3,80,53.3,16.9,3,5,3,0,2026-03-29T12:38:46.243508+05:30
Manali,Himachal Pradesh,32.2396,77.1887,14.6,90,0.5,820.2,7.45,28.1,59,3.7,2.7,6,10,7,0,2026-03-29T12:38:46.243516+05:30
Gurgaon,Haryana,28.4595,77.0266,31.1,46,0.0,981.7,5.7,27.0,407,1624.2,160.7,0,5,3,1,2026-03-29T12:38:46.243524+05:30
Noida,Uttar Pradesh,28.5355,77.391,31.9,44,0.0,984.7,6.05,24.8,407,1624.2,160.7,0,5,7,1,2026-03-29T12:38:46.243531+05:30
Ghaziabad,Uttar Pradesh,28.6692,77.4538,30.9,49,0.0,983.2,6.1,24.1,152,321.3,53.6,0,5,7,1,2026-03-29T12:38:46.243538+05:30
Faridabad,Haryana,28.4089,77.3178,32.7,41,0.0,983.7,6.15,28.8,407,1624.2,160.7,0,5,7,1,2026-03-29T12:38:46.243545+05:30
Meerut,Uttar Pradesh,28.9845,77.7064,30.2,47,0.0,982.5,5.6,20.5,152,321.3,53.6,0,5,3,1,2026-03-29T12:38:46.243552+05:30
Agra,Uttar Pradesh,27.1767,78.0081,36.6,28,0.0,987.2,7.1,36.0,389,620.3,67.5,0,5,10,0,2026-03-29T12:38:46.243559+05:30
Varanasi,Uttar Pradesh,25.3176,82.9739,35.2,32,0.0,997.3,7.95,26.6,90,64.7,21.1,0,5,10,0,2026-03-29T12:38:46.243568+05:30
Prayagraj,Uttar Pradesh,25.4358,81.8463,34.2,36,0.0,995.9,7.8,22.7,111,78.0,24.6,0,5,7,1,2026-03-29T12:38:46.243575+05:30
Gorakhpur,Uttar Pradesh,26.7606,83.3732,31.8,47,0.0,997.9,7.65,26.3,124,79.6,39.2,0,5,7,1,2026-03-29T12:38:46.243581+05:30
Bareilly,Uttar Pradesh,28.367,79.4304,31.7,44,0.0,987.7,7.0,15.8,96,53.3,27.6,0,5,7,1,2026-03-29T12:38:46.243588+05:30
Aligarh,Uttar Pradesh,27.8974,78.088,33.1,39,0.0,985.4,6.9,26.3,185,438.7,56.6,0,5,7,1,2026-03-29T12:38:46.243596+05:30
Moradabad,Uttar Pradesh,28.8386,78.7733,30.8,47,0.0,984.8,6.6,18.0,141,54.4,31.4,0,5,7,1,2026-03-29T12:38:46.243602+05:30
Saharanpur,Uttar Pradesh,29.9637,77.546,25.9,57,0.0,977.5,5.4,25.6,107,69.4,26.1,4,5,3,1,2026-03-29T12:38:46.243608+05:30
Jhansi,Uttar Pradesh,25.4484,78.5685,37.7,23,0.0,977.0,7.8,27.4,64,28.4,13.8,0,5,10,0,2026-03-29T12:38:49.461173+05:30
Surat,Gujarat,21.1702,72.8311,30.9,61,0.0,1008.3,7.75,25.9,71,49.9,30.0,3,0,4,1,2026-03-29T12:38:49.461205+05:30
Vadodara,Gujarat,22.3072,73.1812,33.5,52,0.0,1005.5,7.85,31.3,53,60.1,20.8,0,5,4,1,2026-03-29T12:38:49.461216+05:30
Rajkot,Gujarat,22.3039,70.8022,32.5,50,0.0,995.5,7.6,32.8,37,55.3,17.1,0,5,7,1,2026-03-29T12:38:49.461226+05:30
Thane,Maharashtra,19.2183,72.9781,31.6,59,0.0,1009.1,8.0,35.3,60,42.7,22.5,0,0,4,1,2026-03-29T12:38:49.461234+05:30
Nagpur,Maharashtra,21.1458,79.0882,36.8,26,0.0,973.0,8.55,25.2,64,13.9,12.4,0,5,10,0,2026-03-29T12:38:49.461243+05:30
Nashik,Maharashtra,19.9975,73.7898,31.1,49,0.0,947.1,8.25,28.8,50,12.5,7.0,0,5,7,1,2026-03-29T12:38:49.461251+05:30
Aurangabad,Maharashtra,19.8762,75.3433,34.3,34,0.0,945.3,8.75,31.0,41,19.5,7.8,0,5,7,1,2026-03-29T12:38:49.461259+05:30
Solapur,Maharashtra,17.6599,75.9064,36.3,23,0.0,958.0,8.9,23.0,56,19.1,10.3,0,5,10,0,2026-03-29T12:38:49.461268+05:30
Kolhapur,Maharashtra,16.705,74.2433,33.5,26,0.0,949.0,9.0,36.7,76,30.5,13.4,0,5,7,0,2026-03-29T12:38:49.461276+05:30
Goa,Goa,15.2993,74.124,32.1,54,0.0,998.7,8.95,36.4,90,33.3,13.8,0,5,7,1,2026-03-29T12:38:49.461285+05:30
Jodhpur,Rajasthan,26.2389,73.0243,33.8,29,0.0,982.4,7.4,43.2,114,208.2,25.6,0,5,7,0,2026-03-29T12:38:49.461293+05:30
Udaipur,Rajasthan,24.5854,73.7125,32.7,30,0.0,947.5,8.2,35.3,27,32.0,9.3,0,5,7,0,2026-03-29T12:38:49.461300+05:30
Kota,Rajasthan,25.2138,75.8648,37.1,27,0.0,978.1,7.5,34.9,55,33.9,9.7,0,5,10,0,2026-03-29T12:38:49.461308+05:30
Bikaner,Rajasthan,28.0229,73.3119,33.7,34,0.0,980.2,7.55,34.6,89,156.9,38.0,0,5,7,0,2026-03-29T12:38:49.461317+05:30
Ajmer,Rajasthan,26.4499,74.6399,33.4,27,0.0,954.5,7.55,42.8,34,30.6,8.5,0,5,7,0,2026-03-29T12:38:49.461325+05:30
Gwalior,Madhya Pradesh,26.2183,78.1828,36.2,29,0.0,982.7,7.35,30.6,85,54.9,15.4,0,5,10,0,2026-03-29T12:38:49.461333+05:30
Indore,Madhya Pradesh,22.7196,75.8577,33.2,39,0.0,949.2,8.25,32.0,39,14.6,6.9,0,5,7,1,2026-03-29T12:38:49.461341+05:30
Bhopal,Madhya Pradesh,23.2599,77.4126,34.8,32,0.0,954.3,8.2,35.6,36,31.9,10.0,0,5,7,0,2026-03-29T12:38:49.461349+05:30
Jabalpur,Madhya Pradesh,23.1815,79.9864,35.3,31,0.0,961.5,8.3,33.8,61,7.7,5.8,0,5,10,0,2026-03-29T12:38:49.461357+05:30
Ujjain,Madhya Pradesh,23.1765,75.7885,32.6,43,0.0,954.9,8.15,34.9,38,15.1,6.7,0,5,7,1,2026-03-29T12:38:49.461365+05:30
Visakhapatnam,Andhra Pradesh,17.6868,83.2185,35.0,47,0.0,1003.2,9.0,40.3,76,33.9,24.7,0,5,4,1,2026-03-29T12:38:49.461373+05:30
Vijayawada,Andhra Pradesh,16.5062,80.648,35.1,49,0.0,1002.0,9.05,29.9,74,32.6,24.9,0,5,7,1,2026-03-29T12:38:49.461380+05:30
Guntur,Andhra Pradesh,16.3067,80.4365,34.4,50,0.0,1003.1,9.05,31.3,80,41.1,33.3,0,5,4,1,2026-03-29T12:38:49.461388+05:30
Nellore,Andhra Pradesh,14.4426,79.9865,36.5,43,0.0,1004.7,8.75,33.8,70,33.6,28.3,0,5,7,1,2026-03-29T12:38:49.461420+05:30
Kurnool,Andhra Pradesh,15.8281,78.0373,37.0,27,0.0,976.5,9.1,29.2,115,25.6,22.5,0,5,10,0,2026-03-29T12:38:49.461431+05:30
Kakinada,Andhra Pradesh,16.9891,82.2475,35.7,48,0.0,1006.9,9.0,30.2,61,27.4,17.1,0,5,7,1,2026-03-29T12:38:49.461440+05:30
Tirupati,Andhra Pradesh,13.6288,79.4192,36.4,30,0.0,990.3,9.2,34.6,94,39.2,32.7,0,5,10,0,2026-03-29T12:38:49.461446+05:30
Warangal,Telangana,17.9689,79.5941,35.3,46,0.0,978.3,8.9,28.4,109,44.5,38.8,0,5,10,1,2026-03-29T12:38:49.461453+05:30
Nizamabad,Telangana,18.6725,78.0941,36.0,31,0.0,965.2,8.8,29.2,73,13.9,12.4,0,5,10,1,2026-03-29T12:38:49.461459+05:30
Mysore,Karnataka,12.2958,76.6396,31.7,48,0.0,928.9,8.55,36.0,111,56.7,46.1,0,5,7,1,2026-03-29T12:38:49.461466+05:30
Mangalore,Karnataka,12.9141,74.856,28.8,86,0.0,1006.1,9.1,29.2,101,41.0,34.5,7,5,4,1,2026-03-29T12:38:49.461473+05:30
Hubli-Dharwad,Karnataka,15.3647,75.124,34.2,27,0.0,942.0,9.15,27.7,98,10.5,8.8,0,5,7,0,2026-03-29T12:38:49.461480+05:30
Belgaum,Karnataka,15.8497,74.4977,32.9,25,0.0,927.2,9.2,36.4,82,20.3,8.1,0,5,7,0,2026-03-29T12:38:52.680648+05:30
Coimbatore,Tamil Nadu,11.0168,76.9558,35.3,36,0.0,961.3,9.4,53.6,96,43.3,35.9,0,5,10,1,2026-03-29T12:38:52.680676+05:30
Madurai,Tamil Nadu,9.9252,78.1198,35.4,41,0.0,992.2,9.0,26.3,83,25.1,21.2,0,5,10,1,2026-03-29T12:38:52.680686+05:30
Trichy,Tamil Nadu,10.7905,78.7047,35.0,49,0.0,998.8,8.85,29.5,69,20.9,17.3,0,5,7,1,2026-03-29T12:38:52.680694+05:30
Salem,Tamil Nadu,11.6643,78.146,36.2,36,0.0,976.6,9.4,35.6,80,36.7,29.6,0,5,10,1,2026-03-29T12:38:52.680701+05:30
Tirunelveli,Tamil Nadu,8.7139,77.7567,36.7,37,0.0,1002.5,9.4,43.9,73,21.8,18.3,0,5,7,1,2026-03-29T12:38:52.680709+05:30
Vellore,Tamil Nadu,12.9165,79.1325,35.7,36,0.0,984.0,9.35,37.4,123,39.1,33.3,0,5,10,1,2026-03-29T12:38:52.680715+05:30
Erode,Tamil Nadu,11.341,77.7172,37.2,33,0.0,987.8,9.35,38.9,98,36.0,29.9,0,5,10,1,2026-03-29T12:38:52.680722+05:30
Kochi,Kerala,9.9312,76.2673,29.0,80,0.0,1007.6,8.8,27.4,90,32.8,28.7,7,5,4,1,2026-03-29T12:38:52.680728+05:30
Thiruvananthapuram,Kerala,8.5241,76.9366,29.3,77,0.0,1007.1,9.2,31.3,76,27.4,23.9,7,5,4,1,2026-03-29T12:38:52.680736+05:30
Kozhikode,Kerala,11.2588,75.7804,30.5,74,0.0,1006.6,9.1,28.4,79,30.9,26.0,3,5,4,1,2026-03-29T12:38:52.680743+05:30
Thrissur,Kerala,10.5276,76.2144,34.4,57,0.0,1005.7,9.15,34.6,90,35.3,30.3,0,5,4,1,2026-03-29T12:38:52.680750+05:30
Kannur,Kerala,11.8745,75.3704,31.5,68,0.0,1006.2,9.15,34.6,90,40.5,34.3,3,5,4,1,2026-03-29T12:38:52.680758+05:30
Patna,Bihar,25.5941,85.1376,30.7,57,0.0,1001.1,8.05,23.8,114,68.7,45.5,0,5,4,1,2026-03-29T12:38:52.680765+05:30
Gaya,Bihar,24.7914,85.0002,32.8,46,0.0,993.8,8.15,17.6,97,75.4,29.9,0,5,7,1,2026-03-29T12:38:52.680771+05:30
Muzaffarpur,Bihar,26.1209,85.3647,30.4,56,0.0,1001.3,8.05,28.1,120,66.6,47.3,0,5,4,1,2026-03-29T12:38:52.680778+05:30
Bhagalpur,Bihar,25.2425,87.0117,29.4,63,0.0,1002.1,7.85,19.8,117,68.2,53.0,7,5,4,1,2026-03-29T12:38:52.680785+05:30
Ranchi,Jharkhand,23.3441,85.3096,31.3,44,0.0,938.1,8.75,33.5,111,36.0,18.8,0,5,7,1,2026-03-29T12:38:52.680792+05:30
Jamshedpur,Jharkhand,22.8046,86.2029,34.2,53,0.0,990.1,8.55,33.8,129,58.7,48.9,0,5,7,1,2026-03-29T12:38:52.680798+05:30
Dhanbad,Jharkhand,23.7957,86.4304,32.5,49,0.0,979.8,8.5,18.7,154,80.3,67.3,0,5,7,1,2026-03-29T12:38:52.680806+05:30
Bokaro,Jharkhand,23.6693,86.1511,32.9,50,0.0,983.7,8.5,23.0,155,71.5,53.8,0,5,7,1,2026-03-29T12:38:52.680813+05:30
Bhubaneswar,Odisha,20.2961,85.8245,34.0,58,0.0,1001.8,8.8,31.3,78,31.2,24.7,0,5,4,1,2026-03-29T12:38:52.680820+05:30
Cuttack,Odisha,20.4625,85.8828,34.9,56,0.0,1003.3,8.85,34.6,78,31.2,24.7,0,5,4,1,2026-03-29T12:38:52.680826+05:30
Rourkela,Odisha,22.2604,84.8536,36.0,45,0.0,984.3,8.5,32.4,111,48.3,39.0,0,5,10,1,2026-03-29T12:38:52.680832+05:30
Raipur,Chhattisgarh,21.2514,81.6296,38.2,24,0.0,974.1,8.6,29.9,103,26.1,22.1,0,5,10,0,2026-03-29T12:38:52.680839+05:30
Bhilai,Chhattisgarh,21.1938,81.3509,38.2,25,0.0,974.5,8.6,32.8,83,22.0,18.8,0,5,10,0,2026-03-29T12:38:52.680845+05:30
Guwahati,Assam,26.1158,91.7086,26.1,68,0.0,1003.1,7.15,14.4,102,60.1,31.7,7,5,4,1,2026-03-29T12:38:52.680852+05:30
Agartala,Tripura,23.8315,91.2868,27.9,72,0.0,1007.3,8.2,37.4,120,55.3,40.9,7,5,4,1,2026-03-29T12:38:52.680858+05:30
Shillong,Meghalaya,25.5788,91.8933,17.3,64,0.0,856.7,5.65,43.9,72,57.3,32.5,3,5,3,0,2026-03-29T12:38:52.680865+05:30
Imphal,Manipur,24.817,93.9368,19.5,80,0.0,924.3,7.35,61.9,121,62.6,41.6,3,5,7,0,2026-03-29T12:38:52.680872+05:30
Aizawl,Mizoram,23.7271,92.7176,23.6,63,0.0,894.6,6.95,52.9,128,65.0,47.0,3,5,7,1,2026-03-29T12:38:52.680878+05:30
Kohima,Nagaland,25.6701,94.1077,17.3,81,0.0,855.7,7.15,86.4,101,82.4,44.9,3,10,7,0,2026-03-29T12:38:52.680886+05:30
Gangtok,Sikkim,27.3314,88.6138,18.3,63,0.0,838.1,8.1,19.8,60,20.0,15.5,3,5,7,0,2026-03-29T12:38:52.680893+05:30
Siliguri,West Bengal,26.7271,88.3953,20.2,83,0.0,995.8,6.7,12.6,126,45.9,31.8,3,5,7,1,2026-03-29T12:38:55.907960+05:30
Durgapur,West Bengal,23.5204,87.3119,32.4,56,0.0,994.9,8.45,22.3,148,77.8,68.7,0,5,7,1,2026-03-29T12:38:55.907987+05:30
Asansol,West Bengal,23.6739,86.9524,32.6,54,0.0,993.4,8.45,23.4,149,80.1,71.0,0,5,7,1,2026-03-29T12:38:55.907997+05:30
Pondicherry,Puducherry,11.9139,79.8145,34.6,53,0.0,1007.4,9.0,32.4,57,20.8,16.1,0,5,4,1,2026-03-29T12:38:55.908005+05:30
Port Blair,Andaman and Nicobar Islands,11.6234,92.7265,28.4,77,0.0,1006.6,8.85,15.5,63,23.3,18.4,7,5,4,1,2026-03-29T12:38:55.908012+05:30
Haridwar,Uttarakhand,29.9457,78.1642,27.1,52,0.0,976.3,6.05,34.6,89,75.9,20.9,4,5,7,1,2026-03-29T12:38:55.908019+05:30
Rishikesh,Uttarakhand,30.0869,78.2676,28.3,55,0.0,968.6,4.45,29.5,75,47.7,16.0,4,5,3,1,2026-03-29T12:38:55.908026+05:30
Nainital,Uttarakhand,29.3919,79.4542,22.2,59,0.0,808.6,7.1,58.7,78,36.6,17.2,0,5,7,0,2026-03-29T12:38:55.908033+05:30
Mussoorie,Uttarakhand,30.4599,78.0664,19.1,68,0.0,804.6,4.4,23.8,88,37.4,21.5,3,5,3,0,2026-03-29T12:38:55.908041+05:30
Dharamshala,Himachal Pradesh,32.219,76.3234,19.5,70,0.0,869.8,6.95,26.6,53,6.7,2.1,3,5,7,0,2026-03-29T12:38:55.908048+05:30
Dalhousie,Himachal Pradesh,32.5387,75.971,15.7,65,0.0,803.9,7.4,27.0,80,20.5,7.2,3,5,7,0,2026-03-29T12:38:55.908055+05:30
Patiala,Punjab,30.3398,76.3869,26.7,57,0.0,979.3,6.6,35.6,111,169.5,38.8,4,5,7,1,2026-03-29T12:38:55.908062+05:30
Bhatinda,Punjab,30.211,74.9455,30.1,48,0.0,983.1,7.25,38.5,86,191.9,45.1,0,5,7,1,2026-03-29T12:38:55.908069+05:30
Rohtak,Haryana,28.8955,76.6066,29.5,52,0.0,982.0,6.25,31.7,160,627.7,83.4,4,5,7,1,2026-03-29T12:38:55.908076+05:30
Panipat,Haryana,29.3909,76.9635,27.2,62,0.0,981.7,6.1,30.2,265,737.6,95.0,7,5,7,1,2026-03-29T12:38:55.908083+05:30
Mathura,Uttar Pradesh,27.4924,77.6737,35.0,33,0.0,986.1,7.0,26.6,282,702.2,78.2,0,5,7,1,2026-03-29T12:38:55.908090+05:30
Vrindavan,Uttar Pradesh,27.5823,77.7027,34.9,35,0.0,986.6,6.9,29.5,282,702.2,78.2,0,5,7,1,2026-03-29T12:38:55.908097+05:30
Ayodhya,Uttar Pradesh,26.7922,82.1998,32.5,42,0.0,995.9,7.35,20.9,138,92.2,37.4,0,5,7,1,2026-03-29T12:38:55.908104+05:30
Ratlam,Madhya Pradesh,23.3315,75.0367,31.4,47,0.0,955.9,8.1,33.8,36,15.7,6.1,0,5,7,1,2026-03-29T12:38:55.908111+05:30
Sagar,Madhya Pradesh,23.8388,78.7378,35.6,27,0.0,950.6,8.2,33.1,43,9.4,4.2,0,5,10,0,2026-03-29T12:38:55.908118+05:30
Satna,Madhya Pradesh,24.6005,80.8322,36.6,25,0.0,970.6,8.15,36.0,65,35.6,11.8,0,5,10,0,2026-03-29T12:38:55.908125+05:30
Akola,Maharashtra,20.7002,77.0082,36.0,34,0.0,975.9,8.5,27.4,44,25.7,11.0,0,5,10,1,2026-03-29T12:38:55.908132+05:30
Amravati,Maharashtra,20.9374,77.7796,36.5,29,0.0,967.8,8.5,27.4,39,22.6,10.7,0,5,10,0,2026-03-29T12:38:55.908139+05:30
Latur,Maharashtra,18.4088,76.5604,35.1,25,0.0,940.9,8.85,28.4,54,22.1,13.7,0,5,10,0,2026-03-29T12:38:55.908146+05:30
Nanded,Maharashtra,19.1383,77.3091,37.2,24,0.0,969.2,8.7,18.4,57,21.3,14.5,0,5,10,0,2026-03-29T12:38:55.908153+05:30
Gulbarga,Karnataka,17.3297,76.8343,37.5,20,0.0,959.0,8.9,32.0,65,23.9,18.7,0,5,10,0,2026-03-29T12:38:55.908160+05:30
Bidar,Karnataka,17.9104,77.5199,35.5,22,0.0,936.2,8.9,30.2,78,22.7,19.1,0,5,10,0,2026-03-29T12:38:55.908167+05:30
Hospet,Karnataka,15.2689,76.3909,33.4,34,0.0,956.6,9.1,18.7,100,12.6,9.8,0,5,7,0,2026-03-29T12:38:55.908174+05:30
Tirupur,Tamil Nadu,11.1085,77.3411,36.6,33,0.0,974.4,9.45,39.2,107,42.8,36.2,0,5,10,1,2026-03-29T12:38:55.908181+05:30
Alappuzha,Kerala,9.4981,76.3388,29.1,80,0.0,1007.8,8.85,25.6,87,31.7,27.6,7,5,4,1,2026-03-29T12:38:55.908188+05:30
Munnar,Kerala,10.0889,77.0595,29.5,47,0.0,858.5,8.8,33.1,86,28.0,22.2,4,5,7,1,2026-03-29T12:38:55.908195+05:30
Silchar,Assam,24.8333,92.7789,24.7,79,0.0,1007.2,8.2,34.9,146,72.4,42.8,3,5,4,1,2026-03-29T12:38:55.908202+05:30
Dibrugarh,Assam,27.4728,94.912,22.3,80,0.0,998.1,7.45,16.9,86,27.9,21.0,3,5,7,1,2026-03-29T12:38:55.908208+05:30
