city,state,latitude,longitude,temp,humidity,rain,pressure,uv_index,wind_gusts,aqi,pm10,pm2_5,no2,co,o3,so2,mosquito_risk,arthritis_risk,migraine_risk,frizz_risk,updated_at
Delhi,Delhi,28.6139,77.209,38.9,33,0.0,976.7,7.75,26.3,164,195.1,52.2,6.9,284.0,163.0,11.7,0,5,10,1,2026-06-26T16:41:06.018497+05:30
Mumbai,Maharashtra,19.076,72.8777,29.4,77,0.0,1004.9,7.25,34.2,63,33.6,19.4,7.3,166.0,87.0,9.2,7,5,4,1,2026-06-26T16:41:06.018530+05:30
Bangalore,Karnataka,12.9716,77.5946,26.2,69,0.0,909.3,8.75,42.1,30,8.9,6.6,11.4,358.0,55.0,3.2,7,5,7,1,2026-06-26T16:41:06.018540+05:30
Hyderabad,Telangana,17.385,78.4867,29.7,59,0.0,948.8,7.2,37.1,59,40.3,20.9,4.4,514.0,105.0,5.0,4,5,7,1,2026-06-26T16:41:06.018546+05:30
Chennai,Tamil Nadu,13.0827,80.2707,32.1,61,0.0,1001.7,8.7,54.0,59,30.2,19.6,9.1,283.0,88.0,5.9,3,5,4,1,2026-06-26T16:41:06.018552+05:30
Kolkata,West Bengal,22.5726,88.3639,32.3,69,0.0,1000.2,8.9,33.1,102,26.6,20.0,6.0,454.0,101.0,7.6,3,5,4,1,2026-06-26T16:41:06.018557+05:30
Pune,Maharashtra,18.5204,73.8567,28.3,65,0.0,944.6,7.45,38.2,41,29.7,13.9,4.1,147.0,89.0,6.2,7,5,7,1,2026-06-26T16:41:06.018561+05:30
Ahmedabad,Gujarat,23.0225,72.5714,39.5,25,0.1,995.4,8.05,35.6,70,66.6,22.4,1.3,140.0,94.0,2.2,3,5,10,1,2026-06-26T16:41:06.018566+05:30
Jaipur,Rajasthan,26.9124,75.7873,36.8,36,0.1,955.0,8.2,28.1,100,87.8,25.7,0.2,135.0,110.0,2.0,3,5,10,1,2026-06-26T16:41:06.018574+05:30
Lucknow,Uttar Pradesh,26.8467,80.9462,39.9,32,0.0,986.0,8.3,29.9,123,100.1,39.0,1.6,196.0,155.0,6.2,0,5,10,1,2026-06-26T16:41:06.018580+05:30
Kanpur,Uttar Pradesh,26.4499,80.3319,36.4,45,0.1,985.0,8.3,27.0,120,150.4,45.8,1.7,179.0,156.0,5.7,3,5,10,1,2026-06-26T16:41:06.018584+05:30
Chandigarh,Chandigarh,30.7333,76.7794,36.6,40,0.0,963.6,7.8,24.8,163,154.6,49.4,0.2,281.0,166.0,7.5,0,5,10,1,2026-06-26T16:41:06.018588+05:30
Srinagar,Jammu and Kashmir,34.0837,74.7973,29.0,39,0.0,842.2,9.05,20.5,116,16.8,14.0,2.6,222.0,147.0,2.5,4,5,7,0,2026-06-26T16:41:06.018592+05:30
Jammu,Jammu and Kashmir,32.7266,74.857,37.6,35,0.0,967.4,8.65,25.6,147,95.7,41.1,0.1,234.0,167.0,4.1,0,5,10,1,2026-06-26T16:41:06.018596+05:30
Amritsar,Punjab,31.634,74.8723,34.1,55,0.0,975.3,8.45,22.0,153,89.4,47.3,0.7,244.0,192.0,8.4,0,5,7,1,2026-06-26T16:41:06.018600+05:30
Ludhiana,Punjab,30.901,75.8573,37.6,36,0.0,973.0,7.6,26.3,158,156.5,49.2,0.7,286.0,150.0,5.2,0,5,10,1,2026-06-26T16:41:06.018603+05:30
Jalandhar,Punjab,31.326,75.5762,36.2,41,0.1,974.3,8.25,27.4,150,95.0,39.6,0.0,308.0,153.0,4.1,3,5,10,1,2026-06-26T16:41:06.018607+05:30
Dehradun,Uttarakhand,30.6284,78.0322,21.1,81,0.1,830.5,7.65,32.4,111,67.5,25.3,1.8,243.0,140.0,2.2,6,5,7,1,2026-06-26T16:41:06.018612+05:30
Shimla,Himachal Pradesh,31.1048,77.1734,18.6,86,0.1,785.3,7.7,31.0,128,87.5,32.6,3.5,267.0,153.0,6.4,6,10,7,1,2026-06-26T16:41:06.018616+05:30
Manali,Himachal Pradesh,32.2396,77.1887,23.9,66,0.0,820.1,7.35,35.3,66,35.6,29.2,37.6,187.0,102.0,0.5,3,5,7,1,2026-06-26T16:41:06.018621+05:30
Gurgaon,Haryana,28.4595,77.0266,38.8,33,0.0,975.2,7.85,26.3,152,438.7,72.2,5.1,165.0,152.0,8.1,0,5,10,1,2026-06-26T16:41:06.018625+05:30
Noida,Uttar Pradesh,28.5355,77.391,34.1,64,0.2,978.2,7.8,22.7,152,438.7,72.2,5.1,347.0,152.0,8.1,6,5,7,1,2026-06-26T16:41:06.018628+05:30
Ghaziabad,Uttar Pradesh,28.6692,77.4538,35.1,50,0.1,976.7,7.8,24.5,196,139.7,49.7,5.6,309.0,223.0,20.6,3,5,10,1,2026-06-26T16:41:06.018632+05:30
Faridabad,Haryana,28.4089,77.3178,36.9,41,0.1,977.5,7.8,28.8,152,438.7,72.2,5.1,201.0,152.0,8.1,3,5,10,1,2026-06-26T16:41:06.018636+05:30
Meerut,Uttar Pradesh,28.9845,77.7064,37.7,38,0.0,975.4,7.6,25.2,196,139.7,49.7,5.6,223.0,223.0,20.6,0,5,10,1,2026-06-26T16:41:06.018640+05:30
Agra,Uttar Pradesh,27.1767,78.0081,38.9,34,0.0,981.4,8.1,30.6,159,156.5,36.2,0.2,163.0,135.0,2.4,0,5,10,1,2026-06-26T16:41:06.018643+05:30
Varanasi,Uttar Pradesh,25.3176,82.9739,38.0,40,0.0,990.6,8.45,36.7,154,40.7,28.3,1.0,346.0,177.0,7.6,0,5,10,1,2026-06-26T16:41:06.018647+05:30
Prayagraj,Uttar Pradesh,25.4358,81.8463,38.4,38,0.0,989.0,8.65,31.3,147,61.0,33.3,0.9,185.0,168.0,7.3,0,5,10,1,2026-06-26T16:41:06.018651+05:30
Gorakhpur,Uttar Pradesh,26.7606,83.3732,36.8,44,0.0,990.5,8.7,25.2,161,87.8,43.9,0.8,267.0,173.0,7.1,0,5,10,1,2026-06-26T16:41:06.018655+05:30
Bareilly,Uttar Pradesh,28.367,79.4304,38.8,35,0.0,980.1,8.1,18.7,177,103.8,44.4,1.9,205.0,189.0,11.1,0,5,10,1,2026-06-26T16:41:06.018661+05:30
Aligarh,Uttar Pradesh,27.8974,78.088,38.0,39,0.0,979.2,7.95,22.7,155,181.6,42.6,1.6,184.0,144.0,6.5,0,5,10,1,2026-06-26T16:41:06.018664+05:30
Moradabad,Uttar Pradesh,28.8386,78.7733,38.2,36,0.0,977.3,7.95,27.4,172,132.7,47.5,1.2,205.0,181.0,11.1,0,5,10,1,2026-06-26T16:41:06.018668+05:30
Saharanpur,Uttar Pradesh,29.9637,77.546,36.6,39,0.0,970.3,7.55,23.0,153,252.4,66.4,1.4,235.0,168.0,13.3,0,5,10,1,2026-06-26T16:41:06.018671+05:30
Jhansi,Uttar Pradesh,25.4484,78.5685,37.6,37,0.0,972.2,8.35,31.3,75,122.5,41.6,1.3,153.0,130.0,7.4,0,5,10,1,2026-06-26T16:41:09.308774+05:30
Surat,Gujarat,21.1702,72.8311,32.6,63,0.0,1001.8,7.25,43.6,88,59.1,29.8,13.9,242.0,53.0,37.8,3,5,4,1,2026-06-26T16:41:09.308798+05:30
Vadodara,Gujarat,22.3072,73.1812,39.0,24,0.0,997.8,8.0,42.8,80,82.4,27.3,1.7,150.0,102.0,2.6,0,5,10,0,2026-06-26T16:41:09.308804+05:30
Rajkot,Gujarat,22.3039,70.8022,35.8,40,0.1,988.2,7.55,42.1,64,57.7,20.7,1.3,109.0,96.0,4.2,3,5,10,1,2026-06-26T16:41:09.308809+05:30
Thane,Maharashtra,19.2183,72.9781,30.2,73,0.0,1004.1,6.5,33.5,63,33.6,19.4,7.3,166.0,87.0,9.2,3,5,4,1,2026-06-26T16:41:09.308814+05:30
Nagpur,Maharashtra,21.1458,79.0882,27.7,86,0.4,968.4,8.85,29.2,78,39.3,31.1,12.9,265.0,129.0,38.5,10,5,7,1,2026-06-26T16:41:09.308818+05:30
Nashik,Maharashtra,19.9975,73.7898,28.7,69,0.1,941.9,7.9,38.9,56,33.8,14.5,1.3,130.0,78.0,1.0,10,5,7,1,2026-06-26T16:41:09.308823+05:30
Aurangabad,Maharashtra,19.8762,75.3433,29.0,63,0.0,940.0,8.7,36.0,61,60.8,24.0,1.4,125.0,90.0,2.0,7,5,7,1,2026-06-26T16:41:09.308827+05:30
Solapur,Maharashtra,17.6599,75.9064,33.7,42,0.0,952.8,5.65,35.3,50,60.3,22.2,1.3,118.0,98.0,2.7,0,5,3,1,2026-06-26T16:41:09.308832+05:30
Kolhapur,Maharashtra,16.705,74.2433,27.0,68,0.0,945.1,8.2,42.8,32,14.8,8.7,3.2,120.0,69.0,1.8,7,5,7,1,2026-06-26T16:41:09.308835+05:30
Goa,Goa,15.2993,74.124,28.1,82,0.0,995.7,6.55,31.0,52,14.6,7.7,1.1,116.0,60.0,1.2,7,5,7,1,2026-06-26T16:41:09.308840+05:30
Jodhpur,Rajasthan,26.2389,73.0243,38.6,36,0.0,977.0,8.4,33.5,98,113.6,29.7,0.8,115.0,93.0,1.8,0,5,10,1,2026-06-26T16:41:09.308844+05:30
Udaipur,Rajasthan,24.5854,73.7125,30.1,63,0.1,942.4,7.85,31.3,77,51.1,19.2,0.3,113.0,89.0,1.7,6,5,7,1,2026-06-26T16:41:09.308847+05:30
Kota,Rajasthan,25.2138,75.8648,37.2,39,0.0,973.3,7.6,28.8,83,72.2,30.5,1.2,149.0,114.0,5.1,0,5,10,1,2026-06-26T16:41:09.308851+05:30
Bikaner,Rajasthan,28.0229,73.3119,40.0,29,0.0,975.6,8.45,31.0,108,180.7,47.0,0.1,147.0,96.0,3.0,0,5,10,1,2026-06-26T16:41:09.308855+05:30
Ajmer,Rajasthan,26.4499,74.6399,35.3,40,0.0,949.9,8.25,31.7,85,72.4,25.7,0.4,130.0,99.0,1.6,0,5,10,1,2026-06-26T16:41:09.308859+05:30
Gwalior,Madhya Pradesh,26.2183,78.1828,37.8,38,0.0,977.3,8.25,41.4,74,62.4,23.8,0.0,143.0,112.0,2.0,0,5,10,1,2026-06-26T16:41:09.308863+05:30
Indore,Madhya Pradesh,22.7196,75.8577,27.1,81,0.1,944.4,7.55,48.6,107,57.4,27.8,3.9,371.0,92.0,2.5,10,5,7,1,2026-06-26T16:41:09.308867+05:30
Bhopal,Madhya Pradesh,23.2599,77.4126,31.1,60,0.0,949.2,8.6,28.1,86,48.1,25.7,2.0,243.0,113.0,2.4,0,5,7,1,2026-06-26T16:41:09.308871+05:30
Jabalpur,Madhya Pradesh,23.1815,79.9864,30.5,73,0.0,956.9,8.85,38.5,64,29.5,20.3,2.0,188.0,119.0,2.4,3,5,7,1,2026-06-26T16:41:09.308875+05:30
Ujjain,Madhya Pradesh,23.1765,75.7885,26.7,87,0.5,949.7,6.75,38.5,97,52.3,25.0,2.2,227.0,89.0,2.3,10,5,7,1,2026-06-26T16:41:09.308880+05:30
Visakhapatnam,Andhra Pradesh,17.6868,83.2185,31.6,74,0.1,997.6,8.65,34.2,89,36.3,27.5,16.9,404.0,111.0,44.4,6,5,7,1,2026-06-26T16:41:09.308883+05:30
Vijayawada,Andhra Pradesh,16.5062,80.648,30.7,73,0.1,997.4,8.6,41.0,80,19.4,15.9,2.9,197.0,106.0,3.5,6,5,7,1,2026-06-26T16:41:09.308887+05:30
Guntur,Andhra Pradesh,16.3067,80.4365,31.7,67,0.1,998.6,8.0,40.3,81,21.1,16.2,3.3,172.0,104.0,4.0,6,5,7,1,2026-06-26T16:41:09.308890+05:30
Nellore,Andhra Pradesh,14.4426,79.9865,36.3,41,0.0,999.9,7.95,38.2,51,28.1,18.6,4.4,150.0,105.0,3.9,0,5,10,1,2026-06-26T16:41:09.308895+05:30
Kurnool,Andhra Pradesh,15.8281,78.0373,34.0,46,0.0,971.9,6.5,37.1,44,31.1,16.0,1.7,138.0,114.0,7.6,0,5,7,1,2026-06-26T16:41:09.308899+05:30
Kakinada,Andhra Pradesh,16.9891,82.2475,31.6,66,0.0,1001.4,8.3,32.0,76,36.7,25.6,2.0,238.0,131.0,2.9,3,5,4,1,2026-06-26T16:41:09.308903+05:30
Tirupati,Andhra Pradesh,13.6288,79.4192,34.8,43,0.1,985.5,8.4,37.4,47,17.7,9.4,8.9,161.0,66.0,1.7,3,5,7,1,2026-06-26T16:41:09.308907+05:30
Warangal,Telangana,17.9689,79.5941,31.0,64,0.0,973.5,7.6,35.3,70,32.9,22.1,3.8,204.0,101.0,3.7,3,5,7,1,2026-06-26T16:41:09.308910+05:30
Nizamabad,Telangana,18.6725,78.0941,27.6,85,0.2,960.3,6.15,36.4,71,39.5,22.3,2.4,177.0,98.0,2.8,10,5,7,1,2026-06-26T16:41:09.308914+05:30
Mysore,Karnataka,12.2958,76.6396,27.0,70,0.0,926.4,9.05,48.2,30,8.9,5.3,3.1,135.0,74.0,1.4,7,5,7,1,2026-06-26T16:41:09.308918+05:30
Mangalore,Karnataka,12.9141,74.856,28.0,78,0.0,1005.3,8.45,35.3,46,15.3,7.9,1.8,98.0,64.0,1.8,7,5,4,1,2026-06-26T16:41:09.308921+05:30
Hubli-Dharwad,Karnataka,15.3647,75.124,27.4,68,0.1,938.1,8.05,49.0,28,12.8,6.2,2.4,118.0,62.0,1.0,10,5,7,1,2026-06-26T16:41:09.308925+05:30
Belgaum,Karnataka,15.8497,74.4977,26.1,70,0.0,923.2,7.95,48.2,26,12.8,6.7,2.2,110.0,59.0,1.1,7,5,7,1,2026-06-26T16:41:12.718509+05:30
Coimbatore,Tamil Nadu,11.0168,76.9558,29.6,63,0.0,959.0,8.35,49.3,34,7.3,5.1,2.9,159.0,65.0,1.8,7,5,7,1,2026-06-26T16:41:12.718529+05:30
Madurai,Tamil Nadu,9.9252,78.1198,34.4,44,0.1,989.4,8.15,32.8,71,16.9,8.9,1.4,217.0,87.0,1.7,3,5,7,1,2026-06-26T16:41:12.718535+05:30
Trichy,Tamil Nadu,10.7905,78.7047,36.5,35,0.0,994.8,7.95,37.8,46,17.4,8.7,2.4,129.0,81.0,1.8,0,5,10,1,2026-06-26T16:41:12.718540+05:30
Salem,Tamil Nadu,11.6643,78.146,33.5,46,0.1,973.5,8.1,31.7,65,18.4,10.1,3.9,140.0,89.0,4.1,3,5,7,1,2026-06-26T16:41:12.718544+05:30
Tirunelveli,Tamil Nadu,8.7139,77.7567,34.0,45,0.0,1000.0,8.7,51.8,31,10.7,7.2,2.0,111.0,71.0,1.3,0,5,4,1,2026-06-26T16:41:12.718548+05:30
Vellore,Tamil Nadu,12.9165,79.1325,34.5,43,0.0,979.1,8.5,41.0,50,21.1,11.8,7.5,146.0,76.0,2.4,0,5,7,1,2026-06-26T16:41:12.718552+05:30
Erode,Tamil Nadu,11.341,77.7172,32.8,51,0.1,985.2,8.15,47.2,54,12.3,7.7,3.7,163.0,86.0,1.9,3,5,7,1,2026-06-26T16:41:12.718555+05:30
Kochi,Kerala,9.9312,76.2673,28.0,79,0.0,1007.9,7.9,39.6,51,10.5,6.9,2.4,120.0,65.0,2.3,7,5,4,1,2026-06-26T16:41:12.718559+05:30
Thiruvananthapuram,Kerala,8.5241,76.9366,27.6,82,0.0,1006.8,8.45,50.0,31,14.0,8.4,1.8,107.0,65.0,1.0,7,5,4,1,2026-06-26T16:41:12.718563+05:30
Kozhikode,Kerala,11.2588,75.7804,27.8,80,0.0,1006.8,8.05,31.3,30,11.3,6.2,0.6,96.0,61.0,0.9,7,5,4,1,2026-06-26T16:41:12.718566+05:30
Thrissur,Kerala,10.5276,76.2144,28.0,79,0.1,1006.1,8.45,37.4,50,9.5,6.4,2.7,95.0,57.0,1.5,10,5,4,1,2026-06-26T16:41:12.718571+05:30
Kannur,Kerala,11.8745,75.3704,28.5,75,0.0,1006.1,8.3,33.5,37,13.0,7.1,1.1,92.0,60.0,1.0,7,5,4,1,2026-06-26T16:41:12.718574+05:30
Patna,Bihar,25.5941,85.1376,36.7,48,0.0,993.7,8.9,23.0,173,39.7,28.6,3.2,327.0,174.0,7.7,0,5,10,1,2026-06-26T16:41:12.718578+05:30
Gaya,Bihar,24.7914,85.0002,36.5,46,0.0,987.4,8.5,20.2,127,27.2,21.2,1.0,246.0,161.0,6.6,0,5,10,1,2026-06-26T16:41:12.718583+05:30
Muzaffarpur,Bihar,26.1209,85.3647,35.1,56,0.0,993.6,8.85,25.2,199,62.4,45.3,8.0,400.0,188.0,12.0,0,5,10,1,2026-06-26T16:41:12.718586+05:30
Bhagalpur,Bihar,25.2425,87.0117,36.1,52,0.0,994.1,7.75,32.0,148,45.2,32.9,6.2,301.0,161.0,13.2,0,5,10,1,2026-06-26T16:41:12.718589+05:30
Ranchi,Jharkhand,23.3441,85.3096,29.2,70,0.0,933.9,8.8,27.4,151,24.9,23.7,3.1,211.0,162.0,10.4,7,5,7,1,2026-06-26T16:41:12.718593+05:30
Jamshedpur,Jharkhand,22.8046,86.2029,31.9,69,0.0,985.4,9.1,22.3,156,27.8,25.9,5.6,373.0,160.0,15.9,3,5,7,1,2026-06-26T16:41:12.718597+05:30
Dhanbad,Jharkhand,23.7957,86.4304,34.0,54,0.0,974.3,8.85,31.0,165,54.6,52.9,18.5,790.0,207.0,69.9,0,5,7,1,2026-06-26T16:41:12.718601+05:30
Bokaro,Jharkhand,23.6693,86.1511,33.8,57,0.0,978.1,8.85,30.6,159,43.1,41.4,17.2,1051.0,178.0,60.9,0,5,7,1,2026-06-26T16:41:12.718604+05:30
Bhubaneswar,Odisha,20.2961,85.8245,31.4,73,0.1,997.0,9.05,27.4,87,20.3,16.8,3.6,291.0,125.0,6.4,6,5,7,1,2026-06-26T16:41:12.718608+05:30
Cuttack,Odisha,20.4625,85.8828,32.0,73,0.1,998.7,9.1,38.2,87,20.3,16.8,3.6,288.0,125.0,6.4,6,5,7,1,2026-06-26T16:41:12.718611+05:30
Rourkela,Odisha,22.2604,84.8536,30.7,68,0.1,980.2,8.45,38.2,154,24.0,22.9,3.4,508.0,197.0,15.6,6,5,7,1,2026-06-26T16:41:12.718615+05:30
Raipur,Chhattisgarh,21.2514,81.6296,36.2,41,0.1,969.0,8.95,45.7,91,30.2,28.8,7.0,400.0,143.0,23.1,3,5,10,1,2026-06-26T16:41:12.718618+05:30
Bhilai,Chhattisgarh,21.1938,81.3509,29.0,81,0.0,970.1,8.95,40.7,93,40.9,39.6,12.0,784.0,148.0,42.9,7,5,7,1,2026-06-26T16:41:12.718622+05:30
Guwahati,Assam,26.1158,91.7086,31.5,74,0.0,994.7,8.75,30.6,101,20.9,18.2,4.2,314.0,96.0,2.5,3,5,7,1,2026-06-26T16:41:12.718626+05:30
Agartala,Tripura,23.8315,91.2868,30.6,76,0.0,1000.5,8.45,28.4,83,28.0,20.7,7.2,180.0,109.0,3.8,3,5,4,1,2026-06-26T16:41:12.718629+05:30
Shillong,Meghalaya,25.5788,91.8933,23.9,76,0.0,854.9,6.0,23.4,72,10.4,9.0,4.8,284.0,99.0,2.0,3,5,3,1,2026-06-26T16:41:12.718633+05:30
Imphal,Manipur,24.817,93.9368,27.8,73,0.0,918.6,9.05,29.5,57,6.7,5.5,3.7,260.0,93.0,2.3,7,5,7,1,2026-06-26T16:41:12.718636+05:30
Aizawl,Mizoram,23.7271,92.7176,23.5,82,0.0,889.2,8.55,23.0,62,20.3,14.1,3.4,168.0,79.0,1.3,3,5,7,1,2026-06-26T16:41:12.718640+05:30
Kohima,Nagaland,25.6701,94.1077,24.1,80,0.0,852.8,8.35,27.4,55,9.7,7.6,2.7,221.0,101.0,1.7,3,5,7,1,2026-06-26T16:41:12.718644+05:30
Gangtok,Sikkim,27.3314,88.6138,22.2,82,0.0,835.9,8.8,34.9,99,8.5,7.7,3.8,340.0,138.0,2.4,3,5,7,1,2026-06-26T16:41:12.718647+05:30
Siliguri,West Bengal,26.7271,88.3953,29.7,81,0.2,986.7,8.55,20.9,138,38.4,33.4,6.3,532.0,148.0,7.0,10,5,7,1,2026-06-26T16:41:16.007600+05:30
Durgapur,West Bengal,23.5204,87.3119,32.4,68,0.0,989.1,9.0,30.6,143,43.7,41.9,17.7,273.0,160.0,44.9,3,5,7,1,2026-06-26T16:41:16.007620+05:30
Asansol,West Bengal,23.6739,86.9524,33.9,58,0.0,987.5,9.05,24.8,151,42.6,41.4,16.0,519.0,177.0,41.4,0,5,7,1,2026-06-26T16:41:16.007625+05:30
Pondicherry,Puducherry,11.9139,79.8145,32.3,68,0.1,1003.0,7.35,38.5,69,43.9,31.1,16.9,235.0,125.0,7.4,6,5,4,1,2026-06-26T16:41:16.007630+05:30
Port Blair,Andaman and Nicobar Islands,11.6234,92.7265,26.9,90,0.1,1005.7,8.7,35.6,24,3.9,2.5,0.5,108.0,49.0,0.3,10,5,4,1,2026-06-26T16:41:16.007634+05:30
Haridwar,Uttarakhand,29.9457,78.1642,36.9,39,0.0,968.4,7.6,20.9,136,204.4,57.3,1.4,239.0,158.0,8.2,0,5,10,1,2026-06-26T16:41:16.007638+05:30
Rishikesh,Uttarakhand,30.0869,78.2676,35.7,40,0.0,961.6,7.7,22.7,113,149.9,43.8,0.9,244.0,141.0,4.0,0,5,10,1,2026-06-26T16:41:16.007642+05:30
Nainital,Uttarakhand,29.3919,79.4542,23.6,59,0.0,806.5,7.95,32.0,132,96.4,35.5,1.5,225.0,161.0,7.5,0,5,7,0,2026-06-26T16:41:16.007646+05:30
Mussoorie,Uttarakhand,30.4599,78.0664,19.9,86,0.0,803.1,7.25,31.7,129,139.2,43.5,1.0,261.0,154.0,5.4,3,10,7,1,2026-06-26T16:41:16.007650+05:30
Dharamshala,Himachal Pradesh,32.219,76.3234,26.6,60,0.0,868.3,7.85,40.3,100,41.6,19.0,0.5,212.0,143.0,1.6,4,5,7,1,2026-06-26T16:41:16.007654+05:30
Dalhousie,Himachal Pradesh,32.5387,75.971,20.7,85,0.2,805.1,8.05,30.2,149,105.2,41.9,1.4,237.0,175.0,4.6,6,5,7,1,2026-06-26T16:41:16.007658+05:30
Patiala,Punjab,30.3398,76.3869,37.3,40,0.0,972.5,7.7,25.2,158,254.3,63.6,1.4,222.0,143.0,6.4,0,5,10,1,2026-06-26T16:41:16.007662+05:30
Bhatinda,Punjab,30.211,74.9455,37.4,41,0.0,977.8,7.55,20.9,157,119.7,51.2,1.6,222.0,172.0,13.8,0,5,10,1,2026-06-26T16:41:16.007665+05:30
Rohtak,Haryana,28.8955,76.6066,37.7,40,0.0,975.5,7.5,21.2,155,260.8,52.5,0.0,185.0,126.0,1.5,0,5,10,1,2026-06-26T16:41:16.007669+05:30
Panipat,Haryana,29.3909,76.9635,37.5,39,0.0,974.1,7.0,25.6,166,282.2,63.8,1.6,185.0,157.0,12.3,0,5,10,1,2026-06-26T16:41:16.007673+05:30
Mathura,Uttar Pradesh,27.4924,77.6737,38.0,39,0.0,980.5,8.05,22.0,130,228.6,43.5,0.0,127.0,129.0,1.7,0,5,10,1,2026-06-26T16:41:16.007676+05:30
Vrindavan,Uttar Pradesh,27.5823,77.7027,37.6,40,0.0,980.9,8.0,22.3,130,228.6,43.5,0.0,127.0,129.0,1.7,0,5,10,1,2026-06-26T16:41:16.007680+05:30
Ayodhya,Uttar Pradesh,26.7922,82.1998,37.2,44,0.0,988.4,8.45,37.8,151,84.1,38.3,0.4,206.0,161.0,6.0,0,5,10,1,2026-06-26T16:41:16.007683+05:30
Ratlam,Madhya Pradesh,23.3315,75.0367,27.3,77,0.0,951.2,7.7,32.8,94,49.2,22.4,0.6,104.0,90.0,2.1,7,5,7,1,2026-06-26T16:41:16.007687+05:30
Sagar,Madhya Pradesh,23.8388,78.7378,33.2,52,0.0,945.8,5.9,31.3,65,33.9,18.9,0.5,179.0,117.0,1.6,0,5,3,1,2026-06-26T16:41:16.007691+05:30
Satna,Madhya Pradesh,24.6005,80.8322,36.8,41,0.0,965.7,8.75,32.0,67,36.8,19.7,0.8,161.0,124.0,3.1,0,5,10,1,2026-06-26T16:41:16.007694+05:30
Akola,Maharashtra,20.7002,77.0082,28.3,78,0.0,971.2,8.65,38.5,79,45.3,23.4,3.9,163.0,99.0,6.0,7,5,7,1,2026-06-26T16:41:16.007699+05:30
Amravati,Maharashtra,20.9374,77.7796,27.6,82,0.0,963.0,8.1,36.7,81,46.2,24.4,4.7,178.0,99.0,6.2,7,5,7,1,2026-06-26T16:41:16.007703+05:30
Latur,Maharashtra,18.4088,76.5604,32.0,47,0.0,935.8,3.2,29.9,62,51.5,22.2,0.8,139.0,101.0,3.7,0,5,3,1,2026-06-26T16:41:16.007706+05:30
Nanded,Maharashtra,19.1383,77.3091,28.6,72,0.0,964.4,5.8,34.9,73,38.1,20.2,2.1,199.0,99.0,2.5,7,5,3,1,2026-06-26T16:41:16.007710+05:30
Gulbarga,Karnataka,17.3297,76.8343,33.1,42,0.0,953.9,6.9,34.6,48,56.3,22.3,1.4,162.0,102.0,3.0,0,5,7,1,2026-06-26T16:41:16.007713+05:30
Bidar,Karnataka,17.9104,77.5199,31.5,49,0.0,931.4,6.2,33.1,67,48.5,24.2,2.4,137.0,106.0,6.0,0,5,7,1,2026-06-26T16:41:16.007717+05:30
Hospet,Karnataka,15.2689,76.3909,27.7,75,0.2,952.3,8.7,40.0,30,10.4,5.8,4.2,150.0,67.0,1.5,10,5,7,1,2026-06-26T16:41:16.007720+05:30
Tirupur,Tamil Nadu,11.1085,77.3411,32.1,52,0.0,971.9,8.1,51.5,57,11.6,7.5,3.6,149.0,82.0,2.4,0,5,7,1,2026-06-26T16:41:16.007724+05:30
Alappuzha,Kerala,9.4981,76.3388,28.4,77,0.0,1008.0,7.8,41.0,44,12.0,7.8,3.2,90.0,68.0,2.3,7,0,4,1,2026-06-26T16:41:16.007727+05:30
Munnar,Kerala,10.0889,77.0595,18.3,94,0.1,855.9,8.65,39.2,27,7.2,4.8,2.8,102.0,56.0,1.0,6,10,7,1,2026-06-26T16:41:16.007731+05:30
Silchar,Assam,24.8333,92.7789,31.7,73,0.1,998.7,8.8,21.6,88,28.2,20.0,3.3,281.0,112.0,3.9,6,5,7,1,2026-06-26T16:41:16.007735+05:30
Dibrugarh,Assam,27.4728,94.912,29.0,89,0.2,988.5,8.9,27.0,86,29.7,23.6,4.2,338.0,122.0,2.5,10,5,7,1,2026-06-26T16:41:16.007739+05:30
