city,state,latitude,longitude,temp,humidity,rain,pressure,uv_index,wind_gusts,aqi,pm10,pm2_5,mosquito_risk,arthritis_risk,migraine_risk,frizz_risk,updated_at
Delhi,Delhi,28.6139,77.209,36.1,20,0.0,982.9,7.25,22.0,223,215.6,32.8,0,5,10,0,2026-04-14T14:52:30.182638+05:30
Mumbai,Maharashtra,19.076,72.8777,30.5,73,0.0,1007.2,8.0,23.8,136,81.3,46.9,3,5,4,1,2026-04-14T14:52:30.182681+05:30
Bangalore,Karnataka,12.9716,77.5946,36.7,21,0.0,912.0,9.65,31.3,92,23.6,16.6,0,5,10,0,2026-04-14T14:52:30.182697+05:30
Hyderabad,Telangana,17.385,78.4867,39.7,23,0.0,951.7,9.25,24.8,95,40.2,29.4,0,5,10,0,2026-04-14T14:52:30.182707+05:30
Chennai,Tamil Nadu,13.0827,80.2707,35.5,48,0.0,1006.2,9.35,32.4,44,16.1,11.1,0,5,7,1,2026-04-14T14:52:30.182715+05:30
Kolkata,West Bengal,22.5726,88.3639,35.0,55,0.0,1003.8,8.85,31.0,87,81.5,40.4,0,5,4,1,2026-04-14T14:52:30.182724+05:30
Pune,Maharashtra,18.5204,73.8567,41.2,16,0.0,947.8,8.6,41.0,87,26.3,16.0,0,5,10,0,2026-04-14T14:52:30.182736+05:30
Ahmedabad,Gujarat,23.0225,72.5714,41.4,16,0.0,1000.5,8.15,31.7,74,109.0,25.2,0,5,7,0,2026-04-14T14:52:30.182744+05:30
Jaipur,Rajasthan,26.9124,75.7873,38.2,14,0.0,959.3,7.9,31.7,96,144.8,22.8,0,5,10,0,2026-04-14T14:52:30.182750+05:30
Lucknow,Uttar Pradesh,26.8467,80.9462,38.0,15,0.0,992.3,7.75,36.4,157,75.4,14.9,0,5,10,0,2026-04-14T14:52:30.182758+05:30
Kanpur,Uttar Pradesh,26.4499,80.3319,36.6,21,0.0,991.4,7.75,28.1,240,329.7,35.5,0,5,10,0,2026-04-14T14:52:30.182765+05:30
Chandigarh,Chandigarh,30.7333,76.7794,34.6,20,0.0,969.2,7.2,30.2,105,15.3,11.7,0,5,7,0,2026-04-14T14:52:30.182772+05:30
Srinagar,Jammu and Kashmir,34.0837,74.7973,22.8,25,0.0,844.2,8.2,18.4,87,21.7,8.9,0,5,7,0,2026-04-14T14:52:30.182779+05:30
Jammu,Jammu and Kashmir,32.7266,74.857,34.0,26,0.0,973.3,7.85,28.1,70,17.1,9.7,0,5,7,0,2026-04-14T14:52:30.182786+05:30
Amritsar,Punjab,31.634,74.8723,34.1,27,0.0,981.6,7.8,24.5,97,14.6,9.5,0,5,7,0,2026-04-14T14:52:30.182795+05:30
Ludhiana,Punjab,30.901,75.8573,35.1,23,0.0,979.2,7.4,29.2,94,19.0,8.1,0,5,10,0,2026-04-14T14:52:30.182801+05:30
Jalandhar,Punjab,31.326,75.5762,34.2,27,0.0,980.4,7.55,24.5,105,28.9,9.3,0,5,7,0,2026-04-14T14:52:30.182810+05:30
Dehradun,Uttarakhand,30.6284,78.0322,23.0,37,0.0,832.6,7.6,41.8,89,15.6,7.0,0,5,7,0,2026-04-14T14:52:30.182816+05:30
Shimla,Himachal Pradesh,31.1048,77.1734,21.0,33,0.0,788.2,7.7,43.2,90,16.6,8.5,0,5,7,0,2026-04-14T14:52:30.182823+05:30
Manali,Himachal Pradesh,32.2396,77.1887,23.0,34,0.0,822.8,9.5,29.5,123,16.4,5.8,0,5,7,0,2026-04-14T14:52:30.182830+05:30
Gurgaon,Haryana,28.4595,77.0266,36.2,21,0.0,981.4,7.4,14.4,732,579.3,64.7,0,5,10,0,2026-04-14T14:52:30.182837+05:30
Noida,Uttar Pradesh,28.5355,77.391,36.5,20,0.0,984.5,7.3,22.0,732,579.3,64.7,0,5,10,0,2026-04-14T14:52:30.182844+05:30
Ghaziabad,Uttar Pradesh,28.6692,77.4538,36.2,22,0.0,982.6,7.25,24.5,176,183.5,32.6,0,5,10,0,2026-04-14T14:52:30.182851+05:30
Faridabad,Haryana,28.4089,77.3178,36.5,20,0.0,983.7,7.35,17.3,732,579.3,64.7,0,5,10,0,2026-04-14T14:52:30.182858+05:30
Meerut,Uttar Pradesh,28.9845,77.7064,36.5,20,0.0,981.3,7.15,32.8,176,183.5,32.6,0,5,10,0,2026-04-14T14:52:30.182865+05:30
Agra,Uttar Pradesh,27.1767,78.0081,37.9,23,0.0,987.4,7.7,23.4,488,402.3,48.9,0,5,10,0,2026-04-14T14:52:30.182871+05:30
Varanasi,Uttar Pradesh,25.3176,82.9739,39.7,11,0.0,995.9,8.4,37.4,104,185.3,30.3,0,5,10,0,2026-04-14T14:52:30.182880+05:30
Prayagraj,Uttar Pradesh,25.4358,81.8463,38.8,14,0.0,995.1,8.3,33.5,109,152.3,25.7,0,5,10,0,2026-04-14T14:52:30.182887+05:30
Gorakhpur,Uttar Pradesh,26.7606,83.3732,37.7,15,0.0,995.4,8.2,24.5,119,105.7,25.3,0,5,10,0,2026-04-14T14:52:30.182894+05:30
Bareilly,Uttar Pradesh,28.367,79.4304,37.1,17,0.0,986.0,7.55,37.1,99,17.6,10.5,0,5,10,0,2026-04-14T14:52:30.182900+05:30
Aligarh,Uttar Pradesh,27.8974,78.088,37.4,19,0.0,985.3,7.45,26.6,529,387.4,47.7,0,5,10,0,2026-04-14T14:52:30.182909+05:30
Moradabad,Uttar Pradesh,28.8386,78.7733,36.4,19,0.0,983.0,7.35,37.4,91,23.5,10.4,0,5,10,0,2026-04-14T14:52:30.182916+05:30
Saharanpur,Uttar Pradesh,29.9637,77.546,35.2,19,0.0,975.6,6.9,34.2,109,83.1,17.0,0,5,10,0,2026-04-14T14:52:30.182922+05:30
Jhansi,Uttar Pradesh,25.4484,78.5685,40.9,12,0.0,977.1,8.2,26.3,90,63.1,14.9,0,5,10,0,2026-04-14T14:52:33.414750+05:30
Surat,Gujarat,21.1702,72.8311,35.7,35,0.0,1006.2,7.8,22.3,122,81.5,38.0,0,5,7,1,2026-04-14T14:52:33.414782+05:30
Vadodara,Gujarat,22.3072,73.1812,40.2,19,0.0,1003.4,8.1,27.7,89,54.4,19.1,0,5,7,0,2026-04-14T14:52:33.414792+05:30
Rajkot,Gujarat,22.3039,70.8022,38.4,20,0.0,993.9,7.85,34.6,58,127.1,25.1,0,5,10,0,2026-04-14T14:52:33.414799+05:30
Thane,Maharashtra,19.2183,72.9781,34.6,49,0.0,1006.9,8.0,36.7,136,81.3,46.9,0,5,4,1,2026-04-14T14:52:33.414806+05:30
Nagpur,Maharashtra,21.1458,79.0882,39.1,22,0.0,971.6,8.85,15.1,152,59.3,33.9,0,5,10,0,2026-04-14T14:52:33.414813+05:30
Nashik,Maharashtra,19.9975,73.7898,37.8,21,0.0,946.0,8.25,32.4,83,38.0,14.9,0,5,10,0,2026-04-14T14:52:33.414820+05:30
Aurangabad,Maharashtra,19.8762,75.3433,40.1,12,0.0,943.9,8.95,32.4,123,21.6,12.4,0,5,10,0,2026-04-14T14:52:33.414827+05:30
Solapur,Maharashtra,17.6599,75.9064,41.2,18,0.0,955.9,9.05,28.4,113,30.4,22.3,0,5,10,0,2026-04-14T14:52:33.414834+05:30
Kolhapur,Maharashtra,16.705,74.2433,39.0,18,0.0,947.2,9.05,46.8,80,34.3,23.5,0,5,10,0,2026-04-14T14:52:33.414841+05:30
Goa,Goa,15.2993,74.124,31.9,63,0.0,996.7,9.05,31.7,79,44.7,24.0,3,5,7,1,2026-04-14T14:52:33.414847+05:30
Jodhpur,Rajasthan,26.2389,73.0243,38.4,17,0.0,982.1,8.15,28.4,76,97.6,18.8,0,5,10,0,2026-04-14T14:52:33.414854+05:30
Udaipur,Rajasthan,24.5854,73.7125,36.8,18,0.0,947.0,8.7,39.2,47,34.8,8.7,0,5,10,0,2026-04-14T14:52:33.414861+05:30
Kota,Rajasthan,25.2138,75.8648,40.6,14,0.0,977.6,8.2,24.5,91,29.3,10.4,0,5,10,0,2026-04-14T14:52:33.414868+05:30
Bikaner,Rajasthan,28.0229,73.3119,40.1,13,0.0,980.3,8.0,21.6,54,98.7,20.4,0,5,10,0,2026-04-14T14:52:33.414874+05:30
Ajmer,Rajasthan,26.4499,74.6399,37.7,19,0.0,954.5,8.1,34.9,60,32.0,10.5,0,5,10,0,2026-04-14T14:52:33.414880+05:30
Gwalior,Madhya Pradesh,26.2183,78.1828,39.1,18,0.0,982.7,7.95,39.6,101,100.4,17.3,0,5,10,0,2026-04-14T14:52:33.414887+05:30
Indore,Madhya Pradesh,22.7196,75.8577,37.5,20,0.0,948.6,8.55,30.2,110,31.5,15.7,0,5,10,0,2026-04-14T14:52:33.414893+05:30
Bhopal,Madhya Pradesh,23.2599,77.4126,39.9,13,0.0,953.5,8.55,29.9,102,49.4,15.4,0,5,10,0,2026-04-14T14:52:33.414900+05:30
Jabalpur,Madhya Pradesh,23.1815,79.9864,38.2,19,0.0,961.1,8.65,16.6,101,62.4,15.6,0,5,10,0,2026-04-14T14:52:33.414906+05:30
Ujjain,Madhya Pradesh,23.1765,75.7885,37.7,20,0.0,954.3,8.45,31.3,99,28.9,17.0,0,5,10,0,2026-04-14T14:52:33.414913+05:30
Visakhapatnam,Andhra Pradesh,17.6868,83.2185,33.1,58,0.0,1002.4,9.15,41.8,66,31.5,21.7,0,5,4,1,2026-04-14T14:52:33.414920+05:30
Vijayawada,Andhra Pradesh,16.5062,80.648,37.8,38,0.0,1000.6,9.2,29.9,57,25.6,16.1,0,5,7,1,2026-04-14T14:52:33.414926+05:30
Guntur,Andhra Pradesh,16.3067,80.4365,37.8,36,0.0,1002.0,9.25,32.8,60,28.9,19.3,0,5,7,1,2026-04-14T14:52:33.414933+05:30
Nellore,Andhra Pradesh,14.4426,79.9865,38.1,39,0.0,1004.2,9.3,32.8,53,25.9,18.7,0,5,7,1,2026-04-14T14:52:33.414940+05:30
Kurnool,Andhra Pradesh,15.8281,78.0373,41.6,21,0.0,974.5,9.25,19.8,89,41.7,29.8,0,5,10,0,2026-04-14T14:52:33.414947+05:30
Kakinada,Andhra Pradesh,16.9891,82.2475,36.7,46,0.0,1005.7,9.2,31.7,55,26.0,14.7,0,5,7,1,2026-04-14T14:52:33.414954+05:30
Tirupati,Andhra Pradesh,13.6288,79.4192,38.7,21,0.0,990.3,9.4,33.5,65,25.3,17.7,0,5,10,0,2026-04-14T14:52:33.414960+05:30
Warangal,Telangana,17.9689,79.5941,39.8,33,0.0,976.3,9.15,24.5,82,40.0,28.7,0,5,10,1,2026-04-14T14:52:33.414967+05:30
Nizamabad,Telangana,18.6725,78.0941,40.7,19,0.0,963.4,9.1,27.0,115,25.9,18.0,0,5,10,0,2026-04-14T14:52:33.414973+05:30
Mysore,Karnataka,12.2958,76.6396,37.4,21,0.0,928.0,9.5,40.0,101,27.8,19.9,0,5,10,0,2026-04-14T14:52:33.414980+05:30
Mangalore,Karnataka,12.9141,74.856,29.4,83,0.0,1005.0,9.15,24.1,90,40.5,24.8,7,5,4,1,2026-04-14T14:52:33.414987+05:30
Hubli-Dharwad,Karnataka,15.3647,75.124,38.5,24,0.0,939.7,9.25,46.1,75,37.8,26.4,0,5,10,0,2026-04-14T14:52:33.414993+05:30
Belgaum,Karnataka,15.8497,74.4977,36.8,26,0.0,925.5,9.3,41.8,68,25.6,16.5,0,5,10,0,2026-04-14T14:52:36.642538+05:30
Coimbatore,Tamil Nadu,11.0168,76.9558,38.3,24,0.0,960.7,8.95,40.0,93,22.9,15.1,0,5,10,0,2026-04-14T14:52:36.642581+05:30
Madurai,Tamil Nadu,9.9252,78.1198,38.6,28,0.0,991.3,9.35,40.7,69,20.0,13.2,0,5,10,1,2026-04-14T14:52:36.642599+05:30
Trichy,Tamil Nadu,10.7905,78.7047,38.4,29,0.0,998.0,9.4,23.4,61,14.6,10.9,0,5,10,1,2026-04-14T14:52:36.642614+05:30
Salem,Tamil Nadu,11.6643,78.146,38.2,36,0.0,975.8,9.45,18.4,74,28.7,17.5,0,5,10,1,2026-04-14T14:52:36.642628+05:30
Tirunelveli,Tamil Nadu,8.7139,77.7567,36.5,40,0.0,1001.7,9.3,41.8,77,25.6,18.3,0,5,7,1,2026-04-14T14:52:36.642645+05:30
Vellore,Tamil Nadu,12.9165,79.1325,37.9,24,0.0,983.5,9.45,31.0,82,27.0,19.8,0,5,10,0,2026-04-14T14:52:36.642660+05:30
Erode,Tamil Nadu,11.341,77.7172,39.7,28,0.0,987.1,9.3,26.6,60,23.1,12.9,0,5,10,1,2026-04-14T14:52:36.642669+05:30
Kochi,Kerala,9.9312,76.2673,29.6,82,0.0,1007.1,8.8,28.8,94,34.3,23.8,7,5,4,1,2026-04-14T14:52:36.642679+05:30
Thiruvananthapuram,Kerala,8.5241,76.9366,29.6,80,0.0,1006.6,9.1,25.2,78,33.1,19.7,7,5,4,1,2026-04-14T14:52:36.642691+05:30
Kozhikode,Kerala,11.2588,75.7804,31.4,75,0.0,1006.2,9.15,27.7,89,50.1,33.2,3,5,4,1,2026-04-14T14:52:36.642703+05:30
Thrissur,Kerala,10.5276,76.2144,34.3,59,0.0,1005.5,8.7,38.5,92,36.2,24.2,0,5,4,1,2026-04-14T14:52:36.642712+05:30
Kannur,Kerala,11.8745,75.3704,32.3,69,0.0,1005.6,9.15,30.6,95,45.8,32.5,3,5,4,1,2026-04-14T14:52:36.642720+05:30
Patna,Bihar,25.5941,85.1376,36.6,19,0.0,998.6,8.55,29.2,145,186.3,32.8,0,5,10,0,2026-04-14T14:52:36.642728+05:30
Gaya,Bihar,24.7914,85.0002,36.3,24,0.0,992.3,8.6,23.4,116,208.6,32.0,0,5,10,0,2026-04-14T14:52:36.642736+05:30
Muzaffarpur,Bihar,26.1209,85.3647,35.4,29,0.0,998.6,8.5,18.7,157,142.0,31.2,0,5,10,0,2026-04-14T14:52:36.642743+05:30
Bhagalpur,Bihar,25.2425,87.0117,34.3,31,0.0,999.4,8.55,20.5,148,59.5,22.4,0,5,7,0,2026-04-14T14:52:36.642751+05:30
Ranchi,Jharkhand,23.3441,85.3096,35.0,16,0.0,937.8,9.1,36.0,132,93.6,18.1,0,5,7,0,2026-04-14T14:52:36.642759+05:30
Jamshedpur,Jharkhand,22.8046,86.2029,36.8,26,0.0,989.3,8.95,15.8,150,70.8,21.2,0,5,10,0,2026-04-14T14:52:36.642766+05:30
Dhanbad,Jharkhand,23.7957,86.4304,37.6,18,0.0,978.4,8.9,25.6,126,122.5,28.1,0,5,10,0,2026-04-14T14:52:36.642774+05:30
Bokaro,Jharkhand,23.6693,86.1511,38.1,15,0.0,982.2,8.9,32.8,125,136.0,30.4,0,5,10,0,2026-04-14T14:52:36.642782+05:30
Bhubaneswar,Odisha,20.2961,85.8245,33.8,64,0.0,1000.7,9.05,25.9,72,48.9,35.5,3,5,4,1,2026-04-14T14:52:36.642790+05:30
Cuttack,Odisha,20.4625,85.8828,34.7,60,0.0,1002.5,9.1,28.1,72,48.9,35.5,0,5,4,1,2026-04-14T14:52:36.642798+05:30
Rourkela,Odisha,22.2604,84.8536,39.2,16,0.0,983.3,8.85,21.2,127,84.5,20.2,0,5,10,0,2026-04-14T14:52:36.642806+05:30
Raipur,Chhattisgarh,21.2514,81.6296,40.7,19,0.0,972.7,8.9,17.6,147,96.9,41.4,0,5,10,0,2026-04-14T14:52:36.642814+05:30
Bhilai,Chhattisgarh,21.1938,81.3509,40.4,21,0.0,973.0,8.9,14.0,122,65.9,39.6,0,5,10,0,2026-04-14T14:52:36.642821+05:30
Guwahati,Assam,26.1158,91.7086,30.3,59,0.0,999.8,8.5,30.6,126,65.0,39.3,0,5,7,1,2026-04-14T14:52:36.642829+05:30
Agartala,Tripura,23.8315,91.2868,32.1,60,0.0,1004.6,8.65,27.7,97,61.0,46.8,0,5,4,1,2026-04-14T14:52:36.642837+05:30
Shillong,Meghalaya,25.5788,91.8933,20.2,57,0.0,856.8,8.9,53.3,102,48.2,27.2,0,5,7,0,2026-04-14T14:52:36.642845+05:30
Imphal,Manipur,24.817,93.9368,23.6,68,0.0,923.0,8.8,68.4,127,59.5,34.0,3,5,7,1,2026-04-14T14:52:36.642853+05:30
Aizawl,Mizoram,23.7271,92.7176,26.4,55,0.0,893.7,8.95,47.9,101,64.0,39.6,4,5,7,1,2026-04-14T14:52:36.642861+05:30
Kohima,Nagaland,25.6701,94.1077,20.7,61,0.0,855.3,8.2,70.6,118,65.9,38.1,3,5,7,0,2026-04-14T14:52:36.642869+05:30
Gangtok,Sikkim,27.3314,88.6138,15.6,93,0.1,836.5,8.65,16.2,125,63.1,34.1,6,10,7,0,2026-04-14T14:52:36.642877+05:30
Siliguri,West Bengal,26.7271,88.3953,25.8,64,0.0,993.0,8.45,36.7,154,82.2,44.9,7,5,7,1,2026-04-14T14:52:39.869690+05:30
Durgapur,West Bengal,23.5204,87.3119,37.5,21,0.0,993.2,8.8,20.2,158,76.6,21.7,0,5,10,0,2026-04-14T14:52:39.869724+05:30
Asansol,West Bengal,23.6739,86.9524,37.3,20,0.0,991.8,8.85,21.6,120,98.7,22.7,0,5,10,0,2026-04-14T14:52:39.869737+05:30
Pondicherry,Puducherry,11.9139,79.8145,36.6,46,0.0,1006.9,9.3,27.0,40,14.8,10.7,0,5,7,1,2026-04-14T14:52:39.869746+05:30
Port Blair,Andaman and Nicobar Islands,11.6234,92.7265,29.5,72,0.0,1006.3,8.5,25.2,61,27.6,18.1,7,5,4,1,2026-04-14T14:52:39.869755+05:30
Haridwar,Uttarakhand,29.9457,78.1642,34.9,19,0.0,974.0,7.0,35.6,92,19.3,9.6,0,5,7,0,2026-04-14T14:52:39.869764+05:30
Rishikesh,Uttarakhand,30.0869,78.2676,33.7,20,0.0,967.0,7.1,37.4,87,14.7,6.9,0,5,7,0,2026-04-14T14:52:39.869772+05:30
Nainital,Uttarakhand,29.3919,79.4542,26.7,22,0.0,809.6,7.95,59.4,124,19.3,10.3,4,5,7,0,2026-04-14T14:52:39.869780+05:30
Mussoorie,Uttarakhand,30.4599,78.0664,24.1,30,0.0,806.0,7.5,43.6,89,16.6,10.3,0,5,7,0,2026-04-14T14:52:39.869789+05:30
Dharamshala,Himachal Pradesh,32.219,76.3234,26.1,36,0.0,871.5,7.75,25.6,105,16.1,6.1,4,5,7,0,2026-04-14T14:52:39.869797+05:30
Dalhousie,Himachal Pradesh,32.5387,75.971,24.7,31,0.0,807.4,8.0,22.3,86,16.8,9.1,0,5,7,0,2026-04-14T14:52:39.869806+05:30
Patiala,Punjab,30.3398,76.3869,36.0,18,0.0,978.4,7.1,33.5,265,508.5,46.0,0,5,10,0,2026-04-14T14:52:39.869814+05:30
Bhatinda,Punjab,30.211,74.9455,37.0,19,0.0,983.7,7.75,28.8,103,27.0,8.6,0,5,10,0,2026-04-14T14:52:39.869822+05:30
Rohtak,Haryana,28.8955,76.6066,37.7,16,0.0,981.6,7.3,25.9,309,242.1,31.2,0,5,10,0,2026-04-14T14:52:39.869830+05:30
Panipat,Haryana,29.3909,76.9635,37.0,18,0.0,980.3,7.1,32.0,640,702.2,63.8,0,5,10,0,2026-04-14T14:52:39.869838+05:30
Mathura,Uttar Pradesh,27.4924,77.6737,37.8,21,0.0,986.5,7.6,22.7,551,350.2,45.5,0,5,10,0,2026-04-14T14:52:39.869845+05:30
Vrindavan,Uttar Pradesh,27.5823,77.7027,36.9,21,0.0,987.0,7.55,20.5,551,350.2,45.5,0,5,10,0,2026-04-14T14:52:39.869853+05:30
Ayodhya,Uttar Pradesh,26.7922,82.1998,39.3,11,0.0,993.6,7.95,38.9,104,54.1,14.8,0,5,10,0,2026-04-14T14:52:39.869860+05:30
Ratlam,Madhya Pradesh,23.3315,75.0367,35.9,28,0.0,955.2,8.4,30.6,87,36.7,14.9,0,5,10,0,2026-04-14T14:52:39.869869+05:30
Sagar,Madhya Pradesh,23.8388,78.7378,39.4,14,0.0,950.2,8.55,27.7,116,66.1,13.1,0,5,10,0,2026-04-14T14:52:39.869876+05:30
Satna,Madhya Pradesh,24.6005,80.8322,39.3,14,0.0,970.9,8.6,27.7,116,72.2,12.9,0,5,10,0,2026-04-14T14:52:39.869884+05:30
Akola,Maharashtra,20.7002,77.0082,41.6,14,0.0,973.8,8.8,27.0,112,51.6,19.7,0,5,10,0,2026-04-14T14:52:39.869893+05:30
Amravati,Maharashtra,20.9374,77.7796,40.7,17,0.0,966.1,8.8,22.0,106,60.1,20.8,0,5,10,0,2026-04-14T14:52:39.869901+05:30
Latur,Maharashtra,18.4088,76.5604,37.9,22,0.0,939.6,9.05,30.2,108,20.3,14.3,0,5,10,0,2026-04-14T14:52:39.869910+05:30
Nanded,Maharashtra,19.1383,77.3091,40.1,21,0.0,967.4,8.95,19.8,97,22.3,12.6,0,5,10,0,2026-04-14T14:52:39.869917+05:30
Gulbarga,Karnataka,17.3297,76.8343,41.9,17,0.0,957.0,9.1,21.6,103,41.3,30.9,0,5,10,0,2026-04-14T14:52:39.869924+05:30
Bidar,Karnataka,17.9104,77.5199,39.8,18,0.0,934.9,9.1,24.1,123,39.5,29.6,0,5,10,0,2026-04-14T14:52:39.869932+05:30
Hospet,Karnataka,15.2689,76.3909,37.3,33,0.0,954.8,9.25,29.9,94,47.4,34.9,0,5,10,1,2026-04-14T14:52:39.869940+05:30
Tirupur,Tamil Nadu,11.1085,77.3411,39.2,26,0.0,973.7,9.35,29.2,73,22.1,13.3,0,5,10,1,2026-04-14T14:52:39.869947+05:30
Alappuzha,Kerala,9.4981,76.3388,29.6,82,0.0,1007.2,8.9,25.9,93,35.4,22.9,7,5,4,1,2026-04-14T14:52:39.869956+05:30
Munnar,Kerala,10.0889,77.0595,32.0,39,0.0,859.3,9.75,29.5,80,23.9,14.7,0,5,7,1,2026-04-14T14:52:39.869964+05:30
Silchar,Assam,24.8333,92.7789,29.8,67,0.0,1004.1,8.7,32.4,146,63.3,41.6,7,5,4,1,2026-04-14T14:52:39.869972+05:30
Dibrugarh,Assam,27.4728,94.912,26.8,66,0.0,994.8,8.55,20.5,95,61.0,27.2,7,5,7,1,2026-04-14T14:52:39.869980+05:30
