city,state,latitude,longitude,temp,humidity,rain,pressure,uv_index,aqi,mosquito_risk,arthritis_risk,migraine_risk,frizz_risk,updated_at
Delhi,Delhi,28.6139,77.209,25.8,43,0.0,990.6,5.5,160,4,5,3,0,2026-02-25T11:33:39.305258+05:30
Mumbai,Maharashtra,19.076,72.8777,27.1,73,0.0,1012.1,7.25,113,7,0,4,1,2026-02-25T11:33:39.305307+05:30
Bangalore,Karnataka,12.9716,77.5946,27.4,48,0.0,915.1,8.7,97,4,5,7,0,2026-02-25T11:33:39.305323+05:30
Hyderabad,Telangana,17.385,78.4867,28.9,53,0.0,957.3,8.05,145,4,5,7,1,2026-02-25T11:33:39.305333+05:30
Chennai,Tamil Nadu,13.0827,80.2707,31.0,55,0.0,1011.2,8.55,53,0,0,4,1,2026-02-25T11:33:39.305342+05:30
Kolkata,West Bengal,22.5726,88.3639,28.5,65,0.0,1011.0,7.35,187,7,0,4,1,2026-02-25T11:33:39.305350+05:30
Pune,Maharashtra,18.5204,73.8567,31.8,26,0.0,952.0,7.75,129,0,5,7,0,2026-02-25T11:33:39.305358+05:30
Ahmedabad,Gujarat,23.0225,72.5714,30.8,42,0.0,1007.0,7.05,78,0,5,4,1,2026-02-25T11:33:39.305365+05:30
Jaipur,Rajasthan,26.9124,75.7873,27.5,38,0.0,966.6,6.35,110,4,5,7,0,2026-02-25T11:33:39.305373+05:30
Lucknow,Uttar Pradesh,26.8467,80.9462,27.3,47,0.0,1001.0,5.95,163,4,5,0,0,2026-02-25T11:33:39.305387+05:30
Kanpur,Uttar Pradesh,26.4499,80.3319,27.1,52,0.0,999.2,6.0,160,4,5,3,1,2026-02-25T11:33:39.305396+05:30
Chandigarh,Chandigarh,30.7333,76.7794,24.1,61,0.0,975.7,5.45,151,3,5,3,1,2026-02-25T11:33:39.305404+05:30
Srinagar,Jammu and Kashmir,34.0837,74.7973,13.8,47,0.0,845.9,6.3,154,0,5,7,0,2026-02-25T11:33:39.305411+05:30
Jammu,Jammu and Kashmir,32.7266,74.857,23.8,63,0.0,979.4,6.0,152,3,5,3,1,2026-02-25T11:33:39.305418+05:30
Amritsar,Punjab,31.634,74.8723,23.7,70,0.0,988.2,5.95,189,3,5,3,1,2026-02-25T11:33:39.305424+05:30
Ludhiana,Punjab,30.901,75.8573,24.6,57,0.0,986.1,5.65,177,0,5,3,0,2026-02-25T11:33:39.305431+05:30
Jalandhar,Punjab,31.326,75.5762,23.8,68,0.0,987.3,5.8,181,3,5,3,1,2026-02-25T11:33:39.305438+05:30
Dehradun,Uttarakhand,30.6284,78.0322,15.3,62,0.0,833.7,5.75,82,3,5,3,0,2026-02-25T11:33:39.305444+05:30
Shimla,Himachal Pradesh,31.1048,77.1734,14.3,61,0.0,788.0,5.85,101,3,5,3,0,2026-02-25T11:33:39.305451+05:30
Manali,Himachal Pradesh,32.2396,77.1887,17.4,14,0.0,822.2,7.5,54,0,5,7,1,2026-02-25T11:33:39.305461+05:30
Gurgaon,Haryana,28.4595,77.0266,25.4,51,0.0,989.1,5.65,164,4,5,3,0,2026-02-25T11:33:39.305468+05:30
Noida,Uttar Pradesh,28.5355,77.391,26.3,42,0.0,992.1,5.55,164,4,5,3,0,2026-02-25T11:33:39.305475+05:30
Ghaziabad,Uttar Pradesh,28.6692,77.4538,24.6,55,0.0,990.4,5.5,158,0,5,3,0,2026-02-25T11:33:39.305481+05:30
Faridabad,Haryana,28.4089,77.3178,25.0,54,0.0,991.4,5.55,164,4,5,3,0,2026-02-25T11:33:39.305487+05:30
Meerut,Uttar Pradesh,28.9845,77.7064,24.9,56,0.0,989.2,5.4,158,0,5,3,0,2026-02-25T11:33:39.305494+05:30
Agra,Uttar Pradesh,27.1767,78.0081,26.1,58,0.0,995.5,5.85,170,4,5,3,1,2026-02-25T11:33:39.305500+05:30
Varanasi,Uttar Pradesh,25.3176,82.9739,26.9,49,0.0,1005.1,6.65,155,4,5,4,0,2026-02-25T11:33:39.305507+05:30
Prayagraj,Uttar Pradesh,25.4358,81.8463,27.0,49,0.0,1003.6,6.5,167,4,5,4,0,2026-02-25T11:33:39.305514+05:30
Gorakhpur,Uttar Pradesh,26.7606,83.3732,26.1,62,0.0,1004.8,6.35,171,7,5,4,1,2026-02-25T11:33:39.305520+05:30
Bareilly,Uttar Pradesh,28.367,79.4304,25.0,70,0.0,994.4,5.65,169,7,5,3,1,2026-02-25T11:33:39.305529+05:30
Aligarh,Uttar Pradesh,27.8974,78.088,25.6,55,0.0,993.3,5.6,165,4,5,3,0,2026-02-25T11:33:39.305535+05:30
Moradabad,Uttar Pradesh,28.8386,78.7733,24.7,65,0.0,991.2,5.5,174,3,5,3,1,2026-02-25T11:33:39.305542+05:30
Saharanpur,Uttar Pradesh,29.9637,77.546,24.4,63,0.0,982.9,5.15,162,3,5,3,1,2026-02-25T11:33:39.305547+05:30
Jhansi,Uttar Pradesh,25.4484,78.5685,27.7,41,0.0,985.2,6.45,126,4,5,7,0,2026-02-25T11:33:42.646683+05:30
Surat,Gujarat,21.1702,72.8311,29.4,48,0.0,1011.1,7.0,153,4,0,4,1,2026-02-25T11:33:42.646714+05:30
Vadodara,Gujarat,22.3072,73.1812,33.0,32,0.0,1008.9,7.05,85,0,0,4,0,2026-02-25T11:33:42.646723+05:30
Rajkot,Gujarat,22.3039,70.8022,29.4,46,0.0,998.9,6.95,68,4,5,7,1,2026-02-25T11:33:42.646730+05:30
Thane,Maharashtra,19.2183,72.9781,30.5,48,0.0,1011.6,7.25,113,0,0,4,1,2026-02-25T11:33:42.646737+05:30
Nagpur,Maharashtra,21.1458,79.0882,28.6,48,0.0,978.7,6.5,133,4,5,7,1,2026-02-25T11:33:42.646744+05:30
Nashik,Maharashtra,19.9975,73.7898,29.9,29,0.0,949.3,7.4,110,4,5,7,0,2026-02-25T11:33:42.646751+05:30
Aurangabad,Maharashtra,19.8762,75.3433,28.4,45,0.0,948.2,7.35,99,4,5,7,0,2026-02-25T11:33:42.646757+05:30
Solapur,Maharashtra,17.6599,75.9064,28.6,56,0.0,961.2,7.85,130,4,5,7,1,2026-02-25T11:33:42.646764+05:30
Kolhapur,Maharashtra,16.705,74.2433,29.7,41,0.0,951.5,8.2,151,4,5,7,0,2026-02-25T11:33:42.646771+05:30
Goa,Goa,15.2993,74.124,30.7,66,0.0,1001.1,8.2,151,3,5,4,1,2026-02-25T11:33:42.646777+05:30
Jodhpur,Rajasthan,26.2389,73.0243,30.7,28,0.0,988.7,6.6,66,0,5,7,0,2026-02-25T11:33:42.646784+05:30
Udaipur,Rajasthan,24.5854,73.7125,27.7,31,0.0,951.8,7.25,40,4,5,7,0,2026-02-25T11:33:42.646790+05:30
Kota,Rajasthan,25.2138,75.8648,27.1,54,0.0,985.2,6.65,99,4,5,7,1,2026-02-25T11:33:42.646796+05:30
Bikaner,Rajasthan,28.0229,73.3119,27.5,34,0.0,988.5,6.25,58,4,5,7,0,2026-02-25T11:33:42.646802+05:30
Ajmer,Rajasthan,26.4499,74.6399,27.1,40,0.0,960.6,6.6,91,4,5,7,0,2026-02-25T11:33:42.646808+05:30
Gwalior,Madhya Pradesh,26.2183,78.1828,27.4,47,0.0,990.5,6.2,137,4,5,7,0,2026-02-25T11:33:42.646815+05:30
Indore,Madhya Pradesh,22.7196,75.8577,28.5,37,0.0,953.4,7.2,99,4,5,7,0,2026-02-25T11:33:42.646821+05:30
Bhopal,Madhya Pradesh,23.2599,77.4126,28.0,39,0.0,959.5,7.05,78,4,5,7,0,2026-02-25T11:33:42.646827+05:30
Jabalpur,Madhya Pradesh,23.1815,79.9864,28.0,38,0.0,967.6,7.1,81,4,5,7,0,2026-02-25T11:33:42.646833+05:30
Ujjain,Madhya Pradesh,23.1765,75.7885,28.3,42,0.0,959.3,7.1,112,4,5,7,0,2026-02-25T11:33:42.646840+05:30
Visakhapatnam,Andhra Pradesh,17.6868,83.2185,30.3,52,0.0,1008.1,8.05,123,0,0,4,1,2026-02-25T11:33:42.646847+05:30
Vijayawada,Andhra Pradesh,16.5062,80.648,29.9,59,0.0,1007.2,8.15,131,4,5,4,1,2026-02-25T11:33:42.646853+05:30
Guntur,Andhra Pradesh,16.3067,80.4365,30.5,55,0.0,1008.4,8.15,126,0,0,4,1,2026-02-25T11:33:42.646860+05:30
Nellore,Andhra Pradesh,14.4426,79.9865,31.5,52,0.0,1009.9,8.4,57,0,0,4,1,2026-02-25T11:33:42.646866+05:30
Kurnool,Andhra Pradesh,15.8281,78.0373,29.7,56,0.0,981.2,8.2,110,4,5,7,1,2026-02-25T11:33:42.646873+05:30
Kakinada,Andhra Pradesh,16.9891,82.2475,31.1,53,0.0,1011.9,8.05,58,0,0,4,1,2026-02-25T11:33:42.646880+05:30
Tirupati,Andhra Pradesh,13.6288,79.4192,29.3,56,0.0,995.8,8.5,78,4,5,7,1,2026-02-25T11:33:42.646886+05:30
Warangal,Telangana,17.9689,79.5941,30.1,57,0.0,983.3,7.8,155,0,5,7,1,2026-02-25T11:33:42.646892+05:30
Nizamabad,Telangana,18.6725,78.0941,30.0,43,0.0,969.2,7.75,156,4,5,7,1,2026-02-25T11:33:42.646897+05:30
Mysore,Karnataka,12.2958,76.6396,27.5,56,0.0,931.6,8.85,105,4,5,7,1,2026-02-25T11:33:42.646903+05:30
Mangalore,Karnataka,12.9141,74.856,27.5,83,0.0,1010.1,8.45,119,7,0,4,1,2026-02-25T11:33:42.646909+05:30
Hubli-Dharwad,Karnataka,15.3647,75.124,29.7,46,0.0,944.4,8.15,116,4,5,7,1,2026-02-25T11:33:42.646932+05:30
Belgaum,Karnataka,15.8497,74.4977,29.6,37,0.0,929.2,8.4,140,4,5,7,0,2026-02-25T11:33:45.986798+05:30
Coimbatore,Tamil Nadu,11.0168,76.9558,29.4,56,0.0,965.1,8.9,105,4,5,7,1,2026-02-25T11:33:45.986832+05:30
Madurai,Tamil Nadu,9.9252,78.1198,30.7,60,0.0,996.5,8.9,92,0,5,7,1,2026-02-25T11:33:45.986843+05:30
Trichy,Tamil Nadu,10.7905,78.7047,30.3,60,0.0,1003.5,8.75,69,0,5,4,1,2026-02-25T11:33:45.986852+05:30
Salem,Tamil Nadu,11.6643,78.146,30.4,55,0.0,980.8,8.75,86,0,5,7,1,2026-02-25T11:33:45.986861+05:30
Tirunelveli,Tamil Nadu,8.7139,77.7567,31.6,56,0.0,1006.5,8.9,70,0,5,4,1,2026-02-25T11:33:45.986869+05:30
Vellore,Tamil Nadu,12.9165,79.1325,29.4,54,0.0,988.7,8.6,94,4,5,7,1,2026-02-25T11:33:45.986877+05:30
Erode,Tamil Nadu,11.341,77.7172,31.2,53,0.0,992.5,8.8,85,0,5,7,1,2026-02-25T11:33:45.986885+05:30
Kochi,Kerala,9.9312,76.2673,27.0,80,0.0,1011.8,8.6,91,7,0,4,1,2026-02-25T11:33:45.986894+05:30
Thiruvananthapuram,Kerala,8.5241,76.9366,27.1,79,0.0,1011.1,8.8,78,7,0,4,1,2026-02-25T11:33:45.986902+05:30
Kozhikode,Kerala,11.2588,75.7804,28.9,70,0.0,1011.1,8.6,82,7,0,4,1,2026-02-25T11:33:45.986910+05:30
Thrissur,Kerala,10.5276,76.2144,31.0,63,0.0,1010.0,8.7,84,3,0,4,1,2026-02-25T11:33:45.986961+05:30
Kannur,Kerala,11.8745,75.3704,29.2,71,0.0,1010.4,8.55,105,7,0,4,1,2026-02-25T11:33:45.986974+05:30
Patna,Bihar,25.5941,85.1376,26.9,43,0.0,1007.7,6.8,167,4,5,4,0,2026-02-25T11:33:45.986985+05:30
Gaya,Bihar,24.7914,85.0002,26.4,46,0.0,1000.9,6.9,152,4,5,4,0,2026-02-25T11:33:45.986993+05:30
Muzaffarpur,Bihar,26.1209,85.3647,27.1,43,0.0,1007.6,6.75,172,4,5,4,0,2026-02-25T11:33:45.987000+05:30
Bhagalpur,Bihar,25.2425,87.0117,26.4,51,0.0,1008.0,6.85,157,4,0,4,0,2026-02-25T11:33:45.987007+05:30
Ranchi,Jharkhand,23.3441,85.3096,25.2,35,0.0,943.0,7.55,103,4,5,7,0,2026-02-25T11:33:45.987013+05:30
Jamshedpur,Jharkhand,22.8046,86.2029,28.7,36,0.0,996.5,7.45,158,4,5,7,0,2026-02-25T11:33:45.987019+05:30
Dhanbad,Jharkhand,23.7957,86.4304,28.9,26,0.0,985.6,7.35,154,4,5,7,0,2026-02-25T11:33:45.987026+05:30
Bokaro,Jharkhand,23.6693,86.1511,28.4,30,0.0,989.7,7.35,152,4,5,7,0,2026-02-25T11:33:45.987032+05:30
Bhubaneswar,Odisha,20.2961,85.8245,30.0,56,0.0,1007.5,7.75,155,4,5,4,1,2026-02-25T11:33:45.987039+05:30
Cuttack,Odisha,20.4625,85.8828,29.7,59,0.0,1009.6,7.8,155,4,0,4,1,2026-02-25T11:33:45.987045+05:30
Rourkela,Odisha,22.2604,84.8536,29.7,31,0.0,991.0,7.35,98,4,5,7,0,2026-02-25T11:33:45.987052+05:30
Raipur,Chhattisgarh,21.2514,81.6296,28.1,46,0.0,980.5,7.5,159,4,5,7,0,2026-02-25T11:33:45.987058+05:30
Bhilai,Chhattisgarh,21.1938,81.3509,28.2,47,0.0,980.9,7.5,159,4,5,7,0,2026-02-25T11:33:45.987064+05:30
Guwahati,Assam,26.1158,91.7086,27.0,59,0.0,1006.4,6.75,160,4,5,4,1,2026-02-25T11:33:45.987070+05:30
Agartala,Tripura,23.8315,91.2868,29.6,43,0.0,1010.4,7.1,159,4,0,4,0,2026-02-25T11:33:45.987077+05:30
Shillong,Meghalaya,25.5788,91.8933,17.8,37,0.0,859.3,6.15,149,0,5,7,0,2026-02-25T11:33:45.987083+05:30
Imphal,Manipur,24.817,93.9368,23.1,34,0.0,926.3,7.3,168,0,5,7,0,2026-02-25T11:33:45.987089+05:30
Aizawl,Mizoram,23.7271,92.7176,24.4,33,0.0,896.7,7.3,161,0,5,7,0,2026-02-25T11:33:45.987095+05:30
Kohima,Nagaland,25.6701,94.1077,16.4,69,0.0,857.4,6.65,159,3,5,7,0,2026-02-25T11:33:45.987101+05:30
Gangtok,Sikkim,27.3314,88.6138,17.0,53,0.0,840.8,7.05,135,0,5,7,0,2026-02-25T11:33:45.987107+05:30
Siliguri,West Bengal,26.7271,88.3953,24.2,47,0.0,999.0,6.75,167,0,5,7,0,2026-02-25T11:33:49.333416+05:30
Durgapur,West Bengal,23.5204,87.3119,29.8,33,0.0,1000.5,7.35,165,4,5,4,0,2026-02-25T11:33:49.333449+05:30
Asansol,West Bengal,23.6739,86.9524,29.9,30,0.0,999.1,7.35,156,4,5,7,0,2026-02-25T11:33:49.333458+05:30
Pondicherry,Puducherry,11.9139,79.8145,30.6,58,0.0,1012.3,8.6,49,0,0,4,1,2026-02-25T11:33:49.333466+05:30
Port Blair,Andaman and Nicobar Islands,11.6234,92.7265,27.1,83,0.0,1007.7,8.6,28,7,5,4,1,2026-02-25T11:33:49.333474+05:30
Haridwar,Uttarakhand,29.9457,78.1642,25.1,64,0.0,981.3,5.3,146,7,5,3,1,2026-02-25T11:33:49.333481+05:30
Rishikesh,Uttarakhand,30.0869,78.2676,24.3,60,0.0,973.6,5.35,128,0,5,3,0,2026-02-25T11:33:49.333488+05:30
Nainital,Uttarakhand,29.3919,79.4542,17.1,64,0.0,810.0,6.1,133,3,5,7,0,2026-02-25T11:33:49.333495+05:30
Mussoorie,Uttarakhand,30.4599,78.0664,15.7,67,0.0,806.3,5.65,122,3,5,3,0,2026-02-25T11:33:49.333502+05:30
Dharamshala,Himachal Pradesh,32.219,76.3234,19.0,68,0.0,873.5,5.9,70,3,5,3,0,2026-02-25T11:33:49.333509+05:30
Dalhousie,Himachal Pradesh,32.5387,75.971,18.1,38,0.0,808.2,6.1,136,0,5,7,0,2026-02-25T11:33:49.333517+05:30
Patiala,Punjab,30.3398,76.3869,24.6,57,0.0,985.5,5.35,173,0,5,3,0,2026-02-25T11:33:49.333523+05:30
Bhatinda,Punjab,30.211,74.9455,24.9,56,0.0,991.4,6.0,159,0,5,3,0,2026-02-25T11:33:49.333529+05:30
Rohtak,Haryana,28.8955,76.6066,25.2,51,0.0,989.4,5.55,160,4,5,3,0,2026-02-25T11:33:49.333536+05:30
Panipat,Haryana,29.3909,76.9635,24.3,60,0.0,988.1,5.3,161,0,5,3,0,2026-02-25T11:33:49.333542+05:30
Mathura,Uttar Pradesh,27.4924,77.6737,25.8,56,0.0,994.7,5.8,164,4,5,3,1,2026-02-25T11:33:49.333548+05:30
Vrindavan,Uttar Pradesh,27.5823,77.7027,25.6,56,0.0,995.1,5.75,164,4,5,3,1,2026-02-25T11:33:49.333554+05:30
Ayodhya,Uttar Pradesh,26.7922,82.1998,26.7,52,0.0,1002.9,6.15,174,4,5,4,0,2026-02-25T11:33:49.333560+05:30
Ratlam,Madhya Pradesh,23.3315,75.0367,29.1,39,0.0,959.9,7.05,98,4,5,7,0,2026-02-25T11:33:49.333567+05:30
Sagar,Madhya Pradesh,23.8388,78.7378,27.2,36,0.0,956.5,6.95,83,4,5,7,0,2026-02-25T11:33:49.333574+05:30
Satna,Madhya Pradesh,24.6005,80.8322,27.7,34,0.0,978.2,6.9,88,4,5,7,0,2026-02-25T11:33:49.333580+05:30
Akola,Maharashtra,20.7002,77.0082,30.0,47,0.0,980.0,7.45,104,4,5,7,1,2026-02-25T11:33:49.333587+05:30
Amravati,Maharashtra,20.9374,77.7796,30.9,39,0.0,972.3,7.4,116,0,5,7,0,2026-02-25T11:33:49.333594+05:30
Latur,Maharashtra,18.4088,76.5604,28.4,44,0.0,943.9,6.5,139,4,5,7,0,2026-02-25T11:33:49.333600+05:30
Nanded,Maharashtra,19.1383,77.3091,30.1,47,0.0,973.2,7.7,151,0,5,7,1,2026-02-25T11:33:49.333606+05:30
Gulbarga,Karnataka,17.3297,76.8343,26.0,63,0.0,963.0,4.55,127,7,5,3,1,2026-02-25T11:33:49.333612+05:30
Bidar,Karnataka,17.9104,77.5199,28.4,46,0.0,939.7,7.85,152,4,5,7,0,2026-02-25T11:33:49.333618+05:30
Hospet,Karnataka,15.2689,76.3909,27.3,58,0.0,959.6,8.2,93,4,5,7,1,2026-02-25T11:33:49.333624+05:30
Tirupur,Tamil Nadu,11.1085,77.3411,30.2,54,0.0,978.6,8.9,116,0,5,7,1,2026-02-25T11:33:49.333630+05:30
Alappuzha,Kerala,9.4981,76.3388,27.7,76,0.0,1011.9,8.65,86,7,0,4,1,2026-02-25T11:33:49.333636+05:30
Munnar,Kerala,10.0889,77.0595,24.5,72,0.0,860.3,9.15,91,3,5,7,1,2026-02-25T11:33:49.333643+05:30
Silchar,Assam,24.8333,92.7789,28.7,46,0.0,1009.2,7.05,164,4,0,4,0,2026-02-25T11:33:49.333649+05:30
Dibrugarh,Assam,27.4728,94.912,24.4,61,0.0,1000.3,6.75,141,3,5,4,1,2026-02-25T11:33:49.333655+05:30
