city,state,latitude,longitude,temp,humidity,rain,pressure,uv_index,wind_gusts,aqi,pm10,pm2_5,mosquito_risk,arthritis_risk,migraine_risk,frizz_risk,updated_at
Delhi,Delhi,28.6139,77.209,38.0,18,0.0,979.6,7.3,24.5,256,214.2,29.5,0,5,10,0,2026-04-16T16:36:54.880520+05:30
Mumbai,Maharashtra,19.076,72.8777,29.0,71,0.0,1005.2,8.0,19.1,102,50.3,21.9,7,5,4,1,2026-04-16T16:36:54.880562+05:30
Bangalore,Karnataka,12.9716,77.5946,35.5,21,0.0,909.2,9.6,32.8,150,25.4,21.2,0,5,10,0,2026-04-16T16:36:54.880578+05:30
Hyderabad,Telangana,17.385,78.4867,37.3,26,0.0,950.0,9.25,41.8,147,36.4,29.7,0,5,10,0,2026-04-16T16:36:54.880588+05:30
Chennai,Tamil Nadu,13.0827,80.2707,34.2,57,0.0,1003.5,9.3,34.2,41,11.1,7.7,0,5,4,1,2026-04-16T16:36:54.880596+05:30
Kolkata,West Bengal,22.5726,88.3639,28.8,77,0.0,1004.3,8.85,30.6,82,27.0,20.9,7,5,4,1,2026-04-16T16:36:54.880604+05:30
Pune,Maharashtra,18.5204,73.8567,37.2,22,0.0,945.8,8.6,46.4,112,21.5,17.1,0,5,10,0,2026-04-16T16:36:54.880616+05:30
Ahmedabad,Gujarat,23.0225,72.5714,39.6,25,0.0,997.6,8.15,18.0,95,59.8,21.5,0,5,10,0,2026-04-16T16:36:54.880624+05:30
Jaipur,Rajasthan,26.9124,75.7873,39.7,11,0.0,956.5,7.95,26.6,134,147.6,22.0,0,5,10,0,2026-04-16T16:36:54.880631+05:30
Lucknow,Uttar Pradesh,26.8467,80.9462,38.4,15,0.0,989.6,7.8,23.8,152,75.4,14.8,0,5,10,0,2026-04-16T16:36:54.880639+05:30
Kanpur,Uttar Pradesh,26.4499,80.3319,37.5,19,0.0,988.3,7.85,21.2,148,291.5,32.5,0,5,10,0,2026-04-16T16:36:54.880645+05:30
Chandigarh,Chandigarh,30.7333,76.7794,36.6,16,0.0,966.1,7.2,25.6,143,12.7,8.0,0,5,10,0,2026-04-16T16:36:54.880653+05:30
Srinagar,Jammu and Kashmir,34.0837,74.7973,19.6,51,0.0,843.5,7.95,21.6,105,34.3,12.7,0,5,7,0,2026-04-16T16:36:54.880659+05:30
Jammu,Jammu and Kashmir,32.7266,74.857,34.3,34,0.0,970.7,7.4,39.2,114,16.8,7.2,0,5,7,1,2026-04-16T16:36:54.880666+05:30
Amritsar,Punjab,31.634,74.8723,36.3,25,0.0,977.8,7.9,34.9,117,36.3,12.3,0,5,10,0,2026-04-16T16:36:54.880673+05:30
Ludhiana,Punjab,30.901,75.8573,37.8,16,0.0,975.6,7.4,24.8,125,21.0,7.4,0,5,10,0,2026-04-16T16:36:54.880679+05:30
Jalandhar,Punjab,31.326,75.5762,37.2,18,0.0,976.9,7.0,25.6,119,32.5,8.8,0,5,10,0,2026-04-16T16:36:54.880687+05:30
Dehradun,Uttarakhand,30.6284,78.0322,24.0,40,0.0,831.5,7.35,31.0,138,10.4,4.8,0,5,7,0,2026-04-16T16:36:54.880694+05:30
Shimla,Himachal Pradesh,31.1048,77.1734,22.5,26,0.0,787.3,7.5,41.0,132,10.5,6.2,0,5,7,0,2026-04-16T16:36:54.880701+05:30
Manali,Himachal Pradesh,32.2396,77.1887,20.2,62,0.0,822.6,9.05,32.0,147,10.5,5.4,3,5,7,0,2026-04-16T16:36:54.880708+05:30
Gurgaon,Haryana,28.4595,77.0266,38.2,18,0.0,977.9,7.45,20.9,521,804.7,78.7,0,5,10,0,2026-04-16T16:36:54.880716+05:30
Noida,Uttar Pradesh,28.5355,77.391,38.1,18,0.0,981.1,7.35,25.6,521,804.7,78.7,0,5,10,0,2026-04-16T16:36:54.880722+05:30
Ghaziabad,Uttar Pradesh,28.6692,77.4538,37.7,20,0.0,979.2,7.35,22.7,146,146.2,22.9,0,5,10,0,2026-04-16T16:36:54.880729+05:30
Faridabad,Haryana,28.4089,77.3178,38.3,15,0.0,980.2,7.4,29.9,521,804.7,78.7,0,5,10,0,2026-04-16T16:36:54.880736+05:30
Meerut,Uttar Pradesh,28.9845,77.7064,37.9,16,0.0,978.2,7.25,28.1,146,146.2,22.9,0,5,10,0,2026-04-16T16:36:54.880742+05:30
Agra,Uttar Pradesh,27.1767,78.0081,39.7,16,0.0,983.7,7.7,25.6,465,444.2,47.8,0,5,10,0,2026-04-16T16:36:54.880748+05:30
Varanasi,Uttar Pradesh,25.3176,82.9739,40.2,12,0.0,993.0,8.45,20.5,154,134.1,24.9,0,5,10,0,2026-04-16T16:36:54.880757+05:30
Prayagraj,Uttar Pradesh,25.4358,81.8463,39.3,13,0.0,992.1,8.3,29.5,151,174.2,28.1,0,5,10,0,2026-04-16T16:36:54.880764+05:30
Gorakhpur,Uttar Pradesh,26.7606,83.3732,37.6,22,0.0,993.3,8.25,31.3,172,124.8,33.6,0,5,10,0,2026-04-16T16:36:54.880770+05:30
Bareilly,Uttar Pradesh,28.367,79.4304,38.2,15,0.0,983.3,7.6,25.6,150,24.6,9.5,0,5,10,0,2026-04-16T16:36:54.880777+05:30
Aligarh,Uttar Pradesh,27.8974,78.088,39.6,14,0.0,981.5,7.5,28.8,232,329.7,43.0,0,5,10,0,2026-04-16T16:36:54.880783+05:30
Moradabad,Uttar Pradesh,28.8386,78.7733,37.8,15,0.0,980.2,7.45,27.0,157,28.4,11.5,0,5,10,0,2026-04-16T16:36:54.880789+05:30
Saharanpur,Uttar Pradesh,29.9637,77.546,36.1,16,0.0,972.8,7.05,26.3,147,47.6,11.7,0,5,10,0,2026-04-16T16:36:54.880797+05:30
Jhansi,Uttar Pradesh,25.4484,78.5685,40.6,11,0.0,974.1,8.2,32.4,138,136.0,23.1,0,5,10,0,2026-04-16T16:36:58.097724+05:30
Surat,Gujarat,21.1702,72.8311,30.2,58,0.0,1003.7,7.8,27.7,83,46.4,29.2,0,5,4,1,2026-04-16T16:36:58.097754+05:30
Vadodara,Gujarat,22.3072,73.1812,38.7,31,0.0,1000.1,8.0,23.8,108,46.2,22.1,0,5,7,1,2026-04-16T16:36:58.097766+05:30
Rajkot,Gujarat,22.3039,70.8022,37.5,20,0.0,991.0,7.8,33.1,86,62.4,20.4,0,5,10,0,2026-04-16T16:36:58.097775+05:30
Thane,Maharashtra,19.2183,72.9781,31.3,54,0.0,1004.8,8.0,31.0,102,50.3,21.9,0,5,4,1,2026-04-16T16:36:58.097783+05:30
Nagpur,Maharashtra,21.1458,79.0882,40.6,13,0.0,968.0,8.85,22.7,130,17.6,11.0,0,5,10,0,2026-04-16T16:36:58.097791+05:30
Nashik,Maharashtra,19.9975,73.7898,35.6,24,0.0,943.2,8.3,32.0,81,13.2,7.5,0,5,10,0,2026-04-16T16:36:58.097799+05:30
Aurangabad,Maharashtra,19.8762,75.3433,40.0,9,0.0,940.7,8.95,31.3,83,5.0,3.3,0,5,10,0,2026-04-16T16:36:58.097807+05:30
Solapur,Maharashtra,17.6599,75.9064,41.1,9,0.0,953.2,9.05,27.0,106,20.4,11.2,0,5,10,0,2026-04-16T16:36:58.097816+05:30
Kolhapur,Maharashtra,16.705,74.2433,34.0,38,0.0,945.3,9.0,43.2,101,22.2,15.8,0,5,7,1,2026-04-16T16:36:58.097823+05:30
Goa,Goa,15.2993,74.124,30.5,68,0.0,994.7,9.0,28.4,75,34.1,15.8,3,5,7,1,2026-04-16T16:36:58.097829+05:30
Jodhpur,Rajasthan,26.2389,73.0243,40.3,15,0.0,978.6,7.6,31.7,91,93.8,17.2,0,5,10,0,2026-04-16T16:36:58.097835+05:30
Udaipur,Rajasthan,24.5854,73.7125,37.5,19,0.0,943.8,8.65,26.6,84,67.3,18.2,0,5,10,0,2026-04-16T16:36:58.097842+05:30
Kota,Rajasthan,25.2138,75.8648,41.1,13,0.0,974.2,8.2,14.8,142,70.8,19.7,0,5,10,0,2026-04-16T16:36:58.097847+05:30
Bikaner,Rajasthan,28.0229,73.3119,40.1,12,0.0,977.7,7.6,23.0,96,70.8,14.0,0,5,10,0,2026-04-16T16:36:58.097854+05:30
Ajmer,Rajasthan,26.4499,74.6399,38.9,16,0.0,951.6,8.15,26.6,127,59.4,14.3,0,5,10,0,2026-04-16T16:36:58.097860+05:30
Gwalior,Madhya Pradesh,26.2183,78.1828,39.4,13,0.0,979.9,7.95,34.6,139,123.9,20.9,0,5,10,0,2026-04-16T16:36:58.097867+05:30
Indore,Madhya Pradesh,22.7196,75.8577,37.7,22,0.0,945.1,8.55,25.9,99,50.2,18.4,0,5,10,0,2026-04-16T16:36:58.097873+05:30
Bhopal,Madhya Pradesh,23.2599,77.4126,40.0,18,0.0,949.7,8.55,20.9,108,41.3,15.8,0,5,10,0,2026-04-16T16:36:58.097879+05:30
Jabalpur,Madhya Pradesh,23.1815,79.9864,38.9,18,0.0,957.8,8.7,22.7,137,34.9,15.1,0,5,10,0,2026-04-16T16:36:58.097885+05:30
Ujjain,Madhya Pradesh,23.1765,75.7885,38.2,25,0.0,950.5,8.5,27.0,88,51.0,19.8,0,5,10,0,2026-04-16T16:36:58.097891+05:30
Visakhapatnam,Andhra Pradesh,17.6868,83.2185,31.5,66,0.0,1000.1,9.15,43.9,48,13.9,10.5,3,5,4,1,2026-04-16T16:36:58.097897+05:30
Vijayawada,Andhra Pradesh,16.5062,80.648,36.2,45,0.0,998.3,9.2,29.5,45,18.0,14.5,0,5,10,1,2026-04-16T16:36:58.097903+05:30
Guntur,Andhra Pradesh,16.3067,80.4365,35.0,51,0.0,999.8,9.2,32.4,57,22.2,19.0,0,5,7,1,2026-04-16T16:36:58.097909+05:30
Nellore,Andhra Pradesh,14.4426,79.9865,36.6,56,0.0,1001.2,9.3,34.2,84,21.8,17.4,0,5,7,1,2026-04-16T16:36:58.097916+05:30
Kurnool,Andhra Pradesh,15.8281,78.0373,40.4,23,0.0,971.7,9.2,31.0,153,32.9,26.0,0,5,10,0,2026-04-16T16:36:58.097923+05:30
Kakinada,Andhra Pradesh,16.9891,82.2475,34.7,52,0.0,1003.6,9.2,34.9,29,9.6,6.1,0,5,4,1,2026-04-16T16:36:58.097930+05:30
Tirupati,Andhra Pradesh,13.6288,79.4192,36.7,38,0.0,987.7,9.4,33.8,78,24.7,22.1,0,5,10,1,2026-04-16T16:36:58.097936+05:30
Warangal,Telangana,17.9689,79.5941,39.5,28,0.0,973.8,9.1,34.2,101,30.9,26.0,0,5,10,1,2026-04-16T16:36:58.097942+05:30
Nizamabad,Telangana,18.6725,78.0941,41.2,14,0.0,960.4,9.05,25.9,121,21.7,12.4,0,5,10,0,2026-04-16T16:36:58.097948+05:30
Mysore,Karnataka,12.2958,76.6396,36.2,21,0.0,925.0,9.5,43.6,119,24.7,20.1,0,5,10,0,2026-04-16T16:36:58.097954+05:30
Mangalore,Karnataka,12.9141,74.856,29.6,82,0.0,1002.9,8.4,21.6,87,50.9,27.7,7,5,4,1,2026-04-16T16:36:58.097961+05:30
Hubli-Dharwad,Karnataka,15.3647,75.124,35.6,31,0.0,937.8,9.2,33.5,99,27.6,19.1,0,5,10,0,2026-04-16T16:36:58.097968+05:30
Belgaum,Karnataka,15.8497,74.4977,31.2,53,0.0,923.6,9.25,36.0,105,24.6,14.9,0,5,7,1,2026-04-16T16:37:01.320153+05:30
Coimbatore,Tamil Nadu,11.0168,76.9558,36.7,26,0.0,957.6,9.45,46.4,129,25.3,20.3,0,5,10,0,2026-04-16T16:37:01.320180+05:30
Madurai,Tamil Nadu,9.9252,78.1198,39.5,23,0.0,987.9,9.3,52.6,88,18.2,12.5,0,5,10,0,2026-04-16T16:37:01.320189+05:30
Trichy,Tamil Nadu,10.7905,78.7047,38.7,29,0.0,994.9,9.35,26.6,55,17.8,13.5,0,5,10,1,2026-04-16T16:37:01.320196+05:30
Salem,Tamil Nadu,11.6643,78.146,38.2,29,0.0,972.9,9.45,26.6,90,21.0,16.0,0,5,10,1,2026-04-16T16:37:01.320203+05:30
Tirunelveli,Tamil Nadu,8.7139,77.7567,36.4,40,0.0,998.4,8.75,52.2,86,21.2,17.3,0,5,10,1,2026-04-16T16:37:01.320210+05:30
Vellore,Tamil Nadu,12.9165,79.1325,36.5,36,0.0,980.6,9.4,32.4,81,26.4,24.1,0,5,10,1,2026-04-16T16:37:01.320216+05:30
Erode,Tamil Nadu,11.341,77.7172,39.5,26,0.0,984.1,9.4,30.2,113,18.3,13.6,0,5,10,1,2026-04-16T16:37:01.320221+05:30
Kochi,Kerala,9.9312,76.2673,30.2,78,0.0,1004.8,9.2,29.9,102,36.9,27.6,3,5,4,1,2026-04-16T16:37:01.320228+05:30
Thiruvananthapuram,Kerala,8.5241,76.9366,30.1,78,0.0,1004.1,9.15,32.8,78,39.8,26.3,3,5,4,1,2026-04-16T16:37:01.320234+05:30
Kozhikode,Kerala,11.2588,75.7804,31.4,71,0.0,1004.0,9.15,31.7,89,45.2,27.6,3,5,4,1,2026-04-16T16:37:01.320240+05:30
Thrissur,Kerala,10.5276,76.2144,32.5,67,0.0,1003.1,9.1,34.6,103,37.1,27.6,3,5,4,1,2026-04-16T16:37:01.320248+05:30
Kannur,Kerala,11.8745,75.3704,31.9,68,0.0,1003.5,9.15,32.4,90,51.9,32.0,3,5,4,1,2026-04-16T16:37:01.320254+05:30
Patna,Bihar,25.5941,85.1376,34.6,48,0.0,996.7,8.55,34.2,175,86.8,43.4,0,5,7,1,2026-04-16T16:37:01.320260+05:30
Gaya,Bihar,24.7914,85.0002,36.0,39,0.0,989.6,8.65,23.0,153,73.8,21.7,0,5,10,1,2026-04-16T16:37:01.320266+05:30
Muzaffarpur,Bihar,26.1209,85.3647,33.4,52,0.0,997.1,8.55,35.3,173,84.8,49.1,0,5,7,1,2026-04-16T16:37:01.320272+05:30
Bhagalpur,Bihar,25.2425,87.0117,31.6,65,0.0,997.9,8.55,30.6,151,62.4,55.8,3,5,7,1,2026-04-16T16:37:01.320279+05:30
Ranchi,Jharkhand,23.3441,85.3096,30.8,50,0.0,935.3,9.15,39.6,203,45.8,25.3,0,5,7,1,2026-04-16T16:37:01.320285+05:30
Jamshedpur,Jharkhand,22.8046,86.2029,29.2,74,0.0,988.5,9.0,31.0,201,68.5,59.6,7,5,7,1,2026-04-16T16:37:01.320291+05:30
Dhanbad,Jharkhand,23.7957,86.4304,32.9,52,0.0,976.8,8.95,29.2,201,95.9,77.8,0,5,7,1,2026-04-16T16:37:01.320297+05:30
Bokaro,Jharkhand,23.6693,86.1511,32.0,57,0.0,981.0,8.95,24.5,210,89.6,63.1,0,5,7,1,2026-04-16T16:37:01.320304+05:30
Bhubaneswar,Odisha,20.2961,85.8245,30.4,72,0.0,998.7,9.1,39.6,56,14.9,11.4,3,5,7,1,2026-04-16T16:37:01.320311+05:30
Cuttack,Odisha,20.4625,85.8828,32.3,66,0.0,1000.3,9.15,37.1,56,14.9,11.4,3,5,4,1,2026-04-16T16:37:01.320317+05:30
Rourkela,Odisha,22.2604,84.8536,31.5,58,0.0,981.4,8.9,50.4,197,32.4,20.4,0,5,7,1,2026-04-16T16:37:01.320322+05:30
Raipur,Chhattisgarh,21.2514,81.6296,41.8,16,0.0,969.0,8.95,32.0,175,27.0,17.6,0,5,10,0,2026-04-16T16:37:01.320328+05:30
Bhilai,Chhattisgarh,21.1938,81.3509,41.8,13,0.0,969.4,8.95,29.2,152,23.1,14.0,0,5,10,0,2026-04-16T16:37:01.320334+05:30
Guwahati,Assam,26.1158,91.7086,30.0,60,0.0,1000.0,8.45,24.5,135,73.1,46.9,4,5,4,1,2026-04-16T16:37:01.320340+05:30
Agartala,Tripura,23.8315,91.2868,27.9,76,0.0,1004.8,8.7,27.4,131,71.2,52.2,7,5,4,1,2026-04-16T16:37:01.320346+05:30
Shillong,Meghalaya,25.5788,91.8933,19.1,65,0.0,856.3,7.75,43.2,126,61.5,39.3,3,5,7,0,2026-04-16T16:37:01.320352+05:30
Imphal,Manipur,24.817,93.9368,22.4,69,0.0,922.5,9.05,69.5,125,60.5,35.4,3,5,7,1,2026-04-16T16:37:01.320358+05:30
Aizawl,Mizoram,23.7271,92.7176,24.2,68,0.0,892.7,8.95,37.4,131,89.2,56.9,3,5,7,1,2026-04-16T16:37:01.320364+05:30
Kohima,Nagaland,25.6701,94.1077,17.8,84,0.0,854.9,8.5,57.2,122,73.6,41.7,3,10,7,0,2026-04-16T16:37:01.320370+05:30
Gangtok,Sikkim,27.3314,88.6138,18.8,74,0.0,837.6,8.8,19.4,143,47.8,30.7,3,5,7,0,2026-04-16T16:37:01.320376+05:30
Siliguri,West Bengal,26.7271,88.3953,25.9,63,0.0,992.5,8.45,24.8,165,80.3,51.7,7,5,7,1,2026-04-16T16:37:04.543564+05:30
Durgapur,West Bengal,23.5204,87.3119,31.2,66,0.0,991.9,8.85,27.4,134,70.5,62.2,3,5,7,1,2026-04-16T16:37:04.543595+05:30
Asansol,West Bengal,23.6739,86.9524,32.1,61,0.0,990.6,8.9,26.6,156,85.9,74.5,3,5,7,1,2026-04-16T16:37:04.543605+05:30
Pondicherry,Puducherry,11.9139,79.8145,35.7,53,0.0,1004.1,9.25,25.9,42,9.3,6.4,0,5,7,1,2026-04-16T16:37:04.543614+05:30
Port Blair,Andaman and Nicobar Islands,11.6234,92.7265,29.9,69,0.0,1004.8,9.2,15.1,63,24.7,17.7,7,5,4,1,2026-04-16T16:37:04.543622+05:30
Haridwar,Uttarakhand,29.9457,78.1642,35.4,21,0.0,971.4,7.1,30.6,128,18.6,7.9,0,5,10,0,2026-04-16T16:37:04.543631+05:30
Rishikesh,Uttarakhand,30.0869,78.2676,33.8,26,0.0,964.5,7.1,31.7,120,15.7,5.5,0,5,7,0,2026-04-16T16:37:04.543640+05:30
Nainital,Uttarakhand,29.3919,79.4542,27.5,21,0.0,808.4,8.1,43.2,153,18.0,9.3,4,5,7,0,2026-04-16T16:37:04.543648+05:30
Mussoorie,Uttarakhand,30.4599,78.0664,24.7,34,0.0,804.7,6.9,39.2,136,14.0,7.0,0,5,7,0,2026-04-16T16:37:04.543655+05:30
Dharamshala,Himachal Pradesh,32.219,76.3234,28.1,31,0.0,869.9,7.75,24.8,136,11.6,4.1,4,5,7,0,2026-04-16T16:37:04.543662+05:30
Dalhousie,Himachal Pradesh,32.5387,75.971,26.7,20,0.0,806.2,7.9,25.6,142,11.8,4.5,4,5,7,0,2026-04-16T16:37:04.543671+05:30
Patiala,Punjab,30.3398,76.3869,38.1,15,0.0,974.9,7.2,23.0,124,424.7,39.2,0,5,10,0,2026-04-16T16:37:04.543678+05:30
Bhatinda,Punjab,30.211,74.9455,39.8,13,0.0,979.7,7.35,33.5,131,41.6,12.8,0,5,10,0,2026-04-16T16:37:04.543686+05:30
Rohtak,Haryana,28.8955,76.6066,38.8,15,0.0,978.2,7.35,26.6,420,311.1,34.1,0,5,10,0,2026-04-16T16:37:04.543694+05:30
Panipat,Haryana,29.3909,76.9635,37.9,16,0.0,977.2,7.15,25.9,453,568.1,53.0,0,5,10,0,2026-04-16T16:37:04.543701+05:30
Mathura,Uttar Pradesh,27.4924,77.6737,39.7,13,0.0,982.8,7.65,27.0,439,366.9,46.1,0,5,10,0,2026-04-16T16:37:04.543709+05:30
Vrindavan,Uttar Pradesh,27.5823,77.7027,39.5,14,0.0,983.2,7.6,24.8,439,366.9,46.1,0,5,10,0,2026-04-16T16:37:04.543716+05:30
Ayodhya,Uttar Pradesh,26.7922,82.1998,39.5,13,0.0,991.0,8.0,23.8,158,122.0,22.2,0,5,10,0,2026-04-16T16:37:04.543724+05:30
Ratlam,Madhya Pradesh,23.3315,75.0367,35.4,34,0.0,951.7,8.4,29.5,88,52.3,18.0,0,5,10,1,2026-04-16T16:37:04.543731+05:30
Sagar,Madhya Pradesh,23.8388,78.7378,39.0,16,0.0,947.1,8.55,19.4,143,81.0,19.3,0,5,10,0,2026-04-16T16:37:04.543738+05:30
Satna,Madhya Pradesh,24.6005,80.8322,40.1,11,0.0,967.8,8.6,25.6,146,128.1,21.9,0,5,10,0,2026-04-16T16:37:04.543746+05:30
Akola,Maharashtra,20.7002,77.0082,41.9,12,0.0,970.3,8.8,26.3,106,19.1,9.5,0,5,10,0,2026-04-16T16:37:04.543754+05:30
Amravati,Maharashtra,20.9374,77.7796,40.9,16,0.0,962.7,8.8,22.0,111,19.6,10.0,0,5,10,0,2026-04-16T16:37:04.543762+05:30
Latur,Maharashtra,18.4088,76.5604,38.6,12,0.0,936.8,9.05,23.0,77,19.3,9.9,0,5,10,0,2026-04-16T16:37:04.543770+05:30
Nanded,Maharashtra,19.1383,77.3091,40.6,12,0.0,964.5,8.95,17.3,85,20.7,10.2,0,5,10,0,2026-04-16T16:37:04.543777+05:30
Gulbarga,Karnataka,17.3297,76.8343,40.6,16,0.0,954.1,9.1,22.3,155,33.9,27.1,0,5,10,0,2026-04-16T16:37:04.543784+05:30
Bidar,Karnataka,17.9104,77.5199,39.1,16,0.0,932.0,9.1,34.2,134,32.1,24.1,0,5,10,0,2026-04-16T16:37:04.543791+05:30
Hospet,Karnataka,15.2689,76.3909,38.1,24,0.0,951.8,9.25,27.4,108,34.9,26.6,0,5,10,0,2026-04-16T16:37:04.543798+05:30
Tirupur,Tamil Nadu,11.1085,77.3411,38.7,22,0.0,970.6,9.45,32.4,124,22.9,17.3,0,5,10,0,2026-04-16T16:37:04.543805+05:30
Alappuzha,Kerala,9.4981,76.3388,30.0,82,0.0,1004.9,8.55,28.8,95,42.7,29.6,7,5,4,1,2026-04-16T16:37:04.543812+05:30
Munnar,Kerala,10.0889,77.0595,27.6,69,0.0,856.1,8.95,37.1,80,19.2,13.5,7,5,7,1,2026-04-16T16:37:04.543820+05:30
Silchar,Assam,24.8333,92.7789,31.1,57,0.0,1003.0,8.7,24.5,125,93.1,55.6,0,5,4,1,2026-04-16T16:37:04.543828+05:30
Dibrugarh,Assam,27.4728,94.912,28.1,57,0.0,995.0,8.55,7.9,144,79.4,43.4,4,5,7,1,2026-04-16T16:37:04.543835+05:30
