city,state,latitude,longitude,temp,humidity,rain,pressure,uv_index,wind_gusts,aqi,pm10,pm2_5,mosquito_risk,arthritis_risk,migraine_risk,frizz_risk,updated_at
Delhi,Delhi,28.6139,77.209,37.3,28,0.0,982.5,7.4,28.1,153,147.6,50.8,0,5,10,0,2026-04-24T11:09:09.484333+05:30
Mumbai,Maharashtra,19.076,72.8777,30.1,74,0.0,1008.0,8.05,23.0,79,38.1,27.1,3,0,4,1,2026-04-24T11:09:09.484383+05:30
Bangalore,Karnataka,12.9716,77.5946,32.0,39,0.0,912.7,9.6,32.8,81,26.0,22.0,0,5,7,1,2026-04-24T11:09:09.484399+05:30
Hyderabad,Telangana,17.385,78.4867,36.9,32,0.0,954.1,9.25,32.0,123,44.9,35.3,0,5,10,1,2026-04-24T11:09:09.484409+05:30
Chennai,Tamil Nadu,13.0827,80.2707,34.9,52,0.0,1006.9,8.85,33.8,31,11.3,8.0,0,5,4,1,2026-04-24T11:09:09.484418+05:30
Kolkata,West Bengal,22.5726,88.3639,33.9,68,0.0,1005.7,8.9,24.8,93,29.7,24.3,3,5,4,1,2026-04-24T11:09:09.484431+05:30
Pune,Maharashtra,18.5204,73.8567,37.1,27,0.0,949.6,8.65,43.2,112,27.3,23.9,0,5,10,0,2026-04-24T11:09:09.484439+05:30
Ahmedabad,Gujarat,23.0225,72.5714,35.7,41,0.0,1002.4,8.2,22.0,48,26.8,10.9,0,5,7,1,2026-04-24T11:09:09.484447+05:30
Jaipur,Rajasthan,26.9124,75.7873,38.3,22,0.0,960.7,8.05,26.6,76,210.5,26.8,0,5,10,0,2026-04-24T11:09:09.484455+05:30
Lucknow,Uttar Pradesh,26.8467,80.9462,37.6,24,0.0,993.0,7.9,25.9,147,88.0,28.4,0,5,10,0,2026-04-24T11:09:09.484463+05:30
Kanpur,Uttar Pradesh,26.4499,80.3319,37.0,31,0.0,991.2,7.95,24.1,192,202.1,31.4,0,5,10,1,2026-04-24T11:09:09.484472+05:30
Chandigarh,Chandigarh,30.7333,76.7794,35.5,35,0.0,968.7,7.4,29.5,70,39.1,18.9,0,5,10,1,2026-04-24T11:09:09.484479+05:30
Srinagar,Jammu and Kashmir,34.0837,74.7973,21.7,55,0.0,846.4,8.6,33.5,77,34.5,16.9,0,5,7,0,2026-04-24T11:09:09.484487+05:30
Jammu,Jammu and Kashmir,32.7266,74.857,35.9,34,0.0,972.3,8.15,34.6,71,36.6,17.4,0,5,10,1,2026-04-24T11:09:09.484495+05:30
Amritsar,Punjab,31.634,74.8723,37.3,33,0.0,980.5,8.1,29.5,84,56.5,25.4,0,5,10,1,2026-04-24T11:09:09.484503+05:30
Ludhiana,Punjab,30.901,75.8573,37.9,30,0.0,978.2,7.7,32.8,81,47.3,25.8,0,5,10,1,2026-04-24T11:09:09.484512+05:30
Jalandhar,Punjab,31.326,75.5762,37.4,31,0.0,979.3,7.85,33.5,89,66.8,28.6,0,5,10,1,2026-04-24T11:09:09.484519+05:30
Dehradun,Uttarakhand,30.6284,78.0322,27.7,32,0.0,835.0,7.85,37.8,53,20.1,11.7,4,5,7,0,2026-04-24T11:09:09.484526+05:30
Shimla,Himachal Pradesh,31.1048,77.1734,26.5,30,0.0,791.1,7.9,45.4,56,20.5,9.1,4,5,7,0,2026-04-24T11:09:09.484533+05:30
Manali,Himachal Pradesh,32.2396,77.1887,27.4,28,0.0,826.8,9.95,33.1,81,18.0,9.9,4,5,7,0,2026-04-24T11:09:09.484540+05:30
Gurgaon,Haryana,28.4595,77.0266,37.1,32,0.0,981.1,7.5,23.8,476,523.4,94.5,0,5,10,1,2026-04-24T11:09:09.484547+05:30
Noida,Uttar Pradesh,28.5355,77.391,38.1,26,0.0,983.9,7.45,28.8,476,523.4,94.5,0,5,10,0,2026-04-24T11:09:09.484553+05:30
Ghaziabad,Uttar Pradesh,28.6692,77.4538,37.2,31,0.0,982.1,7.4,27.4,152,111.8,40.2,0,5,10,1,2026-04-24T11:09:09.484560+05:30
Faridabad,Haryana,28.4089,77.3178,39.0,22,0.0,983.4,7.5,28.4,476,523.4,94.5,0,5,10,0,2026-04-24T11:09:09.484566+05:30
Meerut,Uttar Pradesh,28.9845,77.7064,37.7,32,0.0,980.8,7.35,31.7,152,111.8,40.2,0,5,10,1,2026-04-24T11:09:09.484573+05:30
Agra,Uttar Pradesh,27.1767,78.0081,39.3,23,0.0,987.3,7.8,28.1,506,577.4,68.5,0,5,10,0,2026-04-24T11:09:09.484582+05:30
Varanasi,Uttar Pradesh,25.3176,82.9739,40.0,20,0.0,996.9,8.5,27.0,150,289.6,45.1,0,5,10,0,2026-04-24T11:09:09.484589+05:30
Prayagraj,Uttar Pradesh,25.4358,81.8463,40.7,18,0.0,995.1,8.35,22.0,151,249.6,44.2,0,5,10,0,2026-04-24T11:09:09.484595+05:30
Gorakhpur,Uttar Pradesh,26.7606,83.3732,36.0,49,0.0,996.6,8.3,24.1,119,122.9,56.9,0,5,10,1,2026-04-24T11:09:09.484604+05:30
Bareilly,Uttar Pradesh,28.367,79.4304,37.1,33,0.0,985.9,7.65,28.4,118,187.7,54.2,0,5,10,1,2026-04-24T11:09:09.484610+05:30
Aligarh,Uttar Pradesh,27.8974,78.088,39.0,22,0.0,985.0,7.6,27.4,328,395.8,76.8,0,5,10,0,2026-04-24T11:09:09.484617+05:30
Moradabad,Uttar Pradesh,28.8386,78.7733,37.2,31,0.0,982.9,7.5,31.3,152,206.3,63.3,0,5,10,1,2026-04-24T11:09:09.484623+05:30
Saharanpur,Uttar Pradesh,29.9637,77.546,35.5,37,0.0,975.3,7.15,27.0,102,42.6,28.2,0,5,10,1,2026-04-24T11:09:09.484629+05:30
Jhansi,Uttar Pradesh,25.4484,78.5685,39.5,18,0.0,978.0,8.3,32.4,49,11.9,7.2,0,5,10,0,2026-04-24T11:09:12.694494+05:30
Surat,Gujarat,21.1702,72.8311,33.3,41,0.0,1007.3,7.9,22.7,99,42.5,30.3,0,5,4,1,2026-04-24T11:09:12.694527+05:30
Vadodara,Gujarat,22.3072,73.1812,36.4,32,0.0,1004.7,8.15,24.8,76,31.3,14.8,0,5,7,1,2026-04-24T11:09:12.694539+05:30
Rajkot,Gujarat,22.3039,70.8022,34.2,42,0.0,995.3,7.9,31.3,30,23.2,9.6,0,5,7,1,2026-04-24T11:09:12.694548+05:30
Thane,Maharashtra,19.2183,72.9781,35.0,45,0.0,1007.6,8.05,37.4,79,38.1,27.1,0,5,4,1,2026-04-24T11:09:12.694557+05:30
Nagpur,Maharashtra,21.1458,79.0882,39.0,20,0.0,973.5,8.7,29.2,113,17.4,15.6,0,5,10,0,2026-04-24T11:09:12.694566+05:30
Nashik,Maharashtra,19.9975,73.7898,34.7,32,0.0,947.3,8.35,33.1,79,28.6,20.1,0,5,7,0,2026-04-24T11:09:12.694574+05:30
Aurangabad,Maharashtra,19.8762,75.3433,37.3,20,0.0,945.6,9.1,36.0,85,14.6,11.4,0,5,10,0,2026-04-24T11:09:12.694582+05:30
Solapur,Maharashtra,17.6599,75.9064,35.6,37,0.0,957.7,9.05,29.9,105,46.2,38.6,0,5,10,1,2026-04-24T11:09:12.694591+05:30
Kolhapur,Maharashtra,16.705,74.2433,34.3,40,0.0,948.8,9.05,31.7,134,48.9,42.6,0,5,7,1,2026-04-24T11:09:12.694600+05:30
Goa,Goa,15.2993,74.124,32.8,68,0.0,997.4,9.0,31.0,78,35.3,26.8,3,5,7,1,2026-04-24T11:09:12.694608+05:30
Jodhpur,Rajasthan,26.2389,73.0243,38.3,32,0.0,983.2,8.25,24.5,53,125.7,26.4,0,5,10,1,2026-04-24T11:09:12.694616+05:30
Udaipur,Rajasthan,24.5854,73.7125,36.0,31,0.0,948.2,8.8,36.4,47,36.4,8.9,0,5,10,1,2026-04-24T11:09:12.694624+05:30
Kota,Rajasthan,25.2138,75.8648,39.8,19,0.0,979.0,8.3,20.2,48,26.0,10.2,0,5,10,0,2026-04-24T11:09:12.694633+05:30
Bikaner,Rajasthan,28.0229,73.3119,39.3,20,0.0,981.8,7.7,21.2,56,84.1,19.6,0,5,10,0,2026-04-24T11:09:12.694640+05:30
Ajmer,Rajasthan,26.4499,74.6399,36.1,32,0.0,956.1,8.25,28.1,35,49.9,10.6,0,5,10,1,2026-04-24T11:09:12.694648+05:30
Gwalior,Madhya Pradesh,26.2183,78.1828,39.2,20,0.0,983.3,8.05,28.8,37,20.1,7.0,0,5,10,0,2026-04-24T11:09:12.694657+05:30
Indore,Madhya Pradesh,22.7196,75.8577,36.7,21,0.0,949.7,8.65,36.0,58,24.4,8.5,0,5,10,0,2026-04-24T11:09:12.694665+05:30
Bhopal,Madhya Pradesh,23.2599,77.4126,37.2,17,0.0,955.3,8.65,30.6,60,32.7,10.9,0,5,10,0,2026-04-24T11:09:12.694673+05:30
Jabalpur,Madhya Pradesh,23.1815,79.9864,36.7,27,0.0,962.5,8.8,21.6,68,17.8,15.1,0,5,10,0,2026-04-24T11:09:12.694681+05:30
Ujjain,Madhya Pradesh,23.1765,75.7885,37.0,22,0.0,955.2,8.55,35.6,58,34.2,10.6,0,5,10,0,2026-04-24T11:09:12.694690+05:30
Visakhapatnam,Andhra Pradesh,17.6868,83.2185,33.4,61,0.0,1003.1,9.15,39.6,63,23.5,19.2,3,5,4,1,2026-04-24T11:09:12.694698+05:30
Vijayawada,Andhra Pradesh,16.5062,80.648,34.8,54,0.0,1002.1,9.0,29.5,53,16.9,12.2,0,5,4,1,2026-04-24T11:09:12.694706+05:30
Guntur,Andhra Pradesh,16.3067,80.4365,35.4,54,0.0,1003.3,9.0,32.4,54,15.1,11.6,0,5,7,1,2026-04-24T11:09:12.694714+05:30
Nellore,Andhra Pradesh,14.4426,79.9865,36.5,42,0.0,1005.0,9.3,35.3,41,11.8,10.0,0,5,7,1,2026-04-24T11:09:12.694722+05:30
Kurnool,Andhra Pradesh,15.8281,78.0373,37.9,32,0.0,976.4,9.15,25.6,85,22.5,18.3,0,5,10,1,2026-04-24T11:09:12.694731+05:30
Kakinada,Andhra Pradesh,16.9891,82.2475,35.0,57,0.0,1006.9,9.05,34.2,43,15.2,10.7,0,5,4,1,2026-04-24T11:09:12.694739+05:30
Tirupati,Andhra Pradesh,13.6288,79.4192,35.0,46,0.0,991.7,9.3,34.9,53,15.2,13.7,0,5,7,1,2026-04-24T11:09:12.694747+05:30
Warangal,Telangana,17.9689,79.5941,35.8,35,0.0,979.0,9.2,20.2,114,29.3,23.7,0,5,10,1,2026-04-24T11:09:12.694755+05:30
Nizamabad,Telangana,18.6725,78.0941,35.3,36,0.0,965.4,8.85,34.9,114,41.7,37.4,0,5,10,1,2026-04-24T11:09:12.694762+05:30
Mysore,Karnataka,12.2958,76.6396,32.8,42,0.0,929.0,9.5,37.4,94,37.5,31.5,0,5,7,1,2026-04-24T11:09:12.694770+05:30
Mangalore,Karnataka,12.9141,74.856,30.3,83,0.0,1006.1,9.1,22.0,78,30.4,23.4,3,5,4,1,2026-04-24T11:09:12.694778+05:30
Hubli-Dharwad,Karnataka,15.3647,75.124,34.0,41,0.0,941.5,9.2,39.2,97,43.3,38.0,0,5,7,1,2026-04-24T11:09:12.694787+05:30
Belgaum,Karnataka,15.8497,74.4977,33.1,41,0.0,926.8,9.25,36.0,99,49.7,42.5,0,5,7,1,2026-04-24T11:09:15.914949+05:30
Coimbatore,Tamil Nadu,11.0168,76.9558,33.3,49,0.0,961.9,9.4,34.2,89,24.9,20.5,0,5,7,1,2026-04-24T11:09:15.914979+05:30
Madurai,Tamil Nadu,9.9252,78.1198,34.9,44,0.0,992.6,9.3,34.6,51,10.0,8.8,0,5,7,1,2026-04-24T11:09:15.914989+05:30
Trichy,Tamil Nadu,10.7905,78.7047,34.5,51,0.0,999.3,9.25,25.6,49,10.4,8.8,0,5,7,1,2026-04-24T11:09:15.914998+05:30
Salem,Tamil Nadu,11.6643,78.146,34.5,49,0.0,977.2,9.35,29.2,61,12.2,10.1,0,5,7,1,2026-04-24T11:09:15.915006+05:30
Tirunelveli,Tamil Nadu,8.7139,77.7567,36.1,40,0.0,1002.4,9.2,39.6,70,17.2,14.9,0,5,7,1,2026-04-24T11:09:15.915013+05:30
Vellore,Tamil Nadu,12.9165,79.1325,34.1,46,0.0,984.6,9.3,31.7,70,17.6,16.1,0,5,7,1,2026-04-24T11:09:15.915021+05:30
Erode,Tamil Nadu,11.341,77.7172,35.8,46,0.0,988.4,9.3,30.6,50,11.4,9.6,0,5,10,1,2026-04-24T11:09:15.915028+05:30
Kochi,Kerala,9.9312,76.2673,29.4,82,0.0,1007.9,8.3,29.2,76,19.4,17.2,7,5,4,1,2026-04-24T11:09:15.915035+05:30
Thiruvananthapuram,Kerala,8.5241,76.9366,28.9,84,0.0,1007.1,9.05,24.1,66,23.9,20.3,7,5,4,1,2026-04-24T11:09:15.915043+05:30
Kozhikode,Kerala,11.2588,75.7804,30.9,75,0.0,1007.1,9.1,32.0,87,37.6,30.6,3,5,4,1,2026-04-24T11:09:15.915050+05:30
Thrissur,Kerala,10.5276,76.2144,33.3,63,0.0,1006.3,9.1,34.6,82,24.1,20.8,3,5,4,1,2026-04-24T11:09:15.915058+05:30
Kannur,Kerala,11.8745,75.3704,30.9,71,0.0,1006.6,9.1,30.2,88,31.0,24.2,3,5,4,1,2026-04-24T11:09:15.915065+05:30
Patna,Bihar,25.5941,85.1376,35.6,51,0.0,999.9,8.6,25.9,155,118.0,62.2,0,5,10,1,2026-04-24T11:09:15.915072+05:30
Gaya,Bihar,24.7914,85.0002,39.8,25,0.0,992.8,8.7,24.5,152,219.3,54.8,0,5,10,1,2026-04-24T11:09:15.915079+05:30
Muzaffarpur,Bihar,26.1209,85.3647,34.4,62,0.0,1000.1,8.6,31.7,154,94.5,61.7,3,5,4,1,2026-04-24T11:09:15.915085+05:30
Bhagalpur,Bihar,25.2425,87.0117,34.2,64,0.0,1000.7,8.65,20.9,153,79.2,63.8,3,5,4,1,2026-04-24T11:09:15.915091+05:30
Ranchi,Jharkhand,23.3441,85.3096,37.4,19,0.0,939.4,9.2,29.2,110,208.2,43.5,0,5,10,0,2026-04-24T11:09:15.915132+05:30
Jamshedpur,Jharkhand,22.8046,86.2029,37.9,42,0.0,990.4,8.7,37.1,150,108.0,62.9,0,5,10,1,2026-04-24T11:09:15.915141+05:30
Dhanbad,Jharkhand,23.7957,86.4304,39.3,29,0.0,979.7,8.95,35.3,161,198.4,91.3,0,5,10,1,2026-04-24T11:09:15.915148+05:30
Bokaro,Jharkhand,23.6693,86.1511,38.5,28,0.0,983.8,8.95,22.7,160,230.5,80.1,0,5,10,1,2026-04-24T11:09:15.915154+05:30
Bhubaneswar,Odisha,20.2961,85.8245,34.4,64,0.0,1002.1,9.15,37.8,83,32.2,26.4,3,5,4,1,2026-04-24T11:09:15.915161+05:30
Cuttack,Odisha,20.4625,85.8828,36.5,55,0.0,1003.8,9.15,34.6,83,32.2,26.4,0,5,7,1,2026-04-24T11:09:15.915167+05:30
Rourkela,Odisha,22.2604,84.8536,38.3,32,0.0,985.0,8.95,42.8,115,190.0,56.6,0,5,10,1,2026-04-24T11:09:15.915174+05:30
Raipur,Chhattisgarh,21.2514,81.6296,38.9,29,0.0,974.8,8.95,27.4,105,39.7,37.7,0,5,10,1,2026-04-24T11:09:15.915180+05:30
Bhilai,Chhattisgarh,21.1938,81.3509,38.1,33,0.0,975.1,8.8,24.1,112,35.5,33.3,0,5,10,1,2026-04-24T11:09:15.915186+05:30
Guwahati,Assam,26.1158,91.7086,32.7,62,0.0,1001.7,8.55,24.8,147,97.1,50.1,3,5,4,1,2026-04-24T11:09:15.915192+05:30
Agartala,Tripura,23.8315,91.2868,34.0,60,0.0,1006.1,8.6,21.2,115,65.4,33.3,0,5,4,1,2026-04-24T11:09:15.915199+05:30
Shillong,Meghalaya,25.5788,91.8933,24.1,47,0.0,860.0,6.3,27.0,123,112.7,41.8,0,5,7,0,2026-04-24T11:09:15.915206+05:30
Imphal,Manipur,24.817,93.9368,27.1,57,0.0,925.2,9.1,38.2,151,133.2,39.0,4,5,7,1,2026-04-24T11:09:15.915212+05:30
Aizawl,Mizoram,23.7271,92.7176,29.9,47,0.0,895.6,8.4,32.4,122,135.0,36.1,4,5,7,1,2026-04-24T11:09:15.915219+05:30
Kohima,Nagaland,25.6701,94.1077,23.3,62,0.0,858.5,8.55,42.5,127,94.5,39.2,3,5,7,0,2026-04-24T11:09:15.915226+05:30
Gangtok,Sikkim,27.3314,88.6138,22.8,74,0.0,841.5,8.25,24.1,102,56.9,35.5,3,5,7,1,2026-04-24T11:09:15.915232+05:30
Siliguri,West Bengal,26.7271,88.3953,27.0,75,0.0,995.5,8.45,18.4,152,101.7,56.8,7,5,7,1,2026-04-24T11:09:19.133011+05:30
Durgapur,West Bengal,23.5204,87.3119,36.5,55,0.0,994.8,8.45,36.7,152,89.6,62.9,0,5,10,1,2026-04-24T11:09:19.133038+05:30
Asansol,West Bengal,23.6739,86.9524,37.7,49,0.0,993.1,8.95,44.3,151,116.2,71.7,0,5,10,1,2026-04-24T11:09:19.133047+05:30
Pondicherry,Puducherry,11.9139,79.8145,34.9,52,0.0,1007.9,9.15,30.2,26,10.0,8.2,0,5,4,1,2026-04-24T11:09:19.133055+05:30
Port Blair,Andaman and Nicobar Islands,11.6234,92.7265,30.1,71,0.0,1006.7,9.15,24.1,30,9.3,4.9,3,5,4,1,2026-04-24T11:09:19.133062+05:30
Haridwar,Uttarakhand,29.9457,78.1642,37.3,29,0.0,974.0,7.2,33.5,81,34.2,21.8,0,5,10,1,2026-04-24T11:09:19.133070+05:30
Rishikesh,Uttarakhand,30.0869,78.2676,36.6,29,0.0,967.0,7.35,37.1,70,32.0,16.1,0,5,10,0,2026-04-24T11:09:19.133077+05:30
Nainital,Uttarakhand,29.3919,79.4542,29.6,33,0.0,811.8,8.2,43.6,69,23.3,17.2,4,5,7,0,2026-04-24T11:09:19.133084+05:30
Mussoorie,Uttarakhand,30.4599,78.0664,28.8,32,0.0,808.5,7.75,45.0,71,30.9,16.1,4,5,7,0,2026-04-24T11:09:19.133122+05:30
Dharamshala,Himachal Pradesh,32.219,76.3234,31.2,30,0.0,872.7,8.05,33.5,43,24.6,7.9,0,5,7,0,2026-04-24T11:09:19.133135+05:30
Dalhousie,Himachal Pradesh,32.5387,75.971,30.1,21,0.0,809.5,8.3,36.0,60,33.2,13.2,0,5,7,0,2026-04-24T11:09:19.133143+05:30
Patiala,Punjab,30.3398,76.3869,36.8,34,0.0,977.8,7.35,30.2,160,267.3,47.4,0,5,10,1,2026-04-24T11:09:19.133150+05:30
Bhatinda,Punjab,30.211,74.9455,39.5,24,0.0,983.2,8.0,36.0,76,67.1,27.6,0,5,10,0,2026-04-24T11:09:19.133156+05:30
Rohtak,Haryana,28.8955,76.6066,37.2,30,0.0,981.5,7.45,26.3,171,220.7,61.5,0,5,10,1,2026-04-24T11:09:19.133163+05:30
Panipat,Haryana,29.3909,76.9635,37.3,36,0.0,980.0,7.3,29.2,402,356.7,70.8,0,5,10,1,2026-04-24T11:09:19.133169+05:30
Mathura,Uttar Pradesh,27.4924,77.6737,38.0,25,0.0,986.6,7.75,23.0,371,545.8,78.2,0,5,10,0,2026-04-24T11:09:19.133176+05:30
Vrindavan,Uttar Pradesh,27.5823,77.7027,37.9,25,0.0,986.9,7.7,22.0,371,545.8,78.2,0,5,10,0,2026-04-24T11:09:19.133182+05:30
Ayodhya,Uttar Pradesh,26.7922,82.1998,37.8,30,0.0,994.8,8.05,23.4,130,239.3,49.4,0,5,10,1,2026-04-24T11:09:19.133188+05:30
Ratlam,Madhya Pradesh,23.3315,75.0367,34.2,39,0.0,955.9,8.5,30.6,58,33.3,10.5,0,5,7,1,2026-04-24T11:09:19.133195+05:30
Sagar,Madhya Pradesh,23.8388,78.7378,37.1,21,0.0,951.7,8.65,30.2,56,22.8,8.5,0,5,10,0,2026-04-24T11:09:19.133201+05:30
Satna,Madhya Pradesh,24.6005,80.8322,40.8,14,0.0,971.6,8.65,28.8,75,9.3,9.0,0,5,10,0,2026-04-24T11:09:19.133208+05:30
Akola,Maharashtra,20.7002,77.0082,40.2,17,0.0,975.6,8.85,29.5,80,24.0,13.3,0,5,10,0,2026-04-24T11:09:19.133215+05:30
Amravati,Maharashtra,20.9374,77.7796,38.7,20,0.0,968.1,8.65,22.3,80,22.9,12.7,0,5,10,0,2026-04-24T11:09:19.133222+05:30
Latur,Maharashtra,18.4088,76.5604,36.5,23,0.0,941.1,8.3,33.8,102,42.1,36.0,0,5,10,0,2026-04-24T11:09:19.133228+05:30
Nanded,Maharashtra,19.1383,77.3091,37.3,29,0.0,969.2,8.95,27.0,110,29.3,26.8,0,5,10,1,2026-04-24T11:09:19.133234+05:30
Gulbarga,Karnataka,17.3297,76.8343,36.9,30,0.0,959.4,8.8,33.1,122,51.2,43.0,0,5,10,1,2026-04-24T11:09:19.133240+05:30
Bidar,Karnataka,17.9104,77.5199,36.2,28,0.0,936.8,8.8,42.5,117,49.2,42.4,0,5,10,0,2026-04-24T11:09:19.133247+05:30
Hospet,Karnataka,15.2689,76.3909,33.5,42,0.0,956.0,9.15,32.0,101,30.7,24.8,0,5,7,1,2026-04-24T11:09:19.133253+05:30
Tirupur,Tamil Nadu,11.1085,77.3411,34.7,48,0.0,975.1,9.4,32.4,64,16.5,13.9,0,5,7,1,2026-04-24T11:09:19.133259+05:30
Alappuzha,Kerala,9.4981,76.3388,29.5,80,0.0,1008.0,9.0,27.7,75,21.7,19.3,7,0,4,1,2026-04-24T11:09:19.133265+05:30
Munnar,Kerala,10.0889,77.0595,29.6,48,0.0,859.3,9.6,33.5,69,15.9,12.9,4,5,7,1,2026-04-24T11:09:19.133272+05:30
Silchar,Assam,24.8333,92.7789,33.4,60,0.0,1005.0,8.75,20.9,157,116.6,48.1,0,5,4,1,2026-04-24T11:09:19.133278+05:30
Dibrugarh,Assam,27.4728,94.912,29.6,65,0.0,996.0,8.65,11.9,79,31.2,21.1,7,5,7,1,2026-04-24T11:09:19.133284+05:30
