city,state,latitude,longitude,temp,humidity,rain,pressure,uv_index,wind_gusts,aqi,pm10,pm2_5,no2,co,o3,so2,mosquito_risk,arthritis_risk,migraine_risk,frizz_risk,updated_at
Delhi,Delhi,28.6139,77.209,26.3,58,0.0,982.4,7.6,26.6,150,254.3,69.2,21.1,493.0,95.0,18.4,4,5,7,1,2026-05-10T03:19:34.222528+05:30
Mumbai,Maharashtra,19.076,72.8777,27.7,87,0.0,1005.9,7.9,52.2,80,49.9,20.5,15.1,542.0,71.0,11.0,7,5,4,1,2026-05-10T03:19:34.222569+05:30
Bangalore,Karnataka,12.9716,77.5946,21.2,95,0.0,909.5,9.45,37.8,49,14.7,14.6,14.5,206.0,41.0,8.2,3,5,7,1,2026-05-10T03:19:34.222582+05:30
Hyderabad,Telangana,17.385,78.4867,25.9,65,0.0,951.8,9.25,37.8,51,9.4,8.7,9.0,203.0,48.0,4.4,7,5,7,1,2026-05-10T03:19:34.222591+05:30
Chennai,Tamil Nadu,13.0827,80.2707,26.6,91,0.0,1005.0,8.0,35.6,20,6.3,4.8,6.2,206.0,44.0,1.9,7,5,4,1,2026-05-10T03:19:34.222602+05:30
Kolkata,West Bengal,22.5726,88.3639,25.0,89,0.0,1006.0,8.85,33.8,152,92.2,86.6,29.2,674.0,67.0,21.4,7,5,4,1,2026-05-10T03:19:34.222609+05:30
Pune,Maharashtra,18.5204,73.8567,27.5,39,0.0,945.9,8.5,37.1,91,35.3,24.0,21.6,273.0,68.0,15.3,4,5,7,0,2026-05-10T03:19:34.222616+05:30
Ahmedabad,Gujarat,23.0225,72.5714,31.3,30,0.0,999.0,8.1,33.8,62,25.2,14.1,7.9,192.0,60.0,5.7,0,5,7,0,2026-05-10T03:19:34.222625+05:30
Jaipur,Rajasthan,26.9124,75.7873,25.7,51,0.0,958.8,8.15,26.6,158,428.4,78.0,5.3,364.0,114.0,8.2,4,5,7,0,2026-05-10T03:19:34.222631+05:30
Lucknow,Uttar Pradesh,26.8467,80.9462,23.9,66,0.0,993.4,7.95,33.5,115,75.0,53.3,18.9,464.0,86.0,13.1,3,5,7,1,2026-05-10T03:19:34.222638+05:30
Kanpur,Uttar Pradesh,26.4499,80.3319,25.0,67,0.0,991.3,8.1,31.7,155,77.5,41.7,10.7,411.0,96.0,8.7,7,5,7,1,2026-05-10T03:19:34.222644+05:30
Chandigarh,Chandigarh,30.7333,76.7794,21.9,74,0.0,967.9,7.7,38.5,95,56.6,38.5,21.7,375.0,65.0,6.6,3,5,7,1,2026-05-10T03:19:34.222650+05:30
Srinagar,Jammu and Kashmir,34.0837,74.7973,9.1,75,0.0,838.4,8.35,16.2,87,68.5,42.7,27.0,241.0,35.0,4.4,3,5,7,0,2026-05-10T03:19:34.222657+05:30
Jammu,Jammu and Kashmir,32.7266,74.857,23.6,62,0.0,971.2,7.95,34.2,151,72.2,52.0,28.7,377.0,29.0,4.2,3,5,7,0,2026-05-10T03:19:34.222663+05:30
Amritsar,Punjab,31.634,74.8723,26.1,59,0.0,979.2,8.35,32.4,152,159.3,58.7,6.6,511.0,94.0,9.0,4,5,7,1,2026-05-10T03:19:34.222668+05:30
Ludhiana,Punjab,30.901,75.8573,24.4,65,0.0,977.6,7.95,34.2,150,322.2,76.8,8.9,571.0,102.0,10.8,3,5,7,1,2026-05-10T03:19:34.222674+05:30
Jalandhar,Punjab,31.326,75.5762,23.8,67,0.0,978.4,8.15,33.1,148,305.5,76.1,9.6,548.0,98.0,12.8,3,5,7,1,2026-05-10T03:19:34.222679+05:30
Dehradun,Uttarakhand,30.6284,78.0322,10.4,100,0.0,827.2,8.1,35.6,64,38.0,21.7,23.9,276.0,37.0,0.3,3,10,7,0,2026-05-10T03:19:34.222688+05:30
Shimla,Himachal Pradesh,31.1048,77.1734,10.1,82,0.0,781.3,8.2,42.1,84,97.3,40.0,22.4,319.0,78.0,8.3,3,10,7,0,2026-05-10T03:19:34.222693+05:30
Manali,Himachal Pradesh,32.2396,77.1887,7.2,39,0.0,811.3,9.2,42.8,67,36.1,9.9,23.7,198.0,105.0,0.5,0,5,7,1,2026-05-10T03:19:34.222698+05:30
Gurgaon,Haryana,28.4595,77.0266,25.0,63,0.0,980.6,7.75,30.2,822,478.7,95.9,14.1,435.0,100.0,14.6,7,5,7,1,2026-05-10T03:19:34.222704+05:30
Noida,Uttar Pradesh,28.5355,77.391,23.4,71,0.0,983.7,7.65,23.0,822,478.7,95.9,14.1,514.0,100.0,14.6,3,5,7,1,2026-05-10T03:19:34.222710+05:30
Ghaziabad,Uttar Pradesh,28.6692,77.4538,23.4,73,0.0,982.0,7.6,26.6,118,125.7,53.9,11.7,432.0,93.0,9.5,3,5,7,1,2026-05-10T03:19:34.222715+05:30
Faridabad,Haryana,28.4089,77.3178,25.1,64,0.0,983.1,7.7,23.8,822,478.7,95.9,14.1,467.0,100.0,14.6,7,5,7,1,2026-05-10T03:19:34.222721+05:30
Meerut,Uttar Pradesh,28.9845,77.7064,23.5,74,0.0,980.9,7.55,26.6,118,125.7,53.9,11.7,452.0,93.0,9.5,3,5,7,1,2026-05-10T03:19:34.222726+05:30
Agra,Uttar Pradesh,27.1767,78.0081,24.5,66,0.0,986.9,7.95,24.8,849,625.8,88.2,7.3,355.0,99.0,11.0,3,5,7,1,2026-05-10T03:19:34.222732+05:30
Varanasi,Uttar Pradesh,25.3176,82.9739,23.6,76,0.0,997.1,8.55,33.8,130,65.4,54.9,19.0,492.0,82.0,16.8,3,5,7,1,2026-05-10T03:19:34.222737+05:30
Prayagraj,Uttar Pradesh,25.4358,81.8463,25.0,66,0.0,995.1,8.45,32.4,131,68.5,61.7,15.2,524.0,98.0,15.6,7,5,7,1,2026-05-10T03:19:34.222745+05:30
Gorakhpur,Uttar Pradesh,26.7606,83.3732,23.7,69,0.0,998.2,8.4,32.4,119,63.3,54.4,9.1,476.0,125.0,13.3,3,5,7,1,2026-05-10T03:19:34.222750+05:30
Bareilly,Uttar Pradesh,28.367,79.4304,22.9,69,0.0,987.0,7.9,24.5,100,42.5,34.7,21.0,449.0,62.0,4.6,3,5,7,1,2026-05-10T03:19:34.222756+05:30
Aligarh,Uttar Pradesh,27.8974,78.088,23.6,70,0.0,985.0,7.75,24.1,402,339.9,70.8,8.7,434.0,99.0,17.2,3,5,7,1,2026-05-10T03:19:34.222761+05:30
Moradabad,Uttar Pradesh,28.8386,78.7733,22.6,72,0.0,983.6,7.75,27.7,113,94.1,59.6,25.8,510.0,58.0,10.4,3,5,7,1,2026-05-10T03:19:34.222767+05:30
Saharanpur,Uttar Pradesh,29.9637,77.546,23.0,75,0.0,975.2,7.4,30.6,106,70.1,54.9,27.8,494.0,43.0,9.9,3,5,7,1,2026-05-10T03:19:34.222772+05:30
Jhansi,Uttar Pradesh,25.4484,78.5685,23.9,68,0.0,976.4,8.4,26.6,88,62.6,33.6,4.1,349.0,108.0,8.3,3,5,7,1,2026-05-10T03:19:37.584110+05:30
Surat,Gujarat,21.1702,72.8311,29.8,50,0.0,1003.6,7.75,32.0,104,34.3,22.9,27.8,221.0,54.0,43.0,4,5,4,1,2026-05-10T03:19:37.584142+05:30
Vadodara,Gujarat,22.3072,73.1812,30.8,32,0.0,1001.0,8.1,30.2,76,49.0,39.1,35.1,299.0,31.0,16.8,0,5,4,0,2026-05-10T03:19:37.584151+05:30
Rajkot,Gujarat,22.3039,70.8022,25.1,95,0.0,992.8,7.7,40.0,54,28.4,10.3,6.4,167.0,54.0,5.4,7,5,7,1,2026-05-10T03:19:37.584159+05:30
Thane,Maharashtra,19.2183,72.9781,26.9,87,0.0,1005.2,7.9,48.6,80,49.9,20.5,15.1,457.0,71.0,11.0,7,5,4,1,2026-05-10T03:19:37.584165+05:30
Nagpur,Maharashtra,21.1458,79.0882,28.5,47,0.0,971.7,8.9,36.7,91,48.1,34.5,21.5,323.0,73.0,12.6,4,5,7,0,2026-05-10T03:19:37.584172+05:30
Nashik,Maharashtra,19.9975,73.7898,26.7,35,0.0,943.4,8.2,40.3,79,48.7,28.2,24.3,322.0,76.0,14.0,4,5,7,0,2026-05-10T03:19:37.584177+05:30
Aurangabad,Maharashtra,19.8762,75.3433,30.0,24,0.0,941.9,9.05,45.0,81,45.6,25.6,19.7,306.0,89.0,11.7,4,5,7,0,2026-05-10T03:19:37.584183+05:30
Solapur,Maharashtra,17.6599,75.9064,29.1,37,0.0,954.7,9.1,33.8,67,24.3,19.6,12.8,323.0,80.0,5.0,4,5,7,0,2026-05-10T03:19:37.584190+05:30
Kolhapur,Maharashtra,16.705,74.2433,25.3,67,0.0,945.4,8.9,44.6,111,89.2,73.6,38.4,282.0,35.0,9.0,7,5,7,1,2026-05-10T03:19:37.584196+05:30
Goa,Goa,15.2993,74.124,27.0,88,0.0,994.9,6.25,48.6,89,58.8,44.5,13.2,359.0,85.0,4.7,7,5,7,1,2026-05-10T03:19:37.584202+05:30
Jodhpur,Rajasthan,26.2389,73.0243,31.2,20,0.0,980.2,8.35,32.4,90,84.5,32.4,13.2,458.0,56.0,5.5,0,5,7,0,2026-05-10T03:19:37.584207+05:30
Udaipur,Rajasthan,24.5854,73.7125,29.9,23,0.0,944.2,8.8,40.0,43,27.5,13.3,5.4,172.0,57.0,3.0,4,5,7,0,2026-05-10T03:19:37.584213+05:30
Kota,Rajasthan,25.2138,75.8648,27.2,49,0.0,976.9,8.35,33.8,72,81.7,30.7,4.3,295.0,95.0,8.0,4,5,7,0,2026-05-10T03:19:37.584218+05:30
Bikaner,Rajasthan,28.0229,73.3119,28.5,40,0.0,979.7,8.35,28.8,119,110.1,37.3,2.6,281.0,101.0,5.5,4,5,7,0,2026-05-10T03:19:37.584223+05:30
Ajmer,Rajasthan,26.4499,74.6399,26.3,46,0.0,953.4,8.35,33.5,87,150.4,43.8,5.0,342.0,103.0,6.6,4,5,7,0,2026-05-10T03:19:37.584229+05:30
Gwalior,Madhya Pradesh,26.2183,78.1828,24.6,66,0.0,982.1,8.2,24.1,122,128.5,43.7,4.4,309.0,107.0,8.1,3,5,7,1,2026-05-10T03:19:37.584234+05:30
Indore,Madhya Pradesh,22.7196,75.8577,29.3,24,0.0,946.0,8.65,41.4,56,42.6,23.9,9.0,359.0,60.0,5.0,4,5,7,0,2026-05-10T03:19:37.584239+05:30
Bhopal,Madhya Pradesh,23.2599,77.4126,27.2,36,0.0,951.2,8.65,45.0,61,34.2,21.2,3.5,271.0,103.0,6.3,4,5,7,0,2026-05-10T03:19:37.584244+05:30
Jabalpur,Madhya Pradesh,23.1815,79.9864,25.9,54,0.0,958.9,8.8,32.4,68,37.6,25.3,17.7,288.0,58.0,4.7,4,5,7,0,2026-05-10T03:19:37.584249+05:30
Ujjain,Madhya Pradesh,23.1765,75.7885,28.5,24,0.0,951.5,8.6,43.2,55,35.3,23.0,6.9,370.0,61.0,4.4,4,5,7,0,2026-05-10T03:19:37.584254+05:30
Visakhapatnam,Andhra Pradesh,17.6868,83.2185,25.9,95,0.0,1003.1,8.95,35.3,75,29.3,27.4,21.2,1370.0,24.0,6.3,7,5,4,1,2026-05-10T03:19:37.584260+05:30
Vijayawada,Andhra Pradesh,16.5062,80.648,27.3,84,0.0,1001.6,9.05,38.9,44,14.9,13.4,11.3,180.0,26.0,4.7,7,5,4,1,2026-05-10T03:19:37.584265+05:30
Guntur,Andhra Pradesh,16.3067,80.4365,27.6,82,0.0,1002.9,8.9,39.6,43,11.3,10.2,11.1,176.0,26.0,6.6,7,5,4,1,2026-05-10T03:19:37.584270+05:30
Nellore,Andhra Pradesh,14.4426,79.9865,26.6,89,0.0,1004.4,9.2,37.1,20,7.0,5.1,4.7,174.0,37.0,2.0,7,5,4,1,2026-05-10T03:19:37.584276+05:30
Kurnool,Andhra Pradesh,15.8281,78.0373,27.4,66,0.0,975.5,8.8,42.1,31,3.9,3.4,4.5,138.0,37.0,1.2,7,5,7,1,2026-05-10T03:19:37.584282+05:30
Kakinada,Andhra Pradesh,16.9891,82.2475,26.3,91,0.0,1006.6,9.15,36.7,22,7.9,5.4,1.4,181.0,48.0,0.5,7,5,4,1,2026-05-10T03:19:37.584287+05:30
Tirupati,Andhra Pradesh,13.6288,79.4192,25.0,93,0.0,989.7,9.25,40.7,36,25.1,23.7,29.3,210.0,6.0,5.3,7,5,7,1,2026-05-10T03:19:37.584293+05:30
Warangal,Telangana,17.9689,79.5941,26.4,77,0.0,977.1,9.15,44.6,59,10.0,9.5,9.6,198.0,44.0,9.0,7,5,7,1,2026-05-10T03:19:37.584298+05:30
Nizamabad,Telangana,18.6725,78.0941,27.5,50,0.0,962.4,9.1,31.7,74,23.8,20.7,11.0,261.0,79.0,4.4,4,5,7,1,2026-05-10T03:19:37.584303+05:30
Mysore,Karnataka,12.2958,76.6396,22.2,89,0.0,925.9,9.1,36.4,56,13.7,13.5,15.0,220.0,43.0,5.3,3,5,7,1,2026-05-10T03:19:37.584307+05:30
Mangalore,Karnataka,12.9141,74.856,25.5,96,0.0,1003.7,8.95,41.4,69,31.2,25.1,13.4,214.0,56.0,4.3,7,5,4,1,2026-05-10T03:19:37.584312+05:30
Hubli-Dharwad,Karnataka,15.3647,75.124,23.5,92,0.0,938.0,7.2,47.9,55,35.6,31.1,18.6,327.0,40.0,1.2,3,5,7,1,2026-05-10T03:19:37.584317+05:30
Belgaum,Karnataka,15.8497,74.4977,24.0,71,0.0,922.9,8.3,40.0,81,55.1,41.8,19.7,259.0,74.0,6.1,3,5,7,1,2026-05-10T03:19:40.940173+05:30
Coimbatore,Tamil Nadu,11.0168,76.9558,23.5,96,0.0,958.6,9.15,34.6,57,10.5,10.3,13.1,265.0,41.0,4.0,3,5,7,1,2026-05-10T03:19:40.940206+05:30
Madurai,Tamil Nadu,9.9252,78.1198,25.2,94,0.0,989.3,3.4,39.2,61,15.7,15.5,20.3,336.0,31.0,7.6,7,5,3,1,2026-05-10T03:19:40.940215+05:30
Trichy,Tamil Nadu,10.7905,78.7047,25.6,93,0.0,996.9,4.85,40.0,39,10.7,10.2,20.0,255.0,23.0,13.4,7,5,3,1,2026-05-10T03:19:40.940222+05:30
Salem,Tamil Nadu,11.6643,78.146,25.0,88,0.0,974.9,8.5,50.8,52,17.8,17.5,18.7,227.0,39.0,9.5,7,5,7,1,2026-05-10T03:19:40.940229+05:30
Tirunelveli,Tamil Nadu,8.7139,77.7567,26.0,90,0.0,999.9,3.85,34.9,56,11.2,11.0,7.0,278.0,54.0,3.7,7,5,3,1,2026-05-10T03:19:40.940235+05:30
Vellore,Tamil Nadu,12.9165,79.1325,24.6,96,0.0,982.8,9.25,34.9,52,21.5,19.7,22.9,283.0,18.0,12.1,3,5,7,1,2026-05-10T03:19:40.940240+05:30
Erode,Tamil Nadu,11.341,77.7172,24.5,93,0.0,986.4,6.2,33.5,58,14.7,14.4,16.4,290.0,47.0,6.3,3,5,7,1,2026-05-10T03:19:40.940246+05:30
Kochi,Kerala,9.9312,76.2673,26.0,93,0.0,1004.5,8.65,24.1,70,21.0,20.4,13.8,287.0,41.0,3.4,7,5,4,1,2026-05-10T03:19:40.940252+05:30
Thiruvananthapuram,Kerala,8.5241,76.9366,24.8,95,0.0,1004.4,2.8,25.2,49,10.2,9.7,4.8,401.0,102.0,3.2,3,5,0,1,2026-05-10T03:19:40.940258+05:30
Kozhikode,Kerala,11.2588,75.7804,25.1,96,0.0,1004.1,8.85,38.2,48,11.4,9.7,4.6,277.0,97.0,2.5,7,5,4,1,2026-05-10T03:19:40.940263+05:30
Thrissur,Kerala,10.5276,76.2144,24.5,97,0.0,1003.2,8.95,32.4,71,21.2,20.7,12.1,278.0,51.0,3.7,3,5,4,1,2026-05-10T03:19:40.940270+05:30
Kannur,Kerala,11.8745,75.3704,25.5,91,0.0,1003.7,8.75,45.4,64,21.4,19.0,12.6,265.0,57.0,2.7,7,5,4,1,2026-05-10T03:19:40.940276+05:30
Patna,Bihar,25.5941,85.1376,23.5,84,0.0,1000.9,8.65,34.2,144,63.1,55.4,12.7,372.0,113.0,19.3,3,5,4,1,2026-05-10T03:19:40.940281+05:30
Gaya,Bihar,24.7914,85.0002,21.8,80,0.0,993.4,8.7,33.5,121,70.3,52.3,15.5,330.0,87.0,13.1,3,5,7,1,2026-05-10T03:19:40.940287+05:30
Muzaffarpur,Bihar,26.1209,85.3647,23.2,81,0.0,1001.3,8.65,31.0,151,67.1,60.8,14.6,398.0,95.0,17.0,3,5,4,1,2026-05-10T03:19:40.940293+05:30
Bhagalpur,Bihar,25.2425,87.0117,23.5,88,0.0,1002.0,8.6,25.2,151,73.1,61.7,16.7,381.0,104.0,13.8,3,5,4,1,2026-05-10T03:19:40.940298+05:30
Ranchi,Jharkhand,23.3441,85.3096,21.0,73,0.0,936.5,9.15,46.1,104,77.3,49.4,9.6,256.0,113.0,16.1,3,5,7,0,2026-05-10T03:19:40.940303+05:30
Jamshedpur,Jharkhand,22.8046,86.2029,23.4,91,0.0,990.8,8.95,32.4,99,32.2,26.4,14.0,313.0,76.0,17.2,3,5,7,1,2026-05-10T03:19:40.940308+05:30
Dhanbad,Jharkhand,23.7957,86.4304,22.6,88,0.0,980.0,8.9,29.9,157,103.6,93.4,69.5,327.0,37.0,86.9,3,5,7,1,2026-05-10T03:19:40.940313+05:30
Bokaro,Jharkhand,23.6693,86.1511,21.8,89,0.0,983.7,8.9,27.0,159,124.3,105.5,61.7,2073.0,43.0,72.6,3,5,7,1,2026-05-10T03:19:40.940319+05:30
Bhubaneswar,Odisha,20.2961,85.8245,25.5,95,0.0,1002.3,9.05,32.4,56,26.3,23.8,20.4,293.0,29.0,5.5,7,5,4,1,2026-05-10T03:19:40.940324+05:30
Cuttack,Odisha,20.4625,85.8828,25.4,96,0.0,1004.3,9.1,28.1,56,26.3,23.8,20.4,286.0,29.0,5.5,7,5,4,1,2026-05-10T03:19:40.940329+05:30
Rourkela,Odisha,22.2604,84.8536,24.3,81,0.0,984.5,8.85,38.2,128,82.7,65.4,36.9,461.0,46.0,37.4,3,5,7,1,2026-05-10T03:19:40.940334+05:30
Raipur,Chhattisgarh,21.2514,81.6296,27.0,53,0.0,972.4,8.9,35.6,87,37.5,28.2,13.7,475.0,110.0,5.8,4,5,7,1,2026-05-10T03:19:40.940340+05:30
Bhilai,Chhattisgarh,21.1938,81.3509,26.5,58,0.0,972.7,8.95,33.1,89,40.6,31.0,24.1,435.0,102.0,5.7,4,5,7,1,2026-05-10T03:19:40.940344+05:30
Guwahati,Assam,26.1158,91.7086,21.4,87,0.0,1002.5,8.6,24.1,93,43.0,37.6,19.0,359.0,30.0,3.2,3,5,4,1,2026-05-10T03:19:40.940349+05:30
Agartala,Tripura,23.8315,91.2868,23.0,90,0.0,1006.4,7.65,32.0,159,113.6,103.1,60.3,489.0,22.0,10.8,3,5,4,1,2026-05-10T03:19:40.940367+05:30
Shillong,Meghalaya,25.5788,91.8933,17.2,69,0.0,857.5,9.05,24.8,77,35.6,26.3,11.8,295.0,48.0,1.9,3,5,7,0,2026-05-10T03:19:40.940373+05:30
Imphal,Manipur,24.817,93.9368,17.4,88,0.0,922.6,7.0,22.0,96,57.0,51.0,32.6,492.0,22.0,5.4,3,10,7,0,2026-05-10T03:19:40.940378+05:30
Aizawl,Mizoram,23.7271,92.7176,15.4,84,0.0,890.9,8.55,14.0,91,63.6,44.2,12.0,373.0,48.0,3.9,3,10,7,0,2026-05-10T03:19:40.940383+05:30
Kohima,Nagaland,25.6701,94.1077,14.2,93,0.0,854.0,7.95,24.1,75,38.3,27.8,13.6,269.0,39.0,1.7,3,10,7,0,2026-05-10T03:19:40.940388+05:30
Gangtok,Sikkim,27.3314,88.6138,12.1,86,0.2,837.8,7.1,34.9,60,22.8,16.5,12.8,292.0,69.0,0.9,6,10,7,0,2026-05-10T03:19:40.940393+05:30
Siliguri,West Bengal,26.7271,88.3953,22.0,63,0.0,993.9,8.1,20.9,106,65.7,51.9,35.0,433.0,45.0,4.9,3,5,7,0,2026-05-10T03:19:44.292496+05:30
Durgapur,West Bengal,23.5204,87.3119,23.2,91,0.0,995.2,8.85,32.8,146,69.6,64.5,38.8,551.0,53.0,46.3,3,5,7,1,2026-05-10T03:19:44.292527+05:30
Asansol,West Bengal,23.6739,86.9524,22.6,91,0.0,993.8,8.85,26.3,141,70.8,63.8,39.6,831.0,53.0,57.8,3,5,7,1,2026-05-10T03:19:44.292536+05:30
Pondicherry,Puducherry,11.9139,79.8145,25.9,94,0.2,1005.8,8.0,39.6,21,4.1,3.2,3.4,255.0,44.0,0.5,10,5,4,1,2026-05-10T03:19:44.292544+05:30
Port Blair,Andaman and Nicobar Islands,11.6234,92.7265,24.5,96,0.0,1005.2,9.0,29.9,26,2.3,1.7,0.3,144.0,57.0,0.1,3,5,4,1,2026-05-10T03:19:44.292550+05:30
Haridwar,Uttarakhand,29.9457,78.1642,20.9,80,0.0,973.5,7.45,28.8,97,61.9,44.9,20.2,336.0,62.0,7.3,3,5,7,1,2026-05-10T03:19:44.292556+05:30
Rishikesh,Uttarakhand,30.0869,78.2676,18.5,88,0.0,966.0,7.55,23.8,90,68.5,39.1,13.6,335.0,96.0,5.9,3,10,7,1,2026-05-10T03:19:44.292562+05:30
Nainital,Uttarakhand,29.3919,79.4542,11.5,85,0.0,804.2,8.1,32.8,74,41.9,31.5,21.7,286.0,55.0,3.3,3,10,7,0,2026-05-10T03:19:44.292568+05:30
Mussoorie,Uttarakhand,30.4599,78.0664,12.2,86,0.0,801.2,7.95,39.2,84,63.1,42.5,31.5,300.0,48.0,9.2,3,10,7,0,2026-05-10T03:19:44.292574+05:30
Dharamshala,Himachal Pradesh,32.219,76.3234,19.5,67,0.0,868.3,7.7,35.6,74,38.5,19.2,11.0,287.0,70.0,1.1,3,5,7,0,2026-05-10T03:19:44.292579+05:30
Dalhousie,Himachal Pradesh,32.5387,75.971,9.3,93,0.0,799.9,7.95,35.3,118,64.5,42.8,24.6,389.0,54.0,3.2,3,10,7,0,2026-05-10T03:19:44.292586+05:30
Patiala,Punjab,30.3398,76.3869,23.5,70,0.0,977.2,7.6,34.9,281,429.3,75.7,9.1,468.0,95.0,9.6,3,5,7,1,2026-05-10T03:19:44.292592+05:30
Bhatinda,Punjab,30.211,74.9455,26.6,53,0.0,982.3,8.25,29.2,317,612.8,123.4,7.9,424.0,104.0,12.8,4,5,7,1,2026-05-10T03:19:44.292597+05:30
Rohtak,Haryana,28.8955,76.6066,24.5,69,0.0,980.8,7.7,29.9,302,460.1,92.4,19.6,499.0,91.0,23.8,3,5,7,1,2026-05-10T03:19:44.292603+05:30
Panipat,Haryana,29.3909,76.9635,23.5,72,0.0,979.6,7.55,31.0,625,510.4,88.0,16.1,399.0,89.0,18.4,3,5,7,1,2026-05-10T03:19:44.292608+05:30
Mathura,Uttar Pradesh,27.4924,77.6737,24.3,66,0.0,986.1,7.9,22.0,710,570.0,92.9,7.4,396.0,96.0,11.4,3,5,7,1,2026-05-10T03:19:44.292614+05:30
Vrindavan,Uttar Pradesh,27.5823,77.7027,24.5,65,0.0,986.5,7.9,22.3,710,570.0,92.9,7.4,406.0,96.0,11.4,3,5,7,1,2026-05-10T03:19:44.292619+05:30
Ayodhya,Uttar Pradesh,26.7922,82.1998,23.4,68,0.0,995.8,8.2,32.0,123,72.2,61.7,19.6,457.0,88.0,10.8,3,5,7,1,2026-05-10T03:19:44.292624+05:30
Ratlam,Madhya Pradesh,23.3315,75.0367,27.1,29,0.0,952.1,8.5,43.6,51,23.3,14.8,3.5,212.0,82.0,3.4,4,5,7,0,2026-05-10T03:19:44.292630+05:30
Sagar,Madhya Pradesh,23.8388,78.7378,24.2,49,0.0,947.3,8.65,35.3,98,41.3,28.5,5.5,291.0,124.0,8.1,0,5,7,0,2026-05-10T03:19:44.292635+05:30
Satna,Madhya Pradesh,24.6005,80.8322,23.5,58,0.0,969.1,8.65,28.4,133,55.5,45.6,11.1,391.0,106.0,13.5,0,5,7,0,2026-05-10T03:19:44.292641+05:30
Akola,Maharashtra,20.7002,77.0082,27.8,39,0.0,972.5,8.9,39.6,84,71.7,37.3,24.3,304.0,55.0,10.3,4,5,7,0,2026-05-10T03:19:44.292647+05:30
Amravati,Maharashtra,20.9374,77.7796,27.9,39,0.0,965.4,8.85,38.2,83,75.0,38.5,26.4,322.0,51.0,8.3,4,5,7,0,2026-05-10T03:19:44.292654+05:30
Latur,Maharashtra,18.4088,76.5604,27.2,42,0.0,937.5,9.1,37.4,78,36.0,25.8,12.7,307.0,76.0,4.3,4,5,7,0,2026-05-10T03:19:44.292660+05:30
Nanded,Maharashtra,19.1383,77.3091,27.5,49,0.0,966.3,9.0,31.0,80,49.6,31.5,12.3,283.0,86.0,4.4,4,5,7,0,2026-05-10T03:19:44.292665+05:30
Gulbarga,Karnataka,17.3297,76.8343,27.5,48,0.0,956.5,9.1,35.3,54,17.6,15.2,11.6,273.0,82.0,6.0,4,5,7,0,2026-05-10T03:19:44.292670+05:30
Bidar,Karnataka,17.9104,77.5199,26.0,52,0.0,933.3,9.15,34.9,63,21.9,19.1,13.6,288.0,76.0,7.4,4,5,7,0,2026-05-10T03:19:44.292674+05:30
Hospet,Karnataka,15.2689,76.3909,25.5,66,0.0,953.7,9.2,39.2,42,10.3,9.4,11.5,147.0,47.0,6.8,7,5,7,1,2026-05-10T03:19:44.292679+05:30
Tirupur,Tamil Nadu,11.1085,77.3411,24.0,96,0.0,972.2,7.0,28.1,69,19.0,18.6,20.1,236.0,40.0,6.1,3,5,7,1,2026-05-10T03:19:44.292684+05:30
Alappuzha,Kerala,9.4981,76.3388,26.0,96,0.0,1004.7,7.55,30.2,60,19.0,18.3,12.2,317.0,67.0,4.3,7,5,4,1,2026-05-10T03:19:44.292689+05:30
Munnar,Kerala,10.0889,77.0595,16.4,97,0.0,851.8,5.4,22.7,39,3.7,3.6,9.6,152.0,39.0,1.8,3,10,3,0,2026-05-10T03:19:44.292694+05:30
Silchar,Assam,24.8333,92.7789,22.8,92,0.0,1005.2,8.1,15.8,125,81.7,63.3,27.1,682.0,21.0,7.2,3,5,4,1,2026-05-10T03:19:44.292699+05:30
Dibrugarh,Assam,27.4728,94.912,22.5,96,0.0,996.1,8.75,45.4,103,50.6,45.9,36.9,742.0,6.0,1.8,3,5,7,1,2026-05-10T03:19:44.292704+05:30
