city,state,latitude,longitude,temp,humidity,rain,pressure,uv_index,wind_gusts,aqi,pm10,pm2_5,mosquito_risk,arthritis_risk,migraine_risk,frizz_risk,updated_at
Delhi,Delhi,28.6139,77.209,18.1,89,0.0,989.2,7.05,22.0,122,75.7,58.1,3,10,7,1,2026-04-09T08:07:01.214258+05:30
Mumbai,Maharashtra,19.076,72.8777,27.7,78,0.0,1011.1,7.95,20.9,77,95.7,26.5,7,0,4,1,2026-04-09T08:07:01.214292+05:30
Bangalore,Karnataka,12.9716,77.5946,23.9,83,0.0,914.5,9.2,25.9,71,29.1,25.0,3,5,7,1,2026-04-09T08:07:01.214306+05:30
Hyderabad,Telangana,17.385,78.4867,27.7,52,0.0,955.7,9.2,33.5,96,57.6,44.8,4,5,7,1,2026-04-09T08:07:01.214316+05:30
Chennai,Tamil Nadu,13.0827,80.2707,30.2,76,0.0,1009.5,9.35,36.4,70,22.7,16.5,3,0,4,1,2026-04-09T08:07:01.214324+05:30
Kolkata,West Bengal,22.5726,88.3639,23.9,91,0.0,1010.2,8.7,14.8,77,18.3,15.9,3,0,4,1,2026-04-09T08:07:01.214332+05:30
Pune,Maharashtra,18.5204,73.8567,22.9,81,0.0,950.8,8.55,34.2,75,53.7,27.8,3,5,7,1,2026-04-09T08:07:01.214342+05:30
Ahmedabad,Gujarat,23.0225,72.5714,24.5,72,0.0,1005.2,8.0,16.9,74,25.4,17.2,3,5,4,1,2026-04-09T08:07:01.214349+05:30
Jaipur,Rajasthan,26.9124,75.7873,20.5,75,0.0,964.0,7.7,27.0,158,203.5,49.0,3,5,7,0,2026-04-09T08:07:01.214356+05:30
Lucknow,Uttar Pradesh,26.8467,80.9462,20.5,76,0.0,999.8,7.55,35.3,126,94.5,63.3,3,5,7,1,2026-04-09T08:07:01.214362+05:30
Kanpur,Uttar Pradesh,26.4499,80.3319,20.4,81,0.0,998.0,7.6,32.4,129,89.9,59.1,3,5,7,1,2026-04-09T08:07:01.214368+05:30
Chandigarh,Chandigarh,30.7333,76.7794,17.7,80,0.0,975.0,7.05,24.5,67,31.2,27.2,3,5,7,0,2026-04-09T08:07:01.214375+05:30
Srinagar,Jammu and Kashmir,34.0837,74.7973,7.2,84,0.0,841.5,7.95,20.5,34,11.2,11.1,3,10,7,0,2026-04-09T08:07:01.214381+05:30
Jammu,Jammu and Kashmir,32.7266,74.857,16.0,83,0.0,979.5,7.65,27.4,68,23.2,21.9,3,10,7,0,2026-04-09T08:07:01.214387+05:30
Amritsar,Punjab,31.634,74.8723,16.2,90,0.0,987.6,7.6,17.3,79,41.8,32.8,3,10,7,0,2026-04-09T08:07:01.214393+05:30
Ludhiana,Punjab,30.901,75.8573,18.0,85,0.0,985.0,7.25,19.8,89,66.1,54.8,3,10,7,0,2026-04-09T08:07:01.214399+05:30
Jalandhar,Punjab,31.326,75.5762,17.5,86,0.0,986.4,7.4,21.6,88,54.4,43.8,3,10,7,0,2026-04-09T08:07:01.214408+05:30
Dehradun,Uttarakhand,30.6284,78.0322,9.6,81,0.0,830.7,7.4,24.5,39,8.4,7.8,3,10,7,0,2026-04-09T08:07:01.214415+05:30
Shimla,Himachal Pradesh,31.1048,77.1734,8.5,76,0.0,784.2,7.5,28.8,40,15.4,12.8,3,5,7,0,2026-04-09T08:07:01.214421+05:30
Manali,Himachal Pradesh,32.2396,77.1887,9.8,53,0.0,817.4,9.75,24.8,77,4.0,3.6,0,5,7,0,2026-04-09T08:07:01.214427+05:30
Gurgaon,Haryana,28.4595,77.0266,18.7,89,0.0,987.4,7.15,18.4,134,64.5,57.6,3,10,7,1,2026-04-09T08:07:01.214433+05:30
Noida,Uttar Pradesh,28.5355,77.391,17.9,91,0.0,990.8,7.1,20.5,134,64.5,57.6,3,10,7,1,2026-04-09T08:07:01.214439+05:30
Ghaziabad,Uttar Pradesh,28.6692,77.4538,17.6,91,0.0,988.9,7.05,21.6,105,80.6,57.6,3,10,7,1,2026-04-09T08:07:01.214445+05:30
Faridabad,Haryana,28.4089,77.3178,18.1,91,0.0,989.9,7.15,18.7,134,64.5,57.6,3,10,7,1,2026-04-09T08:07:01.214451+05:30
Meerut,Uttar Pradesh,28.9845,77.7064,17.7,90,0.0,987.8,6.95,26.3,105,80.6,57.6,3,10,7,0,2026-04-09T08:07:01.214457+05:30
Agra,Uttar Pradesh,27.1767,78.0081,20.0,85,0.0,993.9,7.45,23.0,514,181.1,62.9,3,5,7,1,2026-04-09T08:07:01.214463+05:30
Varanasi,Uttar Pradesh,25.3176,82.9739,22.5,69,0.0,1003.6,8.2,31.3,110,70.8,55.9,3,5,4,1,2026-04-09T08:07:01.214471+05:30
Prayagraj,Uttar Pradesh,25.4358,81.8463,22.2,75,0.0,1002.0,8.05,27.4,113,71.9,55.8,3,5,4,1,2026-04-09T08:07:01.214478+05:30
Gorakhpur,Uttar Pradesh,26.7606,83.3732,21.1,71,0.0,1003.7,7.95,32.4,148,98.3,76.1,3,5,4,0,2026-04-09T08:07:01.214485+05:30
Bareilly,Uttar Pradesh,28.367,79.4304,18.5,86,0.0,993.5,7.3,30.6,96,61.9,44.2,3,10,7,1,2026-04-09T08:07:01.214491+05:30
Aligarh,Uttar Pradesh,27.8974,78.088,18.4,90,0.0,991.8,7.2,27.0,104,76.8,55.4,3,10,7,1,2026-04-09T08:07:01.214497+05:30
Moradabad,Uttar Pradesh,28.8386,78.7733,18.1,89,0.0,990.1,7.15,30.2,108,65.4,50.5,3,10,7,1,2026-04-09T08:07:01.214503+05:30
Saharanpur,Uttar Pradesh,29.9637,77.546,17.8,84,0.0,982.1,6.75,27.0,93,63.6,57.2,3,10,7,0,2026-04-09T08:07:01.214508+05:30
Jhansi,Uttar Pradesh,25.4484,78.5685,21.5,77,0.0,983.2,8.0,25.9,88,115.7,43.8,3,5,7,1,2026-04-09T08:07:04.433659+05:30
Surat,Gujarat,21.1702,72.8311,26.3,74,0.0,1009.9,7.7,28.1,74,60.1,36.4,7,0,4,1,2026-04-09T08:07:04.433686+05:30
Vadodara,Gujarat,22.3072,73.1812,25.5,71,0.0,1007.8,8.0,20.5,66,25.0,19.4,7,5,4,1,2026-04-09T08:07:04.433695+05:30
Rajkot,Gujarat,22.3039,70.8022,23.2,83,0.0,997.4,7.7,21.6,57,42.4,22.4,3,5,7,1,2026-04-09T08:07:04.433702+05:30
Thane,Maharashtra,19.2183,72.9781,27.2,78,0.0,1010.6,7.95,34.9,77,95.7,26.5,7,0,4,1,2026-04-09T08:07:04.433709+05:30
Nagpur,Maharashtra,21.1458,79.0882,25.7,57,0.0,976.2,8.75,21.2,87,56.8,33.8,4,5,7,1,2026-04-09T08:07:04.433715+05:30
Nashik,Maharashtra,19.9975,73.7898,22.9,85,0.0,948.1,8.2,25.9,66,68.0,22.2,3,5,7,1,2026-04-09T08:07:04.433722+05:30
Aurangabad,Maharashtra,19.8762,75.3433,23.4,73,0.0,946.8,8.9,29.9,66,56.0,20.0,3,5,7,1,2026-04-09T08:07:04.433765+05:30
Solapur,Maharashtra,17.6599,75.9064,25.6,63,0.0,959.8,8.95,22.7,71,38.5,25.2,7,5,7,1,2026-04-09T08:07:04.433775+05:30
Kolhapur,Maharashtra,16.705,74.2433,22.2,83,0.0,949.8,9.0,38.2,78,58.8,32.7,3,5,7,1,2026-04-09T08:07:04.433782+05:30
Goa,Goa,15.2993,74.124,27.4,78,0.0,1000.6,8.95,36.4,72,59.0,28.3,7,5,4,1,2026-04-09T08:07:04.433789+05:30
Jodhpur,Rajasthan,26.2389,73.0243,22.3,55,0.0,987.0,7.95,27.7,100,74.7,18.3,0,5,7,0,2026-04-09T08:07:04.433795+05:30
Udaipur,Rajasthan,24.5854,73.7125,21.4,54,0.0,949.2,8.5,40.3,65,68.5,24.6,0,5,7,0,2026-04-09T08:07:04.433801+05:30
Kota,Rajasthan,25.2138,75.8648,21.3,74,0.0,983.2,8.0,20.5,122,58.0,26.7,3,5,7,1,2026-04-09T08:07:04.433808+05:30
Bikaner,Rajasthan,28.0229,73.3119,22.2,45,0.0,986.2,7.8,21.6,73,160.7,45.4,0,5,7,0,2026-04-09T08:07:04.433816+05:30
Ajmer,Rajasthan,26.4499,74.6399,21.3,73,0.0,958.3,7.95,25.2,79,79.4,25.9,3,5,7,1,2026-04-09T08:07:04.433822+05:30
Gwalior,Madhya Pradesh,26.2183,78.1828,20.8,81,0.0,988.9,7.75,26.6,98,202.1,61.9,3,5,7,1,2026-04-09T08:07:04.433828+05:30
Indore,Madhya Pradesh,22.7196,75.8577,22.6,83,0.0,950.8,8.4,23.8,76,47.6,29.3,3,5,7,1,2026-04-09T08:07:04.433834+05:30
Bhopal,Madhya Pradesh,23.2599,77.4126,23.6,59,0.0,957.0,8.4,26.6,70,36.6,18.2,0,5,7,0,2026-04-09T08:07:04.433840+05:30
Jabalpur,Madhya Pradesh,23.1815,79.9864,23.2,72,0.0,965.3,8.55,26.6,128,83.6,52.5,3,5,7,1,2026-04-09T08:07:04.433845+05:30
Ujjain,Madhya Pradesh,23.1765,75.7885,22.6,82,0.0,956.7,8.35,23.0,72,45.2,28.6,3,5,7,1,2026-04-09T08:07:04.433851+05:30
Visakhapatnam,Andhra Pradesh,17.6868,83.2185,29.0,79,0.0,1006.0,9.1,43.9,96,41.1,38.2,7,5,4,1,2026-04-09T08:07:04.433857+05:30
Vijayawada,Andhra Pradesh,16.5062,80.648,29.0,81,0.0,1004.7,9.15,30.6,94,25.0,21.1,7,5,4,1,2026-04-09T08:07:04.433863+05:30
Guntur,Andhra Pradesh,16.3067,80.4365,29.5,80,0.0,1005.8,9.0,33.1,94,27.7,24.4,7,5,4,1,2026-04-09T08:07:04.433869+05:30
Nellore,Andhra Pradesh,14.4426,79.9865,30.1,75,0.0,1007.2,9.3,33.8,83,25.7,23.2,3,5,4,1,2026-04-09T08:07:04.433876+05:30
Kurnool,Andhra Pradesh,15.8281,78.0373,30.0,53,0.0,978.6,9.2,28.1,76,41.3,36.6,4,5,7,1,2026-04-09T08:07:04.433882+05:30
Kakinada,Andhra Pradesh,16.9891,82.2475,29.7,79,0.0,1009.9,9.15,29.2,81,31.8,25.6,7,0,4,1,2026-04-09T08:07:04.433888+05:30
Tirupati,Andhra Pradesh,13.6288,79.4192,28.6,80,0.0,994.3,8.75,33.8,100,31.0,28.4,7,5,7,1,2026-04-09T08:07:04.433894+05:30
Warangal,Telangana,17.9689,79.5941,27.9,82,0.0,981.5,9.05,24.5,104,35.2,33.2,7,5,7,1,2026-04-09T08:07:04.433900+05:30
Nizamabad,Telangana,18.6725,78.0941,26.8,56,0.0,968.0,8.95,26.6,90,37.1,26.0,4,5,7,1,2026-04-09T08:07:04.433905+05:30
Mysore,Karnataka,12.2958,76.6396,24.0,79,0.0,931.2,9.55,34.6,47,29.3,20.5,3,5,7,1,2026-04-09T08:07:04.433912+05:30
Mangalore,Karnataka,12.9141,74.856,28.8,78,0.0,1009.6,9.15,35.3,71,61.7,31.4,7,0,4,1,2026-04-09T08:07:04.433917+05:30
Hubli-Dharwad,Karnataka,15.3647,75.124,22.8,87,0.0,943.3,9.2,40.0,66,51.1,22.2,3,5,7,1,2026-04-09T08:07:04.433923+05:30
Belgaum,Karnataka,15.8497,74.4977,20.8,88,0.0,927.5,9.2,36.4,75,86.1,34.8,3,5,7,1,2026-04-09T08:07:07.657901+05:30
Coimbatore,Tamil Nadu,11.0168,76.9558,27.0,67,0.0,964.7,9.5,43.6,46,14.3,10.6,7,5,7,1,2026-04-09T08:07:07.657922+05:30
Madurai,Tamil Nadu,9.9252,78.1198,28.0,77,0.0,995.7,9.4,32.4,94,38.6,36.3,7,5,7,1,2026-04-09T08:07:07.657931+05:30
Trichy,Tamil Nadu,10.7905,78.7047,28.1,86,0.0,1002.6,9.4,25.9,82,27.2,23.7,7,5,4,1,2026-04-09T08:07:07.657938+05:30
Salem,Tamil Nadu,11.6643,78.146,26.4,85,0.0,980.2,9.3,36.4,71,36.2,32.1,7,5,7,1,2026-04-09T08:07:07.657944+05:30
Tirunelveli,Tamil Nadu,8.7139,77.7567,28.7,73,0.0,1005.6,8.9,35.6,69,15.5,11.8,7,5,4,1,2026-04-09T08:07:07.657950+05:30
Vellore,Tamil Nadu,12.9165,79.1325,27.8,77,0.0,987.4,9.45,23.0,119,48.2,44.7,7,5,7,1,2026-04-09T08:07:07.657956+05:30
Erode,Tamil Nadu,11.341,77.7172,27.6,79,0.0,992.1,8.85,24.5,59,23.5,21.3,7,5,7,1,2026-04-09T08:07:07.657962+05:30
Kochi,Kerala,9.9312,76.2673,28.5,78,0.0,1011.3,8.55,30.2,65,30.3,27.6,7,0,4,1,2026-04-09T08:07:07.657968+05:30
Thiruvananthapuram,Kerala,8.5241,76.9366,28.9,77,0.0,1010.2,9.1,36.0,51,21.2,14.5,7,0,4,1,2026-04-09T08:07:07.657974+05:30
Kozhikode,Kerala,11.2588,75.7804,28.6,82,0.0,1010.6,9.15,29.9,58,65.9,25.6,7,0,4,1,2026-04-09T08:07:07.657979+05:30
Thrissur,Kerala,10.5276,76.2144,28.6,79,0.0,1009.7,8.6,32.8,61,29.6,26.3,7,0,4,1,2026-04-09T08:07:07.657986+05:30
Kannur,Kerala,11.8745,75.3704,28.4,75,0.0,1010.0,9.15,36.7,63,54.6,28.3,7,0,4,1,2026-04-09T08:07:07.657992+05:30
Patna,Bihar,25.5941,85.1376,23.0,79,0.0,1006.1,8.3,27.4,103,54.1,44.5,3,5,4,1,2026-04-09T08:07:07.657998+05:30
Gaya,Bihar,24.7914,85.0002,23.5,83,0.0,999.0,8.4,22.3,109,50.4,39.0,3,5,7,1,2026-04-09T08:07:07.658004+05:30
Muzaffarpur,Bihar,26.1209,85.3647,22.1,80,0.0,1006.3,8.25,20.5,117,44.1,36.3,3,5,4,1,2026-04-09T08:07:07.658009+05:30
Bhagalpur,Bihar,25.2425,87.0117,22.5,83,0.0,1006.7,8.3,23.4,105,23.7,18.1,3,5,4,1,2026-04-09T08:07:07.658015+05:30
Ranchi,Jharkhand,23.3441,85.3096,21.9,85,0.0,941.0,8.95,30.6,121,113.9,44.2,3,5,7,1,2026-04-09T08:07:07.658021+05:30
Jamshedpur,Jharkhand,22.8046,86.2029,23.0,89,0.0,995.1,8.8,17.6,102,90.1,56.5,3,5,7,1,2026-04-09T08:07:07.658026+05:30
Dhanbad,Jharkhand,23.7957,86.4304,23.7,81,0.0,984.1,8.5,23.4,151,121.1,55.9,3,5,7,1,2026-04-09T08:07:07.658031+05:30
Bokaro,Jharkhand,23.6693,86.1511,23.5,83,0.0,988.3,8.3,23.8,155,119.0,68.5,3,5,7,1,2026-04-09T08:07:07.658037+05:30
Bhubaneswar,Odisha,20.2961,85.8245,28.2,85,0.0,1005.1,9.0,29.2,77,35.6,32.4,7,5,4,1,2026-04-09T08:07:07.658042+05:30
Cuttack,Odisha,20.4625,85.8828,27.4,88,0.0,1007.3,9.05,28.4,77,35.6,32.4,7,5,4,1,2026-04-09T08:07:07.658048+05:30
Rourkela,Odisha,22.2604,84.8536,23.7,86,0.0,988.7,8.75,23.0,123,130.4,57.3,3,5,7,1,2026-04-09T08:07:07.658054+05:30
Raipur,Chhattisgarh,21.2514,81.6296,26.5,58,0.0,978.0,8.85,27.0,109,85.4,46.8,4,5,7,1,2026-04-09T08:07:07.658059+05:30
Bhilai,Chhattisgarh,21.1938,81.3509,26.6,60,0.0,978.5,8.85,24.8,106,91.7,55.8,4,5,7,1,2026-04-09T08:07:07.658065+05:30
Guwahati,Assam,26.1158,91.7086,23.6,83,0.0,1006.3,7.85,22.7,72,36.2,30.2,3,5,4,1,2026-04-09T08:07:07.658070+05:30
Agartala,Tripura,23.8315,91.2868,23.7,87,0.0,1010.8,8.45,19.1,108,34.7,31.7,3,0,4,1,2026-04-09T08:07:07.658076+05:30
Shillong,Meghalaya,25.5788,91.8933,15.1,76,0.0,858.5,8.2,42.5,58,33.2,23.7,3,5,7,0,2026-04-09T08:07:07.658082+05:30
Imphal,Manipur,24.817,93.9368,17.1,86,0.0,926.8,8.15,58.0,73,22.4,17.8,3,10,7,0,2026-04-09T08:07:07.658087+05:30
Aizawl,Mizoram,23.7271,92.7176,20.1,80,0.0,896.0,8.05,49.3,65,22.1,18.8,3,5,7,1,2026-04-09T08:07:07.658093+05:30
Kohima,Nagaland,25.6701,94.1077,15.4,73,0.1,857.3,8.1,70.9,54,16.7,12.2,6,5,7,0,2026-04-09T08:07:07.658099+05:30
Gangtok,Sikkim,27.3314,88.6138,14.2,76,0.0,839.3,8.1,22.7,69,15.6,12.5,3,5,7,0,2026-04-09T08:07:07.658104+05:30
Siliguri,West Bengal,26.7271,88.3953,21.8,73,0.0,998.3,8.05,26.3,84,28.8,23.0,3,5,7,1,2026-04-09T08:07:10.879455+05:30
Durgapur,West Bengal,23.5204,87.3119,23.9,87,0.0,999.2,8.7,18.0,124,74.5,54.2,3,5,7,1,2026-04-09T08:07:10.879481+05:30
Asansol,West Bengal,23.6739,86.9524,24.1,84,0.0,998.0,8.7,18.4,125,100.6,49.4,3,5,7,1,2026-04-09T08:07:10.879493+05:30
Pondicherry,Puducherry,11.9139,79.8145,29.1,83,0.0,1011.1,9.3,34.2,70,22.4,16.9,7,0,4,1,2026-04-09T08:07:10.879502+05:30
Port Blair,Andaman and Nicobar Islands,11.6234,92.7265,28.5,79,0.0,1011.0,9.25,11.5,30,7.7,6.0,7,0,4,1,2026-04-09T08:07:10.879511+05:30
Haridwar,Uttarakhand,29.9457,78.1642,18.6,78,0.0,980.3,6.9,29.9,69,31.3,29.5,3,5,7,0,2026-04-09T08:07:10.879520+05:30
Rishikesh,Uttarakhand,30.0869,78.2676,18.1,78,0.0,972.8,6.95,33.1,53,19.5,16.6,3,5,7,0,2026-04-09T08:07:10.879528+05:30
Nainital,Uttarakhand,29.3919,79.4542,13.3,66,0.0,807.1,7.8,41.4,57,19.9,13.5,3,5,7,0,2026-04-09T08:07:10.879536+05:30
Mussoorie,Uttarakhand,30.4599,78.0664,11.0,77,0.0,803.1,7.25,26.6,65,25.7,23.9,3,5,7,0,2026-04-09T08:07:10.879543+05:30
Dharamshala,Himachal Pradesh,32.219,76.3234,14.3,65,0.0,871.0,7.5,21.6,58,5.4,4.7,3,5,7,0,2026-04-09T08:07:10.879551+05:30
Dalhousie,Himachal Pradesh,32.5387,75.971,10.2,65,0.0,803.8,7.7,18.4,56,24.4,20.9,3,5,7,0,2026-04-09T08:07:10.879561+05:30
Patiala,Punjab,30.3398,76.3869,17.7,89,0.0,984.7,6.9,23.0,78,47.3,37.7,3,10,7,0,2026-04-09T08:07:10.879570+05:30
Bhatinda,Punjab,30.211,74.9455,18.4,85,0.0,989.6,7.6,25.2,97,44.6,38.2,3,10,7,0,2026-04-09T08:07:10.879579+05:30
Rohtak,Haryana,28.8955,76.6066,18.6,88,0.0,987.8,7.05,21.6,141,67.5,58.9,3,10,7,1,2026-04-09T08:07:10.879588+05:30
Panipat,Haryana,29.3909,76.9635,17.6,89,0.0,986.6,6.9,20.2,122,67.1,54.1,3,10,7,0,2026-04-09T08:07:10.879597+05:30
Mathura,Uttar Pradesh,27.4924,77.6737,19.1,89,0.0,992.9,7.35,22.7,288,125.3,62.9,3,10,7,1,2026-04-09T08:07:10.879606+05:30
Vrindavan,Uttar Pradesh,27.5823,77.7027,19.0,88,0.0,993.5,7.35,23.8,288,125.3,62.9,3,10,7,1,2026-04-09T08:07:10.879614+05:30
Ayodhya,Uttar Pradesh,26.7922,82.1998,20.9,72,0.0,1001.7,7.7,33.8,117,81.0,59.4,3,5,4,0,2026-04-09T08:07:10.879623+05:30
Ratlam,Madhya Pradesh,23.3315,75.0367,23.3,86,0.0,957.3,8.25,27.4,64,42.1,23.1,3,5,7,1,2026-04-09T08:07:10.879632+05:30
Sagar,Madhya Pradesh,23.8388,78.7378,23.1,67,0.0,953.8,8.4,25.9,68,44.7,23.1,3,5,7,1,2026-04-09T08:07:10.879640+05:30
Satna,Madhya Pradesh,24.6005,80.8322,22.4,74,0.0,976.1,8.4,24.8,83,64.0,39.7,3,5,7,1,2026-04-09T08:07:10.879647+05:30
Akola,Maharashtra,20.7002,77.0082,25.7,70,0.0,978.4,8.7,29.5,68,40.3,22.5,7,5,7,1,2026-04-09T08:07:10.879654+05:30
Amravati,Maharashtra,20.9374,77.7796,25.6,58,0.0,970.3,8.7,20.2,68,34.9,22.4,4,5,7,1,2026-04-09T08:07:10.879661+05:30
Latur,Maharashtra,18.4088,76.5604,23.1,70,0.0,942.5,8.95,28.8,73,44.5,26.6,3,5,7,1,2026-04-09T08:07:10.879668+05:30
Nanded,Maharashtra,19.1383,77.3091,25.6,61,0.0,971.9,8.85,21.2,74,41.1,26.7,7,5,7,1,2026-04-09T08:07:10.879674+05:30
Gulbarga,Karnataka,17.3297,76.8343,27.5,47,0.0,961.5,9.05,32.0,76,29.8,21.6,4,5,7,0,2026-04-09T08:07:10.879680+05:30
Bidar,Karnataka,17.9104,77.5199,25.8,50,0.0,938.3,9.05,34.2,92,35.4,22.8,4,5,7,0,2026-04-09T08:07:10.879687+05:30
Hospet,Karnataka,15.2689,76.3909,26.1,72,0.0,958.5,9.2,21.6,64,38.1,22.6,7,5,7,1,2026-04-09T08:07:10.879693+05:30
Tirupur,Tamil Nadu,11.1085,77.3411,27.2,70,0.0,978.1,9.1,34.9,55,23.3,20.4,7,5,7,1,2026-04-09T08:07:10.879700+05:30
Alappuzha,Kerala,9.4981,76.3388,28.6,79,0.0,1011.2,8.65,28.8,59,29.7,22.5,7,0,4,1,2026-04-09T08:07:10.879706+05:30
Munnar,Kerala,10.0889,77.0595,22.9,83,0.0,859.6,7.85,32.8,62,17.0,15.1,3,5,7,1,2026-04-09T08:07:10.879713+05:30
Silchar,Assam,24.8333,92.7789,23.4,82,0.0,1009.8,4.65,26.6,81,32.9,30.2,3,0,0,1,2026-04-09T08:07:10.879720+05:30
Dibrugarh,Assam,27.4728,94.912,20.8,84,0.0,1001.4,6.2,18.0,88,42.5,30.5,3,5,4,1,2026-04-09T08:07:10.879747+05:30
