city,state,latitude,longitude,temp,humidity,rain,pressure,uv_index,wind_gusts,aqi,pm10,pm2_5,mosquito_risk,arthritis_risk,migraine_risk,frizz_risk,updated_at
Delhi,Delhi,28.6139,77.209,18.1,94,0.0,986.9,7.05,24.1,131,82.7,46.6,3,10,7,1,2026-04-09T03:13:01.673691+05:30
Mumbai,Maharashtra,19.076,72.8777,27.6,80,0.0,1009.1,7.95,20.5,76,80.1,19.3,7,0,4,1,2026-04-09T03:13:01.673735+05:30
Bangalore,Karnataka,12.9716,77.5946,23.4,81,0.0,911.6,9.6,27.0,73,32.2,30.2,3,5,7,1,2026-04-09T03:13:01.673751+05:30
Hyderabad,Telangana,17.385,78.4867,26.4,76,0.0,951.8,9.2,36.4,91,51.0,36.2,7,5,7,1,2026-04-09T03:13:01.673761+05:30
Chennai,Tamil Nadu,13.0827,80.2707,28.7,83,0.0,1007.0,9.35,40.0,75,20.5,15.3,7,5,4,1,2026-04-09T03:13:01.673770+05:30
Kolkata,West Bengal,22.5726,88.3639,23.8,94,0.0,1006.7,8.65,18.0,77,17.9,16.3,3,5,4,1,2026-04-09T03:13:01.673778+05:30
Pune,Maharashtra,18.5204,73.8567,21.2,88,0.0,948.8,8.55,32.4,72,42.5,19.5,3,5,7,1,2026-04-09T03:13:01.673790+05:30
Ahmedabad,Gujarat,23.0225,72.5714,24.4,51,0.0,1002.6,8.0,20.2,62,26.6,21.0,0,5,4,0,2026-04-09T03:13:01.673799+05:30
Jaipur,Rajasthan,26.9124,75.7873,20.3,67,0.0,961.5,7.7,29.5,137,437.7,71.0,3,5,7,0,2026-04-09T03:13:01.673807+05:30
Lucknow,Uttar Pradesh,26.8467,80.9462,18.5,87,0.0,997.2,7.55,31.0,104,66.4,47.4,3,10,7,1,2026-04-09T03:13:01.673814+05:30
Kanpur,Uttar Pradesh,26.4499,80.3319,18.7,88,0.0,995.1,7.6,29.5,120,78.9,36.3,3,10,7,1,2026-04-09T03:13:01.673821+05:30
Chandigarh,Chandigarh,30.7333,76.7794,15.8,86,0.0,972.3,7.05,25.6,73,25.6,23.3,3,10,7,0,2026-04-09T03:13:01.673829+05:30
Srinagar,Jammu and Kashmir,34.0837,74.7973,5.8,90,0.0,839.5,8.0,16.9,42,12.0,11.7,3,10,7,0,2026-04-09T03:13:01.673836+05:30
Jammu,Jammu and Kashmir,32.7266,74.857,14.1,94,0.0,976.9,7.65,22.3,65,33.3,31.3,3,10,7,0,2026-04-09T03:13:01.673844+05:30
Amritsar,Punjab,31.634,74.8723,14.9,95,0.0,985.4,7.6,24.8,86,45.4,34.8,3,10,7,0,2026-04-09T03:13:01.673850+05:30
Ludhiana,Punjab,30.901,75.8573,15.8,95,0.0,983.0,7.25,22.7,89,60.3,47.7,3,10,7,0,2026-04-09T03:13:01.673857+05:30
Jalandhar,Punjab,31.326,75.5762,15.2,95,0.0,984.2,7.4,27.0,85,53.9,40.9,3,10,7,0,2026-04-09T03:13:01.673866+05:30
Dehradun,Uttarakhand,30.6284,78.0322,7.1,84,0.0,827.8,7.4,23.0,46,6.8,4.6,3,10,7,0,2026-04-09T03:13:01.673873+05:30
Shimla,Himachal Pradesh,31.1048,77.1734,5.8,84,0.0,780.9,7.5,28.4,47,4.3,4.1,3,10,7,0,2026-04-09T03:13:01.673880+05:30
Manali,Himachal Pradesh,32.2396,77.1887,7.4,64,0.0,814.7,9.75,22.3,81,2.4,2.3,3,5,7,0,2026-04-09T03:13:01.673887+05:30
Gurgaon,Haryana,28.4595,77.0266,18.0,94,0.0,985.0,7.2,19.4,362,288.7,68.0,3,10,7,1,2026-04-09T03:13:01.673893+05:30
Noida,Uttar Pradesh,28.5355,77.391,18.0,95,0.0,988.5,7.1,22.7,362,288.7,68.0,3,10,7,1,2026-04-09T03:13:01.673900+05:30
Ghaziabad,Uttar Pradesh,28.6692,77.4538,17.3,97,0.0,986.7,7.05,22.7,107,54.6,42.6,3,10,7,1,2026-04-09T03:13:01.673907+05:30
Faridabad,Haryana,28.4089,77.3178,18.0,93,0.0,987.6,7.15,22.3,362,288.7,68.0,3,10,7,1,2026-04-09T03:13:01.673913+05:30
Meerut,Uttar Pradesh,28.9845,77.7064,16.6,98,0.0,985.6,6.95,27.0,107,54.6,42.6,3,10,7,1,2026-04-09T03:13:01.673919+05:30
Agra,Uttar Pradesh,27.1767,78.0081,17.7,94,0.0,991.4,7.45,20.2,484,713.4,101.0,3,10,7,1,2026-04-09T03:13:01.673926+05:30
Varanasi,Uttar Pradesh,25.3176,82.9739,20.0,80,0.0,1000.2,8.2,25.6,97,50.8,41.0,3,5,4,1,2026-04-09T03:13:01.673936+05:30
Prayagraj,Uttar Pradesh,25.4358,81.8463,20.6,78,0.0,999.0,8.05,25.2,94,45.5,36.3,3,5,7,1,2026-04-09T03:13:01.673943+05:30
Gorakhpur,Uttar Pradesh,26.7606,83.3732,17.5,83,0.0,1000.4,7.95,34.2,105,94.5,77.1,3,10,4,0,2026-04-09T03:13:01.673951+05:30
Bareilly,Uttar Pradesh,28.367,79.4304,15.8,96,0.0,991.1,7.3,33.1,94,61.7,34.3,3,10,7,0,2026-04-09T03:13:01.673957+05:30
Aligarh,Uttar Pradesh,27.8974,78.088,17.1,98,0.0,989.3,7.2,27.7,139,175.6,52.7,3,10,7,1,2026-04-09T03:13:01.673964+05:30
Moradabad,Uttar Pradesh,28.8386,78.7733,15.8,97,0.0,988.0,7.15,31.7,102,64.0,39.6,3,10,7,0,2026-04-09T03:13:01.673972+05:30
Saharanpur,Uttar Pradesh,29.9637,77.546,15.4,95,0.0,979.7,6.75,26.3,102,50.3,44.8,3,10,7,0,2026-04-09T03:13:01.673978+05:30
Jhansi,Uttar Pradesh,25.4484,78.5685,19.9,84,0.0,980.6,8.0,25.2,78,109.0,42.7,3,10,7,1,2026-04-09T03:13:04.898149+05:30
Surat,Gujarat,21.1702,72.8311,26.3,76,0.0,1007.4,7.7,26.3,70,46.2,24.3,7,5,4,1,2026-04-09T03:13:04.898179+05:30
Vadodara,Gujarat,22.3072,73.1812,25.6,75,0.0,1004.5,8.0,20.2,63,22.8,15.4,7,5,4,1,2026-04-09T03:13:04.898190+05:30
Rajkot,Gujarat,22.3039,70.8022,22.4,85,0.0,994.7,7.7,22.0,51,27.2,15.0,3,5,7,1,2026-04-09T03:13:04.898197+05:30
Thane,Maharashtra,19.2183,72.9781,27.0,81,0.0,1008.6,7.95,33.5,76,80.1,19.3,7,0,4,1,2026-04-09T03:13:04.898204+05:30
Nagpur,Maharashtra,21.1458,79.0882,24.3,58,0.0,972.6,8.75,20.5,84,61.9,30.9,0,5,7,0,2026-04-09T03:13:04.898211+05:30
Nashik,Maharashtra,19.9975,73.7898,21.8,90,0.0,945.9,8.2,25.2,65,43.1,16.1,3,5,7,1,2026-04-09T03:13:04.898219+05:30
Aurangabad,Maharashtra,19.8762,75.3433,22.3,81,0.0,944.3,8.9,32.4,64,34.8,16.0,3,5,7,1,2026-04-09T03:13:04.898226+05:30
Solapur,Maharashtra,17.6599,75.9064,25.5,50,0.0,956.9,9.0,24.5,73,36.3,19.5,4,5,7,0,2026-04-09T03:13:04.898233+05:30
Kolhapur,Maharashtra,16.705,74.2433,19.7,91,0.0,947.5,9.0,36.7,79,49.9,22.7,3,10,7,1,2026-04-09T03:13:04.898240+05:30
Goa,Goa,15.2993,74.124,27.1,78,0.0,998.2,9.0,35.6,70,64.7,24.0,7,5,7,1,2026-04-09T03:13:04.898247+05:30
Jodhpur,Rajasthan,26.2389,73.0243,23.2,42,0.0,984.0,8.0,26.3,97,123.4,25.1,0,5,7,0,2026-04-09T03:13:04.898254+05:30
Udaipur,Rajasthan,24.5854,73.7125,19.8,54,0.0,946.5,8.5,38.2,59,60.8,18.0,0,5,7,0,2026-04-09T03:13:04.898261+05:30
Kota,Rajasthan,25.2138,75.8648,22.1,67,0.0,980.0,8.0,20.9,105,86.4,35.9,3,5,7,0,2026-04-09T03:13:04.898268+05:30
Bikaner,Rajasthan,28.0229,73.3119,22.7,41,0.0,983.9,7.8,22.3,60,59.0,20.0,0,5,7,0,2026-04-09T03:13:04.898276+05:30
Ajmer,Rajasthan,26.4499,74.6399,21.5,50,0.0,955.2,7.95,25.2,82,80.6,27.4,0,5,7,0,2026-04-09T03:13:04.898282+05:30
Gwalior,Madhya Pradesh,26.2183,78.1828,19.0,89,0.0,986.3,7.75,25.9,86,220.7,60.3,3,10,7,1,2026-04-09T03:13:04.898289+05:30
Indore,Madhya Pradesh,22.7196,75.8577,21.1,65,0.0,948.0,8.4,23.4,72,44.0,28.8,3,5,7,0,2026-04-09T03:13:04.898295+05:30
Bhopal,Madhya Pradesh,23.2599,77.4126,22.3,53,0.0,953.8,8.4,24.1,70,42.4,23.7,0,5,7,0,2026-04-09T03:13:04.898302+05:30
Jabalpur,Madhya Pradesh,23.1815,79.9864,23.2,65,0.0,961.6,8.55,25.9,106,102.7,61.7,3,5,7,1,2026-04-09T03:13:04.898308+05:30
Ujjain,Madhya Pradesh,23.1765,75.7885,22.3,58,0.0,953.8,8.35,20.9,67,42.6,28.5,0,5,7,0,2026-04-09T03:13:04.898316+05:30
Visakhapatnam,Andhra Pradesh,17.6868,83.2185,27.2,93,0.0,1003.0,9.15,43.6,86,33.1,30.4,7,5,4,1,2026-04-09T03:13:04.898323+05:30
Vijayawada,Andhra Pradesh,16.5062,80.648,27.7,88,0.0,1001.9,9.2,34.2,94,22.4,19.4,7,5,4,1,2026-04-09T03:13:04.898330+05:30
Guntur,Andhra Pradesh,16.3067,80.4365,28.0,87,0.0,1003.0,9.2,31.0,91,23.1,20.2,7,5,4,1,2026-04-09T03:13:04.898336+05:30
Nellore,Andhra Pradesh,14.4426,79.9865,28.0,88,0.0,1004.9,9.3,36.4,89,27.1,24.2,7,5,4,1,2026-04-09T03:13:04.898344+05:30
Kurnool,Andhra Pradesh,15.8281,78.0373,28.3,63,0.0,975.4,9.2,32.4,77,40.0,31.8,7,5,7,1,2026-04-09T03:13:04.898351+05:30
Kakinada,Andhra Pradesh,16.9891,82.2475,26.9,94,0.0,1007.0,9.15,28.1,78,31.2,25.2,7,5,4,1,2026-04-09T03:13:04.898358+05:30
Tirupati,Andhra Pradesh,13.6288,79.4192,27.1,88,0.0,991.9,9.35,33.1,106,32.5,29.7,7,5,7,1,2026-04-09T03:13:04.898364+05:30
Warangal,Telangana,17.9689,79.5941,27.3,80,0.0,977.5,9.05,23.8,104,37.6,36.7,7,5,7,1,2026-04-09T03:13:04.898370+05:30
Nizamabad,Telangana,18.6725,78.0941,25.6,58,0.0,964.2,9.0,28.1,103,73.3,41.0,4,5,7,1,2026-04-09T03:13:04.898376+05:30
Mysore,Karnataka,12.2958,76.6396,22.7,89,0.0,928.4,9.55,35.3,50,21.7,17.0,3,5,7,1,2026-04-09T03:13:04.898383+05:30
Mangalore,Karnataka,12.9141,74.856,28.8,79,0.0,1007.0,9.15,35.3,66,63.8,26.4,7,5,4,1,2026-04-09T03:13:04.898389+05:30
Hubli-Dharwad,Karnataka,15.3647,75.124,21.4,94,0.0,940.3,9.2,40.0,65,40.2,18.7,3,5,7,1,2026-04-09T03:13:04.898396+05:30
Belgaum,Karnataka,15.8497,74.4977,18.9,97,0.0,924.7,9.25,36.0,75,62.4,26.3,3,10,7,1,2026-04-09T03:13:08.124779+05:30
Coimbatore,Tamil Nadu,11.0168,76.9558,24.6,75,0.0,962.4,9.45,49.0,54,20.5,17.1,3,5,7,1,2026-04-09T03:13:08.124811+05:30
Madurai,Tamil Nadu,9.9252,78.1198,26.8,80,0.0,993.4,9.4,41.0,104,41.3,37.5,7,5,7,1,2026-04-09T03:13:08.124821+05:30
Trichy,Tamil Nadu,10.7905,78.7047,27.4,88,0.0,1000.2,9.4,28.1,93,27.5,24.8,7,5,4,1,2026-04-09T03:13:08.124830+05:30
Salem,Tamil Nadu,11.6643,78.146,24.9,87,0.0,978.2,9.0,22.3,73,32.0,28.9,3,5,7,1,2026-04-09T03:13:08.124838+05:30
Tirunelveli,Tamil Nadu,8.7139,77.7567,27.1,80,0.0,1003.3,9.0,41.0,71,20.1,15.7,7,5,4,1,2026-04-09T03:13:08.124847+05:30
Vellore,Tamil Nadu,12.9165,79.1325,27.2,86,0.0,984.7,9.45,23.8,109,38.9,35.3,7,5,7,1,2026-04-09T03:13:08.124855+05:30
Erode,Tamil Nadu,11.341,77.7172,26.7,79,0.0,989.8,9.45,27.7,60,21.0,17.5,7,5,7,1,2026-04-09T03:13:08.124863+05:30
Kochi,Kerala,9.9312,76.2673,29.0,77,0.0,1009.2,9.0,33.8,66,42.0,37.4,7,0,4,1,2026-04-09T03:13:08.124871+05:30
Thiruvananthapuram,Kerala,8.5241,76.9366,29.0,76,0.0,1008.3,9.15,39.6,55,25.3,14.1,7,0,4,1,2026-04-09T03:13:08.124879+05:30
Kozhikode,Kerala,11.2588,75.7804,29.0,78,0.0,1008.3,9.15,30.6,52,52.5,21.0,7,0,4,1,2026-04-09T03:13:08.124886+05:30
Thrissur,Kerala,10.5276,76.2144,27.6,84,0.0,1007.5,9.15,34.6,63,34.3,30.0,7,5,4,1,2026-04-09T03:13:08.124895+05:30
Kannur,Kerala,11.8745,75.3704,27.9,81,0.0,1007.5,9.15,39.2,57,57.3,24.4,7,5,4,1,2026-04-09T03:13:08.124902+05:30
Patna,Bihar,25.5941,85.1376,21.1,80,0.0,1002.8,8.3,27.0,95,42.1,31.3,3,5,4,1,2026-04-09T03:13:08.124910+05:30
Gaya,Bihar,24.7914,85.0002,22.1,92,0.0,995.9,8.4,22.3,100,52.5,45.4,3,5,7,1,2026-04-09T03:13:08.124917+05:30
Muzaffarpur,Bihar,26.1209,85.3647,19.4,82,0.0,1003.0,8.3,25.9,106,47.5,33.5,3,10,4,1,2026-04-09T03:13:08.124924+05:30
Bhagalpur,Bihar,25.2425,87.0117,21.3,91,0.0,1003.6,8.3,21.2,122,41.1,34.1,3,5,4,1,2026-04-09T03:13:08.124932+05:30
Ranchi,Jharkhand,23.3441,85.3096,20.2,95,0.0,937.9,8.8,27.4,112,88.7,56.1,3,5,7,1,2026-04-09T03:13:08.124939+05:30
Jamshedpur,Jharkhand,22.8046,86.2029,22.3,89,0.0,991.9,8.6,15.1,125,62.9,58.0,3,5,7,1,2026-04-09T03:13:08.124946+05:30
Dhanbad,Jharkhand,23.7957,86.4304,22.5,89,0.0,981.0,8.7,20.9,156,105.7,96.9,3,5,7,1,2026-04-09T03:13:08.124953+05:30
Bokaro,Jharkhand,23.6693,86.1511,22.2,91,0.0,985.3,8.7,23.8,159,113.4,94.8,3,5,7,1,2026-04-09T03:13:08.124960+05:30
Bhubaneswar,Odisha,20.2961,85.8245,26.3,94,0.0,1001.8,9.0,29.9,71,29.8,27.8,7,5,4,1,2026-04-09T03:13:08.124967+05:30
Cuttack,Odisha,20.4625,85.8828,25.8,96,0.0,1003.9,9.05,27.7,71,29.8,27.8,7,5,4,1,2026-04-09T03:13:08.124974+05:30
Rourkela,Odisha,22.2604,84.8536,22.7,89,0.0,985.9,8.4,17.3,123,59.8,45.2,3,5,7,1,2026-04-09T03:13:08.124981+05:30
Raipur,Chhattisgarh,21.2514,81.6296,26.3,56,0.0,974.1,8.85,29.9,110,83.1,47.8,4,5,7,1,2026-04-09T03:13:08.124989+05:30
Bhilai,Chhattisgarh,21.1938,81.3509,26.1,59,0.0,974.5,8.85,25.2,99,69.2,39.5,4,5,7,1,2026-04-09T03:13:08.124996+05:30
Guwahati,Assam,26.1158,91.7086,22.4,88,0.0,1003.0,8.0,25.2,79,37.0,33.2,3,5,4,1,2026-04-09T03:13:08.125003+05:30
Agartala,Tripura,23.8315,91.2868,21.7,96,0.4,1008.5,7.8,25.9,90,36.2,33.2,6,0,4,1,2026-04-09T03:13:08.125010+05:30
Shillong,Meghalaya,25.5788,91.8933,12.0,88,0.2,855.3,7.85,42.1,61,19.0,15.4,6,10,7,0,2026-04-09T03:13:08.125018+05:30
Imphal,Manipur,24.817,93.9368,16.1,79,0.0,923.7,8.8,54.0,71,43.4,40.2,3,5,7,0,2026-04-09T03:13:08.125025+05:30
Aizawl,Mizoram,23.7271,92.7176,17.1,82,0.0,893.0,3.3,50.8,64,27.5,24.3,3,10,3,0,2026-04-09T03:13:08.125032+05:30
Kohima,Nagaland,25.6701,94.1077,13.5,74,0.0,854.5,8.65,68.4,54,23.7,20.4,3,5,7,0,2026-04-09T03:13:08.125039+05:30
Gangtok,Sikkim,27.3314,88.6138,11.1,85,0.0,835.7,5.6,16.9,59,25.5,20.2,3,10,3,0,2026-04-09T03:13:08.125046+05:30
Siliguri,West Bengal,26.7271,88.3953,18.0,78,0.0,995.9,7.7,31.3,89,46.2,38.2,3,5,7,0,2026-04-09T03:13:11.366374+05:30
Durgapur,West Bengal,23.5204,87.3119,22.7,94,0.0,996.4,8.7,14.8,136,70.1,65.9,3,5,7,1,2026-04-09T03:13:11.366403+05:30
Asansol,West Bengal,23.6739,86.9524,22.9,92,0.0,994.8,8.7,18.7,140,81.0,75.0,3,5,7,1,2026-04-09T03:13:11.366413+05:30
Pondicherry,Puducherry,11.9139,79.8145,27.7,93,0.0,1008.7,9.3,34.6,74,19.2,13.3,7,0,4,1,2026-04-09T03:13:11.366422+05:30
Port Blair,Andaman and Nicobar Islands,11.6234,92.7265,28.7,78,0.0,1007.2,9.25,12.2,30,10.0,7.0,7,5,4,1,2026-04-09T03:13:11.366430+05:30
Haridwar,Uttarakhand,29.9457,78.1642,14.4,94,0.0,978.2,6.9,30.2,79,33.4,29.8,3,10,7,0,2026-04-09T03:13:11.366438+05:30
Rishikesh,Uttarakhand,30.0869,78.2676,13.3,90,0.0,970.6,6.95,31.3,57,19.1,13.3,3,10,7,0,2026-04-09T03:13:11.366446+05:30
Nainital,Uttarakhand,29.3919,79.4542,10.6,71,0.0,803.9,7.8,41.0,64,11.5,10.2,3,5,7,0,2026-04-09T03:13:11.366453+05:30
Mussoorie,Uttarakhand,30.4599,78.0664,8.4,80,0.0,800.2,7.3,28.1,63,19.4,15.9,3,5,7,0,2026-04-09T03:13:11.366460+05:30
Dharamshala,Himachal Pradesh,32.219,76.3234,12.4,64,0.0,868.5,7.5,24.1,55,2.3,2.0,3,5,7,0,2026-04-09T03:13:11.366467+05:30
Dalhousie,Himachal Pradesh,32.5387,75.971,8.5,62,0.0,801.2,7.75,18.4,59,22.7,17.9,3,5,7,0,2026-04-09T03:13:11.366475+05:30
Patiala,Punjab,30.3398,76.3869,15.8,95,0.0,982.3,6.9,25.2,86,43.7,33.5,3,10,7,0,2026-04-09T03:13:11.366483+05:30
Bhatinda,Punjab,30.211,74.9455,17.0,90,0.0,987.6,7.6,22.0,96,54.7,31.3,3,10,7,0,2026-04-09T03:13:11.366490+05:30
Rohtak,Haryana,28.8955,76.6066,17.1,96,0.0,985.4,7.1,21.2,141,91.0,46.0,3,10,7,1,2026-04-09T03:13:11.366498+05:30
Panipat,Haryana,29.3909,76.9635,16.2,98,0.0,984.3,6.9,24.8,121,57.4,39.1,3,10,7,0,2026-04-09T03:13:11.366504+05:30
Mathura,Uttar Pradesh,27.4924,77.6737,17.4,94,0.0,990.5,7.4,19.4,311,434.9,76.4,3,10,7,1,2026-04-09T03:13:11.366511+05:30
Vrindavan,Uttar Pradesh,27.5823,77.7027,17.2,95,0.0,990.9,7.35,20.9,311,434.9,76.4,3,10,7,1,2026-04-09T03:13:11.366518+05:30
Ayodhya,Uttar Pradesh,26.7922,82.1998,17.7,87,0.0,998.8,7.7,31.3,99,65.0,50.8,3,10,7,0,2026-04-09T03:13:11.366526+05:30
Ratlam,Madhya Pradesh,23.3315,75.0367,22.8,62,0.0,954.7,8.3,24.8,62,37.4,21.9,3,5,7,0,2026-04-09T03:13:11.366532+05:30
Sagar,Madhya Pradesh,23.8388,78.7378,21.5,67,0.0,950.7,8.4,25.2,73,63.3,26.7,3,5,7,0,2026-04-09T03:13:11.366539+05:30
Satna,Madhya Pradesh,24.6005,80.8322,21.4,75,0.0,973.2,8.4,26.6,78,46.4,35.3,3,5,7,1,2026-04-09T03:13:11.366570+05:30
Akola,Maharashtra,20.7002,77.0082,23.6,62,0.0,975.3,8.7,32.8,67,39.0,22.3,3,5,7,0,2026-04-09T03:13:11.366580+05:30
Amravati,Maharashtra,20.9374,77.7796,23.9,60,0.0,967.0,8.75,20.5,68,36.1,21.1,0,5,7,0,2026-04-09T03:13:11.366587+05:30
Latur,Maharashtra,18.4088,76.5604,22.4,61,0.0,939.3,8.95,29.2,72,41.6,22.8,3,5,7,0,2026-04-09T03:13:11.366594+05:30
Nanded,Maharashtra,19.1383,77.3091,24.2,66,0.0,968.5,8.9,22.0,75,32.4,20.1,3,5,7,1,2026-04-09T03:13:11.366600+05:30
Gulbarga,Karnataka,17.3297,76.8343,27.2,43,0.0,958.3,9.05,31.3,76,29.3,19.3,4,5,7,0,2026-04-09T03:13:11.366607+05:30
Bidar,Karnataka,17.9104,77.5199,25.3,52,0.0,934.8,9.05,34.2,89,89.4,43.1,4,5,7,0,2026-04-09T03:13:11.366614+05:30
Hospet,Karnataka,15.2689,76.3909,26.8,71,0.0,955.6,9.2,20.9,65,33.3,19.6,7,5,7,1,2026-04-09T03:13:11.366621+05:30
Tirupur,Tamil Nadu,11.1085,77.3411,25.8,79,0.0,975.8,9.45,36.7,59,23.4,20.1,7,5,7,1,2026-04-09T03:13:11.366628+05:30
Alappuzha,Kerala,9.4981,76.3388,29.3,75,0.0,1009.0,8.7,29.5,60,27.0,19.4,7,0,4,1,2026-04-09T03:13:11.366635+05:30
Munnar,Kerala,10.0889,77.0595,20.6,96,0.0,857.0,9.45,35.3,59,15.9,13.4,3,5,7,1,2026-04-09T03:13:11.366642+05:30
Silchar,Assam,24.8333,92.7789,22.0,82,0.0,1007.4,6.3,28.1,90,46.0,42.6,3,5,4,1,2026-04-09T03:13:11.366649+05:30
Dibrugarh,Assam,27.4728,94.912,20.8,85,0.0,998.5,5.05,26.3,70,26.3,22.9,3,5,3,1,2026-04-09T03:13:11.366656+05:30
