city,state,latitude,longitude,temp,humidity,rain,pressure,uv_index,wind_gusts,aqi,pm10,pm2_5,no2,co,o3,so2,mosquito_risk,arthritis_risk,migraine_risk,frizz_risk,updated_at
Delhi,Delhi,28.6139,77.209,33.5,42,0.0,980.2,7.8,34.6,440,190.9,56.2,15.8,392.0,99.0,16.3,0,5,7,1,2026-06-22T10:14:03.754049+05:30
Mumbai,Maharashtra,19.076,72.8777,29.2,79,0.0,1007.8,7.7,42.8,39,9.7,8.2,11.6,245.0,54.0,16.7,7,5,4,1,2026-06-22T10:14:03.754093+05:30
Bangalore,Karnataka,12.9716,77.5946,26.5,62,0.0,913.9,9.0,39.2,38,8.4,7.1,8.7,334.0,50.0,5.6,7,5,7,1,2026-06-22T10:14:03.754109+05:30
Hyderabad,Telangana,17.385,78.4867,30.7,60,0.0,954.2,9.05,34.2,59,7.1,6.5,5.2,278.0,64.0,6.7,0,5,7,1,2026-06-22T10:14:03.754119+05:30
Chennai,Tamil Nadu,13.0827,80.2707,30.6,70,0.0,1008.1,8.7,37.1,71,20.7,16.8,13.5,402.0,63.0,17.6,3,0,4,1,2026-06-22T10:14:03.754128+05:30
Kolkata,West Bengal,22.5726,88.3639,28.7,84,0.0,1004.3,8.9,32.8,127,46.1,42.8,11.8,758.0,114.0,11.0,7,5,4,1,2026-06-22T10:14:03.754136+05:30
Pune,Maharashtra,18.5204,73.8567,29.5,58,0.1,948.0,8.1,45.4,37,4.6,4.1,5.6,142.0,54.0,6.0,7,5,7,1,2026-06-22T10:14:03.754143+05:30
Ahmedabad,Gujarat,23.0225,72.5714,33.6,49,0.0,1000.6,8.0,40.7,73,49.9,19.3,3.6,142.0,57.0,5.7,0,5,4,1,2026-06-22T10:14:03.754150+05:30
Jaipur,Rajasthan,26.9124,75.7873,29.9,57,0.0,958.0,8.2,60.5,114,296.2,56.7,4.5,194.0,76.0,5.5,4,5,7,1,2026-06-22T10:14:03.754157+05:30
Lucknow,Uttar Pradesh,26.8467,80.9462,36.9,37,0.0,989.8,8.35,34.2,193,276.6,71.7,6.4,196.0,121.0,9.5,0,5,10,1,2026-06-22T10:14:03.754169+05:30
Kanpur,Uttar Pradesh,26.4499,80.3319,36.7,37,0.0,988.5,8.3,37.4,244,231.4,48.5,6.0,154.0,111.0,7.7,0,5,10,1,2026-06-22T10:14:03.754175+05:30
Chandigarh,Chandigarh,30.7333,76.7794,33.8,33,0.0,966.1,7.45,32.4,94,57.5,36.3,8.2,607.0,150.0,16.7,0,5,7,0,2026-06-22T10:14:03.754182+05:30
Srinagar,Jammu and Kashmir,34.0837,74.7973,20.3,68,0.0,842.4,9.0,30.6,68,18.7,14.2,4.6,434.0,115.0,3.9,3,5,7,0,2026-06-22T10:14:03.754189+05:30
Jammu,Jammu and Kashmir,32.7266,74.857,29.2,49,0.0,971.4,8.6,62.3,70,20.3,16.2,10.2,324.0,129.0,4.1,4,5,7,1,2026-06-22T10:14:03.754195+05:30
Amritsar,Punjab,31.634,74.8723,30.5,52,0.0,978.7,8.25,23.4,127,48.4,37.3,14.4,287.0,98.0,8.9,0,5,7,1,2026-06-22T10:14:03.754202+05:30
Ludhiana,Punjab,30.901,75.8573,33.2,33,0.0,976.2,6.65,33.1,130,72.4,43.8,15.6,356.0,101.0,11.0,0,5,7,0,2026-06-22T10:14:03.754210+05:30
Jalandhar,Punjab,31.326,75.5762,32.6,40,0.0,977.2,6.55,28.4,137,51.6,39.2,14.3,341.0,101.0,7.1,0,5,7,1,2026-06-22T10:14:03.754220+05:30
Dehradun,Uttarakhand,30.6284,78.0322,24.3,51,0.0,831.7,7.7,29.5,62,24.4,17.2,0.3,194.0,141.0,1.5,0,5,7,0,2026-06-22T10:14:03.754227+05:30
Shimla,Himachal Pradesh,31.1048,77.1734,22.0,44,0.0,786.8,6.45,28.1,76,33.9,20.3,1.2,226.0,136.0,3.9,0,5,7,0,2026-06-22T10:14:03.754233+05:30
Manali,Himachal Pradesh,32.2396,77.1887,17.5,89,0.2,819.5,9.45,44.3,78,6.6,4.3,6.0,147.0,134.0,0.3,6,10,7,0,2026-06-22T10:14:03.754244+05:30
Gurgaon,Haryana,28.4595,77.0266,32.3,48,0.0,978.8,7.8,36.7,855,451.7,84.3,15.3,263.0,95.0,14.9,0,5,7,1,2026-06-22T10:14:03.754251+05:30
Noida,Uttar Pradesh,28.5355,77.391,34.2,41,0.0,981.4,7.8,27.4,855,451.7,84.3,15.3,411.0,95.0,14.9,0,5,7,1,2026-06-22T10:14:03.754257+05:30
Ghaziabad,Uttar Pradesh,28.6692,77.4538,34.2,40,0.0,979.7,7.8,31.3,378,225.4,74.3,13.0,287.0,132.0,18.9,0,5,7,1,2026-06-22T10:14:03.754263+05:30
Faridabad,Haryana,28.4089,77.3178,34.1,40,0.0,980.8,7.85,33.8,855,451.7,84.3,15.3,304.0,95.0,14.9,0,5,7,1,2026-06-22T10:14:03.754269+05:30
Meerut,Uttar Pradesh,28.9845,77.7064,32.9,49,0.0,978.7,7.6,37.8,378,225.4,74.3,13.0,236.0,132.0,18.9,0,5,7,1,2026-06-22T10:14:03.754275+05:30
Agra,Uttar Pradesh,27.1767,78.0081,34.1,43,0.0,984.8,7.5,36.4,330,605.4,88.9,10.4,170.0,90.0,6.8,0,5,7,1,2026-06-22T10:14:03.754282+05:30
Varanasi,Uttar Pradesh,25.3176,82.9739,35.2,48,0.0,993.9,8.8,31.3,114,61.9,31.0,3.2,205.0,107.0,6.2,0,5,10,1,2026-06-22T10:14:03.754289+05:30
Prayagraj,Uttar Pradesh,25.4358,81.8463,36.9,39,0.0,992.4,8.75,37.8,108,125.7,43.5,4.5,163.0,103.0,7.3,0,5,10,1,2026-06-22T10:14:03.754295+05:30
Gorakhpur,Uttar Pradesh,26.7606,83.3732,33.6,60,0.0,993.4,8.7,30.2,162,94.8,52.4,5.5,256.0,147.0,11.8,0,5,7,1,2026-06-22T10:14:03.754301+05:30
Bareilly,Uttar Pradesh,28.367,79.4304,34.7,45,0.0,983.3,7.95,30.6,160,297.1,97.6,10.9,319.0,134.0,14.2,0,5,7,1,2026-06-22T10:14:03.754309+05:30
Aligarh,Uttar Pradesh,27.8974,78.088,33.5,46,0.0,982.5,7.95,32.8,595,386.5,91.3,10.3,177.0,100.0,12.5,0,5,7,1,2026-06-22T10:14:03.754316+05:30
Moradabad,Uttar Pradesh,28.8386,78.7733,33.8,46,0.0,980.5,7.9,33.5,168,252.4,107.3,10.5,324.0,146.0,12.2,0,5,7,1,2026-06-22T10:14:03.754322+05:30
Saharanpur,Uttar Pradesh,29.9637,77.546,32.7,52,0.0,972.9,7.05,31.7,155,70.8,49.1,13.8,418.0,148.0,15.0,0,5,7,1,2026-06-22T10:14:03.754344+05:30
Jhansi,Uttar Pradesh,25.4484,78.5685,34.8,45,0.0,975.9,7.85,37.4,89,75.7,33.5,2.3,148.0,84.0,5.8,0,5,7,1,2026-06-22T10:14:06.978211+05:30
Surat,Gujarat,21.1702,72.8311,30.3,68,0.0,1005.9,4.3,41.0,58,22.8,18.9,21.3,385.0,30.0,74.8,3,5,0,1,2026-06-22T10:14:06.978247+05:30
Vadodara,Gujarat,22.3072,73.1812,33.9,48,0.0,1002.8,7.95,41.0,52,25.8,13.2,4.4,148.0,56.0,5.5,0,5,4,1,2026-06-22T10:14:06.978258+05:30
Rajkot,Gujarat,22.3039,70.8022,33.4,49,0.0,992.3,7.55,45.4,69,42.7,15.8,2.2,111.0,58.0,3.9,0,5,7,1,2026-06-22T10:14:06.978267+05:30
Thane,Maharashtra,19.2183,72.9781,30.7,73,0.0,1007.0,7.7,36.0,39,9.7,8.2,11.6,200.0,54.0,16.7,3,5,4,1,2026-06-22T10:14:06.978274+05:30
Nagpur,Maharashtra,21.1458,79.0882,35.3,42,0.0,972.3,7.0,56.2,66,28.9,19.5,9.4,158.0,103.0,23.8,0,5,10,1,2026-06-22T10:14:06.978282+05:30
Nashik,Maharashtra,19.9975,73.7898,28.2,66,0.0,945.3,7.5,41.0,28,8.6,6.5,5.5,123.0,49.0,10.1,7,5,7,1,2026-06-22T10:14:06.978290+05:30
Aurangabad,Maharashtra,19.8762,75.3433,31.3,52,0.0,944.2,8.15,72.0,36,11.3,8.6,3.6,136.0,75.0,8.8,0,5,7,1,2026-06-22T10:14:06.978297+05:30
Solapur,Maharashtra,17.6599,75.9064,31.4,56,0.0,957.8,8.9,50.4,33,5.8,5.5,2.1,116.0,61.0,1.7,0,5,7,1,2026-06-22T10:14:06.978304+05:30
Kolhapur,Maharashtra,16.705,74.2433,29.6,57,0.0,948.5,8.7,56.2,22,5.0,4.1,2.5,127.0,55.0,1.9,4,5,7,1,2026-06-22T10:14:06.978312+05:30
Goa,Goa,15.2993,74.124,26.8,92,0.1,999.5,7.4,41.0,22,5.9,4.0,1.3,128.0,54.0,0.8,10,5,7,1,2026-06-22T10:14:06.978319+05:30
Jodhpur,Rajasthan,26.2389,73.0243,32.7,49,0.0,980.9,8.4,38.5,139,242.1,56.0,1.5,111.0,62.0,3.8,0,5,7,1,2026-06-22T10:14:06.978325+05:30
Udaipur,Rajasthan,24.5854,73.7125,30.4,54,0.0,945.5,8.8,37.4,72,68.5,25.1,1.2,107.0,65.0,3.0,0,5,7,1,2026-06-22T10:14:06.978350+05:30
Kota,Rajasthan,25.2138,75.8648,33.3,50,0.0,977.5,8.35,24.8,94,38.8,19.8,4.5,144.0,75.0,10.3,0,5,7,1,2026-06-22T10:14:06.978357+05:30
Bikaner,Rajasthan,28.0229,73.3119,34.4,44,0.0,979.0,8.45,38.9,151,369.7,113.6,0.7,114.0,67.0,1.8,0,5,7,1,2026-06-22T10:14:06.978364+05:30
Ajmer,Rajasthan,26.4499,74.6399,30.9,52,0.0,953.1,8.35,43.6,96,134.1,41.3,2.3,118.0,71.0,3.5,0,5,7,1,2026-06-22T10:14:06.978372+05:30
Gwalior,Madhya Pradesh,26.2183,78.1828,34.6,42,0.0,980.9,8.1,41.8,85,79.2,33.4,2.2,142.0,82.0,3.5,0,5,7,1,2026-06-22T10:14:06.978379+05:30
Indore,Madhya Pradesh,22.7196,75.8577,30.3,57,0.0,947.8,7.45,49.7,79,25.7,15.1,5.0,175.0,66.0,10.3,0,5,7,1,2026-06-22T10:14:06.978386+05:30
Bhopal,Madhya Pradesh,23.2599,77.4126,30.4,54,0.0,953.2,8.0,51.8,94,43.7,23.2,2.3,197.0,96.0,6.2,0,5,7,1,2026-06-22T10:14:06.978393+05:30
Jabalpur,Madhya Pradesh,23.1815,79.9864,34.0,44,0.0,960.1,7.1,40.7,83,65.2,32.5,4.6,205.0,88.0,3.7,0,5,7,1,2026-06-22T10:14:06.978399+05:30
Ujjain,Madhya Pradesh,23.1765,75.7885,31.9,53,0.0,953.3,7.8,58.0,75,34.3,17.8,3.9,149.0,61.0,9.2,0,5,7,1,2026-06-22T10:14:06.978407+05:30
Visakhapatnam,Andhra Pradesh,17.6868,83.2185,32.3,68,0.1,1003.3,5.6,41.0,83,42.8,35.4,17.1,374.0,102.0,39.8,6,5,0,1,2026-06-22T10:14:06.978413+05:30
Vijayawada,Andhra Pradesh,16.5062,80.648,32.1,67,0.0,1002.7,7.9,37.8,84,25.5,21.7,4.5,194.0,108.0,7.4,3,5,4,1,2026-06-22T10:14:06.978420+05:30
Guntur,Andhra Pradesh,16.3067,80.4365,32.8,59,0.0,1003.9,7.8,32.0,79,23.1,19.9,5.0,182.0,97.0,6.4,0,5,4,1,2026-06-22T10:14:06.978428+05:30
Nellore,Andhra Pradesh,14.4426,79.9865,33.3,56,0.0,1006.1,6.55,35.6,76,25.7,21.3,4.3,155.0,115.0,7.8,0,5,4,1,2026-06-22T10:14:06.978436+05:30
Kurnool,Andhra Pradesh,15.8281,78.0373,31.9,57,0.0,977.9,8.95,66.2,53,6.5,5.5,3.0,116.0,60.0,5.7,0,5,7,1,2026-06-22T10:14:06.978444+05:30
Kakinada,Andhra Pradesh,16.9891,82.2475,30.1,82,0.2,1008.0,7.8,32.0,81,36.9,27.2,3.5,254.0,130.0,7.6,6,0,4,1,2026-06-22T10:14:06.978452+05:30
Tirupati,Andhra Pradesh,13.6288,79.4192,33.3,51,0.0,991.6,8.1,31.3,87,19.1,16.5,5.0,158.0,99.0,4.9,0,5,7,1,2026-06-22T10:14:06.978459+05:30
Warangal,Telangana,17.9689,79.5941,29.5,72,0.0,979.6,8.4,41.4,69,18.5,16.4,6.4,245.0,86.0,7.6,7,5,7,1,2026-06-22T10:14:06.978467+05:30
Nizamabad,Telangana,18.6725,78.0941,33.6,49,0.0,965.0,8.3,35.3,59,6.1,5.6,2.9,133.0,87.0,4.5,0,5,7,1,2026-06-22T10:14:06.978474+05:30
Mysore,Karnataka,12.2958,76.6396,26.6,68,0.0,930.5,8.75,46.4,24,3.7,3.3,4.5,136.0,49.0,2.0,7,5,7,1,2026-06-22T10:14:06.978481+05:30
Mangalore,Karnataka,12.9141,74.856,28.0,82,0.0,1009.4,8.6,39.6,27,7.5,5.0,3.4,150.0,47.0,1.8,7,0,4,1,2026-06-22T10:14:06.978489+05:30
Hubli-Dharwad,Karnataka,15.3647,75.124,27.2,68,0.0,942.4,8.9,58.3,19,2.4,2.0,2.8,108.0,52.0,1.2,7,5,7,1,2026-06-22T10:14:06.978496+05:30
Belgaum,Karnataka,15.8497,74.4977,25.5,76,0.0,926.8,8.9,49.0,20,2.4,1.9,2.2,115.0,53.0,1.6,7,5,7,1,2026-06-22T10:14:10.197606+05:30
Coimbatore,Tamil Nadu,11.0168,76.9558,27.8,68,0.0,964.1,8.8,55.8,20,3.1,2.7,3.8,149.0,51.0,2.6,7,5,7,1,2026-06-22T10:14:10.197642+05:30
Madurai,Tamil Nadu,9.9252,78.1198,33.1,48,0.0,994.8,7.55,50.0,66,9.6,8.1,5.9,271.0,74.0,5.1,0,5,7,1,2026-06-22T10:14:10.197652+05:30
Trichy,Tamil Nadu,10.7905,78.7047,31.7,58,0.0,1001.5,8.05,36.7,54,8.4,6.8,4.3,178.0,67.0,4.4,0,5,4,1,2026-06-22T10:14:10.197661+05:30
Salem,Tamil Nadu,11.6643,78.146,29.8,64,0.0,979.4,8.6,36.0,50,10.1,8.8,7.6,189.0,66.0,11.1,7,5,7,1,2026-06-22T10:14:10.197669+05:30
Tirunelveli,Tamil Nadu,8.7139,77.7567,32.7,54,0.0,1005.4,8.2,31.0,22,4.4,3.4,2.4,134.0,55.0,1.3,0,5,4,1,2026-06-22T10:14:10.197676+05:30
Vellore,Tamil Nadu,12.9165,79.1325,30.5,62,0.0,985.6,8.75,36.7,86,22.6,19.0,10.3,162.0,67.0,6.6,3,5,7,1,2026-06-22T10:14:10.197683+05:30
Erode,Tamil Nadu,11.341,77.7172,31.2,57,0.0,991.1,8.15,44.6,35,6.1,5.3,5.2,162.0,57.0,3.4,0,5,7,1,2026-06-22T10:14:10.197690+05:30
Kochi,Kerala,9.9312,76.2673,26.4,89,0.1,1012.5,8.5,31.3,37,8.1,6.6,5.7,170.0,49.0,3.7,10,0,4,1,2026-06-22T10:14:10.197698+05:30
Thiruvananthapuram,Kerala,8.5241,76.9366,26.7,87,0.0,1012.1,7.0,34.9,25,7.5,4.4,1.5,122.0,55.0,0.5,7,0,4,1,2026-06-22T10:14:10.197705+05:30
Kozhikode,Kerala,11.2588,75.7804,27.7,83,0.0,1011.3,8.45,31.0,25,6.1,3.5,0.9,150.0,55.0,0.6,7,0,4,1,2026-06-22T10:14:10.197712+05:30
Thrissur,Kerala,10.5276,76.2144,25.3,95,0.1,1010.9,8.35,25.9,36,9.0,7.9,5.4,204.0,51.0,3.6,10,0,4,1,2026-06-22T10:14:10.197720+05:30
Kannur,Kerala,11.8745,75.3704,27.3,85,0.0,1010.3,8.55,35.6,21,5.6,3.9,3.0,140.0,48.0,1.2,7,0,4,1,2026-06-22T10:14:10.197727+05:30
Patna,Bihar,25.5941,85.1376,34.5,54,0.0,996.6,8.7,29.2,154,76.1,45.9,6.7,252.0,128.0,11.6,0,5,7,1,2026-06-22T10:14:10.197733+05:30
Gaya,Bihar,24.7914,85.0002,34.5,53,0.0,990.6,3.95,33.5,128,54.7,29.6,5.8,191.0,110.0,13.6,0,5,3,1,2026-06-22T10:14:10.197740+05:30
Muzaffarpur,Bihar,26.1209,85.3647,31.9,68,0.0,996.9,8.5,33.8,156,67.8,45.4,6.7,285.0,146.0,14.2,3,5,7,1,2026-06-22T10:14:10.197746+05:30
Bhagalpur,Bihar,25.2425,87.0117,33.8,63,0.0,997.6,8.7,24.1,130,78.7,49.2,7.6,200.0,143.0,27.5,3,5,7,1,2026-06-22T10:14:10.197752+05:30
Ranchi,Jharkhand,23.3441,85.3096,28.3,71,0.0,936.7,7.3,33.5,99,56.8,29.9,2.8,175.0,118.0,6.1,7,5,7,1,2026-06-22T10:14:10.197759+05:30
Jamshedpur,Jharkhand,22.8046,86.2029,31.6,68,0.0,988.7,8.75,33.8,129,49.8,43.7,10.2,258.0,127.0,30.5,3,5,7,1,2026-06-22T10:14:10.197766+05:30
Dhanbad,Jharkhand,23.7957,86.4304,31.6,62,0.0,977.7,5.5,34.6,152,58.9,46.9,24.3,183.0,108.0,69.9,3,5,3,1,2026-06-22T10:14:10.197773+05:30
Bokaro,Jharkhand,23.6693,86.1511,30.8,64,0.0,981.5,7.35,35.6,124,53.9,39.1,16.9,201.0,110.0,51.7,3,5,7,1,2026-06-22T10:14:10.197780+05:30
Bhubaneswar,Odisha,20.2961,85.8245,28.5,83,0.0,1001.5,6.5,48.6,100,27.4,24.6,6.0,339.0,110.0,11.9,7,5,4,1,2026-06-22T10:14:10.197786+05:30
Cuttack,Odisha,20.4625,85.8828,30.1,75,0.0,1003.0,8.55,43.9,100,27.4,24.6,6.0,351.0,110.0,11.9,3,5,4,1,2026-06-22T10:14:10.197792+05:30
Rourkela,Odisha,22.2604,84.8536,33.1,55,0.0,983.2,8.45,38.2,116,42.8,36.6,3.5,204.0,126.0,10.4,0,5,7,1,2026-06-22T10:14:10.197798+05:30
Raipur,Chhattisgarh,21.2514,81.6296,34.0,49,0.0,973.8,8.95,45.0,87,32.9,29.1,12.4,364.0,111.0,35.6,0,5,7,1,2026-06-22T10:14:10.197805+05:30
Bhilai,Chhattisgarh,21.1938,81.3509,33.0,51,0.0,974.3,8.95,50.0,86,29.6,26.4,10.5,522.0,109.0,30.2,0,5,7,1,2026-06-22T10:14:10.197812+05:30
Guwahati,Assam,26.1158,91.7086,28.2,80,0.1,999.7,7.55,23.4,57,15.8,12.2,2.7,338.0,101.0,2.9,10,5,7,1,2026-06-22T10:14:10.197818+05:30
Agartala,Tripura,23.8315,91.2868,26.9,86,0.0,1004.9,7.7,33.8,54,10.1,9.1,4.5,208.0,94.0,2.5,7,5,4,1,2026-06-22T10:14:10.197825+05:30
Shillong,Meghalaya,25.5788,91.8933,24.2,71,0.0,857.6,4.6,32.0,31,5.7,4.7,4.3,216.0,76.0,2.9,3,5,3,1,2026-06-22T10:14:10.197832+05:30
Imphal,Manipur,24.817,93.9368,27.7,69,0.0,922.7,6.85,30.2,69,11.1,8.8,1.1,204.0,92.0,1.1,7,5,7,1,2026-06-22T10:14:10.197839+05:30
Aizawl,Mizoram,23.7271,92.7176,22.8,80,0.0,892.1,8.0,36.7,38,2.3,2.1,0.8,158.0,82.0,0.4,3,5,7,1,2026-06-22T10:14:10.197846+05:30
Kohima,Nagaland,25.6701,94.1077,21.8,94,0.0,855.2,7.1,21.2,45,14.7,9.9,0.7,198.0,94.0,0.9,3,5,7,1,2026-06-22T10:14:10.197852+05:30
Gangtok,Sikkim,27.3314,88.6138,19.6,90,0.2,836.6,7.65,28.4,81,21.8,10.4,1.7,308.0,131.0,3.3,6,10,7,1,2026-06-22T10:14:10.197859+05:30
Siliguri,West Bengal,26.7271,88.3953,25.8,91,0.1,991.1,7.6,21.2,57,12.6,9.3,3.4,448.0,140.0,5.7,10,5,7,1,2026-06-22T10:14:13.420956+05:30
Durgapur,West Bengal,23.5204,87.3119,31.9,71,0.0,992.5,8.85,32.8,156,61.7,55.5,25.1,524.0,111.0,60.9,3,5,7,1,2026-06-22T10:14:13.420993+05:30
Asansol,West Bengal,23.6739,86.9524,32.4,62,0.0,991.0,7.95,32.4,153,58.0,47.7,24.2,681.0,108.0,61.3,3,5,7,1,2026-06-22T10:14:13.421004+05:30
Pondicherry,Puducherry,11.9139,79.8145,31.7,65,0.0,1009.5,8.35,39.6,60,19.3,15.1,8.6,213.0,71.0,13.2,3,0,4,1,2026-06-22T10:14:13.421014+05:30
Port Blair,Andaman and Nicobar Islands,11.6234,92.7265,30.5,70,0.0,1009.9,8.45,38.2,38,11.6,6.6,0.3,88.0,48.0,0.4,3,0,4,1,2026-06-22T10:14:13.421021+05:30
Haridwar,Uttarakhand,29.9457,78.1642,33.1,50,0.0,971.1,7.65,31.7,111,33.9,30.0,1.7,389.0,168.0,6.5,0,5,7,1,2026-06-22T10:14:13.421029+05:30
Rishikesh,Uttarakhand,30.0869,78.2676,32.5,52,0.0,964.0,7.75,25.6,89,36.3,27.7,1.5,307.0,149.0,3.0,0,5,7,1,2026-06-22T10:14:13.421036+05:30
Nainital,Uttarakhand,29.3919,79.4542,22.8,54,0.0,807.6,6.9,29.9,113,97.1,35.9,0.6,263.0,167.0,4.9,0,5,7,0,2026-06-22T10:14:13.421043+05:30
Mussoorie,Uttarakhand,30.4599,78.0664,21.0,56,0.0,804.2,7.95,32.4,84,31.0,23.5,1.0,231.0,157.0,4.6,0,5,7,0,2026-06-22T10:14:13.421051+05:30
Dharamshala,Himachal Pradesh,32.219,76.3234,24.1,51,0.0,868.7,8.1,45.4,52,21.4,13.0,0.7,262.0,127.0,1.1,0,5,7,0,2026-06-22T10:14:13.421057+05:30
Dalhousie,Himachal Pradesh,32.5387,75.971,18.8,63,0.0,805.0,7.7,30.6,66,23.3,13.3,2.5,257.0,140.0,1.8,3,5,7,0,2026-06-22T10:14:13.421065+05:30
Patiala,Punjab,30.3398,76.3869,33.4,36,0.0,975.7,7.2,37.4,184,308.3,71.9,9.6,230.0,102.0,7.4,0,5,7,1,2026-06-22T10:14:13.421072+05:30
Bhatinda,Punjab,30.211,74.9455,31.1,49,0.0,981.7,6.7,27.4,122,49.5,28.0,9.1,170.0,98.0,8.6,0,5,7,1,2026-06-22T10:14:13.421080+05:30
Rohtak,Haryana,28.8955,76.6066,32.7,47,0.0,979.2,7.7,31.3,500,371.6,65.7,9.3,230.0,84.0,4.8,0,5,7,1,2026-06-22T10:14:13.421088+05:30
Panipat,Haryana,29.3909,76.9635,32.9,46,0.0,977.8,7.55,33.5,1286,871.7,114.6,10.5,236.0,82.0,7.1,0,5,7,1,2026-06-22T10:14:13.421095+05:30
Mathura,Uttar Pradesh,27.4924,77.6737,32.5,51,0.0,983.9,7.95,32.4,377,400.5,67.3,10.1,194.0,83.0,5.0,0,5,7,1,2026-06-22T10:14:13.421102+05:30
Vrindavan,Uttar Pradesh,27.5823,77.7027,32.5,51,0.0,984.3,8.0,29.5,377,400.5,67.3,10.1,178.0,83.0,5.0,0,5,7,1,2026-06-22T10:14:13.421108+05:30
Ayodhya,Uttar Pradesh,26.7922,82.1998,35.2,50,0.0,991.3,7.9,32.4,161,230.5,81.5,5.2,220.0,147.0,15.5,0,5,10,1,2026-06-22T10:14:13.421115+05:30
Ratlam,Madhya Pradesh,23.3315,75.0367,31.4,57,0.0,954.0,8.45,51.5,69,38.6,18.9,3.7,118.0,61.0,8.8,0,5,7,1,2026-06-22T10:14:13.421123+05:30
Sagar,Madhya Pradesh,23.8388,78.7378,33.3,44,0.0,949.3,8.7,34.6,88,76.4,35.6,2.1,163.0,92.0,4.9,0,5,7,1,2026-06-22T10:14:13.421130+05:30
Satna,Madhya Pradesh,24.6005,80.8322,34.7,43,0.0,969.1,8.3,42.8,86,79.4,36.4,2.5,159.0,95.0,5.7,0,5,7,1,2026-06-22T10:14:13.421137+05:30
Akola,Maharashtra,20.7002,77.0082,32.6,48,0.0,974.8,8.1,46.4,58,20.1,13.5,3.5,129.0,95.0,10.9,0,5,7,1,2026-06-22T10:14:13.421145+05:30
Amravati,Maharashtra,20.9374,77.7796,34.4,41,0.0,966.9,8.85,46.4,60,29.8,18.0,4.6,115.0,99.0,12.1,0,5,7,1,2026-06-22T10:14:13.421153+05:30
Latur,Maharashtra,18.4088,76.5604,31.7,53,0.0,940.5,6.7,57.6,48,4.2,3.9,2.1,132.0,67.0,1.6,0,5,7,1,2026-06-22T10:14:13.421160+05:30
Nanded,Maharashtra,19.1383,77.3091,34.1,45,0.0,968.5,8.2,43.9,56,13.4,11.6,2.7,140.0,101.0,6.0,0,5,7,1,2026-06-22T10:14:13.421168+05:30
Gulbarga,Karnataka,17.3297,76.8343,31.9,55,0.0,959.6,8.9,58.3,39,5.6,4.9,2.8,144.0,63.0,3.0,0,5,7,1,2026-06-22T10:14:13.421174+05:30
Bidar,Karnataka,17.9104,77.5199,30.8,59,0.0,936.6,8.3,37.4,57,5.7,5.4,3.3,139.0,80.0,2.5,0,5,7,1,2026-06-22T10:14:13.421181+05:30
Hospet,Karnataka,15.2689,76.3909,28.2,66,0.0,957.6,8.95,51.8,18,4.9,3.8,2.6,113.0,53.0,2.0,7,5,7,1,2026-06-22T10:14:13.421187+05:30
Tirupur,Tamil Nadu,11.1085,77.3411,29.8,61,0.0,977.4,8.6,52.6,37,6.2,5.5,4.9,146.0,57.0,4.1,7,5,7,1,2026-06-22T10:14:13.421194+05:30
Alappuzha,Kerala,9.4981,76.3388,26.2,91,0.1,1012.7,6.95,29.2,30,8.8,6.0,3.7,95.0,57.0,2.2,10,0,4,1,2026-06-22T10:14:13.421201+05:30
Munnar,Kerala,10.0889,77.0595,19.1,90,0.1,859.5,7.1,36.7,16,3.3,2.4,2.0,95.0,51.0,1.3,6,10,7,1,2026-06-22T10:14:13.421208+05:30
Silchar,Assam,24.8333,92.7789,26.4,90,0.3,1004.3,7.85,27.7,75,18.2,15.5,1.3,200.0,96.0,3.2,10,5,4,1,2026-06-22T10:14:13.421214+05:30
Dibrugarh,Assam,27.4728,94.912,27.4,89,0.1,993.7,3.85,27.0,73,16.9,14.3,2.3,209.0,101.0,2.0,10,5,3,1,2026-06-22T10:14:13.421220+05:30
