city,state,latitude,longitude,temp,humidity,rain,pressure,uv_index,wind_gusts,aqi,pm10,pm2_5,no2,co,o3,so2,mosquito_risk,arthritis_risk,migraine_risk,frizz_risk,updated_at
Delhi,Delhi,28.6139,77.209,41.8,28,0.0,974.7,7.75,31.7,170,277.5,83.4,6.1,290.0,225.0,27.5,0,5,10,1,2026-06-28T13:52:44.267823+05:30
Mumbai,Maharashtra,19.076,72.8777,29.7,76,0.1,1004.2,7.4,42.1,59,28.2,17.5,3.8,175.0,109.0,8.9,10,5,4,1,2026-06-28T13:52:44.267867+05:30
Bangalore,Karnataka,12.9716,77.5946,30.6,52,0.0,909.8,8.3,62.6,43,8.4,5.2,2.3,194.0,68.0,2.3,0,5,7,1,2026-06-28T13:52:44.267883+05:30
Hyderabad,Telangana,17.385,78.4867,26.7,76,0.1,947.9,8.55,31.0,72,23.3,12.8,2.2,206.0,102.0,2.6,10,5,7,1,2026-06-28T13:52:44.267893+05:30
Chennai,Tamil Nadu,13.0827,80.2707,34.2,61,0.0,1002.6,8.85,41.8,67,32.0,22.9,2.8,231.0,141.0,7.9,3,5,4,1,2026-06-28T13:52:44.267902+05:30
Kolkata,West Bengal,22.5726,88.3639,31.1,79,0.2,999.2,8.85,30.6,64,19.4,15.9,2.2,265.0,99.0,4.6,6,5,7,1,2026-06-28T13:52:44.267910+05:30
Pune,Maharashtra,18.5204,73.8567,27.6,71,0.0,943.2,6.1,36.4,46,18.9,10.9,1.6,142.0,106.0,4.7,7,5,7,1,2026-06-28T13:52:44.267916+05:30
Ahmedabad,Gujarat,23.0225,72.5714,39.0,36,0.0,996.3,7.85,40.7,72,54.8,21.5,1.1,122.0,94.0,3.0,0,5,10,1,2026-06-28T13:52:44.267923+05:30
Jaipur,Rajasthan,26.9124,75.7873,38.5,33,0.0,953.9,7.35,42.1,148,180.2,44.5,0.8,131.0,97.0,3.5,0,5,10,1,2026-06-28T13:52:44.267929+05:30
Lucknow,Uttar Pradesh,26.8467,80.9462,39.6,36,0.0,985.5,8.35,33.8,122,92.2,38.5,1.4,194.0,167.0,5.2,0,5,10,1,2026-06-28T13:52:44.267953+05:30
Kanpur,Uttar Pradesh,26.4499,80.3319,40.9,32,0.0,983.9,8.2,34.9,107,90.6,33.8,1.4,167.0,165.0,6.1,0,5,10,1,2026-06-28T13:52:44.267960+05:30
Chandigarh,Chandigarh,30.7333,76.7794,38.4,38,0.0,962.1,7.8,36.0,154,92.7,59.8,1.9,316.0,205.0,13.7,0,5,10,1,2026-06-28T13:52:44.267983+05:30
Srinagar,Jammu and Kashmir,34.0837,74.7973,32.5,31,0.0,840.6,9.1,30.6,72,18.6,13.6,0.7,252.0,149.0,2.7,0,5,7,0,2026-06-28T13:52:44.267990+05:30
Jammu,Jammu and Kashmir,32.7266,74.857,38.7,36,0.0,965.7,8.7,29.2,119,67.5,43.4,1.1,280.0,160.0,6.9,0,5,10,1,2026-06-28T13:52:44.267999+05:30
Amritsar,Punjab,31.634,74.8723,36.8,52,0.0,973.4,8.5,25.9,159,78.2,54.6,1.6,308.0,195.0,9.8,0,5,10,1,2026-06-28T13:52:44.268005+05:30
Ludhiana,Punjab,30.901,75.8573,39.6,37,0.0,971.6,8.0,36.7,165,80.3,57.6,1.3,301.0,194.0,8.3,0,5,10,1,2026-06-28T13:52:44.268011+05:30
Jalandhar,Punjab,31.326,75.5762,39.2,41,0.0,972.5,8.25,34.2,168,76.4,52.2,0.9,308.0,183.0,6.6,0,5,10,1,2026-06-28T13:52:44.268018+05:30
Dehradun,Uttarakhand,30.6284,78.0322,24.0,74,0.1,829.1,7.05,31.3,83,45.9,28.8,0.8,232.0,155.0,4.3,6,5,7,1,2026-06-28T13:52:44.268024+05:30
Shimla,Himachal Pradesh,31.1048,77.1734,23.2,62,0.1,785.2,7.5,36.7,127,71.2,48.1,0.9,243.0,177.0,11.8,6,5,7,0,2026-06-28T13:52:44.268030+05:30
Manali,Himachal Pradesh,32.2396,77.1887,25.9,55,0.0,817.9,9.05,35.6,57,16.9,13.4,7.3,178.0,109.0,0.4,4,5,7,1,2026-06-28T13:52:44.268040+05:30
Gurgaon,Haryana,28.4595,77.0266,39.9,32,0.0,973.8,7.8,34.9,216,534.6,103.8,3.5,231.0,175.0,11.4,0,5,10,1,2026-06-28T13:52:44.268053+05:30
Noida,Uttar Pradesh,28.5355,77.391,38.9,39,0.0,976.0,7.8,23.4,216,534.6,103.8,3.5,265.0,175.0,11.4,0,5,10,1,2026-06-28T13:52:44.268059+05:30
Ghaziabad,Uttar Pradesh,28.6692,77.4538,38.3,39,0.0,974.6,7.75,20.2,167,231.9,64.0,2.8,329.0,186.0,17.8,0,5,10,1,2026-06-28T13:52:44.268066+05:30
Faridabad,Haryana,28.4089,77.3178,39.9,33,0.0,975.4,7.55,22.7,216,534.6,103.8,3.5,240.0,175.0,11.4,0,5,10,1,2026-06-28T13:52:44.268072+05:30
Meerut,Uttar Pradesh,28.9845,77.7064,38.7,36,0.0,973.6,7.45,29.9,167,231.9,64.0,2.8,271.0,186.0,17.8,0,5,10,1,2026-06-28T13:52:44.268078+05:30
Agra,Uttar Pradesh,27.1767,78.0081,40.6,33,0.0,979.7,7.5,44.3,132,304.5,65.7,1.5,179.0,149.0,4.7,0,5,10,1,2026-06-28T13:52:44.268084+05:30
Varanasi,Uttar Pradesh,25.3176,82.9739,40.2,37,0.0,989.6,8.8,33.8,128,60.1,36.6,1.5,218.0,169.0,7.0,0,5,10,1,2026-06-28T13:52:44.268090+05:30
Prayagraj,Uttar Pradesh,25.4358,81.8463,40.2,36,0.0,988.2,8.75,34.9,119,64.5,38.4,1.7,185.0,168.0,6.9,0,5,10,1,2026-06-28T13:52:44.268096+05:30
Gorakhpur,Uttar Pradesh,26.7606,83.3732,36.6,50,0.0,989.8,8.2,37.8,160,67.3,52.5,1.3,289.0,183.0,6.1,0,5,10,1,2026-06-28T13:52:44.268102+05:30
Bareilly,Uttar Pradesh,28.367,79.4304,39.3,38,0.0,978.9,8.1,26.6,153,143.4,60.3,1.7,293.0,196.0,13.7,0,5,10,1,2026-06-28T13:52:44.268110+05:30
Aligarh,Uttar Pradesh,27.8974,78.088,39.2,40,0.0,977.5,7.35,25.2,160,180.2,49.4,1.7,197.0,157.0,10.1,0,5,10,1,2026-06-28T13:52:44.268116+05:30
Moradabad,Uttar Pradesh,28.8386,78.7733,39.2,39,0.0,975.8,7.55,28.8,160,143.0,64.0,2.0,289.0,195.0,13.9,0,5,10,1,2026-06-28T13:52:44.268122+05:30
Saharanpur,Uttar Pradesh,29.9637,77.546,37.4,41,0.0,968.5,7.45,44.3,158,150.4,63.3,1.5,269.0,190.0,12.3,0,5,10,1,2026-06-28T13:52:44.268128+05:30
Jhansi,Uttar Pradesh,25.4484,78.5685,39.3,36,0.0,971.5,7.4,47.2,82,95.5,35.2,0.9,155.0,110.0,4.6,0,5,10,1,2026-06-28T13:52:47.554992+05:30
Surat,Gujarat,21.1702,72.8311,34.5,46,0.0,1001.4,7.6,43.9,81,61.5,29.7,12.1,323.0,73.0,43.2,0,5,4,1,2026-06-28T13:52:47.555027+05:30
Vadodara,Gujarat,22.3072,73.1812,39.0,32,0.0,998.1,7.9,48.6,76,55.9,26.3,1.3,127.0,111.0,5.5,0,5,10,1,2026-06-28T13:52:47.555038+05:30
Rajkot,Gujarat,22.3039,70.8022,38.3,33,0.0,988.8,7.55,37.4,70,61.9,21.1,0.8,99.0,94.0,4.0,0,5,10,1,2026-06-28T13:52:47.555046+05:30
Thane,Maharashtra,19.2183,72.9781,29.3,78,0.3,1003.4,5.4,29.9,59,28.2,17.5,3.8,170.0,109.0,8.9,10,5,0,1,2026-06-28T13:52:47.555054+05:30
Nagpur,Maharashtra,21.1458,79.0882,30.6,67,0.0,967.3,8.85,38.9,91,43.3,34.1,8.6,222.0,151.0,39.3,3,5,7,1,2026-06-28T13:52:47.555062+05:30
Nashik,Maharashtra,19.9975,73.7898,29.6,57,0.0,941.1,7.55,34.9,54,30.6,14.9,1.1,123.0,98.0,3.6,4,5,7,1,2026-06-28T13:52:47.555069+05:30
Aurangabad,Maharashtra,19.8762,75.3433,30.5,54,0.0,940.1,6.2,27.0,66,39.0,18.9,0.9,125.0,97.0,3.4,0,5,7,1,2026-06-28T13:52:47.555077+05:30
Solapur,Maharashtra,17.6599,75.9064,28.8,66,0.0,951.5,7.9,29.5,56,23.0,13.2,1.2,133.0,117.0,3.6,7,5,7,1,2026-06-28T13:52:47.555084+05:30
Kolhapur,Maharashtra,16.705,74.2433,27.9,73,0.2,944.4,7.0,43.6,29,6.2,4.6,1.0,132.0,75.0,1.3,10,5,7,1,2026-06-28T13:52:47.555091+05:30
Goa,Goa,15.2993,74.124,28.7,87,0.1,995.3,4.55,34.2,32,11.3,6.1,0.7,127.0,57.0,0.6,10,5,3,1,2026-06-28T13:52:47.555098+05:30
Jodhpur,Rajasthan,26.2389,73.0243,39.3,33,0.0,976.8,8.4,39.2,120,188.6,42.6,0.4,108.0,86.0,2.5,0,5,10,1,2026-06-28T13:52:47.555105+05:30
Udaipur,Rajasthan,24.5854,73.7125,32.3,53,0.0,941.7,8.45,27.0,65,48.3,20.4,0.6,112.0,91.0,2.4,0,5,7,1,2026-06-28T13:52:47.555112+05:30
Kota,Rajasthan,25.2138,75.8648,38.9,37,0.0,972.4,8.2,41.0,73,80.8,29.5,0.7,132.0,104.0,3.3,0,5,10,1,2026-06-28T13:52:47.555119+05:30
Bikaner,Rajasthan,28.0229,73.3119,41.0,29,0.0,974.5,8.45,36.4,122,149.9,47.5,0.3,110.0,82.0,2.2,0,5,10,1,2026-06-28T13:52:47.555125+05:30
Ajmer,Rajasthan,26.4499,74.6399,36.5,40,0.0,949.6,8.35,43.2,85,110.1,36.7,0.5,115.0,91.0,3.5,0,5,10,1,2026-06-28T13:52:47.555132+05:30
Gwalior,Madhya Pradesh,26.2183,78.1828,39.4,35,0.1,975.9,8.25,52.2,82,128.5,43.1,0.6,160.0,108.0,2.9,3,5,10,1,2026-06-28T13:52:47.555139+05:30
Indore,Madhya Pradesh,22.7196,75.8577,31.6,57,0.0,944.1,8.15,33.5,84,46.6,26.0,1.7,197.0,112.0,7.0,0,5,7,1,2026-06-28T13:52:47.555146+05:30
Bhopal,Madhya Pradesh,23.2599,77.4126,33.7,53,0.0,948.4,8.5,26.6,85,35.5,21.3,1.0,171.0,114.0,2.6,0,5,7,1,2026-06-28T13:52:47.555153+05:30
Jabalpur,Madhya Pradesh,23.1815,79.9864,36.5,42,0.0,956.0,8.65,23.0,77,34.6,25.8,0.8,183.0,130.0,2.3,0,5,10,1,2026-06-28T13:52:47.555159+05:30
Ujjain,Madhya Pradesh,23.1765,75.7885,30.7,64,0.2,949.9,8.5,32.8,81,49.0,25.9,1.2,166.0,113.0,6.1,6,5,7,1,2026-06-28T13:52:47.555165+05:30
Visakhapatnam,Andhra Pradesh,17.6868,83.2185,31.1,69,0.1,998.5,8.25,45.7,77,24.2,19.8,5.0,271.0,150.0,21.9,6,5,7,1,2026-06-28T13:52:47.555172+05:30
Vijayawada,Andhra Pradesh,16.5062,80.648,35.0,50,0.0,997.1,6.7,26.6,84,26.9,18.7,1.4,146.0,122.0,6.9,0,5,7,1,2026-06-28T13:52:47.555178+05:30
Guntur,Andhra Pradesh,16.3067,80.4365,34.4,51,0.0,998.3,6.6,38.5,78,24.6,17.3,1.4,152.0,117.0,7.6,0,5,7,1,2026-06-28T13:52:47.555185+05:30
Nellore,Andhra Pradesh,14.4426,79.9865,38.2,38,0.0,1000.6,8.1,40.0,64,20.7,13.3,1.5,111.0,106.0,4.3,0,5,7,1,2026-06-28T13:52:47.555192+05:30
Kurnool,Andhra Pradesh,15.8281,78.0373,34.1,50,0.0,972.6,7.65,44.3,57,9.9,6.5,1.2,117.0,77.0,3.4,0,5,7,1,2026-06-28T13:52:47.555200+05:30
Kakinada,Andhra Pradesh,16.9891,82.2475,32.5,67,0.0,1002.5,6.85,36.4,66,20.3,15.8,1.8,198.0,131.0,5.9,3,5,4,1,2026-06-28T13:52:47.555206+05:30
Tirupati,Andhra Pradesh,13.6288,79.4192,36.9,40,0.0,986.2,8.45,36.7,56,22.6,11.8,2.2,105.0,91.0,1.5,0,5,10,1,2026-06-28T13:52:47.555213+05:30
Warangal,Telangana,17.9689,79.5941,31.3,64,0.0,973.5,8.0,29.5,84,45.3,25.4,1.4,171.0,113.0,3.4,3,5,7,1,2026-06-28T13:52:47.555219+05:30
Nizamabad,Telangana,18.6725,78.0941,32.2,63,0.1,961.0,8.65,34.9,103,27.5,17.5,1.0,156.0,116.0,4.3,6,5,7,1,2026-06-28T13:52:47.555226+05:30
Mysore,Karnataka,12.2958,76.6396,26.5,75,0.1,926.9,7.45,51.8,31,6.6,3.5,1.4,111.0,61.0,0.9,10,5,7,1,2026-06-28T13:52:47.555232+05:30
Mangalore,Karnataka,12.9141,74.856,26.4,90,0.8,1005.6,7.8,42.8,43,13.6,6.8,1.0,109.0,54.0,0.9,10,5,4,1,2026-06-28T13:52:47.555238+05:30
Hubli-Dharwad,Karnataka,15.3647,75.124,26.6,80,0.0,937.1,7.95,48.6,23,2.3,1.7,1.2,106.0,57.0,0.6,7,5,7,1,2026-06-28T13:52:47.555245+05:30
Belgaum,Karnataka,15.8497,74.4977,25.1,85,0.1,922.2,7.2,41.8,23,3.2,2.6,1.7,116.0,58.0,1.2,10,5,7,1,2026-06-28T13:52:50.828791+05:30
Coimbatore,Tamil Nadu,11.0168,76.9558,29.8,59,0.0,959.1,8.9,56.9,31,5.1,3.8,1.1,112.0,63.0,1.3,4,5,7,1,2026-06-28T13:52:50.828826+05:30
Madurai,Tamil Nadu,9.9252,78.1198,38.1,33,0.0,988.9,8.75,54.0,67,38.0,17.8,1.1,110.0,108.0,2.2,0,5,10,1,2026-06-28T13:52:50.828837+05:30
Trichy,Tamil Nadu,10.7905,78.7047,36.8,39,0.0,995.1,8.4,41.8,50,23.2,10.5,0.9,107.0,80.0,1.6,0,5,10,1,2026-06-28T13:52:50.828846+05:30
Salem,Tamil Nadu,11.6643,78.146,34.7,46,0.0,973.8,8.85,40.0,57,27.5,15.1,2.1,154.0,112.0,6.7,0,5,7,1,2026-06-28T13:52:50.828854+05:30
Tirunelveli,Tamil Nadu,8.7139,77.7567,35.2,40,0.1,999.6,8.65,46.8,39,5.7,3.6,1.0,107.0,63.0,0.8,3,5,10,1,2026-06-28T13:52:50.828863+05:30
Vellore,Tamil Nadu,12.9165,79.1325,36.8,39,0.0,980.0,8.95,37.8,60,26.1,13.2,0.9,112.0,96.0,2.2,0,5,10,1,2026-06-28T13:52:50.828870+05:30
Erode,Tamil Nadu,11.341,77.7172,37.2,38,0.0,985.2,8.75,56.2,51,13.9,7.9,1.3,130.0,87.0,1.7,0,5,10,1,2026-06-28T13:52:50.828878+05:30
Kochi,Kerala,9.9312,76.2673,27.3,83,0.1,1008.1,8.55,42.1,52,8.8,5.3,1.9,97.0,57.0,1.9,10,0,4,1,2026-06-28T13:52:50.828886+05:30
Thiruvananthapuram,Kerala,8.5241,76.9366,26.0,87,0.1,1007.6,8.05,47.5,40,11.6,6.1,0.6,89.0,60.0,0.7,10,5,4,1,2026-06-28T13:52:50.828893+05:30
Kozhikode,Kerala,11.2588,75.7804,27.2,86,0.4,1007.8,8.5,43.2,37,14.3,7.0,0.5,103.0,57.0,0.4,10,5,4,1,2026-06-28T13:52:50.828901+05:30
Thrissur,Kerala,10.5276,76.2144,26.4,87,0.1,1006.5,8.5,37.8,53,8.4,5.4,1.4,120.0,56.0,1.1,10,5,4,1,2026-06-28T13:52:50.828908+05:30
Kannur,Kerala,11.8745,75.3704,27.1,90,0.2,1006.8,8.6,40.3,44,13.8,7.0,1.5,99.0,50.0,0.7,10,5,4,1,2026-06-28T13:52:50.828915+05:30
Patna,Bihar,25.5941,85.1376,36.4,54,0.1,992.6,7.55,31.7,155,59.8,54.2,1.9,249.0,197.0,11.0,3,5,10,1,2026-06-28T13:52:50.828922+05:30
Gaya,Bihar,24.7914,85.0002,36.9,48,0.0,986.2,8.6,26.3,134,50.1,46.7,1.4,212.0,178.0,11.8,0,5,10,1,2026-06-28T13:52:50.828928+05:30
Muzaffarpur,Bihar,26.1209,85.3647,35.2,61,0.0,992.5,7.75,29.5,157,59.6,52.5,2.2,295.0,194.0,11.1,3,5,10,1,2026-06-28T13:52:50.828934+05:30
Bhagalpur,Bihar,25.2425,87.0117,35.8,55,0.1,993.4,7.75,30.6,120,41.6,38.6,5.4,323.0,175.0,25.8,3,5,10,1,2026-06-28T13:52:50.828941+05:30
Ranchi,Jharkhand,23.3441,85.3096,29.3,67,0.0,932.3,9.0,31.0,119,41.8,39.6,2.6,214.0,154.0,12.7,7,5,7,1,2026-06-28T13:52:50.828948+05:30
Jamshedpur,Jharkhand,22.8046,86.2029,34.8,59,0.0,984.3,9.0,33.5,124,48.9,45.9,3.0,311.0,192.0,21.1,0,5,7,1,2026-06-28T13:52:50.828954+05:30
Dhanbad,Jharkhand,23.7957,86.4304,37.2,47,0.1,973.5,8.85,32.4,157,60.1,57.7,8.8,245.0,199.0,44.0,3,5,10,1,2026-06-28T13:52:50.828961+05:30
Bokaro,Jharkhand,23.6693,86.1511,35.6,49,0.2,977.2,8.8,32.8,157,65.9,63.8,10.7,485.0,205.0,55.1,3,5,10,1,2026-06-28T13:52:50.828986+05:30
Bhubaneswar,Odisha,20.2961,85.8245,28.6,87,0.4,997.5,8.65,29.9,68,28.3,24.6,1.4,159.0,146.0,7.9,10,5,7,1,2026-06-28T13:52:50.828993+05:30
Cuttack,Odisha,20.4625,85.8828,29.4,83,0.3,999.1,9.05,30.2,68,28.3,24.6,1.4,180.0,146.0,7.9,10,5,7,1,2026-06-28T13:52:50.829000+05:30
Rourkela,Odisha,22.2604,84.8536,37.5,43,0.0,978.9,9.0,28.1,105,32.7,30.4,1.9,265.0,166.0,10.4,0,5,10,1,2026-06-28T13:52:50.829007+05:30
Raipur,Chhattisgarh,21.2514,81.6296,36.0,47,0.0,968.5,8.95,34.9,105,41.7,39.2,4.3,447.0,167.0,29.0,0,5,10,1,2026-06-28T13:52:50.829014+05:30
Bhilai,Chhattisgarh,21.1938,81.3509,35.9,44,0.0,969.1,8.7,32.4,110,39.1,36.3,5.1,829.0,149.0,28.4,0,5,10,1,2026-06-28T13:52:50.829021+05:30
Guwahati,Assam,26.1158,91.7086,30.4,71,0.0,992.5,7.2,31.7,73,9.6,8.8,1.2,190.0,96.0,1.4,3,5,7,1,2026-06-28T13:52:50.829028+05:30
Agartala,Tripura,23.8315,91.2868,32.0,70,0.0,999.5,6.2,38.9,51,11.6,9.9,2.7,132.0,99.0,2.2,3,5,7,1,2026-06-28T13:52:50.829034+05:30
Shillong,Meghalaya,25.5788,91.8933,25.9,63,0.1,853.7,6.65,41.0,49,5.3,5.0,1.8,141.0,79.0,1.1,10,5,7,1,2026-06-28T13:52:50.829041+05:30
Imphal,Manipur,24.817,93.9368,28.7,66,0.0,918.4,8.7,34.9,55,6.3,5.1,0.5,131.0,64.0,0.8,7,5,7,1,2026-06-28T13:52:50.829048+05:30
Aizawl,Mizoram,23.7271,92.7176,26.3,71,0.0,889.5,8.35,35.6,25,2.4,2.3,0.5,112.0,67.0,0.6,7,5,7,1,2026-06-28T13:52:50.829054+05:30
Kohima,Nagaland,25.6701,94.1077,25.1,82,0.4,851.9,8.85,28.1,40,6.1,5.0,0.4,126.0,70.0,0.8,10,5,7,1,2026-06-28T13:52:50.829061+05:30
Gangtok,Sikkim,27.3314,88.6138,20.8,92,0.2,833.3,6.05,36.0,96,7.6,6.5,0.9,295.0,138.0,3.1,6,5,7,1,2026-06-28T13:52:50.829068+05:30
Siliguri,West Bengal,26.7271,88.3953,29.2,83,0.1,985.5,6.6,24.8,102,25.1,21.5,1.7,330.0,145.0,7.9,10,5,7,1,2026-06-28T13:52:54.112501+05:30
Durgapur,West Bengal,23.5204,87.3119,30.6,84,0.0,988.1,8.85,29.5,135,96.4,91.3,11.6,739.0,211.0,55.9,3,5,7,1,2026-06-28T13:52:54.112537+05:30
Asansol,West Bengal,23.6739,86.9524,34.5,56,0.0,986.4,8.85,38.2,139,64.0,61.0,7.8,513.0,215.0,39.9,0,5,7,1,2026-06-28T13:52:54.112550+05:30
Pondicherry,Puducherry,11.9139,79.8145,32.9,61,0.0,1004.0,8.2,49.7,66,34.8,25.7,2.5,211.0,136.0,8.4,3,5,4,1,2026-06-28T13:52:54.112558+05:30
Port Blair,Andaman and Nicobar Islands,11.6234,92.7265,26.6,90,0.1,1005.5,1.65,41.4,20,5.9,3.6,0.3,88.0,45.0,0.2,10,5,0,1,2026-06-28T13:52:54.112566+05:30
Haridwar,Uttarakhand,29.9457,78.1642,37.5,40,0.0,966.6,7.6,32.0,153,148.1,61.7,1.0,259.0,179.0,9.9,0,5,10,1,2026-06-28T13:52:54.112574+05:30
Rishikesh,Uttarakhand,30.0869,78.2676,35.9,44,0.0,959.8,7.4,29.2,138,129.5,58.7,0.9,259.0,177.0,9.4,0,5,10,1,2026-06-28T13:52:54.112582+05:30
Nainital,Uttarakhand,29.3919,79.4542,24.2,64,0.1,805.5,8.0,32.0,142,109.0,54.0,1.1,242.0,176.0,9.7,6,5,7,1,2026-06-28T13:52:54.112590+05:30
Mussoorie,Uttarakhand,30.4599,78.0664,22.9,70,0.0,802.7,7.35,40.7,130,104.8,54.8,1.1,235.0,181.0,8.6,3,5,7,1,2026-06-28T13:52:54.112597+05:30
Dharamshala,Himachal Pradesh,32.219,76.3234,25.7,68,0.0,866.7,6.65,31.0,61,24.8,16.5,0.5,263.0,138.0,1.0,7,5,7,1,2026-06-28T13:52:54.112604+05:30
Dalhousie,Himachal Pradesh,32.5387,75.971,23.6,68,0.1,804.8,7.85,31.7,102,38.6,27.1,1.0,258.0,158.0,2.3,6,5,7,1,2026-06-28T13:52:54.112611+05:30
Patiala,Punjab,30.3398,76.3869,38.3,39,0.0,971.1,7.6,37.4,168,133.6,63.6,1.8,330.0,194.0,10.8,0,5,10,1,2026-06-28T13:52:54.112618+05:30
Bhatinda,Punjab,30.211,74.9455,40.0,37,0.0,976.4,8.3,47.5,160,86.8,59.6,2.7,331.0,218.0,20.3,0,5,10,1,2026-06-28T13:52:54.112624+05:30
Rohtak,Haryana,28.8955,76.6066,39.0,35,0.0,974.0,7.75,33.1,170,266.4,74.7,1.5,268.0,195.0,9.0,0,5,10,1,2026-06-28T13:52:54.112631+05:30
Panipat,Haryana,29.3909,76.9635,38.7,37,0.0,972.8,7.65,27.4,434,603.5,129.9,4.2,278.0,252.0,30.7,0,5,10,1,2026-06-28T13:52:54.112638+05:30
Mathura,Uttar Pradesh,27.4924,77.6737,39.8,36,0.0,978.7,7.45,32.4,162,397.7,76.4,1.2,180.0,139.0,3.8,0,5,10,1,2026-06-28T13:52:54.112645+05:30
Vrindavan,Uttar Pradesh,27.5823,77.7027,39.4,38,0.0,979.0,7.4,28.8,162,397.7,76.4,1.2,185.0,139.0,3.8,0,5,10,1,2026-06-28T13:52:54.112652+05:30
Ayodhya,Uttar Pradesh,26.7922,82.1998,36.6,51,0.0,988.0,8.45,22.0,151,85.2,49.5,1.3,212.0,163.0,4.5,0,5,10,1,2026-06-28T13:52:54.112658+05:30
Ratlam,Madhya Pradesh,23.3315,75.0367,32.6,62,0.3,951.4,8.45,39.2,79,48.8,24.9,1.0,124.0,111.0,4.8,6,5,7,1,2026-06-28T13:52:54.112666+05:30
Sagar,Madhya Pradesh,23.8388,78.7378,35.3,48,0.0,945.1,8.1,36.0,75,46.1,25.5,0.9,154.0,115.0,2.4,0,5,10,1,2026-06-28T13:52:54.112673+05:30
Satna,Madhya Pradesh,24.6005,80.8322,38.2,37,0.0,965.1,8.8,32.0,77,49.0,25.9,0.8,166.0,122.0,3.1,0,5,10,1,2026-06-28T13:52:54.112680+05:30
Akola,Maharashtra,20.7002,77.0082,30.0,67,0.0,969.8,8.05,43.6,78,37.1,21.4,1.8,133.0,117.0,8.6,7,5,7,1,2026-06-28T13:52:54.112687+05:30
Amravati,Maharashtra,20.9374,77.7796,25.7,88,0.0,961.7,8.05,50.8,75,30.0,19.3,2.8,168.0,116.0,9.1,7,5,7,1,2026-06-28T13:52:54.112695+05:30
Latur,Maharashtra,18.4088,76.5604,25.2,86,0.0,934.5,8.2,44.3,89,32.4,18.3,1.4,152.0,106.0,2.9,7,5,7,1,2026-06-28T13:52:54.112703+05:30
Nanded,Maharashtra,19.1383,77.3091,26.8,83,0.0,963.4,7.55,41.0,87,23.6,15.2,0.9,162.0,111.0,2.7,7,5,7,1,2026-06-28T13:52:54.112710+05:30
Gulbarga,Karnataka,17.3297,76.8343,28.0,72,0.0,953.6,7.85,31.0,62,21.8,11.8,1.7,141.0,98.0,2.5,7,5,7,1,2026-06-28T13:52:54.112716+05:30
Bidar,Karnataka,17.9104,77.5199,26.1,77,0.0,930.1,7.75,30.6,74,23.2,13.5,1.8,166.0,104.0,2.0,7,5,7,1,2026-06-28T13:52:54.112724+05:30
Hospet,Karnataka,15.2689,76.3909,29.7,61,0.0,951.6,8.9,54.0,23,3.5,2.3,1.4,108.0,59.0,1.4,7,5,7,1,2026-06-28T13:52:54.112730+05:30
Tirupur,Tamil Nadu,11.1085,77.3411,35.3,43,0.0,972.3,8.9,60.8,51,11.7,7.0,1.4,122.0,83.0,1.9,0,5,10,1,2026-06-28T13:52:54.112737+05:30
Alappuzha,Kerala,9.4981,76.3388,27.4,83,0.0,1008.3,8.5,45.4,51,11.9,6.5,1.5,84.0,56.0,1.2,7,0,4,1,2026-06-28T13:52:54.112744+05:30
Munnar,Kerala,10.0889,77.0595,19.7,92,0.1,856.2,8.25,37.1,29,5.5,3.9,1.5,103.0,58.0,1.0,6,10,7,1,2026-06-28T13:52:54.112751+05:30
Silchar,Assam,24.8333,92.7789,32.1,73,0.2,998.1,8.3,29.5,60,5.4,4.8,1.1,131.0,73.0,1.5,6,5,7,1,2026-06-28T13:52:54.112758+05:30
Dibrugarh,Assam,27.4728,94.912,28.8,89,0.5,987.8,2.75,35.6,68,12.7,11.4,1.1,165.0,104.0,1.8,10,5,3,1,2026-06-28T13:52:54.112764+05:30
