city,state,latitude,longitude,temp,humidity,rain,pressure,uv_index,wind_gusts,aqi,pm10,pm2_5,mosquito_risk,arthritis_risk,migraine_risk,frizz_risk,updated_at
Delhi,Delhi,28.6139,77.209,39.9,19,0.0,977.7,7.4,27.7,154,319.4,46.8,0,5,10,0,2026-04-24T17:29:39.926954+05:30
Mumbai,Maharashtra,19.076,72.8777,30.2,73,0.0,1004.1,8.05,21.2,121,46.9,30.9,3,5,4,1,2026-04-24T17:29:39.927006+05:30
Bangalore,Karnataka,12.9716,77.5946,33.9,25,0.0,909.3,9.6,33.1,145,25.4,20.1,0,5,7,0,2026-04-24T17:29:39.927022+05:30
Hyderabad,Telangana,17.385,78.4867,35.8,28,0.0,951.0,9.25,28.8,153,39.1,31.8,0,5,10,0,2026-04-24T17:29:39.927032+05:30
Chennai,Tamil Nadu,13.0827,80.2707,33.2,54,0.0,1004.3,9.25,33.5,29,9.1,6.1,0,5,4,1,2026-04-24T17:29:39.927041+05:30
Kolkata,West Bengal,22.5726,88.3639,33.5,68,0.0,1002.5,8.9,24.8,80,26.0,22.1,3,5,4,1,2026-04-24T17:29:39.927054+05:30
Pune,Maharashtra,18.5204,73.8567,33.4,39,0.0,946.8,8.65,41.4,152,27.2,23.5,0,5,7,1,2026-04-24T17:29:39.927063+05:30
Ahmedabad,Gujarat,23.0225,72.5714,41.9,14,0.0,997.2,8.2,24.5,48,65.0,14.7,0,5,10,0,2026-04-24T17:29:39.927070+05:30
Jaipur,Rajasthan,26.9124,75.7873,40.6,13,0.0,955.7,8.05,25.2,86,187.7,27.8,0,5,10,0,2026-04-24T17:29:39.927079+05:30
Lucknow,Uttar Pradesh,26.8467,80.9462,40.4,15,0.0,988.0,7.9,23.0,139,230.5,35.6,0,5,10,0,2026-04-24T17:29:39.927086+05:30
Kanpur,Uttar Pradesh,26.4499,80.3319,38.5,27,0.0,986.6,7.95,19.8,153,227.7,27.6,0,5,10,1,2026-04-24T17:29:39.927094+05:30
Chandigarh,Chandigarh,30.7333,76.7794,37.8,24,0.0,963.9,7.4,32.4,143,34.8,17.1,0,5,10,0,2026-04-24T17:29:39.927102+05:30
Srinagar,Jammu and Kashmir,34.0837,74.7973,18.7,78,0.0,843.5,8.6,17.6,78,35.3,15.1,3,5,7,0,2026-04-24T17:29:39.927108+05:30
Jammu,Jammu and Kashmir,32.7266,74.857,35.5,32,0.0,969.8,8.15,45.0,75,82.0,21.7,0,5,10,1,2026-04-24T17:29:39.927115+05:30
Amritsar,Punjab,31.634,74.8723,36.9,26,0.0,977.0,8.05,34.6,125,79.6,20.7,0,5,10,0,2026-04-24T17:29:39.927122+05:30
Ludhiana,Punjab,30.901,75.8573,39.5,18,0.0,973.9,7.7,36.0,104,52.4,16.6,0,5,10,0,2026-04-24T17:29:39.927132+05:30
Jalandhar,Punjab,31.326,75.5762,38.4,21,0.0,975.4,7.85,41.0,104,68.7,19.1,0,5,10,0,2026-04-24T17:29:39.927140+05:30
Dehradun,Uttarakhand,30.6284,78.0322,23.5,50,0.0,831.7,7.85,46.8,121,32.4,17.5,0,5,7,0,2026-04-24T17:29:39.927147+05:30
Shimla,Himachal Pradesh,31.1048,77.1734,25.2,30,0.0,787.7,7.9,45.0,108,31.2,13.0,4,5,7,0,2026-04-24T17:29:39.927155+05:30
Manali,Himachal Pradesh,32.2396,77.1887,22.0,68,0.0,823.9,9.95,35.3,125,21.2,10.0,3,5,7,0,2026-04-24T17:29:39.927162+05:30
Gurgaon,Haryana,28.4595,77.0266,38.3,27,0.0,976.1,7.5,23.8,502,808.4,86.1,0,5,10,1,2026-04-24T17:29:39.927170+05:30
Noida,Uttar Pradesh,28.5355,77.391,40.0,19,0.0,979.0,7.45,28.4,502,808.4,86.1,0,5,10,0,2026-04-24T17:29:39.927176+05:30
Ghaziabad,Uttar Pradesh,28.6692,77.4538,39.6,21,0.0,977.3,7.4,28.1,161,191.4,37.0,0,5,10,0,2026-04-24T17:29:39.927183+05:30
Faridabad,Haryana,28.4089,77.3178,40.1,17,0.0,978.5,7.5,28.4,502,808.4,86.1,0,5,10,0,2026-04-24T17:29:39.927190+05:30
Meerut,Uttar Pradesh,28.9845,77.7064,39.9,19,0.0,976.0,7.35,35.3,161,191.4,37.0,0,5,10,0,2026-04-24T17:29:39.927197+05:30
Agra,Uttar Pradesh,27.1767,78.0081,41.0,16,0.0,982.2,7.8,26.6,452,287.8,37.6,0,5,10,0,2026-04-24T17:29:39.927206+05:30
Varanasi,Uttar Pradesh,25.3176,82.9739,41.2,14,0.0,992.2,8.45,20.5,148,74.5,18.3,0,5,10,0,2026-04-24T17:29:39.927215+05:30
Prayagraj,Uttar Pradesh,25.4358,81.8463,40.0,17,0.0,990.3,8.35,16.6,154,25.3,7.9,0,5,10,0,2026-04-24T17:29:39.927222+05:30
Gorakhpur,Uttar Pradesh,26.7606,83.3732,39.7,18,0.0,992.4,8.3,24.1,188,267.3,47.1,0,5,10,0,2026-04-24T17:29:39.927229+05:30
Bareilly,Uttar Pradesh,28.367,79.4304,39.5,22,0.0,981.2,7.65,23.8,171,75.0,26.5,0,5,10,0,2026-04-24T17:29:39.927236+05:30
Aligarh,Uttar Pradesh,27.8974,78.088,41.0,15,0.0,979.8,7.6,28.8,290,302.7,47.4,0,5,10,0,2026-04-24T17:29:39.927243+05:30
Moradabad,Uttar Pradesh,28.8386,78.7733,39.9,19,0.0,977.9,7.5,33.1,183,70.1,26.6,0,5,10,0,2026-04-24T17:29:39.927250+05:30
Saharanpur,Uttar Pradesh,29.9637,77.546,38.6,22,0.0,970.5,7.15,30.6,165,92.7,29.1,0,5,10,0,2026-04-24T17:29:39.927256+05:30
Jhansi,Uttar Pradesh,25.4484,78.5685,40.8,11,0.0,973.1,8.3,34.9,109,23.7,11.6,0,5,10,0,2026-04-24T17:29:43.147482+05:30
Surat,Gujarat,21.1702,72.8311,32.2,56,0.0,1003.0,7.9,23.0,103,56.7,40.6,0,5,4,1,2026-04-24T17:29:43.147533+05:30
Vadodara,Gujarat,22.3072,73.1812,41.9,10,0.0,999.5,8.15,27.4,90,30.5,13.3,0,5,10,0,2026-04-24T17:29:43.147546+05:30
Rajkot,Gujarat,22.3039,70.8022,39.8,18,0.0,990.5,7.9,34.9,47,34.2,11.1,0,5,10,0,2026-04-24T17:29:43.147554+05:30
Thane,Maharashtra,19.2183,72.9781,33.1,53,0.0,1003.8,7.4,35.3,121,46.9,30.9,0,5,4,1,2026-04-24T17:29:43.147561+05:30
Nagpur,Maharashtra,21.1458,79.0882,40.0,16,0.0,968.9,8.6,29.2,152,28.5,22.2,0,5,10,0,2026-04-24T17:29:43.147568+05:30
Nashik,Maharashtra,19.9975,73.7898,35.8,24,0.0,943.5,8.35,35.3,128,28.1,22.0,0,5,10,0,2026-04-24T17:29:43.147575+05:30
Aurangabad,Maharashtra,19.8762,75.3433,36.2,23,0.0,942.1,9.1,36.0,125,21.6,17.5,0,5,10,0,2026-04-24T17:29:43.147582+05:30
Solapur,Maharashtra,17.6599,75.9064,37.2,25,0.0,953.9,9.0,23.8,156,44.8,36.6,0,5,10,0,2026-04-24T17:29:43.147590+05:30
Kolhapur,Maharashtra,16.705,74.2433,29.6,63,0.0,946.0,9.05,31.3,142,50.8,45.5,7,5,7,1,2026-04-24T17:29:43.147597+05:30
Goa,Goa,15.2993,74.124,31.7,70,0.0,994.1,9.0,30.2,122,32.2,26.0,3,5,7,1,2026-04-24T17:29:43.147603+05:30
Jodhpur,Rajasthan,26.2389,73.0243,40.0,19,0.0,979.5,8.25,24.8,69,112.2,20.8,0,5,10,0,2026-04-24T17:29:43.147611+05:30
Udaipur,Rajasthan,24.5854,73.7125,35.5,24,0.0,944.8,8.8,34.2,65,35.3,10.3,0,5,10,0,2026-04-24T17:29:43.147618+05:30
Kota,Rajasthan,25.2138,75.8648,41.8,14,0.0,973.7,8.3,20.2,83,30.7,11.0,0,5,10,0,2026-04-24T17:29:43.147625+05:30
Bikaner,Rajasthan,28.0229,73.3119,41.3,15,0.0,977.5,8.05,21.2,57,87.5,20.0,0,5,10,0,2026-04-24T17:29:43.147631+05:30
Ajmer,Rajasthan,26.4499,74.6399,39.5,16,0.0,951.4,8.2,28.1,71,66.4,15.9,0,5,10,0,2026-04-24T17:29:43.147637+05:30
Gwalior,Madhya Pradesh,26.2183,78.1828,39.5,17,0.0,978.8,8.05,30.6,97,109.7,19.7,0,5,10,0,2026-04-24T17:29:43.147643+05:30
Indore,Madhya Pradesh,22.7196,75.8577,38.3,13,0.0,945.2,8.65,34.9,82,17.4,7.7,0,5,10,0,2026-04-24T17:29:43.147649+05:30
Bhopal,Madhya Pradesh,23.2599,77.4126,39.4,14,0.0,950.2,8.65,31.3,70,21.0,8.3,0,5,10,0,2026-04-24T17:29:43.147656+05:30
Jabalpur,Madhya Pradesh,23.1815,79.9864,38.1,20,0.0,958.2,8.75,21.2,124,19.2,14.1,0,5,10,0,2026-04-24T17:29:43.147662+05:30
Ujjain,Madhya Pradesh,23.1765,75.7885,38.2,18,0.0,950.8,8.55,35.3,61,25.6,8.9,0,5,10,0,2026-04-24T17:29:43.147668+05:30
Visakhapatnam,Andhra Pradesh,17.6868,83.2185,30.7,67,0.0,1000.8,9.2,40.0,60,18.1,13.7,3,5,4,1,2026-04-24T17:29:43.147675+05:30
Vijayawada,Andhra Pradesh,16.5062,80.648,36.4,37,0.0,998.7,9.15,29.9,54,17.0,12.8,0,5,10,1,2026-04-24T17:29:43.147681+05:30
Guntur,Andhra Pradesh,16.3067,80.4365,34.6,44,0.0,1000.3,9.25,31.0,55,21.7,16.8,0,5,4,1,2026-04-24T17:29:43.147687+05:30
Nellore,Andhra Pradesh,14.4426,79.9865,33.8,53,0.0,1002.1,9.3,34.9,46,16.7,12.0,0,5,4,1,2026-04-24T17:29:43.147694+05:30
Kurnool,Andhra Pradesh,15.8281,78.0373,40.2,17,0.0,972.2,9.25,26.3,116,26.7,19.7,0,5,10,0,2026-04-24T17:29:43.147702+05:30
Kakinada,Andhra Pradesh,16.9891,82.2475,34.1,51,0.0,1004.0,9.05,32.8,40,11.0,7.1,0,5,4,1,2026-04-24T17:29:43.147708+05:30
Tirupati,Andhra Pradesh,13.6288,79.4192,36.5,31,0.0,988.0,9.35,33.8,55,16.9,13.6,0,5,10,1,2026-04-24T17:29:43.147714+05:30
Warangal,Telangana,17.9689,79.5941,38.8,27,0.0,974.8,9.2,25.9,166,53.1,44.6,0,5,10,1,2026-04-24T17:29:43.147720+05:30
Nizamabad,Telangana,18.6725,78.0941,39.0,19,0.0,961.3,8.8,29.5,148,43.1,35.4,0,5,10,0,2026-04-24T17:29:43.147727+05:30
Mysore,Karnataka,12.2958,76.6396,35.1,24,0.0,925.2,9.5,36.4,139,28.5,21.7,0,5,10,0,2026-04-24T17:29:43.147733+05:30
Mangalore,Karnataka,12.9141,74.856,30.7,80,0.0,1002.8,9.1,24.5,80,27.5,20.1,3,5,4,1,2026-04-24T17:29:43.147739+05:30
Hubli-Dharwad,Karnataka,15.3647,75.124,32.0,45,0.0,939.0,9.2,42.1,147,38.8,31.5,0,5,7,1,2026-04-24T17:29:43.147745+05:30
Belgaum,Karnataka,15.8497,74.4977,29.4,61,0.0,923.9,9.25,40.0,161,49.0,40.7,7,5,7,1,2026-04-24T17:29:46.381076+05:30
Coimbatore,Tamil Nadu,11.0168,76.9558,34.3,36,0.0,958.3,9.4,36.4,119,19.0,14.7,0,5,7,1,2026-04-24T17:29:46.381108+05:30
Madurai,Tamil Nadu,9.9252,78.1198,37.7,30,0.0,988.4,9.3,34.6,62,6.4,5.6,0,5,10,1,2026-04-24T17:29:46.381120+05:30
Trichy,Tamil Nadu,10.7905,78.7047,36.9,36,0.0,995.4,9.3,25.2,50,7.0,6.5,0,5,10,1,2026-04-24T17:29:46.381130+05:30
Salem,Tamil Nadu,11.6643,78.146,37.2,28,0.0,973.5,9.35,28.8,81,17.2,13.5,0,5,10,0,2026-04-24T17:29:46.381139+05:30
Tirunelveli,Tamil Nadu,8.7139,77.7567,33.5,53,0.0,999.2,9.2,40.0,86,16.2,14.9,0,5,7,1,2026-04-24T17:29:46.381148+05:30
Vellore,Tamil Nadu,12.9165,79.1325,35.5,33,0.0,981.3,9.4,31.3,72,16.6,15.1,0,5,10,1,2026-04-24T17:29:46.381157+05:30
Erode,Tamil Nadu,11.341,77.7172,38.3,28,0.0,984.5,9.35,29.2,56,12.7,9.8,0,5,10,1,2026-04-24T17:29:46.381165+05:30
Kochi,Kerala,9.9312,76.2673,30.1,80,0.0,1004.6,8.5,29.2,90,33.1,27.9,3,5,4,1,2026-04-24T17:29:46.381173+05:30
Thiruvananthapuram,Kerala,8.5241,76.9366,29.1,81,0.0,1004.7,8.9,25.2,75,18.7,14.4,7,5,4,1,2026-04-24T17:29:46.381182+05:30
Kozhikode,Kerala,11.2588,75.7804,31.3,74,0.0,1003.9,9.1,33.8,85,28.1,20.9,3,5,4,1,2026-04-24T17:29:46.381189+05:30
Thrissur,Kerala,10.5276,76.2144,32.2,69,0.0,1003.1,9.15,33.1,99,33.8,28.4,3,5,4,1,2026-04-24T17:29:46.381198+05:30
Kannur,Kerala,11.8745,75.3704,31.6,70,0.0,1003.4,9.1,32.0,84,30.3,22.6,3,5,4,1,2026-04-24T17:29:46.381206+05:30
Patna,Bihar,25.5941,85.1376,37.6,35,0.0,996.2,8.6,25.9,202,141.6,39.5,0,5,10,1,2026-04-24T17:29:46.381214+05:30
Gaya,Bihar,24.7914,85.0002,38.9,22,0.0,989.4,8.7,20.5,162,122.0,27.0,0,5,10,0,2026-04-24T17:29:46.381222+05:30
Muzaffarpur,Bihar,26.1209,85.3647,36.4,44,0.0,996.3,8.6,31.7,198,130.9,46.2,0,5,10,1,2026-04-24T17:29:46.381231+05:30
Bhagalpur,Bihar,25.2425,87.0117,35.1,53,0.0,997.2,8.65,20.9,200,104.5,37.5,0,5,10,1,2026-04-24T17:29:46.381238+05:30
Ranchi,Jharkhand,23.3441,85.3096,36.5,12,0.0,935.8,9.15,28.8,166,86.8,22.5,0,5,10,0,2026-04-24T17:29:46.381246+05:30
Jamshedpur,Jharkhand,22.8046,86.2029,39.2,25,0.0,986.3,8.65,35.6,216,158.8,44.2,0,5,10,0,2026-04-24T17:29:46.381253+05:30
Dhanbad,Jharkhand,23.7957,86.4304,40.3,15,0.0,975.7,8.95,35.6,174,163.0,47.0,0,5,10,0,2026-04-24T17:29:46.381261+05:30
Bokaro,Jharkhand,23.6693,86.1511,39.5,16,0.0,979.6,8.95,31.0,168,144.4,41.1,0,5,10,0,2026-04-24T17:29:46.381269+05:30
Bhubaneswar,Odisha,20.2961,85.8245,30.7,74,0.0,1000.6,9.1,38.2,107,31.7,24.7,3,5,4,1,2026-04-24T17:29:46.381277+05:30
Cuttack,Odisha,20.4625,85.8828,29.8,77,0.0,1002.7,9.15,30.6,107,31.7,24.7,7,5,4,1,2026-04-24T17:29:46.381285+05:30
Rourkela,Odisha,22.2604,84.8536,40.2,17,0.0,980.5,8.85,37.8,203,120.6,30.7,0,5,10,0,2026-04-24T17:29:46.381292+05:30
Raipur,Chhattisgarh,21.2514,81.6296,41.0,14,0.0,970.1,8.95,27.4,202,29.0,20.2,0,5,10,0,2026-04-24T17:29:46.381297+05:30
Bhilai,Chhattisgarh,21.1938,81.3509,40.5,16,0.0,970.3,8.9,24.1,154,21.4,17.8,0,5,10,0,2026-04-24T17:29:46.381303+05:30
Guwahati,Assam,26.1158,91.7086,31.2,70,0.0,999.0,8.55,20.5,151,94.1,54.4,3,5,7,1,2026-04-24T17:29:46.381309+05:30
Agartala,Tripura,23.8315,91.2868,32.4,68,0.0,1003.2,8.65,21.2,120,77.8,39.5,3,5,4,1,2026-04-24T17:29:46.381315+05:30
Shillong,Meghalaya,25.5788,91.8933,20.7,72,0.0,857.4,6.3,27.0,160,85.9,44.7,3,5,7,0,2026-04-24T17:29:46.381321+05:30
Imphal,Manipur,24.817,93.9368,24.7,62,0.0,922.4,9.1,34.6,152,83.8,40.2,3,5,7,1,2026-04-24T17:29:46.381327+05:30
Aizawl,Mizoram,23.7271,92.7176,26.8,55,0.0,892.5,8.45,31.3,139,100.4,36.6,4,5,7,1,2026-04-24T17:29:46.381333+05:30
Kohima,Nagaland,25.6701,94.1077,21.0,82,0.0,855.7,8.55,42.5,146,98.7,47.1,3,5,7,1,2026-04-24T17:29:46.381339+05:30
Gangtok,Sikkim,27.3314,88.6138,21.3,77,0.0,839.2,6.7,22.3,129,48.2,30.4,3,5,7,1,2026-04-24T17:29:46.381345+05:30
Siliguri,West Bengal,26.7271,88.3953,27.3,72,0.0,992.2,8.45,18.7,155,90.3,54.0,7,5,7,1,2026-04-24T17:29:49.596711+05:30
Durgapur,West Bengal,23.5204,87.3119,34.4,48,0.0,991.4,8.5,31.0,155,140.2,57.3,0,5,7,1,2026-04-24T17:29:49.596738+05:30
Asansol,West Bengal,23.6739,86.9524,35.6,44,0.0,989.7,8.9,37.8,155,151.8,47.7,0,5,10,1,2026-04-24T17:29:49.596748+05:30
Pondicherry,Puducherry,11.9139,79.8145,33.7,56,0.0,1005.0,9.15,31.0,29,6.1,3.9,0,5,4,1,2026-04-24T17:29:49.596756+05:30
Port Blair,Andaman and Nicobar Islands,11.6234,92.7265,29.7,74,0.0,1004.9,9.15,21.6,37,10.3,5.5,7,5,4,1,2026-04-24T17:29:49.596763+05:30
Haridwar,Uttarakhand,29.9457,78.1642,38.5,23,0.0,969.4,7.25,36.7,146,45.8,20.8,0,5,10,0,2026-04-24T17:29:49.596770+05:30
Rishikesh,Uttarakhand,30.0869,78.2676,36.5,29,0.0,962.9,7.35,39.2,125,27.5,15.0,0,5,10,0,2026-04-24T17:29:49.596778+05:30
Nainital,Uttarakhand,29.3919,79.4542,29.8,24,0.0,808.5,8.2,44.6,166,38.3,22.7,4,5,7,0,2026-04-24T17:29:49.596785+05:30
Mussoorie,Uttarakhand,30.4599,78.0664,26.5,39,0.0,805.1,7.75,49.7,147,41.6,21.0,4,5,7,0,2026-04-24T17:29:49.596792+05:30
Dharamshala,Himachal Pradesh,32.219,76.3234,28.6,39,0.0,869.5,8.05,29.2,96,29.5,10.6,4,5,7,0,2026-04-24T17:29:49.596798+05:30
Dalhousie,Himachal Pradesh,32.5387,75.971,28.3,27,0.0,806.3,8.3,33.1,116,40.5,13.7,4,5,7,0,2026-04-24T17:29:49.596806+05:30
Patiala,Punjab,30.3398,76.3869,39.1,19,0.0,973.2,7.35,38.2,174,462.9,49.4,0,5,10,0,2026-04-24T17:29:49.596813+05:30
Bhatinda,Punjab,30.211,74.9455,40.2,17,0.0,979.0,8.0,42.8,113,89.6,23.9,0,5,10,0,2026-04-24T17:29:49.596820+05:30
Rohtak,Haryana,28.8955,76.6066,39.3,19,0.0,976.6,7.45,29.2,158,445.2,52.2,0,5,10,0,2026-04-24T17:29:49.596826+05:30
Panipat,Haryana,29.3909,76.9635,39.4,20,0.0,975.2,7.3,31.0,310,707.8,71.7,0,5,10,0,2026-04-24T17:29:49.596832+05:30
Mathura,Uttar Pradesh,27.4924,77.6737,40.9,15,0.0,981.2,7.75,23.0,376,323.2,44.1,0,5,10,0,2026-04-24T17:29:49.596838+05:30
Vrindavan,Uttar Pradesh,27.5823,77.7027,40.7,16,0.0,981.6,7.7,23.4,376,323.2,44.1,0,5,10,0,2026-04-24T17:29:49.596844+05:30
Ayodhya,Uttar Pradesh,26.7922,82.1998,40.7,12,0.0,990.1,8.05,18.7,138,185.8,31.2,0,5,10,0,2026-04-24T17:29:49.596850+05:30
Ratlam,Madhya Pradesh,23.3315,75.0367,36.9,24,0.0,951.7,8.5,30.2,70,27.2,9.0,0,5,10,0,2026-04-24T17:29:49.596856+05:30
Sagar,Madhya Pradesh,23.8388,78.7378,38.6,16,0.0,946.9,8.65,31.3,95,20.1,10.7,0,5,10,0,2026-04-24T17:29:49.596863+05:30
Satna,Madhya Pradesh,24.6005,80.8322,41.2,11,0.0,966.7,8.65,28.4,132,14.0,12.0,0,5,10,0,2026-04-24T17:29:49.596868+05:30
Akola,Maharashtra,20.7002,77.0082,40.6,16,0.0,971.1,8.85,29.5,126,23.7,15.8,0,5,10,0,2026-04-24T17:29:49.596875+05:30
Amravati,Maharashtra,20.9374,77.7796,40.4,17,0.0,963.3,8.75,20.9,136,24.5,16.4,0,5,10,0,2026-04-24T17:29:49.596882+05:30
Latur,Maharashtra,18.4088,76.5604,36.5,22,0.0,937.3,8.3,33.8,150,36.4,31.2,0,5,10,0,2026-04-24T17:29:49.596888+05:30
Nanded,Maharashtra,19.1383,77.3091,39.4,19,0.0,964.8,8.1,25.6,146,33.3,27.3,0,5,10,0,2026-04-24T17:29:49.596894+05:30
Gulbarga,Karnataka,17.3297,76.8343,34.7,34,0.0,956.0,8.7,49.3,157,36.3,29.5,0,5,7,1,2026-04-24T17:29:49.596901+05:30
Bidar,Karnataka,17.9104,77.5199,32.2,35,0.0,933.4,8.9,52.2,150,39.6,32.1,0,5,7,0,2026-04-24T17:29:49.596907+05:30
Hospet,Karnataka,15.2689,76.3909,37.5,24,0.0,952.1,9.25,22.0,156,31.5,25.7,0,5,10,0,2026-04-24T17:29:49.596913+05:30
Tirupur,Tamil Nadu,11.1085,77.3411,38.0,21,0.0,971.0,9.4,33.8,92,14.1,10.8,0,5,10,0,2026-04-24T17:29:49.596919+05:30
Alappuzha,Kerala,9.4981,76.3388,30.1,80,0.0,1004.7,9.0,28.1,91,28.8,23.3,3,5,4,1,2026-04-24T17:29:49.596926+05:30
Munnar,Kerala,10.0889,77.0595,28.9,55,0.0,856.4,9.6,33.1,75,11.0,9.1,4,5,7,1,2026-04-24T17:29:49.596932+05:30
Silchar,Assam,24.8333,92.7789,31.1,68,0.0,1002.1,8.75,20.2,162,109.9,52.7,3,5,4,1,2026-04-24T17:29:49.596939+05:30
Dibrugarh,Assam,27.4728,94.912,31.5,59,0.0,992.7,8.65,14.4,133,43.4,25.6,0,5,7,1,2026-04-24T17:29:49.596945+05:30
