city,state,latitude,longitude,temp,humidity,rain,pressure,uv_index,wind_gusts,aqi,pm10,pm2_5,mosquito_risk,arthritis_risk,migraine_risk,frizz_risk,updated_at
Delhi,Delhi,28.6139,77.209,25.4,57,0.0,982.5,6.5,42.8,157,147.1,40.5,4,5,7,1,2026-03-27T20:24:15.040198+05:30
Mumbai,Maharashtra,19.076,72.8777,29.3,67,0.0,1008.4,8.0,28.4,202,40.2,34.7,7,0,4,1,2026-03-27T20:24:15.040239+05:30
Bangalore,Karnataka,12.9716,77.5946,28.8,31,0.0,911.7,9.5,28.1,113,26.7,23.5,4,5,7,0,2026-03-27T20:24:15.040254+05:30
Hyderabad,Telangana,17.385,78.4867,30.3,50,0.0,953.0,9.0,23.4,123,54.1,46.4,0,5,7,1,2026-03-27T20:24:15.040264+05:30
Chennai,Tamil Nadu,13.0827,80.2707,27.1,80,0.0,1007.8,9.2,29.5,68,27.7,16.5,7,5,4,1,2026-03-27T20:24:15.040274+05:30
Kolkata,West Bengal,22.5726,88.3639,27.4,83,0.0,1005.8,8.45,22.7,119,47.7,40.9,7,5,4,1,2026-03-27T20:24:15.040282+05:30
Pune,Maharashtra,18.5204,73.8567,29.9,38,0.0,949.4,8.55,39.2,141,40.5,34.1,4,5,7,0,2026-03-27T20:24:15.040293+05:30
Ahmedabad,Gujarat,23.0225,72.5714,30.4,42,0.0,1002.2,7.9,34.9,60,37.5,20.6,0,5,4,1,2026-03-27T20:24:15.040301+05:30
Jaipur,Rajasthan,26.9124,75.7873,28.5,33,0.0,959.5,7.35,43.2,115,226.8,37.3,4,5,7,0,2026-03-27T20:24:15.040308+05:30
Lucknow,Uttar Pradesh,26.8467,80.9462,26.7,48,0.0,992.7,6.5,49.3,90,109.7,32.6,4,5,7,0,2026-03-27T20:24:15.040316+05:30
Kanpur,Uttar Pradesh,26.4499,80.3319,25.5,54,0.0,991.0,6.65,64.1,138,217.9,42.5,4,5,7,0,2026-03-27T20:24:15.040323+05:30
Chandigarh,Chandigarh,30.7333,76.7794,21.8,70,0.0,967.5,6.45,31.3,77,35.0,27.9,3,5,7,0,2026-03-27T20:24:15.040332+05:30
Srinagar,Jammu and Kashmir,34.0837,74.7973,14.1,67,0.0,838.0,7.5,16.6,105,44.7,34.0,3,5,7,0,2026-03-27T20:24:15.040339+05:30
Jammu,Jammu and Kashmir,32.7266,74.857,24.2,64,0.0,971.0,7.15,20.2,88,34.5,26.9,3,5,7,1,2026-03-27T20:24:15.040345+05:30
Amritsar,Punjab,31.634,74.8723,22.6,62,0.0,979.7,7.1,25.9,126,48.2,37.7,3,5,7,0,2026-03-27T20:24:15.040353+05:30
Ludhiana,Punjab,30.901,75.8573,23.7,59,0.0,977.9,4.55,25.9,84,54.9,32.2,0,5,3,0,2026-03-27T20:24:15.040360+05:30
Jalandhar,Punjab,31.326,75.5762,23.4,64,0.0,978.9,4.4,22.3,86,46.4,34.9,3,5,3,1,2026-03-27T20:24:15.040368+05:30
Dehradun,Uttarakhand,30.6284,78.0322,13.2,91,0.0,827.2,5.8,27.0,70,28.6,19.1,3,10,3,0,2026-03-27T20:24:15.040376+05:30
Shimla,Himachal Pradesh,31.1048,77.1734,11.6,81,0.0,781.2,6.0,37.4,71,27.8,20.0,3,10,3,0,2026-03-27T20:24:15.040383+05:30
Manali,Himachal Pradesh,32.2396,77.1887,14.7,89,0.0,816.3,8.3,27.7,138,24.4,10.9,3,10,7,0,2026-03-27T20:24:15.040390+05:30
Gurgaon,Haryana,28.4595,77.0266,24.2,64,0.0,980.8,6.65,40.7,892,330.6,65.2,3,5,7,1,2026-03-27T20:24:15.040396+05:30
Noida,Uttar Pradesh,28.5355,77.391,25.3,59,0.0,984.1,6.5,41.0,892,330.6,65.2,4,5,7,1,2026-03-27T20:24:15.040403+05:30
Ghaziabad,Uttar Pradesh,28.6692,77.4538,24.4,65,0.0,982.2,6.45,40.0,132,82.0,39.0,3,5,7,1,2026-03-27T20:24:15.040410+05:30
Faridabad,Haryana,28.4089,77.3178,24.2,64,0.0,983.3,6.55,41.4,892,330.6,65.2,3,5,7,1,2026-03-27T20:24:15.040416+05:30
Meerut,Uttar Pradesh,28.9845,77.7064,22.8,71,0.0,980.7,6.35,41.4,132,82.0,39.0,3,5,7,1,2026-03-27T20:24:15.040422+05:30
Agra,Uttar Pradesh,27.1767,78.0081,24.2,66,0.0,987.4,6.9,47.5,710,599.8,94.3,3,5,7,1,2026-03-27T20:24:15.040428+05:30
Varanasi,Uttar Pradesh,25.3176,82.9739,26.6,55,0.0,997.0,7.3,42.5,94,36.4,26.6,4,5,7,1,2026-03-27T20:24:15.040437+05:30
Prayagraj,Uttar Pradesh,25.4358,81.8463,26.9,63,0.0,995.6,7.5,37.8,96,37.0,25.0,7,5,7,1,2026-03-27T20:24:15.040444+05:30
Gorakhpur,Uttar Pradesh,26.7606,83.3732,25.2,52,0.0,996.3,6.85,50.0,105,33.3,21.2,4,5,7,0,2026-03-27T20:24:15.040453+05:30
Bareilly,Uttar Pradesh,28.367,79.4304,22.4,78,0.0,986.1,6.4,41.0,76,37.4,25.3,3,5,7,1,2026-03-27T20:24:15.040459+05:30
Aligarh,Uttar Pradesh,27.8974,78.088,23.0,76,0.0,985.1,6.3,37.8,336,299.0,63.3,3,5,7,1,2026-03-27T20:24:15.040466+05:30
Moradabad,Uttar Pradesh,28.8386,78.7733,22.5,75,0.0,982.8,5.7,45.0,79,33.9,23.7,3,5,3,1,2026-03-27T20:24:15.040471+05:30
Saharanpur,Uttar Pradesh,29.9637,77.546,21.7,72,0.0,974.5,6.15,32.8,80,54.7,41.8,3,5,7,1,2026-03-27T20:24:15.040477+05:30
Jhansi,Uttar Pradesh,25.4484,78.5685,23.8,63,0.0,977.0,7.55,61.2,81,47.6,18.2,3,5,7,1,2026-03-27T20:24:18.385657+05:30
Surat,Gujarat,21.1702,72.8311,28.5,65,0.0,1006.4,7.75,27.7,120,63.6,56.9,7,5,4,1,2026-03-27T20:24:18.385685+05:30
Vadodara,Gujarat,22.3072,73.1812,31.9,36,0.0,1004.0,7.9,29.2,95,38.3,26.3,0,5,4,0,2026-03-27T20:24:18.385695+05:30
Rajkot,Gujarat,22.3039,70.8022,29.6,36,0.0,995.0,7.75,36.7,52,20.7,15.1,4,5,7,0,2026-03-27T20:24:18.385705+05:30
Thane,Maharashtra,19.2183,72.9781,28.8,59,0.0,1007.8,8.0,39.6,202,40.2,34.7,4,5,4,1,2026-03-27T20:24:18.385713+05:30
Nagpur,Maharashtra,21.1458,79.0882,30.9,27,0.0,971.8,8.25,46.4,104,20.0,16.8,0,5,7,0,2026-03-27T20:24:18.385721+05:30
Nashik,Maharashtra,19.9975,73.7898,28.0,40,0.0,946.1,8.2,43.2,93,21.5,16.0,4,5,7,0,2026-03-27T20:24:18.385729+05:30
Aurangabad,Maharashtra,19.8762,75.3433,30.8,27,0.0,944.3,8.75,37.1,98,23.3,17.8,0,5,7,0,2026-03-27T20:24:18.385737+05:30
Solapur,Maharashtra,17.6599,75.9064,32.9,27,0.0,956.5,8.85,27.4,144,41.8,35.0,0,5,7,0,2026-03-27T20:24:18.385745+05:30
Kolhapur,Maharashtra,16.705,74.2433,26.8,77,0.0,948.7,8.95,47.9,155,44.9,41.6,7,5,7,1,2026-03-27T20:24:18.385753+05:30
Goa,Goa,15.2993,74.124,29.3,82,0.0,998.2,8.9,31.7,93,32.4,24.5,7,5,7,1,2026-03-27T20:24:18.385761+05:30
Jodhpur,Rajasthan,26.2389,73.0243,29.9,32,0.0,982.9,7.7,36.0,76,79.9,16.7,4,5,7,0,2026-03-27T20:24:18.385769+05:30
Udaipur,Rajasthan,24.5854,73.7125,27.3,38,0.0,947.1,8.35,43.2,45,31.4,12.7,4,5,7,0,2026-03-27T20:24:18.385777+05:30
Kota,Rajasthan,25.2138,75.8648,30.6,30,0.0,977.9,7.7,41.4,66,27.5,15.5,0,5,7,0,2026-03-27T20:24:18.385785+05:30
Bikaner,Rajasthan,28.0229,73.3119,28.1,35,0.0,981.8,7.45,30.2,65,19.7,8.2,4,5,7,0,2026-03-27T20:24:18.385792+05:30
Ajmer,Rajasthan,26.4499,74.6399,27.8,34,0.0,954.6,7.65,40.0,59,23.6,11.7,4,5,7,0,2026-03-27T20:24:18.385799+05:30
Gwalior,Madhya Pradesh,26.2183,78.1828,25.6,57,0.0,982.7,7.25,55.8,110,203.5,54.6,4,5,7,1,2026-03-27T20:24:18.385807+05:30
Indore,Madhya Pradesh,22.7196,75.8577,27.6,34,0.0,948.1,8.2,41.8,48,18.9,11.5,4,5,7,0,2026-03-27T20:24:18.385814+05:30
Bhopal,Madhya Pradesh,23.2599,77.4126,29.3,26,0.0,952.4,8.1,45.0,50,26.1,11.2,4,5,7,0,2026-03-27T20:24:18.385822+05:30
Jabalpur,Madhya Pradesh,23.1815,79.9864,29.3,40,0.0,959.4,8.15,46.4,73,17.6,11.9,4,5,7,0,2026-03-27T20:24:18.385829+05:30
Ujjain,Madhya Pradesh,23.1765,75.7885,27.6,37,0.0,953.6,8.1,41.8,44,22.6,13.1,4,5,7,0,2026-03-27T20:24:18.385837+05:30
Visakhapatnam,Andhra Pradesh,17.6868,83.2185,27.4,81,0.0,1004.0,8.95,38.2,79,34.0,24.5,7,5,4,1,2026-03-27T20:24:18.385844+05:30
Vijayawada,Andhra Pradesh,16.5062,80.648,28.8,57,0.0,1002.3,9.0,26.3,76,28.7,23.5,4,5,4,1,2026-03-27T20:24:18.385852+05:30
Guntur,Andhra Pradesh,16.3067,80.4365,27.6,73,0.0,1003.5,9.05,30.2,71,29.6,24.2,7,5,4,1,2026-03-27T20:24:18.385859+05:30
Nellore,Andhra Pradesh,14.4426,79.9865,27.0,79,0.0,1005.8,9.15,28.1,99,24.1,15.9,7,5,4,1,2026-03-27T20:24:18.385867+05:30
Kurnool,Andhra Pradesh,15.8281,78.0373,34.0,28,0.0,975.4,9.05,17.6,118,34.8,28.0,0,5,7,0,2026-03-27T20:24:18.385875+05:30
Kakinada,Andhra Pradesh,16.9891,82.2475,27.4,75,0.0,1007.5,9.0,28.1,68,27.6,17.5,7,5,4,1,2026-03-27T20:24:18.385883+05:30
Tirupati,Andhra Pradesh,13.6288,79.4192,29.6,53,0.0,991.8,9.25,30.2,133,37.6,31.4,4,5,7,1,2026-03-27T20:24:18.385890+05:30
Warangal,Telangana,17.9689,79.5941,30.9,49,0.0,977.9,8.85,26.3,98,48.0,42.1,0,5,7,1,2026-03-27T20:24:18.385897+05:30
Nizamabad,Telangana,18.6725,78.0941,30.8,43,0.0,964.0,8.75,29.5,102,43.7,34.7,0,5,7,1,2026-03-27T20:24:18.385904+05:30
Mysore,Karnataka,12.2958,76.6396,27.8,56,0.0,928.6,9.45,44.6,124,37.3,31.9,4,5,7,1,2026-03-27T20:24:18.385911+05:30
Mangalore,Karnataka,12.9141,74.856,29.8,82,0.0,1007.0,9.1,25.9,96,39.1,31.8,7,5,4,1,2026-03-27T20:24:18.385919+05:30
Hubli-Dharwad,Karnataka,15.3647,75.124,26.5,75,0.0,941.2,9.1,44.6,158,35.2,31.3,7,5,7,1,2026-03-27T20:24:18.385926+05:30
Belgaum,Karnataka,15.8497,74.4977,24.8,80,0.0,926.4,9.15,38.2,150,40.2,36.6,3,5,7,1,2026-03-27T20:24:21.737688+05:30
Coimbatore,Tamil Nadu,11.0168,76.9558,26.9,75,0.0,962.2,9.4,43.2,119,31.9,27.1,7,5,7,1,2026-03-27T20:24:21.737715+05:30
Madurai,Tamil Nadu,9.9252,78.1198,29.8,56,0.0,993.0,9.35,21.6,102,37.1,29.5,4,5,7,1,2026-03-27T20:24:21.737724+05:30
Trichy,Tamil Nadu,10.7905,78.7047,28.8,70,0.0,999.8,9.3,18.0,116,41.0,33.9,7,5,7,1,2026-03-27T20:24:21.737731+05:30
Salem,Tamil Nadu,11.6643,78.146,31.0,37,0.0,977.1,9.35,25.9,155,33.9,28.8,0,5,7,0,2026-03-27T20:24:21.737739+05:30
Tirunelveli,Tamil Nadu,8.7139,77.7567,29.4,66,0.0,1003.4,9.35,47.5,82,16.2,13.3,7,5,4,1,2026-03-27T20:24:21.737746+05:30
Vellore,Tamil Nadu,12.9165,79.1325,28.8,55,0.0,984.8,9.3,30.6,103,34.1,27.6,4,5,7,1,2026-03-27T20:24:21.737752+05:30
Erode,Tamil Nadu,11.341,77.7172,32.1,41,0.0,988.4,9.35,25.9,126,36.7,31.7,0,5,7,1,2026-03-27T20:24:21.737758+05:30
Kochi,Kerala,9.9312,76.2673,29.3,80,0.0,1009.5,9.2,40.3,99,38.3,31.4,7,0,4,1,2026-03-27T20:24:21.737764+05:30
Thiruvananthapuram,Kerala,8.5241,76.9366,29.0,80,0.0,1008.7,9.2,32.8,112,24.9,17.2,7,0,4,1,2026-03-27T20:24:21.737771+05:30
Kozhikode,Kerala,11.2588,75.7804,29.3,79,0.0,1008.4,9.1,31.7,89,34.1,27.0,7,0,4,1,2026-03-27T20:24:21.737777+05:30
Thrissur,Kerala,10.5276,76.2144,29.3,77,0.0,1007.7,9.15,41.0,117,33.6,28.8,7,5,4,1,2026-03-27T20:24:21.737784+05:30
Kannur,Kerala,11.8745,75.3704,29.6,76,0.0,1007.6,9.1,32.4,100,37.1,29.7,7,5,4,1,2026-03-27T20:24:21.737790+05:30
Patna,Bihar,25.5941,85.1376,27.8,53,0.0,999.8,7.95,43.9,149,46.1,31.1,4,5,7,1,2026-03-27T20:24:21.737797+05:30
Gaya,Bihar,24.7914,85.0002,26.7,58,0.0,993.5,8.05,31.3,90,44.2,26.5,4,5,7,1,2026-03-27T20:24:21.737803+05:30
Muzaffarpur,Bihar,26.1209,85.3647,25.0,62,0.0,1000.3,7.6,38.2,156,52.3,36.7,7,5,4,1,2026-03-27T20:24:21.737809+05:30
Bhagalpur,Bihar,25.2425,87.0117,26.1,74,0.0,1001.1,8.0,31.3,151,48.9,31.7,7,5,4,1,2026-03-27T20:24:21.737815+05:30
Ranchi,Jharkhand,23.3441,85.3096,23.9,56,0.0,937.8,8.7,33.8,100,19.3,15.9,0,5,7,0,2026-03-27T20:24:21.737822+05:30
Jamshedpur,Jharkhand,22.8046,86.2029,30.4,42,0.0,991.1,8.55,22.3,145,40.5,22.5,0,5,7,1,2026-03-27T20:24:21.737828+05:30
Dhanbad,Jharkhand,23.7957,86.4304,29.9,35,0.0,979.2,8.45,25.6,116,49.2,32.2,4,5,7,0,2026-03-27T20:24:21.737834+05:30
Bokaro,Jharkhand,23.6693,86.1511,29.0,36,0.0,983.4,8.3,27.0,116,39.5,25.1,4,5,7,0,2026-03-27T20:24:21.737840+05:30
Bhubaneswar,Odisha,20.2961,85.8245,27.2,84,0.0,1002.8,8.75,29.2,139,34.3,30.4,7,5,4,1,2026-03-27T20:24:21.737847+05:30
Cuttack,Odisha,20.4625,85.8828,26.9,80,0.0,1004.6,8.8,35.3,139,34.3,30.4,7,5,4,1,2026-03-27T20:24:21.737853+05:30
Rourkela,Odisha,22.2604,84.8536,28.7,53,0.0,985.6,8.45,31.7,167,36.9,32.1,4,5,7,1,2026-03-27T20:24:21.737859+05:30
Raipur,Chhattisgarh,21.2514,81.6296,29.3,48,0.0,973.0,8.5,48.6,150,43.0,38.3,4,5,7,1,2026-03-27T20:24:21.737865+05:30
Bhilai,Chhattisgarh,21.1938,81.3509,29.0,50,0.0,973.1,8.55,44.6,136,32.6,29.2,4,5,7,1,2026-03-27T20:24:21.737871+05:30
Guwahati,Assam,26.1158,91.7086,24.7,82,0.0,1003.0,7.9,28.4,154,130.9,95.7,3,5,4,1,2026-03-27T20:24:21.737878+05:30
Agartala,Tripura,23.8315,91.2868,25.9,78,0.0,1006.3,8.2,19.1,158,95.2,84.5,7,5,4,1,2026-03-27T20:24:21.737884+05:30
Shillong,Meghalaya,25.5788,91.8933,13.1,95,0.0,855.8,8.15,42.1,136,57.4,47.6,3,10,7,0,2026-03-27T20:24:21.737891+05:30
Imphal,Manipur,24.817,93.9368,17.5,61,0.0,923.4,8.55,44.3,126,66.8,53.4,3,5,7,0,2026-03-27T20:24:21.737897+05:30
Aizawl,Mizoram,23.7271,92.7176,19.7,59,0.0,892.8,8.5,28.8,119,59.1,43.8,0,5,7,0,2026-03-27T20:24:21.737903+05:30
Kohima,Nagaland,25.6701,94.1077,14.8,83,0.0,854.8,8.45,51.5,113,58.1,40.5,3,10,7,0,2026-03-27T20:24:21.737910+05:30
Gangtok,Sikkim,27.3314,88.6138,13.5,93,0.1,836.7,7.6,19.4,128,65.0,48.5,6,10,7,0,2026-03-27T20:24:21.737916+05:30
Siliguri,West Bengal,26.7271,88.3953,20.0,86,0.0,995.1,7.7,33.1,160,103.1,75.7,3,5,7,1,2026-03-27T20:24:25.086014+05:30
Durgapur,West Bengal,23.5204,87.3119,31.2,40,0.0,994.0,8.4,20.2,151,67.8,49.0,0,5,7,0,2026-03-27T20:24:25.086043+05:30
Asansol,West Bengal,23.6739,86.9524,31.2,37,0.0,992.5,8.45,20.2,101,51.1,32.7,0,5,7,0,2026-03-27T20:24:25.086054+05:30
Pondicherry,Puducherry,11.9139,79.8145,25.3,85,0.0,1009.0,9.2,25.2,68,28.9,16.7,7,0,4,1,2026-03-27T20:24:25.086063+05:30
Port Blair,Andaman and Nicobar Islands,11.6234,92.7265,28.3,78,0.0,1006.9,9.15,25.6,76,29.6,22.0,7,5,4,1,2026-03-27T20:24:25.086072+05:30
Haridwar,Uttarakhand,29.9457,78.1642,24.2,63,0.0,973.4,5.75,38.5,80,43.4,33.4,3,5,3,1,2026-03-27T20:24:25.086080+05:30
Rishikesh,Uttarakhand,30.0869,78.2676,20.8,72,0.0,965.9,6.15,28.4,71,35.3,22.9,3,5,7,0,2026-03-27T20:24:25.086088+05:30
Nainital,Uttarakhand,29.3919,79.4542,16.0,59,0.0,803.6,6.65,50.4,54,26.7,17.7,0,5,7,0,2026-03-27T20:24:25.086096+05:30
Mussoorie,Uttarakhand,30.4599,78.0664,12.9,87,0.0,799.3,5.8,32.8,78,39.8,27.9,3,10,3,0,2026-03-27T20:24:25.086104+05:30
Dharamshala,Himachal Pradesh,32.219,76.3234,18.1,74,0.0,866.5,6.95,19.1,78,26.7,15.1,3,5,7,0,2026-03-27T20:24:25.086112+05:30
Dalhousie,Himachal Pradesh,32.5387,75.971,15.5,80,0.0,801.0,7.2,19.4,78,38.1,28.3,3,5,7,0,2026-03-27T20:24:25.086120+05:30
Patiala,Punjab,30.3398,76.3869,22.4,66,0.0,977.3,6.35,30.2,120,35.4,27.8,3,5,7,0,2026-03-27T20:24:25.086128+05:30
Bhatinda,Punjab,30.211,74.9455,23.5,61,0.0,983.1,7.0,27.0,85,36.2,31.2,3,5,7,0,2026-03-27T20:24:25.086136+05:30
Rohtak,Haryana,28.8955,76.6066,23.5,67,0.0,981.2,6.55,38.5,167,212.3,46.6,3,5,7,1,2026-03-27T20:24:25.086144+05:30
Panipat,Haryana,29.3909,76.9635,22.6,68,0.0,979.8,6.35,37.4,257,162.1,39.8,3,5,7,1,2026-03-27T20:24:25.086151+05:30
Mathura,Uttar Pradesh,27.4924,77.6737,23.5,72,0.0,986.4,6.8,32.4,716,405.1,68.7,3,5,7,1,2026-03-27T20:24:25.086159+05:30
Vrindavan,Uttar Pradesh,27.5823,77.7027,23.4,72,0.0,986.8,6.75,39.2,716,405.1,68.7,3,5,7,1,2026-03-27T20:24:25.086167+05:30
Ayodhya,Uttar Pradesh,26.7922,82.1998,25.9,51,0.0,994.4,6.8,50.4,80,42.7,26.6,4,5,7,0,2026-03-27T20:24:25.086174+05:30
Ratlam,Madhya Pradesh,23.3315,75.0367,27.3,48,0.0,954.3,8.05,38.2,44,22.4,11.3,4,5,7,0,2026-03-27T20:24:25.086182+05:30
Sagar,Madhya Pradesh,23.8388,78.7378,29.4,33,0.0,948.5,8.05,39.2,66,37.3,13.7,4,5,7,0,2026-03-27T20:24:25.086190+05:30
Satna,Madhya Pradesh,24.6005,80.8322,25.8,66,0.0,970.9,7.75,55.4,111,52.0,19.2,7,5,7,1,2026-03-27T20:24:25.086198+05:30
Akola,Maharashtra,20.7002,77.0082,29.9,31,0.0,974.4,8.45,43.6,87,19.7,15.6,4,5,7,0,2026-03-27T20:24:25.086206+05:30
Amravati,Maharashtra,20.9374,77.7796,29.0,34,0.0,966.2,8.45,43.9,85,20.3,16.4,4,5,7,0,2026-03-27T20:24:25.086215+05:30
Latur,Maharashtra,18.4088,76.5604,29.8,33,0.0,939.6,8.8,25.2,113,36.1,29.6,4,5,7,0,2026-03-27T20:24:25.086222+05:30
Nanded,Maharashtra,19.1383,77.3091,31.1,36,0.0,967.9,8.65,28.1,100,37.1,30.2,0,5,7,0,2026-03-27T20:24:25.086230+05:30
Gulbarga,Karnataka,17.3297,76.8343,33.4,27,0.0,958.1,8.85,32.0,155,48.1,38.5,0,5,7,0,2026-03-27T20:24:25.086238+05:30
Bidar,Karnataka,17.9104,77.5199,31.8,35,0.0,935.6,8.85,29.9,114,38.1,31.5,0,5,7,0,2026-03-27T20:24:25.086245+05:30
Hospet,Karnataka,15.2689,76.3909,32.4,38,0.0,955.7,9.1,26.6,157,35.3,30.5,0,5,7,1,2026-03-27T20:24:25.086252+05:30
Tirupur,Tamil Nadu,11.1085,77.3411,31.1,45,0.0,975.2,9.4,34.9,134,41.4,35.0,0,5,7,1,2026-03-27T20:24:25.086260+05:30
Alappuzha,Kerala,9.4981,76.3388,29.3,80,0.0,1009.8,9.15,35.6,87,31.2,24.0,7,0,4,1,2026-03-27T20:24:25.086267+05:30
Munnar,Kerala,10.0889,77.0595,21.8,93,0.0,858.1,9.7,33.8,86,31.7,26.1,3,5,7,1,2026-03-27T20:24:25.086275+05:30
Silchar,Assam,24.8333,92.7789,26.2,68,0.0,1005.1,8.25,16.2,155,103.6,79.4,7,5,4,1,2026-03-27T20:24:25.086283+05:30
Dibrugarh,Assam,27.4728,94.912,24.5,82,0.0,997.0,3.6,12.6,124,75.9,58.3,3,5,3,1,2026-03-27T20:24:25.086290+05:30
