city,state,latitude,longitude,temp,humidity,rain,pressure,uv_index,wind_gusts,aqi,pm10,pm2_5,no2,co,o3,so2,mosquito_risk,arthritis_risk,migraine_risk,frizz_risk,updated_at
Delhi,Delhi,28.6139,77.209,26.9,96,0.2,978.9,5.95,29.5,155,95.9,53.0,49.0,1047.0,38.0,34.4,10,5,3,1,2026-07-20T23:36:32.937732+05:30
Mumbai,Maharashtra,19.076,72.8777,25.9,91,0.1,1007.5,7.8,49.3,56,35.4,15.9,7.6,212.0,48.0,5.9,10,5,4,1,2026-07-20T23:36:32.937785+05:30
Bangalore,Karnataka,12.9716,77.5946,21.4,85,0.0,912.9,8.65,49.7,36,8.5,6.7,14.3,291.0,34.0,4.6,3,5,7,1,2026-07-20T23:36:32.937797+05:30
Hyderabad,Telangana,17.385,78.4867,23.3,94,0.2,952.6,8.6,43.6,34,12.6,8.2,8.0,234.0,44.0,4.3,6,5,7,1,2026-07-20T23:36:32.937805+05:30
Chennai,Tamil Nadu,13.0827,80.2707,26.4,91,0.0,1007.9,7.95,51.1,76,29.2,22.4,22.7,472.0,68.0,11.3,7,5,4,1,2026-07-20T23:36:32.937812+05:30
Kolkata,West Bengal,22.5726,88.3639,26.4,97,0.2,1003.2,8.35,30.6,76,17.6,15.2,8.2,396.0,57.0,5.9,10,5,4,1,2026-07-20T23:36:32.937818+05:30
Pune,Maharashtra,18.5204,73.8567,22.8,91,0.1,946.9,5.75,52.2,20,3.7,3.3,9.2,178.0,34.0,5.7,6,5,3,1,2026-07-20T23:36:32.937823+05:30
Ahmedabad,Gujarat,23.0225,72.5714,26.8,92,0.1,998.2,6.35,41.4,63,23.0,15.7,16.6,295.0,39.0,6.6,10,5,7,1,2026-07-20T23:36:32.937829+05:30
Jaipur,Rajasthan,26.9124,75.7873,28.5,76,0.0,955.8,6.05,31.3,132,145.8,38.9,17.7,243.0,57.0,7.5,7,5,7,1,2026-07-20T23:36:32.937834+05:30
Lucknow,Uttar Pradesh,26.8467,80.9462,26.6,95,0.0,990.2,7.55,16.2,81,25.1,23.1,17.4,373.0,64.0,7.9,7,5,7,1,2026-07-20T23:36:32.937841+05:30
Kanpur,Uttar Pradesh,26.4499,80.3319,26.4,97,0.0,988.5,6.15,18.0,76,24.7,21.4,18.9,546.0,55.0,5.4,7,5,7,1,2026-07-20T23:36:32.937845+05:30
Chandigarh,Chandigarh,30.7333,76.7794,26.5,78,0.0,965.2,4.95,31.0,129,46.4,34.9,26.6,409.0,58.0,8.1,7,5,3,1,2026-07-20T23:36:32.937850+05:30
Srinagar,Jammu and Kashmir,34.0837,74.7973,21.3,98,0.0,839.1,8.7,24.5,66,18.6,16.9,20.0,412.0,61.0,3.2,3,5,7,1,2026-07-20T23:36:32.937854+05:30
Jammu,Jammu and Kashmir,32.7266,74.857,25.7,96,0.0,968.2,8.4,24.5,98,80.6,52.4,50.5,411.0,22.0,7.1,7,5,7,1,2026-07-20T23:36:32.937859+05:30
Amritsar,Punjab,31.634,74.8723,27.9,89,0.0,975.4,8.15,32.4,165,107.3,58.0,14.3,533.0,85.0,5.5,7,5,7,1,2026-07-20T23:36:32.937864+05:30
Ludhiana,Punjab,30.901,75.8573,27.3,91,0.0,974.1,5.85,28.4,161,61.0,42.3,20.3,545.0,64.0,6.2,7,5,3,1,2026-07-20T23:36:32.937868+05:30
Jalandhar,Punjab,31.326,75.5762,27.6,90,0.0,974.9,7.2,31.0,165,83.8,46.4,16.0,520.0,80.0,6.0,7,5,7,1,2026-07-20T23:36:32.937872+05:30
Dehradun,Uttarakhand,30.6284,78.0322,18.2,99,0.1,829.1,5.15,16.6,56,12.2,7.4,14.3,254.0,77.0,1.6,6,10,3,1,2026-07-20T23:36:32.937877+05:30
Shimla,Himachal Pradesh,31.1048,77.1734,16.3,99,0.0,783.1,7.2,31.7,74,17.0,8.8,11.1,638.0,82.0,2.8,3,10,7,1,2026-07-20T23:36:32.937884+05:30
Manali,Himachal Pradesh,32.2396,77.1887,20.3,93,0.3,818.3,8.45,28.1,29,6.6,6.6,25.9,236.0,41.0,0.1,6,5,7,1,2026-07-20T23:36:32.937891+05:30
Gurgaon,Haryana,28.4595,77.0266,26.5,98,0.4,977.2,7.15,32.0,153,79.2,44.2,42.6,696.0,25.0,17.5,10,5,7,1,2026-07-20T23:36:32.937895+05:30
Noida,Uttar Pradesh,28.5355,77.391,26.7,97,0.1,980.4,6.5,31.0,153,79.2,44.2,42.6,498.0,25.0,17.5,10,5,7,1,2026-07-20T23:36:32.937900+05:30
Ghaziabad,Uttar Pradesh,28.6692,77.4538,27.3,95,0.2,978.7,6.3,31.3,148,49.9,34.2,14.3,391.0,77.0,10.5,10,5,7,1,2026-07-20T23:36:32.937904+05:30
Faridabad,Haryana,28.4089,77.3178,26.2,99,0.4,979.6,5.65,31.3,153,79.2,44.2,42.6,458.0,25.0,17.5,10,5,3,1,2026-07-20T23:36:32.937908+05:30
Meerut,Uttar Pradesh,28.9845,77.7064,27.1,89,0.0,977.9,6.6,30.6,148,49.9,34.2,14.3,372.0,77.0,10.5,7,5,7,1,2026-07-20T23:36:32.937912+05:30
Agra,Uttar Pradesh,27.1767,78.0081,25.3,96,0.1,984.6,2.05,30.2,80,42.0,30.4,27.0,393.0,42.0,8.4,10,5,3,1,2026-07-20T23:36:32.937917+05:30
Varanasi,Uttar Pradesh,25.3176,82.9739,25.3,96,0.5,994.6,4.25,20.9,90,26.9,26.5,19.6,937.0,71.0,10.6,10,5,3,1,2026-07-20T23:36:32.937921+05:30
Prayagraj,Uttar Pradesh,25.4358,81.8463,26.4,95,0.2,992.8,6.7,23.8,92,29.2,27.0,18.9,302.0,74.0,8.1,10,5,7,1,2026-07-20T23:36:32.937925+05:30
Gorakhpur,Uttar Pradesh,26.7606,83.3732,26.1,96,0.0,994.9,8.15,27.7,65,19.8,19.7,14.7,403.0,76.0,8.7,7,5,7,1,2026-07-20T23:36:32.937929+05:30
Bareilly,Uttar Pradesh,28.367,79.4304,26.0,95,0.0,983.6,1.25,37.1,71,17.1,16.6,14.2,451.0,67.0,6.9,7,5,3,1,2026-07-20T23:36:32.937936+05:30
Aligarh,Uttar Pradesh,27.8974,78.088,25.4,97,0.0,982.2,2.25,28.8,105,79.9,49.4,28.3,271.0,42.0,10.8,7,5,3,1,2026-07-20T23:36:32.937940+05:30
Moradabad,Uttar Pradesh,28.8386,78.7733,26.3,94,0.0,980.5,5.85,38.9,76,16.5,15.7,12.8,433.0,70.0,6.9,7,5,3,1,2026-07-20T23:36:32.937945+05:30
Saharanpur,Uttar Pradesh,29.9637,77.546,26.1,94,0.0,972.5,5.1,33.8,85,29.3,22.8,13.1,442.0,76.0,7.0,7,5,3,1,2026-07-20T23:36:32.937949+05:30
Jhansi,Uttar Pradesh,25.4484,78.5685,26.6,94,0.3,974.6,2.35,21.6,65,17.4,14.6,12.3,236.0,59.0,6.1,10,5,3,1,2026-07-20T23:36:36.257204+05:30
Surat,Gujarat,21.1702,72.8311,25.8,93,0.2,1003.9,6.85,50.0,64,24.9,18.2,22.9,246.0,28.0,34.2,10,5,4,1,2026-07-20T23:36:36.257268+05:30
Vadodara,Gujarat,22.3072,73.1812,27.4,88,0.0,1000.6,6.45,34.6,56,17.6,13.7,19.0,220.0,28.0,16.0,7,5,4,1,2026-07-20T23:36:36.257275+05:30
Rajkot,Gujarat,22.3039,70.8022,27.3,82,0.0,990.4,6.55,45.4,57,20.7,12.1,5.7,122.0,42.0,4.9,7,5,7,1,2026-07-20T23:36:36.257280+05:30
Thane,Maharashtra,19.2183,72.9781,24.8,98,0.1,1006.9,7.45,33.1,56,35.4,15.9,7.6,221.0,48.0,5.9,6,5,4,1,2026-07-20T23:36:36.257285+05:30
Nagpur,Maharashtra,21.1458,79.0882,24.7,96,0.1,970.9,5.4,30.6,64,14.1,11.7,14.0,250.0,50.0,10.9,6,5,3,1,2026-07-20T23:36:36.257290+05:30
Nashik,Maharashtra,19.9975,73.7898,22.6,97,0.1,943.4,6.35,50.0,21,3.7,3.0,11.2,150.0,32.0,6.6,6,5,7,1,2026-07-20T23:36:36.257296+05:30
Aurangabad,Maharashtra,19.8762,75.3433,24.2,85,0.0,942.7,7.9,52.6,27,6.8,5.3,9.3,183.0,37.0,8.2,3,5,7,1,2026-07-20T23:36:36.257301+05:30
Solapur,Maharashtra,17.6599,75.9064,24.3,87,0.0,957.1,7.6,44.6,24,5.2,4.4,6.4,150.0,35.0,2.7,3,5,7,1,2026-07-20T23:36:36.257306+05:30
Kolhapur,Maharashtra,16.705,74.2433,23.0,93,0.0,948.3,7.8,52.6,23,8.3,6.0,5.5,139.0,37.0,2.5,3,5,7,1,2026-07-20T23:36:36.257311+05:30
Goa,Goa,15.2993,74.124,23.5,98,0.0,1000.1,4.1,33.1,56,23.2,14.7,4.9,386.0,39.0,1.5,3,5,0,1,2026-07-20T23:36:36.257316+05:30
Jodhpur,Rajasthan,26.2389,73.0243,31.2,60,0.0,978.0,7.75,35.6,79,112.7,23.4,5.1,140.0,65.0,2.4,0,5,7,1,2026-07-20T23:36:36.257321+05:30
Udaipur,Rajasthan,24.5854,73.7125,24.5,96,0.1,942.5,6.05,32.4,63,17.2,11.5,7.8,165.0,63.0,7.7,6,5,7,1,2026-07-20T23:36:36.257325+05:30
Kota,Rajasthan,25.2138,75.8648,27.8,90,0.2,974.6,1.35,27.0,70,30.5,22.9,14.6,221.0,55.0,7.8,10,5,3,1,2026-07-20T23:36:36.257331+05:30
Bikaner,Rajasthan,28.0229,73.3119,33.8,49,0.0,975.4,8.35,35.3,91,77.3,24.0,2.1,121.0,66.0,2.1,0,5,7,1,2026-07-20T23:36:36.257336+05:30
Ajmer,Rajasthan,26.4499,74.6399,27.7,76,0.0,950.5,7.45,37.4,63,17.1,13.7,8.3,207.0,74.0,6.6,7,5,7,1,2026-07-20T23:36:36.257340+05:30
Gwalior,Madhya Pradesh,26.2183,78.1828,26.2,97,0.0,979.4,1.4,29.5,70,24.4,20.1,15.4,186.0,48.0,5.7,7,5,3,1,2026-07-20T23:36:36.257345+05:30
Indore,Madhya Pradesh,22.7196,75.8577,23.9,96,0.1,945.1,5.4,31.7,56,10.8,10.0,11.5,278.0,53.0,5.6,6,5,3,1,2026-07-20T23:36:36.257349+05:30
Bhopal,Madhya Pradesh,23.2599,77.4126,24.5,93,0.0,950.3,6.2,30.6,63,16.4,13.3,8.6,328.0,53.0,2.5,3,5,7,1,2026-07-20T23:36:36.257354+05:30
Jabalpur,Madhya Pradesh,23.1815,79.9864,25.0,97,0.1,958.2,1.95,28.8,69,18.5,16.4,12.3,310.0,45.0,4.3,10,5,3,1,2026-07-20T23:36:36.257358+05:30
Ujjain,Madhya Pradesh,23.1765,75.7885,24.3,95,0.1,950.7,5.15,29.5,56,11.3,10.1,8.1,256.0,59.0,4.8,6,5,3,1,2026-07-20T23:36:36.257362+05:30
Visakhapatnam,Andhra Pradesh,17.6868,83.2185,27.5,86,0.0,1000.2,8.35,41.8,76,18.5,16.9,25.1,283.0,41.0,34.4,7,5,4,1,2026-07-20T23:36:36.257366+05:30
Vijayawada,Andhra Pradesh,16.5062,80.648,27.9,76,0.0,1001.8,6.65,43.2,58,24.4,20.1,14.9,152.0,40.0,4.5,7,5,4,1,2026-07-20T23:36:36.257370+05:30
Guntur,Andhra Pradesh,16.3067,80.4365,27.9,74,0.0,1003.2,6.5,43.9,56,23.9,18.2,13.7,177.0,42.0,5.4,7,5,4,1,2026-07-20T23:36:36.257375+05:30
Nellore,Andhra Pradesh,14.4426,79.9865,26.1,88,0.0,1006.0,5.95,41.0,65,20.7,12.0,9.1,179.0,46.0,2.7,7,5,0,1,2026-07-20T23:36:36.257380+05:30
Kurnool,Andhra Pradesh,15.8281,78.0373,25.6,83,0.0,977.5,8.15,49.3,40,12.1,7.7,7.1,152.0,43.0,2.2,7,5,7,1,2026-07-20T23:36:36.257385+05:30
Kakinada,Andhra Pradesh,16.9891,82.2475,27.7,85,0.0,1005.0,7.95,50.0,66,21.0,16.0,7.7,344.0,64.0,4.8,7,5,4,1,2026-07-20T23:36:36.257389+05:30
Tirupati,Andhra Pradesh,13.6288,79.4192,25.7,87,0.0,991.7,8.3,40.7,65,32.1,24.4,29.4,226.0,15.0,3.7,7,5,7,1,2026-07-20T23:36:36.257393+05:30
Warangal,Telangana,17.9689,79.5941,24.9,93,0.2,978.0,5.15,41.8,48,8.9,7.1,7.0,147.0,49.0,2.8,6,5,3,1,2026-07-20T23:36:36.257397+05:30
Nizamabad,Telangana,18.6725,78.0941,24.0,97,0.1,963.8,6.5,44.3,37,9.5,7.5,7.5,164.0,43.0,3.1,6,5,7,1,2026-07-20T23:36:36.257402+05:30
Mysore,Karnataka,12.2958,76.6396,21.4,91,0.0,930.5,7.8,53.3,26,7.3,5.6,9.3,151.0,36.0,2.6,3,5,7,1,2026-07-20T23:36:36.257406+05:30
Mangalore,Karnataka,12.9141,74.856,23.8,98,0.0,1009.7,8.55,31.0,52,19.8,14.9,14.5,271.0,23.0,4.5,3,0,4,1,2026-07-20T23:36:36.257410+05:30
Hubli-Dharwad,Karnataka,15.3647,75.124,21.4,97,0.0,941.9,8.05,51.8,20,5.2,3.5,5.7,131.0,37.0,1.5,3,5,7,1,2026-07-20T23:36:36.257416+05:30
Belgaum,Karnataka,15.8497,74.4977,21.1,96,0.0,926.4,4.85,56.9,18,5.7,3.8,4.7,118.0,39.0,2.0,3,5,3,1,2026-07-20T23:36:39.585588+05:30
Coimbatore,Tamil Nadu,11.0168,76.9558,23.3,92,0.0,963.8,8.3,52.2,33,11.0,9.2,11.7,185.0,27.0,4.1,3,5,7,1,2026-07-20T23:36:39.585618+05:30
Madurai,Tamil Nadu,9.9252,78.1198,29.7,54,0.0,994.3,7.65,34.6,60,25.3,19.6,28.8,163.0,24.0,7.7,4,5,7,1,2026-07-20T23:36:39.585624+05:30
Trichy,Tamil Nadu,10.7905,78.7047,28.9,60,0.0,1001.0,8.1,56.2,45,14.1,11.1,12.8,136.0,38.0,5.0,4,5,4,1,2026-07-20T23:36:39.585630+05:30
Salem,Tamil Nadu,11.6643,78.146,26.4,77,0.0,979.1,8.4,37.4,58,16.5,12.5,15.1,374.0,34.0,7.0,7,5,7,1,2026-07-20T23:36:39.585634+05:30
Tirunelveli,Tamil Nadu,8.7139,77.7567,28.7,64,0.0,1005.3,8.6,43.9,29,7.8,6.2,7.3,164.0,36.0,2.6,7,5,4,1,2026-07-20T23:36:39.585639+05:30
Vellore,Tamil Nadu,12.9165,79.1325,27.1,81,0.0,985.3,8.15,43.9,67,36.4,30.3,33.7,529.0,13.0,6.9,7,5,7,1,2026-07-20T23:36:39.585644+05:30
Erode,Tamil Nadu,11.341,77.7172,26.7,75,0.0,991.0,7.95,43.2,50,18.0,15.3,19.5,196.0,26.0,5.2,7,5,7,1,2026-07-20T23:36:39.585648+05:30
Kochi,Kerala,9.9312,76.2673,26.1,91,0.0,1011.9,7.8,27.4,52,20.0,17.8,23.3,372.0,10.0,6.2,7,0,4,1,2026-07-20T23:36:39.585653+05:30
Thiruvananthapuram,Kerala,8.5241,76.9366,25.1,90,0.0,1011.2,7.7,41.8,43,13.6,9.0,6.4,137.0,39.0,2.6,7,0,4,1,2026-07-20T23:36:39.585657+05:30
Kozhikode,Kerala,11.2588,75.7804,24.9,94,0.0,1011.2,7.8,21.6,32,11.2,6.8,3.1,211.0,46.0,1.9,3,0,4,1,2026-07-20T23:36:39.585661+05:30
Thrissur,Kerala,10.5276,76.2144,24.6,97,0.0,1010.5,7.85,23.4,48,23.5,19.8,17.9,398.0,20.0,6.1,3,0,4,1,2026-07-20T23:36:39.585666+05:30
Kannur,Kerala,11.8745,75.3704,24.7,99,0.1,1010.5,8.75,29.2,41,14.8,11.6,15.9,336.0,18.0,3.5,6,0,4,1,2026-07-20T23:36:39.585670+05:30
Patna,Bihar,25.5941,85.1376,26.0,95,0.1,998.3,3.85,32.4,80,28.8,28.6,19.2,369.0,69.0,10.9,10,5,3,1,2026-07-20T23:36:39.585675+05:30
Gaya,Bihar,24.7914,85.0002,24.8,100,0.1,991.7,1.6,26.6,77,36.3,35.9,19.1,435.0,59.0,13.0,6,5,3,1,2026-07-20T23:36:39.585679+05:30
Muzaffarpur,Bihar,26.1209,85.3647,26.4,91,0.0,998.5,7.95,37.1,69,26.9,26.8,18.5,371.0,73.0,9.8,7,5,7,1,2026-07-20T23:36:39.585683+05:30
Bhagalpur,Bihar,25.2425,87.0117,26.2,97,0.0,999.5,5.7,26.3,70,28.9,27.6,17.9,299.0,61.0,11.0,7,5,3,1,2026-07-20T23:36:39.585687+05:30
Ranchi,Jharkhand,23.3441,85.3096,23.1,98,0.1,934.8,4.4,24.1,80,36.6,33.2,9.1,307.0,94.0,14.1,6,5,3,1,2026-07-20T23:36:39.585691+05:30
Jamshedpur,Jharkhand,22.8046,86.2029,25.2,98,0.2,988.0,7.55,24.5,98,29.6,26.4,12.5,497.0,53.0,13.1,10,5,7,1,2026-07-20T23:36:39.585695+05:30
Dhanbad,Jharkhand,23.7957,86.4304,25.2,98,0.1,977.4,7.4,23.0,150,64.3,61.2,54.5,337.0,26.0,100.2,10,5,7,1,2026-07-20T23:36:39.585699+05:30
Bokaro,Jharkhand,23.6693,86.1511,25.6,96,0.0,981.1,7.15,24.5,151,74.7,71.7,61.0,912.0,18.0,117.5,7,5,7,1,2026-07-20T23:36:39.585703+05:30
Bhubaneswar,Odisha,20.2961,85.8245,25.9,98,0.1,998.9,8.05,28.8,90,31.0,27.5,11.0,586.0,81.0,6.2,10,5,7,1,2026-07-20T23:36:39.585707+05:30
Cuttack,Odisha,20.4625,85.8828,26.4,96,0.0,1000.6,8.45,25.9,90,31.0,27.5,11.0,446.0,81.0,6.2,7,5,4,1,2026-07-20T23:36:39.585710+05:30
Rourkela,Odisha,22.2604,84.8536,25.3,98,0.2,981.9,5.8,25.6,108,45.3,39.0,12.8,365.0,80.0,15.0,10,5,3,1,2026-07-20T23:36:39.585714+05:30
Raipur,Chhattisgarh,21.2514,81.6296,25.6,97,0.1,971.3,7.35,32.0,90,27.0,25.2,29.8,468.0,52.0,34.5,10,5,7,1,2026-07-20T23:36:39.585718+05:30
Bhilai,Chhattisgarh,21.1938,81.3509,25.5,98,0.0,971.9,7.4,36.4,84,22.1,20.4,20.8,584.0,61.0,28.6,7,5,7,1,2026-07-20T23:36:39.585722+05:30
Guwahati,Assam,26.1158,91.7086,25.7,97,0.0,1000.9,5.6,20.2,47,17.1,16.6,13.8,264.0,30.0,2.9,7,5,0,1,2026-07-20T23:36:39.585725+05:30
Agartala,Tripura,23.8315,91.2868,25.2,99,0.0,1005.3,4.8,28.1,52,11.6,10.7,11.9,218.0,41.0,2.8,7,5,0,1,2026-07-20T23:36:39.585729+05:30
Shillong,Meghalaya,25.5788,91.8933,18.5,95,0.0,856.7,4.15,24.1,20,1.6,1.6,8.2,240.0,38.0,2.4,3,10,3,1,2026-07-20T23:36:39.585733+05:30
Imphal,Manipur,24.817,93.9368,21.5,94,0.0,922.9,2.2,19.8,49,15.1,14.8,20.3,288.0,32.0,3.3,3,5,3,1,2026-07-20T23:36:39.585736+05:30
Aizawl,Mizoram,23.7271,92.7176,20.6,91,0.1,892.1,1.05,19.1,27,2.7,2.6,8.3,147.0,19.0,0.5,6,5,3,1,2026-07-20T23:36:39.585741+05:30
Kohima,Nagaland,25.6701,94.1077,19.6,94,0.0,855.6,6.2,19.1,21,4.3,4.1,7.5,348.0,39.0,0.9,3,10,7,1,2026-07-20T23:36:39.585745+05:30
Gangtok,Sikkim,27.3314,88.6138,18.2,98,0.1,838.1,7.25,25.2,32,4.9,4.9,8.6,305.0,60.0,0.7,6,10,7,1,2026-07-20T23:36:39.585749+05:30
Siliguri,West Bengal,26.7271,88.3953,24.5,97,0.0,992.8,3.3,28.8,44,11.0,10.9,11.9,230.0,67.0,2.9,3,5,3,1,2026-07-20T23:36:42.901847+05:30
Durgapur,West Bengal,23.5204,87.3119,25.7,96,0.0,992.8,8.7,23.8,108,44.7,42.8,28.2,298.0,49.0,30.4,7,5,7,1,2026-07-20T23:36:42.901879+05:30
Asansol,West Bengal,23.6739,86.9524,25.8,96,0.2,991.3,7.95,23.8,105,50.1,47.6,36.6,525.0,42.0,42.1,10,5,7,1,2026-07-20T23:36:42.901887+05:30
Pondicherry,Puducherry,11.9139,79.8145,27.4,93,0.0,1009.3,7.95,40.0,71,31.8,24.2,21.0,417.0,61.0,8.0,7,0,4,1,2026-07-20T23:36:42.901894+05:30
Port Blair,Andaman and Nicobar Islands,11.6234,92.7265,27.0,83,0.0,1009.0,7.1,41.0,57,23.7,11.5,0.2,88.0,51.0,0.4,7,0,4,1,2026-07-20T23:36:42.901900+05:30
Haridwar,Uttarakhand,29.9457,78.1642,26.0,97,0.1,971.0,5.15,36.4,76,22.6,19.5,11.9,441.0,73.0,6.3,10,5,3,1,2026-07-20T23:36:42.901906+05:30
Rishikesh,Uttarakhand,30.0869,78.2676,25.6,94,0.0,963.8,5.25,20.2,61,13.5,10.6,6.5,361.0,97.0,3.8,7,5,3,1,2026-07-20T23:36:42.901912+05:30
Nainital,Uttarakhand,29.3919,79.4542,16.7,96,0.0,804.2,1.0,30.6,45,8.2,7.4,8.3,304.0,76.0,1.5,3,10,3,0,2026-07-20T23:36:42.901919+05:30
Mussoorie,Uttarakhand,30.4599,78.0664,17.0,99,0.0,801.9,4.85,23.8,60,17.2,12.3,14.8,372.0,75.0,5.2,3,10,3,1,2026-07-20T23:36:42.901923+05:30
Dharamshala,Himachal Pradesh,32.219,76.3234,21.1,96,0.2,866.7,6.7,26.6,34,6.1,4.6,12.6,373.0,47.0,0.7,6,5,7,1,2026-07-20T23:36:42.901928+05:30
Dalhousie,Himachal Pradesh,32.5387,75.971,17.8,99,0.1,802.8,4.45,23.8,86,55.2,26.8,17.0,673.0,80.0,2.2,6,10,3,1,2026-07-20T23:36:42.901933+05:30
Patiala,Punjab,30.3398,76.3869,27.0,89,0.0,974.2,4.15,32.0,152,50.4,36.3,21.4,460.0,56.0,9.5,7,5,3,1,2026-07-20T23:36:42.901937+05:30
Bhatinda,Punjab,30.211,74.9455,29.3,82,0.0,978.4,6.0,38.9,382,183.0,83.6,17.1,365.0,87.0,7.6,7,5,3,1,2026-07-20T23:36:42.901941+05:30
Rohtak,Haryana,28.8955,76.6066,28.7,87,0.0,977.5,5.25,25.9,334,864.3,133.2,47.3,498.0,26.0,22.7,7,5,3,1,2026-07-20T23:36:42.901946+05:30
Panipat,Haryana,29.3909,76.9635,26.8,95,0.0,976.5,5.2,35.6,342,705.9,122.9,31.7,471.0,47.0,19.0,7,5,3,1,2026-07-20T23:36:42.901950+05:30
Mathura,Uttar Pradesh,27.4924,77.6737,25.7,96,0.2,983.4,2.3,28.8,99,48.7,29.2,27.6,391.0,43.0,5.6,10,5,3,1,2026-07-20T23:36:42.901954+05:30
Vrindavan,Uttar Pradesh,27.5823,77.7027,25.9,96,0.2,983.8,2.7,27.7,99,48.7,29.2,27.6,372.0,43.0,5.6,10,5,3,1,2026-07-20T23:36:42.901959+05:30
Ayodhya,Uttar Pradesh,26.7922,82.1998,25.5,99,0.0,992.9,7.5,21.6,71,20.0,19.8,13.4,400.0,85.0,5.3,7,5,7,1,2026-07-20T23:36:42.901963+05:30
Ratlam,Madhya Pradesh,23.3315,75.0367,24.0,98,0.1,951.4,5.1,29.9,54,10.2,8.6,8.5,212.0,53.0,7.7,6,5,3,1,2026-07-20T23:36:42.901967+05:30
Sagar,Madhya Pradesh,23.8388,78.7378,24.0,98,0.2,946.8,7.15,32.0,59,18.6,16.8,12.7,226.0,48.0,3.7,6,5,7,1,2026-07-20T23:36:42.901972+05:30
Satna,Madhya Pradesh,24.6005,80.8322,25.0,98,0.2,968.0,1.9,28.1,76,18.5,15.9,17.6,351.0,37.0,3.8,10,5,3,1,2026-07-20T23:36:42.901975+05:30
Akola,Maharashtra,20.7002,77.0082,25.5,95,0.1,972.8,8.15,43.2,37,7.8,6.5,8.7,207.0,47.0,4.4,10,5,7,1,2026-07-20T23:36:42.901980+05:30
Amravati,Maharashtra,20.9374,77.7796,24.7,98,0.1,965.2,8.5,42.5,41,6.8,5.7,8.6,158.0,49.0,4.5,6,5,7,1,2026-07-20T23:36:42.901985+05:30
Latur,Maharashtra,18.4088,76.5604,23.3,93,0.1,939.0,1.95,45.4,29,6.0,4.9,5.9,161.0,38.0,2.5,6,5,3,1,2026-07-20T23:36:42.901989+05:30
Nanded,Maharashtra,19.1383,77.3091,24.7,94,0.1,967.5,2.5,40.7,38,8.8,7.1,7.0,161.0,44.0,3.1,6,5,3,1,2026-07-20T23:36:42.901994+05:30
Gulbarga,Karnataka,17.3297,76.8343,24.1,88,0.0,958.8,6.6,48.2,27,5.4,4.1,7.0,149.0,36.0,2.9,3,5,7,1,2026-07-20T23:36:42.901999+05:30
Bidar,Karnataka,17.9104,77.5199,22.8,96,0.1,934.9,6.9,43.6,27,7.8,6.1,8.5,142.0,36.0,2.6,6,5,7,1,2026-07-20T23:36:42.902003+05:30
Hospet,Karnataka,15.2689,76.3909,23.5,86,0.0,957.0,8.15,52.6,23,5.2,3.8,5.8,131.0,37.0,1.9,3,5,7,1,2026-07-20T23:36:42.902007+05:30
Tirupur,Tamil Nadu,11.1085,77.3411,24.6,85,0.0,977.3,8.65,55.4,53,22.6,19.8,24.8,161.0,20.0,7.0,3,5,7,1,2026-07-20T23:36:42.902011+05:30
Alappuzha,Kerala,9.4981,76.3388,26.4,88,0.0,1012.0,8.5,27.0,51,19.0,14.7,15.0,89.0,28.0,4.7,7,0,4,1,2026-07-20T23:36:42.902015+05:30
Munnar,Kerala,10.0889,77.0595,16.4,87,0.0,858.5,8.45,41.8,25,10.5,8.6,11.3,114.0,21.0,2.2,3,10,7,0,2026-07-20T23:36:42.902019+05:30
Silchar,Assam,24.8333,92.7789,25.2,96,0.1,1004.5,1.95,23.0,56,10.6,10.3,7.8,193.0,44.0,2.7,10,5,0,1,2026-07-20T23:36:42.902024+05:30
Dibrugarh,Assam,27.4728,94.912,25.1,95,0.1,995.4,8.05,24.5,68,12.5,11.5,10.5,250.0,48.0,1.2,10,5,7,1,2026-07-20T23:36:42.902029+05:30
