city,state,latitude,longitude,temp,humidity,rain,pressure,uv_index,aqi,mosquito_risk,arthritis_risk,migraine_risk,frizz_risk,updated_at
Delhi,Delhi,28.6139,77.209,28.8,27,0.0,983.7,5.55,154,4,5,3,0,2026-02-26T16:22:06.678304+05:30
Mumbai,Maharashtra,19.076,72.8777,26.3,74,0.0,1008.5,7.3,74,7,0,4,1,2026-02-26T16:22:06.678366+05:30
Bangalore,Karnataka,12.9716,77.5946,29.6,32,0.0,910.0,8.85,112,4,5,7,0,2026-02-26T16:22:06.678381+05:30
Hyderabad,Telangana,17.385,78.4867,31.0,33,0.0,952.4,8.05,151,0,5,7,0,2026-02-26T16:22:06.678392+05:30
Chennai,Tamil Nadu,13.0827,80.2707,30.4,52,0.0,1006.4,8.6,82,0,5,4,1,2026-02-26T16:22:06.678400+05:30
Kolkata,West Bengal,22.5726,88.3639,28.0,34,0.0,1006.5,7.45,171,4,5,4,0,2026-02-26T16:22:06.678409+05:30
Pune,Maharashtra,18.5204,73.8567,31.7,26,0.0,947.9,7.8,71,0,5,7,0,2026-02-26T16:22:06.678416+05:30
Ahmedabad,Gujarat,23.0225,72.5714,34.3,24,0.0,1001.3,7.05,90,0,5,4,0,2026-02-26T16:22:06.678423+05:30
Jaipur,Rajasthan,26.9124,75.7873,31.1,18,0.0,960.3,6.35,100,0,5,7,0,2026-02-26T16:22:06.678432+05:30
Lucknow,Uttar Pradesh,26.8467,80.9462,29.3,27,0.0,994.2,6.0,143,4,5,3,0,2026-02-26T16:22:06.678441+05:30
Kanpur,Uttar Pradesh,26.4499,80.3319,29.4,30,0.0,992.4,6.0,148,4,5,3,0,2026-02-26T16:22:06.678447+05:30
Chandigarh,Chandigarh,30.7333,76.7794,26.1,42,0.0,969.1,5.45,139,4,5,3,0,2026-02-26T16:22:06.678454+05:30
Srinagar,Jammu and Kashmir,34.0837,74.7973,15.1,49,0.0,840.0,6.35,145,0,5,7,0,2026-02-26T16:22:06.678460+05:30
Jammu,Jammu and Kashmir,32.7266,74.857,26.1,54,0.0,973.1,6.05,140,4,5,7,1,2026-02-26T16:22:06.678465+05:30
Amritsar,Punjab,31.634,74.8723,26.1,53,0.0,981.6,6.0,173,4,5,3,0,2026-02-26T16:22:06.678471+05:30
Ludhiana,Punjab,30.901,75.8573,26.5,47,0.0,979.6,5.7,172,4,5,3,0,2026-02-26T16:22:06.678477+05:30
Jalandhar,Punjab,31.326,75.5762,26.2,52,0.0,980.7,5.85,176,4,5,3,0,2026-02-26T16:22:06.678482+05:30
Dehradun,Uttarakhand,30.6284,78.0322,16.9,45,0.0,828.7,5.8,83,0,5,3,0,2026-02-26T16:22:06.678487+05:30
Shimla,Himachal Pradesh,31.1048,77.1734,14.7,45,0.0,783.4,5.85,98,0,5,3,0,2026-02-26T16:22:06.678494+05:30
Manali,Himachal Pradesh,32.2396,77.1887,16.3,49,0.0,817.0,7.55,84,0,5,7,0,2026-02-26T16:22:06.678500+05:30
Gurgaon,Haryana,28.4595,77.0266,28.7,28,0.0,982.2,5.65,188,4,5,3,0,2026-02-26T16:22:06.678505+05:30
Noida,Uttar Pradesh,28.5355,77.391,29.3,26,0.0,985.2,5.6,188,4,5,3,0,2026-02-26T16:22:06.678511+05:30
Ghaziabad,Uttar Pradesh,28.6692,77.4538,28.0,32,0.0,983.4,5.55,153,4,5,3,0,2026-02-26T16:22:06.678516+05:30
Faridabad,Haryana,28.4089,77.3178,28.3,29,0.0,984.6,5.6,188,4,5,3,0,2026-02-26T16:22:06.678520+05:30
Meerut,Uttar Pradesh,28.9845,77.7064,27.6,37,0.0,982.0,5.4,153,4,5,3,0,2026-02-26T16:22:06.678526+05:30
Agra,Uttar Pradesh,27.1767,78.0081,29.8,27,0.0,988.7,5.9,158,4,5,3,0,2026-02-26T16:22:06.678531+05:30
Varanasi,Uttar Pradesh,25.3176,82.9739,28.4,35,0.0,998.5,6.7,114,4,5,7,0,2026-02-26T16:22:06.678537+05:30
Prayagraj,Uttar Pradesh,25.4358,81.8463,29.1,37,0.0,996.8,6.55,124,4,5,7,0,2026-02-26T16:22:06.678542+05:30
Gorakhpur,Uttar Pradesh,26.7606,83.3732,27.2,33,0.0,997.9,6.4,155,4,5,7,0,2026-02-26T16:22:06.678549+05:30
Bareilly,Uttar Pradesh,28.367,79.4304,27.4,33,0.0,987.1,5.7,152,4,5,3,0,2026-02-26T16:22:06.678554+05:30
Aligarh,Uttar Pradesh,27.8974,78.088,28.5,29,0.0,986.4,5.65,157,4,5,3,0,2026-02-26T16:22:06.678560+05:30
Moradabad,Uttar Pradesh,28.8386,78.7733,27.1,33,0.0,983.8,5.55,154,4,5,3,0,2026-02-26T16:22:06.678565+05:30
Saharanpur,Uttar Pradesh,29.9637,77.546,26.7,35,0.0,975.6,5.2,163,4,5,3,0,2026-02-26T16:22:06.678570+05:30
Jhansi,Uttar Pradesh,25.4484,78.5685,30.8,26,0.0,978.5,6.5,90,0,5,7,0,2026-02-26T16:22:09.984026+05:30
Surat,Gujarat,21.1702,72.8311,27.5,54,0.0,1007.2,7.0,91,4,5,4,1,2026-02-26T16:22:09.984068+05:30
Vadodara,Gujarat,22.3072,73.1812,34.2,25,0.0,1003.8,7.1,78,0,5,4,0,2026-02-26T16:22:09.984079+05:30
Rajkot,Gujarat,22.3039,70.8022,32.8,22,0.0,993.4,7.0,55,0,5,7,0,2026-02-26T16:22:09.984089+05:30
Thane,Maharashtra,19.2183,72.9781,27.9,63,0.0,1008.0,7.3,74,7,0,4,1,2026-02-26T16:22:09.984099+05:30
Nagpur,Maharashtra,21.1458,79.0882,32.0,24,0.0,973.1,7.45,114,0,5,7,0,2026-02-26T16:22:09.984108+05:30
Nashik,Maharashtra,19.9975,73.7898,30.5,30,0.0,944.9,7.45,50,0,5,7,0,2026-02-26T16:22:09.984116+05:30
Aurangabad,Maharashtra,19.8762,75.3433,31.7,24,0.0,943.3,7.8,77,0,5,7,0,2026-02-26T16:22:09.984124+05:30
Solapur,Maharashtra,17.6599,75.9064,32.3,24,0.0,956.4,8.0,91,0,5,7,0,2026-02-26T16:22:09.984149+05:30
Kolhapur,Maharashtra,16.705,74.2433,31.0,20,0.0,947.2,8.2,74,0,5,7,0,2026-02-26T16:22:09.984157+05:30
Goa,Goa,15.2993,74.124,30.2,57,0.0,996.6,8.25,62,0,5,7,1,2026-02-26T16:22:09.984165+05:30
Jodhpur,Rajasthan,26.2389,73.0243,33.9,17,0.0,983.0,6.6,65,0,5,7,0,2026-02-26T16:22:09.984173+05:30
Udaipur,Rajasthan,24.5854,73.7125,30.5,23,0.0,946.6,7.3,66,0,5,7,0,2026-02-26T16:22:09.984181+05:30
Kota,Rajasthan,25.2138,75.8648,32.3,22,0.0,978.9,6.65,93,0,5,7,0,2026-02-26T16:22:09.984190+05:30
Bikaner,Rajasthan,28.0229,73.3119,32.4,19,0.0,982.1,6.3,53,0,5,7,0,2026-02-26T16:22:09.984199+05:30
Ajmer,Rajasthan,26.4499,74.6399,31.5,19,0.0,954.7,6.6,88,0,5,7,0,2026-02-26T16:22:09.984207+05:30
Gwalior,Madhya Pradesh,26.2183,78.1828,30.1,28,0.0,983.8,6.25,110,0,5,7,0,2026-02-26T16:22:09.984214+05:30
Indore,Madhya Pradesh,22.7196,75.8577,30.5,28,0.0,948.1,7.2,84,0,5,7,0,2026-02-26T16:22:09.984222+05:30
Bhopal,Madhya Pradesh,23.2599,77.4126,29.5,30,0.0,954.2,7.1,70,4,5,7,0,2026-02-26T16:22:09.984230+05:30
Jabalpur,Madhya Pradesh,23.1815,79.9864,30.0,22,0.0,962.2,7.15,65,4,5,7,0,2026-02-26T16:22:09.984237+05:30
Ujjain,Madhya Pradesh,23.1765,75.7885,30.7,28,0.0,953.9,7.15,92,0,5,7,0,2026-02-26T16:22:09.984244+05:30
Visakhapatnam,Andhra Pradesh,17.6868,83.2185,29.6,59,0.0,1003.1,8.1,130,4,5,4,1,2026-02-26T16:22:09.984250+05:30
Vijayawada,Andhra Pradesh,16.5062,80.648,32.6,40,0.0,1001.3,8.2,99,0,5,4,1,2026-02-26T16:22:09.984256+05:30
Guntur,Andhra Pradesh,16.3067,80.4365,33.2,37,0.0,1002.3,8.2,97,0,5,4,1,2026-02-26T16:22:09.984264+05:30
Nellore,Andhra Pradesh,14.4426,79.9865,32.5,41,0.0,1004.8,8.4,71,0,5,4,1,2026-02-26T16:22:09.984272+05:30
Kurnool,Andhra Pradesh,15.8281,78.0373,34.4,28,0.0,975.3,8.2,97,0,5,7,0,2026-02-26T16:22:09.984280+05:30
Kakinada,Andhra Pradesh,16.9891,82.2475,30.0,60,0.0,1006.7,8.1,65,4,5,4,1,2026-02-26T16:22:09.984286+05:30
Tirupati,Andhra Pradesh,13.6288,79.4192,32.3,32,0.0,989.9,8.55,89,0,5,7,0,2026-02-26T16:22:09.984292+05:30
Warangal,Telangana,17.9689,79.5941,32.6,31,0.0,978.1,7.9,147,0,5,7,0,2026-02-26T16:22:09.984298+05:30
Nizamabad,Telangana,18.6725,78.0941,32.4,29,0.0,964.1,7.8,152,0,5,7,0,2026-02-26T16:22:09.984305+05:30
Mysore,Karnataka,12.2958,76.6396,30.9,35,0.0,926.3,8.9,108,0,5,7,0,2026-02-26T16:22:09.984311+05:30
Mangalore,Karnataka,12.9141,74.856,28.4,75,0.0,1004.7,8.5,109,7,5,4,1,2026-02-26T16:22:09.984318+05:30
Hubli-Dharwad,Karnataka,15.3647,75.124,32.1,25,0.0,939.4,8.4,66,0,5,7,0,2026-02-26T16:22:09.984325+05:30
Belgaum,Karnataka,15.8497,74.4977,31.7,17,0.0,924.7,8.45,59,0,5,7,0,2026-02-26T16:22:13.291582+05:30
Coimbatore,Tamil Nadu,11.0168,76.9558,25.0,72,0.1,960.1,8.95,90,10,5,7,1,2026-02-26T16:22:13.291622+05:30
Madurai,Tamil Nadu,9.9252,78.1198,33.1,44,0.0,990.6,6.8,97,0,5,7,1,2026-02-26T16:22:13.291633+05:30
Trichy,Tamil Nadu,10.7905,78.7047,34.0,37,0.0,997.2,4.8,97,0,5,3,1,2026-02-26T16:22:13.291642+05:30
Salem,Tamil Nadu,11.6643,78.146,33.7,36,0.0,974.9,8.7,115,0,5,7,1,2026-02-26T16:22:13.291650+05:30
Tirunelveli,Tamil Nadu,8.7139,77.7567,30.6,63,0.0,1001.5,8.95,85,3,5,4,1,2026-02-26T16:22:13.291657+05:30
Vellore,Tamil Nadu,12.9165,79.1325,32.1,34,0.0,982.7,8.65,112,0,5,7,0,2026-02-26T16:22:13.291664+05:30
Erode,Tamil Nadu,11.341,77.7172,34.5,35,0.0,986.3,7.95,104,0,5,7,1,2026-02-26T16:22:13.291671+05:30
Kochi,Kerala,9.9312,76.2673,28.4,80,0.0,1006.2,8.75,82,7,5,4,1,2026-02-26T16:22:13.291677+05:30
Thiruvananthapuram,Kerala,8.5241,76.9366,28.4,80,0.0,1005.8,8.85,62,7,5,4,1,2026-02-26T16:22:13.291683+05:30
Kozhikode,Kerala,11.2588,75.7804,29.6,73,0.0,1005.6,8.65,75,7,5,4,1,2026-02-26T16:22:13.291690+05:30
Thrissur,Kerala,10.5276,76.2144,30.8,67,0.0,1004.5,8.7,77,3,5,4,1,2026-02-26T16:22:13.291697+05:30
Kannur,Kerala,11.8745,75.3704,30.2,62,0.0,1005.2,8.6,103,3,5,4,1,2026-02-26T16:22:13.291704+05:30
Patna,Bihar,25.5941,85.1376,27.9,28,0.0,1001.5,6.85,156,4,5,4,0,2026-02-26T16:22:13.291710+05:30
Gaya,Bihar,24.7914,85.0002,26.7,40,0.0,995.0,6.95,145,4,5,7,0,2026-02-26T16:22:13.291717+05:30
Muzaffarpur,Bihar,26.1209,85.3647,27.8,30,0.0,1001.1,6.8,159,4,5,4,0,2026-02-26T16:22:13.291723+05:30
Bhagalpur,Bihar,25.2425,87.0117,26.8,42,0.0,1002.0,6.9,152,4,5,4,0,2026-02-26T16:22:13.291729+05:30
Ranchi,Jharkhand,23.3441,85.3096,25.3,20,0.0,938.1,7.6,111,4,5,7,0,2026-02-26T16:22:13.291735+05:30
Jamshedpur,Jharkhand,22.8046,86.2029,29.6,26,0.0,991.1,7.5,140,4,5,7,0,2026-02-26T16:22:13.291742+05:30
Dhanbad,Jharkhand,23.7957,86.4304,29.2,19,0.0,980.2,7.4,141,4,5,7,0,2026-02-26T16:22:13.291749+05:30
Bokaro,Jharkhand,23.6693,86.1511,28.7,20,0.0,984.2,7.4,144,4,5,7,0,2026-02-26T16:22:13.291756+05:30
Bhubaneswar,Odisha,20.2961,85.8245,31.9,26,0.0,1002.2,7.85,128,0,5,4,0,2026-02-26T16:22:13.291762+05:30
Cuttack,Odisha,20.4625,85.8828,31.9,24,0.0,1004.1,7.85,128,0,5,4,0,2026-02-26T16:22:13.291769+05:30
Rourkela,Odisha,22.2604,84.8536,30.6,23,0.0,985.3,7.4,89,0,5,7,0,2026-02-26T16:22:13.291775+05:30
Raipur,Chhattisgarh,21.2514,81.6296,31.0,22,0.0,975.1,7.5,147,0,5,7,0,2026-02-26T16:22:13.291781+05:30
Bhilai,Chhattisgarh,21.1938,81.3509,31.1,24,0.0,975.5,7.55,143,0,5,7,0,2026-02-26T16:22:13.291787+05:30
Guwahati,Assam,26.1158,91.7086,26.5,51,0.0,1001.1,6.85,151,4,5,4,0,2026-02-26T16:22:13.291793+05:30
Agartala,Tripura,23.8315,91.2868,26.9,44,0.0,1005.9,7.2,174,4,5,4,0,2026-02-26T16:22:13.291800+05:30
Shillong,Meghalaya,25.5788,91.8933,13.7,54,0.0,853.8,4.7,129,0,5,3,0,2026-02-26T16:22:13.291806+05:30
Imphal,Manipur,24.817,93.9368,19.7,45,0.0,921.4,7.4,148,0,5,7,0,2026-02-26T16:22:13.291812+05:30
Aizawl,Mizoram,23.7271,92.7176,21.1,41,0.0,891.5,7.35,143,0,5,7,0,2026-02-26T16:22:13.291819+05:30
Kohima,Nagaland,25.6701,94.1077,13.1,87,0.0,852.2,7.25,137,3,10,7,0,2026-02-26T16:22:13.291825+05:30
Gangtok,Sikkim,27.3314,88.6138,15.3,55,0.0,835.5,5.05,150,0,5,3,0,2026-02-26T16:22:13.291832+05:30
Siliguri,West Bengal,26.7271,88.3953,21.0,60,0.0,994.1,6.85,162,0,5,7,0,2026-02-26T16:22:16.609912+05:30
Durgapur,West Bengal,23.5204,87.3119,29.5,22,0.0,995.3,7.4,131,4,5,7,0,2026-02-26T16:22:16.609954+05:30
Asansol,West Bengal,23.6739,86.9524,29.5,24,0.0,993.9,7.35,122,4,5,7,0,2026-02-26T16:22:16.609967+05:30
Pondicherry,Puducherry,11.9139,79.8145,31.2,50,0.0,1006.9,8.6,72,0,5,4,1,2026-02-26T16:22:16.609977+05:30
Port Blair,Andaman and Nicobar Islands,11.6234,92.7265,28.0,77,0.0,1004.0,8.65,30,7,5,4,1,2026-02-26T16:22:16.609986+05:30
Haridwar,Uttarakhand,29.9457,78.1642,27.4,32,0.0,973.9,5.3,154,4,5,3,0,2026-02-26T16:22:16.609995+05:30
Rishikesh,Uttarakhand,30.0869,78.2676,26.6,38,0.0,966.5,5.35,125,4,5,3,0,2026-02-26T16:22:16.610003+05:30
Nainital,Uttarakhand,29.3919,79.4542,17.9,56,0.0,804.9,6.15,112,0,5,7,0,2026-02-26T16:22:16.610012+05:30
Mussoorie,Uttarakhand,30.4599,78.0664,17.1,52,0.0,801.5,5.7,144,0,5,3,0,2026-02-26T16:22:16.610020+05:30
Dharamshala,Himachal Pradesh,32.219,76.3234,19.9,47,0.0,868.4,5.95,96,0,5,3,0,2026-02-26T16:22:16.610029+05:30
Dalhousie,Himachal Pradesh,32.5387,75.971,18.2,47,0.0,803.4,6.15,126,0,5,7,0,2026-02-26T16:22:16.610037+05:30
Patiala,Punjab,30.3398,76.3869,26.5,44,0.0,978.9,5.35,164,4,5,3,0,2026-02-26T16:22:16.610046+05:30
Bhatinda,Punjab,30.211,74.9455,28.4,37,0.0,984.6,6.05,161,4,5,7,0,2026-02-26T16:22:16.610053+05:30
Rohtak,Haryana,28.8955,76.6066,28.7,30,0.0,982.5,5.55,155,4,5,3,0,2026-02-26T16:22:16.610061+05:30
Panipat,Haryana,29.3909,76.9635,27.3,40,0.0,981.0,5.35,158,4,5,3,0,2026-02-26T16:22:16.610068+05:30
Mathura,Uttar Pradesh,27.4924,77.6737,29.4,26,0.0,987.8,5.8,153,4,5,3,0,2026-02-26T16:22:16.610076+05:30
Vrindavan,Uttar Pradesh,27.5823,77.7027,29.1,28,0.0,988.2,5.75,153,4,5,3,0,2026-02-26T16:22:16.610083+05:30
Ayodhya,Uttar Pradesh,26.7922,82.1998,28.7,28,0.0,995.8,6.2,151,4,5,7,0,2026-02-26T16:22:16.610091+05:30
Ratlam,Madhya Pradesh,23.3315,75.0367,30.9,29,0.0,954.7,7.1,86,0,5,7,0,2026-02-26T16:22:16.610099+05:30
Sagar,Madhya Pradesh,23.8388,78.7378,29.5,28,0.0,950.7,7.0,64,4,5,7,0,2026-02-26T16:22:16.610107+05:30
Satna,Madhya Pradesh,24.6005,80.8322,31.1,18,0.0,971.7,6.95,77,0,5,7,0,2026-02-26T16:22:16.610115+05:30
Akola,Maharashtra,20.7002,77.0082,34.3,21,0.0,974.3,7.5,132,0,5,7,0,2026-02-26T16:22:16.610124+05:30
Amravati,Maharashtra,20.9374,77.7796,33.6,21,0.0,966.8,7.45,128,0,5,7,0,2026-02-26T16:22:16.610151+05:30
Latur,Maharashtra,18.4088,76.5604,31.2,26,0.0,939.1,7.95,124,0,5,7,0,2026-02-26T16:22:16.610160+05:30
Nanded,Maharashtra,19.1383,77.3091,33.0,26,0.0,967.7,7.7,154,0,5,7,0,2026-02-26T16:22:16.610168+05:30
Gulbarga,Karnataka,17.3297,76.8343,32.8,23,0.0,957.6,8.05,125,0,5,7,0,2026-02-26T16:22:16.610175+05:30
Bidar,Karnataka,17.9104,77.5199,30.6,30,0.0,934.8,8.0,153,0,5,7,0,2026-02-26T16:22:16.610182+05:30
Hospet,Karnataka,15.2689,76.3909,33.0,27,0.0,954.1,8.35,106,0,5,7,0,2026-02-26T16:22:16.610189+05:30
Tirupur,Tamil Nadu,11.1085,77.3411,30.3,47,0.0,973.1,8.4,105,0,5,7,1,2026-02-26T16:22:16.610196+05:30
Alappuzha,Kerala,9.4981,76.3388,28.5,78,0.0,1006.3,8.8,100,7,5,4,1,2026-02-26T16:22:16.610202+05:30
Munnar,Kerala,10.0889,77.0595,24.3,74,0.0,856.1,7.5,75,3,5,7,1,2026-02-26T16:22:16.610209+05:30
Silchar,Assam,24.8333,92.7789,27.0,48,0.0,1004.2,7.15,158,4,5,4,0,2026-02-26T16:22:16.610217+05:30
Dibrugarh,Assam,27.4728,94.912,25.1,58,0.0,995.0,6.9,131,4,5,7,1,2026-02-26T16:22:16.610224+05:30
