city,state,latitude,longitude,temp,humidity,rain,pressure,uv_index,wind_gusts,aqi,pm10,pm2_5,mosquito_risk,arthritis_risk,migraine_risk,frizz_risk,updated_at
Delhi,Delhi,28.6139,77.209,27.0,62,0.0,988.4,5.5,27.7,161,220.3,81.5,7,5,3,1,2026-03-09T10:24:25.161436+05:30
Mumbai,Maharashtra,19.076,72.8777,28.9,60,0.0,1011.0,7.55,24.1,117,44.7,44.4,4,0,4,1,2026-03-09T10:24:25.161482+05:30
Bangalore,Karnataka,12.9716,77.5946,26.3,60,0.0,915.2,9.2,37.4,100,44.4,34.2,4,5,7,1,2026-03-09T10:24:25.161497+05:30
Hyderabad,Telangana,17.385,78.4867,29.6,50,0.0,958.5,8.55,30.2,98,45.2,36.0,4,5,7,1,2026-03-09T10:24:25.161518+05:30
Chennai,Tamil Nadu,13.0827,80.2707,29.7,59,0.0,1012.2,8.95,33.1,79,53.6,39.2,4,0,4,1,2026-03-09T10:24:25.161527+05:30
Kolkata,West Bengal,22.5726,88.3639,28.9,69,0.0,1013.0,7.95,16.6,148,54.6,41.9,7,0,4,1,2026-03-09T10:24:25.161535+05:30
Pune,Maharashtra,18.5204,73.8567,32.2,25,0.0,953.0,8.1,31.0,69,22.9,19.8,0,5,7,0,2026-03-09T10:24:25.161544+05:30
Ahmedabad,Gujarat,23.0225,72.5714,30.1,36,0.0,1007.9,7.4,18.4,63,23.3,17.6,0,5,4,0,2026-03-09T10:24:25.161551+05:30
Jaipur,Rajasthan,26.9124,75.7873,32.1,22,0.0,965.9,6.8,29.2,77,109.0,27.8,0,5,7,0,2026-03-09T10:24:25.161558+05:30
Lucknow,Uttar Pradesh,26.8467,80.9462,29.4,60,0.0,999.7,6.55,20.5,178,161.6,97.6,4,5,7,1,2026-03-09T10:24:25.161564+05:30
Kanpur,Uttar Pradesh,26.4499,80.3319,29.1,61,0.0,997.7,6.55,18.0,166,125.3,62.2,7,5,7,1,2026-03-09T10:24:25.161571+05:30
Chandigarh,Chandigarh,30.7333,76.7794,26.4,52,0.0,973.4,5.95,28.1,128,48.7,29.6,4,5,3,0,2026-03-09T10:24:25.161577+05:30
Srinagar,Jammu and Kashmir,34.0837,74.7973,15.4,59,0.0,848.0,6.35,25.9,131,61.5,47.7,0,5,7,0,2026-03-09T10:24:25.161584+05:30
Jammu,Jammu and Kashmir,32.7266,74.857,26.4,65,0.0,977.2,6.55,20.9,86,38.5,32.4,7,5,7,1,2026-03-09T10:24:25.161590+05:30
Amritsar,Punjab,31.634,74.8723,27.0,68,0.0,985.7,6.5,16.9,160,109.7,89.2,7,5,7,1,2026-03-09T10:24:25.161596+05:30
Ludhiana,Punjab,30.901,75.8573,27.0,63,0.0,983.8,6.05,22.7,156,85.9,75.4,7,5,7,1,2026-03-09T10:24:25.161602+05:30
Jalandhar,Punjab,31.326,75.5762,26.5,66,0.0,984.9,6.25,20.9,159,94.3,77.5,7,5,7,1,2026-03-09T10:24:25.161610+05:30
Dehradun,Uttarakhand,30.6284,78.0322,21.6,41,0.0,835.6,6.3,29.9,74,31.4,12.7,0,5,7,0,2026-03-09T10:24:25.161616+05:30
Shimla,Himachal Pradesh,31.1048,77.1734,20.7,30,0.0,791.2,6.35,50.4,74,44.6,17.1,0,5,7,0,2026-03-09T10:24:25.161621+05:30
Manali,Himachal Pradesh,32.2396,77.1887,22.7,13,0.0,827.0,7.6,35.6,44,12.3,5.7,0,5,7,1,2026-03-09T10:24:25.161627+05:30
Gurgaon,Haryana,28.4595,77.0266,26.5,66,0.0,986.8,5.85,26.3,605,663.1,121.5,7,5,3,1,2026-03-09T10:24:25.161633+05:30
Noida,Uttar Pradesh,28.5355,77.391,27.6,61,0.0,989.9,5.5,27.0,605,663.1,121.5,7,5,3,1,2026-03-09T10:24:25.161639+05:30
Ghaziabad,Uttar Pradesh,28.6692,77.4538,27.0,67,0.0,988.0,5.25,27.4,158,224.4,82.4,7,5,3,1,2026-03-09T10:24:25.161645+05:30
Faridabad,Haryana,28.4089,77.3178,27.6,62,0.0,989.1,5.65,24.5,605,663.1,121.5,7,5,3,1,2026-03-09T10:24:25.161651+05:30
Meerut,Uttar Pradesh,28.9845,77.7064,27.4,65,0.0,986.7,5.65,28.4,158,224.4,82.4,7,5,3,1,2026-03-09T10:24:25.161657+05:30
Agra,Uttar Pradesh,27.1767,78.0081,30.4,49,0.0,993.5,6.15,22.3,181,336.2,92.7,0,5,7,1,2026-03-09T10:24:25.161662+05:30
Varanasi,Uttar Pradesh,25.3176,82.9739,29.8,61,0.0,1004.0,7.2,15.8,181,111.5,100.8,7,5,4,1,2026-03-09T10:24:25.161669+05:30
Prayagraj,Uttar Pradesh,25.4358,81.8463,29.2,63,0.0,1002.4,7.1,14.8,188,133.2,117.1,7,5,4,1,2026-03-09T10:24:25.161675+05:30
Gorakhpur,Uttar Pradesh,26.7606,83.3732,26.2,72,0.0,1004.4,6.9,27.0,183,130.4,122.0,7,5,4,1,2026-03-09T10:24:25.161680+05:30
Bareilly,Uttar Pradesh,28.367,79.4304,26.8,77,0.0,992.2,6.25,18.4,166,150.9,97.3,7,5,7,1,2026-03-09T10:24:25.161687+05:30
Aligarh,Uttar Pradesh,27.8974,78.088,29.6,54,0.0,990.9,6.15,24.8,221,312.9,96.6,4,5,7,1,2026-03-09T10:24:25.161692+05:30
Moradabad,Uttar Pradesh,28.8386,78.7733,26.1,78,0.0,988.9,6.05,19.1,171,127.6,106.2,7,5,7,1,2026-03-09T10:24:25.161697+05:30
Saharanpur,Uttar Pradesh,29.9637,77.546,25.9,69,0.0,980.5,5.7,28.4,160,101.5,81.7,7,5,3,1,2026-03-09T10:24:25.161704+05:30
Jhansi,Uttar Pradesh,25.4484,78.5685,31.5,36,0.0,984.1,7.0,25.6,74,20.7,15.5,0,5,7,0,2026-03-09T10:24:28.468714+05:30
Surat,Gujarat,21.1702,72.8311,30.3,39,0.0,1011.4,7.25,24.8,105,37.4,36.0,0,0,4,0,2026-03-09T10:24:28.468746+05:30
Vadodara,Gujarat,22.3072,73.1812,31.0,33,0.0,1009.7,7.4,15.5,68,23.0,21.2,0,0,4,0,2026-03-09T10:24:28.468757+05:30
Rajkot,Gujarat,22.3039,70.8022,29.5,46,0.0,999.6,7.2,24.1,65,30.2,17.8,4,5,7,1,2026-03-09T10:24:28.468767+05:30
Thane,Maharashtra,19.2183,72.9781,33.6,31,0.0,1010.7,7.55,33.8,117,44.7,44.4,0,0,4,0,2026-03-09T10:24:28.468776+05:30
Nagpur,Maharashtra,21.1458,79.0882,31.4,35,0.0,979.3,7.95,28.8,81,55.1,35.5,0,5,7,0,2026-03-09T10:24:28.468785+05:30
Nashik,Maharashtra,19.9975,73.7898,31.5,28,0.0,950.7,7.75,31.0,53,14.8,14.3,0,5,7,0,2026-03-09T10:24:28.468794+05:30
Aurangabad,Maharashtra,19.8762,75.3433,32.0,21,0.0,949.6,8.25,34.2,65,18.7,12.0,0,5,7,0,2026-03-09T10:24:28.468803+05:30
Solapur,Maharashtra,17.6599,75.9064,29.6,40,0.0,961.9,8.45,26.6,75,39.2,31.0,4,5,7,0,2026-03-09T10:24:28.468812+05:30
Kolhapur,Maharashtra,16.705,74.2433,29.4,40,0.0,951.9,8.6,40.0,139,56.1,52.9,4,5,7,0,2026-03-09T10:24:28.468820+05:30
Goa,Goa,15.2993,74.124,30.6,63,0.0,1000.6,8.65,34.2,136,57.4,52.3,3,5,4,1,2026-03-09T10:24:28.468828+05:30
Jodhpur,Rajasthan,26.2389,73.0243,30.2,35,0.0,989.6,7.1,22.7,57,75.4,23.2,0,5,7,0,2026-03-09T10:24:28.468835+05:30
Udaipur,Rajasthan,24.5854,73.7125,31.4,20,0.0,953.0,7.7,14.4,38,15.3,8.6,0,5,7,0,2026-03-09T10:24:28.468842+05:30
Kota,Rajasthan,25.2138,75.8648,30.1,34,0.0,984.9,7.1,17.3,78,18.7,18.5,0,5,7,0,2026-03-09T10:24:28.468849+05:30
Bikaner,Rajasthan,28.0229,73.3119,28.7,37,0.0,987.9,6.8,22.3,55,37.7,15.5,4,5,7,0,2026-03-09T10:24:28.468855+05:30
Ajmer,Rajasthan,26.4499,74.6399,29.1,36,0.0,961.0,7.1,22.3,42,58.1,18.4,4,5,7,0,2026-03-09T10:24:28.468863+05:30
Gwalior,Madhya Pradesh,26.2183,78.1828,30.9,45,0.0,988.9,6.75,23.0,72,81.7,29.6,0,5,7,1,2026-03-09T10:24:28.468869+05:30
Indore,Madhya Pradesh,22.7196,75.8577,30.9,31,0.0,954.2,7.65,24.5,82,21.0,20.9,0,5,7,0,2026-03-09T10:24:28.468876+05:30
Bhopal,Madhya Pradesh,23.2599,77.4126,31.5,34,0.0,960.0,7.55,15.8,69,25.0,15.8,0,5,7,0,2026-03-09T10:24:28.468883+05:30
Jabalpur,Madhya Pradesh,23.1815,79.9864,29.7,43,0.0,968.0,7.65,21.2,115,71.9,46.0,4,5,7,0,2026-03-09T10:24:28.468889+05:30
Ujjain,Madhya Pradesh,23.1765,75.7885,29.4,40,0.0,959.8,7.55,14.8,99,32.9,32.8,4,5,7,0,2026-03-09T10:24:28.468897+05:30
Visakhapatnam,Andhra Pradesh,17.6868,83.2185,30.0,61,0.0,1009.7,8.55,33.8,93,51.6,41.0,7,0,4,1,2026-03-09T10:24:28.468903+05:30
Vijayawada,Andhra Pradesh,16.5062,80.648,28.3,70,0.0,1008.5,8.65,26.3,90,42.8,33.4,7,0,4,1,2026-03-09T10:24:28.468910+05:30
Guntur,Andhra Pradesh,16.3067,80.4365,28.7,68,0.0,1009.5,8.65,27.0,87,39.5,30.3,7,0,4,1,2026-03-09T10:24:28.468917+05:30
Nellore,Andhra Pradesh,14.4426,79.9865,29.4,64,0.0,1011.1,8.8,33.8,77,37.1,28.4,7,0,4,1,2026-03-09T10:24:28.468925+05:30
Kurnool,Andhra Pradesh,15.8281,78.0373,30.7,50,0.0,981.5,8.65,38.5,87,34.7,27.9,0,5,7,1,2026-03-09T10:24:28.468933+05:30
Kakinada,Andhra Pradesh,16.9891,82.2475,29.3,64,0.0,1013.5,8.55,31.7,82,47.6,35.6,7,0,4,1,2026-03-09T10:24:28.468940+05:30
Tirupati,Andhra Pradesh,13.6288,79.4192,28.1,63,0.0,996.5,8.95,38.5,91,34.0,25.1,7,5,7,1,2026-03-09T10:24:28.468947+05:30
Warangal,Telangana,17.9689,79.5941,28.7,66,0.0,984.3,8.4,28.1,114,39.2,32.8,7,5,7,1,2026-03-09T10:24:28.468953+05:30
Nizamabad,Telangana,18.6725,78.0941,31.0,38,0.0,970.1,8.3,31.7,115,39.7,32.7,0,5,7,0,2026-03-09T10:24:28.468960+05:30
Mysore,Karnataka,12.2958,76.6396,27.6,59,0.0,931.7,9.25,41.0,128,46.9,40.5,4,5,7,1,2026-03-09T10:24:28.468968+05:30
Mangalore,Karnataka,12.9141,74.856,28.8,80,0.0,1009.1,8.85,23.8,125,56.0,52.0,7,0,4,1,2026-03-09T10:24:28.468974+05:30
Hubli-Dharwad,Karnataka,15.3647,75.124,29.1,51,0.0,944.6,8.85,36.7,88,39.3,34.0,4,5,7,1,2026-03-09T10:24:28.468981+05:30
Belgaum,Karnataka,15.8497,74.4977,30.9,28,0.0,929.5,8.85,45.0,119,36.2,30.2,0,5,7,0,2026-03-09T10:24:31.773815+05:30
Coimbatore,Tamil Nadu,11.0168,76.9558,27.6,64,0.0,965.5,9.25,47.9,112,34.2,24.9,7,5,7,1,2026-03-09T10:24:31.773847+05:30
Madurai,Tamil Nadu,9.9252,78.1198,29.7,56,0.0,996.8,9.2,36.7,96,24.2,17.0,4,5,7,1,2026-03-09T10:24:31.773858+05:30
Trichy,Tamil Nadu,10.7905,78.7047,29.2,63,0.0,1004.1,9.1,32.4,80,37.7,28.8,7,5,4,1,2026-03-09T10:24:31.773867+05:30
Salem,Tamil Nadu,11.6643,78.146,28.4,61,0.0,981.6,9.15,34.9,109,39.9,30.7,7,5,7,1,2026-03-09T10:24:31.773876+05:30
Tirunelveli,Tamil Nadu,8.7139,77.7567,31.1,50,0.0,1006.7,9.15,31.7,105,24.5,18.1,0,5,4,1,2026-03-09T10:24:31.773884+05:30
Vellore,Tamil Nadu,12.9165,79.1325,28.2,57,0.0,989.4,9.05,41.8,110,35.0,25.6,4,5,7,1,2026-03-09T10:24:31.773893+05:30
Erode,Tamil Nadu,11.341,77.7172,28.9,65,0.0,993.2,9.15,28.8,85,29.6,19.3,7,5,7,1,2026-03-09T10:24:31.773902+05:30
Kochi,Kerala,9.9312,76.2673,27.2,81,0.0,1011.3,8.95,29.9,147,54.5,50.6,7,0,4,1,2026-03-09T10:24:31.773912+05:30
Thiruvananthapuram,Kerala,8.5241,76.9366,27.3,86,0.0,1010.4,9.1,26.6,107,47.7,43.2,7,0,4,1,2026-03-09T10:24:31.773921+05:30
Kozhikode,Kerala,11.2588,75.7804,29.0,76,0.0,1010.4,8.65,24.5,107,26.8,25.3,7,0,4,1,2026-03-09T10:24:31.773929+05:30
Thrissur,Kerala,10.5276,76.2144,31.0,64,0.0,1009.5,9.05,41.4,128,47.3,44.1,3,0,4,1,2026-03-09T10:24:31.773937+05:30
Kannur,Kerala,11.8745,75.3704,29.9,71,0.0,1009.5,8.9,27.0,122,48.9,45.6,7,0,4,1,2026-03-09T10:24:31.773944+05:30
Patna,Bihar,25.5941,85.1376,27.3,71,0.0,1007.6,7.4,30.6,171,99.9,94.5,7,5,4,1,2026-03-09T10:24:31.773951+05:30
Gaya,Bihar,24.7914,85.0002,28.7,70,0.0,1000.1,7.5,27.0,163,96.2,86.1,7,5,4,1,2026-03-09T10:24:31.773958+05:30
Muzaffarpur,Bihar,26.1209,85.3647,26.1,69,0.0,1008.1,7.35,34.2,174,124.3,116.2,7,0,4,1,2026-03-09T10:24:31.773965+05:30
Bhagalpur,Bihar,25.2425,87.0117,27.1,76,0.0,1008.7,7.3,25.9,162,77.8,69.6,7,0,4,1,2026-03-09T10:24:31.773971+05:30
Ranchi,Jharkhand,23.3441,85.3096,27.9,59,0.0,943.8,8.1,33.5,163,86.4,70.5,4,5,7,1,2026-03-09T10:24:31.773978+05:30
Jamshedpur,Jharkhand,22.8046,86.2029,28.8,68,0.0,997.2,8.0,28.8,157,78.2,67.1,7,5,7,1,2026-03-09T10:24:31.773985+05:30
Dhanbad,Jharkhand,23.7957,86.4304,29.5,60,0.0,986.2,7.9,32.8,168,94.8,85.4,4,5,7,1,2026-03-09T10:24:31.773991+05:30
Bokaro,Jharkhand,23.6693,86.1511,29.3,63,0.0,990.2,7.9,35.6,174,97.1,87.1,7,5,7,1,2026-03-09T10:24:31.773998+05:30
Bhubaneswar,Odisha,20.2961,85.8245,30.0,58,0.0,1009.1,8.3,31.3,97,45.6,34.5,4,0,4,1,2026-03-09T10:24:31.774006+05:30
Cuttack,Odisha,20.4625,85.8828,30.2,60,0.0,1011.0,8.35,30.2,97,45.6,34.5,0,0,4,1,2026-03-09T10:24:31.774013+05:30
Rourkela,Odisha,22.2604,84.8536,30.2,58,0.0,991.2,7.9,22.7,167,79.9,66.6,0,5,7,1,2026-03-09T10:24:31.774019+05:30
Raipur,Chhattisgarh,21.2514,81.6296,31.3,41,0.0,980.6,8.0,24.8,161,80.1,72.4,0,5,7,1,2026-03-09T10:24:31.774025+05:30
Bhilai,Chhattisgarh,21.1938,81.3509,31.6,37,0.0,981.0,8.05,24.5,155,82.9,71.2,0,5,7,0,2026-03-09T10:24:31.774032+05:30
Guwahati,Assam,26.1158,91.7086,29.2,59,0.0,1009.3,7.3,11.5,154,75.4,61.0,4,0,4,1,2026-03-09T10:24:31.774038+05:30
Agartala,Tripura,23.8315,91.2868,29.0,62,0.0,1013.6,7.7,10.8,160,74.5,60.1,7,0,4,1,2026-03-09T10:24:31.774045+05:30
Shillong,Meghalaya,25.5788,91.8933,18.1,56,0.0,863.0,6.7,26.6,137,68.9,56.3,0,5,7,0,2026-03-09T10:24:31.774052+05:30
Imphal,Manipur,24.817,93.9368,23.6,56,0.0,930.0,7.95,27.0,159,68.2,60.8,0,5,7,0,2026-03-09T10:24:31.774058+05:30
Aizawl,Mizoram,23.7271,92.7176,23.6,52,0.0,899.6,6.9,27.4,162,89.6,75.7,0,5,7,0,2026-03-09T10:24:31.774065+05:30
Kohima,Nagaland,25.6701,94.1077,18.3,76,0.0,861.6,6.8,55.1,155,66.1,57.6,3,5,7,0,2026-03-09T10:24:31.774071+05:30
Gangtok,Sikkim,27.3314,88.6138,16.7,77,0.0,844.3,4.6,18.4,152,75.2,53.9,3,5,3,0,2026-03-09T10:24:31.774078+05:30
Siliguri,West Bengal,26.7271,88.3953,24.3,58,0.0,1002.4,7.35,18.4,155,77.1,52.7,0,5,4,0,2026-03-09T10:24:35.079341+05:30
Durgapur,West Bengal,23.5204,87.3119,29.7,63,0.0,1001.7,7.6,23.4,160,71.5,63.8,7,5,4,1,2026-03-09T10:24:35.079369+05:30
Asansol,West Bengal,23.6739,86.9524,29.6,63,0.0,1000.3,7.55,27.0,160,72.4,64.5,7,5,4,1,2026-03-09T10:24:35.079377+05:30
Pondicherry,Puducherry,11.9139,79.8145,29.6,63,0.0,1013.1,8.95,32.4,71,52.4,37.7,7,0,4,1,2026-03-09T10:24:35.079384+05:30
Port Blair,Andaman and Nicobar Islands,11.6234,92.7265,27.8,76,0.0,1011.0,8.9,27.4,84,31.0,25.8,7,0,4,1,2026-03-09T10:24:35.079391+05:30
Haridwar,Uttarakhand,29.9457,78.1642,27.7,64,0.0,979.1,5.8,25.6,159,99.4,67.3,7,5,3,1,2026-03-09T10:24:35.079398+05:30
Rishikesh,Uttarakhand,30.0869,78.2676,28.5,56,0.0,971.7,5.85,27.0,155,83.8,59.4,4,5,3,1,2026-03-09T10:24:35.079404+05:30
Nainital,Uttarakhand,29.3919,79.4542,21.2,73,0.0,811.3,6.7,55.8,158,104.5,65.7,3,5,7,1,2026-03-09T10:24:35.079410+05:30
Mussoorie,Uttarakhand,30.4599,78.0664,21.7,43,0.0,808.3,6.2,41.0,152,79.4,53.3,0,5,7,0,2026-03-09T10:24:35.079416+05:30
Dharamshala,Himachal Pradesh,32.219,76.3234,25.5,32,0.0,874.6,6.45,26.6,54,24.3,8.4,4,5,7,0,2026-03-09T10:24:35.079422+05:30
Dalhousie,Himachal Pradesh,32.5387,75.971,24.4,20,0.0,810.3,6.65,21.6,81,28.1,17.4,0,5,7,0,2026-03-09T10:24:35.079428+05:30
Patiala,Punjab,30.3398,76.3869,27.4,63,0.0,983.1,5.4,25.6,165,264.5,79.6,7,5,3,1,2026-03-09T10:24:35.079434+05:30
Bhatinda,Punjab,30.211,74.9455,28.4,66,0.0,989.0,6.05,21.6,153,119.2,96.6,7,5,7,1,2026-03-09T10:24:35.079440+05:30
Rohtak,Haryana,28.8955,76.6066,27.4,66,0.0,987.2,6.05,28.4,173,227.2,73.1,7,5,7,1,2026-03-09T10:24:35.079446+05:30
Panipat,Haryana,29.3909,76.9635,28.2,63,0.0,985.5,5.75,28.8,510,555.1,110.6,7,5,3,1,2026-03-09T10:24:35.079452+05:30
Mathura,Uttar Pradesh,27.4924,77.6737,30.7,49,0.0,992.4,6.3,24.1,188,288.7,75.9,0,5,7,1,2026-03-09T10:24:35.079457+05:30
Vrindavan,Uttar Pradesh,27.5823,77.7027,30.2,51,0.0,992.9,6.25,26.3,188,288.7,75.9,0,5,7,1,2026-03-09T10:24:35.079463+05:30
Ayodhya,Uttar Pradesh,26.7922,82.1998,27.2,72,0.0,1002.1,6.7,17.3,190,152.3,138.8,7,5,4,1,2026-03-09T10:24:35.079468+05:30
Ratlam,Madhya Pradesh,23.3315,75.0367,29.7,42,0.0,960.3,7.5,11.9,81,28.9,28.7,4,5,7,0,2026-03-09T10:24:35.079474+05:30
Sagar,Madhya Pradesh,23.8388,78.7378,30.9,36,0.0,956.5,7.5,16.9,69,34.5,17.7,0,5,7,0,2026-03-09T10:24:35.079480+05:30
Satna,Madhya Pradesh,24.6005,80.8322,30.5,46,0.0,977.6,7.45,24.1,151,85.4,53.1,0,5,7,1,2026-03-09T10:24:35.079485+05:30
Akola,Maharashtra,20.7002,77.0082,32.0,28,0.0,981.1,7.95,19.1,69,27.4,19.1,0,5,7,0,2026-03-09T10:24:35.079491+05:30
Amravati,Maharashtra,20.9374,77.7796,33.1,28,0.0,973.3,7.9,26.6,63,30.7,20.4,0,5,7,0,2026-03-09T10:24:35.079497+05:30
Latur,Maharashtra,18.4088,76.5604,31.1,28,0.0,945.0,8.4,29.5,97,28.1,23.6,0,5,7,0,2026-03-09T10:24:35.079520+05:30
Nanded,Maharashtra,19.1383,77.3091,33.4,23,0.0,974.1,8.15,29.9,78,32.9,24.3,0,5,7,0,2026-03-09T10:24:35.079526+05:30
Gulbarga,Karnataka,17.3297,76.8343,32.7,28,0.0,963.5,8.5,32.0,83,39.2,32.8,0,5,7,0,2026-03-09T10:24:35.079531+05:30
Bidar,Karnataka,17.9104,77.5199,31.0,31,0.0,940.7,8.45,31.7,102,30.3,24.9,0,5,7,0,2026-03-09T10:24:35.079537+05:30
Hospet,Karnataka,15.2689,76.3909,28.8,52,0.0,960.0,8.8,36.7,89,39.7,33.3,4,5,7,1,2026-03-09T10:24:35.079543+05:30
Tirupur,Tamil Nadu,11.1085,77.3411,29.0,57,0.0,979.3,9.25,39.2,101,30.5,19.0,4,5,7,1,2026-03-09T10:24:35.079548+05:30
Alappuzha,Kerala,9.4981,76.3388,26.8,81,0.0,1011.5,8.95,25.6,130,44.9,42.0,7,0,4,1,2026-03-09T10:24:35.079554+05:30
Munnar,Kerala,10.0889,77.0595,26.1,53,0.0,860.3,9.55,19.1,104,40.0,24.3,4,5,7,0,2026-03-09T10:24:35.079561+05:30
Silchar,Assam,24.8333,92.7789,27.8,68,0.0,1012.5,7.65,12.6,166,94.3,80.1,7,0,4,1,2026-03-09T10:24:35.079567+05:30
Dibrugarh,Assam,27.4728,94.912,27.7,62,0.0,1002.8,7.4,14.0,159,100.6,81.5,7,5,4,1,2026-03-09T10:24:35.079573+05:30
