city,state,latitude,longitude,temp,humidity,rain,pressure,uv_index,wind_gusts,aqi,pm10,pm2_5,mosquito_risk,arthritis_risk,migraine_risk,frizz_risk,updated_at
Delhi,Delhi,28.6139,77.209,41.2,13,0.0,981.5,7.25,50.4,348,306.4,49.0,0,5,10,0,2026-04-25T14:27:11.195461+05:30
Mumbai,Maharashtra,19.076,72.8777,37.5,41,0.0,1005.4,8.0,44.6,79,44.5,33.3,0,5,7,1,2026-04-25T14:27:11.195508+05:30
Bangalore,Karnataka,12.9716,77.5946,35.2,21,0.0,912.2,9.5,37.1,74,36.6,27.5,0,5,10,0,2026-04-25T14:27:11.195524+05:30
Hyderabad,Telangana,17.385,78.4867,38.9,19,0.0,953.0,9.3,31.7,124,52.0,43.7,0,5,10,0,2026-04-25T14:27:11.195535+05:30
Chennai,Tamil Nadu,13.0827,80.2707,34.5,52,0.0,1005.7,9.3,51.1,31,13.0,8.8,0,5,4,1,2026-04-25T14:27:11.195544+05:30
Kolkata,West Bengal,22.5726,88.3639,38.0,44,0.0,1002.9,8.45,43.9,81,41.6,32.1,0,5,7,1,2026-04-25T14:27:11.195557+05:30
Pune,Maharashtra,18.5204,73.8567,40.0,12,0.0,947.4,8.45,37.8,99,31.9,25.2,0,5,10,0,2026-04-25T14:27:11.195565+05:30
Ahmedabad,Gujarat,23.0225,72.5714,42.5,16,0.0,1000.1,8.2,24.1,63,64.5,18.7,0,5,7,0,2026-04-25T14:27:11.195573+05:30
Jaipur,Rajasthan,26.9124,75.7873,41.9,12,0.0,959.6,8.05,31.0,126,163.0,31.3,0,5,10,0,2026-04-25T14:27:11.195581+05:30
Lucknow,Uttar Pradesh,26.8467,80.9462,43.4,10,0.0,989.6,7.9,43.6,130,230.0,42.0,0,5,10,0,2026-04-25T14:27:11.195588+05:30
Kanpur,Uttar Pradesh,26.4499,80.3319,44.1,10,0.0,988.0,7.95,45.4,145,393.9,49.0,0,5,10,0,2026-04-25T14:27:11.195596+05:30
Chandigarh,Chandigarh,30.7333,76.7794,34.5,28,0.0,969.4,7.25,58.3,66,53.4,16.5,0,5,7,0,2026-04-25T14:27:11.195603+05:30
Srinagar,Jammu and Kashmir,34.0837,74.7973,19.5,60,0.0,847.1,8.6,36.7,71,52.2,14.4,0,5,7,0,2026-04-25T14:27:11.195610+05:30
Jammu,Jammu and Kashmir,32.7266,74.857,36.5,20,0.0,973.6,8.2,27.7,78,91.7,20.8,0,5,10,0,2026-04-25T14:27:11.195618+05:30
Amritsar,Punjab,31.634,74.8723,39.0,17,0.0,980.8,8.1,33.5,85,155.1,33.2,0,5,10,0,2026-04-25T14:27:11.195625+05:30
Ludhiana,Punjab,30.901,75.8573,37.3,20,0.0,979.4,7.7,48.6,77,89.9,22.8,0,5,10,0,2026-04-25T14:27:11.195635+05:30
Jalandhar,Punjab,31.326,75.5762,37.2,20,0.0,980.4,7.85,38.5,87,131.3,28.1,0,5,10,0,2026-04-25T14:27:11.195641+05:30
Dehradun,Uttarakhand,30.6284,78.0322,25.2,34,0.0,834.6,7.85,52.9,54,44.6,12.1,4,5,7,0,2026-04-25T14:27:11.195648+05:30
Shimla,Himachal Pradesh,31.1048,77.1734,22.6,27,0.0,790.0,7.45,55.8,56,40.9,11.1,0,5,7,0,2026-04-25T14:27:11.195655+05:30
Manali,Himachal Pradesh,32.2396,77.1887,20.0,45,0.0,822.0,9.85,43.9,89,37.1,9.4,0,5,7,0,2026-04-25T14:27:11.195662+05:30
Gurgaon,Haryana,28.4595,77.0266,40.2,14,0.0,980.5,7.45,51.1,874,983.5,104.8,0,5,10,0,2026-04-25T14:27:11.195671+05:30
Noida,Uttar Pradesh,28.5355,77.391,41.8,14,0.0,982.3,7.3,43.9,874,983.5,104.8,0,5,10,0,2026-04-25T14:27:11.195679+05:30
Ghaziabad,Uttar Pradesh,28.6692,77.4538,41.4,13,0.0,980.9,7.25,50.8,175,230.5,40.5,0,5,10,0,2026-04-25T14:27:11.195685+05:30
Faridabad,Haryana,28.4089,77.3178,41.2,13,0.0,981.9,7.35,52.6,874,983.5,104.8,0,5,10,0,2026-04-25T14:27:11.195691+05:30
Meerut,Uttar Pradesh,28.9845,77.7064,40.4,17,0.0,979.4,7.35,55.4,175,230.5,40.5,0,5,10,0,2026-04-25T14:27:11.195698+05:30
Agra,Uttar Pradesh,27.1767,78.0081,42.8,12,0.0,985.6,7.8,45.0,270,534.6,61.7,0,5,10,0,2026-04-25T14:27:11.195707+05:30
Varanasi,Uttar Pradesh,25.3176,82.9739,44.1,10,0.0,993.5,8.5,41.0,125,169.0,36.3,0,5,10,0,2026-04-25T14:27:11.195714+05:30
Prayagraj,Uttar Pradesh,25.4358,81.8463,43.0,12,0.0,992.7,8.4,29.5,94,164.4,36.3,0,5,10,0,2026-04-25T14:27:11.195722+05:30
Gorakhpur,Uttar Pradesh,26.7606,83.3732,39.6,18,0.0,994.5,8.35,41.4,154,145.8,50.1,0,5,10,0,2026-04-25T14:27:11.195729+05:30
Bareilly,Uttar Pradesh,28.367,79.4304,41.0,18,0.0,983.6,7.7,48.2,124,65.2,26.6,0,5,10,0,2026-04-25T14:27:11.195735+05:30
Aligarh,Uttar Pradesh,27.8974,78.088,42.3,13,0.0,983.3,7.6,47.9,333,429.3,54.7,0,5,10,0,2026-04-25T14:27:11.195741+05:30
Moradabad,Uttar Pradesh,28.8386,78.7733,40.8,17,0.0,981.4,7.5,49.3,156,79.9,39.8,0,5,10,0,2026-04-25T14:27:11.195747+05:30
Saharanpur,Uttar Pradesh,29.9637,77.546,38.3,17,0.0,974.6,7.1,53.6,99,85.0,22.9,0,5,10,0,2026-04-25T14:27:11.195753+05:30
Jhansi,Uttar Pradesh,25.4484,78.5685,43.3,11,0.0,975.8,8.3,29.5,58,106.4,23.7,0,5,10,0,2026-04-25T14:27:14.420038+05:30
Surat,Gujarat,21.1702,72.8311,42.7,18,0.0,1004.2,7.85,36.7,101,75.2,45.9,0,5,7,0,2026-04-25T14:27:14.420071+05:30
Vadodara,Gujarat,22.3072,73.1812,43.0,14,0.0,1002.0,8.15,25.2,83,68.9,24.2,0,5,7,0,2026-04-25T14:27:14.420081+05:30
Rajkot,Gujarat,22.3039,70.8022,41.5,14,0.0,993.2,7.9,33.1,48,53.7,15.7,0,5,10,0,2026-04-25T14:27:14.420090+05:30
Thane,Maharashtra,19.2183,72.9781,44.2,11,0.0,1004.0,8.0,47.5,79,44.5,33.3,0,5,7,0,2026-04-25T14:27:14.420096+05:30
Nagpur,Maharashtra,21.1458,79.0882,43.7,9,0.0,971.3,8.9,29.9,103,32.8,23.9,0,5,10,0,2026-04-25T14:27:14.420104+05:30
Nashik,Maharashtra,19.9975,73.7898,40.8,13,0.0,944.9,8.25,31.7,78,30.0,20.5,0,5,10,0,2026-04-25T14:27:14.420110+05:30
Aurangabad,Maharashtra,19.8762,75.3433,40.5,12,0.0,943.9,8.75,29.5,93,33.1,21.4,0,5,10,0,2026-04-25T14:27:14.420118+05:30
Solapur,Maharashtra,17.6599,75.9064,40.7,16,0.0,955.9,8.65,24.8,116,45.2,37.1,0,5,10,0,2026-04-25T14:27:14.420124+05:30
Kolhapur,Maharashtra,16.705,74.2433,38.5,18,0.0,947.3,9.05,34.2,150,47.7,39.2,0,5,10,0,2026-04-25T14:27:14.420131+05:30
Goa,Goa,15.2993,74.124,38.5,44,0.0,995.4,8.95,32.0,76,28.9,22.6,0,5,10,1,2026-04-25T14:27:14.420138+05:30
Jodhpur,Rajasthan,26.2389,73.0243,43.3,11,0.0,981.9,8.3,27.4,104,156.5,30.0,0,5,10,0,2026-04-25T14:27:14.420144+05:30
Udaipur,Rajasthan,24.5854,73.7125,39.5,15,0.0,946.9,8.8,42.5,57,62.6,16.1,0,5,10,0,2026-04-25T14:27:14.420151+05:30
Kota,Rajasthan,25.2138,75.8648,43.3,12,0.0,977.2,8.3,32.8,71,117.6,27.7,0,5,10,0,2026-04-25T14:27:14.420158+05:30
Bikaner,Rajasthan,28.0229,73.3119,43.2,12,0.0,980.5,8.15,33.8,68,107.6,26.0,0,5,10,0,2026-04-25T14:27:14.420164+05:30
Ajmer,Rajasthan,26.4499,74.6399,41.0,12,0.0,955.0,8.25,33.5,73,130.4,26.8,0,5,10,0,2026-04-25T14:27:14.420171+05:30
Gwalior,Madhya Pradesh,26.2183,78.1828,43.2,10,0.0,981.0,8.05,39.6,85,181.1,33.8,0,5,10,0,2026-04-25T14:27:14.420177+05:30
Indore,Madhya Pradesh,22.7196,75.8577,41.8,10,0.0,947.6,8.65,32.4,53,33.6,11.5,0,5,10,0,2026-04-25T14:27:14.420183+05:30
Bhopal,Madhya Pradesh,23.2599,77.4126,42.4,9,0.0,952.7,8.65,30.6,55,26.8,9.7,0,5,10,0,2026-04-25T14:27:14.420189+05:30
Jabalpur,Madhya Pradesh,23.1815,79.9864,42.0,10,0.0,960.2,8.75,32.0,65,16.8,9.2,0,5,10,0,2026-04-25T14:27:14.420195+05:30
Ujjain,Madhya Pradesh,23.1765,75.7885,41.5,11,0.0,953.0,8.55,29.2,55,49.5,14.5,0,5,10,0,2026-04-25T14:27:14.420202+05:30
Visakhapatnam,Andhra Pradesh,17.6868,83.2185,34.2,55,0.0,1002.1,8.7,44.3,61,21.6,16.7,0,5,4,1,2026-04-25T14:27:14.420209+05:30
Vijayawada,Andhra Pradesh,16.5062,80.648,39.0,31,0.0,1001.0,8.65,34.2,52,20.7,15.1,0,5,7,1,2026-04-25T14:27:14.420215+05:30
Guntur,Andhra Pradesh,16.3067,80.4365,38.0,35,0.0,1002.5,8.7,40.0,55,24.1,18.0,0,5,7,1,2026-04-25T14:27:14.420221+05:30
Nellore,Andhra Pradesh,14.4426,79.9865,37.1,43,0.0,1003.8,9.2,42.1,42,23.6,16.7,0,5,7,1,2026-04-25T14:27:14.420228+05:30
Kurnool,Andhra Pradesh,15.8281,78.0373,41.8,15,0.0,975.1,8.9,32.8,82,37.6,30.7,0,5,10,0,2026-04-25T14:27:14.420235+05:30
Kakinada,Andhra Pradesh,16.9891,82.2475,39.0,36,0.0,1005.2,8.45,39.6,41,14.7,9.5,0,5,7,1,2026-04-25T14:27:14.420242+05:30
Tirupati,Andhra Pradesh,13.6288,79.4192,39.7,23,0.0,989.0,9.35,37.4,58,25.7,19.2,0,5,10,0,2026-04-25T14:27:14.420268+05:30
Warangal,Telangana,17.9689,79.5941,39.8,23,0.0,977.9,8.9,28.1,107,44.7,37.3,0,5,10,0,2026-04-25T14:27:14.420275+05:30
Nizamabad,Telangana,18.6725,78.0941,40.7,15,0.0,963.9,9.05,27.7,117,31.5,22.2,0,5,10,0,2026-04-25T14:27:14.420281+05:30
Mysore,Karnataka,12.2958,76.6396,35.4,24,0.0,928.0,8.85,44.6,87,26.7,20.8,0,5,10,0,2026-04-25T14:27:14.420288+05:30
Mangalore,Karnataka,12.9141,74.856,33.5,64,0.0,1004.3,9.1,41.4,64,27.2,21.7,3,5,4,1,2026-04-25T14:27:14.420294+05:30
Hubli-Dharwad,Karnataka,15.3647,75.124,38.3,20,0.0,940.3,9.1,37.8,101,40.4,32.2,0,5,10,0,2026-04-25T14:27:14.420301+05:30
Belgaum,Karnataka,15.8497,74.4977,37.0,19,0.0,925.8,9.15,37.1,114,47.4,38.3,0,5,10,0,2026-04-25T14:27:17.644880+05:30
Coimbatore,Tamil Nadu,11.0168,76.9558,38.0,22,0.0,960.2,8.9,46.4,73,20.1,15.6,0,5,10,0,2026-04-25T14:27:17.644915+05:30
Madurai,Tamil Nadu,9.9252,78.1198,39.5,24,0.0,990.5,9.1,39.6,53,16.4,13.8,0,5,10,0,2026-04-25T14:27:17.644927+05:30
Trichy,Tamil Nadu,10.7905,78.7047,38.2,31,0.0,997.2,9.3,33.1,50,15.9,12.1,0,5,10,1,2026-04-25T14:27:17.644935+05:30
Salem,Tamil Nadu,11.6643,78.146,39.1,22,0.0,975.3,9.0,42.1,59,22.5,17.3,0,5,10,0,2026-04-25T14:27:17.644942+05:30
Tirunelveli,Tamil Nadu,8.7139,77.7567,38.5,26,0.0,1000.5,9.2,40.7,66,12.7,11.6,0,5,7,0,2026-04-25T14:27:17.644949+05:30
Vellore,Tamil Nadu,12.9165,79.1325,39.0,25,0.0,982.6,9.25,36.0,80,26.2,21.1,0,5,10,0,2026-04-25T14:27:17.644956+05:30
Erode,Tamil Nadu,11.341,77.7172,39.2,23,0.0,986.7,9.25,46.1,49,16.8,12.6,0,5,10,0,2026-04-25T14:27:17.644962+05:30
Kochi,Kerala,9.9312,76.2673,33.2,59,0.0,1005.9,8.05,39.2,93,25.0,22.6,0,5,4,1,2026-04-25T14:27:17.644970+05:30
Thiruvananthapuram,Kerala,8.5241,76.9366,31.0,71,0.1,1006.0,8.2,33.1,62,20.5,17.6,6,5,4,1,2026-04-25T14:27:17.644977+05:30
Kozhikode,Kerala,11.2588,75.7804,32.8,66,0.0,1005.0,8.55,37.1,83,24.6,21.3,3,5,4,1,2026-04-25T14:27:17.644983+05:30
Thrissur,Kerala,10.5276,76.2144,33.2,57,0.0,1003.9,8.15,44.3,87,18.9,16.5,0,5,4,1,2026-04-25T14:27:17.644990+05:30
Kannur,Kerala,11.8745,75.3704,32.8,66,0.0,1004.5,8.55,40.7,72,23.6,19.3,3,5,4,1,2026-04-25T14:27:17.644997+05:30
Patna,Bihar,25.5941,85.1376,34.1,45,0.0,998.2,8.65,60.1,152,128.5,56.5,0,5,7,1,2026-04-25T14:27:17.645004+05:30
Gaya,Bihar,24.7914,85.0002,42.0,11,0.0,990.6,8.7,48.2,124,89.4,22.9,0,5,10,0,2026-04-25T14:27:17.645009+05:30
Muzaffarpur,Bihar,26.1209,85.3647,28.0,76,0.0,999.6,8.65,34.6,155,117.3,61.9,7,5,7,1,2026-04-25T14:27:17.645016+05:30
Bhagalpur,Bihar,25.2425,87.0117,33.0,60,0.0,999.0,8.6,52.9,154,123.4,57.5,0,5,7,1,2026-04-25T14:27:17.645022+05:30
Ranchi,Jharkhand,23.3441,85.3096,37.5,16,0.0,937.3,9.2,28.8,148,54.7,26.4,0,5,10,0,2026-04-25T14:27:17.645028+05:30
Jamshedpur,Jharkhand,22.8046,86.2029,42.7,13,0.0,987.8,8.9,35.3,137,86.1,56.0,0,5,10,0,2026-04-25T14:27:17.645034+05:30
Dhanbad,Jharkhand,23.7957,86.4304,42.3,13,0.0,976.8,8.95,42.1,156,102.0,70.5,0,5,10,0,2026-04-25T14:27:17.645040+05:30
Bokaro,Jharkhand,23.6693,86.1511,42.0,13,0.0,980.6,9.0,34.6,157,86.4,48.1,0,5,10,0,2026-04-25T14:27:17.645047+05:30
Bhubaneswar,Odisha,20.2961,85.8245,34.4,61,0.0,1000.9,9.1,41.0,68,29.9,22.7,3,5,4,1,2026-04-25T14:27:17.645053+05:30
Cuttack,Odisha,20.4625,85.8828,35.8,59,0.0,1002.3,9.15,37.8,68,29.9,22.7,0,5,7,1,2026-04-25T14:27:17.645059+05:30
Rourkela,Odisha,22.2604,84.8536,42.6,12,0.0,982.3,8.6,45.0,158,54.7,43.1,0,5,10,0,2026-04-25T14:27:17.645065+05:30
Raipur,Chhattisgarh,21.2514,81.6296,42.8,10,0.0,972.7,9.0,31.0,148,32.1,23.7,0,5,10,0,2026-04-25T14:27:17.645071+05:30
Bhilai,Chhattisgarh,21.1938,81.3509,42.5,10,0.0,973.1,9.0,35.6,121,31.0,21.5,0,5,10,0,2026-04-25T14:27:17.645077+05:30
Guwahati,Assam,26.1158,91.7086,31.9,59,0.0,999.9,8.55,42.1,161,103.8,63.6,0,5,7,1,2026-04-25T14:27:17.645083+05:30
Agartala,Tripura,23.8315,91.2868,37.5,36,0.0,1003.2,8.75,35.6,153,70.3,39.1,0,5,7,1,2026-04-25T14:27:17.645090+05:30
Shillong,Meghalaya,25.5788,91.8933,25.2,48,0.0,858.9,8.2,27.0,146,88.7,44.9,4,5,7,0,2026-04-25T14:27:17.645096+05:30
Imphal,Manipur,24.817,93.9368,32.0,34,0.0,922.5,9.1,34.2,155,78.5,36.6,0,5,7,0,2026-04-25T14:27:17.645102+05:30
Aizawl,Mizoram,23.7271,92.7176,33.0,21,0.0,893.6,8.95,37.8,121,80.8,28.6,0,5,7,0,2026-04-25T14:27:17.645108+05:30
Kohima,Nagaland,25.6701,94.1077,22.8,74,0.0,856.7,8.8,38.2,155,109.4,56.5,3,5,7,1,2026-04-25T14:27:17.645114+05:30
Gangtok,Sikkim,27.3314,88.6138,21.0,60,0.0,839.6,8.8,41.4,96,44.5,26.4,0,5,7,0,2026-04-25T14:27:17.645120+05:30
Siliguri,West Bengal,26.7271,88.3953,31.3,56,0.0,992.3,8.45,29.2,151,88.5,51.7,0,5,7,1,2026-04-25T14:27:20.871415+05:30
Durgapur,West Bengal,23.5204,87.3119,37.5,49,0.0,992.2,8.9,38.2,141,89.9,64.0,0,5,10,1,2026-04-25T14:27:20.871449+05:30
Asansol,West Bengal,23.6739,86.9524,36.8,44,0.0,991.3,8.95,38.9,141,90.1,67.3,0,5,10,1,2026-04-25T14:27:20.871460+05:30
Pondicherry,Puducherry,11.9139,79.8145,32.9,59,0.0,1007.1,9.15,44.6,25,11.2,7.3,0,5,4,1,2026-04-25T14:27:20.871468+05:30
Port Blair,Andaman and Nicobar Islands,11.6234,92.7265,33.0,56,0.0,1005.5,9.15,32.4,37,17.0,10.5,0,5,4,1,2026-04-25T14:27:20.871476+05:30
Haridwar,Uttarakhand,29.9457,78.1642,36.2,28,0.0,973.3,7.2,32.8,78,70.1,19.9,0,5,10,0,2026-04-25T14:27:20.871483+05:30
Rishikesh,Uttarakhand,30.0869,78.2676,34.8,28,0.0,966.5,7.35,37.4,64,62.6,17.2,0,5,7,0,2026-04-25T14:27:20.871490+05:30
Nainital,Uttarakhand,29.3919,79.4542,25.4,28,0.0,809.6,8.15,43.6,91,44.0,18.6,4,5,7,0,2026-04-25T14:27:20.871497+05:30
Mussoorie,Uttarakhand,30.4599,78.0664,23.1,33,0.0,807.5,7.75,58.7,67,56.9,16.8,0,5,7,0,2026-04-25T14:27:20.871505+05:30
Dharamshala,Himachal Pradesh,32.219,76.3234,27.8,26,0.0,872.5,7.55,59.0,49,54.7,11.3,4,5,7,0,2026-04-25T14:27:20.871511+05:30
Dalhousie,Himachal Pradesh,32.5387,75.971,23.2,32,0.0,809.6,8.1,45.7,57,73.6,16.2,0,5,7,0,2026-04-25T14:27:20.871519+05:30
Patiala,Punjab,30.3398,76.3869,38.7,17,0.0,978.2,7.35,56.2,408,635.2,63.8,0,5,10,0,2026-04-25T14:27:20.871527+05:30
Bhatinda,Punjab,30.211,74.9455,39.8,16,0.0,983.9,8.0,46.1,85,121.1,29.8,0,5,10,0,2026-04-25T14:27:20.871534+05:30
Rohtak,Haryana,28.8955,76.6066,39.8,16,0.0,981.1,7.45,54.4,576,466.6,58.8,0,5,10,0,2026-04-25T14:27:20.871541+05:30
Panipat,Haryana,29.3909,76.9635,41.8,13,0.0,978.9,7.15,51.1,996,979.8,93.6,0,5,10,0,2026-04-25T14:27:20.871547+05:30
Mathura,Uttar Pradesh,27.4924,77.6737,42.2,13,0.0,984.9,7.65,45.0,365,532.7,64.5,0,5,10,0,2026-04-25T14:27:20.871554+05:30
Vrindavan,Uttar Pradesh,27.5823,77.7027,42.1,13,0.0,985.2,7.55,45.0,365,532.7,64.5,0,5,10,0,2026-04-25T14:27:20.871560+05:30
Ayodhya,Uttar Pradesh,26.7922,82.1998,43.4,12,0.0,991.5,8.1,38.5,136,165.8,43.8,0,5,10,0,2026-04-25T14:27:20.871566+05:30
Ratlam,Madhya Pradesh,23.3315,75.0367,41.8,12,0.0,953.9,8.45,25.9,54,47.3,13.9,0,5,10,0,2026-04-25T14:27:20.871573+05:30
Sagar,Madhya Pradesh,23.8388,78.7378,41.3,12,0.0,949.5,8.65,29.9,84,29.1,11.1,0,5,10,0,2026-04-25T14:27:20.871579+05:30
Satna,Madhya Pradesh,24.6005,80.8322,43.0,11,0.0,969.3,8.7,43.9,81,149.0,30.7,0,5,10,0,2026-04-25T14:27:20.871584+05:30
Akola,Maharashtra,20.7002,77.0082,42.4,13,0.0,973.5,8.7,23.8,74,26.4,13.5,0,5,10,0,2026-04-25T14:27:20.871592+05:30
Amravati,Maharashtra,20.9374,77.7796,42.5,11,0.0,966.0,8.5,27.7,76,25.5,12.7,0,5,10,0,2026-04-25T14:27:20.871598+05:30
Latur,Maharashtra,18.4088,76.5604,40.0,14,0.0,939.9,8.8,32.8,101,31.7,25.1,0,5,10,0,2026-04-25T14:27:20.871605+05:30
Nanded,Maharashtra,19.1383,77.3091,41.9,12,0.0,967.4,8.6,28.1,105,28.9,19.8,0,5,10,0,2026-04-25T14:27:20.871611+05:30
Gulbarga,Karnataka,17.3297,76.8343,40.1,17,0.0,958.0,9.15,26.6,117,50.1,41.4,0,5,10,0,2026-04-25T14:27:20.871617+05:30
Bidar,Karnataka,17.9104,77.5199,38.8,18,0.0,936.0,8.9,27.0,120,41.7,34.6,0,5,10,0,2026-04-25T14:27:20.871622+05:30
Hospet,Karnataka,15.2689,76.3909,38.0,23,0.0,954.9,9.3,27.4,95,41.9,34.1,0,5,10,0,2026-04-25T14:27:20.871628+05:30
Tirupur,Tamil Nadu,11.1085,77.3411,39.2,22,0.0,973.1,9.4,42.1,55,16.8,12.7,0,5,10,0,2026-04-25T14:27:20.871633+05:30
Alappuzha,Kerala,9.4981,76.3388,31.2,73,0.0,1006.2,8.05,36.7,88,31.1,28.5,3,5,4,1,2026-04-25T14:27:20.871639+05:30
Munnar,Kerala,10.0889,77.0595,26.6,36,0.0,858.1,9.15,31.7,61,11.0,9.1,4,5,7,0,2026-04-25T14:27:20.871645+05:30
Silchar,Assam,24.8333,92.7789,34.5,53,0.0,1001.9,8.75,21.6,159,125.3,51.0,0,5,4,1,2026-04-25T14:27:20.871651+05:30
Dibrugarh,Assam,27.4728,94.912,28.5,69,0.0,995.1,8.6,31.7,97,74.3,36.3,7,5,7,1,2026-04-25T14:27:20.871657+05:30
