city,state,latitude,longitude,temp,humidity,rain,pressure,uv_index,wind_gusts,aqi,pm10,pm2_5,no2,co,o3,so2,mosquito_risk,arthritis_risk,migraine_risk,frizz_risk,updated_at
Delhi,Delhi,28.6139,77.209,31.0,43,0.0,978.9,7.55,29.9,301,294.3,67.8,24.5,549.0,119.0,24.2,0,5,7,1,2026-05-01T21:32:49.309060+05:30
Mumbai,Maharashtra,19.076,72.8777,29.3,74,0.0,1008.1,7.9,46.4,66,52.2,17.8,9.1,215.0,64.0,17.0,7,0,4,1,2026-05-01T21:32:49.309110+05:30
Bangalore,Karnataka,12.9716,77.5946,23.4,77,0.0,912.5,9.55,35.6,137,48.1,41.3,43.6,698.0,80.0,15.8,3,5,7,1,2026-05-01T21:32:49.309134+05:30
Hyderabad,Telangana,17.385,78.4867,33.0,27,0.0,951.7,9.25,36.7,72,67.5,41.9,47.9,631.0,44.0,15.7,0,5,7,0,2026-05-01T21:32:49.309146+05:30
Chennai,Tamil Nadu,13.0827,80.2707,30.8,77,0.0,1006.1,9.25,49.0,150,18.0,13.6,6.4,195.0,100.0,5.6,3,5,4,1,2026-05-01T21:32:49.309156+05:30
Kolkata,West Bengal,22.5726,88.3639,26.2,85,0.0,1005.3,7.9,25.2,72,65.4,59.8,33.7,1401.0,47.0,20.1,7,5,4,1,2026-05-01T21:32:49.309165+05:30
Pune,Maharashtra,18.5204,73.8567,25.5,75,0.0,948.0,8.5,49.3,55,31.8,12.7,8.3,217.0,63.0,6.8,7,5,7,1,2026-05-01T21:32:49.309174+05:30
Ahmedabad,Gujarat,23.0225,72.5714,31.1,72,0.0,998.4,8.1,42.5,54,30.6,14.3,6.4,238.0,82.0,6.1,3,5,7,1,2026-05-01T21:32:49.309185+05:30
Jaipur,Rajasthan,26.9124,75.7873,32.8,20,0.0,955.0,8.1,42.5,164,193.7,43.0,19.3,399.0,72.0,5.3,0,5,7,0,2026-05-01T21:32:49.309194+05:30
Lucknow,Uttar Pradesh,26.8467,80.9462,27.6,59,0.0,991.1,8.0,29.5,130,62.4,37.5,16.0,403.0,97.0,13.1,4,5,7,1,2026-05-01T21:32:49.309202+05:30
Kanpur,Uttar Pradesh,26.4499,80.3319,29.4,51,0.0,988.7,8.05,31.0,139,278.5,54.9,13.3,350.0,108.0,10.4,4,5,7,1,2026-05-01T21:32:49.309210+05:30
Chandigarh,Chandigarh,30.7333,76.7794,26.2,48,0.0,964.5,7.55,37.4,159,71.9,40.3,21.6,743.0,109.0,22.1,4,5,7,0,2026-05-01T21:32:49.309219+05:30
Srinagar,Jammu and Kashmir,34.0837,74.7973,14.0,84,0.0,837.9,8.75,25.9,81,43.1,38.4,38.6,1245.0,42.0,6.2,3,10,7,0,2026-05-01T21:32:49.309228+05:30
Jammu,Jammu and Kashmir,32.7266,74.857,24.5,59,0.0,967.8,8.35,32.0,104,23.1,20.0,23.3,543.0,77.0,4.1,0,5,7,0,2026-05-01T21:32:49.309236+05:30
Amritsar,Punjab,31.634,74.8723,28.6,42,0.0,976.1,8.25,31.7,157,40.9,32.9,20.7,571.0,105.0,9.4,4,5,7,0,2026-05-01T21:32:49.309244+05:30
Ludhiana,Punjab,30.901,75.8573,29.9,40,0.0,974.3,7.85,33.5,159,112.9,62.4,25.7,488.0,81.0,15.9,4,5,7,0,2026-05-01T21:32:49.309251+05:30
Jalandhar,Punjab,31.326,75.5762,27.2,46,0.0,975.0,8.0,33.8,152,146.7,65.2,27.1,945.0,90.0,12.7,4,5,7,0,2026-05-01T21:32:49.309259+05:30
Dehradun,Uttarakhand,30.6284,78.0322,12.7,92,0.0,825.7,7.95,34.2,107,64.5,41.6,30.9,275.0,78.0,2.4,3,10,7,0,2026-05-01T21:32:49.309269+05:30
Shimla,Himachal Pradesh,31.1048,77.1734,12.5,69,0.0,780.7,8.1,47.2,141,53.3,29.7,17.6,321.0,119.0,10.3,3,5,7,0,2026-05-01T21:32:49.309277+05:30
Manali,Himachal Pradesh,32.2396,77.1887,10.0,84,0.0,813.3,10.1,42.5,114,11.2,9.9,38.8,306.0,98.0,0.9,3,10,7,0,2026-05-01T21:32:49.309285+05:30
Gurgaon,Haryana,28.4595,77.0266,30.6,40,0.0,977.2,7.7,31.7,1309,1817.9,217.0,30.5,993.0,117.0,25.6,0,5,7,0,2026-05-01T21:32:49.309294+05:30
Noida,Uttar Pradesh,28.5355,77.391,28.5,53,0.0,980.4,7.6,29.2,1309,1817.9,217.0,30.5,581.0,117.0,25.6,4,5,7,1,2026-05-01T21:32:49.309303+05:30
Ghaziabad,Uttar Pradesh,28.6692,77.4538,28.5,52,0.0,978.7,7.55,32.8,183,244.0,53.4,9.1,381.0,118.0,11.1,4,5,7,1,2026-05-01T21:32:49.309311+05:30
Faridabad,Haryana,28.4089,77.3178,29.8,48,0.0,979.6,7.65,29.5,1309,1817.9,217.0,30.5,689.0,117.0,25.6,4,5,7,1,2026-05-01T21:32:49.309318+05:30
Meerut,Uttar Pradesh,28.9845,77.7064,27.5,54,0.0,977.8,7.5,34.9,183,244.0,53.4,9.1,423.0,118.0,11.1,4,5,7,1,2026-05-01T21:32:49.309325+05:30
Agra,Uttar Pradesh,27.1767,78.0081,31.0,41,0.0,983.2,7.9,27.7,587,1244.2,148.1,15.3,400.0,96.0,14.0,0,5,7,1,2026-05-01T21:32:49.309332+05:30
Varanasi,Uttar Pradesh,25.3176,82.9739,27.5,55,0.0,995.8,8.55,25.9,143,65.9,41.6,18.2,505.0,105.0,16.9,4,5,7,1,2026-05-01T21:32:49.309340+05:30
Prayagraj,Uttar Pradesh,25.4358,81.8463,29.1,53,0.0,993.4,8.4,25.6,151,83.6,51.8,26.4,557.0,98.0,18.1,4,5,7,1,2026-05-01T21:32:49.309350+05:30
Gorakhpur,Uttar Pradesh,26.7606,83.3732,22.0,84,0.0,996.7,8.35,37.1,126,36.4,24.8,9.0,427.0,110.0,6.0,3,5,7,1,2026-05-01T21:32:49.309358+05:30
Bareilly,Uttar Pradesh,28.367,79.4304,26.1,62,0.0,984.1,7.85,34.6,133,129.0,50.1,19.0,399.0,89.0,12.5,7,5,7,1,2026-05-01T21:32:49.309365+05:30
Aligarh,Uttar Pradesh,27.8974,78.088,29.2,49,0.0,981.4,7.75,28.8,668,761.8,103.8,11.5,402.0,118.0,15.0,4,5,7,1,2026-05-01T21:32:49.309372+05:30
Moradabad,Uttar Pradesh,28.8386,78.7733,26.9,58,0.0,980.6,7.7,35.6,141,102.9,55.9,21.7,550.0,107.0,19.4,4,5,7,1,2026-05-01T21:32:49.309380+05:30
Saharanpur,Uttar Pradesh,29.9637,77.546,26.1,63,0.0,971.7,7.3,36.4,119,113.9,65.0,32.9,706.0,79.0,17.4,7,5,7,1,2026-05-01T21:32:49.309386+05:30
Jhansi,Uttar Pradesh,25.4484,78.5685,29.5,38,0.0,973.3,8.35,28.4,81,72.4,30.4,9.5,315.0,80.0,10.3,4,5,7,0,2026-05-01T21:32:52.695025+05:30
Surat,Gujarat,21.1702,72.8311,29.6,79,0.0,1004.4,7.7,55.4,62,29.3,15.9,16.3,227.0,59.0,26.9,7,5,4,1,2026-05-01T21:32:52.695071+05:30
Vadodara,Gujarat,22.3072,73.1812,29.9,71,0.0,1001.6,8.05,52.6,55,22.6,14.6,15.1,269.0,62.0,21.6,7,5,4,1,2026-05-01T21:32:52.695083+05:30
Rajkot,Gujarat,22.3039,70.8022,31.9,54,0.0,991.1,7.7,54.0,48,24.2,11.8,5.2,171.0,69.0,6.5,0,5,7,1,2026-05-01T21:32:52.695092+05:30
Thane,Maharashtra,19.2183,72.9781,29.5,72,0.0,1007.4,7.9,42.1,66,52.2,17.8,9.1,225.0,64.0,17.0,7,5,4,1,2026-05-01T21:32:52.695100+05:30
Nagpur,Maharashtra,21.1458,79.0882,34.9,28,0.0,970.2,8.9,36.7,102,71.2,36.3,20.0,344.0,76.0,15.6,0,5,7,0,2026-05-01T21:32:52.695108+05:30
Nashik,Maharashtra,19.9975,73.7898,25.5,75,0.0,944.9,8.2,51.1,60,34.7,14.2,7.1,198.0,70.0,7.9,7,5,7,1,2026-05-01T21:32:52.695115+05:30
Aurangabad,Maharashtra,19.8762,75.3433,30.6,42,0.0,943.1,9.05,46.1,54,23.9,11.8,5.5,180.0,80.0,6.2,0,5,7,1,2026-05-01T21:32:52.695123+05:30
Solapur,Maharashtra,17.6599,75.9064,33.4,30,0.0,955.9,9.05,47.5,52,20.6,11.9,6.5,185.0,84.0,3.0,0,5,7,0,2026-05-01T21:32:52.695131+05:30
Kolhapur,Maharashtra,16.705,74.2433,25.5,69,0.0,948.0,8.95,46.8,60,30.0,15.5,10.2,239.0,57.0,3.1,7,5,7,1,2026-05-01T21:32:52.695139+05:30
Goa,Goa,15.2993,74.124,28.2,78,0.0,998.5,8.9,36.4,63,32.9,22.5,10.0,255.0,63.0,2.5,7,5,7,1,2026-05-01T21:32:52.695146+05:30
Jodhpur,Rajasthan,26.2389,73.0243,33.5,32,0.0,977.6,8.3,52.6,137,267.3,41.2,6.5,225.0,81.0,2.9,0,5,7,0,2026-05-01T21:32:52.695154+05:30
Udaipur,Rajasthan,24.5854,73.7125,31.2,30,0.0,943.2,8.75,45.7,58,31.5,13.9,2.8,181.0,109.0,4.5,0,5,7,0,2026-05-01T21:32:52.695162+05:30
Kota,Rajasthan,25.2138,75.8648,33.9,23,0.0,973.7,8.3,38.2,66,50.4,26.1,12.7,240.0,73.0,4.7,0,5,7,0,2026-05-01T21:32:52.695169+05:30
Bikaner,Rajasthan,28.0229,73.3119,34.8,22,0.0,976.0,8.25,39.6,78,60.8,19.8,5.8,411.0,85.0,5.6,0,5,7,0,2026-05-01T21:32:52.695177+05:30
Ajmer,Rajasthan,26.4499,74.6399,31.9,29,0.0,950.9,8.25,51.5,69,67.8,20.1,7.5,191.0,80.0,3.6,0,5,7,0,2026-05-01T21:32:52.695184+05:30
Gwalior,Madhya Pradesh,26.2183,78.1828,31.8,35,0.0,977.9,8.15,33.1,82,110.1,34.1,9.7,332.0,82.0,7.2,0,5,7,0,2026-05-01T21:32:52.695191+05:30
Indore,Madhya Pradesh,22.7196,75.8577,32.9,25,0.0,945.9,8.65,41.0,60,33.1,18.0,7.7,270.0,92.0,5.8,0,5,7,0,2026-05-01T21:32:52.695198+05:30
Bhopal,Madhya Pradesh,23.2599,77.4126,32.2,22,0.0,949.9,8.65,39.2,74,79.4,27.2,7.7,302.0,75.0,4.9,0,5,7,0,2026-05-01T21:32:52.695205+05:30
Jabalpur,Madhya Pradesh,23.1815,79.9864,33.3,24,0.0,957.9,8.8,38.2,76,66.1,27.1,13.3,261.0,82.0,5.4,0,5,7,0,2026-05-01T21:32:52.695212+05:30
Ujjain,Madhya Pradesh,23.1765,75.7885,32.6,27,0.0,951.0,8.55,40.0,59,33.1,17.8,4.0,231.0,95.0,4.7,0,5,7,0,2026-05-01T21:32:52.695220+05:30
Visakhapatnam,Andhra Pradesh,17.6868,83.2185,28.2,92,0.0,1002.4,9.15,51.8,54,24.7,19.7,26.0,309.0,63.0,5.7,7,5,4,1,2026-05-01T21:32:52.695228+05:30
Vijayawada,Andhra Pradesh,16.5062,80.648,30.3,73,0.0,1000.5,9.2,39.6,140,31.0,27.9,5.4,293.0,139.0,7.5,3,5,4,1,2026-05-01T21:32:52.695236+05:30
Guntur,Andhra Pradesh,16.3067,80.4365,30.8,74,0.0,1001.7,9.2,40.0,131,39.1,36.0,10.3,272.0,132.0,8.2,3,5,4,1,2026-05-01T21:32:52.695243+05:30
Nellore,Andhra Pradesh,14.4426,79.9865,31.7,68,0.0,1003.4,9.25,49.0,165,36.3,33.4,6.3,263.0,151.0,10.8,3,5,4,1,2026-05-01T21:32:52.695251+05:30
Kurnool,Andhra Pradesh,15.8281,78.0373,32.6,25,0.0,974.4,9.2,40.0,92,43.5,24.3,17.3,195.0,79.0,6.4,0,5,7,0,2026-05-01T21:32:52.695259+05:30
Kakinada,Andhra Pradesh,16.9891,82.2475,29.0,86,0.0,1005.8,9.15,45.7,50,20.3,14.3,2.6,281.0,89.0,1.5,7,5,4,1,2026-05-01T21:32:52.695268+05:30
Tirupati,Andhra Pradesh,13.6288,79.4192,31.1,48,0.0,989.9,9.3,42.8,143,48.9,45.5,17.6,418.0,116.0,9.6,0,5,7,1,2026-05-01T21:32:52.695275+05:30
Warangal,Telangana,17.9689,79.5941,31.0,32,0.0,976.1,9.15,41.0,83,82.4,58.8,38.3,352.0,44.0,10.9,0,5,7,0,2026-05-01T21:32:52.695282+05:30
Nizamabad,Telangana,18.6725,78.0941,33.2,26,0.0,962.2,9.1,33.5,73,53.6,32.1,18.9,427.0,68.0,5.0,0,5,7,0,2026-05-01T21:32:52.695289+05:30
Mysore,Karnataka,12.2958,76.6396,24.5,81,0.0,929.5,9.35,52.9,139,25.8,23.1,15.1,353.0,99.0,3.3,3,5,7,1,2026-05-01T21:32:52.695296+05:30
Mangalore,Karnataka,12.9141,74.856,29.7,78,0.0,1007.4,9.0,40.7,67,25.6,15.4,5.3,210.0,60.0,2.1,7,5,4,1,2026-05-01T21:32:52.695304+05:30
Hubli-Dharwad,Karnataka,15.3647,75.124,25.4,71,0.0,940.7,9.2,45.0,55,23.2,16.4,9.3,204.0,63.0,2.2,7,5,7,1,2026-05-01T21:32:52.695311+05:30
Belgaum,Karnataka,15.8497,74.4977,23.5,79,0.0,925.8,9.15,44.6,54,25.2,15.5,12.7,198.0,50.0,3.0,3,5,7,1,2026-05-01T21:32:56.092693+05:30
Coimbatore,Tamil Nadu,11.0168,76.9558,27.0,81,0.0,962.8,9.2,41.4,88,28.4,26.1,16.5,278.0,60.0,4.5,7,5,7,1,2026-05-01T21:32:56.092728+05:30
Madurai,Tamil Nadu,9.9252,78.1198,28.9,68,0.0,993.8,8.9,57.6,100,22.9,20.6,16.2,384.0,92.0,7.2,7,5,7,1,2026-05-01T21:32:56.092740+05:30
Trichy,Tamil Nadu,10.7905,78.7047,32.0,48,0.0,999.9,8.9,36.0,105,13.2,12.6,12.2,304.0,80.0,4.2,0,5,7,1,2026-05-01T21:32:56.092749+05:30
Salem,Tamil Nadu,11.6643,78.146,28.9,60,0.0,978.3,9.25,61.9,164,60.5,53.4,33.8,464.0,101.0,15.9,4,5,7,1,2026-05-01T21:32:56.092758+05:30
Tirunelveli,Tamil Nadu,8.7139,77.7567,31.4,58,0.0,1003.9,8.85,36.7,53,21.2,19.4,10.7,337.0,73.0,2.5,0,5,4,1,2026-05-01T21:32:56.092766+05:30
Vellore,Tamil Nadu,12.9165,79.1325,30.2,54,0.0,983.8,9.3,44.3,138,51.3,47.6,16.8,470.0,104.0,13.9,0,5,7,1,2026-05-01T21:32:56.092774+05:30
Erode,Tamil Nadu,11.341,77.7172,30.3,58,0.0,989.8,9.25,54.4,124,46.6,40.0,32.5,387.0,80.0,4.8,0,5,7,1,2026-05-01T21:32:56.092781+05:30
Kochi,Kerala,9.9312,76.2673,27.4,92,0.0,1009.7,8.8,33.8,59,51.9,46.8,64.6,380.0,5.0,11.4,7,0,4,1,2026-05-01T21:32:56.092789+05:30
Thiruvananthapuram,Kerala,8.5241,76.9366,25.5,93,0.0,1009.4,8.85,34.9,50,16.3,11.2,3.2,416.0,92.0,1.7,7,0,4,1,2026-05-01T21:32:56.092797+05:30
Kozhikode,Kerala,11.2588,75.7804,27.9,89,0.0,1008.8,7.7,39.2,61,31.9,18.2,3.3,712.0,75.0,1.4,7,0,4,1,2026-05-01T21:32:56.092804+05:30
Thrissur,Kerala,10.5276,76.2144,26.7,93,0.0,1008.1,8.7,39.2,66,42.3,34.3,24.4,450.0,42.0,4.8,7,0,4,1,2026-05-01T21:32:56.092813+05:30
Kannur,Kerala,11.8745,75.3704,28.7,87,0.0,1007.8,8.9,43.2,68,29.9,20.0,12.2,300.0,53.0,2.4,7,5,4,1,2026-05-01T21:32:56.092821+05:30
Patna,Bihar,25.5941,85.1376,22.7,84,0.0,999.7,8.4,33.5,147,42.8,34.7,14.6,421.0,110.0,12.0,3,5,7,1,2026-05-01T21:32:56.092830+05:30
Gaya,Bihar,24.7914,85.0002,24.2,74,0.0,992.9,8.7,32.8,145,57.7,39.7,12.6,491.0,114.0,11.4,3,5,7,1,2026-05-01T21:32:56.092838+05:30
Muzaffarpur,Bihar,26.1209,85.3647,21.3,90,0.0,999.9,6.55,31.3,139,38.2,31.9,14.4,436.0,99.0,10.5,3,5,7,1,2026-05-01T21:32:56.092845+05:30
Bhagalpur,Bihar,25.2425,87.0117,22.0,96,0.0,1001.4,8.5,49.3,143,39.6,33.6,13.1,359.0,94.0,7.1,3,5,4,1,2026-05-01T21:32:56.092852+05:30
Ranchi,Jharkhand,23.3441,85.3096,20.9,73,0.0,935.5,9.05,48.2,131,78.2,38.2,8.2,461.0,126.0,7.1,3,5,7,0,2026-05-01T21:32:56.092859+05:30
Jamshedpur,Jharkhand,22.8046,86.2029,25.0,82,0.0,989.8,9.0,24.8,146,83.8,48.7,22.0,663.0,86.0,18.8,7,5,7,1,2026-05-01T21:32:56.092866+05:30
Dhanbad,Jharkhand,23.7957,86.4304,24.2,86,0.0,978.7,8.9,22.3,154,108.0,78.0,58.6,1508.0,66.0,62.0,3,5,7,1,2026-05-01T21:32:56.092874+05:30
Bokaro,Jharkhand,23.6693,86.1511,24.2,77,0.0,982.5,8.95,27.4,145,109.2,64.3,47.7,1614.0,66.0,42.3,3,5,7,1,2026-05-01T21:32:56.092881+05:30
Bhubaneswar,Odisha,20.2961,85.8245,26.6,89,0.0,1001.4,8.4,47.2,81,32.2,28.3,9.5,381.0,92.0,5.5,7,5,4,1,2026-05-01T21:32:56.092888+05:30
Cuttack,Odisha,20.4625,85.8828,27.2,90,0.0,1003.2,8.85,36.0,81,32.2,28.3,9.5,543.0,92.0,5.5,7,5,4,1,2026-05-01T21:32:56.092895+05:30
Rourkela,Odisha,22.2604,84.8536,24.4,87,0.0,983.4,8.9,36.7,176,98.7,59.8,19.7,235.0,111.0,31.6,3,5,7,1,2026-05-01T21:32:56.092902+05:30
Raipur,Chhattisgarh,21.2514,81.6296,31.8,32,0.0,971.5,8.95,42.8,109,94.3,48.2,39.6,526.0,67.0,9.5,0,5,7,0,2026-05-01T21:32:56.092909+05:30
Bhilai,Chhattisgarh,21.1938,81.3509,32.4,31,0.0,972.0,8.95,54.7,97,102.9,48.4,32.6,827.0,85.0,9.3,0,5,7,0,2026-05-01T21:32:56.092917+05:30
Guwahati,Assam,26.1158,91.7086,21.0,96,0.0,1002.4,7.7,28.8,70,49.4,46.0,20.7,529.0,50.0,5.2,3,5,4,1,2026-05-01T21:32:56.092924+05:30
Agartala,Tripura,23.8315,91.2868,22.6,91,0.0,1006.5,5.1,38.2,75,43.1,40.7,20.7,245.0,54.0,3.2,3,5,0,1,2026-05-01T21:32:56.092931+05:30
Shillong,Meghalaya,25.5788,91.8933,13.3,93,0.0,854.4,7.5,36.7,56,20.3,19.7,15.7,534.0,55.0,2.2,3,10,7,0,2026-05-01T21:32:56.092939+05:30
Imphal,Manipur,24.817,93.9368,18.2,97,0.2,923.0,4.0,18.7,75,25.1,24.0,19.3,689.0,36.0,3.3,6,10,3,1,2026-05-01T21:32:56.092947+05:30
Aizawl,Mizoram,23.7271,92.7176,16.0,94,0.0,891.6,4.95,50.4,50,9.8,8.5,5.4,206.0,54.0,1.0,3,10,3,0,2026-05-01T21:32:56.092955+05:30
Kohima,Nagaland,25.6701,94.1077,15.4,100,1.4,854.3,4.45,23.0,52,18.5,14.7,14.7,450.0,56.0,1.7,6,10,3,0,2026-05-01T21:32:56.092962+05:30
Gangtok,Sikkim,27.3314,88.6138,12.4,91,0.0,834.8,8.9,42.5,74,20.8,14.4,7.7,568.0,110.0,0.8,3,10,7,0,2026-05-01T21:32:56.092970+05:30
Siliguri,West Bengal,26.7271,88.3953,20.5,95,0.0,992.8,6.6,26.6,72,39.5,29.9,13.8,680.0,104.0,4.2,3,5,7,1,2026-05-01T21:32:59.504041+05:30
Durgapur,West Bengal,23.5204,87.3119,24.1,84,0.0,993.9,8.85,29.2,192,92.7,73.8,29.2,515.0,119.0,46.3,3,5,7,1,2026-05-01T21:32:59.504078+05:30
Asansol,West Bengal,23.6739,86.9524,23.0,86,0.0,992.7,8.75,24.5,180,85.9,65.0,31.9,397.0,111.0,51.4,3,5,7,1,2026-05-01T21:32:59.504090+05:30
Pondicherry,Puducherry,11.9139,79.8145,31.3,72,0.0,1008.0,8.7,43.6,121,17.2,12.8,8.0,249.0,77.0,3.2,3,0,4,1,2026-05-01T21:32:59.504101+05:30
Port Blair,Andaman and Nicobar Islands,11.6234,92.7265,26.9,90,0.0,1009.7,9.1,24.8,29,6.7,4.6,0.5,301.0,58.0,2.0,7,0,4,1,2026-05-01T21:32:59.504109+05:30
Haridwar,Uttarakhand,29.9457,78.1642,24.0,70,0.0,970.4,7.4,28.8,128,94.8,45.8,16.6,368.0,100.0,10.4,3,5,7,1,2026-05-01T21:32:59.504117+05:30
Rishikesh,Uttarakhand,30.0869,78.2676,21.4,76,0.0,962.9,7.5,25.9,125,96.9,40.3,11.3,422.0,104.0,6.3,3,5,7,1,2026-05-01T21:32:59.504125+05:30
Nainital,Uttarakhand,29.3919,79.4542,11.6,91,0.0,801.7,8.3,39.6,113,102.0,39.7,16.1,326.0,94.0,7.6,3,10,7,0,2026-05-01T21:32:59.504133+05:30
Mussoorie,Uttarakhand,30.4599,78.0664,11.8,90,0.0,798.3,7.9,42.1,147,123.9,55.8,24.0,354.0,108.0,14.3,3,10,7,0,2026-05-01T21:32:59.504141+05:30
Dharamshala,Himachal Pradesh,32.219,76.3234,18.2,60,0.0,865.3,8.2,46.8,97,14.9,12.7,12.9,307.0,86.0,1.3,0,5,7,0,2026-05-01T21:32:59.504148+05:30
Dalhousie,Himachal Pradesh,32.5387,75.971,11.2,79,0.0,798.8,8.5,37.8,122,36.8,28.0,35.0,563.0,82.0,3.8,3,5,7,0,2026-05-01T21:32:59.504156+05:30
Patiala,Punjab,30.3398,76.3869,28.4,44,0.0,973.8,7.5,38.5,465,316.6,61.9,11.1,375.0,115.0,20.4,4,5,7,0,2026-05-01T21:32:59.504164+05:30
Bhatinda,Punjab,30.211,74.9455,30.4,32,0.0,978.8,8.1,36.7,323,54.6,26.0,9.5,391.0,98.0,7.1,0,5,7,0,2026-05-01T21:32:59.504171+05:30
Rohtak,Haryana,28.8955,76.6066,30.3,34,0.0,977.2,7.6,29.2,592,510.4,94.5,24.4,791.0,126.0,26.9,0,5,7,0,2026-05-01T21:32:59.504178+05:30
Panipat,Haryana,29.3909,76.9635,27.8,55,0.0,976.2,7.45,33.8,1071,851.2,121.1,17.0,503.0,123.0,19.7,4,5,7,1,2026-05-01T21:32:59.504185+05:30
Mathura,Uttar Pradesh,27.4924,77.6737,29.4,48,0.0,982.3,7.85,28.1,613,1054.3,132.7,17.8,486.0,102.0,11.3,4,5,7,1,2026-05-01T21:32:59.504192+05:30
Vrindavan,Uttar Pradesh,27.5823,77.7027,29.1,47,0.0,982.8,7.8,28.4,613,1054.3,132.7,17.8,558.0,102.0,11.3,4,5,7,1,2026-05-01T21:32:59.504199+05:30
Ayodhya,Uttar Pradesh,26.7922,82.1998,25.5,64,0.0,994.0,8.15,28.4,104,72.6,38.1,19.4,376.0,86.0,9.3,7,5,7,1,2026-05-01T21:32:59.504206+05:30
Ratlam,Madhya Pradesh,23.3315,75.0367,31.0,33,0.0,951.7,8.45,40.7,67,31.7,16.1,2.2,188.0,107.0,5.4,0,5,7,0,2026-05-01T21:32:59.504212+05:30
Sagar,Madhya Pradesh,23.8388,78.7378,30.1,31,0.0,946.4,8.65,40.7,72,31.8,15.9,7.5,205.0,77.0,3.7,0,5,7,0,2026-05-01T21:32:59.504219+05:30
Satna,Madhya Pradesh,24.6005,80.8322,28.5,42,0.0,968.0,8.65,52.6,84,59.8,26.5,8.4,266.0,110.0,6.5,4,5,7,0,2026-05-01T21:32:59.504226+05:30
Akola,Maharashtra,20.7002,77.0082,34.7,23,0.0,972.1,8.9,40.0,61,26.4,14.2,6.6,217.0,91.0,12.5,0,5,7,0,2026-05-01T21:32:59.504233+05:30
Amravati,Maharashtra,20.9374,77.7796,33.5,25,0.0,964.4,8.85,38.9,66,28.2,14.9,7.9,266.0,86.0,11.8,0,5,7,0,2026-05-01T21:32:59.504241+05:30
Latur,Maharashtra,18.4088,76.5604,32.5,22,0.0,938.0,9.1,38.9,58,38.2,23.6,13.2,257.0,74.0,6.5,0,5,7,0,2026-05-01T21:32:59.504248+05:30
Nanded,Maharashtra,19.1383,77.3091,32.8,26,0.0,965.7,9.0,32.8,60,36.1,21.0,13.3,452.0,70.0,4.2,0,5,7,0,2026-05-01T21:32:59.504254+05:30
Gulbarga,Karnataka,17.3297,76.8343,33.5,21,0.0,956.7,9.1,44.6,55,36.3,21.9,22.3,208.0,54.0,4.2,0,5,7,0,2026-05-01T21:32:59.504261+05:30
Bidar,Karnataka,17.9104,77.5199,31.1,26,0.0,933.5,9.15,37.4,67,44.1,25.0,18.4,266.0,71.0,5.3,0,5,7,0,2026-05-01T21:32:59.504267+05:30
Hospet,Karnataka,15.2689,76.3909,30.1,47,0.0,955.4,9.25,38.5,67,21.8,14.1,8.4,208.0,82.0,2.3,0,5,7,1,2026-05-01T21:32:59.504274+05:30
Tirupur,Tamil Nadu,11.1085,77.3411,28.7,72,0.0,976.0,9.2,53.3,122,34.6,31.2,24.2,272.0,69.0,5.8,7,5,7,1,2026-05-01T21:32:59.504281+05:30
Alappuzha,Kerala,9.4981,76.3388,27.0,92,0.0,1009.9,8.95,33.8,54,38.2,31.0,26.2,277.0,62.0,5.9,7,0,4,1,2026-05-01T21:32:59.504287+05:30
Munnar,Kerala,10.0889,77.0595,17.8,94,0.0,857.3,8.3,28.4,45,21.4,18.8,13.1,468.0,45.0,2.3,3,10,7,1,2026-05-01T21:32:59.504294+05:30
Silchar,Assam,24.8333,92.7789,21.2,97,0.1,1006.6,0.8,24.1,100,49.0,48.3,17.6,408.0,42.0,7.1,6,5,0,1,2026-05-01T21:32:59.504301+05:30
Dibrugarh,Assam,27.4728,94.912,20.0,95,0.3,996.8,5.65,33.5,66,45.5,37.0,23.1,374.0,32.0,3.2,6,5,3,1,2026-05-01T21:32:59.504308+05:30
