city,state,latitude,longitude,temp,humidity,rain,pressure,uv_index,wind_gusts,aqi,pm10,pm2_5,mosquito_risk,arthritis_risk,migraine_risk,frizz_risk,updated_at
Delhi,Delhi,28.6139,77.209,26.6,42,0.0,986.9,5.7,23.8,161,217.5,41.8,4,5,3,0,2026-03-21T16:00:59.224380+05:30
Mumbai,Maharashtra,19.076,72.8777,27.7,69,0.0,1008.4,7.85,28.8,78,44.0,23.3,7,0,4,1,2026-03-21T16:00:59.224418+05:30
Bangalore,Karnataka,12.9716,77.5946,31.3,32,0.0,911.1,8.55,21.2,136,36.1,26.5,0,5,7,0,2026-03-21T16:00:59.224433+05:30
Hyderabad,Telangana,17.385,78.4867,34.4,23,0.0,952.5,8.85,31.0,82,30.5,18.7,0,5,7,0,2026-03-21T16:00:59.224443+05:30
Chennai,Tamil Nadu,13.0827,80.2707,31.9,56,0.0,1006.6,9.15,35.6,38,13.6,9.3,0,5,4,1,2026-03-21T16:00:59.224451+05:30
Kolkata,West Bengal,22.5726,88.3639,24.7,73,0.0,1008.0,7.5,19.8,59,21.5,20.0,3,0,4,1,2026-03-21T16:00:59.224460+05:30
Pune,Maharashtra,18.5204,73.8567,33.6,25,0.0,948.1,8.4,28.8,88,36.4,14.9,0,5,7,0,2026-03-21T16:00:59.224471+05:30
Ahmedabad,Gujarat,23.0225,72.5714,33.2,20,0.0,1003.7,7.7,15.1,65,25.3,11.8,0,5,4,0,2026-03-21T16:00:59.224479+05:30
Jaipur,Rajasthan,26.9124,75.7873,26.9,43,0.0,963.0,6.5,36.4,74,126.7,23.8,4,5,7,0,2026-03-21T16:00:59.224487+05:30
Lucknow,Uttar Pradesh,26.8467,80.9462,24.5,57,0.0,997.7,6.25,24.5,113,68.0,21.9,0,5,7,0,2026-03-21T16:00:59.224494+05:30
Kanpur,Uttar Pradesh,26.4499,80.3319,25.2,52,0.0,995.6,6.7,25.6,109,295.2,39.1,4,5,7,0,2026-03-21T16:00:59.224502+05:30
Chandigarh,Chandigarh,30.7333,76.7794,24.5,45,0.0,972.6,6.35,28.4,73,26.1,18.9,0,5,7,0,2026-03-21T16:00:59.224509+05:30
Srinagar,Jammu and Kashmir,34.0837,74.7973,14.3,46,0.0,842.5,6.55,14.0,109,14.9,11.6,0,5,7,0,2026-03-21T16:00:59.224517+05:30
Jammu,Jammu and Kashmir,32.7266,74.857,24.5,48,0.0,977.4,6.8,16.9,86,24.3,13.6,0,5,7,0,2026-03-21T16:00:59.224524+05:30
Amritsar,Punjab,31.634,74.8723,24.4,51,0.0,985.8,6.2,15.8,106,41.2,27.4,0,5,7,0,2026-03-21T16:00:59.224530+05:30
Ludhiana,Punjab,30.901,75.8573,24.3,47,0.0,983.3,5.75,23.0,130,32.7,21.8,0,5,3,0,2026-03-21T16:00:59.224537+05:30
Jalandhar,Punjab,31.326,75.5762,24.0,49,0.0,984.6,6.1,20.5,117,36.8,22.6,0,5,7,0,2026-03-21T16:00:59.224545+05:30
Dehradun,Uttarakhand,30.6284,78.0322,14.0,72,0.0,830.6,6.7,22.7,83,11.0,6.4,3,5,7,0,2026-03-21T16:00:59.224552+05:30
Shimla,Himachal Pradesh,31.1048,77.1734,12.9,62,0.0,784.8,6.35,33.5,70,17.8,11.2,3,5,7,0,2026-03-21T16:00:59.224559+05:30
Manali,Himachal Pradesh,32.2396,77.1887,15.8,39,0.0,819.1,8.55,22.0,84,11.6,6.4,0,5,7,0,2026-03-21T16:00:59.224567+05:30
Gurgaon,Haryana,28.4595,77.0266,26.3,46,0.0,985.5,5.85,20.5,170,1110.1,118.3,4,5,3,0,2026-03-21T16:00:59.224573+05:30
Noida,Uttar Pradesh,28.5355,77.391,26.9,41,0.0,988.4,6.0,22.7,170,1110.1,118.3,4,5,3,0,2026-03-21T16:00:59.224580+05:30
Ghaziabad,Uttar Pradesh,28.6692,77.4538,26.1,47,0.0,986.6,5.7,21.6,161,159.7,39.1,4,5,3,0,2026-03-21T16:00:59.224586+05:30
Faridabad,Haryana,28.4089,77.3178,26.5,43,0.0,987.7,6.3,20.9,170,1110.1,118.3,4,5,7,0,2026-03-21T16:00:59.224593+05:30
Meerut,Uttar Pradesh,28.9845,77.7064,25.8,47,0.0,985.3,6.05,22.0,161,159.7,39.1,4,5,7,0,2026-03-21T16:00:59.224599+05:30
Agra,Uttar Pradesh,27.1767,78.0081,29.0,30,0.0,991.4,6.8,28.1,154,666.8,73.3,4,5,7,0,2026-03-21T16:00:59.224605+05:30
Varanasi,Uttar Pradesh,25.3176,82.9739,24.6,59,0.0,1001.7,5.1,26.3,99,54.6,27.1,0,5,0,1,2026-03-21T16:00:59.224614+05:30
Prayagraj,Uttar Pradesh,25.4358,81.8463,24.4,63,0.0,1000.2,7.35,25.2,100,49.0,23.4,3,5,4,1,2026-03-21T16:00:59.224621+05:30
Gorakhpur,Uttar Pradesh,26.7606,83.3732,22.8,74,0.0,1001.7,5.65,17.3,115,42.0,24.0,3,5,0,1,2026-03-21T16:00:59.224627+05:30
Bareilly,Uttar Pradesh,28.367,79.4304,24.8,54,0.0,990.5,6.55,18.0,151,26.8,19.8,0,5,7,0,2026-03-21T16:00:59.224633+05:30
Aligarh,Uttar Pradesh,27.8974,78.088,25.8,47,0.0,989.4,6.4,20.2,163,491.7,69.8,4,5,7,0,2026-03-21T16:00:59.224639+05:30
Moradabad,Uttar Pradesh,28.8386,78.7733,25.5,47,0.0,987.3,6.45,18.4,152,33.5,18.7,4,5,7,0,2026-03-21T16:00:59.224645+05:30
Saharanpur,Uttar Pradesh,29.9637,77.546,25.5,43,0.0,979.1,6.1,27.0,156,51.7,25.7,4,5,7,0,2026-03-21T16:00:59.224654+05:30
Jhansi,Uttar Pradesh,25.4484,78.5685,27.7,32,0.0,981.6,7.4,24.5,112,34.9,15.1,4,5,7,0,2026-03-21T16:01:02.459221+05:30
Surat,Gujarat,21.1702,72.8311,30.7,41,0.0,1007.8,7.55,28.1,107,26.3,20.6,0,5,4,0,2026-03-21T16:01:02.459252+05:30
Vadodara,Gujarat,22.3072,73.1812,35.3,21,0.0,1005.0,7.35,15.5,64,16.7,7.6,0,5,7,0,2026-03-21T16:01:02.459264+05:30
Rajkot,Gujarat,22.3039,70.8022,33.5,29,0.0,995.5,7.0,20.5,55,21.8,8.1,0,5,7,0,2026-03-21T16:01:02.459274+05:30
Thane,Maharashtra,19.2183,72.9781,30.5,49,0.0,1008.2,7.85,42.8,78,44.0,23.3,0,0,4,1,2026-03-21T16:01:02.459283+05:30
Nagpur,Maharashtra,21.1458,79.0882,32.5,21,0.0,974.2,8.3,24.8,67,28.4,16.3,0,5,7,0,2026-03-21T16:01:02.459291+05:30
Nashik,Maharashtra,19.9975,73.7898,31.3,25,0.0,945.8,8.05,22.7,66,11.7,6.4,0,5,7,0,2026-03-21T16:01:02.459299+05:30
Aurangabad,Maharashtra,19.8762,75.3433,32.6,22,0.0,944.1,8.6,24.5,87,15.8,10.2,0,5,7,0,2026-03-21T16:01:02.459307+05:30
Solapur,Maharashtra,17.6599,75.9064,34.9,21,0.0,956.7,8.75,27.7,73,33.2,16.7,0,5,7,0,2026-03-21T16:01:02.459316+05:30
Kolhapur,Maharashtra,16.705,74.2433,32.1,28,0.0,947.7,8.85,28.8,77,41.2,14.2,0,5,7,0,2026-03-21T16:01:02.459324+05:30
Goa,Goa,15.2993,74.124,31.1,58,0.0,997.1,8.85,35.3,74,30.7,19.4,0,5,7,1,2026-03-21T16:01:02.459331+05:30
Jodhpur,Rajasthan,26.2389,73.0243,30.0,31,0.0,986.0,6.65,24.1,67,65.2,13.9,4,5,7,0,2026-03-21T16:01:02.459339+05:30
Udaipur,Rajasthan,24.5854,73.7125,28.2,26,0.0,948.7,6.9,11.9,51,32.9,9.8,4,5,7,0,2026-03-21T16:01:02.459347+05:30
Kota,Rajasthan,25.2138,75.8648,31.0,24,0.0,981.5,7.5,22.0,81,27.9,12.1,0,5,7,0,2026-03-21T16:01:02.459355+05:30
Bikaner,Rajasthan,28.0229,73.3119,30.3,29,0.0,984.8,6.25,28.4,56,79.4,15.1,0,5,7,0,2026-03-21T16:01:02.459362+05:30
Ajmer,Rajasthan,26.4499,74.6399,28.6,32,0.0,957.3,7.25,25.2,66,38.0,11.6,4,5,7,0,2026-03-21T16:01:02.459370+05:30
Gwalior,Madhya Pradesh,26.2183,78.1828,28.0,35,0.0,986.8,7.1,25.6,82,49.1,19.3,4,5,7,0,2026-03-21T16:01:02.459377+05:30
Indore,Madhya Pradesh,22.7196,75.8577,29.3,26,0.0,949.9,7.95,22.7,61,17.2,9.9,4,5,7,0,2026-03-21T16:01:02.459385+05:30
Bhopal,Madhya Pradesh,23.2599,77.4126,29.8,24,0.0,955.9,7.9,23.8,69,20.5,8.9,4,5,7,0,2026-03-21T16:01:02.459392+05:30
Jabalpur,Madhya Pradesh,23.1815,79.9864,28.6,23,0.0,964.0,8.0,31.3,65,19.9,10.2,4,5,7,0,2026-03-21T16:01:02.459400+05:30
Ujjain,Madhya Pradesh,23.1765,75.7885,29.0,30,0.0,955.7,7.65,19.4,62,20.2,10.5,4,5,7,0,2026-03-21T16:01:02.459408+05:30
Visakhapatnam,Andhra Pradesh,17.6868,83.2185,30.2,58,0.0,1004.2,8.8,35.3,79,29.2,22.2,0,5,4,1,2026-03-21T16:01:02.459416+05:30
Vijayawada,Andhra Pradesh,16.5062,80.648,33.6,46,0.0,1001.8,8.85,24.8,60,26.8,17.7,0,5,4,1,2026-03-21T16:01:02.459423+05:30
Guntur,Andhra Pradesh,16.3067,80.4365,32.2,55,0.0,1003.2,8.85,23.8,54,23.6,13.9,0,5,4,1,2026-03-21T16:01:02.459431+05:30
Nellore,Andhra Pradesh,14.4426,79.9865,32.8,54,0.0,1004.9,9.05,35.3,42,20.0,13.5,0,5,4,1,2026-03-21T16:01:02.459440+05:30
Kurnool,Andhra Pradesh,15.8281,78.0373,36.6,21,0.0,975.5,8.9,19.4,77,23.5,16.2,0,5,10,0,2026-03-21T16:01:02.459448+05:30
Kakinada,Andhra Pradesh,16.9891,82.2475,32.3,52,0.0,1007.5,8.85,26.6,45,14.3,9.7,0,5,4,1,2026-03-21T16:01:02.459456+05:30
Tirupati,Andhra Pradesh,13.6288,79.4192,34.3,37,0.0,990.1,9.15,26.3,71,31.1,21.9,0,5,7,1,2026-03-21T16:01:02.459464+05:30
Warangal,Telangana,17.9689,79.5941,32.8,43,0.0,978.5,8.65,28.4,115,31.3,21.8,0,5,7,1,2026-03-21T16:01:02.459471+05:30
Nizamabad,Telangana,18.6725,78.0941,33.7,28,0.0,964.6,8.6,34.9,101,36.9,20.6,0,5,7,0,2026-03-21T16:01:02.459478+05:30
Mysore,Karnataka,12.2958,76.6396,33.1,28,0.0,927.2,9.4,44.3,128,27.0,19.0,0,5,7,0,2026-03-21T16:01:02.459484+05:30
Mangalore,Karnataka,12.9141,74.856,29.3,75,0.0,1005.4,9.05,29.2,75,29.7,16.7,7,5,4,1,2026-03-21T16:01:02.459490+05:30
Hubli-Dharwad,Karnataka,15.3647,75.124,33.2,24,0.0,940.1,9.05,28.8,71,23.3,12.5,0,5,7,0,2026-03-21T16:01:02.459496+05:30
Belgaum,Karnataka,15.8497,74.4977,32.4,24,0.0,925.5,9.1,36.4,75,26.7,14.0,0,5,7,0,2026-03-21T16:01:05.671046+05:30
Coimbatore,Tamil Nadu,11.0168,76.9558,33.8,35,0.0,960.1,9.35,47.2,122,27.4,17.9,0,5,7,1,2026-03-21T16:01:05.671075+05:30
Madurai,Tamil Nadu,9.9252,78.1198,36.0,34,0.0,990.7,9.35,38.9,74,18.2,11.9,0,5,10,1,2026-03-21T16:01:05.671085+05:30
Trichy,Tamil Nadu,10.7905,78.7047,35.2,39,0.0,997.7,9.15,29.5,62,19.2,15.3,0,5,10,1,2026-03-21T16:01:05.671093+05:30
Salem,Tamil Nadu,11.6643,78.146,35.5,34,0.0,975.4,9.3,26.6,106,31.2,23.6,0,5,10,1,2026-03-21T16:01:05.671100+05:30
Tirunelveli,Tamil Nadu,8.7139,77.7567,34.9,40,0.0,1001.0,9.3,42.8,123,22.6,18.7,0,5,4,1,2026-03-21T16:01:05.671107+05:30
Vellore,Tamil Nadu,12.9165,79.1325,34.3,36,0.0,983.1,9.2,37.1,103,22.6,18.6,0,5,7,1,2026-03-21T16:01:05.671114+05:30
Erode,Tamil Nadu,11.341,77.7172,36.5,34,0.0,986.7,9.3,24.5,70,21.1,15.4,0,5,10,1,2026-03-21T16:01:05.671121+05:30
Kochi,Kerala,9.9312,76.2673,29.3,70,0.0,1006.9,9.15,33.8,93,19.9,15.5,7,5,4,1,2026-03-21T16:01:05.671128+05:30
Thiruvananthapuram,Kerala,8.5241,76.9366,29.0,76,0.0,1006.3,8.3,24.8,99,22.6,17.9,7,5,4,1,2026-03-21T16:01:05.671135+05:30
Kozhikode,Kerala,11.2588,75.7804,30.4,69,0.0,1006.4,9.05,31.3,71,24.2,17.1,3,5,4,1,2026-03-21T16:01:05.671142+05:30
Thrissur,Kerala,10.5276,76.2144,32.6,55,0.0,1005.4,9.15,38.9,75,20.9,15.6,0,5,4,1,2026-03-21T16:01:05.671149+05:30
Kannur,Kerala,11.8745,75.3704,30.9,67,0.0,1006.0,9.1,34.9,83,23.3,16.4,3,5,4,1,2026-03-21T16:01:05.671155+05:30
Patna,Bihar,25.5941,85.1376,22.6,71,0.0,1004.9,6.7,24.5,144,39.7,29.7,3,5,4,1,2026-03-21T16:01:05.671162+05:30
Gaya,Bihar,24.7914,85.0002,24.2,62,0.0,997.4,7.7,24.8,119,41.6,29.0,3,5,7,1,2026-03-21T16:01:05.671168+05:30
Muzaffarpur,Bihar,26.1209,85.3647,21.0,81,0.0,1005.2,3.65,23.8,147,36.8,29.5,3,5,0,1,2026-03-21T16:01:05.671174+05:30
Bhagalpur,Bihar,25.2425,87.0117,22.2,81,0.0,1005.0,5.85,24.5,129,44.5,39.9,3,5,0,1,2026-03-21T16:01:05.671180+05:30
Ranchi,Jharkhand,23.3441,85.3096,23.7,50,0.0,938.7,8.35,32.0,109,37.3,27.8,0,5,7,0,2026-03-21T16:01:05.671186+05:30
Jamshedpur,Jharkhand,22.8046,86.2029,28.6,44,0.0,991.6,8.15,29.9,147,45.3,39.7,4,5,7,0,2026-03-21T16:01:05.671192+05:30
Dhanbad,Jharkhand,23.7957,86.4304,24.5,64,0.0,981.7,7.6,27.0,151,40.7,36.0,3,5,7,1,2026-03-21T16:01:05.671199+05:30
Bokaro,Jharkhand,23.6693,86.1511,22.3,78,1.4,985.6,5.8,37.4,140,42.1,37.6,6,5,3,1,2026-03-21T16:01:05.671206+05:30
Bhubaneswar,Odisha,20.2961,85.8245,31.9,40,0.0,1002.6,8.55,28.1,154,60.1,46.6,0,5,4,1,2026-03-21T16:01:05.671212+05:30
Cuttack,Odisha,20.4625,85.8828,32.0,40,0.0,1004.5,8.6,25.9,154,60.1,46.6,0,5,4,1,2026-03-21T16:01:05.671218+05:30
Rourkela,Odisha,22.2604,84.8536,30.4,37,0.0,985.7,8.15,29.9,126,46.2,29.3,0,5,7,0,2026-03-21T16:01:05.671225+05:30
Raipur,Chhattisgarh,21.2514,81.6296,32.9,24,0.0,975.0,8.35,31.7,123,32.5,16.0,0,5,7,0,2026-03-21T16:01:05.671230+05:30
Bhilai,Chhattisgarh,21.1938,81.3509,33.3,20,0.0,975.2,8.35,33.8,113,25.7,12.8,0,5,7,0,2026-03-21T16:01:05.671236+05:30
Guwahati,Assam,26.1158,91.7086,24.0,81,0.0,1004.4,2.65,18.7,94,47.1,33.3,3,5,0,1,2026-03-21T16:01:05.671242+05:30
Agartala,Tripura,23.8315,91.2868,26.1,61,0.0,1007.6,5.1,18.4,118,56.0,40.4,7,5,0,1,2026-03-21T16:01:05.671248+05:30
Shillong,Meghalaya,25.5788,91.8933,14.2,73,0.0,856.1,3.35,23.8,87,51.7,33.3,3,5,3,0,2026-03-21T16:01:05.671255+05:30
Imphal,Manipur,24.817,93.9368,20.8,59,0.0,923.8,7.45,35.3,88,36.0,24.5,0,5,7,0,2026-03-21T16:01:05.671261+05:30
Aizawl,Mizoram,23.7271,92.7176,20.9,62,0.0,893.2,5.8,34.6,120,68.9,53.8,3,5,3,0,2026-03-21T16:01:05.671268+05:30
Kohima,Nagaland,25.6701,94.1077,15.5,91,0.0,855.3,7.0,57.2,87,49.1,33.4,3,10,7,0,2026-03-21T16:01:05.671274+05:30
Gangtok,Sikkim,27.3314,88.6138,11.4,94,0.5,837.3,1.95,16.6,106,28.3,21.4,6,10,3,0,2026-03-21T16:01:05.671280+05:30
Siliguri,West Bengal,26.7271,88.3953,17.8,88,0.6,997.9,0.45,29.2,98,56.2,43.4,6,10,3,0,2026-03-21T16:01:08.882818+05:30
Durgapur,West Bengal,23.5204,87.3119,25.6,60,0.0,997.2,7.65,19.1,147,44.5,38.1,4,5,7,1,2026-03-21T16:01:08.882847+05:30
Asansol,West Bengal,23.6739,86.9524,25.4,61,0.0,996.0,6.2,21.2,150,42.4,35.5,7,5,7,1,2026-03-21T16:01:08.882873+05:30
Pondicherry,Puducherry,11.9139,79.8145,32.9,57,0.0,1007.3,9.15,30.6,38,11.7,7.3,0,5,4,1,2026-03-21T16:01:08.882882+05:30
Port Blair,Andaman and Nicobar Islands,11.6234,92.7265,28.6,76,0.0,1007.2,9.1,14.8,56,18.4,14.4,7,5,4,1,2026-03-21T16:01:08.882890+05:30
Haridwar,Uttarakhand,29.9457,78.1642,25.7,43,0.0,977.6,6.15,21.6,96,27.1,19.6,4,5,7,0,2026-03-21T16:01:08.882897+05:30
Rishikesh,Uttarakhand,30.0869,78.2676,24.6,46,0.0,970.0,6.15,20.9,80,22.4,14.7,0,5,7,0,2026-03-21T16:01:08.882904+05:30
Nainital,Uttarakhand,29.3919,79.4542,15.3,80,0.0,806.3,6.9,34.2,77,20.1,15.0,3,5,7,0,2026-03-21T16:01:08.882911+05:30
Mussoorie,Uttarakhand,30.4599,78.0664,15.6,57,0.0,803.6,6.55,26.3,79,22.6,15.4,0,5,7,0,2026-03-21T16:01:08.882918+05:30
Dharamshala,Himachal Pradesh,32.219,76.3234,17.2,67,0.0,870.6,6.2,17.6,75,15.7,8.4,3,5,7,0,2026-03-21T16:01:08.882924+05:30
Dalhousie,Himachal Pradesh,32.5387,75.971,14.6,67,0.0,804.7,6.35,17.3,72,20.1,11.9,3,5,7,0,2026-03-21T16:01:08.882932+05:30
Patiala,Punjab,30.3398,76.3869,24.6,50,0.0,982.4,5.65,23.8,150,540.2,62.6,0,5,3,0,2026-03-21T16:01:08.882939+05:30
Bhatinda,Punjab,30.211,74.9455,25.4,48,0.0,988.2,5.5,18.0,143,63.3,31.7,4,5,3,0,2026-03-21T16:01:08.882945+05:30
Rohtak,Haryana,28.8955,76.6066,26.1,46,0.0,985.8,5.75,22.7,162,380.0,50.3,4,5,3,0,2026-03-21T16:01:08.882951+05:30
Panipat,Haryana,29.3909,76.9635,25.5,47,0.0,984.5,6.15,24.8,161,787.9,82.2,4,5,7,0,2026-03-21T16:01:08.882957+05:30
Mathura,Uttar Pradesh,27.4924,77.6737,28.0,36,0.0,990.7,6.7,23.8,153,568.1,66.4,4,5,7,0,2026-03-21T16:01:08.882963+05:30
Vrindavan,Uttar Pradesh,27.5823,77.7027,26.8,42,0.0,991.2,6.65,21.6,153,568.1,66.4,4,5,7,0,2026-03-21T16:01:08.882969+05:30
Ayodhya,Uttar Pradesh,26.7922,82.1998,23.8,64,0.0,999.6,6.9,22.0,108,51.0,27.2,3,5,7,1,2026-03-21T16:01:08.882976+05:30
Ratlam,Madhya Pradesh,23.3315,75.0367,30.2,29,0.0,956.3,7.35,21.2,57,20.1,10.0,0,5,7,0,2026-03-21T16:01:08.882982+05:30
Sagar,Madhya Pradesh,23.8388,78.7378,28.3,27,0.0,952.8,7.9,28.4,92,27.8,13.3,4,5,7,0,2026-03-21T16:01:08.882988+05:30
Satna,Madhya Pradesh,24.6005,80.8322,25.5,45,0.0,974.6,7.8,32.8,77,26.1,12.6,4,5,7,0,2026-03-21T16:01:08.882995+05:30
Akola,Maharashtra,20.7002,77.0082,33.8,24,0.0,975.4,8.25,23.0,62,22.1,13.5,0,5,7,0,2026-03-21T16:01:08.883002+05:30
Amravati,Maharashtra,20.9374,77.7796,33.5,23,0.0,967.8,8.3,25.2,62,20.4,11.0,0,5,7,0,2026-03-21T16:01:08.883009+05:30
Latur,Maharashtra,18.4088,76.5604,32.6,25,0.0,939.7,8.65,34.2,71,39.1,17.5,0,5,7,0,2026-03-21T16:01:08.883016+05:30
Nanded,Maharashtra,19.1383,77.3091,35.0,22,0.0,968.4,8.5,28.1,64,42.8,14.0,0,5,7,0,2026-03-21T16:01:08.883022+05:30
Gulbarga,Karnataka,17.3297,76.8343,35.3,21,0.0,957.9,8.75,42.1,111,28.2,18.2,0,5,10,0,2026-03-21T16:01:08.883028+05:30
Bidar,Karnataka,17.9104,77.5199,33.1,25,0.0,935.4,8.75,40.3,85,32.6,19.6,0,5,7,0,2026-03-21T16:01:08.883034+05:30
Hospet,Karnataka,15.2689,76.3909,33.9,27,0.0,955.1,9.0,19.4,98,28.7,17.3,0,5,7,0,2026-03-21T16:01:08.883040+05:30
Tirupur,Tamil Nadu,11.1085,77.3411,36.3,28,0.0,973.0,9.4,33.5,100,22.6,15.5,0,5,10,0,2026-03-21T16:01:08.883046+05:30
Alappuzha,Kerala,9.4981,76.3388,29.2,73,0.0,1007.1,9.1,29.2,108,22.2,16.9,7,5,4,1,2026-03-21T16:01:08.883053+05:30
Munnar,Kerala,10.0889,77.0595,27.2,57,0.0,857.6,9.65,30.6,94,20.1,13.4,4,5,7,1,2026-03-21T16:01:08.883059+05:30
Silchar,Assam,24.8333,92.7789,26.0,60,0.0,1005.9,6.8,22.3,90,48.4,34.0,4,5,4,1,2026-03-21T16:01:08.883066+05:30
Dibrugarh,Assam,27.4728,94.912,26.6,63,0.0,997.2,6.3,20.5,94,43.4,27.5,7,5,7,1,2026-03-21T16:01:08.883073+05:30
