city,state,latitude,longitude,temp,humidity,rain,pressure,uv_index,wind_gusts,aqi,pm10,pm2_5,mosquito_risk,arthritis_risk,migraine_risk,frizz_risk,updated_at
Delhi,Delhi,28.6139,77.209,40.9,18,0.0,978.1,7.4,27.7,151,308.3,46.8,0,5,10,0,2026-04-24T15:54:30.477560+05:30
Mumbai,Maharashtra,19.076,72.8777,30.1,75,0.0,1004.5,8.05,21.2,101,48.2,32.5,3,5,4,1,2026-04-24T15:54:30.477598+05:30
Bangalore,Karnataka,12.9716,77.5946,35.5,23,0.0,909.2,9.6,33.1,111,25.4,19.7,0,5,10,0,2026-04-24T15:54:30.477614+05:30
Hyderabad,Telangana,17.385,78.4867,38.4,21,0.0,950.2,9.25,28.8,132,46.7,38.3,0,5,10,0,2026-04-24T15:54:30.477624+05:30
Chennai,Tamil Nadu,13.0827,80.2707,35.5,46,0.0,1003.9,8.85,33.5,31,9.9,7.0,0,5,7,1,2026-04-24T15:54:30.477633+05:30
Kolkata,West Bengal,22.5726,88.3639,35.3,60,0.0,1002.2,8.9,24.8,81,26.7,21.4,0,5,7,1,2026-04-24T15:54:30.477645+05:30
Pune,Maharashtra,18.5204,73.8567,35.6,32,0.0,946.6,8.65,41.4,128,29.2,24.2,0,5,10,1,2026-04-24T15:54:30.477653+05:30
Ahmedabad,Gujarat,23.0225,72.5714,42.9,14,0.0,997.6,8.2,24.5,47,48.2,12.8,0,5,10,0,2026-04-24T15:54:30.477661+05:30
Jaipur,Rajasthan,26.9124,75.7873,41.4,12,0.0,956.3,8.05,25.2,83,212.3,29.0,0,5,10,0,2026-04-24T15:54:30.477668+05:30
Lucknow,Uttar Pradesh,26.8467,80.9462,41.6,14,0.0,988.3,7.9,23.0,131,277.5,39.6,0,5,10,0,2026-04-24T15:54:30.477676+05:30
Kanpur,Uttar Pradesh,26.4499,80.3319,40.1,17,0.0,987.2,7.95,19.8,164,336.2,40.6,0,5,10,0,2026-04-24T15:54:30.477683+05:30
Chandigarh,Chandigarh,30.7333,76.7794,39.7,21,0.0,964.0,7.4,32.4,118,37.8,19.3,0,5,10,0,2026-04-24T15:54:30.477691+05:30
Srinagar,Jammu and Kashmir,34.0837,74.7973,22.6,58,0.0,843.4,8.6,17.6,78,33.2,11.6,0,5,7,0,2026-04-24T15:54:30.477698+05:30
Jammu,Jammu and Kashmir,32.7266,74.857,37.9,25,0.0,969.3,8.15,45.0,72,49.7,15.7,0,5,10,0,2026-04-24T15:54:30.477704+05:30
Amritsar,Punjab,31.634,74.8723,38.6,23,0.0,977.2,8.1,34.6,92,61.9,18.3,0,5,10,0,2026-04-24T15:54:30.477711+05:30
Ludhiana,Punjab,30.901,75.8573,40.7,16,0.0,974.0,7.7,36.0,86,57.9,18.2,0,5,10,0,2026-04-24T15:54:30.477719+05:30
Jalandhar,Punjab,31.326,75.5762,40.6,17,0.0,975.2,7.85,41.0,92,70.1,19.0,0,5,10,0,2026-04-24T15:54:30.477726+05:30
Dehradun,Uttarakhand,30.6284,78.0322,26.4,42,0.0,832.1,7.85,46.8,114,22.4,12.7,4,5,7,0,2026-04-24T15:54:30.477735+05:30
Shimla,Himachal Pradesh,31.1048,77.1734,27.3,28,0.0,788.4,7.9,45.0,98,29.3,12.4,4,5,7,0,2026-04-24T15:54:30.477743+05:30
Manali,Himachal Pradesh,32.2396,77.1887,24.7,55,0.0,824.2,9.95,35.3,116,22.4,9.0,0,5,7,0,2026-04-24T15:54:30.477749+05:30
Gurgaon,Haryana,28.4595,77.0266,40.4,19,0.0,976.7,7.5,23.8,418,936.9,98.5,0,5,10,0,2026-04-24T15:54:30.477756+05:30
Noida,Uttar Pradesh,28.5355,77.391,41.0,18,0.0,979.5,7.45,28.4,418,936.9,98.5,0,5,10,0,2026-04-24T15:54:30.477762+05:30
Ghaziabad,Uttar Pradesh,28.6692,77.4538,40.7,19,0.0,977.7,7.4,28.1,152,187.7,37.1,0,5,10,0,2026-04-24T15:54:30.477768+05:30
Faridabad,Haryana,28.4089,77.3178,41.3,16,0.0,979.0,7.5,28.4,418,936.9,98.5,0,5,10,0,2026-04-24T15:54:30.477774+05:30
Meerut,Uttar Pradesh,28.9845,77.7064,41.0,17,0.0,976.2,7.35,35.3,152,187.7,37.1,0,5,10,0,2026-04-24T15:54:30.477781+05:30
Agra,Uttar Pradesh,27.1767,78.0081,42.4,14,0.0,982.8,7.8,26.6,453,400.5,45.6,0,5,10,0,2026-04-24T15:54:30.477789+05:30
Varanasi,Uttar Pradesh,25.3176,82.9739,42.8,13,0.0,992.6,8.5,20.5,141,60.1,15.5,0,5,10,0,2026-04-24T15:54:30.477796+05:30
Prayagraj,Uttar Pradesh,25.4358,81.8463,42.5,14,0.0,990.6,8.35,16.6,138,33.5,8.8,0,5,10,0,2026-04-24T15:54:30.477804+05:30
Gorakhpur,Uttar Pradesh,26.7606,83.3732,41.0,18,0.0,992.5,8.3,24.1,165,210.5,40.3,0,5,10,0,2026-04-24T15:54:30.477810+05:30
Bareilly,Uttar Pradesh,28.367,79.4304,41.3,18,0.0,981.0,7.65,23.8,139,49.7,22.0,0,5,10,0,2026-04-24T15:54:30.477816+05:30
Aligarh,Uttar Pradesh,27.8974,78.088,42.3,13,0.0,980.2,7.6,28.8,241,361.4,51.6,0,5,10,0,2026-04-24T15:54:30.477823+05:30
Moradabad,Uttar Pradesh,28.8386,78.7733,40.9,17,0.0,978.3,7.5,33.1,161,55.8,20.9,0,5,10,0,2026-04-24T15:54:30.477829+05:30
Saharanpur,Uttar Pradesh,29.9637,77.546,40.0,20,0.0,970.6,7.15,30.6,147,83.6,22.6,0,5,10,0,2026-04-24T15:54:30.477836+05:30
Jhansi,Uttar Pradesh,25.4484,78.5685,42.7,11,0.0,973.3,8.3,34.9,89,26.1,10.0,0,5,10,0,2026-04-24T15:54:33.820957+05:30
Surat,Gujarat,21.1702,72.8311,33.3,47,0.0,1003.6,7.9,23.0,100,56.8,41.7,0,5,4,1,2026-04-24T15:54:33.820988+05:30
Vadodara,Gujarat,22.3072,73.1812,42.9,10,0.0,1000.1,8.15,27.4,76,26.8,13.6,0,5,7,0,2026-04-24T15:54:33.821000+05:30
Rajkot,Gujarat,22.3039,70.8022,41.2,18,0.0,990.9,7.9,34.9,43,42.5,12.7,0,5,10,0,2026-04-24T15:54:33.821010+05:30
Thane,Maharashtra,19.2183,72.9781,34.2,50,0.0,1004.3,8.05,35.3,101,48.2,32.5,0,5,4,1,2026-04-24T15:54:33.821018+05:30
Nagpur,Maharashtra,21.1458,79.0882,41.3,14,0.0,969.0,8.7,29.2,130,23.6,19.2,0,5,10,0,2026-04-24T15:54:33.821026+05:30
Nashik,Maharashtra,19.9975,73.7898,37.4,20,0.0,943.8,8.35,35.3,106,29.0,21.9,0,5,10,0,2026-04-24T15:54:33.821034+05:30
Aurangabad,Maharashtra,19.8762,75.3433,37.7,20,0.0,942.0,9.1,36.0,108,24.8,19.8,0,5,10,0,2026-04-24T15:54:33.821042+05:30
Solapur,Maharashtra,17.6599,75.9064,38.6,23,0.0,953.9,9.05,23.8,143,41.8,35.0,0,5,10,0,2026-04-24T15:54:33.821050+05:30
Kolhapur,Maharashtra,16.705,74.2433,34.6,40,0.0,945.6,9.05,31.3,138,48.4,43.3,0,5,7,1,2026-04-24T15:54:33.821058+05:30
Goa,Goa,15.2993,74.124,32.6,66,0.0,994.2,9.0,30.2,79,33.5,25.0,3,5,7,1,2026-04-24T15:54:33.821066+05:30
Jodhpur,Rajasthan,26.2389,73.0243,40.4,18,0.0,979.8,8.25,24.8,60,135.5,24.0,0,5,10,0,2026-04-24T15:54:33.821073+05:30
Udaipur,Rajasthan,24.5854,73.7125,36.3,24,0.0,945.2,8.8,34.2,56,25.0,7.7,0,5,10,0,2026-04-24T15:54:33.821118+05:30
Kota,Rajasthan,25.2138,75.8648,42.7,13,0.0,974.3,8.3,20.2,71,41.6,13.3,0,5,10,0,2026-04-24T15:54:33.821132+05:30
Bikaner,Rajasthan,28.0229,73.3119,42.1,14,0.0,977.9,7.7,21.2,56,95.2,21.9,0,5,10,0,2026-04-24T15:54:33.821140+05:30
Ajmer,Rajasthan,26.4499,74.6399,40.3,16,0.0,951.9,8.25,28.1,58,64.3,15.1,0,5,10,0,2026-04-24T15:54:33.821148+05:30
Gwalior,Madhya Pradesh,26.2183,78.1828,41.1,15,0.0,979.2,8.05,30.6,85,96.9,18.5,0,5,10,0,2026-04-24T15:54:33.821156+05:30
Indore,Madhya Pradesh,22.7196,75.8577,39.8,13,0.0,945.6,8.65,34.9,69,15.9,6.7,0,5,10,0,2026-04-24T15:54:33.821164+05:30
Bhopal,Madhya Pradesh,23.2599,77.4126,40.6,12,0.0,950.7,8.65,31.3,61,15.8,6.8,0,5,10,0,2026-04-24T15:54:33.821171+05:30
Jabalpur,Madhya Pradesh,23.1815,79.9864,39.5,16,0.0,958.6,8.8,21.2,118,16.6,12.8,0,5,10,0,2026-04-24T15:54:33.821179+05:30
Ujjain,Madhya Pradesh,23.1765,75.7885,39.7,15,0.0,951.2,8.55,35.3,54,23.7,8.3,0,5,10,0,2026-04-24T15:54:33.821192+05:30
Visakhapatnam,Andhra Pradesh,17.6868,83.2185,32.3,63,0.0,1000.2,9.15,40.0,61,19.9,15.2,3,5,4,1,2026-04-24T15:54:33.821201+05:30
Vijayawada,Andhra Pradesh,16.5062,80.648,38.7,35,0.0,998.3,9.0,29.9,53,17.6,13.5,0,5,10,1,2026-04-24T15:54:33.821209+05:30
Guntur,Andhra Pradesh,16.3067,80.4365,37.5,35,0.0,999.9,9.0,31.0,54,22.3,17.6,0,5,10,1,2026-04-24T15:54:33.821217+05:30
Nellore,Andhra Pradesh,14.4426,79.9865,36.8,47,0.0,1001.8,9.3,34.9,42,17.8,12.7,0,5,7,1,2026-04-24T15:54:33.821226+05:30
Kurnool,Andhra Pradesh,15.8281,78.0373,41.3,18,0.0,972.2,9.15,26.3,98,31.1,23.6,0,5,10,0,2026-04-24T15:54:33.821234+05:30
Kakinada,Andhra Pradesh,16.9891,82.2475,36.9,44,0.0,1003.4,9.05,32.8,41,12.3,7.9,0,5,7,1,2026-04-24T15:54:33.821243+05:30
Tirupati,Andhra Pradesh,13.6288,79.4192,38.1,27,0.0,987.8,9.3,33.8,54,20.1,15.7,0,5,10,0,2026-04-24T15:54:33.821250+05:30
Warangal,Telangana,17.9689,79.5941,39.7,26,0.0,974.9,9.2,25.9,113,45.9,37.3,0,5,10,1,2026-04-24T15:54:33.821258+05:30
Nizamabad,Telangana,18.6725,78.0941,40.2,19,0.0,961.3,8.85,29.5,129,33.1,28.1,0,5,10,0,2026-04-24T15:54:33.821266+05:30
Mysore,Karnataka,12.2958,76.6396,36.9,21,0.0,925.2,9.5,36.4,107,24.5,18.3,0,5,10,0,2026-04-24T15:54:33.821274+05:30
Mangalore,Karnataka,12.9141,74.856,30.5,81,0.0,1002.3,9.1,24.5,75,27.6,20.3,3,5,4,1,2026-04-24T15:54:33.821282+05:30
Hubli-Dharwad,Karnataka,15.3647,75.124,35.2,32,0.0,938.1,9.2,42.1,131,34.9,28.3,0,5,10,0,2026-04-24T15:54:33.821290+05:30
Belgaum,Karnataka,15.8497,74.4977,29.2,60,0.0,923.9,9.25,40.0,154,46.7,38.9,4,5,7,1,2026-04-24T15:54:37.162922+05:30
Coimbatore,Tamil Nadu,11.0168,76.9558,37.0,27,0.0,957.7,9.4,36.4,98,20.0,15.0,0,5,10,0,2026-04-24T15:54:37.162947+05:30
Madurai,Tamil Nadu,9.9252,78.1198,39.0,27,0.0,988.1,9.3,34.6,55,10.4,9.0,0,5,10,1,2026-04-24T15:54:37.162956+05:30
Trichy,Tamil Nadu,10.7905,78.7047,38.1,33,0.0,995.1,9.25,25.2,50,9.4,8.2,0,5,10,1,2026-04-24T15:54:37.162963+05:30
Salem,Tamil Nadu,11.6643,78.146,38.6,25,0.0,973.2,9.35,28.8,61,17.6,13.3,0,5,10,0,2026-04-24T15:54:37.162970+05:30
Tirunelveli,Tamil Nadu,8.7139,77.7567,36.0,40,0.0,998.6,9.2,40.0,76,15.3,13.7,0,5,10,1,2026-04-24T15:54:37.162976+05:30
Vellore,Tamil Nadu,12.9165,79.1325,37.2,29,0.0,980.9,9.3,31.3,70,18.5,15.5,0,5,10,1,2026-04-24T15:54:37.162982+05:30
Erode,Tamil Nadu,11.341,77.7172,39.5,26,0.0,984.2,9.3,29.2,51,13.8,10.4,0,5,10,1,2026-04-24T15:54:37.162988+05:30
Kochi,Kerala,9.9312,76.2673,30.1,80,0.0,1004.1,8.3,29.2,76,22.2,19.2,3,5,4,1,2026-04-24T15:54:37.162995+05:30
Thiruvananthapuram,Kerala,8.5241,76.9366,28.7,80,0.0,1004.2,9.05,25.2,66,17.9,14.1,7,5,4,1,2026-04-24T15:54:37.163000+05:30
Kozhikode,Kerala,11.2588,75.7804,31.5,75,0.0,1003.3,9.1,33.8,86,27.1,20.8,3,5,4,1,2026-04-24T15:54:37.163007+05:30
Thrissur,Kerala,10.5276,76.2144,33.0,66,0.0,1002.7,9.1,33.1,84,28.2,23.2,3,5,4,1,2026-04-24T15:54:37.163013+05:30
Kannur,Kerala,11.8745,75.3704,32.6,66,0.0,1002.9,9.1,32.0,85,31.5,23.8,3,5,4,1,2026-04-24T15:54:37.163020+05:30
Patna,Bihar,25.5941,85.1376,38.2,34,0.0,996.4,8.6,25.9,186,192.8,44.6,0,5,10,1,2026-04-24T15:54:37.163026+05:30
Gaya,Bihar,24.7914,85.0002,41.0,16,0.0,989.6,8.7,20.5,152,163.9,30.2,0,5,10,0,2026-04-24T15:54:37.163032+05:30
Muzaffarpur,Bihar,26.1209,85.3647,37.1,44,0.0,996.5,8.6,31.7,177,178.3,50.2,0,5,10,1,2026-04-24T15:54:37.163038+05:30
Bhagalpur,Bihar,25.2425,87.0117,36.3,47,0.0,997.5,8.65,20.9,197,110.8,61.0,0,5,10,1,2026-04-24T15:54:37.163044+05:30
Ranchi,Jharkhand,23.3441,85.3096,38.4,12,0.0,935.9,9.2,28.8,160,100.8,24.2,0,5,10,0,2026-04-24T15:54:37.163050+05:30
Jamshedpur,Jharkhand,22.8046,86.2029,41.3,16,0.0,986.3,8.7,35.6,212,183.5,47.4,0,5,10,0,2026-04-24T15:54:37.163056+05:30
Dhanbad,Jharkhand,23.7957,86.4304,41.5,13,0.0,975.7,8.95,35.6,164,165.8,45.8,0,5,10,0,2026-04-24T15:54:37.163062+05:30
Bokaro,Jharkhand,23.6693,86.1511,41.0,13,0.0,979.7,8.95,31.0,163,156.9,41.0,0,5,10,0,2026-04-24T15:54:37.163068+05:30
Bhubaneswar,Odisha,20.2961,85.8245,34.0,63,0.0,998.6,9.15,38.2,99,36.0,28.2,3,5,7,1,2026-04-24T15:54:37.163074+05:30
Cuttack,Odisha,20.4625,85.8828,37.5,46,0.0,999.5,9.15,30.6,99,36.0,28.2,0,5,10,1,2026-04-24T15:54:37.163110+05:30
Rourkela,Odisha,22.2604,84.8536,41.6,12,0.0,980.6,8.95,37.8,184,138.8,32.2,0,5,10,0,2026-04-24T15:54:37.163118+05:30
Raipur,Chhattisgarh,21.2514,81.6296,42.0,12,0.0,970.2,8.95,27.4,196,28.1,20.6,0,5,10,0,2026-04-24T15:54:37.163124+05:30
Bhilai,Chhattisgarh,21.1938,81.3509,41.9,13,0.0,970.6,8.8,24.1,166,23.8,21.0,0,5,10,0,2026-04-24T15:54:37.163130+05:30
Guwahati,Assam,26.1158,91.7086,32.7,60,0.0,998.8,8.55,20.5,151,97.3,52.6,0,5,7,1,2026-04-24T15:54:37.163136+05:30
Agartala,Tripura,23.8315,91.2868,33.6,61,0.0,1003.1,8.6,21.2,119,71.5,38.3,3,5,4,1,2026-04-24T15:54:37.163143+05:30
Shillong,Meghalaya,25.5788,91.8933,23.2,57,0.0,857.9,6.3,27.0,151,82.2,41.4,0,5,7,0,2026-04-24T15:54:37.163149+05:30
Imphal,Manipur,24.817,93.9368,26.8,55,0.0,922.3,9.1,34.6,152,95.0,38.1,4,5,7,1,2026-04-24T15:54:37.163155+05:30
Aizawl,Mizoram,23.7271,92.7176,29.1,44,0.0,892.7,8.4,31.3,125,103.8,32.6,4,5,7,0,2026-04-24T15:54:37.163161+05:30
Kohima,Nagaland,25.6701,94.1077,22.7,70,0.0,856.0,8.55,42.5,145,97.1,44.0,3,5,7,1,2026-04-24T15:54:37.163168+05:30
Gangtok,Sikkim,27.3314,88.6138,22.2,72,0.0,839.4,8.25,22.3,122,54.5,34.7,3,5,7,1,2026-04-24T15:54:37.163185+05:30
Siliguri,West Bengal,26.7271,88.3953,28.2,66,0.0,992.1,8.45,18.7,153,88.9,53.2,7,5,7,1,2026-04-24T15:54:40.505241+05:30
Durgapur,West Bengal,23.5204,87.3119,36.6,40,0.0,991.5,8.45,31.0,152,149.9,53.8,0,5,10,1,2026-04-24T15:54:40.505267+05:30
Asansol,West Bengal,23.6739,86.9524,38.2,31,0.0,989.8,8.95,37.8,152,161.1,46.4,0,5,10,1,2026-04-24T15:54:40.505276+05:30
Pondicherry,Puducherry,11.9139,79.8145,36.9,46,0.0,1004.3,9.15,31.0,41,9.5,7.0,0,5,7,1,2026-04-24T15:54:40.505284+05:30
Port Blair,Andaman and Nicobar Islands,11.6234,92.7265,29.1,80,0.0,1004.5,9.15,21.6,36,10.6,5.7,7,5,4,1,2026-04-24T15:54:40.505291+05:30
Haridwar,Uttarakhand,29.9457,78.1642,40.2,20,0.0,969.5,7.2,36.7,120,29.6,15.5,0,5,10,0,2026-04-24T15:54:40.505298+05:30
Rishikesh,Uttarakhand,30.0869,78.2676,38.8,21,0.0,962.8,7.35,39.2,108,25.8,13.6,0,5,10,0,2026-04-24T15:54:40.505304+05:30
Nainital,Uttarakhand,29.3919,79.4542,30.7,28,0.0,809.1,8.2,44.6,149,38.1,19.2,0,5,7,0,2026-04-24T15:54:40.505311+05:30
Mussoorie,Uttarakhand,30.4599,78.0664,28.2,32,0.0,805.5,7.75,49.7,123,26.7,15.3,4,5,7,0,2026-04-24T15:54:40.505317+05:30
Dharamshala,Himachal Pradesh,32.219,76.3234,32.0,30,0.0,869.7,8.05,29.2,90,27.9,10.4,0,5,7,0,2026-04-24T15:54:40.505324+05:30
Dalhousie,Himachal Pradesh,32.5387,75.971,29.9,24,0.0,806.5,8.3,33.1,103,34.5,13.4,4,5,7,0,2026-04-24T15:54:40.505331+05:30
Patiala,Punjab,30.3398,76.3869,40.7,18,0.0,973.3,7.35,38.2,176,545.8,56.5,0,5,10,0,2026-04-24T15:54:40.505337+05:30
Bhatinda,Punjab,30.211,74.9455,41.3,16,0.0,979.3,8.0,42.8,98,66.1,19.4,0,5,10,0,2026-04-24T15:54:40.505343+05:30
Rohtak,Haryana,28.8955,76.6066,41.1,16,0.0,977.0,7.45,29.2,160,486.2,57.0,0,5,10,0,2026-04-24T15:54:40.505349+05:30
Panipat,Haryana,29.3909,76.9635,41.2,18,0.0,975.3,7.3,31.0,370,895.9,86.1,0,5,10,0,2026-04-24T15:54:40.505355+05:30
Mathura,Uttar Pradesh,27.4924,77.6737,42.1,13,0.0,981.8,7.75,23.0,351,471.2,54.0,0,5,10,0,2026-04-24T15:54:40.505362+05:30
Vrindavan,Uttar Pradesh,27.5823,77.7027,41.9,14,0.0,982.1,7.7,23.4,351,471.2,54.0,0,5,10,0,2026-04-24T15:54:40.505368+05:30
Ayodhya,Uttar Pradesh,26.7922,82.1998,42.4,11,0.0,990.1,8.05,18.7,119,204.0,32.8,0,5,10,0,2026-04-24T15:54:40.505374+05:30
Ratlam,Madhya Pradesh,23.3315,75.0367,37.7,25,0.0,952.0,8.5,30.2,61,25.6,8.4,0,5,10,0,2026-04-24T15:54:40.505381+05:30
Sagar,Madhya Pradesh,23.8388,78.7378,40.3,12,0.0,947.5,8.65,31.3,78,20.1,12.5,0,5,10,0,2026-04-24T15:54:40.505387+05:30
Satna,Madhya Pradesh,24.6005,80.8322,42.6,10,0.0,967.1,8.65,28.4,127,14.1,12.6,0,5,10,0,2026-04-24T15:54:40.505393+05:30
Akola,Maharashtra,20.7002,77.0082,41.9,15,0.0,971.4,8.85,29.5,100,26.5,16.4,0,5,10,0,2026-04-24T15:54:40.505400+05:30
Amravati,Maharashtra,20.9374,77.7796,41.4,15,0.0,963.6,8.65,20.9,98,24.4,15.3,0,5,10,0,2026-04-24T15:54:40.505407+05:30
Latur,Maharashtra,18.4088,76.5604,37.9,20,0.0,937.5,8.3,33.8,133,33.4,28.9,0,5,10,0,2026-04-24T15:54:40.505413+05:30
Nanded,Maharashtra,19.1383,77.3091,40.4,18,0.0,965.1,8.95,25.6,129,23.7,20.1,0,5,10,0,2026-04-24T15:54:40.505419+05:30
Gulbarga,Karnataka,17.3297,76.8343,38.3,24,0.0,955.4,8.8,49.3,148,43.4,36.4,0,5,10,0,2026-04-24T15:54:40.505426+05:30
Bidar,Karnataka,17.9104,77.5199,36.8,23,0.0,933.5,8.8,52.2,139,41.8,35.3,0,5,10,0,2026-04-24T15:54:40.505432+05:30
Hospet,Karnataka,15.2689,76.3909,38.2,24,0.0,952.1,9.15,22.0,116,32.2,25.8,0,5,10,0,2026-04-24T15:54:40.505438+05:30
Tirupur,Tamil Nadu,11.1085,77.3411,39.1,24,0.0,970.8,9.4,33.8,66,16.0,11.9,0,5,10,0,2026-04-24T15:54:40.505444+05:30
Alappuzha,Kerala,9.4981,76.3388,30.1,80,0.0,1004.3,9.0,28.1,87,21.8,18.5,3,5,4,1,2026-04-24T15:54:40.505450+05:30
Munnar,Kerala,10.0889,77.0595,28.9,57,0.0,856.0,9.6,33.1,68,13.5,10.5,4,5,7,1,2026-04-24T15:54:40.505457+05:30
Silchar,Assam,24.8333,92.7789,33.4,55,0.0,1002.0,8.75,20.2,157,118.5,48.2,0,5,4,1,2026-04-24T15:54:40.505463+05:30
Dibrugarh,Assam,27.4728,94.912,32.4,53,0.0,992.3,8.65,14.4,129,37.6,21.9,0,5,7,1,2026-04-24T15:54:40.505468+05:30
