city,state,latitude,longitude,temp,humidity,rain,pressure,uv_index,wind_gusts,aqi,pm10,pm2_5,mosquito_risk,arthritis_risk,migraine_risk,frizz_risk,updated_at
Delhi,Delhi,28.6139,77.209,34.5,35,0.0,976.9,7.25,56.9,747,480.6,64.7,0,5,7,1,2026-04-28T17:17:51.563114+05:30
Mumbai,Maharashtra,19.076,72.8777,31.5,61,0.0,1004.4,8.0,40.0,88,50.1,23.2,3,5,4,1,2026-04-28T17:17:51.563150+05:30
Bangalore,Karnataka,12.9716,77.5946,34.8,21,0.0,909.1,9.0,33.8,164,43.1,28.7,0,5,7,0,2026-04-28T17:17:51.563166+05:30
Hyderabad,Telangana,17.385,78.4867,38.8,18,0.0,949.3,8.85,36.4,159,47.4,35.9,0,5,10,0,2026-04-28T17:17:51.563175+05:30
Chennai,Tamil Nadu,13.0827,80.2707,31.8,64,0.0,1002.7,8.25,55.4,74,17.7,14.0,3,5,4,1,2026-04-28T17:17:51.563184+05:30
Kolkata,West Bengal,22.5726,88.3639,27.8,90,0.1,1000.1,8.85,49.3,73,35.6,29.0,10,5,4,1,2026-04-28T17:17:51.563193+05:30
Pune,Maharashtra,18.5204,73.8567,36.5,23,0.0,944.7,8.6,42.8,86,34.9,23.9,0,5,10,0,2026-04-28T17:17:51.563204+05:30
Ahmedabad,Gujarat,23.0225,72.5714,42.5,12,0.0,994.5,8.2,46.4,57,47.3,13.4,0,5,10,0,2026-04-28T17:17:51.563212+05:30
Jaipur,Rajasthan,26.9124,75.7873,38.8,13,0.0,953.3,8.05,37.1,130,138.3,18.5,0,5,10,0,2026-04-28T17:17:51.563220+05:30
Lucknow,Uttar Pradesh,26.8467,80.9462,40.0,16,0.0,985.0,7.9,39.6,161,316.6,63.1,0,5,10,0,2026-04-28T17:17:51.563227+05:30
Kanpur,Uttar Pradesh,26.4499,80.3319,40.8,15,0.0,983.2,7.95,40.3,195,538.3,71.2,0,5,10,0,2026-04-28T17:17:51.563235+05:30
Chandigarh,Chandigarh,30.7333,76.7794,32.0,30,0.0,963.8,4.6,34.2,56,54.1,17.2,0,5,3,0,2026-04-28T17:17:51.563242+05:30
Srinagar,Jammu and Kashmir,34.0837,74.7973,15.3,87,0.1,839.7,5.1,19.1,81,24.7,20.0,6,10,3,0,2026-04-28T17:17:51.563249+05:30
Jammu,Jammu and Kashmir,32.7266,74.857,31.2,32,0.0,968.4,6.6,27.0,67,43.0,21.2,0,5,7,0,2026-04-28T17:17:51.563256+05:30
Amritsar,Punjab,31.634,74.8723,33.4,31,0.0,975.9,6.25,32.8,79,51.2,17.3,0,5,7,0,2026-04-28T17:17:51.563263+05:30
Ludhiana,Punjab,30.901,75.8573,33.9,28,0.0,973.5,6.75,37.1,80,71.0,22.5,0,5,7,0,2026-04-28T17:17:51.563270+05:30
Jalandhar,Punjab,31.326,75.5762,31.0,38,0.0,974.9,7.25,37.8,81,69.2,20.8,0,5,7,0,2026-04-28T17:17:51.563278+05:30
Dehradun,Uttarakhand,30.6284,78.0322,20.5,43,0.0,828.5,4.95,43.2,103,31.1,11.1,0,5,3,0,2026-04-28T17:17:51.563285+05:30
Shimla,Himachal Pradesh,31.1048,77.1734,13.6,77,0.1,781.3,3.75,39.6,55,30.3,11.6,6,5,3,0,2026-04-28T17:17:51.563292+05:30
Manali,Himachal Pradesh,32.2396,77.1887,13.6,76,0.1,814.4,9.85,40.7,111,15.8,9.1,6,5,7,0,2026-04-28T17:17:51.563301+05:30
Gurgaon,Haryana,28.4595,77.0266,35.7,26,0.0,975.3,7.6,54.7,1448,834.5,87.3,0,5,10,0,2026-04-28T17:17:51.563308+05:30
Noida,Uttar Pradesh,28.5355,77.391,34.7,32,0.0,978.4,7.5,47.9,1448,834.5,87.3,0,5,7,0,2026-04-28T17:17:51.563314+05:30
Ghaziabad,Uttar Pradesh,28.6692,77.4538,35.5,28,0.0,976.7,7.3,32.4,584,353.9,54.7,0,5,10,0,2026-04-28T17:17:51.563320+05:30
Faridabad,Haryana,28.4089,77.3178,34.0,36,0.0,977.7,7.55,59.0,1448,834.5,87.3,0,5,7,1,2026-04-28T17:17:51.563327+05:30
Meerut,Uttar Pradesh,28.9845,77.7064,34.0,32,0.0,975.7,7.05,37.1,584,353.9,54.7,0,5,7,0,2026-04-28T17:17:51.563333+05:30
Agra,Uttar Pradesh,27.1767,78.0081,38.5,20,0.0,980.8,7.8,40.7,770,489.9,58.4,0,5,10,0,2026-04-28T17:17:51.563339+05:30
Varanasi,Uttar Pradesh,25.3176,82.9739,40.1,19,0.0,989.1,8.5,40.0,154,150.9,30.4,0,5,10,0,2026-04-28T17:17:51.563348+05:30
Prayagraj,Uttar Pradesh,25.4358,81.8463,40.5,17,0.0,987.2,8.4,40.7,152,149.5,32.5,0,5,10,0,2026-04-28T17:17:51.563355+05:30
Gorakhpur,Uttar Pradesh,26.7606,83.3732,34.6,35,0.0,990.0,8.3,29.9,138,133.6,41.3,0,5,7,1,2026-04-28T17:17:51.563364+05:30
Bareilly,Uttar Pradesh,28.367,79.4304,36.8,23,0.0,980.1,7.7,45.7,168,92.2,33.8,0,5,10,0,2026-04-28T17:17:51.563371+05:30
Aligarh,Uttar Pradesh,27.8974,78.088,35.5,27,0.0,979.3,7.65,50.0,849,549.5,74.5,0,5,10,0,2026-04-28T17:17:51.563378+05:30
Moradabad,Uttar Pradesh,28.8386,78.7733,36.1,25,0.0,977.5,7.5,42.5,154,122.9,36.8,0,5,10,0,2026-04-28T17:17:51.563384+05:30
Saharanpur,Uttar Pradesh,29.9637,77.546,31.6,35,0.0,970.4,6.65,42.5,70,74.0,21.0,0,5,7,0,2026-04-28T17:17:51.563390+05:30
Jhansi,Uttar Pradesh,25.4484,78.5685,40.6,15,0.0,970.1,8.3,33.8,98,52.2,15.9,0,5,10,0,2026-04-28T17:17:54.802305+05:30
Surat,Gujarat,21.1702,72.8311,33.4,48,0.0,1001.3,7.9,45.0,79,33.3,21.1,0,5,4,1,2026-04-28T17:17:54.802330+05:30
Vadodara,Gujarat,22.3072,73.1812,41.2,17,0.0,997.3,8.15,46.8,67,49.1,15.6,0,5,10,0,2026-04-28T17:17:54.802339+05:30
Rajkot,Gujarat,22.3039,70.8022,40.3,16,0.0,988.2,7.9,51.1,50,43.0,12.7,0,5,10,0,2026-04-28T17:17:54.802346+05:30
Thane,Maharashtra,19.2183,72.9781,34.0,44,0.0,1003.4,8.05,37.1,88,50.1,23.2,0,5,4,1,2026-04-28T17:17:54.802352+05:30
Nagpur,Maharashtra,21.1458,79.0882,41.2,13,0.0,967.0,8.85,50.8,161,25.8,19.0,0,5,10,0,2026-04-28T17:17:54.802358+05:30
Nashik,Maharashtra,19.9975,73.7898,36.2,18,0.0,942.4,8.3,43.2,70,24.6,11.0,0,5,10,0,2026-04-28T17:17:54.802364+05:30
Aurangabad,Maharashtra,19.8762,75.3433,39.5,13,0.0,939.8,9.0,42.5,74,25.0,16.8,0,5,10,0,2026-04-28T17:17:54.802370+05:30
Solapur,Maharashtra,17.6599,75.9064,40.3,15,0.0,952.1,9.05,37.8,118,35.3,23.2,0,5,10,0,2026-04-28T17:17:54.802376+05:30
Kolhapur,Maharashtra,16.705,74.2433,34.0,41,0.0,944.3,6.4,49.3,73,38.5,23.3,0,5,7,1,2026-04-28T17:17:54.802382+05:30
Goa,Goa,15.2993,74.124,32.7,62,0.0,994.3,8.95,37.8,62,57.6,20.3,3,5,7,1,2026-04-28T17:17:54.802387+05:30
Jodhpur,Rajasthan,26.2389,73.0243,40.0,15,0.0,975.4,8.3,49.0,112,258.9,28.6,0,5,10,0,2026-04-28T17:17:54.802393+05:30
Udaipur,Rajasthan,24.5854,73.7125,36.8,17,0.0,941.0,8.75,49.7,46,37.1,10.6,0,5,10,0,2026-04-28T17:17:54.802399+05:30
Kota,Rajasthan,25.2138,75.8648,40.4,12,0.0,971.3,8.3,33.8,64,24.3,8.3,0,5,10,0,2026-04-28T17:17:54.802404+05:30
Bikaner,Rajasthan,28.0229,73.3119,40.3,14,0.0,974.1,8.15,40.0,56,89.6,16.8,0,5,10,0,2026-04-28T17:17:54.802410+05:30
Ajmer,Rajasthan,26.4499,74.6399,38.1,14,0.0,948.3,8.25,47.2,53,26.5,7.9,0,5,10,0,2026-04-28T17:17:54.802415+05:30
Gwalior,Madhya Pradesh,26.2183,78.1828,39.5,17,0.0,975.8,8.05,39.6,70,97.8,19.6,0,5,10,0,2026-04-28T17:17:54.802420+05:30
Indore,Madhya Pradesh,22.7196,75.8577,38.2,14,0.0,943.3,8.6,56.2,68,17.3,8.9,0,5,10,0,2026-04-28T17:17:54.802426+05:30
Bhopal,Madhya Pradesh,23.2599,77.4126,39.9,9,0.0,947.6,8.6,50.8,94,14.7,10.5,0,5,10,0,2026-04-28T17:17:54.802431+05:30
Jabalpur,Madhya Pradesh,23.1815,79.9864,40.8,9,0.0,954.5,8.75,45.4,110,14.0,8.8,0,5,10,0,2026-04-28T17:17:54.802437+05:30
Ujjain,Madhya Pradesh,23.1765,75.7885,38.0,13,0.0,948.7,8.55,55.1,52,23.1,8.4,0,5,10,0,2026-04-28T17:17:54.802442+05:30
Visakhapatnam,Andhra Pradesh,17.6868,83.2185,30.9,69,0.0,1000.1,9.05,59.0,71,25.0,17.6,3,5,4,1,2026-04-28T17:17:54.802448+05:30
Vijayawada,Andhra Pradesh,16.5062,80.648,35.2,47,0.0,998.2,9.2,41.0,67,33.4,23.6,0,5,10,1,2026-04-28T17:17:54.802453+05:30
Guntur,Andhra Pradesh,16.3067,80.4365,33.9,58,0.0,999.2,9.25,43.6,78,37.8,27.9,0,5,7,1,2026-04-28T17:17:54.802459+05:30
Nellore,Andhra Pradesh,14.4426,79.9865,33.3,56,0.0,1000.7,9.25,50.0,91,24.8,18.9,0,5,4,1,2026-04-28T17:17:54.802465+05:30
Kurnool,Andhra Pradesh,15.8281,78.0373,32.9,43,0.0,973.4,9.2,52.2,181,53.0,40.9,0,5,7,1,2026-04-28T17:17:54.802471+05:30
Kakinada,Andhra Pradesh,16.9891,82.2475,34.5,52,0.0,1003.4,9.2,43.9,63,18.7,12.5,0,5,4,1,2026-04-28T17:17:54.802477+05:30
Tirupati,Andhra Pradesh,13.6288,79.4192,38.8,23,0.0,985.6,8.6,41.4,74,26.5,18.0,0,5,10,0,2026-04-28T17:17:54.802482+05:30
Warangal,Telangana,17.9689,79.5941,36.5,31,0.0,974.6,9.15,40.0,119,52.4,39.0,0,5,10,1,2026-04-28T17:17:54.802488+05:30
Nizamabad,Telangana,18.6725,78.0941,39.2,15,0.0,959.9,9.1,37.1,134,32.0,22.4,0,5,10,0,2026-04-28T17:17:54.802493+05:30
Mysore,Karnataka,12.2958,76.6396,33.8,32,0.0,925.5,8.35,37.8,128,42.6,29.9,0,5,7,0,2026-04-28T17:17:54.802499+05:30
Mangalore,Karnataka,12.9141,74.856,31.4,64,0.0,1003.3,8.7,41.8,74,28.5,18.0,3,5,4,1,2026-04-28T17:17:54.802504+05:30
Hubli-Dharwad,Karnataka,15.3647,75.124,29.8,60,0.0,937.7,9.2,49.3,91,43.9,30.4,4,5,7,1,2026-04-28T17:17:54.802510+05:30
Belgaum,Karnataka,15.8497,74.4977,30.2,61,0.0,923.2,9.25,47.5,101,45.2,26.3,3,5,7,1,2026-04-28T17:17:58.040861+05:30
Coimbatore,Tamil Nadu,11.0168,76.9558,32.4,48,0.0,958.0,8.2,56.2,117,33.5,21.2,0,5,7,1,2026-04-28T17:17:58.040890+05:30
Madurai,Tamil Nadu,9.9252,78.1198,35.2,39,0.0,989.1,9.2,51.1,105,21.2,17.6,0,5,10,1,2026-04-28T17:17:58.040901+05:30
Trichy,Tamil Nadu,10.7905,78.7047,36.4,37,0.0,994.9,8.25,45.4,62,12.0,10.8,0,5,10,1,2026-04-28T17:17:58.040910+05:30
Salem,Tamil Nadu,11.6643,78.146,38.8,20,0.0,972.1,8.25,31.3,107,28.2,18.7,0,5,10,0,2026-04-28T17:17:58.040918+05:30
Tirunelveli,Tamil Nadu,8.7139,77.7567,33.8,49,0.0,999.6,9.15,45.4,70,17.4,15.4,0,5,7,1,2026-04-28T17:17:58.040925+05:30
Vellore,Tamil Nadu,12.9165,79.1325,37.7,26,0.0,979.6,8.35,40.0,70,25.6,18.0,0,5,10,0,2026-04-28T17:17:58.040932+05:30
Erode,Tamil Nadu,11.341,77.7172,38.9,22,0.0,983.6,8.35,40.3,126,29.2,19.6,0,5,10,0,2026-04-28T17:17:58.040939+05:30
Kochi,Kerala,9.9312,76.2673,29.5,77,0.0,1006.1,7.55,37.1,73,23.6,18.9,7,5,4,1,2026-04-28T17:17:58.040946+05:30
Thiruvananthapuram,Kerala,8.5241,76.9366,28.9,76,0.0,1005.7,7.7,32.8,59,15.0,11.4,7,5,4,1,2026-04-28T17:17:58.040953+05:30
Kozhikode,Kerala,11.2588,75.7804,30.1,77,0.1,1004.3,7.55,37.8,65,19.2,13.9,6,5,4,1,2026-04-28T17:17:58.040960+05:30
Thrissur,Kerala,10.5276,76.2144,29.8,75,0.1,1004.1,7.05,37.8,74,22.6,18.1,10,5,4,1,2026-04-28T17:17:58.040967+05:30
Kannur,Kerala,11.8745,75.3704,29.9,75,0.0,1004.0,7.3,43.9,75,29.0,21.5,7,5,4,1,2026-04-28T17:17:58.040975+05:30
Patna,Bihar,25.5941,85.1376,34.5,43,0.0,993.5,8.6,33.1,152,99.4,50.3,0,5,7,1,2026-04-28T17:17:58.040982+05:30
Gaya,Bihar,24.7914,85.0002,34.9,40,0.0,986.7,8.7,41.8,159,98.3,39.9,0,5,7,1,2026-04-28T17:17:58.040989+05:30
Muzaffarpur,Bihar,26.1209,85.3647,32.5,54,0.0,993.7,8.55,45.4,144,88.2,44.2,0,5,7,1,2026-04-28T17:17:58.040996+05:30
Bhagalpur,Bihar,25.2425,87.0117,31.0,59,0.0,994.8,8.55,32.4,136,89.4,42.8,0,5,7,1,2026-04-28T17:17:58.041002+05:30
Ranchi,Jharkhand,23.3441,85.3096,32.2,31,0.0,933.0,8.9,53.6,98,53.9,19.4,0,5,7,0,2026-04-28T17:17:58.041009+05:30
Jamshedpur,Jharkhand,22.8046,86.2029,36.5,27,0.0,984.3,8.8,51.5,179,55.6,39.5,0,5,10,0,2026-04-28T17:17:58.041016+05:30
Dhanbad,Jharkhand,23.7957,86.4304,32.4,53,0.0,973.4,8.75,39.2,138,94.5,65.4,0,5,7,1,2026-04-28T17:17:58.041058+05:30
Bokaro,Jharkhand,23.6693,86.1511,35.2,36,0.0,977.0,8.95,38.9,161,95.2,66.4,0,5,10,1,2026-04-28T17:17:58.041078+05:30
Bhubaneswar,Odisha,20.2961,85.8245,32.1,64,0.0,996.9,9.1,46.4,69,24.8,21.5,3,5,7,1,2026-04-28T17:17:58.041088+05:30
Cuttack,Odisha,20.4625,85.8828,35.5,38,0.0,998.2,9.1,43.9,69,24.8,21.5,0,5,10,1,2026-04-28T17:17:58.041095+05:30
Rourkela,Odisha,22.2604,84.8536,37.8,24,0.0,979.1,8.4,46.8,133,25.8,16.4,0,5,10,0,2026-04-28T17:17:58.041102+05:30
Raipur,Chhattisgarh,21.2514,81.6296,38.2,23,0.0,968.8,8.9,49.0,169,26.5,20.5,0,5,10,0,2026-04-28T17:17:58.041109+05:30
Bhilai,Chhattisgarh,21.1938,81.3509,37.5,25,0.0,969.5,8.9,54.4,147,26.5,20.4,0,5,10,0,2026-04-28T17:17:58.041116+05:30
Guwahati,Assam,26.1158,91.7086,24.8,82,0.0,996.1,7.7,28.4,75,27.5,16.0,3,5,7,1,2026-04-28T17:17:58.041123+05:30
Agartala,Tripura,23.8315,91.2868,24.4,95,0.0,1001.8,4.35,45.0,67,35.7,25.8,3,5,0,1,2026-04-28T17:17:58.041131+05:30
Shillong,Meghalaya,25.5788,91.8933,17.6,90,0.0,852.6,8.85,38.2,50,9.5,6.2,3,10,7,0,2026-04-28T17:17:58.041139+05:30
Imphal,Manipur,24.817,93.9368,22.0,84,0.0,919.6,2.3,20.9,95,14.8,12.6,3,5,3,1,2026-04-28T17:17:58.041145+05:30
Aizawl,Mizoram,23.7271,92.7176,18.3,87,0.0,888.5,5.85,47.5,84,36.6,24.2,3,10,3,0,2026-04-28T17:17:58.041150+05:30
Kohima,Nagaland,25.6701,94.1077,19.4,87,0.0,852.2,8.45,30.2,58,7.8,4.2,3,10,7,1,2026-04-28T17:17:58.041155+05:30
Gangtok,Sikkim,27.3314,88.6138,16.3,97,0.0,832.7,8.45,36.4,90,22.6,14.8,3,10,7,0,2026-04-28T17:17:58.041162+05:30
Siliguri,West Bengal,26.7271,88.3953,26.7,70,0.0,987.7,8.0,33.1,91,36.9,22.0,7,5,7,1,2026-04-28T17:18:01.274381+05:30
Durgapur,West Bengal,23.5204,87.3119,27.8,82,0.0,988.2,8.85,37.1,124,100.6,66.4,7,5,7,1,2026-04-28T17:18:01.274408+05:30
Asansol,West Bengal,23.6739,86.9524,29.4,71,0.0,987.0,8.9,31.0,121,94.3,65.9,7,5,7,1,2026-04-28T17:18:01.274417+05:30
Pondicherry,Puducherry,11.9139,79.8145,30.9,72,0.0,1004.2,8.6,46.8,63,13.8,10.5,3,5,4,1,2026-04-28T17:18:01.274424+05:30
Port Blair,Andaman and Nicobar Islands,11.6234,92.7265,30.5,64,0.1,1005.0,9.1,31.3,52,14.7,11.2,6,5,4,1,2026-04-28T17:18:01.274431+05:30
Haridwar,Uttarakhand,29.9457,78.1642,28.9,59,0.0,969.2,7.0,32.0,72,94.3,20.1,4,5,7,1,2026-04-28T17:18:01.274437+05:30
Rishikesh,Uttarakhand,30.0869,78.2676,29.7,50,0.0,962.3,6.75,23.4,113,114.1,18.8,4,5,7,1,2026-04-28T17:18:01.274443+05:30
Nainital,Uttarakhand,29.3919,79.4542,20.3,51,0.0,804.0,7.8,44.6,156,95.9,28.2,0,5,7,0,2026-04-28T17:18:01.274449+05:30
Mussoorie,Uttarakhand,30.4599,78.0664,17.2,55,0.0,800.7,4.25,48.2,95,101.0,19.7,0,5,3,0,2026-04-28T17:18:01.274456+05:30
Dharamshala,Himachal Pradesh,32.219,76.3234,21.2,53,0.0,866.0,7.45,49.7,81,17.8,8.7,0,5,7,0,2026-04-28T17:18:01.274462+05:30
Dalhousie,Himachal Pradesh,32.5387,75.971,14.9,88,0.0,801.2,7.1,27.7,78,49.2,18.2,3,10,7,0,2026-04-28T17:18:01.274469+05:30
Patiala,Punjab,30.3398,76.3869,34.6,26,0.0,972.6,5.7,43.9,375,369.7,44.8,0,5,3,0,2026-04-28T17:18:01.274475+05:30
Bhatinda,Punjab,30.211,74.9455,35.5,24,0.0,978.2,7.3,52.9,92,138.8,29.0,0,5,10,0,2026-04-28T17:18:01.274481+05:30
Rohtak,Haryana,28.8955,76.6066,37.8,19,0.0,975.2,7.3,48.6,894,592.3,68.2,0,5,10,0,2026-04-28T17:18:01.274487+05:30
Panipat,Haryana,29.3909,76.9635,34.8,27,0.0,974.7,6.5,46.1,1582,758.1,80.6,0,5,7,0,2026-04-28T17:18:01.274493+05:30
Mathura,Uttar Pradesh,27.4924,77.6737,36.3,24,0.0,980.2,7.75,42.8,713,393.0,47.7,0,5,10,0,2026-04-28T17:18:01.274499+05:30
Vrindavan,Uttar Pradesh,27.5823,77.7027,35.1,27,0.0,980.7,7.75,45.7,713,393.0,47.7,0,5,10,0,2026-04-28T17:18:01.274504+05:30
Ayodhya,Uttar Pradesh,26.7922,82.1998,36.7,25,0.0,987.2,8.1,49.0,145,212.3,53.4,0,5,10,0,2026-04-28T17:18:01.274510+05:30
Ratlam,Madhya Pradesh,23.3315,75.0367,37.3,14,0.0,949.9,8.45,50.4,53,27.8,9.4,0,5,10,0,2026-04-28T17:18:01.274516+05:30
Sagar,Madhya Pradesh,23.8388,78.7378,38.8,11,0.0,944.2,8.6,45.4,88,12.7,9.0,0,5,10,0,2026-04-28T17:18:01.274522+05:30
Satna,Madhya Pradesh,24.6005,80.8322,39.5,15,0.0,964.0,8.65,47.2,95,36.3,13.7,0,5,10,0,2026-04-28T17:18:01.274527+05:30
Akola,Maharashtra,20.7002,77.0082,41.3,13,0.0,968.7,8.85,37.4,107,22.7,16.6,0,5,10,0,2026-04-28T17:18:01.274534+05:30
Amravati,Maharashtra,20.9374,77.7796,40.8,13,0.0,961.6,8.85,47.2,116,23.7,17.2,0,5,10,0,2026-04-28T17:18:01.274540+05:30
Latur,Maharashtra,18.4088,76.5604,38.5,15,0.0,936.0,9.05,34.9,105,35.3,22.7,0,5,10,0,2026-04-28T17:18:01.274546+05:30
Nanded,Maharashtra,19.1383,77.3091,40.6,15,0.0,963.0,8.95,32.8,118,36.7,24.3,0,5,10,0,2026-04-28T17:18:01.274552+05:30
Gulbarga,Karnataka,17.3297,76.8343,40.2,15,0.0,953.7,9.1,40.7,140,30.6,21.7,0,5,10,0,2026-04-28T17:18:01.274558+05:30
Bidar,Karnataka,17.9104,77.5199,37.9,16,0.0,932.0,7.05,34.6,135,32.2,22.8,0,5,10,0,2026-04-28T17:18:01.274564+05:30
Hospet,Karnataka,15.2689,76.3909,33.9,36,0.0,952.4,9.25,36.4,116,43.8,31.7,0,5,7,1,2026-04-28T17:18:01.274569+05:30
Tirupur,Tamil Nadu,11.1085,77.3411,39.2,21,0.0,970.3,8.25,48.2,130,34.8,22.4,0,5,10,0,2026-04-28T17:18:01.274575+05:30
Alappuzha,Kerala,9.4981,76.3388,29.0,79,0.0,1006.2,7.65,35.3,72,21.8,17.6,7,5,4,1,2026-04-28T17:18:01.274580+05:30
Munnar,Kerala,10.0889,77.0595,20.0,95,0.0,855.5,8.75,27.4,87,20.8,14.9,3,5,7,1,2026-04-28T17:18:01.274587+05:30
Silchar,Assam,24.8333,92.7789,24.2,94,0.1,1001.5,1.95,34.2,92,16.1,13.6,6,5,0,1,2026-04-28T17:18:01.274593+05:30
Dibrugarh,Assam,27.4728,94.912,27.0,72,0.0,991.9,7.3,20.2,123,37.7,26.7,7,5,7,1,2026-04-28T17:18:01.274598+05:30
