city,state,latitude,longitude,temp,humidity,rain,pressure,uv_index,wind_gusts,aqi,pm10,pm2_5,no2,co,o3,so2,mosquito_risk,arthritis_risk,migraine_risk,frizz_risk,updated_at
Delhi,Delhi,28.6139,77.209,37.1,33,0.0,981.3,7.8,39.2,544,242.1,67.1,8.3,325.0,158.0,15.6,0,5,10,1,2026-06-20T10:47:19.375938+05:30
Mumbai,Maharashtra,19.076,72.8777,33.0,52,0.0,1009.2,7.75,41.8,53,24.2,14.5,6.0,171.0,80.0,9.9,0,0,4,1,2026-06-20T10:47:19.376000+05:30
Bangalore,Karnataka,12.9716,77.5946,28.3,57,0.0,913.9,8.05,27.7,60,24.7,15.6,9.2,378.0,95.0,5.9,4,5,7,1,2026-06-20T10:47:19.376016+05:30
Hyderabad,Telangana,17.385,78.4867,34.2,36,0.0,953.6,8.25,32.4,67,23.6,18.1,4.4,297.0,114.0,7.0,0,5,7,1,2026-06-20T10:47:19.376025+05:30
Chennai,Tamil Nadu,13.0827,80.2707,33.4,58,0.0,1007.2,7.7,38.5,87,30.6,26.7,10.5,370.0,140.0,16.4,0,5,4,1,2026-06-20T10:47:19.376033+05:30
Kolkata,West Bengal,22.5726,88.3639,32.8,64,0.0,1004.2,8.25,27.4,163,38.5,33.1,2.7,404.0,147.0,9.1,3,5,4,1,2026-06-20T10:47:19.376041+05:30
Pune,Maharashtra,18.5204,73.8567,30.5,44,0.0,949.5,8.2,42.1,41,13.5,8.8,2.8,139.0,82.0,5.8,0,5,7,1,2026-06-20T10:47:19.376048+05:30
Ahmedabad,Gujarat,23.0225,72.5714,34.8,44,0.0,1002.4,8.05,41.4,72,61.2,21.0,2.5,137.0,70.0,4.9,0,5,4,1,2026-06-20T10:47:19.376055+05:30
Jaipur,Rajasthan,26.9124,75.7873,34.3,41,0.0,959.9,8.25,33.8,134,236.1,47.1,2.4,164.0,88.0,4.3,0,5,7,1,2026-06-20T10:47:19.376066+05:30
Lucknow,Uttar Pradesh,26.8467,80.9462,38.3,37,0.0,990.6,8.35,37.8,156,614.7,129.9,4.1,239.0,142.0,11.6,0,5,10,1,2026-06-20T10:47:19.376089+05:30
Kanpur,Uttar Pradesh,26.4499,80.3319,37.6,36,0.0,989.3,8.35,36.7,184,594.2,103.8,2.9,171.0,125.0,8.9,0,5,10,1,2026-06-20T10:47:19.376097+05:30
Chandigarh,Chandigarh,30.7333,76.7794,33.9,44,0.0,966.6,7.8,34.6,151,58.1,41.9,3.8,460.0,176.0,13.9,0,5,7,1,2026-06-20T10:47:19.376105+05:30
Srinagar,Jammu and Kashmir,34.0837,74.7973,20.9,64,0.0,844.6,9.0,29.9,69,25.4,13.1,2.5,306.0,128.0,3.2,3,5,7,0,2026-06-20T10:47:19.376112+05:30
Jammu,Jammu and Kashmir,32.7266,74.857,35.3,30,0.0,970.9,8.65,36.0,102,30.0,19.4,4.2,325.0,144.0,2.7,0,5,10,0,2026-06-20T10:47:19.376118+05:30
Amritsar,Punjab,31.634,74.8723,32.8,49,0.0,978.9,8.45,24.8,161,54.0,38.5,4.5,416.0,177.0,12.2,0,5,7,1,2026-06-20T10:47:19.376125+05:30
Ludhiana,Punjab,30.901,75.8573,34.8,36,0.0,976.9,8.05,36.7,136,48.4,34.5,3.7,435.0,153.0,6.2,0,5,7,1,2026-06-20T10:47:19.376130+05:30
Jalandhar,Punjab,31.326,75.5762,34.5,37,0.0,977.8,8.2,33.1,151,63.6,37.1,3.8,447.0,163.0,6.4,0,5,7,1,2026-06-20T10:47:19.376136+05:30
Dehradun,Uttarakhand,30.6284,78.0322,25.3,54,0.0,832.7,7.65,28.8,75,34.1,23.9,0.5,186.0,151.0,2.3,4,5,7,0,2026-06-20T10:47:19.376142+05:30
Shimla,Himachal Pradesh,31.1048,77.1734,22.7,40,0.0,787.7,8.35,36.4,93,38.5,23.5,0.7,194.0,151.0,3.2,0,5,7,0,2026-06-20T10:47:19.376148+05:30
Manali,Himachal Pradesh,32.2396,77.1887,24.9,33,0.0,821.5,9.6,40.0,46,8.6,5.4,5.0,146.0,133.0,0.6,0,5,7,0,2026-06-20T10:47:19.376157+05:30
Gurgaon,Haryana,28.4595,77.0266,36.1,35,0.0,980.1,7.9,38.2,712,1020.7,147.1,10.3,284.0,156.0,18.3,0,5,10,1,2026-06-20T10:47:19.376163+05:30
Noida,Uttar Pradesh,28.5355,77.391,36.7,36,0.0,982.4,7.85,32.0,712,1020.7,147.1,10.3,379.0,156.0,18.3,0,5,10,1,2026-06-20T10:47:19.376169+05:30
Ghaziabad,Uttar Pradesh,28.6692,77.4538,35.8,38,0.0,980.8,7.8,37.8,429,220.7,64.7,6.3,300.0,170.0,17.1,0,5,10,1,2026-06-20T10:47:19.376175+05:30
Faridabad,Haryana,28.4089,77.3178,36.8,34,0.0,981.9,7.85,39.2,712,1020.7,147.1,10.3,320.0,156.0,18.3,0,5,10,1,2026-06-20T10:47:19.376181+05:30
Meerut,Uttar Pradesh,28.9845,77.7064,34.9,44,0.0,979.6,7.75,37.8,429,220.7,64.7,6.3,297.0,170.0,17.1,0,5,7,1,2026-06-20T10:47:19.376187+05:30
Agra,Uttar Pradesh,27.1767,78.0081,37.1,32,0.0,986.3,8.15,36.7,616,588.6,89.6,4.8,213.0,118.0,8.3,0,5,10,1,2026-06-20T10:47:19.376193+05:30
Varanasi,Uttar Pradesh,25.3176,82.9739,39.1,33,0.0,994.4,8.8,36.4,99,129.5,47.3,3.0,234.0,141.0,10.4,0,5,10,1,2026-06-20T10:47:19.376199+05:30
Prayagraj,Uttar Pradesh,25.4358,81.8463,38.8,33,0.0,993.2,8.75,38.2,108,150.9,49.8,3.0,165.0,138.0,10.1,0,5,10,1,2026-06-20T10:47:19.376206+05:30
Gorakhpur,Uttar Pradesh,26.7606,83.3732,34.5,59,0.0,994.5,8.7,31.0,158,96.9,68.2,4.3,451.0,192.0,15.7,0,5,7,1,2026-06-20T10:47:19.376211+05:30
Bareilly,Uttar Pradesh,28.367,79.4304,35.9,42,0.0,984.2,8.15,33.1,161,234.7,87.3,4.4,314.0,180.0,14.8,0,5,10,1,2026-06-20T10:47:19.376219+05:30
Aligarh,Uttar Pradesh,27.8974,78.088,36.2,37,0.0,983.9,8.0,36.0,461,691.0,116.6,8.3,346.0,159.0,21.0,0,5,10,1,2026-06-20T10:47:19.376225+05:30
Moradabad,Uttar Pradesh,28.8386,78.7733,35.3,43,0.0,981.3,7.95,38.5,176,92.7,59.8,4.9,358.0,174.0,13.7,0,5,10,1,2026-06-20T10:47:19.376231+05:30
Saharanpur,Uttar Pradesh,29.9637,77.546,33.5,50,0.0,973.5,7.55,34.6,162,82.0,51.8,4.5,421.0,176.0,15.3,0,5,7,1,2026-06-20T10:47:19.376237+05:30
Jhansi,Uttar Pradesh,25.4484,78.5685,36.3,36,0.0,977.0,8.4,35.3,72,82.4,32.1,2.1,138.0,95.0,6.4,0,5,10,1,2026-06-20T10:47:22.600057+05:30
Surat,Gujarat,21.1702,72.8311,32.8,59,0.0,1007.6,7.6,42.5,63,22.9,16.8,13.7,338.0,45.0,41.8,0,5,4,1,2026-06-20T10:47:22.600088+05:30
Vadodara,Gujarat,22.3072,73.1812,34.2,50,0.0,1004.8,8.05,46.8,64,45.8,19.0,2.8,147.0,67.0,4.4,0,5,4,1,2026-06-20T10:47:22.600098+05:30
Rajkot,Gujarat,22.3039,70.8022,34.4,43,0.0,994.3,7.55,48.6,64,66.1,20.4,1.5,106.0,70.0,3.1,0,5,7,1,2026-06-20T10:47:22.600106+05:30
Thane,Maharashtra,19.2183,72.9781,34.8,44,0.0,1008.3,7.7,40.3,53,24.2,14.5,6.0,178.0,80.0,9.9,0,0,4,1,2026-06-20T10:47:22.600115+05:30
Nagpur,Maharashtra,21.1458,79.0882,36.8,29,0.0,973.5,8.9,42.8,58,40.6,22.8,5.0,154.0,122.0,16.4,0,5,10,0,2026-06-20T10:47:22.600123+05:30
Nashik,Maharashtra,19.9975,73.7898,31.5,45,0.0,947.1,8.05,43.9,46,17.4,10.7,2.7,128.0,80.0,6.4,0,5,7,1,2026-06-20T10:47:22.600131+05:30
Aurangabad,Maharashtra,19.8762,75.3433,32.7,37,0.0,945.8,9.0,46.4,44,13.7,8.8,2.1,120.0,81.0,4.7,0,5,7,1,2026-06-20T10:47:22.600138+05:30
Solapur,Maharashtra,17.6599,75.9064,33.7,38,0.0,958.6,8.95,40.7,52,21.0,12.6,2.0,123.0,87.0,3.2,0,5,7,1,2026-06-20T10:47:22.600146+05:30
Kolhapur,Maharashtra,16.705,74.2433,31.5,43,0.0,949.8,8.2,43.9,48,20.4,11.7,2.4,124.0,78.0,2.5,0,5,7,1,2026-06-20T10:47:22.600154+05:30
Goa,Goa,15.2993,74.124,32.2,55,0.0,999.5,8.6,29.5,60,22.1,10.4,0.5,121.0,62.0,1.7,0,5,7,1,2026-06-20T10:47:22.600162+05:30
Jodhpur,Rajasthan,26.2389,73.0243,34.4,46,0.0,982.6,8.4,36.7,112,188.1,46.2,1.1,112.0,71.0,3.5,0,5,7,1,2026-06-20T10:47:22.600169+05:30
Udaipur,Rajasthan,24.5854,73.7125,31.0,52,0.0,947.3,8.85,31.3,75,56.8,21.9,0.9,111.0,74.0,3.2,0,5,7,1,2026-06-20T10:47:22.600178+05:30
Kota,Rajasthan,25.2138,75.8648,34.7,45,0.0,978.7,8.4,31.3,75,42.4,24.0,6.2,158.0,66.0,10.8,0,5,7,1,2026-06-20T10:47:22.600185+05:30
Bikaner,Rajasthan,28.0229,73.3119,33.6,53,0.0,980.8,8.5,56.5,111,227.2,71.0,0.6,123.0,70.0,1.9,0,5,7,1,2026-06-20T10:47:22.600193+05:30
Ajmer,Rajasthan,26.4499,74.6399,32.2,50,0.0,955.0,8.4,38.9,88,113.4,37.3,1.7,113.0,79.0,4.2,0,5,7,1,2026-06-20T10:47:22.600201+05:30
Gwalior,Madhya Pradesh,26.2183,78.1828,36.7,34,0.1,982.0,8.3,36.4,78,121.5,38.3,1.6,148.0,93.0,3.3,3,5,10,1,2026-06-20T10:47:22.600208+05:30
Indore,Madhya Pradesh,22.7196,75.8577,32.5,49,0.0,949.3,7.9,37.4,66,48.3,24.2,3.2,179.0,79.0,6.5,0,5,7,1,2026-06-20T10:47:22.600216+05:30
Bhopal,Madhya Pradesh,23.2599,77.4126,31.9,50,0.0,954.4,8.7,30.6,68,45.2,24.4,1.3,169.0,99.0,5.6,0,5,7,1,2026-06-20T10:47:22.600224+05:30
Jabalpur,Madhya Pradesh,23.1815,79.9864,34.8,40,0.0,961.5,8.35,29.9,62,38.9,21.0,1.2,157.0,101.0,3.7,0,5,7,1,2026-06-20T10:47:22.600231+05:30
Ujjain,Madhya Pradesh,23.1765,75.7885,32.2,52,0.0,954.9,7.85,36.4,67,43.4,22.4,2.6,150.0,75.0,8.0,0,5,7,1,2026-06-20T10:47:22.600239+05:30
Visakhapatnam,Andhra Pradesh,17.6868,83.2185,33.2,61,0.0,1002.1,8.7,33.5,102,38.5,33.3,18.4,393.0,135.0,48.6,3,5,4,1,2026-06-20T10:47:22.600247+05:30
Vijayawada,Andhra Pradesh,16.5062,80.648,34.5,52,0.0,1001.5,3.8,31.3,87,26.1,22.6,5.0,242.0,128.0,10.9,0,5,0,1,2026-06-20T10:47:22.600255+05:30
Guntur,Andhra Pradesh,16.3067,80.4365,34.7,47,0.0,1002.9,4.2,26.6,82,24.1,20.6,5.2,218.0,119.0,10.2,0,5,0,1,2026-06-20T10:47:22.600262+05:30
Nellore,Andhra Pradesh,14.4426,79.9865,34.4,52,0.0,1005.4,6.05,30.2,71,23.5,17.1,4.2,167.0,108.0,6.4,0,5,4,1,2026-06-20T10:47:22.600270+05:30
Kurnool,Andhra Pradesh,15.8281,78.0373,33.8,46,0.0,977.6,7.85,33.1,66,24.5,16.6,3.9,161.0,90.0,8.7,0,5,7,1,2026-06-20T10:47:22.600279+05:30
Kakinada,Andhra Pradesh,16.9891,82.2475,34.0,60,0.0,1006.1,6.0,33.5,74,30.4,24.2,3.2,253.0,151.0,7.3,0,5,0,1,2026-06-20T10:47:22.600286+05:30
Tirupati,Andhra Pradesh,13.6288,79.4192,35.0,46,0.0,991.1,7.35,32.4,64,22.4,17.8,5.7,170.0,117.0,3.9,0,5,7,1,2026-06-20T10:47:22.600294+05:30
Warangal,Telangana,17.9689,79.5941,34.7,46,0.0,978.4,8.0,28.8,106,28.5,23.6,5.7,198.0,135.0,7.6,0,5,7,1,2026-06-20T10:47:22.600301+05:30
Nizamabad,Telangana,18.6725,78.0941,35.2,36,0.0,965.4,9.0,32.8,69,22.6,15.1,1.8,160.0,111.0,7.0,0,5,10,1,2026-06-20T10:47:22.600309+05:30
Mysore,Karnataka,12.2958,76.6396,28.1,48,0.0,930.8,8.0,38.2,54,40.2,18.2,3.9,163.0,90.0,2.5,4,5,7,1,2026-06-20T10:47:22.600316+05:30
Mangalore,Karnataka,12.9141,74.856,30.0,69,0.0,1008.9,7.75,41.0,77,32.8,18.8,3.1,158.0,76.0,4.0,7,0,4,1,2026-06-20T10:47:22.600324+05:30
Hubli-Dharwad,Karnataka,15.3647,75.124,29.5,49,0.0,943.2,8.4,43.6,47,31.1,11.6,1.9,122.0,69.0,1.3,4,5,7,1,2026-06-20T10:47:22.600331+05:30
Belgaum,Karnataka,15.8497,74.4977,28.3,54,0.0,928.0,8.15,39.6,50,25.6,11.1,1.9,113.0,70.0,1.7,4,5,7,1,2026-06-20T10:47:25.817507+05:30
Coimbatore,Tamil Nadu,11.0168,76.9558,29.4,61,0.0,964.0,8.25,47.5,51,37.0,15.8,2.4,156.0,82.0,3.2,7,5,7,1,2026-06-20T10:47:25.817540+05:30
Madurai,Tamil Nadu,9.9252,78.1198,33.4,45,0.0,994.8,8.6,25.2,59,23.7,14.8,4.7,197.0,111.0,4.4,0,5,7,1,2026-06-20T10:47:25.817552+05:30
Trichy,Tamil Nadu,10.7905,78.7047,32.5,56,0.0,1001.1,8.45,28.8,54,33.6,19.6,4.0,152.0,106.0,4.8,0,5,4,1,2026-06-20T10:47:25.817563+05:30
Salem,Tamil Nadu,11.6643,78.146,30.8,61,0.0,979.0,8.25,26.6,69,21.2,14.6,6.7,231.0,113.0,13.2,3,5,7,1,2026-06-20T10:47:25.817572+05:30
Tirunelveli,Tamil Nadu,8.7139,77.7567,33.2,41,0.0,1005.3,8.65,33.8,59,49.9,18.6,1.9,141.0,75.0,1.7,0,5,4,1,2026-06-20T10:47:25.817581+05:30
Vellore,Tamil Nadu,12.9165,79.1325,33.5,49,0.0,984.8,7.5,32.0,74,23.0,18.7,6.0,209.0,120.0,5.9,0,5,7,1,2026-06-20T10:47:25.817589+05:30
Erode,Tamil Nadu,11.341,77.7172,29.9,62,0.0,991.0,8.3,27.4,61,31.1,17.0,4.0,207.0,99.0,3.5,7,5,7,1,2026-06-20T10:47:25.817598+05:30
Kochi,Kerala,9.9312,76.2673,29.5,75,0.0,1011.5,8.05,34.9,100,48.0,24.8,7.6,160.0,90.0,6.7,7,0,4,1,2026-06-20T10:47:25.817607+05:30
Thiruvananthapuram,Kerala,8.5241,76.9366,29.3,71,0.0,1011.1,8.3,31.3,60,38.6,20.1,3.8,137.0,82.0,3.5,7,0,4,1,2026-06-20T10:47:25.817615+05:30
Kozhikode,Kerala,11.2588,75.7804,29.6,71,0.0,1010.3,7.85,33.5,56,28.7,12.5,0.9,156.0,59.0,1.6,7,0,4,1,2026-06-20T10:47:25.817623+05:30
Thrissur,Kerala,10.5276,76.2144,29.9,69,0.0,1009.7,8.15,33.1,108,46.0,24.0,4.8,134.0,92.0,5.3,7,0,4,1,2026-06-20T10:47:25.817632+05:30
Kannur,Kerala,11.8745,75.3704,30.0,69,0.0,1009.5,7.6,38.2,74,31.9,16.3,2.0,135.0,72.0,2.9,7,0,4,1,2026-06-20T10:47:25.817645+05:30
Patna,Bihar,25.5941,85.1376,35.0,56,0.0,997.7,8.9,28.8,151,64.3,49.9,5.7,295.0,192.0,17.1,0,5,7,1,2026-06-20T10:47:25.817655+05:30
Gaya,Bihar,24.7914,85.0002,36.2,44,0.0,991.2,8.45,31.3,90,43.4,25.4,3.2,210.0,140.0,11.7,0,5,10,1,2026-06-20T10:47:25.817663+05:30
Muzaffarpur,Bihar,26.1209,85.3647,33.0,63,0.0,998.0,8.9,31.7,157,73.6,61.2,5.0,404.0,190.0,20.2,3,5,7,1,2026-06-20T10:47:25.817672+05:30
Bhagalpur,Bihar,25.2425,87.0117,34.3,60,0.0,998.8,8.7,26.3,156,75.2,59.4,7.3,231.0,196.0,36.6,0,5,7,1,2026-06-20T10:47:25.817680+05:30
Ranchi,Jharkhand,23.3441,85.3096,31.3,55,0.0,937.5,8.4,32.4,105,31.1,20.4,1.6,219.0,138.0,7.4,0,5,7,1,2026-06-20T10:47:25.817688+05:30
Jamshedpur,Jharkhand,22.8046,86.2029,33.4,59,0.0,989.2,9.05,25.9,148,47.0,40.7,4.8,304.0,172.0,27.0,0,5,7,1,2026-06-20T10:47:25.817696+05:30
Dhanbad,Jharkhand,23.7957,86.4304,33.4,59,0.0,978.1,8.9,24.1,157,52.7,43.7,14.6,219.0,169.0,58.2,0,5,7,1,2026-06-20T10:47:25.817705+05:30
Bokaro,Jharkhand,23.6693,86.1511,34.4,53,0.0,981.8,8.85,25.6,151,44.2,33.4,9.5,238.0,161.0,41.5,0,5,7,1,2026-06-20T10:47:25.817714+05:30
Bhubaneswar,Odisha,20.2961,85.8245,31.6,71,0.0,1001.5,9.0,27.4,89,33.4,29.5,4.2,244.0,142.0,9.7,3,5,4,1,2026-06-20T10:47:25.817722+05:30
Cuttack,Odisha,20.4625,85.8828,30.9,76,0.0,1003.3,9.15,23.4,89,33.4,29.5,4.2,247.0,142.0,9.7,3,5,4,1,2026-06-20T10:47:25.817731+05:30
Rourkela,Odisha,22.2604,84.8536,32.9,58,0.0,983.8,8.7,24.8,128,32.4,26.9,4.9,269.0,133.0,15.4,0,5,7,1,2026-06-20T10:47:25.817738+05:30
Raipur,Chhattisgarh,21.2514,81.6296,35.3,39,0.0,974.3,8.95,25.6,92,34.9,26.1,10.2,139.0,115.0,28.4,0,5,10,1,2026-06-20T10:47:25.817747+05:30
Bhilai,Chhattisgarh,21.1938,81.3509,35.4,38,0.0,974.7,4.4,37.8,93,26.7,18.7,7.7,273.0,103.0,24.2,0,5,6,1,2026-06-20T10:47:25.817755+05:30
Guwahati,Assam,26.1158,91.7086,29.6,75,0.0,999.6,8.7,25.9,142,62.9,44.0,1.7,338.0,129.0,5.5,7,5,7,1,2026-06-20T10:47:25.817764+05:30
Agartala,Tripura,23.8315,91.2868,31.1,65,0.0,1005.1,8.0,33.8,88,29.6,25.1,3.7,184.0,128.0,4.7,3,5,4,1,2026-06-20T10:47:25.817772+05:30
Shillong,Meghalaya,25.5788,91.8933,24.3,67,0.0,858.0,6.0,29.2,79,22.4,14.6,2.1,210.0,107.0,3.3,3,5,3,1,2026-06-20T10:47:25.817780+05:30
Imphal,Manipur,24.817,93.9368,28.4,67,0.0,922.6,9.05,35.3,79,19.0,11.7,1.3,184.0,98.0,1.9,7,5,7,1,2026-06-20T10:47:25.817789+05:30
Aizawl,Mizoram,23.7271,92.7176,24.6,73,0.1,893.2,8.8,37.8,61,8.0,5.8,1.0,150.0,92.0,1.4,6,5,7,1,2026-06-20T10:47:25.817797+05:30
Kohima,Nagaland,25.6701,94.1077,24.8,77,0.0,856.0,8.8,24.1,62,15.4,9.3,0.9,222.0,103.0,2.1,3,5,7,1,2026-06-20T10:47:25.817806+05:30
Gangtok,Sikkim,27.3314,88.6138,21.8,82,0.1,838.3,8.45,30.6,93,11.3,9.1,2.6,335.0,136.0,6.0,6,5,7,1,2026-06-20T10:47:25.817815+05:30
Siliguri,West Bengal,26.7271,88.3953,28.5,79,0.0,991.7,8.7,20.5,157,39.9,31.5,3.8,427.0,143.0,10.6,7,5,7,1,2026-06-20T10:47:29.042029+05:30
Durgapur,West Bengal,23.5204,87.3119,33.0,66,0.0,993.1,8.75,26.3,161,70.1,63.6,14.2,765.0,187.0,59.9,3,5,7,1,2026-06-20T10:47:29.042061+05:30
Asansol,West Bengal,23.6739,86.9524,33.8,61,0.0,991.6,9.0,25.6,158,61.5,53.6,14.1,638.0,179.0,56.7,3,5,7,1,2026-06-20T10:47:29.042072+05:30
Pondicherry,Puducherry,11.9139,79.8145,31.5,69,0.0,1008.9,8.25,33.8,77,27.9,22.6,9.3,273.0,115.0,16.0,3,0,4,1,2026-06-20T10:47:29.042082+05:30
Port Blair,Andaman and Nicobar Islands,11.6234,92.7265,30.3,72,0.0,1008.9,8.7,40.3,27,17.2,8.0,0.2,99.0,50.0,0.4,3,0,4,1,2026-06-20T10:47:29.042091+05:30
Haridwar,Uttarakhand,29.9457,78.1642,34.0,51,0.0,971.7,7.65,27.7,156,60.5,46.8,1.8,360.0,185.0,12.8,0,5,7,1,2026-06-20T10:47:29.042100+05:30
Rishikesh,Uttarakhand,30.0869,78.2676,32.9,53,0.0,964.6,7.75,29.5,119,52.5,39.0,1.1,301.0,171.0,7.3,0,5,7,1,2026-06-20T10:47:29.042108+05:30
Nainital,Uttarakhand,29.3919,79.4542,23.4,56,0.0,808.4,6.85,32.4,107,93.8,46.4,1.4,252.0,178.0,8.8,0,5,7,0,2026-06-20T10:47:29.042117+05:30
Mussoorie,Uttarakhand,30.4599,78.0664,22.2,58,0.0,805.2,8.0,42.1,125,52.2,40.3,0.9,198.0,177.0,8.2,0,5,7,0,2026-06-20T10:47:29.042126+05:30
Dharamshala,Himachal Pradesh,32.219,76.3234,25.9,49,0.0,870.0,8.5,43.9,50,19.8,10.1,0.6,220.0,134.0,1.0,4,5,7,0,2026-06-20T10:47:29.042135+05:30
Dalhousie,Himachal Pradesh,32.5387,75.971,22.3,55,0.1,807.0,8.75,32.8,84,35.7,20.0,1.4,222.0,150.0,1.4,3,5,7,0,2026-06-20T10:47:29.042144+05:30
Patiala,Punjab,30.3398,76.3869,35.2,38,0.0,976.3,7.7,34.9,288,638.9,94.8,3.5,381.0,150.0,7.7,0,5,10,1,2026-06-20T10:47:29.042153+05:30
Bhatinda,Punjab,30.211,74.9455,35.8,37,0.0,982.1,8.3,32.4,144,62.6,37.5,4.4,311.0,172.0,17.5,0,5,10,1,2026-06-20T10:47:29.042162+05:30
Rohtak,Haryana,28.8955,76.6066,35.4,41,0.0,980.2,7.8,33.1,626,556.9,89.9,5.2,281.0,147.0,8.2,0,5,10,1,2026-06-20T10:47:29.042170+05:30
Panipat,Haryana,29.3909,76.9635,35.0,40,0.0,978.5,7.65,33.5,1216,1709.9,199.3,4.7,310.0,154.0,11.2,0,5,7,1,2026-06-20T10:47:29.042179+05:30
Mathura,Uttar Pradesh,27.4924,77.6737,36.0,38,0.0,985.4,8.1,33.5,210,616.5,95.7,6.6,224.0,122.0,9.3,0,5,10,1,2026-06-20T10:47:29.042187+05:30
Vrindavan,Uttar Pradesh,27.5823,77.7027,36.1,38,0.0,985.7,8.1,33.1,210,616.5,95.7,6.6,217.0,122.0,9.3,0,5,10,1,2026-06-20T10:47:29.042196+05:30
Ayodhya,Uttar Pradesh,26.7922,82.1998,35.5,55,0.0,992.5,8.45,32.0,151,215.6,85.0,4.0,272.0,176.0,17.6,0,5,10,1,2026-06-20T10:47:29.042204+05:30
Ratlam,Madhya Pradesh,23.3315,75.0367,31.9,53,0.0,956.0,8.45,38.9,65,42.3,21.4,2.4,127.0,75.0,7.6,0,5,7,1,2026-06-20T10:47:29.042213+05:30
Sagar,Madhya Pradesh,23.8388,78.7378,33.2,45,0.0,950.5,8.75,41.0,60,58.7,25.9,1.3,158.0,101.0,4.6,0,5,7,1,2026-06-20T10:47:29.042221+05:30
Satna,Madhya Pradesh,24.6005,80.8322,36.3,37,0.0,970.2,8.85,34.9,68,51.9,20.4,1.4,149.0,106.0,3.8,0,5,10,1,2026-06-20T10:47:29.042229+05:30
Akola,Maharashtra,20.7002,77.0082,35.1,34,0.0,975.9,8.85,41.0,52,21.0,12.6,2.4,114.0,87.0,7.1,0,5,10,1,2026-06-20T10:47:29.042238+05:30
Amravati,Maharashtra,20.9374,77.7796,35.1,35,0.0,968.2,8.85,37.4,53,24.1,15.2,2.7,140.0,98.0,9.0,0,5,10,1,2026-06-20T10:47:29.042248+05:30
Latur,Maharashtra,18.4088,76.5604,33.2,40,0.0,941.2,8.85,36.4,55,20.4,14.1,2.1,143.0,103.0,6.3,0,5,7,1,2026-06-20T10:47:29.042257+05:30
Nanded,Maharashtra,19.1383,77.3091,35.6,35,0.0,969.3,8.9,36.0,62,17.2,11.9,1.6,141.0,100.0,4.1,0,5,10,1,2026-06-20T10:47:29.042265+05:30
Gulbarga,Karnataka,17.3297,76.8343,34.4,37,0.0,959.8,8.55,39.6,56,21.5,14.3,2.5,144.0,96.0,4.3,0,5,7,1,2026-06-20T10:47:29.042273+05:30
Bidar,Karnataka,17.9104,77.5199,32.8,43,0.0,936.9,8.35,37.1,69,21.9,15.7,2.9,159.0,112.0,8.2,0,5,7,1,2026-06-20T10:47:29.042282+05:30
Hospet,Karnataka,15.2689,76.3909,29.8,57,0.0,957.7,8.5,41.0,52,28.2,12.9,2.4,125.0,72.0,2.6,4,5,7,1,2026-06-20T10:47:29.042290+05:30
Tirupur,Tamil Nadu,11.1085,77.3411,30.7,56,0.0,977.2,8.4,40.7,62,32.9,17.1,3.9,165.0,97.0,4.0,0,5,7,1,2026-06-20T10:47:29.042298+05:30
Alappuzha,Kerala,9.4981,76.3388,29.8,69,0.0,1011.6,8.3,33.8,75,43.4,22.9,7.9,146.0,88.0,5.2,7,0,4,1,2026-06-20T10:47:29.042306+05:30
Munnar,Kerala,10.0889,77.0595,21.6,63,0.0,860.0,8.5,31.3,38,51.7,17.4,1.3,117.0,73.0,1.6,3,5,7,0,2026-06-20T10:47:29.042315+05:30
Silchar,Assam,24.8333,92.7789,26.3,92,0.3,1004.6,8.15,26.3,97,25.1,18.0,2.4,233.0,87.0,3.1,10,5,4,1,2026-06-20T10:47:29.042324+05:30
Dibrugarh,Assam,27.4728,94.912,28.9,82,0.2,993.2,7.5,26.3,70,51.5,31.4,1.9,262.0,126.0,4.1,10,5,7,1,2026-06-20T10:47:29.042332+05:30
