city,state,latitude,longitude,temp,humidity,rain,pressure,uv_index,wind_gusts,aqi,pm10,pm2_5,mosquito_risk,arthritis_risk,migraine_risk,frizz_risk,updated_at
Delhi,Delhi,28.6139,77.209,28.1,46,0.0,987.4,6.45,27.7,216,151.3,41.2,4,5,7,0,2026-03-25T11:35:14.417907+05:30
Mumbai,Maharashtra,19.076,72.8777,28.1,82,0.0,1010.7,7.95,22.7,87,47.5,32.9,7,0,4,1,2026-03-25T11:35:14.417953+05:30
Bangalore,Karnataka,12.9716,77.5946,30.4,44,0.0,914.8,9.5,30.6,75,28.1,21.4,0,5,7,1,2026-03-25T11:35:14.417970+05:30
Hyderabad,Telangana,17.385,78.4867,32.9,42,0.0,956.7,9.0,22.3,89,28.3,20.5,0,5,7,1,2026-03-25T11:35:14.417980+05:30
Chennai,Tamil Nadu,13.0827,80.2707,32.9,49,0.0,1010.2,9.2,32.0,34,22.8,15.1,0,0,4,1,2026-03-25T11:35:14.417989+05:30
Kolkata,West Bengal,22.5726,88.3639,31.6,62,0.0,1009.2,8.4,25.6,82,43.0,32.8,3,0,4,1,2026-03-25T11:35:14.417998+05:30
Pune,Maharashtra,18.5204,73.8567,33.8,25,0.0,951.5,8.5,29.2,92,28.0,19.8,0,5,7,0,2026-03-25T11:35:14.418011+05:30
Ahmedabad,Gujarat,23.0225,72.5714,33.4,45,0.0,1005.3,7.75,22.3,66,23.9,13.8,0,5,4,1,2026-03-25T11:35:14.418018+05:30
Jaipur,Rajasthan,26.9124,75.7873,29.1,35,0.0,964.5,7.35,23.4,124,307.3,47.6,4,5,7,0,2026-03-25T11:35:14.418027+05:30
Lucknow,Uttar Pradesh,26.8467,80.9462,30.4,34,0.0,997.4,7.15,36.7,117,100.8,25.6,0,5,7,0,2026-03-25T11:35:14.418035+05:30
Kanpur,Uttar Pradesh,26.4499,80.3319,29.2,47,0.0,996.1,7.15,28.8,154,297.1,46.9,4,5,7,1,2026-03-25T11:35:14.418042+05:30
Chandigarh,Chandigarh,30.7333,76.7794,27.3,50,0.0,972.6,6.55,33.5,72,30.9,21.7,4,5,7,0,2026-03-25T11:35:14.418050+05:30
Srinagar,Jammu and Kashmir,34.0837,74.7973,16.4,47,0.0,844.7,7.3,13.0,82,25.6,13.8,0,5,7,0,2026-03-25T11:35:14.418057+05:30
Jammu,Jammu and Kashmir,32.7266,74.857,26.5,49,0.0,976.3,7.15,18.7,86,31.5,21.7,4,5,7,0,2026-03-25T11:35:14.418064+05:30
Amritsar,Punjab,31.634,74.8723,27.5,53,0.0,984.6,6.95,20.2,125,40.6,32.1,4,5,7,1,2026-03-25T11:35:14.418070+05:30
Ludhiana,Punjab,30.901,75.8573,27.6,50,0.0,982.6,6.75,24.5,126,42.8,33.4,4,5,7,1,2026-03-25T11:35:14.418077+05:30
Jalandhar,Punjab,31.326,75.5762,26.9,57,0.0,983.8,6.9,23.0,126,43.3,32.7,4,5,7,1,2026-03-25T11:35:14.418087+05:30
Dehradun,Uttarakhand,30.6284,78.0322,18.3,57,0.0,832.5,7.0,23.0,55,15.7,8.5,0,5,7,0,2026-03-25T11:35:14.418093+05:30
Shimla,Himachal Pradesh,31.1048,77.1734,17.2,52,0.0,787.5,7.05,44.6,59,20.1,11.9,0,5,7,0,2026-03-25T11:35:14.418100+05:30
Manali,Himachal Pradesh,32.2396,77.1887,21.0,19,0.0,821.6,9.05,30.6,91,16.8,7.7,0,5,7,1,2026-03-25T11:35:14.418107+05:30
Gurgaon,Haryana,28.4595,77.0266,28.0,51,0.0,985.9,6.3,24.1,728,560.7,77.1,4,5,7,1,2026-03-25T11:35:14.418114+05:30
Noida,Uttar Pradesh,28.5355,77.391,28.4,46,0.0,988.9,6.45,27.4,728,560.7,77.1,4,5,7,0,2026-03-25T11:35:14.418121+05:30
Ghaziabad,Uttar Pradesh,28.6692,77.4538,27.7,52,0.0,986.9,6.5,28.8,152,105.9,37.0,4,5,7,1,2026-03-25T11:35:14.418128+05:30
Faridabad,Haryana,28.4089,77.3178,28.2,50,0.0,988.3,6.35,25.6,728,560.7,77.1,4,5,7,1,2026-03-25T11:35:14.418134+05:30
Meerut,Uttar Pradesh,28.9845,77.7064,27.6,53,0.0,985.4,6.5,33.8,152,105.9,37.0,4,5,7,1,2026-03-25T11:35:14.418141+05:30
Agra,Uttar Pradesh,27.1767,78.0081,31.3,33,0.0,992.3,6.95,28.4,453,243.1,52.4,0,5,7,0,2026-03-25T11:35:14.418147+05:30
Varanasi,Uttar Pradesh,25.3176,82.9739,32.0,34,0.0,1001.5,7.8,29.9,107,130.9,32.2,0,5,4,0,2026-03-25T11:35:14.418156+05:30
Prayagraj,Uttar Pradesh,25.4358,81.8463,31.1,39,0.0,1000.2,7.65,21.6,100,191.4,41.1,0,5,4,0,2026-03-25T11:35:14.418163+05:30
Gorakhpur,Uttar Pradesh,26.7606,83.3732,30.7,41,0.0,1000.4,7.5,29.2,94,142.5,34.7,0,5,4,0,2026-03-25T11:35:14.418169+05:30
Bareilly,Uttar Pradesh,28.367,79.4304,27.4,55,0.0,990.6,6.85,30.2,101,37.6,27.6,4,5,7,1,2026-03-25T11:35:14.418176+05:30
Aligarh,Uttar Pradesh,27.8974,78.088,28.7,47,0.0,990.0,6.7,29.2,384,336.2,64.0,4,5,7,1,2026-03-25T11:35:14.418183+05:30
Moradabad,Uttar Pradesh,28.8386,78.7733,27.3,53,0.0,987.4,6.55,31.3,103,45.6,30.4,4,5,7,1,2026-03-25T11:35:14.418191+05:30
Saharanpur,Uttar Pradesh,29.9637,77.546,26.6,53,0.0,979.5,6.3,36.0,115,36.1,28.0,4,5,7,1,2026-03-25T11:35:14.418200+05:30
Jhansi,Uttar Pradesh,25.4484,78.5685,32.1,35,0.0,982.2,7.65,30.2,85,272.9,49.6,0,5,7,0,2026-03-25T11:35:17.635676+05:30
Surat,Gujarat,21.1702,72.8311,31.5,55,0.0,1009.7,7.7,21.2,96,34.6,27.5,0,0,4,1,2026-03-25T11:35:17.635708+05:30
Vadodara,Gujarat,22.3072,73.1812,34.3,44,0.0,1007.5,7.4,16.9,80,26.7,17.4,0,5,4,1,2026-03-25T11:35:17.635718+05:30
Rajkot,Gujarat,22.3039,70.8022,29.6,56,0.0,997.7,7.7,26.3,36,25.7,10.9,4,5,7,1,2026-03-25T11:35:17.635726+05:30
Thane,Maharashtra,19.2183,72.9781,32.7,54,0.0,1010.2,7.95,35.6,87,47.5,32.9,0,0,4,1,2026-03-25T11:35:17.635732+05:30
Nagpur,Maharashtra,21.1458,79.0882,34.2,29,0.0,976.2,8.3,20.5,107,44.0,35.0,0,5,7,0,2026-03-25T11:35:17.635740+05:30
Nashik,Maharashtra,19.9975,73.7898,31.7,36,0.0,948.7,8.15,26.3,74,17.8,8.8,0,5,7,0,2026-03-25T11:35:17.635747+05:30
Aurangabad,Maharashtra,19.8762,75.3433,33.1,32,0.0,947.5,8.7,30.2,58,17.2,10.7,0,5,7,0,2026-03-25T11:35:17.635753+05:30
Solapur,Maharashtra,17.6599,75.9064,33.7,43,0.0,959.8,8.85,33.1,97,46.4,36.6,0,5,7,1,2026-03-25T11:35:17.635761+05:30
Kolhapur,Maharashtra,16.705,74.2433,32.7,38,0.0,950.7,8.95,42.1,141,52.6,38.6,0,5,7,1,2026-03-25T11:35:17.635769+05:30
Goa,Goa,15.2993,74.124,31.8,62,0.0,1000.4,8.95,29.2,101,43.8,32.8,3,5,4,1,2026-03-25T11:35:17.635776+05:30
Jodhpur,Rajasthan,26.2389,73.0243,32.7,30,0.0,986.5,7.45,27.4,57,74.7,17.8,0,5,7,0,2026-03-25T11:35:17.635782+05:30
Udaipur,Rajasthan,24.5854,73.7125,32.0,30,0.0,950.3,8.05,25.6,55,38.0,11.4,0,5,7,0,2026-03-25T11:35:17.635789+05:30
Kota,Rajasthan,25.2138,75.8648,32.8,35,0.0,982.8,7.7,33.1,75,29.9,19.0,0,5,7,0,2026-03-25T11:35:17.635795+05:30
Bikaner,Rajasthan,28.0229,73.3119,32.2,28,0.0,985.2,5.65,27.7,55,24.8,9.6,0,5,3,0,2026-03-25T11:35:17.635802+05:30
Ajmer,Rajasthan,26.4499,74.6399,29.7,39,0.0,958.6,7.6,31.0,63,65.9,19.6,4,5,7,0,2026-03-25T11:35:17.635809+05:30
Gwalior,Madhya Pradesh,26.2183,78.1828,31.6,32,0.0,987.9,7.3,28.1,160,353.9,55.6,0,5,7,0,2026-03-25T11:35:17.635815+05:30
Indore,Madhya Pradesh,22.7196,75.8577,32.0,34,0.0,951.6,8.15,24.8,64,27.5,16.0,0,5,7,0,2026-03-25T11:35:17.635822+05:30
Bhopal,Madhya Pradesh,23.2599,77.4126,33.4,27,0.0,957.1,8.05,21.6,60,27.5,13.2,0,5,7,0,2026-03-25T11:35:17.635828+05:30
Jabalpur,Madhya Pradesh,23.1815,79.9864,32.3,38,0.0,965.0,8.2,24.8,62,32.8,13.1,0,5,7,1,2026-03-25T11:35:17.635834+05:30
Ujjain,Madhya Pradesh,23.1765,75.7885,31.7,36,0.0,957.2,8.05,21.2,78,33.6,20.9,0,5,7,0,2026-03-25T11:35:17.635841+05:30
Visakhapatnam,Andhra Pradesh,17.6868,83.2185,32.6,54,0.0,1007.1,8.95,37.1,70,34.9,23.4,0,5,4,1,2026-03-25T11:35:17.635847+05:30
Vijayawada,Andhra Pradesh,16.5062,80.648,31.3,60,0.0,1006.4,9.0,24.5,58,20.4,12.9,0,5,4,1,2026-03-25T11:35:17.635854+05:30
Guntur,Andhra Pradesh,16.3067,80.4365,31.7,58,0.0,1007.4,9.0,25.9,56,17.8,11.2,0,5,4,1,2026-03-25T11:35:17.635860+05:30
Nellore,Andhra Pradesh,14.4426,79.9865,32.9,51,0.0,1008.9,9.1,29.9,35,20.0,15.5,0,0,4,1,2026-03-25T11:35:17.635866+05:30
Kurnool,Andhra Pradesh,15.8281,78.0373,34.9,37,0.0,979.8,5.8,18.4,67,23.5,17.4,0,5,3,1,2026-03-25T11:35:17.635874+05:30
Kakinada,Andhra Pradesh,16.9891,82.2475,33.3,53,0.0,1010.9,8.95,27.7,52,26.5,14.8,0,0,4,1,2026-03-25T11:35:17.635880+05:30
Tirupati,Andhra Pradesh,13.6288,79.4192,32.1,47,0.0,994.8,9.2,29.5,56,12.0,7.8,0,5,7,1,2026-03-25T11:35:17.635886+05:30
Warangal,Telangana,17.9689,79.5941,31.9,52,0.0,982.5,8.55,25.6,81,27.5,20.1,0,5,7,1,2026-03-25T11:35:17.635892+05:30
Nizamabad,Telangana,18.6725,78.0941,34.0,40,0.0,968.2,8.75,32.8,102,42.0,33.9,0,5,7,1,2026-03-25T11:35:17.635898+05:30
Mysore,Karnataka,12.2958,76.6396,32.0,40,0.0,931.1,9.45,34.9,85,22.7,19.6,0,5,7,1,2026-03-25T11:35:17.635904+05:30
Mangalore,Karnataka,12.9141,74.856,28.8,82,0.0,1009.0,9.05,26.6,107,51.1,38.5,7,0,4,1,2026-03-25T11:35:17.635911+05:30
Hubli-Dharwad,Karnataka,15.3647,75.124,30.6,52,0.0,943.6,9.1,33.1,126,45.3,34.7,0,5,7,1,2026-03-25T11:35:17.635918+05:30
Belgaum,Karnataka,15.8497,74.4977,31.5,45,0.0,928.7,9.05,25.6,116,47.1,34.2,0,5,7,1,2026-03-25T11:35:20.856817+05:30
Coimbatore,Tamil Nadu,11.0168,76.9558,31.9,50,0.0,964.5,9.4,36.4,56,14.4,11.1,0,5,7,1,2026-03-25T11:35:20.856848+05:30
Madurai,Tamil Nadu,9.9252,78.1198,32.1,50,0.0,995.8,9.35,25.9,53,10.8,7.8,0,5,7,1,2026-03-25T11:35:20.856858+05:30
Trichy,Tamil Nadu,10.7905,78.7047,31.0,58,0.0,1002.8,9.3,22.7,54,15.8,13.3,0,5,4,1,2026-03-25T11:35:20.856866+05:30
Salem,Tamil Nadu,11.6643,78.146,32.5,49,0.0,980.0,9.35,31.0,77,26.4,23.5,0,5,7,1,2026-03-25T11:35:20.856873+05:30
Tirunelveli,Tamil Nadu,8.7139,77.7567,34.0,45,0.0,1005.5,9.3,37.4,39,7.7,5.5,0,5,4,1,2026-03-25T11:35:20.856880+05:30
Vellore,Tamil Nadu,12.9165,79.1325,32.0,47,0.0,987.6,9.3,32.0,62,13.3,10.0,0,5,7,1,2026-03-25T11:35:20.856888+05:30
Erode,Tamil Nadu,11.341,77.7172,32.3,53,0.0,991.7,9.3,24.8,52,12.5,10.3,0,5,7,1,2026-03-25T11:35:20.856895+05:30
Kochi,Kerala,9.9312,76.2673,28.3,82,0.0,1010.5,9.15,32.4,81,29.0,22.3,7,0,4,1,2026-03-25T11:35:20.856902+05:30
Thiruvananthapuram,Kerala,8.5241,76.9366,28.7,78,0.0,1009.6,9.2,30.2,64,22.7,17.9,7,0,4,1,2026-03-25T11:35:20.856908+05:30
Kozhikode,Kerala,11.2588,75.7804,30.3,73,0.0,1009.8,9.1,29.5,91,48.8,36.1,3,0,4,1,2026-03-25T11:35:20.856914+05:30
Thrissur,Kerala,10.5276,76.2144,33.7,53,0.0,1008.8,9.15,37.1,81,22.1,17.6,0,0,4,1,2026-03-25T11:35:20.856922+05:30
Kannur,Kerala,11.8745,75.3704,31.8,62,0.0,1009.3,9.1,28.8,104,52.4,39.6,3,0,4,1,2026-03-25T11:35:20.856929+05:30
Patna,Bihar,25.5941,85.1376,31.3,36,0.0,1003.9,7.4,32.4,106,85.4,34.9,0,5,4,0,2026-03-25T11:35:20.856936+05:30
Gaya,Bihar,24.7914,85.0002,30.6,46,0.0,997.8,8.05,23.0,116,87.3,26.4,0,5,7,1,2026-03-25T11:35:20.856942+05:30
Muzaffarpur,Bihar,26.1209,85.3647,31.0,38,0.0,1003.6,7.75,26.6,112,72.4,39.2,0,5,4,0,2026-03-25T11:35:20.856948+05:30
Bhagalpur,Bihar,25.2425,87.0117,30.6,54,0.0,1004.6,8.0,28.1,152,63.8,36.2,0,5,4,1,2026-03-25T11:35:20.856954+05:30
Ranchi,Jharkhand,23.3441,85.3096,29.7,35,0.0,941.5,8.4,31.0,98,42.6,19.4,4,5,7,0,2026-03-25T11:35:20.856960+05:30
Jamshedpur,Jharkhand,22.8046,86.2029,32.6,44,0.0,994.1,8.55,16.6,142,69.4,41.2,0,5,7,1,2026-03-25T11:35:20.856966+05:30
Dhanbad,Jharkhand,23.7957,86.4304,33.3,29,0.0,983.3,8.45,31.3,155,54.4,25.6,0,5,7,0,2026-03-25T11:35:20.856973+05:30
Bokaro,Jharkhand,23.6693,86.1511,32.3,34,0.0,987.3,8.45,28.1,151,58.1,28.1,0,5,7,0,2026-03-25T11:35:20.856980+05:30
Bhubaneswar,Odisha,20.2961,85.8245,31.1,64,0.0,1006.1,8.75,28.4,68,41.0,30.6,3,5,4,1,2026-03-25T11:35:20.856986+05:30
Cuttack,Odisha,20.4625,85.8828,33.0,56,0.0,1007.7,8.7,27.4,68,41.0,30.6,0,5,4,1,2026-03-25T11:35:20.856992+05:30
Rourkela,Odisha,22.2604,84.8536,33.1,46,0.0,988.5,8.45,20.9,138,67.8,44.5,0,5,7,1,2026-03-25T11:35:20.856998+05:30
Raipur,Chhattisgarh,21.2514,81.6296,32.5,48,0.0,977.9,7.9,29.2,151,59.6,51.7,0,5,7,1,2026-03-25T11:35:20.857004+05:30
Bhilai,Chhattisgarh,21.1938,81.3509,31.9,52,0.0,978.3,8.1,25.9,124,55.8,48.0,0,5,7,1,2026-03-25T11:35:20.857010+05:30
Guwahati,Assam,26.1158,91.7086,26.1,70,0.0,1005.4,7.85,28.1,125,59.6,41.9,7,5,4,1,2026-03-25T11:35:20.857016+05:30
Agartala,Tripura,23.8315,91.2868,29.7,68,0.0,1010.0,8.2,27.4,157,56.7,41.6,7,0,4,1,2026-03-25T11:35:20.857022+05:30
Shillong,Meghalaya,25.5788,91.8933,18.7,47,0.0,859.2,8.25,67.0,113,47.5,32.2,0,5,7,0,2026-03-25T11:35:20.857028+05:30
Imphal,Manipur,24.817,93.9368,20.0,72,0.0,926.6,8.45,72.4,117,51.8,35.0,3,5,7,0,2026-03-25T11:35:20.857034+05:30
Aizawl,Mizoram,23.7271,92.7176,25.2,45,0.0,897.3,7.7,43.9,116,60.1,33.6,4,5,7,0,2026-03-25T11:35:20.857041+05:30
Kohima,Nagaland,25.6701,94.1077,18.2,62,0.0,857.8,7.7,76.7,93,49.9,32.5,3,5,7,0,2026-03-25T11:35:20.857047+05:30
Gangtok,Sikkim,27.3314,88.6138,17.4,67,0.0,839.2,8.05,18.0,86,34.8,24.9,3,5,7,0,2026-03-25T11:35:20.857053+05:30
Siliguri,West Bengal,26.7271,88.3953,21.7,79,0.0,997.3,7.85,25.6,155,69.4,48.8,3,5,7,1,2026-03-25T11:35:24.072268+05:30
Durgapur,West Bengal,23.5204,87.3119,33.6,41,0.0,998.0,8.4,27.0,154,58.1,29.9,0,5,7,1,2026-03-25T11:35:24.072300+05:30
Asansol,West Bengal,23.6739,86.9524,33.9,35,0.0,996.5,8.4,26.6,142,53.3,24.5,0,5,7,1,2026-03-25T11:35:24.072310+05:30
Pondicherry,Puducherry,11.9139,79.8145,32.0,56,0.0,1011.2,9.15,29.5,33,17.1,10.3,0,0,4,1,2026-03-25T11:35:24.072318+05:30
Port Blair,Andaman and Nicobar Islands,11.6234,92.7265,28.5,75,0.0,1008.8,9.1,24.5,71,21.8,17.0,7,0,4,1,2026-03-25T11:35:24.072325+05:30
Haridwar,Uttarakhand,29.9457,78.1642,27.1,55,0.0,977.8,6.45,26.6,89,27.1,21.3,4,5,7,1,2026-03-25T11:35:24.072333+05:30
Rishikesh,Uttarakhand,30.0869,78.2676,26.4,57,0.0,970.2,6.5,25.2,79,25.1,17.4,4,5,7,1,2026-03-25T11:35:24.072340+05:30
Nainital,Uttarakhand,29.3919,79.4542,19.4,68,0.0,808.6,7.35,27.7,78,24.4,18.2,3,5,7,0,2026-03-25T11:35:24.072347+05:30
Mussoorie,Uttarakhand,30.4599,78.0664,18.6,65,0.0,805.3,6.85,26.6,76,21.0,14.7,3,5,7,0,2026-03-25T11:35:24.072355+05:30
Dharamshala,Himachal Pradesh,32.219,76.3234,20.3,65,0.0,871.5,7.1,19.4,81,18.0,7.2,3,5,7,0,2026-03-25T11:35:24.072362+05:30
Dalhousie,Himachal Pradesh,32.5387,75.971,19.0,43,0.0,806.2,7.35,19.4,72,23.3,15.5,0,5,7,0,2026-03-25T11:35:24.072370+05:30
Patiala,Punjab,30.3398,76.3869,27.9,52,0.0,982.1,6.4,28.4,146,91.0,28.7,4,5,7,1,2026-03-25T11:35:24.072377+05:30
Bhatinda,Punjab,30.211,74.9455,29.1,44,0.0,987.7,6.2,23.8,138,34.5,23.7,4,5,7,0,2026-03-25T11:35:24.072384+05:30
Rohtak,Haryana,28.8955,76.6066,28.2,50,0.0,986.2,6.5,21.2,392,208.2,42.8,4,5,7,1,2026-03-25T11:35:24.072391+05:30
Panipat,Haryana,29.3909,76.9635,28.2,50,0.0,984.5,6.05,28.8,649,329.7,55.8,4,5,7,1,2026-03-25T11:35:24.072397+05:30
Mathura,Uttar Pradesh,27.4924,77.6737,29.7,41,0.0,991.5,6.85,21.2,522,295.2,57.2,4,5,7,0,2026-03-25T11:35:24.072404+05:30
Vrindavan,Uttar Pradesh,27.5823,77.7027,29.4,44,0.0,991.9,6.8,24.5,522,295.2,57.2,4,5,7,0,2026-03-25T11:35:24.072428+05:30
Ayodhya,Uttar Pradesh,26.7922,82.1998,31.5,33,0.0,998.8,7.3,35.6,102,182.1,37.3,0,5,7,0,2026-03-25T11:35:24.072435+05:30
Ratlam,Madhya Pradesh,23.3315,75.0367,32.5,33,0.0,957.9,8.05,25.6,73,30.5,16.5,0,5,7,0,2026-03-25T11:35:24.072442+05:30
Sagar,Madhya Pradesh,23.8388,78.7378,32.4,31,0.0,954.0,8.05,22.0,59,38.3,11.7,0,5,7,0,2026-03-25T11:35:24.072449+05:30
Satna,Madhya Pradesh,24.6005,80.8322,32.0,31,0.0,975.4,7.8,27.7,76,134.6,25.8,0,5,7,0,2026-03-25T11:35:24.072456+05:30
Akola,Maharashtra,20.7002,77.0082,34.2,33,0.0,978.3,8.45,23.8,55,16.7,13.0,0,5,7,0,2026-03-25T11:35:24.072464+05:30
Amravati,Maharashtra,20.9374,77.7796,34.7,29,0.0,970.4,8.45,20.2,61,16.2,12.1,0,5,7,0,2026-03-25T11:35:24.072472+05:30
Latur,Maharashtra,18.4088,76.5604,32.8,41,0.0,943.1,8.75,15.5,107,42.1,31.7,0,5,7,1,2026-03-25T11:35:24.072479+05:30
Nanded,Maharashtra,19.1383,77.3091,35.5,33,0.0,971.7,8.65,20.5,97,46.8,37.6,0,5,10,1,2026-03-25T11:35:24.072485+05:30
Gulbarga,Karnataka,17.3297,76.8343,34.1,39,0.0,961.7,8.85,49.0,103,41.2,32.0,0,5,7,1,2026-03-25T11:35:24.072492+05:30
Bidar,Karnataka,17.9104,77.5199,32.2,42,0.0,939.1,8.85,24.8,97,39.0,30.4,0,5,7,1,2026-03-25T11:35:24.072498+05:30
Hospet,Karnataka,15.2689,76.3909,31.6,48,0.0,958.7,9.1,21.2,116,36.2,29.1,0,5,7,1,2026-03-25T11:35:24.072505+05:30
Tirupur,Tamil Nadu,11.1085,77.3411,32.6,49,0.0,978.0,9.4,29.2,56,13.0,10.9,0,5,7,1,2026-03-25T11:35:24.072511+05:30
Alappuzha,Kerala,9.4981,76.3388,28.5,80,0.0,1010.6,9.15,28.1,80,30.5,24.1,7,0,4,1,2026-03-25T11:35:24.072518+05:30
Munnar,Kerala,10.0889,77.0595,30.0,40,0.0,861.1,9.65,31.0,56,10.4,7.7,4,5,7,0,2026-03-25T11:35:24.072525+05:30
Silchar,Assam,24.8333,92.7789,25.3,73,0.0,1009.9,8.15,36.0,159,85.2,58.0,7,0,4,1,2026-03-25T11:35:24.072532+05:30
Dibrugarh,Assam,27.4728,94.912,19.5,88,0.0,1000.8,6.95,27.7,77,24.3,19.6,3,10,4,1,2026-03-25T11:35:24.072539+05:30
