city,state,latitude,longitude,temp,humidity,rain,pressure,uv_index,wind_gusts,aqi,pm10,pm2_5,mosquito_risk,arthritis_risk,migraine_risk,frizz_risk,updated_at
Delhi,Delhi,28.6139,77.209,32.7,27,0.0,983.1,7.2,34.9,282,370.7,47.7,0,5,7,0,2026-04-12T14:23:55.211351+05:30
Mumbai,Maharashtra,19.076,72.8777,29.3,78,0.0,1005.9,8.0,22.7,121,61.5,43.0,7,5,4,1,2026-04-12T14:23:55.211397+05:30
Bangalore,Karnataka,12.9716,77.5946,34.6,31,0.0,911.3,9.7,31.7,88,37.3,27.6,0,5,7,0,2026-04-12T14:23:55.211411+05:30
Hyderabad,Telangana,17.385,78.4867,39.8,20,0.0,951.5,9.25,28.1,93,34.1,23.4,0,5,10,0,2026-04-12T14:23:55.211422+05:30
Chennai,Tamil Nadu,13.0827,80.2707,34.9,49,0.0,1006.2,9.4,34.9,52,21.2,11.9,0,5,4,1,2026-04-12T14:23:55.211429+05:30
Kolkata,West Bengal,22.5726,88.3639,35.3,35,0.0,1003.4,8.8,23.0,135,143.4,41.8,0,5,7,1,2026-04-12T14:23:55.211437+05:30
Pune,Maharashtra,18.5204,73.8567,40.7,18,0.0,946.6,8.55,41.8,110,31.9,20.4,0,5,10,0,2026-04-12T14:23:55.211448+05:30
Ahmedabad,Gujarat,23.0225,72.5714,41.2,15,0.0,999.9,8.1,21.2,104,73.8,18.7,0,5,10,0,2026-04-12T14:23:55.211454+05:30
Jaipur,Rajasthan,26.9124,75.7873,35.0,13,0.0,960.6,7.85,29.5,166,204.0,31.4,0,5,7,0,2026-04-12T14:23:55.211460+05:30
Lucknow,Uttar Pradesh,26.8467,80.9462,35.8,22,0.0,991.5,7.7,31.7,163,158.3,33.3,0,5,10,0,2026-04-12T14:23:55.211466+05:30
Kanpur,Uttar Pradesh,26.4499,80.3319,34.4,29,0.0,990.4,7.75,25.2,443,321.3,48.8,0,5,7,0,2026-04-12T14:23:55.211472+05:30
Chandigarh,Chandigarh,30.7333,76.7794,30.3,33,0.0,969.2,7.1,31.7,74,50.5,18.8,0,5,7,0,2026-04-12T14:23:55.211479+05:30
Srinagar,Jammu and Kashmir,34.0837,74.7973,18.3,40,0.0,842.4,8.05,14.0,77,19.6,8.4,0,5,7,0,2026-04-12T14:23:55.211485+05:30
Jammu,Jammu and Kashmir,32.7266,74.857,30.3,34,0.0,973.5,7.8,26.3,71,44.2,12.4,0,5,7,0,2026-04-12T14:23:55.211491+05:30
Amritsar,Punjab,31.634,74.8723,29.8,35,0.0,982.1,7.75,25.2,82,47.6,15.7,4,5,7,0,2026-04-12T14:23:55.211498+05:30
Ludhiana,Punjab,30.901,75.8573,30.8,32,0.0,979.5,7.4,30.2,78,64.5,18.2,0,5,7,0,2026-04-12T14:23:55.211503+05:30
Jalandhar,Punjab,31.326,75.5762,30.2,35,0.0,980.9,7.55,27.0,79,72.9,19.2,0,5,7,0,2026-04-12T14:23:55.211510+05:30
Dehradun,Uttarakhand,30.6284,78.0322,20.3,46,0.0,830.6,7.45,36.0,78,38.4,10.7,0,5,7,0,2026-04-12T14:23:55.211516+05:30
Shimla,Himachal Pradesh,31.1048,77.1734,18.0,52,0.0,785.6,7.65,43.2,79,41.7,13.4,0,5,7,0,2026-04-12T14:23:55.211522+05:30
Manali,Himachal Pradesh,32.2396,77.1887,19.8,37,0.0,819.9,9.85,25.6,134,14.2,6.0,0,5,7,0,2026-04-12T14:23:55.211528+05:30
Gurgaon,Haryana,28.4595,77.0266,32.9,26,0.0,981.7,7.3,33.5,792,1523.6,143.0,0,5,7,0,2026-04-12T14:23:55.211535+05:30
Noida,Uttar Pradesh,28.5355,77.391,33.0,27,0.0,984.5,7.25,34.2,792,1523.6,143.0,0,5,7,0,2026-04-12T14:23:55.211541+05:30
Ghaziabad,Uttar Pradesh,28.6692,77.4538,32.5,29,0.0,982.6,7.2,33.1,178,248.7,39.3,0,5,7,0,2026-04-12T14:23:55.211546+05:30
Faridabad,Haryana,28.4089,77.3178,33.0,26,0.0,984.0,7.3,33.5,792,1523.6,143.0,0,5,7,0,2026-04-12T14:23:55.211552+05:30
Meerut,Uttar Pradesh,28.9845,77.7064,32.2,29,0.0,981.3,7.1,33.8,178,248.7,39.3,0,5,7,0,2026-04-12T14:23:55.211558+05:30
Agra,Uttar Pradesh,27.1767,78.0081,35.1,22,0.0,987.5,7.6,33.5,420,691.0,79.2,0,5,10,0,2026-04-12T14:23:55.211563+05:30
Varanasi,Uttar Pradesh,25.3176,82.9739,38.0,19,0.0,994.9,8.3,28.8,136,190.5,37.7,0,5,10,0,2026-04-12T14:23:55.211571+05:30
Prayagraj,Uttar Pradesh,25.4358,81.8463,38.2,20,0.0,993.3,8.2,26.3,159,213.3,42.3,0,5,10,0,2026-04-12T14:23:55.211577+05:30
Gorakhpur,Uttar Pradesh,26.7606,83.3732,37.4,17,0.0,994.1,8.15,38.9,97,70.8,21.5,0,5,10,0,2026-04-12T14:23:55.211582+05:30
Bareilly,Uttar Pradesh,28.367,79.4304,33.6,27,0.0,985.8,7.45,35.6,84,73.3,20.9,0,5,7,0,2026-04-12T14:23:55.211587+05:30
Aligarh,Uttar Pradesh,27.8974,78.088,34.4,22,0.0,985.2,7.4,34.6,440,968.6,101.5,0,5,7,0,2026-04-12T14:23:55.211593+05:30
Moradabad,Uttar Pradesh,28.8386,78.7733,32.5,29,0.0,983.0,7.25,36.0,97,74.0,20.4,0,5,7,0,2026-04-12T14:23:55.211600+05:30
Saharanpur,Uttar Pradesh,29.9637,77.546,31.1,31,0.0,975.6,6.9,34.2,100,76.6,21.0,0,5,7,0,2026-04-12T14:23:55.211605+05:30
Jhansi,Uttar Pradesh,25.4484,78.5685,37.3,21,0.0,976.9,8.15,36.0,57,113.2,24.8,0,5,10,0,2026-04-12T14:23:58.525179+05:30
Surat,Gujarat,21.1702,72.8311,36.9,41,0.0,1004.7,7.8,27.0,147,82.0,45.4,0,5,7,1,2026-04-12T14:23:58.525208+05:30
Vadodara,Gujarat,22.3072,73.1812,40.4,20,0.0,1002.1,8.05,19.8,118,72.9,25.5,0,5,7,0,2026-04-12T14:23:58.525218+05:30
Rajkot,Gujarat,22.3039,70.8022,39.0,23,0.0,992.8,7.8,25.6,74,70.3,21.2,0,5,10,0,2026-04-12T14:23:58.525226+05:30
Thane,Maharashtra,19.2183,72.9781,34.4,49,0.0,1005.7,8.0,36.4,121,61.5,43.0,0,5,4,1,2026-04-12T14:23:58.525234+05:30
Nagpur,Maharashtra,21.1458,79.0882,37.2,25,0.0,971.7,8.8,16.6,97,24.9,17.6,0,5,10,0,2026-04-12T14:23:58.525242+05:30
Nashik,Maharashtra,19.9975,73.7898,37.7,18,0.0,944.6,8.25,28.1,123,42.0,23.9,0,5,10,0,2026-04-12T14:23:58.525250+05:30
Aurangabad,Maharashtra,19.8762,75.3433,39.5,16,0.0,942.9,8.95,28.4,130,34.1,20.7,0,5,10,0,2026-04-12T14:23:58.525257+05:30
Solapur,Maharashtra,17.6599,75.9064,40.9,18,0.0,954.9,9.05,27.0,87,41.8,29.7,0,5,10,0,2026-04-12T14:23:58.525265+05:30
Kolhapur,Maharashtra,16.705,74.2433,38.7,20,0.0,946.1,9.05,45.7,96,40.2,31.0,0,5,10,0,2026-04-12T14:23:58.525271+05:30
Goa,Goa,15.2993,74.124,32.3,62,0.0,995.7,9.05,31.0,104,43.1,28.1,3,5,7,1,2026-04-12T14:23:58.525279+05:30
Jodhpur,Rajasthan,26.2389,73.0243,35.7,17,0.0,983.9,8.1,16.2,97,82.2,18.7,0,5,10,0,2026-04-12T14:23:58.525285+05:30
Udaipur,Rajasthan,24.5854,73.7125,35.8,19,0.0,947.1,8.7,26.3,49,41.2,9.0,0,5,10,0,2026-04-12T14:23:58.525293+05:30
Kota,Rajasthan,25.2138,75.8648,35.7,26,0.0,978.8,8.15,22.7,63,149.0,30.4,0,5,10,0,2026-04-12T14:23:58.525299+05:30
Bikaner,Rajasthan,28.0229,73.3119,35.7,15,0.0,983.0,7.95,21.6,72,67.1,18.2,0,5,10,0,2026-04-12T14:23:58.525306+05:30
Ajmer,Rajasthan,26.4499,74.6399,34.6,14,0.0,955.7,8.05,26.3,75,118.3,24.4,0,5,7,0,2026-04-12T14:23:58.525313+05:30
Gwalior,Madhya Pradesh,26.2183,78.1828,34.7,30,0.0,983.1,7.85,31.7,107,223.5,38.8,0,5,7,0,2026-04-12T14:23:58.525320+05:30
Indore,Madhya Pradesh,22.7196,75.8577,36.4,19,0.0,947.8,8.55,27.7,81,23.8,11.7,0,5,10,0,2026-04-12T14:23:58.525326+05:30
Bhopal,Madhya Pradesh,23.2599,77.4126,38.8,16,0.0,952.8,8.5,32.4,74,19.0,11.0,0,5,10,0,2026-04-12T14:23:58.525333+05:30
Jabalpur,Madhya Pradesh,23.1815,79.9864,38.1,16,0.0,959.9,8.65,34.2,82,20.6,9.9,0,5,10,0,2026-04-12T14:23:58.525340+05:30
Ujjain,Madhya Pradesh,23.1765,75.7885,36.7,22,0.0,953.5,8.45,26.3,71,34.6,14.8,0,5,10,0,2026-04-12T14:23:58.525347+05:30
Visakhapatnam,Andhra Pradesh,17.6868,83.2185,33.6,60,0.0,1002.2,9.2,38.9,83,35.9,25.3,0,5,4,1,2026-04-12T14:23:58.525353+05:30
Vijayawada,Andhra Pradesh,16.5062,80.648,38.0,43,0.0,1000.1,9.25,36.0,65,30.3,20.6,0,5,7,1,2026-04-12T14:23:58.525360+05:30
Guntur,Andhra Pradesh,16.3067,80.4365,37.8,40,0.0,1001.7,9.25,36.0,63,30.2,20.8,0,5,7,1,2026-04-12T14:23:58.525367+05:30
Nellore,Andhra Pradesh,14.4426,79.9865,38.6,36,0.0,1003.7,9.35,34.9,57,33.9,23.9,0,5,7,1,2026-04-12T14:23:58.525374+05:30
Kurnool,Andhra Pradesh,15.8281,78.0373,40.8,24,0.0,974.4,9.25,30.6,76,37.0,24.6,0,5,10,1,2026-04-12T14:23:58.525382+05:30
Kakinada,Andhra Pradesh,16.9891,82.2475,37.1,45,0.0,1005.3,9.2,36.7,58,24.2,13.1,0,5,7,1,2026-04-12T14:23:58.525389+05:30
Tirupati,Andhra Pradesh,13.6288,79.4192,37.4,31,0.0,989.9,9.45,34.9,69,37.3,26.5,0,5,10,1,2026-04-12T14:23:58.525396+05:30
Warangal,Telangana,17.9689,79.5941,39.4,30,0.0,976.6,9.1,29.5,99,28.1,19.8,0,5,10,1,2026-04-12T14:23:58.525402+05:30
Nizamabad,Telangana,18.6725,78.0941,39.7,23,0.0,962.9,9.05,25.6,137,41.7,28.8,0,5,10,0,2026-04-12T14:23:58.525409+05:30
Mysore,Karnataka,12.2958,76.6396,35.4,32,0.0,927.5,9.55,37.4,103,36.1,25.8,0,5,10,1,2026-04-12T14:23:58.525416+05:30
Mangalore,Karnataka,12.9141,74.856,29.5,78,0.0,1004.6,9.2,22.3,95,66.8,33.4,7,5,4,1,2026-04-12T14:23:58.525422+05:30
Hubli-Dharwad,Karnataka,15.3647,75.124,37.4,27,0.0,939.1,9.25,37.4,92,42.8,31.0,0,5,10,0,2026-04-12T14:23:58.525430+05:30
Belgaum,Karnataka,15.8497,74.4977,36.8,27,0.0,924.7,9.3,46.1,94,39.3,28.5,0,5,10,0,2026-04-12T14:24:01.844333+05:30
Coimbatore,Tamil Nadu,11.0168,76.9558,36.6,31,0.0,960.2,9.5,38.9,99,34.5,25.3,0,5,10,1,2026-04-12T14:24:01.844362+05:30
Madurai,Tamil Nadu,9.9252,78.1198,37.3,37,0.0,991.1,9.4,32.0,92,28.1,19.5,0,5,10,1,2026-04-12T14:24:01.844371+05:30
Trichy,Tamil Nadu,10.7905,78.7047,37.1,39,0.0,997.8,9.4,26.3,74,21.5,14.0,0,5,10,1,2026-04-12T14:24:01.844379+05:30
Salem,Tamil Nadu,11.6643,78.146,37.2,36,0.0,975.5,9.45,25.9,83,33.8,22.4,0,5,10,1,2026-04-12T14:24:01.844388+05:30
Tirunelveli,Tamil Nadu,8.7139,77.7567,38.2,34,0.0,1000.8,9.35,40.7,89,28.5,21.5,0,5,7,1,2026-04-12T14:24:01.844395+05:30
Vellore,Tamil Nadu,12.9165,79.1325,37.2,31,0.0,983.1,9.5,32.8,86,39.6,29.5,0,5,10,1,2026-04-12T14:24:01.844402+05:30
Erode,Tamil Nadu,11.341,77.7172,38.5,32,0.0,986.9,9.45,29.2,74,30.0,19.6,0,5,10,1,2026-04-12T14:24:01.844409+05:30
Kochi,Kerala,9.9312,76.2673,29.6,80,0.0,1006.4,8.7,30.6,96,48.4,29.9,7,5,4,1,2026-04-12T14:24:01.844417+05:30
Thiruvananthapuram,Kerala,8.5241,76.9366,29.7,79,0.0,1005.8,9.2,21.6,78,56.7,29.1,7,5,4,1,2026-04-12T14:24:01.844424+05:30
Kozhikode,Kerala,11.2588,75.7804,31.2,74,0.0,1005.8,9.1,31.7,83,69.8,34.6,3,5,4,1,2026-04-12T14:24:01.844432+05:30
Thrissur,Kerala,10.5276,76.2144,33.5,62,0.0,1004.7,8.15,34.9,89,46.2,27.1,3,5,4,1,2026-04-12T14:24:01.844439+05:30
Kannur,Kerala,11.8745,75.3704,31.7,69,0.0,1005.1,9.2,33.5,104,73.6,35.5,3,5,4,1,2026-04-12T14:24:01.844447+05:30
Patna,Bihar,25.5941,85.1376,36.8,20,0.0,997.2,8.45,40.3,116,82.0,23.9,0,5,10,0,2026-04-12T14:24:01.844454+05:30
Gaya,Bihar,24.7914,85.0002,37.0,22,0.0,991.2,8.55,32.8,99,119.0,27.6,0,5,10,0,2026-04-12T14:24:01.844461+05:30
Muzaffarpur,Bihar,26.1209,85.3647,36.4,24,0.0,997.0,8.45,40.3,152,87.1,28.1,0,5,10,0,2026-04-12T14:24:01.844467+05:30
Bhagalpur,Bihar,25.2425,87.0117,34.4,31,0.0,998.2,8.5,32.0,151,105.2,33.8,0,5,7,0,2026-04-12T14:24:01.844474+05:30
Ranchi,Jharkhand,23.3441,85.3096,34.3,18,0.0,937.0,9.1,37.1,109,61.0,14.2,0,5,7,0,2026-04-12T14:24:01.844481+05:30
Jamshedpur,Jharkhand,22.8046,86.2029,36.3,27,0.0,988.7,8.9,19.4,114,106.4,25.0,0,5,10,0,2026-04-12T14:24:01.844488+05:30
Dhanbad,Jharkhand,23.7957,86.4304,37.8,16,0.0,977.2,8.85,37.8,137,102.7,25.6,0,5,10,0,2026-04-12T14:24:01.844495+05:30
Bokaro,Jharkhand,23.6693,86.1511,37.2,17,0.0,981.2,8.85,34.9,126,96.9,24.0,0,5,10,0,2026-04-12T14:24:01.844503+05:30
Bhubaneswar,Odisha,20.2961,85.8245,35.5,49,0.0,1000.9,9.05,33.1,109,77.5,34.0,0,5,7,1,2026-04-12T14:24:01.844510+05:30
Cuttack,Odisha,20.4625,85.8828,37.9,32,0.0,1002.2,9.1,34.9,109,77.5,34.0,0,5,7,1,2026-04-12T14:24:01.844517+05:30
Rourkela,Odisha,22.2604,84.8536,38.2,18,0.0,983.1,8.85,22.0,133,61.7,19.4,0,5,10,0,2026-04-12T14:24:01.844524+05:30
Raipur,Chhattisgarh,21.2514,81.6296,39.8,15,0.0,972.9,8.9,20.9,116,23.1,14.5,0,5,10,0,2026-04-12T14:24:01.844531+05:30
Bhilai,Chhattisgarh,21.1938,81.3509,39.8,15,0.0,973.2,8.9,18.4,128,26.3,18.2,0,5,10,0,2026-04-12T14:24:01.844539+05:30
Guwahati,Assam,26.1158,91.7086,29.0,63,0.0,998.0,8.4,34.6,114,82.7,38.0,7,5,7,1,2026-04-12T14:24:01.844545+05:30
Agartala,Tripura,23.8315,91.2868,33.9,42,0.0,1002.6,8.6,32.8,106,73.3,47.4,0,5,4,1,2026-04-12T14:24:01.844552+05:30
Shillong,Meghalaya,25.5788,91.8933,19.5,56,0.0,854.6,7.05,67.0,131,76.1,33.5,0,5,7,0,2026-04-12T14:24:01.844559+05:30
Imphal,Manipur,24.817,93.9368,23.1,58,0.0,921.5,9.0,70.2,101,74.3,26.1,0,5,7,0,2026-04-12T14:24:01.844566+05:30
Aizawl,Mizoram,23.7271,92.7176,26.6,42,0.0,892.3,8.85,52.6,98,89.4,28.1,4,5,7,0,2026-04-12T14:24:01.844573+05:30
Kohima,Nagaland,25.6701,94.1077,18.8,67,0.0,853.4,8.9,93.6,95,68.2,27.0,3,5,7,0,2026-04-12T14:24:01.844580+05:30
Gangtok,Sikkim,27.3314,88.6138,16.3,77,0.0,835.0,8.05,13.7,133,77.8,24.8,3,5,7,0,2026-04-12T14:24:01.844587+05:30
Siliguri,West Bengal,26.7271,88.3953,25.6,51,0.0,990.9,7.3,26.6,129,109.0,35.0,4,5,7,0,2026-04-12T14:24:05.162231+05:30
Durgapur,West Bengal,23.5204,87.3119,36.3,25,0.0,992.1,8.8,23.4,151,112.7,28.3,0,5,10,0,2026-04-12T14:24:05.162260+05:30
Asansol,West Bengal,23.6739,86.9524,37.0,22,0.0,990.6,8.85,27.4,132,112.9,28.1,0,5,10,0,2026-04-12T14:24:05.162269+05:30
Pondicherry,Puducherry,11.9139,79.8145,36.2,48,0.0,1006.7,9.35,29.2,52,15.5,8.4,0,5,7,1,2026-04-12T14:24:05.162278+05:30
Port Blair,Andaman and Nicobar Islands,11.6234,92.7265,30.1,74,0.0,1005.5,9.25,14.4,49,34.0,17.2,3,5,4,1,2026-04-12T14:24:05.162285+05:30
Haridwar,Uttarakhand,29.9457,78.1642,31.5,31,0.0,973.8,7.0,34.2,76,50.3,16.1,0,5,7,0,2026-04-12T14:24:05.162293+05:30
Rishikesh,Uttarakhand,30.0869,78.2676,30.8,26,0.0,966.5,7.1,35.3,62,61.5,15.9,0,5,7,0,2026-04-12T14:24:05.162300+05:30
Nainital,Uttarakhand,29.3919,79.4542,23.8,35,0.0,807.4,7.95,52.2,77,61.0,16.5,0,5,7,0,2026-04-12T14:24:05.162307+05:30
Mussoorie,Uttarakhand,30.4599,78.0664,21.0,39,0.0,803.7,7.4,41.0,62,56.3,16.0,0,5,7,0,2026-04-12T14:24:05.162314+05:30
Dharamshala,Himachal Pradesh,32.219,76.3234,22.9,53,0.0,869.8,7.7,23.8,96,31.1,8.4,0,5,7,0,2026-04-12T14:24:05.162321+05:30
Dalhousie,Himachal Pradesh,32.5387,75.971,21.2,44,0.0,805.1,7.95,21.2,64,56.3,15.8,0,5,7,0,2026-04-12T14:24:05.162329+05:30
Patiala,Punjab,30.3398,76.3869,31.1,32,0.0,978.7,7.0,32.0,184,540.2,56.1,0,5,7,0,2026-04-12T14:24:05.162336+05:30
Bhatinda,Punjab,30.211,74.9455,32.8,24,0.0,984.6,7.75,32.4,83,46.7,13.7,0,5,7,0,2026-04-12T14:24:05.162343+05:30
Rohtak,Haryana,28.8955,76.6066,33.3,23,0.0,982.1,7.25,36.0,496,568.1,58.3,0,5,7,0,2026-04-12T14:24:05.162350+05:30
Panipat,Haryana,29.3909,76.9635,32.2,27,0.0,980.7,7.05,33.8,865,1009.6,92.7,0,5,7,0,2026-04-12T14:24:05.162357+05:30
Mathura,Uttar Pradesh,27.4924,77.6737,34.5,22,0.0,986.9,7.55,29.5,441,935.0,95.5,0,5,7,0,2026-04-12T14:24:05.162364+05:30
Vrindavan,Uttar Pradesh,27.5823,77.7027,34.1,22,0.0,987.2,7.5,33.1,441,935.0,95.5,0,5,7,0,2026-04-12T14:24:05.162371+05:30
Ayodhya,Uttar Pradesh,26.7922,82.1998,37.3,17,0.0,992.8,7.9,38.2,113,91.7,23.5,0,5,10,0,2026-04-12T14:24:05.162377+05:30
Ratlam,Madhya Pradesh,23.3315,75.0367,35.1,24,0.0,954.5,8.35,25.2,61,43.5,14.6,0,5,10,0,2026-04-12T14:24:05.162384+05:30
Sagar,Madhya Pradesh,23.8388,78.7378,38.3,16,0.0,949.3,8.5,32.8,82,16.4,8.2,0,5,10,0,2026-04-12T14:24:05.162390+05:30
Satna,Madhya Pradesh,24.6005,80.8322,39.2,15,0.0,968.8,8.5,40.0,86,27.9,10.7,0,5,10,0,2026-04-12T14:24:05.162397+05:30
Akola,Maharashtra,20.7002,77.0082,40.1,16,0.0,973.2,8.8,24.1,88,33.6,23.6,0,5,10,0,2026-04-12T14:24:05.162405+05:30
Amravati,Maharashtra,20.9374,77.7796,39.2,15,0.0,965.8,8.8,20.5,84,27.8,18.5,0,5,10,0,2026-04-12T14:24:05.162412+05:30
Latur,Maharashtra,18.4088,76.5604,37.3,22,0.0,939.1,9.05,24.5,85,36.3,22.9,0,5,10,0,2026-04-12T14:24:05.162418+05:30
Nanded,Maharashtra,19.1383,77.3091,38.7,20,0.0,967.0,8.95,14.8,99,36.8,23.3,0,5,10,0,2026-04-12T14:24:05.162423+05:30
Gulbarga,Karnataka,17.3297,76.8343,40.0,22,0.0,956.8,9.1,28.4,89,40.3,28.8,0,5,10,0,2026-04-12T14:24:05.162428+05:30
Bidar,Karnataka,17.9104,77.5199,38.2,24,0.0,934.3,9.1,26.6,89,34.8,22.1,0,5,10,0,2026-04-12T14:24:05.162433+05:30
Hospet,Karnataka,15.2689,76.3909,36.5,36,0.0,954.1,9.3,24.8,98,42.3,31.2,0,5,10,1,2026-04-12T14:24:05.162438+05:30
Tirupur,Tamil Nadu,11.1085,77.3411,37.7,32,0.0,973.3,9.5,31.0,91,32.2,22.3,0,5,10,1,2026-04-12T14:24:05.162443+05:30
Alappuzha,Kerala,9.4981,76.3388,29.6,81,0.0,1006.6,9.2,26.6,96,55.4,31.2,7,5,4,1,2026-04-12T14:24:05.162449+05:30
Munnar,Kerala,10.0889,77.0595,31.2,41,0.0,858.5,9.75,27.7,94,28.1,18.5,0,5,7,1,2026-04-12T14:24:05.162454+05:30
Silchar,Assam,24.8333,92.7789,29.4,67,0.0,1002.5,8.65,49.7,130,81.0,40.9,7,5,4,1,2026-04-12T14:24:05.162460+05:30
Dibrugarh,Assam,27.4728,94.912,23.4,79,0.0,994.5,8.2,33.5,99,63.8,38.2,3,5,7,1,2026-04-12T14:24:05.162465+05:30
