city,state,latitude,longitude,temp,humidity,rain,pressure,uv_index,wind_gusts,aqi,pm10,pm2_5,mosquito_risk,arthritis_risk,migraine_risk,frizz_risk,updated_at
Delhi,Delhi,28.6139,77.209,21.2,60,0.0,989.4,7.15,40.3,149,420.0,81.5,0,5,7,0,2026-04-10T00:42:32.237816+05:30
Mumbai,Maharashtra,19.076,72.8777,28.3,69,0.0,1011.0,7.95,27.4,89,140.2,34.8,7,0,4,1,2026-04-10T00:42:32.237863+05:30
Bangalore,Karnataka,12.9716,77.5946,25.8,64,0.0,913.4,9.65,26.3,77,35.9,31.5,7,5,7,1,2026-04-10T00:42:32.237880+05:30
Hyderabad,Telangana,17.385,78.4867,28.6,57,0.0,955.2,9.2,20.5,93,51.9,34.3,4,5,7,1,2026-04-10T00:42:32.237890+05:30
Chennai,Tamil Nadu,13.0827,80.2707,28.9,85,0.0,1008.7,9.35,37.4,63,24.4,18.7,7,0,4,1,2026-04-10T00:42:32.237899+05:30
Kolkata,West Bengal,22.5726,88.3639,22.3,94,0.0,1009.4,8.7,25.9,94,54.0,45.9,3,0,4,1,2026-04-10T00:42:32.237908+05:30
Pune,Maharashtra,18.5204,73.8567,23.5,72,0.0,950.8,8.55,33.8,93,108.0,46.7,3,5,7,1,2026-04-10T00:42:32.237919+05:30
Ahmedabad,Gujarat,23.0225,72.5714,27.2,53,0.0,1005.5,8.0,32.0,91,90.8,58.6,4,5,4,1,2026-04-10T00:42:32.237927+05:30
Jaipur,Rajasthan,26.9124,75.7873,22.8,35,0.0,965.1,7.8,28.8,141,301.7,48.5,0,5,7,0,2026-04-10T00:42:32.237935+05:30
Lucknow,Uttar Pradesh,26.8467,80.9462,21.7,55,0.0,998.9,7.65,43.2,116,167.2,41.1,0,5,7,0,2026-04-10T00:42:32.237943+05:30
Kanpur,Uttar Pradesh,26.4499,80.3319,22.4,55,0.0,997.2,7.65,38.9,142,316.6,55.6,0,5,7,0,2026-04-10T00:42:32.237950+05:30
Chandigarh,Chandigarh,30.7333,76.7794,17.4,75,0.0,975.1,7.15,43.2,72,39.1,34.8,3,5,7,0,2026-04-10T00:42:32.237958+05:30
Srinagar,Jammu and Kashmir,34.0837,74.7973,6.2,81,0.0,843.0,8.1,14.0,61,29.2,27.2,3,10,7,0,2026-04-10T00:42:32.237967+05:30
Jammu,Jammu and Kashmir,32.7266,74.857,15.2,89,0.0,980.4,7.75,34.2,75,44.5,39.5,3,10,7,0,2026-04-10T00:42:32.237975+05:30
Amritsar,Punjab,31.634,74.8723,17.3,75,0.0,989.0,7.7,29.9,83,54.1,46.7,3,5,7,0,2026-04-10T00:42:32.237983+05:30
Ludhiana,Punjab,30.901,75.8573,18.4,69,0.0,986.2,7.3,33.5,92,39.2,34.3,3,5,7,0,2026-04-10T00:42:32.237989+05:30
Jalandhar,Punjab,31.326,75.5762,17.9,73,0.0,987.5,7.5,31.7,86,52.7,44.8,3,5,7,0,2026-04-10T00:42:32.237998+05:30
Dehradun,Uttarakhand,30.6284,78.0322,8.5,77,0.0,830.7,7.55,29.9,55,24.9,17.8,3,5,7,0,2026-04-10T00:42:32.238005+05:30
Shimla,Himachal Pradesh,31.1048,77.1734,6.5,79,0.0,783.8,7.6,50.8,79,50.6,40.4,3,5,7,0,2026-04-10T00:42:32.238012+05:30
Manali,Himachal Pradesh,32.2396,77.1887,9.8,65,0.0,819.1,9.85,29.5,103,14.6,13.2,3,5,7,0,2026-04-10T00:42:32.238019+05:30
Gurgaon,Haryana,28.4595,77.0266,19.6,68,0.0,987.7,7.25,37.8,428,1423.1,180.2,3,5,7,0,2026-04-10T00:42:32.238025+05:30
Noida,Uttar Pradesh,28.5355,77.391,20.9,63,0.0,991.0,7.2,39.6,428,1423.1,180.2,3,5,7,0,2026-04-10T00:42:32.238032+05:30
Ghaziabad,Uttar Pradesh,28.6692,77.4538,19.7,65,0.0,989.0,7.15,40.3,126,274.7,58.7,3,5,7,0,2026-04-10T00:42:32.238038+05:30
Faridabad,Haryana,28.4089,77.3178,20.6,63,0.0,990.1,7.2,38.2,428,1423.1,180.2,3,5,7,0,2026-04-10T00:42:32.238044+05:30
Meerut,Uttar Pradesh,28.9845,77.7064,18.6,69,0.0,987.5,7.05,43.2,126,274.7,58.7,3,5,7,0,2026-04-10T00:42:32.238050+05:30
Agra,Uttar Pradesh,27.1767,78.0081,22.2,57,0.0,993.2,7.5,38.9,412,678.0,100.1,0,5,7,0,2026-04-10T00:42:32.238056+05:30
Varanasi,Uttar Pradesh,25.3176,82.9739,21.7,57,0.0,1002.5,8.2,38.9,99,65.9,29.1,0,5,4,0,2026-04-10T00:42:32.238065+05:30
Prayagraj,Uttar Pradesh,25.4358,81.8463,23.9,53,0.0,1001.1,8.1,34.2,99,104.1,31.3,0,5,4,0,2026-04-10T00:42:32.238072+05:30
Gorakhpur,Uttar Pradesh,26.7606,83.3732,20.5,50,0.0,1001.7,8.05,50.8,121,52.5,22.9,0,5,4,0,2026-04-10T00:42:32.238079+05:30
Bareilly,Uttar Pradesh,28.367,79.4304,18.8,69,0.0,992.4,7.4,39.2,78,41.8,27.8,3,5,7,0,2026-04-10T00:42:32.238087+05:30
Aligarh,Uttar Pradesh,27.8974,78.088,19.6,63,0.0,991.3,7.3,42.5,153,423.8,76.4,3,5,7,0,2026-04-10T00:42:32.238093+05:30
Moradabad,Uttar Pradesh,28.8386,78.7733,18.5,68,0.0,989.4,7.25,41.0,91,66.6,34.1,3,5,7,0,2026-04-10T00:42:32.238099+05:30
Saharanpur,Uttar Pradesh,29.9637,77.546,17.6,68,0.0,981.6,6.85,53.3,88,50.2,38.2,3,5,7,0,2026-04-10T00:42:32.238105+05:30
Jhansi,Uttar Pradesh,25.4484,78.5685,22.7,59,0.0,983.1,8.05,32.8,101,131.8,30.6,0,5,7,0,2026-04-10T00:42:35.562752+05:30
Surat,Gujarat,21.1702,72.8311,25.0,80,0.0,1009.9,7.75,20.2,107,98.3,49.8,7,0,4,1,2026-04-10T00:42:35.562787+05:30
Vadodara,Gujarat,22.3072,73.1812,25.8,65,0.0,1007.7,8.0,28.1,72,58.3,36.9,7,5,4,1,2026-04-10T00:42:35.562798+05:30
Rajkot,Gujarat,22.3039,70.8022,25.8,59,0.0,998.2,7.75,22.0,71,51.2,25.8,4,5,7,1,2026-04-10T00:42:35.562806+05:30
Thane,Maharashtra,19.2183,72.9781,26.1,67,0.0,1010.4,7.95,38.5,89,140.2,34.8,7,0,4,1,2026-04-10T00:42:35.562813+05:30
Nagpur,Maharashtra,21.1458,79.0882,27.1,50,0.0,975.6,8.7,22.0,83,36.7,23.6,4,5,7,0,2026-04-10T00:42:35.562821+05:30
Nashik,Maharashtra,19.9975,73.7898,23.3,54,0.0,948.3,8.2,30.6,75,115.3,39.8,0,5,7,0,2026-04-10T00:42:35.562828+05:30
Aurangabad,Maharashtra,19.8762,75.3433,26.1,52,0.0,946.8,8.9,30.6,67,41.9,23.5,4,5,7,0,2026-04-10T00:42:35.562835+05:30
Solapur,Maharashtra,17.6599,75.9064,29.0,40,0.0,959.0,8.95,23.4,87,71.5,35.9,4,5,7,0,2026-04-10T00:42:35.562843+05:30
Kolhapur,Maharashtra,16.705,74.2433,20.7,95,0.0,949.9,9.0,37.1,81,54.8,27.0,3,5,7,1,2026-04-10T00:42:35.562850+05:30
Goa,Goa,15.2993,74.124,27.4,81,0.0,1000.0,9.0,34.6,70,66.1,21.3,7,5,4,1,2026-04-10T00:42:35.562857+05:30
Jodhpur,Rajasthan,26.2389,73.0243,22.6,37,0.0,988.6,8.05,25.2,75,74.3,16.5,0,5,7,0,2026-04-10T00:42:35.562864+05:30
Udaipur,Rajasthan,24.5854,73.7125,21.7,37,0.0,951.1,8.55,29.2,74,53.7,13.4,0,5,7,0,2026-04-10T00:42:35.562870+05:30
Kota,Rajasthan,25.2138,75.8648,21.2,59,0.0,983.7,8.0,19.1,100,77.3,31.5,0,5,7,0,2026-04-10T00:42:35.562876+05:30
Bikaner,Rajasthan,28.0229,73.3119,24.2,36,0.0,988.4,7.8,20.9,80,45.4,21.0,0,5,7,0,2026-04-10T00:42:35.562883+05:30
Ajmer,Rajasthan,26.4499,74.6399,22.9,35,0.0,960.0,8.0,22.0,75,34.7,17.2,0,5,7,0,2026-04-10T00:42:35.562889+05:30
Gwalior,Madhya Pradesh,26.2183,78.1828,24.1,56,0.0,988.5,7.75,34.2,116,309.2,53.3,0,5,7,0,2026-04-10T00:42:35.562895+05:30
Indore,Madhya Pradesh,22.7196,75.8577,23.0,55,0.0,951.3,8.4,25.2,80,58.9,38.2,0,5,7,0,2026-04-10T00:42:35.562901+05:30
Bhopal,Madhya Pradesh,23.2599,77.4126,24.7,39,0.0,957.2,8.4,25.6,76,56.0,29.3,0,5,7,0,2026-04-10T00:42:35.562908+05:30
Jabalpur,Madhya Pradesh,23.1815,79.9864,24.4,52,0.0,964.4,8.55,22.7,103,66.6,26.4,0,5,7,0,2026-04-10T00:42:35.562914+05:30
Ujjain,Madhya Pradesh,23.1765,75.7885,23.5,48,0.0,957.2,8.35,27.7,80,55.4,26.9,0,5,7,0,2026-04-10T00:42:35.562921+05:30
Visakhapatnam,Andhra Pradesh,17.6868,83.2185,27.6,92,0.0,1005.1,9.1,36.7,90,31.5,26.8,7,5,4,1,2026-04-10T00:42:35.562928+05:30
Vijayawada,Andhra Pradesh,16.5062,80.648,28.2,88,0.0,1004.4,9.2,31.7,74,21.8,18.7,7,5,4,1,2026-04-10T00:42:35.562934+05:30
Guntur,Andhra Pradesh,16.3067,80.4365,28.4,89,0.0,1005.6,9.25,37.1,77,21.2,18.9,7,5,4,1,2026-04-10T00:42:35.562941+05:30
Nellore,Andhra Pradesh,14.4426,79.9865,28.6,87,0.0,1007.0,9.3,34.2,74,21.7,18.7,7,5,4,1,2026-04-10T00:42:35.562948+05:30
Kurnool,Andhra Pradesh,15.8281,78.0373,30.6,39,0.0,977.5,9.2,19.8,81,51.3,28.6,0,5,7,0,2026-04-10T00:42:35.562954+05:30
Kakinada,Andhra Pradesh,16.9891,82.2475,27.4,94,0.0,1009.1,9.15,36.0,72,24.9,18.7,7,0,4,1,2026-04-10T00:42:35.562961+05:30
Tirupati,Andhra Pradesh,13.6288,79.4192,28.0,83,0.0,993.6,9.45,29.9,93,29.6,28.3,7,5,7,1,2026-04-10T00:42:35.562967+05:30
Warangal,Telangana,17.9689,79.5941,28.6,71,0.0,980.1,9.05,24.5,111,91.7,68.7,7,5,7,1,2026-04-10T00:42:35.562974+05:30
Nizamabad,Telangana,18.6725,78.0941,27.0,48,0.0,966.5,8.95,27.7,94,126.7,51.7,4,5,7,0,2026-04-10T00:42:35.562980+05:30
Mysore,Karnataka,12.2958,76.6396,24.5,81,0.0,930.2,9.55,30.6,58,25.8,19.0,3,5,7,1,2026-04-10T00:42:35.562986+05:30
Mangalore,Karnataka,12.9141,74.856,29.4,78,0.0,1008.2,9.2,31.0,73,49.6,18.4,7,0,4,1,2026-04-10T00:42:35.562992+05:30
Hubli-Dharwad,Karnataka,15.3647,75.124,23.5,82,0.0,942.6,9.2,38.5,68,38.0,16.8,3,5,7,1,2026-04-10T00:42:35.562998+05:30
Belgaum,Karnataka,15.8497,74.4977,21.4,89,0.0,927.2,9.25,37.8,75,61.5,25.3,3,5,7,1,2026-04-10T00:42:38.884182+05:30
Coimbatore,Tamil Nadu,11.0168,76.9558,25.4,81,0.0,964.1,9.5,34.9,53,38.0,25.7,7,5,7,1,2026-04-10T00:42:38.884217+05:30
Madurai,Tamil Nadu,9.9252,78.1198,28.0,73,0.0,994.9,9.4,40.0,94,42.8,40.4,7,5,7,1,2026-04-10T00:42:38.884229+05:30
Trichy,Tamil Nadu,10.7905,78.7047,27.8,87,0.0,1001.7,9.2,29.2,71,21.7,20.0,7,5,4,1,2026-04-10T00:42:38.884238+05:30
Salem,Tamil Nadu,11.6643,78.146,26.3,78,0.0,979.5,9.45,20.2,85,30.9,28.9,7,5,7,1,2026-04-10T00:42:38.884246+05:30
Tirunelveli,Tamil Nadu,8.7139,77.7567,27.3,76,0.0,1004.7,9.25,37.1,68,29.0,26.8,7,5,4,1,2026-04-10T00:42:38.884254+05:30
Vellore,Tamil Nadu,12.9165,79.1325,28.1,81,0.0,986.3,9.5,33.1,103,33.5,32.1,7,5,7,1,2026-04-10T00:42:38.884261+05:30
Erode,Tamil Nadu,11.341,77.7172,28.0,76,0.0,991.5,9.45,30.2,67,29.5,26.8,7,5,7,1,2026-04-10T00:42:38.884269+05:30
Kochi,Kerala,9.9312,76.2673,29.3,79,0.0,1010.5,9.25,34.6,68,38.6,29.2,7,0,4,1,2026-04-10T00:42:38.884276+05:30
Thiruvananthapuram,Kerala,8.5241,76.9366,28.8,82,0.0,1009.5,9.2,31.3,56,34.3,19.2,7,0,4,1,2026-04-10T00:42:38.884283+05:30
Kozhikode,Kerala,11.2588,75.7804,29.6,80,0.0,1009.3,9.15,30.2,71,54.2,22.1,7,0,4,1,2026-04-10T00:42:38.884289+05:30
Thrissur,Kerala,10.5276,76.2144,28.3,85,0.0,1008.9,9.2,37.8,68,48.5,30.5,7,0,4,1,2026-04-10T00:42:38.884296+05:30
Kannur,Kerala,11.8745,75.3704,28.4,82,0.0,1008.7,9.15,36.0,72,44.2,20.2,7,0,4,1,2026-04-10T00:42:38.884304+05:30
Patna,Bihar,25.5941,85.1376,23.0,52,0.0,1004.4,8.35,39.6,103,40.6,27.3,0,5,4,0,2026-04-10T00:42:38.884311+05:30
Gaya,Bihar,24.7914,85.0002,22.6,54,0.0,997.9,8.45,38.9,105,61.7,39.8,0,5,7,0,2026-04-10T00:42:38.884318+05:30
Muzaffarpur,Bihar,26.1209,85.3647,21.8,50,0.0,1004.1,8.35,40.7,99,36.1,25.4,0,5,4,0,2026-04-10T00:42:38.884324+05:30
Bhagalpur,Bihar,25.2425,87.0117,23.1,79,0.0,1004.7,8.4,35.3,102,80.1,64.5,3,5,4,1,2026-04-10T00:42:38.884331+05:30
Ranchi,Jharkhand,23.3441,85.3096,20.8,59,0.0,940.9,9.0,39.2,98,43.5,24.7,0,5,7,0,2026-04-10T00:42:38.884337+05:30
Jamshedpur,Jharkhand,22.8046,86.2029,24.2,84,0.0,994.3,8.85,20.5,108,80.3,55.3,3,5,7,1,2026-04-10T00:42:38.884344+05:30
Dhanbad,Jharkhand,23.7957,86.4304,22.2,79,0.0,983.0,8.75,36.7,134,81.7,62.6,3,5,7,1,2026-04-10T00:42:38.884350+05:30
Bokaro,Jharkhand,23.6693,86.1511,22.7,74,0.0,987.5,8.8,39.2,133,77.1,56.2,3,5,7,1,2026-04-10T00:42:38.884357+05:30
Bhubaneswar,Odisha,20.2961,85.8245,25.7,96,0.0,1005.1,9.0,25.6,96,48.5,41.6,7,5,4,1,2026-04-10T00:42:38.884364+05:30
Cuttack,Odisha,20.4625,85.8828,25.8,93,0.0,1007.3,9.05,26.6,96,48.5,41.6,7,5,4,1,2026-04-10T00:42:38.884371+05:30
Rourkela,Odisha,22.2604,84.8536,25.6,70,0.0,988.2,8.75,23.4,111,65.4,43.4,7,5,7,1,2026-04-10T00:42:38.884377+05:30
Raipur,Chhattisgarh,21.2514,81.6296,28.0,46,0.0,977.2,8.8,25.9,133,108.0,73.8,4,5,7,0,2026-04-10T00:42:38.884382+05:30
Bhilai,Chhattisgarh,21.1938,81.3509,27.1,49,0.0,977.6,8.8,24.5,136,104.1,75.9,4,5,7,0,2026-04-10T00:42:38.884388+05:30
Guwahati,Assam,26.1158,91.7086,21.4,88,0.0,1005.0,8.25,36.4,80,21.5,16.9,3,5,4,1,2026-04-10T00:42:38.884394+05:30
Agartala,Tripura,23.8315,91.2868,20.7,99,0.0,1009.7,8.55,25.9,118,48.0,45.9,3,0,4,1,2026-04-10T00:42:38.884400+05:30
Shillong,Meghalaya,25.5788,91.8933,9.8,95,0.0,854.8,6.45,46.1,76,34.3,29.0,3,10,7,0,2026-04-10T00:42:38.884406+05:30
Imphal,Manipur,24.817,93.9368,15.6,96,0.0,924.3,8.9,59.4,96,49.0,46.4,3,10,7,0,2026-04-10T00:42:38.884412+05:30
Aizawl,Mizoram,23.7271,92.7176,16.2,97,0.0,893.7,8.8,47.9,71,30.5,23.7,3,10,7,0,2026-04-10T00:42:38.884418+05:30
Kohima,Nagaland,25.6701,94.1077,12.6,94,0.0,854.4,8.8,64.4,67,24.2,19.3,3,10,7,0,2026-04-10T00:42:38.884424+05:30
Gangtok,Sikkim,27.3314,88.6138,10.8,86,0.0,836.3,8.5,15.1,84,14.7,12.3,3,10,7,0,2026-04-10T00:42:38.884430+05:30
Siliguri,West Bengal,26.7271,88.3953,17.7,79,0.0,997.2,8.2,32.0,79,39.5,33.3,3,5,7,0,2026-04-10T00:42:42.209958+05:30
Durgapur,West Bengal,23.5204,87.3119,23.4,89,0.0,998.4,8.7,23.0,150,122.0,91.5,3,5,7,1,2026-04-10T00:42:42.209992+05:30
Asansol,West Bengal,23.6739,86.9524,23.9,80,0.0,997.0,8.75,25.6,132,87.8,64.5,3,5,7,1,2026-04-10T00:42:42.210003+05:30
Pondicherry,Puducherry,11.9139,79.8145,27.7,93,0.0,1010.0,9.35,33.1,85,26.0,20.0,7,0,4,1,2026-04-10T00:42:42.210011+05:30
Port Blair,Andaman and Nicobar Islands,11.6234,92.7265,28.5,78,0.0,1009.1,8.75,23.4,32,6.7,5.0,7,0,4,1,2026-04-10T00:42:42.210020+05:30
Haridwar,Uttarakhand,29.9457,78.1642,15.8,82,0.0,980.0,6.95,48.6,75,36.8,33.6,3,10,7,0,2026-04-10T00:42:42.210028+05:30
Rishikesh,Uttarakhand,30.0869,78.2676,15.3,75,0.0,972.5,7.05,36.7,109,37.3,24.1,3,5,7,0,2026-04-10T00:42:42.210035+05:30
Nainital,Uttarakhand,29.3919,79.4542,13.0,54,0.0,806.9,7.9,69.1,93,31.0,18.0,0,5,7,0,2026-04-10T00:42:42.210043+05:30
Mussoorie,Uttarakhand,30.4599,78.0664,10.2,69,0.0,803.1,7.4,34.6,71,43.1,33.3,3,5,7,0,2026-04-10T00:42:42.210050+05:30
Dharamshala,Himachal Pradesh,32.219,76.3234,13.9,48,0.0,872.0,7.6,28.4,93,7.7,6.5,0,5,7,0,2026-04-10T00:42:42.210057+05:30
Dalhousie,Himachal Pradesh,32.5387,75.971,9.8,53,0.0,804.7,7.85,21.2,62,38.0,31.7,0,5,7,0,2026-04-10T00:42:42.210065+05:30
Patiala,Punjab,30.3398,76.3869,18.1,70,0.0,985.0,7.0,38.9,128,448.0,64.7,3,5,7,0,2026-04-10T00:42:42.210071+05:30
Bhatinda,Punjab,30.211,74.9455,18.7,73,0.0,991.5,7.65,33.5,92,55.5,39.0,3,5,7,0,2026-04-10T00:42:42.210078+05:30
Rohtak,Haryana,28.8955,76.6066,19.1,65,0.0,988.3,7.15,39.2,177,722.7,113.4,3,5,7,0,2026-04-10T00:42:42.210084+05:30
Panipat,Haryana,29.3909,76.9635,18.8,65,0.0,986.8,7.0,42.5,394,1177.2,148.1,3,5,7,0,2026-04-10T00:42:42.210090+05:30
Mathura,Uttar Pradesh,27.4924,77.6737,22.2,55,0.0,992.6,7.45,36.4,223,596.0,104.3,0,5,7,0,2026-04-10T00:42:42.210097+05:30
Vrindavan,Uttar Pradesh,27.5823,77.7027,21.0,61,0.0,993.1,7.4,39.6,223,596.0,104.3,3,5,7,0,2026-04-10T00:42:42.210103+05:30
Ayodhya,Uttar Pradesh,26.7922,82.1998,20.6,53,0.0,1000.3,7.8,49.0,100,102.4,30.3,0,5,4,0,2026-04-10T00:42:42.210109+05:30
Ratlam,Madhya Pradesh,23.3315,75.0367,23.5,56,0.0,958.1,8.3,30.2,71,54.9,24.6,0,5,7,0,2026-04-10T00:42:42.210114+05:30
Sagar,Madhya Pradesh,23.8388,78.7378,24.3,42,0.0,954.0,8.4,29.5,79,94.5,32.8,0,5,7,0,2026-04-10T00:42:42.210120+05:30
Satna,Madhya Pradesh,24.6005,80.8322,24.1,45,0.0,976.0,8.45,35.3,83,159.7,32.5,0,5,7,0,2026-04-10T00:42:42.210126+05:30
Akola,Maharashtra,20.7002,77.0082,27.5,57,0.0,977.8,8.7,21.6,71,42.3,27.2,4,5,7,1,2026-04-10T00:42:42.210133+05:30
Amravati,Maharashtra,20.9374,77.7796,26.7,50,0.0,969.7,8.7,27.0,71,42.0,26.8,4,5,7,0,2026-04-10T00:42:42.210140+05:30
Latur,Maharashtra,18.4088,76.5604,25.0,58,0.0,941.7,8.95,29.9,91,83.8,32.8,4,5,7,1,2026-04-10T00:42:42.210147+05:30
Nanded,Maharashtra,19.1383,77.3091,26.7,48,0.0,970.8,8.85,21.6,88,94.8,44.1,4,5,7,0,2026-04-10T00:42:42.210153+05:30
Gulbarga,Karnataka,17.3297,76.8343,28.8,42,0.0,960.1,9.05,28.1,76,61.0,32.1,4,5,7,0,2026-04-10T00:42:42.210158+05:30
Bidar,Karnataka,17.9104,77.5199,26.3,51,0.0,937.2,9.05,25.9,87,99.0,39.3,4,5,7,0,2026-04-10T00:42:42.210164+05:30
Hospet,Karnataka,15.2689,76.3909,28.1,64,0.0,957.5,9.25,32.4,77,30.6,18.5,7,5,7,1,2026-04-10T00:42:42.210170+05:30
Tirupur,Tamil Nadu,11.1085,77.3411,27.1,74,0.0,977.5,9.5,29.9,60,36.6,28.0,7,5,7,1,2026-04-10T00:42:42.210176+05:30
Alappuzha,Kerala,9.4981,76.3388,29.3,80,0.0,1010.6,9.2,28.4,66,44.5,26.1,7,0,4,1,2026-04-10T00:42:42.210182+05:30
Munnar,Kerala,10.0889,77.0595,20.8,98,0.0,858.6,7.25,27.7,67,24.6,22.5,3,5,7,1,2026-04-10T00:42:42.210188+05:30
Silchar,Assam,24.8333,92.7789,20.6,94,0.0,1008.7,8.55,33.5,109,71.5,66.1,3,0,4,1,2026-04-10T00:42:42.210194+05:30
Dibrugarh,Assam,27.4728,94.912,21.0,80,0.0,998.2,8.1,18.4,80,20.3,16.2,3,5,7,1,2026-04-10T00:42:42.210200+05:30
