city,state,latitude,longitude,temp,humidity,rain,pressure,uv_index,wind_gusts,aqi,pm10,pm2_5,no2,co,o3,so2,mosquito_risk,arthritis_risk,migraine_risk,frizz_risk,updated_at
Delhi,Delhi,28.6139,77.209,27.3,84,0.0,977.3,7.15,17.3,155,125.7,58.4,27.6,753.0,65.0,18.7,7,5,7,1,2026-07-02T01:36:51.330947+05:30
Mumbai,Maharashtra,19.076,72.8777,25.4,94,0.4,1004.5,0.55,46.8,35,16.2,8.6,5.9,144.0,49.0,5.1,10,5,0,1,2026-07-02T01:36:51.330992+05:30
Bangalore,Karnataka,12.9716,77.5946,21.0,92,0.0,910.5,6.5,58.0,17,2.6,2.6,10.2,187.0,32.0,3.5,3,5,7,1,2026-07-02T01:36:51.331008+05:30
Hyderabad,Telangana,17.385,78.4867,23.4,92,0.2,949.3,4.75,50.0,24,4.4,3.8,7.8,155.0,40.0,3.7,6,5,3,1,2026-07-02T01:36:51.331017+05:30
Chennai,Tamil Nadu,13.0827,80.2707,29.5,62,0.0,1004.6,7.75,47.2,44,22.6,20.0,32.1,220.0,33.0,10.1,7,5,4,1,2026-07-02T01:36:51.331026+05:30
Kolkata,West Bengal,22.5726,88.3639,26.9,93,0.0,999.3,8.55,29.5,85,27.2,26.0,13.6,318.0,58.0,6.4,7,5,7,1,2026-07-02T01:36:51.331034+05:30
Pune,Maharashtra,18.5204,73.8567,22.3,95,0.1,944.0,2.55,41.4,19,1.9,1.9,7.0,135.0,41.0,5.0,6,5,3,1,2026-07-02T01:36:51.331041+05:30
Ahmedabad,Gujarat,23.0225,72.5714,26.6,94,0.3,996.4,5.55,34.6,52,14.8,10.4,10.8,163.0,46.0,5.2,10,5,3,1,2026-07-02T01:36:51.331047+05:30
Jaipur,Rajasthan,26.9124,75.7873,28.0,77,0.1,954.2,8.15,36.4,135,258.0,58.4,11.2,224.0,61.0,4.8,10,5,7,1,2026-07-02T01:36:51.331054+05:30
Lucknow,Uttar Pradesh,26.8467,80.9462,28.1,90,0.0,987.3,7.35,25.9,115,65.4,55.9,21.3,416.0,72.0,8.7,7,5,7,1,2026-07-02T01:36:51.331064+05:30
Kanpur,Uttar Pradesh,26.4499,80.3319,28.9,84,0.0,985.6,6.2,28.8,104,84.5,50.2,27.9,394.0,52.0,9.2,7,5,7,1,2026-07-02T01:36:51.331071+05:30
Chandigarh,Chandigarh,30.7333,76.7794,25.9,93,0.0,963.6,5.7,34.9,111,95.5,61.9,31.8,755.0,44.0,9.7,7,5,3,1,2026-07-02T01:36:51.331078+05:30
Srinagar,Jammu and Kashmir,34.0837,74.7973,19.9,95,0.0,837.7,9.1,21.2,76,25.3,21.1,13.7,665.0,81.0,3.6,3,10,7,1,2026-07-02T01:36:51.331085+05:30
Jammu,Jammu and Kashmir,32.7266,74.857,27.7,81,0.0,966.8,8.6,24.1,103,70.8,37.5,25.5,357.0,65.0,4.0,7,5,7,1,2026-07-02T01:36:51.331091+05:30
Amritsar,Punjab,31.634,74.8723,28.1,82,0.0,974.4,8.45,34.6,203,108.0,56.7,18.7,384.0,72.0,11.5,7,5,7,1,2026-07-02T01:36:51.331097+05:30
Ludhiana,Punjab,30.901,75.8573,27.6,81,0.0,972.7,5.7,29.2,159,128.1,60.8,18.6,342.0,78.0,15.7,7,5,3,1,2026-07-02T01:36:51.331103+05:30
Jalandhar,Punjab,31.326,75.5762,28.1,75,0.0,973.8,7.65,28.8,177,63.1,47.1,22.0,388.0,71.0,17.9,7,5,7,1,2026-07-02T01:36:51.331109+05:30
Dehradun,Uttarakhand,30.6284,78.0322,18.0,98,0.1,827.8,7.4,22.0,48,23.7,14.1,16.5,177.0,58.0,0.9,6,10,7,1,2026-07-02T01:36:51.331115+05:30
Shimla,Himachal Pradesh,31.1048,77.1734,16.0,96,0.1,781.8,6.55,21.2,76,82.4,34.0,18.4,298.0,74.0,1.1,6,10,7,0,2026-07-02T01:36:51.331124+05:30
Manali,Himachal Pradesh,32.2396,77.1887,18.5,87,0.0,816.4,5.1,29.2,54,6.5,5.8,109.0,344.0,5.0,0.0,3,10,3,1,2026-07-02T01:36:51.331132+05:30
Gurgaon,Haryana,28.4595,77.0266,27.8,79,0.0,975.5,7.75,24.8,396,166.7,61.0,24.2,566.0,73.0,15.0,7,5,7,1,2026-07-02T01:36:51.331139+05:30
Noida,Uttar Pradesh,28.5355,77.391,27.0,84,0.0,978.7,6.65,16.6,396,166.7,61.0,24.2,642.0,73.0,15.0,7,5,7,1,2026-07-02T01:36:51.331145+05:30
Ghaziabad,Uttar Pradesh,28.6692,77.4538,26.6,88,0.0,977.0,7.05,19.1,124,91.0,58.6,29.5,567.0,50.0,10.2,7,5,7,1,2026-07-02T01:36:51.331151+05:30
Faridabad,Haryana,28.4089,77.3178,27.2,83,0.0,978.0,7.05,16.9,396,166.7,61.0,24.2,543.0,73.0,15.0,7,5,7,1,2026-07-02T01:36:51.331157+05:30
Meerut,Uttar Pradesh,28.9845,77.7064,26.6,91,0.0,976.2,5.7,24.8,124,91.0,58.6,29.5,631.0,50.0,10.2,7,5,3,1,2026-07-02T01:36:51.331166+05:30
Agra,Uttar Pradesh,27.1767,78.0081,28.1,80,0.0,981.7,6.75,23.0,122,91.0,49.1,34.5,675.0,36.0,10.9,7,5,7,1,2026-07-02T01:36:51.331171+05:30
Varanasi,Uttar Pradesh,25.3176,82.9739,27.4,96,0.0,991.6,7.15,29.9,77,27.0,25.9,17.5,863.0,64.0,9.3,7,5,7,1,2026-07-02T01:36:51.331178+05:30
Prayagraj,Uttar Pradesh,25.4358,81.8463,27.9,94,0.0,989.8,8.15,22.3,98,30.2,28.9,16.6,333.0,79.0,8.7,7,5,7,1,2026-07-02T01:36:51.331184+05:30
Gorakhpur,Uttar Pradesh,26.7606,83.3732,26.8,96,0.3,992.3,7.05,29.9,153,66.4,65.0,12.9,374.0,101.0,9.9,10,5,7,1,2026-07-02T01:36:51.331190+05:30
Bareilly,Uttar Pradesh,28.367,79.4304,26.4,94,0.1,981.4,6.3,28.4,113,65.9,52.7,23.8,471.0,59.0,8.4,10,5,7,1,2026-07-02T01:36:51.331198+05:30
Aligarh,Uttar Pradesh,27.8974,78.088,26.7,86,0.0,979.8,7.1,23.0,116,70.3,46.9,35.7,443.0,40.0,13.6,7,5,7,1,2026-07-02T01:36:51.331204+05:30
Moradabad,Uttar Pradesh,28.8386,78.7733,26.8,88,0.0,978.3,6.9,29.5,139,116.4,86.4,33.5,523.0,61.0,18.5,7,5,7,1,2026-07-02T01:36:51.331210+05:30
Saharanpur,Uttar Pradesh,29.9637,77.546,25.9,88,0.0,970.9,6.7,36.0,127,97.6,60.1,26.5,582.0,58.0,9.3,7,5,7,1,2026-07-02T01:36:51.331216+05:30
Jhansi,Uttar Pradesh,25.4484,78.5685,28.9,74,0.0,971.9,8.4,43.2,80,54.4,29.2,17.3,329.0,45.0,6.0,7,5,7,1,2026-07-02T01:36:54.588977+05:30
Surat,Gujarat,21.1702,72.8311,26.0,97,0.2,1001.3,0.3,34.9,63,18.2,13.4,18.8,342.0,32.0,28.3,10,5,0,1,2026-07-02T01:36:54.589013+05:30
Vadodara,Gujarat,22.3072,73.1812,27.6,89,0.0,998.6,1.3,34.9,55,12.5,9.3,13.0,158.0,37.0,9.1,7,5,3,1,2026-07-02T01:36:54.589024+05:30
Rajkot,Gujarat,22.3039,70.8022,27.7,85,0.0,988.2,3.55,32.4,55,25.1,13.0,5.6,110.0,43.0,5.4,7,5,3,1,2026-07-02T01:36:54.589032+05:30
Thane,Maharashtra,19.2183,72.9781,24.5,98,0.3,1004.1,0.45,36.4,35,16.2,8.6,5.9,159.0,49.0,5.1,6,5,0,1,2026-07-02T01:36:54.589041+05:30
Nagpur,Maharashtra,21.1458,79.0882,25.3,95,0.2,967.7,4.0,34.6,52,12.7,11.0,12.1,221.0,62.0,7.0,10,5,3,1,2026-07-02T01:36:54.589049+05:30
Nashik,Maharashtra,19.9975,73.7898,23.0,95,0.1,940.7,0.4,57.2,16,1.8,1.6,12.6,143.0,29.0,8.7,6,5,3,1,2026-07-02T01:36:54.589057+05:30
Aurangabad,Maharashtra,19.8762,75.3433,23.4,96,0.2,939.5,1.15,46.8,21,3.0,2.6,9.5,148.0,35.0,8.3,6,5,3,1,2026-07-02T01:36:54.589064+05:30
Solapur,Maharashtra,17.6599,75.9064,23.6,88,0.0,954.1,5.65,55.8,20,2.9,2.8,6.4,137.0,37.0,2.3,3,5,3,1,2026-07-02T01:36:54.589072+05:30
Kolhapur,Maharashtra,16.705,74.2433,21.5,96,0.2,945.2,4.5,50.8,19,2.0,1.8,3.5,119.0,45.0,1.5,6,5,3,1,2026-07-02T01:36:54.589080+05:30
Goa,Goa,15.2993,74.124,23.3,98,0.2,997.0,7.65,31.3,34,18.2,10.1,2.6,239.0,48.0,0.7,6,5,7,1,2026-07-02T01:36:54.589087+05:30
Jodhpur,Rajasthan,26.2389,73.0243,33.0,48,0.0,975.8,7.3,50.8,132,155.1,43.5,9.6,137.0,40.0,2.1,0,5,7,1,2026-07-02T01:36:54.589095+05:30
Udaipur,Rajasthan,24.5854,73.7125,25.5,90,0.0,941.1,4.65,38.2,55,14.4,11.6,9.9,145.0,62.0,13.9,7,5,3,1,2026-07-02T01:36:54.589102+05:30
Kota,Rajasthan,25.2138,75.8648,29.1,74,0.0,972.9,8.25,39.6,75,33.5,26.5,10.3,230.0,63.0,5.1,7,5,7,1,2026-07-02T01:36:54.589109+05:30
Bikaner,Rajasthan,28.0229,73.3119,34.1,43,0.0,974.0,8.45,31.3,155,159.7,50.4,2.9,125.0,59.0,2.7,0,5,7,1,2026-07-02T01:36:54.589117+05:30
Ajmer,Rajasthan,26.4499,74.6399,29.0,69,0.0,948.9,7.2,41.4,75,26.8,20.0,11.7,140.0,51.0,5.0,7,5,7,1,2026-07-02T01:36:54.589124+05:30
Gwalior,Madhya Pradesh,26.2183,78.1828,27.9,90,0.0,977.0,6.45,36.7,70,50.4,27.0,13.5,174.0,53.0,4.9,7,5,7,1,2026-07-02T01:36:54.589131+05:30
Indore,Madhya Pradesh,22.7196,75.8577,24.0,96,0.0,942.9,1.55,28.4,61,19.0,17.4,9.5,240.0,71.0,4.2,3,5,3,1,2026-07-02T01:36:54.589138+05:30
Bhopal,Madhya Pradesh,23.2599,77.4126,25.1,88,0.0,948.2,1.9,29.2,64,24.2,20.7,10.8,287.0,58.0,2.8,7,5,3,1,2026-07-02T01:36:54.589146+05:30
Jabalpur,Madhya Pradesh,23.1815,79.9864,25.2,98,0.0,955.4,4.8,30.2,65,30.0,22.2,10.4,251.0,70.0,2.8,7,5,3,1,2026-07-02T01:36:54.589153+05:30
Ujjain,Madhya Pradesh,23.1765,75.7885,24.8,94,0.0,948.5,5.05,40.3,57,19.5,17.8,6.5,229.0,75.0,5.0,3,5,3,1,2026-07-02T01:36:54.589160+05:30
Visakhapatnam,Andhra Pradesh,17.6868,83.2185,27.8,77,0.0,997.3,2.45,45.4,60,14.3,12.8,18.5,253.0,48.0,30.4,7,5,3,1,2026-07-02T01:36:54.589168+05:30
Vijayawada,Andhra Pradesh,16.5062,80.648,27.6,77,0.0,998.8,6.35,59.4,41,9.5,7.2,8.7,138.0,43.0,5.3,7,5,7,1,2026-07-02T01:36:54.589174+05:30
Guntur,Andhra Pradesh,16.3067,80.4365,26.1,88,0.3,1000.2,5.05,60.5,32,8.3,6.0,8.8,144.0,41.0,6.0,10,5,0,1,2026-07-02T01:36:54.589181+05:30
Nellore,Andhra Pradesh,14.4426,79.9865,29.9,59,0.0,1003.3,6.75,51.1,22,3.6,2.5,6.1,115.0,42.0,3.5,4,5,4,1,2026-07-02T01:36:54.589189+05:30
Kurnool,Andhra Pradesh,15.8281,78.0373,24.6,91,0.0,974.6,7.75,56.2,21,4.9,3.8,8.4,136.0,34.0,2.6,3,5,7,1,2026-07-02T01:36:54.589198+05:30
Kakinada,Andhra Pradesh,16.9891,82.2475,27.4,81,0.0,1002.3,5.6,58.0,48,10.8,9.4,7.9,282.0,58.0,3.9,7,5,0,1,2026-07-02T01:36:54.589205+05:30
Tirupati,Andhra Pradesh,13.6288,79.4192,29.1,58,0.0,989.0,6.05,49.3,22,5.0,4.6,10.6,200.0,33.0,2.1,4,5,7,1,2026-07-02T01:36:54.589211+05:30
Warangal,Telangana,17.9689,79.5941,25.8,82,0.0,974.3,3.6,41.0,29,5.6,4.8,7.3,152.0,42.0,2.1,7,5,3,1,2026-07-02T01:36:54.589218+05:30
Nizamabad,Telangana,18.6725,78.0941,24.0,96,0.0,960.4,2.3,46.4,26,4.3,4.1,8.1,146.0,39.0,4.6,3,5,3,1,2026-07-02T01:36:54.589225+05:30
Mysore,Karnataka,12.2958,76.6396,21.0,96,0.3,927.6,6.45,52.6,18,1.8,1.8,5.9,114.0,37.0,1.5,6,5,7,1,2026-07-02T01:36:54.589231+05:30
Mangalore,Karnataka,12.9141,74.856,24.9,93,0.4,1007.4,5.6,38.5,26,9.7,5.6,2.6,121.0,44.0,1.1,6,5,0,1,2026-07-02T01:36:54.589237+05:30
Hubli-Dharwad,Karnataka,15.3647,75.124,21.4,98,0.1,939.0,6.75,54.4,19,0.8,0.8,3.4,108.0,43.0,0.9,6,5,7,1,2026-07-02T01:36:54.589244+05:30
Belgaum,Karnataka,15.8497,74.4977,20.4,98,0.0,923.2,4.95,50.0,20,1.5,1.4,3.8,104.0,43.0,1.2,3,5,3,1,2026-07-02T01:36:57.831751+05:30
Coimbatore,Tamil Nadu,11.0168,76.9558,22.4,96,0.0,961.4,7.8,54.7,18,3.1,2.8,5.9,210.0,35.0,2.3,3,5,7,1,2026-07-02T01:36:57.831786+05:30
Madurai,Tamil Nadu,9.9252,78.1198,28.4,61,0.0,992.2,8.75,33.1,41,18.7,14.3,19.6,125.0,19.0,4.9,7,5,7,1,2026-07-02T01:36:57.831797+05:30
Trichy,Tamil Nadu,10.7905,78.7047,28.5,63,0.0,998.8,8.55,61.9,25,6.8,4.8,5.3,116.0,40.0,2.5,7,5,7,1,2026-07-02T01:36:57.831806+05:30
Salem,Tamil Nadu,11.6643,78.146,25.9,75,0.0,977.0,5.8,32.8,39,14.1,12.1,18.6,312.0,26.0,8.1,7,5,3,1,2026-07-02T01:36:57.831814+05:30
Tirunelveli,Tamil Nadu,8.7139,77.7567,28.6,65,0.0,1003.2,8.65,53.3,31,8.2,6.0,5.3,154.0,38.0,2.1,7,5,4,1,2026-07-02T01:36:57.831821+05:30
Vellore,Tamil Nadu,12.9165,79.1325,27.9,63,0.0,982.8,5.7,45.0,22,3.8,3.5,8.9,131.0,37.0,3.5,7,5,3,1,2026-07-02T01:36:57.831829+05:30
Erode,Tamil Nadu,11.341,77.7172,25.5,79,0.0,988.8,8.5,40.7,34,10.8,9.5,14.6,181.0,28.0,3.9,7,5,7,1,2026-07-02T01:36:57.831836+05:30
Kochi,Kerala,9.9312,76.2673,24.9,95,0.1,1010.5,8.55,40.0,50,16.0,13.0,16.9,176.0,16.0,4.8,6,0,4,1,2026-07-02T01:36:57.831844+05:30
Thiruvananthapuram,Kerala,8.5241,76.9366,24.7,93,0.0,1009.6,8.4,47.9,41,15.9,10.0,5.8,212.0,40.0,2.8,3,0,4,1,2026-07-02T01:36:57.831851+05:30
Kozhikode,Kerala,11.2588,75.7804,23.8,100,0.1,1009.8,7.95,29.2,23,9.5,5.0,1.2,167.0,50.0,0.7,6,0,4,1,2026-07-02T01:36:57.831858+05:30
Thrissur,Kerala,10.5276,76.2144,23.7,99,0.0,1009.0,8.55,38.2,45,14.6,12.5,11.6,219.0,23.0,3.2,3,0,4,1,2026-07-02T01:36:57.831866+05:30
Kannur,Kerala,11.8745,75.3704,24.5,95,0.1,1008.7,7.9,38.2,26,9.1,5.6,5.4,268.0,39.0,1.3,6,0,4,1,2026-07-02T01:36:57.831874+05:30
Patna,Bihar,25.5941,85.1376,27.0,95,0.0,994.9,5.45,30.2,139,49.4,49.1,17.7,402.0,78.0,14.5,7,5,3,1,2026-07-02T01:36:57.831881+05:30
Gaya,Bihar,24.7914,85.0002,26.7,97,0.0,987.7,6.0,27.7,126,50.6,50.5,13.4,474.0,84.0,12.9,7,5,3,1,2026-07-02T01:36:57.831888+05:30
Muzaffarpur,Bihar,26.1209,85.3647,27.7,90,0.0,995.2,6.45,34.6,140,42.3,42.0,17.0,432.0,74.0,10.5,7,5,7,1,2026-07-02T01:36:57.831895+05:30
Bhagalpur,Bihar,25.2425,87.0117,26.4,97,0.1,995.5,6.75,29.9,109,36.9,36.7,13.3,302.0,75.0,8.3,10,5,7,1,2026-07-02T01:36:57.831902+05:30
Ranchi,Jharkhand,23.3441,85.3096,23.5,99,0.0,931.6,8.1,32.0,71,38.8,38.6,16.7,350.0,64.0,6.9,3,5,7,1,2026-07-02T01:36:57.831909+05:30
Jamshedpur,Jharkhand,22.8046,86.2029,25.8,98,0.1,984.1,7.25,31.3,97,54.2,54.0,37.1,470.0,35.0,34.8,10,5,7,1,2026-07-02T01:36:57.831916+05:30
Dhanbad,Jharkhand,23.7957,86.4304,25.6,98,0.1,973.7,6.65,31.0,161,95.0,93.8,48.4,473.0,52.0,123.9,10,5,7,1,2026-07-02T01:36:57.831923+05:30
Bokaro,Jharkhand,23.6693,86.1511,25.6,96,0.1,977.4,7.3,36.7,159,100.6,99.4,48.5,372.0,51.0,134.6,10,5,7,1,2026-07-02T01:36:57.831930+05:30
Bhubaneswar,Odisha,20.2961,85.8245,25.7,96,0.1,995.6,7.95,28.4,56,21.2,20.7,13.8,359.0,59.0,4.5,10,5,7,1,2026-07-02T01:36:57.831936+05:30
Cuttack,Odisha,20.4625,85.8828,25.6,98,0.2,997.3,8.1,29.2,56,21.2,20.7,13.8,310.0,59.0,4.5,10,5,7,1,2026-07-02T01:36:57.831942+05:30
Rourkela,Odisha,22.2604,84.8536,25.0,98,0.1,978.6,8.65,37.8,71,34.2,34.1,13.5,489.0,86.0,12.6,10,5,7,1,2026-07-02T01:36:57.831949+05:30
Raipur,Chhattisgarh,21.2514,81.6296,24.9,97,0.2,968.4,4.8,30.2,74,20.1,19.8,29.6,530.0,58.0,42.6,6,5,3,1,2026-07-02T01:36:57.831956+05:30
Bhilai,Chhattisgarh,21.1938,81.3509,25.1,96,0.1,969.0,6.3,31.0,68,14.2,13.8,21.2,559.0,69.0,32.6,10,5,7,1,2026-07-02T01:36:57.831963+05:30
Guwahati,Assam,26.1158,91.7086,26.5,98,0.0,996.3,8.6,23.0,43,15.5,15.3,16.2,339.0,18.0,2.1,7,5,7,1,2026-07-02T01:36:57.831970+05:30
Agartala,Tripura,23.8315,91.2868,26.1,92,0.0,1001.0,7.6,28.8,66,13.6,12.6,14.1,177.0,37.0,3.8,7,5,4,1,2026-07-02T01:36:57.831977+05:30
Shillong,Meghalaya,25.5788,91.8933,18.4,97,0.0,853.0,8.0,32.0,30,11.0,10.8,6.4,170.0,61.0,3.0,3,10,7,1,2026-07-02T01:36:57.831983+05:30
Imphal,Manipur,24.817,93.9368,23.4,94,0.0,919.4,7.9,26.3,37,11.5,11.3,12.1,486.0,35.0,2.5,3,5,7,1,2026-07-02T01:36:57.831991+05:30
Aizawl,Mizoram,23.7271,92.7176,20.2,100,0.1,888.2,8.4,23.0,21,4.9,4.8,7.1,162.0,21.0,0.6,6,5,7,1,2026-07-02T01:36:57.831998+05:30
Kohima,Nagaland,25.6701,94.1077,19.1,98,0.0,851.7,8.15,26.3,22,6.2,6.1,11.5,255.0,23.0,0.8,3,10,7,1,2026-07-02T01:36:57.832004+05:30
Gangtok,Sikkim,27.3314,88.6138,18.5,97,0.0,835.8,8.45,31.0,57,21.2,20.1,7.0,428.0,107.0,2.3,3,10,7,1,2026-07-02T01:36:57.832011+05:30
Siliguri,West Bengal,26.7271,88.3953,25.5,94,0.2,988.9,7.65,23.0,114,58.9,56.6,16.6,343.0,86.0,6.1,10,5,7,1,2026-07-02T01:37:01.085487+05:30
Durgapur,West Bengal,23.5204,87.3119,26.7,94,0.0,988.6,8.3,30.6,150,72.4,72.2,30.5,563.0,65.0,29.9,7,5,7,1,2026-07-02T01:37:01.085523+05:30
Asansol,West Bengal,23.6739,86.9524,26.3,97,0.0,987.2,7.35,29.2,151,69.2,68.9,31.6,437.0,64.0,35.8,7,5,7,1,2026-07-02T01:37:01.085535+05:30
Pondicherry,Puducherry,11.9139,79.8145,30.4,53,0.0,1006.5,8.15,32.8,47,15.8,13.0,18.2,303.0,31.0,9.8,0,5,4,1,2026-07-02T01:37:01.085544+05:30
Port Blair,Andaman and Nicobar Islands,11.6234,92.7265,24.8,97,0.2,1005.1,1.75,50.4,29,11.7,6.7,0.2,91.0,68.0,0.4,6,5,0,1,2026-07-02T01:37:01.085552+05:30
Haridwar,Uttarakhand,29.9457,78.1642,25.4,98,0.2,969.4,6.9,24.5,109,66.8,43.4,24.1,329.0,50.0,6.4,10,5,7,1,2026-07-02T01:37:01.085560+05:30
Rishikesh,Uttarakhand,30.0869,78.2676,25.3,94,0.2,962.1,6.9,21.6,79,46.9,20.9,9.7,258.0,92.0,4.7,10,5,7,1,2026-07-02T01:37:01.085568+05:30
Nainital,Uttarakhand,29.3919,79.4542,15.8,99,0.1,802.1,6.95,30.2,66,34.2,23.0,13.1,295.0,68.0,1.5,6,10,7,0,2026-07-02T01:37:01.085577+05:30
Mussoorie,Uttarakhand,30.4599,78.0664,16.3,100,0.2,800.3,6.25,24.5,82,54.2,32.7,24.3,231.0,51.0,6.0,6,10,7,1,2026-07-02T01:37:01.085584+05:30
Dharamshala,Himachal Pradesh,32.219,76.3234,22.0,87,0.0,865.5,7.5,35.6,32,9.5,8.2,23.0,414.0,28.0,0.3,3,5,7,1,2026-07-02T01:37:01.085593+05:30
Dalhousie,Himachal Pradesh,32.5387,75.971,16.6,94,0.0,801.0,7.9,31.7,83,103.6,38.9,26.9,456.0,75.0,4.3,3,10,7,0,2026-07-02T01:37:01.085601+05:30
Patiala,Punjab,30.3398,76.3869,27.0,86,0.0,972.6,2.9,36.7,173,261.7,79.2,14.2,287.0,81.0,13.1,7,5,3,1,2026-07-02T01:37:01.085626+05:30
Bhatinda,Punjab,30.211,74.9455,30.4,73,0.0,976.6,8.3,44.6,913,195.6,81.0,26.6,316.0,60.0,9.2,3,5,7,1,2026-07-02T01:37:01.085634+05:30
Rohtak,Haryana,28.8955,76.6066,28.9,76,0.0,975.6,7.7,28.4,554,230.5,79.4,26.3,472.0,68.0,19.8,7,5,7,1,2026-07-02T01:37:01.085641+05:30
Panipat,Haryana,29.3909,76.9635,26.9,89,0.0,974.8,6.8,24.8,856,282.2,88.7,19.0,528.0,68.0,9.1,7,5,7,1,2026-07-02T01:37:01.085649+05:30
Mathura,Uttar Pradesh,27.4924,77.6737,27.9,71,0.0,980.8,7.3,22.3,126,139.7,47.8,25.2,378.0,52.0,7.0,7,5,7,1,2026-07-02T01:37:01.085656+05:30
Vrindavan,Uttar Pradesh,27.5823,77.7027,27.8,73,0.0,981.2,7.25,22.7,126,139.7,47.8,25.2,380.0,52.0,7.0,7,5,7,1,2026-07-02T01:37:01.085663+05:30
Ayodhya,Uttar Pradesh,26.7922,82.1998,26.8,95,0.0,990.3,6.7,27.7,130,58.0,53.2,13.1,431.0,99.0,6.4,7,5,7,1,2026-07-02T01:37:01.085670+05:30
Ratlam,Madhya Pradesh,23.3315,75.0367,25.0,94,0.0,949.7,7.25,27.7,56,19.7,18.3,7.0,175.0,70.0,7.8,7,5,7,1,2026-07-02T01:37:01.085677+05:30
Sagar,Madhya Pradesh,23.8388,78.7378,25.1,95,0.0,944.4,7.6,29.2,70,32.2,23.4,14.0,238.0,48.0,2.6,7,5,7,1,2026-07-02T01:37:01.085684+05:30
Satna,Madhya Pradesh,24.6005,80.8322,26.8,94,0.0,965.1,8.7,30.6,75,38.2,25.4,14.4,435.0,53.0,3.9,7,5,7,1,2026-07-02T01:37:01.085691+05:30
Akola,Maharashtra,20.7002,77.0082,25.6,93,0.0,970.0,2.15,39.2,38,8.7,8.1,9.1,151.0,53.0,4.6,7,5,3,1,2026-07-02T01:37:01.085699+05:30
Amravati,Maharashtra,20.9374,77.7796,24.9,97,0.1,962.0,2.15,39.2,39,9.8,9.1,9.7,165.0,57.0,4.9,6,5,3,1,2026-07-02T01:37:01.085706+05:30
Latur,Maharashtra,18.4088,76.5604,23.1,94,0.7,935.8,1.9,49.3,22,3.0,2.9,6.6,146.0,38.0,2.4,6,5,3,1,2026-07-02T01:37:01.085714+05:30
Nanded,Maharashtra,19.1383,77.3091,24.6,93,0.1,964.1,1.6,36.4,23,4.1,3.7,8.2,141.0,37.0,3.0,6,5,3,1,2026-07-02T01:37:01.085720+05:30
Gulbarga,Karnataka,17.3297,76.8343,23.4,94,0.2,955.6,4.9,54.4,21,2.5,2.4,7.2,142.0,38.0,2.8,6,5,3,1,2026-07-02T01:37:01.085727+05:30
Bidar,Karnataka,17.9104,77.5199,22.9,93,0.0,931.7,2.7,52.9,23,3.5,3.0,6.6,139.0,38.0,2.1,3,5,3,1,2026-07-02T01:37:01.085734+05:30
Hospet,Karnataka,15.2689,76.3909,22.6,96,0.2,954.1,5.55,60.1,20,1.6,1.5,5.5,117.0,39.0,1.5,6,5,3,1,2026-07-02T01:37:01.085741+05:30
Tirupur,Tamil Nadu,11.1085,77.3411,23.6,89,0.0,974.9,8.5,55.4,38,12.7,11.4,17.9,156.0,23.0,4.7,3,5,7,1,2026-07-02T01:37:01.085748+05:30
Alappuzha,Kerala,9.4981,76.3388,25.0,95,0.0,1010.5,8.5,42.5,45,15.2,10.4,9.7,83.0,34.0,3.6,7,0,4,1,2026-07-02T01:37:01.085755+05:30
Munnar,Kerala,10.0889,77.0595,16.7,100,0.1,856.9,8.4,42.8,21,3.3,2.4,3.3,94.0,40.0,1.7,6,10,7,1,2026-07-02T01:37:01.085763+05:30
Silchar,Assam,24.8333,92.7789,26.8,97,0.1,1000.1,7.85,27.4,60,32.9,32.5,16.9,275.0,41.0,6.7,10,5,4,1,2026-07-02T01:37:01.085769+05:30
Dibrugarh,Assam,27.4728,94.912,25.9,97,0.5,990.4,8.75,18.7,72,22.0,21.8,20.1,219.0,20.0,1.6,10,5,7,1,2026-07-02T01:37:01.085777+05:30
