city,state,latitude,longitude,temp,humidity,rain,pressure,uv_index,wind_gusts,aqi,pm10,pm2_5,mosquito_risk,arthritis_risk,migraine_risk,frizz_risk,updated_at
Delhi,Delhi,28.6139,77.209,25.3,45,0.0,984.3,6.9,29.2,193,229.1,69.6,4,5,7,0,2026-04-06T22:23:58.215499+05:30
Mumbai,Maharashtra,19.076,72.8777,27.8,69,0.0,1011.4,7.95,24.1,81,28.6,14.9,7,0,4,1,2026-04-06T22:23:58.215540+05:30
Bangalore,Karnataka,12.9716,77.5946,26.7,49,0.0,912.8,9.65,33.1,69,24.6,22.8,4,5,7,0,2026-04-06T22:23:58.215556+05:30
Hyderabad,Telangana,17.385,78.4867,28.9,48,0.0,954.1,9.2,31.3,100,29.8,25.2,4,5,7,1,2026-04-06T22:23:58.215565+05:30
Chennai,Tamil Nadu,13.0827,80.2707,28.6,88,0.0,1008.4,8.7,29.2,95,22.4,17.3,7,0,4,1,2026-04-06T22:23:58.215574+05:30
Kolkata,West Bengal,22.5726,88.3639,26.0,88,0.0,1009.2,8.7,37.1,152,42.4,39.6,7,0,4,1,2026-04-06T22:23:58.215587+05:30
Pune,Maharashtra,18.5204,73.8567,22.9,80,0.0,950.6,8.55,34.6,155,28.3,24.4,3,5,7,1,2026-04-06T22:23:58.215597+05:30
Ahmedabad,Gujarat,23.0225,72.5714,28.3,49,0.0,1003.5,7.95,30.2,77,28.1,16.1,4,5,4,1,2026-04-06T22:23:58.215604+05:30
Jaipur,Rajasthan,26.9124,75.7873,23.7,48,0.0,960.6,7.55,33.1,111,126.7,39.1,0,5,7,0,2026-04-06T22:23:58.215612+05:30
Lucknow,Uttar Pradesh,26.8467,80.9462,25.0,48,0.0,995.6,7.45,35.3,97,166.7,42.6,4,5,7,0,2026-04-06T22:23:58.215621+05:30
Kanpur,Uttar Pradesh,26.4499,80.3319,23.9,63,0.0,994.2,7.45,29.5,134,270.1,57.0,3,5,7,1,2026-04-06T22:23:58.215628+05:30
Chandigarh,Chandigarh,30.7333,76.7794,24.4,43,0.0,969.3,6.9,16.6,89,26.4,24.8,0,5,7,0,2026-04-06T22:23:58.215635+05:30
Srinagar,Jammu and Kashmir,34.0837,74.7973,9.8,84,0.0,837.9,7.9,16.2,92,47.4,43.9,3,10,7,0,2026-04-06T22:23:58.215642+05:30
Jammu,Jammu and Kashmir,32.7266,74.857,22.5,58,0.0,972.8,7.55,19.8,80,49.5,40.5,0,5,7,0,2026-04-06T22:23:58.215649+05:30
Amritsar,Punjab,31.634,74.8723,22.1,62,0.0,980.7,7.5,10.4,101,53.7,48.3,3,5,7,0,2026-04-06T22:23:58.215655+05:30
Ludhiana,Punjab,30.901,75.8573,24.5,47,0.0,979.0,7.1,16.6,102,51.0,47.4,0,5,7,0,2026-04-06T22:23:58.215662+05:30
Jalandhar,Punjab,31.326,75.5762,22.3,56,0.0,979.8,7.25,13.0,87,62.2,50.1,0,5,7,0,2026-04-06T22:23:58.215670+05:30
Dehradun,Uttarakhand,30.6284,78.0322,11.7,75,0.0,829.3,6.65,25.6,86,21.6,13.3,3,5,7,0,2026-04-06T22:23:58.215677+05:30
Shimla,Himachal Pradesh,31.1048,77.1734,10.5,67,0.0,782.6,6.25,27.7,88,16.9,13.5,3,5,7,0,2026-04-06T22:23:58.215684+05:30
Manali,Himachal Pradesh,32.2396,77.1887,11.7,81,0.0,817.3,9.45,28.1,121,15.1,12.4,3,10,7,0,2026-04-06T22:23:58.215690+05:30
Gurgaon,Haryana,28.4595,77.0266,22.9,54,0.0,982.6,7.0,25.9,597,368.8,82.0,0,5,7,0,2026-04-06T22:23:58.215697+05:30
Noida,Uttar Pradesh,28.5355,77.391,24.2,54,0.0,985.9,6.95,29.9,597,368.8,82.0,0,5,7,0,2026-04-06T22:23:58.215703+05:30
Ghaziabad,Uttar Pradesh,28.6692,77.4538,23.4,60,0.0,984.0,6.9,26.3,145,294.3,82.2,0,5,7,0,2026-04-06T22:23:58.215710+05:30
Faridabad,Haryana,28.4089,77.3178,24.7,47,0.0,985.2,6.95,27.4,597,368.8,82.0,0,5,7,0,2026-04-06T22:23:58.215736+05:30
Meerut,Uttar Pradesh,28.9845,77.7064,23.0,55,0.0,982.5,6.8,25.2,145,294.3,82.2,0,5,7,0,2026-04-06T22:23:58.215744+05:30
Agra,Uttar Pradesh,27.1767,78.0081,23.4,62,0.0,989.6,7.3,36.4,317,484.3,77.5,3,5,7,0,2026-04-06T22:23:58.215751+05:30
Varanasi,Uttar Pradesh,25.3176,82.9739,24.6,51,0.0,999.8,7.6,29.9,103,58.9,32.7,0,5,7,0,2026-04-06T22:23:58.215761+05:30
Prayagraj,Uttar Pradesh,25.4358,81.8463,25.9,50,0.0,998.1,7.75,28.1,110,72.4,36.3,4,5,7,0,2026-04-06T22:23:58.215769+05:30
Gorakhpur,Uttar Pradesh,26.7606,83.3732,25.1,46,0.0,999.3,7.8,27.4,107,45.9,26.0,4,5,7,0,2026-04-06T22:23:58.215775+05:30
Bareilly,Uttar Pradesh,28.367,79.4304,22.9,59,0.0,988.4,7.2,32.4,103,87.8,36.1,0,5,7,0,2026-04-06T22:23:58.215782+05:30
Aligarh,Uttar Pradesh,27.8974,78.088,22.5,60,0.0,987.0,7.1,24.1,330,501.1,88.9,0,5,7,0,2026-04-06T22:23:58.215791+05:30
Moradabad,Uttar Pradesh,28.8386,78.7733,23.6,55,0.0,985.1,7.0,30.6,106,96.2,59.5,0,5,7,0,2026-04-06T22:23:58.215798+05:30
Saharanpur,Uttar Pradesh,29.9637,77.546,23.8,49,0.0,976.6,6.6,23.4,95,139.7,50.9,0,5,7,0,2026-04-06T22:23:58.215804+05:30
Jhansi,Uttar Pradesh,25.4484,78.5685,22.1,65,0.0,979.7,7.85,21.6,94,69.6,26.3,3,5,7,0,2026-04-06T22:24:01.429332+05:30
Surat,Gujarat,21.1702,72.8311,26.7,75,0.0,1008.9,7.7,31.0,73,29.3,19.3,7,0,4,1,2026-04-06T22:24:01.429362+05:30
Vadodara,Gujarat,22.3072,73.1812,27.0,65,0.0,1005.8,7.95,32.0,101,23.7,18.5,7,5,4,1,2026-04-06T22:24:01.429373+05:30
Rajkot,Gujarat,22.3039,70.8022,26.0,62,0.0,996.5,7.65,39.6,90,31.8,16.2,7,5,7,1,2026-04-06T22:24:01.429382+05:30
Thane,Maharashtra,19.2183,72.9781,26.7,73,0.0,1010.9,7.95,37.4,81,28.6,14.9,7,0,4,1,2026-04-06T22:24:01.429391+05:30
Nagpur,Maharashtra,21.1458,79.0882,26.6,46,0.0,973.0,8.65,21.2,98,20.4,17.2,4,5,7,0,2026-04-06T22:24:01.429399+05:30
Nashik,Maharashtra,19.9975,73.7898,22.2,72,0.0,947.4,8.2,32.0,87,21.5,11.6,3,5,7,1,2026-04-06T22:24:01.429408+05:30
Aurangabad,Maharashtra,19.8762,75.3433,26.2,49,0.0,945.4,8.9,28.4,103,25.0,19.1,4,5,7,0,2026-04-06T22:24:01.429416+05:30
Solapur,Maharashtra,17.6599,75.9064,28.4,33,0.0,958.1,9.0,33.1,66,18.2,14.4,4,5,7,0,2026-04-06T22:24:01.429425+05:30
Kolhapur,Maharashtra,16.705,74.2433,20.3,84,0.0,950.1,9.0,40.7,64,18.5,15.6,3,5,7,1,2026-04-06T22:24:01.429433+05:30
Goa,Goa,15.2993,74.124,27.1,71,0.0,1001.0,9.0,38.9,64,24.9,16.2,7,5,4,1,2026-04-06T22:24:01.429441+05:30
Jodhpur,Rajasthan,26.2389,73.0243,24.8,39,0.0,982.9,7.8,38.5,88,178.3,27.8,0,5,7,0,2026-04-06T22:24:01.429449+05:30
Udaipur,Rajasthan,24.5854,73.7125,23.2,42,0.0,947.1,8.4,37.1,85,14.2,6.8,0,5,7,0,2026-04-06T22:24:01.429457+05:30
Kota,Rajasthan,25.2138,75.8648,28.3,32,0.0,979.1,7.85,28.8,88,89.4,40.5,4,5,7,0,2026-04-06T22:24:01.429465+05:30
Bikaner,Rajasthan,28.0229,73.3119,25.1,48,0.0,981.3,7.65,28.1,81,59.8,19.7,4,5,7,0,2026-04-06T22:24:01.429473+05:30
Ajmer,Rajasthan,26.4499,74.6399,25.3,39,0.0,954.8,7.8,34.2,77,44.9,21.2,4,5,7,0,2026-04-06T22:24:01.429480+05:30
Gwalior,Madhya Pradesh,26.2183,78.1828,23.3,63,0.0,985.3,7.6,27.0,80,145.3,33.5,3,5,7,0,2026-04-06T22:24:01.429488+05:30
Indore,Madhya Pradesh,22.7196,75.8577,24.2,42,0.0,948.8,8.3,26.3,102,32.8,29.1,0,5,7,0,2026-04-06T22:24:01.429496+05:30
Bhopal,Madhya Pradesh,23.2599,77.4126,25.3,35,0.0,953.8,8.3,28.8,89,33.4,20.1,4,5,7,0,2026-04-06T22:24:01.429504+05:30
Jabalpur,Madhya Pradesh,23.1815,79.9864,27.4,38,0.0,962.4,8.25,19.8,86,38.5,26.8,4,5,7,0,2026-04-06T22:24:01.429511+05:30
Ujjain,Madhya Pradesh,23.1765,75.7885,24.1,42,0.0,954.6,8.2,26.6,87,37.3,31.4,0,5,7,0,2026-04-06T22:24:01.429520+05:30
Visakhapatnam,Andhra Pradesh,17.6868,83.2185,27.4,86,0.0,1005.6,9.1,34.9,103,35.2,30.6,7,5,4,1,2026-04-06T22:24:01.429527+05:30
Vijayawada,Andhra Pradesh,16.5062,80.648,28.3,81,0.0,1003.7,9.15,31.0,72,23.6,21.7,7,5,4,1,2026-04-06T22:24:01.429535+05:30
Guntur,Andhra Pradesh,16.3067,80.4365,27.8,88,0.0,1004.8,9.2,31.7,88,26.4,24.3,7,5,4,1,2026-04-06T22:24:01.429543+05:30
Nellore,Andhra Pradesh,14.4426,79.9865,28.1,90,0.0,1006.7,8.65,27.7,113,22.2,18.4,7,5,4,1,2026-04-06T22:24:01.429552+05:30
Kurnool,Andhra Pradesh,15.8281,78.0373,31.1,28,0.0,977.1,9.2,36.7,98,22.9,18.3,0,5,7,0,2026-04-06T22:24:01.429560+05:30
Kakinada,Andhra Pradesh,16.9891,82.2475,27.1,88,0.0,1008.9,8.8,26.3,58,19.7,15.0,7,0,4,1,2026-04-06T22:24:01.429568+05:30
Tirupati,Andhra Pradesh,13.6288,79.4192,28.2,77,0.0,993.2,8.15,19.4,134,38.2,36.2,7,5,7,1,2026-04-06T22:24:01.429576+05:30
Warangal,Telangana,17.9689,79.5941,28.9,77,0.0,979.2,9.0,36.7,124,63.1,54.7,7,5,7,1,2026-04-06T22:24:01.429584+05:30
Nizamabad,Telangana,18.6725,78.0941,28.6,51,0.0,965.3,8.95,27.7,79,23.3,19.1,4,5,7,1,2026-04-06T22:24:01.429591+05:30
Mysore,Karnataka,12.2958,76.6396,24.4,79,0.0,930.4,9.55,37.8,77,20.3,17.6,3,5,7,1,2026-04-06T22:24:01.429599+05:30
Mangalore,Karnataka,12.9141,74.856,29.3,72,0.0,1009.5,9.2,37.4,60,30.2,15.8,7,0,4,1,2026-04-06T22:24:01.429607+05:30
Hubli-Dharwad,Karnataka,15.3647,75.124,22.6,72,0.0,942.9,9.2,35.3,50,20.2,12.9,3,5,7,1,2026-04-06T22:24:01.429614+05:30
Belgaum,Karnataka,15.8497,74.4977,20.3,82,0.0,927.4,9.25,36.4,58,19.3,15.1,3,5,7,1,2026-04-06T22:24:04.640449+05:30
Coimbatore,Tamil Nadu,11.0168,76.9558,25.7,75,0.0,963.9,9.4,49.0,70,25.4,21.1,7,5,7,1,2026-04-06T22:24:04.640483+05:30
Madurai,Tamil Nadu,9.9252,78.1198,29.4,76,0.0,995.3,3.35,24.5,101,28.2,26.1,7,5,3,1,2026-04-06T22:24:04.640496+05:30
Trichy,Tamil Nadu,10.7905,78.7047,29.5,80,0.0,1001.7,8.55,23.0,112,32.2,30.0,7,5,4,1,2026-04-06T22:24:04.640506+05:30
Salem,Tamil Nadu,11.6643,78.146,29.8,68,0.0,979.1,9.35,33.5,131,32.6,28.8,7,5,7,1,2026-04-06T22:24:04.640515+05:30
Tirunelveli,Tamil Nadu,8.7139,77.7567,28.8,75,0.0,1005.5,9.2,25.6,57,23.8,20.4,7,5,4,1,2026-04-06T22:24:04.640525+05:30
Vellore,Tamil Nadu,12.9165,79.1325,28.1,76,0.0,986.1,9.35,25.9,162,44.2,41.7,7,5,7,1,2026-04-06T22:24:04.640533+05:30
Erode,Tamil Nadu,11.341,77.7172,31.0,59,0.0,990.5,9.45,27.7,92,26.1,22.6,0,5,7,1,2026-04-06T22:24:04.640542+05:30
Kochi,Kerala,9.9312,76.2673,29.9,73,0.0,1011.4,8.6,36.7,70,33.9,22.9,7,0,4,1,2026-04-06T22:24:04.640551+05:30
Thiruvananthapuram,Kerala,8.5241,76.9366,30.0,75,0.0,1010.5,8.4,39.2,58,32.9,18.5,7,0,4,1,2026-04-06T22:24:04.640560+05:30
Kozhikode,Kerala,11.2588,75.7804,29.5,72,0.0,1010.5,9.2,38.5,61,30.7,16.3,7,0,4,1,2026-04-06T22:24:04.640568+05:30
Thrissur,Kerala,10.5276,76.2144,28.0,81,0.0,1009.8,9.2,41.0,71,30.0,19.6,7,0,4,1,2026-04-06T22:24:04.640577+05:30
Kannur,Kerala,11.8745,75.3704,28.5,76,0.0,1009.8,9.2,43.9,57,24.2,14.4,7,0,4,1,2026-04-06T22:24:04.640586+05:30
Patna,Bihar,25.5941,85.1376,26.2,57,0.0,1002.9,7.05,29.2,72,41.9,33.1,4,5,4,1,2026-04-06T22:24:04.640594+05:30
Gaya,Bihar,24.7914,85.0002,24.8,67,0.0,996.1,5.7,28.8,85,43.7,33.1,3,5,3,1,2026-04-06T22:24:04.640602+05:30
Muzaffarpur,Bihar,26.1209,85.3647,24.6,57,0.0,1002.9,7.65,43.6,73,40.3,30.7,0,5,4,0,2026-04-06T22:24:04.640611+05:30
Bhagalpur,Bihar,25.2425,87.0117,26.9,62,0.0,1003.3,7.15,40.7,79,30.2,26.0,7,5,4,1,2026-04-06T22:24:04.640619+05:30
Ranchi,Jharkhand,23.3441,85.3096,22.0,83,0.0,939.9,8.5,28.8,80,36.0,24.8,3,5,7,1,2026-04-06T22:24:04.640628+05:30
Jamshedpur,Jharkhand,22.8046,86.2029,24.0,82,0.0,993.8,8.65,25.6,116,45.5,40.5,3,5,7,1,2026-04-06T22:24:04.640636+05:30
Dhanbad,Jharkhand,23.7957,86.4304,25.0,69,0.0,982.4,7.85,22.0,119,70.5,60.3,7,5,7,1,2026-04-06T22:24:04.640645+05:30
Bokaro,Jharkhand,23.6693,86.1511,24.0,74,0.0,986.7,7.9,21.2,103,65.4,53.4,3,5,7,1,2026-04-06T22:24:04.640653+05:30
Bhubaneswar,Odisha,20.2961,85.8245,25.4,92,0.0,1005.9,8.95,27.0,68,35.5,32.4,7,5,4,1,2026-04-06T22:24:04.640661+05:30
Cuttack,Odisha,20.4625,85.8828,24.9,89,0.0,1007.7,8.95,29.5,68,35.5,32.4,3,5,4,1,2026-04-06T22:24:04.640670+05:30
Rourkela,Odisha,22.2604,84.8536,23.4,84,0.0,987.9,8.35,29.5,133,42.8,37.4,3,5,7,1,2026-04-06T22:24:04.640678+05:30
Raipur,Chhattisgarh,21.2514,81.6296,28.5,59,0.0,975.4,8.8,26.6,131,55.3,48.9,4,5,7,1,2026-04-06T22:24:04.640686+05:30
Bhilai,Chhattisgarh,21.1938,81.3509,29.1,52,0.0,975.6,8.7,25.6,123,38.3,34.1,4,5,7,1,2026-04-06T22:24:04.640694+05:30
Guwahati,Assam,26.1158,91.7086,26.1,74,0.0,1002.9,8.25,34.9,91,47.5,44.5,7,5,4,1,2026-04-06T22:24:04.640702+05:30
Agartala,Tripura,23.8315,91.2868,27.0,77,0.0,1007.4,8.5,19.4,174,113.4,107.1,7,5,4,1,2026-04-06T22:24:04.640710+05:30
Shillong,Meghalaya,25.5788,91.8933,14.1,83,0.0,857.3,7.85,71.6,104,50.3,46.8,3,10,7,0,2026-04-06T22:24:04.640718+05:30
Imphal,Manipur,24.817,93.9368,18.6,74,0.0,925.0,8.85,53.3,124,53.0,47.8,3,5,7,0,2026-04-06T22:24:04.640756+05:30
Aizawl,Mizoram,23.7271,92.7176,19.2,78,0.0,894.0,8.75,35.3,133,60.1,52.7,3,5,7,0,2026-04-06T22:24:04.640765+05:30
Kohima,Nagaland,25.6701,94.1077,16.7,66,0.0,856.4,8.75,81.4,88,40.2,34.7,3,5,7,0,2026-04-06T22:24:04.640773+05:30
Gangtok,Sikkim,27.3314,88.6138,13.0,75,0.0,838.3,8.5,21.6,83,28.4,24.4,3,5,7,0,2026-04-06T22:24:04.640781+05:30
Siliguri,West Bengal,26.7271,88.3953,22.1,65,0.0,996.8,8.05,19.8,79,44.1,38.5,3,5,7,0,2026-04-06T22:24:07.859042+05:30
Durgapur,West Bengal,23.5204,87.3119,25.7,76,0.0,997.4,8.45,25.9,124,61.0,52.9,7,5,7,1,2026-04-06T22:24:07.859070+05:30
Asansol,West Bengal,23.6739,86.9524,26.2,74,0.0,995.9,7.6,23.4,117,61.7,51.9,7,5,7,1,2026-04-06T22:24:07.859080+05:30
Pondicherry,Puducherry,11.9139,79.8145,28.0,89,0.0,1009.9,8.4,25.6,94,23.9,18.4,7,0,4,1,2026-04-06T22:24:07.859088+05:30
Port Blair,Andaman and Nicobar Islands,11.6234,92.7265,29.1,69,0.0,1009.9,9.2,19.4,28,9.5,6.1,7,0,4,1,2026-04-06T22:24:07.859095+05:30
Haridwar,Uttarakhand,29.9457,78.1642,21.2,62,0.0,975.5,6.75,25.9,90,39.1,27.5,3,5,7,0,2026-04-06T22:24:07.859103+05:30
Rishikesh,Uttarakhand,30.0869,78.2676,20.3,60,0.0,968.5,6.8,26.3,94,30.2,20.0,0,5,7,0,2026-04-06T22:24:07.859112+05:30
Nainital,Uttarakhand,29.3919,79.4542,15.7,54,0.0,806.1,5.85,38.5,95,29.8,20.9,0,5,3,0,2026-04-06T22:24:07.859122+05:30
Mussoorie,Uttarakhand,30.4599,78.0664,13.6,61,0.0,802.0,6.45,27.7,92,33.1,23.6,3,5,7,0,2026-04-06T22:24:07.859129+05:30
Dharamshala,Himachal Pradesh,32.219,76.3234,16.8,56,0.0,868.3,7.45,22.3,82,13.3,11.3,0,5,7,0,2026-04-06T22:24:07.859135+05:30
Dalhousie,Himachal Pradesh,32.5387,75.971,13.2,66,0.0,801.7,6.95,19.8,74,34.1,30.5,3,5,7,0,2026-04-06T22:24:07.859142+05:30
Patiala,Punjab,30.3398,76.3869,24.2,45,0.0,978.7,6.8,16.6,106,105.5,40.6,0,5,7,0,2026-04-06T22:24:07.859149+05:30
Bhatinda,Punjab,30.211,74.9455,22.8,56,0.0,983.9,7.45,20.9,91,40.7,35.3,0,5,7,0,2026-04-06T22:24:07.859155+05:30
Rohtak,Haryana,28.8955,76.6066,21.7,59,0.0,983.0,6.95,25.6,309,239.3,70.5,0,5,7,0,2026-04-06T22:24:07.859162+05:30
Panipat,Haryana,29.3909,76.9635,22.3,52,0.0,981.1,6.75,26.6,398,398.6,81.7,0,5,7,0,2026-04-06T22:24:07.859169+05:30
Mathura,Uttar Pradesh,27.4924,77.6737,22.8,58,0.0,988.3,7.25,27.7,396,264.5,56.1,0,5,7,0,2026-04-06T22:24:07.859175+05:30
Vrindavan,Uttar Pradesh,27.5823,77.7027,22.3,61,0.0,988.8,7.2,30.2,396,264.5,56.1,3,5,7,0,2026-04-06T22:24:07.859182+05:30
Ayodhya,Uttar Pradesh,26.7922,82.1998,25.0,43,0.0,997.1,7.6,30.2,101,69.4,25.8,4,5,7,0,2026-04-06T22:24:07.859189+05:30
Ratlam,Madhya Pradesh,23.3315,75.0367,25.1,51,0.0,955.3,8.15,33.8,88,17.8,13.3,4,5,7,0,2026-04-06T22:24:07.859195+05:30
Sagar,Madhya Pradesh,23.8388,78.7378,25.4,45,0.0,950.9,8.3,19.1,82,21.1,11.1,4,5,7,0,2026-04-06T22:24:07.859202+05:30
Satna,Madhya Pradesh,24.6005,80.8322,25.9,43,0.0,973.2,8.0,25.2,92,71.0,23.3,4,5,7,0,2026-04-06T22:24:07.859209+05:30
Akola,Maharashtra,20.7002,77.0082,28.4,37,0.0,975.9,8.65,28.1,112,24.6,19.9,4,5,7,0,2026-04-06T22:24:07.859216+05:30
Amravati,Maharashtra,20.9374,77.7796,27.9,43,0.0,967.8,8.7,27.4,115,20.8,17.0,4,5,7,0,2026-04-06T22:24:07.859223+05:30
Latur,Maharashtra,18.4088,76.5604,25.2,44,0.0,940.6,9.0,28.8,61,25.6,21.8,4,5,7,0,2026-04-06T22:24:07.859230+05:30
Nanded,Maharashtra,19.1383,77.3091,27.0,45,0.0,969.2,8.9,23.4,84,22.2,18.6,4,5,7,0,2026-04-06T22:24:07.859236+05:30
Gulbarga,Karnataka,17.3297,76.8343,30.0,26,0.0,959.6,9.05,32.0,54,27.1,19.0,4,5,7,0,2026-04-06T22:24:07.859243+05:30
Bidar,Karnataka,17.9104,77.5199,28.2,28,0.0,936.4,9.05,28.1,70,32.1,26.0,4,5,7,0,2026-04-06T22:24:07.859249+05:30
Hospet,Karnataka,15.2689,76.3909,29.2,45,0.0,957.4,9.25,29.5,77,11.6,8.7,4,5,7,0,2026-04-06T22:24:07.859256+05:30
Tirupur,Tamil Nadu,11.1085,77.3411,28.2,65,0.0,976.9,9.15,40.0,73,25.0,22.1,7,5,7,1,2026-04-06T22:24:07.859262+05:30
Alappuzha,Kerala,9.4981,76.3388,29.9,75,0.0,1011.5,9.2,33.8,69,37.0,23.5,7,0,4,1,2026-04-06T22:24:07.859269+05:30
Munnar,Kerala,10.0889,77.0595,21.1,97,0.0,859.4,8.45,33.5,60,26.3,22.2,3,5,7,1,2026-04-06T22:24:07.859276+05:30
Silchar,Assam,24.8333,92.7789,25.6,81,0.0,1006.6,8.5,19.1,154,91.5,82.9,7,5,4,1,2026-04-06T22:24:07.859282+05:30
Dibrugarh,Assam,27.4728,94.912,23.9,80,0.0,996.6,8.3,38.2,96,27.0,24.9,3,5,7,1,2026-04-06T22:24:07.859289+05:30
