city,state,latitude,longitude,temp,humidity,rain,pressure,uv_index,wind_gusts,aqi,pm10,pm2_5,no2,co,o3,so2,mosquito_risk,arthritis_risk,migraine_risk,frizz_risk,updated_at
Delhi,Delhi,28.6139,77.209,37.2,28,0.0,976.3,7.75,30.6,519,612.8,109.2,14.7,214.0,106.0,11.5,0,5,10,0,2026-06-21T18:38:49.400426+05:30
Mumbai,Maharashtra,19.076,72.8777,30.7,63,0.0,1005.0,7.7,37.8,50,16.6,11.2,6.9,142.0,62.0,6.0,3,5,4,1,2026-06-21T18:38:49.400460+05:30
Bangalore,Karnataka,12.9716,77.5946,23.8,83,0.1,911.3,7.55,32.0,62,11.7,10.1,13.8,466.0,65.0,4.6,6,5,7,1,2026-06-21T18:38:49.400475+05:30
Hyderabad,Telangana,17.385,78.4867,30.3,57,0.0,951.2,9.0,31.3,69,25.3,19.6,13.9,369.0,77.0,5.6,0,5,7,1,2026-06-21T18:38:49.400485+05:30
Chennai,Tamil Nadu,13.0827,80.2707,28.5,87,0.1,1005.9,7.15,32.8,90,30.4,23.2,13.7,234.0,102.0,9.8,10,5,4,1,2026-06-21T18:38:49.400493+05:30
Kolkata,West Bengal,22.5726,88.3639,29.2,89,0.1,1001.3,6.5,28.4,108,39.0,36.8,9.7,361.0,107.0,10.7,10,5,4,1,2026-06-21T18:38:49.400500+05:30
Pune,Maharashtra,18.5204,73.8567,28.5,64,0.1,945.1,8.25,51.5,45,12.0,8.7,5.1,131.0,70.0,5.2,10,5,7,1,2026-06-21T18:38:49.400507+05:30
Ahmedabad,Gujarat,23.0225,72.5714,35.6,43,0.1,996.0,8.05,37.1,74,73.1,24.7,5.2,139.0,77.0,3.7,3,5,10,1,2026-06-21T18:38:49.400514+05:30
Jaipur,Rajasthan,26.9124,75.7873,29.3,64,0.1,954.9,7.45,41.8,112,194.6,54.6,5.9,177.0,78.0,3.7,10,5,7,1,2026-06-21T18:38:49.400520+05:30
Lucknow,Uttar Pradesh,26.8467,80.9462,37.8,32,0.0,986.0,8.2,39.2,268,354.8,76.6,4.0,155.0,101.0,3.7,0,5,10,1,2026-06-21T18:38:49.400531+05:30
Kanpur,Uttar Pradesh,26.4499,80.3319,38.3,30,0.0,984.4,8.3,44.6,424,353.0,62.2,3.5,150.0,95.0,3.2,0,5,10,1,2026-06-21T18:38:49.400537+05:30
Chandigarh,Chandigarh,30.7333,76.7794,33.5,37,0.0,962.4,7.8,39.6,154,25.3,21.4,7.0,385.0,136.0,7.5,0,5,7,1,2026-06-21T18:38:49.400544+05:30
Srinagar,Jammu and Kashmir,34.0837,74.7973,22.9,55,0.0,840.6,8.95,27.4,101,14.4,11.4,7.1,410.0,114.0,2.1,0,5,7,0,2026-06-21T18:38:49.400551+05:30
Jammu,Jammu and Kashmir,32.7266,74.857,35.7,22,0.0,966.5,8.6,36.7,122,21.5,13.4,8.3,259.0,126.0,2.7,0,5,10,0,2026-06-21T18:38:49.400560+05:30
Amritsar,Punjab,31.634,74.8723,33.3,55,0.0,973.9,8.45,25.2,134,64.3,38.1,10.1,391.0,133.0,8.8,0,5,7,1,2026-06-21T18:38:49.400568+05:30
Ludhiana,Punjab,30.901,75.8573,36.0,32,0.0,972.2,8.05,39.2,143,94.5,39.9,6.5,335.0,117.0,4.1,0,5,10,1,2026-06-21T18:38:49.400574+05:30
Jalandhar,Punjab,31.326,75.5762,35.4,34,0.0,973.3,8.2,33.1,144,88.5,38.6,7.3,404.0,124.0,5.1,0,5,10,1,2026-06-21T18:38:49.400580+05:30
Dehradun,Uttarakhand,30.6284,78.0322,22.2,62,0.0,828.3,8.25,32.0,117,24.1,18.6,4.3,274.0,138.0,3.1,3,5,7,0,2026-06-21T18:38:49.400586+05:30
Shimla,Himachal Pradesh,31.1048,77.1734,19.5,50,0.0,783.4,8.35,45.0,102,16.2,11.3,2.9,253.0,130.0,3.2,0,5,7,0,2026-06-21T18:38:49.400592+05:30
Manali,Himachal Pradesh,32.2396,77.1887,20.6,66,0.0,817.5,9.75,37.1,133,16.7,12.3,23.6,156.0,127.0,0.5,3,5,7,0,2026-06-21T18:38:49.400600+05:30
Gurgaon,Haryana,28.4595,77.0266,35.8,33,0.0,974.9,7.85,29.5,1242,784.2,124.8,15.4,289.0,98.0,9.7,0,5,10,1,2026-06-21T18:38:49.400607+05:30
Noida,Uttar Pradesh,28.5355,77.391,35.1,38,0.0,977.3,7.8,25.2,1242,784.2,124.8,15.4,280.0,98.0,9.7,0,5,10,1,2026-06-21T18:38:49.400613+05:30
Ghaziabad,Uttar Pradesh,28.6692,77.4538,34.9,49,0.0,975.7,7.8,27.7,426,614.7,119.7,13.9,241.0,125.0,15.2,0,5,7,1,2026-06-21T18:38:49.400619+05:30
Faridabad,Haryana,28.4089,77.3178,36.1,33,0.0,976.9,7.85,30.6,1242,784.2,124.8,15.4,252.0,98.0,9.7,0,5,10,1,2026-06-21T18:38:49.400624+05:30
Meerut,Uttar Pradesh,28.9845,77.7064,34.0,51,0.0,974.3,7.7,34.6,426,614.7,119.7,13.9,257.0,125.0,15.2,0,5,7,1,2026-06-21T18:38:49.400630+05:30
Agra,Uttar Pradesh,27.1767,78.0081,34.6,39,0.0,981.6,8.15,37.8,952,217.5,50.4,8.2,177.0,90.0,4.2,0,5,7,1,2026-06-21T18:38:49.400636+05:30
Varanasi,Uttar Pradesh,25.3176,82.9739,37.5,38,0.0,990.5,8.75,40.3,113,86.8,42.7,7.1,203.0,100.0,6.6,0,5,10,1,2026-06-21T18:38:49.400643+05:30
Prayagraj,Uttar Pradesh,25.4358,81.8463,37.9,35,0.0,988.9,8.7,41.0,122,109.2,44.8,4.8,171.0,97.0,5.5,0,5,10,1,2026-06-21T18:38:49.400649+05:30
Gorakhpur,Uttar Pradesh,26.7606,83.3732,34.7,52,0.0,989.5,8.65,37.1,160,167.6,75.2,8.9,234.0,113.0,9.3,0,5,7,1,2026-06-21T18:38:49.400655+05:30
Bareilly,Uttar Pradesh,28.367,79.4304,34.3,43,0.0,979.6,8.1,40.0,173,124.8,61.7,5.3,269.0,160.0,10.0,0,5,7,1,2026-06-21T18:38:49.400663+05:30
Aligarh,Uttar Pradesh,27.8974,78.088,33.5,46,0.0,979.1,8.0,37.1,806,337.1,85.2,8.2,185.0,120.0,8.8,0,5,7,1,2026-06-21T18:38:49.400670+05:30
Moradabad,Uttar Pradesh,28.8386,78.7733,33.4,52,0.0,976.5,7.95,39.2,172,240.3,78.2,8.7,300.0,144.0,10.3,0,5,7,1,2026-06-21T18:38:49.400676+05:30
Saharanpur,Uttar Pradesh,29.9637,77.546,33.0,44,0.0,968.6,7.45,36.4,170,231.0,56.9,6.9,316.0,139.0,9.8,0,5,7,1,2026-06-21T18:38:49.400681+05:30
Jhansi,Uttar Pradesh,25.4484,78.5685,34.6,43,0.0,972.3,8.3,42.1,97,93.4,34.5,2.5,131.0,79.0,2.3,0,5,7,1,2026-06-21T18:38:52.737663+05:30
Surat,Gujarat,21.1702,72.8311,31.4,64,0.0,1002.3,7.6,42.8,58,24.7,15.6,13.3,205.0,37.0,28.7,3,5,4,1,2026-06-21T18:38:52.737686+05:30
Vadodara,Gujarat,22.3072,73.1812,35.8,41,0.0,998.5,8.0,43.9,57,22.0,13.3,6.0,120.0,73.0,6.7,0,5,10,1,2026-06-21T18:38:52.737696+05:30
Rajkot,Gujarat,22.3039,70.8022,33.8,53,0.0,988.5,7.5,40.3,68,76.1,25.4,1.9,108.0,76.0,3.2,0,5,7,1,2026-06-21T18:38:52.737703+05:30
Thane,Maharashtra,19.2183,72.9781,31.8,56,0.0,1004.3,7.7,37.4,50,16.6,11.2,6.9,138.0,62.0,6.0,0,5,4,1,2026-06-21T18:38:52.737710+05:30
Nagpur,Maharashtra,21.1458,79.0882,28.8,73,0.1,969.6,8.85,40.7,74,31.1,17.9,6.4,139.0,99.0,13.2,10,5,7,1,2026-06-21T18:38:52.737716+05:30
Nashik,Maharashtra,19.9975,73.7898,29.2,58,0.0,942.5,7.95,39.2,32,12.0,7.9,2.2,100.0,64.0,1.4,4,5,7,1,2026-06-21T18:38:52.737723+05:30
Aurangabad,Maharashtra,19.8762,75.3433,34.9,31,0.0,940.4,8.95,47.9,40,14.8,10.3,2.5,160.0,78.0,3.6,0,5,7,0,2026-06-21T18:38:52.737730+05:30
Solapur,Maharashtra,17.6599,75.9064,34.1,38,0.0,954.1,8.9,39.2,53,14.2,9.1,2.2,126.0,91.0,1.9,0,5,7,1,2026-06-21T18:38:52.737737+05:30
Kolhapur,Maharashtra,16.705,74.2433,27.2,76,0.1,945.5,8.05,40.3,37,4.8,4.2,4.0,149.0,64.0,1.9,10,5,7,1,2026-06-21T18:38:52.737743+05:30
Goa,Goa,15.2993,74.124,28.0,87,0.0,995.7,7.65,36.0,29,5.1,3.6,1.5,139.0,47.0,0.9,7,5,7,1,2026-06-21T18:38:52.737749+05:30
Jodhpur,Rajasthan,26.2389,73.0243,36.7,34,0.0,976.8,8.35,43.2,143,312.9,55.6,2.3,121.0,74.0,1.3,0,5,10,1,2026-06-21T18:38:52.737755+05:30
Udaipur,Rajasthan,24.5854,73.7125,32.0,44,0.0,942.2,8.8,41.4,74,51.9,20.5,1.9,118.0,76.0,1.9,0,5,7,1,2026-06-21T18:38:52.737762+05:30
Kota,Rajasthan,25.2138,75.8648,33.7,52,0.0,973.4,8.35,42.8,97,60.5,27.7,3.8,148.0,82.0,4.1,0,5,7,1,2026-06-21T18:38:52.737768+05:30
Bikaner,Rajasthan,28.0229,73.3119,36.1,36,0.0,975.7,8.45,37.8,152,160.7,47.1,1.5,142.0,78.0,1.5,0,5,10,1,2026-06-21T18:38:52.737774+05:30
Ajmer,Rajasthan,26.4499,74.6399,32.6,46,0.0,949.7,8.25,48.2,91,88.7,31.0,2.8,136.0,76.0,2.5,0,5,7,1,2026-06-21T18:38:52.737780+05:30
Gwalior,Madhya Pradesh,26.2183,78.1828,35.9,32,0.0,977.1,8.15,46.4,103,88.9,32.5,2.5,128.0,82.0,2.0,0,5,10,1,2026-06-21T18:38:52.737786+05:30
Indore,Madhya Pradesh,22.7196,75.8577,31.0,53,0.1,944.3,8.5,37.1,77,47.6,23.8,4.9,178.0,82.0,3.4,3,5,7,1,2026-06-21T18:38:52.737792+05:30
Bhopal,Madhya Pradesh,23.2599,77.4126,30.1,65,0.0,949.6,8.0,37.4,79,66.1,32.8,4.7,239.0,84.0,3.2,3,5,7,1,2026-06-21T18:38:52.737798+05:30
Jabalpur,Madhya Pradesh,23.1815,79.9864,32.8,47,0.0,957.5,8.3,37.4,76,26.9,18.7,5.3,187.0,82.0,2.5,0,5,7,1,2026-06-21T18:38:52.737804+05:30
Ujjain,Madhya Pradesh,23.1765,75.7885,32.6,44,0.0,949.8,7.8,40.3,76,46.6,22.4,2.3,158.0,84.0,3.7,0,5,7,1,2026-06-21T18:38:52.737810+05:30
Visakhapatnam,Andhra Pradesh,17.6868,83.2185,28.8,86,0.0,1000.3,4.75,39.2,76,23.6,21.9,23.4,281.0,85.0,38.7,7,5,0,1,2026-06-21T18:38:52.737817+05:30
Vijayawada,Andhra Pradesh,16.5062,80.648,27.9,83,0.0,1000.0,6.8,40.3,86,24.0,21.7,10.0,232.0,83.0,6.1,7,5,4,1,2026-06-21T18:38:52.737823+05:30
Guntur,Andhra Pradesh,16.3067,80.4365,29.5,72,0.0,1001.5,5.55,22.0,87,19.6,17.8,10.2,204.0,77.0,5.5,7,5,0,1,2026-06-21T18:38:52.737830+05:30
Nellore,Andhra Pradesh,14.4426,79.9865,30.9,69,0.0,1003.8,4.55,32.8,85,32.4,24.4,3.4,232.0,131.0,6.4,3,5,0,1,2026-06-21T18:38:52.737837+05:30
Kurnool,Andhra Pradesh,15.8281,78.0373,31.9,52,0.0,974.4,8.05,45.0,72,22.9,16.8,3.5,170.0,114.0,6.5,0,5,7,1,2026-06-21T18:38:52.737844+05:30
Kakinada,Andhra Pradesh,16.9891,82.2475,30.0,78,0.0,1004.4,2.85,42.8,72,24.3,21.8,7.4,244.0,111.0,6.7,7,5,0,1,2026-06-21T18:38:52.737850+05:30
Tirupati,Andhra Pradesh,13.6288,79.4192,29.5,70,0.0,990.1,7.9,22.3,75,27.9,22.9,11.7,234.0,84.0,2.9,7,5,7,1,2026-06-21T18:38:52.737856+05:30
Warangal,Telangana,17.9689,79.5941,30.4,60,0.0,976.0,7.8,34.2,79,28.3,23.2,6.8,195.0,93.0,4.6,0,5,7,1,2026-06-21T18:38:52.737862+05:30
Nizamabad,Telangana,18.6725,78.0941,31.5,55,0.0,961.9,8.7,36.0,62,21.4,17.9,4.1,157.0,102.0,3.3,0,5,7,1,2026-06-21T18:38:52.737868+05:30
Mysore,Karnataka,12.2958,76.6396,22.8,90,0.0,928.0,8.4,43.6,34,5.9,5.4,7.2,174.0,56.0,1.9,3,5,7,1,2026-06-21T18:38:52.737874+05:30
Mangalore,Karnataka,12.9141,74.856,26.0,93,0.0,1006.5,7.85,34.2,27,7.5,5.0,2.7,181.0,50.0,1.5,7,5,4,1,2026-06-21T18:38:52.737880+05:30
Hubli-Dharwad,Karnataka,15.3647,75.124,26.0,78,0.0,939.3,7.55,43.9,28,3.6,2.9,3.1,121.0,48.0,0.8,7,5,7,1,2026-06-21T18:38:52.737886+05:30
Belgaum,Karnataka,15.8497,74.4977,24.5,88,0.1,923.7,8.85,37.4,32,4.7,3.9,4.1,124.0,48.0,1.7,6,5,7,1,2026-06-21T18:38:56.080016+05:30
Coimbatore,Tamil Nadu,11.0168,76.9558,25.6,83,0.0,961.0,8.2,45.4,31,4.0,3.7,5.4,135.0,52.0,2.2,7,5,7,1,2026-06-21T18:38:56.080040+05:30
Madurai,Tamil Nadu,9.9252,78.1198,31.1,55,0.0,991.7,8.15,35.6,70,18.1,14.6,13.3,253.0,68.0,3.7,0,5,7,1,2026-06-21T18:38:56.080050+05:30
Trichy,Tamil Nadu,10.7905,78.7047,31.1,66,0.0,998.3,8.25,29.2,60,17.9,14.6,6.8,166.0,93.0,2.9,3,5,7,1,2026-06-21T18:38:56.080058+05:30
Salem,Tamil Nadu,11.6643,78.146,30.5,57,0.0,976.1,7.85,22.3,69,10.9,9.4,7.9,157.0,88.0,6.6,0,5,7,1,2026-06-21T18:38:56.080064+05:30
Tirunelveli,Tamil Nadu,8.7139,77.7567,29.2,78,0.0,1002.5,8.55,30.6,34,7.5,6.1,3.5,143.0,59.0,1.2,7,5,4,1,2026-06-21T18:38:56.080070+05:30
Vellore,Tamil Nadu,12.9165,79.1325,28.4,75,0.0,983.8,6.05,28.1,88,29.5,22.4,9.8,297.0,102.0,4.0,7,5,7,1,2026-06-21T18:38:56.080076+05:30
Erode,Tamil Nadu,11.341,77.7172,31.0,58,0.0,987.7,8.7,45.4,51,8.4,7.3,6.6,158.0,74.0,2.3,0,5,7,1,2026-06-21T18:38:56.080083+05:30
Kochi,Kerala,9.9312,76.2673,25.9,90,0.3,1009.3,8.3,29.5,50,10.2,7.8,6.0,115.0,45.0,2.8,10,0,4,1,2026-06-21T18:38:56.080089+05:30
Thiruvananthapuram,Kerala,8.5241,76.9366,24.8,96,0.2,1009.4,8.0,31.7,31,9.0,5.2,1.7,129.0,56.0,0.7,6,0,4,1,2026-06-21T18:38:56.080095+05:30
Kozhikode,Kerala,11.2588,75.7804,25.3,98,0.1,1008.5,8.15,27.0,27,6.6,4.0,0.9,195.0,57.0,0.7,10,0,4,1,2026-06-21T18:38:56.080102+05:30
Thrissur,Kerala,10.5276,76.2144,25.5,96,0.0,1007.7,7.95,32.0,47,10.4,9.0,5.9,164.0,39.0,1.9,7,5,4,1,2026-06-21T18:38:56.080109+05:30
Kannur,Kerala,11.8745,75.3704,25.9,97,0.1,1007.3,8.35,30.6,24,6.7,4.8,5.4,163.0,41.0,1.3,10,5,4,1,2026-06-21T18:38:56.080116+05:30
Patna,Bihar,25.5941,85.1376,34.6,59,0.0,993.3,8.6,31.7,158,188.1,78.5,15.7,276.0,112.0,11.7,0,5,7,1,2026-06-21T18:38:56.080122+05:30
Gaya,Bihar,24.7914,85.0002,34.4,51,0.0,987.5,8.6,37.4,135,137.4,56.6,8.0,230.0,109.0,6.7,0,5,7,1,2026-06-21T18:38:56.080128+05:30
Muzaffarpur,Bihar,26.1209,85.3647,33.3,67,0.0,993.1,8.45,39.6,171,137.8,68.7,13.8,331.0,123.0,11.7,3,5,7,1,2026-06-21T18:38:56.080134+05:30
Bhagalpur,Bihar,25.2425,87.0117,31.0,78,0.0,994.9,8.4,28.8,141,99.0,44.9,8.0,281.0,129.0,12.2,3,5,7,1,2026-06-21T18:38:56.080140+05:30
Ranchi,Jharkhand,23.3441,85.3096,28.4,74,0.0,934.4,6.9,31.0,130,38.1,36.6,6.2,223.0,142.0,8.6,7,5,7,1,2026-06-21T18:38:56.080146+05:30
Jamshedpur,Jharkhand,22.8046,86.2029,31.8,74,0.0,986.3,8.6,27.0,170,47.6,44.5,11.3,506.0,149.0,21.5,3,5,7,1,2026-06-21T18:38:56.080152+05:30
Dhanbad,Jharkhand,23.7957,86.4304,30.7,77,0.0,975.1,5.9,33.8,173,52.0,49.6,28.8,265.0,133.0,78.0,3,5,3,1,2026-06-21T18:38:56.080158+05:30
Bokaro,Jharkhand,23.6693,86.1511,31.2,80,0.0,979.0,6.05,36.7,142,46.3,40.9,20.5,185.0,125.0,54.1,3,5,7,1,2026-06-21T18:38:56.080164+05:30
Bhubaneswar,Odisha,20.2961,85.8245,27.6,96,0.1,999.4,8.4,32.4,138,50.5,46.1,14.2,376.0,118.0,10.2,10,5,7,1,2026-06-21T18:38:56.080170+05:30
Cuttack,Odisha,20.4625,85.8828,28.0,91,0.0,1001.2,8.5,22.7,138,50.5,46.1,14.2,427.0,118.0,10.2,7,5,4,1,2026-06-21T18:38:56.080176+05:30
Rourkela,Odisha,22.2604,84.8536,31.1,69,0.0,980.7,8.7,53.6,173,44.7,39.5,6.2,300.0,174.0,14.7,3,5,7,1,2026-06-21T18:38:56.080182+05:30
Raipur,Chhattisgarh,21.2514,81.6296,34.3,41,0.0,970.4,8.85,44.6,101,32.0,24.1,11.3,157.0,114.0,25.0,0,5,7,1,2026-06-21T18:38:56.080188+05:30
Bhilai,Chhattisgarh,21.1938,81.3509,32.0,49,0.0,970.8,8.9,49.3,88,32.1,24.2,10.0,313.0,110.0,20.9,0,5,7,1,2026-06-21T18:38:56.080194+05:30
Guwahati,Assam,26.1158,91.7086,26.1,98,0.0,997.6,7.95,25.6,95,13.4,12.0,5.6,321.0,87.0,2.8,7,5,7,1,2026-06-21T18:38:56.080200+05:30
Agartala,Tripura,23.8315,91.2868,28.0,90,0.0,1002.7,8.45,40.0,63,18.8,17.0,9.0,204.0,74.0,2.7,7,5,4,1,2026-06-21T18:38:56.080206+05:30
Shillong,Meghalaya,25.5788,91.8933,20.2,96,0.0,855.1,6.35,37.8,43,3.5,3.2,5.8,228.0,85.0,1.6,3,5,7,1,2026-06-21T18:38:56.080212+05:30
Imphal,Manipur,24.817,93.9368,25.7,77,0.0,920.7,8.8,27.4,74,18.1,16.0,6.2,311.0,66.0,2.0,7,5,7,1,2026-06-21T18:38:56.080218+05:30
Aizawl,Mizoram,23.7271,92.7176,21.3,99,0.1,890.3,9.0,32.0,38,8.0,7.0,3.1,171.0,63.0,0.8,6,5,7,1,2026-06-21T18:38:56.080224+05:30
Kohima,Nagaland,25.6701,94.1077,20.3,98,0.1,853.5,7.95,24.1,52,12.4,10.6,4.7,266.0,69.0,1.2,6,5,7,1,2026-06-21T18:38:56.080230+05:30
Gangtok,Sikkim,27.3314,88.6138,18.4,98,0.3,834.5,8.25,29.2,90,3.9,3.6,5.4,364.0,117.0,2.1,6,10,7,1,2026-06-21T18:38:56.080237+05:30
Siliguri,West Bengal,26.7271,88.3953,25.0,94,0.1,988.6,7.75,29.2,88,15.5,13.7,9.4,580.0,95.0,4.3,10,5,7,1,2026-06-21T18:38:59.424196+05:30
Durgapur,West Bengal,23.5204,87.3119,29.6,93,0.2,990.5,8.75,34.2,153,60.8,58.8,25.4,734.0,131.0,51.3,10,5,7,1,2026-06-21T18:38:59.424225+05:30
Asansol,West Bengal,23.6739,86.9524,29.8,85,0.0,988.8,8.05,40.7,168,55.5,53.4,24.3,446.0,136.0,51.7,7,5,7,1,2026-06-21T18:38:59.424236+05:30
Pondicherry,Puducherry,11.9139,79.8145,29.7,84,0.0,1006.9,8.05,37.1,67,24.6,17.1,5.0,181.0,103.0,3.5,7,5,4,1,2026-06-21T18:38:59.424245+05:30
Port Blair,Andaman and Nicobar Islands,11.6234,92.7265,26.8,84,0.1,1009.3,7.95,33.8,56,12.7,6.1,0.4,102.0,43.0,0.4,10,0,4,1,2026-06-21T18:38:59.424253+05:30
Haridwar,Uttarakhand,29.9457,78.1642,33.2,54,0.0,966.7,7.6,29.9,171,91.0,32.1,4.5,307.0,154.0,9.3,0,5,7,1,2026-06-21T18:38:59.424260+05:30
Rishikesh,Uttarakhand,30.0869,78.2676,31.9,62,0.0,959.7,7.7,23.0,153,33.9,22.7,3.1,319.0,165.0,8.1,3,5,7,1,2026-06-21T18:38:59.424267+05:30
Nainital,Uttarakhand,29.3919,79.4542,20.1,71,0.0,803.7,8.6,31.0,146,58.7,34.5,3.4,285.0,151.0,6.3,3,5,7,0,2026-06-21T18:38:59.424274+05:30
Mussoorie,Uttarakhand,30.4599,78.0664,19.9,63,0.0,801.2,8.15,42.8,157,29.5,19.7,4.7,312.0,153.0,6.9,3,5,7,0,2026-06-21T18:38:59.424281+05:30
Dharamshala,Himachal Pradesh,32.219,76.3234,24.3,51,0.0,866.2,8.5,42.5,89,13.3,8.9,3.5,272.0,111.0,1.0,0,5,7,0,2026-06-21T18:38:59.424288+05:30
Dalhousie,Himachal Pradesh,32.5387,75.971,20.1,57,0.0,803.1,8.75,38.5,100,16.3,11.8,5.8,301.0,138.0,1.8,0,5,7,0,2026-06-21T18:38:59.424295+05:30
Patiala,Punjab,30.3398,76.3869,34.4,38,0.0,971.6,7.7,41.4,397,1005.8,147.6,5.6,276.0,121.0,6.3,0,5,7,1,2026-06-21T18:38:59.424302+05:30
Bhatinda,Punjab,30.211,74.9455,34.4,37,0.0,977.8,8.3,40.0,152,77.3,33.5,8.6,192.0,102.0,6.3,0,5,7,1,2026-06-21T18:38:59.424308+05:30
Rohtak,Haryana,28.8955,76.6066,34.7,41,0.0,975.0,7.75,32.4,609,599.8,104.1,15.4,207.0,93.0,5.9,0,5,7,1,2026-06-21T18:38:59.424315+05:30
Panipat,Haryana,29.3909,76.9635,34.5,42,0.0,973.5,7.65,33.8,1706,2212.8,293.4,9.4,256.0,106.0,7.7,0,5,7,1,2026-06-21T18:38:59.424322+05:30
Mathura,Uttar Pradesh,27.4924,77.6737,33.4,46,0.0,980.6,8.05,39.2,833,144.4,44.7,9.5,209.0,87.0,3.4,0,5,7,1,2026-06-21T18:38:59.424348+05:30
Vrindavan,Uttar Pradesh,27.5823,77.7027,33.0,49,0.0,980.9,8.05,34.6,833,144.4,44.7,9.5,189.0,87.0,3.4,0,5,7,1,2026-06-21T18:38:59.424358+05:30
Ayodhya,Uttar Pradesh,26.7922,82.1998,35.3,45,0.0,987.5,8.45,36.7,163,199.8,75.9,6.7,199.0,108.0,7.1,0,5,10,1,2026-06-21T18:38:59.424364+05:30
Ratlam,Madhya Pradesh,23.3315,75.0367,32.6,45,0.0,950.4,8.45,40.7,71,43.0,20.7,1.6,134.0,86.0,3.9,0,5,7,1,2026-06-21T18:38:59.424371+05:30
Sagar,Madhya Pradesh,23.8388,78.7378,30.5,59,0.0,946.3,6.75,41.0,79,40.0,26.9,5.2,146.0,80.0,2.1,0,5,7,1,2026-06-21T18:38:59.424377+05:30
Satna,Madhya Pradesh,24.6005,80.8322,35.6,36,0.0,965.9,8.3,38.2,84,67.5,29.8,3.4,158.0,89.0,2.7,0,5,10,1,2026-06-21T18:38:59.424384+05:30
Akola,Maharashtra,20.7002,77.0082,37.2,29,0.0,970.3,8.8,42.8,56,22.4,13.7,4.0,121.0,92.0,5.6,0,5,10,0,2026-06-21T18:38:59.424392+05:30
Amravati,Maharashtra,20.9374,77.7796,35.9,34,0.0,963.1,8.35,42.5,58,23.2,14.2,3.7,144.0,94.0,5.9,0,5,10,1,2026-06-21T18:38:59.424399+05:30
Latur,Maharashtra,18.4088,76.5604,34.0,35,0.0,936.7,6.85,28.1,67,18.7,11.7,2.6,178.0,97.0,1.6,0,5,7,1,2026-06-21T18:38:59.424406+05:30
Nanded,Maharashtra,19.1383,77.3091,33.6,50,0.1,964.8,8.0,35.3,59,21.7,15.9,4.1,140.0,103.0,4.7,3,5,7,1,2026-06-21T18:38:59.424413+05:30
Gulbarga,Karnataka,17.3297,76.8343,33.7,38,0.0,955.9,8.35,33.5,55,18.7,11.6,5.3,184.0,96.0,2.8,0,5,7,1,2026-06-21T18:38:59.424420+05:30
Bidar,Karnataka,17.9104,77.5199,29.9,62,0.0,933.3,8.8,30.2,66,30.9,22.0,9.0,174.0,95.0,2.4,7,5,7,1,2026-06-21T18:38:59.424426+05:30
Hospet,Karnataka,15.2689,76.3909,25.5,93,0.1,954.0,8.5,44.6,33,5.3,4.3,4.1,135.0,68.0,2.0,10,5,7,1,2026-06-21T18:38:59.424433+05:30
Tirupur,Tamil Nadu,11.1085,77.3411,27.5,72,0.0,974.1,8.45,47.5,52,7.9,7.0,7.0,128.0,65.0,3.0,7,5,7,1,2026-06-21T18:38:59.424440+05:30
Alappuzha,Kerala,9.4981,76.3388,25.9,94,0.0,1009.4,8.1,33.8,35,9.1,6.3,3.6,87.0,51.0,1.4,7,0,4,1,2026-06-21T18:38:59.424446+05:30
Munnar,Kerala,10.0889,77.0595,17.3,97,0.1,856.4,8.25,32.4,45,4.9,4.6,5.6,101.0,47.0,1.6,6,10,7,1,2026-06-21T18:38:59.424454+05:30
Silchar,Assam,24.8333,92.7789,28.2,89,0.0,1001.3,8.85,30.6,79,24.4,19.8,5.3,270.0,80.0,3.0,7,5,4,1,2026-06-21T18:38:59.424461+05:30
Dibrugarh,Assam,27.4728,94.912,25.9,95,0.0,992.0,3.45,35.3,73,19.8,18.0,8.1,249.0,80.0,1.7,7,5,3,1,2026-06-21T18:38:59.424468+05:30
