city,state,latitude,longitude,temp,humidity,rain,pressure,uv_index,wind_gusts,aqi,pm10,pm2_5,no2,co,o3,so2,mosquito_risk,arthritis_risk,migraine_risk,frizz_risk,updated_at
Delhi,Delhi,28.6139,77.209,40.3,20,0.0,976.5,7.7,48.2,594,1020.7,146.2,4.8,267.0,126.0,8.4,0,5,10,0,2026-05-17T16:40:22.517590+05:30
Mumbai,Maharashtra,19.076,72.8777,32.3,66,0.0,1002.6,7.45,45.4,61,44.5,19.6,5.9,190.0,93.0,4.4,3,5,4,1,2026-05-17T16:40:22.517645+05:30
Bangalore,Karnataka,12.9716,77.5946,33.9,29,0.0,907.3,9.45,35.3,99,21.9,13.5,7.2,254.0,119.0,5.4,0,5,7,0,2026-05-17T16:40:22.517662+05:30
Hyderabad,Telangana,17.385,78.4867,35.5,36,0.0,948.2,9.3,23.4,74,39.8,22.5,2.3,266.0,143.0,4.9,0,5,10,1,2026-05-17T16:40:22.517673+05:30
Chennai,Tamil Nadu,13.0827,80.2707,32.4,61,0.0,1000.8,9.15,43.9,74,26.4,18.3,3.1,195.0,116.0,6.1,3,5,4,1,2026-05-17T16:40:22.517683+05:30
Kolkata,West Bengal,22.5726,88.3639,28.7,90,0.6,1000.1,8.95,36.4,64,32.1,21.2,4.0,267.0,101.0,7.2,10,5,4,1,2026-05-17T16:40:22.517693+05:30
Pune,Maharashtra,18.5204,73.8567,37.0,25,0.0,943.5,8.5,43.9,97,29.9,17.9,1.7,178.0,147.0,6.7,0,5,10,0,2026-05-17T16:40:22.517701+05:30
Ahmedabad,Gujarat,23.0225,72.5714,42.1,20,0.0,995.7,8.15,29.9,61,49.9,17.7,1.0,150.0,111.0,3.2,0,5,10,0,2026-05-17T16:40:22.517710+05:30
Jaipur,Rajasthan,26.9124,75.7873,40.8,14,0.0,955.1,8.25,39.2,121,150.9,29.5,0.2,160.0,125.0,3.2,0,5,10,0,2026-05-17T16:40:22.517730+05:30
Lucknow,Uttar Pradesh,26.8467,80.9462,39.9,22,0.0,985.5,8.2,48.2,149,222.1,53.0,2.8,264.0,136.0,7.1,0,5,10,0,2026-05-17T16:40:22.517739+05:30
Kanpur,Uttar Pradesh,26.4499,80.3319,41.2,17,0.0,984.0,8.2,46.1,168,650.1,92.0,1.9,216.0,134.0,7.0,0,5,10,0,2026-05-17T16:40:22.517748+05:30
Chandigarh,Chandigarh,30.7333,76.7794,37.1,21,0.0,962.8,7.7,42.5,131,19.7,13.1,1.7,280.0,154.0,6.1,0,5,10,0,2026-05-17T16:40:22.517760+05:30
Srinagar,Jammu and Kashmir,34.0837,74.7973,26.2,37,0.0,842.0,8.9,17.3,80,12.3,7.1,0.6,274.0,135.0,1.7,4,5,7,0,2026-05-17T16:40:22.517769+05:30
Jammu,Jammu and Kashmir,32.7266,74.857,38.0,19,0.0,966.6,8.5,38.2,100,18.3,10.0,1.2,195.0,146.0,2.7,0,5,10,0,2026-05-17T16:40:22.517777+05:30
Amritsar,Punjab,31.634,74.8723,38.8,21,0.0,974.5,8.4,30.6,119,46.4,21.0,0.8,249.0,158.0,7.5,0,5,10,0,2026-05-17T16:40:22.517785+05:30
Ludhiana,Punjab,30.901,75.8573,38.5,20,0.0,972.5,8.0,38.9,105,83.8,24.3,1.0,265.0,145.0,4.9,0,5,10,0,2026-05-17T16:40:22.517792+05:30
Jalandhar,Punjab,31.326,75.5762,38.7,21,0.0,973.5,8.15,34.9,112,86.4,25.3,1.3,255.0,151.0,6.2,0,5,10,0,2026-05-17T16:40:22.517800+05:30
Dehradun,Uttarakhand,30.6284,78.0322,24.9,37,0.0,829.3,8.15,45.0,93,11.4,7.2,0.0,208.0,146.0,2.3,0,5,7,0,2026-05-17T16:40:22.517807+05:30
Shimla,Himachal Pradesh,31.1048,77.1734,22.7,34,0.0,785.2,8.25,49.3,108,16.9,9.9,0.5,185.0,145.0,2.5,0,5,7,0,2026-05-17T16:40:22.517817+05:30
Manali,Himachal Pradesh,32.2396,77.1887,21.6,47,0.0,817.3,9.85,39.6,114,11.3,7.3,3.9,148.0,149.0,0.4,0,5,7,0,2026-05-17T16:40:22.517826+05:30
Gurgaon,Haryana,28.4595,77.0266,40.0,21,0.0,975.0,7.8,46.1,1053,2600.3,313.9,4.2,264.0,128.0,7.7,0,5,10,0,2026-05-17T16:40:22.517836+05:30
Noida,Uttar Pradesh,28.5355,77.391,39.3,24,0.0,977.5,7.75,39.6,1053,2600.3,313.9,4.2,298.0,128.0,7.7,0,5,10,0,2026-05-17T16:40:22.517844+05:30
Ghaziabad,Uttar Pradesh,28.6692,77.4538,38.8,25,0.0,975.9,7.7,45.0,442,927.6,135.5,4.0,260.0,133.0,10.3,0,5,10,0,2026-05-17T16:40:22.517852+05:30
Faridabad,Haryana,28.4089,77.3178,40.2,21,0.0,977.0,7.75,49.3,1053,2600.3,313.9,4.2,261.0,128.0,7.7,0,5,10,0,2026-05-17T16:40:22.517860+05:30
Meerut,Uttar Pradesh,28.9845,77.7064,38.7,23,0.0,974.8,7.65,48.2,442,927.6,135.5,4.0,287.0,133.0,10.3,0,5,10,0,2026-05-17T16:40:22.517867+05:30
Agra,Uttar Pradesh,27.1767,78.0081,40.7,19,0.0,981.1,8.05,41.8,762,990.9,116.2,3.4,190.0,120.0,5.1,0,5,10,0,2026-05-17T16:40:22.517875+05:30
Varanasi,Uttar Pradesh,25.3176,82.9739,41.2,16,0.0,989.1,8.7,49.7,152,170.4,43.3,2.7,210.0,148.0,8.3,0,5,10,0,2026-05-17T16:40:22.517883+05:30
Prayagraj,Uttar Pradesh,25.4358,81.8463,41.2,16,0.0,987.9,8.6,41.0,153,134.6,35.9,2.2,196.0,138.0,6.1,0,5,10,0,2026-05-17T16:40:22.517891+05:30
Gorakhpur,Uttar Pradesh,26.7606,83.3732,37.5,28,0.0,988.3,8.6,40.3,158,53.9,24.0,2.5,251.0,146.0,6.6,0,5,10,0,2026-05-17T16:40:22.517901+05:30
Bareilly,Uttar Pradesh,28.367,79.4304,36.2,34,0.0,979.4,8.0,37.1,137,51.1,28.1,2.4,289.0,162.0,8.5,0,5,10,1,2026-05-17T16:40:22.517909+05:30
Aligarh,Uttar Pradesh,27.8974,78.088,39.0,24,0.0,978.9,7.9,45.4,683,1505.0,190.0,3.0,231.0,142.0,8.9,0,5,10,0,2026-05-17T16:40:22.517916+05:30
Moradabad,Uttar Pradesh,28.8386,78.7733,37.2,29,0.0,976.6,7.85,43.6,146,191.4,48.1,3.2,299.0,142.0,7.3,0,5,10,0,2026-05-17T16:40:22.517923+05:30
Saharanpur,Uttar Pradesh,29.9637,77.546,36.4,27,0.0,968.9,7.35,44.6,124,164.8,35.5,3.5,244.0,144.0,7.9,0,5,10,0,2026-05-17T16:40:22.517930+05:30
Jhansi,Uttar Pradesh,25.4484,78.5685,41.0,15,0.0,971.8,8.45,31.0,125,148.1,33.6,1.1,175.0,124.0,5.2,0,5,10,0,2026-05-17T16:40:25.792472+05:30
Surat,Gujarat,21.1702,72.8311,42.1,13,0.0,999.9,7.75,40.7,85,68.0,40.2,19.2,276.0,140.0,51.3,0,5,10,0,2026-05-17T16:40:25.792502+05:30
Vadodara,Gujarat,22.3072,73.1812,42.5,19,0.0,997.2,8.1,29.9,70,45.1,19.4,1.0,156.0,145.0,6.5,0,5,10,0,2026-05-17T16:40:25.792513+05:30
Rajkot,Gujarat,22.3039,70.8022,40.2,15,0.0,989.5,7.15,37.8,54,50.8,17.2,0.7,125.0,113.0,3.1,0,5,10,0,2026-05-17T16:40:25.792522+05:30
Thane,Maharashtra,19.2183,72.9781,35.7,51,0.0,1001.5,7.55,39.2,61,44.5,19.6,5.9,171.0,93.0,4.4,0,5,7,1,2026-05-17T16:40:25.792530+05:30
Nagpur,Maharashtra,21.1458,79.0882,42.6,13,0.0,966.2,8.95,33.1,109,19.3,12.4,4.6,170.0,154.0,18.0,0,5,10,0,2026-05-17T16:40:25.792538+05:30
Nashik,Maharashtra,19.9975,73.7898,37.6,21,0.0,941.4,8.2,41.4,62,28.5,14.9,1.0,168.0,147.0,5.3,0,5,10,0,2026-05-17T16:40:25.792546+05:30
Aurangabad,Maharashtra,19.8762,75.3433,39.7,14,0.0,939.5,9.05,37.1,91,18.6,9.3,0.8,142.0,133.0,3.5,0,5,10,0,2026-05-17T16:40:25.792553+05:30
Solapur,Maharashtra,17.6599,75.9064,41.3,16,0.0,950.8,9.1,33.8,128,22.4,16.9,0.7,155.0,155.0,6.4,0,5,10,0,2026-05-17T16:40:25.792562+05:30
Kolhapur,Maharashtra,16.705,74.2433,34.3,43,0.0,942.4,8.95,46.4,85,24.2,16.9,1.9,169.0,150.0,5.5,0,5,7,1,2026-05-17T16:40:25.792569+05:30
Goa,Goa,15.2993,74.124,32.1,65,0.0,992.6,8.9,43.9,56,36.3,16.4,0.9,128.0,70.0,1.4,3,5,7,1,2026-05-17T16:40:25.792576+05:30
Jodhpur,Rajasthan,26.2389,73.0243,42.0,15,0.0,977.7,8.4,34.2,73,107.3,23.2,0.2,137.0,116.0,3.2,0,5,10,0,2026-05-17T16:40:25.792584+05:30
Udaipur,Rajasthan,24.5854,73.7125,39.0,17,0.0,942.4,8.85,33.5,52,65.2,17.3,0.4,138.0,115.0,2.9,0,5,10,0,2026-05-17T16:40:25.792591+05:30
Kota,Rajasthan,25.2138,75.8648,42.3,13,0.0,972.9,8.4,31.7,104,122.9,27.2,0.1,171.0,130.0,3.2,0,5,10,0,2026-05-17T16:40:25.792598+05:30
Bikaner,Rajasthan,28.0229,73.3119,43.0,13,0.0,975.8,8.4,37.8,81,105.2,23.4,0.1,138.0,104.0,1.8,0,5,10,0,2026-05-17T16:40:25.792606+05:30
Ajmer,Rajasthan,26.4499,74.6399,39.8,14,0.0,950.5,8.4,33.1,86,74.3,21.8,0.1,140.0,125.0,3.3,0,5,10,0,2026-05-17T16:40:25.792613+05:30
Gwalior,Madhya Pradesh,26.2183,78.1828,41.5,14,0.0,976.7,8.25,37.4,305,123.9,31.3,0.6,187.0,121.0,3.7,0,5,10,0,2026-05-17T16:40:25.792621+05:30
Indore,Madhya Pradesh,22.7196,75.8577,41.3,13,0.0,942.6,8.7,36.0,71,32.7,12.7,0.2,163.0,133.0,3.0,0,5,10,0,2026-05-17T16:40:25.792628+05:30
Bhopal,Madhya Pradesh,23.2599,77.4126,41.4,13,0.0,947.9,8.7,33.1,76,23.1,11.3,0.5,156.0,134.0,3.2,0,5,10,0,2026-05-17T16:40:25.792635+05:30
Jabalpur,Madhya Pradesh,23.1815,79.9864,40.4,16,0.0,955.4,8.9,41.4,101,34.1,17.0,0.8,170.0,135.0,3.4,0,5,10,0,2026-05-17T16:40:25.792642+05:30
Ujjain,Madhya Pradesh,23.1765,75.7885,41.3,14,0.0,948.3,8.65,38.2,71,55.8,18.5,0.4,155.0,136.0,4.8,0,5,10,0,2026-05-17T16:40:25.792651+05:30
Visakhapatnam,Andhra Pradesh,17.6868,83.2185,32.5,64,0.0,997.6,8.6,43.6,59,20.7,15.0,9.3,278.0,81.0,23.9,3,5,7,1,2026-05-17T16:40:25.792658+05:30
Vijayawada,Andhra Pradesh,16.5062,80.648,36.7,43,0.1,995.8,9.2,36.0,48,18.2,13.3,2.6,212.0,94.0,4.8,3,5,10,1,2026-05-17T16:40:25.792665+05:30
Guntur,Andhra Pradesh,16.3067,80.4365,36.2,46,0.1,997.1,9.2,32.0,45,16.4,11.9,1.8,216.0,92.0,2.0,3,5,10,1,2026-05-17T16:40:25.792673+05:30
Nellore,Andhra Pradesh,14.4426,79.9865,34.7,51,0.0,999.2,9.1,39.2,90,25.8,18.6,1.4,211.0,127.0,4.7,0,5,7,1,2026-05-17T16:40:25.792681+05:30
Kurnool,Andhra Pradesh,15.8281,78.0373,37.6,33,0.0,970.5,9.2,32.8,62,37.0,17.8,0.6,175.0,110.0,2.2,0,5,10,1,2026-05-17T16:40:25.792690+05:30
Kakinada,Andhra Pradesh,16.9891,82.2475,35.2,52,0.1,1000.8,8.7,42.1,42,18.5,11.9,1.1,196.0,84.0,1.5,3,5,7,1,2026-05-17T16:40:25.792698+05:30
Tirupati,Andhra Pradesh,13.6288,79.4192,35.5,41,0.0,984.2,9.25,31.3,90,25.8,21.0,4.7,242.0,136.0,9.3,0,5,10,1,2026-05-17T16:40:25.792706+05:30
Warangal,Telangana,17.9689,79.5941,36.3,43,0.0,972.9,8.8,31.0,69,32.4,19.7,1.6,198.0,126.0,4.1,0,5,10,1,2026-05-17T16:40:25.792713+05:30
Nizamabad,Telangana,18.6725,78.0941,39.2,21,0.0,959.0,9.15,33.1,106,29.9,22.3,0.8,212.0,157.0,5.4,0,5,10,0,2026-05-17T16:40:25.792720+05:30
Mysore,Karnataka,12.2958,76.6396,32.5,36,0.0,923.6,8.9,36.7,93,37.4,21.8,3.6,224.0,143.0,4.2,0,5,7,0,2026-05-17T16:40:25.792727+05:30
Mangalore,Karnataka,12.9141,74.856,27.5,85,0.1,1002.2,8.7,37.4,65,20.2,11.4,2.4,173.0,72.0,1.5,10,5,4,1,2026-05-17T16:40:25.792734+05:30
Hubli-Dharwad,Karnataka,15.3647,75.124,36.0,31,0.0,935.9,9.15,55.4,81,27.2,19.4,2.8,219.0,117.0,3.2,0,5,10,1,2026-05-17T16:40:25.792742+05:30
Belgaum,Karnataka,15.8497,74.4977,33.3,39,0.0,921.0,9.15,52.2,74,26.5,17.7,2.6,171.0,129.0,4.8,0,5,7,1,2026-05-17T16:40:29.075454+05:30
Coimbatore,Tamil Nadu,11.0168,76.9558,28.5,71,0.1,957.1,8.7,47.2,80,13.1,10.5,4.4,221.0,99.0,2.9,10,5,7,1,2026-05-17T16:40:29.075488+05:30
Madurai,Tamil Nadu,9.9252,78.1198,31.1,65,0.0,987.4,8.75,28.1,97,20.8,15.7,6.0,255.0,121.0,4.1,3,5,7,1,2026-05-17T16:40:29.075501+05:30
Trichy,Tamil Nadu,10.7905,78.7047,33.6,54,0.1,993.2,8.35,28.1,87,33.1,21.9,4.3,215.0,116.0,3.1,3,5,7,1,2026-05-17T16:40:29.075512+05:30
Salem,Tamil Nadu,11.6643,78.146,34.4,45,0.0,971.2,8.55,30.2,126,39.7,26.9,6.1,261.0,161.0,13.8,0,5,7,1,2026-05-17T16:40:29.075521+05:30
Tirunelveli,Tamil Nadu,8.7139,77.7567,33.2,55,0.1,997.4,8.95,39.2,48,6.2,5.0,2.3,210.0,81.0,0.8,3,5,7,1,2026-05-17T16:40:29.075530+05:30
Vellore,Tamil Nadu,12.9165,79.1325,34.5,44,0.0,977.9,9.2,27.0,96,28.9,25.2,2.9,245.0,146.0,11.6,0,5,7,1,2026-05-17T16:40:29.075539+05:30
Erode,Tamil Nadu,11.341,77.7172,35.5,43,0.0,982.5,8.55,33.8,107,39.8,23.6,4.1,289.0,147.0,4.1,0,5,10,1,2026-05-17T16:40:29.075548+05:30
Kochi,Kerala,9.9312,76.2673,27.3,87,0.1,1004.8,8.65,34.9,52,11.7,8.2,3.8,170.0,87.0,3.2,10,5,4,1,2026-05-17T16:40:29.075557+05:30
Thiruvananthapuram,Kerala,8.5241,76.9366,27.7,81,0.1,1004.3,8.3,38.2,46,14.6,9.3,1.3,156.0,82.0,0.5,10,5,4,1,2026-05-17T16:40:29.075566+05:30
Kozhikode,Kerala,11.2588,75.7804,26.1,95,0.4,1003.9,8.9,40.7,50,18.9,10.9,0.8,141.0,86.0,0.9,10,5,4,1,2026-05-17T16:40:29.075575+05:30
Thrissur,Kerala,10.5276,76.2144,27.5,82,0.1,1003.1,8.9,35.3,55,11.0,8.8,5.9,160.0,71.0,2.6,10,5,4,1,2026-05-17T16:40:29.075586+05:30
Kannur,Kerala,11.8745,75.3704,29.0,79,0.0,1002.4,8.95,43.6,58,20.7,13.4,3.2,173.0,82.0,1.5,7,5,4,1,2026-05-17T16:40:29.075595+05:30
Patna,Bihar,25.5941,85.1376,38.3,26,0.0,991.2,8.8,40.3,173,140.6,50.8,6.0,284.0,152.0,8.6,0,5,10,0,2026-05-17T16:40:29.075604+05:30
Gaya,Bihar,24.7914,85.0002,39.7,21,0.0,984.9,8.85,43.2,150,97.6,34.8,3.3,278.0,149.0,9.4,0,5,10,0,2026-05-17T16:40:29.075613+05:30
Muzaffarpur,Bihar,26.1209,85.3647,35.5,49,0.0,991.4,8.8,32.0,177,117.6,52.7,7.7,377.0,158.0,10.3,0,5,10,1,2026-05-17T16:40:29.075621+05:30
Bhagalpur,Bihar,25.2425,87.0117,34.4,55,0.0,992.8,8.8,28.8,175,136.0,50.9,4.7,313.0,176.0,13.9,0,5,7,1,2026-05-17T16:40:29.075628+05:30
Ranchi,Jharkhand,23.3441,85.3096,33.3,36,0.0,932.4,9.3,41.8,133,75.0,47.8,3.1,232.0,149.0,11.3,0,5,7,1,2026-05-17T16:40:29.075635+05:30
Jamshedpur,Jharkhand,22.8046,86.2029,35.7,44,0.0,983.7,9.1,53.3,152,70.3,51.1,5.6,298.0,155.0,15.8,0,5,10,1,2026-05-17T16:40:29.075642+05:30
Dhanbad,Jharkhand,23.7957,86.4304,37.2,33,0.0,972.2,9.05,43.2,151,80.8,46.1,18.3,209.0,135.0,62.3,0,5,10,1,2026-05-17T16:40:29.075649+05:30
Bokaro,Jharkhand,23.6693,86.1511,36.4,38,0.0,976.0,9.05,48.6,152,76.6,44.2,15.2,258.0,139.0,64.8,0,5,10,1,2026-05-17T16:40:29.075656+05:30
Bhubaneswar,Odisha,20.2961,85.8245,34.5,55,0.0,995.7,8.95,42.1,51,27.2,17.8,3.0,192.0,100.0,7.1,0,5,7,1,2026-05-17T16:40:29.075662+05:30
Cuttack,Odisha,20.4625,85.8828,35.8,53,0.0,997.0,9.0,42.5,51,27.2,17.8,3.0,210.0,100.0,7.1,0,5,10,1,2026-05-17T16:40:29.075669+05:30
Rourkela,Odisha,22.2604,84.8536,35.9,46,0.0,978.1,9.05,41.4,158,78.2,56.0,5.3,349.0,168.0,13.7,0,5,10,1,2026-05-17T16:40:29.075675+05:30
Raipur,Chhattisgarh,21.2514,81.6296,39.7,22,0.0,968.3,9.05,32.4,131,51.1,37.0,8.7,183.0,160.0,27.6,0,5,10,0,2026-05-17T16:40:29.075682+05:30
Bhilai,Chhattisgarh,21.1938,81.3509,39.0,25,0.0,968.6,9.0,31.7,125,35.6,26.5,8.1,388.0,146.0,23.9,0,5,10,0,2026-05-17T16:40:29.075688+05:30
Guwahati,Assam,26.1158,91.7086,25.0,92,0.1,995.3,8.75,25.6,86,26.3,18.3,3.1,334.0,117.0,3.9,10,5,7,1,2026-05-17T16:40:29.075695+05:30
Agartala,Tripura,23.8315,91.2868,29.6,87,0.3,998.7,8.9,30.6,71,31.9,21.9,6.5,260.0,101.0,3.5,10,5,7,1,2026-05-17T16:40:29.075702+05:30
Shillong,Meghalaya,25.5788,91.8933,22.7,69,0.0,852.9,9.15,45.4,59,26.7,17.4,3.2,289.0,108.0,3.9,3,5,7,1,2026-05-17T16:40:29.075708+05:30
Imphal,Manipur,24.817,93.9368,27.0,65,0.0,918.0,9.0,37.8,71,29.3,17.9,2.1,249.0,96.0,3.9,7,5,7,1,2026-05-17T16:40:29.075715+05:30
Aizawl,Mizoram,23.7271,92.7176,26.1,62,0.0,888.2,9.05,34.2,50,34.5,18.4,1.7,191.0,93.0,3.0,7,5,7,1,2026-05-17T16:40:29.075722+05:30
Kohima,Nagaland,25.6701,94.1077,21.8,87,0.0,851.5,8.7,32.4,66,29.7,16.7,2.3,234.0,97.0,2.6,3,5,7,1,2026-05-17T16:40:29.075729+05:30
Gangtok,Sikkim,27.3314,88.6138,18.2,93,0.1,832.1,9.15,33.8,98,8.3,6.8,1.5,305.0,131.0,2.1,6,10,7,1,2026-05-17T16:40:29.075736+05:30
Siliguri,West Bengal,26.7271,88.3953,27.0,79,0.0,985.8,8.7,31.0,113,35.5,27.4,3.8,416.0,129.0,5.6,7,5,7,1,2026-05-17T16:40:32.357247+05:30
Durgapur,West Bengal,23.5204,87.3119,33.8,53,0.0,987.3,8.95,48.2,170,101.0,61.0,16.9,371.0,158.0,34.0,0,5,7,1,2026-05-17T16:40:32.357279+05:30
Asansol,West Bengal,23.6739,86.9524,36.8,36,0.0,985.6,9.0,40.0,158,86.4,53.2,16.5,273.0,146.0,28.3,0,5,10,1,2026-05-17T16:40:32.357291+05:30
Pondicherry,Puducherry,11.9139,79.8145,30.9,73,0.0,1001.9,9.05,36.0,92,31.8,21.3,1.5,216.0,128.0,3.4,3,5,4,1,2026-05-17T16:40:32.357300+05:30
Port Blair,Andaman and Nicobar Islands,11.6234,92.7265,27.1,91,0.1,1004.2,1.25,38.5,30,6.2,3.7,0.5,120.0,54.0,0.2,10,5,0,1,2026-05-17T16:40:32.357309+05:30
Haridwar,Uttarakhand,29.9457,78.1642,36.2,29,0.0,967.3,7.5,35.6,149,49.6,16.4,2.4,236.0,155.0,7.5,0,5,10,0,2026-05-17T16:40:32.357317+05:30
Rishikesh,Uttarakhand,30.0869,78.2676,35.4,27,0.0,960.3,7.65,32.8,139,17.9,12.3,0.8,219.0,165.0,6.5,0,5,10,0,2026-05-17T16:40:32.357325+05:30
Nainital,Uttarakhand,29.3919,79.4542,23.0,45,0.0,804.6,8.5,36.7,143,23.9,15.3,1.3,224.0,168.0,6.5,0,5,7,0,2026-05-17T16:40:32.357333+05:30
Mussoorie,Uttarakhand,30.4599,78.0664,22.6,39,0.0,802.4,8.05,53.3,138,13.8,10.9,1.0,214.0,157.0,5.2,0,5,7,0,2026-05-17T16:40:32.357340+05:30
Dharamshala,Himachal Pradesh,32.219,76.3234,27.1,38,0.0,867.4,8.4,41.4,94,18.1,10.6,0.1,176.0,147.0,1.4,4,5,7,0,2026-05-17T16:40:32.357347+05:30
Dalhousie,Himachal Pradesh,32.5387,75.971,23.3,41,0.0,805.1,8.65,38.2,117,21.4,12.2,0.5,172.0,155.0,2.1,0,5,7,0,2026-05-17T16:40:32.357356+05:30
Patiala,Punjab,30.3398,76.3869,39.0,20,0.0,971.9,7.6,42.5,563,1262.9,142.5,1.2,258.0,139.0,5.2,0,5,10,0,2026-05-17T16:40:32.357363+05:30
Bhatinda,Punjab,30.211,74.9455,39.7,22,0.0,977.5,8.25,37.4,96,55.4,21.2,1.4,222.0,128.0,6.8,0,5,10,0,2026-05-17T16:40:32.357371+05:30
Rohtak,Haryana,28.8955,76.6066,39.2,23,0.0,975.5,7.75,47.2,757,1013.3,129.5,2.5,233.0,125.0,5.3,0,5,10,0,2026-05-17T16:40:32.357379+05:30
Panipat,Haryana,29.3909,76.9635,38.7,23,0.0,973.7,7.6,49.7,1639,3017.5,341.8,2.9,253.0,125.0,8.2,0,5,10,0,2026-05-17T16:40:32.357386+05:30
Mathura,Uttar Pradesh,27.4924,77.6737,40.3,18,0.0,980.2,8.0,42.8,780,568.1,81.7,1.9,184.0,120.0,4.4,0,5,10,0,2026-05-17T16:40:32.357392+05:30
Vrindavan,Uttar Pradesh,27.5823,77.7027,39.9,20,0.0,980.6,7.95,41.0,780,568.1,81.7,1.9,201.0,120.0,4.4,0,5,10,0,2026-05-17T16:40:32.357399+05:30
Ayodhya,Uttar Pradesh,26.7922,82.1998,37.8,29,0.0,986.9,8.35,41.8,144,66.4,29.1,2.0,255.0,148.0,7.3,0,5,10,1,2026-05-17T16:40:32.357407+05:30
Ratlam,Madhya Pradesh,23.3315,75.0367,41.0,13,0.0,949.2,8.55,34.2,64,63.6,20.2,0.4,160.0,134.0,5.0,0,5,10,0,2026-05-17T16:40:32.357413+05:30
Sagar,Madhya Pradesh,23.8388,78.7378,39.8,16,0.0,945.1,8.75,37.1,84,88.9,24.4,0.4,152.0,133.0,3.9,0,5,10,0,2026-05-17T16:40:32.357420+05:30
Satna,Madhya Pradesh,24.6005,80.8322,39.8,16,0.0,965.0,8.75,48.2,109,170.4,36.6,0.6,183.0,132.0,4.1,0,5,10,0,2026-05-17T16:40:32.357428+05:30
Akola,Maharashtra,20.7002,77.0082,42.5,13,0.0,968.4,8.95,32.0,99,16.6,10.5,1.1,147.0,142.0,4.8,0,5,10,0,2026-05-17T16:40:32.357435+05:30
Amravati,Maharashtra,20.9374,77.7796,42.2,15,0.0,960.8,8.95,28.1,96,17.3,11.4,0.7,148.0,147.0,6.5,0,5,10,0,2026-05-17T16:40:32.357443+05:30
Latur,Maharashtra,18.4088,76.5604,39.7,18,0.0,934.9,9.1,37.8,107,18.0,12.7,0.8,152.0,151.0,6.0,0,5,10,0,2026-05-17T16:40:32.357450+05:30
Nanded,Maharashtra,19.1383,77.3091,40.8,18,0.0,962.4,9.0,34.9,105,16.8,11.7,0.0,168.0,145.0,4.1,0,5,10,0,2026-05-17T16:40:32.357457+05:30
Gulbarga,Karnataka,17.3297,76.8343,39.5,21,0.0,952.7,9.1,34.2,114,37.5,26.3,1.6,190.0,159.0,7.9,0,5,10,0,2026-05-17T16:40:32.357464+05:30
Bidar,Karnataka,17.9104,77.5199,38.5,20,0.0,930.7,9.15,34.2,102,33.8,23.8,1.1,218.0,155.0,6.9,0,5,10,0,2026-05-17T16:40:32.357471+05:30
Hospet,Karnataka,15.2689,76.3909,34.5,43,0.0,950.0,9.2,61.9,92,44.5,32.1,3.1,249.0,168.0,15.8,0,5,7,1,2026-05-17T16:40:32.357478+05:30
Tirupur,Tamil Nadu,11.1085,77.3411,31.0,62,0.0,969.5,8.9,48.6,114,34.2,23.6,5.4,207.0,130.0,4.4,3,5,7,1,2026-05-17T16:40:32.357484+05:30
Alappuzha,Kerala,9.4981,76.3388,27.4,90,0.2,1005.1,8.65,29.5,51,11.3,7.4,2.6,138.0,83.0,1.3,10,5,4,1,2026-05-17T16:40:32.357491+05:30
Munnar,Kerala,10.0889,77.0595,18.5,100,0.2,853.4,7.8,25.6,53,9.5,7.8,2.8,193.0,85.0,1.3,6,10,7,1,2026-05-17T16:40:32.357499+05:30
Silchar,Assam,24.8333,92.7789,29.0,80,0.1,998.1,8.9,27.7,66,23.9,14.5,1.9,230.0,103.0,4.2,10,5,7,1,2026-05-17T16:40:32.357506+05:30
Dibrugarh,Assam,27.4728,94.912,25.3,90,0.1,990.7,5.05,27.0,75,29.9,20.4,5.7,240.0,91.0,2.2,10,5,3,1,2026-05-17T16:40:32.357512+05:30
