city,state,latitude,longitude,temp,humidity,rain,pressure,uv_index,wind_gusts,aqi,pm10,pm2_5,no2,co,o3,so2,mosquito_risk,arthritis_risk,migraine_risk,frizz_risk,updated_at
Delhi,Delhi,28.6139,77.209,31.8,69,0.0,977.8,7.65,34.2,370,830.7,206.3,75.6,973.0,8.0,26.6,3,5,7,1,2026-07-16T22:49:59.431483+05:30
Mumbai,Maharashtra,19.076,72.8777,27.4,83,0.1,1007.8,7.45,34.6,69,24.0,13.6,13.2,256.0,35.0,10.1,10,5,4,1,2026-07-16T22:49:59.431527+05:30
Bangalore,Karnataka,12.9716,77.5946,23.2,70,0.0,912.9,8.9,41.8,66,23.4,15.0,18.3,319.0,44.0,5.6,3,5,7,1,2026-07-16T22:49:59.431542+05:30
Hyderabad,Telangana,17.385,78.4867,28.2,60,0.0,952.6,8.3,47.9,63,47.1,27.9,28.1,322.0,40.0,8.4,4,5,7,1,2026-07-16T22:49:59.431551+05:30
Chennai,Tamil Nadu,13.0827,80.2707,30.0,77,0.0,1006.5,7.9,42.8,92,36.0,25.1,9.1,216.0,102.0,7.3,7,5,4,1,2026-07-16T22:49:59.431560+05:30
Kolkata,West Bengal,22.5726,88.3639,27.7,86,0.0,1000.1,8.05,35.3,62,27.6,22.1,8.8,670.0,88.0,7.2,7,5,4,1,2026-07-16T22:49:59.431568+05:30
Pune,Maharashtra,18.5204,73.8567,23.6,87,0.0,947.7,7.5,45.0,49,12.3,8.5,13.7,185.0,30.0,8.6,3,5,7,1,2026-07-16T22:49:59.431574+05:30
Ahmedabad,Gujarat,23.0225,72.5714,28.9,74,0.0,999.7,7.0,40.0,81,37.7,22.2,14.9,240.0,43.0,7.1,7,5,7,1,2026-07-16T22:49:59.431581+05:30
Jaipur,Rajasthan,26.9124,75.7873,31.5,51,0.0,956.4,8.15,40.0,212,404.2,85.4,16.9,270.0,50.0,6.0,0,5,7,1,2026-07-16T22:49:59.431587+05:30
Lucknow,Uttar Pradesh,26.8467,80.9462,29.0,91,0.0,988.8,6.5,28.8,161,85.0,62.9,19.8,507.0,81.0,11.3,7,5,7,1,2026-07-16T22:49:59.431599+05:30
Kanpur,Uttar Pradesh,26.4499,80.3319,29.3,90,0.0,986.9,7.5,33.8,166,98.3,61.5,20.6,435.0,71.0,8.1,7,5,7,1,2026-07-16T22:49:59.431606+05:30
Chandigarh,Chandigarh,30.7333,76.7794,28.8,80,0.0,963.3,7.7,32.0,155,71.2,61.5,32.0,1179.0,99.0,16.1,7,5,7,1,2026-07-16T22:49:59.431613+05:30
Srinagar,Jammu and Kashmir,34.0837,74.7973,23.3,74,0.0,837.3,9.0,16.6,96,51.5,46.3,39.7,1356.0,47.0,4.1,3,5,7,1,2026-07-16T22:49:59.431620+05:30
Jammu,Jammu and Kashmir,32.7266,74.857,29.5,78,0.0,966.6,8.55,21.2,151,81.7,69.8,49.2,704.0,65.0,9.1,7,5,7,1,2026-07-16T22:49:59.431626+05:30
Amritsar,Punjab,31.634,74.8723,30.0,79,0.0,974.4,8.2,19.8,170,139.2,119.2,87.5,840.0,32.0,18.4,7,5,7,1,2026-07-16T22:49:59.431632+05:30
Ludhiana,Punjab,30.901,75.8573,31.0,76,0.0,972.9,7.9,31.3,171,115.7,98.0,48.7,1287.0,51.0,10.5,3,5,7,1,2026-07-16T22:49:59.431639+05:30
Jalandhar,Punjab,31.326,75.5762,30.4,80,0.0,973.8,8.2,24.5,179,150.9,125.7,78.2,1577.0,31.0,13.3,3,5,7,1,2026-07-16T22:49:59.431645+05:30
Dehradun,Uttarakhand,30.6284,78.0322,20.0,97,0.0,828.8,8.0,29.2,117,59.8,46.2,26.7,332.0,106.0,7.4,3,5,7,1,2026-07-16T22:49:59.431651+05:30
Shimla,Himachal Pradesh,31.1048,77.1734,15.7,97,0.0,782.2,8.25,40.7,109,54.6,40.9,18.6,430.0,91.0,6.9,3,10,7,0,2026-07-16T22:49:59.431657+05:30
Manali,Himachal Pradesh,32.2396,77.1887,19.6,97,0.0,817.4,9.55,33.1,66,24.4,17.9,49.2,312.0,43.0,0.7,3,10,7,1,2026-07-16T22:49:59.431667+05:30
Gurgaon,Haryana,28.4595,77.0266,31.5,61,0.0,976.4,7.75,34.2,356,545.8,146.7,51.5,658.0,24.0,16.2,3,5,7,1,2026-07-16T22:49:59.431675+05:30
Noida,Uttar Pradesh,28.5355,77.391,30.9,72,0.0,979.1,7.6,27.7,356,545.8,146.7,51.5,819.0,24.0,16.2,3,5,7,1,2026-07-16T22:49:59.431681+05:30
Ghaziabad,Uttar Pradesh,28.6692,77.4538,30.2,76,0.0,977.4,7.6,33.5,248,733.9,198.4,70.2,1450.0,18.0,27.1,3,5,7,1,2026-07-16T22:49:59.431688+05:30
Faridabad,Haryana,28.4089,77.3178,32.0,64,0.0,978.6,7.6,33.8,356,545.8,146.7,51.5,703.0,24.0,16.2,3,5,7,1,2026-07-16T22:49:59.431693+05:30
Meerut,Uttar Pradesh,28.9845,77.7064,30.2,77,0.0,976.1,7.6,38.2,248,733.9,198.4,70.2,1256.0,18.0,27.1,3,5,7,1,2026-07-16T22:49:59.431699+05:30
Agra,Uttar Pradesh,27.1767,78.0081,31.6,64,0.0,982.8,7.9,36.4,150,100.1,50.1,22.7,320.0,55.0,7.5,3,5,7,1,2026-07-16T22:49:59.431705+05:30
Varanasi,Uttar Pradesh,25.3176,82.9739,28.6,93,0.1,992.9,7.55,28.8,181,70.5,49.8,11.5,706.0,109.0,6.7,10,5,7,1,2026-07-16T22:49:59.431712+05:30
Prayagraj,Uttar Pradesh,25.4358,81.8463,28.7,92,0.0,991.3,6.75,31.7,168,91.0,59.5,19.0,567.0,76.0,9.6,7,5,7,1,2026-07-16T22:49:59.431718+05:30
Gorakhpur,Uttar Pradesh,26.7606,83.3732,27.6,97,0.1,992.8,7.5,25.9,134,29.7,28.9,16.4,778.0,80.0,4.7,10,5,7,1,2026-07-16T22:49:59.431724+05:30
Bareilly,Uttar Pradesh,28.367,79.4304,29.1,89,0.0,981.9,7.4,28.4,177,99.7,72.6,24.1,555.0,75.0,12.2,7,5,7,1,2026-07-16T22:49:59.431732+05:30
Aligarh,Uttar Pradesh,27.8974,78.088,30.3,72,0.0,980.2,7.55,32.4,240,370.7,115.3,26.9,398.0,47.0,7.1,3,5,7,1,2026-07-16T22:49:59.431739+05:30
Moradabad,Uttar Pradesh,28.8386,78.7733,30.6,81,0.0,978.4,7.8,33.1,189,262.6,143.0,52.7,1071.0,34.0,18.1,3,5,7,1,2026-07-16T22:49:59.431745+05:30
Saharanpur,Uttar Pradesh,29.9637,77.546,29.8,77,0.0,970.3,7.35,36.7,167,199.8,89.6,26.7,602.0,81.0,13.4,7,5,7,1,2026-07-16T22:49:59.431751+05:30
Jhansi,Uttar Pradesh,25.4484,78.5685,30.4,68,0.0,973.8,4.05,38.5,92,42.1,24.0,9.8,210.0,61.0,3.4,3,5,3,1,2026-07-16T22:50:04.985536+05:30
Surat,Gujarat,21.1702,72.8311,28.3,82,0.0,1005.0,7.7,41.8,75,25.0,19.0,27.2,322.0,20.0,40.4,7,5,4,1,2026-07-16T22:50:04.985569+05:30
Vadodara,Gujarat,22.3072,73.1812,28.5,82,0.0,1002.3,6.5,37.8,71,22.9,17.1,23.5,178.0,29.0,24.2,7,5,4,1,2026-07-16T22:50:04.985579+05:30
Rajkot,Gujarat,22.3039,70.8022,27.8,81,0.0,992.0,7.25,34.9,66,26.3,14.3,10.3,122.0,32.0,4.6,7,5,7,1,2026-07-16T22:50:04.985588+05:30
Thane,Maharashtra,19.2183,72.9781,25.7,97,0.0,1007.4,6.75,32.0,69,24.0,13.6,13.2,264.0,35.0,10.1,7,5,4,1,2026-07-16T22:50:04.985596+05:30
Nagpur,Maharashtra,21.1458,79.0882,29.6,68,0.1,970.7,8.2,41.4,85,44.6,27.2,16.4,352.0,50.0,11.8,10,5,7,1,2026-07-16T22:50:04.985603+05:30
Nashik,Maharashtra,19.9975,73.7898,23.5,91,0.0,944.6,7.85,40.3,57,15.5,10.0,11.9,186.0,46.0,12.3,3,5,7,1,2026-07-16T22:50:04.985610+05:30
Aurangabad,Maharashtra,19.8762,75.3433,25.0,78,0.0,943.5,8.05,39.6,58,21.4,14.8,9.1,195.0,70.0,10.8,7,5,7,1,2026-07-16T22:50:04.985618+05:30
Solapur,Maharashtra,17.6599,75.9064,25.4,81,0.0,957.2,8.45,42.5,54,15.6,10.2,6.7,191.0,47.0,2.7,7,5,7,1,2026-07-16T22:50:04.985625+05:30
Kolhapur,Maharashtra,16.705,74.2433,22.7,92,0.0,948.3,7.4,47.2,50,14.0,9.1,8.1,150.0,37.0,3.0,3,5,7,1,2026-07-16T22:50:04.985633+05:30
Goa,Goa,15.2993,74.124,23.7,98,0.1,999.9,7.15,30.6,70,28.9,15.1,3.7,330.0,47.0,1.5,6,5,7,1,2026-07-16T22:50:04.985640+05:30
Jodhpur,Rajasthan,26.2389,73.0243,32.1,48,0.0,979.2,8.4,34.6,137,218.4,53.4,9.0,140.0,52.0,2.4,0,5,7,1,2026-07-16T22:50:04.985647+05:30
Udaipur,Rajasthan,24.5854,73.7125,26.7,68,0.0,944.0,8.8,30.6,83,42.1,23.1,7.1,149.0,71.0,4.7,7,5,7,1,2026-07-16T22:50:04.985654+05:30
Kota,Rajasthan,25.2138,75.8648,31.4,55,0.0,975.4,8.3,31.7,84,41.3,26.7,11.9,219.0,62.0,6.2,0,5,7,1,2026-07-16T22:50:04.985661+05:30
Bikaner,Rajasthan,28.0229,73.3119,34.0,43,0.0,976.8,8.4,37.4,138,133.6,48.2,2.9,126.0,66.0,3.1,0,5,7,1,2026-07-16T22:50:04.985668+05:30
Ajmer,Rajasthan,26.4499,74.6399,28.9,60,0.0,951.5,8.35,43.6,89,54.4,28.8,11.2,185.0,54.0,4.5,4,5,7,1,2026-07-16T22:50:04.985675+05:30
Gwalior,Madhya Pradesh,26.2183,78.1828,30.1,72,0.0,978.8,8.05,37.1,106,65.9,31.4,11.2,165.0,59.0,3.3,3,5,7,1,2026-07-16T22:50:04.985681+05:30
Indore,Madhya Pradesh,22.7196,75.8577,27.1,73,0.0,946.3,7.75,39.2,71,37.0,26.1,13.3,317.0,65.0,7.3,7,5,7,1,2026-07-16T22:50:04.985688+05:30
Bhopal,Madhya Pradesh,23.2599,77.4126,27.6,76,0.0,951.0,8.2,38.5,80,35.3,24.6,11.1,333.0,61.0,5.4,7,5,7,1,2026-07-16T22:50:04.985695+05:30
Jabalpur,Madhya Pradesh,23.1815,79.9864,25.8,97,0.0,958.3,8.45,35.3,96,44.1,26.0,9.6,335.0,64.0,3.8,7,5,7,1,2026-07-16T22:50:04.985702+05:30
Ujjain,Madhya Pradesh,23.1765,75.7885,27.2,71,0.0,951.8,8.4,36.0,73,38.0,26.1,7.9,299.0,74.0,5.7,7,5,7,1,2026-07-16T22:50:04.985710+05:30
Visakhapatnam,Andhra Pradesh,17.6868,83.2185,29.1,72,0.0,1000.1,6.6,34.9,89,32.5,23.6,23.7,421.0,64.0,41.8,7,5,4,1,2026-07-16T22:50:04.985718+05:30
Vijayawada,Andhra Pradesh,16.5062,80.648,30.5,66,0.0,1001.1,7.0,46.8,73,31.8,23.3,12.6,333.0,56.0,5.8,3,5,4,1,2026-07-16T22:50:04.985724+05:30
Guntur,Andhra Pradesh,16.3067,80.4365,31.3,55,0.0,1002.3,7.1,45.7,70,33.2,24.9,16.3,324.0,49.0,5.6,0,5,4,1,2026-07-16T22:50:04.985731+05:30
Nellore,Andhra Pradesh,14.4426,79.9865,32.7,44,0.0,1004.6,7.95,43.2,70,38.5,22.6,11.8,247.0,65.0,5.8,0,5,4,1,2026-07-16T22:50:04.985739+05:30
Kurnool,Andhra Pradesh,15.8281,78.0373,26.3,75,0.0,977.2,8.15,41.0,64,48.5,22.9,6.5,177.0,67.0,3.1,7,5,7,1,2026-07-16T22:50:04.985747+05:30
Kakinada,Andhra Pradesh,16.9891,82.2475,29.3,72,0.0,1005.2,3.2,41.4,77,37.8,25.4,9.2,431.0,84.0,7.5,7,5,0,1,2026-07-16T22:50:04.985754+05:30
Tirupati,Andhra Pradesh,13.6288,79.4192,29.4,56,0.0,990.7,8.1,30.2,80,62.2,46.7,51.8,213.0,11.0,6.6,4,5,7,1,2026-07-16T22:50:04.985761+05:30
Warangal,Telangana,17.9689,79.5941,27.8,80,0.1,977.4,2.35,43.2,66,29.8,21.2,11.1,324.0,54.0,5.0,10,5,3,1,2026-07-16T22:50:04.985768+05:30
Nizamabad,Telangana,18.6725,78.0941,26.9,75,0.0,963.7,5.65,41.8,63,36.0,21.7,10.7,224.0,59.0,5.9,7,5,3,1,2026-07-16T22:50:04.985775+05:30
Mysore,Karnataka,12.2958,76.6396,21.5,89,0.0,930.1,8.8,42.8,61,18.0,10.9,10.1,147.0,42.0,2.6,3,5,7,1,2026-07-16T22:50:04.985782+05:30
Mangalore,Karnataka,12.9141,74.856,24.4,97,0.3,1009.7,7.95,35.3,69,31.7,18.5,13.8,191.0,28.0,3.9,6,0,4,1,2026-07-16T22:50:04.985789+05:30
Hubli-Dharwad,Karnataka,15.3647,75.124,22.5,90,0.0,941.7,7.5,46.1,52,8.6,4.7,4.8,138.0,43.0,1.3,3,5,7,1,2026-07-16T22:50:04.985796+05:30
Belgaum,Karnataka,15.8497,74.4977,21.4,94,0.0,926.3,7.9,49.3,46,11.1,6.2,5.3,123.0,42.0,2.3,3,5,7,1,2026-07-16T22:50:08.624485+05:30
Coimbatore,Tamil Nadu,11.0168,76.9558,23.7,90,0.0,963.2,8.5,52.6,59,21.4,13.7,10.3,206.0,35.0,3.9,3,5,7,1,2026-07-16T22:50:08.624516+05:30
Madurai,Tamil Nadu,9.9252,78.1198,30.5,55,0.0,993.9,8.2,45.7,82,31.0,24.0,29.0,163.0,37.0,7.4,0,5,7,1,2026-07-16T22:50:08.624528+05:30
Trichy,Tamil Nadu,10.7905,78.7047,29.8,60,0.0,1000.9,8.1,45.7,67,29.4,22.9,22.5,152.0,38.0,6.1,4,5,4,1,2026-07-16T22:50:08.624537+05:30
Salem,Tamil Nadu,11.6643,78.146,26.7,77,0.0,978.5,8.1,27.0,76,31.8,22.4,23.5,320.0,40.0,6.9,7,5,7,1,2026-07-16T22:50:08.624544+05:30
Tirunelveli,Tamil Nadu,8.7139,77.7567,29.1,63,0.0,1004.5,7.95,41.0,59,23.5,13.3,7.2,157.0,46.0,2.6,7,5,4,1,2026-07-16T22:50:08.624552+05:30
Vellore,Tamil Nadu,12.9165,79.1325,30.9,49,0.0,984.3,8.3,42.1,79,43.0,31.3,21.4,229.0,47.0,6.1,0,5,7,1,2026-07-16T22:50:08.624559+05:30
Erode,Tamil Nadu,11.341,77.7172,27.5,70,0.0,990.1,8.35,41.8,66,27.1,18.6,18.0,194.0,37.0,4.4,7,5,7,1,2026-07-16T22:50:08.624567+05:30
Kochi,Kerala,9.9312,76.2673,26.5,89,0.1,1011.8,8.45,28.4,78,33.5,24.6,22.6,168.0,18.0,5.6,10,0,4,1,2026-07-16T22:50:08.624574+05:30
Thiruvananthapuram,Kerala,8.5241,76.9366,25.2,92,0.0,1011.3,7.6,39.2,67,32.4,15.7,6.2,190.0,47.0,2.1,7,0,4,1,2026-07-16T22:50:08.624581+05:30
Kozhikode,Kerala,11.2588,75.7804,25.3,91,0.0,1010.8,8.2,32.4,63,24.2,11.4,2.4,295.0,52.0,1.4,7,0,4,1,2026-07-16T22:50:08.624587+05:30
Thrissur,Kerala,10.5276,76.2144,25.7,91,0.0,1010.0,8.3,35.3,72,30.2,20.4,12.2,420.0,32.0,4.0,7,0,4,1,2026-07-16T22:50:08.624594+05:30
Kannur,Kerala,11.8745,75.3704,24.7,96,0.0,1010.1,7.95,32.8,66,22.9,14.2,14.3,310.0,26.0,3.0,3,0,4,1,2026-07-16T22:50:08.624601+05:30
Patna,Bihar,25.5941,85.1376,26.9,96,0.1,995.5,6.45,32.4,113,47.3,46.7,22.1,524.0,69.0,10.1,10,5,7,1,2026-07-16T22:50:08.624608+05:30
Gaya,Bihar,24.7914,85.0002,26.3,95,0.1,989.4,8.45,25.2,103,29.8,29.1,15.1,371.0,66.0,6.0,10,5,7,1,2026-07-16T22:50:08.624615+05:30
Muzaffarpur,Bihar,26.1209,85.3647,29.1,86,0.0,995.8,6.55,31.7,104,49.4,49.0,24.3,885.0,63.0,11.0,7,5,7,1,2026-07-16T22:50:08.624621+05:30
Bhagalpur,Bihar,25.2425,87.0117,29.7,79,0.0,996.4,8.7,31.3,88,24.6,22.8,13.7,287.0,72.0,5.8,7,5,7,1,2026-07-16T22:50:08.624628+05:30
Ranchi,Jharkhand,23.3441,85.3096,23.7,98,0.1,933.1,9.05,35.6,69,15.1,14.8,11.3,253.0,80.0,7.0,6,5,7,1,2026-07-16T22:50:08.624635+05:30
Jamshedpur,Jharkhand,22.8046,86.2029,26.3,98,0.0,985.2,6.15,36.0,84,48.4,47.4,41.6,257.0,45.0,61.5,7,5,7,1,2026-07-16T22:50:08.624642+05:30
Dhanbad,Jharkhand,23.7957,86.4304,27.6,84,0.0,974.8,8.05,33.8,98,52.7,50.9,45.7,236.0,47.0,104.4,7,5,7,1,2026-07-16T22:50:08.624648+05:30
Bokaro,Jharkhand,23.6693,86.1511,27.0,95,0.1,978.6,8.8,33.5,96,49.9,48.1,39.8,253.0,50.0,101.6,10,5,7,1,2026-07-16T22:50:08.624655+05:30
Bhubaneswar,Odisha,20.2961,85.8245,25.8,95,0.0,997.4,6.95,50.4,74,25.2,18.6,11.9,289.0,69.0,8.3,7,5,7,1,2026-07-16T22:50:08.624662+05:30
Cuttack,Odisha,20.4625,85.8828,25.9,96,0.1,999.0,6.95,36.4,74,25.2,18.6,11.9,315.0,69.0,8.3,10,5,7,1,2026-07-16T22:50:08.624669+05:30
Rourkela,Odisha,22.2604,84.8536,25.7,95,0.1,980.0,7.65,32.0,73,31.0,26.9,13.6,326.0,68.0,3.5,10,5,7,1,2026-07-16T22:50:08.624676+05:30
Raipur,Chhattisgarh,21.2514,81.6296,25.9,96,0.2,971.5,6.7,35.6,139,52.2,38.8,31.4,527.0,60.0,55.8,10,5,7,1,2026-07-16T22:50:08.624682+05:30
Bhilai,Chhattisgarh,21.1938,81.3509,25.6,95,0.1,972.1,4.2,37.4,120,52.9,36.0,23.5,681.0,67.0,41.5,10,5,3,1,2026-07-16T22:50:08.624689+05:30
Guwahati,Assam,26.1158,91.7086,25.6,99,0.3,998.4,6.75,22.7,57,14.6,13.7,14.2,330.0,23.0,1.9,10,5,7,1,2026-07-16T22:50:08.624696+05:30
Agartala,Tripura,23.8315,91.2868,27.2,85,0.0,1004.0,8.35,41.8,61,34.6,24.0,7.0,174.0,73.0,2.6,7,5,4,1,2026-07-16T22:50:08.624702+05:30
Shillong,Meghalaya,25.5788,91.8933,20.5,98,0.2,856.1,8.5,33.5,36,9.3,7.1,7.0,172.0,65.0,2.0,6,5,7,1,2026-07-16T22:50:08.624709+05:30
Imphal,Manipur,24.817,93.9368,22.7,99,0.1,921.7,8.35,24.5,57,18.3,15.2,11.2,411.0,41.0,2.5,6,5,7,1,2026-07-16T22:50:08.624716+05:30
Aizawl,Mizoram,23.7271,92.7176,20.3,90,0.0,891.3,8.1,42.1,53,19.4,10.6,2.6,141.0,64.0,1.3,3,5,7,1,2026-07-16T22:50:08.624723+05:30
Kohima,Nagaland,25.6701,94.1077,20.7,90,0.1,854.3,8.5,22.0,44,15.1,12.2,10.0,271.0,43.0,1.5,6,5,7,1,2026-07-16T22:50:08.624730+05:30
Gangtok,Sikkim,27.3314,88.6138,19.5,93,0.1,837.3,6.65,34.2,43,7.3,6.3,4.4,394.0,94.0,1.7,6,10,7,1,2026-07-16T22:50:08.624736+05:30
Siliguri,West Bengal,26.7271,88.3953,27.7,82,0.1,989.9,7.15,24.1,62,23.5,21.2,12.8,606.0,89.0,5.0,10,5,7,1,2026-07-16T22:50:12.020096+05:30
Durgapur,West Bengal,23.5204,87.3119,26.5,98,0.0,989.1,7.05,36.4,81,38.9,37.5,34.1,344.0,43.0,31.4,7,5,7,1,2026-07-16T22:50:12.020129+05:30
Asansol,West Bengal,23.6739,86.9524,26.3,98,0.1,988.0,8.05,32.8,81,36.2,35.0,35.8,265.0,47.0,32.5,10,5,7,1,2026-07-16T22:50:12.020141+05:30
Pondicherry,Puducherry,11.9139,79.8145,29.3,74,0.0,1008.2,8.2,45.7,77,29.2,20.8,12.6,195.0,71.0,7.4,7,0,4,1,2026-07-16T22:50:12.020149+05:30
Port Blair,Andaman and Nicobar Islands,11.6234,92.7265,27.4,86,0.0,1008.8,8.4,50.0,49,16.5,8.4,0.2,89.0,44.0,0.4,7,0,4,1,2026-07-16T22:50:12.020157+05:30
Haridwar,Uttarakhand,29.9457,78.1642,29.0,85,0.0,968.9,7.5,32.0,127,104.5,77.5,31.7,498.0,85.0,16.9,7,5,7,1,2026-07-16T22:50:12.020165+05:30
Rishikesh,Uttarakhand,30.0869,78.2676,27.2,91,0.0,961.8,7.6,27.0,146,82.9,60.5,11.2,429.0,137.0,12.7,7,5,7,1,2026-07-16T22:50:12.020173+05:30
Nainital,Uttarakhand,29.3919,79.4542,18.1,100,0.0,804.3,6.45,26.6,131,87.8,59.4,12.4,345.0,101.0,8.6,3,10,7,1,2026-07-16T22:50:12.020180+05:30
Mussoorie,Uttarakhand,30.4599,78.0664,18.2,100,0.0,801.6,7.3,42.1,130,70.8,63.8,27.4,455.0,99.0,13.9,3,10,7,1,2026-07-16T22:50:12.020188+05:30
Dharamshala,Himachal Pradesh,32.219,76.3234,22.7,90,0.0,866.5,8.45,31.0,90,34.8,28.8,16.8,412.0,62.0,1.4,3,5,7,1,2026-07-16T22:50:12.020195+05:30
Dalhousie,Himachal Pradesh,32.5387,75.971,17.1,98,0.0,802.2,8.0,28.8,118,60.8,51.1,46.4,643.0,70.0,4.8,3,10,7,1,2026-07-16T22:50:12.020204+05:30
Patiala,Punjab,30.3398,76.3869,29.8,82,0.0,972.5,7.6,33.8,183,325.0,127.1,44.2,923.0,45.0,10.2,7,5,7,1,2026-07-16T22:50:12.020211+05:30
Bhatinda,Punjab,30.211,74.9455,33.3,58,0.0,978.1,7.4,28.8,174,154.1,85.0,36.5,522.0,38.0,5.6,0,5,7,1,2026-07-16T22:50:12.020218+05:30
Rohtak,Haryana,28.8955,76.6066,30.4,76,0.0,976.3,7.65,31.3,580,862.4,197.9,69.1,729.0,5.0,12.0,3,5,7,1,2026-07-16T22:50:12.020226+05:30
Panipat,Haryana,29.3909,76.9635,30.2,76,0.0,974.9,6.85,35.3,1167,1113.9,239.3,46.5,1056.0,33.0,10.6,3,5,7,1,2026-07-16T22:50:12.020233+05:30
Mathura,Uttar Pradesh,27.4924,77.6737,31.2,65,0.0,981.6,7.9,33.1,409,607.2,101.7,28.1,337.0,48.0,5.5,3,5,7,1,2026-07-16T22:50:12.020240+05:30
Vrindavan,Uttar Pradesh,27.5823,77.7027,31.3,64,0.0,982.1,7.9,32.0,409,607.2,101.7,28.1,352.0,48.0,5.5,3,5,7,1,2026-07-16T22:50:12.020247+05:30
Ayodhya,Uttar Pradesh,26.7922,82.1998,28.3,93,0.0,991.0,7.2,22.3,172,78.2,56.2,15.3,723.0,90.0,6.4,7,5,7,1,2026-07-16T22:50:12.020254+05:30
Ratlam,Madhya Pradesh,23.3315,75.0367,26.9,74,0.0,952.7,7.8,32.8,73,33.3,23.0,6.3,191.0,82.0,6.7,7,5,7,1,2026-07-16T22:50:12.020261+05:30
Sagar,Madhya Pradesh,23.8388,78.7378,26.4,84,0.0,947.2,8.3,38.9,84,35.4,22.6,8.9,208.0,64.0,3.8,7,5,7,1,2026-07-16T22:50:12.020268+05:30
Satna,Madhya Pradesh,24.6005,80.8322,28.6,78,0.0,967.5,8.2,36.7,133,59.8,34.8,11.5,253.0,64.0,3.2,7,5,7,1,2026-07-16T22:50:12.020275+05:30
Akola,Maharashtra,20.7002,77.0082,29.8,66,0.0,973.4,8.7,43.6,63,25.5,16.0,9.0,185.0,69.0,8.5,7,5,7,1,2026-07-16T22:50:12.020282+05:30
Amravati,Maharashtra,20.9374,77.7796,29.5,64,0.0,965.4,8.75,42.5,65,28.6,17.3,9.4,172.0,68.0,8.4,7,5,7,1,2026-07-16T22:50:12.020289+05:30
Latur,Maharashtra,18.4088,76.5604,23.9,87,0.0,939.3,2.45,37.4,56,28.1,17.1,5.9,168.0,60.0,2.8,3,5,3,1,2026-07-16T22:50:12.020297+05:30
Nanded,Maharashtra,19.1383,77.3091,27.5,74,0.0,967.7,8.5,36.4,63,39.2,20.7,8.4,211.0,59.0,3.6,7,5,7,1,2026-07-16T22:50:12.020304+05:30
Gulbarga,Karnataka,17.3297,76.8343,25.7,74,0.0,958.8,7.85,47.9,54,16.7,10.5,7.7,157.0,53.0,3.0,7,5,7,1,2026-07-16T22:50:12.020311+05:30
Bidar,Karnataka,17.9104,77.5199,24.3,84,0.0,935.1,6.6,38.5,60,34.9,18.5,11.5,181.0,53.0,2.6,3,5,7,1,2026-07-16T22:50:12.020317+05:30
Hospet,Karnataka,15.2689,76.3909,24.7,80,0.0,956.8,8.3,46.4,55,10.3,6.9,7.0,143.0,43.0,1.8,3,5,7,1,2026-07-16T22:50:12.020324+05:30
Tirupur,Tamil Nadu,11.1085,77.3411,24.8,86,0.0,976.7,8.2,57.6,68,30.2,21.7,22.8,184.0,31.0,5.9,3,5,7,1,2026-07-16T22:50:12.020330+05:30
Alappuzha,Kerala,9.4981,76.3388,27.2,85,0.0,1011.8,7.9,32.8,71,34.7,18.9,13.9,91.0,37.0,3.9,7,0,4,1,2026-07-16T22:50:12.020337+05:30
Munnar,Kerala,10.0889,77.0595,15.8,99,0.0,857.8,8.65,31.7,56,17.1,12.0,12.2,131.0,30.0,2.7,3,10,7,0,2026-07-16T22:50:12.020344+05:30
Silchar,Assam,24.8333,92.7789,26.5,94,0.1,1003.5,8.15,27.4,60,21.8,16.4,7.0,239.0,62.0,3.4,10,5,4,1,2026-07-16T22:50:12.020351+05:30
Dibrugarh,Assam,27.4728,94.912,26.6,98,0.4,991.7,8.3,28.1,49,9.8,9.6,9.7,229.0,61.0,1.5,10,5,7,1,2026-07-16T22:50:12.020358+05:30
