city,state,latitude,longitude,temp,humidity,rain,pressure,uv_index,wind_gusts,aqi,pm10,pm2_5,no2,co,o3,so2,mosquito_risk,arthritis_risk,migraine_risk,frizz_risk,updated_at
Delhi,Delhi,28.6139,77.209,23.9,72,0.0,981.3,7.45,58.7,491,674.3,103.1,11.8,350.0,109.0,19.4,3,5,7,1,2026-05-04T05:21:57.328206+05:30
Mumbai,Maharashtra,19.076,72.8777,28.2,78,0.0,1005.8,7.85,43.2,67,33.8,14.8,8.8,207.0,63.0,13.2,7,5,4,1,2026-05-04T05:21:57.328255+05:30
Bangalore,Karnataka,12.9716,77.5946,21.0,97,0.0,910.0,9.45,29.9,78,38.9,21.5,14.7,255.0,47.0,8.5,3,5,7,1,2026-05-04T05:21:57.328273+05:30
Hyderabad,Telangana,17.385,78.4867,26.6,62,0.0,951.1,9.25,36.0,79,41.0,25.6,17.1,280.0,53.0,5.7,7,5,7,1,2026-05-04T05:21:57.328284+05:30
Chennai,Tamil Nadu,13.0827,80.2707,29.3,74,0.0,1004.0,9.25,53.3,89,26.6,20.8,7.1,212.0,106.0,8.7,7,5,4,1,2026-05-04T05:21:57.328294+05:30
Kolkata,West Bengal,22.5726,88.3639,25.9,97,0.0,1005.9,7.0,34.6,111,26.3,21.1,9.4,333.0,76.0,5.1,7,5,4,1,2026-05-04T05:21:57.328309+05:30
Pune,Maharashtra,18.5204,73.8567,21.1,91,0.0,945.5,8.45,47.5,59,33.3,18.0,12.3,195.0,39.0,8.6,3,5,7,1,2026-05-04T05:21:57.328318+05:30
Ahmedabad,Gujarat,23.0225,72.5714,27.9,69,0.0,997.5,8.05,48.2,54,22.6,11.3,5.6,219.0,55.0,6.6,7,5,7,1,2026-05-04T05:21:57.328332+05:30
Jaipur,Rajasthan,26.9124,75.7873,26.0,45,0.0,955.1,8.05,58.3,140,603.5,98.5,4.4,264.0,116.0,7.0,4,5,7,0,2026-05-04T05:21:57.328340+05:30
Lucknow,Uttar Pradesh,26.8467,80.9462,24.0,79,0.0,992.6,8.05,54.0,87,38.5,28.1,7.7,339.0,107.0,8.2,3,5,7,1,2026-05-04T05:21:57.328349+05:30
Kanpur,Uttar Pradesh,26.4499,80.3319,25.5,69,0.0,990.0,8.05,48.2,197,434.9,64.0,6.3,335.0,110.0,7.8,7,5,7,1,2026-05-04T05:21:57.328357+05:30
Chandigarh,Chandigarh,30.7333,76.7794,21.6,72,0.0,967.6,7.5,55.8,99,30.4,19.4,11.7,313.0,79.0,4.9,3,5,7,1,2026-05-04T05:21:57.328366+05:30
Srinagar,Jammu and Kashmir,34.0837,74.7973,8.2,100,0.0,840.7,6.8,23.4,67,38.1,31.9,14.0,343.0,67.0,1.6,3,10,7,0,2026-05-04T05:21:57.328376+05:30
Jammu,Jammu and Kashmir,32.7266,74.857,19.7,57,0.0,970.5,7.65,58.0,71,21.1,18.0,14.1,219.0,41.0,1.9,0,5,7,0,2026-05-04T05:21:57.328384+05:30
Amritsar,Punjab,31.634,74.8723,22.4,63,0.0,978.2,8.1,53.3,124,145.3,43.1,2.7,376.0,124.0,4.9,3,5,7,0,2026-05-04T05:21:57.328392+05:30
Ludhiana,Punjab,30.901,75.8573,21.6,82,0.0,975.8,7.45,56.2,238,95.2,42.1,10.1,393.0,80.0,11.1,3,5,7,1,2026-05-04T05:21:57.328400+05:30
Jalandhar,Punjab,31.326,75.5762,21.7,72,0.0,977.0,7.45,61.9,137,79.9,34.2,6.1,385.0,101.0,8.4,3,5,7,1,2026-05-04T05:21:57.328408+05:30
Dehradun,Uttarakhand,30.6284,78.0322,11.6,91,0.0,827.9,7.15,34.2,58,9.4,8.4,22.0,242.0,19.0,0.0,3,10,7,0,2026-05-04T05:21:57.328418+05:30
Shimla,Himachal Pradesh,31.1048,77.1734,8.8,83,0.0,780.1,7.8,36.7,60,22.9,10.2,8.2,193.0,104.0,0.9,3,10,7,0,2026-05-04T05:21:57.328426+05:30
Manali,Himachal Pradesh,32.2396,77.1887,7.1,72,0.0,812.1,5.9,44.3,92,2.0,1.6,4.6,162.0,132.0,0.0,3,5,3,0,2026-05-04T05:21:57.328432+05:30
Gurgaon,Haryana,28.4595,77.0266,22.4,82,0.0,979.0,7.6,59.0,1861,2838.7,312.9,6.4,341.0,118.0,12.8,3,5,7,1,2026-05-04T05:21:57.328440+05:30
Noida,Uttar Pradesh,28.5355,77.391,23.6,77,0.0,983.4,7.5,58.7,1861,2838.7,312.9,6.4,330.0,118.0,12.8,3,5,7,1,2026-05-04T05:21:57.328464+05:30
Ghaziabad,Uttar Pradesh,28.6692,77.4538,23.7,75,0.0,981.3,7.45,61.2,297,274.7,51.2,7.4,301.0,108.0,13.8,3,5,7,1,2026-05-04T05:21:57.328472+05:30
Faridabad,Haryana,28.4089,77.3178,23.0,80,0.0,982.6,7.55,61.6,1861,2838.7,312.9,6.4,336.0,118.0,12.8,3,5,7,1,2026-05-04T05:21:57.328479+05:30
Meerut,Uttar Pradesh,28.9845,77.7064,21.8,82,0.0,979.8,7.4,65.5,297,274.7,51.2,7.4,291.0,108.0,13.8,3,5,7,1,2026-05-04T05:21:57.328486+05:30
Agra,Uttar Pradesh,27.1767,78.0081,25.1,73,0.0,985.4,7.9,68.0,1022,935.0,123.9,6.3,297.0,101.0,10.8,7,5,7,1,2026-05-04T05:21:57.328493+05:30
Varanasi,Uttar Pradesh,25.3176,82.9739,25.0,81,0.0,997.2,8.6,38.5,130,58.6,53.3,10.7,425.0,100.0,14.6,7,5,7,1,2026-05-04T05:21:57.328503+05:30
Prayagraj,Uttar Pradesh,25.4358,81.8463,25.8,76,0.0,994.8,8.5,57.2,113,57.7,52.9,10.3,448.0,101.0,10.6,7,5,7,1,2026-05-04T05:21:57.328513+05:30
Gorakhpur,Uttar Pradesh,26.7606,83.3732,23.1,83,0.0,998.1,8.45,38.5,84,30.9,26.9,11.1,391.0,86.0,8.4,3,5,7,1,2026-05-04T05:21:57.328520+05:30
Bareilly,Uttar Pradesh,28.367,79.4304,23.0,76,0.0,985.9,7.8,49.0,112,110.4,37.0,6.3,313.0,102.0,4.7,3,5,7,1,2026-05-04T05:21:57.328527+05:30
Aligarh,Uttar Pradesh,27.8974,78.088,24.4,72,0.0,982.9,7.7,59.0,859,609.1,93.6,5.3,330.0,111.0,10.2,3,5,7,1,2026-05-04T05:21:57.328536+05:30
Moradabad,Uttar Pradesh,28.8386,78.7733,21.7,87,0.0,983.8,6.5,56.2,112,61.5,31.4,6.2,298.0,113.0,5.8,3,5,7,1,2026-05-04T05:21:57.328543+05:30
Saharanpur,Uttar Pradesh,29.9637,77.546,20.4,89,0.0,974.9,7.05,54.7,145,114.6,43.0,8.5,334.0,106.0,12.4,3,5,7,1,2026-05-04T05:21:57.328549+05:30
Jhansi,Uttar Pradesh,25.4484,78.5685,26.4,64,0.0,974.2,8.35,50.0,96,29.5,24.8,3.4,305.0,132.0,12.6,7,5,7,1,2026-05-04T05:22:00.847831+05:30
Surat,Gujarat,21.1702,72.8311,27.9,83,0.0,1003.0,7.7,51.8,59,24.6,15.4,19.3,248.0,54.0,32.2,7,5,4,1,2026-05-04T05:22:00.847866+05:30
Vadodara,Gujarat,22.3072,73.1812,27.1,86,0.0,1000.4,8.05,46.8,52,17.5,10.8,9.7,156.0,54.0,13.2,7,5,4,1,2026-05-04T05:22:00.847878+05:30
Rajkot,Gujarat,22.3039,70.8022,25.5,93,0.0,989.4,7.7,45.4,45,19.9,8.5,2.7,155.0,64.0,3.4,7,5,7,1,2026-05-04T05:22:00.847887+05:30
Thane,Maharashtra,19.2183,72.9781,26.8,88,0.0,1005.3,7.9,40.3,67,33.8,14.8,8.8,219.0,63.0,13.2,7,5,4,1,2026-05-04T05:22:00.847894+05:30
Nagpur,Maharashtra,21.1458,79.0882,28.3,28,0.0,969.9,8.95,47.5,73,13.5,10.4,8.4,275.0,75.0,9.6,4,5,7,0,2026-05-04T05:22:00.847901+05:30
Nashik,Maharashtra,19.9975,73.7898,22.2,92,0.0,942.4,8.2,45.0,61,31.9,18.9,16.9,216.0,38.0,13.0,3,5,7,1,2026-05-04T05:22:00.847908+05:30
Aurangabad,Maharashtra,19.8762,75.3433,22.5,74,0.0,940.7,9.05,42.8,54,32.2,13.6,12.4,209.0,54.0,14.6,3,5,7,1,2026-05-04T05:22:00.847915+05:30
Solapur,Maharashtra,17.6599,75.9064,25.5,53,0.0,954.9,9.1,32.4,55,26.4,11.8,9.3,194.0,48.0,3.7,4,5,7,0,2026-05-04T05:22:00.847922+05:30
Kolhapur,Maharashtra,16.705,74.2433,21.5,98,0.0,945.7,8.95,46.4,61,32.1,16.1,7.4,171.0,44.0,0.8,3,5,7,1,2026-05-04T05:22:00.847929+05:30
Goa,Goa,15.2993,74.124,26.4,92,0.0,996.5,8.9,37.8,66,61.2,25.3,9.7,208.0,53.0,1.8,7,5,7,1,2026-05-04T05:22:00.847936+05:30
Jodhpur,Rajasthan,26.2389,73.0243,27.6,51,0.0,976.6,8.25,49.0,114,114.1,24.0,6.8,216.0,57.0,3.5,4,5,7,1,2026-05-04T05:22:00.847943+05:30
Udaipur,Rajasthan,24.5854,73.7125,23.2,79,0.0,941.5,8.75,33.5,49,19.1,11.8,8.7,195.0,47.0,12.9,3,5,7,1,2026-05-04T05:22:00.847949+05:30
Kota,Rajasthan,25.2138,75.8648,27.2,56,0.0,974.2,8.25,73.8,67,13.5,9.8,3.6,219.0,90.0,8.0,4,5,7,1,2026-05-04T05:22:00.847956+05:30
Bikaner,Rajasthan,28.0229,73.3119,26.0,48,0.0,975.1,8.15,60.1,82,87.1,21.4,2.3,197.0,85.0,4.7,4,5,7,0,2026-05-04T05:22:00.847962+05:30
Ajmer,Rajasthan,26.4499,74.6399,25.6,41,0.0,949.3,8.2,58.7,64,81.7,20.8,4.9,166.0,74.0,3.7,4,5,7,0,2026-05-04T05:22:00.847969+05:30
Gwalior,Madhya Pradesh,26.2183,78.1828,26.8,63,0.0,979.6,8.1,49.7,94,24.7,23.1,3.5,296.0,124.0,11.8,7,5,7,1,2026-05-04T05:22:00.847976+05:30
Indore,Madhya Pradesh,22.7196,75.8577,24.6,71,0.0,944.6,8.6,39.2,50,18.3,10.4,4.9,170.0,69.0,11.0,3,5,7,1,2026-05-04T05:22:00.847981+05:30
Bhopal,Madhya Pradesh,23.2599,77.4126,27.0,42,0.0,949.9,8.65,48.2,66,12.5,11.9,4.0,204.0,77.0,5.3,4,5,7,0,2026-05-04T05:22:00.847988+05:30
Jabalpur,Madhya Pradesh,23.1815,79.9864,25.8,39,0.0,957.2,7.95,58.3,65,39.1,17.4,13.6,233.0,58.0,6.0,4,5,7,0,2026-05-04T05:22:00.847995+05:30
Ujjain,Madhya Pradesh,23.1765,75.7885,24.8,75,0.0,950.2,8.55,36.0,48,18.1,10.2,4.7,171.0,63.0,10.3,3,5,7,1,2026-05-04T05:22:00.848002+05:30
Visakhapatnam,Andhra Pradesh,17.6868,83.2185,26.3,99,0.0,1001.7,9.1,37.1,72,30.3,23.7,26.4,371.0,64.0,2.9,7,5,4,1,2026-05-04T05:22:00.848009+05:30
Vijayawada,Andhra Pradesh,16.5062,80.648,27.8,94,0.0,999.7,9.15,43.9,90,29.5,25.2,5.1,226.0,104.0,4.5,7,5,7,1,2026-05-04T05:22:00.848016+05:30
Guntur,Andhra Pradesh,16.3067,80.4365,28.2,92,0.0,1000.9,9.2,36.7,90,30.2,26.1,5.4,220.0,113.0,5.1,7,5,4,1,2026-05-04T05:22:00.848022+05:30
Nellore,Andhra Pradesh,14.4426,79.9865,29.5,75,0.0,1002.0,9.2,37.8,103,32.9,29.2,7.6,251.0,119.0,12.4,7,5,4,1,2026-05-04T05:22:00.848030+05:30
Kurnool,Andhra Pradesh,15.8281,78.0373,28.7,62,0.0,974.6,9.15,37.4,66,24.4,14.8,13.3,215.0,45.0,4.5,7,5,7,1,2026-05-04T05:22:00.848037+05:30
Kakinada,Andhra Pradesh,16.9891,82.2475,27.0,97,0.0,1005.4,9.1,32.4,65,26.1,18.2,1.8,215.0,94.0,1.4,7,5,4,1,2026-05-04T05:22:00.848044+05:30
Tirupati,Andhra Pradesh,13.6288,79.4192,28.0,74,0.0,988.3,9.3,58.3,83,30.2,27.1,12.2,323.0,85.0,16.4,7,5,7,1,2026-05-04T05:22:00.848050+05:30
Warangal,Telangana,17.9689,79.5941,26.4,79,0.0,976.0,9.15,41.8,96,39.8,36.0,7.5,322.0,111.0,12.0,7,5,7,1,2026-05-04T05:22:00.848056+05:30
Nizamabad,Telangana,18.6725,78.0941,27.6,30,0.0,961.7,9.15,29.9,76,27.3,18.5,14.4,262.0,55.0,5.8,4,5,7,0,2026-05-04T05:22:00.848063+05:30
Mysore,Karnataka,12.2958,76.6396,21.6,96,0.0,926.5,9.4,35.3,65,37.6,19.2,8.4,173.0,47.0,1.7,3,5,7,1,2026-05-04T05:22:00.848069+05:30
Mangalore,Karnataka,12.9141,74.856,27.0,85,0.0,1005.6,9.05,45.7,70,61.7,24.7,9.4,257.0,40.0,2.8,7,5,4,1,2026-05-04T05:22:00.848075+05:30
Hubli-Dharwad,Karnataka,15.3647,75.124,22.2,97,0.0,939.3,9.15,43.6,57,31.8,12.7,4.3,185.0,54.0,1.4,3,5,7,1,2026-05-04T05:22:00.848081+05:30
Belgaum,Karnataka,15.8497,74.4977,20.4,99,0.0,923.8,9.15,41.0,58,33.2,15.4,6.7,161.0,47.0,0.7,3,5,7,1,2026-05-04T05:22:04.098536+05:30
Coimbatore,Tamil Nadu,11.0168,76.9558,24.6,88,0.0,959.9,9.35,47.5,64,45.4,20.1,5.6,194.0,56.0,2.5,3,5,7,1,2026-05-04T05:22:04.098572+05:30
Madurai,Tamil Nadu,9.9252,78.1198,27.5,71,0.0,990.7,6.85,46.4,87,41.2,35.4,43.5,305.0,0.0,5.5,7,5,7,1,2026-05-04T05:22:04.098584+05:30
Trichy,Tamil Nadu,10.7905,78.7047,28.6,64,0.0,997.4,9.0,40.3,75,30.5,27.1,24.8,260.0,31.0,5.4,7,5,7,1,2026-05-04T05:22:04.098593+05:30
Salem,Tamil Nadu,11.6643,78.146,27.1,72,0.0,975.5,9.3,61.9,78,35.9,23.8,19.1,227.0,31.0,6.1,7,5,7,1,2026-05-04T05:22:04.098601+05:30
Tirunelveli,Tamil Nadu,8.7139,77.7567,27.2,79,0.0,1000.7,8.65,33.5,72,30.6,24.5,7.2,217.0,47.0,1.5,7,5,4,1,2026-05-04T05:22:04.098609+05:30
Vellore,Tamil Nadu,12.9165,79.1325,28.3,57,0.0,981.8,8.95,45.7,85,33.9,32.1,18.1,351.0,44.0,13.8,4,5,7,1,2026-05-04T05:22:04.098616+05:30
Erode,Tamil Nadu,11.341,77.7172,26.6,79,0.0,987.2,9.3,51.5,67,35.7,20.5,13.6,205.0,39.0,3.5,7,5,7,1,2026-05-04T05:22:04.098623+05:30
Kochi,Kerala,9.9312,76.2673,26.6,95,0.0,1007.3,9.0,30.2,99,69.4,53.9,38.2,438.0,6.0,4.3,7,5,4,1,2026-05-04T05:22:04.098630+05:30
Thiruvananthapuram,Kerala,8.5241,76.9366,25.0,98,0.0,1006.6,8.9,40.3,59,36.0,19.8,4.8,239.0,58.0,2.1,7,5,4,1,2026-05-04T05:22:04.098637+05:30
Kozhikode,Kerala,11.2588,75.7804,25.6,95,0.0,1006.5,9.0,41.0,68,74.0,22.1,2.4,415.0,68.0,0.9,7,5,4,1,2026-05-04T05:22:04.098643+05:30
Thrissur,Kerala,10.5276,76.2144,25.4,91,0.0,1005.7,9.05,34.2,88,69.8,46.3,29.8,246.0,9.0,2.6,7,5,4,1,2026-05-04T05:22:04.098651+05:30
Kannur,Kerala,11.8745,75.3704,26.8,84,0.0,1005.8,9.0,48.2,68,51.8,20.9,10.9,417.0,33.0,1.8,7,5,4,1,2026-05-04T05:22:04.098658+05:30
Patna,Bihar,25.5941,85.1376,23.6,89,0.0,1001.3,8.7,59.0,126,46.3,38.9,12.6,360.0,77.0,10.8,3,5,4,1,2026-05-04T05:22:04.098665+05:30
Gaya,Bihar,24.7914,85.0002,24.1,83,0.0,993.6,8.8,41.8,150,56.2,49.8,10.7,360.0,84.0,13.4,3,5,7,1,2026-05-04T05:22:04.098673+05:30
Muzaffarpur,Bihar,26.1209,85.3647,23.1,85,0.0,1001.8,8.7,39.6,103,40.4,34.6,12.1,331.0,72.0,8.7,3,5,4,1,2026-05-04T05:22:04.098679+05:30
Bhagalpur,Bihar,25.2425,87.0117,22.1,96,0.0,1002.8,8.7,31.7,128,52.6,41.9,8.4,304.0,92.0,4.5,3,5,4,1,2026-05-04T05:22:04.098686+05:30
Ranchi,Jharkhand,23.3441,85.3096,22.4,99,0.0,936.8,8.25,43.2,84,62.9,56.7,33.0,373.0,39.0,46.6,3,5,7,1,2026-05-04T05:22:04.098693+05:30
Jamshedpur,Jharkhand,22.8046,86.2029,25.1,94,0.0,990.1,9.05,30.2,111,42.6,34.9,24.4,312.0,45.0,15.0,7,5,7,1,2026-05-04T05:22:04.098699+05:30
Dhanbad,Jharkhand,23.7957,86.4304,24.1,91,0.0,979.8,9.0,34.9,153,61.7,57.5,34.6,495.0,53.0,41.6,3,5,7,1,2026-05-04T05:22:04.098706+05:30
Bokaro,Jharkhand,23.6693,86.1511,24.7,92,0.0,983.6,9.0,38.5,156,64.3,58.9,34.7,535.0,52.0,47.1,3,5,7,1,2026-05-04T05:22:04.098713+05:30
Bhubaneswar,Odisha,20.2961,85.8245,25.5,96,0.0,1001.6,9.1,36.0,73,20.3,15.8,5.0,170.0,70.0,2.9,7,5,4,1,2026-05-04T05:22:04.098719+05:30
Cuttack,Odisha,20.4625,85.8828,25.6,97,0.0,1003.5,9.15,33.5,73,20.3,15.8,5.0,183.0,70.0,2.9,7,5,4,1,2026-05-04T05:22:04.098726+05:30
Rourkela,Odisha,22.2604,84.8536,25.5,81,0.0,983.7,8.7,28.4,105,53.6,42.3,29.1,384.0,48.0,40.3,7,5,7,1,2026-05-04T05:22:04.098733+05:30
Raipur,Chhattisgarh,21.2514,81.6296,27.5,43,0.0,971.7,9.0,57.2,96,52.3,38.0,31.7,319.0,35.0,6.6,4,5,7,0,2026-05-04T05:22:04.098739+05:30
Bhilai,Chhattisgarh,21.1938,81.3509,26.9,50,0.0,971.9,9.0,59.8,102,67.3,46.4,42.3,608.0,26.0,7.6,4,5,7,0,2026-05-04T05:22:04.098746+05:30
Guwahati,Assam,26.1158,91.7086,20.1,90,0.0,1004.2,8.65,28.8,67,35.6,31.1,12.4,348.0,42.0,2.8,3,5,4,1,2026-05-04T05:22:04.098753+05:30
Agartala,Tripura,23.8315,91.2868,21.7,97,0.1,1008.1,8.85,31.3,51,15.4,8.7,7.6,178.0,79.0,1.0,6,0,4,1,2026-05-04T05:22:04.098759+05:30
Shillong,Meghalaya,25.5788,91.8933,14.5,90,0.0,856.7,9.05,31.0,57,27.8,19.8,7.8,283.0,57.0,0.7,3,10,7,0,2026-05-04T05:22:04.098766+05:30
Imphal,Manipur,24.817,93.9368,18.0,95,0.0,925.0,9.15,25.2,81,71.5,52.0,24.9,257.0,28.0,3.0,3,10,7,1,2026-05-04T05:22:04.098772+05:30
Aizawl,Mizoram,23.7271,92.7176,14.0,98,0.0,892.0,9.05,36.7,32,7.1,5.9,12.9,319.0,11.0,0.2,3,10,7,0,2026-05-04T05:22:04.098778+05:30
Kohima,Nagaland,25.6701,94.1077,13.4,95,0.0,854.6,9.05,29.2,57,37.0,28.2,12.3,234.0,31.0,0.5,3,10,7,0,2026-05-04T05:22:04.098785+05:30
Gangtok,Sikkim,27.3314,88.6138,11.8,98,0.1,836.8,8.85,41.8,52,31.1,26.0,10.7,377.0,92.0,0.8,6,10,7,0,2026-05-04T05:22:04.098791+05:30
Siliguri,West Bengal,26.7271,88.3953,20.4,86,0.0,995.7,8.55,31.7,69,48.1,42.0,17.9,343.0,89.0,4.6,3,5,7,1,2026-05-04T05:22:07.397288+05:30
Durgapur,West Bengal,23.5204,87.3119,24.9,96,0.0,995.0,8.95,36.4,138,48.3,43.5,21.5,470.0,82.0,23.5,3,5,7,1,2026-05-04T05:22:07.397324+05:30
Asansol,West Bengal,23.6739,86.9524,25.0,93,0.0,993.8,9.0,38.2,148,53.4,49.9,22.6,442.0,69.0,23.6,7,5,7,1,2026-05-04T05:22:07.397336+05:30
Pondicherry,Puducherry,11.9139,79.8145,27.0,90,0.0,1005.3,8.25,46.4,77,19.8,15.7,6.1,196.0,88.0,4.7,7,5,4,1,2026-05-04T05:22:07.397345+05:30
Port Blair,Andaman and Nicobar Islands,11.6234,92.7265,26.1,85,0.0,1007.0,9.15,33.1,27,6.2,4.4,0.6,214.0,56.0,0.3,7,5,4,1,2026-05-04T05:22:07.397353+05:30
Haridwar,Uttarakhand,29.9457,78.1642,19.0,94,0.0,974.7,7.1,45.7,128,99.0,40.3,8.4,315.0,105.0,9.6,3,10,7,1,2026-05-04T05:22:07.397361+05:30
Rishikesh,Uttarakhand,30.0869,78.2676,18.4,85,0.0,967.1,7.2,49.7,113,100.8,35.5,8.4,325.0,98.0,5.7,3,10,7,0,2026-05-04T05:22:07.397369+05:30
Nainital,Uttarakhand,29.3919,79.4542,11.2,89,0.0,802.3,5.15,35.6,106,78.9,33.3,8.4,259.0,95.0,2.6,3,10,3,0,2026-05-04T05:22:07.397376+05:30
Mussoorie,Uttarakhand,30.4599,78.0664,9.9,94,0.0,799.5,7.2,47.9,94,57.0,20.8,17.2,248.0,67.0,5.3,3,10,7,0,2026-05-04T05:22:07.397384+05:30
Dharamshala,Himachal Pradesh,32.219,76.3234,16.5,51,0.0,867.1,4.45,54.4,46,21.9,8.0,2.1,171.0,130.0,0.1,0,5,3,0,2026-05-04T05:22:07.397392+05:30
Dalhousie,Himachal Pradesh,32.5387,75.971,9.0,87,0.0,799.4,5.2,50.8,60,25.7,16.3,7.2,157.0,86.0,0.3,3,10,3,0,2026-05-04T05:22:07.397400+05:30
Patiala,Punjab,30.3398,76.3869,22.5,83,0.1,976.0,7.35,70.6,814,581.1,86.6,5.9,353.0,121.0,11.1,6,5,7,1,2026-05-04T05:22:07.397407+05:30
Bhatinda,Punjab,30.211,74.9455,24.4,64,0.0,980.1,7.95,55.1,593,394.9,80.3,5.1,391.0,116.0,11.3,3,5,7,1,2026-05-04T05:22:07.397414+05:30
Rohtak,Haryana,28.8955,76.6066,24.5,71,0.0,979.2,7.5,63.4,865,1099.0,158.3,9.0,326.0,112.0,16.8,3,5,7,1,2026-05-04T05:22:07.397421+05:30
Panipat,Haryana,29.3909,76.9635,21.9,79,0.0,978.5,7.35,63.0,1424,1199.5,149.5,9.1,308.0,104.0,15.3,3,5,7,1,2026-05-04T05:22:07.397428+05:30
Mathura,Uttar Pradesh,27.4924,77.6737,24.5,73,0.0,983.8,7.8,57.6,1031,590.5,99.9,5.2,313.0,107.0,8.3,3,5,7,1,2026-05-04T05:22:07.397434+05:30
Vrindavan,Uttar Pradesh,27.5823,77.7027,24.7,71,0.0,984.3,7.8,57.2,1031,590.5,99.9,5.2,328.0,107.0,8.3,3,5,7,1,2026-05-04T05:22:07.397441+05:30
Ayodhya,Uttar Pradesh,26.7922,82.1998,23.2,84,0.0,995.7,8.2,49.3,88,36.8,32.2,9.7,410.0,96.0,9.1,3,5,7,1,2026-05-04T05:22:07.397465+05:30
Ratlam,Madhya Pradesh,23.3315,75.0367,24.1,86,0.0,951.0,8.5,37.8,44,18.5,10.1,5.1,168.0,59.0,11.0,3,5,7,1,2026-05-04T05:22:07.397472+05:30
Sagar,Madhya Pradesh,23.8388,78.7378,24.7,46,0.0,945.7,8.6,43.2,65,50.5,18.9,9.6,231.0,61.0,2.4,0,5,7,0,2026-05-04T05:22:07.397478+05:30
Satna,Madhya Pradesh,24.6005,80.8322,24.9,73,0.0,968.6,8.25,67.0,115,51.7,44.6,7.5,383.0,118.0,16.4,3,5,7,1,2026-05-04T05:22:07.397484+05:30
Akola,Maharashtra,20.7002,77.0082,26.9,36,0.0,971.9,8.85,33.1,54,15.2,8.7,6.4,181.0,68.0,10.9,4,5,7,0,2026-05-04T05:22:07.397492+05:30
Amravati,Maharashtra,20.9374,77.7796,27.1,31,0.0,964.1,8.9,32.4,56,13.3,7.8,6.6,174.0,73.0,11.2,4,5,7,0,2026-05-04T05:22:07.397500+05:30
Latur,Maharashtra,18.4088,76.5604,25.2,33,0.0,937.1,9.1,45.0,62,29.2,12.0,7.4,218.0,65.0,3.6,4,5,7,0,2026-05-04T05:22:07.397507+05:30
Nanded,Maharashtra,19.1383,77.3091,27.5,32,0.0,965.6,9.0,28.8,61,20.8,13.3,9.4,204.0,65.0,6.1,4,5,7,0,2026-05-04T05:22:07.397514+05:30
Gulbarga,Karnataka,17.3297,76.8343,27.0,44,0.0,956.4,9.1,40.7,58,21.8,10.8,6.6,207.0,59.0,3.8,4,5,7,0,2026-05-04T05:22:07.397520+05:30
Bidar,Karnataka,17.9104,77.5199,24.9,37,0.0,932.6,9.15,33.5,76,44.9,26.5,19.9,283.0,47.0,6.1,0,5,7,0,2026-05-04T05:22:07.397527+05:30
Hospet,Karnataka,15.2689,76.3909,23.6,90,0.0,954.1,9.2,36.0,59,25.3,12.3,6.3,179.0,48.0,1.8,3,5,7,1,2026-05-04T05:22:07.397533+05:30
Tirupur,Tamil Nadu,11.1085,77.3411,25.5,85,0.0,973.4,9.4,47.5,68,42.0,22.8,14.8,180.0,36.0,4.0,7,5,7,1,2026-05-04T05:22:07.397539+05:30
Alappuzha,Kerala,9.4981,76.3388,26.2,99,0.0,1007.3,8.55,34.9,81,62.9,30.4,11.4,244.0,50.0,2.9,7,5,4,1,2026-05-04T05:22:07.397546+05:30
Munnar,Kerala,10.0889,77.0595,16.0,83,0.0,854.0,8.8,28.1,73,35.9,28.5,9.8,227.0,28.0,0.5,3,10,7,0,2026-05-04T05:22:07.397553+05:30
Silchar,Assam,24.8333,92.7789,21.0,98,0.0,1007.4,8.85,26.6,82,59.0,39.3,16.2,264.0,40.0,4.4,3,5,4,1,2026-05-04T05:22:07.397559+05:30
Dibrugarh,Assam,27.4728,94.912,20.0,99,0.0,999.0,8.8,20.5,81,37.0,33.6,27.3,369.0,27.0,1.2,3,5,7,1,2026-05-04T05:22:07.397565+05:30
