city,state,latitude,longitude,temp,humidity,rain,pressure,uv_index,wind_gusts,aqi,pm10,pm2_5,no2,co,o3,so2,mosquito_risk,arthritis_risk,migraine_risk,frizz_risk,updated_at
Delhi,Delhi,28.6139,77.209,32.9,61,0.0,976.5,7.7,23.0,123,32.7,31.3,23.8,650.0,93.0,26.1,3,5,7,1,2026-07-06T09:19:40.439587+05:30
Mumbai,Maharashtra,19.076,72.8777,26.9,90,2.2,1000.3,2.0,77.8,38,19.8,10.9,9.0,216.0,44.0,4.9,10,5,0,1,2026-07-06T09:19:40.439636+05:30
Bangalore,Karnataka,12.9716,77.5946,24.3,67,0.0,911.2,7.8,69.8,28,4.3,3.3,7.4,303.0,47.0,3.8,3,5,7,1,2026-07-06T09:19:40.439653+05:30
Hyderabad,Telangana,17.385,78.4867,24.6,85,0.1,948.3,4.7,62.6,20,5.7,4.0,6.0,277.0,43.0,4.2,6,5,3,1,2026-07-06T09:19:40.439663+05:30
Chennai,Tamil Nadu,13.0827,80.2707,32.7,43,0.0,1005.5,8.65,58.3,53,16.8,10.9,8.4,211.0,49.0,9.3,0,5,4,1,2026-07-06T09:19:40.439673+05:30
Kolkata,West Bengal,22.5726,88.3639,28.8,80,0.2,996.3,8.8,44.6,43,11.6,10.9,8.9,293.0,62.0,8.2,10,5,7,1,2026-07-06T09:19:40.439681+05:30
Pune,Maharashtra,18.5204,73.8567,24.6,88,0.0,941.2,0.9,61.2,23,2.5,2.4,5.6,175.0,51.0,4.1,3,5,3,1,2026-07-06T09:19:40.439689+05:30
Ahmedabad,Gujarat,23.0225,72.5714,30.6,74,0.0,994.0,7.9,44.3,89,77.3,35.0,6.3,281.0,41.0,4.9,3,5,7,1,2026-07-06T09:19:40.439696+05:30
Jaipur,Rajasthan,26.9124,75.7873,30.5,72,0.0,953.2,8.05,26.3,67,95.5,18.5,10.6,322.0,88.0,7.0,3,5,7,1,2026-07-06T09:19:40.439703+05:30
Lucknow,Uttar Pradesh,26.8467,80.9462,32.7,66,0.1,986.7,6.5,49.0,89,18.9,18.2,6.3,407.0,117.0,7.1,6,5,7,1,2026-07-06T09:19:40.439714+05:30
Kanpur,Uttar Pradesh,26.4499,80.3319,32.4,68,0.0,984.7,8.0,42.1,74,21.0,17.5,6.2,339.0,124.0,7.9,3,5,7,1,2026-07-06T09:19:40.439722+05:30
Chandigarh,Chandigarh,30.7333,76.7794,29.1,80,0.0,963.5,6.9,24.8,139,29.0,27.9,9.0,498.0,130.0,11.7,7,5,7,1,2026-07-06T09:19:40.439729+05:30
Srinagar,Jammu and Kashmir,34.0837,74.7973,26.2,58,0.0,839.6,9.1,33.8,84,51.6,39.2,6.6,494.0,129.0,7.7,4,5,7,1,2026-07-06T09:19:40.439736+05:30
Jammu,Jammu and Kashmir,32.7266,74.857,28.6,79,0.1,967.1,8.55,31.0,155,46.9,38.9,10.6,358.0,117.0,4.0,10,5,7,1,2026-07-06T09:19:40.439742+05:30
Amritsar,Punjab,31.634,74.8723,27.5,86,0.0,974.9,8.35,32.4,166,60.8,58.8,12.1,513.0,104.0,7.7,7,5,7,1,2026-07-06T09:19:40.439750+05:30
Ludhiana,Punjab,30.901,75.8573,27.7,87,0.1,972.8,7.65,41.8,161,45.1,35.4,10.3,418.0,107.0,12.9,10,5,7,1,2026-07-06T09:19:40.439756+05:30
Jalandhar,Punjab,31.326,75.5762,26.3,94,0.1,973.8,8.2,38.2,167,42.0,41.1,10.8,438.0,116.0,16.4,10,5,7,1,2026-07-06T09:19:40.439763+05:30
Dehradun,Uttarakhand,30.6284,78.0322,23.4,72,0.0,829.1,6.3,24.8,58,9.7,9.6,2.8,235.0,115.0,1.8,3,5,7,1,2026-07-06T09:19:40.439770+05:30
Shimla,Himachal Pradesh,31.1048,77.1734,20.1,78,0.0,783.8,7.05,20.9,75,12.4,11.8,2.7,291.0,141.0,6.2,3,5,7,1,2026-07-06T09:19:40.439777+05:30
Manali,Himachal Pradesh,32.2396,77.1887,22.4,84,0.1,817.8,7.2,30.6,48,3.2,3.2,9.3,203.0,91.0,0.1,6,5,7,1,2026-07-06T09:19:40.439785+05:30
Gurgaon,Haryana,28.4595,77.0266,32.1,67,0.0,974.9,7.75,23.0,133,26.8,25.3,20.4,587.0,87.0,15.8,3,5,7,1,2026-07-06T09:19:40.439792+05:30
Noida,Uttar Pradesh,28.5355,77.391,31.8,71,0.0,978.0,7.75,21.2,133,26.8,25.3,20.4,503.0,87.0,15.8,3,5,7,1,2026-07-06T09:19:40.439800+05:30
Ghaziabad,Uttar Pradesh,28.6692,77.4538,31.3,73,0.0,976.4,7.65,20.2,101,24.9,23.5,9.5,342.0,108.0,8.9,3,5,7,1,2026-07-06T09:19:40.439806+05:30
Faridabad,Haryana,28.4089,77.3178,31.9,69,0.0,977.2,7.75,21.2,133,26.8,25.3,20.4,463.0,87.0,15.8,3,5,7,1,2026-07-06T09:19:40.439812+05:30
Meerut,Uttar Pradesh,28.9845,77.7064,30.8,77,0.0,975.4,6.6,19.8,101,24.9,23.5,9.5,348.0,108.0,8.9,3,5,7,1,2026-07-06T09:19:40.439819+05:30
Agra,Uttar Pradesh,27.1767,78.0081,31.9,71,0.0,980.8,5.7,26.3,98,20.8,19.7,9.7,339.0,99.0,9.2,3,5,3,1,2026-07-06T09:19:40.439828+05:30
Varanasi,Uttar Pradesh,25.3176,82.9739,29.0,83,0.0,989.5,6.3,44.6,67,15.0,14.8,6.0,268.0,95.0,8.5,7,5,7,1,2026-07-06T09:19:40.439835+05:30
Prayagraj,Uttar Pradesh,25.4358,81.8463,31.3,73,0.0,988.3,6.35,46.8,72,13.8,13.6,5.4,309.0,96.0,6.1,3,5,7,1,2026-07-06T09:19:40.439842+05:30
Gorakhpur,Uttar Pradesh,26.7606,83.3732,31.3,69,0.0,990.7,3.75,52.9,71,16.3,15.5,4.9,219.0,100.0,5.3,3,5,3,1,2026-07-06T09:19:40.439849+05:30
Bareilly,Uttar Pradesh,28.367,79.4304,29.5,81,0.1,980.4,7.95,16.6,77,20.4,20.0,7.5,355.0,115.0,4.6,10,5,7,1,2026-07-06T09:19:40.439862+05:30
Aligarh,Uttar Pradesh,27.8974,78.088,31.9,71,0.0,978.9,4.05,23.4,97,27.0,25.6,9.4,352.0,98.0,10.7,3,5,3,1,2026-07-06T09:19:40.439868+05:30
Moradabad,Uttar Pradesh,28.8386,78.7733,31.9,71,0.0,977.4,7.7,31.0,84,23.9,23.5,10.8,367.0,96.0,10.0,3,5,7,1,2026-07-06T09:19:40.439876+05:30
Saharanpur,Uttar Pradesh,29.9637,77.546,29.1,83,0.0,970.0,6.5,20.5,99,26.2,25.8,7.4,330.0,113.0,7.9,7,5,7,1,2026-07-06T09:19:40.439883+05:30
Jhansi,Uttar Pradesh,25.4484,78.5685,31.5,68,0.0,970.8,8.3,36.4,54,10.7,10.1,5.2,216.0,108.0,6.9,3,5,7,1,2026-07-06T09:19:43.837429+05:30
Surat,Gujarat,21.1702,72.8311,29.0,86,0.0,997.6,3.7,32.4,90,56.9,35.4,26.9,318.0,25.0,66.4,7,5,3,1,2026-07-06T09:19:43.837462+05:30
Vadodara,Gujarat,22.3072,73.1812,29.6,81,0.0,996.0,7.55,28.1,77,56.9,27.9,12.0,321.0,42.0,11.3,7,5,7,1,2026-07-06T09:19:43.837473+05:30
Rajkot,Gujarat,22.3039,70.8022,31.1,70,0.0,986.2,6.6,40.7,81,86.6,35.5,4.4,108.0,51.0,5.1,3,5,7,1,2026-07-06T09:19:43.837482+05:30
Thane,Maharashtra,19.2183,72.9781,26.0,95,3.4,999.2,1.35,50.8,38,19.8,10.9,9.0,221.0,44.0,4.9,10,5,3,1,2026-07-06T09:19:43.837491+05:30
Nagpur,Maharashtra,21.1458,79.0882,28.4,72,0.0,966.7,8.5,41.4,52,10.4,8.8,13.0,190.0,38.0,19.2,7,5,7,1,2026-07-06T09:19:43.837499+05:30
Nashik,Maharashtra,19.9975,73.7898,23.4,96,0.2,936.4,0.85,52.9,21,2.2,2.1,8.5,145.0,43.0,3.2,6,5,3,1,2026-07-06T09:19:43.837506+05:30
Aurangabad,Maharashtra,19.8762,75.3433,24.0,93,0.1,937.1,4.9,49.7,20,3.9,3.6,6.7,195.0,46.0,4.2,6,5,3,1,2026-07-06T09:19:43.837513+05:30
Solapur,Maharashtra,17.6599,75.9064,26.9,74,0.0,952.2,3.75,69.1,21,2.6,2.2,2.2,120.0,56.0,1.8,7,5,3,1,2026-07-06T09:19:43.837522+05:30
Kolhapur,Maharashtra,16.705,74.2433,23.8,90,0.1,943.8,1.0,72.0,24,4.7,4.0,4.4,137.0,50.0,1.9,6,5,3,1,2026-07-06T09:19:43.837529+05:30
Goa,Goa,15.2993,74.124,25.4,93,0.2,996.5,3.5,41.8,56,24.4,12.2,1.6,170.0,58.0,0.6,10,5,3,1,2026-07-06T09:19:43.837537+05:30
Jodhpur,Rajasthan,26.2389,73.0243,32.6,64,0.0,975.2,8.3,19.1,82,100.8,31.3,4.8,173.0,77.0,3.5,3,5,7,1,2026-07-06T09:19:43.837545+05:30
Udaipur,Rajasthan,24.5854,73.7125,29.3,70,0.0,940.0,7.6,19.4,68,18.0,11.7,3.6,210.0,90.0,4.4,7,5,7,1,2026-07-06T09:19:43.837553+05:30
Kota,Rajasthan,25.2138,75.8648,28.6,81,0.1,971.7,8.15,25.2,78,17.7,17.3,13.4,335.0,81.0,28.6,10,5,7,1,2026-07-06T09:19:43.837561+05:30
Bikaner,Rajasthan,28.0229,73.3119,36.1,46,0.0,973.5,8.45,35.6,99,80.3,26.3,2.7,176.0,80.0,3.0,0,5,10,1,2026-07-06T09:19:43.837568+05:30
Ajmer,Rajasthan,26.4499,74.6399,30.1,73,0.0,948.1,7.3,27.4,64,12.4,11.7,5.9,220.0,95.0,6.6,3,5,7,1,2026-07-06T09:19:43.837576+05:30
Gwalior,Madhya Pradesh,26.2183,78.1828,31.1,73,0.0,976.1,8.15,31.7,61,12.2,11.4,5.0,269.0,104.0,3.6,3,5,7,1,2026-07-06T09:19:43.837583+05:30
Indore,Madhya Pradesh,22.7196,75.8577,28.5,74,0.0,940.9,5.7,24.8,137,58.9,55.1,10.8,477.0,96.0,8.2,7,5,3,1,2026-07-06T09:19:43.837591+05:30
Bhopal,Madhya Pradesh,23.2599,77.4126,27.8,78,0.1,946.7,7.85,36.0,84,23.3,21.9,4.8,393.0,94.0,2.8,10,5,7,1,2026-07-06T09:19:43.837598+05:30
Jabalpur,Madhya Pradesh,23.1815,79.9864,26.8,82,0.0,954.5,8.0,28.1,57,4.5,4.5,3.7,221.0,88.0,1.9,7,5,7,1,2026-07-06T09:19:43.837605+05:30
Ujjain,Madhya Pradesh,23.1765,75.7885,29.0,72,0.0,946.6,8.5,23.4,125,49.6,44.5,6.6,318.0,88.0,5.2,7,5,7,1,2026-07-06T09:19:43.837613+05:30
Visakhapatnam,Andhra Pradesh,17.6868,83.2185,29.1,64,0.0,997.9,8.05,61.2,42,16.5,12.0,12.7,272.0,38.0,23.9,7,5,7,1,2026-07-06T09:19:43.837620+05:30
Vijayawada,Andhra Pradesh,16.5062,80.648,31.8,56,0.0,998.6,4.7,50.8,40,11.1,7.2,3.7,127.0,51.0,4.8,0,5,3,1,2026-07-06T09:19:43.837627+05:30
Guntur,Andhra Pradesh,16.3067,80.4365,32.1,52,0.0,999.8,5.35,58.3,36,9.3,6.2,3.5,127.0,51.0,4.5,0,5,3,1,2026-07-06T09:19:43.837635+05:30
Nellore,Andhra Pradesh,14.4426,79.9865,32.7,46,0.0,1003.1,8.6,57.2,39,8.7,5.3,2.9,130.0,54.0,2.7,0,5,4,1,2026-07-06T09:19:43.837643+05:30
Kurnool,Andhra Pradesh,15.8281,78.0373,29.3,61,0.0,974.0,4.65,68.8,22,3.8,2.5,2.7,105.0,53.0,3.6,7,5,3,1,2026-07-06T09:19:43.837651+05:30
Kakinada,Andhra Pradesh,16.9891,82.2475,30.8,59,0.0,1003.0,7.1,60.8,49,17.1,10.4,4.1,164.0,53.0,5.1,0,5,4,1,2026-07-06T09:19:43.837658+05:30
Tirupati,Andhra Pradesh,13.6288,79.4192,31.6,48,0.0,989.2,8.9,57.6,38,6.4,4.3,3.1,123.0,56.0,2.0,0,5,7,1,2026-07-06T09:19:43.837665+05:30
Warangal,Telangana,17.9689,79.5941,26.6,83,0.1,973.9,2.55,45.0,21,5.0,4.5,4.2,140.0,43.0,3.2,10,5,3,1,2026-07-06T09:19:43.837673+05:30
Nizamabad,Telangana,18.6725,78.0941,25.8,86,0.1,959.3,2.7,43.9,18,4.4,4.2,5.8,152.0,38.0,2.4,10,5,3,1,2026-07-06T09:19:43.837680+05:30
Mysore,Karnataka,12.2958,76.6396,24.5,76,0.1,928.6,7.75,68.8,22,3.1,2.3,4.2,130.0,51.0,1.9,6,5,7,1,2026-07-06T09:19:43.837688+05:30
Mangalore,Karnataka,12.9141,74.856,27.7,77,0.0,1007.3,7.45,60.5,56,28.9,14.6,3.5,135.0,51.0,1.5,7,5,4,1,2026-07-06T09:19:43.837694+05:30
Hubli-Dharwad,Karnataka,15.3647,75.124,23.6,87,0.1,938.3,3.15,63.7,24,3.7,2.5,4.0,115.0,50.0,0.9,6,5,3,1,2026-07-06T09:19:43.837702+05:30
Belgaum,Karnataka,15.8497,74.4977,22.5,92,0.1,922.4,1.25,69.5,24,2.3,1.8,3.6,117.0,50.0,1.3,6,5,3,1,2026-07-06T09:19:47.222213+05:30
Coimbatore,Tamil Nadu,11.0168,76.9558,26.2,74,0.0,962.3,8.65,72.0,27,7.3,4.4,3.3,168.0,53.0,2.3,7,5,7,1,2026-07-06T09:19:47.222250+05:30
Madurai,Tamil Nadu,9.9252,78.1198,33.0,40,0.0,993.2,8.65,74.2,60,31.0,14.8,5.6,125.0,60.0,3.9,0,5,7,1,2026-07-06T09:19:47.222264+05:30
Trichy,Tamil Nadu,10.7905,78.7047,33.3,41,0.0,999.4,8.55,69.5,43,13.9,7.3,3.4,143.0,55.0,3.1,0,5,7,1,2026-07-06T09:19:47.222275+05:30
Salem,Tamil Nadu,11.6643,78.146,28.5,65,0.0,977.6,8.55,43.2,50,16.8,11.2,6.7,141.0,54.0,8.2,7,5,7,1,2026-07-06T09:19:47.222286+05:30
Tirunelveli,Tamil Nadu,8.7139,77.7567,32.6,48,0.0,1004.2,8.5,59.8,44,17.9,9.2,2.7,113.0,56.0,1.8,0,5,4,1,2026-07-06T09:19:47.222296+05:30
Vellore,Tamil Nadu,12.9165,79.1325,30.5,52,0.0,983.0,8.95,60.1,39,9.7,6.5,3.4,124.0,57.0,3.3,0,5,7,1,2026-07-06T09:19:47.222306+05:30
Erode,Tamil Nadu,11.341,77.7172,29.6,60,0.0,989.6,8.75,64.8,46,16.1,9.6,5.1,143.0,52.0,3.2,4,5,7,1,2026-07-06T09:19:47.222316+05:30
Kochi,Kerala,9.9312,76.2673,28.9,72,0.0,1011.0,7.9,40.3,57,28.6,15.4,5.4,113.0,53.0,3.2,7,0,4,1,2026-07-06T09:19:47.222325+05:30
Thiruvananthapuram,Kerala,8.5241,76.9366,28.1,78,0.0,1010.5,8.4,46.8,55,28.1,13.9,2.9,100.0,54.0,1.2,7,0,4,1,2026-07-06T09:19:47.222334+05:30
Kozhikode,Kerala,11.2588,75.7804,25.1,92,0.4,1010.4,8.2,35.6,55,39.3,16.4,0.9,158.0,60.0,0.7,10,0,4,1,2026-07-06T09:19:47.222342+05:30
Thrissur,Kerala,10.5276,76.2144,28.0,75,0.1,1009.3,8.0,50.0,53,28.9,16.8,4.9,138.0,55.0,3.1,10,0,4,1,2026-07-06T09:19:47.222352+05:30
Kannur,Kerala,11.8745,75.3704,27.3,92,0.4,1008.8,8.1,38.5,55,30.0,14.6,5.5,161.0,44.0,1.3,10,0,4,1,2026-07-06T09:19:47.222362+05:30
Patna,Bihar,25.5941,85.1376,29.7,75,0.1,992.6,4.55,53.3,54,9.3,9.1,8.2,225.0,64.0,5.5,10,5,3,1,2026-07-06T09:19:47.222371+05:30
Gaya,Bihar,24.7914,85.0002,29.4,76,0.1,985.0,7.3,50.8,53,9.5,9.5,10.2,235.0,55.0,8.2,10,5,7,1,2026-07-06T09:19:47.222380+05:30
Muzaffarpur,Bihar,26.1209,85.3647,28.8,81,0.0,993.5,6.65,55.1,53,9.0,8.8,6.3,219.0,67.0,4.3,7,5,7,1,2026-07-06T09:19:47.222389+05:30
Bhagalpur,Bihar,25.2425,87.0117,30.0,75,0.0,993.6,7.85,55.1,41,7.7,7.5,7.3,188.0,70.0,6.7,7,5,7,1,2026-07-06T09:19:47.222398+05:30
Ranchi,Jharkhand,23.3441,85.3096,26.0,82,0.0,928.3,3.7,33.8,54,7.0,7.0,8.2,457.0,62.0,9.9,7,5,3,1,2026-07-06T09:19:47.222407+05:30
Jamshedpur,Jharkhand,22.8046,86.2029,27.9,85,0.0,980.1,2.15,26.3,53,14.4,14.4,11.7,352.0,71.0,23.9,7,5,3,1,2026-07-06T09:19:47.222416+05:30
Dhanbad,Jharkhand,23.7957,86.4304,25.8,96,0.1,970.1,4.1,50.8,59,19.3,19.0,27.9,197.0,40.0,61.5,10,5,3,1,2026-07-06T09:19:47.222425+05:30
Bokaro,Jharkhand,23.6693,86.1511,25.5,96,2.6,973.6,4.35,46.8,59,17.6,17.2,26.1,239.0,40.0,58.2,10,5,3,1,2026-07-06T09:19:47.222434+05:30
Bhubaneswar,Odisha,20.2961,85.8245,27.0,88,0.1,993.6,8.05,54.7,28,9.9,8.2,7.9,196.0,42.0,4.9,10,5,7,1,2026-07-06T09:19:47.222442+05:30
Cuttack,Odisha,20.4625,85.8828,26.4,92,0.4,995.2,8.4,54.4,28,9.9,8.2,7.9,221.0,42.0,4.9,10,5,7,1,2026-07-06T09:19:47.222451+05:30
Rourkela,Odisha,22.2604,84.8536,28.4,81,0.1,975.2,1.1,40.7,63,11.1,11.1,10.2,383.0,54.0,9.9,10,5,3,1,2026-07-06T09:19:47.222459+05:30
Raipur,Chhattisgarh,21.2514,81.6296,25.4,94,0.1,967.7,1.9,46.1,63,16.9,16.5,25.0,466.0,17.0,48.6,10,5,3,1,2026-07-06T09:19:47.222468+05:30
Bhilai,Chhattisgarh,21.1938,81.3509,24.7,96,0.2,968.2,2.4,48.6,59,14.5,14.0,19.7,641.0,22.0,38.4,6,5,3,1,2026-07-06T09:19:47.222477+05:30
Guwahati,Assam,26.1158,91.7086,29.2,81,0.0,997.1,7.05,27.0,29,9.4,9.2,4.3,235.0,72.0,1.9,7,5,7,1,2026-07-06T09:19:47.222485+05:30
Agartala,Tripura,23.8315,91.2868,26.8,95,0.1,1001.6,6.8,42.5,25,5.9,5.1,3.2,136.0,67.0,1.5,10,5,4,1,2026-07-06T09:19:47.222494+05:30
Shillong,Meghalaya,25.5788,91.8933,23.1,80,0.0,855.7,3.55,41.0,23,2.4,2.3,3.7,148.0,71.0,1.4,3,5,3,1,2026-07-06T09:19:47.222502+05:30
Imphal,Manipur,24.817,93.9368,26.3,77,0.1,921.1,7.85,27.7,22,4.8,4.6,2.8,180.0,70.0,1.6,10,5,7,1,2026-07-06T09:19:47.222511+05:30
Aizawl,Mizoram,23.7271,92.7176,22.7,85,0.0,890.0,2.95,41.8,19,1.5,1.4,1.4,117.0,63.0,0.8,3,5,3,1,2026-07-06T09:19:47.222519+05:30
Kohima,Nagaland,25.6701,94.1077,24.1,85,0.0,854.6,8.45,21.6,26,4.7,4.4,1.8,130.0,64.0,0.8,3,5,7,1,2026-07-06T09:19:47.222528+05:30
Gangtok,Sikkim,27.3314,88.6138,19.8,100,0.0,836.3,2.7,26.6,31,10.3,8.8,3.3,187.0,83.0,0.7,3,10,3,1,2026-07-06T09:19:47.222537+05:30
Siliguri,West Bengal,26.7271,88.3953,27.2,89,0.1,988.7,4.5,42.5,40,8.1,8.1,7.1,331.0,68.0,2.2,10,5,3,1,2026-07-06T09:19:50.622408+05:30
Durgapur,West Bengal,23.5204,87.3119,28.4,83,0.0,985.1,7.05,53.6,52,11.1,10.7,14.8,248.0,58.0,23.5,7,5,7,1,2026-07-06T09:19:50.622447+05:30
Asansol,West Bengal,23.6739,86.9524,27.8,86,0.0,983.6,6.05,50.8,51,12.3,12.2,18.4,241.0,51.0,28.3,7,5,7,1,2026-07-06T09:19:50.622461+05:30
Pondicherry,Puducherry,11.9139,79.8145,31.3,56,0.0,1007.3,8.65,53.3,54,23.2,16.2,9.2,168.0,45.0,8.8,0,5,4,1,2026-07-06T09:19:50.622473+05:30
Port Blair,Andaman and Nicobar Islands,11.6234,92.7265,30.8,71,0.0,1008.0,8.65,39.6,41,12.8,7.6,0.3,93.0,53.0,0.5,3,0,4,1,2026-07-06T09:19:50.622484+05:30
Haridwar,Uttarakhand,29.9457,78.1642,30.8,72,0.0,968.2,6.65,20.9,83,19.7,19.5,4.0,315.0,126.0,6.0,3,5,7,1,2026-07-06T09:19:50.622494+05:30
Rishikesh,Uttarakhand,30.0869,78.2676,30.0,74,0.0,961.2,5.4,24.1,63,12.5,12.2,1.9,273.0,130.0,3.7,7,5,3,1,2026-07-06T09:19:50.622503+05:30
Nainital,Uttarakhand,29.3919,79.4542,22.3,67,0.0,805.3,6.45,23.8,48,7.7,7.5,3.1,224.0,107.0,1.3,3,5,7,0,2026-07-06T09:19:50.622512+05:30
Mussoorie,Uttarakhand,30.4599,78.0664,21.9,72,0.1,802.4,5.95,31.7,74,14.2,14.0,4.0,310.0,128.0,5.2,6,5,3,1,2026-07-06T09:19:50.622521+05:30
Dharamshala,Himachal Pradesh,32.219,76.3234,22.3,95,0.2,866.0,7.7,31.7,30,4.4,4.2,2.1,310.0,89.0,0.5,6,5,7,1,2026-07-06T09:19:50.622529+05:30
Dalhousie,Himachal Pradesh,32.5387,75.971,19.4,98,0.0,802.7,8.5,20.9,81,18.4,16.5,5.8,310.0,126.0,1.9,3,10,7,1,2026-07-06T09:19:50.622538+05:30
Patiala,Punjab,30.3398,76.3869,28.7,86,0.0,972.4,7.3,34.9,154,31.3,30.7,8.2,319.0,108.0,8.8,7,5,7,1,2026-07-06T09:19:50.622547+05:30
Bhatinda,Punjab,30.211,74.9455,32.7,68,0.0,976.9,8.0,32.8,164,491.7,128.1,13.4,491.0,92.0,9.7,3,5,7,1,2026-07-06T09:19:50.622554+05:30
Rohtak,Haryana,28.8955,76.6066,31.5,76,0.0,975.2,7.7,19.4,149,38.5,32.2,21.2,452.0,89.0,20.6,3,5,7,1,2026-07-06T09:19:50.622562+05:30
Panipat,Haryana,29.3909,76.9635,29.9,85,0.0,974.4,7.55,23.8,144,39.0,34.6,17.2,341.0,86.0,17.2,7,5,7,1,2026-07-06T09:19:50.622570+05:30
Mathura,Uttar Pradesh,27.4924,77.6737,32.0,69,0.0,980.0,4.45,22.0,99,16.3,15.3,9.5,338.0,94.0,6.0,3,5,3,1,2026-07-06T09:19:50.622578+05:30
Vrindavan,Uttar Pradesh,27.5823,77.7027,32.1,68,0.0,980.5,5.25,22.0,99,16.3,15.3,9.5,315.0,94.0,6.0,3,5,3,1,2026-07-06T09:19:50.622586+05:30
Ayodhya,Uttar Pradesh,26.7922,82.1998,32.2,67,0.0,988.9,5.7,49.3,80,14.3,13.6,4.8,358.0,102.0,4.7,3,5,3,1,2026-07-06T09:19:50.622594+05:30
Ratlam,Madhya Pradesh,23.3315,75.0367,29.9,66,0.0,947.5,8.45,27.4,95,39.1,31.7,4.7,229.0,88.0,4.4,7,5,7,1,2026-07-06T09:19:50.622602+05:30
Sagar,Madhya Pradesh,23.8388,78.7378,28.4,80,0.0,943.4,8.0,24.8,52,5.4,5.3,3.2,242.0,92.0,1.5,7,5,7,1,2026-07-06T09:19:50.622610+05:30
Satna,Madhya Pradesh,24.6005,80.8322,26.6,93,0.0,964.1,8.2,31.3,64,17.9,17.8,5.5,209.0,103.0,6.0,7,5,7,1,2026-07-06T09:19:50.622619+05:30
Akola,Maharashtra,20.7002,77.0082,28.7,72,0.0,968.0,4.7,42.8,25,3.6,3.3,6.4,144.0,40.0,6.9,7,5,3,1,2026-07-06T09:19:50.622629+05:30
Amravati,Maharashtra,20.9374,77.7796,28.4,71,0.0,960.8,3.55,38.2,26,3.4,3.1,6.0,159.0,41.0,7.0,7,5,3,1,2026-07-06T09:19:50.622637+05:30
Latur,Maharashtra,18.4088,76.5604,24.3,91,0.1,934.2,3.15,60.8,20,2.9,2.7,4.0,128.0,43.0,1.8,6,5,3,1,2026-07-06T09:19:50.622646+05:30
Nanded,Maharashtra,19.1383,77.3091,26.7,82,0.1,962.6,7.35,40.3,19,6.6,4.6,5.7,141.0,42.0,3.8,10,5,7,1,2026-07-06T09:19:50.622655+05:30
Gulbarga,Karnataka,17.3297,76.8343,27.1,71,0.1,954.4,1.65,73.4,20,4.8,3.0,3.2,125.0,51.0,2.2,10,5,3,1,2026-07-06T09:19:50.622663+05:30
Bidar,Karnataka,17.9104,77.5199,24.0,90,0.1,930.3,2.55,62.6,19,3.9,3.0,5.3,118.0,42.0,2.1,6,5,3,1,2026-07-06T09:19:50.622671+05:30
Hospet,Karnataka,15.2689,76.3909,26.2,74,0.1,953.4,6.1,73.4,23,3.7,2.5,3.4,113.0,51.0,1.5,10,5,7,1,2026-07-06T09:19:50.622678+05:30
Tirupur,Tamil Nadu,11.1085,77.3411,28.3,64,0.0,975.3,8.65,72.7,50,14.1,9.3,5.6,138.0,53.0,4.0,7,5,7,1,2026-07-06T09:19:50.622686+05:30
Alappuzha,Kerala,9.4981,76.3388,29.2,71,0.0,1011.1,8.05,40.0,58,30.9,16.1,4.2,92.0,56.0,2.1,7,0,4,1,2026-07-06T09:19:50.622694+05:30
Munnar,Kerala,10.0889,77.0595,16.0,94,0.1,857.4,5.95,60.8,31,21.2,8.8,2.0,103.0,56.0,1.5,6,10,3,0,2026-07-06T09:19:50.622702+05:30
Silchar,Assam,24.8333,92.7789,30.5,77,0.0,1001.3,6.5,25.9,47,7.9,7.7,2.6,192.0,74.0,2.9,3,5,4,1,2026-07-06T09:19:50.622711+05:30
Dibrugarh,Assam,27.4728,94.912,32.6,67,0.0,990.3,8.7,32.8,41,10.0,9.4,1.5,166.0,81.0,0.9,3,5,7,1,2026-07-06T09:19:50.622718+05:30
