city,state,latitude,longitude,temp,humidity,rain,pressure,uv_index,wind_gusts,aqi,pm10,pm2_5,no2,co,o3,so2,mosquito_risk,arthritis_risk,migraine_risk,frizz_risk,updated_at
Delhi,Delhi,28.6139,77.209,32.2,22,0.0,977.1,7.75,36.7,484,553.2,146.7,30.3,451.0,50.0,15.1,0,5,7,0,2026-05-27T03:52:01.659568+05:30
Mumbai,Maharashtra,19.076,72.8777,29.8,75,0.0,1008.3,7.8,40.0,42,12.9,8.6,5.7,170.0,42.0,3.8,7,0,4,1,2026-05-27T03:52:01.659627+05:30
Bangalore,Karnataka,12.9716,77.5946,21.5,93,0.0,910.9,9.25,30.6,82,29.8,27.5,24.1,325.0,48.0,6.9,3,5,7,1,2026-05-27T03:52:01.659644+05:30
Hyderabad,Telangana,17.385,78.4867,29.6,51,0.0,952.2,8.85,40.3,102,17.2,14.6,7.3,197.0,76.0,6.8,4,5,7,1,2026-05-27T03:52:01.659656+05:30
Chennai,Tamil Nadu,13.0827,80.2707,29.6,57,0.0,1004.6,8.55,36.0,83,26.8,23.6,19.1,250.0,51.0,13.9,4,5,4,1,2026-05-27T03:52:01.659666+05:30
Kolkata,West Bengal,22.5726,88.3639,29.2,87,0.0,1002.2,8.9,38.9,122,42.5,35.7,6.2,254.0,87.0,5.9,7,5,4,1,2026-05-27T03:52:01.659675+05:30
Pune,Maharashtra,18.5204,73.8567,24.6,87,0.0,948.1,8.4,41.0,40,10.6,8.5,12.0,137.0,32.0,10.5,3,5,7,1,2026-05-27T03:52:01.659683+05:30
Ahmedabad,Gujarat,23.0225,72.5714,29.8,73,0.0,1000.6,8.15,36.0,81,36.9,18.2,4.1,131.0,49.0,3.7,7,5,4,1,2026-05-27T03:52:01.659692+05:30
Jaipur,Rajasthan,26.9124,75.7873,32.8,31,0.0,955.8,8.25,48.2,158,380.0,74.0,4.0,161.0,79.0,4.3,0,5,7,0,2026-05-27T03:52:01.659708+05:30
Lucknow,Uttar Pradesh,26.8467,80.9462,28.6,63,0.0,988.0,8.2,29.9,171,302.7,85.0,31.7,418.0,49.0,12.3,7,5,7,1,2026-05-27T03:52:01.659717+05:30
Kanpur,Uttar Pradesh,26.4499,80.3319,31.4,27,0.0,985.5,8.2,36.0,479,586.7,117.1,23.9,477.0,55.0,8.7,0,5,7,0,2026-05-27T03:52:01.659725+05:30
Chandigarh,Chandigarh,30.7333,76.7794,26.9,28,0.0,962.0,7.8,41.0,59,25.1,20.6,23.6,252.0,47.0,5.8,4,5,7,0,2026-05-27T03:52:01.659733+05:30
Srinagar,Jammu and Kashmir,34.0837,74.7973,10.3,90,0.0,839.5,9.0,23.0,72,43.5,38.2,25.8,296.0,40.0,2.6,3,10,7,0,2026-05-27T03:52:01.659743+05:30
Jammu,Jammu and Kashmir,32.7266,74.857,25.1,33,0.0,966.5,8.6,48.6,65,25.5,22.5,27.9,348.0,20.0,2.2,4,5,7,0,2026-05-27T03:52:01.659751+05:30
Amritsar,Punjab,31.634,74.8723,28.2,34,0.0,975.1,8.45,31.3,92,72.9,66.6,58.9,478.0,7.0,9.7,4,5,7,0,2026-05-27T03:52:01.659758+05:30
Ludhiana,Punjab,30.901,75.8573,28.4,29,0.0,972.9,8.05,38.9,68,36.1,32.9,25.4,494.0,44.0,6.8,4,5,7,0,2026-05-27T03:52:01.659768+05:30
Jalandhar,Punjab,31.326,75.5762,28.0,30,0.0,973.7,8.25,36.4,81,56.3,46.7,37.8,442.0,38.0,7.6,4,5,7,0,2026-05-27T03:52:01.659775+05:30
Dehradun,Uttarakhand,30.6284,78.0322,12.7,55,0.0,823.8,8.2,41.8,52,14.5,11.6,26.0,196.0,13.0,0.3,0,5,7,0,2026-05-27T03:52:01.659790+05:30
Shimla,Himachal Pradesh,31.1048,77.1734,12.7,38,0.0,779.1,8.3,54.7,49,22.3,13.9,19.6,169.0,69.0,1.3,0,5,7,1,2026-05-27T03:52:01.659800+05:30
Manali,Himachal Pradesh,32.2396,77.1887,9.8,43,0.0,811.9,9.65,50.0,44,12.9,8.8,31.0,178.0,104.0,0.0,0,5,7,1,2026-05-27T03:52:01.659808+05:30
Gurgaon,Haryana,28.4595,77.0266,28.8,32,0.0,975.3,7.85,36.4,900,584.9,132.7,43.4,450.0,36.0,20.6,4,5,7,0,2026-05-27T03:52:01.659815+05:30
Noida,Uttar Pradesh,28.5355,77.391,31.3,27,0.0,978.2,7.75,30.2,900,584.9,132.7,43.4,498.0,36.0,20.6,0,5,7,0,2026-05-27T03:52:01.659823+05:30
Ghaziabad,Uttar Pradesh,28.6692,77.4538,30.4,29,0.0,976.5,7.75,35.3,329,423.8,116.6,22.9,386.0,60.0,13.1,0,5,7,0,2026-05-27T03:52:01.659830+05:30
Faridabad,Haryana,28.4089,77.3178,32.2,21,0.0,977.6,7.8,38.5,900,584.9,132.7,43.4,579.0,36.0,20.6,0,5,7,0,2026-05-27T03:52:01.659837+05:30
Meerut,Uttar Pradesh,28.9845,77.7064,29.9,25,0.0,975.1,7.7,27.4,329,423.8,116.6,22.9,333.0,60.0,13.1,4,5,7,0,2026-05-27T03:52:01.659845+05:30
Agra,Uttar Pradesh,27.1767,78.0081,32.0,32,0.0,981.8,8.1,37.1,756,244.0,84.5,50.0,629.0,19.0,15.4,0,5,7,0,2026-05-27T03:52:01.659852+05:30
Varanasi,Uttar Pradesh,25.3176,82.9739,29.5,69,0.0,992.0,8.7,36.0,145,58.7,48.9,16.4,494.0,87.0,18.1,7,5,7,1,2026-05-27T03:52:01.659860+05:30
Prayagraj,Uttar Pradesh,25.4358,81.8463,30.3,52,0.0,990.3,8.55,52.6,151,101.7,60.3,37.1,548.0,49.0,16.0,0,5,7,1,2026-05-27T03:52:01.659867+05:30
Gorakhpur,Uttar Pradesh,26.7606,83.3732,24.9,77,0.0,993.6,8.55,37.4,104,52.7,36.8,20.5,334.0,64.0,6.5,3,5,7,1,2026-05-27T03:52:01.659876+05:30
Bareilly,Uttar Pradesh,28.367,79.4304,27.1,39,0.0,980.2,8.0,31.3,151,210.9,74.3,42.7,483.0,34.0,12.5,4,5,7,0,2026-05-27T03:52:01.659884+05:30
Aligarh,Uttar Pradesh,27.8974,78.088,29.3,36,0.0,979.1,7.9,33.8,668,412.6,115.7,50.7,560.0,18.0,14.3,4,5,7,0,2026-05-27T03:52:01.659891+05:30
Moradabad,Uttar Pradesh,28.8386,78.7733,28.5,27,0.0,977.0,7.85,33.1,156,209.5,72.4,32.7,481.0,41.0,9.6,4,5,7,0,2026-05-27T03:52:01.659899+05:30
Saharanpur,Uttar Pradesh,29.9637,77.546,28.9,20,0.0,968.7,7.5,35.3,81,29.7,20.7,18.5,233.0,67.0,8.7,4,5,7,0,2026-05-27T03:52:01.659906+05:30
Jhansi,Uttar Pradesh,25.4484,78.5685,32.5,27,0.0,973.1,8.45,52.6,89,62.6,32.8,11.5,198.0,42.0,4.8,0,5,7,0,2026-05-27T03:52:04.931057+05:30
Surat,Gujarat,21.1702,72.8311,29.2,80,0.0,1006.2,7.7,45.7,68,50.6,25.2,18.7,275.0,34.0,31.5,7,5,4,1,2026-05-27T03:52:04.931093+05:30
Vadodara,Gujarat,22.3072,73.1812,29.8,77,0.0,1003.0,8.05,40.7,71,34.9,20.6,11.7,173.0,36.0,12.2,7,5,4,1,2026-05-27T03:52:04.931104+05:30
Rajkot,Gujarat,22.3039,70.8022,27.6,80,0.0,992.8,7.75,47.5,69,38.0,16.6,4.7,115.0,43.0,4.8,7,5,7,1,2026-05-27T03:52:04.931113+05:30
Thane,Maharashtra,19.2183,72.9781,28.9,84,0.0,1007.6,7.85,38.2,42,12.9,8.6,5.7,327.0,42.0,3.8,7,5,4,1,2026-05-27T03:52:04.931120+05:30
Nagpur,Maharashtra,21.1458,79.0882,34.3,32,0.0,969.5,8.9,44.3,79,37.1,25.6,11.3,265.0,65.0,6.8,0,5,7,0,2026-05-27T03:52:04.931128+05:30
Nashik,Maharashtra,19.9975,73.7898,24.4,91,0.0,945.4,8.15,40.0,25,8.4,6.4,7.3,127.0,32.0,3.5,3,5,7,1,2026-05-27T03:52:04.931134+05:30
Aurangabad,Maharashtra,19.8762,75.3433,27.0,75,0.0,943.3,9.0,41.0,40,9.4,7.1,9.0,150.0,37.0,6.4,7,5,7,1,2026-05-27T03:52:04.931142+05:30
Solapur,Maharashtra,17.6599,75.9064,28.8,66,0.0,957.0,8.95,38.9,51,12.6,10.6,10.8,211.0,41.0,4.0,7,5,7,1,2026-05-27T03:52:04.931149+05:30
Kolhapur,Maharashtra,16.705,74.2433,24.5,90,0.0,948.1,8.8,41.8,30,7.3,5.8,5.7,147.0,36.0,2.4,3,5,7,1,2026-05-27T03:52:04.931156+05:30
Goa,Goa,15.2993,74.124,26.6,97,0.0,998.4,5.85,29.2,46,17.6,15.5,10.7,307.0,35.0,2.2,7,5,3,1,2026-05-27T03:52:04.931164+05:30
Jodhpur,Rajasthan,26.2389,73.0243,32.7,43,0.0,979.4,8.4,43.2,160,268.2,60.5,3.3,135.0,57.0,2.9,0,5,7,1,2026-05-27T03:52:04.931171+05:30
Udaipur,Rajasthan,24.5854,73.7125,28.9,60,0.0,944.2,8.85,43.2,89,31.7,19.0,3.9,138.0,62.0,3.1,4,5,7,1,2026-05-27T03:52:04.931178+05:30
Kota,Rajasthan,25.2138,75.8648,33.5,29,0.0,974.8,8.4,44.3,100,55.9,31.0,5.5,183.0,69.0,6.7,0,5,7,0,2026-05-27T03:52:04.931185+05:30
Bikaner,Rajasthan,28.0229,73.3119,30.9,28,0.0,976.5,8.4,41.8,156,257.0,79.9,3.1,141.0,57.0,2.1,0,5,7,0,2026-05-27T03:52:04.931212+05:30
Ajmer,Rajasthan,26.4499,74.6399,31.0,42,0.0,951.7,8.4,58.0,93,63.3,25.1,3.9,160.0,74.0,4.0,0,5,7,1,2026-05-27T03:52:04.931219+05:30
Gwalior,Madhya Pradesh,26.2183,78.1828,32.6,26,0.0,977.6,8.25,54.7,108,71.2,34.0,10.6,196.0,46.0,4.8,0,5,7,0,2026-05-27T03:52:04.931226+05:30
Indore,Madhya Pradesh,22.7196,75.8577,28.8,50,0.0,946.8,8.65,47.9,73,31.5,21.7,5.6,209.0,77.0,10.1,4,5,7,1,2026-05-27T03:52:04.931232+05:30
Bhopal,Madhya Pradesh,23.2599,77.4126,32.2,34,0.0,950.9,8.65,42.8,72,45.2,26.8,3.5,185.0,84.0,5.9,0,5,7,0,2026-05-27T03:52:04.931239+05:30
Jabalpur,Madhya Pradesh,23.1815,79.9864,31.5,26,0.0,957.4,8.85,40.0,81,47.1,26.7,15.1,218.0,51.0,4.8,0,5,7,0,2026-05-27T03:52:04.931246+05:30
Ujjain,Madhya Pradesh,23.1765,75.7885,29.0,52,0.0,952.3,8.6,49.3,76,28.7,19.6,5.8,216.0,68.0,11.0,4,5,7,1,2026-05-27T03:52:04.931253+05:30
Visakhapatnam,Andhra Pradesh,17.6868,83.2185,30.0,85,0.0,999.1,9.05,31.7,131,45.4,36.7,37.1,313.0,91.0,46.4,7,5,7,1,2026-05-27T03:52:04.931260+05:30
Vijayawada,Andhra Pradesh,16.5062,80.648,32.1,53,0.0,999.7,9.05,39.2,139,27.9,24.2,8.5,280.0,88.0,4.7,0,5,7,1,2026-05-27T03:52:04.931267+05:30
Guntur,Andhra Pradesh,16.3067,80.4365,30.9,56,0.0,1000.6,9.05,40.3,130,22.0,19.1,7.2,235.0,90.0,5.0,0,5,4,1,2026-05-27T03:52:04.931274+05:30
Nellore,Andhra Pradesh,14.4426,79.9865,29.8,59,0.0,1002.8,9.05,56.2,71,17.0,14.8,5.8,161.0,91.0,5.7,4,5,4,1,2026-05-27T03:52:04.931281+05:30
Kurnool,Andhra Pradesh,15.8281,78.0373,28.8,69,0.0,975.9,8.75,40.3,57,13.3,11.9,12.5,187.0,56.0,4.2,7,5,7,1,2026-05-27T03:52:04.931289+05:30
Kakinada,Andhra Pradesh,16.9891,82.2475,31.0,74,0.0,1003.2,9.0,40.3,108,34.1,27.9,4.8,278.0,137.0,5.2,3,5,4,1,2026-05-27T03:52:04.931297+05:30
Tirupati,Andhra Pradesh,13.6288,79.4192,28.2,59,0.0,988.5,9.05,27.7,79,22.6,20.3,13.0,193.0,54.0,2.4,4,5,7,1,2026-05-27T03:52:04.931303+05:30
Warangal,Telangana,17.9689,79.5941,31.5,48,0.0,975.9,9.05,43.6,122,57.3,42.6,15.8,306.0,61.0,5.7,0,5,7,1,2026-05-27T03:52:04.931310+05:30
Nizamabad,Telangana,18.6725,78.0941,29.3,56,0.0,962.8,9.0,35.6,96,51.8,35.5,17.4,207.0,54.0,6.6,4,5,7,1,2026-05-27T03:52:04.931317+05:30
Mysore,Karnataka,12.2958,76.6396,22.1,96,0.0,927.8,9.15,43.6,56,13.0,12.3,10.6,172.0,45.0,2.8,3,5,7,1,2026-05-27T03:52:04.931323+05:30
Mangalore,Karnataka,12.9141,74.856,25.9,97,0.0,1007.0,7.4,28.8,58,16.1,13.7,11.3,247.0,34.0,3.7,7,5,4,1,2026-05-27T03:52:04.931330+05:30
Hubli-Dharwad,Karnataka,15.3647,75.124,24.0,95,0.0,940.8,7.55,39.6,25,4.4,3.5,3.6,148.0,43.0,1.1,3,5,7,1,2026-05-27T03:52:04.931337+05:30
Belgaum,Karnataka,15.8497,74.4977,23.2,95,0.0,926.0,9.0,37.4,26,5.6,4.5,3.8,135.0,42.0,1.5,3,5,7,1,2026-05-27T03:52:08.180998+05:30
Coimbatore,Tamil Nadu,11.0168,76.9558,24.5,89,0.0,961.0,8.4,53.3,41,8.1,6.6,4.9,152.0,54.0,3.2,3,5,7,1,2026-05-27T03:52:08.181034+05:30
Madurai,Tamil Nadu,9.9252,78.1198,27.8,73,0.0,991.7,8.55,26.6,102,50.5,45.2,38.1,207.0,5.0,6.4,7,5,7,1,2026-05-27T03:52:08.181045+05:30
Trichy,Tamil Nadu,10.7905,78.7047,28.8,67,0.0,998.2,8.3,42.8,62,16.6,15.4,16.4,145.0,38.0,4.9,7,5,7,1,2026-05-27T03:52:08.181054+05:30
Salem,Tamil Nadu,11.6643,78.146,27.6,71,0.0,976.4,8.4,35.3,78,28.4,25.0,24.3,206.0,34.0,7.8,7,5,7,1,2026-05-27T03:52:08.181063+05:30
Tirunelveli,Tamil Nadu,8.7139,77.7567,28.7,68,0.0,1002.7,8.85,29.9,30,9.2,7.7,7.2,162.0,40.0,2.4,7,5,4,1,2026-05-27T03:52:08.181071+05:30
Vellore,Tamil Nadu,12.9165,79.1325,27.5,63,0.0,982.5,8.55,36.0,96,33.2,31.4,20.2,263.0,32.0,4.8,7,5,7,1,2026-05-27T03:52:08.181078+05:30
Erode,Tamil Nadu,11.341,77.7172,27.3,76,0.0,988.2,8.95,46.1,56,13.9,12.7,17.4,185.0,35.0,4.4,7,5,7,1,2026-05-27T03:52:08.181086+05:30
Kochi,Kerala,9.9312,76.2673,25.9,99,0.0,1009.4,7.95,29.5,57,18.9,16.9,19.8,254.0,15.0,5.1,7,0,4,1,2026-05-27T03:52:08.181094+05:30
Thiruvananthapuram,Kerala,8.5241,76.9366,24.3,97,0.0,1009.1,7.8,34.2,27,7.7,4.3,1.9,247.0,52.0,0.7,3,0,4,1,2026-05-27T03:52:08.181101+05:30
Kozhikode,Kerala,11.2588,75.7804,25.2,100,0.0,1008.4,6.8,29.5,29,8.0,5.4,2.3,462.0,60.0,1.2,7,0,4,1,2026-05-27T03:52:08.181108+05:30
Thrissur,Kerala,10.5276,76.2144,24.9,97,0.0,1007.7,7.95,30.2,55,15.9,14.5,16.0,263.0,23.0,5.9,3,5,4,1,2026-05-27T03:52:08.181116+05:30
Kannur,Kerala,11.8745,75.3704,25.8,95,0.0,1007.5,8.15,31.0,61,18.2,16.4,16.3,236.0,24.0,3.4,7,5,4,1,2026-05-27T03:52:08.181122+05:30
Patna,Bihar,25.5941,85.1376,24.8,85,0.0,996.4,8.75,44.3,99,45.3,40.2,16.2,385.0,74.0,15.7,3,5,7,1,2026-05-27T03:52:08.181129+05:30
Gaya,Bihar,24.7914,85.0002,28.4,78,0.0,988.8,8.85,37.8,125,52.2,46.3,16.8,427.0,72.0,15.9,7,5,7,1,2026-05-27T03:52:08.181135+05:30
Muzaffarpur,Bihar,26.1209,85.3647,24.0,90,0.1,997.1,8.75,45.4,91,44.7,38.5,17.5,396.0,60.0,12.7,6,5,7,1,2026-05-27T03:52:08.181142+05:30
Bhagalpur,Bihar,25.2425,87.0117,23.2,94,0.2,999.4,8.7,42.5,93,59.8,46.0,8.4,428.0,116.0,12.8,6,5,7,1,2026-05-27T03:52:08.181148+05:30
Ranchi,Jharkhand,23.3441,85.3096,25.3,80,0.0,933.9,9.0,45.7,99,88.5,42.7,19.0,314.0,66.0,8.9,7,5,7,1,2026-05-27T03:52:08.181156+05:30
Jamshedpur,Jharkhand,22.8046,86.2029,28.8,93,0.0,986.6,9.0,54.4,155,90.3,68.9,25.4,488.0,66.0,21.0,7,5,7,1,2026-05-27T03:52:08.181163+05:30
Dhanbad,Jharkhand,23.7957,86.4304,29.1,87,0.0,975.7,8.85,38.5,164,123.4,108.5,54.5,704.0,27.0,173.4,7,5,7,1,2026-05-27T03:52:08.181170+05:30
Bokaro,Jharkhand,23.6693,86.1511,28.0,93,0.0,979.5,8.85,39.6,157,138.3,108.3,58.5,1437.0,9.0,149.4,7,5,7,1,2026-05-27T03:52:08.181177+05:30
Bhubaneswar,Odisha,20.2961,85.8245,29.5,90,0.0,998.7,9.05,41.0,115,26.4,20.4,4.4,189.0,80.0,4.6,7,5,7,1,2026-05-27T03:52:08.181184+05:30
Cuttack,Odisha,20.4625,85.8828,29.5,92,0.0,1000.5,9.1,54.4,115,26.4,20.4,4.4,193.0,80.0,4.6,7,5,4,1,2026-05-27T03:52:08.181209+05:30
Rourkela,Odisha,22.2604,84.8536,29.2,86,0.0,980.8,8.95,49.3,153,109.7,74.7,38.2,290.0,49.0,20.0,7,5,7,1,2026-05-27T03:52:08.181217+05:30
Raipur,Chhattisgarh,21.2514,81.6296,32.3,34,0.0,970.1,8.95,39.2,113,53.3,39.0,32.8,316.0,53.0,51.6,0,5,7,0,2026-05-27T03:52:08.181225+05:30
Bhilai,Chhattisgarh,21.1938,81.3509,31.0,39,0.0,970.6,8.95,42.8,105,49.2,35.4,24.7,531.0,58.0,38.6,0,5,7,0,2026-05-27T03:52:08.181232+05:30
Guwahati,Assam,26.1158,91.7086,22.5,98,0.0,1001.5,8.7,22.7,59,22.6,15.9,7.8,317.0,60.0,2.7,3,5,4,1,2026-05-27T03:52:08.181239+05:30
Agartala,Tripura,23.8315,91.2868,24.4,89,0.0,1005.0,8.45,42.1,79,19.6,15.6,10.3,219.0,52.0,1.9,3,5,4,1,2026-05-27T03:52:08.181246+05:30
Shillong,Meghalaya,25.5788,91.8933,16.5,96,0.1,854.7,8.45,36.7,38,4.2,2.7,5.2,192.0,69.0,2.2,6,10,7,0,2026-05-27T03:52:08.181253+05:30
Imphal,Manipur,24.817,93.9368,18.6,96,0.0,922.4,9.25,32.8,80,23.0,14.1,2.7,410.0,72.0,1.8,3,10,7,1,2026-05-27T03:52:08.181260+05:30
Aizawl,Mizoram,23.7271,92.7176,14.5,96,0.0,890.1,9.05,33.8,72,34.0,20.8,3.4,175.0,56.0,1.2,3,10,7,0,2026-05-27T03:52:08.181267+05:30
Kohima,Nagaland,25.6701,94.1077,14.8,72,0.0,852.9,9.25,31.7,50,15.9,8.0,3.9,220.0,67.0,1.1,3,5,7,0,2026-05-27T03:52:08.181275+05:30
Gangtok,Sikkim,27.3314,88.6138,14.4,91,0.0,834.9,9.15,37.1,80,31.5,11.9,4.9,521.0,122.0,2.5,3,10,7,0,2026-05-27T03:52:08.181282+05:30
Siliguri,West Bengal,26.7271,88.3953,22.1,91,0.0,992.0,8.65,28.8,78,44.2,20.9,13.2,335.0,88.0,3.7,3,5,7,1,2026-05-27T03:52:11.469458+05:30
Durgapur,West Bengal,23.5204,87.3119,29.0,90,0.0,990.7,8.9,36.4,158,59.5,54.9,25.0,407.0,48.0,30.3,7,5,7,1,2026-05-27T03:52:11.469495+05:30
Asansol,West Bengal,23.6739,86.9524,29.1,90,0.0,989.3,8.95,33.5,161,60.5,56.2,26.8,600.0,47.0,31.5,7,5,7,1,2026-05-27T03:52:11.469506+05:30
Pondicherry,Puducherry,11.9139,79.8145,28.5,81,0.0,1006.2,6.3,43.9,76,13.2,11.1,13.5,221.0,47.0,9.1,7,5,4,1,2026-05-27T03:52:11.469514+05:30
Port Blair,Andaman and Nicobar Islands,11.6234,92.7265,26.0,90,0.0,1006.3,8.15,39.2,30,14.0,8.6,0.2,110.0,68.0,0.4,7,5,4,1,2026-05-27T03:52:11.469522+05:30
Haridwar,Uttarakhand,29.9457,78.1642,23.8,38,0.0,966.4,7.55,39.2,67,20.0,18.1,21.3,228.0,53.0,6.2,0,5,7,0,2026-05-27T03:52:11.469530+05:30
Rishikesh,Uttarakhand,30.0869,78.2676,21.1,48,0.0,959.3,7.65,36.7,72,27.1,23.6,21.3,274.0,60.0,4.8,0,5,7,0,2026-05-27T03:52:11.469538+05:30
Nainital,Uttarakhand,29.3919,79.4542,16.3,29,0.0,801.8,8.5,32.8,78,56.0,26.5,19.6,248.0,80.0,4.4,0,5,7,1,2026-05-27T03:52:11.469546+05:30
Mussoorie,Uttarakhand,30.4599,78.0664,16.6,35,0.0,799.1,8.1,52.6,62,25.0,21.0,35.5,151.0,23.0,3.8,0,5,7,0,2026-05-27T03:52:11.469553+05:30
Dharamshala,Himachal Pradesh,32.219,76.3234,22.3,32,0.0,865.2,8.5,46.8,36,9.9,8.0,11.8,170.0,41.0,0.0,0,5,7,0,2026-05-27T03:52:11.469560+05:30
Dalhousie,Himachal Pradesh,32.5387,75.971,10.5,63,0.0,797.3,8.7,42.8,55,20.9,19.0,37.9,235.0,4.0,0.8,3,5,7,0,2026-05-27T03:52:11.469568+05:30
Patiala,Punjab,30.3398,76.3869,28.5,26,0.0,972.2,7.7,40.7,456,187.7,46.1,16.5,328.0,59.0,7.5,4,5,7,0,2026-05-27T03:52:11.469576+05:30
Bhatinda,Punjab,30.211,74.9455,30.0,35,0.0,978.3,8.35,29.9,79,48.5,41.8,27.6,376.0,68.0,10.6,4,5,7,0,2026-05-27T03:52:11.469582+05:30
Rohtak,Haryana,28.8955,76.6066,28.1,37,0.0,975.9,7.8,33.5,597,737.6,159.3,30.0,375.0,50.0,8.2,4,5,7,0,2026-05-27T03:52:11.469589+05:30
Panipat,Haryana,29.3909,76.9635,30.0,23,0.0,974.3,7.6,37.8,1362,972.3,190.0,17.5,291.0,62.0,6.0,4,5,7,0,2026-05-27T03:52:11.469596+05:30
Mathura,Uttar Pradesh,27.4924,77.6737,30.6,34,0.0,980.4,8.0,34.9,573,197.9,80.8,64.4,529.0,3.0,10.1,0,5,7,0,2026-05-27T03:52:11.469602+05:30
Vrindavan,Uttar Pradesh,27.5823,77.7027,29.3,42,0.0,980.9,8.0,33.5,573,197.9,80.8,64.4,489.0,3.0,10.1,4,5,7,0,2026-05-27T03:52:11.469608+05:30
Ayodhya,Uttar Pradesh,26.7922,82.1998,26.0,69,0.0,991.0,8.3,36.0,131,49.6,34.7,11.1,368.0,106.0,9.2,7,5,7,1,2026-05-27T03:52:11.469615+05:30
Ratlam,Madhya Pradesh,23.3315,75.0367,27.9,62,0.0,953.3,8.55,47.2,76,26.4,16.8,7.2,226.0,57.0,13.6,7,5,7,1,2026-05-27T03:52:11.469622+05:30
Sagar,Madhya Pradesh,23.8388,78.7378,32.1,23,0.0,947.1,8.7,46.1,86,42.7,26.7,8.2,192.0,59.0,4.2,0,5,7,0,2026-05-27T03:52:11.469629+05:30
Satna,Madhya Pradesh,24.6005,80.8322,30.6,29,0.0,966.0,8.75,53.3,82,138.3,37.4,30.6,223.0,55.0,4.6,0,5,7,0,2026-05-27T03:52:11.469635+05:30
Akola,Maharashtra,20.7002,77.0082,31.8,44,0.0,972.9,8.85,46.4,59,22.8,18.5,7.6,204.0,86.0,13.4,0,5,7,1,2026-05-27T03:52:11.469643+05:30
Amravati,Maharashtra,20.9374,77.7796,33.0,38,0.0,964.7,8.85,45.4,61,23.9,18.9,8.0,191.0,85.0,11.9,0,5,7,1,2026-05-27T03:52:11.469652+05:30
Latur,Maharashtra,18.4088,76.5604,27.5,71,0.0,939.0,9.0,37.8,69,18.9,16.6,6.9,201.0,86.0,8.3,7,5,7,1,2026-05-27T03:52:11.469659+05:30
Nanded,Maharashtra,19.1383,77.3091,29.8,53,0.0,966.7,8.95,37.8,77,30.3,21.9,11.1,178.0,69.0,4.5,4,5,7,1,2026-05-27T03:52:11.469666+05:30
Gulbarga,Karnataka,17.3297,76.8343,29.2,62,0.0,958.2,8.4,41.8,52,11.6,9.9,11.0,241.0,44.0,3.3,7,5,7,1,2026-05-27T03:52:11.469673+05:30
Bidar,Karnataka,17.9104,77.5199,27.7,57,0.0,934.4,8.85,46.8,94,14.2,12.5,9.9,206.0,69.0,3.6,4,5,7,1,2026-05-27T03:52:11.469679+05:30
Hospet,Karnataka,15.2689,76.3909,25.0,89,0.0,955.8,6.05,40.3,33,8.1,7.8,10.7,165.0,35.0,1.8,7,5,7,1,2026-05-27T03:52:11.469686+05:30
Tirupur,Tamil Nadu,11.1085,77.3411,25.4,86,0.0,974.4,8.2,57.2,58,17.0,15.4,20.1,151.0,31.0,5.1,7,5,7,1,2026-05-27T03:52:11.469692+05:30
Alappuzha,Kerala,9.4981,76.3388,25.6,99,0.0,1009.6,8.25,29.5,47,14.0,11.5,11.5,206.0,44.0,2.8,7,0,4,1,2026-05-27T03:52:11.469699+05:30
Munnar,Kerala,10.0889,77.0595,18.0,100,0.1,856.8,8.65,28.1,42,6.7,6.5,8.9,128.0,25.0,1.6,6,10,7,1,2026-05-27T03:52:11.469706+05:30
Silchar,Assam,24.8333,92.7789,23.4,98,0.0,1005.2,8.85,31.0,78,21.8,13.8,5.4,253.0,78.0,2.2,3,5,4,1,2026-05-27T03:52:11.469713+05:30
Dibrugarh,Assam,27.4728,94.912,22.3,95,0.0,995.2,7.0,27.7,76,19.2,12.4,13.3,215.0,42.0,1.2,3,5,7,1,2026-05-27T03:52:11.469720+05:30
