city,state,latitude,longitude,temp,humidity,rain,pressure,uv_index,wind_gusts,aqi,pm10,pm2_5,mosquito_risk,arthritis_risk,migraine_risk,frizz_risk,updated_at
Delhi,Delhi,28.6139,77.209,34.0,30,0.0,982.8,7.3,31.0,454,287.8,57.5,0,5,7,0,2026-04-22T10:58:53.162142+05:30
Mumbai,Maharashtra,19.076,72.8777,29.5,73,0.0,1008.7,8.0,29.2,95,66.8,39.9,7,0,4,1,2026-04-22T10:58:53.162184+05:30
Bangalore,Karnataka,12.9716,77.5946,31.9,32,0.0,913.2,9.6,28.1,70,22.5,19.6,0,5,7,0,2026-04-22T10:58:53.162200+05:30
Hyderabad,Telangana,17.385,78.4867,35.2,35,0.0,954.6,9.2,34.6,124,51.8,45.5,0,5,10,1,2026-04-22T10:58:53.162210+05:30
Chennai,Tamil Nadu,13.0827,80.2707,35.0,50,0.0,1007.6,9.25,32.8,42,9.3,7.0,0,5,4,1,2026-04-22T10:58:53.162219+05:30
Kolkata,West Bengal,22.5726,88.3639,34.0,70,0.0,1003.8,8.95,33.5,90,60.5,48.2,3,5,4,1,2026-04-22T10:58:53.162231+05:30
Pune,Maharashtra,18.5204,73.8567,36.0,33,0.0,949.9,8.6,44.6,95,39.9,30.2,0,5,10,1,2026-04-22T10:58:53.162239+05:30
Ahmedabad,Gujarat,23.0225,72.5714,33.6,24,0.0,1004.1,8.2,24.5,40,24.3,12.6,0,5,4,0,2026-04-22T10:58:53.162247+05:30
Jaipur,Rajasthan,26.9124,75.7873,36.5,14,0.0,961.0,8.0,35.3,142,297.1,35.3,0,5,10,0,2026-04-22T10:58:53.162255+05:30
Lucknow,Uttar Pradesh,26.8467,80.9462,37.6,20,0.0,992.0,7.85,45.7,213,473.1,77.5,0,5,10,0,2026-04-22T10:58:53.162264+05:30
Kanpur,Uttar Pradesh,26.4499,80.3319,36.1,30,0.0,991.0,7.9,38.2,409,689.2,85.0,0,5,10,0,2026-04-22T10:58:53.162271+05:30
Chandigarh,Chandigarh,30.7333,76.7794,33.4,30,0.0,968.3,7.35,31.7,56,24.2,13.3,0,5,7,0,2026-04-22T10:58:53.162278+05:30
Srinagar,Jammu and Kashmir,34.0837,74.7973,20.2,56,0.0,844.8,8.5,15.5,69,28.1,12.6,0,5,7,0,2026-04-22T10:58:53.162286+05:30
Jammu,Jammu and Kashmir,32.7266,74.857,32.9,36,0.0,971.5,8.1,28.4,72,29.4,16.9,0,5,7,0,2026-04-22T10:58:53.162293+05:30
Amritsar,Punjab,31.634,74.8723,33.9,34,0.0,979.9,8.05,27.0,88,30.9,20.1,0,5,7,0,2026-04-22T10:58:53.162299+05:30
Ludhiana,Punjab,30.901,75.8573,35.1,26,0.0,978.1,7.6,28.4,80,26.8,16.6,0,5,10,0,2026-04-22T10:58:53.162308+05:30
Jalandhar,Punjab,31.326,75.5762,34.7,28,0.0,979.1,7.8,29.5,80,35.0,17.2,0,5,7,0,2026-04-22T10:58:53.162315+05:30
Dehradun,Uttarakhand,30.6284,78.0322,25.1,36,0.0,832.9,7.75,30.6,45,16.7,6.0,4,5,7,0,2026-04-22T10:58:53.162323+05:30
Shimla,Himachal Pradesh,31.1048,77.1734,24.2,30,0.0,789.0,7.85,54.4,45,21.5,7.8,0,5,7,0,2026-04-22T10:58:53.162330+05:30
Manali,Himachal Pradesh,32.2396,77.1887,28.6,17,0.0,824.2,9.3,31.7,59,19.6,6.9,4,5,7,0,2026-04-22T10:58:53.162337+05:30
Gurgaon,Haryana,28.4595,77.0266,34.1,31,0.0,981.4,7.45,28.1,1214,1054.3,116.9,0,5,7,0,2026-04-22T10:58:53.162345+05:30
Noida,Uttar Pradesh,28.5355,77.391,35.0,27,0.0,984.3,7.35,32.4,1214,1054.3,116.9,0,5,7,0,2026-04-22T10:58:53.162351+05:30
Ghaziabad,Uttar Pradesh,28.6692,77.4538,34.4,29,0.0,982.3,7.35,32.0,365,244.0,58.3,0,5,7,0,2026-04-22T10:58:53.162359+05:30
Faridabad,Haryana,28.4089,77.3178,36.1,23,0.0,983.6,7.4,33.8,1214,1054.3,116.9,0,5,10,0,2026-04-22T10:58:53.162367+05:30
Meerut,Uttar Pradesh,28.9845,77.7064,34.6,29,0.0,980.8,7.25,38.2,365,244.0,58.3,0,5,7,0,2026-04-22T10:58:53.162374+05:30
Agra,Uttar Pradesh,27.1767,78.0081,37.2,29,0.0,987.5,7.75,37.1,647,875.4,90.1,0,5,10,1,2026-04-22T10:58:53.162382+05:30
Varanasi,Uttar Pradesh,25.3176,82.9739,39.8,18,0.0,996.0,8.55,43.2,108,200.7,39.9,0,5,10,0,2026-04-22T10:58:53.162391+05:30
Prayagraj,Uttar Pradesh,25.4358,81.8463,39.4,18,0.0,994.7,8.4,40.7,123,213.3,40.0,0,5,10,0,2026-04-22T10:58:53.162398+05:30
Gorakhpur,Uttar Pradesh,26.7606,83.3732,38.1,20,0.0,995.0,8.25,41.8,102,364.1,67.5,0,5,10,0,2026-04-22T10:58:53.162405+05:30
Bareilly,Uttar Pradesh,28.367,79.4304,35.0,28,0.0,985.8,7.6,43.2,99,68.7,36.0,0,5,7,0,2026-04-22T10:58:53.162411+05:30
Aligarh,Uttar Pradesh,27.8974,78.088,37.5,19,0.0,984.9,7.5,37.4,795,637.0,85.9,0,5,10,0,2026-04-22T10:58:53.162417+05:30
Moradabad,Uttar Pradesh,28.8386,78.7733,34.7,27,0.0,982.7,7.45,40.0,117,84.3,42.4,0,5,7,0,2026-04-22T10:58:53.162424+05:30
Saharanpur,Uttar Pradesh,29.9637,77.546,32.1,36,0.0,975.1,6.95,36.4,86,46.9,26.1,0,5,7,0,2026-04-22T10:58:53.162429+05:30
Jhansi,Uttar Pradesh,25.4484,78.5685,38.8,20,0.0,978.0,8.3,31.0,75,58.0,15.4,0,5,10,0,2026-04-22T10:58:56.384364+05:30
Surat,Gujarat,21.1702,72.8311,32.5,43,0.0,1007.9,7.9,21.2,108,33.9,30.9,0,5,4,1,2026-04-22T10:58:56.384394+05:30
Vadodara,Gujarat,22.3072,73.1812,34.8,23,0.0,1006.0,8.15,25.9,91,14.1,11.5,0,5,4,0,2026-04-22T10:58:56.384404+05:30
Rajkot,Gujarat,22.3039,70.8022,30.8,51,0.0,996.0,7.85,32.0,54,51.5,17.7,0,5,7,1,2026-04-22T10:58:56.384411+05:30
Thane,Maharashtra,19.2183,72.9781,33.2,51,0.0,1008.4,8.05,41.8,95,66.8,39.9,0,0,4,1,2026-04-22T10:58:56.384418+05:30
Nagpur,Maharashtra,21.1458,79.0882,36.0,25,0.0,974.2,8.95,32.0,85,30.9,24.6,0,5,10,0,2026-04-22T10:58:56.384426+05:30
Nashik,Maharashtra,19.9975,73.7898,32.6,33,0.0,947.7,8.3,37.1,91,39.2,21.1,0,5,7,0,2026-04-22T10:58:56.384432+05:30
Aurangabad,Maharashtra,19.8762,75.3433,35.9,22,0.0,946.1,9.05,33.1,83,25.4,16.9,0,5,10,0,2026-04-22T10:58:56.384440+05:30
Solapur,Maharashtra,17.6599,75.9064,36.1,33,0.0,958.3,9.1,30.6,113,51.6,44.8,0,5,10,1,2026-04-22T10:58:56.384447+05:30
Kolhapur,Maharashtra,16.705,74.2433,33.0,44,0.0,949.3,9.05,41.8,100,41.3,35.5,0,5,7,1,2026-04-22T10:58:56.384455+05:30
Goa,Goa,15.2993,74.124,33.6,60,0.0,997.9,9.0,31.7,74,35.5,23.0,0,5,7,1,2026-04-22T10:58:56.384461+05:30
Jodhpur,Rajasthan,26.2389,73.0243,34.4,23,0.0,984.2,8.2,36.0,100,109.7,20.7,0,5,7,0,2026-04-22T10:58:56.384468+05:30
Udaipur,Rajasthan,24.5854,73.7125,34.5,14,0.0,948.8,8.75,44.3,42,8.8,5.5,0,5,7,0,2026-04-22T10:58:56.384475+05:30
Kota,Rajasthan,25.2138,75.8648,37.9,12,0.0,979.9,8.25,33.8,55,6.1,5.7,0,5,10,0,2026-04-22T10:58:56.384481+05:30
Bikaner,Rajasthan,28.0229,73.3119,36.2,22,0.0,981.9,8.05,32.4,67,95.2,32.5,0,5,10,0,2026-04-22T10:58:56.384488+05:30
Ajmer,Rajasthan,26.4499,74.6399,34.0,18,0.0,956.6,8.2,40.0,54,16.9,6.3,0,5,7,0,2026-04-22T10:58:56.384494+05:30
Gwalior,Madhya Pradesh,26.2183,78.1828,37.4,17,0.0,983.6,8.0,36.4,64,52.5,14.9,0,5,10,0,2026-04-22T10:58:56.384500+05:30
Indore,Madhya Pradesh,22.7196,75.8577,34.9,20,0.0,950.2,8.65,36.0,55,14.7,11.5,0,5,7,0,2026-04-22T10:58:56.384506+05:30
Bhopal,Madhya Pradesh,23.2599,77.4126,36.0,20,0.0,955.6,8.65,36.4,53,10.9,9.4,0,5,10,0,2026-04-22T10:58:56.384512+05:30
Jabalpur,Madhya Pradesh,23.1815,79.9864,35.2,25,0.0,962.5,8.8,32.4,64,37.1,15.1,0,5,10,0,2026-04-22T10:58:56.384518+05:30
Ujjain,Madhya Pradesh,23.1765,75.7885,35.4,20,0.0,955.8,8.55,35.3,55,13.4,10.3,0,5,10,0,2026-04-22T10:58:56.384525+05:30
Visakhapatnam,Andhra Pradesh,17.6868,83.2185,34.5,56,0.0,1003.1,9.2,38.5,61,21.2,17.3,0,5,4,1,2026-04-22T10:58:56.384532+05:30
Vijayawada,Andhra Pradesh,16.5062,80.648,34.0,57,0.0,1003.1,9.25,28.4,58,15.5,11.4,0,5,4,1,2026-04-22T10:58:56.384538+05:30
Guntur,Andhra Pradesh,16.3067,80.4365,34.7,53,0.0,1003.9,9.25,32.0,63,14.9,12.1,0,5,4,1,2026-04-22T10:58:56.384543+05:30
Nellore,Andhra Pradesh,14.4426,79.9865,36.0,45,0.0,1005.6,9.3,32.4,52,14.6,13.4,0,5,7,1,2026-04-22T10:58:56.384550+05:30
Kurnool,Andhra Pradesh,15.8281,78.0373,36.9,37,0.0,977.2,9.25,23.8,106,24.5,20.5,0,5,10,1,2026-04-22T10:58:56.384557+05:30
Kakinada,Andhra Pradesh,16.9891,82.2475,34.4,57,0.0,1007.4,9.2,29.2,43,16.4,11.3,0,5,4,1,2026-04-22T10:58:56.384564+05:30
Tirupati,Andhra Pradesh,13.6288,79.4192,34.4,46,0.0,992.4,9.35,32.8,62,19.3,18.0,0,5,7,1,2026-04-22T10:58:56.384570+05:30
Warangal,Telangana,17.9689,79.5941,36.3,41,0.0,979.0,9.2,22.3,96,27.7,24.1,0,5,10,1,2026-04-22T10:58:56.384576+05:30
Nizamabad,Telangana,18.6725,78.0941,36.4,34,0.0,965.9,8.95,33.5,108,39.7,35.3,0,5,10,1,2026-04-22T10:58:56.384602+05:30
Mysore,Karnataka,12.2958,76.6396,32.1,45,0.0,929.6,9.45,37.4,82,25.7,22.2,0,5,7,1,2026-04-22T10:58:56.384611+05:30
Mangalore,Karnataka,12.9141,74.856,29.2,84,0.0,1006.4,9.1,26.6,80,31.3,26.1,7,5,4,1,2026-04-22T10:58:56.384618+05:30
Hubli-Dharwad,Karnataka,15.3647,75.124,33.2,43,0.0,942.1,9.2,47.5,103,47.8,41.3,0,5,7,1,2026-04-22T10:58:56.384625+05:30
Belgaum,Karnataka,15.8497,74.4977,32.5,44,0.0,927.4,9.25,39.6,91,55.6,45.3,0,5,7,1,2026-04-22T10:58:59.610634+05:30
Coimbatore,Tamil Nadu,11.0168,76.9558,32.4,52,0.0,962.5,9.4,37.8,77,24.3,20.1,0,5,7,1,2026-04-22T10:58:59.610664+05:30
Madurai,Tamil Nadu,9.9252,78.1198,34.1,50,0.0,993.4,9.3,38.2,59,13.0,11.6,0,5,7,1,2026-04-22T10:58:59.610674+05:30
Trichy,Tamil Nadu,10.7905,78.7047,34.3,51,0.0,1000.0,9.3,20.2,60,11.5,10.7,0,5,4,1,2026-04-22T10:58:59.610682+05:30
Salem,Tamil Nadu,11.6643,78.146,34.1,46,0.0,977.9,9.25,24.5,61,15.2,13.6,0,5,7,1,2026-04-22T10:58:59.610690+05:30
Tirunelveli,Tamil Nadu,8.7139,77.7567,35.5,45,0.0,1003.1,9.25,35.3,66,17.9,15.8,0,5,7,1,2026-04-22T10:58:59.610696+05:30
Vellore,Tamil Nadu,12.9165,79.1325,32.8,51,0.0,985.6,9.35,28.8,71,17.7,16.5,0,5,7,1,2026-04-22T10:58:59.610703+05:30
Erode,Tamil Nadu,11.341,77.7172,35.2,45,0.0,989.2,9.2,24.1,53,16.8,15.1,0,5,10,1,2026-04-22T10:58:59.610711+05:30
Kochi,Kerala,9.9312,76.2673,28.7,82,0.0,1008.5,9.0,31.0,73,25.3,20.7,7,0,4,1,2026-04-22T10:58:59.610718+05:30
Thiruvananthapuram,Kerala,8.5241,76.9366,28.5,83,0.0,1007.8,8.9,27.0,53,16.6,14.1,7,5,4,1,2026-04-22T10:58:59.610726+05:30
Kozhikode,Kerala,11.2588,75.7804,30.9,76,0.0,1007.4,9.05,30.6,67,22.8,18.7,3,5,4,1,2026-04-22T10:58:59.610732+05:30
Thrissur,Kerala,10.5276,76.2144,34.2,55,0.0,1006.6,9.05,38.9,73,24.3,20.3,0,5,4,1,2026-04-22T10:58:59.610740+05:30
Kannur,Kerala,11.8745,75.3704,32.4,66,0.0,1006.6,9.1,34.6,77,27.1,23.0,3,5,4,1,2026-04-22T10:58:59.610746+05:30
Patna,Bihar,25.5941,85.1376,37.4,26,0.0,998.0,8.65,43.6,93,348.3,62.6,0,5,10,0,2026-04-22T10:58:59.610754+05:30
Gaya,Bihar,24.7914,85.0002,39.2,18,0.0,992.1,8.75,41.4,94,379.0,55.1,0,5,10,0,2026-04-22T10:58:59.610760+05:30
Muzaffarpur,Bihar,26.1209,85.3647,34.8,33,0.0,998.4,8.65,16.2,91,271.9,60.5,0,5,7,1,2026-04-22T10:58:59.610766+05:30
Bhagalpur,Bihar,25.2425,87.0117,34.5,39,0.0,999.2,8.7,21.6,88,262.6,49.5,0,5,7,1,2026-04-22T10:58:59.610772+05:30
Ranchi,Jharkhand,23.3441,85.3096,36.3,17,0.0,938.6,9.25,36.4,80,259.8,41.1,0,5,10,0,2026-04-22T10:58:59.610779+05:30
Jamshedpur,Jharkhand,22.8046,86.2029,37.5,40,0.0,989.3,9.05,23.4,107,164.8,42.7,0,5,10,1,2026-04-22T10:58:59.610785+05:30
Dhanbad,Jharkhand,23.7957,86.4304,39.1,14,0.0,978.8,9.0,36.4,147,330.6,60.8,0,5,10,0,2026-04-22T10:58:59.610791+05:30
Bokaro,Jharkhand,23.6693,86.1511,38.9,15,0.0,982.9,9.05,40.7,130,326.0,58.6,0,5,10,0,2026-04-22T10:58:59.610797+05:30
Bhubaneswar,Odisha,20.2961,85.8245,34.2,65,0.0,1001.4,9.15,33.1,88,51.5,45.1,3,5,4,1,2026-04-22T10:58:59.610804+05:30
Cuttack,Odisha,20.4625,85.8828,36.5,54,0.0,1003.0,9.2,48.6,88,51.5,45.1,0,5,7,1,2026-04-22T10:58:59.610812+05:30
Rourkela,Odisha,22.2604,84.8536,38.5,32,0.0,983.9,9.0,46.4,103,96.2,44.2,0,5,10,1,2026-04-22T10:58:59.610818+05:30
Raipur,Chhattisgarh,21.2514,81.6296,37.8,33,0.0,974.9,9.05,33.5,131,47.7,38.4,0,5,10,1,2026-04-22T10:58:59.610825+05:30
Bhilai,Chhattisgarh,21.1938,81.3509,37.6,35,0.0,975.3,9.05,29.9,119,46.0,35.6,0,5,10,1,2026-04-22T10:58:59.610831+05:30
Guwahati,Assam,26.1158,91.7086,28.7,70,0.0,1000.2,8.6,40.7,116,44.6,33.5,7,5,4,1,2026-04-22T10:58:59.610837+05:30
Agartala,Tripura,23.8315,91.2868,34.2,57,0.0,1004.7,8.75,31.7,80,35.5,29.3,0,5,4,1,2026-04-22T10:58:59.610843+05:30
Shillong,Meghalaya,25.5788,91.8933,22.1,63,0.0,858.1,9.05,75.2,70,11.3,6.4,3,5,7,0,2026-04-22T10:58:59.610850+05:30
Imphal,Manipur,24.817,93.9368,24.0,73,0.0,924.4,9.2,77.4,147,60.8,31.8,3,5,7,1,2026-04-22T10:58:59.610856+05:30
Aizawl,Mizoram,23.7271,92.7176,27.7,55,0.0,894.6,9.05,54.0,103,46.8,30.0,4,5,7,1,2026-04-22T10:58:59.610862+05:30
Kohima,Nagaland,25.6701,94.1077,23.5,54,0.0,856.9,9.15,92.2,113,59.0,30.4,0,5,7,0,2026-04-22T10:58:59.610868+05:30
Gangtok,Sikkim,27.3314,88.6138,23.3,59,0.0,839.0,8.9,23.8,58,30.6,17.5,0,5,7,0,2026-04-22T10:58:59.610874+05:30
Siliguri,West Bengal,26.7271,88.3953,27.6,75,0.0,992.4,8.55,22.7,131,57.5,38.1,7,5,7,1,2026-04-22T10:59:02.837492+05:30
Durgapur,West Bengal,23.5204,87.3119,38.8,33,0.0,993.1,8.95,31.7,152,205.8,49.4,0,5,10,1,2026-04-22T10:59:02.837521+05:30
Asansol,West Bengal,23.6739,86.9524,39.4,23,0.0,991.8,9.0,27.4,131,271.0,52.9,0,5,10,0,2026-04-22T10:59:02.837531+05:30
Pondicherry,Puducherry,11.9139,79.8145,34.3,54,0.0,1008.7,9.25,27.7,42,11.9,8.7,0,0,4,1,2026-04-22T10:59:02.837538+05:30
Port Blair,Andaman and Nicobar Islands,11.6234,92.7265,29.9,70,0.0,1007.3,9.1,23.4,45,11.5,8.8,7,5,4,1,2026-04-22T10:59:02.837545+05:30
Haridwar,Uttarakhand,29.9457,78.1642,33.3,35,0.0,973.5,7.15,34.6,66,24.6,15.2,0,5,7,0,2026-04-22T10:59:02.837552+05:30
Rishikesh,Uttarakhand,30.0869,78.2676,32.7,37,0.0,966.3,7.25,33.5,56,19.8,10.1,0,5,7,1,2026-04-22T10:59:02.837559+05:30
Nainital,Uttarakhand,29.3919,79.4542,27.5,31,0.0,809.5,8.05,42.5,58,19.4,12.3,4,5,7,0,2026-04-22T10:59:02.837566+05:30
Mussoorie,Uttarakhand,30.4599,78.0664,25.5,38,0.0,806.1,7.65,41.4,60,21.7,10.3,4,5,7,0,2026-04-22T10:59:02.837573+05:30
Dharamshala,Himachal Pradesh,32.219,76.3234,28.3,37,0.0,871.0,7.95,28.1,42,19.6,6.5,4,5,7,0,2026-04-22T10:59:02.837622+05:30
Dalhousie,Himachal Pradesh,32.5387,75.971,27.7,25,0.0,807.5,8.25,25.6,56,23.3,10.5,4,5,7,0,2026-04-22T10:59:02.837635+05:30
Patiala,Punjab,30.3398,76.3869,33.9,32,0.0,977.7,7.25,25.2,254,285.9,39.3,0,5,7,0,2026-04-22T10:59:02.837643+05:30
Bhatinda,Punjab,30.211,74.9455,37.8,21,0.0,982.8,7.95,29.9,73,36.8,16.5,0,5,10,0,2026-04-22T10:59:02.837649+05:30
Rohtak,Haryana,28.8955,76.6066,34.5,29,0.0,981.6,7.4,34.2,607,445.2,61.9,0,5,7,0,2026-04-22T10:59:02.837657+05:30
Panipat,Haryana,29.3909,76.9635,35.0,27,0.0,980.0,7.2,32.8,997,1031.9,110.1,0,5,7,0,2026-04-22T10:59:02.837664+05:30
Mathura,Uttar Pradesh,27.4924,77.6737,37.8,25,0.0,986.3,7.7,33.8,712,724.6,76.6,0,5,10,0,2026-04-22T10:59:02.837671+05:30
Vrindavan,Uttar Pradesh,27.5823,77.7027,38.3,21,0.0,986.5,7.65,34.6,712,724.6,76.6,0,5,10,0,2026-04-22T10:59:02.837677+05:30
Ayodhya,Uttar Pradesh,26.7922,82.1998,39.0,17,0.0,993.4,8.05,46.1,134,430.3,77.1,0,5,10,0,2026-04-22T10:59:02.837683+05:30
Ratlam,Madhya Pradesh,23.3315,75.0367,33.0,30,0.0,956.6,8.45,29.5,53,13.9,10.8,0,5,7,0,2026-04-22T10:59:02.837690+05:30
Sagar,Madhya Pradesh,23.8388,78.7378,35.6,16,0.0,952.0,8.7,38.5,57,26.8,8.4,0,5,10,0,2026-04-22T10:59:02.837696+05:30
Satna,Madhya Pradesh,24.6005,80.8322,38.0,20,0.0,971.4,8.7,48.6,83,89.9,20.0,0,5,10,0,2026-04-22T10:59:02.837702+05:30
Akola,Maharashtra,20.7002,77.0082,37.6,24,0.0,976.4,8.85,32.0,80,22.2,18.6,0,5,10,0,2026-04-22T10:59:02.837709+05:30
Amravati,Maharashtra,20.9374,77.7796,36.8,24,0.0,968.7,8.9,23.8,83,21.2,18.2,0,5,10,0,2026-04-22T10:59:02.837716+05:30
Latur,Maharashtra,18.4088,76.5604,36.2,22,0.0,941.5,9.1,31.3,111,43.7,37.1,0,5,10,0,2026-04-22T10:59:02.837723+05:30
Nanded,Maharashtra,19.1383,77.3091,37.1,26,0.0,969.8,9.0,22.0,97,32.5,28.1,0,5,10,0,2026-04-22T10:59:02.837729+05:30
Gulbarga,Karnataka,17.3297,76.8343,37.0,29,0.0,959.6,9.15,25.9,106,46.6,40.3,0,5,10,0,2026-04-22T10:59:02.837735+05:30
Bidar,Karnataka,17.9104,77.5199,36.2,25,0.0,937.0,8.35,47.5,108,45.2,39.8,0,5,10,0,2026-04-22T10:59:02.837741+05:30
Hospet,Karnataka,15.2689,76.3909,32.8,45,0.0,956.9,9.25,38.2,112,34.3,29.7,0,5,7,1,2026-04-22T10:59:02.837747+05:30
Tirupur,Tamil Nadu,11.1085,77.3411,34.0,48,0.0,975.7,9.4,27.4,65,21.9,19.3,0,5,7,1,2026-04-22T10:59:02.837753+05:30
Alappuzha,Kerala,9.4981,76.3388,28.8,82,0.0,1008.6,8.75,27.7,68,27.5,22.9,7,0,4,1,2026-04-22T10:59:02.837759+05:30
Munnar,Kerala,10.0889,77.0595,28.4,54,0.0,859.4,9.65,35.6,76,20.0,17.3,4,5,7,1,2026-04-22T10:59:02.837765+05:30
Silchar,Assam,24.8333,92.7789,26.0,82,0.0,1006.0,8.8,46.4,152,38.5,29.6,7,5,4,1,2026-04-22T10:59:02.837772+05:30
Dibrugarh,Assam,27.4728,94.912,22.9,92,0.0,995.7,8.45,23.4,53,9.3,7.0,3,5,7,1,2026-04-22T10:59:02.837778+05:30
