city,state,latitude,longitude,temp,humidity,rain,pressure,uv_index,wind_gusts,aqi,pm10,pm2_5,no2,co,o3,so2,mosquito_risk,arthritis_risk,migraine_risk,frizz_risk,updated_at
Delhi,Delhi,28.6139,77.209,27.9,64,0.0,980.2,7.8,30.6,155,146.2,79.4,58.3,674.0,17.0,35.3,7,5,7,1,2026-06-03T05:18:25.130782+05:30
Mumbai,Maharashtra,19.076,72.8777,28.0,83,0.0,1005.5,7.7,42.5,78,63.3,25.4,10.0,155.0,39.0,7.7,7,5,4,1,2026-06-03T05:18:25.130827+05:30
Bangalore,Karnataka,12.9716,77.5946,21.4,97,0.0,910.4,8.5,44.3,59,14.4,13.7,21.1,271.0,43.0,8.6,3,5,7,1,2026-06-03T05:18:25.130844+05:30
Hyderabad,Telangana,17.385,78.4867,27.1,61,0.0,951.1,8.05,39.2,110,28.5,20.8,12.9,212.0,76.0,8.8,7,5,7,1,2026-06-03T05:18:25.130854+05:30
Chennai,Tamil Nadu,13.0827,80.2707,29.0,73,0.0,1004.5,8.95,38.2,59,14.7,12.0,19.0,253.0,27.0,16.7,7,5,4,1,2026-06-03T05:18:25.130862+05:30
Kolkata,West Bengal,22.5726,88.3639,29.0,88,0.0,1002.5,8.95,27.0,114,44.8,39.9,17.4,414.0,55.0,9.1,7,5,4,1,2026-06-03T05:18:25.130870+05:30
Pune,Maharashtra,18.5204,73.8567,23.9,80,0.0,945.7,8.3,45.0,63,50.9,21.7,10.8,139.0,33.0,9.5,3,5,7,1,2026-06-03T05:18:25.130877+05:30
Ahmedabad,Gujarat,23.0225,72.5714,29.2,83,0.0,998.7,8.05,37.4,97,33.9,21.8,14.5,184.0,25.0,15.5,7,5,7,1,2026-06-03T05:18:25.130884+05:30
Jaipur,Rajasthan,26.9124,75.7873,26.6,64,0.0,956.2,8.25,29.9,111,88.2,39.0,15.6,313.0,39.0,7.3,7,5,7,1,2026-06-03T05:18:25.130894+05:30
Lucknow,Uttar Pradesh,26.8467,80.9462,26.6,84,0.0,990.3,8.3,32.4,147,75.7,48.1,23.2,625.0,54.0,13.4,7,5,7,1,2026-06-03T05:18:25.130901+05:30
Kanpur,Uttar Pradesh,26.4499,80.3319,27.0,78,0.0,988.5,8.3,45.4,150,131.3,62.4,31.3,445.0,50.0,13.1,7,5,7,1,2026-06-03T05:18:25.130908+05:30
Chandigarh,Chandigarh,30.7333,76.7794,24.5,69,0.0,966.4,7.8,34.9,110,65.7,53.4,52.6,654.0,2.0,5.1,3,5,7,1,2026-06-03T05:18:25.130915+05:30
Srinagar,Jammu and Kashmir,34.0837,74.7973,13.6,99,0.0,840.8,7.25,36.7,98,36.3,31.4,18.7,286.0,14.0,0.0,3,10,7,0,2026-06-03T05:18:25.130922+05:30
Jammu,Jammu and Kashmir,32.7266,74.857,24.6,61,0.0,969.2,8.1,34.2,125,38.2,30.9,24.4,396.0,19.0,2.1,3,5,7,1,2026-06-03T05:18:25.130929+05:30
Amritsar,Punjab,31.634,74.8723,26.9,57,0.0,977.2,8.45,32.4,152,100.1,67.3,37.0,760.0,35.0,6.9,4,5,7,1,2026-06-03T05:18:25.130936+05:30
Ludhiana,Punjab,30.901,75.8573,27.2,58,0.0,976.0,8.05,37.4,130,373.5,89.4,22.2,616.0,54.0,10.9,4,5,7,1,2026-06-03T05:18:25.130943+05:30
Jalandhar,Punjab,31.326,75.5762,27.4,55,0.0,976.9,8.2,39.2,133,196.5,75.9,51.2,626.0,23.0,7.5,4,5,7,1,2026-06-03T05:18:25.130950+05:30
Dehradun,Uttarakhand,30.6284,78.0322,13.3,98,0.0,827.3,8.25,34.2,51,12.4,10.5,24.1,243.0,1.0,0.0,3,10,7,0,2026-06-03T05:18:25.130959+05:30
Shimla,Himachal Pradesh,31.1048,77.1734,11.4,81,0.0,781.3,7.7,40.0,65,31.8,26.0,22.6,251.0,16.0,0.0,3,10,7,0,2026-06-03T05:18:25.130972+05:30
Manali,Himachal Pradesh,32.2396,77.1887,12.0,70,0.0,815.8,9.7,34.2,34,7.4,3.2,17.4,250.0,109.0,0.0,3,5,7,0,2026-06-03T05:18:25.130979+05:30
Gurgaon,Haryana,28.4595,77.0266,26.5,69,0.0,978.4,7.9,32.4,160,233.3,86.1,51.8,708.0,22.0,20.5,7,5,7,1,2026-06-03T05:18:25.130987+05:30
Noida,Uttar Pradesh,28.5355,77.391,27.0,69,0.0,981.5,7.8,22.0,160,233.3,86.1,51.8,763.0,22.0,20.5,7,5,7,1,2026-06-03T05:18:25.130993+05:30
Ghaziabad,Uttar Pradesh,28.6692,77.4538,26.0,77,0.0,979.8,7.8,25.6,146,157.9,76.6,42.5,641.0,20.0,10.1,7,5,7,1,2026-06-03T05:18:25.130999+05:30
Faridabad,Haryana,28.4089,77.3178,27.7,66,0.0,980.9,7.85,25.9,160,233.3,86.1,51.8,858.0,22.0,20.5,7,5,7,1,2026-06-03T05:18:25.131005+05:30
Meerut,Uttar Pradesh,28.9845,77.7064,25.4,78,0.0,978.5,7.7,27.4,146,157.9,76.6,42.5,687.0,20.0,10.1,7,5,7,1,2026-06-03T05:18:25.131011+05:30
Agra,Uttar Pradesh,27.1767,78.0081,27.0,70,0.0,984.5,8.15,25.2,157,373.5,91.3,24.2,457.0,42.0,10.6,7,5,7,1,2026-06-03T05:18:25.131017+05:30
Varanasi,Uttar Pradesh,25.3176,82.9739,29.2,69,0.0,994.4,8.75,25.2,152,70.5,56.8,29.0,915.0,40.0,30.0,7,5,7,1,2026-06-03T05:18:25.131023+05:30
Prayagraj,Uttar Pradesh,25.4358,81.8463,29.9,60,0.0,992.6,8.65,42.1,150,74.0,58.0,41.4,553.0,15.0,10.9,4,5,7,1,2026-06-03T05:18:25.131029+05:30
Gorakhpur,Uttar Pradesh,26.7606,83.3732,26.8,74,0.0,994.0,8.65,27.4,156,120.6,99.0,63.5,529.0,7.0,16.5,7,5,7,1,2026-06-03T05:18:25.131037+05:30
Bareilly,Uttar Pradesh,28.367,79.4304,24.9,90,0.0,984.0,8.1,16.6,149,129.5,76.1,42.0,840.0,21.0,8.7,3,5,7,1,2026-06-03T05:18:25.131043+05:30
Aligarh,Uttar Pradesh,27.8974,78.088,26.0,76,0.0,982.4,7.95,18.4,146,117.8,63.8,32.6,582.0,25.0,8.5,7,5,7,1,2026-06-03T05:18:25.131049+05:30
Moradabad,Uttar Pradesh,28.8386,78.7733,25.3,85,0.0,980.9,7.95,25.6,155,143.0,100.8,62.8,997.0,2.0,14.2,7,5,7,1,2026-06-03T05:18:25.131055+05:30
Saharanpur,Uttar Pradesh,29.9637,77.546,24.7,85,0.0,973.2,7.55,23.4,134,77.1,64.7,53.3,824.0,3.0,9.5,3,5,7,1,2026-06-03T05:18:25.131061+05:30
Jhansi,Uttar Pradesh,25.4484,78.5685,27.7,66,0.0,974.7,7.95,25.2,72,40.6,21.8,13.9,262.0,35.0,3.6,7,5,7,1,2026-06-03T05:18:28.365492+05:30
Surat,Gujarat,21.1702,72.8311,28.8,84,0.0,1003.5,7.55,40.0,79,50.6,27.9,25.8,229.0,22.0,40.5,7,5,4,1,2026-06-03T05:18:28.365529+05:30
Vadodara,Gujarat,22.3072,73.1812,28.5,84,0.0,1001.0,7.95,40.3,83,38.9,24.1,21.2,151.0,23.0,25.9,7,5,4,1,2026-06-03T05:18:28.365541+05:30
Rajkot,Gujarat,22.3039,70.8022,27.8,84,0.0,991.4,7.55,37.1,80,34.1,18.2,6.6,110.0,35.0,5.1,7,5,7,1,2026-06-03T05:18:28.365549+05:30
Thane,Maharashtra,19.2183,72.9781,27.4,85,0.0,1005.0,7.7,34.6,78,63.3,25.4,10.0,172.0,39.0,7.7,7,5,4,1,2026-06-03T05:18:28.365558+05:30
Nagpur,Maharashtra,21.1458,79.0882,30.6,44,0.0,970.1,8.35,37.1,76,25.7,17.8,12.9,283.0,66.0,9.5,0,5,7,1,2026-06-03T05:18:28.365565+05:30
Nashik,Maharashtra,19.9975,73.7898,23.6,90,0.0,943.0,8.0,39.2,67,44.2,21.5,12.9,134.0,28.0,12.5,3,5,7,1,2026-06-03T05:18:28.365573+05:30
Aurangabad,Maharashtra,19.8762,75.3433,25.9,72,0.0,942.2,8.9,39.2,64,37.1,19.5,10.0,137.0,41.0,8.8,7,5,7,1,2026-06-03T05:18:28.365580+05:30
Solapur,Maharashtra,17.6599,75.9064,27.8,62,0.0,955.4,4.8,49.3,66,28.6,16.7,8.0,164.0,52.0,3.3,7,5,3,1,2026-06-03T05:18:28.365587+05:30
Kolhapur,Maharashtra,16.705,74.2433,24.0,87,0.0,946.1,1.75,40.3,50,22.9,10.7,5.2,122.0,39.0,2.5,3,5,3,1,2026-06-03T05:18:28.365594+05:30
Goa,Goa,15.2993,74.124,25.6,96,0.0,996.8,2.7,25.6,49,19.3,10.5,2.9,277.0,55.0,1.0,7,5,3,1,2026-06-03T05:18:28.365601+05:30
Jodhpur,Rajasthan,26.2389,73.0243,29.5,61,0.0,979.5,8.45,31.0,101,142.0,40.6,7.5,138.0,44.0,3.7,7,5,7,1,2026-06-03T05:18:28.365608+05:30
Udaipur,Rajasthan,24.5854,73.7125,26.7,65,0.0,943.3,8.35,34.9,80,46.1,25.6,7.3,153.0,52.0,5.2,7,5,7,1,2026-06-03T05:18:28.365615+05:30
Kota,Rajasthan,25.2138,75.8648,28.8,59,0.0,975.1,8.4,31.7,102,48.4,28.8,9.2,172.0,56.0,5.7,4,5,7,1,2026-06-03T05:18:28.365622+05:30
Bikaner,Rajasthan,28.0229,73.3119,28.2,55,0.0,977.9,8.45,47.9,130,75.9,29.2,4.5,276.0,74.0,3.4,4,5,7,1,2026-06-03T05:18:28.365629+05:30
Ajmer,Rajasthan,26.4499,74.6399,27.0,65,0.0,951.5,8.4,35.3,95,51.0,22.2,6.5,214.0,54.0,5.0,7,5,7,1,2026-06-03T05:18:28.365635+05:30
Gwalior,Madhya Pradesh,26.2183,78.1828,26.8,72,0.0,979.7,8.3,23.0,84,138.8,50.8,13.7,332.0,51.0,6.1,7,5,7,1,2026-06-03T05:18:28.365642+05:30
Indore,Madhya Pradesh,22.7196,75.8577,26.0,77,0.0,945.3,8.6,32.4,83,42.0,29.1,7.2,244.0,71.0,8.0,7,5,7,1,2026-06-03T05:18:28.365648+05:30
Bhopal,Madhya Pradesh,23.2599,77.4126,27.1,56,0.0,950.5,7.15,33.1,78,31.5,22.3,7.2,275.0,59.0,5.3,4,5,7,1,2026-06-03T05:18:28.365654+05:30
Jabalpur,Madhya Pradesh,23.1815,79.9864,27.9,56,0.0,958.4,7.15,29.9,76,40.5,29.3,27.3,219.0,33.0,5.1,4,5,7,1,2026-06-03T05:18:28.365660+05:30
Ujjain,Madhya Pradesh,23.1765,75.7885,26.1,77,0.0,950.8,8.5,33.1,82,45.2,31.1,5.7,244.0,68.0,7.8,7,5,7,1,2026-06-03T05:18:28.365667+05:30
Visakhapatnam,Andhra Pradesh,17.6868,83.2185,28.5,92,0.0,1000.6,9.05,43.6,92,32.0,26.7,24.4,386.0,81.0,41.8,7,5,4,1,2026-06-03T05:18:28.365673+05:30
Vijayawada,Andhra Pradesh,16.5062,80.648,30.4,73,0.0,999.6,9.05,31.3,86,22.0,20.1,9.9,279.0,88.0,10.3,3,5,7,1,2026-06-03T05:18:28.365680+05:30
Guntur,Andhra Pradesh,16.3067,80.4365,29.6,69,0.0,1001.0,9.05,35.6,89,23.1,20.3,10.2,269.0,83.0,8.1,7,5,4,1,2026-06-03T05:18:28.365686+05:30
Nellore,Andhra Pradesh,14.4426,79.9865,27.1,77,0.0,1003.3,9.0,30.2,67,22.3,19.0,7.7,219.0,84.0,8.1,7,5,4,1,2026-06-03T05:18:28.365693+05:30
Kurnool,Andhra Pradesh,15.8281,78.0373,27.1,74,0.0,975.3,8.8,34.9,74,12.7,10.3,15.8,202.0,40.0,8.1,7,5,7,1,2026-06-03T05:18:28.365700+05:30
Kakinada,Andhra Pradesh,16.9891,82.2475,28.5,88,0.0,1004.5,9.05,38.5,77,20.9,15.4,3.6,336.0,106.0,4.6,7,5,4,1,2026-06-03T05:18:28.365707+05:30
Tirupati,Andhra Pradesh,13.6288,79.4192,26.6,75,0.0,988.7,9.0,26.6,67,27.0,24.1,16.7,225.0,51.0,8.1,7,5,7,1,2026-06-03T05:18:28.365713+05:30
Warangal,Telangana,17.9689,79.5941,28.9,58,0.0,975.9,9.0,41.8,116,45.4,34.9,14.4,290.0,68.0,5.7,4,5,7,1,2026-06-03T05:18:28.365719+05:30
Nizamabad,Telangana,18.6725,78.0941,27.5,59,0.0,962.1,6.0,42.1,87,23.3,15.9,9.4,201.0,82.0,5.6,4,5,3,1,2026-06-03T05:18:28.365725+05:30
Mysore,Karnataka,12.2958,76.6396,21.4,97,0.0,927.3,8.15,50.8,39,9.0,8.8,12.2,180.0,38.0,2.1,3,5,7,1,2026-06-03T05:18:28.365731+05:30
Mangalore,Karnataka,12.9141,74.856,23.6,97,0.2,1006.6,8.3,32.8,43,12.3,8.7,5.6,188.0,51.0,2.1,6,5,4,1,2026-06-03T05:18:28.365738+05:30
Hubli-Dharwad,Karnataka,15.3647,75.124,23.4,93,0.0,939.5,4.5,43.6,30,4.0,2.6,3.0,125.0,48.0,1.2,3,5,3,1,2026-06-03T05:18:28.365744+05:30
Belgaum,Karnataka,15.8497,74.4977,22.7,90,0.0,924.2,1.25,37.4,46,10.6,5.4,3.8,121.0,43.0,1.9,3,5,3,1,2026-06-03T05:18:31.616435+05:30
Coimbatore,Tamil Nadu,11.0168,76.9558,23.0,96,0.1,960.5,7.5,57.6,26,3.5,3.0,4.7,149.0,44.0,2.3,6,5,7,1,2026-06-03T05:18:31.616473+05:30
Madurai,Tamil Nadu,9.9252,78.1198,26.9,82,0.0,991.7,8.3,60.5,79,28.1,27.3,44.2,327.0,0.0,6.6,7,5,7,1,2026-06-03T05:18:31.616485+05:30
Trichy,Tamil Nadu,10.7905,78.7047,27.1,80,0.0,998.2,8.85,53.6,54,14.7,13.6,20.0,200.0,28.0,5.8,7,5,7,1,2026-06-03T05:18:31.616494+05:30
Salem,Tamil Nadu,11.6643,78.146,26.2,77,0.0,976.1,8.8,36.0,64,18.3,17.5,24.8,346.0,21.0,6.9,7,5,7,1,2026-06-03T05:18:31.616501+05:30
Tirunelveli,Tamil Nadu,8.7139,77.7567,28.2,69,0.0,1002.4,8.6,51.5,22,3.6,3.1,5.3,157.0,41.0,1.6,7,5,4,1,2026-06-03T05:18:31.616510+05:30
Vellore,Tamil Nadu,12.9165,79.1325,27.1,72,0.0,982.2,9.05,33.1,80,32.7,30.0,21.7,311.0,26.0,5.2,7,5,7,1,2026-06-03T05:18:31.616518+05:30
Erode,Tamil Nadu,11.341,77.7172,27.0,72,0.0,987.7,8.25,47.9,50,11.8,11.4,19.6,154.0,22.0,4.0,7,5,7,1,2026-06-03T05:18:31.616525+05:30
Kochi,Kerala,9.9312,76.2673,25.5,91,0.0,1008.8,8.1,38.2,38,8.1,7.1,11.2,96.0,27.0,2.9,7,0,4,1,2026-06-03T05:18:31.616533+05:30
Thiruvananthapuram,Kerala,8.5241,76.9366,23.8,99,0.3,1008.9,8.15,42.8,30,13.0,7.4,1.5,184.0,69.0,0.6,6,0,4,1,2026-06-03T05:18:31.616541+05:30
Kozhikode,Kerala,11.2588,75.7804,23.3,99,0.0,1008.0,8.5,33.8,30,3.3,2.1,1.4,279.0,67.0,0.6,3,0,4,1,2026-06-03T05:18:31.616548+05:30
Thrissur,Kerala,10.5276,76.2144,23.8,99,0.1,1007.5,8.05,35.3,36,6.7,6.2,9.6,201.0,34.0,3.0,6,5,4,1,2026-06-03T05:18:31.616556+05:30
Kannur,Kerala,11.8745,75.3704,23.8,98,0.1,1007.2,7.3,30.6,34,6.3,4.9,6.1,154.0,46.0,1.9,6,5,4,1,2026-06-03T05:18:31.616563+05:30
Patna,Bihar,25.5941,85.1376,28.0,73,0.0,997.2,8.6,23.4,171,92.0,83.8,43.5,555.0,30.0,16.3,7,5,7,1,2026-06-03T05:18:31.616571+05:30
Gaya,Bihar,24.7914,85.0002,28.3,67,0.0,990.8,8.85,38.9,152,71.0,60.3,14.8,468.0,80.0,9.6,7,5,7,1,2026-06-03T05:18:31.616577+05:30
Muzaffarpur,Bihar,26.1209,85.3647,27.0,75,0.0,997.1,8.85,26.3,173,119.0,105.9,50.9,843.0,30.0,19.7,7,5,7,1,2026-06-03T05:18:31.616584+05:30
Bhagalpur,Bihar,25.2425,87.0117,29.1,73,0.0,997.7,8.7,22.0,156,73.8,69.8,19.4,675.0,62.0,45.6,7,5,7,1,2026-06-03T05:18:31.616591+05:30
Ranchi,Jharkhand,23.3441,85.3096,24.7,70,0.0,935.4,9.1,28.8,154,72.2,63.8,18.9,374.0,77.0,13.6,3,5,7,1,2026-06-03T05:18:31.616598+05:30
Jamshedpur,Jharkhand,22.8046,86.2029,27.1,80,0.0,988.0,9.05,30.2,154,69.4,62.4,22.8,402.0,69.0,27.3,7,5,7,1,2026-06-03T05:18:31.616605+05:30
Dhanbad,Jharkhand,23.7957,86.4304,27.2,67,0.0,976.8,8.95,30.2,168,127.6,118.0,70.1,539.0,21.0,177.4,7,5,7,1,2026-06-03T05:18:31.616613+05:30
Bokaro,Jharkhand,23.6693,86.1511,26.8,74,0.0,980.8,8.9,25.6,170,117.1,106.2,58.4,388.0,15.0,121.2,7,5,7,1,2026-06-03T05:18:31.616620+05:30
Bhubaneswar,Odisha,20.2961,85.8245,28.0,94,0.0,999.2,9.05,42.5,82,31.2,26.9,11.6,285.0,81.0,6.9,7,5,7,1,2026-06-03T05:18:31.616627+05:30
Cuttack,Odisha,20.4625,85.8828,28.1,94,0.0,1001.1,9.1,33.5,82,31.2,26.9,11.6,289.0,81.0,6.9,7,5,4,1,2026-06-03T05:18:31.616635+05:30
Rourkela,Odisha,22.2604,84.8536,27.9,80,0.0,982.3,9.0,32.0,159,112.9,101.5,38.2,345.0,50.0,25.1,7,5,7,1,2026-06-03T05:18:31.616642+05:30
Raipur,Chhattisgarh,21.2514,81.6296,29.1,58,0.0,971.5,8.95,36.7,148,66.4,52.9,45.0,823.0,24.0,44.2,4,5,7,1,2026-06-03T05:18:31.616648+05:30
Bhilai,Chhattisgarh,21.1938,81.3509,28.4,56,0.0,971.8,8.95,37.8,120,50.5,37.5,35.9,877.0,41.0,44.8,4,5,7,1,2026-06-03T05:18:31.616655+05:30
Guwahati,Assam,26.1158,91.7086,25.6,90,0.0,999.0,8.8,30.2,126,45.2,41.6,8.7,466.0,61.0,3.6,7,5,7,1,2026-06-03T05:18:31.616661+05:30
Agartala,Tripura,23.8315,91.2868,26.9,90,0.0,1003.6,8.85,22.7,123,31.2,26.9,16.3,289.0,25.0,3.5,7,5,4,1,2026-06-03T05:18:31.616668+05:30
Shillong,Meghalaya,25.5788,91.8933,19.1,89,0.0,855.4,9.0,27.4,86,29.6,26.3,5.9,313.0,77.0,3.1,3,10,7,1,2026-06-03T05:18:31.616675+05:30
Imphal,Manipur,24.817,93.9368,22.7,92,0.0,921.4,9.25,31.7,84,39.0,35.4,11.4,437.0,40.0,2.5,3,5,7,1,2026-06-03T05:18:31.616682+05:30
Aizawl,Mizoram,23.7271,92.7176,19.4,98,0.0,890.5,8.45,25.6,82,36.1,27.9,7.4,230.0,42.0,3.1,3,10,7,1,2026-06-03T05:18:31.616688+05:30
Kohima,Nagaland,25.6701,94.1077,19.6,89,0.0,853.5,7.4,29.2,69,29.9,24.9,5.6,310.0,48.0,1.0,3,10,7,1,2026-06-03T05:18:31.616695+05:30
Gangtok,Sikkim,27.3314,88.6138,16.1,96,0.1,835.3,8.9,38.2,65,14.9,12.9,9.5,496.0,102.0,1.4,6,10,7,0,2026-06-03T05:18:31.616702+05:30
Siliguri,West Bengal,26.7271,88.3953,26.0,80,0.0,989.5,8.75,28.4,130,47.1,42.5,24.3,752.0,72.0,4.8,7,5,7,1,2026-06-03T05:18:34.859405+05:30
Durgapur,West Bengal,23.5204,87.3119,27.5,89,0.0,991.7,9.0,22.0,161,85.0,80.8,38.7,965.0,38.0,51.5,7,5,7,1,2026-06-03T05:18:34.859442+05:30
Asansol,West Bengal,23.6739,86.9524,27.5,80,0.0,990.2,9.0,24.1,157,95.9,89.4,44.7,679.0,36.0,70.0,7,5,7,1,2026-06-03T05:18:34.859453+05:30
Pondicherry,Puducherry,11.9139,79.8145,28.0,79,0.0,1005.9,8.85,38.9,51,11.3,9.1,14.1,295.0,38.0,12.7,7,5,4,1,2026-06-03T05:18:34.859462+05:30
Port Blair,Andaman and Nicobar Islands,11.6234,92.7265,24.2,98,0.1,1006.6,2.4,40.0,37,15.0,8.1,0.2,113.0,66.0,0.3,6,5,0,1,2026-06-03T05:18:34.859470+05:30
Haridwar,Uttarakhand,29.9457,78.1642,24.2,77,0.0,971.6,7.65,22.0,107,48.0,39.7,38.6,307.0,24.0,6.3,3,5,7,1,2026-06-03T05:18:34.859478+05:30
Rishikesh,Uttarakhand,30.0869,78.2676,22.5,82,0.0,964.3,7.75,24.5,81,34.8,26.8,26.6,347.0,46.0,3.5,3,5,7,1,2026-06-03T05:18:34.859485+05:30
Nainital,Uttarakhand,29.3919,79.4542,12.9,86,0.0,802.9,7.0,29.5,95,61.9,42.6,32.9,295.0,27.0,4.1,3,10,7,0,2026-06-03T05:18:34.859494+05:30
Mussoorie,Uttarakhand,30.4599,78.0664,13.3,85,0.0,800.2,8.15,39.6,81,34.5,30.6,47.3,239.0,13.0,5.9,3,10,7,0,2026-06-03T05:18:34.859502+05:30
Dharamshala,Himachal Pradesh,32.219,76.3234,20.0,62,0.0,867.8,8.5,32.8,49,19.5,9.1,11.8,233.0,54.0,0.0,3,5,7,0,2026-06-03T05:18:34.859509+05:30
Dalhousie,Himachal Pradesh,32.5387,75.971,11.6,83,0.0,801.0,8.5,41.0,77,34.8,19.2,17.5,277.0,62.0,1.3,3,10,7,0,2026-06-03T05:18:34.859516+05:30
Patiala,Punjab,30.3398,76.3869,25.1,76,0.0,975.6,7.7,31.0,158,173.2,57.9,16.8,500.0,51.0,7.8,7,5,7,1,2026-06-03T05:18:34.859524+05:30
Bhatinda,Punjab,30.211,74.9455,28.3,52,0.0,980.7,8.35,27.4,199,413.5,93.4,23.5,369.0,53.0,6.0,4,5,7,1,2026-06-03T05:18:34.859530+05:30
Rohtak,Haryana,28.8955,76.6066,26.0,76,0.0,978.7,7.8,18.7,157,160.2,84.3,65.1,540.0,17.0,34.6,7,5,7,1,2026-06-03T05:18:34.859537+05:30
Panipat,Haryana,29.3909,76.9635,26.0,72,0.0,977.6,7.65,30.2,159,135.0,91.7,56.8,824.0,23.0,22.0,7,5,7,1,2026-06-03T05:18:34.859544+05:30
Mathura,Uttar Pradesh,27.4924,77.6737,26.4,72,0.0,983.6,8.1,18.0,126,144.4,58.8,28.4,646.0,36.0,8.0,7,5,7,1,2026-06-03T05:18:34.859551+05:30
Vrindavan,Uttar Pradesh,27.5823,77.7027,26.6,71,0.0,984.1,8.05,18.4,126,144.4,58.8,28.4,624.0,36.0,8.0,7,5,7,1,2026-06-03T05:18:34.859557+05:30
Ayodhya,Uttar Pradesh,26.7922,82.1998,27.2,80,0.0,992.1,8.4,24.5,152,80.1,59.5,29.3,655.0,36.0,9.5,7,5,7,1,2026-06-03T05:18:34.859564+05:30
Ratlam,Madhya Pradesh,23.3315,75.0367,25.9,78,0.0,951.9,8.5,34.2,82,45.8,30.6,6.7,206.0,58.0,10.0,7,5,7,1,2026-06-03T05:18:34.859571+05:30
Sagar,Madhya Pradesh,23.8388,78.7378,25.5,72,0.0,946.9,8.4,31.7,68,27.1,19.8,20.8,206.0,33.0,3.2,7,5,7,1,2026-06-03T05:18:34.859577+05:30
Satna,Madhya Pradesh,24.6005,80.8322,26.8,71,0.0,968.1,8.45,27.7,111,43.4,34.1,21.3,560.0,43.0,8.7,7,5,7,1,2026-06-03T05:18:34.859584+05:30
Akola,Maharashtra,20.7002,77.0082,28.4,68,0.0,972.7,8.8,32.8,72,25.1,17.9,9.3,156.0,61.0,6.2,7,5,7,1,2026-06-03T05:18:34.859592+05:30
Amravati,Maharashtra,20.9374,77.7796,29.2,50,0.0,964.6,8.2,38.9,77,28.6,19.6,11.5,303.0,55.0,4.1,4,5,7,1,2026-06-03T05:18:34.859600+05:30
Latur,Maharashtra,18.4088,76.5604,27.2,61,0.0,938.0,8.8,41.8,66,30.4,19.8,9.3,184.0,62.0,6.1,7,5,7,1,2026-06-03T05:18:34.859607+05:30
Nanded,Maharashtra,19.1383,77.3091,29.6,53,0.0,966.2,8.8,31.0,71,23.3,18.2,10.6,175.0,64.0,6.1,4,5,7,1,2026-06-03T05:18:34.859614+05:30
Gulbarga,Karnataka,17.3297,76.8343,27.9,62,0.0,956.8,5.2,49.3,78,23.4,15.6,11.9,158.0,48.0,4.0,7,5,3,1,2026-06-03T05:18:34.859621+05:30
Bidar,Karnataka,17.9104,77.5199,26.3,62,0.0,933.4,4.25,37.1,88,24.3,17.1,10.6,189.0,76.0,3.0,7,5,3,1,2026-06-03T05:18:34.859627+05:30
Hospet,Karnataka,15.2689,76.3909,24.1,92,0.1,955.0,6.7,35.6,42,8.9,5.8,7.1,154.0,38.0,1.8,6,5,7,1,2026-06-03T05:18:34.859634+05:30
Tirupur,Tamil Nadu,11.1085,77.3411,24.8,84,0.0,974.0,9.0,60.8,50,13.4,13.0,20.3,143.0,25.0,4.6,3,5,7,1,2026-06-03T05:18:34.859640+05:30
Alappuzha,Kerala,9.4981,76.3388,26.0,93,0.1,1008.9,7.75,40.0,28,7.7,4.6,3.4,96.0,50.0,1.4,10,0,4,1,2026-06-03T05:18:34.859647+05:30
Munnar,Kerala,10.0889,77.0595,17.1,100,0.3,855.9,7.1,40.0,29,2.5,2.5,5.4,108.0,30.0,1.1,6,10,7,1,2026-06-03T05:18:34.859655+05:30
Silchar,Assam,24.8333,92.7789,25.0,96,0.4,1003.6,8.95,24.8,121,43.0,35.6,9.5,286.0,79.0,3.5,10,5,4,1,2026-06-03T05:18:34.859661+05:30
Dibrugarh,Assam,27.4728,94.912,24.1,99,0.0,993.1,8.95,29.2,61,19.8,17.1,7.6,328.0,78.0,1.3,3,5,7,1,2026-06-03T05:18:34.859668+05:30
