city,state,latitude,longitude,temp,humidity,rain,pressure,uv_index,wind_gusts,aqi,pm10,pm2_5,no2,co,o3,so2,mosquito_risk,arthritis_risk,migraine_risk,frizz_risk,updated_at
Delhi,Delhi,28.6139,77.209,27.4,53,0.0,982.3,7.65,27.4,157,205.8,66.8,18.2,505.0,111.0,21.0,4,5,7,1,2026-05-11T03:21:35.645468+05:30
Mumbai,Maharashtra,19.076,72.8777,28.8,81,0.0,1004.1,7.9,50.0,91,50.4,23.0,15.1,343.0,68.0,11.0,7,5,4,1,2026-05-11T03:21:35.645522+05:30
Bangalore,Karnataka,12.9716,77.5946,21.4,91,0.0,908.7,9.3,41.0,62,19.0,18.0,16.9,240.0,56.0,9.1,3,5,7,1,2026-05-11T03:21:35.645536+05:30
Hyderabad,Telangana,17.385,78.4867,25.6,70,0.0,950.9,9.25,40.0,60,8.6,6.7,6.0,174.0,52.0,2.7,7,5,7,1,2026-05-11T03:21:35.645545+05:30
Chennai,Tamil Nadu,13.0827,80.2707,26.6,88,0.0,1003.9,9.15,40.0,19,8.4,6.9,10.3,339.0,35.0,2.8,7,5,4,1,2026-05-11T03:21:35.645554+05:30
Kolkata,West Bengal,22.5726,88.3639,24.6,90,0.0,1005.8,8.8,38.5,155,112.5,106.6,59.0,495.0,10.0,21.7,3,5,4,1,2026-05-11T03:21:35.645562+05:30
Pune,Maharashtra,18.5204,73.8567,27.3,55,0.0,944.2,8.5,39.6,69,33.8,26.2,23.3,321.0,76.0,14.9,4,5,7,1,2026-05-11T03:21:35.645569+05:30
Ahmedabad,Gujarat,23.0225,72.5714,33.0,32,0.0,997.7,8.15,35.6,61,21.7,11.4,3.6,174.0,67.0,4.1,0,5,7,0,2026-05-11T03:21:35.645579+05:30
Jaipur,Rajasthan,26.9124,75.7873,27.4,51,0.0,958.0,8.2,44.3,179,366.9,72.4,5.1,361.0,115.0,8.4,4,5,7,1,2026-05-11T03:21:35.645586+05:30
Lucknow,Uttar Pradesh,26.8467,80.9462,25.8,57,0.0,993.1,8.15,28.8,112,43.0,35.6,13.3,368.0,94.0,9.5,4,5,7,1,2026-05-11T03:21:35.645594+05:30
Kanpur,Uttar Pradesh,26.4499,80.3319,27.0,52,0.0,991.0,8.15,32.4,135,176.5,44.2,9.1,339.0,101.0,8.8,4,5,7,1,2026-05-11T03:21:35.645601+05:30
Chandigarh,Chandigarh,30.7333,76.7794,24.4,69,0.0,967.7,7.7,42.5,147,88.2,57.0,18.8,398.0,82.0,9.0,3,5,7,1,2026-05-11T03:21:35.645608+05:30
Srinagar,Jammu and Kashmir,34.0837,74.7973,14.1,83,0.0,841.0,8.85,32.8,108,68.2,44.0,19.0,497.0,66.0,4.4,3,10,7,0,2026-05-11T03:21:35.645616+05:30
Jammu,Jammu and Kashmir,32.7266,74.857,26.5,56,0.0,970.5,8.45,31.7,157,112.5,61.9,23.7,396.0,41.0,5.2,4,5,7,1,2026-05-11T03:21:35.645623+05:30
Amritsar,Punjab,31.634,74.8723,27.4,58,0.0,979.1,8.35,49.7,171,192.8,72.2,6.8,583.0,107.0,12.8,4,5,7,1,2026-05-11T03:21:35.645629+05:30
Ludhiana,Punjab,30.901,75.8573,26.8,60,0.0,976.7,7.9,36.7,174,286.8,80.1,8.4,501.0,113.0,9.5,4,5,7,1,2026-05-11T03:21:35.645634+05:30
Jalandhar,Punjab,31.326,75.5762,26.3,61,0.0,977.6,8.1,34.2,169,200.7,71.7,9.2,639.0,108.0,17.7,7,5,7,1,2026-05-11T03:21:35.645641+05:30
Dehradun,Uttarakhand,30.6284,78.0322,12.3,99,0.0,828.6,6.15,31.7,98,70.5,40.4,25.8,311.0,44.0,1.3,3,10,7,0,2026-05-11T03:21:35.645649+05:30
Shimla,Himachal Pradesh,31.1048,77.1734,11.9,90,0.0,782.6,7.65,42.5,151,137.4,68.9,17.9,377.0,100.0,10.7,3,10,7,0,2026-05-11T03:21:35.645656+05:30
Manali,Himachal Pradesh,32.2396,77.1887,12.5,68,0.0,817.0,9.5,37.1,74,31.2,20.0,40.6,229.0,95.0,0.6,3,5,7,0,2026-05-11T03:21:35.645662+05:30
Gurgaon,Haryana,28.4595,77.0266,26.5,56,0.0,980.3,7.75,31.3,671,631.4,109.2,14.5,437.0,109.0,18.3,4,5,7,1,2026-05-11T03:21:35.645669+05:30
Noida,Uttar Pradesh,28.5355,77.391,24.1,67,0.0,983.6,7.65,24.8,671,631.4,109.2,14.5,495.0,109.0,18.3,3,5,7,1,2026-05-11T03:21:35.645676+05:30
Ghaziabad,Uttar Pradesh,28.6692,77.4538,24.9,64,0.0,981.9,7.65,28.1,145,106.2,56.7,10.2,439.0,108.0,16.1,3,5,7,1,2026-05-11T03:21:35.645683+05:30
Faridabad,Haryana,28.4089,77.3178,26.1,58,0.0,982.9,7.7,25.6,671,631.4,109.2,14.5,445.0,109.0,18.3,4,5,7,1,2026-05-11T03:21:35.645688+05:30
Meerut,Uttar Pradesh,28.9845,77.7064,24.2,68,0.0,980.8,7.55,28.8,145,106.2,56.7,10.2,477.0,108.0,16.1,3,5,7,1,2026-05-11T03:21:35.645694+05:30
Agra,Uttar Pradesh,27.1767,78.0081,26.5,58,0.0,986.6,8.0,25.2,367,501.1,77.8,7.8,349.0,99.0,10.8,4,5,7,1,2026-05-11T03:21:35.645700+05:30
Varanasi,Uttar Pradesh,25.3176,82.9739,24.6,68,0.0,996.8,8.65,25.6,111,54.2,46.0,12.0,445.0,115.0,17.2,3,5,7,1,2026-05-11T03:21:35.645706+05:30
Prayagraj,Uttar Pradesh,25.4358,81.8463,26.0,54,0.0,995.1,8.55,27.0,117,54.9,47.6,14.8,421.0,103.0,15.6,4,5,7,0,2026-05-11T03:21:35.645715+05:30
Gorakhpur,Uttar Pradesh,26.7606,83.3732,23.5,68,0.0,997.7,8.5,31.0,100,52.7,45.8,12.9,457.0,105.0,13.0,3,5,7,1,2026-05-11T03:21:35.645720+05:30
Bareilly,Uttar Pradesh,28.367,79.4304,23.5,72,0.0,986.6,7.95,25.2,107,40.6,30.9,12.6,345.0,81.0,4.2,3,5,7,1,2026-05-11T03:21:35.645726+05:30
Aligarh,Uttar Pradesh,27.8974,78.088,25.1,61,0.0,984.6,7.8,29.2,185,278.5,65.2,10.0,379.0,100.0,15.2,7,5,7,1,2026-05-11T03:21:35.645731+05:30
Moradabad,Uttar Pradesh,28.8386,78.7733,24.0,70,0.0,983.6,7.75,26.3,126,61.0,50.5,17.9,453.0,82.0,7.9,3,5,7,1,2026-05-11T03:21:35.645737+05:30
Saharanpur,Uttar Pradesh,29.9637,77.546,24.1,72,0.0,975.1,7.4,32.0,150,85.9,64.5,27.2,504.0,45.0,9.2,3,5,7,1,2026-05-11T03:21:35.645742+05:30
Jhansi,Uttar Pradesh,25.4484,78.5685,26.4,56,0.0,976.7,8.45,31.3,113,63.8,36.7,4.3,359.0,106.0,8.7,4,5,7,1,2026-05-11T03:21:38.995023+05:30
Surat,Gujarat,21.1702,72.8311,30.3,56,0.0,1001.3,7.75,33.8,101,35.0,21.9,21.3,206.0,70.0,35.0,0,5,4,1,2026-05-11T03:21:38.995057+05:30
Vadodara,Gujarat,22.3072,73.1812,31.5,26,0.0,999.8,8.1,35.6,78,31.9,18.4,11.0,224.0,64.0,9.3,0,5,7,0,2026-05-11T03:21:38.995066+05:30
Rajkot,Gujarat,22.3039,70.8022,26.0,87,0.0,990.8,7.75,39.2,53,36.9,12.3,6.0,151.0,58.0,5.7,7,5,7,1,2026-05-11T03:21:38.995073+05:30
Thane,Maharashtra,19.2183,72.9781,28.3,75,0.0,1003.3,7.9,47.2,91,50.4,23.0,15.1,506.0,68.0,11.0,7,5,4,1,2026-05-11T03:21:38.995080+05:30
Nagpur,Maharashtra,21.1458,79.0882,29.6,39,0.0,970.4,8.95,34.9,95,70.5,46.8,27.3,351.0,73.0,16.0,4,5,7,0,2026-05-11T03:21:38.995086+05:30
Nashik,Maharashtra,19.9975,73.7898,28.5,36,0.0,941.6,8.2,44.6,82,46.9,28.5,25.4,240.0,76.0,20.5,4,5,7,0,2026-05-11T03:21:38.995092+05:30
Aurangabad,Maharashtra,19.8762,75.3433,31.5,26,0.0,940.3,9.05,43.2,67,30.6,16.1,9.4,211.0,94.0,10.0,0,5,7,0,2026-05-11T03:21:38.995098+05:30
Solapur,Maharashtra,17.6599,75.9064,30.5,39,0.0,953.4,9.1,31.3,71,33.4,23.1,12.0,263.0,77.0,9.3,0,5,7,0,2026-05-11T03:21:38.995105+05:30
Kolhapur,Maharashtra,16.705,74.2433,25.5,74,0.0,944.6,8.05,48.6,111,35.9,28.3,17.5,229.0,56.0,7.5,7,5,7,1,2026-05-11T03:21:38.995110+05:30
Goa,Goa,15.2993,74.124,27.3,93,0.0,994.3,8.9,36.4,83,58.2,40.2,17.5,381.0,54.0,4.7,7,5,7,1,2026-05-11T03:21:38.995117+05:30
Jodhpur,Rajasthan,26.2389,73.0243,32.0,18,0.0,978.8,8.4,36.0,76,149.9,28.1,8.3,234.0,62.0,4.3,0,5,7,0,2026-05-11T03:21:38.995124+05:30
Udaipur,Rajasthan,24.5854,73.7125,28.5,25,0.0,943.0,8.85,33.8,40,42.7,14.1,6.5,267.0,58.0,4.6,4,5,7,0,2026-05-11T03:21:38.995129+05:30
Kota,Rajasthan,25.2138,75.8648,28.6,43,0.0,975.9,8.4,23.8,93,78.5,35.0,3.6,314.0,110.0,10.9,4,5,7,0,2026-05-11T03:21:38.995135+05:30
Bikaner,Rajasthan,28.0229,73.3119,30.4,36,0.0,977.5,8.3,68.4,108,87.1,35.5,2.8,309.0,96.0,5.8,0,5,7,0,2026-05-11T03:21:38.995141+05:30
Ajmer,Rajasthan,26.4499,74.6399,27.6,48,0.0,952.0,8.35,40.0,104,125.3,39.6,4.7,382.0,89.0,5.4,4,5,7,0,2026-05-11T03:21:38.995147+05:30
Gwalior,Madhya Pradesh,26.2183,78.1828,26.5,55,0.0,981.9,8.25,25.9,123,91.7,39.1,4.2,335.0,114.0,8.1,4,5,7,1,2026-05-11T03:21:38.995153+05:30
Indore,Madhya Pradesh,22.7196,75.8577,28.9,28,0.0,944.9,8.7,38.5,78,70.5,34.8,4.7,269.0,117.0,18.7,4,5,7,0,2026-05-11T03:21:38.995159+05:30
Bhopal,Madhya Pradesh,23.2599,77.4126,27.4,46,0.0,950.9,8.7,41.4,73,65.9,29.1,3.0,304.0,114.0,5.3,4,5,7,0,2026-05-11T03:21:38.995164+05:30
Jabalpur,Madhya Pradesh,23.1815,79.9864,25.0,51,0.0,958.4,8.85,34.2,83,44.2,27.2,9.6,316.0,92.0,7.6,4,5,7,0,2026-05-11T03:21:38.995170+05:30
Ujjain,Madhya Pradesh,23.1765,75.7885,28.4,31,0.0,950.9,8.65,44.3,70,70.3,36.7,5.6,279.0,108.0,19.5,4,5,7,0,2026-05-11T03:21:38.995177+05:30
Visakhapatnam,Andhra Pradesh,17.6868,83.2185,25.8,95,0.0,1002.1,9.1,39.6,72,32.0,28.9,26.9,1283.0,23.0,8.8,7,5,4,1,2026-05-11T03:21:38.995183+05:30
Vijayawada,Andhra Pradesh,16.5062,80.648,27.8,81,0.0,1000.4,8.85,39.6,46,14.3,12.9,10.4,164.0,33.0,4.6,7,5,4,1,2026-05-11T03:21:38.995188+05:30
Guntur,Andhra Pradesh,16.3067,80.4365,27.3,82,0.0,1001.6,9.15,35.3,47,10.6,9.4,9.6,156.0,33.0,6.0,7,5,4,1,2026-05-11T03:21:38.995195+05:30
Nellore,Andhra Pradesh,14.4426,79.9865,25.9,95,0.0,1003.1,9.15,36.4,22,5.9,4.1,3.1,232.0,44.0,2.0,7,5,4,1,2026-05-11T03:21:38.995201+05:30
Kurnool,Andhra Pradesh,15.8281,78.0373,28.0,59,0.0,974.1,8.3,39.2,50,5.2,3.8,3.6,148.0,44.0,1.2,4,5,7,1,2026-05-11T03:21:38.995207+05:30
Kakinada,Andhra Pradesh,16.9891,82.2475,26.6,89,0.0,1005.6,9.05,41.0,27,8.6,5.8,2.0,164.0,57.0,1.1,7,5,4,1,2026-05-11T03:21:38.995213+05:30
Tirupati,Andhra Pradesh,13.6288,79.4192,24.2,92,0.0,988.1,9.2,40.7,47,17.9,16.7,28.8,376.0,7.0,8.2,3,5,7,1,2026-05-11T03:21:38.995219+05:30
Warangal,Telangana,17.9689,79.5941,26.1,79,0.0,976.4,9.15,42.8,62,7.9,7.1,8.4,166.0,40.0,9.2,7,5,7,1,2026-05-11T03:21:38.995224+05:30
Nizamabad,Telangana,18.6725,78.0941,27.1,60,0.0,961.4,9.15,34.6,76,28.3,23.2,7.4,226.0,92.0,6.3,4,5,7,1,2026-05-11T03:21:38.995230+05:30
Mysore,Karnataka,12.2958,76.6396,22.1,97,0.0,925.3,9.0,40.7,60,24.9,21.3,20.5,266.0,54.0,7.1,3,5,7,1,2026-05-11T03:21:38.995236+05:30
Mangalore,Karnataka,12.9141,74.856,26.8,95,0.0,1003.1,8.6,40.7,65,29.2,22.6,9.5,222.0,71.0,4.8,7,5,4,1,2026-05-11T03:21:38.995241+05:30
Hubli-Dharwad,Karnataka,15.3647,75.124,25.3,78,0.0,938.0,8.9,50.4,73,31.9,27.5,9.4,236.0,77.0,3.3,7,5,7,1,2026-05-11T03:21:38.995247+05:30
Belgaum,Karnataka,15.8497,74.4977,25.0,60,0.0,922.5,9.2,48.6,99,38.5,24.7,14.7,208.0,60.0,6.4,4,5,7,1,2026-05-11T03:21:42.340472+05:30
Coimbatore,Tamil Nadu,11.0168,76.9558,23.2,91,0.0,958.8,9.25,30.2,60,31.3,27.8,18.8,496.0,51.0,8.7,3,5,7,1,2026-05-11T03:21:42.340504+05:30
Madurai,Tamil Nadu,9.9252,78.1198,25.0,92,0.0,990.1,9.1,33.8,58,30.2,29.2,28.2,319.0,26.0,7.3,7,5,7,1,2026-05-11T03:21:42.340513+05:30
Trichy,Tamil Nadu,10.7905,78.7047,24.9,96,0.0,996.5,9.15,27.0,59,43.7,42.8,50.4,524.0,1.0,10.3,3,5,7,1,2026-05-11T03:21:42.340520+05:30
Salem,Tamil Nadu,11.6643,78.146,23.8,96,0.0,974.2,9.2,35.6,61,32.2,30.9,30.7,478.0,35.0,12.6,3,5,7,1,2026-05-11T03:21:42.340527+05:30
Tirunelveli,Tamil Nadu,8.7139,77.7567,26.1,89,0.0,1000.1,9.05,24.1,50,14.7,14.5,12.2,449.0,40.0,2.5,7,5,4,1,2026-05-11T03:21:42.340533+05:30
Vellore,Tamil Nadu,12.9165,79.1325,23.4,97,0.0,981.5,9.25,32.4,58,26.5,24.9,26.8,359.0,16.0,8.4,3,5,7,1,2026-05-11T03:21:42.340539+05:30
Erode,Tamil Nadu,11.341,77.7172,24.6,92,0.0,986.2,9.2,20.2,62,27.8,26.4,26.9,381.0,46.0,10.1,3,5,7,1,2026-05-11T03:21:42.340545+05:30
Kochi,Kerala,9.9312,76.2673,25.5,95,0.0,1005.8,8.95,30.6,65,26.4,26.0,22.7,344.0,30.0,5.9,7,5,4,1,2026-05-11T03:21:42.340551+05:30
Thiruvananthapuram,Kerala,8.5241,76.9366,24.3,99,0.0,1005.0,8.85,30.6,44,6.9,6.2,5.1,428.0,89.0,2.9,3,5,4,1,2026-05-11T03:21:42.340557+05:30
Kozhikode,Kerala,11.2588,75.7804,24.7,97,0.0,1004.7,8.9,33.1,49,15.4,11.9,4.3,331.0,102.0,3.8,3,5,4,1,2026-05-11T03:21:42.340563+05:30
Thrissur,Kerala,10.5276,76.2144,24.1,100,0.0,1004.1,8.95,27.7,65,27.5,27.0,18.8,426.0,48.0,4.3,3,5,4,1,2026-05-11T03:21:42.340569+05:30
Kannur,Kerala,11.8745,75.3704,26.6,90,0.0,1003.8,8.9,33.1,53,16.2,12.9,6.1,254.0,86.0,2.7,7,5,4,1,2026-05-11T03:21:42.340575+05:30
Patna,Bihar,25.5941,85.1376,23.9,79,0.0,1000.7,8.7,28.1,125,61.9,54.9,14.8,380.0,100.0,14.1,3,5,4,1,2026-05-11T03:21:42.340581+05:30
Gaya,Bihar,24.7914,85.0002,23.6,74,0.0,993.2,8.8,23.8,114,61.2,51.7,13.8,306.0,105.0,29.0,3,5,7,1,2026-05-11T03:21:42.340586+05:30
Muzaffarpur,Bihar,26.1209,85.3647,22.3,86,0.0,1001.2,8.7,27.4,127,61.0,54.9,16.9,515.0,82.0,12.5,3,5,4,1,2026-05-11T03:21:42.340591+05:30
Bhagalpur,Bihar,25.2425,87.0117,22.4,84,0.0,1002.1,8.6,40.3,137,57.6,52.5,9.4,443.0,131.0,16.6,3,5,4,1,2026-05-11T03:21:42.340596+05:30
Ranchi,Jharkhand,23.3441,85.3096,20.0,85,0.0,936.6,9.2,33.8,93,53.2,36.6,10.6,284.0,101.0,19.5,3,5,7,1,2026-05-11T03:21:42.340601+05:30
Jamshedpur,Jharkhand,22.8046,86.2029,22.5,88,0.0,990.8,9.0,30.6,118,58.7,49.8,32.1,379.0,49.0,30.1,3,5,7,1,2026-05-11T03:21:42.340606+05:30
Dhanbad,Jharkhand,23.7957,86.4304,23.0,89,0.0,979.8,8.95,30.2,161,108.7,100.6,64.2,419.0,37.0,74.9,3,5,7,1,2026-05-11T03:21:42.340611+05:30
Bokaro,Jharkhand,23.6693,86.1511,22.0,92,0.0,983.6,9.0,31.7,156,109.2,97.3,61.6,2366.0,44.0,66.3,3,5,7,1,2026-05-11T03:21:42.340616+05:30
Bhubaneswar,Odisha,20.2961,85.8245,25.0,92,0.0,1001.8,9.1,33.1,71,50.6,45.2,33.4,303.0,23.0,10.5,7,5,4,1,2026-05-11T03:21:42.340622+05:30
Cuttack,Odisha,20.4625,85.8828,24.9,92,0.0,1003.8,9.15,34.2,71,50.6,45.2,33.4,313.0,23.0,10.5,3,5,4,1,2026-05-11T03:21:42.340627+05:30
Rourkela,Odisha,22.2604,84.8536,23.7,90,0.0,984.7,8.95,43.6,119,63.8,47.0,18.7,331.0,93.0,60.7,3,5,7,1,2026-05-11T03:21:42.340633+05:30
Raipur,Chhattisgarh,21.2514,81.6296,27.5,45,0.0,971.7,9.0,29.5,107,37.0,28.6,13.1,272.0,93.0,4.8,4,5,7,0,2026-05-11T03:21:42.340638+05:30
Bhilai,Chhattisgarh,21.1938,81.3509,27.0,49,0.0,972.1,9.05,30.6,116,45.6,34.6,24.8,267.0,78.0,5.3,4,5,7,0,2026-05-11T03:21:42.340644+05:30
Guwahati,Assam,26.1158,91.7086,21.8,93,0.0,1003.0,7.6,25.9,98,31.8,26.3,6.1,302.0,71.0,1.2,3,5,4,1,2026-05-11T03:21:42.340649+05:30
Agartala,Tripura,23.8315,91.2868,22.4,96,0.0,1006.9,8.8,20.5,130,59.3,55.1,15.1,385.0,79.0,8.1,3,5,4,1,2026-05-11T03:21:42.340654+05:30
Shillong,Meghalaya,25.5788,91.8933,14.4,86,0.0,855.8,8.05,27.4,87,38.3,29.3,8.5,318.0,74.0,3.0,3,10,7,0,2026-05-11T03:21:42.340659+05:30
Imphal,Manipur,24.817,93.9368,19.0,94,0.1,922.9,8.35,35.6,100,51.9,45.4,37.1,277.0,11.0,4.9,6,10,7,1,2026-05-11T03:21:42.340665+05:30
Aizawl,Mizoram,23.7271,92.7176,17.3,97,0.0,891.9,8.75,31.3,104,31.5,25.0,3.1,431.0,89.0,1.2,3,10,7,1,2026-05-11T03:21:42.340671+05:30
Kohima,Nagaland,25.6701,94.1077,16.5,92,0.1,854.9,8.0,25.9,66,24.0,16.7,5.2,296.0,69.0,1.0,6,10,7,0,2026-05-11T03:21:42.340677+05:30
Gangtok,Sikkim,27.3314,88.6138,10.8,86,0.0,835.0,9.0,45.7,53,16.9,12.6,7.1,142.0,90.0,1.4,3,10,7,0,2026-05-11T03:21:42.340682+05:30
Siliguri,West Bengal,26.7271,88.3953,19.7,89,0.0,994.4,8.55,26.3,94,54.8,41.6,25.1,382.0,64.0,5.5,3,10,7,1,2026-05-11T03:21:45.687057+05:30
Durgapur,West Bengal,23.5204,87.3119,23.5,92,0.0,994.9,8.9,42.1,172,122.0,112.2,35.1,772.0,78.0,51.0,3,5,7,1,2026-05-11T03:21:45.687090+05:30
Asansol,West Bengal,23.6739,86.9524,23.0,94,0.0,993.6,8.95,25.9,163,98.5,91.3,37.8,1266.0,58.0,59.4,3,5,7,1,2026-05-11T03:21:45.687100+05:30
Pondicherry,Puducherry,11.9139,79.8145,25.6,94,0.0,1005.0,9.0,31.3,22,6.9,5.2,4.8,301.0,43.0,0.6,7,5,4,1,2026-05-11T03:21:45.687108+05:30
Port Blair,Andaman and Nicobar Islands,11.6234,92.7265,25.3,95,0.1,1004.8,9.05,32.0,28,3.4,2.3,0.2,134.0,67.0,0.1,10,5,4,1,2026-05-11T03:21:45.687115+05:30
Haridwar,Uttarakhand,29.9457,78.1642,22.0,77,0.0,973.4,7.45,33.1,137,72.2,57.9,29.6,367.0,32.0,5.6,3,5,7,1,2026-05-11T03:21:45.687122+05:30
Rishikesh,Uttarakhand,30.0869,78.2676,19.9,85,0.0,966.0,7.0,27.4,117,78.0,49.1,14.9,362.0,74.0,3.4,3,10,7,1,2026-05-11T03:21:45.687128+05:30
Nainital,Uttarakhand,29.3919,79.4542,13.2,85,0.0,805.4,5.45,31.7,99,53.2,43.2,22.8,280.0,58.0,5.0,3,10,3,0,2026-05-11T03:21:45.687135+05:30
Mussoorie,Uttarakhand,30.4599,78.0664,12.5,93,0.0,801.8,5.65,38.2,128,87.8,57.0,33.0,314.0,44.0,8.9,3,10,3,0,2026-05-11T03:21:45.687141+05:30
Dharamshala,Himachal Pradesh,32.219,76.3234,20.5,64,0.0,868.4,8.35,38.5,98,58.6,30.5,10.9,328.0,57.0,0.9,3,5,7,0,2026-05-11T03:21:45.687147+05:30
Dalhousie,Himachal Pradesh,32.5387,75.971,12.2,98,0.0,801.9,8.6,31.0,152,121.1,61.2,29.8,419.0,38.0,3.1,3,10,7,0,2026-05-11T03:21:45.687154+05:30
Patiala,Punjab,30.3398,76.3869,25.6,66,0.0,976.9,7.55,34.9,443,670.6,103.8,7.2,458.0,115.0,9.3,7,5,7,1,2026-05-11T03:21:45.687161+05:30
Bhatinda,Punjab,30.211,74.9455,28.4,51,0.0,981.5,8.25,55.1,424,590.5,126.7,6.1,376.0,121.0,11.7,4,5,7,1,2026-05-11T03:21:45.687167+05:30
Rohtak,Haryana,28.8955,76.6066,26.1,57,0.0,980.4,7.65,28.4,353,447.0,89.2,18.3,546.0,107.0,24.9,4,5,7,1,2026-05-11T03:21:45.687173+05:30
Panipat,Haryana,29.3909,76.9635,25.0,63,0.0,979.4,7.5,28.8,601,661.2,102.9,13.6,437.0,103.0,15.7,7,5,7,1,2026-05-11T03:21:45.687179+05:30
Mathura,Uttar Pradesh,27.4924,77.6737,25.8,59,0.0,985.7,7.95,26.6,375,566.2,92.2,8.9,335.0,88.0,9.9,4,5,7,1,2026-05-11T03:21:45.687185+05:30
Vrindavan,Uttar Pradesh,27.5823,77.7027,25.9,59,0.0,986.2,7.9,27.7,375,566.2,92.2,8.9,355.0,88.0,9.9,4,5,7,1,2026-05-11T03:21:45.687191+05:30
Ayodhya,Uttar Pradesh,26.7922,82.1998,24.0,68,0.0,995.4,8.3,33.5,116,52.9,47.8,18.0,418.0,81.0,10.3,3,5,7,1,2026-05-11T03:21:45.687196+05:30
Ratlam,Madhya Pradesh,23.3315,75.0367,28.3,31,0.0,951.2,8.55,34.9,60,64.7,35.0,5.3,320.0,102.0,15.6,4,5,7,0,2026-05-11T03:21:45.687203+05:30
Sagar,Madhya Pradesh,23.8388,78.7378,26.0,49,0.0,948.0,8.75,41.0,91,40.6,29.1,5.1,300.0,132.0,8.3,4,5,7,0,2026-05-11T03:21:45.687208+05:30
Satna,Madhya Pradesh,24.6005,80.8322,25.1,51,0.0,969.4,8.75,32.0,134,43.3,31.0,8.1,349.0,128.0,10.6,4,5,7,0,2026-05-11T03:21:45.687214+05:30
Akola,Maharashtra,20.7002,77.0082,28.5,35,0.0,971.1,8.9,44.6,87,62.6,37.6,34.1,384.0,27.0,5.7,4,5,7,0,2026-05-11T03:21:45.687220+05:30
Amravati,Maharashtra,20.9374,77.7796,29.0,35,0.0,963.6,8.9,43.2,88,66.1,39.1,37.2,327.0,28.0,5.8,4,5,7,0,2026-05-11T03:21:45.687226+05:30
Latur,Maharashtra,18.4088,76.5604,28.1,45,0.0,936.3,9.1,40.0,80,35.5,24.6,12.8,283.0,76.0,5.2,4,5,7,0,2026-05-11T03:21:45.687232+05:30
Nanded,Maharashtra,19.1383,77.3091,29.2,43,0.0,965.0,9.0,34.2,85,35.3,26.3,12.5,278.0,73.0,5.4,4,5,7,0,2026-05-11T03:21:45.687237+05:30
Gulbarga,Karnataka,17.3297,76.8343,28.5,48,0.0,955.9,9.0,34.2,64,29.8,21.2,9.8,260.0,79.0,8.7,4,5,7,1,2026-05-11T03:21:45.687243+05:30
Bidar,Karnataka,17.9104,77.5199,26.1,56,0.0,932.6,9.15,34.2,70,25.4,20.8,8.2,235.0,84.0,6.2,4,5,7,1,2026-05-11T03:21:45.687249+05:30
Hospet,Karnataka,15.2689,76.3909,26.9,55,0.0,953.1,9.2,31.7,66,28.9,21.5,8.9,221.0,75.0,5.9,4,5,7,1,2026-05-11T03:21:45.687254+05:30
Tirupur,Tamil Nadu,11.1085,77.3411,24.5,89,0.0,972.2,9.25,29.5,68,35.2,32.6,27.8,380.0,55.0,12.1,3,5,7,1,2026-05-11T03:21:45.687260+05:30
Alappuzha,Kerala,9.4981,76.3388,25.9,96,0.0,1005.8,8.9,32.4,57,17.8,17.1,14.8,197.0,61.0,5.2,7,5,4,1,2026-05-11T03:21:45.687265+05:30
Munnar,Kerala,10.0889,77.0595,15.3,89,0.0,852.6,9.45,22.0,39,14.5,13.4,7.9,194.0,48.0,1.9,3,10,7,0,2026-05-11T03:21:45.687271+05:30
Silchar,Assam,24.8333,92.7789,23.6,94,0.0,1005.8,8.6,22.7,151,64.3,54.9,11.7,638.0,72.0,7.5,3,5,4,1,2026-05-11T03:21:45.687277+05:30
Dibrugarh,Assam,27.4728,94.912,21.6,97,0.6,997.8,5.85,24.1,78,24.0,20.9,12.6,294.0,51.0,1.3,6,5,3,1,2026-05-11T03:21:45.687282+05:30
