city,state,latitude,longitude,temp,humidity,rain,pressure,uv_index,wind_gusts,aqi,pm10,pm2_5,no2,co,o3,so2,mosquito_risk,arthritis_risk,migraine_risk,frizz_risk,updated_at
Delhi,Delhi,28.6139,77.209,42.7,17,0.0,977.0,7.75,45.7,439,1367.2,208.6,2.9,208.0,139.0,9.0,0,5,10,0,2026-05-21T14:03:11.469044+05:30
Mumbai,Maharashtra,19.076,72.8777,33.3,59,0.0,1006.1,7.75,39.2,53,18.1,11.9,3.9,176.0,95.0,5.2,0,5,4,1,2026-05-21T14:03:11.469082+05:30
Bangalore,Karnataka,12.9716,77.5946,32.5,45,0.0,910.7,6.8,33.8,39,8.6,7.3,2.2,266.0,123.0,3.1,0,5,7,1,2026-05-21T14:03:11.469097+05:30
Hyderabad,Telangana,17.385,78.4867,39.9,22,0.0,950.0,8.4,34.9,93,41.6,26.7,1.7,231.0,161.0,7.6,0,5,10,0,2026-05-21T14:03:11.469106+05:30
Chennai,Tamil Nadu,13.0827,80.2707,37.2,53,0.0,1001.5,8.35,42.8,65,33.6,26.7,3.4,311.0,194.0,7.8,0,5,7,1,2026-05-21T14:03:11.469115+05:30
Kolkata,West Bengal,22.5726,88.3639,36.8,59,0.0,999.2,8.95,31.0,114,95.2,48.7,1.9,442.0,155.0,10.8,0,5,10,1,2026-05-21T14:03:11.469122+05:30
Pune,Maharashtra,18.5204,73.8567,37.5,30,0.0,946.3,7.1,49.7,57,34.6,20.9,1.4,156.0,132.0,8.2,0,5,10,1,2026-05-21T14:03:11.469129+05:30
Ahmedabad,Gujarat,23.0225,72.5714,40.5,20,0.0,998.5,8.15,31.0,72,88.2,26.4,1.4,162.0,105.0,3.2,0,5,10,0,2026-05-21T14:03:11.469136+05:30
Jaipur,Rajasthan,26.9124,75.7873,40.8,10,0.0,956.5,8.25,45.7,183,294.3,50.3,0.9,145.0,115.0,2.6,0,5,10,0,2026-05-21T14:03:11.469147+05:30
Lucknow,Uttar Pradesh,26.8467,80.9462,42.6,20,0.0,986.9,8.25,36.7,156,290.6,60.8,0.7,179.0,148.0,5.2,0,5,10,0,2026-05-21T14:03:11.469155+05:30
Kanpur,Uttar Pradesh,26.4499,80.3319,43.1,17,0.0,985.5,8.25,46.4,211,527.1,73.1,0.8,148.0,130.0,4.4,0,5,10,0,2026-05-21T14:03:11.469161+05:30
Chandigarh,Chandigarh,30.7333,76.7794,41.5,13,0.0,963.3,7.75,32.4,100,80.6,29.8,1.7,338.0,176.0,11.8,0,5,10,0,2026-05-21T14:03:11.469170+05:30
Srinagar,Jammu and Kashmir,34.0837,74.7973,21.1,52,0.0,845.6,8.85,24.5,73,45.8,15.4,1.6,228.0,127.0,3.0,0,5,7,0,2026-05-21T14:03:11.469177+05:30
Jammu,Jammu and Kashmir,32.7266,74.857,40.4,13,0.0,968.0,8.55,46.8,82,65.9,19.1,0.9,152.0,131.0,3.1,0,5,10,0,2026-05-21T14:03:11.469183+05:30
Amritsar,Punjab,31.634,74.8723,41.6,14,0.0,975.2,8.45,40.7,91,58.9,20.6,0.2,169.0,140.0,3.5,0,5,10,0,2026-05-21T14:03:11.469189+05:30
Ludhiana,Punjab,30.901,75.8573,40.7,16,0.0,973.3,8.05,34.6,144,105.0,31.3,1.0,308.0,154.0,6.4,0,5,10,0,2026-05-21T14:03:11.469196+05:30
Jalandhar,Punjab,31.326,75.5762,41.3,15,0.0,974.2,8.2,26.6,104,78.2,25.7,0.9,284.0,159.0,4.6,0,5,10,0,2026-05-21T14:03:11.469202+05:30
Dehradun,Uttarakhand,30.6284,78.0322,29.2,29,0.0,832.1,8.05,45.4,68,51.0,18.5,0.7,255.0,154.0,6.2,4,5,7,0,2026-05-21T14:03:11.469208+05:30
Shimla,Himachal Pradesh,31.1048,77.1734,27.0,18,0.0,788.1,8.3,46.8,78,44.2,17.3,0.7,170.0,161.0,8.9,4,5,7,0,2026-05-21T14:03:11.469216+05:30
Manali,Himachal Pradesh,32.2396,77.1887,26.8,36,0.0,821.5,10.0,45.7,77,36.3,12.5,1.7,143.0,145.0,0.8,4,5,7,0,2026-05-21T14:03:11.469223+05:30
Gurgaon,Haryana,28.4595,77.0266,42.0,18,0.0,975.7,7.85,49.3,1585,2645.0,338.1,2.7,172.0,137.0,7.2,0,5,10,0,2026-05-21T14:03:11.469231+05:30
Noida,Uttar Pradesh,28.5355,77.391,42.7,18,0.0,978.1,7.75,42.1,1585,2645.0,338.1,2.7,214.0,137.0,7.2,0,5,10,0,2026-05-21T14:03:11.469238+05:30
Ghaziabad,Uttar Pradesh,28.6692,77.4538,42.4,18,0.0,976.4,7.75,45.0,402,1166.0,194.2,2.5,177.0,155.0,12.2,0,5,10,0,2026-05-21T14:03:11.469244+05:30
Faridabad,Haryana,28.4089,77.3178,42.5,17,0.0,977.6,7.8,51.1,1585,2645.0,338.1,2.7,186.0,137.0,7.2,0,5,10,0,2026-05-21T14:03:11.469250+05:30
Meerut,Uttar Pradesh,28.9845,77.7064,41.8,21,0.0,975.2,7.7,40.7,402,1166.0,194.2,2.5,189.0,155.0,12.2,0,5,10,0,2026-05-21T14:03:11.469256+05:30
Agra,Uttar Pradesh,27.1767,78.0081,42.6,16,0.0,982.0,8.1,47.9,899,1393.3,170.0,0.6,160.0,128.0,3.5,0,5,10,0,2026-05-21T14:03:11.469262+05:30
Varanasi,Uttar Pradesh,25.3176,82.9739,43.8,16,0.0,990.8,8.75,40.0,152,76.6,31.3,1.1,234.0,191.0,12.0,0,5,10,0,2026-05-21T14:03:11.469269+05:30
Prayagraj,Uttar Pradesh,25.4358,81.8463,43.4,15,0.0,989.6,8.65,41.0,154,70.3,26.8,0.8,147.0,163.0,7.4,0,5,10,0,2026-05-21T14:03:11.469276+05:30
Gorakhpur,Uttar Pradesh,26.7606,83.3732,39.5,40,0.0,990.8,8.65,38.2,157,117.3,71.0,1.4,397.0,204.0,13.2,0,5,10,1,2026-05-21T14:03:11.469285+05:30
Bareilly,Uttar Pradesh,28.367,79.4304,39.8,29,0.0,980.1,8.05,27.7,160,303.6,90.6,1.6,279.0,211.0,12.1,0,5,10,1,2026-05-21T14:03:11.469292+05:30
Aligarh,Uttar Pradesh,27.8974,78.088,42.0,19,0.0,979.5,7.95,44.6,900,1896.2,272.9,1.6,176.0,155.0,9.2,0,5,10,0,2026-05-21T14:03:11.469298+05:30
Moradabad,Uttar Pradesh,28.8386,78.7733,40.2,28,0.0,977.2,7.8,31.7,173,272.9,92.4,2.4,328.0,258.0,22.6,0,5,10,1,2026-05-21T14:03:11.469305+05:30
Saharanpur,Uttar Pradesh,29.9637,77.546,40.3,24,0.0,969.6,7.15,32.4,161,266.4,74.5,2.3,335.0,235.0,22.5,0,5,10,1,2026-05-21T14:03:11.469311+05:30
Jhansi,Uttar Pradesh,25.4484,78.5685,42.0,14,0.0,973.6,8.5,43.2,56,92.7,25.6,0.7,132.0,111.0,3.3,0,5,10,0,2026-05-21T14:03:14.749131+05:30
Surat,Gujarat,21.1702,72.8311,36.0,44,0.0,1003.9,7.7,37.1,67,69.4,32.4,19.0,492.0,74.0,59.6,0,5,7,1,2026-05-21T14:03:14.749159+05:30
Vadodara,Gujarat,22.3072,73.1812,40.7,20,0.0,1000.6,8.1,36.4,68,107.1,36.6,2.0,182.0,134.0,8.9,0,5,7,0,2026-05-21T14:03:14.749170+05:30
Rajkot,Gujarat,22.3039,70.8022,40.5,19,0.0,990.9,7.75,47.9,68,89.6,27.0,0.9,133.0,104.0,4.5,0,5,10,0,2026-05-21T14:03:14.749178+05:30
Thane,Maharashtra,19.2183,72.9781,35.5,48,0.1,1004.9,7.85,34.9,53,18.1,11.9,3.9,176.0,95.0,5.2,3,5,7,1,2026-05-21T14:03:14.749187+05:30
Nagpur,Maharashtra,21.1458,79.0882,43.8,13,0.0,968.7,8.95,42.5,66,42.1,20.1,4.0,158.0,147.0,15.0,0,5,10,0,2026-05-21T14:03:14.749195+05:30
Nashik,Maharashtra,19.9975,73.7898,34.5,38,0.0,944.1,4.1,34.6,51,31.3,13.0,0.6,131.0,83.0,0.8,0,5,3,1,2026-05-21T14:03:14.749202+05:30
Aurangabad,Maharashtra,19.8762,75.3433,39.5,23,0.0,942.0,8.75,38.9,63,38.3,17.4,0.7,145.0,112.0,2.4,0,5,10,0,2026-05-21T14:03:14.749209+05:30
Solapur,Maharashtra,17.6599,75.9064,36.7,35,0.0,954.8,9.05,42.1,75,49.2,27.8,1.2,149.0,136.0,4.6,0,5,10,1,2026-05-21T14:03:14.749218+05:30
Kolhapur,Maharashtra,16.705,74.2433,35.1,41,0.0,946.4,8.85,41.4,62,29.9,17.7,1.3,164.0,113.0,2.2,0,5,10,1,2026-05-21T14:03:14.749225+05:30
Goa,Goa,15.2993,74.124,33.3,60,0.1,995.9,7.75,29.2,45,10.7,7.0,0.5,138.0,79.0,0.9,3,5,7,1,2026-05-21T14:03:14.749233+05:30
Jodhpur,Rajasthan,26.2389,73.0243,40.1,14,0.0,979.1,8.45,47.2,167,310.1,50.5,0.6,127.0,107.0,2.2,0,5,10,0,2026-05-21T14:03:14.749240+05:30
Udaipur,Rajasthan,24.5854,73.7125,38.0,12,0.0,944.8,8.85,38.9,69,62.6,19.8,0.4,123.0,103.0,2.0,0,5,10,0,2026-05-21T14:03:14.749248+05:30
Kota,Rajasthan,25.2138,75.8648,41.8,9,0.0,975.3,8.45,44.3,62,42.8,15.9,0.8,127.0,115.0,2.6,0,5,10,0,2026-05-21T14:03:14.749255+05:30
Bikaner,Rajasthan,28.0229,73.3119,40.4,14,0.0,977.3,8.4,31.3,157,102.0,38.6,0.4,133.0,118.0,2.1,0,5,10,0,2026-05-21T14:03:14.749262+05:30
Ajmer,Rajasthan,26.4499,74.6399,37.8,13,0.0,952.1,8.4,52.9,82,58.8,18.5,0.5,126.0,110.0,2.0,0,5,10,0,2026-05-21T14:03:14.749269+05:30
Gwalior,Madhya Pradesh,26.2183,78.1828,41.7,16,0.0,978.6,8.25,52.6,62,111.1,34.3,0.5,142.0,116.0,2.9,0,5,10,0,2026-05-21T14:03:14.749276+05:30
Indore,Madhya Pradesh,22.7196,75.8577,39.8,18,0.0,946.0,8.7,37.8,66,53.4,22.5,0.8,163.0,114.0,3.7,0,5,10,0,2026-05-21T14:03:14.749283+05:30
Bhopal,Madhya Pradesh,23.2599,77.4126,41.4,15,0.0,950.9,8.7,43.9,62,34.0,16.0,0.6,148.0,119.0,3.1,0,5,10,0,2026-05-21T14:03:14.749290+05:30
Jabalpur,Madhya Pradesh,23.1815,79.9864,42.5,14,0.0,958.0,8.9,36.0,66,47.5,18.0,0.6,134.0,126.0,3.8,0,5,10,0,2026-05-21T14:03:14.749297+05:30
Ujjain,Madhya Pradesh,23.1765,75.7885,40.0,18,0.0,951.6,8.65,37.4,66,64.5,24.4,0.5,148.0,110.0,3.7,0,5,10,0,2026-05-21T14:03:14.749305+05:30
Visakhapatnam,Andhra Pradesh,17.6868,83.2185,40.0,48,0.0,996.1,8.9,37.1,121,78.5,61.5,9.6,428.0,233.0,47.2,0,5,10,1,2026-05-21T14:03:14.749312+05:30
Vijayawada,Andhra Pradesh,16.5062,80.648,44.0,22,0.0,995.3,9.15,41.8,136,60.5,42.7,1.2,209.0,176.0,9.3,0,5,10,1,2026-05-21T14:03:14.749319+05:30
Guntur,Andhra Pradesh,16.3067,80.4365,44.0,22,0.0,996.7,9.1,42.5,115,54.7,38.1,1.2,205.0,169.0,9.2,0,5,10,1,2026-05-21T14:03:14.749326+05:30
Nellore,Andhra Pradesh,14.4426,79.9865,42.8,28,0.0,999.2,9.1,42.8,78,36.3,24.8,2.5,170.0,162.0,6.6,0,5,10,1,2026-05-21T14:03:14.749334+05:30
Kurnool,Andhra Pradesh,15.8281,78.0373,40.0,31,0.0,972.8,8.7,41.4,73,54.1,34.1,1.4,174.0,156.0,11.0,0,5,10,1,2026-05-21T14:03:14.749341+05:30
Kakinada,Andhra Pradesh,16.9891,82.2475,43.5,27,0.0,999.6,8.4,35.6,121,48.5,38.9,2.9,263.0,179.0,5.0,0,5,10,1,2026-05-21T14:03:14.749349+05:30
Tirupati,Andhra Pradesh,13.6288,79.4192,40.5,33,0.0,985.6,9.1,32.8,59,24.8,17.6,0.3,167.0,143.0,3.2,0,5,10,1,2026-05-21T14:03:14.749355+05:30
Warangal,Telangana,17.9689,79.5941,42.0,20,0.0,973.6,8.85,44.6,120,41.2,28.3,1.7,197.0,182.0,14.5,0,5,10,0,2026-05-21T14:03:14.749362+05:30
Nizamabad,Telangana,18.6725,78.0941,41.5,20,0.0,961.1,9.1,33.8,94,41.1,23.5,1.0,166.0,147.0,6.7,0,5,10,0,2026-05-21T14:03:14.749369+05:30
Mysore,Karnataka,12.2958,76.6396,34.0,40,0.0,927.5,7.15,45.0,30,5.4,4.2,1.7,126.0,92.0,1.2,0,5,7,1,2026-05-21T14:03:14.749376+05:30
Mangalore,Karnataka,12.9141,74.856,30.6,73,0.1,1004.9,8.9,37.4,53,6.6,4.6,1.6,124.0,68.0,1.3,6,5,4,1,2026-05-21T14:03:14.749383+05:30
Hubli-Dharwad,Karnataka,15.3647,75.124,31.6,52,0.0,939.6,9.05,37.8,31,7.0,4.9,1.4,144.0,86.0,0.7,0,5,7,1,2026-05-21T14:03:14.749390+05:30
Belgaum,Karnataka,15.8497,74.4977,32.5,46,0.0,925.1,6.8,39.2,58,18.9,12.0,1.6,139.0,98.0,2.0,0,5,7,1,2026-05-21T14:03:18.033804+05:30
Coimbatore,Tamil Nadu,11.0168,76.9558,32.8,52,0.1,959.6,8.95,53.6,29,4.6,4.0,2.1,133.0,73.0,1.8,3,5,7,1,2026-05-21T14:03:18.033837+05:30
Madurai,Tamil Nadu,9.9252,78.1198,37.5,39,0.0,989.3,9.0,47.5,70,10.3,8.0,1.1,121.0,115.0,1.9,0,5,10,1,2026-05-21T14:03:18.033851+05:30
Trichy,Tamil Nadu,10.7905,78.7047,37.5,42,0.0,995.1,9.0,38.5,38,8.3,6.5,1.2,128.0,102.0,2.2,0,5,10,1,2026-05-21T14:03:18.033863+05:30
Salem,Tamil Nadu,11.6643,78.146,38.2,36,0.0,973.8,8.95,46.8,53,9.9,8.5,1.8,156.0,132.0,7.0,0,5,10,1,2026-05-21T14:03:18.033912+05:30
Tirunelveli,Tamil Nadu,8.7139,77.7567,37.3,43,0.1,1000.0,7.65,38.5,24,3.8,3.1,1.4,109.0,64.0,0.7,3,5,7,1,2026-05-21T14:03:18.033926+05:30
Vellore,Tamil Nadu,12.9165,79.1325,39.8,31,0.0,979.6,8.75,46.1,45,17.3,13.7,0.8,186.0,144.0,2.7,0,5,10,1,2026-05-21T14:03:18.033936+05:30
Erode,Tamil Nadu,11.341,77.7172,38.2,32,0.0,985.2,9.05,50.4,44,10.0,7.6,1.8,143.0,105.0,1.9,0,5,10,1,2026-05-21T14:03:18.033946+05:30
Kochi,Kerala,9.9312,76.2673,30.8,75,0.0,1007.0,8.5,36.7,60,9.1,7.1,3.3,124.0,67.0,2.6,3,5,4,1,2026-05-21T14:03:18.033955+05:30
Thiruvananthapuram,Kerala,8.5241,76.9366,30.2,77,0.0,1006.6,7.5,45.4,24,10.0,5.9,0.9,104.0,60.0,0.4,3,5,4,1,2026-05-21T14:03:18.033964+05:30
Kozhikode,Kerala,11.2588,75.7804,30.8,75,0.0,1006.3,8.8,34.2,27,5.5,3.5,0.5,107.0,64.0,0.4,3,5,4,1,2026-05-21T14:03:18.033973+05:30
Thrissur,Kerala,10.5276,76.2144,31.4,69,0.0,1005.3,8.65,35.6,55,6.8,5.6,2.7,124.0,61.0,1.8,3,5,4,1,2026-05-21T14:03:18.033990+05:30
Kannur,Kerala,11.8745,75.3704,30.3,77,0.0,1005.6,8.85,31.7,32,6.4,4.7,1.5,96.0,66.0,0.9,3,5,4,1,2026-05-21T14:03:18.033999+05:30
Patna,Bihar,25.5941,85.1376,36.2,57,0.0,994.6,8.9,43.6,158,116.2,79.2,2.1,379.0,227.0,20.9,0,5,10,1,2026-05-21T14:03:18.034007+05:30
Gaya,Bihar,24.7914,85.0002,40.7,29,0.0,987.5,8.9,33.8,160,149.9,61.0,0.9,298.0,195.0,13.1,0,5,10,1,2026-05-21T14:03:18.034016+05:30
Muzaffarpur,Bihar,26.1209,85.3647,33.5,66,0.0,995.4,8.85,42.8,157,104.5,71.9,2.1,352.0,214.0,18.5,3,5,7,1,2026-05-21T14:03:18.034024+05:30
Bhagalpur,Bihar,25.2425,87.0117,33.2,65,0.0,996.1,8.85,37.4,149,85.0,61.7,4.5,344.0,211.0,29.4,3,5,7,1,2026-05-21T14:03:18.034033+05:30
Ranchi,Jharkhand,23.3441,85.3096,36.8,26,0.0,934.7,9.3,36.7,143,106.9,31.9,0.6,180.0,152.0,6.3,0,5,10,0,2026-05-21T14:03:18.034042+05:30
Jamshedpur,Jharkhand,22.8046,86.2029,39.2,30,0.0,985.2,9.1,31.7,153,136.4,53.9,1.5,338.0,210.0,23.4,0,5,10,1,2026-05-21T14:03:18.034050+05:30
Dhanbad,Jharkhand,23.7957,86.4304,40.3,28,0.0,974.3,9.1,33.8,168,153.7,74.5,7.2,360.0,237.0,46.1,0,5,10,1,2026-05-21T14:03:18.034059+05:30
Bokaro,Jharkhand,23.6693,86.1511,39.8,27,0.0,978.2,9.1,33.1,167,147.1,59.8,6.5,242.0,212.0,38.5,0,5,10,1,2026-05-21T14:03:18.034067+05:30
Bhubaneswar,Odisha,20.2961,85.8245,41.6,35,0.0,995.0,9.15,33.5,124,78.7,51.6,1.4,268.0,195.0,14.2,0,5,10,1,2026-05-21T14:03:18.034076+05:30
Cuttack,Odisha,20.4625,85.8828,40.3,43,0.0,996.8,9.2,28.4,124,78.7,51.6,1.4,267.0,195.0,14.2,0,5,10,1,2026-05-21T14:03:18.034084+05:30
Rourkela,Odisha,22.2604,84.8536,39.8,26,0.2,979.5,9.0,45.0,139,133.2,44.1,0.3,286.0,187.0,13.5,3,5,10,1,2026-05-21T14:03:18.034092+05:30
Raipur,Chhattisgarh,21.2514,81.6296,43.7,15,0.0,969.4,9.0,36.0,151,53.6,27.4,3.5,164.0,176.0,20.0,0,5,10,0,2026-05-21T14:03:18.034101+05:30
Bhilai,Chhattisgarh,21.1938,81.3509,42.8,16,0.0,969.8,9.0,36.7,142,29.3,16.8,4.4,156.0,151.0,19.6,0,5,10,0,2026-05-21T14:03:18.034110+05:30
Guwahati,Assam,26.1158,91.7086,29.9,79,0.0,997.5,8.65,25.2,110,48.9,36.3,1.2,317.0,140.0,3.2,7,5,7,1,2026-05-21T14:03:18.034118+05:30
Agartala,Tripura,23.8315,91.2868,31.1,76,0.0,1001.3,8.25,28.4,91,44.1,26.6,2.7,222.0,142.0,3.0,3,5,4,1,2026-05-21T14:03:18.034127+05:30
Shillong,Meghalaya,25.5788,91.8933,25.1,59,0.0,856.4,8.45,25.2,86,40.4,25.7,0.9,240.0,122.0,3.1,4,5,7,1,2026-05-21T14:03:18.034135+05:30
Imphal,Manipur,24.817,93.9368,27.8,72,0.1,920.1,8.95,37.4,130,58.0,30.7,0.7,203.0,126.0,3.1,10,5,7,1,2026-05-21T14:03:18.034144+05:30
Aizawl,Mizoram,23.7271,92.7176,27.4,65,0.1,890.4,8.5,25.6,93,41.8,23.4,0.4,187.0,108.0,3.0,10,5,7,1,2026-05-21T14:03:18.034153+05:30
Kohima,Nagaland,25.6701,94.1077,22.2,89,0.1,854.2,9.2,23.4,94,65.7,36.4,0.5,206.0,121.0,2.8,6,5,7,1,2026-05-21T14:03:18.034161+05:30
Gangtok,Sikkim,27.3314,88.6138,21.8,75,0.0,837.6,9.2,37.1,86,36.2,26.0,0.8,294.0,139.0,2.8,3,5,7,1,2026-05-21T14:03:18.034170+05:30
Siliguri,West Bengal,26.7271,88.3953,29.0,79,0.0,989.7,8.75,36.4,151,57.4,38.8,1.6,326.0,159.0,4.5,7,5,7,1,2026-05-21T14:03:21.316870+05:30
Durgapur,West Bengal,23.5204,87.3119,38.4,47,0.0,988.6,9.0,34.9,165,136.4,83.1,9.4,606.0,240.0,58.9,0,5,10,1,2026-05-21T14:03:21.316932+05:30
Asansol,West Bengal,23.6739,86.9524,40.0,32,0.0,987.1,9.05,27.4,164,141.1,79.9,7.7,466.0,240.0,53.2,0,5,10,1,2026-05-21T14:03:21.316943+05:30
Pondicherry,Puducherry,11.9139,79.8145,35.2,65,0.0,1003.1,7.25,42.8,68,28.5,24.7,4.1,201.0,181.0,14.3,3,5,7,1,2026-05-21T14:03:21.316952+05:30
Port Blair,Andaman and Nicobar Islands,11.6234,92.7265,29.5,78,0.1,1003.6,8.65,38.5,31,9.2,5.8,0.3,111.0,67.0,0.4,10,5,4,1,2026-05-21T14:03:21.316961+05:30
Haridwar,Uttarakhand,29.9457,78.1642,40.2,26,0.0,967.8,7.45,28.4,128,157.4,47.6,1.5,293.0,189.0,10.5,0,5,10,1,2026-05-21T14:03:21.316970+05:30
Rishikesh,Uttarakhand,30.0869,78.2676,39.2,26,0.0,960.8,7.55,29.9,93,139.2,37.6,0.7,224.0,166.0,6.7,0,5,10,1,2026-05-21T14:03:21.316982+05:30
Nainital,Uttarakhand,29.3919,79.4542,27.2,33,0.0,807.8,8.55,34.6,100,221.2,54.2,1.2,217.0,182.0,8.7,4,5,7,0,2026-05-21T14:03:21.316990+05:30
Mussoorie,Uttarakhand,30.4599,78.0664,27.8,24,0.0,805.6,7.85,53.6,98,87.1,33.9,1.5,269.0,189.0,10.8,4,5,7,0,2026-05-21T14:03:21.316997+05:30
Dharamshala,Himachal Pradesh,32.219,76.3234,30.2,23,0.0,869.6,8.45,48.2,58,39.6,11.1,0.4,185.0,127.0,3.1,0,5,7,0,2026-05-21T14:03:21.317005+05:30
Dalhousie,Himachal Pradesh,32.5387,75.971,26.2,26,0.0,807.8,8.7,43.2,74,57.4,18.4,0.7,160.0,141.0,4.0,4,5,7,0,2026-05-21T14:03:21.317013+05:30
Patiala,Punjab,30.3398,76.3869,42.5,14,0.0,972.3,7.65,40.3,183,332.5,57.2,1.0,232.0,162.0,9.3,0,5,10,0,2026-05-21T14:03:21.317020+05:30
Bhatinda,Punjab,30.211,74.9455,42.7,16,0.0,977.6,8.3,26.6,91,67.3,27.0,2.5,208.0,171.0,12.9,0,5,10,0,2026-05-21T14:03:21.317027+05:30
Rohtak,Haryana,28.8955,76.6066,41.9,19,0.0,976.0,7.8,47.9,707,1315.0,183.5,1.1,155.0,127.0,4.2,0,5,10,0,2026-05-21T14:03:21.317034+05:30
Panipat,Haryana,29.3909,76.9635,43.0,15,0.0,974.0,7.5,39.2,1199,1899.9,253.3,2.1,166.0,129.0,9.7,0,5,10,0,2026-05-21T14:03:21.317041+05:30
Mathura,Uttar Pradesh,27.4924,77.6737,42.8,15,0.0,981.1,8.05,46.1,891,1605.6,196.5,0.6,158.0,124.0,3.0,0,5,10,0,2026-05-21T14:03:21.317048+05:30
Vrindavan,Uttar Pradesh,27.5823,77.7027,42.5,16,0.0,981.3,8.0,44.6,891,1605.6,196.5,0.6,156.0,124.0,3.0,0,5,10,0,2026-05-21T14:03:21.317056+05:30
Ayodhya,Uttar Pradesh,26.7922,82.1998,40.8,28,0.0,988.6,8.4,27.7,158,102.4,50.9,1.0,396.0,178.0,9.6,0,5,10,1,2026-05-21T14:03:21.317063+05:30
Ratlam,Madhya Pradesh,23.3315,75.0367,38.7,20,0.0,952.9,8.55,36.0,65,72.6,25.4,0.5,141.0,107.0,3.4,0,5,10,0,2026-05-21T14:03:21.317071+05:30
Sagar,Madhya Pradesh,23.8388,78.7378,41.3,11,0.0,947.5,8.75,50.4,52,34.0,14.3,0.6,131.0,118.0,2.9,0,5,10,0,2026-05-21T14:03:21.317078+05:30
Satna,Madhya Pradesh,24.6005,80.8322,41.7,16,0.0,967.2,8.8,47.5,66,66.4,19.5,0.5,133.0,121.0,2.3,0,5,10,0,2026-05-21T14:03:21.317085+05:30
Akola,Maharashtra,20.7002,77.0082,42.0,19,0.0,971.0,8.9,42.1,75,41.8,20.4,1.2,145.0,127.0,6.9,0,5,10,0,2026-05-21T14:03:21.317092+05:30
Amravati,Maharashtra,20.9374,77.7796,42.9,15,0.0,963.4,8.9,34.9,74,41.4,20.6,1.6,160.0,131.0,7.9,0,5,10,0,2026-05-21T14:03:21.317101+05:30
Latur,Maharashtra,18.4088,76.5604,39.3,25,0.0,937.7,9.1,41.8,92,40.6,23.6,0.9,158.0,138.0,6.0,0,5,10,0,2026-05-21T14:03:21.317109+05:30
Nanded,Maharashtra,19.1383,77.3091,41.9,20,0.0,964.9,9.0,34.6,85,38.0,20.5,1.0,166.0,140.0,5.1,0,5,10,0,2026-05-21T14:03:21.317116+05:30
Gulbarga,Karnataka,17.3297,76.8343,38.7,32,0.0,955.7,9.05,33.8,79,50.4,29.1,1.4,166.0,143.0,5.1,0,5,10,1,2026-05-21T14:03:21.317123+05:30
Bidar,Karnataka,17.9104,77.5199,38.5,28,0.1,933.4,9.1,37.4,92,40.9,24.2,1.1,172.0,148.0,6.7,3,5,10,1,2026-05-21T14:03:21.317130+05:30
Hospet,Karnataka,15.2689,76.3909,34.3,47,0.0,953.6,8.95,40.7,36,21.5,13.4,1.2,155.0,112.0,2.8,0,5,7,1,2026-05-21T14:03:21.317138+05:30
Tirupur,Tamil Nadu,11.1085,77.3411,34.5,47,0.1,972.6,9.15,60.5,49,6.7,5.7,1.9,128.0,98.0,2.4,3,5,7,1,2026-05-21T14:03:21.317144+05:30
Alappuzha,Kerala,9.4981,76.3388,30.8,74,0.0,1007.1,8.65,40.0,41,10.1,6.8,2.3,107.0,62.0,1.3,3,5,4,1,2026-05-21T14:03:21.317151+05:30
Munnar,Kerala,10.0889,77.0595,20.5,92,0.1,856.8,8.1,30.6,27,4.9,4.4,2.0,115.0,68.0,1.0,6,5,7,1,2026-05-21T14:03:21.317159+05:30
Silchar,Assam,24.8333,92.7789,33.7,63,0.0,999.4,8.95,29.9,137,33.6,23.5,1.1,212.0,126.0,5.3,3,5,7,1,2026-05-21T14:03:21.317166+05:30
Dibrugarh,Assam,27.4728,94.912,32.7,60,0.0,990.4,8.9,16.6,93,43.1,27.4,0.6,269.0,135.0,2.6,0,5,7,1,2026-05-21T14:03:21.317173+05:30
