city,state,latitude,longitude,temp,humidity,rain,pressure,uv_index,wind_gusts,aqi,pm10,pm2_5,no2,co,o3,so2,mosquito_risk,arthritis_risk,migraine_risk,frizz_risk,updated_at
Delhi,Delhi,28.6139,77.209,33.5,19,0.0,977.2,7.7,39.6,512,728.3,149.5,35.5,215.0,45.0,18.2,0,5,7,0,2026-05-25T02:29:29.731426+05:30
Mumbai,Maharashtra,19.076,72.8777,29.8,78,0.0,1008.5,7.85,44.6,42,17.8,11.9,4.8,226.0,44.0,4.1,7,0,4,1,2026-05-25T02:29:29.731471+05:30
Bangalore,Karnataka,12.9716,77.5946,21.3,96,0.0,911.6,9.15,27.0,59,29.2,26.7,32.5,333.0,40.0,11.5,3,5,7,1,2026-05-25T02:29:29.731490+05:30
Hyderabad,Telangana,17.385,78.4867,30.7,45,0.0,951.3,9.2,37.8,64,21.9,18.0,8.4,296.0,72.0,5.6,0,5,7,1,2026-05-25T02:29:29.731499+05:30
Chennai,Tamil Nadu,13.0827,80.2707,30.5,64,0.0,1004.2,9.05,46.8,76,23.9,22.2,10.8,289.0,83.0,8.3,3,5,4,1,2026-05-25T02:29:29.731507+05:30
Kolkata,West Bengal,22.5726,88.3639,29.5,89,0.0,1002.5,8.95,45.4,90,29.4,24.3,5.1,238.0,87.0,4.5,7,5,4,1,2026-05-25T02:29:29.731515+05:30
Pune,Maharashtra,18.5204,73.8567,24.0,95,0.0,948.1,8.45,42.8,31,9.5,8.1,11.7,176.0,38.0,12.4,3,5,7,1,2026-05-25T02:29:29.731521+05:30
Ahmedabad,Gujarat,23.0225,72.5714,31.2,54,0.0,1000.9,8.15,34.9,49,32.5,15.7,3.8,142.0,55.0,3.0,0,5,4,1,2026-05-25T02:29:29.731528+05:30
Jaipur,Rajasthan,26.9124,75.7873,32.6,30,0.0,956.5,8.25,47.2,247,389.3,75.4,3.1,154.0,70.0,2.8,0,5,7,0,2026-05-25T02:29:29.731537+05:30
Lucknow,Uttar Pradesh,26.8467,80.9462,33.3,31,0.0,987.3,8.1,65.2,227,555.1,122.0,25.8,371.0,54.0,11.4,0,5,7,0,2026-05-25T02:29:29.731544+05:30
Kanpur,Uttar Pradesh,26.4499,80.3319,33.2,28,0.0,986.0,8.25,50.8,480,432.1,94.3,22.4,289.0,50.0,9.6,0,5,7,0,2026-05-25T02:29:29.731551+05:30
Chandigarh,Chandigarh,30.7333,76.7794,25.4,50,0.0,962.4,7.7,32.4,78,55.4,34.6,31.2,275.0,22.0,6.0,4,5,7,0,2026-05-25T02:29:29.731558+05:30
Srinagar,Jammu and Kashmir,34.0837,74.7973,11.9,90,0.0,839.5,8.05,36.7,70,30.6,25.4,24.6,485.0,25.0,1.8,3,10,7,0,2026-05-25T02:29:29.731565+05:30
Jammu,Jammu and Kashmir,32.7266,74.857,23.6,49,0.0,967.1,8.55,40.0,71,26.2,17.8,10.3,243.0,58.0,2.2,0,5,7,0,2026-05-25T02:29:29.731571+05:30
Amritsar,Punjab,31.634,74.8723,28.4,39,0.0,975.2,8.4,27.4,89,50.9,25.9,7.3,516.0,82.0,4.8,4,5,7,0,2026-05-25T02:29:29.731577+05:30
Ludhiana,Punjab,30.901,75.8573,28.8,36,0.0,972.9,8.0,33.1,83,65.0,40.0,19.7,370.0,59.0,11.0,4,5,7,0,2026-05-25T02:29:29.731584+05:30
Jalandhar,Punjab,31.326,75.5762,27.9,39,0.0,974.0,8.15,36.0,92,74.7,35.0,12.6,286.0,69.0,5.6,4,5,7,0,2026-05-25T02:29:29.731590+05:30
Dehradun,Uttarakhand,30.6284,78.0322,14.5,56,0.0,825.3,7.65,50.8,61,60.3,21.1,26.5,191.0,27.0,0.5,0,5,7,0,2026-05-25T02:29:29.731595+05:30
Shimla,Himachal Pradesh,31.1048,77.1734,13.2,50,0.0,780.1,8.25,45.0,67,45.5,20.0,15.7,198.0,57.0,1.3,0,5,7,0,2026-05-25T02:29:29.731603+05:30
Manali,Himachal Pradesh,32.2396,77.1887,10.3,70,0.0,815.1,9.1,49.3,59,2.1,1.5,9.0,172.0,108.0,0.0,3,5,7,0,2026-05-25T02:29:29.731609+05:30
Gurgaon,Haryana,28.4595,77.0266,33.0,21,0.0,975.7,7.8,38.5,1279,2354.4,478.7,9.4,188.0,74.0,6.7,0,5,7,0,2026-05-25T02:29:29.731615+05:30
Noida,Uttar Pradesh,28.5355,77.391,34.1,18,0.0,978.3,7.75,37.4,1279,2354.4,478.7,9.4,349.0,74.0,6.7,0,5,7,0,2026-05-25T02:29:29.731623+05:30
Ghaziabad,Uttar Pradesh,28.6692,77.4538,33.0,21,0.0,976.5,7.75,42.5,442,702.2,162.5,38.5,324.0,38.0,18.9,0,5,7,0,2026-05-25T02:29:29.731629+05:30
Faridabad,Haryana,28.4089,77.3178,34.7,19,0.0,977.7,7.8,40.0,1279,2354.4,478.7,9.4,177.0,74.0,6.7,0,5,7,0,2026-05-25T02:29:29.731635+05:30
Meerut,Uttar Pradesh,28.9845,77.7064,31.2,37,0.0,975.2,7.65,36.7,442,702.2,162.5,38.5,496.0,38.0,18.9,0,5,7,0,2026-05-25T02:29:29.731641+05:30
Agra,Uttar Pradesh,27.1767,78.0081,34.7,23,0.0,982.4,8.05,43.2,727,2332.0,297.1,5.5,147.0,75.0,3.9,0,5,7,0,2026-05-25T02:29:29.731647+05:30
Varanasi,Uttar Pradesh,25.3176,82.9739,33.3,27,0.0,991.8,8.75,49.3,151,95.5,45.9,28.0,460.0,42.0,10.3,0,5,7,0,2026-05-25T02:29:29.731652+05:30
Prayagraj,Uttar Pradesh,25.4358,81.8463,31.5,35,0.0,990.3,8.65,46.8,154,162.5,58.6,29.9,267.0,38.0,9.9,0,5,7,0,2026-05-25T02:29:29.731658+05:30
Gorakhpur,Uttar Pradesh,26.7606,83.3732,29.4,68,0.0,991.9,8.6,33.1,154,78.7,55.1,16.2,510.0,74.0,8.6,7,5,7,1,2026-05-25T02:29:29.731666+05:30
Bareilly,Uttar Pradesh,28.367,79.4304,28.6,46,0.0,980.2,8.05,22.7,152,281.3,84.3,40.8,451.0,45.0,14.0,4,5,7,0,2026-05-25T02:29:29.731671+05:30
Aligarh,Uttar Pradesh,27.8974,78.088,33.0,23,0.0,979.6,7.9,35.3,827,1356.0,200.2,13.2,180.0,66.0,5.4,0,5,7,0,2026-05-25T02:29:29.731680+05:30
Moradabad,Uttar Pradesh,28.8386,78.7733,29.5,39,0.0,977.3,7.85,38.2,154,353.0,119.7,57.7,519.0,21.0,15.3,4,5,7,0,2026-05-25T02:29:29.731686+05:30
Saharanpur,Uttar Pradesh,29.9637,77.546,28.4,37,0.0,969.5,7.35,25.9,98,84.3,52.6,39.7,475.0,28.0,12.1,4,5,7,0,2026-05-25T02:29:29.731691+05:30
Jhansi,Uttar Pradesh,25.4484,78.5685,34.2,22,0.0,973.8,8.45,47.9,90,60.8,28.8,3.6,153.0,67.0,2.1,0,5,7,0,2026-05-25T02:29:33.069561+05:30
Surat,Gujarat,21.1702,72.8311,29.9,82,0.0,1006.1,7.7,43.2,56,19.3,14.9,16.7,223.0,32.0,27.4,7,5,4,1,2026-05-25T02:29:33.069592+05:30
Vadodara,Gujarat,22.3072,73.1812,30.3,78,0.0,1003.2,8.1,40.3,50,18.5,15.5,18.4,238.0,24.0,20.7,3,5,4,1,2026-05-25T02:29:33.069602+05:30
Rajkot,Gujarat,22.3039,70.8022,28.0,78,0.0,993.6,7.75,49.3,54,22.0,14.8,5.7,113.0,45.0,6.7,7,5,7,1,2026-05-25T02:29:33.069610+05:30
Thane,Maharashtra,19.2183,72.9781,28.4,92,0.0,1007.9,7.85,39.6,42,17.8,11.9,4.8,272.0,44.0,4.1,7,5,4,1,2026-05-25T02:29:33.069618+05:30
Nagpur,Maharashtra,21.1458,79.0882,34.5,24,0.0,969.8,8.9,44.3,73,37.0,23.4,10.0,211.0,71.0,7.4,0,5,7,0,2026-05-25T02:29:33.069626+05:30
Nashik,Maharashtra,19.9975,73.7898,24.6,88,0.0,945.6,8.15,42.5,25,9.6,7.2,4.5,149.0,38.0,1.8,3,5,7,1,2026-05-25T02:29:33.069634+05:30
Aurangabad,Maharashtra,19.8762,75.3433,27.4,68,0.0,943.4,9.05,43.6,38,7.9,6.2,6.8,147.0,38.0,4.4,7,5,7,1,2026-05-25T02:29:33.069641+05:30
Solapur,Maharashtra,17.6599,75.9064,28.1,67,0.0,956.8,9.0,37.8,51,10.2,8.6,6.6,157.0,58.0,4.2,7,5,7,1,2026-05-25T02:29:33.069649+05:30
Kolhapur,Maharashtra,16.705,74.2433,23.4,96,0.0,947.9,8.85,44.3,39,9.2,7.6,6.3,155.0,38.0,2.5,3,5,7,1,2026-05-25T02:29:33.069656+05:30
Goa,Goa,15.2993,74.124,26.5,92,0.0,998.5,5.5,29.9,50,24.4,19.3,7.8,368.0,40.0,2.1,7,5,3,1,2026-05-25T02:29:33.069663+05:30
Jodhpur,Rajasthan,26.2389,73.0243,32.6,35,0.0,979.8,8.4,47.2,217,319.4,71.7,2.3,128.0,65.0,2.0,0,5,7,0,2026-05-25T02:29:33.069671+05:30
Udaipur,Rajasthan,24.5854,73.7125,29.2,55,0.0,945.1,8.8,47.2,66,20.0,13.2,2.4,139.0,60.0,2.0,4,5,7,1,2026-05-25T02:29:33.069679+05:30
Kota,Rajasthan,25.2138,75.8648,34.5,33,0.0,975.9,8.4,42.5,87,27.1,16.7,4.1,163.0,66.0,4.6,0,5,7,0,2026-05-25T02:29:33.069686+05:30
Bikaner,Rajasthan,28.0229,73.3119,34.3,28,0.0,976.5,8.4,40.0,171,350.2,133.6,1.1,123.0,91.0,2.7,0,5,7,0,2026-05-25T02:29:33.069694+05:30
Ajmer,Rajasthan,26.4499,74.6399,31.0,35,0.0,951.8,8.35,55.4,97,40.9,21.2,2.2,130.0,69.0,2.2,0,5,7,0,2026-05-25T02:29:33.069701+05:30
Gwalior,Madhya Pradesh,26.2183,78.1828,34.2,24,0.0,978.6,8.25,56.2,95,53.0,26.7,3.2,140.0,76.0,2.4,0,5,7,0,2026-05-25T02:29:33.069708+05:30
Indore,Madhya Pradesh,22.7196,75.8577,30.3,51,0.0,947.2,8.7,42.1,68,32.0,21.4,4.2,210.0,85.0,6.4,0,5,7,1,2026-05-25T02:29:33.069715+05:30
Bhopal,Madhya Pradesh,23.2599,77.4126,33.1,31,0.0,951.7,8.7,41.0,82,41.3,25.6,5.6,181.0,67.0,4.2,0,5,7,0,2026-05-25T02:29:33.069723+05:30
Jabalpur,Madhya Pradesh,23.1815,79.9864,31.3,29,0.0,958.1,8.85,30.6,89,87.3,38.0,21.9,245.0,58.0,4.9,0,5,7,0,2026-05-25T02:29:33.069730+05:30
Ujjain,Madhya Pradesh,23.1765,75.7885,30.7,51,0.0,952.8,8.6,45.4,66,26.7,18.6,3.5,185.0,80.0,5.7,0,5,7,1,2026-05-25T02:29:33.069738+05:30
Visakhapatnam,Andhra Pradesh,17.6868,83.2185,30.4,85,0.0,1000.0,9.1,35.6,110,43.9,36.6,30.6,375.0,87.0,42.9,3,5,4,1,2026-05-25T02:29:33.069745+05:30
Vijayawada,Andhra Pradesh,16.5062,80.648,33.0,44,0.0,997.8,9.1,40.7,86,26.8,24.6,11.6,310.0,70.0,5.2,0,5,7,1,2026-05-25T02:29:33.069766+05:30
Guntur,Andhra Pradesh,16.3067,80.4365,32.5,49,0.0,999.1,9.1,42.8,80,21.2,19.2,8.6,250.0,79.0,4.8,0,5,7,1,2026-05-25T02:29:33.069773+05:30
Nellore,Andhra Pradesh,14.4426,79.9865,31.0,55,0.0,1002.4,9.05,40.0,67,26.3,23.7,6.8,204.0,86.0,6.1,0,5,4,1,2026-05-25T02:29:33.069782+05:30
Kurnool,Andhra Pradesh,15.8281,78.0373,29.0,63,0.0,975.6,9.05,52.6,59,20.8,18.3,7.8,173.0,74.0,3.8,7,5,7,1,2026-05-25T02:29:33.069790+05:30
Kakinada,Andhra Pradesh,16.9891,82.2475,31.3,75,0.0,1003.1,9.1,30.2,90,28.9,22.1,2.2,380.0,133.0,3.0,3,5,4,1,2026-05-25T02:29:33.069797+05:30
Tirupati,Andhra Pradesh,13.6288,79.4192,30.2,53,0.0,988.5,9.1,42.5,75,27.9,26.4,13.7,220.0,62.0,3.9,0,5,7,1,2026-05-25T02:29:33.069802+05:30
Warangal,Telangana,17.9689,79.5941,32.8,36,0.0,974.6,8.75,42.8,85,49.9,35.3,15.3,224.0,61.0,4.6,0,5,7,0,2026-05-25T02:29:33.069808+05:30
Nizamabad,Telangana,18.6725,78.0941,32.2,35,0.0,962.3,9.05,38.5,75,38.9,27.2,18.1,285.0,50.0,5.2,0,5,7,0,2026-05-25T02:29:33.069813+05:30
Mysore,Karnataka,12.2958,76.6396,22.4,95,0.0,928.5,9.05,40.3,41,13.3,12.3,13.2,228.0,34.0,2.5,3,5,7,1,2026-05-25T02:29:33.069819+05:30
Mangalore,Karnataka,12.9141,74.856,25.4,97,0.0,1007.6,6.1,29.5,52,25.4,22.2,15.4,467.0,26.0,5.0,7,5,4,1,2026-05-25T02:29:33.069826+05:30
Hubli-Dharwad,Karnataka,15.3647,75.124,23.2,97,0.0,941.0,9.05,52.6,28,9.6,8.0,6.5,152.0,38.0,1.8,3,5,7,1,2026-05-25T02:29:33.069832+05:30
Belgaum,Karnataka,15.8497,74.4977,22.2,98,0.0,925.9,8.8,48.2,33,11.4,9.2,6.5,167.0,36.0,1.3,3,5,7,1,2026-05-25T02:29:36.406796+05:30
Coimbatore,Tamil Nadu,11.0168,76.9558,24.0,90,0.0,961.7,9.05,50.4,30,9.3,8.4,8.9,181.0,33.0,3.1,3,5,7,1,2026-05-25T02:29:36.406829+05:30
Madurai,Tamil Nadu,9.9252,78.1198,27.4,69,0.0,992.4,8.95,33.8,56,26.4,23.9,26.5,224.0,22.0,6.2,7,5,7,1,2026-05-25T02:29:36.406839+05:30
Trichy,Tamil Nadu,10.7905,78.7047,28.5,67,0.0,998.6,8.7,38.5,47,12.4,11.1,11.7,183.0,46.0,4.2,7,5,7,1,2026-05-25T02:29:36.406847+05:30
Salem,Tamil Nadu,11.6643,78.146,27.1,72,0.0,977.0,8.7,37.8,65,32.6,28.2,23.1,196.0,45.0,10.3,7,5,7,1,2026-05-25T02:29:36.406855+05:30
Tirunelveli,Tamil Nadu,8.7139,77.7567,28.5,67,0.0,1002.9,8.85,34.9,27,8.0,6.6,5.2,158.0,45.0,2.3,7,5,4,1,2026-05-25T02:29:36.406864+05:30
Vellore,Tamil Nadu,12.9165,79.1325,28.2,62,0.0,982.9,9.1,42.8,63,23.2,22.2,12.1,221.0,54.0,3.7,7,5,7,1,2026-05-25T02:29:36.406871+05:30
Erode,Tamil Nadu,11.341,77.7172,26.8,76,0.0,988.9,8.8,40.7,48,15.0,13.0,14.3,260.0,34.0,4.1,7,5,7,1,2026-05-25T02:29:36.406878+05:30
Kochi,Kerala,9.9312,76.2673,25.6,93,0.0,1009.5,7.5,30.6,53,14.9,13.3,15.7,261.0,25.0,4.9,7,0,4,1,2026-05-25T02:29:36.406886+05:30
Thiruvananthapuram,Kerala,8.5241,76.9366,24.6,93,0.0,1009.2,8.0,36.0,29,10.9,6.9,3.3,228.0,51.0,1.6,3,0,4,1,2026-05-25T02:29:36.406893+05:30
Kozhikode,Kerala,11.2588,75.7804,24.9,99,0.0,1008.3,8.15,31.7,29,12.3,8.2,2.8,647.0,57.0,1.6,3,0,4,1,2026-05-25T02:29:36.406900+05:30
Thrissur,Kerala,10.5276,76.2144,24.0,99,0.0,1007.7,8.2,33.8,56,14.8,13.6,18.6,370.0,16.0,4.6,3,5,4,1,2026-05-25T02:29:36.406908+05:30
Kannur,Kerala,11.8745,75.3704,25.9,96,0.0,1007.5,8.7,28.4,43,18.5,15.8,16.7,467.0,21.0,3.3,7,5,4,1,2026-05-25T02:29:36.406916+05:30
Patna,Bihar,25.5941,85.1376,29.4,77,0.0,995.3,8.8,32.4,156,58.7,52.7,12.1,438.0,103.0,16.4,7,5,7,1,2026-05-25T02:29:36.406923+05:30
Gaya,Bihar,24.7914,85.0002,28.4,62,0.0,988.2,8.9,30.6,160,246.8,103.6,55.4,565.0,23.0,16.4,7,5,7,1,2026-05-25T02:29:36.406930+05:30
Muzaffarpur,Bihar,26.1209,85.3647,27.7,81,0.0,995.8,8.85,33.1,154,64.3,54.8,13.0,477.0,94.0,15.6,7,5,7,1,2026-05-25T02:29:36.406937+05:30
Bhagalpur,Bihar,25.2425,87.0117,29.0,74,0.0,996.2,8.8,36.4,141,59.8,48.1,13.8,474.0,80.0,13.7,7,5,7,1,2026-05-25T02:29:36.406944+05:30
Ranchi,Jharkhand,23.3441,85.3096,26.4,52,0.0,934.5,9.3,49.3,144,170.9,67.8,21.4,335.0,69.0,9.8,4,5,7,0,2026-05-25T02:29:36.406951+05:30
Jamshedpur,Jharkhand,22.8046,86.2029,29.4,77,0.0,987.1,9.1,40.3,133,61.5,45.6,18.5,409.0,87.0,22.4,7,5,7,1,2026-05-25T02:29:36.406958+05:30
Dhanbad,Jharkhand,23.7957,86.4304,28.2,91,0.0,975.7,9.1,40.3,158,99.2,70.5,44.8,1355.0,60.0,114.2,7,5,7,1,2026-05-25T02:29:36.406966+05:30
Bokaro,Jharkhand,23.6693,86.1511,28.5,68,0.0,979.3,9.1,40.0,161,219.8,98.7,52.6,824.0,29.0,79.3,7,5,7,1,2026-05-25T02:29:36.406973+05:30
Bhubaneswar,Odisha,20.2961,85.8245,29.4,92,0.0,999.1,9.1,43.2,84,32.8,27.1,4.1,222.0,92.0,3.7,7,5,7,1,2026-05-25T02:29:36.406980+05:30
Cuttack,Odisha,20.4625,85.8828,29.5,92,0.0,1000.9,9.2,38.2,84,32.8,27.1,4.1,233.0,92.0,3.7,7,5,4,1,2026-05-25T02:29:36.406987+05:30
Rourkela,Odisha,22.2604,84.8536,28.7,89,0.0,981.3,9.0,46.4,152,164.4,87.8,41.4,252.0,42.0,23.0,7,5,7,1,2026-05-25T02:29:36.406994+05:30
Raipur,Chhattisgarh,21.2514,81.6296,33.9,28,0.0,970.5,8.95,42.1,132,88.9,63.1,49.7,598.0,21.0,41.2,0,5,7,0,2026-05-25T02:29:36.407000+05:30
Bhilai,Chhattisgarh,21.1938,81.3509,33.3,32,0.0,970.8,9.0,27.0,112,82.7,48.9,34.1,439.0,42.0,34.2,0,5,7,0,2026-05-25T02:29:36.407007+05:30
Guwahati,Assam,26.1158,91.7086,22.8,95,0.0,999.2,8.8,32.4,55,22.2,17.1,7.6,276.0,71.0,2.6,3,5,7,1,2026-05-25T02:29:36.407014+05:30
Agartala,Tripura,23.8315,91.2868,26.4,88,0.0,1004.2,8.8,48.6,63,14.5,11.6,8.6,188.0,58.0,3.0,7,5,4,1,2026-05-25T02:29:36.407021+05:30
Shillong,Meghalaya,25.5788,91.8933,19.6,92,0.0,854.9,8.45,43.6,42,4.6,2.5,4.2,190.0,82.0,2.4,3,10,7,1,2026-05-25T02:29:36.407028+05:30
Imphal,Manipur,24.817,93.9368,21.5,94,0.0,922.3,9.3,30.2,67,14.2,11.4,8.6,347.0,44.0,2.2,3,5,7,1,2026-05-25T02:29:36.407035+05:30
Aizawl,Mizoram,23.7271,92.7176,18.4,95,0.0,890.9,9.1,43.2,51,11.4,7.3,2.7,162.0,53.0,0.8,3,10,7,1,2026-05-25T02:29:36.407042+05:30
Kohima,Nagaland,25.6701,94.1077,17.0,87,0.0,852.9,9.25,33.5,58,18.3,11.7,6.6,203.0,48.0,1.3,3,10,7,0,2026-05-25T02:29:36.407048+05:30
Gangtok,Sikkim,27.3314,88.6138,15.2,90,0.1,834.6,9.2,40.0,72,45.9,25.6,13.7,460.0,68.0,2.2,6,10,7,0,2026-05-25T02:29:36.407053+05:30
Siliguri,West Bengal,26.7271,88.3953,22.5,98,0.0,990.4,8.7,30.6,91,53.3,31.5,9.8,397.0,106.0,4.2,3,5,7,1,2026-05-25T02:29:39.754694+05:30
Durgapur,West Bengal,23.5204,87.3119,28.9,93,0.0,991.0,9.0,39.2,147,39.1,36.4,19.5,433.0,67.0,27.6,7,5,7,1,2026-05-25T02:29:39.754725+05:30
Asansol,West Bengal,23.6739,86.9524,29.1,92,0.0,989.4,9.05,33.1,150,48.8,41.3,22.3,329.0,72.0,36.0,7,5,7,1,2026-05-25T02:29:39.754734+05:30
Pondicherry,Puducherry,11.9139,79.8145,27.8,77,0.0,1006.5,8.8,41.0,76,24.4,21.8,9.8,291.0,83.0,4.9,7,5,4,1,2026-05-25T02:29:39.754744+05:30
Port Blair,Andaman and Nicobar Islands,11.6234,92.7265,25.4,97,0.0,1006.6,8.65,32.8,28,10.8,6.2,0.2,103.0,67.0,0.4,7,5,4,1,2026-05-25T02:29:39.754776+05:30
Haridwar,Uttarakhand,29.9457,78.1642,26.0,45,0.0,967.4,7.5,30.2,82,59.1,37.8,24.6,230.0,47.0,8.9,4,5,7,0,2026-05-25T02:29:39.754786+05:30
Rishikesh,Uttarakhand,30.0869,78.2676,22.4,55,0.0,960.4,7.65,36.4,79,58.7,32.4,12.5,274.0,91.0,7.7,0,5,7,0,2026-05-25T02:29:39.754793+05:30
Nainital,Uttarakhand,29.3919,79.4542,17.4,38,0.0,802.8,8.45,47.9,88,84.5,35.9,16.5,204.0,68.0,4.3,0,5,7,0,2026-05-25T02:29:39.754801+05:30
Mussoorie,Uttarakhand,30.4599,78.0664,18.3,38,0.0,800.8,7.95,54.7,76,67.1,32.2,27.6,178.0,51.0,6.6,0,5,7,0,2026-05-25T02:29:39.754808+05:30
Dharamshala,Himachal Pradesh,32.219,76.3234,22.6,34,0.0,866.2,8.4,43.2,44,11.5,7.4,13.4,141.0,28.0,0.2,0,5,7,0,2026-05-25T02:29:39.754816+05:30
Dalhousie,Himachal Pradesh,32.5387,75.971,12.9,64,0.0,799.6,8.7,43.6,65,24.6,18.5,31.2,247.0,10.0,1.2,3,5,7,0,2026-05-25T02:29:39.754825+05:30
Patiala,Punjab,30.3398,76.3869,29.5,34,0.0,972.2,7.6,31.7,322,84.5,36.1,11.9,367.0,84.0,10.6,4,5,7,0,2026-05-25T02:29:39.754833+05:30
Bhatinda,Punjab,30.211,74.9455,30.6,34,0.0,977.6,8.25,30.2,125,157.4,67.8,25.4,285.0,47.0,8.0,0,5,7,0,2026-05-25T02:29:39.754840+05:30
Rohtak,Haryana,28.8955,76.6066,29.6,38,0.0,975.7,7.75,36.7,614,856.8,148.5,13.0,291.0,59.0,3.2,4,5,7,0,2026-05-25T02:29:39.754847+05:30
Panipat,Haryana,29.3909,76.9635,30.1,32,0.0,974.4,7.6,28.1,1320,825.2,168.6,47.9,526.0,21.0,11.2,0,5,7,0,2026-05-25T02:29:39.754854+05:30
Mathura,Uttar Pradesh,27.4924,77.6737,33.5,23,0.0,981.4,8.0,38.2,692,2093.6,262.6,5.1,155.0,78.0,3.5,0,5,7,0,2026-05-25T02:29:39.754861+05:30
Vrindavan,Uttar Pradesh,27.5823,77.7027,33.2,24,0.0,981.7,8.0,36.7,692,2093.6,262.6,5.1,151.0,78.0,3.5,0,5,7,0,2026-05-25T02:29:39.754868+05:30
Ayodhya,Uttar Pradesh,26.7922,82.1998,29.0,57,0.0,989.7,8.35,31.0,159,266.4,93.8,52.1,723.0,29.0,13.9,4,5,7,1,2026-05-25T02:29:39.754875+05:30
Ratlam,Madhya Pradesh,23.3315,75.0367,29.4,62,0.0,954.0,8.55,47.9,62,20.9,15.8,4.3,165.0,70.0,7.0,7,5,7,1,2026-05-25T02:29:39.754882+05:30
Sagar,Madhya Pradesh,23.8388,78.7378,32.7,24,0.0,948.0,8.75,41.0,90,64.3,31.8,8.2,194.0,64.0,3.8,0,5,7,0,2026-05-25T02:29:39.754889+05:30
Satna,Madhya Pradesh,24.6005,80.8322,31.5,32,0.0,966.8,8.35,48.6,98,49.5,27.4,13.5,224.0,65.0,4.4,0,5,7,0,2026-05-25T02:29:39.754896+05:30
Akola,Maharashtra,20.7002,77.0082,32.0,48,0.0,973.1,8.9,47.5,61,24.6,17.9,6.9,159.0,84.0,10.2,0,5,7,1,2026-05-25T02:29:39.754904+05:30
Amravati,Maharashtra,20.9374,77.7796,33.5,33,0.0,964.9,8.2,42.8,63,27.0,18.5,7.1,179.0,81.0,8.2,0,5,7,0,2026-05-25T02:29:39.754912+05:30
Latur,Maharashtra,18.4088,76.5604,28.3,60,0.0,939.0,9.05,36.7,56,9.6,8.7,6.7,153.0,71.0,4.5,4,5,7,1,2026-05-25T02:29:39.754919+05:30
Nanded,Maharashtra,19.1383,77.3091,33.2,34,0.0,966.5,8.95,37.1,59,23.2,17.0,10.7,192.0,62.0,4.2,0,5,7,0,2026-05-25T02:29:39.754926+05:30
Gulbarga,Karnataka,17.3297,76.8343,28.5,61,0.0,957.5,9.05,37.4,57,9.8,8.5,5.4,168.0,68.0,3.3,7,5,7,1,2026-05-25T02:29:39.754933+05:30
Bidar,Karnataka,17.9104,77.5199,28.9,51,0.0,934.0,9.1,41.4,65,19.7,16.7,12.6,187.0,64.0,4.8,4,5,7,1,2026-05-25T02:29:39.754940+05:30
Hospet,Karnataka,15.2689,76.3909,25.1,88,0.0,955.8,9.1,49.7,39,10.3,9.4,9.0,167.0,42.0,2.2,7,5,7,1,2026-05-25T02:29:39.754947+05:30
Tirupur,Tamil Nadu,11.1085,77.3411,24.5,87,0.0,974.9,9.1,51.1,48,16.9,14.7,16.2,154.0,29.0,4.7,3,5,7,1,2026-05-25T02:29:39.754954+05:30
Alappuzha,Kerala,9.4981,76.3388,25.8,96,0.0,1009.6,7.7,29.9,42,12.2,9.2,8.5,250.0,45.0,3.1,7,0,4,1,2026-05-25T02:29:39.754962+05:30
Munnar,Kerala,10.0889,77.0595,16.4,93,0.0,856.4,9.3,28.4,19,7.9,7.5,8.3,159.0,24.0,1.3,3,10,7,0,2026-05-25T02:29:39.754969+05:30
Silchar,Assam,24.8333,92.7789,24.1,95,0.1,1004.0,8.95,36.4,59,21.6,13.0,6.6,228.0,62.0,2.6,6,5,4,1,2026-05-25T02:29:39.754976+05:30
Dibrugarh,Assam,27.4728,94.912,22.5,97,0.6,994.2,8.95,30.2,59,25.0,14.7,8.7,227.0,66.0,1.5,6,5,7,1,2026-05-25T02:29:39.754983+05:30
