city,state,latitude,longitude,temp,humidity,rain,pressure,uv_index,wind_gusts,aqi,pm10,pm2_5,no2,co,o3,so2,mosquito_risk,arthritis_risk,migraine_risk,frizz_risk,updated_at
Delhi,Delhi,28.6139,77.209,31.2,28,0.0,981.9,7.55,28.4,181,261.7,66.6,30.4,542.0,123.0,20.8,0,5,7,0,2026-05-06T19:51:42.601628+05:30
Mumbai,Maharashtra,19.076,72.8777,29.0,80,0.0,1004.6,7.9,48.6,85,75.7,25.8,8.5,234.0,81.0,11.4,7,5,4,1,2026-05-06T19:51:42.601669+05:30
Bangalore,Karnataka,12.9716,77.5946,26.1,58,0.0,910.6,9.55,34.6,132,49.2,37.0,24.2,472.0,116.0,9.6,4,5,7,1,2026-05-06T19:51:42.601690+05:30
Hyderabad,Telangana,17.385,78.4867,33.0,33,0.0,951.8,8.95,34.6,117,52.6,33.2,11.5,627.0,115.0,7.6,0,5,7,0,2026-05-06T19:51:42.601702+05:30
Chennai,Tamil Nadu,13.0827,80.2707,29.3,72,0.0,1005.7,9.25,43.6,48,12.7,8.1,6.3,205.0,76.0,5.1,7,5,4,1,2026-05-06T19:51:42.601711+05:30
Kolkata,West Bengal,22.5726,88.3639,25.1,90,0.0,1006.2,8.95,33.5,98,45.4,42.3,20.5,478.0,69.0,16.4,7,5,4,1,2026-05-06T19:51:42.601721+05:30
Pune,Maharashtra,18.5204,73.8567,29.6,53,0.0,944.9,8.5,46.8,119,44.1,25.2,9.0,281.0,151.0,13.7,4,5,7,1,2026-05-06T19:51:42.601729+05:30
Ahmedabad,Gujarat,23.0225,72.5714,37.6,21,0.0,998.1,8.1,23.8,161,88.7,34.8,14.3,274.0,126.0,9.9,0,5,10,0,2026-05-06T19:51:42.601740+05:30
Jaipur,Rajasthan,26.9124,75.7873,30.7,27,0.0,957.8,8.1,32.4,142,168.6,41.0,18.1,331.0,114.0,7.4,0,5,7,0,2026-05-06T19:51:42.601754+05:30
Lucknow,Uttar Pradesh,26.8467,80.9462,24.4,73,0.0,992.9,8.05,47.2,154,91.0,41.6,15.8,455.0,120.0,13.2,3,5,7,1,2026-05-06T19:51:42.601763+05:30
Kanpur,Uttar Pradesh,26.4499,80.3319,27.5,57,0.0,990.6,7.9,28.4,154,170.0,45.8,10.6,348.0,120.0,7.1,4,5,7,1,2026-05-06T19:51:42.601771+05:30
Chandigarh,Chandigarh,30.7333,76.7794,25.2,43,0.0,967.1,7.55,47.9,168,36.1,24.8,19.0,649.0,136.0,14.9,4,5,7,0,2026-05-06T19:51:42.601779+05:30
Srinagar,Jammu and Kashmir,34.0837,74.7973,16.0,64,0.0,836.9,8.65,22.7,128,36.3,18.5,23.1,813.0,94.0,4.3,3,5,7,0,2026-05-06T19:51:42.601787+05:30
Jammu,Jammu and Kashmir,32.7266,74.857,25.8,38,0.0,969.8,8.25,33.5,153,33.2,24.3,14.8,436.0,128.0,4.6,4,5,7,0,2026-05-06T19:51:42.601794+05:30
Amritsar,Punjab,31.634,74.8723,27.1,44,0.0,978.3,8.15,33.5,180,44.2,26.7,17.7,665.0,143.0,8.9,4,5,7,0,2026-05-06T19:51:42.601801+05:30
Ludhiana,Punjab,30.901,75.8573,26.3,56,0.0,976.5,7.8,38.5,150,42.5,31.7,17.6,528.0,118.0,7.3,4,5,7,1,2026-05-06T19:51:42.601808+05:30
Jalandhar,Punjab,31.326,75.5762,24.9,55,0.0,977.3,7.95,41.8,156,47.7,31.9,13.4,450.0,130.0,6.3,0,5,7,0,2026-05-06T19:51:42.601816+05:30
Dehradun,Uttarakhand,30.6284,78.0322,12.7,70,0.0,827.4,6.75,38.2,119,34.3,18.3,9.9,172.0,123.0,1.6,3,5,7,0,2026-05-06T19:51:42.601825+05:30
Shimla,Himachal Pradesh,31.1048,77.1734,9.5,67,0.0,780.3,7.45,50.0,142,34.3,19.7,14.4,391.0,120.0,3.2,3,5,7,0,2026-05-06T19:51:42.601832+05:30
Manali,Himachal Pradesh,32.2396,77.1887,9.2,89,0.0,813.5,10.2,36.7,164,9.6,6.1,16.3,243.0,157.0,0.6,3,10,7,0,2026-05-06T19:51:42.601839+05:30
Gurgaon,Haryana,28.4595,77.0266,30.4,29,0.0,979.8,7.65,33.1,205,405.1,86.6,45.6,516.0,124.0,27.8,0,5,7,0,2026-05-06T19:51:42.601846+05:30
Noida,Uttar Pradesh,28.5355,77.391,27.2,48,0.0,983.3,7.55,21.6,205,405.1,86.6,45.6,589.0,124.0,27.8,4,5,7,0,2026-05-06T19:51:42.601853+05:30
Ghaziabad,Uttar Pradesh,28.6692,77.4538,27.2,48,0.0,981.5,7.55,25.6,183,178.3,54.4,12.7,438.0,140.0,13.3,4,5,7,0,2026-05-06T19:51:42.601860+05:30
Faridabad,Haryana,28.4089,77.3178,29.0,44,0.0,982.4,7.6,22.0,205,405.1,86.6,45.6,786.0,124.0,27.8,4,5,7,0,2026-05-06T19:51:42.601866+05:30
Meerut,Uttar Pradesh,28.9845,77.7064,26.8,57,0.0,979.8,7.45,27.4,183,178.3,54.4,12.7,472.0,140.0,13.3,4,5,7,1,2026-05-06T19:51:42.601873+05:30
Agra,Uttar Pradesh,27.1767,78.0081,28.0,57,0.0,986.0,7.9,21.2,174,424.7,85.2,27.2,483.0,115.0,19.9,4,5,7,1,2026-05-06T19:51:42.601880+05:30
Varanasi,Uttar Pradesh,25.3176,82.9739,26.9,64,0.0,997.1,8.6,69.1,170,67.8,49.5,22.1,418.0,124.0,18.7,7,5,7,1,2026-05-06T19:51:42.601887+05:30
Prayagraj,Uttar Pradesh,25.4358,81.8463,27.5,54,0.0,995.8,8.45,60.1,167,67.3,43.0,16.8,409.0,121.0,16.0,4,5,7,1,2026-05-06T19:51:42.601896+05:30
Gorakhpur,Uttar Pradesh,26.7606,83.3732,24.9,71,0.0,997.8,8.4,41.0,157,36.7,24.0,5.1,458.0,140.0,5.4,3,5,7,1,2026-05-06T19:51:42.601903+05:30
Bareilly,Uttar Pradesh,28.367,79.4304,25.2,59,0.0,985.7,7.85,24.5,159,61.9,36.4,21.1,449.0,117.0,13.4,4,5,7,1,2026-05-06T19:51:42.601910+05:30
Aligarh,Uttar Pradesh,27.8974,78.088,29.4,35,0.0,984.1,7.7,25.9,200,265.4,68.0,13.3,331.0,158.0,18.7,4,5,7,0,2026-05-06T19:51:42.601917+05:30
Moradabad,Uttar Pradesh,28.8386,78.7733,25.9,54,0.0,982.4,7.65,32.0,163,68.0,46.1,29.1,631.0,111.0,15.8,4,5,7,0,2026-05-06T19:51:42.601923+05:30
Saharanpur,Uttar Pradesh,29.9637,77.546,25.6,45,0.0,974.1,7.25,28.4,159,68.9,45.6,27.8,657.0,111.0,18.2,4,5,7,0,2026-05-06T19:51:42.601930+05:30
Jhansi,Uttar Pradesh,25.4484,78.5685,28.9,38,0.0,976.3,8.35,29.2,131,59.8,22.8,5.3,265.0,118.0,7.1,4,5,7,0,2026-05-06T19:51:45.863781+05:30
Surat,Gujarat,21.1702,72.8311,30.2,68,0.0,1002.9,7.7,35.3,94,66.4,39.9,52.9,655.0,35.0,81.2,3,5,4,1,2026-05-06T19:51:45.863808+05:30
Vadodara,Gujarat,22.3072,73.1812,36.5,25,0.0,1000.4,8.05,28.8,129,98.5,42.0,26.3,400.0,112.0,12.0,0,5,7,0,2026-05-06T19:51:45.863818+05:30
Rajkot,Gujarat,22.3039,70.8022,34.0,23,0.0,990.7,7.7,44.6,100,64.7,23.1,4.4,177.0,119.0,7.4,0,5,7,0,2026-05-06T19:51:45.863825+05:30
Thane,Maharashtra,19.2183,72.9781,29.2,76,0.0,1004.1,7.9,43.9,85,75.7,25.8,8.5,205.0,81.0,11.4,7,5,4,1,2026-05-06T19:51:45.863833+05:30
Nagpur,Maharashtra,21.1458,79.0882,34.9,27,0.0,971.0,8.9,28.8,156,61.9,35.0,24.6,379.0,112.0,24.2,0,5,7,0,2026-05-06T19:51:45.863839+05:30
Nashik,Maharashtra,19.9975,73.7898,30.8,33,0.0,942.8,8.2,36.0,78,39.6,17.3,3.5,178.0,108.0,1.9,0,5,7,0,2026-05-06T19:51:45.863846+05:30
Aurangabad,Maharashtra,19.8762,75.3433,33.0,20,0.0,941.2,9.0,37.8,111,44.2,18.2,4.6,241.0,127.0,3.7,0,5,7,0,2026-05-06T19:51:45.863853+05:30
Solapur,Maharashtra,17.6599,75.9064,34.2,20,0.0,953.6,9.05,42.5,101,37.8,18.5,6.0,268.0,114.0,6.1,0,5,7,0,2026-05-06T19:51:45.863860+05:30
Kolhapur,Maharashtra,16.705,74.2433,29.1,55,0.0,944.5,8.95,42.5,73,35.4,21.1,11.5,192.0,94.0,3.5,4,5,7,1,2026-05-06T19:51:45.863867+05:30
Goa,Goa,15.2993,74.124,29.8,71,0.0,994.3,8.7,42.5,67,41.3,17.5,3.9,159.0,71.0,1.4,7,5,7,1,2026-05-06T19:51:45.863874+05:30
Jodhpur,Rajasthan,26.2389,73.0243,34.6,15,0.0,979.8,8.3,28.8,123,156.5,29.5,7.9,221.0,119.0,4.3,0,5,7,0,2026-05-06T19:51:45.863880+05:30
Udaipur,Rajasthan,24.5854,73.7125,29.1,33,0.0,943.8,8.75,23.0,126,47.1,16.8,4.1,247.0,123.0,4.0,4,5,7,0,2026-05-06T19:51:45.863887+05:30
Kota,Rajasthan,25.2138,75.8648,30.9,27,0.0,976.3,8.3,29.5,140,61.2,27.0,11.8,337.0,117.0,6.7,0,5,7,0,2026-05-06T19:51:45.863893+05:30
Bikaner,Rajasthan,28.0229,73.3119,34.6,16,0.0,978.3,8.25,32.4,129,63.3,20.5,2.7,335.0,119.0,5.6,0,5,7,0,2026-05-06T19:51:45.863899+05:30
Ajmer,Rajasthan,26.4499,74.6399,29.0,29,0.0,952.1,8.25,32.0,129,67.8,23.3,10.2,349.0,116.0,4.9,4,5,7,0,2026-05-06T19:51:45.863905+05:30
Gwalior,Madhya Pradesh,26.2183,78.1828,28.0,53,0.0,981.2,8.1,21.2,146,132.2,35.9,8.4,405.0,120.0,6.5,4,5,7,1,2026-05-06T19:51:45.863912+05:30
Indore,Madhya Pradesh,22.7196,75.8577,33.8,13,0.0,945.5,8.6,30.2,128,21.8,14.1,8.5,493.0,120.0,4.4,0,5,7,0,2026-05-06T19:51:45.863919+05:30
Bhopal,Madhya Pradesh,23.2599,77.4126,32.2,20,0.0,951.3,8.65,37.8,132,20.4,13.6,4.3,244.0,125.0,5.6,0,5,7,0,2026-05-06T19:51:45.863925+05:30
Jabalpur,Madhya Pradesh,23.1815,79.9864,31.5,21,0.0,959.6,8.8,32.4,135,36.4,19.7,10.7,198.0,112.0,4.2,0,5,7,0,2026-05-06T19:51:45.863931+05:30
Ujjain,Madhya Pradesh,23.1765,75.7885,33.3,14,0.0,951.3,8.55,29.5,124,32.2,20.6,8.0,244.0,122.0,5.0,0,5,7,0,2026-05-06T19:51:45.863938+05:30
Visakhapatnam,Andhra Pradesh,17.6868,83.2185,28.6,79,0.0,1003.1,9.15,36.0,78,23.0,18.3,29.7,313.0,35.0,10.1,7,5,4,1,2026-05-06T19:51:45.863945+05:30
Vijayawada,Andhra Pradesh,16.5062,80.648,31.0,57,0.0,1001.2,9.2,39.2,59,14.2,10.9,6.9,235.0,66.0,7.6,0,5,4,1,2026-05-06T19:51:45.863951+05:30
Guntur,Andhra Pradesh,16.3067,80.4365,29.6,64,0.0,1002.5,9.2,39.2,71,19.6,15.9,6.9,198.0,77.0,6.0,7,5,4,1,2026-05-06T19:51:45.863957+05:30
Nellore,Andhra Pradesh,14.4426,79.9865,28.9,76,0.0,1004.5,9.25,40.7,58,11.2,7.1,2.5,182.0,78.0,1.7,7,5,4,1,2026-05-06T19:51:45.863964+05:30
Kurnool,Andhra Pradesh,15.8281,78.0373,33.3,37,0.0,974.6,9.15,38.5,105,48.7,29.3,3.8,225.0,114.0,2.7,0,5,7,1,2026-05-06T19:51:45.863971+05:30
Kakinada,Andhra Pradesh,16.9891,82.2475,28.4,81,0.0,1006.6,9.15,32.0,47,14.3,7.5,1.7,481.0,60.0,0.9,7,5,4,1,2026-05-06T19:51:45.863978+05:30
Tirupati,Andhra Pradesh,13.6288,79.4192,29.8,61,0.0,989.7,9.3,41.0,118,22.5,20.3,10.4,233.0,111.0,13.8,7,5,7,1,2026-05-06T19:51:45.863984+05:30
Warangal,Telangana,17.9689,79.5941,32.8,39,0.0,976.6,9.2,41.0,122,55.8,37.0,8.4,251.0,119.0,7.5,0,5,7,1,2026-05-06T19:51:45.863991+05:30
Nizamabad,Telangana,18.6725,78.0941,32.4,30,0.0,962.1,9.1,34.9,119,70.1,40.5,19.2,358.0,101.0,7.2,0,5,7,0,2026-05-06T19:51:45.863997+05:30
Mysore,Karnataka,12.2958,76.6396,27.4,56,0.0,926.0,9.4,31.0,102,50.4,32.5,25.1,307.0,105.0,7.3,4,5,7,1,2026-05-06T19:51:45.864003+05:30
Mangalore,Karnataka,12.9141,74.856,30.5,71,0.0,1002.5,9.05,55.8,64,35.2,15.8,2.8,151.0,72.0,1.1,3,5,4,1,2026-05-06T19:51:45.864010+05:30
Hubli-Dharwad,Karnataka,15.3647,75.124,31.8,28,0.0,937.0,9.15,42.8,97,43.3,23.4,19.4,198.0,96.0,3.6,0,5,7,0,2026-05-06T19:51:45.864016+05:30
Belgaum,Karnataka,15.8497,74.4977,25.3,71,0.0,922.6,9.2,46.4,80,36.7,20.3,9.7,185.0,90.0,3.2,7,5,7,1,2026-05-06T19:51:49.119002+05:30
Coimbatore,Tamil Nadu,11.0168,76.9558,27.1,72,0.1,959.9,9.35,37.8,120,35.0,24.7,15.0,296.0,94.0,5.3,10,5,7,1,2026-05-06T19:51:49.119033+05:30
Madurai,Tamil Nadu,9.9252,78.1198,26.1,88,0.1,991.7,9.2,50.0,126,31.5,24.0,7.7,249.0,110.0,3.6,10,5,7,1,2026-05-06T19:51:49.119045+05:30
Trichy,Tamil Nadu,10.7905,78.7047,30.1,65,0.0,997.9,8.95,42.5,120,38.9,30.6,10.9,260.0,107.0,7.1,3,5,7,1,2026-05-06T19:51:49.119054+05:30
Salem,Tamil Nadu,11.6643,78.146,30.6,53,0.0,975.0,9.3,43.2,178,51.5,38.4,7.4,392.0,156.0,14.6,0,5,7,1,2026-05-06T19:51:49.119063+05:30
Tirunelveli,Tamil Nadu,8.7139,77.7567,28.0,78,0.0,1001.3,9.1,48.2,116,30.3,23.5,8.4,278.0,110.0,5.4,7,5,4,1,2026-05-06T19:51:49.119071+05:30
Vellore,Tamil Nadu,12.9165,79.1325,29.3,64,0.0,983.1,9.3,47.9,154,35.7,31.5,9.7,270.0,121.0,6.4,7,5,7,1,2026-05-06T19:51:49.119079+05:30
Erode,Tamil Nadu,11.341,77.7172,27.9,71,0.1,987.2,9.25,42.8,163,49.6,36.3,11.9,312.0,143.0,8.5,10,5,7,1,2026-05-06T19:51:49.119087+05:30
Kochi,Kerala,9.9312,76.2673,27.4,89,0.0,1005.7,8.95,37.8,71,52.4,38.1,37.7,401.0,35.0,6.8,7,5,4,1,2026-05-06T19:51:49.119095+05:30
Thiruvananthapuram,Kerala,8.5241,76.9366,25.9,93,0.0,1005.5,8.95,36.7,66,19.6,11.3,4.9,374.0,103.0,2.1,7,5,4,1,2026-05-06T19:51:49.119102+05:30
Kozhikode,Kerala,11.2588,75.7804,29.4,85,0.0,1003.9,9.05,43.2,66,36.8,16.8,1.7,222.0,71.0,0.8,7,5,4,1,2026-05-06T19:51:49.119110+05:30
Thrissur,Kerala,10.5276,76.2144,26.4,96,0.0,1003.9,9.05,33.5,80,49.1,34.7,24.4,617.0,53.0,4.6,7,5,4,1,2026-05-06T19:51:49.119118+05:30
Kannur,Kerala,11.8745,75.3704,30.5,74,0.0,1003.1,9.05,59.8,64,31.5,15.3,3.4,181.0,70.0,1.1,3,5,4,1,2026-05-06T19:51:49.119126+05:30
Patna,Bihar,25.5941,85.1376,26.1,77,0.0,1000.9,8.7,36.7,160,71.7,55.3,28.1,352.0,110.0,16.6,7,5,4,1,2026-05-06T19:51:49.119133+05:30
Gaya,Bihar,24.7914,85.0002,26.1,71,0.0,993.8,8.75,54.7,162,75.4,54.5,23.3,326.0,112.0,11.0,7,5,7,1,2026-05-06T19:51:49.119141+05:30
Muzaffarpur,Bihar,26.1209,85.3647,24.0,89,0.0,1001.1,8.65,33.1,166,73.8,57.3,26.2,709.0,120.0,19.4,3,5,4,1,2026-05-06T19:51:49.119149+05:30
Bhagalpur,Bihar,25.2425,87.0117,27.1,70,0.0,1001.3,8.65,32.8,199,51.0,44.2,12.0,332.0,153.0,11.9,7,5,4,1,2026-05-06T19:51:49.119157+05:30
Ranchi,Jharkhand,23.3441,85.3096,24.5,53,0.0,937.1,9.2,29.9,169,52.7,39.8,14.6,332.0,138.0,12.9,0,5,7,0,2026-05-06T19:51:49.119165+05:30
Jamshedpur,Jharkhand,22.8046,86.2029,27.7,62,0.0,990.7,9.0,32.8,215,77.3,67.1,16.7,302.0,167.0,34.9,7,5,7,1,2026-05-06T19:51:49.119173+05:30
Dhanbad,Jharkhand,23.7957,86.4304,26.1,70,0.0,979.8,8.95,27.4,180,100.1,87.1,55.7,325.0,115.0,75.5,7,5,7,1,2026-05-06T19:51:49.119180+05:30
Bokaro,Jharkhand,23.6693,86.1511,26.3,69,0.0,983.5,8.95,26.3,197,99.7,83.8,50.9,488.0,127.0,77.1,7,5,7,1,2026-05-06T19:51:49.119188+05:30
Bhubaneswar,Odisha,20.2961,85.8245,27.7,80,0.0,1002.2,9.1,34.9,114,18.7,14.8,7.2,231.0,60.0,3.0,7,5,4,1,2026-05-06T19:51:49.119196+05:30
Cuttack,Odisha,20.4625,85.8828,28.0,78,0.0,1003.8,9.15,36.4,114,18.7,14.8,7.2,255.0,60.0,3.0,7,5,4,1,2026-05-06T19:51:49.119203+05:30
Rourkela,Odisha,22.2604,84.8536,28.1,59,0.0,983.7,8.95,31.0,169,60.3,43.8,20.4,446.0,123.0,25.5,4,5,7,1,2026-05-06T19:51:49.119211+05:30
Raipur,Chhattisgarh,21.2514,81.6296,32.5,33,0.0,972.8,8.95,35.6,164,70.5,47.8,31.3,350.0,105.0,10.5,0,5,7,0,2026-05-06T19:51:49.119218+05:30
Bhilai,Chhattisgarh,21.1938,81.3509,32.3,32,0.0,973.2,8.95,31.7,136,63.1,40.6,27.1,559.0,103.0,8.2,0,5,7,0,2026-05-06T19:51:49.119225+05:30
Guwahati,Assam,26.1158,91.7086,22.8,97,0.0,1001.7,8.2,32.4,84,34.7,29.9,8.7,372.0,78.0,2.1,3,5,4,1,2026-05-06T19:51:49.119233+05:30
Agartala,Tripura,23.8315,91.2868,23.4,90,0.0,1007.0,8.85,14.0,92,77.5,72.2,51.2,458.0,66.0,5.8,3,5,4,1,2026-05-06T19:51:49.119241+05:30
Shillong,Meghalaya,25.5788,91.8933,17.6,88,0.0,856.6,8.1,27.0,86,26.0,22.2,9.5,328.0,94.0,1.9,3,10,7,0,2026-05-06T19:51:49.119249+05:30
Imphal,Manipur,24.817,93.9368,21.1,86,0.0,922.9,9.1,33.1,77,36.7,30.9,22.9,662.0,54.0,5.1,3,5,7,1,2026-05-06T19:51:49.119256+05:30
Aizawl,Mizoram,23.7271,92.7176,19.8,82,0.0,892.8,8.85,20.5,62,28.7,20.4,13.5,302.0,58.0,1.7,3,10,7,1,2026-05-06T19:51:49.119264+05:30
Kohima,Nagaland,25.6701,94.1077,16.5,96,0.1,855.8,9.15,31.7,82,32.9,25.1,13.3,410.0,55.0,1.6,6,10,7,0,2026-05-06T19:51:49.119272+05:30
Gangtok,Sikkim,27.3314,88.6138,13.2,89,0.0,836.6,7.85,29.9,91,35.3,25.5,17.1,437.0,104.0,2.2,3,10,7,0,2026-05-06T19:51:49.119279+05:30
Siliguri,West Bengal,26.7271,88.3953,22.5,88,0.0,993.8,8.6,20.5,108,51.0,41.7,20.7,969.0,102.0,4.1,3,5,7,1,2026-05-06T19:51:52.377027+05:30
Durgapur,West Bengal,23.5204,87.3119,26.0,82,0.0,995.1,8.9,27.7,226,114.3,102.9,35.1,361.0,168.0,72.9,7,5,7,1,2026-05-06T19:51:52.377055+05:30
Asansol,West Bengal,23.6739,86.9524,26.4,76,0.0,993.6,8.95,27.0,205,97.6,83.6,39.4,723.0,139.0,66.2,7,5,7,1,2026-05-06T19:51:52.377066+05:30
Pondicherry,Puducherry,11.9139,79.8145,29.0,79,0.0,1006.9,9.1,37.4,66,14.0,8.9,1.9,185.0,85.0,0.3,7,5,4,1,2026-05-06T19:51:52.377075+05:30
Port Blair,Andaman and Nicobar Islands,11.6234,92.7265,27.6,88,0.1,1006.5,9.05,36.7,29,9.1,7.0,0.7,190.0,68.0,0.1,10,5,4,1,2026-05-06T19:51:52.377083+05:30
Haridwar,Uttarakhand,29.9457,78.1642,24.9,56,0.0,972.3,7.35,26.6,154,41.2,29.0,14.0,316.0,114.0,10.1,0,5,7,0,2026-05-06T19:51:52.377091+05:30
Rishikesh,Uttarakhand,30.0869,78.2676,23.5,56,0.0,964.9,7.45,23.4,145,40.5,21.0,7.1,326.0,139.0,6.2,0,5,7,0,2026-05-06T19:51:52.377099+05:30
Nainital,Uttarakhand,29.3919,79.4542,12.5,67,0.0,803.3,6.65,34.2,145,51.8,28.1,10.1,299.0,128.0,5.0,3,5,7,0,2026-05-06T19:51:52.377107+05:30
Mussoorie,Uttarakhand,30.4599,78.0664,11.1,73,0.0,799.3,6.35,40.0,148,50.5,30.9,19.9,273.0,117.0,10.9,3,5,7,0,2026-05-06T19:51:52.377115+05:30
Dharamshala,Himachal Pradesh,32.219,76.3234,15.9,60,0.0,866.0,8.15,40.3,128,19.4,13.0,9.3,247.0,119.0,1.1,0,5,7,0,2026-05-06T19:51:52.377122+05:30
Dalhousie,Himachal Pradesh,32.5387,75.971,10.7,75,0.0,800.2,8.35,38.2,141,33.5,21.3,24.9,561.0,114.0,3.0,3,5,7,0,2026-05-06T19:51:52.377130+05:30
Patiala,Punjab,30.3398,76.3869,26.0,52,0.0,976.4,7.45,41.0,157,171.4,39.1,9.3,335.0,128.0,8.4,4,5,7,0,2026-05-06T19:51:52.377137+05:30
Bhatinda,Punjab,30.211,74.9455,28.3,37,0.0,981.1,8.1,31.3,166,73.3,30.9,9.6,372.0,134.0,10.6,4,5,7,0,2026-05-06T19:51:52.377145+05:30
Rohtak,Haryana,28.8955,76.6066,28.7,37,0.0,980.5,7.55,43.2,161,448.9,78.0,22.7,408.0,118.0,14.4,4,5,7,0,2026-05-06T19:51:52.377152+05:30
Panipat,Haryana,29.3909,76.9635,26.8,42,0.0,978.9,7.4,40.7,286,1702.5,177.4,8.3,468.0,138.0,10.8,4,5,7,0,2026-05-06T19:51:52.377160+05:30
Mathura,Uttar Pradesh,27.4924,77.6737,29.2,34,0.0,985.0,7.8,27.4,173,384.6,75.4,25.9,591.0,123.0,13.0,4,5,7,0,2026-05-06T19:51:52.377167+05:30
Vrindavan,Uttar Pradesh,27.5823,77.7027,30.0,32,0.0,985.5,7.8,27.4,173,384.6,75.4,25.9,558.0,123.0,13.0,4,5,7,0,2026-05-06T19:51:52.377174+05:30
Ayodhya,Uttar Pradesh,26.7922,82.1998,25.1,73,0.0,995.3,8.2,53.6,126,47.4,31.0,8.4,435.0,120.0,5.9,7,5,7,1,2026-05-06T19:51:52.377182+05:30
Ratlam,Madhya Pradesh,23.3315,75.0367,30.9,24,0.0,952.2,8.5,29.5,124,33.6,18.1,5.4,185.0,120.0,5.1,0,5,7,0,2026-05-06T19:51:52.377189+05:30
Sagar,Madhya Pradesh,23.8388,78.7378,29.1,30,0.0,948.6,8.65,35.3,131,27.8,15.4,5.3,234.0,123.0,5.2,4,5,7,0,2026-05-06T19:51:52.377196+05:30
Satna,Madhya Pradesh,24.6005,80.8322,28.0,44,0.0,970.4,8.7,33.1,136,51.0,25.1,6.3,254.0,127.0,4.5,4,5,7,0,2026-05-06T19:51:52.377203+05:30
Akola,Maharashtra,20.7002,77.0082,34.8,17,0.0,971.4,8.85,30.2,146,48.1,21.9,12.0,231.0,120.0,8.6,0,5,7,0,2026-05-06T19:51:52.377211+05:30
Amravati,Maharashtra,20.9374,77.7796,33.5,25,0.0,964.2,8.85,42.1,148,45.1,23.5,12.1,212.0,129.0,6.9,0,5,7,0,2026-05-06T19:51:52.377219+05:30
Latur,Maharashtra,18.4088,76.5604,32.2,20,0.0,937.0,9.05,34.9,105,47.8,23.8,12.1,177.0,108.0,12.0,0,5,7,0,2026-05-06T19:51:52.377227+05:30
Nanded,Maharashtra,19.1383,77.3091,34.2,20,0.0,964.9,8.95,29.5,108,52.4,27.2,15.8,516.0,104.0,6.2,0,5,7,0,2026-05-06T19:51:52.377234+05:30
Gulbarga,Karnataka,17.3297,76.8343,34.4,21,0.0,955.4,9.1,35.6,140,42.3,23.6,9.3,376.0,125.0,5.6,0,5,7,0,2026-05-06T19:51:52.377241+05:30
Bidar,Karnataka,17.9104,77.5199,30.9,26,0.0,933.0,9.1,32.8,119,57.7,30.6,11.0,255.0,112.0,4.5,0,5,7,0,2026-05-06T19:51:52.377249+05:30
Hospet,Karnataka,15.2689,76.3909,30.7,39,0.0,952.5,8.75,34.9,138,42.8,30.3,15.8,366.0,136.0,11.6,0,5,7,0,2026-05-06T19:51:52.377256+05:30
Tirupur,Tamil Nadu,11.1085,77.3411,28.1,64,0.0,973.1,9.35,39.6,153,55.1,37.0,20.0,360.0,120.0,8.0,7,5,7,1,2026-05-06T19:51:52.377263+05:30
Alappuzha,Kerala,9.4981,76.3388,26.3,92,0.0,1006.2,8.25,37.1,68,49.1,29.8,16.7,121.0,69.0,4.8,7,5,4,1,2026-05-06T19:51:52.377271+05:30
Munnar,Kerala,10.0889,77.0595,18.2,94,0.0,854.5,9.3,21.6,90,36.6,28.3,13.7,304.0,73.0,3.5,3,10,7,1,2026-05-06T19:51:52.377279+05:30
Silchar,Assam,24.8333,92.7789,27.1,79,0.0,1005.0,8.65,19.8,110,52.6,46.0,18.0,620.0,74.0,9.9,7,5,4,1,2026-05-06T19:51:52.377286+05:30
Dibrugarh,Assam,27.4728,94.912,22.2,92,0.1,996.6,8.8,28.1,78,52.0,43.3,16.9,295.0,69.0,2.7,6,5,7,1,2026-05-06T19:51:52.377294+05:30
