city,state,latitude,longitude,temp,humidity,rain,pressure,uv_index,wind_gusts,aqi,pm10,pm2_5,mosquito_risk,arthritis_risk,migraine_risk,frizz_risk,updated_at
Delhi,Delhi,28.6139,77.209,29.3,39,0.0,979.6,6.05,21.6,140,169.5,39.9,4,5,7,0,2026-03-28T18:31:31.692479+05:30
Mumbai,Maharashtra,19.076,72.8777,26.9,85,0.0,1006.6,8.0,24.5,115,42.4,14.8,7,5,4,1,2026-03-28T18:31:31.692524+05:30
Bangalore,Karnataka,12.9716,77.5946,27.5,52,0.0,909.5,9.5,42.5,179,53.4,45.5,4,5,7,1,2026-03-28T18:31:31.692539+05:30
Hyderabad,Telangana,17.385,78.4867,35.1,23,0.0,949.3,9.0,24.8,139,35.9,30.7,0,5,10,0,2026-03-28T18:31:31.692550+05:30
Chennai,Tamil Nadu,13.0827,80.2707,28.6,72,0.0,1004.5,9.25,34.6,68,23.6,16.9,7,5,4,1,2026-03-28T18:31:31.692559+05:30
Kolkata,West Bengal,22.5726,88.3639,25.5,82,0.0,1004.0,8.4,31.7,194,61.2,54.0,7,5,4,1,2026-03-28T18:31:31.692568+05:30
Pune,Maharashtra,18.5204,73.8567,31.5,21,0.0,946.5,8.5,49.0,114,15.7,13.8,0,5,7,0,2026-03-28T18:31:31.692581+05:30
Ahmedabad,Gujarat,23.0225,72.5714,34.1,37,0.0,998.0,7.95,34.2,41,29.2,8.8,0,5,7,1,2026-03-28T18:31:31.692589+05:30
Jaipur,Rajasthan,26.9124,75.7873,32.2,25,0.0,955.9,7.45,32.4,91,151.8,21.8,0,5,7,0,2026-03-28T18:31:31.692598+05:30
Lucknow,Uttar Pradesh,26.8467,80.9462,29.8,39,0.0,989.8,7.15,28.1,131,166.7,37.7,4,5,7,0,2026-03-28T18:31:31.692607+05:30
Kanpur,Uttar Pradesh,26.4499,80.3319,28.7,51,0.0,988.0,6.95,25.2,198,307.3,50.9,4,5,7,1,2026-03-28T18:31:31.692614+05:30
Chandigarh,Chandigarh,30.7333,76.7794,25.8,62,0.0,965.4,5.4,23.4,128,22.9,19.6,7,5,3,1,2026-03-28T18:31:31.692623+05:30
Srinagar,Jammu and Kashmir,34.0837,74.7973,16.7,67,0.0,837.9,6.0,16.2,119,44.4,25.8,3,5,3,0,2026-03-28T18:31:31.692632+05:30
Jammu,Jammu and Kashmir,32.7266,74.857,26.9,57,0.0,969.3,7.05,16.6,129,25.4,23.9,4,5,7,1,2026-03-28T18:31:31.692640+05:30
Amritsar,Punjab,31.634,74.8723,27.5,57,0.0,977.4,7.0,14.0,132,22.8,17.8,4,5,7,1,2026-03-28T18:31:31.692648+05:30
Ludhiana,Punjab,30.901,75.8573,27.8,51,0.0,975.6,6.05,13.7,108,49.5,31.8,4,5,7,1,2026-03-28T18:31:31.692656+05:30
Jalandhar,Punjab,31.326,75.5762,27.0,56,0.0,976.6,6.25,11.5,105,37.4,23.1,4,5,7,1,2026-03-28T18:31:31.692665+05:30
Dehradun,Uttarakhand,30.6284,78.0322,17.0,72,0.0,827.0,5.85,22.3,103,26.7,20.6,3,5,3,0,2026-03-28T18:31:31.692675+05:30
Shimla,Himachal Pradesh,31.1048,77.1734,15.1,74,0.0,781.6,6.15,33.1,115,23.6,19.4,3,5,7,0,2026-03-28T18:31:31.692683+05:30
Manali,Himachal Pradesh,32.2396,77.1887,18.0,66,0.0,816.8,8.45,29.9,132,24.2,8.9,3,5,7,0,2026-03-28T18:31:31.692691+05:30
Gurgaon,Haryana,28.4595,77.0266,28.4,46,0.0,978.0,6.2,17.3,419,390.2,59.6,4,5,7,0,2026-03-28T18:31:31.692698+05:30
Noida,Uttar Pradesh,28.5355,77.391,29.2,42,0.0,981.0,6.05,21.6,419,390.2,59.6,4,5,7,0,2026-03-28T18:31:31.692705+05:30
Ghaziabad,Uttar Pradesh,28.6692,77.4538,28.6,46,0.0,979.2,5.95,20.5,151,103.8,34.6,4,5,3,0,2026-03-28T18:31:31.692713+05:30
Faridabad,Haryana,28.4089,77.3178,28.3,42,0.0,980.3,6.15,19.8,419,390.2,59.6,4,5,7,0,2026-03-28T18:31:31.692720+05:30
Meerut,Uttar Pradesh,28.9845,77.7064,27.0,54,0.0,978.0,5.9,23.0,151,103.8,34.6,4,5,3,1,2026-03-28T18:31:31.692727+05:30
Agra,Uttar Pradesh,27.1767,78.0081,31.0,32,0.0,983.8,6.45,25.6,453,534.6,64.7,0,5,7,0,2026-03-28T18:31:31.692735+05:30
Varanasi,Uttar Pradesh,25.3176,82.9739,28.8,45,0.0,993.9,7.8,37.4,114,67.8,30.3,4,5,7,0,2026-03-28T18:31:31.692745+05:30
Prayagraj,Uttar Pradesh,25.4358,81.8463,29.5,44,0.0,992.3,7.7,30.2,112,92.0,29.9,4,5,7,0,2026-03-28T18:31:31.692752+05:30
Gorakhpur,Uttar Pradesh,26.7606,83.3732,28.1,51,0.0,993.5,6.1,28.1,109,49.4,24.5,4,5,7,1,2026-03-28T18:31:31.692760+05:30
Bareilly,Uttar Pradesh,28.367,79.4304,27.3,56,0.0,983.0,6.3,24.5,103,29.9,22.6,4,5,7,1,2026-03-28T18:31:31.692767+05:30
Aligarh,Uttar Pradesh,27.8974,78.088,28.2,48,0.0,981.9,6.2,23.8,259,450.8,68.2,4,5,7,1,2026-03-28T18:31:31.692774+05:30
Moradabad,Uttar Pradesh,28.8386,78.7733,27.1,56,0.0,979.9,6.1,23.0,113,38.9,28.2,4,5,7,1,2026-03-28T18:31:31.692781+05:30
Saharanpur,Uttar Pradesh,29.9637,77.546,26.5,55,0.0,972.1,5.15,24.8,134,58.3,30.9,4,5,3,1,2026-03-28T18:31:31.692788+05:30
Jhansi,Uttar Pradesh,25.4484,78.5685,32.2,31,0.0,973.7,7.05,31.3,92,32.7,11.9,0,5,7,0,2026-03-28T18:31:34.942836+05:30
Surat,Gujarat,21.1702,72.8311,27.6,75,0.0,1004.1,7.75,30.6,85,43.7,22.1,7,5,4,1,2026-03-28T18:31:34.942867+05:30
Vadodara,Gujarat,22.3072,73.1812,34.1,38,0.0,1000.4,7.95,32.8,60,39.2,14.6,0,5,4,1,2026-03-28T18:31:34.942877+05:30
Rajkot,Gujarat,22.3039,70.8022,31.1,48,0.0,991.7,7.8,43.2,41,19.1,8.5,0,5,7,1,2026-03-28T18:31:34.942886+05:30
Thane,Maharashtra,19.2183,72.9781,27.7,72,0.0,1006.0,8.0,37.8,115,42.4,14.8,7,5,4,1,2026-03-28T18:31:34.942895+05:30
Nagpur,Maharashtra,21.1458,79.0882,33.8,29,0.0,968.2,8.5,31.3,84,17.1,11.3,0,5,7,0,2026-03-28T18:31:34.942903+05:30
Nashik,Maharashtra,19.9975,73.7898,29.3,29,0.0,943.6,8.2,43.6,57,24.8,9.0,4,5,7,0,2026-03-28T18:31:34.942911+05:30
Aurangabad,Maharashtra,19.8762,75.3433,33.8,16,0.0,940.7,8.7,43.6,90,12.9,7.1,0,5,7,0,2026-03-28T18:31:34.942918+05:30
Solapur,Maharashtra,17.6599,75.9064,35.8,19,0.0,953.2,8.85,31.7,95,19.2,14.6,0,5,10,0,2026-03-28T18:31:34.942927+05:30
Kolhapur,Maharashtra,16.705,74.2433,29.0,48,0.0,946.3,8.95,43.6,126,30.3,27.0,4,5,7,1,2026-03-28T18:31:34.942935+05:30
Goa,Goa,15.2993,74.124,29.5,73,0.0,996.2,8.95,28.4,95,40.0,33.9,7,5,7,1,2026-03-28T18:31:34.942943+05:30
Jodhpur,Rajasthan,26.2389,73.0243,32.7,30,0.0,978.6,7.8,31.0,69,231.0,28.1,0,5,7,0,2026-03-28T18:31:34.942950+05:30
Udaipur,Rajasthan,24.5854,73.7125,29.4,37,0.0,943.4,8.35,33.5,42,31.8,8.2,4,5,7,0,2026-03-28T18:31:34.942958+05:30
Kota,Rajasthan,25.2138,75.8648,35.0,23,0.0,973.7,7.7,24.5,62,80.6,19.4,0,5,7,0,2026-03-28T18:31:34.942966+05:30
Bikaner,Rajasthan,28.0229,73.3119,34.1,25,0.0,976.8,7.5,20.9,49,37.4,11.1,0,5,7,0,2026-03-28T18:31:34.942973+05:30
Ajmer,Rajasthan,26.4499,74.6399,31.1,31,0.0,950.6,7.75,30.6,55,31.0,9.7,0,5,7,0,2026-03-28T18:31:34.942981+05:30
Gwalior,Madhya Pradesh,26.2183,78.1828,31.8,32,0.0,979.1,6.75,36.4,145,67.3,20.6,0,5,7,0,2026-03-28T18:31:34.942989+05:30
Indore,Madhya Pradesh,22.7196,75.8577,30.9,30,0.0,944.8,8.2,37.1,58,15.0,8.5,0,5,7,0,2026-03-28T18:31:34.942996+05:30
Bhopal,Madhya Pradesh,23.2599,77.4126,32.6,27,0.0,949.8,8.15,31.3,56,17.0,7.8,0,5,7,0,2026-03-28T18:31:34.943004+05:30
Jabalpur,Madhya Pradesh,23.1815,79.9864,31.4,34,0.0,957.2,8.25,29.9,71,32.4,14.3,0,5,7,0,2026-03-28T18:31:34.943011+05:30
Ujjain,Madhya Pradesh,23.1765,75.7885,30.8,31,0.0,950.5,8.15,34.2,48,15.0,8.1,0,5,7,0,2026-03-28T18:31:34.943019+05:30
Visakhapatnam,Andhra Pradesh,17.6868,83.2185,28.1,73,0.0,1000.3,9.0,41.8,95,33.8,23.1,7,5,4,1,2026-03-28T18:31:34.943027+05:30
Vijayawada,Andhra Pradesh,16.5062,80.648,32.5,44,0.0,998.6,9.05,30.6,83,46.8,39.2,0,5,7,1,2026-03-28T18:31:34.943034+05:30
Guntur,Andhra Pradesh,16.3067,80.4365,30.7,56,0.0,1000.2,9.05,33.1,97,49.9,42.1,0,5,4,1,2026-03-28T18:31:34.943041+05:30
Nellore,Andhra Pradesh,14.4426,79.9865,29.7,63,0.0,1002.6,9.2,34.6,137,31.7,24.7,7,5,4,1,2026-03-28T18:31:34.943049+05:30
Kurnool,Andhra Pradesh,15.8281,78.0373,36.8,23,0.0,972.8,9.05,33.5,167,50.1,42.0,0,5,10,0,2026-03-28T18:31:34.943057+05:30
Kakinada,Andhra Pradesh,16.9891,82.2475,30.0,62,0.0,1003.9,9.0,35.3,73,29.0,17.4,7,5,4,1,2026-03-28T18:31:34.943064+05:30
Tirupati,Andhra Pradesh,13.6288,79.4192,32.7,39,0.0,988.2,9.25,27.4,118,47.7,39.9,0,5,7,1,2026-03-28T18:31:34.943071+05:30
Warangal,Telangana,17.9689,79.5941,35.0,28,0.0,974.2,8.85,25.6,129,41.9,38.4,0,5,7,0,2026-03-28T18:31:34.943078+05:30
Nizamabad,Telangana,18.6725,78.0941,34.6,23,0.0,960.6,8.8,26.3,94,17.3,15.0,0,5,7,0,2026-03-28T18:31:34.943085+05:30
Mysore,Karnataka,12.2958,76.6396,27.0,67,0.0,926.5,9.45,45.7,169,46.7,39.8,7,5,7,1,2026-03-28T18:31:34.943092+05:30
Mangalore,Karnataka,12.9141,74.856,29.1,82,0.0,1005.1,9.1,23.8,100,36.3,28.5,7,5,4,1,2026-03-28T18:31:34.943099+05:30
Hubli-Dharwad,Karnataka,15.3647,75.124,28.4,65,0.0,939.4,8.3,44.3,151,40.6,34.8,7,5,7,1,2026-03-28T18:31:34.943106+05:30
Belgaum,Karnataka,15.8497,74.4977,26.9,69,0.0,924.6,8.95,36.4,127,37.0,31.8,7,5,7,1,2026-03-28T18:31:38.198078+05:30
Coimbatore,Tamil Nadu,11.0168,76.9558,27.9,69,0.0,959.2,9.45,54.4,117,32.9,28.3,7,5,7,1,2026-03-28T18:31:38.198109+05:30
Madurai,Tamil Nadu,9.9252,78.1198,33.6,42,0.0,989.7,9.4,38.5,129,25.0,20.3,0,5,7,1,2026-03-28T18:31:38.198119+05:30
Trichy,Tamil Nadu,10.7905,78.7047,32.8,49,0.0,996.3,9.35,25.9,93,20.2,17.5,0,5,7,1,2026-03-28T18:31:38.198128+05:30
Salem,Tamil Nadu,11.6643,78.146,34.9,32,0.0,973.6,9.4,30.6,166,43.7,35.0,0,5,7,0,2026-03-28T18:31:38.198137+05:30
Tirunelveli,Tamil Nadu,8.7139,77.7567,33.8,47,0.0,999.9,9.35,47.5,106,25.0,22.1,0,5,7,1,2026-03-28T18:31:38.198145+05:30
Vellore,Tamil Nadu,12.9165,79.1325,31.9,42,0.0,981.3,9.35,31.0,140,53.2,46.6,0,5,7,1,2026-03-28T18:31:38.198154+05:30
Erode,Tamil Nadu,11.341,77.7172,35.7,32,0.0,984.8,9.35,26.3,158,37.7,30.3,0,5,10,1,2026-03-28T18:31:38.198162+05:30
Kochi,Kerala,9.9312,76.2673,29.1,80,0.0,1006.8,8.45,31.7,94,31.9,27.9,7,5,4,1,2026-03-28T18:31:38.198170+05:30
Thiruvananthapuram,Kerala,8.5241,76.9366,29.4,78,0.0,1005.9,9.15,39.6,65,24.2,18.9,7,5,4,1,2026-03-28T18:31:38.198177+05:30
Kozhikode,Kerala,11.2588,75.7804,29.7,77,0.0,1006.0,9.1,31.0,80,28.9,22.6,7,5,4,1,2026-03-28T18:31:38.198185+05:30
Thrissur,Kerala,10.5276,76.2144,29.9,74,0.0,1005.0,9.15,36.4,90,31.5,27.4,7,5,4,1,2026-03-28T18:31:38.198193+05:30
Kannur,Kerala,11.8745,75.3704,30.2,72,0.0,1005.2,9.05,31.0,89,34.8,27.5,3,5,4,1,2026-03-28T18:31:38.198201+05:30
Patna,Bihar,25.5941,85.1376,28.1,56,0.0,997.6,7.9,29.5,96,53.0,27.8,4,5,7,1,2026-03-28T18:31:38.198209+05:30
Gaya,Bihar,24.7914,85.0002,26.4,66,0.0,990.8,7.9,24.1,97,49.2,24.7,7,5,7,1,2026-03-28T18:31:38.198216+05:30
Muzaffarpur,Bihar,26.1209,85.3647,27.0,60,0.0,997.6,7.85,20.5,107,58.6,33.2,4,5,7,1,2026-03-28T18:31:38.198223+05:30
Bhagalpur,Bihar,25.2425,87.0117,25.1,75,0.0,999.1,7.75,25.2,117,70.3,36.0,7,5,7,1,2026-03-28T18:31:38.198230+05:30
Ranchi,Jharkhand,23.3441,85.3096,25.6,62,0.0,934.7,8.7,31.7,121,38.1,24.7,7,5,7,1,2026-03-28T18:31:38.198237+05:30
Jamshedpur,Jharkhand,22.8046,86.2029,30.7,53,0.0,987.2,8.5,32.4,179,61.2,47.0,0,5,7,1,2026-03-28T18:31:38.198244+05:30
Dhanbad,Jharkhand,23.7957,86.4304,29.2,50,0.0,976.9,8.4,30.2,152,85.4,68.5,4,5,7,1,2026-03-28T18:31:38.198252+05:30
Bokaro,Jharkhand,23.6693,86.1511,27.1,60,0.0,980.8,8.45,31.0,141,77.8,57.0,4,5,7,1,2026-03-28T18:31:38.198281+05:30
Bhubaneswar,Odisha,20.2961,85.8245,28.3,74,0.0,999.5,8.8,31.7,145,39.2,33.3,7,5,7,1,2026-03-28T18:31:38.198290+05:30
Cuttack,Odisha,20.4625,85.8828,30.0,67,0.0,1000.8,8.8,30.6,145,39.2,33.3,7,5,4,1,2026-03-28T18:31:38.198297+05:30
Rourkela,Odisha,22.2604,84.8536,31.2,48,0.0,980.9,8.4,43.9,161,37.7,29.3,0,5,7,1,2026-03-28T18:31:38.198305+05:30
Raipur,Chhattisgarh,21.2514,81.6296,34.9,22,0.0,969.8,8.55,34.6,101,29.5,22.5,0,5,7,0,2026-03-28T18:31:38.198312+05:30
Bhilai,Chhattisgarh,21.1938,81.3509,34.0,26,0.0,970.2,8.55,33.8,78,23.7,17.9,0,5,7,0,2026-03-28T18:31:38.198319+05:30
Guwahati,Assam,26.1158,91.7086,21.8,88,0.0,1001.4,4.0,28.1,146,29.8,27.6,3,5,0,1,2026-03-28T18:31:38.198326+05:30
Agartala,Tripura,23.8315,91.2868,22.6,89,0.0,1005.3,6.4,38.5,142,64.7,57.3,3,5,4,1,2026-03-28T18:31:38.198334+05:30
Shillong,Meghalaya,25.5788,91.8933,11.4,93,0.0,852.3,3.7,43.9,93,20.3,16.9,3,10,3,0,2026-03-28T18:31:38.198341+05:30
Imphal,Manipur,24.817,93.9368,16.2,91,0.0,920.7,7.7,52.6,148,62.2,53.0,3,10,7,0,2026-03-28T18:31:38.198349+05:30
Aizawl,Mizoram,23.7271,92.7176,16.7,92,0.0,890.2,7.35,38.2,116,56.7,44.9,3,10,7,0,2026-03-28T18:31:38.198356+05:30
Kohima,Nagaland,25.6701,94.1077,13.7,79,0.0,851.4,4.95,71.3,113,47.7,39.2,3,5,3,0,2026-03-28T18:31:38.198363+05:30
Gangtok,Sikkim,27.3314,88.6138,12.8,94,0.0,833.4,6.7,17.3,87,13.9,12.2,3,10,7,0,2026-03-28T18:31:38.198370+05:30
Siliguri,West Bengal,26.7271,88.3953,18.6,89,0.0,992.8,7.5,26.3,152,44.1,36.0,3,10,7,1,2026-03-28T18:31:41.456975+05:30
Durgapur,West Bengal,23.5204,87.3119,25.8,69,0.0,992.7,8.35,28.4,150,86.6,71.5,7,5,7,1,2026-03-28T18:31:41.457005+05:30
Asansol,West Bengal,23.6739,86.9524,28.4,54,0.0,990.9,8.35,31.7,155,79.2,68.2,4,5,7,1,2026-03-28T18:31:41.457015+05:30
Pondicherry,Puducherry,11.9139,79.8145,28.7,76,0.0,1005.3,9.25,32.4,72,20.5,14.8,7,5,4,1,2026-03-28T18:31:41.457023+05:30
Port Blair,Andaman and Nicobar Islands,11.6234,92.7265,28.1,80,0.0,1005.4,9.15,27.0,69,24.8,19.0,7,5,4,1,2026-03-28T18:31:41.457032+05:30
Haridwar,Uttarakhand,29.9457,78.1642,27.8,52,0.0,970.6,5.7,27.0,117,26.8,22.5,4,5,3,1,2026-03-28T18:31:41.457041+05:30
Rishikesh,Uttarakhand,30.0869,78.2676,26.4,56,0.0,963.4,5.8,24.8,101,19.6,16.1,4,5,3,1,2026-03-28T18:31:41.457048+05:30
Nainital,Uttarakhand,29.3919,79.4542,19.2,63,0.0,803.3,4.8,25.9,108,25.6,20.3,3,5,3,0,2026-03-28T18:31:41.457057+05:30
Mussoorie,Uttarakhand,30.4599,78.0664,17.3,71,0.0,799.7,5.65,25.9,115,28.9,25.2,3,5,3,0,2026-03-28T18:31:41.457066+05:30
Dharamshala,Himachal Pradesh,32.219,76.3234,19.7,79,0.0,865.8,6.9,16.6,109,19.5,13.3,3,5,7,0,2026-03-28T18:31:41.457073+05:30
Dalhousie,Himachal Pradesh,32.5387,75.971,18.0,67,0.0,800.8,6.45,17.3,123,23.1,19.0,3,5,7,0,2026-03-28T18:31:41.457082+05:30
Patiala,Punjab,30.3398,76.3869,26.8,53,0.0,974.9,5.95,17.3,107,104.5,34.5,4,5,3,1,2026-03-28T18:31:41.457091+05:30
Bhatinda,Punjab,30.211,74.9455,29.1,39,0.0,979.6,6.95,17.3,79,39.0,20.8,4,5,7,0,2026-03-28T18:31:41.457098+05:30
Rohtak,Haryana,28.8955,76.6066,28.1,52,0.0,978.3,6.25,14.8,144,151.8,39.2,4,5,7,1,2026-03-28T18:31:41.457106+05:30
Panipat,Haryana,29.3909,76.9635,27.1,53,0.0,977.0,5.65,19.4,267,224.9,49.6,4,5,3,1,2026-03-28T18:31:41.457114+05:30
Mathura,Uttar Pradesh,27.4924,77.6737,29.7,43,0.0,983.0,6.5,20.9,284,362.3,54.0,4,5,7,0,2026-03-28T18:31:41.457121+05:30
Vrindavan,Uttar Pradesh,27.5823,77.7027,29.2,45,0.0,983.5,6.5,22.7,284,362.3,54.0,4,5,7,1,2026-03-28T18:31:41.457129+05:30
Ayodhya,Uttar Pradesh,26.7922,82.1998,28.3,50,0.0,991.5,6.85,31.7,97,61.0,26.1,4,5,7,1,2026-03-28T18:31:41.457135+05:30
Ratlam,Madhya Pradesh,23.3315,75.0367,29.9,45,0.0,951.4,8.1,37.1,49,17.3,8.0,4,5,7,1,2026-03-28T18:31:41.457142+05:30
Sagar,Madhya Pradesh,23.8388,78.7378,32.1,28,0.0,946.3,8.15,32.4,61,53.8,13.6,0,5,7,0,2026-03-28T18:31:41.457149+05:30
Satna,Madhya Pradesh,24.6005,80.8322,31.7,25,0.0,967.3,8.1,23.8,106,38.8,13.9,0,5,7,0,2026-03-28T18:31:41.457157+05:30
Akola,Maharashtra,20.7002,77.0082,34.0,22,0.0,971.1,8.5,37.1,67,16.8,10.6,0,5,7,0,2026-03-28T18:31:41.457164+05:30
Amravati,Maharashtra,20.9374,77.7796,33.6,27,0.0,963.2,8.45,33.5,69,15.2,8.9,0,5,7,0,2026-03-28T18:31:41.457173+05:30
Latur,Maharashtra,18.4088,76.5604,33.8,21,0.0,936.4,8.8,32.4,79,18.3,15.1,0,5,7,0,2026-03-28T18:31:41.457180+05:30
Nanded,Maharashtra,19.1383,77.3091,35.5,18,0.0,964.3,8.7,28.8,83,12.5,11.0,0,5,10,0,2026-03-28T18:31:41.457187+05:30
Gulbarga,Karnataka,17.3297,76.8343,36.1,18,0.0,954.8,8.85,31.7,117,24.2,18.0,0,5,10,0,2026-03-28T18:31:41.457193+05:30
Bidar,Karnataka,17.9104,77.5199,34.6,20,0.0,932.2,8.85,28.8,117,19.8,17.1,0,5,7,0,2026-03-28T18:31:41.457201+05:30
Hospet,Karnataka,15.2689,76.3909,34.5,32,0.0,952.9,9.1,45.0,150,52.7,44.1,0,5,7,0,2026-03-28T18:31:41.457208+05:30
Tirupur,Tamil Nadu,11.1085,77.3411,32.8,48,0.0,971.9,9.45,43.2,152,40.0,32.6,0,5,7,1,2026-03-28T18:31:41.457215+05:30
Alappuzha,Kerala,9.4981,76.3388,29.4,79,0.0,1006.9,9.1,31.3,86,32.6,26.5,7,5,4,1,2026-03-28T18:31:41.457222+05:30
Munnar,Kerala,10.0889,77.0595,22.3,90,0.0,856.0,9.7,40.7,82,33.4,28.6,3,5,7,1,2026-03-28T18:31:41.457230+05:30
Silchar,Assam,24.8333,92.7789,21.9,87,0.0,1004.3,4.85,30.2,153,78.5,66.8,3,5,0,1,2026-03-28T18:31:41.457237+05:30
Dibrugarh,Assam,27.4728,94.912,20.0,91,0.0,995.9,4.5,31.0,116,41.2,32.5,3,5,3,1,2026-03-28T18:31:41.457244+05:30
