city,state,latitude,longitude,temp,humidity,rain,pressure,uv_index,wind_gusts,aqi,pm10,pm2_5,no2,co,o3,so2,mosquito_risk,arthritis_risk,migraine_risk,frizz_risk,updated_at
Delhi,Delhi,28.6139,77.209,26.0,79,0.0,978.2,7.8,22.0,229,362.3,151.3,94.9,1350.0,0.0,35.6,7,5,7,1,2026-06-14T03:36:21.360600+05:30
Mumbai,Maharashtra,19.076,72.8777,29.4,78,0.0,1007.5,7.7,51.1,69,51.2,21.5,2.0,118.0,52.0,2.1,7,5,4,1,2026-06-14T03:36:21.360648+05:30
Bangalore,Karnataka,12.9716,77.5946,20.6,98,0.0,911.3,1.75,40.3,48,13.4,9.5,10.9,181.0,38.0,4.3,3,5,3,1,2026-06-14T03:36:21.360664+05:30
Hyderabad,Telangana,17.385,78.4867,26.7,62,0.0,950.8,8.2,42.1,90,53.0,28.9,13.1,160.0,55.0,6.2,7,5,7,1,2026-06-14T03:36:21.360674+05:30
Chennai,Tamil Nadu,13.0827,80.2707,28.2,73,0.0,1005.1,8.45,42.8,57,19.0,16.3,17.6,214.0,47.0,7.0,7,5,4,1,2026-06-14T03:36:21.360683+05:30
Kolkata,West Bengal,22.5726,88.3639,27.3,94,0.0,1000.4,9.0,29.9,115,46.8,42.1,17.6,436.0,61.0,7.3,7,5,4,1,2026-06-14T03:36:21.360690+05:30
Pune,Maharashtra,18.5204,73.8567,24.9,80,0.0,947.3,8.3,52.9,56,24.3,12.9,8.5,106.0,36.0,6.7,3,5,7,1,2026-06-14T03:36:21.360697+05:30
Ahmedabad,Gujarat,23.0225,72.5714,29.7,69,0.0,999.6,8.05,44.6,70,41.3,18.3,4.1,108.0,45.0,3.8,7,5,7,1,2026-06-14T03:36:21.360704+05:30
Jaipur,Rajasthan,26.9124,75.7873,25.9,73,0.0,955.4,8.25,29.9,110,163.9,43.2,7.2,584.0,59.0,4.4,7,5,7,1,2026-06-14T03:36:21.360715+05:30
Lucknow,Uttar Pradesh,26.8467,80.9462,26.8,79,0.0,988.7,8.35,26.3,134,161.6,72.6,63.8,820.0,11.0,15.6,7,5,7,1,2026-06-14T03:36:21.360722+05:30
Kanpur,Uttar Pradesh,26.4499,80.3319,28.5,63,0.0,987.1,8.3,33.8,145,230.5,72.2,64.1,798.0,13.0,13.8,7,5,7,1,2026-06-14T03:36:21.360729+05:30
Chandigarh,Chandigarh,30.7333,76.7794,21.8,83,0.0,964.1,7.85,19.4,98,50.5,38.9,51.5,636.0,0.0,3.6,3,5,7,1,2026-06-14T03:36:21.360736+05:30
Srinagar,Jammu and Kashmir,34.0837,74.7973,12.8,100,0.0,839.2,9.0,24.8,70,32.4,31.4,21.6,590.0,23.0,0.0,3,10,7,0,2026-06-14T03:36:21.360743+05:30
Jammu,Jammu and Kashmir,32.7266,74.857,23.6,67,0.0,968.3,8.6,29.5,83,48.4,39.7,53.4,540.0,0.0,3.2,3,5,7,1,2026-06-14T03:36:21.360750+05:30
Amritsar,Punjab,31.634,74.8723,22.8,83,0.0,976.6,8.45,18.0,100,69.8,50.8,47.2,662.0,15.0,5.8,3,5,7,1,2026-06-14T03:36:21.360757+05:30
Ludhiana,Punjab,30.901,75.8573,23.1,86,0.0,974.5,8.05,20.5,121,78.0,61.7,53.3,544.0,18.0,13.0,3,5,7,1,2026-06-14T03:36:21.360763+05:30
Jalandhar,Punjab,31.326,75.5762,22.5,81,0.0,975.5,8.25,21.2,99,54.6,42.3,41.4,707.0,24.0,4.5,3,5,7,1,2026-06-14T03:36:21.360769+05:30
Dehradun,Uttarakhand,30.6284,78.0322,12.3,97,0.0,824.6,8.3,29.2,55,25.8,14.3,31.2,193.0,2.0,0.1,3,10,7,0,2026-06-14T03:36:21.360775+05:30
Shimla,Himachal Pradesh,31.1048,77.1734,9.4,85,0.0,777.9,8.35,32.4,63,28.9,13.7,23.5,195.0,43.0,0.7,3,10,7,0,2026-06-14T03:36:21.360786+05:30
Manali,Himachal Pradesh,32.2396,77.1887,12.3,71,0.0,813.5,9.75,31.0,43,2.7,2.5,31.7,209.0,84.0,0.0,3,5,7,0,2026-06-14T03:36:21.360793+05:30
Gurgaon,Haryana,28.4595,77.0266,26.3,73,0.0,976.5,7.85,27.0,658,532.7,186.7,114.6,1135.0,5.0,46.4,7,5,7,1,2026-06-14T03:36:21.360800+05:30
Noida,Uttar Pradesh,28.5355,77.391,26.2,80,0.0,979.6,7.85,24.5,658,532.7,186.7,114.6,970.0,5.0,46.4,7,5,7,1,2026-06-14T03:36:21.360809+05:30
Ghaziabad,Uttar Pradesh,28.6692,77.4538,25.5,89,0.0,977.9,7.8,25.9,164,209.1,109.7,73.4,1044.0,4.0,24.0,7,5,7,1,2026-06-14T03:36:21.360818+05:30
Faridabad,Haryana,28.4089,77.3178,26.4,74,0.0,978.9,7.85,26.3,658,532.7,186.7,114.6,1104.0,5.0,46.4,7,5,7,1,2026-06-14T03:36:21.360825+05:30
Meerut,Uttar Pradesh,28.9845,77.7064,25.3,93,0.0,976.9,7.7,30.6,164,209.1,109.7,73.4,745.0,4.0,24.0,7,5,7,1,2026-06-14T03:36:21.360832+05:30
Agra,Uttar Pradesh,27.1767,78.0081,27.0,72,0.0,982.9,8.15,30.2,594,475.0,140.6,92.4,562.0,0.0,25.7,7,5,7,1,2026-06-14T03:36:21.360838+05:30
Varanasi,Uttar Pradesh,25.3176,82.9739,29.1,77,0.0,992.8,8.8,36.4,167,175.6,143.0,61.3,853.0,33.0,24.0,7,5,7,1,2026-06-14T03:36:21.360845+05:30
Prayagraj,Uttar Pradesh,25.4358,81.8463,30.0,75,0.0,991.1,8.7,36.7,163,120.6,108.0,57.8,418.0,12.0,16.9,7,5,7,1,2026-06-14T03:36:21.360868+05:30
Gorakhpur,Uttar Pradesh,26.7606,83.3732,27.2,84,0.0,992.3,8.7,29.5,153,110.8,88.5,41.0,517.0,36.0,11.0,7,5,7,1,2026-06-14T03:36:21.360877+05:30
Bareilly,Uttar Pradesh,28.367,79.4304,25.2,85,0.0,982.0,8.15,29.5,152,129.0,85.4,62.6,563.0,5.0,12.1,7,5,7,1,2026-06-14T03:36:21.360884+05:30
Aligarh,Uttar Pradesh,27.8974,78.088,25.7,78,0.0,980.7,8.0,28.8,260,317.6,129.5,83.7,704.0,0.0,21.3,7,5,7,1,2026-06-14T03:36:21.360890+05:30
Moradabad,Uttar Pradesh,28.8386,78.7733,24.9,87,0.0,979.1,7.95,34.6,142,111.5,75.0,56.3,620.0,6.0,9.5,3,5,7,1,2026-06-14T03:36:21.360897+05:30
Saharanpur,Uttar Pradesh,29.9637,77.546,23.5,94,0.0,971.4,7.55,22.3,121,99.2,66.8,60.2,643.0,3.0,11.9,3,5,7,1,2026-06-14T03:36:21.360904+05:30
Jhansi,Uttar Pradesh,25.4484,78.5685,27.8,73,0.0,973.7,8.5,56.9,112,37.8,23.9,15.6,185.0,38.0,3.8,7,5,7,1,2026-06-14T03:36:24.646648+05:30
Surat,Gujarat,21.1702,72.8311,29.5,77,0.0,1004.9,7.55,53.6,75,51.5,27.2,13.5,223.0,37.0,22.9,7,5,4,1,2026-06-14T03:36:24.646683+05:30
Vadodara,Gujarat,22.3072,73.1812,30.5,66,0.0,1002.0,8.0,46.8,69,37.7,23.2,9.4,110.0,35.0,6.2,3,5,4,1,2026-06-14T03:36:24.646694+05:30
Rajkot,Gujarat,22.3039,70.8022,28.3,77,0.0,992.2,7.55,52.6,70,47.5,20.4,3.4,94.0,48.0,4.1,7,5,7,1,2026-06-14T03:36:24.646703+05:30
Thane,Maharashtra,19.2183,72.9781,29.4,77,0.0,1006.7,7.7,47.5,69,51.2,21.5,2.0,123.0,52.0,2.1,7,5,4,1,2026-06-14T03:36:24.646711+05:30
Nagpur,Maharashtra,21.1458,79.0882,28.1,74,0.0,969.5,8.85,50.0,108,68.9,37.6,17.1,298.0,53.0,11.9,7,5,7,1,2026-06-14T03:36:24.646718+05:30
Nashik,Maharashtra,19.9975,73.7898,24.4,89,0.0,944.2,8.05,55.4,58,34.0,16.2,3.6,104.0,43.0,1.2,3,5,7,1,2026-06-14T03:36:24.646725+05:30
Aurangabad,Maharashtra,19.8762,75.3433,25.8,78,0.0,942.9,8.95,52.6,64,21.8,12.2,7.1,115.0,41.0,6.1,7,5,7,1,2026-06-14T03:36:24.646732+05:30
Solapur,Maharashtra,17.6599,75.9064,27.0,69,0.0,956.1,8.9,47.5,63,24.9,13.4,5.5,120.0,45.0,3.2,7,5,7,1,2026-06-14T03:36:24.646740+05:30
Kolhapur,Maharashtra,16.705,74.2433,24.5,89,0.0,947.5,8.75,54.0,47,14.4,8.7,4.9,117.0,41.0,2.0,3,5,7,1,2026-06-14T03:36:24.646748+05:30
Goa,Goa,15.2993,74.124,26.8,92,0.0,998.1,6.85,33.8,65,43.7,22.8,6.3,223.0,44.0,2.1,7,5,7,1,2026-06-14T03:36:24.646755+05:30
Jodhpur,Rajasthan,26.2389,73.0243,30.8,56,0.0,978.6,8.45,43.6,144,203.0,52.0,5.0,106.0,51.0,2.6,0,5,7,1,2026-06-14T03:36:24.646762+05:30
Udaipur,Rajasthan,24.5854,73.7125,26.3,66,0.0,943.5,8.85,43.2,78,30.2,18.2,3.9,115.0,54.0,2.9,7,5,7,1,2026-06-14T03:36:24.646769+05:30
Kota,Rajasthan,25.2138,75.8648,28.7,63,0.0,974.7,8.4,35.3,100,109.7,49.5,18.2,179.0,37.0,5.5,7,5,7,1,2026-06-14T03:36:24.646776+05:30
Bikaner,Rajasthan,28.0229,73.3119,29.3,62,0.0,976.2,8.5,32.4,154,99.0,48.7,6.9,140.0,44.0,4.2,7,5,7,1,2026-06-14T03:36:24.646783+05:30
Ajmer,Rajasthan,26.4499,74.6399,27.3,63,0.0,950.3,8.35,40.3,99,59.4,30.7,9.8,136.0,48.0,3.7,7,5,7,1,2026-06-14T03:36:24.646790+05:30
Gwalior,Madhya Pradesh,26.2183,78.1828,26.7,74,0.0,978.7,8.3,46.4,153,34.2,22.1,11.6,224.0,46.0,3.7,7,5,7,1,2026-06-14T03:36:24.646796+05:30
Indore,Madhya Pradesh,22.7196,75.8577,23.4,84,0.1,946.0,8.6,50.8,79,35.3,21.3,5.6,158.0,62.0,8.6,6,5,7,1,2026-06-14T03:36:24.646803+05:30
Bhopal,Madhya Pradesh,23.2599,77.4126,27.3,63,0.0,950.6,8.65,43.6,102,71.9,41.0,15.5,214.0,42.0,4.7,7,5,7,1,2026-06-14T03:36:24.646810+05:30
Jabalpur,Madhya Pradesh,23.1815,79.9864,27.9,63,0.0,957.5,8.85,39.2,102,47.0,28.9,13.3,253.0,54.0,3.4,7,5,7,1,2026-06-14T03:36:24.646817+05:30
Ujjain,Madhya Pradesh,23.1765,75.7885,23.4,94,0.5,951.3,8.55,47.2,77,35.2,20.8,5.6,181.0,55.0,8.9,6,5,7,1,2026-06-14T03:36:24.646824+05:30
Visakhapatnam,Andhra Pradesh,17.6868,83.2185,29.2,77,0.0,998.9,8.6,42.8,99,40.9,33.2,22.1,451.0,54.0,31.0,7,5,7,1,2026-06-14T03:36:24.646831+05:30
Vijayawada,Andhra Pradesh,16.5062,80.648,28.5,76,0.0,998.6,9.0,33.5,79,31.4,23.5,11.6,246.0,55.0,5.8,7,5,7,1,2026-06-14T03:36:24.646837+05:30
Guntur,Andhra Pradesh,16.3067,80.4365,28.0,77,0.0,1000.1,9.0,32.4,77,31.2,22.9,12.8,185.0,52.0,5.8,7,5,4,1,2026-06-14T03:36:24.646845+05:30
Nellore,Andhra Pradesh,14.4426,79.9865,28.1,73,0.0,1003.5,6.05,43.9,59,23.7,15.4,6.4,143.0,66.0,2.4,7,5,4,1,2026-06-14T03:36:24.646870+05:30
Kurnool,Andhra Pradesh,15.8281,78.0373,26.0,78,0.0,975.2,6.25,44.6,76,20.7,14.2,8.2,156.0,43.0,3.0,7,5,7,1,2026-06-14T03:36:24.646879+05:30
Kakinada,Andhra Pradesh,16.9891,82.2475,28.8,75,0.0,1003.1,8.95,44.6,77,37.3,26.2,6.6,394.0,86.0,5.5,7,5,4,1,2026-06-14T03:36:24.646886+05:30
Tirupati,Andhra Pradesh,13.6288,79.4192,27.0,73,0.0,989.4,8.7,34.9,56,17.1,14.4,16.9,140.0,33.0,2.5,7,5,7,1,2026-06-14T03:36:24.646893+05:30
Warangal,Telangana,17.9689,79.5941,28.1,63,0.0,974.9,8.8,37.4,109,67.5,45.2,17.7,246.0,44.0,5.9,7,5,7,1,2026-06-14T03:36:24.646901+05:30
Nizamabad,Telangana,18.6725,78.0941,29.2,51,0.0,962.1,8.25,54.0,102,51.3,33.2,13.3,202.0,57.0,5.1,4,5,7,1,2026-06-14T03:36:24.646908+05:30
Mysore,Karnataka,12.2958,76.6396,22.3,91,0.0,928.8,7.85,38.9,38,14.9,9.1,8.0,125.0,38.0,2.0,3,5,7,1,2026-06-14T03:36:24.646915+05:30
Mangalore,Karnataka,12.9141,74.856,24.2,99,0.1,1008.2,8.7,29.5,53,33.3,16.0,6.0,389.0,41.0,2.8,6,0,4,1,2026-06-14T03:36:24.646922+05:30
Hubli-Dharwad,Karnataka,15.3647,75.124,23.5,93,0.0,940.6,5.1,51.8,42,21.9,11.5,4.2,114.0,41.0,1.7,3,5,3,1,2026-06-14T03:36:24.646929+05:30
Belgaum,Karnataka,15.8497,74.4977,22.9,94,0.0,925.3,5.8,48.2,42,15.1,8.0,2.8,110.0,46.0,1.1,3,5,3,1,2026-06-14T03:36:27.874723+05:30
Coimbatore,Tamil Nadu,11.0168,76.9558,23.2,96,0.0,961.8,8.15,44.6,32,18.7,10.1,6.5,159.0,38.0,2.7,3,5,7,1,2026-06-14T03:36:27.874757+05:30
Madurai,Tamil Nadu,9.9252,78.1198,27.7,64,0.0,992.8,8.25,47.2,57,27.6,23.6,36.3,154.0,1.0,5.8,7,5,7,1,2026-06-14T03:36:27.874769+05:30
Trichy,Tamil Nadu,10.7905,78.7047,28.2,65,0.0,999.3,7.25,50.8,53,23.7,13.3,4.9,118.0,48.0,2.7,7,5,7,1,2026-06-14T03:36:27.874778+05:30
Salem,Tamil Nadu,11.6643,78.146,22.6,96,0.2,977.9,8.85,32.8,56,26.2,19.2,20.8,378.0,28.0,6.1,6,5,7,1,2026-06-14T03:36:27.874786+05:30
Tirunelveli,Tamil Nadu,8.7139,77.7567,28.0,71,0.0,1003.5,8.65,45.4,38,18.5,11.6,8.4,154.0,37.0,2.7,7,5,4,1,2026-06-14T03:36:27.874795+05:30
Vellore,Tamil Nadu,12.9165,79.1325,26.4,76,0.0,983.3,8.3,46.1,53,18.0,14.5,17.7,181.0,34.0,4.6,7,5,7,1,2026-06-14T03:36:27.874803+05:30
Erode,Tamil Nadu,11.341,77.7172,25.4,82,0.0,989.3,8.3,42.1,51,23.1,15.2,13.0,142.0,34.0,3.4,7,5,7,1,2026-06-14T03:36:27.874811+05:30
Kochi,Kerala,9.9312,76.2673,24.9,95,0.2,1010.5,4.95,37.1,68,21.7,15.2,13.7,206.0,29.0,2.6,6,0,0,1,2026-06-14T03:36:27.874819+05:30
Thiruvananthapuram,Kerala,8.5241,76.9366,25.1,92,0.1,1009.9,8.2,43.9,33,22.8,10.6,1.9,171.0,56.0,0.9,10,0,4,1,2026-06-14T03:36:27.874826+05:30
Kozhikode,Kerala,11.2588,75.7804,23.4,98,0.5,1010.0,7.8,32.8,37,20.4,7.9,1.1,316.0,65.0,0.9,6,0,4,1,2026-06-14T03:36:27.874834+05:30
Thrissur,Kerala,10.5276,76.2144,24.6,99,0.2,1008.8,7.7,33.8,70,21.1,14.2,10.9,186.0,31.0,2.8,6,0,4,1,2026-06-14T03:36:27.874841+05:30
Kannur,Kerala,11.8745,75.3704,23.3,98,0.1,1009.1,7.85,34.6,50,17.8,8.1,3.6,343.0,49.0,1.4,6,0,4,1,2026-06-14T03:36:27.874866+05:30
Patna,Bihar,25.5941,85.1376,27.4,78,0.0,995.7,8.65,27.7,169,156.9,140.6,59.2,657.0,22.0,23.5,7,5,7,1,2026-06-14T03:36:27.874873+05:30
Gaya,Bihar,24.7914,85.0002,27.2,79,0.0,989.3,8.95,30.2,167,109.4,97.6,30.4,399.0,41.0,10.8,7,5,7,1,2026-06-14T03:36:27.874881+05:30
Muzaffarpur,Bihar,26.1209,85.3647,27.2,78,0.0,995.6,8.6,24.8,168,142.5,127.6,47.7,601.0,33.0,18.8,7,5,7,1,2026-06-14T03:36:27.874888+05:30
Bhagalpur,Bihar,25.2425,87.0117,26.8,91,0.0,996.4,8.85,22.0,158,67.1,64.3,15.5,385.0,80.0,24.7,7,5,7,1,2026-06-14T03:36:27.874895+05:30
Ranchi,Jharkhand,23.3441,85.3096,24.3,80,0.0,933.4,8.6,29.2,142,58.2,50.6,15.1,274.0,68.0,8.7,3,5,7,1,2026-06-14T03:36:27.874902+05:30
Jamshedpur,Jharkhand,22.8046,86.2029,27.0,87,0.0,986.4,9.1,27.0,156,89.9,80.1,32.7,404.0,46.0,24.8,7,5,7,1,2026-06-14T03:36:27.874909+05:30
Dhanbad,Jharkhand,23.7957,86.4304,26.2,87,0.0,975.2,9.1,20.9,170,136.4,125.7,71.1,285.0,13.0,211.7,7,5,7,1,2026-06-14T03:36:27.874916+05:30
Bokaro,Jharkhand,23.6693,86.1511,26.2,87,0.0,979.1,8.9,29.2,163,117.6,106.4,49.4,343.0,28.0,155.3,7,5,7,1,2026-06-14T03:36:27.874923+05:30
Bhubaneswar,Odisha,20.2961,85.8245,28.9,94,0.0,997.4,9.05,31.3,122,50.2,44.8,16.9,342.0,86.0,9.3,7,5,7,1,2026-06-14T03:36:27.874929+05:30
Cuttack,Odisha,20.4625,85.8828,29.0,94,0.0,999.2,9.15,28.8,122,50.2,44.8,16.9,423.0,86.0,9.3,7,5,7,1,2026-06-14T03:36:27.874936+05:30
Rourkela,Odisha,22.2604,84.8536,27.9,77,0.0,980.4,8.75,29.5,148,87.1,80.1,31.8,615.0,56.0,19.7,7,5,7,1,2026-06-14T03:36:27.874943+05:30
Raipur,Chhattisgarh,21.2514,81.6296,29.7,59,0.0,970.4,8.95,54.4,133,79.4,50.1,38.7,579.0,40.0,54.8,4,5,7,1,2026-06-14T03:36:27.874950+05:30
Bhilai,Chhattisgarh,21.1938,81.3509,28.4,67,0.0,970.8,8.95,54.4,125,77.1,45.6,25.3,676.0,57.0,37.4,7,5,7,1,2026-06-14T03:36:27.874956+05:30
Guwahati,Assam,26.1158,91.7086,24.5,100,0.0,997.6,8.8,29.9,75,32.2,27.4,11.2,365.0,42.0,1.4,3,5,7,1,2026-06-14T03:36:27.874963+05:30
Agartala,Tripura,23.8315,91.2868,25.9,93,0.0,1002.0,8.65,32.4,75,20.5,17.3,13.2,239.0,49.0,2.0,7,5,4,1,2026-06-14T03:36:27.874971+05:30
Shillong,Meghalaya,25.5788,91.8933,18.4,98,0.0,853.7,7.4,22.7,54,16.9,11.8,4.3,223.0,78.0,1.7,3,10,7,1,2026-06-14T03:36:27.874978+05:30
Imphal,Manipur,24.817,93.9368,21.2,99,0.0,919.6,8.55,31.3,56,31.0,27.7,12.2,347.0,45.0,2.8,3,5,7,1,2026-06-14T03:36:27.874984+05:30
Aizawl,Mizoram,23.7271,92.7176,19.1,96,0.0,888.9,8.95,28.8,48,13.3,9.8,3.8,170.0,41.0,0.6,3,10,7,1,2026-06-14T03:36:27.874991+05:30
Kohima,Nagaland,25.6701,94.1077,19.1,91,0.0,852.3,8.7,28.1,29,12.8,11.1,5.3,224.0,53.0,0.7,3,10,7,1,2026-06-14T03:36:27.874998+05:30
Gangtok,Sikkim,27.3314,88.6138,15.9,96,0.1,833.3,9.2,39.6,73,24.2,17.3,7.3,497.0,106.0,1.8,6,10,7,0,2026-06-14T03:36:27.875004+05:30
Siliguri,West Bengal,26.7271,88.3953,23.6,99,0.0,988.7,8.75,31.7,137,58.7,39.9,7.5,399.0,118.0,3.1,3,5,7,1,2026-06-14T03:36:31.117085+05:30
Durgapur,West Bengal,23.5204,87.3119,26.9,91,0.0,990.1,8.9,29.5,160,109.9,103.6,45.8,1224.0,38.0,55.0,7,5,7,1,2026-06-14T03:36:31.117120+05:30
Asansol,West Bengal,23.6739,86.9524,26.9,86,0.0,988.7,8.9,23.8,160,104.5,96.6,50.4,673.0,30.0,67.7,7,5,7,1,2026-06-14T03:36:31.117132+05:30
Pondicherry,Puducherry,11.9139,79.8145,26.7,83,0.1,1007.1,8.4,40.7,57,22.9,19.7,19.1,265.0,44.0,7.9,10,5,4,1,2026-06-14T03:36:31.117142+05:30
Port Blair,Andaman and Nicobar Islands,11.6234,92.7265,27.2,86,0.0,1007.0,7.8,49.3,21,15.1,8.7,0.2,86.0,43.0,0.4,7,5,4,1,2026-06-14T03:36:31.117150+05:30
Haridwar,Uttarakhand,29.9457,78.1642,22.4,90,0.0,969.3,7.65,25.2,96,71.5,45.4,40.8,323.0,22.0,6.3,3,5,7,1,2026-06-14T03:36:31.117158+05:30
Rishikesh,Uttarakhand,30.0869,78.2676,21.1,83,0.0,962.0,7.75,27.7,72,62.6,26.8,14.7,343.0,92.0,4.5,3,5,7,1,2026-06-14T03:36:31.117166+05:30
Nainital,Uttarakhand,29.3919,79.4542,14.0,77,0.0,801.0,8.6,35.6,93,48.7,32.0,31.9,254.0,35.0,2.6,3,5,7,0,2026-06-14T03:36:31.117173+05:30
Mussoorie,Uttarakhand,30.4599,78.0664,15.1,64,0.0,799.2,8.15,43.6,75,50.6,28.9,48.5,189.0,13.0,4.4,3,5,7,0,2026-06-14T03:36:31.117180+05:30
Dharamshala,Himachal Pradesh,32.219,76.3234,19.1,51,0.0,865.1,8.5,43.9,28,8.1,6.9,13.4,242.0,41.0,0.0,0,5,7,0,2026-06-14T03:36:31.117188+05:30
Dalhousie,Himachal Pradesh,32.5387,75.971,10.4,80,0.0,798.0,8.75,40.0,69,22.1,19.3,40.3,210.0,9.0,1.1,3,5,7,0,2026-06-14T03:36:31.117196+05:30
Patiala,Punjab,30.3398,76.3869,24.0,79,0.0,973.9,7.7,22.0,150,82.2,59.5,36.7,428.0,41.0,15.0,3,5,7,1,2026-06-14T03:36:31.117203+05:30
Bhatinda,Punjab,30.211,74.9455,26.0,78,0.0,979.7,8.35,19.4,187,79.2,42.5,37.0,376.0,30.0,8.9,7,5,7,1,2026-06-14T03:36:31.117210+05:30
Rohtak,Haryana,28.8955,76.6066,26.2,84,0.0,977.0,7.8,29.9,554,583.0,182.5,108.6,644.0,0.0,25.8,7,5,7,1,2026-06-14T03:36:31.117216+05:30
Panipat,Haryana,29.3909,76.9635,24.9,94,0.0,975.9,7.65,24.5,687,308.3,113.6,53.4,914.0,8.0,9.8,3,5,7,1,2026-06-14T03:36:31.117224+05:30
Mathura,Uttar Pradesh,27.4924,77.6737,26.2,77,0.0,981.9,8.1,24.5,474,462.9,133.6,89.1,747.0,0.0,13.7,7,5,7,1,2026-06-14T03:36:31.117231+05:30
Vrindavan,Uttar Pradesh,27.5823,77.7027,26.4,74,0.0,982.3,8.1,26.3,474,462.9,133.6,89.1,700.0,0.0,13.7,7,5,7,1,2026-06-14T03:36:31.117238+05:30
Ayodhya,Uttar Pradesh,26.7922,82.1998,27.1,86,0.0,990.4,8.4,29.9,141,111.3,82.7,54.5,622.0,18.0,10.9,7,5,7,1,2026-06-14T03:36:31.117244+05:30
Ratlam,Madhya Pradesh,23.3315,75.0367,25.0,83,0.0,952.5,8.5,47.9,75,34.5,20.3,6.4,160.0,45.0,9.8,7,5,7,1,2026-06-14T03:36:31.117252+05:30
Sagar,Madhya Pradesh,23.8388,78.7378,27.0,64,0.0,946.6,8.75,35.3,79,32.0,22.9,19.3,162.0,39.0,3.4,7,5,7,1,2026-06-14T03:36:31.117258+05:30
Satna,Madhya Pradesh,24.6005,80.8322,27.0,78,0.0,966.8,8.8,37.1,103,51.5,35.6,18.6,196.0,55.0,4.5,7,5,7,1,2026-06-14T03:36:31.117265+05:30
Akola,Maharashtra,20.7002,77.0082,30.6,56,0.0,972.8,8.8,50.8,77,28.0,16.1,7.3,126.0,60.0,9.1,0,5,7,1,2026-06-14T03:36:31.117273+05:30
Amravati,Maharashtra,20.9374,77.7796,30.2,52,0.0,964.6,8.85,50.8,79,26.5,16.6,6.8,149.0,73.0,10.1,0,5,7,1,2026-06-14T03:36:31.117280+05:30
Latur,Maharashtra,18.4088,76.5604,26.2,69,0.0,938.3,8.9,42.8,80,30.3,17.5,4.8,132.0,72.0,7.2,7,5,7,1,2026-06-14T03:36:31.117288+05:30
Nanded,Maharashtra,19.1383,77.3091,30.3,51,0.0,966.2,8.9,43.6,92,27.1,17.7,5.5,137.0,66.0,4.0,0,5,7,1,2026-06-14T03:36:31.117295+05:30
Gulbarga,Karnataka,17.3297,76.8343,27.2,69,0.0,957.1,8.85,42.8,69,20.2,12.7,4.7,130.0,51.0,3.1,7,5,7,1,2026-06-14T03:36:31.117301+05:30
Bidar,Karnataka,17.9104,77.5199,27.1,63,0.0,933.7,8.95,41.4,96,43.1,27.0,10.4,136.0,69.0,6.0,7,5,7,1,2026-06-14T03:36:31.117308+05:30
Hospet,Karnataka,15.2689,76.3909,24.4,89,0.0,955.5,7.7,49.7,47,19.3,10.9,5.6,127.0,41.0,1.9,3,5,7,1,2026-06-14T03:36:31.117315+05:30
Tirupur,Tamil Nadu,11.1085,77.3411,24.2,89,0.0,975.5,8.35,46.8,51,21.5,15.2,15.4,128.0,29.0,3.8,3,5,7,1,2026-06-14T03:36:31.117321+05:30
Alappuzha,Kerala,9.4981,76.3388,26.1,91,0.0,1010.4,7.95,37.4,55,19.1,10.6,9.1,146.0,45.0,2.1,7,0,4,1,2026-06-14T03:36:31.117328+05:30
Munnar,Kerala,10.0889,77.0595,16.4,97,0.0,857.0,8.1,35.3,42,20.9,11.6,6.6,94.0,29.0,1.4,3,10,7,0,2026-06-14T03:36:31.117335+05:30
Silchar,Assam,24.8333,92.7789,24.8,98,0.1,1001.5,8.3,29.9,65,33.8,28.3,9.8,243.0,79.0,3.9,6,5,4,1,2026-06-14T03:36:31.117341+05:30
Dibrugarh,Assam,27.4728,94.912,24.4,98,0.1,991.5,7.25,29.9,78,19.8,19.4,11.4,241.0,42.0,1.2,6,5,7,1,2026-06-14T03:36:31.117348+05:30
