city,state,latitude,longitude,temp,humidity,rain,pressure,uv_index,wind_gusts,aqi,pm10,pm2_5,mosquito_risk,arthritis_risk,migraine_risk,frizz_risk,updated_at
Delhi,Delhi,28.6139,77.209,22.3,72,0.0,985.2,5.95,14.4,164,244.9,109.4,3,5,3,1,2026-03-07T02:06:01.662578+05:30
Mumbai,Maharashtra,19.076,72.8777,26.7,78,0.0,1008.7,7.5,25.6,106,30.7,27.3,7,0,4,1,2026-03-07T02:06:01.662621+05:30
Bangalore,Karnataka,12.9716,77.5946,21.0,64,0.0,910.6,9.2,23.0,110,38.9,37.5,3,5,7,0,2026-03-07T02:06:01.662637+05:30
Hyderabad,Telangana,17.385,78.4867,23.1,50,0.0,952.7,8.5,25.9,97,61.0,52.2,0,5,7,0,2026-03-07T02:06:01.662647+05:30
Chennai,Tamil Nadu,13.0827,80.2707,24.5,94,0.0,1007.2,8.9,36.4,77,29.7,24.0,3,5,4,1,2026-03-07T02:06:01.662655+05:30
Kolkata,West Bengal,22.5726,88.3639,22.9,95,0.0,1008.3,7.85,16.6,153,51.1,41.7,3,0,4,1,2026-03-07T02:06:01.662664+05:30
Pune,Maharashtra,18.5204,73.8567,20.4,67,0.0,948.0,8.05,25.2,93,53.8,52.3,3,5,7,0,2026-03-07T02:06:01.662676+05:30
Ahmedabad,Gujarat,23.0225,72.5714,22.5,52,0.0,1003.5,7.3,16.2,85,71.0,67.8,0,5,4,0,2026-03-07T02:06:01.662683+05:30
Jaipur,Rajasthan,26.9124,75.7873,24.8,32,0.0,961.5,6.75,17.6,88,99.9,43.2,0,5,7,0,2026-03-07T02:06:01.662691+05:30
Lucknow,Uttar Pradesh,26.8467,80.9462,21.9,76,0.0,996.0,6.45,16.2,165,95.9,75.4,3,5,7,1,2026-03-07T02:06:01.662699+05:30
Kanpur,Uttar Pradesh,26.4499,80.3319,21.7,79,0.0,994.2,6.5,13.3,167,117.3,71.7,3,5,7,1,2026-03-07T02:06:01.662706+05:30
Chandigarh,Chandigarh,30.7333,76.7794,20.3,82,0.0,970.9,5.9,22.3,141,76.8,66.1,3,5,3,1,2026-03-07T02:06:01.662713+05:30
Srinagar,Jammu and Kashmir,34.0837,74.7973,10.0,73,0.0,842.8,5.6,16.6,137,94.8,77.5,3,5,3,0,2026-03-07T02:06:01.662720+05:30
Jammu,Jammu and Kashmir,32.7266,74.857,20.0,79,0.0,974.6,5.55,13.0,129,50.2,45.2,3,5,3,1,2026-03-07T02:06:01.662727+05:30
Amritsar,Punjab,31.634,74.8723,20.5,75,0.0,982.2,6.2,17.6,159,68.0,65.7,3,5,7,0,2026-03-07T02:06:01.662734+05:30
Ludhiana,Punjab,30.901,75.8573,20.9,79,0.0,980.7,6.1,18.4,164,149.5,101.3,3,5,7,1,2026-03-07T02:06:01.662741+05:30
Jalandhar,Punjab,31.326,75.5762,20.3,85,0.0,981.7,5.9,19.4,162,116.9,99.2,3,5,3,1,2026-03-07T02:06:01.662751+05:30
Dehradun,Uttarakhand,30.6284,78.0322,12.8,100,0.0,830.7,6.2,26.6,110,66.1,51.7,3,10,7,0,2026-03-07T02:06:01.662758+05:30
Shimla,Himachal Pradesh,31.1048,77.1734,13.2,76,0.0,785.7,6.3,35.6,89,67.5,53.6,3,5,7,0,2026-03-07T02:06:01.662766+05:30
Manali,Himachal Pradesh,32.2396,77.1887,17.4,23,0.0,822.9,7.15,37.8,77,24.3,16.4,0,5,7,1,2026-03-07T02:06:01.662773+05:30
Gurgaon,Haryana,28.4595,77.0266,19.9,64,0.0,983.4,6.05,9.7,332,295.2,121.5,3,5,7,0,2026-03-07T02:06:01.662780+05:30
Noida,Uttar Pradesh,28.5355,77.391,21.3,81,0.0,986.9,5.95,13.7,332,295.2,121.5,3,5,3,1,2026-03-07T02:06:01.662786+05:30
Ghaziabad,Uttar Pradesh,28.6692,77.4538,20.6,85,0.0,985.0,5.95,14.0,170,174.2,111.8,3,5,3,1,2026-03-07T02:06:01.662793+05:30
Faridabad,Haryana,28.4089,77.3178,20.2,66,0.0,985.9,6.0,12.2,332,295.2,121.5,3,5,3,0,2026-03-07T02:06:01.662800+05:30
Meerut,Uttar Pradesh,28.9845,77.7064,20.5,91,0.0,983.9,5.8,16.2,170,174.2,111.8,3,5,3,1,2026-03-07T02:06:01.662808+05:30
Agra,Uttar Pradesh,27.1767,78.0081,20.1,68,0.0,989.9,6.3,13.3,198,314.8,88.9,3,5,7,0,2026-03-07T02:06:01.662815+05:30
Varanasi,Uttar Pradesh,25.3176,82.9739,20.6,87,0.0,999.9,7.15,19.4,168,164.8,137.8,3,5,7,1,2026-03-07T02:06:01.662828+05:30
Prayagraj,Uttar Pradesh,25.4358,81.8463,21.9,76,0.0,998.3,7.0,15.1,168,126.2,95.9,3,5,7,1,2026-03-07T02:06:01.662835+05:30
Gorakhpur,Uttar Pradesh,26.7606,83.3732,20.7,83,0.0,999.8,6.85,9.0,165,99.9,86.8,3,5,7,1,2026-03-07T02:06:01.662841+05:30
Bareilly,Uttar Pradesh,28.367,79.4304,20.4,86,0.0,989.5,6.15,11.5,166,89.4,75.9,3,5,7,1,2026-03-07T02:06:01.662848+05:30
Aligarh,Uttar Pradesh,27.8974,78.088,19.6,89,0.0,987.7,6.05,11.9,182,188.1,107.8,3,10,7,1,2026-03-07T02:06:01.662854+05:30
Moradabad,Uttar Pradesh,28.8386,78.7733,20.2,87,0.0,986.4,5.95,14.4,168,99.7,81.5,3,5,3,1,2026-03-07T02:06:01.662862+05:30
Saharanpur,Uttar Pradesh,29.9637,77.546,20.7,86,0.0,978.4,5.6,18.4,163,88.2,80.6,3,5,3,1,2026-03-07T02:06:01.662868+05:30
Jhansi,Uttar Pradesh,25.4484,78.5685,20.5,51,0.0,979.6,6.95,26.6,78,84.5,37.1,0,5,7,0,2026-03-07T02:06:04.912017+05:30
Surat,Gujarat,21.1702,72.8311,24.0,83,0.0,1007.7,7.2,25.2,136,69.8,68.2,3,5,4,1,2026-03-07T02:06:04.912048+05:30
Vadodara,Gujarat,22.3072,73.1812,24.6,63,0.0,1005.6,7.3,18.0,113,78.9,77.3,3,5,4,1,2026-03-07T02:06:04.912057+05:30
Rajkot,Gujarat,22.3039,70.8022,20.3,87,0.0,996.1,7.15,17.6,57,50.1,19.9,3,5,7,1,2026-03-07T02:06:04.912065+05:30
Thane,Maharashtra,19.2183,72.9781,23.9,78,0.0,1008.3,7.5,34.2,106,30.7,27.3,3,0,4,1,2026-03-07T02:06:04.912072+05:30
Nagpur,Maharashtra,21.1458,79.0882,23.8,40,0.0,973.3,7.85,18.7,61,29.1,18.9,0,5,7,0,2026-03-07T02:06:04.912079+05:30
Nashik,Maharashtra,19.9975,73.7898,22.1,56,0.0,945.8,7.65,31.3,83,41.3,40.4,0,5,7,0,2026-03-07T02:06:04.912085+05:30
Aurangabad,Maharashtra,19.8762,75.3433,22.3,47,0.0,943.9,8.2,22.0,73,40.7,37.8,0,5,7,0,2026-03-07T02:06:04.912092+05:30
Solapur,Maharashtra,17.6599,75.9064,23.4,53,0.0,956.2,8.4,16.2,66,25.2,21.8,0,5,7,0,2026-03-07T02:06:04.912099+05:30
Kolhapur,Maharashtra,16.705,74.2433,17.9,62,0.0,946.8,8.55,35.6,138,68.2,67.3,3,5,7,0,2026-03-07T02:06:04.912106+05:30
Goa,Goa,15.2993,74.124,25.4,91,0.0,997.7,8.6,31.7,153,57.9,54.8,7,5,7,1,2026-03-07T02:06:04.912113+05:30
Jodhpur,Rajasthan,26.2389,73.0243,24.0,41,0.0,984.6,7.0,17.6,61,74.7,21.4,0,5,7,0,2026-03-07T02:06:04.912120+05:30
Udaipur,Rajasthan,24.5854,73.7125,18.7,65,0.0,947.8,7.65,19.1,45,19.7,16.6,3,5,7,0,2026-03-07T02:06:04.912127+05:30
Kota,Rajasthan,25.2138,75.8648,19.6,66,0.0,980.0,7.05,13.7,66,49.4,33.2,3,5,7,0,2026-03-07T02:06:04.912133+05:30
Bikaner,Rajasthan,28.0229,73.3119,22.3,41,0.0,983.1,6.75,16.6,55,26.7,12.7,0,5,7,0,2026-03-07T02:06:04.912140+05:30
Ajmer,Rajasthan,26.4499,74.6399,21.9,38,0.0,956.0,7.0,18.4,52,22.5,19.0,0,5,7,0,2026-03-07T02:06:04.912147+05:30
Gwalior,Madhya Pradesh,26.2183,78.1828,20.3,65,0.0,985.0,6.65,19.4,99,144.4,47.0,3,5,7,0,2026-03-07T02:06:04.912153+05:30
Indore,Madhya Pradesh,22.7196,75.8577,18.7,65,0.0,948.5,7.6,17.6,68,31.4,29.8,3,5,7,0,2026-03-07T02:06:04.912160+05:30
Bhopal,Madhya Pradesh,23.2599,77.4126,21.4,45,0.0,954.2,7.45,19.8,75,42.4,37.1,0,5,7,0,2026-03-07T02:06:04.912166+05:30
Jabalpur,Madhya Pradesh,23.1815,79.9864,21.7,49,0.0,962.2,7.55,25.6,72,65.7,30.0,0,5,7,0,2026-03-07T02:06:04.912172+05:30
Ujjain,Madhya Pradesh,23.1765,75.7885,20.2,59,0.0,954.5,7.5,14.0,71,51.5,50.2,0,5,7,0,2026-03-07T02:06:04.912179+05:30
Visakhapatnam,Andhra Pradesh,17.6868,83.2185,25.7,92,0.0,1004.2,8.0,37.4,120,40.5,36.2,7,5,4,1,2026-03-07T02:06:04.912186+05:30
Vijayawada,Andhra Pradesh,16.5062,80.648,23.8,89,0.0,1002.0,8.55,27.7,109,42.0,39.8,3,5,4,1,2026-03-07T02:06:04.912193+05:30
Guntur,Andhra Pradesh,16.3067,80.4365,23.9,84,0.0,1003.0,8.6,32.4,97,38.8,37.0,3,5,4,1,2026-03-07T02:06:04.912199+05:30
Nellore,Andhra Pradesh,14.4426,79.9865,23.8,87,0.0,1005.2,8.75,34.6,84,31.8,30.4,3,5,4,1,2026-03-07T02:06:04.912206+05:30
Kurnool,Andhra Pradesh,15.8281,78.0373,26.5,39,0.0,975.7,8.55,24.8,65,20.8,16.1,4,5,7,0,2026-03-07T02:06:04.912214+05:30
Kakinada,Andhra Pradesh,16.9891,82.2475,23.7,100,0.0,1007.6,8.5,31.3,93,35.9,30.2,3,5,4,1,2026-03-07T02:06:04.912220+05:30
Tirupati,Andhra Pradesh,13.6288,79.4192,23.0,75,0.0,991.6,8.9,29.5,110,60.8,59.5,3,5,7,1,2026-03-07T02:06:04.912227+05:30
Warangal,Telangana,17.9689,79.5941,25.6,44,0.0,977.6,8.3,22.3,78,32.6,26.4,4,5,7,0,2026-03-07T02:06:04.912233+05:30
Nizamabad,Telangana,18.6725,78.0941,20.6,63,0.0,963.9,8.2,23.4,88,46.7,36.4,3,5,7,0,2026-03-07T02:06:04.912239+05:30
Mysore,Karnataka,12.2958,76.6396,21.9,92,0.0,927.7,9.2,40.0,121,36.7,36.2,3,5,7,1,2026-03-07T02:06:04.912246+05:30
Mangalore,Karnataka,12.9141,74.856,28.6,77,0.0,1006.5,8.85,25.9,127,54.7,49.7,7,5,4,1,2026-03-07T02:06:04.912252+05:30
Hubli-Dharwad,Karnataka,15.3647,75.124,20.4,87,0.0,939.8,8.8,25.9,93,52.0,51.0,3,5,7,1,2026-03-07T02:06:04.912259+05:30
Belgaum,Karnataka,15.8497,74.4977,21.2,71,0.0,924.7,8.8,38.5,106,54.1,52.5,3,5,7,0,2026-03-07T02:06:08.162216+05:30
Coimbatore,Tamil Nadu,11.0168,76.9558,23.5,89,0.0,961.5,9.2,39.6,107,27.1,26.3,3,5,7,1,2026-03-07T02:06:08.162250+05:30
Madurai,Tamil Nadu,9.9252,78.1198,24.6,85,0.0,993.0,9.15,30.2,89,31.4,28.5,3,5,7,1,2026-03-07T02:06:08.162262+05:30
Trichy,Tamil Nadu,10.7905,78.7047,24.1,85,0.0,999.8,9.05,26.3,82,29.6,26.8,3,5,7,1,2026-03-07T02:06:08.162272+05:30
Salem,Tamil Nadu,11.6643,78.146,25.7,72,0.0,977.4,9.1,19.4,104,33.2,31.9,7,5,7,1,2026-03-07T02:06:08.162281+05:30
Tirunelveli,Tamil Nadu,8.7139,77.7567,24.5,82,0.0,1003.0,9.15,46.8,96,34.8,33.9,3,5,4,1,2026-03-07T02:06:08.162290+05:30
Vellore,Tamil Nadu,12.9165,79.1325,23.0,76,0.0,984.6,9.0,38.5,121,66.8,65.0,3,5,7,1,2026-03-07T02:06:08.162298+05:30
Erode,Tamil Nadu,11.341,77.7172,25.8,78,0.0,988.8,9.1,20.5,97,36.8,35.5,7,5,7,1,2026-03-07T02:06:08.162306+05:30
Kochi,Kerala,9.9312,76.2673,27.2,84,0.0,1008.7,8.65,29.2,129,57.5,56.6,7,0,4,1,2026-03-07T02:06:08.162315+05:30
Thiruvananthapuram,Kerala,8.5241,76.9366,26.9,84,0.0,1008.1,9.05,33.1,82,29.7,26.7,7,0,4,1,2026-03-07T02:06:08.162324+05:30
Kozhikode,Kerala,11.2588,75.7804,28.1,80,0.0,1007.5,8.9,26.3,108,42.1,38.9,7,5,4,1,2026-03-07T02:06:08.162332+05:30
Thrissur,Kerala,10.5276,76.2144,26.1,90,0.0,1007.0,8.95,31.7,122,50.2,48.4,7,5,4,1,2026-03-07T02:06:08.162341+05:30
Kannur,Kerala,11.8745,75.3704,27.6,83,0.0,1006.8,8.9,31.3,116,53.9,51.1,7,5,4,1,2026-03-07T02:06:08.162350+05:30
Patna,Bihar,25.5941,85.1376,24.3,71,0.0,1002.9,7.3,22.0,163,73.3,68.2,3,5,4,1,2026-03-07T02:06:08.162358+05:30
Gaya,Bihar,24.7914,85.0002,21.7,81,0.0,995.8,7.4,24.5,157,60.3,55.9,3,5,7,1,2026-03-07T02:06:08.162366+05:30
Muzaffarpur,Bihar,26.1209,85.3647,21.8,79,0.0,1003.0,7.25,16.2,166,93.8,86.8,3,5,4,1,2026-03-07T02:06:08.162374+05:30
Bhagalpur,Bihar,25.2425,87.0117,22.3,78,0.0,1003.6,7.3,14.8,159,82.4,72.2,3,5,4,1,2026-03-07T02:06:08.162381+05:30
Ranchi,Jharkhand,23.3441,85.3096,20.5,77,0.0,939.0,8.0,26.6,151,57.4,43.1,3,5,7,1,2026-03-07T02:06:08.162389+05:30
Jamshedpur,Jharkhand,22.8046,86.2029,24.0,82,0.0,992.8,7.9,26.3,146,54.0,39.0,3,5,7,1,2026-03-07T02:06:08.162396+05:30
Dhanbad,Jharkhand,23.7957,86.4304,24.7,65,0.0,982.3,7.8,19.8,167,76.8,65.7,3,5,7,1,2026-03-07T02:06:08.162405+05:30
Bokaro,Jharkhand,23.6693,86.1511,23.8,70,0.0,986.4,7.8,18.7,170,83.8,71.5,3,5,7,1,2026-03-07T02:06:08.162412+05:30
Bhubaneswar,Odisha,20.2961,85.8245,24.7,91,0.0,1004.2,8.25,31.7,134,53.6,48.1,3,5,4,1,2026-03-07T02:06:08.162421+05:30
Cuttack,Odisha,20.4625,85.8828,24.9,91,0.0,1006.3,8.25,34.6,134,53.6,48.1,3,5,4,1,2026-03-07T02:06:08.162428+05:30
Rourkela,Odisha,22.2604,84.8536,24.8,75,0.0,986.3,7.85,17.6,151,63.3,54.2,3,5,7,1,2026-03-07T02:06:08.162436+05:30
Raipur,Chhattisgarh,21.2514,81.6296,23.6,47,0.0,974.9,7.95,20.9,108,98.0,69.6,0,5,7,0,2026-03-07T02:06:08.162444+05:30
Bhilai,Chhattisgarh,21.1938,81.3509,22.6,49,0.0,975.2,7.95,19.8,95,62.9,44.1,0,5,7,0,2026-03-07T02:06:08.162451+05:30
Guwahati,Assam,26.1158,91.7086,22.1,79,0.0,1004.0,7.25,17.6,153,56.6,52.5,3,5,4,1,2026-03-07T02:06:08.162459+05:30
Agartala,Tripura,23.8315,91.2868,20.9,83,0.0,1008.9,7.6,18.4,159,92.2,85.7,3,0,4,1,2026-03-07T02:06:08.162466+05:30
Shillong,Meghalaya,25.5788,91.8933,11.4,73,0.0,856.4,7.65,45.4,117,43.8,39.9,3,5,7,0,2026-03-07T02:06:08.162474+05:30
Imphal,Manipur,24.817,93.9368,18.4,59,0.0,925.4,7.85,34.9,157,101.0,96.6,0,5,7,0,2026-03-07T02:06:08.162481+05:30
Aizawl,Mizoram,23.7271,92.7176,18.9,58,0.0,894.7,7.8,31.0,183,140.6,132.7,0,5,7,0,2026-03-07T02:06:08.162489+05:30
Kohima,Nagaland,25.6701,94.1077,15.3,63,0.0,856.6,7.7,50.8,160,97.1,92.0,3,5,7,0,2026-03-07T02:06:08.162496+05:30
Gangtok,Sikkim,27.3314,88.6138,14.1,87,0.0,839.2,7.4,16.2,113,58.2,52.4,3,10,7,0,2026-03-07T02:06:08.162503+05:30
Siliguri,West Bengal,26.7271,88.3953,21.0,74,0.2,996.9,7.25,18.4,147,68.2,61.9,6,5,7,1,2026-03-07T02:06:11.412396+05:30
Durgapur,West Bengal,23.5204,87.3119,23.9,81,0.0,997.4,7.75,23.4,161,76.6,65.9,3,5,7,1,2026-03-07T02:06:11.412425+05:30
Asansol,West Bengal,23.6739,86.9524,24.5,77,0.0,995.9,7.75,18.7,161,69.4,58.8,3,5,7,1,2026-03-07T02:06:11.412436+05:30
Pondicherry,Puducherry,11.9139,79.8145,23.4,95,0.0,1008.7,8.95,31.7,73,25.9,20.0,3,0,4,1,2026-03-07T02:06:11.412445+05:30
Port Blair,Andaman and Nicobar Islands,11.6234,92.7265,27.0,71,0.0,1008.0,8.9,13.7,73,54.2,32.8,7,0,4,1,2026-03-07T02:06:11.412453+05:30
Haridwar,Uttarakhand,29.9457,78.1642,21.1,84,0.0,977.1,5.75,19.1,157,96.2,82.0,3,5,3,1,2026-03-07T02:06:11.412460+05:30
Rishikesh,Uttarakhand,30.0869,78.2676,20.4,82,0.0,969.8,5.8,22.3,154,112.7,84.3,3,5,3,1,2026-03-07T02:06:11.412468+05:30
Nainital,Uttarakhand,29.3919,79.4542,15.9,71,0.0,807.0,6.6,54.0,160,94.3,73.3,3,5,7,0,2026-03-07T02:06:11.412475+05:30
Mussoorie,Uttarakhand,30.4599,78.0664,14.9,83,0.0,803.7,6.1,39.2,154,122.9,88.5,3,10,7,0,2026-03-07T02:06:11.412483+05:30
Dharamshala,Himachal Pradesh,32.219,76.3234,20.7,49,0.0,871.3,6.4,23.8,56,25.2,15.8,0,5,7,0,2026-03-07T02:06:11.412490+05:30
Dalhousie,Himachal Pradesh,32.5387,75.971,17.6,51,0.0,805.6,6.35,20.2,93,43.9,37.4,0,5,7,0,2026-03-07T02:06:11.412498+05:30
Patiala,Punjab,30.3398,76.3869,19.7,92,0.0,980.4,5.75,19.4,163,174.6,86.6,3,10,3,1,2026-03-07T02:06:11.412505+05:30
Bhatinda,Punjab,30.211,74.9455,21.3,55,0.0,985.1,6.45,16.2,139,81.5,48.7,0,5,7,0,2026-03-07T02:06:11.412512+05:30
Rohtak,Haryana,28.8955,76.6066,19.1,68,0.0,983.7,5.95,11.5,162,287.8,112.0,3,5,3,0,2026-03-07T02:06:11.412518+05:30
Panipat,Haryana,29.3909,76.9635,20.0,86,0.0,982.5,5.75,14.8,311,308.3,112.7,3,5,3,1,2026-03-07T02:06:11.412525+05:30
Mathura,Uttar Pradesh,27.4924,77.6737,18.1,78,0.0,988.8,6.2,14.0,167,185.3,96.2,3,5,7,0,2026-03-07T02:06:11.412532+05:30
Vrindavan,Uttar Pradesh,27.5823,77.7027,19.0,82,0.0,989.2,6.2,13.0,167,185.3,96.2,3,10,7,0,2026-03-07T02:06:11.412539+05:30
Ayodhya,Uttar Pradesh,26.7922,82.1998,21.1,80,0.0,997.9,6.65,15.8,168,138.8,115.3,3,5,7,1,2026-03-07T02:06:11.412545+05:30
Ratlam,Madhya Pradesh,23.3315,75.0367,22.6,51,0.0,955.5,7.45,15.5,66,44.9,43.7,0,5,7,0,2026-03-07T02:06:11.412552+05:30
Sagar,Madhya Pradesh,23.8388,78.7378,20.4,56,0.0,950.9,7.4,23.8,61,61.7,26.0,0,5,7,0,2026-03-07T02:06:11.412559+05:30
Satna,Madhya Pradesh,24.6005,80.8322,20.5,79,0.0,973.0,7.4,22.3,128,113.9,71.5,3,5,7,1,2026-03-07T02:06:11.412566+05:30
Akola,Maharashtra,20.7002,77.0082,22.2,64,0.0,975.2,7.9,17.6,78,33.4,29.5,3,5,7,0,2026-03-07T02:06:11.412573+05:30
Amravati,Maharashtra,20.9374,77.7796,22.0,57,0.0,967.1,7.85,17.6,77,39.9,34.0,0,5,7,0,2026-03-07T02:06:11.412580+05:30
Latur,Maharashtra,18.4088,76.5604,23.8,40,0.0,939.3,8.35,26.3,72,38.2,31.2,0,5,7,0,2026-03-07T02:06:11.412587+05:30
Nanded,Maharashtra,19.1383,77.3091,23.5,51,0.0,968.3,8.1,16.9,91,60.8,52.3,0,5,7,0,2026-03-07T02:06:11.412593+05:30
Gulbarga,Karnataka,17.3297,76.8343,25.7,45,0.0,958.1,8.45,18.7,67,26.3,21.0,4,5,7,0,2026-03-07T02:06:11.412599+05:30
Bidar,Karnataka,17.9104,77.5199,24.3,42,0.0,934.9,8.35,20.2,74,34.8,23.9,0,5,7,0,2026-03-07T02:06:11.412605+05:30
Hospet,Karnataka,15.2689,76.3909,24.2,70,0.0,955.3,8.75,18.0,91,32.6,30.4,3,5,7,1,2026-03-07T02:06:11.412612+05:30
Tirupur,Tamil Nadu,11.1085,77.3411,24.7,88,0.0,975.0,9.2,31.3,123,36.7,35.6,3,5,7,1,2026-03-07T02:06:11.412618+05:30
Alappuzha,Kerala,9.4981,76.3388,26.6,86,0.0,1008.9,8.9,26.3,103,41.7,39.0,7,0,4,1,2026-03-07T02:06:11.412624+05:30
Munnar,Kerala,10.0889,77.0595,19.4,84,0.0,855.7,9.5,31.3,100,34.7,33.1,3,10,7,1,2026-03-07T02:06:11.412631+05:30
Silchar,Assam,24.8333,92.7789,24.6,69,0.0,1007.5,7.6,20.5,170,117.8,113.2,3,5,4,1,2026-03-07T02:06:11.412638+05:30
Dibrugarh,Assam,27.4728,94.912,23.5,79,0.0,997.4,7.2,13.3,94,35.7,33.9,3,5,7,1,2026-03-07T02:06:11.412644+05:30
