city,state,latitude,longitude,temp,humidity,rain,pressure,uv_index,wind_gusts,aqi,pm10,pm2_5,no2,co,o3,so2,mosquito_risk,arthritis_risk,migraine_risk,frizz_risk,updated_at
Delhi,Delhi,28.6139,77.209,31.0,80,0.0,975.8,7.3,26.3,171,79.2,59.0,37.1,887.0,88.0,37.3,3,5,7,1,2026-07-05T22:44:28.091017+05:30
Mumbai,Maharashtra,19.076,72.8777,27.0,89,0.6,1000.8,1.05,74.9,31,33.9,14.8,5.6,130.0,54.0,4.5,10,5,0,1,2026-07-05T22:44:28.091054+05:30
Bangalore,Karnataka,12.9716,77.5946,21.8,81,0.0,910.6,8.0,75.6,28,9.8,5.8,6.6,203.0,44.0,3.0,3,5,7,1,2026-07-05T22:44:28.091069+05:30
Hyderabad,Telangana,17.385,78.4867,24.8,79,0.0,948.4,1.55,60.1,26,4.0,3.2,5.2,145.0,46.0,3.4,3,5,3,1,2026-07-05T22:44:28.091078+05:30
Chennai,Tamil Nadu,13.0827,80.2707,33.2,40,0.0,1004.4,8.9,56.9,52,22.1,15.1,10.8,228.0,59.0,7.6,0,5,4,1,2026-07-05T22:44:28.091086+05:30
Kolkata,West Bengal,22.5726,88.3639,26.6,95,0.1,994.6,2.9,40.7,47,16.7,14.8,8.3,245.0,72.0,5.8,10,5,3,1,2026-07-05T22:44:28.091094+05:30
Pune,Maharashtra,18.5204,73.8567,23.1,94,0.4,941.1,0.35,55.8,20,2.1,2.0,6.1,121.0,45.0,4.2,6,5,3,1,2026-07-05T22:44:28.091101+05:30
Ahmedabad,Gujarat,23.0225,72.5714,27.7,95,0.0,993.7,5.2,27.7,79,36.2,23.2,15.5,535.0,70.0,8.4,7,5,3,1,2026-07-05T22:44:28.091107+05:30
Jaipur,Rajasthan,26.9124,75.7873,30.1,76,0.0,952.5,8.05,24.1,84,36.1,31.7,27.9,603.0,69.0,10.6,3,5,7,1,2026-07-05T22:44:28.091113+05:30
Lucknow,Uttar Pradesh,26.8467,80.9462,30.9,79,0.0,986.0,8.2,21.6,90,39.6,39.3,23.7,333.0,72.0,10.9,3,5,7,1,2026-07-05T22:44:28.091124+05:30
Kanpur,Uttar Pradesh,26.4499,80.3319,30.9,81,0.0,984.1,7.65,22.0,89,30.2,30.0,18.9,359.0,80.0,8.0,3,5,7,1,2026-07-05T22:44:28.091131+05:30
Chandigarh,Chandigarh,30.7333,76.7794,29.4,81,0.0,962.1,7.45,26.3,157,107.6,102.4,43.3,1044.0,80.0,19.0,7,5,7,1,2026-07-05T22:44:28.091138+05:30
Srinagar,Jammu and Kashmir,34.0837,74.7973,25.1,57,0.0,836.7,9.05,19.8,89,49.0,44.4,29.2,694.0,49.0,3.1,4,5,7,0,2026-07-05T22:44:28.091145+05:30
Jammu,Jammu and Kashmir,32.7266,74.857,30.8,74,0.0,964.2,8.45,36.0,151,103.4,86.6,41.2,541.0,80.0,12.5,3,5,7,1,2026-07-05T22:44:28.091152+05:30
Amritsar,Punjab,31.634,74.8723,30.9,75,0.0,972.3,8.45,54.7,161,105.9,95.0,25.9,638.0,86.0,10.2,3,5,7,1,2026-07-05T22:44:28.091158+05:30
Ludhiana,Punjab,30.901,75.8573,30.6,85,0.0,970.9,7.9,31.7,178,157.9,128.1,42.0,993.0,71.0,14.8,3,5,7,1,2026-07-05T22:44:28.091167+05:30
Jalandhar,Punjab,31.326,75.5762,30.0,85,0.0,971.7,7.9,24.5,175,94.8,88.0,30.4,1081.0,77.0,10.0,7,5,7,1,2026-07-05T22:44:28.091173+05:30
Dehradun,Uttarakhand,30.6284,78.0322,19.6,99,0.0,828.0,6.8,29.2,76,31.4,31.1,22.3,287.0,84.0,1.7,3,10,7,1,2026-07-05T22:44:28.091180+05:30
Shimla,Himachal Pradesh,31.1048,77.1734,16.5,96,0.0,781.6,6.9,34.9,99,42.8,41.4,11.8,452.0,100.0,1.2,3,10,7,0,2026-07-05T22:44:28.091186+05:30
Manali,Himachal Pradesh,32.2396,77.1887,20.9,97,0.0,817.3,9.6,34.9,69,13.9,13.8,27.1,275.0,102.0,0.1,3,5,7,1,2026-07-05T22:44:28.091194+05:30
Gurgaon,Haryana,28.4595,77.0266,30.9,78,0.0,974.2,5.95,24.5,123,93.4,55.9,40.2,661.0,74.0,24.5,3,5,3,1,2026-07-05T22:44:28.091200+05:30
Noida,Uttar Pradesh,28.5355,77.391,31.0,79,0.0,977.3,6.2,27.7,123,93.4,55.9,40.2,1088.0,74.0,24.5,3,5,7,1,2026-07-05T22:44:28.091207+05:30
Ghaziabad,Uttar Pradesh,28.6692,77.4538,30.5,82,0.0,975.6,6.7,23.8,103,59.0,55.4,28.8,636.0,74.0,14.3,3,5,7,1,2026-07-05T22:44:28.091212+05:30
Faridabad,Haryana,28.4089,77.3178,31.4,78,0.0,976.6,5.9,31.7,123,93.4,55.9,40.2,607.0,74.0,24.5,3,5,3,1,2026-07-05T22:44:28.091218+05:30
Meerut,Uttar Pradesh,28.9845,77.7064,30.1,85,0.0,974.5,7.45,26.3,103,59.0,55.4,28.8,549.0,74.0,14.3,3,5,7,1,2026-07-05T22:44:28.091224+05:30
Agra,Uttar Pradesh,27.1767,78.0081,30.9,80,0.0,980.3,7.8,32.0,97,128.5,45.1,26.0,502.0,65.0,11.6,3,5,7,1,2026-07-05T22:44:28.091230+05:30
Varanasi,Uttar Pradesh,25.3176,82.9739,29.2,87,0.0,989.3,7.75,40.0,85,34.0,33.9,19.6,396.0,65.0,9.9,7,5,7,1,2026-07-05T22:44:28.091236+05:30
Prayagraj,Uttar Pradesh,25.4358,81.8463,27.8,94,0.0,988.8,8.1,33.8,87,39.3,39.1,23.5,363.0,60.0,8.9,7,5,7,1,2026-07-05T22:44:28.091243+05:30
Gorakhpur,Uttar Pradesh,26.7606,83.3732,30.5,78,0.0,990.2,8.5,41.4,91,31.8,31.4,15.8,434.0,77.0,7.3,3,5,7,1,2026-07-05T22:44:28.091249+05:30
Bareilly,Uttar Pradesh,28.367,79.4304,30.8,78,0.0,979.9,6.65,22.0,86,42.4,41.4,27.8,380.0,57.0,12.6,3,5,7,1,2026-07-05T22:44:28.091257+05:30
Aligarh,Uttar Pradesh,27.8974,78.088,31.2,75,0.0,978.3,6.5,25.9,95,53.6,40.4,29.1,526.0,66.0,11.8,3,5,7,1,2026-07-05T22:44:28.091263+05:30
Moradabad,Uttar Pradesh,28.8386,78.7733,30.5,79,0.0,976.8,7.0,29.2,103,45.8,45.5,27.6,414.0,67.0,13.4,3,5,7,1,2026-07-05T22:44:28.091270+05:30
Saharanpur,Uttar Pradesh,29.9637,77.546,29.4,84,0.0,969.1,6.8,25.2,153,43.8,43.7,15.2,504.0,97.0,8.0,7,5,7,1,2026-07-05T22:44:28.091277+05:30
Jhansi,Uttar Pradesh,25.4484,78.5685,29.1,97,0.0,970.3,7.35,31.7,69,25.3,24.7,22.0,280.0,69.0,6.8,7,5,7,1,2026-07-05T22:44:31.471280+05:30
Surat,Gujarat,21.1702,72.8311,26.5,99,0.1,997.8,6.3,28.8,81,26.3,21.1,33.3,1012.0,21.0,46.5,10,5,7,1,2026-07-05T22:44:31.471311+05:30
Vadodara,Gujarat,22.3072,73.1812,27.0,96,0.1,995.7,6.45,27.0,65,31.1,24.5,19.6,531.0,55.0,11.1,10,5,7,1,2026-07-05T22:44:31.471322+05:30
Rajkot,Gujarat,22.3039,70.8022,27.1,93,0.0,986.1,1.45,42.8,71,52.0,22.5,8.3,126.0,44.0,5.6,7,5,3,1,2026-07-05T22:44:31.471330+05:30
Thane,Maharashtra,19.2183,72.9781,26.1,95,0.4,999.7,1.3,50.4,31,33.9,14.8,5.6,139.0,54.0,4.5,10,5,3,1,2026-07-05T22:44:31.471338+05:30
Nagpur,Maharashtra,21.1458,79.0882,26.9,89,0.0,966.1,4.85,28.8,45,11.3,11.2,13.3,254.0,52.0,8.3,7,5,3,1,2026-07-05T22:44:31.471346+05:30
Nashik,Maharashtra,19.9975,73.7898,23.7,95,0.0,936.9,5.85,50.8,22,2.0,1.7,5.7,122.0,44.0,2.0,3,5,3,1,2026-07-05T22:44:31.471353+05:30
Aurangabad,Maharashtra,19.8762,75.3433,23.5,96,0.1,936.5,8.15,50.8,28,2.3,2.2,6.7,154.0,44.0,5.9,6,5,7,1,2026-07-05T22:44:31.471360+05:30
Solapur,Maharashtra,17.6599,75.9064,24.2,88,0.0,952.3,2.85,73.4,23,3.2,2.7,4.2,122.0,45.0,2.0,3,5,3,1,2026-07-05T22:44:31.471368+05:30
Kolhapur,Maharashtra,16.705,74.2433,22.0,95,0.1,943.6,2.8,69.8,23,2.9,2.4,3.2,116.0,51.0,1.5,6,5,3,1,2026-07-05T22:44:31.471375+05:30
Goa,Goa,15.2993,74.124,24.1,97,0.1,996.2,7.85,46.8,49,25.0,12.6,1.6,186.0,57.0,0.6,6,5,7,1,2026-07-05T22:44:31.471382+05:30
Jodhpur,Rajasthan,26.2389,73.0243,30.9,77,0.0,974.5,8.4,24.5,109,55.5,27.9,9.0,212.0,74.0,3.1,3,5,7,1,2026-07-05T22:44:31.471389+05:30
Udaipur,Rajasthan,24.5854,73.7125,26.4,95,0.0,939.0,8.5,27.0,70,40.0,24.9,12.7,371.0,52.0,4.2,7,5,7,1,2026-07-05T22:44:31.471396+05:30
Kota,Rajasthan,25.2138,75.8648,29.8,75,0.0,970.8,8.2,23.0,85,24.3,22.8,12.2,377.0,86.0,8.7,7,5,7,1,2026-07-05T22:44:31.471403+05:30
Bikaner,Rajasthan,28.0229,73.3119,35.2,46,0.0,972.9,7.85,25.9,138,79.6,43.9,5.6,240.0,89.0,7.3,0,5,10,1,2026-07-05T22:44:31.471411+05:30
Ajmer,Rajasthan,26.4499,74.6399,28.5,82,0.0,947.3,8.35,21.2,89,28.9,19.2,10.6,432.0,82.0,3.0,7,5,7,1,2026-07-05T22:44:31.471418+05:30
Gwalior,Madhya Pradesh,26.2183,78.1828,29.7,82,0.0,975.7,7.0,24.8,86,23.1,22.5,13.2,330.0,76.0,5.4,7,5,7,1,2026-07-05T22:44:31.471426+05:30
Indore,Madhya Pradesh,22.7196,75.8577,26.6,92,0.0,940.4,8.35,27.0,62,38.3,37.6,25.1,662.0,45.0,7.4,7,5,7,1,2026-07-05T22:44:31.471433+05:30
Bhopal,Madhya Pradesh,23.2599,77.4126,25.9,95,0.0,946.1,8.55,19.4,72,23.5,23.2,11.1,502.0,66.0,3.0,7,5,7,1,2026-07-05T22:44:31.471441+05:30
Jabalpur,Madhya Pradesh,23.1815,79.9864,25.2,97,0.1,954.1,7.6,35.6,69,18.6,18.5,8.3,284.0,72.0,2.6,10,5,7,1,2026-07-05T22:44:31.471448+05:30
Ujjain,Madhya Pradesh,23.1765,75.7885,26.6,91,0.0,946.0,8.45,28.1,60,31.3,30.4,12.5,1074.0,66.0,3.6,7,5,7,1,2026-07-05T22:44:31.471457+05:30
Visakhapatnam,Andhra Pradesh,17.6868,83.2185,29.0,68,0.0,996.7,3.15,64.8,30,14.4,10.2,9.7,190.0,54.0,16.1,7,5,3,1,2026-07-05T22:44:31.471465+05:30
Vijayawada,Andhra Pradesh,16.5062,80.648,30.9,54,0.0,997.7,4.15,46.1,33,17.9,12.3,6.7,137.0,51.0,4.9,0,5,3,1,2026-07-05T22:44:31.471472+05:30
Guntur,Andhra Pradesh,16.3067,80.4365,31.1,52,0.0,999.3,7.35,55.8,30,15.4,10.8,5.9,120.0,50.0,4.3,0,5,7,1,2026-07-05T22:44:31.471479+05:30
Nellore,Andhra Pradesh,14.4426,79.9865,32.7,42,0.0,1002.4,4.15,58.3,32,13.6,7.9,3.4,122.0,55.0,2.6,0,5,0,1,2026-07-05T22:44:31.471486+05:30
Kurnool,Andhra Pradesh,15.8281,78.0373,26.8,70,0.0,974.0,7.0,71.6,28,5.3,3.4,4.2,109.0,46.0,3.0,7,5,7,1,2026-07-05T22:44:31.471496+05:30
Kakinada,Andhra Pradesh,16.9891,82.2475,29.1,67,0.0,1001.7,3.0,85.0,33,22.6,15.8,5.5,222.0,70.0,3.9,7,5,0,1,2026-07-05T22:44:31.471503+05:30
Tirupati,Andhra Pradesh,13.6288,79.4192,30.1,48,0.0,989.2,7.8,55.4,33,13.8,8.8,4.3,117.0,52.0,1.8,0,5,7,1,2026-07-05T22:44:31.471509+05:30
Warangal,Telangana,17.9689,79.5941,26.3,79,0.0,973.4,1.0,53.3,27,3.8,3.6,5.0,131.0,46.0,2.7,7,5,3,1,2026-07-05T22:44:31.471515+05:30
Nizamabad,Telangana,18.6725,78.0941,24.1,95,0.1,958.9,1.3,50.8,25,3.4,3.2,4.7,123.0,44.0,2.7,6,5,3,1,2026-07-05T22:44:31.471522+05:30
Mysore,Karnataka,12.2958,76.6396,21.9,88,0.0,927.9,8.25,69.8,26,4.5,3.0,4.1,121.0,46.0,1.6,3,5,7,1,2026-07-05T22:44:31.471529+05:30
Mangalore,Karnataka,12.9141,74.856,25.3,91,0.0,1007.0,6.25,60.8,53,24.9,13.3,5.4,100.0,43.0,2.4,7,5,4,1,2026-07-05T22:44:31.471535+05:30
Hubli-Dharwad,Karnataka,15.3647,75.124,21.5,97,0.1,938.1,6.0,68.8,24,3.8,2.3,2.6,101.0,50.0,0.8,6,5,3,1,2026-07-05T22:44:31.471541+05:30
Belgaum,Karnataka,15.8497,74.4977,21.5,97,0.1,922.3,3.9,61.9,23,2.3,1.6,2.4,104.0,53.0,1.1,6,5,3,1,2026-07-05T22:44:34.814588+05:30
Coimbatore,Tamil Nadu,11.0168,76.9558,24.2,87,0.0,961.9,8.3,63.0,25,10.1,6.8,4.9,128.0,41.0,2.3,3,5,7,1,2026-07-05T22:44:34.814615+05:30
Madurai,Tamil Nadu,9.9252,78.1198,28.7,60,0.0,993.1,8.25,69.8,50,22.9,14.7,11.7,122.0,41.0,4.2,4,5,7,1,2026-07-05T22:44:34.814626+05:30
Trichy,Tamil Nadu,10.7905,78.7047,30.7,46,0.0,999.0,8.6,75.6,38,19.4,11.2,4.5,114.0,49.0,2.3,0,5,7,1,2026-07-05T22:44:34.814634+05:30
Salem,Tamil Nadu,11.6643,78.146,25.7,77,0.0,977.1,6.65,41.8,43,21.5,15.2,12.8,218.0,36.0,5.1,7,5,7,1,2026-07-05T22:44:34.814641+05:30
Tirunelveli,Tamil Nadu,8.7139,77.7567,28.6,63,0.0,1004.4,8.25,55.1,37,19.7,11.7,5.5,122.0,41.0,1.8,7,5,4,1,2026-07-05T22:44:34.814647+05:30
Vellore,Tamil Nadu,12.9165,79.1325,30.1,49,0.0,983.0,8.1,60.1,34,15.4,9.9,4.4,122.0,53.0,2.4,0,5,7,1,2026-07-05T22:44:34.814653+05:30
Erode,Tamil Nadu,11.341,77.7172,26.7,72,0.0,989.0,8.7,56.5,37,20.6,14.2,12.0,142.0,36.0,3.4,7,5,7,1,2026-07-05T22:44:34.814660+05:30
Kochi,Kerala,9.9312,76.2673,27.9,81,0.0,1010.5,7.05,41.4,54,26.3,16.6,11.8,104.0,30.0,4.2,7,0,4,1,2026-07-05T22:44:34.814666+05:30
Thiruvananthapuram,Kerala,8.5241,76.9366,26.1,89,0.0,1010.4,7.75,48.6,51,28.3,13.8,2.8,99.0,53.0,1.1,7,0,4,1,2026-07-05T22:44:34.814673+05:30
Kozhikode,Kerala,11.2588,75.7804,24.9,96,0.3,1009.7,8.05,42.8,48,28.4,13.6,1.0,120.0,55.0,0.8,6,0,4,1,2026-07-05T22:44:34.814679+05:30
Thrissur,Kerala,10.5276,76.2144,25.8,93,0.0,1008.6,6.8,46.1,51,23.1,14.6,7.8,124.0,35.0,3.0,7,0,4,1,2026-07-05T22:44:34.814687+05:30
Kannur,Kerala,11.8745,75.3704,25.0,93,0.1,1008.6,8.15,51.1,50,25.9,13.8,3.8,110.0,46.0,1.4,10,0,4,1,2026-07-05T22:44:34.814693+05:30
Patna,Bihar,25.5941,85.1376,29.7,78,0.0,992.5,8.05,55.1,67,16.0,15.4,10.8,264.0,74.0,6.5,7,5,7,1,2026-07-05T22:44:34.814699+05:30
Gaya,Bihar,24.7914,85.0002,27.2,90,0.0,985.2,7.5,52.2,61,15.0,14.8,10.9,229.0,70.0,6.9,7,5,7,1,2026-07-05T22:44:34.814705+05:30
Muzaffarpur,Bihar,26.1209,85.3647,30.1,74,0.0,993.1,8.5,53.3,70,19.3,18.7,11.9,237.0,74.0,6.2,3,5,7,1,2026-07-05T22:44:34.814711+05:30
Bhagalpur,Bihar,25.2425,87.0117,28.6,81,0.0,993.1,8.6,59.8,54,11.1,10.9,9.1,193.0,73.0,5.3,7,5,7,1,2026-07-05T22:44:34.814718+05:30
Ranchi,Jharkhand,23.3441,85.3096,23.5,99,0.0,928.0,5.25,51.1,54,12.6,12.6,11.1,209.0,73.0,13.3,3,5,3,1,2026-07-05T22:44:34.814724+05:30
Jamshedpur,Jharkhand,22.8046,86.2029,26.3,92,0.0,979.6,7.0,46.4,50,16.9,16.4,21.4,473.0,48.0,26.8,7,5,7,1,2026-07-05T22:44:34.814730+05:30
Dhanbad,Jharkhand,23.7957,86.4304,26.0,92,0.0,969.8,6.9,55.8,63,17.6,17.3,24.5,215.0,52.0,48.3,7,5,7,1,2026-07-05T22:44:34.814736+05:30
Bokaro,Jharkhand,23.6693,86.1511,25.9,93,0.0,973.6,5.8,51.1,64,16.2,16.1,22.4,212.0,60.0,47.6,7,5,3,1,2026-07-05T22:44:34.814742+05:30
Bhubaneswar,Odisha,20.2961,85.8245,26.4,91,0.1,991.8,2.35,40.7,34,8.5,8.5,10.4,211.0,58.0,6.5,10,5,3,1,2026-07-05T22:44:34.814748+05:30
Cuttack,Odisha,20.4625,85.8828,26.4,95,0.2,993.4,2.6,37.8,34,8.5,8.5,10.4,228.0,58.0,6.5,10,5,3,1,2026-07-05T22:44:34.814777+05:30
Rourkela,Odisha,22.2604,84.8536,25.9,98,0.0,974.4,6.25,46.1,52,18.5,18.4,13.3,434.0,62.0,11.9,7,5,7,1,2026-07-05T22:44:34.814784+05:30
Raipur,Chhattisgarh,21.2514,81.6296,25.1,97,0.4,966.8,5.15,48.2,65,19.9,19.8,21.3,269.0,67.0,29.1,10,5,3,1,2026-07-05T22:44:34.814790+05:30
Bhilai,Chhattisgarh,21.1938,81.3509,25.3,96,0.3,967.5,5.4,49.0,59,16.4,16.3,15.9,496.0,69.0,22.4,10,5,3,1,2026-07-05T22:44:34.814797+05:30
Guwahati,Assam,26.1158,91.7086,27.9,89,0.0,995.7,8.55,37.4,28,10.3,10.2,8.5,210.0,32.0,1.5,7,5,7,1,2026-07-05T22:44:34.814803+05:30
Agartala,Tripura,23.8315,91.2868,25.5,98,0.2,1000.5,1.9,53.6,29,6.1,5.6,7.3,152.0,50.0,1.7,10,5,0,1,2026-07-05T22:44:34.814809+05:30
Shillong,Meghalaya,25.5788,91.8933,19.6,99,0.1,854.1,8.5,42.8,26,3.3,3.3,4.8,177.0,50.0,1.4,6,10,7,1,2026-07-05T22:44:34.814816+05:30
Imphal,Manipur,24.817,93.9368,24.2,94,0.0,920.5,3.1,30.6,23,9.4,9.2,7.9,312.0,30.0,2.1,3,5,3,1,2026-07-05T22:44:34.814822+05:30
Aizawl,Mizoram,23.7271,92.7176,20.9,97,0.2,888.3,3.2,29.2,19,1.9,1.8,3.1,142.0,38.0,0.6,6,5,3,1,2026-07-05T22:44:34.814828+05:30
Kohima,Nagaland,25.6701,94.1077,21.8,84,0.0,853.1,8.95,27.7,24,7.6,7.4,10.0,175.0,31.0,1.3,3,5,7,1,2026-07-05T22:44:34.814834+05:30
Gangtok,Sikkim,27.3314,88.6138,18.8,98,0.0,835.8,8.2,32.8,46,7.2,7.0,4.9,256.0,97.0,1.2,3,10,7,1,2026-07-05T22:44:34.814840+05:30
Siliguri,West Bengal,26.7271,88.3953,26.3,87,0.0,987.7,8.65,42.8,54,11.4,11.0,5.9,234.0,91.0,2.5,7,5,7,1,2026-07-05T22:44:38.173693+05:30
Durgapur,West Bengal,23.5204,87.3119,25.7,97,0.5,983.8,6.7,54.0,53,18.2,17.5,19.4,288.0,55.0,20.8,10,5,7,1,2026-07-05T22:44:38.173722+05:30
Asansol,West Bengal,23.6739,86.9524,26.2,94,0.0,982.8,6.8,54.7,53,14.4,14.0,18.9,282.0,56.0,19.9,7,5,7,1,2026-07-05T22:44:38.173732+05:30
Pondicherry,Puducherry,11.9139,79.8145,30.6,52,0.0,1006.8,8.35,51.5,52,18.6,11.9,11.1,192.0,50.0,10.1,0,5,4,1,2026-07-05T22:44:38.173741+05:30
Port Blair,Andaman and Nicobar Islands,11.6234,92.7265,28.1,83,0.0,1008.4,8.15,47.9,51,18.3,10.8,0.2,91.0,51.0,0.5,7,0,4,1,2026-07-05T22:44:38.173748+05:30
Haridwar,Uttarakhand,29.9457,78.1642,29.3,83,0.0,967.7,6.95,22.7,109,38.8,38.5,10.4,402.0,100.0,6.1,7,5,7,1,2026-07-05T22:44:38.173776+05:30
Rishikesh,Uttarakhand,30.0869,78.2676,28.3,85,0.0,960.7,6.95,23.8,80,28.7,28.3,5.5,369.0,109.0,4.1,7,5,7,1,2026-07-05T22:44:38.173784+05:30
Nainital,Uttarakhand,29.3919,79.4542,17.2,100,0.1,803.2,6.45,26.3,47,13.9,13.7,10.3,320.0,75.0,2.1,6,10,7,1,2026-07-05T22:44:38.173792+05:30
Mussoorie,Uttarakhand,30.4599,78.0664,18.1,98,0.0,800.8,6.2,35.3,109,43.0,42.5,12.4,395.0,119.0,8.1,3,10,7,1,2026-07-05T22:44:38.173799+05:30
Dharamshala,Himachal Pradesh,32.219,76.3234,23.8,74,0.0,865.2,8.25,30.2,46,6.6,6.5,15.1,413.0,43.0,0.6,3,5,7,1,2026-07-05T22:44:38.173805+05:30
Dalhousie,Himachal Pradesh,32.5387,75.971,18.5,93,0.0,801.4,8.0,27.7,128,42.8,38.5,23.9,563.0,94.0,3.3,3,10,7,1,2026-07-05T22:44:38.173813+05:30
Patiala,Punjab,30.3398,76.3869,29.9,82,0.0,970.8,6.9,18.7,174,161.1,142.0,54.9,933.0,51.0,16.1,7,5,7,1,2026-07-05T22:44:38.173819+05:30
Bhatinda,Punjab,30.211,74.9455,32.5,68,0.0,975.5,7.45,23.0,159,129.9,76.1,28.8,502.0,92.0,15.0,3,5,7,1,2026-07-05T22:44:38.173826+05:30
Rohtak,Haryana,28.8955,76.6066,31.0,77,0.0,974.2,7.4,31.3,176,74.0,54.5,32.2,779.0,99.0,24.9,3,5,7,1,2026-07-05T22:44:38.173833+05:30
Panipat,Haryana,29.3909,76.9635,29.9,83,0.0,973.2,6.95,37.8,161,60.3,56.6,23.7,582.0,109.0,21.6,7,5,7,1,2026-07-05T22:44:38.173839+05:30
Mathura,Uttar Pradesh,27.4924,77.6737,31.6,74,0.0,979.3,7.05,32.0,103,79.6,48.0,39.8,418.0,52.0,9.2,3,5,7,1,2026-07-05T22:44:38.173845+05:30
Vrindavan,Uttar Pradesh,27.5823,77.7027,31.6,75,0.0,979.7,6.7,30.6,103,79.6,48.0,39.8,445.0,52.0,9.2,3,5,7,1,2026-07-05T22:44:38.173852+05:30
Ayodhya,Uttar Pradesh,26.7922,82.1998,30.8,74,0.0,987.9,8.3,41.0,94,37.7,37.6,21.5,393.0,66.0,6.9,3,5,7,1,2026-07-05T22:44:38.173859+05:30
Ratlam,Madhya Pradesh,23.3315,75.0367,26.0,93,0.0,946.6,8.45,33.8,55,28.1,27.0,11.2,262.0,62.0,3.4,7,5,7,1,2026-07-05T22:44:38.173865+05:30
Sagar,Madhya Pradesh,23.8388,78.7378,25.7,97,0.0,942.8,8.1,23.0,71,18.3,18.0,8.6,237.0,72.0,2.3,7,5,7,1,2026-07-05T22:44:38.173872+05:30
Satna,Madhya Pradesh,24.6005,80.8322,25.6,97,0.1,964.0,8.2,34.6,88,17.4,17.2,11.6,306.0,76.0,3.4,10,5,7,1,2026-07-05T22:44:38.173878+05:30
Akola,Maharashtra,20.7002,77.0082,27.9,74,0.0,967.6,6.45,31.0,34,5.4,5.4,8.9,147.0,45.0,4.8,7,5,7,1,2026-07-05T22:44:38.173886+05:30
Amravati,Maharashtra,20.9374,77.7796,27.7,78,0.0,960.1,7.35,35.3,35,6.0,5.9,8.9,192.0,46.0,4.4,7,5,7,1,2026-07-05T22:44:38.173893+05:30
Latur,Maharashtra,18.4088,76.5604,23.9,85,0.0,934.1,1.25,59.4,23,2.8,2.6,4.2,125.0,44.0,1.8,3,5,3,1,2026-07-05T22:44:38.173899+05:30
Nanded,Maharashtra,19.1383,77.3091,26.1,81,0.0,962.5,5.75,47.9,26,3.2,2.8,4.8,127.0,44.0,3.6,7,5,3,1,2026-07-05T22:44:38.173905+05:30
Gulbarga,Karnataka,17.3297,76.8343,25.0,78,0.0,954.7,5.1,72.0,24,3.7,2.7,5.4,119.0,44.0,2.3,7,5,3,1,2026-07-05T22:44:38.173912+05:30
Bidar,Karnataka,17.9104,77.5199,24.0,82,0.0,930.4,1.8,59.8,24,2.8,2.6,5.4,118.0,45.0,2.1,3,5,3,1,2026-07-05T22:44:38.173918+05:30
Hospet,Karnataka,15.2689,76.3909,23.8,84,0.0,953.5,2.3,78.5,25,2.9,2.1,3.3,115.0,48.0,1.3,3,5,3,1,2026-07-05T22:44:38.173924+05:30
Tirupur,Tamil Nadu,11.1085,77.3411,25.6,80,0.0,974.9,7.55,71.3,39,20.5,15.0,14.7,118.0,31.0,4.5,7,5,7,1,2026-07-05T22:44:38.173931+05:30
Alappuzha,Kerala,9.4981,76.3388,27.8,82,0.0,1010.6,8.45,42.1,53,32.5,19.4,7.8,86.0,44.0,2.3,7,0,4,1,2026-07-05T22:44:38.173937+05:30
Munnar,Kerala,10.0889,77.0595,16.7,100,0.1,857.0,4.55,58.0,24,10.7,7.1,6.0,91.0,34.0,2.1,6,10,3,1,2026-07-05T22:44:38.173944+05:30
Silchar,Assam,24.8333,92.7789,26.3,98,0.1,1000.2,8.95,34.2,46,11.9,11.8,6.8,188.0,44.0,2.3,10,5,4,1,2026-07-05T22:44:38.173950+05:30
Dibrugarh,Assam,27.4728,94.912,29.7,74,0.0,989.6,8.95,26.3,42,19.4,19.3,16.2,163.0,17.0,1.5,7,5,7,1,2026-07-05T22:44:38.173956+05:30
