city,state,latitude,longitude,temp,humidity,rain,pressure,uv_index,wind_gusts,aqi,pm10,pm2_5,mosquito_risk,arthritis_risk,migraine_risk,frizz_risk,updated_at
Delhi,Delhi,28.6139,77.209,33.1,37,0.0,985.8,5.5,25.6,168,339.9,64.7,0,5,3,1,2026-03-09T17:06:37.349327+05:30
Mumbai,Maharashtra,19.076,72.8777,29.0,63,0.0,1007.1,7.55,24.5,214,42.5,39.9,7,5,4,1,2026-03-09T17:06:37.349383+05:30
Bangalore,Karnataka,12.9716,77.5946,30.4,29,0.0,911.5,9.2,38.2,108,42.8,33.1,0,5,7,0,2026-03-09T17:06:37.349400+05:30
Hyderabad,Telangana,17.385,78.4867,33.1,27,0.0,954.8,8.55,31.3,133,41.6,32.4,0,5,7,0,2026-03-09T17:06:37.349411+05:30
Chennai,Tamil Nadu,13.0827,80.2707,29.2,57,0.0,1009.2,8.95,34.6,84,45.5,31.5,4,0,4,1,2026-03-09T17:06:37.349420+05:30
Kolkata,West Bengal,22.5726,88.3639,28.2,67,0.0,1010.0,7.9,16.6,138,52.4,44.0,7,0,4,1,2026-03-09T17:06:37.349429+05:30
Pune,Maharashtra,18.5204,73.8567,37.5,14,0.0,948.7,8.1,31.0,122,14.8,12.1,0,5,10,0,2026-03-09T17:06:37.349442+05:30
Ahmedabad,Gujarat,23.0225,72.5714,39.1,14,0.0,1003.0,7.35,21.6,89,12.2,9.4,0,5,7,0,2026-03-09T17:06:37.349450+05:30
Jaipur,Rajasthan,26.9124,75.7873,36.6,11,0.0,962.7,6.75,27.7,79,104.8,15.4,0,5,10,0,2026-03-09T17:06:37.349458+05:30
Lucknow,Uttar Pradesh,26.8467,80.9462,32.5,42,0.0,996.9,6.55,23.0,178,160.2,47.6,0,5,7,1,2026-03-09T17:06:37.349465+05:30
Kanpur,Uttar Pradesh,26.4499,80.3319,32.2,47,0.0,995.0,6.55,18.0,166,182.5,43.3,0,5,7,1,2026-03-09T17:06:37.349472+05:30
Chandigarh,Chandigarh,30.7333,76.7794,30.0,50,0.0,971.8,5.95,24.1,107,46.9,32.5,4,5,3,1,2026-03-09T17:06:37.349480+05:30
Srinagar,Jammu and Kashmir,34.0837,74.7973,17.1,46,0.0,846.4,6.5,25.2,133,62.4,26.5,0,5,7,0,2026-03-09T17:06:37.349488+05:30
Jammu,Jammu and Kashmir,32.7266,74.857,29.5,53,0.0,975.8,6.55,18.0,92,40.2,20.8,4,5,7,1,2026-03-09T17:06:37.349495+05:30
Amritsar,Punjab,31.634,74.8723,30.6,57,0.0,983.9,6.5,13.3,162,70.5,46.4,0,5,7,1,2026-03-09T17:06:37.349502+05:30
Ludhiana,Punjab,30.901,75.8573,31.4,45,0.0,981.9,6.15,18.7,154,85.4,52.3,0,5,7,1,2026-03-09T17:06:37.349510+05:30
Jalandhar,Punjab,31.326,75.5762,30.7,51,0.0,983.1,6.35,16.2,158,92.9,47.1,0,5,7,1,2026-03-09T17:06:37.349519+05:30
Dehradun,Uttarakhand,30.6284,78.0322,20.5,69,0.0,834.5,6.3,28.4,71,28.9,17.6,3,5,7,0,2026-03-09T17:06:37.349526+05:30
Shimla,Himachal Pradesh,31.1048,77.1734,19.8,52,0.0,790.1,6.35,48.2,70,24.2,11.5,0,5,7,0,2026-03-09T17:06:37.349532+05:30
Manali,Himachal Pradesh,32.2396,77.1887,21.7,39,0.0,826.0,8.05,35.6,85,21.1,7.9,0,5,7,0,2026-03-09T17:06:37.349540+05:30
Gurgaon,Haryana,28.4595,77.0266,32.8,38,0.0,984.3,5.85,24.5,598,760.0,94.1,0,5,3,1,2026-03-09T17:06:37.349547+05:30
Noida,Uttar Pradesh,28.5355,77.391,33.4,36,0.0,987.4,5.45,24.8,598,760.0,94.1,0,5,3,1,2026-03-09T17:06:37.349553+05:30
Ghaziabad,Uttar Pradesh,28.6692,77.4538,32.4,43,0.0,985.6,5.3,24.1,159,179.7,59.5,0,5,3,1,2026-03-09T17:06:37.349560+05:30
Faridabad,Haryana,28.4089,77.3178,32.6,37,0.0,986.7,5.85,23.0,598,760.0,94.1,0,5,3,0,2026-03-09T17:06:37.349566+05:30
Meerut,Uttar Pradesh,28.9845,77.7064,32.1,45,0.0,984.3,5.7,25.2,159,179.7,59.5,0,5,3,1,2026-03-09T17:06:37.349575+05:30
Agra,Uttar Pradesh,27.1767,78.0081,35.4,25,0.0,990.3,6.4,19.8,190,293.4,50.1,0,5,10,0,2026-03-09T17:06:37.349583+05:30
Varanasi,Uttar Pradesh,25.3176,82.9739,30.6,51,0.0,1001.0,7.2,15.5,187,125.7,80.3,0,5,4,1,2026-03-09T17:06:37.349592+05:30
Prayagraj,Uttar Pradesh,25.4358,81.8463,30.7,52,0.0,999.6,7.05,15.1,193,134.1,65.9,0,5,7,1,2026-03-09T17:06:37.349604+05:30
Gorakhpur,Uttar Pradesh,26.7606,83.3732,27.8,65,0.0,1001.9,6.9,27.0,199,181.6,159.3,7,5,4,1,2026-03-09T17:06:37.349610+05:30
Bareilly,Uttar Pradesh,28.367,79.4304,31.0,49,0.0,989.8,6.2,16.6,168,145.8,67.1,0,5,7,1,2026-03-09T17:06:37.349617+05:30
Aligarh,Uttar Pradesh,27.8974,78.088,33.6,35,0.0,988.3,6.15,23.8,210,252.4,71.0,0,5,7,1,2026-03-09T17:06:37.349624+05:30
Moradabad,Uttar Pradesh,28.8386,78.7733,31.1,48,0.0,986.7,6.05,18.0,172,126.7,68.5,0,5,7,1,2026-03-09T17:06:37.349629+05:30
Saharanpur,Uttar Pradesh,29.9637,77.546,28.9,56,0.0,978.6,5.65,23.8,158,124.8,49.8,4,5,3,1,2026-03-09T17:06:37.349636+05:30
Jhansi,Uttar Pradesh,25.4484,78.5685,35.6,19,0.0,980.6,7.0,25.6,82,41.4,13.2,0,5,10,0,2026-03-09T17:06:40.603414+05:30
Surat,Gujarat,21.1702,72.8311,36.5,27,0.0,1006.8,7.25,23.8,98,34.8,32.9,0,5,7,0,2026-03-09T17:06:40.603444+05:30
Vadodara,Gujarat,22.3072,73.1812,40.0,15,0.0,1004.7,7.4,17.3,87,14.5,13.2,0,5,7,0,2026-03-09T17:06:40.603454+05:30
Rajkot,Gujarat,22.3039,70.8022,37.4,15,0.0,995.7,7.2,23.0,91,11.1,8.9,0,5,10,0,2026-03-09T17:06:40.603461+05:30
Thane,Maharashtra,19.2183,72.9781,34.4,37,0.0,1006.8,7.55,37.1,214,42.5,39.9,0,5,4,1,2026-03-09T17:06:40.603468+05:30
Nagpur,Maharashtra,21.1458,79.0882,35.4,15,0.0,974.9,7.95,26.6,100,36.7,20.6,0,5,10,0,2026-03-09T17:06:40.603475+05:30
Nashik,Maharashtra,19.9975,73.7898,35.7,11,0.0,946.8,7.75,31.0,116,11.8,10.4,0,5,10,0,2026-03-09T17:06:40.603482+05:30
Aurangabad,Maharashtra,19.8762,75.3433,36.0,14,0.0,945.3,8.25,34.2,108,15.8,11.5,0,5,10,0,2026-03-09T17:06:40.603489+05:30
Solapur,Maharashtra,17.6599,75.9064,35.5,20,0.0,957.2,8.45,25.9,135,24.3,19.6,0,5,10,0,2026-03-09T17:06:40.603496+05:30
Kolhapur,Maharashtra,16.705,74.2433,34.7,18,0.0,947.8,8.6,38.5,139,20.5,17.2,0,5,7,0,2026-03-09T17:06:40.603503+05:30
Goa,Goa,15.2993,74.124,30.0,70,0.0,996.4,8.65,36.0,138,41.9,36.6,7,5,7,1,2026-03-09T17:06:40.603510+05:30
Jodhpur,Rajasthan,26.2389,73.0243,36.7,10,0.0,985.9,7.1,23.4,60,40.2,9.5,0,5,10,0,2026-03-09T17:06:40.603517+05:30
Udaipur,Rajasthan,24.5854,73.7125,35.4,18,0.0,949.7,7.7,17.3,80,11.0,6.9,0,5,10,0,2026-03-09T17:06:40.603523+05:30
Kota,Rajasthan,25.2138,75.8648,36.9,17,0.0,981.3,7.1,17.3,72,9.7,5.9,0,5,10,0,2026-03-09T17:06:40.603529+05:30
Bikaner,Rajasthan,28.0229,73.3119,35.9,13,0.0,984.6,6.7,22.7,53,53.3,11.4,0,5,10,0,2026-03-09T17:06:40.603536+05:30
Ajmer,Rajasthan,26.4499,74.6399,34.7,16,0.0,958.0,7.05,22.7,74,53.0,12.2,0,5,7,0,2026-03-09T17:06:40.603542+05:30
Gwalior,Madhya Pradesh,26.2183,78.1828,33.4,33,0.0,986.1,6.7,21.2,77,50.6,16.3,0,5,7,0,2026-03-09T17:06:40.603549+05:30
Indore,Madhya Pradesh,22.7196,75.8577,34.2,18,0.0,950.7,7.65,26.6,81,17.8,7.7,0,5,7,0,2026-03-09T17:06:40.603555+05:30
Bhopal,Madhya Pradesh,23.2599,77.4126,34.5,22,0.0,956.5,7.5,20.5,95,29.9,10.4,0,5,7,0,2026-03-09T17:06:40.603561+05:30
Jabalpur,Madhya Pradesh,23.1815,79.9864,33.5,26,0.0,964.1,7.65,21.6,100,36.3,15.0,0,5,7,0,2026-03-09T17:06:40.603567+05:30
Ujjain,Madhya Pradesh,23.1765,75.7885,34.0,20,0.0,956.5,7.55,18.4,94,10.9,8.8,0,5,7,0,2026-03-09T17:06:40.603575+05:30
Visakhapatnam,Andhra Pradesh,17.6868,83.2185,28.2,66,0.0,1006.6,8.2,33.5,95,49.7,39.2,7,5,4,1,2026-03-09T17:06:40.603582+05:30
Vijayawada,Andhra Pradesh,16.5062,80.648,30.5,58,0.0,1004.7,8.6,25.6,93,46.9,37.7,0,5,4,1,2026-03-09T17:06:40.603588+05:30
Guntur,Andhra Pradesh,16.3067,80.4365,29.8,62,0.0,1006.1,8.65,27.7,89,47.5,37.8,7,5,4,1,2026-03-09T17:06:40.603595+05:30
Nellore,Andhra Pradesh,14.4426,79.9865,29.5,60,0.0,1007.9,8.8,34.2,76,48.2,35.4,4,5,4,1,2026-03-09T17:06:40.603603+05:30
Kurnool,Andhra Pradesh,15.8281,78.0373,35.4,29,0.0,976.9,8.65,42.1,96,49.0,38.2,0,5,10,0,2026-03-09T17:06:40.603610+05:30
Kakinada,Andhra Pradesh,16.9891,82.2475,28.9,62,0.0,1010.1,8.55,30.2,87,53.0,39.1,7,0,4,1,2026-03-09T17:06:40.603616+05:30
Tirupati,Andhra Pradesh,13.6288,79.4192,30.5,49,0.0,992.6,8.95,36.7,92,53.6,42.7,0,5,7,1,2026-03-09T17:06:40.603623+05:30
Warangal,Telangana,17.9689,79.5941,33.4,42,0.0,980.0,8.4,28.1,111,54.1,43.1,0,5,7,1,2026-03-09T17:06:40.603629+05:30
Nizamabad,Telangana,18.6725,78.0941,34.1,27,0.0,966.2,8.3,31.3,135,41.4,30.7,0,5,7,0,2026-03-09T17:06:40.603635+05:30
Mysore,Karnataka,12.2958,76.6396,31.5,32,0.0,927.8,9.25,38.2,131,44.5,35.4,0,5,7,0,2026-03-09T17:06:40.603641+05:30
Mangalore,Karnataka,12.9141,74.856,29.0,81,0.0,1004.9,8.85,26.3,130,43.8,38.2,7,5,4,1,2026-03-09T17:06:40.603647+05:30
Hubli-Dharwad,Karnataka,15.3647,75.124,34.8,18,0.0,940.3,8.8,37.1,144,27.7,22.2,0,5,7,0,2026-03-09T17:06:40.603654+05:30
Belgaum,Karnataka,15.8497,74.4977,34.2,15,0.0,925.7,8.85,44.6,148,20.8,17.5,0,5,7,0,2026-03-09T17:06:43.858204+05:30
Coimbatore,Tamil Nadu,11.0168,76.9558,32.9,30,0.0,960.5,9.25,49.0,112,40.4,31.3,0,5,7,0,2026-03-09T17:06:43.858237+05:30
Madurai,Tamil Nadu,9.9252,78.1198,32.3,42,0.0,992.4,9.2,38.2,90,45.2,34.5,0,5,7,1,2026-03-09T17:06:43.858249+05:30
Trichy,Tamil Nadu,10.7905,78.7047,31.8,45,0.0,999.7,9.1,35.6,83,53.1,42.7,0,5,7,1,2026-03-09T17:06:43.858258+05:30
Salem,Tamil Nadu,11.6643,78.146,31.9,41,0.0,976.8,9.15,37.1,108,50.2,39.0,0,5,7,1,2026-03-09T17:06:43.858267+05:30
Tirunelveli,Tamil Nadu,8.7139,77.7567,32.8,42,0.0,1002.4,9.15,37.8,96,38.0,27.5,0,5,4,1,2026-03-09T17:06:43.858275+05:30
Vellore,Tamil Nadu,12.9165,79.1325,29.5,52,0.0,985.6,9.0,41.8,103,45.8,36.2,4,5,7,1,2026-03-09T17:06:43.858283+05:30
Erode,Tamil Nadu,11.341,77.7172,34.3,35,0.0,988.0,9.15,32.0,82,48.8,37.3,0,5,7,1,2026-03-09T17:06:43.858292+05:30
Kochi,Kerala,9.9312,76.2673,28.4,81,0.0,1007.1,8.9,28.8,143,44.1,41.2,7,5,4,1,2026-03-09T17:06:43.858300+05:30
Thiruvananthapuram,Kerala,8.5241,76.9366,27.6,80,0.0,1007.3,9.05,27.4,117,43.5,37.3,7,5,4,1,2026-03-09T17:06:43.858308+05:30
Kozhikode,Kerala,11.2588,75.7804,29.4,79,0.0,1006.3,8.55,24.5,115,26.4,23.6,7,5,4,1,2026-03-09T17:06:43.858316+05:30
Thrissur,Kerala,10.5276,76.2144,30.2,71,0.0,1005.4,9.0,40.0,133,43.4,36.3,3,5,4,1,2026-03-09T17:06:43.858324+05:30
Kannur,Kerala,11.8745,75.3704,29.9,73,0.0,1005.8,8.9,27.0,132,35.5,32.7,7,5,4,1,2026-03-09T17:06:43.858333+05:30
Patna,Bihar,25.5941,85.1376,28.7,62,0.0,1004.6,7.4,29.5,179,130.9,118.3,7,5,4,1,2026-03-09T17:06:43.858341+05:30
Gaya,Bihar,24.7914,85.0002,26.4,77,0.0,997.7,7.5,25.9,177,144.4,129.9,7,5,7,1,2026-03-09T17:06:43.858370+05:30
Muzaffarpur,Bihar,26.1209,85.3647,27.4,66,0.0,1005.0,7.3,34.2,181,125.3,112.5,7,5,4,1,2026-03-09T17:06:43.858380+05:30
Bhagalpur,Bihar,25.2425,87.0117,27.1,73,0.0,1005.8,3.9,25.9,170,113.2,101.0,7,5,0,1,2026-03-09T17:06:43.858388+05:30
Ranchi,Jharkhand,23.3441,85.3096,30.4,38,0.0,940.2,8.15,25.6,168,89.2,69.2,0,5,7,0,2026-03-09T17:06:43.858396+05:30
Jamshedpur,Jharkhand,22.8046,86.2029,30.1,56,0.0,993.7,8.0,31.3,159,102.0,81.5,0,5,7,1,2026-03-09T17:06:43.858404+05:30
Dhanbad,Jharkhand,23.7957,86.4304,27.7,62,0.0,983.5,7.75,28.8,173,130.4,109.4,7,5,7,1,2026-03-09T17:06:43.858411+05:30
Bokaro,Jharkhand,23.6693,86.1511,26.6,71,0.0,987.6,7.8,25.6,179,132.2,108.0,7,5,7,1,2026-03-09T17:06:43.858418+05:30
Bhubaneswar,Odisha,20.2961,85.8245,29.5,60,0.0,1005.6,8.3,32.8,92,41.4,33.1,4,5,4,1,2026-03-09T17:06:43.858424+05:30
Cuttack,Odisha,20.4625,85.8828,31.1,54,0.0,1007.1,8.35,30.6,92,41.4,33.1,0,5,4,1,2026-03-09T17:06:43.858431+05:30
Rourkela,Odisha,22.2604,84.8536,34.1,38,0.0,986.6,7.9,22.7,167,84.8,66.4,0,5,7,1,2026-03-09T17:06:43.858437+05:30
Raipur,Chhattisgarh,21.2514,81.6296,35.5,18,0.0,976.5,8.0,24.8,163,72.2,51.3,0,5,10,0,2026-03-09T17:06:43.858443+05:30
Bhilai,Chhattisgarh,21.1938,81.3509,35.6,20,0.0,976.8,8.05,24.5,157,63.3,42.5,0,5,10,0,2026-03-09T17:06:43.858450+05:30
Guwahati,Assam,26.1158,91.7086,29.0,62,0.0,1005.4,7.3,11.5,155,79.2,66.8,7,5,4,1,2026-03-09T17:06:43.858456+05:30
Agartala,Tripura,23.8315,91.2868,27.4,64,0.0,1010.3,7.7,12.2,163,79.9,63.6,7,0,4,1,2026-03-09T17:06:43.858463+05:30
Shillong,Meghalaya,25.5788,91.8933,14.7,85,0.0,859.4,6.45,22.0,152,73.1,63.1,3,10,7,0,2026-03-09T17:06:43.858470+05:30
Imphal,Manipur,24.817,93.9368,20.1,78,0.0,927.1,7.95,31.0,160,54.6,49.8,3,5,7,1,2026-03-09T17:06:43.858477+05:30
Aizawl,Mizoram,23.7271,92.7176,21.2,62,0.0,896.2,7.85,26.3,165,72.2,61.5,3,5,7,0,2026-03-09T17:06:43.858483+05:30
Kohima,Nagaland,25.6701,94.1077,15.5,93,0.0,858.3,7.0,53.3,154,80.6,73.8,3,10,7,0,2026-03-09T17:06:43.858490+05:30
Gangtok,Sikkim,27.3314,88.6138,16.2,80,0.0,841.8,4.8,16.9,156,86.4,65.9,3,5,3,0,2026-03-09T17:06:43.858496+05:30
Siliguri,West Bengal,26.7271,88.3953,24.7,57,0.0,998.5,7.35,18.4,162,98.5,75.4,0,5,7,0,2026-03-09T17:06:47.113919+05:30
Durgapur,West Bengal,23.5204,87.3119,28.4,63,0.0,998.9,7.8,25.2,163,97.8,85.2,7,5,7,1,2026-03-09T17:06:47.113948+05:30
Asansol,West Bengal,23.6739,86.9524,28.7,61,0.0,997.3,7.55,25.6,164,108.5,92.7,7,5,7,1,2026-03-09T17:06:47.113958+05:30
Pondicherry,Puducherry,11.9139,79.8145,29.6,57,0.0,1009.8,8.95,33.1,77,45.2,31.1,4,0,4,1,2026-03-09T17:06:47.113966+05:30
Port Blair,Andaman and Nicobar Islands,11.6234,92.7265,28.2,70,0.0,1008.8,8.9,23.8,87,33.6,29.3,7,0,4,1,2026-03-09T17:06:47.113974+05:30
Haridwar,Uttarakhand,29.9457,78.1642,29.3,60,0.0,977.6,5.8,24.5,158,64.0,39.2,4,5,3,1,2026-03-09T17:06:47.113981+05:30
Rishikesh,Uttarakhand,30.0869,78.2676,28.6,58,0.0,970.5,5.85,24.8,154,72.2,44.6,4,5,3,1,2026-03-09T17:06:47.113989+05:30
Nainital,Uttarakhand,29.3919,79.4542,21.3,67,0.0,810.4,6.65,54.0,160,121.1,71.7,3,5,7,0,2026-03-09T17:06:47.113996+05:30
Mussoorie,Uttarakhand,30.4599,78.0664,20.6,66,0.0,807.2,6.2,40.7,150,65.0,45.2,3,5,7,0,2026-03-09T17:06:47.114003+05:30
Dharamshala,Himachal Pradesh,32.219,76.3234,25.5,42,0.0,873.8,6.4,23.0,58,27.6,10.5,4,5,7,0,2026-03-09T17:06:47.114010+05:30
Dalhousie,Himachal Pradesh,32.5387,75.971,24.2,34,0.0,809.5,6.65,22.0,81,32.5,16.5,0,5,7,0,2026-03-09T17:06:47.114017+05:30
Patiala,Punjab,30.3398,76.3869,30.8,53,0.0,981.2,5.25,20.9,180,349.2,74.0,0,5,3,1,2026-03-09T17:06:47.114024+05:30
Bhatinda,Punjab,30.211,74.9455,32.6,40,0.0,986.6,6.35,20.5,154,72.2,43.1,0,5,7,1,2026-03-09T17:06:47.114030+05:30
Rohtak,Haryana,28.8955,76.6066,32.1,41,0.0,984.7,6.05,25.9,178,438.7,65.2,0,5,7,1,2026-03-09T17:06:47.114037+05:30
Panipat,Haryana,29.3909,76.9635,31.8,46,0.0,983.3,5.75,25.6,584,760.0,96.4,0,5,3,1,2026-03-09T17:06:47.114044+05:30
Mathura,Uttar Pradesh,27.4924,77.6737,34.9,29,0.0,989.4,6.3,23.8,180,219.8,50.2,0,5,7,0,2026-03-09T17:06:47.114050+05:30
Vrindavan,Uttar Pradesh,27.5823,77.7027,34.5,30,0.0,989.9,6.25,25.2,180,219.8,50.2,0,5,7,0,2026-03-09T17:06:47.114057+05:30
Ayodhya,Uttar Pradesh,26.7922,82.1998,30.0,54,0.0,999.2,6.7,20.5,198,149.0,94.3,4,5,7,1,2026-03-09T17:06:47.114063+05:30
Ratlam,Madhya Pradesh,23.3315,75.0367,35.6,20,0.0,957.1,7.5,12.2,88,9.3,8.8,0,5,10,0,2026-03-09T17:06:47.114070+05:30
Sagar,Madhya Pradesh,23.8388,78.7378,33.7,23,0.0,953.0,7.5,17.3,95,29.9,10.4,0,5,7,0,2026-03-09T17:06:47.114076+05:30
Satna,Madhya Pradesh,24.6005,80.8322,34.7,23,0.0,974.1,7.45,18.7,142,70.3,21.8,0,5,7,0,2026-03-09T17:06:47.114083+05:30
Akola,Maharashtra,20.7002,77.0082,37.4,18,0.0,976.0,7.95,16.9,98,14.3,9.8,0,5,10,0,2026-03-09T17:06:47.114090+05:30
Amravati,Maharashtra,20.9374,77.7796,36.8,16,0.0,968.7,7.9,24.8,93,14.7,9.2,0,5,10,0,2026-03-09T17:06:47.114098+05:30
Latur,Maharashtra,18.4088,76.5604,34.0,16,0.0,941.0,8.4,29.5,127,28.2,21.2,0,5,7,0,2026-03-09T17:06:47.114105+05:30
Nanded,Maharashtra,19.1383,77.3091,36.4,16,0.0,969.6,8.15,29.5,109,30.6,20.4,0,5,10,0,2026-03-09T17:06:47.114111+05:30
Gulbarga,Karnataka,17.3297,76.8343,36.7,12,0.0,958.9,8.5,34.6,146,32.9,25.8,0,5,10,0,2026-03-09T17:06:47.114118+05:30
Bidar,Karnataka,17.9104,77.5199,34.2,20,0.0,936.8,8.45,33.5,147,37.3,29.0,0,5,7,0,2026-03-09T17:06:47.114124+05:30
Hospet,Karnataka,15.2689,76.3909,34.8,25,0.0,955.5,8.75,35.3,137,41.2,32.6,0,5,7,0,2026-03-09T17:06:47.114130+05:30
Tirupur,Tamil Nadu,11.1085,77.3411,34.1,30,0.0,974.1,9.25,39.2,97,45.1,34.7,0,5,7,0,2026-03-09T17:06:47.114137+05:30
Alappuzha,Kerala,9.4981,76.3388,28.1,82,0.0,1007.3,8.95,26.3,134,39.0,36.1,7,5,4,1,2026-03-09T17:06:47.114143+05:30
Munnar,Kerala,10.0889,77.0595,27.8,43,0.0,857.7,9.55,22.7,101,39.0,27.3,4,5,7,0,2026-03-09T17:06:47.114150+05:30
Silchar,Assam,24.8333,92.7789,28.5,59,0.0,1008.9,7.65,14.0,169,82.9,72.4,4,0,4,1,2026-03-09T17:06:47.114157+05:30
Dibrugarh,Assam,27.4728,94.912,28.3,64,0.0,999.8,7.4,14.0,162,87.3,74.3,7,5,7,1,2026-03-09T17:06:47.114163+05:30
