city,state,latitude,longitude,temp,humidity,rain,pressure,uv_index,wind_gusts,aqi,pm10,pm2_5,mosquito_risk,arthritis_risk,migraine_risk,frizz_risk,updated_at
Delhi,Delhi,28.6139,77.209,31.5,23,0.0,986.0,7.15,38.5,362,1382.1,153.7,0,5,7,0,2026-04-10T16:28:14.196036+05:30
Mumbai,Maharashtra,19.076,72.8777,28.4,72,0.0,1008.5,7.95,25.2,96,88.9,31.4,7,0,4,1,2026-04-10T16:28:14.196074+05:30
Bangalore,Karnataka,12.9716,77.5946,34.7,29,0.0,911.6,9.65,42.8,129,38.9,30.5,0,5,7,0,2026-04-10T16:28:14.196089+05:30
Hyderabad,Telangana,17.385,78.4867,38.1,21,0.0,953.3,9.15,19.4,107,63.3,26.1,0,5,10,0,2026-04-10T16:28:14.196099+05:30
Chennai,Tamil Nadu,13.0827,80.2707,32.9,64,0.0,1007.0,9.4,36.4,67,25.3,18.9,3,5,4,1,2026-04-10T16:28:14.196108+05:30
Kolkata,West Bengal,22.5726,88.3639,30.9,50,0.0,1006.5,8.7,21.2,155,81.7,44.4,0,5,4,1,2026-04-10T16:28:14.196116+05:30
Pune,Maharashtra,18.5204,73.8567,37.4,25,0.0,948.8,8.55,31.3,101,37.3,16.6,0,5,10,0,2026-04-10T16:28:14.196127+05:30
Ahmedabad,Gujarat,23.0225,72.5714,38.1,14,0.0,1004.0,8.0,36.7,92,39.2,13.2,0,5,7,0,2026-04-10T16:28:14.196134+05:30
Jaipur,Rajasthan,26.9124,75.7873,33.0,17,0.0,964.1,7.75,28.4,152,255.2,32.2,0,5,7,0,2026-04-10T16:28:14.196142+05:30
Lucknow,Uttar Pradesh,26.8467,80.9462,31.7,24,0.0,995.4,7.65,40.0,105,387.4,48.8,0,5,7,0,2026-04-10T16:28:14.196150+05:30
Kanpur,Uttar Pradesh,26.4499,80.3319,30.6,33,0.0,994.3,7.65,35.3,174,814.0,84.3,0,5,7,0,2026-04-10T16:28:14.196161+05:30
Chandigarh,Chandigarh,30.7333,76.7794,29.2,28,0.0,972.1,7.15,42.1,111,11.1,9.3,4,5,7,0,2026-04-10T16:28:14.196169+05:30
Srinagar,Jammu and Kashmir,34.0837,74.7973,17.9,37,0.0,844.2,8.1,12.6,88,23.7,8.6,0,5,7,0,2026-04-10T16:28:14.196176+05:30
Jammu,Jammu and Kashmir,32.7266,74.857,29.1,28,0.0,976.6,7.75,34.2,69,17.5,9.1,4,5,7,0,2026-04-10T16:28:14.196183+05:30
Amritsar,Punjab,31.634,74.8723,28.8,32,0.0,985.1,7.7,29.2,99,19.2,13.7,4,5,7,0,2026-04-10T16:28:14.196189+05:30
Ludhiana,Punjab,30.901,75.8573,30.2,26,0.0,982.6,7.3,32.8,84,47.7,12.8,0,5,7,0,2026-04-10T16:28:14.196196+05:30
Jalandhar,Punjab,31.326,75.5762,29.6,29,0.0,983.7,7.5,29.9,89,65.2,16.2,4,5,7,0,2026-04-10T16:28:14.196205+05:30
Dehradun,Uttarakhand,30.6284,78.0322,18.5,55,0.0,831.5,7.55,29.5,123,8.4,3.7,0,5,7,0,2026-04-10T16:28:14.196212+05:30
Shimla,Himachal Pradesh,31.1048,77.1734,15.9,46,0.0,786.8,7.6,50.8,116,9.2,5.2,0,5,7,0,2026-04-10T16:28:14.196219+05:30
Manali,Himachal Pradesh,32.2396,77.1887,19.5,39,0.0,821.5,9.9,32.4,154,10.0,4.9,0,5,7,0,2026-04-10T16:28:14.196225+05:30
Gurgaon,Haryana,28.4595,77.0266,31.4,25,0.0,984.7,7.25,35.6,1252,3255.9,312.9,0,5,7,0,2026-04-10T16:28:14.196232+05:30
Noida,Uttar Pradesh,28.5355,77.391,31.6,24,0.0,987.5,7.15,37.8,1252,3255.9,312.9,0,5,7,0,2026-04-10T16:28:14.196239+05:30
Ghaziabad,Uttar Pradesh,28.6692,77.4538,31.2,25,0.0,985.5,7.15,37.8,182,1136.2,132.7,0,5,7,0,2026-04-10T16:28:14.196245+05:30
Faridabad,Haryana,28.4089,77.3178,31.3,25,0.0,987.0,7.2,36.4,1252,3255.9,312.9,0,5,7,0,2026-04-10T16:28:14.196251+05:30
Meerut,Uttar Pradesh,28.9845,77.7064,30.8,25,0.0,984.0,7.05,42.5,182,1136.2,132.7,0,5,7,0,2026-04-10T16:28:14.196257+05:30
Agra,Uttar Pradesh,27.1767,78.0081,32.3,22,0.0,991.2,7.5,36.0,705,1754.6,154.6,0,5,7,0,2026-04-10T16:28:14.196263+05:30
Varanasi,Uttar Pradesh,25.3176,82.9739,33.0,20,0.0,999.0,8.2,39.2,135,81.5,21.7,0,5,7,0,2026-04-10T16:28:14.196272+05:30
Prayagraj,Uttar Pradesh,25.4358,81.8463,33.1,24,0.0,997.8,8.05,31.7,126,107.6,26.4,0,5,7,0,2026-04-10T16:28:14.196279+05:30
Gorakhpur,Uttar Pradesh,26.7606,83.3732,32.9,15,0.0,997.5,8.05,43.2,117,38.0,13.3,0,5,7,0,2026-04-10T16:28:14.196285+05:30
Bareilly,Uttar Pradesh,28.367,79.4304,30.3,29,0.0,988.7,7.4,38.2,102,40.5,17.8,0,5,7,0,2026-04-10T16:28:14.196292+05:30
Aligarh,Uttar Pradesh,27.8974,78.088,31.5,24,0.0,988.6,7.3,38.9,550,2011.7,207.2,0,5,7,0,2026-04-10T16:28:14.196299+05:30
Moradabad,Uttar Pradesh,28.8386,78.7733,30.2,27,0.0,985.6,7.2,38.2,92,173.2,35.0,0,5,7,0,2026-04-10T16:28:14.196305+05:30
Saharanpur,Uttar Pradesh,29.9637,77.546,29.5,26,0.0,978.0,6.85,50.4,91,165.8,27.1,4,5,7,0,2026-04-10T16:28:14.196313+05:30
Jhansi,Uttar Pradesh,25.4484,78.5685,33.6,16,0.0,981.3,8.0,33.5,102,52.7,16.5,0,5,7,0,2026-04-10T16:28:17.512169+05:30
Surat,Gujarat,21.1702,72.8311,36.4,32,0.0,1007.3,7.75,19.4,135,69.4,44.4,0,5,7,1,2026-04-10T16:28:17.512199+05:30
Vadodara,Gujarat,22.3072,73.1812,38.5,17,0.0,1005.4,8.0,31.7,87,35.2,13.4,0,5,7,0,2026-04-10T16:28:17.512210+05:30
Rajkot,Gujarat,22.3039,70.8022,37.8,22,0.0,995.8,7.7,25.9,94,37.5,17.7,0,5,10,0,2026-04-10T16:28:17.512219+05:30
Thane,Maharashtra,19.2183,72.9781,31.0,59,0.0,1008.2,7.95,37.8,96,88.9,31.4,0,0,4,1,2026-04-10T16:28:17.512228+05:30
Nagpur,Maharashtra,21.1458,79.0882,34.6,32,0.0,974.2,8.75,24.1,123,60.1,25.9,0,5,7,0,2026-04-10T16:28:17.512235+05:30
Nashik,Maharashtra,19.9975,73.7898,34.8,24,0.0,946.7,8.2,28.1,111,33.9,19.4,0,5,7,0,2026-04-10T16:28:17.512244+05:30
Aurangabad,Maharashtra,19.8762,75.3433,36.8,20,0.0,945.1,8.9,28.4,126,35.3,18.9,0,5,10,0,2026-04-10T16:28:17.512251+05:30
Solapur,Maharashtra,17.6599,75.9064,39.0,20,0.0,956.8,9.0,23.4,98,42.6,18.0,0,5,10,0,2026-04-10T16:28:17.512260+05:30
Kolhapur,Maharashtra,16.705,74.2433,36.0,28,0.0,947.9,9.0,34.6,85,39.7,17.6,0,5,10,0,2026-04-10T16:28:17.512268+05:30
Goa,Goa,15.2993,74.124,31.3,61,0.0,997.1,9.0,37.1,70,103.1,35.2,3,5,7,1,2026-04-10T16:28:17.512276+05:30
Jodhpur,Rajasthan,26.2389,73.0243,34.9,18,0.0,986.9,8.0,22.7,79,77.8,14.3,0,5,7,0,2026-04-10T16:28:17.512284+05:30
Udaipur,Rajasthan,24.5854,73.7125,33.3,15,0.0,950.6,8.55,29.9,92,24.2,7.7,0,5,7,0,2026-04-10T16:28:17.512293+05:30
Kota,Rajasthan,25.2138,75.8648,33.2,19,0.0,983.1,8.0,23.8,89,53.4,15.9,0,5,7,0,2026-04-10T16:28:17.512301+05:30
Bikaner,Rajasthan,28.0229,73.3119,34.1,18,0.0,986.0,7.85,19.8,108,48.2,13.1,0,5,7,0,2026-04-10T16:28:17.512309+05:30
Ajmer,Rajasthan,26.4499,74.6399,32.9,18,0.0,958.9,7.95,20.2,89,40.2,11.4,0,5,7,0,2026-04-10T16:28:17.512317+05:30
Gwalior,Madhya Pradesh,26.2183,78.1828,31.8,25,0.0,987.1,7.75,33.1,117,37.4,11.6,0,5,7,0,2026-04-10T16:28:17.512324+05:30
Indore,Madhya Pradesh,22.7196,75.8577,33.9,19,0.0,950.9,8.45,31.0,113,21.3,9.5,0,5,7,0,2026-04-10T16:28:17.512333+05:30
Bhopal,Madhya Pradesh,23.2599,77.4126,35.2,14,0.0,956.5,8.45,30.2,99,30.2,10.0,0,5,10,0,2026-04-10T16:28:17.512341+05:30
Jabalpur,Madhya Pradesh,23.1815,79.9864,34.3,17,0.0,963.6,8.55,24.5,105,71.5,20.5,0,5,7,0,2026-04-10T16:28:17.512349+05:30
Ujjain,Madhya Pradesh,23.1765,75.7885,34.1,20,0.0,956.8,8.35,29.5,100,24.4,9.3,0,5,7,0,2026-04-10T16:28:17.512357+05:30
Visakhapatnam,Andhra Pradesh,17.6868,83.2185,31.9,67,0.0,1003.9,9.1,37.1,97,42.3,36.2,3,5,4,1,2026-04-10T16:28:17.512365+05:30
Vijayawada,Andhra Pradesh,16.5062,80.648,38.7,33,0.0,1000.9,9.2,35.6,89,42.8,30.3,0,5,7,1,2026-04-10T16:28:17.512373+05:30
Guntur,Andhra Pradesh,16.3067,80.4365,35.3,52,0.0,1002.9,9.2,33.8,90,41.0,26.4,0,5,7,1,2026-04-10T16:28:17.512380+05:30
Nellore,Andhra Pradesh,14.4426,79.9865,34.8,55,0.0,1005.0,9.3,34.9,87,31.7,24.8,0,5,4,1,2026-04-10T16:28:17.512389+05:30
Kurnool,Andhra Pradesh,15.8281,78.0373,39.5,28,0.0,975.2,9.15,25.2,102,44.0,26.3,0,5,10,1,2026-04-10T16:28:17.512397+05:30
Kakinada,Andhra Pradesh,16.9891,82.2475,34.4,55,0.0,1006.7,9.15,37.1,76,27.4,19.3,0,5,4,1,2026-04-10T16:28:17.512405+05:30
Tirupati,Andhra Pradesh,13.6288,79.4192,35.6,43,0.0,990.6,9.15,30.6,94,38.9,32.2,0,5,10,1,2026-04-10T16:28:17.512413+05:30
Warangal,Telangana,17.9689,79.5941,38.1,29,0.0,977.9,9.05,23.4,116,60.1,25.6,0,5,10,1,2026-04-10T16:28:17.512421+05:30
Nizamabad,Telangana,18.6725,78.0941,36.8,28,0.0,965.0,8.95,29.5,108,38.8,18.7,0,5,10,0,2026-04-10T16:28:17.512429+05:30
Mysore,Karnataka,12.2958,76.6396,36.0,28,0.0,927.7,9.55,37.4,96,37.4,24.7,0,5,10,0,2026-04-10T16:28:17.512437+05:30
Mangalore,Karnataka,12.9141,74.856,29.3,80,0.0,1005.2,9.05,32.4,66,59.1,20.2,7,5,4,1,2026-04-10T16:28:17.512444+05:30
Hubli-Dharwad,Karnataka,15.3647,75.124,37.5,22,0.0,940.4,9.2,36.0,75,53.1,21.9,0,5,10,0,2026-04-10T16:28:17.512452+05:30
Belgaum,Karnataka,15.8497,74.4977,35.5,26,0.0,926.0,9.25,35.3,77,50.2,21.1,0,5,10,0,2026-04-10T16:28:20.828335+05:30
Coimbatore,Tamil Nadu,11.0168,76.9558,36.4,33,0.0,960.6,9.5,36.7,114,29.0,19.4,0,5,10,1,2026-04-10T16:28:20.828363+05:30
Madurai,Tamil Nadu,9.9252,78.1198,37.8,33,0.0,991.1,9.4,41.0,114,29.6,26.0,0,5,10,1,2026-04-10T16:28:20.828373+05:30
Trichy,Tamil Nadu,10.7905,78.7047,37.8,34,0.0,997.8,9.4,31.7,82,25.4,21.2,0,5,10,1,2026-04-10T16:28:20.828381+05:30
Salem,Tamil Nadu,11.6643,78.146,35.9,45,0.0,976.0,9.05,24.1,118,32.7,28.2,0,5,10,1,2026-04-10T16:28:20.828388+05:30
Tirunelveli,Tamil Nadu,8.7139,77.7567,35.8,42,0.0,1001.7,9.35,38.2,112,29.0,26.1,0,5,7,1,2026-04-10T16:28:20.828395+05:30
Vellore,Tamil Nadu,12.9165,79.1325,36.0,38,0.0,983.5,9.5,35.3,100,36.7,31.7,0,5,10,1,2026-04-10T16:28:20.828402+05:30
Erode,Tamil Nadu,11.341,77.7172,37.7,37,0.0,987.0,9.45,34.9,109,28.8,22.9,0,5,10,1,2026-04-10T16:28:20.828409+05:30
Kochi,Kerala,9.9312,76.2673,30.1,81,0.0,1007.1,9.25,31.7,72,39.5,21.9,3,5,4,1,2026-04-10T16:28:20.828416+05:30
Thiruvananthapuram,Kerala,8.5241,76.9366,29.8,79,0.0,1007.0,8.95,28.1,74,40.2,20.3,7,5,4,1,2026-04-10T16:28:20.828423+05:30
Kozhikode,Kerala,11.2588,75.7804,30.7,75,0.0,1006.4,9.15,30.2,68,51.9,16.5,3,5,4,1,2026-04-10T16:28:20.828429+05:30
Thrissur,Kerala,10.5276,76.2144,32.9,63,0.0,1005.5,9.2,36.0,79,35.5,21.2,3,5,4,1,2026-04-10T16:28:20.828436+05:30
Kannur,Kerala,11.8745,75.3704,31.3,70,0.0,1005.8,9.15,36.4,68,51.3,18.8,3,5,4,1,2026-04-10T16:28:20.828442+05:30
Patna,Bihar,25.5941,85.1376,32.9,20,0.0,1000.6,8.35,38.9,121,45.2,15.1,0,5,4,0,2026-04-10T16:28:20.828449+05:30
Gaya,Bihar,24.7914,85.0002,32.0,23,0.0,994.7,8.45,37.8,126,49.0,15.7,0,5,7,0,2026-04-10T16:28:20.828455+05:30
Muzaffarpur,Bihar,26.1209,85.3647,32.5,21,0.0,1000.4,8.35,36.0,116,35.4,13.6,0,5,4,0,2026-04-10T16:28:20.828461+05:30
Bhagalpur,Bihar,25.2425,87.0117,30.3,31,0.0,1001.8,8.4,34.2,127,24.9,12.2,0,5,4,0,2026-04-10T16:28:20.828468+05:30
Ranchi,Jharkhand,23.3441,85.3096,29.8,27,0.0,939.0,9.0,37.4,111,54.8,16.7,4,5,7,0,2026-04-10T16:28:20.828474+05:30
Jamshedpur,Jharkhand,22.8046,86.2029,32.1,36,0.0,991.5,8.85,16.9,140,61.7,20.7,0,5,7,0,2026-04-10T16:28:20.828481+05:30
Dhanbad,Jharkhand,23.7957,86.4304,32.6,21,0.0,980.5,8.75,31.0,151,43.5,15.7,0,5,7,0,2026-04-10T16:28:20.828488+05:30
Bokaro,Jharkhand,23.6693,86.1511,32.1,21,0.0,984.5,8.8,32.8,132,45.2,15.8,0,5,7,0,2026-04-10T16:28:20.828494+05:30
Bhubaneswar,Odisha,20.2961,85.8245,33.5,52,0.0,1003.0,9.0,24.5,128,78.2,49.9,0,5,4,1,2026-04-10T16:28:20.828500+05:30
Cuttack,Odisha,20.4625,85.8828,34.6,44,0.0,1004.7,9.05,22.7,128,78.2,49.9,0,5,4,1,2026-04-10T16:28:20.828507+05:30
Rourkela,Odisha,22.2604,84.8536,33.6,31,0.0,985.8,8.75,20.2,112,59.6,19.9,0,5,7,0,2026-04-10T16:28:20.828514+05:30
Raipur,Chhattisgarh,21.2514,81.6296,36.7,23,0.0,975.2,8.8,24.1,132,69.8,34.8,0,5,10,0,2026-04-10T16:28:20.828520+05:30
Bhilai,Chhattisgarh,21.1938,81.3509,36.7,24,0.0,975.4,8.8,22.3,119,71.2,35.3,0,5,10,0,2026-04-10T16:28:20.828526+05:30
Guwahati,Assam,26.1158,91.7086,26.1,67,0.0,1001.8,8.2,32.4,109,39.2,28.3,7,5,4,1,2026-04-10T16:28:20.828533+05:30
Agartala,Tripura,23.8315,91.2868,28.4,61,0.0,1006.4,8.55,28.8,155,66.6,42.5,7,5,4,1,2026-04-10T16:28:20.828539+05:30
Shillong,Meghalaya,25.5788,91.8933,14.7,64,0.0,854.9,7.05,50.4,111,33.9,24.4,3,5,7,0,2026-04-10T16:28:20.828546+05:30
Imphal,Manipur,24.817,93.9368,18.2,66,0.0,922.7,8.9,57.6,103,29.6,16.8,3,5,7,0,2026-04-10T16:28:20.828553+05:30
Aizawl,Mizoram,23.7271,92.7176,22.1,53,0.0,893.4,8.8,58.0,75,43.0,18.7,0,5,7,0,2026-04-10T16:28:20.828559+05:30
Kohima,Nagaland,25.6701,94.1077,14.1,85,0.0,853.3,8.45,72.0,87,27.5,17.1,3,10,7,0,2026-04-10T16:28:20.828566+05:30
Gangtok,Sikkim,27.3314,88.6138,15.4,68,0.0,836.0,8.4,15.1,103,35.6,24.8,3,5,7,0,2026-04-10T16:28:20.828572+05:30
Siliguri,West Bengal,26.7271,88.3953,22.6,58,0.0,994.1,8.2,26.6,118,39.0,26.4,0,5,7,0,2026-04-10T16:28:24.142594+05:30
Durgapur,West Bengal,23.5204,87.3119,31.3,33,0.0,995.8,8.7,20.9,151,42.0,15.4,0,5,7,0,2026-04-10T16:28:24.142624+05:30
Asansol,West Bengal,23.6739,86.9524,31.9,28,0.0,994.2,8.75,23.0,132,44.0,15.9,0,5,7,0,2026-04-10T16:28:24.142633+05:30
Pondicherry,Puducherry,11.9139,79.8145,34.3,57,0.0,1007.5,8.9,33.8,64,22.1,16.0,0,5,4,1,2026-04-10T16:28:24.142641+05:30
Port Blair,Andaman and Nicobar Islands,11.6234,92.7265,28.5,80,0.0,1007.9,9.15,16.6,37,2.2,2.1,7,5,4,1,2026-04-10T16:28:24.142649+05:30
Haridwar,Uttarakhand,29.9457,78.1642,29.7,26,0.0,976.0,6.95,45.4,114,27.1,11.7,4,5,7,0,2026-04-10T16:28:24.142656+05:30
Rishikesh,Uttarakhand,30.0869,78.2676,28.8,31,0.0,968.7,7.0,37.1,126,12.5,11.7,4,5,7,0,2026-04-10T16:28:24.142663+05:30
Nainital,Uttarakhand,29.3919,79.4542,20.0,41,0.0,807.6,7.85,57.2,119,17.6,13.1,0,5,7,0,2026-04-10T16:28:24.142670+05:30
Mussoorie,Uttarakhand,30.4599,78.0664,19.0,51,0.0,804.4,7.4,37.8,123,10.0,9.4,0,5,7,0,2026-04-10T16:28:24.142677+05:30
Dharamshala,Himachal Pradesh,32.219,76.3234,21.2,49,0.0,872.1,7.6,24.8,149,10.2,5.3,0,5,7,0,2026-04-10T16:28:24.142683+05:30
Dalhousie,Himachal Pradesh,32.5387,75.971,19.4,48,0.0,806.8,7.85,19.4,106,9.8,6.8,0,5,7,0,2026-04-10T16:28:24.142691+05:30
Patiala,Punjab,30.3398,76.3869,30.4,25,0.0,981.6,7.0,38.5,534,1151.1,102.4,0,5,7,0,2026-04-10T16:28:24.142698+05:30
Bhatinda,Punjab,30.211,74.9455,31.1,26,0.0,987.9,7.65,31.7,104,41.7,13.1,0,5,7,0,2026-04-10T16:28:24.142705+05:30
Rohtak,Haryana,28.8955,76.6066,32.1,22,0.0,985.1,7.15,38.5,659,1847.7,180.2,0,5,7,0,2026-04-10T16:28:24.142711+05:30
Panipat,Haryana,29.3909,76.9635,31.3,24,0.0,983.5,7.0,41.0,1362,3039.8,277.5,0,5,7,0,2026-04-10T16:28:24.142718+05:30
Mathura,Uttar Pradesh,27.4924,77.6737,32.5,22,0.0,990.3,7.45,34.2,717,1929.7,174.6,0,5,7,0,2026-04-10T16:28:24.142724+05:30
Vrindavan,Uttar Pradesh,27.5823,77.7027,31.9,23,0.0,990.5,7.4,37.4,717,1929.7,174.6,0,5,7,0,2026-04-10T16:28:24.142730+05:30
Ayodhya,Uttar Pradesh,26.7922,82.1998,32.4,20,0.0,996.5,7.8,49.7,108,71.5,18.2,0,5,7,0,2026-04-10T16:28:24.142736+05:30
Ratlam,Madhya Pradesh,23.3315,75.0367,33.8,24,0.0,957.7,8.3,32.4,100,20.8,7.6,0,5,7,0,2026-04-10T16:28:24.142743+05:30
Sagar,Madhya Pradesh,23.8388,78.7378,34.1,18,0.0,953.0,8.4,29.9,105,35.3,10.7,0,5,7,0,2026-04-10T16:28:24.142749+05:30
Satna,Madhya Pradesh,24.6005,80.8322,33.8,17,0.0,973.5,8.45,34.6,113,51.0,15.0,0,5,7,0,2026-04-10T16:28:24.142755+05:30
Akola,Maharashtra,20.7002,77.0082,39.0,19,0.0,975.2,8.7,24.5,109,52.2,22.6,0,5,10,0,2026-04-10T16:28:24.142762+05:30
Amravati,Maharashtra,20.9374,77.7796,37.2,23,0.0,968.0,8.7,28.4,107,51.1,21.0,0,5,10,0,2026-04-10T16:28:24.142769+05:30
Latur,Maharashtra,18.4088,76.5604,35.2,29,0.0,940.5,8.95,30.2,102,41.9,21.4,0,5,10,0,2026-04-10T16:28:24.142776+05:30
Nanded,Maharashtra,19.1383,77.3091,37.5,24,0.0,968.9,8.85,19.4,103,36.9,17.8,0,5,10,0,2026-04-10T16:28:24.142782+05:30
Gulbarga,Karnataka,17.3297,76.8343,38.8,21,0.0,958.3,9.05,26.3,92,42.6,18.6,0,5,10,0,2026-04-10T16:28:24.142789+05:30
Bidar,Karnataka,17.9104,77.5199,36.5,24,0.0,936.2,9.05,28.8,101,40.0,19.3,0,5,10,0,2026-04-10T16:28:24.142795+05:30
Hospet,Karnataka,15.2689,76.3909,37.9,26,0.0,954.9,9.25,23.4,109,40.7,24.4,0,5,10,0,2026-04-10T16:28:24.142801+05:30
Tirupur,Tamil Nadu,11.1085,77.3411,38.1,31,0.0,973.4,9.5,30.2,132,29.3,20.5,0,5,10,1,2026-04-10T16:28:24.142807+05:30
Alappuzha,Kerala,9.4981,76.3388,30.4,79,0.0,1007.2,9.2,26.6,74,47.6,23.6,3,5,4,1,2026-04-10T16:28:24.142813+05:30
Munnar,Kerala,10.0889,77.0595,29.5,53,0.0,858.8,8.1,31.3,101,30.7,26.9,4,5,7,1,2026-04-10T16:28:24.142820+05:30
Silchar,Assam,24.8333,92.7789,27.2,57,0.0,1005.5,8.55,25.9,128,45.9,33.3,4,5,4,1,2026-04-10T16:28:24.142827+05:30
Dibrugarh,Assam,27.4728,94.912,22.2,77,0.0,996.8,8.35,16.2,99,26.6,18.6,3,5,7,1,2026-04-10T16:28:24.142833+05:30
