city,state,latitude,longitude,temp,humidity,rain,pressure,uv_index,wind_gusts,aqi,pm10,pm2_5,mosquito_risk,arthritis_risk,migraine_risk,frizz_risk,updated_at
Delhi,Delhi,28.6139,77.209,19.5,57,0.0,983.5,5.7,29.2,162,262.6,77.3,0,5,3,0,2026-03-01T00:39:47.929737+05:30
Mumbai,Maharashtra,19.076,72.8777,26.3,67,0.0,1009.1,7.25,20.9,69,28.6,21.5,7,0,4,1,2026-03-01T00:39:47.929777+05:30
Bangalore,Karnataka,12.9716,77.5946,21.9,60,0.0,910.0,9.05,24.1,110,59.0,58.3,0,5,7,0,2026-03-01T00:39:47.929792+05:30
Hyderabad,Telangana,17.385,78.4867,24.0,70,0.0,952.4,8.3,23.4,108,46.0,45.4,3,5,7,1,2026-03-01T00:39:47.929803+05:30
Chennai,Tamil Nadu,13.0827,80.2707,24.7,88,0.0,1007.2,8.8,32.8,141,55.9,51.9,3,5,4,1,2026-03-01T00:39:47.929811+05:30
Kolkata,West Bengal,22.5726,88.3639,22.4,97,0.0,1005.6,7.6,22.3,120,19.3,17.1,3,5,4,1,2026-03-01T00:39:47.929820+05:30
Pune,Maharashtra,18.5204,73.8567,18.9,87,0.0,947.6,7.85,36.7,78,32.8,30.3,3,10,7,1,2026-03-01T00:39:47.929832+05:30
Ahmedabad,Gujarat,23.0225,72.5714,23.2,52,0.0,1002.5,7.05,19.4,73,74.3,68.2,0,5,4,0,2026-03-01T00:39:47.929840+05:30
Jaipur,Rajasthan,26.9124,75.7873,22.0,53,0.0,959.7,6.45,26.3,76,86.4,43.0,0,5,7,0,2026-03-01T00:39:47.929847+05:30
Lucknow,Uttar Pradesh,26.8467,80.9462,20.4,60,0.0,993.2,6.2,37.4,150,122.9,65.4,0,5,7,0,2026-03-01T00:39:47.929854+05:30
Kanpur,Uttar Pradesh,26.4499,80.3319,18.9,69,0.0,991.6,6.2,32.4,144,102.4,65.0,3,5,7,0,2026-03-01T00:39:47.929861+05:30
Chandigarh,Chandigarh,30.7333,76.7794,17.5,61,0.0,968.8,5.6,32.8,96,53.1,42.0,3,5,3,0,2026-03-01T00:39:47.929869+05:30
Srinagar,Jammu and Kashmir,34.0837,74.7973,4.3,78,0.0,836.2,6.45,15.1,111,105.9,88.0,3,5,7,0,2026-03-01T00:39:47.929876+05:30
Jammu,Jammu and Kashmir,32.7266,74.857,18.2,63,0.0,972.8,6.15,24.8,93,60.5,52.3,3,5,7,0,2026-03-01T00:39:47.929883+05:30
Amritsar,Punjab,31.634,74.8723,17.3,71,0.0,981.3,6.1,21.2,153,71.7,48.3,3,5,7,0,2026-03-01T00:39:47.929889+05:30
Ludhiana,Punjab,30.901,75.8573,18.5,71,0.0,979.3,5.85,27.7,159,107.6,89.6,3,5,3,0,2026-03-01T00:39:47.929896+05:30
Jalandhar,Punjab,31.326,75.5762,17.9,71,0.0,980.5,5.95,23.8,151,122.0,103.1,3,5,3,0,2026-03-01T00:39:47.929904+05:30
Dehradun,Uttarakhand,30.6284,78.0322,9.6,56,0.0,826.3,5.95,34.2,67,43.1,28.2,0,5,3,0,2026-03-01T00:39:47.929911+05:30
Shimla,Himachal Pradesh,31.1048,77.1734,7.4,56,0.0,779.6,6.0,50.4,69,56.6,29.6,0,5,3,1,2026-03-01T00:39:47.929918+05:30
Manali,Himachal Pradesh,32.2396,77.1887,10.5,39,0.0,815.6,7.3,30.2,59,23.4,16.1,0,5,7,1,2026-03-01T00:39:47.929925+05:30
Gurgaon,Haryana,28.4595,77.0266,15.3,74,0.0,981.7,5.8,27.0,164,527.1,103.6,3,5,3,0,2026-03-01T00:39:47.929931+05:30
Noida,Uttar Pradesh,28.5355,77.391,19.3,57,0.0,985.0,5.75,28.8,164,527.1,103.6,0,5,3,0,2026-03-01T00:39:47.929938+05:30
Ghaziabad,Uttar Pradesh,28.6692,77.4538,18.0,64,0.0,983.0,5.7,26.6,158,215.1,63.3,3,5,3,0,2026-03-01T00:39:47.929945+05:30
Faridabad,Haryana,28.4089,77.3178,16.6,66,0.0,984.0,5.75,25.9,164,527.1,103.6,3,5,3,0,2026-03-01T00:39:47.929953+05:30
Meerut,Uttar Pradesh,28.9845,77.7064,16.7,71,0.0,981.5,5.6,31.7,158,215.1,63.3,3,5,3,0,2026-03-01T00:39:47.929959+05:30
Agra,Uttar Pradesh,27.1767,78.0081,20.4,68,0.0,987.9,6.05,20.9,142,210.0,66.4,3,5,7,0,2026-03-01T00:39:47.929965+05:30
Varanasi,Uttar Pradesh,25.3176,82.9739,21.1,63,0.0,997.3,6.85,28.4,109,65.0,57.6,3,5,7,0,2026-03-01T00:39:47.929974+05:30
Prayagraj,Uttar Pradesh,25.4358,81.8463,20.0,66,0.0,995.7,6.75,27.7,127,77.1,54.4,3,5,7,0,2026-03-01T00:39:47.929981+05:30
Gorakhpur,Uttar Pradesh,26.7606,83.3732,17.6,77,0.0,996.4,6.55,31.7,127,52.9,37.5,3,5,7,0,2026-03-01T00:39:47.929988+05:30
Bareilly,Uttar Pradesh,28.367,79.4304,16.6,75,0.0,986.7,5.85,34.6,151,76.8,54.6,3,5,3,0,2026-03-01T00:39:47.929994+05:30
Aligarh,Uttar Pradesh,27.8974,78.088,16.6,70,0.0,985.8,5.8,28.4,156,317.6,76.1,3,5,3,0,2026-03-01T00:39:47.930000+05:30
Moradabad,Uttar Pradesh,28.8386,78.7733,16.5,73,0.0,983.7,5.7,33.1,152,81.5,47.1,3,5,3,0,2026-03-01T00:39:47.930009+05:30
Saharanpur,Uttar Pradesh,29.9637,77.546,16.3,79,0.0,975.6,5.35,40.3,147,93.8,64.7,3,5,3,0,2026-03-01T00:39:47.930015+05:30
Jhansi,Uttar Pradesh,25.4484,78.5685,18.2,65,0.0,977.6,6.65,25.6,87,11.5,11.0,3,5,7,0,2026-03-01T00:39:51.275879+05:30
Surat,Gujarat,21.1702,72.8311,23.6,81,0.0,1007.4,6.95,25.9,90,34.1,28.7,3,5,4,1,2026-03-01T00:39:51.275910+05:30
Vadodara,Gujarat,22.3072,73.1812,23.1,70,0.0,1004.9,7.1,14.0,88,66.4,62.6,3,5,4,1,2026-03-01T00:39:51.275920+05:30
Rajkot,Gujarat,22.3039,70.8022,21.5,73,0.0,995.2,6.9,22.3,62,64.3,20.5,3,5,7,1,2026-03-01T00:39:51.275927+05:30
Thane,Maharashtra,19.2183,72.9781,23.3,79,0.0,1008.6,7.25,34.2,69,28.6,21.5,3,0,4,1,2026-03-01T00:39:51.275935+05:30
Nagpur,Maharashtra,21.1458,79.0882,22.9,72,0.0,972.0,7.65,25.9,152,53.4,52.9,3,5,7,1,2026-03-01T00:39:51.275942+05:30
Nashik,Maharashtra,19.9975,73.7898,19.0,75,0.0,945.2,7.45,26.6,59,35.2,32.5,3,5,7,0,2026-03-01T00:39:51.275949+05:30
Aurangabad,Maharashtra,19.8762,75.3433,22.1,60,0.0,943.5,8.0,26.3,53,21.0,18.6,0,5,7,0,2026-03-01T00:39:51.275956+05:30
Solapur,Maharashtra,17.6599,75.9064,23.1,67,0.0,955.9,8.25,19.1,59,36.9,36.6,3,5,7,1,2026-03-01T00:39:51.275964+05:30
Kolhapur,Maharashtra,16.705,74.2433,17.0,75,0.0,946.6,8.35,40.0,52,20.7,17.8,3,5,7,0,2026-03-01T00:39:51.275971+05:30
Goa,Goa,15.2993,74.124,23.7,81,0.0,997.5,8.4,35.3,43,23.6,17.5,3,5,7,1,2026-03-01T00:39:51.275978+05:30
Jodhpur,Rajasthan,26.2389,73.0243,22.8,52,0.0,982.8,6.75,20.2,75,70.1,36.6,0,5,7,0,2026-03-01T00:39:51.275986+05:30
Udaipur,Rajasthan,24.5854,73.7125,18.0,61,0.0,946.0,7.35,29.2,69,30.0,23.0,3,5,7,0,2026-03-01T00:39:51.275993+05:30
Kota,Rajasthan,25.2138,75.8648,19.4,68,0.0,978.2,6.8,20.9,71,39.6,38.4,3,5,7,0,2026-03-01T00:39:51.276000+05:30
Bikaner,Rajasthan,28.0229,73.3119,22.9,42,0.0,981.9,6.45,14.4,63,43.5,21.2,0,5,7,0,2026-03-01T00:39:51.276007+05:30
Ajmer,Rajasthan,26.4499,74.6399,20.2,48,0.0,953.8,6.7,22.7,59,52.2,30.0,0,5,7,0,2026-03-01T00:39:51.276014+05:30
Gwalior,Madhya Pradesh,26.2183,78.1828,19.0,64,0.0,983.0,6.35,26.6,80,58.0,38.5,3,5,7,0,2026-03-01T00:39:51.276020+05:30
Indore,Madhya Pradesh,22.7196,75.8577,17.7,76,0.0,947.4,7.35,21.2,66,43.8,42.5,3,5,7,0,2026-03-01T00:39:51.276027+05:30
Bhopal,Madhya Pradesh,23.2599,77.4126,18.7,79,0.0,952.9,7.2,23.0,90,23.3,22.6,3,5,7,0,2026-03-01T00:39:51.276033+05:30
Jabalpur,Madhya Pradesh,23.1815,79.9864,24.0,52,0.0,960.8,7.3,33.1,124,27.0,26.8,0,5,7,0,2026-03-01T00:39:51.276040+05:30
Ujjain,Madhya Pradesh,23.1765,75.7885,17.7,74,0.0,953.1,7.25,20.5,77,57.4,55.6,3,5,7,0,2026-03-01T00:39:51.276047+05:30
Visakhapatnam,Andhra Pradesh,17.6868,83.2185,24.7,86,0.0,1004.3,8.3,40.7,95,56.2,53.1,3,5,4,1,2026-03-01T00:39:51.276053+05:30
Vijayawada,Andhra Pradesh,16.5062,80.648,24.3,86,0.0,1002.8,8.4,26.3,126,57.3,55.5,3,5,4,1,2026-03-01T00:39:51.276060+05:30
Guntur,Andhra Pradesh,16.3067,80.4365,24.3,89,0.0,1004.0,8.4,29.9,117,55.8,54.4,3,5,4,1,2026-03-01T00:39:51.276067+05:30
Nellore,Andhra Pradesh,14.4426,79.9865,24.2,89,0.0,1006.0,8.6,30.6,116,51.8,49.9,3,5,4,1,2026-03-01T00:39:51.276074+05:30
Kurnool,Andhra Pradesh,15.8281,78.0373,26.5,55,0.0,975.6,8.4,24.1,97,35.2,34.7,4,5,7,1,2026-03-01T00:39:51.276082+05:30
Kakinada,Andhra Pradesh,16.9891,82.2475,23.8,89,0.0,1007.9,8.35,35.3,107,61.7,57.3,3,5,4,1,2026-03-01T00:39:51.276089+05:30
Tirupati,Andhra Pradesh,13.6288,79.4192,23.4,68,0.0,991.7,8.75,26.3,131,68.0,66.8,3,5,7,1,2026-03-01T00:39:51.276095+05:30
Warangal,Telangana,17.9689,79.5941,25.5,70,0.0,977.9,8.1,29.9,121,47.7,47.0,7,5,7,1,2026-03-01T00:39:51.276102+05:30
Nizamabad,Telangana,18.6725,78.0941,25.2,61,0.0,963.7,8.0,18.7,107,43.7,43.3,7,5,7,1,2026-03-01T00:39:51.276108+05:30
Mysore,Karnataka,12.2958,76.6396,21.7,83,0.0,927.0,9.1,34.6,121,29.5,29.2,3,5,7,1,2026-03-01T00:39:51.276115+05:30
Mangalore,Karnataka,12.9141,74.856,28.0,74,0.0,1006.0,8.65,32.0,49,16.6,12.2,7,5,4,1,2026-03-01T00:39:51.276121+05:30
Hubli-Dharwad,Karnataka,15.3647,75.124,20.3,64,0.0,939.2,8.6,35.6,57,11.0,9.1,3,5,7,0,2026-03-01T00:39:51.276128+05:30
Belgaum,Karnataka,15.8497,74.4977,18.4,62,0.0,923.6,8.65,40.7,44,20.1,16.6,3,5,7,0,2026-03-01T00:39:54.627389+05:30
Coimbatore,Tamil Nadu,11.0168,76.9558,22.3,86,0.0,961.0,9.1,32.4,133,45.3,44.8,3,5,7,1,2026-03-01T00:39:54.627419+05:30
Madurai,Tamil Nadu,9.9252,78.1198,24.6,86,0.0,993.0,9.0,28.4,144,65.4,64.3,3,5,7,1,2026-03-01T00:39:54.627429+05:30
Trichy,Tamil Nadu,10.7905,78.7047,23.7,86,0.0,999.8,8.95,25.9,146,55.4,53.6,3,5,7,1,2026-03-01T00:39:54.627437+05:30
Salem,Tamil Nadu,11.6643,78.146,26.0,70,0.0,976.8,8.95,27.4,124,57.5,56.6,7,5,7,1,2026-03-01T00:39:54.627445+05:30
Tirunelveli,Tamil Nadu,8.7139,77.7567,25.0,84,0.0,1002.9,9.05,43.2,143,61.7,60.8,7,5,4,1,2026-03-01T00:39:54.627452+05:30
Vellore,Tamil Nadu,12.9165,79.1325,22.2,76,0.0,984.5,8.85,37.1,146,80.1,78.5,3,5,7,1,2026-03-01T00:39:54.627459+05:30
Erode,Tamil Nadu,11.341,77.7172,25.8,73,0.0,988.7,8.95,27.7,112,49.4,48.5,7,5,7,1,2026-03-01T00:39:54.627466+05:30
Kochi,Kerala,9.9312,76.2673,27.7,78,0.0,1008.0,8.9,39.2,117,45.1,44.8,7,0,4,1,2026-03-01T00:39:54.627473+05:30
Thiruvananthapuram,Kerala,8.5241,76.9366,27.2,83,0.0,1007.3,8.95,25.6,141,31.5,31.2,7,5,4,1,2026-03-01T00:39:54.627506+05:30
Kozhikode,Kerala,11.2588,75.7804,28.4,74,0.0,1006.8,8.75,32.4,68,18.6,14.0,7,5,4,1,2026-03-01T00:39:54.627514+05:30
Thrissur,Kerala,10.5276,76.2144,26.4,83,0.0,1006.2,8.85,40.3,121,62.9,62.4,7,5,4,1,2026-03-01T00:39:54.627522+05:30
Kannur,Kerala,11.8745,75.3704,27.2,76,0.0,1006.3,8.75,37.1,54,13.2,10.2,7,5,4,1,2026-03-01T00:39:54.627529+05:30
Patna,Bihar,25.5941,85.1376,21.1,66,0.0,999.8,7.0,26.3,122,56.0,47.7,3,5,7,0,2026-03-01T00:39:54.627536+05:30
Gaya,Bihar,24.7914,85.0002,23.1,50,0.0,993.5,7.1,15.5,81,55.2,46.6,0,5,7,0,2026-03-01T00:39:54.627543+05:30
Muzaffarpur,Bihar,26.1209,85.3647,18.8,75,0.0,999.6,6.95,31.3,138,58.7,47.1,3,5,7,0,2026-03-01T00:39:54.627549+05:30
Bhagalpur,Bihar,25.2425,87.0117,20.8,56,0.0,1000.2,7.05,25.2,103,54.7,36.2,0,5,4,0,2026-03-01T00:39:54.627556+05:30
Ranchi,Jharkhand,23.3441,85.3096,19.2,45,0.0,936.7,7.75,22.3,68,45.3,43.1,0,5,7,0,2026-03-01T00:39:54.627562+05:30
Jamshedpur,Jharkhand,22.8046,86.2029,21.1,72,0.0,989.7,7.7,11.2,114,64.7,60.1,3,5,7,0,2026-03-01T00:39:54.627569+05:30
Dhanbad,Jharkhand,23.7957,86.4304,20.3,48,0.0,978.9,7.55,24.1,122,84.3,74.7,0,5,7,0,2026-03-01T00:39:54.627575+05:30
Bokaro,Jharkhand,23.6693,86.1511,22.9,39,0.0,983.4,7.55,23.0,116,81.0,74.7,0,5,7,0,2026-03-01T00:39:54.627582+05:30
Bhubaneswar,Odisha,20.2961,85.8245,24.0,93,0.0,1002.4,8.05,32.0,82,23.3,22.0,3,5,4,1,2026-03-01T00:39:54.627590+05:30
Cuttack,Odisha,20.4625,85.8828,23.8,95,0.0,1004.4,8.05,32.4,82,23.3,22.0,3,5,4,1,2026-03-01T00:39:54.627596+05:30
Rourkela,Odisha,22.2604,84.8536,22.7,55,0.0,984.0,7.6,25.6,83,53.7,52.0,0,5,7,0,2026-03-01T00:39:54.627602+05:30
Raipur,Chhattisgarh,21.2514,81.6296,25.3,55,0.0,973.7,7.7,27.0,155,100.8,99.7,4,5,7,0,2026-03-01T00:39:54.627608+05:30
Bhilai,Chhattisgarh,21.1938,81.3509,24.5,60,0.0,973.9,7.75,28.4,155,109.2,108.0,0,5,7,1,2026-03-01T00:39:54.627615+05:30
Guwahati,Assam,26.1158,91.7086,21.5,79,0.0,1001.2,7.0,32.8,159,84.8,74.3,3,5,4,1,2026-03-01T00:39:54.627621+05:30
Agartala,Tripura,23.8315,91.2868,17.1,63,0.0,1005.5,7.35,22.7,159,67.3,54.7,3,5,4,0,2026-03-01T00:39:54.627627+05:30
Shillong,Meghalaya,25.5788,91.8933,9.0,75,0.0,851.9,7.35,48.6,153,77.1,57.3,3,5,7,0,2026-03-01T00:39:54.627634+05:30
Imphal,Manipur,24.817,93.9368,13.5,67,0.0,921.0,7.55,56.2,145,67.5,56.9,3,5,7,0,2026-03-01T00:39:54.627640+05:30
Aizawl,Mizoram,23.7271,92.7176,14.1,65,0.0,890.4,7.55,41.4,126,57.6,45.5,3,5,7,0,2026-03-01T00:39:54.627647+05:30
Kohima,Nagaland,25.6701,94.1077,11.4,68,0.0,851.3,7.4,72.7,146,65.9,61.0,3,5,7,0,2026-03-01T00:39:54.627653+05:30
Gangtok,Sikkim,27.3314,88.6138,9.6,82,0.0,832.5,5.0,14.0,128,50.1,43.3,3,10,3,0,2026-03-01T00:39:54.627660+05:30
Siliguri,West Bengal,26.7271,88.3953,17.6,61,0.0,992.7,7.0,23.4,168,126.7,107.6,3,5,7,0,2026-03-01T00:39:57.974662+05:30
Durgapur,West Bengal,23.5204,87.3119,21.3,66,0.0,994.4,7.55,26.6,115,78.9,68.7,3,5,7,0,2026-03-01T00:39:57.974693+05:30
Asansol,West Bengal,23.6739,86.9524,21.7,47,0.0,992.9,7.55,22.7,97,60.8,49.7,0,5,7,0,2026-03-01T00:39:57.974703+05:30
Pondicherry,Puducherry,11.9139,79.8145,23.4,94,0.0,1008.5,8.8,28.8,129,51.0,47.0,3,0,4,1,2026-03-01T00:39:57.974712+05:30
Port Blair,Andaman and Nicobar Islands,11.6234,92.7265,27.0,76,0.0,1005.3,8.75,23.0,84,28.6,25.1,7,5,4,1,2026-03-01T00:39:57.974720+05:30
Haridwar,Uttarakhand,29.9457,78.1642,15.2,84,0.0,974.1,5.45,38.2,110,66.6,56.3,3,10,3,0,2026-03-01T00:39:57.974728+05:30
Rishikesh,Uttarakhand,30.0869,78.2676,16.0,68,0.0,966.7,5.5,34.6,97,60.8,41.7,3,5,3,0,2026-03-01T00:39:57.974736+05:30
Nainital,Uttarakhand,29.3919,79.4542,13.8,46,0.0,802.9,6.35,46.1,84,45.9,28.0,0,5,7,0,2026-03-01T00:39:57.974743+05:30
Mussoorie,Uttarakhand,30.4599,78.0664,11.8,57,0.0,799.3,5.85,42.1,95,58.8,47.5,0,5,3,0,2026-03-01T00:39:57.974750+05:30
Dharamshala,Himachal Pradesh,32.219,76.3234,15.8,48,0.0,867.3,6.05,27.0,73,37.1,19.1,0,5,7,0,2026-03-01T00:39:57.974757+05:30
Dalhousie,Himachal Pradesh,32.5387,75.971,12.6,47,0.0,801.0,6.25,28.8,80,58.3,47.7,0,5,7,0,2026-03-01T00:39:57.974765+05:30
Patiala,Punjab,30.3398,76.3869,16.2,86,0.0,978.5,5.55,29.9,158,145.8,71.0,3,10,3,0,2026-03-01T00:39:57.974772+05:30
Bhatinda,Punjab,30.211,74.9455,17.3,73,0.0,984.1,6.2,22.0,152,92.7,64.3,3,5,7,0,2026-03-01T00:39:57.974779+05:30
Rohtak,Haryana,28.8955,76.6066,16.5,71,0.0,982.2,5.7,29.2,164,315.7,88.0,3,5,3,0,2026-03-01T00:39:57.974786+05:30
Panipat,Haryana,29.3909,76.9635,16.1,73,0.0,980.6,5.5,28.8,168,385.6,89.2,3,5,3,0,2026-03-01T00:39:57.974792+05:30
Mathura,Uttar Pradesh,27.4924,77.6737,17.9,67,0.0,987.0,5.95,22.7,137,330.6,74.0,3,5,3,0,2026-03-01T00:39:57.974798+05:30
Vrindavan,Uttar Pradesh,27.5823,77.7027,17.2,69,0.0,987.6,5.95,26.3,137,330.6,74.0,3,5,3,0,2026-03-01T00:39:57.974804+05:30
Ayodhya,Uttar Pradesh,26.7922,82.1998,18.4,68,0.0,994.9,6.35,34.9,136,70.3,46.1,3,5,7,0,2026-03-01T00:39:57.974811+05:30
Ratlam,Madhya Pradesh,23.3315,75.0367,20.6,62,0.0,954.3,7.2,27.0,70,36.7,34.6,3,5,7,0,2026-03-01T00:39:57.974818+05:30
Sagar,Madhya Pradesh,23.8388,78.7378,21.6,57,0.0,949.4,7.15,21.6,75,17.2,16.8,0,5,7,0,2026-03-01T00:39:57.974825+05:30
Satna,Madhya Pradesh,24.6005,80.8322,21.5,54,0.0,970.8,7.1,31.7,82,42.0,38.2,0,5,7,0,2026-03-01T00:39:57.974831+05:30
Akola,Maharashtra,20.7002,77.0082,23.4,54,0.0,974.6,7.7,29.2,99,27.6,26.2,0,5,7,0,2026-03-01T00:39:57.974838+05:30
Amravati,Maharashtra,20.9374,77.7796,23.2,62,0.0,966.3,7.65,26.6,120,34.9,33.9,3,5,7,0,2026-03-01T00:39:57.974845+05:30
Latur,Maharashtra,18.4088,76.5604,21.6,62,0.0,938.3,8.15,21.6,71,39.6,39.1,3,5,7,0,2026-03-01T00:39:57.974852+05:30
Nanded,Maharashtra,19.1383,77.3091,24.2,59,0.0,967.5,7.9,17.6,94,36.3,35.9,0,5,7,0,2026-03-01T00:39:57.974858+05:30
Gulbarga,Karnataka,17.3297,76.8343,24.8,61,0.0,957.2,8.25,15.5,77,36.7,36.3,3,5,7,1,2026-03-01T00:39:57.974864+05:30
Bidar,Karnataka,17.9104,77.5199,25.0,61,0.0,934.3,8.2,20.5,99,39.6,39.2,7,5,7,1,2026-03-01T00:39:57.974871+05:30
Hospet,Karnataka,15.2689,76.3909,25.9,53,0.0,954.6,8.55,24.8,124,47.8,47.4,4,5,7,0,2026-03-01T00:39:57.974877+05:30
Tirupur,Tamil Nadu,11.1085,77.3411,24.4,80,0.0,974.7,9.1,21.2,133,49.7,49.2,3,5,7,1,2026-03-01T00:39:57.974883+05:30
Alappuzha,Kerala,9.4981,76.3388,27.2,81,0.0,1008.3,8.9,36.4,105,36.1,35.3,7,0,4,1,2026-03-01T00:39:57.974889+05:30
Munnar,Kerala,10.0889,77.0595,19.0,90,0.0,855.2,9.4,27.4,117,40.6,39.9,3,10,7,1,2026-03-01T00:39:57.974896+05:30
Silchar,Assam,24.8333,92.7789,19.0,74,0.0,1004.7,7.3,19.4,155,87.5,71.0,3,5,4,0,2026-03-01T00:39:57.974904+05:30
Dibrugarh,Assam,27.4728,94.912,19.5,82,0.0,996.3,7.05,19.1,136,32.6,30.9,3,10,7,1,2026-03-01T00:39:57.974910+05:30
