city,state,latitude,longitude,temp,humidity,rain,pressure,uv_index,wind_gusts,aqi,pm10,pm2_5,no2,co,o3,so2,mosquito_risk,arthritis_risk,migraine_risk,frizz_risk,updated_at
Delhi,Delhi,28.6139,77.209,29.0,74,0.0,972.6,7.65,25.9,718,577.4,175.6,52.3,217.0,24.0,20.4,7,5,7,1,2026-07-13T03:24:13.868748+05:30
Mumbai,Maharashtra,19.076,72.8777,27.5,84,0.0,1004.8,4.35,49.7,52,19.0,10.7,4.2,104.0,45.0,4.2,7,5,0,1,2026-07-13T03:24:13.868810+05:30
Bangalore,Karnataka,12.9716,77.5946,20.1,92,0.0,909.2,8.9,48.6,51,18.2,9.5,7.5,141.0,36.0,3.6,3,5,7,1,2026-07-13T03:24:13.868828+05:30
Hyderabad,Telangana,17.385,78.4867,26.2,66,0.0,948.7,8.95,47.5,60,28.3,15.9,5.6,130.0,44.0,3.8,7,5,7,1,2026-07-13T03:24:13.868839+05:30
Chennai,Tamil Nadu,13.0827,80.2707,29.8,66,0.0,1001.7,7.5,40.7,69,27.0,17.9,12.7,205.0,56.0,9.1,7,5,4,1,2026-07-13T03:24:13.868850+05:30
Kolkata,West Bengal,22.5726,88.3639,28.0,90,0.0,996.1,5.7,22.0,141,68.5,56.3,17.1,418.0,57.0,9.9,7,5,3,1,2026-07-13T03:24:13.868860+05:30
Pune,Maharashtra,18.5204,73.8567,23.0,88,0.0,943.8,8.4,53.3,35,8.4,4.4,4.3,97.0,38.0,4.4,3,5,7,1,2026-07-13T03:24:13.868869+05:30
Ahmedabad,Gujarat,23.0225,72.5714,27.8,78,0.0,995.4,8.15,48.6,66,24.2,12.5,4.9,111.0,40.0,3.5,7,5,7,1,2026-07-13T03:24:13.868877+05:30
Jaipur,Rajasthan,26.9124,75.7873,28.6,67,0.0,950.7,8.2,36.7,362,497.3,99.2,9.3,136.0,51.0,4.8,7,5,7,1,2026-07-13T03:24:13.868886+05:30
Lucknow,Uttar Pradesh,26.8467,80.9462,28.9,73,0.0,982.7,8.2,36.4,121,75.9,39.0,9.7,177.0,67.0,7.0,7,5,7,1,2026-07-13T03:24:13.868903+05:30
Kanpur,Uttar Pradesh,26.4499,80.3319,29.5,71,0.0,981.4,8.2,37.8,109,87.8,39.0,11.9,183.0,58.0,7.8,7,5,7,1,2026-07-13T03:24:13.868912+05:30
Chandigarh,Chandigarh,30.7333,76.7794,26.2,75,0.0,957.8,7.7,24.8,157,104.8,65.9,31.7,385.0,43.0,10.9,7,5,7,1,2026-07-13T03:24:13.868920+05:30
Srinagar,Jammu and Kashmir,34.0837,74.7973,16.2,98,0.0,836.2,8.9,22.0,52,44.2,40.4,16.9,398.0,67.0,2.4,3,10,7,0,2026-07-13T03:24:13.868929+05:30
Jammu,Jammu and Kashmir,32.7266,74.857,25.6,87,0.0,962.3,8.55,24.1,135,81.3,57.2,47.3,594.0,9.0,4.5,7,5,7,1,2026-07-13T03:24:13.868938+05:30
Amritsar,Punjab,31.634,74.8723,26.1,89,0.0,970.1,8.45,18.4,164,183.0,126.2,54.4,741.0,13.0,7.4,7,5,7,1,2026-07-13T03:24:13.868946+05:30
Ludhiana,Punjab,30.901,75.8573,26.7,93,0.0,968.0,7.9,23.0,168,119.7,84.5,32.7,380.0,47.0,7.7,7,5,7,1,2026-07-13T03:24:13.868952+05:30
Jalandhar,Punjab,31.326,75.5762,26.0,90,0.0,969.0,8.15,20.9,161,119.7,84.8,35.3,426.0,42.0,6.6,7,5,7,1,2026-07-13T03:24:13.868960+05:30
Dehradun,Uttarakhand,30.6284,78.0322,17.5,99,0.0,822.5,8.15,28.8,80,57.4,32.4,15.3,241.0,77.0,2.5,3,10,7,1,2026-07-13T03:24:13.868971+05:30
Shimla,Himachal Pradesh,31.1048,77.1734,16.9,67,0.0,778.1,8.25,35.6,95,71.9,36.6,14.0,219.0,77.0,4.2,3,5,7,0,2026-07-13T03:24:13.868979+05:30
Manali,Himachal Pradesh,32.2396,77.1887,17.4,82,0.0,811.9,9.35,32.4,49,4.3,4.1,10.6,229.0,104.0,0.0,3,10,7,0,2026-07-13T03:24:13.868989+05:30
Gurgaon,Haryana,28.4595,77.0266,29.0,71,0.0,971.1,7.6,30.2,734,795.3,168.6,28.6,205.0,41.0,11.7,7,5,7,1,2026-07-13T03:24:13.868997+05:30
Noida,Uttar Pradesh,28.5355,77.391,29.3,75,0.0,973.9,7.65,24.8,734,795.3,168.6,28.6,217.0,41.0,11.7,7,5,7,1,2026-07-13T03:24:13.869005+05:30
Ghaziabad,Uttar Pradesh,28.6692,77.4538,29.1,82,0.0,972.2,7.6,26.6,580,560.7,190.5,58.8,260.0,21.0,26.1,7,5,7,1,2026-07-13T03:24:13.869012+05:30
Faridabad,Haryana,28.4089,77.3178,29.4,72,0.0,973.2,7.65,27.7,734,795.3,168.6,28.6,208.0,41.0,11.7,7,5,7,1,2026-07-13T03:24:13.869020+05:30
Meerut,Uttar Pradesh,28.9845,77.7064,28.0,86,0.0,971.0,7.25,28.1,580,560.7,190.5,58.8,451.0,21.0,26.1,7,5,7,1,2026-07-13T03:24:13.869028+05:30
Agra,Uttar Pradesh,27.1767,78.0081,29.6,69,0.0,977.7,8.0,38.9,134,131.8,38.8,16.3,206.0,45.0,5.0,7,5,7,1,2026-07-13T03:24:13.869034+05:30
Varanasi,Uttar Pradesh,25.3176,82.9739,29.3,71,0.0,987.5,8.7,36.0,98,53.0,35.4,12.2,179.0,49.0,7.0,7,5,7,1,2026-07-13T03:24:13.869042+05:30
Prayagraj,Uttar Pradesh,25.4358,81.8463,29.4,67,0.0,986.3,8.55,40.7,96,56.2,35.4,11.0,167.0,54.0,5.9,7,5,7,1,2026-07-13T03:24:13.869050+05:30
Gorakhpur,Uttar Pradesh,26.7606,83.3732,26.8,96,0.1,986.5,8.45,28.8,135,65.9,45.8,30.0,217.0,26.0,6.6,10,5,7,1,2026-07-13T03:24:13.869057+05:30
Bareilly,Uttar Pradesh,28.367,79.4304,28.5,86,0.0,976.0,8.0,29.2,174,176.0,82.0,21.3,321.0,37.0,6.1,7,5,7,1,2026-07-13T03:24:13.869067+05:30
Aligarh,Uttar Pradesh,27.8974,78.088,30.2,66,0.0,974.8,7.85,32.8,556,750.6,165.8,12.5,203.0,56.0,4.8,3,5,7,1,2026-07-13T03:24:13.869074+05:30
Moradabad,Uttar Pradesh,28.8386,78.7733,27.7,91,0.0,972.9,7.85,38.2,314,439.6,170.9,28.3,365.0,39.0,14.3,7,5,7,1,2026-07-13T03:24:13.869081+05:30
Saharanpur,Uttar Pradesh,29.9637,77.546,25.9,83,0.0,965.0,7.35,28.1,177,325.0,133.2,38.8,310.0,33.0,12.9,7,5,7,1,2026-07-13T03:24:13.869088+05:30
Jhansi,Uttar Pradesh,25.4484,78.5685,29.2,67,0.0,969.5,8.45,43.6,88,57.0,33.2,7.3,141.0,69.0,10.1,7,5,7,1,2026-07-13T03:24:17.131918+05:30
Surat,Gujarat,21.1702,72.8311,28.2,82,0.0,1001.2,7.05,61.2,57,16.8,11.1,11.4,177.0,37.0,19.9,7,5,4,1,2026-07-13T03:24:17.131957+05:30
Vadodara,Gujarat,22.3072,73.1812,27.6,82,0.0,998.2,7.9,56.5,58,16.2,9.2,5.6,97.0,40.0,5.3,7,5,7,1,2026-07-13T03:24:17.131969+05:30
Rajkot,Gujarat,22.3039,70.8022,26.8,82,0.0,987.2,7.7,56.9,56,20.4,9.7,2.8,89.0,44.0,2.4,7,5,7,1,2026-07-13T03:24:17.131978+05:30
Thane,Maharashtra,19.2183,72.9781,26.8,87,0.0,1004.2,5.1,45.4,52,19.0,10.7,4.2,119.0,45.0,4.2,7,5,0,1,2026-07-13T03:24:17.131986+05:30
Nagpur,Maharashtra,21.1458,79.0882,27.3,75,0.0,966.9,8.7,41.4,79,55.2,31.8,11.9,219.0,43.0,7.5,7,5,7,1,2026-07-13T03:24:17.131994+05:30
Nashik,Maharashtra,19.9975,73.7898,23.0,92,0.0,940.8,8.1,57.2,35,8.6,5.8,7.0,109.0,31.0,5.4,3,5,7,1,2026-07-13T03:24:17.132001+05:30
Aurangabad,Maharashtra,19.8762,75.3433,23.3,89,0.0,939.4,8.95,50.0,53,17.7,8.6,8.2,119.0,33.0,9.4,3,5,7,1,2026-07-13T03:24:17.132009+05:30
Solapur,Maharashtra,17.6599,75.9064,24.0,83,0.0,953.8,8.9,44.6,50,18.1,9.9,5.7,118.0,32.0,2.5,3,5,7,1,2026-07-13T03:24:17.132017+05:30
Kolhapur,Maharashtra,16.705,74.2433,22.9,94,0.0,945.1,8.9,50.4,35,8.4,4.6,2.7,105.0,39.0,1.8,3,5,7,1,2026-07-13T03:24:17.132024+05:30
Goa,Goa,15.2993,74.124,25.4,96,0.0,996.5,6.1,39.6,53,27.4,15.1,3.3,243.0,38.0,1.2,7,5,7,1,2026-07-13T03:24:17.132032+05:30
Jodhpur,Rajasthan,26.2389,73.0243,28.6,70,0.0,974.0,8.45,47.2,160,292.4,63.8,2.6,99.0,53.0,2.4,7,5,7,1,2026-07-13T03:24:17.132039+05:30
Udaipur,Rajasthan,24.5854,73.7125,24.5,84,0.0,938.4,8.45,48.6,76,35.5,17.8,4.2,112.0,46.0,4.3,3,5,7,1,2026-07-13T03:24:17.132046+05:30
Kota,Rajasthan,25.2138,75.8648,28.1,78,0.0,970.8,8.3,42.8,86,42.5,25.9,6.6,125.0,54.0,7.4,7,5,7,1,2026-07-13T03:24:17.132053+05:30
Bikaner,Rajasthan,28.0229,73.3119,31.1,58,0.0,971.1,8.45,36.7,160,250.5,82.0,2.4,101.0,54.0,3.0,0,5,7,1,2026-07-13T03:24:17.132061+05:30
Ajmer,Rajasthan,26.4499,74.6399,26.7,71,0.0,946.1,8.35,52.6,83,48.1,27.6,5.0,105.0,60.0,3.8,7,5,7,1,2026-07-13T03:24:17.132067+05:30
Gwalior,Madhya Pradesh,26.2183,78.1828,28.8,70,0.0,974.0,8.2,43.2,85,50.4,30.0,6.8,140.0,66.0,6.7,7,5,7,1,2026-07-13T03:24:17.132074+05:30
Indore,Madhya Pradesh,22.7196,75.8577,24.2,89,0.0,942.3,8.6,55.4,68,19.2,10.6,6.9,132.0,35.0,7.4,3,5,7,1,2026-07-13T03:24:17.132082+05:30
Bhopal,Madhya Pradesh,23.2599,77.4126,25.4,85,0.0,947.1,7.9,44.3,77,27.6,16.5,5.7,159.0,52.0,6.2,7,5,7,1,2026-07-13T03:24:17.132089+05:30
Jabalpur,Madhya Pradesh,23.1815,79.9864,26.2,82,0.0,954.3,6.7,36.4,79,58.0,32.8,5.9,219.0,63.0,4.5,7,5,7,1,2026-07-13T03:24:17.132096+05:30
Ujjain,Madhya Pradesh,23.1765,75.7885,25.0,87,0.0,947.8,7.95,52.9,68,21.5,11.6,7.1,144.0,35.0,8.3,7,5,7,1,2026-07-13T03:24:17.132104+05:30
Visakhapatnam,Andhra Pradesh,17.6868,83.2185,28.8,66,0.0,995.8,8.2,31.7,96,53.8,32.2,21.1,287.0,41.0,33.7,7,5,7,1,2026-07-13T03:24:17.132111+05:30
Vijayawada,Andhra Pradesh,16.5062,80.648,30.5,54,0.0,996.1,8.7,49.7,84,46.2,32.2,15.2,356.0,42.0,5.0,0,5,7,1,2026-07-13T03:24:17.132119+05:30
Guntur,Andhra Pradesh,16.3067,80.4365,31.9,47,0.0,997.3,8.25,47.9,79,45.4,30.6,16.5,340.0,36.0,5.4,0,5,7,1,2026-07-13T03:24:17.132126+05:30
Nellore,Andhra Pradesh,14.4426,79.9865,30.8,56,0.0,1000.3,8.7,49.7,65,32.8,21.9,13.6,216.0,54.0,9.0,0,5,4,1,2026-07-13T03:24:17.132134+05:30
Kurnool,Andhra Pradesh,15.8281,78.0373,27.2,68,0.0,973.3,8.9,49.3,56,26.1,13.6,6.4,120.0,39.0,4.2,7,5,7,1,2026-07-13T03:24:17.132142+05:30
Kakinada,Andhra Pradesh,16.9891,82.2475,28.7,71,0.0,1000.2,6.45,44.6,85,52.3,31.3,8.9,284.0,60.0,4.8,7,5,4,1,2026-07-13T03:24:17.132149+05:30
Tirupati,Andhra Pradesh,13.6288,79.4192,28.3,61,0.0,986.3,8.3,39.6,78,40.3,25.1,18.8,110.0,27.0,2.8,7,5,7,1,2026-07-13T03:24:17.132156+05:30
Warangal,Telangana,17.9689,79.5941,28.8,63,0.0,972.9,8.75,45.0,78,36.4,24.1,10.7,142.0,40.0,3.2,7,5,7,1,2026-07-13T03:24:17.132163+05:30
Nizamabad,Telangana,18.6725,78.0941,26.3,69,0.0,960.0,8.8,46.1,65,25.9,15.4,6.7,120.0,47.0,6.4,7,5,7,1,2026-07-13T03:24:17.132169+05:30
Mysore,Karnataka,12.2958,76.6396,20.9,94,0.0,926.6,9.0,44.6,45,14.8,7.6,5.7,110.0,34.0,2.1,3,5,7,1,2026-07-13T03:24:17.132176+05:30
Mangalore,Karnataka,12.9141,74.856,25.3,96,0.1,1006.0,8.7,47.2,46,22.1,12.0,4.8,101.0,31.0,2.1,10,5,4,1,2026-07-13T03:24:17.132183+05:30
Hubli-Dharwad,Karnataka,15.3647,75.124,22.2,94,0.0,938.5,8.95,50.8,32,13.8,7.2,3.2,100.0,36.0,1.6,3,5,7,1,2026-07-13T03:24:17.132190+05:30
Belgaum,Karnataka,15.8497,74.4977,21.5,96,0.0,923.2,9.0,50.8,30,8.3,4.7,3.4,102.0,36.0,1.7,3,5,7,1,2026-07-13T03:24:20.386008+05:30
Coimbatore,Tamil Nadu,11.0168,76.9558,23.5,93,0.0,959.4,8.45,54.4,44,18.0,9.2,6.3,142.0,29.0,2.8,3,5,7,1,2026-07-13T03:24:20.386047+05:30
Madurai,Tamil Nadu,9.9252,78.1198,27.3,64,0.0,989.9,8.65,43.2,63,18.3,14.2,17.6,110.0,14.0,4.6,7,5,7,1,2026-07-13T03:24:20.386059+05:30
Trichy,Tamil Nadu,10.7905,78.7047,27.6,68,0.0,996.5,8.25,52.6,58,20.0,9.5,4.1,96.0,40.0,2.4,7,5,7,1,2026-07-13T03:24:20.386068+05:30
Salem,Tamil Nadu,11.6643,78.146,24.4,88,0.0,975.1,8.75,34.6,64,30.0,19.3,16.7,144.0,23.0,5.4,3,5,7,1,2026-07-13T03:24:20.386077+05:30
Tirunelveli,Tamil Nadu,8.7139,77.7567,28.0,65,0.0,1000.1,8.2,50.8,33,15.3,7.9,4.1,114.0,35.0,1.8,7,5,4,1,2026-07-13T03:24:20.386085+05:30
Vellore,Tamil Nadu,12.9165,79.1325,28.7,57,0.0,980.2,8.05,47.2,67,24.2,14.8,7.7,127.0,43.0,3.9,4,5,7,1,2026-07-13T03:24:20.386094+05:30
Erode,Tamil Nadu,11.341,77.7172,25.5,81,0.0,986.9,8.45,52.6,55,24.1,13.8,10.3,155.0,29.0,3.4,7,5,7,1,2026-07-13T03:24:20.386101+05:30
Kochi,Kerala,9.9312,76.2673,26.6,87,0.0,1008.2,8.1,46.1,46,19.4,10.8,6.6,87.0,27.0,2.6,7,0,4,1,2026-07-13T03:24:20.386109+05:30
Thiruvananthapuram,Kerala,8.5241,76.9366,24.7,94,0.0,1007.3,8.0,51.5,40,19.3,9.9,3.0,135.0,40.0,1.3,3,5,4,1,2026-07-13T03:24:20.386116+05:30
Kozhikode,Kerala,11.2588,75.7804,24.7,97,0.0,1007.3,8.35,45.4,40,24.0,9.8,1.3,128.0,45.0,1.0,3,5,4,1,2026-07-13T03:24:20.386123+05:30
Thrissur,Kerala,10.5276,76.2144,25.6,90,0.0,1006.5,7.8,46.4,44,21.5,11.3,4.8,148.0,32.0,2.3,7,5,4,1,2026-07-13T03:24:20.386130+05:30
Kannur,Kerala,11.8745,75.3704,25.3,97,0.1,1006.5,8.75,46.4,42,21.5,10.7,3.8,131.0,33.0,1.8,10,5,4,1,2026-07-13T03:24:20.386138+05:30
Patna,Bihar,25.5941,85.1376,26.9,95,0.0,990.5,8.0,21.2,143,104.3,75.9,34.0,240.0,27.0,11.2,7,5,7,1,2026-07-13T03:24:20.386145+05:30
Gaya,Bihar,24.7914,85.0002,28.4,78,0.0,983.9,4.85,28.1,123,75.9,54.6,19.1,251.0,37.0,7.0,7,5,3,1,2026-07-13T03:24:20.386152+05:30
Muzaffarpur,Bihar,26.1209,85.3647,27.2,97,0.0,990.3,8.2,26.3,142,89.6,60.5,24.0,420.0,43.0,8.0,7,5,7,1,2026-07-13T03:24:20.386159+05:30
Bhagalpur,Bihar,25.2425,87.0117,27.2,94,0.2,991.7,3.8,25.6,129,73.6,52.2,23.9,371.0,28.0,6.4,10,5,3,1,2026-07-13T03:24:20.386165+05:30
Ranchi,Jharkhand,23.3441,85.3096,25.4,80,0.0,929.4,8.0,31.0,100,71.7,45.4,13.4,191.0,52.0,10.3,7,5,7,1,2026-07-13T03:24:20.386173+05:30
Jamshedpur,Jharkhand,22.8046,86.2029,26.9,89,0.1,981.6,7.7,27.4,121,71.0,49.0,20.1,220.0,53.0,23.7,10,5,7,1,2026-07-13T03:24:20.386180+05:30
Dhanbad,Jharkhand,23.7957,86.4304,26.7,94,0.0,970.5,4.55,20.9,155,134.1,98.7,62.1,374.0,7.0,151.9,7,5,3,1,2026-07-13T03:24:20.386186+05:30
Bokaro,Jharkhand,23.6693,86.1511,28.2,79,0.0,974.4,5.1,24.8,152,115.3,85.4,37.7,171.0,23.0,111.9,7,5,3,1,2026-07-13T03:24:20.386193+05:30
Bhubaneswar,Odisha,20.2961,85.8245,28.3,85,0.0,993.5,7.5,26.6,111,51.3,33.6,8.0,312.0,74.0,6.5,7,5,7,1,2026-07-13T03:24:20.386200+05:30
Cuttack,Odisha,20.4625,85.8828,28.8,82,0.0,995.3,7.8,27.7,111,51.3,33.6,8.0,306.0,74.0,6.5,7,5,7,1,2026-07-13T03:24:20.386207+05:30
Rourkela,Odisha,22.2604,84.8536,28.2,75,0.0,976.3,8.9,23.4,102,53.8,34.8,15.1,301.0,50.0,18.8,7,5,7,1,2026-07-13T03:24:20.386214+05:30
Raipur,Chhattisgarh,21.2514,81.6296,26.8,77,0.0,967.6,8.65,37.8,97,62.2,38.8,26.8,398.0,38.0,45.7,7,5,7,1,2026-07-13T03:24:20.386221+05:30
Bhilai,Chhattisgarh,21.1938,81.3509,26.5,78,0.0,968.0,8.8,39.2,92,62.4,36.7,21.1,560.0,41.0,34.3,7,5,7,1,2026-07-13T03:24:20.386227+05:30
Guwahati,Assam,26.1158,91.7086,25.7,100,0.3,992.4,1.75,23.8,49,13.2,12.6,6.2,282.0,61.0,2.1,10,5,3,1,2026-07-13T03:24:20.386234+05:30
Agartala,Tripura,23.8315,91.2868,25.3,98,0.0,997.6,1.75,31.0,78,24.4,20.5,6.6,190.0,86.0,3.1,7,5,3,1,2026-07-13T03:24:20.386240+05:30
Shillong,Meghalaya,25.5788,91.8933,20.3,98,0.1,850.5,0.9,26.3,34,1.1,1.0,3.2,250.0,72.0,3.2,6,5,3,1,2026-07-13T03:24:20.386246+05:30
Imphal,Manipur,24.817,93.9368,22.9,97,0.2,916.4,2.6,20.2,51,14.9,14.1,9.2,240.0,35.0,2.3,6,5,3,1,2026-07-13T03:24:20.386254+05:30
Aizawl,Mizoram,23.7271,92.7176,19.7,96,0.0,885.3,0.95,22.0,55,26.1,16.3,4.7,167.0,34.0,2.2,3,10,3,1,2026-07-13T03:24:20.386261+05:30
Kohima,Nagaland,25.6701,94.1077,20.9,95,0.1,849.5,7.1,24.5,27,7.7,7.0,6.3,207.0,36.0,1.3,6,5,7,1,2026-07-13T03:24:20.386267+05:30
Gangtok,Sikkim,27.3314,88.6138,19.4,95,0.3,830.6,1.8,25.2,49,3.7,3.7,2.7,309.0,103.0,0.3,6,10,3,1,2026-07-13T03:24:20.386274+05:30
Siliguri,West Bengal,26.7271,88.3953,25.7,97,0.2,983.1,0.6,31.3,44,9.3,9.1,8.9,329.0,68.0,2.2,10,5,3,1,2026-07-13T03:24:23.633204+05:30
Durgapur,West Bengal,23.5204,87.3119,27.2,96,0.0,985.2,4.1,27.4,153,63.3,52.5,29.6,395.0,48.0,41.8,7,5,3,1,2026-07-13T03:24:23.633243+05:30
Asansol,West Bengal,23.6739,86.9524,27.4,96,0.0,983.9,2.55,24.8,145,76.8,58.0,43.8,660.0,24.0,54.5,7,5,3,1,2026-07-13T03:24:23.633256+05:30
Pondicherry,Puducherry,11.9139,79.8145,29.2,68,0.0,1003.7,8.0,48.2,64,15.9,11.4,10.0,187.0,49.0,6.5,7,5,4,1,2026-07-13T03:24:23.633265+05:30
Port Blair,Andaman and Nicobar Islands,11.6234,92.7265,26.9,86,0.1,1003.3,8.75,58.0,50,25.6,10.5,0.1,85.0,50.0,0.4,10,5,4,1,2026-07-13T03:24:23.633273+05:30
Haridwar,Uttarakhand,29.9457,78.1642,25.8,96,0.0,963.6,7.5,23.8,168,324.1,154.1,57.3,300.0,31.0,21.9,7,5,7,1,2026-07-13T03:24:23.633282+05:30
Rishikesh,Uttarakhand,30.0869,78.2676,24.9,93,0.0,956.1,7.6,27.7,157,218.9,83.6,6.8,247.0,123.0,13.6,3,5,7,1,2026-07-13T03:24:23.633289+05:30
Nainital,Uttarakhand,29.3919,79.4542,15.9,100,0.0,797.8,8.5,35.6,158,164.4,67.3,12.8,285.0,88.0,6.0,3,10,7,0,2026-07-13T03:24:23.633297+05:30
Mussoorie,Uttarakhand,30.4599,78.0664,15.7,99,0.0,795.0,8.0,43.2,155,196.0,86.1,11.8,258.0,114.0,14.5,3,10,7,0,2026-07-13T03:24:23.633305+05:30
Dharamshala,Himachal Pradesh,32.219,76.3234,22.1,68,0.0,861.3,8.35,36.0,61,30.3,22.5,15.1,215.0,21.0,0.4,3,5,7,0,2026-07-13T03:24:23.633312+05:30
Dalhousie,Himachal Pradesh,32.5387,75.971,16.7,83,0.0,797.1,8.65,31.7,96,58.1,42.8,34.1,342.0,22.0,1.8,3,10,7,0,2026-07-13T03:24:23.633320+05:30
Patiala,Punjab,30.3398,76.3869,27.4,90,0.0,967.4,7.5,24.5,170,140.6,89.4,28.6,414.0,46.0,7.3,7,5,7,1,2026-07-13T03:24:23.633328+05:30
Bhatinda,Punjab,30.211,74.9455,27.9,84,0.0,972.9,8.25,22.3,300,169.0,94.5,29.7,331.0,55.0,12.3,7,5,7,1,2026-07-13T03:24:23.633336+05:30
Rohtak,Haryana,28.8955,76.6066,28.6,73,0.0,971.5,7.6,28.1,1124,698.5,155.5,29.3,182.0,34.0,4.5,7,5,7,1,2026-07-13T03:24:23.633343+05:30
Panipat,Haryana,29.3909,76.9635,27.7,83,0.0,969.8,7.45,25.2,1507,631.4,178.3,43.0,383.0,28.0,7.1,7,5,7,1,2026-07-13T03:24:23.633350+05:30
Mathura,Uttar Pradesh,27.4924,77.6737,30.0,66,0.0,976.4,7.9,34.2,877,741.3,120.1,16.4,198.0,48.0,4.6,7,5,7,1,2026-07-13T03:24:23.633357+05:30
Vrindavan,Uttar Pradesh,27.5823,77.7027,30.4,64,0.0,976.7,7.85,33.1,877,741.3,120.1,16.4,185.0,48.0,4.6,3,5,7,1,2026-07-13T03:24:23.633364+05:30
Ayodhya,Uttar Pradesh,26.7922,82.1998,28.1,93,0.0,984.5,8.35,33.8,126,56.1,40.0,15.4,528.0,51.0,7.8,7,5,7,1,2026-07-13T03:24:23.633371+05:30
Ratlam,Madhya Pradesh,23.3315,75.0367,24.5,92,0.0,948.4,8.05,52.2,65,19.2,10.9,7.3,128.0,35.0,8.8,3,5,7,1,2026-07-13T03:24:23.633378+05:30
Sagar,Madhya Pradesh,23.8388,78.7378,26.0,79,0.0,942.9,8.65,47.5,80,55.1,34.7,5.4,167.0,65.0,4.9,7,5,7,1,2026-07-13T03:24:23.633385+05:30
Satna,Madhya Pradesh,24.6005,80.8322,27.6,73,0.0,962.9,8.7,41.8,83,52.4,31.1,6.1,168.0,60.0,4.0,7,5,7,1,2026-07-13T03:24:23.633392+05:30
Akola,Maharashtra,20.7002,77.0082,26.9,74,0.0,970.1,8.75,48.2,65,23.1,12.7,7.0,106.0,43.0,8.0,7,5,7,1,2026-07-13T03:24:23.633400+05:30
Amravati,Maharashtra,20.9374,77.7796,26.7,74,0.0,961.9,8.75,54.4,67,25.7,14.4,7.4,126.0,44.0,8.6,7,5,7,1,2026-07-13T03:24:23.633408+05:30
Latur,Maharashtra,18.4088,76.5604,23.4,82,0.0,935.6,8.9,43.6,52,20.2,9.5,4.7,118.0,36.0,2.7,3,5,7,1,2026-07-13T03:24:23.633415+05:30
Nanded,Maharashtra,19.1383,77.3091,26.2,72,0.0,964.0,8.85,41.4,60,24.3,13.4,5.1,115.0,42.0,3.2,7,5,7,1,2026-07-13T03:24:23.633423+05:30
Gulbarga,Karnataka,17.3297,76.8343,24.2,80,0.0,955.2,8.8,49.3,52,22.4,11.1,5.3,108.0,35.0,2.7,3,5,7,1,2026-07-13T03:24:23.633430+05:30
Bidar,Karnataka,17.9104,77.5199,24.0,76,0.0,931.2,8.95,45.4,57,25.3,12.9,4.5,121.0,40.0,2.1,3,5,7,1,2026-07-13T03:24:23.633437+05:30
Hospet,Karnataka,15.2689,76.3909,23.0,90,0.0,953.5,8.9,50.8,40,11.6,5.8,4.0,107.0,36.0,1.8,3,5,7,1,2026-07-13T03:24:23.633444+05:30
Tirupur,Tamil Nadu,11.1085,77.3411,24.2,89,0.0,973.2,8.35,59.4,57,26.7,15.6,12.5,133.0,24.0,4.0,3,5,7,1,2026-07-13T03:24:23.633451+05:30
Alappuzha,Kerala,9.4981,76.3388,26.7,86,0.1,1008.3,7.95,46.1,45,22.9,11.0,4.2,80.0,37.0,2.2,10,0,4,1,2026-07-13T03:24:23.633458+05:30
Munnar,Kerala,10.0889,77.0595,16.2,100,0.0,855.0,8.7,37.1,30,5.6,3.4,4.7,92.0,27.0,1.5,3,10,7,1,2026-07-13T03:24:23.633466+05:30
Silchar,Assam,24.8333,92.7789,26.7,96,0.0,997.0,0.5,17.6,75,43.4,29.7,8.8,230.0,66.0,8.0,7,5,3,1,2026-07-13T03:24:23.633473+05:30
Dibrugarh,Assam,27.4728,94.912,25.9,99,0.1,987.6,8.9,20.2,47,10.0,9.9,8.5,230.0,55.0,0.8,10,5,7,1,2026-07-13T03:24:23.633480+05:30
