city,state,latitude,longitude,temp,humidity,rain,pressure,uv_index,wind_gusts,aqi,pm10,pm2_5,mosquito_risk,arthritis_risk,migraine_risk,frizz_risk,updated_at
Delhi,Delhi,28.6139,77.209,27.8,46,0.0,981.7,7.3,30.2,447,395.8,99.4,4,5,7,0,2026-04-22T08:20:17.362831+05:30
Mumbai,Maharashtra,19.076,72.8777,29.3,76,0.0,1008.8,8.0,32.4,96,62.4,38.4,7,0,4,1,2026-04-22T08:20:17.362876+05:30
Bangalore,Karnataka,12.9716,77.5946,25.0,67,0.0,912.8,9.6,28.8,68,35.3,33.3,7,5,7,1,2026-04-22T08:20:17.362893+05:30
Hyderabad,Telangana,17.385,78.4867,29.6,53,0.0,954.8,9.2,20.2,115,58.1,54.2,4,5,7,1,2026-04-22T08:20:17.362903+05:30
Chennai,Tamil Nadu,13.0827,80.2707,30.9,68,0.0,1008.1,9.25,32.4,44,9.3,7.1,3,0,4,1,2026-04-22T08:20:17.362912+05:30
Kolkata,West Bengal,22.5726,88.3639,30.4,82,0.0,1004.2,8.95,27.4,87,34.6,32.7,3,5,4,1,2026-04-22T08:20:17.362924+05:30
Pune,Maharashtra,18.5204,73.8567,29.7,56,0.0,949.7,8.6,41.4,92,52.5,47.4,4,5,7,1,2026-04-22T08:20:17.362932+05:30
Ahmedabad,Gujarat,23.0225,72.5714,26.2,45,0.0,1003.6,8.2,24.8,39,19.6,12.5,4,5,4,0,2026-04-22T08:20:17.362939+05:30
Jaipur,Rajasthan,26.9124,75.7873,29.7,20,0.0,960.5,8.0,34.9,136,244.0,35.0,4,5,7,0,2026-04-22T08:20:17.362948+05:30
Lucknow,Uttar Pradesh,26.8467,80.9462,30.0,41,0.0,991.9,7.85,44.6,192,350.2,77.3,4,5,7,0,2026-04-22T08:20:17.362956+05:30
Kanpur,Uttar Pradesh,26.4499,80.3319,28.4,54,0.0,990.3,7.9,36.4,409,379.0,64.7,4,5,7,1,2026-04-22T08:20:17.362964+05:30
Chandigarh,Chandigarh,30.7333,76.7794,25.8,52,0.0,966.8,7.35,31.3,57,21.2,17.6,4,5,7,0,2026-04-22T08:20:17.362971+05:30
Srinagar,Jammu and Kashmir,34.0837,74.7973,14.7,86,0.0,842.3,8.5,16.2,70,39.7,27.3,3,10,7,0,2026-04-22T08:20:17.362978+05:30
Jammu,Jammu and Kashmir,32.7266,74.857,26.5,64,0.0,970.3,8.1,28.8,71,31.5,27.5,7,5,7,1,2026-04-22T08:20:17.362985+05:30
Amritsar,Punjab,31.634,74.8723,26.0,58,0.0,978.8,8.05,28.8,84,68.7,61.9,4,5,7,1,2026-04-22T08:20:17.362992+05:30
Ludhiana,Punjab,30.901,75.8573,27.4,43,0.0,977.0,7.6,29.9,80,39.0,33.2,4,5,7,0,2026-04-22T08:20:17.363001+05:30
Jalandhar,Punjab,31.326,75.5762,26.8,47,0.0,977.9,7.8,31.0,81,52.2,40.2,4,5,7,0,2026-04-22T08:20:17.363007+05:30
Dehradun,Uttarakhand,30.6284,78.0322,20.0,46,0.0,830.9,7.75,31.0,46,11.5,9.1,0,5,7,0,2026-04-22T08:20:17.363014+05:30
Shimla,Himachal Pradesh,31.1048,77.1734,19.4,44,0.0,786.2,7.85,51.1,45,18.2,13.9,0,5,7,0,2026-04-22T08:20:17.363020+05:30
Manali,Himachal Pradesh,32.2396,77.1887,23.3,17,0.0,822.2,9.3,30.6,49,26.4,10.8,0,5,7,1,2026-04-22T08:20:17.363027+05:30
Gurgaon,Haryana,28.4595,77.0266,26.1,58,0.0,980.0,7.45,27.7,1141,1549.7,210.9,4,5,7,1,2026-04-22T08:20:17.363034+05:30
Noida,Uttar Pradesh,28.5355,77.391,28.4,46,0.0,983.1,7.35,31.7,1141,1549.7,210.9,4,5,7,0,2026-04-22T08:20:17.363040+05:30
Ghaziabad,Uttar Pradesh,28.6692,77.4538,27.4,50,0.0,981.1,7.35,31.3,345,335.3,89.9,4,5,7,0,2026-04-22T08:20:17.363046+05:30
Faridabad,Haryana,28.4089,77.3178,29.1,41,0.0,982.6,7.4,32.8,1141,1549.7,210.9,4,5,7,0,2026-04-22T08:20:17.363052+05:30
Meerut,Uttar Pradesh,28.9845,77.7064,26.0,53,0.0,979.6,7.25,36.0,345,335.3,89.9,4,5,7,0,2026-04-22T08:20:17.363058+05:30
Agra,Uttar Pradesh,27.1767,78.0081,29.7,44,0.0,987.1,7.75,36.4,629,855.0,111.1,4,5,7,1,2026-04-22T08:20:17.363067+05:30
Varanasi,Uttar Pradesh,25.3176,82.9739,32.3,34,0.0,995.8,8.55,42.5,107,156.9,44.4,0,5,7,0,2026-04-22T08:20:17.363074+05:30
Prayagraj,Uttar Pradesh,25.4358,81.8463,32.0,37,0.0,994.8,8.4,38.5,123,177.4,53.4,0,5,7,0,2026-04-22T08:20:17.363080+05:30
Gorakhpur,Uttar Pradesh,26.7606,83.3732,30.5,33,0.0,994.9,8.25,41.0,90,201.6,59.0,0,5,7,0,2026-04-22T08:20:17.363089+05:30
Bareilly,Uttar Pradesh,28.367,79.4304,26.8,47,0.0,985.3,7.6,38.5,95,108.5,48.9,4,5,7,0,2026-04-22T08:20:17.363095+05:30
Aligarh,Uttar Pradesh,27.8974,78.088,29.2,39,0.0,984.6,7.5,36.0,734,927.6,146.7,4,5,7,0,2026-04-22T08:20:17.363101+05:30
Moradabad,Uttar Pradesh,28.8386,78.7733,26.5,49,0.0,981.9,7.45,36.4,113,94.3,48.8,4,5,7,0,2026-04-22T08:20:17.363106+05:30
Saharanpur,Uttar Pradesh,29.9637,77.546,23.5,68,0.0,973.8,6.95,32.8,85,58.7,54.8,3,5,7,1,2026-04-22T08:20:17.363112+05:30
Jhansi,Uttar Pradesh,25.4484,78.5685,32.2,28,0.0,978.1,8.3,30.2,105,30.6,15.4,0,5,7,0,2026-04-22T08:20:20.578591+05:30
Surat,Gujarat,21.1702,72.8311,27.9,63,0.0,1007.7,7.9,21.2,111,33.5,29.5,7,5,4,1,2026-04-22T08:20:20.578625+05:30
Vadodara,Gujarat,22.3072,73.1812,28.0,37,0.0,1005.9,8.15,24.8,92,18.2,16.5,4,5,4,0,2026-04-22T08:20:20.578636+05:30
Rajkot,Gujarat,22.3039,70.8022,24.4,85,0.0,995.8,7.85,29.9,54,49.8,18.6,3,5,7,1,2026-04-22T08:20:20.578643+05:30
Thane,Maharashtra,19.2183,72.9781,28.9,72,0.0,1008.4,8.05,43.6,96,62.4,38.4,7,0,4,1,2026-04-22T08:20:20.578650+05:30
Nagpur,Maharashtra,21.1458,79.0882,31.4,41,0.0,973.9,8.95,30.6,86,32.8,30.0,0,5,7,1,2026-04-22T08:20:20.578656+05:30
Nashik,Maharashtra,19.9975,73.7898,27.7,51,0.0,946.9,8.3,37.1,87,60.5,45.3,4,5,7,1,2026-04-22T08:20:20.578661+05:30
Aurangabad,Maharashtra,19.8762,75.3433,29.6,41,0.0,945.9,9.05,34.6,82,41.2,35.4,4,5,7,0,2026-04-22T08:20:20.578667+05:30
Solapur,Maharashtra,17.6599,75.9064,28.6,63,0.0,958.4,9.1,28.1,109,55.6,50.9,7,5,7,1,2026-04-22T08:20:20.578674+05:30
Kolhapur,Maharashtra,16.705,74.2433,26.7,72,0.0,949.4,9.05,43.9,99,50.3,44.4,7,5,7,1,2026-04-22T08:20:20.578680+05:30
Goa,Goa,15.2993,74.124,29.1,78,0.0,998.4,9.0,29.5,73,39.6,28.4,7,5,7,1,2026-04-22T08:20:20.578687+05:30
Jodhpur,Rajasthan,26.2389,73.0243,28.2,33,0.0,983.6,8.2,29.2,107,92.0,18.1,4,5,7,0,2026-04-22T08:20:20.578693+05:30
Udaipur,Rajasthan,24.5854,73.7125,27.8,33,0.0,947.7,8.75,42.5,39,9.5,8.2,4,5,7,0,2026-04-22T08:20:20.578699+05:30
Kota,Rajasthan,25.2138,75.8648,30.0,24,0.0,979.7,8.25,29.5,56,8.7,8.3,4,5,7,0,2026-04-22T08:20:20.578705+05:30
Bikaner,Rajasthan,28.0229,73.3119,31.1,30,0.0,981.4,8.05,30.2,59,160.7,46.1,0,5,7,0,2026-04-22T08:20:20.578711+05:30
Ajmer,Rajasthan,26.4499,74.6399,27.5,29,0.0,955.7,8.2,34.9,55,14.7,6.5,4,5,7,0,2026-04-22T08:20:20.578717+05:30
Gwalior,Madhya Pradesh,26.2183,78.1828,32.4,28,0.0,983.3,8.0,39.6,94,39.2,17.8,0,5,7,0,2026-04-22T08:20:20.578723+05:30
Indore,Madhya Pradesh,22.7196,75.8577,28.0,36,0.0,949.6,8.65,35.6,56,15.3,13.4,4,5,7,0,2026-04-22T08:20:20.578729+05:30
Bhopal,Madhya Pradesh,23.2599,77.4126,29.3,32,0.0,955.1,8.65,36.7,54,11.8,10.9,4,5,7,0,2026-04-22T08:20:20.578735+05:30
Jabalpur,Madhya Pradesh,23.1815,79.9864,29.4,39,0.0,962.3,8.8,32.0,63,34.5,22.6,4,5,7,0,2026-04-22T08:20:20.578741+05:30
Ujjain,Madhya Pradesh,23.1765,75.7885,28.7,33,0.0,955.2,8.55,36.4,56,16.2,14.4,4,5,7,0,2026-04-22T08:20:20.578766+05:30
Visakhapatnam,Andhra Pradesh,17.6868,83.2185,30.1,74,0.0,1003.8,9.2,40.0,61,22.8,19.9,3,5,4,1,2026-04-22T08:20:20.578773+05:30
Vijayawada,Andhra Pradesh,16.5062,80.648,29.3,77,0.0,1003.3,9.25,27.4,59,13.2,10.0,7,5,4,1,2026-04-22T08:20:20.578780+05:30
Guntur,Andhra Pradesh,16.3067,80.4365,29.5,76,0.0,1004.5,9.25,31.0,64,12.5,9.6,7,5,4,1,2026-04-22T08:20:20.578786+05:30
Nellore,Andhra Pradesh,14.4426,79.9865,30.6,68,0.0,1006.4,9.3,34.2,52,11.1,10.2,3,5,4,1,2026-04-22T08:20:20.578793+05:30
Kurnool,Andhra Pradesh,15.8281,78.0373,31.3,53,0.0,977.8,9.25,21.2,105,24.8,22.9,0,5,7,1,2026-04-22T08:20:20.578799+05:30
Kakinada,Andhra Pradesh,16.9891,82.2475,30.2,75,0.0,1008.3,9.2,29.2,44,14.8,10.3,3,0,4,1,2026-04-22T08:20:20.578806+05:30
Tirupati,Andhra Pradesh,13.6288,79.4192,28.3,74,0.0,993.1,9.35,32.4,63,18.8,17.9,7,5,7,1,2026-04-22T08:20:20.578812+05:30
Warangal,Telangana,17.9689,79.5941,29.0,66,0.0,979.9,9.2,33.1,96,22.2,20.5,7,5,7,1,2026-04-22T08:20:20.578818+05:30
Nizamabad,Telangana,18.6725,78.0941,30.9,49,0.0,965.9,8.95,33.5,106,46.1,44.1,0,5,7,1,2026-04-22T08:20:20.578823+05:30
Mysore,Karnataka,12.2958,76.6396,25.9,74,0.0,929.7,9.45,37.8,82,35.4,32.7,7,5,7,1,2026-04-22T08:20:20.578829+05:30
Mangalore,Karnataka,12.9141,74.856,28.4,86,0.0,1006.9,9.1,25.9,79,36.0,31.9,7,5,4,1,2026-04-22T08:20:20.578836+05:30
Hubli-Dharwad,Karnataka,15.3647,75.124,25.8,82,0.0,942.0,9.2,38.2,98,47.4,43.8,7,5,7,1,2026-04-22T08:20:20.578842+05:30
Belgaum,Karnataka,15.8497,74.4977,25.4,81,0.0,927.1,9.25,33.1,89,40.0,32.9,7,5,7,1,2026-04-22T08:20:23.795869+05:30
Coimbatore,Tamil Nadu,11.0168,76.9558,27.3,76,0.0,962.9,9.4,36.4,79,31.7,28.4,7,5,7,1,2026-04-22T08:20:23.795903+05:30
Madurai,Tamil Nadu,9.9252,78.1198,28.7,76,0.0,993.9,9.3,37.4,60,23.3,21.9,7,5,7,1,2026-04-22T08:20:23.795914+05:30
Trichy,Tamil Nadu,10.7905,78.7047,30.0,74,0.0,1000.7,9.3,19.1,59,24.6,23.3,7,5,4,1,2026-04-22T08:20:23.795922+05:30
Salem,Tamil Nadu,11.6643,78.146,29.7,68,0.0,978.3,9.25,25.6,60,17.8,17.1,7,5,7,1,2026-04-22T08:20:23.795929+05:30
Tirunelveli,Tamil Nadu,8.7139,77.7567,30.0,65,0.0,1003.8,9.25,45.7,65,25.6,23.5,7,5,4,1,2026-04-22T08:20:23.795937+05:30
Vellore,Tamil Nadu,12.9165,79.1325,27.9,73,0.0,986.1,9.35,28.8,71,31.3,30.3,7,5,7,1,2026-04-22T08:20:23.795944+05:30
Erode,Tamil Nadu,11.341,77.7172,30.5,71,0.0,989.9,9.2,24.5,52,13.7,13.2,3,5,7,1,2026-04-22T08:20:23.795951+05:30
Kochi,Kerala,9.9312,76.2673,28.3,84,0.0,1008.9,9.0,28.4,73,28.9,26.1,7,0,4,1,2026-04-22T08:20:23.795958+05:30
Thiruvananthapuram,Kerala,8.5241,76.9366,28.2,85,0.0,1008.1,8.9,29.5,53,15.4,13.5,7,0,4,1,2026-04-22T08:20:23.795965+05:30
Kozhikode,Kerala,11.2588,75.7804,29.2,82,0.0,1007.9,9.05,29.5,67,22.8,18.5,7,5,4,1,2026-04-22T08:20:23.795972+05:30
Thrissur,Kerala,10.5276,76.2144,29.5,75,0.0,1007.3,9.05,35.6,72,29.6,25.7,7,5,4,1,2026-04-22T08:20:23.795979+05:30
Kannur,Kerala,11.8745,75.3704,29.2,83,0.0,1007.2,9.1,32.8,77,29.5,26.3,7,5,4,1,2026-04-22T08:20:23.795986+05:30
Patna,Bihar,25.5941,85.1376,30.8,39,0.0,998.1,8.65,41.4,90,135.5,43.8,0,5,7,0,2026-04-22T08:20:23.795993+05:30
Gaya,Bihar,24.7914,85.0002,32.3,37,0.0,992.2,8.75,40.3,91,110.8,34.0,0,5,7,0,2026-04-22T08:20:23.795999+05:30
Muzaffarpur,Bihar,26.1209,85.3647,29.2,46,0.0,998.0,8.65,15.8,86,148.1,46.8,4,5,7,1,2026-04-22T08:20:23.796005+05:30
Bhagalpur,Bihar,25.2425,87.0117,29.6,55,0.0,998.8,8.7,22.0,88,79.9,28.8,4,5,7,1,2026-04-22T08:20:23.796011+05:30
Ranchi,Jharkhand,23.3441,85.3096,31.8,28,0.0,938.3,9.25,41.4,76,85.9,31.5,0,5,7,0,2026-04-22T08:20:23.796017+05:30
Jamshedpur,Jharkhand,22.8046,86.2029,32.3,59,0.0,989.5,9.05,25.6,107,74.7,45.2,0,5,7,1,2026-04-22T08:20:23.796023+05:30
Dhanbad,Jharkhand,23.7957,86.4304,32.9,31,0.0,978.6,9.0,38.5,142,98.7,61.7,0,5,7,0,2026-04-22T08:20:23.796030+05:30
Bokaro,Jharkhand,23.6693,86.1511,33.1,36,0.0,982.7,9.05,40.7,125,91.7,57.3,0,5,7,0,2026-04-22T08:20:23.796036+05:30
Bhubaneswar,Odisha,20.2961,85.8245,29.5,87,0.0,1001.8,9.15,31.7,86,31.5,27.4,7,5,4,1,2026-04-22T08:20:23.796042+05:30
Cuttack,Odisha,20.4625,85.8828,30.4,81,0.0,1003.7,9.2,43.2,86,31.5,27.4,3,5,4,1,2026-04-22T08:20:23.796048+05:30
Rourkela,Odisha,22.2604,84.8536,33.1,49,0.0,984.4,9.0,40.7,102,65.0,51.3,0,5,7,1,2026-04-22T08:20:23.796054+05:30
Raipur,Chhattisgarh,21.2514,81.6296,32.3,52,0.0,975.3,9.05,33.5,127,55.1,53.2,0,5,7,1,2026-04-22T08:20:23.796060+05:30
Bhilai,Chhattisgarh,21.1938,81.3509,32.1,55,0.0,975.7,9.05,30.2,115,51.8,50.1,0,5,7,1,2026-04-22T08:20:23.796066+05:30
Guwahati,Assam,26.1158,91.7086,24.9,81,0.0,1001.1,8.6,36.7,114,44.7,34.3,3,5,4,1,2026-04-22T08:20:23.796071+05:30
Agartala,Tripura,23.8315,91.2868,30.3,76,0.0,1005.3,8.75,36.0,80,24.2,19.8,3,5,4,1,2026-04-22T08:20:23.796077+05:30
Shillong,Meghalaya,25.5788,91.8933,20.3,74,0.0,857.4,9.05,70.6,70,8.1,5.8,3,5,7,0,2026-04-22T08:20:23.796084+05:30
Imphal,Manipur,24.817,93.9368,21.9,82,0.0,924.6,9.2,77.0,148,61.7,46.7,3,5,7,1,2026-04-22T08:20:23.796090+05:30
Aizawl,Mizoram,23.7271,92.7176,24.3,71,0.0,894.2,9.05,56.2,104,39.3,30.2,3,5,7,1,2026-04-22T08:20:23.796096+05:30
Kohima,Nagaland,25.6701,94.1077,21.1,68,0.0,856.4,9.15,105.5,112,59.5,38.3,3,5,7,0,2026-04-22T08:20:23.796102+05:30
Gangtok,Sikkim,27.3314,88.6138,20.0,73,0.0,838.2,8.9,20.2,64,14.1,8.9,3,5,7,0,2026-04-22T08:20:23.796108+05:30
Siliguri,West Bengal,26.7271,88.3953,26.0,69,0.0,992.1,8.55,23.0,140,31.2,25.3,7,5,7,1,2026-04-22T08:20:27.013501+05:30
Durgapur,West Bengal,23.5204,87.3119,31.4,76,0.0,993.4,8.95,28.4,152,104.3,73.1,3,5,7,1,2026-04-22T08:20:27.013534+05:30
Asansol,West Bengal,23.6739,86.9524,32.4,69,0.0,991.9,9.0,28.1,130,82.0,44.1,3,5,7,1,2026-04-22T08:20:27.013545+05:30
Pondicherry,Puducherry,11.9139,79.8145,30.5,73,0.0,1009.3,9.25,30.6,43,10.1,7.5,3,0,4,1,2026-04-22T08:20:27.013553+05:30
Port Blair,Andaman and Nicobar Islands,11.6234,92.7265,29.6,73,0.0,1008.1,9.1,18.4,48,11.1,8.6,7,0,4,1,2026-04-22T08:20:27.013561+05:30
Haridwar,Uttarakhand,29.9457,78.1642,27.6,54,0.0,972.7,7.15,34.6,66,28.8,28.6,4,5,7,1,2026-04-22T08:20:27.013568+05:30
Rishikesh,Uttarakhand,30.0869,78.2676,27.9,50,0.0,965.6,7.25,33.8,56,19.1,18.9,4,5,7,1,2026-04-22T08:20:27.013575+05:30
Nainital,Uttarakhand,29.3919,79.4542,25.1,33,0.0,808.1,8.05,38.5,58,18.6,16.6,4,5,7,0,2026-04-22T08:20:27.013582+05:30
Mussoorie,Uttarakhand,30.4599,78.0664,22.2,43,0.0,804.1,7.65,38.5,60,21.5,20.6,0,5,7,0,2026-04-22T08:20:27.013589+05:30
Dharamshala,Himachal Pradesh,32.219,76.3234,26.0,42,0.0,869.2,7.95,29.2,38,14.7,7.2,4,5,7,0,2026-04-22T08:20:27.013595+05:30
Dalhousie,Himachal Pradesh,32.5387,75.971,22.7,30,0.0,804.6,8.25,25.2,56,17.9,13.4,0,5,7,0,2026-04-22T08:20:27.013604+05:30
Patiala,Punjab,30.3398,76.3869,25.8,53,0.0,976.4,7.25,23.0,275,307.3,54.1,4,5,7,0,2026-04-22T08:20:27.013611+05:30
Bhatinda,Punjab,30.211,74.9455,29.4,36,0.0,982.2,7.95,32.4,72,50.5,42.5,4,5,7,0,2026-04-22T08:20:27.013617+05:30
Rohtak,Haryana,28.8955,76.6066,26.5,56,0.0,980.1,7.4,31.7,606,624.0,105.0,4,5,7,1,2026-04-22T08:20:27.013624+05:30
Panipat,Haryana,29.3909,76.9635,26.3,49,0.0,978.7,7.2,31.0,990,841.9,122.0,4,5,7,0,2026-04-22T08:20:27.013630+05:30
Mathura,Uttar Pradesh,27.4924,77.6737,30.0,41,0.0,986.0,7.7,34.9,693,754.4,95.0,4,5,7,0,2026-04-22T08:20:27.013636+05:30
Vrindavan,Uttar Pradesh,27.5823,77.7027,29.9,41,0.0,986.4,7.65,35.3,693,754.4,95.0,4,5,7,0,2026-04-22T08:20:27.013642+05:30
Ayodhya,Uttar Pradesh,26.7922,82.1998,31.1,35,0.0,993.4,8.05,46.1,119,273.8,72.4,0,5,7,0,2026-04-22T08:20:27.013648+05:30
Ratlam,Madhya Pradesh,23.3315,75.0367,28.2,42,0.0,955.8,8.45,31.0,54,15.7,13.6,4,5,7,0,2026-04-22T08:20:27.013655+05:30
Sagar,Madhya Pradesh,23.8388,78.7378,29.3,31,0.0,951.6,8.7,37.8,58,18.2,13.9,4,5,7,0,2026-04-22T08:20:27.013661+05:30
Satna,Madhya Pradesh,24.6005,80.8322,32.1,33,0.0,971.3,8.7,43.6,90,41.2,19.7,0,5,7,0,2026-04-22T08:20:27.013667+05:30
Akola,Maharashtra,20.7002,77.0082,31.4,41,0.0,976.4,8.85,32.0,81,29.9,27.5,0,5,7,1,2026-04-22T08:20:27.013674+05:30
Amravati,Maharashtra,20.9374,77.7796,30.5,42,0.0,968.4,8.9,22.0,85,28.6,26.6,0,5,7,1,2026-04-22T08:20:27.013681+05:30
Latur,Maharashtra,18.4088,76.5604,29.4,46,0.0,941.4,9.1,33.1,110,47.1,43.5,4,5,7,1,2026-04-22T08:20:27.013687+05:30
Nanded,Maharashtra,19.1383,77.3091,30.0,52,0.0,969.9,9.0,24.8,98,39.5,37.8,4,5,7,1,2026-04-22T08:20:27.013693+05:30
Gulbarga,Karnataka,17.3297,76.8343,29.9,56,0.0,960.1,9.15,33.5,101,47.4,43.7,4,5,7,1,2026-04-22T08:20:27.013699+05:30
Bidar,Karnataka,17.9104,77.5199,29.9,50,0.0,937.1,8.35,46.8,105,46.2,43.0,4,5,7,1,2026-04-22T08:20:27.013705+05:30
Hospet,Karnataka,15.2689,76.3909,27.1,68,0.0,957.0,9.25,25.9,107,60.3,55.6,7,5,7,1,2026-04-22T08:20:27.013711+05:30
Tirupur,Tamil Nadu,11.1085,77.3411,29.2,69,0.0,976.3,9.4,29.5,65,24.0,21.8,7,5,7,1,2026-04-22T08:20:27.013716+05:30
Alappuzha,Kerala,9.4981,76.3388,28.1,82,0.0,1009.0,8.75,25.2,67,29.4,26.0,7,0,4,1,2026-04-22T08:20:27.013722+05:30
Munnar,Kerala,10.0889,77.0595,23.9,77,0.0,858.2,9.65,34.9,76,28.9,27.1,3,5,7,1,2026-04-22T08:20:27.013728+05:30
Silchar,Assam,24.8333,92.7789,25.1,89,0.0,1006.3,8.8,44.6,152,46.6,40.0,7,5,4,1,2026-04-22T08:20:27.013734+05:30
Dibrugarh,Assam,27.4728,94.912,23.1,93,0.0,995.6,8.45,21.6,57,11.0,7.9,3,5,7,1,2026-04-22T08:20:27.013740+05:30
