city,state,latitude,longitude,temp,humidity,rain,pressure,uv_index,wind_gusts,aqi,pm10,pm2_5,mosquito_risk,arthritis_risk,migraine_risk,frizz_risk,updated_at
Delhi,Delhi,28.6139,77.209,30.0,37,0.0,981.7,6.15,22.3,134,94.5,26.0,4,5,7,0,2026-03-28T14:13:20.874341+05:30
Mumbai,Maharashtra,19.076,72.8777,28.0,83,0.0,1007.3,8.0,25.2,80,28.5,22.2,7,5,4,1,2026-03-28T14:13:20.874380+05:30
Bangalore,Karnataka,12.9716,77.5946,32.1,35,0.0,910.8,9.5,47.2,90,40.3,32.0,0,5,7,0,2026-03-28T14:13:20.874395+05:30
Hyderabad,Telangana,17.385,78.4867,38.1,17,0.0,950.7,9.0,24.8,110,47.3,37.4,0,5,10,0,2026-03-28T14:13:20.874405+05:30
Chennai,Tamil Nadu,13.0827,80.2707,35.2,47,0.0,1005.0,9.25,34.9,68,30.6,21.4,0,5,7,1,2026-03-28T14:13:20.874413+05:30
Kolkata,West Bengal,22.5726,88.3639,31.7,57,0.0,1002.8,8.4,31.7,119,69.2,54.7,0,5,4,1,2026-03-28T14:13:20.874421+05:30
Pune,Maharashtra,18.5204,73.8567,37.2,20,0.0,947.4,8.5,46.8,80,11.3,8.8,0,5,10,0,2026-03-28T14:13:20.874432+05:30
Ahmedabad,Gujarat,23.0225,72.5714,35.6,31,0.0,1000.3,7.95,35.3,38,48.1,11.1,0,5,7,0,2026-03-28T14:13:20.874440+05:30
Jaipur,Rajasthan,26.9124,75.7873,33.3,23,0.0,958.3,7.25,32.0,112,160.2,20.0,0,5,7,0,2026-03-28T14:13:20.874447+05:30
Lucknow,Uttar Pradesh,26.8467,80.9462,32.1,34,0.0,991.1,7.15,29.5,130,108.5,26.1,0,5,7,0,2026-03-28T14:13:20.874455+05:30
Kanpur,Uttar Pradesh,26.4499,80.3319,31.5,38,0.0,989.8,6.95,29.2,187,245.9,39.1,0,5,7,0,2026-03-28T14:13:20.874461+05:30
Chandigarh,Chandigarh,30.7333,76.7794,29.2,46,0.0,967.2,5.25,23.0,73,21.8,15.3,4,5,3,1,2026-03-28T14:13:20.874468+05:30
Srinagar,Jammu and Kashmir,34.0837,74.7973,19.4,45,0.0,839.5,6.0,16.2,88,26.7,12.6,0,5,3,0,2026-03-28T14:13:20.874475+05:30
Jammu,Jammu and Kashmir,32.7266,74.857,28.4,53,0.0,971.2,6.85,15.8,73,11.3,10.9,4,5,7,1,2026-03-28T14:13:20.874482+05:30
Amritsar,Punjab,31.634,74.8723,29.1,45,0.0,979.2,6.15,14.8,136,17.3,15.3,4,5,7,0,2026-03-28T14:13:20.874489+05:30
Ludhiana,Punjab,30.901,75.8573,29.6,40,0.0,977.3,6.15,14.0,96,22.0,14.8,4,5,7,0,2026-03-28T14:13:20.874495+05:30
Jalandhar,Punjab,31.326,75.5762,28.9,45,0.0,978.4,6.25,12.2,100,23.5,14.5,4,5,7,0,2026-03-28T14:13:20.874504+05:30
Dehradun,Uttarakhand,30.6284,78.0322,18.8,62,0.0,828.7,5.8,22.3,56,23.0,12.4,3,5,3,0,2026-03-28T14:13:20.874511+05:30
Shimla,Himachal Pradesh,31.1048,77.1734,17.0,63,0.0,783.5,6.0,32.0,59,17.6,8.8,3,5,3,0,2026-03-28T14:13:20.874518+05:30
Manali,Himachal Pradesh,32.2396,77.1887,21.6,52,0.0,818.7,8.55,28.1,89,22.5,6.7,0,5,7,0,2026-03-28T14:13:20.874525+05:30
Gurgaon,Haryana,28.4595,77.0266,30.3,37,0.0,980.2,6.3,17.3,370,379.0,50.2,0,5,7,0,2026-03-28T14:13:20.874533+05:30
Noida,Uttar Pradesh,28.5355,77.391,30.3,37,0.0,983.2,6.05,21.6,370,379.0,50.2,0,5,7,0,2026-03-28T14:13:20.874539+05:30
Ghaziabad,Uttar Pradesh,28.6692,77.4538,29.9,40,0.0,981.4,5.8,21.2,125,67.1,24.7,4,5,3,0,2026-03-28T14:13:20.874545+05:30
Faridabad,Haryana,28.4089,77.3178,30.4,37,0.0,982.4,6.3,19.4,370,379.0,50.2,0,5,7,0,2026-03-28T14:13:20.874552+05:30
Meerut,Uttar Pradesh,28.9845,77.7064,29.4,43,0.0,980.1,5.85,23.0,125,67.1,24.7,4,5,3,0,2026-03-28T14:13:20.874558+05:30
Agra,Uttar Pradesh,27.1767,78.0081,34.8,27,0.0,985.6,6.35,27.0,417,462.9,49.0,0,5,7,0,2026-03-28T14:13:20.874564+05:30
Varanasi,Uttar Pradesh,25.3176,82.9739,33.3,35,0.0,995.1,7.8,37.4,80,78.0,23.1,0,5,7,0,2026-03-28T14:13:20.874572+05:30
Prayagraj,Uttar Pradesh,25.4358,81.8463,33.2,36,0.0,993.5,7.7,30.2,80,103.4,25.0,0,5,7,1,2026-03-28T14:13:20.874579+05:30
Gorakhpur,Uttar Pradesh,26.7606,83.3732,30.9,43,0.0,994.8,7.0,23.8,100,113.6,34.1,0,5,7,1,2026-03-28T14:13:20.874585+05:30
Bareilly,Uttar Pradesh,28.367,79.4304,30.1,41,0.0,985.0,6.35,26.3,83,35.4,16.8,0,5,7,0,2026-03-28T14:13:20.874591+05:30
Aligarh,Uttar Pradesh,27.8974,78.088,31.2,39,0.0,983.9,6.45,24.1,197,302.7,42.8,0,5,7,0,2026-03-28T14:13:20.874599+05:30
Moradabad,Uttar Pradesh,28.8386,78.7733,29.2,46,0.0,981.9,6.1,25.2,91,50.2,23.4,4,5,7,1,2026-03-28T14:13:20.874606+05:30
Saharanpur,Uttar Pradesh,29.9637,77.546,29.1,47,0.0,974.1,5.25,24.8,102,24.3,16.9,4,5,3,1,2026-03-28T14:13:20.874611+05:30
Jhansi,Uttar Pradesh,25.4484,78.5685,35.9,22,0.0,975.2,7.1,33.8,100,105.0,25.3,0,5,10,0,2026-03-28T14:13:24.089345+05:30
Surat,Gujarat,21.1702,72.8311,31.4,48,0.0,1005.9,7.75,27.4,85,30.7,29.8,0,5,4,1,2026-03-28T14:13:24.089379+05:30
Vadodara,Gujarat,22.3072,73.1812,36.4,30,0.0,1002.4,7.95,33.1,61,18.6,10.7,0,5,7,1,2026-03-28T14:13:24.089391+05:30
Rajkot,Gujarat,22.3039,70.8022,34.1,40,0.0,993.2,7.75,44.3,31,40.0,12.0,0,5,7,1,2026-03-28T14:13:24.089400+05:30
Thane,Maharashtra,19.2183,72.9781,32.6,56,0.0,1006.9,8.0,38.5,80,28.5,22.2,0,5,4,1,2026-03-28T14:13:24.089408+05:30
Nagpur,Maharashtra,21.1458,79.0882,37.5,20,0.0,969.9,8.5,31.7,59,17.3,11.4,0,5,10,0,2026-03-28T14:13:24.089416+05:30
Nashik,Maharashtra,19.9975,73.7898,34.8,21,0.0,944.7,8.2,42.5,59,31.3,10.6,0,5,7,0,2026-03-28T14:13:24.089425+05:30
Aurangabad,Maharashtra,19.8762,75.3433,36.5,19,0.0,942.7,8.75,38.5,55,8.4,6.0,0,5,10,0,2026-03-28T14:13:24.089433+05:30
Solapur,Maharashtra,17.6599,75.9064,38.4,18,0.0,955.1,8.85,28.4,92,27.6,21.1,0,5,10,0,2026-03-28T14:13:24.089442+05:30
Kolhapur,Maharashtra,16.705,74.2433,34.3,29,0.0,946.7,8.95,46.4,134,32.6,25.9,0,5,7,0,2026-03-28T14:13:24.089450+05:30
Goa,Goa,15.2993,74.124,32.8,64,0.0,996.3,8.95,31.7,95,40.2,32.8,3,5,7,1,2026-03-28T14:13:24.089458+05:30
Jodhpur,Rajasthan,26.2389,73.0243,34.9,29,0.0,980.9,7.8,29.9,61,121.5,18.2,0,5,7,0,2026-03-28T14:13:24.089466+05:30
Udaipur,Rajasthan,24.5854,73.7125,32.9,31,0.0,945.2,8.35,33.1,42,11.8,4.7,0,5,7,0,2026-03-28T14:13:24.089475+05:30
Kota,Rajasthan,25.2138,75.8648,36.9,22,0.0,976.1,7.65,24.5,50,117.8,19.2,0,5,10,0,2026-03-28T14:13:24.089482+05:30
Bikaner,Rajasthan,28.0229,73.3119,34.5,26,0.0,979.5,7.2,25.2,34,29.0,8.6,0,5,7,0,2026-03-28T14:13:24.089490+05:30
Ajmer,Rajasthan,26.4499,74.6399,33.1,29,0.0,952.8,7.65,30.6,36,89.2,15.2,0,5,7,0,2026-03-28T14:13:24.089498+05:30
Gwalior,Madhya Pradesh,26.2183,78.1828,34.6,28,0.0,981.1,6.95,35.3,152,93.4,22.4,0,5,7,0,2026-03-28T14:13:24.089506+05:30
Indore,Madhya Pradesh,22.7196,75.8577,35.0,25,0.0,946.1,8.2,36.7,41,14.0,7.0,0,5,7,0,2026-03-28T14:13:24.089513+05:30
Bhopal,Madhya Pradesh,23.2599,77.4126,35.9,22,0.0,951.6,8.15,31.3,40,41.2,9.5,0,5,10,0,2026-03-28T14:13:24.089520+05:30
Jabalpur,Madhya Pradesh,23.1815,79.9864,34.6,28,0.0,958.9,8.25,29.9,52,29.3,9.8,0,5,7,0,2026-03-28T14:13:24.089527+05:30
Ujjain,Madhya Pradesh,23.1765,75.7885,34.5,25,0.0,951.9,8.15,34.6,37,12.1,5.8,0,5,7,0,2026-03-28T14:13:24.089535+05:30
Visakhapatnam,Andhra Pradesh,17.6868,83.2185,34.3,49,0.0,1000.8,9.0,44.6,91,44.6,31.4,0,5,4,1,2026-03-28T14:13:24.089542+05:30
Vijayawada,Andhra Pradesh,16.5062,80.648,37.1,36,0.0,999.3,9.05,32.0,76,43.9,32.6,0,5,10,1,2026-03-28T14:13:24.089550+05:30
Guntur,Andhra Pradesh,16.3067,80.4365,37.3,36,0.0,1000.4,9.05,32.8,78,46.2,34.9,0,5,7,1,2026-03-28T14:13:24.089557+05:30
Nellore,Andhra Pradesh,14.4426,79.9865,38.4,30,0.0,1002.5,9.2,38.2,74,46.7,34.5,0,5,7,1,2026-03-28T14:13:24.089565+05:30
Kurnool,Andhra Pradesh,15.8281,78.0373,38.8,22,0.0,973.8,9.0,33.5,98,58.8,45.3,0,5,10,0,2026-03-28T14:13:24.089574+05:30
Kakinada,Andhra Pradesh,16.9891,82.2475,37.7,39,0.0,1004.2,9.0,34.6,71,34.8,21.4,0,5,7,1,2026-03-28T14:13:24.089581+05:30
Tirupati,Andhra Pradesh,13.6288,79.4192,36.4,30,0.0,988.7,9.3,28.1,99,47.8,34.7,0,5,10,0,2026-03-28T14:13:24.089588+05:30
Warangal,Telangana,17.9689,79.5941,38.4,27,0.0,975.3,8.85,25.6,95,30.2,26.2,0,5,10,1,2026-03-28T14:13:24.089596+05:30
Nizamabad,Telangana,18.6725,78.0941,37.9,18,0.0,962.5,8.8,24.5,93,12.8,9.6,0,5,10,0,2026-03-28T14:13:24.089603+05:30
Mysore,Karnataka,12.2958,76.6396,34.7,30,0.0,927.0,9.45,47.2,88,35.6,29.1,0,5,7,0,2026-03-28T14:13:24.089609+05:30
Mangalore,Karnataka,12.9141,74.856,29.4,83,0.0,1004.5,9.1,25.9,90,34.1,26.8,7,5,4,1,2026-03-28T14:13:24.089617+05:30
Hubli-Dharwad,Karnataka,15.3647,75.124,34.8,24,0.0,939.5,9.1,50.0,94,48.3,37.0,0,5,7,0,2026-03-28T14:13:24.089625+05:30
Belgaum,Karnataka,15.8497,74.4977,30.9,52,0.0,925.1,9.2,39.6,110,41.3,31.5,0,5,7,1,2026-03-28T14:13:27.303873+05:30
Coimbatore,Tamil Nadu,11.0168,76.9558,35.2,37,0.0,959.9,9.45,54.7,82,32.5,25.7,0,5,10,1,2026-03-28T14:13:27.303902+05:30
Madurai,Tamil Nadu,9.9252,78.1198,36.1,39,0.0,990.2,9.4,34.2,80,26.7,20.3,0,5,10,1,2026-03-28T14:13:27.303912+05:30
Trichy,Tamil Nadu,10.7905,78.7047,36.3,38,0.0,996.9,9.35,23.4,79,27.2,20.3,0,5,10,1,2026-03-28T14:13:27.303953+05:30
Salem,Tamil Nadu,11.6643,78.146,37.6,28,0.0,974.6,9.4,23.8,102,41.2,32.9,0,5,10,0,2026-03-28T14:13:27.303965+05:30
Tirunelveli,Tamil Nadu,8.7139,77.7567,38.7,24,0.0,999.9,9.35,45.0,66,24.2,19.4,0,5,10,0,2026-03-28T14:13:27.303972+05:30
Vellore,Tamil Nadu,12.9165,79.1325,36.2,34,0.0,981.8,9.35,28.4,116,48.7,37.0,0,5,10,1,2026-03-28T14:13:27.303979+05:30
Erode,Tamil Nadu,11.341,77.7172,38.2,28,0.0,985.8,9.35,22.3,89,37.5,29.8,0,5,10,1,2026-03-28T14:13:27.303986+05:30
Kochi,Kerala,9.9312,76.2673,28.8,81,0.0,1006.6,8.8,31.3,92,29.9,25.9,7,5,4,1,2026-03-28T14:13:27.303994+05:30
Thiruvananthapuram,Kerala,8.5241,76.9366,28.9,80,0.0,1005.7,9.15,41.0,66,25.1,20.0,7,5,4,1,2026-03-28T14:13:27.304001+05:30
Kozhikode,Kerala,11.2588,75.7804,30.2,76,0.0,1005.9,9.1,28.8,80,27.1,21.3,3,5,4,1,2026-03-28T14:13:27.304007+05:30
Thrissur,Kerala,10.5276,76.2144,33.5,60,0.0,1004.9,9.15,36.7,88,30.4,26.0,0,5,4,1,2026-03-28T14:13:27.304015+05:30
Kannur,Kerala,11.8745,75.3704,31.2,70,0.0,1005.3,9.1,30.6,88,28.7,22.8,3,5,4,1,2026-03-28T14:13:27.304022+05:30
Patna,Bihar,25.5941,85.1376,30.7,49,0.0,998.1,7.9,29.5,99,69.6,27.8,0,5,7,1,2026-03-28T14:13:27.304028+05:30
Gaya,Bihar,24.7914,85.0002,30.4,49,0.0,991.5,7.7,24.1,75,67.8,22.1,0,5,7,1,2026-03-28T14:13:27.304035+05:30
Muzaffarpur,Bihar,26.1209,85.3647,30.5,47,0.0,998.1,7.85,19.8,120,73.6,33.9,0,5,7,1,2026-03-28T14:13:27.304045+05:30
Bhagalpur,Bihar,25.2425,87.0117,28.9,56,0.0,999.1,7.3,25.2,117,64.5,36.0,4,5,7,1,2026-03-28T14:13:27.304052+05:30
Ranchi,Jharkhand,23.3441,85.3096,28.8,50,0.0,935.6,8.7,33.1,97,52.9,34.7,4,5,7,1,2026-03-28T14:13:27.304058+05:30
Jamshedpur,Jharkhand,22.8046,86.2029,32.5,48,0.0,987.9,8.5,32.4,104,72.2,55.3,0,5,7,1,2026-03-28T14:13:27.304064+05:30
Dhanbad,Jharkhand,23.7957,86.4304,32.4,41,0.0,977.0,8.4,33.8,151,80.3,62.4,0,5,7,1,2026-03-28T14:13:27.304071+05:30
Bokaro,Jharkhand,23.6693,86.1511,31.1,50,0.0,981.0,8.45,31.0,133,75.9,58.3,0,5,7,1,2026-03-28T14:13:27.304077+05:30
Bhubaneswar,Odisha,20.2961,85.8245,35.0,47,0.0,999.4,8.8,36.7,115,55.9,46.0,0,5,7,1,2026-03-28T14:13:27.304084+05:30
Cuttack,Odisha,20.4625,85.8828,36.3,43,0.0,1000.7,8.85,34.6,115,55.9,46.0,0,5,7,1,2026-03-28T14:13:27.304090+05:30
Rourkela,Odisha,22.2604,84.8536,35.1,39,0.0,981.7,8.45,43.9,120,46.6,31.2,0,5,10,1,2026-03-28T14:13:27.304096+05:30
Raipur,Chhattisgarh,21.2514,81.6296,38.4,21,0.0,971.0,8.55,34.6,100,27.4,15.9,0,5,10,0,2026-03-28T14:13:27.304102+05:30
Bhilai,Chhattisgarh,21.1938,81.3509,38.4,21,0.0,971.3,8.6,33.8,85,23.1,12.9,0,5,10,0,2026-03-28T14:13:27.304109+05:30
Guwahati,Assam,26.1158,91.7086,22.1,91,0.2,1000.7,4.5,28.1,151,50.4,35.3,6,5,0,1,2026-03-28T14:13:27.304115+05:30
Agartala,Tripura,23.8315,91.2868,24.1,87,0.0,1005.0,6.4,38.5,150,53.0,42.1,3,5,4,1,2026-03-28T14:13:27.304122+05:30
Shillong,Meghalaya,25.5788,91.8933,13.4,87,0.2,853.0,4.85,43.9,105,34.8,22.2,6,10,3,0,2026-03-28T14:13:27.304130+05:30
Imphal,Manipur,24.817,93.9368,19.6,76,0.0,921.4,7.7,55.1,143,52.7,38.0,3,5,7,0,2026-03-28T14:13:27.304136+05:30
Aizawl,Mizoram,23.7271,92.7176,19.8,78,0.0,890.9,7.2,43.9,109,44.9,31.9,3,5,7,0,2026-03-28T14:13:27.304141+05:30
Kohima,Nagaland,25.6701,94.1077,14.8,87,0.1,852.6,4.95,77.0,104,37.0,28.4,6,10,3,0,2026-03-28T14:13:27.304147+05:30
Gangtok,Sikkim,27.3314,88.6138,15.8,79,0.0,834.0,7.6,20.2,107,26.7,15.9,3,5,7,0,2026-03-28T14:13:27.304153+05:30
Siliguri,West Bengal,26.7271,88.3953,22.0,77,0.0,992.0,7.35,26.3,153,50.1,32.9,3,5,7,1,2026-03-28T14:13:30.518833+05:30
Durgapur,West Bengal,23.5204,87.3119,32.5,48,0.0,991.9,8.35,35.6,124,75.9,55.5,0,5,7,1,2026-03-28T14:13:30.518859+05:30
Asansol,West Bengal,23.6739,86.9524,32.5,47,0.0,990.4,8.4,35.3,124,77.3,58.4,0,5,7,1,2026-03-28T14:13:30.518868+05:30
Pondicherry,Puducherry,11.9139,79.8145,35.0,51,0.0,1005.7,9.25,31.3,62,28.5,21.7,0,5,4,1,2026-03-28T14:13:30.518875+05:30
Port Blair,Andaman and Nicobar Islands,11.6234,92.7265,28.3,79,0.0,1004.6,9.15,25.6,72,38.0,25.6,7,5,4,1,2026-03-28T14:13:30.518881+05:30
Haridwar,Uttarakhand,29.9457,78.1642,29.6,47,0.0,972.5,5.7,27.0,76,20.9,14.5,4,5,3,1,2026-03-28T14:13:30.518888+05:30
Rishikesh,Uttarakhand,30.0869,78.2676,28.6,48,0.0,965.3,5.8,25.2,61,22.2,12.4,4,5,3,1,2026-03-28T14:13:30.518894+05:30
Nainital,Uttarakhand,29.3919,79.4542,20.9,57,0.0,805.2,4.8,27.0,63,33.5,15.8,0,5,3,0,2026-03-28T14:13:30.518900+05:30
Mussoorie,Uttarakhand,30.4599,78.0664,19.3,59,0.0,801.6,5.65,26.6,69,20.1,14.4,0,5,3,0,2026-03-28T14:13:30.518906+05:30
Dharamshala,Himachal Pradesh,32.219,76.3234,20.9,74,0.0,867.5,6.9,20.2,60,16.2,7.3,3,5,7,1,2026-03-28T14:13:30.518912+05:30
Dalhousie,Himachal Pradesh,32.5387,75.971,19.6,60,0.0,802.8,6.5,18.7,62,13.7,10.9,0,5,7,0,2026-03-28T14:13:30.518953+05:30
Patiala,Punjab,30.3398,76.3869,30.0,40,0.0,976.8,5.9,17.6,97,87.1,20.3,4,5,3,0,2026-03-28T14:13:30.518961+05:30
Bhatinda,Punjab,30.211,74.9455,31.5,32,0.0,981.9,6.9,17.3,80,26.3,10.5,0,5,7,0,2026-03-28T14:13:30.518968+05:30
Rohtak,Haryana,28.8955,76.6066,30.1,40,0.0,980.5,6.55,14.8,148,109.7,21.7,0,5,7,0,2026-03-28T14:13:30.518975+05:30
Panipat,Haryana,29.3909,76.9635,29.5,42,0.0,979.0,5.7,19.4,224,127.1,26.4,4,5,3,0,2026-03-28T14:13:30.518981+05:30
Mathura,Uttar Pradesh,27.4924,77.6737,32.9,32,0.0,985.1,6.35,21.6,260,301.7,36.4,0,5,7,0,2026-03-28T14:13:30.518986+05:30
Vrindavan,Uttar Pradesh,27.5823,77.7027,32.2,34,0.0,985.6,6.35,22.7,260,301.7,36.4,0,5,7,0,2026-03-28T14:13:30.518992+05:30
Ayodhya,Uttar Pradesh,26.7922,82.1998,32.1,37,0.0,992.8,6.85,31.0,96,94.1,28.3,0,5,7,0,2026-03-28T14:13:30.518998+05:30
Ratlam,Madhya Pradesh,23.3315,75.0367,33.4,31,0.0,953.0,8.1,37.1,38,13.1,5.3,0,5,7,0,2026-03-28T14:13:30.519005+05:30
Sagar,Madhya Pradesh,23.8388,78.7378,35.0,23,0.0,948.1,8.15,32.8,50,58.4,11.9,0,5,7,0,2026-03-28T14:13:30.519013+05:30
Satna,Madhya Pradesh,24.6005,80.8322,34.8,26,0.0,968.7,8.1,29.2,67,45.4,17.2,0,5,7,0,2026-03-28T14:13:30.519018+05:30
Akola,Maharashtra,20.7002,77.0082,37.7,20,0.0,972.7,8.5,34.2,43,12.7,7.0,0,5,10,0,2026-03-28T14:13:30.519025+05:30
Amravati,Maharashtra,20.9374,77.7796,37.6,23,0.0,964.6,8.45,32.8,44,12.6,6.8,0,5,10,0,2026-03-28T14:13:30.519031+05:30
Latur,Maharashtra,18.4088,76.5604,36.8,18,0.0,938.2,8.8,29.9,81,15.4,11.7,0,5,10,0,2026-03-28T14:13:30.519037+05:30
Nanded,Maharashtra,19.1383,77.3091,38.9,18,0.0,966.1,8.7,25.9,76,8.6,6.3,0,5,10,0,2026-03-28T14:13:30.519042+05:30
Gulbarga,Karnataka,17.3297,76.8343,39.1,15,0.0,956.5,8.9,28.8,105,29.7,22.1,0,5,10,0,2026-03-28T14:13:30.519048+05:30
Bidar,Karnataka,17.9104,77.5199,37.5,16,0.0,934.0,8.85,25.9,103,20.1,15.4,0,5,10,0,2026-03-28T14:13:30.519053+05:30
Hospet,Karnataka,15.2689,76.3909,36.2,27,0.0,953.7,9.1,36.7,107,54.9,42.4,0,5,10,0,2026-03-28T14:13:30.519059+05:30
Tirupur,Tamil Nadu,11.1085,77.3411,37.7,27,0.0,972.5,9.45,43.9,97,35.4,28.0,0,5,10,0,2026-03-28T14:13:30.519064+05:30
Alappuzha,Kerala,9.4981,76.3388,28.7,81,0.0,1006.7,9.15,30.2,86,29.5,25.1,7,5,4,1,2026-03-28T14:13:30.519070+05:30
Munnar,Kerala,10.0889,77.0595,27.6,61,0.0,857.3,9.7,38.9,77,25.4,20.0,7,5,7,1,2026-03-28T14:13:30.519076+05:30
Silchar,Assam,24.8333,92.7789,22.9,87,0.1,1004.2,3.4,30.2,155,64.5,47.7,6,5,0,1,2026-03-28T14:13:30.519082+05:30
Dibrugarh,Assam,27.4728,94.912,21.9,86,0.1,995.8,4.5,25.9,128,63.8,43.9,6,5,3,1,2026-03-28T14:13:30.519087+05:30
