city,state,latitude,longitude,temp,humidity,rain,pressure,uv_index,wind_gusts,aqi,pm10,pm2_5,no2,co,o3,so2,mosquito_risk,arthritis_risk,migraine_risk,frizz_risk,updated_at
Delhi,Delhi,28.6139,77.209,28.4,76,0.0,976.5,7.7,24.1,191,127.1,58.9,28.6,345.0,40.0,18.1,7,5,7,1,2026-07-15T04:35:51.623379+05:30
Mumbai,Maharashtra,19.076,72.8777,26.3,82,0.1,1006.8,7.6,46.1,73,41.3,17.6,4.5,122.0,48.0,3.8,10,5,4,1,2026-07-15T04:35:51.623431+05:30
Bangalore,Karnataka,12.9716,77.5946,19.7,93,0.0,910.3,8.9,42.1,61,19.5,14.5,14.7,188.0,34.0,5.3,3,10,7,1,2026-07-15T04:35:51.623448+05:30
Hyderabad,Telangana,17.385,78.4867,26.4,60,0.0,950.7,9.05,44.6,73,22.6,17.9,11.2,154.0,44.0,5.8,4,5,7,1,2026-07-15T04:35:51.623459+05:30
Chennai,Tamil Nadu,13.0827,80.2707,29.1,74,0.0,1003.9,8.9,36.0,85,31.5,21.8,13.0,222.0,59.0,12.6,7,5,4,1,2026-07-15T04:35:51.623468+05:30
Kolkata,West Bengal,22.5726,88.3639,26.8,96,0.0,998.7,8.2,36.0,147,54.0,50.4,36.4,625.0,13.0,18.3,7,5,7,1,2026-07-15T04:35:51.623476+05:30
Pune,Maharashtra,18.5204,73.8567,22.8,89,0.0,946.2,8.35,48.2,59,9.6,5.2,7.0,111.0,34.0,5.8,3,5,7,1,2026-07-15T04:35:51.623484+05:30
Ahmedabad,Gujarat,23.0225,72.5714,27.6,80,0.0,998.7,8.1,40.3,69,19.4,11.4,8.3,120.0,30.0,4.5,7,5,7,1,2026-07-15T04:35:51.623491+05:30
Jaipur,Rajasthan,26.9124,75.7873,28.4,60,0.0,954.9,8.05,38.5,425,644.5,115.9,8.0,177.0,46.0,4.1,4,5,7,1,2026-07-15T04:35:51.623498+05:30
Lucknow,Uttar Pradesh,26.8467,80.9462,28.8,76,0.0,986.8,8.2,21.2,166,127.1,69.4,22.3,235.0,35.0,7.8,7,5,7,1,2026-07-15T04:35:51.623510+05:30
Kanpur,Uttar Pradesh,26.4499,80.3319,29.0,74,0.0,985.4,7.6,27.7,155,122.5,61.5,16.8,163.0,44.0,6.0,7,5,7,1,2026-07-15T04:35:51.623517+05:30
Chandigarh,Chandigarh,30.7333,76.7794,26.3,85,0.0,962.5,7.7,26.6,172,87.5,74.7,42.9,849.0,15.0,7.4,7,5,7,1,2026-07-15T04:35:51.623524+05:30
Srinagar,Jammu and Kashmir,34.0837,74.7973,17.8,88,0.0,837.2,8.95,16.6,82,40.2,36.4,24.3,382.0,1.0,1.5,3,10,7,0,2026-07-15T04:35:51.623531+05:30
Jammu,Jammu and Kashmir,32.7266,74.857,25.5,84,0.0,966.0,8.55,23.8,154,76.4,63.8,42.6,519.0,0.0,2.4,7,5,7,1,2026-07-15T04:35:51.623538+05:30
Amritsar,Punjab,31.634,74.8723,27.6,89,0.0,974.1,8.4,20.2,192,217.0,173.2,75.6,1548.0,4.0,12.6,7,5,7,1,2026-07-15T04:35:51.623544+05:30
Ludhiana,Punjab,30.901,75.8573,27.8,91,0.0,971.8,7.95,23.0,187,200.7,167.2,85.8,1492.0,0.0,15.8,7,5,7,1,2026-07-15T04:35:51.623549+05:30
Jalandhar,Punjab,31.326,75.5762,26.8,94,0.0,972.9,8.15,22.3,196,217.0,172.8,77.2,1588.0,1.0,12.3,7,5,7,1,2026-07-15T04:35:51.623555+05:30
Dehradun,Uttarakhand,30.6284,78.0322,16.8,100,0.0,826.1,7.7,27.4,115,59.8,32.4,23.6,257.0,46.0,1.4,3,10,7,1,2026-07-15T04:35:51.623562+05:30
Shimla,Himachal Pradesh,31.1048,77.1734,12.9,100,0.0,779.3,8.2,38.2,124,49.4,29.7,10.6,354.0,78.0,1.3,3,10,7,0,2026-07-15T04:35:51.623568+05:30
Manali,Himachal Pradesh,32.2396,77.1887,17.0,76,0.0,814.4,9.25,32.0,53,4.1,3.4,8.9,185.0,100.0,0.0,3,5,7,0,2026-07-15T04:35:51.623577+05:30
Gurgaon,Haryana,28.4595,77.0266,29.0,72,0.0,975.1,7.75,29.5,190,124.8,53.6,19.2,367.0,46.0,8.4,7,5,7,1,2026-07-15T04:35:51.623583+05:30
Noida,Uttar Pradesh,28.5355,77.391,28.3,78,0.0,977.9,7.7,20.2,190,124.8,53.6,19.2,403.0,46.0,8.4,7,5,7,1,2026-07-15T04:35:51.623593+05:30
Ghaziabad,Uttar Pradesh,28.6692,77.4538,28.3,78,0.0,976.2,7.7,19.1,180,122.9,58.3,27.8,455.0,42.0,17.7,7,5,7,1,2026-07-15T04:35:51.623602+05:30
Faridabad,Haryana,28.4089,77.3178,28.7,74,0.0,977.2,7.75,23.8,190,124.8,53.6,19.2,372.0,46.0,8.4,7,5,7,1,2026-07-15T04:35:51.623608+05:30
Meerut,Uttar Pradesh,28.9845,77.7064,27.3,85,0.0,975.2,7.6,22.7,180,122.9,58.3,27.8,390.0,42.0,17.7,7,5,7,1,2026-07-15T04:35:51.623615+05:30
Agra,Uttar Pradesh,27.1767,78.0081,24.0,94,0.9,982.2,5.35,34.6,151,68.9,33.4,15.7,163.0,52.0,3.4,6,5,3,1,2026-07-15T04:35:51.623621+05:30
Varanasi,Uttar Pradesh,25.3176,82.9739,28.6,86,0.0,991.3,7.5,28.1,167,156.9,82.7,30.6,422.0,28.0,11.7,7,5,7,1,2026-07-15T04:35:51.623627+05:30
Prayagraj,Uttar Pradesh,25.4358,81.8463,29.2,73,0.0,989.6,8.6,27.0,163,118.3,66.1,20.8,219.0,38.0,8.8,7,5,7,1,2026-07-15T04:35:51.623634+05:30
Gorakhpur,Uttar Pradesh,26.7606,83.3732,26.4,95,0.0,991.3,8.25,27.0,161,97.3,50.8,13.2,524.0,81.0,6.7,7,5,7,1,2026-07-15T04:35:51.623640+05:30
Bareilly,Uttar Pradesh,28.367,79.4304,26.8,78,0.0,980.5,7.9,20.2,175,135.0,77.3,30.5,472.0,39.0,10.0,7,5,7,1,2026-07-15T04:35:51.623653+05:30
Aligarh,Uttar Pradesh,27.8974,78.088,26.2,88,0.0,979.5,7.55,34.2,168,116.4,47.3,12.0,192.0,64.0,3.5,7,5,7,1,2026-07-15T04:35:51.623660+05:30
Moradabad,Uttar Pradesh,28.8386,78.7733,27.0,86,0.0,977.6,7.8,22.3,180,183.0,88.2,36.4,545.0,34.0,12.9,7,5,7,1,2026-07-15T04:35:51.623666+05:30
Saharanpur,Uttar Pradesh,29.9637,77.546,26.5,88,0.0,969.3,7.35,24.8,190,188.6,109.0,39.4,996.0,15.0,14.3,7,5,7,1,2026-07-15T04:35:51.623672+05:30
Jhansi,Uttar Pradesh,25.4484,78.5685,29.0,65,0.0,972.7,7.35,37.4,117,46.0,29.0,11.4,159.0,48.0,9.5,7,5,7,1,2026-07-15T04:35:54.912628+05:30
Surat,Gujarat,21.1702,72.8311,24.8,95,0.1,1004.1,7.75,47.2,73,24.3,15.9,20.3,219.0,27.0,32.7,6,5,4,1,2026-07-15T04:35:54.912667+05:30
Vadodara,Gujarat,22.3072,73.1812,27.1,85,0.0,1001.3,7.0,42.1,67,16.9,10.7,8.4,124.0,30.0,4.6,7,5,4,1,2026-07-15T04:35:54.912678+05:30
Rajkot,Gujarat,22.3039,70.8022,26.1,91,0.0,990.4,7.25,40.7,55,13.1,7.2,4.4,96.0,37.0,3.0,7,5,7,1,2026-07-15T04:35:54.912686+05:30
Thane,Maharashtra,19.2183,72.9781,24.5,94,0.1,1006.2,7.25,36.0,73,41.3,17.6,4.5,139.0,48.0,3.8,6,5,4,1,2026-07-15T04:35:54.912695+05:30
Nagpur,Maharashtra,21.1458,79.0882,26.8,67,0.0,969.7,8.8,51.5,88,42.0,29.7,12.7,214.0,45.0,7.7,7,5,7,1,2026-07-15T04:35:54.912702+05:30
Nashik,Maharashtra,19.9975,73.7898,22.3,95,0.0,943.0,7.9,43.9,60,9.2,4.8,6.8,110.0,35.0,6.5,3,5,7,1,2026-07-15T04:35:54.912709+05:30
Aurangabad,Maharashtra,19.8762,75.3433,22.9,88,0.0,941.9,8.4,45.4,63,14.8,8.1,9.7,151.0,32.0,11.3,3,5,7,1,2026-07-15T04:35:54.912716+05:30
Solapur,Maharashtra,17.6599,75.9064,24.1,79,0.0,955.8,8.5,67.3,61,23.7,15.1,7.6,143.0,33.0,2.8,3,5,7,1,2026-07-15T04:35:54.912724+05:30
Kolhapur,Maharashtra,16.705,74.2433,22.4,93,0.0,946.9,8.35,51.8,57,14.6,7.6,3.4,115.0,40.0,2.2,3,5,7,1,2026-07-15T04:35:54.912730+05:30
Goa,Goa,15.2993,74.124,24.3,98,0.0,998.0,8.05,33.5,73,58.7,33.8,8.4,419.0,39.0,2.5,3,5,7,1,2026-07-15T04:35:54.912737+05:30
Jodhpur,Rajasthan,26.2389,73.0243,28.6,65,0.0,978.3,8.15,38.9,174,353.0,85.7,4.0,109.0,46.0,2.5,7,5,7,1,2026-07-15T04:35:54.912744+05:30
Udaipur,Rajasthan,24.5854,73.7125,23.9,85,0.0,942.5,8.8,34.9,75,28.9,15.1,5.8,109.0,41.0,3.6,3,5,7,1,2026-07-15T04:35:54.912751+05:30
Kota,Rajasthan,25.2138,75.8648,27.8,71,0.0,974.4,8.3,34.9,93,46.0,27.3,9.5,175.0,48.0,7.2,7,5,7,1,2026-07-15T04:35:54.912759+05:30
Bikaner,Rajasthan,28.0229,73.3119,30.3,54,0.0,976.0,8.4,38.5,169,151.8,59.3,3.3,114.0,50.0,4.4,0,5,7,1,2026-07-15T04:35:54.912766+05:30
Ajmer,Rajasthan,26.4499,74.6399,26.4,72,0.0,950.2,8.3,46.8,103,48.8,24.7,6.5,121.0,48.0,3.7,7,5,7,1,2026-07-15T04:35:54.912773+05:30
Gwalior,Madhya Pradesh,26.2183,78.1828,28.3,73,0.0,977.7,2.05,41.0,125,100.8,41.6,13.0,151.0,49.0,2.7,7,5,3,1,2026-07-15T04:35:54.912781+05:30
Indore,Madhya Pradesh,22.7196,75.8577,24.2,89,0.0,945.4,8.6,38.9,72,23.6,14.9,9.6,182.0,32.0,10.0,3,5,7,1,2026-07-15T04:35:54.912787+05:30
Bhopal,Madhya Pradesh,23.2599,77.4126,24.8,81,0.0,950.2,7.55,43.6,82,36.6,25.6,8.7,233.0,52.0,6.3,3,5,7,1,2026-07-15T04:35:54.912794+05:30
Jabalpur,Madhya Pradesh,23.1815,79.9864,25.7,76,0.0,957.2,8.8,32.4,100,41.9,29.2,8.5,237.0,52.0,4.0,7,5,7,1,2026-07-15T04:35:54.912801+05:30
Ujjain,Madhya Pradesh,23.1765,75.7885,24.0,90,0.1,950.9,8.45,38.2,72,26.3,16.2,9.9,190.0,32.0,10.0,6,5,7,1,2026-07-15T04:35:54.912824+05:30
Visakhapatnam,Andhra Pradesh,17.6868,83.2185,29.4,72,0.0,997.2,1.55,26.3,141,59.3,40.2,35.5,316.0,38.0,52.5,7,5,3,1,2026-07-15T04:35:54.912832+05:30
Vijayawada,Andhra Pradesh,16.5062,80.648,29.7,59,0.0,998.0,6.2,45.4,88,45.3,34.8,16.1,216.0,39.0,8.9,4,5,7,1,2026-07-15T04:35:54.912839+05:30
Guntur,Andhra Pradesh,16.3067,80.4365,29.8,56,0.0,999.3,6.85,48.2,84,41.2,31.5,16.5,226.0,39.0,8.3,4,5,7,1,2026-07-15T04:35:54.912846+05:30
Nellore,Andhra Pradesh,14.4426,79.9865,30.4,51,0.0,1002.2,8.25,49.7,78,54.5,41.3,17.1,162.0,52.0,6.8,0,5,4,1,2026-07-15T04:35:54.912855+05:30
Kurnool,Andhra Pradesh,15.8281,78.0373,27.8,61,0.0,974.9,8.8,64.1,62,19.7,14.4,9.2,133.0,42.0,4.2,7,5,7,1,2026-07-15T04:35:54.912862+05:30
Kakinada,Andhra Pradesh,16.9891,82.2475,29.1,70,0.0,1001.9,5.75,52.2,96,55.3,38.6,9.9,203.0,60.0,7.9,7,5,0,1,2026-07-15T04:35:54.912869+05:30
Tirupati,Andhra Pradesh,13.6288,79.4192,29.0,51,0.0,987.9,8.9,35.6,81,32.9,28.4,36.7,131.0,9.0,3.3,4,5,7,1,2026-07-15T04:35:54.912876+05:30
Warangal,Telangana,17.9689,79.5941,27.8,64,0.0,975.0,9.0,45.0,85,46.3,33.8,11.3,186.0,44.0,5.8,7,5,7,1,2026-07-15T04:35:54.912883+05:30
Nizamabad,Telangana,18.6725,78.0941,26.0,61,0.0,962.4,8.9,42.8,80,29.9,21.9,7.7,173.0,67.0,7.8,7,5,7,1,2026-07-15T04:35:54.912890+05:30
Mysore,Karnataka,12.2958,76.6396,20.0,95,0.0,927.8,8.8,44.3,58,21.8,15.1,8.2,135.0,40.0,2.7,3,5,7,1,2026-07-15T04:35:54.912897+05:30
Mangalore,Karnataka,12.9141,74.856,25.6,89,0.0,1007.4,8.75,38.2,64,33.6,21.3,11.8,135.0,22.0,3.4,7,5,4,1,2026-07-15T04:35:54.912904+05:30
Hubli-Dharwad,Karnataka,15.3647,75.124,21.5,94,0.0,940.2,7.0,51.8,54,16.6,9.3,3.4,115.0,39.0,1.8,3,5,7,1,2026-07-15T04:35:54.912910+05:30
Belgaum,Karnataka,15.8497,74.4977,20.5,98,0.0,924.7,6.8,51.5,55,21.7,10.2,3.1,107.0,42.0,2.1,3,5,7,1,2026-07-15T04:35:58.203752+05:30
Coimbatore,Tamil Nadu,11.0168,76.9558,23.4,94,0.0,960.8,6.8,51.5,59,16.0,10.4,5.0,158.0,43.0,3.7,3,5,7,1,2026-07-15T04:35:58.203790+05:30
Madurai,Tamil Nadu,9.9252,78.1198,27.9,70,0.0,991.7,8.8,33.5,78,40.3,33.2,45.0,113.0,1.0,7.5,7,5,7,1,2026-07-15T04:35:58.203801+05:30
Trichy,Tamil Nadu,10.7905,78.7047,28.2,66,0.0,998.4,8.8,47.5,69,27.9,20.0,14.0,107.0,35.0,5.1,7,5,7,1,2026-07-15T04:35:58.203826+05:30
Salem,Tamil Nadu,11.6643,78.146,25.0,88,0.0,976.2,7.35,21.6,75,32.7,25.7,24.5,290.0,17.0,6.8,7,5,7,1,2026-07-15T04:35:58.203835+05:30
Tirunelveli,Tamil Nadu,8.7139,77.7567,28.3,67,0.0,1001.9,8.55,44.3,54,14.9,10.3,6.1,129.0,34.0,2.6,7,5,4,1,2026-07-15T04:35:58.203843+05:30
Vellore,Tamil Nadu,12.9165,79.1325,28.1,48,0.0,981.9,8.75,39.2,86,46.7,38.9,42.3,184.0,6.0,8.8,4,5,7,0,2026-07-15T04:35:58.203850+05:30
Erode,Tamil Nadu,11.341,77.7172,25.8,81,0.0,988.1,8.35,45.7,64,19.7,14.4,10.1,168.0,33.0,4.0,7,5,7,1,2026-07-15T04:35:58.203858+05:30
Kochi,Kerala,9.9312,76.2673,26.8,88,0.1,1009.6,8.6,41.8,61,25.7,16.1,8.4,102.0,31.0,3.7,10,0,4,1,2026-07-15T04:35:58.203866+05:30
Thiruvananthapuram,Kerala,8.5241,76.9366,25.3,94,0.0,1008.9,8.45,47.9,58,23.5,12.6,3.0,119.0,47.0,1.2,7,0,4,1,2026-07-15T04:35:58.203873+05:30
Kozhikode,Kerala,11.2588,75.7804,24.4,96,0.0,1008.7,7.4,40.7,58,28.6,14.7,2.4,187.0,50.0,1.8,3,0,4,1,2026-07-15T04:35:58.203880+05:30
Thrissur,Kerala,10.5276,76.2144,25.4,91,0.0,1008.0,8.3,38.9,59,21.9,14.0,6.1,118.0,31.0,2.7,7,0,4,1,2026-07-15T04:35:58.203888+05:30
Kannur,Kerala,11.8745,75.3704,24.7,94,0.0,1008.0,8.7,40.3,60,25.3,16.3,10.0,228.0,23.0,2.7,3,0,4,1,2026-07-15T04:35:58.203894+05:30
Patna,Bihar,25.5941,85.1376,28.6,93,0.0,994.0,8.3,25.6,158,107.1,78.9,26.4,516.0,50.0,12.7,7,5,7,1,2026-07-15T04:35:58.203901+05:30
Gaya,Bihar,24.7914,85.0002,27.6,93,0.0,987.5,7.65,27.0,160,119.7,86.8,32.3,401.0,34.0,10.0,7,5,7,1,2026-07-15T04:35:58.203909+05:30
Muzaffarpur,Bihar,26.1209,85.3647,27.5,93,0.1,994.4,7.0,22.3,156,95.0,74.5,27.0,576.0,48.0,11.3,10,5,7,1,2026-07-15T04:35:58.203916+05:30
Bhagalpur,Bihar,25.2425,87.0117,27.0,97,0.0,994.8,6.85,23.4,94,31.4,30.2,13.7,306.0,67.0,11.0,7,5,7,1,2026-07-15T04:35:58.203923+05:30
Ranchi,Jharkhand,23.3441,85.3096,24.0,89,0.0,931.8,7.65,31.7,153,147.6,97.8,42.5,273.0,26.0,13.4,3,5,7,1,2026-07-15T04:35:58.203930+05:30
Jamshedpur,Jharkhand,22.8046,86.2029,25.7,98,0.1,984.7,7.15,24.8,166,163.0,142.0,72.3,474.0,14.0,48.1,10,5,7,1,2026-07-15T04:35:58.203937+05:30
Dhanbad,Jharkhand,23.7957,86.4304,25.5,98,0.1,973.9,8.3,23.4,184,250.5,222.6,70.6,424.0,9.0,207.9,10,5,7,1,2026-07-15T04:35:58.203944+05:30
Bokaro,Jharkhand,23.6693,86.1511,25.7,98,0.0,977.7,7.75,28.8,184,272.9,228.6,58.4,258.0,13.0,174.1,7,5,7,1,2026-07-15T04:35:58.203951+05:30
Bhubaneswar,Odisha,20.2961,85.8245,26.3,92,0.0,995.6,7.2,38.5,132,59.5,41.8,16.2,296.0,52.0,12.1,7,5,7,1,2026-07-15T04:35:58.203958+05:30
Cuttack,Odisha,20.4625,85.8828,25.7,92,0.0,997.8,7.55,37.1,132,59.5,41.8,16.2,234.0,52.0,12.1,7,5,7,1,2026-07-15T04:35:58.203964+05:30
Rourkela,Odisha,22.2604,84.8536,26.6,95,0.0,978.6,7.65,42.8,152,124.8,70.3,18.5,985.0,58.0,8.9,7,5,7,1,2026-07-15T04:35:58.203970+05:30
Raipur,Chhattisgarh,21.2514,81.6296,26.8,81,0.0,969.7,8.35,34.2,140,71.5,49.9,34.6,347.0,33.0,56.6,7,5,7,1,2026-07-15T04:35:58.203977+05:30
Bhilai,Chhattisgarh,21.1938,81.3509,26.5,80,0.0,970.2,7.8,33.5,121,61.0,43.3,24.8,581.0,44.0,41.8,7,5,7,1,2026-07-15T04:35:58.203984+05:30
Guwahati,Assam,26.1158,91.7086,26.3,98,0.1,995.6,4.65,27.4,51,5.5,5.1,5.5,290.0,54.0,0.9,10,5,3,1,2026-07-15T04:35:58.203990+05:30
Agartala,Tripura,23.8315,91.2868,26.1,92,0.0,1000.1,7.25,40.0,78,21.8,20.8,19.1,228.0,21.0,2.5,7,5,4,1,2026-07-15T04:35:58.203997+05:30
Shillong,Meghalaya,25.5788,91.8933,19.1,97,0.0,853.1,5.45,29.5,51,5.0,4.6,3.6,244.0,80.0,2.6,3,10,3,1,2026-07-15T04:35:58.204003+05:30
Imphal,Manipur,24.817,93.9368,23.0,97,0.1,919.5,9.1,29.2,56,16.2,15.3,9.6,234.0,24.0,2.2,6,5,7,1,2026-07-15T04:35:58.204010+05:30
Aizawl,Mizoram,23.7271,92.7176,19.3,99,0.0,886.9,8.35,36.0,43,8.6,7.5,6.9,181.0,18.0,0.6,3,10,7,1,2026-07-15T04:35:58.204016+05:30
Kohima,Nagaland,25.6701,94.1077,19.0,96,0.0,851.2,6.9,24.1,51,11.4,10.2,6.8,189.0,33.0,1.1,3,10,7,1,2026-07-15T04:35:58.204023+05:30
Gangtok,Sikkim,27.3314,88.6138,17.7,89,0.0,834.1,5.95,32.8,40,13.6,12.7,7.2,381.0,72.0,2.6,3,10,3,0,2026-07-15T04:35:58.204030+05:30
Siliguri,West Bengal,26.7271,88.3953,25.8,97,0.1,987.0,4.4,20.5,70,34.2,33.1,18.7,502.0,57.0,5.9,10,5,3,1,2026-07-15T04:36:01.513677+05:30
Durgapur,West Bengal,23.5204,87.3119,25.7,98,0.0,988.5,8.65,33.1,162,64.3,58.2,37.1,417.0,44.0,36.2,7,5,7,1,2026-07-15T04:36:01.513717+05:30
Asansol,West Bengal,23.6739,86.9524,25.4,96,0.0,987.3,8.25,21.6,159,95.0,84.3,54.0,643.0,25.0,49.1,7,5,7,1,2026-07-15T04:36:01.513729+05:30
Pondicherry,Puducherry,11.9139,79.8145,28.0,84,0.0,1005.8,7.4,46.1,78,16.2,11.5,7.1,158.0,61.0,6.0,7,5,4,1,2026-07-15T04:36:01.513738+05:30
Port Blair,Andaman and Nicobar Islands,11.6234,92.7265,25.0,96,0.1,1005.6,8.45,56.2,48,15.1,7.1,0.3,88.0,44.0,0.3,10,5,4,1,2026-07-15T04:36:01.513746+05:30
Haridwar,Uttarakhand,29.9457,78.1642,25.3,96,0.0,967.7,7.5,24.5,177,176.5,95.5,24.3,373.0,46.0,12.4,7,5,7,1,2026-07-15T04:36:01.513755+05:30
Rishikesh,Uttarakhand,30.0869,78.2676,24.5,95,0.0,960.6,7.6,24.5,166,184.4,82.0,10.1,405.0,101.0,10.9,3,5,7,1,2026-07-15T04:36:01.513763+05:30
Nainital,Uttarakhand,29.3919,79.4542,15.3,100,0.0,801.3,7.7,24.8,169,195.1,83.6,28.1,361.0,39.0,7.3,3,10,7,0,2026-07-15T04:36:01.513771+05:30
Mussoorie,Uttarakhand,30.4599,78.0664,15.9,99,0.0,799.0,7.75,32.8,160,121.5,60.8,25.5,324.0,65.0,8.5,3,10,7,0,2026-07-15T04:36:01.513779+05:30
Dharamshala,Himachal Pradesh,32.219,76.3234,21.8,82,0.0,865.2,8.25,33.1,72,6.0,4.0,10.5,286.0,37.0,0.2,3,5,7,1,2026-07-15T04:36:01.513786+05:30
Dalhousie,Himachal Pradesh,32.5387,75.971,15.1,92,0.0,800.1,8.4,30.2,156,77.8,50.1,48.2,276.0,12.0,2.8,3,10,7,0,2026-07-15T04:36:01.513793+05:30
Patiala,Punjab,30.3398,76.3869,27.8,89,0.0,971.5,7.6,24.5,194,271.9,177.4,77.1,1253.0,0.0,13.1,7,5,7,1,2026-07-15T04:36:01.513801+05:30
Bhatinda,Punjab,30.211,74.9455,30.5,65,0.0,977.1,8.25,24.5,176,176.5,96.6,36.7,525.0,35.0,7.7,3,5,7,1,2026-07-15T04:36:01.513823+05:30
Rohtak,Haryana,28.8955,76.6066,28.6,76,0.0,975.3,7.65,25.6,322,119.2,56.0,23.8,365.0,35.0,7.1,7,5,7,1,2026-07-15T04:36:01.513830+05:30
Panipat,Haryana,29.3909,76.9635,27.9,83,0.0,973.8,7.55,24.5,627,106.9,60.3,26.5,577.0,26.0,5.3,7,5,7,1,2026-07-15T04:36:01.513837+05:30
Mathura,Uttar Pradesh,27.4924,77.6737,25.8,87,0.0,980.8,7.85,35.3,220,129.0,49.1,14.0,173.0,55.0,3.3,7,5,7,1,2026-07-15T04:36:01.513844+05:30
Vrindavan,Uttar Pradesh,27.5823,77.7027,26.4,83,0.0,981.2,7.9,30.6,220,129.0,49.1,14.0,171.0,55.0,3.3,7,5,7,1,2026-07-15T04:36:01.513851+05:30
Ayodhya,Uttar Pradesh,26.7922,82.1998,25.4,96,0.2,988.9,8.35,33.5,180,124.8,71.0,17.6,829.0,67.0,6.6,10,5,7,1,2026-07-15T04:36:01.513858+05:30
Ratlam,Madhya Pradesh,23.3315,75.0367,24.0,94,0.1,951.7,8.45,36.4,69,23.5,14.2,9.6,148.0,32.0,9.5,6,5,7,1,2026-07-15T04:36:01.513865+05:30
Sagar,Madhya Pradesh,23.8388,78.7378,25.6,74,0.0,946.3,7.8,38.2,94,44.8,27.6,6.4,236.0,66.0,5.1,7,5,7,1,2026-07-15T04:36:01.513872+05:30
Satna,Madhya Pradesh,24.6005,80.8322,27.1,73,0.0,966.1,8.75,36.7,125,65.2,38.8,7.2,165.0,56.0,4.2,7,5,7,1,2026-07-15T04:36:01.513879+05:30
Akola,Maharashtra,20.7002,77.0082,26.2,75,0.0,972.8,7.2,42.5,69,28.5,17.2,8.5,136.0,35.0,7.5,7,5,7,1,2026-07-15T04:36:01.513887+05:30
Amravati,Maharashtra,20.9374,77.7796,25.7,75,0.0,964.7,8.0,44.3,70,31.0,18.0,9.0,126.0,37.0,8.8,7,5,7,1,2026-07-15T04:36:01.513895+05:30
Latur,Maharashtra,18.4088,76.5604,23.3,82,0.0,937.7,8.75,42.1,63,26.5,15.8,7.8,129.0,36.0,4.4,3,5,7,1,2026-07-15T04:36:01.513902+05:30
Nanded,Maharashtra,19.1383,77.3091,25.5,72,0.0,966.5,8.8,38.2,74,31.5,21.2,6.8,154.0,63.0,7.8,7,5,7,1,2026-07-15T04:36:01.513909+05:30
Gulbarga,Karnataka,17.3297,76.8343,24.7,74,0.0,957.1,8.8,45.0,62,22.5,14.7,6.9,124.0,39.0,3.3,3,5,7,1,2026-07-15T04:36:01.513916+05:30
Bidar,Karnataka,17.9104,77.5199,23.3,73,0.0,933.1,8.95,41.0,72,24.8,17.3,6.6,131.0,52.0,4.2,3,5,7,1,2026-07-15T04:36:01.513922+05:30
Hospet,Karnataka,15.2689,76.3909,22.1,93,0.0,955.1,8.75,42.5,56,12.5,8.4,4.6,113.0,38.0,1.9,3,5,7,1,2026-07-15T04:36:01.513929+05:30
Tirupur,Tamil Nadu,11.1085,77.3411,24.1,90,0.0,974.4,8.35,57.2,66,19.7,14.3,11.3,152.0,30.0,4.4,3,5,7,1,2026-07-15T04:36:01.513936+05:30
Alappuzha,Kerala,9.4981,76.3388,26.8,89,0.0,1009.6,8.35,43.2,61,26.6,14.9,5.0,86.0,43.0,3.0,7,0,4,1,2026-07-15T04:36:01.513943+05:30
Munnar,Kerala,10.0889,77.0595,16.3,97,0.0,856.6,9.05,36.7,53,7.8,5.8,5.9,99.0,24.0,2.5,3,10,7,0,2026-07-15T04:36:01.513950+05:30
Silchar,Assam,24.8333,92.7789,25.8,98,0.1,999.6,8.8,29.5,65,15.3,14.3,7.3,209.0,63.0,3.4,10,5,7,1,2026-07-15T04:36:01.513957+05:30
Dibrugarh,Assam,27.4728,94.912,26.0,99,0.1,990.9,7.5,28.1,67,9.8,9.7,10.2,200.0,34.0,0.8,10,5,7,1,2026-07-15T04:36:01.513964+05:30
