city,state,latitude,longitude,temp,humidity,rain,pressure,uv_index,wind_gusts,aqi,pm10,pm2_5,no2,co,o3,so2,mosquito_risk,arthritis_risk,migraine_risk,frizz_risk,updated_at
Delhi,Delhi,28.6139,77.209,24.8,76,0.0,982.6,6.7,22.7,151,112.7,61.5,33.3,600.0,44.0,21.7,3,5,7,1,2026-06-02T05:45:52.008544+05:30
Mumbai,Maharashtra,19.076,72.8777,29.3,78,0.0,1007.8,7.65,40.3,56,43.8,18.0,8.3,212.0,42.0,6.1,7,5,4,1,2026-06-02T05:45:52.008588+05:30
Bangalore,Karnataka,12.9716,77.5946,22.1,83,0.0,911.6,8.5,29.5,79,28.5,27.0,32.1,443.0,35.0,11.1,3,5,7,1,2026-06-02T05:45:52.008604+05:30
Hyderabad,Telangana,17.385,78.4867,27.5,56,0.0,952.9,9.0,29.9,93,40.2,27.4,16.1,332.0,75.0,7.6,4,5,7,1,2026-06-02T05:45:52.008613+05:30
Chennai,Tamil Nadu,13.0827,80.2707,28.4,87,0.0,1006.3,8.65,41.0,76,28.1,23.7,19.2,260.0,47.0,14.3,7,5,4,1,2026-06-02T05:45:52.008621+05:30
Kolkata,West Bengal,22.5726,88.3639,28.5,88,0.0,1005.5,8.7,33.8,118,69.2,62.2,24.1,469.0,44.0,9.6,7,5,4,1,2026-06-02T05:45:52.008629+05:30
Pune,Maharashtra,18.5204,73.8567,25.0,85,0.0,948.6,8.3,46.1,48,21.0,10.1,9.3,160.0,37.0,8.8,7,5,7,1,2026-06-02T05:45:52.008636+05:30
Ahmedabad,Gujarat,23.0225,72.5714,26.6,85,0.0,1001.2,8.05,28.8,76,48.1,26.2,5.3,137.0,43.0,4.9,7,5,4,1,2026-06-02T05:45:52.008643+05:30
Jaipur,Rajasthan,26.9124,75.7873,25.5,81,0.0,959.0,8.2,31.0,105,62.6,30.0,11.8,288.0,41.0,5.9,7,5,7,1,2026-06-02T05:45:52.008653+05:30
Lucknow,Uttar Pradesh,26.8467,80.9462,24.6,79,0.3,993.5,7.8,50.4,132,79.9,60.3,28.6,483.0,50.0,8.5,6,5,7,1,2026-06-02T05:45:52.008661+05:30
Kanpur,Uttar Pradesh,26.4499,80.3319,23.1,95,0.1,991.9,8.05,49.0,117,70.3,48.5,16.8,420.0,70.0,5.3,6,5,7,1,2026-06-02T05:45:52.008668+05:30
Chandigarh,Chandigarh,30.7333,76.7794,22.9,81,0.0,968.7,7.85,23.4,86,46.8,43.9,40.6,938.0,13.0,3.8,3,5,7,1,2026-06-02T05:45:52.008675+05:30
Srinagar,Jammu and Kashmir,34.0837,74.7973,13.1,94,0.0,840.9,9.1,26.6,129,76.6,51.7,24.3,359.0,10.0,1.5,3,10,7,0,2026-06-02T05:45:52.008682+05:30
Jammu,Jammu and Kashmir,32.7266,74.857,25.0,60,0.0,972.8,8.65,27.4,138,77.1,49.2,23.9,357.0,39.0,3.1,4,5,7,1,2026-06-02T05:45:52.008689+05:30
Amritsar,Punjab,31.634,74.8723,25.4,60,0.0,980.7,8.45,22.7,122,269.2,85.9,16.5,511.0,56.0,7.6,4,5,7,1,2026-06-02T05:45:52.008695+05:30
Ludhiana,Punjab,30.901,75.8573,25.5,61,0.0,978.7,8.05,22.3,132,156.5,61.9,20.4,551.0,55.0,10.5,7,5,7,1,2026-06-02T05:45:52.008703+05:30
Jalandhar,Punjab,31.326,75.5762,25.6,60,0.0,979.7,8.25,27.0,120,131.8,60.8,23.1,512.0,48.0,9.7,4,5,7,1,2026-06-02T05:45:52.008709+05:30
Dehradun,Uttarakhand,30.6284,78.0322,14.5,88,0.0,829.8,8.1,31.0,50,20.6,14.8,24.6,239.0,12.0,0.0,3,10,7,0,2026-06-02T05:45:52.008716+05:30
Shimla,Himachal Pradesh,31.1048,77.1734,11.0,75,0.0,782.3,8.35,29.9,54,24.0,19.6,13.7,341.0,67.0,0.8,3,5,7,0,2026-06-02T05:45:52.008724+05:30
Manali,Himachal Pradesh,32.2396,77.1887,11.9,66,0.0,817.4,9.6,34.9,29,7.4,2.5,18.0,181.0,86.0,0.0,3,5,7,0,2026-06-02T05:45:52.008754+05:30
Gurgaon,Haryana,28.4595,77.0266,25.2,71,0.0,980.8,6.75,26.6,391,174.2,70.1,31.9,863.0,43.0,17.6,7,5,7,1,2026-06-02T05:45:52.008762+05:30
Noida,Uttar Pradesh,28.5355,77.391,24.9,74,0.0,984.1,7.6,23.0,391,174.2,70.1,31.9,538.0,43.0,17.6,3,5,7,1,2026-06-02T05:45:52.008769+05:30
Ghaziabad,Uttar Pradesh,28.6692,77.4538,24.5,77,0.0,982.4,7.75,24.5,124,88.7,58.6,24.9,519.0,48.0,11.4,3,5,7,1,2026-06-02T05:45:52.008775+05:30
Faridabad,Haryana,28.4089,77.3178,24.8,75,0.0,983.3,7.5,23.0,391,174.2,70.1,31.9,653.0,43.0,17.6,3,5,7,1,2026-06-02T05:45:52.008782+05:30
Meerut,Uttar Pradesh,28.9845,77.7064,24.2,83,0.0,981.4,7.15,26.6,124,88.7,58.6,24.9,564.0,48.0,11.4,3,5,7,1,2026-06-02T05:45:52.008788+05:30
Agra,Uttar Pradesh,27.1767,78.0081,24.1,86,0.1,987.7,8.1,26.6,199,97.6,43.3,14.5,640.0,66.0,7.3,6,5,7,1,2026-06-02T05:45:52.008795+05:30
Varanasi,Uttar Pradesh,25.3176,82.9739,27.9,75,0.0,997.1,7.4,23.4,151,97.8,82.9,34.4,1352.0,33.0,13.4,7,5,7,1,2026-06-02T05:45:52.008802+05:30
Prayagraj,Uttar Pradesh,25.4358,81.8463,27.9,66,0.0,995.5,8.65,23.8,125,74.3,61.0,28.1,659.0,42.0,9.8,7,5,7,1,2026-06-02T05:45:52.008809+05:30
Gorakhpur,Uttar Pradesh,26.7606,83.3732,26.2,77,0.0,996.9,8.35,23.4,157,118.7,105.2,56.8,527.0,28.0,15.3,7,5,7,1,2026-06-02T05:45:52.008818+05:30
Bareilly,Uttar Pradesh,28.367,79.4304,24.6,82,0.0,987.2,8.0,19.8,121,101.7,70.1,49.0,461.0,27.0,12.0,3,5,7,1,2026-06-02T05:45:52.008824+05:30
Aligarh,Uttar Pradesh,27.8974,78.088,25.3,78,0.0,984.9,7.95,23.8,134,113.4,64.5,26.6,528.0,35.0,8.1,7,5,7,1,2026-06-02T05:45:52.008830+05:30
Moradabad,Uttar Pradesh,28.8386,78.7733,24.6,83,0.0,983.8,7.65,25.2,124,82.0,60.5,42.0,527.0,26.0,7.4,3,5,7,1,2026-06-02T05:45:52.008837+05:30
Saharanpur,Uttar Pradesh,29.9637,77.546,24.4,73,0.0,975.8,7.55,21.6,133,95.5,76.8,55.4,560.0,15.0,11.2,3,5,7,1,2026-06-02T05:45:52.008843+05:30
Jhansi,Uttar Pradesh,25.4484,78.5685,27.0,67,0.0,977.4,8.45,22.0,83,40.9,21.2,9.2,189.0,64.0,5.1,7,5,7,1,2026-06-02T05:45:55.379147+05:30
Surat,Gujarat,21.1702,72.8311,25.6,94,0.0,1005.2,7.55,43.6,73,25.1,17.3,25.2,332.0,21.0,42.8,7,5,4,1,2026-06-02T05:45:55.379178+05:30
Vadodara,Gujarat,22.3072,73.1812,26.1,90,0.0,1003.5,7.95,41.8,71,25.2,15.7,9.3,138.0,32.0,8.4,7,5,4,1,2026-06-02T05:45:55.379189+05:30
Rajkot,Gujarat,22.3039,70.8022,28.2,77,0.0,992.6,7.45,44.3,66,35.7,17.5,4.2,105.0,42.0,4.5,7,5,7,1,2026-06-02T05:45:55.379198+05:30
Thane,Maharashtra,19.2183,72.9781,27.6,90,0.0,1007.2,7.65,35.6,56,43.8,18.0,8.3,187.0,42.0,6.1,7,5,4,1,2026-06-02T05:45:55.379207+05:30
Nagpur,Maharashtra,21.1458,79.0882,29.5,51,0.0,972.5,8.85,36.0,82,42.3,27.4,10.1,218.0,74.0,9.7,4,5,7,1,2026-06-02T05:45:55.379215+05:30
Nashik,Maharashtra,19.9975,73.7898,24.0,91,0.0,944.2,8.0,40.7,52,33.8,13.8,6.0,118.0,42.0,3.9,3,5,7,1,2026-06-02T05:45:55.379222+05:30
Aurangabad,Maharashtra,19.8762,75.3433,25.5,76,0.0,944.0,8.95,44.3,57,29.8,14.6,7.8,155.0,41.0,6.0,7,5,7,1,2026-06-02T05:45:55.379230+05:30
Solapur,Maharashtra,17.6599,75.9064,27.9,68,0.0,957.5,8.9,43.2,66,39.2,24.8,20.8,170.0,33.0,4.5,7,5,7,1,2026-06-02T05:45:55.379238+05:30
Kolhapur,Maharashtra,16.705,74.2433,24.0,90,0.0,948.3,8.7,49.3,40,11.8,8.6,9.3,166.0,33.0,3.3,3,5,7,1,2026-06-02T05:45:55.379246+05:30
Goa,Goa,15.2993,74.124,26.0,97,0.0,998.4,6.65,28.8,52,23.4,19.3,9.4,382.0,38.0,3.0,7,5,7,1,2026-06-02T05:45:55.379253+05:30
Jodhpur,Rajasthan,26.2389,73.0243,28.8,59,0.0,981.6,8.4,41.4,95,92.9,31.7,8.3,191.0,44.0,2.7,4,5,7,1,2026-06-02T05:45:55.379261+05:30
Udaipur,Rajasthan,24.5854,73.7125,23.9,80,0.0,945.4,8.8,37.8,75,38.9,24.3,11.1,187.0,39.0,9.7,3,5,7,1,2026-06-02T05:45:55.379269+05:30
Kota,Rajasthan,25.2138,75.8648,25.6,75,0.0,978.3,8.35,54.4,77,36.4,21.4,6.9,205.0,57.0,4.5,7,5,7,1,2026-06-02T05:45:55.379276+05:30
Bikaner,Rajasthan,28.0229,73.3119,26.6,72,0.0,980.3,8.45,32.8,123,125.7,48.4,5.2,156.0,40.0,1.9,7,5,7,1,2026-06-02T05:45:55.379284+05:30
Ajmer,Rajasthan,26.4499,74.6399,25.4,76,0.0,953.6,8.3,52.9,78,46.8,21.7,7.5,185.0,48.0,5.2,7,5,7,1,2026-06-02T05:45:55.379291+05:30
Gwalior,Madhya Pradesh,26.2183,78.1828,25.9,80,0.0,982.5,8.25,21.2,96,54.4,25.7,10.6,265.0,54.0,4.9,7,5,7,1,2026-06-02T05:45:55.379299+05:30
Indore,Madhya Pradesh,22.7196,75.8577,23.6,81,0.0,947.8,7.9,37.8,82,42.6,31.0,11.4,293.0,48.0,5.8,3,5,7,1,2026-06-02T05:45:55.379306+05:30
Bhopal,Madhya Pradesh,23.2599,77.4126,26.0,64,0.0,953.3,8.65,28.4,68,36.0,24.8,9.9,232.0,53.0,2.7,7,5,7,1,2026-06-02T05:45:55.379314+05:30
Jabalpur,Madhya Pradesh,23.1815,79.9864,28.5,53,0.0,960.9,8.85,26.3,92,40.6,24.2,12.9,228.0,54.0,3.8,4,5,7,1,2026-06-02T05:45:55.379320+05:30
Ujjain,Madhya Pradesh,23.1765,75.7885,24.8,75,0.0,953.7,7.85,46.8,81,42.8,32.2,10.2,293.0,42.0,5.6,3,5,7,1,2026-06-02T05:45:55.379328+05:30
Visakhapatnam,Andhra Pradesh,17.6868,83.2185,28.0,91,0.0,1002.2,9.0,38.5,92,38.5,32.2,31.2,401.0,79.0,43.7,7,5,4,1,2026-06-02T05:45:55.379335+05:30
Vijayawada,Andhra Pradesh,16.5062,80.648,29.3,84,0.0,1000.8,9.0,28.8,90,39.1,32.0,11.1,247.0,85.0,7.0,7,5,4,1,2026-06-02T05:45:55.379342+05:30
Guntur,Andhra Pradesh,16.3067,80.4365,28.7,88,0.0,1002.2,9.0,31.0,94,32.7,28.2,10.5,244.0,84.0,7.2,7,5,4,1,2026-06-02T05:45:55.379349+05:30
Nellore,Andhra Pradesh,14.4426,79.9865,28.8,68,0.0,1004.3,8.45,32.0,73,27.5,21.3,12.7,170.0,59.0,5.3,7,5,4,1,2026-06-02T05:45:55.379357+05:30
Kurnool,Andhra Pradesh,15.8281,78.0373,28.5,58,0.0,976.6,8.85,43.6,81,28.5,21.7,18.7,205.0,44.0,5.4,4,5,7,1,2026-06-02T05:45:55.379364+05:30
Kakinada,Andhra Pradesh,16.9891,82.2475,27.5,93,0.0,1006.2,9.0,32.4,80,39.6,28.1,5.3,509.0,119.0,4.5,7,5,4,1,2026-06-02T05:45:55.379371+05:30
Tirupati,Andhra Pradesh,13.6288,79.4192,26.9,73,0.0,990.4,9.0,26.6,64,25.4,21.1,19.2,188.0,34.0,2.8,7,5,7,1,2026-06-02T05:45:55.379378+05:30
Warangal,Telangana,17.9689,79.5941,28.4,62,0.0,977.5,9.0,33.1,127,59.5,44.2,22.1,402.0,48.0,6.2,7,5,7,1,2026-06-02T05:45:55.379385+05:30
Nizamabad,Telangana,18.6725,78.0941,27.4,62,0.0,964.1,8.95,50.0,88,49.6,34.6,15.2,208.0,52.0,3.5,7,5,7,1,2026-06-02T05:45:55.379392+05:30
Mysore,Karnataka,12.2958,76.6396,22.0,97,0.0,928.4,8.95,40.7,52,21.8,20.4,10.0,276.0,51.0,2.8,3,5,7,1,2026-06-02T05:45:55.379399+05:30
Mangalore,Karnataka,12.9141,74.856,24.5,98,0.1,1008.5,2.25,28.4,50,21.2,17.5,11.3,353.0,30.0,3.7,6,0,0,1,2026-06-02T05:45:55.379406+05:30
Hubli-Dharwad,Karnataka,15.3647,75.124,23.8,92,0.0,941.5,8.5,35.3,39,7.9,5.7,5.3,152.0,40.0,1.9,3,5,7,1,2026-06-02T05:45:55.379413+05:30
Belgaum,Karnataka,15.8497,74.4977,21.9,98,0.0,926.0,8.65,46.4,40,15.1,12.6,9.8,167.0,28.0,0.7,3,5,7,1,2026-06-02T05:45:58.747320+05:30
Coimbatore,Tamil Nadu,11.0168,76.9558,25.0,86,0.0,961.8,9.0,48.2,52,14.3,12.6,5.6,188.0,60.0,4.3,7,5,7,1,2026-06-02T05:45:58.747355+05:30
Madurai,Tamil Nadu,9.9252,78.1198,27.6,85,0.0,993.0,8.85,56.5,73,43.0,39.5,36.8,344.0,1.0,6.6,7,5,7,1,2026-06-02T05:45:58.747368+05:30
Trichy,Tamil Nadu,10.7905,78.7047,27.1,86,0.0,999.5,8.85,40.3,52,13.4,11.7,16.2,186.0,29.0,5.5,7,5,7,1,2026-06-02T05:45:58.747378+05:30
Salem,Tamil Nadu,11.6643,78.146,26.8,76,0.0,977.2,8.9,36.0,68,36.2,34.3,30.5,201.0,22.0,7.1,7,5,7,1,2026-06-02T05:45:58.747389+05:30
Tirunelveli,Tamil Nadu,8.7139,77.7567,28.4,72,0.0,1003.4,8.75,31.3,33,12.4,10.6,10.2,141.0,30.0,2.8,7,5,4,1,2026-06-02T05:45:58.747398+05:30
Vellore,Tamil Nadu,12.9165,79.1325,25.3,89,0.0,983.8,8.7,27.0,75,40.3,34.1,22.2,239.0,29.0,5.7,7,5,7,1,2026-06-02T05:45:58.747407+05:30
Erode,Tamil Nadu,11.341,77.7172,26.5,79,0.0,989.1,8.9,46.1,56,21.0,19.7,18.7,326.0,32.0,4.5,7,5,7,1,2026-06-02T05:45:58.747416+05:30
Kochi,Kerala,9.9312,76.2673,26.0,96,0.0,1009.3,8.3,27.7,48,11.2,10.0,12.1,288.0,25.0,4.2,7,0,4,1,2026-06-02T05:45:58.747425+05:30
Thiruvananthapuram,Kerala,8.5241,76.9366,25.2,97,0.0,1008.8,8.15,37.8,29,8.6,5.1,2.4,155.0,43.0,0.9,7,0,4,1,2026-06-02T05:45:58.747434+05:30
Kozhikode,Kerala,11.2588,75.7804,25.4,99,0.2,1008.9,7.5,27.7,35,10.5,6.4,1.3,330.0,79.0,0.7,10,0,4,1,2026-06-02T05:45:58.747443+05:30
Thrissur,Kerala,10.5276,76.2144,24.8,96,0.0,1007.8,7.35,28.1,51,12.0,10.5,10.2,263.0,38.0,4.7,3,5,4,1,2026-06-02T05:45:58.747452+05:30
Kannur,Kerala,11.8745,75.3704,24.6,99,0.3,1008.6,2.5,28.1,38,11.2,8.4,5.8,357.0,50.0,1.8,6,0,0,1,2026-06-02T05:45:58.747461+05:30
Patna,Bihar,25.5941,85.1376,28.7,71,0.0,999.9,8.85,19.1,165,149.9,136.0,68.4,751.0,28.0,24.8,7,5,7,1,2026-06-02T05:45:58.747469+05:30
Gaya,Bihar,24.7914,85.0002,26.5,79,0.0,993.4,8.7,20.9,150,77.1,70.1,43.5,481.0,20.0,11.9,7,5,7,1,2026-06-02T05:45:58.747478+05:30
Muzaffarpur,Bihar,26.1209,85.3647,26.8,78,0.0,1000.0,8.85,20.9,169,155.5,141.1,62.8,892.0,24.0,21.7,7,5,4,1,2026-06-02T05:45:58.747487+05:30
Bhagalpur,Bihar,25.2425,87.0117,28.1,80,0.0,1000.6,8.85,17.6,147,55.6,52.4,21.5,563.0,61.0,17.3,7,5,4,1,2026-06-02T05:45:58.747495+05:30
Ranchi,Jharkhand,23.3441,85.3096,24.1,75,0.0,937.4,9.25,24.1,152,124.8,104.5,44.2,450.0,60.0,10.5,3,5,7,1,2026-06-02T05:45:58.747503+05:30
Jamshedpur,Jharkhand,22.8046,86.2029,26.8,86,0.0,990.5,9.05,34.6,147,73.3,68.9,38.9,758.0,25.0,18.1,7,5,7,1,2026-06-02T05:45:58.747512+05:30
Dhanbad,Jharkhand,23.7957,86.4304,26.4,84,0.0,979.5,9.0,23.0,174,143.4,138.3,57.7,559.0,17.0,223.9,7,5,7,1,2026-06-02T05:45:58.747521+05:30
Bokaro,Jharkhand,23.6693,86.1511,26.0,88,0.0,983.4,9.05,22.3,176,174.6,168.1,43.3,694.0,75.0,216.4,7,5,7,1,2026-06-02T05:45:58.747531+05:30
Bhubaneswar,Odisha,20.2961,85.8245,28.3,95,0.0,1001.8,9.0,23.8,106,38.9,35.5,10.0,311.0,114.0,7.3,7,5,4,1,2026-06-02T05:45:58.747539+05:30
Cuttack,Odisha,20.4625,85.8828,28.5,95,0.0,1003.7,9.05,34.6,106,38.9,35.5,10.0,316.0,114.0,7.3,7,5,4,1,2026-06-02T05:45:58.747548+05:30
Rourkela,Odisha,22.2604,84.8536,27.2,78,0.0,984.7,9.0,28.4,156,117.6,101.7,46.1,500.0,36.0,27.0,7,5,7,1,2026-06-02T05:45:58.747556+05:30
Raipur,Chhattisgarh,21.2514,81.6296,29.1,56,0.0,973.9,8.95,30.2,153,87.3,63.6,46.0,464.0,30.0,49.3,4,5,7,1,2026-06-02T05:45:58.747563+05:30
Bhilai,Chhattisgarh,21.1938,81.3509,26.8,79,0.1,974.3,8.95,27.0,155,88.5,63.6,47.9,790.0,37.0,56.7,10,5,7,1,2026-06-02T05:45:58.747570+05:30
Guwahati,Assam,26.1158,91.7086,28.0,76,0.0,1001.0,8.7,30.6,86,42.7,38.8,16.4,378.0,22.0,1.2,7,5,4,1,2026-06-02T05:45:58.747577+05:30
Agartala,Tripura,23.8315,91.2868,26.9,91,0.0,1006.2,8.75,19.8,117,39.6,33.8,16.9,260.0,19.0,3.0,7,5,4,1,2026-06-02T05:45:58.747584+05:30
Shillong,Meghalaya,25.5788,91.8933,18.7,92,0.0,857.8,7.9,22.7,55,22.9,18.1,5.4,355.0,72.0,2.2,3,10,7,1,2026-06-02T05:45:58.747591+05:30
Imphal,Manipur,24.817,93.9368,22.5,94,0.0,923.6,9.15,29.5,63,17.1,15.6,6.3,330.0,55.0,2.5,3,5,7,1,2026-06-02T05:45:58.747598+05:30
Aizawl,Mizoram,23.7271,92.7176,19.2,97,0.0,892.8,8.2,20.5,52,13.4,9.1,3.9,225.0,71.0,2.5,3,10,7,1,2026-06-02T05:45:58.747605+05:30
Kohima,Nagaland,25.6701,94.1077,20.0,96,0.0,856.4,8.1,31.7,29,7.5,6.2,3.5,208.0,66.0,0.9,3,5,7,1,2026-06-02T05:45:58.747612+05:30
Gangtok,Sikkim,27.3314,88.6138,14.0,95,0.1,836.9,8.5,39.6,64,15.9,12.6,6.4,304.0,57.0,0.8,6,10,7,0,2026-06-02T05:45:58.747619+05:30
Siliguri,West Bengal,26.7271,88.3953,27.5,77,0.0,992.6,8.7,29.2,128,44.7,41.1,19.8,869.0,42.0,2.6,7,5,7,1,2026-06-02T05:46:02.126210+05:30
Durgapur,West Bengal,23.5204,87.3119,27.1,92,0.0,994.6,8.95,23.4,158,66.6,62.9,38.3,1081.0,31.0,49.5,7,5,7,1,2026-06-02T05:46:02.126242+05:30
Asansol,West Bengal,23.6739,86.9524,26.9,88,0.0,993.2,8.95,27.0,158,61.0,57.6,38.3,1833.0,27.0,42.8,7,5,7,1,2026-06-02T05:46:02.126253+05:30
Pondicherry,Puducherry,11.9139,79.8145,27.8,82,0.0,1007.9,8.85,42.1,69,9.0,7.2,11.2,240.0,36.0,9.9,7,5,4,1,2026-06-02T05:46:02.126262+05:30
Port Blair,Andaman and Nicobar Islands,11.6234,92.7265,25.0,97,0.1,1007.5,2.7,34.6,33,9.6,5.4,0.3,119.0,70.0,0.4,10,5,0,1,2026-06-02T05:46:02.126271+05:30
Haridwar,Uttarakhand,29.9457,78.1642,22.6,75,0.0,974.0,7.6,24.8,92,69.4,50.9,34.1,300.0,62.0,9.2,3,5,7,1,2026-06-02T05:46:02.126279+05:30
Rishikesh,Uttarakhand,30.0869,78.2676,20.4,83,0.0,966.6,7.7,28.1,73,44.9,27.8,11.1,383.0,110.0,5.7,3,5,7,1,2026-06-02T05:46:02.126287+05:30
Nainital,Uttarakhand,29.3919,79.4542,11.5,85,0.0,804.2,6.85,30.2,65,36.6,26.6,24.9,267.0,38.0,2.1,3,10,7,0,2026-06-02T05:46:02.126295+05:30
Mussoorie,Uttarakhand,30.4599,78.0664,15.0,70,0.0,802.9,7.95,33.1,70,48.2,35.5,42.3,255.0,24.0,5.8,3,5,7,0,2026-06-02T05:46:02.126302+05:30
Dharamshala,Himachal Pradesh,32.219,76.3234,20.0,63,0.0,869.6,8.55,37.4,50,19.0,10.7,10.3,230.0,53.0,0.0,3,5,7,0,2026-06-02T05:46:02.126310+05:30
Dalhousie,Himachal Pradesh,32.5387,75.971,10.9,88,0.0,802.2,8.75,31.3,71,37.4,30.7,24.5,240.0,18.0,0.2,3,10,7,0,2026-06-02T05:46:02.126318+05:30
Patiala,Punjab,30.3398,76.3869,24.4,73,0.0,978.2,7.7,19.8,211,96.2,48.9,14.1,653.0,64.0,8.4,3,5,7,1,2026-06-02T05:46:02.126325+05:30
Bhatinda,Punjab,30.211,74.9455,26.4,53,0.0,983.3,8.3,26.3,412,590.5,172.8,11.8,346.0,81.0,11.7,4,5,7,1,2026-06-02T05:46:02.126333+05:30
Rohtak,Haryana,28.8955,76.6066,25.1,73,0.0,981.4,7.8,25.2,210,172.3,63.8,32.4,479.0,43.0,20.2,7,5,7,1,2026-06-02T05:46:02.126341+05:30
Panipat,Haryana,29.3909,76.9635,24.5,78,0.0,980.3,7.65,26.6,639,183.5,62.6,22.9,489.0,54.0,10.1,3,5,7,1,2026-06-02T05:46:02.126348+05:30
Mathura,Uttar Pradesh,27.4924,77.6737,25.5,75,0.1,986.3,8.05,27.0,192,224.0,71.7,18.2,442.0,55.0,6.8,10,5,7,1,2026-06-02T05:46:02.126355+05:30
Vrindavan,Uttar Pradesh,27.5823,77.7027,25.7,74,0.0,986.7,7.95,26.3,192,224.0,71.7,18.2,434.0,55.0,6.8,7,5,7,1,2026-06-02T05:46:02.126362+05:30
Ayodhya,Uttar Pradesh,26.7922,82.1998,25.8,79,0.0,995.0,8.4,43.2,153,129.9,109.4,67.2,510.0,15.0,14.3,7,5,7,1,2026-06-02T05:46:02.126369+05:30
Ratlam,Madhya Pradesh,23.3315,75.0367,24.1,77,0.0,954.3,8.5,33.1,78,45.1,28.0,7.9,202.0,46.0,10.7,3,5,7,1,2026-06-02T05:46:02.126376+05:30
Sagar,Madhya Pradesh,23.8388,78.7378,25.1,63,0.0,949.7,8.7,26.6,69,28.1,18.2,9.6,204.0,62.0,1.8,7,5,7,1,2026-06-02T05:46:02.126383+05:30
Satna,Madhya Pradesh,24.6005,80.8322,26.8,70,0.0,970.7,8.8,49.3,109,52.3,42.4,16.3,356.0,60.0,6.7,7,5,7,1,2026-06-02T05:46:02.126389+05:30
Akola,Maharashtra,20.7002,77.0082,26.9,70,0.0,974.7,8.8,40.0,70,43.4,21.7,8.9,178.0,72.0,3.6,7,5,7,1,2026-06-02T05:46:02.126397+05:30
Amravati,Maharashtra,20.9374,77.7796,27.4,58,0.0,966.8,8.8,30.6,72,40.0,20.4,9.5,194.0,74.0,3.9,4,5,7,1,2026-06-02T05:46:02.126405+05:30
Latur,Maharashtra,18.4088,76.5604,26.8,62,0.0,939.9,8.95,72.0,74,46.0,27.4,20.1,184.0,36.0,4.7,7,5,7,1,2026-06-02T05:46:02.126412+05:30
Nanded,Maharashtra,19.1383,77.3091,28.5,60,0.0,968.5,8.9,49.3,81,45.6,26.7,11.6,192.0,61.0,3.7,4,5,7,1,2026-06-02T05:46:02.126418+05:30
Gulbarga,Karnataka,17.3297,76.8343,28.2,65,0.0,958.5,8.75,42.1,72,39.5,24.3,12.8,196.0,63.0,4.7,7,5,7,1,2026-06-02T05:46:02.126425+05:30
Bidar,Karnataka,17.9104,77.5199,26.9,62,0.0,935.0,8.35,38.9,77,46.2,31.0,16.3,195.0,55.0,3.4,7,5,7,1,2026-06-02T05:46:02.126432+05:30
Hospet,Karnataka,15.2689,76.3909,25.0,88,0.0,956.6,9.0,43.6,53,9.4,7.1,6.2,183.0,45.0,1.6,7,5,7,1,2026-06-02T05:46:02.126439+05:30
Tirupur,Tamil Nadu,11.1085,77.3411,25.6,84,0.0,975.2,9.0,53.3,60,22.1,20.5,19.0,160.0,34.0,5.5,7,5,7,1,2026-06-02T05:46:02.126445+05:30
Alappuzha,Kerala,9.4981,76.3388,25.4,99,0.0,1009.4,8.35,33.8,40,11.9,9.5,7.9,302.0,42.0,3.2,7,0,4,1,2026-06-02T05:46:02.126452+05:30
Munnar,Kerala,10.0889,77.0595,17.2,100,0.0,857.0,9.15,27.4,54,12.0,10.3,8.2,183.0,33.0,1.4,3,10,7,1,2026-06-02T05:46:02.126459+05:30
Silchar,Assam,24.8333,92.7789,25.2,97,0.1,1005.8,8.75,20.2,88,39.7,35.0,11.3,315.0,84.0,7.1,10,5,4,1,2026-06-02T05:46:02.126466+05:30
Dibrugarh,Assam,27.4728,94.912,25.0,96,0.1,995.8,8.45,23.0,69,20.8,19.6,12.2,235.0,44.0,1.8,10,5,7,1,2026-06-02T05:46:02.126473+05:30
