city,state,latitude,longitude,temp,humidity,rain,pressure,uv_index,wind_gusts,aqi,pm10,pm2_5,no2,co,o3,so2,mosquito_risk,arthritis_risk,migraine_risk,frizz_risk,updated_at
Delhi,Delhi,28.6139,77.209,39.1,29,0.0,977.8,7.8,37.8,301,210.5,59.3,4.2,259.0,175.0,13.3,0,5,10,1,2026-06-18T14:46:11.850599+05:30
Mumbai,Maharashtra,19.076,72.8777,32.9,56,0.0,1006.8,7.7,46.4,59,39.9,20.1,3.8,147.0,84.0,5.5,0,5,4,1,2026-06-18T14:46:11.850653+05:30
Bangalore,Karnataka,12.9716,77.5946,28.4,55,0.0,911.0,7.0,42.1,62,22.9,13.6,4.8,279.0,113.0,4.0,4,5,7,1,2026-06-18T14:46:11.850670+05:30
Hyderabad,Telangana,17.385,78.4867,35.9,37,0.0,951.1,9.05,37.4,70,31.4,19.3,2.1,211.0,139.0,6.1,0,5,10,1,2026-06-18T14:46:11.850680+05:30
Chennai,Tamil Nadu,13.0827,80.2707,34.2,60,0.0,1003.5,7.35,32.8,81,38.1,29.0,3.6,280.0,193.0,7.8,0,5,4,1,2026-06-18T14:46:11.850689+05:30
Kolkata,West Bengal,22.5726,88.3639,29.7,84,0.2,1001.1,9.0,39.2,130,57.3,44.1,4.4,436.0,140.0,8.7,10,5,4,1,2026-06-18T14:46:11.850697+05:30
Pune,Maharashtra,18.5204,73.8567,33.3,35,0.0,946.8,8.3,45.4,50,27.4,14.8,1.6,129.0,104.0,3.5,0,5,7,0,2026-06-18T14:46:11.850705+05:30
Ahmedabad,Gujarat,23.0225,72.5714,36.2,40,0.0,998.1,3.95,34.6,68,54.5,19.4,1.4,131.0,90.0,3.6,0,5,6,1,2026-06-18T14:46:11.850712+05:30
Jaipur,Rajasthan,26.9124,75.7873,34.0,46,0.0,956.7,8.2,37.4,116,120.1,34.6,1.0,148.0,101.0,3.3,0,5,7,1,2026-06-18T14:46:11.850720+05:30
Lucknow,Uttar Pradesh,26.8467,80.9462,39.1,32,0.0,987.6,8.35,34.6,155,228.2,59.8,1.4,220.0,165.0,9.6,0,5,10,1,2026-06-18T14:46:11.850733+05:30
Kanpur,Uttar Pradesh,26.4499,80.3319,39.8,30,0.0,986.0,7.9,34.2,153,197.0,49.6,1.5,178.0,155.0,6.3,0,5,10,1,2026-06-18T14:46:11.850741+05:30
Chandigarh,Chandigarh,30.7333,76.7794,35.9,33,0.0,964.4,7.8,31.7,153,86.8,43.5,2.2,319.0,189.0,12.2,0,5,10,1,2026-06-18T14:46:11.850748+05:30
Srinagar,Jammu and Kashmir,34.0837,74.7973,24.1,52,0.1,843.0,8.65,27.7,71,21.5,12.6,1.9,300.0,145.0,2.4,3,5,7,0,2026-06-18T14:46:11.850755+05:30
Jammu,Jammu and Kashmir,32.7266,74.857,38.0,27,0.0,967.9,8.65,33.5,89,33.5,17.8,1.7,263.0,162.0,2.2,0,5,10,0,2026-06-18T14:46:11.850761+05:30
Amritsar,Punjab,31.634,74.8723,35.6,42,0.0,976.0,8.5,37.8,160,59.6,42.6,2.2,307.0,212.0,10.8,0,5,10,1,2026-06-18T14:46:11.850768+05:30
Ludhiana,Punjab,30.901,75.8573,37.3,32,0.0,973.7,7.95,29.2,159,76.1,40.7,1.8,286.0,174.0,4.7,0,5,10,1,2026-06-18T14:46:11.850775+05:30
Jalandhar,Punjab,31.326,75.5762,37.3,32,0.0,974.9,8.25,27.7,159,75.0,39.9,1.7,306.0,182.0,6.8,0,5,10,1,2026-06-18T14:46:11.850781+05:30
Dehradun,Uttarakhand,30.6284,78.0322,22.1,76,0.1,829.9,7.7,25.9,86,56.5,25.6,1.3,209.0,149.0,4.7,6,5,7,1,2026-06-18T14:46:11.850788+05:30
Shimla,Himachal Pradesh,31.1048,77.1734,21.1,58,0.0,785.8,8.35,40.7,100,65.2,32.7,1.5,226.0,162.0,8.5,0,5,7,0,2026-06-18T14:46:11.850795+05:30
Manali,Himachal Pradesh,32.2396,77.1887,24.0,54,0.0,819.9,9.5,32.0,74,12.1,11.3,4.0,147.0,160.0,0.5,0,5,7,0,2026-06-18T14:46:11.850811+05:30
Gurgaon,Haryana,28.4595,77.0266,38.4,30,0.0,976.6,7.85,34.6,248,773.0,112.7,4.1,204.0,159.0,10.5,0,5,10,1,2026-06-18T14:46:11.850818+05:30
Noida,Uttar Pradesh,28.5355,77.391,38.7,30,0.0,979.0,7.8,23.8,248,773.0,112.7,4.1,276.0,159.0,10.5,0,5,10,1,2026-06-18T14:46:11.850824+05:30
Ghaziabad,Uttar Pradesh,28.6692,77.4538,37.4,35,0.0,977.4,7.35,28.8,344,192.3,63.1,4.0,270.0,212.0,21.0,0,5,10,1,2026-06-18T14:46:11.850830+05:30
Faridabad,Haryana,28.4089,77.3178,38.9,29,0.0,978.5,7.85,37.1,248,773.0,112.7,4.1,212.0,159.0,10.5,0,5,10,1,2026-06-18T14:46:11.850836+05:30
Meerut,Uttar Pradesh,28.9845,77.7064,37.4,36,0.0,976.6,7.7,42.1,344,192.3,63.1,4.0,251.0,212.0,21.0,0,5,10,1,2026-06-18T14:46:11.850842+05:30
Agra,Uttar Pradesh,27.1767,78.0081,39.4,28,0.0,982.6,8.15,32.8,187,622.1,87.8,1.6,149.0,121.0,4.2,0,5,10,1,2026-06-18T14:46:11.850848+05:30
Varanasi,Uttar Pradesh,25.3176,82.9739,40.7,30,0.0,990.9,8.8,31.0,152,121.5,47.8,1.4,192.0,144.0,6.6,0,5,10,1,2026-06-18T14:46:11.850855+05:30
Prayagraj,Uttar Pradesh,25.4358,81.8463,40.4,29,0.0,989.5,8.3,30.2,149,89.9,37.3,1.4,154.0,136.0,6.1,0,5,10,1,2026-06-18T14:46:11.850861+05:30
Gorakhpur,Uttar Pradesh,26.7606,83.3732,37.8,39,0.0,990.4,8.7,31.0,154,133.6,50.8,1.5,211.0,144.0,5.6,0,5,10,1,2026-06-18T14:46:11.850867+05:30
Bareilly,Uttar Pradesh,28.367,79.4304,37.0,37,0.0,981.2,8.15,29.9,162,224.4,65.4,1.6,223.0,165.0,10.0,0,5,10,1,2026-06-18T14:46:11.850876+05:30
Aligarh,Uttar Pradesh,27.8974,78.088,38.0,33,0.0,980.4,7.85,31.0,239,433.1,73.1,2.0,191.0,144.0,7.7,0,5,10,1,2026-06-18T14:46:11.850882+05:30
Moradabad,Uttar Pradesh,28.8386,78.7733,37.0,38,0.0,978.5,7.95,33.1,179,258.9,72.2,2.2,239.0,168.0,11.4,0,5,10,1,2026-06-18T14:46:11.850888+05:30
Saharanpur,Uttar Pradesh,29.9637,77.546,35.6,38,0.0,970.9,7.55,26.3,181,133.2,53.3,2.3,260.0,189.0,18.0,0,5,10,1,2026-06-18T14:46:11.850895+05:30
Jhansi,Uttar Pradesh,25.4484,78.5685,38.6,34,0.0,973.1,8.5,32.0,78,100.8,32.9,0.9,132.0,105.0,4.0,0,5,10,1,2026-06-18T14:46:15.094466+05:30
Surat,Gujarat,21.1702,72.8311,32.7,53,0.0,1004.2,7.6,49.3,70,46.6,23.2,9.2,221.0,58.0,31.2,0,5,4,1,2026-06-18T14:46:15.094504+05:30
Vadodara,Gujarat,22.3072,73.1812,38.2,32,0.0,1000.5,5.25,53.6,64,47.1,19.1,1.5,129.0,91.0,3.3,0,5,3,1,2026-06-18T14:46:15.094515+05:30
Rajkot,Gujarat,22.3039,70.8022,36.7,40,0.1,990.4,4.75,45.4,60,52.0,18.2,0.9,99.0,84.0,3.2,3,5,6,1,2026-06-18T14:46:15.094523+05:30
Thane,Maharashtra,19.2183,72.9781,34.9,45,0.0,1005.7,7.7,42.8,59,39.9,20.1,3.8,141.0,84.0,5.5,0,5,4,1,2026-06-18T14:46:15.094531+05:30
Nagpur,Maharashtra,21.1458,79.0882,37.3,35,0.0,969.5,7.65,40.0,81,37.3,22.4,3.5,148.0,137.0,14.8,0,5,10,1,2026-06-18T14:46:15.094540+05:30
Nashik,Maharashtra,19.9975,73.7898,33.6,37,0.0,944.0,8.05,47.5,49,30.5,14.4,1.0,109.0,92.0,2.3,0,5,7,1,2026-06-18T14:46:15.094547+05:30
Aurangabad,Maharashtra,19.8762,75.3433,36.6,20,0.0,942.3,8.95,47.2,51,46.0,16.9,0.9,120.0,103.0,2.3,0,5,10,0,2026-06-18T14:46:15.094553+05:30
Solapur,Maharashtra,17.6599,75.9064,36.8,28,0.0,955.3,8.75,43.9,56,28.6,15.0,1.2,126.0,119.0,3.3,0,5,10,0,2026-06-18T14:46:15.094562+05:30
Kolhapur,Maharashtra,16.705,74.2433,33.2,35,0.0,947.1,8.8,43.9,52,26.9,15.0,1.4,116.0,96.0,1.7,0,5,7,0,2026-06-18T14:46:15.094570+05:30
Goa,Goa,15.2993,74.124,33.5,52,0.0,996.9,8.7,29.9,61,32.6,15.3,0.6,103.0,66.0,1.4,0,5,7,1,2026-06-18T14:46:15.094577+05:30
Jodhpur,Rajasthan,26.2389,73.0243,37.6,39,0.0,979.0,8.4,39.2,104,150.4,34.7,0.6,111.0,87.0,2.3,0,5,10,1,2026-06-18T14:46:15.094584+05:30
Udaipur,Rajasthan,24.5854,73.7125,32.8,46,0.0,944.3,8.3,37.1,67,40.2,16.6,0.6,109.0,83.0,2.4,0,5,7,1,2026-06-18T14:46:15.094591+05:30
Kota,Rajasthan,25.2138,75.8648,35.8,41,0.0,975.2,8.35,37.4,71,63.6,25.5,0.8,126.0,106.0,4.0,0,5,10,1,2026-06-18T14:46:15.094599+05:30
Bikaner,Rajasthan,28.0229,73.3119,35.3,50,0.0,977.6,8.45,54.7,121,187.7,49.7,0.3,118.0,86.0,2.1,0,5,10,1,2026-06-18T14:46:15.094606+05:30
Ajmer,Rajasthan,26.4499,74.6399,32.2,51,0.0,952.0,8.35,43.2,82,89.9,30.2,0.6,117.0,92.0,2.8,0,5,7,1,2026-06-18T14:46:15.094613+05:30
Gwalior,Madhya Pradesh,26.2183,78.1828,38.8,31,0.0,978.4,8.25,36.0,83,129.9,38.8,0.6,136.0,103.0,2.4,0,5,10,1,2026-06-18T14:46:15.094620+05:30
Indore,Madhya Pradesh,22.7196,75.8577,35.6,35,0.0,945.8,8.6,39.6,79,61.7,32.5,2.0,155.0,96.0,2.9,0,5,10,1,2026-06-18T14:46:15.094627+05:30
Bhopal,Madhya Pradesh,23.2599,77.4126,34.4,45,0.0,950.7,8.7,35.3,81,41.0,21.1,0.9,160.0,104.0,3.4,0,5,7,1,2026-06-18T14:46:15.094634+05:30
Jabalpur,Madhya Pradesh,23.1815,79.9864,35.4,45,0.0,957.9,3.75,36.0,86,45.8,24.3,0.9,165.0,114.0,3.0,0,5,6,1,2026-06-18T14:46:15.094641+05:30
Ujjain,Madhya Pradesh,23.1765,75.7885,35.1,38,0.0,951.2,8.55,40.3,71,41.7,21.2,1.1,133.0,96.0,2.8,0,5,10,1,2026-06-18T14:46:15.094648+05:30
Visakhapatnam,Andhra Pradesh,17.6868,83.2185,32.8,69,0.0,999.1,8.15,32.8,125,49.1,35.7,8.8,580.0,159.0,34.1,3,5,7,1,2026-06-18T14:46:15.094655+05:30
Vijayawada,Andhra Pradesh,16.5062,80.648,36.7,43,0.0,998.1,8.75,27.4,101,31.7,22.2,1.8,190.0,163.0,7.1,0,5,10,1,2026-06-18T14:46:15.094662+05:30
Guntur,Andhra Pradesh,16.3067,80.4365,36.9,43,0.0,999.2,8.75,38.5,110,28.3,20.3,1.6,194.0,161.0,6.4,0,5,10,1,2026-06-18T14:46:15.094669+05:30
Nellore,Andhra Pradesh,14.4426,79.9865,36.6,41,0.0,1001.8,7.25,37.8,83,31.4,21.2,2.6,152.0,148.0,7.8,0,5,7,1,2026-06-18T14:46:15.094677+05:30
Kurnool,Andhra Pradesh,15.8281,78.0373,36.4,38,0.0,974.1,7.3,36.0,68,30.6,19.6,1.1,137.0,134.0,7.7,0,5,10,1,2026-06-18T14:46:15.094686+05:30
Kakinada,Andhra Pradesh,16.9891,82.2475,34.7,53,0.0,1003.1,4.05,32.0,92,43.3,28.9,1.6,242.0,146.0,3.9,0,5,0,1,2026-06-18T14:46:15.094693+05:30
Tirupati,Andhra Pradesh,13.6288,79.4192,37.1,37,0.0,987.4,7.95,29.5,81,27.2,16.3,1.2,139.0,129.0,4.7,0,5,10,1,2026-06-18T14:46:15.094700+05:30
Warangal,Telangana,17.9689,79.5941,36.6,39,0.0,975.4,8.7,29.2,121,46.1,31.9,1.7,176.0,161.0,14.1,0,5,10,1,2026-06-18T14:46:15.094707+05:30
Nizamabad,Telangana,18.6725,78.0941,37.2,32,0.0,962.2,8.95,33.5,79,32.6,15.2,0.9,128.0,103.0,2.3,0,5,10,1,2026-06-18T14:46:15.094714+05:30
Mysore,Karnataka,12.2958,76.6396,23.5,85,0.2,927.8,8.3,27.7,49,21.5,12.3,2.0,153.0,108.0,2.3,6,5,7,1,2026-06-18T14:46:15.094722+05:30
Mangalore,Karnataka,12.9141,74.856,29.9,68,0.0,1006.1,7.9,28.4,65,17.9,9.1,1.4,111.0,61.0,1.7,7,5,4,1,2026-06-18T14:46:15.094729+05:30
Hubli-Dharwad,Karnataka,15.3647,75.124,31.7,46,0.0,940.0,8.8,41.0,49,32.0,15.2,1.2,119.0,92.0,1.2,0,5,7,1,2026-06-18T14:46:15.094737+05:30
Belgaum,Karnataka,15.8497,74.4977,30.5,50,0.0,925.5,8.95,37.1,53,31.3,15.7,1.1,125.0,82.0,1.3,0,5,7,1,2026-06-18T14:46:18.366086+05:30
Coimbatore,Tamil Nadu,11.0168,76.9558,25.5,84,0.2,961.2,8.65,32.0,39,15.5,10.4,2.7,177.0,104.0,2.5,10,5,7,1,2026-06-18T14:46:18.366126+05:30
Madurai,Tamil Nadu,9.9252,78.1198,30.8,62,0.2,991.6,7.7,28.4,74,24.6,13.4,2.7,177.0,116.0,2.3,6,5,7,1,2026-06-18T14:46:18.366139+05:30
Trichy,Tamil Nadu,10.7905,78.7047,32.3,57,0.0,997.7,8.25,45.0,65,26.4,16.0,1.6,170.0,126.0,2.9,0,5,7,1,2026-06-18T14:46:18.366148+05:30
Salem,Tamil Nadu,11.6643,78.146,28.0,78,0.0,976.0,7.75,30.6,66,21.4,13.4,2.8,156.0,135.0,7.5,7,5,7,1,2026-06-18T14:46:18.366157+05:30
Tirunelveli,Tamil Nadu,8.7139,77.7567,32.1,54,0.1,1001.4,8.15,42.5,52,21.7,11.8,1.7,129.0,84.0,1.1,3,5,4,1,2026-06-18T14:46:18.366166+05:30
Vellore,Tamil Nadu,12.9165,79.1325,35.5,43,0.0,981.1,8.35,42.8,72,24.2,14.8,1.9,145.0,124.0,4.6,0,5,10,1,2026-06-18T14:46:18.366174+05:30
Erode,Tamil Nadu,11.341,77.7172,30.4,63,0.0,987.7,8.0,31.3,55,20.2,12.5,2.2,162.0,131.0,2.4,3,5,7,1,2026-06-18T14:46:18.366182+05:30
Kochi,Kerala,9.9312,76.2673,28.5,78,0.0,1008.4,4.6,36.0,76,25.2,14.3,2.8,112.0,76.0,2.7,7,0,0,1,2026-06-18T14:46:18.366191+05:30
Thiruvananthapuram,Kerala,8.5241,76.9366,26.3,86,0.3,1008.2,7.15,41.8,60,24.2,12.2,1.4,107.0,71.0,1.1,10,0,4,1,2026-06-18T14:46:18.366199+05:30
Kozhikode,Kerala,11.2588,75.7804,29.3,73,0.1,1007.1,5.1,34.2,53,21.7,11.1,0.7,120.0,77.0,1.2,10,5,0,1,2026-06-18T14:46:18.366206+05:30
Thrissur,Kerala,10.5276,76.2144,27.1,90,0.1,1006.7,4.7,29.2,86,17.9,10.6,1.9,132.0,75.0,1.5,10,5,0,1,2026-06-18T14:46:18.366214+05:30
Kannur,Kerala,11.8745,75.3704,29.8,70,0.0,1006.4,8.05,34.6,51,21.7,11.6,1.1,109.0,73.0,1.5,7,5,4,1,2026-06-18T14:46:18.366222+05:30
Patna,Bihar,25.5941,85.1376,38.6,38,0.0,993.5,8.6,33.5,163,144.4,57.5,2.0,188.0,162.0,6.9,0,5,10,1,2026-06-18T14:46:18.366229+05:30
Gaya,Bihar,24.7914,85.0002,38.6,36,0.0,987.4,8.65,33.1,160,114.8,48.3,1.4,185.0,153.0,7.4,0,5,10,1,2026-06-18T14:46:18.366237+05:30
Muzaffarpur,Bihar,26.1209,85.3647,36.6,48,0.0,993.5,8.85,24.8,163,137.8,58.3,2.3,233.0,174.0,8.3,0,5,10,1,2026-06-18T14:46:18.366244+05:30
Bhagalpur,Bihar,25.2425,87.0117,38.1,40,0.0,994.1,8.45,32.0,156,106.4,58.8,3.4,273.0,202.0,16.8,0,5,10,1,2026-06-18T14:46:18.366251+05:30
Ranchi,Jharkhand,23.3441,85.3096,27.1,83,0.1,934.2,7.6,32.4,144,85.2,44.1,1.4,190.0,155.0,7.7,10,5,7,1,2026-06-18T14:46:18.366259+05:30
Jamshedpur,Jharkhand,22.8046,86.2029,35.1,48,0.0,986.0,8.9,31.7,165,125.7,70.3,3.6,230.0,233.0,29.1,0,5,10,1,2026-06-18T14:46:18.366267+05:30
Dhanbad,Jharkhand,23.7957,86.4304,36.3,41,0.1,974.7,8.85,50.4,169,129.0,60.1,6.8,176.0,167.0,34.2,3,5,10,1,2026-06-18T14:46:18.366274+05:30
Bokaro,Jharkhand,23.6693,86.1511,36.9,40,0.0,978.4,8.85,28.8,167,132.7,66.8,7.7,193.0,193.0,44.9,0,5,10,1,2026-06-18T14:46:18.366282+05:30
Bhubaneswar,Odisha,20.2961,85.8245,35.2,55,0.0,997.6,9.05,31.3,129,50.5,39.6,3.5,251.0,152.0,8.7,0,5,10,1,2026-06-18T14:46:18.366289+05:30
Cuttack,Odisha,20.4625,85.8828,33.6,66,0.0,999.5,9.15,32.8,129,50.5,39.6,3.5,283.0,152.0,8.7,3,5,7,1,2026-06-18T14:46:18.366299+05:30
Rourkela,Odisha,22.2604,84.8536,35.1,47,0.1,980.4,9.0,34.9,150,84.8,57.2,1.7,240.0,183.0,14.2,3,5,10,1,2026-06-18T14:46:18.366306+05:30
Raipur,Chhattisgarh,21.2514,81.6296,38.3,33,0.0,969.8,8.95,32.0,133,67.5,43.4,5.5,151.0,146.0,27.3,0,5,10,1,2026-06-18T14:46:18.366314+05:30
Bhilai,Chhattisgarh,21.1938,81.3509,38.3,32,0.0,970.2,8.0,40.0,124,61.2,37.5,6.0,256.0,124.0,23.3,0,5,10,1,2026-06-18T14:46:18.366342+05:30
Guwahati,Assam,26.1158,91.7086,28.5,90,0.1,995.5,8.8,34.6,94,28.6,22.2,1.7,296.0,119.0,2.9,10,5,7,1,2026-06-18T14:46:18.366349+05:30
Agartala,Tripura,23.8315,91.2868,30.0,76,0.0,1001.1,8.55,35.3,80,33.1,25.0,3.7,228.0,142.0,3.1,7,5,4,1,2026-06-18T14:46:18.366356+05:30
Shillong,Meghalaya,25.5788,91.8933,23.8,73,0.1,854.8,7.8,24.1,72,23.9,18.5,1.5,270.0,122.0,2.3,6,5,7,1,2026-06-18T14:46:18.366363+05:30
Imphal,Manipur,24.817,93.9368,28.9,63,0.0,918.9,9.15,33.8,85,21.7,17.1,1.6,207.0,100.0,1.7,7,5,7,1,2026-06-18T14:46:18.366370+05:30
Aizawl,Mizoram,23.7271,92.7176,25.5,70,0.1,889.7,8.9,28.4,52,16.3,10.9,0.8,179.0,95.0,1.3,10,5,7,1,2026-06-18T14:46:18.366378+05:30
Kohima,Nagaland,25.6701,94.1077,25.4,67,0.1,853.3,7.65,25.6,59,29.6,21.8,0.9,200.0,107.0,1.9,10,5,7,1,2026-06-18T14:46:18.366385+05:30
Gangtok,Sikkim,27.3314,88.6138,21.5,82,0.1,834.9,8.15,33.1,105,8.7,7.5,2.2,317.0,136.0,2.9,6,5,7,1,2026-06-18T14:46:18.366391+05:30
Siliguri,West Bengal,26.7271,88.3953,28.7,85,0.1,987.5,8.8,22.7,129,32.1,23.9,2.5,489.0,156.0,7.5,10,5,7,1,2026-06-18T14:46:21.639510+05:30
Durgapur,West Bengal,23.5204,87.3119,33.2,65,0.0,989.4,8.85,41.4,172,150.4,91.3,8.4,383.0,247.0,48.1,3,5,7,1,2026-06-18T14:46:21.639549+05:30
Asansol,West Bengal,23.6739,86.9524,34.8,54,0.0,987.9,8.85,41.8,167,133.6,67.5,6.7,274.0,183.0,30.9,0,5,7,1,2026-06-18T14:46:21.639560+05:30
Pondicherry,Puducherry,11.9139,79.8145,33.5,57,0.0,1005.1,4.7,34.6,78,38.2,28.3,3.3,173.0,185.0,8.2,0,5,0,1,2026-06-18T14:46:21.639569+05:30
Port Blair,Andaman and Nicobar Islands,11.6234,92.7265,29.2,74,0.0,1006.4,8.7,34.2,23,10.7,5.1,0.3,92.0,43.0,0.3,7,5,4,1,2026-06-18T14:46:21.639578+05:30
Haridwar,Uttarakhand,29.9457,78.1642,35.9,39,0.0,969.1,7.5,41.4,153,161.1,56.2,1.4,270.0,181.0,13.3,0,5,10,1,2026-06-18T14:46:21.639586+05:30
Rishikesh,Uttarakhand,30.0869,78.2676,33.9,45,0.0,962.2,7.7,26.6,120,150.9,51.1,0.8,252.0,169.0,9.0,0,5,7,1,2026-06-18T14:46:21.639594+05:30
Nainital,Uttarakhand,29.3919,79.4542,22.0,66,0.1,806.1,6.9,28.1,138,126.7,46.7,1.4,231.0,172.0,9.4,6,5,7,0,2026-06-18T14:46:21.639602+05:30
Mussoorie,Uttarakhand,30.4599,78.0664,19.7,79,0.0,802.7,7.55,29.5,119,118.0,45.8,1.3,236.0,176.0,11.4,3,5,7,0,2026-06-18T14:46:21.639610+05:30
Dharamshala,Himachal Pradesh,32.219,76.3234,25.9,58,0.0,868.2,8.55,43.9,87,34.5,15.7,0.7,209.0,143.0,1.2,4,5,7,1,2026-06-18T14:46:21.639618+05:30
Dalhousie,Himachal Pradesh,32.5387,75.971,22.1,61,0.0,805.2,8.15,34.2,104,46.4,21.4,1.4,195.0,163.0,2.6,3,5,7,0,2026-06-18T14:46:21.639625+05:30
Patiala,Punjab,30.3398,76.3869,37.5,32,0.0,973.3,7.7,29.9,162,286.8,64.0,1.5,250.0,169.0,6.3,0,5,10,1,2026-06-18T14:46:21.639633+05:30
Bhatinda,Punjab,30.211,74.9455,38.7,30,0.0,978.6,8.3,31.0,145,68.2,45.6,2.6,206.0,201.0,16.4,0,5,10,1,2026-06-18T14:46:21.639640+05:30
Rohtak,Haryana,28.8955,76.6066,37.4,35,0.0,976.8,7.8,27.7,184,244.9,55.1,1.9,205.0,145.0,5.2,0,5,10,1,2026-06-18T14:46:21.639647+05:30
Panipat,Haryana,29.3909,76.9635,37.3,36,0.0,975.3,7.6,28.1,367,296.2,65.2,2.6,218.0,164.0,13.8,0,5,10,1,2026-06-18T14:46:21.639654+05:30
Mathura,Uttar Pradesh,27.4924,77.6737,38.1,33,0.0,981.6,8.1,26.6,189,269.2,55.9,1.5,148.0,112.0,3.7,0,5,10,1,2026-06-18T14:46:21.639661+05:30
Vrindavan,Uttar Pradesh,27.5823,77.7027,38.1,32,0.0,982.1,8.05,27.0,189,269.2,55.9,1.5,147.0,112.0,3.7,0,5,10,1,2026-06-18T14:46:21.639668+05:30
Ayodhya,Uttar Pradesh,26.7922,82.1998,38.2,37,0.0,988.7,8.45,30.2,154,173.7,49.4,1.3,212.0,153.0,6.8,0,5,10,1,2026-06-18T14:46:21.639675+05:30
Ratlam,Madhya Pradesh,23.3315,75.0367,32.2,50,0.1,952.4,8.45,42.8,69,74.3,38.4,0.9,113.0,94.0,2.8,3,5,7,1,2026-06-18T14:46:21.639683+05:30
Sagar,Madhya Pradesh,23.8388,78.7378,27.3,78,0.4,947.3,8.05,51.5,80,48.0,22.3,0.7,137.0,108.0,2.9,10,5,7,1,2026-06-18T14:46:21.639690+05:30
Satna,Madhya Pradesh,24.6005,80.8322,37.5,34,0.0,966.8,8.8,32.0,96,59.3,25.6,0.7,136.0,111.0,3.1,0,5,10,1,2026-06-18T14:46:21.639698+05:30
Akola,Maharashtra,20.7002,77.0082,38.7,25,0.0,971.9,8.8,45.7,64,50.1,20.7,1.2,116.0,105.0,5.1,0,5,10,0,2026-06-18T14:46:21.639707+05:30
Amravati,Maharashtra,20.9374,77.7796,37.4,30,0.0,964.4,8.85,42.1,69,52.5,22.0,1.4,123.0,111.0,6.2,0,5,10,1,2026-06-18T14:46:21.639715+05:30
Latur,Maharashtra,18.4088,76.5604,35.4,32,0.0,938.3,8.5,42.8,59,34.5,16.5,0.9,131.0,112.0,3.3,0,5,10,1,2026-06-18T14:46:21.639722+05:30
Nanded,Maharashtra,19.1383,77.3091,38.0,30,0.0,965.9,8.8,38.9,61,38.3,16.2,0.9,129.0,103.0,1.9,0,5,10,1,2026-06-18T14:46:21.639729+05:30
Gulbarga,Karnataka,17.3297,76.8343,36.6,31,0.0,956.7,8.9,42.1,61,32.8,17.6,1.5,131.0,128.0,4.7,0,5,10,1,2026-06-18T14:46:21.639736+05:30
Bidar,Karnataka,17.9104,77.5199,34.6,38,0.0,934.1,8.95,35.3,63,30.7,16.3,1.3,133.0,114.0,3.8,0,5,7,1,2026-06-18T14:46:21.639743+05:30
Hospet,Karnataka,15.2689,76.3909,33.5,40,0.0,954.3,8.3,49.3,53,29.2,15.3,1.4,137.0,115.0,3.0,0,5,7,1,2026-06-18T14:46:21.639749+05:30
Tirupur,Tamil Nadu,11.1085,77.3411,31.0,55,0.0,974.1,8.35,33.5,55,20.3,12.8,2.1,188.0,128.0,3.1,0,5,7,1,2026-06-18T14:46:21.639755+05:30
Alappuzha,Kerala,9.4981,76.3388,27.6,85,0.1,1008.7,7.4,30.2,68,28.2,15.6,2.7,97.0,82.0,2.4,10,0,4,1,2026-06-18T14:46:21.639762+05:30
Munnar,Kerala,10.0889,77.0595,18.6,94,0.1,856.4,2.35,28.8,34,13.7,7.7,2.1,135.0,72.0,1.0,6,10,3,1,2026-06-18T14:46:21.639770+05:30
Silchar,Assam,24.8333,92.7789,31.6,69,0.0,999.2,8.65,28.8,127,26.4,19.8,1.3,235.0,120.0,2.9,3,5,7,1,2026-06-18T14:46:21.639776+05:30
Dibrugarh,Assam,27.4728,94.912,31.9,68,0.0,988.4,8.45,27.4,83,19.6,17.1,1.4,272.0,134.0,2.5,3,5,7,1,2026-06-18T14:46:21.639783+05:30
