city,state,latitude,longitude,temp,humidity,rain,pressure,uv_index,wind_gusts,aqi,pm10,pm2_5,no2,co,o3,so2,mosquito_risk,arthritis_risk,migraine_risk,frizz_risk,updated_at
Delhi,Delhi,28.6139,77.209,28.9,81,0.0,975.8,7.65,19.1,113,66.1,58.3,42.4,701.0,41.0,26.0,7,5,7,1,2026-07-04T03:36:34.887953+05:30
Mumbai,Maharashtra,19.076,72.8777,26.1,94,0.9,1002.7,0.35,55.4,41,19.8,9.2,2.7,106.0,57.0,2.4,10,5,0,1,2026-07-04T03:36:34.887995+05:30
Bangalore,Karnataka,12.9716,77.5946,21.1,93,0.0,909.2,5.0,69.8,18,1.5,1.3,3.9,114.0,44.0,2.2,3,5,3,1,2026-07-04T03:36:34.888009+05:30
Hyderabad,Telangana,17.385,78.4867,23.6,90,0.1,947.1,1.0,58.0,20,2.5,2.3,5.6,122.0,38.0,3.1,6,5,3,1,2026-07-04T03:36:34.888019+05:30
Chennai,Tamil Nadu,13.0827,80.2707,28.5,67,0.0,1003.6,5.0,47.9,51,5.7,4.9,13.2,182.0,33.0,7.7,7,5,0,1,2026-07-04T03:36:34.888027+05:30
Kolkata,West Bengal,22.5726,88.3639,27.6,88,0.0,995.8,7.5,48.2,56,14.8,14.0,12.0,197.0,39.0,8.9,7,5,7,1,2026-07-04T03:36:34.888034+05:30
Pune,Maharashtra,18.5204,73.8567,23.0,94,0.1,942.2,0.6,49.7,21,1.7,1.3,3.3,100.0,48.0,2.5,6,5,3,1,2026-07-04T03:36:34.888041+05:30
Ahmedabad,Gujarat,23.0225,72.5714,27.6,87,0.1,994.6,2.25,32.0,66,20.3,11.2,7.8,148.0,38.0,4.3,10,5,3,1,2026-07-04T03:36:34.888052+05:30
Jaipur,Rajasthan,26.9124,75.7873,26.2,98,0.0,952.2,7.95,19.4,102,85.0,36.9,17.6,208.0,44.0,6.0,7,5,7,1,2026-07-04T03:36:34.888058+05:30
Lucknow,Uttar Pradesh,26.8467,80.9462,28.5,88,0.1,985.7,8.2,22.7,74,24.0,23.9,11.5,429.0,84.0,5.8,10,5,7,1,2026-07-04T03:36:34.888067+05:30
Kanpur,Uttar Pradesh,26.4499,80.3319,28.2,89,0.0,983.9,8.2,25.2,71,21.5,21.2,8.1,412.0,93.0,3.4,7,5,7,1,2026-07-04T03:36:34.888073+05:30
Chandigarh,Chandigarh,30.7333,76.7794,28.0,84,0.0,962.6,7.75,25.2,104,68.2,67.8,43.8,555.0,20.0,5.8,7,5,7,1,2026-07-04T03:36:34.888080+05:30
Srinagar,Jammu and Kashmir,34.0837,74.7973,17.9,99,0.0,837.4,9.05,20.5,62,29.3,27.2,25.2,612.0,12.0,1.4,3,10,7,1,2026-07-04T03:36:34.888086+05:30
Jammu,Jammu and Kashmir,32.7266,74.857,28.7,76,0.0,966.8,8.6,25.2,96,64.0,61.7,67.7,462.0,0.0,6.3,7,5,7,1,2026-07-04T03:36:34.888093+05:30
Amritsar,Punjab,31.634,74.8723,29.1,75,0.0,974.3,8.4,42.1,100,48.0,45.9,31.9,602.0,39.0,4.2,7,5,7,1,2026-07-04T03:36:34.888099+05:30
Ludhiana,Punjab,30.901,75.8573,28.8,89,0.0,972.1,7.95,21.6,113,98.7,96.6,58.4,894.0,18.0,13.6,7,5,7,1,2026-07-04T03:36:34.888105+05:30
Jalandhar,Punjab,31.326,75.5762,28.5,84,0.0,973.1,8.2,20.5,106,105.0,103.1,78.7,860.0,0.0,9.5,7,5,7,1,2026-07-04T03:36:34.888111+05:30
Dehradun,Uttarakhand,30.6284,78.0322,17.9,98,0.0,826.5,6.65,25.6,47,13.4,13.3,13.1,274.0,35.0,0.0,3,10,7,1,2026-07-04T03:36:34.888117+05:30
Shimla,Himachal Pradesh,31.1048,77.1734,14.5,99,0.0,780.3,6.85,29.5,47,20.1,19.7,15.6,340.0,54.0,0.0,3,10,7,0,2026-07-04T03:36:34.888123+05:30
Manali,Himachal Pradesh,32.2396,77.1887,18.9,78,0.3,816.5,9.4,33.5,46,3.9,3.8,17.7,175.0,105.0,0.0,6,5,7,0,2026-07-04T03:36:34.888135+05:30
Gurgaon,Haryana,28.4595,77.0266,28.9,82,0.0,974.1,6.6,22.3,124,67.5,58.6,43.0,643.0,42.0,21.4,7,5,7,1,2026-07-04T03:36:34.888141+05:30
Noida,Uttar Pradesh,28.5355,77.391,27.6,94,0.1,977.1,7.7,19.8,124,67.5,58.6,43.0,638.0,42.0,21.4,10,5,7,1,2026-07-04T03:36:34.888148+05:30
Ghaziabad,Uttar Pradesh,28.6692,77.4538,27.4,93,0.1,975.6,7.7,20.9,102,70.3,69.4,35.5,562.0,43.0,10.9,10,5,7,1,2026-07-04T03:36:34.888154+05:30
Faridabad,Haryana,28.4089,77.3178,28.2,85,0.0,976.4,7.15,22.7,124,67.5,58.6,43.0,538.0,42.0,21.4,7,5,7,1,2026-07-04T03:36:34.888162+05:30
Meerut,Uttar Pradesh,28.9845,77.7064,27.6,89,0.0,974.7,7.65,33.1,102,70.3,69.4,35.5,739.0,43.0,10.9,7,5,7,1,2026-07-04T03:36:34.888168+05:30
Agra,Uttar Pradesh,27.1767,78.0081,29.1,84,0.0,980.4,6.85,33.8,99,51.8,40.5,37.5,472.0,31.0,10.8,7,5,7,1,2026-07-04T03:36:34.888174+05:30
Varanasi,Uttar Pradesh,25.3176,82.9739,29.4,78,0.0,988.8,8.65,33.5,97,43.7,43.4,24.0,786.0,43.0,10.9,7,5,7,1,2026-07-04T03:36:34.888181+05:30
Prayagraj,Uttar Pradesh,25.4358,81.8463,28.8,86,0.0,987.5,8.55,32.4,86,33.2,32.9,19.6,342.0,59.0,7.4,7,5,7,1,2026-07-04T03:36:34.888187+05:30
Gorakhpur,Uttar Pradesh,26.7606,83.3732,29.5,80,0.0,989.3,7.7,31.3,83,37.3,37.0,17.8,405.0,63.0,6.7,7,5,7,1,2026-07-04T03:36:34.888194+05:30
Bareilly,Uttar Pradesh,28.367,79.4304,27.9,95,0.1,979.6,8.0,23.4,97,40.9,40.9,25.9,496.0,45.0,5.4,10,5,7,1,2026-07-04T03:36:34.888202+05:30
Aligarh,Uttar Pradesh,27.8974,78.088,29.1,84,0.0,978.4,7.8,23.4,101,64.5,64.0,39.4,607.0,29.0,11.0,7,5,7,1,2026-07-04T03:36:34.888208+05:30
Moradabad,Uttar Pradesh,28.8386,78.7733,28.9,88,0.0,976.5,7.35,22.0,116,81.5,81.0,48.7,917.0,28.0,16.1,7,5,7,1,2026-07-04T03:36:34.888214+05:30
Saharanpur,Uttar Pradesh,29.9637,77.546,27.1,89,0.0,969.2,7.0,29.9,129,112.0,111.3,60.7,575.0,0.0,10.4,7,5,7,1,2026-07-04T03:36:34.888220+05:30
Jhansi,Uttar Pradesh,25.4484,78.5685,27.2,96,0.1,970.2,8.4,32.8,63,17.1,15.5,9.9,245.0,74.0,3.3,10,5,7,1,2026-07-04T03:36:38.424435+05:30
Surat,Gujarat,21.1702,72.8311,27.2,89,0.0,999.8,0.7,28.4,66,16.0,12.4,20.0,337.0,29.0,31.3,7,5,3,1,2026-07-04T03:36:38.424466+05:30
Vadodara,Gujarat,22.3072,73.1812,27.3,89,0.1,997.0,1.15,31.3,61,13.9,9.7,10.6,145.0,38.0,3.6,10,5,3,1,2026-07-04T03:36:38.424480+05:30
Rajkot,Gujarat,22.3039,70.8022,27.1,87,0.0,987.2,5.1,43.2,54,20.1,9.9,6.1,99.0,41.0,6.0,7,5,3,1,2026-07-04T03:36:38.424489+05:30
Thane,Maharashtra,19.2183,72.9781,25.6,97,0.7,1001.9,0.3,38.9,41,19.8,9.2,2.7,114.0,57.0,2.4,10,5,0,1,2026-07-04T03:36:38.424497+05:30
Nagpur,Maharashtra,21.1458,79.0882,24.9,93,0.0,964.3,7.85,33.8,33,4.6,4.3,8.3,214.0,72.0,6.0,3,5,7,1,2026-07-04T03:36:38.424504+05:30
Nashik,Maharashtra,19.9975,73.7898,22.3,97,0.2,939.0,0.35,37.8,21,1.5,1.2,3.1,107.0,52.0,1.2,6,5,3,1,2026-07-04T03:36:38.424512+05:30
Aurangabad,Maharashtra,19.8762,75.3433,22.4,96,0.2,937.7,0.45,41.4,22,1.9,1.6,4.9,113.0,52.0,3.4,6,5,3,1,2026-07-04T03:36:38.424519+05:30
Solapur,Maharashtra,17.6599,75.9064,23.2,94,0.2,952.3,2.8,52.6,19,1.8,1.7,4.0,114.0,41.0,1.5,6,5,3,1,2026-07-04T03:36:38.424526+05:30
Kolhapur,Maharashtra,16.705,74.2433,21.9,96,0.1,943.6,1.35,55.8,21,1.8,1.4,2.3,96.0,48.0,1.1,6,5,3,1,2026-07-04T03:36:38.424533+05:30
Goa,Goa,15.2993,74.124,23.3,99,0.1,996.6,5.45,34.6,52,25.6,13.2,2.5,268.0,48.0,0.9,6,5,3,1,2026-07-04T03:36:38.424540+05:30
Jodhpur,Rajasthan,26.2389,73.0243,27.5,81,0.0,974.9,7.25,32.0,136,140.2,51.2,8.4,136.0,48.0,2.6,7,5,7,1,2026-07-04T03:36:38.424547+05:30
Udaipur,Rajasthan,24.5854,73.7125,24.5,96,0.3,939.5,3.7,33.5,73,29.8,15.7,6.5,115.0,54.0,3.4,6,5,3,1,2026-07-04T03:36:38.424555+05:30
Kota,Rajasthan,25.2138,75.8648,26.1,87,0.0,971.2,7.45,27.4,86,46.6,22.5,8.1,186.0,64.0,2.0,7,5,7,1,2026-07-04T03:36:38.424562+05:30
Bikaner,Rajasthan,28.0229,73.3119,33.2,53,0.0,973.3,8.45,29.9,114,66.1,39.1,6.5,144.0,74.0,6.4,0,5,7,1,2026-07-04T03:36:38.424570+05:30
Ajmer,Rajasthan,26.4499,74.6399,24.3,96,0.1,948.0,8.2,32.8,105,156.5,55.9,7.5,141.0,59.0,4.3,6,5,7,1,2026-07-04T03:36:38.424577+05:30
Gwalior,Madhya Pradesh,26.2183,78.1828,28.1,89,0.0,975.3,7.5,37.1,74,17.8,15.3,10.1,250.0,68.0,3.3,7,5,7,1,2026-07-04T03:36:38.424584+05:30
Indore,Madhya Pradesh,22.7196,75.8577,24.1,95,0.1,940.6,6.55,35.3,53,16.6,12.3,7.7,213.0,54.0,5.5,6,5,7,1,2026-07-04T03:36:38.424592+05:30
Bhopal,Madhya Pradesh,23.2599,77.4126,24.1,97,0.1,945.6,8.6,34.9,62,23.1,17.8,7.9,224.0,67.0,3.3,6,5,7,1,2026-07-04T03:36:38.424599+05:30
Jabalpur,Madhya Pradesh,23.1815,79.9864,24.8,99,0.0,952.8,8.25,27.4,46,8.9,8.8,6.6,254.0,79.0,2.8,3,5,7,1,2026-07-04T03:36:38.424605+05:30
Ujjain,Madhya Pradesh,23.1765,75.7885,24.2,95,0.1,946.2,7.85,31.0,56,10.0,7.9,7.4,221.0,55.0,7.3,6,5,7,1,2026-07-04T03:36:38.424613+05:30
Visakhapatnam,Andhra Pradesh,17.6868,83.2185,25.1,95,0.2,994.1,6.35,56.9,47,11.2,9.6,15.2,235.0,38.0,21.6,10,5,7,1,2026-07-04T03:36:38.424621+05:30
Vijayawada,Andhra Pradesh,16.5062,80.648,26.0,92,0.2,996.0,1.45,51.5,37,7.1,5.6,8.2,137.0,40.0,5.5,10,5,3,1,2026-07-04T03:36:38.424628+05:30
Guntur,Andhra Pradesh,16.3067,80.4365,25.8,91,0.1,997.5,2.05,49.0,33,6.2,4.7,7.6,131.0,39.0,5.5,10,5,3,1,2026-07-04T03:36:38.424636+05:30
Nellore,Andhra Pradesh,14.4426,79.9865,29.6,61,0.0,1001.0,1.35,49.3,37,4.1,2.7,5.1,104.0,42.0,3.3,7,5,0,1,2026-07-04T03:36:38.424643+05:30
Kurnool,Andhra Pradesh,15.8281,78.0373,26.2,74,0.0,972.7,1.2,71.6,21,4.9,3.5,5.7,110.0,37.0,1.7,7,5,3,1,2026-07-04T03:36:38.424652+05:30
Kakinada,Andhra Pradesh,16.9891,82.2475,26.2,85,0.1,999.6,1.6,65.2,42,13.8,9.7,7.0,169.0,57.0,5.6,10,5,3,1,2026-07-04T03:36:38.424659+05:30
Tirupati,Andhra Pradesh,13.6288,79.4192,28.2,64,0.0,987.3,3.25,52.6,35,2.7,2.2,4.9,106.0,40.0,1.6,7,5,3,1,2026-07-04T03:36:38.424666+05:30
Warangal,Telangana,17.9689,79.5941,24.6,91,0.4,971.6,3.6,58.0,22,3.7,3.4,6.2,134.0,37.0,2.2,6,5,3,1,2026-07-04T03:36:38.424673+05:30
Nizamabad,Telangana,18.6725,78.0941,23.7,94,0.3,958.1,0.95,49.7,20,3.1,2.7,7.2,129.0,39.0,4.7,6,5,3,1,2026-07-04T03:36:38.424680+05:30
Mysore,Karnataka,12.2958,76.6396,21.5,95,0.1,926.8,6.1,68.8,20,1.1,1.0,2.7,99.0,45.0,1.1,6,5,7,1,2026-07-04T03:36:38.424687+05:30
Mangalore,Karnataka,12.9141,74.856,25.3,94,0.1,1007.0,7.9,59.0,37,14.7,7.6,1.2,85.0,49.0,0.7,10,5,4,1,2026-07-04T03:36:38.424694+05:30
Hubli-Dharwad,Karnataka,15.3647,75.124,21.6,95,0.0,937.9,1.65,58.7,20,1.5,1.0,1.9,95.0,46.0,0.9,3,5,3,1,2026-07-04T03:36:38.424701+05:30
Belgaum,Karnataka,15.8497,74.4977,20.3,98,0.0,922.3,1.35,55.8,21,2.0,1.5,2.3,89.0,46.0,1.1,3,5,3,1,2026-07-04T03:36:41.830140+05:30
Coimbatore,Tamil Nadu,11.0168,76.9558,22.5,98,0.0,960.4,7.4,53.6,19,1.8,1.5,3.4,111.0,42.0,1.7,3,5,7,1,2026-07-04T03:36:41.830175+05:30
Madurai,Tamil Nadu,9.9252,78.1198,27.2,67,0.0,992.2,7.75,58.7,26,6.9,6.0,10.1,126.0,30.0,4.0,7,5,7,1,2026-07-04T03:36:41.830189+05:30
Trichy,Tamil Nadu,10.7905,78.7047,27.2,70,0.0,998.5,8.5,73.1,20,4.3,3.0,5.8,99.0,39.0,2.5,7,5,7,1,2026-07-04T03:36:41.830199+05:30
Salem,Tamil Nadu,11.6643,78.146,24.0,96,0.1,976.2,8.55,36.0,39,12.1,10.8,18.2,229.0,22.0,6.2,6,5,7,1,2026-07-04T03:36:41.830209+05:30
Tirunelveli,Tamil Nadu,8.7139,77.7567,27.8,69,0.0,1003.3,6.5,52.9,22,3.5,2.6,4.6,123.0,35.0,1.6,7,5,4,1,2026-07-04T03:36:41.830218+05:30
Vellore,Tamil Nadu,12.9165,79.1325,26.5,72,0.0,981.5,2.2,52.6,27,3.2,2.6,5.8,121.0,40.0,2.5,7,5,3,1,2026-07-04T03:36:41.830228+05:30
Erode,Tamil Nadu,11.341,77.7172,24.5,86,0.0,988.0,8.65,51.8,27,6.8,5.7,10.0,125.0,35.0,2.9,3,5,7,1,2026-07-04T03:36:41.830237+05:30
Kochi,Kerala,9.9312,76.2673,24.9,94,0.1,1010.2,5.9,43.2,38,12.6,7.5,6.8,87.0,32.0,2.3,6,0,0,1,2026-07-04T03:36:41.830246+05:30
Thiruvananthapuram,Kerala,8.5241,76.9366,24.1,96,0.2,1009.6,3.95,47.9,32,13.8,6.6,1.7,85.0,49.0,0.6,6,0,0,1,2026-07-04T03:36:41.830254+05:30
Kozhikode,Kerala,11.2588,75.7804,24.8,96,0.2,1008.9,7.5,36.7,33,20.1,9.0,0.7,86.0,55.0,0.4,6,0,4,1,2026-07-04T03:36:41.830263+05:30
Thrissur,Kerala,10.5276,76.2144,24.4,98,0.1,1008.4,8.3,38.5,34,12.1,7.7,4.7,94.0,38.0,1.6,6,0,4,1,2026-07-04T03:36:41.830273+05:30
Kannur,Kerala,11.8745,75.3704,25.1,95,0.0,1008.0,6.55,41.0,33,17.3,9.1,2.0,92.0,46.0,0.7,7,0,4,1,2026-07-04T03:36:41.830282+05:30
Patna,Bihar,25.5941,85.1376,29.3,81,0.0,992.1,8.5,34.2,78,20.2,19.8,15.7,295.0,62.0,12.4,7,5,7,1,2026-07-04T03:36:41.830290+05:30
Gaya,Bihar,24.7914,85.0002,28.5,80,0.0,985.3,8.55,36.0,69,21.0,20.9,16.0,297.0,53.0,17.2,7,5,7,1,2026-07-04T03:36:41.830300+05:30
Muzaffarpur,Bihar,26.1209,85.3647,29.2,81,0.0,992.4,7.5,32.8,79,24.9,24.6,16.6,358.0,58.0,12.4,7,5,7,1,2026-07-04T03:36:41.830309+05:30
Bhagalpur,Bihar,25.2425,87.0117,27.5,92,0.0,993.5,8.5,37.4,67,18.7,18.3,15.4,277.0,57.0,9.5,7,5,7,1,2026-07-04T03:36:41.830318+05:30
Ranchi,Jharkhand,23.3441,85.3096,23.1,98,0.0,929.0,6.75,48.2,64,16.0,15.8,14.8,317.0,50.0,18.6,3,5,7,1,2026-07-04T03:36:41.830327+05:30
Jamshedpur,Jharkhand,22.8046,86.2029,25.2,98,0.0,981.4,6.05,46.8,58,18.3,17.3,19.2,365.0,32.0,19.4,7,5,7,1,2026-07-04T03:36:41.830336+05:30
Dhanbad,Jharkhand,23.7957,86.4304,25.6,96,0.0,971.2,7.45,52.9,99,38.9,37.5,40.4,269.0,23.0,98.9,7,5,7,1,2026-07-04T03:36:41.830368+05:30
Bokaro,Jharkhand,23.6693,86.1511,25.5,98,0.0,975.1,7.55,48.6,113,44.4,43.5,46.7,436.0,19.0,113.6,7,5,7,1,2026-07-04T03:36:41.830379+05:30
Bhubaneswar,Odisha,20.2961,85.8245,25.7,96,0.3,990.5,5.45,33.1,66,19.2,19.2,13.6,259.0,67.0,12.7,10,5,3,1,2026-07-04T03:36:41.830389+05:30
Cuttack,Odisha,20.4625,85.8828,26.1,96,0.1,992.4,3.35,29.2,66,19.2,19.2,13.6,219.0,67.0,12.7,10,5,3,1,2026-07-04T03:36:41.830398+05:30
Rourkela,Odisha,22.2604,84.8536,25.0,97,0.0,975.0,7.35,50.4,73,26.7,26.5,19.4,267.0,47.0,26.6,7,5,7,1,2026-07-04T03:36:41.830407+05:30
Raipur,Chhattisgarh,21.2514,81.6296,25.0,94,0.0,965.4,7.25,31.7,69,19.5,19.2,35.2,410.0,39.0,56.2,7,5,7,1,2026-07-04T03:36:41.830414+05:30
Bhilai,Chhattisgarh,21.1938,81.3509,24.8,96,0.0,965.8,8.25,37.8,60,14.5,14.1,27.6,736.0,50.0,44.7,3,5,7,1,2026-07-04T03:36:41.830421+05:30
Guwahati,Assam,26.1158,91.7086,27.6,96,0.0,994.4,8.7,29.9,38,4.0,3.9,5.1,235.0,53.0,0.8,7,5,7,1,2026-07-04T03:36:41.830428+05:30
Agartala,Tripura,23.8315,91.2868,25.9,99,0.2,999.7,8.25,38.5,49,16.3,16.0,14.2,184.0,21.0,2.3,10,5,7,1,2026-07-04T03:36:41.830435+05:30
Shillong,Meghalaya,25.5788,91.8933,19.3,95,0.0,852.4,8.6,31.3,31,1.2,1.2,3.7,226.0,58.0,0.8,3,10,7,1,2026-07-04T03:36:41.830442+05:30
Imphal,Manipur,24.817,93.9368,22.1,98,0.3,918.7,7.55,29.5,37,8.0,7.9,8.0,237.0,29.0,1.6,6,5,7,1,2026-07-04T03:36:41.830449+05:30
Aizawl,Mizoram,23.7271,92.7176,20.8,99,0.0,886.4,8.1,23.8,20,2.1,2.1,6.0,153.0,15.0,0.4,3,5,7,1,2026-07-04T03:36:41.830456+05:30
Kohima,Nagaland,25.6701,94.1077,19.2,89,0.0,850.6,9.0,29.5,24,5.5,5.5,9.2,173.0,20.0,0.7,3,10,7,1,2026-07-04T03:36:41.830464+05:30
Gangtok,Sikkim,27.3314,88.6138,19.1,92,0.0,833.8,9.15,31.7,40,9.6,9.4,7.0,320.0,84.0,1.6,3,10,7,1,2026-07-04T03:36:41.830471+05:30
Siliguri,West Bengal,26.7271,88.3953,26.9,96,0.0,986.4,8.7,29.9,79,33.1,32.4,15.6,263.0,70.0,5.5,7,5,7,1,2026-07-04T03:36:45.353524+05:30
Durgapur,West Bengal,23.5204,87.3119,27.2,91,0.0,985.9,5.25,51.1,85,34.0,32.9,31.2,419.0,22.0,29.8,7,5,3,1,2026-07-04T03:36:45.353556+05:30
Asansol,West Bengal,23.6739,86.9524,26.8,95,0.0,984.7,6.8,48.2,83,29.1,27.8,34.2,401.0,24.0,38.2,7,5,7,1,2026-07-04T03:36:45.353567+05:30
Pondicherry,Puducherry,11.9139,79.8145,27.3,77,0.0,1005.9,7.1,41.4,51,10.1,8.5,12.1,234.0,41.0,7.8,7,5,4,1,2026-07-04T03:36:45.353576+05:30
Port Blair,Andaman and Nicobar Islands,11.6234,92.7265,25.1,97,0.4,1005.7,6.8,53.6,41,16.0,8.5,0.2,95.0,59.0,0.5,10,5,4,1,2026-07-04T03:36:45.353584+05:30
Haridwar,Uttarakhand,29.9457,78.1642,26.8,96,0.0,967.6,7.5,20.2,96,60.3,60.1,41.4,402.0,8.0,6.1,7,5,7,1,2026-07-04T03:36:45.353592+05:30
Rishikesh,Uttarakhand,30.0869,78.2676,26.1,95,0.0,960.5,6.85,20.9,70,27.1,26.7,21.9,389.0,47.0,4.3,7,5,7,1,2026-07-04T03:36:45.353601+05:30
Nainital,Uttarakhand,29.3919,79.4542,15.9,100,0.0,801.9,6.95,26.6,70,20.3,20.2,19.6,313.0,35.0,1.8,3,10,7,0,2026-07-04T03:36:45.353608+05:30
Mussoorie,Uttarakhand,30.4599,78.0664,16.7,99,0.0,799.5,6.1,32.0,68,29.5,29.4,27.4,299.0,17.0,2.8,3,10,7,1,2026-07-04T03:36:45.353616+05:30
Dharamshala,Himachal Pradesh,32.219,76.3234,22.1,89,0.0,865.4,8.45,31.7,29,8.8,8.6,17.0,329.0,40.0,0.1,3,5,7,1,2026-07-04T03:36:45.353623+05:30
Dalhousie,Himachal Pradesh,32.5387,75.971,16.2,97,0.1,801.1,8.5,29.5,55,25.6,24.9,36.4,345.0,12.0,1.0,6,10,7,0,2026-07-04T03:36:45.353631+05:30
Patiala,Punjab,30.3398,76.3869,28.8,86,0.0,971.5,7.55,23.0,102,77.3,74.3,37.0,585.0,32.0,8.7,7,5,7,1,2026-07-04T03:36:45.353639+05:30
Bhatinda,Punjab,30.211,74.9455,30.2,75,0.0,976.6,8.25,31.3,117,45.8,39.9,25.5,500.0,59.0,7.0,3,5,7,1,2026-07-04T03:36:45.353646+05:30
Rohtak,Haryana,28.8955,76.6066,29.6,80,0.0,974.7,6.8,17.3,138,89.2,68.5,48.5,755.0,31.0,28.3,7,5,7,1,2026-07-04T03:36:45.353653+05:30
Panipat,Haryana,29.3909,76.9635,28.6,84,0.0,973.7,6.85,20.2,149,218.4,77.1,30.9,740.0,42.0,12.2,7,5,7,1,2026-07-04T03:36:45.353661+05:30
Mathura,Uttar Pradesh,27.4924,77.6737,29.0,81,0.0,979.1,7.15,24.8,106,56.6,51.6,38.1,594.0,35.0,9.2,7,5,7,1,2026-07-04T03:36:45.353668+05:30
Vrindavan,Uttar Pradesh,27.5823,77.7027,29.2,79,0.0,979.6,7.1,24.8,106,56.6,51.6,38.1,529.0,35.0,9.2,7,5,7,1,2026-07-04T03:36:45.353675+05:30
Ayodhya,Uttar Pradesh,26.7922,82.1998,29.6,79,0.0,987.4,7.9,27.7,84,23.8,23.6,14.0,455.0,81.0,5.1,7,5,7,1,2026-07-04T03:36:45.353682+05:30
Ratlam,Madhya Pradesh,23.3315,75.0367,23.9,99,0.1,947.6,5.2,30.6,57,7.5,5.8,7.9,180.0,53.0,7.3,6,5,3,1,2026-07-04T03:36:45.353689+05:30
Sagar,Madhya Pradesh,23.8388,78.7378,23.7,99,0.0,942.1,8.0,27.7,46,8.7,8.6,7.2,225.0,76.0,1.9,3,5,7,1,2026-07-04T03:36:45.353696+05:30
Satna,Madhya Pradesh,24.6005,80.8322,25.8,99,0.0,963.0,6.95,42.8,59,18.4,18.3,7.5,284.0,87.0,3.8,7,5,7,1,2026-07-04T03:36:45.353704+05:30
Akola,Maharashtra,20.7002,77.0082,24.5,95,0.4,967.9,1.25,43.2,30,2.8,2.4,7.3,140.0,50.0,5.2,6,5,3,1,2026-07-04T03:36:45.353711+05:30
Amravati,Maharashtra,20.9374,77.7796,23.9,99,0.5,959.0,7.65,43.9,31,2.9,2.6,8.6,148.0,49.0,6.4,6,5,7,1,2026-07-04T03:36:45.353720+05:30
Latur,Maharashtra,18.4088,76.5604,23.1,92,0.0,934.0,0.9,55.1,20,1.9,1.8,4.6,113.0,42.0,2.4,3,5,3,1,2026-07-04T03:36:45.353727+05:30
Nanded,Maharashtra,19.1383,77.3091,24.1,94,0.3,962.1,0.4,44.3,21,2.4,2.2,6.5,127.0,42.0,4.1,6,5,3,1,2026-07-04T03:36:45.353735+05:30
Gulbarga,Karnataka,17.3297,76.8343,23.1,93,0.2,953.8,1.1,62.6,19,2.4,2.0,4.4,112.0,41.0,2.2,6,5,3,1,2026-07-04T03:36:45.353742+05:30
Bidar,Karnataka,17.9104,77.5199,22.5,96,0.2,929.6,0.65,55.8,19,2.1,2.0,4.9,119.0,39.0,1.8,6,5,3,1,2026-07-04T03:36:45.353748+05:30
Hospet,Karnataka,15.2689,76.3909,23.3,87,0.0,952.8,2.15,75.6,20,1.8,1.5,3.8,98.0,42.0,1.3,3,5,3,1,2026-07-04T03:36:45.353755+05:30
Tirupur,Tamil Nadu,11.1085,77.3411,23.5,93,0.0,973.8,8.7,61.6,30,7.7,6.8,12.2,114.0,30.0,3.5,3,5,7,1,2026-07-04T03:36:45.353762+05:30
Alappuzha,Kerala,9.4981,76.3388,25.0,95,0.2,1010.2,5.6,41.0,41,18.6,8.9,2.8,84.0,45.0,1.2,10,0,0,1,2026-07-04T03:36:45.353769+05:30
Munnar,Kerala,10.0889,77.0595,16.6,100,0.6,856.2,6.25,59.4,14,1.3,1.2,4.6,85.0,32.0,1.5,6,10,7,1,2026-07-04T03:36:45.353776+05:30
Silchar,Assam,24.8333,92.7789,26.5,97,0.0,998.4,8.5,43.9,56,21.1,20.8,11.1,207.0,37.0,5.0,7,5,7,1,2026-07-04T03:36:45.353783+05:30
Dibrugarh,Assam,27.4728,94.912,27.7,82,0.0,988.8,8.9,24.8,56,16.8,16.1,13.7,263.0,32.0,1.1,7,5,7,1,2026-07-04T03:36:45.353807+05:30
