city,state,latitude,longitude,temp,humidity,rain,pressure,uv_index,wind_gusts,aqi,pm10,pm2_5,mosquito_risk,arthritis_risk,migraine_risk,frizz_risk,updated_at
Delhi,Delhi,28.6139,77.209,19.6,77,0.0,988.0,3.1,20.2,151,111.1,69.2,3,5,3,0,2026-03-20T11:24:36.739846+05:30
Mumbai,Maharashtra,19.076,72.8777,26.6,73,0.0,1012.2,7.8,24.5,74,56.6,34.9,7,0,4,1,2026-03-20T11:24:36.739893+05:30
Bangalore,Karnataka,12.9716,77.5946,27.4,52,0.0,914.6,9.4,19.1,90,26.0,21.1,4,5,7,1,2026-03-20T11:24:36.739908+05:30
Hyderabad,Telangana,17.385,78.4867,29.6,46,0.0,956.8,8.8,25.6,65,19.7,12.9,4,5,7,1,2026-03-20T11:24:36.739919+05:30
Chennai,Tamil Nadu,13.0827,80.2707,32.4,53,0.0,1010.0,9.15,30.6,30,14.6,11.8,0,0,4,1,2026-03-20T11:24:36.739928+05:30
Kolkata,West Bengal,22.5726,88.3639,30.4,71,0.0,1008.7,7.15,33.8,80,37.0,31.4,3,0,4,1,2026-03-20T11:24:36.739936+05:30
Pune,Maharashtra,18.5204,73.8567,31.8,27,0.0,951.5,8.35,37.8,74,27.6,20.7,0,5,7,0,2026-03-20T11:24:36.739948+05:30
Ahmedabad,Gujarat,23.0225,72.5714,27.8,48,0.0,1007.1,7.6,33.8,75,71.7,27.9,4,5,4,0,2026-03-20T11:24:36.739956+05:30
Jaipur,Rajasthan,26.9124,75.7873,20.4,76,0.0,963.9,6.7,25.2,97,38.9,15.0,3,5,7,1,2026-03-20T11:24:36.739963+05:30
Lucknow,Uttar Pradesh,26.8467,80.9462,28.9,44,0.0,997.3,4.95,36.0,90,62.4,31.4,4,5,3,0,2026-03-20T11:24:36.739972+05:30
Kanpur,Uttar Pradesh,26.4499,80.3319,24.3,65,0.0,996.2,2.95,37.8,117,232.4,44.9,3,5,3,1,2026-03-20T11:24:36.739978+05:30
Chandigarh,Chandigarh,30.7333,76.7794,17.9,84,0.0,973.6,1.45,25.2,91,59.8,24.2,3,10,3,0,2026-03-20T11:24:36.739987+05:30
Srinagar,Jammu and Kashmir,34.0837,74.7973,8.3,82,0.0,840.3,4.05,14.4,93,12.2,11.6,3,10,3,0,2026-03-20T11:24:36.739994+05:30
Jammu,Jammu and Kashmir,32.7266,74.857,18.8,81,0.0,977.7,4.5,17.3,100,40.0,19.5,3,10,3,0,2026-03-20T11:24:36.740002+05:30
Amritsar,Punjab,31.634,74.8723,18.8,79,0.0,986.0,5.3,16.2,100,53.1,24.8,3,5,3,0,2026-03-20T11:24:36.740008+05:30
Ludhiana,Punjab,30.901,75.8573,18.4,81,0.0,984.0,3.25,15.1,106,68.7,28.6,3,10,3,0,2026-03-20T11:24:36.740015+05:30
Jalandhar,Punjab,31.326,75.5762,18.8,80,0.0,985.2,4.0,14.0,96,78.2,33.9,3,5,3,0,2026-03-20T11:24:36.740028+05:30
Dehradun,Uttarakhand,30.6284,78.0322,11.0,87,0.0,829.9,0.35,34.6,47,15.0,6.7,3,10,3,0,2026-03-20T11:24:36.740036+05:30
Shimla,Himachal Pradesh,31.1048,77.1734,9.2,90,0.3,783.0,0.5,33.5,47,42.4,14.5,6,10,3,0,2026-03-20T11:24:36.740043+05:30
Manali,Himachal Pradesh,32.2396,77.1887,10.5,98,0.7,815.8,3.15,26.3,48,0.9,0.8,6,10,3,0,2026-03-20T11:24:36.740049+05:30
Gurgaon,Haryana,28.4595,77.0266,19.7,80,0.0,986.4,3.0,18.4,158,83.1,49.8,3,5,3,1,2026-03-20T11:24:36.740056+05:30
Noida,Uttar Pradesh,28.5355,77.391,19.7,81,0.0,989.5,2.6,22.3,158,83.1,49.8,3,10,3,1,2026-03-20T11:24:36.740062+05:30
Ghaziabad,Uttar Pradesh,28.6692,77.4538,18.9,86,0.1,987.7,2.25,20.2,132,76.6,46.9,6,10,3,1,2026-03-20T11:24:36.740069+05:30
Faridabad,Haryana,28.4089,77.3178,19.9,79,0.0,988.7,3.7,19.1,158,83.1,49.8,3,5,3,1,2026-03-20T11:24:36.740075+05:30
Meerut,Uttar Pradesh,28.9845,77.7064,18.1,89,0.7,986.4,2.2,24.8,132,76.6,46.9,6,10,3,1,2026-03-20T11:24:36.740082+05:30
Agra,Uttar Pradesh,27.1767,78.0081,21.2,73,0.0,992.8,5.65,24.8,524,67.8,38.2,3,5,3,1,2026-03-20T11:24:36.740092+05:30
Varanasi,Uttar Pradesh,25.3176,82.9739,33.0,36,0.0,1000.3,7.35,51.1,113,50.9,43.9,0,5,4,0,2026-03-20T11:24:36.740102+05:30
Prayagraj,Uttar Pradesh,25.4358,81.8463,30.5,42,0.0,998.6,5.95,46.4,105,59.1,44.7,0,5,3,1,2026-03-20T11:24:36.740109+05:30
Gorakhpur,Uttar Pradesh,26.7606,83.3732,29.8,56,0.0,1001.1,6.85,49.0,141,88.0,56.5,4,5,4,1,2026-03-20T11:24:36.740116+05:30
Bareilly,Uttar Pradesh,28.367,79.4304,20.0,81,0.0,992.9,4.05,29.9,79,71.7,30.2,3,5,3,1,2026-03-20T11:24:36.740123+05:30
Aligarh,Uttar Pradesh,27.8974,78.088,20.0,82,0.0,990.7,4.05,23.4,132,69.8,43.1,3,5,3,1,2026-03-20T11:24:36.740130+05:30
Moradabad,Uttar Pradesh,28.8386,78.7733,18.7,88,0.1,989.3,2.3,28.8,90,76.1,34.9,6,10,3,1,2026-03-20T11:24:36.740136+05:30
Saharanpur,Uttar Pradesh,29.9637,77.546,17.8,88,0.2,980.9,0.6,14.4,129,53.6,32.9,6,10,3,0,2026-03-20T11:24:36.740142+05:30
Jhansi,Uttar Pradesh,25.4484,78.5685,24.2,61,0.0,982.2,6.1,33.1,90,82.7,30.6,3,5,7,1,2026-03-20T11:24:39.953257+05:30
Surat,Gujarat,21.1702,72.8311,28.2,62,0.0,1011.1,7.5,24.5,101,78.9,45.9,7,0,4,1,2026-03-20T11:24:39.953290+05:30
Vadodara,Gujarat,22.3072,73.1812,29.2,49,0.0,1009.2,7.65,29.2,64,66.6,25.2,4,0,4,1,2026-03-20T11:24:39.953301+05:30
Rajkot,Gujarat,22.3039,70.8022,27.1,59,0.0,999.1,7.4,31.3,70,98.5,23.5,4,5,7,1,2026-03-20T11:24:39.953309+05:30
Thane,Maharashtra,19.2183,72.9781,29.4,54,0.0,1011.6,7.8,37.1,74,56.6,34.9,4,0,4,1,2026-03-20T11:24:39.953315+05:30
Nagpur,Maharashtra,21.1458,79.0882,28.1,49,0.0,977.3,7.85,47.2,109,31.5,20.5,4,5,7,1,2026-03-20T11:24:39.953322+05:30
Nashik,Maharashtra,19.9975,73.7898,27.3,37,0.0,949.0,8.0,35.6,53,27.6,14.1,4,5,7,0,2026-03-20T11:24:39.953329+05:30
Aurangabad,Maharashtra,19.8762,75.3433,29.3,39,0.0,947.6,8.5,34.6,74,40.2,18.2,4,5,7,0,2026-03-20T11:24:39.953336+05:30
Solapur,Maharashtra,17.6599,75.9064,31.5,35,0.0,960.6,8.7,27.4,76,38.9,23.5,0,5,7,0,2026-03-20T11:24:39.953343+05:30
Kolhapur,Maharashtra,16.705,74.2433,29.5,38,0.0,951.4,8.8,43.6,85,25.7,20.5,4,5,7,0,2026-03-20T11:24:39.953350+05:30
Goa,Goa,15.2993,74.124,31.6,46,0.0,1001.1,8.85,36.7,64,23.4,15.4,0,5,4,1,2026-03-20T11:24:39.953356+05:30
Jodhpur,Rajasthan,26.2389,73.0243,24.1,60,0.0,987.9,7.25,18.7,69,66.4,18.5,0,5,7,0,2026-03-20T11:24:39.953363+05:30
Udaipur,Rajasthan,24.5854,73.7125,23.5,48,0.0,949.6,6.0,31.0,64,59.6,15.5,0,5,3,0,2026-03-20T11:24:39.953370+05:30
Kota,Rajasthan,25.2138,75.8648,26.4,50,0.0,982.9,7.0,36.0,70,46.4,16.1,4,5,7,0,2026-03-20T11:24:39.953377+05:30
Bikaner,Rajasthan,28.0229,73.3119,23.5,58,0.0,986.8,6.95,16.6,63,64.7,19.7,0,5,7,0,2026-03-20T11:24:39.953384+05:30
Ajmer,Rajasthan,26.4499,74.6399,20.9,73,0.0,958.5,6.85,25.6,63,48.0,15.2,3,5,7,0,2026-03-20T11:24:39.953390+05:30
Gwalior,Madhya Pradesh,26.2183,78.1828,22.6,66,0.0,987.8,6.35,31.0,120,89.6,37.5,3,5,7,0,2026-03-20T11:24:39.953396+05:30
Indore,Madhya Pradesh,22.7196,75.8577,26.9,42,0.0,951.7,7.85,38.5,62,77.8,24.6,4,5,7,0,2026-03-20T11:24:39.953403+05:30
Bhopal,Madhya Pradesh,23.2599,77.4126,27.8,39,0.0,957.5,7.75,37.1,68,68.0,22.0,4,5,7,0,2026-03-20T11:24:39.953409+05:30
Jabalpur,Madhya Pradesh,23.1815,79.9864,25.3,54,0.0,965.7,4.35,34.2,70,32.2,20.8,4,5,3,0,2026-03-20T11:24:39.953415+05:30
Ujjain,Madhya Pradesh,23.1765,75.7885,26.3,47,0.0,957.6,7.75,39.2,61,60.5,20.9,4,5,7,0,2026-03-20T11:24:39.953422+05:30
Visakhapatnam,Andhra Pradesh,17.6868,83.2185,31.9,44,0.0,1007.1,8.8,37.8,64,17.5,14.6,0,5,4,1,2026-03-20T11:24:39.953429+05:30
Vijayawada,Andhra Pradesh,16.5062,80.648,29.9,57,0.0,1006.4,8.85,22.3,61,11.1,8.6,4,5,4,1,2026-03-20T11:24:39.953453+05:30
Guntur,Andhra Pradesh,16.3067,80.4365,30.3,56,0.0,1007.4,8.85,24.8,54,11.1,8.3,0,5,4,1,2026-03-20T11:24:39.953460+05:30
Nellore,Andhra Pradesh,14.4426,79.9865,32.0,52,0.0,1009.0,9.0,29.9,29,9.5,8.6,0,0,4,1,2026-03-20T11:24:39.953467+05:30
Kurnool,Andhra Pradesh,15.8281,78.0373,32.0,46,0.0,980.2,8.85,19.4,62,9.5,7.4,0,5,7,1,2026-03-20T11:24:39.953474+05:30
Kakinada,Andhra Pradesh,16.9891,82.2475,31.3,50,0.0,1011.0,8.8,30.6,49,16.6,13.2,0,0,4,1,2026-03-20T11:24:39.953481+05:30
Tirupati,Andhra Pradesh,13.6288,79.4192,31.1,52,0.0,994.7,9.15,17.6,51,14.5,13.5,0,5,7,1,2026-03-20T11:24:39.953487+05:30
Warangal,Telangana,17.9689,79.5941,24.4,75,0.0,983.4,8.65,28.4,82,15.0,13.1,3,5,7,1,2026-03-20T11:24:39.953494+05:30
Nizamabad,Telangana,18.6725,78.0941,29.8,46,0.0,968.5,8.55,25.6,92,36.2,25.5,4,5,7,1,2026-03-20T11:24:39.953500+05:30
Mysore,Karnataka,12.2958,76.6396,28.0,50,0.0,931.2,9.35,33.5,77,26.1,21.7,4,5,7,1,2026-03-20T11:24:39.953507+05:30
Mangalore,Karnataka,12.9141,74.856,28.6,73,0.0,1009.2,9.0,29.9,72,26.7,19.4,7,0,4,1,2026-03-20T11:24:39.953513+05:30
Hubli-Dharwad,Karnataka,15.3647,75.124,30.0,40,0.0,944.2,9.0,40.7,70,21.2,16.0,4,5,7,0,2026-03-20T11:24:39.953520+05:30
Belgaum,Karnataka,15.8497,74.4977,29.3,34,0.0,929.1,9.1,44.6,73,24.2,19.7,4,5,7,0,2026-03-20T11:24:43.166606+05:30
Coimbatore,Tamil Nadu,11.0168,76.9558,30.2,51,0.0,964.6,9.35,36.7,61,18.0,14.6,0,5,7,1,2026-03-20T11:24:43.166640+05:30
Madurai,Tamil Nadu,9.9252,78.1198,31.2,56,0.0,995.8,9.3,20.9,58,17.2,14.7,0,5,7,1,2026-03-20T11:24:43.166651+05:30
Trichy,Tamil Nadu,10.7905,78.7047,29.3,67,0.0,1003.1,9.25,21.6,60,18.0,16.4,7,5,4,1,2026-03-20T11:24:43.166660+05:30
Salem,Tamil Nadu,11.6643,78.146,29.5,60,0.0,980.5,9.3,20.9,73,25.0,20.7,4,5,7,1,2026-03-20T11:24:43.166667+05:30
Tirunelveli,Tamil Nadu,8.7139,77.7567,31.7,56,0.0,1005.9,9.3,33.5,62,15.5,14.1,0,5,4,1,2026-03-20T11:24:43.166675+05:30
Vellore,Tamil Nadu,12.9165,79.1325,30.1,54,0.0,987.8,9.2,19.4,60,17.5,16.0,0,5,7,1,2026-03-20T11:24:43.166683+05:30
Erode,Tamil Nadu,11.341,77.7172,30.3,57,0.0,992.1,9.3,26.6,68,13.5,11.9,0,5,7,1,2026-03-20T11:24:43.166689+05:30
Kochi,Kerala,9.9312,76.2673,28.3,75,0.0,1010.7,9.15,36.0,65,16.8,13.9,7,0,4,1,2026-03-20T11:24:43.166696+05:30
Thiruvananthapuram,Kerala,8.5241,76.9366,28.2,77,0.0,1009.9,9.15,26.6,48,17.0,14.5,7,0,4,1,2026-03-20T11:24:43.166703+05:30
Kozhikode,Kerala,11.2588,75.7804,30.3,61,0.0,1010.1,9.05,30.2,53,24.2,17.7,3,0,4,1,2026-03-20T11:24:43.166710+05:30
Thrissur,Kerala,10.5276,76.2144,33.4,50,0.0,1008.8,9.15,37.4,64,13.8,11.4,0,0,4,1,2026-03-20T11:24:43.166717+05:30
Kannur,Kerala,11.8745,75.3704,31.9,51,0.0,1009.4,9.05,38.5,56,24.8,17.2,0,0,4,1,2026-03-20T11:24:43.166724+05:30
Patna,Bihar,25.5941,85.1376,29.8,62,0.0,1004.3,7.7,37.1,158,65.7,59.8,7,5,4,1,2026-03-20T11:24:43.166731+05:30
Gaya,Bihar,24.7914,85.0002,33.2,36,0.0,996.9,7.8,27.4,129,42.6,36.6,0,5,7,1,2026-03-20T11:24:43.166737+05:30
Muzaffarpur,Bihar,26.1209,85.3647,29.2,60,0.0,1004.5,7.25,35.6,160,63.6,58.0,4,5,4,1,2026-03-20T11:24:43.166743+05:30
Bhagalpur,Bihar,25.2425,87.0117,28.9,66,0.0,1005.2,7.75,47.2,142,49.8,44.7,7,5,4,1,2026-03-20T11:24:43.166750+05:30
Ranchi,Jharkhand,23.3441,85.3096,29.3,40,0.0,941.3,7.7,31.3,84,35.9,28.1,4,5,7,0,2026-03-20T11:24:43.166756+05:30
Jamshedpur,Jharkhand,22.8046,86.2029,32.4,40,0.0,993.9,7.55,37.8,116,58.0,49.2,0,5,7,1,2026-03-20T11:24:43.166762+05:30
Dhanbad,Jharkhand,23.7957,86.4304,33.0,30,0.0,982.9,7.8,33.1,155,61.7,53.3,0,5,7,0,2026-03-20T11:24:43.166769+05:30
Bokaro,Jharkhand,23.6693,86.1511,33.5,30,0.0,987.0,7.7,33.8,149,47.1,40.2,0,5,7,0,2026-03-20T11:24:43.166776+05:30
Bhubaneswar,Odisha,20.2961,85.8245,31.7,54,0.0,1005.9,8.55,32.0,69,27.7,22.9,0,5,4,1,2026-03-20T11:24:43.166783+05:30
Cuttack,Odisha,20.4625,85.8828,31.2,59,0.0,1007.9,8.45,28.8,69,27.7,22.9,0,5,4,1,2026-03-20T11:24:43.166789+05:30
Rourkela,Odisha,22.2604,84.8536,32.8,39,0.0,988.1,7.9,47.9,119,51.2,42.5,0,5,7,1,2026-03-20T11:24:43.166795+05:30
Raipur,Chhattisgarh,21.2514,81.6296,26.9,56,0.0,979.1,7.4,28.1,135,43.0,38.9,4,5,7,1,2026-03-20T11:24:43.166801+05:30
Bhilai,Chhattisgarh,21.1938,81.3509,27.0,58,0.0,979.6,6.45,27.0,130,38.4,34.7,4,5,7,1,2026-03-20T11:24:43.166807+05:30
Guwahati,Assam,26.1158,91.7086,27.9,63,0.0,1006.8,7.1,27.4,94,41.6,30.4,7,5,4,1,2026-03-20T11:24:43.166812+05:30
Agartala,Tripura,23.8315,91.2868,27.7,71,0.0,1010.9,6.3,29.2,92,30.2,27.3,7,0,4,1,2026-03-20T11:24:43.166818+05:30
Shillong,Meghalaya,25.5788,91.8933,17.8,50,0.0,860.4,7.5,32.4,83,41.2,27.6,0,5,7,0,2026-03-20T11:24:43.166824+05:30
Imphal,Manipur,24.817,93.9368,20.1,73,0.0,928.1,7.9,44.6,89,29.2,20.8,3,5,7,0,2026-03-20T11:24:43.166831+05:30
Aizawl,Mizoram,23.7271,92.7176,22.0,68,0.1,897.5,7.6,23.8,75,25.4,19.7,6,5,7,0,2026-03-20T11:24:43.166837+05:30
Kohima,Nagaland,25.6701,94.1077,17.2,80,0.0,859.4,7.5,62.3,69,32.1,19.8,3,5,7,0,2026-03-20T11:24:43.166842+05:30
Gangtok,Sikkim,27.3314,88.6138,17.6,70,0.0,841.1,7.9,18.4,100,37.7,25.6,3,5,7,0,2026-03-20T11:24:43.166849+05:30
Siliguri,West Bengal,26.7271,88.3953,21.8,77,0.0,999.1,7.6,23.0,151,64.0,47.4,3,5,7,1,2026-03-20T11:24:46.379832+05:30
Durgapur,West Bengal,23.5204,87.3119,32.4,45,0.0,998.0,7.0,42.1,155,75.4,66.8,0,5,7,1,2026-03-20T11:24:46.379867+05:30
Asansol,West Bengal,23.6739,86.9524,32.3,42,0.0,996.6,5.4,40.0,153,71.0,61.7,0,5,3,1,2026-03-20T11:24:46.379878+05:30
Pondicherry,Puducherry,11.9139,79.8145,31.0,63,0.0,1011.5,9.1,23.4,28,12.4,10.7,3,0,4,1,2026-03-20T11:24:46.379886+05:30
Port Blair,Andaman and Nicobar Islands,11.6234,92.7265,29.0,73,0.0,1009.2,7.75,14.8,47,15.5,12.0,7,0,4,1,2026-03-20T11:24:46.379894+05:30
Haridwar,Uttarakhand,29.9457,78.1642,18.1,86,0.2,979.5,0.65,27.7,76,35.9,17.6,6,10,3,0,2026-03-20T11:24:46.379902+05:30
Rishikesh,Uttarakhand,30.0869,78.2676,17.5,87,0.3,971.7,0.8,27.7,65,31.7,13.9,6,10,3,0,2026-03-20T11:24:46.379909+05:30
Nainital,Uttarakhand,29.3919,79.4542,12.7,91,0.2,806.4,2.25,65.2,62,36.6,17.5,6,10,3,0,2026-03-20T11:24:46.379917+05:30
Mussoorie,Uttarakhand,30.4599,78.0664,11.2,86,0.0,802.2,0.45,46.8,66,26.8,15.5,3,10,3,0,2026-03-20T11:24:46.379923+05:30
Dharamshala,Himachal Pradesh,32.219,76.3234,13.0,91,0.4,869.3,2.15,27.0,45,3.4,3.0,6,10,3,0,2026-03-20T11:24:46.379930+05:30
Dalhousie,Himachal Pradesh,32.5387,75.971,9.4,77,0.0,802.0,1.6,25.9,67,10.9,10.5,3,5,3,0,2026-03-20T11:24:46.379938+05:30
Patiala,Punjab,30.3398,76.3869,18.5,84,0.0,983.4,2.6,17.6,97,67.1,25.8,3,10,3,0,2026-03-20T11:24:46.379945+05:30
Bhatinda,Punjab,30.211,74.9455,20.2,77,0.0,988.8,5.85,19.4,102,48.2,29.3,3,5,3,1,2026-03-20T11:24:46.379953+05:30
Rohtak,Haryana,28.8955,76.6066,19.2,84,0.0,986.8,3.65,19.1,150,117.8,48.2,3,10,3,1,2026-03-20T11:24:46.379960+05:30
Panipat,Haryana,29.3909,76.9635,18.3,87,0.0,985.5,2.65,18.7,153,101.3,46.4,3,10,3,1,2026-03-20T11:24:46.379966+05:30
Mathura,Uttar Pradesh,27.4924,77.6737,21.0,75,0.0,991.9,5.55,20.9,149,43.3,28.2,3,5,3,1,2026-03-20T11:24:46.379973+05:30
Vrindavan,Uttar Pradesh,27.5823,77.7027,20.7,77,0.0,992.3,5.4,22.3,149,43.3,28.2,3,5,3,1,2026-03-20T11:24:46.379979+05:30
Ayodhya,Uttar Pradesh,26.7922,82.1998,31.3,37,0.0,998.7,6.05,31.3,131,66.1,35.7,0,5,7,0,2026-03-20T11:24:46.379985+05:30
Ratlam,Madhya Pradesh,23.3315,75.0367,26.4,47,0.0,958.3,7.75,41.4,58,52.5,17.6,4,5,7,0,2026-03-20T11:24:46.379991+05:30
Sagar,Madhya Pradesh,23.8388,78.7378,24.3,60,0.0,953.9,7.65,35.3,59,67.8,26.0,0,5,7,0,2026-03-20T11:24:46.379998+05:30
Satna,Madhya Pradesh,24.6005,80.8322,29.4,39,0.0,974.5,3.95,55.1,62,36.2,21.4,4,5,3,0,2026-03-20T11:24:46.380005+05:30
Akola,Maharashtra,20.7002,77.0082,30.6,39,0.0,979.4,8.2,28.4,77,59.6,21.3,0,5,7,0,2026-03-20T11:24:46.380012+05:30
Amravati,Maharashtra,20.9374,77.7796,30.0,41,0.0,971.5,8.1,25.9,80,45.9,19.4,4,5,7,0,2026-03-20T11:24:46.380019+05:30
Latur,Maharashtra,18.4088,76.5604,29.6,37,0.0,943.3,8.6,26.3,80,39.8,24.5,4,5,7,0,2026-03-20T11:24:46.380026+05:30
Nanded,Maharashtra,19.1383,77.3091,31.3,38,0.0,972.4,8.4,27.7,75,36.2,20.7,0,5,7,0,2026-03-20T11:24:46.380031+05:30
Gulbarga,Karnataka,17.3297,76.8343,31.9,31,0.0,962.2,8.7,25.9,71,41.7,23.1,0,5,7,0,2026-03-20T11:24:46.380037+05:30
Bidar,Karnataka,17.9104,77.5199,30.0,36,0.0,939.0,8.65,27.7,78,34.3,22.2,4,5,7,0,2026-03-20T11:24:46.380043+05:30
Hospet,Karnataka,15.2689,76.3909,30.1,45,0.0,959.2,8.95,14.8,71,32.6,21.4,0,5,7,1,2026-03-20T11:24:46.380049+05:30
Tirupur,Tamil Nadu,11.1085,77.3411,31.0,51,0.0,978.1,9.35,28.1,69,15.4,13.4,0,5,7,1,2026-03-20T11:24:46.380055+05:30
Alappuzha,Kerala,9.4981,76.3388,28.6,74,0.0,1010.7,9.1,32.4,62,20.3,17.1,7,0,4,1,2026-03-20T11:24:46.380066+05:30
Munnar,Kerala,10.0889,77.0595,28.3,41,0.0,860.7,9.6,37.4,49,11.4,9.6,4,5,7,0,2026-03-20T11:24:46.380072+05:30
Silchar,Assam,24.8333,92.7789,26.8,68,0.0,1010.8,7.55,19.1,102,33.5,27.4,7,0,4,1,2026-03-20T11:24:46.380079+05:30
Dibrugarh,Assam,27.4728,94.912,24.7,67,0.0,1001.7,7.75,14.0,85,52.2,29.7,3,5,4,1,2026-03-20T11:24:46.380086+05:30
