city,state,latitude,longitude,temp,humidity,rain,pressure,uv_index,wind_gusts,aqi,pm10,pm2_5,no2,co,o3,so2,mosquito_risk,arthritis_risk,migraine_risk,frizz_risk,updated_at
Delhi,Delhi,28.6139,77.209,29.7,76,0.0,977.9,7.7,27.4,182,132.2,66.8,28.8,397.0,43.0,18.6,7,5,7,1,2026-07-15T08:10:10.883250+05:30
Mumbai,Maharashtra,19.076,72.8777,24.9,93,0.4,1007.8,7.75,42.8,72,44.9,18.6,8.7,223.0,47.0,7.2,6,5,4,1,2026-07-15T08:10:10.883298+05:30
Bangalore,Karnataka,12.9716,77.5946,21.4,81,0.0,912.7,9.1,43.6,63,26.7,17.0,12.2,311.0,38.0,4.8,3,5,7,1,2026-07-15T08:10:10.883315+05:30
Hyderabad,Telangana,17.385,78.4867,26.7,60,0.0,952.9,9.1,50.0,73,25.3,18.0,7.5,261.0,52.0,5.5,4,5,7,1,2026-07-15T08:10:10.883326+05:30
Chennai,Tamil Nadu,13.0827,80.2707,31.0,62,0.0,1005.8,8.7,37.4,85,28.4,22.5,17.5,299.0,55.0,15.4,3,5,4,1,2026-07-15T08:10:10.883336+05:30
Kolkata,West Bengal,22.5726,88.3639,29.4,81,0.0,1000.0,8.55,34.9,143,24.3,21.2,13.1,360.0,73.0,12.9,7,5,4,1,2026-07-15T08:10:10.883345+05:30
Pune,Maharashtra,18.5204,73.8567,24.0,81,0.0,947.1,8.05,44.3,59,13.8,6.7,7.0,154.0,36.0,5.8,3,5,7,1,2026-07-15T08:10:10.883352+05:30
Ahmedabad,Gujarat,23.0225,72.5714,28.4,78,0.1,999.5,7.55,39.2,68,18.2,9.9,7.0,157.0,34.0,4.9,10,5,7,1,2026-07-15T08:10:10.883359+05:30
Jaipur,Rajasthan,26.9124,75.7873,29.7,58,0.0,956.1,8.1,40.7,396,368.8,70.5,9.2,164.0,42.0,5.2,4,5,7,1,2026-07-15T08:10:10.883366+05:30
Lucknow,Uttar Pradesh,26.8467,80.9462,30.6,73,0.0,988.2,7.6,23.8,167,140.2,68.7,14.3,261.0,71.0,10.0,3,5,7,1,2026-07-15T08:10:10.883377+05:30
Kanpur,Uttar Pradesh,26.4499,80.3319,30.5,73,0.0,986.7,7.5,36.7,156,140.6,57.7,9.6,189.0,76.0,6.1,3,5,7,1,2026-07-15T08:10:10.883385+05:30
Chandigarh,Chandigarh,30.7333,76.7794,28.7,78,0.0,963.5,7.7,31.3,168,92.7,66.1,21.4,860.0,99.0,11.9,7,5,7,1,2026-07-15T08:10:10.883392+05:30
Srinagar,Jammu and Kashmir,34.0837,74.7973,21.2,71,0.0,839.7,8.95,28.8,82,35.7,31.7,13.4,477.0,78.0,5.6,3,5,7,0,2026-07-15T08:10:10.883399+05:30
Jammu,Jammu and Kashmir,32.7266,74.857,28.9,73,0.0,967.2,8.55,22.3,154,69.2,59.0,28.2,426.0,83.0,4.6,7,5,7,1,2026-07-15T08:10:10.883405+05:30
Amritsar,Punjab,31.634,74.8723,29.0,79,0.0,975.4,8.35,23.8,196,136.4,97.8,36.7,1262.0,52.0,11.0,7,5,7,1,2026-07-15T08:10:10.883412+05:30
Ludhiana,Punjab,30.901,75.8573,30.0,73,0.0,973.1,7.95,27.7,190,209.5,146.2,47.0,1042.0,65.0,15.8,7,5,7,1,2026-07-15T08:10:10.883418+05:30
Jalandhar,Punjab,31.326,75.5762,29.4,77,0.0,974.2,8.15,24.5,198,192.3,149.9,41.2,1202.0,67.0,10.2,7,5,7,1,2026-07-15T08:10:10.883424+05:30
Dehradun,Uttarakhand,30.6284,78.0322,20.8,80,0.0,828.7,7.85,28.4,111,41.2,26.0,8.8,262.0,97.0,0.8,3,5,7,1,2026-07-15T08:10:10.883430+05:30
Shimla,Himachal Pradesh,31.1048,77.1734,19.3,74,0.0,783.7,8.25,40.0,111,44.9,28.9,5.1,293.0,118.0,2.4,3,5,7,0,2026-07-15T08:10:10.883437+05:30
Manali,Himachal Pradesh,32.2396,77.1887,22.4,58,0.0,818.1,9.4,33.1,53,2.5,2.0,8.0,163.0,89.0,0.1,0,5,7,0,2026-07-15T08:10:10.883446+05:30
Gurgaon,Haryana,28.4595,77.0266,31.0,64,0.0,976.5,7.75,31.7,179,116.2,59.4,25.0,293.0,31.0,10.1,3,5,7,1,2026-07-15T08:10:10.883453+05:30
Noida,Uttar Pradesh,28.5355,77.391,28.8,86,0.0,979.2,7.7,29.9,179,116.2,59.4,25.0,447.0,31.0,10.1,7,5,7,1,2026-07-15T08:10:10.883459+05:30
Ghaziabad,Uttar Pradesh,28.6692,77.4538,28.7,84,0.0,977.5,7.7,32.0,176,131.8,65.7,24.9,417.0,45.0,18.6,7,5,7,1,2026-07-15T08:10:10.883468+05:30
Faridabad,Haryana,28.4089,77.3178,28.7,89,0.0,978.6,7.75,27.4,179,116.2,59.4,25.0,291.0,31.0,10.1,7,5,7,1,2026-07-15T08:10:10.883475+05:30
Meerut,Uttar Pradesh,28.9845,77.7064,28.8,84,0.0,976.2,7.6,32.8,176,131.8,65.7,24.9,433.0,45.0,18.6,7,5,7,1,2026-07-15T08:10:10.883481+05:30
Agra,Uttar Pradesh,27.1767,78.0081,29.9,75,0.0,982.8,7.95,32.4,151,140.2,45.8,11.5,210.0,58.0,4.5,7,5,7,1,2026-07-15T08:10:10.883487+05:30
Varanasi,Uttar Pradesh,25.3176,82.9739,29.8,77,0.0,992.7,8.2,28.1,171,173.2,90.1,18.8,329.0,66.0,13.9,7,5,7,1,2026-07-15T08:10:10.883494+05:30
Prayagraj,Uttar Pradesh,25.4358,81.8463,31.3,69,0.0,991.2,8.6,27.4,165,133.2,73.8,14.6,236.0,66.0,11.1,3,5,7,1,2026-07-15T08:10:10.883501+05:30
Gorakhpur,Uttar Pradesh,26.7606,83.3732,27.6,85,0.0,992.6,7.25,23.0,162,94.3,45.5,9.5,354.0,101.0,7.1,7,5,7,1,2026-07-15T08:10:10.883508+05:30
Bareilly,Uttar Pradesh,28.367,79.4304,28.5,86,0.0,981.7,8.0,24.5,172,167.2,78.5,17.9,491.0,80.0,14.7,7,5,7,1,2026-07-15T08:10:10.883517+05:30
Aligarh,Uttar Pradesh,27.8974,78.088,29.6,78,0.0,980.3,7.75,29.9,163,129.5,54.2,11.9,242.0,51.0,4.8,7,5,7,1,2026-07-15T08:10:10.883523+05:30
Moradabad,Uttar Pradesh,28.8386,78.7733,29.0,78,0.0,978.7,7.8,29.9,176,197.0,87.5,24.1,510.0,58.0,17.5,7,5,7,1,2026-07-15T08:10:10.883529+05:30
Saharanpur,Uttar Pradesh,29.9637,77.546,28.5,84,0.0,970.5,7.35,29.2,188,208.6,101.3,20.5,948.0,67.0,14.9,7,5,7,1,2026-07-15T08:10:10.883536+05:30
Jhansi,Uttar Pradesh,25.4484,78.5685,30.4,65,0.0,973.9,4.85,36.7,118,63.3,34.1,7.4,168.0,55.0,7.4,3,5,3,1,2026-07-15T08:10:14.128159+05:30
Surat,Gujarat,21.1702,72.8311,27.0,83,0.0,1004.9,7.75,47.2,72,30.6,20.1,21.6,239.0,28.0,40.2,7,5,4,1,2026-07-15T08:10:14.128196+05:30
Vadodara,Gujarat,22.3072,73.1812,26.5,87,0.0,1002.3,7.4,42.1,67,18.8,11.1,7.8,159.0,33.0,5.3,7,5,4,1,2026-07-15T08:10:14.128207+05:30
Rajkot,Gujarat,22.3039,70.8022,27.6,82,0.0,990.9,7.2,43.2,55,17.8,8.7,3.8,108.0,39.0,3.3,7,5,7,1,2026-07-15T08:10:14.128216+05:30
Thane,Maharashtra,19.2183,72.9781,24.4,94,0.1,1007.1,7.3,37.1,72,44.9,18.6,8.7,230.0,47.0,7.2,6,5,4,1,2026-07-15T08:10:14.128225+05:30
Nagpur,Maharashtra,21.1458,79.0882,27.8,69,0.0,971.2,8.8,38.9,90,33.5,24.3,9.4,172.0,59.0,13.3,7,5,7,1,2026-07-15T08:10:14.128233+05:30
Nashik,Maharashtra,19.9975,73.7898,22.8,88,0.0,944.1,7.85,44.6,59,9.9,4.8,7.8,141.0,34.0,5.8,3,5,7,1,2026-07-15T08:10:14.128241+05:30
Aurangabad,Maharashtra,19.8762,75.3433,24.5,78,0.0,943.3,8.8,43.9,63,13.3,7.0,6.2,143.0,37.0,9.3,3,5,7,1,2026-07-15T08:10:14.128248+05:30
Solapur,Maharashtra,17.6599,75.9064,25.8,71,0.0,957.5,8.85,49.3,62,15.0,9.9,4.7,127.0,43.0,2.8,7,5,7,1,2026-07-15T08:10:14.128256+05:30
Kolhapur,Maharashtra,16.705,74.2433,23.6,85,0.0,948.2,8.1,47.5,57,18.2,8.6,3.9,145.0,43.0,2.4,3,5,7,1,2026-07-15T08:10:14.128263+05:30
Goa,Goa,15.2993,74.124,25.4,96,0.0,999.5,8.15,30.6,75,48.3,25.7,4.7,229.0,49.0,2.1,7,5,7,1,2026-07-15T08:10:14.128270+05:30
Jodhpur,Rajasthan,26.2389,73.0243,28.9,67,0.0,979.6,8.4,40.0,169,330.6,75.4,3.0,109.0,44.0,3.3,7,5,7,1,2026-07-15T08:10:14.128278+05:30
Udaipur,Rajasthan,24.5854,73.7125,25.1,80,0.0,943.7,7.65,34.9,73,26.3,11.3,4.1,107.0,38.0,4.0,7,5,7,1,2026-07-15T08:10:14.128285+05:30
Kota,Rajasthan,25.2138,75.8648,29.3,69,0.0,975.6,8.3,35.3,94,46.4,29.2,9.0,171.0,46.0,9.0,7,5,7,1,2026-07-15T08:10:14.128292+05:30
Bikaner,Rajasthan,28.0229,73.3119,31.3,56,0.0,977.0,8.4,36.7,166,315.7,96.2,1.9,110.0,52.0,3.5,0,5,7,1,2026-07-15T08:10:14.128299+05:30
Ajmer,Rajasthan,26.4499,74.6399,27.4,67,0.0,951.4,8.25,43.6,100,83.8,32.0,4.9,121.0,46.0,3.8,7,5,7,1,2026-07-15T08:10:14.128307+05:30
Gwalior,Madhya Pradesh,26.2183,78.1828,30.1,68,0.0,979.0,6.4,34.9,128,104.8,38.3,8.4,163.0,54.0,3.0,3,5,7,1,2026-07-15T08:10:14.128314+05:30
Indore,Madhya Pradesh,22.7196,75.8577,25.6,80,0.0,946.3,8.55,37.4,72,17.6,11.0,7.1,210.0,37.0,8.1,7,5,7,1,2026-07-15T08:10:14.128321+05:30
Bhopal,Madhya Pradesh,23.2599,77.4126,26.7,77,0.0,951.5,7.25,41.0,83,29.8,18.2,6.3,207.0,45.0,8.1,7,5,7,1,2026-07-15T08:10:14.128328+05:30
Jabalpur,Madhya Pradesh,23.1815,79.9864,27.5,72,0.0,958.7,7.25,31.7,101,52.3,31.9,5.8,243.0,68.0,4.9,7,5,7,1,2026-07-15T08:10:14.128336+05:30
Ujjain,Madhya Pradesh,23.1765,75.7885,25.5,85,0.0,951.9,8.5,35.6,72,18.7,11.4,6.0,172.0,39.0,7.2,7,5,7,1,2026-07-15T08:10:14.128344+05:30
Visakhapatnam,Andhra Pradesh,17.6868,83.2185,30.3,68,0.0,998.8,3.65,32.8,137,63.6,45.3,35.9,462.0,45.0,62.6,3,5,3,1,2026-07-15T08:10:14.128351+05:30
Vijayawada,Andhra Pradesh,16.5062,80.648,32.1,54,0.0,1000.2,9.0,45.4,91,42.4,33.9,11.4,245.0,64.0,9.8,0,5,4,1,2026-07-15T08:10:14.128358+05:30
Guntur,Andhra Pradesh,16.3067,80.4365,32.7,50,0.0,1001.5,8.95,46.8,88,33.4,26.8,10.2,219.0,62.0,8.2,0,5,4,1,2026-07-15T08:10:14.128366+05:30
Nellore,Andhra Pradesh,14.4426,79.9865,31.5,54,0.0,1004.4,8.95,49.7,84,26.8,20.2,9.6,130.0,58.0,8.0,0,5,4,1,2026-07-15T08:10:14.128374+05:30
Kurnool,Andhra Pradesh,15.8281,78.0373,28.2,61,0.0,977.2,8.95,63.0,63,20.0,13.3,7.6,143.0,40.0,5.6,7,5,7,1,2026-07-15T08:10:14.128382+05:30
Kakinada,Andhra Pradesh,16.9891,82.2475,31.7,61,0.0,1003.3,5.0,49.0,96,53.7,38.5,8.4,275.0,76.0,8.3,3,5,0,1,2026-07-15T08:10:14.128390+05:30
Tirupati,Andhra Pradesh,13.6288,79.4192,30.2,55,0.0,990.0,8.55,34.6,84,25.3,17.9,12.1,131.0,55.0,2.3,0,5,7,1,2026-07-15T08:10:14.128396+05:30
Warangal,Telangana,17.9689,79.5941,28.9,57,0.0,977.3,9.0,43.6,88,34.2,27.5,7.3,188.0,69.0,7.2,4,5,7,1,2026-07-15T08:10:14.128403+05:30
Nizamabad,Telangana,18.6725,78.0941,26.7,68,0.0,964.2,8.85,40.3,81,34.1,22.4,5.4,170.0,69.0,9.1,7,5,7,1,2026-07-15T08:10:14.128410+05:30
Mysore,Karnataka,12.2958,76.6396,22.9,81,0.0,929.9,9.0,43.6,59,22.4,13.8,5.9,144.0,45.0,2.7,3,5,7,1,2026-07-15T08:10:14.128417+05:30
Mangalore,Karnataka,12.9141,74.856,26.3,88,0.0,1009.0,8.75,36.7,66,34.2,22.6,8.1,147.0,36.0,3.9,7,0,4,1,2026-07-15T08:10:14.128424+05:30
Hubli-Dharwad,Karnataka,15.3647,75.124,23.2,83,0.0,941.8,7.3,49.3,55,18.2,9.1,3.0,124.0,45.0,1.7,3,5,7,1,2026-07-15T08:10:14.128432+05:30
Belgaum,Karnataka,15.8497,74.4977,22.4,85,0.0,926.3,6.6,50.8,55,17.8,7.7,3.2,117.0,45.0,2.2,3,5,7,1,2026-07-15T08:10:17.389165+05:30
Coimbatore,Tamil Nadu,11.0168,76.9558,25.9,79,0.0,962.5,8.2,51.8,59,21.5,13.1,4.8,190.0,49.0,3.6,7,5,7,1,2026-07-15T08:10:17.389202+05:30
Madurai,Tamil Nadu,9.9252,78.1198,29.9,54,0.0,993.1,8.65,33.8,80,32.9,26.5,24.6,143.0,33.0,8.1,4,5,7,1,2026-07-15T08:10:17.389214+05:30
Trichy,Tamil Nadu,10.7905,78.7047,29.9,59,0.0,999.7,8.7,47.5,70,20.4,13.2,6.9,122.0,42.0,4.5,4,5,7,1,2026-07-15T08:10:17.389223+05:30
Salem,Tamil Nadu,11.6643,78.146,26.8,79,0.0,978.1,8.2,22.0,75,30.0,23.5,15.8,190.0,42.0,10.2,7,5,7,1,2026-07-15T08:10:17.389231+05:30
Tirunelveli,Tamil Nadu,8.7139,77.7567,30.7,55,0.0,1003.3,8.05,45.4,55,16.4,10.5,4.2,140.0,46.0,2.3,0,5,4,1,2026-07-15T08:10:17.389239+05:30
Vellore,Tamil Nadu,12.9165,79.1325,29.2,54,0.0,983.9,8.95,42.1,91,29.0,24.2,19.2,182.0,46.0,7.0,4,5,7,1,2026-07-15T08:10:17.389246+05:30
Erode,Tamil Nadu,11.341,77.7172,28.8,62,0.0,989.8,8.35,42.8,65,20.3,13.7,7.4,195.0,44.0,3.8,7,5,7,1,2026-07-15T08:10:17.389254+05:30
Kochi,Kerala,9.9312,76.2673,27.7,87,0.0,1010.8,8.6,39.6,62,24.7,15.8,7.4,213.0,42.0,4.4,7,0,4,1,2026-07-15T08:10:17.389262+05:30
Thiruvananthapuram,Kerala,8.5241,76.9366,26.0,91,0.0,1010.3,8.4,47.9,58,20.3,11.6,4.4,122.0,47.0,1.7,7,0,4,1,2026-07-15T08:10:17.389270+05:30
Kozhikode,Kerala,11.2588,75.7804,26.2,95,0.0,1010.0,7.05,40.0,59,27.9,14.6,2.5,178.0,50.0,2.3,7,0,4,1,2026-07-15T08:10:17.389277+05:30
Thrissur,Kerala,10.5276,76.2144,26.6,90,0.0,1009.3,8.05,36.7,60,25.1,16.5,7.0,152.0,41.0,3.5,7,0,4,1,2026-07-15T08:10:17.389285+05:30
Kannur,Kerala,11.8745,75.3704,26.9,88,0.0,1009.2,6.75,37.4,62,27.5,18.8,6.6,231.0,39.0,3.3,7,0,4,1,2026-07-15T08:10:17.389292+05:30
Patna,Bihar,25.5941,85.1376,29.3,84,0.0,995.7,8.05,31.7,160,85.2,60.1,17.3,451.0,89.0,13.9,7,5,7,1,2026-07-15T08:10:17.389299+05:30
Gaya,Bihar,24.7914,85.0002,29.7,79,0.0,989.1,8.1,33.1,162,92.9,55.2,15.6,359.0,80.0,8.3,7,5,7,1,2026-07-15T08:10:17.389306+05:30
Muzaffarpur,Bihar,26.1209,85.3647,29.0,86,0.0,995.7,8.4,24.1,156,74.7,54.6,17.2,493.0,89.0,12.6,7,5,7,1,2026-07-15T08:10:17.389313+05:30
Bhagalpur,Bihar,25.2425,87.0117,29.6,83,0.0,996.5,8.15,24.8,92,31.1,28.0,11.7,271.0,91.0,17.6,7,5,7,1,2026-07-15T08:10:17.389320+05:30
Ranchi,Jharkhand,23.3441,85.3096,27.9,73,0.0,933.9,7.05,32.0,156,118.0,58.7,16.6,262.0,76.0,11.3,7,5,7,1,2026-07-15T08:10:17.389327+05:30
Jamshedpur,Jharkhand,22.8046,86.2029,27.3,90,0.0,986.1,7.95,35.3,171,67.8,57.2,28.3,320.0,73.0,33.8,7,5,7,1,2026-07-15T08:10:17.389334+05:30
Dhanbad,Jharkhand,23.7957,86.4304,28.0,83,0.1,975.4,7.85,25.2,191,107.6,89.9,54.9,283.0,39.0,118.6,10,5,7,1,2026-07-15T08:10:17.389341+05:30
Bokaro,Jharkhand,23.6693,86.1511,29.2,77,0.0,979.2,7.35,29.2,191,123.9,81.0,41.9,277.0,57.0,99.0,7,5,7,1,2026-07-15T08:10:17.389348+05:30
Bhubaneswar,Odisha,20.2961,85.8245,27.5,88,0.1,997.1,7.4,33.1,133,87.3,44.8,12.3,374.0,71.0,10.1,10,5,7,1,2026-07-15T08:10:17.389355+05:30
Cuttack,Odisha,20.4625,85.8828,27.5,90,0.2,998.9,7.8,38.9,133,87.3,44.8,12.3,272.0,71.0,10.1,10,5,7,1,2026-07-15T08:10:17.389362+05:30
Rourkela,Odisha,22.2604,84.8536,28.9,80,0.0,980.2,7.4,46.4,153,135.5,67.8,10.0,722.0,86.0,9.4,7,5,7,1,2026-07-15T08:10:17.389369+05:30
Raipur,Chhattisgarh,21.2514,81.6296,27.3,79,0.0,971.4,8.4,37.4,142,61.0,47.3,32.3,209.0,36.0,69.2,7,5,7,1,2026-07-15T08:10:17.389376+05:30
Bhilai,Chhattisgarh,21.1938,81.3509,28.0,72,0.0,971.9,8.3,37.8,123,54.8,40.7,24.3,646.0,44.0,53.2,7,5,7,1,2026-07-15T08:10:17.389383+05:30
Guwahati,Assam,26.1158,91.7086,26.3,98,0.1,998.1,6.6,29.2,51,6.1,5.7,3.9,262.0,71.0,1.1,10,5,7,1,2026-07-15T08:10:17.389390+05:30
Agartala,Tripura,23.8315,91.2868,30.4,74,0.0,1001.3,7.9,43.6,77,14.5,13.3,7.4,204.0,84.0,2.3,3,5,4,1,2026-07-15T08:10:17.389397+05:30
Shillong,Meghalaya,25.5788,91.8933,23.7,80,0.0,856.5,6.55,24.1,43,5.2,4.7,3.0,206.0,84.0,2.1,3,5,7,1,2026-07-15T08:10:17.389404+05:30
Imphal,Manipur,24.817,93.9368,26.5,77,0.1,921.2,9.2,24.8,57,6.9,6.0,3.6,215.0,64.0,1.7,10,5,7,1,2026-07-15T08:10:17.389411+05:30
Aizawl,Mizoram,23.7271,92.7176,23.1,87,0.0,889.4,8.7,32.4,41,10.0,8.3,2.6,156.0,68.0,0.9,3,5,7,1,2026-07-15T08:10:17.389418+05:30
Kohima,Nagaland,25.6701,94.1077,25.0,75,0.0,854.8,6.25,29.2,52,8.5,7.2,2.6,174.0,72.0,1.2,7,5,7,1,2026-07-15T08:10:17.389425+05:30
Gangtok,Sikkim,27.3314,88.6138,22.5,83,0.0,837.7,8.05,31.7,43,13.4,12.5,4.3,301.0,83.0,1.8,3,5,7,1,2026-07-15T08:10:17.389432+05:30
Siliguri,West Bengal,26.7271,88.3953,29.6,82,0.0,988.9,6.7,16.9,72,21.1,19.6,8.6,481.0,91.0,4.4,7,5,7,1,2026-07-15T08:10:20.631512+05:30
Durgapur,West Bengal,23.5204,87.3119,29.8,83,0.0,989.9,8.7,28.1,160,49.4,45.8,27.0,335.0,79.0,46.7,7,5,7,1,2026-07-15T08:10:20.631548+05:30
Asansol,West Bengal,23.6739,86.9524,28.2,87,0.1,988.9,8.3,22.0,159,59.1,54.9,38.8,380.0,61.0,61.7,10,5,7,1,2026-07-15T08:10:20.631560+05:30
Pondicherry,Puducherry,11.9139,79.8145,29.9,69,0.0,1007.5,6.45,49.3,78,17.3,13.2,10.4,219.0,51.0,8.5,7,5,4,1,2026-07-15T08:10:20.631569+05:30
Port Blair,Andaman and Nicobar Islands,11.6234,92.7265,27.6,87,0.0,1006.9,8.45,57.6,45,13.9,6.3,0.4,91.0,41.0,0.4,7,5,4,1,2026-07-15T08:10:20.631577+05:30
Haridwar,Uttarakhand,29.9457,78.1642,28.6,83,0.0,969.0,7.5,23.8,176,196.5,92.4,11.8,360.0,98.0,13.0,7,5,7,1,2026-07-15T08:10:20.631584+05:30
Rishikesh,Uttarakhand,30.0869,78.2676,28.2,77,0.0,961.9,7.6,24.5,166,167.2,75.0,4.8,330.0,126.0,9.7,7,5,7,1,2026-07-15T08:10:20.631592+05:30
Nainital,Uttarakhand,29.3919,79.4542,20.2,80,0.0,804.7,7.9,28.4,169,226.3,90.8,12.5,307.0,103.0,9.8,3,5,7,1,2026-07-15T08:10:20.631600+05:30
Mussoorie,Uttarakhand,30.4599,78.0664,20.2,79,0.0,802.0,7.4,34.9,159,119.0,59.3,10.4,294.0,128.0,9.8,3,5,7,1,2026-07-15T08:10:20.631608+05:30
Dharamshala,Himachal Pradesh,32.219,76.3234,23.7,84,0.0,866.6,8.4,33.1,69,5.8,3.7,4.0,274.0,95.0,0.6,3,5,7,1,2026-07-15T08:10:20.631615+05:30
Dalhousie,Himachal Pradesh,32.5387,75.971,20.4,75,0.0,803.2,8.55,31.7,155,63.6,37.8,15.6,254.0,111.0,2.9,3,5,7,0,2026-07-15T08:10:20.631623+05:30
Patiala,Punjab,30.3398,76.3869,30.1,77,0.0,972.7,7.6,27.0,198,333.4,158.8,35.4,893.0,73.0,11.5,3,5,7,1,2026-07-15T08:10:20.631631+05:30
Bhatinda,Punjab,30.211,74.9455,32.2,60,0.0,978.2,8.2,34.9,174,177.0,90.6,13.9,404.0,78.0,8.0,0,5,7,1,2026-07-15T08:10:20.631638+05:30
Rohtak,Haryana,28.8955,76.6066,30.9,66,0.0,976.7,7.65,27.4,268,155.5,66.1,18.1,243.0,44.0,5.3,3,5,7,1,2026-07-15T08:10:20.631645+05:30
Panipat,Haryana,29.3909,76.9635,30.3,77,0.0,975.0,7.5,24.8,592,137.8,64.7,19.0,462.0,39.0,5.1,3,5,7,1,2026-07-15T08:10:20.631652+05:30
Mathura,Uttar Pradesh,27.4924,77.6737,30.1,76,0.0,981.6,7.8,28.8,174,137.8,48.7,14.3,207.0,41.0,3.9,3,5,7,1,2026-07-15T08:10:20.631660+05:30
Vrindavan,Uttar Pradesh,27.5823,77.7027,30.3,73,0.0,982.1,7.75,28.4,174,137.8,48.7,14.3,186.0,41.0,3.9,3,5,7,1,2026-07-15T08:10:20.631666+05:30
Ayodhya,Uttar Pradesh,26.7922,82.1998,29.8,79,0.0,990.5,7.55,21.2,180,135.5,70.3,11.6,696.0,93.0,7.5,7,5,7,1,2026-07-15T08:10:20.631673+05:30
Ratlam,Madhya Pradesh,23.3315,75.0367,24.9,88,0.1,952.7,8.45,36.7,69,19.3,10.6,5.5,137.0,39.0,6.6,6,5,7,1,2026-07-15T08:10:20.631680+05:30
Sagar,Madhya Pradesh,23.8388,78.7378,27.1,71,0.0,947.5,7.85,39.6,96,55.5,32.1,5.0,219.0,67.0,6.2,7,5,7,1,2026-07-15T08:10:20.631687+05:30
Satna,Madhya Pradesh,24.6005,80.8322,29.4,67,0.0,967.5,8.7,34.6,125,44.2,29.3,5.6,164.0,68.0,6.1,7,5,7,1,2026-07-15T08:10:20.631693+05:30
Akola,Maharashtra,20.7002,77.0082,27.4,73,0.0,974.3,8.05,40.0,69,21.9,12.8,6.4,119.0,38.0,7.6,7,5,7,1,2026-07-15T08:10:20.631701+05:30
Amravati,Maharashtra,20.9374,77.7796,26.9,75,0.0,966.1,7.7,41.4,71,24.2,14.3,6.9,122.0,37.0,8.7,7,5,7,1,2026-07-15T08:10:20.631708+05:30
Latur,Maharashtra,18.4088,76.5604,24.8,74,0.0,939.4,8.95,41.4,64,22.2,11.8,4.6,121.0,42.0,3.8,3,5,7,1,2026-07-15T08:10:20.631716+05:30
Nanded,Maharashtra,19.1383,77.3091,27.0,71,0.0,968.1,8.6,45.0,75,33.1,20.1,5.6,158.0,56.0,8.0,7,5,7,1,2026-07-15T08:10:20.631722+05:30
Gulbarga,Karnataka,17.3297,76.8343,25.9,69,0.0,958.7,8.85,55.8,62,19.9,12.2,5.2,133.0,42.0,3.5,7,5,7,1,2026-07-15T08:10:20.631728+05:30
Bidar,Karnataka,17.9104,77.5199,24.9,74,0.0,935.0,8.95,41.4,73,30.4,17.9,5.6,158.0,48.0,4.2,3,5,7,1,2026-07-15T08:10:20.631735+05:30
Hospet,Karnataka,15.2689,76.3909,24.1,78,0.0,956.8,8.9,44.3,56,16.4,9.5,3.6,119.0,42.0,2.1,3,5,7,1,2026-07-15T08:10:20.631740+05:30
Tirupur,Tamil Nadu,11.1085,77.3411,27.1,72,0.0,976.2,8.4,58.3,66,23.1,15.5,7.8,169.0,47.0,4.4,7,5,7,1,2026-07-15T08:10:20.631747+05:30
Alappuzha,Kerala,9.4981,76.3388,27.5,84,0.0,1011.0,8.1,41.0,61,25.0,14.4,6.1,92.0,46.0,3.5,7,0,4,1,2026-07-15T08:10:20.631753+05:30
Munnar,Kerala,10.0889,77.0595,17.5,82,0.0,858.0,8.85,37.1,53,8.0,5.6,4.1,109.0,40.0,2.5,3,10,7,0,2026-07-15T08:10:20.631761+05:30
Silchar,Assam,24.8333,92.7789,30.1,79,0.0,1000.3,8.3,23.0,62,12.0,11.1,4.0,215.0,88.0,4.0,3,5,4,1,2026-07-15T08:10:20.631767+05:30
Dibrugarh,Assam,27.4728,94.912,27.1,93,0.1,992.8,6.7,27.7,63,6.8,6.7,4.3,166.0,63.0,0.7,10,5,7,1,2026-07-15T08:10:20.631774+05:30
