city,state,latitude,longitude,temp,humidity,rain,pressure,uv_index,wind_gusts,aqi,pm10,pm2_5,mosquito_risk,arthritis_risk,migraine_risk,frizz_risk,updated_at
Delhi,Delhi,28.6139,77.209,28.8,46,0.0,983.6,6.5,36.0,174,271.9,48.3,4,5,7,0,2026-03-27T14:27:51.384731+05:30
Mumbai,Maharashtra,19.076,72.8777,29.4,73,0.0,1007.5,8.0,25.9,105,47.6,42.1,7,5,4,1,2026-03-27T14:27:51.384777+05:30
Bangalore,Karnataka,12.9716,77.5946,34.9,19,0.0,912.3,9.5,27.0,70,23.7,17.7,0,5,7,0,2026-03-27T14:27:51.384793+05:30
Hyderabad,Telangana,17.385,78.4867,36.3,29,0.0,953.3,9.0,39.2,76,28.8,21.6,0,5,10,0,2026-03-27T14:27:51.384803+05:30
Chennai,Tamil Nadu,13.0827,80.2707,33.9,45,0.0,1007.1,9.25,29.9,69,35.5,20.7,0,5,4,1,2026-03-27T14:27:51.384812+05:30
Kolkata,West Bengal,22.5726,88.3639,34.4,46,0.0,1004.1,8.45,24.5,133,52.2,31.4,0,5,4,1,2026-03-27T14:27:51.384849+05:30
Pune,Maharashtra,18.5204,73.8567,37.8,21,0.0,948.6,8.55,44.3,110,41.0,28.7,0,5,10,0,2026-03-27T14:27:51.384869+05:30
Ahmedabad,Gujarat,23.0225,72.5714,37.3,26,0.0,1002.3,7.9,31.3,57,32.6,13.5,0,5,7,0,2026-03-27T14:27:51.384877+05:30
Jaipur,Rajasthan,26.9124,75.7873,33.4,26,0.0,959.6,7.35,33.8,95,251.5,34.7,0,5,7,0,2026-03-27T14:27:51.384885+05:30
Lucknow,Uttar Pradesh,26.8467,80.9462,30.5,39,0.0,993.7,6.0,49.3,84,62.9,16.4,0,5,3,0,2026-03-27T14:27:51.384893+05:30
Kanpur,Uttar Pradesh,26.4499,80.3319,28.3,50,0.0,992.8,6.7,64.1,142,161.1,26.3,4,5,7,1,2026-03-27T14:27:51.384901+05:30
Chandigarh,Chandigarh,30.7333,76.7794,28.2,46,0.0,969.2,6.45,33.1,70,32.4,16.7,4,5,7,0,2026-03-27T14:27:51.384914+05:30
Srinagar,Jammu and Kashmir,34.0837,74.7973,20.5,36,0.0,841.9,7.5,16.6,106,25.7,14.1,0,5,7,0,2026-03-27T14:27:51.384922+05:30
Jammu,Jammu and Kashmir,32.7266,74.857,29.5,47,0.0,972.5,7.15,25.2,86,22.3,15.3,4,5,7,1,2026-03-27T14:27:51.384930+05:30
Amritsar,Punjab,31.634,74.8723,28.9,41,0.0,981.2,7.1,25.9,82,35.9,23.1,4,5,7,0,2026-03-27T14:27:51.384937+05:30
Ludhiana,Punjab,30.901,75.8573,29.2,39,0.0,979.0,6.6,27.4,87,34.2,17.7,4,5,7,0,2026-03-27T14:27:51.384944+05:30
Jalandhar,Punjab,31.326,75.5762,28.7,42,0.0,980.3,4.4,23.0,87,41.1,15.9,4,5,3,0,2026-03-27T14:27:51.384953+05:30
Dehradun,Uttarakhand,30.6284,78.0322,17.8,63,0.0,829.7,5.8,24.1,50,29.7,16.6,3,5,3,0,2026-03-27T14:27:51.384961+05:30
Shimla,Himachal Pradesh,31.1048,77.1734,16.3,64,0.0,784.7,6.0,40.0,58,24.9,15.2,3,5,3,0,2026-03-27T14:27:51.384967+05:30
Manali,Himachal Pradesh,32.2396,77.1887,19.3,64,0.0,819.5,8.7,26.6,85,17.8,7.6,3,5,7,0,2026-03-27T14:27:51.384975+05:30
Gurgaon,Haryana,28.4595,77.0266,29.8,43,0.0,982.0,6.65,37.4,742,1013.3,110.4,4,5,7,0,2026-03-27T14:27:51.384982+05:30
Noida,Uttar Pradesh,28.5355,77.391,28.5,49,0.0,985.3,6.5,34.6,742,1013.3,110.4,4,5,7,1,2026-03-27T14:27:51.384990+05:30
Ghaziabad,Uttar Pradesh,28.6692,77.4538,28.9,47,0.0,983.2,6.5,34.6,134,175.6,37.6,4,5,7,1,2026-03-27T14:27:51.384996+05:30
Faridabad,Haryana,28.4089,77.3178,28.1,53,0.0,984.9,6.6,33.1,742,1013.3,110.4,4,5,7,1,2026-03-27T14:27:51.385004+05:30
Meerut,Uttar Pradesh,28.9845,77.7064,28.5,49,0.0,981.7,6.35,42.1,134,175.6,37.6,4,5,7,1,2026-03-27T14:27:51.385010+05:30
Agra,Uttar Pradesh,27.1767,78.0081,32.4,36,0.0,988.0,6.8,47.5,565,597.9,64.3,0,5,7,0,2026-03-27T14:27:51.385017+05:30
Varanasi,Uttar Pradesh,25.3176,82.9739,33.0,34,0.0,996.9,7.3,52.2,90,71.5,19.8,0,5,7,0,2026-03-27T14:27:51.385026+05:30
Prayagraj,Uttar Pradesh,25.4358,81.8463,32.3,37,0.0,995.8,6.25,34.6,86,59.1,20.4,0,5,7,0,2026-03-27T14:27:51.385033+05:30
Gorakhpur,Uttar Pradesh,26.7606,83.3732,33.6,28,0.0,995.7,6.75,44.6,98,56.5,21.8,0,5,7,0,2026-03-27T14:27:51.385042+05:30
Bareilly,Uttar Pradesh,28.367,79.4304,26.8,57,0.0,987.3,5.75,51.5,62,31.4,13.6,4,5,3,1,2026-03-27T14:27:51.385049+05:30
Aligarh,Uttar Pradesh,27.8974,78.088,30.2,43,0.0,985.9,6.45,44.6,332,527.1,67.3,0,5,7,1,2026-03-27T14:27:51.385058+05:30
Moradabad,Uttar Pradesh,28.8386,78.7733,27.8,53,0.0,984.1,5.35,40.3,72,40.5,17.1,4,5,3,1,2026-03-27T14:27:51.385064+05:30
Saharanpur,Uttar Pradesh,29.9637,77.546,28.8,40,0.0,975.6,6.15,34.2,87,48.1,20.8,4,5,7,0,2026-03-27T14:27:51.385070+05:30
Jhansi,Uttar Pradesh,25.4484,78.5685,32.9,34,0.0,977.7,7.55,61.2,85,164.4,41.0,0,5,7,0,2026-03-27T14:27:54.663520+05:30
Surat,Gujarat,21.1702,72.8311,35.1,35,0.0,1006.9,7.75,27.7,123,34.0,25.6,0,5,7,1,2026-03-27T14:27:54.663550+05:30
Vadodara,Gujarat,22.3072,73.1812,38.5,25,0.0,1004.1,7.9,27.4,75,23.7,13.4,0,5,7,0,2026-03-27T14:27:54.663560+05:30
Rajkot,Gujarat,22.3039,70.8022,36.2,31,0.0,995.5,7.75,32.8,51,24.4,11.2,0,5,10,1,2026-03-27T14:27:54.663568+05:30
Thane,Maharashtra,19.2183,72.9781,34.7,45,0.0,1007.4,8.0,38.5,105,47.6,42.1,0,5,4,1,2026-03-27T14:27:54.663575+05:30
Nagpur,Maharashtra,21.1458,79.0882,38.2,17,0.0,971.6,8.25,50.0,121,21.1,15.3,0,5,10,0,2026-03-27T14:27:54.663583+05:30
Nashik,Maharashtra,19.9975,73.7898,36.4,21,0.0,945.9,8.2,43.6,78,30.9,22.8,0,5,10,0,2026-03-27T14:27:54.663589+05:30
Aurangabad,Maharashtra,19.8762,75.3433,37.7,19,0.0,944.2,8.75,39.2,69,33.4,22.5,0,5,10,0,2026-03-27T14:27:54.663596+05:30
Solapur,Maharashtra,17.6599,75.9064,38.4,22,0.0,956.9,8.85,30.2,99,41.6,32.7,0,5,10,0,2026-03-27T14:27:54.663603+05:30
Kolhapur,Maharashtra,16.705,74.2433,35.4,32,0.0,948.3,8.95,44.6,156,40.9,32.9,0,5,10,1,2026-03-27T14:27:54.663610+05:30
Goa,Goa,15.2993,74.124,33.2,63,0.0,997.6,8.9,32.0,96,33.2,26.0,3,5,7,1,2026-03-27T14:27:54.663617+05:30
Jodhpur,Rajasthan,26.2389,73.0243,35.3,26,0.0,983.9,7.7,30.6,77,89.4,20.6,0,5,10,0,2026-03-27T14:27:54.663625+05:30
Udaipur,Rajasthan,24.5854,73.7125,33.4,26,0.0,947.5,8.35,43.2,34,46.6,13.3,0,5,7,0,2026-03-27T14:27:54.663632+05:30
Kota,Rajasthan,25.2138,75.8648,37.9,17,0.0,977.3,7.7,39.6,64,112.7,21.7,0,5,10,0,2026-03-27T14:27:54.663639+05:30
Bikaner,Rajasthan,28.0229,73.3119,32.1,33,0.0,983.1,7.45,27.4,71,47.5,21.1,0,5,7,0,2026-03-27T14:27:54.663646+05:30
Ajmer,Rajasthan,26.4499,74.6399,33.1,29,0.0,955.1,7.65,36.0,57,49.1,15.8,0,5,7,0,2026-03-27T14:27:54.663652+05:30
Gwalior,Madhya Pradesh,26.2183,78.1828,30.6,43,0.0,983.7,7.2,55.8,120,118.5,29.8,0,5,7,1,2026-03-27T14:27:54.663659+05:30
Indore,Madhya Pradesh,22.7196,75.8577,35.8,15,0.0,948.5,8.2,38.9,46,20.6,7.8,0,5,10,0,2026-03-27T14:27:54.663665+05:30
Bhopal,Madhya Pradesh,23.2599,77.4126,37.5,16,0.0,953.1,8.1,44.3,46,19.0,8.4,0,5,10,0,2026-03-27T14:27:54.663671+05:30
Jabalpur,Madhya Pradesh,23.1815,79.9864,37.2,22,0.0,959.4,8.15,47.2,58,9.9,7.3,0,5,10,0,2026-03-27T14:27:54.663678+05:30
Ujjain,Madhya Pradesh,23.1765,75.7885,35.5,18,0.0,954.0,8.1,38.5,39,18.9,6.9,0,5,10,0,2026-03-27T14:27:54.663685+05:30
Visakhapatnam,Andhra Pradesh,17.6868,83.2185,34.5,45,0.0,1003.0,8.95,38.2,83,38.8,26.3,0,5,4,1,2026-03-27T14:27:54.663692+05:30
Vijayawada,Andhra Pradesh,16.5062,80.648,36.1,40,0.0,1001.8,9.05,25.6,76,37.1,23.6,0,5,7,1,2026-03-27T14:27:54.663699+05:30
Guntur,Andhra Pradesh,16.3067,80.4365,36.7,38,0.0,1002.9,9.05,30.2,71,34.5,21.4,0,5,7,1,2026-03-27T14:27:54.663705+05:30
Nellore,Andhra Pradesh,14.4426,79.9865,37.5,31,0.0,1005.0,9.15,29.9,65,38.1,26.1,0,5,7,1,2026-03-27T14:27:54.663712+05:30
Kurnool,Andhra Pradesh,15.8281,78.0373,39.5,20,0.0,975.9,9.05,16.2,69,29.6,21.0,0,5,10,0,2026-03-27T14:27:54.663719+05:30
Kakinada,Andhra Pradesh,16.9891,82.2475,38.0,39,0.0,1006.0,9.0,27.7,69,33.9,20.4,0,5,7,1,2026-03-27T14:27:54.663725+05:30
Tirupati,Andhra Pradesh,13.6288,79.4192,36.8,24,0.0,990.8,9.25,31.3,96,35.6,25.6,0,5,10,0,2026-03-27T14:27:54.663732+05:30
Warangal,Telangana,17.9689,79.5941,37.8,27,0.0,978.1,8.85,26.6,82,27.2,20.5,0,5,10,0,2026-03-27T14:27:54.663739+05:30
Nizamabad,Telangana,18.6725,78.0941,38.4,24,0.0,964.2,8.75,30.6,99,20.6,14.1,0,5,10,0,2026-03-27T14:27:54.663745+05:30
Mysore,Karnataka,12.2958,76.6396,36.6,14,0.0,928.5,9.45,41.0,70,26.0,19.3,0,5,10,0,2026-03-27T14:27:54.663752+05:30
Mangalore,Karnataka,12.9141,74.856,29.5,83,0.0,1005.8,9.1,24.8,98,38.3,30.0,7,5,4,1,2026-03-27T14:27:54.663758+05:30
Hubli-Dharwad,Karnataka,15.3647,75.124,35.3,29,0.0,941.2,9.1,41.8,75,26.5,20.8,0,5,10,0,2026-03-27T14:27:54.663765+05:30
Belgaum,Karnataka,15.8497,74.4977,31.0,53,0.0,926.8,9.15,37.8,111,32.2,25.9,0,5,7,1,2026-03-27T14:27:57.935913+05:30
Coimbatore,Tamil Nadu,11.0168,76.9558,37.0,20,0.0,961.1,9.4,40.7,81,26.9,20.3,0,5,10,0,2026-03-27T14:27:57.935943+05:30
Madurai,Tamil Nadu,9.9252,78.1198,35.7,34,0.0,991.8,9.35,21.6,78,31.9,19.9,0,5,10,1,2026-03-27T14:27:57.935953+05:30
Trichy,Tamil Nadu,10.7905,78.7047,34.6,42,0.0,998.8,9.3,18.7,87,43.2,29.9,0,5,7,1,2026-03-27T14:27:57.935961+05:30
Salem,Tamil Nadu,11.6643,78.146,37.4,27,0.0,976.3,9.35,26.3,94,36.3,28.5,0,5,10,0,2026-03-27T14:27:57.935969+05:30
Tirunelveli,Tamil Nadu,8.7139,77.7567,37.7,26,0.0,1001.7,9.35,44.3,59,26.1,15.9,0,5,7,0,2026-03-27T14:27:57.935977+05:30
Vellore,Tamil Nadu,12.9165,79.1325,36.2,23,0.0,984.0,9.3,31.7,96,28.6,19.4,0,5,10,0,2026-03-27T14:27:57.935984+05:30
Erode,Tamil Nadu,11.341,77.7172,37.6,25,0.0,987.6,9.35,29.2,88,33.6,25.2,0,5,10,0,2026-03-27T14:27:57.935991+05:30
Kochi,Kerala,9.9312,76.2673,29.3,76,0.0,1007.4,9.2,37.8,92,34.0,28.2,7,5,4,1,2026-03-27T14:27:57.935999+05:30
Thiruvananthapuram,Kerala,8.5241,76.9366,29.6,74,0.0,1006.6,9.2,31.7,91,23.7,19.0,7,5,4,1,2026-03-27T14:27:57.936006+05:30
Kozhikode,Kerala,11.2588,75.7804,30.7,73,0.0,1006.7,9.1,31.3,93,36.0,29.5,3,5,4,1,2026-03-27T14:27:57.936012+05:30
Thrissur,Kerala,10.5276,76.2144,33.5,58,0.0,1005.7,9.15,40.7,92,33.8,26.7,0,5,4,1,2026-03-27T14:27:57.936020+05:30
Kannur,Kerala,11.8745,75.3704,31.9,68,0.0,1006.2,9.1,31.0,104,39.5,32.0,3,5,4,1,2026-03-27T14:27:57.936027+05:30
Patna,Bihar,25.5941,85.1376,34.3,35,0.0,998.5,7.95,41.8,150,58.4,21.3,0,5,7,1,2026-03-27T14:27:57.936033+05:30
Gaya,Bihar,24.7914,85.0002,34.5,28,0.0,992.0,8.05,30.2,69,43.7,12.9,0,5,7,0,2026-03-27T14:27:57.936040+05:30
Muzaffarpur,Bihar,26.1209,85.3647,32.4,43,0.0,998.4,7.6,44.6,157,62.9,31.1,0,5,7,1,2026-03-27T14:27:57.936046+05:30
Bhagalpur,Bihar,25.2425,87.0117,32.5,45,0.0,999.3,8.0,28.8,138,60.3,30.3,0,5,7,1,2026-03-27T14:27:57.936053+05:30
Ranchi,Jharkhand,23.3441,85.3096,31.4,30,0.0,937.5,8.7,34.2,84,27.7,8.5,0,5,7,0,2026-03-27T14:27:57.936059+05:30
Jamshedpur,Jharkhand,22.8046,86.2029,37.1,24,0.0,988.8,8.55,24.5,154,39.7,20.0,0,5,10,0,2026-03-27T14:27:57.936066+05:30
Dhanbad,Jharkhand,23.7957,86.4304,36.5,19,0.0,978.0,8.4,25.6,127,46.7,19.6,0,5,10,0,2026-03-27T14:27:57.936073+05:30
Bokaro,Jharkhand,23.6693,86.1511,36.1,20,0.0,981.9,8.3,36.0,117,41.4,15.4,0,5,10,0,2026-03-27T14:27:57.936080+05:30
Bhubaneswar,Odisha,20.2961,85.8245,35.8,39,0.0,1001.0,8.75,25.2,116,47.7,37.0,0,5,7,1,2026-03-27T14:27:57.936086+05:30
Cuttack,Odisha,20.4625,85.8828,36.5,42,0.0,1002.5,8.8,31.7,116,47.7,37.0,0,5,7,1,2026-03-27T14:27:57.936092+05:30
Rourkela,Odisha,22.2604,84.8536,36.6,29,0.0,983.4,8.45,42.1,84,25.2,14.6,0,5,10,0,2026-03-27T14:27:57.936099+05:30
Raipur,Chhattisgarh,21.2514,81.6296,33.0,42,0.0,974.0,8.55,48.6,127,36.0,29.6,0,5,7,1,2026-03-27T14:27:57.936105+05:30
Bhilai,Chhattisgarh,21.1938,81.3509,31.7,50,0.0,973.8,8.55,45.0,123,32.9,26.6,0,5,7,1,2026-03-27T14:27:57.936111+05:30
Guwahati,Assam,26.1158,91.7086,27.1,68,0.0,1001.6,7.9,28.4,152,70.5,44.9,7,5,4,1,2026-03-27T14:27:57.936117+05:30
Agartala,Tripura,23.8315,91.2868,31.7,53,0.0,1004.7,8.2,24.5,156,69.6,51.5,0,5,4,1,2026-03-27T14:27:57.936123+05:30
Shillong,Meghalaya,25.5788,91.8933,17.2,71,0.0,855.7,8.15,42.1,124,59.6,37.6,3,5,7,0,2026-03-27T14:27:57.936130+05:30
Imphal,Manipur,24.817,93.9368,24.0,46,0.0,922.5,8.55,43.2,124,42.8,27.0,0,5,7,0,2026-03-27T14:27:57.936137+05:30
Aizawl,Mizoram,23.7271,92.7176,27.1,35,0.0,893.1,8.5,30.6,99,49.2,28.6,4,5,7,0,2026-03-27T14:27:57.936144+05:30
Kohima,Nagaland,25.6701,94.1077,17.9,74,0.0,854.7,8.45,71.6,95,35.5,22.5,3,5,7,0,2026-03-27T14:27:57.936150+05:30
Gangtok,Sikkim,27.3314,88.6138,17.4,77,0.0,836.3,7.65,21.2,110,47.5,34.3,3,5,7,0,2026-03-27T14:27:57.936156+05:30
Siliguri,West Bengal,26.7271,88.3953,22.6,79,0.0,993.6,7.8,33.1,159,82.2,54.1,3,5,7,1,2026-03-27T14:28:01.214501+05:30
Durgapur,West Bengal,23.5204,87.3119,37.1,26,0.0,992.9,8.4,19.8,154,59.8,33.6,0,5,10,0,2026-03-27T14:28:01.214543+05:30
Asansol,West Bengal,23.6739,86.9524,36.9,22,0.0,991.5,8.45,20.2,116,53.8,26.5,0,5,10,0,2026-03-27T14:28:01.214559+05:30
Pondicherry,Puducherry,11.9139,79.8145,33.8,54,0.0,1007.6,9.2,25.6,68,35.7,19.2,0,5,4,1,2026-03-27T14:28:01.214572+05:30
Port Blair,Andaman and Nicobar Islands,11.6234,92.7265,28.1,80,0.0,1005.4,9.15,23.0,57,35.9,25.2,7,5,4,1,2026-03-27T14:28:01.214586+05:30
Haridwar,Uttarakhand,29.9457,78.1642,27.7,40,0.0,974.0,5.5,38.5,77,31.2,18.2,4,5,3,0,2026-03-27T14:28:01.214600+05:30
Rishikesh,Uttarakhand,30.0869,78.2676,27.4,41,0.0,966.5,6.05,29.5,60,29.3,12.3,4,5,7,0,2026-03-27T14:28:01.214613+05:30
Nainital,Uttarakhand,29.3919,79.4542,22.6,41,0.0,806.6,6.5,58.0,50,24.4,8.8,0,5,7,0,2026-03-27T14:28:01.214625+05:30
Mussoorie,Uttarakhand,30.4599,78.0664,18.7,56,0.0,802.6,6.25,28.4,68,33.5,18.5,0,5,7,0,2026-03-27T14:28:01.214638+05:30
Dharamshala,Himachal Pradesh,32.219,76.3234,22.1,66,0.0,869.2,6.95,20.2,47,26.3,13.4,3,5,7,0,2026-03-27T14:28:01.214651+05:30
Dalhousie,Himachal Pradesh,32.5387,75.971,21.5,51,0.0,804.7,7.2,22.7,69,21.7,14.6,0,5,7,0,2026-03-27T14:28:01.214664+05:30
Patiala,Punjab,30.3398,76.3869,29.2,41,0.0,978.6,6.3,34.2,172,56.6,19.3,4,5,7,0,2026-03-27T14:28:01.214677+05:30
Bhatinda,Punjab,30.211,74.9455,30.5,36,0.0,984.1,7.0,29.9,83,43.1,17.8,0,5,7,0,2026-03-27T14:28:01.214688+05:30
Rohtak,Haryana,28.8955,76.6066,30.1,39,0.0,982.2,6.55,35.3,184,389.3,54.6,0,5,7,0,2026-03-27T14:28:01.214701+05:30
Panipat,Haryana,29.3909,76.9635,29.0,43,0.0,980.7,6.35,41.8,335,657.5,72.4,4,5,7,0,2026-03-27T14:28:01.214713+05:30
Mathura,Uttar Pradesh,27.4924,77.6737,31.7,39,0.0,986.8,6.75,36.0,534,488.0,59.5,0,5,7,1,2026-03-27T14:28:01.214726+05:30
Vrindavan,Uttar Pradesh,27.5823,77.7027,31.2,40,0.0,987.3,6.5,39.2,534,488.0,59.5,0,5,7,0,2026-03-27T14:28:01.214739+05:30
Ayodhya,Uttar Pradesh,26.7922,82.1998,31.8,32,0.0,994.5,5.5,52.6,78,53.4,17.8,0,5,3,0,2026-03-27T14:28:01.214753+05:30
Ratlam,Madhya Pradesh,23.3315,75.0367,34.3,23,0.0,955.1,8.05,33.8,36,13.8,5.7,0,5,7,0,2026-03-27T14:28:01.214767+05:30
Sagar,Madhya Pradesh,23.8388,78.7378,37.0,20,0.0,948.8,8.05,40.0,47,14.0,5.8,0,5,10,0,2026-03-27T14:28:01.214780+05:30
Satna,Madhya Pradesh,24.6005,80.8322,29.9,45,0.0,971.4,7.75,38.5,65,97.1,22.6,4,5,7,1,2026-03-27T14:28:01.214793+05:30
Akola,Maharashtra,20.7002,77.0082,38.3,23,0.0,974.4,8.45,41.4,65,21.0,14.9,0,5,10,0,2026-03-27T14:28:01.214807+05:30
Amravati,Maharashtra,20.9374,77.7796,37.9,21,0.0,966.7,8.45,40.3,64,19.6,13.8,0,5,10,0,2026-03-27T14:28:01.214843+05:30
Latur,Maharashtra,18.4088,76.5604,36.8,21,0.0,940.0,8.8,27.7,91,40.6,30.2,0,5,10,0,2026-03-27T14:28:01.214859+05:30
Nanded,Maharashtra,19.1383,77.3091,38.9,19,0.0,968.0,8.65,26.3,87,23.8,17.0,0,5,10,0,2026-03-27T14:28:01.214872+05:30
Gulbarga,Karnataka,17.3297,76.8343,38.5,23,0.0,958.3,8.85,32.0,90,35.9,27.8,0,5,10,0,2026-03-27T14:28:01.214884+05:30
Bidar,Karnataka,17.9104,77.5199,36.4,26,0.0,935.9,8.85,29.9,89,36.3,28.8,0,5,10,0,2026-03-27T14:28:01.214897+05:30
Hospet,Karnataka,15.2689,76.3909,36.2,25,0.0,955.9,9.1,23.8,84,29.6,22.3,0,5,10,0,2026-03-27T14:28:01.214909+05:30
Tirupur,Tamil Nadu,11.1085,77.3411,37.7,21,0.0,974.3,9.4,30.6,94,32.2,24.3,0,5,10,0,2026-03-27T14:28:01.214920+05:30
Alappuzha,Kerala,9.4981,76.3388,29.2,78,0.0,1007.5,9.15,34.9,85,33.2,27.6,7,5,4,1,2026-03-27T14:28:01.214931+05:30
Munnar,Kerala,10.0889,77.0595,32.2,33,0.0,859.3,9.65,33.8,72,22.9,14.4,0,5,7,0,2026-03-27T14:28:01.214947+05:30
Silchar,Assam,24.8333,92.7789,32.0,43,0.0,1003.4,8.25,16.9,154,75.0,45.5,0,5,4,1,2026-03-27T14:28:01.214960+05:30
Dibrugarh,Assam,27.4728,94.912,26.5,65,0.0,995.6,4.8,10.8,122,62.6,40.7,7,5,3,1,2026-03-27T14:28:01.214972+05:30
