city,state,latitude,longitude,temp,humidity,rain,pressure,uv_index,wind_gusts,aqi,pm10,pm2_5,no2,co,o3,so2,mosquito_risk,arthritis_risk,migraine_risk,frizz_risk,updated_at
Delhi,Delhi,28.6139,77.209,39.6,18,0.0,980.0,7.75,53.3,420,737.6,109.4,3.5,238.0,148.0,8.7,0,5,10,0,2026-05-23T14:33:09.213809+05:30
Mumbai,Maharashtra,19.076,72.8777,32.8,64,0.0,1008.7,7.75,32.0,51,15.7,11.6,4.5,179.0,104.0,5.7,3,0,4,1,2026-05-23T14:33:09.213850+05:30
Bangalore,Karnataka,12.9716,77.5946,26.0,72,0.1,912.8,6.05,43.2,50,36.0,21.5,3.5,266.0,127.0,3.5,10,5,7,1,2026-05-23T14:33:09.213866+05:30
Hyderabad,Telangana,17.385,78.4867,37.3,32,0.0,952.2,9.2,59.8,88,29.4,23.1,2.0,234.0,151.0,6.5,0,5,10,1,2026-05-23T14:33:09.213875+05:30
Chennai,Tamil Nadu,13.0827,80.2707,36.3,42,0.0,1004.6,6.15,43.2,75,42.7,30.9,5.0,267.0,183.0,7.5,0,5,7,1,2026-05-23T14:33:09.213883+05:30
Kolkata,West Bengal,22.5726,88.3639,35.3,62,0.0,1000.1,9.0,44.6,102,70.1,42.3,2.1,277.0,120.0,6.7,3,5,7,1,2026-05-23T14:33:09.213891+05:30
Pune,Maharashtra,18.5204,73.8567,28.8,70,0.2,949.3,8.4,46.4,46,14.4,10.3,1.8,174.0,103.0,4.3,10,5,7,1,2026-05-23T14:33:09.213898+05:30
Ahmedabad,Gujarat,23.0225,72.5714,41.6,21,0.0,1000.5,8.15,42.5,71,39.6,20.4,1.3,157.0,96.0,2.5,0,5,7,0,2026-05-23T14:33:09.213905+05:30
Jaipur,Rajasthan,26.9124,75.7873,40.7,14,0.0,958.1,8.25,51.8,168,368.8,69.6,0.9,155.0,108.0,2.6,0,5,10,0,2026-05-23T14:33:09.213917+05:30
Lucknow,Uttar Pradesh,26.8467,80.9462,42.2,15,0.0,988.1,8.2,54.0,161,156.9,40.5,1.3,197.0,143.0,7.0,0,5,10,0,2026-05-23T14:33:09.213924+05:30
Kanpur,Uttar Pradesh,26.4499,80.3319,42.5,14,0.0,987.0,8.25,46.8,294,691.0,91.3,1.1,186.0,133.0,4.8,0,5,10,0,2026-05-23T14:33:09.213931+05:30
Chandigarh,Chandigarh,30.7333,76.7794,38.7,17,0.0,965.5,7.75,39.2,89,67.1,24.3,1.6,212.0,143.0,6.1,0,5,10,0,2026-05-23T14:33:09.213938+05:30
Srinagar,Jammu and Kashmir,34.0837,74.7973,22.2,48,0.0,844.8,8.85,25.2,70,36.6,11.6,1.6,210.0,124.0,1.5,0,5,7,0,2026-05-23T14:33:09.213944+05:30
Jammu,Jammu and Kashmir,32.7266,74.857,37.2,17,0.0,970.1,8.5,49.0,84,47.5,16.1,1.3,167.0,133.0,1.8,0,5,10,0,2026-05-23T14:33:09.213951+05:30
Amritsar,Punjab,31.634,74.8723,38.0,23,0.0,977.7,8.4,23.8,147,73.8,28.4,1.5,208.0,156.0,5.6,0,5,10,0,2026-05-23T14:33:09.213957+05:30
Ludhiana,Punjab,30.901,75.8573,39.3,17,0.0,975.4,8.0,39.2,111,121.5,34.1,1.1,221.0,131.0,3.4,0,5,10,0,2026-05-23T14:33:09.213963+05:30
Jalandhar,Punjab,31.326,75.5762,39.3,17,0.0,976.6,8.15,36.7,122,85.7,30.3,1.1,210.0,139.0,3.6,0,5,10,0,2026-05-23T14:33:09.213969+05:30
Dehradun,Uttarakhand,30.6284,78.0322,27.2,23,0.0,832.1,8.15,46.8,66,64.0,18.6,0.8,174.0,129.0,1.5,4,5,7,0,2026-05-23T14:33:09.213975+05:30
Shimla,Himachal Pradesh,31.1048,77.1734,24.2,18,0.0,788.0,8.25,50.8,74,55.3,18.0,0.9,151.0,132.0,2.7,0,5,7,1,2026-05-23T14:33:09.213988+05:30
Manali,Himachal Pradesh,32.2396,77.1887,23.2,29,0.1,821.2,9.9,47.5,60,39.9,10.2,1.8,126.0,135.0,0.4,3,5,7,0,2026-05-23T14:33:09.213994+05:30
Gurgaon,Haryana,28.4595,77.0266,40.4,16,0.0,978.4,7.85,49.3,876,1724.8,208.6,3.3,223.0,140.0,7.2,0,5,10,0,2026-05-23T14:33:09.214001+05:30
Noida,Uttar Pradesh,28.5355,77.391,40.6,16,0.0,981.2,7.75,51.1,876,1724.8,208.6,3.3,247.0,140.0,7.2,0,5,10,0,2026-05-23T14:33:09.214009+05:30
Ghaziabad,Uttar Pradesh,28.6692,77.4538,39.8,17,0.0,979.6,7.75,60.1,164,620.3,95.5,2.5,200.0,153.0,9.6,0,5,10,0,2026-05-23T14:33:09.214015+05:30
Faridabad,Haryana,28.4089,77.3178,40.7,16,0.0,980.6,7.8,54.4,876,1724.8,208.6,3.3,227.0,140.0,7.2,0,5,10,0,2026-05-23T14:33:09.214022+05:30
Meerut,Uttar Pradesh,28.9845,77.7064,39.0,19,0.1,978.1,7.45,58.7,164,620.3,95.5,2.5,206.0,153.0,9.6,3,5,10,0,2026-05-23T14:33:09.214028+05:30
Agra,Uttar Pradesh,27.1767,78.0081,42.1,14,0.0,983.8,8.05,46.8,537,925.7,111.3,1.4,156.0,132.0,4.5,0,5,10,0,2026-05-23T14:33:09.214034+05:30
Varanasi,Uttar Pradesh,25.3176,82.9739,43.2,14,0.0,991.4,8.75,52.6,154,320.4,70.5,1.5,212.0,164.0,8.2,0,5,10,0,2026-05-23T14:33:09.214041+05:30
Prayagraj,Uttar Pradesh,25.4358,81.8463,43.2,14,0.0,990.4,8.65,44.6,150,322.2,71.9,1.4,190.0,156.0,8.0,0,5,10,0,2026-05-23T14:33:09.214047+05:30
Gorakhpur,Uttar Pradesh,26.7606,83.3732,40.1,28,0.0,990.7,8.65,43.9,162,137.8,65.4,1.9,348.0,200.0,11.5,0,5,10,1,2026-05-23T14:33:09.214055+05:30
Bareilly,Uttar Pradesh,28.367,79.4304,39.2,18,0.0,982.2,8.05,53.6,143,85.0,32.8,1.6,197.0,161.0,6.9,0,5,10,0,2026-05-23T14:33:09.214062+05:30
Aligarh,Uttar Pradesh,27.8974,78.088,40.4,17,0.0,982.1,7.85,45.7,463,1024.5,131.8,1.9,199.0,152.0,8.3,0,5,10,0,2026-05-23T14:33:09.214070+05:30
Moradabad,Uttar Pradesh,28.8386,78.7733,39.5,19,0.0,979.5,7.85,60.1,136,92.2,32.6,1.7,206.0,148.0,6.1,0,5,10,0,2026-05-23T14:33:09.214076+05:30
Saharanpur,Uttar Pradesh,29.9637,77.546,38.0,20,0.0,972.1,7.4,59.8,98,244.9,49.9,2.0,195.0,149.0,8.2,0,5,10,0,2026-05-23T14:33:09.214082+05:30
Jhansi,Uttar Pradesh,25.4484,78.5685,42.1,15,0.0,974.9,8.5,46.8,83,190.0,48.2,0.8,133.0,121.0,4.9,0,5,10,0,2026-05-23T14:33:12.603919+05:30
Surat,Gujarat,21.1702,72.8311,36.6,48,0.0,1006.2,7.6,41.4,61,19.4,15.3,10.1,309.0,66.0,35.5,0,5,7,1,2026-05-23T14:33:12.603952+05:30
Vadodara,Gujarat,22.3072,73.1812,41.0,31,0.0,1002.5,8.1,42.5,64,28.5,17.7,1.5,157.0,102.0,4.4,0,5,7,1,2026-05-23T14:33:12.603962+05:30
Rajkot,Gujarat,22.3039,70.8022,40.2,35,0.0,993.3,7.65,37.8,67,35.0,20.7,0.9,122.0,98.0,4.2,0,5,10,1,2026-05-23T14:33:12.603971+05:30
Thane,Maharashtra,19.2183,72.9781,32.8,64,0.0,1008.1,7.75,27.0,51,15.7,11.6,4.5,170.0,104.0,5.7,3,0,4,1,2026-05-23T14:33:12.603979+05:30
Nagpur,Maharashtra,21.1458,79.0882,43.0,14,0.0,970.2,8.95,56.9,76,36.3,18.9,3.3,164.0,128.0,10.3,0,5,10,0,2026-05-23T14:33:12.603987+05:30
Nashik,Maharashtra,19.9975,73.7898,35.0,45,0.0,946.3,8.15,43.2,50,14.9,9.7,1.0,149.0,96.0,1.7,0,5,7,1,2026-05-23T14:33:12.603994+05:30
Aurangabad,Maharashtra,19.8762,75.3433,38.2,26,0.1,944.1,9.05,45.4,59,28.5,17.0,1.0,147.0,113.0,3.1,3,5,10,0,2026-05-23T14:33:12.604002+05:30
Solapur,Maharashtra,17.6599,75.9064,34.1,44,0.0,957.1,9.0,49.3,69,24.7,17.5,1.8,159.0,118.0,3.1,0,5,7,1,2026-05-23T14:33:12.604009+05:30
Kolhapur,Maharashtra,16.705,74.2433,27.4,80,0.2,949.3,8.85,42.5,41,21.4,15.1,1.9,155.0,102.0,1.8,10,5,7,1,2026-05-23T14:33:12.604017+05:30
Goa,Goa,15.2993,74.124,31.1,70,0.0,998.5,5.8,30.6,34,6.3,4.3,0.6,128.0,61.0,0.6,3,5,3,1,2026-05-23T14:33:12.604024+05:30
Jodhpur,Rajasthan,26.2389,73.0243,41.8,16,0.0,981.2,8.4,42.8,169,382.8,74.7,0.7,131.0,105.0,3.5,0,5,10,0,2026-05-23T14:33:12.604032+05:30
Udaipur,Rajasthan,24.5854,73.7125,39.2,17,0.0,946.6,8.85,39.2,89,120.1,34.2,0.5,129.0,97.0,2.1,0,5,10,0,2026-05-23T14:33:12.604039+05:30
Kota,Rajasthan,25.2138,75.8648,42.5,15,0.0,976.6,8.4,50.0,82,112.9,36.7,0.8,133.0,110.0,3.7,0,5,10,0,2026-05-23T14:33:12.604046+05:30
Bikaner,Rajasthan,28.0229,73.3119,43.5,11,0.0,978.5,8.35,47.2,134,138.8,47.3,0.3,147.0,105.0,3.0,0,5,10,0,2026-05-23T14:33:12.604054+05:30
Ajmer,Rajasthan,26.4499,74.6399,38.7,18,0.0,953.8,8.4,51.8,108,150.4,45.5,0.6,141.0,108.0,3.2,0,5,10,0,2026-05-23T14:33:12.604061+05:30
Gwalior,Madhya Pradesh,26.2183,78.1828,41.8,14,0.0,979.7,8.25,48.2,104,178.8,46.2,0.6,147.0,125.0,4.2,0,5,10,0,2026-05-23T14:33:12.604068+05:30
Indore,Madhya Pradesh,22.7196,75.8577,39.6,15,0.0,947.8,8.7,54.7,65,40.4,19.0,0.9,161.0,111.0,3.1,0,5,10,0,2026-05-23T14:33:12.604075+05:30
Bhopal,Madhya Pradesh,23.2599,77.4126,41.1,14,0.0,952.3,8.75,44.6,62,59.5,21.8,0.6,145.0,111.0,2.8,0,5,10,0,2026-05-23T14:33:12.604082+05:30
Jabalpur,Madhya Pradesh,23.1815,79.9864,42.3,11,0.0,958.8,8.9,41.0,62,52.3,19.9,0.8,135.0,120.0,2.6,0,5,10,0,2026-05-23T14:33:12.604089+05:30
Ujjain,Madhya Pradesh,23.1765,75.7885,39.9,14,0.0,953.4,8.65,51.1,66,49.6,21.8,0.6,137.0,109.0,3.1,0,5,10,0,2026-05-23T14:33:12.604097+05:30
Visakhapatnam,Andhra Pradesh,17.6868,83.2185,42.9,23,0.0,997.4,9.1,32.0,142,74.5,65.2,12.2,559.0,263.0,56.5,0,5,10,1,2026-05-23T14:33:12.604104+05:30
Vijayawada,Andhra Pradesh,16.5062,80.648,42.2,29,0.0,997.4,8.7,44.6,87,38.8,33.4,2.1,217.0,173.0,8.9,0,5,10,1,2026-05-23T14:33:12.604111+05:30
Guntur,Andhra Pradesh,16.3067,80.4365,41.8,29,0.0,998.8,8.8,44.6,82,36.4,30.6,1.7,210.0,164.0,7.4,0,5,10,1,2026-05-23T14:33:12.604118+05:30
Nellore,Andhra Pradesh,14.4426,79.9865,37.7,36,0.0,1002.5,8.9,43.2,76,35.9,25.8,2.2,177.0,145.0,5.9,0,5,7,1,2026-05-23T14:33:12.604126+05:30
Kurnool,Andhra Pradesh,15.8281,78.0373,38.2,36,0.0,975.3,9.1,47.2,60,29.8,21.9,1.6,180.0,139.0,7.7,0,5,10,1,2026-05-23T14:33:12.604134+05:30
Kakinada,Andhra Pradesh,16.9891,82.2475,41.5,33,0.0,1001.5,9.1,47.2,119,50.3,41.2,3.3,255.0,193.0,5.6,0,5,7,1,2026-05-23T14:33:12.604141+05:30
Tirupati,Andhra Pradesh,13.6288,79.4192,37.6,37,0.0,988.5,8.05,37.8,72,29.4,20.5,1.3,169.0,125.0,3.1,0,5,10,1,2026-05-23T14:33:12.604148+05:30
Warangal,Telangana,17.9689,79.5941,41.1,20,0.0,975.6,9.15,49.7,102,36.7,30.2,2.3,234.0,169.0,10.4,0,5,10,0,2026-05-23T14:33:12.604155+05:30
Nizamabad,Telangana,18.6725,78.0941,40.1,23,0.0,963.2,9.1,48.2,90,30.0,21.2,1.1,173.0,132.0,4.6,0,5,10,0,2026-05-23T14:33:12.604162+05:30
Mysore,Karnataka,12.2958,76.6396,32.0,45,0.0,929.5,8.7,41.4,33,13.4,7.6,2.0,151.0,103.0,1.4,0,5,7,1,2026-05-23T14:33:12.604169+05:30
Mangalore,Karnataka,12.9141,74.856,29.5,79,0.1,1007.6,7.5,30.2,33,8.5,6.1,2.2,130.0,69.0,1.9,10,5,4,1,2026-05-23T14:33:12.604176+05:30
Hubli-Dharwad,Karnataka,15.3647,75.124,32.4,54,0.0,941.6,9.05,45.7,34,13.0,8.3,1.3,138.0,91.0,0.8,0,5,7,1,2026-05-23T14:33:12.604183+05:30
Belgaum,Karnataka,15.8497,74.4977,30.0,62,0.1,926.9,9.05,39.2,32,11.6,7.6,1.4,151.0,83.0,1.6,10,5,7,1,2026-05-23T14:33:16.000312+05:30
Coimbatore,Tamil Nadu,11.0168,76.9558,32.5,51,0.1,962.1,8.9,49.3,35,10.9,7.5,1.3,165.0,93.0,1.5,3,5,7,1,2026-05-23T14:33:16.000344+05:30
Madurai,Tamil Nadu,9.9252,78.1198,39.1,28,0.0,991.1,8.05,40.0,55,13.6,8.8,1.9,142.0,119.0,1.9,0,5,10,1,2026-05-23T14:33:16.000355+05:30
Trichy,Tamil Nadu,10.7905,78.7047,37.3,39,0.0,997.6,8.2,46.1,37,13.6,8.5,2.0,155.0,112.0,2.3,0,5,10,1,2026-05-23T14:33:16.000364+05:30
Salem,Tamil Nadu,11.6643,78.146,36.5,38,0.0,976.9,8.25,27.7,59,14.5,8.3,2.3,151.0,118.0,5.3,0,5,10,1,2026-05-23T14:33:16.000372+05:30
Tirunelveli,Tamil Nadu,8.7139,77.7567,36.8,39,0.0,1001.9,8.05,40.0,33,9.0,7.1,1.5,144.0,97.0,1.4,0,5,7,1,2026-05-23T14:33:16.000380+05:30
Vellore,Tamil Nadu,12.9165,79.1325,34.0,45,0.0,982.8,8.65,47.5,78,53.7,29.9,1.4,161.0,132.0,2.8,0,5,7,1,2026-05-23T14:33:16.000388+05:30
Erode,Tamil Nadu,11.341,77.7172,38.2,31,0.0,987.8,8.7,36.4,38,16.5,9.2,1.9,170.0,114.0,1.5,0,5,10,1,2026-05-23T14:33:16.000395+05:30
Kochi,Kerala,9.9312,76.2673,28.6,80,0.1,1010.2,7.9,30.6,56,11.4,8.6,2.0,126.0,85.0,2.1,10,0,4,1,2026-05-23T14:33:16.000403+05:30
Thiruvananthapuram,Kerala,8.5241,76.9366,30.0,73,0.0,1009.0,7.95,43.2,34,13.8,9.1,1.0,106.0,77.0,0.8,7,0,4,1,2026-05-23T14:33:16.000411+05:30
Kozhikode,Kerala,11.2588,75.7804,30.5,73,0.0,1008.7,8.5,28.1,35,8.6,6.3,0.6,128.0,85.0,1.1,3,0,4,1,2026-05-23T14:33:16.000418+05:30
Thrissur,Kerala,10.5276,76.2144,28.0,85,0.1,1008.5,8.4,29.5,56,10.2,8.0,1.3,131.0,83.0,1.5,10,0,4,1,2026-05-23T14:33:16.000426+05:30
Kannur,Kerala,11.8745,75.3704,30.5,74,0.0,1008.2,7.2,27.7,35,8.1,5.8,1.3,123.0,74.0,1.0,3,0,4,1,2026-05-23T14:33:16.000433+05:30
Patna,Bihar,25.5941,85.1376,40.7,25,0.0,993.8,8.85,40.3,156,117.6,69.6,2.7,363.0,222.0,18.7,0,5,10,1,2026-05-23T14:33:16.000440+05:30
Gaya,Bihar,24.7914,85.0002,42.1,18,0.0,987.6,8.9,36.4,159,199.3,57.9,1.4,211.0,169.0,8.1,0,5,10,0,2026-05-23T14:33:16.000447+05:30
Muzaffarpur,Bihar,26.1209,85.3647,37.1,46,0.0,994.1,8.85,27.4,155,112.2,67.8,2.9,398.0,213.0,18.5,0,5,10,1,2026-05-23T14:33:16.000454+05:30
Bhagalpur,Bihar,25.2425,87.0117,37.5,38,0.0,994.8,8.85,33.1,137,67.1,44.5,4.4,424.0,211.0,23.8,0,5,10,1,2026-05-23T14:33:16.000461+05:30
Ranchi,Jharkhand,23.3441,85.3096,36.7,21,0.0,934.7,9.3,42.8,128,106.6,29.5,1.2,149.0,143.0,5.2,0,5,10,0,2026-05-23T14:33:16.000469+05:30
Jamshedpur,Jharkhand,22.8046,86.2029,40.5,23,0.0,984.9,9.1,33.5,156,163.0,52.6,2.9,188.0,201.0,18.6,0,5,10,0,2026-05-23T14:33:16.000476+05:30
Dhanbad,Jharkhand,23.7957,86.4304,42.0,16,0.0,973.9,9.1,41.8,162,216.1,54.6,5.5,177.0,174.0,24.1,0,5,10,0,2026-05-23T14:33:16.000483+05:30
Bokaro,Jharkhand,23.6693,86.1511,41.7,17,0.0,977.5,9.1,39.2,164,208.2,50.6,5.7,188.0,168.0,26.7,0,5,10,0,2026-05-23T14:33:16.000490+05:30
Bhubaneswar,Odisha,20.2961,85.8245,36.8,58,0.0,996.8,8.55,34.9,106,59.6,44.2,2.1,247.0,154.0,10.1,0,5,10,1,2026-05-23T14:33:16.000496+05:30
Cuttack,Odisha,20.4625,85.8828,37.0,59,0.0,998.3,8.65,33.5,106,59.6,44.2,2.1,266.0,154.0,10.1,0,5,10,1,2026-05-23T14:33:16.000503+05:30
Rourkela,Odisha,22.2604,84.8536,41.3,18,0.0,979.8,9.0,34.2,161,113.2,33.6,1.3,193.0,153.0,6.9,0,5,10,0,2026-05-23T14:33:16.000510+05:30
Raipur,Chhattisgarh,21.2514,81.6296,43.9,11,0.0,970.3,8.75,39.6,146,47.1,21.9,4.3,146.0,152.0,17.6,0,5,10,0,2026-05-23T14:33:16.000517+05:30
Bhilai,Chhattisgarh,21.1938,81.3509,42.5,13,0.0,971.1,8.95,44.3,110,29.1,15.3,4.5,163.0,133.0,15.5,0,5,10,0,2026-05-23T14:33:16.000523+05:30
Guwahati,Assam,26.1158,91.7086,29.5,77,0.0,996.3,8.75,35.6,61,19.6,11.9,1.3,278.0,119.0,3.5,7,5,7,1,2026-05-23T14:33:16.000530+05:30
Agartala,Tripura,23.8315,91.2868,31.9,75,0.0,1001.8,8.8,36.7,86,54.2,33.6,4.0,202.0,108.0,3.9,3,5,4,1,2026-05-23T14:33:16.000537+05:30
Shillong,Meghalaya,25.5788,91.8933,25.8,58,0.0,855.8,9.05,51.5,46,19.6,9.6,1.6,256.0,115.0,3.3,4,5,7,1,2026-05-23T14:33:16.000544+05:30
Imphal,Manipur,24.817,93.9368,29.1,57,0.0,920.5,8.7,36.4,65,29.4,15.9,1.2,223.0,98.0,1.7,4,5,7,1,2026-05-23T14:33:16.000550+05:30
Aizawl,Mizoram,23.7271,92.7176,25.9,68,0.1,891.2,9.0,38.2,57,35.5,19.1,0.8,196.0,95.0,1.8,10,5,7,1,2026-05-23T14:33:16.000558+05:30
Kohima,Nagaland,25.6701,94.1077,22.9,81,0.1,854.0,9.3,32.0,43,8.3,5.1,0.9,217.0,98.0,1.4,6,5,7,1,2026-05-23T14:33:16.000565+05:30
Gangtok,Sikkim,27.3314,88.6138,21.4,77,0.1,835.0,9.15,32.8,71,13.4,8.5,1.2,280.0,133.0,2.1,6,5,7,1,2026-05-23T14:33:16.000572+05:30
Siliguri,West Bengal,26.7271,88.3953,28.9,73,0.1,987.8,8.75,24.8,101,30.5,17.5,2.0,398.0,146.0,4.1,10,5,7,1,2026-05-23T14:33:19.566299+05:30
Durgapur,West Bengal,23.5204,87.3119,31.9,81,0.0,989.4,9.0,40.3,154,170.9,90.1,8.8,710.0,260.0,51.4,3,5,7,1,2026-05-23T14:33:19.566331+05:30
Asansol,West Bengal,23.6739,86.9524,36.8,48,0.0,987.2,9.05,36.0,153,204.4,71.7,7.0,289.0,214.0,33.0,0,5,10,1,2026-05-23T14:33:19.566342+05:30
Pondicherry,Puducherry,11.9139,79.8145,34.1,53,0.0,1006.4,6.25,37.4,62,28.3,23.1,10.4,204.0,147.0,12.4,0,5,4,1,2026-05-23T14:33:19.566351+05:30
Port Blair,Andaman and Nicobar Islands,11.6234,92.7265,29.9,72,0.1,1005.7,8.35,37.1,33,5.8,3.6,0.5,116.0,68.0,0.4,10,5,4,1,2026-05-23T14:33:19.566360+05:30
Haridwar,Uttarakhand,29.9457,78.1642,39.2,16,0.0,970.0,7.55,48.2,97,85.0,27.5,1.2,169.0,148.0,6.2,0,5,10,0,2026-05-23T14:33:19.566368+05:30
Rishikesh,Uttarakhand,30.0869,78.2676,38.3,15,0.0,962.7,7.65,40.3,104,51.5,19.8,0.7,158.0,140.0,3.6,0,5,10,0,2026-05-23T14:33:19.566376+05:30
Nainital,Uttarakhand,29.3919,79.4542,23.7,35,0.0,807.5,8.5,49.0,144,70.1,24.4,1.1,185.0,138.0,2.8,0,5,7,0,2026-05-23T14:33:19.566384+05:30
Mussoorie,Uttarakhand,30.4599,78.0664,24.7,26,0.0,805.5,8.05,55.8,89,56.2,20.1,1.0,166.0,138.0,3.5,0,5,7,0,2026-05-23T14:33:19.566392+05:30
Dharamshala,Himachal Pradesh,32.219,76.3234,27.2,29,0.0,869.9,8.1,44.3,56,45.6,13.1,0.5,146.0,123.0,1.1,4,5,7,0,2026-05-23T14:33:19.566399+05:30
Dalhousie,Himachal Pradesh,32.5387,75.971,23.6,26,0.1,807.7,8.65,45.0,74,51.3,15.9,1.3,142.0,130.0,1.3,3,5,7,0,2026-05-23T14:33:19.566408+05:30
Patiala,Punjab,30.3398,76.3869,39.5,19,0.0,974.8,7.65,50.4,291,719.0,89.9,1.0,192.0,135.0,4.4,0,5,10,0,2026-05-23T14:33:19.566416+05:30
Bhatinda,Punjab,30.211,74.9455,40.4,17,0.0,980.3,8.3,33.1,90,122.5,38.0,1.7,193.0,148.0,10.6,0,5,10,0,2026-05-23T14:33:19.566423+05:30
Rohtak,Haryana,28.8955,76.6066,39.0,20,0.0,978.9,7.75,47.2,853,1002.1,127.1,1.6,194.0,142.0,5.7,0,5,10,0,2026-05-23T14:33:19.566431+05:30
Panipat,Haryana,29.3909,76.9635,39.8,19,0.0,977.0,7.05,52.2,1527,1858.9,210.9,2.2,185.0,147.0,9.1,0,5,10,0,2026-05-23T14:33:19.566438+05:30
Mathura,Uttar Pradesh,27.4924,77.6737,42.0,14,0.0,982.9,8.0,43.2,567,894.1,106.4,1.3,189.0,124.0,3.2,0,5,10,0,2026-05-23T14:33:19.566446+05:30
Vrindavan,Uttar Pradesh,27.5823,77.7027,41.7,15,0.0,983.3,8.0,42.5,567,894.1,106.4,1.3,189.0,124.0,3.2,0,5,10,0,2026-05-23T14:33:19.566453+05:30
Ayodhya,Uttar Pradesh,26.7922,82.1998,40.9,19,0.0,989.1,8.35,46.1,155,112.9,41.0,1.3,185.0,151.0,5.7,0,5,10,0,2026-05-23T14:33:19.566460+05:30
Ratlam,Madhya Pradesh,23.3315,75.0367,39.2,17,0.0,954.8,8.55,47.2,66,48.8,22.8,0.5,127.0,108.0,3.5,0,5,10,0,2026-05-23T14:33:19.566467+05:30
Sagar,Madhya Pradesh,23.8388,78.7378,41.1,12,0.0,948.7,8.75,44.6,61,77.1,25.3,0.6,134.0,120.0,3.1,0,5,10,0,2026-05-23T14:33:19.566475+05:30
Satna,Madhya Pradesh,24.6005,80.8322,41.5,14,0.0,968.1,8.8,47.9,76,243.1,55.2,0.7,153.0,137.0,4.8,0,5,10,0,2026-05-23T14:33:19.566482+05:30
Akola,Maharashtra,20.7002,77.0082,41.5,20,0.0,973.2,8.9,49.0,66,27.7,17.2,1.2,143.0,117.0,5.3,0,5,10,0,2026-05-23T14:33:19.566490+05:30
Amravati,Maharashtra,20.9374,77.7796,41.7,18,0.0,965.3,8.9,53.6,67,27.7,17.2,1.4,149.0,120.0,5.7,0,5,10,0,2026-05-23T14:33:19.566498+05:30
Latur,Maharashtra,18.4088,76.5604,34.6,39,0.1,940.2,9.05,50.8,82,31.8,21.7,0.9,156.0,131.0,4.2,3,5,7,1,2026-05-23T14:33:19.566505+05:30
Nanded,Maharashtra,19.1383,77.3091,41.3,23,0.0,966.9,9.0,52.2,85,28.0,18.7,1.0,163.0,126.0,4.2,0,5,10,0,2026-05-23T14:33:19.566512+05:30
Gulbarga,Karnataka,17.3297,76.8343,38.3,33,0.0,957.7,9.05,45.0,69,26.1,18.2,1.8,181.0,127.0,3.4,0,5,10,1,2026-05-23T14:33:19.566520+05:30
Bidar,Karnataka,17.9104,77.5199,37.6,31,0.0,935.3,8.9,44.6,93,30.2,21.5,1.3,172.0,142.0,6.4,0,5,10,1,2026-05-23T14:33:19.566527+05:30
Hospet,Karnataka,15.2689,76.3909,33.4,51,0.0,955.8,9.0,50.8,39,17.2,11.2,1.6,154.0,110.0,2.3,0,5,7,1,2026-05-23T14:33:19.566534+05:30
Tirupur,Tamil Nadu,11.1085,77.3411,33.7,47,0.1,974.9,8.95,50.8,38,14.8,8.9,1.8,164.0,107.0,1.8,3,5,7,1,2026-05-23T14:33:19.566540+05:30
Alappuzha,Kerala,9.4981,76.3388,29.2,77,0.0,1010.3,7.5,36.0,45,13.0,9.5,1.9,104.0,84.0,1.9,7,0,4,1,2026-05-23T14:33:19.566548+05:30
Munnar,Kerala,10.0889,77.0595,21.3,80,0.0,859.1,8.65,32.4,31,8.0,6.2,0.9,138.0,83.0,0.9,3,5,7,1,2026-05-23T14:33:19.566555+05:30
Silchar,Assam,24.8333,92.7789,30.4,74,0.0,1000.9,8.45,38.9,67,22.1,13.5,1.4,219.0,102.0,2.8,3,5,4,1,2026-05-23T14:33:19.566562+05:30
Dibrugarh,Assam,27.4728,94.912,27.2,84,0.0,991.1,8.9,33.1,86,11.7,10.1,1.7,267.0,118.0,1.0,7,5,7,1,2026-05-23T14:33:19.566569+05:30
