city,state,latitude,longitude,temp,humidity,rain,pressure,uv_index,wind_gusts,aqi,pm10,pm2_5,mosquito_risk,arthritis_risk,migraine_risk,frizz_risk,updated_at
Delhi,Delhi,28.6139,77.209,27.9,47,0.0,985.2,6.9,40.7,153,159.3,39.7,4,5,7,0,2026-04-05T10:45:12.046347+05:30
Mumbai,Maharashtra,19.076,72.8777,28.0,68,0.0,1011.7,7.9,23.8,70,55.6,23.3,7,0,4,1,2026-04-05T10:45:12.046390+05:30
Bangalore,Karnataka,12.9716,77.5946,29.0,55,0.0,915.0,9.2,32.4,108,34.9,29.9,4,5,7,1,2026-04-05T10:45:12.046405+05:30
Hyderabad,Telangana,17.385,78.4867,32.5,43,0.0,955.8,9.0,27.4,128,36.7,31.4,0,5,7,1,2026-04-05T10:45:12.046414+05:30
Chennai,Tamil Nadu,13.0827,80.2707,34.5,54,0.0,1008.5,9.35,31.7,56,29.0,24.2,0,0,4,1,2026-04-05T10:45:12.046423+05:30
Kolkata,West Bengal,22.5726,88.3639,33.1,48,0.0,1007.1,6.3,29.2,142,60.8,50.1,0,5,4,1,2026-04-05T10:45:12.046432+05:30
Pune,Maharashtra,18.5204,73.8567,29.7,45,0.0,951.5,8.5,40.7,76,85.2,30.0,4,5,7,1,2026-04-05T10:45:12.046444+05:30
Ahmedabad,Gujarat,23.0225,72.5714,30.8,34,0.0,1005.4,7.9,25.6,55,33.6,14.5,0,5,4,0,2026-04-05T10:45:12.046452+05:30
Jaipur,Rajasthan,26.9124,75.7873,28.0,42,0.0,962.2,7.55,37.8,79,117.8,21.1,4,5,7,0,2026-04-05T10:45:12.046460+05:30
Lucknow,Uttar Pradesh,26.8467,80.9462,29.4,48,0.0,995.7,7.45,46.8,131,60.1,20.3,4,5,7,1,2026-04-05T10:45:12.046468+05:30
Kanpur,Uttar Pradesh,26.4499,80.3319,27.8,61,0.0,994.4,7.45,40.7,152,197.9,33.1,7,5,7,1,2026-04-05T10:45:12.046475+05:30
Chandigarh,Chandigarh,30.7333,76.7794,27.0,46,0.0,971.0,6.85,31.7,79,82.0,18.8,4,5,7,0,2026-04-05T10:45:12.046482+05:30
Srinagar,Jammu and Kashmir,34.0837,74.7973,12.8,70,0.0,842.2,7.8,19.1,61,23.6,14.8,3,5,7,0,2026-04-05T10:45:12.046489+05:30
Jammu,Jammu and Kashmir,32.7266,74.857,26.6,39,0.0,975.3,7.5,28.4,67,26.0,8.8,4,5,7,0,2026-04-05T10:45:12.046496+05:30
Amritsar,Punjab,31.634,74.8723,24.3,60,0.0,984.1,7.4,26.3,97,78.9,27.9,0,5,7,0,2026-04-05T10:45:12.046503+05:30
Ludhiana,Punjab,30.901,75.8573,25.8,53,0.0,981.5,7.05,31.0,92,77.1,28.1,4,5,7,0,2026-04-05T10:45:12.046509+05:30
Jalandhar,Punjab,31.326,75.5762,25.0,54,0.0,982.7,7.25,24.8,87,74.5,24.4,4,5,7,0,2026-04-05T10:45:12.046517+05:30
Dehradun,Uttarakhand,30.6284,78.0322,17.8,57,0.0,831.2,6.65,39.2,40,20.3,5.9,0,5,7,0,2026-04-05T10:45:12.046524+05:30
Shimla,Himachal Pradesh,31.1048,77.1734,16.9,48,0.0,785.9,6.6,32.0,45,21.0,6.1,0,5,7,0,2026-04-05T10:45:12.046530+05:30
Manali,Himachal Pradesh,32.2396,77.1887,16.7,60,0.0,819.7,9.5,27.4,47,8.4,3.2,0,5,7,0,2026-04-05T10:45:12.046536+05:30
Gurgaon,Haryana,28.4595,77.0266,26.6,55,0.0,984.1,7.0,35.6,222,387.4,71.7,4,5,7,1,2026-04-05T10:45:12.046543+05:30
Noida,Uttar Pradesh,28.5355,77.391,28.4,47,0.0,986.7,6.95,39.2,222,387.4,71.7,4,5,7,0,2026-04-05T10:45:12.046550+05:30
Ghaziabad,Uttar Pradesh,28.6692,77.4538,27.7,50,0.0,984.9,6.9,42.1,151,128.5,31.1,4,5,7,1,2026-04-05T10:45:12.046556+05:30
Faridabad,Haryana,28.4089,77.3178,27.8,51,0.0,986.1,6.95,36.4,222,387.4,71.7,4,5,7,1,2026-04-05T10:45:12.046563+05:30
Meerut,Uttar Pradesh,28.9845,77.7064,27.9,50,0.0,983.5,6.8,34.6,151,128.5,31.1,4,5,7,1,2026-04-05T10:45:12.046569+05:30
Agra,Uttar Pradesh,27.1767,78.0081,27.8,55,0.0,990.3,7.3,32.4,356,328.8,48.1,4,5,7,1,2026-04-05T10:45:12.046575+05:30
Varanasi,Uttar Pradesh,25.3176,82.9739,29.3,59,0.0,1000.4,8.05,35.6,84,41.9,22.8,4,5,4,1,2026-04-05T10:45:12.046585+05:30
Prayagraj,Uttar Pradesh,25.4358,81.8463,28.6,64,0.0,998.9,7.95,32.4,89,37.6,18.0,7,5,7,1,2026-04-05T10:45:12.046592+05:30
Gorakhpur,Uttar Pradesh,26.7606,83.3732,30.4,41,0.0,999.5,7.85,45.4,99,126.2,36.6,0,5,7,0,2026-04-05T10:45:12.046600+05:30
Bareilly,Uttar Pradesh,28.367,79.4304,27.1,55,0.0,989.0,7.2,35.3,82,57.3,22.3,4,5,7,1,2026-04-05T10:45:12.046607+05:30
Aligarh,Uttar Pradesh,27.8974,78.088,29.2,46,0.0,987.8,7.1,45.0,219,206.3,50.6,4,5,7,1,2026-04-05T10:45:12.046613+05:30
Moradabad,Uttar Pradesh,28.8386,78.7733,27.9,55,0.0,985.4,7.0,26.3,96,70.8,22.8,4,5,7,1,2026-04-05T10:45:12.046619+05:30
Saharanpur,Uttar Pradesh,29.9637,77.546,28.8,41,0.0,977.4,6.6,30.6,96,58.4,19.2,4,5,7,0,2026-04-05T10:45:12.046625+05:30
Jhansi,Uttar Pradesh,25.4484,78.5685,29.6,51,0.0,980.3,7.85,28.4,71,33.2,15.2,4,5,7,1,2026-04-05T10:45:15.296377+05:30
Surat,Gujarat,21.1702,72.8311,28.8,47,0.0,1010.4,7.7,27.7,77,41.6,31.9,4,0,4,1,2026-04-05T10:45:15.296409+05:30
Vadodara,Gujarat,22.3072,73.1812,29.8,45,0.0,1007.8,7.9,20.5,77,28.2,18.1,4,5,4,1,2026-04-05T10:45:15.296418+05:30
Rajkot,Gujarat,22.3039,70.8022,29.1,45,0.0,998.1,7.65,33.5,45,29.1,9.5,4,5,7,0,2026-04-05T10:45:15.296427+05:30
Thane,Maharashtra,19.2183,72.9781,30.1,52,0.0,1011.1,7.9,34.6,70,55.6,23.3,0,0,4,1,2026-04-05T10:45:15.296434+05:30
Nagpur,Maharashtra,21.1458,79.0882,30.9,46,0.0,975.9,8.7,31.3,100,35.3,28.1,0,5,7,1,2026-04-05T10:45:15.296441+05:30
Nashik,Maharashtra,19.9975,73.7898,26.5,55,0.0,948.6,8.15,36.4,52,56.5,17.1,4,5,7,1,2026-04-05T10:45:15.296448+05:30
Aurangabad,Maharashtra,19.8762,75.3433,29.5,34,0.0,947.3,8.85,40.0,59,53.3,16.8,4,5,7,0,2026-04-05T10:45:15.296456+05:30
Solapur,Maharashtra,17.6599,75.9064,31.2,37,0.0,960.5,8.7,29.9,82,26.5,11.9,0,5,7,0,2026-04-05T10:45:15.296463+05:30
Kolhapur,Maharashtra,16.705,74.2433,29.2,45,0.0,951.1,8.4,44.6,72,34.8,19.4,4,5,7,0,2026-04-05T10:45:15.296470+05:30
Goa,Goa,15.2993,74.124,31.7,53,0.0,1001.1,9.05,37.4,63,32.0,16.0,0,5,4,1,2026-04-05T10:45:15.296476+05:30
Jodhpur,Rajasthan,26.2389,73.0243,29.0,36,0.0,986.4,7.8,26.3,75,76.8,14.8,4,5,7,0,2026-04-05T10:45:15.296483+05:30
Udaipur,Rajasthan,24.5854,73.7125,26.6,34,0.0,949.3,8.4,35.3,35,59.1,10.2,4,5,7,0,2026-04-05T10:45:15.296490+05:30
Kota,Rajasthan,25.2138,75.8648,30.9,26,0.0,981.5,7.3,29.9,64,52.6,15.5,0,5,7,0,2026-04-05T10:45:15.296496+05:30
Bikaner,Rajasthan,28.0229,73.3119,27.2,44,0.0,985.4,7.6,27.4,50,37.8,16.1,4,5,7,0,2026-04-05T10:45:15.296503+05:30
Ajmer,Rajasthan,26.4499,74.6399,27.7,34,0.0,957.2,7.75,30.6,54,39.3,10.7,4,5,7,0,2026-04-05T10:45:15.296509+05:30
Gwalior,Madhya Pradesh,26.2183,78.1828,28.8,53,0.0,985.5,7.6,50.8,73,41.2,16.8,4,5,7,1,2026-04-05T10:45:15.296516+05:30
Indore,Madhya Pradesh,22.7196,75.8577,28.6,33,0.0,951.2,8.35,29.5,66,11.7,7.2,4,5,7,0,2026-04-05T10:45:15.296523+05:30
Bhopal,Madhya Pradesh,23.2599,77.4126,29.6,32,0.0,956.7,8.3,34.6,62,21.7,10.8,4,5,7,0,2026-04-05T10:45:15.296529+05:30
Jabalpur,Madhya Pradesh,23.1815,79.9864,28.3,55,0.0,964.5,8.3,33.5,76,51.8,25.9,4,5,7,1,2026-04-05T10:45:15.296535+05:30
Ujjain,Madhya Pradesh,23.1765,75.7885,28.5,35,0.0,956.8,8.25,32.4,64,22.1,7.7,4,5,7,0,2026-04-05T10:45:15.296542+05:30
Visakhapatnam,Andhra Pradesh,17.6868,83.2185,34.3,52,0.0,1004.9,9.05,36.7,71,33.5,28.6,0,5,4,1,2026-04-05T10:45:15.296548+05:30
Vijayawada,Andhra Pradesh,16.5062,80.648,33.3,57,0.0,1004.4,9.15,23.8,67,24.1,20.7,0,5,4,1,2026-04-05T10:45:15.296555+05:30
Guntur,Andhra Pradesh,16.3067,80.4365,33.7,53,0.0,1005.5,9.2,33.5,67,24.2,21.5,0,5,4,1,2026-04-05T10:45:15.296561+05:30
Nellore,Andhra Pradesh,14.4426,79.9865,34.8,55,0.0,1007.0,9.3,27.7,58,24.4,22.2,0,5,4,1,2026-04-05T10:45:15.296569+05:30
Kurnool,Andhra Pradesh,15.8281,78.0373,35.3,34,0.0,978.8,9.1,33.8,81,35.6,30.7,0,5,10,1,2026-04-05T10:45:15.296577+05:30
Kakinada,Andhra Pradesh,16.9891,82.2475,34.7,52,0.0,1008.7,9.1,29.9,52,22.6,17.8,0,0,4,1,2026-04-05T10:45:15.296584+05:30
Tirupati,Andhra Pradesh,13.6288,79.4192,34.4,47,0.0,993.4,8.7,36.0,72,38.8,35.0,0,5,7,1,2026-04-05T10:45:15.296590+05:30
Warangal,Telangana,17.9689,79.5941,31.3,60,0.0,981.5,6.0,37.4,149,72.4,60.3,0,5,3,1,2026-04-05T10:45:15.296596+05:30
Nizamabad,Telangana,18.6725,78.0941,31.2,46,0.0,967.7,7.75,55.1,123,25.0,17.5,0,5,7,1,2026-04-05T10:45:15.296603+05:30
Mysore,Karnataka,12.2958,76.6396,28.8,57,0.0,931.5,9.0,33.1,78,25.6,21.9,4,5,7,1,2026-04-05T10:45:15.296609+05:30
Mangalore,Karnataka,12.9141,74.856,28.7,79,0.0,1009.7,9.0,34.2,65,34.0,16.8,7,0,4,1,2026-04-05T10:45:15.296616+05:30
Hubli-Dharwad,Karnataka,15.3647,75.124,29.9,41,0.0,944.4,9.25,37.1,66,18.5,13.2,4,5,7,0,2026-04-05T10:45:15.296623+05:30
Belgaum,Karnataka,15.8497,74.4977,28.3,43,0.0,929.0,9.3,38.5,62,25.1,13.5,4,5,7,0,2026-04-05T10:45:18.546874+05:30
Coimbatore,Tamil Nadu,11.0168,76.9558,32.4,50,0.0,964.6,9.5,49.7,64,26.7,23.1,0,5,7,1,2026-04-05T10:45:18.546905+05:30
Madurai,Tamil Nadu,9.9252,78.1198,34.1,47,0.0,994.8,3.9,28.4,75,21.2,19.8,0,5,3,1,2026-04-05T10:45:18.546916+05:30
Trichy,Tamil Nadu,10.7905,78.7047,34.9,45,0.0,1001.4,9.2,38.5,88,25.3,23.5,0,5,4,1,2026-04-05T10:45:18.546924+05:30
Salem,Tamil Nadu,11.6643,78.146,33.7,49,0.0,979.5,9.5,27.0,92,36.2,31.9,0,5,7,1,2026-04-05T10:45:18.546932+05:30
Tirunelveli,Tamil Nadu,8.7139,77.7567,35.6,38,0.0,1004.7,9.4,24.5,61,14.3,12.5,0,5,7,1,2026-04-05T10:45:18.546940+05:30
Vellore,Tamil Nadu,12.9165,79.1325,34.0,47,0.0,986.3,9.45,36.4,102,50.8,46.1,0,5,7,1,2026-04-05T10:45:18.546947+05:30
Erode,Tamil Nadu,11.341,77.7172,34.3,48,0.0,991.1,9.45,29.5,77,29.0,25.7,0,5,7,1,2026-04-05T10:45:18.546955+05:30
Kochi,Kerala,9.9312,76.2673,28.9,78,0.0,1011.1,8.8,29.9,64,21.1,17.5,7,0,4,1,2026-04-05T10:45:18.546962+05:30
Thiruvananthapuram,Kerala,8.5241,76.9366,28.7,80,0.0,1010.2,8.85,36.0,53,17.4,14.6,7,0,4,1,2026-04-05T10:45:18.546970+05:30
Kozhikode,Kerala,11.2588,75.7804,30.2,72,0.0,1010.5,9.2,32.4,53,25.0,17.7,3,0,4,1,2026-04-05T10:45:18.546978+05:30
Thrissur,Kerala,10.5276,76.2144,32.1,63,0.0,1009.5,9.2,35.6,60,18.4,15.3,3,0,4,1,2026-04-05T10:45:18.546986+05:30
Kannur,Kerala,11.8745,75.3704,30.8,67,0.0,1009.9,9.15,36.7,68,29.7,16.4,3,0,4,1,2026-04-05T10:45:18.546994+05:30
Patna,Bihar,25.5941,85.1376,31.8,40,0.0,1002.5,8.25,45.0,87,47.0,21.4,0,5,4,1,2026-04-05T10:45:18.547002+05:30
Gaya,Bihar,24.7914,85.0002,31.3,48,0.0,996.4,8.35,46.8,76,51.5,26.5,0,5,7,1,2026-04-05T10:45:18.547010+05:30
Muzaffarpur,Bihar,26.1209,85.3647,32.1,37,0.0,1002.1,8.25,34.6,90,60.5,24.1,0,5,4,0,2026-04-05T10:45:18.547018+05:30
Bhagalpur,Bihar,25.2425,87.0117,30.9,48,0.0,1002.6,8.3,34.6,82,105.7,41.4,0,5,4,1,2026-04-05T10:45:18.547025+05:30
Ranchi,Jharkhand,23.3441,85.3096,28.6,51,0.0,940.6,8.2,46.4,62,66.1,26.1,4,5,7,1,2026-04-05T10:45:18.547033+05:30
Jamshedpur,Jharkhand,22.8046,86.2029,31.0,47,0.0,993.0,8.2,23.4,109,51.5,29.1,0,5,7,1,2026-04-05T10:45:18.547040+05:30
Dhanbad,Jharkhand,23.7957,86.4304,31.5,41,0.0,982.3,8.1,39.6,100,74.0,29.1,0,5,7,1,2026-04-05T10:45:18.547047+05:30
Bokaro,Jharkhand,23.6693,86.1511,30.7,47,0.0,986.4,8.4,53.6,100,68.2,28.1,0,5,7,1,2026-04-05T10:45:18.547055+05:30
Bhubaneswar,Odisha,20.2961,85.8245,29.8,73,0.0,1004.3,8.5,26.3,98,47.1,43.0,7,5,4,1,2026-04-05T10:45:18.547062+05:30
Cuttack,Odisha,20.4625,85.8828,31.1,67,0.0,1005.9,8.7,28.8,98,47.1,43.0,3,5,4,1,2026-04-05T10:45:18.547069+05:30
Rourkela,Odisha,22.2604,84.8536,28.9,58,0.0,988.0,8.7,33.8,91,39.6,26.9,4,5,7,1,2026-04-05T10:45:18.547078+05:30
Raipur,Chhattisgarh,21.2514,81.6296,31.6,48,0.0,977.2,8.7,31.3,142,36.2,32.8,0,5,7,1,2026-04-05T10:45:18.547085+05:30
Bhilai,Chhattisgarh,21.1938,81.3509,31.7,49,0.0,977.6,8.7,32.0,137,30.9,27.0,0,5,7,1,2026-04-05T10:45:18.547092+05:30
Guwahati,Assam,26.1158,91.7086,29.6,72,0.0,1000.2,7.5,51.8,143,65.0,48.0,7,5,4,1,2026-04-05T10:45:18.547099+05:30
Agartala,Tripura,23.8315,91.2868,27.5,84,0.0,1007.3,8.35,27.0,106,57.2,51.6,7,5,4,1,2026-04-05T10:45:18.547106+05:30
Shillong,Meghalaya,25.5788,91.8933,21.6,53,0.0,858.1,7.65,67.3,103,45.8,31.7,0,5,7,0,2026-04-05T10:45:18.547114+05:30
Imphal,Manipur,24.817,93.9368,22.9,74,0.0,924.6,8.85,83.9,136,52.6,41.9,3,5,7,1,2026-04-05T10:45:18.547122+05:30
Aizawl,Mizoram,23.7271,92.7176,25.4,66,0.0,895.3,8.65,55.8,142,56.0,42.3,7,5,7,1,2026-04-05T10:45:18.547129+05:30
Kohima,Nagaland,25.6701,94.1077,22.7,49,0.0,856.7,8.1,95.0,104,46.0,31.2,0,5,7,0,2026-04-05T10:45:18.547136+05:30
Gangtok,Sikkim,27.3314,88.6138,18.6,80,0.0,838.6,8.55,19.8,110,34.7,23.5,3,5,7,0,2026-04-05T10:45:18.547144+05:30
Siliguri,West Bengal,26.7271,88.3953,26.0,75,0.0,993.6,8.15,34.9,158,74.3,55.2,7,5,7,1,2026-04-05T10:45:21.800524+05:30
Durgapur,West Bengal,23.5204,87.3119,31.2,45,0.0,997.2,7.85,38.2,110,78.0,30.3,0,5,7,1,2026-04-05T10:45:21.800554+05:30
Asansol,West Bengal,23.6739,86.9524,31.2,44,0.0,995.8,7.9,36.0,88,77.1,29.5,0,5,7,1,2026-04-05T10:45:21.800564+05:30
Pondicherry,Puducherry,11.9139,79.8145,34.4,53,0.0,1009.8,9.35,27.7,53,25.2,23.1,0,0,4,1,2026-04-05T10:45:21.800572+05:30
Port Blair,Andaman and Nicobar Islands,11.6234,92.7265,29.6,69,0.0,1007.9,8.75,19.8,45,16.2,10.9,7,5,4,1,2026-04-05T10:45:21.800580+05:30
Haridwar,Uttarakhand,29.9457,78.1642,28.8,43,0.0,975.5,6.7,18.7,69,47.3,13.7,4,5,7,0,2026-04-05T10:45:21.800588+05:30
Rishikesh,Uttarakhand,30.0869,78.2676,28.6,39,0.0,968.1,6.6,22.3,42,38.4,10.6,4,5,7,0,2026-04-05T10:45:21.800596+05:30
Nainital,Uttarakhand,29.3919,79.4542,22.0,51,0.0,808.4,6.2,28.1,51,31.7,10.7,0,5,7,0,2026-04-05T10:45:21.800604+05:30
Mussoorie,Uttarakhand,30.4599,78.0664,19.4,50,0.0,804.2,6.55,45.7,50,26.1,8.5,0,5,7,0,2026-04-05T10:45:21.800611+05:30
Dharamshala,Himachal Pradesh,32.219,76.3234,20.4,61,0.0,870.1,7.05,32.8,46,10.2,3.8,3,5,7,0,2026-04-05T10:45:21.800618+05:30
Dalhousie,Himachal Pradesh,32.5387,75.971,18.8,43,0.0,805.0,6.8,25.2,60,20.0,6.7,0,5,7,0,2026-04-05T10:45:21.800626+05:30
Patiala,Punjab,30.3398,76.3869,27.0,46,0.0,980.7,6.6,34.2,114,185.3,36.0,4,5,7,0,2026-04-05T10:45:21.800632+05:30
Bhatinda,Punjab,30.211,74.9455,25.4,52,0.0,987.1,7.35,30.2,91,110.8,32.6,4,5,7,0,2026-04-05T10:45:21.800639+05:30
Rohtak,Haryana,28.8955,76.6066,25.3,58,0.0,984.7,6.15,36.7,152,211.9,49.8,4,5,7,1,2026-04-05T10:45:21.800646+05:30
Panipat,Haryana,29.3909,76.9635,26.3,53,0.0,982.8,6.5,32.0,308,201.2,41.7,4,5,7,0,2026-04-05T10:45:21.800652+05:30
Mathura,Uttar Pradesh,27.4924,77.6737,27.5,58,0.0,989.2,7.2,31.7,308,181.1,41.9,4,5,7,1,2026-04-05T10:45:21.800659+05:30
Vrindavan,Uttar Pradesh,27.5823,77.7027,27.7,58,0.0,989.5,7.2,42.5,308,181.1,41.9,4,5,7,1,2026-04-05T10:45:21.800665+05:30
Ayodhya,Uttar Pradesh,26.7922,82.1998,28.9,43,0.0,998.2,7.6,46.1,113,89.9,26.7,4,5,7,0,2026-04-05T10:45:21.800671+05:30
Ratlam,Madhya Pradesh,23.3315,75.0367,28.6,32,0.0,958.2,8.1,33.5,58,18.8,6.9,4,5,7,0,2026-04-05T10:45:21.800677+05:30
Sagar,Madhya Pradesh,23.8388,78.7378,29.0,40,0.0,953.0,8.05,34.2,60,25.4,11.1,4,5,7,0,2026-04-05T10:45:21.800683+05:30
Satna,Madhya Pradesh,24.6005,80.8322,28.6,61,0.0,973.9,8.15,30.2,72,37.0,15.9,7,5,7,1,2026-04-05T10:45:21.800690+05:30
Akola,Maharashtra,20.7002,77.0082,31.7,42,0.0,978.0,8.65,33.8,75,44.4,16.6,0,5,7,1,2026-04-05T10:45:21.800696+05:30
Amravati,Maharashtra,20.9374,77.7796,32.1,38,0.0,970.1,8.65,34.2,82,40.4,15.8,0,5,7,0,2026-04-05T10:45:21.800704+05:30
Latur,Maharashtra,18.4088,76.5604,29.7,37,0.0,943.0,8.55,30.2,98,38.3,16.7,4,5,7,0,2026-04-05T10:45:21.800710+05:30
Nanded,Maharashtra,19.1383,77.3091,31.6,42,0.0,971.7,8.75,28.4,105,34.0,17.9,0,5,7,1,2026-04-05T10:45:21.800717+05:30
Gulbarga,Karnataka,17.3297,76.8343,32.5,38,0.0,961.7,9.0,34.6,111,43.1,35.0,0,5,7,1,2026-04-05T10:45:21.800722+05:30
Bidar,Karnataka,17.9104,77.5199,31.1,39,0.0,938.6,8.85,33.5,130,37.5,30.0,0,5,7,0,2026-04-05T10:45:21.800729+05:30
Hospet,Karnataka,15.2689,76.3909,29.9,48,0.0,959.3,9.25,27.0,83,21.2,17.3,4,5,7,1,2026-04-05T10:45:21.800734+05:30
Tirupur,Tamil Nadu,11.1085,77.3411,33.4,47,0.0,977.6,9.55,36.0,76,28.3,24.9,0,5,7,1,2026-04-05T10:45:21.800741+05:30
Alappuzha,Kerala,9.4981,76.3388,28.9,78,0.0,1011.2,9.05,28.8,62,19.8,17.2,7,0,4,1,2026-04-05T10:45:21.800747+05:30
Munnar,Kerala,10.0889,77.0595,27.1,61,0.0,861.1,9.75,38.5,59,16.6,14.5,7,5,7,1,2026-04-05T10:45:21.800775+05:30
Silchar,Assam,24.8333,92.7789,26.0,83,0.0,1006.6,8.35,33.1,155,67.8,56.2,7,5,4,1,2026-04-05T10:45:21.800783+05:30
Dibrugarh,Assam,27.4728,94.912,23.2,92,0.0,995.0,7.45,50.4,151,51.7,41.4,3,5,7,1,2026-04-05T10:45:21.800790+05:30
