city,state,latitude,longitude,temp,humidity,rain,pressure,uv_index,wind_gusts,aqi,pm10,pm2_5,mosquito_risk,arthritis_risk,migraine_risk,frizz_risk,updated_at
Delhi,Delhi,28.6139,77.209,38.8,16,0.0,981.2,7.1,45.7,467,1031.9,135.0,0,5,10,0,2026-04-25T18:41:35.999124+05:30
Mumbai,Maharashtra,19.076,72.8777,32.3,53,0.0,1005.7,8.0,42.8,149,44.6,29.4,0,5,4,1,2026-04-25T18:41:35.999169+05:30
Bangalore,Karnataka,12.9716,77.5946,32.5,25,0.0,912.0,9.3,36.4,126,32.4,27.5,0,5,7,0,2026-04-25T18:41:35.999184+05:30
Hyderabad,Telangana,17.385,78.4867,36.3,23,0.0,953.2,9.3,29.2,178,48.1,42.7,0,5,10,0,2026-04-25T18:41:35.999195+05:30
Chennai,Tamil Nadu,13.0827,80.2707,30.3,73,0.0,1006.7,9.3,50.0,32,11.5,7.7,3,5,4,1,2026-04-25T18:41:35.999204+05:30
Kolkata,West Bengal,22.5726,88.3639,30.3,73,0.0,1005.7,8.55,38.9,77,23.8,18.9,3,5,4,1,2026-04-25T18:41:35.999216+05:30
Pune,Maharashtra,18.5204,73.8567,36.0,18,0.0,947.2,8.35,36.4,158,42.4,34.6,0,5,10,0,2026-04-25T18:41:35.999226+05:30
Ahmedabad,Gujarat,23.0225,72.5714,42.2,11,0.0,999.0,8.2,24.1,83,40.0,18.0,0,5,10,0,2026-04-25T18:41:35.999234+05:30
Jaipur,Rajasthan,26.9124,75.7873,37.9,16,0.0,959.9,8.05,38.2,125,191.4,34.5,0,5,10,0,2026-04-25T18:41:35.999242+05:30
Lucknow,Uttar Pradesh,26.8467,80.9462,39.8,14,0.0,989.8,7.9,42.1,159,111.8,35.7,0,5,10,0,2026-04-25T18:41:35.999250+05:30
Kanpur,Uttar Pradesh,26.4499,80.3319,39.7,14,0.0,988.6,7.9,39.6,165,404.2,60.3,0,5,10,0,2026-04-25T18:41:35.999258+05:30
Chandigarh,Chandigarh,30.7333,76.7794,32.0,34,0.0,968.4,7.25,59.4,78,46.2,18.2,0,5,7,0,2026-04-25T18:41:35.999266+05:30
Srinagar,Jammu and Kashmir,34.0837,74.7973,16.6,78,0.0,845.0,8.6,31.3,73,34.5,13.9,3,5,7,0,2026-04-25T18:41:35.999273+05:30
Jammu,Jammu and Kashmir,32.7266,74.857,32.6,34,0.0,972.4,8.2,43.6,78,105.2,34.6,0,5,7,0,2026-04-25T18:41:35.999280+05:30
Amritsar,Punjab,31.634,74.8723,34.4,26,0.0,980.6,8.1,38.2,86,152.3,39.5,0,5,7,0,2026-04-25T18:41:35.999290+05:30
Ludhiana,Punjab,30.901,75.8573,34.0,26,0.0,978.4,7.7,54.4,82,84.8,24.1,0,5,7,0,2026-04-25T18:41:35.999299+05:30
Jalandhar,Punjab,31.326,75.5762,33.4,29,0.0,979.3,7.9,37.4,89,131.3,31.5,0,5,7,0,2026-04-25T18:41:35.999306+05:30
Dehradun,Uttarakhand,30.6284,78.0322,20.5,54,0.0,831.2,7.85,50.0,81,39.7,13.9,0,5,7,0,2026-04-25T18:41:35.999313+05:30
Shimla,Himachal Pradesh,31.1048,77.1734,17.1,46,0.0,786.8,7.6,55.1,57,57.9,17.1,0,5,7,0,2026-04-25T18:41:35.999320+05:30
Manali,Himachal Pradesh,32.2396,77.1887,12.1,82,0.0,819.0,9.85,43.9,109,36.7,10.1,3,10,7,0,2026-04-25T18:41:35.999327+05:30
Gurgaon,Haryana,28.4595,77.0266,36.2,21,0.0,979.8,7.5,47.2,1140,2831.2,292.4,0,5,10,0,2026-04-25T18:41:35.999335+05:30
Noida,Uttar Pradesh,28.5355,77.391,37.8,17,0.0,982.1,7.4,33.8,1140,2831.2,292.4,0,5,10,0,2026-04-25T18:41:35.999341+05:30
Ghaziabad,Uttar Pradesh,28.6692,77.4538,38.3,16,0.0,980.5,7.4,46.8,254,856.8,116.4,0,5,10,0,2026-04-25T18:41:35.999348+05:30
Faridabad,Haryana,28.4089,77.3178,38.3,17,0.0,981.7,7.5,48.6,1140,2831.2,292.4,0,5,10,0,2026-04-25T18:41:35.999354+05:30
Meerut,Uttar Pradesh,28.9845,77.7064,35.2,26,0.0,979.0,7.35,47.2,254,856.8,116.4,0,5,10,0,2026-04-25T18:41:35.999360+05:30
Agra,Uttar Pradesh,27.1767,78.0081,38.7,16,0.0,985.8,7.8,45.0,377,810.3,108.0,0,5,10,0,2026-04-25T18:41:35.999369+05:30
Varanasi,Uttar Pradesh,25.3176,82.9739,40.0,14,0.0,993.7,8.5,38.9,154,151.8,48.1,0,5,10,0,2026-04-25T18:41:35.999375+05:30
Prayagraj,Uttar Pradesh,25.4358,81.8463,37.2,23,0.0,992.3,8.4,31.7,148,154.6,39.6,0,5,10,0,2026-04-25T18:41:35.999384+05:30
Gorakhpur,Uttar Pradesh,26.7606,83.3732,31.5,56,0.0,994.8,8.3,43.2,195,126.2,47.8,0,5,7,1,2026-04-25T18:41:35.999391+05:30
Bareilly,Uttar Pradesh,28.367,79.4304,36.5,22,0.0,983.9,7.7,48.6,169,46.0,27.1,0,5,10,0,2026-04-25T18:41:35.999398+05:30
Aligarh,Uttar Pradesh,27.8974,78.088,38.0,17,0.0,983.2,7.6,40.3,404,1337.4,150.4,0,5,10,0,2026-04-25T18:41:35.999405+05:30
Moradabad,Uttar Pradesh,28.8386,78.7733,36.2,24,0.0,980.8,7.55,57.2,182,112.9,32.4,0,5,10,0,2026-04-25T18:41:35.999411+05:30
Saharanpur,Uttar Pradesh,29.9637,77.546,34.2,25,0.0,974.0,7.15,54.0,131,190.9,43.0,0,5,7,0,2026-04-25T18:41:35.999417+05:30
Jhansi,Uttar Pradesh,25.4484,78.5685,39.0,14,0.0,975.5,8.3,32.0,106,106.6,28.8,0,5,10,0,2026-04-25T18:41:39.339013+05:30
Surat,Gujarat,21.1702,72.8311,39.8,9,0.0,1003.8,7.85,36.0,107,68.0,51.7,0,5,7,0,2026-04-25T18:41:39.339043+05:30
Vadodara,Gujarat,22.3072,73.1812,41.2,12,0.0,1001.3,8.15,30.6,128,41.2,24.2,0,5,7,0,2026-04-25T18:41:39.339053+05:30
Rajkot,Gujarat,22.3039,70.8022,37.5,21,0.0,992.6,7.9,36.0,72,55.1,20.0,0,5,10,0,2026-04-25T18:41:39.339060+05:30
Thane,Maharashtra,19.2183,72.9781,35.4,36,0.0,1004.8,8.0,41.0,149,44.6,29.4,0,5,7,1,2026-04-25T18:41:39.339067+05:30
Nagpur,Maharashtra,21.1458,79.0882,40.2,10,0.0,970.3,8.9,37.1,185,37.3,29.0,0,5,10,0,2026-04-25T18:41:39.339075+05:30
Nashik,Maharashtra,19.9975,73.7898,36.5,16,0.0,944.7,8.3,31.0,128,31.3,22.7,0,5,10,0,2026-04-25T18:41:39.339082+05:30
Aurangabad,Maharashtra,19.8762,75.3433,37.5,15,0.0,943.4,8.75,29.5,143,34.1,25.4,0,5,10,0,2026-04-25T18:41:39.339089+05:30
Solapur,Maharashtra,17.6599,75.9064,37.2,21,0.0,955.6,8.6,25.6,175,45.5,39.3,0,5,10,0,2026-04-25T18:41:39.339096+05:30
Kolhapur,Maharashtra,16.705,74.2433,34.7,24,0.0,947.2,9.05,37.8,161,66.1,58.9,0,5,7,0,2026-04-25T18:41:39.339104+05:30
Goa,Goa,15.2993,74.124,33.7,57,0.0,995.9,8.9,29.5,80,26.8,19.2,0,5,7,1,2026-04-25T18:41:39.339111+05:30
Jodhpur,Rajasthan,26.2389,73.0243,39.8,14,0.0,981.7,8.3,32.8,86,111.8,23.5,0,5,10,0,2026-04-25T18:41:39.339117+05:30
Udaipur,Rajasthan,24.5854,73.7125,35.0,21,0.0,946.4,8.8,41.0,80,73.3,19.7,0,5,7,0,2026-04-25T18:41:39.339124+05:30
Kota,Rajasthan,25.2138,75.8648,39.0,15,0.0,977.2,8.3,31.3,118,66.8,24.1,0,5,10,0,2026-04-25T18:41:39.339131+05:30
Bikaner,Rajasthan,28.0229,73.3119,38.2,18,0.0,981.4,8.15,38.5,72,111.5,25.0,0,5,10,0,2026-04-25T18:41:39.339137+05:30
Ajmer,Rajasthan,26.4499,74.6399,36.4,17,0.0,954.9,8.25,35.6,94,101.0,24.3,0,5,10,0,2026-04-25T18:41:39.339144+05:30
Gwalior,Madhya Pradesh,26.2183,78.1828,39.3,14,0.0,981.1,8.0,41.0,110,117.6,30.0,0,5,10,0,2026-04-25T18:41:39.339151+05:30
Indore,Madhya Pradesh,22.7196,75.8577,39.2,11,0.0,946.7,8.65,32.0,91,35.0,14.2,0,5,10,0,2026-04-25T18:41:39.339157+05:30
Bhopal,Madhya Pradesh,23.2599,77.4126,38.2,13,0.0,952.3,8.65,30.6,111,27.3,13.8,0,5,10,0,2026-04-25T18:41:39.339164+05:30
Jabalpur,Madhya Pradesh,23.1815,79.9864,37.2,13,0.0,959.4,8.75,34.9,126,28.8,15.4,0,5,10,0,2026-04-25T18:41:39.339171+05:30
Ujjain,Madhya Pradesh,23.1765,75.7885,38.2,18,0.0,952.2,8.55,29.2,80,45.3,20.1,0,5,10,0,2026-04-25T18:41:39.339178+05:30
Visakhapatnam,Andhra Pradesh,17.6868,83.2185,29.2,82,0.0,1003.3,8.7,42.8,59,17.1,12.4,7,5,4,1,2026-04-25T18:41:39.339185+05:30
Vijayawada,Andhra Pradesh,16.5062,80.648,34.2,39,0.0,1001.8,8.85,31.0,52,17.0,13.3,0,5,4,1,2026-04-25T18:41:39.339192+05:30
Guntur,Andhra Pradesh,16.3067,80.4365,31.9,55,0.0,1003.3,8.6,36.7,68,21.4,17.2,0,5,4,1,2026-04-25T18:41:39.339198+05:30
Nellore,Andhra Pradesh,14.4426,79.9865,30.1,76,0.0,1005.0,9.25,42.1,52,14.1,10.3,3,5,4,1,2026-04-25T18:41:39.339205+05:30
Kurnool,Andhra Pradesh,15.8281,78.0373,38.0,21,0.0,975.3,8.9,34.2,134,38.9,31.1,0,5,10,0,2026-04-25T18:41:39.339212+05:30
Kakinada,Andhra Pradesh,16.9891,82.2475,32.5,60,0.0,1006.4,8.45,37.1,40,13.7,8.6,0,5,4,1,2026-04-25T18:41:39.339219+05:30
Tirupati,Andhra Pradesh,13.6288,79.4192,36.0,29,0.0,989.8,9.35,34.9,76,24.6,20.7,0,5,10,0,2026-04-25T18:41:39.339226+05:30
Warangal,Telangana,17.9689,79.5941,35.4,31,0.0,977.9,9.0,29.5,133,49.1,43.3,0,5,10,0,2026-04-25T18:41:39.339232+05:30
Nizamabad,Telangana,18.6725,78.0941,35.8,22,0.0,963.4,8.75,27.7,172,54.9,46.8,0,5,10,0,2026-04-25T18:41:39.339239+05:30
Mysore,Karnataka,12.2958,76.6396,32.0,29,0.0,927.8,8.9,45.0,124,31.0,26.6,0,5,7,0,2026-04-25T18:41:39.339246+05:30
Mangalore,Karnataka,12.9141,74.856,30.6,75,0.0,1005.4,9.1,40.7,95,21.5,16.4,3,5,4,1,2026-04-25T18:41:39.339253+05:30
Hubli-Dharwad,Karnataka,15.3647,75.124,29.5,46,0.0,939.7,9.0,47.5,170,46.1,40.3,4,5,7,1,2026-04-25T18:41:39.339260+05:30
Belgaum,Karnataka,15.8497,74.4977,29.2,50,0.0,925.6,9.2,34.9,162,52.2,45.6,4,5,7,1,2026-04-25T18:41:42.738516+05:30
Coimbatore,Tamil Nadu,11.0168,76.9558,35.2,26,0.0,960.8,8.95,46.1,95,24.7,21.1,0,5,10,0,2026-04-25T18:41:42.738550+05:30
Madurai,Tamil Nadu,9.9252,78.1198,35.3,33,0.0,991.5,9.25,39.2,68,18.1,15.7,0,5,10,1,2026-04-25T18:41:42.738562+05:30
Trichy,Tamil Nadu,10.7905,78.7047,34.3,42,0.0,998.4,9.3,33.8,65,20.5,17.6,0,5,7,1,2026-04-25T18:41:42.738572+05:30
Salem,Tamil Nadu,11.6643,78.146,35.1,30,0.0,976.2,9.0,38.9,91,26.2,21.9,0,5,10,0,2026-04-25T18:41:42.738582+05:30
Tirunelveli,Tamil Nadu,8.7139,77.7567,32.6,45,0.0,1002.1,9.2,40.0,63,11.0,10.1,0,5,4,1,2026-04-25T18:41:42.738591+05:30
Vellore,Tamil Nadu,12.9165,79.1325,34.9,34,0.0,983.6,9.35,35.6,92,28.9,25.3,0,5,7,1,2026-04-25T18:41:42.738600+05:30
Erode,Tamil Nadu,11.341,77.7172,36.2,26,0.0,987.4,9.3,41.8,75,22.6,19.4,0,5,10,0,2026-04-25T18:41:42.738609+05:30
Kochi,Kerala,9.9312,76.2673,30.5,75,0.0,1006.9,8.4,42.1,132,21.4,19.5,3,5,4,1,2026-04-25T18:41:42.738619+05:30
Thiruvananthapuram,Kerala,8.5241,76.9366,28.5,79,0.0,1007.0,8.6,33.8,78,15.3,12.3,7,5,4,1,2026-04-25T18:41:42.738627+05:30
Kozhikode,Kerala,11.2588,75.7804,30.2,79,0.0,1006.2,8.7,36.7,92,16.6,11.5,3,5,4,1,2026-04-25T18:41:42.738635+05:30
Thrissur,Kerala,10.5276,76.2144,30.2,74,0.0,1005.2,8.1,44.6,104,18.4,16.6,3,5,4,1,2026-04-25T18:41:42.738644+05:30
Kannur,Kerala,11.8745,75.3704,30.9,73,0.0,1005.7,8.6,40.0,87,18.9,14.1,3,5,4,1,2026-04-25T18:41:42.738652+05:30
Patna,Bihar,25.5941,85.1376,30.3,66,0.0,998.8,8.65,60.1,196,104.8,56.0,3,5,7,1,2026-04-25T18:41:42.738660+05:30
Gaya,Bihar,24.7914,85.0002,32.2,48,0.0,991.3,8.7,50.8,174,78.9,32.5,0,5,7,1,2026-04-25T18:41:42.738668+05:30
Muzaffarpur,Bihar,26.1209,85.3647,28.6,72,0.0,999.1,8.6,50.4,198,102.9,58.1,7,5,7,1,2026-04-25T18:41:42.738676+05:30
Bhagalpur,Bihar,25.2425,87.0117,29.5,69,0.0,1000.2,8.6,55.1,208,82.0,56.8,7,5,4,1,2026-04-25T18:41:42.738684+05:30
Ranchi,Jharkhand,23.3441,85.3096,32.0,25,0.0,936.3,9.2,28.8,186,44.8,29.9,0,5,7,0,2026-04-25T18:41:42.738692+05:30
Jamshedpur,Jharkhand,22.8046,86.2029,35.2,38,0.0,988.6,8.9,33.5,203,41.0,33.9,0,5,10,1,2026-04-25T18:41:42.738700+05:30
Dhanbad,Jharkhand,23.7957,86.4304,34.3,46,0.0,977.5,8.95,48.6,204,63.3,54.7,0,5,7,1,2026-04-25T18:41:42.738708+05:30
Bokaro,Jharkhand,23.6693,86.1511,36.5,19,0.0,980.8,8.95,33.1,205,55.6,39.2,0,5,10,0,2026-04-25T18:41:42.738716+05:30
Bhubaneswar,Odisha,20.2961,85.8245,28.7,82,0.0,1002.2,9.1,41.0,64,18.9,15.8,7,5,4,1,2026-04-25T18:41:42.738724+05:30
Cuttack,Odisha,20.4625,85.8828,29.4,80,0.0,1003.7,9.15,38.2,64,18.9,15.8,7,5,4,1,2026-04-25T18:41:42.738732+05:30
Rourkela,Odisha,22.2604,84.8536,38.0,16,0.0,982.3,8.6,45.0,209,41.9,36.6,0,5,10,0,2026-04-25T18:41:42.738740+05:30
Raipur,Chhattisgarh,21.2514,81.6296,38.0,16,0.0,972.0,8.95,31.0,204,39.5,31.3,0,5,10,0,2026-04-25T18:41:42.738748+05:30
Bhilai,Chhattisgarh,21.1938,81.3509,36.8,22,0.0,972.4,9.0,35.6,172,38.3,29.8,0,5,10,0,2026-04-25T18:41:42.738756+05:30
Guwahati,Assam,26.1158,91.7086,26.3,85,0.0,1002.0,8.55,42.1,161,92.9,67.5,7,5,4,1,2026-04-25T18:41:42.738764+05:30
Agartala,Tripura,23.8315,91.2868,31.7,54,0.0,1005.1,8.75,35.6,155,77.3,58.8,0,5,4,1,2026-04-25T18:41:42.738772+05:30
Shillong,Meghalaya,25.5788,91.8933,18.3,85,0.0,857.5,8.2,29.5,150,82.0,52.6,3,10,7,0,2026-04-25T18:41:42.738780+05:30
Imphal,Manipur,24.817,93.9368,24.8,58,0.0,923.6,9.1,38.5,155,81.3,49.5,0,5,7,0,2026-04-25T18:41:42.738789+05:30
Aizawl,Mizoram,23.7271,92.7176,25.8,42,0.0,894.0,8.95,39.6,120,91.5,38.1,4,5,7,0,2026-04-25T18:41:42.738797+05:30
Kohima,Nagaland,25.6701,94.1077,18.3,93,0.0,856.8,8.8,38.2,156,112.7,73.1,3,10,7,1,2026-04-25T18:41:42.738805+05:30
Gangtok,Sikkim,27.3314,88.6138,15.5,86,0.0,838.2,8.8,41.4,127,49.2,30.7,3,10,7,0,2026-04-25T18:41:42.738813+05:30
Siliguri,West Bengal,26.7271,88.3953,25.1,86,0.0,992.9,8.45,33.8,151,80.8,53.2,7,5,7,1,2026-04-25T18:41:46.079801+05:30
Durgapur,West Bengal,23.5204,87.3119,32.5,70,0.0,992.9,8.9,38.5,162,54.9,44.9,3,5,7,1,2026-04-25T18:41:46.079831+05:30
Asansol,West Bengal,23.6739,86.9524,34.2,50,0.0,991.5,8.95,41.0,177,54.8,46.3,0,5,7,1,2026-04-25T18:41:46.079841+05:30
Pondicherry,Puducherry,11.9139,79.8145,29.9,75,0.0,1007.9,9.2,43.6,29,10.0,6.4,7,5,4,1,2026-04-25T18:41:46.079849+05:30
Port Blair,Andaman and Nicobar Islands,11.6234,92.7265,29.0,76,0.0,1007.1,9.15,33.1,40,21.2,14.0,7,5,4,1,2026-04-25T18:41:46.079856+05:30
Haridwar,Uttarakhand,29.9457,78.1642,31.5,33,0.0,971.8,7.25,35.6,126,126.2,33.3,0,5,7,0,2026-04-25T18:41:46.079864+05:30
Rishikesh,Uttarakhand,30.0869,78.2676,30.3,40,0.0,964.7,7.35,28.4,116,121.1,28.3,0,5,7,0,2026-04-25T18:41:46.079871+05:30
Nainital,Uttarakhand,29.3919,79.4542,18.4,57,0.0,806.2,8.2,40.3,158,37.7,20.8,0,5,7,0,2026-04-25T18:41:46.079879+05:30
Mussoorie,Uttarakhand,30.4599,78.0664,18.7,57,0.0,804.1,7.75,59.4,120,70.1,21.7,0,5,7,0,2026-04-25T18:41:46.079885+05:30
Dharamshala,Himachal Pradesh,32.219,76.3234,23.5,42,0.0,870.9,7.65,59.8,63,59.6,15.1,0,5,7,0,2026-04-25T18:41:46.079892+05:30
Dalhousie,Himachal Pradesh,32.5387,75.971,16.3,69,0.0,806.1,8.1,45.7,58,99.2,24.2,3,5,7,0,2026-04-25T18:41:46.079900+05:30
Patiala,Punjab,30.3398,76.3869,35.4,21,0.0,977.6,7.35,56.2,580,830.7,88.2,0,5,10,0,2026-04-25T18:41:46.079907+05:30
Bhatinda,Punjab,30.211,74.9455,36.8,19,0.0,983.3,8.05,52.9,89,113.6,31.1,0,5,10,0,2026-04-25T18:41:46.079915+05:30
Rohtak,Haryana,28.8955,76.6066,36.8,18,0.0,980.3,7.35,51.1,739,1404.4,166.7,0,5,10,0,2026-04-25T18:41:46.079944+05:30
Panipat,Haryana,29.3909,76.9635,37.2,18,0.0,978.6,7.15,54.0,1394,2048.9,223.1,0,5,10,0,2026-04-25T18:41:46.079952+05:30
Mathura,Uttar Pradesh,27.4924,77.6737,37.5,18,0.0,985.0,7.75,45.0,436,1404.4,153.2,0,5,10,0,2026-04-25T18:41:46.079960+05:30
Vrindavan,Uttar Pradesh,27.5823,77.7027,37.2,18,0.0,985.3,7.65,44.6,436,1404.4,153.2,0,5,10,0,2026-04-25T18:41:46.079967+05:30
Ayodhya,Uttar Pradesh,26.7922,82.1998,35.2,37,0.0,991.9,8.05,35.3,185,157.9,46.8,0,5,10,1,2026-04-25T18:41:46.079973+05:30
Ratlam,Madhya Pradesh,23.3315,75.0367,37.2,17,0.0,953.4,8.45,29.9,78,49.0,18.2,0,5,10,0,2026-04-25T18:41:46.079980+05:30
Sagar,Madhya Pradesh,23.8388,78.7378,36.6,16,0.0,948.9,8.65,29.9,108,43.2,14.3,0,5,10,0,2026-04-25T18:41:46.079987+05:30
Satna,Madhya Pradesh,24.6005,80.8322,37.2,16,0.0,968.9,8.65,41.0,135,121.5,29.7,0,5,10,0,2026-04-25T18:41:46.079993+05:30
Akola,Maharashtra,20.7002,77.0082,39.2,21,0.0,972.5,8.7,23.4,129,30.9,20.5,0,5,10,0,2026-04-25T18:41:46.080000+05:30
Amravati,Maharashtra,20.9374,77.7796,39.3,13,0.0,965.1,8.35,27.7,137,32.6,21.6,0,5,10,0,2026-04-25T18:41:46.080007+05:30
Latur,Maharashtra,18.4088,76.5604,35.5,17,0.0,939.3,8.6,32.0,166,37.6,32.4,0,5,10,0,2026-04-25T18:41:46.080014+05:30
Nanded,Maharashtra,19.1383,77.3091,36.9,17,0.0,966.8,8.6,28.8,153,40.3,30.9,0,5,10,0,2026-04-25T18:41:46.080020+05:30
Gulbarga,Karnataka,17.3297,76.8343,36.3,21,0.0,957.5,9.05,27.7,185,47.6,41.6,0,5,10,0,2026-04-25T18:41:46.080027+05:30
Bidar,Karnataka,17.9104,77.5199,33.7,23,0.0,935.3,8.85,27.7,173,51.0,44.2,0,5,7,0,2026-04-25T18:41:46.080033+05:30
Hospet,Karnataka,15.2689,76.3909,35.2,24,0.0,954.3,9.3,27.4,187,37.6,32.6,0,5,10,0,2026-04-25T18:41:46.080039+05:30
Tirupur,Tamil Nadu,11.1085,77.3411,35.8,28,0.0,973.8,9.4,41.8,83,23.7,20.3,0,5,10,0,2026-04-25T18:41:46.080046+05:30
Alappuzha,Kerala,9.4981,76.3388,29.4,81,0.0,1007.1,8.55,39.2,123,18.4,14.6,7,5,4,1,2026-04-25T18:41:46.080053+05:30
Munnar,Kerala,10.0889,77.0595,21.0,64,0.0,857.3,9.15,31.3,61,18.5,17.3,3,5,7,0,2026-04-25T18:41:46.080060+05:30
Silchar,Assam,24.8333,92.7789,29.1,74,0.0,1004.3,8.75,28.8,160,134.1,75.4,7,5,4,1,2026-04-25T18:41:46.080067+05:30
Dibrugarh,Assam,27.4728,94.912,25.0,85,0.0,997.4,8.6,31.7,104,64.0,43.4,7,5,7,1,2026-04-25T18:41:46.080073+05:30
