city,state,latitude,longitude,temp,humidity,rain,pressure,uv_index,wind_gusts,aqi,pm10,pm2_5,mosquito_risk,arthritis_risk,migraine_risk,frizz_risk,updated_at
Delhi,Delhi,28.6139,77.209,30.7,25,0.0,982.6,6.0,24.5,409,246.8,37.8,0,5,3,0,2026-03-14T16:57:09.860428+05:30
Mumbai,Maharashtra,19.076,72.8777,28.1,77,0.0,1007.8,7.65,18.4,203,47.0,35.4,7,5,4,1,2026-03-14T16:57:09.860467+05:30
Bangalore,Karnataka,12.9716,77.5946,31.7,24,0.0,911.9,9.3,32.8,120,38.3,29.8,0,5,7,0,2026-03-14T16:57:09.860482+05:30
Hyderabad,Telangana,17.385,78.4867,35.2,21,0.0,952.6,8.7,30.2,120,44.6,29.9,0,5,10,0,2026-03-14T16:57:09.860492+05:30
Chennai,Tamil Nadu,13.0827,80.2707,31.1,55,0.0,1008.1,9.05,32.0,58,16.8,12.9,0,0,4,1,2026-03-14T16:57:09.860501+05:30
Kolkata,West Bengal,22.5726,88.3639,29.5,65,0.0,1006.2,8.05,33.8,79,29.7,22.5,7,5,4,1,2026-03-14T16:57:09.860510+05:30
Pune,Maharashtra,18.5204,73.8567,35.8,18,0.0,947.5,8.25,47.5,133,35.2,30.3,0,5,10,0,2026-03-14T16:57:09.860522+05:30
Ahmedabad,Gujarat,23.0225,72.5714,36.7,20,0.0,1000.4,7.5,24.8,79,49.2,18.2,0,5,7,0,2026-03-14T16:57:09.860530+05:30
Jaipur,Rajasthan,26.9124,75.7873,32.6,20,0.0,959.0,7.0,28.8,139,124.8,29.3,0,5,7,0,2026-03-14T16:57:09.860537+05:30
Lucknow,Uttar Pradesh,26.8467,80.9462,33.1,23,0.0,992.6,6.7,24.5,171,141.6,39.3,0,5,7,0,2026-03-14T16:57:09.860545+05:30
Kanpur,Uttar Pradesh,26.4499,80.3319,32.7,30,0.0,990.8,6.7,17.3,370,253.3,46.7,0,5,7,0,2026-03-14T16:57:09.860552+05:30
Chandigarh,Chandigarh,30.7333,76.7794,26.6,43,0.0,968.3,5.2,20.2,70,19.3,14.6,4,5,3,0,2026-03-14T16:57:09.860559+05:30
Srinagar,Jammu and Kashmir,34.0837,74.7973,16.3,47,0.0,841.0,5.6,19.1,91,31.5,11.8,0,5,3,0,2026-03-14T16:57:09.860566+05:30
Jammu,Jammu and Kashmir,32.7266,74.857,28.7,38,0.0,971.6,6.35,19.1,79,21.2,11.4,4,5,7,0,2026-03-14T16:57:09.860573+05:30
Amritsar,Punjab,31.634,74.8723,26.4,62,0.0,980.1,4.65,17.6,72,11.1,8.4,7,5,3,1,2026-03-14T16:57:09.860579+05:30
Ludhiana,Punjab,30.901,75.8573,27.7,36,0.0,978.5,5.25,20.2,85,22.2,15.1,4,5,3,0,2026-03-14T16:57:09.860585+05:30
Jalandhar,Punjab,31.326,75.5762,27.8,34,0.0,979.5,6.15,23.0,91,31.9,13.3,4,5,7,0,2026-03-14T16:57:09.860594+05:30
Dehradun,Uttarakhand,30.6284,78.0322,19.4,51,0.0,830.1,4.2,21.6,53,23.0,9.2,0,5,3,0,2026-03-14T16:57:09.860600+05:30
Shimla,Himachal Pradesh,31.1048,77.1734,16.7,52,0.0,784.6,5.5,22.3,57,19.0,9.7,0,5,3,0,2026-03-14T16:57:09.860606+05:30
Manali,Himachal Pradesh,32.2396,77.1887,16.4,35,0.0,819.7,7.3,29.2,65,38.4,8.9,0,5,7,0,2026-03-14T16:57:09.860613+05:30
Gurgaon,Haryana,28.4595,77.0266,30.8,27,0.0,980.9,5.85,19.4,1207,612.8,68.9,0,5,3,0,2026-03-14T16:57:09.860619+05:30
Noida,Uttar Pradesh,28.5355,77.391,30.8,25,0.0,984.2,5.75,23.8,1207,612.8,68.9,0,5,3,0,2026-03-14T16:57:09.860626+05:30
Ghaziabad,Uttar Pradesh,28.6692,77.4538,30.4,28,0.0,982.3,5.95,23.8,281,105.0,25.0,0,5,3,0,2026-03-14T16:57:09.860633+05:30
Faridabad,Haryana,28.4089,77.3178,29.4,32,0.0,983.4,5.75,22.7,1207,612.8,68.9,4,5,3,0,2026-03-14T16:57:09.860640+05:30
Meerut,Uttar Pradesh,28.9845,77.7064,29.9,30,0.0,980.9,5.8,27.4,281,105.0,25.0,4,5,3,0,2026-03-14T16:57:09.860646+05:30
Agra,Uttar Pradesh,27.1767,78.0081,33.7,20,0.0,986.8,6.35,15.5,705,382.8,54.8,0,5,7,0,2026-03-14T16:57:09.860652+05:30
Varanasi,Uttar Pradesh,25.3176,82.9739,34.0,33,0.0,996.5,6.85,27.7,134,81.0,30.4,0,5,7,0,2026-03-14T16:57:09.860660+05:30
Prayagraj,Uttar Pradesh,25.4358,81.8463,33.4,39,0.0,994.7,7.1,15.5,151,100.8,32.8,0,5,7,1,2026-03-14T16:57:09.860667+05:30
Gorakhpur,Uttar Pradesh,26.7606,83.3732,30.6,38,0.0,996.4,6.7,24.8,135,147.6,48.8,0,5,7,0,2026-03-14T16:57:09.860674+05:30
Bareilly,Uttar Pradesh,28.367,79.4304,28.4,52,0.0,986.2,6.4,19.4,143,31.5,23.5,4,5,7,1,2026-03-14T16:57:09.860680+05:30
Aligarh,Uttar Pradesh,27.8974,78.088,30.7,24,0.0,985.4,6.3,26.6,691,523.4,81.0,0,5,7,0,2026-03-14T16:57:09.860686+05:30
Moradabad,Uttar Pradesh,28.8386,78.7733,29.3,36,0.0,982.9,5.95,23.0,144,34.9,21.8,4,5,3,0,2026-03-14T16:57:09.860694+05:30
Saharanpur,Uttar Pradesh,29.9637,77.546,28.8,35,0.0,974.8,4.65,23.8,137,74.7,25.3,4,5,3,0,2026-03-14T16:57:09.860700+05:30
Jhansi,Uttar Pradesh,25.4484,78.5685,35.5,20,0.0,975.9,7.2,20.2,134,112.7,34.2,0,5,10,0,2026-03-14T16:57:13.074453+05:30
Surat,Gujarat,21.1702,72.8311,30.5,39,0.0,1006.2,7.35,23.4,141,92.2,53.7,0,5,4,0,2026-03-14T16:57:13.074479+05:30
Vadodara,Gujarat,22.3072,73.1812,36.7,15,0.0,1002.8,7.5,28.1,100,55.2,21.9,0,5,7,0,2026-03-14T16:57:13.074489+05:30
Rajkot,Gujarat,22.3039,70.8022,36.1,22,0.0,993.5,7.35,34.9,93,74.5,22.8,0,5,10,0,2026-03-14T16:57:13.074496+05:30
Thane,Maharashtra,19.2183,72.9781,31.5,46,0.0,1007.5,7.65,31.7,203,47.0,35.4,0,5,4,1,2026-03-14T16:57:13.074502+05:30
Nagpur,Maharashtra,21.1458,79.0882,36.4,17,0.0,971.6,8.1,19.8,172,33.6,29.3,0,5,10,0,2026-03-14T16:57:13.074508+05:30
Nashik,Maharashtra,19.9975,73.7898,32.8,20,0.0,945.7,7.9,39.2,109,27.4,23.5,0,5,7,0,2026-03-14T16:57:13.074515+05:30
Aurangabad,Maharashtra,19.8762,75.3433,34.9,18,0.0,943.5,8.4,32.8,126,30.4,24.3,0,5,7,0,2026-03-14T16:57:13.074520+05:30
Solapur,Maharashtra,17.6599,75.9064,35.6,22,0.0,955.9,8.6,18.7,153,42.6,34.5,0,5,10,0,2026-03-14T16:57:13.074527+05:30
Kolhapur,Maharashtra,16.705,74.2433,29.2,61,0.0,948.0,8.7,44.6,152,45.2,41.1,7,5,7,1,2026-03-14T16:57:13.074533+05:30
Goa,Goa,15.2993,74.124,30.7,65,0.0,997.8,8.75,32.4,133,39.8,35.0,3,5,7,1,2026-03-14T16:57:13.074539+05:30
Jodhpur,Rajasthan,26.2389,73.0243,35.5,16,0.0,980.8,7.1,37.4,84,134.6,29.4,0,5,10,0,2026-03-14T16:57:13.074545+05:30
Udaipur,Rajasthan,24.5854,73.7125,33.0,18,0.0,945.5,7.85,37.1,68,38.8,13.7,0,5,7,0,2026-03-14T16:57:13.074550+05:30
Kota,Rajasthan,25.2138,75.8648,36.1,17,0.0,976.5,7.25,13.7,78,33.5,16.9,0,5,10,0,2026-03-14T16:57:13.074556+05:30
Bikaner,Rajasthan,28.0229,73.3119,33.9,19,0.0,979.6,6.7,21.6,62,79.6,21.1,0,5,7,0,2026-03-14T16:57:13.074562+05:30
Ajmer,Rajasthan,26.4499,74.6399,33.3,18,0.0,953.0,7.05,41.4,83,52.9,19.3,0,5,7,0,2026-03-14T16:57:13.074568+05:30
Gwalior,Madhya Pradesh,26.2183,78.1828,31.7,37,0.0,982.1,6.9,22.0,223,86.6,26.8,0,5,7,0,2026-03-14T16:57:13.074574+05:30
Indore,Madhya Pradesh,22.7196,75.8577,35.2,16,0.0,946.8,7.8,38.2,108,22.1,18.2,0,5,10,0,2026-03-14T16:57:13.074580+05:30
Bhopal,Madhya Pradesh,23.2599,77.4126,35.3,16,0.0,952.5,7.65,35.3,111,22.9,17.9,0,5,10,0,2026-03-14T16:57:13.074586+05:30
Jabalpur,Madhya Pradesh,23.1815,79.9864,35.5,15,0.0,960.5,7.8,27.0,109,15.0,14.0,0,5,10,0,2026-03-14T16:57:13.074592+05:30
Ujjain,Madhya Pradesh,23.1765,75.7885,34.1,18,0.0,952.7,7.7,41.8,83,21.6,15.9,0,5,7,0,2026-03-14T16:57:13.074599+05:30
Visakhapatnam,Andhra Pradesh,17.6868,83.2185,28.8,68,0.0,1004.9,8.65,41.0,63,19.0,14.3,7,5,4,1,2026-03-14T16:57:13.074604+05:30
Vijayawada,Andhra Pradesh,16.5062,80.648,32.5,50,0.0,1002.9,8.75,31.3,63,20.0,14.5,0,5,4,1,2026-03-14T16:57:13.074610+05:30
Guntur,Andhra Pradesh,16.3067,80.4365,31.5,55,0.0,1004.3,8.75,33.8,62,24.6,17.9,0,5,4,1,2026-03-14T16:57:13.074616+05:30
Nellore,Andhra Pradesh,14.4426,79.9865,32.0,49,0.0,1006.4,8.9,33.1,62,31.4,22.5,0,5,4,1,2026-03-14T16:57:13.074622+05:30
Kurnool,Andhra Pradesh,15.8281,78.0373,37.1,19,0.0,975.6,8.75,23.4,117,45.3,31.4,0,5,10,0,2026-03-14T16:57:13.074628+05:30
Kakinada,Andhra Pradesh,16.9891,82.2475,30.8,58,0.0,1008.1,8.7,34.6,57,17.2,11.9,0,0,4,1,2026-03-14T16:57:13.074634+05:30
Tirupati,Andhra Pradesh,13.6288,79.4192,33.4,33,0.0,991.6,9.0,32.4,74,30.4,23.5,0,5,7,0,2026-03-14T16:57:13.074640+05:30
Warangal,Telangana,17.9689,79.5941,33.6,38,0.0,978.2,8.5,27.7,97,48.8,35.5,0,5,7,1,2026-03-14T16:57:13.074645+05:30
Nizamabad,Telangana,18.6725,78.0941,35.8,24,0.0,963.8,8.4,30.2,121,50.2,36.6,0,5,10,0,2026-03-14T16:57:13.074651+05:30
Mysore,Karnataka,12.2958,76.6396,32.8,20,0.0,928.2,9.3,32.8,123,38.6,31.1,0,5,7,0,2026-03-14T16:57:13.074657+05:30
Mangalore,Karnataka,12.9141,74.856,29.1,81,0.0,1006.0,8.95,24.8,102,29.6,24.9,7,5,4,1,2026-03-14T16:57:13.074662+05:30
Hubli-Dharwad,Karnataka,15.3647,75.124,33.2,33,0.0,940.2,8.9,46.4,127,39.6,32.4,0,5,7,0,2026-03-14T16:57:13.074668+05:30
Belgaum,Karnataka,15.8497,74.4977,27.1,71,0.0,925.8,8.95,44.3,176,49.9,44.8,7,5,7,1,2026-03-14T16:57:16.288608+05:30
Coimbatore,Tamil Nadu,11.0168,76.9558,34.3,18,0.0,960.9,9.3,37.1,88,21.9,16.9,0,5,7,0,2026-03-14T16:57:16.288635+05:30
Madurai,Tamil Nadu,9.9252,78.1198,35.4,31,0.0,991.6,9.25,28.8,61,7.4,6.0,0,5,10,0,2026-03-14T16:57:16.288645+05:30
Trichy,Tamil Nadu,10.7905,78.7047,34.9,34,0.0,998.8,9.2,27.0,67,11.4,9.2,0,5,7,1,2026-03-14T16:57:16.288652+05:30
Salem,Tamil Nadu,11.6643,78.146,34.7,23,0.0,976.7,9.2,23.8,96,25.0,20.6,0,5,7,0,2026-03-14T16:57:16.288659+05:30
Tirunelveli,Tamil Nadu,8.7139,77.7567,32.6,49,0.0,1002.6,9.25,36.4,50,6.5,5.5,0,5,4,1,2026-03-14T16:57:16.288666+05:30
Vellore,Tamil Nadu,12.9165,79.1325,33.3,29,0.0,984.6,9.1,32.8,101,32.8,28.0,0,5,7,0,2026-03-14T16:57:16.288673+05:30
Erode,Tamil Nadu,11.341,77.7172,35.4,32,0.0,988.0,9.2,24.8,63,17.3,13.7,0,5,10,1,2026-03-14T16:57:16.288679+05:30
Kochi,Kerala,9.9312,76.2673,28.5,79,0.0,1007.5,9.1,31.3,121,17.4,16.0,7,5,4,1,2026-03-14T16:57:16.288686+05:30
Thiruvananthapuram,Kerala,8.5241,76.9366,28.7,76,0.0,1007.3,9.1,26.3,78,14.8,12.0,7,5,4,1,2026-03-14T16:57:16.288692+05:30
Kozhikode,Kerala,11.2588,75.7804,29.6,77,0.0,1006.8,9.0,24.8,75,25.7,22.5,7,5,4,1,2026-03-14T16:57:16.288698+05:30
Thrissur,Kerala,10.5276,76.2144,30.8,70,0.0,1005.7,9.05,36.0,113,22.3,19.9,3,5,4,1,2026-03-14T16:57:16.288705+05:30
Kannur,Kerala,11.8745,75.3704,29.9,75,0.0,1006.5,8.95,29.2,93,27.9,23.7,7,5,4,1,2026-03-14T16:57:16.288711+05:30
Patna,Bihar,25.5941,85.1376,32.7,40,0.0,999.6,7.5,20.2,141,83.4,36.6,0,5,7,1,2026-03-14T16:57:16.288717+05:30
Gaya,Bihar,24.7914,85.0002,32.7,40,0.0,993.2,7.55,21.2,123,71.0,28.0,0,5,7,1,2026-03-14T16:57:16.288723+05:30
Muzaffarpur,Bihar,26.1209,85.3647,31.6,39,0.0,999.6,7.45,24.5,160,78.2,39.6,0,5,7,0,2026-03-14T16:57:16.288729+05:30
Bhagalpur,Bihar,25.2425,87.0117,31.9,39,0.0,1000.3,7.5,20.5,159,126.2,51.3,0,5,4,1,2026-03-14T16:57:16.288735+05:30
Ranchi,Jharkhand,23.3441,85.3096,33.0,17,0.0,937.9,8.2,24.5,121,24.5,12.7,0,5,7,0,2026-03-14T16:57:16.288741+05:30
Jamshedpur,Jharkhand,22.8046,86.2029,36.3,21,0.0,989.6,8.1,29.2,156,55.3,31.2,0,5,10,0,2026-03-14T16:57:16.288747+05:30
Dhanbad,Jharkhand,23.7957,86.4304,36.0,17,0.0,978.9,7.95,19.8,155,54.0,28.6,0,5,10,0,2026-03-14T16:57:16.288754+05:30
Bokaro,Jharkhand,23.6693,86.1511,35.8,15,0.0,983.0,8.0,20.2,151,38.6,21.3,0,5,10,0,2026-03-14T16:57:16.288760+05:30
Bhubaneswar,Odisha,20.2961,85.8245,29.0,66,0.0,1003.5,8.4,38.9,68,25.3,18.9,7,5,4,1,2026-03-14T16:57:16.288766+05:30
Cuttack,Odisha,20.4625,85.8828,31.4,56,0.0,1004.9,8.45,34.2,68,25.3,18.9,0,5,4,1,2026-03-14T16:57:16.288772+05:30
Rourkela,Odisha,22.2604,84.8536,37.3,17,0.0,983.8,8.05,25.2,170,29.2,25.5,0,5,10,0,2026-03-14T16:57:16.288778+05:30
Raipur,Chhattisgarh,21.2514,81.6296,36.6,24,0.0,973.3,8.15,34.2,163,31.3,27.1,0,5,10,0,2026-03-14T16:57:16.288784+05:30
Bhilai,Chhattisgarh,21.1938,81.3509,37.1,23,0.0,973.4,8.15,27.7,146,31.3,26.7,0,5,10,0,2026-03-14T16:57:16.288790+05:30
Guwahati,Assam,26.1158,91.7086,23.7,83,0.0,1002.8,7.35,32.0,77,38.0,25.2,3,5,4,1,2026-03-14T16:57:16.288796+05:30
Agartala,Tripura,23.8315,91.2868,28.5,65,0.0,1006.9,7.8,48.6,78,34.6,26.6,7,5,4,1,2026-03-14T16:57:16.288802+05:30
Shillong,Meghalaya,25.5788,91.8933,15.2,81,0.0,856.1,7.85,73.8,49,28.3,20.3,3,10,7,0,2026-03-14T16:57:16.288808+05:30
Imphal,Manipur,24.817,93.9368,18.1,82,0.0,924.5,7.1,82.8,142,54.7,42.0,3,10,7,0,2026-03-14T16:57:16.288815+05:30
Aizawl,Mizoram,23.7271,92.7176,20.2,74,0.0,894.6,8.0,63.4,113,48.5,36.8,3,5,7,0,2026-03-14T16:57:16.288821+05:30
Kohima,Nagaland,25.6701,94.1077,16.0,73,0.0,855.0,6.9,100.8,106,46.4,32.9,3,5,7,0,2026-03-14T16:57:16.288826+05:30
Gangtok,Sikkim,27.3314,88.6138,15.0,86,0.0,837.0,7.55,20.2,92,25.9,18.1,3,10,7,0,2026-03-14T16:57:16.288832+05:30
Siliguri,West Bengal,26.7271,88.3953,22.5,78,0.0,994.3,7.4,31.7,129,70.1,45.1,3,5,7,1,2026-03-14T16:57:19.503593+05:30
Durgapur,West Bengal,23.5204,87.3119,33.7,35,0.0,994.4,7.95,23.4,152,67.3,40.4,0,5,7,1,2026-03-14T16:57:19.503621+05:30
Asansol,West Bengal,23.6739,86.9524,34.5,32,0.0,992.7,7.95,21.2,141,61.0,33.5,0,5,7,0,2026-03-14T16:57:19.503631+05:30
Pondicherry,Puducherry,11.9139,79.8145,31.6,57,0.0,1008.8,9.05,29.9,55,15.3,11.6,0,0,4,1,2026-03-14T16:57:19.503638+05:30
Port Blair,Andaman and Nicobar Islands,11.6234,92.7265,28.0,77,0.0,1008.8,8.95,23.0,80,10.9,8.5,7,0,4,1,2026-03-14T16:57:19.503646+05:30
Haridwar,Uttarakhand,29.9457,78.1642,29.0,39,0.0,973.5,5.0,21.2,106,30.3,17.7,4,5,3,0,2026-03-14T16:57:19.503653+05:30
Rishikesh,Uttarakhand,30.0869,78.2676,28.1,45,0.0,966.3,4.55,20.9,71,26.1,13.6,4,5,3,0,2026-03-14T16:57:19.503660+05:30
Nainital,Uttarakhand,29.3919,79.4542,20.8,51,0.0,806.5,6.15,34.9,85,39.6,23.2,0,5,7,0,2026-03-14T16:57:19.503666+05:30
Mussoorie,Uttarakhand,30.4599,78.0664,20.1,50,0.0,803.2,4.9,25.2,77,28.1,14.1,0,5,3,0,2026-03-14T16:57:19.503673+05:30
Dharamshala,Himachal Pradesh,32.219,76.3234,22.7,27,0.0,868.7,5.45,17.6,59,23.9,8.1,0,5,3,0,2026-03-14T16:57:19.503680+05:30
Dalhousie,Himachal Pradesh,32.5387,75.971,20.5,27,0.0,804.0,6.05,18.7,66,22.2,10.1,0,5,7,0,2026-03-14T16:57:19.503687+05:30
Patiala,Punjab,30.3398,76.3869,27.6,28,0.0,977.8,5.45,27.0,273,242.1,34.5,4,5,3,0,2026-03-14T16:57:19.503694+05:30
Bhatinda,Punjab,30.211,74.9455,30.0,32,0.0,983.1,6.15,22.0,86,18.3,15.1,4,5,7,0,2026-03-14T16:57:19.503700+05:30
Rohtak,Haryana,28.8955,76.6066,30.6,29,0.0,981.3,5.9,22.0,500,360.4,44.4,0,5,3,0,2026-03-14T16:57:19.503706+05:30
Panipat,Haryana,29.3909,76.9635,29.9,31,0.0,979.7,5.6,23.0,924,545.8,61.2,4,5,3,0,2026-03-14T16:57:19.503712+05:30
Mathura,Uttar Pradesh,27.4924,77.6737,31.2,24,0.0,986.2,5.95,29.2,685,463.8,65.0,0,5,3,0,2026-03-14T16:57:19.503719+05:30
Vrindavan,Uttar Pradesh,27.5823,77.7027,30.1,25,0.0,987.0,5.9,35.3,685,463.8,65.0,0,5,3,0,2026-03-14T16:57:19.503726+05:30
Ayodhya,Uttar Pradesh,26.7922,82.1998,32.1,35,0.0,994.3,6.85,21.6,153,97.1,38.0,0,5,7,0,2026-03-14T16:57:19.503732+05:30
Ratlam,Madhya Pradesh,23.3315,75.0367,34.7,16,0.0,953.8,7.65,39.6,90,21.9,14.3,0,5,7,0,2026-03-14T16:57:19.503738+05:30
Sagar,Madhya Pradesh,23.8388,78.7378,34.3,20,0.0,949.2,7.6,34.2,105,18.9,15.9,0,5,7,0,2026-03-14T16:57:19.503744+05:30
Satna,Madhya Pradesh,24.6005,80.8322,36.2,15,0.0,969.9,7.6,26.3,100,50.4,18.8,0,5,10,0,2026-03-14T16:57:19.503750+05:30
Akola,Maharashtra,20.7002,77.0082,37.9,15,0.0,973.4,8.1,17.3,130,24.7,21.5,0,5,10,0,2026-03-14T16:57:19.503757+05:30
Amravati,Maharashtra,20.9374,77.7796,37.8,13,0.0,965.8,8.05,22.3,129,23.4,20.7,0,5,10,0,2026-03-14T16:57:19.503765+05:30
Latur,Maharashtra,18.4088,76.5604,33.5,25,0.0,939.3,8.5,26.6,133,41.7,33.4,0,5,7,0,2026-03-14T16:57:19.503771+05:30
Nanded,Maharashtra,19.1383,77.3091,37.3,19,0.0,967.1,8.3,31.0,146,47.4,37.7,0,5,10,0,2026-03-14T16:57:19.503777+05:30
Gulbarga,Karnataka,17.3297,76.8343,36.5,18,0.0,957.4,8.6,38.9,138,43.9,34.5,0,5,10,0,2026-03-14T16:57:19.503783+05:30
Bidar,Karnataka,17.9104,77.5199,34.0,24,0.0,935.2,8.55,37.1,138,44.0,32.2,0,5,7,0,2026-03-14T16:57:19.503789+05:30
Hospet,Karnataka,15.2689,76.3909,34.3,31,0.0,955.0,8.85,28.1,132,44.6,35.7,0,5,7,0,2026-03-14T16:57:19.503795+05:30
Tirupur,Tamil Nadu,11.1085,77.3411,35.6,18,0.0,974.3,9.3,30.2,68,19.7,15.3,0,5,10,0,2026-03-14T16:57:19.503800+05:30
Alappuzha,Kerala,9.4981,76.3388,28.7,77,0.0,1007.8,9.1,28.4,108,16.4,14.8,7,5,4,1,2026-03-14T16:57:19.503806+05:30
Munnar,Kerala,10.0889,77.0595,26.5,57,0.0,858.0,9.55,28.8,57,10.8,9.2,4,5,7,1,2026-03-14T16:57:19.503812+05:30
Silchar,Assam,24.8333,92.7789,21.6,86,0.0,1008.4,7.75,39.6,110,43.7,31.9,3,0,4,1,2026-03-14T16:57:19.503819+05:30
Dibrugarh,Assam,27.4728,94.912,20.7,86,0.0,998.1,4.45,22.0,91,36.7,30.7,3,5,3,1,2026-03-14T16:57:19.503825+05:30
