city,state,latitude,longitude,temp,humidity,rain,pressure,uv_index,wind_gusts,aqi,pm10,pm2_5,mosquito_risk,arthritis_risk,migraine_risk,frizz_risk,updated_at
Delhi,Delhi,28.6139,77.209,27.1,45,0.0,980.8,6.05,21.6,136,165.3,60.8,4,5,7,0,2026-03-28T21:04:52.790438+05:30
Mumbai,Maharashtra,19.076,72.8777,26.7,83,0.0,1008.4,8.0,24.5,70,74.3,17.5,7,0,4,1,2026-03-28T21:04:52.790490+05:30
Bangalore,Karnataka,12.9716,77.5946,25.8,61,0.0,911.3,9.5,42.5,164,70.3,62.4,7,5,7,1,2026-03-28T21:04:52.790506+05:30
Hyderabad,Telangana,17.385,78.4867,31.9,36,0.0,951.5,9.0,24.8,120,49.6,44.8,0,5,7,0,2026-03-28T21:04:52.790518+05:30
Chennai,Tamil Nadu,13.0827,80.2707,27.2,82,0.0,1006.9,9.25,34.6,67,22.1,15.7,7,5,4,1,2026-03-28T21:04:52.790527+05:30
Kolkata,West Bengal,22.5726,88.3639,24.2,88,0.0,1006.6,8.4,31.7,173,54.0,48.4,3,5,4,1,2026-03-28T21:04:52.790536+05:30
Pune,Maharashtra,18.5204,73.8567,26.7,33,0.0,948.2,8.5,49.0,114,19.4,18.0,4,5,7,0,2026-03-28T21:04:52.790548+05:30
Ahmedabad,Gujarat,23.0225,72.5714,30.5,48,0.0,999.8,7.95,34.2,38,19.0,9.5,0,5,7,1,2026-03-28T21:04:52.790555+05:30
Jaipur,Rajasthan,26.9124,75.7873,29.8,35,0.0,957.3,7.45,32.4,89,98.0,26.0,4,5,7,0,2026-03-28T21:04:52.790563+05:30
Lucknow,Uttar Pradesh,26.8467,80.9462,27.3,49,0.0,991.4,7.15,28.1,132,163.0,44.2,4,5,7,0,2026-03-28T21:04:52.790571+05:30
Kanpur,Uttar Pradesh,26.4499,80.3319,26.5,58,0.0,989.6,6.95,25.2,195,300.8,57.9,4,5,7,1,2026-03-28T21:04:52.790580+05:30
Chandigarh,Chandigarh,30.7333,76.7794,22.8,72,0.0,966.7,5.4,23.4,117,33.1,30.5,3,5,3,1,2026-03-28T21:04:52.790587+05:30
Srinagar,Jammu and Kashmir,34.0837,74.7973,14.2,85,0.0,838.3,6.0,16.2,108,51.6,37.7,3,10,3,0,2026-03-28T21:04:52.790595+05:30
Jammu,Jammu and Kashmir,32.7266,74.857,25.0,57,0.0,970.5,7.05,16.6,113,44.0,42.5,4,5,7,0,2026-03-28T21:04:52.790603+05:30
Amritsar,Punjab,31.634,74.8723,24.0,68,0.0,978.7,7.0,14.0,131,30.0,23.5,3,5,7,1,2026-03-28T21:04:52.790609+05:30
Ludhiana,Punjab,30.901,75.8573,25.4,59,0.0,976.8,6.05,13.7,98,69.2,57.6,4,5,7,1,2026-03-28T21:04:52.790617+05:30
Jalandhar,Punjab,31.326,75.5762,24.0,67,0.0,977.9,6.25,11.5,104,60.5,44.6,3,5,7,1,2026-03-28T21:04:52.790626+05:30
Dehradun,Uttarakhand,30.6284,78.0322,14.9,85,0.0,827.6,5.85,22.3,106,30.5,24.6,3,10,3,0,2026-03-28T21:04:52.790633+05:30
Shimla,Himachal Pradesh,31.1048,77.1734,13.1,86,0.0,781.8,6.15,33.1,116,30.7,26.4,3,10,7,0,2026-03-28T21:04:52.790641+05:30
Manali,Himachal Pradesh,32.2396,77.1887,16.0,89,0.0,817.8,8.45,29.9,132,27.9,12.0,3,10,7,0,2026-03-28T21:04:52.790649+05:30
Gurgaon,Haryana,28.4595,77.0266,25.2,56,0.0,979.1,6.2,17.3,402,315.7,74.7,4,5,7,0,2026-03-28T21:04:52.790657+05:30
Noida,Uttar Pradesh,28.5355,77.391,26.4,48,0.0,982.3,6.05,21.6,402,315.7,74.7,4,5,7,0,2026-03-28T21:04:52.790664+05:30
Ghaziabad,Uttar Pradesh,28.6692,77.4538,25.5,53,0.0,980.5,5.95,20.5,143,143.0,58.4,4,5,3,0,2026-03-28T21:04:52.790670+05:30
Faridabad,Haryana,28.4089,77.3178,25.8,50,0.0,981.6,6.15,19.8,402,315.7,74.7,4,5,7,0,2026-03-28T21:04:52.790677+05:30
Meerut,Uttar Pradesh,28.9845,77.7064,24.0,62,0.0,979.4,5.9,23.0,143,143.0,58.4,3,5,3,1,2026-03-28T21:04:52.790684+05:30
Agra,Uttar Pradesh,27.1767,78.0081,26.0,48,0.0,985.3,6.45,25.6,451,473.1,78.2,4,5,7,0,2026-03-28T21:04:52.790692+05:30
Varanasi,Uttar Pradesh,25.3176,82.9739,24.8,58,0.0,995.9,7.8,37.4,103,97.8,49.0,0,5,7,0,2026-03-28T21:04:52.790701+05:30
Prayagraj,Uttar Pradesh,25.4358,81.8463,26.5,52,0.0,994.1,7.7,30.2,96,117.8,46.7,4,5,7,0,2026-03-28T21:04:52.790708+05:30
Gorakhpur,Uttar Pradesh,26.7606,83.3732,24.3,66,0.0,995.7,6.1,28.1,98,55.1,33.4,3,5,7,1,2026-03-28T21:04:52.790715+05:30
Bareilly,Uttar Pradesh,28.367,79.4304,23.9,69,0.0,984.8,6.3,24.5,99,41.3,32.1,3,5,7,1,2026-03-28T21:04:52.790723+05:30
Aligarh,Uttar Pradesh,27.8974,78.088,23.7,61,0.0,983.4,6.2,23.8,280,464.7,87.8,3,5,7,0,2026-03-28T21:04:52.790731+05:30
Moradabad,Uttar Pradesh,28.8386,78.7733,23.5,68,0.0,981.6,6.1,23.0,105,66.4,51.6,3,5,7,1,2026-03-28T21:04:52.790738+05:30
Saharanpur,Uttar Pradesh,29.9637,77.546,22.9,68,0.0,973.6,5.15,24.8,126,81.3,52.9,3,5,3,1,2026-03-28T21:04:52.790747+05:30
Jhansi,Uttar Pradesh,25.4484,78.5685,26.9,40,0.0,975.6,7.05,31.3,91,35.7,16.7,4,5,7,0,2026-03-28T21:04:56.010781+05:30
Surat,Gujarat,21.1702,72.8311,26.8,83,0.0,1005.6,7.75,30.6,82,46.6,20.8,7,5,4,1,2026-03-28T21:04:56.010818+05:30
Vadodara,Gujarat,22.3072,73.1812,29.4,50,0.0,1002.5,7.95,32.8,61,37.0,21.2,4,5,4,1,2026-03-28T21:04:56.010828+05:30
Rajkot,Gujarat,22.3039,70.8022,27.4,65,0.0,993.4,7.8,43.2,41,14.6,8.1,7,5,7,1,2026-03-28T21:04:56.010836+05:30
Thane,Maharashtra,19.2183,72.9781,25.9,85,0.0,1007.9,8.0,37.8,70,74.3,17.5,7,5,4,1,2026-03-28T21:04:56.010843+05:30
Nagpur,Maharashtra,21.1458,79.0882,29.7,29,0.0,970.3,8.5,31.3,74,34.5,26.9,4,5,7,0,2026-03-28T21:04:56.010851+05:30
Nashik,Maharashtra,19.9975,73.7898,24.4,54,0.0,944.8,8.2,43.6,55,25.1,10.2,0,5,7,0,2026-03-28T21:04:56.010858+05:30
Aurangabad,Maharashtra,19.8762,75.3433,29.3,27,0.0,943.0,8.7,43.6,79,18.7,9.9,4,5,7,0,2026-03-28T21:04:56.010865+05:30
Solapur,Maharashtra,17.6599,75.9064,31.8,26,0.0,955.5,8.85,31.7,89,24.3,20.2,0,5,7,0,2026-03-28T21:04:56.010872+05:30
Kolhapur,Maharashtra,16.705,74.2433,24.6,66,0.0,947.8,8.95,43.6,124,27.1,25.6,3,5,7,1,2026-03-28T21:04:56.010880+05:30
Goa,Goa,15.2993,74.124,28.3,73,0.0,997.8,8.95,28.4,97,43.4,37.3,7,5,7,1,2026-03-28T21:04:56.010886+05:30
Jodhpur,Rajasthan,26.2389,73.0243,28.8,41,0.0,980.1,7.8,31.0,75,206.8,27.5,4,5,7,0,2026-03-28T21:04:56.010894+05:30
Udaipur,Rajasthan,24.5854,73.7125,26.1,47,0.0,945.0,8.35,33.5,39,23.0,7.6,4,5,7,0,2026-03-28T21:04:56.010901+05:30
Kota,Rajasthan,25.2138,75.8648,30.9,33,0.0,975.6,7.7,24.5,57,91.3,28.9,0,5,7,0,2026-03-28T21:04:56.010907+05:30
Bikaner,Rajasthan,28.0229,73.3119,30.8,34,0.0,978.0,7.5,20.9,49,42.1,15.1,0,5,7,0,2026-03-28T21:04:56.010914+05:30
Ajmer,Rajasthan,26.4499,74.6399,26.9,44,0.0,952.1,7.75,30.6,54,38.6,14.2,4,5,7,0,2026-03-28T21:04:56.010938+05:30
Gwalior,Madhya Pradesh,26.2183,78.1828,27.3,45,0.0,980.8,6.75,36.4,139,140.2,32.0,4,5,7,0,2026-03-28T21:04:56.010944+05:30
Indore,Madhya Pradesh,22.7196,75.8577,26.3,48,0.0,946.6,8.2,37.1,55,18.9,13.4,4,5,7,0,2026-03-28T21:04:56.010951+05:30
Bhopal,Madhya Pradesh,23.2599,77.4126,28.7,39,0.0,951.4,8.15,31.3,50,19.4,12.9,4,5,7,0,2026-03-28T21:04:56.010958+05:30
Jabalpur,Madhya Pradesh,23.1815,79.9864,27.5,48,0.0,958.8,8.25,29.9,64,34.9,20.0,4,5,7,0,2026-03-28T21:04:56.010965+05:30
Ujjain,Madhya Pradesh,23.1765,75.7885,26.3,52,0.0,952.3,8.15,34.2,48,18.5,12.3,4,5,7,0,2026-03-28T21:04:56.010971+05:30
Visakhapatnam,Andhra Pradesh,17.6868,83.2185,27.3,82,0.0,1002.7,9.0,41.8,94,30.5,20.6,7,5,4,1,2026-03-28T21:04:56.010978+05:30
Vijayawada,Andhra Pradesh,16.5062,80.648,28.3,67,0.0,1001.1,9.05,30.6,85,35.9,30.0,7,5,4,1,2026-03-28T21:04:56.010984+05:30
Guntur,Andhra Pradesh,16.3067,80.4365,27.4,79,0.0,1002.4,9.05,33.1,93,42.0,36.2,7,5,4,1,2026-03-28T21:04:56.010991+05:30
Nellore,Andhra Pradesh,14.4426,79.9865,27.2,82,0.0,1005.0,9.2,34.6,130,23.1,17.8,7,5,4,1,2026-03-28T21:04:56.010998+05:30
Kurnool,Andhra Pradesh,15.8281,78.0373,33.0,33,0.0,974.6,9.05,33.5,159,58.9,50.6,0,5,7,0,2026-03-28T21:04:56.011004+05:30
Kakinada,Andhra Pradesh,16.9891,82.2475,27.1,82,0.0,1006.2,9.0,35.3,72,27.7,16.5,7,5,4,1,2026-03-28T21:04:56.011011+05:30
Tirupati,Andhra Pradesh,13.6288,79.4192,28.6,67,0.0,991.3,9.25,27.4,109,48.1,42.6,7,5,7,1,2026-03-28T21:04:56.011018+05:30
Warangal,Telangana,17.9689,79.5941,31.8,37,0.0,976.4,8.85,25.6,106,63.6,59.8,0,5,7,0,2026-03-28T21:04:56.011024+05:30
Nizamabad,Telangana,18.6725,78.0941,31.8,34,0.0,962.4,8.8,26.3,86,25.5,23.0,0,5,7,0,2026-03-28T21:04:56.011030+05:30
Mysore,Karnataka,12.2958,76.6396,25.3,77,0.0,928.5,9.45,45.7,162,37.3,34.2,7,5,7,1,2026-03-28T21:04:56.011036+05:30
Mangalore,Karnataka,12.9141,74.856,29.6,80,0.0,1006.4,9.1,23.8,94,35.7,28.5,7,5,4,1,2026-03-28T21:04:56.011043+05:30
Hubli-Dharwad,Karnataka,15.3647,75.124,26.2,78,0.0,940.8,8.3,44.3,139,40.4,36.3,7,5,7,1,2026-03-28T21:04:56.011049+05:30
Belgaum,Karnataka,15.8497,74.4977,24.1,82,0.0,925.5,8.95,36.4,116,41.2,37.1,3,5,7,1,2026-03-28T21:04:59.228227+05:30
Coimbatore,Tamil Nadu,11.0168,76.9558,26.0,78,0.0,961.5,9.45,54.4,102,33.3,31.7,7,5,7,1,2026-03-28T21:04:59.228265+05:30
Madurai,Tamil Nadu,9.9252,78.1198,28.2,69,0.0,993.2,9.4,38.5,119,20.6,18.6,7,5,7,1,2026-03-28T21:04:59.228276+05:30
Trichy,Tamil Nadu,10.7905,78.7047,28.2,75,0.0,999.0,9.35,25.9,86,16.8,15.6,7,5,7,1,2026-03-28T21:04:59.228286+05:30
Salem,Tamil Nadu,11.6643,78.146,31.2,44,0.0,976.1,9.4,30.6,157,46.2,39.2,0,5,7,1,2026-03-28T21:04:59.228293+05:30
Tirunelveli,Tamil Nadu,8.7139,77.7567,29.2,66,0.0,1002.7,9.35,47.5,106,25.5,23.0,7,5,4,1,2026-03-28T21:04:59.228301+05:30
Vellore,Tamil Nadu,12.9165,79.1325,28.6,69,0.0,984.1,9.35,31.0,128,54.7,50.1,7,5,7,1,2026-03-28T21:04:59.228308+05:30
Erode,Tamil Nadu,11.341,77.7172,31.7,51,0.0,987.9,9.35,26.3,143,39.5,34.2,0,5,7,1,2026-03-28T21:04:59.228315+05:30
Kochi,Kerala,9.9312,76.2673,29.2,78,0.0,1008.6,8.45,31.7,94,39.0,36.3,7,0,4,1,2026-03-28T21:04:59.228323+05:30
Thiruvananthapuram,Kerala,8.5241,76.9366,28.7,80,0.0,1008.2,9.15,39.6,65,25.8,20.2,7,0,4,1,2026-03-28T21:04:59.228332+05:30
Kozhikode,Kerala,11.2588,75.7804,29.3,80,0.0,1007.5,9.1,31.0,79,31.3,24.7,7,5,4,1,2026-03-28T21:04:59.228339+05:30
Thrissur,Kerala,10.5276,76.2144,28.5,80,0.0,1006.8,9.15,36.4,89,34.3,30.9,7,5,4,1,2026-03-28T21:04:59.228346+05:30
Kannur,Kerala,11.8745,75.3704,29.2,79,0.0,1006.9,9.05,31.0,88,39.6,32.8,7,5,4,1,2026-03-28T21:04:59.228354+05:30
Patna,Bihar,25.5941,85.1376,25.4,69,0.0,999.4,7.9,29.5,91,73.6,46.6,7,5,7,1,2026-03-28T21:04:59.228361+05:30
Gaya,Bihar,24.7914,85.0002,23.9,75,0.0,992.7,7.9,24.1,81,58.0,32.5,3,5,7,1,2026-03-28T21:04:59.228368+05:30
Muzaffarpur,Bihar,26.1209,85.3647,23.9,74,0.0,999.7,7.85,20.5,108,78.5,54.5,3,5,7,1,2026-03-28T21:04:59.228374+05:30
Bhagalpur,Bihar,25.2425,87.0117,23.1,84,0.0,1001.2,7.75,25.2,106,50.6,36.4,3,5,4,1,2026-03-28T21:04:59.228381+05:30
Ranchi,Jharkhand,23.3441,85.3096,23.7,72,0.0,936.3,8.7,31.7,95,40.7,27.5,3,5,7,1,2026-03-28T21:04:59.228388+05:30
Jamshedpur,Jharkhand,22.8046,86.2029,27.8,66,0.0,989.1,8.5,32.4,167,56.8,51.5,7,5,7,1,2026-03-28T21:04:59.228395+05:30
Dhanbad,Jharkhand,23.7957,86.4304,26.5,64,0.0,979.0,8.4,30.2,152,83.8,75.2,7,5,7,1,2026-03-28T21:04:59.228401+05:30
Bokaro,Jharkhand,23.6693,86.1511,26.0,68,0.0,982.9,8.45,31.0,145,72.2,55.4,7,5,7,1,2026-03-28T21:04:59.228408+05:30
Bhubaneswar,Odisha,20.2961,85.8245,26.7,81,0.0,1001.1,8.8,31.7,130,35.5,28.8,7,5,4,1,2026-03-28T21:04:59.228415+05:30
Cuttack,Odisha,20.4625,85.8828,27.0,82,0.0,1002.9,8.8,30.6,130,35.5,28.8,7,5,4,1,2026-03-28T21:04:59.228421+05:30
Rourkela,Odisha,22.2604,84.8536,28.1,65,0.0,982.3,8.4,43.9,144,44.4,34.7,7,5,7,1,2026-03-28T21:04:59.228428+05:30
Raipur,Chhattisgarh,21.2514,81.6296,30.6,34,0.0,971.7,8.55,34.6,88,34.3,28.9,0,5,7,0,2026-03-28T21:04:59.228435+05:30
Bhilai,Chhattisgarh,21.1938,81.3509,29.8,38,0.0,972.0,8.55,33.8,75,28.6,23.8,4,5,7,0,2026-03-28T21:04:59.228442+05:30
Guwahati,Assam,26.1158,91.7086,21.2,92,0.0,1002.6,4.0,28.1,137,34.3,32.7,3,5,0,1,2026-03-28T21:04:59.228448+05:30
Agartala,Tripura,23.8315,91.2868,21.6,93,0.0,1006.8,6.4,38.5,137,79.6,72.6,3,5,4,1,2026-03-28T21:04:59.228455+05:30
Shillong,Meghalaya,25.5788,91.8933,10.3,93,0.0,853.0,3.7,43.9,85,18.4,15.8,3,10,3,0,2026-03-28T21:04:59.228461+05:30
Imphal,Manipur,24.817,93.9368,15.4,91,0.0,922.0,7.7,52.6,150,74.7,65.2,3,10,7,0,2026-03-28T21:04:59.228468+05:30
Aizawl,Mizoram,23.7271,92.7176,15.3,94,0.0,891.1,7.35,38.2,117,58.1,46.1,3,10,7,0,2026-03-28T21:04:59.228474+05:30
Kohima,Nagaland,25.6701,94.1077,13.3,75,0.0,852.4,4.95,71.3,112,37.7,29.9,3,5,3,0,2026-03-28T21:04:59.228481+05:30
Gangtok,Sikkim,27.3314,88.6138,12.6,92,0.0,835.1,6.7,17.3,79,20.8,18.6,3,10,7,0,2026-03-28T21:04:59.228487+05:30
Siliguri,West Bengal,26.7271,88.3953,17.7,92,0.0,995.0,7.5,26.3,145,41.0,33.8,3,10,7,1,2026-03-28T21:05:02.465375+05:30
Durgapur,West Bengal,23.5204,87.3119,24.5,76,0.0,994.8,8.35,28.4,156,71.0,62.4,3,5,7,1,2026-03-28T21:05:02.465413+05:30
Asansol,West Bengal,23.6739,86.9524,25.1,72,0.0,993.3,8.35,31.7,155,78.7,71.2,7,5,7,1,2026-03-28T21:05:02.465424+05:30
Pondicherry,Puducherry,11.9139,79.8145,25.9,91,0.0,1008.1,9.25,32.4,69,18.6,13.1,7,0,4,1,2026-03-28T21:05:02.465433+05:30
Port Blair,Andaman and Nicobar Islands,11.6234,92.7265,28.5,78,0.0,1006.7,9.15,27.0,69,24.4,19.3,7,5,4,1,2026-03-28T21:05:02.465441+05:30
Haridwar,Uttarakhand,29.9457,78.1642,24.5,68,0.0,972.4,5.7,27.0,117,36.9,32.6,3,5,3,1,2026-03-28T21:05:02.465448+05:30
Rishikesh,Uttarakhand,30.0869,78.2676,23.1,70,0.0,965.2,5.8,24.8,103,28.2,24.4,3,5,3,1,2026-03-28T21:05:02.465455+05:30
Nainital,Uttarakhand,29.3919,79.4542,17.5,68,0.0,804.0,4.8,25.9,109,31.3,26.2,3,5,3,0,2026-03-28T21:05:02.465463+05:30
Mussoorie,Uttarakhand,30.4599,78.0664,15.6,78,0.0,800.2,5.65,25.9,122,40.3,35.4,3,5,3,0,2026-03-28T21:05:02.465470+05:30
Dharamshala,Himachal Pradesh,32.219,76.3234,18.7,76,0.0,866.6,6.9,16.6,104,29.5,20.0,3,5,7,0,2026-03-28T21:05:02.465477+05:30
Dalhousie,Himachal Pradesh,32.5387,75.971,15.8,74,0.0,801.0,6.45,17.3,117,32.5,28.8,3,5,7,0,2026-03-28T21:05:02.465486+05:30
Patiala,Punjab,30.3398,76.3869,23.2,66,0.0,976.0,5.95,17.3,99,77.1,44.1,3,5,3,1,2026-03-28T21:05:02.465493+05:30
Bhatinda,Punjab,30.211,74.9455,24.9,56,0.0,980.9,6.95,17.3,79,45.6,28.9,0,5,7,0,2026-03-28T21:05:02.465501+05:30
Rohtak,Haryana,28.8955,76.6066,24.5,60,0.0,979.4,6.25,14.8,134,152.3,58.2,0,5,7,1,2026-03-28T21:05:02.465508+05:30
Panipat,Haryana,29.3909,76.9635,24.2,60,0.0,978.3,5.65,19.4,199,229.6,74.0,0,5,3,0,2026-03-28T21:05:02.465516+05:30
Mathura,Uttar Pradesh,27.4924,77.6737,24.8,58,0.0,984.2,6.5,20.9,275,406.1,73.1,0,5,7,0,2026-03-28T21:05:02.465522+05:30
Vrindavan,Uttar Pradesh,27.5823,77.7027,24.4,59,0.0,984.8,6.5,22.7,275,406.1,73.1,0,5,7,0,2026-03-28T21:05:02.465529+05:30
Ayodhya,Uttar Pradesh,26.7922,82.1998,25.1,64,0.0,993.6,6.85,31.7,98,75.4,34.9,7,5,7,1,2026-03-28T21:05:02.465536+05:30
Ratlam,Madhya Pradesh,23.3315,75.0367,27.1,55,0.0,953.0,8.1,37.1,50,18.7,10.6,4,5,7,1,2026-03-28T21:05:02.465543+05:30
Sagar,Madhya Pradesh,23.8388,78.7378,28.7,42,0.0,948.0,8.15,32.4,57,45.4,15.5,4,5,7,0,2026-03-28T21:05:02.465549+05:30
Satna,Madhya Pradesh,24.6005,80.8322,27.9,37,0.0,969.1,8.1,23.8,90,44.9,17.1,4,5,7,0,2026-03-28T21:05:02.465556+05:30
Akola,Maharashtra,20.7002,77.0082,28.9,39,0.0,973.1,8.5,37.1,64,20.4,14.4,4,5,7,0,2026-03-28T21:05:02.465563+05:30
Amravati,Maharashtra,20.9374,77.7796,28.6,42,0.0,965.0,8.45,33.5,64,18.1,12.7,4,5,7,0,2026-03-28T21:05:02.465571+05:30
Latur,Maharashtra,18.4088,76.5604,29.7,32,0.0,938.2,8.8,32.4,72,28.3,25.9,4,5,7,0,2026-03-28T21:05:02.465577+05:30
Nanded,Maharashtra,19.1383,77.3091,30.3,29,0.0,966.0,8.7,28.8,76,20.3,18.5,0,5,7,0,2026-03-28T21:05:02.465584+05:30
Gulbarga,Karnataka,17.3297,76.8343,32.1,25,0.0,956.9,8.85,31.7,99,31.1,25.6,0,5,7,0,2026-03-28T21:05:02.465590+05:30
Bidar,Karnataka,17.9104,77.5199,31.0,28,0.0,933.9,8.85,28.8,103,21.8,20.1,0,5,7,0,2026-03-28T21:05:02.465596+05:30
Hospet,Karnataka,15.2689,76.3909,29.9,51,0.0,955.3,9.1,45.0,134,64.7,55.2,4,5,7,1,2026-03-28T21:05:02.465602+05:30
Tirupur,Tamil Nadu,11.1085,77.3411,28.1,73,0.0,974.5,9.45,43.2,137,45.2,40.6,7,5,7,1,2026-03-28T21:05:02.465607+05:30
Alappuzha,Kerala,9.4981,76.3388,28.9,80,0.0,1008.8,9.1,31.3,86,37.0,31.1,7,0,4,1,2026-03-28T21:05:02.465614+05:30
Munnar,Kerala,10.0889,77.0595,21.6,93,0.0,857.2,9.7,40.7,79,44.4,40.7,3,5,7,1,2026-03-28T21:05:02.465621+05:30
Silchar,Assam,24.8333,92.7789,21.7,89,0.0,1005.7,4.85,30.2,153,93.4,82.2,3,5,0,1,2026-03-28T21:05:02.465627+05:30
Dibrugarh,Assam,27.4728,94.912,19.4,89,0.0,996.9,4.5,31.0,109,40.3,32.1,3,10,3,1,2026-03-28T21:05:02.465633+05:30
