city,state,latitude,longitude,temp,humidity,rain,pressure,uv_index,wind_gusts,aqi,pm10,pm2_5,no2,co,o3,so2,mosquito_risk,arthritis_risk,migraine_risk,frizz_risk,updated_at
Delhi,Delhi,28.6139,77.209,31.5,54,0.0,978.1,7.75,31.3,176,272.9,118.5,77.5,620.0,8.0,32.7,0,5,7,1,2026-06-26T03:15:49.112593+05:30
Mumbai,Maharashtra,19.076,72.8777,26.7,89,0.0,1005.8,6.85,34.2,52,17.3,9.3,9.0,180.0,45.0,8.7,7,5,4,1,2026-06-26T03:15:49.112631+05:30
Bangalore,Karnataka,12.9716,77.5946,21.1,91,0.0,910.0,6.9,45.0,30,7.7,5.8,9.2,180.0,40.0,4.2,3,5,7,1,2026-06-26T03:15:49.112669+05:30
Hyderabad,Telangana,17.385,78.4867,24.9,81,0.0,950.0,7.55,35.3,47,21.8,13.4,9.3,208.0,57.0,4.6,3,5,7,1,2026-06-26T03:15:49.112680+05:30
Chennai,Tamil Nadu,13.0827,80.2707,29.0,70,0.0,1004.1,8.3,36.4,61,25.0,19.4,17.4,235.0,59.0,8.6,7,5,4,1,2026-06-26T03:15:49.112688+05:30
Kolkata,West Bengal,22.5726,88.3639,27.5,93,0.0,1002.6,8.85,35.3,93,28.3,25.7,10.5,325.0,71.0,7.6,7,5,4,1,2026-06-26T03:15:49.112696+05:30
Pune,Maharashtra,18.5204,73.8567,23.2,90,0.0,945.3,7.85,43.6,32,9.7,7.1,9.4,136.0,36.0,7.0,3,5,7,1,2026-06-26T03:15:49.112703+05:30
Ahmedabad,Gujarat,23.0225,72.5714,30.6,61,0.0,997.8,8.05,31.3,73,43.4,20.0,4.4,112.0,49.0,2.9,3,5,7,1,2026-06-26T03:15:49.112710+05:30
Jaipur,Rajasthan,26.9124,75.7873,28.7,67,0.0,955.7,8.15,22.0,129,115.9,45.2,13.6,215.0,45.0,3.8,7,5,7,1,2026-06-26T03:15:49.112716+05:30
Lucknow,Uttar Pradesh,26.8467,80.9462,32.5,53,0.0,988.4,8.3,26.3,160,218.4,92.2,51.7,661.0,26.0,15.4,0,5,7,1,2026-06-26T03:15:49.112727+05:30
Kanpur,Uttar Pradesh,26.4499,80.3319,32.8,48,0.0,986.6,8.05,19.4,152,170.0,61.5,25.1,331.0,47.0,8.1,0,5,7,1,2026-06-26T03:15:49.112734+05:30
Chandigarh,Chandigarh,30.7333,76.7794,27.3,76,0.0,964.3,7.8,20.9,154,78.9,70.8,63.1,806.0,7.0,6.2,7,5,7,1,2026-06-26T03:15:49.112741+05:30
Srinagar,Jammu and Kashmir,34.0837,74.7973,16.2,100,0.0,838.3,9.05,22.3,75,34.0,32.4,29.7,425.0,10.0,1.1,3,10,7,1,2026-06-26T03:15:49.112747+05:30
Jammu,Jammu and Kashmir,32.7266,74.857,26.6,71,0.0,968.4,8.65,25.2,101,52.5,45.3,51.6,541.0,18.0,4.1,7,5,7,1,2026-06-26T03:15:49.112754+05:30
Amritsar,Punjab,31.634,74.8723,26.7,84,0.0,976.2,8.5,14.4,151,102.9,74.0,47.2,712.0,36.0,10.4,7,5,7,1,2026-06-26T03:15:49.112760+05:30
Ludhiana,Punjab,30.901,75.8573,29.2,65,0.0,974.0,8.05,27.0,166,190.0,103.8,51.7,611.0,31.0,11.9,7,5,7,1,2026-06-26T03:15:49.112766+05:30
Jalandhar,Punjab,31.326,75.5762,28.2,70,0.0,975.1,8.25,25.9,156,140.6,82.2,47.4,622.0,51.0,11.2,7,5,7,1,2026-06-26T03:15:49.112773+05:30
Dehradun,Uttarakhand,30.6284,78.0322,16.0,99,0.0,827.8,7.65,32.4,84,39.3,39.2,33.1,213.0,20.0,0.8,3,10,7,0,2026-06-26T03:15:49.112779+05:30
Shimla,Himachal Pradesh,31.1048,77.1734,12.1,98,0.0,780.5,7.65,28.1,100,50.4,45.2,25.4,358.0,33.0,0.1,3,10,7,0,2026-06-26T03:15:49.112788+05:30
Manali,Himachal Pradesh,32.2396,77.1887,14.8,82,0.0,816.0,7.35,34.9,42,4.6,4.1,76.7,233.0,2.0,0.0,3,10,7,0,2026-06-26T03:15:49.112798+05:30
Gurgaon,Haryana,28.4595,77.0266,29.5,64,0.0,976.6,7.7,23.8,172,342.7,106.6,57.8,655.0,5.0,14.5,7,5,7,1,2026-06-26T03:15:49.112805+05:30
Noida,Uttar Pradesh,28.5355,77.391,30.6,64,0.0,979.4,7.7,24.8,172,342.7,106.6,57.8,987.0,5.0,14.5,3,5,7,1,2026-06-26T03:15:49.112811+05:30
Ghaziabad,Uttar Pradesh,28.6692,77.4538,30.4,64,0.0,977.7,7.6,22.0,180,238.0,104.3,39.9,548.0,55.0,19.6,3,5,7,1,2026-06-26T03:15:49.112818+05:30
Faridabad,Haryana,28.4089,77.3178,31.3,55,0.0,978.8,7.75,28.4,172,342.7,106.6,57.8,967.0,5.0,14.5,0,5,7,1,2026-06-26T03:15:49.112824+05:30
Meerut,Uttar Pradesh,28.9845,77.7064,30.7,61,0.0,976.7,7.7,24.8,180,238.0,104.3,39.9,710.0,55.0,19.6,3,5,7,1,2026-06-26T03:15:49.112830+05:30
Agra,Uttar Pradesh,27.1767,78.0081,30.7,57,0.0,983.2,8.1,25.9,158,193.7,67.3,43.1,984.0,18.0,8.7,0,5,7,1,2026-06-26T03:15:49.112836+05:30
Varanasi,Uttar Pradesh,25.3176,82.9739,32.4,58,0.0,993.1,8.8,25.2,117,44.0,30.6,10.7,257.0,77.0,11.7,0,5,7,1,2026-06-26T03:15:49.112843+05:30
Prayagraj,Uttar Pradesh,25.4358,81.8463,30.7,67,0.1,991.7,8.75,29.5,137,53.4,38.6,18.1,224.0,59.0,8.6,6,5,7,1,2026-06-26T03:15:49.112850+05:30
Gorakhpur,Uttar Pradesh,26.7606,83.3732,27.1,92,0.0,993.2,8.3,23.8,162,129.0,85.4,28.5,665.0,76.0,12.9,7,5,7,1,2026-06-26T03:15:49.112856+05:30
Bareilly,Uttar Pradesh,28.367,79.4304,31.0,56,0.0,981.8,8.1,19.8,166,218.9,101.5,50.0,602.0,34.0,13.7,0,5,7,1,2026-06-26T03:15:49.112864+05:30
Aligarh,Uttar Pradesh,27.8974,78.088,30.5,60,0.0,980.7,6.0,22.3,209,401.4,129.0,79.7,747.0,2.0,16.2,0,5,3,1,2026-06-26T03:15:49.112871+05:30
Moradabad,Uttar Pradesh,28.8386,78.7733,30.5,60,0.0,978.9,7.9,27.4,173,219.3,120.6,58.4,762.0,33.0,17.8,0,5,7,1,2026-06-26T03:15:49.112877+05:30
Saharanpur,Uttar Pradesh,29.9637,77.546,28.9,71,0.0,971.2,7.55,21.6,162,163.0,107.6,59.4,768.0,24.0,19.2,7,5,7,1,2026-06-26T03:15:49.112883+05:30
Jhansi,Uttar Pradesh,25.4484,78.5685,29.0,68,0.0,973.7,8.0,28.4,87,49.5,28.6,8.4,178.0,62.0,8.7,7,5,7,1,2026-06-26T03:15:52.401814+05:30
Surat,Gujarat,21.1702,72.8311,29.0,78,0.0,1003.1,7.6,41.0,71,33.2,19.8,18.9,290.0,30.0,31.1,7,5,4,1,2026-06-26T03:15:52.401843+05:30
Vadodara,Gujarat,22.3072,73.1812,31.4,52,0.0,1000.1,8.0,45.0,73,25.0,15.5,16.0,160.0,30.0,15.8,0,5,4,1,2026-06-26T03:15:52.401853+05:30
Rajkot,Gujarat,22.3039,70.8022,28.5,74,0.0,990.7,7.55,44.6,68,37.1,17.6,6.5,101.0,41.0,6.2,7,5,7,1,2026-06-26T03:15:52.401861+05:30
Thane,Maharashtra,19.2183,72.9781,25.6,94,0.0,1005.3,7.15,32.0,52,17.3,9.3,9.0,153.0,45.0,8.7,7,5,4,1,2026-06-26T03:15:52.401869+05:30
Nagpur,Maharashtra,21.1458,79.0882,27.1,85,0.0,968.9,8.75,32.0,74,35.3,24.9,16.7,265.0,51.0,11.5,7,5,7,1,2026-06-26T03:15:52.401875+05:30
Nashik,Maharashtra,19.9975,73.7898,23.8,90,0.0,942.6,7.2,41.0,38,13.5,10.4,16.1,128.0,26.0,16.2,3,5,7,1,2026-06-26T03:15:52.401883+05:30
Aurangabad,Maharashtra,19.8762,75.3433,23.7,88,0.0,941.2,6.15,36.0,51,10.8,8.1,9.6,144.0,54.0,13.1,3,5,7,1,2026-06-26T03:15:52.401890+05:30
Solapur,Maharashtra,17.6599,75.9064,25.9,76,0.0,954.6,2.25,53.6,42,13.2,10.0,11.9,140.0,33.0,3.2,7,5,3,1,2026-06-26T03:15:52.401897+05:30
Kolhapur,Maharashtra,16.705,74.2433,22.5,94,0.0,945.7,8.2,46.4,21,4.3,3.2,3.0,108.0,45.0,1.2,3,5,7,1,2026-06-26T03:15:52.401904+05:30
Goa,Goa,15.2993,74.124,24.6,95,0.0,996.8,7.15,32.0,42,16.6,10.6,3.9,252.0,48.0,1.4,3,5,7,1,2026-06-26T03:15:52.401910+05:30
Jodhpur,Rajasthan,26.2389,73.0243,30.3,56,0.0,977.7,8.4,33.5,139,135.5,38.4,13.7,193.0,33.0,2.5,0,5,7,1,2026-06-26T03:15:52.401917+05:30
Udaipur,Rajasthan,24.5854,73.7125,27.3,63,0.0,942.4,8.55,50.4,71,50.6,24.5,7.5,200.0,54.0,2.9,7,5,7,1,2026-06-26T03:15:52.401923+05:30
Kota,Rajasthan,25.2138,75.8648,27.7,76,0.0,974.9,8.3,21.6,90,54.4,32.1,13.1,196.0,42.0,4.8,7,5,7,1,2026-06-26T03:15:52.401930+05:30
Bikaner,Rajasthan,28.0229,73.3119,30.9,55,0.0,976.4,8.45,30.6,156,136.9,42.5,3.7,109.0,55.0,1.8,0,5,7,1,2026-06-26T03:15:52.401936+05:30
Ajmer,Rajasthan,26.4499,74.6399,26.9,70,0.0,950.2,8.25,31.0,108,79.2,36.8,17.2,201.0,29.0,4.7,7,5,7,1,2026-06-26T03:15:52.401942+05:30
Gwalior,Madhya Pradesh,26.2183,78.1828,29.7,62,0.0,978.6,8.25,31.3,93,68.2,32.0,9.4,177.0,50.0,3.7,7,5,7,1,2026-06-26T03:15:52.401949+05:30
Indore,Madhya Pradesh,22.7196,75.8577,25.4,92,0.0,944.4,8.55,31.3,90,56.1,36.4,11.4,431.0,59.0,6.9,7,5,7,1,2026-06-26T03:15:52.401955+05:30
Bhopal,Madhya Pradesh,23.2599,77.4126,24.7,91,0.0,949.7,8.5,31.3,84,47.5,31.7,11.0,261.0,51.0,4.6,3,5,7,1,2026-06-26T03:15:52.401962+05:30
Jabalpur,Madhya Pradesh,23.1815,79.9864,25.6,91,0.0,957.7,8.8,25.9,76,30.5,23.7,13.0,226.0,54.0,4.0,7,5,7,1,2026-06-26T03:15:52.401969+05:30
Ujjain,Madhya Pradesh,23.1765,75.7885,25.4,87,0.0,949.8,8.5,42.1,84,54.9,34.6,7.9,408.0,65.0,7.2,7,5,7,1,2026-06-26T03:15:52.401975+05:30
Visakhapatnam,Andhra Pradesh,17.6868,83.2185,28.2,88,0.0,998.9,8.6,32.4,78,29.0,26.1,36.5,411.0,45.0,40.7,7,5,7,1,2026-06-26T03:15:52.401982+05:30
Vijayawada,Andhra Pradesh,16.5062,80.648,29.5,82,0.0,998.3,7.1,40.3,64,24.4,21.5,12.8,310.0,56.0,6.0,7,5,7,1,2026-06-26T03:15:52.401988+05:30
Guntur,Andhra Pradesh,16.3067,80.4365,29.3,83,0.0,999.5,6.95,38.5,58,23.3,20.1,14.1,304.0,51.0,6.4,7,5,7,1,2026-06-26T03:15:52.401995+05:30
Nellore,Andhra Pradesh,14.4426,79.9865,26.7,91,0.0,1002.6,8.95,42.8,41,11.6,9.3,10.6,155.0,39.0,3.5,7,5,4,1,2026-06-26T03:15:52.402002+05:30
Kurnool,Andhra Pradesh,15.8281,78.0373,25.1,92,0.1,974.4,5.3,37.8,45,12.1,8.9,10.5,168.0,42.0,4.0,10,5,3,1,2026-06-26T03:15:52.402010+05:30
Kakinada,Andhra Pradesh,16.9891,82.2475,28.9,78,0.0,1002.9,7.4,35.3,61,24.6,20.1,8.5,155.0,76.0,6.1,7,5,4,1,2026-06-26T03:15:52.402017+05:30
Tirupati,Andhra Pradesh,13.6288,79.4192,28.7,60,0.0,988.2,8.5,36.4,42,18.7,16.2,23.6,209.0,15.0,2.4,4,5,7,1,2026-06-26T03:15:52.402023+05:30
Warangal,Telangana,17.9689,79.5941,27.4,72,0.0,975.1,5.95,35.6,62,18.0,15.5,9.0,204.0,62.0,2.6,7,5,3,1,2026-06-26T03:15:52.402030+05:30
Nizamabad,Telangana,18.6725,78.0941,25.0,90,0.0,961.4,6.9,39.6,62,18.5,13.4,8.8,228.0,60.0,4.8,7,5,7,1,2026-06-26T03:15:52.402037+05:30
Mysore,Karnataka,12.2958,76.6396,20.9,97,0.0,926.9,8.75,42.1,23,4.7,4.0,6.7,116.0,38.0,2.0,3,5,7,1,2026-06-26T03:15:52.402043+05:30
Mangalore,Karnataka,12.9141,74.856,23.6,98,0.1,1006.4,7.9,30.2,42,17.1,12.5,10.1,205.0,29.0,2.9,6,5,4,1,2026-06-26T03:15:52.402049+05:30
Hubli-Dharwad,Karnataka,15.3647,75.124,22.6,91,0.0,939.1,7.2,44.6,20,2.0,1.5,2.7,100.0,45.0,1.2,3,5,7,1,2026-06-26T03:15:52.402056+05:30
Belgaum,Karnataka,15.8497,74.4977,21.9,93,0.0,923.7,8.55,46.4,20,3.2,2.4,3.0,100.0,45.0,1.4,3,5,7,1,2026-06-26T03:15:55.676999+05:30
Coimbatore,Tamil Nadu,11.0168,76.9558,23.6,94,0.0,960.2,8.6,46.8,24,7.5,6.1,7.8,156.0,31.0,3.2,3,5,7,1,2026-06-26T03:15:55.677061+05:30
Madurai,Tamil Nadu,9.9252,78.1198,28.1,62,0.0,991.1,8.4,29.2,69,36.8,35.7,36.1,162.0,2.0,8.1,7,5,7,1,2026-06-26T03:15:55.677074+05:30
Trichy,Tamil Nadu,10.7905,78.7047,28.1,68,0.0,997.4,7.95,39.2,28,9.1,6.7,8.2,107.0,30.0,3.2,7,5,7,1,2026-06-26T03:15:55.677084+05:30
Salem,Tamil Nadu,11.6643,78.146,26.2,78,0.0,975.6,8.55,37.4,47,16.3,14.6,20.3,373.0,27.0,6.6,7,5,7,1,2026-06-26T03:15:55.677094+05:30
Tirunelveli,Tamil Nadu,8.7139,77.7567,28.5,67,0.0,1001.6,8.3,52.6,22,6.0,5.2,6.6,132.0,36.0,2.6,7,5,4,1,2026-06-26T03:15:55.677103+05:30
Vellore,Tamil Nadu,12.9165,79.1325,27.5,67,0.0,981.9,8.55,41.0,55,31.0,27.2,32.9,315.0,11.0,5.7,7,5,7,1,2026-06-26T03:15:55.677112+05:30
Erode,Tamil Nadu,11.341,77.7172,26.2,80,0.0,987.4,8.45,40.7,40,15.0,13.7,16.7,140.0,29.0,4.2,7,5,7,1,2026-06-26T03:15:55.677122+05:30
Kochi,Kerala,9.9312,76.2673,25.6,93,0.1,1008.7,8.0,34.2,44,13.6,11.4,12.3,173.0,24.0,3.3,10,0,4,1,2026-06-26T03:15:55.677129+05:30
Thiruvananthapuram,Kerala,8.5241,76.9366,24.7,96,0.1,1008.5,8.45,46.1,26,9.5,5.9,2.9,146.0,50.0,1.4,6,0,4,1,2026-06-26T03:15:55.677137+05:30
Kozhikode,Kerala,11.2588,75.7804,24.7,97,0.1,1007.6,8.25,34.2,26,11.6,5.7,1.5,166.0,55.0,0.8,6,5,4,1,2026-06-26T03:15:55.677144+05:30
Thrissur,Kerala,10.5276,76.2144,23.6,99,0.2,1007.2,8.0,36.4,43,15.4,12.6,9.5,193.0,30.0,3.1,6,5,4,1,2026-06-26T03:15:55.677152+05:30
Kannur,Kerala,11.8745,75.3704,23.7,96,0.0,1006.7,8.3,28.1,28,10.1,6.5,10.7,172.0,26.0,2.2,3,5,4,1,2026-06-26T03:15:55.677159+05:30
Patna,Bihar,25.5941,85.1376,29.9,78,0.0,996.5,8.9,28.4,143,80.8,57.0,19.4,439.0,75.0,11.3,7,5,7,1,2026-06-26T03:15:55.677167+05:30
Gaya,Bihar,24.7914,85.0002,29.9,73,0.0,989.8,8.95,19.8,98,64.5,50.8,19.9,305.0,62.0,10.1,7,5,7,1,2026-06-26T03:15:55.677174+05:30
Muzaffarpur,Bihar,26.1209,85.3647,28.4,86,0.0,996.8,8.85,34.6,157,85.7,64.0,17.6,484.0,83.0,12.3,7,5,7,1,2026-06-26T03:15:55.677213+05:30
Bhagalpur,Bihar,25.2425,87.0117,29.3,81,0.0,997.7,8.65,26.3,152,50.6,49.0,14.1,458.0,93.0,22.2,7,5,7,1,2026-06-26T03:15:55.677222+05:30
Ranchi,Jharkhand,23.3441,85.3096,24.6,86,0.0,934.7,9.0,28.1,87,45.2,44.9,16.4,293.0,64.0,14.2,3,5,7,1,2026-06-26T03:15:55.677231+05:30
Jamshedpur,Jharkhand,22.8046,86.2029,27.7,87,0.0,987.7,9.05,32.8,91,31.1,30.7,25.0,609.0,48.0,26.1,7,5,7,1,2026-06-26T03:15:55.677240+05:30
Dhanbad,Jharkhand,23.7957,86.4304,28.4,84,0.0,976.7,8.85,31.3,142,66.1,65.7,62.3,1937.0,24.0,148.4,7,5,7,1,2026-06-26T03:15:55.677250+05:30
Bokaro,Jharkhand,23.6693,86.1511,28.3,82,0.0,980.4,8.85,32.0,122,61.0,60.8,44.0,694.0,39.0,104.0,7,5,7,1,2026-06-26T03:15:55.677259+05:30
Bhubaneswar,Odisha,20.2961,85.8245,27.9,99,0.0,998.4,9.05,30.6,82,34.6,31.7,11.2,636.0,75.0,7.5,7,5,7,1,2026-06-26T03:15:55.677268+05:30
Cuttack,Odisha,20.4625,85.8828,28.1,97,0.0,1000.3,9.1,30.2,82,34.6,31.7,11.2,706.0,75.0,7.5,7,5,4,1,2026-06-26T03:15:55.677275+05:30
Rourkela,Odisha,22.2604,84.8536,28.7,74,0.0,981.6,8.7,31.7,91,41.7,41.4,25.4,573.0,43.0,16.9,7,5,7,1,2026-06-26T03:15:55.677283+05:30
Raipur,Chhattisgarh,21.2514,81.6296,29.7,65,0.0,970.5,8.95,32.0,87,27.3,27.0,43.9,921.0,38.0,62.7,7,5,7,1,2026-06-26T03:15:55.677290+05:30
Bhilai,Chhattisgarh,21.1938,81.3509,28.9,70,0.0,970.9,8.95,35.3,78,23.9,23.2,34.7,1244.0,54.0,54.4,7,5,7,1,2026-06-26T03:15:55.677297+05:30
Guwahati,Assam,26.1158,91.7086,25.9,97,0.2,999.2,8.8,22.0,74,35.6,31.2,7.6,350.0,70.0,5.9,10,5,7,1,2026-06-26T03:15:55.677304+05:30
Agartala,Tripura,23.8315,91.2868,25.7,94,0.0,1004.0,8.2,26.3,83,25.1,22.8,12.5,226.0,52.0,3.3,7,5,4,1,2026-06-26T03:15:55.677311+05:30
Shillong,Meghalaya,25.5788,91.8933,19.8,98,0.0,855.9,7.05,20.5,45,5.3,4.2,4.0,279.0,96.0,4.3,3,10,7,1,2026-06-26T03:15:55.677318+05:30
Imphal,Manipur,24.817,93.9368,22.3,98,0.0,921.2,8.95,24.1,65,34.5,28.1,12.0,535.0,41.0,3.4,3,5,7,1,2026-06-26T03:15:55.677326+05:30
Aizawl,Mizoram,23.7271,92.7176,19.4,98,0.0,890.7,7.75,21.2,62,24.5,15.9,4.0,199.0,54.0,1.3,3,10,7,1,2026-06-26T03:15:55.677361+05:30
Kohima,Nagaland,25.6701,94.1077,19.2,97,0.0,853.6,7.8,23.0,34,7.3,5.1,2.9,248.0,72.0,1.4,3,10,7,1,2026-06-26T03:15:55.677371+05:30
Gangtok,Sikkim,27.3314,88.6138,18.0,89,0.1,836.4,8.15,35.6,66,10.0,9.2,10.4,662.0,93.0,1.9,6,10,7,1,2026-06-26T03:15:55.677380+05:30
Siliguri,West Bengal,26.7271,88.3953,25.0,98,0.2,990.8,8.6,22.0,104,33.1,28.7,11.0,458.0,116.0,5.9,10,5,7,1,2026-06-26T03:15:58.965591+05:30
Durgapur,West Bengal,23.5204,87.3119,28.1,88,0.0,991.8,9.0,32.4,148,46.6,46.1,29.9,715.0,55.0,42.5,7,5,7,1,2026-06-26T03:15:58.965626+05:30
Asansol,West Bengal,23.6739,86.9524,28.1,88,0.0,990.4,8.95,32.4,128,44.0,43.7,34.6,479.0,47.0,49.8,7,5,7,1,2026-06-26T03:15:58.965688+05:30
Pondicherry,Puducherry,11.9139,79.8145,28.8,80,0.0,1005.7,7.1,41.8,63,14.3,12.2,10.9,190.0,65.0,7.4,7,5,4,1,2026-06-26T03:15:58.965711+05:30
Port Blair,Andaman and Nicobar Islands,11.6234,92.7265,25.2,95,0.0,1006.0,8.35,34.9,26,5.4,3.4,0.1,87.0,60.0,0.3,7,5,4,1,2026-06-26T03:15:58.965722+05:30
Haridwar,Uttarakhand,29.9457,78.1642,26.9,78,0.0,969.5,7.6,21.6,145,66.1,55.3,31.6,303.0,43.0,7.9,7,5,7,1,2026-06-26T03:15:58.965731+05:30
Rishikesh,Uttarakhand,30.0869,78.2676,25.0,82,0.0,962.4,7.7,24.5,101,41.0,29.9,12.8,374.0,95.0,4.2,7,5,7,1,2026-06-26T03:15:58.965741+05:30
Nainital,Uttarakhand,29.3919,79.4542,14.9,98,0.0,803.4,7.0,29.9,105,48.0,33.3,21.7,311.0,61.0,3.3,3,10,7,0,2026-06-26T03:15:58.965751+05:30
Mussoorie,Uttarakhand,30.4599,78.0664,16.3,86,0.0,801.3,6.8,40.0,110,58.1,49.6,43.0,289.0,43.0,7.9,3,10,7,0,2026-06-26T03:15:58.965760+05:30
Dharamshala,Himachal Pradesh,32.219,76.3234,22.1,63,0.0,867.0,8.55,37.1,50,13.2,12.0,27.5,246.0,10.0,0.0,3,5,7,0,2026-06-26T03:15:58.965769+05:30
Dalhousie,Himachal Pradesh,32.5387,75.971,15.4,86,0.0,801.9,8.3,31.3,81,36.8,33.1,28.1,361.0,40.0,0.9,3,10,7,0,2026-06-26T03:15:58.965779+05:30
Patiala,Punjab,30.3398,76.3869,29.7,65,0.0,973.4,7.7,25.2,169,229.1,128.1,62.3,822.0,27.0,14.4,7,5,7,1,2026-06-26T03:15:58.965787+05:30
Bhatinda,Punjab,30.211,74.9455,29.6,69,0.0,978.9,7.0,23.0,160,143.4,77.1,43.9,454.0,51.0,13.6,7,5,7,1,2026-06-26T03:15:58.965795+05:30
Rohtak,Haryana,28.8955,76.6066,28.7,68,0.0,976.7,7.1,18.4,171,353.9,113.9,61.4,729.0,6.0,7.8,7,5,7,1,2026-06-26T03:15:58.965809+05:30
Panipat,Haryana,29.3909,76.9635,28.9,76,0.0,975.4,6.75,16.9,260,385.6,162.1,92.5,700.0,1.0,21.1,7,5,7,1,2026-06-26T03:15:58.965818+05:30
Mathura,Uttar Pradesh,27.4924,77.6737,30.6,62,0.0,982.2,8.05,19.4,182,151.8,56.0,40.5,521.0,22.0,4.7,3,5,7,1,2026-06-26T03:15:58.965826+05:30
Vrindavan,Uttar Pradesh,27.5823,77.7027,30.6,62,0.0,982.6,8.0,18.7,182,151.8,56.0,40.5,591.0,22.0,4.7,3,5,7,1,2026-06-26T03:15:58.965834+05:30
Ayodhya,Uttar Pradesh,26.7922,82.1998,27.7,90,0.0,990.7,8.45,40.0,165,200.7,106.9,54.9,896.0,20.0,13.1,7,5,7,1,2026-06-26T03:15:58.965843+05:30
Ratlam,Madhya Pradesh,23.3315,75.0367,26.4,74,0.0,951.0,8.15,37.8,81,44.6,28.1,7.8,202.0,64.0,10.8,7,5,7,1,2026-06-26T03:15:58.965851+05:30
Sagar,Madhya Pradesh,23.8388,78.7378,24.1,95,0.0,945.9,8.7,29.5,82,42.8,27.0,10.7,186.0,57.0,4.2,3,5,7,1,2026-06-26T03:15:58.965860+05:30
Satna,Madhya Pradesh,24.6005,80.8322,28.6,68,0.0,967.2,8.8,27.7,83,40.0,29.2,11.6,180.0,64.0,9.1,7,5,7,1,2026-06-26T03:15:58.965868+05:30
Akola,Maharashtra,20.7002,77.0082,27.0,81,0.0,971.6,5.75,39.6,68,25.2,16.9,8.9,162.0,70.0,6.4,7,5,3,1,2026-06-26T03:15:58.965878+05:30
Amravati,Maharashtra,20.9374,77.7796,26.1,85,0.0,963.5,8.5,35.6,68,26.1,18.1,9.5,221.0,70.0,6.8,7,5,7,1,2026-06-26T03:15:58.965885+05:30
Latur,Maharashtra,18.4088,76.5604,24.4,93,0.0,936.9,1.2,32.4,50,11.1,8.4,8.1,176.0,49.0,3.6,3,5,3,1,2026-06-26T03:15:58.965892+05:30
Nanded,Maharashtra,19.1383,77.3091,25.3,85,0.0,965.4,4.0,31.7,58,17.6,12.9,7.6,189.0,61.0,2.7,7,5,3,1,2026-06-26T03:15:58.965898+05:30
Gulbarga,Karnataka,17.3297,76.8343,24.8,88,0.0,956.0,2.9,55.1,44,12.3,8.5,8.7,170.0,46.0,3.4,3,5,3,1,2026-06-26T03:15:58.965904+05:30
Bidar,Karnataka,17.9104,77.5199,23.4,96,0.0,932.2,3.35,34.9,51,15.9,11.1,8.2,158.0,58.0,3.1,3,5,3,1,2026-06-26T03:15:58.965910+05:30
Hospet,Karnataka,15.2689,76.3909,23.3,89,0.0,954.2,8.1,41.4,20,4.9,3.6,3.9,126.0,41.0,1.1,3,5,7,1,2026-06-26T03:15:58.965916+05:30
Tirupur,Tamil Nadu,11.1085,77.3411,24.4,90,0.0,973.7,8.5,49.3,47,19.1,17.6,21.4,125.0,22.0,5.6,3,5,7,1,2026-06-26T03:15:58.965922+05:30
Alappuzha,Kerala,9.4981,76.3388,25.8,96,0.1,1008.9,8.05,41.8,36,12.0,8.4,6.8,82.0,42.0,2.6,10,0,4,1,2026-06-26T03:15:58.965929+05:30
Munnar,Kerala,10.0889,77.0595,16.3,91,0.0,855.2,8.45,40.3,17,4.4,3.9,7.3,85.0,25.0,1.7,3,10,7,0,2026-06-26T03:15:58.965935+05:30
Silchar,Assam,24.8333,92.7789,25.7,98,0.1,1003.1,8.3,18.4,74,33.2,23.8,6.3,256.0,95.0,4.9,10,5,4,1,2026-06-26T03:15:58.965941+05:30
Dibrugarh,Assam,27.4728,94.912,25.0,98,0.4,993.0,8.8,24.5,54,18.6,16.2,9.8,244.0,76.0,1.9,10,5,7,1,2026-06-26T03:15:58.965948+05:30
