city,state,latitude,longitude,temp,humidity,rain,pressure,uv_index,wind_gusts,aqi,pm10,pm2_5,no2,co,o3,so2,mosquito_risk,arthritis_risk,migraine_risk,frizz_risk,updated_at
Delhi,Delhi,28.6139,77.209,33.8,50,0.0,980.4,7.75,25.9,280,215.1,70.8,11.4,468.0,211.0,29.2,0,5,7,1,2026-06-13T13:52:17.823574+05:30
Mumbai,Maharashtra,19.076,72.8777,32.9,58,0.0,1007.6,7.45,50.4,80,58.7,26.5,3.0,137.0,81.0,3.9,0,5,4,1,2026-06-13T13:52:17.823620+05:30
Bangalore,Karnataka,12.9716,77.5946,25.9,66,0.0,912.4,8.7,36.4,40,20.3,10.9,2.8,248.0,85.0,2.6,7,5,7,1,2026-06-13T13:52:17.823637+05:30
Hyderabad,Telangana,17.385,78.4867,35.3,45,0.0,951.7,5.85,40.7,79,52.6,24.1,1.4,197.0,111.0,2.6,0,5,6,1,2026-06-13T13:52:17.823647+05:30
Chennai,Tamil Nadu,13.0827,80.2707,32.1,55,0.0,1005.5,5.65,31.7,61,23.4,17.2,5.2,247.0,138.0,11.5,0,5,0,1,2026-06-13T13:52:17.823655+05:30
Kolkata,West Bengal,22.5726,88.3639,30.1,81,0.1,1001.9,8.9,34.9,138,46.1,32.0,1.6,375.0,155.0,8.0,6,5,4,1,2026-06-13T13:52:17.823663+05:30
Pune,Maharashtra,18.5204,73.8567,34.4,37,0.0,947.6,8.15,49.3,68,48.2,18.9,1.4,122.0,98.0,4.0,0,5,7,1,2026-06-13T13:52:17.823670+05:30
Ahmedabad,Gujarat,23.0225,72.5714,39.1,32,0.0,998.2,8.05,42.1,72,64.5,25.3,1.2,127.0,93.0,3.4,0,5,10,1,2026-06-13T13:52:17.823676+05:30
Jaipur,Rajasthan,26.9124,75.7873,37.0,40,0.0,957.1,8.2,61.9,119,159.3,41.0,0.9,162.0,120.0,4.5,0,5,10,1,2026-06-13T13:52:17.823686+05:30
Lucknow,Uttar Pradesh,26.8467,80.9462,34.5,54,0.0,989.9,8.25,32.4,138,127.6,60.3,1.4,321.0,189.0,10.8,0,5,7,1,2026-06-13T13:52:17.823693+05:30
Kanpur,Uttar Pradesh,26.4499,80.3319,36.5,50,0.0,988.1,8.3,52.2,154,168.1,64.3,1.7,278.0,193.0,12.1,0,5,10,1,2026-06-13T13:52:17.823699+05:30
Chandigarh,Chandigarh,30.7333,76.7794,30.9,63,0.1,968.0,7.75,45.4,97,50.9,25.0,1.9,249.0,178.0,7.7,6,5,7,1,2026-06-13T13:52:17.823705+05:30
Srinagar,Jammu and Kashmir,34.0837,74.7973,20.9,64,0.0,843.5,6.8,30.2,78,16.3,9.6,1.2,236.0,151.0,2.1,3,5,7,0,2026-06-13T13:52:17.823712+05:30
Jammu,Jammu and Kashmir,32.7266,74.857,29.9,48,0.0,972.3,7.95,38.2,91,76.1,33.3,1.3,268.0,175.0,3.0,4,5,7,1,2026-06-13T13:52:17.823721+05:30
Amritsar,Punjab,31.634,74.8723,27.3,68,0.0,980.3,8.45,51.5,162,177.9,43.9,1.1,219.0,149.0,5.7,7,5,7,1,2026-06-13T13:52:17.823728+05:30
Ludhiana,Punjab,30.901,75.8573,30.4,61,0.0,977.5,8.05,42.1,248,105.0,36.8,1.5,262.0,163.0,7.8,3,5,7,1,2026-06-13T13:52:17.823734+05:30
Jalandhar,Punjab,31.326,75.5762,28.6,65,0.0,979.0,8.2,49.7,151,112.5,36.7,1.3,246.0,162.0,8.0,7,5,7,1,2026-06-13T13:52:17.823741+05:30
Dehradun,Uttarakhand,30.6284,78.0322,22.5,53,0.0,832.2,7.7,36.7,61,32.2,14.9,0.3,176.0,143.0,1.4,0,5,7,0,2026-06-13T13:52:17.823748+05:30
Shimla,Himachal Pradesh,31.1048,77.1734,20.3,67,0.1,787.7,7.35,36.4,83,42.7,23.5,1.2,357.0,164.0,5.7,6,5,7,0,2026-06-13T13:52:17.823757+05:30
Manali,Himachal Pradesh,32.2396,77.1887,20.1,65,0.1,820.4,4.85,35.3,111,10.0,7.5,1.3,150.0,169.0,0.4,6,5,3,0,2026-06-13T13:52:17.823763+05:30
Gurgaon,Haryana,28.4595,77.0266,35.4,39,0.0,978.6,7.85,27.7,1414,434.9,99.2,12.2,400.0,200.0,25.9,0,5,10,1,2026-06-13T13:52:17.823772+05:30
Noida,Uttar Pradesh,28.5355,77.391,35.5,45,0.0,981.8,7.8,27.4,1414,434.9,99.2,12.2,337.0,200.0,25.9,0,5,10,1,2026-06-13T13:52:17.823779+05:30
Ghaziabad,Uttar Pradesh,28.6692,77.4538,35.0,48,0.0,980.1,7.8,29.5,151,191.9,63.8,5.8,263.0,190.0,20.1,0,5,7,1,2026-06-13T13:52:17.823785+05:30
Faridabad,Haryana,28.4089,77.3178,34.9,43,0.0,981.1,7.8,29.2,1414,434.9,99.2,12.2,315.0,200.0,25.9,0,5,7,1,2026-06-13T13:52:17.823792+05:30
Meerut,Uttar Pradesh,28.9845,77.7064,34.0,55,0.0,979.0,7.7,29.9,151,191.9,63.8,5.8,258.0,190.0,20.1,0,5,7,1,2026-06-13T13:52:17.823798+05:30
Agra,Uttar Pradesh,27.1767,78.0081,36.5,42,0.0,984.4,8.1,23.8,557,357.6,85.2,1.3,252.0,180.0,10.0,0,5,10,1,2026-06-13T13:52:17.823805+05:30
Varanasi,Uttar Pradesh,25.3176,82.9739,37.3,44,0.0,993.2,7.75,31.3,158,94.3,64.0,1.4,404.0,195.0,13.5,0,5,10,1,2026-06-13T13:52:17.823811+05:30
Prayagraj,Uttar Pradesh,25.4358,81.8463,36.4,47,0.0,992.3,8.75,37.8,158,101.5,66.4,1.6,417.0,201.0,13.3,0,5,10,1,2026-06-13T13:52:17.823818+05:30
Gorakhpur,Uttar Pradesh,26.7606,83.3732,34.9,61,0.0,993.1,8.7,22.0,145,89.9,50.6,1.4,348.0,182.0,8.9,3,5,7,1,2026-06-13T13:52:17.823826+05:30
Bareilly,Uttar Pradesh,28.367,79.4304,33.9,55,0.0,984.0,8.05,21.6,146,256.1,73.3,1.4,287.0,174.0,13.6,0,5,7,1,2026-06-13T13:52:17.823833+05:30
Aligarh,Uttar Pradesh,27.8974,78.088,36.0,43,0.0,982.5,7.95,27.7,292,299.9,81.3,1.9,271.0,187.0,13.9,0,5,10,1,2026-06-13T13:52:17.823840+05:30
Moradabad,Uttar Pradesh,28.8386,78.7733,34.0,54,0.0,981.2,7.95,24.5,154,247.7,72.6,2.4,301.0,183.0,15.7,0,5,7,1,2026-06-13T13:52:17.823847+05:30
Saharanpur,Uttar Pradesh,29.9637,77.546,31.6,57,0.1,974.2,7.55,26.6,109,95.2,36.1,2.5,306.0,162.0,8.6,3,5,7,1,2026-06-13T13:52:17.823853+05:30
Jhansi,Uttar Pradesh,25.4484,78.5685,38.2,35,0.0,974.5,8.5,48.6,140,100.8,42.8,1.1,154.0,137.0,10.9,0,5,10,1,2026-06-13T13:52:21.056852+05:30
Surat,Gujarat,21.1702,72.8311,35.4,50,0.1,1004.7,7.6,54.7,78,61.0,28.7,7.4,199.0,68.0,26.2,3,5,7,1,2026-06-13T13:52:21.056888+05:30
Vadodara,Gujarat,22.3072,73.1812,38.1,35,0.0,1000.8,8.0,51.8,73,68.5,25.4,1.3,131.0,98.0,3.4,0,5,7,1,2026-06-13T13:52:21.056898+05:30
Rajkot,Gujarat,22.3039,70.8022,39.5,34,0.0,990.8,7.55,54.0,69,64.7,26.4,1.0,103.0,92.0,4.5,0,5,10,1,2026-06-13T13:52:21.056908+05:30
Thane,Maharashtra,19.2183,72.9781,35.0,48,0.0,1006.5,6.65,45.4,80,58.7,26.5,3.0,129.0,81.0,3.9,0,5,4,1,2026-06-13T13:52:21.056916+05:30
Nagpur,Maharashtra,21.1458,79.0882,40.2,32,0.0,969.6,8.9,42.5,99,58.0,29.0,3.4,138.0,147.0,17.0,0,5,10,1,2026-06-13T13:52:21.056923+05:30
Nashik,Maharashtra,19.9975,73.7898,33.4,42,0.1,944.9,8.05,50.4,73,64.5,21.1,0.6,144.0,77.0,1.1,3,5,7,1,2026-06-13T13:52:21.056931+05:30
Aurangabad,Maharashtra,19.8762,75.3433,36.3,32,0.0,942.8,8.95,51.5,82,66.4,19.6,0.7,118.0,95.0,2.0,0,5,10,1,2026-06-13T13:52:21.056939+05:30
Solapur,Maharashtra,17.6599,75.9064,36.2,34,0.0,955.9,8.0,49.3,62,60.3,20.5,0.9,118.0,97.0,1.8,0,5,10,1,2026-06-13T13:52:21.056946+05:30
Kolhapur,Maharashtra,16.705,74.2433,29.1,65,0.1,947.6,5.95,50.8,55,21.2,10.4,1.6,119.0,82.0,1.6,10,5,3,1,2026-06-13T13:52:21.056954+05:30
Goa,Goa,15.2993,74.124,29.6,77,0.1,998.8,5.65,31.0,68,31.2,12.4,0.6,108.0,66.0,1.0,10,5,3,1,2026-06-13T13:52:21.056961+05:30
Jodhpur,Rajasthan,26.2389,73.0243,37.9,37,0.0,979.0,8.4,42.8,138,307.3,57.3,0.6,110.0,89.0,2.0,0,5,10,1,2026-06-13T13:52:21.056968+05:30
Udaipur,Rajasthan,24.5854,73.7125,35.3,38,0.0,944.2,8.85,39.2,71,80.1,26.3,0.6,113.0,90.0,2.8,0,5,10,1,2026-06-13T13:52:21.056976+05:30
Kota,Rajasthan,25.2138,75.8648,38.7,40,0.0,974.6,8.35,49.7,86,105.5,32.8,0.7,143.0,116.0,5.6,0,5,10,1,2026-06-13T13:52:21.056984+05:30
Bikaner,Rajasthan,28.0229,73.3119,40.1,29,0.0,977.3,8.45,54.4,143,369.7,102.9,0.3,127.0,90.0,3.0,0,5,10,1,2026-06-13T13:52:21.056991+05:30
Ajmer,Rajasthan,26.4499,74.6399,35.7,41,0.0,951.7,8.35,49.7,87,107.1,32.8,0.6,122.0,109.0,3.4,0,5,10,1,2026-06-13T13:52:21.056998+05:30
Gwalior,Madhya Pradesh,26.2183,78.1828,37.1,42,0.0,979.9,8.3,61.9,157,135.0,52.0,0.6,204.0,135.0,7.2,0,5,10,1,2026-06-13T13:52:21.057005+05:30
Indore,Madhya Pradesh,22.7196,75.8577,37.1,28,0.0,946.0,8.65,44.6,77,77.1,26.7,0.9,146.0,103.0,4.2,0,5,10,0,2026-06-13T13:52:21.057013+05:30
Bhopal,Madhya Pradesh,23.2599,77.4126,37.2,41,0.0,951.0,8.7,36.7,90,49.4,22.9,0.7,155.0,110.0,3.8,0,5,10,1,2026-06-13T13:52:21.057021+05:30
Jabalpur,Madhya Pradesh,23.1815,79.9864,37.4,42,0.0,958.4,8.85,33.5,99,90.3,38.4,0.7,165.0,123.0,3.1,0,5,10,1,2026-06-13T13:52:21.057028+05:30
Ujjain,Madhya Pradesh,23.1765,75.7885,37.4,31,0.0,951.1,8.6,42.8,77,95.7,28.9,0.6,130.0,98.0,3.6,0,5,10,1,2026-06-13T13:52:21.057036+05:30
Visakhapatnam,Andhra Pradesh,17.6868,83.2185,33.8,59,0.0,999.8,9.05,43.2,115,37.4,28.5,11.9,299.0,134.0,30.6,0,5,7,1,2026-06-13T13:52:21.057043+05:30
Vijayawada,Andhra Pradesh,16.5062,80.648,37.7,38,0.0,999.0,4.65,34.2,81,55.3,32.2,1.8,163.0,135.0,5.8,0,5,6,1,2026-06-13T13:52:21.057050+05:30
Guntur,Andhra Pradesh,16.3067,80.4365,37.0,36,0.0,1000.4,2.55,30.2,82,54.1,29.7,1.1,153.0,124.0,4.1,0,5,3,1,2026-06-13T13:52:21.057057+05:30
Nellore,Andhra Pradesh,14.4426,79.9865,32.3,58,0.0,1003.9,7.7,33.5,57,32.2,17.7,1.7,129.0,111.0,5.5,0,5,4,1,2026-06-13T13:52:21.057065+05:30
Kurnool,Andhra Pradesh,15.8281,78.0373,35.8,42,0.0,975.4,2.85,36.7,73,51.1,23.2,1.0,129.0,106.0,4.9,0,5,6,1,2026-06-13T13:52:21.057073+05:30
Kakinada,Andhra Pradesh,16.9891,82.2475,35.0,51,0.0,1003.7,8.9,38.5,83,31.9,21.7,1.9,221.0,131.0,3.9,0,5,4,1,2026-06-13T13:52:21.057080+05:30
Tirupati,Andhra Pradesh,13.6288,79.4192,33.3,47,0.0,989.6,8.35,31.7,52,21.6,12.6,1.8,117.0,88.0,1.9,0,5,7,1,2026-06-13T13:52:21.057087+05:30
Warangal,Telangana,17.9689,79.5941,35.6,47,0.0,975.9,4.3,32.0,101,66.1,36.4,0.8,163.0,129.0,5.8,0,5,6,1,2026-06-13T13:52:21.057094+05:30
Nizamabad,Telangana,18.6725,78.0941,37.3,37,0.0,962.7,4.15,40.7,89,71.0,32.9,0.9,139.0,116.0,4.6,0,5,6,1,2026-06-13T13:52:21.057101+05:30
Mysore,Karnataka,12.2958,76.6396,24.1,77,0.1,929.3,7.6,34.9,32,24.2,10.8,1.5,132.0,81.0,1.4,6,5,7,1,2026-06-13T13:52:21.057108+05:30
Mangalore,Karnataka,12.9141,74.856,28.3,78,0.0,1008.5,8.5,35.3,42,24.7,10.8,1.0,106.0,74.0,1.5,7,0,4,1,2026-06-13T13:52:21.057115+05:30
Hubli-Dharwad,Karnataka,15.3647,75.124,28.9,65,0.1,941.2,7.5,44.6,45,17.3,7.6,0.8,112.0,71.0,0.9,10,5,7,1,2026-06-13T13:52:21.057123+05:30
Belgaum,Karnataka,15.8497,74.4977,27.7,69,0.0,926.2,8.25,46.1,48,19.9,8.1,1.4,116.0,71.0,1.3,7,5,7,1,2026-06-13T13:52:24.288782+05:30
Coimbatore,Tamil Nadu,11.0168,76.9558,29.7,54,0.0,962.4,8.9,45.4,40,16.7,8.3,1.0,129.0,88.0,1.8,4,5,7,1,2026-06-13T13:52:24.288817+05:30
Madurai,Tamil Nadu,9.9252,78.1198,37.7,32,0.0,992.0,8.3,43.2,61,29.5,13.8,1.4,121.0,113.0,1.8,0,5,10,1,2026-06-13T13:52:24.288829+05:30
Trichy,Tamil Nadu,10.7905,78.7047,35.4,39,0.0,998.7,8.25,56.9,52,24.7,12.8,1.4,121.0,96.0,1.9,0,5,10,1,2026-06-13T13:52:24.288837+05:30
Salem,Tamil Nadu,11.6643,78.146,30.9,59,0.0,977.5,7.35,28.4,60,24.2,13.0,2.0,175.0,110.0,5.8,0,5,7,1,2026-06-13T13:52:24.288846+05:30
Tirunelveli,Tamil Nadu,8.7139,77.7567,35.0,41,0.1,1003.5,7.85,41.4,24,10.6,5.1,1.0,109.0,71.0,0.9,3,5,4,1,2026-06-13T13:52:24.288853+05:30
Vellore,Tamil Nadu,12.9165,79.1325,32.7,52,0.0,983.3,8.8,39.2,52,16.2,10.9,4.3,145.0,83.0,4.0,0,5,7,1,2026-06-13T13:52:24.288861+05:30
Erode,Tamil Nadu,11.341,77.7172,34.8,43,0.0,988.7,8.05,42.5,57,18.7,10.2,1.4,139.0,108.0,1.9,0,5,7,1,2026-06-13T13:52:24.288868+05:30
Kochi,Kerala,9.9312,76.2673,28.6,78,0.0,1010.8,7.5,28.4,62,18.9,9.4,2.0,120.0,74.0,2.4,7,0,4,1,2026-06-13T13:52:24.288876+05:30
Thiruvananthapuram,Kerala,8.5241,76.9366,27.4,82,0.0,1010.6,6.7,40.3,26,16.9,8.1,1.0,98.0,66.0,0.7,7,0,4,1,2026-06-13T13:52:24.288883+05:30
Kozhikode,Kerala,11.2588,75.7804,26.2,88,0.0,1010.2,8.3,22.3,33,16.2,7.4,0.5,148.0,76.0,1.1,7,0,4,1,2026-06-13T13:52:24.288891+05:30
Thrissur,Kerala,10.5276,76.2144,29.3,75,0.1,1008.8,7.25,29.5,64,15.8,8.2,1.0,103.0,75.0,1.7,10,0,4,1,2026-06-13T13:52:24.288899+05:30
Kannur,Kerala,11.8745,75.3704,28.0,82,0.0,1009.3,8.55,28.1,39,23.2,10.1,0.8,110.0,75.0,1.4,7,0,4,1,2026-06-13T13:52:24.288906+05:30
Patna,Bihar,25.5941,85.1376,34.1,56,0.0,995.6,8.9,26.3,157,90.1,62.2,1.6,369.0,213.0,18.1,0,5,7,1,2026-06-13T13:52:24.288913+05:30
Gaya,Bihar,24.7914,85.0002,36.1,48,0.0,989.3,8.95,36.4,161,84.5,62.2,0.8,228.0,195.0,13.9,0,5,10,1,2026-06-13T13:52:24.288920+05:30
Muzaffarpur,Bihar,26.1209,85.3647,33.3,59,0.0,995.7,8.85,23.0,157,83.1,61.0,1.9,334.0,217.0,20.8,0,5,7,1,2026-06-13T13:52:24.288927+05:30
Bhagalpur,Bihar,25.2425,87.0117,33.0,61,0.0,996.3,7.9,40.0,158,94.5,68.2,3.6,339.0,217.0,26.3,3,5,7,1,2026-06-13T13:52:24.288934+05:30
Ranchi,Jharkhand,23.3441,85.3096,32.7,51,0.0,934.9,9.3,31.0,143,71.7,48.0,1.2,210.0,163.0,14.2,0,5,7,1,2026-06-13T13:52:24.288941+05:30
Jamshedpur,Jharkhand,22.8046,86.2029,30.3,79,0.3,986.7,8.95,31.7,155,84.1,65.2,1.9,268.0,214.0,26.9,6,5,7,1,2026-06-13T13:52:24.288948+05:30
Dhanbad,Jharkhand,23.7957,86.4304,28.1,75,0.3,976.2,9.0,58.0,171,93.8,75.4,6.2,280.0,229.0,48.4,10,5,7,1,2026-06-13T13:52:24.288956+05:30
Bokaro,Jharkhand,23.6693,86.1511,29.5,67,0.1,980.0,9.0,48.6,168,87.3,65.7,6.2,234.0,207.0,41.1,10,5,7,1,2026-06-13T13:52:24.288966+05:30
Bhubaneswar,Odisha,20.2961,85.8245,28.1,85,0.2,998.8,8.8,31.3,126,46.6,36.4,1.9,258.0,168.0,7.0,10,5,7,1,2026-06-13T13:52:24.288973+05:30
Cuttack,Odisha,20.4625,85.8828,28.1,87,0.3,1000.7,8.9,34.2,126,46.6,36.4,1.9,278.0,168.0,7.0,10,5,4,1,2026-06-13T13:52:24.288980+05:30
Rourkela,Odisha,22.2604,84.8536,36.6,43,0.0,980.3,9.0,25.6,143,61.7,46.2,1.4,223.0,186.0,14.9,0,5,10,1,2026-06-13T13:52:24.288986+05:30
Raipur,Chhattisgarh,21.2514,81.6296,38.8,31,0.0,970.9,9.0,55.1,115,85.0,44.9,4.2,204.0,165.0,27.7,0,5,10,1,2026-06-13T13:52:24.288993+05:30
Bhilai,Chhattisgarh,21.1938,81.3509,37.7,35,0.0,971.5,8.95,40.7,105,82.9,40.6,4.4,348.0,144.0,23.9,0,5,10,1,2026-06-13T13:52:24.288999+05:30
Guwahati,Assam,26.1158,91.7086,31.5,68,0.0,996.2,8.8,37.1,85,33.2,22.4,1.1,241.0,126.0,1.6,3,5,7,1,2026-06-13T13:52:24.289006+05:30
Agartala,Tripura,23.8315,91.2868,30.7,76,0.1,1001.6,8.85,28.4,97,40.0,27.5,6.4,243.0,121.0,5.9,6,5,4,1,2026-06-13T13:52:24.289013+05:30
Shillong,Meghalaya,25.5788,91.8933,21.5,96,0.0,854.7,6.75,17.3,76,26.7,19.3,2.2,225.0,119.0,1.7,3,5,7,1,2026-06-13T13:52:24.289019+05:30
Imphal,Manipur,24.817,93.9368,27.5,72,0.0,919.8,7.9,32.4,33,3.5,3.4,2.4,191.0,85.0,1.1,7,5,7,1,2026-06-13T13:52:24.289026+05:30
Aizawl,Mizoram,23.7271,92.7176,22.4,84,0.0,889.8,8.2,28.4,37,22.1,11.9,0.6,162.0,99.0,1.2,3,5,7,1,2026-06-13T13:52:24.289033+05:30
Kohima,Nagaland,25.6701,94.1077,21.1,98,0.2,852.7,2.8,22.3,33,4.3,3.7,1.1,206.0,96.0,0.6,6,5,3,1,2026-06-13T13:52:24.289040+05:30
Gangtok,Sikkim,27.3314,88.6138,25.1,58,0.1,837.2,9.1,36.0,65,30.0,20.2,0.9,256.0,130.0,1.2,7,5,7,1,2026-06-13T13:52:24.289047+05:30
Siliguri,West Bengal,26.7271,88.3953,31.0,66,0.1,988.1,8.65,18.7,145,50.8,34.0,1.3,319.0,159.0,4.1,6,5,7,1,2026-06-13T13:52:27.519763+05:30
Durgapur,West Bengal,23.5204,87.3119,27.4,93,0.2,991.9,8.85,39.2,161,105.2,87.3,8.2,791.0,251.0,54.7,10,5,7,1,2026-06-13T13:52:27.519798+05:30
Asansol,West Bengal,23.6739,86.9524,28.9,84,0.5,990.4,8.85,26.6,158,101.5,83.8,6.5,491.0,247.0,50.7,10,5,7,1,2026-06-13T13:52:27.519810+05:30
Pondicherry,Puducherry,11.9139,79.8145,32.9,69,0.0,1007.1,8.15,41.0,59,32.1,22.2,4.9,160.0,129.0,12.2,3,5,4,1,2026-06-13T13:52:27.519819+05:30
Port Blair,Andaman and Nicobar Islands,11.6234,92.7265,29.5,74,0.1,1007.7,8.8,40.3,20,8.5,5.2,0.3,87.0,42.0,0.5,10,5,4,1,2026-06-13T13:52:27.519827+05:30
Haridwar,Uttarakhand,29.9457,78.1642,32.5,54,0.1,972.6,7.6,26.6,94,65.7,28.1,1.4,277.0,152.0,4.3,3,5,7,1,2026-06-13T13:52:27.519836+05:30
Rishikesh,Uttarakhand,30.0869,78.2676,31.3,51,0.0,965.7,7.7,30.2,66,52.0,22.4,0.8,220.0,143.0,2.7,0,5,7,1,2026-06-13T13:52:27.519843+05:30
Nainital,Uttarakhand,29.3919,79.4542,20.4,63,0.1,807.1,8.55,28.4,89,123.4,41.1,1.0,219.0,151.0,6.4,6,5,7,0,2026-06-13T13:52:27.519851+05:30
Mussoorie,Uttarakhand,30.4599,78.0664,20.2,51,0.0,804.8,7.95,42.8,80,42.8,20.5,1.1,169.0,153.0,3.2,0,5,7,0,2026-06-13T13:52:27.519859+05:30
Dharamshala,Himachal Pradesh,32.219,76.3234,19.6,92,0.5,869.5,7.85,31.0,78,25.8,13.0,0.8,179.0,146.0,1.0,6,10,7,1,2026-06-13T13:52:27.519867+05:30
Dalhousie,Himachal Pradesh,32.5387,75.971,15.3,100,0.3,804.5,7.95,27.7,94,56.6,27.6,1.8,260.0,167.0,2.7,6,10,7,0,2026-06-13T13:52:27.519876+05:30
Patiala,Punjab,30.3398,76.3869,33.5,52,0.0,976.7,7.7,32.4,801,480.6,73.3,1.9,239.0,156.0,8.6,0,5,7,1,2026-06-13T13:52:27.519883+05:30
Bhatinda,Punjab,30.211,74.9455,36.1,36,0.0,980.9,8.3,30.2,1206,296.2,73.8,2.3,237.0,166.0,13.1,0,5,10,1,2026-06-13T13:52:27.519891+05:30
Rohtak,Haryana,28.8955,76.6066,35.7,36,0.0,979.0,7.8,27.4,849,236.1,74.7,5.9,258.0,215.0,19.9,0,5,10,1,2026-06-13T13:52:27.519897+05:30
Panipat,Haryana,29.3909,76.9635,34.9,49,0.0,977.9,7.65,25.9,1535,259.8,74.7,6.3,255.0,177.0,19.2,0,5,7,1,2026-06-13T13:52:27.519904+05:30
Mathura,Uttar Pradesh,27.4924,77.6737,36.1,41,0.0,983.6,8.05,27.7,567,399.5,88.0,1.0,246.0,179.0,8.1,0,5,10,1,2026-06-13T13:52:27.519910+05:30
Vrindavan,Uttar Pradesh,27.5823,77.7027,36.4,40,0.0,984.0,8.0,28.4,567,399.5,88.0,1.0,248.0,179.0,8.1,0,5,10,1,2026-06-13T13:52:27.519917+05:30
Ayodhya,Uttar Pradesh,26.7922,82.1998,34.1,56,0.0,991.4,8.4,31.0,128,94.1,51.1,1.1,345.0,176.0,8.5,0,5,7,1,2026-06-13T13:52:27.519923+05:30
Ratlam,Madhya Pradesh,23.3315,75.0367,36.4,37,0.0,952.3,8.5,42.1,76,100.6,29.6,0.5,120.0,95.0,3.4,0,5,10,1,2026-06-13T13:52:27.519930+05:30
Sagar,Madhya Pradesh,23.8388,78.7378,37.3,35,0.0,947.7,8.15,38.9,92,83.1,30.4,0.5,151.0,121.0,3.4,0,5,10,1,2026-06-13T13:52:27.519936+05:30
Satna,Madhya Pradesh,24.6005,80.8322,33.3,47,0.0,968.5,8.8,20.9,111,97.3,42.6,0.6,150.0,123.0,3.2,0,5,7,1,2026-06-13T13:52:27.519943+05:30
Akola,Maharashtra,20.7002,77.0082,37.7,36,0.0,972.2,8.85,42.8,79,50.6,20.6,1.1,116.0,100.0,4.5,0,5,10,1,2026-06-13T13:52:27.519950+05:30
Amravati,Maharashtra,20.9374,77.7796,38.5,33,0.0,964.6,8.85,41.8,85,50.6,21.6,1.3,123.0,105.0,5.4,0,5,10,1,2026-06-13T13:52:27.519958+05:30
Latur,Maharashtra,18.4088,76.5604,35.3,38,0.0,938.8,8.85,36.7,72,67.5,23.3,0.7,119.0,95.0,2.2,0,5,10,1,2026-06-13T13:52:27.519965+05:30
Nanded,Maharashtra,19.1383,77.3091,38.1,35,0.0,966.4,8.0,38.2,85,65.7,28.2,0.9,137.0,110.0,3.7,0,5,10,1,2026-06-13T13:52:27.519971+05:30
Gulbarga,Karnataka,17.3297,76.8343,35.1,41,0.0,957.4,5.8,38.5,65,54.1,20.2,1.1,126.0,99.0,2.1,0,5,6,1,2026-06-13T13:52:27.519978+05:30
Bidar,Karnataka,17.9104,77.5199,34.9,41,0.0,934.6,7.2,36.4,74,65.0,26.9,1.0,131.0,107.0,3.5,0,5,7,1,2026-06-13T13:52:27.519984+05:30
Hospet,Karnataka,15.2689,76.3909,32.8,51,0.0,955.3,6.35,51.1,45,21.4,8.9,1.0,114.0,83.0,1.6,0,5,7,1,2026-06-13T13:52:27.519991+05:30
Tirupur,Tamil Nadu,11.1085,77.3411,33.5,46,0.0,975.4,8.8,47.2,58,18.0,9.7,1.3,130.0,103.0,2.1,0,5,7,1,2026-06-13T13:52:27.519997+05:30
Alappuzha,Kerala,9.4981,76.3388,28.7,75,0.0,1011.0,7.35,32.8,50,20.5,9.8,1.9,93.0,69.0,1.5,7,0,4,1,2026-06-13T13:52:27.520003+05:30
Munnar,Kerala,10.0889,77.0595,20.0,82,0.2,858.9,7.2,41.4,40,14.6,7.8,0.8,101.0,83.0,1.4,6,5,7,1,2026-06-13T13:52:27.520010+05:30
Silchar,Assam,24.8333,92.7789,29.8,78,0.0,1000.6,8.6,22.7,79,15.6,12.5,2.8,183.0,116.0,3.5,7,5,4,1,2026-06-13T13:52:27.520016+05:30
Dibrugarh,Assam,27.4728,94.912,30.7,71,0.1,989.5,7.3,27.4,81,10.0,9.4,0.9,205.0,118.0,1.1,6,5,7,1,2026-06-13T13:52:27.520023+05:30
