city,state,latitude,longitude,temp,humidity,rain,pressure,uv_index,wind_gusts,aqi,pm10,pm2_5,mosquito_risk,arthritis_risk,migraine_risk,frizz_risk,updated_at
Delhi,Delhi,28.6139,77.209,23.3,73,0.0,984.2,5.95,30.2,215,391.2,104.1,3,5,3,1,2026-03-13T00:28:51.996674+05:30
Mumbai,Maharashtra,19.076,72.8777,28.7,74,0.0,1008.3,7.6,27.7,205,47.5,46.0,7,0,4,1,2026-03-13T00:28:51.996715+05:30
Bangalore,Karnataka,12.9716,77.5946,22.9,53,0.0,912.3,9.3,32.8,74,23.5,21.7,0,5,7,0,2026-03-13T00:28:51.996730+05:30
Hyderabad,Telangana,17.385,78.4867,24.7,49,0.0,953.5,8.65,23.4,99,43.0,33.3,0,5,7,0,2026-03-13T00:28:51.996740+05:30
Chennai,Tamil Nadu,13.0827,80.2707,25.4,92,0.0,1008.4,9.0,29.5,77,25.3,21.3,7,0,4,1,2026-03-13T00:28:51.996749+05:30
Kolkata,West Bengal,22.5726,88.3639,24.0,94,0.0,1007.3,7.95,20.9,139,33.4,30.3,3,5,4,1,2026-03-13T00:28:51.996757+05:30
Pune,Maharashtra,18.5204,73.8567,24.7,62,0.0,948.7,8.15,25.9,140,64.7,62.2,3,5,7,1,2026-03-13T00:28:51.996769+05:30
Ahmedabad,Gujarat,23.0225,72.5714,26.5,35,0.0,1003.0,7.45,30.6,72,76.1,61.7,4,5,4,0,2026-03-13T00:28:51.996777+05:30
Jaipur,Rajasthan,26.9124,75.7873,25.1,24,0.0,960.7,6.4,42.8,104,85.7,32.6,4,5,7,0,2026-03-13T00:28:51.996785+05:30
Lucknow,Uttar Pradesh,26.8467,80.9462,25.6,51,0.0,993.9,6.5,28.1,155,370.7,86.8,4,5,7,0,2026-03-13T00:28:51.996792+05:30
Kanpur,Uttar Pradesh,26.4499,80.3319,25.3,61,0.0,992.2,6.0,18.0,218,449.8,98.7,7,5,3,1,2026-03-13T00:28:51.996800+05:30
Chandigarh,Chandigarh,30.7333,76.7794,19.5,79,0.0,970.4,5.95,32.0,96,59.6,49.8,3,5,3,0,2026-03-13T00:28:51.996807+05:30
Srinagar,Jammu and Kashmir,34.0837,74.7973,7.4,88,0.0,841.9,6.35,23.0,80,33.1,31.3,3,10,7,0,2026-03-13T00:28:51.996814+05:30
Jammu,Jammu and Kashmir,32.7266,74.857,18.0,89,0.0,975.4,6.05,39.6,83,54.0,41.7,3,10,7,1,2026-03-13T00:28:51.996822+05:30
Amritsar,Punjab,31.634,74.8723,18.8,88,0.0,983.5,6.65,32.4,151,57.6,35.3,3,10,7,1,2026-03-13T00:28:51.996829+05:30
Ludhiana,Punjab,30.901,75.8573,20.6,80,0.0,981.2,6.2,59.4,151,57.4,35.7,3,5,7,1,2026-03-13T00:28:51.996835+05:30
Jalandhar,Punjab,31.326,75.5762,19.9,83,0.0,982.6,6.4,31.7,134,69.4,34.3,3,10,7,1,2026-03-13T00:28:51.996844+05:30
Dehradun,Uttarakhand,30.6284,78.0322,12.6,65,0.0,829.9,5.85,37.1,55,29.2,13.0,3,5,3,0,2026-03-13T00:28:51.996851+05:30
Shimla,Himachal Pradesh,31.1048,77.1734,10.4,71,0.0,783.5,6.5,42.5,70,47.6,26.9,3,5,7,0,2026-03-13T00:28:51.996857+05:30
Manali,Himachal Pradesh,32.2396,77.1887,12.1,37,0.0,820.0,3.7,44.6,46,10.8,6.0,0,5,3,1,2026-03-13T00:28:51.996865+05:30
Gurgaon,Haryana,28.4595,77.0266,21.2,84,0.0,982.6,6.15,31.0,797,551.3,140.6,3,5,7,1,2026-03-13T00:28:51.996872+05:30
Noida,Uttar Pradesh,28.5355,77.391,23.2,72,0.0,985.7,6.0,29.9,797,551.3,140.6,3,5,3,1,2026-03-13T00:28:51.996879+05:30
Ghaziabad,Uttar Pradesh,28.6692,77.4538,22.0,78,0.0,983.8,5.95,26.3,173,365.1,105.0,3,5,3,1,2026-03-13T00:28:51.996885+05:30
Faridabad,Haryana,28.4089,77.3178,21.5,77,0.0,984.9,6.2,29.9,797,551.3,140.6,3,5,7,1,2026-03-13T00:28:51.996891+05:30
Meerut,Uttar Pradesh,28.9845,77.7064,21.1,81,0.0,982.5,5.95,24.5,173,365.1,105.0,3,5,3,1,2026-03-13T00:28:51.996898+05:30
Agra,Uttar Pradesh,27.1767,78.0081,22.1,43,0.0,988.8,6.2,31.7,365,332.5,118.7,0,5,7,0,2026-03-13T00:28:51.996905+05:30
Varanasi,Uttar Pradesh,25.3176,82.9739,23.6,61,0.0,998.2,7.3,23.8,111,92.4,47.3,3,5,7,0,2026-03-13T00:28:51.996914+05:30
Prayagraj,Uttar Pradesh,25.4358,81.8463,24.5,55,0.0,996.8,6.6,23.0,122,156.9,60.3,0,5,7,0,2026-03-13T00:28:51.996921+05:30
Gorakhpur,Uttar Pradesh,26.7606,83.3732,22.8,74,0.0,997.9,7.05,18.4,196,137.4,120.6,3,5,7,1,2026-03-13T00:28:51.996928+05:30
Bareilly,Uttar Pradesh,28.367,79.4304,20.8,72,0.0,987.3,6.25,23.4,137,464.7,99.4,3,5,7,0,2026-03-13T00:28:51.996934+05:30
Aligarh,Uttar Pradesh,27.8974,78.088,20.4,68,0.0,986.2,5.9,29.9,462,713.4,136.9,3,5,3,0,2026-03-13T00:28:51.996941+05:30
Moradabad,Uttar Pradesh,28.8386,78.7733,21.4,74,0.0,984.4,6.05,26.3,150,202.1,81.0,3,5,7,1,2026-03-13T00:28:51.996954+05:30
Saharanpur,Uttar Pradesh,29.9637,77.546,20.0,79,0.0,976.9,5.25,24.8,153,249.6,98.7,3,5,3,1,2026-03-13T00:28:51.996960+05:30
Jhansi,Uttar Pradesh,25.4484,78.5685,23.6,42,0.0,978.7,6.7,29.9,55,15.0,14.5,0,5,7,0,2026-03-13T00:28:55.216914+05:30
Surat,Gujarat,21.1702,72.8311,26.4,71,0.0,1006.9,7.3,26.3,141,48.4,47.1,7,5,4,1,2026-03-13T00:28:55.216943+05:30
Vadodara,Gujarat,22.3072,73.1812,27.7,30,0.0,1004.8,7.45,26.6,88,69.2,66.1,4,5,4,0,2026-03-13T00:28:55.216953+05:30
Rajkot,Gujarat,22.3039,70.8022,24.7,57,0.0,995.8,7.3,31.3,81,54.6,26.7,0,5,7,0,2026-03-13T00:28:55.216961+05:30
Thane,Maharashtra,19.2183,72.9781,27.0,74,0.0,1007.8,7.6,41.4,205,47.5,46.0,7,5,4,1,2026-03-13T00:28:55.216969+05:30
Nagpur,Maharashtra,21.1458,79.0882,25.0,52,0.0,973.2,8.0,16.6,89,37.8,31.0,4,5,7,0,2026-03-13T00:28:55.216976+05:30
Nashik,Maharashtra,19.9975,73.7898,25.3,40,0.0,946.2,7.8,33.8,95,30.6,29.0,4,5,7,0,2026-03-13T00:28:55.216983+05:30
Aurangabad,Maharashtra,19.8762,75.3433,24.7,37,0.0,944.2,8.3,20.5,82,33.2,32.0,0,5,7,0,2026-03-13T00:28:55.216990+05:30
Solapur,Maharashtra,17.6599,75.9064,26.2,57,0.0,956.5,8.5,18.0,97,35.0,32.5,4,5,7,1,2026-03-13T00:28:55.216998+05:30
Kolhapur,Maharashtra,16.705,74.2433,22.4,69,0.0,947.8,8.65,27.7,151,83.8,81.0,3,5,7,1,2026-03-13T00:28:55.217005+05:30
Goa,Goa,15.2993,74.124,26.8,89,0.0,997.8,8.7,33.5,141,62.4,55.5,7,5,7,1,2026-03-13T00:28:55.217012+05:30
Jodhpur,Rajasthan,26.2389,73.0243,25.5,33,0.0,984.5,6.55,25.9,72,118.5,30.0,4,5,7,0,2026-03-13T00:28:55.217018+05:30
Udaipur,Rajasthan,24.5854,73.7125,22.6,25,0.0,948.0,7.55,38.5,65,19.0,11.3,0,5,7,0,2026-03-13T00:28:55.217025+05:30
Kota,Rajasthan,25.2138,75.8648,21.5,45,0.0,979.3,6.75,34.2,73,34.9,33.6,0,5,7,0,2026-03-13T00:28:55.217032+05:30
Bikaner,Rajasthan,28.0229,73.3119,25.5,52,0.0,983.9,6.15,28.4,104,57.9,29.8,4,5,7,0,2026-03-13T00:28:55.217039+05:30
Ajmer,Rajasthan,26.4499,74.6399,24.2,36,0.0,955.8,6.75,34.2,57,45.9,21.2,0,5,7,0,2026-03-13T00:28:55.217046+05:30
Gwalior,Madhya Pradesh,26.2183,78.1828,24.7,32,0.0,983.7,6.3,33.8,55,11.9,11.7,0,5,7,0,2026-03-13T00:28:55.217053+05:30
Indore,Madhya Pradesh,22.7196,75.8577,20.2,46,0.0,948.5,7.75,29.2,76,35.4,34.7,0,5,7,0,2026-03-13T00:28:55.217059+05:30
Bhopal,Madhya Pradesh,23.2599,77.4126,23.6,43,0.0,954.0,7.6,28.8,66,34.0,30.4,0,5,7,0,2026-03-13T00:28:55.217066+05:30
Jabalpur,Madhya Pradesh,23.1815,79.9864,25.1,44,0.0,961.7,7.75,20.5,80,48.2,31.8,4,5,7,0,2026-03-13T00:28:55.217073+05:30
Ujjain,Madhya Pradesh,23.1765,75.7885,22.1,42,0.0,954.4,7.65,27.7,92,21.2,20.5,0,5,7,0,2026-03-13T00:28:55.217080+05:30
Visakhapatnam,Andhra Pradesh,17.6868,83.2185,25.5,90,0.0,1004.6,8.65,40.3,91,33.8,29.7,7,5,4,1,2026-03-13T00:28:55.217088+05:30
Vijayawada,Andhra Pradesh,16.5062,80.648,25.2,89,0.0,1003.4,8.7,28.4,75,24.7,22.8,7,5,4,1,2026-03-13T00:28:55.217095+05:30
Guntur,Andhra Pradesh,16.3067,80.4365,24.7,92,0.0,1004.4,8.7,36.0,72,23.3,21.4,3,5,4,1,2026-03-13T00:28:55.217102+05:30
Nellore,Andhra Pradesh,14.4426,79.9865,24.6,93,0.0,1006.9,8.9,28.1,72,19.7,17.8,3,5,4,1,2026-03-13T00:28:55.217109+05:30
Kurnool,Andhra Pradesh,15.8281,78.0373,27.8,44,0.0,977.2,8.65,25.9,77,30.5,27.0,4,5,7,0,2026-03-13T00:28:55.217117+05:30
Kakinada,Andhra Pradesh,16.9891,82.2475,23.6,96,0.0,1008.6,8.65,41.0,71,28.3,23.6,3,0,4,1,2026-03-13T00:28:55.217123+05:30
Tirupati,Andhra Pradesh,13.6288,79.4192,24.6,76,0.0,993.1,9.05,36.4,103,44.0,42.5,3,5,7,1,2026-03-13T00:28:55.217129+05:30
Warangal,Telangana,17.9689,79.5941,26.9,44,0.0,978.3,8.45,11.9,105,53.4,46.9,4,5,7,0,2026-03-13T00:28:55.217136+05:30
Nizamabad,Telangana,18.6725,78.0941,25.0,52,0.0,964.4,8.35,19.8,103,61.0,54.8,4,5,7,0,2026-03-13T00:28:55.217142+05:30
Mysore,Karnataka,12.2958,76.6396,23.1,49,0.0,928.3,9.3,34.9,66,20.7,19.2,0,5,7,0,2026-03-13T00:28:55.217149+05:30
Mangalore,Karnataka,12.9141,74.856,29.3,81,0.0,1006.8,8.9,32.8,105,49.9,42.6,7,5,4,1,2026-03-13T00:28:55.217155+05:30
Hubli-Dharwad,Karnataka,15.3647,75.124,22.6,47,0.0,940.5,8.85,35.6,105,24.1,21.2,0,5,7,0,2026-03-13T00:28:55.217162+05:30
Belgaum,Karnataka,15.8497,74.4977,24.4,55,0.0,925.9,8.9,37.4,104,55.4,50.8,0,5,7,0,2026-03-13T00:28:58.434693+05:30
Coimbatore,Tamil Nadu,11.0168,76.9558,23.6,66,0.0,962.6,9.3,44.3,72,29.3,28.5,3,5,7,1,2026-03-13T00:28:58.434724+05:30
Madurai,Tamil Nadu,9.9252,78.1198,25.6,85,0.0,994.3,9.2,32.0,71,24.7,23.6,7,5,7,1,2026-03-13T00:28:58.434734+05:30
Trichy,Tamil Nadu,10.7905,78.7047,24.7,93,0.0,1001.0,9.15,28.1,80,25.4,23.5,3,5,4,1,2026-03-13T00:28:58.434743+05:30
Salem,Tamil Nadu,11.6643,78.146,24.9,81,0.0,977.9,9.2,27.7,78,36.7,35.4,3,5,7,1,2026-03-13T00:28:58.434750+05:30
Tirunelveli,Tamil Nadu,8.7139,77.7567,25.9,80,0.0,1004.5,8.45,27.4,60,20.5,19.0,7,5,4,1,2026-03-13T00:28:58.434757+05:30
Vellore,Tamil Nadu,12.9165,79.1325,24.1,89,0.0,985.9,9.1,36.4,92,46.8,45.4,3,5,7,1,2026-03-13T00:28:58.434764+05:30
Erode,Tamil Nadu,11.341,77.7172,25.7,76,0.0,989.8,9.15,24.5,75,24.9,24.2,7,5,7,1,2026-03-13T00:28:58.434770+05:30
Kochi,Kerala,9.9312,76.2673,27.1,86,0.0,1009.4,9.05,35.6,93,41.8,40.5,7,0,4,1,2026-03-13T00:28:58.434776+05:30
Thiruvananthapuram,Kerala,8.5241,76.9366,27.8,81,0.0,1008.5,7.9,25.9,83,17.2,13.5,7,0,4,1,2026-03-13T00:28:58.434783+05:30
Kozhikode,Kerala,11.2588,75.7804,28.8,82,0.0,1008.0,9.0,31.7,100,35.7,29.6,7,0,4,1,2026-03-13T00:28:58.434790+05:30
Thrissur,Kerala,10.5276,76.2144,26.8,86,0.0,1007.6,9.05,39.2,95,36.2,34.3,7,5,4,1,2026-03-13T00:28:58.434797+05:30
Kannur,Kerala,11.8745,75.3704,28.5,82,0.0,1007.4,9.0,34.9,97,45.1,39.5,7,5,4,1,2026-03-13T00:28:58.434804+05:30
Patna,Bihar,25.5941,85.1376,24.8,81,0.0,1001.3,7.45,22.0,197,162.5,136.9,3,5,4,1,2026-03-13T00:28:58.434816+05:30
Gaya,Bihar,24.7914,85.0002,25.8,51,0.0,994.7,7.6,21.6,169,189.1,70.1,4,5,7,0,2026-03-13T00:28:58.434823+05:30
Muzaffarpur,Bihar,26.1209,85.3647,23.3,88,0.0,1001.4,7.4,25.6,222,144.4,138.8,3,5,4,1,2026-03-13T00:28:58.434829+05:30
Bhagalpur,Bihar,25.2425,87.0117,23.9,90,0.0,1002.8,7.5,33.5,185,111.3,105.2,3,5,4,1,2026-03-13T00:28:58.434836+05:30
Ranchi,Jharkhand,23.3441,85.3096,22.2,47,0.0,938.7,8.2,33.8,153,100.6,35.7,0,5,7,0,2026-03-13T00:28:58.434843+05:30
Jamshedpur,Jharkhand,22.8046,86.2029,25.5,87,0.0,991.7,8.05,18.7,165,59.8,58.1,7,5,7,1,2026-03-13T00:28:58.434849+05:30
Dhanbad,Jharkhand,23.7957,86.4304,24.6,86,0.0,981.0,8.0,20.9,187,134.6,122.9,3,5,7,1,2026-03-13T00:28:58.434855+05:30
Bokaro,Jharkhand,23.6693,86.1511,24.3,58,0.0,985.2,8.0,23.4,175,131.8,76.1,0,5,7,0,2026-03-13T00:28:58.434861+05:30
Bhubaneswar,Odisha,20.2961,85.8245,25.7,92,0.0,1003.6,8.35,33.5,123,39.3,35.0,7,5,4,1,2026-03-13T00:28:58.434868+05:30
Cuttack,Odisha,20.4625,85.8828,25.7,93,0.0,1005.5,8.35,29.5,123,39.3,35.0,7,5,4,1,2026-03-13T00:28:58.434874+05:30
Rourkela,Odisha,22.2604,84.8536,26.9,54,0.0,985.7,8.0,16.2,151,110.1,48.7,4,5,7,1,2026-03-13T00:28:58.434881+05:30
Raipur,Chhattisgarh,21.2514,81.6296,25.2,46,0.0,974.6,8.1,16.2,157,61.2,44.7,4,5,7,0,2026-03-13T00:28:58.434887+05:30
Bhilai,Chhattisgarh,21.1938,81.3509,24.7,46,0.0,974.9,8.1,11.9,151,67.5,50.2,0,5,7,0,2026-03-13T00:28:58.434893+05:30
Guwahati,Assam,26.1158,91.7086,23.8,91,0.0,1003.6,7.15,24.1,153,76.1,72.6,3,5,4,1,2026-03-13T00:28:58.434899+05:30
Agartala,Tripura,23.8315,91.2868,21.1,95,0.0,1008.8,7.7,19.1,154,48.0,45.5,3,0,4,1,2026-03-13T00:28:58.434906+05:30
Shillong,Meghalaya,25.5788,91.8933,12.0,89,0.0,855.6,6.65,26.3,150,72.9,66.6,3,10,7,0,2026-03-13T00:28:58.434913+05:30
Imphal,Manipur,24.817,93.9368,17.1,90,0.0,924.8,8.0,31.0,167,100.8,96.6,3,10,7,0,2026-03-13T00:28:58.434919+05:30
Aizawl,Mizoram,23.7271,92.7176,16.7,84,0.0,893.6,7.9,37.1,184,117.6,106.9,3,10,7,0,2026-03-13T00:28:58.434926+05:30
Kohima,Nagaland,25.6701,94.1077,14.4,89,0.0,855.4,7.1,41.4,151,65.4,63.3,3,10,7,0,2026-03-13T00:28:58.434932+05:30
Gangtok,Sikkim,27.3314,88.6138,14.4,96,0.0,837.6,7.15,20.2,91,36.8,34.0,3,10,7,0,2026-03-13T00:28:58.434938+05:30
Siliguri,West Bengal,26.7271,88.3953,19.9,83,0.0,996.1,7.4,23.8,161,78.0,70.1,3,10,7,1,2026-03-13T00:29:01.651643+05:30
Durgapur,West Bengal,23.5204,87.3119,25.1,89,0.0,996.5,7.95,26.3,185,113.9,107.1,7,5,7,1,2026-03-13T00:29:01.651674+05:30
Asansol,West Bengal,23.6739,86.9524,25.6,87,0.0,995.0,7.35,24.5,182,115.7,110.6,7,5,7,1,2026-03-13T00:29:01.651686+05:30
Pondicherry,Puducherry,11.9139,79.8145,24.3,96,0.0,1009.7,9.0,29.5,71,23.2,18.6,3,0,4,1,2026-03-13T00:29:01.651696+05:30
Port Blair,Andaman and Nicobar Islands,11.6234,92.7265,27.6,81,0.0,1007.5,8.95,20.5,46,16.1,13.2,7,5,4,1,2026-03-13T00:29:01.651704+05:30
Haridwar,Uttarakhand,29.9457,78.1642,20.1,77,0.0,975.3,5.35,30.2,104,99.4,51.3,3,5,3,0,2026-03-13T00:29:01.651713+05:30
Rishikesh,Uttarakhand,30.0869,78.2676,19.5,60,0.0,968.2,5.45,29.5,81,59.3,29.7,0,5,3,0,2026-03-13T00:29:01.651722+05:30
Nainital,Uttarakhand,29.3919,79.4542,18.6,52,0.0,806.6,6.55,55.1,101,98.7,40.6,0,5,7,0,2026-03-13T00:29:01.651730+05:30
Mussoorie,Uttarakhand,30.4599,78.0664,15.9,45,0.0,803.3,6.1,42.8,84,61.0,41.1,0,5,7,0,2026-03-13T00:29:01.651737+05:30
Dharamshala,Himachal Pradesh,32.219,76.3234,18.1,52,0.0,870.4,6.55,50.8,51,17.6,10.7,0,5,7,0,2026-03-13T00:29:01.651746+05:30
Dalhousie,Himachal Pradesh,32.5387,75.971,14.5,53,0.0,804.6,5.85,36.0,71,27.9,21.6,0,5,3,0,2026-03-13T00:29:01.651755+05:30
Patiala,Punjab,30.3398,76.3869,20.0,83,0.0,980.1,5.65,37.4,156,421.9,78.0,3,5,3,1,2026-03-13T00:29:01.651763+05:30
Bhatinda,Punjab,30.211,74.9455,20.6,85,0.0,986.3,6.4,28.1,154,77.1,50.2,3,5,7,1,2026-03-13T00:29:01.651771+05:30
Rohtak,Haryana,28.8955,76.6066,21.1,85,0.0,983.1,5.95,27.0,289,418.2,102.2,3,5,3,1,2026-03-13T00:29:01.651779+05:30
Panipat,Haryana,29.3909,76.9635,20.3,88,0.0,981.8,5.75,20.9,345,579.3,110.1,3,5,3,1,2026-03-13T00:29:01.651787+05:30
Mathura,Uttar Pradesh,27.4924,77.6737,20.7,61,0.0,988.0,5.8,30.6,260,354.8,90.8,3,5,3,0,2026-03-13T00:29:01.651795+05:30
Vrindavan,Uttar Pradesh,27.5823,77.7027,19.9,69,0.0,988.3,5.65,32.4,260,354.8,90.8,3,5,3,0,2026-03-13T00:29:01.651803+05:30
Ayodhya,Uttar Pradesh,26.7922,82.1998,22.1,68,0.0,995.9,6.55,26.3,153,135.0,68.7,3,5,7,0,2026-03-13T00:29:01.651811+05:30
Ratlam,Madhya Pradesh,23.3315,75.0367,25.5,29,0.0,955.4,7.6,33.1,78,16.9,16.0,4,5,7,0,2026-03-13T00:29:01.651820+05:30
Sagar,Madhya Pradesh,23.8388,78.7378,24.2,40,0.0,950.9,7.55,27.0,73,23.7,19.2,0,5,7,0,2026-03-13T00:29:01.651828+05:30
Satna,Madhya Pradesh,24.6005,80.8322,24.9,41,0.0,972.1,7.55,29.2,73,22.9,17.3,0,5,7,0,2026-03-13T00:29:01.651836+05:30
Akola,Maharashtra,20.7002,77.0082,25.3,50,0.0,975.0,8.05,22.7,95,45.6,37.7,4,5,7,0,2026-03-13T00:29:01.651845+05:30
Amravati,Maharashtra,20.9374,77.7796,24.8,45,0.0,966.9,8.0,16.9,100,51.3,42.4,0,5,7,0,2026-03-13T00:29:01.651853+05:30
Latur,Maharashtra,18.4088,76.5604,24.6,47,0.0,939.7,8.45,19.1,115,42.6,36.7,0,5,7,0,2026-03-13T00:29:01.651861+05:30
Nanded,Maharashtra,19.1383,77.3091,27.2,44,0.0,968.4,8.25,16.2,97,62.2,56.5,4,5,7,0,2026-03-13T00:29:01.651870+05:30
Gulbarga,Karnataka,17.3297,76.8343,28.9,46,0.0,958.9,8.5,18.0,109,35.5,31.0,4,5,7,1,2026-03-13T00:29:01.651877+05:30
Bidar,Karnataka,17.9104,77.5199,26.4,43,0.0,935.7,8.45,19.1,100,57.5,49.1,4,5,7,0,2026-03-13T00:29:01.651883+05:30
Hospet,Karnataka,15.2689,76.3909,27.9,45,0.0,956.1,8.8,32.4,88,41.1,35.5,4,5,7,0,2026-03-13T00:29:01.651888+05:30
Tirupur,Tamil Nadu,11.1085,77.3411,26.7,65,0.0,976.3,9.3,32.8,79,27.0,26.3,7,5,7,1,2026-03-13T00:29:01.651895+05:30
Alappuzha,Kerala,9.4981,76.3388,27.6,82,0.0,1009.4,8.4,32.0,87,40.6,37.7,7,0,4,1,2026-03-13T00:29:01.651901+05:30
Munnar,Kerala,10.0889,77.0595,20.2,77,0.0,856.6,9.5,23.0,71,29.4,28.4,3,5,7,1,2026-03-13T00:29:01.651907+05:30
Silchar,Assam,24.8333,92.7789,22.0,91,0.0,1008.3,7.7,23.8,179,159.3,148.1,3,0,4,1,2026-03-13T00:29:01.651913+05:30
Dibrugarh,Assam,27.4728,94.912,23.3,86,0.0,998.0,6.3,20.2,120,39.9,38.9,3,5,7,1,2026-03-13T00:29:01.651919+05:30
