city,state,latitude,longitude,temp,humidity,rain,pressure,uv_index,wind_gusts,aqi,pm10,pm2_5,no2,co,o3,so2,mosquito_risk,arthritis_risk,migraine_risk,frizz_risk,updated_at
Delhi,Delhi,28.6139,77.209,32.3,39,0.0,978.4,7.55,29.9,307,272.9,69.4,20.8,601.0,164.0,27.0,0,5,7,1,2026-05-01T20:28:34.180211+05:30
Mumbai,Maharashtra,19.076,72.8777,29.5,73,0.0,1007.6,7.9,46.4,66,49.4,18.0,8.8,230.0,69.0,15.8,7,5,4,1,2026-05-01T20:28:34.180246+05:30
Bangalore,Karnataka,12.9716,77.5946,24.1,72,0.0,911.7,9.55,35.6,174,46.0,39.8,39.7,1427.0,109.0,14.0,3,5,7,1,2026-05-01T20:28:34.180262+05:30
Hyderabad,Telangana,17.385,78.4867,34.5,24,0.0,951.2,9.25,36.7,88,57.2,31.4,27.2,587.0,79.0,9.4,0,5,7,0,2026-05-01T20:28:34.180272+05:30
Chennai,Tamil Nadu,13.0827,80.2707,30.9,79,0.0,1005.5,9.25,49.0,162,26.7,21.9,7.1,192.0,139.0,8.6,3,5,4,1,2026-05-01T20:28:34.180284+05:30
Kolkata,West Bengal,22.5726,88.3639,26.6,80,0.0,1004.6,7.9,25.2,72,68.5,60.3,29.4,591.0,72.0,20.9,7,5,4,1,2026-05-01T20:28:34.180292+05:30
Pune,Maharashtra,18.5204,73.8567,26.8,65,0.0,947.6,8.5,49.3,55,34.6,12.7,5.7,208.0,76.0,4.5,7,5,7,1,2026-05-01T20:28:34.180298+05:30
Ahmedabad,Gujarat,23.0225,72.5714,32.3,64,0.0,997.6,8.1,42.5,64,44.4,16.8,5.5,215.0,94.0,4.9,3,5,7,1,2026-05-01T20:28:34.180307+05:30
Jaipur,Rajasthan,26.9124,75.7873,33.8,20,0.0,954.1,8.1,42.5,170,258.9,47.1,13.0,202.0,96.0,4.2,0,5,7,0,2026-05-01T20:28:34.180314+05:30
Lucknow,Uttar Pradesh,26.8467,80.9462,28.6,57,0.0,990.4,8.0,29.5,156,85.9,44.4,13.2,381.0,121.0,12.1,4,5,7,1,2026-05-01T20:28:34.180321+05:30
Kanpur,Uttar Pradesh,26.4499,80.3319,30.6,45,0.0,987.9,8.05,31.0,160,169.0,49.1,11.1,347.0,129.0,8.8,0,5,7,1,2026-05-01T20:28:34.180328+05:30
Chandigarh,Chandigarh,30.7333,76.7794,27.4,46,0.0,964.3,7.55,37.4,174,66.4,34.5,11.3,452.0,154.0,23.1,4,5,7,0,2026-05-01T20:28:34.180335+05:30
Srinagar,Jammu and Kashmir,34.0837,74.7973,15.8,78,0.0,838.2,8.75,25.9,106,24.9,20.0,23.9,1222.0,84.0,5.6,3,5,7,0,2026-05-01T20:28:34.180342+05:30
Jammu,Jammu and Kashmir,32.7266,74.857,26.4,49,0.0,967.6,8.35,32.0,131,19.9,15.0,15.7,437.0,110.0,3.3,4,5,7,0,2026-05-01T20:28:34.180348+05:30
Amritsar,Punjab,31.634,74.8723,30.0,38,0.0,975.7,8.25,31.7,173,28.1,20.1,14.7,568.0,142.0,8.4,4,5,7,0,2026-05-01T20:28:34.180355+05:30
Ludhiana,Punjab,30.901,75.8573,31.2,35,0.0,973.9,7.85,33.5,162,126.7,51.3,18.6,394.0,113.0,11.6,0,5,7,0,2026-05-01T20:28:34.180363+05:30
Jalandhar,Punjab,31.326,75.5762,29.4,39,0.0,974.7,8.0,33.8,153,158.8,55.4,17.6,462.0,123.0,10.6,4,5,7,0,2026-05-01T20:28:34.180371+05:30
Dehradun,Uttarakhand,30.6284,78.0322,13.8,89,0.0,826.1,7.95,34.2,126,72.6,43.5,19.8,297.0,115.0,2.9,3,10,7,0,2026-05-01T20:28:34.180380+05:30
Shimla,Himachal Pradesh,31.1048,77.1734,12.4,70,0.0,780.4,8.1,47.2,151,49.9,26.7,9.6,263.0,145.0,11.5,3,5,7,0,2026-05-01T20:28:34.180386+05:30
Manali,Himachal Pradesh,32.2396,77.1887,10.3,90,0.1,813.3,10.1,42.5,129,9.1,7.7,22.3,222.0,125.0,0.8,6,10,7,0,2026-05-01T20:28:34.180393+05:30
Gurgaon,Haryana,28.4595,77.0266,31.6,38,0.0,976.3,7.7,31.7,1295,715.3,124.8,27.6,354.0,151.0,26.3,0,5,7,0,2026-05-01T20:28:34.180400+05:30
Noida,Uttar Pradesh,28.5355,77.391,29.5,51,0.0,979.6,7.6,29.2,1295,715.3,124.8,27.6,690.0,151.0,26.3,4,5,7,1,2026-05-01T20:28:34.180406+05:30
Ghaziabad,Uttar Pradesh,28.6692,77.4538,29.8,49,0.0,978.0,7.55,32.8,183,253.3,57.0,8.6,416.0,143.0,10.5,4,5,7,1,2026-05-01T20:28:34.180412+05:30
Faridabad,Haryana,28.4089,77.3178,31.2,42,0.0,978.8,7.65,29.5,1295,715.3,124.8,27.6,695.0,151.0,26.3,0,5,7,1,2026-05-01T20:28:34.180418+05:30
Meerut,Uttar Pradesh,28.9845,77.7064,28.6,53,0.0,977.0,7.5,34.9,183,253.3,57.0,8.6,404.0,143.0,10.5,4,5,7,1,2026-05-01T20:28:34.180424+05:30
Agra,Uttar Pradesh,27.1767,78.0081,31.6,40,0.0,982.3,7.9,27.7,555,542.0,83.8,13.3,460.0,112.0,12.5,0,5,7,1,2026-05-01T20:28:34.180430+05:30
Varanasi,Uttar Pradesh,25.3176,82.9739,28.9,53,0.0,994.9,8.55,25.9,168,76.6,44.6,14.6,519.0,129.0,16.1,4,5,7,1,2026-05-01T20:28:34.180437+05:30
Prayagraj,Uttar Pradesh,25.4358,81.8463,29.6,50,0.0,992.7,8.4,25.6,177,95.0,48.1,22.0,350.0,127.0,16.8,4,5,7,1,2026-05-01T20:28:34.180449+05:30
Gorakhpur,Uttar Pradesh,26.7606,83.3732,22.6,82,0.0,995.6,8.35,37.1,138,48.4,28.6,6.7,340.0,133.0,5.5,3,5,7,1,2026-05-01T20:28:34.180455+05:30
Bareilly,Uttar Pradesh,28.367,79.4304,27.6,55,0.0,983.5,7.85,34.6,155,252.4,63.1,16.0,330.0,121.0,13.7,4,5,7,1,2026-05-01T20:28:34.180461+05:30
Aligarh,Uttar Pradesh,27.8974,78.088,30.1,47,0.0,980.6,7.75,28.8,667,473.1,91.0,10.1,330.0,139.0,15.7,0,5,7,1,2026-05-01T20:28:34.180468+05:30
Moradabad,Uttar Pradesh,28.8386,78.7733,28.0,57,0.0,979.9,7.7,35.6,161,109.9,54.7,17.0,414.0,131.0,20.2,4,5,7,1,2026-05-01T20:28:34.180474+05:30
Saharanpur,Uttar Pradesh,29.9637,77.546,27.1,59,0.0,971.2,7.3,36.4,150,150.9,60.1,28.8,302.0,109.0,16.2,4,5,7,1,2026-05-01T20:28:34.180479+05:30
Jhansi,Uttar Pradesh,25.4484,78.5685,31.3,34,0.0,972.8,8.35,28.4,101,69.2,25.7,6.6,179.0,102.0,9.2,0,5,7,0,2026-05-01T20:28:37.512576+05:30
Surat,Gujarat,21.1702,72.8311,29.4,80,0.0,1003.7,7.7,55.4,63,31.3,16.9,15.9,214.0,61.0,28.5,7,5,4,1,2026-05-01T20:28:37.512606+05:30
Vadodara,Gujarat,22.3072,73.1812,31.1,65,0.0,1000.4,8.05,52.6,61,24.1,15.3,11.2,259.0,84.0,16.8,3,5,4,1,2026-05-01T20:28:37.512619+05:30
Rajkot,Gujarat,22.3039,70.8022,34.2,42,0.0,990.1,7.7,54.0,50,28.2,12.5,4.2,170.0,83.0,6.3,0,5,7,1,2026-05-01T20:28:37.512630+05:30
Thane,Maharashtra,19.2183,72.9781,29.6,72,0.0,1006.8,7.9,42.1,66,49.4,18.0,8.8,246.0,69.0,15.8,7,5,4,1,2026-05-01T20:28:37.512639+05:30
Nagpur,Maharashtra,21.1458,79.0882,36.3,24,0.0,969.4,8.9,36.7,136,62.9,28.5,15.5,273.0,99.0,16.0,0,5,10,0,2026-05-01T20:28:37.512649+05:30
Nashik,Maharashtra,19.9975,73.7898,26.9,66,0.0,944.2,8.2,51.1,60,34.9,13.4,4.0,179.0,82.0,4.8,7,5,7,1,2026-05-01T20:28:37.512658+05:30
Aurangabad,Maharashtra,19.8762,75.3433,33.0,30,0.0,942.2,9.05,46.1,65,25.8,11.3,3.4,178.0,92.0,3.6,0,5,7,0,2026-05-01T20:28:37.512666+05:30
Solapur,Maharashtra,17.6599,75.9064,35.0,22,0.0,954.7,9.05,47.5,53,21.2,10.5,5.5,185.0,95.0,2.4,0,5,7,0,2026-05-01T20:28:37.512675+05:30
Kolhapur,Maharashtra,16.705,74.2433,26.8,59,0.0,947.7,8.95,46.8,59,30.0,14.2,7.1,201.0,72.0,2.3,4,5,7,1,2026-05-01T20:28:37.512684+05:30
Goa,Goa,15.2993,74.124,28.8,74,0.0,997.7,8.9,36.4,63,26.3,16.2,5.6,189.0,72.0,1.7,7,5,7,1,2026-05-01T20:28:37.512693+05:30
Jodhpur,Rajasthan,26.2389,73.0243,34.4,31,0.0,977.3,8.3,52.6,138,252.4,38.0,5.3,179.0,91.0,2.5,0,5,7,0,2026-05-01T20:28:37.512701+05:30
Udaipur,Rajasthan,24.5854,73.7125,32.7,27,0.0,942.8,8.75,45.7,57,36.1,14.0,1.8,161.0,112.0,3.2,0,5,7,0,2026-05-01T20:28:37.512710+05:30
Kota,Rajasthan,25.2138,75.8648,34.2,21,0.0,972.8,8.3,38.2,86,46.1,20.0,10.6,219.0,93.0,4.0,0,5,7,0,2026-05-01T20:28:37.512718+05:30
Bikaner,Rajasthan,28.0229,73.3119,35.9,17,0.0,975.2,8.25,39.6,84,64.0,18.1,3.0,272.0,101.0,4.2,0,5,10,0,2026-05-01T20:28:37.512727+05:30
Ajmer,Rajasthan,26.4499,74.6399,33.6,23,0.0,950.3,8.25,51.5,79,56.6,16.8,6.0,163.0,96.0,2.8,0,5,7,0,2026-05-01T20:28:37.512735+05:30
Gwalior,Madhya Pradesh,26.2183,78.1828,33.0,39,0.0,977.6,8.15,33.1,102,92.4,30.3,6.8,329.0,103.0,6.3,0,5,7,1,2026-05-01T20:28:37.512743+05:30
Indore,Madhya Pradesh,22.7196,75.8577,34.0,22,0.0,945.0,8.65,41.0,69,39.3,17.9,6.7,237.0,100.0,5.0,0,5,7,0,2026-05-01T20:28:37.512751+05:30
Bhopal,Madhya Pradesh,23.2599,77.4126,34.2,19,0.0,949.5,8.65,39.2,73,77.8,23.0,4.8,234.0,94.0,3.9,0,5,7,0,2026-05-01T20:28:37.512759+05:30
Jabalpur,Madhya Pradesh,23.1815,79.9864,34.5,20,0.0,957.6,8.8,38.2,94,84.3,30.7,11.2,178.0,98.0,5.0,0,5,7,0,2026-05-01T20:28:37.512767+05:30
Ujjain,Madhya Pradesh,23.1765,75.7885,34.0,22,0.0,950.4,8.55,40.0,66,37.8,17.9,3.4,192.0,102.0,3.8,0,5,7,0,2026-05-01T20:28:37.512776+05:30
Visakhapatnam,Andhra Pradesh,17.6868,83.2185,28.5,90,0.0,1001.8,9.15,51.8,53,23.9,19.0,21.8,277.0,75.0,7.4,7,5,4,1,2026-05-01T20:28:37.512784+05:30
Vijayawada,Andhra Pradesh,16.5062,80.648,31.4,59,0.0,999.5,9.2,39.6,145,35.0,32.5,6.2,275.0,149.0,8.0,0,5,7,1,2026-05-01T20:28:37.512792+05:30
Guntur,Andhra Pradesh,16.3067,80.4365,31.6,68,0.0,1000.7,9.2,40.0,147,44.9,39.2,11.0,282.0,134.0,7.5,3,5,4,1,2026-05-01T20:28:37.512801+05:30
Nellore,Andhra Pradesh,14.4426,79.9865,31.6,71,0.0,1002.8,9.25,49.0,177,32.7,29.0,4.5,228.0,164.0,7.8,3,5,4,1,2026-05-01T20:28:37.512810+05:30
Kurnool,Andhra Pradesh,15.8281,78.0373,34.3,22,0.0,973.9,9.2,40.0,111,46.1,22.4,12.3,250.0,107.0,6.4,0,5,7,0,2026-05-01T20:28:37.512819+05:30
Kakinada,Andhra Pradesh,16.9891,82.2475,29.6,83,0.0,1004.8,9.15,45.7,54,21.3,15.6,2.7,227.0,99.0,2.0,7,5,4,1,2026-05-01T20:28:37.512828+05:30
Tirupati,Andhra Pradesh,13.6288,79.4192,32.0,46,0.0,989.1,9.3,42.8,163,50.5,45.4,14.9,386.0,132.0,5.7,0,5,7,1,2026-05-01T20:28:37.512836+05:30
Warangal,Telangana,17.9689,79.5941,32.8,27,0.0,975.4,9.15,41.0,105,65.0,40.6,26.6,314.0,78.0,9.3,0,5,7,0,2026-05-01T20:28:37.512869+05:30
Nizamabad,Telangana,18.6725,78.0941,33.6,28,0.0,961.6,9.1,33.5,85,45.8,25.0,11.7,265.0,92.0,4.1,0,5,7,0,2026-05-01T20:28:37.512880+05:30
Mysore,Karnataka,12.2958,76.6396,25.1,75,0.1,929.0,9.35,52.9,157,29.6,25.6,10.4,414.0,133.0,3.4,10,5,7,1,2026-05-01T20:28:37.512888+05:30
Mangalore,Karnataka,12.9141,74.856,29.9,77,0.0,1006.7,9.0,40.7,67,26.5,15.0,3.9,176.0,68.0,1.7,7,5,4,1,2026-05-01T20:28:37.512897+05:30
Hubli-Dharwad,Karnataka,15.3647,75.124,26.8,63,0.0,940.3,9.2,45.0,56,25.2,15.0,6.9,202.0,79.0,1.8,7,5,7,1,2026-05-01T20:28:37.512905+05:30
Belgaum,Karnataka,15.8497,74.4977,25.0,71,0.0,925.6,9.15,44.6,54,23.1,12.4,7.7,191.0,66.0,2.3,7,5,7,1,2026-05-01T20:28:40.844688+05:30
Coimbatore,Tamil Nadu,11.0168,76.9558,27.4,78,0.0,962.1,9.2,41.4,124,28.5,25.6,14.2,279.0,86.0,4.2,7,5,7,1,2026-05-01T20:28:40.844709+05:30
Madurai,Tamil Nadu,9.9252,78.1198,28.7,69,0.0,993.4,8.9,57.6,116,21.9,19.4,8.2,316.0,120.0,5.0,7,5,7,1,2026-05-01T20:28:40.844719+05:30
Trichy,Tamil Nadu,10.7905,78.7047,32.7,47,0.0,999.5,8.9,36.0,128,28.8,25.9,10.8,282.0,112.0,4.9,0,5,7,1,2026-05-01T20:28:40.844727+05:30
Salem,Tamil Nadu,11.6643,78.146,28.8,61,0.0,977.7,9.25,61.9,182,51.8,44.8,23.8,290.0,141.0,15.1,7,5,7,1,2026-05-01T20:28:40.844734+05:30
Tirunelveli,Tamil Nadu,8.7139,77.7567,32.2,54,0.0,1003.1,8.85,36.7,64,18.0,15.6,7.0,226.0,96.0,1.9,0,5,4,1,2026-05-01T20:28:40.844741+05:30
Vellore,Tamil Nadu,12.9165,79.1325,31.1,50,0.0,983.0,9.3,44.3,158,51.1,46.2,12.4,373.0,132.0,8.5,0,5,7,1,2026-05-01T20:28:40.844748+05:30
Erode,Tamil Nadu,11.341,77.7172,29.4,64,0.1,989.3,9.25,54.4,143,42.3,33.4,22.3,293.0,122.0,3.7,10,5,7,1,2026-05-01T20:28:40.844754+05:30
Kochi,Kerala,9.9312,76.2673,27.5,89,0.0,1009.2,8.8,33.8,55,38.6,33.4,48.5,386.0,36.0,8.8,7,0,4,1,2026-05-01T20:28:40.844761+05:30
Thiruvananthapuram,Kerala,8.5241,76.9366,25.8,91,0.0,1009.0,8.85,34.9,54,12.9,9.3,3.1,366.0,98.0,1.6,7,0,4,1,2026-05-01T20:28:40.844767+05:30
Kozhikode,Kerala,11.2588,75.7804,28.3,87,0.0,1007.9,7.7,39.2,60,32.1,17.8,2.3,232.0,73.0,1.1,7,5,4,1,2026-05-01T20:28:40.844774+05:30
Thrissur,Kerala,10.5276,76.2144,27.6,91,0.0,1007.5,8.7,39.2,64,33.4,27.2,13.5,437.0,68.0,3.2,7,5,4,1,2026-05-01T20:28:40.844781+05:30
Kannur,Kerala,11.8745,75.3704,29.3,82,0.0,1007.2,8.9,43.2,68,30.7,18.2,7.1,247.0,66.0,1.8,7,5,4,1,2026-05-01T20:28:40.844787+05:30
Patna,Bihar,25.5941,85.1376,23.4,82,0.0,999.2,8.4,33.5,162,54.1,38.4,11.6,501.0,138.0,11.1,3,5,7,1,2026-05-01T20:28:40.844793+05:30
Gaya,Bihar,24.7914,85.0002,26.7,63,0.0,991.8,8.7,32.8,165,65.7,37.8,9.5,467.0,137.0,9.2,7,5,7,1,2026-05-01T20:28:40.844800+05:30
Muzaffarpur,Bihar,26.1209,85.3647,21.5,90,0.0,999.4,6.55,31.3,158,40.5,31.7,11.6,460.0,128.0,10.9,3,5,7,1,2026-05-01T20:28:40.844806+05:30
Bhagalpur,Bihar,25.2425,87.0117,22.8,90,0.0,1000.2,8.5,49.3,169,38.0,29.7,11.2,361.0,119.0,6.4,3,5,4,1,2026-05-01T20:28:40.844813+05:30
Ranchi,Jharkhand,23.3441,85.3096,21.3,74,0.0,934.8,9.05,48.2,142,79.4,42.3,4.9,267.0,148.0,8.2,3,5,7,1,2026-05-01T20:28:40.844819+05:30
Jamshedpur,Jharkhand,22.8046,86.2029,26.1,74,0.0,988.9,9.0,24.8,182,69.2,40.4,12.7,390.0,117.0,14.8,7,5,7,1,2026-05-01T20:28:40.844825+05:30
Dhanbad,Jharkhand,23.7957,86.4304,25.0,83,0.1,978.0,8.9,22.3,196,99.7,66.4,50.2,602.0,103.0,57.9,10,5,7,1,2026-05-01T20:28:40.844831+05:30
Bokaro,Jharkhand,23.6693,86.1511,25.6,70,0.0,981.8,8.95,27.4,186,92.9,49.1,34.6,1369.0,106.0,41.5,7,5,7,1,2026-05-01T20:28:40.844838+05:30
Bhubaneswar,Odisha,20.2961,85.8245,27.3,88,0.0,1000.9,8.4,47.2,98,30.5,24.9,8.2,517.0,107.0,5.2,7,5,4,1,2026-05-01T20:28:40.844884+05:30
Cuttack,Odisha,20.4625,85.8828,27.2,86,0.0,1002.7,8.85,36.0,98,30.5,24.9,8.2,522.0,107.0,5.2,7,5,4,1,2026-05-01T20:28:40.844893+05:30
Rourkela,Odisha,22.2604,84.8536,24.8,85,0.0,982.9,8.9,36.7,194,83.8,49.4,11.3,377.0,157.0,31.5,3,5,7,1,2026-05-01T20:28:40.844900+05:30
Raipur,Chhattisgarh,21.2514,81.6296,33.9,28,0.0,971.0,8.95,42.8,146,90.1,40.6,26.3,263.0,94.0,6.9,0,5,7,0,2026-05-01T20:28:40.844907+05:30
Bhilai,Chhattisgarh,21.1938,81.3509,34.0,28,0.0,971.4,8.95,54.7,115,83.1,37.1,21.4,672.0,107.0,6.4,0,5,7,0,2026-05-01T20:28:40.844913+05:30
Guwahati,Assam,26.1158,91.7086,21.1,96,0.0,1002.1,7.7,28.8,67,36.2,32.7,16.3,391.0,71.0,4.5,3,5,4,1,2026-05-01T20:28:40.844920+05:30
Agartala,Tripura,23.8315,91.2868,23.3,87,0.0,1006.1,5.1,38.2,74,43.3,40.3,17.8,204.0,83.0,3.5,3,5,0,1,2026-05-01T20:28:40.844927+05:30
Shillong,Meghalaya,25.5788,91.8933,13.6,92,0.0,854.2,7.5,36.7,56,17.1,15.9,13.0,272.0,70.0,2.4,3,10,7,0,2026-05-01T20:28:40.844934+05:30
Imphal,Manipur,24.817,93.9368,18.5,98,0.1,922.8,4.0,18.7,76,21.4,19.6,16.1,409.0,50.0,3.0,6,10,3,1,2026-05-01T20:28:40.844941+05:30
Aizawl,Mizoram,23.7271,92.7176,16.7,91,0.0,891.6,4.95,50.4,51,10.9,9.3,5.7,192.0,61.0,1.2,3,10,3,0,2026-05-01T20:28:40.844947+05:30
Kohima,Nagaland,25.6701,94.1077,15.6,100,0.5,854.0,4.45,23.0,53,20.7,15.8,10.7,399.0,67.0,1.8,6,10,3,0,2026-05-01T20:28:40.844954+05:30
Gangtok,Sikkim,27.3314,88.6138,12.9,89,0.1,835.0,8.9,42.5,82,22.5,14.6,7.4,458.0,114.0,0.9,6,10,7,0,2026-05-01T20:28:40.844960+05:30
Siliguri,West Bengal,26.7271,88.3953,20.5,96,0.0,992.7,6.6,26.6,80,37.6,28.1,13.6,559.0,108.0,3.6,3,5,7,1,2026-05-01T20:28:44.179082+05:30
Durgapur,West Bengal,23.5204,87.3119,25.8,73,0.0,993.6,8.85,29.2,204,131.3,99.7,29.0,561.0,149.0,49.0,7,5,7,1,2026-05-01T20:28:44.179111+05:30
Asansol,West Bengal,23.6739,86.9524,23.8,86,0.0,992.7,8.75,24.5,203,102.0,72.6,31.1,824.0,140.0,46.8,3,5,7,1,2026-05-01T20:28:44.179126+05:30
Pondicherry,Puducherry,11.9139,79.8145,31.0,77,0.0,1006.9,8.7,43.6,139,22.1,16.8,8.1,188.0,105.0,6.6,3,5,4,1,2026-05-01T20:28:44.179136+05:30
Port Blair,Andaman and Nicobar Islands,11.6234,92.7265,27.2,92,0.0,1008.7,9.1,24.8,30,6.7,4.6,0.6,375.0,58.0,2.4,7,0,4,1,2026-05-01T20:28:44.179146+05:30
Haridwar,Uttarakhand,29.9457,78.1642,25.5,65,0.0,970.1,7.4,28.8,149,119.7,44.7,12.7,374.0,131.0,10.6,7,5,7,1,2026-05-01T20:28:44.179155+05:30
Rishikesh,Uttarakhand,30.0869,78.2676,23.4,68,0.0,962.8,7.5,25.9,144,108.5,37.7,8.3,369.0,130.0,7.8,3,5,7,1,2026-05-01T20:28:44.179164+05:30
Nainital,Uttarakhand,29.3919,79.4542,11.5,92,0.0,801.3,8.3,39.6,131,109.7,35.6,10.6,306.0,124.0,7.2,3,10,7,0,2026-05-01T20:28:44.179173+05:30
Mussoorie,Uttarakhand,30.4599,78.0664,11.8,93,0.0,798.2,7.9,42.1,160,114.6,44.2,15.3,306.0,144.0,13.5,3,10,7,0,2026-05-01T20:28:44.179182+05:30
Dharamshala,Himachal Pradesh,32.219,76.3234,18.3,59,0.0,865.0,8.2,46.8,112,14.1,10.9,8.6,310.0,116.0,1.4,0,5,7,0,2026-05-01T20:28:44.179190+05:30
Dalhousie,Himachal Pradesh,32.5387,75.971,12.7,74,0.0,799.6,8.5,37.8,143,37.8,23.7,20.8,538.0,125.0,3.9,3,5,7,0,2026-05-01T20:28:44.179200+05:30
Patiala,Punjab,30.3398,76.3869,29.9,40,0.0,973.5,7.5,38.5,498,286.8,58.6,7.9,329.0,136.0,15.1,4,5,7,0,2026-05-01T20:28:44.179208+05:30
Bhatinda,Punjab,30.211,74.9455,31.8,29,0.0,978.5,8.1,36.7,322,69.2,25.0,6.8,328.0,120.0,7.9,0,5,7,0,2026-05-01T20:28:44.179217+05:30
Rohtak,Haryana,28.8955,76.6066,32.0,31,0.0,976.7,7.6,29.2,603,371.6,88.2,18.4,420.0,162.0,21.6,0,5,7,0,2026-05-01T20:28:44.179226+05:30
Panipat,Haryana,29.3909,76.9635,29.0,51,0.0,975.6,7.45,33.8,1098,497.3,98.3,14.7,344.0,161.0,22.8,4,5,7,1,2026-05-01T20:28:44.179235+05:30
Mathura,Uttar Pradesh,27.4924,77.6737,30.0,46,0.0,981.4,7.85,28.1,610,446.1,79.2,15.7,340.0,117.0,9.3,4,5,7,1,2026-05-01T20:28:44.179243+05:30
Vrindavan,Uttar Pradesh,27.5823,77.7027,30.0,45,0.0,981.9,7.8,28.4,610,446.1,79.2,15.7,342.0,117.0,9.3,4,5,7,1,2026-05-01T20:28:44.179251+05:30
Ayodhya,Uttar Pradesh,26.7922,82.1998,26.5,61,0.0,993.1,8.15,28.4,131,90.8,42.5,16.0,318.0,106.0,8.8,7,5,7,1,2026-05-01T20:28:44.179260+05:30
Ratlam,Madhya Pradesh,23.3315,75.0367,32.4,30,0.0,951.4,8.45,40.7,69,38.0,16.2,1.6,178.0,113.0,4.2,0,5,7,0,2026-05-01T20:28:44.179268+05:30
Sagar,Madhya Pradesh,23.8388,78.7378,31.0,26,0.0,946.0,8.65,40.7,83,33.4,14.8,5.5,163.0,98.0,3.9,0,5,7,0,2026-05-01T20:28:44.179276+05:30
Satna,Madhya Pradesh,24.6005,80.8322,30.0,38,0.0,967.5,8.65,52.6,97,82.4,27.4,5.6,231.0,114.0,4.5,4,5,7,0,2026-05-01T20:28:44.179284+05:30
Akola,Maharashtra,20.7002,77.0082,35.5,21,0.0,971.3,8.9,40.0,71,31.0,14.7,4.9,172.0,102.0,10.5,0,5,10,0,2026-05-01T20:28:44.179293+05:30
Amravati,Maharashtra,20.9374,77.7796,35.2,22,0.0,963.8,8.85,38.9,82,34.6,15.9,6.4,199.0,98.0,9.5,0,5,10,0,2026-05-01T20:28:44.179303+05:30
Latur,Maharashtra,18.4088,76.5604,33.0,21,0.0,937.3,9.1,38.9,58,30.0,15.5,10.3,226.0,84.0,5.9,0,5,7,0,2026-05-01T20:28:44.179311+05:30
Nanded,Maharashtra,19.1383,77.3091,33.8,25,0.0,964.6,9.0,32.8,70,38.9,19.6,9.7,268.0,87.0,3.2,0,5,7,0,2026-05-01T20:28:44.179319+05:30
Gulbarga,Karnataka,17.3297,76.8343,34.4,18,0.0,955.8,9.1,44.6,62,31.9,15.1,18.2,188.0,73.0,3.7,0,5,7,0,2026-05-01T20:28:44.179327+05:30
Bidar,Karnataka,17.9104,77.5199,31.7,26,0.0,933.0,9.15,37.4,78,34.8,18.9,10.8,228.0,92.0,4.9,0,5,7,0,2026-05-01T20:28:44.179335+05:30
Hospet,Karnataka,15.2689,76.3909,31.6,39,0.0,954.5,9.25,38.5,74,26.2,15.4,6.9,225.0,104.0,1.9,0,5,7,0,2026-05-01T20:28:44.179343+05:30
Tirupur,Tamil Nadu,11.1085,77.3411,29.3,69,0.1,975.4,9.2,53.3,155,35.4,31.0,19.1,317.0,105.0,5.1,10,5,7,1,2026-05-01T20:28:44.179351+05:30
Alappuzha,Kerala,9.4981,76.3388,27.1,91,0.0,1009.3,8.95,33.8,52,27.8,21.6,18.8,170.0,77.0,5.0,7,0,4,1,2026-05-01T20:28:44.179359+05:30
Munnar,Kerala,10.0889,77.0595,18.1,97,0.0,857.0,8.3,28.4,50,22.7,19.3,8.8,355.0,73.0,1.9,3,10,7,1,2026-05-01T20:28:44.179367+05:30
Silchar,Assam,24.8333,92.7789,21.5,96,0.1,1006.0,0.8,24.1,102,41.9,41.3,13.4,339.0,59.0,6.8,6,5,0,1,2026-05-01T20:28:44.179376+05:30
Dibrugarh,Assam,27.4728,94.912,20.2,96,0.1,996.5,5.65,33.5,65,37.8,27.6,15.0,270.0,61.0,2.9,6,5,3,1,2026-05-01T20:28:44.179384+05:30
