city,state,latitude,longitude,temp,humidity,rain,pressure,uv_index,wind_gusts,aqi,pm10,pm2_5,mosquito_risk,arthritis_risk,migraine_risk,frizz_risk,updated_at
Delhi,Delhi,28.6139,77.209,30.7,33,0.0,984.5,7.15,31.0,698,532.7,68.5,0,5,7,0,2026-04-11T16:08:23.863856+05:30
Mumbai,Maharashtra,19.076,72.8777,28.8,76,0.0,1008.1,7.95,23.4,167,48.2,33.5,7,0,4,1,2026-04-11T16:08:23.863905+05:30
Bangalore,Karnataka,12.9716,77.5946,34.9,28,0.0,911.4,9.65,27.4,85,33.9,23.4,0,5,7,0,2026-04-11T16:08:23.863922+05:30
Hyderabad,Telangana,17.385,78.4867,39.3,21,0.0,952.4,9.2,18.7,123,40.2,27.2,0,5,10,0,2026-04-11T16:08:23.863959+05:30
Chennai,Tamil Nadu,13.0827,80.2707,33.6,56,0.0,1006.3,9.15,35.6,57,22.2,15.7,0,5,4,1,2026-04-11T16:08:23.863972+05:30
Kolkata,West Bengal,22.5726,88.3639,31.7,52,0.0,1005.4,8.75,18.0,133,53.9,35.7,0,5,4,1,2026-04-11T16:08:23.863982+05:30
Pune,Maharashtra,18.5204,73.8567,38.1,29,0.0,948.1,8.55,38.9,129,37.8,20.9,0,5,10,1,2026-04-11T16:08:23.863994+05:30
Ahmedabad,Gujarat,23.0225,72.5714,40.3,15,0.0,1001.7,8.05,22.3,108,28.1,14.8,0,5,7,0,2026-04-11T16:08:23.864002+05:30
Jaipur,Rajasthan,26.9124,75.7873,35.7,15,0.0,960.4,7.85,40.7,92,237.5,26.9,0,5,10,0,2026-04-11T16:08:23.864010+05:30
Lucknow,Uttar Pradesh,26.8467,80.9462,35.5,20,0.0,993.3,7.65,42.1,296,297.1,47.5,0,5,10,0,2026-04-11T16:08:23.864018+05:30
Kanpur,Uttar Pradesh,26.4499,80.3319,34.4,25,0.0,992.3,7.65,36.4,643,745.1,83.6,0,5,7,0,2026-04-11T16:08:23.864025+05:30
Chandigarh,Chandigarh,30.7333,76.7794,30.2,32,0.0,970.2,7.15,29.9,100,61.0,18.1,0,5,7,0,2026-04-11T16:08:23.864033+05:30
Srinagar,Jammu and Kashmir,34.0837,74.7973,14.2,57,0.0,842.2,7.45,14.0,85,50.9,14.6,0,5,7,0,2026-04-11T16:08:23.864040+05:30
Jammu,Jammu and Kashmir,32.7266,74.857,28.2,33,0.0,974.9,6.65,16.6,66,54.9,17.6,4,5,7,0,2026-04-11T16:08:23.864048+05:30
Amritsar,Punjab,31.634,74.8723,28.2,39,0.0,983.0,7.7,18.7,77,117.8,30.3,4,5,7,0,2026-04-11T16:08:23.864055+05:30
Ludhiana,Punjab,30.901,75.8573,30.4,31,0.0,980.5,7.35,28.8,85,56.0,17.9,0,5,7,0,2026-04-11T16:08:23.864061+05:30
Jalandhar,Punjab,31.326,75.5762,29.4,34,0.0,981.9,7.5,23.4,87,94.5,22.9,4,5,7,0,2026-04-11T16:08:23.864071+05:30
Dehradun,Uttarakhand,30.6284,78.0322,19.7,44,0.0,831.4,7.5,42.5,112,60.1,12.5,0,5,7,0,2026-04-11T16:08:23.864077+05:30
Shimla,Himachal Pradesh,31.1048,77.1734,16.7,50,0.0,786.4,7.5,46.4,96,61.5,15.3,0,5,7,0,2026-04-11T16:08:23.864085+05:30
Manali,Himachal Pradesh,32.2396,77.1887,16.1,56,0.0,819.9,9.1,29.5,142,40.2,10.4,0,5,7,0,2026-04-11T16:08:23.864091+05:30
Gurgaon,Haryana,28.4595,77.0266,29.9,38,0.0,982.9,7.3,26.3,1815,1214.4,120.6,4,5,7,0,2026-04-11T16:08:23.864098+05:30
Noida,Uttar Pradesh,28.5355,77.391,31.0,32,0.0,985.9,7.2,31.3,1815,1214.4,120.6,0,5,7,0,2026-04-11T16:08:23.864105+05:30
Ghaziabad,Uttar Pradesh,28.6692,77.4538,31.0,34,0.0,984.1,7.15,29.9,548,469.4,64.5,0,5,7,0,2026-04-11T16:08:23.864113+05:30
Faridabad,Haryana,28.4089,77.3178,31.0,31,0.0,985.4,7.25,31.0,1815,1214.4,120.6,0,5,7,0,2026-04-11T16:08:23.864120+05:30
Meerut,Uttar Pradesh,28.9845,77.7064,31.9,31,0.0,982.6,7.05,34.2,548,469.4,64.5,0,5,7,0,2026-04-11T16:08:23.864126+05:30
Agra,Uttar Pradesh,27.1767,78.0081,35.0,23,0.0,988.6,7.55,28.8,1134,560.7,62.2,0,5,7,0,2026-04-11T16:08:23.864133+05:30
Varanasi,Uttar Pradesh,25.3176,82.9739,36.3,18,0.0,997.0,8.3,37.8,109,96.9,31.1,0,5,10,0,2026-04-11T16:08:23.864144+05:30
Prayagraj,Uttar Pradesh,25.4358,81.8463,35.6,20,0.0,996.3,8.15,39.2,128,112.9,32.0,0,5,10,0,2026-04-11T16:08:23.864152+05:30
Gorakhpur,Uttar Pradesh,26.7606,83.3732,35.2,19,0.0,995.8,8.1,29.2,117,82.4,32.9,0,5,10,0,2026-04-11T16:08:23.864161+05:30
Bareilly,Uttar Pradesh,28.367,79.4304,32.9,27,0.0,987.3,7.45,46.4,106,46.4,16.6,0,5,7,0,2026-04-11T16:08:23.864167+05:30
Aligarh,Uttar Pradesh,27.8974,78.088,34.0,24,0.0,986.6,7.35,37.1,1177,905.2,98.5,0,5,7,0,2026-04-11T16:08:23.864174+05:30
Moradabad,Uttar Pradesh,28.8386,78.7733,32.1,29,0.0,984.5,7.25,41.4,108,88.9,24.6,0,5,7,0,2026-04-11T16:08:23.864180+05:30
Saharanpur,Uttar Pradesh,29.9637,77.546,31.5,31,0.0,976.6,6.85,35.3,83,95.9,23.6,0,5,7,0,2026-04-11T16:08:23.864187+05:30
Jhansi,Uttar Pradesh,25.4484,78.5685,37.0,18,0.0,978.6,8.1,25.6,91,54.1,12.3,0,5,10,0,2026-04-11T16:08:27.081020+05:30
Surat,Gujarat,21.1702,72.8311,36.7,24,0.0,1006.6,7.8,27.7,117,46.8,39.1,0,5,7,0,2026-04-11T16:08:27.081055+05:30
Vadodara,Gujarat,22.3072,73.1812,39.9,17,0.0,1004.0,8.05,18.4,119,23.2,14.6,0,5,7,0,2026-04-11T16:08:27.081065+05:30
Rajkot,Gujarat,22.3039,70.8022,38.9,20,0.0,994.7,7.75,31.3,91,36.0,17.1,0,5,10,0,2026-04-11T16:08:27.081072+05:30
Thane,Maharashtra,19.2183,72.9781,31.7,62,0.0,1007.8,7.95,37.1,167,48.2,33.5,3,5,4,1,2026-04-11T16:08:27.081080+05:30
Nagpur,Maharashtra,21.1458,79.0882,36.1,23,0.0,973.0,8.75,22.7,135,22.1,12.7,0,5,10,0,2026-04-11T16:08:27.081087+05:30
Nashik,Maharashtra,19.9975,73.7898,36.4,27,0.0,945.8,8.25,36.7,150,38.9,24.6,0,5,10,0,2026-04-11T16:08:27.081094+05:30
Aurangabad,Maharashtra,19.8762,75.3433,38.5,18,0.0,944.1,8.9,33.1,126,27.6,14.9,0,5,10,0,2026-04-11T16:08:27.081101+05:30
Solapur,Maharashtra,17.6599,75.9064,40.3,19,0.0,955.8,9.0,18.7,132,35.3,22.1,0,5,10,0,2026-04-11T16:08:27.081108+05:30
Kolhapur,Maharashtra,16.705,74.2433,36.0,35,0.0,947.5,8.5,42.5,117,34.0,20.8,0,5,10,1,2026-04-11T16:08:27.081114+05:30
Goa,Goa,15.2993,74.124,31.1,64,0.0,997.4,9.05,34.9,110,83.4,33.9,3,5,7,1,2026-04-11T16:08:27.081122+05:30
Jodhpur,Rajasthan,26.2389,73.0243,36.9,21,0.0,983.1,8.05,33.1,81,200.2,33.1,0,5,10,0,2026-04-11T16:08:27.081128+05:30
Udaipur,Rajasthan,24.5854,73.7125,35.3,21,0.0,948.0,8.6,36.4,116,21.7,8.4,0,5,10,0,2026-04-11T16:08:27.081136+05:30
Kota,Rajasthan,25.2138,75.8648,37.1,17,0.0,979.3,8.1,21.6,96,19.6,8.3,0,5,10,0,2026-04-11T16:08:27.081142+05:30
Bikaner,Rajasthan,28.0229,73.3119,35.1,21,0.0,982.3,7.4,32.8,102,97.8,24.4,0,5,10,0,2026-04-11T16:08:27.081149+05:30
Ajmer,Rajasthan,26.4499,74.6399,34.5,20,0.0,955.8,8.0,40.3,92,18.7,7.7,0,5,7,0,2026-04-11T16:08:27.081156+05:30
Gwalior,Madhya Pradesh,26.2183,78.1828,35.2,22,0.0,984.4,7.8,30.6,102,38.4,9.9,0,5,10,0,2026-04-11T16:08:27.081163+05:30
Indore,Madhya Pradesh,22.7196,75.8577,35.6,16,0.0,949.6,8.5,21.6,122,30.3,15.3,0,5,10,0,2026-04-11T16:08:27.081169+05:30
Bhopal,Madhya Pradesh,23.2599,77.4126,37.2,14,0.0,954.8,8.45,24.5,108,35.6,10.2,0,5,10,0,2026-04-11T16:08:27.081175+05:30
Jabalpur,Madhya Pradesh,23.1815,79.9864,35.3,20,0.0,962.4,8.6,18.4,120,53.3,17.6,0,5,10,0,2026-04-11T16:08:27.081182+05:30
Ujjain,Madhya Pradesh,23.1765,75.7885,36.1,18,0.0,955.2,8.4,20.5,106,27.9,13.7,0,5,10,0,2026-04-11T16:08:27.081189+05:30
Visakhapatnam,Andhra Pradesh,17.6868,83.2185,32.1,65,0.0,1002.9,9.15,39.6,81,36.2,29.3,3,5,4,1,2026-04-11T16:08:27.081196+05:30
Vijayawada,Andhra Pradesh,16.5062,80.648,37.8,37,0.0,1000.8,9.2,25.6,74,37.8,27.0,0,5,7,1,2026-04-11T16:08:27.081203+05:30
Guntur,Andhra Pradesh,16.3067,80.4365,37.6,37,0.0,1002.1,9.25,33.5,74,36.0,25.1,0,5,7,1,2026-04-11T16:08:27.081209+05:30
Nellore,Andhra Pradesh,14.4426,79.9865,35.5,47,0.0,1004.2,9.25,40.7,62,29.9,20.9,0,5,7,1,2026-04-11T16:08:27.081217+05:30
Kurnool,Andhra Pradesh,15.8281,78.0373,39.9,27,0.0,974.8,9.2,27.0,106,33.1,22.1,0,5,10,1,2026-04-11T16:08:27.081224+05:30
Kakinada,Andhra Pradesh,16.9891,82.2475,36.3,46,0.0,1005.9,9.2,33.8,62,24.1,16.1,0,5,7,1,2026-04-11T16:08:27.081231+05:30
Tirupati,Andhra Pradesh,13.6288,79.4192,38.0,27,0.0,989.5,9.4,32.0,72,34.3,22.6,0,5,10,0,2026-04-11T16:08:27.081238+05:30
Warangal,Telangana,17.9689,79.5941,38.5,28,0.0,977.3,9.1,25.2,101,32.6,22.2,0,5,10,1,2026-04-11T16:08:27.081244+05:30
Nizamabad,Telangana,18.6725,78.0941,37.9,26,0.0,964.1,9.0,24.8,148,31.2,18.7,0,5,10,0,2026-04-11T16:08:27.081250+05:30
Mysore,Karnataka,12.2958,76.6396,34.9,33,0.0,927.5,9.4,38.9,89,34.0,23.5,0,5,7,1,2026-04-11T16:08:27.081256+05:30
Mangalore,Karnataka,12.9141,74.856,29.6,82,0.0,1005.9,8.75,25.9,85,74.7,29.4,7,5,4,1,2026-04-11T16:08:27.081262+05:30
Hubli-Dharwad,Karnataka,15.3647,75.124,37.7,24,0.0,939.8,9.25,42.5,122,44.8,27.4,0,5,10,0,2026-04-11T16:08:27.081268+05:30
Belgaum,Karnataka,15.8497,74.4977,34.3,38,0.0,925.8,9.3,43.9,139,43.3,26.6,0,5,7,1,2026-04-11T16:08:30.301780+05:30
Coimbatore,Tamil Nadu,11.0168,76.9558,35.9,34,0.0,960.3,7.35,46.1,91,34.3,23.2,0,5,10,1,2026-04-11T16:08:30.301815+05:30
Madurai,Tamil Nadu,9.9252,78.1198,37.8,31,0.0,990.6,8.45,40.0,70,24.2,17.1,0,5,10,1,2026-04-11T16:08:30.301826+05:30
Trichy,Tamil Nadu,10.7905,78.7047,37.8,36,0.0,997.4,9.4,27.7,66,24.6,17.6,0,5,10,1,2026-04-11T16:08:30.301834+05:30
Salem,Tamil Nadu,11.6643,78.146,38.2,29,0.0,975.1,9.05,21.6,76,32.6,23.2,0,5,10,1,2026-04-11T16:08:30.301841+05:30
Tirunelveli,Tamil Nadu,8.7139,77.7567,35.5,42,0.0,1001.1,9.35,46.1,77,23.7,17.6,0,5,7,1,2026-04-11T16:08:30.301849+05:30
Vellore,Tamil Nadu,12.9165,79.1325,37.3,27,0.0,983.0,9.45,35.3,80,34.2,24.5,0,5,10,0,2026-04-11T16:08:30.301856+05:30
Erode,Tamil Nadu,11.341,77.7172,39.0,28,0.0,986.4,8.75,31.0,86,30.3,20.7,0,5,10,1,2026-04-11T16:08:30.301864+05:30
Kochi,Kerala,9.9312,76.2673,29.6,80,0.0,1007.1,8.85,29.9,69,31.4,18.9,7,5,4,1,2026-04-11T16:08:30.301871+05:30
Thiruvananthapuram,Kerala,8.5241,76.9366,29.7,80,0.0,1006.2,7.75,36.4,62,32.7,19.2,7,5,4,1,2026-04-11T16:08:30.301878+05:30
Kozhikode,Kerala,11.2588,75.7804,30.5,76,0.0,1006.6,8.7,28.8,62,28.6,12.3,3,5,4,1,2026-04-11T16:08:30.301885+05:30
Thrissur,Kerala,10.5276,76.2144,32.6,66,0.0,1005.6,9.0,31.7,68,31.0,17.9,3,5,4,1,2026-04-11T16:08:30.301892+05:30
Kannur,Kerala,11.8745,75.3704,31.3,71,0.0,1006.1,8.65,31.3,64,49.7,21.1,3,5,4,1,2026-04-11T16:08:30.301898+05:30
Patna,Bihar,25.5941,85.1376,34.7,23,0.0,999.0,8.45,28.4,126,171.8,44.1,0,5,7,0,2026-04-11T16:08:30.301906+05:30
Gaya,Bihar,24.7914,85.0002,35.2,16,0.0,992.8,8.55,33.5,120,129.0,30.6,0,5,10,0,2026-04-11T16:08:30.301913+05:30
Muzaffarpur,Bihar,26.1209,85.3647,34.2,23,0.0,998.9,8.4,16.2,125,189.1,47.0,0,5,7,0,2026-04-11T16:08:30.301919+05:30
Bhagalpur,Bihar,25.2425,87.0117,31.4,34,0.0,1000.6,8.45,20.5,151,312.9,53.0,0,5,4,0,2026-04-11T16:08:30.301925+05:30
Ranchi,Jharkhand,23.3441,85.3096,31.5,19,0.0,938.4,9.05,31.7,126,148.5,28.5,0,5,7,0,2026-04-11T16:08:30.301950+05:30
Jamshedpur,Jharkhand,22.8046,86.2029,32.9,32,0.0,990.7,8.85,14.8,148,156.5,29.5,0,5,7,0,2026-04-11T16:08:30.301957+05:30
Dhanbad,Jharkhand,23.7957,86.4304,34.5,18,0.0,979.3,8.8,24.5,133,216.5,43.5,0,5,7,0,2026-04-11T16:08:30.301963+05:30
Bokaro,Jharkhand,23.6693,86.1511,34.2,17,0.0,983.2,8.8,25.6,130,179.3,36.8,0,5,7,0,2026-04-11T16:08:30.301970+05:30
Bhubaneswar,Odisha,20.2961,85.8245,35.6,44,0.0,1001.3,9.0,26.3,142,61.5,43.2,0,5,7,1,2026-04-11T16:08:30.301977+05:30
Cuttack,Odisha,20.4625,85.8828,35.9,41,0.0,1003.3,9.05,20.2,142,61.5,43.2,0,5,7,1,2026-04-11T16:08:30.301984+05:30
Rourkela,Odisha,22.2604,84.8536,34.2,26,0.0,985.0,8.75,16.2,144,146.7,26.7,0,5,7,0,2026-04-11T16:08:30.301991+05:30
Raipur,Chhattisgarh,21.2514,81.6296,37.9,16,0.0,974.2,8.85,21.6,126,41.8,16.7,0,5,10,0,2026-04-11T16:08:30.301997+05:30
Bhilai,Chhattisgarh,21.1938,81.3509,37.7,18,0.0,974.4,8.85,19.8,115,37.6,15.2,0,5,10,0,2026-04-11T16:08:30.302003+05:30
Guwahati,Assam,26.1158,91.7086,27.8,58,0.0,1001.1,8.35,20.2,137,40.5,25.4,4,5,4,1,2026-04-11T16:08:30.302009+05:30
Agartala,Tripura,23.8315,91.2868,30.0,56,0.0,1005.3,8.6,21.6,171,50.4,35.9,4,5,4,1,2026-04-11T16:08:30.302015+05:30
Shillong,Meghalaya,25.5788,91.8933,16.3,62,0.0,855.4,8.75,52.2,155,50.9,32.2,3,5,7,0,2026-04-11T16:08:30.302022+05:30
Imphal,Manipur,24.817,93.9368,20.1,56,0.0,922.5,8.95,52.2,146,34.3,19.2,0,5,7,0,2026-04-11T16:08:30.302028+05:30
Aizawl,Mizoram,23.7271,92.7176,23.4,46,0.0,893.1,8.8,41.8,132,44.9,25.9,0,5,7,0,2026-04-11T16:08:30.302035+05:30
Kohima,Nagaland,25.6701,94.1077,15.9,68,0.0,853.9,7.6,65.9,138,28.3,18.5,3,5,7,0,2026-04-11T16:08:30.302042+05:30
Gangtok,Sikkim,27.3314,88.6138,14.8,76,0.0,836.2,8.55,18.4,117,29.6,26.6,3,5,7,0,2026-04-11T16:08:30.302048+05:30
Siliguri,West Bengal,26.7271,88.3953,23.2,59,0.0,993.7,8.2,18.0,142,35.5,23.7,0,5,7,0,2026-04-11T16:08:33.518822+05:30
Durgapur,West Bengal,23.5204,87.3119,32.3,30,0.0,994.7,8.75,20.9,138,244.9,50.4,0,5,7,0,2026-04-11T16:08:33.518854+05:30
Asansol,West Bengal,23.6739,86.9524,32.6,29,0.0,993.2,8.75,22.7,136,241.2,49.0,0,5,7,0,2026-04-11T16:08:33.518865+05:30
Pondicherry,Puducherry,11.9139,79.8145,35.0,52,0.0,1006.7,9.35,34.9,56,22.4,15.8,0,5,4,1,2026-04-11T16:08:33.518872+05:30
Port Blair,Andaman and Nicobar Islands,11.6234,92.7265,29.1,73,0.0,1006.5,9.25,26.3,28,8.6,5.7,7,5,4,1,2026-04-11T16:08:33.518880+05:30
Haridwar,Uttarakhand,29.9457,78.1642,31.8,28,0.0,974.9,6.95,42.1,85,61.0,17.7,0,5,7,0,2026-04-11T16:08:33.518887+05:30
Rishikesh,Uttarakhand,30.0869,78.2676,31.0,26,0.0,967.6,7.0,42.1,96,58.1,14.9,0,5,7,0,2026-04-11T16:08:33.518894+05:30
Nainital,Uttarakhand,29.3919,79.4542,22.9,39,0.0,808.3,7.7,69.8,103,37.8,12.8,0,5,7,0,2026-04-11T16:08:33.518901+05:30
Mussoorie,Uttarakhand,30.4599,78.0664,20.6,41,0.0,804.6,7.45,59.8,98,43.4,12.4,0,5,7,0,2026-04-11T16:08:33.518909+05:30
Dharamshala,Himachal Pradesh,32.219,76.3234,19.4,74,0.0,870.3,7.5,30.6,139,33.8,8.1,3,5,7,0,2026-04-11T16:08:33.518916+05:30
Dalhousie,Himachal Pradesh,32.5387,75.971,16.3,70,0.0,804.4,7.0,23.4,81,65.7,16.1,3,5,7,0,2026-04-11T16:08:33.518923+05:30
Patiala,Punjab,30.3398,76.3869,31.2,30,0.0,979.5,6.95,30.6,605,462.9,52.9,0,5,7,0,2026-04-11T16:08:33.518964+05:30
Bhatinda,Punjab,30.211,74.9455,31.8,28,0.0,984.8,7.7,30.2,104,185.8,38.9,0,5,7,0,2026-04-11T16:08:33.518973+05:30
Rohtak,Haryana,28.8955,76.6066,31.5,30,0.0,983.1,7.1,25.9,972,579.3,65.2,0,5,7,0,2026-04-11T16:08:33.518981+05:30
Panipat,Haryana,29.3909,76.9635,32.1,29,0.0,981.6,6.95,29.5,1880,1251.7,120.6,0,5,7,0,2026-04-11T16:08:33.518988+05:30
Mathura,Uttar Pradesh,27.4924,77.6737,34.5,26,0.0,987.8,7.5,27.7,1212,594.2,68.2,0,5,7,0,2026-04-11T16:08:33.518995+05:30
Vrindavan,Uttar Pradesh,27.5823,77.7027,34.3,25,0.0,988.2,7.45,32.0,1212,594.2,68.2,0,5,7,0,2026-04-11T16:08:33.519001+05:30
Ayodhya,Uttar Pradesh,26.7922,82.1998,36.0,19,0.0,994.4,7.85,43.6,145,100.6,30.6,0,5,10,0,2026-04-11T16:08:33.519008+05:30
Ratlam,Madhya Pradesh,23.3315,75.0367,34.3,25,0.0,956.2,8.35,19.8,108,20.3,8.4,0,5,7,0,2026-04-11T16:08:33.519014+05:30
Sagar,Madhya Pradesh,23.8388,78.7378,36.5,13,0.0,951.5,8.5,27.4,98,53.0,12.5,0,5,10,0,2026-04-11T16:08:33.519021+05:30
Satna,Madhya Pradesh,24.6005,80.8322,35.8,18,0.0,972.3,8.5,28.1,109,71.9,19.8,0,5,10,0,2026-04-11T16:08:33.519028+05:30
Akola,Maharashtra,20.7002,77.0082,40.0,14,0.0,974.5,8.75,29.5,132,27.4,17.2,0,5,10,0,2026-04-11T16:08:33.519035+05:30
Amravati,Maharashtra,20.9374,77.7796,38.3,19,0.0,966.9,8.75,23.4,132,24.9,14.9,0,5,10,0,2026-04-11T16:08:33.519042+05:30
Latur,Maharashtra,18.4088,76.5604,37.0,24,0.0,939.7,9.0,20.9,132,30.0,19.0,0,5,10,0,2026-04-11T16:08:33.519048+05:30
Nanded,Maharashtra,19.1383,77.3091,38.3,27,0.0,967.7,8.9,17.3,135,28.9,15.8,0,5,10,0,2026-04-11T16:08:33.519054+05:30
Gulbarga,Karnataka,17.3297,76.8343,40.1,20,0.0,957.5,9.05,19.8,120,39.2,26.8,0,5,10,0,2026-04-11T16:08:33.519060+05:30
Bidar,Karnataka,17.9104,77.5199,38.0,22,0.0,935.4,9.05,25.2,140,28.6,18.5,0,5,10,0,2026-04-11T16:08:33.519066+05:30
Hospet,Karnataka,15.2689,76.3909,37.5,30,0.0,954.5,9.3,27.7,128,42.7,30.2,0,5,10,1,2026-04-11T16:08:33.519072+05:30
Tirupur,Tamil Nadu,11.1085,77.3411,38.6,25,0.0,973.1,9.1,32.4,100,33.9,22.6,0,5,10,0,2026-04-11T16:08:33.519078+05:30
Alappuzha,Kerala,9.4981,76.3388,29.8,79,0.0,1007.1,8.65,30.6,82,36.3,20.6,7,5,4,1,2026-04-11T16:08:33.519084+05:30
Munnar,Kerala,10.0889,77.0595,28.1,64,0.0,858.2,9.6,38.5,80,27.5,18.2,7,5,7,1,2026-04-11T16:08:33.519091+05:30
Silchar,Assam,24.8333,92.7789,29.6,47,0.0,1004.3,8.6,24.5,151,50.8,32.0,4,5,4,1,2026-04-11T16:08:33.519097+05:30
Dibrugarh,Assam,27.4728,94.912,26.0,58,0.0,995.5,8.4,25.2,96,32.1,24.2,4,5,7,1,2026-04-11T16:08:33.519103+05:30
