city,state,latitude,longitude,temp,humidity,rain,pressure,uv_index,wind_gusts,aqi,pm10,pm2_5,no2,co,o3,so2,mosquito_risk,arthritis_risk,migraine_risk,frizz_risk,updated_at
Delhi,Delhi,28.6139,77.209,27.8,47,0.0,976.5,7.6,40.0,203,381.8,92.4,25.9,461.0,76.0,22.7,4,5,7,0,2026-05-03T03:14:18.749029+05:30
Mumbai,Maharashtra,19.076,72.8777,28.5,79,0.0,1006.1,7.9,39.2,72,44.5,16.8,7.2,171.0,69.0,13.6,7,5,4,1,2026-05-03T03:14:18.749073+05:30
Bangalore,Karnataka,12.9716,77.5946,22.0,93,0.0,909.6,9.1,36.4,75,22.2,16.9,11.5,249.0,60.0,6.9,3,5,7,1,2026-05-03T03:14:18.749091+05:30
Hyderabad,Telangana,17.385,78.4867,30.2,32,0.0,948.9,9.3,29.5,74,36.3,20.8,13.5,443.0,88.0,8.6,0,5,7,0,2026-05-03T03:14:18.749101+05:30
Chennai,Tamil Nadu,13.0827,80.2707,29.5,75,0.0,1003.8,9.25,55.8,53,15.1,12.2,11.3,256.0,65.0,10.9,7,5,4,1,2026-05-03T03:14:18.749111+05:30
Kolkata,West Bengal,22.5726,88.3639,24.3,96,0.0,1002.1,8.95,34.2,65,19.6,16.6,10.4,252.0,61.0,5.6,3,5,4,1,2026-05-03T03:14:18.749125+05:30
Pune,Maharashtra,18.5204,73.8567,22.2,89,0.0,945.6,8.5,47.2,61,35.2,15.7,10.4,189.0,49.0,10.3,3,5,7,1,2026-05-03T03:14:18.749133+05:30
Ahmedabad,Gujarat,23.0225,72.5714,29.0,45,0.0,996.9,8.15,45.0,65,36.2,16.1,4.1,181.0,75.0,5.3,4,5,7,0,2026-05-03T03:14:18.749145+05:30
Jaipur,Rajasthan,26.9124,75.7873,30.0,30,0.0,953.1,8.15,39.2,117,212.3,45.4,15.5,224.0,57.0,5.6,4,5,7,0,2026-05-03T03:14:18.749154+05:30
Lucknow,Uttar Pradesh,26.8467,80.9462,25.2,63,0.0,989.2,8.1,43.6,94,59.0,33.9,9.0,356.0,105.0,8.9,7,5,7,1,2026-05-03T03:14:18.749162+05:30
Kanpur,Uttar Pradesh,26.4499,80.3319,25.9,66,0.0,986.6,7.9,41.0,152,319.4,55.8,6.9,343.0,107.0,8.3,7,5,7,1,2026-05-03T03:14:18.749170+05:30
Chandigarh,Chandigarh,30.7333,76.7794,24.1,49,0.0,962.6,6.7,52.9,88,34.2,28.3,29.5,322.0,36.0,7.7,0,5,7,0,2026-05-03T03:14:18.749178+05:30
Srinagar,Jammu and Kashmir,34.0837,74.7973,9.6,94,0.0,836.4,8.75,49.7,72,47.3,42.5,28.7,641.0,23.0,2.3,3,10,7,0,2026-05-03T03:14:18.749187+05:30
Jammu,Jammu and Kashmir,32.7266,74.857,20.2,59,0.0,965.1,8.35,35.3,60,19.6,18.0,17.0,231.0,41.0,2.1,0,5,7,0,2026-05-03T03:14:18.749216+05:30
Amritsar,Punjab,31.634,74.8723,25.8,44,0.0,973.6,8.25,57.6,102,32.1,26.3,10.4,506.0,88.0,6.6,4,5,7,0,2026-05-03T03:14:18.749224+05:30
Ludhiana,Punjab,30.901,75.8573,25.1,53,0.0,971.7,7.75,52.2,125,38.3,34.6,17.9,615.0,56.0,7.7,4,5,7,0,2026-05-03T03:14:18.749231+05:30
Jalandhar,Punjab,31.326,75.5762,24.1,51,0.0,972.5,7.95,53.6,102,30.9,25.6,11.9,472.0,72.0,6.6,0,5,7,0,2026-05-03T03:14:18.749242+05:30
Dehradun,Uttarakhand,30.6284,78.0322,10.3,97,0.0,822.9,7.2,36.4,64,15.5,14.6,21.9,269.0,35.0,0.3,3,10,7,0,2026-05-03T03:14:18.749255+05:30
Shimla,Himachal Pradesh,31.1048,77.1734,8.0,76,0.0,775.6,6.15,44.6,66,22.8,19.3,20.4,244.0,59.0,3.0,3,5,7,0,2026-05-03T03:14:18.749262+05:30
Manali,Himachal Pradesh,32.2396,77.1887,6.8,76,0.0,809.5,9.4,41.4,64,6.0,4.8,17.3,207.0,127.0,0.1,3,5,7,0,2026-05-03T03:14:18.749269+05:30
Gurgaon,Haryana,28.4595,77.0266,26.8,50,0.0,974.6,7.7,46.1,744,663.1,122.9,22.0,430.0,76.0,17.9,4,5,7,0,2026-05-03T03:14:18.749277+05:30
Noida,Uttar Pradesh,28.5355,77.391,25.5,56,0.0,978.1,7.6,34.6,744,663.1,122.9,22.0,441.0,76.0,17.9,4,5,7,0,2026-05-03T03:14:18.749283+05:30
Ghaziabad,Uttar Pradesh,28.6692,77.4538,26.0,53,0.0,976.4,7.6,41.8,161,216.1,61.7,10.6,416.0,92.0,12.2,4,5,7,0,2026-05-03T03:14:18.749291+05:30
Faridabad,Haryana,28.4089,77.3178,27.0,50,0.0,977.3,7.65,41.8,744,663.1,122.9,22.0,441.0,76.0,17.9,4,5,7,0,2026-05-03T03:14:18.749298+05:30
Meerut,Uttar Pradesh,28.9845,77.7064,24.6,60,0.0,975.6,7.5,45.4,161,216.1,61.7,10.6,445.0,92.0,12.2,0,5,7,1,2026-05-03T03:14:18.749304+05:30
Agra,Uttar Pradesh,27.1767,78.0081,27.1,48,0.0,981.7,7.8,45.0,625,564.4,86.6,10.4,368.0,90.0,11.9,4,5,7,0,2026-05-03T03:14:18.749311+05:30
Varanasi,Uttar Pradesh,25.3176,82.9739,26.0,70,0.0,993.3,8.55,33.1,112,58.7,43.8,11.0,418.0,114.0,17.6,7,5,7,1,2026-05-03T03:14:18.749318+05:30
Prayagraj,Uttar Pradesh,25.4358,81.8463,25.9,69,0.0,991.1,8.5,29.2,110,57.4,41.9,11.2,377.0,113.0,14.8,7,5,7,1,2026-05-03T03:14:18.749328+05:30
Gorakhpur,Uttar Pradesh,26.7606,83.3732,21.1,86,0.0,994.5,8.45,45.4,86,41.1,26.7,5.2,319.0,121.0,3.1,3,5,7,1,2026-05-03T03:14:18.749334+05:30
Bareilly,Uttar Pradesh,28.367,79.4304,24.0,70,0.0,982.2,7.9,43.2,124,93.1,39.2,6.5,348.0,114.0,5.8,3,5,7,1,2026-05-03T03:14:18.749341+05:30
Aligarh,Uttar Pradesh,27.8974,78.088,26.8,50,0.0,979.3,7.75,49.0,406,590.5,94.1,8.2,388.0,92.0,11.3,4,5,7,0,2026-05-03T03:14:18.749348+05:30
Moradabad,Uttar Pradesh,28.8386,78.7733,24.0,70,0.0,978.8,7.6,47.5,127,74.7,41.3,8.3,342.0,106.0,7.7,3,5,7,1,2026-05-03T03:14:18.749355+05:30
Saharanpur,Uttar Pradesh,29.9637,77.546,22.5,70,0.0,969.9,6.6,50.4,133,73.1,46.2,12.8,367.0,85.0,8.9,3,5,7,1,2026-05-03T03:14:18.749361+05:30
Jhansi,Uttar Pradesh,25.4484,78.5685,26.2,54,0.0,972.0,8.4,56.5,80,105.7,36.8,4.6,297.0,87.0,6.4,4,5,7,1,2026-05-03T03:14:22.096031+05:30
Surat,Gujarat,21.1702,72.8311,28.2,84,0.0,1003.0,7.7,54.7,65,31.4,17.7,16.9,238.0,57.0,28.9,7,5,4,1,2026-05-03T03:14:22.096063+05:30
Vadodara,Gujarat,22.3072,73.1812,27.8,84,0.0,999.7,8.05,49.7,58,21.6,13.4,10.7,212.0,54.0,13.3,7,5,7,1,2026-05-03T03:14:22.096075+05:30
Rajkot,Gujarat,22.3039,70.8022,26.5,71,0.0,989.4,7.7,50.8,58,32.6,13.6,3.5,156.0,65.0,3.9,7,5,7,1,2026-05-03T03:14:22.096084+05:30
Thane,Maharashtra,19.2183,72.9781,28.1,81,0.0,1005.4,7.9,39.2,72,44.5,16.8,7.2,211.0,69.0,13.6,7,5,4,1,2026-05-03T03:14:22.096093+05:30
Nagpur,Maharashtra,21.1458,79.0882,28.9,48,0.0,968.9,8.9,43.6,76,71.2,42.0,25.7,414.0,33.0,11.2,4,5,7,1,2026-05-03T03:14:22.096102+05:30
Nashik,Maharashtra,19.9975,73.7898,22.8,93,0.0,942.7,8.2,48.6,64,35.2,18.0,13.3,199.0,48.0,14.4,3,5,7,1,2026-05-03T03:14:22.096110+05:30
Aurangabad,Maharashtra,19.8762,75.3433,25.4,62,0.0,941.1,9.05,47.9,59,29.7,14.9,10.3,182.0,66.0,14.5,7,5,7,1,2026-05-03T03:14:22.096119+05:30
Solapur,Maharashtra,17.6599,75.9064,28.0,51,0.0,954.1,9.1,38.5,56,22.8,12.7,6.3,188.0,69.0,4.8,4,5,7,1,2026-05-03T03:14:22.096127+05:30
Kolhapur,Maharashtra,16.705,74.2433,22.4,96,0.0,945.5,8.95,47.9,66,42.0,17.2,6.8,161.0,50.0,1.7,3,5,7,1,2026-05-03T03:14:22.096135+05:30
Goa,Goa,15.2993,74.124,26.9,89,0.0,996.0,8.9,37.4,72,79.9,25.9,7.9,269.0,56.0,2.1,7,5,7,1,2026-05-03T03:14:22.096143+05:30
Jodhpur,Rajasthan,26.2389,73.0243,29.9,31,0.0,975.0,8.3,54.4,124,158.3,29.1,3.4,152.0,81.0,3.2,4,5,7,0,2026-05-03T03:14:22.096151+05:30
Udaipur,Rajasthan,24.5854,73.7125,25.9,58,0.0,940.5,8.8,37.1,67,39.5,18.2,3.1,168.0,76.0,3.5,4,5,7,1,2026-05-03T03:14:22.096159+05:30
Kota,Rajasthan,25.2138,75.8648,30.8,34,0.0,972.0,8.35,35.3,68,69.2,24.7,3.2,206.0,104.0,7.6,0,5,7,0,2026-05-03T03:14:22.096167+05:30
Bikaner,Rajasthan,28.0229,73.3119,30.2,32,0.0,972.9,8.25,47.9,75,123.4,32.0,2.6,185.0,81.0,4.0,0,5,7,0,2026-05-03T03:14:22.096174+05:30
Ajmer,Rajasthan,26.4499,74.6399,28.0,38,0.0,947.8,8.3,41.0,69,55.1,19.2,3.3,252.0,85.0,3.6,4,5,7,0,2026-05-03T03:14:22.096182+05:30
Gwalior,Madhya Pradesh,26.2183,78.1828,27.1,50,0.0,977.0,8.2,43.6,95,194.2,48.2,4.5,325.0,99.0,6.5,4,5,7,0,2026-05-03T03:14:22.096190+05:30
Indore,Madhya Pradesh,22.7196,75.8577,27.0,60,0.0,943.8,8.7,44.6,61,24.1,14.0,4.1,168.0,84.0,11.1,4,5,7,1,2026-05-03T03:14:22.096220+05:30
Bhopal,Madhya Pradesh,23.2599,77.4126,26.8,49,0.0,948.6,8.7,33.8,67,43.1,22.5,5.3,188.0,64.0,4.3,4,5,7,0,2026-05-03T03:14:22.096228+05:30
Jabalpur,Madhya Pradesh,23.1815,79.9864,23.6,77,0.0,956.6,8.85,29.5,71,60.3,26.7,13.0,234.0,55.0,3.8,3,5,7,1,2026-05-03T03:14:22.096236+05:30
Ujjain,Madhya Pradesh,23.1765,75.7885,26.8,64,0.0,949.1,8.6,41.8,59,22.7,12.9,4.2,167.0,77.0,11.0,7,5,7,1,2026-05-03T03:14:22.096244+05:30
Visakhapatnam,Andhra Pradesh,17.6868,83.2185,28.0,95,0.0,1000.2,9.1,54.0,58,21.0,15.8,15.6,266.0,57.0,3.0,7,5,4,1,2026-05-03T03:14:22.096252+05:30
Vijayawada,Andhra Pradesh,16.5062,80.648,28.8,88,0.0,998.3,8.85,39.6,74,16.8,13.8,4.0,189.0,97.0,5.0,7,5,7,1,2026-05-03T03:14:22.096260+05:30
Guntur,Andhra Pradesh,16.3067,80.4365,29.1,85,0.0,999.3,9.2,34.9,67,16.6,14.3,5.2,190.0,97.0,6.3,7,5,7,1,2026-05-03T03:14:22.096267+05:30
Nellore,Andhra Pradesh,14.4426,79.9865,29.5,71,0.0,1001.4,9.25,47.2,69,24.3,22.9,8.8,254.0,105.0,11.6,7,5,4,1,2026-05-03T03:14:22.096276+05:30
Kurnool,Andhra Pradesh,15.8281,78.0373,29.5,57,0.0,973.6,9.2,35.6,61,26.2,16.9,11.1,187.0,55.0,4.1,4,5,7,1,2026-05-03T03:14:22.096284+05:30
Kakinada,Andhra Pradesh,16.9891,82.2475,28.3,95,0.0,1004.0,9.0,36.0,51,18.2,12.0,2.1,181.0,69.0,1.1,7,5,4,1,2026-05-03T03:14:22.096291+05:30
Tirupati,Andhra Pradesh,13.6288,79.4192,28.2,67,0.0,987.6,9.3,39.6,80,29.0,27.1,9.7,323.0,101.0,12.7,7,5,7,1,2026-05-03T03:14:22.096299+05:30
Warangal,Telangana,17.9689,79.5941,28.2,68,0.0,974.1,9.2,41.8,84,32.6,26.6,10.9,325.0,85.0,10.9,7,5,7,1,2026-05-03T03:14:22.096306+05:30
Nizamabad,Telangana,18.6725,78.0941,29.4,27,0.0,960.7,9.15,30.6,72,64.0,34.6,21.5,356.0,42.0,4.7,4,5,7,0,2026-05-03T03:14:22.096314+05:30
Mysore,Karnataka,12.2958,76.6396,22.5,94,0.0,926.4,8.9,41.8,68,24.8,19.6,9.0,168.0,55.0,1.8,3,5,7,1,2026-05-03T03:14:22.096321+05:30
Mangalore,Karnataka,12.9141,74.856,27.5,87,0.0,1005.4,9.0,42.8,62,45.4,22.6,12.2,285.0,40.0,3.0,7,5,4,1,2026-05-03T03:14:22.096329+05:30
Hubli-Dharwad,Karnataka,15.3647,75.124,22.2,98,0.0,938.7,9.15,47.5,61,43.2,15.1,4.9,173.0,53.0,1.4,3,5,7,1,2026-05-03T03:14:22.096336+05:30
Belgaum,Karnataka,15.8497,74.4977,21.1,95,0.0,922.9,9.15,45.7,63,45.4,19.0,8.8,152.0,40.0,0.5,3,5,7,1,2026-05-03T03:14:25.450225+05:30
Coimbatore,Tamil Nadu,11.0168,76.9558,25.1,91,0.0,959.6,9.25,52.6,66,25.7,20.3,5.7,211.0,70.0,2.4,7,5,7,1,2026-05-03T03:14:25.450257+05:30
Madurai,Tamil Nadu,9.9252,78.1198,27.9,73,0.0,990.4,9.2,37.8,72,35.3,32.5,32.4,298.0,22.0,7.4,7,5,7,1,2026-05-03T03:14:25.450269+05:30
Trichy,Tamil Nadu,10.7905,78.7047,28.8,63,0.0,997.0,9.2,45.0,67,30.0,27.1,15.5,391.0,70.0,6.2,7,5,7,1,2026-05-03T03:14:25.450277+05:30
Salem,Tamil Nadu,11.6643,78.146,27.9,70,0.0,975.2,9.1,43.2,83,32.0,28.2,17.5,255.0,72.0,6.1,7,5,7,1,2026-05-03T03:14:25.450286+05:30
Tirunelveli,Tamil Nadu,8.7139,77.7567,28.5,68,0.0,1000.8,9.15,37.1,61,21.6,19.6,8.6,298.0,46.0,1.5,7,5,4,1,2026-05-03T03:14:25.450294+05:30
Vellore,Tamil Nadu,12.9165,79.1325,29.0,55,0.0,981.3,8.55,42.1,83,30.5,27.3,7.8,286.0,98.0,6.1,4,5,7,1,2026-05-03T03:14:25.450302+05:30
Erode,Tamil Nadu,11.341,77.7172,26.9,82,0.0,986.8,8.95,49.0,71,24.4,21.0,17.7,229.0,47.0,3.7,7,5,7,1,2026-05-03T03:14:25.450310+05:30
Kochi,Kerala,9.9312,76.2673,26.3,95,0.0,1007.0,9.0,34.9,73,39.3,37.3,33.1,414.0,10.0,6.1,7,5,4,1,2026-05-03T03:14:25.450317+05:30
Thiruvananthapuram,Kerala,8.5241,76.9366,25.0,92,0.0,1006.4,8.95,37.4,53,19.4,14.1,5.2,334.0,72.0,2.9,7,5,4,1,2026-05-03T03:14:25.450324+05:30
Kozhikode,Kerala,11.2588,75.7804,25.6,97,0.0,1006.1,8.7,41.0,56,32.4,18.3,2.8,894.0,70.0,1.1,7,5,4,1,2026-05-03T03:14:25.450331+05:30
Thrissur,Kerala,10.5276,76.2144,25.6,93,0.0,1005.4,8.8,35.3,68,42.3,36.7,27.5,361.0,19.0,4.3,7,5,4,1,2026-05-03T03:14:25.450340+05:30
Kannur,Kerala,11.8745,75.3704,26.8,89,0.0,1005.3,9.0,44.3,67,29.2,16.9,12.9,374.0,35.0,1.9,7,5,4,1,2026-05-03T03:14:25.450347+05:30
Patna,Bihar,25.5941,85.1376,22.8,81,0.0,997.2,8.7,36.7,115,51.9,44.8,10.0,336.0,107.0,12.4,3,5,7,1,2026-05-03T03:14:25.450355+05:30
Gaya,Bihar,24.7914,85.0002,23.8,78,0.0,989.6,8.8,31.0,114,60.3,53.2,9.2,375.0,133.0,23.8,3,5,7,1,2026-05-03T03:14:25.450362+05:30
Muzaffarpur,Bihar,26.1209,85.3647,22.2,85,0.0,997.5,8.7,41.4,106,36.6,31.4,9.1,341.0,104.0,9.3,3,5,7,1,2026-05-03T03:14:25.450372+05:30
Bhagalpur,Bihar,25.2425,87.0117,22.1,93,0.0,998.8,7.85,34.6,119,57.4,49.8,11.3,473.0,85.0,6.5,3,5,7,1,2026-05-03T03:14:25.450380+05:30
Ranchi,Jharkhand,23.3441,85.3096,23.0,61,0.0,932.7,9.25,39.6,107,77.1,54.0,13.7,265.0,101.0,30.0,3,5,7,0,2026-05-03T03:14:25.450387+05:30
Jamshedpur,Jharkhand,22.8046,86.2029,23.9,88,0.0,986.0,9.05,36.7,129,56.3,43.3,16.9,388.0,78.0,11.8,3,5,7,1,2026-05-03T03:14:25.450394+05:30
Dhanbad,Jharkhand,23.7957,86.4304,22.8,98,0.0,976.0,9.0,26.6,158,73.6,68.5,46.9,452.0,54.0,66.2,3,5,7,1,2026-05-03T03:14:25.450401+05:30
Bokaro,Jharkhand,23.6693,86.1511,22.6,96,0.0,979.6,9.0,26.6,156,100.4,92.9,51.0,439.0,52.0,84.0,3,5,7,1,2026-05-03T03:14:25.450408+05:30
Bhubaneswar,Odisha,20.2961,85.8245,27.9,90,0.0,999.0,9.1,46.1,54,16.5,13.6,5.7,183.0,68.0,4.4,7,5,7,1,2026-05-03T03:14:25.450415+05:30
Cuttack,Odisha,20.4625,85.8828,27.5,94,0.2,1000.6,9.15,39.2,54,16.5,13.6,5.7,218.0,68.0,4.4,10,5,4,1,2026-05-03T03:14:25.450422+05:30
Rourkela,Odisha,22.2604,84.8536,25.6,72,0.0,979.9,9.0,29.9,111,73.6,49.1,25.2,347.0,53.0,33.1,7,5,7,1,2026-05-03T03:14:25.450429+05:30
Raipur,Chhattisgarh,21.2514,81.6296,29.8,42,0.0,970.2,8.6,36.7,98,98.7,55.8,52.4,396.0,35.0,9.8,4,5,7,0,2026-05-03T03:14:25.450436+05:30
Bhilai,Chhattisgarh,21.1938,81.3509,28.5,48,0.0,970.4,9.0,39.2,100,108.0,59.8,49.0,654.0,35.0,8.9,4,5,7,1,2026-05-03T03:14:25.450442+05:30
Guwahati,Assam,26.1158,91.7086,20.2,98,0.0,1000.0,7.1,27.0,70,28.9,26.7,14.0,306.0,48.0,3.9,3,5,4,1,2026-05-03T03:14:25.450450+05:30
Agartala,Tripura,23.8315,91.2868,20.8,98,0.1,1003.9,8.8,44.3,40,5.6,4.8,11.7,196.0,53.0,1.4,6,5,4,1,2026-05-03T03:14:25.450457+05:30
Shillong,Meghalaya,25.5788,91.8933,14.7,94,0.1,852.4,8.9,29.2,40,3.3,1.7,5.7,227.0,73.0,0.7,6,10,7,0,2026-05-03T03:14:25.450464+05:30
Imphal,Manipur,24.817,93.9368,16.8,96,0.0,920.0,8.8,32.4,52,25.6,21.0,13.7,333.0,45.0,2.5,3,10,7,1,2026-05-03T03:14:25.450472+05:30
Aizawl,Mizoram,23.7271,92.7176,13.8,99,0.0,887.7,8.55,46.1,28,11.1,4.9,2.3,176.0,73.0,0.5,3,10,7,0,2026-05-03T03:14:25.450479+05:30
Kohima,Nagaland,25.6701,94.1077,14.7,91,0.1,851.2,8.55,24.5,34,11.7,7.0,5.6,253.0,57.0,0.6,6,10,7,0,2026-05-03T03:14:25.450487+05:30
Gangtok,Sikkim,27.3314,88.6138,11.7,94,0.0,832.6,8.75,39.2,53,19.8,19.0,20.3,468.0,58.0,1.6,3,10,7,0,2026-05-03T03:14:25.450493+05:30
Siliguri,West Bengal,26.7271,88.3953,20.0,90,0.0,991.4,6.1,23.8,62,27.1,25.9,15.9,378.0,88.0,4.5,3,5,7,1,2026-05-03T03:14:28.812367+05:30
Durgapur,West Bengal,23.5204,87.3119,22.9,97,0.0,991.1,8.95,30.2,151,49.1,45.2,31.1,436.0,48.0,30.9,3,5,7,1,2026-05-03T03:14:28.812401+05:30
Asansol,West Bengal,23.6739,86.9524,22.8,98,0.0,989.8,9.0,29.2,153,56.2,51.3,33.5,441.0,56.0,47.3,3,5,7,1,2026-05-03T03:14:28.812411+05:30
Pondicherry,Puducherry,11.9139,79.8145,28.5,85,0.0,1005.2,8.45,50.4,51,16.3,13.9,9.1,256.0,79.0,8.7,7,5,4,1,2026-05-03T03:14:28.812420+05:30
Port Blair,Andaman and Nicobar Islands,11.6234,92.7265,27.1,81,0.0,1006.1,9.05,28.4,37,10.5,7.5,0.3,153.0,57.0,0.3,7,5,4,1,2026-05-03T03:14:28.812429+05:30
Haridwar,Uttarakhand,29.9457,78.1642,20.2,79,0.0,968.5,6.85,40.7,110,50.6,37.1,13.6,293.0,67.0,4.5,3,5,7,1,2026-05-03T03:14:28.812438+05:30
Rishikesh,Uttarakhand,30.0869,78.2676,17.9,86,0.0,961.1,7.3,29.5,102,49.7,35.5,8.3,326.0,83.0,2.7,3,10,7,0,2026-05-03T03:14:28.812447+05:30
Nainital,Uttarakhand,29.3919,79.4542,11.5,80,0.0,799.9,8.35,41.0,95,60.1,33.3,10.6,275.0,88.0,3.7,3,5,7,0,2026-05-03T03:14:28.812456+05:30
Mussoorie,Uttarakhand,30.4599,78.0664,12.7,72,0.0,797.4,6.95,43.9,103,42.5,32.8,33.7,278.0,26.0,5.9,3,5,7,0,2026-05-03T03:14:28.812464+05:30
Dharamshala,Himachal Pradesh,32.219,76.3234,20.1,37,0.0,863.4,8.15,59.0,42,8.8,7.5,9.0,197.0,52.0,0.1,0,5,7,0,2026-05-03T03:14:28.812473+05:30
Dalhousie,Himachal Pradesh,32.5387,75.971,8.8,69,0.0,795.0,8.5,46.4,56,20.1,18.6,37.2,281.0,12.0,0.8,3,5,7,0,2026-05-03T03:14:28.812481+05:30
Patiala,Punjab,30.3398,76.3869,24.3,60,0.0,971.7,7.35,54.0,222,73.1,54.2,23.5,456.0,61.0,18.4,0,5,7,0,2026-05-03T03:14:28.812489+05:30
Bhatinda,Punjab,30.211,74.9455,27.1,45,0.0,975.5,8.15,52.2,127,127.1,33.6,5.1,357.0,111.0,4.4,4,5,7,0,2026-05-03T03:14:28.812496+05:30
Rohtak,Haryana,28.8955,76.6066,26.4,51,0.0,974.6,7.65,51.1,358,470.3,107.6,25.4,636.0,71.0,24.2,4,5,7,0,2026-05-03T03:14:28.812503+05:30
Panipat,Haryana,29.3909,76.9635,24.7,57,0.0,973.8,7.45,48.2,458,482.4,107.6,26.4,459.0,56.0,18.9,0,5,7,0,2026-05-03T03:14:28.812511+05:30
Mathura,Uttar Pradesh,27.4924,77.6737,25.5,53,0.0,980.6,7.85,40.0,619,953.7,119.2,8.4,345.0,90.0,9.8,4,5,7,0,2026-05-03T03:14:28.812519+05:30
Vrindavan,Uttar Pradesh,27.5823,77.7027,26.0,52,0.0,981.0,7.85,37.8,619,953.7,119.2,8.4,354.0,90.0,9.8,4,5,7,0,2026-05-03T03:14:28.812526+05:30
Ayodhya,Uttar Pradesh,26.7922,82.1998,23.6,75,0.0,991.7,8.25,36.4,87,45.2,30.0,5.1,356.0,128.0,4.5,3,5,7,1,2026-05-03T03:14:28.812534+05:30
Ratlam,Madhya Pradesh,23.3315,75.0367,25.5,75,0.0,950.2,8.5,46.1,57,23.9,12.4,5.2,165.0,68.0,11.9,7,5,7,1,2026-05-03T03:14:28.812542+05:30
Sagar,Madhya Pradesh,23.8388,78.7378,24.1,61,0.0,944.7,8.7,36.7,63,49.9,20.5,5.3,173.0,73.0,3.0,3,5,7,0,2026-05-03T03:14:28.812549+05:30
Satna,Madhya Pradesh,24.6005,80.8322,23.5,66,0.0,966.0,8.75,43.6,66,47.0,25.5,35.3,308.0,22.0,4.9,3,5,7,1,2026-05-03T03:14:28.812556+05:30
Akola,Maharashtra,20.7002,77.0082,30.2,38,0.0,970.9,8.9,44.3,59,32.6,15.4,5.9,184.0,77.0,16.4,0,5,7,0,2026-05-03T03:14:28.812564+05:30
Amravati,Maharashtra,20.9374,77.7796,27.3,54,0.0,962.8,8.9,41.4,59,35.2,15.7,6.3,292.0,82.0,18.2,4,5,7,1,2026-05-03T03:14:28.812573+05:30
Latur,Maharashtra,18.4088,76.5604,28.3,43,0.0,936.4,9.1,37.8,59,27.4,16.9,6.3,182.0,88.0,7.3,4,5,7,0,2026-05-03T03:14:28.812581+05:30
Nanded,Maharashtra,19.1383,77.3091,29.2,30,0.0,964.4,9.0,28.1,62,24.4,15.8,10.1,249.0,55.0,5.1,4,5,7,0,2026-05-03T03:14:28.812589+05:30
Gulbarga,Karnataka,17.3297,76.8343,29.5,41,0.0,955.1,9.1,46.4,60,21.2,13.6,5.4,195.0,77.0,4.5,4,5,7,0,2026-05-03T03:14:28.812596+05:30
Bidar,Karnataka,17.9104,77.5199,28.8,29,0.0,931.6,9.15,37.8,71,50.1,30.9,27.7,246.0,44.0,5.4,4,5,7,0,2026-05-03T03:14:28.812604+05:30
Hospet,Karnataka,15.2689,76.3909,24.5,85,0.0,953.9,9.2,49.0,59,32.5,14.1,5.8,172.0,53.0,1.8,3,5,7,1,2026-05-03T03:14:28.812612+05:30
Tirupur,Tamil Nadu,11.1085,77.3411,25.6,90,0.0,972.9,9.35,53.3,73,31.9,26.9,20.4,207.0,48.0,4.9,7,5,7,1,2026-05-03T03:14:28.812619+05:30
Alappuzha,Kerala,9.4981,76.3388,26.0,97,0.0,1007.1,9.0,34.2,72,33.8,26.2,17.3,271.0,48.0,4.2,7,5,4,1,2026-05-03T03:14:28.812628+05:30
Munnar,Kerala,10.0889,77.0595,17.0,86,0.0,854.4,9.35,25.6,56,16.2,15.1,10.5,200.0,30.0,0.8,3,10,7,0,2026-05-03T03:14:28.812635+05:30
Silchar,Assam,24.8333,92.7789,20.5,96,0.0,1002.6,8.7,26.3,51,18.9,13.1,7.0,226.0,72.0,3.4,3,5,4,1,2026-05-03T03:14:28.812643+05:30
Dibrugarh,Assam,27.4728,94.912,20.6,95,0.3,994.2,7.8,22.7,58,19.6,17.1,14.0,362.0,42.0,1.5,6,5,7,1,2026-05-03T03:14:28.812651+05:30
