city,state,latitude,longitude,temp,humidity,rain,pressure,uv_index,wind_gusts,aqi,pm10,pm2_5,mosquito_risk,arthritis_risk,migraine_risk,frizz_risk,updated_at
Delhi,Delhi,28.6139,77.209,26.4,37,0.0,983.9,6.9,29.2,197,217.0,49.0,4,5,7,0,2026-04-06T20:22:20.349017+05:30
Mumbai,Maharashtra,19.076,72.8777,27.8,71,0.0,1010.7,7.95,24.1,106,29.3,15.3,7,0,4,1,2026-04-06T20:22:20.349061+05:30
Bangalore,Karnataka,12.9716,77.5946,28.7,39,0.0,912.5,9.65,33.1,105,30.6,28.4,4,5,7,0,2026-04-06T20:22:20.349077+05:30
Hyderabad,Telangana,17.385,78.4867,31.9,30,0.0,953.2,9.2,31.3,109,23.2,19.1,0,5,7,0,2026-04-06T20:22:20.349087+05:30
Chennai,Tamil Nadu,13.0827,80.2707,28.6,85,0.0,1007.7,8.7,29.2,109,23.1,18.0,7,5,4,1,2026-04-06T20:22:20.349097+05:30
Kolkata,West Bengal,22.5726,88.3639,26.8,82,0.0,1007.6,8.7,28.1,178,62.4,57.6,7,5,4,1,2026-04-06T20:22:20.349106+05:30
Pune,Maharashtra,18.5204,73.8567,24.3,72,0.0,950.1,8.55,34.6,154,28.5,24.1,3,5,7,1,2026-04-06T20:22:20.349117+05:30
Ahmedabad,Gujarat,23.0225,72.5714,31.2,32,0.0,1001.9,7.95,30.2,96,23.5,13.1,0,5,4,0,2026-04-06T20:22:20.349124+05:30
Jaipur,Rajasthan,26.9124,75.7873,24.3,49,0.0,960.3,7.55,33.1,112,124.3,29.1,0,5,7,0,2026-04-06T20:22:20.349133+05:30
Lucknow,Uttar Pradesh,26.8467,80.9462,27.1,37,0.0,994.7,7.45,35.3,118,146.2,36.0,4,5,7,0,2026-04-06T20:22:20.349140+05:30
Kanpur,Uttar Pradesh,26.4499,80.3319,25.6,51,0.0,993.1,7.45,29.5,126,264.5,47.6,4,5,7,0,2026-04-06T20:22:20.349147+05:30
Chandigarh,Chandigarh,30.7333,76.7794,25.9,40,0.0,968.8,6.9,16.6,113,27.0,19.2,4,5,7,0,2026-04-06T20:22:20.349155+05:30
Srinagar,Jammu and Kashmir,34.0837,74.7973,11.8,79,0.0,838.2,7.9,16.6,94,23.2,19.8,3,5,7,0,2026-04-06T20:22:20.349164+05:30
Jammu,Jammu and Kashmir,32.7266,74.857,25.4,46,0.0,972.8,7.55,19.8,99,39.0,29.2,4,5,7,0,2026-04-06T20:22:20.349171+05:30
Amritsar,Punjab,31.634,74.8723,24.0,48,0.0,980.6,7.5,11.2,122,41.8,36.1,0,5,7,0,2026-04-06T20:22:20.349178+05:30
Ludhiana,Punjab,30.901,75.8573,25.9,35,0.0,978.8,7.1,16.6,104,44.2,35.3,4,5,7,0,2026-04-06T20:22:20.349185+05:30
Jalandhar,Punjab,31.326,75.5762,25.6,42,0.0,979.7,7.25,13.0,101,45.8,32.9,4,5,7,0,2026-04-06T20:22:20.349193+05:30
Dehradun,Uttarakhand,30.6284,78.0322,12.8,70,0.0,829.2,6.65,25.6,108,20.1,11.1,3,5,7,0,2026-04-06T20:22:20.349200+05:30
Shimla,Himachal Pradesh,31.1048,77.1734,11.9,68,0.0,783.1,6.25,27.7,99,20.3,17.1,3,5,7,0,2026-04-06T20:22:20.349206+05:30
Manali,Himachal Pradesh,32.2396,77.1887,12.0,89,0.0,817.6,9.45,28.1,135,13.4,9.3,3,10,7,0,2026-04-06T20:22:20.349214+05:30
Gurgaon,Haryana,28.4595,77.0266,25.1,45,0.0,982.3,7.0,25.9,629,388.4,67.3,4,5,7,0,2026-04-06T20:22:20.349221+05:30
Noida,Uttar Pradesh,28.5355,77.391,26.7,36,0.0,985.4,6.95,29.9,629,388.4,67.3,4,5,7,0,2026-04-06T20:22:20.349228+05:30
Ghaziabad,Uttar Pradesh,28.6692,77.4538,27.3,38,0.0,983.6,6.9,26.3,141,239.3,54.5,4,5,7,0,2026-04-06T20:22:20.349234+05:30
Faridabad,Haryana,28.4089,77.3178,25.5,41,0.0,984.8,6.95,27.4,629,388.4,67.3,4,5,7,0,2026-04-06T20:22:20.349241+05:30
Meerut,Uttar Pradesh,28.9845,77.7064,24.3,48,0.0,982.2,6.8,25.2,141,239.3,54.5,0,5,7,0,2026-04-06T20:22:20.349248+05:30
Agra,Uttar Pradesh,27.1767,78.0081,25.6,52,0.0,989.1,7.3,36.4,274,733.9,86.4,4,5,7,0,2026-04-06T20:22:20.349254+05:30
Varanasi,Uttar Pradesh,25.3176,82.9739,26.1,44,0.0,998.6,7.6,29.9,115,47.7,27.8,4,5,7,0,2026-04-06T20:22:20.349263+05:30
Prayagraj,Uttar Pradesh,25.4358,81.8463,27.2,44,0.0,997.3,7.75,28.1,136,62.9,28.6,4,5,7,0,2026-04-06T20:22:20.349270+05:30
Gorakhpur,Uttar Pradesh,26.7606,83.3732,26.9,37,0.0,997.8,7.8,27.4,119,39.5,22.0,4,5,7,0,2026-04-06T20:22:20.349276+05:30
Bareilly,Uttar Pradesh,28.367,79.4304,24.5,49,0.0,987.9,7.2,32.4,125,55.9,25.0,0,5,7,0,2026-04-06T20:22:20.349283+05:30
Aligarh,Uttar Pradesh,27.8974,78.088,24.5,47,0.0,986.7,7.1,24.1,319,491.7,73.3,0,5,7,0,2026-04-06T20:22:20.349292+05:30
Moradabad,Uttar Pradesh,28.8386,78.7733,23.7,52,0.0,984.6,7.0,30.6,125,64.5,36.4,0,5,7,0,2026-04-06T20:22:20.349298+05:30
Saharanpur,Uttar Pradesh,29.9637,77.546,25.8,42,0.0,976.1,6.6,23.4,113,98.7,35.4,4,5,7,0,2026-04-06T20:22:20.349304+05:30
Jhansi,Uttar Pradesh,25.4484,78.5685,23.9,59,0.0,979.4,7.85,21.6,120,56.8,20.6,0,5,7,0,2026-04-06T20:22:23.630966+05:30
Surat,Gujarat,21.1702,72.8311,26.7,77,0.0,1008.4,7.7,31.7,74,32.9,21.1,7,0,4,1,2026-04-06T20:22:23.630995+05:30
Vadodara,Gujarat,22.3072,73.1812,28.4,54,0.0,1004.9,7.95,34.9,121,30.2,20.9,4,5,4,1,2026-04-06T20:22:23.631005+05:30
Rajkot,Gujarat,22.3039,70.8022,28.3,50,0.0,995.6,7.65,40.0,106,37.4,17.3,4,5,7,1,2026-04-06T20:22:23.631012+05:30
Thane,Maharashtra,19.2183,72.9781,26.9,72,0.0,1010.1,7.95,37.4,106,29.3,15.3,7,0,4,1,2026-04-06T20:22:23.631020+05:30
Nagpur,Maharashtra,21.1458,79.0882,27.9,41,0.0,972.5,8.65,21.2,126,18.9,15.1,4,5,7,0,2026-04-06T20:22:23.631028+05:30
Nashik,Maharashtra,19.9975,73.7898,23.4,65,0.0,947.0,8.2,33.8,96,20.8,11.1,3,5,7,1,2026-04-06T20:22:23.631035+05:30
Aurangabad,Maharashtra,19.8762,75.3433,28.4,40,0.0,944.7,8.9,28.4,126,22.0,15.0,4,5,7,0,2026-04-06T20:22:23.631042+05:30
Solapur,Maharashtra,17.6599,75.9064,30.8,27,0.0,957.0,9.0,33.1,78,16.6,11.4,0,5,7,0,2026-04-06T20:22:23.631050+05:30
Kolhapur,Maharashtra,16.705,74.2433,22.2,73,0.0,949.4,9.0,40.7,64,15.9,13.2,3,5,7,1,2026-04-06T20:22:23.631057+05:30
Goa,Goa,15.2993,74.124,27.6,67,0.0,1000.4,9.0,38.9,65,22.2,12.6,7,5,4,1,2026-04-06T20:22:23.631064+05:30
Jodhpur,Rajasthan,26.2389,73.0243,27.9,31,0.0,981.9,7.8,38.5,105,181.6,25.9,4,5,7,0,2026-04-06T20:22:23.631071+05:30
Udaipur,Rajasthan,24.5854,73.7125,25.1,37,0.0,946.5,8.4,37.1,97,12.8,6.0,4,5,7,0,2026-04-06T20:22:23.631077+05:30
Kota,Rajasthan,25.2138,75.8648,29.2,34,0.0,978.4,7.85,28.8,113,77.5,27.9,4,5,7,0,2026-04-06T20:22:23.631084+05:30
Bikaner,Rajasthan,28.0229,73.3119,27.6,33,0.0,980.6,7.65,28.1,90,57.3,16.1,4,5,7,0,2026-04-06T20:22:23.631091+05:30
Ajmer,Rajasthan,26.4499,74.6399,26.3,39,0.0,954.3,7.8,34.2,90,35.5,13.6,4,5,7,0,2026-04-06T20:22:23.631097+05:30
Gwalior,Madhya Pradesh,26.2183,78.1828,23.5,67,0.0,984.7,7.6,27.0,100,67.3,20.4,3,5,7,1,2026-04-06T20:22:23.631104+05:30
Indore,Madhya Pradesh,22.7196,75.8577,26.5,34,0.0,948.2,8.3,26.6,122,21.2,17.9,4,5,7,0,2026-04-06T20:22:23.631110+05:30
Bhopal,Madhya Pradesh,23.2599,77.4126,27.2,29,0.0,953.3,8.3,28.8,107,25.9,13.7,4,5,7,0,2026-04-06T20:22:23.631116+05:30
Jabalpur,Madhya Pradesh,23.1815,79.9864,29.1,31,0.0,961.8,8.25,19.8,107,29.6,18.5,4,5,7,0,2026-04-06T20:22:23.631122+05:30
Ujjain,Madhya Pradesh,23.1765,75.7885,26.3,33,0.0,954.0,8.2,26.6,107,25.8,20.3,4,5,7,0,2026-04-06T20:22:23.631129+05:30
Visakhapatnam,Andhra Pradesh,17.6868,83.2185,27.7,83,0.0,1005.2,9.1,34.9,105,32.5,27.9,7,5,4,1,2026-04-06T20:22:23.631136+05:30
Vijayawada,Andhra Pradesh,16.5062,80.648,29.9,67,0.0,1002.6,9.15,31.0,77,24.2,21.9,7,5,4,1,2026-04-06T20:22:23.631142+05:30
Guntur,Andhra Pradesh,16.3067,80.4365,28.8,79,0.0,1003.9,9.2,31.7,93,34.6,30.9,7,5,4,1,2026-04-06T20:22:23.631149+05:30
Nellore,Andhra Pradesh,14.4426,79.9865,28.4,86,0.0,1006.1,8.65,27.7,130,26.3,22.2,7,5,4,1,2026-04-06T20:22:23.631156+05:30
Kurnool,Andhra Pradesh,15.8281,78.0373,33.6,29,0.0,976.2,9.2,36.7,127,19.0,15.3,0,5,7,0,2026-04-06T20:22:23.631163+05:30
Kakinada,Andhra Pradesh,16.9891,82.2475,28.8,77,0.0,1008.5,8.8,26.3,60,18.9,14.2,7,0,4,1,2026-04-06T20:22:23.631169+05:30
Tirupati,Andhra Pradesh,13.6288,79.4192,27.9,81,0.0,992.4,8.15,19.4,148,47.7,44.1,7,5,7,1,2026-04-06T20:22:23.631176+05:30
Warangal,Telangana,17.9689,79.5941,29.7,70,0.0,978.5,9.0,36.7,128,55.2,44.9,7,5,7,1,2026-04-06T20:22:23.631182+05:30
Nizamabad,Telangana,18.6725,78.0941,30.2,42,0.0,964.3,8.95,27.7,88,29.1,22.1,0,5,7,0,2026-04-06T20:22:23.631189+05:30
Mysore,Karnataka,12.2958,76.6396,26.8,65,0.0,929.7,9.55,38.5,95,21.5,18.7,7,5,7,1,2026-04-06T20:22:23.631196+05:30
Mangalore,Karnataka,12.9141,74.856,29.2,73,0.0,1008.8,9.2,37.4,60,27.3,14.5,7,0,4,1,2026-04-06T20:22:23.631202+05:30
Hubli-Dharwad,Karnataka,15.3647,75.124,25.0,65,0.0,942.3,9.2,36.0,72,16.5,10.2,7,5,7,1,2026-04-06T20:22:23.631208+05:30
Belgaum,Karnataka,15.8497,74.4977,22.0,73,0.0,927.1,9.25,36.4,58,16.1,11.0,3,5,7,1,2026-04-06T20:22:26.916458+05:30
Coimbatore,Tamil Nadu,11.0168,76.9558,26.6,68,0.0,963.2,9.4,51.1,72,23.5,20.2,7,5,7,1,2026-04-06T20:22:26.916494+05:30
Madurai,Tamil Nadu,9.9252,78.1198,28.7,79,0.0,994.3,3.35,24.5,118,28.1,25.3,7,5,3,1,2026-04-06T20:22:26.916507+05:30
Trichy,Tamil Nadu,10.7905,78.7047,28.9,77,0.0,1000.7,8.55,23.0,129,34.0,31.3,7,5,4,1,2026-04-06T20:22:26.916517+05:30
Salem,Tamil Nadu,11.6643,78.146,30.1,65,0.0,978.1,9.35,32.8,151,21.4,18.2,3,5,7,1,2026-04-06T20:22:26.916526+05:30
Tirunelveli,Tamil Nadu,8.7139,77.7567,29.4,70,0.0,1004.7,9.2,25.6,61,21.0,18.3,7,5,4,1,2026-04-06T20:22:26.916534+05:30
Vellore,Tamil Nadu,12.9165,79.1325,28.3,75,0.0,985.2,9.35,31.7,174,50.8,47.5,7,5,7,1,2026-04-06T20:22:26.916543+05:30
Erode,Tamil Nadu,11.341,77.7172,32.5,51,0.0,989.6,9.45,29.9,115,25.2,22.2,0,5,7,1,2026-04-06T20:22:26.916552+05:30
Kochi,Kerala,9.9312,76.2673,29.9,73,0.0,1010.7,8.6,36.7,69,35.2,23.7,7,0,4,1,2026-04-06T20:22:26.916560+05:30
Thiruvananthapuram,Kerala,8.5241,76.9366,29.5,78,0.0,1009.9,8.4,39.2,57,31.9,18.0,7,0,4,1,2026-04-06T20:22:26.916568+05:30
Kozhikode,Kerala,11.2588,75.7804,29.4,74,0.0,1009.8,9.2,38.5,61,32.9,16.6,7,0,4,1,2026-04-06T20:22:26.916577+05:30
Thrissur,Kerala,10.5276,76.2144,28.6,76,0.0,1009.0,9.2,41.0,71,27.8,17.6,7,0,4,1,2026-04-06T20:22:26.916585+05:30
Kannur,Kerala,11.8745,75.3704,28.8,71,0.0,1009.0,9.2,43.9,57,25.2,14.5,7,0,4,1,2026-04-06T20:22:26.916594+05:30
Patna,Bihar,25.5941,85.1376,28.1,49,0.0,1001.1,7.05,29.2,96,38.1,28.2,4,5,4,1,2026-04-06T20:22:26.916601+05:30
Gaya,Bihar,24.7914,85.0002,27.1,57,0.0,995.2,5.7,28.8,100,31.8,23.0,4,5,3,1,2026-04-06T20:22:26.916609+05:30
Muzaffarpur,Bihar,26.1209,85.3647,26.4,50,0.0,1001.3,7.65,28.1,98,36.3,26.1,4,5,4,0,2026-04-06T20:22:26.916616+05:30
Bhagalpur,Bihar,25.2425,87.0117,27.0,63,0.0,1002.6,7.15,27.0,110,26.1,22.4,7,5,4,1,2026-04-06T20:22:26.916624+05:30
Ranchi,Jharkhand,23.3441,85.3096,22.2,78,0.0,939.5,8.5,27.0,80,34.2,24.0,3,5,7,1,2026-04-06T20:22:26.916632+05:30
Jamshedpur,Jharkhand,22.8046,86.2029,25.2,84,0.0,993.5,8.65,24.8,144,45.6,39.2,7,5,7,1,2026-04-06T20:22:26.916639+05:30
Dhanbad,Jharkhand,23.7957,86.4304,26.6,67,0.0,981.6,7.85,20.5,116,63.3,51.0,7,5,7,1,2026-04-06T20:22:26.916647+05:30
Bokaro,Jharkhand,23.6693,86.1511,24.8,75,0.0,985.9,7.9,21.2,99,61.5,46.1,3,5,7,1,2026-04-06T20:22:26.916655+05:30
Bhubaneswar,Odisha,20.2961,85.8245,25.3,89,0.0,1005.2,8.95,23.8,76,30.4,27.7,7,5,4,1,2026-04-06T20:22:26.916663+05:30
Cuttack,Odisha,20.4625,85.8828,24.8,88,0.0,1007.2,8.95,31.7,76,30.4,27.7,3,5,4,1,2026-04-06T20:22:26.916671+05:30
Rourkela,Odisha,22.2604,84.8536,24.1,80,0.0,987.8,8.35,36.4,154,42.1,35.2,3,5,7,1,2026-04-06T20:22:26.916679+05:30
Raipur,Chhattisgarh,21.2514,81.6296,28.8,60,0.0,974.8,8.8,26.6,162,51.0,41.4,4,5,7,1,2026-04-06T20:22:26.916686+05:30
Bhilai,Chhattisgarh,21.1938,81.3509,28.9,58,0.0,975.0,8.7,25.6,143,25.4,22.0,4,5,7,1,2026-04-06T20:22:26.916694+05:30
Guwahati,Assam,26.1158,91.7086,26.8,70,0.0,1002.3,8.25,34.9,89,42.7,39.0,7,5,4,1,2026-04-06T20:22:26.916701+05:30
Agartala,Tripura,23.8315,91.2868,27.5,75,0.0,1007.1,8.5,19.4,205,96.2,90.3,7,5,4,1,2026-04-06T20:22:26.916708+05:30
Shillong,Meghalaya,25.5788,91.8933,14.8,83,0.0,857.1,7.85,71.6,114,43.9,40.7,3,10,7,0,2026-04-06T20:22:26.916716+05:30
Imphal,Manipur,24.817,93.9368,19.2,71,0.0,924.7,8.85,53.3,126,41.8,36.9,3,5,7,0,2026-04-06T20:22:26.916724+05:30
Aizawl,Mizoram,23.7271,92.7176,20.7,72,0.0,894.1,8.75,35.3,135,55.9,48.7,3,5,7,0,2026-04-06T20:22:26.916732+05:30
Kohima,Nagaland,25.6701,94.1077,17.4,62,0.0,856.4,8.75,81.4,90,39.2,32.4,3,5,7,0,2026-04-06T20:22:26.916739+05:30
Gangtok,Sikkim,27.3314,88.6138,13.5,72,0.0,837.5,8.5,21.6,94,26.0,22.0,3,5,7,0,2026-04-06T20:22:26.916747+05:30
Siliguri,West Bengal,26.7271,88.3953,22.7,69,0.0,995.8,8.05,19.8,100,35.6,30.0,3,5,7,1,2026-04-06T20:22:30.199717+05:30
Durgapur,West Bengal,23.5204,87.3119,27.2,74,0.0,996.9,8.45,23.8,145,46.9,39.3,7,5,7,1,2026-04-06T20:22:30.199754+05:30
Asansol,West Bengal,23.6739,86.9524,27.5,71,0.0,995.3,7.6,23.4,126,53.7,43.7,7,5,7,1,2026-04-06T20:22:30.199766+05:30
Pondicherry,Puducherry,11.9139,79.8145,28.3,85,0.0,1008.8,8.4,25.6,104,23.5,18.0,7,0,4,1,2026-04-06T20:22:30.199776+05:30
Port Blair,Andaman and Nicobar Islands,11.6234,92.7265,29.2,70,0.0,1009.6,9.2,19.4,29,9.9,6.3,7,0,4,1,2026-04-06T20:22:30.199785+05:30
Haridwar,Uttarakhand,29.9457,78.1642,22.9,56,0.0,974.7,6.75,25.9,107,28.3,18.5,0,5,7,0,2026-04-06T20:22:30.199794+05:30
Rishikesh,Uttarakhand,30.0869,78.2676,21.4,54,0.0,967.8,6.8,26.3,109,21.1,12.7,0,5,7,0,2026-04-06T20:22:30.199803+05:30
Nainital,Uttarakhand,29.3919,79.4542,16.2,59,0.0,805.9,5.85,38.5,117,31.7,17.3,0,5,3,0,2026-04-06T20:22:30.199812+05:30
Mussoorie,Uttarakhand,30.4599,78.0664,14.1,60,0.0,801.9,6.45,29.2,109,23.6,15.7,0,5,7,0,2026-04-06T20:22:30.199821+05:30
Dharamshala,Himachal Pradesh,32.219,76.3234,17.4,62,0.0,868.2,7.45,22.3,99,13.9,10.8,3,5,7,0,2026-04-06T20:22:30.199829+05:30
Dalhousie,Himachal Pradesh,32.5387,75.971,14.8,64,0.0,802.2,6.95,19.8,101,27.7,22.5,3,5,7,0,2026-04-06T20:22:30.199839+05:30
Patiala,Punjab,30.3398,76.3869,25.5,35,0.0,978.4,6.8,21.6,109,231.0,42.5,4,5,7,0,2026-04-06T20:22:30.199850+05:30
Bhatinda,Punjab,30.211,74.9455,24.9,46,0.0,984.0,7.45,20.9,115,25.3,19.1,0,5,7,0,2026-04-06T20:22:30.199856+05:30
Rohtak,Haryana,28.8955,76.6066,24.3,45,0.0,982.4,6.95,25.6,349,248.7,54.5,0,5,7,0,2026-04-06T20:22:30.199863+05:30
Panipat,Haryana,29.3909,76.9635,24.0,42,0.0,980.9,6.75,26.6,463,397.7,63.6,0,5,7,0,2026-04-06T20:22:30.199870+05:30
Mathura,Uttar Pradesh,27.4924,77.6737,24.6,51,0.0,988.0,7.25,27.7,405,324.1,61.2,0,5,7,0,2026-04-06T20:22:30.199876+05:30
Vrindavan,Uttar Pradesh,27.5823,77.7027,24.2,53,0.0,988.4,7.2,31.0,405,324.1,61.2,0,5,7,0,2026-04-06T20:22:30.199883+05:30
Ayodhya,Uttar Pradesh,26.7922,82.1998,26.8,39,0.0,996.0,7.6,30.2,122,52.0,23.0,4,5,7,0,2026-04-06T20:22:30.199891+05:30
Ratlam,Madhya Pradesh,23.3315,75.0367,26.0,42,0.0,955.0,8.15,33.8,101,16.1,10.7,4,5,7,0,2026-04-06T20:22:30.199897+05:30
Sagar,Madhya Pradesh,23.8388,78.7378,25.9,46,0.0,950.6,8.3,21.6,99,17.6,8.7,4,5,7,0,2026-04-06T20:22:30.199904+05:30
Satna,Madhya Pradesh,24.6005,80.8322,27.2,34,0.0,972.5,8.0,25.2,108,63.6,19.8,4,5,7,0,2026-04-06T20:22:30.199911+05:30
Akola,Maharashtra,20.7002,77.0082,30.1,28,0.0,975.0,8.65,28.1,126,20.1,16.1,0,5,7,0,2026-04-06T20:22:30.199918+05:30
Amravati,Maharashtra,20.9374,77.7796,29.5,33,0.0,966.9,8.7,27.4,133,17.8,14.5,4,5,7,0,2026-04-06T20:22:30.199927+05:30
Latur,Maharashtra,18.4088,76.5604,27.3,35,0.0,939.8,9.0,28.8,71,23.1,17.9,4,5,7,0,2026-04-06T20:22:30.199933+05:30
Nanded,Maharashtra,19.1383,77.3091,29.0,36,0.0,968.3,8.9,23.4,101,19.0,15.3,4,5,7,0,2026-04-06T20:22:30.199940+05:30
Gulbarga,Karnataka,17.3297,76.8343,31.8,20,0.0,958.7,9.05,32.0,69,22.9,13.6,0,5,7,0,2026-04-06T20:22:30.199946+05:30
Bidar,Karnataka,17.9104,77.5199,30.3,23,0.0,935.5,9.05,28.1,79,28.8,20.0,0,5,7,0,2026-04-06T20:22:30.199953+05:30
Hospet,Karnataka,15.2689,76.3909,32.0,29,0.0,956.3,9.25,31.0,96,11.0,8.6,0,5,7,0,2026-04-06T20:22:30.199959+05:30
Tirupur,Tamil Nadu,11.1085,77.3411,29.2,61,0.0,976.0,9.15,45.4,96,25.2,22.1,7,5,7,1,2026-04-06T20:22:30.199966+05:30
Alappuzha,Kerala,9.4981,76.3388,29.8,75,0.0,1010.8,9.2,33.8,68,38.6,24.3,7,0,4,1,2026-04-06T20:22:30.199973+05:30
Munnar,Kerala,10.0889,77.0595,21.2,99,0.0,858.8,8.45,33.5,62,23.9,19.7,3,5,7,1,2026-04-06T20:22:30.199981+05:30
Silchar,Assam,24.8333,92.7789,26.3,78,0.0,1006.4,8.5,19.1,154,81.3,73.1,7,5,4,1,2026-04-06T20:22:30.199987+05:30
Dibrugarh,Assam,27.4728,94.912,23.5,82,0.0,996.7,8.3,38.2,96,29.9,27.4,3,5,7,1,2026-04-06T20:22:30.199993+05:30
