city,state,latitude,longitude,temp,humidity,rain,pressure,uv_index,wind_gusts,aqi,pm10,pm2_5,no2,co,o3,so2,mosquito_risk,arthritis_risk,migraine_risk,frizz_risk,updated_at
Delhi,Delhi,28.6139,77.209,30.9,49,0.0,975.6,7.75,38.9,253,244.0,78.2,38.4,703.0,30.0,16.1,0,5,7,1,2026-06-08T02:46:29.217111+05:30
Mumbai,Maharashtra,19.076,72.8777,27.9,88,0.1,1006.4,7.75,42.8,71,57.5,18.0,4.0,132.0,50.0,3.7,10,5,4,1,2026-06-08T02:46:29.217170+05:30
Bangalore,Karnataka,12.9716,77.5946,21.3,95,0.0,910.8,7.55,45.0,19,3.4,3.3,7.4,202.0,40.0,3.2,3,5,7,1,2026-06-08T02:46:29.217188+05:30
Hyderabad,Telangana,17.385,78.4867,25.5,83,0.0,951.0,8.35,46.4,89,22.2,17.8,8.4,188.0,80.0,4.5,7,5,7,1,2026-06-08T02:46:29.217198+05:30
Chennai,Tamil Nadu,13.0827,80.2707,30.3,69,0.0,1004.2,8.6,40.0,47,15.5,14.2,17.0,274.0,48.0,8.8,3,5,4,1,2026-06-08T02:46:29.217206+05:30
Kolkata,West Bengal,22.5726,88.3639,26.9,95,0.0,1000.2,8.95,22.7,134,46.3,40.4,12.9,653.0,75.0,7.7,7,5,4,1,2026-06-08T02:46:29.217214+05:30
Pune,Maharashtra,18.5204,73.8567,25.0,87,0.0,946.3,5.1,44.3,58,39.9,16.4,7.3,113.0,43.0,6.7,7,5,3,1,2026-06-08T02:46:29.217221+05:30
Ahmedabad,Gujarat,23.0225,72.5714,30.9,69,0.0,998.0,8.05,42.5,73,44.6,21.9,3.7,126.0,61.0,3.7,3,5,7,1,2026-06-08T02:46:29.217228+05:30
Jaipur,Rajasthan,26.9124,75.7873,31.1,42,0.0,954.5,8.2,44.6,134,124.8,48.8,15.7,200.0,39.0,7.3,0,5,7,1,2026-06-08T02:46:29.217239+05:30
Lucknow,Uttar Pradesh,26.8467,80.9462,31.6,44,0.0,986.7,8.35,40.7,157,385.6,100.4,28.6,287.0,48.0,9.8,0,5,7,1,2026-06-08T02:46:29.217247+05:30
Kanpur,Uttar Pradesh,26.4499,80.3319,32.5,37,0.0,985.3,8.3,43.6,196,388.4,99.0,51.2,291.0,15.0,11.8,0,5,7,0,2026-06-08T02:46:29.217253+05:30
Chandigarh,Chandigarh,30.7333,76.7794,23.7,66,0.0,960.7,7.8,31.0,91,33.3,30.0,30.3,465.0,42.0,7.8,3,5,7,1,2026-06-08T02:46:29.217260+05:30
Srinagar,Jammu and Kashmir,34.0837,74.7973,13.5,100,0.0,837.8,9.0,17.3,75,34.8,32.4,17.1,416.0,48.0,0.6,3,10,7,0,2026-06-08T02:46:29.217267+05:30
Jammu,Jammu and Kashmir,32.7266,74.857,25.3,44,0.0,964.5,8.6,34.9,65,23.2,22.4,20.5,435.0,41.0,2.2,4,5,7,0,2026-06-08T02:46:29.217274+05:30
Amritsar,Punjab,31.634,74.8723,29.6,37,0.0,973.0,8.45,22.7,131,69.8,64.7,57.0,416.0,38.0,11.6,4,5,7,0,2026-06-08T02:46:29.217281+05:30
Ludhiana,Punjab,30.901,75.8573,29.0,46,0.0,970.9,8.05,32.0,135,64.0,54.4,35.0,585.0,48.0,8.2,4,5,7,0,2026-06-08T02:46:29.217287+05:30
Jalandhar,Punjab,31.326,75.5762,28.8,43,0.0,971.9,8.25,29.9,131,56.0,51.1,45.2,447.0,36.0,7.4,4,5,7,0,2026-06-08T02:46:29.217294+05:30
Dehradun,Uttarakhand,30.6284,78.0322,14.2,85,0.0,824.1,8.25,38.2,58,19.6,16.7,23.9,262.0,27.0,0.8,3,10,7,0,2026-06-08T02:46:29.217300+05:30
Shimla,Himachal Pradesh,31.1048,77.1734,12.8,60,0.0,778.6,8.35,44.6,69,19.3,16.8,19.7,233.0,53.0,1.8,0,5,7,0,2026-06-08T02:46:29.217309+05:30
Manali,Himachal Pradesh,32.2396,77.1887,11.6,61,0.0,812.2,9.35,35.3,46,3.7,3.3,14.5,209.0,108.0,0.0,3,5,7,0,2026-06-08T02:46:29.217316+05:30
Gurgaon,Haryana,28.4595,77.0266,29.4,54,0.0,974.0,7.85,37.4,496,819.6,143.0,27.2,746.0,36.0,10.7,4,5,7,1,2026-06-08T02:46:29.217322+05:30
Noida,Uttar Pradesh,28.5355,77.391,28.0,67,0.0,976.8,7.8,24.1,496,819.6,143.0,27.2,700.0,36.0,10.7,7,5,7,1,2026-06-08T02:46:29.217329+05:30
Ghaziabad,Uttar Pradesh,28.6692,77.4538,28.4,65,0.0,975.2,7.75,36.0,200,264.5,88.0,45.6,745.0,26.0,22.9,7,5,7,1,2026-06-08T02:46:29.217342+05:30
Faridabad,Haryana,28.4089,77.3178,28.7,64,0.0,976.1,7.8,32.4,496,819.6,143.0,27.2,649.0,36.0,10.7,7,5,7,1,2026-06-08T02:46:29.217348+05:30
Meerut,Uttar Pradesh,28.9845,77.7064,28.3,62,0.0,974.1,7.7,31.3,200,264.5,88.0,45.6,654.0,26.0,22.9,7,5,7,1,2026-06-08T02:46:29.217354+05:30
Agra,Uttar Pradesh,27.1767,78.0081,32.0,39,0.0,980.7,8.15,40.7,472,1721.1,213.7,14.2,363.0,58.0,5.4,0,5,7,1,2026-06-08T02:46:29.217360+05:30
Varanasi,Uttar Pradesh,25.3176,82.9739,31.4,47,0.0,991.1,8.8,38.5,145,64.5,37.5,19.0,683.0,52.0,7.2,0,5,7,1,2026-06-08T02:46:29.217369+05:30
Prayagraj,Uttar Pradesh,25.4358,81.8463,31.5,47,0.0,989.4,8.3,39.2,154,61.7,36.9,18.0,477.0,48.0,5.5,0,5,7,1,2026-06-08T02:46:29.217376+05:30
Gorakhpur,Uttar Pradesh,26.7606,83.3732,28.1,76,0.0,990.6,8.7,32.0,137,54.5,43.2,17.2,760.0,83.0,5.8,7,5,7,1,2026-06-08T02:46:29.217384+05:30
Bareilly,Uttar Pradesh,28.367,79.4304,28.4,62,0.0,979.7,8.1,27.0,141,216.1,86.6,37.3,446.0,45.0,11.6,7,5,7,1,2026-06-08T02:46:29.217391+05:30
Aligarh,Uttar Pradesh,27.8974,78.088,29.9,48,0.0,978.3,7.9,33.5,409,273.8,77.3,38.4,290.0,20.0,7.8,4,5,7,1,2026-06-08T02:46:29.217397+05:30
Moradabad,Uttar Pradesh,28.8386,78.7733,28.9,55,0.0,976.5,7.9,32.8,157,214.7,120.1,64.8,615.0,17.0,18.8,4,5,7,1,2026-06-08T02:46:29.217403+05:30
Saharanpur,Uttar Pradesh,29.9637,77.546,26.7,68,0.0,968.4,7.45,29.5,134,98.5,74.7,47.8,561.0,33.0,13.3,7,5,7,1,2026-06-08T02:46:29.217409+05:30
Jhansi,Uttar Pradesh,25.4484,78.5685,29.4,51,0.0,971.9,7.95,41.4,97,49.9,25.4,6.6,182.0,57.0,4.1,4,5,7,1,2026-06-08T02:46:47.844068+05:30
Surat,Gujarat,21.1702,72.8311,29.8,80,0.0,1003.8,7.6,51.1,82,44.1,20.6,12.0,226.0,42.0,20.9,7,5,4,1,2026-06-08T02:46:47.844100+05:30
Vadodara,Gujarat,22.3072,73.1812,31.2,68,0.0,1000.5,8.05,47.9,80,32.7,19.6,10.5,107.0,40.0,11.6,3,5,4,1,2026-06-08T02:46:47.844111+05:30
Rajkot,Gujarat,22.3039,70.8022,29.2,75,0.0,990.6,7.6,49.7,67,46.3,19.6,4.1,103.0,54.0,4.8,7,5,7,1,2026-06-08T02:46:47.844121+05:30
Thane,Maharashtra,19.2183,72.9781,27.5,89,0.0,1005.9,7.65,41.4,71,57.5,18.0,4.0,135.0,50.0,3.7,7,5,4,1,2026-06-08T02:46:47.844129+05:30
Nagpur,Maharashtra,21.1458,79.0882,32.9,44,0.0,968.5,7.6,34.9,103,63.3,37.7,12.1,239.0,60.0,9.1,0,5,7,1,2026-06-08T02:46:47.844137+05:30
Nashik,Maharashtra,19.9975,73.7898,25.3,88,0.0,943.5,8.05,48.6,63,28.3,12.4,6.3,106.0,43.0,4.9,7,5,7,1,2026-06-08T02:46:47.844167+05:30
Aurangabad,Maharashtra,19.8762,75.3433,27.2,67,0.0,941.8,8.15,44.3,68,39.2,18.5,6.9,121.0,49.0,7.4,7,5,7,1,2026-06-08T02:46:47.844177+05:30
Solapur,Maharashtra,17.6599,75.9064,28.5,65,0.0,955.3,7.1,39.2,61,14.0,9.7,7.5,141.0,45.0,2.5,7,5,7,1,2026-06-08T02:46:47.844185+05:30
Kolhapur,Maharashtra,16.705,74.2433,24.1,92,0.0,946.4,5.3,43.2,31,5.8,3.9,3.1,118.0,47.0,1.4,3,5,3,1,2026-06-08T02:46:47.844193+05:30
Goa,Goa,15.2993,74.124,24.8,99,0.1,997.7,2.2,25.6,32,13.4,8.1,3.6,183.0,54.0,1.2,6,5,3,1,2026-06-08T02:46:47.844201+05:30
Jodhpur,Rajasthan,26.2389,73.0243,33.1,49,0.0,977.1,8.4,40.7,139,155.5,40.6,3.5,129.0,56.0,1.8,0,5,7,1,2026-06-08T02:46:47.844210+05:30
Udaipur,Rajasthan,24.5854,73.7125,28.5,65,0.0,942.6,8.8,38.2,75,36.9,22.8,5.5,165.0,59.0,5.5,7,5,7,1,2026-06-08T02:46:47.844217+05:30
Kota,Rajasthan,25.2138,75.8648,30.7,57,0.0,973.7,8.4,34.2,105,37.1,23.5,4.5,157.0,78.0,7.2,0,5,7,1,2026-06-08T02:46:47.844225+05:30
Bikaner,Rajasthan,28.0229,73.3119,31.8,34,0.0,974.3,8.45,34.9,152,379.0,111.1,1.7,125.0,62.0,2.8,0,5,7,0,2026-06-08T02:46:47.844233+05:30
Ajmer,Rajasthan,26.4499,74.6399,26.8,77,0.0,949.1,8.35,47.9,91,52.4,23.1,3.6,147.0,65.0,3.2,7,5,7,1,2026-06-08T02:46:47.844241+05:30
Gwalior,Madhya Pradesh,26.2183,78.1828,31.0,42,0.0,976.8,8.25,50.4,108,85.7,32.6,4.7,157.0,70.0,3.1,0,5,7,1,2026-06-08T02:46:47.844248+05:30
Indore,Madhya Pradesh,22.7196,75.8577,28.0,61,0.0,944.8,8.65,44.3,93,47.7,30.5,5.0,237.0,84.0,9.2,7,5,7,1,2026-06-08T02:46:47.844255+05:30
Bhopal,Madhya Pradesh,23.2599,77.4126,28.7,60,0.0,949.3,8.7,37.8,105,59.5,38.8,12.5,250.0,48.0,5.4,4,5,7,1,2026-06-08T02:46:47.844263+05:30
Jabalpur,Madhya Pradesh,23.1815,79.9864,29.4,55,0.0,956.9,8.9,41.8,111,56.3,34.6,12.6,191.0,53.0,4.3,4,5,7,1,2026-06-08T02:46:47.844270+05:30
Ujjain,Madhya Pradesh,23.1765,75.7885,28.1,62,0.0,950.3,8.6,45.7,90,47.0,29.4,4.2,205.0,81.0,9.8,7,5,7,1,2026-06-08T02:46:47.844278+05:30
Visakhapatnam,Andhra Pradesh,17.6868,83.2185,29.3,82,0.0,998.8,8.35,43.9,92,24.5,19.6,9.6,268.0,98.0,19.4,7,5,7,1,2026-06-08T02:46:47.844285+05:30
Vijayawada,Andhra Pradesh,16.5062,80.648,27.0,90,0.0,999.4,8.75,38.2,79,20.6,17.5,6.4,191.0,83.0,4.0,7,5,7,1,2026-06-08T02:46:47.844293+05:30
Guntur,Andhra Pradesh,16.3067,80.4365,26.7,93,0.0,1000.7,8.25,47.5,81,23.9,19.7,6.3,175.0,82.0,2.8,7,5,4,1,2026-06-08T02:46:47.844300+05:30
Nellore,Andhra Pradesh,14.4426,79.9865,29.8,66,0.0,1003.1,8.3,40.7,52,10.2,8.7,5.8,187.0,74.0,3.7,7,5,4,1,2026-06-08T02:46:47.844308+05:30
Kurnool,Andhra Pradesh,15.8281,78.0373,25.2,93,0.1,975.3,8.2,51.5,65,18.3,13.2,7.0,168.0,69.0,2.8,10,5,7,1,2026-06-08T02:46:47.844316+05:30
Kakinada,Andhra Pradesh,16.9891,82.2475,29.0,86,0.0,1003.2,9.05,48.2,76,20.5,15.3,2.0,197.0,111.0,4.1,7,5,4,1,2026-06-08T02:46:47.844323+05:30
Tirupati,Andhra Pradesh,13.6288,79.4192,28.8,65,0.0,988.8,7.2,38.9,41,11.4,10.6,14.5,194.0,36.0,2.2,7,5,7,1,2026-06-08T02:46:47.844330+05:30
Warangal,Telangana,17.9689,79.5941,25.7,92,0.1,975.5,7.6,50.0,101,40.7,31.4,12.8,177.0,58.0,5.0,10,5,7,1,2026-06-08T02:46:47.844338+05:30
Nizamabad,Telangana,18.6725,78.0941,28.8,62,0.0,961.5,6.2,46.4,94,43.3,28.9,9.8,171.0,76.0,4.8,7,5,7,1,2026-06-08T02:46:47.844345+05:30
Mysore,Karnataka,12.2958,76.6396,22.5,90,0.0,927.9,4.4,55.8,20,3.0,2.9,4.8,140.0,43.0,1.3,3,5,3,1,2026-06-08T02:46:47.844352+05:30
Mangalore,Karnataka,12.9141,74.856,24.4,98,0.0,1007.1,4.0,38.2,28,9.7,7.5,5.1,171.0,48.0,1.5,3,5,0,1,2026-06-08T02:46:47.844359+05:30
Hubli-Dharwad,Karnataka,15.3647,75.124,22.8,97,0.0,939.6,5.0,41.0,26,1.5,1.2,2.4,106.0,54.0,0.9,3,5,3,1,2026-06-08T02:46:47.844367+05:30
Belgaum,Karnataka,15.8497,74.4977,22.0,98,0.0,924.2,1.6,38.5,25,2.5,2.1,2.8,113.0,53.0,1.1,3,5,3,1,2026-06-08T02:46:51.104236+05:30
Coimbatore,Tamil Nadu,11.0168,76.9558,23.1,94,0.0,961.3,4.9,56.2,20,2.0,1.9,4.0,118.0,40.0,1.7,3,5,3,1,2026-06-08T02:46:51.104267+05:30
Madurai,Tamil Nadu,9.9252,78.1198,28.3,69,0.0,992.8,6.5,71.6,22,4.5,3.9,5.4,136.0,37.0,2.3,7,5,7,1,2026-06-08T02:46:51.104277+05:30
Trichy,Tamil Nadu,10.7905,78.7047,29.4,63,0.0,999.0,8.0,61.2,24,3.4,3.1,5.9,120.0,36.0,2.6,7,5,7,1,2026-06-08T02:46:51.104286+05:30
Salem,Tamil Nadu,11.6643,78.146,26.5,76,0.0,977.0,7.35,39.2,26,7.9,7.3,12.2,157.0,32.0,5.6,7,5,7,1,2026-06-08T02:46:51.104294+05:30
Tirunelveli,Tamil Nadu,8.7139,77.7567,27.2,77,0.0,1004.4,8.05,43.6,18,4.1,3.2,4.6,115.0,36.0,1.1,7,5,4,1,2026-06-08T02:46:51.104307+05:30
Vellore,Tamil Nadu,12.9165,79.1325,29.1,61,0.0,982.6,8.3,43.2,26,5.3,5.0,8.6,178.0,40.0,3.5,7,5,7,1,2026-06-08T02:46:51.104314+05:30
Erode,Tamil Nadu,11.341,77.7172,25.9,80,0.0,988.7,5.25,56.5,21,4.6,4.2,7.5,136.0,37.0,2.7,7,5,3,1,2026-06-08T02:46:51.104321+05:30
Kochi,Kerala,9.9312,76.2673,25.8,91,0.0,1010.6,7.55,38.5,29,7.2,4.9,4.9,91.0,40.0,1.6,7,0,4,1,2026-06-08T02:46:51.104329+05:30
Thiruvananthapuram,Kerala,8.5241,76.9366,24.5,96,0.3,1010.5,6.7,52.2,26,11.8,6.0,1.3,82.0,50.0,0.3,6,0,4,1,2026-06-08T02:46:51.104336+05:30
Kozhikode,Kerala,11.2588,75.7804,24.9,97,0.1,1009.2,3.5,36.7,27,5.5,2.8,0.6,132.0,58.0,0.3,6,0,0,1,2026-06-08T02:46:51.104343+05:30
Thrissur,Kerala,10.5276,76.2144,24.5,97,0.2,1008.4,3.25,38.9,28,6.3,5.0,5.6,128.0,36.0,1.6,6,0,0,1,2026-06-08T02:46:51.104351+05:30
Kannur,Kerala,11.8745,75.3704,24.4,98,0.2,1008.0,6.45,41.4,23,10.2,7.5,6.4,155.0,42.0,1.5,6,0,4,1,2026-06-08T02:46:51.104359+05:30
Patna,Bihar,25.5941,85.1376,29.1,82,0.0,993.9,8.9,24.5,158,98.7,80.1,24.1,547.0,62.0,14.8,7,5,7,1,2026-06-08T02:46:51.104368+05:30
Gaya,Bihar,24.7914,85.0002,27.8,71,0.0,987.6,8.95,31.7,157,91.3,71.9,30.7,624.0,36.0,7.9,7,5,7,1,2026-06-08T02:46:51.104379+05:30
Muzaffarpur,Bihar,26.1209,85.3647,28.6,82,0.0,993.9,8.9,23.4,154,84.3,70.3,22.5,623.0,64.0,14.6,7,5,7,1,2026-06-08T02:46:51.104386+05:30
Bhagalpur,Bihar,25.2425,87.0117,28.0,79,0.0,995.2,8.85,23.8,154,74.3,71.7,11.8,461.0,98.0,32.1,7,5,7,1,2026-06-08T02:46:51.104393+05:30
Ranchi,Jharkhand,23.3441,85.3096,24.1,89,0.0,933.0,9.15,29.2,155,141.6,99.2,39.7,275.0,49.0,13.0,3,5,7,1,2026-06-08T02:46:51.104400+05:30
Jamshedpur,Jharkhand,22.8046,86.2029,26.5,90,0.0,985.6,8.4,28.8,163,98.5,87.8,40.3,416.0,35.0,22.7,7,5,7,1,2026-06-08T02:46:51.104407+05:30
Dhanbad,Jharkhand,23.7957,86.4304,26.7,87,0.0,974.5,9.05,31.0,174,158.3,147.1,59.5,1146.0,40.0,239.9,7,5,7,1,2026-06-08T02:46:51.104415+05:30
Bokaro,Jharkhand,23.6693,86.1511,26.5,89,0.0,978.4,9.05,34.9,168,165.8,151.3,60.4,378.0,35.0,210.6,7,5,7,1,2026-06-08T02:46:51.104422+05:30
Bhubaneswar,Odisha,20.2961,85.8245,29.2,92,0.0,996.3,9.05,25.6,124,39.8,34.8,10.9,369.0,79.0,8.0,7,5,7,1,2026-06-08T02:46:51.104429+05:30
Cuttack,Odisha,20.4625,85.8828,28.2,91,0.0,998.3,9.05,25.6,124,39.8,34.8,10.9,507.0,79.0,8.0,7,5,7,1,2026-06-08T02:46:51.104436+05:30
Rourkela,Odisha,22.2604,84.8536,27.8,78,0.0,979.6,8.65,32.4,154,110.8,75.7,30.2,328.0,53.0,19.2,7,5,7,1,2026-06-08T02:46:51.104442+05:30
Raipur,Chhattisgarh,21.2514,81.6296,33.7,36,0.0,969.4,8.8,38.5,139,73.8,52.6,43.4,585.0,42.0,64.0,0,5,7,1,2026-06-08T02:46:51.104449+05:30
Bhilai,Chhattisgarh,21.1938,81.3509,31.7,44,0.0,969.9,8.2,38.9,140,68.9,46.9,29.8,640.0,52.0,40.6,0,5,7,1,2026-06-08T02:46:51.104456+05:30
Guwahati,Assam,26.1158,91.7086,25.6,96,0.0,995.7,8.8,31.7,124,25.6,24.5,6.1,414.0,83.0,3.4,7,5,7,1,2026-06-08T02:46:51.104463+05:30
Agartala,Tripura,23.8315,91.2868,25.8,97,0.0,1001.2,7.9,35.6,109,27.7,26.1,16.0,199.0,46.0,2.5,7,5,4,1,2026-06-08T02:46:51.104470+05:30
Shillong,Meghalaya,25.5788,91.8933,19.7,94,0.0,853.2,8.1,27.7,86,8.1,7.3,3.3,249.0,109.0,5.3,3,10,7,1,2026-06-08T02:46:51.104477+05:30
Imphal,Manipur,24.817,93.9368,22.8,96,0.0,919.0,8.3,30.6,61,14.1,13.2,6.1,362.0,57.0,2.6,3,5,7,1,2026-06-08T02:46:51.104484+05:30
Aizawl,Mizoram,23.7271,92.7176,19.5,95,0.0,888.4,5.05,37.1,65,9.7,8.5,2.4,180.0,57.0,0.6,3,10,3,1,2026-06-08T02:46:51.104492+05:30
Kohima,Nagaland,25.6701,94.1077,18.9,93,0.2,851.5,8.95,22.0,66,5.7,4.9,2.7,251.0,78.0,1.5,6,10,7,1,2026-06-08T02:46:51.104499+05:30
Gangtok,Sikkim,27.3314,88.6138,17.0,94,0.1,833.7,9.15,37.8,76,19.2,17.8,13.2,617.0,50.0,1.2,6,10,7,0,2026-06-08T02:46:51.104506+05:30
Siliguri,West Bengal,26.7271,88.3953,23.9,97,0.0,987.6,8.8,24.5,113,53.9,50.4,13.1,547.0,103.0,6.2,3,5,7,1,2026-06-08T02:46:54.403746+05:30
Durgapur,West Bengal,23.5204,87.3119,26.5,90,0.0,989.4,9.0,24.5,173,99.7,94.5,36.0,914.0,43.0,38.8,7,5,7,1,2026-06-08T02:46:54.403776+05:30
Asansol,West Bengal,23.6739,86.9524,26.8,87,0.0,988.1,9.0,27.0,171,94.8,87.5,34.7,625.0,54.0,45.5,7,5,7,1,2026-06-08T02:46:54.403787+05:30
Pondicherry,Puducherry,11.9139,79.8145,30.0,59,0.0,1006.5,7.3,40.3,47,16.7,15.2,18.8,247.0,30.0,8.1,4,5,4,1,2026-06-08T02:46:54.403796+05:30
Port Blair,Andaman and Nicobar Islands,11.6234,92.7265,27.5,88,0.0,1006.8,8.2,48.6,24,10.3,6.0,0.2,85.0,55.0,0.5,7,5,4,1,2026-06-08T02:46:54.403804+05:30
Haridwar,Uttarakhand,29.9457,78.1642,24.7,67,0.0,966.9,7.6,25.9,105,59.0,52.4,32.4,361.0,34.0,7.8,3,5,7,1,2026-06-08T02:46:54.403812+05:30
Rishikesh,Uttarakhand,30.0869,78.2676,21.5,78,0.0,959.6,7.7,24.1,84,46.9,36.7,20.0,313.0,74.0,6.8,3,5,7,1,2026-06-08T02:46:54.403820+05:30
Nainital,Uttarakhand,29.3919,79.4542,14.8,73,0.0,800.8,8.55,43.6,88,45.1,37.3,20.7,299.0,64.0,4.8,3,5,7,0,2026-06-08T02:46:54.403828+05:30
Mussoorie,Uttarakhand,30.4599,78.0664,16.8,54,0.0,799.1,8.1,41.0,90,47.7,39.6,30.8,259.0,49.0,7.0,0,5,7,0,2026-06-08T02:46:54.403836+05:30
Dharamshala,Himachal Pradesh,32.219,76.3234,21.8,49,0.0,864.0,8.5,44.3,49,10.9,9.8,14.5,205.0,27.0,0.2,0,5,7,0,2026-06-08T02:46:54.403844+05:30
Dalhousie,Himachal Pradesh,32.5387,75.971,12.1,76,0.0,797.2,8.75,36.4,65,23.7,21.5,29.0,283.0,24.0,1.3,3,5,7,0,2026-06-08T02:46:54.403853+05:30
Patiala,Punjab,30.3398,76.3869,29.7,42,0.0,970.4,7.7,33.1,152,106.9,66.4,28.2,660.0,56.0,9.7,4,5,7,0,2026-06-08T02:46:54.403860+05:30
Bhatinda,Punjab,30.211,74.9455,31.5,39,0.0,975.8,8.3,27.0,131,67.8,53.2,44.5,426.0,40.0,10.3,0,5,7,0,2026-06-08T02:46:54.403868+05:30
Rohtak,Haryana,28.8955,76.6066,28.9,51,0.0,973.9,7.8,28.1,302,275.7,78.5,35.8,564.0,25.0,5.3,4,5,7,1,2026-06-08T02:46:54.403875+05:30
Panipat,Haryana,29.3909,76.9635,27.6,67,0.0,972.6,7.65,29.5,533,316.6,91.7,35.7,755.0,34.0,7.6,7,5,7,1,2026-06-08T02:46:54.403883+05:30
Mathura,Uttar Pradesh,27.4924,77.6737,30.2,47,0.0,979.7,8.05,32.8,328,1195.8,158.8,16.6,291.0,52.0,4.4,0,5,7,1,2026-06-08T02:46:54.403890+05:30
Vrindavan,Uttar Pradesh,27.5823,77.7027,30.4,46,0.0,980.1,8.05,33.8,328,1195.8,158.8,16.6,277.0,52.0,4.4,0,5,7,1,2026-06-08T02:46:54.403898+05:30
Ayodhya,Uttar Pradesh,26.7922,82.1998,28.8,71,0.0,988.5,8.45,30.6,143,211.9,71.7,17.5,555.0,67.0,8.6,7,5,7,1,2026-06-08T02:46:54.403905+05:30
Ratlam,Madhya Pradesh,23.3315,75.0367,27.4,70,0.0,951.6,8.5,47.2,87,44.2,27.2,5.1,212.0,73.0,12.5,7,5,7,1,2026-06-08T02:46:54.403913+05:30
Sagar,Madhya Pradesh,23.8388,78.7378,28.1,62,0.0,945.8,8.75,47.9,100,45.5,27.9,7.0,212.0,71.0,4.5,7,5,7,1,2026-06-08T02:46:54.403920+05:30
Satna,Madhya Pradesh,24.6005,80.8322,29.4,45,0.0,965.7,8.85,39.6,115,76.4,36.6,12.8,203.0,58.0,3.7,4,5,7,1,2026-06-08T02:46:54.403927+05:30
Akola,Maharashtra,20.7002,77.0082,31.5,51,0.0,971.4,8.8,41.0,90,45.2,27.4,9.5,148.0,66.0,8.8,0,5,7,1,2026-06-08T02:46:54.403935+05:30
Amravati,Maharashtra,20.9374,77.7796,31.8,50,0.0,963.1,8.75,38.9,97,51.3,30.3,14.3,252.0,52.0,6.1,0,5,7,1,2026-06-08T02:46:54.403943+05:30
Latur,Maharashtra,18.4088,76.5604,28.2,62,0.0,937.4,8.9,39.2,79,22.5,15.6,6.7,167.0,65.0,6.3,7,5,7,1,2026-06-08T02:46:54.403950+05:30
Nanded,Maharashtra,19.1383,77.3091,30.9,50,0.0,964.7,8.35,47.5,90,69.4,39.5,13.9,172.0,57.0,6.5,0,5,7,1,2026-06-08T02:46:54.403957+05:30
Gulbarga,Karnataka,17.3297,76.8343,25.3,86,0.1,956.6,6.35,41.4,61,16.2,11.3,9.2,174.0,50.0,3.0,10,5,7,1,2026-06-08T02:46:54.403964+05:30
Bidar,Karnataka,17.9104,77.5199,25.3,81,0.0,932.9,4.45,44.3,85,23.2,14.8,6.6,160.0,74.0,1.9,7,5,3,1,2026-06-08T02:46:54.403971+05:30
Hospet,Karnataka,15.2689,76.3909,23.7,95,0.0,954.6,5.25,42.5,30,3.1,2.9,4.2,118.0,48.0,0.9,3,5,3,1,2026-06-08T02:46:54.403978+05:30
Tirupur,Tamil Nadu,11.1085,77.3411,24.3,87,0.0,974.9,5.45,62.3,20,5.5,5.2,8.9,120.0,34.0,3.1,3,5,3,1,2026-06-08T02:46:54.403985+05:30
Alappuzha,Kerala,9.4981,76.3388,25.5,94,0.1,1010.9,6.95,43.9,28,8.2,4.6,1.7,85.0,50.0,0.6,10,0,4,1,2026-06-08T02:46:54.403992+05:30
Munnar,Kerala,10.0889,77.0595,17.2,100,0.4,856.8,4.4,49.3,16,1.9,1.9,6.4,101.0,25.0,1.3,6,10,3,1,2026-06-08T02:46:54.403999+05:30
Silchar,Assam,24.8333,92.7789,25.1,96,0.1,1000.9,8.8,37.4,84,35.4,30.4,5.5,268.0,103.0,3.9,10,5,4,1,2026-06-08T02:46:54.404007+05:30
Dibrugarh,Assam,27.4728,94.912,24.5,99,0.1,990.4,8.2,28.8,77,28.1,25.3,5.9,305.0,95.0,2.1,6,5,7,1,2026-06-08T02:46:54.404014+05:30
