city,state,latitude,longitude,temp,humidity,rain,pressure,uv_index,wind_gusts,aqi,pm10,pm2_5,no2,co,o3,so2,mosquito_risk,arthritis_risk,migraine_risk,frizz_risk,updated_at
Delhi,Delhi,28.6139,77.209,29.6,43,0.0,981.7,7.45,45.7,247,370.7,55.1,14.9,631.0,160.0,18.7,4,5,7,0,2026-05-04T17:21:29.334901+05:30
Mumbai,Maharashtra,19.076,72.8777,31.2,63,0.0,1005.2,7.85,42.8,62,37.7,17.6,5.2,206.0,89.0,16.7,3,5,4,1,2026-05-04T17:21:29.334950+05:30
Bangalore,Karnataka,12.9716,77.5946,33.5,24,0.0,909.8,9.5,42.8,87,55.6,18.5,9.4,312.0,121.0,3.2,0,5,7,0,2026-05-04T17:21:29.334966+05:30
Hyderabad,Telangana,17.385,78.4867,38.2,12,0.0,948.9,9.25,34.2,137,49.2,18.2,1.8,259.0,176.0,6.4,0,5,10,0,2026-05-04T17:21:29.334979+05:30
Chennai,Tamil Nadu,13.0827,80.2707,31.2,72,0.0,1003.1,9.15,45.0,81,29.4,20.5,4.6,237.0,125.0,7.9,3,5,4,1,2026-05-04T17:21:29.334988+05:30
Kolkata,West Bengal,22.5726,88.3639,29.0,77,0.0,1005.4,8.9,32.0,94,38.8,24.1,9.5,452.0,89.0,7.4,7,5,4,1,2026-05-04T17:21:29.334997+05:30
Pune,Maharashtra,18.5204,73.8567,33.3,27,0.0,945.4,8.45,53.3,56,62.6,15.0,1.9,169.0,105.0,2.5,0,5,7,0,2026-05-04T17:21:29.335004+05:30
Ahmedabad,Gujarat,23.0225,72.5714,39.8,21,0.0,995.0,8.05,40.0,60,78.7,21.5,1.4,182.0,129.0,5.6,0,5,10,0,2026-05-04T17:21:29.335013+05:30
Jaipur,Rajasthan,26.9124,75.7873,32.5,29,0.0,956.9,8.05,34.6,184,184.4,30.6,2.1,233.0,149.0,6.3,0,5,7,0,2026-05-04T17:21:29.335020+05:30
Lucknow,Uttar Pradesh,26.8467,80.9462,28.9,63,0.0,991.2,8.05,50.0,138,51.6,31.7,2.6,336.0,179.0,7.4,7,5,7,1,2026-05-04T17:21:29.335027+05:30
Kanpur,Uttar Pradesh,26.4499,80.3319,30.4,60,0.0,989.0,8.05,52.9,224,367.9,60.8,2.5,319.0,195.0,11.3,0,5,7,1,2026-05-04T17:21:29.335033+05:30
Chandigarh,Chandigarh,30.7333,76.7794,26.5,43,0.0,969.7,7.5,50.4,123,63.1,20.0,3.0,609.0,151.0,2.8,4,5,7,0,2026-05-04T17:21:29.335040+05:30
Srinagar,Jammu and Kashmir,34.0837,74.7973,14.5,78,0.0,841.6,6.3,26.3,108,21.2,12.4,5.8,275.0,132.0,2.3,3,5,7,0,2026-05-04T17:21:29.335047+05:30
Jammu,Jammu and Kashmir,32.7266,74.857,25.5,49,0.0,973.7,8.2,51.8,119,146.2,38.5,3.1,168.0,150.0,5.6,4,5,7,0,2026-05-04T17:21:29.335053+05:30
Amritsar,Punjab,31.634,74.8723,28.9,41,0.0,980.6,8.1,55.4,129,131.8,32.4,2.0,227.0,151.0,6.7,4,5,7,0,2026-05-04T17:21:29.335060+05:30
Ludhiana,Punjab,30.901,75.8573,23.2,70,0.0,979.3,7.7,48.2,163,132.2,33.2,3.3,292.0,152.0,4.9,3,5,7,1,2026-05-04T17:21:29.335078+05:30
Jalandhar,Punjab,31.326,75.5762,28.3,44,0.0,979.7,7.9,45.0,131,101.5,29.3,3.1,235.0,158.0,11.0,4,5,7,0,2026-05-04T17:21:29.335084+05:30
Dehradun,Uttarakhand,30.6284,78.0322,15.2,71,0.0,830.6,7.05,36.4,87,56.0,20.3,1.4,177.0,138.0,1.4,3,5,7,0,2026-05-04T17:21:29.335093+05:30
Shimla,Himachal Pradesh,31.1048,77.1734,13.2,56,0.0,784.0,7.2,36.4,98,55.5,17.8,0.8,240.0,142.0,1.2,0,5,7,0,2026-05-04T17:21:29.335099+05:30
Manali,Himachal Pradesh,32.2396,77.1887,13.1,68,0.1,816.3,9.0,34.2,128,31.3,9.5,2.8,198.0,160.0,1.5,6,5,7,0,2026-05-04T17:21:29.335106+05:30
Gurgaon,Haryana,28.4595,77.0266,30.4,39,0.0,979.8,7.6,45.7,1533,2324.6,223.5,12.0,546.0,164.0,15.8,0,5,7,0,2026-05-04T17:21:29.335112+05:30
Noida,Uttar Pradesh,28.5355,77.391,30.1,41,0.0,983.1,7.5,43.2,1533,2324.6,223.5,12.0,459.0,164.0,15.8,0,5,7,0,2026-05-04T17:21:29.335119+05:30
Ghaziabad,Uttar Pradesh,28.6692,77.4538,30.0,43,0.0,981.5,7.45,45.7,147,324.1,44.9,3.6,382.0,161.0,5.3,4,5,7,1,2026-05-04T17:21:29.335125+05:30
Faridabad,Haryana,28.4089,77.3178,29.5,49,0.0,982.2,7.55,49.0,1533,2324.6,223.5,12.0,398.0,164.0,15.8,4,5,7,1,2026-05-04T17:21:29.335131+05:30
Meerut,Uttar Pradesh,28.9845,77.7064,28.5,55,0.0,980.9,7.35,58.7,147,324.1,44.9,3.6,314.0,161.0,5.3,4,5,7,1,2026-05-04T17:21:29.335137+05:30
Agra,Uttar Pradesh,27.1767,78.0081,30.9,42,0.0,985.4,7.7,56.2,1087,689.2,97.6,3.6,246.0,164.0,7.1,0,5,7,1,2026-05-04T17:21:29.335143+05:30
Varanasi,Uttar Pradesh,25.3176,82.9739,26.9,82,0.2,996.2,8.65,46.8,184,65.7,50.8,3.8,345.0,216.0,20.5,10,5,7,1,2026-05-04T17:21:29.335150+05:30
Prayagraj,Uttar Pradesh,25.4358,81.8463,30.9,60,0.0,993.3,8.5,56.9,172,75.0,47.8,3.2,363.0,208.0,18.7,0,5,7,1,2026-05-04T17:21:29.335158+05:30
Gorakhpur,Uttar Pradesh,26.7606,83.3732,27.1,70,0.0,995.6,8.45,42.5,144,53.7,32.2,2.1,304.0,175.0,5.0,7,5,7,1,2026-05-04T17:21:29.335164+05:30
Bareilly,Uttar Pradesh,28.367,79.4304,28.5,54,0.0,986.0,6.85,60.5,116,40.9,20.4,1.6,302.0,151.0,1.4,4,5,7,1,2026-05-04T17:21:29.335171+05:30
Aligarh,Uttar Pradesh,27.8974,78.088,31.0,45,0.0,983.7,7.7,54.0,537,868.0,89.6,3.4,296.0,177.0,10.2,0,5,7,1,2026-05-04T17:21:29.335177+05:30
Moradabad,Uttar Pradesh,28.8386,78.7733,28.1,55,0.0,983.2,7.25,59.8,116,44.0,19.9,3.6,290.0,146.0,5.6,4,5,7,1,2026-05-04T17:21:29.335183+05:30
Saharanpur,Uttar Pradesh,29.9637,77.546,27.3,45,0.0,976.4,7.1,56.9,126,53.7,20.6,2.9,302.0,143.0,4.7,4,5,7,0,2026-05-04T17:21:29.335190+05:30
Jhansi,Uttar Pradesh,25.4484,78.5685,33.5,36,0.0,974.6,8.3,50.8,157,61.2,32.4,2.3,209.0,180.0,14.2,0,5,7,1,2026-05-04T17:21:32.692492+05:30
Surat,Gujarat,21.1702,72.8311,31.5,64,0.0,1001.9,7.7,50.8,60,45.6,19.6,11.9,225.0,69.0,29.1,3,5,4,1,2026-05-04T17:21:32.692523+05:30
Vadodara,Gujarat,22.3072,73.1812,37.5,29,0.0,998.2,8.05,42.8,55,53.8,19.4,2.0,176.0,126.0,3.9,0,5,10,1,2026-05-04T17:21:32.692531+05:30
Rajkot,Gujarat,22.3039,70.8022,39.3,19,0.0,987.5,7.7,44.3,51,51.2,15.9,1.2,143.0,119.0,4.4,0,5,10,0,2026-05-04T17:21:32.692538+05:30
Thane,Maharashtra,19.2183,72.9781,32.4,56,0.0,1004.3,7.85,40.3,62,37.7,17.6,5.2,205.0,89.0,16.7,0,5,4,1,2026-05-04T17:21:32.692545+05:30
Nagpur,Maharashtra,21.1458,79.0882,39.8,11,0.0,967.7,8.9,47.2,108,36.8,12.5,3.8,153.0,141.0,13.2,0,5,10,0,2026-05-04T17:21:32.692552+05:30
Nashik,Maharashtra,19.9975,73.7898,32.3,35,0.0,942.4,8.15,50.4,57,48.7,15.5,1.1,156.0,104.0,2.7,0,5,7,0,2026-05-04T17:21:32.692558+05:30
Aurangabad,Maharashtra,19.8762,75.3433,36.8,18,0.0,939.8,9.05,37.8,66,58.9,16.6,1.0,158.0,129.0,2.5,0,5,10,0,2026-05-04T17:21:32.692565+05:30
Solapur,Maharashtra,17.6599,75.9064,38.5,10,0.0,952.6,9.05,40.3,57,53.2,12.3,0.3,151.0,129.0,1.3,0,5,10,0,2026-05-04T17:21:32.692572+05:30
Kolhapur,Maharashtra,16.705,74.2433,32.7,34,0.0,945.5,8.9,47.2,58,48.8,13.6,1.9,160.0,96.0,1.3,0,5,7,0,2026-05-04T17:21:32.692578+05:30
Goa,Goa,15.2993,74.124,32.6,57,0.0,995.4,8.9,36.4,65,45.2,15.8,0.8,146.0,75.0,0.8,0,5,7,1,2026-05-04T17:21:32.692585+05:30
Jodhpur,Rajasthan,26.2389,73.0243,34.8,27,0.0,977.7,8.25,60.5,91,150.4,23.6,0.4,153.0,143.0,2.1,0,5,7,0,2026-05-04T17:21:32.692591+05:30
Udaipur,Rajasthan,24.5854,73.7125,28.0,45,0.0,943.2,8.75,43.9,63,68.7,19.8,0.6,160.0,132.0,4.5,4,5,7,0,2026-05-04T17:21:32.692597+05:30
Kota,Rajasthan,25.2138,75.8648,35.5,23,0.0,974.1,8.25,36.7,124,66.8,19.7,1.4,165.0,153.0,7.6,0,5,10,0,2026-05-04T17:21:32.692603+05:30
Bikaner,Rajasthan,28.0229,73.3119,38.5,11,0.0,976.2,8.1,52.6,132,153.7,30.3,0.3,170.0,152.0,5.9,0,5,10,0,2026-05-04T17:21:32.692609+05:30
Ajmer,Rajasthan,26.4499,74.6399,30.0,37,0.0,951.7,8.2,41.0,106,62.6,16.0,1.0,159.0,139.0,3.0,4,5,7,0,2026-05-04T17:21:32.692616+05:30
Gwalior,Madhya Pradesh,26.2183,78.1828,29.4,51,0.0,980.3,8.1,52.9,142,100.8,36.4,1.4,181.0,168.0,7.4,4,5,7,1,2026-05-04T17:21:32.692622+05:30
Indore,Madhya Pradesh,22.7196,75.8577,36.5,20,0.0,943.3,8.6,37.1,54,37.5,13.2,0.5,180.0,124.0,2.8,0,5,10,0,2026-05-04T17:21:32.692628+05:30
Bhopal,Madhya Pradesh,23.2599,77.4126,37.4,18,0.0,948.7,8.65,34.6,66,28.7,9.2,0.4,153.0,118.0,2.3,0,5,10,0,2026-05-04T17:21:32.692634+05:30
Jabalpur,Madhya Pradesh,23.1815,79.9864,37.8,19,0.0,956.9,8.85,33.1,106,20.9,8.7,1.7,184.0,133.0,3.4,0,5,10,0,2026-05-04T17:21:32.692640+05:30
Ujjain,Madhya Pradesh,23.1765,75.7885,36.5,22,0.0,948.7,8.55,43.6,49,49.0,14.8,0.2,155.0,120.0,2.9,0,5,10,0,2026-05-04T17:21:32.692646+05:30
Visakhapatnam,Andhra Pradesh,17.6868,83.2185,29.6,75,0.0,1001.1,8.05,36.7,110,41.1,29.3,13.7,389.0,119.0,10.9,7,5,4,1,2026-05-04T17:21:32.692652+05:30
Vijayawada,Andhra Pradesh,16.5062,80.648,33.9,55,0.0,998.5,9.1,34.2,139,57.6,32.0,3.8,251.0,149.0,8.1,0,5,7,1,2026-05-04T17:21:32.692658+05:30
Guntur,Andhra Pradesh,16.3067,80.4365,34.8,49,0.0,999.6,9.15,34.6,135,57.5,29.7,3.1,248.0,154.0,5.2,0,5,7,1,2026-05-04T17:21:32.692664+05:30
Nellore,Andhra Pradesh,14.4426,79.9865,32.4,67,0.0,1001.6,9.15,40.0,155,37.6,24.3,2.0,246.0,152.0,5.7,3,5,4,1,2026-05-04T17:21:32.692671+05:30
Kurnool,Andhra Pradesh,15.8281,78.0373,39.7,14,0.0,971.9,9.15,34.2,102,53.3,17.6,0.4,152.0,151.0,5.4,0,5,10,0,2026-05-04T17:21:32.692678+05:30
Kakinada,Andhra Pradesh,16.9891,82.2475,30.8,71,0.0,1004.4,9.1,30.2,122,43.5,29.0,1.7,257.0,132.0,3.0,3,5,4,1,2026-05-04T17:21:32.692684+05:30
Tirupati,Andhra Pradesh,13.6288,79.4192,34.7,38,0.0,987.5,9.3,49.7,154,48.1,30.6,2.4,200.0,171.0,5.2,0,5,7,1,2026-05-04T17:21:32.692690+05:30
Warangal,Telangana,17.9689,79.5941,37.5,24,0.0,974.2,9.15,38.9,135,51.5,21.7,2.4,201.0,155.0,6.5,0,5,10,0,2026-05-04T17:21:32.692696+05:30
Nizamabad,Telangana,18.6725,78.0941,39.5,11,0.0,959.6,9.1,33.5,80,51.6,16.5,0.0,160.0,136.0,2.9,0,5,10,0,2026-05-04T17:21:32.692702+05:30
Mysore,Karnataka,12.2958,76.6396,33.2,28,0.0,926.3,9.4,37.4,66,54.0,17.2,5.2,210.0,117.0,1.6,0,5,7,0,2026-05-04T17:21:32.692708+05:30
Mangalore,Karnataka,12.9141,74.856,31.2,64,0.0,1004.0,9.05,43.6,70,49.1,16.1,1.3,145.0,76.0,0.9,3,5,4,1,2026-05-04T17:21:32.692714+05:30
Hubli-Dharwad,Karnataka,15.3647,75.124,33.2,34,0.0,937.9,9.15,53.6,55,44.9,14.2,1.8,159.0,120.0,1.2,0,5,7,0,2026-05-04T17:21:32.692720+05:30
Belgaum,Karnataka,15.8497,74.4977,30.9,38,0.0,924.0,9.15,46.4,56,46.7,13.6,1.6,149.0,91.0,1.3,0,5,7,0,2026-05-04T17:21:36.040667+05:30
Coimbatore,Tamil Nadu,11.0168,76.9558,30.2,59,0.0,959.4,9.35,50.4,68,41.4,18.0,5.3,222.0,107.0,2.6,0,5,7,1,2026-05-04T17:21:36.040696+05:30
Madurai,Tamil Nadu,9.9252,78.1198,28.3,71,0.0,991.2,7.9,51.1,159,40.9,24.6,3.8,198.0,172.0,3.0,7,5,7,1,2026-05-04T17:21:36.040704+05:30
Trichy,Tamil Nadu,10.7905,78.7047,35.6,39,0.0,995.7,9.25,41.8,103,44.7,27.6,4.1,211.0,169.0,8.5,0,5,10,1,2026-05-04T17:21:36.040712+05:30
Salem,Tamil Nadu,11.6643,78.146,34.1,40,0.0,973.8,9.25,32.0,135,50.4,20.8,4.3,229.0,158.0,9.5,0,5,7,1,2026-05-04T17:21:36.040719+05:30
Tirunelveli,Tamil Nadu,8.7139,77.7567,33.4,48,0.0,999.6,8.15,34.9,74,59.6,24.1,2.3,201.0,107.0,1.2,0,5,7,1,2026-05-04T17:21:36.040726+05:30
Vellore,Tamil Nadu,12.9165,79.1325,32.5,46,0.2,980.9,9.0,49.0,149,53.2,28.2,2.8,216.0,177.0,6.1,3,5,7,1,2026-05-04T17:21:36.040732+05:30
Erode,Tamil Nadu,11.341,77.7172,30.4,56,0.0,985.6,9.25,54.7,89,48.9,19.8,5.3,262.0,133.0,0.9,0,5,7,1,2026-05-04T17:21:36.040739+05:30
Kochi,Kerala,9.9312,76.2673,27.9,84,0.0,1007.1,9.05,30.6,105,53.3,21.1,6.1,185.0,87.0,1.4,7,5,4,1,2026-05-04T17:21:36.040745+05:30
Thiruvananthapuram,Kerala,8.5241,76.9366,30.5,63,0.0,1006.0,7.95,44.6,70,68.7,21.2,1.4,134.0,76.0,0.7,3,5,4,1,2026-05-04T17:21:36.040752+05:30
Kozhikode,Kerala,11.2588,75.7804,29.8,75,0.0,1005.6,9.0,38.9,69,48.8,16.6,0.6,146.0,72.0,0.5,7,5,4,1,2026-05-04T17:21:36.040758+05:30
Thrissur,Kerala,10.5276,76.2144,28.0,82,0.0,1005.3,8.75,30.6,94,45.6,18.4,4.0,155.0,88.0,1.2,7,5,4,1,2026-05-04T17:21:36.040765+05:30
Kannur,Kerala,11.8745,75.3704,31.5,65,0.0,1004.7,9.0,47.2,68,49.2,17.7,1.4,145.0,80.0,0.9,3,5,4,1,2026-05-04T17:21:36.040771+05:30
Patna,Bihar,25.5941,85.1376,25.5,83,0.0,1001.4,8.7,45.7,175,68.2,48.4,6.6,289.0,189.0,13.6,7,5,4,1,2026-05-04T17:21:36.040777+05:30
Gaya,Bihar,24.7914,85.0002,28.9,67,0.1,992.7,8.8,50.4,177,68.9,52.7,4.2,287.0,189.0,9.9,10,5,7,1,2026-05-04T17:21:36.040784+05:30
Muzaffarpur,Bihar,26.1209,85.3647,24.5,88,0.0,1001.4,8.7,44.3,158,63.8,41.6,7.0,316.0,169.0,10.4,3,5,4,1,2026-05-04T17:21:36.040790+05:30
Bhagalpur,Bihar,25.2425,87.0117,30.9,59,0.0,999.9,8.7,36.4,154,63.6,46.1,7.8,310.0,169.0,7.5,0,5,7,1,2026-05-04T17:21:36.040796+05:30
Ranchi,Jharkhand,23.3441,85.3096,23.9,75,0.1,936.7,9.25,42.1,192,68.5,36.4,4.0,324.0,177.0,17.3,6,5,7,1,2026-05-04T17:21:36.040802+05:30
Jamshedpur,Jharkhand,22.8046,86.2029,25.6,77,0.0,990.1,9.05,42.5,187,48.7,35.7,4.8,263.0,163.0,14.4,7,5,7,1,2026-05-04T17:21:36.040808+05:30
Dhanbad,Jharkhand,23.7957,86.4304,25.5,80,0.0,979.4,9.0,45.0,180,73.8,59.8,15.6,307.0,187.0,36.1,7,5,7,1,2026-05-04T17:21:36.040815+05:30
Bokaro,Jharkhand,23.6693,86.1511,26.7,75,0.0,983.4,9.0,35.6,204,79.2,64.3,13.7,303.0,214.0,47.1,7,5,7,1,2026-05-04T17:21:36.040821+05:30
Bhubaneswar,Odisha,20.2961,85.8245,30.4,66,0.0,1001.0,9.1,43.2,75,28.4,20.7,3.6,181.0,110.0,2.9,3,5,4,1,2026-05-04T17:21:36.040827+05:30
Cuttack,Odisha,20.4625,85.8828,30.8,65,0.0,1002.7,9.15,40.3,75,28.4,20.7,3.6,207.0,110.0,2.9,3,5,4,1,2026-05-04T17:21:36.040833+05:30
Rourkela,Odisha,22.2604,84.8536,34.6,35,0.0,982.4,8.95,38.9,172,58.1,32.0,3.5,244.0,170.0,26.7,0,5,7,1,2026-05-04T17:21:36.040840+05:30
Raipur,Chhattisgarh,21.2514,81.6296,37.0,26,0.0,970.5,9.0,55.4,160,62.6,26.0,6.6,243.0,171.0,7.3,0,5,10,0,2026-05-04T17:21:36.040846+05:30
Bhilai,Chhattisgarh,21.1938,81.3509,36.2,28,0.0,970.7,9.0,43.9,147,55.6,22.5,5.5,393.0,168.0,6.5,0,5,10,0,2026-05-04T17:21:36.040853+05:30
Guwahati,Assam,26.1158,91.7086,24.6,86,0.0,1001.6,8.65,32.4,87,34.5,24.3,3.8,301.0,115.0,1.7,3,5,4,1,2026-05-04T17:21:36.040859+05:30
Agartala,Tripura,23.8315,91.2868,28.9,75,0.0,1005.9,8.85,33.1,61,43.2,25.8,8.1,221.0,124.0,1.8,7,5,4,1,2026-05-04T17:21:36.040865+05:30
Shillong,Meghalaya,25.5788,91.8933,18.5,81,0.1,857.1,9.05,30.6,66,17.3,13.0,3.5,252.0,117.0,1.4,6,10,7,0,2026-05-04T17:21:36.040871+05:30
Imphal,Manipur,24.817,93.9368,23.9,72,0.0,923.5,6.85,20.9,94,21.6,13.3,4.6,330.0,102.0,1.5,3,5,7,1,2026-05-04T17:21:36.040877+05:30
Aizawl,Mizoram,23.7271,92.7176,22.1,73,0.0,893.1,8.45,29.5,47,35.9,19.7,2.6,176.0,97.0,1.1,3,5,7,1,2026-05-04T17:21:36.040883+05:30
Kohima,Nagaland,25.6701,94.1077,19.0,86,0.0,855.6,8.9,26.6,73,23.6,14.0,4.1,235.0,96.0,0.9,3,10,7,1,2026-05-04T17:21:36.040889+05:30
Gangtok,Sikkim,27.3314,88.6138,16.0,94,0.0,837.1,7.8,37.1,89,17.8,12.0,3.5,284.0,120.0,0.5,3,10,7,0,2026-05-04T17:21:36.040895+05:30
Siliguri,West Bengal,26.7271,88.3953,27.1,71,0.0,992.8,8.55,30.6,97,29.7,20.0,6.0,610.0,124.0,1.4,7,5,7,1,2026-05-04T17:21:39.390026+05:30
Durgapur,West Bengal,23.5204,87.3119,26.2,85,0.0,994.6,8.95,46.4,128,54.0,45.2,13.9,276.0,153.0,26.5,7,5,7,1,2026-05-04T17:21:39.390057+05:30
Asansol,West Bengal,23.6739,86.9524,27.2,76,0.0,993.2,8.95,46.1,142,66.6,55.3,14.9,299.0,161.0,29.4,7,5,7,1,2026-05-04T17:21:39.390080+05:30
Pondicherry,Puducherry,11.9139,79.8145,31.0,78,0.0,1004.3,8.4,46.8,81,30.0,23.2,3.5,203.0,142.0,3.7,3,5,4,1,2026-05-04T17:21:39.390090+05:30
Port Blair,Andaman and Nicobar Islands,11.6234,92.7265,30.0,68,0.0,1005.8,9.1,34.9,25,8.7,6.5,0.5,165.0,51.0,1.3,7,5,4,1,2026-05-04T17:21:39.390099+05:30
Haridwar,Uttarakhand,29.9457,78.1642,26.8,54,0.0,974.7,6.25,43.9,113,56.5,18.8,0.7,259.0,148.0,2.6,4,5,7,1,2026-05-04T17:21:39.390107+05:30
Rishikesh,Uttarakhand,30.0869,78.2676,25.7,51,0.0,967.9,6.2,36.4,110,62.4,18.2,0.6,242.0,143.0,1.4,4,5,7,0,2026-05-04T17:21:39.390116+05:30
Nainital,Uttarakhand,29.3919,79.4542,16.2,52,0.0,805.8,7.8,43.9,103,45.6,16.5,0.4,219.0,143.0,1.2,0,5,7,0,2026-05-04T17:21:39.390124+05:30
Mussoorie,Uttarakhand,30.4599,78.0664,11.5,83,0.0,802.1,6.75,43.2,102,73.8,22.5,1.8,200.0,144.0,3.4,3,10,7,0,2026-05-04T17:21:39.390132+05:30
Dharamshala,Himachal Pradesh,32.219,76.3234,17.6,62,0.0,868.9,8.1,42.1,98,66.1,15.9,0.6,210.0,141.0,1.1,3,5,7,0,2026-05-04T17:21:39.390140+05:30
Dalhousie,Himachal Pradesh,32.5387,75.971,12.0,74,0.0,803.8,8.25,38.2,97,120.6,27.5,0.8,206.0,152.0,2.8,3,5,7,0,2026-05-04T17:21:39.390148+05:30
Patiala,Punjab,30.3398,76.3869,27.0,52,0.0,978.6,7.4,52.6,429,128.5,33.5,3.6,301.0,150.0,5.2,4,5,7,1,2026-05-04T17:21:39.390156+05:30
Bhatinda,Punjab,30.211,74.9455,32.2,27,0.0,982.3,8.0,47.5,669,644.5,95.9,5.2,272.0,150.0,12.3,0,5,7,0,2026-05-04T17:21:39.390163+05:30
Rohtak,Haryana,28.8955,76.6066,31.0,33,0.0,980.7,7.5,51.1,705,860.5,94.3,12.6,312.0,166.0,21.4,0,5,7,0,2026-05-04T17:21:39.390170+05:30
Panipat,Haryana,29.3909,76.9635,29.5,41,0.0,980.3,7.35,46.1,1195,1542.3,139.2,6.5,279.0,167.0,14.7,4,5,7,0,2026-05-04T17:21:39.390178+05:30
Mathura,Uttar Pradesh,27.4924,77.6737,31.8,37,0.0,984.6,7.8,52.2,963,542.0,71.7,4.1,264.0,165.0,7.7,0,5,7,0,2026-05-04T17:21:39.390185+05:30
Vrindavan,Uttar Pradesh,27.5823,77.7027,32.2,35,0.0,985.1,7.8,51.1,963,542.0,71.7,4.1,263.0,165.0,7.7,0,5,7,0,2026-05-04T17:21:39.390192+05:30
Ayodhya,Uttar Pradesh,26.7922,82.1998,29.2,59,0.0,993.4,7.55,43.2,131,49.6,31.5,2.2,290.0,176.0,5.6,4,5,7,1,2026-05-04T17:21:39.390200+05:30
Ratlam,Madhya Pradesh,23.3315,75.0367,36.5,21,0.0,949.7,8.45,34.6,48,54.1,14.9,0.6,151.0,119.0,2.8,0,5,10,0,2026-05-04T17:21:39.390207+05:30
Sagar,Madhya Pradesh,23.8388,78.7378,33.4,29,0.0,946.4,8.65,43.6,116,21.5,13.3,0.5,177.0,147.0,4.9,0,5,7,0,2026-05-04T17:21:39.390215+05:30
Satna,Madhya Pradesh,24.6005,80.8322,32.7,42,0.0,968.2,8.2,42.8,149,73.1,25.5,1.5,227.0,175.0,9.1,0,5,7,1,2026-05-04T17:21:39.390223+05:30
Akola,Maharashtra,20.7002,77.0082,39.2,14,0.0,969.1,8.85,34.6,72,40.4,13.1,1.6,158.0,136.0,9.9,0,5,10,0,2026-05-04T17:21:39.390232+05:30
Amravati,Maharashtra,20.9374,77.7796,38.8,13,0.0,961.9,8.9,36.7,77,43.9,13.9,1.3,146.0,139.0,7.2,0,5,10,0,2026-05-04T17:21:39.390241+05:30
Latur,Maharashtra,18.4088,76.5604,38.2,9,0.0,935.5,9.1,37.8,56,42.1,10.4,0.0,147.0,124.0,0.9,0,5,10,0,2026-05-04T17:21:39.390248+05:30
Nanded,Maharashtra,19.1383,77.3091,39.7,11,0.0,963.1,9.0,29.9,68,49.1,14.5,0.5,156.0,133.0,4.6,0,5,10,0,2026-05-04T17:21:39.390256+05:30
Gulbarga,Karnataka,17.3297,76.8343,39.1,11,0.0,954.0,9.1,40.0,58,45.4,12.2,0.0,159.0,130.0,1.7,0,5,10,0,2026-05-04T17:21:39.390263+05:30
Bidar,Karnataka,17.9104,77.5199,38.2,11,0.0,931.4,9.1,28.4,80,56.2,16.1,1.0,150.0,133.0,2.3,0,5,10,0,2026-05-04T17:21:39.390270+05:30
Hospet,Karnataka,15.2689,76.3909,36.7,19,0.0,951.6,9.15,41.8,57,42.7,13.7,1.2,177.0,125.0,1.2,0,5,10,0,2026-05-04T17:21:39.390277+05:30
Tirupur,Tamil Nadu,11.1085,77.3411,32.0,53,0.0,972.5,9.35,36.7,83,51.2,20.6,7.0,222.0,123.0,2.4,0,5,7,1,2026-05-04T17:21:39.390285+05:30
Alappuzha,Kerala,9.4981,76.3388,27.4,84,0.0,1007.1,8.95,38.5,87,62.9,23.4,3.9,141.0,89.0,2.1,7,5,4,1,2026-05-04T17:21:39.390292+05:30
Munnar,Kerala,10.0889,77.0595,20.1,90,0.0,855.9,7.7,28.4,77,37.1,21.0,3.4,191.0,104.0,1.3,3,5,7,1,2026-05-04T17:21:39.390300+05:30
Silchar,Assam,24.8333,92.7789,27.3,80,0.0,1005.0,6.1,22.7,95,17.3,12.3,4.1,249.0,105.0,4.3,7,5,4,1,2026-05-04T17:21:39.390307+05:30
Dibrugarh,Assam,27.4728,94.912,25.5,81,0.0,996.4,8.7,22.3,90,19.4,15.7,4.8,295.0,98.0,1.2,7,5,7,1,2026-05-04T17:21:39.390315+05:30
