city,state,latitude,longitude,temp,humidity,rain,pressure,uv_index,wind_gusts,aqi,pm10,pm2_5,no2,co,o3,so2,mosquito_risk,arthritis_risk,migraine_risk,frizz_risk,updated_at
Delhi,Delhi,28.6139,77.209,28.8,76,0.0,976.8,7.7,24.1,272,130.4,64.5,35.1,559.0,38.0,15.7,7,5,7,1,2026-07-15T01:44:16.252473+05:30
Mumbai,Maharashtra,19.076,72.8777,27.7,79,0.0,1007.2,7.6,46.1,72,36.8,16.3,4.9,150.0,47.0,4.2,7,5,4,1,2026-07-15T01:44:16.252519+05:30
Bangalore,Karnataka,12.9716,77.5946,21.6,78,0.0,910.7,8.9,42.1,59,18.8,14.3,15.7,229.0,45.0,5.3,3,5,7,1,2026-07-15T01:44:16.252535+05:30
Hyderabad,Telangana,17.385,78.4867,27.5,66,0.0,950.8,9.05,44.6,64,27.2,21.1,16.1,311.0,44.0,6.5,7,5,7,1,2026-07-15T01:44:16.252544+05:30
Chennai,Tamil Nadu,13.0827,80.2707,29.8,75,0.0,1004.1,8.9,36.0,75,29.2,19.3,9.9,236.0,84.0,7.7,7,5,4,1,2026-07-15T01:44:16.252552+05:30
Kolkata,West Bengal,22.5726,88.3639,27.1,96,0.0,999.0,8.2,36.0,135,85.9,83.6,50.3,1195.0,12.0,22.9,7,5,7,1,2026-07-15T01:44:16.252559+05:30
Pune,Maharashtra,18.5204,73.8567,23.5,87,0.0,947.1,8.35,48.2,57,11.7,6.7,7.8,133.0,36.0,6.5,3,5,7,1,2026-07-15T01:44:16.252566+05:30
Ahmedabad,Gujarat,23.0225,72.5714,29.0,71,0.0,998.6,8.1,40.3,64,24.3,14.1,8.1,134.0,35.0,4.4,7,5,7,1,2026-07-15T01:44:16.252572+05:30
Jaipur,Rajasthan,26.9124,75.7873,29.3,58,0.0,955.1,8.05,38.5,439,499.2,95.7,10.5,197.0,43.0,4.7,4,5,7,1,2026-07-15T01:44:16.252579+05:30
Lucknow,Uttar Pradesh,26.8467,80.9462,29.7,78,0.0,986.7,8.2,21.2,161,158.3,93.1,42.6,261.0,20.0,12.0,7,5,7,1,2026-07-15T01:44:16.252590+05:30
Kanpur,Uttar Pradesh,26.4499,80.3319,29.6,71,0.0,985.4,7.6,27.7,149,98.0,45.9,13.7,165.0,51.0,5.3,7,5,7,1,2026-07-15T01:44:16.252597+05:30
Chandigarh,Chandigarh,30.7333,76.7794,27.4,81,0.0,962.3,7.7,26.6,173,136.0,114.6,59.4,1017.0,31.0,17.9,7,5,7,1,2026-07-15T01:44:16.252605+05:30
Srinagar,Jammu and Kashmir,34.0837,74.7973,19.3,85,0.0,837.4,8.95,16.6,82,37.1,35.3,33.6,703.0,16.0,2.9,3,10,7,1,2026-07-15T01:44:16.252613+05:30
Jammu,Jammu and Kashmir,32.7266,74.857,25.7,89,0.0,966.0,8.55,23.8,153,88.9,70.3,61.2,792.0,6.0,6.2,7,5,7,1,2026-07-15T01:44:16.252620+05:30
Amritsar,Punjab,31.634,74.8723,28.6,81,0.0,974.1,8.4,20.2,184,162.1,126.2,71.0,1488.0,9.0,10.6,7,5,7,1,2026-07-15T01:44:16.252650+05:30
Ludhiana,Punjab,30.901,75.8573,28.6,85,0.0,972.2,7.95,23.0,188,213.3,160.2,91.3,1664.0,12.0,16.8,7,5,7,1,2026-07-15T01:44:16.252661+05:30
Jalandhar,Punjab,31.326,75.5762,27.7,87,0.0,973.2,8.15,22.3,197,244.0,193.7,104.9,1568.0,0.0,14.5,7,5,7,1,2026-07-15T01:44:16.252668+05:30
Dehradun,Uttarakhand,30.6284,78.0322,18.3,98,0.1,827.4,7.7,27.4,115,68.2,36.4,30.6,286.0,45.0,2.5,6,10,7,1,2026-07-15T01:44:16.252675+05:30
Shimla,Himachal Pradesh,31.1048,77.1734,14.1,99,0.0,780.5,8.2,38.2,151,97.6,71.0,27.3,430.0,52.0,2.0,3,10,7,0,2026-07-15T01:44:16.252682+05:30
Manali,Himachal Pradesh,32.2396,77.1887,18.3,90,0.0,816.3,9.25,32.0,55,17.9,13.3,30.5,246.0,79.0,0.0,3,10,7,1,2026-07-15T01:44:16.252691+05:30
Gurgaon,Haryana,28.4595,77.0266,29.1,71,0.0,975.3,7.75,29.5,309,108.3,55.3,32.8,461.0,39.0,11.8,7,5,7,1,2026-07-15T01:44:16.252699+05:30
Noida,Uttar Pradesh,28.5355,77.391,28.6,78,0.0,978.2,7.7,20.2,309,108.3,55.3,32.8,714.0,39.0,11.8,7,5,7,1,2026-07-15T01:44:16.252705+05:30
Ghaziabad,Uttar Pradesh,28.6692,77.4538,28.5,79,0.0,976.5,7.7,19.1,192,139.2,78.0,47.1,392.0,22.0,18.8,7,5,7,1,2026-07-15T01:44:16.252712+05:30
Faridabad,Haryana,28.4089,77.3178,28.7,76,0.0,977.5,7.75,23.8,309,108.3,55.3,32.8,598.0,39.0,11.8,7,5,7,1,2026-07-15T01:44:16.252718+05:30
Meerut,Uttar Pradesh,28.9845,77.7064,28.2,79,0.0,975.2,7.6,22.7,192,139.2,78.0,47.1,474.0,22.0,18.8,7,5,7,1,2026-07-15T01:44:16.252724+05:30
Agra,Uttar Pradesh,27.1767,78.0081,28.7,74,0.0,981.9,5.35,34.6,152,144.4,55.8,20.6,161.0,40.0,6.2,7,5,3,1,2026-07-15T01:44:16.252731+05:30
Varanasi,Uttar Pradesh,25.3176,82.9739,29.1,93,0.0,991.1,7.5,28.1,157,156.9,84.3,32.3,736.0,39.0,16.4,7,5,7,1,2026-07-15T01:44:16.252738+05:30
Prayagraj,Uttar Pradesh,25.4358,81.8463,30.0,72,0.0,989.7,8.6,27.0,153,94.3,54.4,20.0,252.0,49.0,9.2,7,5,7,1,2026-07-15T01:44:16.252744+05:30
Gorakhpur,Uttar Pradesh,26.7606,83.3732,26.7,95,0.0,991.1,8.25,27.0,156,98.5,57.7,16.5,642.0,84.0,8.6,7,5,7,1,2026-07-15T01:44:16.252751+05:30
Bareilly,Uttar Pradesh,28.367,79.4304,28.1,79,0.0,980.4,7.9,20.2,181,203.0,88.5,16.5,291.0,79.0,8.8,7,5,7,1,2026-07-15T01:44:16.252760+05:30
Aligarh,Uttar Pradesh,27.8974,78.088,27.9,74,0.0,979.6,7.55,34.2,205,142.5,71.9,28.0,203.0,37.0,7.8,7,5,7,1,2026-07-15T01:44:16.252766+05:30
Moradabad,Uttar Pradesh,28.8386,78.7733,27.8,76,0.0,977.5,7.8,22.3,191,258.0,102.2,18.9,657.0,74.0,13.7,7,5,7,1,2026-07-15T01:44:16.252774+05:30
Saharanpur,Uttar Pradesh,29.9637,77.546,28.4,85,0.0,969.7,7.35,24.8,194,257.0,151.8,84.8,872.0,8.0,26.8,7,5,7,1,2026-07-15T01:44:16.252781+05:30
Jhansi,Uttar Pradesh,25.4484,78.5685,28.5,69,0.0,972.9,7.35,37.4,104,54.1,31.4,11.4,171.0,49.0,8.2,7,5,7,1,2026-07-15T01:44:19.654613+05:30
Surat,Gujarat,21.1702,72.8311,26.7,88,0.1,1004.5,7.75,47.2,70,24.7,16.4,20.1,337.0,27.0,31.7,10,5,4,1,2026-07-15T01:44:19.654672+05:30
Vadodara,Gujarat,22.3072,73.1812,28.1,78,0.0,1001.3,7.0,42.1,63,16.9,11.1,9.3,136.0,33.0,6.0,7,5,4,1,2026-07-15T01:44:19.654683+05:30
Rajkot,Gujarat,22.3039,70.8022,26.5,89,0.0,991.0,7.25,40.7,56,14.0,7.8,4.9,101.0,38.0,3.6,7,5,7,1,2026-07-15T01:44:19.654692+05:30
Thane,Maharashtra,19.2183,72.9781,26.3,86,0.0,1006.6,7.25,36.0,72,36.8,16.3,4.9,189.0,47.0,4.2,7,5,4,1,2026-07-15T01:44:19.654700+05:30
Nagpur,Maharashtra,21.1458,79.0882,27.6,64,0.0,970.0,8.8,51.5,76,31.4,23.2,15.0,242.0,42.0,8.8,7,5,7,1,2026-07-15T01:44:19.654708+05:30
Nashik,Maharashtra,19.9975,73.7898,22.8,94,0.0,943.7,7.9,43.9,57,6.1,3.4,7.5,116.0,36.0,6.0,3,5,7,1,2026-07-15T01:44:19.654716+05:30
Aurangabad,Maharashtra,19.8762,75.3433,23.6,84,0.0,942.4,8.4,45.4,61,15.9,9.7,9.6,159.0,41.0,11.2,3,5,7,1,2026-07-15T01:44:19.654724+05:30
Solapur,Maharashtra,17.6599,75.9064,25.7,70,0.0,956.1,8.5,67.3,59,24.2,15.4,6.0,141.0,43.0,2.5,7,5,7,1,2026-07-15T01:44:19.654732+05:30
Kolhapur,Maharashtra,16.705,74.2433,22.4,92,0.0,947.7,8.35,51.8,55,22.4,12.3,5.2,130.0,38.0,2.7,3,5,7,1,2026-07-15T01:44:19.654740+05:30
Goa,Goa,15.2993,74.124,24.8,96,0.0,998.5,8.05,33.5,72,48.7,28.3,7.7,690.0,41.0,2.3,3,5,7,1,2026-07-15T01:44:19.654748+05:30
Jodhpur,Rajasthan,26.2389,73.0243,30.2,57,0.0,977.6,8.15,38.9,188,198.4,51.2,5.3,115.0,51.0,2.3,0,5,7,1,2026-07-15T01:44:19.654755+05:30
Udaipur,Rajasthan,24.5854,73.7125,25.3,77,0.0,942.5,8.8,34.9,72,38.1,20.5,7.2,117.0,50.0,4.5,7,5,7,1,2026-07-15T01:44:19.654763+05:30
Kota,Rajasthan,25.2138,75.8648,29.2,63,0.0,974.5,8.3,34.9,87,42.1,24.4,8.5,180.0,61.0,6.5,7,5,7,1,2026-07-15T01:44:19.654771+05:30
Bikaner,Rajasthan,28.0229,73.3119,31.5,50,0.0,975.7,8.4,38.5,172,332.5,96.6,3.2,123.0,56.0,3.2,0,5,7,1,2026-07-15T01:44:19.654778+05:30
Ajmer,Rajasthan,26.4499,74.6399,26.9,67,0.0,950.0,8.3,46.8,102,51.8,25.8,7.1,147.0,50.0,3.8,7,5,7,1,2026-07-15T01:44:19.654786+05:30
Gwalior,Madhya Pradesh,26.2183,78.1828,29.3,71,0.0,977.6,2.05,41.0,107,70.5,34.9,10.6,146.0,43.0,3.2,7,5,3,1,2026-07-15T01:44:19.654794+05:30
Indore,Madhya Pradesh,22.7196,75.8577,24.2,87,0.0,945.2,8.6,38.9,67,19.7,13.9,9.4,203.0,46.0,10.2,3,5,7,1,2026-07-15T01:44:19.654802+05:30
Bhopal,Madhya Pradesh,23.2599,77.4126,25.5,73,0.0,950.2,7.55,43.6,74,31.1,22.5,10.2,282.0,52.0,4.6,7,5,7,1,2026-07-15T01:44:19.654809+05:30
Jabalpur,Madhya Pradesh,23.1815,79.9864,26.2,77,0.0,957.5,8.8,32.4,90,33.9,24.2,8.4,245.0,55.0,4.0,7,5,7,1,2026-07-15T01:44:19.654816+05:30
Ujjain,Madhya Pradesh,23.1765,75.7885,24.7,86,0.0,950.8,8.45,38.2,67,19.8,13.6,8.9,200.0,43.0,9.7,3,5,7,1,2026-07-15T01:44:19.654824+05:30
Visakhapatnam,Andhra Pradesh,17.6868,83.2185,29.9,70,0.0,997.4,1.55,26.3,135,47.1,34.5,36.4,319.0,40.0,50.1,7,5,3,1,2026-07-15T01:44:19.654832+05:30
Vijayawada,Andhra Pradesh,16.5062,80.648,29.8,62,0.0,998.6,6.2,45.4,78,33.1,27.1,16.7,204.0,41.0,9.3,7,5,7,1,2026-07-15T01:44:19.654839+05:30
Guntur,Andhra Pradesh,16.3067,80.4365,30.6,56,0.0,999.7,6.85,48.2,72,35.4,29.8,20.5,221.0,33.0,9.5,0,5,7,1,2026-07-15T01:44:19.654846+05:30
Nellore,Andhra Pradesh,14.4426,79.9865,30.2,50,0.0,1002.2,8.25,49.7,68,34.5,25.8,12.3,278.0,81.0,5.6,0,5,4,1,2026-07-15T01:44:19.654854+05:30
Kurnool,Andhra Pradesh,15.8281,78.0373,30.1,51,0.0,975.1,8.8,64.1,60,20.3,14.1,8.0,158.0,55.0,4.9,0,5,7,1,2026-07-15T01:44:19.654862+05:30
Kakinada,Andhra Pradesh,16.9891,82.2475,30.1,67,0.0,1002.1,5.75,52.2,91,38.2,26.5,9.1,222.0,70.0,9.0,3,5,0,1,2026-07-15T01:44:19.654869+05:30
Tirupati,Andhra Pradesh,13.6288,79.4192,29.4,44,0.0,988.4,8.9,35.6,82,62.2,50.4,56.8,171.0,2.0,6.1,4,5,7,0,2026-07-15T01:44:19.654876+05:30
Warangal,Telangana,17.9689,79.5941,27.9,67,0.0,975.2,9.0,45.0,70,28.1,22.4,10.4,207.0,57.0,5.4,7,5,7,1,2026-07-15T01:44:19.654884+05:30
Nizamabad,Telangana,18.6725,78.0941,27.9,59,0.0,962.3,8.9,42.8,68,29.2,22.2,9.8,222.0,63.0,6.0,4,5,7,1,2026-07-15T01:44:19.654891+05:30
Mysore,Karnataka,12.2958,76.6396,20.7,96,0.0,927.8,8.8,44.3,57,20.9,15.0,12.0,162.0,42.0,3.1,3,5,7,1,2026-07-15T01:44:19.654898+05:30
Mangalore,Karnataka,12.9141,74.856,26.1,87,0.0,1007.6,8.75,38.2,62,31.1,19.3,9.4,174.0,32.0,3.1,7,5,4,1,2026-07-15T01:44:19.654905+05:30
Hubli-Dharwad,Karnataka,15.3647,75.124,21.2,99,0.0,940.6,7.0,51.8,54,17.5,10.4,5.2,134.0,38.0,1.9,3,5,7,1,2026-07-15T01:44:19.654912+05:30
Belgaum,Karnataka,15.8497,74.4977,20.4,99,0.0,925.3,6.8,51.5,54,18.3,10.0,5.5,113.0,36.0,2.1,3,5,7,1,2026-07-15T01:44:23.021757+05:30
Coimbatore,Tamil Nadu,11.0168,76.9558,24.2,91,0.0,961.0,6.8,51.5,57,17.3,12.7,8.0,188.0,40.0,3.8,3,5,7,1,2026-07-15T01:44:23.021791+05:30
Madurai,Tamil Nadu,9.9252,78.1198,29.8,64,0.0,991.5,8.8,33.5,76,43.9,34.5,42.9,187.0,15.0,8.9,7,5,7,1,2026-07-15T01:44:23.021803+05:30
Trichy,Tamil Nadu,10.7905,78.7047,29.3,68,0.0,998.3,8.8,47.5,69,26.3,20.1,17.8,152.0,37.0,5.5,7,5,7,1,2026-07-15T01:44:23.021812+05:30
Salem,Tamil Nadu,11.6643,78.146,26.3,81,0.0,976.2,7.35,21.6,72,28.6,21.9,21.6,305.0,33.0,6.9,7,5,7,1,2026-07-15T01:44:23.021820+05:30
Tirunelveli,Tamil Nadu,8.7139,77.7567,29.1,64,0.0,1001.7,8.55,44.3,52,17.0,12.0,7.5,140.0,37.0,2.8,7,5,4,1,2026-07-15T01:44:23.021830+05:30
Vellore,Tamil Nadu,12.9165,79.1325,29.1,45,0.0,982.1,8.75,39.2,81,58.2,46.1,43.8,273.0,19.0,10.2,4,5,7,1,2026-07-15T01:44:23.021838+05:30
Erode,Tamil Nadu,11.341,77.7172,26.7,78,0.0,988.0,8.35,45.7,62,23.7,17.5,16.1,170.0,33.0,4.5,7,5,7,1,2026-07-15T01:44:23.021846+05:30
Kochi,Kerala,9.9312,76.2673,27.3,88,0.0,1009.7,8.6,41.8,60,28.3,20.6,15.8,102.0,22.0,4.4,7,0,4,1,2026-07-15T01:44:23.021855+05:30
Thiruvananthapuram,Kerala,8.5241,76.9366,25.9,92,0.0,1009.1,8.45,47.9,56,25.0,13.6,3.7,155.0,46.0,1.4,7,0,4,1,2026-07-15T01:44:23.021863+05:30
Kozhikode,Kerala,11.2588,75.7804,25.1,91,0.0,1008.7,7.4,40.7,56,25.8,13.3,2.4,206.0,52.0,1.5,7,0,4,1,2026-07-15T01:44:23.021871+05:30
Thrissur,Kerala,10.5276,76.2144,25.7,90,0.0,1008.0,8.3,38.9,57,21.6,13.9,7.2,173.0,32.0,2.8,7,0,4,1,2026-07-15T01:44:23.021879+05:30
Kannur,Kerala,11.8745,75.3704,25.9,89,0.0,1007.8,8.7,40.3,58,22.8,14.2,9.7,239.0,29.0,2.6,7,5,4,1,2026-07-15T01:44:23.021887+05:30
Patna,Bihar,25.5941,85.1376,29.2,91,0.0,994.3,8.3,25.6,156,120.6,71.2,24.6,455.0,71.0,11.7,7,5,7,1,2026-07-15T01:44:23.021894+05:30
Gaya,Bihar,24.7914,85.0002,27.9,94,0.0,987.9,7.65,27.0,160,117.3,77.3,28.7,343.0,47.0,10.9,7,5,7,1,2026-07-15T01:44:23.021902+05:30
Muzaffarpur,Bihar,26.1209,85.3647,28.2,95,0.0,994.4,7.0,22.3,156,105.0,73.3,24.1,539.0,74.0,11.3,7,5,7,1,2026-07-15T01:44:23.021910+05:30
Bhagalpur,Bihar,25.2425,87.0117,26.9,99,0.1,995.3,6.85,23.4,106,42.1,39.1,15.3,400.0,75.0,10.8,10,5,7,1,2026-07-15T01:44:23.021918+05:30
Ranchi,Jharkhand,23.3441,85.3096,25.0,87,0.0,932.5,7.65,31.7,147,121.1,71.2,27.0,314.0,32.0,8.2,7,5,7,1,2026-07-15T01:44:23.021926+05:30
Jamshedpur,Jharkhand,22.8046,86.2029,26.7,94,0.0,984.6,7.15,24.8,152,80.8,60.5,26.6,1027.0,51.0,28.9,7,5,7,1,2026-07-15T01:44:23.021933+05:30
Dhanbad,Jharkhand,23.7957,86.4304,25.8,99,0.1,974.1,8.3,23.4,162,126.2,100.6,72.4,770.0,9.0,259.2,10,5,7,1,2026-07-15T01:44:23.021941+05:30
Bokaro,Jharkhand,23.6693,86.1511,26.3,96,0.1,978.0,7.75,28.8,164,134.1,98.5,50.0,335.0,23.0,212.5,10,5,7,1,2026-07-15T01:44:23.021949+05:30
Bhubaneswar,Odisha,20.2961,85.8245,26.7,93,0.0,995.7,7.2,38.5,118,58.3,42.0,16.6,302.0,61.0,14.1,7,5,7,1,2026-07-15T01:44:23.021957+05:30
Cuttack,Odisha,20.4625,85.8828,27.1,89,0.0,997.2,7.55,37.1,118,58.3,42.0,16.6,236.0,61.0,14.1,7,5,7,1,2026-07-15T01:44:23.021964+05:30
Rourkela,Odisha,22.2604,84.8536,27.1,94,0.0,979.3,7.65,42.8,146,116.2,63.8,23.4,1025.0,67.0,23.6,7,5,7,1,2026-07-15T01:44:23.021972+05:30
Raipur,Chhattisgarh,21.2514,81.6296,28.0,79,0.0,970.1,8.35,34.2,124,64.3,43.0,37.2,578.0,34.0,57.9,7,5,7,1,2026-07-15T01:44:23.021980+05:30
Bhilai,Chhattisgarh,21.1938,81.3509,27.8,76,0.0,970.6,7.8,33.5,108,51.2,35.7,26.0,912.0,46.0,42.0,7,5,7,1,2026-07-15T01:44:23.021988+05:30
Guwahati,Assam,26.1158,91.7086,26.3,97,0.1,995.2,4.65,27.4,53,9.3,8.9,8.4,276.0,42.0,1.2,10,5,3,1,2026-07-15T01:44:23.021996+05:30
Agartala,Tripura,23.8315,91.2868,26.7,90,0.0,1000.1,7.25,40.0,73,25.1,23.9,19.1,232.0,26.0,2.7,7,5,4,1,2026-07-15T01:44:23.022004+05:30
Shillong,Meghalaya,25.5788,91.8933,18.7,99,0.0,852.5,5.45,29.5,55,6.7,6.4,5.5,281.0,68.0,2.3,3,10,3,1,2026-07-15T01:44:23.022011+05:30
Imphal,Manipur,24.817,93.9368,23.3,96,0.1,919.4,9.1,29.2,49,10.5,9.6,7.5,365.0,41.0,1.6,6,5,7,1,2026-07-15T01:44:23.022020+05:30
Aizawl,Mizoram,23.7271,92.7176,19.7,99,0.1,887.6,8.35,36.0,40,1.7,1.5,4.2,160.0,35.0,0.4,6,10,7,1,2026-07-15T01:44:23.022028+05:30
Kohima,Nagaland,25.6701,94.1077,19.5,96,0.0,851.1,6.9,24.1,39,7.1,6.7,10.3,237.0,24.0,0.8,3,10,7,1,2026-07-15T01:44:23.022035+05:30
Gangtok,Sikkim,27.3314,88.6138,18.0,94,0.1,834.3,5.95,32.8,37,6.9,6.4,6.5,375.0,76.0,1.5,6,10,3,1,2026-07-15T01:44:23.022043+05:30
Siliguri,West Bengal,26.7271,88.3953,27.3,92,0.0,987.1,4.4,20.5,69,36.1,33.5,21.5,831.0,56.0,6.2,7,5,3,1,2026-07-15T01:44:26.460346+05:30
Durgapur,West Bengal,23.5204,87.3119,25.5,99,0.0,989.1,8.65,33.1,160,108.0,90.6,51.0,510.0,30.0,60.4,7,5,7,1,2026-07-15T01:44:26.460380+05:30
Asansol,West Bengal,23.6739,86.9524,25.7,99,0.1,987.6,8.25,21.6,156,93.4,72.2,60.4,831.0,18.0,81.2,10,5,7,1,2026-07-15T01:44:26.460392+05:30
Pondicherry,Puducherry,11.9139,79.8145,28.8,79,0.0,1005.9,7.4,46.1,73,17.3,11.8,8.3,168.0,63.0,5.8,7,5,4,1,2026-07-15T01:44:26.460402+05:30
Port Blair,Andaman and Nicobar Islands,11.6234,92.7265,27.8,78,0.0,1005.1,8.45,56.2,48,19.3,9.1,0.2,85.0,52.0,0.3,7,5,4,1,2026-07-15T01:44:26.460411+05:30
Haridwar,Uttarakhand,29.9457,78.1642,25.8,95,0.2,967.9,7.5,24.5,181,231.0,126.2,46.7,399.0,45.0,18.7,10,5,7,1,2026-07-15T01:44:26.460419+05:30
Rishikesh,Uttarakhand,30.0869,78.2676,24.9,95,0.2,961.4,7.6,24.5,164,174.6,76.4,8.8,441.0,112.0,9.2,6,5,7,1,2026-07-15T01:44:26.460428+05:30
Nainital,Uttarakhand,29.3919,79.4542,16.2,100,0.0,802.3,7.7,24.8,166,170.4,73.1,16.5,361.0,73.0,7.8,3,10,7,1,2026-07-15T01:44:26.460437+05:30
Mussoorie,Uttarakhand,30.4599,78.0664,16.6,99,0.0,800.0,7.75,32.8,160,115.9,61.2,28.6,369.0,72.0,10.0,3,10,7,1,2026-07-15T01:44:26.460446+05:30
Dharamshala,Himachal Pradesh,32.219,76.3234,22.2,81,0.0,865.6,8.25,33.1,74,21.6,13.8,17.5,384.0,19.0,0.5,3,5,7,1,2026-07-15T01:44:26.460454+05:30
Dalhousie,Himachal Pradesh,32.5387,75.971,15.4,92,0.0,800.2,8.4,30.2,153,99.7,63.6,52.0,450.0,41.0,5.0,3,10,7,0,2026-07-15T01:44:26.460466+05:30
Patiala,Punjab,30.3398,76.3869,28.4,88,0.0,971.7,7.6,24.5,193,242.1,125.7,45.7,1003.0,34.0,10.6,7,5,7,1,2026-07-15T01:44:26.460477+05:30
Bhatinda,Punjab,30.211,74.9455,31.9,61,0.0,976.9,8.25,24.5,181,177.4,116.2,50.5,616.0,43.0,11.5,3,5,7,1,2026-07-15T01:44:26.460485+05:30
Rohtak,Haryana,28.8955,76.6066,29.4,75,0.0,975.5,7.65,25.6,463,106.9,57.4,30.5,443.0,32.0,4.3,7,5,7,1,2026-07-15T01:44:26.460493+05:30
Panipat,Haryana,29.3909,76.9635,28.8,81,0.0,974.0,7.55,24.5,686,146.2,68.0,21.9,543.0,47.0,3.7,7,5,7,1,2026-07-15T01:44:26.460501+05:30
Mathura,Uttar Pradesh,27.4924,77.6737,28.6,69,0.0,980.9,7.85,35.3,582,484.3,120.1,39.0,212.0,20.0,6.2,7,5,7,1,2026-07-15T01:44:26.460509+05:30
Vrindavan,Uttar Pradesh,27.5823,77.7027,29.2,66,0.0,981.2,7.9,30.6,582,484.3,120.1,39.0,234.0,20.0,6.2,7,5,7,1,2026-07-15T01:44:26.460517+05:30
Ayodhya,Uttar Pradesh,26.7922,82.1998,26.8,93,0.0,989.4,8.35,33.5,166,174.6,95.0,30.4,661.0,46.0,9.0,7,5,7,1,2026-07-15T01:44:26.460525+05:30
Ratlam,Madhya Pradesh,23.3315,75.0367,24.8,88,0.0,951.4,8.45,36.4,64,17.8,12.1,9.4,144.0,39.0,10.7,3,5,7,1,2026-07-15T01:44:26.460533+05:30
Sagar,Madhya Pradesh,23.8388,78.7378,26.2,69,0.0,946.5,7.8,38.2,87,26.1,18.6,7.3,212.0,59.0,4.1,7,5,7,1,2026-07-15T01:44:26.460542+05:30
Satna,Madhya Pradesh,24.6005,80.8322,28.3,70,0.0,966.2,8.75,36.7,107,75.0,36.8,7.5,171.0,61.0,4.1,7,5,7,1,2026-07-15T01:44:26.460550+05:30
Akola,Maharashtra,20.7002,77.0082,27.3,70,0.0,972.9,7.2,42.5,64,21.9,14.6,9.6,161.0,44.0,8.2,7,5,7,1,2026-07-15T01:44:26.460560+05:30
Amravati,Maharashtra,20.9374,77.7796,26.6,65,0.0,964.7,8.0,44.3,65,23.0,15.5,9.8,157.0,51.0,8.9,7,5,7,1,2026-07-15T01:44:26.460568+05:30
Latur,Maharashtra,18.4088,76.5604,24.5,70,0.0,938.1,8.75,42.1,60,24.6,15.8,6.2,153.0,50.0,3.7,3,5,7,1,2026-07-15T01:44:26.460576+05:30
Nanded,Maharashtra,19.1383,77.3091,27.1,60,0.0,966.5,8.8,38.2,67,27.9,20.1,7.7,200.0,70.0,6.3,4,5,7,1,2026-07-15T01:44:26.460584+05:30
Gulbarga,Karnataka,17.3297,76.8343,27.1,64,0.0,957.4,8.8,45.0,59,20.2,14.1,6.1,139.0,49.0,2.9,7,5,7,1,2026-07-15T01:44:26.460592+05:30
Bidar,Karnataka,17.9104,77.5199,25.6,58,0.0,933.4,8.95,41.0,64,24.9,19.0,10.9,210.0,53.0,3.8,4,5,7,1,2026-07-15T01:44:26.460600+05:30
Hospet,Karnataka,15.2689,76.3909,23.7,85,0.0,955.4,8.75,42.5,55,16.2,11.0,5.2,133.0,42.0,2.0,3,5,7,1,2026-07-15T01:44:26.460607+05:30
Tirupur,Tamil Nadu,11.1085,77.3411,24.7,89,0.0,974.2,8.35,57.2,64,26.5,19.9,19.0,163.0,27.0,5.2,3,5,7,1,2026-07-15T01:44:26.460615+05:30
Alappuzha,Kerala,9.4981,76.3388,27.5,86,0.0,1009.8,8.35,43.2,59,28.7,16.4,7.6,88.0,42.0,3.3,7,0,4,1,2026-07-15T01:44:26.460623+05:30
Munnar,Kerala,10.0889,77.0595,18.1,99,0.0,857.0,9.05,36.7,51,12.2,9.4,9.3,125.0,27.0,2.4,3,10,7,1,2026-07-15T01:44:26.460653+05:30
Silchar,Assam,24.8333,92.7789,26.2,99,0.3,999.8,8.8,29.5,69,4.5,4.3,5.6,173.0,63.0,2.4,10,5,7,1,2026-07-15T01:44:26.460662+05:30
Dibrugarh,Assam,27.4728,94.912,26.8,97,0.2,989.9,7.5,28.1,74,8.3,8.3,9.3,292.0,42.0,0.5,10,5,7,1,2026-07-15T01:44:26.460670+05:30
