city,state,latitude,longitude,temp,humidity,rain,pressure,uv_index,wind_gusts,aqi,pm10,pm2_5,mosquito_risk,arthritis_risk,migraine_risk,frizz_risk,updated_at
Delhi,Delhi,28.6139,77.209,28.3,38,0.0,980.9,7.3,25.6,167,465.7,82.0,4,5,7,0,2026-04-15T00:51:10.553947+05:30
Mumbai,Maharashtra,19.076,72.8777,30.0,74,0.0,1007.0,8.0,20.5,127,69.2,24.3,7,5,4,1,2026-04-15T00:51:10.553993+05:30
Bangalore,Karnataka,12.9716,77.5946,25.0,50,0.0,911.4,9.65,26.6,81,26.8,21.9,4,5,7,0,2026-04-15T00:51:10.554008+05:30
Hyderabad,Telangana,17.385,78.4867,29.2,48,0.0,952.1,9.25,27.0,96,38.0,33.2,4,5,7,1,2026-04-15T00:51:10.554018+05:30
Chennai,Tamil Nadu,13.0827,80.2707,27.9,86,0.0,1006.8,9.35,36.0,39,10.3,7.2,7,5,4,1,2026-04-15T00:51:10.554026+05:30
Kolkata,West Bengal,22.5726,88.3639,27.2,93,0.0,1004.2,8.85,30.2,95,30.5,23.7,7,5,4,1,2026-04-15T00:51:10.554035+05:30
Pune,Maharashtra,18.5204,73.8567,26.5,62,0.0,947.6,8.6,39.6,120,51.8,28.2,7,5,7,1,2026-04-15T00:51:10.554046+05:30
Ahmedabad,Gujarat,23.0225,72.5714,28.9,39,0.0,1000.5,8.15,20.9,63,66.8,20.4,4,5,4,0,2026-04-15T00:51:10.554054+05:30
Jaipur,Rajasthan,26.9124,75.7873,28.2,33,0.0,957.6,7.95,25.9,88,380.0,59.4,4,5,7,0,2026-04-15T00:51:10.554061+05:30
Lucknow,Uttar Pradesh,26.8467,80.9462,27.0,45,0.0,990.9,7.8,26.3,128,223.1,44.0,4,5,7,0,2026-04-15T00:51:10.554069+05:30
Kanpur,Uttar Pradesh,26.4499,80.3319,26.6,48,0.0,989.3,7.8,21.2,183,285.0,50.5,4,5,7,0,2026-04-15T00:51:10.554076+05:30
Chandigarh,Chandigarh,30.7333,76.7794,22.7,52,0.0,967.2,7.25,29.2,81,23.8,21.3,0,5,7,0,2026-04-15T00:51:10.554084+05:30
Srinagar,Jammu and Kashmir,34.0837,74.7973,10.0,77,0.0,839.5,7.95,15.5,82,55.4,44.6,3,5,7,0,2026-04-15T00:51:10.554091+05:30
Jammu,Jammu and Kashmir,32.7266,74.857,20.3,68,0.0,971.8,7.95,29.5,67,33.3,30.6,3,5,7,0,2026-04-15T00:51:10.554097+05:30
Amritsar,Punjab,31.634,74.8723,22.1,60,0.0,979.6,7.75,25.9,81,59.1,53.9,0,5,7,0,2026-04-15T00:51:10.554104+05:30
Ludhiana,Punjab,30.901,75.8573,23.7,49,0.0,977.3,7.3,25.2,70,34.5,32.7,0,5,7,0,2026-04-15T00:51:10.554110+05:30
Jalandhar,Punjab,31.326,75.5762,21.6,60,0.0,978.6,7.6,24.5,91,27.5,23.4,0,5,7,0,2026-04-15T00:51:10.554119+05:30
Dehradun,Uttarakhand,30.6284,78.0322,14.5,68,0.0,829.0,7.7,27.4,91,21.7,16.2,3,5,7,0,2026-04-15T00:51:10.554125+05:30
Shimla,Himachal Pradesh,31.1048,77.1734,12.2,63,0.0,782.6,7.75,45.0,95,24.2,17.2,3,5,7,0,2026-04-15T00:51:10.554132+05:30
Manali,Himachal Pradesh,32.2396,77.1887,14.8,59,0.0,819.5,9.0,34.2,96,25.8,13.3,0,5,7,0,2026-04-15T00:51:10.554139+05:30
Gurgaon,Haryana,28.4595,77.0266,25.2,50,0.0,979.2,7.4,23.4,478,817.7,110.8,4,5,7,0,2026-04-15T00:51:10.554145+05:30
Noida,Uttar Pradesh,28.5355,77.391,27.8,40,0.0,982.3,7.35,25.9,478,817.7,110.8,4,5,7,0,2026-04-15T00:51:10.554151+05:30
Ghaziabad,Uttar Pradesh,28.6692,77.4538,25.0,48,0.0,980.4,7.3,24.8,134,324.1,64.0,4,5,7,0,2026-04-15T00:51:10.554158+05:30
Faridabad,Haryana,28.4089,77.3178,27.2,42,0.0,981.6,7.35,25.6,478,817.7,110.8,4,5,7,0,2026-04-15T00:51:10.554164+05:30
Meerut,Uttar Pradesh,28.9845,77.7064,22.7,55,0.0,979.2,7.2,30.2,134,324.1,64.0,0,5,7,0,2026-04-15T00:51:10.554171+05:30
Agra,Uttar Pradesh,27.1767,78.0081,26.4,44,0.0,985.1,7.65,19.8,434,368.8,86.1,4,5,7,0,2026-04-15T00:51:10.554177+05:30
Varanasi,Uttar Pradesh,25.3176,82.9739,25.4,41,0.0,995.2,8.4,26.6,101,109.9,40.4,4,5,7,0,2026-04-15T00:51:10.554186+05:30
Prayagraj,Uttar Pradesh,25.4358,81.8463,27.2,42,0.0,993.8,8.25,22.3,107,104.5,40.3,4,5,7,0,2026-04-15T00:51:10.554193+05:30
Gorakhpur,Uttar Pradesh,26.7606,83.3732,23.3,43,0.0,994.6,8.2,26.6,89,75.2,25.1,0,5,7,0,2026-04-15T00:51:10.554199+05:30
Bareilly,Uttar Pradesh,28.367,79.4304,24.4,56,0.0,984.4,7.55,27.4,101,96.6,37.4,0,5,7,0,2026-04-15T00:51:10.554206+05:30
Aligarh,Uttar Pradesh,27.8974,78.088,25.7,44,0.0,982.9,7.45,32.0,265,452.6,81.5,4,5,7,0,2026-04-15T00:51:10.554212+05:30
Moradabad,Uttar Pradesh,28.8386,78.7733,24.0,51,0.0,981.4,7.4,29.5,86,106.4,43.3,0,5,7,0,2026-04-15T00:51:10.554220+05:30
Saharanpur,Uttar Pradesh,29.9637,77.546,20.1,62,0.0,973.7,7.0,30.2,81,36.2,35.5,3,5,7,0,2026-04-15T00:51:10.554227+05:30
Jhansi,Uttar Pradesh,25.4484,78.5685,28.9,33,0.0,975.4,8.2,26.6,66,76.1,21.7,4,5,7,0,2026-04-15T00:51:13.779603+05:30
Surat,Gujarat,21.1702,72.8311,28.1,76,0.0,1005.0,7.85,27.0,109,42.8,26.3,7,5,4,1,2026-04-15T00:51:13.779636+05:30
Vadodara,Gujarat,22.3072,73.1812,28.1,69,0.0,1002.3,8.1,27.7,83,39.5,26.1,7,5,4,1,2026-04-15T00:51:13.779648+05:30
Rajkot,Gujarat,22.3039,70.8022,25.6,76,0.0,993.6,7.85,29.5,62,57.9,20.9,7,5,7,1,2026-04-15T00:51:13.779658+05:30
Thane,Maharashtra,19.2183,72.9781,27.8,81,0.0,1006.5,8.0,32.8,127,69.2,24.3,7,5,4,1,2026-04-15T00:51:13.779666+05:30
Nagpur,Maharashtra,21.1458,79.0882,27.0,53,0.0,970.6,8.85,26.3,87,37.1,26.0,4,5,7,1,2026-04-15T00:51:13.779674+05:30
Nashik,Maharashtra,19.9975,73.7898,25.9,41,0.0,944.7,8.3,34.2,75,86.6,25.4,4,5,7,0,2026-04-15T00:51:13.779682+05:30
Aurangabad,Maharashtra,19.8762,75.3433,29.8,36,0.0,942.9,8.95,30.6,67,39.9,21.5,4,5,7,0,2026-04-15T00:51:13.779689+05:30
Solapur,Maharashtra,17.6599,75.9064,31.5,38,0.0,955.1,9.05,28.8,90,15.9,14.3,0,5,7,0,2026-04-15T00:51:13.779697+05:30
Kolhapur,Maharashtra,16.705,74.2433,23.1,87,0.0,946.8,9.05,42.1,85,42.0,32.2,3,5,7,1,2026-04-15T00:51:13.779705+05:30
Goa,Goa,15.2993,74.124,28.7,80,0.0,997.3,9.0,31.0,85,63.3,38.8,7,5,7,1,2026-04-15T00:51:13.779713+05:30
Jodhpur,Rajasthan,26.2389,73.0243,28.1,44,0.0,980.2,8.15,23.4,68,122.5,27.5,4,5,7,0,2026-04-15T00:51:13.779721+05:30
Udaipur,Rajasthan,24.5854,73.7125,25.4,38,0.0,945.3,8.7,32.0,57,107.6,26.1,4,5,7,0,2026-04-15T00:51:13.779729+05:30
Kota,Rajasthan,25.2138,75.8648,28.3,38,0.0,976.2,8.2,22.3,72,31.3,21.1,4,5,7,0,2026-04-15T00:51:13.779736+05:30
Bikaner,Rajasthan,28.0229,73.3119,30.1,29,0.0,980.0,7.95,15.1,65,61.5,20.1,0,5,7,0,2026-04-15T00:51:13.779743+05:30
Ajmer,Rajasthan,26.4499,74.6399,25.6,41,0.0,952.1,8.15,25.6,59,51.0,21.5,4,5,7,0,2026-04-15T00:51:13.779751+05:30
Gwalior,Madhya Pradesh,26.2183,78.1828,29.6,38,0.0,980.7,7.95,29.5,112,152.7,34.3,4,5,7,0,2026-04-15T00:51:13.779759+05:30
Indore,Madhya Pradesh,22.7196,75.8577,25.7,50,0.0,946.8,8.55,31.3,77,21.9,14.9,4,5,7,0,2026-04-15T00:51:13.779766+05:30
Bhopal,Madhya Pradesh,23.2599,77.4126,27.6,38,0.0,952.3,8.55,31.7,71,39.3,28.3,4,5,7,0,2026-04-15T00:51:13.779774+05:30
Jabalpur,Madhya Pradesh,23.1815,79.9864,28.0,45,0.0,959.0,8.7,35.6,77,80.1,31.5,4,5,7,0,2026-04-15T00:51:13.779782+05:30
Ujjain,Madhya Pradesh,23.1765,75.7885,26.4,51,0.0,952.4,8.45,29.5,81,24.8,17.9,4,5,7,0,2026-04-15T00:51:13.779789+05:30
Visakhapatnam,Andhra Pradesh,17.6868,83.2185,27.5,87,0.0,1002.5,9.15,44.3,65,22.1,16.1,7,5,4,1,2026-04-15T00:51:13.779798+05:30
Vijayawada,Andhra Pradesh,16.5062,80.648,26.4,91,0.0,1001.6,9.2,28.8,54,14.1,10.7,7,5,4,1,2026-04-15T00:51:13.779806+05:30
Guntur,Andhra Pradesh,16.3067,80.4365,26.9,90,0.0,1002.7,9.2,31.0,56,13.9,10.5,7,5,4,1,2026-04-15T00:51:13.779858+05:30
Nellore,Andhra Pradesh,14.4426,79.9865,27.2,86,0.0,1004.7,9.3,35.6,52,10.4,8.5,7,5,4,1,2026-04-15T00:51:13.779869+05:30
Kurnool,Andhra Pradesh,15.8281,78.0373,33.1,30,0.0,974.6,9.2,25.6,84,28.3,25.2,0,5,7,0,2026-04-15T00:51:13.779878+05:30
Kakinada,Andhra Pradesh,16.9891,82.2475,26.4,91,0.0,1006.6,9.15,31.0,55,20.1,13.0,7,5,4,1,2026-04-15T00:51:13.779886+05:30
Tirupati,Andhra Pradesh,13.6288,79.4192,26.9,73,0.0,991.4,9.4,32.0,68,27.8,26.2,7,5,7,1,2026-04-15T00:51:13.779894+05:30
Warangal,Telangana,17.9689,79.5941,29.7,59,0.0,976.8,9.1,28.8,80,22.4,19.2,4,5,7,1,2026-04-15T00:51:13.779901+05:30
Nizamabad,Telangana,18.6725,78.0941,29.9,47,0.0,962.8,9.05,27.0,92,41.4,33.5,4,5,7,1,2026-04-15T00:51:13.779908+05:30
Mysore,Karnataka,12.2958,76.6396,24.7,85,0.0,928.7,9.55,45.4,90,27.2,23.1,3,5,7,1,2026-04-15T00:51:13.779916+05:30
Mangalore,Karnataka,12.9141,74.856,30.0,78,0.0,1006.4,9.15,23.0,83,37.3,21.7,7,5,4,1,2026-04-15T00:51:13.779923+05:30
Hubli-Dharwad,Karnataka,15.3647,75.124,25.4,82,0.0,940.2,9.2,32.4,69,26.6,19.4,7,5,7,1,2026-04-15T00:51:13.779931+05:30
Belgaum,Karnataka,15.8497,74.4977,23.4,86,0.0,924.8,9.25,38.9,75,39.3,27.3,3,5,7,1,2026-04-15T00:51:17.003628+05:30
Coimbatore,Tamil Nadu,11.0168,76.9558,26.2,83,0.0,962.0,9.5,49.3,89,43.5,37.8,7,5,7,1,2026-04-15T00:51:17.003656+05:30
Madurai,Tamil Nadu,9.9252,78.1198,28.0,81,0.0,993.4,9.35,39.6,67,21.0,18.7,7,5,7,1,2026-04-15T00:51:17.003666+05:30
Trichy,Tamil Nadu,10.7905,78.7047,27.3,87,0.0,999.9,9.4,19.8,57,13.8,12.9,7,5,7,1,2026-04-15T00:51:17.003674+05:30
Salem,Tamil Nadu,11.6643,78.146,26.3,71,0.0,976.9,9.45,15.8,70,26.3,23.1,7,5,7,1,2026-04-15T00:51:17.003682+05:30
Tirunelveli,Tamil Nadu,8.7139,77.7567,28.1,77,0.0,1003.3,9.2,49.0,73,25.1,20.0,7,5,4,1,2026-04-15T00:51:17.003688+05:30
Vellore,Tamil Nadu,12.9165,79.1325,25.5,81,0.0,984.4,9.45,27.7,91,52.7,50.4,7,5,7,1,2026-04-15T00:51:17.003695+05:30
Erode,Tamil Nadu,11.341,77.7172,29.0,67,0.0,989.0,9.4,25.2,58,14.3,13.3,7,5,7,1,2026-04-15T00:51:17.003702+05:30
Kochi,Kerala,9.9312,76.2673,28.7,83,0.0,1008.9,9.2,32.0,98,47.0,39.6,7,0,4,1,2026-04-15T00:51:17.003709+05:30
Thiruvananthapuram,Kerala,8.5241,76.9366,28.7,82,0.0,1008.1,9.15,33.8,69,27.5,16.8,7,0,4,1,2026-04-15T00:51:17.003717+05:30
Kozhikode,Kerala,11.2588,75.7804,29.5,81,0.0,1008.0,9.15,29.5,90,47.4,30.9,7,0,4,1,2026-04-15T00:51:17.003723+05:30
Thrissur,Kerala,10.5276,76.2144,28.6,83,0.0,1007.1,9.2,35.3,97,61.7,49.9,7,5,4,1,2026-04-15T00:51:17.003731+05:30
Kannur,Kerala,11.8745,75.3704,29.2,80,0.0,1007.2,9.15,32.4,91,47.5,31.1,7,5,4,1,2026-04-15T00:51:17.003738+05:30
Patna,Bihar,25.5941,85.1376,25.7,67,0.0,998.2,8.55,18.0,110,145.8,75.2,7,5,7,1,2026-04-15T00:51:17.003744+05:30
Gaya,Bihar,24.7914,85.0002,25.7,43,0.0,991.7,8.6,20.2,96,89.9,32.6,4,5,7,0,2026-04-15T00:51:17.003751+05:30
Muzaffarpur,Bihar,26.1209,85.3647,23.7,77,0.0,998.4,8.55,23.0,139,132.2,76.6,3,5,7,1,2026-04-15T00:51:17.003757+05:30
Bhagalpur,Bihar,25.2425,87.0117,26.2,60,0.0,999.0,8.55,19.4,135,64.0,49.2,4,5,7,1,2026-04-15T00:51:17.003764+05:30
Ranchi,Jharkhand,23.3441,85.3096,23.5,35,0.0,936.6,9.15,34.2,71,112.9,28.8,0,5,7,0,2026-04-15T00:51:17.003770+05:30
Jamshedpur,Jharkhand,22.8046,86.2029,26.3,68,0.0,989.2,8.95,41.0,134,84.8,40.7,7,5,7,1,2026-04-15T00:51:17.003777+05:30
Dhanbad,Jharkhand,23.7957,86.4304,23.6,61,0.0,978.0,8.9,30.6,136,193.7,89.4,3,5,7,0,2026-04-15T00:51:17.003784+05:30
Bokaro,Jharkhand,23.6693,86.1511,25.0,44,0.0,982.4,8.9,35.6,132,158.8,78.9,4,5,7,0,2026-04-15T00:51:17.003791+05:30
Bhubaneswar,Odisha,20.2961,85.8245,27.4,87,0.0,1001.3,9.1,34.6,78,22.8,17.1,7,5,4,1,2026-04-15T00:51:17.003798+05:30
Cuttack,Odisha,20.4625,85.8828,27.3,90,0.0,1003.2,9.15,30.2,78,22.8,17.1,7,5,4,1,2026-04-15T00:51:17.003805+05:30
Rourkela,Odisha,22.2604,84.8536,25.8,72,0.0,983.4,8.9,38.2,86,95.0,41.7,7,5,7,1,2026-04-15T00:51:17.003833+05:30
Raipur,Chhattisgarh,21.2514,81.6296,28.8,42,0.0,972.1,8.95,43.6,143,92.0,52.7,4,5,7,0,2026-04-15T00:51:17.003841+05:30
Bhilai,Chhattisgarh,21.1938,81.3509,27.3,45,0.0,972.4,8.95,43.2,131,102.4,70.5,4,5,7,0,2026-04-15T00:51:17.003848+05:30
Guwahati,Assam,26.1158,91.7086,24.1,85,0.0,1000.0,8.45,34.6,119,72.2,57.0,3,5,4,1,2026-04-15T00:51:17.003855+05:30
Agartala,Tripura,23.8315,91.2868,23.7,91,0.0,1005.3,8.7,34.2,105,35.5,31.8,3,5,4,1,2026-04-15T00:51:17.003862+05:30
Shillong,Meghalaya,25.5788,91.8933,14.5,87,0.0,854.5,7.7,58.7,95,50.4,41.4,3,10,7,0,2026-04-15T00:51:17.003869+05:30
Imphal,Manipur,24.817,93.9368,18.2,93,0.0,922.6,9.05,72.7,129,62.9,50.3,3,10,7,1,2026-04-15T00:51:17.003876+05:30
Aizawl,Mizoram,23.7271,92.7176,19.6,86,0.0,892.1,8.9,51.1,110,50.5,40.0,3,10,7,1,2026-04-15T00:51:17.003883+05:30
Kohima,Nagaland,25.6701,94.1077,15.5,85,0.0,853.5,8.95,72.0,112,65.4,46.3,3,10,7,0,2026-04-15T00:51:17.003889+05:30
Gangtok,Sikkim,27.3314,88.6138,13.7,89,0.1,835.1,8.75,19.4,110,52.7,34.2,6,10,7,0,2026-04-15T00:51:17.003896+05:30
Siliguri,West Bengal,26.7271,88.3953,21.0,73,0.0,992.5,8.4,31.7,154,119.2,74.7,3,5,7,0,2026-04-15T00:51:20.243767+05:30
Durgapur,West Bengal,23.5204,87.3119,26.0,78,0.0,993.2,8.85,25.2,153,112.0,68.9,7,5,7,1,2026-04-15T00:51:20.243796+05:30
Asansol,West Bengal,23.6739,86.9524,27.3,52,0.0,991.8,8.85,23.8,118,135.5,56.7,4,5,7,1,2026-04-15T00:51:20.243840+05:30
Pondicherry,Puducherry,11.9139,79.8145,26.8,96,0.0,1008.3,9.3,26.6,36,8.0,5.4,7,0,4,1,2026-04-15T00:51:20.243854+05:30
Port Blair,Andaman and Nicobar Islands,11.6234,92.7265,29.2,72,0.0,1006.3,9.2,18.4,64,31.5,21.1,7,5,4,1,2026-04-15T00:51:20.243862+05:30
Haridwar,Uttarakhand,29.9457,78.1642,20.3,58,0.0,972.6,7.05,29.2,64,32.1,27.9,0,5,7,0,2026-04-15T00:51:20.243870+05:30
Rishikesh,Uttarakhand,30.0869,78.2676,20.2,66,0.0,965.7,7.2,30.6,93,32.1,19.5,3,5,7,0,2026-04-15T00:51:20.243877+05:30
Nainital,Uttarakhand,29.3919,79.4542,20.1,28,0.0,805.7,8.0,53.6,90,52.3,15.5,0,5,7,0,2026-04-15T00:51:20.243884+05:30
Mussoorie,Uttarakhand,30.4599,78.0664,16.9,55,0.0,801.9,7.55,33.8,84,32.6,27.9,0,5,7,0,2026-04-15T00:51:20.243891+05:30
Dharamshala,Himachal Pradesh,32.219,76.3234,20.3,40,0.0,868.7,7.8,22.7,82,19.5,12.3,0,5,7,0,2026-04-15T00:51:20.243898+05:30
Dalhousie,Himachal Pradesh,32.5387,75.971,16.7,44,0.0,803.1,7.95,22.0,60,32.2,27.8,0,5,7,0,2026-04-15T00:51:20.243905+05:30
Patiala,Punjab,30.3398,76.3869,21.5,53,0.0,976.4,7.15,26.3,186,97.3,45.9,0,5,7,0,2026-04-15T00:51:20.243912+05:30
Bhatinda,Punjab,30.211,74.9455,24.0,51,0.0,982.2,7.85,29.9,76,38.3,23.2,0,5,7,0,2026-04-15T00:51:20.243919+05:30
Rohtak,Haryana,28.8955,76.6066,23.2,51,0.0,979.7,7.35,28.4,207,581.1,93.8,0,5,7,0,2026-04-15T00:51:20.243925+05:30
Panipat,Haryana,29.3909,76.9635,22.2,55,0.0,978.4,7.15,29.2,541,486.2,88.2,0,5,7,0,2026-04-15T00:51:20.243931+05:30
Mathura,Uttar Pradesh,27.4924,77.6737,25.2,49,0.0,984.1,7.6,24.1,340,381.8,83.4,4,5,7,0,2026-04-15T00:51:20.243938+05:30
Vrindavan,Uttar Pradesh,27.5823,77.7027,25.5,47,0.0,984.5,7.6,25.2,340,381.8,83.4,4,5,7,0,2026-04-15T00:51:20.243944+05:30
Ayodhya,Uttar Pradesh,26.7922,82.1998,25.6,39,0.0,992.7,7.95,31.7,91,131.3,30.3,4,5,7,0,2026-04-15T00:51:20.243950+05:30
Ratlam,Madhya Pradesh,23.3315,75.0367,26.2,55,0.0,953.1,8.4,28.8,59,26.7,17.2,4,5,7,1,2026-04-15T00:51:20.243956+05:30
Sagar,Madhya Pradesh,23.8388,78.7378,28.6,42,0.0,948.0,8.6,31.0,70,37.7,20.1,4,5,7,0,2026-04-15T00:51:20.243963+05:30
Satna,Madhya Pradesh,24.6005,80.8322,27.0,44,0.0,969.6,8.6,25.2,67,101.5,23.5,4,5,7,0,2026-04-15T00:51:20.243969+05:30
Akola,Maharashtra,20.7002,77.0082,27.8,49,0.0,973.1,8.8,27.7,71,21.5,16.2,4,5,7,1,2026-04-15T00:51:20.243976+05:30
Amravati,Maharashtra,20.9374,77.7796,28.2,48,0.0,965.2,8.8,25.9,67,20.0,16.1,4,5,7,1,2026-04-15T00:51:20.243982+05:30
Latur,Maharashtra,18.4088,76.5604,28.0,46,0.0,937.9,9.05,29.9,81,27.7,22.2,4,5,7,0,2026-04-15T00:51:20.243989+05:30
Nanded,Maharashtra,19.1383,77.3091,26.9,57,0.0,966.3,8.95,17.3,65,33.5,29.5,4,5,7,1,2026-04-15T00:51:20.243995+05:30
Gulbarga,Karnataka,17.3297,76.8343,31.8,37,0.0,956.7,9.1,33.8,112,41.4,35.9,0,5,7,0,2026-04-15T00:51:20.244001+05:30
Bidar,Karnataka,17.9104,77.5199,29.6,43,0.0,934.2,9.1,20.9,93,32.1,24.9,4,5,7,0,2026-04-15T00:51:20.244007+05:30
Hospet,Karnataka,15.2689,76.3909,28.9,72,0.0,955.5,9.3,29.5,104,60.1,51.7,7,5,7,1,2026-04-15T00:51:20.244013+05:30
Tirupur,Tamil Nadu,11.1085,77.3411,28.1,74,0.0,975.2,9.5,33.5,75,30.5,26.5,7,5,7,1,2026-04-15T00:51:20.244019+05:30
Alappuzha,Kerala,9.4981,76.3388,28.7,82,0.0,1009.1,9.15,30.6,97,49.9,35.5,7,0,4,1,2026-04-15T00:51:20.244025+05:30
Munnar,Kerala,10.0889,77.0595,21.4,98,0.0,857.2,9.75,37.8,77,41.3,35.6,3,5,7,1,2026-04-15T00:51:20.244032+05:30
Silchar,Assam,24.8333,92.7789,22.9,89,0.0,1005.5,8.7,31.0,145,66.1,50.5,3,5,4,1,2026-04-15T00:51:20.244038+05:30
Dibrugarh,Assam,27.4728,94.912,21.6,88,0.0,995.4,6.5,24.1,87,32.5,17.7,3,5,7,1,2026-04-15T00:51:20.244044+05:30
