city,state,latitude,longitude,temp,humidity,rain,pressure,uv_index,wind_gusts,aqi,pm10,pm2_5,no2,co,o3,so2,mosquito_risk,arthritis_risk,migraine_risk,frizz_risk,updated_at
Delhi,Delhi,28.6139,77.209,25.4,95,0.0,973.9,7.7,41.8,95,69.2,66.6,78.4,736.0,7.0,34.5,7,5,7,1,2026-07-10T02:18:23.414932+05:30
Mumbai,Maharashtra,19.076,72.8777,27.2,89,0.0,1006.4,5.35,50.8,58,33.9,13.9,4.3,123.0,41.0,3.6,7,5,0,1,2026-07-10T02:18:23.414969+05:30
Bangalore,Karnataka,12.9716,77.5946,21.2,89,0.0,911.0,8.2,45.7,26,7.8,5.5,9.2,196.0,37.0,3.6,3,5,7,1,2026-07-10T02:18:23.414979+05:30
Hyderabad,Telangana,17.385,78.4867,26.1,74,0.0,950.6,8.15,44.3,42,19.4,12.4,8.8,166.0,46.0,5.1,7,5,7,1,2026-07-10T02:18:23.414985+05:30
Chennai,Tamil Nadu,13.0827,80.2707,27.9,93,0.0,1005.2,6.7,37.1,60,25.1,18.5,19.7,268.0,55.0,9.7,7,5,4,1,2026-07-10T02:18:23.414990+05:30
Kolkata,West Bengal,22.5726,88.3639,26.6,97,0.6,999.4,4.05,31.0,63,24.4,20.1,8.5,238.0,66.0,8.2,10,5,3,1,2026-07-10T02:18:23.414995+05:30
Pune,Maharashtra,18.5204,73.8567,23.8,90,0.0,946.0,7.4,50.4,25,4.2,2.4,5.6,116.0,35.0,4.9,3,5,7,1,2026-07-10T02:18:23.414999+05:30
Ahmedabad,Gujarat,23.0225,72.5714,27.9,81,0.0,997.6,8.15,42.8,75,37.6,19.9,6.7,125.0,42.0,4.7,7,5,7,1,2026-07-10T02:18:23.415003+05:30
Jaipur,Rajasthan,26.9124,75.7873,26.9,81,0.0,952.4,8.2,39.6,151,127.1,40.9,8.3,234.0,61.0,4.3,7,5,7,1,2026-07-10T02:18:23.415007+05:30
Lucknow,Uttar Pradesh,26.8467,80.9462,26.9,96,0.0,986.0,6.35,34.9,80,69.4,40.3,30.1,311.0,40.0,11.7,7,5,7,1,2026-07-10T02:18:23.415013+05:30
Kanpur,Uttar Pradesh,26.4499,80.3319,27.0,95,0.5,984.1,8.15,34.6,68,44.8,27.2,12.8,223.0,77.0,6.9,10,5,7,1,2026-07-10T02:18:23.415017+05:30
Chandigarh,Chandigarh,30.7333,76.7794,24.9,95,0.6,961.4,2.1,20.9,149,31.1,31.0,32.5,511.0,40.0,5.2,6,5,3,1,2026-07-10T02:18:23.415021+05:30
Srinagar,Jammu and Kashmir,34.0837,74.7973,19.8,92,0.0,835.9,9.05,20.2,82,34.3,33.6,28.9,800.0,22.0,1.4,3,10,7,1,2026-07-10T02:18:23.415024+05:30
Jammu,Jammu and Kashmir,32.7266,74.857,27.0,82,0.0,965.6,8.55,29.5,155,78.2,71.2,54.9,524.0,17.0,6.1,7,5,7,1,2026-07-10T02:18:23.415028+05:30
Amritsar,Punjab,31.634,74.8723,26.3,80,0.0,973.1,8.4,21.2,156,58.6,38.5,17.5,579.0,71.0,7.9,7,5,7,1,2026-07-10T02:18:23.415033+05:30
Ludhiana,Punjab,30.901,75.8573,25.8,86,0.0,971.0,7.9,18.0,138,20.5,20.4,17.2,475.0,64.0,5.5,7,5,7,1,2026-07-10T02:18:23.415037+05:30
Jalandhar,Punjab,31.326,75.5762,25.8,90,0.0,972.0,8.15,18.7,152,50.5,28.9,19.6,618.0,59.0,6.4,7,5,7,1,2026-07-10T02:18:23.415040+05:30
Dehradun,Uttarakhand,30.6284,78.0322,17.5,98,0.1,824.1,1.65,25.2,62,12.9,12.8,38.9,186.0,22.0,1.1,6,10,3,1,2026-07-10T02:18:23.415044+05:30
Shimla,Himachal Pradesh,31.1048,77.1734,14.7,98,0.1,779.0,2.95,16.6,50,8.6,8.4,18.3,474.0,64.0,2.9,6,10,3,0,2026-07-10T02:18:23.415048+05:30
Manali,Himachal Pradesh,32.2396,77.1887,20.5,76,0.1,814.5,8.75,31.0,43,11.4,11.4,87.1,268.0,0.0,0.2,6,5,7,1,2026-07-10T02:18:23.415053+05:30
Gurgaon,Haryana,28.4595,77.0266,25.7,93,0.0,972.6,7.7,43.2,130,89.4,88.7,94.8,620.0,4.0,36.9,7,5,7,1,2026-07-10T02:18:23.415056+05:30
Noida,Uttar Pradesh,28.5355,77.391,25.8,95,0.0,975.3,7.7,41.0,130,89.4,88.7,94.8,790.0,4.0,36.9,7,5,7,1,2026-07-10T02:18:23.415060+05:30
Ghaziabad,Uttar Pradesh,28.6692,77.4538,25.7,96,0.0,973.4,7.7,41.8,88,75.0,48.4,27.1,381.0,53.0,12.7,7,5,7,1,2026-07-10T02:18:23.415063+05:30
Faridabad,Haryana,28.4089,77.3178,25.7,94,0.0,974.5,7.7,45.4,130,89.4,88.7,94.8,758.0,4.0,36.9,7,5,7,1,2026-07-10T02:18:23.415066+05:30
Meerut,Uttar Pradesh,28.9845,77.7064,25.6,98,1.3,971.8,6.9,36.0,88,75.0,48.4,27.1,313.0,53.0,12.7,10,5,7,1,2026-07-10T02:18:23.415070+05:30
Agra,Uttar Pradesh,27.1767,78.0081,27.8,85,0.0,979.0,8.05,50.8,115,156.9,55.9,12.6,368.0,65.0,5.1,7,5,7,1,2026-07-10T02:18:23.415075+05:30
Varanasi,Uttar Pradesh,25.3176,82.9739,27.0,93,0.0,990.4,7.4,39.6,73,23.2,17.6,11.7,347.0,65.0,6.6,7,5,7,1,2026-07-10T02:18:23.415079+05:30
Prayagraj,Uttar Pradesh,25.4358,81.8463,27.1,93,0.0,988.9,8.25,33.5,70,30.9,22.7,10.3,218.0,71.0,6.8,7,5,7,1,2026-07-10T02:18:23.415082+05:30
Gorakhpur,Uttar Pradesh,26.7606,83.3732,26.5,98,0.1,990.2,6.85,27.4,85,14.8,14.6,11.3,334.0,84.0,3.5,10,5,7,1,2026-07-10T02:18:23.415085+05:30
Bareilly,Uttar Pradesh,28.367,79.4304,26.0,98,0.3,978.3,7.05,33.5,65,20.4,20.3,14.0,395.0,77.0,10.0,10,5,7,1,2026-07-10T02:18:23.415090+05:30
Aligarh,Uttar Pradesh,27.8974,78.088,26.4,89,0.0,976.4,7.85,52.6,132,151.3,66.4,25.4,530.0,54.0,12.8,7,5,7,1,2026-07-10T02:18:23.415093+05:30
Moradabad,Uttar Pradesh,28.8386,78.7733,26.0,95,0.0,974.8,7.7,38.2,66,20.2,19.8,14.8,338.0,74.0,7.1,7,5,7,1,2026-07-10T02:18:23.415097+05:30
Saharanpur,Uttar Pradesh,29.9637,77.546,24.6,97,0.4,967.7,0.65,30.6,80,17.2,17.1,16.2,343.0,61.0,3.7,6,5,3,1,2026-07-10T02:18:23.415100+05:30
Jhansi,Uttar Pradesh,25.4484,78.5685,29.1,69,0.0,970.7,8.45,45.4,80,56.6,30.9,8.6,155.0,69.0,9.9,7,5,7,1,2026-07-10T02:18:26.821686+05:30
Surat,Gujarat,21.1702,72.8311,28.2,85,0.0,1003.2,5.65,55.4,67,27.5,16.3,17.4,248.0,27.0,29.4,7,5,0,1,2026-07-10T02:18:26.821717+05:30
Vadodara,Gujarat,22.3072,73.1812,27.8,85,0.0,1000.2,7.5,48.6,68,31.4,16.6,7.7,130.0,37.0,5.6,7,5,4,1,2026-07-10T02:18:26.821724+05:30
Rajkot,Gujarat,22.3039,70.8022,26.8,89,0.0,989.8,7.35,53.3,65,33.8,16.2,4.3,101.0,39.0,4.0,7,5,7,1,2026-07-10T02:18:26.821729+05:30
Thane,Maharashtra,19.2183,72.9781,25.8,96,0.1,1005.7,5.15,43.2,58,33.9,13.9,4.3,144.0,41.0,3.6,10,5,0,1,2026-07-10T02:18:26.821735+05:30
Nagpur,Maharashtra,21.1458,79.0882,27.2,80,0.0,969.0,6.7,42.5,62,26.2,16.8,11.4,229.0,46.0,12.5,7,5,7,1,2026-07-10T02:18:26.821739+05:30
Nashik,Maharashtra,19.9975,73.7898,23.4,97,0.0,942.4,8.05,56.2,37,10.2,5.5,8.1,104.0,29.0,4.9,3,5,7,1,2026-07-10T02:18:26.821744+05:30
Aurangabad,Maharashtra,19.8762,75.3433,24.0,87,0.0,941.4,8.8,53.6,46,13.9,7.3,8.5,147.0,34.0,9.8,3,5,7,1,2026-07-10T02:18:26.821749+05:30
Solapur,Maharashtra,17.6599,75.9064,24.4,82,0.0,955.7,7.4,40.7,35,13.9,8.5,5.8,130.0,34.0,2.5,3,5,7,1,2026-07-10T02:18:26.821753+05:30
Kolhapur,Maharashtra,16.705,74.2433,22.9,95,0.0,946.7,7.15,49.7,28,7.2,4.4,4.1,118.0,35.0,2.2,3,5,7,1,2026-07-10T02:18:26.821758+05:30
Goa,Goa,15.2993,74.124,24.8,97,0.0,997.9,8.4,37.1,55,28.6,16.5,3.6,312.0,37.0,1.4,3,5,7,1,2026-07-10T02:18:26.821763+05:30
Jodhpur,Rajasthan,26.2389,73.0243,30.7,64,0.0,975.3,8.45,47.5,174,308.3,75.7,4.7,120.0,58.0,3.0,3,5,7,1,2026-07-10T02:18:26.821766+05:30
Udaipur,Rajasthan,24.5854,73.7125,25.4,80,0.0,940.8,8.85,47.2,80,34.3,18.9,4.2,117.0,61.0,3.5,7,5,7,1,2026-07-10T02:18:26.821770+05:30
Kota,Rajasthan,25.2138,75.8648,28.8,70,0.0,972.3,8.3,38.5,89,44.9,26.0,7.6,166.0,68.0,6.7,7,5,7,1,2026-07-10T02:18:26.821774+05:30
Bikaner,Rajasthan,28.0229,73.3119,30.5,60,0.0,973.4,8.45,38.9,158,356.7,106.4,2.1,145.0,70.0,4.3,0,5,7,1,2026-07-10T02:18:26.821778+05:30
Ajmer,Rajasthan,26.4499,74.6399,27.9,72,0.0,947.8,8.4,51.5,100,55.1,25.2,5.7,124.0,64.0,3.8,7,5,7,1,2026-07-10T02:18:26.821782+05:30
Gwalior,Madhya Pradesh,26.2183,78.1828,28.2,76,0.0,975.1,8.2,45.0,81,58.1,32.6,9.0,131.0,65.0,7.4,7,5,7,1,2026-07-10T02:18:26.821786+05:30
Indore,Madhya Pradesh,22.7196,75.8577,24.8,88,0.0,943.9,8.55,52.9,72,35.2,18.9,7.8,171.0,49.0,9.6,3,5,7,1,2026-07-10T02:18:26.821790+05:30
Bhopal,Madhya Pradesh,23.2599,77.4126,25.7,81,0.0,948.6,8.05,49.0,71,42.7,25.9,7.2,206.0,66.0,7.4,7,5,7,1,2026-07-10T02:18:26.821794+05:30
Jabalpur,Madhya Pradesh,23.1815,79.9864,25.8,89,0.0,956.2,3.35,34.6,63,41.0,24.1,6.3,187.0,62.0,6.7,7,5,3,1,2026-07-10T02:18:26.821798+05:30
Ujjain,Madhya Pradesh,23.1765,75.7885,25.3,87,0.0,949.2,8.5,54.7,73,30.2,16.8,7.7,169.0,48.0,10.3,7,5,7,1,2026-07-10T02:18:26.821802+05:30
Visakhapatnam,Andhra Pradesh,17.6868,83.2185,28.1,82,0.0,999.8,5.5,44.6,79,21.8,18.1,17.3,333.0,59.0,28.1,7,5,3,1,2026-07-10T02:18:26.821806+05:30
Vijayawada,Andhra Pradesh,16.5062,80.648,29.1,76,0.0,999.2,7.35,41.4,54,16.1,12.0,6.6,206.0,76.0,4.0,7,5,7,1,2026-07-10T02:18:26.821809+05:30
Guntur,Andhra Pradesh,16.3067,80.4365,29.5,69,0.0,1000.6,7.45,42.1,51,16.2,12.2,8.1,158.0,68.0,3.6,7,5,4,1,2026-07-10T02:18:26.821813+05:30
Nellore,Andhra Pradesh,14.4426,79.9865,28.1,81,0.0,1003.4,6.2,45.7,44,14.7,9.2,7.2,160.0,53.0,2.4,7,5,4,1,2026-07-10T02:18:26.821817+05:30
Kurnool,Andhra Pradesh,15.8281,78.0373,27.4,68,0.0,975.2,7.4,42.5,35,19.2,12.2,9.1,142.0,40.0,2.8,7,5,7,1,2026-07-10T02:18:26.821822+05:30
Kakinada,Andhra Pradesh,16.9891,82.2475,28.2,83,0.0,1004.2,7.35,43.9,66,26.1,18.6,3.5,183.0,96.0,3.7,7,5,4,1,2026-07-10T02:18:26.821826+05:30
Tirupati,Andhra Pradesh,13.6288,79.4192,27.6,79,0.0,989.7,7.85,42.8,40,16.6,12.3,19.4,225.0,27.0,2.2,7,5,7,1,2026-07-10T02:18:26.821830+05:30
Warangal,Telangana,17.9689,79.5941,26.8,84,0.0,975.0,8.45,37.4,53,30.0,18.7,11.2,204.0,51.0,3.1,7,5,7,1,2026-07-10T02:18:26.821834+05:30
Nizamabad,Telangana,18.6725,78.0941,27.5,70,0.0,962.0,7.9,39.2,56,16.9,12.0,9.4,165.0,41.0,6.8,7,5,7,1,2026-07-10T02:18:26.821851+05:30
Mysore,Karnataka,12.2958,76.6396,21.6,93,0.0,928.2,6.15,47.9,21,6.5,4.6,6.8,123.0,37.0,2.2,3,5,7,1,2026-07-10T02:18:26.821856+05:30
Mangalore,Karnataka,12.9141,74.856,25.0,95,0.0,1007.8,8.15,33.5,54,25.4,14.4,8.2,173.0,33.0,2.8,7,5,4,1,2026-07-10T02:18:26.821859+05:30
Hubli-Dharwad,Karnataka,15.3647,75.124,22.6,92,0.0,939.9,7.75,54.7,21,6.5,3.7,4.1,107.0,36.0,1.6,3,5,7,1,2026-07-10T02:18:26.821863+05:30
Belgaum,Karnataka,15.8497,74.4977,21.6,97,0.0,924.4,7.95,49.0,22,4.8,2.9,2.8,107.0,38.0,1.4,3,5,7,1,2026-07-10T02:18:30.161983+05:30
Coimbatore,Tamil Nadu,11.0168,76.9558,23.2,94,0.0,961.6,8.55,45.7,22,11.6,8.3,9.0,209.0,29.0,3.2,3,5,7,1,2026-07-10T02:18:30.162015+05:30
Madurai,Tamil Nadu,9.9252,78.1198,29.0,60,0.0,992.7,8.75,40.3,51,26.6,22.6,37.3,128.0,5.0,7.4,4,5,7,1,2026-07-10T02:18:30.162023+05:30
Trichy,Tamil Nadu,10.7905,78.7047,28.8,64,0.0,999.3,8.55,54.0,31,12.4,7.9,7.1,117.0,35.0,3.3,7,5,7,1,2026-07-10T02:18:30.162029+05:30
Salem,Tamil Nadu,11.6643,78.146,25.7,89,0.0,977.1,8.35,33.8,51,23.7,19.3,26.7,449.0,19.0,7.4,7,5,7,1,2026-07-10T02:18:30.162035+05:30
Tirunelveli,Tamil Nadu,8.7139,77.7567,28.7,65,0.0,1003.0,8.25,48.2,33,14.1,9.1,6.0,132.0,38.0,2.4,7,5,4,1,2026-07-10T02:18:30.162040+05:30
Vellore,Tamil Nadu,12.9165,79.1325,28.3,69,0.0,983.3,7.55,45.0,45,29.7,22.2,25.8,300.0,22.0,4.6,7,5,7,1,2026-07-10T02:18:30.162045+05:30
Erode,Tamil Nadu,11.341,77.7172,26.0,81,0.0,988.9,8.65,45.0,37,18.5,14.8,16.3,175.0,27.0,4.3,7,5,7,1,2026-07-10T02:18:30.162050+05:30
Kochi,Kerala,9.9312,76.2673,25.8,94,0.2,1010.0,8.15,32.8,52,18.7,14.3,13.6,130.0,22.0,3.8,10,0,4,1,2026-07-10T02:18:30.162055+05:30
Thiruvananthapuram,Kerala,8.5241,76.9366,24.9,92,0.0,1009.5,7.2,47.2,49,19.2,11.9,6.3,168.0,40.0,2.7,3,0,4,1,2026-07-10T02:18:30.162060+05:30
Kozhikode,Kerala,11.2588,75.7804,24.7,97,0.1,1009.0,7.45,38.9,45,17.2,8.1,1.3,139.0,53.0,0.8,6,0,4,1,2026-07-10T02:18:30.162064+05:30
Thrissur,Kerala,10.5276,76.2144,25.1,95,0.0,1008.4,7.95,34.6,52,19.5,13.9,9.0,176.0,29.0,3.3,7,0,4,1,2026-07-10T02:18:30.162069+05:30
Kannur,Kerala,11.8745,75.3704,25.2,97,0.1,1008.2,8.05,33.1,48,21.5,11.4,7.1,191.0,35.0,1.8,10,0,4,1,2026-07-10T02:18:30.162074+05:30
Patna,Bihar,25.5941,85.1376,28.4,92,0.0,993.2,8.1,28.1,96,34.1,33.5,17.9,312.0,63.0,9.4,7,5,7,1,2026-07-10T02:18:30.162078+05:30
Gaya,Bihar,24.7914,85.0002,27.2,97,0.0,986.7,5.8,36.0,74,19.5,18.2,17.5,395.0,53.0,11.4,7,5,3,1,2026-07-10T02:18:30.162082+05:30
Muzaffarpur,Bihar,26.1209,85.3647,26.7,96,0.1,993.8,7.95,21.6,99,41.9,40.6,18.9,370.0,63.0,9.6,10,5,7,1,2026-07-10T02:18:30.162086+05:30
Bhagalpur,Bihar,25.2425,87.0117,26.6,96,0.1,994.1,7.95,23.0,93,32.5,32.2,19.6,415.0,54.0,22.0,10,5,7,1,2026-07-10T02:18:30.162091+05:30
Ranchi,Jharkhand,23.3441,85.3096,23.8,96,0.0,931.6,6.9,40.0,60,18.2,16.1,6.9,242.0,81.0,10.4,3,5,7,1,2026-07-10T02:18:30.162095+05:30
Jamshedpur,Jharkhand,22.8046,86.2029,26.8,92,0.1,984.5,7.45,37.8,75,20.1,17.1,13.5,331.0,67.0,17.1,10,5,7,1,2026-07-10T02:18:30.162099+05:30
Dhanbad,Jharkhand,23.7957,86.4304,26.4,96,0.1,972.9,7.35,36.7,115,28.8,27.0,27.6,352.0,61.0,61.1,10,5,7,1,2026-07-10T02:18:30.162103+05:30
Bokaro,Jharkhand,23.6693,86.1511,26.7,93,0.0,976.8,8.3,41.4,90,21.8,20.4,17.3,262.0,71.0,39.9,7,5,7,1,2026-07-10T02:18:30.162107+05:30
Bhubaneswar,Odisha,20.2961,85.8245,27.4,93,0.0,997.5,7.0,39.6,69,23.6,20.4,8.4,209.0,75.0,6.8,7,5,7,1,2026-07-10T02:18:30.162111+05:30
Cuttack,Odisha,20.4625,85.8828,27.5,93,0.1,999.4,6.55,41.8,69,23.6,20.4,8.4,240.0,75.0,6.8,10,5,7,1,2026-07-10T02:18:30.162115+05:30
Rourkela,Odisha,22.2604,84.8536,26.2,97,0.0,979.5,2.9,40.7,69,26.4,21.2,9.2,269.0,69.0,7.2,7,5,3,1,2026-07-10T02:18:30.162119+05:30
Raipur,Chhattisgarh,21.2514,81.6296,26.9,83,0.0,969.9,7.25,40.7,81,35.5,27.0,27.2,500.0,50.0,43.7,7,5,7,1,2026-07-10T02:18:30.162123+05:30
Bhilai,Chhattisgarh,21.1938,81.3509,26.9,83,0.0,970.4,7.5,45.4,79,30.7,22.2,22.2,557.0,55.0,37.3,7,5,7,1,2026-07-10T02:18:30.162127+05:30
Guwahati,Assam,26.1158,91.7086,26.0,97,0.0,995.6,5.55,18.4,49,16.8,16.0,12.1,342.0,39.0,3.2,7,5,3,1,2026-07-10T02:18:30.162130+05:30
Agartala,Tripura,23.8315,91.2868,25.3,99,0.0,1001.0,6.2,48.6,44,8.1,7.0,6.6,141.0,58.0,1.5,7,5,4,1,2026-07-10T02:18:30.162134+05:30
Shillong,Meghalaya,25.5788,91.8933,20.1,95,0.0,853.2,4.25,30.2,24,1.0,0.9,6.4,212.0,39.0,2.1,3,5,3,1,2026-07-10T02:18:30.162138+05:30
Imphal,Manipur,24.817,93.9368,22.4,93,0.0,918.9,7.4,31.0,22,5.6,5.3,5.8,322.0,37.0,1.8,3,5,7,1,2026-07-10T02:18:30.162142+05:30
Aizawl,Mizoram,23.7271,92.7176,19.6,98,0.1,888.3,2.1,51.5,24,0.8,0.8,2.5,114.0,50.0,1.0,6,10,3,1,2026-07-10T02:18:30.162146+05:30
Kohima,Nagaland,25.6701,94.1077,19.0,97,0.0,850.8,6.25,22.3,19,7.3,6.2,7.2,228.0,33.0,1.5,3,10,7,1,2026-07-10T02:18:30.162150+05:30
Gangtok,Sikkim,27.3314,88.6138,18.9,98,0.1,833.7,4.95,26.6,44,3.8,3.8,5.8,300.0,95.0,1.4,6,10,3,1,2026-07-10T02:18:30.162154+05:30
Siliguri,West Bengal,26.7271,88.3953,25.6,96,0.1,986.6,6.2,31.3,55,18.6,18.5,13.4,352.0,66.0,3.8,10,5,7,1,2026-07-10T02:18:33.542605+05:30
Durgapur,West Bengal,23.5204,87.3119,26.0,98,0.0,988.4,7.95,30.6,92,27.9,26.4,24.7,626.0,60.0,34.7,7,5,7,1,2026-07-10T02:18:33.542638+05:30
Asansol,West Bengal,23.6739,86.9524,26.6,96,0.0,986.6,8.0,34.2,90,25.4,23.7,24.1,560.0,63.0,36.8,7,5,7,1,2026-07-10T02:18:33.542645+05:30
Pondicherry,Puducherry,11.9139,79.8145,29.2,68,0.0,1007.0,8.0,34.6,63,21.8,15.5,16.5,198.0,54.0,12.7,7,5,4,1,2026-07-10T02:18:33.542652+05:30
Port Blair,Andaman and Nicobar Islands,11.6234,92.7265,27.1,84,0.0,1007.7,8.8,48.2,54,31.4,14.2,0.1,88.0,51.0,0.4,7,5,4,1,2026-07-10T02:18:33.542658+05:30
Haridwar,Uttarakhand,29.9457,78.1642,24.7,97,0.3,966.0,3.15,15.8,63,19.0,19.0,16.4,291.0,59.0,3.4,6,5,3,1,2026-07-10T02:18:33.542663+05:30
Rishikesh,Uttarakhand,30.0869,78.2676,24.5,96,0.3,958.8,4.15,14.8,40,9.7,9.5,6.3,322.0,92.0,1.7,6,5,3,1,2026-07-10T02:18:33.542668+05:30
Nainital,Uttarakhand,29.3919,79.4542,17.1,99,0.1,800.4,1.85,35.3,39,10.1,9.9,6.9,218.0,82.0,2.1,6,10,3,1,2026-07-10T02:18:33.542673+05:30
Mussoorie,Uttarakhand,30.4599,78.0664,16.3,96,0.1,797.0,1.5,28.8,67,35.5,34.9,56.6,196.0,14.0,9.5,6,10,3,0,2026-07-10T02:18:33.542678+05:30
Dharamshala,Himachal Pradesh,32.219,76.3234,21.4,97,0.2,863.9,8.4,32.8,55,7.1,6.7,10.1,517.0,61.0,0.4,6,5,7,1,2026-07-10T02:18:33.542683+05:30
Dalhousie,Himachal Pradesh,32.5387,75.971,17.2,91,0.1,800.1,8.6,22.0,113,35.5,34.2,25.1,697.0,61.0,2.3,6,10,7,0,2026-07-10T02:18:33.542687+05:30
Patiala,Punjab,30.3398,76.3869,25.7,90,0.0,970.5,7.6,19.4,129,8.7,8.7,9.6,335.0,77.0,1.6,7,5,7,1,2026-07-10T02:18:33.542692+05:30
Bhatinda,Punjab,30.211,74.9455,27.9,81,0.0,975.6,8.25,23.4,140,193.2,39.3,12.5,422.0,72.0,4.4,7,5,7,1,2026-07-10T02:18:33.542696+05:30
Rohtak,Haryana,28.8955,76.6066,25.6,93,0.0,973.2,7.65,26.3,93,30.3,28.6,26.9,526.0,42.0,8.2,7,5,7,1,2026-07-10T02:18:33.542700+05:30
Panipat,Haryana,29.3909,76.9635,25.3,96,0.4,971.9,5.95,24.8,90,30.2,30.2,23.4,334.0,50.0,11.4,10,5,3,1,2026-07-10T02:18:33.542704+05:30
Mathura,Uttar Pradesh,27.4924,77.6737,27.5,85,0.0,977.8,7.95,48.6,188,1058.0,158.3,13.9,404.0,61.0,4.4,7,5,7,1,2026-07-10T02:18:33.542708+05:30
Vrindavan,Uttar Pradesh,27.5823,77.7027,27.5,84,0.0,978.3,7.9,48.2,188,1058.0,158.3,13.9,427.0,61.0,4.4,7,5,7,1,2026-07-10T02:18:33.542713+05:30
Ayodhya,Uttar Pradesh,26.7922,82.1998,26.8,96,0.0,988.2,7.8,26.6,91,26.9,26.1,17.6,370.0,58.0,5.7,7,5,7,1,2026-07-10T02:18:33.542717+05:30
Ratlam,Madhya Pradesh,23.3315,75.0367,24.9,93,0.1,950.2,8.5,49.3,73,28.1,15.3,8.4,159.0,43.0,11.4,6,5,7,1,2026-07-10T02:18:33.542721+05:30
Sagar,Madhya Pradesh,23.8388,78.7378,26.5,75,0.0,944.7,5.75,48.2,65,49.7,28.1,5.8,181.0,70.0,5.0,7,5,3,1,2026-07-10T02:18:33.542725+05:30
Satna,Madhya Pradesh,24.6005,80.8322,25.7,95,0.3,964.9,7.85,38.5,51,32.5,19.3,5.8,187.0,71.0,2.8,10,5,7,1,2026-07-10T02:18:33.542729+05:30
Akola,Maharashtra,20.7002,77.0082,27.8,71,0.0,971.8,8.5,50.0,53,23.2,14.2,8.8,131.0,39.0,8.4,7,5,7,1,2026-07-10T02:18:33.542734+05:30
Amravati,Maharashtra,20.9374,77.7796,27.4,78,0.0,963.7,6.7,50.8,54,26.3,16.0,10.0,164.0,39.0,9.6,7,5,7,1,2026-07-10T02:18:33.542739+05:30
Latur,Maharashtra,18.4088,76.5604,24.0,82,0.0,937.6,8.55,44.3,39,13.9,7.5,5.1,126.0,38.0,2.9,3,5,7,1,2026-07-10T02:18:33.542743+05:30
Nanded,Maharashtra,19.1383,77.3091,27.3,71,0.0,966.1,8.0,40.0,52,15.4,9.6,6.3,159.0,44.0,4.3,7,5,7,1,2026-07-10T02:18:33.542748+05:30
Gulbarga,Karnataka,17.3297,76.8343,25.0,79,0.0,957.0,6.85,40.3,36,16.1,9.1,6.3,120.0,35.0,3.1,7,5,7,1,2026-07-10T02:18:33.542751+05:30
Bidar,Karnataka,17.9104,77.5199,25.2,78,0.0,933.1,6.25,41.0,41,15.6,10.0,6.8,135.0,41.0,2.7,7,5,7,1,2026-07-10T02:18:33.542756+05:30
Hospet,Karnataka,15.2689,76.3909,23.5,88,0.0,954.9,6.2,47.9,25,9.2,5.6,4.9,118.0,35.0,1.8,3,5,7,1,2026-07-10T02:18:33.542760+05:30
Tirupur,Tamil Nadu,11.1085,77.3411,24.4,90,0.0,975.3,8.85,48.2,40,20.3,17.2,21.2,165.0,19.0,5.3,3,5,7,1,2026-07-10T02:18:33.542764+05:30
Alappuzha,Kerala,9.4981,76.3388,25.3,93,0.3,1010.3,8.15,35.6,52,18.5,11.9,9.3,83.0,38.0,3.3,10,0,4,1,2026-07-10T02:18:33.542768+05:30
Munnar,Kerala,10.0889,77.0595,17.0,100,0.1,857.0,8.6,37.1,19,9.6,6.7,7.9,93.0,23.0,1.2,6,10,7,1,2026-07-10T02:18:33.542772+05:30
Silchar,Assam,24.8333,92.7789,26.1,95,0.1,1000.1,1.75,30.2,32,6.0,5.5,5.9,289.0,50.0,2.9,10,5,0,1,2026-07-10T02:18:33.542776+05:30
Dibrugarh,Assam,27.4728,94.912,26.4,99,0.1,989.5,3.25,24.5,43,8.4,7.9,8.4,179.0,52.0,1.5,10,5,3,1,2026-07-10T02:18:33.542780+05:30
