city,state,latitude,longitude,temp,humidity,rain,pressure,uv_index,wind_gusts,aqi,pm10,pm2_5,mosquito_risk,arthritis_risk,migraine_risk,frizz_risk,updated_at
Delhi,Delhi,28.6139,77.209,19.9,85,0.0,987.9,6.4,26.3,154,87.3,69.2,3,10,7,1,2026-03-24T00:29:48.541973+05:30
Mumbai,Maharashtra,19.076,72.8777,28.9,68,0.0,1009.5,7.9,23.0,128,48.8,34.9,7,0,4,1,2026-03-24T00:29:48.542018+05:30
Bangalore,Karnataka,12.9716,77.5946,23.2,67,0.0,912.4,9.45,25.6,90,31.7,28.0,3,5,7,1,2026-03-24T00:29:48.542033+05:30
Hyderabad,Telangana,17.385,78.4867,25.9,60,0.0,954.4,8.9,24.5,89,39.6,33.4,4,5,7,1,2026-03-24T00:29:48.542043+05:30
Chennai,Tamil Nadu,13.0827,80.2707,26.9,79,0.0,1009.2,9.2,31.7,36,12.0,7.7,7,0,4,1,2026-03-24T00:29:48.542051+05:30
Kolkata,West Bengal,22.5726,88.3639,22.9,89,0.0,1009.6,8.3,20.5,153,52.3,47.8,3,0,4,1,2026-03-24T00:29:48.542058+05:30
Pune,Maharashtra,18.5204,73.8567,24.3,58,0.0,949.7,8.45,45.4,101,34.7,31.3,0,5,7,0,2026-03-24T00:29:48.542068+05:30
Ahmedabad,Gujarat,23.0225,72.5714,25.7,57,0.0,1004.5,7.85,32.4,85,51.7,37.4,4,5,4,1,2026-03-24T00:29:48.542075+05:30
Jaipur,Rajasthan,26.9124,75.7873,20.7,81,0.0,963.0,7.25,40.3,117,165.3,58.6,3,5,7,1,2026-03-24T00:29:48.542082+05:30
Lucknow,Uttar Pradesh,26.8467,80.9462,21.9,72,0.0,998.3,6.6,37.8,151,73.1,43.2,3,5,7,1,2026-03-24T00:29:48.542088+05:30
Kanpur,Uttar Pradesh,26.4499,80.3319,20.7,78,0.0,996.4,4.7,29.2,230,234.7,58.7,3,5,3,1,2026-03-24T00:29:48.542093+05:30
Chandigarh,Chandigarh,30.7333,76.7794,18.1,76,0.0,972.3,6.45,27.4,97,61.9,55.1,3,5,7,0,2026-03-24T00:29:48.542100+05:30
Srinagar,Jammu and Kashmir,34.0837,74.7973,7.6,93,0.0,842.6,6.3,19.8,93,50.9,47.5,3,10,7,0,2026-03-24T00:29:48.542106+05:30
Jammu,Jammu and Kashmir,32.7266,74.857,18.2,80,0.0,976.6,7.0,16.2,85,47.5,44.6,3,5,7,0,2026-03-24T00:29:48.542112+05:30
Amritsar,Punjab,31.634,74.8723,18.7,78,0.0,984.6,7.05,16.9,126,56.1,48.0,3,5,7,0,2026-03-24T00:29:48.542118+05:30
Ludhiana,Punjab,30.901,75.8573,19.2,76,0.0,982.8,6.65,23.4,141,93.6,78.2,3,5,7,0,2026-03-24T00:29:48.542124+05:30
Jalandhar,Punjab,31.326,75.5762,18.2,83,0.0,983.9,6.85,23.0,135,65.4,57.4,3,10,7,0,2026-03-24T00:29:48.542132+05:30
Dehradun,Uttarakhand,30.6284,78.0322,9.5,86,0.0,829.7,6.85,21.6,62,29.5,24.1,3,10,7,0,2026-03-24T00:29:48.542138+05:30
Shimla,Himachal Pradesh,31.1048,77.1734,8.2,83,0.0,783.0,6.9,33.1,75,45.9,40.4,3,10,7,0,2026-03-24T00:29:48.542143+05:30
Manali,Himachal Pradesh,32.2396,77.1887,10.5,56,0.0,817.9,8.85,27.7,87,20.4,16.5,0,5,7,0,2026-03-24T00:29:48.542149+05:30
Gurgaon,Haryana,28.4595,77.0266,20.0,90,0.0,986.1,6.55,18.4,179,115.3,74.0,3,5,7,1,2026-03-24T00:29:48.542154+05:30
Noida,Uttar Pradesh,28.5355,77.391,19.6,87,0.0,989.5,6.4,29.5,179,115.3,74.0,3,10,7,1,2026-03-24T00:29:48.542161+05:30
Ghaziabad,Uttar Pradesh,28.6692,77.4538,18.6,90,0.0,987.5,6.35,34.2,153,84.3,70.8,3,10,7,1,2026-03-24T00:29:48.542166+05:30
Faridabad,Haryana,28.4089,77.3178,19.5,86,0.0,988.7,6.4,24.5,179,115.3,74.0,3,10,7,1,2026-03-24T00:29:48.542172+05:30
Meerut,Uttar Pradesh,28.9845,77.7064,17.9,92,0.0,985.9,6.25,30.2,153,84.3,70.8,3,10,7,1,2026-03-24T00:29:48.542177+05:30
Agra,Uttar Pradesh,27.1767,78.0081,19.7,87,0.0,992.1,5.15,24.8,186,188.1,67.5,3,10,3,1,2026-03-24T00:29:48.542182+05:30
Varanasi,Uttar Pradesh,25.3176,82.9739,22.4,65,0.0,1001.7,7.65,27.4,122,116.6,56.0,3,5,4,0,2026-03-24T00:29:48.542189+05:30
Prayagraj,Uttar Pradesh,25.4358,81.8463,23.2,65,0.0,1000.4,7.55,20.5,122,74.3,41.1,3,5,4,1,2026-03-24T00:29:48.542195+05:30
Gorakhpur,Uttar Pradesh,26.7606,83.3732,21.0,82,0.0,1001.5,7.4,23.0,142,56.2,37.6,3,5,4,1,2026-03-24T00:29:48.542201+05:30
Bareilly,Uttar Pradesh,28.367,79.4304,19.0,95,0.0,991.5,5.25,25.2,107,60.3,34.1,3,10,3,1,2026-03-24T00:29:48.542208+05:30
Aligarh,Uttar Pradesh,27.8974,78.088,18.6,94,0.0,990.2,4.35,20.9,152,158.8,73.3,3,10,3,1,2026-03-24T00:29:48.542213+05:30
Moradabad,Uttar Pradesh,28.8386,78.7733,18.0,96,0.0,988.5,5.9,27.4,129,71.7,58.9,3,10,3,1,2026-03-24T00:29:48.542219+05:30
Saharanpur,Uttar Pradesh,29.9637,77.546,16.9,93,0.0,980.1,6.2,25.2,149,88.5,70.5,3,10,7,0,2026-03-24T00:29:48.542225+05:30
Jhansi,Uttar Pradesh,25.4484,78.5685,21.3,76,0.0,981.1,7.4,33.1,83,98.0,43.2,3,5,7,1,2026-03-24T00:29:51.810785+05:30
Surat,Gujarat,21.1702,72.8311,26.2,70,0.0,1008.3,7.65,25.6,123,103.4,83.6,7,0,4,1,2026-03-24T00:29:51.810815+05:30
Vadodara,Gujarat,22.3072,73.1812,26.8,47,0.0,1006.2,7.85,25.9,88,73.6,47.3,4,5,4,0,2026-03-24T00:29:51.810825+05:30
Rajkot,Gujarat,22.3039,70.8022,24.0,50,0.0,996.9,7.7,35.6,66,16.5,15.0,0,5,7,0,2026-03-24T00:29:51.810834+05:30
Thane,Maharashtra,19.2183,72.9781,27.0,64,0.0,1008.9,7.9,37.8,128,48.8,34.9,7,0,4,1,2026-03-24T00:29:51.810841+05:30
Nagpur,Maharashtra,21.1458,79.0882,26.1,47,0.0,974.6,8.1,20.5,86,67.5,58.8,4,5,7,0,2026-03-24T00:29:51.810849+05:30
Nashik,Maharashtra,19.9975,73.7898,24.1,61,0.0,947.2,8.15,36.4,82,46.9,26.5,3,5,7,1,2026-03-24T00:29:51.810856+05:30
Aurangabad,Maharashtra,19.8762,75.3433,24.8,48,0.0,945.0,8.65,27.0,64,30.2,23.9,0,5,7,0,2026-03-24T00:29:51.810864+05:30
Solapur,Maharashtra,17.6599,75.9064,27.1,57,0.0,957.7,8.8,27.4,86,42.1,35.0,4,5,7,1,2026-03-24T00:29:51.810871+05:30
Kolhapur,Maharashtra,16.705,74.2433,20.8,87,0.0,948.5,8.85,34.9,101,63.8,58.8,3,5,7,1,2026-03-24T00:29:51.810909+05:30
Goa,Goa,15.2993,74.124,28.1,80,0.0,999.1,8.9,33.8,84,50.8,36.7,7,5,7,1,2026-03-24T00:29:51.810916+05:30
Jodhpur,Rajasthan,26.2389,73.0243,26.8,45,0.0,985.6,7.5,27.4,74,53.2,21.7,4,5,7,0,2026-03-24T00:29:51.810922+05:30
Udaipur,Rajasthan,24.5854,73.7125,23.0,54,0.0,949.2,7.55,38.5,58,42.3,20.8,0,5,7,0,2026-03-24T00:29:51.810928+05:30
Kota,Rajasthan,25.2138,75.8648,22.6,74,0.0,981.6,7.1,34.2,78,93.6,35.0,3,5,7,1,2026-03-24T00:29:51.810934+05:30
Bikaner,Rajasthan,28.0229,73.3119,26.1,48,0.0,984.7,7.25,15.8,73,40.6,20.4,4,5,7,0,2026-03-24T00:29:51.810940+05:30
Ajmer,Rajasthan,26.4499,74.6399,23.2,62,0.0,957.2,7.5,31.7,67,76.1,33.6,3,5,7,0,2026-03-24T00:29:51.810946+05:30
Gwalior,Madhya Pradesh,26.2183,78.1828,21.2,82,0.0,987.0,4.35,31.7,100,79.6,41.0,3,5,3,1,2026-03-24T00:29:51.810951+05:30
Indore,Madhya Pradesh,22.7196,75.8577,21.7,59,0.0,949.5,8.1,26.6,62,31.2,20.1,0,5,7,0,2026-03-24T00:29:51.810957+05:30
Bhopal,Madhya Pradesh,23.2599,77.4126,23.3,55,0.0,955.3,8.0,33.8,51,32.2,17.8,0,5,7,0,2026-03-24T00:29:51.810963+05:30
Jabalpur,Madhya Pradesh,23.1815,79.9864,24.2,56,0.0,963.9,7.8,20.9,61,37.4,27.6,0,5,7,0,2026-03-24T00:29:51.810969+05:30
Ujjain,Madhya Pradesh,23.1765,75.7885,21.9,59,0.0,955.3,8.0,25.6,78,28.9,17.7,0,5,7,0,2026-03-24T00:29:51.810975+05:30
Visakhapatnam,Andhra Pradesh,17.6868,83.2185,25.2,88,0.0,1006.5,8.85,33.8,92,30.0,22.7,7,5,4,1,2026-03-24T00:29:51.810980+05:30
Vijayawada,Andhra Pradesh,16.5062,80.648,25.1,87,0.0,1004.9,8.95,23.0,68,25.2,21.2,7,5,4,1,2026-03-24T00:29:51.810986+05:30
Guntur,Andhra Pradesh,16.3067,80.4365,25.0,88,0.0,1006.1,8.95,27.0,66,24.9,21.4,7,5,4,1,2026-03-24T00:29:51.810992+05:30
Nellore,Andhra Pradesh,14.4426,79.9865,25.5,86,0.0,1008.0,9.1,28.4,43,10.5,6.5,7,0,4,1,2026-03-24T00:29:51.810998+05:30
Kurnool,Andhra Pradesh,15.8281,78.0373,28.7,51,0.0,977.5,8.95,25.9,67,30.5,24.7,4,5,7,1,2026-03-24T00:29:51.811004+05:30
Kakinada,Andhra Pradesh,16.9891,82.2475,24.5,89,0.0,1010.0,8.9,30.6,57,20.1,12.2,3,0,4,1,2026-03-24T00:29:51.811010+05:30
Tirupati,Andhra Pradesh,13.6288,79.4192,24.6,84,0.0,993.9,9.2,27.0,67,22.0,19.0,3,5,7,1,2026-03-24T00:29:51.811015+05:30
Warangal,Telangana,17.9689,79.5941,26.2,67,0.0,980.0,8.8,24.1,111,37.4,34.0,7,5,7,1,2026-03-24T00:29:51.811021+05:30
Nizamabad,Telangana,18.6725,78.0941,27.3,49,0.0,965.6,8.7,25.2,129,57.9,51.7,4,5,7,0,2026-03-24T00:29:51.811027+05:30
Mysore,Karnataka,12.2958,76.6396,24.0,76,0.0,929.2,9.4,26.6,110,38.3,32.6,3,5,7,1,2026-03-24T00:29:51.811032+05:30
Mangalore,Karnataka,12.9141,74.856,29.4,78,0.0,1007.7,9.05,26.6,74,29.5,23.5,7,5,4,1,2026-03-24T00:29:51.811038+05:30
Hubli-Dharwad,Karnataka,15.3647,75.124,23.8,86,0.0,941.6,9.1,31.3,104,20.4,18.6,3,5,7,1,2026-03-24T00:29:51.811044+05:30
Belgaum,Karnataka,15.8497,74.4977,22.4,92,0.0,926.5,9.15,41.8,96,34.9,29.4,3,5,7,1,2026-03-24T00:29:55.071984+05:30
Coimbatore,Tamil Nadu,11.0168,76.9558,23.4,75,0.0,963.0,9.4,37.1,84,32.4,26.7,3,5,7,1,2026-03-24T00:29:55.072014+05:30
Madurai,Tamil Nadu,9.9252,78.1198,26.0,81,0.0,995.1,9.35,30.6,63,21.2,18.5,7,5,7,1,2026-03-24T00:29:55.072023+05:30
Trichy,Tamil Nadu,10.7905,78.7047,24.9,87,0.0,1001.7,9.3,23.8,57,17.3,15.3,3,5,4,1,2026-03-24T00:29:55.072032+05:30
Salem,Tamil Nadu,11.6643,78.146,26.0,78,0.0,978.7,9.35,27.4,81,36.2,31.4,7,5,7,1,2026-03-24T00:29:55.072040+05:30
Tirunelveli,Tamil Nadu,8.7139,77.7567,26.6,72,0.0,1005.1,9.3,33.1,64,25.8,22.1,7,5,4,1,2026-03-24T00:29:55.072048+05:30
Vellore,Tamil Nadu,12.9165,79.1325,24.4,79,0.0,986.8,9.25,30.6,75,30.5,27.3,3,5,7,1,2026-03-24T00:29:55.072055+05:30
Erode,Tamil Nadu,11.341,77.7172,26.5,79,0.0,990.5,9.35,18.4,60,22.5,19.0,7,5,7,1,2026-03-24T00:29:55.072062+05:30
Kochi,Kerala,9.9312,76.2673,28.2,81,0.0,1009.8,9.15,33.5,84,49.9,45.9,7,0,4,1,2026-03-24T00:29:55.072069+05:30
Thiruvananthapuram,Kerala,8.5241,76.9366,28.9,77,0.0,1008.9,9.15,24.1,99,24.6,16.6,7,0,4,1,2026-03-24T00:29:55.072076+05:30
Kozhikode,Kerala,11.2588,75.7804,29.7,75,0.0,1008.6,9.1,28.4,66,26.8,16.3,7,0,4,1,2026-03-24T00:29:55.072083+05:30
Thrissur,Kerala,10.5276,76.2144,27.5,84,0.0,1008.2,9.1,38.9,77,47.7,39.2,7,0,4,1,2026-03-24T00:29:55.072091+05:30
Kannur,Kerala,11.8745,75.3704,29.0,76,0.0,1007.9,9.1,27.4,68,26.0,19.8,7,5,4,1,2026-03-24T00:29:55.072099+05:30
Patna,Bihar,25.5941,85.1376,22.9,71,0.0,1004.0,7.85,20.9,150,150.4,100.1,3,5,4,1,2026-03-24T00:29:55.072105+05:30
Gaya,Bihar,24.7914,85.0002,22.5,66,0.0,997.1,7.95,17.6,103,126.2,53.1,3,5,7,0,2026-03-24T00:29:55.072112+05:30
Muzaffarpur,Bihar,26.1209,85.3647,21.5,77,0.0,1004.4,7.8,15.8,152,150.9,117.1,3,5,4,1,2026-03-24T00:29:55.072119+05:30
Bhagalpur,Bihar,25.2425,87.0117,22.1,77,0.0,1005.0,7.85,14.4,133,58.4,54.5,3,5,4,1,2026-03-24T00:29:55.072126+05:30
Ranchi,Jharkhand,23.3441,85.3096,20.1,58,0.0,940.2,8.55,27.7,70,49.9,22.5,0,5,7,0,2026-03-24T00:29:55.072132+05:30
Jamshedpur,Jharkhand,22.8046,86.2029,24.8,59,0.0,994.0,8.4,18.7,145,81.3,67.5,0,5,7,1,2026-03-24T00:29:55.072139+05:30
Dhanbad,Jharkhand,23.7957,86.4304,21.4,73,0.0,983.0,8.3,16.9,156,105.7,87.1,3,5,7,1,2026-03-24T00:29:55.072146+05:30
Bokaro,Jharkhand,23.6693,86.1511,23.9,56,0.0,987.4,8.3,18.7,154,108.5,82.9,0,5,7,0,2026-03-24T00:29:55.072153+05:30
Bhubaneswar,Odisha,20.2961,85.8245,25.3,89,0.0,1005.6,8.65,29.5,123,21.9,18.6,7,5,4,1,2026-03-24T00:29:55.072161+05:30
Cuttack,Odisha,20.4625,85.8828,25.1,92,0.0,1007.7,8.7,25.9,123,21.9,18.6,7,5,4,1,2026-03-24T00:29:55.072168+05:30
Rourkela,Odisha,22.2604,84.8536,20.3,82,0.0,987.4,8.3,19.1,91,56.0,38.9,3,5,7,1,2026-03-24T00:29:55.072175+05:30
Raipur,Chhattisgarh,21.2514,81.6296,26.2,43,0.0,976.2,8.45,18.7,122,55.5,43.1,4,5,7,0,2026-03-24T00:29:55.072181+05:30
Bhilai,Chhattisgarh,21.1938,81.3509,25.7,47,0.0,976.5,8.45,16.6,127,55.8,44.7,4,5,7,0,2026-03-24T00:29:55.072188+05:30
Guwahati,Assam,26.1158,91.7086,21.3,85,0.0,1005.7,7.6,20.9,76,32.2,30.5,3,5,4,1,2026-03-24T00:29:55.072194+05:30
Agartala,Tripura,23.8315,91.2868,22.2,71,0.0,1009.7,8.05,13.3,157,90.6,86.8,3,0,4,1,2026-03-24T00:29:55.072201+05:30
Shillong,Meghalaya,25.5788,91.8933,8.6,85,0.0,855.1,7.15,25.2,65,23.6,22.5,3,10,7,0,2026-03-24T00:29:55.072208+05:30
Imphal,Manipur,24.817,93.9368,13.9,87,0.0,925.1,8.35,36.7,77,41.1,39.2,3,10,7,0,2026-03-24T00:29:55.072215+05:30
Aizawl,Mizoram,23.7271,92.7176,14.2,76,0.0,893.6,8.3,33.5,75,36.9,33.5,3,5,7,0,2026-03-24T00:29:55.072222+05:30
Kohima,Nagaland,25.6701,94.1077,11.8,95,0.0,855.1,8.0,39.2,67,30.2,27.4,3,10,7,0,2026-03-24T00:29:55.072228+05:30
Gangtok,Sikkim,27.3314,88.6138,11.1,97,0.3,837.4,6.5,18.7,73,21.9,21.2,6,10,7,0,2026-03-24T00:29:55.072235+05:30
Siliguri,West Bengal,26.7271,88.3953,18.2,67,0.0,997.6,7.1,20.5,102,45.3,43.7,3,5,7,0,2026-03-24T00:29:58.336742+05:30
Durgapur,West Bengal,23.5204,87.3119,23.3,70,0.0,998.5,8.25,16.2,158,95.9,89.2,3,5,7,1,2026-03-24T00:29:58.336771+05:30
Asansol,West Bengal,23.6739,86.9524,23.9,62,0.0,997.1,8.25,16.6,134,67.8,57.2,3,5,7,1,2026-03-24T00:29:58.336780+05:30
Pondicherry,Puducherry,11.9139,79.8145,25.5,88,0.0,1010.5,9.15,29.2,30,10.2,6.3,7,0,4,1,2026-03-24T00:29:58.336788+05:30
Port Blair,Andaman and Nicobar Islands,11.6234,92.7265,27.9,79,0.0,1007.7,9.1,23.4,32,7.2,4.4,7,5,4,1,2026-03-24T00:29:58.336796+05:30
Haridwar,Uttarakhand,29.9457,78.1642,17.4,96,0.0,978.8,6.35,24.8,109,79.6,63.1,3,10,7,1,2026-03-24T00:29:58.336804+05:30
Rishikesh,Uttarakhand,30.0869,78.2676,17.6,85,0.0,971.2,6.4,21.2,86,63.8,43.7,3,10,7,0,2026-03-24T00:29:58.336812+05:30
Nainital,Uttarakhand,29.3919,79.4542,13.3,77,0.0,806.4,7.0,45.0,77,54.9,44.4,3,5,7,0,2026-03-24T00:29:58.336819+05:30
Mussoorie,Uttarakhand,30.4599,78.0664,11.3,75,0.0,802.4,6.65,24.5,88,58.2,48.9,3,5,7,0,2026-03-24T00:29:58.336827+05:30
Dharamshala,Himachal Pradesh,32.219,76.3234,15.3,56,0.0,870.0,6.95,19.4,91,24.7,19.3,0,5,7,0,2026-03-24T00:29:58.336834+05:30
Dalhousie,Himachal Pradesh,32.5387,75.971,11.5,62,0.0,803.1,7.15,17.3,78,44.6,40.9,3,5,7,0,2026-03-24T00:29:58.336843+05:30
Patiala,Punjab,30.3398,76.3869,18.6,80,0.0,982.2,6.3,23.8,135,84.3,67.5,3,5,7,0,2026-03-24T00:29:58.336850+05:30
Bhatinda,Punjab,30.211,74.9455,20.4,75,0.0,987.8,7.0,18.4,135,78.2,55.5,3,5,7,0,2026-03-24T00:29:58.336856+05:30
Rohtak,Haryana,28.8955,76.6066,19.7,91,0.0,986.0,6.45,20.5,145,80.6,61.0,3,10,7,1,2026-03-24T00:29:58.336864+05:30
Panipat,Haryana,29.3909,76.9635,18.0,95,0.0,984.8,6.3,23.0,150,100.1,73.3,3,10,7,1,2026-03-24T00:29:58.336871+05:30
Mathura,Uttar Pradesh,27.4924,77.6737,19.7,89,0.0,991.3,5.9,20.2,166,123.9,70.8,3,10,3,1,2026-03-24T00:29:58.336911+05:30
Vrindavan,Uttar Pradesh,27.5823,77.7027,19.0,91,0.0,991.9,6.05,19.8,166,123.9,70.8,3,10,7,1,2026-03-24T00:29:58.336919+05:30
Ayodhya,Uttar Pradesh,26.7922,82.1998,21.4,71,0.0,1000.0,7.1,29.2,141,56.5,37.7,3,5,4,0,2026-03-24T00:29:58.336927+05:30
Ratlam,Madhya Pradesh,23.3315,75.0367,24.9,51,0.0,956.3,7.95,29.2,72,28.6,16.5,0,5,7,0,2026-03-24T00:29:58.336935+05:30
Sagar,Madhya Pradesh,23.8388,78.7378,23.9,56,0.0,952.6,8.0,31.0,62,41.3,25.7,0,5,7,0,2026-03-24T00:29:58.336942+05:30
Satna,Madhya Pradesh,24.6005,80.8322,23.2,61,0.0,975.0,7.95,23.4,67,72.4,25.5,3,5,7,0,2026-03-24T00:29:58.336949+05:30
Akola,Maharashtra,20.7002,77.0082,25.6,58,0.0,976.2,8.35,16.6,80,40.6,35.3,4,5,7,1,2026-03-24T00:29:58.336957+05:30
Amravati,Maharashtra,20.9374,77.7796,24.4,57,0.0,968.2,8.35,22.0,84,42.0,36.9,0,5,7,0,2026-03-24T00:29:58.336965+05:30
Latur,Maharashtra,18.4088,76.5604,25.3,51,0.0,940.3,8.6,22.3,87,41.8,36.2,4,5,7,0,2026-03-24T00:29:58.336972+05:30
Nanded,Maharashtra,19.1383,77.3091,26.9,54,0.0,969.4,8.55,18.0,101,68.9,59.6,4,5,7,1,2026-03-24T00:29:58.336979+05:30
Gulbarga,Karnataka,17.3297,76.8343,27.5,54,0.0,959.2,8.8,26.3,96,44.9,35.4,4,5,7,1,2026-03-24T00:29:58.336986+05:30
Bidar,Karnataka,17.9104,77.5199,27.2,58,0.0,936.3,8.8,22.7,112,60.1,49.0,4,5,7,1,2026-03-24T00:29:58.336993+05:30
Hospet,Karnataka,15.2689,76.3909,27.2,67,0.0,956.7,9.05,19.1,114,46.9,37.4,7,5,7,1,2026-03-24T00:29:58.337000+05:30
Tirupur,Tamil Nadu,11.1085,77.3411,27.0,61,0.0,976.9,9.4,31.3,70,29.6,23.9,7,5,7,1,2026-03-24T00:29:58.337006+05:30
Alappuzha,Kerala,9.4981,76.3388,28.1,81,0.0,1010.2,9.15,33.1,82,53.1,40.5,7,0,4,1,2026-03-24T00:29:58.337013+05:30
Munnar,Kerala,10.0889,77.0595,20.5,81,0.0,857.5,9.65,29.5,71,38.9,31.1,3,5,7,1,2026-03-24T00:29:58.337020+05:30
Silchar,Assam,24.8333,92.7789,20.0,83,0.0,1008.9,8.05,18.7,120,69.4,66.4,3,0,4,1,2026-03-24T00:29:58.337028+05:30
Dibrugarh,Assam,27.4728,94.912,20.3,94,0.0,1000.1,7.75,14.8,66,26.9,26.6,3,5,4,1,2026-03-24T00:29:58.337035+05:30
