city,state,latitude,longitude,temp,humidity,rain,pressure,uv_index,wind_gusts,aqi,pm10,pm2_5,no2,co,o3,so2,mosquito_risk,arthritis_risk,migraine_risk,frizz_risk,updated_at
Delhi,Delhi,28.6139,77.209,36.4,34,0.0,977.1,7.75,38.5,188,250.5,64.7,11.1,289.0,144.0,12.2,0,5,10,1,2026-06-18T18:25:59.080607+05:30
Mumbai,Maharashtra,19.076,72.8777,31.2,61,0.0,1006.0,7.7,43.2,61,38.3,18.7,6.4,170.0,61.0,5.1,3,5,4,1,2026-06-18T18:25:59.080658+05:30
Bangalore,Karnataka,12.9716,77.5946,23.5,84,0.1,910.4,7.0,34.6,59,20.0,15.1,27.1,906.0,50.0,5.2,6,5,7,1,2026-06-18T18:25:59.080673+05:30
Hyderabad,Telangana,17.385,78.4867,33.7,37,0.0,950.3,9.05,37.8,84,32.1,19.3,6.3,269.0,111.0,4.2,0,5,7,1,2026-06-18T18:25:59.080682+05:30
Chennai,Tamil Nadu,13.0827,80.2707,30.2,78,0.0,1004.3,6.6,31.0,112,40.5,29.4,7.6,257.0,173.0,11.3,3,5,4,1,2026-06-18T18:25:59.080691+05:30
Kolkata,West Bengal,22.5726,88.3639,29.2,83,0.0,1001.5,8.95,42.1,128,57.7,48.5,14.1,557.0,99.0,10.7,7,5,4,1,2026-06-18T18:25:59.080699+05:30
Pune,Maharashtra,18.5204,73.8567,29.4,50,0.0,946.1,8.3,43.9,50,24.3,14.2,3.3,140.0,81.0,3.1,4,5,7,1,2026-06-18T18:25:59.080706+05:30
Ahmedabad,Gujarat,23.0225,72.5714,33.1,51,0.0,997.4,4.45,30.2,68,54.9,19.5,3.8,166.0,80.0,3.0,0,5,3,1,2026-06-18T18:25:59.080714+05:30
Jaipur,Rajasthan,26.9124,75.7873,34.9,35,0.0,955.2,8.2,33.1,116,126.2,40.5,6.0,156.0,85.0,3.3,0,5,7,1,2026-06-18T18:25:59.080725+05:30
Lucknow,Uttar Pradesh,26.8467,80.9462,35.1,44,0.0,987.0,8.35,43.2,156,189.1,55.6,3.4,219.0,135.0,6.9,0,5,10,1,2026-06-18T18:25:59.080733+05:30
Kanpur,Uttar Pradesh,26.4499,80.3319,35.9,42,0.0,985.3,8.25,43.2,154,281.3,58.3,3.1,185.0,131.0,5.2,0,5,10,1,2026-06-18T18:25:59.080740+05:30
Chandigarh,Chandigarh,30.7333,76.7794,32.6,46,0.0,963.6,7.8,28.8,170,51.8,34.3,4.6,427.0,173.0,9.5,0,5,7,1,2026-06-18T18:25:59.080747+05:30
Srinagar,Jammu and Kashmir,34.0837,74.7973,22.2,59,0.0,841.6,8.85,34.9,101,21.0,16.5,7.2,388.0,118.0,2.3,0,5,7,0,2026-06-18T18:25:59.080754+05:30
Jammu,Jammu and Kashmir,32.7266,74.857,35.8,30,0.0,967.6,8.65,29.9,147,31.9,19.8,3.4,233.0,161.0,2.3,0,5,10,0,2026-06-18T18:25:59.080761+05:30
Amritsar,Punjab,31.634,74.8723,33.1,58,0.0,975.5,8.5,25.2,176,55.3,39.3,4.2,391.0,190.0,9.7,0,5,7,1,2026-06-18T18:25:59.080767+05:30
Ludhiana,Punjab,30.901,75.8573,34.1,39,0.0,973.2,7.4,28.8,161,58.4,34.0,3.3,285.0,159.0,3.6,0,5,7,1,2026-06-18T18:25:59.080773+05:30
Jalandhar,Punjab,31.326,75.5762,34.3,43,0.0,974.3,8.25,27.7,162,57.9,36.4,3.2,373.0,167.0,4.8,0,5,7,1,2026-06-18T18:25:59.080798+05:30
Dehradun,Uttarakhand,30.6284,78.0322,21.9,69,0.0,829.1,7.7,24.5,113,52.7,23.0,2.4,223.0,143.0,2.8,3,5,7,0,2026-06-18T18:25:59.080807+05:30
Shimla,Himachal Pradesh,31.1048,77.1734,18.6,62,0.0,783.9,7.75,35.6,123,64.5,31.4,2.5,270.0,155.0,6.5,3,5,7,0,2026-06-18T18:25:59.080819+05:30
Manali,Himachal Pradesh,32.2396,77.1887,20.7,77,0.0,818.0,9.6,29.5,85,5.9,4.4,27.7,157.0,104.0,0.3,3,5,7,1,2026-06-18T18:25:59.080826+05:30
Gurgaon,Haryana,28.4595,77.0266,35.7,36,0.0,975.5,7.85,36.4,214,237.0,59.4,11.7,339.0,136.0,9.9,0,5,10,1,2026-06-18T18:25:59.080833+05:30
Noida,Uttar Pradesh,28.5355,77.391,35.4,38,0.0,978.2,7.8,26.3,214,237.0,59.4,11.7,400.0,136.0,9.9,0,5,10,1,2026-06-18T18:25:59.080841+05:30
Ghaziabad,Uttar Pradesh,28.6692,77.4538,34.2,44,0.0,976.5,7.35,31.3,215,159.7,58.2,10.1,287.0,166.0,16.8,0,5,7,1,2026-06-18T18:25:59.080848+05:30
Faridabad,Haryana,28.4089,77.3178,36.3,34,0.0,977.7,7.85,37.8,214,237.0,59.4,11.7,255.0,136.0,9.9,0,5,10,1,2026-06-18T18:25:59.080854+05:30
Meerut,Uttar Pradesh,28.9845,77.7064,35.1,41,0.0,975.3,7.7,42.1,215,159.7,58.2,10.1,240.0,166.0,16.8,0,5,10,1,2026-06-18T18:25:59.080861+05:30
Agra,Uttar Pradesh,27.1767,78.0081,37.8,29,0.0,981.3,8.15,31.7,188,512.2,79.4,4.3,160.0,117.0,4.6,0,5,10,1,2026-06-18T18:25:59.080868+05:30
Varanasi,Uttar Pradesh,25.3176,82.9739,37.6,36,0.0,990.7,8.8,31.3,151,82.0,37.6,3.9,215.0,133.0,6.1,0,5,10,1,2026-06-18T18:25:59.080875+05:30
Prayagraj,Uttar Pradesh,25.4358,81.8463,37.9,33,0.0,989.2,8.3,32.0,138,78.2,32.6,3.4,167.0,122.0,5.7,0,5,10,1,2026-06-18T18:25:59.080882+05:30
Gorakhpur,Uttar Pradesh,26.7606,83.3732,34.7,52,0.0,990.2,8.7,31.0,152,115.3,45.5,6.4,254.0,140.0,8.9,0,5,7,1,2026-06-18T18:25:59.080890+05:30
Bareilly,Uttar Pradesh,28.367,79.4304,34.0,50,0.0,980.2,8.15,26.3,158,115.0,46.2,3.8,241.0,145.0,8.4,0,5,7,1,2026-06-18T18:25:59.080896+05:30
Aligarh,Uttar Pradesh,27.8974,78.088,35.6,38,0.0,979.2,7.95,32.4,233,393.9,85.0,8.2,191.0,155.0,12.7,0,5,10,1,2026-06-18T18:25:59.080903+05:30
Moradabad,Uttar Pradesh,28.8386,78.7733,34.7,44,0.0,977.4,7.95,32.0,168,96.2,46.6,7.5,258.0,138.0,9.0,0,5,7,1,2026-06-18T18:25:59.080909+05:30
Saharanpur,Uttar Pradesh,29.9637,77.546,33.2,50,0.0,969.8,7.55,24.5,172,112.9,45.9,5.6,296.0,163.0,11.6,0,5,7,1,2026-06-18T18:25:59.080915+05:30
Jhansi,Uttar Pradesh,25.4484,78.5685,35.3,40,0.0,972.7,8.5,32.0,79,87.3,33.2,2.0,135.0,95.0,3.2,0,5,10,1,2026-06-18T18:26:02.380138+05:30
Surat,Gujarat,21.1702,72.8311,30.9,67,0.0,1003.4,7.6,49.7,72,41.3,21.1,12.2,214.0,42.0,29.9,3,5,4,1,2026-06-18T18:26:02.380170+05:30
Vadodara,Gujarat,22.3072,73.1812,32.7,52,0.0,999.9,5.25,50.4,64,40.9,19.4,5.4,139.0,81.0,5.3,0,5,3,1,2026-06-18T18:26:02.380180+05:30
Rajkot,Gujarat,22.3039,70.8022,32.2,55,0.1,990.0,4.15,45.7,59,42.6,17.6,2.0,104.0,78.0,3.8,3,5,3,1,2026-06-18T18:26:02.380189+05:30
Thane,Maharashtra,19.2183,72.9781,31.8,58,0.0,1005.3,7.7,40.7,61,38.3,18.7,6.4,161.0,61.0,5.1,0,5,4,1,2026-06-18T18:26:02.380197+05:30
Nagpur,Maharashtra,21.1458,79.0882,33.5,46,0.0,969.3,7.55,50.4,78,41.4,21.4,7.1,182.0,111.0,16.7,0,5,7,1,2026-06-18T18:26:02.380205+05:30
Nashik,Maharashtra,19.9975,73.7898,30.3,45,0.0,943.3,8.0,45.4,49,30.2,14.7,1.5,115.0,72.0,1.0,0,5,7,1,2026-06-18T18:26:02.380212+05:30
Aurangabad,Maharashtra,19.8762,75.3433,34.3,25,0.0,941.3,8.9,43.2,49,32.6,16.3,1.8,135.0,114.0,3.6,0,5,7,0,2026-06-18T18:26:02.380220+05:30
Solapur,Maharashtra,17.6599,75.9064,34.6,31,0.0,954.1,8.7,43.9,55,25.8,13.5,1.8,130.0,116.0,2.5,0,5,7,0,2026-06-18T18:26:02.380227+05:30
Kolhapur,Maharashtra,16.705,74.2433,29.5,45,0.0,946.4,8.75,43.6,52,28.3,15.7,2.3,124.0,84.0,1.6,4,5,7,1,2026-06-18T18:26:02.380235+05:30
Goa,Goa,15.2993,74.124,30.2,65,0.0,996.5,8.65,33.5,60,34.7,16.5,1.1,112.0,60.0,1.3,3,5,7,1,2026-06-18T18:26:02.380242+05:30
Jodhpur,Rajasthan,26.2389,73.0243,35.7,40,0.1,977.9,8.4,42.5,104,137.4,30.3,1.2,122.0,87.0,1.5,3,5,10,1,2026-06-18T18:26:02.380250+05:30
Udaipur,Rajasthan,24.5854,73.7125,29.9,56,0.0,943.1,7.9,33.1,66,47.8,20.1,1.2,118.0,82.0,1.6,4,5,7,1,2026-06-18T18:26:02.380257+05:30
Kota,Rajasthan,25.2138,75.8648,33.1,50,0.0,974.2,8.35,41.0,72,67.3,28.9,2.7,194.0,97.0,4.6,0,5,7,1,2026-06-18T18:26:02.380265+05:30
Bikaner,Rajasthan,28.0229,73.3119,35.3,44,0.0,976.8,8.45,54.7,125,122.5,38.0,0.7,126.0,88.0,2.0,0,5,10,1,2026-06-18T18:26:02.380272+05:30
Ajmer,Rajasthan,26.4499,74.6399,32.6,48,0.0,950.5,8.35,41.4,85,101.5,32.6,1.3,126.0,91.0,2.3,0,5,7,1,2026-06-18T18:26:02.380279+05:30
Gwalior,Madhya Pradesh,26.2183,78.1828,37.1,29,0.0,977.4,8.25,34.6,92,122.0,38.9,1.3,139.0,101.0,2.1,0,5,10,0,2026-06-18T18:26:02.380285+05:30
Indore,Madhya Pradesh,22.7196,75.8577,32.7,39,0.0,944.9,8.6,40.7,77,33.6,18.1,2.6,221.0,93.0,2.1,0,5,7,1,2026-06-18T18:26:02.380292+05:30
Bhopal,Madhya Pradesh,23.2599,77.4126,33.3,46,0.0,949.5,8.65,35.3,78,42.7,20.7,1.4,273.0,101.0,2.6,0,5,7,1,2026-06-18T18:26:02.380299+05:30
Jabalpur,Madhya Pradesh,23.1815,79.9864,29.8,71,0.1,957.4,3.75,36.0,77,31.9,19.0,1.8,232.0,112.0,2.4,10,5,3,1,2026-06-18T18:26:02.380306+05:30
Ujjain,Madhya Pradesh,23.1765,75.7885,31.3,48,0.0,950.5,8.55,45.4,68,25.1,14.9,1.7,163.0,86.0,2.1,0,5,7,1,2026-06-18T18:26:02.380313+05:30
Visakhapatnam,Andhra Pradesh,17.6868,83.2185,29.6,85,0.0,999.4,8.15,28.4,125,46.2,34.8,18.2,451.0,134.0,39.2,7,5,7,1,2026-06-18T18:26:02.380320+05:30
Vijayawada,Andhra Pradesh,16.5062,80.648,33.8,61,0.0,997.9,8.65,27.4,97,34.5,23.7,5.3,261.0,136.0,7.6,3,5,7,1,2026-06-18T18:26:02.380326+05:30
Guntur,Andhra Pradesh,16.3067,80.4365,33.6,59,0.0,999.1,8.7,38.5,100,32.0,22.3,3.9,284.0,142.0,6.4,0,5,7,1,2026-06-18T18:26:02.380333+05:30
Nellore,Andhra Pradesh,14.4426,79.9865,33.9,56,0.0,1001.3,8.05,37.8,81,34.2,24.6,7.6,173.0,130.0,6.6,0,5,4,1,2026-06-18T18:26:02.380340+05:30
Kurnool,Andhra Pradesh,15.8281,78.0373,33.6,45,0.0,973.4,8.7,36.0,67,27.2,17.2,2.2,149.0,127.0,6.7,0,5,7,1,2026-06-18T18:26:02.380347+05:30
Kakinada,Andhra Pradesh,16.9891,82.2475,31.3,75,0.0,1003.0,5.6,24.8,105,44.1,28.2,3.3,275.0,143.0,5.2,3,5,0,1,2026-06-18T18:26:02.380354+05:30
Tirupati,Andhra Pradesh,13.6288,79.4192,30.0,67,0.0,988.0,7.2,30.6,81,27.9,18.5,8.0,181.0,110.0,4.7,7,5,7,1,2026-06-18T18:26:02.380361+05:30
Warangal,Telangana,17.9689,79.5941,34.1,47,0.0,974.6,8.9,32.0,123,39.5,27.6,3.9,170.0,136.0,10.4,0,5,7,1,2026-06-18T18:26:02.380367+05:30
Nizamabad,Telangana,18.6725,78.0941,35.2,33,0.0,961.1,8.9,34.2,80,36.1,16.8,1.8,146.0,100.0,2.2,0,5,10,1,2026-06-18T18:26:02.380374+05:30
Mysore,Karnataka,12.2958,76.6396,23.3,90,0.1,927.5,8.3,25.6,45,18.7,12.3,15.4,246.0,56.0,2.7,6,5,7,1,2026-06-18T18:26:02.380381+05:30
Mangalore,Karnataka,12.9141,74.856,28.9,76,0.0,1005.8,7.7,24.8,66,32.9,15.3,3.0,134.0,59.0,2.1,7,5,4,1,2026-06-18T18:26:02.380387+05:30
Hubli-Dharwad,Karnataka,15.3647,75.124,27.1,67,0.0,939.5,8.85,38.5,50,26.1,13.8,3.0,140.0,82.0,1.3,7,5,7,1,2026-06-18T18:26:02.380394+05:30
Belgaum,Karnataka,15.8497,74.4977,26.8,61,0.0,924.4,8.95,37.4,53,30.5,15.9,2.0,112.0,72.0,1.3,7,5,7,1,2026-06-18T18:26:05.673923+05:30
Coimbatore,Tamil Nadu,11.0168,76.9558,25.7,81,0.0,961.1,8.75,33.5,41,14.5,10.6,9.1,232.0,72.0,2.5,7,5,7,1,2026-06-18T18:26:05.673957+05:30
Madurai,Tamil Nadu,9.9252,78.1198,29.1,67,0.0,992.1,7.6,42.5,70,25.7,15.9,9.8,292.0,100.0,2.9,7,5,7,1,2026-06-18T18:26:05.673968+05:30
Trichy,Tamil Nadu,10.7905,78.7047,31.6,57,0.0,997.9,8.5,45.0,64,17.2,11.6,4.4,242.0,123.0,3.8,0,5,7,1,2026-06-18T18:26:05.673977+05:30
Salem,Tamil Nadu,11.6643,78.146,29.1,66,0.0,975.9,8.05,38.2,60,16.0,11.3,9.1,226.0,99.0,9.0,7,5,7,1,2026-06-18T18:26:05.673986+05:30
Tirunelveli,Tamil Nadu,8.7139,77.7567,32.0,50,0.0,1001.4,8.0,30.2,52,14.5,9.5,4.3,186.0,73.0,1.4,0,5,4,1,2026-06-18T18:26:05.673994+05:30
Vellore,Tamil Nadu,12.9165,79.1325,29.3,85,0.0,981.9,8.2,45.0,69,26.0,16.9,5.8,186.0,102.0,3.2,7,5,7,1,2026-06-18T18:26:05.674002+05:30
Erode,Tamil Nadu,11.341,77.7172,29.7,62,0.0,987.9,7.7,31.3,53,17.3,11.6,6.4,250.0,111.0,2.2,7,5,7,1,2026-06-18T18:26:05.674009+05:30
Kochi,Kerala,9.9312,76.2673,27.3,83,0.0,1008.3,5.15,36.0,75,19.6,13.4,12.3,154.0,48.0,3.7,7,0,0,1,2026-06-18T18:26:05.674017+05:30
Thiruvananthapuram,Kerala,8.5241,76.9366,25.8,94,0.1,1007.6,7.1,42.1,58,20.7,10.5,2.7,171.0,63.0,1.2,10,5,4,1,2026-06-18T18:26:05.674024+05:30
Kozhikode,Kerala,11.2588,75.7804,26.4,97,0.1,1007.2,6.6,33.5,55,22.2,11.5,1.3,172.0,71.0,1.3,10,5,4,1,2026-06-18T18:26:05.674031+05:30
Thrissur,Kerala,10.5276,76.2144,25.9,96,0.1,1006.7,4.1,28.1,87,17.8,13.2,11.5,191.0,51.0,2.7,10,5,0,1,2026-06-18T18:26:05.674040+05:30
Kannur,Kerala,11.8745,75.3704,26.9,89,0.0,1006.3,8.05,36.4,54,29.7,15.9,4.2,174.0,69.0,2.1,7,5,4,1,2026-06-18T18:26:05.674048+05:30
Patna,Bihar,25.5941,85.1376,36.1,45,0.0,993.6,8.85,35.6,160,97.6,44.8,13.7,254.0,105.0,6.6,0,5,10,1,2026-06-18T18:26:05.674054+05:30
Gaya,Bihar,24.7914,85.0002,34.2,58,0.0,987.8,8.85,34.2,161,85.9,47.6,8.4,232.0,124.0,6.9,0,5,7,1,2026-06-18T18:26:05.674061+05:30
Muzaffarpur,Bihar,26.1209,85.3647,33.6,67,0.0,993.6,8.85,23.8,160,104.3,48.3,14.4,318.0,104.0,7.1,3,5,7,1,2026-06-18T18:26:05.674068+05:30
Bhagalpur,Bihar,25.2425,87.0117,33.5,59,0.0,994.9,8.45,26.6,177,105.5,56.2,7.3,324.0,154.0,12.3,0,5,7,1,2026-06-18T18:26:05.674076+05:30
Ranchi,Jharkhand,23.3441,85.3096,28.5,69,0.0,934.3,7.6,34.9,151,66.6,54.0,6.0,223.0,136.0,8.7,7,5,7,1,2026-06-18T18:26:05.674083+05:30
Jamshedpur,Jharkhand,22.8046,86.2029,32.9,60,0.0,986.1,8.9,34.2,193,86.6,60.3,12.5,333.0,152.0,27.9,0,5,7,1,2026-06-18T18:26:05.674090+05:30
Dhanbad,Jharkhand,23.7957,86.4304,31.4,65,0.0,975.1,8.85,50.4,189,143.0,88.7,30.5,210.0,173.0,77.4,3,5,7,1,2026-06-18T18:26:05.674097+05:30
Bokaro,Jharkhand,23.6693,86.1511,31.4,63,0.0,978.9,8.85,28.8,170,134.6,73.1,23.0,242.0,157.0,67.9,3,5,7,1,2026-06-18T18:26:05.674104+05:30
Bhubaneswar,Odisha,20.2961,85.8245,30.0,84,0.0,998.1,8.75,32.4,142,56.8,44.6,8.1,410.0,141.0,9.5,7,5,7,1,2026-06-18T18:26:05.674111+05:30
Cuttack,Odisha,20.4625,85.8828,30.1,82,0.0,1000.1,9.1,33.1,142,56.8,44.6,8.1,415.0,141.0,9.5,3,5,4,1,2026-06-18T18:26:05.674118+05:30
Rourkela,Odisha,22.2604,84.8536,32.6,64,0.0,980.5,8.7,31.0,161,81.7,54.5,3.9,343.0,174.0,12.1,3,5,7,1,2026-06-18T18:26:05.674124+05:30
Raipur,Chhattisgarh,21.2514,81.6296,27.6,80,0.2,971.6,8.95,49.3,117,41.7,30.9,12.2,153.0,123.0,30.7,10,5,7,1,2026-06-18T18:26:05.674131+05:30
Bhilai,Chhattisgarh,21.1938,81.3509,27.7,78,0.3,972.2,8.9,37.1,111,32.5,23.8,11.4,213.0,108.0,24.1,10,5,7,1,2026-06-18T18:26:05.674138+05:30
Guwahati,Assam,26.1158,91.7086,26.8,98,0.0,996.7,8.8,33.1,94,23.3,20.6,5.9,377.0,86.0,2.3,7,5,7,1,2026-06-18T18:26:05.674144+05:30
Agartala,Tripura,23.8315,91.2868,28.0,87,0.0,1002.5,8.55,32.0,83,26.7,22.5,8.3,251.0,83.0,3.5,7,5,4,1,2026-06-18T18:26:05.674151+05:30
Shillong,Meghalaya,25.5788,91.8933,20.4,95,0.0,854.8,7.8,23.0,75,21.0,17.5,6.1,314.0,100.0,3.1,3,5,7,1,2026-06-18T18:26:05.674158+05:30
Imphal,Manipur,24.817,93.9368,25.2,76,0.0,920.0,9.15,29.9,86,18.7,15.7,5.4,258.0,84.0,2.1,7,5,7,1,2026-06-18T18:26:05.674164+05:30
Aizawl,Mizoram,23.7271,92.7176,21.9,87,0.0,890.2,8.9,24.1,52,18.5,14.8,2.8,206.0,85.0,1.5,3,5,7,1,2026-06-18T18:26:05.674171+05:30
Kohima,Nagaland,25.6701,94.1077,21.2,93,0.1,853.1,7.65,25.9,62,25.3,20.5,5.3,221.0,79.0,1.8,6,5,7,1,2026-06-18T18:26:05.674178+05:30
Gangtok,Sikkim,27.3314,88.6138,19.0,97,0.1,834.9,8.15,33.5,94,8.7,7.3,5.7,369.0,131.0,3.5,6,10,7,1,2026-06-18T18:26:05.674185+05:30
Siliguri,West Bengal,26.7271,88.3953,25.2,99,0.1,988.4,8.75,23.0,135,37.1,28.9,7.1,706.0,142.0,6.3,10,5,7,1,2026-06-18T18:26:08.968956+05:30
Durgapur,West Bengal,23.5204,87.3119,31.6,68,0.0,990.0,8.85,41.4,217,133.6,104.5,28.6,732.0,195.0,63.5,3,5,7,1,2026-06-18T18:26:08.969008+05:30
Asansol,West Bengal,23.6739,86.9524,31.5,67,0.0,988.5,8.85,41.8,204,126.2,105.0,33.8,380.0,200.0,66.7,3,5,7,1,2026-06-18T18:26:08.969019+05:30
Pondicherry,Puducherry,11.9139,79.8145,32.6,60,0.0,1005.4,7.95,41.0,69,28.6,20.5,14.2,270.0,121.0,5.3,0,5,4,1,2026-06-18T18:26:08.969028+05:30
Port Blair,Andaman and Nicobar Islands,11.6234,92.7265,27.3,87,0.0,1007.2,8.7,32.4,23,9.4,4.8,0.5,106.0,43.0,0.3,7,5,4,1,2026-06-18T18:26:08.969037+05:30
Haridwar,Uttarakhand,29.9457,78.1642,32.2,56,0.0,968.3,7.5,41.4,155,82.4,39.6,2.8,282.0,166.0,9.4,0,5,7,1,2026-06-18T18:26:08.969045+05:30
Rishikesh,Uttarakhand,30.0869,78.2676,30.3,63,0.0,961.4,7.6,22.0,142,86.4,38.3,1.5,266.0,163.0,8.3,3,5,7,1,2026-06-18T18:26:08.969053+05:30
Nainital,Uttarakhand,29.3919,79.4542,19.3,84,0.0,804.0,6.9,23.8,154,80.1,32.9,2.1,254.0,157.0,6.7,3,10,7,1,2026-06-18T18:26:08.969062+05:30
Mussoorie,Uttarakhand,30.4599,78.0664,19.6,76,0.0,802.1,7.55,29.9,151,78.0,36.4,2.4,245.0,165.0,6.6,3,5,7,0,2026-06-18T18:26:08.969069+05:30
Dharamshala,Himachal Pradesh,32.219,76.3234,23.0,77,0.1,867.2,8.5,43.9,102,26.1,12.7,2.0,237.0,133.0,1.1,6,5,7,1,2026-06-18T18:26:08.969077+05:30
Dalhousie,Himachal Pradesh,32.5387,75.971,19.5,80,0.1,804.1,8.45,34.2,132,39.3,18.1,2.7,213.0,158.0,2.0,6,5,7,0,2026-06-18T18:26:08.969085+05:30
Patiala,Punjab,30.3398,76.3869,35.0,37,0.0,972.8,7.7,32.8,160,217.0,56.2,3.0,280.0,162.0,5.5,0,5,7,1,2026-06-18T18:26:08.969093+05:30
Bhatinda,Punjab,30.211,74.9455,35.7,36,0.0,978.3,8.3,29.9,163,58.2,35.5,4.8,219.0,146.0,9.9,0,5,10,1,2026-06-18T18:26:08.969100+05:30
Rohtak,Haryana,28.8955,76.6066,33.3,48,0.0,976.1,7.8,34.9,163,343.7,67.1,5.6,230.0,138.0,5.2,0,5,7,1,2026-06-18T18:26:08.969107+05:30
Panipat,Haryana,29.3909,76.9635,34.8,42,0.0,974.4,7.6,31.7,309,449.8,80.3,5.6,237.0,144.0,10.6,0,5,7,1,2026-06-18T18:26:08.969114+05:30
Mathura,Uttar Pradesh,27.4924,77.6737,35.4,42,0.0,980.3,8.1,27.0,188,325.0,64.3,6.1,204.0,116.0,5.4,0,5,10,1,2026-06-18T18:26:08.969121+05:30
Vrindavan,Uttar Pradesh,27.5823,77.7027,35.4,42,0.0,980.8,8.05,27.0,188,325.0,64.3,6.1,207.0,116.0,5.4,0,5,10,1,2026-06-18T18:26:08.969128+05:30
Ayodhya,Uttar Pradesh,26.7922,82.1998,34.2,54,0.0,988.5,8.4,29.9,153,127.6,51.2,5.6,238.0,141.0,9.2,0,5,7,1,2026-06-18T18:26:08.969136+05:30
Ratlam,Madhya Pradesh,23.3315,75.0367,30.5,54,0.0,951.7,8.45,46.4,66,24.7,14.3,1.4,133.0,85.0,2.1,0,5,7,1,2026-06-18T18:26:08.969143+05:30
Sagar,Madhya Pradesh,23.8388,78.7378,32.5,55,0.0,946.1,8.55,46.4,73,35.9,20.5,1.5,147.0,107.0,2.2,0,5,7,1,2026-06-18T18:26:08.969150+05:30
Satna,Madhya Pradesh,24.6005,80.8322,35.0,41,0.0,966.4,8.8,30.6,91,60.8,24.8,1.1,164.0,107.0,2.3,0,5,7,1,2026-06-18T18:26:08.969158+05:30
Akola,Maharashtra,20.7002,77.0082,37.2,24,0.0,970.8,8.8,45.7,63,46.9,19.9,2.3,121.0,105.0,4.8,0,5,10,0,2026-06-18T18:26:08.969166+05:30
Amravati,Maharashtra,20.9374,77.7796,35.5,31,0.0,963.6,8.8,42.1,68,45.4,19.8,2.7,127.0,105.0,5.8,0,5,10,0,2026-06-18T18:26:08.969174+05:30
Latur,Maharashtra,18.4088,76.5604,33.4,31,0.0,937.1,8.55,42.8,58,32.4,15.0,1.5,138.0,107.0,2.4,0,5,7,0,2026-06-18T18:26:08.969181+05:30
Nanded,Maharashtra,19.1383,77.3091,36.2,31,0.0,964.9,8.8,38.9,61,40.7,16.8,1.7,138.0,99.0,1.7,0,5,10,1,2026-06-18T18:26:08.969188+05:30
Gulbarga,Karnataka,17.3297,76.8343,34.1,31,0.0,955.6,8.9,42.1,61,31.2,16.2,2.7,142.0,126.0,4.1,0,5,7,0,2026-06-18T18:26:08.969195+05:30
Bidar,Karnataka,17.9104,77.5199,31.9,47,0.0,932.6,8.95,35.3,62,38.3,18.1,2.4,159.0,111.0,3.6,0,5,7,1,2026-06-18T18:26:08.969202+05:30
Hospet,Karnataka,15.2689,76.3909,27.3,64,0.0,953.9,8.45,44.6,52,27.9,15.3,3.6,185.0,110.0,2.9,7,5,7,1,2026-06-18T18:26:08.969209+05:30
Tirupur,Tamil Nadu,11.1085,77.3411,27.4,74,0.0,974.2,8.5,33.5,54,16.1,11.3,8.2,222.0,93.0,3.1,7,5,7,1,2026-06-18T18:26:08.969216+05:30
Alappuzha,Kerala,9.4981,76.3388,27.3,84,0.0,1008.4,7.35,32.0,65,18.6,11.3,8.4,96.0,58.0,3.0,7,0,4,1,2026-06-18T18:26:08.969223+05:30
Munnar,Kerala,10.0889,77.0595,17.2,100,0.1,856.0,2.35,25.9,34,5.4,4.5,7.4,145.0,57.0,1.3,6,10,3,1,2026-06-18T18:26:08.969231+05:30
Silchar,Assam,24.8333,92.7789,26.6,95,0.1,1001.4,8.5,40.3,118,20.8,16.2,3.3,288.0,92.0,2.9,10,5,4,1,2026-06-18T18:26:08.969238+05:30
Dibrugarh,Assam,27.4728,94.912,28.0,91,0.0,990.3,8.45,22.7,87,24.1,21.1,7.2,316.0,104.0,2.7,7,5,7,1,2026-06-18T18:26:08.969244+05:30
