city,state,latitude,longitude,temp,humidity,rain,pressure,uv_index,wind_gusts,aqi,pm10,pm2_5,mosquito_risk,arthritis_risk,migraine_risk,frizz_risk,updated_at
Delhi,Delhi,28.6139,77.209,32.9,45,0.0,990.0,6.05,22.3,479,245.9,93.1,0,5,7,1,2026-03-10T13:13:40.226612+05:30
Mumbai,Maharashtra,19.076,72.8777,29.9,57,0.0,1010.5,7.55,17.3,147,99.9,97.3,4,0,4,1,2026-03-10T13:13:40.226659+05:30
Bangalore,Karnataka,12.9716,77.5946,29.8,21,0.0,915.7,9.25,32.8,118,29.2,21.7,4,5,7,0,2026-03-10T13:13:40.226675+05:30
Hyderabad,Telangana,17.385,78.4867,32.8,39,0.0,958.2,8.6,30.6,129,64.3,48.9,0,5,7,1,2026-03-10T13:13:40.226686+05:30
Chennai,Tamil Nadu,13.0827,80.2707,31.0,53,0.0,1012.5,8.95,34.2,94,25.1,19.1,0,0,4,1,2026-03-10T13:13:40.226694+05:30
Kolkata,West Bengal,22.5726,88.3639,28.8,69,0.0,1012.1,4.85,13.7,116,53.8,41.9,7,0,0,1,2026-03-10T13:13:40.226704+05:30
Pune,Maharashtra,18.5204,73.8567,36.5,23,0.0,952.6,8.1,37.4,72,27.7,22.4,0,5,10,0,2026-03-10T13:13:40.226719+05:30
Ahmedabad,Gujarat,23.0225,72.5714,38.5,18,0.0,1007.2,7.4,15.8,56,17.5,13.8,0,5,7,0,2026-03-10T13:13:40.226727+05:30
Jaipur,Rajasthan,26.9124,75.7873,36.5,16,0.0,966.8,6.85,22.0,81,134.1,26.0,0,5,10,0,2026-03-10T13:13:40.226735+05:30
Lucknow,Uttar Pradesh,26.8467,80.9462,31.7,52,0.0,1000.3,6.55,20.2,174,126.2,107.6,0,5,4,1,2026-03-10T13:13:40.226744+05:30
Kanpur,Uttar Pradesh,26.4499,80.3319,32.1,52,0.0,998.4,6.6,15.5,168,195.1,112.0,0,5,7,1,2026-03-10T13:13:40.226751+05:30
Chandigarh,Chandigarh,30.7333,76.7794,29.7,63,0.0,976.3,5.95,19.1,124,110.6,59.1,7,5,3,1,2026-03-10T13:13:40.226760+05:30
Srinagar,Jammu and Kashmir,34.0837,74.7973,15.4,69,0.0,850.2,3.8,22.3,116,45.3,30.6,3,5,3,0,2026-03-10T13:13:40.226767+05:30
Jammu,Jammu and Kashmir,32.7266,74.857,24.6,62,0.0,980.9,6.05,38.2,98,54.7,30.9,3,5,7,1,2026-03-10T13:13:40.226774+05:30
Amritsar,Punjab,31.634,74.8723,29.4,56,0.0,989.1,6.0,26.6,163,73.8,53.9,4,5,3,1,2026-03-10T13:13:40.226781+05:30
Ludhiana,Punjab,30.901,75.8573,30.2,58,0.0,986.3,5.6,18.4,168,126.7,76.6,0,5,3,1,2026-03-10T13:13:40.226788+05:30
Jalandhar,Punjab,31.326,75.5762,31.0,55,0.0,987.6,6.2,25.9,166,98.0,67.5,0,5,7,1,2026-03-10T13:13:40.226797+05:30
Dehradun,Uttarakhand,30.6284,78.0322,21.6,66,0.0,838.4,6.4,28.1,73,40.9,20.9,3,5,7,0,2026-03-10T13:13:40.226804+05:30
Shimla,Himachal Pradesh,31.1048,77.1734,20.6,51,0.0,793.5,6.05,34.6,79,39.5,17.0,0,5,7,0,2026-03-10T13:13:40.226810+05:30
Manali,Himachal Pradesh,32.2396,77.1887,22.5,23,0.0,828.7,7.35,41.4,53,27.3,9.9,0,5,7,0,2026-03-10T13:13:40.226818+05:30
Gurgaon,Haryana,28.4595,77.0266,33.1,43,0.0,988.5,5.7,20.5,628,430.3,102.0,0,5,3,1,2026-03-10T13:13:40.226825+05:30
Noida,Uttar Pradesh,28.5355,77.391,33.0,46,0.0,991.5,6.05,22.7,628,430.3,102.0,0,5,7,1,2026-03-10T13:13:40.226831+05:30
Ghaziabad,Uttar Pradesh,28.6692,77.4538,31.7,50,0.0,989.9,5.95,16.9,287,233.3,92.2,0,5,3,1,2026-03-10T13:13:40.226838+05:30
Faridabad,Haryana,28.4089,77.3178,32.9,46,0.0,990.8,5.95,22.3,628,430.3,102.0,0,5,3,1,2026-03-10T13:13:40.226862+05:30
Meerut,Uttar Pradesh,28.9845,77.7064,31.4,53,0.0,988.9,5.85,16.2,287,233.3,92.2,0,5,3,1,2026-03-10T13:13:40.226870+05:30
Agra,Uttar Pradesh,27.1767,78.0081,35.6,32,0.0,994.4,6.45,22.3,194,455.4,99.7,0,5,10,1,2026-03-10T13:13:40.226876+05:30
Varanasi,Uttar Pradesh,25.3176,82.9739,32.0,54,0.0,1003.8,7.25,14.8,182,119.0,107.3,0,5,4,1,2026-03-10T13:13:40.226887+05:30
Prayagraj,Uttar Pradesh,25.4358,81.8463,32.0,52,0.0,1002.4,7.1,14.4,179,119.7,107.6,0,5,4,1,2026-03-10T13:13:40.226894+05:30
Gorakhpur,Uttar Pradesh,26.7606,83.3732,30.0,59,0.0,1004.3,6.95,20.2,193,102.2,91.0,4,5,4,1,2026-03-10T13:13:40.226901+05:30
Bareilly,Uttar Pradesh,28.367,79.4304,30.6,59,0.0,994.2,5.9,18.0,178,184.9,138.3,0,5,3,1,2026-03-10T13:13:40.226908+05:30
Aligarh,Uttar Pradesh,27.8974,78.088,33.5,42,0.0,992.4,6.15,22.0,189,348.3,93.4,0,5,7,1,2026-03-10T13:13:40.226914+05:30
Moradabad,Uttar Pradesh,28.8386,78.7733,30.6,57,0.0,991.2,5.25,23.4,177,165.3,134.6,0,5,3,1,2026-03-10T13:13:40.226920+05:30
Saharanpur,Uttar Pradesh,29.9637,77.546,30.1,59,0.0,983.3,5.65,19.4,164,146.7,91.5,0,5,3,1,2026-03-10T13:13:40.226928+05:30
Jhansi,Uttar Pradesh,25.4484,78.5685,35.7,29,0.0,984.3,7.05,25.2,94,185.3,49.7,0,5,10,0,2026-03-10T13:13:43.447326+05:30
Surat,Gujarat,21.1702,72.8311,38.3,23,0.0,1010.1,7.3,23.4,98,46.6,45.8,0,0,7,0,2026-03-10T13:13:43.447359+05:30
Vadodara,Gujarat,22.3072,73.1812,40.7,16,0.0,1008.5,7.4,15.5,68,18.2,14.6,0,0,7,0,2026-03-10T13:13:43.447373+05:30
Rajkot,Gujarat,22.3039,70.8022,36.5,23,0.0,999.8,7.25,33.1,59,22.7,18.3,0,5,10,0,2026-03-10T13:13:43.447382+05:30
Thane,Maharashtra,19.2183,72.9781,39.7,17,0.0,1009.9,7.55,32.0,147,99.9,97.3,0,0,7,0,2026-03-10T13:13:43.447391+05:30
Nagpur,Maharashtra,21.1458,79.0882,35.4,28,0.0,978.3,7.95,23.4,75,49.0,37.7,0,5,10,0,2026-03-10T13:13:43.447401+05:30
Nashik,Maharashtra,19.9975,73.7898,35.9,19,0.0,950.2,7.75,29.2,52,15.8,12.6,0,5,10,0,2026-03-10T13:13:43.447409+05:30
Aurangabad,Maharashtra,19.8762,75.3433,35.9,19,0.0,948.8,8.3,21.2,73,15.3,11.8,0,5,10,0,2026-03-10T13:13:43.447417+05:30
Solapur,Maharashtra,17.6599,75.9064,33.7,39,0.0,961.3,8.5,29.2,91,52.0,42.8,0,5,7,1,2026-03-10T13:13:43.447426+05:30
Kolhapur,Maharashtra,16.705,74.2433,33.6,32,0.0,951.5,8.6,40.7,103,51.9,43.2,0,5,7,0,2026-03-10T13:13:43.447434+05:30
Goa,Goa,15.2993,74.124,34.7,49,0.0,999.8,8.6,37.4,151,60.1,50.8,0,5,7,1,2026-03-10T13:13:43.447443+05:30
Jodhpur,Rajasthan,26.2389,73.0243,36.8,16,0.0,990.2,7.15,23.0,77,39.6,20.3,0,5,10,0,2026-03-10T13:13:43.447451+05:30
Udaipur,Rajasthan,24.5854,73.7125,35.3,15,0.0,953.9,7.75,21.6,45,14.1,5.6,0,5,10,0,2026-03-10T13:13:43.447460+05:30
Kota,Rajasthan,25.2138,75.8648,37.2,18,0.0,985.5,7.15,13.7,68,74.0,26.0,0,5,10,0,2026-03-10T13:13:43.447468+05:30
Bikaner,Rajasthan,28.0229,73.3119,34.9,20,0.0,988.9,6.85,25.6,59,21.9,17.8,0,5,7,0,2026-03-10T13:13:43.447477+05:30
Ajmer,Rajasthan,26.4499,74.6399,35.7,15,0.0,961.8,7.1,21.6,60,203.5,30.5,0,5,10,0,2026-03-10T13:13:43.447485+05:30
Gwalior,Madhya Pradesh,26.2183,78.1828,34.4,35,0.0,989.8,6.75,24.5,122,268.2,61.9,0,5,7,1,2026-03-10T13:13:43.447493+05:30
Indore,Madhya Pradesh,22.7196,75.8577,35.9,18,0.0,954.2,7.65,26.3,69,18.2,8.8,0,5,10,0,2026-03-10T13:13:43.447500+05:30
Bhopal,Madhya Pradesh,23.2599,77.4126,36.3,21,0.0,959.8,7.55,23.8,58,18.6,8.0,0,5,10,0,2026-03-10T13:13:43.447506+05:30
Jabalpur,Madhya Pradesh,23.1815,79.9864,34.9,26,0.0,967.2,7.65,25.9,79,44.6,19.0,0,5,7,0,2026-03-10T13:13:43.447513+05:30
Ujjain,Madhya Pradesh,23.1765,75.7885,35.4,20,0.0,960.0,7.55,19.1,87,22.5,9.7,0,5,10,0,2026-03-10T13:13:43.447520+05:30
Visakhapatnam,Andhra Pradesh,17.6868,83.2185,32.2,43,0.0,1009.1,8.55,34.6,134,58.1,44.0,0,0,4,1,2026-03-10T13:13:43.447527+05:30
Vijayawada,Andhra Pradesh,16.5062,80.648,32.3,39,0.0,1008.1,8.6,21.6,133,35.7,29.4,0,0,4,1,2026-03-10T13:13:43.447534+05:30
Guntur,Andhra Pradesh,16.3067,80.4365,32.2,42,0.0,1009.2,8.65,24.8,130,37.7,30.3,0,0,4,1,2026-03-10T13:13:43.447541+05:30
Nellore,Andhra Pradesh,14.4426,79.9865,32.3,44,0.0,1011.1,8.85,29.9,103,28.5,22.5,0,0,4,1,2026-03-10T13:13:43.447549+05:30
Kurnool,Andhra Pradesh,15.8281,78.0373,34.4,27,0.0,981.3,8.65,32.4,114,58.7,43.0,0,5,7,0,2026-03-10T13:13:43.447556+05:30
Kakinada,Andhra Pradesh,16.9891,82.2475,32.5,43,0.0,1012.9,8.6,27.0,116,45.3,33.8,0,0,4,1,2026-03-10T13:13:43.447563+05:30
Tirupati,Andhra Pradesh,13.6288,79.4192,31.3,41,0.0,996.2,8.95,34.6,144,26.7,22.4,0,5,7,1,2026-03-10T13:13:43.447569+05:30
Warangal,Telangana,17.9689,79.5941,32.1,50,0.0,984.0,8.4,27.0,135,62.4,48.7,0,5,7,1,2026-03-10T13:13:43.447576+05:30
Nizamabad,Telangana,18.6725,78.0941,34.6,36,0.0,969.5,8.3,29.5,130,61.0,50.2,0,5,7,1,2026-03-10T13:13:43.447582+05:30
Mysore,Karnataka,12.2958,76.6396,30.8,21,0.0,931.8,9.25,36.7,119,40.3,29.2,0,5,7,0,2026-03-10T13:13:43.447589+05:30
Mangalore,Karnataka,12.9141,74.856,28.6,82,0.0,1008.8,8.9,33.5,107,50.5,39.9,7,0,4,1,2026-03-10T13:13:43.447596+05:30
Hubli-Dharwad,Karnataka,15.3647,75.124,34.1,27,0.0,944.2,8.8,43.9,97,66.1,51.7,0,5,7,0,2026-03-10T13:13:43.447603+05:30
Belgaum,Karnataka,15.8497,74.4977,33.6,28,0.0,929.3,8.85,45.4,87,53.4,43.3,0,5,7,0,2026-03-10T13:13:46.669032+05:30
Coimbatore,Tamil Nadu,11.0168,76.9558,32.0,29,0.0,965.0,9.25,43.2,122,35.7,26.8,0,5,7,0,2026-03-10T13:13:46.669063+05:30
Madurai,Tamil Nadu,9.9252,78.1198,33.8,37,0.0,995.7,9.2,43.6,118,28.5,24.7,0,5,7,1,2026-03-10T13:13:46.669074+05:30
Trichy,Tamil Nadu,10.7905,78.7047,31.9,46,0.0,1003.2,8.7,37.4,116,27.1,24.4,0,5,4,1,2026-03-10T13:13:46.669082+05:30
Salem,Tamil Nadu,11.6643,78.146,32.4,41,0.0,980.8,9.15,37.4,137,34.3,27.3,0,5,7,1,2026-03-10T13:13:46.669090+05:30
Tirunelveli,Tamil Nadu,8.7139,77.7567,33.9,36,0.0,1005.8,9.2,43.6,96,23.2,19.0,0,5,4,1,2026-03-10T13:13:46.669097+05:30
Vellore,Tamil Nadu,12.9165,79.1325,31.1,41,0.0,989.1,9.05,36.4,147,32.2,27.7,0,5,7,1,2026-03-10T13:13:46.669104+05:30
Erode,Tamil Nadu,11.341,77.7172,33.3,35,0.0,992.6,9.1,36.7,124,42.3,33.5,0,5,7,0,2026-03-10T13:13:46.669111+05:30
Kochi,Kerala,9.9312,76.2673,28.1,77,0.0,1010.8,9.05,40.3,152,58.0,47.5,7,0,4,1,2026-03-10T13:13:46.669119+05:30
Thiruvananthapuram,Kerala,8.5241,76.9366,28.4,65,0.0,1009.8,9.1,27.0,122,38.2,31.0,7,0,4,1,2026-03-10T13:13:46.669126+05:30
Kozhikode,Kerala,11.2588,75.7804,29.6,65,0.0,1009.9,8.95,24.1,101,58.4,48.9,7,0,4,1,2026-03-10T13:13:46.669132+05:30
Thrissur,Kerala,10.5276,76.2144,36.3,28,0.0,1008.6,9.0,36.7,151,36.1,26.5,0,0,7,0,2026-03-10T13:13:46.669140+05:30
Kannur,Kerala,11.8745,75.3704,30.2,68,0.0,1009.4,8.95,39.2,94,46.1,37.7,3,0,4,1,2026-03-10T13:13:46.669147+05:30
Patna,Bihar,25.5941,85.1376,31.5,54,0.0,1006.5,7.4,24.8,175,90.1,79.9,0,5,4,1,2026-03-10T13:13:46.669154+05:30
Gaya,Bihar,24.7914,85.0002,30.4,63,0.0,999.6,7.5,15.8,175,75.9,65.7,3,5,7,1,2026-03-10T13:13:46.669160+05:30
Muzaffarpur,Bihar,26.1209,85.3647,31.7,51,0.0,1006.7,7.35,22.0,176,96.4,85.2,0,5,4,1,2026-03-10T13:13:46.669167+05:30
Bhagalpur,Bihar,25.2425,87.0117,31.6,50,0.0,1007.2,7.4,17.6,166,91.5,78.0,0,5,4,1,2026-03-10T13:13:46.669173+05:30
Ranchi,Jharkhand,23.3441,85.3096,30.0,40,0.0,942.7,8.15,24.1,158,81.3,63.6,4,5,7,0,2026-03-10T13:13:46.669180+05:30
Jamshedpur,Jharkhand,22.8046,86.2029,31.4,56,0.0,995.7,8.05,32.4,139,80.1,65.4,0,5,7,1,2026-03-10T13:13:46.669187+05:30
Dhanbad,Jharkhand,23.7957,86.4304,30.3,53,0.0,985.3,7.55,23.4,170,92.7,79.6,0,5,7,1,2026-03-10T13:13:46.669194+05:30
Bokaro,Jharkhand,23.6693,86.1511,30.5,54,0.0,989.2,7.95,19.4,175,91.7,81.3,0,5,7,1,2026-03-10T13:13:46.669201+05:30
Bhubaneswar,Odisha,20.2961,85.8245,32.4,52,0.0,1007.6,8.35,32.8,104,59.1,45.8,0,5,4,1,2026-03-10T13:13:46.669208+05:30
Cuttack,Odisha,20.4625,85.8828,33.8,48,0.0,1009.2,8.35,29.2,104,59.1,45.8,0,0,4,1,2026-03-10T13:13:46.669215+05:30
Rourkela,Odisha,22.2604,84.8536,34.3,36,0.0,989.3,7.95,22.3,159,86.6,70.5,0,5,7,1,2026-03-10T13:13:46.669221+05:30
Raipur,Chhattisgarh,21.2514,81.6296,35.6,30,0.0,979.4,8.05,14.8,156,94.5,64.7,0,5,10,0,2026-03-10T13:13:46.669228+05:30
Bhilai,Chhattisgarh,21.1938,81.3509,36.2,28,0.0,979.8,8.05,11.9,152,92.4,61.2,0,5,10,0,2026-03-10T13:13:46.669235+05:30
Guwahati,Assam,26.1158,91.7086,30.9,55,0.0,1006.4,7.3,11.2,156,83.4,72.6,0,5,4,1,2026-03-10T13:13:46.669242+05:30
Agartala,Tripura,23.8315,91.2868,30.7,53,0.0,1011.3,7.7,12.6,168,83.6,70.1,0,0,4,1,2026-03-10T13:13:46.669249+05:30
Shillong,Meghalaya,25.5788,91.8933,19.9,50,0.0,861.6,6.75,18.4,154,60.1,53.0,0,5,7,0,2026-03-10T13:13:46.669256+05:30
Imphal,Manipur,24.817,93.9368,25.3,49,0.0,928.1,6.35,28.8,153,47.0,40.5,4,5,7,0,2026-03-10T13:13:46.669263+05:30
Aizawl,Mizoram,23.7271,92.7176,26.4,43,0.0,898.1,7.85,28.4,152,53.3,41.7,4,5,7,0,2026-03-10T13:13:46.669270+05:30
Kohima,Nagaland,25.6701,94.1077,18.1,83,0.0,860.0,6.8,50.0,139,45.9,40.5,3,10,7,0,2026-03-10T13:13:46.669277+05:30
Gangtok,Sikkim,27.3314,88.6138,22.3,48,0.0,844.9,6.25,19.8,152,54.7,44.9,0,5,7,0,2026-03-10T13:13:46.669283+05:30
Siliguri,West Bengal,26.7271,88.3953,28.0,52,0.0,999.8,7.35,23.4,165,65.7,52.5,4,5,7,1,2026-03-10T13:13:49.889987+05:30
Durgapur,West Bengal,23.5204,87.3119,29.7,63,0.0,1001.0,7.8,24.5,158,65.7,55.1,7,5,4,1,2026-03-10T13:13:49.890017+05:30
Asansol,West Bengal,23.6739,86.9524,30.0,60,0.0,999.3,7.9,22.0,161,75.9,64.5,4,5,7,1,2026-03-10T13:13:49.890028+05:30
Pondicherry,Puducherry,11.9139,79.8145,30.7,59,0.0,1013.1,8.95,36.0,88,24.4,18.1,0,0,4,1,2026-03-10T13:13:49.890037+05:30
Port Blair,Andaman and Nicobar Islands,11.6234,92.7265,29.4,68,0.0,1009.4,8.95,29.5,78,26.4,22.9,7,0,4,1,2026-03-10T13:13:49.890045+05:30
Haridwar,Uttarakhand,29.9457,78.1642,29.8,60,0.0,982.0,5.85,21.2,154,137.8,90.6,4,5,3,1,2026-03-10T13:13:49.890053+05:30
Rishikesh,Uttarakhand,30.0869,78.2676,29.2,61,0.0,974.8,5.9,23.0,151,123.9,77.3,7,5,3,1,2026-03-10T13:13:49.890061+05:30
Nainital,Uttarakhand,29.3919,79.4542,21.8,67,0.0,813.8,6.75,51.5,171,144.4,107.6,3,5,7,0,2026-03-10T13:13:49.890069+05:30
Mussoorie,Uttarakhand,30.4599,78.0664,21.6,65,0.0,811.0,6.25,37.1,141,113.6,67.3,3,5,7,0,2026-03-10T13:13:49.890077+05:30
Dharamshala,Himachal Pradesh,32.219,76.3234,24.8,46,0.0,877.1,6.45,20.5,58,27.8,9.7,0,5,7,0,2026-03-10T13:13:49.890085+05:30
Dalhousie,Himachal Pradesh,32.5387,75.971,22.4,40,0.0,811.9,6.1,19.4,90,46.1,18.6,0,5,7,0,2026-03-10T13:13:49.890093+05:30
Patiala,Punjab,30.3398,76.3869,31.3,56,0.0,985.6,5.9,18.4,169,156.5,80.6,0,5,3,1,2026-03-10T13:13:49.890100+05:30
Bhatinda,Punjab,30.211,74.9455,32.7,43,0.0,990.9,6.45,15.5,155,124.3,43.2,0,5,7,1,2026-03-10T13:13:49.890108+05:30
Rohtak,Haryana,28.8955,76.6066,33.0,43,0.0,988.9,5.35,19.8,507,276.6,84.8,0,5,3,1,2026-03-10T13:13:49.890116+05:30
Panipat,Haryana,29.3909,76.9635,31.8,50,0.0,987.9,5.9,16.6,559,288.7,91.3,0,5,3,1,2026-03-10T13:13:49.890123+05:30
Mathura,Uttar Pradesh,27.4924,77.6737,35.4,30,0.0,993.5,6.35,23.8,371,555.1,116.9,0,5,10,0,2026-03-10T13:13:49.890131+05:30
Vrindavan,Uttar Pradesh,27.5823,77.7027,34.6,35,0.0,993.9,6.3,24.8,371,555.1,116.9,0,5,7,1,2026-03-10T13:13:49.890139+05:30
Ayodhya,Uttar Pradesh,26.7922,82.1998,31.1,54,0.0,1002.3,6.75,19.4,190,105.7,95.0,0,5,4,1,2026-03-10T13:13:49.890145+05:30
Ratlam,Madhya Pradesh,23.3315,75.0367,35.9,19,0.0,960.7,7.55,18.4,71,17.0,8.1,0,5,10,0,2026-03-10T13:13:49.890152+05:30
Sagar,Madhya Pradesh,23.8388,78.7378,35.7,22,0.0,956.4,7.5,19.8,47,43.1,13.7,0,5,10,0,2026-03-10T13:13:49.890160+05:30
Satna,Madhya Pradesh,24.6005,80.8322,34.6,32,0.0,977.3,7.5,20.2,127,116.6,57.2,0,5,7,0,2026-03-10T13:13:49.890168+05:30
Akola,Maharashtra,20.7002,77.0082,38.1,18,0.0,979.7,8.0,18.4,68,17.5,10.5,0,5,10,0,2026-03-10T13:13:49.890176+05:30
Amravati,Maharashtra,20.9374,77.7796,37.8,18,0.0,972.3,7.95,19.4,71,19.5,11.1,0,5,10,0,2026-03-10T13:13:49.890184+05:30
Latur,Maharashtra,18.4088,76.5604,34.0,30,0.0,944.6,8.4,26.6,97,43.5,34.1,0,5,7,0,2026-03-10T13:13:49.890191+05:30
Nanded,Maharashtra,19.1383,77.3091,36.6,26,0.0,973.2,8.2,19.8,118,39.0,30.5,0,5,10,0,2026-03-10T13:13:49.890198+05:30
Gulbarga,Karnataka,17.3297,76.8343,34.4,35,0.0,963.0,8.5,30.6,108,60.5,49.1,0,5,7,1,2026-03-10T13:13:49.890205+05:30
Bidar,Karnataka,17.9104,77.5199,34.2,30,0.0,940.0,8.45,31.0,121,58.1,47.1,0,5,7,0,2026-03-10T13:13:49.890212+05:30
Hospet,Karnataka,15.2689,76.3909,33.3,30,0.0,959.5,8.8,36.4,114,64.0,50.1,0,5,7,0,2026-03-10T13:13:49.890218+05:30
Tirupur,Tamil Nadu,11.1085,77.3411,33.3,29,0.0,978.7,9.25,43.9,128,45.9,35.5,0,5,7,0,2026-03-10T13:13:49.890225+05:30
Alappuzha,Kerala,9.4981,76.3388,28.3,74,0.0,1010.8,9.05,33.5,151,63.6,54.0,7,0,4,1,2026-03-10T13:13:49.890232+05:30
Munnar,Kerala,10.0889,77.0595,30.4,25,0.0,861.4,9.55,27.4,115,21.7,16.8,0,5,7,0,2026-03-10T13:13:49.890239+05:30
Silchar,Assam,24.8333,92.7789,31.3,53,0.0,1009.5,7.65,13.3,170,84.1,72.9,0,0,4,1,2026-03-10T13:13:49.890246+05:30
Dibrugarh,Assam,27.4728,94.912,29.8,57,0.0,999.9,7.4,15.5,166,87.3,75.0,4,5,7,1,2026-03-10T13:13:49.890254+05:30
