city,state,latitude,longitude,temp,humidity,rain,pressure,uv_index,wind_gusts,aqi,pm10,pm2_5,no2,co,o3,so2,mosquito_risk,arthritis_risk,migraine_risk,frizz_risk,updated_at
Delhi,Delhi,28.6139,77.209,38.3,21,0.0,974.1,7.8,43.6,511,745.1,151.8,51.1,626.0,64.0,21.4,0,5,10,0,2026-06-09T21:28:01.825641+05:30
Mumbai,Maharashtra,19.076,72.8777,30.1,73,0.1,1006.6,7.6,47.9,79,67.3,25.7,6.2,208.0,51.0,4.3,6,5,4,1,2026-06-09T21:28:01.825699+05:30
Bangalore,Karnataka,12.9716,77.5946,22.9,78,0.0,911.9,8.5,52.6,30,8.0,5.7,12.7,319.0,48.0,4.2,3,5,7,1,2026-06-09T21:28:01.825717+05:30
Hyderabad,Telangana,17.385,78.4867,26.3,77,0.0,951.2,8.6,39.6,62,33.1,23.1,17.0,353.0,66.0,6.0,7,5,7,1,2026-06-09T21:28:01.825729+05:30
Chennai,Tamil Nadu,13.0827,80.2707,33.1,51,0.0,1005.0,8.3,60.5,62,12.8,9.9,15.1,343.0,68.0,8.9,0,5,4,1,2026-06-09T21:28:01.825739+05:30
Kolkata,West Bengal,22.5726,88.3639,27.9,89,0.0,1000.4,8.95,32.8,152,57.9,52.9,14.7,428.0,104.0,14.5,7,5,4,1,2026-06-09T21:28:01.825750+05:30
Pune,Maharashtra,18.5204,73.8567,25.6,81,0.0,946.9,6.65,50.0,50,27.2,13.4,7.5,171.0,52.0,5.2,7,5,7,1,2026-06-09T21:28:01.825760+05:30
Ahmedabad,Gujarat,23.0225,72.5714,33.5,60,0.0,996.7,8.05,41.8,88,43.8,22.9,7.0,167.0,84.0,4.9,0,5,7,1,2026-06-09T21:28:01.825793+05:30
Jaipur,Rajasthan,26.9124,75.7873,35.3,28,0.0,953.3,8.25,44.3,136,163.4,43.1,14.5,211.0,71.0,6.6,0,5,10,0,2026-06-09T21:28:01.825807+05:30
Lucknow,Uttar Pradesh,26.8467,80.9462,35.4,41,0.0,985.1,8.3,43.9,163,454.5,122.0,41.6,272.0,65.0,19.7,0,5,10,1,2026-06-09T21:28:01.825817+05:30
Kanpur,Uttar Pradesh,26.4499,80.3319,36.5,33,0.0,983.6,8.35,49.7,317,704.1,136.9,14.1,224.0,81.0,7.5,0,5,10,1,2026-06-09T21:28:01.825825+05:30
Chandigarh,Chandigarh,30.7333,76.7794,32.0,30,0.0,959.7,7.8,33.8,166,37.5,31.7,26.7,599.0,110.0,11.1,0,5,7,0,2026-06-09T21:28:01.825834+05:30
Srinagar,Jammu and Kashmir,34.0837,74.7973,18.5,80,0.0,836.2,9.0,20.5,117,21.7,18.2,24.7,1390.0,72.0,3.0,3,5,7,0,2026-06-09T21:28:01.825843+05:30
Jammu,Jammu and Kashmir,32.7266,74.857,32.9,33,0.0,963.2,8.6,35.6,158,27.2,24.3,22.5,478.0,110.0,5.4,0,5,7,0,2026-06-09T21:28:01.825851+05:30
Amritsar,Punjab,31.634,74.8723,37.1,24,0.0,970.9,8.45,23.8,176,64.0,37.7,23.6,397.0,99.0,11.3,0,5,10,0,2026-06-09T21:28:01.825858+05:30
Ludhiana,Punjab,30.901,75.8573,35.3,28,0.0,969.1,8.0,40.3,158,124.3,46.0,19.0,946.0,103.0,7.6,0,5,10,0,2026-06-09T21:28:01.825873+05:30
Jalandhar,Punjab,31.326,75.5762,36.0,24,0.0,970.0,8.25,32.0,155,97.1,42.7,20.0,773.0,102.0,6.8,0,5,10,0,2026-06-09T21:28:01.825881+05:30
Dehradun,Uttarakhand,30.6284,78.0322,20.9,53,0.0,825.8,8.25,39.6,146,24.6,20.0,23.1,240.0,112.0,4.6,0,5,7,0,2026-06-09T21:28:01.825889+05:30
Shimla,Himachal Pradesh,31.1048,77.1734,18.5,44,0.0,781.5,8.35,51.8,142,29.7,19.7,14.3,241.0,118.0,3.2,0,5,7,0,2026-06-09T21:28:01.825899+05:30
Manali,Himachal Pradesh,32.2396,77.1887,15.3,76,0.0,814.2,9.95,34.2,101,13.0,11.5,61.1,303.0,65.0,0.5,3,5,7,0,2026-06-09T21:28:01.825908+05:30
Gurgaon,Haryana,28.4595,77.0266,35.7,28,0.0,972.6,7.9,40.7,1399,543.9,124.3,53.0,1289.0,47.0,19.4,0,5,10,0,2026-06-09T21:28:01.825915+05:30
Noida,Uttar Pradesh,28.5355,77.391,35.1,35,0.0,975.3,7.85,32.8,1399,543.9,124.3,53.0,718.0,47.0,19.4,0,5,10,1,2026-06-09T21:28:01.825923+05:30
Ghaziabad,Uttar Pradesh,28.6692,77.4538,34.2,33,0.0,973.6,7.8,38.5,379,597.9,129.0,45.5,588.0,89.0,22.8,0,5,7,0,2026-06-09T21:28:01.825931+05:30
Faridabad,Haryana,28.4089,77.3178,37.2,22,0.0,974.9,7.85,46.8,1399,543.9,124.3,53.0,919.0,47.0,19.4,0,5,10,0,2026-06-09T21:28:01.825939+05:30
Meerut,Uttar Pradesh,28.9845,77.7064,34.5,35,0.0,972.3,7.75,34.9,379,597.9,129.0,45.5,437.0,89.0,22.8,0,5,7,1,2026-06-09T21:28:01.825946+05:30
Agra,Uttar Pradesh,27.1767,78.0081,35.5,31,0.0,979.2,8.15,58.7,969,638.9,127.6,41.4,500.0,40.0,13.2,0,5,10,0,2026-06-09T21:28:01.825954+05:30
Varanasi,Uttar Pradesh,25.3176,82.9739,35.9,34,0.0,989.7,8.8,34.2,121,99.2,44.1,15.4,473.0,98.0,12.1,0,5,10,1,2026-06-09T21:28:01.825962+05:30
Prayagraj,Uttar Pradesh,25.4358,81.8463,36.0,37,0.0,988.0,8.7,43.6,114,111.5,50.2,21.6,228.0,67.0,11.2,0,5,10,1,2026-06-09T21:28:01.825970+05:30
Gorakhpur,Uttar Pradesh,26.7606,83.3732,31.1,64,0.0,989.4,8.65,22.7,164,125.7,71.9,24.9,528.0,93.0,13.8,3,5,7,1,2026-06-09T21:28:01.825979+05:30
Bareilly,Uttar Pradesh,28.367,79.4304,31.3,54,0.0,977.6,8.15,25.2,191,90.3,56.0,24.3,434.0,130.0,17.1,0,5,7,1,2026-06-09T21:28:01.825987+05:30
Aligarh,Uttar Pradesh,27.8974,78.088,32.4,47,0.0,976.8,8.0,42.5,792,827.0,181.6,38.3,503.0,63.0,12.9,0,5,7,1,2026-06-09T21:28:01.825995+05:30
Moradabad,Uttar Pradesh,28.8386,78.7733,33.9,41,0.0,974.5,7.95,41.0,203,115.3,79.6,47.9,582.0,90.0,18.7,0,5,7,1,2026-06-09T21:28:01.826004+05:30
Saharanpur,Uttar Pradesh,29.9637,77.546,31.8,37,0.0,966.4,7.5,34.2,171,224.4,65.0,22.0,458.0,105.0,11.4,0,5,7,0,2026-06-09T21:28:01.826011+05:30
Jhansi,Uttar Pradesh,25.4484,78.5685,34.6,32,0.0,970.6,8.5,51.5,79,55.4,27.6,5.6,178.0,82.0,3.8,0,5,7,0,2026-06-09T21:28:05.178589+05:30
Surat,Gujarat,21.1702,72.8311,30.7,77,0.0,1002.8,7.6,53.6,86,48.3,27.6,19.0,196.0,39.0,32.4,3,5,4,1,2026-06-09T21:28:05.178623+05:30
Vadodara,Gujarat,22.3072,73.1812,31.6,66,0.0,999.3,7.75,49.7,86,49.2,30.0,14.4,205.0,63.0,20.2,3,5,7,1,2026-06-09T21:28:05.178634+05:30
Rajkot,Gujarat,22.3039,70.8022,32.5,55,0.0,989.6,7.55,51.1,80,39.2,19.7,4.2,117.0,64.0,4.7,0,5,7,1,2026-06-09T21:28:05.178643+05:30
Thane,Maharashtra,19.2183,72.9781,29.9,75,0.0,1006.0,7.45,43.2,79,67.3,25.7,6.2,211.0,51.0,4.3,7,5,4,1,2026-06-09T21:28:05.178652+05:30
Nagpur,Maharashtra,21.1458,79.0882,35.9,37,0.0,968.2,8.9,40.0,98,48.9,28.6,14.9,228.0,82.0,14.0,0,5,10,1,2026-06-09T21:28:05.178660+05:30
Nashik,Maharashtra,19.9975,73.7898,26.3,80,0.0,943.7,7.95,51.1,69,61.0,25.1,3.0,130.0,58.0,1.4,7,5,7,1,2026-06-09T21:28:05.178668+05:30
Aurangabad,Maharashtra,19.8762,75.3433,31.0,46,0.0,941.9,8.95,49.0,71,42.5,20.9,4.4,141.0,88.0,3.7,0,5,7,1,2026-06-09T21:28:05.178677+05:30
Solapur,Maharashtra,17.6599,75.9064,29.0,65,0.0,955.5,7.7,36.4,54,10.2,7.7,6.5,233.0,70.0,2.0,7,5,7,1,2026-06-09T21:28:05.178686+05:30
Kolhapur,Maharashtra,16.705,74.2433,24.0,89,0.0,947.5,7.4,40.0,33,8.3,6.0,6.8,167.0,47.0,2.3,3,5,7,1,2026-06-09T21:28:05.178695+05:30
Goa,Goa,15.2993,74.124,25.2,97,0.0,998.8,4.9,28.8,27,13.0,9.1,5.8,206.0,50.0,1.1,7,5,3,1,2026-06-09T21:28:05.178703+05:30
Jodhpur,Rajasthan,26.2389,73.0243,35.2,42,0.0,975.8,8.45,48.2,160,260.8,59.6,5.8,166.0,75.0,2.3,0,5,10,1,2026-06-09T21:28:05.178711+05:30
Udaipur,Rajasthan,24.5854,73.7125,31.4,50,0.0,941.7,8.85,44.6,84,56.5,28.5,4.5,156.0,88.0,4.4,0,5,7,1,2026-06-09T21:28:05.178719+05:30
Kota,Rajasthan,25.2138,75.8648,34.7,38,0.0,972.1,8.4,38.5,78,30.5,21.1,7.6,199.0,87.0,4.8,0,5,7,1,2026-06-09T21:28:05.178727+05:30
Bikaner,Rajasthan,28.0229,73.3119,37.3,30,0.0,972.7,8.45,41.4,131,133.2,49.0,2.2,133.0,90.0,3.5,0,5,10,1,2026-06-09T21:28:05.178734+05:30
Ajmer,Rajasthan,26.4499,74.6399,31.7,46,0.0,948.5,8.4,50.4,77,51.0,25.1,6.3,175.0,81.0,3.5,0,5,7,1,2026-06-09T21:28:05.178742+05:30
Gwalior,Madhya Pradesh,26.2183,78.1828,36.0,28,0.0,975.2,8.3,55.8,88,72.2,33.5,9.1,166.0,68.0,4.0,0,5,10,0,2026-06-09T21:28:05.178750+05:30
Indore,Madhya Pradesh,22.7196,75.8577,32.6,38,0.0,944.2,8.65,50.8,81,41.4,26.7,8.9,251.0,88.0,6.4,0,5,7,1,2026-06-09T21:28:05.178757+05:30
Bhopal,Madhya Pradesh,23.2599,77.4126,32.3,49,0.0,948.8,8.7,39.6,83,44.9,29.0,12.3,424.0,67.0,5.4,0,5,7,1,2026-06-09T21:28:05.178787+05:30
Jabalpur,Madhya Pradesh,23.1815,79.9864,32.6,48,0.0,956.7,8.85,40.3,77,49.8,29.3,9.7,279.0,83.0,4.9,0,5,7,1,2026-06-09T21:28:05.178797+05:30
Ujjain,Madhya Pradesh,23.1765,75.7885,32.0,44,0.0,949.5,8.6,49.3,80,44.0,27.9,4.3,219.0,90.0,4.4,0,5,7,1,2026-06-09T21:28:05.178805+05:30
Visakhapatnam,Andhra Pradesh,17.6868,83.2185,31.2,71,0.0,998.7,8.5,36.7,152,58.9,49.6,39.8,1167.0,84.0,59.0,3,5,7,1,2026-06-09T21:28:05.178814+05:30
Vijayawada,Andhra Pradesh,16.5062,80.648,32.4,58,0.0,998.6,8.7,42.8,69,25.3,21.7,9.6,295.0,81.0,3.9,0,5,7,1,2026-06-09T21:28:05.178821+05:30
Guntur,Andhra Pradesh,16.3067,80.4365,32.4,58,0.0,1000.0,8.3,43.9,69,24.2,20.5,11.0,285.0,73.0,4.1,0,5,4,1,2026-06-09T21:28:05.178829+05:30
Nellore,Andhra Pradesh,14.4426,79.9865,32.9,50,0.0,1003.3,7.7,50.0,48,23.3,17.9,7.6,186.0,86.0,3.8,0,5,4,1,2026-06-09T21:28:05.178838+05:30
Kurnool,Andhra Pradesh,15.8281,78.0373,29.4,60,0.0,975.2,8.35,44.3,46,11.0,8.3,6.0,198.0,78.0,2.7,4,5,7,1,2026-06-09T21:28:05.178846+05:30
Kakinada,Andhra Pradesh,16.9891,82.2475,32.2,62,0.0,1002.5,8.5,46.1,102,25.1,18.5,4.6,368.0,103.0,3.6,3,5,4,1,2026-06-09T21:28:05.178854+05:30
Tirupati,Andhra Pradesh,13.6288,79.4192,30.7,54,0.0,989.8,8.05,46.4,38,12.9,9.7,9.9,171.0,64.0,2.5,0,5,7,1,2026-06-09T21:28:05.178861+05:30
Warangal,Telangana,17.9689,79.5941,30.5,61,0.0,975.3,8.7,37.8,86,60.8,41.4,16.4,200.0,66.0,5.7,3,5,7,1,2026-06-09T21:28:05.178868+05:30
Nizamabad,Telangana,18.6725,78.0941,29.3,63,0.0,961.5,8.45,38.9,85,68.2,36.9,13.8,220.0,70.0,4.9,7,5,7,1,2026-06-09T21:28:05.178876+05:30
Mysore,Karnataka,12.2958,76.6396,22.0,88,0.0,929.0,8.15,47.5,29,3.7,3.1,8.5,150.0,48.0,2.0,3,5,7,1,2026-06-09T21:28:05.178883+05:30
Mangalore,Karnataka,12.9141,74.856,24.8,95,0.4,1008.9,4.1,38.9,30,12.8,7.6,5.6,348.0,47.0,1.6,6,0,0,1,2026-06-09T21:28:05.178891+05:30
Hubli-Dharwad,Karnataka,15.3647,75.124,22.3,97,0.0,940.8,6.15,37.8,27,3.2,2.9,8.3,146.0,41.0,1.2,3,5,7,1,2026-06-09T21:28:05.178898+05:30
Belgaum,Karnataka,15.8497,74.4977,21.8,94,0.0,925.5,1.55,38.9,28,3.8,3.4,7.0,124.0,46.0,1.9,3,5,3,1,2026-06-09T21:28:08.532860+05:30
Coimbatore,Tamil Nadu,11.0168,76.9558,23.1,95,0.0,962.1,4.65,55.8,24,3.3,3.1,7.7,206.0,43.0,2.6,3,5,3,1,2026-06-09T21:28:08.532901+05:30
Madurai,Tamil Nadu,9.9252,78.1198,29.1,63,0.0,993.3,8.45,60.1,36,4.8,3.9,6.5,139.0,54.0,2.6,7,5,7,1,2026-06-09T21:28:08.532913+05:30
Trichy,Tamil Nadu,10.7905,78.7047,29.7,62,0.0,999.8,8.3,71.3,33,4.0,3.4,6.6,126.0,45.0,2.6,7,5,7,1,2026-06-09T21:28:08.532923+05:30
Salem,Tamil Nadu,11.6643,78.146,27.8,68,0.0,978.0,6.5,44.6,35,7.5,7.0,13.2,229.0,51.0,7.6,7,5,7,1,2026-06-09T21:28:08.532932+05:30
Tirunelveli,Tamil Nadu,8.7139,77.7567,28.9,67,0.0,1004.6,7.95,52.9,26,7.5,5.5,6.2,165.0,40.0,1.5,7,5,4,1,2026-06-09T21:28:08.532941+05:30
Vellore,Tamil Nadu,12.9165,79.1325,31.6,49,0.0,983.4,7.45,58.3,39,8.1,6.3,7.5,169.0,61.0,3.4,0,5,7,1,2026-06-09T21:28:08.532950+05:30
Erode,Tamil Nadu,11.341,77.7172,26.1,79,0.0,989.7,5.6,52.6,29,7.2,6.8,14.5,205.0,39.0,3.7,7,5,3,1,2026-06-09T21:28:08.532959+05:30
Kochi,Kerala,9.9312,76.2673,26.5,92,0.0,1010.8,5.9,43.9,32,14.9,12.3,21.1,126.0,21.0,4.9,7,0,0,1,2026-06-09T21:28:08.532968+05:30
Thiruvananthapuram,Kerala,8.5241,76.9366,25.1,96,0.2,1010.9,7.65,53.6,32,11.8,6.3,1.8,93.0,48.0,0.7,10,0,4,1,2026-06-09T21:28:08.532976+05:30
Kozhikode,Kerala,11.2588,75.7804,24.4,98,0.1,1010.1,7.95,32.0,27,8.7,5.0,2.0,340.0,57.0,0.7,6,0,4,1,2026-06-09T21:28:08.532984+05:30
Thrissur,Kerala,10.5276,76.2144,25.0,98,0.1,1009.0,7.85,31.0,32,13.5,11.1,12.3,217.0,33.0,3.2,10,0,4,1,2026-06-09T21:28:08.532994+05:30
Kannur,Kerala,11.8745,75.3704,24.9,97,0.2,1009.2,7.35,28.1,24,13.1,8.2,10.1,454.0,42.0,1.7,6,0,4,1,2026-06-09T21:28:08.533002+05:30
Patna,Bihar,25.5941,85.1376,30.2,79,0.0,993.1,8.85,24.8,174,186.7,87.3,47.5,766.0,55.0,20.0,3,5,7,1,2026-06-09T21:28:08.533010+05:30
Gaya,Bihar,24.7914,85.0002,31.6,52,0.0,986.7,7.7,36.7,156,149.0,63.3,21.8,424.0,78.0,12.4,0,5,7,1,2026-06-09T21:28:08.533018+05:30
Muzaffarpur,Bihar,26.1209,85.3647,30.2,74,0.0,993.4,8.8,30.6,175,149.5,95.7,42.9,579.0,100.0,23.9,3,5,7,1,2026-06-09T21:28:08.533026+05:30
Bhagalpur,Bihar,25.2425,87.0117,30.9,75,0.0,994.4,8.85,25.9,192,82.7,71.0,12.5,737.0,144.0,15.7,3,5,7,1,2026-06-09T21:28:08.533033+05:30
Ranchi,Jharkhand,23.3441,85.3096,27.1,62,0.0,932.9,8.75,35.6,135,160.7,62.2,24.2,349.0,71.0,8.4,7,5,7,1,2026-06-09T21:28:08.533041+05:30
Jamshedpur,Jharkhand,22.8046,86.2029,29.7,76,0.0,985.1,9.1,31.0,152,95.2,64.3,29.1,710.0,85.0,19.7,7,5,7,1,2026-06-09T21:28:08.533048+05:30
Dhanbad,Jharkhand,23.7957,86.4304,30.5,61,0.0,973.7,8.9,52.2,161,177.9,109.7,66.8,1010.0,57.0,168.5,3,5,7,1,2026-06-09T21:28:08.533055+05:30
Bokaro,Jharkhand,23.6693,86.1511,30.4,61,0.0,977.6,8.1,54.4,165,204.9,114.6,64.0,513.0,52.0,145.7,3,5,7,1,2026-06-09T21:28:08.533063+05:30
Bhubaneswar,Odisha,20.2961,85.8245,30.9,72,0.0,997.2,8.6,33.8,127,43.2,36.9,10.6,537.0,114.0,7.8,3,5,7,1,2026-06-09T21:28:08.533070+05:30
Cuttack,Odisha,20.4625,85.8828,31.2,74,0.0,998.8,8.2,31.0,127,43.2,36.9,10.6,483.0,114.0,7.8,3,5,7,1,2026-06-09T21:28:08.533077+05:30
Rourkela,Odisha,22.2604,84.8536,32.3,54,0.0,979.2,8.9,33.8,124,119.0,67.5,38.6,846.0,57.0,12.7,0,5,7,1,2026-06-09T21:28:08.533084+05:30
Raipur,Chhattisgarh,21.2514,81.6296,34.9,37,0.0,969.2,8.65,39.2,123,93.6,61.0,43.0,369.0,71.0,56.8,0,5,7,1,2026-06-09T21:28:08.533091+05:30
Bhilai,Chhattisgarh,21.1938,81.3509,34.4,40,0.0,969.7,8.55,40.7,108,80.1,53.2,41.9,698.0,64.0,52.7,0,5,7,1,2026-06-09T21:28:08.533099+05:30
Guwahati,Assam,26.1158,91.7086,25.8,96,0.0,996.9,8.8,41.0,85,51.6,46.1,20.5,520.0,59.0,7.1,7,5,7,1,2026-06-09T21:28:08.533106+05:30
Agartala,Tripura,23.8315,91.2868,26.9,95,0.0,1002.0,8.85,36.0,74,31.4,26.0,11.2,263.0,71.0,3.6,7,5,4,1,2026-06-09T21:28:08.533114+05:30
Shillong,Meghalaya,25.5788,91.8933,19.4,92,0.0,854.5,7.3,31.0,75,14.1,10.7,5.7,287.0,101.0,3.6,3,10,7,1,2026-06-09T21:28:08.533121+05:30
Imphal,Manipur,24.817,93.9368,23.3,88,0.1,920.5,8.4,32.8,69,52.2,44.0,28.2,826.0,37.0,6.5,6,5,7,1,2026-06-09T21:28:08.533129+05:30
Aizawl,Mizoram,23.7271,92.7176,21.0,83,0.0,889.6,8.85,34.9,56,25.8,18.1,7.1,224.0,72.0,2.4,3,5,7,1,2026-06-09T21:28:08.533136+05:30
Kohima,Nagaland,25.6701,94.1077,19.8,89,0.0,852.8,6.7,24.8,44,24.7,20.4,13.9,411.0,44.0,2.1,3,10,7,1,2026-06-09T21:28:08.533144+05:30
Gangtok,Sikkim,27.3314,88.6138,17.0,94,0.4,834.2,8.95,34.6,108,32.2,24.2,13.3,413.0,116.0,4.3,6,10,7,0,2026-06-09T21:28:08.533152+05:30
Siliguri,West Bengal,26.7271,88.3953,24.4,96,0.1,988.4,8.75,23.0,135,54.1,41.6,14.8,720.0,115.0,8.8,6,5,7,1,2026-06-09T21:28:11.920151+05:30
Durgapur,West Bengal,23.5204,87.3119,29.3,82,0.0,989.0,8.85,33.8,190,117.3,99.7,39.2,976.0,111.0,69.9,7,5,7,1,2026-06-09T21:28:11.920185+05:30
Asansol,West Bengal,23.6739,86.9524,30.1,63,0.0,987.3,8.8,43.2,158,116.2,83.8,41.7,774.0,87.0,52.5,3,5,7,1,2026-06-09T21:28:11.920196+05:30
Pondicherry,Puducherry,11.9139,79.8145,32.4,53,0.0,1006.7,8.1,49.7,50,9.7,9.3,13.7,322.0,73.0,9.6,0,5,4,1,2026-06-09T21:28:11.920205+05:30
Port Blair,Andaman and Nicobar Islands,11.6234,92.7265,25.0,98,0.1,1008.1,8.75,47.5,26,8.5,4.8,0.4,98.0,61.0,0.4,10,0,4,1,2026-06-09T21:28:11.920214+05:30
Haridwar,Uttarakhand,29.9457,78.1642,29.8,45,0.0,964.6,7.65,33.5,175,102.9,46.6,20.1,329.0,140.0,15.2,4,5,7,1,2026-06-09T21:28:11.920223+05:30
Rishikesh,Uttarakhand,30.0869,78.2676,28.0,50,0.0,957.3,7.75,23.8,174,45.2,30.0,9.0,392.0,177.0,12.3,4,5,7,1,2026-06-09T21:28:11.920231+05:30
Nainital,Uttarakhand,29.3919,79.4542,18.4,60,0.0,801.7,8.6,42.1,164,48.8,31.4,11.3,345.0,140.0,8.2,0,5,7,0,2026-06-09T21:28:11.920239+05:30
Mussoorie,Uttarakhand,30.4599,78.0664,18.8,54,0.0,799.0,8.15,53.6,181,46.1,30.5,18.3,327.0,148.0,13.0,0,5,7,0,2026-06-09T21:28:11.920248+05:30
Dharamshala,Himachal Pradesh,32.219,76.3234,24.5,35,0.0,864.0,8.5,46.4,128,18.3,16.1,14.9,266.0,68.0,0.9,0,5,7,0,2026-06-09T21:28:11.920255+05:30
Dalhousie,Himachal Pradesh,32.5387,75.971,15.2,70,0.0,799.0,8.75,38.2,155,38.4,32.2,40.7,515.0,82.0,3.6,3,5,7,0,2026-06-09T21:28:11.920264+05:30
Patiala,Punjab,30.3398,76.3869,36.0,27,0.0,969.0,7.65,41.0,352,506.6,99.7,14.9,301.0,106.0,8.8,0,5,10,0,2026-06-09T21:28:11.920272+05:30
Bhatinda,Punjab,30.211,74.9455,36.4,32,0.0,973.8,8.35,36.4,115,129.5,61.9,36.5,506.0,57.0,8.0,0,5,10,1,2026-06-09T21:28:11.920280+05:30
Rohtak,Haryana,28.8955,76.6066,33.7,39,0.0,972.6,7.85,34.2,614,566.2,124.8,53.7,749.0,44.0,12.2,0,5,7,1,2026-06-09T21:28:11.920288+05:30
Panipat,Haryana,29.3909,76.9635,33.0,34,0.0,970.9,7.7,32.8,924,1050.5,194.6,31.2,379.0,72.0,9.5,0,5,7,0,2026-06-09T21:28:11.920295+05:30
Mathura,Uttar Pradesh,27.4924,77.6737,33.6,44,0.0,978.0,8.1,49.7,664,540.2,120.1,46.7,804.0,34.0,7.9,0,5,7,1,2026-06-09T21:28:11.920303+05:30
Vrindavan,Uttar Pradesh,27.5823,77.7027,34.3,45,0.0,978.4,8.05,49.3,664,540.2,120.1,46.7,635.0,34.0,7.9,0,5,7,1,2026-06-09T21:28:11.920311+05:30
Ayodhya,Uttar Pradesh,26.7922,82.1998,31.8,58,0.0,987.3,8.45,25.6,155,172.3,78.7,40.8,440.0,72.0,15.0,0,5,7,1,2026-06-09T21:28:11.920319+05:30
Ratlam,Madhya Pradesh,23.3315,75.0367,31.7,52,0.0,950.5,8.55,44.6,80,48.4,29.5,3.3,161.0,92.0,4.4,0,5,7,1,2026-06-09T21:28:11.920328+05:30
Sagar,Madhya Pradesh,23.8388,78.7378,31.9,45,0.0,945.2,8.05,41.4,77,50.5,27.1,7.3,183.0,80.0,3.8,0,5,7,1,2026-06-09T21:28:11.920335+05:30
Satna,Madhya Pradesh,24.6005,80.8322,33.2,44,0.0,965.1,8.8,43.9,75,58.8,28.9,12.9,209.0,71.0,3.7,0,5,7,1,2026-06-09T21:28:11.920343+05:30
Akola,Maharashtra,20.7002,77.0082,35.8,29,0.0,970.4,8.8,42.8,78,44.8,24.9,10.3,202.0,84.0,5.8,0,5,10,0,2026-06-09T21:28:11.920353+05:30
Amravati,Maharashtra,20.9374,77.7796,34.4,39,0.0,963.1,8.85,43.9,80,44.0,25.0,11.1,221.0,82.0,6.4,0,5,7,1,2026-06-09T21:28:11.920361+05:30
Latur,Maharashtra,18.4088,76.5604,28.1,64,0.0,937.7,7.8,36.0,69,48.9,28.0,8.9,189.0,72.0,2.7,7,5,7,1,2026-06-09T21:28:11.920368+05:30
Nanded,Maharashtra,19.1383,77.3091,31.0,55,0.0,964.9,8.9,36.4,84,61.5,32.8,16.8,238.0,64.0,5.4,0,5,7,1,2026-06-09T21:28:11.920376+05:30
Gulbarga,Karnataka,17.3297,76.8343,26.5,80,0.0,957.2,5.05,41.0,52,16.6,11.0,6.2,207.0,84.0,1.9,7,5,3,1,2026-06-09T21:28:11.920384+05:30
Bidar,Karnataka,17.9104,77.5199,24.4,89,0.1,933.3,5.35,38.5,72,30.9,21.8,15.2,174.0,68.0,3.2,6,5,3,1,2026-06-09T21:28:11.920391+05:30
Hospet,Karnataka,15.2689,76.3909,25.1,79,0.0,955.4,8.1,43.6,33,5.2,4.3,8.8,162.0,48.0,1.7,7,5,7,1,2026-06-09T21:28:11.920398+05:30
Tirupur,Tamil Nadu,11.1085,77.3411,24.0,89,0.0,975.8,5.2,59.4,28,8.4,8.1,16.5,196.0,37.0,4.6,3,5,3,1,2026-06-09T21:28:11.920405+05:30
Alappuzha,Kerala,9.4981,76.3388,26.7,91,0.1,1011.0,8.35,44.3,33,14.7,9.4,7.9,85.0,42.0,1.9,10,0,4,1,2026-06-09T21:28:11.920412+05:30
Munnar,Kerala,10.0889,77.0595,17.4,100,0.2,857.5,2.15,52.9,23,3.6,3.5,10.1,121.0,27.0,1.8,6,10,3,1,2026-06-09T21:28:11.920420+05:30
Silchar,Assam,24.8333,92.7789,26.3,88,0.0,1001.4,8.7,19.1,75,44.8,33.2,10.2,524.0,80.0,6.2,7,5,4,1,2026-06-09T21:28:11.920427+05:30
Dibrugarh,Assam,27.4728,94.912,25.4,97,0.0,991.5,7.6,28.8,88,21.0,18.6,8.8,307.0,90.0,2.0,7,5,7,1,2026-06-09T21:28:11.920436+05:30
