city,state,latitude,longitude,temp,humidity,rain,pressure,uv_index,wind_gusts,aqi,pm10,pm2_5,mosquito_risk,arthritis_risk,migraine_risk,frizz_risk,updated_at
Delhi,Delhi,28.6139,77.209,33.0,35,0.0,986.3,6.9,18.0,135,131.8,33.3,0,5,7,0,2026-04-02T12:47:54.422695+05:30
Mumbai,Maharashtra,19.076,72.8777,27.8,74,0.0,1010.8,7.55,19.8,65,29.7,20.3,7,0,4,1,2026-04-02T12:47:54.422742+05:30
Bangalore,Karnataka,12.9716,77.5946,31.5,37,0.0,914.6,9.6,23.4,54,11.2,8.5,0,5,7,0,2026-04-02T12:47:54.422758+05:30
Hyderabad,Telangana,17.385,78.4867,34.1,30,0.0,956.9,9.15,26.6,65,19.2,14.2,0,5,7,0,2026-04-02T12:47:54.422768+05:30
Chennai,Tamil Nadu,13.0827,80.2707,33.7,49,0.0,1010.1,9.3,31.0,36,14.5,11.1,0,0,4,1,2026-04-02T12:47:54.422776+05:30
Kolkata,West Bengal,22.5726,88.3639,34.8,57,0.0,1007.3,8.6,24.5,88,36.8,29.5,0,5,4,1,2026-04-02T12:47:54.422786+05:30
Pune,Maharashtra,18.5204,73.8567,32.9,51,0.0,951.2,8.45,24.8,114,49.5,41.1,0,5,7,1,2026-04-02T12:47:54.422798+05:30
Ahmedabad,Gujarat,23.0225,72.5714,34.1,36,0.0,1004.0,7.9,38.5,57,34.2,16.9,0,5,4,1,2026-04-02T12:47:54.422806+05:30
Jaipur,Rajasthan,26.9124,75.7873,33.0,37,0.0,962.4,7.55,34.6,104,145.8,29.5,0,5,7,1,2026-04-02T12:47:54.422814+05:30
Lucknow,Uttar Pradesh,26.8467,80.9462,36.9,24,0.0,995.7,7.25,32.4,71,47.7,18.3,0,5,10,0,2026-04-02T12:47:54.422822+05:30
Kanpur,Uttar Pradesh,26.4499,80.3319,35.0,32,0.0,994.6,6.85,23.0,99,115.9,25.0,0,5,7,0,2026-04-02T12:47:54.422832+05:30
Chandigarh,Chandigarh,30.7333,76.7794,31.4,38,0.0,972.8,6.65,22.0,72,56.2,16.2,0,5,7,0,2026-04-02T12:47:54.422839+05:30
Srinagar,Jammu and Kashmir,34.0837,74.7973,15.0,72,0.0,847.1,6.8,14.4,110,38.1,20.4,3,5,7,0,2026-04-02T12:47:54.422847+05:30
Jammu,Jammu and Kashmir,32.7266,74.857,32.6,28,0.0,976.5,7.35,19.8,82,58.1,16.8,0,5,7,0,2026-04-02T12:47:54.422854+05:30
Amritsar,Punjab,31.634,74.8723,32.1,34,0.0,984.5,7.35,20.9,99,61.7,19.4,0,5,7,0,2026-04-02T12:47:54.422861+05:30
Ludhiana,Punjab,30.901,75.8573,32.0,37,0.0,982.6,7.0,20.2,129,76.8,27.2,0,5,7,0,2026-04-02T12:47:54.422868+05:30
Jalandhar,Punjab,31.326,75.5762,32.4,33,0.0,983.5,7.15,16.9,101,74.3,24.0,0,5,7,0,2026-04-02T12:47:54.422876+05:30
Dehradun,Uttarakhand,30.6284,78.0322,22.3,36,0.0,835.7,7.15,27.4,35,36.3,8.7,0,5,7,0,2026-04-02T12:47:54.422883+05:30
Shimla,Himachal Pradesh,31.1048,77.1734,21.4,32,0.0,791.0,7.15,31.3,57,41.7,10.2,0,5,7,0,2026-04-02T12:47:54.422890+05:30
Manali,Himachal Pradesh,32.2396,77.1887,21.8,38,0.0,826.0,9.05,26.6,65,14.4,6.2,0,5,7,0,2026-04-02T12:47:54.422897+05:30
Gurgaon,Haryana,28.4595,77.0266,33.3,36,0.0,984.7,6.95,18.4,219,473.1,63.3,0,5,7,1,2026-04-02T12:47:54.422903+05:30
Noida,Uttar Pradesh,28.5355,77.391,33.2,36,0.0,987.8,6.95,17.3,219,473.1,63.3,0,5,7,1,2026-04-02T12:47:54.422910+05:30
Ghaziabad,Uttar Pradesh,28.6692,77.4538,33.3,36,0.0,986.0,6.9,16.9,120,100.1,27.2,0,5,7,1,2026-04-02T12:47:54.422916+05:30
Faridabad,Haryana,28.4089,77.3178,33.7,34,0.0,987.1,6.95,19.8,219,473.1,63.3,0,5,7,0,2026-04-02T12:47:54.422922+05:30
Meerut,Uttar Pradesh,28.9845,77.7064,33.8,33,0.0,984.9,6.8,17.3,120,100.1,27.2,0,5,7,0,2026-04-02T12:47:54.422929+05:30
Agra,Uttar Pradesh,27.1767,78.0081,36.2,29,0.0,990.7,6.6,24.1,185,245.9,39.7,0,5,10,0,2026-04-02T12:47:54.422936+05:30
Varanasi,Uttar Pradesh,25.3176,82.9739,37.2,32,0.0,999.4,7.6,33.8,85,52.3,19.4,0,5,10,1,2026-04-02T12:47:54.422945+05:30
Prayagraj,Uttar Pradesh,25.4358,81.8463,37.4,30,0.0,997.9,7.5,24.5,71,59.3,19.8,0,5,10,1,2026-04-02T12:47:54.422952+05:30
Gorakhpur,Uttar Pradesh,26.7606,83.3732,37.4,19,0.0,998.3,7.8,41.0,59,27.9,12.7,0,5,10,0,2026-04-02T12:47:54.422959+05:30
Bareilly,Uttar Pradesh,28.367,79.4304,34.6,28,0.0,989.9,7.2,28.4,88,39.6,12.6,0,5,7,0,2026-04-02T12:47:54.422966+05:30
Aligarh,Uttar Pradesh,27.8974,78.088,35.6,27,0.0,988.7,7.05,15.5,136,103.6,27.4,0,5,10,0,2026-04-02T12:47:54.422973+05:30
Moradabad,Uttar Pradesh,28.8386,78.7733,34.6,28,0.0,986.8,7.0,25.6,101,52.4,17.3,0,5,7,0,2026-04-02T12:47:54.422979+05:30
Saharanpur,Uttar Pradesh,29.9637,77.546,32.0,34,0.0,979.5,6.5,22.0,95,47.5,15.1,0,5,7,0,2026-04-02T12:47:54.422985+05:30
Jhansi,Uttar Pradesh,25.4484,78.5685,36.6,32,0.0,980.3,6.4,28.1,70,48.3,26.7,0,5,10,1,2026-04-02T12:47:57.680258+05:30
Surat,Gujarat,21.1702,72.8311,31.6,49,0.0,1009.0,7.6,32.0,87,41.1,34.2,0,0,4,1,2026-04-02T12:47:57.680289+05:30
Vadodara,Gujarat,22.3072,73.1812,34.8,38,0.0,1006.2,7.7,35.3,68,30.6,20.3,0,5,4,1,2026-04-02T12:47:57.680299+05:30
Rajkot,Gujarat,22.3039,70.8022,32.9,36,0.0,996.3,6.8,42.8,56,29.9,15.3,0,5,7,0,2026-04-02T12:47:57.680307+05:30
Thane,Maharashtra,19.2183,72.9781,31.6,55,0.0,1010.2,7.3,30.2,65,29.7,20.3,0,0,4,1,2026-04-02T12:47:57.680315+05:30
Nagpur,Maharashtra,21.1458,79.0882,33.5,43,0.0,976.7,8.15,34.6,89,48.4,35.6,0,5,7,1,2026-04-02T12:47:57.680322+05:30
Nashik,Maharashtra,19.9975,73.7898,33.0,39,0.0,948.0,8.15,37.8,67,29.1,22.8,0,5,7,1,2026-04-02T12:47:57.680329+05:30
Aurangabad,Maharashtra,19.8762,75.3433,31.6,45,0.0,947.1,8.85,28.1,107,52.5,42.1,0,5,7,1,2026-04-02T12:47:57.680336+05:30
Solapur,Maharashtra,17.6599,75.9064,35.4,34,0.0,959.7,8.9,46.1,122,26.7,22.2,0,5,10,1,2026-04-02T12:47:57.680343+05:30
Kolhapur,Maharashtra,16.705,74.2433,32.1,48,0.0,950.4,8.95,34.9,134,44.5,38.0,0,5,7,1,2026-04-02T12:47:57.680351+05:30
Goa,Goa,15.2993,74.124,32.7,61,0.0,999.9,8.85,31.3,75,34.7,26.6,3,5,7,1,2026-04-02T12:47:57.680358+05:30
Jodhpur,Rajasthan,26.2389,73.0243,33.3,29,0.0,984.7,7.75,37.8,73,56.5,11.4,0,5,7,0,2026-04-02T12:47:57.680364+05:30
Udaipur,Rajasthan,24.5854,73.7125,32.3,26,0.0,948.9,8.3,39.6,43,15.5,7.8,0,5,7,0,2026-04-02T12:47:57.680371+05:30
Kota,Rajasthan,25.2138,75.8648,36.2,28,0.0,980.5,7.85,29.5,72,56.3,18.1,0,5,10,0,2026-04-02T12:47:57.680378+05:30
Bikaner,Rajasthan,28.0229,73.3119,35.7,22,0.0,982.7,7.3,42.5,62,56.2,16.9,0,5,10,0,2026-04-02T12:47:57.680385+05:30
Ajmer,Rajasthan,26.4499,74.6399,33.7,25,0.0,956.8,7.4,31.3,67,60.8,13.0,0,5,7,0,2026-04-02T12:47:57.680392+05:30
Gwalior,Madhya Pradesh,26.2183,78.1828,36.0,35,0.0,985.5,6.35,23.4,67,56.8,19.2,0,5,10,1,2026-04-02T12:47:57.680399+05:30
Indore,Madhya Pradesh,22.7196,75.8577,34.3,24,0.0,951.1,8.3,41.0,88,37.1,27.1,0,5,7,0,2026-04-02T12:47:57.680405+05:30
Bhopal,Madhya Pradesh,23.2599,77.4126,35.9,27,0.0,956.9,7.95,34.6,83,36.4,27.0,0,5,10,0,2026-04-02T12:47:57.680412+05:30
Jabalpur,Madhya Pradesh,23.1815,79.9864,35.4,33,0.0,964.6,7.85,29.5,86,36.2,24.9,0,5,10,1,2026-04-02T12:47:57.680419+05:30
Ujjain,Madhya Pradesh,23.1765,75.7885,33.7,31,0.0,956.8,8.2,31.0,73,32.9,22.6,0,5,7,0,2026-04-02T12:47:57.680426+05:30
Visakhapatnam,Andhra Pradesh,17.6868,83.2185,34.5,43,0.0,1006.7,9.05,35.3,54,13.8,11.0,0,5,4,1,2026-04-02T12:47:57.680434+05:30
Vijayawada,Andhra Pradesh,16.5062,80.648,34.0,45,0.0,1006.0,9.15,27.4,46,11.7,8.8,0,5,4,1,2026-04-02T12:47:57.680441+05:30
Guntur,Andhra Pradesh,16.3067,80.4365,34.6,46,0.0,1007.0,9.15,26.6,42,11.3,7.5,0,5,4,1,2026-04-02T12:47:57.680449+05:30
Nellore,Andhra Pradesh,14.4426,79.9865,34.8,45,0.0,1008.6,9.25,28.8,33,15.7,12.4,0,0,4,1,2026-04-02T12:47:57.680457+05:30
Kurnool,Andhra Pradesh,15.8281,78.0373,36.6,20,0.0,979.7,9.15,24.8,52,12.1,7.9,0,5,10,0,2026-04-02T12:47:57.680465+05:30
Kakinada,Andhra Pradesh,16.9891,82.2475,36.2,42,0.0,1010.2,9.05,34.9,31,9.3,6.7,0,0,7,1,2026-04-02T12:47:57.680471+05:30
Tirupati,Andhra Pradesh,13.6288,79.4192,33.9,39,0.0,994.5,9.35,32.8,51,12.8,11.1,0,5,7,1,2026-04-02T12:47:57.680478+05:30
Warangal,Telangana,17.9689,79.5941,33.4,44,0.0,982.4,9.0,25.9,71,16.4,13.0,0,5,7,1,2026-04-02T12:47:57.680485+05:30
Nizamabad,Telangana,18.6725,78.0941,33.3,47,0.0,968.4,8.9,34.2,119,42.0,34.9,0,5,7,1,2026-04-02T12:47:57.680491+05:30
Mysore,Karnataka,12.2958,76.6396,31.6,43,0.0,931.0,9.5,34.2,79,20.1,16.7,0,5,7,1,2026-04-02T12:47:57.680497+05:30
Mangalore,Karnataka,12.9141,74.856,29.1,81,0.0,1008.4,9.05,22.3,79,29.4,24.1,7,0,4,1,2026-04-02T12:47:57.680504+05:30
Hubli-Dharwad,Karnataka,15.3647,75.124,33.0,44,0.0,943.3,9.2,35.3,96,28.3,24.0,0,5,7,1,2026-04-02T12:47:57.680512+05:30
Belgaum,Karnataka,15.8497,74.4977,30.5,53,0.0,928.5,9.1,32.0,96,32.4,27.2,0,5,7,1,2026-04-02T12:48:01.150160+05:30
Coimbatore,Tamil Nadu,11.0168,76.9558,34.1,40,0.0,964.3,9.4,44.3,62,12.6,10.0,0,5,7,1,2026-04-02T12:48:01.150191+05:30
Madurai,Tamil Nadu,9.9252,78.1198,34.3,41,0.0,995.0,9.35,31.0,53,7.9,6.9,0,5,7,1,2026-04-02T12:48:01.150202+05:30
Trichy,Tamil Nadu,10.7905,78.7047,33.6,45,0.0,1002.1,9.4,19.8,54,14.6,11.4,0,5,4,1,2026-04-02T12:48:01.150210+05:30
Salem,Tamil Nadu,11.6643,78.146,34.3,37,0.0,979.6,9.4,16.6,66,20.7,19.6,0,5,7,1,2026-04-02T12:48:01.150217+05:30
Tirunelveli,Tamil Nadu,8.7139,77.7567,36.1,37,0.0,1004.6,9.35,50.0,44,7.5,6.9,0,5,7,1,2026-04-02T12:48:01.150225+05:30
Vellore,Tamil Nadu,12.9165,79.1325,33.5,33,0.0,987.5,9.4,30.2,55,11.8,9.1,0,5,7,0,2026-04-02T12:48:01.150233+05:30
Erode,Tamil Nadu,11.341,77.7172,35.1,38,0.0,991.2,9.3,25.2,54,10.2,9.1,0,5,10,1,2026-04-02T12:48:01.150241+05:30
Kochi,Kerala,9.9312,76.2673,28.8,79,0.0,1010.4,9.2,29.5,81,24.0,20.5,7,0,4,1,2026-04-02T12:48:01.150250+05:30
Thiruvananthapuram,Kerala,8.5241,76.9366,29.3,74,0.0,1009.5,9.2,26.6,67,14.1,12.1,7,0,4,1,2026-04-02T12:48:01.150257+05:30
Kozhikode,Kerala,11.2588,75.7804,29.9,76,0.0,1009.9,8.85,25.9,62,16.8,13.8,7,0,4,1,2026-04-02T12:48:01.150265+05:30
Thrissur,Kerala,10.5276,76.2144,32.5,63,0.0,1008.8,9.15,33.1,75,21.7,18.7,3,0,4,1,2026-04-02T12:48:01.150272+05:30
Kannur,Kerala,11.8745,75.3704,30.9,69,0.0,1009.2,9.15,24.5,77,21.6,18.1,3,0,4,1,2026-04-02T12:48:01.150280+05:30
Patna,Bihar,25.5941,85.1376,35.8,38,0.0,1001.5,8.1,37.4,73,55.2,18.5,0,5,7,1,2026-04-02T12:48:01.150329+05:30
Gaya,Bihar,24.7914,85.0002,36.6,33,0.0,995.2,8.3,32.0,78,38.4,15.8,0,5,10,1,2026-04-02T12:48:01.150350+05:30
Muzaffarpur,Bihar,26.1209,85.3647,35.7,36,0.0,1001.0,8.25,35.6,87,53.3,20.8,0,5,7,1,2026-04-02T12:48:01.150362+05:30
Bhagalpur,Bihar,25.2425,87.0117,34.9,38,0.0,1001.9,7.95,30.6,95,40.4,19.8,0,5,4,1,2026-04-02T12:48:01.150372+05:30
Ranchi,Jharkhand,23.3441,85.3096,33.9,30,0.0,940.6,8.9,33.1,72,27.0,16.6,0,5,7,0,2026-04-02T12:48:01.150381+05:30
Jamshedpur,Jharkhand,22.8046,86.2029,36.9,34,0.0,992.3,8.75,33.8,100,43.4,27.8,0,5,10,1,2026-04-02T12:48:01.150390+05:30
Dhanbad,Jharkhand,23.7957,86.4304,37.6,26,0.0,981.0,8.65,31.7,153,43.2,29.9,0,5,10,0,2026-04-02T12:48:01.150399+05:30
Bokaro,Jharkhand,23.6693,86.1511,37.2,26,0.0,985.1,8.65,31.7,152,45.1,32.0,0,5,10,0,2026-04-02T12:48:01.150407+05:30
Bhubaneswar,Odisha,20.2961,85.8245,37.1,38,0.0,1004.7,8.9,32.0,63,23.1,17.6,0,5,7,1,2026-04-02T12:48:01.150416+05:30
Cuttack,Odisha,20.4625,85.8828,37.5,40,0.0,1006.2,8.95,24.5,63,23.1,17.6,0,5,7,1,2026-04-02T12:48:01.150424+05:30
Rourkela,Odisha,22.2604,84.8536,37.2,33,0.0,987.1,8.65,27.0,121,48.8,33.4,0,5,10,1,2026-04-02T12:48:01.150431+05:30
Raipur,Chhattisgarh,21.2514,81.6296,36.5,30,0.0,977.6,8.7,27.7,132,32.2,29.0,0,5,10,1,2026-04-02T12:48:01.150438+05:30
Bhilai,Chhattisgarh,21.1938,81.3509,36.4,32,0.0,977.9,8.7,29.2,131,32.5,28.3,0,5,10,1,2026-04-02T12:48:01.150445+05:30
Guwahati,Assam,26.1158,91.7086,28.3,75,0.0,1002.3,8.15,33.5,98,46.7,38.3,7,5,4,1,2026-04-02T12:48:01.150453+05:30
Agartala,Tripura,23.8315,91.2868,34.2,52,0.0,1007.2,8.4,43.2,109,55.1,43.8,0,5,4,1,2026-04-02T12:48:01.150462+05:30
Shillong,Meghalaya,25.5788,91.8933,21.2,56,0.0,859.0,8.55,70.9,92,43.7,35.7,0,5,7,0,2026-04-02T12:48:01.150473+05:30
Imphal,Manipur,24.817,93.9368,22.1,73,0.0,925.3,8.7,87.5,108,44.4,32.7,3,5,7,1,2026-04-02T12:48:01.150481+05:30
Aizawl,Mizoram,23.7271,92.7176,26.6,52,0.0,896.4,8.65,55.1,91,48.0,30.7,4,5,7,0,2026-04-02T12:48:01.150489+05:30
Kohima,Nagaland,25.6701,94.1077,21.0,58,0.0,857.2,8.65,105.5,82,32.4,24.2,0,5,7,0,2026-04-02T12:48:01.150496+05:30
Gangtok,Sikkim,27.3314,88.6138,22.7,57,0.0,839.9,8.55,20.9,67,31.1,23.9,0,5,7,0,2026-04-02T12:48:01.150504+05:30
Siliguri,West Bengal,26.7271,88.3953,26.7,66,0.0,994.0,8.05,24.5,152,49.8,39.3,7,5,7,1,2026-04-02T12:48:04.403512+05:30
Durgapur,West Bengal,23.5204,87.3119,37.6,32,0.0,995.9,8.6,27.4,152,54.1,39.9,0,5,10,1,2026-04-02T12:48:04.403542+05:30
Asansol,West Bengal,23.6739,86.9524,37.4,32,0.0,994.6,8.65,27.4,127,43.2,29.2,0,5,10,1,2026-04-02T12:48:04.403553+05:30
Pondicherry,Puducherry,11.9139,79.8145,33.1,50,0.0,1010.9,9.25,24.8,32,15.8,11.6,0,0,4,1,2026-04-02T12:48:04.403561+05:30
Port Blair,Andaman and Nicobar Islands,11.6234,92.7265,29.2,80,0.0,1007.8,9.15,31.3,37,9.4,5.4,7,5,4,1,2026-04-02T12:48:04.403569+05:30
Haridwar,Uttarakhand,29.9457,78.1642,32.6,29,0.0,977.9,6.6,25.2,65,43.3,12.8,0,5,7,0,2026-04-02T12:48:04.403578+05:30
Rishikesh,Uttarakhand,30.0869,78.2676,32.4,26,0.0,970.8,6.7,28.1,51,40.0,10.9,0,5,7,0,2026-04-02T12:48:04.403586+05:30
Nainital,Uttarakhand,29.3919,79.4542,27.2,23,0.0,812.8,7.65,44.3,57,30.7,10.2,4,5,7,0,2026-04-02T12:48:04.403593+05:30
Mussoorie,Uttarakhand,30.4599,78.0664,23.4,39,0.0,808.9,7.05,31.3,58,38.1,10.9,0,5,7,0,2026-04-02T12:48:04.403600+05:30
Dharamshala,Himachal Pradesh,32.219,76.3234,27.1,29,0.0,874.1,7.3,28.4,44,34.8,9.7,4,5,7,0,2026-04-02T12:48:04.403608+05:30
Dalhousie,Himachal Pradesh,32.5387,75.971,24.8,28,0.0,809.9,7.55,24.8,64,41.2,11.8,0,5,7,0,2026-04-02T12:48:04.403616+05:30
Patiala,Punjab,30.3398,76.3869,31.0,40,0.0,982.1,6.7,20.9,116,119.2,28.2,0,5,7,0,2026-04-02T12:48:04.403624+05:30
Bhatinda,Punjab,30.211,74.9455,28.2,48,0.0,988.0,7.35,50.4,95,109.2,29.0,4,5,7,1,2026-04-02T12:48:04.403631+05:30
Rohtak,Haryana,28.8955,76.6066,29.9,43,0.0,985.3,6.65,49.0,150,190.5,41.1,4,5,7,0,2026-04-02T12:48:04.403638+05:30
Panipat,Haryana,29.3909,76.9635,31.5,41,0.0,984.4,6.7,23.0,156,183.0,39.5,0,5,7,1,2026-04-02T12:48:04.403645+05:30
Mathura,Uttar Pradesh,27.4924,77.6737,35.9,31,0.0,989.8,7.2,21.6,120,254.3,43.2,0,5,10,1,2026-04-02T12:48:04.403652+05:30
Vrindavan,Uttar Pradesh,27.5823,77.7027,35.7,31,0.0,990.3,7.2,20.5,120,254.3,43.2,0,5,10,0,2026-04-02T12:48:04.403659+05:30
Ayodhya,Uttar Pradesh,26.7922,82.1998,37.1,20,0.0,997.1,7.65,37.1,62,30.5,14.3,0,5,10,0,2026-04-02T12:48:04.403665+05:30
Ratlam,Madhya Pradesh,23.3315,75.0367,32.8,34,0.0,957.5,8.15,35.3,64,28.8,18.9,0,5,7,0,2026-04-02T12:48:04.403672+05:30
Sagar,Madhya Pradesh,23.8388,78.7378,36.3,23,0.0,953.5,8.0,35.3,59,31.8,21.9,0,5,10,0,2026-04-02T12:48:04.403679+05:30
Satna,Madhya Pradesh,24.6005,80.8322,36.6,27,0.0,974.1,7.7,28.4,56,23.2,14.0,0,5,10,0,2026-04-02T12:48:04.403686+05:30
Akola,Maharashtra,20.7002,77.0082,35.1,40,0.0,978.1,8.6,24.1,89,48.9,37.4,0,5,10,1,2026-04-02T12:48:04.403694+05:30
Amravati,Maharashtra,20.9374,77.7796,35.3,38,0.0,970.7,8.6,24.1,84,45.8,34.6,0,5,10,1,2026-04-02T12:48:04.403701+05:30
Latur,Maharashtra,18.4088,76.5604,33.3,40,0.0,942.9,8.9,38.2,124,31.1,25.5,0,5,7,1,2026-04-02T12:48:04.403708+05:30
Nanded,Maharashtra,19.1383,77.3091,33.8,46,0.0,972.0,8.75,35.6,106,48.7,39.8,0,5,7,1,2026-04-02T12:48:04.403715+05:30
Gulbarga,Karnataka,17.3297,76.8343,35.1,34,0.0,961.6,8.95,39.2,99,16.2,12.9,0,5,10,1,2026-04-02T12:48:04.403721+05:30
Bidar,Karnataka,17.9104,77.5199,32.9,42,0.0,939.0,8.95,37.8,111,20.1,15.8,0,5,7,1,2026-04-02T12:48:04.403727+05:30
Hospet,Karnataka,15.2689,76.3909,33.6,41,0.0,958.2,9.15,35.3,96,19.2,15.4,0,5,7,1,2026-04-02T12:48:04.403734+05:30
Tirupur,Tamil Nadu,11.1085,77.3411,34.2,39,0.0,977.7,9.2,25.6,59,11.7,10.3,0,5,7,1,2026-04-02T12:48:04.403741+05:30
Alappuzha,Kerala,9.4981,76.3388,29.0,77,0.0,1010.5,9.2,26.6,75,24.6,21.2,7,0,4,1,2026-04-02T12:48:04.403747+05:30
Munnar,Kerala,10.0889,77.0595,29.8,42,0.0,860.9,9.75,33.1,61,10.9,9.0,4,5,7,0,2026-04-02T12:48:04.403754+05:30
Silchar,Assam,24.8333,92.7789,24.8,85,0.0,1008.2,8.4,34.2,134,61.5,45.6,3,0,4,1,2026-04-02T12:48:04.403761+05:30
Dibrugarh,Assam,27.4728,94.912,22.4,89,0.0,997.4,7.3,26.3,99,32.0,27.2,3,5,7,1,2026-04-02T12:48:04.403767+05:30
