city,state,latitude,longitude,temp,humidity,rain,pressure,uv_index,wind_gusts,aqi,pm10,pm2_5,no2,co,o3,so2,mosquito_risk,arthritis_risk,migraine_risk,frizz_risk,updated_at
Delhi,Delhi,28.6139,77.209,27.3,56,0.0,983.0,7.6,26.6,149,258.9,64.3,23.5,589.0,101.0,21.1,4,5,7,1,2026-05-10T00:46:20.263082+05:30
Mumbai,Maharashtra,19.076,72.8777,28.9,79,0.0,1007.2,7.9,52.2,82,49.1,20.3,13.4,518.0,77.0,9.3,7,5,4,1,2026-05-10T00:46:20.263131+05:30
Bangalore,Karnataka,12.9716,77.5946,21.9,91,0.0,910.7,9.45,37.8,49,13.2,13.1,20.5,230.0,37.0,7.8,3,5,7,1,2026-05-10T00:46:20.263154+05:30
Hyderabad,Telangana,17.385,78.4867,28.5,44,0.0,953.3,9.25,37.8,60,18.0,15.7,12.3,337.0,76.0,7.2,4,5,7,0,2026-05-10T00:46:20.263166+05:30
Chennai,Tamil Nadu,13.0827,80.2707,26.2,92,0.0,1006.5,8.0,35.6,20,5.8,4.3,6.0,231.0,44.0,1.5,7,5,4,1,2026-05-10T00:46:20.263176+05:30
Kolkata,West Bengal,22.5726,88.3639,26.0,84,0.0,1007.1,8.85,33.8,151,82.2,76.4,24.7,710.0,91.0,20.7,7,5,4,1,2026-05-10T00:46:20.263184+05:30
Pune,Maharashtra,18.5204,73.8567,28.8,40,0.0,947.3,8.5,37.1,91,34.6,23.9,21.3,330.0,79.0,16.8,4,5,7,0,2026-05-10T00:46:20.263208+05:30
Ahmedabad,Gujarat,23.0225,72.5714,34.2,17,0.0,1000.6,8.1,33.8,64,49.6,33.8,23.0,238.0,51.0,10.0,0,5,4,0,2026-05-10T00:46:20.263220+05:30
Jaipur,Rajasthan,26.9124,75.7873,27.7,44,0.0,959.3,8.15,26.6,159,433.1,78.7,8.4,419.0,110.0,8.4,4,5,7,0,2026-05-10T00:46:20.263228+05:30
Lucknow,Uttar Pradesh,26.8467,80.9462,25.2,67,0.0,993.7,7.95,33.5,109,78.2,55.5,23.6,468.0,82.0,16.8,7,5,7,1,2026-05-10T00:46:20.263237+05:30
Kanpur,Uttar Pradesh,26.4499,80.3319,26.1,64,0.0,991.7,8.1,31.7,167,105.7,43.2,11.5,412.0,99.0,9.4,7,5,7,1,2026-05-10T00:46:20.263245+05:30
Chandigarh,Chandigarh,30.7333,76.7794,23.6,67,0.0,968.3,7.7,38.5,92,72.2,44.6,30.6,463.0,64.0,9.0,3,5,7,1,2026-05-10T00:46:20.263253+05:30
Srinagar,Jammu and Kashmir,34.0837,74.7973,10.6,83,0.0,839.3,8.35,16.2,89,73.1,44.2,35.9,465.0,37.0,7.0,3,10,7,0,2026-05-10T00:46:20.263264+05:30
Jammu,Jammu and Kashmir,32.7266,74.857,26.2,54,0.0,972.0,7.95,34.2,152,79.4,54.0,27.8,443.0,57.0,6.3,4,5,7,1,2026-05-10T00:46:20.263273+05:30
Amritsar,Punjab,31.634,74.8723,27.7,53,0.0,980.0,8.35,32.4,152,140.6,59.8,7.5,613.0,96.0,8.2,4,5,7,1,2026-05-10T00:46:20.263280+05:30
Ludhiana,Punjab,30.901,75.8573,26.0,60,0.0,978.2,7.95,34.2,142,349.2,77.5,9.8,1067.0,111.0,10.8,4,5,7,1,2026-05-10T00:46:20.263287+05:30
Jalandhar,Punjab,31.326,75.5762,25.1,63,0.0,978.9,8.15,33.1,142,228.6,65.0,14.2,657.0,93.0,11.5,7,5,7,1,2026-05-10T00:46:20.263294+05:30
Dehradun,Uttarakhand,30.6284,78.0322,11.4,99,0.0,828.4,8.1,35.6,91,52.6,28.8,27.7,271.0,67.0,1.8,3,10,7,0,2026-05-10T00:46:20.263304+05:30
Shimla,Himachal Pradesh,31.1048,77.1734,11.5,78,0.0,783.1,8.2,42.1,127,107.8,44.1,24.9,335.0,89.0,10.8,3,5,7,0,2026-05-10T00:46:20.263312+05:30
Manali,Himachal Pradesh,32.2396,77.1887,8.1,50,0.0,812.9,9.2,42.8,95,38.8,11.4,33.4,274.0,99.0,0.7,0,5,7,1,2026-05-10T00:46:20.263319+05:30
Gurgaon,Haryana,28.4595,77.0266,25.9,61,0.0,981.3,7.75,30.2,856,869.9,129.0,17.7,515.0,105.0,15.9,7,5,7,1,2026-05-10T00:46:20.263327+05:30
Noida,Uttar Pradesh,28.5355,77.391,24.5,69,0.0,984.4,7.65,23.0,856,869.9,129.0,17.7,613.0,105.0,15.9,3,5,7,1,2026-05-10T00:46:20.263334+05:30
Ghaziabad,Uttar Pradesh,28.6692,77.4538,24.2,69,0.0,982.6,7.6,26.6,117,124.3,49.2,11.6,404.0,102.0,10.2,3,5,7,1,2026-05-10T00:46:20.263341+05:30
Faridabad,Haryana,28.4089,77.3178,26.1,63,0.0,983.7,7.7,23.8,856,869.9,129.0,17.7,536.0,105.0,15.9,7,5,7,1,2026-05-10T00:46:20.263347+05:30
Meerut,Uttar Pradesh,28.9845,77.7064,23.6,74,0.0,981.3,7.55,26.6,117,124.3,49.2,11.6,478.0,102.0,10.2,3,5,7,1,2026-05-10T00:46:20.263354+05:30
Agra,Uttar Pradesh,27.1767,78.0081,25.5,64,0.0,987.5,7.95,24.8,883,758.1,103.1,9.5,404.0,101.0,12.3,7,5,7,1,2026-05-10T00:46:20.263361+05:30
Varanasi,Uttar Pradesh,25.3176,82.9739,25.0,69,0.0,997.4,8.55,33.8,128,62.4,51.0,19.7,539.0,89.0,17.8,7,5,7,1,2026-05-10T00:46:20.263368+05:30
Prayagraj,Uttar Pradesh,25.4358,81.8463,26.5,62,0.0,995.7,8.45,32.4,127,63.3,55.8,16.4,528.0,99.0,14.6,7,5,7,1,2026-05-10T00:46:20.263381+05:30
Gorakhpur,Uttar Pradesh,26.7606,83.3732,24.8,65,0.0,998.2,8.4,32.4,113,66.1,57.5,20.1,519.0,88.0,12.4,3,5,7,1,2026-05-10T00:46:20.263388+05:30
Bareilly,Uttar Pradesh,28.367,79.4304,23.4,73,0.0,987.0,7.9,24.5,96,54.0,46.3,32.4,605.0,46.0,7.8,3,5,7,1,2026-05-10T00:46:20.263395+05:30
Aligarh,Uttar Pradesh,27.8974,78.088,24.8,66,0.0,985.2,7.75,24.1,416,379.0,75.0,10.2,447.0,105.0,14.4,3,5,7,1,2026-05-10T00:46:20.263402+05:30
Moradabad,Uttar Pradesh,28.8386,78.7733,24.0,71,0.0,983.8,7.75,27.7,105,129.5,69.4,34.2,704.0,56.0,13.0,3,5,7,1,2026-05-10T00:46:20.263409+05:30
Saharanpur,Uttar Pradesh,29.9637,77.546,23.7,77,0.0,975.6,7.4,30.6,104,70.5,54.5,29.2,633.0,56.0,12.2,3,5,7,1,2026-05-10T00:46:20.263415+05:30
Jhansi,Uttar Pradesh,25.4484,78.5685,25.6,56,0.0,977.5,8.4,26.6,100,89.6,36.3,4.1,339.0,115.0,8.1,4,5,7,1,2026-05-10T00:46:23.498269+05:30
Surat,Gujarat,21.1702,72.8311,31.4,52,0.0,1004.3,7.75,32.0,105,38.1,23.3,28.1,394.0,61.0,43.0,0,5,4,1,2026-05-10T00:46:23.498304+05:30
Vadodara,Gujarat,22.3072,73.1812,31.5,40,0.0,1002.3,8.1,30.2,74,57.5,44.7,44.7,300.0,39.0,17.9,0,5,4,1,2026-05-10T00:46:23.498316+05:30
Rajkot,Gujarat,22.3039,70.8022,27.1,70,0.0,993.7,7.7,40.0,54,31.8,10.9,6.7,181.0,57.0,5.7,7,5,7,1,2026-05-10T00:46:23.498325+05:30
Thane,Maharashtra,19.2183,72.9781,28.3,77,0.0,1006.6,7.9,48.6,82,49.1,20.3,13.4,429.0,77.0,9.3,7,5,4,1,2026-05-10T00:46:23.498333+05:30
Nagpur,Maharashtra,21.1458,79.0882,29.7,42,0.0,972.3,8.9,36.7,94,53.1,35.5,24.9,309.0,70.0,15.9,4,5,7,0,2026-05-10T00:46:23.498340+05:30
Nashik,Maharashtra,19.9975,73.7898,27.3,48,0.0,944.7,8.2,40.3,100,44.4,27.0,18.5,290.0,97.0,15.0,4,5,7,0,2026-05-10T00:46:23.498347+05:30
Aurangabad,Maharashtra,19.8762,75.3433,29.9,28,0.0,943.1,9.05,45.0,85,46.9,22.4,15.8,333.0,99.0,8.6,4,5,7,0,2026-05-10T00:46:23.498355+05:30
Solapur,Maharashtra,17.6599,75.9064,31.2,28,0.0,955.8,9.1,33.8,97,31.8,24.2,12.5,301.0,90.0,5.5,0,5,7,0,2026-05-10T00:46:23.498362+05:30
Kolhapur,Maharashtra,16.705,74.2433,27.7,57,0.0,946.7,8.9,44.6,112,87.1,69.2,32.8,359.0,58.0,10.7,4,5,7,1,2026-05-10T00:46:23.498369+05:30
Goa,Goa,15.2993,74.124,27.7,85,0.0,996.1,6.25,48.6,86,56.8,42.4,14.1,386.0,93.0,6.2,7,5,7,1,2026-05-10T00:46:23.498376+05:30
Jodhpur,Rajasthan,26.2389,73.0243,32.6,21,0.0,981.1,8.35,32.4,93,94.1,34.9,13.6,408.0,69.0,5.8,0,5,7,0,2026-05-10T00:46:23.498384+05:30
Udaipur,Rajasthan,24.5854,73.7125,30.5,22,0.0,945.1,8.8,40.0,50,26.3,12.5,5.4,220.0,75.0,3.1,0,5,7,0,2026-05-10T00:46:23.498391+05:30
Kota,Rajasthan,25.2138,75.8648,29.6,40,0.0,977.1,8.35,33.8,85,71.7,28.1,5.1,555.0,102.0,6.5,4,5,7,0,2026-05-10T00:46:23.498399+05:30
Bikaner,Rajasthan,28.0229,73.3119,30.4,36,0.0,979.9,8.35,28.8,120,98.0,36.0,3.6,311.0,104.0,6.2,0,5,7,0,2026-05-10T00:46:23.498405+05:30
Ajmer,Rajasthan,26.4499,74.6399,28.6,36,0.0,953.7,8.35,33.5,85,102.7,35.5,8.7,334.0,88.0,5.7,4,5,7,0,2026-05-10T00:46:23.498412+05:30
Gwalior,Madhya Pradesh,26.2183,78.1828,26.1,60,0.0,982.9,8.2,24.1,120,184.4,50.9,4.6,310.0,115.0,8.0,4,5,7,1,2026-05-10T00:46:23.498419+05:30
Indore,Madhya Pradesh,22.7196,75.8577,31.4,20,0.0,947.0,8.65,41.4,59,50.6,24.2,9.3,397.0,76.0,5.3,0,5,7,0,2026-05-10T00:46:23.498425+05:30
Bhopal,Madhya Pradesh,23.2599,77.4126,29.9,29,0.0,951.8,8.65,45.0,62,31.2,19.0,4.9,269.0,91.0,5.8,4,5,7,0,2026-05-10T00:46:23.498431+05:30
Jabalpur,Madhya Pradesh,23.1815,79.9864,26.6,50,0.0,959.9,8.8,32.4,67,35.9,23.6,16.4,267.0,69.0,6.0,4,5,7,0,2026-05-10T00:46:23.498438+05:30
Ujjain,Madhya Pradesh,23.1765,75.7885,30.6,22,0.0,952.6,8.6,43.2,56,46.8,27.5,8.5,398.0,67.0,5.3,0,5,7,0,2026-05-10T00:46:23.498445+05:30
Visakhapatnam,Andhra Pradesh,17.6868,83.2185,27.1,87,0.0,1004.4,8.95,35.3,75,26.8,24.9,19.4,912.0,26.0,7.0,7,5,4,1,2026-05-10T00:46:23.498452+05:30
Vijayawada,Andhra Pradesh,16.5062,80.648,28.2,79,0.0,1002.7,9.05,38.9,44,10.2,9.0,8.4,176.0,31.0,5.2,7,5,4,1,2026-05-10T00:46:23.498458+05:30
Guntur,Andhra Pradesh,16.3067,80.4365,28.1,79,0.0,1003.9,8.9,39.6,44,8.6,7.7,8.9,166.0,31.0,7.1,7,5,4,1,2026-05-10T00:46:23.498465+05:30
Nellore,Andhra Pradesh,14.4426,79.9865,27.5,85,0.0,1005.4,9.2,37.1,21,6.5,4.5,3.3,174.0,41.0,1.9,7,5,4,1,2026-05-10T00:46:23.498472+05:30
Kurnool,Andhra Pradesh,15.8281,78.0373,28.9,55,0.0,976.6,8.8,42.1,41,4.6,4.0,4.4,135.0,45.0,1.0,4,5,7,1,2026-05-10T00:46:23.498479+05:30
Kakinada,Andhra Pradesh,16.9891,82.2475,27.4,87,0.0,1007.8,9.15,36.7,22,7.7,5.2,1.1,185.0,48.0,0.5,7,5,4,1,2026-05-10T00:46:23.498486+05:30
Tirupati,Andhra Pradesh,13.6288,79.4192,25.4,89,0.0,990.8,9.25,40.7,32,23.2,21.8,28.7,182.0,9.0,5.7,7,5,7,1,2026-05-10T00:46:23.498493+05:30
Warangal,Telangana,17.9689,79.5941,28.3,56,0.0,978.9,9.15,44.6,59,14.5,13.9,10.4,222.0,66.0,8.6,4,5,7,1,2026-05-10T00:46:23.498499+05:30
Nizamabad,Telangana,18.6725,78.0941,28.7,47,0.0,963.6,9.1,31.7,73,35.2,28.6,16.9,303.0,76.0,6.7,4,5,7,1,2026-05-10T00:46:23.498505+05:30
Mysore,Karnataka,12.2958,76.6396,23.1,87,0.0,927.4,9.1,36.4,57,13.7,13.4,16.1,228.0,47.0,5.0,3,5,7,1,2026-05-10T00:46:23.498511+05:30
Mangalore,Karnataka,12.9141,74.856,25.4,96,0.0,1005.7,8.95,41.4,70,34.3,26.1,16.4,312.0,57.0,5.0,7,5,4,1,2026-05-10T00:46:23.498519+05:30
Hubli-Dharwad,Karnataka,15.3647,75.124,25.0,84,0.0,939.5,7.2,47.9,54,35.0,31.1,31.5,321.0,43.0,4.3,7,5,7,1,2026-05-10T00:46:23.498525+05:30
Belgaum,Karnataka,15.8497,74.4977,24.5,71,0.0,924.0,8.3,40.0,79,57.5,46.3,34.3,277.0,51.0,8.9,3,5,7,1,2026-05-10T00:46:26.829171+05:30
Coimbatore,Tamil Nadu,11.0168,76.9558,23.8,96,0.1,960.4,9.15,34.6,59,10.4,10.1,13.7,258.0,46.0,4.1,6,5,7,1,2026-05-10T00:46:26.829223+05:30
Madurai,Tamil Nadu,9.9252,78.1198,26.0,94,0.0,990.9,3.4,39.2,63,17.9,17.7,22.6,448.0,35.0,8.4,7,5,3,1,2026-05-10T00:46:26.829235+05:30
Trichy,Tamil Nadu,10.7905,78.7047,26.2,90,0.0,998.2,4.85,40.0,40,9.6,8.9,20.8,259.0,24.0,17.1,7,5,3,1,2026-05-10T00:46:26.829244+05:30
Salem,Tamil Nadu,11.6643,78.146,25.3,91,0.0,976.4,8.5,50.8,51,16.5,16.3,19.1,247.0,46.0,9.3,7,5,7,1,2026-05-10T00:46:26.829252+05:30
Tirunelveli,Tamil Nadu,8.7139,77.7567,26.0,90,0.0,1001.2,3.85,34.9,57,12.0,11.8,10.0,282.0,51.0,3.7,7,5,0,1,2026-05-10T00:46:26.829260+05:30
Vellore,Tamil Nadu,12.9165,79.1325,24.4,99,0.0,983.9,9.25,34.9,51,21.2,19.4,26.1,267.0,22.0,14.2,3,5,7,1,2026-05-10T00:46:26.829269+05:30
Erode,Tamil Nadu,11.341,77.7172,24.8,95,0.0,988.1,6.2,33.5,59,14.3,14.0,16.9,294.0,49.0,6.2,3,5,7,1,2026-05-10T00:46:26.829276+05:30
Kochi,Kerala,9.9312,76.2673,26.2,94,0.0,1006.4,8.65,24.1,70,24.6,24.0,18.8,387.0,37.0,4.2,7,5,4,1,2026-05-10T00:46:26.829283+05:30
Thiruvananthapuram,Kerala,8.5241,76.9366,25.1,95,0.0,1005.6,2.8,25.2,52,11.8,11.2,5.8,476.0,104.0,3.8,7,5,0,1,2026-05-10T00:46:26.829290+05:30
Kozhikode,Kerala,11.2588,75.7804,25.6,94,0.0,1006.2,8.85,38.2,49,11.8,9.7,4.0,282.0,100.0,2.0,7,5,4,1,2026-05-10T00:46:26.829298+05:30
Thrissur,Kerala,10.5276,76.2144,25.0,96,0.0,1005.2,8.95,32.4,70,23.2,22.5,13.2,268.0,55.0,3.5,7,5,4,1,2026-05-10T00:46:26.829305+05:30
Kannur,Kerala,11.8745,75.3704,25.6,89,0.0,1005.7,8.75,45.4,64,22.8,20.0,18.2,242.0,52.0,3.3,7,5,4,1,2026-05-10T00:46:26.829312+05:30
Patna,Bihar,25.5941,85.1376,24.5,80,0.0,1001.5,8.65,34.2,144,61.0,52.5,12.6,416.0,123.0,19.8,3,5,4,1,2026-05-10T00:46:26.829319+05:30
Gaya,Bihar,24.7914,85.0002,23.1,73,0.0,994.0,8.7,33.5,126,67.8,50.4,12.0,392.0,105.0,12.5,3,5,7,1,2026-05-10T00:46:26.829326+05:30
Muzaffarpur,Bihar,26.1209,85.3647,23.5,81,0.0,1001.8,8.65,31.0,151,64.5,58.4,15.0,481.0,105.0,17.7,3,5,4,1,2026-05-10T00:46:26.829332+05:30
Bhagalpur,Bihar,25.2425,87.0117,24.8,83,0.0,1002.7,8.6,25.2,151,69.6,56.9,14.0,365.0,124.0,14.2,3,5,4,1,2026-05-10T00:46:26.829338+05:30
Ranchi,Jharkhand,23.3441,85.3096,22.0,66,0.0,937.8,9.15,46.1,100,78.9,49.0,10.8,272.0,107.0,11.9,3,5,7,0,2026-05-10T00:46:26.829345+05:30
Jamshedpur,Jharkhand,22.8046,86.2029,24.4,84,0.0,991.8,8.95,32.4,100,37.8,31.8,15.4,352.0,85.0,20.4,3,5,7,1,2026-05-10T00:46:26.829351+05:30
Dhanbad,Jharkhand,23.7957,86.4304,23.1,81,0.0,980.9,8.9,29.9,155,114.1,102.9,70.3,395.0,52.0,86.7,3,5,7,1,2026-05-10T00:46:26.829357+05:30
Bokaro,Jharkhand,23.6693,86.1511,22.6,83,0.0,984.5,8.9,27.0,157,124.8,106.2,63.7,2197.0,60.0,76.9,3,5,7,1,2026-05-10T00:46:26.829364+05:30
Bhubaneswar,Odisha,20.2961,85.8245,26.0,93,0.0,1003.8,9.05,32.4,54,22.4,20.1,17.2,354.0,36.0,5.1,7,5,4,1,2026-05-10T00:46:26.829371+05:30
Cuttack,Odisha,20.4625,85.8828,26.0,94,0.0,1005.6,9.1,28.1,54,22.4,20.1,17.2,326.0,36.0,5.1,7,5,4,1,2026-05-10T00:46:26.829378+05:30
Rourkela,Odisha,22.2604,84.8536,26.2,69,0.0,985.3,8.85,38.2,123,84.3,64.7,36.2,477.0,56.0,32.6,7,5,7,1,2026-05-10T00:46:26.829384+05:30
Raipur,Chhattisgarh,21.2514,81.6296,27.8,52,0.0,974.0,8.9,35.6,94,36.6,28.1,17.6,435.0,111.0,7.9,4,5,7,1,2026-05-10T00:46:26.829390+05:30
Bhilai,Chhattisgarh,21.1938,81.3509,27.6,54,0.0,974.2,8.95,33.1,96,42.5,34.1,39.5,450.0,81.0,9.1,4,5,7,1,2026-05-10T00:46:26.829397+05:30
Guwahati,Assam,26.1158,91.7086,22.6,86,0.0,1003.3,8.6,24.1,95,37.1,32.8,15.4,346.0,41.0,2.7,3,5,4,1,2026-05-10T00:46:26.829403+05:30
Agartala,Tripura,23.8315,91.2868,24.2,85,0.0,1007.5,7.65,32.0,158,108.7,98.7,58.4,612.0,30.0,10.3,3,5,4,1,2026-05-10T00:46:26.829409+05:30
Shillong,Meghalaya,25.5788,91.8933,16.9,73,0.0,857.8,9.05,24.8,77,36.6,27.2,14.3,410.0,51.0,2.0,3,5,7,0,2026-05-10T00:46:26.829415+05:30
Imphal,Manipur,24.817,93.9368,18.5,84,0.0,923.6,7.0,22.0,96,57.2,50.5,36.2,528.0,26.0,6.2,3,10,7,0,2026-05-10T00:46:26.829421+05:30
Aizawl,Mizoram,23.7271,92.7176,17.3,75,0.0,892.4,8.55,14.0,89,63.1,43.4,13.4,404.0,57.0,4.5,3,5,7,0,2026-05-10T00:46:26.829428+05:30
Kohima,Nagaland,25.6701,94.1077,14.3,95,0.0,854.6,7.95,24.1,75,38.8,29.3,17.3,289.0,32.0,2.0,3,10,7,0,2026-05-10T00:46:26.829434+05:30
Gangtok,Sikkim,27.3314,88.6138,11.9,77,0.0,837.9,7.1,34.9,61,24.6,18.0,16.4,345.0,68.0,1.4,3,5,7,0,2026-05-10T00:46:26.829440+05:30
Siliguri,West Bengal,26.7271,88.3953,23.4,61,0.0,994.8,8.1,20.9,109,66.1,51.5,29.9,965.0,70.0,5.9,3,5,7,0,2026-05-10T00:46:30.074303+05:30
Durgapur,West Bengal,23.5204,87.3119,23.1,88,0.0,996.1,8.85,32.8,143,67.5,62.2,38.2,736.0,68.0,52.1,3,5,7,1,2026-05-10T00:46:30.074339+05:30
Asansol,West Bengal,23.6739,86.9524,23.3,88,0.0,994.8,8.85,26.3,136,75.2,68.2,41.5,664.0,64.0,60.0,3,5,7,1,2026-05-10T00:46:30.074350+05:30
Pondicherry,Puducherry,11.9139,79.8145,26.0,96,0.1,1006.9,8.0,39.6,21,4.4,3.1,3.1,382.0,46.0,0.3,10,5,4,1,2026-05-10T00:46:30.074359+05:30
Port Blair,Andaman and Nicobar Islands,11.6234,92.7265,24.9,95,0.0,1006.6,9.0,29.9,26,2.4,1.7,0.5,143.0,57.0,0.1,3,5,4,1,2026-05-10T00:46:30.074367+05:30
Haridwar,Uttarakhand,29.9457,78.1642,21.5,80,0.0,973.9,7.45,28.8,95,67.1,47.3,21.3,324.0,76.0,9.5,3,5,7,1,2026-05-10T00:46:30.074374+05:30
Rishikesh,Uttarakhand,30.0869,78.2676,19.5,83,0.0,966.5,7.55,23.8,120,68.5,39.1,13.2,390.0,108.0,6.6,3,10,7,1,2026-05-10T00:46:30.074382+05:30
Nainital,Uttarakhand,29.3919,79.4542,11.9,86,0.0,804.6,8.1,32.8,72,46.9,34.5,23.0,294.0,63.0,4.5,3,10,7,0,2026-05-10T00:46:30.074389+05:30
Mussoorie,Uttarakhand,30.4599,78.0664,12.3,87,0.0,801.8,7.95,39.2,109,67.5,44.7,30.5,304.0,75.0,13.2,3,10,7,0,2026-05-10T00:46:30.074396+05:30
Dharamshala,Himachal Pradesh,32.219,76.3234,19.1,67,0.0,869.0,7.7,35.6,104,51.5,27.1,12.9,297.0,88.0,2.3,3,5,7,0,2026-05-10T00:46:30.074403+05:30
Dalhousie,Himachal Pradesh,32.5387,75.971,10.5,92,0.0,801.9,7.95,35.3,118,80.6,51.6,32.6,583.0,63.0,4.8,3,10,7,0,2026-05-10T00:46:30.074410+05:30
Patiala,Punjab,30.3398,76.3869,24.6,64,0.0,977.8,7.6,34.9,255,512.2,84.1,9.9,453.0,109.0,9.3,3,5,7,1,2026-05-10T00:46:30.074417+05:30
Bhatinda,Punjab,30.211,74.9455,28.1,46,0.0,983.1,8.25,29.2,338,423.8,97.8,12.1,495.0,91.0,12.3,4,5,7,0,2026-05-10T00:46:30.074425+05:30
Rohtak,Haryana,28.8955,76.6066,25.6,62,0.0,981.4,7.7,29.9,295,504.8,89.2,22.3,551.0,100.0,27.3,7,5,7,1,2026-05-10T00:46:30.074432+05:30
Panipat,Haryana,29.3909,76.9635,24.6,65,0.0,980.2,7.55,31.0,622,789.8,106.6,13.5,437.0,107.0,15.0,3,5,7,1,2026-05-10T00:46:30.074438+05:30
Mathura,Uttar Pradesh,27.4924,77.6737,25.7,60,0.0,986.5,7.9,22.0,727,804.7,112.7,8.5,403.0,106.0,10.7,4,5,7,1,2026-05-10T00:46:30.074445+05:30
Vrindavan,Uttar Pradesh,27.5823,77.7027,25.9,59,0.0,987.0,7.9,22.3,727,804.7,112.7,8.5,436.0,106.0,10.7,4,5,7,1,2026-05-10T00:46:30.074452+05:30
Ayodhya,Uttar Pradesh,26.7922,82.1998,24.5,62,0.0,995.9,8.2,32.0,115,87.3,69.2,40.5,445.0,57.0,13.6,3,5,7,1,2026-05-10T00:46:30.074458+05:30
Ratlam,Madhya Pradesh,23.3315,75.0367,30.1,23,0.0,953.0,8.5,43.6,50,26.6,17.4,5.1,296.0,76.0,4.5,0,5,7,0,2026-05-10T00:46:30.074465+05:30
Sagar,Madhya Pradesh,23.8388,78.7378,25.9,42,0.0,948.6,8.65,35.3,110,39.3,26.3,5.7,310.0,121.0,7.5,4,5,7,0,2026-05-10T00:46:30.074471+05:30
Satna,Madhya Pradesh,24.6005,80.8322,25.6,51,0.0,970.3,8.65,28.4,157,50.9,41.0,8.7,389.0,132.0,14.4,4,5,7,0,2026-05-10T00:46:30.074478+05:30
Akola,Maharashtra,20.7002,77.0082,29.9,32,0.0,973.1,8.9,39.6,82,78.2,39.3,28.7,263.0,62.0,13.6,4,5,7,0,2026-05-10T00:46:30.074486+05:30
Amravati,Maharashtra,20.9374,77.7796,29.5,33,0.0,965.7,8.85,38.2,82,71.9,37.7,27.9,285.0,60.0,10.2,4,5,7,0,2026-05-10T00:46:30.074493+05:30
Latur,Maharashtra,18.4088,76.5604,28.8,32,0.0,938.5,9.1,37.4,92,42.7,29.2,11.8,281.0,90.0,7.3,4,5,7,0,2026-05-10T00:46:30.074500+05:30
Nanded,Maharashtra,19.1383,77.3091,29.3,39,0.0,966.9,9.0,31.0,88,62.2,36.4,15.8,356.0,92.0,5.7,4,5,7,0,2026-05-10T00:46:30.074506+05:30
Gulbarga,Karnataka,17.3297,76.8343,29.2,41,0.0,957.9,9.1,35.3,81,20.5,17.2,15.2,320.0,83.0,5.9,4,5,7,0,2026-05-10T00:46:30.074513+05:30
Bidar,Karnataka,17.9104,77.5199,27.2,49,0.0,934.8,9.15,34.9,62,26.7,23.3,20.0,342.0,68.0,6.2,4,5,7,0,2026-05-10T00:46:30.074519+05:30
Hospet,Karnataka,15.2689,76.3909,27.4,45,0.0,954.8,9.2,39.2,52,16.7,14.5,16.3,277.0,59.0,7.5,4,5,7,0,2026-05-10T00:46:30.074526+05:30
Tirupur,Tamil Nadu,11.1085,77.3411,24.0,94,0.0,974.0,7.0,28.1,71,19.2,18.7,21.2,274.0,43.0,6.1,3,5,7,1,2026-05-10T00:46:30.074532+05:30
Alappuzha,Kerala,9.4981,76.3388,26.5,93,0.0,1006.4,7.55,30.2,61,19.9,19.1,14.3,389.0,70.0,4.8,7,5,4,1,2026-05-10T00:46:30.074539+05:30
Munnar,Kerala,10.0889,77.0595,17.0,97,0.0,853.8,5.4,22.7,42,3.5,3.4,10.9,194.0,40.0,1.9,3,10,3,1,2026-05-10T00:46:30.074546+05:30
Silchar,Assam,24.8333,92.7789,23.0,94,0.0,1005.9,8.1,15.8,125,85.0,66.4,26.8,758.0,32.0,10.0,3,5,4,1,2026-05-10T00:46:30.074552+05:30
Dibrugarh,Assam,27.4728,94.912,23.9,88,0.0,996.4,8.75,45.4,103,53.9,48.4,35.4,625.0,16.0,2.9,3,5,7,1,2026-05-10T00:46:30.074558+05:30
