city,state,latitude,longitude,temp,humidity,rain,pressure,uv_index,wind_gusts,aqi,pm10,pm2_5,no2,co,o3,so2,mosquito_risk,arthritis_risk,migraine_risk,frizz_risk,updated_at
Delhi,Delhi,28.6139,77.209,30.6,78,0.0,977.2,6.85,30.2,314,685.5,151.8,46.0,393.0,58.0,22.6,3,5,7,1,2026-07-19T20:28:16.916016+05:30
Mumbai,Maharashtra,19.076,72.8777,25.9,91,0.2,1006.2,5.1,43.2,60,22.8,11.1,7.9,258.0,46.0,5.6,10,5,0,1,2026-07-19T20:28:16.916071+05:30
Bangalore,Karnataka,12.9716,77.5946,21.7,92,0.1,911.2,7.25,43.6,51,18.5,12.6,16.4,428.0,45.0,5.0,6,5,7,1,2026-07-19T20:28:16.916087+05:30
Hyderabad,Telangana,17.385,78.4867,25.2,83,0.2,951.7,3.5,42.1,35,20.7,13.0,6.5,277.0,67.0,3.8,10,5,3,1,2026-07-19T20:28:16.916097+05:30
Chennai,Tamil Nadu,13.0827,80.2707,29.0,78,0.0,1005.0,7.5,42.8,77,31.4,22.2,14.7,226.0,82.0,9.7,7,5,4,1,2026-07-19T20:28:16.916107+05:30
Kolkata,West Bengal,22.5726,88.3639,28.1,89,0.0,1002.7,7.05,32.4,61,21.5,17.8,7.3,346.0,72.0,6.3,7,5,4,1,2026-07-19T20:28:16.916116+05:30
Pune,Maharashtra,18.5204,73.8567,23.7,86,0.0,946.0,3.5,46.8,23,3.6,3.1,7.9,148.0,36.0,4.5,3,5,3,1,2026-07-19T20:28:16.916125+05:30
Ahmedabad,Gujarat,23.0225,72.5714,29.3,78,0.0,996.8,6.65,32.4,64,28.2,15.9,9.8,184.0,64.0,6.6,7,5,7,1,2026-07-19T20:28:16.916135+05:30
Jaipur,Rajasthan,26.9124,75.7873,29.2,74,0.0,954.9,7.95,34.6,125,44.5,24.6,11.1,154.0,73.0,5.4,7,5,7,1,2026-07-19T20:28:16.916144+05:30
Lucknow,Uttar Pradesh,26.8467,80.9462,28.1,91,0.0,989.2,5.6,24.5,151,99.0,56.6,21.7,437.0,68.0,10.6,7,5,3,1,2026-07-19T20:28:16.916156+05:30
Kanpur,Uttar Pradesh,26.4499,80.3319,28.5,90,0.1,987.4,6.25,24.1,153,78.0,41.8,18.1,374.0,57.0,7.5,10,5,7,1,2026-07-19T20:28:16.916165+05:30
Chandigarh,Chandigarh,30.7333,76.7794,28.2,89,0.0,962.9,5.85,27.7,155,92.0,46.6,30.3,466.0,68.0,10.8,7,5,3,1,2026-07-19T20:28:16.916173+05:30
Srinagar,Jammu and Kashmir,34.0837,74.7973,26.3,72,0.0,838.1,9.05,31.0,107,14.6,12.9,13.2,515.0,93.0,3.6,7,5,7,1,2026-07-19T20:28:16.916181+05:30
Jammu,Jammu and Kashmir,32.7266,74.857,29.8,80,0.0,966.1,6.55,28.4,144,139.7,59.3,14.3,364.0,97.0,6.8,7,5,7,1,2026-07-19T20:28:16.916188+05:30
Amritsar,Punjab,31.634,74.8723,31.5,83,0.0,973.6,7.8,32.0,173,161.1,88.5,13.6,411.0,107.0,8.6,3,5,7,1,2026-07-19T20:28:16.916196+05:30
Ludhiana,Punjab,30.901,75.8573,32.5,74,0.0,971.7,7.4,27.7,182,155.5,84.5,21.7,418.0,83.0,17.0,3,5,7,1,2026-07-19T20:28:16.916203+05:30
Jalandhar,Punjab,31.326,75.5762,31.7,74,0.0,972.7,3.85,29.5,173,144.4,75.9,17.7,476.0,91.0,18.0,3,5,3,1,2026-07-19T20:28:16.916212+05:30
Dehradun,Uttarakhand,30.6284,78.0322,19.8,100,0.0,827.7,5.1,26.6,64,42.8,18.8,8.2,251.0,86.0,2.8,3,10,3,1,2026-07-19T20:28:16.916220+05:30
Shimla,Himachal Pradesh,31.1048,77.1734,17.2,96,0.0,782.4,3.8,42.1,77,32.2,15.1,9.2,270.0,78.0,1.7,3,10,3,1,2026-07-19T20:28:16.916228+05:30
Manali,Himachal Pradesh,32.2396,77.1887,20.9,96,0.0,817.5,5.15,32.0,55,5.7,4.7,15.1,199.0,84.0,0.9,3,5,3,1,2026-07-19T20:28:16.916237+05:30
Gurgaon,Haryana,28.4595,77.0266,30.3,79,0.0,975.8,7.0,28.4,263,369.7,103.1,41.4,468.0,46.0,14.6,3,5,7,1,2026-07-19T20:28:16.916244+05:30
Noida,Uttar Pradesh,28.5355,77.391,30.0,84,0.0,978.8,5.3,25.6,263,369.7,103.1,41.4,439.0,46.0,14.6,7,5,3,1,2026-07-19T20:28:16.916253+05:30
Ghaziabad,Uttar Pradesh,28.6692,77.4538,29.4,91,0.0,977.0,6.35,25.2,224,425.6,133.6,30.9,435.0,99.0,19.7,7,5,7,1,2026-07-19T20:28:16.916260+05:30
Faridabad,Haryana,28.4089,77.3178,30.3,78,0.0,978.1,6.05,30.2,263,369.7,103.1,41.4,417.0,46.0,14.6,3,5,7,1,2026-07-19T20:28:16.916268+05:30
Meerut,Uttar Pradesh,28.9845,77.7064,28.7,94,0.0,975.9,6.5,41.4,224,425.6,133.6,30.9,426.0,99.0,19.7,7,5,7,1,2026-07-19T20:28:16.916275+05:30
Agra,Uttar Pradesh,27.1767,78.0081,29.3,89,0.0,982.8,3.55,36.0,168,109.2,56.7,34.4,249.0,50.0,10.4,7,5,3,1,2026-07-19T20:28:16.916282+05:30
Varanasi,Uttar Pradesh,25.3176,82.9739,28.5,90,0.1,993.2,6.85,20.9,115,45.4,38.2,17.6,770.0,85.0,11.5,10,5,7,1,2026-07-19T20:28:16.916289+05:30
Prayagraj,Uttar Pradesh,25.4358,81.8463,28.7,87,0.0,991.7,5.8,19.8,128,62.4,46.0,21.2,341.0,63.0,11.0,7,5,3,1,2026-07-19T20:28:16.916297+05:30
Gorakhpur,Uttar Pradesh,26.7606,83.3732,27.2,93,0.1,993.3,7.1,25.9,72,22.6,22.6,12.6,477.0,94.0,6.6,10,5,7,1,2026-07-19T20:28:16.916304+05:30
Bareilly,Uttar Pradesh,28.367,79.4304,26.6,97,0.3,981.9,5.25,31.7,149,57.9,41.3,14.8,464.0,78.0,9.2,10,5,3,1,2026-07-19T20:28:16.916313+05:30
Aligarh,Uttar Pradesh,27.8974,78.088,28.8,87,0.0,980.1,6.4,28.4,188,296.2,91.0,25.4,342.0,80.0,11.4,7,5,7,1,2026-07-19T20:28:16.916320+05:30
Moradabad,Uttar Pradesh,28.8386,78.7733,27.1,95,0.0,978.6,2.35,34.6,159,78.2,45.8,12.6,435.0,95.0,11.9,7,5,3,1,2026-07-19T20:28:16.916327+05:30
Saharanpur,Uttar Pradesh,29.9637,77.546,27.1,96,0.0,970.3,6.5,33.1,178,191.9,87.5,11.6,424.0,117.0,15.3,7,5,7,1,2026-07-19T20:28:16.916333+05:30
Jhansi,Uttar Pradesh,25.4484,78.5685,27.6,97,0.1,973.9,6.9,31.0,88,32.1,23.7,9.9,164.0,73.0,10.1,10,5,7,1,2026-07-19T20:28:20.305893+05:30
Surat,Gujarat,21.1702,72.8311,28.5,80,0.0,1002.6,7.45,43.2,70,20.3,14.4,17.3,235.0,32.0,29.8,7,5,4,1,2026-07-19T20:28:20.305925+05:30
Vadodara,Gujarat,22.3072,73.1812,29.0,79,0.0,999.6,6.1,31.3,65,23.5,16.6,12.9,143.0,57.0,16.4,7,5,7,1,2026-07-19T20:28:20.305936+05:30
Rajkot,Gujarat,22.3039,70.8022,29.9,67,0.0,988.5,6.0,45.4,60,24.0,12.9,5.3,108.0,49.0,4.8,7,5,3,1,2026-07-19T20:28:20.305946+05:30
Thane,Maharashtra,19.2183,72.9781,25.1,97,0.1,1005.6,5.5,38.9,60,22.8,11.1,7.9,227.0,46.0,5.6,10,5,0,1,2026-07-19T20:28:20.305955+05:30
Nagpur,Maharashtra,21.1458,79.0882,26.4,94,0.0,970.3,5.35,31.3,61,24.0,18.6,21.2,433.0,43.0,14.7,7,5,3,1,2026-07-19T20:28:20.305964+05:30
Nashik,Maharashtra,19.9975,73.7898,22.9,95,0.0,942.6,4.65,36.7,25,2.2,1.7,7.3,138.0,41.0,3.4,3,5,3,1,2026-07-19T20:28:20.305973+05:30
Aurangabad,Maharashtra,19.8762,75.3433,23.5,96,0.1,941.6,6.5,40.7,35,10.9,8.0,6.8,160.0,56.0,8.4,6,5,7,1,2026-07-19T20:28:20.305981+05:30
Solapur,Maharashtra,17.6599,75.9064,25.0,92,0.0,955.8,3.05,48.6,39,14.1,8.6,4.6,141.0,49.0,1.9,7,5,3,1,2026-07-19T20:28:20.305989+05:30
Kolhapur,Maharashtra,16.705,74.2433,22.8,92,0.0,947.1,8.0,48.2,28,6.9,5.0,5.3,142.0,38.0,2.2,3,5,7,1,2026-07-19T20:28:20.306019+05:30
Goa,Goa,15.2993,74.124,24.4,98,0.0,998.6,6.5,25.6,63,25.3,13.4,3.6,360.0,44.0,1.3,3,5,7,1,2026-07-19T20:28:20.306027+05:30
Jodhpur,Rajasthan,26.2389,73.0243,33.6,45,0.0,976.3,7.65,42.1,98,114.8,27.2,4.6,123.0,69.0,1.9,0,5,7,1,2026-07-19T20:28:20.306035+05:30
Udaipur,Rajasthan,24.5854,73.7125,28.1,65,0.0,941.4,6.25,29.9,64,31.3,17.4,4.0,118.0,83.0,4.7,7,5,7,1,2026-07-19T20:28:20.306043+05:30
Kota,Rajasthan,25.2138,75.8648,30.9,60,0.0,973.8,7.65,28.1,77,40.9,26.3,11.0,140.0,85.0,8.7,0,5,7,1,2026-07-19T20:28:20.306051+05:30
Bikaner,Rajasthan,28.0229,73.3119,35.8,38,0.0,974.6,8.05,35.3,121,102.4,29.1,1.6,112.0,74.0,2.2,0,5,10,1,2026-07-19T20:28:20.306059+05:30
Ajmer,Rajasthan,26.4499,74.6399,31.1,60,0.0,949.4,8.15,43.6,73,27.8,17.2,7.2,141.0,75.0,3.2,0,5,7,1,2026-07-19T20:28:20.306067+05:30
Gwalior,Madhya Pradesh,26.2183,78.1828,28.1,90,0.0,978.8,6.7,32.0,102,43.7,28.1,10.1,218.0,69.0,4.8,7,5,7,1,2026-07-19T20:28:20.306075+05:30
Indore,Madhya Pradesh,22.7196,75.8577,26.7,85,0.0,944.5,7.95,43.6,63,24.3,17.9,9.5,221.0,69.0,5.3,7,5,7,1,2026-07-19T20:28:20.306083+05:30
Bhopal,Madhya Pradesh,23.2599,77.4126,27.3,86,0.0,950.0,7.9,29.2,71,20.1,16.0,8.5,354.0,62.0,3.8,7,5,7,1,2026-07-19T20:28:20.306091+05:30
Jabalpur,Madhya Pradesh,23.1815,79.9864,26.0,98,0.0,957.9,7.95,31.3,85,38.0,26.6,8.1,265.0,78.0,4.0,7,5,7,1,2026-07-19T20:28:20.306098+05:30
Ujjain,Madhya Pradesh,23.1765,75.7885,26.6,86,0.0,949.8,7.5,31.7,63,23.9,16.6,5.8,220.0,71.0,3.4,7,5,7,1,2026-07-19T20:28:20.306107+05:30
Visakhapatnam,Andhra Pradesh,17.6868,83.2185,29.0,86,0.0,999.7,8.4,35.3,98,24.7,21.0,20.2,332.0,80.0,33.1,7,5,7,1,2026-07-19T20:28:20.306114+05:30
Vijayawada,Andhra Pradesh,16.5062,80.648,29.6,79,0.0,999.6,8.35,37.8,62,18.7,16.4,14.1,306.0,53.0,5.9,7,5,7,1,2026-07-19T20:28:20.306122+05:30
Guntur,Andhra Pradesh,16.3067,80.4365,30.9,66,0.0,1000.9,7.8,40.3,56,18.4,16.0,14.8,339.0,48.0,5.5,3,5,4,1,2026-07-19T20:28:20.306130+05:30
Nellore,Andhra Pradesh,14.4426,79.9865,29.3,74,0.0,1003.4,7.55,38.2,59,35.7,23.7,7.0,180.0,86.0,4.6,7,5,4,1,2026-07-19T20:28:20.306138+05:30
Kurnool,Andhra Pradesh,15.8281,78.0373,24.6,92,0.3,976.4,8.1,43.9,41,39.1,19.2,5.2,148.0,64.0,4.9,6,5,7,1,2026-07-19T20:28:20.306147+05:30
Kakinada,Andhra Pradesh,16.9891,82.2475,30.5,72,0.0,1003.7,8.85,45.0,69,17.9,14.2,4.7,272.0,98.0,4.0,3,5,4,1,2026-07-19T20:28:20.306155+05:30
Tirupati,Andhra Pradesh,13.6288,79.4192,27.3,81,0.0,989.4,7.85,32.0,64,29.1,18.9,20.7,257.0,29.0,3.1,7,5,7,1,2026-07-19T20:28:20.306163+05:30
Warangal,Telangana,17.9689,79.5941,26.3,91,0.2,976.3,7.15,38.9,53,21.9,16.5,9.3,198.0,57.0,4.2,10,5,7,1,2026-07-19T20:28:20.306170+05:30
Nizamabad,Telangana,18.6725,78.0941,25.3,92,0.0,962.7,0.9,37.8,54,25.9,14.2,3.6,213.0,76.0,4.7,7,5,3,1,2026-07-19T20:28:20.306178+05:30
Mysore,Karnataka,12.2958,76.6396,22.5,87,0.0,928.7,6.8,45.7,39,13.6,8.6,5.5,137.0,51.0,2.0,3,5,7,1,2026-07-19T20:28:20.306185+05:30
Mangalore,Karnataka,12.9141,74.856,25.2,95,0.0,1008.2,8.25,31.0,57,19.8,10.0,4.4,122.0,40.0,1.8,7,0,4,1,2026-07-19T20:28:20.306192+05:30
Hubli-Dharwad,Karnataka,15.3647,75.124,23.0,90,0.0,940.5,7.5,54.0,25,5.6,3.8,5.1,119.0,40.0,1.4,3,5,7,1,2026-07-19T20:28:20.306200+05:30
Belgaum,Karnataka,15.8497,74.4977,21.7,95,0.0,925.1,7.75,53.6,22,3.2,2.5,4.8,119.0,38.0,1.5,3,5,7,1,2026-07-19T20:28:23.685013+05:30
Coimbatore,Tamil Nadu,11.0168,76.9558,24.5,88,0.0,961.7,7.9,45.7,45,8.0,6.1,4.8,169.0,48.0,2.6,3,5,7,1,2026-07-19T20:28:23.685049+05:30
Madurai,Tamil Nadu,9.9252,78.1198,30.4,64,0.0,992.6,7.95,38.9,71,29.4,16.9,8.2,135.0,79.0,4.1,3,5,7,1,2026-07-19T20:28:23.685061+05:30
Trichy,Tamil Nadu,10.7905,78.7047,28.7,74,0.1,999.3,8.4,42.8,53,24.6,15.1,6.1,124.0,75.0,3.3,10,5,7,1,2026-07-19T20:28:23.685070+05:30
Salem,Tamil Nadu,11.6643,78.146,27.0,86,0.1,976.9,6.3,38.2,63,18.8,11.9,11.4,383.0,58.0,4.9,10,5,7,1,2026-07-19T20:28:23.685079+05:30
Tirunelveli,Tamil Nadu,8.7139,77.7567,30.5,57,0.0,1003.3,8.5,49.0,36,14.4,8.0,3.7,122.0,53.0,1.9,0,5,4,1,2026-07-19T20:28:23.685088+05:30
Vellore,Tamil Nadu,12.9165,79.1325,29.1,70,0.1,982.9,7.15,36.7,67,32.5,22.1,18.3,153.0,43.0,4.2,10,5,7,1,2026-07-19T20:28:23.685097+05:30
Erode,Tamil Nadu,11.341,77.7172,28.2,72,0.0,988.9,7.35,37.8,54,15.3,10.8,10.5,159.0,49.0,3.0,7,5,7,1,2026-07-19T20:28:23.685105+05:30
Kochi,Kerala,9.9312,76.2673,25.7,93,0.1,1010.5,8.4,32.0,55,17.1,13.0,13.8,136.0,31.0,4.8,10,0,4,1,2026-07-19T20:28:23.685114+05:30
Thiruvananthapuram,Kerala,8.5241,76.9366,25.7,92,0.1,1009.8,7.95,42.1,50,14.3,7.9,3.1,117.0,54.0,1.2,10,0,4,1,2026-07-19T20:28:23.685122+05:30
Kozhikode,Kerala,11.2588,75.7804,25.1,96,0.1,1009.5,8.0,33.1,42,13.8,6.4,1.1,182.0,51.0,0.9,10,0,4,1,2026-07-19T20:28:23.685129+05:30
Thrissur,Kerala,10.5276,76.2144,24.8,95,0.0,1008.8,8.15,32.8,53,13.6,10.3,8.0,175.0,35.0,3.0,3,0,4,1,2026-07-19T20:28:23.685138+05:30
Kannur,Kerala,11.8745,75.3704,25.0,97,0.0,1008.7,8.0,31.0,51,15.6,8.9,6.6,161.0,35.0,1.9,7,0,4,1,2026-07-19T20:28:23.685146+05:30
Patna,Bihar,25.5941,85.1376,27.4,95,0.1,996.4,7.35,28.8,82,31.7,31.5,18.7,474.0,81.0,12.5,10,5,7,1,2026-07-19T20:28:23.685153+05:30
Gaya,Bihar,24.7914,85.0002,28.2,91,0.0,989.6,8.45,24.8,75,20.1,19.7,12.0,396.0,82.0,7.9,7,5,7,1,2026-07-19T20:28:23.685161+05:30
Muzaffarpur,Bihar,26.1209,85.3647,27.5,94,0.1,996.6,7.0,28.4,72,33.2,32.9,17.4,378.0,82.0,11.1,10,5,7,1,2026-07-19T20:28:23.685168+05:30
Bhagalpur,Bihar,25.2425,87.0117,27.2,96,0.2,997.5,7.55,27.0,77,27.1,26.5,13.7,295.0,86.0,10.7,10,5,7,1,2026-07-19T20:28:23.685176+05:30
Ranchi,Jharkhand,23.3441,85.3096,23.9,96,0.0,934.0,8.1,24.8,75,24.8,22.2,8.3,265.0,95.0,9.3,3,5,7,1,2026-07-19T20:28:23.685184+05:30
Jamshedpur,Jharkhand,22.8046,86.2029,26.4,97,0.0,987.3,8.2,29.9,99,23.5,22.9,12.3,362.0,78.0,15.2,7,5,7,1,2026-07-19T20:28:23.685191+05:30
Dhanbad,Jharkhand,23.7957,86.4304,26.1,95,0.0,976.5,7.8,27.7,150,49.8,49.2,45.8,413.0,54.0,94.5,7,5,7,1,2026-07-19T20:28:23.685199+05:30
Bokaro,Jharkhand,23.6693,86.1511,26.7,96,0.0,980.1,8.3,28.1,151,49.2,48.7,42.3,815.0,63.0,98.7,7,5,7,1,2026-07-19T20:28:23.685207+05:30
Bhubaneswar,Odisha,20.2961,85.8245,27.6,94,0.0,999.1,8.3,31.0,79,40.7,34.2,11.1,387.0,103.0,7.4,7,5,7,1,2026-07-19T20:28:23.685215+05:30
Cuttack,Odisha,20.4625,85.8828,27.1,97,0.0,1000.8,8.65,34.9,79,40.7,34.2,11.1,393.0,103.0,7.4,7,5,4,1,2026-07-19T20:28:23.685222+05:30
Rourkela,Odisha,22.2604,84.8536,26.4,95,0.1,981.3,7.4,29.2,109,39.8,33.3,10.4,296.0,111.0,19.3,10,5,7,1,2026-07-19T20:28:23.685230+05:30
Raipur,Chhattisgarh,21.2514,81.6296,26.2,96,0.1,971.2,7.85,29.5,92,42.3,35.2,34.5,283.0,59.0,52.8,10,5,7,1,2026-07-19T20:28:23.685238+05:30
Bhilai,Chhattisgarh,21.1938,81.3509,26.1,95,0.0,971.8,5.4,36.4,84,36.4,29.9,27.7,574.0,68.0,44.3,7,5,3,1,2026-07-19T20:28:23.685245+05:30
Guwahati,Assam,26.1158,91.7086,25.5,99,0.1,999.9,2.65,28.8,61,14.3,13.9,8.3,356.0,48.0,2.7,10,5,3,1,2026-07-19T20:28:23.685253+05:30
Agartala,Tripura,23.8315,91.2868,25.4,96,0.1,1005.3,7.95,45.0,56,10.9,9.5,7.9,155.0,48.0,2.3,10,5,4,1,2026-07-19T20:28:23.685261+05:30
Shillong,Meghalaya,25.5788,91.8933,20.0,97,0.0,856.4,2.1,33.5,29,2.3,2.2,6.2,208.0,56.0,2.1,3,5,3,1,2026-07-19T20:28:23.685268+05:30
Imphal,Manipur,24.817,93.9368,22.5,98,0.3,922.8,1.15,22.3,54,9.8,8.6,9.9,380.0,31.0,2.0,6,5,3,1,2026-07-19T20:28:23.685276+05:30
Aizawl,Mizoram,23.7271,92.7176,20.6,85,0.1,892.2,3.15,41.0,38,17.8,11.3,4.5,128.0,33.0,0.8,6,5,3,1,2026-07-19T20:28:23.685284+05:30
Kohima,Nagaland,25.6701,94.1077,20.6,92,0.2,855.0,1.9,18.4,31,3.8,3.7,6.3,273.0,37.0,0.5,6,5,3,1,2026-07-19T20:28:23.685292+05:30
Gangtok,Sikkim,27.3314,88.6138,19.2,99,0.0,837.7,3.4,27.4,33,3.4,3.4,5.4,216.0,73.0,1.0,3,10,3,1,2026-07-19T20:28:23.685299+05:30
Siliguri,West Bengal,26.7271,88.3953,24.9,98,0.3,991.0,3.4,24.5,54,12.8,12.5,9.7,343.0,71.0,3.2,6,5,3,1,2026-07-19T20:28:27.063672+05:30
Durgapur,West Bengal,23.5204,87.3119,27.3,94,0.0,991.6,7.3,31.0,114,42.4,41.6,26.6,277.0,63.0,30.1,7,5,7,1,2026-07-19T20:28:27.063706+05:30
Asansol,West Bengal,23.6739,86.9524,26.8,97,0.0,990.2,6.9,29.5,114,38.8,38.2,32.4,719.0,60.0,35.8,7,5,7,1,2026-07-19T20:28:27.063718+05:30
Pondicherry,Puducherry,11.9139,79.8145,29.3,82,0.0,1006.6,8.1,39.2,73,33.8,22.8,10.1,184.0,86.0,6.6,7,5,4,1,2026-07-19T20:28:27.063728+05:30
Port Blair,Andaman and Nicobar Islands,11.6234,92.7265,26.4,84,0.0,1008.8,8.75,37.4,54,21.4,11.2,0.2,94.0,42.0,0.4,7,0,4,1,2026-07-19T20:28:27.063738+05:30
Haridwar,Uttarakhand,29.9457,78.1642,26.5,97,0.0,968.8,7.1,30.2,163,157.9,71.0,6.8,417.0,111.0,11.6,7,5,7,1,2026-07-19T20:28:27.063747+05:30
Rishikesh,Uttarakhand,30.0869,78.2676,26.1,97,0.0,961.6,5.7,25.9,152,142.0,50.3,4.7,345.0,102.0,7.5,7,5,3,1,2026-07-19T20:28:27.063757+05:30
Nainital,Uttarakhand,29.3919,79.4542,17.9,99,0.1,803.7,3.9,25.6,73,24.0,13.5,7.6,221.0,93.0,3.3,6,10,3,1,2026-07-19T20:28:27.063766+05:30
Mussoorie,Uttarakhand,30.4599,78.0664,18.4,100,0.3,800.8,2.75,30.2,115,140.2,58.0,15.6,282.0,93.0,10.2,6,10,3,1,2026-07-19T20:28:27.063775+05:30
Dharamshala,Himachal Pradesh,32.219,76.3234,22.6,99,0.0,865.8,3.95,26.3,43,20.6,9.4,5.8,306.0,81.0,1.2,3,5,3,1,2026-07-19T20:28:27.063784+05:30
Dalhousie,Himachal Pradesh,32.5387,75.971,19.5,98,0.1,802.9,6.45,21.6,89,97.6,35.5,11.3,399.0,84.0,3.4,6,10,7,1,2026-07-19T20:28:27.063794+05:30
Patiala,Punjab,30.3398,76.3869,30.3,87,0.0,971.7,6.45,27.4,234,184.9,92.4,23.7,433.0,91.0,13.0,3,5,7,1,2026-07-19T20:28:27.063803+05:30
Bhatinda,Punjab,30.211,74.9455,35.5,47,0.0,976.2,7.1,28.8,185,235.6,92.9,29.7,194.0,63.0,9.5,0,5,10,1,2026-07-19T20:28:27.063812+05:30
Rohtak,Haryana,28.8955,76.6066,31.0,78,0.0,975.5,6.5,30.6,511,519.7,124.8,51.6,310.0,41.0,11.5,3,5,7,1,2026-07-19T20:28:27.063821+05:30
Panipat,Haryana,29.3909,76.9635,29.0,93,0.0,974.4,6.8,33.5,784,685.5,166.7,35.8,513.0,54.0,11.5,7,5,7,1,2026-07-19T20:28:27.063830+05:30
Mathura,Uttar Pradesh,27.4924,77.6737,29.7,78,0.0,981.4,2.65,33.8,225,231.9,72.4,36.4,433.0,40.0,5.6,7,5,3,1,2026-07-19T20:28:27.063839+05:30
Vrindavan,Uttar Pradesh,27.5823,77.7027,29.7,77,0.0,981.8,5.05,29.9,225,231.9,72.4,36.4,463.0,40.0,5.6,7,5,3,1,2026-07-19T20:28:27.063847+05:30
Ayodhya,Uttar Pradesh,26.7922,82.1998,28.4,88,0.0,991.0,7.8,21.6,75,22.1,21.5,16.6,574.0,77.0,5.6,7,5,7,1,2026-07-19T20:28:27.063856+05:30
Ratlam,Madhya Pradesh,23.3315,75.0367,27.4,79,0.1,950.4,6.95,33.1,60,26.1,16.8,5.2,146.0,71.0,3.3,10,5,7,1,2026-07-19T20:28:27.063864+05:30
Sagar,Madhya Pradesh,23.8388,78.7378,27.1,85,0.0,946.4,7.95,27.0,80,30.6,22.6,6.8,187.0,70.0,2.9,7,5,7,1,2026-07-19T20:28:27.063873+05:30
Satna,Madhya Pradesh,24.6005,80.8322,26.9,91,0.0,967.4,6.85,28.4,91,46.3,24.6,8.8,195.0,69.0,2.9,7,5,7,1,2026-07-19T20:28:27.063882+05:30
Akola,Maharashtra,20.7002,77.0082,27.9,80,0.0,972.1,7.5,37.8,52,13.0,9.3,6.1,142.0,63.0,5.9,7,5,7,1,2026-07-19T20:28:27.063892+05:30
Amravati,Maharashtra,20.9374,77.7796,27.7,80,0.0,964.2,7.0,40.7,54,17.7,11.7,6.2,165.0,66.0,7.5,7,5,7,1,2026-07-19T20:28:27.063902+05:30
Latur,Maharashtra,18.4088,76.5604,23.2,94,0.1,938.2,7.9,39.6,39,15.2,9.7,3.8,146.0,56.0,1.6,6,5,7,1,2026-07-19T20:28:27.063911+05:30
Nanded,Maharashtra,19.1383,77.3091,25.8,90,0.0,966.5,6.9,37.8,53,14.0,9.5,6.0,162.0,60.0,2.4,7,5,7,1,2026-07-19T20:28:27.063920+05:30
Gulbarga,Karnataka,17.3297,76.8343,23.5,96,0.3,957.6,8.2,40.7,34,15.8,9.4,5.9,126.0,55.0,2.2,6,5,7,1,2026-07-19T20:28:27.063928+05:30
Bidar,Karnataka,17.9104,77.5199,22.9,94,0.1,933.8,2.85,41.4,46,17.3,10.7,5.8,143.0,61.0,1.6,6,5,3,1,2026-07-19T20:28:27.063937+05:30
Hospet,Karnataka,15.2689,76.3909,25.2,79,0.0,955.4,7.0,46.1,36,13.0,8.1,4.3,120.0,45.0,1.7,7,5,7,1,2026-07-19T20:28:27.063945+05:30
Tirupur,Tamil Nadu,11.1085,77.3411,24.9,89,0.1,974.9,7.9,47.5,57,16.3,11.6,11.8,152.0,45.0,3.8,6,5,7,1,2026-07-19T20:28:27.063953+05:30
Alappuzha,Kerala,9.4981,76.3388,26.2,91,0.0,1010.6,8.1,36.7,52,15.9,9.8,7.7,88.0,44.0,2.8,7,0,4,1,2026-07-19T20:28:27.063962+05:30
Munnar,Kerala,10.0889,77.0595,16.8,100,0.1,857.2,6.35,36.0,31,7.7,5.6,4.3,113.0,43.0,1.7,6,10,7,1,2026-07-19T20:28:27.063971+05:30
Silchar,Assam,24.8333,92.7789,25.8,99,0.1,1004.4,2.95,27.7,62,19.2,14.8,7.1,259.0,51.0,4.4,10,5,0,1,2026-07-19T20:28:27.063979+05:30
Dibrugarh,Assam,27.4728,94.912,25.7,97,0.1,994.2,1.8,35.6,52,15.8,15.3,10.4,181.0,46.0,2.1,10,5,3,1,2026-07-19T20:28:27.063988+05:30
